timepoint,stationcode,longitude,latitude,area,positionname,primarypollutant,aqi,pm10,pm10_24h,pm2_5,pm2_5_24h,o3,o3_24h,o3_8h,o3_8h_24h,no2,no2_24h,so2,so2_24h,co,co_24h
2024-06-28T0900,2566A,102.1879,31.914,阿坝藏族羌族自治州,州农科所,颗粒物(PM10),83,115,38,18,13,26,,17,17,18,16,4,5,0,0
2024-06-28T0900,2568A,102.2502,31.8896,阿坝藏族羌族自治州,马师校,,33,,12,23,12,22,,10,10,14,15,4,5,0.5,0.4
2024-06-28T0900,3994A,102.2165,31.9024,阿坝藏族羌族自治州,马尔康中学西区,,24,24,20,12,10,22,,12,12,8,8,5,5,0.4,0.3
2024-06-28T0900,2695A,80.292,41.1694,阿克苏地区,电视台,颗粒物(PM10),64,77,185,28,55,74,,105,99,15,10,4,4,0.4,0.3
2024-06-28T0900,2696A,80.2613,41.1551,阿克苏地区,艺术中心,颗粒物(PM10),69,88,175,39,56,64,,95,89,25,21,4,4,0.5,0.5
2024-06-28T0900,2204A,105.6467,38.8363,阿拉善盟,西城区西花园,,45,45,35,11,14,9,,116,99,7,11,9,8,0.8,0.5
2024-06-28T0900,2205A,105.6985,38.8411,阿拉善盟,蒙二幼,颗粒物(PM10),54,58,36,22,11,98,,117,112,12,8,13,12,0.7,0.6
2024-06-28T0900,2206A,105.724,38.8516,阿拉善盟,环保局新楼,颗粒物(PM10),58,66,28,21,10,105,,126,121,11,8,12,12,0.5,0.4
2024-06-28T0900,2708A,88.1264,47.8517,阿勒泰地区,市站,,29,15,24,3,6,91,,87,87,11,9,6,6,0.4,0.4
2024-06-28T0900,2630A,80.1161,32.5,阿里地区,阿里监测站,,23,14,13,9,9,71,,84,80,32,14,7,7,0.5,0.5
2024-06-28T0900,3192A,80.0903,32.5028,阿里地区,阿里藏医院,,30,16,12,13,6,94,,117,113,11,4,8,8,0.5,0.5
2024-06-28T0900,2642A,109.0318,32.6537,安康市,香溪洞,颗粒物(PM10),51,52,47,23,22,89,,134,128,8,5,20,8,0.7,0.6
2024-06-28T0900,2643A,109.0281,32.6939,安康市,安康市监测站,颗粒物(PM10),55,59,47,23,19,100,,68,68,10,8,9,8,0.5,0.4
2024-06-28T0900,2644A,109.0072,32.6975,安康市,汉滨区检察院,,49,49,39,33,23,71,,45,45,11,8,15,8,0.5,0.4
2024-06-28T0900,2291A,117.0809,30.5177,安庆市,环科院,,16,16,10,6,4,12,,15,12,27,23,4,6,0.6,0.6
2024-06-28T0900,2292A,117.0331,30.5119,安庆市,马山宾馆,,19,12,8,3,3,9,,17,14,38,30,8,7,0.7,0.6
2024-06-28T0900,2294A,116.9896,30.6145,安庆市,安庆大学,,10,9,9,3,4,29,,40,37,17,14,7,7,0.6,0.6
2024-06-28T0900,3173A,117.0598,30.5351,安庆市,市人大,,17,,5,6,4,6,,20,18,33,20,6,5,0.5,0.4
2024-06-28T0900,3122A,105.9606,26.2611,安顺市,伍家关,,,,,,,,,,,,,,,,
2024-06-28T0900,3123A,105.9408,26.2431,安顺市,凤凰山,,12,8,6,7,5,37,,44,43,4,2,7,6,0.5,0.4
2024-06-28T0900,3124A,105.9439,26.2564,安顺市,金钟山,,12,8,7,6,3,37,,44,43,5,3,4,4,0.4,0.4
2024-06-28T0900,3125A,105.8983,26.2481,安顺市,娄家坡,,14,10,8,8,4,42,,52,50,2,2,4,4,0.6,0.5
2024-06-28T0900,1818A,114.4839,36.0621,安阳市,棉研所,,,,,,,,,,,,,,,,
2024-06-28T0900,1819A,114.3551,36.1017,安阳市,红庙街,细颗粒物(PM2.5),57,60,51,40,22,120,,,,16,7,7,4,0.4,0.5
2024-06-28T0900,1820A,114.361,36.0681,安阳市,银杏小区,,,96,63,,31,111,,88,88,10,14,8,9,0.6,0.5
2024-06-28T0900,3141A,114.3922,36.0878,安阳市,信访局,,,114,68,49,27,114,,102,101,,11,6,6,,0.7
2024-06-28T0900,3669A,114.4705,36.0637,安阳市,左辅环卫站,"颗粒物(PM10),细颗粒物(PM2.5)",72,93,67,52,33,116,,92,92,14,14,4,3,0.6,0.4
2024-06-28T0900,3703A,114.2917,36.0949,安阳市,安钢职工学校,颗粒物(PM10),85,119,67,50,30,116,,88,88,27,17,7,9,1.2,0.6
2024-06-28T0900,1748A,123.044,41.1196,鞍山市,深沟寺,,39,30,43,11,18,124,,133,132,12,13,8,8,0.6,0.5
2024-06-28T0900,1749A,123.011,41.0931,鞍山市,太阳城,,40,32,41,14,16,126,,132,132,13,14,11,12,0.8,0.8
2024-06-28T0900,1750A,123.0485,41.1442,鞍山市,太平,,38,34,49,13,21,121,,120,120,14,17,8,9,0.6,0.7
2024-06-28T0900,1751A,122.9642,41.0971,鞍山市,铁西三道街,颗粒物(PM10),53,56,55,21,20,124,,127,127,15,19,8,9,0.6,0.7
2024-06-28T0900,1752A,122.9341,41.0833,鞍山市,铁西工业园区,,47,47,51,22,22,125,,129,129,17,18,8,10,0.9,0.8
2024-06-28T0900,1753A,123.022,41.0821,鞍山市,明达新区,,37,30,38,13,16,117,,135,134,11,11,11,11,0.8,0.7
2024-06-28T0900,1754A,123.1289,41.0228,鞍山市,千山,,,,,,,,,,,,,,,,
2024-06-28T0900,2195A,107.4212,40.761,巴彦淖尔市,附二中,颗粒物(PM10),59,68,72,24,31,71,,97,90,21,16,7,8,0.8,0.5
2024-06-28T0900,2196A,107.37,40.7372,巴彦淖尔市,市环保大楼,颗粒物(PM10),55,60,74,11,22,81,,109,105,14,14,7,6,0.7,0.5
2024-06-28T0900,1956A,86.1472,41.7538,巴音郭楞蒙古自治州,孔雀公园,颗粒物(PM10),68,86,73,26,24,72,,100,100,16,20,3,3,0.3,0.3
2024-06-28T0900,1957A,86.1972,41.7166,巴音郭楞蒙古自治州,棉纺厂,颗粒物(PM10),57,64,83,20,28,81,,90,90,24,17,5,4,0.3,0.2
2024-06-28T0900,1958A,86.2357,41.7173,巴音郭楞蒙古自治州,经济开发区,,48,48,69,15,27,85,,100,99,16,7,3,3,0.3,0.2
2024-06-28T0900,2914A,106.7677,31.8794,巴中市,苏山坪,,31,31,26,20,16,20,,19,17,16,12,3,4,0.6,0.3
2024-06-28T0900,3182A,106.7656,31.8545,巴中市,丽阳花园,,36,34,28,25,18,25,,29,27,17,13,5,6,0.7,0.5
2024-06-28T0900,3183A,106.7418,31.8654,巴中市,圣泉水务公司,,32,32,25,21,17,18,,11,11,21,17,5,4,0.7,0.5
2024-06-28T0900,3616A,106.7616,31.8344,巴中市,市中心医院,,32,29,24,22,17,32,,30,29,12,9,6,6,0.6,0.5
2024-06-28T0900,2235A,122.7911,45.6077,白城市,洮北区环保局,"颗粒物(PM10),细颗粒物(PM2.5)",58,65,47,41,28,0,,0,0,14,14,7,6,0.7,0.4
2024-06-28T0900,2236A,122.8738,45.5725,白城市,市环保局,颗粒物(PM10),57,63,47,33,24,136,,128,126,12,11,8,6,0.6,0.4
2024-06-28T0900,2231A,126.4219,41.9171,白山市,喜丰,颗粒物(PM10),56,61,53,22,18,77,,26,26,32,18,13,11,1.3,1.2
2024-06-28T0900,2232A,126.4077,41.9419,白山市,环保局,颗粒物(PM10),52,54,46,27,19,83,,34,34,21,12,11,9,1.0,0.9
2024-06-28T0900,2647A,104.1724,36.5446,白银市,第三小学,,38,38,27,17,13,76,,73,73,22,15,20,24,0.7,0.7
2024-06-28T0900,2648A,104.1465,36.5482,白银市,动力公司,,,33,23,13,11,,,84,83,15,10,,27,0.6,0.7
2024-06-28T0900,2512A,106.6103,23.9011,百色市,市监测站,,43,43,26,14,11,23,,18,18,12,11,21,13,0.9,0.8
2024-06-28T0900,2513A,106.6538,23.8859,百色市,市中心血站,,,,23,,11,,,28,27,12,10,16,10,0.8,0.8
2024-06-28T0900,3406A,106.6085,23.8798,百色市,祈福高中,,42,42,29,18,15,18,,16,16,16,14,24,17,0.8,0.7
2024-06-28T0900,2270A,117.396,32.939,蚌埠市,工人疗养院,,,,40,,16,43,,61,57,8,4,10,8,0.6,0.5
2024-06-28T0900,2271A,117.3605,32.9427,蚌埠市,百货大楼,,42,42,43,21,23,55,,61,58,12,6,7,6,0.5,0.5
2024-06-28T0900,2273A,117.4185,32.8911,蚌埠市,蚌埠学院,,18,17,29,6,15,57,,57,55,5,5,6,5,0.5,0.5
2024-06-28T0900,2274A,117.3533,32.9673,蚌埠市,淮上区政府,,29,29,36,18,25,59,,61,60,9,5,7,6,0.6,0.5
2024-06-28T0900,2275A,117.3145,32.8977,蚌埠市,高新区,,29,29,39,15,21,58,,54,52,10,8,7,7,0.6,0.6
2024-06-28T0900,3715A,117.3092,32.9314,蚌埠市,蚌埠田家炳中学,,34,34,44,12,20,56,,53,51,9,6,9,10,0.4,0.5
2024-06-28T0900,1585A,109.8756,40.6532,包头市,市环境监测站,颗粒物(PM10),63,75,60,34,29,102,,83,83,28,29,11,13,0.5,0.5
2024-06-28T0900,1587A,109.9991,40.5842,包头市,包头八中,颗粒物(PM10),64,77,60,30,25,102,,102,99,26,22,15,15,0.7,0.6
2024-06-28T0900,1588A,109.8538,40.6821,包头市,青山宾馆,颗粒物(PM10),58,66,62,21,31,105,,68,68,29,28,15,18,0.7,0.6
2024-06-28T0900,1589A,109.8642,40.6288,包头市,惠龙物流,颗粒物(PM10),62,73,55,28,16,106,,94,93,23,22,14,17,0.6,0.6
2024-06-28T0900,1590A,110.0377,40.5546,包头市,东河鸿龙湾,颗粒物(PM10),62,74,62,24,26,84,,80,78,30,25,12,14,0.8,0.7
2024-06-28T0900,3283A,109.9154,40.5685,包头市,滨河大厦,颗粒物(PM10),56,62,54,32,24,108,,74,74,26,34,12,12,0.9,0.7
2024-06-28T0900,3419A,109.9447,40.6261,包头市,包头市委党校,颗粒物(PM10),59,68,53,21,23,115,,96,94,23,28,14,14,0.6,0.6
2024-06-28T0900,3683A,109.8331,40.6576,包头市,昆区政府,颗粒物(PM10),56,62,52,29,26,101,,102,98,33,25,14,16,0.6,0.6
2024-06-28T0900,1930A,107.185,34.3063,宝鸡市,庙沟村,,24,24,19,9,9,63,,72,70,10,5,9,9,0.4,0.4
2024-06-28T0900,1931A,107.0708,34.3017,宝鸡市,竹园沟,,28,21,21,14,13,88,,78,78,14,13,8,8,0.4,0.4
2024-06-28T0900,1932A,107.1906,34.3672,宝鸡市,三陆医院,,36,36,32,12,12,59,,34,34,28,25,11,10,0.6,0.6
2024-06-28T0900,1933A,107.1431,34.3547,宝鸡市,监测站,,25,25,24,14,13,63,,57,57,25,18,10,9,0.5,0.4
2024-06-28T0900,1934A,107.1186,34.3739,宝鸡市,技工学校,,29,29,26,15,15,77,,69,69,16,15,8,7,0.5,0.4
2024-06-28T0900,1935A,107.3906,34.3528,宝鸡市,陈仓区环保局家属楼,,33,33,28,16,13,78,,47,47,22,21,7,7,0.5,0.4
2024-06-28T0900,1936A,107.2058,34.3497,宝鸡市,文理学院,,32,32,25,10,12,63,,58,58,24,16,10,8,0.5,0.4
2024-06-28T0900,1937A,107.2386,34.3622,宝鸡市,三迪小学,,29,29,27,12,13,64,,55,55,21,14,8,8,0.5,0.5
2024-06-28T0900,1051A,115.493,38.8632,保定市,游泳馆,颗粒物(PM10),63,75,64,34,23,137,,109,108,11,8,13,9,0.3,0.2
2024-06-28T0900,1052A,115.5213,38.8959,保定市,华电二区,颗粒物(PM10),55,60,50,17,18,139,,108,106,14,12,7,4,0.4,0.2
2024-06-28T0900,1053A,115.4713,38.9108,保定市,接待中心,颗粒物(PM10),59,67,57,35,23,141,,120,120,8,6,8,6,0.4,0.2
2024-06-28T0900,1054A,115.4612,38.8416,保定市,地表水厂,颗粒物(PM10),68,85,78,41,29,136,,100,100,13,14,6,3,0.5,0.3
2024-06-28T0900,3581A,115.31981,38.95208,保定市,满城区生态环境分局,颗粒物(PM10),71,92,80,34,25,136,,98,98,11,12,8,4,0.4,0.3
2024-06-28T0900,3582A,115.47694,38.76408,保定市,清苑区第二中学,颗粒物(PM10),77,104,77,32,25,139,,109,109,16,16,10,7,0.4,0.3
2024-06-28T0900,3583A,115.62909,39.02311,保定市,徐水物探局,颗粒物(PM10),64,78,70,36,19,137,,96,96,14,16,10,5,0.2,0.1
2024-06-28T0900,4004A,115.4202,38.8656,保定市,双鹰农机,颗粒物(PM10),60,70,61,25,24,146,,117,117,18,17,8,5,0.4,0.3
2024-06-28T0900,4034A,115.5150,38.8590,保定市,植保所站,颗粒物(PM10),60,70,54,41,28,141,,119,118,15,12,11,6,0.4,0.3
2024-06-28T0900,2594A,99.1678,25.1081,保山市,市环境监测站,,18,17,17,12,10,26,,16,16,11,7,5,5,0.4,0.4
2024-06-28T0900,2595A,99.1711,25.1328,保山市,市环保局,,20,20,18,3,7,28,,20,20,10,5,4,4,0.5,0.5
2024-06-28T0900,1866A,109.2262,21.588,北海市,牛尾岭水库,,,,,,,,,,,,,,,,
2024-06-28T0900,1867A,109.1436,21.4086,北海市,海滩公园,,22,22,20,3,3,31,,28,28,3,4,3,3,0.6,0.6
2024-06-28T0900,1868A,109.0981,21.4661,北海市,新市环保局,,13,12,12,9,5,32,,31,30,5,4,4,4,0.6,0.6
2024-06-28T0900,1869A,109.1778,21.5233,北海市,北海工业园,,10,8,13,7,7,31,,26,26,5,5,4,4,0.4,0.4
2024-06-28T0900,3400A,109.1911,21.4415,北海市,龙潭自来水厂,,14,14,11,6,5,32,,27,27,4,4,5,5,0.5,0.5
2024-06-28T0900,1001A,116.3621,39.8784,北京市,万寿西宫,颗粒物(PM10),65,79,65,34,25,105,,115,110,49,22,4,2,0.6,0.4
2024-06-28T0900,1002A,116.2202,40.2915,北京市,定陵,,44,44,58,20,23,112,,92,92,21,16,2,3,0.5,0.4
2024-06-28T0900,1003A,116.4174,39.9289,北京市,东四,颗粒物(PM10),66,82,65,38,25,87,,104,102,51,24,7,5,0.7,0.5
2024-06-28T0900,1004A,116.4072,39.8863,北京市,天坛,颗粒物(PM10),66,81,59,37,23,93,,63,63,52,24,4,2,0.5,0.4
2024-06-28T0900,1005A,116.462,39.9365,北京市,农展馆,颗粒物(PM10),63,76,69,33,24,93,,70,70,46,31,5,3,0.6,0.4
2024-06-28T0900,1006A,116.3392,39.9295,北京市,官园,颗粒物(PM10),58,66,67,25,24,105,,116,110,44,23,5,5,0.4,0.3
2024-06-28T0900,1007A,116.2878,39.9611,北京市,海淀万柳,颗粒物(PM10),54,58,68,27,23,80,,87,79,57,27,6,6,0.4,0.3
2024-06-28T0900,1008A,116.6636,40.135,北京市,顺义新城,颗粒物(PM10),56,61,64,23,22,111,,83,81,22,22,5,3,0.4,0.4
2024-06-28T0900,1009A,116.6275,40.3275,北京市,怀柔镇,颗粒物(PM10),57,63,60,26,25,120,,117,114,18,13,8,4,0.4,0.3
2024-06-28T0900,1010A,116.2296,40.217,北京市,昌平镇,颗粒物(PM10),55,60,70,26,24,82,,94,91,32,22,3,2,0.4,0.4
2024-06-28T0900,1011A,116.3966,39.9821,北京市,奥体中心,颗粒物(PM10),58,66,60,31,24,69,,89,85,57,27,2,3,0.6,0.4
2024-06-28T0900,1012A,116.184,39.9136,北京市,古城,颗粒物(PM10),55,60,61,26,22,134,,143,139,30,18,2,2,0.4,0.2
2024-06-28T0900,3281A,115.9718,40.4529,北京市,延庆夏都,颗粒物(PM10),55,59,69,37,33,101,,48,48,15,19,1,2,0.4,0.4
2024-06-28T0900,3417A,117.0709,40.1465,北京市,平谷新城,颗粒物(PM10),52,53,50,21,19,119,,106,106,19,18,4,3,0.4,0.4
2024-06-28T0900,3418A,116.8336,40.4095,北京市,密云新城,颗粒物(PM10),58,65,62,28,21,134,,95,95,19,16,5,2,0.4,0.4
2024-06-28T0900,3671A,116.088,39.9726,北京市,门头沟三家店,,,,,,,,,,,,,,,,
2024-06-28T0900,3672A,116.1541,39.8204,北京市,丰台云岗,颗粒物(PM10),53,56,65,21,22,120,,106,105,28,17,2,2,0.5,0.4
2024-06-28T0900,3673A,116.6804,39.9081,北京市,通州东关,颗粒物(PM10),67,84,76,36,25,95,,59,59,26,32,5,3,0.5,0.5
2024-06-28T0900,3674A,115.9577,39.7603,北京市,房山燕山,,46,46,56,18,22,140,,94,94,16,12,1,2,0.5,0.3
2024-06-28T0900,3675A,116.4672,39.7733,北京市,大兴旧宫,颗粒物(PM10),63,76,63,35,23,103,,78,75,27,16,4,2,0.5,0.4
2024-06-28T0900,3694A,115.986,40.4563,北京市,延庆石河营,颗粒物(PM10),52,53,67,35,33,98,,34,34,12,15,3,3,0.4,0.4
2024-06-28T0900,3695A,116.6151,40.3053,北京市,怀柔新城,颗粒物(PM10),57,63,58,28,23,111,,116,113,21,15,6,2,0.5,0.4
2024-06-28T0900,3696A,116.2545,39.8768,北京市,丰台小屯,颗粒物(PM10),54,58,63,25,23,74,,79,75,50,22,3,2,0.5,0.4
2024-06-28T0900,3697A,116.84,40.3844,北京市,密云镇,颗粒物(PM10),53,55,61,26,22,126,,84,82,19,19,2,2,0.4,0.4
2024-06-28T0900,1761A,123.8275,41.3064,本溪市,大峪,,48,26,37,17,18,152,,90,90,8,9,10,10,0.2,0.4
2024-06-28T0900,1762A,123.7567,41.3325,本溪市,溪湖,,41,34,46,11,17,131,,98,98,17,16,15,12,1.1,1.1
2024-06-28T0900,1763A,123.7169,41.3094,本溪市,彩屯,,38,30,44,13,24,120,,72,72,26,30,18,15,2.2,2.3
2024-06-28T0900,1764A,123.7669,41.2864,本溪市,东明,颗粒物(PM10),51,51,46,12,18,137,,98,98,14,16,8,8,0.5,0.6
2024-06-28T0900,1765A,123.7992,41.2664,本溪市,新立屯,,46,43,36,8,8,145,,117,117,8,12,6,6,0.4,0.5
2024-06-28T0900,1766A,123.8142,41.3472,本溪市,威宁,颗粒物(PM10),51,52,47,11,19,124,,63,63,18,16,9,8,0.6,0.6
2024-06-28T0900,2587A,105.2864,27.3125,毕节市,八中,,32,27,18,22,12,21,,27,25,11,9,5,6,0.5,0.4
2024-06-28T0900,2588A,105.31,27.2944,毕节市,师专,,35,30,17,24,12,22,,29,27,10,8,4,4,0.5,0.5
2024-06-28T0900,3537A,105.3631,27.3533,毕节市,长征村,细颗粒物(PM2.5),70,69,33,51,23,22,,33,30,16,8,9,7,0.5,0.4
2024-06-28T0900,1629A,118.0018,37.3617,滨州市,第二水厂,,,63,41,19,14,,,58,56,24,19,7,5,0.6,0.3
2024-06-28T0900,1630A,117.9776,37.393,滨州市,北中新校,颗粒物(PM10),62,73,43,19,11,112,,64,64,26,20,8,4,0.6,0.3
2024-06-28T0900,3514A,117.9378,37.3956,滨州市,中海酒店,颗粒物(PM10),60,70,38,29,16,116,,75,75,29,18,11,6,0.5,0.3
2024-06-28T0900,3515A,117.9378,37.3553,滨州市,开发区一中,颗粒物(PM10),60,70,43,19,12,104,,57,57,33,20,11,8,0.7,0.6
2024-06-28T0900,3516A,118.0917,37.694,滨州市,金海六路,颗粒物(PM10),65,80,52,17,9,102,,60,60,32,16,26,16,0.5,0.4
2024-06-28T0900,4028A,117.9956,37.3753,滨州市,滨州市西街道办事处,颗粒物(PM10),57,63,39,27,16,115,,66,66,22,18,7,5,0.7,0.6
2024-06-28T0900,2311A,115.8072,33.8399,亳州市,污水处理厂,,28,,43,14,27,88,,84,84,8,7,3,3,0.5,0.5
2024-06-28T0900,2312A,115.7789,33.8518,亳州市,三国揽胜宫,,,23,50,3,21,,,80,79,8,7,2,2,0.6,0.6
2024-06-28T0900,3332A,115.7633,33.8034,亳州市,亳州学院,,29,10,41,3,20,90,,83,83,6,8,3,3,0.5,0.5
2024-06-28T0900,2693A,82.0485,44.8556,博尔塔拉蒙古自治州,市党校,,35,35,38,19,13,68,,66,64,9,11,9,9,0.3,0.4
2024-06-28T0900,2694A,82.0806,44.8969,博尔塔拉蒙古自治州,市环保局,,44,44,40,11,15,47,,58,57,17,20,9,9,0.4,0.4
2024-06-28T0900,1071A,116.8842,38.2991,沧州市,沧县城建局,颗粒物(PM10),55,59,52,27,19,131,,94,94,15,18,19,7,0.4,0.2
2024-06-28T0900,1072A,116.8584,38.3254,沧州市,电视转播站,细颗粒物(PM2.5),55,58,57,39,18,121,,95,95,12,13,14,5,0.4,0.2
2024-06-28T0900,1073A,116.8709,38.3228,沧州市,市环保局,颗粒物(PM10),58,66,51,21,22,126,,88,88,18,19,15,4,0.5,0.3
2024-06-28T0900,3324A,116.8136,38.3004,沧州市,河北水利电力学院,颗粒物(PM10),75,100,53,30,25,136,,90,90,14,19,18,7,0.5,0.3
2024-06-28T0900,2622A,97.1806,31.1273,昌都市,昌都监测站,,16,9,8,3,6,50,,41,41,10,12,7,7,0.3,0.4
2024-06-28T0900,3719A,97.1714,31.1406,昌都市,昌都会议中心,,12,,7,7,5,38,,50,48,16,6,6,6,0.5,0.4
2024-06-28T0900,2690A,88.1236,43.8886,昌吉回族自治州,天山天池,,29,17,21,3,10,90,,80,80,6,7,14,14,0.5,0.5
2024-06-28T0900,2692A,87.2717,44.0297,昌吉回族自治州,新区政务中心,,40,40,38,16,12,49,,80,71,20,12,7,8,0.4,0.4
2024-06-28T0900,3613A,87.3095,44.0142,昌吉回族自治州,亚心广场,颗粒物(PM10),68,85,41,24,12,35,,72,61,58,25,9,9,0.4,0.3
2024-06-28T0900,1119A,125.3325,43.9166,长春市,食品厂,,45,38,62,14,22,144,,137,136,17,24,7,8,0.4,0.5
2024-06-28T0900,1120A,125.2863,43.9027,长春市,客车厂,,46,46,62,14,24,137,,135,134,18,20,5,6,0.5,0.6
2024-06-28T0900,1121A,125.2841,43.8463,长春市,邮电学院,,44,42,60,13,20,140,,133,132,16,21,8,9,0.4,0.5
2024-06-28T0900,1122A,125.3716,43.8772,长春市,劳动公园,,48,38,59,12,20,151,,131,130,14,20,6,7,0.4,0.5
2024-06-28T0900,1123A,125.3297,43.8805,长春市,园林处,,46,29,54,10,23,145,,137,136,14,18,7,9,0.4,0.5
2024-06-28T0900,1124A,125.4605,43.79,长春市,净月潭,,43,30,52,15,20,136,,116,114,12,16,6,6,0.5,0.5
2024-06-28T0900,1125A,125.7194,43.515,长春市,甩湾子,,,,,,,,,,,,,,,,
2024-06-28T0900,1126A,125.3863,43.8447,长春市,经开区环卫处,,,40,57,12,20,,,113,110,20,22,5,6,0.3,0.4
2024-06-28T0900,1127A,125.245,43.7783,长春市,高新区管委会,,45,34,56,11,20,141,,125,125,12,19,6,7,0.4,0.5
2024-06-28T0900,1128A,125.1761,43.8325,长春市,岱山公园,,,43,55,12,25,,,124,122,15,21,6,7,0.4,0.5
2024-06-28T0900,1335A,113.0833,28.2325,长沙市,经开区环保局,,28,28,21,15,12,30,,25,24,10,16,6,4,0.8,0.6
2024-06-28T0900,1336A,112.8872,28.2189,长沙市,高开区环保局,,31,31,26,18,13,33,,29,29,11,18,9,5,1.1,0.9
2024-06-28T0900,1337A,113.0792,28.2053,长沙市,马坡岭,,29,28,23,20,16,37,,29,29,7,18,10,7,0.8,0.7
2024-06-28T0900,1338A,112.9394,28.19,长沙市,湖南师范大学,,34,34,26,22,19,28,,23,23,12,13,7,6,0.9,0.8
2024-06-28T0900,1339A,113.0178,28.1322,长沙市,雨花区环保局,,29,29,26,13,12,38,,28,28,8,16,6,3,1.1,1
2024-06-28T0900,1340A,112.9792,28.2597,长沙市,伍家岭,,37,37,24,20,17,25,,21,21,15,16,6,4,0.9,0.7
2024-06-28T0900,1341A,113.0014,28.1944,长沙市,火车新站,,31,31,27,19,16,34,,24,24,14,21,5,2,0.8,0.7
2024-06-28T0900,1342A,112.9844,28.1178,长沙市,天心区环保局,,42,42,28,18,17,35,,25,25,7,14,5,3,0.9,0.9
2024-06-28T0900,1343A,112.8908,28.1308,长沙市,湖南中医药大学,,35,35,21,24,18,25,,19,19,15,21,12,8,1.2,0.8
2024-06-28T0900,1344A,112.9581,28.3611,长沙市,沙坪,,25,19,9,17,7,20,,29,26,17,8,6,5,0.8,0.6
2024-06-28T0900,1727A,113.1147,36.1547,长治市,清华站,臭氧1小时,55,55,42,27,20,164,,139,138,14,13,12,10,0.4,0.3
2024-06-28T0900,1728A,113.1031,36.1989,长治市,监测站,颗粒物(PM10),58,65,52,27,19,139,,135,131,29,18,6,5,0.8,0.6
2024-06-28T0900,1730A,113.0886,36.2125,长治市,审计局,颗粒物(PM10),56,62,44,27,18,129,,137,132,39,23,3,3,0.4,0.3
2024-06-28T0900,1731A,113.0844,36.1856,长治市,长治八中,颗粒物(PM10),69,88,56,20,20,152,,138,135,23,15,3,3,0.6,0.5
2024-06-28T0900,2845A,113.1569,36.1911,长治市,德盛苑,臭氧1小时,73,48,46,27,20,178,,175,173,8,9,8,8,0.6,0.6
2024-06-28T0900,3568A,113.06,36.0464,长治市,向阳小学,臭氧1小时,80,68,66,38,35,184,,155,155,9,13,6,5,0.6,0.5
2024-06-28T0900,3569A,112.8792,36.3144,长治市,屯留一中,颗粒物(PM10),53,56,52,34,28,158,,131,127,15,13,10,8,0.7,0.5
2024-06-28T0900,3570A,113.235,36.3489,长治市,潞城四中,臭氧1小时,79,71,73,36,30,183,,113,112,9,14,7,7,0.4,0.4
2024-06-28T0900,1854A,111.6975,28.9703,常德市,市二中,,20,20,12,14,9,48,,47,46,10,9,5,6,0.6,0.5
2024-06-28T0900,1857A,111.7158,29.1456,常德市,白鹤山,,,,,,,,,,,,,,,,
2024-06-28T0900,3138A,111.7153,29.0289,常德市,武陵区永安,,13,11,12,8,8,41,,42,41,11,8,6,6,0.4,0.4
2024-06-28T0900,3139A,111.6892,28.9881,常德市,鼎城区玉霞,,20,14,13,14,10,41,,44,43,13,8,3,4,0.6,0.5
2024-06-28T0900,3140A,111.6625,29.0531,常德市,武陵区长庚,,16,16,14,6,9,51,,53,53,3,8,7,8,0.5,0.5
2024-06-28T0900,1196A,119.9633,31.762,常州市,市监测站,,12,,13,8,10,38,,50,46,22,14,6,8,0.9,0.8
2024-06-28T0900,1200A,119.9468,31.7069,常州市,武进监测站,,14,11,14,9,9,42,,49,46,10,5,3,3,0.8,0.7
2024-06-28T0900,1201A,119.9255,31.9087,常州市,安家,,15,15,26,9,18,39,,29,29,18,17,11,17,0.7,0.7
2024-06-28T0900,3002A,119.9805,31.8174,常州市,行政中心,,14,14,18,7,10,29,,48,44,20,10,7,9,0.8,0.7
2024-06-28T0900,3003A,120.0522,31.7748,常州市,经开区,,13,13,18,9,11,32,,52,48,24,12,6,6,0.7,0.6
2024-06-28T0900,3010A,119.9025,31.7964,常州市,钟楼,,15,7,14,6,10,47,,42,41,12,11,5,6,1.0,1
2024-06-28T0900,3429A,119.8598,31.7066,常州市,武进经发区,,15,6,11,3,6,46,,47,46,7,6,7,9,0.6,0.6
2024-06-28T0900,3430A,119.5826,31.7245,常州市,金坛城区,,14,6,12,3,6,43,,47,45,8,6,5,6,0.9,0.7
2024-06-28T0900,2220A,120.4318,41.5881,朝阳市,西梁,,41,41,53,18,26,131,,136,135,10,17,8,10,0.6,0.7
2024-06-28T0900,2221A,120.4521,41.5646,朝阳市,河畔小区,,44,30,56,11,24,139,,153,150,10,11,10,11,0.6,0.7
2024-06-28T0900,2222A,120.4176,41.5648,朝阳市,八里堡,,42,29,58,13,26,133,,124,124,11,17,8,9,0.8,0.9
2024-06-28T0900,2223A,120.3806,41.5969,朝阳市,农业园区,,45,45,55,8,30,136,,99,99,8,21,8,6,0.7,0.7
2024-06-28T0900,1705A,116.6367,23.6719,潮州市,西园路,,38,38,19,8,10,26,,17,17,11,8,2,2,0.5,0.3
2024-06-28T0900,3026A,116.6183,23.6608,潮州市,市政府,,,,19,6,6,,,24,23,3,3,8,6,0.8,0.6
2024-06-28T0900,4036A,116.6461,23.6761,潮州市,金山,,24,24,19,8,12,21,,12,12,13,7,8,6,0.7,0.5
2024-06-28T0900,2472A,113.0073,25.9061,郴州市,马头岭,,27,27,28,10,8,59,,70,70,7,7,6,7,0.4,0.5
2024-06-28T0900,2473A,113.0116,25.8226,郴州市,市职中,,19,19,20,10,15,52,,69,69,6,10,8,8,0.4,0.5
2024-06-28T0900,2474A,113.0161,25.8001,郴州市,兴隆步行街,,18,18,26,3,15,54,,73,72,6,11,8,8,0.4,0.6
2024-06-28T0900,2475A,113.0383,25.8071,郴州市,市审计局,,18,16,18,12,14,52,,62,61,6,10,5,5,0.3,0.4
2024-06-28T0900,2476A,113.0348,25.7759,郴州市,市环保局,,20,20,23,7,11,55,,69,69,8,14,5,5,0.3,0.3
2024-06-28T0900,1431A,103.9728,30.7236,成都市,金泉两河,,45,40,26,31,16,32,,48,45,16,11,4,2,0.5,0.4
2024-06-28T0900,1432A,104.176,30.6872,成都市,十里店,,26,26,25,12,12,47,,61,61,21,18,3,3,0.7,0.6
2024-06-28T0900,1433A,104.079,30.5706,成都市,三瓦窑,,39,29,29,27,23,28,,47,47,29,21,2,2,0.5,0.4
2024-06-28T0900,1434A,104.1114,30.63,成都市,沙河铺,,16,16,22,7,10,35,,42,42,15,14,3,2,0.5,0.4
2024-06-28T0900,1437A,104.0786,30.6531,成都市,君平街,,22,22,21,10,12,61,,68,68,15,17,2,2,0.6,0.6
2024-06-28T0900,1438A,103.613,31.0283,成都市,灵岩寺,,,,,,,,,,,,,,,,
2024-06-28T0900,2880A,104.0239,30.65639,成都市,大石西路,,46,46,29,24,13,52,,54,54,12,14,4,3,0.5,0.5
2024-06-28T0900,3136A,104.2725,30.5589,成都市,龙泉驿区区政府,,15,14,12,9,9,47,,57,56,13,9,4,3,0.5,0.4
2024-06-28T0900,3357A,104.0106,30.6931,成都市,金博路,,35,29,18,24,10,32,,38,37,14,11,1,2,0.6,0.5
2024-06-28T0900,3359A,104.0578,30.5225,成都市,华阳,,35,,18,24,18,33,,51,46,17,10,2,2,0.5,0.4
2024-06-28T0900,3487A,104.2394,30.5319,成都市,车城东七路,,30,25,24,21,18,56,,69,67,10,9,2,2,0.4,0.4
2024-06-28T0900,3488A,104.3853,30.7453,成都市,青白江技师分院,,15,15,22,10,7,28,,17,17,26,21,5,4,0.6,0.5
2024-06-28T0900,3489A,104.0789,30.4072,成都市,科学城,,29,22,19,20,16,58,,59,56,11,9,2,2,0.5,0.4
2024-06-28T0900,4011A,103.8506,30.6947,成都市,光华大道三段,,49,49,30,24,15,38,,47,46,11,10,2,2,0.5,0.4
2024-06-28T0900,1062A,117.9531,40.9081,承德市,铁路,,40,40,59,18,25,103,,70,65,24,26,9,6,0.5,0.4
2024-06-28T0900,1063A,117.9392,40.9763,承德市,中国银行,,48,48,60,16,24,81,,41,41,26,21,8,6,0.5,0.4
2024-06-28T0900,1064A,117.9503,40.928,承德市,开发区,颗粒物(PM10),53,56,60,17,22,84,,52,52,34,25,8,6,0.6,0.4
2024-06-28T0900,1065A,117.8051,40.9655,承德市,文化中心,,38,32,66,7,23,120,,80,80,21,32,12,10,0.4,0.4
2024-06-28T0900,1066A,117.9268,41.0026,承德市,离宫,,30,21,52,21,29,77,,39,39,23,16,4,3,0.4,0.4
2024-06-28T0900,2314A,117.47,30.6618,池州市,池州学院,,8,8,5,3,2,22,,39,35,13,7,5,5,0.5,0.4
2024-06-28T0900,3237A,117.4918,30.6617,池州市,展览馆,,7,6,4,3,2,21,,34,30,10,7,2,3,0.6,0.5
2024-06-28T0900,3333A,117.5627,30.695,池州市,第八中学,,9,8,5,3,2,26,,36,33,9,8,3,3,0.5,0.4
2024-06-28T0900,3334A,117.5038,30.6243,池州市,第十二中学,,11,8,6,3,2,12,,29,25,21,13,4,4,0.5,0.5
2024-06-28T0900,1744A,118.9233,42.2816,赤峰市,松山一中,,,36,29,19,16,,,155,155,23,22,15,12,0.7,0.7
2024-06-28T0900,1745A,118.9576,42.2728,赤峰市,哈达街,颗粒物(PM10),52,53,40,20,16,145,,130,130,20,18,12,10,0.6,0.6
2024-06-28T0900,1746A,118.8788,42.2554,赤峰市,天义路,,50,44,32,13,14,160,,165,165,22,20,10,9,0.3,0.3
2024-06-28T0900,3058A,119.2658,42.0353,赤峰市,银河街,颗粒物(PM10),56,61,52,28,29,128,,120,120,18,19,18,16,0.6,0.5
2024-06-28T0900,3286A,118.9359,42.3147,赤峰市,桥北物流园区,,46,39,38,17,21,147,,153,152,21,17,10,8,0.8,0.7
2024-06-28T0900,2521A,107.3476,22.4136,崇左市,市环保局江州分局,,22,21,17,15,8,17,,8,8,12,8,6,5,0.7,0.7
2024-06-28T0900,2522A,107.3702,22.3707,崇左市,城南新区,,15,15,15,8,6,15,,8,8,8,6,3,2,0.6,0.6
2024-06-28T0900,2298A,118.3093,32.3153,滁州市,老年大学,,22,22,30,14,23,65,,56,55,8,12,12,12,0.6,0.6
2024-06-28T0900,2299A,118.3244,32.2786,滁州市,人大宾馆,,20,15,21,12,26,61,,51,51,13,12,6,6,0.6,0.7
2024-06-28T0900,3207A,118.3118,32.3038,滁州市,市政府原办公楼,,26,19,28,18,25,62,,51,50,10,15,8,8,0.7,0.7
2024-06-28T0900,3331A,118.3267,32.2634,滁州市,图书馆,,20,19,26,9,24,62,,54,54,10,10,8,7,0.8,0.9
2024-06-28T0900,2605A,101.5482,25.0441,楚雄彝族自治州,州环境监测站,,,,7,3,3,30,,31,31,4,3,3,3,2.0,0.5
2024-06-28T0900,2606A,101.538,25.0492,楚雄彝族自治州,市经济开发区,,8,,11,3,4,23,,28,27,5,5,4,4,0.5,0.5
2024-06-28T0900,2548A,107.5277,31.2827,达州市,达州职业技术学院,,31,31,24,3,5,6,,2,2,21,21,6,6,0.3,0.2
2024-06-28T0900,2549A,107.5086,31.2186,达州市,市环境监测站,,21,21,21,3,4,13,,6,6,23,24,5,5,0.6,0.5
2024-06-28T0900,2550A,107.4988,31.2132,达州市,凤凰小区,,17,17,15,9,8,18,,10,10,22,22,6,6,0.5,0.4
2024-06-28T0900,2551A,107.5082,31.1986,达州市,达县机关宾馆,,,31,24,3,7,10,,5,5,28,30,,5,,0.3
2024-06-28T0900,2552A,107.4644,31.2124,达州市,市政中心,,27,27,23,9,5,8,,14,12,23,20,6,6,0.6,0.5
2024-06-28T0900,2614A,100.1542,25.7054,大理白族自治州,大理市环境监测站,,18,12,9,12,9,28,,33,33,6,7,4,4,0.5,0.5
2024-06-28T0900,2615A,100.2171,25.5811,大理白族自治州,大理古城,,15,15,14,3,7,20,,28,27,11,8,5,5,0.7,0.6
2024-06-28T0900,1109A,121.612,38.9741,大连市,甘井子,,,22,26,13,14,92,,75,75,18,18,,4,,0.4
2024-06-28T0900,1110A,121.565,38.9511,大连市,周水子,,30,18,23,11,12,93,,79,79,19,19,10,8,0.6,0.6
2024-06-28T0900,1111A,121.5637,38.8845,大连市,星海三站,,28,21,21,12,8,88,,80,80,13,14,8,8,0.4,0.4
2024-06-28T0900,1112A,121.6302,38.9117,大连市,青泥洼桥,,30,22,22,12,11,94,,76,76,9,12,9,9,0.5,0.5
2024-06-28T0900,1113A,121.6251,38.8638,大连市,傅家庄,,31,19,18,16,12,98,,83,83,9,13,8,9,0.5,0.5
2024-06-28T0900,1114A,121.5213,38.8661,大连市,七贤岭,,25,22,27,13,10,77,,64,64,14,13,5,5,0.4,0.4
2024-06-28T0900,1115A,121.2529,38.8061,大连市,旅顺,,28,28,22,16,12,88,,75,75,19,22,10,9,0.3,0.4
2024-06-28T0900,1116A,121.7485,39.1311,大连市,金州,,35,17,25,9,12,109,,83,83,8,15,9,10,0.3,0.3
2024-06-28T0900,1117A,121.7811,39.0496,大连市,开发区,,33,22,25,14,11,103,,74,74,9,17,9,7,0.4,0.4
2024-06-28T0900,1118A,121.9762,39.0631,大连市,双D港,,,19,20,13,11,98,,56,56,15,16,,8,0.6,0.6
2024-06-28T0900,1789A,124.81117,46.03138,大庆市,大同区,颗粒物(PM10),59,67,53,33,32,145,,118,118,14,13,10,7,0.5,0.4
2024-06-28T0900,1790A,125.129,46.533,大庆市,龙凤区,,,51,47,15,17,,,109,106,14,16,9,9,0.6,0.5
2024-06-28T0900,1791A,124.902,46.408,大庆市,红岗区,,48,34,34,27,24,151,,121,121,14,11,8,7,0.6,0.5
2024-06-28T0900,1792A,125.153,46.586,大庆市,萨尔图区,颗粒物(PM10),51,51,48,27,23,124,,107,107,16,13,8,8,0.5,0.4
2024-06-28T0900,1793A,124.9042,46.6215,大庆市,让胡路区,颗粒物(PM10),55,59,52,15,12,135,,120,120,17,13,7,7,0.5,0.5
2024-06-28T0900,3481A,125.141,46.634,大庆市,萨区政府监测点,颗粒物(PM10),53,56,49,23,22,140,,124,124,16,14,11,8,0.5,0.4
2024-06-28T0900,1721A,113.3819,40.1097,大同市,果树场,,,,,,,,,,,,,,,,
2024-06-28T0900,1723A,113.2994,40.0758,大同市,云冈宾馆,,46,46,60,23,29,147,,132,131,23,16,8,9,0.7,0.7
2024-06-28T0900,1724A,113.3444,40.0917,大同市,大同大学,,44,33,48,23,25,140,,121,121,17,13,10,11,0.4,0.4
2024-06-28T0900,1725A,113.2661,40.1269,大同市,安家小村,,48,31,68,21,24,151,,124,124,18,14,13,14,0.5,0.5
2024-06-28T0900,1726A,113.2711,40.0844,大同市,教育学院,,46,37,67,25,29,146,,120,120,28,19,10,11,0.5,0.5
2024-06-28T0900,3282A,113.3397,40.0597,大同市,大同市卫生学校,,50,50,71,20,29,140,,125,124,20,13,11,11,0.6,0.5
2024-06-28T0900,3565A,113.1367,40.1122,大同市,云冈站,,44,40,68,18,30,138,,103,101,23,15,9,10,0.2,0.2
2024-06-28T0900,3566A,113.1186,40.2556,大同市,图书馆,,49,49,55,34,29,145,,114,112,21,14,15,8,0.7,0.5
2024-06-28T0900,3567A,113.5931,40.0461,大同市,区一中,"颗粒物(PM10),臭氧1小时",52,54,55,12,19,161,,137,137,12,10,9,8,0.6,0.6
2024-06-28T0900,3676A,113.2802,40.0995,大同市,第二人民医院,颗粒物(PM10),51,52,64,23,26,152,,130,130,21,14,10,11,0.6,0.6
2024-06-28T0900,2269A,124.1069,50.4097,大兴安岭地区,科技局,,23,13,18,6,8,71,,67,65,3,4,7,12,0.3,0.3
2024-06-28T0900,3663A,124.1164,50.4278,大兴安岭地区,红旗社区,,24,,8,8,7,76,,59,57,4,5,9,8,0.4,0.4
2024-06-28T0900,1600A,124.3303,40.0625,丹东市,江湾东路,,35,31,29,24,17,81,,56,56,6,6,10,10,0.7,0.5
2024-06-28T0900,1601A,124.4256,40.1503,丹东市,临江后街,,26,22,24,16,14,81,,38,38,10,10,16,10,0.5,0.6
2024-06-28T0900,1602A,124.3933,40.1461,丹东市,元宝山,,26,25,30,12,13,81,,39,39,17,12,8,8,0.6,0.6
2024-06-28T0900,1603A,124.3633,40.1092,丹东市,民主桥,,37,37,31,19,15,90,,44,44,13,12,10,8,0.6,0.5
2024-06-28T0900,3541A,109.5726,19.5167,儋州市,第一中学子站,,15,15,12,3,4,26,,18,18,2,2,6,5,0.5,0.5
2024-06-28T0900,3542A,109.5567,19.5187,儋州市,东坡学校子站,,18,18,11,3,4,25,,14,14,2,3,7,5,0.6,0.5
2024-06-28T0900,2616A,98.5842,24.428,德宏傣族景颇族自治州,德宏州监测站,,22,22,18,3,7,21,,22,22,10,10,2,8,0.7,0.6
2024-06-28T0900,3677A,98.5881,24.4368,德宏傣族景颇族自治州,芒市人民政府综合楼,,,22,21,7,10,,,19,19,12,10,7,13,0.9,0.8
2024-06-28T0900,1901A,104.4239,31.1208,德阳市,东山公园,,30,30,27,13,13,26,,34,31,13,11,2,2,0.4,0.4
2024-06-28T0900,1902A,104.3826,31.1317,德阳市,西小区,,30,30,24,20,14,26,,39,36,23,16,2,1,0.6,0.5
2024-06-28T0900,1904A,104.3553,31.1091,德阳市,耐火材料厂,,40,40,23,22,14,29,,39,36,17,13,7,3,0.5,0.4
2024-06-28T0900,3639A,104.4019,31.1244,德阳市,市教育局,,36,36,27,18,14,30,,38,36,20,15,3,3,0.5,0.5
2024-06-28T0900,1622A,116.3032,37.4674,德州市,儿童乐园,颗粒物(PM10),67,83,67,36,24,102,,100,98,16,11,41,20,0.9,0.5
2024-06-28T0900,1624A,116.2991,37.4451,德州市,监理站,颗粒物(PM10),63,75,61,34,21,130,,122,118,20,15,49,24,0.6,0.6
2024-06-28T0900,3066A,116.2721,37.4379,德州市,九衢泉纯净水厂,颗粒物(PM10),67,83,65,34,24,124,,106,104,20,23,33,17,0.9,0.6
2024-06-28T0900,3371A,116.3728,37.4403,德州市,开发区人民医院,颗粒物(PM10),65,80,66,29,20,127,,99,99,16,19,36,14,0.8,0.5
2024-06-28T0900,3372A,116.3572,37.4094,德州市,太阳城中学,颗粒物(PM10),68,85,70,34,22,124,,90,90,16,25,38,13,0.8,0.6
2024-06-28T0900,3511A,116.5652,37.3319,德州市,陵城艺术中心,颗粒物(PM10),62,73,60,24,17,130,,110,109,13,17,7,5,0.4,0.3
2024-06-28T0900,2621A,99.7056,27.8317,迪庆藏族自治州,迪庆州站,,13,13,16,3,9,36,,40,40,10,9,10,10,0.4,0.4
2024-06-28T0900,3180A,99.7136,27.8094,迪庆藏族自治州,质量技术监督局,,14,14,13,3,7,39,,46,45,9,8,8,8,0.4,0.4
2024-06-28T0900,2663A,104.6241,35.5734,定西市,东关小学,,37,37,30,13,14,47,,56,54,15,9,4,4,0.3,0.2
2024-06-28T0900,2664A,104.6194,35.5934,定西市,供电公司,,33,33,24,19,18,43,,65,61,27,7,4,4,0.3,0.2
2024-06-28T0900,1389A,113.7547,23.0494,东莞市,莞城梨川,,16,16,21,8,9,33,,23,23,14,18,9,9,0.7,0.7
2024-06-28T0900,1390A,113.7944,23.0128,东莞市,东城石井,,22,22,22,9,9,33,,11,11,14,17,2,2,0.6,0.6
2024-06-28T0900,1391A,113.7383,22.9658,东莞市,南城西平,,21,21,22,10,9,23,,9,9,19,23,3,2,0.7,0.7
2024-06-28T0900,3319A,113.7338,23.0381,东莞市,万江金泰,,20,20,20,8,8,27,,16,16,15,16,5,5,0.6,0.6
2024-06-28T0900,3626A,113.7533,23.0202,东莞市,南城元岭,,27,27,21,10,8,25,,13,13,16,17,7,7,0.7,0.7
2024-06-28T0900,3627A,113.7875,23.0457,东莞市,东城主山,,18,18,25,7,10,29,,17,17,12,16,8,9,0.6,0.6
2024-06-28T0900,1666A,118.6614,37.4309,东营市,市环保局,颗粒物(PM10),53,56,32,22,9,103,,73,73,24,17,19,12,0.6,0.4
2024-06-28T0900,3036A,118.6904,37.4338,东营市,开发区管委会,颗粒物(PM10),54,57,38,17,8,95,,74,74,22,14,12,8,0.3,0.1
2024-06-28T0900,3365A,118.5719,37.565,东营市,垦利区民丰路,颗粒物(PM10),54,58,35,17,10,106,,75,75,27,17,18,13,0.8,0.5
2024-06-28T0900,3498A,118.5055,37.8612,东营市,河口城区,,46,46,35,17,9,97,,71,71,21,11,14,8,0.8,0.5
2024-06-28T0900,3646A,118.4978,37.4623,东营市,胜利站,颗粒物(PM10),55,59,34,12,8,82,,61,61,32,21,12,9,0.8,0.5
2024-06-28T0900,3734A,118.35,37.26,东营市,理想之城,颗粒物(PM10),57,63,38,12,12,79,,56,56,24,16,6,4,0.5,0.3
2024-06-28T0900,1591A,110.0023,39.8129,鄂尔多斯市,综合楼,颗粒物(PM10),74,97,75,41,33,117,,117,116,25,23,17,13,0.7,0.7
2024-06-28T0900,1592A,109.9486,39.8261,鄂尔多斯市,巴音孟克林场办事处,颗粒物(PM10),67,83,65,24,24,114,,109,108,21,19,14,10,0.6,0.6
2024-06-28T0900,1593A,109.7736,39.5986,鄂尔多斯市,康泽苑,颗粒物(PM10),65,80,59,27,28,130,,116,116,15,14,18,11,0.7,0.5
2024-06-28T0900,1594A,109.8119,39.5989,鄂尔多斯市,华泰汽车城,颗粒物(PM10),62,73,55,31,27,118,,105,105,17,19,19,10,0.5,0.5
2024-06-28T0900,1595A,109.9734,39.7884,鄂尔多斯市,奥林花园,颗粒物(PM10),69,88,67,31,28,105,,91,90,22,25,11,8,0.6,0.5
2024-06-28T0900,2436A,114.8938,30.3994,鄂州市,市政府,,11,8,15,3,2,33,,37,36,11,7,7,5,0.5,0.5
2024-06-28T0900,2437A,114.8989,30.3714,鄂州市,赵家坝,,11,6,12,3,3,34,,32,32,10,9,5,6,0.4,0.4
2024-06-28T0900,3654A,114.8094,30.4089,鄂州市,精准医疗中心,,10,9,12,3,4,31,,25,24,7,11,4,7,0.6,0.8
2024-06-28T0900,2454A,109.4978,30.2981,恩施土家族苗族自治州,湖北民院,,12,12,15,3,6,29,,36,35,12,10,6,6,0.9,0.8
2024-06-28T0900,2455A,109.4707,30.2798,恩施土家族苗族自治州,州电力总公司,,10,10,10,3,7,30,,42,40,18,19,6,6,0.7,0.7
2024-06-28T0900,3549A,109.5061,30.3772,恩施土家族苗族自治州,龙凤新区,,10,6,10,3,5,31,,28,26,16,16,7,6,0.8,0.8
2024-06-28T0900,2499A,108.3411,21.6158,防城港市,沙万,,20,20,21,6,7,19,,11,11,7,18,9,10,0.5,0.6
2024-06-28T0900,2500A,108.3514,21.7731,防城港市,防城档案局,,17,17,19,10,10,13,,6,6,16,15,4,5,0.6,0.7
2024-06-28T0900,2501A,108.3506,21.6414,防城港市,大海花园,,20,20,18,3,8,17,,7,7,7,14,6,8,0.7,0.8
2024-06-28T0900,1371A,113.1294,23.0067,佛山市,湾梁,,13,12,19,9,12,37,,23,23,11,18,8,8,0.5,0.5
2024-06-28T0900,1372A,113.1083,23.0478,佛山市,华材职中,,12,7,16,7,10,38,,28,28,9,16,8,8,0.4,0.4
2024-06-28T0900,1373A,113.144,23.0453,佛山市,南海气象局,,22,22,24,8,13,33,,18,18,11,16,9,7,0.4,0.4
2024-06-28T0900,1374A,113.2881,22.8094,佛山市,顺德苏岗,,10,10,11,3,4,32,,23,23,11,11,6,6,0.5,0.4
2024-06-28T0900,1376A,112.8383,22.8678,佛山市,高明孔堂,,13,,22,6,12,39,,26,26,6,13,6,6,0.4,0.4
2024-06-28T0900,1377A,112.8836,23.1588,佛山市,三水监测站,,31,31,32,3,14,18,,9,8,24,36,4,4,0.7,0.7
2024-06-28T0900,1378A,112.867,23.185,佛山市,三水云东海,,42,42,26,16,15,26,,14,14,26,28,8,5,0.5,0.6
2024-06-28T0900,3625A,113.2544,22.7642,佛山市,容桂街道办,,12,12,12,7,7,36,,25,25,17,19,6,6,0.4,0.4
2024-06-28T0900,1280A,119.3903,26.0543,福州市,鼓山,,,,,,,,,,,,,,,,
2024-06-28T0900,1282A,119.2681,26.0504,福州市,师大,,30,30,25,9,7,21,,17,14,14,12,3,4,0.4,0.3
2024-06-28T0900,1283A,119.2984,26.1028,福州市,五四北路,,17,17,27,7,8,30,,23,20,12,13,3,3,0.3,0.3
2024-06-28T0900,1284A,119.2648,26.0768,福州市,杨桥西路,,26,26,27,6,7,25,,12,10,14,13,3,3,0.4,0.3
2024-06-28T0900,1285A,119.317,26.0746,福州市,紫阳,,31,31,28,3,7,22,,25,23,14,13,2,3,0.4,0.4
2024-06-28T0900,3048A,119.5799,26.0936,福州市,九龙,,14,14,28,3,9,31,,24,23,7,7,7,4,0.3,0.3
2024-06-28T0900,3526A,119.5189,25.9664,福州市,吴航,,15,15,18,6,9,31,,20,20,3,7,4,4,0.5,0.5
2024-06-28T0900,1755A,123.7977,41.8491,抚顺市,望花区,,48,48,55,13,22,134,,91,91,18,23,10,12,0.5,0.6
2024-06-28T0900,1756A,123.9161,41.8822,抚顺市,顺城区,颗粒物(PM10),53,55,57,9,21,133,,74,74,19,26,9,10,0.8,0.8
2024-06-28T0900,1757A,124.0436,41.8611,抚顺市,东洲区,颗粒物(PM10),58,65,60,14,18,128,,92,92,11,13,4,8,0.6,0.7
2024-06-28T0900,1758A,123.9247,41.8642,抚顺市,新抚区,颗粒物(PM10),52,54,56,15,26,120,,62,62,14,20,7,7,0.6,0.7
2024-06-28T0900,1759A,124.0972,41.8961,抚顺市,大伙房水库,,37,36,46,15,23,117,,67,67,10,12,8,9,0.5,0.6
2024-06-28T0900,1760A,123.7086,41.8391,抚顺市,沈抚新城,颗粒物(PM10),68,85,50,19,22,123,,84,84,16,20,10,11,0.7,0.8
2024-06-28T0900,2376A,116.2127,28.0814,抚州市,桐源党溪,,26,26,24,12,15,27,,,,3,7,6,5,0.3,0.5
2024-06-28T0900,2377A,116.3544,27.9831,抚州市,市站,,18,18,22,7,14,31,,20,20,8,11,5,5,0.9,0.9
2024-06-28T0900,2378A,116.3565,27.963,抚州市,血防站,,20,20,26,3,13,20,,15,15,13,12,2,3,0.8,0.8
2024-06-28T0900,2379A,116.3564,28.0007,抚州市,采茶剧团,,24,24,24,6,14,22,,11,11,10,14,4,4,0.6,0.7
2024-06-28T0900,2380A,116.385,27.9647,抚州市,医学分院,,42,42,27,9,11,29,,17,17,8,10,11,6,0.8,0.8
2024-06-28T0900,2207A,121.6094,41.998,阜新市,工业园区,,47,47,61,10,17,130,,127,124,14,18,12,16,0.6,0.7
2024-06-28T0900,2208A,121.6697,42.0279,阜新市,长青街,,44,44,62,14,20,129,,125,122,16,19,12,16,0.5,0.7
2024-06-28T0900,2209A,121.6673,42.0705,阜新市,农业园区,,41,39,52,7,20,129,,126,123,14,17,10,12,0.7,0.9
2024-06-28T0900,2210A,121.6717,42.0224,阜新市,东苑,,40,37,59,9,17,126,,120,117,17,20,11,16,0.7,0.9
2024-06-28T0900,2211A,121.6506,42.0498,阜新市,玉龙新城,,41,34,53,8,17,131,,126,123,12,16,11,13,0.4,0.6
2024-06-28T0900,2301A,115.8277,32.8929,阜阳市,市监测站,,29,29,39,7,17,71,,84,80,14,10,8,7,0.6,0.5
2024-06-28T0900,2303A,115.8554,32.8605,阜阳市,开发区,,24,18,38,8,14,74,,81,78,16,12,6,5,0.4,0.3
2024-06-28T0900,2875A,115.784,32.8892,阜阳市,阜阳职业技术学院,,25,14,32,9,16,77,,89,86,11,9,5,4,0.4,0.3
2024-06-28T0900,3468A,115.7901,32.8613,阜阳市,市规划展馆,,32,,37,22,17,60,,80,76,18,12,4,3,0.7,0.5
2024-06-28T0900,3469A,115.836,32.9183,阜阳市,枣园社区,,24,18,36,11,14,75,,87,83,13,10,3,2,0.6,0.4
2024-06-28T0900,2669A,102.9099,34.9841,甘南藏族自治州,州政府,,31,23,22,19,16,98,,122,120,21,7,6,6,0.8,0.8
2024-06-28T0900,3380A,102.8914,34.9617,甘南藏族自治州,甘肃民族师范学院,,34,19,19,9,13,106,,118,115,16,11,3,3,0.6,0.6
2024-06-28T0900,2570A,101.9603,30.0475,甘孜藏族自治州,水桥子,,22,22,7,13,6,6,,11,10,18,18,5,4,0.5,0.3
2024-06-28T0900,3065A,101.9533,29.9972,甘孜藏族自治州,州环保局,,15,15,8,3,4,6,,11,10,17,21,3,2,0.4,0.2
2024-06-28T0900,3414A,115.8347,28.932,赣江新区,桑海产业园,,10,,5,3,6,29,,17,17,13,23,8,8,0.4,0.5
2024-06-28T0900,2362A,114.9017,25.9149,赣州市,通天岩,,,,,,,,,,,,,,,,
2024-06-28T0900,2363A,114.9367,25.8664,赣州市,地委,,,,20,,8,,,43,,,7,,6,,0.9
2024-06-28T0900,2364A,114.9461,25.8481,赣州市,气象台,,16,16,17,7,9,37,,30,30,8,8,4,5,0.4,0.4
2024-06-28T0900,2365A,114.9322,25.8333,赣州市,市图书馆,,13,13,15,3,7,36,,28,28,6,7,23,9,0.8,0.7
2024-06-28T0900,2366A,114.8905,25.8471,赣州市,华坚鞋城,,19,19,21,8,9,32,,19,19,6,7,5,30,0.6,0.6
2024-06-28T0900,3109A,115.0093,25.8613,赣州市,赣县区卫计委,,29,29,18,3,9,39,,27,27,10,11,7,7,0.6,0.6
2024-06-28T0900,2683A,106.2319,36.1417,固原市,马园,,27,,33,3,4,85,,35,35,9,21,5,5,0.6,0.7
2024-06-28T0900,2684A,106.2792,36.0022,固原市,监测站,,21,21,15,8,8,56,,39,39,25,17,5,5,0.2,0.2
2024-06-28T0900,2685A,106.2375,36.0211,固原市,新区,,,28,16,6,7,,,48,47,11,11,5,5,0.3,0.4
2024-06-28T0900,3522A,106.2177,35.9959,固原市,原州区十五小,,26,7,13,3,8,81,,78,78,4,6,5,5,0.6,0.6
2024-06-28T0900,2543A,106.6308,30.5278,广安市,小平旧居,,,,,,,,,,,,,,,,
2024-06-28T0900,2544A,106.6303,30.4576,广安市,市委,,30,30,15,16,10,31,,34,34,20,14,14,6,0.5,0.5
2024-06-28T0900,2545A,106.6271,30.4663,广安市,友谊中学,,,26,13,11,9,,,49,49,,14,,6,,0.5
2024-06-28T0900,2547A,106.6388,30.4551,广安市,广电花园,,34,34,17,11,7,28,,28,28,21,14,12,5,0.5,0.4
2024-06-28T0900,2902A,106.6351,30.4865,广安市,北辰小学,,22,22,13,14,8,34,,43,43,22,9,13,6,0.5,0.3
2024-06-28T0900,2523A,105.8945,32.4535,广元市,黑石坡,,24,24,16,11,9,15,,14,12,24,17,33,18,0.6,0.4
2024-06-28T0900,2524A,105.821,32.4444,广元市,老城,,24,24,22,10,11,26,,15,15,21,21,16,8,0.6,0.4
2024-06-28T0900,2526A,105.8628,32.4287,广元市,监测站,,35,26,23,24,12,26,,29,27,24,14,26,8,0.7,0.3
2024-06-28T0900,3617A,105.8047,32.4166,广元市,经开区,,42,42,28,19,15,27,,15,14,17,20,16,8,0.8,0.5
2024-06-28T0900,1345A,113.2347,23.1423,广州市,广雅中学,,22,22,21,6,8,33,,25,25,17,18,4,5,0.5,0.5
2024-06-28T0900,1346A,113.2612,23.105,广州市,市五中,,22,22,18,9,8,37,,28,28,11,15,4,5,0.6,0.6
2024-06-28T0900,1348A,113.3478,23.0916,广州市,广东商学院,,15,15,16,7,8,31,,15,15,14,23,3,3,0.5,0.5
2024-06-28T0900,1349A,113.4332,23.1047,广州市,市八十六中,,23,23,28,6,8,21,,8,8,23,32,3,4,0.4,0.5
2024-06-28T0900,1350A,113.3505,22.9483,广州市,番禺中学,,17,17,18,7,7,38,,22,22,11,17,6,6,0.5,0.5
2024-06-28T0900,1351A,113.2146,23.3916,广州市,花都师范,,22,22,26,9,13,20,,14,14,22,25,6,6,0.5,0.5
2024-06-28T0900,1352A,113.2597,23.1331,广州市,市监测站,,19,19,18,6,7,32,,23,23,13,15,4,5,0.6,0.6
2024-06-28T0900,1353A,113.5618,23.312,广州市,九龙镇镇龙,,33,33,28,13,12,25,,6,6,20,23,7,7,0.5,0.5
2024-06-28T0900,1354A,113.2765,23.1544,广州市,麓湖,,23,23,20,9,9,28,,18,18,15,19,3,3,0.5,0.5
2024-06-28T0900,1355A,113.443,23.3035,广州市,帽峰山森林公园,,,17,22,9,9,14,,9,9,20,22,,4,0.7,0.6
2024-06-28T0900,2846A,113.3221,23.1322,广州市,体育西,,28,28,27,7,9,26,,15,15,12,15,4,4,0.6,0.5
2024-06-28T0900,3298A,113.5717,23.5491,广州市,从化街口,,13,13,16,6,8,33,,20,19,10,11,4,4,0.5,0.5
2024-06-28T0900,3299A,113.3472,23.3692,广州市,白云竹料,,19,19,27,7,11,25,,9,9,21,30,5,4,0.6,0.5
2024-06-28T0900,3300A,113.2981,23.237,广州市,白云嘉禾,,18,18,22,6,8,24,,15,15,21,26,5,6,0.6,0.6
2024-06-28T0900,3301A,113.4256,23.1716,广州市,黄埔科学城,,19,19,24,9,11,20,,6,6,14,24,7,7,0.5,0.6
2024-06-28T0900,3302A,113.3942,23.0483,广州市,番禺大学城,,21,21,21,7,7,29,,14,14,10,18,4,4,0.7,0.7
2024-06-28T0900,3303A,113.4922,22.8168,广州市,南沙黄阁,,18,18,28,11,8,31,,18,18,10,15,4,5,0.6,0.6
2024-06-28T0900,3304A,113.5342,22.7896,广州市,南沙街,,13,13,21,3,6,30,,10,10,10,17,5,5,0.6,0.6
2024-06-28T0900,3443A,113.2902,23.5544,广州市,花都梯面,,16,16,23,3,10,22,,10,10,16,21,4,4,0.5,0.5
2024-06-28T0900,3445A,113.7858,23.7478,广州市,从化良口,,14,14,13,7,7,24,,10,10,6,10,5,5,0.5,0.5
2024-06-28T0900,3446A,113.8051,23.2614,广州市,增城荔城,,28,28,18,11,9,33,,12,12,12,14,6,5,0.6,0.2
2024-06-28T0900,2505A,109.568,23.1478,贵港市,德智高中,,,,,,,,,,,,,,,,
2024-06-28T0900,2506A,109.6047,23.0666,贵港市,江南子站,,39,39,45,17,17,21,,8,8,14,15,12,10,0.8,0.7
2024-06-28T0900,2507A,109.6014,23.0948,贵港市,贵城子站,,30,30,31,13,13,18,,5,5,14,15,12,10,0.7,0.6
2024-06-28T0900,2508A,109.5669,23.1065,贵港市,荷城子站,,24,24,25,7,6,22,,10,10,10,14,14,12,0.5,0.5
2024-06-28T0900,3405A,109.5886,23.1172,贵港市,新世纪学校,,31,31,21,17,10,20,,10,10,14,12,17,15,0.5,0.4
2024-06-28T0900,1439A,106.6899,26.5998,贵阳市,马鞍山,,11,6,7,3,1,35,,41,40,10,6,7,6,0.4,0.4
2024-06-28T0900,1440A,106.6971,26.5694,贵阳市,市环保站,,22,22,12,8,7,34,,35,35,10,13,5,4,0.2,0.2
2024-06-28T0900,1441A,106.6243,26.6266,贵阳市,鉴湖路,,14,14,8,7,2,32,,35,35,5,4,3,3,0.3,0.3
2024-06-28T0900,1442A,106.7487,26.6343,贵阳市,燕子冲,,10,,5,7,1,32,,36,35,9,8,7,6,0.5,0.4
2024-06-28T0900,1443A,106.6555,26.4365,贵阳市,碧云窝,,12,12,15,3,2,36,,39,39,6,5,6,6,0.3,0.4
2024-06-28T0900,1444A,106.694,26.5161,贵阳市,中院村,,19,19,11,3,1,36,,37,37,7,7,6,5,0.4,0.5
2024-06-28T0900,1445A,106.7109,26.6027,贵阳市,红边门,,12,12,11,7,11,28,,33,33,14,13,6,6,0.6,0.4
2024-06-28T0900,1446A,106.7164,26.5699,贵阳市,新华路,,13,,6,9,6,36,,36,36,9,9,6,6,0.4,0.3
2024-06-28T0900,1447A,106.674,26.5424,贵阳市,太慈桥,,14,14,8,3,4,30,,35,35,12,7,7,6,0.3,0.3
2024-06-28T0900,1552A,106.805,26.3003,贵阳市,桐木岭,,,,,,,,,,,,,,,,
2024-06-28T0900,1862A,110.4144,25.3167,桂林市,电子科大尧山校区,,16,16,15,6,8,29,,17,17,5,4,5,4,0.2,0.3
2024-06-28T0900,1863A,110.2819,25.2697,桂林市,监测站,,18,18,21,10,9,25,,15,15,9,11,6,8,0.3,0.3
2024-06-28T0900,1864A,110.3089,25.2708,桂林市,龙隐路小学,,15,12,18,10,11,25,,16,16,9,10,5,5,0.4,0.4
2024-06-28T0900,1865A,110.2869,25.2178,桂林市,八中,,9,9,17,3,7,28,,18,18,6,10,5,6,0.6,0.5
2024-06-28T0900,3403A,110.1764,25.2381,桂林市,创业大厦,,17,17,16,9,11,20,,10,10,9,13,15,20,0.5,0.5
2024-06-28T0900,3531A,110.296,25.1253,桂林市,旅游学院,,12,12,9,3,5,22,,22,22,8,7,6,7,0.3,0.3
2024-06-28T0900,2674A,100.2561,34.4714,果洛藏族自治州,玛沁县大武镇,,26,20,14,12,9,82,,96,90,14,14,9,9,0.5,0.4
2024-06-28T0900,1129A,126.5422,45.755,哈尔滨市,岭北,,44,31,49,15,26,138,,121,120,22,21,16,14,0.9,1.3
2024-06-28T0900,1130A,126.561,45.8167,哈尔滨市,松北商大,,46,46,55,17,20,124,,98,98,22,21,9,7,0.6,0.6
2024-06-28T0900,1131A,126.979,45.5419,哈尔滨市,阿城会宁,,,76,70,18,33,,,85,84,,22,7,7,0.7,0.7
2024-06-28T0900,1132A,126.599,45.7222,哈尔滨市,南岗学府路,颗粒物(PM10),57,63,74,19,24,128,,111,111,21,19,12,11,0.7,0.7
2024-06-28T0900,1133A,126.689,45.7733,哈尔滨市,太平宏伟公园,颗粒物(PM10),55,59,67,20,24,134,,118,117,28,26,9,8,0.5,0.5
2024-06-28T0900,1134A,126.635,45.7667,哈尔滨市,道外承德广场,,,62,67,20,20,,,110,107,37,29,9,7,0.8,0.5
2024-06-28T0900,1135A,126.685,45.7319,哈尔滨市,香坊红旗大街,颗粒物(PM10),64,78,76,18,33,126,,99,99,28,31,11,11,0.6,0.6
2024-06-28T0900,1136A,126.6411,45.7258,哈尔滨市,动力和平路,,,67,74,,29,124,,101,101,28,29,11,10,0.5,0.5
2024-06-28T0900,1137A,126.593,45.7478,哈尔滨市,道里建国路,,39,33,66,18,26,123,,107,107,32,27,8,7,0.7,1.1
2024-06-28T0900,1138A,126.615,45.61,哈尔滨市,平房东轻厂,,50,50,65,16,20,127,,107,107,23,20,11,10,0.4,0.4
2024-06-28T0900,1139A,126.595,45.9855,哈尔滨市,呼兰师专,颗粒物(PM10),52,53,64,18,22,122,,115,112,22,22,11,10,0.5,0.6
2024-06-28T0900,1140A,126.6206,45.6842,哈尔滨市,省农科院,颗粒物(PM10),57,64,86,16,28,128,,76,76,21,44,7,6,0.6,0.6
2024-06-28T0900,2688A,93.5128,42.8172,哈密市,地区监测站,,46,46,46,13,15,78,,96,96,14,10,4,4,0.2,0.2
2024-06-28T0900,2689A,93.4961,42.8328,哈密市,哈密师范学校,颗粒物(PM10),52,54,45,12,15,86,,97,97,12,14,5,4,0.2,0.3
2024-06-28T0900,2671A,100.9048,36.9639,海北藏族自治州,海晏县西海镇,,32,,23,16,17,102,,102,96,13,8,12,13,0.3,0.4
2024-06-28T0900,3867A,102.0738,36.5056,海东市,平安区公安北苑,,49,,44,34,22,90,,102,96,22,16,8,9,0.7,0.6
2024-06-28T0900,1409A,110.576,19.9507,海口市,东寨港,,,,,,,,,,,,,,,,
2024-06-28T0900,1410A,110.3232,20.0574,海口市,海南大学,,13,13,12,8,6,33,,29,29,7,8,5,5,0.4,0.4
2024-06-28T0900,1411A,110.283,20.0053,海口市,秀英海南医院,,,19,12,8,5,32,,22,22,,12,,6,0.2,0.2
2024-06-28T0900,1412A,110.338,19.9969,海口市,海南师范大学,,16,16,13,9,6,28,,22,22,7,7,6,6,0.4,0.3
2024-06-28T0900,1413A,110.33,20.0356,海口市,龙华路环保局宿舍,,18,18,10,3,5,29,,25,25,7,9,6,6,0.2,0.2
2024-06-28T0900,3539A,110.5111,19.9736,海口市,桂林洋子站,,18,18,13,6,4,26,,16,16,4,6,6,6,0.2,0.2
2024-06-28T0900,2673A,100.6188,36.2866,海南藏族自治州,共和县恰卜恰镇,,31,24,25,14,11,98,,84,82,18,11,7,7,0.5,0.5
2024-06-28T0900,2676A,97.3731,37.3753,海西蒙古族藏族自治州,德令哈市,,35,23,20,14,13,109,,122,119,16,9,11,12,0.5,0.5
2024-06-28T0900,1048A,114.5302,36.6116,邯郸市,东污水处理厂,颗粒物(PM10),71,92,56,44,22,120,,97,97,15,13,3,3,0.5,0.4
2024-06-28T0900,1049A,114.4918,36.5713,邯郸市,矿院,颗粒物(PM10),64,78,56,34,22,129,,97,97,17,18,6,6,0.5,0.4
2024-06-28T0900,1050A,114.484,36.6133,邯郸市,丛台公园,颗粒物(PM10),55,59,47,31,22,117,,103,103,13,10,6,4,0.4,0.4
2024-06-28T0900,3458A,114.7895,36.5593,邯郸市,香泉濮院小区,,,,60,,26,,,104,100,,10,,5,,0.2
2024-06-28T0900,3579A,114.50634,36.77178,邯郸市,永年区实验高中,颗粒物(PM10),69,88,62,35,18,141,,112,112,11,10,4,4,0.6,0.5
2024-06-28T0900,3580A,114.20016,36.44293,邯郸市,峰峰矿区临水派出所,颗粒物(PM10),55,59,47,33,15,142,,133,132,15,9,12,6,1.1,0.5
2024-06-28T0900,2634A,106.9893,33.1842,汉中市,汉川机床厂子校,,18,15,22,11,14,57,,69,66,11,8,4,5,0.4,0.5
2024-06-28T0900,2635A,107.0154,33.0706,汉中市,市监测站,,32,32,27,16,15,50,,58,56,24,13,13,10,0.8,0.6
2024-06-28T0900,2636A,107.0089,33.1138,汉中市,鑫源开发区,,29,29,29,19,15,60,,54,53,22,14,19,12,1.0,0.5
2024-06-28T0900,2637A,107.007,33.0323,汉中市,南郑大河坎水厂,,34,34,25,15,15,28,,46,41,18,9,8,8,0.5,0.4
2024-06-28T0900,1223A,120.2072,30.2111,杭州市,滨江,,18,18,9,8,5,17,,20,20,18,18,3,3,0.7,0.7
2024-06-28T0900,1224A,120.0633,30.2747,杭州市,西溪,,9,6,5,6,6,15,,6,6,11,17,6,6,0.6,0.7
2024-06-28T0900,1226A,120.3461,30.3153,杭州市,下沙,,15,15,13,7,8,21,,25,25,13,20,5,4,0.5,0.6
2024-06-28T0900,1227A,120.1269,30.2456,杭州市,卧龙桥,,15,,7,10,4,17,,11,11,9,12,4,4,0.5,0.6
2024-06-28T0900,1228A,120.1903,30.2692,杭州市,浙江农大,,16,,7,11,7,19,,20,20,18,21,6,6,0.5,0.5
2024-06-28T0900,1230A,120.1197,30.3119,杭州市,和睦小学,,7,6,6,3,4,13,,11,11,13,21,3,3,0.6,0.6
2024-06-28T0900,1231A,120.3019,30.4183,杭州市,临平镇,,13,13,9,9,6,19,,16,15,19,23,4,4,0.6,0.6
2024-06-28T0900,1232A,120.2697,30.1819,杭州市,城厢镇,,36,,11,25,10,15,,22,21,25,21,4,4,0.8,0.7
2024-06-28T0900,1233A,120.0883,30.1808,杭州市,云栖,,23,23,10,7,4,13,,7,7,22,19,7,7,0.6,0.6
2024-06-28T0900,3557A,119.9464,30.0494,杭州市,镇二中,,18,,8,12,8,22,,21,20,14,16,6,6,0.9,0.8
2024-06-28T0900,3558A,119.7183,30.2367,杭州市,市府大楼,,15,,9,10,10,21,,15,15,15,20,6,6,0.7,0.7
2024-06-28T0900,3656A,120.1556,30.2864,杭州市,消防大队,,12,12,7,7,5,24,,25,24,13,16,6,6,0.7,0.7
2024-06-28T0900,1270A,117.1959,31.7848,合肥市,明珠广场,,13,9,22,9,12,36,,53,52,17,14,8,8,0.4,0.3
2024-06-28T0900,1271A,117.3072,31.8764,合肥市,三里街,,14,6,15,3,9,42,,50,49,20,18,6,6,0.4,0.4
2024-06-28T0900,1272A,117.2588,31.8707,合肥市,琥珀山庄,,19,9,22,3,9,58,,61,60,9,11,4,4,0.4,0.5
2024-06-28T0900,1273A,117.1604,31.9052,合肥市,董铺水库,,18,6,20,3,12,57,,54,54,8,12,2,2,0.3,0.4
2024-06-28T0900,1274A,117.25,31.8571,合肥市,长江中路,,22,22,27,11,14,47,,53,53,17,13,4,5,0.6,0.6
2024-06-28T0900,1275A,117.266,31.9436,合肥市,庐阳区,,19,9,23,3,14,59,,56,55,16,17,8,8,0.4,0.5
2024-06-28T0900,1276A,117.336,31.8586,合肥市,瑶海区,,14,9,14,3,7,43,,52,51,15,11,5,6,0.2,0.2
2024-06-28T0900,1277A,117.3027,31.7964,合肥市,包河区,,15,6,10,3,5,45,,58,56,7,7,5,4,0.4,0.4
2024-06-28T0900,1278A,117.2776,31.7385,合肥市,滨湖新区,,14,9,12,7,7,43,,57,56,9,9,7,7,0.5,0.5
2024-06-28T0900,1279A,117.1318,31.8403,合肥市,高新区,,16,12,19,3,12,50,,59,58,14,11,7,7,0.5,0.5
2024-06-28T0900,3464A,117.3803,31.9147,合肥市,高教基地,,15,6,13,3,7,48,,52,51,8,10,6,6,0.3,0.4
2024-06-28T0900,3614A,79.924,37.0877,和田地区,地区环保局,颗粒物(PM10),150,250,248,72,47,88,,95,93,7,3,8,8,0.5,0.5
2024-06-28T0900,3615A,79.9131,37.113,和田地区,市环保局,颗粒物(PM10),166,282,216,71,64,66,,92,89,17,8,7,8,0.5,0.5
2024-06-28T0900,2516A,108.2011,24.715,河池市,东仁乐园,,17,17,27,6,9,25,,24,23,2,4,4,5,0.6,0.6
2024-06-28T0900,2517A,108.0497,24.6947,河池市,市环保站,,24,24,18,9,9,25,,28,27,9,8,18,9,0.6,0.5
2024-06-28T0900,2518A,108.0983,24.6989,河池市,市疾控中心,,29,27,24,20,11,23,,25,24,11,10,9,9,0.5,0.4
2024-06-28T0900,1696A,114.6778,23.7569,河源市,源西,,23,20,21,16,17,36,,15,15,8,12,4,4,0.5,0.5
2024-06-28T0900,1697A,114.6944,23.7586,河源市,东埔,,27,27,23,3,7,37,,26,26,9,10,7,6,0.5,0.5
2024-06-28T0900,1698A,114.6892,23.7233,河源市,老城,,25,25,23,7,5,38,,19,19,3,6,6,5,0.5,0.5
2024-06-28T0900,1718A,115.4208,35.2464,菏泽市,气象局,颗粒物(PM10),56,62,75,27,26,87,,96,91,14,12,4,3,0.3,0.2
2024-06-28T0900,1719A,115.4747,35.2375,菏泽市,市政协,,,59,74,22,31,,,93,88,11,10,4,3,0.3,0.2
2024-06-28T0900,3374A,115.5564,35.0891,菏泽市,定陶老年大学,,48,48,69,14,23,82,,78,75,12,11,4,4,0.4,0.3
2024-06-28T0900,3647A,115.4702,35.2706,菏泽市,菏泽医专,颗粒物(PM10),54,57,71,18,24,81,,90,84,13,13,2,2,0.4,0.3
2024-06-28T0900,2514A,111.5264,24.4172,贺州市,环保小区,,35,35,22,14,12,33,,26,26,16,12,8,7,0.6,0.5
2024-06-28T0900,2515A,111.5608,24.4078,贺州市,政协大楼,,,30,25,12,12,,,23,23,15,15,8,8,,0.7
2024-06-28T0900,3534A,111.4744,24.4553,贺州市,西湾,,33,33,23,20,12,34,,19,19,17,14,10,9,0.6,0.6
2024-06-28T0900,2385A,114.17,35.9019,鹤壁市,市监测站,颗粒物(PM10),64,78,56,38,26,133,,79,79,21,18,7,8,0.8,0.5
2024-06-28T0900,2386A,114.2956,35.7511,鹤壁市,市交警支队,颗粒物(PM10),71,92,63,40,28,101,,85,84,22,18,10,7,0.6,0.4
2024-06-28T0900,2387A,114.2878,35.7306,鹤壁市,迎宾馆,颗粒物(PM10),74,97,58,43,32,98,,81,81,29,25,11,8,0.5,0.4
2024-06-28T0900,3474A,114.2617,35.6822,鹤壁市,大新区,颗粒物(PM10),72,93,69,49,29,93,,66,66,32,29,8,7,0.4,0.3
2024-06-28T0900,3596A,114.1572,35.9603,鹤壁市,南山宾馆,颗粒物(PM10),62,74,53,43,30,126,,111,109,20,12,9,9,0.5,0.4
2024-06-28T0900,2244A,130.2537,47.3416,鹤岗市,哈啤分公司,,30,30,29,17,18,64,,42,42,8,11,17,20,0.5,0.5
2024-06-28T0900,2245A,130.2684,47.3086,鹤岗市,斯达机电,,24,24,24,14,11,51,,51,49,11,13,14,14,0.4,0.4
2024-06-28T0900,2246A,130.3114,47.3388,鹤岗市,东山纸板厂,,15,8,28,8,12,48,,18,18,12,15,17,16,0.3,0.4
2024-06-28T0900,2247A,130.1097,47.3382,鹤岗市,五号水库,,20,11,15,6,6,62,,30,30,5,7,9,9,0.1,0.1
2024-06-28T0900,2263A,127.4833,50.2524,黑河市,交通局,,31,31,32,16,17,76,,80,78,10,8,7,6,0.4,0.4
2024-06-28T0900,2264A,127.5144,50.2341,黑河市,环保局,,26,26,28,12,16,83,,88,86,9,8,4,5,0.3,0.3
2024-06-28T0900,2265A,127.5291,50.2472,黑河市,大黑河岛,,,,32,28,25,,,,,13,12,13,9,,
2024-06-28T0900,1074A,115.6838,37.7541,衡水市,电机北厂,颗粒物(PM10),81,111,74,34,23,134,,132,129,9,9,6,5,0.4,0.3
2024-06-28T0900,1075A,115.6303,37.7316,衡水市,市监测站,颗粒物(PM10),67,84,62,25,21,127,,118,117,13,12,5,5,0.7,0.5
2024-06-28T0900,3188A,115.6683,37.7217,衡水市,市城管局,颗粒物(PM10),70,90,63,39,24,132,,123,122,12,11,6,5,0.5,0.4
2024-06-28T0900,3459A,115.5989,37.5491,衡水市,地表水厂,颗粒物(PM10),71,92,73,29,20,133,,97,97,11,18,8,7,0.4,0.3
2024-06-28T0900,2456A,112.5003,26.9167,衡阳市,原169医院,,43,43,38,23,17,39,,18,18,8,16,10,7,0.9,0.9
2024-06-28T0900,2457A,112.6194,26.9258,衡阳市,衡阳化工总厂,,,46,40,,,31,,15,15,16,12,8,8,0.8,0.7
2024-06-28T0900,2458A,112.6211,26.8956,衡阳市,珠晖区环保局,,,37,37,,,60,,23,23,10,16,10,6,0.7,0.8
2024-06-28T0900,2459A,112.6197,26.8733,衡阳市,市委党校,,19,18,29,13,19,60,,24,24,9,12,11,8,0.7,0.7
2024-06-28T0900,2460A,112.6006,26.8919,衡阳市,市监测站,,40,40,34,21,24,50,,20,20,11,13,9,8,0.7,0.8
2024-06-28T0900,2461A,112.5664,26.9056,衡阳市,真空机电公司,颗粒物(PM10),74,98,45,27,23,29,,14,14,18,15,29,15,1.6,1.2
2024-06-28T0900,3399A,112.6703,26.882,衡阳市,师范学院,,39,32,29,27,15,60,,18,18,8,9,16,9,0.7,0.7
2024-06-28T0900,2608A,103.3772,23.3993,红河哈尼族彝族自治州,污水处理厂,,13,12,13,9,10,30,,33,32,9,6,4,4,0.4,0.4
2024-06-28T0900,2609A,103.3861,23.35,红河哈尼族彝族自治州,监测站,,20,,11,14,7,34,,35,34,7,5,4,6,0.4,0.3
2024-06-28T0900,3038A,103.3758,23.368,红河哈尼族彝族自治州,州图书馆,,12,8,8,8,6,34,,35,35,8,7,2,2,0.4,0.4
2024-06-28T0900,1090A,111.6507,40.7517,呼和浩特市,呼市一监,颗粒物(PM10),65,80,61,34,28,141,,101,101,16,16,10,8,0.5,0.5
2024-06-28T0900,1091A,111.6572,40.8033,呼和浩特市,小召,颗粒物(PM10),65,80,60,42,26,127,,114,114,26,20,10,8,0.7,0.5
2024-06-28T0900,1094A,111.7516,40.8369,呼和浩特市,如意水处理厂,颗粒物(PM10),70,89,59,40,25,121,,89,89,25,22,8,7,0.6,0.5
2024-06-28T0900,1095A,111.7276,40.8062,呼和浩特市,二十九中,颗粒物(PM10),64,77,62,39,28,125,,96,96,26,21,6,5,0.6,0.5
2024-06-28T0900,1096A,111.5512,40.7866,呼和浩特市,工大金川校区,颗粒物(PM10),72,94,67,41,28,113,,68,68,28,27,13,9,0.6,0.5
2024-06-28T0900,1097A,111.717,40.7612,呼和浩特市,化肥厂生活区,细颗粒物(PM2.5),145,130,89,111,36,123,,104,103,34,20,13,9,0.5,0.5
2024-06-28T0900,3698A,111.5968,40.8178,呼和浩特市,红旗小学,颗粒物(PM10),73,95,69,46,35,122,,74,74,29,35,12,7,0.6,0.5
2024-06-28T0900,3699A,111.6518,40.8389,呼和浩特市,海东办,颗粒物(PM10),69,88,65,44,31,123,,96,96,26,20,13,11,0.7,0.6
2024-06-28T0900,2192A,119.7594,49.2261,呼伦贝尔市,区环保局,,43,43,35,8,18,89,,90,88,20,16,16,5,0.6,0.5
2024-06-28T0900,3061A,119.7512,49.1577,呼伦贝尔市,国华电力东,,32,14,23,12,12,102,,100,98,7,6,6,4,0.4,0.4
2024-06-28T0900,1250A,120.0751,30.8669,湖州市,城西水厂,,26,26,14,18,9,20,,23,19,20,26,4,3,0.6,0.5
2024-06-28T0900,2873A,120.0875,30.8955,湖州市,仁皇山新区,,30,30,12,19,7,18,,16,14,21,28,5,5,0.7,0.7
2024-06-28T0900,2907A,120.1844,30.8596,湖州市,吴兴区站,,32,22,10,22,9,14,,28,25,26,19,6,6,0.6,0.5
2024-06-28T0900,3562A,120.4148,30.8538,湖州市,南浔区站,,23,19,13,16,9,13,,30,26,22,14,3,3,0.6,0.5
2024-06-28T0900,1607A,120.9092,40.7136,葫芦岛市,龙港区,,28,25,24,10,10,87,,97,94,10,11,6,7,0.5,0.6
2024-06-28T0900,1608A,120.8392,40.7514,葫芦岛市,化工街,,29,29,40,3,12,92,,95,92,17,18,10,10,0.7,0.7
2024-06-28T0900,1609A,120.8341,40.7073,葫芦岛市,新区,,37,37,39,16,14,96,,102,98,13,13,5,6,0.6,0.6
2024-06-28T0900,1610A,120.8695,40.7677,葫芦岛市,东城区,,37,37,37,12,13,110,,107,105,12,13,8,10,0.6,0.7
2024-06-28T0900,2482A,109.5981,27.5721,怀化市,林科所,,14,13,10,3,4,44,,49,48,3,3,6,8,0.6,0.6
2024-06-28T0900,2483A,109.9453,27.5444,怀化市,河西地税局,,10,10,17,7,11,31,,22,22,3,9,1,4,0.4,0.5
2024-06-28T0900,2484A,109.9781,27.5342,怀化市,市四医院,,23,23,18,10,15,26,,19,19,6,8,3,5,0.5,0.6
2024-06-28T0900,2485A,109.9972,27.5578,怀化市,监测楼,,21,21,18,3,10,25,,18,18,6,7,7,8,0.6,0.6
2024-06-28T0900,2486A,110.0394,27.583,怀化市,市委党校,,20,20,16,14,9,22,,14,14,8,7,6,8,0.5,0.5
2024-06-28T0900,1210A,119.036,33.5981,淮安市,钵池山,,39,39,28,24,17,83,,63,63,15,17,7,7,0.7,0.6
2024-06-28T0900,1211A,119.007,33.575,淮安市,北京南路,,39,34,28,27,18,78,,63,63,11,11,7,6,0.7,0.5
2024-06-28T0900,1212A,118.989,33.6067,淮安市,市监测站,,44,44,31,29,16,76,,65,64,15,13,6,6,0.7,0.5
2024-06-28T0900,1213A,119.135,33.5039,淮安市,楚州区监测站,,42,37,30,29,19,76,,57,57,16,16,7,5,0.6,0.5
2024-06-28T0900,1214A,119.0186,33.6297,淮安市,淮阴区监测站,,48,48,33,29,19,83,,61,61,15,18,7,6,0.5,0.4
2024-06-28T0900,3426A,118.8755,33.2894,淮安市,新华书店,,,39,32,25,19,,,63,62,12,16,7,6,0.8,0.7
2024-06-28T0900,2282A,116.8004,33.975,淮北市,监测站,,41,41,59,18,31,90,,72,70,11,7,8,6,0.6,0.5
2024-06-28T0900,2283A,116.8091,33.9007,淮北市,烈山区政府,,36,36,57,16,22,80,,63,60,14,11,7,5,0.6,0.6
2024-06-28T0900,3330A,116.8873,33.9836,淮北市,杜集区检察院,,44,44,57,23,32,94,,80,77,9,7,7,6,0.6,0.5
2024-06-28T0900,4017A,116.7923,33.9535,淮北市,市博物馆,,42,42,58,18,31,88,,72,69,12,7,6,5,0.7,0.6
2024-06-28T0900,2277A,116.8305,32.7727,淮南市,潘集区政府,,36,36,39,21,24,59,,43,43,12,11,12,9,0.3,0.3
2024-06-28T0900,2278A,117.0067,32.6524,淮南市,师范学院,,26,26,43,15,31,53,,53,51,13,11,12,11,0.2,0.3
2024-06-28T0900,2279A,116.8569,32.5951,淮南市,谢家集区政府,,17,16,29,8,18,52,,46,44,9,11,5,5,0.2,0.3
2024-06-28T0900,2280A,116.8281,32.633,淮南市,八公山区政府,,29,29,45,13,24,52,,47,45,11,10,4,3,0.3,0.4
2024-06-28T0900,2281A,116.6325,32.6201,淮南市,焦岗湖风景区管理处,,20,20,32,7,16,27,,25,23,13,11,3,2,0.3,0.3
2024-06-28T0900,2894A,117.0566,32.6531,淮南市,经济技术开发区消防队,,16,13,31,10,12,51,,48,46,14,12,4,4,0.2,0.3
2024-06-28T0900,3329A,117.0108,32.5893,淮南市,山南新区,,17,13,39,3,17,54,,50,48,13,15,1,2,0.4,0.5
2024-06-28T0900,2446A,114.9028,30.4742,黄冈市,职工中心,,13,6,14,3,10,40,,42,40,9,13,6,6,0.5,0.5
2024-06-28T0900,2929A,114.8858,30.4519,黄冈市,红卫路,,15,12,14,10,10,43,,44,43,2,4,8,8,0.5,0.5
2024-06-28T0900,3398A,114.9136,30.4445,黄冈市,市林业局,,12,9,15,6,11,37,,37,36,8,11,5,5,0.5,0.5
2024-06-28T0900,2672A,102.0199,35.5102,黄南藏族自治州,同仁县隆务镇,,24,,21,15,10,75,,78,73,1,2,8,10,0.3,0.3
2024-06-28T0900,2295A,118.2903,29.6963,黄山市,延安路89号,,14,14,14,7,5,21,,16,16,5,8,4,4,0.4,0.4
2024-06-28T0900,2296A,118.327,29.7178,黄山市,黄山东路89号,,9,,8,6,5,20,,10,10,7,8,5,4,0.4,0.5
2024-06-28T0900,2297A,118.1371,30.2756,黄山市,黄山区政府5号楼,,8,8,6,3,4,19,,17,16,5,6,6,6,0.3,0.4
2024-06-28T0900,2423A,115.0601,30.2313,黄石市,沈家营,,18,18,20,3,4,28,,19,19,22,22,7,8,0.9,0.6
2024-06-28T0900,2424A,115.0817,30.2006,黄石市,陈家湾,,14,12,18,3,6,43,,34,34,7,12,12,10,0.4,0.5
2024-06-28T0900,2426A,114.8988,30.2019,黄石市,铁山,,14,11,15,3,2,42,,40,40,2,7,8,11,0.5,0.5
2024-06-28T0900,2427A,115.0307,30.2092,黄石市,团城山,,17,17,15,3,2,31,,34,32,15,10,12,6,0.6,0.5
2024-06-28T0900,3149A,115.0235,30.1578,黄石市,笔架山北路,,18,18,21,3,3,29,,30,29,12,12,6,6,0.7,0.7
2024-06-28T0900,1392A,114.4183,23.0528,惠州市,河南岸金山湖子站,,18,18,15,6,6,33,,23,23,4,4,4,4,0.3,0.3
2024-06-28T0900,1393A,114.4053,23.0822,惠州市,下埔横江三路子站,,22,22,19,7,7,36,,28,28,6,5,6,6,0.4,0.4
2024-06-28T0900,1394A,114.4103,23.1142,惠州市,江北云山西路子站,,18,18,16,10,7,34,,23,23,3,3,8,8,0.5,0.5
2024-06-28T0900,1395A,114.4645,22.7833,惠州市,惠阳区承修路船湖子站,,14,14,15,3,5,29,,28,28,8,7,1,1,0.5,0.5
2024-06-28T0900,1396A,114.5317,22.7422,惠州市,大亚湾管委会子站,,13,13,16,6,5,39,,32,32,7,8,5,6,0.5,0.5
2024-06-28T0900,3314A,114.4338,22.8134,惠州市,惠阳秋长,,13,12,12,3,7,40,,28,28,4,5,4,4,0.5,0.5
2024-06-28T0900,3452A,114.6517,22.775,惠州市,大亚湾霞涌,,,,12,,3,,,,,,3,,4,,0.4
2024-06-28T0900,2240A,130.9762,45.3001,鸡西市,环保局,,45,45,45,19,23,90,,36,36,16,22,8,7,0.5,0.5
2024-06-28T0900,2243A,130.9429,45.3039,鸡西市,第一中学,颗粒物(PM10),52,54,32,28,18,107,,55,55,6,7,8,8,0.6,0.5
2024-06-28T0900,3707A,131.0207,45.3073,鸡西市,欧美日汽修厂,,,,49,,24,,,26,26,13,18,11,6,0.7,0.7
2024-06-28T0900,3709A,130.9967,45.3106,鸡西市,市政设施管理处,,49,49,54,6,23,106,,31,31,12,16,7,7,0.5,0.5
2024-06-28T0900,2367A,114.9754,27.0803,吉安市,红声器材厂,,41,41,41,20,23,34,,24,24,9,13,16,12,0.4,0.7
2024-06-28T0900,2368A,114.9658,27.0999,吉安市,市森林工业局,,32,29,36,22,24,28,,21,21,13,13,14,12,0.5,0.6
2024-06-28T0900,2369A,114.99,27.1312,吉安市,市环境监测站,,29,29,37,16,21,29,,21,21,7,11,14,13,0.6,0.8
2024-06-28T0900,2370A,115.0093,27.0968,吉安市,青原区法院,,,26,37,14,23,,,19,18,10,16,,15,0.3,0.4
2024-06-28T0900,1772A,126.54,43.8622,吉林市,哈达湾,,48,43,56,19,28,153,,139,136,9,15,6,6,0.6,0.6
2024-06-28T0900,1773A,126.5844,43.8358,吉林市,东局子,,47,41,57,22,26,150,,130,129,12,18,6,6,0.6,0.7
2024-06-28T0900,1774A,126.5052,43.8245,吉林市,电力学院,颗粒物(PM10),52,53,59,20,28,145,,103,103,13,24,10,10,0.6,0.7
2024-06-28T0900,1775A,126.6133,43.8972,吉林市,江北,,47,45,57,18,25,148,,135,135,13,16,9,9,0.7,0.7
2024-06-28T0900,1776A,126.555,43.8306,吉林市,江南公园,,47,43,48,26,28,148,,126,126,12,20,5,5,0.6,0.7
2024-06-28T0900,1778A,126.7061,43.7133,吉林市,丰满,,,,,,,,,,,,,,,,
2024-06-28T0900,2868A,126.4739,43.953,吉林市,九站,,49,49,53,19,24,150,,148,147,16,19,8,8,0.6,0.7
2024-06-28T0900,1299A,116.9862,36.6114,济南市,科干所,颗粒物(PM10),52,53,37,22,14,137,,134,132,10,14,8,8,0.5,0.3
2024-06-28T0900,1300A,116.9376,36.665,济南市,农科所,颗粒物(PM10),55,59,45,20,12,135,,121,121,16,20,8,8,0.4,0.4
2024-06-28T0900,1301A,117.1265,36.6734,济南市,开发区,"颗粒物(PM10),臭氧1小时",57,63,34,22,10,165,,140,140,8,13,7,8,0.4,0.4
2024-06-28T0900,1303A,117.0624,36.6868,济南市,省种子仓库,颗粒物(PM10),59,68,49,24,13,146,,129,129,15,24,6,7,0.6,0.5
2024-06-28T0900,1304A,116.9489,36.6447,济南市,机床二厂,颗粒物(PM10),51,51,39,20,16,143,,130,130,12,24,10,10,0.3,0.3
2024-06-28T0900,1305A,117.0495,36.663,济南市,市监测站,,,61,37,20,14,154,,142,142,17,18,11,11,,0.3
2024-06-28T0900,1306A,116.7675,36.5484,济南市,长清党校,颗粒物(PM10),56,61,51,22,17,137,,134,134,8,11,9,9,0.6,0.5
2024-06-28T0900,1616A,117.6795,36.229,济南市,技术学院,,,61,25,27,10,110,,79,79,,19,19,10,1.0,0.5
2024-06-28T0900,1961A,117.532,36.6868,济南市,东山小学,颗粒物(PM10),52,54,34,20,9,148,,119,119,13,16,7,8,0.5,0.4
2024-06-28T0900,3059A,117.7161,36.2049,济南市,泰兴公司,颗粒物(PM10),57,63,30,27,10,105,,70,70,29,19,25,11,1.1,0.4
2024-06-28T0900,3064A,117.6867,36.2171,济南市,莱芜战役纪念馆,颗粒物(PM10),59,68,39,19,8,97,,71,71,27,15,19,10,1.0,0.5
2024-06-28T0900,3494A,117.1673,36.9782,济南市,济阳区政府,颗粒物(PM10),73,95,66,20,12,118,,74,74,28,26,6,6,0.3,0.2
2024-06-28T0900,3495A,117.1171,36.63,济南市,锦屏中学,臭氧1小时,64,63,32,24,11,171,,148,148,12,15,9,10,0.5,0.5
2024-06-28T0900,3682A,116.9814,36.6819,济南市,济南四建,,48,48,36,22,13,139,,128,128,12,15,8,8,0.6,0.5
2024-06-28T0900,1653A,116.6251,35.4302,济宁市,火炬城,,,,63,,24,88,,84,79,,13,,10,0.8,0.6
2024-06-28T0900,1655A,116.5491,35.4042,济宁市,电化厂,颗粒物(PM10),54,58,71,34,28,95,,90,86,11,12,8,7,0.7,0.4
2024-06-28T0900,3500A,116.5814,35.3707,济宁市,北湖一中,颗粒物(PM10),51,52,55,27,24,90,,85,81,13,14,8,6,0.6,0.5
2024-06-28T0900,3501A,116.8249,35.5593,济宁市,服务中心,颗粒物(PM10),59,67,69,34,23,94,,86,84,17,14,6,5,0.7,0.5
2024-06-28T0900,3678A,116.5907,35.4054,济宁市,市第七中学,颗粒物(PM10),58,66,64,27,22,96,,85,82,14,14,7,6,0.7,0.5
2024-06-28T0900,2255A,130.2751,46.8028,佳木斯市,佳纺,,43,39,30,24,18,136,,120,120,7,6,8,7,0.6,0.5
2024-06-28T0900,2256A,130.3995,46.8307,佳木斯市,发电厂,,46,46,38,27,20,135,,113,113,11,10,6,6,0.6,0.5
2024-06-28T0900,2257A,130.3258,46.7975,佳木斯市,环保局,,50,50,34,28,20,126,,128,127,10,7,7,7,0.8,0.6
2024-06-28T0900,2258A,130.3648,46.8032,佳木斯市,十一中,,,48,32,28,21,,,115,115,15,13,8,7,0.7,0.6
2024-06-28T0900,2259A,130.3794,46.7588,佳木斯市,四丰,,33,31,24,23,14,102,,98,96,5,4,1,1,0.8,0.7
2024-06-28T0900,1252A,120.7436,30.778,嘉兴市,清河小学,,,,8,,6,,,43,,,22,,5,,0.7
2024-06-28T0900,1253A,120.726,30.7478,嘉兴市,嘉兴学院,,19,16,8,13,9,1,,1,1,20,20,2,2,0.6,0.4
2024-06-28T0900,2872A,120.7846,30.7525,嘉兴市,南湖区残联,,16,13,10,11,8,19,,30,30,28,19,5,4,0.6,0.5
2024-06-28T0900,3407A,120.6916,30.7739,嘉兴市,秀洲住建,,16,14,8,11,6,7,,24,19,24,16,4,3,0.9,0.7
2024-06-28T0900,1945A,98.2908,39.7711,嘉峪关市,气象局,颗粒物(PM10),51,51,73,24,23,118,,94,94,9,14,3,17,0.4,0.6
2024-06-28T0900,2884A,98.2672,39.7978,嘉峪关市,酒钢宾馆,,38,29,77,17,32,119,,98,98,9,16,20,37,0.3,0.6
2024-06-28T0900,3248A,98.2643,39.7724,嘉峪关市,雄关区,,35,28,62,14,23,110,,85,85,12,16,7,14,0.3,0.4
2024-06-28T0900,1383A,113.1064,22.6058,江门市,北街,,24,24,17,3,8,40,,28,28,8,10,3,3,0.6,0.5
2024-06-28T0900,1384A,113.0731,22.5835,江门市,西区,,20,20,18,3,8,40,,30,30,11,9,8,7,0.5,0.3
2024-06-28T0900,1385A,113.0219,22.5311,江门市,圭峰西,,14,14,17,3,6,40,,28,28,10,9,3,3,0.7,0.4
2024-06-28T0900,1386A,113.0828,22.5947,江门市,东湖,,14,11,15,3,7,43,,30,30,10,10,7,6,0.5,0.4
2024-06-28T0900,3311A,113.1075,22.5647,江门市,江海富民,,29,29,29,10,11,43,,29,29,7,11,6,5,0.5,0.5
2024-06-28T0900,3449A,113.05,22.4667,江门市,新会银湖,,11,10,16,3,5,35,,22,22,10,11,3,3,0.6,0.5
2024-06-28T0900,1828A,113.227,35.2125,焦作市,市环保局,颗粒物(PM10),54,58,57,31,27,138,,132,131,12,9,9,4,0.3,0.2
2024-06-28T0900,1830A,113.1992,35.2590,焦作市,影视城,,,,,,,,,,,,,,,,
2024-06-28T0900,3169A,113.2725,35.2067,焦作市,太极体育中心,颗粒物(PM10),57,64,74,34,27,136,,120,120,16,12,10,6,0.7,0.6
2024-06-28T0900,3335A,113.3137,35.2641,焦作市,马村街道办,颗粒物(PM10),53,56,64,32,27,146,,131,131,13,12,9,5,0.5,0.5
2024-06-28T0900,3336A,113.2465,35.2373,焦作市,焦作技师学院,,,,59,,23,,,173,,,10,,3,,0.6
2024-06-28T0900,3477A,113.1656,35.2539,焦作市,中站许衡医院,,45,33,52,26,25,143,,138,136,12,9,7,5,0.5,0.3
2024-06-28T0900,3981A,113.2449,35.1803,焦作市,原李万街道办,颗粒物(PM10),54,58,62,36,26,139,,122,122,14,12,14,6,0.7,0.5
2024-06-28T0900,1708A,116.3701,23.5345,揭阳市,新兴,,,,30,4,8,34,,24,24,10,11,6,5,0.7,0.6
2024-06-28T0900,1709A,116.3264,23.5443,揭阳市,西马,,12,10,25,3,7,37,,25,25,4,6,2,2,0.8,0.7
2024-06-28T0900,1710A,116.3611,23.5626,揭阳市,东兴,,,,34,5,11,34,,20,20,9,9,6,4,0.8,0.7
2024-06-28T0900,1711A,116.4151,23.5294,揭阳市,渔湖,,,,36,,6,,,17,17,,13,,4,,0.6
2024-06-28T0900,3320A,116.403,23.5699,揭阳市,曲溪,,18,17,19,12,9,47,,31,31,11,11,5,7,0.7,0.5
2024-06-28T0900,1944A,102.1692,38.5167,金昌市,天庆家园,,36,36,43,25,26,99,,125,122,27,10,12,15,0.6,0.5
2024-06-28T0900,3170A,102.1864,38.5253,金昌市,市委党校,颗粒物(PM10),51,51,62,29,28,121,,135,134,16,10,72,16,0.5,0.5
2024-06-28T0900,4022A,102.1647,38.5371,金昌市,金川区人防中心,颗粒物(PM10),54,58,67,26,25,126,,144,143,24,10,34,18,1.1,0.6
2024-06-28T0900,1262A,119.647,29.077,金华市,十五中,,37,37,26,24,17,7,,10,8,29,26,2,2,0.9,0.8
2024-06-28T0900,1263A,119.686,29.1029,金华市,监测站,,38,38,27,22,17,5,,16,13,28,24,2,1,0.6,0.6
2024-06-28T0900,3659A,119.656,29.1131,金华市,气象局,,33,33,29,18,15,3,,6,5,24,27,5,4,0.7,0.7
2024-06-28T0900,1767A,121.1115,41.0879,锦州市,南山,,36,34,46,14,22,114,,104,103,14,16,24,16,0.6,0.7
2024-06-28T0900,1768A,121.0533,40.8434,锦州市,开发区,颗粒物(PM10),53,55,57,9,13,92,,94,91,9,16,8,10,0.5,0.6
2024-06-28T0900,1769A,121.1836,41.1119,锦州市,百股街道,,37,36,36,7,13,118,,108,106,15,15,22,16,0.6,0.7
2024-06-28T0900,1770A,121.1178,41.1222,锦州市,天安街道,,34,29,43,18,26,106,,96,95,13,15,16,13,0.7,0.7
2024-06-28T0900,1771A,121.1303,41.1386,锦州市,北湖公园,,35,26,44,14,19,112,,104,102,17,17,16,15,0.5,0.6
2024-06-28T0900,2160A,112.85,35.5051,晋城市,自来水公司,颗粒物(PM10),53,55,50,27,21,148,,130,128,22,16,8,7,0.9,0.6
2024-06-28T0900,2161A,112.8318,35.4936,晋城市,白云商贸,颗粒物(PM10),59,67,52,31,21,149,,122,120,22,15,8,6,0.8,0.5
2024-06-28T0900,2162A,112.8508,35.4887,晋城市,市环保局,颗粒物(PM10),62,73,57,27,22,139,,113,111,25,19,7,6,0.8,0.5
2024-06-28T0900,2163A,112.8676,35.4897,晋城市,技术学院,颗粒物(PM10),59,68,53,24,22,135,,106,104,29,22,6,5,1.0,0.6
2024-06-28T0900,2165A,112.8453,35.546,晋城市,白马寺,,,,,,,,,,,,,,,,
2024-06-28T0900,3620A,112.8271,35.4828,晋城市,泽州一中,颗粒物(PM10),56,61,52,27,20,147,,122,122,23,17,7,7,0.8,0.6
2024-06-28T0900,2171A,112.7532,37.6945,晋中市,锦纶小区,颗粒物(PM10),63,75,76,31,28,146,,104,104,23,23,12,9,0.6,0.4
2024-06-28T0900,2173A,112.7249,37.7067,晋中市,南都小区,颗粒物(PM10),64,77,73,30,24,160,,117,117,22,20,14,11,0.6,0.5
2024-06-28T0900,2174A,112.6991,37.6982,晋中市,榆次区政府,颗粒物(PM10),68,85,72,24,28,150,,122,121,24,21,14,9,0.9,0.4
2024-06-28T0900,2865A,112.7195,37.6828,晋中市,榆次三中,颗粒物(PM10),68,85,73,27,23,150,,101,101,21,21,12,8,0.6,0.5
2024-06-28T0900,2439A,112.2014,31.0481,荆门市,竹园小学,,20,9,27,3,14,62,,92,85,29,11,8,8,0.6,0.4
2024-06-28T0900,2440A,112.1969,30.9891,荆门市,掇刀,,25,,26,11,16,78,,106,101,24,16,6,6,0.6,0.5
2024-06-28T0900,2441A,112.2213,31.0386,荆门市,石化一小,,22,16,26,10,12,69,,100,95,25,10,14,12,0.5,0.4
2024-06-28T0900,3012A,112.1849,31.0362,荆门市,西山林语,,25,,23,7,14,78,,77,74,10,7,7,8,0.5,0.4
2024-06-28T0900,3547A,112.1632,31.0138,荆门市,龙泉中学南校,,28,6,20,3,9,87,,97,93,14,9,8,8,0.5,0.5
2024-06-28T0900,1844A,112.2494,30.3197,荆州市,市图书馆,,21,,12,3,10,67,,90,90,20,10,6,6,0.6,0.5
2024-06-28T0900,1845A,112.2008,30.3544,荆州市,市委党校,,23,,14,3,13,73,,99,98,17,8,6,6,0.5,0.5
2024-06-28T0900,3194A,112.2747,30.3122,荆州市,管委会,,24,,11,3,12,74,,85,85,18,10,5,5,0.4,0.3
2024-06-28T0900,3548A,112.1655,30.3364,荆州市,学苑路,,25,,14,6,11,78,,105,103,21,13,6,7,0.5,0.4
2024-06-28T0900,2342A,117.3102,29.3867,景德镇市,王港中学,,,,,,,,,,,,,,,,
2024-06-28T0900,2343A,117.2117,29.2933,景德镇市,老干部活动中心,,8,6,13,3,9,24,,30,30,12,14,6,7,0.4,0.5
2024-06-28T0900,2344A,117.1894,29.2789,景德镇市,兽医站,,13,13,15,7,10,31,,32,32,7,12,5,7,0.2,0.4
2024-06-28T0900,2345A,117.1547,29.2617,景德镇市,台达陶瓷,,18,,20,12,18,26,,23,23,17,23,28,34,0.3,0.5
2024-06-28T0900,2346A,117.2461,29.2956,景德镇市,陶研所,,10,7,11,6,7,30,,34,33,7,9,4,4,0.3,0.4
2024-06-28T0900,1803A,115.9872,29.6815,九江市,十里,,10,6,6,3,4,24,,15,15,19,25,10,9,0.7,0.6
2024-06-28T0900,1804A,115.9584,29.7046,九江市,茅山头,,11,7,5,3,4,19,,18,17,21,21,9,10,0.7,0.6
2024-06-28T0900,1805A,115.9877,29.7295,九江市,西园,,16,,8,11,6,39,,30,30,13,23,11,12,0.8,0.8
2024-06-28T0900,1806A,116.0172,29.6547,九江市,五七二七厂,,14,,4,3,5,42,,22,22,4,11,8,9,0.6,0.7
2024-06-28T0900,1808A,115.9114,29.6038,九江市,综合工业园,,20,,4,8,2,14,,18,14,39,41,15,13,0.7,0.7
2024-06-28T0900,1809A,116.0721,29.7535,九江市,石化总厂,,12,9,7,8,6,33,,41,41,8,15,8,8,0.7,0.7
2024-06-28T0900,1810A,115.9773,29.5698,九江市,庐山气象台,,20,6,3,3,3,53,,54,54,2,2,11,13,2.0,0.8
2024-06-28T0900,3190A,116.0254,29.6994,九江市,外国语学校,,12,6,7,3,4,36,,32,32,14,21,8,10,0.6,0.7
2024-06-28T0900,2658A,98.5061,39.7443,酒泉市,仓门街子站,颗粒物(PM10),78,105,73,24,22,62,,86,82,26,9,18,14,0.5,0.3
2024-06-28T0900,2659A,98.4989,39.7256,酒泉市,油田生活基地,颗粒物(PM10),64,78,74,18,26,82,,89,86,24,12,16,15,0.4,0.3
2024-06-28T0900,2698A,76.0072,39.4467,喀什地区,巡警大队,颗粒物(PM10),66,81,179,3,35,50,,97,87,35,18,4,3,0.4,0.3
2024-06-28T0900,2699A,75.9755,39.4694,喀什地区,吾办,颗粒物(PM10),52,53,166,22,53,43,,98,86,22,12,3,2,0.6,0.3
2024-06-28T0900,4027A,75.9483,39.4689,喀什地区,老干局,,,,182,,37,47,,96,84,20,11,4,4,0.4,0.3
2024-06-28T0900,1824A,114.3389,34.7781,开封市,肿瘤医院,颗粒物(PM10),62,73,69,19,21,73,,70,66,13,13,3,5,0.7,0.6
2024-06-28T0900,1826A,114.2885,34.7965,开封市,世纪星幼儿园,颗粒物(PM10),59,68,63,24,35,82,,79,74,15,12,1,3,0.5,0.5
2024-06-28T0900,3147A,114.3438,34.8106,开封市,龙亭公园,,,67,65,,26,80,,76,72,16,15,4,4,0.4,0.4
2024-06-28T0900,3210A,114.3644,34.7964,开封市,汴京公园,颗粒物(PM10),58,66,68,26,29,81,,73,70,13,13,1,2,0.4,0.4
2024-06-28T0900,3473A,114.2485,34.8306,开封市,技师学院,,,52,59,22,25,,,89,83,15,12,4,4,0.8,0.7
2024-06-28T0900,3592A,114.4644,34.7556,开封市,祥符区生态环境局,颗粒物(PM10),53,56,66,24,28,72,,66,65,18,24,3,2,0.5,0.4
2024-06-28T0900,1951A,84.895,45.6094,克拉玛依市,长征新村,,44,44,26,3,6,63,,93,88,21,6,10,9,0.2,0.2
2024-06-28T0900,1952A,84.8988,45.5893,克拉玛依市,南林小区,,,,25,,7,,,93,91,15,11,5,4,0.1,0.6
2024-06-28T0900,1954A,84.905,44.3396,克拉玛依市,独山子区,,30,30,39,10,13,73,,100,95,14,10,9,10,0.3,0.3
2024-06-28T0900,1955A,85.6979,46.098,克拉玛依市,乌尔禾区商贸楼,,41,41,17,12,9,45,,72,64,14,6,5,5,0.4,0.2
2024-06-28T0900,3612A,85.1045,45.6899,克拉玛依市,白碱滩区新站,,22,21,28,12,14,69,,94,90,11,5,10,10,0.4,0.4
2024-06-28T0900,2697A,76.1454,39.7142,克孜勒苏柯尔克孜自治州,市人民政府,,35,33,141,19,52,111,,131,127,7,5,12,9,0.2,0.1
2024-06-28T0900,3665A,76.1658,39.7157,克孜勒苏柯尔克孜自治州,克州文化中心,,36,30,140,17,54,114,,126,123,2,4,19,11,0.2,0.2
2024-06-28T0900,1450A,102.8204,24.8886,昆明市,呈贡新区,,18,18,15,3,5,32,,33,33,8,8,2,5,0.5,0.5
2024-06-28T0900,1451A,102.6251,24.9608,昆明市,西山森林公园,,,,,,,,,,,,,,,,
2024-06-28T0900,1452A,102.7252,25.0902,昆明市,龙泉镇,,14,14,12,3,4,25,,23,23,11,13,6,6,0.6,0.5
2024-06-28T0900,1453A,102.7266,25.0375,昆明市,东风东路,,9,,9,3,6,12,,21,20,18,11,2,2,0.5,0.4
2024-06-28T0900,1454A,102.6742,25.0669,昆明市,金鼎山,,10,10,13,3,4,23,,24,24,13,12,7,8,0.4,0.4
2024-06-28T0900,1455A,102.6644,25.0401,昆明市,碧鸡广场,,9,,10,3,5,26,,23,23,8,12,2,3,0.3,0.3
2024-06-28T0900,3179A,102.7494,25.0119,昆明市,官渡区博物馆,,,,9,,4,,,,,,8,,8,,0.4
2024-06-28T0900,3375A,102.8017,24.8336,昆明市,青年创业园,,10,6,6,3,6,29,,30,30,6,8,6,8,0.4,0.4
2024-06-28T0900,3550A,102.7997,24.9786,昆明市,昆明学院,,9,8,10,3,5,26,,32,30,11,8,4,4,0.4,0.4
2024-06-28T0900,3551A,102.5967,24.6736,昆明市,晋宁区生态环境分局,,15,15,12,9,4,27,,28,27,22,19,1,1,0.6,0.6
2024-06-28T0900,3552A,102.6678,24.9856,昆明市,云天化总部,,9,6,6,3,4,26,,25,25,5,6,1,1,0.5,0.5
2024-06-28T0900,1456A,91.1319,29.6514,拉萨市,八廓街,,23,,9,7,7,72,,92,88,13,11,4,5,0.4,0.3
2024-06-28T0900,1457A,91.1221,29.6747,拉萨市,市环保局,,21,6,6,3,5,67,,86,82,21,11,8,8,0.0,0.1
2024-06-28T0900,1458A,91.0874,29.6475,拉萨市,区监测站,,19,,8,7,5,60,,87,81,27,10,6,6,0.6,0.3
2024-06-28T0900,1459A,91.1774,29.6541,拉萨市,西藏大学,,25,6,7,3,6,78,,93,89,6,7,7,7,0.2,0.2
2024-06-28T0900,1460A,90.9798,29.6588,拉萨市,区辐射站,,19,17,9,7,6,59,,90,86,32,12,7,7,0.4,0.3
2024-06-28T0900,1461A,91.0834,29.6292,拉萨市,拉萨火车站,,23,6,8,3,6,72,,95,90,12,8,7,7,0.3,0.2
2024-06-28T0900,2520A,109.2203,23.7256,来宾市,来宾技工学校,,14,14,20,9,11,26,,15,15,5,7,6,7,0.7,0.7
2024-06-28T0900,3535A,109.1781,23.7297,来宾市,兴宾区政府,,13,13,15,7,9,25,,15,15,8,7,6,5,1.0,0.9
2024-06-28T0900,4002A,109.2416,23.7461,来宾市,中南小学,,23,23,24,14,22,25,,14,14,7,9,3,5,0.8,0.7
2024-06-28T0900,1476A,103.631,36.1031,兰州市,兰炼宾馆,,38,,34,23,21,120,,108,108,18,18,8,10,0.3,0.4
2024-06-28T0900,1477A,104.1373,35.9454,兰州市,榆中兰大校区,,,,,,,,,,,,,,,,
2024-06-28T0900,1478A,103.8412,36.0726,兰州市,生物制品所,,,25,34,19,23,,,67,66,39,20,9,9,0.7,0.3
2024-06-28T0900,1479A,103.831,36.0464,兰州市,铁路设计院,,30,25,32,19,19,95,,76,76,50,27,9,9,0.5,0.4
2024-06-28T0900,3186A,103.7158,36.1058,兰州市,教育港,,40,27,34,20,18,126,,101,101,19,13,9,10,0.3,0.3
2024-06-28T0900,3241A,103.7439,36.0842,兰州市,百合公园,,35,27,31,15,17,109,,93,93,21,15,5,6,0.3,0.3
2024-06-28T0900,3242A,103.9611,35.998,兰州市,和平,,47,18,29,12,14,149,,90,90,10,13,10,9,0.5,0.5
2024-06-28T0900,3245A,103.6633,36.533,兰州新区,新区管委会,,35,25,26,19,14,110,,110,110,25,10,11,7,0.5,0.4
2024-06-28T0900,3246A,103.6975,36.4789,兰州新区,舟曲中学,,42,21,27,9,12,133,,114,114,15,8,12,8,0.5,0.5
2024-06-28T0900,1067A,116.6708,39.5111,廊坊市,药材公司,颗粒物(PM10),79,107,63,39,24,132,,84,84,26,15,5,4,0.4,0.4
2024-06-28T0900,1068A,116.7214,39.5589,廊坊市,开发区,颗粒物(PM10),70,89,64,36,23,135,,93,93,29,18,7,5,0.4,0.3
2024-06-28T0900,1070A,116.7244,39.5269,廊坊市,北华航天学院,颗粒物(PM10),75,100,72,33,19,130,,88,88,28,19,5,4,0.4,0.3
2024-06-28T0900,2919A,116.7022,39.5453,廊坊市,河北工业大学,颗粒物(PM10),78,106,71,37,23,132,,90,90,23,13,4,4,0.4,0.3
2024-06-28T0900,2535A,103.7723,29.5462,乐山市,花湖湾,,18,18,16,12,13,14,,20,19,15,11,4,4,0.4,0.3
2024-06-28T0900,2536A,103.7627,29.5844,乐山市,牛耳桥,,23,19,15,16,13,25,,28,27,23,19,3,3,0.8,0.7
2024-06-28T0900,2537A,103.7508,29.6006,乐山市,市第三水厂,,25,21,16,17,13,25,,34,33,27,18,3,2,0.7,0.5
2024-06-28T0900,2538A,103.7571,29.5664,乐山市,市监测站,,22,20,17,15,10,30,,32,30,18,14,1,2,0.8,0.8
2024-06-28T0900,3361A,103.7311,29.5628,乐山市,理工大学,,,22,15,19,12,,,34,32,15,14,,3,0.5,0.5
2024-06-28T0900,2598A,100.2143,26.8576,丽江市,西南郊,,,,,,,,,,,,,,,,
2024-06-28T0900,2599A,100.2497,26.8802,丽江市,丽江古城,,20,20,16,3,11,24,,25,25,16,12,7,6,0.7,0.6
2024-06-28T0900,2600A,100.2203,26.8906,丽江市,市中心,,10,,12,3,9,30,,35,35,11,11,9,8,0.6,0.6
2024-06-28T0900,1267A,119.914,28.4514,丽水市,监测站大楼,,,28,26,20,12,,,4,4,16,16,3,3,0.8,0.7
2024-06-28T0900,1268A,119.93,28.4586,丽水市,莲都小学,,45,45,33,20,11,12,,5,5,15,15,3,3,0.7,0.6
2024-06-28T0900,1269A,119.879,28.4231,丽水市,余庄前,颗粒物(PM10),53,56,37,33,15,8,,4,4,12,10,3,3,0.6,0.5
2024-06-28T0900,1173A,119.176,34.5885,连云港市,市环境监测站,,31,31,23,12,11,91,,85,85,11,10,5,7,0.4,0.4
2024-06-28T0900,3000A,119.3581,34.6972,连云港市,德源药业,,36,36,23,17,8,86,,50,50,23,15,10,5,0.7,0.4
2024-06-28T0900,3007A,119.178,34.844,连云港市,新城一中,,27,24,23,16,7,84,,54,54,22,20,6,5,0.7,0.4
2024-06-28T0900,3008A,119.3608,34.7519,连云港市,胡沟管理处,,46,46,24,19,8,72,,48,48,28,23,13,11,0.3,0.2
2024-06-28T0900,3009A,119.1478,34.5911,连云港市,矿山设计院,,27,24,22,7,9,85,,80,80,11,10,1,2,0.3,0.3
2024-06-28T0900,3434A,119.2413,34.6539,连云港市,工贸学校,,,29,18,14,7,97,,92,92,,4,9,7,,0.6
2024-06-28T0900,3664A,119.4172,34.7341,连云港市,连云街道,颗粒物(PM10),52,54,22,23,8,93,,68,68,24,16,8,4,0.8,0.5
2024-06-28T0900,2571A,102.3431,27.8099,凉山彝族自治州,青龙寺,,12,12,14,8,9,18,,18,18,4,5,1,2,0.7,0.7
2024-06-28T0900,2572A,102.2721,27.8415,凉山彝族自治州,邛海宾馆,,15,14,19,10,13,22,,15,15,10,12,8,10,0.7,0.7
2024-06-28T0900,2573A,102.2625,27.898,凉山彝族自治州,西昌市政府,,19,19,19,12,12,17,,20,20,15,9,9,10,0.8,0.8
2024-06-28T0900,2574A,102.2685,27.8851,凉山彝族自治州,凉山州政府,,18,18,21,8,12,24,,16,16,11,14,7,9,0.9,0.9
2024-06-28T0900,2575A,102.237,27.8914,凉山彝族自治州,长安,,,,20,,10,,,22,22,12,14,13,15,0.8,1.1
2024-06-28T0900,2212A,123.2,41.1953,辽阳市,宏伟区,,36,26,47,9,17,114,,118,118,10,18,10,12,0.4,0.6
2024-06-28T0900,2213A,123.1683,41.2495,辽阳市,新华园,,37,35,39,11,11,118,,117,117,10,18,12,15,0.6,0.8
2024-06-28T0900,2214A,123.2354,41.2639,辽阳市,滨河路,,37,28,43,10,13,116,,113,113,11,13,10,12,0.5,0.7
2024-06-28T0900,2215A,123.149,41.2991,辽阳市,铁西工业园,,47,47,52,14,15,104,,105,105,17,28,20,17,1.2,1
2024-06-28T0900,2227A,125.1358,42.8845,辽源市,环保局,,,24,37,12,20,,,89,89,7,19,8,10,0.5,0.8
2024-06-28T0900,3239A,125.0764,42.9078,辽源市,银鹰制药,,47,21,41,12,21,149,,98,98,10,25,2,5,0.7,0.8
2024-06-28T0900,1625A,115.9848,36.4372,聊城市,区政府,颗粒物(PM10),61,72,76,31,25,107,,107,103,19,19,14,11,0.9,0.7
2024-06-28T0900,2878A,116.0072,36.4343,聊城市,聊大东校,颗粒物(PM10),60,69,66,36,28,116,,108,104,13,17,12,9,0.5,0.5
2024-06-28T0900,3200A,115.9819,36.4978,聊城市,监控中心,颗粒物(PM10),58,66,66,17,19,108,,112,106,18,16,12,9,0.6,0.5
2024-06-28T0900,3513A,116.0445,36.4361,聊城市,九州社区,颗粒物(PM10),62,73,75,24,23,103,,96,94,19,18,6,8,0.5,0.5
2024-06-28T0900,4018A,116.0567,36.4608,聊城市,星美广场,颗粒物(PM10),65,80,77,28,23,115,,107,104,18,19,6,8,0.5,0.5
2024-06-28T0900,2632A,94.3681,29.6376,林芝市,林芝监测站,,10,7,3,3,4,29,,36,35,3,4,7,7,0.3,0.3
2024-06-28T0900,2633A,94.3616,29.6616,林芝市,林芝人民医院,,9,6,6,3,4,28,,36,36,8,6,8,9,0.3,0.3
2024-06-28T0900,2603A,100.0781,23.8982,临沧市,市环保局,,19,19,15,13,12,15,,15,15,9,8,3,4,0.5,0.4
2024-06-28T0900,2604A,100.0894,23.8822,临沧市,市气象局,,18,18,14,3,10,11,,15,14,12,9,4,4,0.6,0.5
2024-06-28T0900,1733A,111.5531,36.0783,临汾市,临钢医院,颗粒物(PM10),83,116,81,52,29,140,,134,131,22,11,7,6,0.7,0.5
2024-06-28T0900,1734A,111.5028,36.0714,临汾市,技工学校,细颗粒物(PM2.5),94,123,80,70,36,158,,150,146,22,15,8,6,0.9,0.7
2024-06-28T0900,1736A,111.5018,36.0855,临汾市,市委,颗粒物(PM10),92,133,91,63,33,166,,162,158,21,14,8,6,1.0,0.8
2024-06-28T0900,3018A,111.505,36.1014,临汾市,唐尧大酒店,细颗粒物(PM2.5),85,98,73,63,33,159,,146,146,17,12,7,5,0.9,0.8
2024-06-28T0900,3668A,111.5036,36.0414,临汾市,城南,细颗粒物(PM2.5),74,88,81,54,39,163,,147,144,14,10,7,7,0.7,0.6
2024-06-28T0900,2667A,103.2069,35.5993,临夏回族自治州,环保局,,39,27,51,25,31,123,,109,109,5,13,6,7,0.3,0.4
2024-06-28T0900,2668A,103.2417,35.6057,临夏回族自治州,建设大厦,,39,29,35,22,23,122,,94,94,8,15,9,10,0.3,0.4
2024-06-28T0900,1618A,118.3429,35.0532,临沂市,沂河小区,,48,48,33,20,13,66,,64,64,16,19,11,9,0.4,0.3
2024-06-28T0900,1619A,118.295,35.0583,临沂市,鲁南制药厂,,48,48,31,28,14,80,,71,70,15,10,13,10,0.7,0.4
2024-06-28T0900,1620A,118.2794,34.9976,临沂市,新光毛纺厂,,44,44,27,27,14,68,,62,62,17,18,6,6,0.6,0.5
2024-06-28T0900,1621A,118.3956,35.0888,临沂市,河东保险公司,,46,46,26,21,10,64,,50,49,17,13,6,4,0.4,0.3
2024-06-28T0900,3370A,118.3564,35.0215,临沂市,十里堡居委,,27,27,23,17,12,69,,62,62,14,13,10,10,0.8,0.5
2024-06-28T0900,3496A,118.3604,35.1084,临沂市,南坊新区,颗粒物(PM10),57,63,35,22,9,68,,59,58,22,16,9,7,0.7,0.5
2024-06-28T0900,3860A,118.3920,35.0300,临沂市,皇山花园小区,,46,46,32,23,14,69,,58,58,19,17,12,9,0.6,0.4
2024-06-28T0900,1870A,109.4856,24.3895,柳州市,柳东小学,,15,15,13,10,10,24,,26,25,11,9,8,10,0.5,0.5
2024-06-28T0900,1871A,109.4157,24.3277,柳州市,环保监测站,,16,16,16,11,10,24,,22,22,6,9,7,7,0.5,0.5
2024-06-28T0900,1872A,109.389,24.341,柳州市,河西水厂,,25,25,19,11,10,24,,22,22,5,8,6,6,0.4,0.4
2024-06-28T0900,1873A,109.4311,24.2921,柳州市,市四中,,18,18,18,10,11,25,,23,23,7,10,5,6,0.5,0.4
2024-06-28T0900,1874A,109.4006,24.3631,柳州市,市九中,,23,21,20,16,10,25,,24,24,11,11,4,4,0.4,0.5
2024-06-28T0900,1875A,109.4958,24.3134,柳州市,古亭山,,9,9,16,3,9,26,,27,27,9,11,6,8,0.2,0.2
2024-06-28T0900,3402A,109.5422,24.3996,柳州市,市二中,,13,10,15,9,10,22,,25,24,8,10,7,7,0.3,0.3
2024-06-28T0900,2307A,116.5079,31.737,六安市,监测大楼,,17,,17,6,12,53,,70,68,4,6,4,5,0.4,0.4
2024-06-28T0900,2308A,116.4738,31.7643,六安市,皖西学院,,,,24,,11,,,74,73,4,5,3,3,,0.4
2024-06-28T0900,2309A,116.4996,31.7905,六安市,朝阳厂,,15,,19,7,13,48,,64,61,5,5,7,7,0.3,0.4
2024-06-28T0900,2310A,116.5567,31.7886,六安市,开发区,,15,6,27,3,15,47,,64,62,10,7,3,4,0.5,0.6
2024-06-28T0900,2576A,104.8,26.5892,六盘水市,窑上,,,,,,,,,,,,,,,,
2024-06-28T0900,2577A,104.83,26.5917,六盘水市,黄土坡,,16,13,14,11,8,30,,31,30,8,9,9,6,0.5,0.4
2024-06-28T0900,2578A,104.89,26.5939,六盘水市,水钢,,23,23,18,9,5,33,,39,38,4,4,8,9,0.3,0.2
2024-06-28T0900,2579A,104.8475,26.5894,六盘水市,民中,,22,22,15,9,6,29,,32,31,9,8,7,6,0.4,0.4
2024-06-28T0900,2580A,104.9544,26.5506,六盘水市,双水,,12,12,13,8,7,32,,39,37,6,5,9,9,0.2,0.2
2024-06-28T0900,2335A,117.0189,25.1181,龙岩市,龙岩师专,,,,,,,,,,,,,,,,
2024-06-28T0900,2336A,117.0217,25.1033,龙岩市,龙岩市监测站,,29,29,18,14,9,19,,9,8,11,11,2,3,0.6,0.4
2024-06-28T0900,2337A,117.0258,25.0661,龙岩市,闽西职业技术学院,,31,31,23,10,8,16,,5,5,12,10,10,7,0.5,0.4
2024-06-28T0900,2338A,117.0196,25.0306,龙岩市,龙岩学院,,18,18,16,10,8,19,,9,9,8,7,7,4,0.5,0.4
2024-06-28T0900,2665A,105.0822,33.3261,陇南市,汉王镇固水子,,,,,,,,,,,,,,,,
2024-06-28T0900,2885A,104.9339,33.3826,陇南市,滨江中学,,21,21,22,7,9,66,,68,67,8,6,10,8,0.6,0.6
2024-06-28T0900,3247A,104.955,33.371,陇南市,市总工会,,,25,23,3,7,,,68,68,,4,8,5,,0.5
2024-06-28T0900,2487A,111.9589,27.8901,娄底市,电视发射台,,34,34,22,21,10,29,,19,19,5,5,7,6,0.7,0.7
2024-06-28T0900,2488A,111.9975,27.725,娄底市,市监测站,,45,45,28,17,16,25,,17,17,7,9,6,5,0.5,0.5
2024-06-28T0900,2489A,112.0194,27.7314,娄底市,市委党校,,35,35,25,16,17,23,,20,20,6,6,6,6,0.5,0.4
2024-06-28T0900,2490A,111.9561,27.7569,娄底市,涟钢,颗粒物(PM10),52,54,28,33,18,16,,20,18,24,14,14,9,0.9,0.8
2024-06-28T0900,2491A,111.9892,27.7044,娄底市,市政府,细颗粒物(PM2.5),67,,22,48,18,32,,27,27,6,9,6,5,0.4,0.4
2024-06-28T0900,1893A,105.4324,28.9634,泸州市,九狮山,,20,17,12,14,8,31,,29,28,16,16,5,5,0.4,0.4
2024-06-28T0900,1894A,105.4427,28.9063,泸州市,小市上码头,,20,20,17,12,7,39,,38,38,17,16,5,5,0.6,0.4
2024-06-28T0900,1895A,105.4241,28.8573,泸州市,兰田宪桥,,23,23,13,15,9,0,,6,4,20,13,4,4,0.5,0.4
2024-06-28T0900,1896A,105.4379,28.8833,泸州市,市环监站,,,25,20,17,14,,,42,40,32,17,7,6,0.7,0.5
2024-06-28T0900,3490A,105.3617,28.7703,泸州市,纳溪区环保局,,25,25,13,12,4,17,,23,22,27,18,3,3,0.5,0.4
2024-06-28T0900,2183A,111.1406,37.5211,吕梁市,环保局,颗粒物(PM10),73,95,113,42,45,86,,68,68,34,36,6,5,0.7,0.7
2024-06-28T0900,2185A,111.1297,37.5136,吕梁市,自来水公司,颗粒物(PM10),84,117,104,50,44,70,,56,55,30,26,9,7,0.6,0.7
2024-06-28T0900,2867A,111.1283,37.51,吕梁市,马茂庄小学,颗粒物(PM10),74,98,106,44,43,90,,60,60,34,40,6,7,0.7,0.8
2024-06-28T0900,1812A,112.3931,34.6516,洛阳市,市委党校,颗粒物(PM10),60,70,67,32,32,115,,115,110,16,9,8,5,0.7,0.6
2024-06-28T0900,1814A,112.4657,34.6871,洛阳市,豫西宾馆,颗粒物(PM10),76,102,81,36,31,119,,94,92,27,18,6,3,0.6,0.5
2024-06-28T0900,1815A,112.494,34.6886,洛阳市,河南林校,颗粒物(PM10),68,85,66,34,30,117,,89,89,24,16,6,4,0.5,0.4
2024-06-28T0900,1816A,112.3844,34.623,洛阳市,开发区管委会,颗粒物(PM10),53,56,62,24,30,108,,105,101,15,10,19,11,0.5,0.4
2024-06-28T0900,1817A,112.4267,34.6258,洛阳市,市委新办公区,颗粒物(PM10),51,52,59,31,35,119,,122,118,12,7,16,7,0.4,0.4
2024-06-28T0900,3340A,112.6005,34.6326,洛阳市,伊滨,颗粒物(PM10),66,81,72,36,33,98,,85,78,33,16,9,7,0.4,0.3
2024-06-28T0900,3341A,112.4951,34.6332,洛阳市,中移产业园,颗粒物(PM10),60,70,71,34,34,116,,85,82,19,15,9,5,0.6,0.5
2024-06-28T0900,3593A,112.5736,34.8993,洛阳市,吉利监测站,颗粒物(PM10),62,74,76,37,33,120,,70,70,22,21,9,6,0.3,0.2
2024-06-28T0900,3635A,112.3677,34.662,洛阳市,河科大西苑校区,颗粒物(PM10),66,81,76,32,29,104,,77,72,24,20,10,8,0.6,0.6
2024-06-28T0900,3636A,112.4388,34.6781,洛阳市,英才小学,颗粒物(PM10),70,90,78,37,34,119,,101,96,20,9,6,3,0.6,0.4
2024-06-28T0900,2399A,114.051,33.5699,漯河市,三五一五工厂,,25,22,50,8,22,78,,63,61,16,17,8,6,0.5,0.5
2024-06-28T0900,2400A,114.0055,33.5698,漯河市,漯河大学,,26,18,51,3,22,81,,64,63,14,19,5,5,0.5,0.5
2024-06-28T0900,2401A,114.0138,33.5828,漯河市,市水利局,,25,22,51,12,22,80,,64,63,13,15,8,8,0.3,0.3
2024-06-28T0900,2402A,114.0261,33.5698,漯河市,市广电局,,25,22,52,3,19,78,,63,61,12,16,3,2,0.5,0.5
2024-06-28T0900,3478A,113.9749,33.5664,漯河市,市图书馆,,25,23,53,3,24,78,,61,59,11,15,6,6,0.4,0.4
2024-06-28T0900,3479A,114.0967,33.5906,漯河市,召陵区卫健委,,,17,49,,25,71,,58,57,15,16,5,5,0.4,0.4
2024-06-28T0900,1798A,118.5092,31.6837,马鞍山市,湖东路四小,,16,,21,11,10,36,,53,51,23,17,8,8,0.8,0.8
2024-06-28T0900,1799A,118.5024,31.6449,马鞍山市,开发区,,13,11,22,9,10,28,,50,47,25,18,10,10,1.3,0.9
2024-06-28T0900,1800A,118.5228,31.7231,马鞍山市,慈湖,,15,11,31,10,19,43,,51,50,23,23,9,10,0.7,0.9
2024-06-28T0900,1802A,118.6245,31.7241,马鞍山市,濮塘,,18,,19,12,13,41,,42,42,15,13,2,3,1.1,0.9
2024-06-28T0900,3633A,118.4918,31.6809,马鞍山市,雨山,,17,17,30,10,10,31,,47,46,24,18,7,7,0.8,0.8
2024-06-28T0900,1686A,111.0286,21.4688,茂名市,电白南海,,14,14,16,7,8,43,,43,43,4,4,5,4,0.3,0.3
2024-06-28T0900,1687A,110.9294,21.6533,茂名市,茂石化七小,,25,24,16,17,12,32,,26,26,9,6,9,8,0.7,0.6
2024-06-28T0900,1688A,110.9107,21.6687,茂名市,健康路,,24,24,14,3,3,40,,33,33,11,8,9,9,0.6,0.4
2024-06-28T0900,1689A,110.8592,21.6828,茂名市,高岭,,19,19,20,12,12,37,,23,23,9,11,9,10,0.6,0.5
2024-06-28T0900,3450A,111.01,21.5165,茂名市,电白水东,,11,7,6,7,6,35,,42,42,12,7,3,3,0.4,0.4
2024-06-28T0900,2539A,104.0308,30.0478,眉山市,黑龙滩水库,,40,32,27,28,22,39,,37,36,6,6,5,5,0.4,0.4
2024-06-28T0900,2540A,103.8416,30.0874,眉山市,气象局,,49,40,19,34,19,39,,30,28,24,20,12,7,0.4,0.4
2024-06-28T0900,3137A,103.8578,30.0744,眉山市,市委党校,,42,39,21,29,13,24,,37,34,26,17,7,6,0.6,0.4
2024-06-28T0900,3148A,103.8291,30.0564,眉山市,区人社局,,42,41,24,29,18,26,,33,30,44,24,15,6,0.5,0.4
2024-06-28T0900,1690A,116.1231,24.3284,梅州市,梅江月梅,,23,23,24,12,6,32,,16,16,5,4,9,9,0.5,0.4
2024-06-28T0900,1691A,116.0797,24.2719,梅州市,梅县新城,,25,25,19,8,8,30,,16,16,8,7,4,4,0.5,0.4
2024-06-28T0900,1692A,116.1248,24.2654,梅州市,环境监控中心,,31,31,21,10,8,27,,9,9,10,11,5,4,0.4,0.4
2024-06-28T0900,3315A,116.1233,24.2991,梅州市,梅龙,,17,17,15,7,6,38,,16,16,5,8,12,10,0.5,0.4
2024-06-28T0900,1878A,104.7778,31.4741,绵阳市,富乐山,,30,28,22,21,16,47,,27,27,7,9,8,7,0.6,0.6
2024-06-28T0900,1879A,104.7563,31.4535,绵阳市,市人大,,29,29,27,16,16,39,,36,36,13,17,11,10,0.5,0.4
2024-06-28T0900,1880A,104.6697,31.4668,绵阳市,高新区自来水公司,,46,46,30,14,13,35,,31,30,19,19,5,5,0.6,0.5
2024-06-28T0900,1881A,104.7287,31.5075,绵阳市,三水厂,,35,26,29,24,18,42,,25,25,14,20,6,6,0.5,0.5
2024-06-28T0900,3491A,104.69,31.5322,绵阳市,西科大附属小学,,36,36,28,22,17,45,,16,16,11,19,6,6,0.5,0.4
2024-06-28T0900,3492A,104.5648,31.5343,绵阳市,安州区旅游局,,35,32,17,24,17,41,,44,41,14,11,8,6,0.6,0.5
2024-06-28T0900,1784A,129.61,44.561,牡丹江市,环保大楼,,40,40,29,8,14,100,,44,44,15,16,7,7,0.5,0.5
2024-06-28T0900,1785A,129.6115,44.5782,牡丹江市,文化广场,颗粒物(PM10),53,56,49,27,25,94,,40,40,17,21,6,6,0.6,0.6
2024-06-28T0900,1786A,129.5904,44.5963,牡丹江市,第一医院,,,37,32,19,22,,,23,23,15,15,5,4,0.6,0.6
2024-06-28T0900,1787A,129.6364,44.6075,牡丹江市,机车工厂,,37,37,36,16,23,99,,32,32,15,14,4,7,0.5,0.5
2024-06-28T0900,1788A,129.6386,44.5462,牡丹江市,第一中学,,37,31,26,16,14,117,,53,53,12,13,4,4,0.5,0.5
2024-06-28T0900,2531A,105.0703,29.61,内江市,市监测站,,39,,15,27,17,37,,41,40,23,19,8,6,0.6,0.5
2024-06-28T0900,2532A,105.0717,29.5947,内江市,东兴区政府,,25,25,20,11,6,31,,40,38,20,16,7,6,0.6,0.4
2024-06-28T0900,2533A,105.0653,29.5817,内江市,内江二中,,30,26,19,21,11,38,,42,40,20,20,12,11,0.6,0.5
2024-06-28T0900,2534A,105.0406,29.5822,内江市,内江日报社,,38,,14,26,15,26,,40,38,30,19,13,12,0.7,0.6
2024-06-28T0900,2628A,92.0657,31.4846,那曲市,那曲监测站,,33,6,12,3,7,104,,114,113,6,6,6,6,0.5,0.5
2024-06-28T0900,3128A,92.0506,31.4797,那曲市,那曲会议中心,,36,8,9,3,4,113,,118,117,4,6,3,3,0.3,0.4
2024-06-28T0900,1290A,115.8931,28.6843,南昌市,省外办,,,22,23,14,22,,,7,5,,26,,7,,0.8
2024-06-28T0900,1291A,115.8886,28.7003,南昌市,省林业公司,,28,,19,19,17,4,,5,3,34,32,4,4,0.5,0.4
2024-06-28T0900,1292A,115.8126,28.7442,南昌市,林科所,,16,9,9,7,9,5,,10,10,32,29,7,6,1.1,0.9
2024-06-28T0900,1294A,115.8518,28.687,南昌市,建工学校,,28,,21,19,12,13,,8,8,25,32,6,6,0.9,0.8
2024-06-28T0900,1295A,115.8921,28.6424,南昌市,象湖,,19,19,20,10,18,17,,8,8,16,28,6,5,0.7,0.8
2024-06-28T0900,1296A,115.7423,28.7996,南昌市,武术学校,,16,14,12,11,11,26,,28,28,10,7,14,14,0.7,0.7
2024-06-28T0900,1298A,115.9314,28.6842,南昌市,省站,,20,,22,14,20,21,,14,14,14,25,8,6,0.8,0.8
2024-06-28T0900,3046A,115.9084,28.6062,南昌市,机电学校,,,24,25,19,18,,,7,6,,23,,8,,1
2024-06-28T0900,3690A,115.9721,28.7031,南昌市,外国语学校,,18,18,21,3,12,24,,22,22,12,23,5,5,0.6,0.7
2024-06-28T0900,1905A,106.056,30.8064,南充市,西山风景区,,26,11,12,9,9,44,,35,35,52,52,4,4,0.4,0.4
2024-06-28T0900,1906A,106.0789,30.8023,南充市,南充市委,,,18,19,11,11,13,,42,42,44,14,7,5,,0.3
2024-06-28T0900,1907A,106.1031,30.8217,南充市,南充炼油厂,,,19,17,11,9,,,40,40,16,10,6,6,0.3,0.2
2024-06-28T0900,1908A,106.1064,30.7856,南充市,高坪区监测站,,17,13,17,9,8,54,,51,51,18,15,5,5,0.3,0.2
2024-06-28T0900,1909A,106.0642,30.7636,南充市,嘉陵区环保局,,19,19,14,12,8,33,,42,42,28,14,3,3,0.4,0.3
2024-06-28T0900,1910A,106.1087,30.8388,南充市,市环境监测站,,26,26,19,12,9,37,,31,31,17,10,6,6,0.4,0.4
2024-06-28T0900,1151A,118.8086,32.1065,南京市,迈皋桥,,19,19,26,12,19,44,,29,29,16,15,6,5,0.7,0.7
2024-06-28T0900,1152A,118.7538,32.0551,南京市,草场门,,19,19,25,9,18,50,,43,42,19,16,5,4,1.1,0.8
2024-06-28T0900,1153A,118.7794,32.0745,南京市,山西路,,19,19,26,7,17,60,,43,43,13,14,3,4,0.9,0.6
2024-06-28T0900,1154A,118.7752,32.0023,南京市,中华门,,16,12,19,3,14,51,,26,26,18,22,8,7,0.8,0.6
2024-06-28T0900,1155A,118.8109,32.0309,南京市,瑞金路,,22,22,26,12,19,45,,32,31,17,13,9,7,0.6,0.5
2024-06-28T0900,1156A,118.7997,32.0754,南京市,玄武湖,,17,17,30,7,16,39,,29,28,8,8,3,2,0.8,0.7
2024-06-28T0900,1157A,118.6414,32.0931,南京市,浦口,,20,20,26,8,14,56,,41,41,10,18,6,6,0.5,0.6
2024-06-28T0900,1158A,118.7356,31.9996,南京市,奥体中心,,27,27,25,17,17,47,,35,35,21,19,7,6,0.7,0.5
2024-06-28T0900,1159A,118.9125,32.1028,南京市,仙林大学城,,19,19,26,9,17,47,,34,32,19,22,10,12,0.8,0.7
2024-06-28T0900,3422A,118.8436,31.9198,南京市,江宁彩虹桥,,18,,15,3,11,56,,36,36,10,15,4,4,0.7,0.7
2024-06-28T0900,3423A,119.0138,31.6494,南京市,溧水永阳,,15,,6,9,6,47,,52,50,9,6,4,4,0.7,0.6
2024-06-28T0900,3424A,118.879,31.3302,南京市,高淳老职中,,16,6,8,3,5,50,,50,50,7,7,2,4,0.7,0.7
2024-06-28T0900,3427A,118.8554,32.3578,南京市,六合雄州,,32,32,22,16,19,53,,48,48,19,10,10,8,1.0,0.7
2024-06-28T0900,1401A,108.3103,22.7881,南宁市,二十一中,,22,22,19,9,9,22,,22,22,10,12,3,3,0.6,0.7
2024-06-28T0900,1402A,108.3141,22.8528,南宁市,北湖,,19,19,20,12,13,22,,21,21,10,15,3,2,0.7,0.7
2024-06-28T0900,1403A,108.3206,22.8225,南宁市,市监测站,,15,,17,10,10,23,,23,23,11,14,3,3,0.7,0.7
2024-06-28T0900,1404A,108.3829,22.8037,南宁市,大自然花园,,20,20,17,10,9,22,,24,24,8,10,5,4,0.3,0.3
2024-06-28T0900,1405A,108.4394,22.7904,南宁市,仙葫,,30,25,17,10,9,20,,19,19,12,12,12,11,3.0,1.5
2024-06-28T0900,1406A,108.2397,22.8467,南宁市,区农职院,,36,36,23,15,15,20,,16,16,13,16,7,6,0.7,0.7
2024-06-28T0900,1407A,108.3275,22.735,南宁市,英华嘉园,,29,29,28,11,10,16,,11,11,16,18,5,5,0.5,0.5
2024-06-28T0900,1408A,108.2257,22.7757,南宁市,沙井镇街道办,,31,31,27,9,14,22,,9,9,9,20,6,3,0.8,0.8
2024-06-28T0900,3401A,108.4834,22.7618,南宁市,红星社区,,,,21,16,12,,,17,17,6,8,5,5,0.6,0.6
2024-06-28T0900,2331A,118.0966,26.6761,南平市,茫荡山,,,,,,,,,,,,,,,,
2024-06-28T0900,2332A,118.1681,26.6369,南平市,南平市监测站,,26,26,19,14,10,14,,10,10,9,9,4,4,0.6,0.5
2024-06-28T0900,2333A,118.1825,26.6489,南平市,南平铝业有限公司,,22,22,20,12,9,13,,10,10,8,8,4,5,0.7,0.7
2024-06-28T0900,2334A,118.1756,26.6272,南平市,南平七中,,21,21,21,12,9,17,,13,13,7,6,4,4,0.7,0.6
2024-06-28T0900,1168A,120.9098,31.9663,南通市,狼山街道,,20,20,19,9,10,50,,38,38,14,17,13,11,1.0,0.8
2024-06-28T0900,1169A,120.86,32.0005,南通市,虹桥,,31,31,29,17,16,44,,34,33,26,27,9,7,1.2,0.9
2024-06-28T0900,1170A,120.87,32.02,南通市,城中,,38,38,41,20,21,42,,37,36,33,29,11,7,1.0,0.8
2024-06-28T0900,1171A,120.94,31.93,南通市,星湖花园,,17,8,13,6,10,54,,47,46,22,24,8,6,0.9,0.7
2024-06-28T0900,1172A,120.81,32.0417,南通市,紫琅学院,,25,25,22,7,14,35,,36,35,40,34,10,8,1.0,0.9
2024-06-28T0900,3291A,121.067,32.062,南通市,通州监测站,,44,44,33,22,18,45,,41,39,22,18,16,12,1.4,0.9
2024-06-28T0900,3432A,120.9348,31.9883,南通市,环境教育馆,,34,34,30,16,17,47,,36,36,32,29,12,8,1.1,0.8
2024-06-28T0900,2404A,112.5224,33.0122,南阳市,瓦房庄,,28,27,36,19,20,66,,88,82,15,12,2,4,0.6,0.5
2024-06-28T0900,2405A,112.5003,32.9735,南阳市,汉画馆,,32,31,46,22,27,60,,87,81,20,14,3,3,0.6,0.5
2024-06-28T0900,2406A,112.5573,33.027,南阳市,气象站,,19,15,36,7,17,59,,90,83,18,12,4,5,0.3,0.3
2024-06-28T0900,2407A,112.5481,32.9689,南阳市,理工学院,,30,28,40,21,20,63,,76,70,16,15,4,5,0.5,0.4
2024-06-28T0900,4008A,112.5234,32.9922,南阳市,卧龙区政府,,30,27,42,21,21,58,,87,80,21,13,2,3,0.7,0.6
2024-06-28T0900,1234A,121.8358,29.911,宁波市,区环保大楼,,12,,30,8,19,16,,7,7,23,52,5,5,0.8,0.9
2024-06-28T0900,1235A,121.56,29.82,宁波市,万里学院,,24,24,22,16,17,10,,9,8,24,33,6,6,0.7,0.7
2024-06-28T0900,1236A,121.713,29.9572,宁波市,龙赛医院,,15,15,20,8,13,14,,15,14,18,30,5,5,0.4,0.5
2024-06-28T0900,1239A,121.633,29.7733,宁波市,钱湖水厂,,13,11,20,9,15,21,,28,28,6,13,5,5,0.5,0.5
2024-06-28T0900,1240A,121.5856,29.8635,宁波市,太古小学,,27,27,23,14,16,10,,11,10,22,30,5,4,1.1,1
2024-06-28T0900,1241A,121.524,29.8674,宁波市,市环境监测中心,,22,22,23,10,10,11,,9,8,31,37,6,4,0.9,0.8
2024-06-28T0900,2871A,121.6147,29.9017,宁波市,万里国际学校,,20,,19,14,19,16,,14,13,24,39,4,4,0.4,0.5
2024-06-28T0900,3710A,121.5594,29.8975,宁波市,白沙活动中心,,18,18,20,10,12,10,,9,8,28,34,8,7,0.5,0.4
2024-06-28T0900,2339A,119.5001,26.6946,宁德市,金涵水库,,,,,,,,,,,,,,,,
2024-06-28T0900,2341A,119.5388,26.6612,宁德市,宁德市监测站,,24,24,31,7,11,35,,30,30,14,13,6,6,0.7,0.6
2024-06-28T0900,3209A,119.5231,26.6562,宁德市,宁德一中,,24,24,27,3,14,28,,30,29,16,9,5,4,1.0,0.9
2024-06-28T0900,2618A,98.8601,25.8567,怒江傈僳族自治州,州监测站,,16,16,16,6,15,27,,23,23,11,8,10,10,0.5,0.5
2024-06-28T0900,2619A,98.8546,25.8417,怒江傈僳族自治州,泸水一中,,15,15,15,6,5,16,,10,10,10,11,5,5,0.4,0.4
2024-06-28T0900,1888A,101.6891,26.571,攀枝花市,弄弄坪,颗粒物(PM10),70,90,65,22,22,7,,5,5,38,30,38,36,1.1,0.8
2024-06-28T0900,1889A,101.5769,26.5928,攀枝花市,河门口,,35,35,34,12,21,8,,12,11,24,23,7,25,0.9,1.4
2024-06-28T0900,1890A,101.7169,26.585,攀枝花市,炳草岗,颗粒物(PM10),63,75,55,21,21,9,,6,6,33,27,56,50,1.1,0.9
2024-06-28T0900,1891A,101.7369,26.5008,攀枝花市,仁和,,17,17,25,8,15,15,,11,11,18,15,9,24,0.5,0.5
2024-06-28T0900,2835A,101.7227,26.567,攀枝花市,四十中小,,31,31,37,13,24,9,,6,6,33,22,63,61,1.0,0.8
2024-06-28T0900,1604A,122.0303,41.1489,盘锦市,开发区,,29,20,33,14,16,90,,101,99,16,13,5,6,0.2,0.3
2024-06-28T0900,1605A,122.0485,41.0883,盘锦市,兴隆台,,33,33,29,9,16,89,,99,97,17,17,6,6,0.4,0.4
2024-06-28T0900,1606A,121.8297,41.1028,盘锦市,新生街道,,,,47,,12,,,,,,9,,6,,0.3
2024-06-28T0900,1832A,113.3257,33.742,平顶山市,新华旅馆,,39,39,56,23,26,94,,99,97,19,10,7,5,0.7,0.5
2024-06-28T0900,1833A,113.2919,33.737,平顶山市,规划设计院,,33,26,45,20,22,105,,97,96,12,9,6,4,0.5,0.4
2024-06-28T0900,1834A,113.182,33.774,平顶山市,平顶山工学院,,35,24,46,14,20,111,,105,104,6,8,3,5,0.5,0.5
2024-06-28T0900,3204A,113.3025,33.73,平顶山市,规划局,,34,34,51,15,25,100,,92,91,17,20,5,4,0.9,0.8
2024-06-28T0900,3594A,112.8867,33.9116,平顶山市,石龙区,颗粒物(PM10),53,55,67,24,27,116,,104,104,7,6,6,4,0.4,0.4
2024-06-28T0900,2656A,106.6692,35.5461,平凉市,聚贤嘉苑,,31,31,31,17,11,66,,38,37,18,19,10,9,0.4,0.4
2024-06-28T0900,2657A,106.7021,35.5307,平凉市,博物馆,,30,30,34,16,13,58,,45,45,27,22,3,10,0.6,0.5
2024-06-28T0900,2347A,114.0997,27.5002,萍乡市,武功山,,24,,3,3,3,74,,25,25,4,3,9,9,0.3,0.5
2024-06-28T0900,2348A,113.8385,27.6434,萍乡市,中医院,,43,42,39,30,29,24,,28,26,14,18,15,9,1.2,1.2
2024-06-28T0900,2349A,113.8493,27.6253,萍乡市,市政府车库,,46,,23,32,22,25,,26,24,10,13,16,12,1.4,1.8
2024-06-28T0900,2350A,113.8676,27.6435,萍乡市,市环保局,细颗粒物(PM2.5),54,44,30,38,25,27,,28,27,8,12,14,11,0.8,0.9
2024-06-28T0900,2351A,113.866,27.6198,萍乡市,安源区政府,,45,45,30,22,21,21,,21,19,15,15,11,7,1.4,1.1
2024-06-28T0900,2319A,119.0141,25.4325,莆田市,荔城区仓后路,,19,19,29,6,7,37,,23,23,9,10,8,7,0.5,0.5
2024-06-28T0900,2320A,119.0015,25.4553,莆田市,莆田市监测站,,25,25,23,3,4,34,,21,21,7,8,9,9,0.4,0.3
2024-06-28T0900,2321A,119.1119,25.4561,莆田市,涵江区六中,,12,12,23,3,6,35,,21,21,8,13,10,10,0.4,0.5
2024-06-28T0900,2322A,119.1013,25.3215,莆田市,秀屿区政府,,18,18,26,3,8,47,,23,23,6,12,10,10,0.5,0.6
2024-06-28T0900,2323A,118.981,25.4792,莆田市,东圳水库,,,,,,,,,,,,,,,,
2024-06-28T0900,2392A,115.0312,35.7636,濮阳市,环保局,颗粒物(PM10),64,77,70,36,29,101,,96,93,16,15,11,10,0.5,0.5
2024-06-28T0900,2394A,115.0574,35.7609,濮阳市,油田运输公司,颗粒物(PM10),64,78,68,41,29,101,,96,94,13,15,7,7,0.5,0.4
2024-06-28T0900,2395A,115.0866,35.7754,濮阳市,油田物探公司,,,90,73,44,33,86,,95,90,,15,12,10,0.8,0.7
2024-06-28T0900,3021A,115,35.7668,濮阳市,濮水河管理处,颗粒物(PM10),65,79,60,37,31,91,,88,87,11,9,11,7,0.5,0.5
2024-06-28T0900,2601A,100.98,22.7633,普洱市,市环保局,,20,,10,14,11,27,,32,31,5,5,5,4,0.4,0.4
2024-06-28T0900,2602A,100.9817,22.8322,普洱市,普洱第二中学,,27,27,9,10,11,16,,26,25,11,6,11,12,0.7,0.6
2024-06-28T0900,2262A,131.0518,45.8751,七台河市,新一中,,50,44,29,18,20,157,,60,60,12,9,11,10,0.7,0.6
2024-06-28T0900,3345A,131.0577,45.7879,七台河市,中波台,,39,36,24,12,14,124,,46,46,19,17,9,8,0.1,0.1
2024-06-28T0900,3637A,131.0176,45.7761,七台河市,人民广场,颗粒物(PM10),52,53,39,19,19,118,,47,47,13,18,12,12,0.4,0.4
2024-06-28T0900,3684A,130.8781,45.8222,七台河市,新建矿广场,,46,46,33,17,20,120,,62,62,15,18,8,8,0.4,0.2
2024-06-28T0900,1779A,123.9305,47.3636,齐齐哈尔市,安居小区,,47,47,48,26,22,129,,125,124,19,18,8,8,0.5,0.5
2024-06-28T0900,1780A,123.9488,47.3386,齐齐哈尔市,中心广场,颗粒物(PM10),53,55,55,17,23,124,,122,121,20,16,10,10,0.5,0.4
2024-06-28T0900,1781A,123.9483,47.3227,齐齐哈尔市,农牧车辆厂,,,68,55,21,19,,,122,121,15,13,8,9,0.3,0.3
2024-06-28T0900,1783A,123.945,47.2988,齐齐哈尔市,市环境监测站,颗粒物(PM10),53,55,44,25,25,133,,124,124,10,10,6,6,0.4,0.4
2024-06-28T0900,3662A,123.6333,47.2075,齐齐哈尔市,富区青少年活动中心,,46,46,38,16,15,128,,113,113,10,10,5,4,0.8,0.7
2024-06-28T0900,2591A,107.9783,26.5747,黔东南苗族侗族自治州,市环境监测站,,13,10,11,6,7,40,,48,47,6,7,3,3,0.4,0.4
2024-06-28T0900,2881A,107.8908,26.5311,黔东南苗族侗族自治州,凯里学院,,,7,6,,5,37,,42,41,5,4,3,3,0.4,0.3
2024-06-28T0900,2593A,107.5228,26.2403,黔南布依族苗族自治州,小围寨,,12,6,3,3,1,38,,37,37,3,3,4,5,0.4,0.4
2024-06-28T0900,3538A,107.5175,26.2978,黔南布依族苗族自治州,沙坝,,9,6,3,3,0,27,,30,30,2,2,3,3,0.4,0.4
2024-06-28T0900,2589A,104.9022,25.0925,黔西南布依族苗族自治州,场坝街,,13,13,12,7,7,30,,27,27,5,5,3,3,0.2,0.2
2024-06-28T0900,2590A,104.8811,25.0992,黔西南布依族苗族自治州,坪东大道,,10,10,12,3,7,28,,28,28,2,3,4,3,0.3,0.2
2024-06-28T0900,2502A,108.6236,21.9667,钦州市,市环保站,,12,12,12,3,5,25,,19,19,10,12,7,7,0.6,0.6
2024-06-28T0900,2503A,108.6549,21.9481,钦州市,沙埠小学,,12,12,20,3,9,32,,13,13,6,13,6,6,0.7,0.7
2024-06-28T0900,2504A,108.5989,21.7431,钦州市,港区一小,,10,,20,6,7,32,,14,14,14,21,10,9,0.8,0.9
2024-06-28T0900,3404A,108.5959,21.9633,钦州市,北职校,,24,24,16,9,10,22,,14,14,8,13,11,8,0.6,0.6
2024-06-28T0900,1042A,119.5134,39.8207,秦皇岛市,北戴河环保局,,42,42,45,3,7,90,,102,96,10,12,3,4,0.2,0.3
2024-06-28T0900,1043A,119.7493,40.0116,秦皇岛市,第一关,,31,31,53,7,16,89,,79,78,6,22,3,3,0.2,0.4
2024-06-28T0900,1044A,119.5897,39.9499,秦皇岛市,监测站,,39,39,53,6,16,92,,75,70,10,19,5,6,0.3,0.5
2024-06-28T0900,1046A,119.5251,39.9041,秦皇岛市,建设大厦,,36,36,47,7,19,89,,53,50,8,24,3,3,0.0,0.2
2024-06-28T0900,3132A,119.610547,39.943889,秦皇岛市,文明里,,43,43,53,12,19,84,,81,75,9,14,3,4,0.3,0.5
2024-06-28T0900,1307A,120.6659,36.2403,青岛市,仰口,,29,29,11,12,10,85,,86,86,5,3,4,4,0.2,0.2
2024-06-28T0900,1310A,120.4134,36.0658,青岛市,市南区东部子站,,30,17,12,3,2,94,,77,77,4,5,7,7,0.3,0.3
2024-06-28T0900,1311A,120.3664,36.1032,青岛市,四方区子站,,31,22,23,17,10,98,,82,82,13,17,9,9,0.5,0.5
2024-06-28T0900,1312A,120.2994,36.054,青岛市,市南区西部子站,,28,19,15,3,5,88,,64,64,6,13,8,8,0.4,0.4
2024-06-28T0900,1313A,120.4581,36.0858,青岛市,崂山区子站,,32,17,14,7,5,102,,72,72,7,12,9,9,0.4,0.4
2024-06-28T0900,1314A,120.1983,35.9608,青岛市,黄岛区子站,,30,19,11,7,7,95,,81,81,5,7,6,6,0.4,0.4
2024-06-28T0900,1315A,120.3999,36.3083,青岛市,城阳区子站,,31,29,20,10,9,97,,70,70,17,17,7,7,0.4,0.4
2024-06-28T0900,1966A,120.0405,35.8735,青岛市,黄岛区4号,,31,17,11,3,3,98,,82,82,8,10,9,9,0.4,0.4
2024-06-28T0900,3362A,120.5014,36.4034,青岛市,即墨2号,,34,20,14,16,8,106,,87,87,12,7,7,6,0.4,0.3
2024-06-28T0900,3642A,120.3503,36.0736,青岛市,市北区南部,,33,19,17,3,5,103,,92,92,6,12,6,7,0.4,0.4
2024-06-28T0900,3643A,120.3948,36.1805,青岛市,李沧区北部,,31,22,20,14,12,99,,75,75,14,18,9,10,0.3,0.4
2024-06-28T0900,1702A,113.0426,23.691,清远市,环保大楼,,20,20,21,10,11,20,,11,11,19,20,5,5,0.7,0.7
2024-06-28T0900,1703A,113.0208,23.7106,清远市,凤城街办,,26,26,25,14,13,14,,10,9,18,17,4,4,0.5,0.4
2024-06-28T0900,3025A,113.0477,23.6344,清远市,技师学院,,21,21,25,10,12,38,,21,21,14,22,4,4,0.6,0.6
2024-06-28T0900,3318A,112.9903,23.7403,清远市,清新太和,,27,27,32,7,15,12,,12,10,14,13,6,6,0.6,0.6
2024-06-28T0900,3455A,113.076,23.7198,清远市,清城东城,,24,24,26,11,14,18,,9,9,13,12,5,5,0.4,0.4
2024-06-28T0900,2661A,107.6325,35.7357,庆阳市,庆阳五中,颗粒物(PM10),55,59,35,25,15,123,,146,144,14,10,5,4,0.4,0.4
2024-06-28T0900,2662A,107.6364,35.7067,庆阳市,市环保局,颗粒物(PM10),55,60,34,22,13,119,,145,142,9,7,7,6,0.6,0.5
2024-06-28T0900,1916A,103.7897,25.5035,曲靖市,环境监测站,,13,13,11,3,6,26,,29,28,6,5,1,2,0.6,0.5
2024-06-28T0900,1917A,103.8,25.5364,曲靖市,烟厂办公区,,15,10,14,10,7,31,,32,31,4,5,4,4,0.3,0.3
2024-06-28T0900,3376A,103.7947,25.462,曲靖市,南苑二区,,10,6,8,3,5,29,,33,32,6,5,4,4,0.5,0.4
2024-06-28T0900,3377A,103.7444,25.5261,曲靖市,曲靖师范学院,,13,13,11,3,7,29,,30,29,5,7,4,5,0.4,0.4
2024-06-28T0900,1264A,118.8692,28.9398,衢州市,环保大楼,,28,27,14,19,10,11,,10,10,19,21,4,4,0.5,0.4
2024-06-28T0900,1265A,118.8709,28.9666,衢州市,实验学校,,28,24,17,19,13,11,,9,8,18,21,7,5,0.3,0.3
2024-06-28T0900,1266A,118.8621,28.9808,衢州市,衢州学院,,19,18,11,13,10,8,,5,4,15,20,2,2,0.4,0.5
2024-06-28T0900,1611A,118.5819,24.9117,泉州市,涂山街,,20,20,31,6,9,31,,22,22,7,14,2,5,0.6,0.6
2024-06-28T0900,1612A,118.5972,24.8978,泉州市,津头埔,,21,21,27,3,8,34,,25,25,9,15,2,3,0.5,0.5
2024-06-28T0900,1613A,118.6663,24.9424,泉州市,万安,,20,20,25,3,8,34,,25,25,4,10,2,2,0.4,0.4
2024-06-28T0900,1614A,118.6117,24.9604,泉州市,清源山,,,,,,,,,,,,,,,,
2024-06-28T0900,3529A,118.6333,24.9264,泉州市,城华南路,,18,18,21,6,8,34,,23,23,7,13,2,3,0.4,0.4
2024-06-28T0900,2626A,88.8876,29.2718,日喀则市,日喀则监测站,,28,6,7,3,4,87,,114,109,22,6,6,6,0.5,0.5
2024-06-28T0900,3726A,88.8781,29.2426,日喀则市,林业技术推广中心,,31,7,8,3,2,97,,113,111,8,7,6,6,0.3,0.3
2024-06-28T0900,1659A,119.471,35.4209,日照市,监测站,,34,34,19,10,10,87,,43,43,24,19,9,9,0.4,0.2
2024-06-28T0900,1660A,119.523,35.4216,日照市,市政府广场,,32,14,16,10,6,101,,86,86,8,6,10,10,0.4,0.4
2024-06-28T0900,1661A,119.5587,35.4044,日照市,港务局,,34,17,17,3,4,108,,94,94,9,6,7,9,0.3,0.3
2024-06-28T0900,3507A,119.5328,35.4625,日照市,职业技术学院,,33,22,16,7,7,104,,73,73,9,9,8,8,0.5,0.5
2024-06-28T0900,3604A,119.3266,35.1044,日照市,岚山环保分局,,,,22,15,6,96,,82,82,9,12,8,7,0.5,0.4
2024-06-28T0900,1835A,111.1922,34.7752,三门峡市,市政府,颗粒物(PM10),59,67,71,32,27,131,,104,104,16,15,17,11,0.6,0.6
2024-06-28T0900,1836A,111.1587,34.7942,三门峡市,开发区,,,,81,,34,,,127,123,17,17,20,12,0.5,0.4
2024-06-28T0900,1838A,111.143,34.7955,三门峡市,风景区,,,,,,,,,,,,,,,,
2024-06-28T0900,3039A,111.1911,34.7829,三门峡市,三门峡市第一小学,颗粒物(PM10),64,77,77,29,28,135,,118,117,14,12,16,11,0.6,0.6
2024-06-28T0900,3598A,111.1,34.7167,三门峡市,富达温泉假日酒店,颗粒物(PM10),71,92,76,40,35,127,,100,100,20,15,20,13,0.6,0.5
2024-06-28T0900,2324A,117.6211,26.2625,三明市,三钢,,36,,29,25,15,20,,8,8,17,18,10,10,1.6,1.1
2024-06-28T0900,2325A,117.635,26.2714,三明市,三明二中,,31,31,25,13,14,16,,9,9,13,14,9,9,1.4,1.1
2024-06-28T0900,2326A,117.6028,26.2378,三明市,三元区政府,,30,30,30,21,15,23,,7,7,16,15,6,4,1.4,0.8
2024-06-28T0900,2327A,117.7275,26.3108,三明市,洋溪,,,,,,,,,,,,,,,,
2024-06-28T0900,1876A,109.5078,18.2489,三亚市,河东子站,,14,14,13,3,5,25,,20,20,3,3,3,3,0.4,0.3
2024-06-28T0900,1877A,109.4964,18.2681,三亚市,河西子站,,12,12,14,6,5,20,,17,17,5,4,3,3,0.3,0.3
2024-06-28T0900,3540A,109.7348,18.3443,三亚市,君悦子站,,27,27,20,6,4,24,,12,12,6,6,3,3,0.5,0.5
2024-06-28T0900,2624A,91.7608,29.2313,山南市,山南监测站,,18,,8,3,3,57,,70,69,10,6,5,4,0.3,0.3
2024-06-28T0900,2625A,91.7706,29.2436,山南市,山南人民医院,,17,11,7,7,4,52,,72,70,16,8,7,6,0.4,0.3
2024-06-28T0900,1674A,116.6794,23.3667,汕头市,金平子站,,11,11,18,3,11,34,,32,32,13,8,5,5,0.9,0.7
2024-06-28T0900,1675A,116.7244,23.3633,汕头市,龙湖子站,,16,16,17,3,5,37,,38,37,15,9,5,5,0.8,0.7
2024-06-28T0900,1676A,116.7258,23.2775,汕头市,濠江子站,,37,37,18,3,8,27,,31,31,12,6,4,4,0.8,0.8
2024-06-28T0900,1677A,116.7519,23.4714,汕头市,澄海子站,,22,22,19,9,10,25,,32,30,13,9,4,4,0.7,0.7
2024-06-28T0900,1678A,116.6092,23.2539,汕头市,潮阳子站,,24,24,17,3,7,32,,31,31,7,4,5,4,0.6,0.6
2024-06-28T0900,3444A,116.454,23.2684,汕头市,潮南峡山,,16,16,19,3,5,24,,23,23,7,5,4,4,0.8,0.7
2024-06-28T0900,3624A,116.4069,23.2533,汕头市,潮南子站,,23,23,18,10,5,28,,24,24,9,5,8,7,0.8,0.7
2024-06-28T0900,1693A,115.3653,22.775,汕尾市,市环保局,,20,20,17,3,5,42,,32,32,6,4,4,5,0.5,0.5
2024-06-28T0900,1694A,115.3706,22.7898,汕尾市,市政府,,16,12,14,11,10,44,,33,33,1,2,7,6,0.5,0.5
2024-06-28T0900,1695A,115.3622,22.7925,汕尾市,新城中学,,15,15,17,3,5,41,,26,26,2,3,4,4,0.5,0.5
2024-06-28T0900,2645A,109.9154,33.8715,商洛市,监测站,颗粒物(PM10),62,73,73,33,30,113,,92,89,8,10,9,10,0.6,0.6
2024-06-28T0900,3045A,109.9643,33.8471,商洛市,商州区中学,颗粒物(PM10),68,85,75,29,31,104,,86,83,13,10,7,10,0.6,0.5
2024-06-28T0900,2408A,115.6702,34.4285,商丘市,环境监测站,,,22,59,13,26,,,93,91,5,8,8,8,0.4,0.4
2024-06-28T0900,2409A,115.6458,34.4045,商丘市,粮食局,,30,21,59,10,24,93,,88,87,9,11,6,5,0.3,0.4
2024-06-28T0900,2410A,115.6293,34.3948,商丘市,睢阳区环保局,,30,30,68,14,26,92,,86,85,8,10,5,6,0.5,0.5
2024-06-28T0900,3171A,115.6071,34.4465,商丘市,梁园区档案局,,27,27,62,16,23,86,,85,83,9,9,8,8,0.4,0.5
2024-06-28T0900,1141A,121.4,31.238,上海市,普陀,,19,,12,10,9,30,,34,33,38,28,4,4,0.6,0.5
2024-06-28T0900,1142A,121.478,31.2036,上海市,十五厂,,14,9,12,7,9,38,,37,37,28,30,6,6,0.7,0.6
2024-06-28T0900,1143A,121.467,31.3008,上海市,虹口,,19,12,14,12,11,27,,35,32,37,29,5,4,0.7,0.6
2024-06-28T0900,1144A,121.412,31.1654,上海市,徐汇上师大,,15,9,11,8,10,33,,36,35,30,28,6,6,0.8,0.7
2024-06-28T0900,1145A,121.536,31.2659,上海市,杨浦四漂,,14,12,12,8,10,41,,45,44,28,30,6,6,0.9,0.8
2024-06-28T0900,1147A,121.425,31.2261,上海市,静安监测站,,18,11,12,6,13,29,,37,36,36,29,6,6,0.6,0.5
2024-06-28T0900,1148A,121.703,31.1907,上海市,浦东川沙,,26,,12,18,14,28,,30,28,39,34,6,6,0.8,0.7
2024-06-28T0900,1149A,121.533,31.2284,上海市,浦东新区监测站,,20,12,11,6,9,31,,43,41,39,33,4,4,0.9,0.8
2024-06-28T0900,1150A,121.577,31.2071,上海市,浦东张江,,18,11,11,9,9,30,,36,35,36,35,5,5,0.9,0.8
2024-06-28T0900,3265A,121.4316,31.3322,上海市,宝山庙行,,,,14,8,10,40,,41,38,,23,,7,0.7,0.7
2024-06-28T0900,3266A,121.8791,31.4662,上海市,崇明上实东滩,,18,16,14,12,10,39,,54,49,33,26,12,9,1.0,0.7
2024-06-28T0900,3268A,121.3162,31.2838,上海市,嘉定南翔,,20,7,13,7,11,25,,22,20,39,32,4,4,0.7,0.7
2024-06-28T0900,3269A,121.3359,30.7456,上海市,金山新城,,29,29,10,20,9,21,,29,28,28,21,7,6,0.6,0.4
2024-06-28T0900,3270A,121.4996,31.0739,上海市,闵行浦江,,33,,9,23,19,24,,34,31,33,34,5,5,0.7,0.6
2024-06-28T0900,3271A,121.2886,31.1663,上海市,青浦徐泾,,13,,10,9,10,28,,26,23,26,32,5,5,0.6,0.5
2024-06-28T0900,3272A,121.2186,31.0378,上海市,松江图书馆,,18,18,8,12,8,15,,40,34,32,22,6,6,0.9,0.7
2024-06-28T0900,3273A,121.3902,31.2059,上海市,长宁仙霞,,18,7,12,6,10,22,,21,21,36,33,5,5,1.0,0.9
2024-06-28T0900,3274A,121.7965,31.0507,上海市,浦东惠南,,15,,7,10,8,28,,33,31,30,28,7,6,0.6,0.5
