timepoint,stationcode,longitude,latitude,area,positionname,primarypollutant,aqi,pm10,pm10_24h,pm2_5,pm2_5_24h,o3,o3_24h,o3_8h,o3_8h_24h,no2,no2_24h,so2,so2_24h,co,co_24h
2024-06-28T2300,2566A,102.1879,31.914,阿坝藏族羌族自治州,州农科所,,26,26,27,11,10,59,,71,63,12,17,4,5,0,0
2024-06-28T2300,2568A,102.2502,31.8896,阿坝藏族羌族自治州,马师校,,32,25,17,22,15,34,,77,60,19,16,4,5,0.4,0.4
2024-06-28T2300,3994A,102.2165,31.9024,阿坝藏族羌族自治州,马尔康中学西区,,29,29,21,12,12,53,,79,65,3,7,5,5,0.3,0.3
2024-06-28T2300,2695A,80.292,41.1694,阿克苏地区,电视台,颗粒物(PM10),65,79,86,35,31,129,,132,132,18,9,1,4,0.4,0.3
2024-06-28T2300,2696A,80.2613,41.1551,阿克苏地区,艺术中心,颗粒物(PM10),60,70,80,33,33,89,,139,133,58,17,3,4,0.7,0.5
2024-06-28T2300,2204A,105.6467,38.8363,阿拉善盟,西城区西花园,颗粒物(PM10),106,161,224,44,58,59,,142,126,40,11,6,7,1.1,0.7
2024-06-28T2300,2205A,105.6985,38.8411,阿拉善盟,蒙二幼,颗粒物(PM10),101,152,251,55,64,90,,133,126,14,8,10,10,0.7,0.6
2024-06-28T2300,2206A,105.724,38.8516,阿拉善盟,环保局新楼,颗粒物(PM10),97,143,222,47,65,109,,135,130,6,7,10,11,0.4,0.4
2024-06-28T2300,2708A,88.1264,47.8517,阿勒泰地区,市站,颗粒物(PM10),54,57,22,11,6,61,,113,93,20,13,6,6,0.6,0.4
2024-06-28T2300,2630A,80.1161,32.5,阿里地区,阿里监测站,,37,10,11,3,7,118,,146,137,7,13,7,7,0.5,0.4
2024-06-28T2300,3192A,80.0903,32.5028,阿里地区,阿里藏医院,,38,13,10,3,7,120,,149,140,3,5,8,8,0.5,0.5
2024-06-28T2300,2642A,109.0318,32.6537,安康市,香溪洞,,48,48,55,22,23,112,,153,138,5,5,7,9,0.6,0.6
2024-06-28T2300,2643A,109.0281,32.6939,安康市,安康市监测站,颗粒物(PM10),52,53,55,20,21,97,,155,130,8,8,7,8,0.4,0.4
2024-06-28T2300,2644A,109.0072,32.6975,安康市,汉滨区检察院,颗粒物(PM10),51,51,47,15,26,105,,159,138,8,7,7,8,0.4,0.4
2024-06-28T2300,2291A,117.0809,30.5177,安庆市,环科院,,10,9,9,7,5,23,,31,30,18,19,4,6,0.4,0.6
2024-06-28T2300,2292A,117.0331,30.5119,安庆市,马山宾馆,,18,10,10,6,4,11,,26,24,35,27,7,8,0.5,0.6
2024-06-28T2300,2294A,116.9896,30.6145,安庆市,安庆大学,,25,25,10,14,5,22,,40,31,17,14,7,7,0.5,0.6
2024-06-28T2300,3173A,117.0598,30.5351,安庆市,市人大,,10,10,8,6,5,23,,30,29,18,19,5,6,0.3,0.4
2024-06-28T2300,3123A,105.9408,26.2431,安顺市,凤凰山,,16,11,9,7,7,49,,52,50,2,2,6,6,0.4,0.4
2024-06-28T2300,3124A,105.9439,26.2564,安顺市,金钟山,,16,12,8,3,4,50,,53,51,3,4,4,4,0.4,0.4
2024-06-28T2300,3125A,105.8983,26.2481,安顺市,娄家坡,,23,12,12,7,8,71,,63,63,2,2,4,4,0.6,0.5
2024-06-28T2300,1819A,114.3551,36.1017,安阳市,红庙街,,44,44,54,17,28,125,,192,163,26,14,2,4,0.0,0.2
2024-06-28T2300,1820A,114.361,36.0681,安阳市,银杏小区,,,45,68,,,113,,190,160,9,8,7,8,0.5,0.5
2024-06-28T2300,3141A,114.3922,36.0878,安阳市,信访局,,44,44,72,15,29,126,,192,164,6,9,4,5,0.6,0.7
2024-06-28T2300,3669A,114.4705,36.0637,安阳市,左辅环卫站,,49,49,71,21,31,102,,190,156,22,14,3,3,0.5,0.4
2024-06-28T2300,3703A,114.2917,36.0949,安阳市,安钢职工学校,颗粒物(PM10),53,56,77,19,31,107,,188,156,18,17,4,7,0.7,0.6
2024-06-28T2300,1748A,123.044,41.1196,鞍山市,深沟寺,,36,22,31,9,12,114,,166,144,8,10,4,6,0.3,0.4
2024-06-28T2300,1749A,123.011,41.0931,鞍山市,太阳城,,37,22,31,11,13,116,,168,144,9,11,7,9,0.5,0.6
2024-06-28T2300,1750A,123.0485,41.1442,鞍山市,太平,,35,25,35,13,15,112,,156,137,10,15,3,7,0.4,0.6
2024-06-28T2300,1751A,122.9642,41.0971,鞍山市,铁西三道街,,34,27,43,12,17,107,,162,137,15,16,3,7,0.3,0.6
2024-06-28T2300,1752A,122.9341,41.0833,鞍山市,铁西工业园区,,33,27,37,10,15,104,,167,140,22,16,6,8,0.6,0.7
2024-06-28T2300,1753A,123.022,41.0821,鞍山市,明达新区,,36,24,33,10,13,115,,154,138,6,9,6,8,0.4,0.5
2024-06-28T2300,2195A,107.4212,40.761,巴彦淖尔市,附二中,,41,41,68,25,25,92,,116,102,9,12,5,7,0.5,0.5
2024-06-28T2300,2196A,107.37,40.7372,巴彦淖尔市,市环保大楼,颗粒物(PM10),52,53,71,13,18,100,,114,107,10,12,4,6,0.4,0.5
2024-06-28T2300,1956A,86.1472,41.7538,巴音郭楞蒙古自治州,孔雀公园,颗粒物(PM10),65,80,70,23,23,92,,105,104,40,20,3,3,0.3,0.3
2024-06-28T2300,1957A,86.1972,41.7166,巴音郭楞蒙古自治州,棉纺厂,,,84,80,18,25,,,111,111,26,19,4,4,0.2,0.3
2024-06-28T2300,1958A,86.2357,41.7173,巴音郭楞蒙古自治州,经济开发区,,40,40,68,21,26,128,,120,120,8,9,3,3,0.3,0.3
2024-06-28T2300,2914A,106.7677,31.8794,巴中市,苏山坪,,21,14,25,10,16,67,,86,84,8,12,2,3,0.4,0.5
2024-06-28T2300,3182A,106.7656,31.8545,巴中市,丽阳花园,,22,14,25,8,16,68,,87,83,10,12,5,6,0.5,0.5
2024-06-28T2300,3183A,106.7418,31.8654,巴中市,圣泉水务公司,,21,12,24,8,16,66,,87,84,9,17,4,4,0.5,0.6
2024-06-28T2300,3616A,106.7616,31.8344,巴中市,市中心医院,,21,13,21,8,15,66,,90,86,7,8,6,6,0.5,0.5
2024-06-28T2300,2235A,122.7911,45.6077,白城市,洮北区环保局,颗粒物(PM10),51,51,53,13,25,117,,119,119,12,20,6,6,0.3,0.5
2024-06-28T2300,2236A,122.8738,45.5725,白城市,市环保局,颗粒物(PM10),56,61,54,13,23,123,,163,139,9,11,7,7,0.2,0.4
2024-06-28T2300,2231A,126.4219,41.9171,白山市,喜丰,,48,48,54,16,17,44,,157,105,34,21,9,11,1.2,1.3
2024-06-28T2300,2232A,126.4077,41.9419,白山市,环保局,颗粒物(PM10),53,56,46,28,21,54,,154,104,17,12,10,10,1.0,1
2024-06-28T2300,2647A,104.1724,36.5446,白银市,第三小学,,33,33,33,13,16,84,,132,118,24,18,56,28,0.9,0.9
2024-06-28T2300,2648A,104.1465,36.5482,白银市,动力公司,,29,17,28,10,14,92,,135,125,15,11,44,27,0.8,0.8
2024-06-28T2300,2512A,106.6103,23.9011,百色市,市监测站,,28,28,29,13,13,40,,70,61,10,11,18,15,0.8,0.8
2024-06-28T2300,2513A,106.6538,23.8859,百色市,市中心血站,,29,29,28,18,13,45,,70,63,11,11,15,12,0.8,0.8
2024-06-28T2300,3406A,106.6085,23.8798,百色市,祈福高中,,,,34,,16,37,,72,66,14,14,21,19,,0.7
2024-06-28T2300,2270A,117.396,32.939,蚌埠市,工人疗养院,,9,9,20,3,5,24,,66,30,11,6,7,8,0.4,0.5
2024-06-28T2300,2271A,117.3605,32.9427,蚌埠市,百货大楼,,8,6,22,3,10,25,,71,33,10,8,4,6,0.4,0.4
2024-06-28T2300,2273A,117.4185,32.8911,蚌埠市,蚌埠学院,,8,,11,3,5,24,,67,33,13,6,4,5,0.4,0.5
2024-06-28T2300,2274A,117.3533,32.9673,蚌埠市,淮上区政府,,16,,17,11,13,24,,71,33,13,6,6,6,0.4,0.5
2024-06-28T2300,2275A,117.3145,32.8977,蚌埠市,高新区,,10,,17,3,8,29,,71,37,10,8,4,6,0.5,0.5
2024-06-28T2300,3715A,117.3092,32.9314,蚌埠市,蚌埠田家炳中学,,8,8,26,3,9,19,,69,33,15,6,5,8,0.3,0.4
2024-06-28T2300,1585A,109.8756,40.6532,包头市,市环境监测站,,29,8,52,3,19,90,,150,115,30,29,8,12,0.5,0.5
2024-06-28T2300,1587A,109.9991,40.5842,包头市,包头八中,,35,13,58,8,21,111,,154,122,18,21,8,14,0.5,0.6
2024-06-28T2300,1588A,109.8538,40.6821,包头市,青山宾馆,,24,6,57,6,23,75,,150,112,20,29,13,17,0.5,0.6
2024-06-28T2300,1589A,109.8642,40.6288,包头市,惠龙物流,,36,,53,6,14,115,,153,122,18,23,11,17,0.5,0.6
2024-06-28T2300,1590A,110.0377,40.5546,包头市,东河鸿龙湾,,33,15,61,3,21,103,,161,121,16,24,7,13,0.7,0.7
2024-06-28T2300,3283A,109.9154,40.5685,包头市,滨河大厦,,34,6,48,3,20,108,,148,119,13,30,9,12,0.6,0.7
2024-06-28T2300,3419A,109.9447,40.6261,包头市,包头市委党校,,35,10,58,3,17,110,,156,122,17,27,10,14,0.4,0.5
2024-06-28T2300,3683A,109.8331,40.6576,包头市,昆区政府,,31,,46,7,22,98,,148,116,23,26,8,15,0.4,0.5
2024-06-28T2300,1930A,107.185,34.3063,宝鸡市,庙沟村,,25,16,27,11,12,79,,127,101,8,6,9,9,0.4,0.4
2024-06-28T2300,1931A,107.0708,34.3017,宝鸡市,竹园沟,,19,18,29,13,16,57,,136,101,14,12,8,8,0.4,0.4
2024-06-28T2300,1932A,107.1906,34.3672,宝鸡市,三陆医院,,22,22,45,8,17,66,,148,119,24,24,8,10,0.6,0.6
2024-06-28T2300,1933A,107.1431,34.3547,宝鸡市,监测站,,21,21,31,12,16,56,,140,105,20,17,8,9,0.4,0.4
2024-06-28T2300,1934A,107.1186,34.3739,宝鸡市,技工学校,,23,,29,16,15,56,,136,109,12,13,6,7,0.5,0.5
2024-06-28T2300,1935A,107.3906,34.3528,宝鸡市,陈仓区环保局家属楼,,27,27,38,13,16,65,,162,130,23,20,7,7,0.4,0.4
2024-06-28T2300,1936A,107.2058,34.3497,宝鸡市,文理学院,,27,27,33,10,14,65,,146,117,18,16,7,8,0.5,0.4
2024-06-28T2300,1937A,107.2386,34.3622,宝鸡市,三迪小学,,29,29,37,7,16,62,,153,121,16,12,7,8,0.5,0.5
2024-06-28T2300,1051A,115.493,38.8632,保定市,游泳馆,颗粒物(PM10),56,62,68,34,27,160,,214,200,9,8,10,10,0.3,0.2
2024-06-28T2300,1052A,115.5213,38.8959,保定市,华电二区,颗粒物(PM10),79,107,56,39,22,149,,219,203,19,13,3,5,0.4,0.3
2024-06-28T2300,1053A,115.4713,38.9108,保定市,接待中心,臭氧1小时,67,68,63,34,29,173,,217,206,6,6,4,6,0.3,0.3
2024-06-28T2300,1054A,115.4612,38.8416,保定市,地表水厂,颗粒物(PM10),76,102,82,39,33,153,,217,198,19,14,2,3,0.4,0.4
2024-06-28T2300,3581A,115.31981,38.95208,保定市,满城区生态环境分局,颗粒物(PM10),71,92,84,34,29,152,,226,203,12,13,2,5,0.3,0.3
2024-06-28T2300,3582A,115.47694,38.76408,保定市,清苑区第二中学,颗粒物(PM10),87,124,82,46,30,132,,219,194,28,16,6,7,0.4,0.3
2024-06-28T2300,3583A,115.62909,39.02311,保定市,徐水物探局,颗粒物(PM10),77,104,70,29,24,148,,220,195,17,15,6,6,0.1,0.1
2024-06-28T2300,4004A,115.4202,38.8656,保定市,双鹰农机,颗粒物(PM10),71,92,66,34,26,153,,233,210,23,16,4,6,0.4,0.4
2024-06-28T2300,4034A,115.5150,38.8590,保定市,植保所站,颗粒物(PM10),80,109,67,29,32,128,,228,204,34,13,5,7,0.3,0.3
2024-06-28T2300,2594A,99.1678,25.1081,保山市,市环境监测站,,28,20,16,19,12,22,,46,39,7,6,5,5,0.4,0.4
2024-06-28T2300,2595A,99.1711,25.1328,保山市,市环保局,,17,17,19,7,6,35,,49,46,2,5,4,4,0.4,0.5
2024-06-28T2300,1867A,109.1436,21.4086,北海市,海滩公园,,38,38,20,3,2,51,,64,58,3,4,3,3,0.6,0.6
2024-06-28T2300,1868A,109.0981,21.4661,北海市,新市环保局,,16,8,11,3,3,51,,60,53,4,4,4,4,0.5,0.6
2024-06-28T2300,1869A,109.1778,21.5233,北海市,北海工业园,,16,10,13,3,5,50,,54,51,5,5,4,4,0.4,0.4
2024-06-28T2300,3400A,109.1911,21.4415,北海市,龙潭自来水厂,,16,6,10,3,6,49,,62,59,2,4,5,5,0.5,0.5
2024-06-28T2300,1001A,116.3621,39.8784,北京市,万寿西宫,臭氧1小时,102,87,70,35,31,203,,237,218,19,22,4,2,0.6,0.5
2024-06-28T2300,1002A,116.2202,40.2915,北京市,定陵,颗粒物(PM10),72,93,58,33,25,157,,248,216,19,17,2,3,0.5,0.5
2024-06-28T2300,1003A,116.4174,39.9289,北京市,东四,臭氧1小时,74,95,69,38,31,179,,226,210,26,26,7,5,0.6,0.5
2024-06-28T2300,1004A,116.4072,39.8863,北京市,天坛,臭氧1小时,100,66,64,34,30,200,,226,207,20,25,5,2,0.5,0.4
2024-06-28T2300,1005A,116.462,39.9365,北京市,农展馆,颗粒物(PM10),71,92,73,36,30,160,,225,203,32,33,4,3,0.6,0.4
2024-06-28T2300,1006A,116.3392,39.9295,北京市,官园,臭氧1小时,101,87,69,40,29,201,,240,225,20,24,9,5,0.4,0.3
2024-06-28T2300,1007A,116.2878,39.9611,北京市,海淀万柳,臭氧1小时,93,84,68,32,28,194,,228,213,20,29,7,7,0.4,0.3
2024-06-28T2300,1008A,116.6636,40.135,北京市,顺义新城,颗粒物(PM10),67,84,69,37,28,166,,240,218,17,20,3,3,0.5,0.5
2024-06-28T2300,1009A,116.6275,40.3275,北京市,怀柔镇,臭氧1小时,85,83,64,33,27,188,,249,228,12,11,7,5,0.5,0.4
2024-06-28T2300,1010A,116.2296,40.217,北京市,昌平镇,颗粒物(PM10),76,101,68,38,28,153,,213,191,27,21,1,2,0.6,0.4
2024-06-28T2300,1011A,116.3966,39.9821,北京市,奥体中心,颗粒物(PM10),67,84,65,35,29,160,,203,188,27,29,3,2,0.6,0.4
2024-06-28T2300,1012A,116.184,39.9136,北京市,古城,颗粒物(PM10),72,94,65,35,28,173,,244,220,32,20,3,2,0.4,0.3
2024-06-28T2300,3281A,115.9718,40.4529,北京市,延庆夏都,颗粒物(PM10),65,80,58,35,28,155,,226,211,13,18,1,2,0.5,0.4
2024-06-28T2300,3417A,117.0709,40.1465,北京市,平谷新城,臭氧1小时,80,75,61,32,25,184,,228,215,15,17,4,3,0.5,0.4
2024-06-28T2300,3418A,116.8336,40.4095,北京市,密云新城,臭氧1小时,107,79,66,29,27,213,,262,248,13,15,6,3,0.5,0.4
2024-06-28T2300,3672A,116.1541,39.8204,北京市,丰台云岗,颗粒物(PM10),68,85,67,28,29,146,,218,188,23,18,2,3,0.5,0.4
2024-06-28T2300,3673A,116.6804,39.9081,北京市,通州东关,颗粒物(PM10),74,97,84,37,30,160,,229,206,26,30,5,3,0.9,0.5
2024-06-28T2300,3674A,115.9577,39.7603,北京市,房山燕山,颗粒物(PM10),63,76,61,30,26,142,,208,187,16,13,2,3,0.4,0.4
2024-06-28T2300,3675A,116.4672,39.7733,北京市,大兴旧宫,臭氧1小时,90,74,68,27,30,192,,217,201,14,16,3,2,0.6,0.5
2024-06-28T2300,3694A,115.986,40.4563,北京市,延庆石河营,臭氧1小时,79,66,54,29,28,183,,220,210,7,13,3,2,0.4,0.4
2024-06-28T2300,3695A,116.6151,40.3053,北京市,怀柔新城,臭氧1小时,69,84,65,36,27,175,,235,211,16,13,5,3,0.6,0.5
2024-06-28T2300,3696A,116.2545,39.8768,北京市,丰台小屯,颗粒物(PM10),65,79,69,31,29,170,,208,187,16,23,2,2,0.5,0.4
2024-06-28T2300,3697A,116.84,40.3844,北京市,密云镇,臭氧1小时,108,98,69,28,27,215,,260,248,11,17,4,2,0.5,0.4
2024-06-28T2300,1761A,123.8275,41.3064,本溪市,大峪,,37,21,27,3,13,118,,146,138,7,8,9,10,0.2,0.2
2024-06-28T2300,1762A,123.7567,41.3325,本溪市,溪湖,,31,31,35,16,15,90,,136,124,28,17,17,11,1.8,1.2
2024-06-28T2300,1763A,123.7169,41.3094,本溪市,彩屯,,40,40,36,23,19,105,,127,109,19,26,13,15,1.5,1.9
2024-06-28T2300,1764A,123.7669,41.2864,本溪市,东明,,38,22,33,6,13,119,,136,131,12,15,8,8,0.4,0.5
2024-06-28T2300,1765A,123.7992,41.2664,本溪市,新立屯,,40,9,24,9,9,128,,141,134,3,11,6,6,0.4,0.4
2024-06-28T2300,1766A,123.8142,41.3472,本溪市,威宁,,32,25,34,12,14,101,,135,121,13,15,7,8,0.5,0.5
2024-06-28T2300,2587A,105.2864,27.3125,毕节市,八中,,16,16,17,10,13,27,,42,33,9,8,5,5,0.5,0.4
2024-06-28T2300,2588A,105.31,27.2944,毕节市,师专,,18,13,17,12,13,31,,41,34,10,8,4,4,0.5,0.5
2024-06-28T2300,3537A,105.3631,27.3533,毕节市,长征村,,30,29,39,21,28,38,,41,38,6,9,6,7,0.4,0.4
2024-06-28T2300,1629A,118.0018,37.3617,滨州市,第二水厂,颗粒物(PM10),60,70,58,24,20,117,,229,197,17,18,9,6,0.6,0.4
2024-06-28T2300,1630A,117.9776,37.393,滨州市,北中新校,颗粒物(PM10),59,68,61,17,17,125,,231,202,17,20,12,6,0.5,0.4
2024-06-28T2300,3514A,117.9378,37.3956,滨州市,中海酒店,颗粒物(PM10),57,63,57,14,22,139,,247,219,14,18,14,8,0.4,0.4
2024-06-28T2300,3515A,117.9378,37.3553,滨州市,开发区一中,颗粒物(PM10),58,66,61,22,21,115,,226,193,14,20,14,12,0.8,0.7
2024-06-28T2300,3516A,118.0917,37.694,滨州市,金海六路,,49,49,71,12,15,145,,241,205,7,17,13,15,0.3,0.4
2024-06-28T2300,4028A,117.9956,37.3753,滨州市,滨州市西街道办事处,颗粒物(PM10),57,63,57,24,23,122,,235,203,14,16,11,6,0.7,0.6
2024-06-28T2300,2311A,115.8072,33.8399,亳州市,污水处理厂,,22,,18,15,16,36,,116,63,8,7,3,3,0.5,0.5
2024-06-28T2300,2312A,115.7789,33.8518,亳州市,三国揽胜宫,,16,16,23,3,7,33,,114,60,10,7,2,2,0.4,0.5
2024-06-28T2300,3332A,115.7633,33.8034,亳州市,亳州学院,,11,,13,6,8,34,,112,62,11,7,2,3,0.4,0.5
2024-06-28T2300,2693A,82.0485,44.8556,博尔塔拉蒙古自治州,市党校,,49,49,40,24,16,92,,118,110,12,11,9,9,0.4,0.4
2024-06-28T2300,2694A,82.0806,44.8969,博尔塔拉蒙古自治州,市环保局,颗粒物(PM10),73,96,41,39,16,74,,122,114,34,19,8,9,0.6,0.5
2024-06-28T2300,1071A,116.8842,38.2991,沧州市,沧县城建局,颗粒物(PM10),78,105,63,27,25,168,,222,207,17,17,7,8,0.4,0.3
2024-06-28T2300,1072A,116.8584,38.3254,沧州市,电视转播站,颗粒物(PM10),70,89,63,29,24,166,,220,205,13,12,6,7,0.4,0.3
2024-06-28T2300,1073A,116.8709,38.3228,沧州市,市环保局,颗粒物(PM10),60,70,65,29,24,164,,217,202,16,18,4,5,0.4,0.3
2024-06-28T2300,3324A,116.8136,38.3004,沧州市,河北水利电力学院,颗粒物(PM10),70,90,67,36,31,170,,230,213,17,18,7,8,0.4,0.3
2024-06-28T2300,2622A,97.1806,31.1273,昌都市,昌都监测站,,24,6,5,3,4,76,,92,88,12,9,6,7,0.4,0.4
2024-06-28T2300,3719A,97.1714,31.1406,昌都市,昌都会议中心,,,6,6,3,5,,,85,82,9,10,6,6,0.5,0.4
2024-06-28T2300,2690A,88.1236,43.8886,昌吉回族自治州,天山天池,,27,22,20,11,7,84,,140,121,6,7,12,13,0.5,0.5
2024-06-28T2300,2692A,87.2717,44.0297,昌吉回族自治州,新区政务中心,,38,38,36,15,10,85,,125,114,23,11,8,8,0.4,0.4
2024-06-28T2300,3613A,87.3095,44.0142,昌吉回族自治州,亚心广场,,48,48,47,9,12,81,,123,112,21,21,2,7,0.4,0.4
2024-06-28T2300,1119A,125.3325,43.9166,长春市,食品厂,,35,34,47,13,17,112,,174,154,32,22,8,7,0.3,0.3
2024-06-28T2300,1120A,125.2863,43.9027,长春市,客车厂,,48,48,45,18,16,104,,170,147,34,20,6,5,0.4,0.5
2024-06-28T2300,1121A,125.2841,43.8463,长春市,邮电学院,,44,44,43,11,19,116,,172,155,26,19,9,9,0.3,0.4
2024-06-28T2300,1122A,125.3716,43.8772,长春市,劳动公园,,44,44,44,11,15,131,,182,168,22,19,6,6,0.3,0.4
2024-06-28T2300,1123A,125.3297,43.8805,长春市,园林处,,41,41,37,18,17,120,,176,160,22,16,8,7,0.3,0.4
2024-06-28T2300,1124A,125.4605,43.79,长春市,净月潭,,33,33,36,10,15,75,,169,139,40,16,5,5,0.4,0.5
2024-06-28T2300,1126A,125.3863,43.8447,长春市,经开区环卫处,,43,43,45,14,16,123,,164,151,24,22,6,6,0.4,0.4
2024-06-28T2300,1127A,125.245,43.7783,长春市,高新区管委会,,41,41,40,12,15,106,,170,135,28,20,6,6,0.4,0.4
2024-06-28T2300,1128A,125.1761,43.8325,长春市,岱山公园,,42,42,42,13,18,98,,164,128,35,24,6,6,0.4,0.4
2024-06-28T2300,1335A,113.0833,28.2325,长沙市,经开区环保局,,19,19,25,10,13,36,,82,52,10,11,5,5,0.3,0.5
2024-06-28T2300,1336A,112.8872,28.2189,长沙市,高开区环保局,,27,27,28,13,17,31,,73,54,12,10,8,6,0.8,0.8
2024-06-28T2300,1337A,113.0792,28.2053,长沙市,马坡岭,,20,20,25,6,14,35,,75,51,10,10,8,8,0.4,0.5
2024-06-28T2300,1338A,112.9394,28.19,长沙市,湖南师范大学,,23,23,32,9,17,29,,75,50,12,12,7,7,0.5,0.8
2024-06-28T2300,1339A,113.0178,28.1322,长沙市,雨花区环保局,,20,,28,14,15,34,,78,49,8,11,4,4,0.8,1
2024-06-28T2300,1340A,112.9792,28.2597,长沙市,伍家岭,,,26,33,17,19,,,78,,15,13,2,4,0.5,0.7
2024-06-28T2300,1341A,113.0014,28.1944,长沙市,火车新站,,22,22,32,7,16,27,,75,44,6,12,3,4,0.3,0.6
2024-06-28T2300,1342A,112.9844,28.1178,长沙市,天心区环保局,,23,23,31,7,13,24,,71,43,12,9,3,3,0.4,0.7
2024-06-28T2300,1343A,112.8908,28.1308,长沙市,湖南中医药大学,,27,27,28,13,20,24,,70,46,22,18,20,11,1.0,0.7
2024-06-28T2300,1344A,112.9581,28.3611,长沙市,沙坪,,19,18,18,13,13,34,,80,54,16,14,7,6,0.5,0.7
2024-06-28T2300,1727A,113.1147,36.1547,长治市,清华站,臭氧1小时,57,53,47,22,22,165,,209,194,12,14,11,11,0.3,0.4
2024-06-28T2300,1728A,113.1031,36.1989,长治市,监测站,臭氧1小时,62,52,55,22,22,169,,219,201,13,19,4,5,0.5,0.6
2024-06-28T2300,1730A,113.0886,36.2125,长治市,审计局,臭氧1小时,57,45,47,17,21,165,,211,194,22,25,3,3,0.3,0.3
2024-06-28T2300,1731A,113.0844,36.1856,长治市,长治八中,臭氧1小时,63,63,61,23,21,170,,212,197,12,16,4,4,0.5,0.5
2024-06-28T2300,2845A,113.1569,36.1911,长治市,德盛苑,,50,50,48,24,22,158,,222,198,12,9,8,8,0.6,0.7
2024-06-28T2300,3568A,113.06,36.0464,长治市,向阳小学,颗粒物(PM10),66,81,69,29,35,162,,211,202,15,13,4,5,0.6,0.6
2024-06-28T2300,3569A,112.8792,36.3144,长治市,屯留一中,臭氧1小时,68,53,54,27,29,174,,225,208,10,13,7,8,0.2,0.5
2024-06-28T2300,3570A,113.235,36.3489,长治市,潞城四中,颗粒物(PM10),60,69,73,31,28,126,,211,186,41,16,8,7,0.3,0.4
2024-06-28T2300,1854A,111.6975,28.9703,常德市,市二中,,12,12,12,7,8,16,,51,29,15,10,7,6,0.6,0.6
2024-06-28T2300,3138A,111.7153,29.0289,常德市,武陵区永安,,12,12,13,6,8,15,,46,22,15,11,6,6,0.5,0.5
2024-06-28T2300,3139A,111.6892,28.9881,常德市,鼎城区玉霞,,10,10,14,7,10,19,,49,26,11,10,4,4,0.5,0.5
2024-06-28T2300,3140A,111.6625,29.0531,常德市,武陵区长庚,,9,9,12,3,7,28,,53,26,2,3,7,7,0.6,0.6
2024-06-28T2300,1196A,119.9633,31.762,常州市,市监测站,,17,17,16,3,8,38,,50,40,16,18,6,8,0.6,0.8
2024-06-28T2300,1200A,119.9468,31.7069,常州市,武进监测站,,16,10,13,7,8,49,,51,45,4,6,1,3,0.6,0.7
2024-06-28T2300,1201A,119.9255,31.9087,常州市,安家,,11,9,21,3,11,33,,40,34,13,19,6,10,0.5,0.6
2024-06-28T2300,3002A,119.9805,31.8174,常州市,行政中心,,12,12,14,3,7,32,,48,37,12,12,8,8,0.7,0.7
2024-06-28T2300,3003A,120.0522,31.7748,常州市,经开区,,13,11,14,9,10,27,,52,38,20,15,6,7,0.6,0.6
2024-06-28T2300,3010A,119.9025,31.7964,常州市,钟楼,,14,9,14,3,8,42,,44,40,8,14,4,5,0.8,0.9
2024-06-28T2300,3429A,119.8598,31.7066,常州市,武进经发区,,14,13,13,3,6,42,,47,36,11,11,7,9,0.4,0.5
2024-06-28T2300,3430A,119.5826,31.7245,常州市,金坛城区,,15,7,11,3,7,45,,47,38,9,10,5,5,0.6,0.8
2024-06-28T2300,2220A,120.4318,41.5881,朝阳市,西梁,臭氧1小时,67,60,45,20,19,173,,163,163,7,10,10,9,0.6,0.6
2024-06-28T2300,2221A,120.4521,41.5646,朝阳市,河畔小区,臭氧1小时,82,56,39,22,14,185,,176,176,6,8,12,11,0.6,0.6
2024-06-28T2300,2222A,120.4176,41.5648,朝阳市,八里堡,颗粒物(PM10),55,59,52,25,20,160,,159,154,10,14,9,9,0.8,0.8
2024-06-28T2300,2223A,120.3806,41.5969,朝阳市,农业园区,颗粒物(PM10),53,56,50,34,23,158,,169,156,9,14,7,6,0.7,0.7
2024-06-28T2300,1705A,116.6367,23.6719,潮州市,西园路,,37,37,23,9,8,23,,76,50,20,10,5,3,0.9,0.4
2024-06-28T2300,3026A,116.6183,23.6608,潮州市,市政府,,22,22,22,7,7,33,,73,49,7,5,5,6,0.7,0.7
2024-06-28T2300,4036A,116.6461,23.6761,潮州市,金山,,27,27,22,10,10,20,,75,48,23,9,13,7,1.2,0.6
2024-06-28T2300,2472A,113.0073,25.9061,郴州市,马头岭,,20,18,21,10,8,64,,70,48,5,6,8,7,0.4,0.4
2024-06-28T2300,2473A,113.0116,25.8226,郴州市,市职中,,20,,14,14,10,60,,69,51,7,6,8,8,0.4,0.4
2024-06-28T2300,2474A,113.0161,25.8001,郴州市,兴隆步行街,,,20,20,10,8,,,73,51,6,6,8,8,0.4,0.5
2024-06-28T2300,2475A,113.0383,25.8071,郴州市,市审计局,,19,18,14,13,10,51,,62,52,13,7,5,5,0.3,0.3
2024-06-28T2300,2476A,113.0348,25.7759,郴州市,市环保局,,20,20,18,8,7,63,,69,55,11,9,5,5,0.3,0.3
2024-06-28T2300,1431A,103.9728,30.7236,成都市,金泉两河,细颗粒物(PM2.5),69,56,33,50,19,48,,114,95,31,10,6,3,0.6,0.4
2024-06-28T2300,1432A,104.176,30.6872,成都市,十里店,,48,48,26,27,16,72,,120,109,31,19,4,3,0.8,0.6
2024-06-28T2300,1433A,104.079,30.5706,成都市,三瓦窑,细颗粒物(PM2.5),62,47,34,44,28,74,,99,90,25,25,3,2,0.5,0.5
2024-06-28T2300,1434A,104.1114,30.63,成都市,沙河铺,,,36,22,29,13,,,92,88,22,13,2,2,,0.4
2024-06-28T2300,1437A,104.0786,30.6531,成都市,君平街,,48,48,28,33,17,70,,119,110,33,17,4,2,0.7,0.6
2024-06-28T2300,2880A,104.0239,30.65639,成都市,大石西路,颗粒物(PM10),53,56,34,27,15,57,,113,98,37,16,6,4,0.7,0.5
2024-06-28T2300,3136A,104.2725,30.5589,成都市,龙泉驿区区政府,,32,27,18,22,12,78,,107,95,38,19,3,3,0.5,0.5
2024-06-28T2300,3357A,104.0106,30.6931,成都市,金博路,,39,39,24,25,14,59,,108,95,20,10,4,2,0.7,0.5
2024-06-28T2300,3359A,104.0578,30.5225,成都市,华阳,,49,34,21,34,22,73,,104,99,16,11,2,2,0.5,0.4
2024-06-28T2300,3487A,104.2394,30.5319,成都市,车城东七路,,50,50,28,35,21,86,,111,103,12,9,2,2,0.4,0.4
2024-06-28T2300,3488A,104.3853,30.7453,成都市,青白江技师分院,,45,42,31,31,17,74,,113,94,31,23,6,5,0.8,0.6
2024-06-28T2300,3489A,104.0789,30.4072,成都市,科学城,,43,38,27,30,22,79,,110,104,18,10,3,2,0.5,0.4
2024-06-28T2300,4011A,103.8506,30.6947,成都市,光华大道三段,细颗粒物(PM2.5),52,40,33,36,19,64,,115,100,18,9,5,3,0.5,0.5
2024-06-28T2300,1062A,117.9531,40.9081,承德市,铁路,臭氧1小时,127,87,56,45,23,254,,238,238,20,24,11,8,0.6,0.4
2024-06-28T2300,1063A,117.9392,40.9763,承德市,中国银行,臭氧1小时,117,102,60,52,23,233,,226,226,22,20,8,7,0.5,0.4
2024-06-28T2300,1064A,117.9503,40.928,承德市,开发区,臭氧1小时,127,89,61,33,22,254,,236,236,19,26,11,8,0.6,0.5
2024-06-28T2300,1065A,117.8051,40.9655,承德市,文化中心,颗粒物(PM10),71,91,61,42,22,176,,228,214,42,26,14,12,0.5,0.4
2024-06-28T2300,1066A,117.9268,41.0026,承德市,离宫,颗粒物(PM10),57,64,47,36,24,154,,204,193,16,14,4,4,0.4,0.4
2024-06-28T2300,2314A,117.47,30.6618,池州市,池州学院,,13,13,7,6,3,30,,39,31,11,9,5,4,0.3,0.5
2024-06-28T2300,3237A,117.4918,30.6617,池州市,展览馆,,16,16,8,3,2,11,,34,20,14,9,2,3,0.5,0.5
2024-06-28T2300,3333A,117.5627,30.695,池州市,第八中学,,11,11,7,3,2,34,,36,31,6,8,2,2,0.3,0.6
2024-06-28T2300,3334A,117.5038,30.6243,池州市,第十二中学,,10,8,6,3,3,30,,29,28,8,13,5,4,0.5,0.5
2024-06-28T2300,1744A,118.9233,42.2816,赤峰市,松山一中,,38,38,32,10,17,105,,170,156,16,20,10,13,0.4,0.6
2024-06-28T2300,1745A,118.9576,42.2728,赤峰市,哈达街,,41,41,38,22,17,107,,168,153,17,19,10,11,0.5,0.6
2024-06-28T2300,1746A,118.8788,42.2554,赤峰市,天义路,,37,37,35,13,15,106,,186,168,22,21,6,9,0.2,0.3
2024-06-28T2300,3058A,119.2658,42.0353,赤峰市,银河街,臭氧1小时,78,55,54,29,24,182,,192,192,19,18,25,17,0.5,0.5
2024-06-28T2300,3286A,118.9359,42.3147,赤峰市,桥北物流园区,颗粒物(PM10),55,59,42,11,22,90,,160,142,20,17,7,8,0.6,0.7
2024-06-28T2300,2521A,107.3476,22.4136,崇左市,市环保局江州分局,,27,27,20,8,8,6,,46,24,15,9,4,5,0.7,0.5
2024-06-28T2300,2522A,107.3702,22.3707,崇左市,城南新区,,14,14,16,6,7,14,,46,30,13,8,2,3,0.6,0.6
2024-06-28T2300,2298A,118.3093,32.3153,滁州市,老年大学,,10,10,17,3,13,25,,60,31,14,13,5,12,0.6,0.6
2024-06-28T2300,2299A,118.3244,32.2786,滁州市,人大宾馆,,10,8,11,3,13,32,,61,34,10,12,5,5,0.5,0.6
2024-06-28T2300,3207A,118.3118,32.3038,滁州市,市政府原办公楼,,8,,16,3,15,25,,57,32,15,14,8,8,0.6,0.7
2024-06-28T2300,3331A,118.3267,32.2634,滁州市,图书馆,,10,10,15,3,12,31,,61,33,9,10,7,7,0.7,0.8
2024-06-28T2300,2605A,101.5482,25.0441,楚雄彝族自治州,州环境监测站,,12,9,6,7,4,36,,42,41,3,3,2,3,0.4,0.6
2024-06-28T2300,2606A,101.538,25.0492,楚雄彝族自治州,市经济开发区,,20,16,8,14,5,32,,39,38,5,4,4,4,0.5,0.5
2024-06-28T2300,2548A,107.5277,31.2827,达州市,达州职业技术学院,,27,27,25,7,5,3,,59,47,44,22,5,6,0.7,0.4
2024-06-28T2300,2549A,107.5086,31.2186,达州市,市环境监测站,,,26,26,3,6,,,69,69,38,24,6,7,0.6,0.7
2024-06-28T2300,2550A,107.4988,31.2132,达州市,凤凰小区,,17,17,19,9,9,41,,68,66,25,23,8,9,0.5,0.7
2024-06-28T2300,2551A,107.5082,31.1986,达州市,达县机关宾馆,,34,34,27,11,9,22,,64,57,46,31,7,7,0.4,0.5
2024-06-28T2300,2552A,107.4644,31.2124,达州市,市政中心,,27,27,29,3,7,34,,54,51,31,28,14,15,1.1,1
2024-06-28T2300,2614A,100.1542,25.7054,大理白族自治州,大理市环境监测站,,14,13,11,9,9,42,,42,41,4,6,4,4,0.4,0.5
2024-06-28T2300,2615A,100.2171,25.5811,大理白族自治州,大理古城,,16,14,15,11,7,16,,28,25,15,11,5,5,0.7,0.7
2024-06-28T2300,1109A,121.612,38.9741,大连市,甘井子,,27,23,26,15,21,84,,128,112,13,16,9,7,0.5,0.5
2024-06-28T2300,1110A,121.565,38.9511,大连市,周水子,,28,20,21,15,15,89,,145,128,14,16,6,7,0.6,0.6
2024-06-28T2300,1111A,121.5637,38.8845,大连市,星海三站,,34,34,32,3,9,96,,145,135,8,10,6,7,0.4,0.4
2024-06-28T2300,1112A,121.6302,38.9117,大连市,青泥洼桥,,25,23,29,14,16,78,,133,115,9,10,8,9,0.6,0.6
2024-06-28T2300,1113A,121.6251,38.8638,大连市,傅家庄,,31,15,19,9,16,98,,148,138,8,9,8,8,0.5,0.5
2024-06-28T2300,1114A,121.5213,38.8661,大连市,七贤岭,,25,23,25,11,15,78,,122,110,9,10,5,5,0.4,0.5
2024-06-28T2300,1115A,121.2529,38.8061,大连市,旅顺,,30,25,25,8,12,94,,150,140,11,14,8,9,0.3,0.3
2024-06-28T2300,1116A,121.7485,39.1311,大连市,金州,,33,19,22,12,13,103,,142,131,6,11,7,9,0.4,0.3
2024-06-28T2300,1117A,121.7811,39.0496,大连市,开发区,,31,26,25,13,16,97,,145,127,10,15,10,8,0.6,0.5
2024-06-28T2300,1118A,121.9762,39.0631,大连市,双D港,,34,12,19,9,14,106,,143,138,6,12,5,7,0.5,0.6
2024-06-28T2300,1789A,124.81117,46.03138,大庆市,大同区,,40,40,55,23,29,122,,181,159,10,12,6,7,0.2,0.3
2024-06-28T2300,1790A,125.129,46.533,大庆市,龙凤区,,41,41,50,19,21,125,,180,161,8,12,8,8,0.1,0.4
2024-06-28T2300,1791A,124.902,46.408,大庆市,红岗区,,42,42,35,19,24,131,,190,172,8,11,6,7,0.3,0.4
2024-06-28T2300,1792A,125.153,46.586,大庆市,萨尔图区,,48,48,52,14,22,115,,163,149,10,12,8,8,0.2,0.4
2024-06-28T2300,1793A,124.9042,46.6215,大庆市,让胡路区,,49,49,57,14,13,134,,192,175,12,13,7,7,0.3,0.4
2024-06-28T2300,3481A,125.141,46.634,大庆市,萨区政府监测点,,40,40,51,11,22,128,,187,170,11,13,9,8,0.2,0.4
2024-06-28T2300,1723A,113.2994,40.0758,大同市,云冈宾馆,臭氧1小时,105,78,60,31,29,210,,209,202,19,19,10,9,0.8,0.7
2024-06-28T2300,1724A,113.3444,40.0917,大同市,大同大学,臭氧1小时,104,60,46,32,27,208,,204,199,15,13,10,10,0.4,0.4
2024-06-28T2300,1725A,113.2661,40.1269,大同市,安家小村,臭氧1小时,73,81,62,33,24,178,,207,193,21,15,15,14,0.6,0.5
2024-06-28T2300,1726A,113.2711,40.0844,大同市,教育学院,臭氧1小时,102,85,62,38,29,203,,214,203,22,20,13,11,0.7,0.6
2024-06-28T2300,3282A,113.3397,40.0597,大同市,大同市卫生学校,臭氧1小时,109,69,67,36,28,217,,206,203,15,14,12,11,0.7,0.6
2024-06-28T2300,3565A,113.1367,40.1122,大同市,云冈站,臭氧1小时,104,82,67,34,30,207,,202,191,15,18,12,10,0.2,0.2
2024-06-28T2300,3566A,113.1186,40.2556,大同市,图书馆,臭氧1小时,100,74,60,35,30,200,,216,200,21,18,12,10,0.6,0.5
2024-06-28T2300,3567A,113.5931,40.0461,大同市,区一中,臭氧1小时,112,72,52,33,19,224,,207,206,14,12,10,10,0.6,0.6
2024-06-28T2300,3676A,113.2802,40.0995,大同市,第二人民医院,臭氧1小时,105,76,62,41,27,210,,216,207,16,15,12,11,0.7,0.6
2024-06-28T2300,2269A,124.1069,50.4097,大兴安岭地区,科技局,,20,20,18,9,9,46,,98,70,4,4,8,8,0.3,0.3
2024-06-28T2300,3663A,124.1164,50.4278,大兴安岭地区,红旗社区,,19,,8,13,8,25,,102,63,4,5,9,9,0.4,0.4
2024-06-28T2300,1600A,124.3303,40.0625,丹东市,江湾东路,,24,24,26,8,17,51,,121,96,16,8,19,10,0.4,0.5
2024-06-28T2300,1601A,124.4256,40.1503,丹东市,临江后街,,30,30,24,17,14,75,,122,104,12,10,12,10,0.8,0.6
2024-06-28T2300,1602A,124.3933,40.1461,丹东市,元宝山,,28,26,26,12,13,87,,122,107,10,10,7,8,0.5,0.6
2024-06-28T2300,1603A,124.3633,40.1092,丹东市,民主桥,,29,29,33,14,15,52,,113,95,18,12,6,7,0.5,0.5
2024-06-28T2300,3541A,109.5726,19.5167,儋州市,第一中学子站,,12,12,13,3,5,24,,44,40,2,2,7,6,0.4,0.4
2024-06-28T2300,3542A,109.5567,19.5187,儋州市,东坡学校子站,,17,17,13,3,5,20,,44,39,3,3,6,5,0.5,0.5
2024-06-28T2300,2616A,98.5842,24.428,德宏傣族景颇族自治州,德宏州监测站,,28,28,20,10,7,15,,50,36,13,9,2,3,0.8,0.7
2024-06-28T2300,3677A,98.5881,24.4368,德宏傣族景颇族自治州,芒市人民政府综合楼,,,21,21,11,8,,,50,38,8,8,3,7,0.6,0.6
2024-06-28T2300,1901A,104.4239,31.1208,德阳市,东山公园,,43,43,35,21,15,78,,121,117,25,15,2,2,0.5,0.4
2024-06-28T2300,1902A,104.3826,31.1317,德阳市,西小区,,46,46,30,21,17,79,,125,120,33,19,2,2,0.6,0.5
2024-06-28T2300,1904A,104.3553,31.1091,德阳市,耐火材料厂,颗粒物(PM10),51,52,29,24,16,70,,137,129,38,14,4,3,0.6,0.5
2024-06-28T2300,3639A,104.4019,31.1244,德阳市,市教育局,,48,48,36,20,17,62,,125,117,47,20,4,3,0.6,0.5
2024-06-28T2300,1622A,116.3032,37.4674,德州市,儿童乐园,颗粒物(PM10),57,63,82,27,31,151,,202,187,10,12,8,22,0.6,0.6
2024-06-28T2300,1624A,116.2991,37.4451,德州市,监理站,颗粒物(PM10),62,73,78,29,30,167,,223,206,18,16,11,26,0.4,0.6
2024-06-28T2300,3066A,116.2721,37.4379,德州市,九衢泉纯净水厂,,,70,82,27,35,,,222,,,22,,22,,0.8
2024-06-28T2300,3371A,116.3728,37.4403,德州市,开发区人民医院,颗粒物(PM10),60,70,79,29,27,166,,218,203,14,20,9,16,0.7,0.6
2024-06-28T2300,3372A,116.3572,37.4094,德州市,太阳城中学,颗粒物(PM10),64,78,84,36,30,154,,222,199,21,24,8,14,0.6,0.7
2024-06-28T2300,3511A,116.5652,37.3319,德州市,陵城艺术中心,颗粒物(PM10),67,83,75,31,25,160,,218,202,17,16,3,4,0.5,0.4
2024-06-28T2300,2621A,99.7056,27.8317,迪庆藏族自治州,迪庆州站,,29,29,16,14,8,30,,40,37,14,9,10,10,0.5,0.4
2024-06-28T2300,3180A,99.7136,27.8094,迪庆藏族自治州,质量技术监督局,,17,17,13,8,7,36,,46,40,11,8,8,8,0.4,0.4
2024-06-28T2300,2663A,104.6241,35.5734,定西市,东关小学,,42,42,34,23,17,103,,132,120,9,10,4,4,0.1,0.2
2024-06-28T2300,2664A,104.6194,35.5934,定西市,供电公司,,43,43,29,26,19,87,,142,123,23,10,3,3,0.2,0.2
2024-06-28T2300,1389A,113.7547,23.0494,东莞市,莞城梨川,,17,17,17,3,7,26,,64,48,21,14,9,9,0.7,0.7
2024-06-28T2300,1390A,113.7944,23.0128,东莞市,东城石井,,27,27,18,9,7,18,,72,48,25,14,2,2,0.6,0.5
2024-06-28T2300,1391A,113.7383,22.9658,东莞市,南城西平,,13,13,19,3,7,34,,64,49,15,17,3,2,0.6,0.7
2024-06-28T2300,3319A,113.7338,23.0381,东莞市,万江金泰,,14,14,16,6,6,27,,66,47,15,11,6,5,0.6,0.6
2024-06-28T2300,3626A,113.7533,23.0202,东莞市,南城元岭,,18,18,18,6,6,16,,64,44,26,12,7,7,0.6,0.6
2024-06-28T2300,3627A,113.7875,23.0457,东莞市,东城主山,,15,15,17,7,6,20,,68,48,21,11,9,9,0.6,0.6
2024-06-28T2300,1666A,118.6614,37.4309,东营市,市环保局,颗粒物(PM10),51,51,47,14,16,127,,215,184,13,17,11,14,0.4,0.5
2024-06-28T2300,3036A,118.6904,37.4338,东营市,开发区管委会,颗粒物(PM10),56,61,52,17,15,125,,208,178,13,15,10,11,0.1,0.1
2024-06-28T2300,3365A,118.5719,37.565,东营市,垦利区民丰路,颗粒物(PM10),52,53,50,12,16,141,,227,197,14,16,13,15,0.6,0.6
2024-06-28T2300,3498A,118.5055,37.8612,东营市,河口城区,,43,34,49,15,17,137,,216,183,8,12,7,10,0.5,0.6
2024-06-28T2300,3646A,118.4978,37.4623,东营市,胜利站,颗粒物(PM10),56,62,52,17,16,129,,215,190,17,20,9,10,0.7,0.6
2024-06-28T2300,3734A,118.35,37.26,东营市,理想之城,颗粒物(PM10),54,58,51,19,18,113,,207,173,14,16,3,5,0.5,0.4
2024-06-28T2300,1591A,110.0023,39.8129,鄂尔多斯市,综合楼,,50,9,71,3,34,158,,188,177,7,20,8,13,0.5,0.7
2024-06-28T2300,1592A,109.9486,39.8261,鄂尔多斯市,巴音孟克林场办事处,,45,17,64,7,23,143,,169,155,9,16,6,11,0.3,0.5
2024-06-28T2300,1593A,109.7736,39.5986,鄂尔多斯市,康泽苑,,42,17,58,12,24,134,,179,162,7,11,9,11,0.5,0.6
2024-06-28T2300,1594A,109.8119,39.5989,鄂尔多斯市,华泰汽车城,,40,,51,9,24,126,,162,146,7,15,8,11,0.6,0.5
2024-06-28T2300,1595A,109.9734,39.7884,鄂尔多斯市,奥林花园,,46,12,65,7,26,145,,167,153,10,21,5,8,0.5,0.5
2024-06-28T2300,2436A,114.8938,30.3994,鄂州市,市政府,,38,38,18,18,4,25,,38,32,18,11,7,6,0.7,0.6
2024-06-28T2300,2437A,114.8989,30.3714,鄂州市,赵家坝,,34,34,14,19,5,20,,38,30,21,14,7,6,0.6,0.5
2024-06-28T2300,3654A,114.8094,30.4089,鄂州市,精准医疗中心,,20,20,14,8,5,29,,36,33,15,15,6,7,0.5,0.9
2024-06-28T2300,2454A,109.4978,30.2981,恩施土家族苗族自治州,湖北民院,,16,16,12,10,4,9,,38,30,13,11,6,6,0.8,0.8
2024-06-28T2300,2455A,109.4707,30.2798,恩施土家族苗族自治州,州电力总公司,,17,17,7,7,5,9,,42,30,23,17,8,6,0.8,0.7
2024-06-28T2300,3549A,109.5061,30.3772,恩施土家族苗族自治州,龙凤新区,,12,12,7,3,2,9,,39,26,15,16,6,6,0.8,0.8
2024-06-28T2300,2499A,108.3411,21.6158,防城港市,沙万,,21,21,19,3,6,15,,32,25,22,16,10,10,0.4,0.5
2024-06-28T2300,2500A,108.3514,21.7731,防城港市,防城档案局,,9,9,16,6,8,21,,32,27,7,11,4,5,0.4,0.5
2024-06-28T2300,2501A,108.3506,21.6414,防城港市,大海花园,,,13,15,,6,19,,36,28,9,11,10,7,0.6,0.7
2024-06-28T2300,1371A,113.1294,23.0067,佛山市,湾梁,,17,17,14,10,9,32,,92,62,12,12,8,8,0.5,0.5
2024-06-28T2300,1372A,113.1083,23.0478,佛山市,华材职中,,10,9,12,7,8,32,,93,62,12,11,8,8,0.4,0.4
2024-06-28T2300,1373A,113.144,23.0453,佛山市,南海气象局,,18,18,18,10,9,28,,90,60,11,11,7,7,0.4,0.4
2024-06-28T2300,1374A,113.2881,22.8094,佛山市,顺德苏岗,,9,8,9,3,4,28,,70,50,12,8,7,6,0.5,0.4
2024-06-28T2300,1376A,112.8383,22.8678,佛山市,高明孔堂,,21,21,13,9,8,35,,62,52,9,7,6,6,0.4,0.4
2024-06-28T2300,1377A,112.8836,23.1588,佛山市,三水监测站,,18,12,17,12,9,24,,67,48,17,20,4,4,0.5,0.6
2024-06-28T2300,1378A,112.867,23.185,佛山市,三水云东海,,16,16,16,8,8,27,,77,56,19,18,5,4,0.4,0.5
2024-06-28T2300,3625A,113.2544,22.7642,佛山市,容桂街道办,,17,17,8,7,6,29,,62,45,21,16,8,6,0.5,0.4
2024-06-28T2300,1282A,119.2681,26.0504,福州市,师大,,24,24,24,6,5,37,,65,47,12,12,3,3,0.3,0.3
2024-06-28T2300,1283A,119.2984,26.1028,福州市,五四北路,,27,27,24,7,7,38,,71,49,15,13,3,3,0.3,0.3
2024-06-28T2300,1284A,119.2648,26.0768,福州市,杨桥西路,,21,21,28,3,5,43,,69,50,9,13,3,3,0.3,0.3
2024-06-28T2300,1285A,119.317,26.0746,福州市,紫阳,,26,26,24,8,5,30,,63,43,16,12,3,2,0.4,0.4
2024-06-28T2300,3048A,119.5799,26.0936,福州市,九龙,,23,23,21,7,6,34,,60,47,7,6,5,4,0.3,0.2
2024-06-28T2300,3526A,119.5189,25.9664,福州市,吴航,,24,24,17,8,7,34,,57,46,4,5,4,4,0.4,0.5
2024-06-28T2300,1755A,123.7977,41.8491,抚顺市,望花区,,38,38,45,16,18,97,,181,148,32,20,7,10,0.3,0.5
2024-06-28T2300,1758A,123.9247,41.8642,抚顺市,新抚区,,28,28,44,18,19,87,,157,132,17,18,5,7,0.4,0.6
2024-06-28T2300,1760A,123.7086,41.8391,抚顺市,沈抚新城,,30,26,41,9,21,96,,174,140,26,20,7,9,0.3,0.7
2024-06-28T2300,2376A,116.2127,28.0814,抚州市,桐源党溪,,29,29,27,12,12,36,,39,35,4,8,5,6,0.3,0.4
2024-06-28T2300,2377A,116.3544,27.9831,抚州市,市站,,22,17,20,15,11,27,,47,39,14,10,3,4,1.0,1
2024-06-28T2300,2378A,116.3565,27.963,抚州市,血防站,,23,23,23,10,9,9,,44,35,17,10,3,3,0.8,0.8
2024-06-28T2300,2379A,116.3564,28.0007,抚州市,采茶剧团,,28,28,23,15,12,25,,43,36,12,12,3,3,0.7,0.7
2024-06-28T2300,2380A,116.385,27.9647,抚州市,医学分院,,28,28,27,11,9,29,,47,41,10,8,4,9,0.9,0.8
2024-06-28T2300,2207A,121.6094,41.998,阜新市,工业园区,,36,28,63,8,10,114,,149,130,14,14,9,11,0.5,0.5
2024-06-28T2300,2208A,121.6697,42.0279,阜新市,长青街,,35,19,51,12,15,110,,145,124,14,15,12,13,0.4,0.5
2024-06-28T2300,2209A,121.6673,42.0705,阜新市,农业园区,,35,25,43,9,10,111,,144,126,11,13,9,9,0.6,0.7
2024-06-28T2300,2210A,121.6717,42.0224,阜新市,东苑,,33,26,50,3,8,104,,139,118,13,15,11,11,0.5,0.6
2024-06-28T2300,2211A,121.6506,42.0498,阜新市,玉龙新城,,36,26,43,3,8,115,,150,132,13,12,10,10,0.4,0.4
2024-06-28T2300,2301A,115.8277,32.8929,阜阳市,市监测站,,15,7,12,3,5,47,,84,42,8,9,7,7,0.6,0.5
2024-06-28T2300,2303A,115.8554,32.8605,阜阳市,开发区,,17,,10,6,7,53,,81,45,8,12,4,5,0.4,0.3
2024-06-28T2300,2875A,115.784,32.8892,阜阳市,阜阳职业技术学院,,18,,6,3,6,55,,89,44,5,9,5,4,0.4,0.3
2024-06-28T2300,3468A,115.7901,32.8613,阜阳市,市规划展馆,,17,6,13,3,10,52,,80,40,8,12,2,3,0.6,0.5
2024-06-28T2300,3469A,115.836,32.9183,阜阳市,枣园社区,,16,,15,3,7,50,,87,41,6,9,1,1,0.5,0.4
2024-06-28T2300,2669A,102.9099,34.9841,甘南藏族自治州,州政府,,33,23,16,23,17,55,,135,121,35,7,6,6,0.8,0.8
2024-06-28T2300,3380A,102.8914,34.9617,甘南藏族自治州,甘肃民族师范学院,颗粒物(PM10),51,52,20,22,14,18,,139,111,60,13,3,3,0.6,0.6
2024-06-28T2300,2570A,101.9603,30.0475,甘孜藏族自治州,水桥子,,20,17,10,3,6,11,,30,26,39,21,3,4,0.4,0.4
2024-06-28T2300,3065A,101.9533,29.9972,甘孜藏族自治州,州环保局,,16,16,10,9,4,32,,46,39,20,23,1,2,0.2,0.3
2024-06-28T2300,3414A,115.8347,28.932,赣江新区,桑海产业园,,34,34,20,23,14,1,,34,17,45,28,10,9,0.8,0.6
2024-06-28T2300,2363A,114.9367,25.8664,赣州市,地委,,19,15,16,13,8,54,,56,56,7,5,8,7,1.0,1
2024-06-28T2300,2364A,114.9461,25.8481,赣州市,气象台,,19,19,15,12,7,57,,54,54,10,7,4,4,0.4,0.4
2024-06-28T2300,2365A,114.9322,25.8333,赣州市,市图书馆,,17,16,15,7,6,52,,54,52,10,6,12,8,0.8,0.7
2024-06-28T2300,2366A,114.8905,25.8471,赣州市,华坚鞋城,,18,18,21,12,9,45,,55,54,9,7,26,32,0.6,0.6
2024-06-28T2300,3109A,115.0093,25.8613,赣州市,赣县区卫计委,,21,,18,11,6,67,,55,55,8,10,7,7,0.6,0.6
2024-06-28T2300,2683A,106.2319,36.1417,固原市,马园,,29,24,31,8,6,90,,112,103,24,19,4,4,0.6,0.6
2024-06-28T2300,2684A,106.2792,36.0022,固原市,监测站,颗粒物(PM10),52,53,23,22,11,48,,121,96,40,22,5,5,0.2,0.2
2024-06-28T2300,2685A,106.2375,36.0211,固原市,新区,,43,43,23,11,6,99,,113,102,16,15,5,5,0.4,0.4
2024-06-28T2300,3522A,106.2177,35.9959,固原市,原州区十五小,颗粒物(PM10),51,52,21,21,11,119,,124,123,8,7,5,5,0.7,0.7
2024-06-28T2300,2544A,106.6303,30.4576,广安市,市委,,33,33,20,16,13,43,,86,73,20,14,6,7,0.6,0.5
2024-06-28T2300,2545A,106.6271,30.4663,广安市,友谊中学,,20,20,15,14,10,55,,88,80,20,15,7,7,0.6,0.5
2024-06-28T2300,2547A,106.6388,30.4551,广安市,广电花园,,22,20,19,15,10,42,,79,70,17,14,5,6,0.5,0.5
2024-06-28T2300,2902A,106.6351,30.4865,广安市,北辰小学,,22,22,19,15,12,56,,88,80,18,13,7,7,0.5,0.4
2024-06-28T2300,2523A,105.8945,32.4535,广元市,黑石坡,,23,13,16,13,9,71,,88,76,8,16,12,17,0.3,0.4
2024-06-28T2300,2524A,105.821,32.4444,广元市,老城,,29,29,21,12,9,28,,105,85,48,19,7,9,0.4,0.5
2024-06-28T2300,2526A,105.8628,32.4287,广元市,监测站,,19,14,20,9,12,59,,102,82,8,12,5,9,0.2,0.3
2024-06-28T2300,3617A,105.8047,32.4166,广元市,经开区,,32,17,25,11,12,100,,101,95,8,14,4,9,0.4,0.5
2024-06-28T2300,1345A,113.2347,23.1423,广州市,广雅中学,,24,24,20,6,7,20,,98,64,31,18,8,5,0.7,0.5
2024-06-28T2300,1346A,113.2612,23.105,广州市,市五中,,22,22,20,14,11,28,,106,71,23,15,6,5,0.6,0.6
2024-06-28T2300,1348A,113.3478,23.0916,广州市,广东商学院,,28,28,19,12,11,17,,97,56,34,24,3,3,0.5,0.5
2024-06-28T2300,1349A,113.4332,23.1047,广州市,市八十六中,,20,20,24,6,6,10,,69,34,38,30,3,3,0.5,0.5
2024-06-28T2300,1350A,113.3505,22.9483,广州市,番禺中学,,23,23,20,10,9,22,,99,58,27,17,6,6,0.5,0.5
2024-06-28T2300,1351A,113.2146,23.3916,广州市,花都师范,,24,24,20,9,10,21,,106,69,28,21,6,6,0.5,0.5
2024-06-28T2300,1352A,113.2597,23.1331,广州市,市监测站,,,14,21,6,8,28,,99,64,20,15,6,5,,0.6
2024-06-28T2300,1353A,113.5618,23.312,广州市,九龙镇镇龙,,22,22,27,10,11,14,,90,60,30,23,7,7,0.5,0.5
2024-06-28T2300,1354A,113.2765,23.1544,广州市,麓湖,,20,20,21,10,10,28,,99,64,24,18,4,3,0.6,0.4
2024-06-28T2300,1355A,113.443,23.3035,广州市,帽峰山森林公园,,16,16,18,10,11,15,,107,57,29,21,5,4,0.7,0.6
2024-06-28T2300,2846A,113.3221,23.1322,广州市,体育西,,24,24,29,8,9,19,,100,59,25,17,4,4,0.6,0.6
2024-06-28T2300,3298A,113.5717,23.5491,广州市,从化街口,,14,14,18,3,8,22,,106,82,25,15,6,4,0.5,0.5
2024-06-28T2300,3299A,113.3472,23.3692,广州市,白云竹料,,26,26,28,9,10,16,,106,66,33,28,4,4,0.5,0.5
2024-06-28T2300,3300A,113.2981,23.237,广州市,白云嘉禾,,31,31,25,11,9,15,,100,54,39,27,5,6,0.6,0.6
2024-06-28T2300,3301A,113.4256,23.1716,广州市,黄埔科学城,,22,22,23,3,9,4,,78,39,33,21,8,7,0.6,0.6
2024-06-28T2300,3302A,113.3942,23.0483,广州市,番禺大学城,,13,12,20,3,7,14,,86,52,26,18,4,4,0.3,0.6
2024-06-28T2300,3303A,113.4922,22.8168,广州市,南沙黄阁,,23,23,22,3,13,26,,69,45,19,13,5,5,0.6,0.6
2024-06-28T2300,3304A,113.5342,22.7896,广州市,南沙街,,22,22,20,3,4,30,,58,42,15,14,5,5,0.6,0.6
2024-06-28T2300,3443A,113.2902,23.5544,广州市,花都梯面,,20,20,22,8,9,24,,117,86,28,22,5,4,0.5,0.5
2024-06-28T2300,3445A,113.7858,23.7478,广州市,从化良口,,15,15,16,6,8,39,,94,79,16,11,5,5,0.5,0.5
2024-06-28T2300,3446A,113.8051,23.2614,广州市,增城荔城,,24,24,20,12,9,17,,88,59,26,13,6,5,0.4,0.4
2024-06-28T2300,2506A,109.6047,23.0666,贵港市,江南子站,,24,24,36,12,14,30,,57,51,11,11,7,10,0.6,0.7
2024-06-28T2300,2507A,109.6014,23.0948,贵港市,贵城子站,,22,22,27,12,11,28,,58,53,13,12,7,9,0.5,0.6
2024-06-28T2300,2508A,109.5669,23.1065,贵港市,荷城子站,,17,17,23,3,4,34,,55,50,8,10,10,12,0.4,0.5
2024-06-28T2300,3405A,109.5886,23.1172,贵港市,新世纪学校,,19,19,20,8,9,37,,58,53,9,12,14,14,0.3,0.4
2024-06-28T2300,1439A,106.6899,26.5998,贵阳市,马鞍山,,10,7,10,3,1,31,,47,42,10,7,4,6,0.4,0.4
2024-06-28T2300,1440A,106.6971,26.5694,贵阳市,市环保站,,22,,14,15,9,27,,44,35,16,14,3,4,0.3,0.2
2024-06-28T2300,1441A,106.6243,26.6266,贵阳市,鉴湖路,,10,9,10,3,4,29,,40,38,7,5,3,3,0.4,0.3
2024-06-28T2300,1442A,106.7487,26.6343,贵阳市,燕子冲,,12,12,5,7,3,26,,46,39,12,8,7,7,0.5,0.5
2024-06-28T2300,1443A,106.6555,26.4365,贵阳市,碧云窝,,17,17,16,3,2,38,,48,44,6,5,5,6,0.4,0.4
2024-06-28T2300,1444A,106.694,26.5161,贵阳市,中院村,,9,9,12,3,1,26,,46,37,10,8,3,5,0.3,0.4
2024-06-28T2300,1445A,106.7109,26.6027,贵阳市,红边门,,20,,15,14,13,25,,41,32,16,14,4,5,0.6,0.5
2024-06-28T2300,1446A,106.7164,26.5699,贵阳市,新华路,,18,12,8,12,8,21,,47,36,17,10,4,5,0.5,0.4
2024-06-28T2300,1447A,106.674,26.5424,贵阳市,太慈桥,,8,,10,3,5,22,,44,36,10,8,4,6,0.3,0.3
2024-06-28T2300,1862A,110.4144,25.3167,桂林市,电子科大尧山校区,,27,27,16,10,7,20,,41,32,5,4,4,4,0.3,0.3
2024-06-28T2300,1863A,110.2819,25.2697,桂林市,监测站,,,,19,,11,40,,46,46,8,10,7,8,0.4,0.3
2024-06-28T2300,1864A,110.3089,25.2708,桂林市,龙隐路小学,,22,22,17,11,11,28,,43,39,13,9,5,5,0.5,0.4
2024-06-28T2300,1865A,110.2869,25.2178,桂林市,八中,,15,15,16,7,6,42,,44,44,6,9,6,6,0.4,0.6
2024-06-28T2300,3403A,110.1764,25.2381,桂林市,创业大厦,,,19,18,12,11,,,41,41,11,12,7,22,0.4,0.5
2024-06-28T2300,3531A,110.296,25.1253,桂林市,旅游学院,,20,14,10,14,6,21,,45,38,16,8,8,7,0.4,0.3
2024-06-28T2300,2674A,100.2561,34.4714,果洛藏族自治州,玛沁县大武镇,,33,24,19,20,12,105,,137,132,4,9,10,9,0.5,0.4
2024-06-28T2300,1129A,126.5422,45.755,哈尔滨市,岭北,,43,39,43,16,22,136,,194,170,27,21,13,14,1.0,1.2
2024-06-28T2300,1130A,126.561,45.8167,哈尔滨市,松北商大,,42,36,52,13,18,134,,174,152,22,20,9,8,0.6,0.6
2024-06-28T2300,1131A,126.979,45.5419,哈尔滨市,阿城会宁,颗粒物(PM10),51,52,68,14,28,96,,190,148,30,24,6,6,0.5,0.6
2024-06-28T2300,1132A,126.599,45.7222,哈尔滨市,南岗学府路,颗粒物(PM10),53,55,69,18,20,118,,193,164,26,17,11,11,0.6,0.7
2024-06-28T2300,1133A,126.689,45.7733,哈尔滨市,太平宏伟公园,颗粒物(PM10),55,60,66,17,21,123,,192,165,34,26,10,8,0.5,0.5
2024-06-28T2300,1134A,126.635,45.7667,哈尔滨市,道外承德广场,,43,43,67,3,21,134,,180,159,28,30,6,7,0.4,0.5
2024-06-28T2300,1135A,126.685,45.7319,哈尔滨市,香坊红旗大街,颗粒物(PM10),54,58,74,20,28,109,,184,154,38,29,11,10,0.5,0.6
2024-06-28T2300,1136A,126.6411,45.7258,哈尔滨市,动力和平路,颗粒物(PM10),53,56,69,8,18,117,,186,160,33,26,8,9,0.4,0.4
2024-06-28T2300,1137A,126.593,45.7478,哈尔滨市,道里建国路,,46,46,63,14,22,128,,179,155,29,27,6,6,0.5,0.8
2024-06-28T2300,1138A,126.615,45.61,哈尔滨市,平房东轻厂,,35,29,62,11,17,111,,186,156,29,21,9,10,0.2,0.3
2024-06-28T2300,1139A,126.595,45.9855,哈尔滨市,呼兰师专,,44,44,59,9,19,133,,171,155,21,20,10,10,0.4,0.6
2024-06-28T2300,1140A,126.6206,45.6842,哈尔滨市,省农科院,颗粒物(PM10),84,118,93,20,24,92,,183,137,47,40,6,7,0.5,0.6
2024-06-28T2300,2688A,93.5128,42.8172,哈密市,地区监测站,,42,42,36,15,12,114,,132,129,20,11,3,4,0.4,0.2
2024-06-28T2300,2689A,93.4961,42.8328,哈密市,哈密师范学校,颗粒物(PM10),55,59,41,34,13,75,,126,103,42,16,5,5,0.8,0.3
2024-06-28T2300,2671A,100.9048,36.9639,海北藏族自治州,海晏县西海镇,,37,30,19,19,15,116,,132,120,6,7,12,13,0.4,0.4
2024-06-28T2300,3867A,102.0738,36.5056,海东市,平安区公安北苑,,28,28,32,16,18,89,,142,122,20,16,15,10,0.4,0.6
2024-06-28T2300,1410A,110.3232,20.0574,海口市,海南大学,,14,14,13,9,7,26,,51,39,8,6,5,5,0.3,0.3
2024-06-28T2300,1411A,110.283,20.0053,海口市,秀英海南医院,,16,16,21,9,8,24,,49,37,8,10,6,6,0.2,0.2
2024-06-28T2300,1412A,110.338,19.9969,海口市,海南师范大学,,15,15,15,8,7,22,,47,36,8,6,6,6,0.3,0.3
2024-06-28T2300,1413A,110.33,20.0356,海口市,龙华路环保局宿舍,,15,15,13,7,7,23,,47,36,8,7,6,6,0.2,0.2
2024-06-28T2300,3539A,110.5111,19.9736,海口市,桂林洋子站,,18,18,16,6,6,24,,43,34,5,5,6,6,0.2,0.2
2024-06-28T2300,2673A,100.6188,36.2866,海南藏族自治州,共和县恰卜恰镇,,42,34,19,10,9,132,,134,130,14,12,5,7,0.4,0.5
2024-06-28T2300,2676A,97.3731,37.3753,海西蒙古族藏族自治州,德令哈市,,45,28,32,17,14,142,,141,141,6,9,10,11,0.4,0.5
2024-06-28T2300,1048A,114.5302,36.6116,邯郸市,东污水处理厂,颗粒物(PM10),54,58,66,17,27,129,,189,170,18,14,1,3,0.4,0.5
2024-06-28T2300,1049A,114.4918,36.5713,邯郸市,矿院,颗粒物(PM10),55,60,64,17,27,126,,189,170,25,17,4,6,0.4,0.4
2024-06-28T2300,1050A,114.484,36.6133,邯郸市,丛台公园,颗粒物(PM10),52,54,56,23,28,127,,176,160,15,10,4,5,0.4,0.4
2024-06-28T2300,3458A,114.7895,36.5593,邯郸市,香泉濮院小区,颗粒物(PM10),58,65,75,23,30,114,,181,,18,11,5,5,0.2,0.2
2024-06-28T2300,3579A,114.50634,36.77178,邯郸市,永年区实验高中,颗粒物(PM10),59,67,73,18,23,138,,202,185,14,12,1,3,0.5,0.5
2024-06-28T2300,3580A,114.20016,36.44293,邯郸市,峰峰矿区临水派出所,颗粒物(PM10),53,55,58,18,21,122,,205,171,12,10,9,7,0.9,0.5
2024-06-28T2300,2634A,106.9893,33.1842,汉中市,汉川机床厂子校,,41,41,26,15,14,84,,125,117,6,8,4,5,0.5,0.5
2024-06-28T2300,2635A,107.0154,33.0706,汉中市,市监测站,,36,36,29,16,15,75,,122,109,10,12,7,9,0.6,0.6
2024-06-28T2300,2636A,107.0089,33.1138,汉中市,鑫源开发区,,39,39,34,24,19,109,,138,130,9,13,9,13,0.5,0.6
2024-06-28T2300,2637A,107.007,33.0323,汉中市,南郑大河坎水厂,,36,36,29,20,16,54,,120,97,12,10,8,8,0.5,0.4
2024-06-28T2300,1223A,120.2072,30.2111,杭州市,滨江,,19,19,18,13,10,18,,38,26,25,20,3,3,0.6,0.7
2024-06-28T2300,1224A,120.0633,30.2747,杭州市,西溪,,18,18,13,12,8,9,,25,21,20,16,6,6,0.6,0.6
2024-06-28T2300,1226A,120.3461,30.3153,杭州市,下沙,,30,30,20,15,11,9,,35,22,46,22,5,4,0.6,0.5
2024-06-28T2300,1227A,120.1269,30.2456,杭州市,卧龙桥,,19,14,9,13,8,11,,26,20,21,12,4,4,0.5,0.5
2024-06-28T2300,1228A,120.1903,30.2692,杭州市,浙江农大,,26,,12,18,14,9,,34,19,33,23,6,6,0.5,0.5
2024-06-28T2300,1230A,120.1197,30.3119,杭州市,和睦小学,,18,18,10,12,6,19,,28,18,31,20,3,3,0.6,0.6
2024-06-28T2300,1231A,120.3019,30.4183,杭州市,临平镇,,38,37,19,26,13,15,,35,29,43,25,4,4,0.6,0.6
2024-06-28T2300,1232A,120.2697,30.1819,杭州市,城厢镇,,15,14,18,10,14,21,,40,24,25,24,4,4,0.5,0.6
2024-06-28T2300,1233A,120.0883,30.1808,杭州市,云栖,,19,19,15,6,5,11,,30,25,17,16,7,7,0.5,0.5
2024-06-28T2300,3557A,119.9464,30.0494,杭州市,镇二中,,28,19,11,19,12,14,,39,26,21,16,5,6,0.8,0.8
2024-06-28T2300,3558A,119.7183,30.2367,杭州市,市府大楼,,20,,8,14,9,10,,33,22,22,15,6,6,0.6,0.6
2024-06-28T2300,3656A,120.1556,30.2864,杭州市,消防大队,,22,22,16,15,10,14,,40,23,34,19,6,6,0.7,0.7
2024-06-28T2300,1270A,117.1959,31.7848,合肥市,明珠广场,,16,12,11,3,8,4,,53,17,32,17,7,7,0.4,0.4
2024-06-28T2300,1271A,117.3072,31.8764,合肥市,三里街,,12,6,6,3,4,14,,50,18,24,21,6,6,0.4,0.4
2024-06-28T2300,1272A,117.2588,31.8707,合肥市,琥珀山庄,,13,7,12,3,4,13,,61,27,25,13,4,4,0.6,0.5
2024-06-28T2300,1273A,117.1604,31.9052,合肥市,董铺水库,,8,6,5,3,3,24,,54,28,12,12,2,2,0.3,0.3
2024-06-28T2300,1274A,117.25,31.8571,合肥市,长江中路,,14,14,15,8,8,12,,53,23,21,14,4,4,0.7,0.6
2024-06-28T2300,1275A,117.266,31.9436,合肥市,庐阳区,,18,,10,12,7,13,,56,22,28,19,8,8,0.5,0.4
2024-06-28T2300,1276A,117.336,31.8586,合肥市,瑶海区,,11,6,7,3,4,17,,52,23,21,15,6,6,0.3,0.2
2024-06-28T2300,1277A,117.3027,31.7964,合肥市,包河区,,18,9,4,3,2,4,,58,24,35,12,7,5,0.5,0.4
2024-06-28T2300,1278A,117.2776,31.7385,合肥市,滨湖新区,,12,6,4,3,2,18,,57,30,23,10,8,7,0.6,0.5
2024-06-28T2300,1279A,117.1318,31.8403,合肥市,高新区,,14,6,7,3,5,11,,59,26,27,14,7,7,0.5,0.5
2024-06-28T2300,3464A,117.3803,31.9147,合肥市,高教基地,,6,,6,3,6,10,,52,22,12,11,6,6,0.3,0.4
2024-06-28T2300,3614A,79.924,37.0877,和田地区,地区环保局,颗粒物(PM10),135,220,205,76,65,109,,118,112,2,3,7,8,0.5,0.5
2024-06-28T2300,3615A,79.9131,37.113,和田地区,市环保局,颗粒物(PM10),145,239,194,72,64,93,,118,108,9,8,6,8,0.4,0.4
2024-06-28T2300,2516A,108.2011,24.715,河池市,东仁乐园,,21,21,25,6,8,39,,52,44,6,3,4,7,0.6,0.6
2024-06-28T2300,2517A,108.0497,24.6947,河池市,市环保站,,15,10,16,8,9,48,,52,51,7,6,6,9,0.6,0.5
2024-06-28T2300,2518A,108.0983,24.6989,河池市,市疾控中心,,,8,17,,15,55,,52,48,7,10,5,8,0.4,0.4
2024-06-28T2300,1697A,114.6944,23.7586,河源市,东埔,,24,24,21,12,7,35,,72,63,18,11,7,6,0.5,0.5
2024-06-28T2300,1698A,114.6892,23.7233,河源市,老城,,10,6,22,3,6,32,,73,62,15,7,5,5,0.5,0.5
2024-06-28T2300,1718A,115.4208,35.2464,菏泽市,气象局,,37,37,60,13,22,94,,162,147,11,11,4,4,0.2,0.2
2024-06-28T2300,1719A,115.4747,35.2375,菏泽市,市政协,,30,24,62,12,26,96,,165,149,8,9,1,2,0.1,0.2
2024-06-28T2300,3374A,115.5564,35.0891,菏泽市,定陶老年大学,,25,24,48,3,14,77,,143,125,8,8,3,3,0.3,0.3
2024-06-28T2300,3647A,115.4702,35.2706,菏泽市,菏泽医专,,29,25,58,3,20,90,,155,140,8,11,2,2,0.3,0.4
2024-06-28T2300,2514A,111.5264,24.4172,贺州市,环保小区,,18,18,22,10,12,34,,60,56,14,13,7,7,0.5,0.5
2024-06-28T2300,2515A,111.5608,24.4078,贺州市,政协大楼,,26,26,26,11,12,29,,60,54,19,16,10,8,0.5,0.6
2024-06-28T2300,3534A,111.4744,24.4553,贺州市,西湾,,41,41,29,16,15,26,,61,49,26,17,9,9,0.6,0.6
2024-06-28T2300,2385A,114.17,35.9019,鹤壁市,市监测站,,,83,64,19,30,122,,190,162,,18,,7,1.0,0.6
2024-06-28T2300,2386A,114.2956,35.7511,鹤壁市,市交警支队,,50,50,63,23,30,112,,186,157,14,17,7,7,0.5,0.5
2024-06-28T2300,2387A,114.2878,35.7306,鹤壁市,迎宾馆,,38,30,59,26,32,111,,189,159,19,24,8,8,0.4,0.4
2024-06-28T2300,3474A,114.2617,35.6822,鹤壁市,大新区,,38,38,61,14,29,88,,177,139,30,29,6,6,0.3,0.3
2024-06-28T2300,3596A,114.1572,35.9603,鹤壁市,南山宾馆,,42,42,56,21,34,123,,200,168,15,12,8,9,0.5,0.4
2024-06-28T2300,2244A,130.2537,47.3416,鹤岗市,哈啤分公司,颗粒物(PM10),58,66,40,30,23,97,,145,129,18,12,15,18,0.7,0.6
2024-06-28T2300,2245A,130.2684,47.3086,鹤岗市,斯达机电,,44,44,31,23,15,116,,140,129,14,14,14,14,0.5,0.5
2024-06-28T2300,2246A,130.3114,47.3388,鹤岗市,东山纸板厂,,29,26,26,18,14,91,,130,118,15,16,16,16,0.5,0.4
2024-06-28T2300,2247A,130.1097,47.3382,鹤岗市,五号水库,,38,38,28,15,11,62,,144,113,9,8,10,10,0.2,0.2
2024-06-28T2300,2263A,127.4833,50.2524,黑河市,交通局,,29,29,41,12,19,82,,93,92,11,12,6,6,0.4,0.4
2024-06-28T2300,2264A,127.5144,50.2341,黑河市,环保局,,32,30,37,22,20,95,,106,106,9,12,4,6,0.4,0.3
2024-06-28T2300,2265A,127.5291,50.2472,黑河市,大黑河岛,,,,40,22,31,,,,,14,16,6,10,,
2024-06-28T2300,1074A,115.6838,37.7541,衡水市,电机北厂,颗粒物(PM10),67,84,84,39,31,164,,216,202,8,8,3,5,0.3,0.3
2024-06-28T2300,1075A,115.6303,37.7316,衡水市,市监测站,颗粒物(PM10),66,82,75,24,27,141,,213,194,16,12,4,5,0.6,0.6
2024-06-28T2300,3188A,115.6683,37.7217,衡水市,市城管局,颗粒物(PM10),64,78,75,31,31,152,,214,196,15,11,4,5,0.4,0.4
2024-06-28T2300,3459A,115.5989,37.5491,衡水市,地表水厂,颗粒物(PM10),79,107,93,32,27,97,,212,178,42,19,7,8,0.4,0.4
2024-06-28T2300,2456A,112.5003,26.9167,衡阳市,原169医院,,15,14,31,10,17,20,,53,39,25,12,8,7,0.6,0.8
2024-06-28T2300,2457A,112.6194,26.9258,衡阳市,衡阳化工总厂,,,21,29,,,38,,57,40,9,10,20,8,0.5,0.6
2024-06-28T2300,2458A,112.6211,26.8956,衡阳市,珠晖区环保局,,,19,28,,,42,,65,46,8,10,14,8,0.5,0.6
2024-06-28T2300,2459A,112.6197,26.8733,衡阳市,市委党校,,21,21,23,8,12,35,,62,40,11,9,8,9,0.4,0.5
2024-06-28T2300,2460A,112.6006,26.8919,衡阳市,市监测站,,38,38,32,13,16,30,,56,38,15,11,34,10,0.7,0.6
2024-06-28T2300,2461A,112.5664,26.9056,衡阳市,真空机电公司,,20,20,38,13,19,30,,54,39,11,11,18,14,0.7,0.9
2024-06-28T2300,3399A,112.6703,26.882,衡阳市,师范学院,,16,16,26,8,15,36,,59,41,12,10,8,10,0.5,0.6
2024-06-28T2300,2608A,103.3772,23.3993,红河哈尼族彝族自治州,污水处理厂,,18,12,15,12,8,30,,38,31,8,6,4,4,0.4,0.4
2024-06-28T2300,2609A,103.3861,23.35,红河哈尼族彝族自治州,监测站,,18,,9,12,7,21,,40,29,16,6,10,6,0.4,0.3
2024-06-28T2300,3038A,103.3758,23.368,红河哈尼族彝族自治州,州图书馆,,13,13,9,7,8,34,,39,33,4,7,2,2,0.4,0.4
2024-06-28T2300,1090A,111.6507,40.7517,呼和浩特市,呼市一监,,42,9,57,6,26,133,,215,167,7,16,6,8,0.3,0.5
2024-06-28T2300,1091A,111.6572,40.8033,呼和浩特市,小召,,41,14,60,3,27,130,,200,158,9,20,7,9,0.4,0.6
2024-06-28T2300,1094A,111.7516,40.8369,呼和浩特市,如意水处理厂,,38,17,61,7,27,120,,204,160,10,21,5,7,0.3,0.5
2024-06-28T2300,1095A,111.7276,40.8062,呼和浩特市,二十九中,,41,22,62,8,27,129,,209,166,10,21,3,5,0.3,0.5
2024-06-28T2300,1096A,111.5512,40.7866,呼和浩特市,工大金川校区,,36,27,73,7,26,114,,198,156,10,25,4,8,0.3,0.5
2024-06-28T2300,1097A,111.717,40.7612,呼和浩特市,化肥厂生活区,,40,21,85,9,36,128,,203,160,9,21,7,9,0.2,0.4
2024-06-28T2300,3698A,111.5968,40.8178,呼和浩特市,红旗小学,,39,12,74,8,30,124,,207,164,13,33,4,7,0.3,0.5
2024-06-28T2300,3699A,111.6518,40.8389,呼和浩特市,海东办,,42,9,64,7,29,132,,202,163,7,19,8,11,0.3,0.5
2024-06-28T2300,2192A,119.7594,49.2261,呼伦贝尔市,区环保局,细颗粒物(PM2.5),52,39,34,36,18,95,,107,106,14,15,6,6,0.5,0.5
2024-06-28T2300,3061A,119.7512,49.1577,呼伦贝尔市,国华电力东,,32,22,20,13,12,102,,118,109,8,7,5,6,0.4,0.4
2024-06-28T2300,1250A,120.0751,30.8669,湖州市,城西水厂,,25,22,16,17,11,47,,39,39,14,19,3,3,0.4,0.5
2024-06-28T2300,2873A,120.0875,30.8955,湖州市,仁皇山新区,,32,27,15,22,10,43,,36,36,17,23,5,5,0.6,0.7
2024-06-28T2300,2907A,120.1844,30.8596,湖州市,吴兴区站,,35,25,14,24,12,41,,33,33,18,20,6,6,0.5,0.5
2024-06-28T2300,3562A,120.4148,30.8538,湖州市,南浔区站,,30,24,20,21,14,39,,37,37,19,17,3,3,0.4,0.5
2024-06-28T2300,1607A,120.9092,40.7136,葫芦岛市,龙港区,,41,26,21,15,10,129,,131,131,12,11,6,6,0.5,0.5
2024-06-28T2300,1608A,120.8392,40.7514,葫芦岛市,化工街,,29,29,27,12,10,86,,119,115,33,15,10,10,0.6,0.6
2024-06-28T2300,1609A,120.8341,40.7073,葫芦岛市,新区,,41,18,27,16,14,129,,138,137,12,10,5,5,0.5,0.5
2024-06-28T2300,1610A,120.8695,40.7677,葫芦岛市,东城区,,39,,35,10,12,122,,139,134,18,11,8,8,0.6,0.5
2024-06-28T2300,2482A,109.5981,27.5721,怀化市,林科所,,19,12,13,3,5,59,,58,57,3,2,7,7,0.6,0.6
2024-06-28T2300,2483A,109.9453,27.5444,怀化市,河西地税局,,15,11,15,7,8,46,,46,45,3,5,2,2,0.5,0.5
2024-06-28T2300,2484A,109.9781,27.5342,怀化市,市四医院,,21,21,20,11,12,34,,43,37,7,6,2,3,0.6,0.6
2024-06-28T2300,2485A,109.9972,27.5578,怀化市,监测楼,,16,16,19,11,9,31,,41,35,8,6,6,7,0.6,0.6
2024-06-28T2300,2486A,110.0394,27.583,怀化市,市委党校,,19,15,18,13,8,33,,43,39,8,6,4,7,0.5,0.5
2024-06-28T2300,1210A,119.036,33.5981,淮安市,钵池山,,19,,26,13,20,38,,137,87,17,17,6,7,0.6,0.7
2024-06-28T2300,1211A,119.007,33.575,淮安市,北京南路,,15,,24,10,21,32,,130,80,14,11,6,6,0.5,0.7
2024-06-28T2300,1212A,118.989,33.6067,淮安市,市监测站,,14,14,30,9,20,35,,127,81,15,14,5,6,0.5,0.6
2024-06-28T2300,1213A,119.135,33.5039,淮安市,楚州区监测站,,20,15,31,14,25,28,,127,71,18,17,4,5,0.5,0.6
2024-06-28T2300,1214A,119.0186,33.6297,淮安市,淮阴区监测站,,19,,32,13,22,36,,137,86,17,18,6,6,0.4,0.5
2024-06-28T2300,3426A,118.8755,33.2894,淮安市,新华书店,,10,,26,7,18,30,,116,61,19,17,5,6,0.6,0.7
2024-06-28T2300,2282A,116.8004,33.975,淮北市,监测站,,17,17,38,3,20,41,,138,75,5,8,6,6,0.4,0.5
2024-06-28T2300,2283A,116.8091,33.9007,淮北市,烈山区政府,,12,6,34,3,13,36,,135,68,9,11,4,5,0.5,0.6
2024-06-28T2300,3330A,116.8873,33.9836,淮北市,杜集区检察院,,14,9,39,3,21,44,,146,84,7,7,5,6,0.5,0.6
2024-06-28T2300,4017A,116.7923,33.9535,淮北市,市博物馆,,13,12,37,3,20,41,,143,76,4,7,4,4,0.5,0.6
2024-06-28T2300,2277A,116.8305,32.7727,淮南市,潘集区政府,,15,12,17,10,12,24,,60,31,13,12,4,7,0.3,0.3
2024-06-28T2300,2278A,117.0067,32.6524,淮南市,师范学院,,15,10,18,10,16,30,,57,34,10,11,5,9,0.2,0.2
2024-06-28T2300,2279A,116.8569,32.5951,淮南市,谢家集区政府,,11,6,12,3,4,34,,53,30,11,13,27,9,0.2,0.2
2024-06-28T2300,2280A,116.8281,32.633,淮南市,八公山区政府,,15,13,24,10,12,29,,56,31,10,11,3,3,0.4,0.3
2024-06-28T2300,2281A,116.6325,32.6201,淮南市,焦岗湖风景区管理处,,7,,10,3,6,20,,30,16,8,13,3,3,0.1,0.2
2024-06-28T2300,2894A,117.0566,32.6531,淮南市,经济技术开发区消防队,,9,,13,6,5,27,,56,32,13,13,4,4,0.3,0.3
2024-06-28T2300,3329A,117.0108,32.5893,淮南市,山南新区,,13,,14,9,6,40,,57,39,8,13,1,1,0.4,0.4
2024-06-28T2300,2446A,114.9028,30.4742,黄冈市,职工中心,,35,35,15,24,12,33,,42,31,19,16,11,7,0.6,0.6
2024-06-28T2300,2929A,114.8858,30.4519,黄冈市,红卫路,,39,37,17,27,13,34,,44,35,3,6,10,8,0.6,0.5
2024-06-28T2300,3398A,114.9136,30.4445,黄冈市,市林业局,,38,38,18,26,14,29,,37,29,12,14,7,6,0.5,0.5
2024-06-28T2300,2672A,102.0199,35.5102,黄南藏族自治州,同仁县隆务镇,,,29,23,,8,,,133,128,2,2,8,9,0.3,0.3
2024-06-28T2300,2295A,118.2903,29.6963,黄山市,延安路89号,,23,23,15,6,5,15,,31,22,10,7,5,4,0.5,0.4
2024-06-28T2300,2296A,118.327,29.7178,黄山市,黄山东路89号,,,,7,,6,,,28,23,10,7,5,4,,0.4
2024-06-28T2300,2297A,118.1371,30.2756,黄山市,黄山区政府5号楼,,12,12,8,3,4,16,,26,21,9,7,6,6,0.3,0.4
2024-06-28T2300,2423A,115.0601,30.2313,黄石市,沈家营,,47,47,25,20,7,21,,38,26,28,26,27,13,0.6,0.7
2024-06-28T2300,2424A,115.0817,30.2006,黄石市,陈家湾,,35,35,24,12,7,50,,45,33,2,13,15,14,0.4,0.5
2024-06-28T2300,2426A,114.8988,30.2019,黄石市,铁山,,27,27,14,16,4,35,,41,40,13,9,10,11,0.6,0.5
2024-06-28T2300,2427A,115.0307,30.2092,黄石市,团城山,,30,30,18,14,3,38,,46,41,10,11,6,6,0.5,0.5
2024-06-28T2300,3149A,115.0235,30.1578,黄石市,笔架山北路,,47,47,23,13,3,20,,36,28,17,13,6,5,0.9,0.7
2024-06-28T2300,1392A,114.4183,23.0528,惠州市,河南岸金山湖子站,,14,14,17,3,7,30,,68,48,10,4,4,4,0.3,0.3
2024-06-28T2300,1393A,114.4053,23.0822,惠州市,下埔横江三路子站,,17,17,19,6,6,34,,71,51,10,6,6,6,0.5,0.4
2024-06-28T2300,1394A,114.4103,23.1142,惠州市,江北云山西路子站,,13,12,16,9,6,36,,79,55,7,4,8,8,0.5,0.5
2024-06-28T2300,1395A,114.4645,22.7833,惠州市,惠阳区承修路船湖子站,,12,10,13,3,5,38,,47,41,8,7,1,1,0.5,0.5
2024-06-28T2300,1396A,114.5317,22.7422,惠州市,大亚湾管委会子站,,13,10,14,3,5,39,,62,51,9,8,5,5,0.5,0.5
2024-06-28T2300,3314A,114.4338,22.8134,惠州市,惠阳秋长,,15,6,10,3,6,46,,64,55,4,4,4,4,0.5,0.5
2024-06-28T2300,3452A,114.6517,22.775,惠州市,大亚湾霞涌,,12,10,13,3,2,38,,56,51,7,4,4,4,0.4,0.4
2024-06-28T2300,2240A,130.9762,45.3001,鸡西市,环保局,颗粒物(PM10),52,54,60,25,27,72,,122,102,17,19,7,8,0.5,0.5
2024-06-28T2300,2243A,130.9429,45.3039,鸡西市,第一中学,颗粒物(PM10),52,53,51,24,24,101,,159,129,4,7,9,8,0.5,0.5
2024-06-28T2300,3707A,131.0207,45.3073,鸡西市,欧美日汽修厂,颗粒物(PM10),58,66,62,26,30,56,,133,106,15,17,6,7,0.5,0.6
2024-06-28T2300,3709A,130.9967,45.3106,鸡西市,市政设施管理处,颗粒物(PM10),57,63,62,27,24,51,,147,111,11,13,7,7,0.5,0.5
2024-06-28T2300,2367A,114.9754,27.0803,吉安市,红声器材厂,,21,21,34,9,15,62,,68,66,10,10,14,14,0.5,0.5
2024-06-28T2300,2368A,114.9658,27.0999,吉安市,市森林工业局,,22,22,29,12,17,61,,65,61,11,12,10,12,0.4,0.5
2024-06-28T2300,2369A,114.99,27.1312,吉安市,市环境监测站,,28,28,31,10,14,56,,61,57,8,9,11,13,0.6,0.7
2024-06-28T2300,2370A,115.0093,27.0968,吉安市,青原区法院,,21,19,30,11,18,65,,63,62,7,11,13,13,0.3,0.4
2024-06-28T2300,1772A,126.54,43.8622,吉林市,哈达湾,颗粒物(PM10),55,59,51,26,23,68,,191,152,51,16,4,6,0.5,0.6
2024-06-28T2300,1773A,126.5844,43.8358,吉林市,东局子,,41,41,47,22,24,105,,187,152,27,18,5,5,0.7,0.6
2024-06-28T2300,1774A,126.5052,43.8245,吉林市,电力学院,颗粒物(PM10),56,62,58,30,26,50,,184,119,61,27,8,10,0.6,0.6
2024-06-28T2300,1775A,126.6133,43.8972,吉林市,江北,,40,40,49,20,22,118,,182,154,19,16,8,8,0.6,0.7
2024-06-28T2300,1776A,126.555,43.8306,吉林市,江南公园,,42,42,46,21,25,76,,186,147,45,19,4,5,0.6,0.6
2024-06-28T2300,2868A,126.4739,43.953,吉林市,九站,,42,36,49,15,22,134,,196,162,19,19,6,8,0.5,0.6
2024-06-28T2300,1299A,116.9862,36.6114,济南市,科干所,臭氧1小时,57,61,55,34,24,165,,195,191,16,13,8,8,0.5,0.4
2024-06-28T2300,1300A,116.9376,36.665,济南市,农科所,颗粒物(PM10),57,63,62,24,19,153,,196,186,23,18,8,8,0.5,0.4
2024-06-28T2300,1301A,117.1265,36.6734,济南市,开发区,臭氧1小时,73,63,53,27,19,178,,203,201,17,14,8,8,0.5,0.5
2024-06-28T2300,1303A,117.0624,36.6868,济南市,省种子仓库,臭氧1小时,72,75,63,29,21,177,,192,188,20,19,6,6,0.6,0.6
2024-06-28T2300,1304A,116.9489,36.6447,济南市,机床二厂,颗粒物(PM10),59,68,54,27,19,162,,203,196,20,17,10,10,0.4,0.3
2024-06-28T2300,1305A,117.0495,36.663,济南市,市监测站,臭氧1小时,78,63,58,29,23,182,,201,198,22,19,11,11,0.5,0.4
2024-06-28T2300,1306A,116.7675,36.5484,济南市,长清党校,臭氧1小时,57,56,63,22,25,165,,220,211,16,11,10,9,0.7,0.6
2024-06-28T2300,1616A,117.6795,36.229,济南市,技术学院,颗粒物(PM10),53,56,46,24,20,138,,204,192,9,13,8,10,0.7,0.6
2024-06-28T2300,1961A,117.532,36.6868,济南市,东山小学,臭氧1小时,75,71,58,24,18,180,,211,204,17,16,8,8,0.6,0.5
2024-06-28T2300,3059A,117.7161,36.2049,济南市,泰兴公司,颗粒物(PM10),54,58,50,22,20,126,,202,185,17,19,10,11,0.5,0.5
2024-06-28T2300,3064A,117.6867,36.2171,济南市,莱芜战役纪念馆,颗粒物(PM10),54,58,52,19,16,130,,195,182,12,17,8,10,0.6,0.6
2024-06-28T2300,3494A,117.1673,36.9782,济南市,济阳区政府,颗粒物(PM10),74,98,85,32,23,133,,216,189,30,28,8,6,0.4,0.3
2024-06-28T2300,3495A,117.1171,36.63,济南市,锦屏中学,臭氧1小时,93,56,53,29,22,194,,217,215,14,14,10,10,0.6,0.5
2024-06-28T2300,3682A,116.9814,36.6819,济南市,济南四建,臭氧1小时,58,58,50,34,23,166,,197,191,16,13,8,8,0.6,0.5
2024-06-28T2300,1653A,116.6251,35.4302,济宁市,火炬城,,38,38,50,14,22,111,,159,146,10,13,9,10,0.8,0.7
2024-06-28T2300,1655A,116.5491,35.4042,济宁市,电化厂,,38,38,58,24,27,120,,167,155,9,11,6,8,0.6,0.5
2024-06-28T2300,3500A,116.5814,35.3707,济宁市,北湖一中,,36,31,44,17,21,113,,162,149,10,12,6,6,0.7,0.6
2024-06-28T2300,3501A,116.8249,35.5593,济宁市,服务中心,,41,41,60,18,24,114,,174,152,11,13,5,5,0.6,0.5
2024-06-28T2300,3678A,116.5907,35.4054,济宁市,市第七中学,,38,25,52,19,21,119,,171,157,12,14,5,6,0.7,0.6
2024-06-28T2300,2255A,130.2751,46.8028,佳木斯市,佳纺,,49,49,49,25,25,118,,176,148,8,8,7,8,0.5,0.6
2024-06-28T2300,2256A,130.3995,46.8307,佳木斯市,发电厂,颗粒物(PM10),52,53,50,30,27,99,,176,145,18,12,8,6,0.7,0.6
2024-06-28T2300,2257A,130.3258,46.7975,佳木斯市,环保局,颗粒物(PM10),51,52,49,28,27,131,,169,147,6,9,7,7,0.6,0.7
2024-06-28T2300,2258A,130.3648,46.8032,佳木斯市,十一中,颗粒物(PM10),52,54,51,31,30,97,,169,139,25,16,7,8,0.7,0.7
2024-06-28T2300,2259A,130.3794,46.7588,佳木斯市,四丰,,35,34,33,22,21,110,,154,134,5,5,1,1,0.7,0.8
2024-06-28T2300,1252A,120.7436,30.778,嘉兴市,清河小学,,21,21,16,11,8,47,,52,50,18,18,5,5,0.5,0.6
2024-06-28T2300,1253A,120.726,30.7478,嘉兴市,嘉兴学院,,,20,16,13,13,42,,31,31,,20,3,2,0.3,0.4
2024-06-28T2300,2872A,120.7846,30.7525,嘉兴市,南湖区残联,,,,15,14,13,,,60,56,,18,5,4,0.4,0.5
2024-06-28T2300,3407A,120.6916,30.7739,嘉兴市,秀洲住建,,17,17,13,9,9,43,,43,43,14,15,3,3,0.6,0.7
2024-06-28T2300,1945A,98.2908,39.7711,嘉峪关市,气象局,颗粒物(PM10),60,70,56,24,19,103,,139,126,18,12,3,11,0.4,0.5
2024-06-28T2300,2884A,98.2672,39.7978,嘉峪关市,酒钢宾馆,颗粒物(PM10),57,63,54,27,23,114,,141,131,12,12,10,30,0.5,0.5
2024-06-28T2300,3248A,98.2643,39.7724,嘉峪关市,雄关区,颗粒物(PM10),52,53,46,17,17,105,,137,124,15,14,14,11,0.5,0.4
2024-06-28T2300,1383A,113.1064,22.6058,江门市,北街,,10,6,14,3,6,32,,61,46,10,8,3,3,0.5,0.5
2024-06-28T2300,1384A,113.0731,22.5835,江门市,西区,,19,19,16,3,5,34,,61,46,10,9,8,7,0.3,0.3
2024-06-28T2300,1385A,113.0219,22.5311,江门市,圭峰西,,,,23,7,7,34,,59,46,10,9,3,3,0.4,0.4
2024-06-28T2300,1386A,113.0828,22.5947,江门市,东湖,,11,8,12,6,6,34,,60,47,10,9,6,6,0.4,0.4
2024-06-28T2300,3311A,113.1075,22.5647,江门市,江海富民,,20,17,23,14,11,31,,67,47,12,9,6,5,0.5,0.4
2024-06-28T2300,3449A,113.05,22.4667,江门市,新会银湖,,11,10,12,3,5,34,,60,46,10,10,3,3,0.5,0.5
2024-06-28T2300,1828A,113.227,35.2125,焦作市,市环保局,,31,31,55,18,25,90,,199,155,7,8,3,4,0.2,0.3
2024-06-28T2300,3169A,113.2725,35.2067,焦作市,太极体育中心,,33,33,66,12,25,83,,191,148,8,11,2,5,0.4,0.6
2024-06-28T2300,3335A,113.3137,35.2641,焦作市,马村街道办,,35,35,60,14,26,84,,193,150,7,10,2,4,0.3,0.5
2024-06-28T2300,3336A,113.2465,35.2373,焦作市,焦作技师学院,,37,37,56,9,21,92,,195,154,7,9,3,3,0.4,0.5
2024-06-28T2300,3477A,113.1656,35.2539,焦作市,中站许衡医院,,29,26,48,17,23,90,,190,152,8,8,5,5,0.4,0.3
2024-06-28T2300,3981A,113.2449,35.1803,焦作市,原李万街道办,,33,33,58,9,24,82,,186,146,10,11,5,7,0.4,0.5
2024-06-28T2300,1708A,116.3701,23.5345,揭阳市,新兴,,26,26,27,7,8,34,,62,47,9,10,4,4,0.6,0.5
2024-06-28T2300,1709A,116.3264,23.5443,揭阳市,西马,,30,30,24,7,8,35,,66,50,6,5,3,2,0.6,0.6
2024-06-28T2300,1710A,116.3611,23.5626,揭阳市,东兴,,31,31,30,7,11,37,,66,52,6,8,2,3,0.7,0.7
2024-06-28T2300,1711A,116.4151,23.5294,揭阳市,渔湖,,28,28,32,8,8,31,,57,45,15,12,7,3,0.5,0.5
2024-06-28T2300,3320A,116.403,23.5699,揭阳市,曲溪,,24,24,20,13,8,42,,84,59,6,10,5,5,0.5,0.5
2024-06-28T2300,1944A,102.1692,38.5167,金昌市,天庆家园,颗粒物(PM10),85,120,36,50,28,61,,127,106,38,10,19,14,0.7,0.5
2024-06-28T2300,3170A,102.1864,38.5253,金昌市,市委党校,颗粒物(PM10),120,189,67,49,26,79,,135,114,19,9,7,15,0.7,0.5
2024-06-28T2300,4022A,102.1647,38.5371,金昌市,金川区人防中心,颗粒物(PM10),100,149,64,35,26,90,,144,122,14,8,10,17,0.4,0.6
2024-06-28T2300,1262A,119.647,29.077,金华市,十五中,细颗粒物(PM2.5),60,60,40,43,28,35,,64,57,36,29,2,2,0.8,0.8
2024-06-28T2300,1263A,119.686,29.1029,金华市,监测站,,45,45,36,28,23,10,,68,55,51,28,2,2,0.6,0.6
2024-06-28T2300,3659A,119.656,29.1131,金华市,气象局,颗粒物(PM10),52,53,42,26,26,4,,61,51,50,29,5,5,0.6,0.6
2024-06-28T2300,1767A,121.1115,41.0879,锦州市,南山,,33,23,38,14,16,104,,135,127,21,13,22,17,0.7,0.5
2024-06-28T2300,1768A,121.0533,40.8434,锦州市,开发区,,38,34,49,26,16,116,,128,126,23,15,8,9,0.6,0.5
2024-06-28T2300,1769A,121.1836,41.1119,锦州市,百股街道,,38,28,28,9,8,120,,136,130,18,13,9,13,0.5,0.5
2024-06-28T2300,1770A,121.1178,41.1222,锦州市,天安街道,,33,19,39,16,18,104,,121,116,14,12,13,13,0.7,0.6
2024-06-28T2300,1771A,121.1303,41.1386,锦州市,北湖公园,,35,21,32,14,13,112,,128,125,18,14,20,15,0.6,0.5
2024-06-28T2300,2160A,112.85,35.5051,晋城市,自来水公司,,44,41,52,12,20,140,,206,185,12,15,7,7,0.5,0.6
2024-06-28T2300,2161A,112.8318,35.4936,晋城市,白云商贸,,45,28,55,14,20,143,,212,190,13,15,6,6,0.5,0.5
2024-06-28T2300,2162A,112.8508,35.4887,晋城市,市环保局,,46,46,59,12,22,141,,206,185,13,18,7,6,0.5,0.6
2024-06-28T2300,2163A,112.8676,35.4897,晋城市,技术学院,颗粒物(PM10),52,53,53,14,22,139,,206,184,16,21,6,5,0.6,0.7
2024-06-28T2300,3620A,112.8271,35.4828,晋城市,泽州一中,,47,47,54,3,20,147,,196,181,13,16,7,7,0.7,0.6
2024-06-28T2300,2171A,112.7532,37.6945,晋中市,锦纶小区,臭氧1小时,92,63,79,24,28,193,,228,208,18,23,9,10,0.6,0.6
2024-06-28T2300,2173A,112.7249,37.7067,晋中市,南都小区,臭氧1小时,102,70,73,31,29,204,,241,224,12,21,8,12,0.6,0.6
2024-06-28T2300,2174A,112.6991,37.6982,晋中市,榆次区政府,臭氧1小时,97,61,70,29,29,197,,227,210,15,21,10,12,0.5,0.5
2024-06-28T2300,2865A,112.7195,37.6828,晋中市,榆次三中,臭氧1小时,84,68,76,22,26,187,,238,214,20,23,8,10,0.6,0.6
2024-06-28T2300,2439A,112.2014,31.0481,荆门市,竹园小学,,25,25,15,15,12,18,,92,57,21,14,10,8,0.6,0.5
2024-06-28T2300,2440A,112.1969,30.9891,荆门市,掇刀,,20,17,13,14,13,47,,106,66,16,16,7,6,0.6,0.5
2024-06-28T2300,2441A,112.2213,31.0386,荆门市,石化一小,,25,25,18,14,12,30,,100,63,21,16,13,14,0.5,0.5
2024-06-28T2300,3012A,112.1849,31.0362,荆门市,西山林语,,20,,13,14,10,27,,82,50,12,8,8,8,0.6,0.5
2024-06-28T2300,3547A,112.1632,31.0138,荆门市,龙泉中学南校,,17,17,8,6,5,34,,97,60,12,10,8,8,0.6,0.5
2024-06-28T2300,1844A,112.2494,30.3197,荆州市,市图书馆,,15,8,6,7,5,47,,90,50,16,19,6,6,0.6,0.6
2024-06-28T2300,1845A,112.2008,30.3544,荆州市,市委党校,,25,25,9,13,10,46,,99,65,18,12,6,6,0.6,0.5
2024-06-28T2300,3194A,112.2747,30.3122,荆州市,管委会,,19,14,7,13,9,54,,85,54,16,17,5,5,0.5,0.4
2024-06-28T2300,3548A,112.1655,30.3364,荆州市,学苑路,,35,,9,24,7,41,,105,70,22,15,6,7,0.6,0.5
2024-06-28T2300,2343A,117.2117,29.2933,景德镇市,老干部活动中心,,17,17,11,7,6,21,,30,23,8,9,7,6,0.2,0.3
2024-06-28T2300,2344A,117.1894,29.2789,景德镇市,兽医站,,20,20,18,10,10,14,,35,22,5,8,5,5,0.3,0.3
2024-06-28T2300,2345A,117.1547,29.2617,景德镇市,台达陶瓷,,18,18,14,12,10,10,,28,21,16,16,31,30,0.3,0.3
2024-06-28T2300,2346A,117.2461,29.2956,景德镇市,陶研所,,12,12,10,6,4,32,,34,31,1,5,6,4,0.2,0.3
2024-06-28T2300,1803A,115.9872,29.6815,九江市,十里,,30,30,14,16,6,20,,36,33,31,24,9,9,0.9,0.7
2024-06-28T2300,1804A,115.9584,29.7046,九江市,茅山头,,30,26,13,14,9,0,,24,16,60,27,11,10,0.7,0.7
2024-06-28T2300,1805A,115.9877,29.7295,九江市,西园,,28,19,14,18,11,9,,41,36,56,23,11,11,0.9,0.9
2024-06-28T2300,1806A,116.0172,29.6547,九江市,五七二七厂,,15,11,6,10,7,32,,33,32,4,6,9,9,0.6,0.7
2024-06-28T2300,1808A,115.9114,29.6038,九江市,综合工业园,,18,18,11,10,8,38,,60,50,25,28,14,13,0.9,0.7
2024-06-28T2300,1809A,116.0721,29.7535,九江市,石化总厂,,17,17,13,3,9,45,,50,50,6,11,11,9,0.6,0.7
2024-06-28T2300,1810A,115.9773,29.5698,九江市,庐山气象台,,19,,6,9,6,58,,71,67,1,2,17,12,0.8,0.8
2024-06-28T2300,3190A,116.0254,29.6994,九江市,外国语学校,,18,13,11,12,7,37,,54,54,22,17,3,7,0.6,0.6
2024-06-28T2300,2658A,98.5061,39.7443,酒泉市,仓门街子站,颗粒物(PM10),101,151,70,30,25,97,,131,118,10,10,5,13,0.2,0.3
2024-06-28T2300,2659A,98.4989,39.7256,酒泉市,油田生活基地,颗粒物(PM10),98,146,83,27,23,107,,140,132,8,12,11,12,0.2,0.3
2024-06-28T2300,2698A,76.0072,39.4467,喀什地区,巡警大队,,,,63,,8,98,,153,144,49,21,4,4,0.5,0.3
2024-06-28T2300,2699A,75.9755,39.4694,喀什地区,吾办,颗粒物(PM10),70,90,63,29,19,92,,155,142,56,17,3,3,0.6,0.3
2024-06-28T2300,4027A,75.9483,39.4689,喀什地区,老干局,颗粒物(PM10),80,109,68,16,7,109,,165,157,40,14,5,5,0.4,0.3
2024-06-28T2300,1824A,114.3389,34.7781,开封市,肿瘤医院,,36,36,57,6,15,59,,129,101,6,11,2,4,0.6,0.6
2024-06-28T2300,1826A,114.2885,34.7965,开封市,世纪星幼儿园,,23,23,53,3,21,69,,142,113,4,10,3,3,0.4,0.4
2024-06-28T2300,3147A,114.3438,34.8106,开封市,龙亭公园,,23,23,54,13,20,66,,142,112,7,13,3,4,0.3,0.4
2024-06-28T2300,3210A,114.3644,34.7964,开封市,汴京公园,,27,27,57,18,21,63,,136,106,5,11,3,3,0.4,0.4
2024-06-28T2300,3473A,114.2485,34.8306,开封市,技师学院,,23,17,54,8,20,72,,144,117,6,11,2,4,0.5,0.6
2024-06-28T2300,3592A,114.4644,34.7556,开封市,祥符区生态环境局,,19,19,49,6,21,50,,134,102,16,18,2,2,0.3,0.4
2024-06-28T2300,1951A,84.895,45.6094,克拉玛依市,长征新村,,36,25,30,7,6,113,,128,121,3,6,10,10,0.2,0.2
2024-06-28T2300,1952A,84.8988,45.5893,克拉玛依市,南林小区,,36,27,28,11,10,114,,124,115,4,10,4,5,0.1,0.3
2024-06-28T2300,1954A,84.905,44.3396,克拉玛依市,独山子区,颗粒物(PM10),59,67,38,17,12,104,,134,129,13,10,11,16,0.4,0.4
2024-06-28T2300,1955A,85.6979,46.098,克拉玛依市,乌尔禾区商贸楼,,37,37,24,3,7,108,,110,106,18,11,6,5,0.4,0.3
2024-06-28T2300,3612A,85.1045,45.6899,克拉玛依市,白碱滩区新站,,39,14,20,14,13,124,,126,126,2,5,6,8,0.0,0.3
2024-06-28T2300,2697A,76.1454,39.7142,克孜勒苏柯尔克孜自治州,市人民政府,颗粒物(PM10),69,88,46,31,18,84,,148,140,49,6,8,9,0.3,0.2
2024-06-28T2300,3665A,76.1658,39.7157,克孜勒苏柯尔克孜自治州,克州文化中心,颗粒物(PM10),74,97,49,26,24,119,,143,140,20,4,10,11,0.3,0.2
2024-06-28T2300,1450A,102.8204,24.8886,昆明市,呈贡新区,,12,11,17,7,5,36,,47,42,9,8,4,5,0.4,0.5
2024-06-28T2300,1452A,102.7252,25.0902,昆明市,龙泉镇,,16,16,9,6,5,26,,41,37,16,12,7,6,0.5,0.5
2024-06-28T2300,1453A,102.7266,25.0375,昆明市,东风东路,细颗粒物(PM2.5),58,,9,41,10,21,,33,,14,11,2,2,0.4,0.4
2024-06-28T2300,1454A,102.6742,25.0669,昆明市,金鼎山,,11,11,13,6,3,28,,40,37,13,12,8,8,0.4,0.4
2024-06-28T2300,1455A,102.6644,25.0401,昆明市,碧鸡广场,,19,19,11,12,5,19,,42,37,21,12,3,3,0.3,0.3
2024-06-28T2300,3179A,102.7494,25.0119,昆明市,官渡区博物馆,,18,18,10,9,7,31,,46,42,9,8,8,8,0.4,0.4
2024-06-28T2300,3375A,102.8017,24.8336,昆明市,青年创业园,,11,11,6,3,4,32,,47,42,8,6,7,7,0.4,0.3
2024-06-28T2300,3550A,102.7997,24.9786,昆明市,昆明学院,,14,14,9,8,5,35,,48,44,8,8,4,4,0.4,0.3
2024-06-28T2300,3551A,102.5967,24.6736,昆明市,晋宁区生态环境分局,,10,9,12,3,4,26,,42,38,20,20,1,1,0.7,0.6
2024-06-28T2300,3552A,102.6678,24.9856,昆明市,云天化总部,,11,11,6,7,4,35,,45,42,5,5,2,2,0.5,0.5
2024-06-28T2300,1456A,91.1319,29.6514,拉萨市,八廓街,,31,14,9,8,7,98,,119,112,20,13,6,6,0.3,0.3
2024-06-28T2300,1457A,91.1221,29.6747,拉萨市,市环保局,,32,12,8,8,6,102,,114,107,13,14,8,8,0.2,0.1
2024-06-28T2300,1458A,91.0874,29.6475,拉萨市,区监测站,,30,10,7,3,6,96,,111,110,18,13,6,6,0.4,0.4
2024-06-28T2300,1459A,91.1774,29.6541,拉萨市,西藏大学,,34,11,8,7,6,106,,122,119,15,6,8,8,0.3,0.2
2024-06-28T2300,1460A,90.9798,29.6588,拉萨市,区辐射站,,32,15,10,9,7,100,,108,107,14,17,8,8,0.3,0.3
2024-06-28T2300,1461A,91.0834,29.6292,拉萨市,拉萨火车站,,33,12,8,6,6,103,,114,114,15,11,7,7,0.3,0.2
2024-06-28T2300,2520A,109.2203,23.7256,来宾市,来宾技工学校,,17,17,19,9,11,37,,53,45,9,7,6,7,0.7,0.7
2024-06-28T2300,3535A,109.1781,23.7297,来宾市,兴宾区政府,,14,14,13,3,6,36,,53,40,15,10,5,4,0.9,0.9
2024-06-28T2300,4002A,109.2416,23.7461,来宾市,中南小学,,13,10,20,8,20,39,,54,45,10,9,3,3,0.7,0.7
2024-06-28T2300,1476A,103.631,36.1031,兰州市,兰炼宾馆,,45,27,27,20,18,141,,155,139,10,16,8,9,0.2,0.3
2024-06-28T2300,1478A,103.8412,36.0726,兰州市,生物制品所,,42,42,31,24,23,57,,136,111,39,24,8,9,0.4,0.4
2024-06-28T2300,1479A,103.831,36.0464,兰州市,铁路设计院,,41,41,28,16,17,77,,139,109,54,37,11,9,0.4,0.4
2024-06-28T2300,3186A,103.7158,36.1058,兰州市,教育港,,41,41,31,25,17,83,,160,134,37,18,9,10,0.4,0.3
2024-06-28T2300,3241A,103.7439,36.0842,兰州市,百合公园,,39,31,25,21,18,24,,144,109,77,23,2,4,0.4,0.3
2024-06-28T2300,3242A,103.9611,35.998,兰州市,和平,,40,31,25,15,13,126,,161,143,16,17,9,9,0.4,0.5
2024-06-28T2300,3245A,103.6633,36.533,兰州新区,新区管委会,,28,28,22,17,13,77,,145,114,35,14,6,7,0.4,0.4
2024-06-28T2300,3246A,103.6975,36.4789,兰州新区,舟曲中学,,36,24,25,15,12,115,,148,131,11,10,14,7,0.5,0.4
2024-06-28T2300,1067A,116.6708,39.5111,廊坊市,药材公司,臭氧1小时,78,90,75,37,30,182,,235,223,14,16,5,5,0.5,0.4
2024-06-28T2300,1068A,116.7214,39.5589,廊坊市,开发区,臭氧1小时,73,89,73,40,28,178,,235,223,23,20,6,6,0.6,0.4
2024-06-28T2300,1070A,116.7244,39.5269,廊坊市,北华航天学院,颗粒物(PM10),74,97,82,31,24,162,,224,210,22,19,8,5,0.6,0.4
2024-06-28T2300,2919A,116.7022,39.5453,廊坊市,河北工业大学,颗粒物(PM10),82,113,85,40,30,171,,231,219,18,14,6,4,0.6,0.4
2024-06-28T2300,2535A,103.7723,29.5462,乐山市,花湖湾,,29,27,22,20,18,31,,81,73,28,12,4,4,0.5,0.4
2024-06-28T2300,2536A,103.7627,29.5844,乐山市,牛耳桥,,38,37,24,26,19,45,,91,77,33,19,5,3,0.8,0.7
2024-06-28T2300,2537A,103.7508,29.6006,乐山市,市第三水厂,,49,34,22,34,18,51,,97,87,33,17,3,3,0.6,0.5
2024-06-28T2300,2538A,103.7571,29.5664,乐山市,市监测站,,36,34,25,25,19,50,,99,89,26,12,2,2,0.9,0.8
2024-06-28T2300,3361A,103.7311,29.5628,乐山市,理工大学,,35,27,24,24,21,56,,105,89,21,12,5,4,0.6,0.5
2024-06-28T2300,2599A,100.2497,26.8802,丽江市,丽江古城,,19,19,16,9,10,26,,36,26,12,12,6,6,0.7,0.6
2024-06-28T2300,2600A,100.2203,26.8906,丽江市,市中心,,13,,10,9,7,30,,38,26,9,9,9,9,0.5,0.6
2024-06-28T2300,1267A,119.914,28.4514,丽水市,监测站大楼,颗粒物(PM10),58,66,35,22,19,4,,65,40,32,19,3,3,0.8,0.7
2024-06-28T2300,1268A,119.93,28.4586,丽水市,莲都小学,,41,41,42,15,17,3,,69,41,28,17,3,3,0.7,0.6
2024-06-28T2300,1269A,119.879,28.4231,丽水市,余庄前,,47,47,44,20,20,3,,47,22,9,10,2,3,0.7,0.6
2024-06-28T2300,1173A,119.176,34.5885,连云港市,市环境监测站,,46,46,37,31,22,100,,143,129,11,11,6,6,0.6,0.4
2024-06-28T2300,3000A,119.3581,34.6972,连云港市,德源药业,,46,46,39,29,15,98,,127,106,9,17,5,6,0.8,0.5
2024-06-28T2300,3007A,119.178,34.844,连云港市,新城一中,,46,46,29,28,14,100,,139,110,22,22,5,6,0.9,0.6
2024-06-28T2300,3008A,119.3608,34.7519,连云港市,胡沟管理处,颗粒物(PM10),51,51,38,29,13,94,,111,98,16,27,10,11,0.5,0.3
2024-06-28T2300,3009A,119.1478,34.5911,连云港市,矿山设计院,颗粒物(PM10),52,53,37,27,20,99,,140,129,10,10,2,2,0.6,0.4
2024-06-28T2300,3434A,119.2413,34.6539,连云港市,工贸学校,,43,43,38,23,18,110,,148,135,6,5,7,8,0.8,0.7
2024-06-28T2300,3664A,119.4172,34.7341,连云港市,连云街道,颗粒物(PM10),55,59,36,24,15,101,,144,121,14,14,7,5,1.1,0.7
2024-06-28T2300,2571A,102.3431,27.8099,凉山彝族自治州,青龙寺,,,20,12,15,8,,,46,26,5,5,3,5,0.4,0.6
2024-06-28T2300,2572A,102.2721,27.8415,凉山彝族自治州,邛海宾馆,,20,18,16,9,10,61,,51,50,4,10,8,10,0.6,0.7
2024-06-28T2300,2573A,102.2625,27.898,凉山彝族自治州,西昌市政府,,21,21,16,12,9,53,,49,46,5,9,8,10,0.6,0.8
2024-06-28T2300,2574A,102.2685,27.8851,凉山彝族自治州,凉山州政府,,17,16,18,7,9,53,,56,54,5,12,6,9,0.8,0.9
2024-06-28T2300,2575A,102.237,27.8914,凉山彝族自治州,长安,,22,13,19,7,9,68,,54,54,7,11,10,14,0.8,1
2024-06-28T2300,2212A,123.2,41.1953,辽阳市,宏伟区,,36,10,30,3,11,114,,147,130,5,12,10,11,0.4,0.5
2024-06-28T2300,2213A,123.1683,41.2495,辽阳市,新华园,,38,19,32,13,15,119,,152,133,6,18,6,12,0.4,0.7
2024-06-28T2300,2214A,123.2354,41.2639,辽阳市,滨河路,,36,19,32,11,12,114,,160,134,7,11,9,11,0.5,0.6
2024-06-28T2300,2215A,123.149,41.2991,辽阳市,铁西工业园,,35,20,35,16,14,110,,138,125,5,18,11,14,0.6,0.8
2024-06-28T2300,2227A,125.1358,42.8845,辽源市,环保局,,31,20,28,16,16,98,,170,150,18,19,7,8,0.5,0.7
2024-06-28T2300,3239A,125.0764,42.9078,辽源市,银鹰制药,,30,22,30,14,16,96,,169,137,27,23,9,4,0.7,0.8
2024-06-28T2300,1625A,115.9848,36.4372,聊城市,区政府,颗粒物(PM10),56,61,75,28,28,140,,182,170,25,19,9,11,0.5,0.6
2024-06-28T2300,2878A,116.0072,36.4343,聊城市,聊大东校,,50,50,68,28,32,155,,196,185,18,16,10,9,0.6,0.5
2024-06-28T2300,3200A,115.9819,36.4978,聊城市,监控中心,,48,48,66,14,22,149,,184,175,16,15,9,9,0.5,0.6
2024-06-28T2300,3513A,116.0445,36.4361,聊城市,九州社区,颗粒物(PM10),54,58,75,23,26,136,,174,165,17,17,4,7,0.5,0.5
2024-06-28T2300,4018A,116.0567,36.4608,聊城市,星美广场,颗粒物(PM10),54,57,78,25,26,152,,189,178,17,18,6,7,0.5,0.5
2024-06-28T2300,2632A,94.3681,29.6376,林芝市,林芝监测站,,9,,3,3,4,27,,44,38,3,3,7,7,0.3,0.3
2024-06-28T2300,2633A,94.3616,29.6616,林芝市,林芝人民医院,,8,8,6,3,4,21,,45,38,10,6,9,9,0.4,0.3
2024-06-28T2300,2603A,100.0781,23.8982,临沧市,市环保局,,26,22,15,18,13,18,,40,32,9,8,3,4,0.4,0.4
2024-06-28T2300,2604A,100.0894,23.8822,临沧市,市气象局,,22,22,14,15,9,15,,42,34,13,9,5,4,0.6,0.5
2024-06-28T2300,1733A,111.5531,36.0783,临汾市,临钢医院,颗粒物(PM10),65,80,78,28,30,151,,232,210,23,12,5,7,0.5,0.6
2024-06-28T2300,1734A,111.5028,36.0714,临汾市,技工学校,臭氧1小时,74,76,76,30,39,179,,244,218,16,16,5,6,0.7,0.7
2024-06-28T2300,1736A,111.5018,36.0855,临汾市,市委,臭氧1小时,84,88,87,24,35,187,,259,230,18,15,6,7,0.8,0.8
2024-06-28T2300,3018A,111.505,36.1014,临汾市,唐尧大酒店,臭氧1小时,74,63,73,25,35,179,,242,216,13,14,5,5,0.5,0.6
2024-06-28T2300,3668A,111.5036,36.0414,临汾市,城南,臭氧1小时,73,71,79,36,41,178,,255,222,10,12,5,6,0.6,0.6
2024-06-28T2300,2667A,103.2069,35.5993,临夏回族自治州,环保局,,43,43,38,28,23,73,,141,121,16,8,6,7,0.4,0.3
2024-06-28T2300,2668A,103.2417,35.6057,临夏回族自治州,建设大厦,,39,28,30,27,21,68,,148,121,16,11,8,9,0.3,0.3
2024-06-28T2300,1618A,118.3429,35.0532,临沂市,沂河小区,颗粒物(PM10),52,53,44,34,21,138,,174,161,12,15,10,10,0.5,0.4
2024-06-28T2300,1619A,118.295,35.0583,临沂市,鲁南制药厂,细颗粒物(PM2.5),59,48,42,42,24,128,,165,152,11,9,10,10,0.7,0.5
2024-06-28T2300,1620A,118.2794,34.9976,临沂市,新光毛纺厂,细颗粒物(PM2.5),69,58,38,50,26,117,,164,149,13,16,5,6,0.8,0.6
2024-06-28T2300,1621A,118.3956,35.0888,临沂市,河东保险公司,细颗粒物(PM2.5),55,53,40,39,20,106,,153,139,12,14,4,5,0.6,0.4
2024-06-28T2300,3370A,118.3564,35.0215,临沂市,十里堡居委,细颗粒物(PM2.5),52,48,32,36,22,116,,159,145,10,11,10,10,0.9,0.7
2024-06-28T2300,3496A,118.3604,35.1084,临沂市,南坊新区,颗粒物(PM10),56,61,50,29,18,114,,161,145,15,16,7,7,0.8,0.7
2024-06-28T2300,3860A,118.3920,35.0300,临沂市,皇山花园小区,颗粒物(PM10),57,63,45,35,23,115,,153,140,14,17,13,9,0.8,0.6
2024-06-28T2300,1870A,109.4856,24.3895,柳州市,柳东小学,,14,11,12,6,10,42,,57,55,8,8,6,9,0.5,0.5
2024-06-28T2300,1871A,109.4157,24.3277,柳州市,环保监测站,,19,14,14,13,9,35,,58,52,8,8,7,7,0.5,0.5
2024-06-28T2300,1872A,109.389,24.341,柳州市,河西水厂,,15,15,17,10,9,32,,58,52,10,6,6,6,0.4,0.4
2024-06-28T2300,1873A,109.4311,24.2921,柳州市,市四中,,15,12,17,10,11,37,,61,56,9,8,5,6,0.4,0.4
2024-06-28T2300,1874A,109.4006,24.3631,柳州市,市九中,,18,18,20,8,9,35,,58,53,12,10,4,4,0.5,0.4
2024-06-28T2300,1875A,109.4958,24.3134,柳州市,古亭山,,17,17,15,6,6,38,,58,54,14,10,6,8,0.3,0.2
2024-06-28T2300,3402A,109.5422,24.3996,柳州市,市二中,,14,8,14,6,8,43,,58,56,8,9,6,8,0.3,0.3
2024-06-28T2300,2307A,116.5079,31.737,六安市,监测大楼,,13,,4,3,7,41,,70,48,7,6,4,4,0.3,0.4
2024-06-28T2300,2308A,116.4738,31.7643,六安市,皖西学院,,12,8,6,3,6,36,,74,49,11,6,4,3,0.4,0.4
2024-06-28T2300,2309A,116.4996,31.7905,六安市,朝阳厂,,11,7,7,6,8,34,,64,39,11,5,8,7,0.3,0.3
2024-06-28T2300,2310A,116.5567,31.7886,六安市,开发区,,18,,6,12,9,42,,64,42,6,7,4,4,0.5,0.6
2024-06-28T2300,2577A,104.83,26.5917,六盘水市,黄土坡,,19,19,15,10,9,49,,56,54,10,8,6,7,0.3,0.4
2024-06-28T2300,2578A,104.89,26.5939,六盘水市,水钢,,30,30,22,8,6,47,,65,62,12,5,10,10,0.3,0.3
2024-06-28T2300,2579A,104.8475,26.5894,六盘水市,民中,,19,19,17,7,7,52,,59,56,10,8,6,6,0.4,0.4
2024-06-28T2300,2580A,104.9544,26.5506,六盘水市,双水,,17,12,15,7,9,53,,69,66,8,5,10,9,0.2,0.2
2024-06-28T2300,2336A,117.0217,25.1033,龙岩市,龙岩市监测站,,34,34,21,12,8,19,,49,41,21,11,5,3,0.6,0.4
2024-06-28T2300,2337A,117.0258,25.0661,龙岩市,闽西职业技术学院,,33,33,24,18,9,15,,50,34,25,12,8,8,0.4,0.4
2024-06-28T2300,2338A,117.0196,25.0306,龙岩市,龙岩学院,,16,16,17,6,8,36,,48,40,5,6,3,4,0.4,0.4
2024-06-28T2300,2885A,104.9339,33.3826,陇南市,滨江中学,,38,38,27,10,9,91,,107,105,11,8,8,8,0.6,0.6
2024-06-28T2300,3247A,104.955,33.371,陇南市,市总工会,,27,27,26,13,9,82,,104,99,4,5,4,5,0.5,0.5
2024-06-28T2300,2487A,111.9589,27.8901,娄底市,电视发射台,,25,25,27,11,14,31,,33,17,6,6,6,6,0.5,0.7
2024-06-28T2300,2488A,111.9975,27.725,娄底市,市监测站,,14,14,27,8,14,35,,39,36,4,7,6,6,0.2,0.3
2024-06-28T2300,2489A,112.0194,27.7314,娄底市,市委党校,,16,12,22,11,13,29,,34,31,4,5,5,5,0.3,0.4
2024-06-28T2300,2490A,111.9561,27.7569,娄底市,涟钢,,34,34,36,14,21,19,,26,21,24,19,27,14,0.6,0.6
2024-06-28T2300,2491A,111.9892,27.7044,娄底市,市政府,,,,25,2,17,27,,42,37,4,6,7,6,0.2,0.4
2024-06-28T2300,1893A,105.4324,28.9634,泸州市,九狮山,,42,42,15,16,10,15,,62,46,20,17,4,5,0.6,0.4
2024-06-28T2300,1894A,105.4427,28.9063,泸州市,小市上码头,,25,24,20,17,12,41,,63,55,14,18,6,5,0.4,0.4
2024-06-28T2300,1895A,105.4241,28.8573,泸州市,兰田宪桥,,26,26,20,18,15,18,,70,54,18,12,4,4,0.4,0.4
2024-06-28T2300,1896A,105.4379,28.8833,泸州市,市环监站,,28,26,25,19,18,35,,66,57,18,15,6,6,0.5,0.5
2024-06-28T2300,3490A,105.3617,28.7703,泸州市,纳溪区环保局,,36,36,21,24,11,23,,63,50,26,17,4,4,0.6,0.4
2024-06-28T2300,2183A,111.1406,37.5211,吕梁市,环保局,颗粒物(PM10),98,145,112,64,49,72,,218,176,80,36,4,5,0.8,0.7
2024-06-28T2300,2185A,111.1297,37.5136,吕梁市,自来水公司,颗粒物(PM10),79,108,102,51,45,75,,204,167,65,29,6,8,1.0,0.7
2024-06-28T2300,2867A,111.1283,37.51,吕梁市,马茂庄小学,颗粒物(PM10),92,133,104,52,45,50,,224,150,86,46,7,8,0.7,0.8
2024-06-28T2300,1812A,112.3931,34.6516,洛阳市,市委党校,,33,29,59,18,28,105,,187,149,2,9,1,4,0.5,0.6
2024-06-28T2300,1814A,112.4657,34.6871,洛阳市,豫西宾馆,,36,30,74,18,29,114,,192,152,10,17,5,4,0.5,0.5
2024-06-28T2300,1815A,112.494,34.6886,洛阳市,河南林校,,31,26,60,21,29,97,,189,146,9,16,3,4,0.5,0.4
2024-06-28T2300,1816A,112.3844,34.623,洛阳市,开发区管委会,,33,30,53,20,26,103,,178,142,6,9,5,9,0.3,0.4
2024-06-28T2300,1817A,112.4267,34.6258,洛阳市,市委新办公区,,35,29,51,19,30,110,,185,149,4,7,4,7,0.3,0.4
2024-06-28T2300,3340A,112.6005,34.6326,洛阳市,伊滨,,32,32,66,20,29,90,,175,137,11,20,5,7,0.4,0.3
2024-06-28T2300,3341A,112.4951,34.6332,洛阳市,中移产业园,,32,31,62,22,30,100,,184,144,8,14,6,6,0.7,0.6
2024-06-28T2300,3593A,112.5736,34.8993,洛阳市,吉利监测站,,37,31,69,16,30,118,,186,154,9,19,2,5,0.0,0.2
2024-06-28T2300,3635A,112.3677,34.662,洛阳市,河科大西苑校区,,37,26,65,10,25,117,,185,152,5,19,3,6,0.5,0.5
2024-06-28T2300,3636A,112.4388,34.6781,洛阳市,英才小学,,34,32,67,19,30,107,,186,147,2,9,3,4,0.4,0.4
2024-06-28T2300,2399A,114.051,33.5699,漯河市,三五一五工厂,,10,,19,6,11,30,,78,46,17,17,6,6,0.4,0.4
2024-06-28T2300,2400A,114.0055,33.5698,漯河市,漯河大学,,12,6,22,3,11,37,,82,50,10,16,5,5,0.4,0.5
2024-06-28T2300,2401A,114.0138,33.5828,漯河市,市水利局,,11,6,19,3,11,35,,80,47,10,15,7,8,0.2,0.3
2024-06-28T2300,2402A,114.0261,33.5698,漯河市,市广电局,,11,,21,7,8,35,,79,47,10,14,1,2,0.4,0.5
2024-06-28T2300,3478A,113.9749,33.5664,漯河市,市图书馆,,11,,26,7,13,34,,81,49,8,13,5,5,0.4,0.4
2024-06-28T2300,3479A,114.0967,33.5906,漯河市,召陵区卫健委,,12,11,25,8,13,17,,78,44,24,15,4,5,0.4,0.4
2024-06-28T2300,1798A,118.5092,31.6837,马鞍山市,湖东路四小,,10,6,14,3,7,32,,53,39,7,12,6,7,0.5,0.7
2024-06-28T2300,1799A,118.5024,31.6449,马鞍山市,开发区,,9,6,14,3,7,27,,50,36,7,12,8,9,0.6,0.8
2024-06-28T2300,1800A,118.5228,31.7231,马鞍山市,慈湖,,11,11,19,3,13,33,,51,39,12,19,8,9,0.6,0.8
2024-06-28T2300,1802A,118.6245,31.7241,马鞍山市,濮塘,,13,6,12,3,8,39,,47,45,3,9,2,3,0.6,0.8
2024-06-28T2300,3633A,118.4918,31.6809,马鞍山市,雨山,,10,6,18,3,7,32,,47,37,5,14,5,6,0.5,0.7
2024-06-28T2300,1686A,111.0286,21.4688,茂名市,电白南海,,15,14,13,7,8,46,,47,47,3,4,4,4,0.3,0.3
2024-06-28T2300,1687A,110.9294,21.6533,茂名市,茂石化七小,,18,,14,12,12,41,,46,42,3,5,7,8,0.5,0.5
2024-06-28T2300,1688A,110.9107,21.6687,茂名市,健康路,,15,12,13,3,3,45,,49,47,5,7,7,8,0.4,0.4
2024-06-28T2300,1689A,110.8592,21.6828,茂名市,高岭,,17,17,21,9,12,34,,43,40,8,9,7,8,0.5,0.5
2024-06-28T2300,3450A,111.01,21.5165,茂名市,电白水东,,15,,6,7,7,47,,44,43,3,5,3,3,0.4,0.4
2024-06-28T2300,2539A,104.0308,30.0478,眉山市,黑龙滩水库,,36,35,32,25,25,40,,87,76,5,6,5,5,0.4,0.3
2024-06-28T2300,2540A,103.8416,30.0874,眉山市,气象局,,45,33,26,31,28,65,,108,100,21,19,6,8,0.5,0.4
2024-06-28T2300,3137A,103.8578,30.0744,眉山市,市委党校,,29,29,31,19,20,52,,104,92,26,18,6,7,0.5,0.5
2024-06-28T2300,3148A,103.8291,30.0564,眉山市,区人社局,,36,36,34,24,23,65,,106,96,21,24,7,7,0.4,0.4
2024-06-28T2300,1690A,116.1231,24.3284,梅州市,梅江月梅,,15,15,18,7,6,44,,59,57,2,4,12,9,0.5,0.4
2024-06-28T2300,1691A,116.0797,24.2719,梅州市,梅县新城,,13,13,18,3,7,33,,63,55,10,7,4,4,0.4,0.4
2024-06-28T2300,1692A,116.1248,24.2654,梅州市,环境监控中心,,16,16,21,6,8,33,,53,46,12,12,4,4,0.4,0.4
2024-06-28T2300,3315A,116.1233,24.2991,梅州市,梅龙,,15,14,15,10,8,38,,58,53,9,8,8,10,0.5,0.4
2024-06-28T2300,1878A,104.7778,31.4741,绵阳市,富乐山,,33,33,27,20,23,102,,126,123,19,11,8,8,0.5,0.5
2024-06-28T2300,1879A,104.7563,31.4535,绵阳市,市人大,,39,38,29,27,18,114,,117,117,21,15,10,9,0.5,0.5
2024-06-28T2300,1880A,104.6697,31.4668,绵阳市,高新区自来水公司,,48,48,33,29,16,98,,124,122,26,18,5,5,0.6,0.5
2024-06-28T2300,1881A,104.7287,31.5075,绵阳市,三水厂,,45,42,32,31,22,91,,115,111,34,20,6,6,0.6,0.5
2024-06-28T2300,3491A,104.69,31.5322,绵阳市,西科大附属小学,,49,48,34,34,22,106,,113,112,24,20,6,6,0.5,0.5
2024-06-28T2300,3492A,104.5648,31.5343,绵阳市,安州区旅游局,,49,41,21,34,20,112,,109,109,19,12,9,8,0.7,0.5
2024-06-28T2300,1784A,129.61,44.561,牡丹江市,环保大楼,,39,39,38,23,19,80,,173,126,27,20,6,7,0.5,0.5
2024-06-28T2300,1785A,129.6115,44.5782,牡丹江市,文化广场,颗粒物(PM10),57,64,64,32,31,79,,164,121,29,25,6,6,0.5,0.6
2024-06-28T2300,1786A,129.5904,44.5963,牡丹江市,第一医院,,49,49,45,27,28,55,,168,123,29,18,4,4,0.7,0.6
2024-06-28T2300,1787A,129.6364,44.6075,牡丹江市,机车工厂,,45,,50,31,29,66,,166,120,19,17,6,8,0.5,0.5
2024-06-28T2300,1788A,129.6386,44.5462,牡丹江市,第一中学,,43,43,42,18,18,40,,168,113,46,20,4,4,0.5,0.5
2024-06-28T2300,2531A,105.0703,29.61,内江市,市监测站,,18,,16,12,21,57,,78,74,12,17,6,6,0.5,0.5
2024-06-28T2300,2532A,105.0717,29.5947,内江市,东兴区政府,,22,22,22,7,9,56,,81,76,14,15,7,7,0.5,0.5
2024-06-28T2300,2533A,105.0653,29.5817,内江市,内江二中,,23,18,23,16,15,56,,79,73,17,19,12,12,0.6,0.6
2024-06-28T2300,2534A,105.0406,29.5822,内江市,内江日报社,,23,23,18,10,19,55,,78,73,15,18,13,13,0.6,0.6
2024-06-28T2300,2628A,92.0657,31.4846,那曲市,那曲监测站,,35,35,11,17,5,97,,123,119,6,5,7,6,0.8,0.5
2024-06-28T2300,3128A,92.0506,31.4797,那曲市,那曲会议中心,,33,26,8,14,4,105,,127,124,13,4,4,3,0.5,0.4
2024-06-28T2300,1290A,115.8931,28.6843,南昌市,省外办,细颗粒物(PM2.5),77,91,48,56,31,5,,37,20,48,32,6,7,1.2,0.8
2024-06-28T2300,1291A,115.8886,28.7003,南昌市,省林业公司,颗粒物(PM10),59,68,36,39,24,3,,45,31,65,38,5,5,0.4,0.5
2024-06-28T2300,1292A,115.8126,28.7442,南昌市,林科所,,27,27,26,14,17,4,,41,19,47,36,6,6,0.5,0.7
2024-06-28T2300,1294A,115.8518,28.687,南昌市,建工学校,颗粒物(PM10),68,86,39,29,16,7,,47,29,53,37,7,7,1.1,0.9
2024-06-28T2300,1295A,115.8921,28.6424,南昌市,象湖,颗粒物(PM10),57,63,36,20,25,2,,47,18,44,37,4,5,0.9,0.9
2024-06-28T2300,1296A,115.7423,28.7996,南昌市,武术学校,,19,15,15,13,14,14,,48,29,8,7,16,15,0.5,0.6
2024-06-28T2300,1298A,115.9314,28.6842,南昌市,省站,细颗粒物(PM2.5),72,72,35,52,29,8,,44,25,46,28,7,6,1.4,0.9
2024-06-28T2300,3046A,115.9084,28.6062,南昌市,机电学校,,22,22,43,12,23,24,,55,26,9,30,7,8,0.6,1
2024-06-28T2300,3690A,115.9721,28.7031,南昌市,外国语学校,,30,21,31,21,14,23,,45,30,12,21,4,4,0.4,0.6
2024-06-28T2300,1905A,106.056,30.8064,南充市,西山风景区,,21,21,11,12,10,39,,66,53,10,35,5,4,0.5,0.4
2024-06-28T2300,1906A,106.0789,30.8023,南充市,南充市委,,20,20,20,11,11,51,,79,67,11,13,8,6,0.4,0.3
2024-06-28T2300,1907A,106.1031,30.8217,南充市,南充炼油厂,,30,30,19,12,12,51,,93,74,13,11,8,7,0.3,0.3
2024-06-28T2300,1908A,106.1064,30.7856,南充市,高坪区监测站,,19,19,16,9,8,43,,84,65,18,14,6,5,0.3,0.2
2024-06-28T2300,1909A,106.0642,30.7636,南充市,嘉陵区环保局,,25,19,17,17,10,45,,79,64,11,12,5,4,0.3,0.3
2024-06-28T2300,1910A,106.1087,30.8388,南充市,市环境监测站,,29,29,21,15,13,42,,82,64,20,14,8,6,0.5,0.4
2024-06-28T2300,1151A,118.8086,32.1065,南京市,迈皋桥,,10,6,13,3,8,30,,42,34,6,12,4,5,0.2,0.5
2024-06-28T2300,1152A,118.7538,32.0551,南京市,草场门,,11,,12,3,9,33,,47,34,9,16,2,3,0.4,0.7
2024-06-28T2300,1153A,118.7794,32.0745,南京市,山西路,,10,6,11,3,6,30,,50,34,6,13,4,4,0.3,0.5
2024-06-28T2300,1154A,118.7752,32.0023,南京市,中华门,,8,6,9,3,6,24,,37,29,15,19,7,7,0.3,0.5
2024-06-28T2300,1155A,118.8109,32.0309,南京市,瑞金路,,9,6,14,3,9,27,,39,29,5,11,7,8,0.2,0.4
2024-06-28T2300,1156A,118.7997,32.0754,南京市,玄武湖,,,7,17,,8,26,,38,30,2,6,2,2,0.4,0.6
2024-06-28T2300,1157A,118.6414,32.0931,南京市,浦口,,10,6,15,3,6,29,,46,27,9,17,4,6,0.4,0.6
2024-06-28T2300,1158A,118.7356,31.9996,南京市,奥体中心,,10,,12,3,9,32,,42,34,9,17,5,6,0.2,0.4
2024-06-28T2300,1159A,118.9125,32.1028,南京市,仙林大学城,,11,6,13,3,7,35,,46,37,8,17,9,9,0.4,0.6
2024-06-28T2300,3422A,118.8436,31.9198,南京市,江宁彩虹桥,,12,12,8,3,5,29,,43,31,6,11,4,4,0.5,0.6
2024-06-28T2300,3423A,119.0138,31.6494,南京市,溧水永阳,,11,,3,3,5,35,,52,38,5,7,3,4,0.6,0.6
2024-06-28T2300,3424A,118.879,31.3302,南京市,高淳老职中,,11,6,7,3,6,33,,50,39,7,7,3,3,0.6,0.7
2024-06-28T2300,3427A,118.8554,32.3578,南京市,六合雄州,,17,17,19,3,11,31,,58,29,8,13,6,8,0.5,0.7
2024-06-28T2300,1401A,108.3103,22.7881,南宁市,二十一中,,25,25,15,6,7,30,,56,40,12,9,2,3,0.7,0.7
2024-06-28T2300,1402A,108.3141,22.8528,南宁市,北湖,,23,23,18,8,11,28,,53,36,13,10,2,2,0.7,0.7
2024-06-28T2300,1403A,108.3206,22.8225,南宁市,市监测站,,17,17,15,9,8,27,,53,33,14,12,4,3,0.8,0.7
2024-06-28T2300,1404A,108.3829,22.8037,南宁市,大自然花园,,17,17,15,8,8,33,,54,41,10,7,5,5,0.7,0.5
2024-06-28T2300,1405A,108.4394,22.7904,南宁市,仙葫,,18,18,16,10,10,32,,44,38,12,11,13,12,0.6,1.9
2024-06-28T2300,1406A,108.2397,22.8467,南宁市,区农职院,,25,21,18,17,12,29,,55,37,11,11,5,5,0.6,0.7
2024-06-28T2300,1407A,108.3275,22.735,南宁市,英华嘉园,,18,18,26,6,9,23,,45,30,19,17,5,5,0.6,0.5
2024-06-28T2300,1408A,108.2257,22.7757,南宁市,沙井镇街道办,,38,38,24,7,10,7,,49,30,30,15,2,3,0.5,0.7
2024-06-28T2300,3401A,108.4834,22.7618,南宁市,红星社区,,11,11,18,7,12,33,,53,46,10,7,5,5,0.5,0.5
2024-06-28T2300,2332A,118.1681,26.6369,南平市,南平市监测站,,18,18,18,6,9,19,,60,46,12,8,4,4,0.6,0.5
2024-06-28T2300,2333A,118.1825,26.6489,南平市,南平铝业有限公司,,27,27,20,6,9,10,,59,44,18,8,11,5,0.8,0.7
2024-06-28T2300,2334A,118.1756,26.6272,南平市,南平七中,,30,30,21,10,9,17,,61,52,11,6,4,4,0.5,0.6
2024-06-28T2300,1168A,120.9098,31.9663,南通市,狼山街道,,11,7,14,3,7,35,,51,39,18,20,10,11,0.5,0.7
2024-06-28T2300,1169A,120.86,32.0005,南通市,虹桥,,13,13,23,3,11,33,,55,35,20,28,5,7,0.6,0.9
2024-06-28T2300,1170A,120.87,32.02,南通市,城中,,13,9,31,6,15,39,,58,41,19,29,4,7,0.4,0.8
2024-06-28T2300,1171A,120.94,31.93,南通市,星湖花园,,15,6,10,3,8,30,,56,39,29,25,4,6,0.4,0.6
2024-06-28T2300,1172A,120.81,32.0417,南通市,紫琅学院,,13,6,15,3,9,40,,51,44,19,32,5,7,0.5,0.8
2024-06-28T2300,3291A,121.067,32.062,南通市,通州监测站,,12,12,26,3,15,37,,68,49,16,19,10,12,0.6,0.9
2024-06-28T2300,3432A,120.9348,31.9883,南通市,环境教育馆,,16,14,23,3,13,34,,55,44,32,29,8,8,0.5,0.7
2024-06-28T2300,2404A,112.5224,33.0122,南阳市,瓦房庄,,37,16,20,14,15,118,,100,100,8,13,3,3,0.5,0.5
2024-06-28T2300,2405A,112.5003,32.9735,南阳市,汉画馆,,35,,24,19,18,110,,94,94,9,14,2,2,0.5,0.5
2024-06-28T2300,2406A,112.5573,33.027,南阳市,气象站,,36,,14,14,11,114,,97,97,7,11,4,4,0.3,0.3
2024-06-28T2300,2407A,112.5481,32.9689,南阳市,理工学院,,38,18,22,17,14,119,,94,94,7,16,4,4,0.4,0.4
2024-06-28T2300,4008A,112.5234,32.9922,南阳市,卧龙区政府,,35,,18,13,15,110,,88,88,7,14,2,2,0.7,0.7
2024-06-28T2300,1234A,121.8358,29.911,宁波市,区环保大楼,,28,28,19,14,12,68,,58,53,21,33,5,5,0.7,0.7
2024-06-28T2300,1235A,121.56,29.82,宁波市,万里学院,,32,27,21,22,14,45,,59,54,26,21,6,6,0.6,0.6
2024-06-28T2300,1236A,121.713,29.9572,宁波市,龙赛医院,,23,23,19,12,10,62,,51,49,12,20,5,6,0.3,0.3
2024-06-28T2300,1239A,121.633,29.7733,宁波市,钱湖水厂,,29,29,15,18,11,52,,59,59,8,7,5,5,0.5,0.5
2024-06-28T2300,1240A,121.5856,29.8635,宁波市,太古小学,,39,39,19,10,12,61,,54,53,7,15,4,5,0.7,0.9
2024-06-28T2300,1241A,121.524,29.8674,宁波市,市环境监测中心,,22,22,19,15,9,58,,61,56,20,26,5,5,0.6,0.7
2024-06-28T2300,2871A,121.6147,29.9017,宁波市,万里国际学校,,25,22,16,15,15,79,,63,62,11,22,4,4,0.3,0.4
2024-06-28T2300,3710A,121.5594,29.8975,宁波市,白沙活动中心,,22,22,18,14,11,65,,58,52,15,22,8,8,0.3,0.4
2024-06-28T2300,2341A,119.5388,26.6612,宁德市,宁德市监测站,,19,18,26,13,9,30,,95,65,12,15,5,5,0.8,0.7
2024-06-28T2300,3209A,119.5231,26.6562,宁德市,宁德一中,,,,27,16,10,,,97,74,11,10,5,5,0.6,1
2024-06-28T2300,2618A,98.8601,25.8567,怒江傈僳族自治州,州监测站,,20,18,16,14,11,16,,48,38,17,8,10,10,0.6,0.5
2024-06-28T2300,2619A,98.8546,25.8417,怒江傈僳族自治州,泸水一中,,23,23,17,11,7,5,,39,27,21,12,5,5,0.6,0.4
2024-06-28T2300,1888A,101.6891,26.571,攀枝花市,弄弄坪,颗粒物(PM10),53,55,50,12,12,8,,48,34,43,30,28,31,0.7,0.7
2024-06-28T2300,1889A,101.5769,26.5928,攀枝花市,河门口,,34,34,23,13,8,18,,59,46,34,21,28,17,1.4,0.9
2024-06-28T2300,1890A,101.7169,26.585,攀枝花市,炳草岗,颗粒物(PM10),52,53,45,22,13,7,,53,36,43,27,34,36,0.9,0.8
2024-06-28T2300,1891A,101.7369,26.5008,攀枝花市,仁和,,30,30,12,18,6,22,,50,45,20,13,7,8,0.4,0.3
2024-06-28T2300,2835A,101.7227,26.567,攀枝花市,四十中小,,32,32,32,10,15,9,,58,39,31,23,43,46,0.6,0.7
2024-06-28T2300,1604A,122.0303,41.1489,盘锦市,开发区,,37,15,29,12,12,117,,146,140,13,12,5,5,0.2,0.2
2024-06-28T2300,1605A,122.0485,41.0883,盘锦市,兴隆台,,34,18,24,8,10,108,,141,133,20,15,16,5,0.3,0.3
2024-06-28T2300,1606A,121.8297,41.1028,盘锦市,新生街道,,39,,24,22,24,123,,136,134,14,11,3,4,0.1,0.1
2024-06-28T2300,1832A,113.3257,33.742,平顶山市,新华旅馆,,35,,29,24,20,60,,124,64,11,11,4,5,0.6,0.6
2024-06-28T2300,1833A,113.2919,33.737,平顶山市,规划设计院,,25,20,26,12,13,80,,125,68,11,11,3,4,0.6,0.5
2024-06-28T2300,1834A,113.182,33.774,平顶山市,平顶山工学院,,26,22,27,14,13,81,,136,83,14,8,3,3,0.6,0.5
2024-06-28T2300,3204A,113.3025,33.73,平顶山市,规划局,,24,,29,15,17,74,,120,61,17,16,3,4,0.4,0.7
2024-06-28T2300,3594A,112.8867,33.9116,平顶山市,石龙区,,22,18,49,15,20,54,,153,99,26,9,4,5,0.4,0.4
2024-06-28T2300,2656A,106.6692,35.5461,平凉市,聚贤嘉苑,,43,43,35,20,14,40,,117,73,47,26,10,10,0.3,0.4
2024-06-28T2300,2657A,106.7021,35.5307,平凉市,博物馆,,39,39,34,17,14,52,,117,83,40,29,6,5,0.4,0.5
2024-06-28T2300,2347A,114.0997,27.5002,萍乡市,武功山,,15,6,3,3,3,47,,61,46,3,3,10,10,0.3,0.3
2024-06-28T2300,2348A,113.8385,27.6434,萍乡市,中医院,,10,10,32,6,21,18,,56,31,11,12,4,8,0.5,0.9
2024-06-28T2300,2349A,113.8493,27.6253,萍乡市,市政府车库,,37,37,31,16,23,5,,58,25,24,12,8,12,1.0,1.4
2024-06-28T2300,2350A,113.8676,27.6435,萍乡市,市环保局,,18,18,32,7,22,21,,56,29,15,11,8,12,0.5,0.7
2024-06-28T2300,2351A,113.866,27.6198,萍乡市,安源区政府,,12,,34,8,17,12,,52,26,18,14,5,8,0.5,0.8
2024-06-28T2300,2319A,119.0141,25.4325,莆田市,荔城区仓后路,,20,20,24,3,5,36,,54,44,9,10,7,7,0.5,0.5
2024-06-28T2300,2320A,119.0015,25.4553,莆田市,莆田市监测站,,24,24,23,7,3,14,,55,35,8,8,8,9,0.4,0.4
2024-06-28T2300,2321A,119.1119,25.4561,莆田市,涵江区六中,,23,23,20,3,3,19,,50,34,21,14,9,10,0.5,0.5
2024-06-28T2300,2392A,115.0312,35.7636,濮阳市,环保局,,41,41,68,15,28,123,,165,154,11,15,8,9,0.6,0.5
2024-06-28T2300,2394A,115.0574,35.7609,濮阳市,油田运输公司,,43,43,65,17,27,120,,167,154,11,13,5,6,0.5,0.5
2024-06-28T2300,2395A,115.0866,35.7754,濮阳市,油田物探公司,,49,49,69,21,30,113,,163,151,14,13,7,9,0.7,0.7
2024-06-28T2300,3021A,115,35.7668,濮阳市,濮水河管理处,颗粒物(PM10),53,55,60,18,31,112,,153,142,6,9,6,8,0.5,0.5
2024-06-28T2300,2601A,100.98,22.7633,普洱市,市环保局,,22,20,12,15,10,26,,43,37,4,4,5,5,0.4,0.3
2024-06-28T2300,2602A,100.9817,22.8322,普洱市,普洱第二中学,,,16,9,6,10,,,40,,7,5,7,11,0.5,0.5
2024-06-28T2300,2262A,131.0518,45.8751,七台河市,新一中,,35,33,37,24,24,47,,164,91,9,10,7,10,0.6,0.6
2024-06-28T2300,3345A,131.0577,45.7879,七台河市,中波台,,34,34,33,18,14,98,,132,104,20,18,8,8,0.1,0.1
2024-06-28T2300,3637A,131.0176,45.7761,七台河市,人民广场,,42,42,54,19,26,98,,130,98,11,19,12,12,0.4,0.5
2024-06-28T2300,3684A,130.8781,45.8222,七台河市,新建矿广场,颗粒物(PM10),84,117,83,32,24,120,,137,102,18,26,11,11,0.3,0.4
2024-06-28T2300,1779A,123.9305,47.3636,齐齐哈尔市,安居小区,颗粒物(PM10),55,60,59,20,27,133,,166,145,16,19,8,8,0.5,0.6
2024-06-28T2300,1780A,123.9488,47.3386,齐齐哈尔市,中心广场,颗粒物(PM10),53,55,62,19,25,128,,165,150,16,15,11,10,0.4,0.5
2024-06-28T2300,1781A,123.9483,47.3227,齐齐哈尔市,农牧车辆厂,颗粒物(PM10),51,51,61,14,21,134,,167,153,11,12,9,9,0.3,0.4
2024-06-28T2300,1783A,123.945,47.2988,齐齐哈尔市,市环境监测站,,43,41,54,20,27,136,,170,155,10,10,6,6,0.4,0.5
2024-06-28T2300,3662A,123.6333,47.2075,齐齐哈尔市,富区青少年活动中心,,39,36,49,10,18,123,,171,148,13,12,4,4,0.5,0.6
2024-06-28T2300,2591A,107.9783,26.5747,黔东南苗族侗族自治州,市环境监测站,,15,11,10,8,7,47,,48,44,2,4,3,3,0.3,0.4
2024-06-28T2300,2881A,107.8908,26.5311,黔东南苗族侗族自治州,凯里学院,颗粒物(PM10),54,58,26,6,6,42,,42,42,3,4,3,3,0.3,0.3
2024-06-28T2300,2593A,107.5228,26.2403,黔南布依族苗族自治州,小围寨,,13,7,5,3,1,40,,44,42,4,3,5,4,0.4,0.4
2024-06-28T2300,3538A,107.5175,26.2978,黔南布依族苗族自治州,沙坝,,11,6,4,3,1,35,,34,32,4,3,4,4,0.5,0.4
2024-06-28T2300,2589A,104.9022,25.0925,黔西南布依族苗族自治州,场坝街,,32,32,14,6,6,37,,51,48,10,5,3,4,0.3,0.2
2024-06-28T2300,2590A,104.8811,25.0992,黔西南布依族苗族自治州,坪东大道,,12,12,12,6,6,36,,48,46,5,3,3,3,0.2,0.2
2024-06-28T2300,2502A,108.6236,21.9667,钦州市,市环保站,,17,17,12,3,4,19,,44,34,14,12,6,7,0.7,0.6
2024-06-28T2300,2503A,108.6549,21.9481,钦州市,沙埠小学,,31,31,19,7,7,10,,47,34,24,15,4,6,0.7,0.7
2024-06-28T2300,2504A,108.5989,21.7431,钦州市,港区一小,,25,25,21,9,8,33,,52,37,10,17,6,8,0.5,0.5
2024-06-28T2300,3404A,108.5959,21.9633,钦州市,北职校,,13,13,14,8,8,12,,45,36,19,12,8,8,0.6,0.6
2024-06-28T2300,1042A,119.5134,39.8207,秦皇岛市,北戴河环保局,,39,39,38,12,6,112,,138,136,20,10,3,3,0.3,0.3
2024-06-28T2300,1043A,119.7493,40.0116,秦皇岛市,第一关,,49,49,42,28,16,82,,142,137,51,18,3,2,0.4,0.3
2024-06-28T2300,1044A,119.5897,39.9499,秦皇岛市,监测站,颗粒物(PM10),52,53,46,19,14,122,,148,147,14,15,5,5,0.3,0.3
2024-06-28T2300,1046A,119.5251,39.9041,秦皇岛市,建设大厦,,39,30,34,14,11,123,,144,143,11,21,3,3,0.0,0.1
2024-06-28T2300,3132A,119.610547,39.943889,秦皇岛市,文明里,,42,42,40,19,16,122,,141,140,9,9,2,2,0.4,0.4
2024-06-28T2300,1307A,120.6659,36.2403,青岛市,仰口,,27,,13,9,11,85,,91,86,4,4,4,4,0.2,0.2
2024-06-28T2300,1310A,120.4134,36.0658,青岛市,市南区东部子站,,25,6,13,3,3,78,,93,79,7,7,7,7,0.5,0.4
2024-06-28T2300,1311A,120.3664,36.1032,青岛市,四方区子站,,27,7,17,3,7,84,,98,91,12,14,9,9,0.5,0.5
2024-06-28T2300,1312A,120.2994,36.054,青岛市,市南区西部子站,,24,7,15,3,5,76,,84,74,6,12,7,8,0.4,0.4
2024-06-28T2300,1313A,120.4581,36.0858,青岛市,崂山区子站,,26,7,14,3,7,82,,105,82,13,14,9,9,0.4,0.4
2024-06-28T2300,1314A,120.1983,35.9608,青岛市,黄岛区子站,,27,6,9,3,6,85,,98,95,3,6,6,6,0.4,0.4
2024-06-28T2300,1315A,120.3999,36.3083,青岛市,城阳区子站,,28,7,22,3,10,88,,121,98,10,16,7,7,0.3,0.4
2024-06-28T2300,1966A,120.0405,35.8735,青岛市,黄岛区4号,,29,6,11,3,2,90,,106,98,6,9,9,9,0.4,0.4
2024-06-28T2300,3362A,120.5014,36.4034,青岛市,即墨2号,,29,9,16,6,11,91,,115,96,7,9,6,6,0.3,0.4
2024-06-28T2300,3642A,120.3503,36.0736,青岛市,市北区南部,,29,11,17,3,4,91,,101,96,8,8,6,6,0.4,0.4
2024-06-28T2300,3643A,120.3948,36.1805,青岛市,李沧区北部,,26,,18,12,12,82,,103,85,13,18,9,9,0.3,0.3
2024-06-28T2300,1702A,113.0426,23.691,清远市,环保大楼,,17,17,18,8,8,31,,108,82,20,18,5,5,0.6,0.6
2024-06-28T2300,1703A,113.0208,23.7106,清远市,凤城街办,,20,20,23,14,12,28,,90,78,20,17,2,14,0.4,0.4
2024-06-28T2300,3025A,113.0477,23.6344,清远市,技师学院,,,22,24,8,10,,,114,92,16,18,5,4,0.5,0.6
2024-06-28T2300,3318A,112.9903,23.7403,清远市,清新太和,,31,31,25,11,12,24,,76,57,20,14,5,5,0.5,0.5
2024-06-28T2300,3455A,113.076,23.7198,清远市,清城东城,,22,22,25,8,12,23,,110,82,24,14,5,5,0.4,0.4
2024-06-28T2300,2661A,107.6325,35.7357,庆阳市,庆阳五中,,34,21,41,9,17,106,,146,117,9,10,3,4,0.3,0.4
2024-06-28T2300,2662A,107.6364,35.7067,庆阳市,市环保局,,34,23,38,10,16,108,,145,120,7,7,10,7,0.3,0.4
2024-06-28T2300,1916A,103.7897,25.5035,曲靖市,环境监测站,,15,15,12,7,5,34,,48,42,7,6,3,2,0.5,0.5
2024-06-28T2300,1917A,103.8,25.5364,曲靖市,烟厂办公区,,18,16,13,12,6,34,,50,45,11,6,4,4,0.4,0.3
2024-06-28T2300,3376A,103.7947,25.462,曲靖市,南苑二区,,10,7,7,7,5,31,,53,44,8,6,4,4,0.5,0.5
2024-06-28T2300,3377A,103.7444,25.5261,曲靖市,曲靖师范学院,,13,13,12,7,6,39,,52,47,9,7,4,5,0.5,0.5
2024-06-28T2300,1264A,118.8692,28.9398,衢州市,环保大楼,,43,40,25,30,20,22,,55,49,30,21,4,4,0.6,0.5
2024-06-28T2300,1265A,118.8709,28.9666,衢州市,实验学校,,49,45,28,34,22,17,,55,48,36,21,6,5,0.4,0.3
2024-06-28T2300,1266A,118.8621,28.9808,衢州市,衢州学院,,40,40,22,24,16,11,,54,47,35,20,2,2,0.6,0.5
2024-06-28T2300,1611A,118.5819,24.9117,泉州市,涂山街,,18,18,24,3,7,34,,45,43,12,12,2,4,0.7,0.6
2024-06-28T2300,1612A,118.5972,24.8978,泉州市,津头埔,,19,19,22,8,7,35,,42,37,15,13,2,2,0.5,0.5
2024-06-28T2300,1613A,118.6663,24.9424,泉州市,万安,,19,19,20,3,6,34,,43,36,9,7,2,2,0.4,0.4
2024-06-28T2300,3529A,118.6333,24.9264,泉州市,城华南路,,19,19,18,9,7,25,,41,31,18,12,2,2,0.4,0.4
2024-06-28T2300,2626A,88.8876,29.2718,日喀则市,日喀则监测站,,39,8,6,3,4,124,,131,130,10,7,6,5,0.5,0.5
2024-06-28T2300,3726A,88.8781,29.2426,日喀则市,林业技术推广中心,,35,12,7,3,1,112,,133,131,10,8,6,6,0.4,0.3
2024-06-28T2300,1659A,119.471,35.4209,日照市,监测站,,34,19,27,9,13,106,,120,114,13,23,9,10,0.2,0.3
2024-06-28T2300,1660A,119.523,35.4216,日照市,市政府广场,,33,17,25,15,9,104,,118,112,16,10,12,11,0.5,0.5
2024-06-28T2300,1661A,119.5587,35.4044,日照市,港务局,,33,17,17,3,3,104,,112,111,4,7,10,9,0.3,0.4
2024-06-28T2300,3507A,119.5328,35.4625,日照市,职业技术学院,,31,12,21,3,9,97,,116,108,9,10,8,8,0.5,0.5
2024-06-28T2300,3604A,119.3266,35.1044,日照市,岚山环保分局,,34,29,33,7,9,106,,124,113,13,12,7,8,0.4,0.5
2024-06-28T2300,1835A,111.1922,34.7752,三门峡市,市政府,,48,48,63,21,27,144,,176,168,11,15,8,10,0.5,0.5
2024-06-28T2300,1836A,111.1587,34.7942,三门峡市,开发区,颗粒物(PM10),57,63,69,24,31,151,,189,179,13,14,10,12,0.4,0.4
2024-06-28T2300,3039A,111.1911,34.7829,三门峡市,三门峡市第一小学,,46,46,65,14,25,147,,186,176,9,12,8,11,0.5,0.5
2024-06-28T2300,3598A,111.1,34.7167,三门峡市,富达温泉假日酒店,颗粒物(PM10),53,56,68,27,32,132,,181,172,15,14,12,13,0.5,0.5
2024-06-28T2300,2324A,117.6211,26.2625,三明市,三钢,,24,24,29,8,13,6,,60,35,26,18,7,12,0.7,1.3
2024-06-28T2300,2325A,117.635,26.2714,三明市,三明二中,,23,23,26,10,12,10,,70,45,25,14,6,9,0.8,1
2024-06-28T2300,2326A,117.6028,26.2378,三明市,三元区政府,,26,25,29,18,13,8,,62,36,19,15,5,4,0.4,0.6
2024-06-28T2300,1876A,109.5078,18.2489,三亚市,河东子站,,10,10,10,3,3,32,,38,34,2,3,3,3,0.3,0.4
2024-06-28T2300,1877A,109.4964,18.2681,三亚市,河西子站,,12,12,11,3,4,27,,38,32,7,4,3,3,0.3,0.3
2024-06-28T2300,3540A,109.7348,18.3443,三亚市,君悦子站,,14,14,16,3,4,23,,41,36,10,4,3,3,0.4,0.4
2024-06-28T2300,2624A,91.7608,29.2313,山南市,山南监测站,,,,6,0,3,94,,89,89,4,4,5,5,0.3,0.3
2024-06-28T2300,2625A,91.7706,29.2436,山南市,山南人民医院,,30,7,8,6,5,95,,90,90,8,8,6,6,0.3,0.3
2024-06-28T2300,1674A,116.6794,23.3667,汕头市,金平子站,,15,10,16,3,8,48,,57,51,7,8,5,6,0.7,0.8
2024-06-28T2300,1675A,116.7244,23.3633,汕头市,龙湖子站,,14,9,15,3,5,44,,54,51,10,9,5,5,0.6,0.6
2024-06-28T2300,1676A,116.7258,23.2775,汕头市,濠江子站,,16,7,19,6,6,50,,64,56,5,6,4,4,0.8,0.8
2024-06-28T2300,1677A,116.7519,23.4714,汕头市,澄海子站,,14,14,18,9,9,38,,49,39,10,10,4,4,0.6,0.7
2024-06-28T2300,1678A,116.6092,23.2539,汕头市,潮阳子站,,18,18,17,3,9,35,,56,49,8,4,5,4,0.6,0.6
2024-06-28T2300,3444A,116.454,23.2684,汕头市,潮南峡山,,20,20,16,3,5,39,,51,45,3,4,4,4,0.7,0.7
2024-06-28T2300,3624A,116.4069,23.2533,汕头市,潮南子站,,15,15,17,8,5,42,,54,47,2,5,6,7,0.6,0.7
2024-06-28T2300,1693A,115.3653,22.775,汕尾市,市环保局,,13,6,13,3,5,39,,48,44,5,6,4,4,0.5,0.5
2024-06-28T2300,1694A,115.3706,22.7898,汕尾市,市政府,,,20,13,14,8,,,49,46,2,2,7,7,0.4,0.5
2024-06-28T2300,1695A,115.3622,22.7925,汕尾市,新城中学,,14,6,16,3,4,42,,50,47,2,3,4,4,0.5,0.5
2024-06-28T2300,2645A,109.9154,33.8715,商洛市,监测站,,44,44,62,18,28,102,,166,118,10,10,6,11,0.6,0.6
2024-06-28T2300,3045A,109.9643,33.8471,商洛市,商州区中学,,35,28,65,24,28,92,,163,116,14,12,3,9,0.5,0.5
2024-06-28T2300,2408A,115.6702,34.4285,商丘市,环境监测站,,18,18,37,9,17,54,,140,103,7,6,8,8,0.3,0.4
2024-06-28T2300,2409A,115.6458,34.4045,商丘市,粮食局,,18,16,36,12,14,56,,144,106,8,9,4,5,0.2,0.3
2024-06-28T2300,2410A,115.6293,34.3948,商丘市,睢阳区环保局,,24,24,44,12,17,53,,147,106,5,7,4,5,0.4,0.5
2024-06-28T2300,3171A,115.6071,34.4465,商丘市,梁园区档案局,,17,16,38,10,18,53,,140,105,6,8,7,8,0.3,0.4
2024-06-28T2300,1141A,121.4,31.238,上海市,普陀,,22,22,16,12,14,50,,47,47,27,27,4,4,0.4,0.4
2024-06-28T2300,1142A,121.478,31.2036,上海市,十五厂,,32,26,17,22,13,39,,44,43,37,30,6,6,0.8,0.6
2024-06-28T2300,1143A,121.467,31.3008,上海市,虹口,,30,24,18,21,14,40,,42,40,29,26,4,5,0.5,0.6
2024-06-28T2300,1144A,121.412,31.1654,上海市,徐汇上师大,,26,26,16,18,14,43,,46,46,31,28,6,6,0.7,0.7
2024-06-28T2300,1145A,121.536,31.2659,上海市,杨浦四漂,,23,23,16,15,13,40,,45,42,33,28,6,6,0.6,0.7
2024-06-28T2300,1147A,121.425,31.2261,上海市,静安监测站,,,,17,,15,44,,45,45,,27,,6,0.4,0.5
2024-06-28T2300,1148A,121.703,31.1907,上海市,浦东川沙,,26,20,16,18,17,52,,63,55,24,29,6,6,0.6,0.7
2024-06-28T2300,1149A,121.533,31.2284,上海市,浦东新区监测站,,25,25,16,15,12,32,,47,44,40,30,4,4,0.6,0.8
2024-06-28T2300,1150A,121.577,31.2071,上海市,浦东张江,,43,,16,30,13,50,,51,50,29,32,5,5,0.7,0.8
2024-06-28T2300,3265A,121.4316,31.3322,上海市,宝山庙行,,28,21,17,19,16,42,,46,39,28,23,7,7,0.6,0.7
2024-06-28T2300,3266A,121.8791,31.4662,上海市,崇明上实东滩,,21,9,15,6,11,66,,65,59,15,22,8,8,0.5,0.7
2024-06-28T2300,3268A,121.3162,31.2838,上海市,嘉定南翔,,19,19,17,12,14,49,,32,30,23,34,4,5,0.6,0.7
2024-06-28T2300,3269A,121.3359,30.7456,上海市,金山新城,,20,17,17,14,14,59,,80,73,17,19,6,7,0.3,0.4
2024-06-28T2300,3270A,121.4996,31.0739,上海市,闵行浦江,细颗粒物(PM2.5),53,,18,37,20,44,,61,60,34,27,5,5,0.4,0.6
2024-06-28T2300,3271A,121.2886,31.1663,上海市,青浦徐泾,,27,27,17,17,14,54,,45,45,19,28,5,5,0.4,0.5
2024-06-28T2300,3272A,121.2186,31.0378,上海市,松江图书馆,,,27,14,19,14,48,,61,59,26,21,6,6,,0.7
2024-06-28T2300,3273A,121.3902,31.2059,上海市,长宁仙霞,,23,23,16,12,13,48,,39,39,24,31,5,5,0.7,0.8
2024-06-28T2300,3274A,121.7965,31.0507,上海市,浦东惠南,,28,,15,19,14,59,,69,57,17,25,6,6,0.5,0.5
2024-06-28T2300,3544A,121.4891,30.925,上海市,奉贤南桥新城,,23,18,13,16,12,53,,68,62,24,23,5,5,0.5,0.5
2024-06-28T2300,2381A,118.005,28.4572,上饶市,百草园,,35,34,24,24,12,11,,32,27,25,15,5,6,0.4,0.6
2024-06-28T2300,2382A,117.9756,28.4436,上饶市,市监测站,,40,40,27,13,12,16,,57,45,23,16,3,7,0.8,0.7
2024-06-28T2300,2383A,117.9519,28.4628,上饶市,凤凰光学,,30,30,24,17,14,12,,57,43,31,16,49,18,0.9,0.8
2024-06-28T2300,3413A,118.1953,28.4401,上饶市,广丰区教体局,,40,40,25,20,14,16,,51,39,16,7,18,12,0.7,0.6
2024-06-28T2300,3685A,117.897,28.4315,上饶市,双创科技城,,36,36,30,18,17,16,,60,47,22,13,30,15,0.9,0.8
2024-06-28T2300,1669A,113.5824,24.7733,韶关市,市八中,,33,24,25,13,11,103,,103,103,10,8,20,10,0.4,0.5
2024-06-28T2300,1671A,113.5917,24.7972,韶关市,园林处,,,31,18,14,9,,,123,,12,10,8,12,0.6,0.7
2024-06-28T2300,1672A,113.6735,24.7791,韶关市,韶关学院,,32,24,23,13,11,101,,113,113,10,12,8,12,0.4,0.4
2024-06-28T2300,1673A,113.5971,24.6863,韶关市,曲江监测站,,31,31,24,11,9,88,,110,106,14,13,10,8,0.4,0.4
2024-06-28T2300,3622A,113.5556,24.8082,韶关市,碧湖山庄,,34,23,20,11,9,107,,120,120,11,7,16,14,0.3,0.3
2024-06-28T2300,2462A,111.5239,27.3033,邵阳市,市水土所,,14,9,26,6,13,42,,52,45,2,3,6,6,0.4,0.5
2024-06-28T2300,2463A,111.4733,27.2317,邵阳市,市一中,,16,16,28,11,16,43,,51,46,5,6,6,6,0.4,0.5
2024-06-28T2300,2464A,111.5283,27.2442,邵阳市,市化工厂,,14,10,24,3,13,42,,49,47,4,5,6,6,0.4,0.5
2024-06-28T2300,2465A,111.4503,27.2537,邵阳市,市罐头厂,,19,17,32,13,20,39,,50,44,6,8,5,6,0.3,0.4
2024-06-28T2300,2466A,111.4328,27.2272,邵阳市,市环保局,,12,,27,6,18,38,,48,44,7,6,4,5,0.1,0.7
2024-06-28T2300,1247A,120.6053,29.9928,绍兴市,城东开发委,,19,19,12,13,8,10,,44,26,23,10,4,5,0.6,0.5
2024-06-28T2300,2921A,120.5483,30.0003,绍兴市,树下王站,,25,25,13,14,12,7,,37,22,25,11,3,3,0.6,0.6
2024-06-28T2300,3408A,120.5683,29.9361,绍兴市,绍兴中专,,26,26,13,13,9,18,,50,35,19,10,2,2,0.7,0.4
2024-06-28T2300,3409A,120.4906,30.0861,绍兴市,柯桥区政府,,15,15,13,10,10,12,,41,25,30,14,5,5,0.6,0.4
2024-06-28T2300,3410A,120.8752,30.0249,绍兴市,重华小学,,33,32,16,23,12,21,,50,30,16,13,7,7,0.7,0.6
2024-06-28T2300,3411A,120.8369,30.0137,绍兴市,上虞中学,,25,24,15,17,10,32,,47,32,12,16,8,10,0.5,0.5
