timepoint,stationcode,longitude,latitude,area,positionname,primarypollutant,aqi,pm10,pm10_24h,pm2_5,pm2_5_24h,o3,o3_24h,o3_8h,o3_8h_24h,no2,no2_24h,so2,so2_24h,co,co_24h
2023-09-17T21:00:00,1001A,116.3621,39.8784,北京市,万寿西宫,细颗粒物(PM2.5),70,70,98,51,65,175,82,138,125,30,33,3,3,0.8,0.8
2023-09-17T21:00:00,1002A,116.2202,40.2915,北京市,定陵,,31,20,60,19,52,110,99,81,66,7,11,3,3,0.5,0.6
2023-09-17T21:00:00,1003A,116.4174,39.9289,北京市,东四,细颗粒物(PM2.5),64,70,92,46,57,187,98,148,135,29,30,1,4,0.8,0.7
2023-09-17T21:00:00,1004A,116.4072,39.8863,北京市,天坛,细颗粒物(PM2.5),62,61,81,44,60,167,67,135,119,33,29,3,2,0.8,0.7
2023-09-17T21:00:00,1005A,116.462,39.9365,北京市,农展馆,细颗粒物(PM2.5),87,83,93,64,59,175,73,137,118,33,29,1,3,0.8,0.7
2023-09-17T21:00:00,1006A,116.3392,39.9295,北京市,官园,细颗粒物(PM2.5),60,67,102,43,63,189,92,142,126,22,25,3,2,0.8,0.8
2023-09-17T21:00:00,1007A,116.2878,39.9611,北京市,海淀万柳,颗粒物(PM10),52,53,99,34,62,158,84,118,107,27,42,3,2,0.5,0.6
2023-09-17T21:00:00,1008A,116.6636,40.135,北京市,顺义新城,细颗粒物(PM2.5),82,85,99,60,64,186,57,141,116,21,22,1,3,0.7,0.6
2023-09-17T21:00:00,1009A,116.6275,40.3275,北京市,怀柔镇,,28,26,75,18,53,146,89,122,103,10,17,3,3,0.4,0.6
2023-09-17T21:00:00,1010A,116.2296,40.217,北京市,昌平镇,,43,39,77,30,62,110,72,93,74,13,32,3,3,0.6,0.7
2023-09-17T21:00:00,1011A,116.3966,39.9821,北京市,奥体中心,细颗粒物(PM2.5),77,56,77,56,62,151,92,123,115,28,34,1,2,0.7,0.7
2023-09-17T21:00:00,1012A,116.184,39.9136,北京市,古城,细颗粒物(PM2.5),62,67,101,44,64,163,92,124,115,30,36,3,3,0.9,0.9
2023-09-17T21:00:00,1015A,117.1444,39.1661,天津市,勤俭道,颗粒物(PM10),60,70,64,31,35,197,149,187,175,17,20,8,12,0.7,0.7
2023-09-17T21:00:00,1017A,117.237,39.1082,天津市,大直沽八号路,颗粒物(PM10),77,104,67,48,37,202,124,186,172,38,24,6,8,0.8,0.7
2023-09-17T21:00:00,1018A,117.202,39.0927,天津市,前进道,颗粒物(PM10),57,64,59,29,35,195,124,181,165,32,27,6,8,0.6,0.7
2023-09-17T21:00:00,1019A,117.1837,39.2133,天津市,淮河道,颗粒物(PM10),60,70,60,32,34,204,148,193,178,22,20,6,10,0.7,0.7
2023-09-17T21:00:00,1021A,117.307,39.0877,天津市,跃进路,细颗粒物(PM2.5),110,137,67,83,39,204,136,191,181,44,28,9,10,1.0,0.7
2023-09-17T21:00:00,1023A,117.707,39.0343,天津市,第四大街,细颗粒物(PM2.5),84,98,68,62,39,222,159,204,198,32,28,8,12,0.7,0.7
2023-09-17T21:00:00,1024A,117.457,38.8394,天津市,永明路,细颗粒物(PM2.5),75,86,57,55,35,231,134,195,184,34,22,12,14,0.7,0.6
2023-09-17T21:00:00,1026A,117.764,39.1587,天津市,汉北路,臭氧1小时,73,73,69,49,41,271,178,232,229,16,29,9,14,0.7,0.7
2023-09-17T21:00:00,1027A,117.157,38.9194,天津市,团泊洼,颗粒物(PM10),57,63,54,37,35,184,90,173,151,53,32,4,7,0.8,0.8
2023-09-17T21:00:00,1029A,114.4422,38.0444,石家庄市,职工医院,颗粒物(PM10),61,72,95,35,55,222,119,197,190,20,32,3,4,0.4,0.8
2023-09-17T21:00:00,1030A,114.6063,38.0266,石家庄市,高新区,"颗粒物(PM10),细颗粒物(PM2.5)",52,54,78,36,46,199,118,184,175,16,38,2,3,0.6,0.8
2023-09-17T21:00:00,1031A,114.4898,38.1328,石家庄市,西北水源,细颗粒物(PM2.5),75,73,111,55,62,229,113,186,178,31,41,2,3,0.8,0.9
2023-09-17T21:00:00,1032A,114.4586,38.0058,石家庄市,西南高教,颗粒物(PM10),58,66,79,23,46,219,99,190,179,28,36,1,2,0.6,0.9
2023-09-17T21:00:00,1033A,114.5331,38.0178,石家庄市,世纪公园,颗粒物(PM10),60,69,85,34,39,220,114,192,181,22,33,2,4,0.6,0.9
2023-09-17T21:00:00,1034A,114.509,38.0457,石家庄市,人民会堂,颗粒物(PM10),52,53,82,24,54,232,127,202,195,25,29,4,6,0.5,0.9
2023-09-17T21:00:00,1035A,114.3524,37.8911,石家庄市,封龙山,臭氧1小时,63,46,60,20,32,196,170,176,176,11,13,6,6,1.1,1
2023-09-17T21:00:00,1037A,118.131,39.6363,唐山市,雷达站,细颗粒物(PM2.5),69,86,85,50,50,216,161,197,194,23,25,4,6,0.7,0.7
2023-09-17T21:00:00,1038A,118.1725,39.6334,唐山市,物资局,颗粒物(PM10),80,109,90,41,43,203,158,190,186,33,30,11,9,1.1,0.8
2023-09-17T21:00:00,1040A,118.1705,39.6506,唐山市,十二中,细颗粒物(PM2.5),75,89,82,55,49,205,158,185,182,29,30,7,8,1.0,0.9
2023-09-17T21:00:00,1041A,118.1869,39.622,唐山市,小山,颗粒物(PM10),98,145,101,48,46,201,144,184,177,32,35,4,3,1.1,0.8
2023-09-17T21:00:00,1042A,119.5134,39.8207,秦皇岛市,北戴河环保局,臭氧1小时,63,32,39,8,18,202,170,161,155,14,15,9,11,0.3,0.5
2023-09-17T21:00:00,1043A,119.7493,40.0116,秦皇岛市,第一关,,49,48,44,34,32,146,69,135,116,70,54,9,10,0.4,0.5
2023-09-17T21:00:00,1044A,119.5897,39.9499,秦皇岛市,监测站,,41,41,53,20,28,137,114,127,127,22,48,6,9,0.5,0.6
2023-09-17T21:00:00,1046A,119.5251,39.9041,秦皇岛市,建设大厦,,50,50,64,19,20,150,103,138,136,24,36,2,8,0.4,0.5
2023-09-17T21:00:00,1048A,114.5302,36.6116,邯郸市,东污水处理厂,,48,48,56,29,41,151,105,145,135,22,26,6,10,0.4,0.6
2023-09-17T21:00:00,1049A,114.4918,36.5713,邯郸市,矿院,,48,48,49,30,37,153,90,145,133,31,30,6,7,0.5,0.6
2023-09-17T21:00:00,1050A,114.484,36.6133,邯郸市,丛台公园,,49,49,49,34,35,157,114,148,142,14,18,9,10,0.2,0.4
2023-09-17T21:00:00,1051A,115.493,38.8632,保定市,游泳馆,细颗粒物(PM2.5),88,92,74,65,47,206,128,185,179,36,31,13,14,0.9,0.7
2023-09-17T21:00:00,1052A,115.5213,38.8959,保定市,华电二区,细颗粒物(PM2.5),104,111,67,78,38,200,78,178,161,51,24,7,6,1.2,0.6
2023-09-17T21:00:00,1053A,115.4713,38.9108,保定市,接待中心,颗粒物(PM10),81,111,76,55,38,198,113,180,172,38,26,8,8,1.2,0.8
2023-09-17T21:00:00,1054A,115.4612,38.8416,保定市,地表水厂,颗粒物(PM10),85,120,79,54,38,197,96,173,162,65,33,12,13,0.9,0.5
2023-09-17T21:00:00,1056A,115.5086,38.8639,保定市,监测站,细颗粒物(PM2.5),84,114,74,62,46,211,109,191,182,43,28,6,5,1.2,0.7
2023-09-17T21:00:00,1057A,114.8883,40.8336,张家口市,人民公园,,31,18,57,2,30,151,97,134,129,10,12,2,3,0.3,0.5
2023-09-17T21:00:00,1059A,114.8687,40.8042,张家口市,五金库,,31,27,60,2,40,152,98,150,123,12,16,2,2,0.4,0.7
2023-09-17T21:00:00,1060A,114.8902,40.762,张家口市,世纪豪园,,28,27,57,19,40,144,84,133,122,21,16,1,3,0.3,0.5
2023-09-17T21:00:00,1061A,114.8916,40.8661,张家口市,北泵房,,29,17,50,8,34,157,92,138,131,8,10,6,7,0.3,0.5
2023-09-17T21:00:00,1062A,117.9531,40.9081,承德市,铁路,,47,47,61,12,35,141,83,129,120,29,35,7,8,0.5,0.6
2023-09-17T21:00:00,1063A,117.9392,40.9763,承德市,中国银行,,43,43,62,25,35,157,88,145,126,16,22,8,10,0.4,0.6
2023-09-17T21:00:00,1064A,117.9503,40.928,承德市,开发区,,40,33,53,28,38,166,94,151,140,20,26,6,7,0.5,0.6
2023-09-17T21:00:00,1065A,117.8051,40.9655,承德市,文化中心,颗粒物(PM10),54,58,66,15,37,156,92,146,129,19,33,6,9,0.4,0.5
2023-09-17T21:00:00,1066A,117.9268,41.0026,承德市,离宫,颗粒物(PM10),52,53,66,31,38,155,67,146,124,8,8,2,3,0.4,0.5
2023-09-17T21:00:00,1067A,116.6708,39.5111,廊坊市,药材公司,颗粒物(PM10),67,84,83,29,49,193,95,172,156,28,22,2,8,0.6,0.6
2023-09-17T21:00:00,1068A,116.7214,39.5589,廊坊市,开发区,细颗粒物(PM2.5),62,65,84,44,50,201,75,179,160,36,23,2,5,0.6,0.6
2023-09-17T21:00:00,1070A,116.7244,39.5269,廊坊市,北华航天学院,颗粒物(PM10),70,90,86,45,43,201,97,181,161,39,23,6,9,0.6,0.5
2023-09-17T21:00:00,1071A,116.8842,38.2991,沧州市,沧县城建局,颗粒物(PM10),51,52,59,29,33,189,119,182,159,28,28,5,10,0.3,0.5
2023-09-17T21:00:00,1072A,116.8584,38.3254,沧州市,电视转播站,颗粒物(PM10),54,58,61,31,36,193,126,186,167,17,20,7,10,0.4,0.5
2023-09-17T21:00:00,1073A,116.8709,38.3228,沧州市,市环保局,颗粒物(PM10),61,71,65,29,34,190,116,180,162,21,20,7,12,0.3,0.4
2023-09-17T21:00:00,1074A,115.6838,37.7541,衡水市,电机北厂,,46,46,56,24,27,182,136,174,167,16,11,3,5,0.3,0.3
2023-09-17T21:00:00,1075A,115.6303,37.7316,衡水市,市监测站,颗粒物(PM10),57,64,57,24,28,180,114,167,157,28,22,7,9,0.6,0.6
2023-09-17T21:00:00,1077A,114.4704,37.0886,邢台市,达活泉,颗粒物(PM10),59,67,69,27,29,190,89,170,155,34,26,6,9,0.5,0.8
2023-09-17T21:00:00,1078A,114.5062,37.0349,邢台市,邢师高专,,,67,69,28,24,170,,152,144,41,31,6,7,0.4,0.7
2023-09-17T21:00:00,1079A,114.5237,37.0851,邢台市,路桥公司,颗粒物(PM10),56,62,70,26,36,191,96,171,155,27,38,8,12,0.6,0.9
2023-09-17T21:00:00,1080A,114.4725,37.0719,邢台市,市环保局,颗粒物(PM10),64,77,69,26,30,190,85,170,152,32,25,4,8,0.5,0.9
2023-09-17T21:00:00,1081A,112.522,37.8873,太原市,尖草坪,,34,16,74,7,44,208,108,172,160,12,33,4,7,0.4,0.8
2023-09-17T21:00:00,1083A,112.434,38.0108,太原市,上兰,,,,,,,,,,,,,,,,
2023-09-17T21:00:00,1084A,112.469,37.7124,太原市,晋源,,35,34,71,6,43,194,110,169,155,14,26,4,8,0.4,0.9
2023-09-17T21:00:00,1085A,112.5583,37.7394,太原市,小店,,31,14,88,4,47,192,98,170,154,20,26,4,9,0.4,0.9
2023-09-17T21:00:00,1086A,112.5369,37.8692,太原市,桃园,,31,18,68,6,39,193,98,162,150,13,36,4,6,0.4,0.9
2023-09-17T21:00:00,1087A,112.57,37.8195,太原市,坞城,,35,16,67,6,41,205,109,176,161,14,29,7,11,0.4,0.8
2023-09-17T21:00:00,1088A,112.549,37.9854,太原市,南寨,,42,42,75,8,39,184,51,147,130,34,36,6,8,0.5,0.9
2023-09-17T21:00:00,1090A,111.6507,40.7517,呼和浩特市,呼市一监,颗粒物(PM10),60,70,37,21,15,134,67,119,112,38,19,9,8,0.5,0.5
2023-09-17T21:00:00,1091A,111.6572,40.8033,呼和浩特市,小召,颗粒物(PM10),51,51,39,16,14,124,86,112,109,30,22,9,7,0.5,0.4
2023-09-17T21:00:00,1094A,111.7516,40.8369,呼和浩特市,如意水处理厂,,40,40,25,9,9,132,70,119,112,44,26,9,9,0.5,0.4
2023-09-17T21:00:00,1095A,111.7276,40.8062,呼和浩特市,二十九中,,50,50,40,17,16,132,94,122,120,26,23,11,9,0.6,0.5
2023-09-17T21:00:00,1096A,111.5512,40.7866,呼和浩特市,工大金川校区,,39,39,40,17,15,136,82,121,116,30,24,10,8,0.5,0.4
2023-09-17T21:00:00,1097A,111.717,40.7612,呼和浩特市,化肥厂生活区,颗粒物(PM10),56,62,44,19,15,146,78,134,125,37,22,10,8,0.6,0.5
2023-09-17T21:00:00,1098A,123.6836,41.9339,沈阳市,森林路,,,,,,,,,,,,,,,,
2023-09-17T21:00:00,1099A,123.505,41.7406,沈阳市,浑南东路,颗粒物(PM10),56,62,82,34,37,183,122,166,161,31,41,10,17,0.9,1.1
2023-09-17T21:00:00,1100A,123.4231,41.6989,沈阳市,新秀街,颗粒物(PM10),56,61,91,32,35,175,107,156,150,42,53,20,33,0.9,1.3
2023-09-17T21:00:00,1102A,123.5903,41.8411,沈阳市,东陵路,颗粒物(PM10),56,62,62,39,36,193,110,172,164,28,26,7,11,0.9,0.9
2023-09-17T21:00:00,1103A,123.4264,41.8467,沈阳市,陵东街,,49,49,64,30,39,182,149,168,167,17,35,7,8,0.9,1
2023-09-17T21:00:00,1104A,123.4114,41.7653,沈阳市,文化路,颗粒物(PM10),52,53,89,32,49,185,145,164,162,19,52,9,17,0.9,1.3
2023-09-17T21:00:00,1105A,123.4678,41.7867,沈阳市,小河沿,,49,49,78,30,41,180,146,165,163,21,48,8,11,0.9,1.1
2023-09-17T21:00:00,1106A,123.4017,41.7972,沈阳市,太原街,颗粒物(PM10),51,52,79,27,47,186,146,170,168,18,45,10,15,0.8,1.1
2023-09-17T21:00:00,1108A,123.3783,41.9228,沈阳市,京沈街,颗粒物(PM10),51,51,76,35,47,184,137,168,162,34,60,12,12,0.9,1.1
2023-09-17T21:00:00,1109A,121.612,38.9741,大连市,甘井子,,39,39,21,24,15,116,91,109,104,29,22,4,4,0.4,0.4
2023-09-17T21:00:00,1110A,121.565,38.9511,大连市,周水子,,40,36,20,28,14,111,95,108,105,30,27,4,4,0.6,0.6
2023-09-17T21:00:00,1111A,121.5637,38.8845,大连市,星海三站,,39,22,17,24,12,131,124,124,124,11,12,7,5,0.3,0.3
2023-09-17T21:00:00,1112A,121.6302,38.9117,大连市,青泥洼桥,,35,29,17,24,11,120,96,108,107,16,15,6,5,0.5,0.5
2023-09-17T21:00:00,1113A,121.6251,38.8638,大连市,傅家庄,,41,14,12,13,10,141,129,130,130,14,7,8,7,0.6,0.6
2023-09-17T21:00:00,1114A,121.5213,38.8661,大连市,七贤岭,,35,27,9,24,10,143,70,128,119,14,8,5,5,0.4,0.3
2023-09-17T21:00:00,1115A,121.2529,38.8061,大连市,旅顺,,47,14,13,12,11,150,150,139,139,4,9,5,5,0.5,0.5
2023-09-17T21:00:00,1116A,121.7485,39.1311,大连市,金州,,33,33,21,20,14,153,68,131,114,16,15,6,7,0.3,0.4
2023-09-17T21:00:00,1117A,121.7811,39.0496,大连市,开发区,,37,20,20,16,14,116,116,107,107,16,24,5,5,0.5,0.5
2023-09-17T21:00:00,1118A,121.9762,39.0631,大连市,双D港,,28,16,15,12,11,123,89,114,104,16,14,6,7,0.4,0.4
2023-09-17T21:00:00,1119A,125.3325,43.9166,长春市,食品厂,颗粒物(PM10),64,78,67,45,32,161,84,148,131,71,43,6,6,0.9,0.7
2023-09-17T21:00:00,1120A,125.2863,43.9027,长春市,客车厂,"颗粒物(PM10),细颗粒物(PM2.5)",64,77,62,46,33,171,101,161,142,55,39,6,6,0.8,0.7
2023-09-17T21:00:00,1121A,125.2841,43.8463,长春市,邮电学院,颗粒物(PM10),62,74,54,32,29,173,88,163,142,42,27,5,5,0.7,0.6
2023-09-17T21:00:00,1122A,125.3716,43.8772,长春市,劳动公园,颗粒物(PM10),66,82,65,36,28,169,100,162,149,42,31,5,5,0.9,0.7
2023-09-17T21:00:00,1123A,125.3297,43.8805,长春市,园林处,颗粒物(PM10),57,63,57,32,28,168,115,160,149,30,32,7,7,0.7,0.7
2023-09-17T21:00:00,1124A,125.4605,43.79,长春市,净月潭,,35,35,33,21,21,160,68,136,116,14,12,6,6,0.5,0.5
2023-09-17T21:00:00,1125A,125.7194,43.515,长春市,甩湾子,,,,,,,,,,,,,,,,
2023-09-17T21:00:00,1126A,125.3863,43.8447,长春市,经开区环卫处,颗粒物(PM10),94,138,76,48,30,160,5,148,121,121,39,5,5,1.1,0.7
2023-09-17T21:00:00,1127A,125.245,43.7783,长春市,高新区管委会,细颗粒物(PM2.5),72,85,62,52,31,180,22,164,122,98,43,6,7,0.7,0.7
2023-09-17T21:00:00,1128A,125.1761,43.8325,长春市,岱山公园,颗粒物(PM10),82,113,72,46,35,180,11,164,138,146,49,5,4,0.8,0.7
2023-09-17T21:00:00,1129A,126.5422,45.755,哈尔滨市,岭北,颗粒物(PM10),60,70,52,38,23,139,73,118,113,23,16,6,10,0.8,0.9
2023-09-17T21:00:00,1130A,126.561,45.8167,哈尔滨市,松北商大,颗粒物(PM10),76,102,56,32,17,116,7,92,74,80,36,7,8,1.3,0.8
2023-09-17T21:00:00,1131A,126.979,45.5419,哈尔滨市,阿城会宁,,,74,109,26,23,116,18,103,82,47,21,,8,0.7,0.6
2023-09-17T21:00:00,1132A,126.599,45.7222,哈尔滨市,南岗学府路,细颗粒物(PM2.5),88,120,68,65,24,126,21,112,94,68,36,6,8,1.6,0.9
2023-09-17T21:00:00,1133A,126.689,45.7733,哈尔滨市,太平宏伟公园,颗粒物(PM10),111,172,96,51,24,116,12,97,82,88,35,5,7,1.3,0.7
2023-09-17T21:00:00,1134A,126.635,45.7667,哈尔滨市,道外承德广场,细颗粒物(PM2.5),105,110,61,79,25,118,18,105,92,90,46,7,8,1.2,0.7
2023-09-17T21:00:00,1135A,126.685,45.7319,哈尔滨市,香坊红旗大街,"颗粒物(PM10),细颗粒物(PM2.5)",85,120,61,63,29,124,18,103,83,102,46,39,28,1.3,0.7
2023-09-17T21:00:00,1136A,126.6411,45.7258,哈尔滨市,动力和平路,,,85,60,,,122,34,106,91,73,42,9,11,1.1,0.7
2023-09-17T21:00:00,1137A,126.593,45.7478,哈尔滨市,道里建国路,颗粒物(PM10),96,142,76,42,27,120,11,93,72,90,46,16,20,1.6,1.3
2023-09-17T21:00:00,1138A,126.615,45.61,哈尔滨市,平房东轻厂,颗粒物(PM10),66,82,57,28,20,116,24,104,78,73,34,7,8,0.7,0.5
2023-09-17T21:00:00,1139A,126.595,45.9855,哈尔滨市,呼兰师专,颗粒物(PM10),93,136,49,68,22,112,43,91,86,48,26,8,7,0.9,0.7
2023-09-17T21:00:00,1140A,126.6206,45.6842,哈尔滨市,省农科院,颗粒物(PM10),91,132,87,43,22,125,6,112,84,117,44,9,10,1.3,0.7
2023-09-17T21:00:00,1141A,121.4,31.238,上海市,普陀,细颗粒物(PM2.5),72,58,45,52,35,191,138,176,172,24,43,6,5,1.0,1
2023-09-17T21:00:00,1142A,121.478,31.2036,上海市,十五厂,细颗粒物(PM2.5),63,60,44,45,31,194,133,181,174,35,44,8,8,1.1,1
2023-09-17T21:00:00,1143A,121.467,31.3008,上海市,虹口,细颗粒物(PM2.5),60,63,49,43,37,203,133,182,177,35,48,8,8,1.0,1.1
2023-09-17T21:00:00,1144A,121.412,31.1654,上海市,徐汇上师大,细颗粒物(PM2.5),64,62,46,46,36,195,130,170,166,32,41,7,6,1.0,1
2023-09-17T21:00:00,1145A,121.536,31.2659,上海市,杨浦四漂,细颗粒物(PM2.5),75,76,49,55,41,230,127,186,177,52,41,7,8,1.1,1.3
2023-09-17T21:00:00,1147A,121.425,31.2261,上海市,静安监测站,,,46,41,40,36,204,,189,189,27,44,4,4,0.9,1
2023-09-17T21:00:00,1148A,121.703,31.1907,上海市,浦东川沙,细颗粒物(PM2.5),69,69,54,50,41,230,159,192,190,39,47,7,8,0.9,1
2023-09-17T21:00:00,1149A,121.533,31.2284,上海市,浦东新区监测站,颗粒物(PM10),57,63,49,39,35,195,139,176,173,26,38,6,7,0.9,0.9
2023-09-17T21:00:00,1150A,121.577,31.2071,上海市,浦东张江,细颗粒物(PM2.5),65,71,50,47,37,194,145,175,172,27,43,6,6,1.1,1.2
2023-09-17T21:00:00,1151A,118.8086,32.1065,南京市,迈皋桥,,38,38,35,22,20,195,54,170,143,22,18,3,5,0.6,0.7
2023-09-17T21:00:00,1152A,118.7538,32.0551,南京市,草场门,,44,44,34,24,23,181,60,165,144,54,32,2,4,1.0,0.9
2023-09-17T21:00:00,1153A,118.7794,32.0745,南京市,山西路,,41,41,39,22,22,195,76,179,160,25,19,3,5,0.6,0.7
2023-09-17T21:00:00,1154A,118.7752,32.0023,南京市,中华门,,36,36,33,22,22,159,55,148,128,52,31,4,4,1.1,1.1
2023-09-17T21:00:00,1155A,118.8109,32.0309,南京市,瑞金路,,46,46,37,19,18,166,38,155,130,45,24,5,5,0.6,0.5
2023-09-17T21:00:00,1156A,118.7997,32.0754,南京市,玄武湖,,36,36,36,15,18,184,72,168,146,25,20,4,4,0.8,0.9
2023-09-17T21:00:00,1157A,118.6414,32.0931,南京市,浦口,,45,45,35,21,21,200,99,169,149,16,20,4,6,0.7,0.7
2023-09-17T21:00:00,1158A,118.7356,31.9996,南京市,奥体中心,,39,39,34,24,24,173,84,161,142,33,29,6,7,0.7,0.8
2023-09-17T21:00:00,1159A,118.9125,32.1028,南京市,仙林大学城,,31,31,32,14,22,180,91,161,144,17,17,8,8,0.7,0.8
2023-09-17T21:00:00,1160A,120.561,31.2472,苏州市,上方山,,32,29,35,22,23,135,66,111,90,7,15,7,8,0.6,0.8
2023-09-17T21:00:00,1162A,120.591,31.3019,苏州市,彩香,,43,40,34,30,25,154,4,135,92,81,28,6,6,1.2,1
2023-09-17T21:00:00,1163A,120.596,31.3264,苏州市,轧钢厂,,46,46,42,26,26,172,8,148,103,75,29,8,8,1.1,1
2023-09-17T21:00:00,1164A,120.613,31.2703,苏州市,吴中区,,49,49,38,28,28,177,19,158,108,78,33,7,8,1.2,1
2023-09-17T21:00:00,1165A,120.543,31.2994,苏州市,苏州新区,,46,33,37,20,25,163,19,143,109,91,24,6,6,1.1,1
2023-09-17T21:00:00,1166A,120.669,31.3097,苏州市,苏州工业园区,细颗粒物(PM2.5),54,48,38,38,29,180,100,153,134,54,33,8,8,1.1,1
2023-09-17T21:00:00,1167A,120.641,31.3708,苏州市,相城区,细颗粒物(PM2.5),52,43,35,36,29,180,96,161,137,51,36,9,9,0.9,0.9
2023-09-17T21:00:00,1168A,120.9098,31.9663,南通市,狼山街道,,27,15,25,5,15,185,84,153,137,14,27,7,10,0.5,0.8
2023-09-17T21:00:00,1169A,120.86,32.0005,南通市,虹桥,,25,21,35,12,26,178,78,144,131,15,32,6,8,0.7,0.9
2023-09-17T21:00:00,1170A,120.87,32.02,南通市,城中,,24,16,29,4,20,158,74,133,120,14,28,7,8,0.5,0.7
2023-09-17T21:00:00,1171A,120.94,31.93,南通市,星湖花园,,23,17,30,8,18,195,72,164,148,14,35,6,9,0.5,0.9
2023-09-17T21:00:00,1172A,120.81,32.0417,南通市,紫琅学院,,22,12,26,7,16,159,68,132,116,23,26,6,7,0.7,0.8
2023-09-17T21:00:00,1173A,119.176,34.5885,连云港市,市环境监测站,细颗粒物(PM2.5),64,70,46,46,25,178,99,162,151,20,15,10,9,0.6,0.5
2023-09-17T21:00:00,1177A,117.179,34.2761,徐州市,黄河新村,颗粒物(PM10),60,70,47,41,34,159,89,148,139,26,18,5,5,0.6,0.5
2023-09-17T21:00:00,1178A,117.1918,34.2384,徐州市,淮塔,颗粒物(PM10),60,70,59,42,33,162,97,150,140,22,23,9,9,0.5,0.5
2023-09-17T21:00:00,1180A,117.256,34.2153,徐州市,新城区,,,54,57,32,32,154,,146,139,39,31,6,6,0.6,0.6
2023-09-17T21:00:00,1181A,117.244,34.2911,徐州市,桃园路,,46,46,50,29,28,162,103,154,143,12,18,10,10,0.6,0.5
2023-09-17T21:00:00,1182A,117.2933,34.2778,徐州市,农科院,,46,36,47,32,30,155,102,143,134,14,28,8,9,0.5,0.5
2023-09-17T21:00:00,1186A,119.389,32.3761,扬州市,邗江监测站,,,,51,,28,196,138,175,171,36,32,7,8,0.6,0.7
2023-09-17T21:00:00,1188A,120.269,31.4867,无锡市,雪浪,,34,34,31,19,20,176,67,155,134,18,12,4,5,0.7,0.8
2023-09-17T21:00:00,1189A,120.275,31.6219,无锡市,黄巷,,37,37,51,24,34,177,80,154,134,46,44,7,8,1.0,1.1
2023-09-17T21:00:00,1190A,120.294,31.56,无锡市,曹张,二氧化氮,60,58,36,34,33,169,3,149,115,120,43,10,9,1.1,1
2023-09-17T21:00:00,1191A,120.242,31.5031,无锡市,漆塘,,42,41,32,29,23,176,67,150,126,15,13,5,6,0.8,0.8
2023-09-17T21:00:00,1192A,120.3489,31.5863,无锡市,东亭,,46,46,47,31,34,195,48,170,138,62,30,4,4,1.1,1
2023-09-17T21:00:00,1193A,120.354,31.5475,无锡市,旺庄,颗粒物(PM10),52,53,44,34,34,193,64,168,139,43,28,10,10,1.0,1
2023-09-17T21:00:00,1194A,120.245,31.5631,无锡市,荣巷,,29,29,34,17,26,186,88,162,141,6,8,9,10,0.7,0.8
2023-09-17T21:00:00,1195A,120.299,31.6817,无锡市,堰桥,,,,49,,35,204,51,179,153,59,33,8,9,,1.1
2023-09-17T21:00:00,1196A,119.9633,31.762,常州市,市监测站,,50,42,41,35,30,182,60,162,135,64,38,8,8,0.8,0.7
2023-09-17T21:00:00,1200A,119.9468,31.7069,常州市,武进监测站,,47,47,43,30,29,186,76,167,135,36,28,10,8,0.8,0.8
2023-09-17T21:00:00,1201A,119.9255,31.9087,常州市,安家,颗粒物(PM10),56,62,42,38,27,196,59,167,130,51,27,7,8,0.8,0.7
2023-09-17T21:00:00,1203A,119.6707,32.1875,镇江市,新区办事处,,,82,50,70,34,190,47,164,140,,28,3,4,1.0,1
2023-09-17T21:00:00,1204A,119.4974,32.1968,镇江市,职教中心,细颗粒物(PM2.5),64,52,42,46,36,214,112,186,163,29,32,4,4,0.6,0.6
2023-09-17T21:00:00,1205A,119.4303,32.1328,镇江市,丹徒区监测站,,49,45,46,34,34,183,97,165,150,27,27,3,3,0.7,0.7
2023-09-17T21:00:00,1206A,119.905,32.4878,泰州市,公园路,颗粒物(PM10),53,56,35,31,25,141,74,129,116,19,17,7,7,1.0,0.8
2023-09-17T21:00:00,1207A,119.9189,32.4625,泰州市,莲花,颗粒物(PM10),52,54,33,31,22,150,84,134,126,22,18,6,6,0.7,0.7
2023-09-17T21:00:00,1209A,119.888,32.4639,泰州市,留学生创业园,颗粒物(PM10),54,58,36,33,22,158,94,139,132,23,22,8,9,0.8,0.7
2023-09-17T21:00:00,1210A,119.036,33.5981,淮安市,钵池山,,36,36,31,23,22,163,87,146,131,19,18,7,7,0.8,0.8
2023-09-17T21:00:00,1211A,119.007,33.575,淮安市,北京南路,,39,39,34,20,22,160,86,141,130,26,25,10,10,0.7,0.7
2023-09-17T21:00:00,1212A,118.989,33.6067,淮安市,市监测站,,39,39,41,19,20,160,100,144,134,20,27,9,8,0.7,0.8
2023-09-17T21:00:00,1213A,119.135,33.5039,淮安市,楚州区监测站,细颗粒物(PM2.5),54,42,31,38,21,143,59,129,110,39,28,8,9,0.7,0.6
2023-09-17T21:00:00,1214A,119.0186,33.6297,淮安市,淮阴区监测站,,44,44,42,26,23,170,89,146,128,27,30,8,8,0.7,0.8
2023-09-17T21:00:00,1215A,120.118,33.4022,盐城市,盐城电厂,,33,27,27,14,14,154,103,148,135,6,14,6,7,0.4,0.4
2023-09-17T21:00:00,1216A,120.156,33.3942,盐城市,市监测站,,32,30,25,21,12,174,101,164,148,14,18,6,7,0.3,0.3
2023-09-17T21:00:00,1218A,120.2144,33.38,盐城市,开发区管委会,,30,25,22,21,11,157,90,144,125,12,14,9,10,0.3,0.2
2023-09-17T21:00:00,1220A,118.293,33.9528,宿迁市,宿迁学院,,35,35,43,20,30,149,80,134,110,42,42,7,8,0.6,0.6
2023-09-17T21:00:00,1221A,118.2442,33.9592,宿迁市,宿迁中学,,41,41,44,23,26,137,105,126,118,21,25,7,8,0.7,0.7
2023-09-17T21:00:00,1223A,120.2072,30.2111,杭州市,滨江,颗粒物(PM10),51,51,28,28,14,154,126,133,133,27,19,9,7,0.9,0.9
2023-09-17T21:00:00,1224A,120.0633,30.2747,杭州市,西溪,,34,34,18,15,10,121,98,103,92,12,15,3,3,0.8,0.7
2023-09-17T21:00:00,1226A,120.3461,30.3153,杭州市,下沙,,39,39,27,27,17,156,116,141,139,33,28,3,3,0.5,0.5
2023-09-17T21:00:00,1227A,120.1269,30.2456,杭州市,卧龙桥,,25,22,20,17,13,127,32,112,80,14,11,1,2,0.7,0.7
2023-09-17T21:00:00,1228A,120.1903,30.2692,杭州市,浙江农大,,36,30,20,23,15,131,114,120,120,20,18,7,7,0.8,0.8
2023-09-17T21:00:00,1230A,120.1197,30.3119,杭州市,和睦小学,,36,28,18,21,14,137,114,130,129,27,21,8,7,0.9,0.8
2023-09-17T21:00:00,1231A,120.3019,30.4183,杭州市,临平镇,颗粒物(PM10),59,67,30,18,18,167,119,150,144,27,26,4,4,0.7,0.7
2023-09-17T21:00:00,1232A,120.2697,30.1819,杭州市,城厢镇,细颗粒物(PM2.5),79,76,36,58,18,157,101,128,126,36,17,7,6,0.9,0.8
2023-09-17T21:00:00,1233A,120.0883,30.1808,杭州市,云栖,,33,30,25,23,12,113,33,99,80,20,8,7,7,0.7,0.7
2023-09-17T21:00:00,1234A,121.8358,29.911,宁波市,区环保大楼,臭氧1小时,63,33,26,26,19,179,170,159,156,20,33,2,4,0.9,0.8
2023-09-17T21:00:00,1235A,121.56,29.82,宁波市,万里学院,臭氧1小时,69,42,32,27,20,210,175,184,184,20,28,6,6,0.8,0.8
2023-09-17T21:00:00,1236A,121.713,29.9572,宁波市,龙赛医院,臭氧1小时,57,49,43,20,21,187,165,162,152,18,37,8,9,0.7,0.7
2023-09-17T21:00:00,1239A,121.633,29.7733,宁波市,钱湖水厂,,,,36,26,24,221,,185,185,,17,,6,,0.8
2023-09-17T21:00:00,1240A,121.5856,29.8635,宁波市,太古小学,,48,42,32,27,22,195,152,167,167,17,27,6,6,0.8,0.8
2023-09-17T21:00:00,1241A,121.524,29.8674,宁波市,市环境监测中心,臭氧1小时,68,38,29,23,18,193,174,171,171,13,20,8,8,0.7,0.6
2023-09-17T21:00:00,1242A,120.634,28.0089,温州市,瓯海,,28,26,30,19,18,176,80,133,131,14,17,5,7,0.6,0.5
2023-09-17T21:00:00,1243A,120.6748,27.9939,温州市,南浦,,29,21,31,14,16,179,92,134,134,4,13,5,6,0.5,0.5
2023-09-17T21:00:00,1244A,120.76,27.9747,温州市,龙湾,,28,13,33,8,14,172,88,139,134,15,21,4,5,0.5,0.5
2023-09-17T21:00:00,1245A,120.6709,28.0167,温州市,市站,,24,22,33,12,17,165,74,123,121,25,22,5,6,0.5,0.5
2023-09-17T21:00:00,1247A,120.6053,29.9928,绍兴市,城东开发委,"颗粒物(PM10),细颗粒物(PM2.5)",58,65,32,41,18,145,93,127,124,35,17,13,6,0.7,0.8
2023-09-17T21:00:00,1250A,120.0751,30.8669,湖州市,城西水厂,,30,27,38,16,25,191,63,169,154,59,38,2,3,0.7,0.7
2023-09-17T21:00:00,1252A,120.7436,30.778,嘉兴市,清河小学,颗粒物(PM10),54,58,37,37,23,185,99,171,157,56,34,4,4,0.8,0.8
2023-09-17T21:00:00,1253A,120.726,30.7478,嘉兴市,嘉兴学院,细颗粒物(PM2.5),64,58,36,46,32,182,110,162,152,33,36,4,4,0.8,0.7
2023-09-17T21:00:00,1255A,121.273,28.6459,台州市,黄岩环保大楼,,46,46,29,28,19,127,75,110,102,12,11,6,6,0.7,0.6
2023-09-17T21:00:00,1256A,121.419,28.6542,台州市,台州环保大楼,,42,36,32,22,18,134,132,122,122,8,11,5,6,0.6,0.5
2023-09-17T21:00:00,1257A,121.377,28.5773,台州市,路桥田洋王,,38,32,30,26,20,125,113,115,113,14,13,4,5,0.5,0.5
2023-09-17T21:00:00,1258A,122.122,30.0203,舟山市,定海檀枫,,40,34,25,26,16,138,127,129,129,16,13,6,6,0.8,0.6
2023-09-17T21:00:00,1259A,122.3094,29.9558,舟山市,普陀东港,,49,32,26,21,16,206,154,189,186,14,16,5,5,0.7,0.6
2023-09-17T21:00:00,1260A,122.19,29.9944,舟山市,临城新区,臭氧1小时,59,34,26,21,15,187,167,167,166,15,13,8,8,0.7,0.6
2023-09-17T21:00:00,1262A,119.647,29.077,金华市,十五中,,24,24,20,12,14,133,52,120,104,30,18,3,4,0.7,0.6
2023-09-17T21:00:00,1263A,119.686,29.1029,金华市,监测站,,48,48,28,20,15,128,57,113,97,29,20,5,5,0.7,0.7
2023-09-17T21:00:00,1264A,118.8692,28.9398,衢州市,环保大楼,,38,38,28,22,16,107,21,90,74,40,19,4,5,0.7,0.7
2023-09-17T21:00:00,1265A,118.8709,28.9666,衢州市,实验学校,,37,37,26,17,12,106,18,96,78,42,20,4,6,0.5,0.5
2023-09-17T21:00:00,1266A,118.8621,28.9808,衢州市,衢州学院,,25,25,26,13,16,106,10,97,78,43,24,6,7,0.4,0.5
2023-09-17T21:00:00,1267A,119.914,28.4514,丽水市,监测站大楼,,26,24,21,18,10,108,55,91,84,26,14,6,6,0.6,0.5
2023-09-17T21:00:00,1268A,119.93,28.4586,丽水市,莲都小学,,33,33,26,14,8,108,75,96,91,16,12,5,5,0.5,0.4
2023-09-17T21:00:00,1269A,119.879,28.4231,丽水市,余庄前,,25,25,24,11,7,129,22,100,72,14,11,5,6,0.5,0.5
2023-09-17T21:00:00,1270A,117.1959,31.7848,合肥市,明珠广场,,42,41,42,29,27,142,94,132,125,29,35,6,6,0.8,0.8
2023-09-17T21:00:00,1271A,117.3072,31.8764,合肥市,三里街,颗粒物(PM10),53,56,48,31,28,129,81,121,112,40,29,6,6,0.6,0.6
2023-09-17T21:00:00,1272A,117.2588,31.8707,合肥市,琥珀山庄,,41,41,42,24,30,145,88,140,130,33,24,5,5,0.7,0.7
2023-09-17T21:00:00,1273A,117.1604,31.9052,合肥市,董铺水库,,36,36,36,19,17,143,110,138,132,18,18,5,5,0.5,0.4
2023-09-17T21:00:00,1274A,117.25,31.8571,合肥市,长江中路,颗粒物(PM10),51,51,51,29,29,133,89,130,121,32,24,7,7,0.8,0.7
2023-09-17T21:00:00,1275A,117.266,31.9436,合肥市,庐阳区,颗粒物(PM10),51,51,53,31,30,142,90,132,120,34,38,5,6,0.6,0.7
2023-09-17T21:00:00,1276A,117.336,31.8586,合肥市,瑶海区,颗粒物(PM10),62,73,55,27,24,119,68,112,100,42,34,5,5,0.7,0.8
2023-09-17T21:00:00,1277A,117.3027,31.7964,合肥市,包河区,,39,39,45,22,28,135,104,123,120,18,37,7,8,0.5,0.6
2023-09-17T21:00:00,1278A,117.2776,31.7385,合肥市,滨湖新区,,36,29,35,19,22,136,115,126,126,11,15,6,6,0.6,0.7
2023-09-17T21:00:00,1279A,117.1318,31.8403,合肥市,高新区,,36,36,42,25,28,135,109,132,126,20,25,8,6,0.7,0.7
2023-09-17T21:00:00,1280A,119.3903,26.0543,福州市,鼓山,,,,,,,,,,,,,,,,
2023-09-17T21:00:00,1282A,119.2681,26.0504,福州市,师大,细颗粒物(PM2.5),70,83,51,51,28,185,128,148,148,17,14,5,4,0.5,0.4
2023-09-17T21:00:00,1283A,119.2984,26.1028,福州市,五四北路,细颗粒物(PM2.5),68,71,54,49,36,173,122,150,150,11,12,5,4,0.3,0.3
2023-09-17T21:00:00,1284A,119.2648,26.0768,福州市,杨桥西路,颗粒物(PM10),66,82,56,46,31,172,128,144,144,16,16,4,5,0.4,0.4
2023-09-17T21:00:00,1285A,119.317,26.0746,福州市,紫阳,细颗粒物(PM2.5),67,72,54,48,33,163,112,144,141,18,16,5,6,0.5,0.5
2023-09-17T21:00:00,1286A,118.1608,24.8169,厦门市,溪东,,,,,,,,,,,,,,,,
2023-09-17T21:00:00,1287A,118.1514,24.4767,厦门市,洪文,,11,11,47,4,21,140,32,92,55,14,25,4,5,0.2,0.4
2023-09-17T21:00:00,1288A,118.0661,24.4444,厦门市,鼓浪屿,,10,7,48,3,34,123,32,84,52,10,28,2,7,0.3,0.6
2023-09-17T21:00:00,1290A,115.8931,28.6843,南昌市,省外办,,33,33,36,17,23,118,64,110,98,9,24,4,3,0.8,0.8
2023-09-17T21:00:00,1291A,115.8886,28.7003,南昌市,省林业公司,,36,36,35,14,19,120,56,108,90,18,34,4,5,0.7,0.9
2023-09-17T21:00:00,1292A,115.8126,28.7442,南昌市,林科所,,24,24,24,7,10,145,58,130,106,17,23,6,6,0.9,0.9
2023-09-17T21:00:00,1294A,115.8518,28.687,南昌市,建工学校,,26,26,38,17,18,132,48,119,101,28,27,8,8,0.8,0.8
2023-09-17T21:00:00,1295A,115.8921,28.6424,南昌市,象湖,,41,41,36,15,17,132,52,120,105,19,26,6,6,0.5,0.6
2023-09-17T21:00:00,1296A,115.7423,28.7996,南昌市,武术学校,,39,16,19,27,19,114,24,75,40,6,6,3,2,0.3,0.4
2023-09-17T21:00:00,1298A,115.9314,28.6842,南昌市,省站,,29,29,37,15,18,148,64,118,104,11,19,6,6,0.8,0.8
2023-09-17T21:00:00,1299A,116.9862,36.6114,济南市,科干所,颗粒物(PM10),54,58,60,29,33,180,123,175,166,17,23,5,7,0.5,0.5
2023-09-17T21:00:00,1300A,116.9376,36.665,济南市,农科所,颗粒物(PM10),56,61,63,32,29,173,112,164,150,25,36,6,7,0.5,0.5
2023-09-17T21:00:00,1301A,117.1265,36.6734,济南市,开发区,,46,46,62,29,32,166,102,162,144,35,35,5,7,0.7,0.7
2023-09-17T21:00:00,1303A,117.0624,36.6868,济南市,省种子仓库,颗粒物(PM10),54,58,71,31,41,177,103,173,155,39,45,4,5,0.6,0.6
2023-09-17T21:00:00,1304A,116.9489,36.6447,济南市,机床二厂,颗粒物(PM10),52,54,71,27,31,172,122,168,157,28,39,6,6,0.6,0.6
2023-09-17T21:00:00,1305A,117.0495,36.663,济南市,市监测站,颗粒物(PM10),51,51,65,32,35,178,129,174,159,36,41,2,4,0.5,0.6
2023-09-17T21:00:00,1306A,116.7675,36.5484,济南市,长清党校,,49,49,52,27,31,180,154,176,173,20,26,4,5,0.4,0.4
2023-09-17T21:00:00,1307A,120.6659,36.2403,青岛市,仰口,,45,36,20,31,16,111,111,98,98,12,11,1,2,0.5,0.3
2023-09-17T21:00:00,1310A,120.4134,36.0658,青岛市,市南区东部子站,臭氧1小时,54,29,30,12,13,175,163,166,166,7,23,6,6,0.5,0.5
2023-09-17T21:00:00,1311A,120.3664,36.1032,青岛市,四方区子站,,48,29,39,12,18,188,153,170,169,15,39,7,8,0.6,0.7
2023-09-17T21:00:00,1312A,120.2994,36.054,青岛市,市南区西部子站,臭氧1小时,67,31,29,17,11,194,173,178,178,7,22,6,6,0.6,0.5
2023-09-17T21:00:00,1313A,120.4581,36.0858,青岛市,崂山区子站,臭氧1小时,54,24,24,14,15,167,163,159,159,8,20,9,8,0.3,0.3
2023-09-17T21:00:00,1314A,120.1983,35.9608,青岛市,黄岛区子站,臭氧1小时,75,39,32,20,18,192,180,180,179,13,29,9,8,0.7,0.6
2023-09-17T21:00:00,1315A,120.3999,36.3083,青岛市,城阳区子站,,44,44,39,17,16,204,117,176,159,31,29,5,6,0.7,0.6
2023-09-17T21:00:00,1316A,113.69031,34.76122,郑州市,烟厂,颗粒物(PM10),55,59,62,25,26,179,125,172,163,24,22,2,5,0.7,0.6
2023-09-17T21:00:00,1317A,113.65724,34.77134,郑州市,郑纺机,颗粒物(PM10),51,51,54,28,25,177,122,168,159,27,21,2,4,0.9,0.8
2023-09-17T21:00:00,1318A,113.67526,34.80246,郑州市,银行学校,,,,47,,20,174,135,169,163,,21,5,6,0.7,0.5
2023-09-17T21:00:00,1319A,113.56746,34.81334,郑州市,供水公司,颗粒物(PM10),58,66,60,30,25,166,124,155,148,26,25,4,5,0.7,0.7
2023-09-17T21:00:00,1320A,113.7329,34.7178,郑州市,经开区管委,颗粒物(PM10),63,76,64,35,31,171,85,160,145,33,28,4,6,0.6,0.6
2023-09-17T21:00:00,1321A,113.73961,34.77172,郑州市,四十七中,颗粒物(PM10),63,75,57,35,28,168,102,159,147,26,23,5,7,0.7,0.7
2023-09-17T21:00:00,1322A,113.60532,34.74838,郑州市,市监测站,颗粒物(PM10),58,66,59,28,24,167,122,161,153,30,23,6,7,0.7,0.6
2023-09-17T21:00:00,1323A,113.64164,34.7525,郑州市,河医大,颗粒物(PM10),52,54,54,25,23,166,124,158,152,21,18,7,7,0.7,0.7
2023-09-17T21:00:00,1324A,113.51488,34.91089,郑州市,岗李水库,,,,,,,,,,,,,,,,
2023-09-17T21:00:00,1325A,114.3677,30.5584,武汉市,东湖梨园,,39,39,37,24,22,146,60,134,114,27,27,8,10,0.7,0.7
2023-09-17T21:00:00,1326A,114.2529,30.558,武汉市,汉阳月湖,,45,45,41,19,21,125,32,118,100,69,43,8,9,0.7,0.8
2023-09-17T21:00:00,1327A,114.282,30.6189,武汉市,汉口花桥,,40,40,46,20,27,137,72,126,111,34,33,6,7,0.7,0.8
2023-09-17T21:00:00,1328A,114.3025,30.5332,武汉市,武昌紫阳,,32,32,37,20,23,157,92,142,125,34,37,7,8,0.7,0.8
2023-09-17T21:00:00,1329A,114.3646,30.6217,武汉市,青山钢花,细颗粒物(PM2.5),64,53,49,46,35,172,86,152,131,38,32,10,11,0.9,0.9
2023-09-17T21:00:00,1330A,114.1566,30.4825,武汉市,沌口新区,,35,30,48,24,36,165,75,145,131,34,45,8,10,0.6,0.8
2023-09-17T21:00:00,1331A,114.3014,30.5944,武汉市,汉口江滩,,44,44,39,22,23,161,56,132,108,50,41,7,9,0.8,0.9
2023-09-17T21:00:00,1333A,114.135,30.6319,武汉市,吴家山,,,,42,29,25,173,60,156,137,49,39,9,10,0.9,0.9
2023-09-17T21:00:00,1334A,113.8454,30.2917,武汉市,沉湖七壕,,39,39,27,27,15,137,82,122,117,29,29,4,4,0.8,0.7
2023-09-17T21:00:00,1335A,113.0833,28.2325,长沙市,经开区环保局,,26,18,29,18,20,132,54,116,103,28,22,5,7,0.5,0.6
2023-09-17T21:00:00,1336A,112.8872,28.2189,长沙市,高开区环保局,,32,32,37,17,23,133,81,115,106,15,18,7,8,0.7,0.8
2023-09-17T21:00:00,1337A,113.0792,28.2053,长沙市,马坡岭,,41,41,35,17,25,140,53,125,109,32,21,6,7,0.6,0.6
2023-09-17T21:00:00,1338A,112.9394,28.19,长沙市,湖南师范大学,,43,43,37,24,24,136,32,110,86,37,18,5,6,0.8,1
2023-09-17T21:00:00,1339A,113.0178,28.1322,长沙市,雨花区环保局,,35,35,32,17,20,131,47,114,100,29,19,6,8,0.9,0.8
2023-09-17T21:00:00,1340A,112.9792,28.2597,长沙市,伍家岭,,43,43,44,20,19,134,46,113,95,39,29,4,4,0.7,0.7
2023-09-17T21:00:00,1341A,113.0014,28.1944,长沙市,火车新站,,40,40,42,24,23,130,49,112,98,32,28,6,8,0.7,0.8
2023-09-17T21:00:00,1342A,112.9844,28.1178,长沙市,天心区环保局,,35,25,31,24,34,134,56,117,104,27,26,3,5,0.5,0.6
2023-09-17T21:00:00,1343A,112.8908,28.1308,长沙市,湖南中医药大学,颗粒物(PM10),56,61,47,31,22,126,3,115,90,68,26,4,4,1.5,1.2
2023-09-17T21:00:00,1344A,112.9581,28.3611,长沙市,沙坪,,48,48,43,29,21,142,61,123,106,14,10,6,7,0.4,0.4
2023-09-17T21:00:00,1345A,113.2347,23.1423,广州市,广雅中学,,24,24,24,11,14,143,49,111,104,27,31,6,7,0.8,0.9
2023-09-17T21:00:00,1346A,113.2612,23.105,广州市,市五中,,26,26,25,11,16,151,44,124,117,17,20,5,7,0.6,0.7
2023-09-17T21:00:00,1348A,113.3478,23.0916,广州市,广东商学院,,30,30,28,17,15,148,37,123,110,38,30,3,5,0.7,0.5
2023-09-17T21:00:00,1349A,113.4332,23.1047,广州市,市八十六中,,34,34,28,12,13,156,28,124,114,47,28,6,7,0.7,0.7
2023-09-17T21:00:00,1350A,113.3505,22.9483,广州市,番禺中学,,21,21,25,8,11,151,44,122,108,26,31,5,6,0.6,0.6
2023-09-17T21:00:00,1351A,113.2146,23.3916,广州市,花都师范,,43,43,26,21,12,143,69,111,108,48,27,7,6,0.8,0.7
2023-09-17T21:00:00,1352A,113.2597,23.1331,广州市,市监测站,,19,19,24,10,12,145,49,121,112,29,32,6,7,0.6,0.6
2023-09-17T21:00:00,1353A,113.5618,23.312,广州市,九龙镇镇龙,,33,33,24,18,13,104,20,84,72,44,19,4,4,0.5,0.4
2023-09-17T21:00:00,1354A,113.2765,23.1544,广州市,麓湖,,27,27,24,13,14,154,48,118,114,21,25,6,6,0.6,0.7
2023-09-17T21:00:00,1355A,113.443,23.3035,广州市,帽峰山森林公园,,25,25,16,17,10,115,52,88,87,30,13,7,6,0.5,0.4
2023-09-17T21:00:00,1356A,114.1063,22.5545,深圳市,通心岭子站,,15,15,14,10,6,63,42,55,52,22,21,2,2,0.5,0.5
2023-09-17T21:00:00,1357A,114.117,22.5625,深圳市,洪湖,,17,17,15,5,6,59,38,54,52,24,19,5,5,0.5,0.5
2023-09-17T21:00:00,1358A,113.987,22.5417,深圳市,华侨城,,31,31,16,20,7,50,23,39,31,17,13,6,6,0.9,0.8
2023-09-17T21:00:00,1359A,113.9181,22.5171,深圳市,南海子站,,24,24,16,15,6,64,47,51,48,14,14,4,4,0.6,0.5
2023-09-17T21:00:00,1360A,114.2458,22.5689,深圳市,盐田,,18,16,13,10,8,79,57,72,70,16,21,5,6,0.5,0.5
2023-09-17T21:00:00,1361A,114.2283,22.7244,深圳市,龙岗,,20,20,17,7,8,85,50,69,62,12,15,8,8,0.8,0.9
2023-09-17T21:00:00,1363A,114.494,22.5422,深圳市,南澳,,30,30,17,18,8,70,24,62,56,10,9,5,5,0.7,0.7
2023-09-17T21:00:00,1364A,114.41,22.6342,深圳市,葵涌,,20,20,24,8,6,74,33,61,56,14,10,5,5,0.6,0.6
2023-09-17T21:00:00,1365A,114.297,22.5978,深圳市,梅沙,,26,23,16,18,10,70,61,63,63,11,8,5,5,0.5,0.6
2023-09-17T21:00:00,1366A,114.0678,22.738,深圳市,观澜,,40,40,31,11,13,113,17,74,47,34,23,7,7,0.7,0.7
2023-09-17T21:00:00,1367A,113.5814,22.2618,珠海市,吉大,,20,12,11,6,8,88,64,78,78,13,19,5,5,0.5,0.5
2023-09-17T21:00:00,1368A,113.4881,22.2335,珠海市,前山,,14,12,8,5,13,60,44,54,53,15,14,8,8,0.4,0.4
2023-09-17T21:00:00,1369A,113.628,22.4251,珠海市,唐家,,16,16,15,6,6,76,38,61,59,11,18,5,5,0.3,0.3
2023-09-17T21:00:00,1370A,113.299,22.2281,珠海市,斗门,,19,11,10,13,8,66,52,60,60,9,9,6,6,0.5,0.4
2023-09-17T21:00:00,1371A,113.1294,23.0067,佛山市,湾梁,,31,31,20,15,13,139,39,93,87,41,30,6,7,0.7,0.6
2023-09-17T21:00:00,1372A,113.1083,23.0478,佛山市,华材职中,,34,34,24,20,14,113,34,86,79,43,33,5,5,0.6,0.5
2023-09-17T21:00:00,1373A,113.144,23.0453,佛山市,南海气象局,,39,39,30,19,15,83,29,66,61,35,31,8,8,0.6,0.6
2023-09-17T21:00:00,1374A,113.2881,22.8094,佛山市,顺德苏岗,,19,19,20,9,11,122,34,86,68,16,23,6,7,0.5,0.6
2023-09-17T21:00:00,1376A,112.8383,22.8678,佛山市,高明孔堂,,27,27,26,12,11,174,25,118,97,32,24,5,5,0.6,0.6
2023-09-17T21:00:00,1377A,112.8836,23.1588,佛山市,三水监测站,,24,24,31,15,18,154,57,104,96,38,40,4,4,0.7,0.7
2023-09-17T21:00:00,1378A,112.867,23.185,佛山市,三水云东海,,34,34,26,16,17,135,57,101,95,30,28,4,5,0.5,0.6
2023-09-17T21:00:00,1379A,113.3769,22.5211,中山市,华柏园,,13,11,19,5,9,68,39,54,49,14,22,5,5,0.4,0.4
2023-09-17T21:00:00,1380A,113.3881,22.5497,中山市,张溪,,20,20,21,3,8,78,48,62,58,7,21,4,4,0.4,0.4
2023-09-17T21:00:00,1381A,113.4075,22.5111,中山市,紫马岭,,14,9,16,5,8,70,42,60,55,7,18,4,5,0.3,0.3
2023-09-17T21:00:00,1382A,113.4411,22.4853,中山市,长江旅游区,,,,,,,,,,,,,,,,
2023-09-17T21:00:00,1383A,113.1064,22.6058,江门市,北街,,12,9,24,8,12,124,35,86,70,13,25,5,5,0.4,0.4
2023-09-17T21:00:00,1384A,113.0731,22.5835,江门市,西区,,25,19,22,17,13,129,31,87,69,25,28,5,5,0.5,0.5
2023-09-17T21:00:00,1385A,113.0219,22.5311,江门市,圭峰西,,20,20,22,9,9,119,32,76,60,18,21,4,4,0.6,0.6
2023-09-17T21:00:00,1386A,113.0828,22.5947,江门市,东湖,,21,21,23,11,13,124,37,85,69,16,22,6,6,0.6,0.6
2023-09-17T21:00:00,1389A,113.7547,23.0494,东莞市,莞城梨川,颗粒物(PM10),57,64,25,14,13,117,30,87,70,32,22,5,6,0.7,0.7
2023-09-17T21:00:00,1390A,113.7944,23.0128,东莞市,东城石井,,21,21,22,10,12,120,6,80,56,24,16,2,2,0.7,0.6
2023-09-17T21:00:00,1391A,113.7383,22.9658,东莞市,南城西平,,33,33,28,13,13,106,7,81,60,52,27,4,3,0.6,0.6
2023-09-17T21:00:00,1392A,114.4183,23.0528,惠州市,河南岸金山湖子站,,32,32,19,14,11,82,33,65,59,19,10,4,4,0.5,0.5
2023-09-17T21:00:00,1393A,114.4053,23.0822,惠州市,下埔横江三路子站,,29,29,18,14,10,86,39,70,63,18,9,5,6,0.6,0.5
2023-09-17T21:00:00,1394A,114.4103,23.1142,惠州市,江北云山西路子站,,22,22,19,10,10,90,50,73,68,10,7,7,7,0.5,0.5
2023-09-17T21:00:00,1395A,114.4645,22.7833,惠州市,惠阳区承修路船湖子站,,21,21,21,12,11,76,65,65,65,8,11,4,4,0.5,0.5
2023-09-17T21:00:00,1396A,114.5317,22.7422,惠州市,大亚湾管委会子站,,23,23,32,12,10,66,53,58,54,23,27,5,6,0.6,0.7
2023-09-17T21:00:00,1397A,112.4267,23.0706,肇庆市,睦岗子站,,18,18,29,8,17,127,32,100,89,26,30,4,5,0.4,0.5
2023-09-17T21:00:00,1398A,112.4645,23.0475,肇庆市,城中子站,,19,13,27,6,17,128,42,96,85,38,33,10,6,0.6,0.6
2023-09-17T21:00:00,1399A,112.5544,23.1522,肇庆市,坑口子站,,19,13,29,10,21,132,58,96,94,20,28,4,5,0.4,0.5
2023-09-17T21:00:00,1400A,112.4753,23.1,肇庆市,七星岩子站,,,,,,,,,,,,,,,,
2023-09-17T21:00:00,1401A,108.3103,22.7881,南宁市,二十一中,,13,11,29,9,14,100,30,71,63,15,22,4,4,0.7,0.8
2023-09-17T21:00:00,1402A,108.3141,22.8528,南宁市,北湖,,33,33,26,11,16,89,20,68,58,21,19,2,6,0.5,0.6
2023-09-17T21:00:00,1403A,108.3206,22.8225,南宁市,市监测站,,18,10,28,12,20,90,34,65,59,18,30,6,7,0.5,0.7
2023-09-17T21:00:00,1404A,108.3829,22.8037,南宁市,大自然花园,,12,12,24,7,15,80,26,57,50,16,21,5,5,0.5,0.7
2023-09-17T21:00:00,1405A,108.4394,22.7904,南宁市,仙葫,,12,11,24,8,12,67,36,55,50,11,20,5,6,0.5,0.7
2023-09-17T21:00:00,1406A,108.2397,22.8467,南宁市,区农职院,,21,21,23,2,13,100,10,69,58,38,21,6,7,0.7,0.7
2023-09-17T21:00:00,1407A,108.3275,22.735,南宁市,英华嘉园,,14,14,27,5,15,76,30,55,48,12,20,5,6,0.5,0.6
2023-09-17T21:00:00,1408A,108.2257,22.7757,南宁市,沙井镇街道办,,36,36,28,14,14,114,9,65,54,35,24,4,4,0.4,0.5
2023-09-17T21:00:00,1409A,110.576,19.9507,海口市,东寨港,,,,,,,,,,,,,,,,
2023-09-17T21:00:00,1410A,110.3232,20.0574,海口市,海南大学,,12,11,11,6,6,45,38,40,38,7,10,6,6,0.3,0.4
2023-09-17T21:00:00,1411A,110.283,20.0053,海口市,秀英海南医院,,15,15,13,7,6,42,31,36,34,14,13,7,6,0.4,0.4
2023-09-17T21:00:00,1412A,110.338,19.9969,海口市,海南师范大学,,14,14,13,7,7,42,32,36,34,10,10,7,7,0.4,0.4
2023-09-17T21:00:00,1413A,110.33,20.0356,海口市,龙华路环保局宿舍,,14,14,9,9,9,44,33,38,36,10,9,6,7,0.5,0.7
2023-09-17T21:00:00,1414A,106.3787,29.8279,重庆市,缙云山,,43,40,30,16,12,216,136,183,182,22,12,12,11,0.3,0.3
2023-09-17T21:00:00,1416A,106.4213,29.8253,重庆市,天生,细颗粒物(PM2.5),62,55,40,44,27,212,126,188,185,21,24,7,8,0.8,0.8
2023-09-17T21:00:00,1417A,106.6263,29.7228,重庆市,两路,,30,28,27,20,18,155,96,142,136,35,28,9,9,0.8,0.8
2023-09-17T21:00:00,1418A,106.2953,29.5983,重庆市,虎溪,颗粒物(PM10),52,53,43,29,29,163,121,145,145,32,34,7,7,0.7,0.6
2023-09-17T21:00:00,1419A,106.5777,29.5102,重庆市,南坪,颗粒物(PM10),52,54,47,27,25,173,114,142,142,25,23,8,12,0.7,0.8
2023-09-17T21:00:00,1420A,106.6556,29.6277,重庆市,唐家沱,颗粒物(PM10),63,76,43,42,25,169,88,152,144,41,31,9,10,0.8,0.7
2023-09-17T21:00:00,1421A,106.6349,29.4906,重庆市,茶园,颗粒物(PM10),66,82,46,26,25,142,104,136,132,53,38,8,8,1.0,1
2023-09-17T21:00:00,1422A,106.3754,29.4572,重庆市,白市驿,臭氧1小时,60,62,46,28,29,187,168,165,165,16,21,9,10,0.7,0.8
2023-09-17T21:00:00,1425A,106.6205,29.7166,重庆市,空港,,42,42,33,29,21,171,107,158,152,28,21,8,10,0.8,0.7
2023-09-17T21:00:00,1426A,106.4782,29.4875,重庆市,新山村,颗粒物(PM10),54,58,46,29,25,188,121,161,160,50,31,10,11,0.8,0.7
2023-09-17T21:00:00,1427A,106.5616,29.6453,重庆市,礼嘉,,39,39,42,19,22,189,118,166,160,23,37,8,9,0.9,0.9
2023-09-17T21:00:00,1428A,106.4522,29.7091,重庆市,蔡家,颗粒物(PM10),58,65,52,38,26,184,106,160,155,26,31,8,8,0.7,0.8
2023-09-17T21:00:00,1429A,106.5093,29.3917,重庆市,鱼新街,,39,39,36,25,24,168,118,134,134,38,39,8,7,0.9,0.9
2023-09-17T21:00:00,1431A,103.9728,30.7236,成都市,金泉两河,,33,30,52,23,38,93,82,81,81,14,21,2,3,0.6,0.7
2023-09-17T21:00:00,1432A,104.176,30.6872,成都市,十里店,,46,41,61,32,40,110,89,96,96,15,34,3,3,0.6,0.7
2023-09-17T21:00:00,1433A,104.079,30.5706,成都市,三瓦窑,细颗粒物(PM2.5),65,52,62,47,40,97,86,88,88,16,49,2,4,0.6,0.7
2023-09-17T21:00:00,1434A,104.1114,30.63,成都市,沙河铺,,49,45,66,34,42,97,90,90,90,11,26,1,2,0.5,0.7
2023-09-17T21:00:00,1437A,104.0786,30.6531,成都市,君平街,,46,46,68,30,53,110,89,100,100,19,29,5,7,0.7,0.8
2023-09-17T21:00:00,1438A,103.613,31.0283,成都市,灵岩寺,,38,17,26,14,21,158,121,152,91,2,5,4,7,0.7,0.7
2023-09-17T21:00:00,1439A,106.6899,26.5998,贵阳市,马鞍山,,,9,13,2,5,79,,72,71,12,10,8,4,0.4,0.4
2023-09-17T21:00:00,1440A,106.6971,26.5694,贵阳市,市环保站,,20,17,21,14,13,76,39,70,62,26,15,3,2,0.3,0.3
2023-09-17T21:00:00,1441A,106.6243,26.6266,贵阳市,鉴湖路,,24,24,19,14,7,69,43,64,61,13,8,5,5,0.4,0.4
2023-09-17T21:00:00,1442A,106.7487,26.6343,贵阳市,燕子冲,,,19,14,7,10,74,43,66,61,,11,5,6,0.7,0.6
2023-09-17T21:00:00,1443A,106.6555,26.4365,贵阳市,碧云窝,,24,24,20,9,8,65,46,62,59,14,14,5,5,0.8,0.6
2023-09-17T21:00:00,1444A,106.694,26.5161,贵阳市,中院村,,24,24,31,7,13,54,20,50,44,30,18,8,8,0.4,0.3
2023-09-17T21:00:00,1445A,106.7109,26.6027,贵阳市,红边门,,27,27,25,17,17,67,32,61,54,23,16,3,5,0.4,0.4
2023-09-17T21:00:00,1446A,106.7164,26.5699,贵阳市,新华路,,17,17,19,7,11,74,51,68,62,11,13,5,6,0.3,0.4
2023-09-17T21:00:00,1447A,106.674,26.5424,贵阳市,太慈桥,,19,19,15,12,8,71,50,66,63,10,13,5,4,0.4,0.4
2023-09-17T21:00:00,1450A,102.8204,24.8886,昆明市,呈贡新区,,20,20,33,13,19,99,52,83,79,22,31,6,7,0.6,0.7
2023-09-17T21:00:00,1451A,102.6251,24.9608,昆明市,西山森林公园,,20,14,17,10,14,103,64,92,89,8,8,10,10,0.8,0.7
2023-09-17T21:00:00,1452A,102.7252,25.0902,昆明市,龙泉镇,,35,35,30,9,17,98,50,89,83,15,23,8,10,0.6,0.6
2023-09-17T21:00:00,1453A,102.7266,25.0375,昆明市,东风东路,,19,19,28,10,16,99,48,88,81,16,15,8,8,0.7,0.6
2023-09-17T21:00:00,1454A,102.6742,25.0669,昆明市,金鼎山,,22,22,34,11,18,99,51,90,84,13,16,10,19,0.5,0.5
2023-09-17T21:00:00,1455A,102.6644,25.0401,昆明市,碧鸡广场,,14,12,22,8,14,95,43,87,80,21,20,7,9,0.6,0.6
2023-09-17T21:00:00,1456A,91.1319,29.6514,拉萨市,八廓街,,23,23,17,9,10,102,71,99,96,29,23,7,7,0.3,0.2
2023-09-17T21:00:00,1457A,91.1221,29.6747,拉萨市,市环保局,,,39,26,18,10,97,,93,91,38,24,8,7,0.6,0.4
2023-09-17T21:00:00,1458A,91.0874,29.6475,拉萨市,区监测站,,25,25,15,6,8,93,40,90,82,49,25,9,8,0.5,0.4
2023-09-17T21:00:00,1459A,91.1774,29.6541,拉萨市,西藏大学,,25,15,13,8,7,101,78,96,94,15,12,9,9,0.2,0.3
2023-09-17T21:00:00,1460A,90.9798,29.6588,拉萨市,区辐射站,,22,21,14,15,7,96,65,91,88,31,13,10,10,0.3,0.2
2023-09-17T21:00:00,1461A,91.0834,29.6292,拉萨市,拉萨火车站,,25,11,13,7,7,93,80,92,90,14,13,6,6,0.3,0.2
2023-09-17T21:00:00,1462A,108.882,34.2749,西安市,高压开关厂,颗粒物(PM10),75,100,72,52,35,159,94,135,132,33,27,10,10,0.7,0.6
2023-09-17T21:00:00,1463A,108.993,34.2629,西安市,兴庆小区,颗粒物(PM10),63,76,60,42,32,155,110,132,132,21,27,7,8,0.9,0.8
2023-09-17T21:00:00,1464A,109.06,34.2572,西安市,纺织城,细颗粒物(PM2.5),100,132,72,75,40,168,34,130,117,64,44,6,7,0.9,0.7
2023-09-17T21:00:00,1465A,108.9356,34.2173,西安市,小寨,颗粒物(PM10),69,88,61,47,30,142,88,122,120,29,32,5,6,0.9,0.7
2023-09-17T21:00:00,1466A,108.954,34.2713,西安市,市人民体育场,细颗粒物(PM2.5),79,78,73,58,41,148,97,126,124,22,27,8,9,0.7,0.6
2023-09-17T21:00:00,1467A,108.8922,34.2322,西安市,高新西区,颗粒物(PM10),67,83,61,47,35,146,118,132,132,22,27,7,8,0.7,0.7
2023-09-17T21:00:00,1468A,108.935,34.3474,西安市,经开区,颗粒物(PM10),65,79,61,46,33,140,90,119,119,23,20,4,5,0.8,0.6
2023-09-17T21:00:00,1469A,108.906,34.1546,西安市,长安区,颗粒物(PM10),98,145,84,60,40,155,80,132,129,31,33,6,7,0.8,0.7
2023-09-17T21:00:00,1471A,109.2186,34.3731,西安市,临潼区,"颗粒物(PM10),细颗粒物(PM2.5)",67,84,71,48,38,153,92,125,123,28,26,6,7,0.9,0.6
2023-09-17T21:00:00,1472A,108.869,34.378,西安市,草滩,颗粒物(PM10),68,86,58,35,24,162,67,134,124,53,33,16,18,0.8,0.6
2023-09-17T21:00:00,1473A,108.985,34.1978,西安市,曲江文化产业集团,细颗粒物(PM2.5),74,88,71,54,35,146,106,125,125,23,37,6,7,0.6,0.6
2023-09-17T21:00:00,1474A,109.051,34.3213,西安市,广运潭,颗粒物(PM10),63,75,60,43,33,138,75,114,112,36,27,9,10,0.9,0.7
2023-09-17T21:00:00,1476A,103.631,36.1031,兰州市,兰炼宾馆,颗粒物(PM10),68,86,77,35,30,128,65,118,108,43,31,4,5,0.5,0.4
2023-09-17T21:00:00,1477A,104.1373,35.9454,兰州市,榆中兰大校区,,,,,,,,,,,,,,,,
2023-09-17T21:00:00,1478A,103.8412,36.0726,兰州市,生物制品所,颗粒物(PM10),72,94,79,37,34,108,69,99,93,32,33,6,5,0.7,0.6
2023-09-17T21:00:00,1479A,103.831,36.0464,兰州市,铁路设计院,颗粒物(PM10),75,100,76,42,33,113,29,104,84,92,49,8,8,0.7,0.5
2023-09-17T21:00:00,1483A,101.524,36.6867,西宁市,第五水厂,,,,,,,,,,,,,,,,
2023-09-17T21:00:00,1484A,105.9512,38.6016,银川市,贺兰山马莲口,,30,27,33,13,14,122,95,113,106,8,14,4,11,0.4,0.5
2023-09-17T21:00:00,1488A,106.2328,38.4975,银川市,贺兰山东路,颗粒物(PM10),51,52,46,33,23,125,92,109,109,30,20,11,11,0.6,0.5
2023-09-17T21:00:00,1489A,106.1358,38.5036,银川市,学院路,颗粒物(PM10),74,97,58,36,26,111,41,99,93,71,22,17,14,0.6,0.6
2023-09-17T21:00:00,1490A,87.5801,43.8303,乌鲁木齐市,监测站,,20,16,41,6,18,98,63,88,87,27,40,4,5,0.4,0.4
2023-09-17T21:00:00,1491A,87.6046,43.768,乌鲁木齐市,收费所,,24,24,37,11,20,100,55,87,84,35,32,2,2,0.4,0.3
2023-09-17T21:00:00,1492A,87.4754,43.9469,乌鲁木齐市,新疆农科院农场,颗粒物(PM10),58,66,60,13,18,86,32,79,74,43,37,2,3,0.5,0.5
2023-09-17T21:00:00,1493A,87.5525,43.8711,乌鲁木齐市,铁路局,,25,25,39,8,16,95,66,85,84,23,35,4,5,0.4,0.5
2023-09-17T21:00:00,1494A,87.6432,43.831,乌鲁木齐市,三十一中学,,20,13,40,4,17,94,64,83,82,22,26,5,5,0.4,0.4
2023-09-17T21:00:00,1496A,87.7216,44.1747,乌鲁木齐市,米东区环保局,,22,22,36,11,15,86,51,78,78,19,24,6,8,0.3,0.3
2023-09-17T21:00:00,1508A,112.9433,27.8614,湘潭市,板塘,,44,44,42,15,19,106,37,98,87,37,25,14,12,0.4,0.5
2023-09-17T21:00:00,1511A,112.9118,27.8403,湘潭市,市监测站,,27,27,30,16,18,99,60,90,83,21,19,7,9,0.7,0.7
2023-09-17T21:00:00,1512A,112.8937,27.8728,湘潭市,江麓,,27,27,36,15,20,100,63,91,86,19,22,8,11,0.3,0.5
2023-09-17T21:00:00,1513A,112.9227,27.8159,湘潭市,岳塘,,33,22,34,23,20,113,59,101,93,15,15,5,11,0.5,0.6
2023-09-17T21:00:00,1514A,112.9074,27.9119,湘潭市,科大,,25,25,40,14,21,105,52,94,86,22,27,7,11,0.7,0.9
2023-09-17T21:00:00,1515A,113.135,27.8244,株洲市,天台山庄,,29,29,34,14,17,104,63,96,86,11,12,5,9,0.8,0.9
2023-09-17T21:00:00,1518A,113.095,27.8867,株洲市,株冶医院,,36,36,39,21,21,109,44,97,82,27,24,5,6,0.6,0.7
2023-09-17T21:00:00,1519A,113.167,27.8667,株洲市,市四中,,32,32,34,20,18,107,66,93,82,10,13,8,11,0.6,0.7
2023-09-17T21:00:00,1520A,113.143,27.8381,株洲市,火车站,颗粒物(PM10),51,52,39,25,21,102,35,94,76,26,14,6,9,1.3,1
2023-09-17T21:00:00,1524A,113.13,27.8528,株洲市,市监测站,,30,30,36,15,23,109,64,99,88,16,14,8,11,0.9,0.9
2023-09-17T21:00:00,1552A,106.805,26.3003,贵阳市,桐木岭,,,,,,,,,,,,,,,,
2023-09-17T21:00:00,1559A,113.251,27.8336,株洲市,大京风景区,,23,21,24,16,16,98,16,83,53,4,4,5,5,0.6,0.6
2023-09-17T21:00:00,1562A,113.0048,27.9153,湘潭市,昭山,,,39,40,20,20,110,,102,93,32,26,6,7,0.6,0.7
2023-09-17T21:00:00,1564A,112.4876,27.9164,湘潭市,韶山,,48,48,32,12,11,87,27,85,64,13,12,6,6,0.7,0.6
2023-09-17T21:00:00,1585A,109.8756,40.6532,包头市,市环境监测站,颗粒物(PM10),51,51,30,13,13,118,45,112,95,66,34,9,15,0.9,0.8
2023-09-17T21:00:00,1587A,109.9991,40.5842,包头市,包头八中,颗粒物(PM10),52,53,33,15,15,123,39,117,103,72,28,21,21,1.1,0.8
2023-09-17T21:00:00,1588A,109.8538,40.6821,包头市,青山宾馆,颗粒物(PM10),58,66,29,24,16,119,5,111,88,94,35,9,13,0.9,0.8
2023-09-17T21:00:00,1589A,109.8642,40.6288,包头市,惠龙物流,,41,41,33,13,13,124,31,118,102,82,31,38,19,2.1,1
2023-09-17T21:00:00,1590A,110.0377,40.5546,包头市,东河鸿龙湾,,41,41,21,12,11,129,69,119,112,28,17,15,16,0.5,0.6
2023-09-17T21:00:00,1591A,110.0023,39.8129,鄂尔多斯市,综合楼,颗粒物(PM10),51,51,22,12,6,109,60,107,93,52,19,8,5,0.7,0.5
2023-09-17T21:00:00,1592A,109.9486,39.8261,鄂尔多斯市,巴音孟克林场办事处,,44,44,25,14,10,112,64,110,95,46,17,7,7,0.5,0.4
2023-09-17T21:00:00,1593A,109.7736,39.5986,鄂尔多斯市,康泽苑,,41,41,23,11,7,111,54,110,96,36,12,4,4,0.5,0.4
2023-09-17T21:00:00,1594A,109.8119,39.5989,鄂尔多斯市,华泰汽车城,,41,41,24,17,11,111,56,105,92,34,15,6,6,0.5,0.4
2023-09-17T21:00:00,1595A,109.9734,39.7884,鄂尔多斯市,奥林花园,颗粒物(PM10),56,61,28,29,10,106,13,103,81,81,20,9,5,0.7,0.5
2023-09-17T21:00:00,1597A,122.2703,40.7094,营口市,大庆路,,27,27,33,13,25,149,79,129,118,23,20,4,6,0.7,0.8
2023-09-17T21:00:00,1598A,122.2150,40.6511,营口市,镜湖西路,,29,21,33,8,19,138,91,121,114,18,19,5,6,0.5,0.6
2023-09-17T21:00:00,1599A,122.1658,40.6789,营口市,西炮台,,35,27,35,9,20,123,110,116,114,11,21,5,6,0.4,0.5
2023-09-17T21:00:00,1600A,124.3303,40.0625,丹东市,江湾东路,,44,44,31,23,17,135,44,115,94,32,18,20,11,1.1,0.8
2023-09-17T21:00:00,1601A,124.4256,40.1503,丹东市,临江后街,颗粒物(PM10),54,58,31,25,12,145,56,115,100,12,17,8,8,0.9,0.7
2023-09-17T21:00:00,1602A,124.3933,40.1461,丹东市,元宝山,,34,34,30,21,16,122,63,103,90,14,20,8,9,0.7,1
2023-09-17T21:00:00,1603A,124.3633,40.1092,丹东市,民主桥,,33,33,27,15,13,136,61,119,101,17,17,11,7,0.7,0.7
2023-09-17T21:00:00,1604A,122.0303,41.1489,盘锦市,开发区,,27,18,29,11,18,158,84,146,126,15,12,4,4,0.8,0.9
2023-09-17T21:00:00,1605A,122.0485,41.0883,盘锦市,兴隆台,,28,14,30,13,18,150,87,140,120,12,14,5,6,0.5,0.6
2023-09-17T21:00:00,1606A,121.8297,41.1028,盘锦市,新生街道,,24,22,28,9,14,157,76,151,123,16,15,7,8,0.3,0.4
2023-09-17T21:00:00,1607A,120.9092,40.7136,葫芦岛市,龙港区,,39,17,36,9,27,168,122,167,127,10,10,8,8,0.4,0.6
2023-09-17T21:00:00,1608A,120.8392,40.7514,葫芦岛市,化工街,,30,17,45,12,27,156,94,140,124,16,25,6,8,0.7,0.9
2023-09-17T21:00:00,1609A,120.8341,40.7073,葫芦岛市,新区,,36,20,38,11,27,146,113,145,127,10,14,6,6,0.5,0.6
2023-09-17T21:00:00,1610A,120.8695,40.7677,葫芦岛市,东城区,,33,24,43,10,28,169,104,146,129,19,26,9,12,0.7,0.8
2023-09-17T21:00:00,1611A,118.5819,24.9117,泉州市,涂山街,,28,28,74,11,43,225,41,183,153,26,30,6,10,0.6,0.8
2023-09-17T21:00:00,1612A,118.5972,24.8978,泉州市,津头埔,,26,26,68,10,45,226,32,174,140,23,30,5,9,0.6,0.8
2023-09-17T21:00:00,1613A,118.6663,24.9424,泉州市,万安,,29,29,65,12,43,234,38,181,141,27,30,6,6,0.6,0.9
2023-09-17T21:00:00,1614A,118.6117,24.9604,泉州市,清源山,,,,,,,,,,,,,,,,
2023-09-17T21:00:00,1616A,117.6795,36.229,济南市,技术学院,颗粒物(PM10),75,100,71,33,32,198,49,183,156,78,31,9,10,1.1,1.2
2023-09-17T21:00:00,1618A,118.3429,35.0532,临沂市,沂河小区,颗粒物(PM10),59,68,75,31,34,234,107,196,175,28,27,16,16,0.4,0.5
2023-09-17T21:00:00,1619A,118.295,35.0583,临沂市,鲁南制药厂,颗粒物(PM10),62,73,74,21,30,238,119,208,184,22,28,13,17,0.5,0.6
2023-09-17T21:00:00,1620A,118.2794,34.9976,临沂市,新光毛纺厂,,44,44,64,24,34,231,112,192,171,25,30,12,18,0.6,0.8
2023-09-17T21:00:00,1621A,118.3956,35.0888,临沂市,河东保险公司,颗粒物(PM10),56,61,69,23,32,225,123,204,181,32,31,5,7,0.3,0.5
2023-09-17T21:00:00,1622A,116.3032,37.4674,德州市,儿童乐园,颗粒物(PM10),56,61,74,22,32,186,152,178,173,16,13,9,12,0.7,0.8
2023-09-17T21:00:00,1624A,116.2991,37.4451,德州市,监理站,颗粒物(PM10),55,59,63,24,36,181,143,172,166,18,18,12,16,0.5,0.6
2023-09-17T21:00:00,1625A,115.9848,36.4372,聊城市,区政府,,,,58,,32,170,,161,160,,21,30,14,0.5,0.5
2023-09-17T21:00:00,1628A,118.0062,37.3803,滨州市,市环保局,颗粒物(PM10),60,70,75,41,37,250,140,215,183,32,29,7,14,0.5,0.6
2023-09-17T21:00:00,1629A,118.0018,37.3617,滨州市,第二水厂,颗粒物(PM10),65,80,70,33,40,256,114,220,176,31,37,8,14,0.9,1.1
2023-09-17T21:00:00,1630A,117.9776,37.393,滨州市,北中新校,颗粒物(PM10),63,75,71,38,37,249,78,212,165,59,31,7,12,0.9,0.8
2023-09-17T21:00:00,1631A,118.0414,36.8103,淄博市,人民公园,颗粒物(PM10),78,105,79,53,43,213,64,200,164,79,35,6,8,1.0,0.8
2023-09-17T21:00:00,1633A,117.8525,36.4847,淄博市,双山,,46,46,59,28,34,183,77,174,143,42,23,1,5,0.3,0.5
2023-09-17T21:00:00,1634A,117.9592,36.6331,淄博市,气象站,颗粒物(PM10),74,97,66,51,38,184,73,175,144,50,19,12,10,0.6,0.4
2023-09-17T21:00:00,1635A,118.3092,36.8194,淄博市,莆田园,颗粒物(PM10),79,107,89,53,44,236,90,221,187,48,33,9,16,1.5,1.5
2023-09-17T21:00:00,1637A,117.558,34.8438,枣庄市,市中区政府,细颗粒物(PM2.5),67,75,89,48,48,165,111,157,148,27,35,40,14,0.4,0.4
2023-09-17T21:00:00,1638A,117.2852,34.7837,枣庄市,薛城环保局,颗粒物(PM10),69,88,66,45,33,174,107,161,146,28,30,7,9,0.6,0.7
2023-09-17T21:00:00,1639A,117.5852,34.7745,枣庄市,峄城区政府,"颗粒物(PM10),细颗粒物(PM2.5)",79,107,82,58,42,164,92,156,142,32,29,9,8,0.7,0.6
2023-09-17T21:00:00,1640A,117.7276,34.5578,枣庄市,台儿庄区环保局,细颗粒物(PM2.5),104,105,68,78,47,146,73,137,116,32,24,8,7,0.9,0.6
2023-09-17T21:00:00,1641A,117.4518,35.0992,枣庄市,山亭区环保局,颗粒物(PM10),57,63,55,29,35,189,127,173,159,21,21,5,8,0.6,0.7
2023-09-17T21:00:00,1642A,121.2514,37.5639,烟台市,开发区,,36,36,34,22,18,198,107,180,165,24,22,5,6,0.7,0.7
2023-09-17T21:00:00,1643A,121.3719,37.5433,烟台市,轴承厂,,36,36,31,22,22,193,101,179,162,15,18,4,5,0.3,0.4
2023-09-17T21:00:00,1644A,121.3181,37.5436,烟台市,西郊化工站,,39,39,32,23,21,193,111,178,166,14,18,6,7,0.6,0.6
2023-09-17T21:00:00,1645A,121.4478,37.4822,烟台市,莱山环保局,,29,29,20,13,12,195,85,170,155,15,12,5,7,0.5,0.5
2023-09-17T21:00:00,1646A,121.2611,37.4967,烟台市,福山环保局,颗粒物(PM10),60,70,43,27,8,188,83,163,149,40,26,13,10,0.2,0.2
2023-09-17T21:00:00,1650A,119.1437,36.7023,潍坊市,环保局,颗粒物(PM10),67,83,69,46,39,233,162,216,204,20,26,9,9,1.0,0.8
2023-09-17T21:00:00,1653A,116.6251,35.4302,济宁市,火炬城,颗粒物(PM10),53,55,53,19,20,153,107,140,135,19,16,7,9,0.3,0.4
2023-09-17T21:00:00,1655A,116.5491,35.4042,济宁市,电化厂,颗粒物(PM10),52,54,60,19,22,154,133,146,144,10,19,5,7,0.5,0.6
2023-09-17T21:00:00,1656A,117.1437,36.1937,泰安市,监测站,颗粒物(PM10),52,53,64,30,35,178,124,170,160,21,19,8,10,0.6,0.7
2023-09-17T21:00:00,1657A,117.0885,36.2017,泰安市,人口学校,,48,36,48,16,27,175,151,169,165,14,17,9,11,0.5,0.6
2023-09-17T21:00:00,1658A,117.1089,36.1758,泰安市,电力学校,,46,46,70,26,38,176,124,168,158,22,27,8,10,0.4,0.6
2023-09-17T21:00:00,1659A,119.471,35.4209,日照市,监测站,臭氧1小时,64,36,47,24,26,220,171,188,182,14,48,7,8,0.9,0.9
2023-09-17T21:00:00,1660A,119.523,35.4216,日照市,市政府广场,臭氧1小时,64,44,48,16,22,212,171,194,190,19,35,7,8,0.8,0.7
2023-09-17T21:00:00,1661A,119.5587,35.4044,日照市,港务局,臭氧1小时,68,53,54,24,27,220,174,196,190,15,36,8,10,0.9,0.9
2023-09-17T21:00:00,1662A,122.1214,37.4236,威海市,华夏技校,,28,22,15,15,10,134,87,120,111,14,12,3,4,0.5,0.5
2023-09-17T21:00:00,1663A,122.0508,37.5236,威海市,山大分校,,36,15,15,7,7,164,113,139,131,6,10,8,11,0.4,0.4
2023-09-17T21:00:00,1664A,122.1067,37.5072,威海市,市监测站,,32,20,18,15,16,139,100,125,115,7,9,6,7,0.5,0.5
2023-09-17T21:00:00,1666A,118.6614,37.4309,东营市,市环保局,臭氧1小时,72,53,55,29,30,260,177,233,221,10,16,7,11,0.6,0.6
2023-09-17T21:00:00,1669A,113.5824,24.7733,韶关市,市八中,,17,16,25,3,9,117,52,99,87,27,12,20,15,0.5,0.5
2023-09-17T21:00:00,1671A,113.5917,24.7972,韶关市,园林处,,29,20,26,20,16,134,54,109,96,19,10,20,16,0.7,0.7
2023-09-17T21:00:00,1672A,113.6735,24.7791,韶关市,韶关学院,,47,47,31,32,18,141,44,107,93,12,12,9,10,0.7,0.9
2023-09-17T21:00:00,1673A,113.5971,24.6863,韶关市,曲江监测站,,,,28,9,11,101,31,90,77,22,11,6,6,0.6,0.6
2023-09-17T21:00:00,1674A,116.6794,23.3667,汕头市,金平子站,,13,10,32,7,20,134,39,94,54,17,25,5,11,0.6,0.8
2023-09-17T21:00:00,1675A,116.7244,23.3633,汕头市,龙湖子站,,15,15,28,6,17,113,45,82,56,17,20,6,10,0.6,0.7
2023-09-17T21:00:00,1676A,116.7258,23.2775,汕头市,濠江子站,,13,12,28,3,12,106,39,82,55,15,17,8,9,0.5,0.6
2023-09-17T21:00:00,1677A,116.7519,23.4714,汕头市,澄海子站,,22,22,32,10,18,133,33,89,56,22,18,8,9,0.5,0.5
2023-09-17T21:00:00,1678A,116.6092,23.2539,汕头市,潮阳子站,,24,24,31,1,14,126,42,77,52,12,15,8,10,0.5,0.7
2023-09-17T21:00:00,1680A,110.3539,21.2706,湛江市,湛江影剧院,,15,11,13,2,6,62,45,62,50,7,5,6,6,0.4,0.4
2023-09-17T21:00:00,1681A,110.3928,21.2228,湛江市,市环境监测站,,12,8,12,6,5,59,38,59,48,13,8,6,6,0.4,0.4
2023-09-17T21:00:00,1682A,110.4019,21.1997,湛江市,环保局宿舍,,13,7,11,3,4,64,41,61,49,7,6,4,4,0.4,0.4
2023-09-17T21:00:00,1683A,110.4111,21.2028,湛江市,霞山游泳场,,15,7,10,3,5,61,46,61,51,5,7,5,4,0.4,0.4
2023-09-17T21:00:00,1684A,110.3316,21.2679,湛江市,麻章区环保局,,14,10,14,4,5,60,42,60,47,8,7,5,5,0.5,0.5
2023-09-17T21:00:00,1685A,110.4558,21.2567,湛江市,坡头区环保局,,15,8,10,5,6,65,46,65,52,5,5,9,10,0.3,0.3
2023-09-17T21:00:00,1686A,111.0286,21.4688,茂名市,电白南海,,14,14,16,7,9,69,42,54,49,9,8,5,5,0.6,0.6
2023-09-17T21:00:00,1687A,110.9294,21.6533,茂名市,茂石化七小,,19,19,16,7,11,56,29,48,42,11,7,2,2,0.6,0.6
2023-09-17T21:00:00,1688A,110.9107,21.6687,茂名市,健康路,,12,12,12,0,1,62,36,53,47,10,9,7,7,0.5,0.5
2023-09-17T21:00:00,1689A,110.8592,21.6828,茂名市,高岭,,18,12,20,12,14,66,36,51,46,14,13,11,10,0.7,0.6
2023-09-17T21:00:00,1690A,116.1231,24.3284,梅州市,梅江月梅,,19,19,26,7,12,106,39,85,69,12,13,3,4,0.6,0.6
2023-09-17T21:00:00,1691A,116.0797,24.2719,梅州市,梅县新城,,28,28,22,9,12,96,32,76,56,15,11,6,6,0.6,0.6
2023-09-17T21:00:00,1692A,116.1248,24.2654,梅州市,环境监控中心,,17,17,27,10,15,97,35,78,57,13,13,12,8,0.5,0.5
2023-09-17T21:00:00,1693A,115.3653,22.775,汕尾市,市环保局,,27,14,14,11,9,86,84,77,77,5,6,10,10,0.5,0.5
2023-09-17T21:00:00,1694A,115.3706,22.7898,汕尾市,市政府,,27,20,15,14,9,86,86,77,77,6,6,6,6,0.4,0.4
2023-09-17T21:00:00,1695A,115.3622,22.7925,汕尾市,新城中学,,21,21,16,13,7,77,65,66,66,10,7,8,7,0.5,0.4
2023-09-17T21:00:00,1696A,114.6778,23.7569,河源市,源西,,16,9,16,11,8,84,27,66,60,15,16,4,4,0.7,0.6
2023-09-17T21:00:00,1697A,114.6944,23.7586,河源市,东埔,,25,25,18,16,7,83,20,63,54,16,10,5,5,0.7,0.6
2023-09-17T21:00:00,1698A,114.6892,23.7233,河源市,老城,,28,28,14,5,5,84,19,65,54,19,8,4,4,0.7,0.6
2023-09-17T21:00:00,1699A,111.9797,21.8593,阳江市,鸳鸯湖,,16,11,16,11,10,56,31,44,38,8,9,5,6,0.7,0.7
2023-09-17T21:00:00,1701A,111.9491,21.8658,阳江市,马南垌,,17,17,18,8,9,49,30,44,36,7,8,5,5,0.6,0.5
2023-09-17T21:00:00,1702A,113.0426,23.691,清远市,环保大楼,,41,41,18,12,10,104,61,86,84,34,14,8,9,0.8,0.6
2023-09-17T21:00:00,1703A,113.0208,23.7106,清远市,凤城街办,,,46,19,18,11,90,,74,74,39,14,10,7,0.6,0.4
2023-09-17T21:00:00,1705A,116.6367,23.6719,潮州市,西园路,细颗粒物(PM2.5),53,47,36,37,25,160,24,108,98,23,11,8,5,0.6,0.4
2023-09-17T21:00:00,1706A,116.6447,23.6706,潮州市,档案局,细颗粒物(PM2.5),69,50,34,50,29,165,26,115,102,24,12,13,7,0.6,0.5
2023-09-17T21:00:00,1708A,116.3701,23.5345,揭阳市,新兴,,25,18,41,17,24,121,40,88,74,7,12,7,8,0.6,0.7
2023-09-17T21:00:00,1709A,116.3264,23.5443,揭阳市,西马,,23,19,45,16,24,125,34,95,74,15,14,6,7,0.7,0.8
2023-09-17T21:00:00,1710A,116.3611,23.5626,揭阳市,东兴,,28,28,42,18,20,118,40,92,76,16,17,4,6,0.8,0.8
2023-09-17T21:00:00,1711A,116.4151,23.5294,揭阳市,渔湖,细颗粒物(PM2.5),57,44,37,40,42,160,32,100,80,24,19,6,6,0.6,0.6
2023-09-17T21:00:00,1712A,112.0392,22.9169,云浮市,新市府,,15,12,27,10,17,76,30,63,55,4,10,5,6,0.8,0.9
2023-09-17T21:00:00,1714A,112.0539,22.9539,云浮市,牧羊,,16,16,32,7,14,79,19,65,56,31,20,7,8,0.5,0.5
2023-09-17T21:00:00,1715A,102.575,24.3711,玉溪市,东风水库,,36,36,30,12,19,92,43,68,59,16,15,6,7,0.7,0.9
2023-09-17T21:00:00,1718A,115.4208,35.2464,菏泽市,气象局,颗粒物(PM10),61,72,59,25,24,167,129,161,156,25,21,4,6,0.4,0.3
2023-09-17T21:00:00,1719A,115.4747,35.2375,菏泽市,市政协,颗粒物(PM10),58,66,52,27,27,169,132,163,158,19,15,4,6,0.5,0.4
2023-09-17T21:00:00,1721A,113.3819,40.1097,大同市,果树场,,,,,,,,,,,,,,,,
2023-09-17T21:00:00,1723A,113.2994,40.0758,大同市,云冈宾馆,,36,36,51,12,26,140,104,127,121,22,26,20,15,0.5,0.7
2023-09-17T21:00:00,1724A,113.3444,40.0917,大同市,大同大学,,49,49,54,14,28,140,95,126,120,24,26,12,13,0.6,0.7
2023-09-17T21:00:00,1725A,113.2661,40.1269,大同市,安家小村,,38,38,53,6,25,140,109,129,126,15,18,16,15,0.3,0.4
2023-09-17T21:00:00,1726A,113.2711,40.0844,大同市,教育学院,颗粒物(PM10),59,67,66,15,28,130,98,118,113,24,31,9,14,0.4,0.6
2023-09-17T21:00:00,1727A,113.1147,36.1547,长治市,清华站,,38,38,41,22,26,150,81,141,127,25,17,7,8,0.6,0.6
2023-09-17T21:00:00,1728A,113.1031,36.1989,长治市,监测站,,38,38,42,22,28,146,82,136,122,27,22,6,7,0.7,0.8
2023-09-17T21:00:00,1730A,113.0886,36.2125,长治市,审计局,,31,31,41,14,32,141,81,131,120,23,17,7,8,0.6,0.7
2023-09-17T21:00:00,1731A,113.0844,36.1856,长治市,长治八中,,43,43,49,13,24,144,82,136,124,23,19,10,10,0.5,0.6
2023-09-17T21:00:00,1733A,111.5531,36.0783,临汾市,临钢医院,,24,24,45,8,18,148,72,128,118,15,13,7,8,0.4,0.5
2023-09-17T21:00:00,1734A,111.5028,36.0714,临汾市,技工学校,,29,16,37,20,23,148,79,132,122,18,20,8,10,0.6,0.7
2023-09-17T21:00:00,1736A,111.5018,36.0855,临汾市,市委,,27,13,45,8,18,154,84,136,126,17,20,7,8,0.5,0.7
2023-09-17T21:00:00,1738A,113.5758,37.8572,阳泉市,市中心,细颗粒物(PM2.5),63,56,75,45,44,178,99,160,154,32,41,7,9,1.2,1.2
2023-09-17T21:00:00,1739A,113.4894,37.8731,阳泉市,赛鱼,,50,42,60,35,46,172,75,143,132,60,43,11,10,0.9,0.9
2023-09-17T21:00:00,1740A,113.5819,37.8486,阳泉市,南庄,颗粒物(PM10),71,91,91,27,25,153,116,153,139,23,23,6,8,1.6,1.8
2023-09-17T21:00:00,1742A,113.5614,37.8703,阳泉市,平坦,颗粒物(PM10),75,100,86,48,50,183,97,165,159,48,49,11,11,1.0,1.1
2023-09-17T21:00:00,1743A,113.5158,37.8392,阳泉市,大阳泉,细颗粒物(PM2.5),55,41,66,39,53,174,123,162,152,22,18,7,8,0.8,0.9
2023-09-17T21:00:00,1744A,118.9233,42.2816,赤峰市,松山一中,,31,13,69,14,39,110,97,90,90,24,41,10,37,0.4,0.8
2023-09-17T21:00:00,1745A,118.9576,42.2728,赤峰市,哈达街,,29,23,77,11,45,118,90,89,89,24,46,15,53,0.4,0.7
2023-09-17T21:00:00,1746A,118.8788,42.2554,赤峰市,天义路,,36,15,56,20,37,115,115,90,90,12,36,10,23,0.3,0.5
2023-09-17T21:00:00,1748A,123.044,41.1196,鞍山市,深沟寺,颗粒物(PM10),51,52,51,28,32,193,123,175,166,12,12,5,6,0.8,1
2023-09-17T21:00:00,1749A,123.011,41.0931,鞍山市,太阳城,颗粒物(PM10),52,53,55,27,29,194,122,174,163,13,15,9,8,0.8,1.1
2023-09-17T21:00:00,1750A,123.0485,41.1442,鞍山市,太平,颗粒物(PM10),56,62,73,33,37,190,136,166,158,16,23,9,10,0.7,1.1
2023-09-17T21:00:00,1751A,122.9642,41.0971,鞍山市,铁西三道街,颗粒物(PM10),62,73,88,38,42,193,105,166,154,30,35,7,9,1.0,1.2
2023-09-17T21:00:00,1752A,122.9341,41.0833,鞍山市,铁西工业园区,颗粒物(PM10),67,83,85,46,43,192,87,164,148,32,32,13,11,1.5,1.2
2023-09-17T21:00:00,1753A,123.022,41.0821,鞍山市,明达新区,颗粒物(PM10),54,57,60,30,31,187,131,165,158,14,26,4,5,0.7,0.9
2023-09-17T21:00:00,1754A,123.1289,41.0228,鞍山市,千山,,,,,,,,,,,,,,,,
2023-09-17T21:00:00,1755A,123.7977,41.8491,抚顺市,望花区,颗粒物(PM10),72,94,65,46,34,196,127,178,167,25,33,13,13,0.8,0.8
2023-09-17T21:00:00,1756A,123.9161,41.8822,抚顺市,顺城区,细颗粒物(PM2.5),77,83,67,56,37,191,121,165,154,24,30,13,12,1.7,1.1
2023-09-17T21:00:00,1757A,124.0436,41.8611,抚顺市,东洲区,颗粒物(PM10),71,92,58,47,30,206,120,176,162,19,18,9,10,1.1,0.8
2023-09-17T21:00:00,1758A,123.9247,41.8642,抚顺市,新抚区,颗粒物(PM10),66,82,59,44,30,193,128,170,159,15,21,9,9,1.3,0.9
2023-09-17T21:00:00,1759A,124.0972,41.8961,抚顺市,大伙房水库,颗粒物(PM10),62,74,41,43,26,197,103,169,155,14,13,9,10,1.2,0.7
2023-09-17T21:00:00,1760A,123.7086,41.8391,抚顺市,沈抚新城,细颗粒物(PM2.5),79,77,63,58,46,194,113,169,158,24,26,14,12,0.8,0.9
2023-09-17T21:00:00,1761A,123.8275,41.3064,本溪市,大峪,颗粒物(PM10),67,83,70,32,33,173,99,140,135,20,30,7,11,1.1,1.8
2023-09-17T21:00:00,1762A,123.7567,41.3325,本溪市,溪湖,颗粒物(PM10),60,69,80,40,40,185,86,153,146,26,31,10,14,1.0,1.7
2023-09-17T21:00:00,1763A,123.7169,41.3094,本溪市,彩屯,"颗粒物(PM10),细颗粒物(PM2.5)",65,80,84,47,51,173,73,146,135,33,36,8,10,1.2,2.1
2023-09-17T21:00:00,1764A,123.7669,41.2864,本溪市,东明,颗粒物(PM10),78,105,73,55,41,176,60,151,138,69,40,13,14,2.7,2
2023-09-17T21:00:00,1765A,123.7992,41.2664,本溪市,新立屯,颗粒物(PM10),69,87,63,31,27,166,48,127,94,71,47,13,14,2.5,2
2023-09-17T21:00:00,1766A,123.8142,41.3472,本溪市,威宁,颗粒物(PM10),65,80,62,41,32,148,48,119,98,34,27,5,8,0.9,1.2
2023-09-17T21:00:00,1767A,121.1115,41.0879,锦州市,南山,,34,31,54,13,33,197,108,158,138,23,22,6,11,0.6,0.8
2023-09-17T21:00:00,1768A,121.0533,40.8434,锦州市,开发区,,39,28,56,17,29,167,116,152,123,18,25,117,18,0.8,0.9
2023-09-17T21:00:00,1769A,121.1836,41.1119,锦州市,百股街道,,40,19,39,19,32,190,125,161,148,18,18,10,10,0.6,0.7
2023-09-17T21:00:00,1770A,121.1178,41.1222,锦州市,天安街道,,33,24,58,23,52,198,103,157,138,25,22,10,15,0.5,0.9
2023-09-17T21:00:00,1771A,121.1303,41.1386,锦州市,北湖公园,,,29,71,18,40,197,108,157,140,19,16,10,14,,0.9
2023-09-17T21:00:00,1772A,126.54,43.8622,吉林市,哈达湾,颗粒物(PM10),53,55,38,33,18,128,31,122,104,48,24,6,6,0.9,0.6
2023-09-17T21:00:00,1773A,126.5844,43.8358,吉林市,东局子,,46,46,37,20,17,129,22,110,85,52,28,6,6,0.7,0.6
2023-09-17T21:00:00,1774A,126.5052,43.8245,吉林市,电力学院,颗粒物(PM10),86,121,48,58,23,126,11,111,83,52,23,8,8,0.9,0.7
2023-09-17T21:00:00,1775A,126.6133,43.8972,吉林市,江北,颗粒物(PM10),65,80,46,33,20,145,37,127,103,36,26,8,8,0.9,0.7
2023-09-17T21:00:00,1776A,126.555,43.8306,吉林市,江南公园,,31,31,33,16,17,118,41,108,89,26,22,6,6,0.6,0.7
2023-09-17T21:00:00,1778A,126.7061,43.7133,吉林市,丰满,,,,,,,,,,,,,,,,
2023-09-17T21:00:00,1779A,123.9305,47.3636,齐齐哈尔市,安居小区,颗粒物(PM10),56,61,32,20,12,84,28,62,54,31,17,5,5,0.5,0.4
2023-09-17T21:00:00,1780A,123.9488,47.3386,齐齐哈尔市,中心广场,,39,39,28,21,15,79,34,61,56,32,19,2,2,0.4,0.3
2023-09-17T21:00:00,1781A,123.9483,47.3227,齐齐哈尔市,农牧车辆厂,颗粒物(PM10),60,70,40,15,9,82,37,65,59,31,18,7,7,0.5,0.4
2023-09-17T21:00:00,1783A,123.945,47.2988,齐齐哈尔市,市环境监测站,颗粒物(PM10),53,55,32,22,15,84,16,66,58,49,19,4,5,0.6,0.3
2023-09-17T21:00:00,1784A,129.61,44.561,牡丹江市,环保大楼,,46,46,31,14,12,76,8,68,52,31,16,5,6,0.6,0.5
2023-09-17T21:00:00,1785A,129.6115,44.5782,牡丹江市,文化广场,,45,43,36,31,19,72,3,55,40,42,22,8,8,0.9,0.5
2023-09-17T21:00:00,1786A,129.5904,44.5963,牡丹江市,第一医院,,33,33,28,9,12,73,19,57,48,22,17,5,7,0.6,0.5
2023-09-17T21:00:00,1787A,129.6364,44.6075,牡丹江市,机车工厂,,30,30,41,8,9,76,26,63,52,16,13,6,5,0.6,0.5
2023-09-17T21:00:00,1788A,129.6386,44.5462,牡丹江市,第一中学,,36,36,29,19,11,73,6,60,45,20,16,5,6,0.5,0.5
2023-09-17T21:00:00,1789A,124.81117,46.03138,大庆市,大同区,细颗粒物(PM2.5),58,56,45,41,30,84,47,77,69,20,17,6,6,0.6,0.5
2023-09-17T21:00:00,1790A,125.129,46.533,大庆市,龙凤区,颗粒物(PM10),56,61,41,37,16,79,28,61,56,45,21,4,5,0.8,0.6
2023-09-17T21:00:00,1791A,124.902,46.408,大庆市,红岗区,颗粒物(PM10),57,63,39,30,21,85,38,71,68,21,21,4,4,0.5,0.5
2023-09-17T21:00:00,1792A,125.153,46.586,大庆市,萨尔图区,细颗粒物(PM2.5),70,73,48,51,29,73,34,60,54,44,23,6,7,0.5,0.3
2023-09-17T21:00:00,1793A,124.9042,46.6215,大庆市,让胡路区,,48,48,36,21,16,76,41,65,63,33,26,4,7,0.5,0.5
2023-09-17T21:00:00,1794A,118.3606,31.3519,芜湖市,监测站,颗粒物(PM10),53,56,38,21,18,176,88,150,139,40,29,7,7,0.9,0.9
2023-09-17T21:00:00,1795A,118.3714,31.4134,芜湖市,科创中心,颗粒物(PM10),57,64,35,28,22,180,46,154,132,72,40,6,7,0.9,0.9
2023-09-17T21:00:00,1796A,118.3673,31.3131,芜湖市,四水厂,,46,46,33,26,23,195,96,162,156,25,19,4,6,0.8,0.8
2023-09-17T21:00:00,1798A,118.5092,31.6837,马鞍山市,湖东路四小,,43,43,34,17,23,159,73,138,120,28,25,6,7,0.5,0.6
2023-09-17T21:00:00,1799A,118.5024,31.6449,马鞍山市,开发区,颗粒物(PM10),52,53,52,18,24,171,29,136,105,62,34,7,7,0.9,1
2023-09-17T21:00:00,1800A,118.5228,31.7231,马鞍山市,慈湖,,35,35,41,20,24,148,85,133,114,25,27,11,21,0.9,1.1
2023-09-17T21:00:00,1802A,118.6245,31.7241,马鞍山市,濮塘,,32,19,19,19,19,133,102,113,104,3,3,3,2,0.8,0.9
2023-09-17T21:00:00,1803A,115.9872,29.6815,九江市,十里,,32,32,31,15,17,135,81,120,101,13,23,7,8,0.6,0.7
2023-09-17T21:00:00,1804A,115.9584,29.7046,九江市,茅山头,,39,34,28,27,21,158,83,123,103,18,29,11,10,0.8,0.9
2023-09-17T21:00:00,1805A,115.9877,29.7295,九江市,西园,,32,32,32,22,19,146,84,128,108,23,33,8,10,0.8,0.7
2023-09-17T21:00:00,1806A,116.0172,29.6547,九江市,五七二七厂,,32,14,19,15,13,115,102,108,107,3,8,10,9,0.5,0.6
2023-09-17T21:00:00,1808A,115.9114,29.6038,九江市,综合工业园,颗粒物(PM10),52,54,28,24,15,120,45,110,91,40,25,11,12,0.7,0.8
2023-09-17T21:00:00,1809A,116.0721,29.7535,九江市,石化总厂,,37,37,31,20,13,122,64,115,101,24,14,17,12,0.8,0.8
2023-09-17T21:00:00,1810A,115.9773,29.5698,九江市,庐山气象台,,30,18,21,14,14,108,95,100,94,2,2,10,9,0.7,0.7
2023-09-17T21:00:00,1812A,112.3931,34.6516,洛阳市,市委党校,颗粒物(PM10),60,70,64,37,40,184,120,165,158,25,28,6,7,0.5,0.4
2023-09-17T21:00:00,1814A,112.4657,34.6871,洛阳市,豫西宾馆,细颗粒物(PM2.5),75,92,71,55,42,177,102,167,157,39,28,3,3,0.7,0.7
2023-09-17T21:00:00,1815A,112.494,34.6886,洛阳市,河南林校,颗粒物(PM10),76,101,70,46,39,175,114,165,157,29,29,3,5,0.7,0.7
2023-09-17T21:00:00,1816A,112.3844,34.623,洛阳市,开发区管委会,颗粒物(PM10),53,56,56,25,28,190,123,170,162,16,15,2,3,0.4,0.4
2023-09-17T21:00:00,1817A,112.4267,34.6258,洛阳市,市委新办公区,细颗粒物(PM2.5),70,84,61,51,39,182,128,164,158,18,9,3,4,0.6,0.5
2023-09-17T21:00:00,1818A,114.4839,36.0621,安阳市,棉研所,,,,,,,,,,,,,,,,
2023-09-17T21:00:00,1819A,114.3551,36.1017,安阳市,红庙街,颗粒物(PM10),58,66,70,26,32,184,131,166,163,17,21,5,11,0.4,0.6
2023-09-17T21:00:00,1820A,114.361,36.0681,安阳市,银杏小区,,,63,65,,,176,122,158,155,17,28,5,9,0.4,0.6
2023-09-17T21:00:00,1824A,114.3389,34.7781,开封市,肿瘤医院,颗粒物(PM10),64,78,78,26,34,152,111,142,136,21,28,4,6,0.5,0.5
2023-09-17T21:00:00,1826A,114.2885,34.7965,开封市,世纪星幼儿园,,,74,64,,31,158,114,148,140,22,23,5,8,0.7,0.6
2023-09-17T21:00:00,1828A,113.227,35.2125,焦作市,市环保局,颗粒物(PM10),60,69,61,37,35,191,134,182,176,15,18,6,8,0.7,0.7
2023-09-17T21:00:00,1830A,113.1992,35.2590,焦作市,影视城,,,,,,,,,,,,,,,,
2023-09-17T21:00:00,1832A,113.3257,33.742,平顶山市,新华旅馆,颗粒物(PM10),78,106,65,41,32,158,58,146,122,44,32,6,5,0.9,0.7
2023-09-17T21:00:00,1833A,113.2919,33.737,平顶山市,规划设计院,颗粒物(PM10),74,97,54,49,30,155,66,144,126,34,28,10,8,0.7,0.4
2023-09-17T21:00:00,1834A,113.182,33.774,平顶山市,平顶山工学院,,50,50,44,29,20,157,106,146,136,15,18,4,6,0.8,0.7
2023-09-17T21:00:00,1835A,111.1922,34.7752,三门峡市,市政府,,25,19,45,12,23,143,78,124,110,13,15,4,7,0.6,0.6
2023-09-17T21:00:00,1836A,111.1587,34.7942,三门峡市,开发区,,28,21,53,19,26,147,88,126,114,7,8,4,7,0.4,0.5
2023-09-17T21:00:00,1838A,111.143,34.7955,三门峡市,风景区,,,,,,,,,,,,,,,,
2023-09-17T21:00:00,1840A,111.2992,30.6981,宜昌市,白龙岗,颗粒物(PM10),63,75,46,41,23,151,68,138,127,48,24,8,6,1.0,0.7
2023-09-17T21:00:00,1841A,111.3549,30.6465,宜昌市,伍家岗,,,,32,,29,167,72,139,124,32,24,6,5,0.8,0.6
2023-09-17T21:00:00,1842A,111.2628,30.6961,宜昌市,点军区,细颗粒物(PM2.5),73,92,46,53,24,171,51,150,132,28,17,8,8,0.7,0.5
2023-09-17T21:00:00,1843A,111.3275,30.7819,宜昌市,夷陵区,细颗粒物(PM2.5),79,93,45,58,24,185,73,153,143,38,21,7,6,0.6,0.4
2023-09-17T21:00:00,1844A,112.2494,30.3197,荆州市,市图书馆,细颗粒物(PM2.5),85,26,47,63,30,148,99,133,123,14,16,7,6,0.7,0.7
2023-09-17T21:00:00,1845A,112.2008,30.3544,荆州市,市委党校,,48,42,48,33,31,148,108,136,126,15,20,5,6,0.6,0.6
2023-09-17T21:00:00,1847A,113.1094,29.3578,岳阳市,南湖风景区,,42,42,30,28,21,130,66,118,110,33,19,10,10,0.7,0.6
2023-09-17T21:00:00,1848A,113.1493,29.4251,岳阳市,城陵矶,颗粒物(PM10),53,56,32,33,19,116,36,109,94,59,32,10,8,1.0,0.9
2023-09-17T21:00:00,1849A,113.1497,29.3575,岳阳市,开发区,,49,39,32,34,25,125,60,112,100,27,15,8,9,0.7,0.7
2023-09-17T21:00:00,1850A,113.2621,29.4758,岳阳市,云溪区,细颗粒物(PM2.5),57,42,26,40,18,124,49,116,102,25,13,8,8,0.9,0.7
2023-09-17T21:00:00,1851A,112.9943,29.4402,岳阳市,君山区,,35,35,30,21,21,128,87,117,110,22,24,9,10,0.7,0.6
2023-09-17T21:00:00,1852A,113.2117,29.355,岳阳市,金凤水库,,35,33,28,24,17,142,89,132,123,10,14,4,4,0.6,0.6
2023-09-17T21:00:00,1854A,111.6975,28.9703,常德市,市二中,细颗粒物(PM2.5),54,48,39,38,26,111,71,102,94,16,15,7,7,0.9,0.7
2023-09-17T21:00:00,1857A,111.7158,29.1456,常德市,白鹤山,,30,30,21,13,9,130,71,102,84,5,5,5,5,0.5,0.4
2023-09-17T21:00:00,1858A,110.5319,29.1217,张家界市,永定新区,,41,41,30,28,18,127,35,97,69,26,16,6,6,0.6,0.5
2023-09-17T21:00:00,1859A,110.4697,29.1242,张家界市,电业局,,38,33,26,26,17,114,38,88,62,26,15,4,4,0.6,0.5
2023-09-17T21:00:00,1860A,110.5594,29.3547,张家界市,未央路,,24,24,20,14,14,99,26,88,64,19,11,3,3,0.4,0.4
2023-09-17T21:00:00,1861A,110.4417,29.315,张家界市,袁家界,,18,0,18,6,12,87,56,78,67,3,7,8,8,0.6,0.6
2023-09-17T21:00:00,1862A,110.4144,25.3167,桂林市,电子科大尧山校区,,31,31,23,12,13,77,35,67,63,7,6,4,4,0.5,0.6
2023-09-17T21:00:00,1863A,110.2819,25.2697,桂林市,监测站,,33,33,28,9,14,89,41,82,75,24,11,5,9,0.6,0.6
2023-09-17T21:00:00,1864A,110.3089,25.2708,桂林市,龙隐路小学,,45,45,26,17,15,82,44,77,71,17,13,6,8,0.7,0.7
2023-09-17T21:00:00,1865A,110.2869,25.2178,桂林市,八中,,24,24,24,13,11,84,42,78,72,17,11,4,7,0.6,0.6
2023-09-17T21:00:00,1866A,109.2262,21.588,北海市,牛尾岭水库,,11,4,14,5,7,63,33,48,43,6,8,5,5,0.4,0.4
2023-09-17T21:00:00,1867A,109.1436,21.4086,北海市,海滩公园,,12,5,14,2,6,67,38,60,55,5,7,3,4,0.5,0.5
2023-09-17T21:00:00,1868A,109.0981,21.4661,北海市,新市环保局,,15,15,16,2,7,64,43,57,53,8,8,3,5,0.5,0.6
2023-09-17T21:00:00,1869A,109.1778,21.5233,北海市,北海工业园,,11,8,21,2,9,65,35,58,52,13,10,4,7,0.5,0.6
2023-09-17T21:00:00,1870A,109.4856,24.3895,柳州市,柳东小学,,35,27,25,24,15,98,50,80,73,18,13,8,13,0.4,0.4
2023-09-17T21:00:00,1871A,109.4157,24.3277,柳州市,环保监测站,颗粒物(PM10),53,56,34,19,15,92,8,70,48,45,20,4,4,1.1,0.6
2023-09-17T21:00:00,1872A,109.389,24.341,柳州市,河西水厂,颗粒物(PM10),63,76,44,27,19,109,4,76,44,39,25,11,8,0.9,0.8
2023-09-17T21:00:00,1873A,109.4311,24.2921,柳州市,市四中,颗粒物(PM10),52,54,33,20,13,86,37,72,58,28,21,8,9,1.1,0.9
2023-09-17T21:00:00,1874A,109.4006,24.3631,柳州市,市九中,颗粒物(PM10),68,85,43,38,16,98,4,74,48,51,26,10,10,0.8,0.6
2023-09-17T21:00:00,1875A,109.4958,24.3134,柳州市,古亭山,,35,35,25,14,10,84,32,75,64,21,19,6,16,0.8,0.7
2023-09-17T21:00:00,1876A,109.5078,18.2489,三亚市,河东子站,,14,14,10,2,3,56,33,48,41,5,5,3,3,0.4,0.3
2023-09-17T21:00:00,1877A,109.4964,18.2681,三亚市,河西子站,,11,11,10,5,5,66,24,49,41,7,6,3,2,0.3,0.2
2023-09-17T21:00:00,1878A,104.7778,31.4741,绵阳市,富乐山,,32,28,46,22,34,90,87,73,73,9,21,4,4,0.7,0.8
2023-09-17T21:00:00,1879A,104.7563,31.4535,绵阳市,市人大,,32,32,50,22,33,77,75,67,67,17,29,11,12,0.6,0.7
2023-09-17T21:00:00,1880A,104.6697,31.4668,绵阳市,高新区自来水公司,,35,30,42,24,30,84,57,66,66,25,23,7,8,0.6,0.6
2023-09-17T21:00:00,1881A,104.7287,31.5075,绵阳市,三水厂,,38,36,66,26,39,79,70,65,65,20,37,7,8,0.7,0.9
2023-09-17T21:00:00,1882A,104.563,28.793,宜宾市,石马中学,,,,,,,,,,,,,,,,
2023-09-17T21:00:00,1883A,104.6201,28.7728,宜宾市,市委,细颗粒物(PM2.5),127,134,91,96,63,250,137,195,179,22,32,12,13,0.9,0.8
2023-09-17T21:00:00,1884A,104.6055,28.793,宜宾市,宜宾四中,细颗粒物(PM2.5),115,125,95,87,66,254,139,194,175,20,32,9,11,1.0,0.9
2023-09-17T21:00:00,1885A,104.639,28.7562,宜宾市,市政府,细颗粒物(PM2.5),128,114,85,97,62,229,141,190,178,19,31,10,11,0.9,0.8
2023-09-17T21:00:00,1886A,104.5742,28.7199,宜宾市,黄金嘴,细颗粒物(PM2.5),115,115,83,87,61,220,148,190,180,18,30,11,11,0.8,0.7
2023-09-17T21:00:00,1888A,101.6891,26.571,攀枝花市,弄弄坪,,42,42,64,22,35,126,58,109,100,26,26,12,15,1.6,1.3
2023-09-17T21:00:00,1889A,101.5769,26.5928,攀枝花市,河门口,颗粒物(PM10),51,51,50,26,29,127,82,117,112,20,24,12,23,1.1,1.5
2023-09-17T21:00:00,1890A,101.7169,26.585,攀枝花市,炳草岗,,45,45,56,21,33,130,29,116,101,60,28,19,34,0.9,1
2023-09-17T21:00:00,1891A,101.7369,26.5008,攀枝花市,仁和,颗粒物(PM10),55,60,34,38,24,102,52,99,90,20,15,6,8,0.6,0.5
2023-09-17T21:00:00,1893A,105.4324,28.9634,泸州市,九狮山,细颗粒物(PM2.5),93,46,53,69,35,166,83,145,135,23,23,7,7,0.5,0.5
2023-09-17T21:00:00,1894A,105.4427,28.9063,泸州市,小市上码头,细颗粒物(PM2.5),100,102,76,75,54,199,155,171,170,20,21,7,9,0.7,0.6
2023-09-17T21:00:00,1895A,105.4241,28.8573,泸州市,兰田宪桥,细颗粒物(PM2.5),82,85,66,60,49,198,159,166,166,19,17,10,9,0.5,0.6
2023-09-17T21:00:00,1896A,105.4379,28.8833,泸州市,市环监站,细颗粒物(PM2.5),83,91,70,61,47,174,125,140,139,30,22,6,7,0.7,0.6
2023-09-17T21:00:00,1901A,104.4239,31.1208,德阳市,东山公园,,49,49,65,24,30,94,89,78,78,15,24,1,3,0.7,0.8
2023-09-17T21:00:00,1902A,104.3826,31.1317,德阳市,西小区,颗粒物(PM10),52,54,59,33,34,99,51,79,77,27,23,6,7,0.7,0.8
2023-09-17T21:00:00,1904A,104.3553,31.1091,德阳市,耐火材料厂,,47,47,62,27,33,100,58,84,81,16,20,4,6,0.7,0.7
2023-09-17T21:00:00,1905A,106.056,30.8064,南充市,西山风景区,细颗粒物(PM2.5),60,52,48,43,36,154,95,126,122,12,13,4,5,0.6,0.6
2023-09-17T21:00:00,1906A,106.0789,30.8023,南充市,南充市委,细颗粒物(PM2.5),72,61,61,52,46,150,92,131,123,18,25,7,7,0.6,0.6
2023-09-17T21:00:00,1907A,106.1031,30.8217,南充市,南充炼油厂,细颗粒物(PM2.5),67,77,66,48,40,152,89,128,119,14,20,9,7,0.7,0.6
2023-09-17T21:00:00,1908A,106.1064,30.7856,南充市,高坪区监测站,细颗粒物(PM2.5),70,74,70,51,46,141,86,123,116,18,25,8,7,0.4,0.4
2023-09-17T21:00:00,1909A,106.0642,30.7636,南充市,嘉陵区环保局,细颗粒物(PM2.5),64,64,60,46,39,144,83,124,117,25,30,6,7,0.4,0.5
2023-09-17T21:00:00,1910A,106.1087,30.8388,南充市,市环境监测站,细颗粒物(PM2.5),78,94,70,57,45,142,80,115,107,22,22,11,8,0.6,0.6
2023-09-17T21:00:00,1911A,106.9222,27.6869,遵义市,丁字口,,36,36,20,22,16,98,39,85,74,32,22,6,5,0.7,0.5
2023-09-17T21:00:00,1912A,106.9242,27.7019,遵义市,凤凰山,,38,24,21,26,17,111,69,100,92,9,11,7,7,0.5,0.5
2023-09-17T21:00:00,1913A,106.8906,27.6486,遵义市,忠庄,,37,37,31,24,16,100,47,88,79,17,12,2,2,0.5,0.5
2023-09-17T21:00:00,1914A,106.9231,27.6506,遵义市,舟水桥,,,110,31,,11,101,31,88,77,30,15,3,2,0.9,0.6
2023-09-17T21:00:00,1915A,106.9178,27.72,遵义市,干田坝,,30,21,21,21,12,106,50,93,84,18,15,5,4,0.6,0.6
2023-09-17T21:00:00,1916A,103.7897,25.5035,曲靖市,环境监测站,,38,38,33,9,12,79,47,72,69,18,16,10,9,0.6,0.5
2023-09-17T21:00:00,1917A,103.8,25.5364,曲靖市,烟厂办公区,,,,31,,17,83,,75,75,19,14,13,11,0.7,0.7
2023-09-17T21:00:00,1918A,108.7197,34.3956,咸阳市,气象站,,,,,,,,,,,,,,,,
2023-09-17T21:00:00,1919A,108.673,34.3155,咸阳市,实验中学,细颗粒物(PM2.5),90,127,66,67,39,146,48,124,112,38,17,7,10,0.8,0.6
2023-09-17T21:00:00,1920A,108.7233,34.3617,咸阳市,师范学院,细颗粒物(PM2.5),78,101,66,57,36,138,53,116,104,36,26,6,8,1.1,0.9
2023-09-17T21:00:00,1922A,109.0656,35.0994,铜川市,党校,,34,34,61,10,27,108,79,102,90,26,31,6,7,0.5,0.7
2023-09-17T21:00:00,1923A,109.0697,35.0697,铜川市,王益区政府,,27,13,43,13,25,110,86,101,96,8,23,7,7,0.6,0.8
2023-09-17T21:00:00,1924A,108.9344,34.9058,铜川市,新区管委会,颗粒物(PM10),62,73,55,21,27,120,84,108,104,17,21,8,8,0.5,0.5
2023-09-17T21:00:00,1926A,109.4131,36.6275,延安市,枣园,,25,25,24,10,11,106,25,80,66,34,25,7,6,0.4,0.4
2023-09-17T21:00:00,1927A,109.4761,36.6028,延安市,延大医附院,,23,23,25,11,11,104,26,84,65,41,26,4,5,0.5,0.3
2023-09-17T21:00:00,1929A,109.5056,36.6106,延安市,百米大道,,25,25,32,10,14,100,26,75,55,47,38,6,7,0.7,0.7
2023-09-17T21:00:00,1930A,107.185,34.3063,宝鸡市,庙沟村,,25,15,47,17,28,91,21,82,36,19,22,7,8,0.5,0.6
2023-09-17T21:00:00,1931A,107.0708,34.3017,宝鸡市,竹园沟,,29,19,42,20,32,74,20,60,50,11,16,8,8,0.6,0.6
2023-09-17T21:00:00,1932A,107.1906,34.3672,宝鸡市,三陆医院,细颗粒物(PM2.5),62,58,66,44,39,75,22,69,52,44,35,6,9,0.8,0.7
2023-09-17T21:00:00,1933A,107.1431,34.3547,宝鸡市,监测站,颗粒物(PM10),58,66,62,34,38,78,6,63,52,36,33,6,6,0.8,0.6
2023-09-17T21:00:00,1934A,107.1186,34.3739,宝鸡市,技工学校,细颗粒物(PM2.5),87,68,60,64,45,94,41,74,69,31,26,6,7,0.8,0.7
2023-09-17T21:00:00,1935A,107.3906,34.3528,宝鸡市,陈仓区环保局家属楼,颗粒物(PM10),76,101,71,47,42,98,13,70,51,60,41,8,9,0.8,0.7
2023-09-17T21:00:00,1936A,107.2058,34.3497,宝鸡市,文理学院,颗粒物(PM10),57,63,62,36,37,77,16,68,57,42,29,7,8,0.9,0.8
2023-09-17T21:00:00,1937A,107.2386,34.3622,宝鸡市,三迪小学,细颗粒物(PM2.5),68,72,62,49,41,80,24,72,60,48,33,5,6,0.8,0.7
2023-09-17T21:00:00,1938A,109.5293,34.5101,渭南市,农科所,颗粒物(PM10),65,80,62,44,36,135,49,116,100,39,28,5,6,0.8,0.6
2023-09-17T21:00:00,1939A,109.4974,34.4877,渭南市,日报社,细颗粒物(PM2.5),89,112,65,66,41,149,11,127,101,90,37,6,7,0.9,0.6
2023-09-17T21:00:00,1940A,109.4636,34.493,渭南市,体育馆,细颗粒物(PM2.5),104,112,60,78,34,154,38,129,107,66,39,4,6,1.0,0.8
2023-09-17T21:00:00,1941A,109.4259,34.5023,渭南市,高新一小,"颗粒物(PM10),细颗粒物(PM2.5)",77,104,68,56,34,143,46,124,111,54,19,6,8,0.9,0.7
2023-09-17T21:00:00,1944A,102.1692,38.5167,金昌市,天庆家园,颗粒物(PM10),53,55,38,13,8,119,102,112,111,13,10,8,8,0.7,0.4
2023-09-17T21:00:00,1945A,98.2908,39.7711,嘉峪关市,气象局,,46,46,40,9,11,131,96,124,122,19,13,4,14,0.1,0.2
2023-09-17T21:00:00,1947A,106.3394,38.817,石嘴山市,沙湖旅游区,,48,48,43,13,17,128,68,110,109,30,15,10,9,0.8,0.9
2023-09-17T21:00:00,1948A,106.3668,39.0145,石嘴山市,大武口朝阳西街,颗粒物(PM10),58,66,50,19,20,127,62,99,99,58,22,11,8,0.5,0.4
2023-09-17T21:00:00,1949A,106.7704,39.2282,石嘴山市,惠农南大街,颗粒物(PM10),64,78,60,18,22,112,58,103,96,53,32,29,34,1.0,1.1
2023-09-17T21:00:00,1950A,106.7099,39.1325,石嘴山市,红果子镇惠新街,颗粒物(PM10),52,54,48,14,21,124,56,96,94,42,26,7,19,0.3,0.9
2023-09-17T21:00:00,1951A,84.895,45.6094,克拉玛依市,长征新村,,15,14,12,5,7,83,47,75,73,30,13,10,9,0.5,0.3
2023-09-17T21:00:00,1952A,84.8988,45.5893,克拉玛依市,南林小区,,18,18,14,7,8,85,55,75,74,24,18,6,6,0.2,0.2
2023-09-17T21:00:00,1954A,84.905,44.3396,克拉玛依市,独山子区,,22,16,10,11,8,96,70,89,88,16,8,4,4,0.5,0.4
2023-09-17T21:00:00,1955A,85.6979,46.098,克拉玛依市,乌尔禾区商贸楼,,28,28,12,17,6,82,44,74,70,24,10,7,6,0.4,0.4
2023-09-17T21:00:00,1956A,86.1472,41.7538,巴音郭楞州,孔雀公园,颗粒物(PM10),53,55,44,19,14,102,78,95,93,28,28,8,8,0.4,0.4
2023-09-17T21:00:00,1957A,86.1972,41.7166,巴音郭楞州,棉纺厂,,48,48,54,26,19,103,77,97,95,22,22,6,6,0.4,0.3
2023-09-17T21:00:00,1958A,86.2357,41.7173,巴音郭楞州,经济开发区,,30,30,52,4,25,103,91,99,98,11,16,10,8,0.3,0.2
2023-09-17T21:00:00,1961A,117.532,36.6868,济南市,东山小学,颗粒物(PM10),51,51,63,22,32,201,121,186,153,32,27,5,7,0.5,0.7
2023-09-17T21:00:00,1966A,120.0405,35.8735,青岛市,黄岛区4号,臭氧1小时,84,46,40,27,21,196,187,185,184,8,30,12,8,1.3,0.7
2023-09-17T21:00:00,1982A,122.0693,37.2174,威海市,文登开发区,,29,29,25,12,10,129,91,123,116,9,14,7,7,0.5,0.5
2023-09-17T21:00:00,2031A,113.1817,27.9958,株洲市,云田中学,,32,32,33,13,18,122,63,106,92,9,9,7,8,0.6,0.7
2023-09-17T21:00:00,2054A,114.1099,32.1059,信阳市,平桥分局,,39,31,29,27,19,140,122,134,130,14,14,4,3,1.0,0.8
2023-09-17T21:00:00,2064A,113.9956,32.1271,信阳市,南湾水厂,颗粒物(PM10),52,53,36,26,19,148,138,139,135,8,8,4,3,0.9,0.8
2023-09-17T21:00:00,2065A,114.0775,32.1195,信阳市,市酿酒公司,,40,37,31,27,19,144,125,136,130,16,19,4,3,1.1,0.9
2023-09-17T21:00:00,2066A,114.0609,32.1399,信阳市,审计局,,48,45,31,25,18,160,151,144,144,16,17,6,4,1.0,0.9
2023-09-17T21:00:00,2067A,114.6613,33.6128,周口市,市环境监测站,颗粒物(PM10),58,65,58,32,24,180,119,164,156,26,26,5,8,0.7,0.5
2023-09-17T21:00:00,2068A,114.6758,33.6347,周口市,周口师范,颗粒物(PM10),51,51,52,29,23,174,121,160,154,21,23,4,6,0.9,0.7
2023-09-17T21:00:00,2069A,114.6546,33.5979,周口市,市运管处,颗粒物(PM10),58,65,55,30,24,172,112,159,150,27,25,7,10,0.8,0.6
2023-09-17T21:00:00,2070A,114.6369,33.6406,周口市,川汇区环保局,颗粒物(PM10),54,58,46,26,21,163,116,150,145,14,16,5,7,0.7,0.6
2023-09-17T21:00:00,2075A,117.6336,24.4674,漳州市,九湖,,,,,,,,,,,,,,,,
2023-09-17T21:00:00,2160A,112.85,35.5051,晋城市,自来水公司,颗粒物(PM10),61,72,63,27,31,169,156,159,159,20,22,9,9,1.0,1
2023-09-17T21:00:00,2161A,112.8318,35.4936,晋城市,白云商贸,颗粒物(PM10),58,66,58,29,28,158,127,149,149,27,25,9,9,1.1,1.1
2023-09-17T21:00:00,2162A,112.8508,35.4887,晋城市,市环保局,颗粒物(PM10),68,86,74,34,32,162,139,151,151,22,32,9,9,1.0,0.9
2023-09-17T21:00:00,2163A,112.8676,35.4897,晋城市,技术学院,,45,40,55,27,28,162,144,151,151,22,34,9,9,1.0,1
2023-09-17T21:00:00,2165A,112.8453,35.546,晋城市,白马寺,,,,,,,,,,,,,,,,
2023-09-17T21:00:00,2166A,112.4397,39.3522,朔州市,平朔,,36,26,28,7,12,140,114,132,129,8,12,4,5,0.5,0.5
2023-09-17T21:00:00,2167A,112.4575,39.3617,朔州市,朔唯,,35,24,32,12,13,132,109,126,123,9,12,5,6,0.3,0.4
2023-09-17T21:00:00,2168A,112.4258,39.3197,朔州市,区政府,,33,24,31,14,14,132,105,126,122,12,12,5,5,0.5,0.5
2023-09-17T21:00:00,2169A,112.4072,39.3278,朔州市,市环保局,,42,42,35,2,12,140,111,134,130,11,12,6,5,0.5,0.5
2023-09-17T21:00:00,2170A,112.4272,39.3681,朔州市,市二中,,35,19,31,21,15,135,111,129,126,8,13,6,6,0.5,0.5
2023-09-17T21:00:00,2171A,112.7532,37.6945,晋中市,锦纶小区,,39,39,74,25,33,204,100,188,172,25,22,8,11,0.3,0.7
2023-09-17T21:00:00,2173A,112.7249,37.7067,晋中市,南都小区,,42,42,71,23,44,200,99,186,170,27,22,7,11,0.2,0.7
2023-09-17T21:00:00,2174A,112.6991,37.6982,晋中市,榆次区政府,,38,38,69,21,42,203,111,186,172,16,22,7,12,0.4,0.8
2023-09-17T21:00:00,2175A,110.9956,35.0147,运城市,运城中学,,47,47,48,18,23,140,103,120,116,6,8,4,6,0.8,0.7
2023-09-17T21:00:00,2178A,110.9686,35.0303,运城市,地区技校,,48,48,44,22,22,131,93,115,109,8,10,3,5,1.0,0.8
2023-09-17T21:00:00,2179A,111.0414,35.1147,运城市,空港新区,,46,46,45,21,27,137,99,129,122,10,11,4,5,1.1,0.7
2023-09-17T21:00:00,2181A,112.7383,38.4519,忻州市,开发区,颗粒物(PM10),57,63,71,29,46,155,75,136,130,31,22,14,18,0.8,1.1
2023-09-17T21:00:00,2182A,112.7003,38.4928,忻州市,会展中心,细颗粒物(PM2.5),57,54,69,40,51,162,69,138,125,34,23,12,16,0.6,0.9
2023-09-17T21:00:00,2183A,111.1406,37.5211,吕梁市,环保局,,30,30,40,11,14,103,44,87,78,39,38,6,5,0.6,0.6
2023-09-17T21:00:00,2185A,111.1297,37.5136,吕梁市,自来水公司,,26,26,40,12,15,107,49,89,80,42,30,5,5,0.6,0.6
2023-09-17T21:00:00,2187A,106.8174,39.6973,乌海市,市林业局,颗粒物(PM10),62,74,47,20,20,117,40,110,97,46,15,9,12,0.9,0.8
2023-09-17T21:00:00,2188A,106.7907,39.6667,乌海市,中海勃湾学校,,44,44,42,21,18,120,56,116,105,48,17,9,11,0.5,0.6
2023-09-17T21:00:00,2191A,122.2532,43.6801,通辽市,艺术职业学校,颗粒物(PM10),65,79,41,3,19,107,99,97,97,11,16,5,5,0.6,0.6
2023-09-17T21:00:00,2192A,119.7594,49.2261,呼伦贝尔市,区环保局,,35,23,16,24,17,72,47,65,63,22,11,5,5,0.5,0.4
2023-09-17T21:00:00,2195A,107.4212,40.761,巴彦淖尔市,附二中,颗粒物(PM10),63,76,47,20,16,116,76,110,104,30,18,5,4,0.5,0.3
2023-09-17T21:00:00,2196A,107.37,40.7372,巴彦淖尔市,市环保大楼,颗粒物(PM10),59,68,52,17,19,114,87,109,105,12,14,9,5,0.4,0.4
2023-09-17T21:00:00,2197A,113.1306,40.9923,乌兰察布市,集宁新区,,30,29,32,21,21,143,92,132,125,28,18,16,12,0.2,0.3
2023-09-17T21:00:00,2200A,122.0392,46.0656,兴安盟,胜华新制药厂,,33,28,32,23,19,76,47,69,58,21,13,2,3,0.5,0.3
2023-09-17T21:00:00,2201A,121.9504,46.0741,兴安盟,科右前旗环保局,,39,24,24,27,14,79,37,72,58,15,9,3,4,0.6,0.6
2023-09-17T21:00:00,2202A,116.1042,43.9317,锡林郭勒盟,市环保监测站,,24,15,17,3,6,116,74,101,96,16,9,11,11,0.2,0.2
2023-09-17T21:00:00,2203A,116.0781,43.9311,锡林郭勒盟,市政府,,24,17,18,2,4,123,75,105,101,20,12,12,12,0.3,0.2
2023-09-17T21:00:00,2204A,105.6467,38.8363,阿拉善盟,西城区西花园,颗粒物(PM10),59,67,47,17,18,123,49,113,104,44,12,8,9,0.7,0.5
2023-09-17T21:00:00,2205A,105.6985,38.8411,阿拉善盟,蒙二幼,颗粒物(PM10),52,53,48,18,18,121,83,114,110,24,8,9,9,0.5,0.4
2023-09-17T21:00:00,2206A,105.724,38.8516,阿拉善盟,环保局新楼,,35,35,41,12,17,139,88,117,107,12,6,6,6,0.5,0.5
2023-09-17T21:00:00,2207A,121.6094,41.998,阜新市,工业园区,,48,48,64,23,29,194,125,168,163,14,19,15,15,0.7,1
2023-09-17T21:00:00,2208A,121.6697,42.0279,阜新市,长青街,颗粒物(PM10),51,52,62,22,33,188,121,164,158,14,18,12,16,0.6,0.8
2023-09-17T21:00:00,2209A,121.6673,42.0705,阜新市,农业园区,,40,37,54,20,34,197,126,174,169,15,16,11,11,0.7,1.1
2023-09-17T21:00:00,2210A,121.6717,42.0224,阜新市,东苑,颗粒物(PM10),52,54,59,14,32,187,125,167,162,10,12,12,14,0.7,0.9
2023-09-17T21:00:00,2211A,121.6506,42.0498,阜新市,玉龙新城,,47,47,62,19,29,174,110,156,149,15,19,11,10,0.4,0.7
2023-09-17T21:00:00,2212A,123.2,41.1953,辽阳市,宏伟区,,48,48,50,25,27,189,130,173,165,25,21,12,11,0.8,1.1
2023-09-17T21:00:00,2213A,123.1683,41.2495,辽阳市,新华园,颗粒物(PM10),74,97,80,27,34,165,106,150,141,26,31,10,15,0.7,1.1
2023-09-17T21:00:00,2214A,123.2354,41.2639,辽阳市,滨河路,颗粒物(PM10),53,56,58,32,33,176,102,161,150,23,24,29,13,0.9,1.1
2023-09-17T21:00:00,2215A,123.149,41.2991,辽阳市,铁西工业园,颗粒物(PM10),64,77,78,32,40,195,124,171,159,25,33,11,11,0.9,1.2
2023-09-17T21:00:00,2216A,123.8139,42.3022,铁岭市,汇工街西,细颗粒物(PM2.5),65,76,70,47,38,192,101,168,154,35,42,10,28,0.8,0.8
2023-09-17T21:00:00,2217A,123.8649,42.2923,铁岭市,水上乐园,细颗粒物(PM2.5),67,81,58,48,32,200,103,182,164,43,24,3,4,1.1,0.9
2023-09-17T21:00:00,2218A,123.8486,42.2867,铁岭市,银州路东段,细颗粒物(PM2.5),79,100,73,58,38,182,100,168,156,43,27,5,5,0.9,0.8
2023-09-17T21:00:00,2219A,123.7153,42.2217,铁岭市,金沙江路北,细颗粒物(PM2.5),75,96,65,55,39,196,68,162,137,66,43,9,8,1.0,0.9
2023-09-17T21:00:00,2220A,120.4318,41.5881,朝阳市,西梁,,38,23,59,26,34,173,119,161,156,19,14,10,13,0.8,0.8
2023-09-17T21:00:00,2221A,120.4521,41.5646,朝阳市,河畔小区,,43,29,61,27,32,178,137,170,167,17,12,9,10,0.9,0.8
2023-09-17T21:00:00,2222A,120.4176,41.5648,朝阳市,八里堡,,43,43,60,25,31,166,120,150,147,18,16,7,11,0.9,1
2023-09-17T21:00:00,2223A,120.3806,41.5969,朝阳市,农业园区,,33,30,54,20,37,160,104,152,147,20,16,7,11,0.7,1
2023-09-17T21:00:00,2225A,124.4002,43.1713,四平市,一商场,细颗粒物(PM2.5),87,122,73,64,36,181,138,172,163,36,30,10,4,0.9,0.7
2023-09-17T21:00:00,2226A,124.388,43.193,四平市,境园,细颗粒物(PM2.5),97,96,60,72,40,184,47,177,158,51,28,4,5,0.8,0.6
2023-09-17T21:00:00,2227A,125.1358,42.8845,辽源市,环保局,,40,40,34,26,19,150,38,140,105,38,18,5,6,1.0,0.9
2023-09-17T21:00:00,2229A,125.9358,41.7173,通化市,光明,,28,28,38,10,21,102,15,80,61,28,21,10,13,0.5,0.6
2023-09-17T21:00:00,2230A,125.9446,41.7325,通化市,铁路,,20,20,39,8,22,104,23,75,60,25,24,5,15,0.5,1
2023-09-17T21:00:00,2231A,126.4219,41.9171,白山市,喜丰,,44,44,51,12,15,85,25,74,61,20,20,6,8,0.6,0.7
2023-09-17T21:00:00,2232A,126.4077,41.9419,白山市,环保局,,,,36,22,13,20,14,20,17,27,28,2,8,1.0,0.7
2023-09-17T21:00:00,2233A,124.8006,45.1214,松原市,江南,,48,48,43,31,25,121,76,100,99,16,16,7,6,0.6,0.5
2023-09-17T21:00:00,2234A,124.7965,45.1722,松原市,江北,,45,43,32,31,23,116,68,95,92,13,14,3,4,0.6,0.5
2023-09-17T21:00:00,2235A,122.7911,45.6077,白城市,洮北区环保局,,32,32,20,20,8,92,77,82,80,11,12,3,4,0.2,0.1
2023-09-17T21:00:00,2236A,122.8738,45.5725,白城市,市环保局,,36,36,24,18,9,98,87,84,80,11,13,8,8,0.4,0.3
2023-09-17T21:00:00,2237A,129.47,42.8883,延边朝鲜族自治州,妇幼医院,,,13,18,5,10,68,,60,55,,13,,8,,0.5
2023-09-17T21:00:00,2238A,129.5055,42.9108,延边朝鲜族自治州,延边医院,,17,17,14,9,9,68,44,68,55,18,14,6,6,0.6,0.6
2023-09-17T21:00:00,2239A,129.3964,42.8881,延边朝鲜族自治州,朝阳川镇医院,,12,12,13,6,8,74,31,64,55,12,11,7,7,0.5,0.5
2023-09-17T21:00:00,2240A,130.9762,45.3001,鸡西市,环保局,,41,41,44,14,13,31,8,24,21,29,25,5,6,0.7,0.6
2023-09-17T21:00:00,2243A,130.9429,45.3039,鸡西市,第一中学,,43,43,45,16,15,35,12,33,24,26,25,7,9,0.6,0.5
2023-09-17T21:00:00,2244A,130.2537,47.3416,鹤岗市,哈啤分公司,,41,41,27,14,13,81,47,66,61,8,9,9,10,0.3,0.3
2023-09-17T21:00:00,2245A,130.2684,47.3086,鹤岗市,斯达机电,颗粒物(PM10),65,79,42,19,12,76,18,67,60,38,17,7,8,0.7,0.4
2023-09-17T21:00:00,2246A,130.3114,47.3388,鹤岗市,东山纸板厂,颗粒物(PM10),141,232,102,24,18,79,2,63,45,27,18,10,10,0.7,0.5
2023-09-17T21:00:00,2247A,130.1097,47.3382,鹤岗市,五号水库,,16,14,18,11,8,87,27,68,56,11,10,10,12,0.4,0.4
2023-09-17T21:00:00,2248A,131.1511,46.6937,双鸭山市,双合村,颗粒物(PM10),52,54,62,15,19,86,40,68,60,18,17,13,15,0.8,1.2
2023-09-17T21:00:00,2249A,131.1652,46.6191,双鸭山市,南小市,颗粒物(PM10),58,66,39,25,12,88,20,74,59,20,12,6,6,0.2,0.1
2023-09-17T21:00:00,2250A,131.1524,46.6554,双鸭山市,环保局,,41,41,38,19,12,78,51,64,62,15,19,8,9,0.3,0.4
2023-09-17T21:00:00,2251A,131.12,46.5656,双鸭山市,苗圃,,20,17,10,7,8,118,64,96,86,3,7,4,4,0.4,0.3
2023-09-17T21:00:00,2252A,128.5159,47.4311,伊春市,环保局,,,31,24,20,13,74,,54,49,16,19,8,16,0.8,0.9
2023-09-17T21:00:00,2253A,128.9102,47.7412,伊春市,电力嘉园,,14,14,22,6,6,87,29,69,58,12,16,9,19,1.1,1.2
2023-09-17T21:00:00,2254A,129.5029,48.471,伊春市,汤旺河国家公园,,30,30,23,16,17,119,14,83,56,4,3,14,12,0.3,0.3
2023-09-17T21:00:00,2255A,130.2751,46.8028,佳木斯市,佳纺,颗粒物(PM10),71,92,43,41,16,73,8,61,48,40,21,5,4,0.7,0.6
2023-09-17T21:00:00,2256A,130.3995,46.8307,佳木斯市,发电厂,,29,29,40,14,12,86,39,71,66,5,10,4,4,0.4,0.5
2023-09-17T21:00:00,2257A,130.3258,46.7975,佳木斯市,环保局,颗粒物(PM10),54,58,48,23,17,66,5,53,43,57,27,5,5,0.9,0.6
2023-09-17T21:00:00,2258A,130.3648,46.8032,佳木斯市,十一中,,50,50,49,23,21,80,11,65,60,57,22,4,5,1.1,0.6
2023-09-17T21:00:00,2259A,130.3794,46.7588,佳木斯市,四丰,,36,36,28,19,12,90,37,66,61,13,19,1,1,0.4,0.4
2023-09-17T21:00:00,2262A,131.0518,45.8751,七台河市,新一中,,28,28,19,13,9,67,32,60,53,12,9,7,8,0.6,0.6
2023-09-17T21:00:00,2263A,127.4833,50.2524,黑河市,交通局,,12,6,20,8,11,24,22,15,15,6,17,4,4,0.4,0.5
2023-09-17T21:00:00,2264A,127.5144,50.2341,黑河市,环保局,,13,13,21,8,10,24,19,15,15,12,17,2,3,0.5,0.5
2023-09-17T21:00:00,2265A,127.5291,50.2472,黑河市,大黑河岛,,,2,20,18,19,,,,,2,2,1,1,0.5,0.4
2023-09-17T21:00:00,2266A,126.9785,46.6365,绥化市,人和东街,颗粒物(PM10),58,66,36,38,15,117,70,104,100,38,18,5,9,0.7,0.4
2023-09-17T21:00:00,2267A,126.964,46.6528,绥化市,党政办公中心,颗粒物(PM10),60,70,34,38,15,110,80,105,103,26,16,8,10,0.6,0.4
2023-09-17T21:00:00,2269A,124.1069,50.4097,大兴安岭地区,科技局,,15,9,14,10,8,28,28,24,24,5,8,3,4,0.4,0.4
2023-09-17T21:00:00,2270A,117.396,32.939,蚌埠市,工人疗养院,,46,46,36,26,15,165,104,151,141,14,12,3,4,0.6,0.5
2023-09-17T21:00:00,2271A,117.3605,32.9427,蚌埠市,百货大楼,颗粒物(PM10),51,51,41,24,18,167,113,150,140,12,12,4,6,0.6,0.5
2023-09-17T21:00:00,2273A,117.4185,32.8911,蚌埠市,蚌埠学院,颗粒物(PM10),58,66,38,30,18,159,86,145,130,18,12,5,5,0.5,0.4
2023-09-17T21:00:00,2274A,117.3533,32.9673,蚌埠市,淮上区政府,颗粒物(PM10),53,56,38,32,23,160,99,148,133,22,23,5,6,0.5,0.4
2023-09-17T21:00:00,2275A,117.3145,32.8977,蚌埠市,高新区,颗粒物(PM10),53,56,35,29,19,164,97,152,136,19,13,4,5,0.7,0.6
2023-09-17T21:00:00,2277A,116.8305,32.7727,淮南市,潘集区政府,颗粒物(PM10),58,65,43,30,22,143,73,136,117,23,17,9,7,0.4,0.4
2023-09-17T21:00:00,2278A,117.0067,32.6524,淮南市,师范学院,颗粒物(PM10),56,62,36,29,20,140,76,133,119,29,15,7,6,0.5,0.4
2023-09-17T21:00:00,2279A,116.8569,32.5951,淮南市,谢家集区政府,颗粒物(PM10),56,61,26,19,9,145,78,135,120,41,21,53,12,0.5,0.3
2023-09-17T21:00:00,2280A,116.8281,32.633,淮南市,八公山区政府,颗粒物(PM10),56,61,43,31,22,139,77,130,113,24,15,9,8,0.4,0.4
2023-09-17T21:00:00,2281A,116.6325,32.6201,淮南市,焦岗湖风景区管理处,,34,34,23,21,9,122,54,115,103,30,13,1,2,0.4,0.3
2023-09-17T21:00:00,2282A,116.8004,33.975,淮北市,监测站,颗粒物(PM10),56,61,35,24,20,156,102,149,138,29,15,8,7,0.6,0.5
2023-09-17T21:00:00,2283A,116.8091,33.9007,淮北市,烈山区政府,颗粒物(PM10),57,63,47,31,27,162,115,152,144,22,17,6,9,0.4,0.4
2023-09-17T21:00:00,2285A,117.8177,30.9412,铜陵市,市第四中学,,42,42,40,22,22,139,74,122,110,20,18,5,5,0.7,0.8
2023-09-17T21:00:00,2286A,117.8059,30.9273,铜陵市,市公路局,,43,43,42,18,25,155,95,138,129,16,18,10,10,0.7,0.9
2023-09-17T21:00:00,2287A,117.7807,30.9413,铜陵市,市新民污水厂,颗粒物(PM10),55,60,45,24,18,160,61,132,112,30,21,8,8,0.8,0.8
2023-09-17T21:00:00,2288A,117.7439,30.8792,铜陵市,市第九中学,,36,36,56,16,19,156,113,131,126,13,27,7,4,0.6,0.7
2023-09-17T21:00:00,2289A,117.846,30.9413,铜陵市,车站新区,,48,36,36,33,22,145,57,129,114,37,27,6,7,0.7,0.8
2023-09-17T21:00:00,2290A,117.8483,30.97,铜陵市,市职教基地,,40,40,29,15,14,143,68,125,114,24,18,5,6,0.9,0.9
2023-09-17T21:00:00,2291A,117.0809,30.5177,安庆市,环科院,,46,35,27,17,16,130,13,118,101,92,29,6,6,0.7,0.7
2023-09-17T21:00:00,2292A,117.0331,30.5119,安庆市,马山宾馆,,43,38,31,30,15,139,43,127,116,67,27,5,4,0.8,0.7
2023-09-17T21:00:00,2294A,116.9896,30.6145,安庆市,安庆大学,,40,40,32,22,17,140,56,128,110,31,22,4,5,0.6,0.6
2023-09-17T21:00:00,2295A,118.2903,29.6963,黄山市,延安路89号,,28,28,28,8,7,105,36,89,78,9,5,4,4,0.4,0.4
2023-09-17T21:00:00,2296A,118.327,29.7178,黄山市,黄山东路89号,,37,37,19,14,5,103,31,85,76,13,7,4,4,0.6,0.5
2023-09-17T21:00:00,2297A,118.1371,30.2756,黄山市,黄山区政府5号楼,,35,35,20,12,6,95,15,85,65,14,7,6,6,0.6,0.5
2023-09-17T21:00:00,2298A,118.3093,32.3153,滁州市,老年大学,颗粒物(PM10),52,53,34,30,18,157,76,142,126,30,21,6,7,0.7,0.4
2023-09-17T21:00:00,2299A,118.3244,32.2786,滁州市,人大宾馆,颗粒物(PM10),54,57,34,31,22,164,73,153,135,43,22,6,8,0.8,0.5
2023-09-17T21:00:00,2301A,115.8277,32.8929,阜阳市,市监测站,颗粒物(PM10),56,62,41,28,25,143,90,138,130,24,24,6,8,0.6,0.6
2023-09-17T21:00:00,2303A,115.8554,32.8605,阜阳市,开发区,,50,50,47,22,29,150,115,144,138,22,26,8,8,0.5,0.5
2023-09-17T21:00:00,2307A,116.5079,31.737,六安市,监测大楼,,32,32,25,10,8,125,88,115,109,15,16,4,5,0.6,0.5
2023-09-17T21:00:00,2308A,116.4738,31.7643,六安市,皖西学院,,40,40,33,13,11,132,98,124,119,14,19,7,7,0.5,0.5
2023-09-17T21:00:00,2309A,116.4996,31.7905,六安市,朝阳厂,,31,22,32,13,16,140,99,130,123,12,20,6,6,0.6,0.6
2023-09-17T21:00:00,2310A,116.5567,31.7886,六安市,开发区,,35,35,38,15,15,126,87,114,108,21,14,9,6,0.5,0.4
2023-09-17T21:00:00,2311A,115.8072,33.8399,亳州市,污水处理厂,颗粒物(PM10),62,74,41,35,21,147,99,140,129,19,13,13,12,0.7,0.5
2023-09-17T21:00:00,2312A,115.7789,33.8518,亳州市,三国揽胜宫,,46,46,34,21,16,144,117,139,133,16,14,6,6,0.6,0.6
2023-09-17T21:00:00,2314A,117.47,30.6618,池州市,池州学院,,34,34,27,23,17,135,79,126,112,23,13,5,5,0.7,0.9
2023-09-17T21:00:00,2316A,118.7581,30.9454,宣城市,鳌峰子站,,47,47,27,17,15,108,76,102,96,23,17,5,4,0.7,0.6
2023-09-17T21:00:00,2317A,118.7385,30.9743,宣城市,敬亭山子站,,31,31,23,16,12,111,55,98,82,18,18,6,6,0.9,0.6
2023-09-17T21:00:00,2318A,118.7173,30.9427,宣城市,开发区子站,,42,42,26,23,12,102,76,97,94,27,20,6,5,0.6,0.5
2023-09-17T21:00:00,2319A,119.0141,25.4325,莆田市,荔城区仓后路,,43,32,66,30,48,246,76,192,170,17,18,9,8,0.7,0.8
2023-09-17T21:00:00,2320A,119.0015,25.4553,莆田市,莆田市监测站,细颗粒物(PM2.5),60,42,62,43,45,250,77,199,179,16,13,9,10,0.7,0.6
2023-09-17T21:00:00,2321A,119.1119,25.4561,莆田市,涵江区六中,,33,33,60,21,41,209,78,177,155,11,18,6,7,0.6,0.7
2023-09-17T21:00:00,2322A,119.1013,25.3215,莆田市,秀屿区政府,,21,4,55,9,42,207,65,172,138,8,16,7,9,0.6,0.8
2023-09-17T21:00:00,2323A,118.981,25.4792,莆田市,东圳水库,,,,,,,,,,,,,,,,
2023-09-17T21:00:00,2324A,117.6211,26.2625,三明市,三钢,,,,31,,19,81,,72,63,28,14,7,12,0.5,0.5
2023-09-17T21:00:00,2325A,117.635,26.2714,三明市,三明二中,,16,16,22,10,14,84,22,75,61,28,18,4,9,0.9,1
2023-09-17T21:00:00,2326A,117.6028,26.2378,三明市,三元区政府,,26,26,26,12,11,86,19,74,58,28,13,10,14,0.7,0.6
2023-09-17T21:00:00,2327A,117.7275,26.3108,三明市,洋溪,,,,,,,,,,,,,,,,
2023-09-17T21:00:00,2331A,118.0966,26.6761,南平市,茫荡山,,,,,,,,,,,,,,,,
2023-09-17T21:00:00,2332A,118.1681,26.6369,南平市,南平市监测站,,24,24,27,9,13,103,30,86,66,14,12,4,5,0.8,0.7
2023-09-17T21:00:00,2333A,118.1825,26.6489,南平市,南平铝业有限公司,,40,40,28,11,15,91,13,82,54,26,14,6,5,0.8,0.7
2023-09-17T21:00:00,2334A,118.1756,26.6272,南平市,南平七中,,28,28,27,10,12,100,31,87,69,13,9,4,5,0.7,0.7
2023-09-17T21:00:00,2335A,117.0189,25.1181,龙岩市,龙岩师专,,,,,,,,,,,,,,,,
2023-09-17T21:00:00,2336A,117.0217,25.1033,龙岩市,龙岩市监测站,,12,9,25,8,11,88,26,72,56,17,14,4,5,0.5,0.5
2023-09-17T21:00:00,2337A,117.0258,25.0661,龙岩市,闽西职业技术学院,,42,42,31,11,16,86,10,70,50,31,17,24,14,0.4,0.4
2023-09-17T21:00:00,2338A,117.0196,25.0306,龙岩市,龙岩学院,,20,20,23,8,11,88,23,72,55,9,8,6,5,0.4,0.4
2023-09-17T21:00:00,2339A,119.5001,26.6946,宁德市,金涵水库,,,,,,,,,,,,,,,,
2023-09-17T21:00:00,2341A,119.5388,26.6612,宁德市,宁德市监测站,,12,12,27,7,16,138,31,93,74,9,11,4,4,0.6,0.6
2023-09-17T21:00:00,2342A,117.3102,29.3867,景德镇市,王港中学,,,,,,,,,,,,,,,,
2023-09-17T21:00:00,2343A,117.2117,29.2933,景德镇市,老干部活动中心,,39,39,30,26,20,142,39,112,99,29,15,4,5,0.4,0.4
2023-09-17T21:00:00,2344A,117.1894,29.2789,景德镇市,兽医站,,50,37,28,35,23,133,54,108,95,16,15,8,11,0.7,0.7
2023-09-17T21:00:00,2345A,117.1547,29.2617,景德镇市,台达陶瓷,颗粒物(PM10),53,55,32,32,18,118,20,97,80,61,24,62,35,0.7,0.5
2023-09-17T21:00:00,2346A,117.2461,29.2956,景德镇市,陶研所,,,46,33,22,13,111,,90,90,9,8,6,5,0.4,0.4
2023-09-17T21:00:00,2347A,114.0997,27.5002,萍乡市,武功山,,11,7,4,5,3,75,33,63,54,4,4,7,8,0.4,0.4
2023-09-17T21:00:00,2348A,113.8385,27.6434,萍乡市,中医院,,33,33,36,21,25,95,56,81,72,18,13,10,23,0.9,0.9
2023-09-17T21:00:00,2349A,113.8493,27.6253,萍乡市,市政府车库,,38,38,39,12,22,82,41,74,67,22,17,11,19,0.6,0.8
2023-09-17T21:00:00,2350A,113.8676,27.6435,萍乡市,市环保局,,45,45,39,20,21,88,38,80,69,31,16,8,20,0.7,0.8
2023-09-17T21:00:00,2351A,113.866,27.6198,萍乡市,安源区政府,,42,42,34,24,22,90,55,78,71,16,16,8,14,0.6,0.8
2023-09-17T21:00:00,2352A,115.0861,27.9317,新余市,北岗,,20,20,24,14,14,84,21,78,64,16,9,9,11,0.6,0.6
2023-09-17T21:00:00,2353A,114.9886,27.8431,新余市,飞宇,,43,43,45,21,21,80,36,72,66,23,18,8,12,0.6,0.6
2023-09-17T21:00:00,2354A,114.9231,27.8246,新余市,第二水厂,,30,30,41,19,19,91,34,79,70,22,19,5,6,0.7,0.6
2023-09-17T21:00:00,2355A,114.9308,27.8036,新余市,市气象局,,40,36,33,28,19,83,47,74,69,16,16,7,8,1.0,1
2023-09-17T21:00:00,2357A,116.9822,28.1136,鹰潭市,龙虎山,,26,14,18,18,11,96,65,80,73,3,2,5,4,0.4,0.3
2023-09-17T21:00:00,2358A,117.0564,28.2642,鹰潭市,新监测站,,36,36,32,18,16,99,55,92,85,18,11,3,11,0.5,0.5
2023-09-17T21:00:00,2359A,117.0311,28.2475,鹰潭市,财苑宾馆,,,41,30,12,10,99,,95,93,,13,,6,,0.4
2023-09-17T21:00:00,2360A,117.0222,28.2264,鹰潭市,体育馆,,45,45,28,19,11,101,53,95,86,23,10,13,4,0.5,0.5
2023-09-17T21:00:00,2361A,117.0017,28.2131,鹰潭市,三川水表,颗粒物(PM10),59,68,30,28,12,98,56,93,83,9,7,2,2,0.6,0.5
2023-09-17T21:00:00,2362A,114.9017,25.9149,赣州市,通天岩,,,,,,,,,,,,,,,,
2023-09-17T21:00:00,2363A,114.9367,25.8664,赣州市,地委,,25,25,26,16,10,103,14,81,64,38,15,5,10,0.9,0.8
2023-09-17T21:00:00,2364A,114.9461,25.8481,赣州市,气象台,,23,23,18,15,12,131,60,98,80,16,17,5,6,0.5,0.5
2023-09-17T21:00:00,2365A,114.9322,25.8333,赣州市,市图书馆,,28,28,19,16,8,115,67,86,71,8,9,19,9,0.3,0.5
2023-09-17T21:00:00,2366A,114.8905,25.8471,赣州市,华坚鞋城,,27,27,23,18,11,120,56,103,84,17,8,5,9,0.8,0.7
2023-09-17T21:00:00,2367A,114.9754,27.0803,吉安市,红声器材厂,,37,37,40,14,20,105,43,89,78,19,15,8,9,0.8,0.8
2023-09-17T21:00:00,2368A,114.9658,27.0999,吉安市,市森林工业局,,36,36,39,19,23,108,36,92,81,36,25,25,15,0.8,0.6
2023-09-17T21:00:00,2369A,114.99,27.1312,吉安市,市环境监测站,,40,40,38,24,21,112,43,103,90,22,14,56,21,0.8,0.7
2023-09-17T21:00:00,2370A,115.0093,27.0968,吉安市,青原区法院,,,,36,,20,110,50,101,87,,15,15,19,0.4,0.4
2023-09-17T21:00:00,2371A,114.3408,27.8064,宜春市,槟榔水业,,32,32,32,20,15,47,21,40,36,21,24,1,3,0.6,0.6
2023-09-17T21:00:00,2373A,114.3956,27.7844,宜春市,市石油公司,,40,40,36,22,18,103,30,88,72,16,13,4,7,0.7,0.7
2023-09-17T21:00:00,2374A,114.3703,27.7914,宜春市,市气象局,,35,35,37,24,19,106,40,94,79,16,14,4,10,0.8,0.8
2023-09-17T21:00:00,2375A,114.4013,27.8074,宜春市,市广电局,,41,41,39,27,20,110,55,93,85,11,14,8,15,0.8,0.9
2023-09-17T21:00:00,2376A,116.2127,28.0814,抚州市,桐源党溪,,26,26,26,16,12,78,14,62,45,6,5,5,3,0.6,0.7
2023-09-17T21:00:00,2377A,116.3544,27.9831,抚州市,市站,,,36,30,17,17,90,,85,80,23,15,2,3,0.6,0.5
2023-09-17T21:00:00,2378A,116.3565,27.963,抚州市,血防站,,32,32,30,12,13,81,46,75,69,14,10,2,2,0.7,0.7
2023-09-17T21:00:00,2379A,116.3564,28.0007,抚州市,采茶剧团,,36,36,30,18,15,87,26,81,66,28,13,3,3,0.9,0.8
2023-09-17T21:00:00,2380A,116.385,27.9647,抚州市,医学分院,,31,31,27,17,15,91,35,81,69,26,14,5,6,0.6,0.5
2023-09-17T21:00:00,2381A,118.005,28.4572,上饶市,百草园,,,,,,,,,,,,,,,,
2023-09-17T21:00:00,2382A,117.9756,28.4436,上饶市,市监测站,,33,33,32,14,14,105,46,94,84,15,11,6,9,0.4,0.5
2023-09-17T21:00:00,2383A,117.9519,28.4628,上饶市,凤凰光学,,31,31,29,14,14,108,16,90,72,34,16,6,8,0.7,0.5
2023-09-17T21:00:00,2385A,114.17,35.9019,鹤壁市,市监测站,"颗粒物(PM10),细颗粒物(PM2.5)",63,75,56,45,40,187,64,166,152,39,29,5,6,1.0,0.7
2023-09-17T21:00:00,2386A,114.2956,35.7511,鹤壁市,市交警支队,颗粒物(PM10),64,78,61,40,31,185,109,162,157,39,36,4,6,0.8,0.6
2023-09-17T21:00:00,2387A,114.2878,35.7306,鹤壁市,迎宾馆,颗粒物(PM10),67,84,61,44,36,188,111,167,162,43,36,6,7,0.9,0.8
2023-09-17T21:00:00,2389A,113.836,35.311,新乡市,环保西院,颗粒物(PM10),61,71,63,39,33,189,124,169,164,19,29,7,8,0.8,0.7
2023-09-17T21:00:00,2390A,113.884,35.272,新乡市,开发区,颗粒物(PM10),62,73,57,31,30,194,106,176,168,37,28,4,6,0.9,0.9
2023-09-17T21:00:00,2391A,113.883,35.303,新乡市,环保东院,颗粒物(PM10),56,62,66,32,29,189,121,171,166,28,28,5,7,0.9,0.8
2023-09-17T21:00:00,2392A,115.0312,35.7636,濮阳市,环保局,细颗粒物(PM2.5),102,52,50,76,28,149,107,144,134,27,22,7,10,0.6,0.5
2023-09-17T21:00:00,2394A,115.0574,35.7609,濮阳市,油田运输公司,颗粒物(PM10),64,78,66,29,33,147,109,143,135,25,19,8,10,0.5,0.4
2023-09-17T21:00:00,2395A,115.0866,35.7754,濮阳市,油田物探公司,颗粒物(PM10),61,72,65,35,36,156,119,150,141,22,21,7,9,0.5,0.5
2023-09-17T21:00:00,2396A,113.8276,34.0159,许昌市,监测站,颗粒物(PM10),59,67,47,38,21,159,104,151,144,34,22,4,5,0.8,0.6
2023-09-17T21:00:00,2398A,113.7906,33.9953,许昌市,开发区,颗粒物(PM10),66,82,51,35,25,153,90,142,130,32,27,3,4,0.8,0.6
2023-09-17T21:00:00,2399A,114.051,33.5699,漯河市,三五一五工厂,颗粒物(PM10),59,68,44,26,18,188,106,172,158,29,16,9,9,0.7,0.6
2023-09-17T21:00:00,2400A,114.0055,33.5698,漯河市,漯河大学,颗粒物(PM10),57,63,42,30,18,184,121,171,160,15,11,4,7,0.7,0.6
2023-09-17T21:00:00,2401A,114.0138,33.5828,漯河市,市水利局,颗粒物(PM10),56,61,41,34,23,185,121,169,159,11,9,8,8,0.5,0.5
2023-09-17T21:00:00,2402A,114.0261,33.5698,漯河市,市广电局,颗粒物(PM10),61,71,44,32,21,182,109,166,153,16,15,4,4,0.8,0.6
2023-09-17T21:00:00,2404A,112.5224,33.0122,南阳市,瓦房庄,颗粒物(PM10),54,57,49,29,24,160,104,149,141,23,19,5,5,0.7,0.6
2023-09-17T21:00:00,2405A,112.5003,32.9735,南阳市,汉画馆,颗粒物(PM10),63,76,50,31,23,160,64,149,133,49,22,8,7,0.9,0.7
2023-09-17T21:00:00,2406A,112.5573,33.027,南阳市,气象站,颗粒物(PM10),53,56,46,22,21,161,86,145,131,37,24,7,7,0.6,0.5
2023-09-17T21:00:00,2407A,112.5481,32.9689,南阳市,理工学院,颗粒物(PM10),60,70,50,41,27,164,94,150,136,32,22,6,6,0.6,0.5
2023-09-17T21:00:00,2408A,115.6702,34.4285,商丘市,环境监测站,,,,39,,19,159,,151,148,16,13,6,7,0.3,0.5
2023-09-17T21:00:00,2409A,115.6458,34.4045,商丘市,粮食局,,49,49,36,27,23,149,109,140,133,13,9,4,6,0.3,0.3
2023-09-17T21:00:00,2410A,115.6293,34.3948,商丘市,睢阳区环保局,颗粒物(PM10),53,56,47,24,22,157,113,145,136,15,13,8,8,0.4,0.4
2023-09-17T21:00:00,2420A,114.0189,32.9656,驻马店市,市一纸厂,颗粒物(PM10),71,92,48,24,18,167,59,147,120,42,23,8,7,0.9,0.5
2023-09-17T21:00:00,2421A,114.0114,33.015,驻马店市,市彩印厂,颗粒物(PM10),62,73,42,25,17,166,87,151,133,25,14,9,9,0.7,0.5
2023-09-17T21:00:00,2422A,113.9976,32.9771,驻马店市,天方二分厂,颗粒物(PM10),63,75,42,32,21,159,78,144,123,26,17,6,6,0.5,0.3
2023-09-17T21:00:00,2423A,115.0601,30.2313,黄石市,沈家营,颗粒物(PM10),51,51,55,19,22,165,119,140,136,12,20,16,10,0.6,0.6
2023-09-17T21:00:00,2424A,115.0817,30.2006,黄石市,陈家湾,颗粒物(PM10),52,53,46,23,23,153,131,142,141,8,15,18,9,0.4,0.6
2023-09-17T21:00:00,2426A,114.8988,30.2019,黄石市,铁山,,44,38,34,21,20,157,139,142,142,8,19,4,7,0.7,0.9
2023-09-17T21:00:00,2427A,115.0307,30.2092,黄石市,团城山,,49,49,49,18,18,160,129,142,140,11,18,10,9,0.6,0.7
2023-09-17T21:00:00,2428A,111.0419,32.395,十堰市,武当山,,38,38,28,24,22,105,105,90,90,7,7,8,8,0.8,0.8
2023-09-17T21:00:00,2429A,110.78,32.6494,十堰市,滨河新村,颗粒物(PM10),57,64,52,31,29,145,76,121,115,28,20,7,7,0.8,0.8
2023-09-17T21:00:00,2430A,110.7258,32.6389,十堰市,刘家沟,颗粒物(PM10),51,52,49,27,32,140,66,119,112,15,8,6,6,0.9,0.8
2023-09-17T21:00:00,2431A,110.8839,32.5714,十堰市,铁二处,颗粒物(PM10),52,54,41,25,26,164,56,132,113,17,5,6,6,0.9,0.7
2023-09-17T21:00:00,2432A,112.155,32.0197,襄阳市,襄城运动路,,45,45,59,18,24,180,124,157,150,12,19,8,12,0.7,0.7
2023-09-17T21:00:00,2433A,112.1392,32.0564,襄阳市,樊城新华路,,,,63,,29,183,118,163,155,16,15,8,11,0.5,0.6
2023-09-17T21:00:00,2434A,112.1825,32.1142,襄阳市,高新管委会,,49,49,46,30,34,180,121,164,157,14,12,11,13,0.8,0.8
2023-09-17T21:00:00,2435A,112.2106,32.0903,襄阳市,襄州航空路,,48,48,47,19,27,166,112,154,147,16,13,7,9,0.8,0.7
