timepoint,stationcode,longitude,latitude,area,positionname,primarypollutant,aqi,pm10,pm10_24h,pm2_5,pm2_5_24h,o3,o3_24h,o3_8h,o3_8h_24h,no2,no2_24h,so2,so2_24h,co,co_24h
2022-04-11T15:00:00,1001A,116.3621,39.8784,北京市,万寿西宫,颗粒物(PM10),179,308,202,58,86,221,89,92,92,8,45,3,3,0.1,1
2022-04-11T15:00:00,1002A,116.2202,40.2915,北京市,定陵(对照点),颗粒物(PM10),253,387,185,45,68,214,93,133,110,18,22,3,3,0.1,0.8
2022-04-11T15:00:00,1003A,116.4174,39.9289,北京市,东四,颗粒物(PM10),168,286,202,51,110,226,92,93,93,14,56,3,4,0.0,1.2
2022-04-11T15:00:00,1004A,116.4072,39.8863,北京市,天坛,颗粒物(PM10),168,286,180,48,73,217,90,86,86,10,36,3,3,0.2,1.2
2022-04-11T15:00:00,1005A,116.462,39.9365,北京市,农展馆,颗粒物(PM10),153,255,208,49,92,223,87,82,82,9,51,3,3,0.2,1.2
2022-04-11T15:00:00,1006A,116.3392,39.9295,北京市,官园,颗粒物(PM10),173,296,214,53,98,209,81,77,77,6,49,2,5,0.2,1.2
2022-04-11T15:00:00,1007A,116.2878,39.9611,北京市,海淀万柳,颗粒物(PM10),187,324,223,44,82,198,84,76,76,11,54,3,3,0.2,1.2
2022-04-11T15:00:00,1008A,116.6636,40.135,北京市,顺义新城,颗粒物(PM10),130,210,197,46,104,205,75,85,85,13,38,3,3,0.2,1
2022-04-11T15:00:00,1009A,116.6275,40.3275,北京市,怀柔镇,颗粒物(PM10),106,162,159,36,101,219,82,156,98,14,21,3,3,0.2,1
2022-04-11T15:00:00,1010A,116.2296,40.217,北京市,昌平镇,颗粒物(PM10),236,375,207,48,71,222,79,153,90,17,30,3,3,0.2,0.9
2022-04-11T15:00:00,1011A,116.3966,39.9821,北京市,奥体中心,颗粒物(PM10),155,260,215,45,113,214,82,73,73,15,53,3,3,0.2,1.2
2022-04-11T15:00:00,1012A,116.184,39.9136,北京市,古城,颗粒物(PM10),256,389,233,57,93,223,63,99,94,9,48,3,3,,1.2
2022-04-11T15:00:00,1015A,117.1444,39.1661,天津市,勤俭道,颗粒物(PM10),90,130,124,65,65,211,161,126,122,17,26,12,14,0.9,0.9
2022-04-11T15:00:00,1017A,117.237,39.1082,天津市,大直沽八号路,颗粒物(PM10),101,151,122,74,47,201,179,128,128,22,27,15,15,1.0,0.9
2022-04-11T15:00:00,1018A,117.202,39.0927,天津市,前进道,颗粒物(PM10),92,134,102,61,42,198,174,123,123,20,26,11,11,1.1,1
2022-04-11T15:00:00,1019A,117.1837,39.2133,天津市,淮河道,细颗粒物(PM2.5),107,135,134,80,75,206,159,122,118,18,32,14,14,1.3,1.2
2022-04-11T15:00:00,1021A,117.307,39.0877,天津市,跃进路,颗粒物(PM10),97,144,115,59,44,192,172,124,124,20,28,13,14,0.8,0.8
2022-04-11T15:00:00,1023A,117.707,39.0343,天津市,第四大街,细颗粒物(PM2.5),125,155,128,95,60,164,162,130,66,34,64,12,11,1.1,0.8
2022-04-11T15:00:00,1024A,117.457,38.8394,天津市,永明路,臭氧1小时,98,126,91,65,44,198,198,134,134,38,24,24,13,0.7,0.6
2022-04-11T15:00:00,1026A,117.764,39.1587,天津市,汉北路,,,114,103,67,55,168,160,136,88,,45,15,11,1.1,0.8
2022-04-11T15:00:00,1027A,117.157,38.9194,天津市,团泊洼(对照点),颗粒物(PM10),81,112,111,57,43,177,158,107,107,16,22,5,6,1.4,1.3
2022-04-11T15:00:00,1029A,114.4422,38.0444,石家庄市,职工医院,,,,159,,64,201,198,144,144,21,37,9,10,,0.9
2022-04-11T15:00:00,1030A,114.6063,38.0266,石家庄市,高新区,颗粒物(PM10),110,169,145,78,59,195,188,133,133,16,28,13,13,1.2,1.1
2022-04-11T15:00:00,1031A,114.4898,38.1328,石家庄市,西北水源,颗粒物(PM10),111,172,173,69,76,190,185,140,140,9,26,10,12,0.9,1
2022-04-11T15:00:00,1032A,114.4586,38.0058,石家庄市,西南高教,颗粒物(PM10),114,178,143,73,67,199,191,132,132,14,29,7,8,1.1,1.2
2022-04-11T15:00:00,1033A,114.5331,38.0178,石家庄市,世纪公园,细颗粒物(PM2.5),93,124,108,69,60,195,182,135,135,6,23,10,11,1.0,1
2022-04-11T15:00:00,1034A,114.509,38.0457,石家庄市,人民会堂,细颗粒物(PM2.5),122,167,148,92,81,205,203,160,160,18,30,12,14,1.0,1
2022-04-11T15:00:00,1035A,114.3524,37.8911,石家庄市,封龙山(对照点),颗粒物(PM10),125,199,125,82,42,218,197,153,150,19,16,6,10,1.0,0.8
2022-04-11T15:00:00,1037A,118.131,39.6363,唐山市,雷达站,细颗粒物(PM2.5),125,156,132,95,74,236,179,113,113,26,31,14,12,1.4,1.2
2022-04-11T15:00:00,1038A,118.1725,39.6334,唐山市,物资局,细颗粒物(PM2.5),115,148,129,87,66,227,167,103,103,38,39,20,15,1.6,1.1
2022-04-11T15:00:00,1040A,118.1705,39.6506,唐山市,十二中,细颗粒物(PM2.5),107,143,123,80,67,227,174,101,101,19,29,18,15,1.3,1
2022-04-11T15:00:00,1041A,118.1869,39.622,唐山市,小山,颗粒物(PM10),106,161,134,62,53,238,179,108,108,30,35,18,13,1.5,1
2022-04-11T15:00:00,1042A,119.5134,39.8207,秦皇岛市,北戴河环保局,颗粒物(PM10),51,52,66,35,37,214,109,124,102,17,22,7,7,0.7,0.7
2022-04-11T15:00:00,1043A,119.7493,40.0116,秦皇岛市,第一关,细颗粒物(PM2.5),67,80,97,48,52,205,129,115,114,16,25,12,13,0.5,0.5
2022-04-11T15:00:00,1044A,119.5897,39.9499,秦皇岛市,监测站,颗粒物(PM10),70,89,100,39,45,243,129,122,106,37,42,7,9,0.6,0.7
2022-04-11T15:00:00,1046A,119.5251,39.9041,秦皇岛市,建设大厦,细颗粒物(PM2.5),60,68,89,43,41,245,129,106,104,29,36,4,6,0.5,0.6
2022-04-11T15:00:00,1048A,114.5302,36.6116,邯郸市,东污水处理厂,,,106,87,47,46,161,161,108,108,4,11,,9,0.7,0.7
2022-04-11T15:00:00,1049A,114.4918,36.5713,邯郸市,矿院,颗粒物(PM10),73,96,89,40,41,172,172,104,104,5,10,12,7,0.6,0.5
2022-04-11T15:00:00,1050A,114.484,36.6133,邯郸市,丛台公园,臭氧1小时,72,82,76,47,47,177,177,110,110,6,11,15,10,0.6,0.6
2022-04-11T15:00:00,1051A,115.493,38.8632,保定市,游泳馆,颗粒物(PM10),94,137,211,68,135,222,172,153,134,18,31,23,24,0.6,1
2022-04-11T15:00:00,1053A,115.4713,38.9108,保定市,接待中心,颗粒物(PM10),96,142,215,53,139,222,166,154,130,23,44,9,8,0.7,1.1
2022-04-11T15:00:00,1054A,115.4612,38.8416,保定市,地表水厂,颗粒物(PM10),107,164,230,60,113,232,179,139,139,21,42,9,9,0.8,1.1
2022-04-11T15:00:00,1055A,115.4323,38.8697,保定市,胶片厂,,,,196,,130,224,178,135,135,14,37,11,12,,1.3
2022-04-11T15:00:00,1056A,115.5086,38.8639,保定市,监测站,颗粒物(PM10),93,135,205,47,149,218,170,149,133,16,34,5,8,0.8,1.2
2022-04-11T15:00:00,1057A,114.8883,40.8336,张家口市,人民公园,颗粒物(PM10),68,85,229,9,40,166,107,98,98,5,11,3,4,0.2,0.2
2022-04-11T15:00:00,1059A,114.8687,40.8042,张家口市,五金库,颗粒物(PM10),79,107,257,15,52,163,106,95,95,1,12,4,6,0,0.1
2022-04-11T15:00:00,1060A,114.8902,40.762,张家口市,世纪豪园,颗粒物(PM10),71,92,239,15,59,176,103,93,93,11,20,3,5,0.3,0.5
2022-04-11T15:00:00,1061A,114.8916,40.8661,张家口市,北泵房(对照点),颗粒物(PM10),60,70,208,15,46,170,110,99,99,3,8,6,8,0.3,0.4
2022-04-11T15:00:00,1062A,117.9531,40.9081,承德市,铁路,颗粒物(PM10),312,429,188,52,64,163,85,116,88,8,41,5,12,0.1,0.8
2022-04-11T15:00:00,1063A,117.9392,40.9763,承德市,中国银行,颗粒物(PM10),286,410,174,65,74,184,77,73,73,9,34,4,8,0.1,0.9
2022-04-11T15:00:00,1064A,117.9503,40.928,承德市,开发区,颗粒物(PM10),205,353,153,45,64,186,91,94,94,8,35,6,14,0.2,1
2022-04-11T15:00:00,1065A,117.8051,40.9655,承德市,文化中心,颗粒物(PM10),322,437,185,76,83,201,85,81,81,9,34,2,8,0.2,0.9
2022-04-11T15:00:00,1066A,117.9268,41.0026,承德市,离宫(对照点),颗粒物(PM10),276,403,169,63,69,198,84,102,94,10,27,2,5,0.2,0.8
2022-04-11T15:00:00,1067A,116.6708,39.5111,廊坊市,药材公司,颗粒物(PM10),210,357,187,60,98,212,98,98,95,24,42,1,7,0.2,0.8
2022-04-11T15:00:00,1068A,116.7214,39.5589,廊坊市,开发区,颗粒物(PM10),283,408,189,57,109,215,101,93,93,30,44,2,6,0.1,0.7
2022-04-11T15:00:00,1070A,116.7244,39.5269,廊坊市,北华航天学院,颗粒物(PM10),282,407,207,73,119,209,99,102,91,25,40,4,9,0.2,0.8
2022-04-11T15:00:00,1071A,116.8842,38.2991,沧州市,沧县城建局,颗粒物(PM10),82,114,68,46,41,176,176,121,121,15,19,8,9,0.7,0.8
2022-04-11T15:00:00,1072A,116.8584,38.3254,沧州市,电视转播站,颗粒物(PM10),83,115,83,44,38,168,168,118,118,15,18,3,6,0.5,0.5
2022-04-11T15:00:00,1073A,116.8709,38.3228,沧州市,市环保局,,,,71,,42,179,179,126,126,,18,13,14,0.7,0.7
2022-04-11T15:00:00,1074A,115.6838,37.7541,衡水市,电机北厂,"颗粒物(PM10),臭氧1小时",90,129,106,65,50,192,192,124,124,13,16,13,11,0.7,0.5
2022-04-11T15:00:00,1075A,115.6303,37.7316,衡水市,市监测站,,,143,115,53,45,186,186,124,124,,11,23,24,0.7,0.5
2022-04-11T15:00:00,1077A,114.4704,37.0886,邢台市,达活泉,颗粒物(PM10),113,175,124,57,42,176,176,107,107,12,19,16,17,1.0,1.2
2022-04-11T15:00:00,1078A,114.5062,37.0349,邢台市,邢师高专,颗粒物(PM10),96,142,102,58,48,181,181,108,108,16,24,13,14,1.4,1.4
2022-04-11T15:00:00,1079A,114.5237,37.0851,邢台市,路桥公司,颗粒物(PM10),90,130,109,66,48,183,183,113,113,11,19,15,15,1.4,1.4
2022-04-11T15:00:00,1080A,114.4725,37.0719,邢台市,市环保局,颗粒物(PM10),125,199,126,66,52,171,171,110,110,,22,12,10,1.1,1
2022-04-11T15:00:00,1081A,112.5139,37.8873,太原市,尖草坪,颗粒物(PM10),133,215,128,59,52,176,95,79,79,13,25,13,17,0.9,0.6
2022-04-11T15:00:00,1083A,112.434,38.0108,太原市,上兰(对照点),颗粒物(PM10),108,166,94,45,41,190,103,100,93,6,12,5,11,0.2,0.3
2022-04-11T15:00:00,1084A,112.469,37.7124,太原市,晋源,颗粒物(PM10),147,244,131,64,56,170,102,86,86,14,37,7,18,0.3,0.6
2022-04-11T15:00:00,1085A,112.5583,37.7394,太原市,小店,颗粒物(PM10),126,201,120,55,55,166,99,86,86,10,27,5,19,0.4,0.7
2022-04-11T15:00:00,1086A,112.5369,37.8692,太原市,桃园,颗粒物(PM10),146,241,130,69,58,173,97,79,79,10,29,4,17,0.3,0.6
2022-04-11T15:00:00,1087A,112.57,37.8195,太原市,坞城,颗粒物(PM10),145,240,127,62,56,171,100,82,80,10,26,7,21,0.3,0.8
2022-04-11T15:00:00,1088A,112.549,37.9854,太原市,南寨,颗粒物(PM10),150,249,151,52,47,179,98,70,70,12,48,8,13,0.4,0.7
2022-04-11T15:00:00,1090A,111.6507,40.7517,呼和浩特市,呼市一监,,46,46,259,6,70,146,95,93,93,5,13,4,7,0.4,0.4
2022-04-11T15:00:00,1091A,111.6572,40.8033,呼和浩特市,小召,颗粒物(PM10),54,58,236,12,53,131,85,91,86,13,18,6,7,0.4,0.3
2022-04-11T15:00:00,1094A,111.7516,40.8369,呼和浩特市,如意水处理厂,,40,40,176,7,47,150,95,97,96,7,11,7,8,0.3,0.3
2022-04-11T15:00:00,1095A,111.7276,40.8062,呼和浩特市,二十九中,颗粒物(PM10),51,52,218,7,46,143,94,97,95,6,12,6,9,0.4,0.5
2022-04-11T15:00:00,1096A,111.5512,40.7866,呼和浩特市,工大金川校区,,38,32,226,26,56,125,86,89,85,6,9,8,9,0.3,0.4
2022-04-11T15:00:00,1097A,111.717,40.7612,呼和浩特市,化肥厂生活区,,39,39,199,17,71,124,85,85,85,7,15,8,12,0.5,0.5
2022-04-11T15:00:00,1098A,123.6836,41.9339,沈阳市,森林路(对照点),颗粒物(PM10),73,96,49,42,21,165,95,121,116,18,16,18,11,0.8,0.6
2022-04-11T15:00:00,1099A,123.505,41.7406,沈阳市,浑南东路,颗粒物(PM10),74,97,79,46,22,162,106,117,116,18,11,25,17,0.8,0.6
2022-04-11T15:00:00,1100A,123.4231,41.6989,沈阳市,新秀街,细颗粒物(PM2.5),102,118,58,76,25,160,90,116,113,32,15,20,16,1.0,0.8
2022-04-11T15:00:00,1102A,123.5903,41.8411,沈阳市,东陵路,颗粒物(PM10),65,79,60,38,25,159,101,111,111,20,15,21,18,0.8,0.9
2022-04-11T15:00:00,1103A,123.4264,41.8467,沈阳市,陵东街,颗粒物(PM10),100,149,56,72,23,158,86,118,114,24,15,15,9,1.0,0.8
2022-04-11T15:00:00,1104A,123.4114,41.7653,沈阳市,文化路,细颗粒物(PM2.5),143,126,58,109,28,169,105,123,121,21,9,14,9,1.1,1
2022-04-11T15:00:00,1105A,123.4678,41.7867,沈阳市,小河沿,,,134,72,,20,158,103,116,115,24,12,16,9,0.9,0.6
2022-04-11T15:00:00,1106A,123.4017,41.7972,沈阳市,太原街,细颗粒物(PM2.5),107,146,62,80,29,170,107,125,122,25,11,14,11,0.8,0.7
2022-04-11T15:00:00,1108A,123.3783,41.9228,沈阳市,京沈街,细颗粒物(PM2.5),124,129,60,94,32,171,131,124,124,17,13,16,12,1.1,0.9
2022-04-11T15:00:00,1109A,121.612,38.9741,大连市,甘井子,,36,36,50,23,26,132,60,97,72,34,25,5,4,0.5,0.5
2022-04-11T15:00:00,1110A,121.565,38.9511,大连市,周水子,,33,33,52,18,26,154,64,94,71,24,17,2,3,0.5,0.4
2022-04-11T15:00:00,1111A,121.5637,38.8845,大连市,星海三站,,38,30,47,26,33,145,72,110,81,36,24,4,4,0.4,0.4
2022-04-11T15:00:00,1112A,121.6302,38.9117,大连市,青泥洼桥,,27,27,54,15,24,153,70,114,84,18,14,6,6,0.5,0.5
2022-04-11T15:00:00,1113A,121.6251,38.8638,大连市,傅家庄,,33,33,53,15,23,143,77,112,88,25,19,8,6,0.2,0.3
2022-04-11T15:00:00,1114A,121.5213,38.8661,大连市,七贤岭,,33,33,51,17,21,150,89,108,86,25,19,12,12,0.4,0.5
2022-04-11T15:00:00,1115A,121.2529,38.8061,大连市,旅顺,,,,41,26,27,149,112,117,97,18,19,8,8,0.4,0.3
2022-04-11T15:00:00,1116A,121.7485,39.1311,大连市,金州,,35,29,46,24,31,162,74,107,73,16,16,4,5,0.5,0.6
2022-04-11T15:00:00,1117A,121.7811,39.0496,大连市,开发区,,,30,45,18,24,130,56,91,62,,23,6,6,0.4,0.4
2022-04-11T15:00:00,1118A,121.9762,39.0631,大连市,双D港,,16,8,34,10,16,118,50,90,57,26,25,4,5,0.3,0.4
2022-04-11T15:00:00,1119A,125.3325,43.9166,长春市,食品厂,颗粒物(PM10),58,66,160,37,101,141,44,132,40,16,22,7,13,0.8,1.1
2022-04-11T15:00:00,1120A,125.2863,43.9027,长春市,客车厂,细颗粒物(PM2.5),57,58,148,40,81,150,43,139,46,22,23,7,12,1.2,1.5
2022-04-11T15:00:00,1121A,125.2841,43.8463,长春市,邮电学院,,,121,168,71,86,145,,124,,18,20,4,9,1.0,1.2
2022-04-11T15:00:00,1122A,125.3716,43.8772,长春市,劳动公园,,,97,147,51,91,160,44,130,44,,,4,9,0.8,1
2022-04-11T15:00:00,1123A,125.3297,43.8805,长春市,园林处,,,80,137,,,152,45,139,49,24,25,6,10,0.6,0.9
2022-04-11T15:00:00,1124A,125.4605,43.79,长春市,净月潭,,,139,126,,,165,35,109,40,19,18,7,10,1.1,1
2022-04-11T15:00:00,1125A,125.7194,43.515,长春市,甩湾子(对照点),细颗粒物(PM2.5),128,102,137,97,58,152,32,64,43,12,49,10,19,1.0,1.8
2022-04-11T15:00:00,1126A,125.3863,43.8447,长春市,经开区环卫处,,,143,142,70,79,146,38,111,41,,,8,12,1.1,1.1
2022-04-11T15:00:00,1127A,125.245,43.7783,长春市,高新区管委会,细颗粒物(PM2.5),199,192,133,149,84,158,37,123,51,25,20,7,11,1.3,1.1
2022-04-11T15:00:00,1128A,125.1761,43.8325,长春市,岱山公园,细颗粒物(PM2.5),99,96,129,74,84,139,39,125,42,17,20,6,10,1.1,1
2022-04-11T15:00:00,1129A,126.5422,45.755,哈尔滨市,岭北(对照点),,20,13,99,4,24,118,63,64,56,9,15,22,15,0.7,0.2
2022-04-11T15:00:00,1130A,126.561,45.8167,哈尔滨市,松北商大,,21,8,66,5,21,80,67,69,54,8,19,3,4,0.7,0.7
2022-04-11T15:00:00,1131A,126.979,45.5419,哈尔滨市,阿城会宁,,30,23,118,21,52,115,40,45,43,20,27,14,17,0.9,1
2022-04-11T15:00:00,1132A,126.599,45.7222,哈尔滨市,南岗学府路,,,,85,,28,110,58,62,49,12,21,9,21,0.6,0.7
2022-04-11T15:00:00,1133A,126.689,45.7733,哈尔滨市,太平宏伟公园,,20,18,102,12,28,118,61,56,51,18,27,15,8,0.5,0.6
2022-04-11T15:00:00,1134A,126.635,45.7667,哈尔滨市,道外承德广场,颗粒物(PM10),68,86,111,19,33,110,54,64,46,21,26,19,19,0.4,0.5
2022-04-11T15:00:00,1135A,126.685,45.7319,哈尔滨市,香坊红旗大街,,18,17,117,10,26,110,55,63,45,16,27,16,17,0.5,0.6
2022-04-11T15:00:00,1136A,126.6411,45.7258,哈尔滨市,动力和平路,,17,17,90,8,21,111,53,65,45,17,22,8,9,0.6,0.7
2022-04-11T15:00:00,1137A,126.593,45.7478,哈尔滨市,道里建国路,,,13,89,,31,103,55,60,51,12,28,15,17,0.6,0.7
2022-04-11T15:00:00,1138A,126.615,45.61,哈尔滨市,平房东轻厂,,32,18,116,22,47,106,20,38,26,37,41,35,33,0,0.1
2022-04-11T15:00:00,1139A,126.595,45.9855,哈尔滨市,呼兰师专,,28,28,68,12,32,115,74,70,65,8,17,10,12,0.6,0.6
2022-04-11T15:00:00,1140A,126.6206,45.6842,哈尔滨市,省农科院,,,9,121,8,36,110,46,62,38,18,29,17,16,,1
2022-04-11T15:00:00,1141A,121.4,31.238,上海市,普陀,臭氧1小时,74,48,49,26,24,189,179,147,147,14,19,5,8,1.2,1.2
2022-04-11T15:00:00,1142A,121.478,31.2036,上海市,十五厂,臭氧1小时,75,46,45,33,30,184,180,134,134,11,17,7,7,0.7,0.7
2022-04-11T15:00:00,1143A,121.467,31.3008,上海市,虹口,臭氧1小时,54,51,47,26,28,174,163,135,135,13,20,5,5,0.6,0.6
2022-04-11T15:00:00,1144A,121.412,31.1654,上海市,徐汇上师大,颗粒物(PM10),53,56,52,32,32,169,158,129,129,14,21,10,16,0.8,1
2022-04-11T15:00:00,1145A,121.536,31.2659,上海市,杨浦四漂,臭氧1小时,78,46,43,29,32,184,182,137,137,6,13,10,10,0.6,0.7
2022-04-11T15:00:00,1147A,121.425,31.2261,上海市,静安监测站,臭氧1小时,67,62,52,27,29,176,173,137,137,16,21,6,8,0,0.2
2022-04-11T15:00:00,1148A,121.703,31.1907,上海市,浦东川沙,臭氧1小时,107,54,43,47,26,214,214,147,147,20,18,8,6,0.8,0.7
2022-04-11T15:00:00,1149A,121.533,31.2284,上海市,浦东新区监测站,臭氧1小时,67,53,51,27,26,182,173,134,134,8,16,7,6,0.7,0.7
2022-04-11T15:00:00,1150A,121.577,31.2071,上海市,浦东张江,,49,48,44,34,29,162,155,123,123,15,17,6,6,0.6,0.7
2022-04-11T15:00:00,1151A,118.8086,32.1065,南京市,迈皋桥,臭氧1小时,94,71,74,31,32,195,195,143,143,12,32,8,10,0.7,0.8
2022-04-11T15:00:00,1152A,118.7538,32.0551,南京市,草场门,臭氧1小时,103,66,83,29,36,210,206,147,147,9,39,16,17,0.5,0.5
2022-04-11T15:00:00,1153A,118.7794,32.0745,南京市,山西路,臭氧1小时,102,70,90,34,37,205,203,148,148,9,21,6,9,0.5,0.6
2022-04-11T15:00:00,1154A,118.7752,32.0023,南京市,中华门,,,75,90,,34,208,196,141,141,11,35,,4,0.4,0.5
2022-04-11T15:00:00,1155A,118.8109,32.0309,南京市,瑞金路,臭氧1小时,90,61,87,34,40,207,192,142,142,11,33,9,9,0.4,0.5
2022-04-11T15:00:00,1156A,118.7997,32.0754,南京市,玄武湖,臭氧1小时,100,52,70,29,34,200,200,145,145,4,25,4,5,0.8,0.7
2022-04-11T15:00:00,1157A,118.6414,32.0931,南京市,浦口,臭氧1小时,105,88,82,27,26,210,210,139,139,18,29,11,14,0.9,1
2022-04-11T15:00:00,1158A,118.7356,31.9996,南京市,奥体中心,臭氧1小时,104,80,81,34,33,210,208,140,140,15,42,15,13,1.0,0.9
2022-04-11T15:00:00,1159A,118.9125,32.1028,南京市,仙林大学城,臭氧1小时,106,48,81,31,35,218,211,158,158,6,24,8,10,0.7,0.7
2022-04-11T15:00:00,1160A,120.561,31.2472,苏州市,上方山(对照点),臭氧1小时,70,53,65,36,40,189,176,122,122,4,28,8,7,0.6,0.6
2022-04-11T15:00:00,1162A,120.591,31.3019,苏州市,彩香,臭氧1小时,69,41,55,20,37,199,175,126,126,6,25,8,8,0.5,0.7
2022-04-11T15:00:00,1163A,120.596,31.3264,苏州市,轧钢厂,臭氧1小时,73,48,75,24,33,200,178,127,127,5,25,8,7,0.5,0.6
2022-04-11T15:00:00,1164A,120.613,31.2703,苏州市,吴中区,臭氧1小时,92,55,67,22,40,199,193,126,126,7,30,7,6,0.4,0.5
2022-04-11T15:00:00,1165A,120.543,31.2994,苏州市,苏州新区,臭氧1小时,75,47,62,23,35,210,180,138,138,1,20,10,10,0.7,0.8
2022-04-11T15:00:00,1166A,120.669,31.3097,苏州市,苏州工业园区,臭氧1小时,88,55,57,39,33,190,190,128,128,13,23,9,8,0.5,0.5
2022-04-11T15:00:00,1167A,120.641,31.3708,苏州市,相城区,臭氧1小时,62,54,66,25,34,187,169,122,122,6,31,5,6,0.5,0.6
2022-04-11T15:00:00,1168A,120.9098,31.9663,南通市,狼山街道,臭氧1小时,134,83,65,39,33,267,267,160,160,20,35,13,11,0.3,0.3
2022-04-11T15:00:00,1169A,120.86,32.0005,南通市,虹桥,臭氧1小时,123,88,64,38,45,245,245,140,140,26,33,19,15,0.9,0.7
2022-04-11T15:00:00,1170A,120.87,32.02,南通市,城中,臭氧1小时,123,86,62,40,42,246,246,146,146,25,32,17,9,1.4,1
2022-04-11T15:00:00,1171A,120.94,31.93,南通市,星湖花园,臭氧1小时,127,71,59,39,32,254,254,153,153,22,35,11,10,0.6,0.5
2022-04-11T15:00:00,1172A,120.81,32.0417,南通市,紫琅学院,臭氧1小时,120,86,64,44,30,240,240,135,135,35,34,39,14,1.9,0.8
2022-04-11T15:00:00,1173A,119.176,34.5885,连云港市,市环境监测站,,,,96,,46,197,197,156,156,8,13,9,11,0.6,0.7
2022-04-11T15:00:00,1177A,117.179,34.2761,徐州市,黄河新村,臭氧1小时,82,78,84,50,44,196,185,162,162,2,10,11,13,0.7,0.7
2022-04-11T15:00:00,1178A,117.1918,34.2384,徐州市,淮塔,臭氧1小时,77,79,81,46,39,188,181,156,156,6,15,14,16,0.7,0.7
2022-04-11T15:00:00,1180A,117.256,34.2153,徐州市,新城区,臭氧1小时,73,88,93,40,37,182,178,144,144,12,17,10,11,0.9,0.9
2022-04-11T15:00:00,1181A,117.244,34.2911,徐州市,桃园路,臭氧1小时,77,85,81,38,34,187,181,156,156,7,12,15,17,0.7,0.6
2022-04-11T15:00:00,1182A,117.2933,34.2778,徐州市,农科院,臭氧1小时,65,73,76,34,27,175,172,142,142,4,8,13,15,0.8,0.8
2022-04-11T15:00:00,1186A,119.389,32.3761,扬州市,邗江监测站,臭氧1小时,107,73,90,34,41,227,214,149,149,16,28,14,14,0.6,0.7
2022-04-11T15:00:00,1188A,120.269,31.4867,无锡市,雪浪,臭氧1小时,104,61,75,29,31,226,208,139,139,3,24,10,9,0.3,0.4
2022-04-11T15:00:00,1189A,120.275,31.6219,无锡市,黄巷,臭氧1小时,111,79,77,34,33,226,222,153,153,14,34,11,10,0.4,0.5
2022-04-11T15:00:00,1190A,120.294,31.56,无锡市,曹张,臭氧1小时,111,64,66,24,34,221,221,140,140,2,27,9,9,0.7,0.8
2022-04-11T15:00:00,1191A,120.242,31.5031,无锡市,漆塘,臭氧1小时,108,66,70,48,36,216,216,135,135,7,18,10,8,0.5,0.5
2022-04-11T15:00:00,1192A,120.3489,31.5863,无锡市,东亭,臭氧1小时,106,56,73,31,36,217,212,140,140,12,43,9,8,0.6,0.7
2022-04-11T15:00:00,1193A,120.354,31.5475,无锡市,旺庄,臭氧1小时,80,51,72,36,37,213,184,130,130,4,26,9,9,0.7,0.8
2022-04-11T15:00:00,1194A,120.245,31.5631,无锡市,荣巷,臭氧1小时,110,53,64,34,36,219,219,142,142,10,22,12,10,0.5,0.5
2022-04-11T15:00:00,1195A,120.299,31.6817,无锡市,堰桥,臭氧1小时,101,85,76,41,39,218,202,144,144,10,40,11,8,0.8,0.8
2022-04-11T15:00:00,1196A,119.9633,31.762,常州市,市监测站,臭氧1小时,79,46,90,24,34,189,183,127,127,4,25,10,10,0.4,0.6
2022-04-11T15:00:00,1200A,119.9468,31.7069,常州市,武进监测站,臭氧1小时,109,52,95,35,41,222,217,151,151,8,21,9,8,0.6,0.6
2022-04-11T15:00:00,1201A,119.9255,31.9087,常州市,安家,臭氧1小时,93,50,90,28,52,194,194,136,136,6,31,8,8,0.5,0.7
2022-04-11T15:00:00,1203A,119.6707,32.1875,镇江市,新区办事处,臭氧1小时,88,63,83,29,40,190,190,136,136,25,41,6,6,0.4,0.5
2022-04-11T15:00:00,1204A,119.4974,32.1968,镇江市,职教中心,臭氧1小时,107,61,77,32,45,213,213,144,144,20,27,7,8,0.3,0.4
2022-04-11T15:00:00,1205A,119.4303,32.1328,镇江市,丹徒区监测站,臭氧1小时,107,44,72,29,37,224,214,148,148,15,26,6,7,0.3,0.4
2022-04-11T15:00:00,1206A,119.905,32.4878,泰州市,公园路,臭氧1小时,103,78,89,36,46,228,206,151,151,11,28,9,9,0.7,0.9
2022-04-11T15:00:00,1207A,119.9189,32.4625,泰州市,莲花,臭氧1小时,106,78,90,41,51,247,212,150,150,5,26,8,8,0.8,1
2022-04-11T15:00:00,1209A,119.888,32.4639,泰州市,留学生创业园,臭氧1小时,107,64,85,30,44,219,214,151,151,10,30,12,12,0.8,0.9
2022-04-11T15:00:00,1210A,119.036,33.5981,淮安市,钵池山,臭氧1小时,63,71,90,26,42,173,170,135,135,10,23,12,14,0.5,0.8
2022-04-11T15:00:00,1211A,119.007,33.575,淮安市,北京南路,臭氧1小时,68,73,98,31,47,188,174,141,141,14,27,13,14,0.7,0.8
2022-04-11T15:00:00,1212A,118.989,33.6067,淮安市,市监测站,,,,91,31,42,195,192,150,150,12,26,14,17,0.7,0.9
2022-04-11T15:00:00,1213A,119.135,33.5039,淮安市,楚州区监测站,臭氧1小时,108,98,108,28,50,215,215,149,149,19,45,15,16,0.8,0.7
2022-04-11T15:00:00,1214A,119.0186,33.6297,淮安市,淮阴区监测站,臭氧1小时,82,64,82,27,44,187,185,150,150,13,25,13,15,0.7,1
2022-04-11T15:00:00,1215A,120.118,33.4022,盐城市,盐城电厂,臭氧1小时,112,80,91,44,61,223,223,159,159,24,23,15,14,0.7,0.8
2022-04-11T15:00:00,1216A,120.156,33.3942,盐城市,市监测站,臭氧1小时,101,66,73,33,63,201,201,136,136,13,21,13,13,0.6,0.7
2022-04-11T15:00:00,1218A,120.2144,33.38,盐城市,开发区管委会,臭氧1小时,102,51,59,25,40,203,203,138,138,11,21,9,7,0.8,0.8
2022-04-11T15:00:00,1220A,118.293,33.9528,宿迁市,宿迁学院,臭氧1小时,77,75,82,36,40,199,181,142,142,7,28,8,11,0.5,0.6
2022-04-11T15:00:00,1221A,118.2442,33.9592,宿迁市,宿迁中学,臭氧1小时,70,70,79,40,38,195,176,141,141,4,11,7,9,0.8,0.8
2022-04-11T15:00:00,1223A,120.2072,30.2111,杭州市,滨江,臭氧1小时,92,62,92,31,39,193,193,127,127,15,54,8,8,0.5,0.8
2022-04-11T15:00:00,1224A,120.0633,30.2747,杭州市,西溪,臭氧1小时,84,47,62,33,33,187,187,117,117,8,38,6,5,0.3,0.5
2022-04-11T15:00:00,1226A,120.3461,30.3153,杭州市,下沙,臭氧1小时,101,76,106,31,44,201,201,142,142,21,58,8,9,0.5,0.6
2022-04-11T15:00:00,1227A,120.1269,30.2456,杭州市,卧龙桥,臭氧1小时,90,62,58,28,33,193,192,113,113,12,28,6,5,0.6,0.6
2022-04-11T15:00:00,1228A,120.1903,30.2692,杭州市,浙江农大,臭氧1小时,105,52,80,37,43,210,210,146,146,13,53,7,7,0.5,0.7
2022-04-11T15:00:00,1230A,120.1197,30.3119,杭州市,和睦小学,臭氧1小时,78,56,109,26,45,185,182,128,128,10,53,4,4,0.6,0.8
2022-04-11T15:00:00,1231A,120.3019,30.4183,杭州市,临平镇,臭氧1小时,108,71,96,35,41,215,215,143,143,14,44,6,5,0.6,0.8
2022-04-11T15:00:00,1232A,120.2697,30.1819,杭州市,城厢镇,臭氧1小时,64,63,92,19,35,171,171,125,125,20,49,9,8,0.5,0.7
2022-04-11T15:00:00,1233A,120.0883,30.1808,杭州市,云栖,臭氧1小时,94,72,69,29,29,195,195,114,114,15,39,9,7,0.4,0.5
2022-04-11T15:00:00,1234A,121.8358,29.911,宁波市,区环保大楼,颗粒物(PM10),54,58,51,24,23,119,119,49,49,71,38,14,10,0.7,0.7
2022-04-11T15:00:00,1235A,121.56,29.82,宁波市,万里学院,臭氧1小时,74,51,46,41,27,179,179,122,122,13,13,9,9,0.4,0.5
2022-04-11T15:00:00,1236A,121.713,29.9572,宁波市,龙赛医院,臭氧1小时,83,60,53,25,25,206,186,117,117,24,24,8,8,0.5,0.5
2022-04-11T15:00:00,1239A,121.633,29.7733,宁波市,钱湖水厂,臭氧1小时,53,47,38,36,23,163,162,118,118,6,9,3,3,0.3,0.4
2022-04-11T15:00:00,1240A,121.5856,29.8635,宁波市,太古小学,,50,35,37,31,28,157,157,104,104,10,15,10,8,0.5,0.5
2022-04-11T15:00:00,1241A,121.524,29.8674,宁波市,市环境监测中心,臭氧1小时,79,45,50,22,25,183,183,116,116,6,15,9,9,0.5,0.6
2022-04-11T15:00:00,1242A,120.634,28.0089,温州市,瓯海,臭氧1小时,89,65,67,31,30,191,191,97,97,22,32,6,5,0.4,0.5
2022-04-11T15:00:00,1243A,120.6748,27.9939,温州市,南浦,颗粒物(PM10),62,73,68,33,29,174,161,92,92,30,33,7,6,0.5,0.6
2022-04-11T15:00:00,1244A,120.76,27.9747,温州市,龙湾,颗粒物(PM10),53,55,83,15,24,124,97,67,67,24,36,5,5,0.4,0.5
2022-04-11T15:00:00,1245A,120.6709,28.0167,温州市,市站,颗粒物(PM10),62,73,68,24,26,165,164,94,94,22,29,6,6,0.5,0.5
2022-04-11T15:00:00,1247A,120.6053,29.9928,绍兴市,城东开发委,臭氧1小时,77,60,63,18,30,181,181,125,125,12,23,6,6,0.5,0.6
2022-04-11T15:00:00,1250A,120.0751,30.8669,湖州市,城西水厂,臭氧1小时,99,58,80,23,39,199,199,104,104,20,48,8,9,0.4,0.6
2022-04-11T15:00:00,1252A,120.7436,30.778,嘉兴市,清河小学,臭氧1小时,98,54,60,28,28,198,198,141,141,17,29,8,8,0.5,0.5
2022-04-11T15:00:00,1253A,120.726,30.7478,嘉兴市,嘉兴学院,臭氧1小时,89,56,71,33,36,191,191,138,138,15,26,12,13,0.9,1
2022-04-11T15:00:00,1255A,121.273,28.6459,台州市,黄岩环保大楼,颗粒物(PM10),55,59,59,16,21,135,131,84,84,11,15,6,6,0.3,0.4
2022-04-11T15:00:00,1256A,121.419,28.6542,台州市,台州环保大楼,颗粒物(PM10),52,53,56,26,26,130,130,84,84,17,15,7,5,0.3,0.3
2022-04-11T15:00:00,1257A,121.377,28.5773,台州市,路桥田洋王,,39,37,50,19,27,124,124,72,72,8,17,7,8,0.3,0.5
2022-04-11T15:00:00,1258A,122.122,30.0203,舟山市,定海檀枫,,35,35,31,18,16,111,111,77,77,13,15,3,2,0.3,0.2
2022-04-11T15:00:00,1259A,122.3094,29.9558,舟山市,普陀东港,,27,27,26,16,13,90,58,62,62,32,20,4,4,0.3,0.3
2022-04-11T15:00:00,1260A,122.19,29.9944,舟山市,临城新区,,31,22,25,12,13,97,97,74,74,9,15,4,3,0.4,0.3
2022-04-11T15:00:00,1262A,119.647,29.077,金华市,十五中,颗粒物(PM10),59,67,79,28,43,174,163,114,114,12,40,8,8,0.5,0.7
2022-04-11T15:00:00,1263A,119.686,29.1029,金华市,监测站,颗粒物(PM10),59,68,82,22,43,153,146,102,102,13,50,7,8,0.3,0.4
2022-04-11T15:00:00,1264A,118.8692,28.9398,衢州市,环保大楼,臭氧1小时,67,69,91,25,36,173,173,115,115,13,49,13,24,0.7,0.9
2022-04-11T15:00:00,1265A,118.8709,28.9666,衢州市,实验学校,臭氧1小时,65,53,71,26,33,173,172,112,112,16,43,11,12,0.5,0.6
2022-04-11T15:00:00,1266A,118.8621,28.9808,衢州市,衢州学院,臭氧1小时,64,49,76,26,33,176,171,110,110,11,52,10,13,0.7,0.7
2022-04-11T15:00:00,1267A,119.914,28.4514,丽水市,监测站大楼,颗粒物(PM10),53,56,49,25,28,150,150,95,95,5,16,7,10,0.4,0.5
2022-04-11T15:00:00,1268A,119.93,28.4586,丽水市,莲都小学,颗粒物(PM10),52,54,56,25,28,156,150,100,100,10,18,8,9,0.3,0.4
2022-04-11T15:00:00,1269A,119.879,28.4231,丽水市,余庄前,臭氧1小时,63,49,47,22,26,170,170,98,98,11,16,6,5,0.4,0.3
2022-04-11T15:00:00,1270A,117.1959,31.7848,合肥市,明珠广场,臭氧1小时,69,78,72,39,30,177,175,134,134,17,35,9,9,0.8,0.7
2022-04-11T15:00:00,1271A,117.3072,31.8764,合肥市,三里街,臭氧1小时,73,92,85,34,34,182,178,131,131,16,38,11,10,0.5,0.5
2022-04-11T15:00:00,1272A,117.2588,31.8707,合肥市,琥珀山庄,臭氧1小时,88,80,74,41,29,194,190,144,144,10,26,9,8,0.5,0.5
2022-04-11T15:00:00,1273A,117.1604,31.9052,合肥市,董铺水库(对照点),臭氧1小时,89,102,80,39,29,194,191,147,147,13,24,12,11,0.7,0.7
2022-04-11T15:00:00,1274A,117.25,31.8571,合肥市,长江中路,臭氧1小时,85,95,80,36,25,189,188,146,146,20,35,10,10,0.5,0.6
2022-04-11T15:00:00,1275A,117.266,31.9436,合肥市,庐阳区,颗粒物(PM10),71,92,87,39,29,178,170,132,132,26,42,11,11,0.5,0.4
2022-04-11T15:00:00,1276A,117.336,31.8586,合肥市,瑶海区,"颗粒物(PM10),臭氧1小时",73,95,90,36,33,182,178,136,136,10,36,11,14,0.6,0.7
2022-04-11T15:00:00,1277A,117.3027,31.7964,合肥市,包河区,臭氧1小时,82,97,79,44,36,196,185,149,149,9,28,8,7,0.4,0.5
2022-04-11T15:00:00,1278A,117.2776,31.7385,合肥市,滨湖新区,臭氧1小时,85,97,73,41,31,202,188,161,161,6,11,8,7,0.4,0.4
2022-04-11T15:00:00,1279A,117.1318,31.8403,合肥市,高新区,臭氧1小时,87,83,74,36,32,192,189,152,152,15,25,13,13,0.9,0.8
2022-04-11T15:00:00,1280A,119.3903,26.0543,福州市,鼓山(对照点),颗粒物(PM10),57,64,45,33,18,158,150,111,107,21,10,9,4,0.5,0.4
2022-04-11T15:00:00,1282A,119.2681,26.0504,福州市,师大,颗粒物(PM10),58,65,61,19,26,179,165,114,114,10,20,4,4,0.4,0.4
2022-04-11T15:00:00,1283A,119.2984,26.1028,福州市,五四北路,臭氧1小时,67,57,55,21,24,191,173,114,114,14,23,5,3,0.3,0.2
2022-04-11T15:00:00,1284A,119.2648,26.0768,福州市,杨桥西路,颗粒物(PM10),53,56,58,19,26,159,148,101,101,7,19,4,5,0.9,0.9
2022-04-11T15:00:00,1285A,119.317,26.0746,福州市,紫阳,颗粒物(PM10),63,75,57,25,29,172,160,109,109,12,22,7,5,0.6,0.6
2022-04-11T15:00:00,1286A,118.1608,24.8169,厦门市,溪东(对照点),,,63,58,37,35,168,,107,107,4,4,,1,,0.3
2022-04-11T15:00:00,1287A,118.1514,24.4767,厦门市,洪文,细颗粒物(PM2.5),73,87,56,53,35,158,158,97,97,19,24,16,5,0.6,0.5
2022-04-11T15:00:00,1288A,118.0661,24.4444,厦门市,鼓浪屿,细颗粒物(PM2.5),90,69,50,67,35,141,141,87,87,56,35,23,7,0.5,0.5
2022-04-11T15:00:00,1290A,115.8931,28.6843,南昌市,省外办,臭氧1小时,92,77,92,37,47,196,193,128,128,13,42,11,12,0.6,0.9
2022-04-11T15:00:00,1291A,115.8886,28.7003,南昌市,省林业公司,臭氧1小时,111,88,99,34,46,221,221,137,137,8,45,20,13,0.9,1.1
2022-04-11T15:00:00,1292A,115.8126,28.7442,南昌市,林科所,臭氧1小时,106,70,74,38,39,212,212,167,167,5,42,12,13,0.6,0.6
2022-04-11T15:00:00,1294A,115.8518,28.687,南昌市,建工学校,臭氧1小时,107,77,90,38,43,214,214,136,136,11,43,19,18,0.6,0.7
2022-04-11T15:00:00,1295A,115.8921,28.6424,南昌市,象湖,臭氧1小时,99,65,109,33,46,202,199,132,132,5,43,8,9,0.7,1
2022-04-11T15:00:00,1296A,115.7423,28.7996,南昌市,武术学校(对照点),臭氧1小时,73,56,56,36,34,189,178,134,134,6,11,15,19,0.8,0.8
2022-04-11T15:00:00,1298A,115.9314,28.6842,南昌市,省站,臭氧1小时,90,64,110,35,47,194,192,137,137,4,45,12,14,0.5,0.7
2022-04-11T15:00:00,1299A,116.9862,36.6114,济南市,科干所,,,61,69,29,30,,,,,11,10,12,13,0.8,0.9
2022-04-11T15:00:00,1300A,116.9376,36.665,济南市,农科所,颗粒物(PM10),78,105,86,24,27,165,158,145,145,8,12,10,12,0.3,0.4
2022-04-11T15:00:00,1301A,117.1265,36.6734,济南市,开发区,颗粒物(PM10),55,59,56,22,23,169,160,157,154,8,7,10,11,0.4,0.4
2022-04-11T15:00:00,1303A,117.0624,36.6868,济南市,省种子仓库,颗粒物(PM10),70,90,71,32,32,172,171,162,159,4,4,11,12,0.6,0.7
2022-04-11T15:00:00,1304A,116.9489,36.6447,济南市,机床二厂,,,115,92,24,32,179,165,154,154,12,10,10,11,,0.7
2022-04-11T15:00:00,1305A,117.0495,36.663,济南市,市监测站,颗粒物(PM10),62,73,66,27,26,168,168,160,156,6,6,12,13,0.3,0.4
2022-04-11T15:00:00,1306A,116.7675,36.5484,济南市,长清党校,,,76,78,39,32,186,167,151,151,,11,12,17,0.7,0.8
2022-04-11T15:00:00,1307A,120.6659,36.2403,青岛市,仰口(对照点),颗粒物(PM10),63,75,41,44,28,125,119,93,93,13,15,4,4,0.7,0.6
2022-04-11T15:00:00,1310A,120.4134,36.0658,青岛市,市南区东部子站,,,73,29,,16,104,104,97,88,14,17,6,5,0.5,0.4
2022-04-11T15:00:00,1311A,120.3664,36.1032,青岛市,四方区子站,颗粒物(PM10),79,107,49,53,30,148,148,112,108,28,15,7,6,0.9,0.7
2022-04-11T15:00:00,1312A,120.2994,36.054,青岛市,市南区西部子站,颗粒物(PM10),56,61,26,34,13,115,103,114,93,25,10,8,5,0.6,0.5
2022-04-11T15:00:00,1313A,120.4581,36.0858,青岛市,崂山区子站,颗粒物(PM10),60,70,33,36,18,116,113,113,95,22,14,8,6,0.5,0.4
2022-04-11T15:00:00,1314A,120.1983,35.9608,青岛市,黄岛区子站,颗粒物(PM10),62,73,29,42,19,109,106,108,92,20,18,5,4,0.6,0.6
2022-04-11T15:00:00,1315A,120.3999,36.3083,青岛市,城阳区子站,臭氧1小时,90,97,76,34,28,192,192,140,140,23,27,11,7,0.9,0.7
2022-04-11T15:00:00,1316A,113.69031,34.76122,郑州市,烟厂,颗粒物(PM10),92,133,98,45,37,194,182,143,143,9,18,10,12,0.5,0.5
2022-04-11T15:00:00,1317A,113.65724,34.77134,郑州市,郑纺机,臭氧1小时,73,92,96,47,34,187,178,132,132,12,23,12,13,0.6,0.7
2022-04-11T15:00:00,1318A,113.67526,34.80246,郑州市,银行学校,臭氧1小时,92,94,87,41,36,200,193,142,142,10,21,8,10,0.6,0.6
2022-04-11T15:00:00,1319A,113.56746,34.81334,郑州市,供水公司,臭氧1小时,92,105,101,36,34,203,193,136,136,10,22,8,10,0.3,0.4
2022-04-11T15:00:00,1320A,113.7329,34.7178,郑州市,经开区管委,颗粒物(PM10),80,109,97,54,47,187,180,144,144,12,21,9,10,0.6,0.6
2022-04-11T15:00:00,1321A,113.73961,34.77172,郑州市,四十七中,颗粒物(PM10),89,128,95,48,39,202,189,146,146,12,18,8,10,0.7,0.7
2022-04-11T15:00:00,1322A,113.60532,34.74838,郑州市,市监测站,颗粒物(PM10),69,88,95,31,32,180,171,129,129,12,25,11,13,0.5,0.5
2022-04-11T15:00:00,1323A,113.64164,34.7525,郑州市,河医大,颗粒物(PM10),81,112,37,46,38,187,179,139,139,13,26,6,9,0.5,0.3
2022-04-11T15:00:00,1324A,113.51488,34.91089,郑州市,岗李水库(对照点),臭氧1小时,99,95,99,40,39,220,199,132,132,13,22,13,11,0.4,0.5
2022-04-11T15:00:00,1325A,114.3677,30.5584,武汉市,东湖梨园,臭氧1小时,65,61,84,46,54,173,172,127,127,12,46,9,9,0.6,0.8
2022-04-11T15:00:00,1326A,114.2529,30.558,武汉市,汉阳月湖,臭氧1小时,72,67,85,43,45,177,177,131,131,12,63,9,9,0.7,0.8
2022-04-11T15:00:00,1327A,114.282,30.6189,武汉市,汉口花桥,细颗粒物(PM2.5),68,42,69,49,48,170,170,133,133,12,45,12,11,0.5,0.6
2022-04-11T15:00:00,1328A,114.3025,30.5332,武汉市,武昌紫阳,"细颗粒物(PM2.5),臭氧1小时",72,62,79,52,48,177,177,136,136,6,40,12,12,0.8,1
2022-04-11T15:00:00,1329A,114.3646,30.6217,武汉市,青山钢花,臭氧1小时,82,68,118,51,52,185,185,138,138,11,57,12,14,0.7,1
2022-04-11T15:00:00,1330A,114.1566,30.4825,武汉市,沌口新区,臭氧1小时,70,69,96,49,59,180,176,134,134,20,50,15,14,0.9,0.9
2022-04-11T15:00:00,1331A,114.3014,30.5944,武汉市,汉口江滩,细颗粒物(PM2.5),74,66,89,54,54,178,178,120,120,19,76,11,10,0.7,0.9
2022-04-11T15:00:00,1333A,114.135,30.6319,武汉市,吴家山,颗粒物(PM10),63,76,98,42,48,182,168,140,140,10,46,12,14,0.8,1
2022-04-11T15:00:00,1334A,113.8454,30.2917,武汉市,沉湖七壕(对照点),臭氧1小时,68,60,70,37,41,184,174,140,140,4,25,9,9,0.7,0.7
2022-04-11T15:00:00,1335A,113.0833,28.2325,长沙市,经开区环保局,臭氧1小时,107,64,71,47,60,214,214,162,162,12,24,15,13,0.7,0.7
2022-04-11T15:00:00,1336A,112.8872,28.2189,长沙市,高开区环保局,臭氧1小时,78,65,82,47,47,183,182,144,144,6,18,10,16,0.5,0.7
2022-04-11T15:00:00,1337A,113.0792,28.2053,长沙市,马坡岭,,,77,87,,56,196,189,141,141,6,26,18,15,0.7,0.6
2022-04-11T15:00:00,1338A,112.9394,28.19,长沙市,湖南师范大学,细颗粒物(PM2.5),80,49,71,59,61,178,176,145,145,6,17,5,10,0.3,0.5
2022-04-11T15:00:00,1339A,113.0178,28.1322,长沙市,雨花区环保局,臭氧1小时,100,68,76,45,50,200,200,157,157,8,21,15,15,0.5,0.5
2022-04-11T15:00:00,1340A,112.9792,28.2597,长沙市,伍家岭,臭氧1小时,74,76,95,46,58,180,179,134,134,8,38,8,9,0.6,0.8
2022-04-11T15:00:00,1341A,113.0014,28.1944,长沙市,火车新站,臭氧1小时,68,75,87,46,58,175,174,135,135,9,32,12,14,0.4,0.6
2022-04-11T15:00:00,1342A,112.9844,28.1178,长沙市,天心区环保局,臭氧1小时,75,50,66,41,48,180,180,141,141,8,18,11,15,0.6,0.7
2022-04-11T15:00:00,1343A,112.8908,28.1308,长沙市,湖南中医药大学,臭氧1小时,63,56,72,44,53,170,170,130,130,6,31,8,11,0.4,0.5
2022-04-11T15:00:00,1344A,112.9581,28.3611,长沙市,沙坪(对照点),细颗粒物(PM2.5),68,79,86,49,53,167,162,128,128,8,20,10,13,0.9,1
2022-04-11T15:00:00,1345A,113.2347,23.1423,广州市,广雅中学,,45,33,51,18,23,229,142,92,92,14,30,6,8,0.7,0.8
2022-04-11T15:00:00,1346A,113.2612,23.105,广州市,市五中,,50,31,47,16,23,241,159,98,98,12,27,4,6,0.5,0.6
2022-04-11T15:00:00,1348A,113.3478,23.0916,广州市,广东商学院,,,34,50,,23,237,119,82,82,,45,3,6,0.4,0.5
2022-04-11T15:00:00,1349A,113.4332,23.1047,广州市,市八十六中,,45,41,48,16,18,223,142,78,78,14,42,6,8,0.7,0.7
2022-04-11T15:00:00,1350A,113.3505,22.9483,广州市,番禺中学,,45,32,48,18,21,210,143,88,88,11,26,6,9,0.9,0.9
2022-04-11T15:00:00,1351A,113.2146,23.3916,广州市,花都师范,臭氧1小时,92,55,65,30,30,250,193,113,113,18,38,5,5,0.6,0.6
2022-04-11T15:00:00,1352A,113.2597,23.1331,广州市,市监测站,,50,34,48,15,22,263,157,97,97,12,29,5,7,0.6,0.7
2022-04-11T15:00:00,1353A,113.5618,23.312,广州市,九龙镇镇龙,,49,49,93,20,38,220,99,58,58,32,58,6,6,0.6,0.7
2022-04-11T15:00:00,1354A,113.2765,23.1544,广州市,麓湖,,43,29,45,16,22,242,136,81,81,11,33,7,8,0.6,0.7
2022-04-11T15:00:00,1355A,113.443,23.3035,广州市,帽峰山森林公园(对照点),,28,19,38,10,18,241,87,59,59,5,18,4,5,0.7,0.7
2022-04-11T15:00:00,1356A,114.1063,22.5545,深圳市,通心岭子站,,31,31,36,15,21,112,89,73,55,15,15,2,3,0.3,0.3
2022-04-11T15:00:00,1357A,114.117,22.5625,深圳市,洪湖,,28,20,41,9,20,116,87,75,58,13,28,5,6,0.7,0.8
2022-04-11T15:00:00,1358A,113.987,22.5417,深圳市,华侨城,,31,31,41,16,22,106,68,46,46,30,34,7,6,0.6,0.6
2022-04-11T15:00:00,1359A,113.9181,22.5171,深圳市,南海子站,,30,30,49,10,22,136,67,52,52,18,24,8,4,0.7,0.5
2022-04-11T15:00:00,1360A,114.2458,22.5689,深圳市,盐田,,19,14,33,6,19,125,59,85,35,8,29,2,3,0.6,0.7
2022-04-11T15:00:00,1361A,114.2283,22.7244,深圳市,龙岗,,41,30,53,12,22,129,129,81,81,14,42,3,4,0.4,0.5
2022-04-11T15:00:00,1363A,114.494,22.5422,深圳市,南澳,,21,17,33,8,16,134,67,68,68,7,9,6,5,0.5,0.5
2022-04-11T15:00:00,1364A,114.41,22.6342,深圳市,葵涌,,24,24,37,9,20,130,61,51,51,7,16,4,4,0.4,0.4
2022-04-11T15:00:00,1365A,114.297,22.5978,深圳市,梅沙,,22,22,36,12,20,139,59,80,41,14,18,5,6,0.5,0.5
2022-04-11T15:00:00,1366A,114.0678,22.738,深圳市,观澜,,,52,67,22,27,138,138,66,66,26,40,4,14,,0.8
2022-04-11T15:00:00,1367A,113.5814,22.2618,珠海市,吉大,,33,33,40,13,28,136,69,73,70,23,17,10,10,0.4,0.5
2022-04-11T15:00:00,1368A,113.4881,22.2335,珠海市,前山,,42,42,52,14,18,140,73,73,73,25,30,10,10,0.5,0.5
2022-04-11T15:00:00,1369A,113.628,22.4251,珠海市,唐家,,28,28,42,10,31,161,66,78,64,8,19,9,10,0.3,0.3
2022-04-11T15:00:00,1370A,113.299,22.2281,珠海市,斗门,,35,22,40,11,24,144,110,103,87,8,14,6,8,0.4,0.4
2022-04-11T15:00:00,1371A,113.1294,23.0067,佛山市,湾梁,,40,31,51,16,21,248,128,102,102,6,19,10,12,0.4,0.5
2022-04-11T15:00:00,1372A,113.1083,23.0478,佛山市,华材职中,,42,34,45,10,22,234,134,99,99,12,22,6,7,0.4,0.5
2022-04-11T15:00:00,1373A,113.144,23.0453,佛山市,南海气象局,,38,35,49,14,25,211,120,90,90,11,27,4,5,0.4,0.6
2022-04-11T15:00:00,1374A,113.2881,22.8094,佛山市,顺德苏岗,,,32,38,19,20,196,154,94,94,,20,2,4,0.7,0.7
2022-04-11T15:00:00,1376A,112.8383,22.8678,佛山市,高明孔堂,,30,24,35,14,17,242,96,72,70,6,11,5,6,0.6,0.6
2022-04-11T15:00:00,1377A,112.8836,23.1588,佛山市,三水监测站,,33,31,60,17,31,225,104,63,63,10,48,6,8,0.5,0.7
2022-04-11T15:00:00,1378A,112.867,23.185,佛山市,三水云东海,颗粒物(PM10),54,58,61,14,20,266,126,76,76,14,30,10,9,0.6,0.7
2022-04-11T15:00:00,1379A,113.3769,22.5211,中山市,华柏园,细颗粒物(PM2.5),52,50,42,36,30,156,151,97,97,12,20,4,4,0.5,0.6
2022-04-11T15:00:00,1380A,113.3881,22.5497,中山市,张溪,细颗粒物(PM2.5),65,46,51,47,30,158,144,91,91,14,19,3,3,0.4,0.4
2022-04-11T15:00:00,1381A,113.4075,22.5111,中山市,紫马岭,,44,39,43,24,20,156,140,86,86,11,20,4,4,0.5,0.4
2022-04-11T15:00:00,1382A,113.4411,22.4853,中山市,长江旅游区(对照点),,41,41,28,22,14,148,117,75,75,12,14,3,3,0.4,0.4
2022-04-11T15:00:00,1383A,113.1064,22.6058,江门市,北街,,41,27,37,15,17,177,129,105,105,9,18,5,8,0.4,0.5
2022-04-11T15:00:00,1384A,113.0731,22.5835,江门市,西区,,37,31,51,16,21,176,117,88,88,16,23,8,10,0.4,0.5
2022-04-11T15:00:00,1385A,113.0219,22.5311,江门市,圭峰西,,37,33,42,18,22,175,117,84,84,9,16,6,8,0.3,0.4
2022-04-11T15:00:00,1386A,113.0828,22.5947,江门市,东湖,,39,26,49,18,20,182,122,94,94,11,18,6,8,0.4,0.4
2022-04-11T15:00:00,1389A,113.7547,23.0494,东莞市,莞城梨川,臭氧1小时,73,41,63,22,31,288,178,89,89,23,42,11,14,0.6,0.6
2022-04-11T15:00:00,1390A,113.7944,23.0128,东莞市,东城石井,臭氧1小时,79,47,55,25,28,286,183,90,90,23,45,9,9,0.5,0.5
2022-04-11T15:00:00,1391A,113.7383,22.9658,东莞市,南城西平,臭氧1小时,82,34,51,31,30,288,185,78,78,22,43,9,9,0.5,0.5
2022-04-11T15:00:00,1392A,114.4183,23.0528,惠州市,河南岸金山湖子站,颗粒物(PM10),53,56,52,20,24,178,123,76,76,14,29,4,4,0.5,0.5
2022-04-11T15:00:00,1393A,114.4053,23.0822,惠州市,下埔横江三路子站,,40,38,49,13,19,185,127,77,77,12,27,5,5,0.4,0.5
2022-04-11T15:00:00,1394A,114.4103,23.1142,惠州市,江北云山西路子站,颗粒物(PM10),71,92,54,18,27,200,132,78,78,7,23,5,7,0.3,0.5
2022-04-11T15:00:00,1395A,114.4645,22.7833,惠州市,惠阳区承修路船湖子站,,26,26,52,10,26,126,80,88,65,9,21,3,4,0.5,0.6
2022-04-11T15:00:00,1396A,114.5317,22.7422,惠州市,大亚湾管委会子站,,33,33,51,14,22,128,73,94,63,7,19,4,4,0.8,0.8
2022-04-11T15:00:00,1397A,112.4267,23.0706,肇庆市,睦岗子站,,37,23,48,13,24,194,118,69,69,10,46,7,22,0.6,0.7
2022-04-11T15:00:00,1398A,112.4645,23.0475,肇庆市,城中子站,,33,19,49,9,25,207,105,65,63,11,37,7,17,0.5,0.6
2022-04-11T15:00:00,1399A,112.5544,23.1522,肇庆市,坑口子站,,34,18,36,9,20,226,106,78,71,4,13,9,11,0.4,0.5
2022-04-11T15:00:00,1400A,112.4753,23.1,肇庆市,七星岩子站(对照点),,,16,42,,28,189,107,65,65,5,20,9,20,0.6,0.6
2022-04-11T15:00:00,1401A,108.3103,22.7881,南宁市,二十一中,颗粒物(PM10),62,73,65,37,34,165,155,100,100,11,28,9,11,0.7,0.8
2022-04-11T15:00:00,1402A,108.3141,22.8528,南宁市,北湖,颗粒物(PM10),60,69,71,39,39,167,161,105,105,10,24,11,13,0.7,0.8
2022-04-11T15:00:00,1403A,108.3206,22.8225,南宁市,市监测站,颗粒物(PM10),65,80,68,34,36,166,160,103,103,17,31,10,14,0.7,0.7
2022-04-11T15:00:00,1404A,108.3829,22.8037,南宁市,大自然花园,颗粒物(PM10),52,53,57,32,31,152,142,112,97,11,19,7,8,0.7,0.8
2022-04-11T15:00:00,1405A,108.4394,22.7904,南宁市,仙葫(对照点),颗粒物(PM10),54,58,68,32,33,147,126,97,94,11,25,7,8,0.5,0.5
2022-04-11T15:00:00,1406A,108.2397,22.8467,南宁市,区农职院,颗粒物(PM10),55,60,66,28,33,176,150,102,102,14,33,9,12,0.7,0.7
2022-04-11T15:00:00,1407A,108.3275,22.735,南宁市,英华嘉园,,,62,74,29,39,151,127,93,93,,44,9,11,0.7,0.9
2022-04-11T15:00:00,1408A,108.2257,22.7757,南宁市,沙井镇街道办,颗粒物(PM10),54,58,82,30,38,158,140,90,90,12,41,8,11,0.6,0.9
2022-04-11T15:00:00,1409A,110.576,19.9507,海口市,东寨港(对照点),,46,46,25,16,14,70,62,49,49,2,5,3,7,0.3,0.4
2022-04-11T15:00:00,1410A,110.3232,20.0574,海口市,海南大学,,24,24,25,13,13,82,66,64,51,4,4,4,4,0.4,0.4
2022-04-11T15:00:00,1411A,110.283,20.0053,海口市,秀英海南医院,,36,36,31,20,15,83,68,58,58,1,9,4,3,0.3,0.3
2022-04-11T15:00:00,1412A,110.338,19.9969,海口市,海南师范大学,,33,33,29,14,14,66,57,52,50,2,6,3,3,0.3,0.3
2022-04-11T15:00:00,1413A,110.33,20.0356,海口市,龙华路环保局宿舍,,23,23,26,12,12,83,68,64,61,2,4,4,4,0.4,0.4
2022-04-11T15:00:00,1414A,106.3787,29.8279,重庆市,缙云山(对照点),臭氧1小时,73,31,36,13,21,216,178,168,133,20,20,13,14,1.0,0.9
2022-04-11T15:00:00,1416A,106.4213,29.8253,重庆市,天生,,47,45,64,26,35,173,150,81,81,13,41,7,8,0.7,0.8
2022-04-11T15:00:00,1417A,106.6263,29.7228,重庆市,两路,臭氧1小时,65,33,47,28,27,176,172,112,105,25,46,15,16,0.9,0.9
2022-04-11T15:00:00,1418A,106.2953,29.5983,重庆市,虎溪,臭氧1小时,68,46,58,22,32,208,174,93,93,13,48,5,5,0.9,1
2022-04-11T15:00:00,1419A,106.5777,29.5102,重庆市,南坪,臭氧1小时,103,60,64,34,37,218,206,125,117,25,38,10,14,0.9,0.9
2022-04-11T15:00:00,1420A,106.6556,29.6277,重庆市,唐家沱,,,37,69,20,32,212,,77,77,20,50,7,7,1.3,1
2022-04-11T15:00:00,1421A,106.6349,29.4906,重庆市,茶园,臭氧1小时,110,50,88,30,41,223,219,109,109,21,73,11,11,1.0,1.2
2022-04-11T15:00:00,1422A,106.3754,29.4572,重庆市,白市驿,臭氧1小时,84,56,65,8,33,201,187,138,138,15,34,11,12,0.9,1
2022-04-11T15:00:00,1425A,106.6205,29.7166,重庆市,空港,臭氧1小时,77,41,53,26,29,191,181,127,116,14,30,11,11,0.8,0.7
2022-04-11T15:00:00,1426A,106.4782,29.4875,重庆市,新山村,臭氧1小时,80,46,72,23,36,201,184,96,96,21,85,6,7,0.6,1.1
2022-04-11T15:00:00,1427A,106.5616,29.6453,重庆市,礼嘉,臭氧1小时,79,43,61,23,33,195,183,104,104,15,57,12,13,0.6,0.6
2022-04-11T15:00:00,1428A,106.4522,29.7091,重庆市,蔡家,臭氧1小时,87,38,57,20,34,199,189,92,92,20,49,6,5,0.8,0.8
2022-04-11T15:00:00,1429A,106.5093,29.3917,重庆市,鱼新街,臭氧1小时,102,40,69,20,36,206,204,91,91,25,67,8,8,1.0,1.3
2022-04-11T15:00:00,1431A,103.9728,30.7236,成都市,金泉两河,臭氧1小时,106,58,93,40,68,228,211,131,131,9,49,5,5,0.6,0.8
2022-04-11T15:00:00,1432A,104.1419,30.6764,成都市,十里店,臭氧1小时,75,60,106,34,54,183,180,97,97,12,62,7,7,0.7,0.7
2022-04-11T15:00:00,1433A,104.0594,30.5767,成都市,三瓦窑,臭氧1小时,105,94,86,61,45,209,209,105,105,18,62,5,5,0.8,1
2022-04-11T15:00:00,1434A,104.1122,30.6306,成都市,沙河铺,臭氧1小时,101,60,84,39,53,202,202,101,101,12,46,4,3,0.4,0.6
2022-04-11T15:00:00,1437A,104.0431,30.6556,成都市,君平街,臭氧1小时,119,79,105,56,69,238,238,128,128,17,61,7,8,0.5,0.8
2022-04-11T15:00:00,1438A,103.6202,31.0201,成都市,灵岩寺(对照点),臭氧1小时,84,68,76,52,58,223,187,206,139,11,13,9,12,0.5,0.5
2022-04-11T15:00:00,1439A,106.6899,26.5998,贵阳市,马鞍山,"颗粒物(PM10),细颗粒物(PM2.5)",58,66,52,41,36,123,114,95,95,9,15,4,5,0.4,0.9
2022-04-11T15:00:00,1440A,106.6971,26.5694,贵阳市,市环保站,颗粒物(PM10),65,79,58,43,41,112,112,93,93,15,28,14,9,0.5,0.5
2022-04-11T15:00:00,1441A,106.6243,26.6266,贵阳市,鉴湖路,细颗粒物(PM2.5),73,68,72,53,56,133,129,116,116,8,10,3,4,0.3,0.4
2022-04-11T15:00:00,1442A,106.7487,26.6343,贵阳市,燕子冲,细颗粒物(PM2.5),73,75,61,53,44,137,133,122,122,1,7,7,8,0.7,0.7
2022-04-11T15:00:00,1443A,106.6555,26.4365,贵阳市,碧云窝,颗粒物(PM10),63,75,66,41,43,129,129,113,113,6,12,2,3,0.5,0.5
2022-04-11T15:00:00,1444A,106.694,26.5161,贵阳市,中院村,细颗粒物(PM2.5),67,63,61,48,40,122,120,107,107,13,29,5,7,0.6,0.6
2022-04-11T15:00:00,1445A,106.7109,26.6027,贵阳市,红边门,细颗粒物(PM2.5),70,70,61,51,44,129,125,111,111,16,26,3,5,0.3,0.4
2022-04-11T15:00:00,1446A,106.7164,26.5699,贵阳市,新华路,颗粒物(PM10),63,75,58,44,41,129,124,113,113,7,16,5,7,0.4,0.4
2022-04-11T15:00:00,1447A,106.674,26.5424,贵阳市,太慈桥,颗粒物(PM10),69,88,80,46,36,117,117,103,103,9,24,1,2,0.5,0.4
2022-04-11T15:00:00,1450A,102.8204,24.8886,昆明市,呈贡新区,颗粒物(PM10),51,52,56,26,32,163,147,103,103,9,29,8,10,0.3,0.6
2022-04-11T15:00:00,1451A,102.6251,24.9608,昆明市,西山森林公园(对照点),,48,48,41,29,30,176,152,134,134,6,9,9,12,0.4,0.5
2022-04-11T15:00:00,1452A,102.7252,25.0902,昆明市,龙泉镇,,48,47,69,32,40,185,152,91,91,14,44,12,11,0.6,0.9
2022-04-11T15:00:00,1453A,102.7266,25.0375,昆明市,东风东路,,50,50,62,33,38,190,152,101,101,11,32,6,7,0.4,0.9
2022-04-11T15:00:00,1454A,102.6742,25.0669,昆明市,金鼎山,,50,50,66,24,40,192,154,98,98,14,38,8,9,0.4,0.7
2022-04-11T15:00:00,1455A,102.6644,25.0401,昆明市,碧鸡广场,,47,42,58,23,36,180,149,96,96,13,43,11,13,0.5,0.8
2022-04-11T15:00:00,1456A,91.1319,29.6514,拉萨市,八廓街,,28,28,23,14,9,95,88,84,75,8,11,5,7,0.3,0.4
2022-04-11T15:00:00,1457A,91.1221,29.6747,拉萨市,市环保局,,31,28,23,6,15,106,98,91,76,5,9,3,4,0.2,0.3
2022-04-11T15:00:00,1458A,91.0874,29.6475,拉萨市,区监测站,,27,25,21,13,9,107,86,75,69,6,11,6,6,0.2,0.3
2022-04-11T15:00:00,1459A,91.1774,29.6541,拉萨市,西藏大学,,28,23,20,11,9,95,88,86,72,5,8,5,5,0.3,0.3
2022-04-11T15:00:00,1460A,90.9798,29.6588,拉萨市,区辐射站,,34,34,21,17,10,105,105,68,66,3,20,6,6,0.3,0.5
2022-04-11T15:00:00,1461A,91.0834,29.6292,拉萨市,拉萨火车站,,39,39,29,15,7,100,93,79,72,4,11,5,5,0.3,0.4
2022-04-11T15:00:00,1462A,108.882,34.2749,西安市,高压开关厂,颗粒物(PM10),344,455,135,71,50,177,122,89,89,13,62,,11,0.4,0.7
2022-04-11T15:00:00,1463A,108.993,34.2629,西安市,兴庆小区,颗粒物(PM10),87,124,100,48,50,180,153,98,98,18,51,6,8,1.6,0.7
2022-04-11T15:00:00,1464A,109.06,34.2572,西安市,纺织城,颗粒物(PM10),91,132,116,51,47,179,170,99,99,23,64,8,9,0.6,0.6
2022-04-11T15:00:00,1465A,108.9356,34.2173,西安市,小寨,颗粒物(PM10),142,234,113,73,47,173,135,94,94,14,62,6,6,0.4,0.6
2022-04-11T15:00:00,1466A,108.954,34.2713,西安市,市人民体育场,颗粒物(PM10),88,126,117,54,49,175,137,92,92,12,67,7,8,0.7,0.9
2022-04-11T15:00:00,1467A,108.8922,34.2322,西安市,高新西区,颗粒物(PM10),98,146,109,42,38,178,122,93,93,12,70,11,11,0.4,0.7
2022-04-11T15:00:00,1468A,108.935,34.3474,西安市,经开区,颗粒物(PM10),100,150,120,50,50,159,132,81,81,10,63,3,4,0.5,0.6
2022-04-11T15:00:00,1469A,108.906,34.1546,西安市,长安区,细颗粒物(PM2.5),108,124,121,81,51,186,90,62,62,16,55,6,6,0.5,0.6
2022-04-11T15:00:00,1471A,109.2186,34.3731,西安市,临潼区,颗粒物(PM10),81,112,107,50,44,180,180,107,107,13,29,9,10,0.6,0.6
2022-04-11T15:00:00,1472A,108.869,34.378,西安市,草滩(对照点),颗粒物(PM10),115,179,107,68,44,176,112,74,74,2,40,6,7,0.6,0.7
2022-04-11T15:00:00,1473A,108.985,34.1978,西安市,曲江文化产业集团,颗粒物(PM10),98,146,110,43,40,174,144,92,92,20,75,6,6,0.6,0.8
2022-04-11T15:00:00,1474A,109.051,34.3213,西安市,广运潭,细颗粒物(PM2.5),89,25,124,66,45,168,168,92,92,22,47,4,4,0.6,0.5
2022-04-11T15:00:00,1476A,103.631,36.1031,兰州市,兰炼宾馆,颗粒物(PM10),238,376,286,109,92,132,85,90,82,9,21,5,7,0.2,0.3
2022-04-11T15:00:00,1477A,104.1373,35.9454,兰州市,榆中兰大校区(对照点),颗粒物(PM10),90,130,280,40,58,136,101,102,94,9,11,3,5,0.5,0.6
2022-04-11T15:00:00,1478A,103.8412,36.0726,兰州市,生物制品所,颗粒物(PM10),108,166,279,48,64,135,86,96,86,9,26,5,7,0.3,0.4
2022-04-11T15:00:00,1479A,103.831,36.0464,兰州市,铁路设计院,颗粒物(PM10),121,191,292,58,81,128,84,88,74,16,41,6,9,1.6,0.8
2022-04-11T15:00:00,1483A,101.524,36.6867,西宁市,第五水厂(对照点),颗粒物(PM10),144,237,109,39,18,109,89,97,80,18,19,16,13,0.6,0.8
2022-04-11T15:00:00,1484A,105.9512,38.6016,银川市,贺兰山马莲口(对照点),颗粒物(PM10),116,182,296,40,68,108,84,77,77,10,6,14,10,0.5,0.4
2022-04-11T15:00:00,1488A,106.2328,38.4975,银川市,贺兰山东路,颗粒物(PM10),102,154,325,39,79,121,93,87,84,12,15,7,7,0.5,0.5
2022-04-11T15:00:00,1489A,106.1358,38.5036,银川市,学院路,颗粒物(PM10),107,163,330,43,67,124,92,86,81,9,11,10,8,0.6,0.4
2022-04-11T15:00:00,1490A,87.5801,43.8303,乌鲁木齐市,监测站,,50,50,51,16,12,112,112,79,79,12,37,6,7,0.5,0.6
2022-04-11T15:00:00,1491A,87.6046,43.768,乌鲁木齐市,收费所,,50,50,62,10,17,98,98,78,78,13,40,6,6,0.3,0.3
2022-04-11T15:00:00,1492A,87.4754,43.9469,乌鲁木齐市,新疆农科院农场(对照点),颗粒物(PM10),68,86,80,5,22,97,97,57,57,4,28,11,9,0.3,0.4
2022-04-11T15:00:00,1493A,87.5525,43.8711,乌鲁木齐市,铁路局,,49,49,48,9,15,110,110,75,75,8,29,5,6,0.6,0.6
2022-04-11T15:00:00,1494A,87.6432,43.831,乌鲁木齐市,三十一中学,,41,41,47,15,11,103,103,87,87,12,27,6,9,0.2,0.3
2022-04-11T15:00:00,1496A,87.7216,44.1747,乌鲁木齐市,米东区环保局,,33,33,41,9,8,103,103,82,82,3,7,11,7,0.3,0.2
2022-04-11T15:00:00,1508A,112.9433,27.8614,湘潭市,板塘,臭氧1小时,62,63,84,38,53,181,169,133,133,1,16,9,15,0.4,0.5
2022-04-11T15:00:00,1511A,112.9118,27.8403,湘潭市,市监测站,细颗粒物(PM2.5),59,54,74,42,59,158,153,122,122,10,17,22,20,1.0,1.1
2022-04-11T15:00:00,1512A,112.8937,27.8728,湘潭市,江麓,颗粒物(PM10),58,66,93,38,57,162,153,113,113,11,31,16,31,0.4,1
2022-04-11T15:00:00,1513A,112.9227,27.8159,湘潭市,岳塘,臭氧1小时,68,58,87,33,53,187,174,143,143,7,18,12,18,0.5,0.9
2022-04-11T15:00:00,1514A,112.9074,27.9119,湘潭市,科大,细颗粒物(PM2.5),68,65,84,49,53,179,172,141,141,16,23,22,20,0.8,0.8
2022-04-11T15:00:00,1515A,113.135,27.8244,株洲市,天台山庄,臭氧1小时,77,57,62,38,50,182,181,143,143,12,20,8,13,0.2,0.3
2022-04-11T15:00:00,1518A,113.095,27.8867,株洲市,株冶医院,臭氧1小时,105,58,73,39,50,210,210,159,159,10,37,10,14,0.5,0.6
2022-04-11T15:00:00,1519A,113.167,27.8667,株洲市,市四中,臭氧1小时,68,61,71,35,45,174,174,134,134,6,18,10,12,0.4,0.5
2022-04-11T15:00:00,1520A,113.143,27.8381,株洲市,火车站,臭氧1小时,92,63,70,40,47,197,193,145,145,7,18,8,11,0.2,0.3
2022-04-11T15:00:00,1524A,113.13,27.8528,株洲市,市监测站,臭氧1小时,67,66,74,46,49,173,173,132,132,6,18,9,14,0.4,0.5
2022-04-11T15:00:00,1552A,106.805,26.3003,贵阳市,桐木岭(对照点),细颗粒物(PM2.5),67,73,59,48,41,132,132,128,128,4,5,5,5,0.5,0.5
2022-04-11T15:00:00,1559A,113.251,27.8336,株洲市,大京风景区(对照点),臭氧1小时,63,44,49,35,40,174,170,132,132,6,7,9,8,0.4,0.5
2022-04-11T15:00:00,1562A,113.0048,27.9153,湘潭市,昭山,颗粒物(PM10),53,56,69,33,48,168,155,128,128,8,19,8,15,0.5,0.5
2022-04-11T15:00:00,1564A,112.4876,27.9164,湘潭市,韶山(对照点),颗粒物(PM10),71,92,78,37,37,169,169,139,139,10,9,8,8,0.3,0.4
2022-04-11T15:00:00,1585A,109.8756,40.6532,包头市,市环境监测站,,44,44,190,9,43,206,94,107,106,5,7,4,6,0.3,0.4
2022-04-11T15:00:00,1587A,109.9991,40.5842,包头市,包头八中,,34,34,203,7,47,110,96,96,96,5,9,8,10,0.3,0.3
2022-04-11T15:00:00,1588A,109.8538,40.6821,包头市,青山宾馆,,,,195,,58,106,93,90,90,6,7,8,8,0.4,0.4
2022-04-11T15:00:00,1589A,109.8642,40.6288,包头市,惠龙物流,,30,27,213,8,44,107,96,92,91,4,7,4,7,0.4,0.2
2022-04-11T15:00:00,1590A,110.0377,40.5546,包头市,东河鸿龙湾,,30,25,162,5,37,112,93,92,92,3,6,9,11,0.3,0.3
2022-04-11T15:00:00,1591A,110.0023,39.8129,鄂尔多斯市,综合楼,颗粒物(PM10),79,107,320,24,70,110,94,94,82,12,14,5,7,0.4,0.4
2022-04-11T15:00:00,1592A,109.9486,39.8261,鄂尔多斯市,巴音孟克林场办事处,颗粒物(PM10),72,94,318,19,63,114,99,91,85,5,9,6,9,0.4,0.4
2022-04-11T15:00:00,1593A,109.7736,39.5986,鄂尔多斯市,康泽苑,,41,41,257,5,49,120,105,97,97,8,6,3,4,0.5,0.4
2022-04-11T15:00:00,1594A,109.8119,39.5989,鄂尔多斯市,华泰汽车城,,46,46,272,12,58,120,105,98,96,7,9,6,6,0.4,0.4
2022-04-11T15:00:00,1595A,109.9734,39.7884,鄂尔多斯市,奥林花园,颗粒物(PM10),83,116,318,14,65,107,96,93,83,7,12,4,6,0.4,0.4
2022-04-11T15:00:00,1597A,122.2703,40.7094,营口市,大庆路,细颗粒物(PM2.5),75,82,47,55,25,170,144,137,127,14,12,12,8,0.8,0.7
2022-04-11T15:00:00,1598A,122.215,40.6511,营口市,镜湖西路,细颗粒物(PM2.5),90,79,58,67,21,184,142,132,126,19,13,12,15,0.5,0.3
2022-04-11T15:00:00,1599A,122.167,40.6655,营口市,西炮台,颗粒物(PM10),61,72,46,39,21,178,132,128,121,23,16,9,7,0.7,0.5
2022-04-11T15:00:00,1600A,124.3303,40.0625,丹东市,江湾东路,,37,37,38,25,20,109,74,83,76,18,11,16,10,0.5,0.5
2022-04-11T15:00:00,1601A,124.4256,40.1503,丹东市,临江后街,,,38,35,18,13,112,86,93,83,6,5,10,10,,0.6
2022-04-11T15:00:00,1602A,124.3933,40.1461,丹东市,元宝山,,,34,40,21,16,107,76,88,74,11,11,,11,,0.7
2022-04-11T15:00:00,1603A,124.3633,40.1092,丹东市,民主桥,,29,29,34,16,14,107,74,84,73,10,6,11,10,0.5,0.5
2022-04-11T15:00:00,1604A,122.0303,41.1489,盘锦市,开发区,细颗粒物(PM2.5),63,53,63,45,34,181,106,101,94,19,22,20,8,0.8,0.9
2022-04-11T15:00:00,1605A,122.0485,41.0883,盘锦市,兴隆台,细颗粒物(PM2.5),64,65,69,46,35,176,88,102,81,33,27,14,10,0.8,0.9
2022-04-11T15:00:00,1606A,121.8297,41.1028,盘锦市,新生街道,细颗粒物(PM2.5),58,61,49,41,27,178,114,101,101,21,18,36,14,0.8,0.6
2022-04-11T15:00:00,1607A,120.9092,40.7136,葫芦岛市,龙港区,细颗粒物(PM2.5),57,54,62,40,33,187,141,112,110,16,17,12,11,0.7,0.6
2022-04-11T15:00:00,1608A,120.8392,40.7514,葫芦岛市,化工街,颗粒物(PM10),59,67,80,24,35,189,130,114,109,16,15,8,6,0.7,0.7
2022-04-11T15:00:00,1609A,120.8341,40.7073,葫芦岛市,新区,细颗粒物(PM2.5),58,50,68,41,34,200,125,118,107,18,21,10,9,0.7,0.7
2022-04-11T15:00:00,1610A,120.8695,40.7677,葫芦岛市,东城区,细颗粒物(PM2.5),64,59,84,46,36,184,137,108,105,22,19,9,8,0.6,0.8
2022-04-11T15:00:00,1611A,118.5819,24.9117,泉州市,涂山街,颗粒物(PM10),55,59,51,35,29,163,152,126,126,15,15,14,9,0.7,0.7
2022-04-11T15:00:00,1612A,118.5972,24.8978,泉州市,津头埔,颗粒物(PM10),51,51,51,35,29,155,140,120,120,17,18,16,10,0.7,0.6
2022-04-11T15:00:00,1613A,118.6663,24.9424,泉州市,万安,,46,27,50,32,29,147,120,114,114,9,13,13,10,0.8,0.8
2022-04-11T15:00:00,1614A,118.6117,24.9604,泉州市,清源山(对照点),颗粒物(PM10),53,55,49,36,26,166,159,138,138,11,9,13,11,0.8,0.7
2022-04-11T15:00:00,1616A,117.6795,36.229,济南市,技术学院,细颗粒物(PM2.5),78,78,85,57,40,186,176,164,164,6,20,11,16,0.4,0.7
2022-04-11T15:00:00,1618A,118.3429,35.0532,临沂市,沂河小区,,,,106,41,67,189,177,142,142,29,27,13,19,0.4,0.6
2022-04-11T15:00:00,1619A,118.295,35.0583,临沂市,鲁南制药厂,,,,97,,45,204,187,154,154,14,30,11,16,0.7,0.8
2022-04-11T15:00:00,1620A,118.2794,34.9976,临沂市,新光毛纺厂,颗粒物(PM10),63,75,115,34,46,172,168,136,136,4,27,8,13,0.6,0.8
2022-04-11T15:00:00,1621A,118.3956,35.0888,临沂市,河东保险公司,臭氧1小时,75,75,103,31,45,201,180,148,148,12,30,10,13,0.6,0.8
2022-04-11T15:00:00,1622A,116.3032,37.4674,德州市,儿童乐园,颗粒物(PM10),75,99,96,51,50,189,174,134,134,10,16,14,15,0.8,0.7
2022-04-11T15:00:00,1624A,116.2991,37.4451,德州市,监理站,颗粒物(PM10),76,101,97,47,43,187,180,133,133,6,12,16,16,0.3,0.4
2022-04-11T15:00:00,1625A,115.9848,36.4372,聊城市,区政府,颗粒物(PM10),73,96,87,40,37,181,167,130,130,8,14,13,15,0.7,0.7
2022-04-11T15:00:00,1628A,118.0062,37.3803,滨州市,市环保局,臭氧1小时,113,86,90,33,36,225,225,175,175,,30,12,14,2.6,2.7
2022-04-11T15:00:00,1629A,118.0018,37.3617,滨州市,第二水厂,臭氧1小时,80,87,90,31,33,184,184,145,145,6,21,12,14,0.6,0.7
2022-04-11T15:00:00,1630A,117.9776,37.393,滨州市,北中新校,臭氧1小时,84,77,81,27,32,190,187,150,150,16,28,9,11,0.3,0.5
2022-04-11T15:00:00,1631A,118.0414,36.8103,淄博市,人民公园,颗粒物(PM10),85,119,80,29,33,181,166,162,162,4,12,6,10,0.2,0.3
2022-04-11T15:00:00,1633A,117.8525,36.4847,淄博市,双山,颗粒物(PM10),62,74,76,33,43,178,163,160,160,3,10,15,13,0.2,0.4
2022-04-11T15:00:00,1634A,117.9592,36.6331,淄博市,气象站,臭氧1小时,65,66,74,27,31,188,172,166,166,14,17,12,15,0.7,0.8
2022-04-11T15:00:00,1635A,118.3092,36.8194,淄博市,莆田园,颗粒物(PM10),69,88,82,31,34,197,165,168,168,7,13,6,11,0.1,0.7
2022-04-11T15:00:00,1637A,117.558,34.8438,枣庄市,市中区政府,臭氧1小时,103,78,102,39,39,205,205,162,162,13,24,9,12,0.8,0.8
2022-04-11T15:00:00,1638A,117.2852,34.7837,枣庄市,薛城环保局,臭氧1小时,75,83,89,44,39,191,180,159,159,5,15,12,14,0.1,0.3
2022-04-11T15:00:00,1639A,117.5852,34.7745,枣庄市,峄城区政府,臭氧1小时,98,85,93,44,41,198,198,152,152,13,24,13,14,0.5,0.5
2022-04-11T15:00:00,1640A,117.7276,34.5578,枣庄市,台儿庄区环保局,,,,,36,33,180,178,138,138,29,34,13,12,1.1,1
2022-04-11T15:00:00,1641A,117.4518,35.0992,枣庄市,山亭区环保局,臭氧1小时,68,70,74,37,36,202,174,172,172,7,21,9,20,0.5,0.8
2022-04-11T15:00:00,1642A,121.2514,37.5639,烟台市,开发区,颗粒物(PM10),58,66,60,29,29,166,162,130,130,10,10,5,5,0.6,0.5
2022-04-11T15:00:00,1643A,121.3719,37.5433,烟台市,轴承厂,颗粒物(PM10),56,61,51,36,28,167,163,129,129,13,12,8,6,0.6,0.6
2022-04-11T15:00:00,1644A,121.3181,37.5436,烟台市,西郊化工站,颗粒物(PM10),63,75,56,31,29,168,168,139,139,17,11,10,8,0.4,0.4
2022-04-11T15:00:00,1645A,121.4478,37.4822,烟台市,莱山环保局,,,61,47,29,23,140,134,112,111,14,8,,6,0.6,0.5
2022-04-11T15:00:00,1646A,121.2611,37.4967,烟台市,福山环保局,臭氧1小时,77,73,58,29,28,184,181,142,142,8,8,10,7,0.6,0.6
2022-04-11T15:00:00,1650A,119.1437,36.7023,潍坊市,环保局,臭氧1小时,69,70,92,34,49,195,175,134,134,10,15,7,8,0.5,0.8
2022-04-11T15:00:00,1653A,116.6251,35.4302,济宁市,火炬城,颗粒物(PM10),66,82,77,34,32,192,172,148,148,4,9,12,14,0.7,0.8
2022-04-11T15:00:00,1655A,116.5491,35.4042,济宁市,电化厂,颗粒物(PM10),74,98,91,41,36,188,172,147,147,8,11,9,11,0.8,0.8
2022-04-11T15:00:00,1656A,117.1437,36.1937,泰安市,监测站,臭氧1小时,89,75,78,46,43,191,191,167,167,5,11,13,16,0.2,0.3
2022-04-11T15:00:00,1657A,117.0885,36.2017,泰安市,人口学校,颗粒物(PM10),65,80,77,41,35,170,170,150,150,8,11,5,6,0.6,0.6
2022-04-11T15:00:00,1658A,117.1089,36.1758,泰安市,电力学校,臭氧1小时,75,70,74,38,37,180,180,156,156,7,13,11,13,0.6,0.6
2022-04-11T15:00:00,1659A,119.471,35.4209,日照市,监测站,颗粒物(PM10),85,119,77,55,37,180,180,79,79,36,28,9,6,0.8,0.6
2022-04-11T15:00:00,1660A,119.523,35.4216,日照市,市政府广场,颗粒物(PM10),93,136,68,66,34,180,180,95,95,43,22,16,7,0.8,0.6
2022-04-11T15:00:00,1661A,119.5587,35.4044,日照市,港务局,,,,54,,23,139,139,102,102,47,12,10,5,0.7,0.6
2022-04-11T15:00:00,1662A,122.1214,37.4236,威海市,华夏技校,颗粒物(PM10),54,58,34,36,27,162,159,115,115,18,15,7,4,0.5,0.4
2022-04-11T15:00:00,1663A,122.0508,37.5236,威海市,山大分校,臭氧1小时,105,66,37,,,209,209,156,156,15,10,11,6,0.6,0.4
2022-04-11T15:00:00,1664A,122.1067,37.5072,威海市,市监测站,臭氧1小时,88,61,41,32,25,190,190,150,129,11,13,10,6,0.6,0.5
2022-04-11T15:00:00,1666A,118.6614,37.4309,东营市,市环保局,臭氧1小时,88,73,85,29,41,199,190,155,155,9,18,11,24,0.5,0.8
2022-04-11T15:00:00,1669A,113.5824,24.7733,韶关市,市八中,臭氧1小时,63,37,68,22,35,223,170,106,106,14,31,9,17,0.4,0.6
2022-04-11T15:00:00,1671A,113.5917,24.7972,韶关市,园林处,臭氧1小时,53,36,76,18,39,211,162,112,112,8,32,8,16,0.5,0.8
2022-04-11T15:00:00,1672A,113.6735,24.7791,韶关市,韶关学院,臭氧1小时,80,33,57,22,37,227,184,113,113,12,24,17,19,0.7,0.8
2022-04-11T15:00:00,1673A,113.5971,24.6863,韶关市,曲江监测站,,45,28,54,22,30,202,143,93,93,12,29,9,9,0.5,0.6
2022-04-11T15:00:00,1674A,116.6794,23.3667,汕头市,金平子站,颗粒物(PM10),53,56,71,18,37,139,120,103,103,15,23,10,13,0.4,0.6
2022-04-11T15:00:00,1675A,116.7244,23.3633,汕头市,龙湖子站,颗粒物(PM10),65,80,58,19,31,118,104,93,93,19,23,8,10,0.5,0.6
2022-04-11T15:00:00,1676A,116.7258,23.2775,汕头市,濠江子站,,40,40,52,16,31,122,110,93,93,10,16,10,11,0.6,0.7
2022-04-11T15:00:00,1677A,116.7519,23.4714,汕头市,澄海子站,颗粒物(PM10),51,52,73,24,36,135,125,104,104,16,24,9,12,0.5,0.7
2022-04-11T15:00:00,1678A,116.6092,23.2539,汕头市,潮阳子站,,43,43,69,23,29,136,126,105,105,11,17,12,12,0.4,0.6
2022-04-11T15:00:00,1680A,110.3539,21.2706,湛江市,湛江影剧院,,42,42,30,20,18,82,75,67,64,5,8,5,5,0.4,0.5
2022-04-11T15:00:00,1681A,110.3928,21.2228,湛江市,市环境监测站,,27,27,25,16,17,84,77,81,65,5,6,6,5,0.6,0.5
2022-04-11T15:00:00,1682A,110.4019,21.1997,湛江市,环保局宿舍,,29,29,25,18,16,84,75,78,61,5,7,9,4,0.9,0.5
2022-04-11T15:00:00,1683A,110.4111,21.2028,湛江市,霞山游泳场,,23,18,24,16,15,84,62,80,59,9,6,6,5,0.5,0.4
2022-04-11T15:00:00,1684A,110.3316,21.2679,湛江市,麻章区环保局,,37,37,37,24,22,95,77,64,59,6,8,6,6,0.5,0.5
2022-04-11T15:00:00,1685A,110.4558,21.2567,湛江市,坡头区环保局,,23,17,26,16,16,85,69,80,66,4,6,2,1,0.5,0.5
2022-04-11T15:00:00,1686A,111.0286,21.4688,茂名市,电白南海,,15,15,29,0,13,78,47,54,48,5,12,5,6,0.5,0.5
2022-04-11T15:00:00,1687A,110.9294,21.6533,茂名市,茂石化七小,,29,29,33,17,18,87,66,61,61,8,14,7,11,0.5,0.5
2022-04-11T15:00:00,1688A,110.9107,21.6687,茂名市,健康路,,22,22,29,15,15,97,68,63,63,4,9,9,12,0.6,0.6
2022-04-11T15:00:00,1689A,110.8592,21.6828,茂名市,高岭,,36,36,31,14,8,94,70,64,64,7,12,7,12,0.5,0.6
2022-04-11T15:00:00,1690A,116.1231,24.3284,梅州市,梅江月梅,,,21,54,14,36,136,90,79,79,,33,6,7,0.4,0.6
2022-04-11T15:00:00,1691A,116.0797,24.2719,梅州市,梅县新城,,25,21,48,13,31,131,77,75,75,8,33,4,6,0.4,0.6
2022-04-11T15:00:00,1692A,116.1248,24.2654,梅州市,环境监控中心,,27,24,49,16,34,134,84,94,94,6,37,6,10,0.4,0.6
2022-04-11T15:00:00,1693A,115.3653,22.775,汕尾市,市环保局,,,,38,,21,116,70,82,63,7,13,7,8,0.5,0.6
2022-04-11T15:00:00,1694A,115.3706,22.7898,汕尾市,市政府,,24,13,38,13,24,134,76,71,67,6,11,5,6,0.3,0.4
2022-04-11T15:00:00,1695A,115.3622,22.7925,汕尾市,新城中学,,30,30,41,17,22,127,78,70,70,4,9,5,5,0.5,0.6
2022-04-11T15:00:00,1696A,114.6778,23.7569,河源市,源西(对照点),,27,26,52,9,26,137,84,66,66,6,33,2,3,0.5,0.7
2022-04-11T15:00:00,1697A,114.6944,23.7586,河源市,东埔,,,21,51,6,22,141,60,60,60,,28,3,5,0.4,0.7
2022-04-11T15:00:00,1698A,114.6892,23.7233,河源市,老城,,23,13,53,7,22,160,73,64,64,4,26,2,4,0.5,0.6
2022-04-11T15:00:00,1699A,111.9797,21.8593,阳江市,鸳鸯湖(对照点),,16,11,27,9,18,120,50,88,64,2,6,6,6,0.3,0.4
2022-04-11T15:00:00,1701A,111.9491,21.8658,阳江市,马南垌,,26,26,31,9,18,112,54,55,54,2,11,4,5,0.5,0.5
2022-04-11T15:00:00,1702A,113.0426,23.691,清远市,环保大楼(对照点),,50,28,72,25,48,263,158,117,117,10,28,9,10,0.5,0.7
2022-04-11T15:00:00,1703A,113.0208,23.7106,清远市,凤城街办,臭氧1小时,54,44,76,24,40,223,163,123,113,12,33,10,11,0.6,0.8
2022-04-11T15:00:00,1705A,116.6367,23.6719,潮州市,西园路(对照点),颗粒物(PM10),54,57,58,30,36,157,156,99,99,12,17,15,18,0.7,0.7
2022-04-11T15:00:00,1706A,116.6447,23.6706,潮州市,档案局,细颗粒物(PM2.5),55,47,59,39,39,149,148,94,94,16,19,12,15,0.6,0.7
2022-04-11T15:00:00,1708A,116.3701,23.5345,揭阳市,新兴,,46,42,81,29,51,161,147,103,103,12,26,11,14,0.9,1
2022-04-11T15:00:00,1709A,116.3264,23.5443,揭阳市,西马,颗粒物(PM10),53,55,76,30,41,167,145,110,110,7,19,8,9,0.7,0.9
2022-04-11T15:00:00,1710A,116.3611,23.5626,揭阳市,东兴,,41,38,84,22,40,153,129,102,102,7,25,7,15,0.8,0.9
2022-04-11T15:00:00,1711A,116.4151,23.5294,揭阳市,渔湖,,41,17,68,28,38,144,129,86,86,7,23,10,14,0.6,0.8
2022-04-11T15:00:00,1712A,112.0392,22.9169,云浮市,新市府(对照点),,30,21,32,17,19,159,95,79,66,3,7,6,6,0.4,0.4
2022-04-11T15:00:00,1714A,112.0539,22.9539,云浮市,牧羊,,35,27,55,15,27,168,109,70,70,7,26,7,12,0.4,0.5
2022-04-11T15:00:00,1715A,102.575,24.3711,玉溪市,东风水库,,49,46,47,34,32,149,146,93,93,10,15,7,8,0.7,1
2022-04-11T15:00:00,1718A,115.4208,35.2464,菏泽市,气象局,细颗粒物(PM2.5),80,99,91,59,42,167,161,138,138,7,13,8,11,0.4,0.5
2022-04-11T15:00:00,1719A,115.4747,35.2375,菏泽市,市政协,颗粒物(PM10),93,135,93,36,39,161,160,139,139,12,12,13,13,0.3,0.3
2022-04-11T15:00:00,1721A,113.3819,40.1097,大同市,果树场(对照点),颗粒物(PM10),173,295,223,51,62,113,94,86,86,4,20,6,13,0.3,0.4
2022-04-11T15:00:00,1723A,113.2994,40.0758,大同市,云冈宾馆,颗粒物(PM10),131,211,262,61,67,111,90,80,80,8,24,4,14,0.4,0.5
2022-04-11T15:00:00,1724A,113.3444,40.0917,大同市,大同大学,颗粒物(PM10),158,265,275,35,49,111,92,84,84,8,26,9,17,0.0,0.2
2022-04-11T15:00:00,1725A,113.2661,40.1269,大同市,安家小村,颗粒物(PM10),137,223,292,61,50,118,99,88,88,2,16,10,17,0.2,0.8
2022-04-11T15:00:00,1726A,113.2711,40.0844,大同市,教育学院,颗粒物(PM10),158,265,219,61,50,102,77,73,73,17,25,5,17,0.2,0.4
2022-04-11T15:00:00,1727A,113.1147,36.1547,长治市,清华站,,49,49,79,17,30,154,137,148,108,5,22,9,9,0.1,0.4
2022-04-11T15:00:00,1728A,113.1031,36.1989,长治市,监测站,,45,45,74,14,30,155,142,140,113,4,16,9,10,0.8,0.8
2022-04-11T15:00:00,1730A,113.0886,36.2125,长治市,审计局,颗粒物(PM10),51,51,79,19,30,148,137,146,101,7,23,8,10,0.6,0.8
2022-04-11T15:00:00,1731A,113.0844,36.1856,长治市,长治八中,,50,50,96,17,35,146,140,145,103,6,23,9,12,0.4,0.6
2022-04-11T15:00:00,1733A,111.5531,36.0783,临汾市,临钢医院,颗粒物(PM10),134,217,99,69,47,167,108,107,107,11,40,6,12,0.4,0.9
2022-04-11T15:00:00,1734A,111.5028,36.0714,临汾市,技工学校,颗粒物(PM10),150,249,101,36,40,192,107,98,98,15,43,10,20,0.1,0.6
2022-04-11T15:00:00,1736A,111.5018,36.0855,临汾市,市委,颗粒物(PM10),138,226,98,52,40,174,93,86,86,14,44,6,16,0.8,1.2
2022-04-11T15:00:00,1738A,113.5758,37.8572,阳泉市,市中心,颗粒物(PM10),90,129,169,41,80,194,106,98,98,18,43,9,20,0.5,1.1
2022-04-11T15:00:00,1739A,113.4894,37.8731,阳泉市,赛鱼,颗粒物(PM10),80,110,108,24,49,181,104,101,101,16,40,13,17,0.5,0.7
2022-04-11T15:00:00,1740A,113.5819,37.8486,阳泉市,南庄,颗粒物(PM10),82,113,152,31,64,205,107,95,95,21,35,9,19,0.6,1
2022-04-11T15:00:00,1742A,113.5614,37.8703,阳泉市,平坦,颗粒物(PM10),93,136,160,38,66,202,106,100,100,16,42,8,18,0.6,1.2
2022-04-11T15:00:00,1743A,113.5158,37.8392,阳泉市,大阳泉,颗粒物(PM10),78,105,103,36,49,203,110,120,112,16,19,2,7,0.2,0.5
2022-04-11T15:00:00,1744A,118.9233,42.2816,赤峰市,松山一中,颗粒物(PM10),60,70,84,26,24,130,85,77,77,17,28,11,13,0.5,0.6
2022-04-11T15:00:00,1745A,118.9576,42.2728,赤峰市,哈达街,颗粒物(PM10),65,80,89,35,24,134,82,73,73,15,29,18,20,0.5,0.6
2022-04-11T15:00:00,1746A,118.8788,42.2554,赤峰市,天义路,颗粒物(PM10),59,67,67,18,17,146,89,77,77,13,26,9,12,0.7,0.7
2022-04-11T15:00:00,1748A,123.044,41.1196,鞍山市,深沟寺,,33,33,45,16,18,161,105,121,110,10,8,7,6,0.5,0.5
2022-04-11T15:00:00,1749A,123.011,41.0931,鞍山市,太阳城,,40,40,47,21,20,153,104,130,117,13,11,8,7,0.6,0.5
2022-04-11T15:00:00,1750A,123.0485,41.1442,鞍山市,太平,,46,40,42,32,23,138,95,114,97,14,12,9,8,0.5,0.5
2022-04-11T15:00:00,1751A,122.9642,41.0971,鞍山市,铁西三道街,,,61,51,28,20,150,102,130,110,,13,,7,1.2,0.7
2022-04-11T15:00:00,1752A,122.9341,41.0833,鞍山市,铁西工业园区,,48,48,48,25,21,165,125,127,125,12,10,11,8,0.8,0.6
2022-04-11T15:00:00,1753A,123.022,41.0821,鞍山市,明达新区,,33,33,40,20,20,148,97,126,112,9,7,9,6,0.6,0.6
2022-04-11T15:00:00,1754A,123.1289,41.0228,鞍山市,千山(对照点),,30,22,28,16,20,141,95,105,95,8,8,9,8,0.7,0.7
2022-04-11T15:00:00,1755A,123.7977,41.8491,抚顺市,望花区,细颗粒物(PM2.5),60,63,59,43,26,139,104,106,104,18,12,14,12,0.6,0.5
2022-04-11T15:00:00,1756A,123.9161,41.8822,抚顺市,顺城区,细颗粒物(PM2.5),62,67,54,44,25,135,88,99,97,32,16,26,10,0.6,0.6
2022-04-11T15:00:00,1757A,124.0436,41.8611,抚顺市,东洲区,颗粒物(PM10),64,77,52,33,22,154,110,114,113,21,10,10,8,0.7,0.5
2022-04-11T15:00:00,1758A,123.9247,41.8642,抚顺市,新抚区,颗粒物(PM10),56,62,57,35,27,156,108,114,113,22,9,15,14,0.9,1
2022-04-11T15:00:00,1759A,124.0972,41.8961,抚顺市,大伙房水库,颗粒物(PM10),63,75,46,33,21,186,113,140,131,18,6,10,6,0.6,0.4
2022-04-11T15:00:00,1760A,123.7086,41.8391,抚顺市,沈抚新城,,,61,56,,,152,111,116,112,16,7,15,9,1.3,1.1
2022-04-11T15:00:00,1761A,123.8275,41.3064,本溪市,大峪,,42,42,44,21,13,158,111,122,114,10,7,15,13,0.7,0.6
2022-04-11T15:00:00,1762A,123.7567,41.3325,本溪市,溪湖,,45,45,51,21,20,150,101,102,99,13,21,15,17,0.6,0.9
2022-04-11T15:00:00,1763A,123.7169,41.3094,本溪市,彩屯,颗粒物(PM10),64,78,86,36,37,131,67,71,71,34,41,42,42,2.3,2.2
2022-04-11T15:00:00,1764A,123.7669,41.2864,本溪市,东明,,36,36,44,13,16,153,100,123,104,10,7,7,6,0.7,0.6
2022-04-11T15:00:00,1765A,123.7992,41.2664,本溪市,新立屯,,44,44,43,17,16,155,106,121,109,6,4,11,10,0.6,0.5
2022-04-11T15:00:00,1766A,123.8142,41.3472,本溪市,威宁,,45,45,68,12,18,135,93,108,100,12,8,13,13,0.8,0.7
2022-04-11T15:00:00,1767A,121.1115,41.0879,锦州市,南山,细颗粒物(PM2.5),78,69,78,57,47,178,96,93,89,20,16,8,10,0.8,0.7
2022-04-11T15:00:00,1768A,121.0533,40.8434,锦州市,开发区,细颗粒物(PM2.5),74,71,85,54,37,179,108,95,90,21,21,14,9,0.7,0.6
2022-04-11T15:00:00,1769A,121.1836,41.1119,锦州市,百股街道,细颗粒物(PM2.5),65,60,60,47,40,194,105,101,96,18,15,8,7,0.8,0.7
2022-04-11T15:00:00,1770A,121.1178,41.1222,锦州市,天安街道,细颗粒物(PM2.5),80,80,82,59,46,206,106,112,101,26,18,10,13,1.0,0.9
2022-04-11T15:00:00,1771A,121.1303,41.1386,锦州市,北湖公园,细颗粒物(PM2.5),70,79,74,51,42,191,98,100,92,22,18,10,12,0.6,0.6
2022-04-11T15:00:00,1772A,126.54,43.8622,吉林市,哈达湾,细颗粒物(PM2.5),84,80,150,62,96,179,62,96,66,20,20,5,9,0.9,1
2022-04-11T15:00:00,1773A,126.5844,43.8358,吉林市,东局子,细颗粒物(PM2.5),78,80,141,57,83,172,52,91,62,19,18,6,10,0.9,0.9
2022-04-11T15:00:00,1774A,126.5052,43.8245,吉林市,电力学院,细颗粒物(PM2.5),123,129,192,93,117,194,48,84,62,25,26,14,20,1.1,1.1
2022-04-11T15:00:00,1775A,126.6133,43.8972,吉林市,江北,细颗粒物(PM2.5),113,,170,85,97,161,40,79,53,,18,12,17,1.0,1
2022-04-11T15:00:00,1776A,126.555,43.8306,吉林市,江南公园,细颗粒物(PM2.5),62,54,141,44,92,162,52,86,64,22,19,7,12,0.8,1
2022-04-11T15:00:00,1779A,123.9305,47.3636,齐齐哈尔市,安居小区,,,33,42,25,19,99,89,83,83,,10,1,1,0.6,0.5
2022-04-11T15:00:00,1780A,123.9488,47.3386,齐齐哈尔市,中心广场,,28,21,33,19,13,95,86,77,77,5,4,4,5,0.3,0.3
2022-04-11T15:00:00,1781A,123.9483,47.3227,齐齐哈尔市,农牧车辆厂,,36,36,58,10,15,93,90,78,78,7,12,5,34,0.3,0.3
2022-04-11T15:00:00,1783A,123.945,47.2988,齐齐哈尔市,市环境监测站,,36,36,50,25,28,79,71,63,63,9,11,4,8,0.6,0.6
2022-04-11T15:00:00,1784A,129.61,44.561,牡丹江市,环保大楼,,39,39,79,25,46,146,93,102,83,10,13,2,5,0.4,0.6
2022-04-11T15:00:00,1785A,129.6115,44.5782,牡丹江市,文化广场,,40,36,78,28,45,145,95,100,86,9,12,5,9,0.4,0.5
2022-04-11T15:00:00,1786A,129.5904,44.5963,牡丹江市,第一医院,细颗粒物(PM2.5),54,43,86,38,61,142,77,86,74,15,17,5,9,0.7,0.8
2022-04-11T15:00:00,1787A,129.6364,44.6075,牡丹江市,机车工厂,,38,38,74,24,40,142,86,90,77,11,16,7,15,0.3,0.5
2022-04-11T15:00:00,1788A,129.6386,44.5462,牡丹江市,第一中学,,40,40,73,20,40,151,68,109,78,17,15,6,10,0.5,0.6
2022-04-11T15:00:00,1789A,124.81117,46.03138,大庆市,大同区,,33,33,67,20,45,98,75,76,66,6,10,3,4,0.6,0.7
2022-04-11T15:00:00,1790A,125.129,46.533,大庆市,龙凤区,,23,19,59,5,20,94,71,70,65,9,15,6,13,0.3,0.4
2022-04-11T15:00:00,1791A,124.902,46.408,大庆市,红岗区,,24,9,59,7,20,94,76,66,66,4,8,5,5,0.9,0.9
2022-04-11T15:00:00,1792A,125.153,46.586,大庆市,萨尔图区,,,31,48,,45,110,79,75,69,8,13,5,6,0.3,0.4
2022-04-11T15:00:00,1793A,124.9042,46.6215,大庆市,让胡路区,,26,15,57,5,21,110,82,74,73,6,12,5,6,0.8,0.8
2022-04-11T15:00:00,1794A,118.3606,31.3519,芜湖市,监测站,臭氧1小时,89,77,87,17,17,191,191,141,141,20,51,12,14,0.8,0.8
2022-04-11T15:00:00,1795A,118.3714,31.4134,芜湖市,科创中心,臭氧1小时,72,63,77,31,41,177,177,131,131,15,52,11,11,0.8,0.8
2022-04-11T15:00:00,1796A,118.3673,31.3131,芜湖市,四水厂,臭氧1小时,82,74,90,23,18,185,185,138,138,28,49,18,12,0.8,0.8
2022-04-11T15:00:00,1798A,118.5092,31.6837,马鞍山市,湖东路四小,臭氧1小时,100,64,77,35,44,203,200,136,136,7,28,14,14,0.7,1
2022-04-11T15:00:00,1799A,118.5024,31.6449,马鞍山市,开发区,臭氧1小时,87,86,98,52,43,194,189,135,135,34,50,16,14,0.7,1
2022-04-11T15:00:00,1800A,118.5228,31.7231,马鞍山市,慈湖,臭氧1小时,78,74,82,40,40,183,182,131,131,7,30,13,14,0.7,0.9
2022-04-11T15:00:00,1803A,115.9872,29.6815,九江市,十里,臭氧1小时,83,59,79,29,41,186,186,135,135,14,45,11,11,0.6,0.7
2022-04-11T15:00:00,1804A,115.9584,29.7046,九江市,茅山头,,,52,85,29,46,177,177,130,130,21,54,8,8,,0.7
2022-04-11T15:00:00,1805A,115.9877,29.7295,九江市,西园,,,,79,43,43,177,168,117,117,16,60,17,15,0.9,0.6
2022-04-11T15:00:00,1806A,116.0172,29.6547,九江市,五七二七厂,颗粒物(PM10),57,64,62,36,31,163,159,121,121,4,10,11,9,0.6,0.5
2022-04-11T15:00:00,1808A,115.9114,29.6038,九江市,综合工业园,臭氧1小时,84,60,80,39,41,187,187,148,148,9,24,16,18,0.6,0.5
2022-04-11T15:00:00,1809A,116.0721,29.7535,九江市,石化总厂,,,59,74,10,39,188,188,141,141,13,24,,23,0.4,0.4
2022-04-11T15:00:00,1810A,115.9773,29.5698,九江市,庐山气象台(对照点),颗粒物(PM10),51,51,47,21,25,191,154,164,157,6,7,6,8,0.4,0.3
2022-04-11T15:00:00,1812A,112.3931,34.6516,洛阳市,市委党校,臭氧1小时,59,49,81,26,35,192,167,130,130,6,17,7,10,0.6,0.7
2022-04-11T15:00:00,1814A,112.4657,34.6871,洛阳市,豫西宾馆,,,73,99,26,46,188,182,128,128,7,32,10,13,,1
2022-04-11T15:00:00,1815A,112.494,34.6886,洛阳市,河南林校,臭氧1小时,67,53,96,26,37,185,173,128,128,7,31,10,10,0.3,0.5
2022-04-11T15:00:00,1816A,112.3844,34.623,洛阳市,开发区管委会,臭氧1小时,57,45,77,26,39,184,165,120,120,11,19,6,10,0.3,0.4
2022-04-11T15:00:00,1817A,112.4267,34.6258,洛阳市,市委新办公区,臭氧1小时,63,53,84,27,36,188,170,130,130,5,15,8,10,0.4,0.6
2022-04-11T15:00:00,1818A,114.4839,36.0621,安阳市,棉研所(对照点),,,120,98,42,38,156,152,106,106,,16,6,9,0.7,0.7
2022-04-11T15:00:00,1819A,114.3551,36.1017,安阳市,红庙街,,,,106,44,42,182,182,116,116,16,24,13,13,0.6,0.6
2022-04-11T15:00:00,1820A,114.361,36.0681,安阳市,银杏小区,,,127,103,,,187,187,120,120,12,23,10,11,0.5,0.7
2022-04-11T15:00:00,1824A,114.3389,34.7781,开封市,肿瘤医院,颗粒物(PM10),78,105,90,39,38,167,155,130,130,7,13,8,8,0.5,0.5
2022-04-11T15:00:00,1826A,114.2885,34.7965,开封市,世纪星幼儿园,颗粒物(PM10),74,98,88,38,39,166,155,131,131,7,13,8,9,0.8,0.8
2022-04-11T15:00:00,1828A,113.2269,35.2127,焦作市,市环保局,"细颗粒物(PM2.5),臭氧1小时",70,49,89,51,46,184,176,126,126,14,29,6,12,0.4,0.7
2022-04-11T15:00:00,1829A,113.2467,35.176,焦作市,高新区政府,,,78,95,34,49,174,174,112,112,9,35,15,21,,0.5
2022-04-11T15:00:00,1830A,113.1987,35.2703,焦作市,影视城(对照点),臭氧1小时,55,46,60,13,25,172,164,142,142,2,5,11,13,0.5,0.6
2022-04-11T15:00:00,1832A,113.3257,33.742,平顶山市,新华旅馆,颗粒物(PM10),62,73,82,40,47,170,167,152,152,6,10,4,4,0.4,0.5
2022-04-11T15:00:00,1833A,113.2919,33.737,平顶山市,规划设计院,颗粒物(PM10),63,75,72,36,36,159,153,145,143,3,7,5,5,0.4,0.4
2022-04-11T15:00:00,1834A,113.182,33.774,平顶山市,平顶山工学院,颗粒物(PM10),62,73,69,30,30,159,152,147,146,6,7,6,10,0.6,0.6
2022-04-11T15:00:00,1835A,111.1922,34.7752,三门峡市,市政府,颗粒物(PM10),78,106,89,45,40,163,163,120,120,9,31,12,12,0.5,0.6
2022-04-11T15:00:00,1836A,111.1587,34.7942,三门峡市,开发区,颗粒物(PM10),128,206,104,50,40,154,146,114,114,12,19,12,16,0.3,0.4
2022-04-11T15:00:00,1838A,111.143,34.7955,三门峡市,风景区(对照点),颗粒物(PM10),149,248,102,49,37,153,150,109,109,6,16,12,17,0.5,0.6
2022-04-11T15:00:00,1840A,111.2992,30.6981,宜昌市,白龙岗,臭氧1小时,65,51,63,29,34,174,172,96,96,20,33,9,7,0.3,0.3
2022-04-11T15:00:00,1841A,111.3549,30.6465,宜昌市,伍家岗,,,57,66,29,39,174,174,96,96,,44,8,6,0.5,0.6
2022-04-11T15:00:00,1842A,111.2628,30.6961,宜昌市,点军区,臭氧1小时,90,62,73,31,38,192,192,108,108,16,32,12,9,0.6,0.6
2022-04-11T15:00:00,1843A,111.3275,30.7819,宜昌市,夷陵区,臭氧1小时,68,60,66,24,33,176,174,101,101,16,23,5,4,0.3,0.3
2022-04-11T15:00:00,1844A,112.2494,30.3197,荆州市,市图书馆,"颗粒物(PM10),细颗粒物(PM2.5)",59,67,83,42,45,169,163,129,129,12,22,11,13,0.6,0.7
2022-04-11T15:00:00,1845A,112.2008,30.3544,荆州市,市委党校,细颗粒物(PM2.5),70,59,74,51,44,165,165,127,127,11,19,10,12,0.7,0.7
2022-04-11T15:00:00,1847A,113.1094,29.3578,岳阳市,南湖风景区,,,60,72,,45,186,178,149,149,12,24,12,16,0.6,0.7
2022-04-11T15:00:00,1848A,113.1493,29.4251,岳阳市,城陵矶,"颗粒物(PM10),细颗粒物(PM2.5)",55,60,74,39,42,182,151,142,142,16,16,15,22,0.7,0.7
2022-04-11T15:00:00,1849A,113.1497,29.3575,岳阳市,开发区,臭氧1小时,89,71,98,37,45,208,191,158,158,6,17,10,17,0.6,0.6
2022-04-11T15:00:00,1850A,113.2621,29.4758,岳阳市,云溪区,臭氧1小时,60,62,64,38,44,194,168,153,153,8,10,10,13,0.5,0.5
2022-04-11T15:00:00,1851A,112.9943,29.4402,岳阳市,君山区,"细颗粒物(PM2.5),臭氧1小时",67,76,73,48,51,182,173,142,142,8,16,12,14,0.7,0.7
2022-04-11T15:00:00,1852A,113.2117,29.355,岳阳市,金凤水库(对照点),臭氧1小时,59,53,72,32,43,187,167,137,137,7,18,6,10,0.4,0.5
2022-04-11T15:00:00,1854A,111.6975,28.9703,常德市,市二中,,50,50,64,34,46,157,146,121,121,4,10,6,10,0.9,1
2022-04-11T15:00:00,1857A,111.7158,29.1456,常德市,白鹤山(对照点),细颗粒物(PM2.5),57,32,69,40,40,161,161,144,144,6,9,6,7,0.6,0.8
2022-04-11T15:00:00,1858A,110.5319,29.1217,张家界市,永定新区,细颗粒物(PM2.5),55,57,69,39,45,166,163,118,118,4,13,3,3,0.4,0.4
2022-04-11T15:00:00,1859A,110.4697,29.1242,张家界市,电业局,,46,39,51,32,44,144,143,96,96,15,21,7,7,0.3,0.3
2022-04-11T15:00:00,1860A,110.5594,29.3547,张家界市,未央路,颗粒物(PM10),53,55,49,27,26,137,132,112,112,4,6,3,3,0.3,0.4
2022-04-11T15:00:00,1861A,110.4417,29.315,张家界市,袁家界(对照点),,48,40,44,27,32,158,152,151,151,2,2,5,5,0.2,0.2
2022-04-11T15:00:00,1862A,110.4144,25.3167,桂林市,电子科大尧山校区(对照点),颗粒物(PM10),54,58,69,34,48,167,159,121,121,5,7,10,25,0.5,0.6
2022-04-11T15:00:00,1863A,110.2819,25.2697,桂林市,监测站,颗粒物(PM10),63,76,82,40,50,162,161,119,119,8,15,12,15,0.4,0.7
2022-04-11T15:00:00,1864A,110.3089,25.2708,桂林市,龙隐路小学,颗粒物(PM10),58,66,71,25,48,163,161,119,119,7,16,10,17,0.6,0.7
2022-04-11T15:00:00,1865A,110.2869,25.2178,桂林市,八中,颗粒物(PM10),64,78,71,40,51,161,156,114,114,10,17,10,13,0.6,0.8
2022-04-11T15:00:00,1866A,109.2262,21.588,北海市,牛尾岭水库(对照点),,29,29,32,14,21,111,74,65,65,5,12,5,7,0.4,0.5
2022-04-11T15:00:00,1867A,109.1436,21.4086,北海市,海滩公园,,23,22,31,10,12,109,73,71,70,11,8,5,5,0.4,0.4
2022-04-11T15:00:00,1868A,109.0981,21.4661,北海市,新市环保局,,23,23,30,12,18,124,69,70,68,4,6,5,4,0.4,0.4
2022-04-11T15:00:00,1869A,109.1778,21.5233,北海市,北海工业园,,29,29,42,12,20,125,78,70,70,4,11,5,7,0.5,0.6
2022-04-11T15:00:00,1870A,109.4856,24.3895,柳州市,柳东小学,细颗粒物(PM2.5),58,55,84,41,68,200,165,112,112,7,22,8,20,0.8,0.9
2022-04-11T15:00:00,1871A,109.4157,24.3277,柳州市,环保监测站,颗粒物(PM10),59,68,82,21,51,197,156,108,108,10,37,8,10,0.5,0.8
2022-04-11T15:00:00,1872A,109.389,24.341,柳州市,河西水厂,颗粒物(PM10),53,56,99,30,55,194,157,104,104,11,42,10,21,0.7,1.1
2022-04-11T15:00:00,1873A,109.4311,24.2921,柳州市,市四中,颗粒物(PM10),56,61,93,29,49,191,155,105,105,7,42,9,9,0.6,0.9
2022-04-11T15:00:00,1874A,109.4006,24.3631,柳州市,市九中,颗粒物(PM10),59,67,121,24,51,181,149,101,101,10,35,8,13,0.4,0.6
2022-04-11T15:00:00,1875A,109.4958,24.3134,柳州市,古亭山,颗粒物(PM10),54,58,66,36,42,181,152,100,100,9,33,6,8,0.5,0.6
2022-04-11T15:00:00,1876A,109.5078,18.2489,三亚市,河东子站,,19,14,20,10,11,82,59,66,66,2,2,3,3,0.4,0.5
2022-04-11T15:00:00,1877A,109.4964,18.2681,三亚市,河西子站,,17,7,19,9,11,80,54,63,63,1,2,6,6,0.4,0.4
2022-04-11T15:00:00,1878A,104.7778,31.4741,绵阳市,富乐山,臭氧1小时,53,54,67,35,44,192,162,118,118,6,24,9,6,0.5,0.6
2022-04-11T15:00:00,1879A,104.7563,31.4535,绵阳市,市人大,颗粒物(PM10),52,54,88,32,58,175,153,91,91,15,56,8,7,0.4,0.7
2022-04-11T15:00:00,1880A,104.6697,31.4668,绵阳市,高新区自来水公司,臭氧1小时,60,58,103,42,61,182,168,109,109,7,52,7,8,0.6,0.9
2022-04-11T15:00:00,1881A,104.7287,31.5075,绵阳市,三水厂,颗粒物(PM10),56,61,107,36,66,188,158,90,90,11,53,6,5,0.8,1.1
2022-04-11T15:00:00,1882A,104.563,28.793,宜宾市,石马中学(对照点),臭氧1小时,109,66,77,46,51,217,217,119,119,16,31,10,10,0.6,0.7
2022-04-11T15:00:00,1883A,104.6201,28.7728,宜宾市,市委,臭氧1小时,107,65,78,44,48,214,214,119,119,16,41,12,12,0.7,0.8
2022-04-11T15:00:00,1884A,104.6055,28.793,宜宾市,宜宾四中,臭氧1小时,107,72,89,46,55,214,214,125,125,22,45,10,14,0.6,0.7
2022-04-11T15:00:00,1885A,104.639,28.7562,宜宾市,市政府,臭氧1小时,102,88,93,43,52,204,204,110,110,16,53,15,13,0.5,0.7
2022-04-11T15:00:00,1886A,104.5742,28.7199,宜宾市,黄金嘴,臭氧1小时,97,64,71,42,45,197,197,119,119,11,32,13,15,0.6,0.6
2022-04-11T15:00:00,1888A,101.6891,26.571,攀枝花市,弄弄坪,颗粒物(PM10),54,57,80,28,43,170,128,86,86,4,31,11,17,0.8,1.8
2022-04-11T15:00:00,1889A,101.5769,26.5928,攀枝花市,河门口,,49,47,57,34,34,150,139,82,82,11,29,15,23,1.0,1.7
2022-04-11T15:00:00,1890A,101.7169,26.585,攀枝花市,炳草岗,,40,40,65,22,41,171,125,82,82,12,52,4,26,0.6,1.5
2022-04-11T15:00:00,1891A,101.7369,26.5008,攀枝花市,仁和,,43,43,45,29,32,153,124,94,94,10,18,6,7,0.6,0.7
2022-04-11T15:00:00,1893A,105.4324,28.9634,泸州市,九狮山(对照点),臭氧1小时,99,68,87,43,44,199,199,110,110,16,23,18,12,0.5,0.5
2022-04-11T15:00:00,1894A,105.4427,28.9063,泸州市,小市上码头,臭氧1小时,83,70,96,31,43,187,186,110,110,15,38,16,20,0.6,0.7
2022-04-11T15:00:00,1895A,105.4241,28.8573,泸州市,兰田宪桥,臭氧1小时,75,62,93,30,42,190,180,105,105,14,34,15,16,0.7,0.7
2022-04-11T15:00:00,1896A,105.4379,28.8833,泸州市,市环监站,臭氧1小时,83,63,90,22,40,186,186,114,114,18,39,14,17,0.6,0.6
2022-04-11T15:00:00,1901A,104.4239,31.1208,德阳市,东山公园,臭氧1小时,70,70,76,37,46,180,176,116,116,12,26,8,9,0.5,0.6
2022-04-11T15:00:00,1902A,104.3826,31.1317,德阳市,西小区,臭氧1小时,67,67,98,35,52,186,173,104,104,10,54,10,10,0.5,0.8
2022-04-11T15:00:00,1904A,104.3553,31.1091,德阳市,耐火材料厂,臭氧1小时,70,82,106,37,61,197,176,111,111,13,45,11,14,0.5,0.7
2022-04-11T15:00:00,1905A,106.056,30.8064,南充市,西山风景区(对照点),细颗粒物(PM2.5),62,51,70,44,46,166,159,137,110,11,12,1,8,0.8,0.7
2022-04-11T15:00:00,1906A,106.0789,30.8023,南充市,南充市委,颗粒物(PM10),54,58,79,36,48,155,142,95,95,6,19,2,3,0.5,0.6
2022-04-11T15:00:00,1907A,106.1031,30.8217,南充市,南充炼油厂,颗粒物(PM10),65,79,88,43,50,185,170,109,109,17,30,1,4,0.5,0.7
2022-04-11T15:00:00,1908A,106.1064,30.7856,南充市,高坪区监测站,细颗粒物(PM2.5),69,77,85,50,55,161,153,93,93,9,29,1,3,0.5,0.8
2022-04-11T15:00:00,1909A,106.0642,30.7636,南充市,嘉陵区环保局,臭氧1小时,53,45,70,26,53,166,162,115,115,3,35,8,10,0.6,0.8
2022-04-11T15:00:00,1910A,106.1087,30.8388,南充市,市环境监测站,细颗粒物(PM2.5),64,69,76,46,48,141,137,91,91,8,18,2,3,0.4,0.5
2022-04-11T15:00:00,1911A,106.9222,27.6869,遵义市,丁字口,颗粒物(PM10),52,53,50,34,36,159,159,93,93,12,29,9,11,0.6,0.8
2022-04-11T15:00:00,1912A,106.9242,27.7019,遵义市,凤凰山,臭氧1小时,55,47,42,32,30,164,164,110,110,9,13,8,9,0.4,0.5
2022-04-11T15:00:00,1913A,106.8906,27.6486,遵义市,忠庄,臭氧1小时,54,47,54,29,34,163,163,100,100,12,20,5,4,0.4,0.4
2022-04-11T15:00:00,1914A,106.9231,27.6506,遵义市,舟水桥,,48,35,38,23,25,151,151,88,88,10,17,6,4,0.4,0.4
2022-04-11T15:00:00,1915A,106.9178,27.72,遵义市,干田坝,细颗粒物(PM2.5),54,40,50,38,28,160,160,95,95,8,26,8,7,0.7,0.8
2022-04-11T15:00:00,1916A,103.7897,25.5035,曲靖市,环境监测站,颗粒物(PM10),56,62,66,28,35,147,147,99,99,9,22,6,10,0.5,0.8
2022-04-11T15:00:00,1917A,103.8,25.5364,曲靖市,烟厂办公区,臭氧1小时,54,39,58,25,33,163,163,110,110,5,19,5,10,0.5,0.8
2022-04-11T15:00:00,1918A,108.7197,34.3956,咸阳市,气象站(对照点),颗粒物(PM10),327,441,140,103,46,178,90,80,80,15,65,,8,0.6,0.8
2022-04-11T15:00:00,1919A,108.673,34.3155,咸阳市,实验中学,颗粒物(PM10),383,486,141,111,87,208,80,68,68,,55,5,5,0.5,0.7
2022-04-11T15:00:00,1920A,108.7233,34.3617,咸阳市,师范学院,颗粒物(PM10),335,448,130,110,52,192,96,82,82,16,50,5,6,0.7,0.8
2022-04-11T15:00:00,1922A,109.0656,35.0994,铜川市,党校(对照点),颗粒物(PM10),102,154,107,43,33,136,110,83,83,6,42,1,6,0.2,0.4
2022-04-11T15:00:00,1923A,109.0697,35.0697,铜川市,王益区政府,颗粒物(PM10),103,155,106,44,39,151,123,91,91,8,33,5,9,0.1,0.3
2022-04-11T15:00:00,1924A,108.9344,34.9058,铜川市,新区管委会,颗粒物(PM10),114,178,76,53,34,166,120,89,89,20,25,8,12,,0.4
2022-04-11T15:00:00,1926A,109.4131,36.6275,延安市,枣园(对照点),颗粒物(PM10),197,343,128,70,34,139,99,73,73,4,33,3,3,,0.2
2022-04-11T15:00:00,1927A,109.4761,36.6028,延安市,延大医附院,颗粒物(PM10),292,414,152,55,32,149,108,82,82,5,34,3,4,0.5,0.6
2022-04-11T15:00:00,1929A,109.5056,36.6106,延安市,百米大道,颗粒物(PM10),233,373,144,63,41,131,97,72,72,3,40,3,4,0.4,0.6
2022-04-11T15:00:00,1930A,107.185,34.3063,宝鸡市,庙沟村(对照点),颗粒物(PM10),358,466,150,119,49,158,70,122,82,7,9,4,5,0.3,0.5
2022-04-11T15:00:00,1931A,107.0708,34.3017,宝鸡市,竹园沟,颗粒物(PM10),375,480,146,112,49,173,60,73,73,9,14,6,7,0.4,0.5
2022-04-11T15:00:00,1932A,107.1906,34.3672,宝鸡市,三陆医院,颗粒物(PM10),413,513,170,150,65,169,48,59,59,30,40,4,13,0.3,0.7
2022-04-11T15:00:00,1933A,107.1431,34.3547,宝鸡市,监测站,颗粒物(PM10),394,495,159,178,61,172,55,69,63,23,26,4,5,0.4,0.6
2022-04-11T15:00:00,1934A,107.1186,34.3739,宝鸡市,技工学校,颗粒物(PM10),402,502,162,146,56,166,53,86,67,22,20,5,6,0.5,0.6
2022-04-11T15:00:00,1935A,107.3906,34.3528,宝鸡市,陈仓区环保局家属楼,颗粒物(PM10),462,562,188,139,62,178,61,61,61,17,35,5,18,0.6,0.9
2022-04-11T15:00:00,1936A,107.2058,34.3497,宝鸡市,文理学院,细颗粒物(PM2.5),204,,,154,62,177,68,83,66,24,31,7,10,1.0,1.2
2022-04-11T15:00:00,1937A,107.2386,34.3622,宝鸡市,三迪小学,颗粒物(PM10),433,533,169,163,65,160,57,66,61,27,37,7,10,0.4,0.5
2022-04-11T15:00:00,1938A,109.5293,34.5101,渭南市,农科所(对照点),颗粒物(PM10),89,127,105,46,42,156,147,95,95,45,42,14,15,0.5,0.5
2022-04-11T15:00:00,1939A,109.4974,34.4877,渭南市,日报社,颗粒物(PM10),84,117,104,41,36,178,178,90,90,15,48,16,18,0.5,0.5
2022-04-11T15:00:00,1940A,109.4636,34.493,渭南市,体育馆,颗粒物(PM10),80,110,104,39,34,182,182,96,96,14,53,13,17,0.4,0.5
2022-04-11T15:00:00,1941A,109.4259,34.5023,渭南市,高新一小,颗粒物(PM10),78,105,121,36,43,175,160,90,90,18,47,10,10,0.5,0.6
2022-04-11T15:00:00,1943A,102.1725,38.5339,金昌市,新川苑,颗粒物(PM10),111,172,113,39,23,97,92,90,90,8,9,7,7,0.3,0.3
2022-04-11T15:00:00,1944A,102.1692,38.5167,金昌市,天庆家园,颗粒物(PM10),109,168,120,40,21,102,95,92,92,9,8,8,6,0.4,0.5
2022-04-11T15:00:00,1945A,98.2908,39.7711,嘉峪关市,气象局,,39,39,58,14,14,102,93,94,92,8,11,4,7,0.3,0.4
2022-04-11T15:00:00,1947A,106.3394,38.817,石嘴山市,沙湖旅游区(对照点),颗粒物(PM10),66,82,398,43,93,163,102,83,83,8,12,31,8,0.5,0.2
2022-04-11T15:00:00,1948A,106.3668,39.0145,石嘴山市,大武口朝阳西街,,,46,353,23,79,131,106,105,105,6,5,,2,0.4,0.4
2022-04-11T15:00:00,1949A,106.7704,39.2282,石嘴山市,惠农南大街,颗粒物(PM10),58,66,633,36,111,105,92,88,88,10,13,14,13,0.4,0.5
2022-04-11T15:00:00,1950A,106.7099,39.1325,石嘴山市,红果子镇惠新街,细颗粒物(PM2.5),189,78,512,142,100,114,94,92,91,1,3,9,15,0.5,0.9
2022-04-11T15:00:00,1951A,84.895,45.6094,克拉玛依市,长征新村,,32,20,45,4,5,102,102,87,87,5,9,8,8,0.2,0.2
2022-04-11T15:00:00,1952A,84.8988,45.5893,克拉玛依市,南林小区,,33,32,61,6,11,107,105,89,89,9,13,6,6,0.3,0.3
2022-04-11T15:00:00,1954A,84.905,44.3396,克拉玛依市,独山子区,颗粒物(PM10),62,73,94,17,18,107,105,63,59,9,19,7,6,0.4,0.5
2022-04-11T15:00:00,1955A,85.6979,46.098,克拉玛依市,乌尔禾区商贸楼,,31,6,24,10,11,98,98,79,64,3,10,8,8,0.5,0.5
2022-04-11T15:00:00,1956A,86.1472,41.7538,巴音郭楞州,孔雀公园,颗粒物(PM10),106,162,232,37,48,94,88,74,74,8,13,3,3,0.3,0.4
2022-04-11T15:00:00,1957A,86.1972,41.7166,巴音郭楞州,棉纺厂,颗粒物(PM10),91,131,232,35,54,92,87,79,72,9,11,2,2,0.3,0.3
2022-04-11T15:00:00,1958A,86.2357,41.7173,巴音郭楞州,经济开发区,颗粒物(PM10),94,138,268,35,49,96,94,84,69,6,8,2,2,0.4,0.4
2022-04-11T15:00:00,1961A,117.532,36.6868,济南市,东山小学,颗粒物(PM10),61,71,77,22,29,147,147,128,128,7,11,10,15,0.3,0.3
2022-04-11T15:00:00,1966A,120.0405,35.8735,青岛市,黄岛区4号,,,75,26,48,17,132,132,110,102,26,15,8,5,,0.3
2022-04-11T15:00:00,1982A,122.0693,37.2174,威海市,文登开发区,,,48,25,27,17,119,118,103,87,12,11,5,4,,
2022-04-11T15:00:00,2031A,113.1817,27.9958,株洲市,云田中学,臭氧1小时,98,68,74,41,46,198,198,150,150,9,17,11,13,0.4,0.4
2022-04-11T15:00:00,2054A,114.1099,32.1059,信阳市,平桥分局,细颗粒物(PM2.5),62,54,58,44,50,172,168,155,155,8,15,11,13,0.6,0.6
2022-04-11T15:00:00,2064A,113.9956,32.1271,信阳市,南湾水厂,臭氧1小时,78,62,75,40,41,187,182,170,170,9,11,12,12,0.5,0.5
2022-04-11T15:00:00,2065A,114.0775,32.1195,信阳市,市酿酒公司,臭氧1小时,57,57,65,36,41,173,165,156,154,7,12,10,11,0.6,0.6
2022-04-11T15:00:00,2066A,114.0609,32.1399,信阳市,审计局,细颗粒物(PM2.5),63,68,73,45,49,167,158,158,148,7,11,10,11,0.5,0.5
2022-04-11T15:00:00,2067A,114.6613,33.6128,周口市,市环境监测站,颗粒物(PM10),71,92,80,41,42,173,173,144,144,7,11,9,10,0.7,0.9
2022-04-11T15:00:00,2068A,114.6758,33.6347,周口市,周口师范,颗粒物(PM10),67,84,80,47,42,157,157,135,135,7,9,9,9,0.7,0.7
2022-04-11T15:00:00,2069A,114.6546,33.5979,周口市,市运管处,细颗粒物(PM2.5),68,84,82,49,44,163,163,134,134,7,11,8,8,0.7,0.6
2022-04-11T15:00:00,2070A,114.6369,33.6406,周口市,川汇区环保局,颗粒物(PM10),66,82,78,44,40,165,165,142,142,3,6,4,4,0.7,0.6
2022-04-11T15:00:00,2075A,117.6336,24.4674,漳州市,九湖(对照点),,42,42,66,23,37,167,119,100,100,4,19,7,11,0.4,0.5
2022-04-11T15:00:00,2160A,112.85,35.5051,晋城市,自来水公司,,49,42,99,14,31,169,154,116,116,12,43,10,14,0.5,1
2022-04-11T15:00:00,2161A,112.8318,35.4936,晋城市,白云商贸,,50,39,90,14,31,174,157,125,125,6,33,4,7,0.5,0.9
2022-04-11T15:00:00,2162A,112.8508,35.4887,晋城市,市环保局,,48,31,95,9,34,169,152,113,113,4,48,9,12,0.5,0.9
2022-04-11T15:00:00,2163A,112.8676,35.4897,晋城市,技术学院,,,,104,102,40,158,145,108,108,5,45,4,7,0.4,0.8
2022-04-11T15:00:00,2165A,112.8453,35.546,晋城市,白马寺 (对照点),,43,40,84,9,25,153,136,148,113,7,18,5,9,0.5,0.8
2022-04-11T15:00:00,2166A,112.4397,39.3522,朔州市,平朔,颗粒物(PM10),339,451,187,90,48,125,89,72,72,9,20,5,6,0.3,0.4
2022-04-11T15:00:00,2167A,112.4575,39.3617,朔州市,朔唯,颗粒物(PM10),362,469,203,78,43,127,91,74,74,8,22,3,4,0.3,0.4
2022-04-11T15:00:00,2168A,112.4258,39.3197,朔州市,区政府,颗粒物(PM10),313,430,160,63,36,126,91,97,75,9,14,6,8,0.6,0.6
2022-04-11T15:00:00,2169A,112.4072,39.3278,朔州市,市环保局,颗粒物(PM10),373,478,187,75,42,110,78,85,75,22,20,5,6,0.8,0.6
2022-04-11T15:00:00,2170A,112.4272,39.3681,朔州市,市二中,颗粒物(PM10),344,455,192,87,47,130,94,76,76,8,21,3,7,0.3,0.3
2022-04-11T15:00:00,2171A,112.7532,37.6945,晋中市,锦纶小区,颗粒物(PM10),93,135,136,42,45,152,102,92,92,13,26,3,8,0.3,0.5
2022-04-11T15:00:00,2173A,112.7249,37.7067,晋中市,南都小区,颗粒物(PM10),100,150,136,59,73,157,101,91,91,14,24,7,14,0.2,0.5
2022-04-11T15:00:00,2174A,112.6991,37.6982,晋中市,榆次区政府,颗粒物(PM10),95,139,133,47,52,161,98,83,83,20,28,8,17,2.3,2.7
2022-04-11T15:00:00,2175A,110.9956,35.0147,运城市,运城中学,颗粒物(PM10),93,136,88,50,34,165,145,124,116,7,18,7,9,0.4,0.5
2022-04-11T15:00:00,2178A,110.9686,35.0303,运城市,地区技校,颗粒物(PM10),83,116,81,37,27,169,147,128,112,12,20,6,8,0.3,0.5
2022-04-11T15:00:00,2179A,111.0414,35.1147,运城市,空港新区,颗粒物(PM10),96,141,91,44,38,168,130,116,116,12,20,12,10,0.5,0.5
2022-04-11T15:00:00,2181A,112.7383,38.4519,忻州市,开发区,颗粒物(PM10),111,171,133,35,39,151,94,80,80,8,27,8,16,0.2,0.4
2022-04-11T15:00:00,2182A,112.7003,38.4928,忻州市,会展中心,颗粒物(PM10),101,152,125,33,33,130,83,74,74,13,39,5,11,0.2,0.3
2022-04-11T15:00:00,2183A,111.1406,37.5211,吕梁市,环保局,颗粒物(PM10),300,420,174,57,38,128,88,55,55,8,55,6,6,0.3,0.5
2022-04-11T15:00:00,2185A,111.1297,37.5136,吕梁市,自来水公司,颗粒物(PM10),342,453,207,49,35,128,86,56,56,14,56,4,6,0.2,0.5
2022-04-11T15:00:00,2187A,106.8174,39.6973,乌海市,市林业局,,42,42,321,22,74,108,104,102,92,2,5,5,6,0.4,0.5
2022-04-11T15:00:00,2188A,106.7907,39.6667,乌海市,中海勃湾学校,,37,37,386,21,78,111,107,106,96,6,7,10,11,0.3,0.3
2022-04-11T15:00:00,2191A,122.2532,43.6801,通辽市,艺术职业学校,,39,39,81,9,34,96,75,89,64,12,20,5,6,0.4,0.6
2022-04-11T15:00:00,2192A,119.7594,49.2261,呼伦贝尔市,区环保局,,29,18,26,8,16,91,91,78,78,6,9,5,5,0.3,0.4
2022-04-11T15:00:00,2195A,107.4212,40.761,巴彦淖尔市,附二中,,48,48,288,9,58,106,98,100,93,3,5,3,4,0.4,0.4
2022-04-11T15:00:00,2196A,107.37,40.7372,巴彦淖尔市,市环保大楼,,32,32,238,10,61,113,101,99,94,4,4,4,4,0.4,0.5
2022-04-11T15:00:00,2197A,113.1306,40.9923,乌兰察布市,集宁新区,,33,33,188,11,46,133,101,99,99,4,9,8,8,0.2,0.3
2022-04-11T15:00:00,2200A,122.0392,46.0656,兴安盟,胜华新制药厂,,25,16,32,11,17,92,78,76,74,7,6,2,2,0.2,0.1
2022-04-11T15:00:00,2201A,121.9504,46.0741,兴安盟,科右前旗环保局,,26,13,32,17,14,92,81,79,77,7,7,2,2,0.2,0.1
2022-04-11T15:00:00,2202A,116.1042,43.9317,锡林郭勒盟,市环保监测站,颗粒物(PM10),58,66,36,9,6,93,85,76,74,3,5,8,9,0.6,0.5
2022-04-11T15:00:00,2203A,116.0781,43.9311,锡林郭勒盟,市政府,,36,36,29,8,6,92,83,74,74,4,5,6,7,0.4,0.4
2022-04-11T15:00:00,2204A,105.6467,38.8363,阿拉善盟,西城区西花园(对照点),颗粒物(PM10),100,149,266,41,66,109,105,101,101,5,5,1,3,0.3,0.2
2022-04-11T15:00:00,2205A,105.6985,38.8411,阿拉善盟,蒙二幼,颗粒物(PM10),102,154,322,31,80,109,104,100,100,5,5,6,6,0.4,0.4
2022-04-11T15:00:00,2206A,105.724,38.8516,阿拉善盟,环保局新楼,,,,245,,82,111,105,104,104,7,5,7,7,0.3,0.3
2022-04-11T15:00:00,2207A,121.6094,41.998,阜新市,工业园区,细颗粒物(PM2.5),88,103,77,65,38,173,90,125,105,33,24,16,15,0.8,0.7
2022-04-11T15:00:00,2208A,121.6697,42.0279,阜新市,长青街,颗粒物(PM10),78,106,74,56,34,158,86,110,98,27,19,16,18,0.7,0.6
2022-04-11T15:00:00,2209A,121.6673,42.0705,阜新市,农业园区,细颗粒物(PM2.5),117,128,86,88,50,165,86,110,99,26,19,12,17,0.6,0.6
2022-04-11T15:00:00,2210A,121.6717,42.0224,阜新市,东苑,细颗粒物(PM2.5),83,114,87,61,37,162,92,113,98,28,25,13,21,0.7,0.7
2022-04-11T15:00:00,2211A,121.6506,42.0498,阜新市,玉龙新城,颗粒物(PM10),80,109,70,52,30,157,82,109,96,22,15,17,16,0.6,0.5
2022-04-11T15:00:00,2212A,123.2,41.1953,辽阳市,宏伟区,,37,27,34,16,16,162,117,128,112,8,8,13,9,0.5,0.4
2022-04-11T15:00:00,2213A,123.1683,41.2495,辽阳市,新华园,,33,30,40,19,16,146,105,119,104,12,11,6,5,0.2,0.2
2022-04-11T15:00:00,2214A,123.2354,41.2639,辽阳市,滨河路,,40,35,44,28,22,151,102,119,103,10,9,11,8,0.4,0.4
2022-04-11T15:00:00,2215A,123.149,41.2991,辽阳市,铁西工业园,,44,44,46,21,19,154,105,124,106,19,11,11,10,0.3,0.3
2022-04-11T15:00:00,2216A,123.8139,42.3022,铁岭市,汇工街西,细颗粒物(PM2.5),90,101,64,67,26,174,129,121,121,14,12,16,15,0.8,0.6
2022-04-11T15:00:00,2217A,123.8649,42.2923,铁岭市,水上乐园,细颗粒物(PM2.5),107,86,70,80,27,175,127,123,123,17,15,11,10,0.5,0.4
2022-04-11T15:00:00,2218A,123.8486,42.2867,铁岭市,银州路东段,细颗粒物(PM2.5),83,100,68,61,32,169,121,119,119,20,17,10,9,0.7,0.6
2022-04-11T15:00:00,2220A,120.4318,41.5881,朝阳市,西梁,颗粒物(PM10),74,97,103,52,52,162,95,126,94,18,21,15,18,0.9,1
2022-04-11T15:00:00,2221A,120.4521,41.5646,朝阳市,河畔小区,颗粒物(PM10),79,107,105,56,50,164,97,134,93,16,20,13,15,0.7,0.8
2022-04-11T15:00:00,2222A,120.4176,41.5648,朝阳市,八里堡,颗粒物(PM10),73,96,92,51,43,176,95,160,95,19,19,13,15,0.9,1
2022-04-11T15:00:00,2223A,120.3806,41.5969,朝阳市,农业园区,细颗粒物(PM2.5),75,93,100,55,49,161,92,126,93,25,24,18,17,0.7,0.8
2022-04-11T15:00:00,2225A,124.4002,43.1713,四平市,一商场,颗粒物(PM10),52,53,103,33,68,163,111,103,84,7,18,11,14,0.5,0.6
2022-04-11T15:00:00,2226A,124.388,43.193,四平市,境园,颗粒物(PM10),57,63,109,29,67,170,120,112,76,4,16,9,12,0.4,0.6
2022-04-11T15:00:00,2227A,125.1358,42.8845,辽源市,环保局,细颗粒物(PM2.5),80,70,64,59,48,173,81,110,95,12,13,10,18,0.9,0.8
2022-04-11T15:00:00,2229A,125.9358,41.7173,通化市,光明,,43,39,41,11,15,176,135,136,128,4,5,11,11,0.4,0.4
2022-04-11T15:00:00,2230A,125.9446,41.7325,通化市,铁路,,37,29,39,8,19,153,117,112,111,5,5,11,11,0.4,0.4
2022-04-11T15:00:00,2231A,126.4219,41.9171,白山市,喜丰,颗粒物(PM10),55,60,74,14,18,170,136,126,126,12,14,8,8,1.0,0.9
2022-04-11T15:00:00,2232A,126.4077,41.9419,白山市,环保局,,35,35,50,15,18,4,4,4,4,9,14,9,10,2.0,2
2022-04-11T15:00:00,2233A,124.8006,45.1214,松原市,江南,,18,13,70,5,16,84,57,71,56,13,14,2,2,0.2,0.2
2022-04-11T15:00:00,2234A,124.7965,45.1722,松原市,江北,,19,13,72,4,16,85,59,63,56,13,15,2,2,0.3,0.3
2022-04-11T15:00:00,2236A,122.8738,45.5725,白城市,市环保局,细颗粒物(PM2.5),67,63,99,48,66,94,94,72,72,28,33,7,7,0.5,0.6
2022-04-11T15:00:00,2237A,129.47,42.8883,延边朝鲜族自治州,妇幼医院,,46,46,62,16,30,122,122,103,103,12,16,7,8,0.5,0.6
2022-04-11T15:00:00,2238A,129.5055,42.9108,延边朝鲜族自治州,延边医院,,39,39,63,18,32,127,121,106,106,14,14,10,10,0.5,0.7
2022-04-11T15:00:00,2239A,129.3964,42.8881,延边朝鲜族自治州,朝阳川镇医院,颗粒物(PM10),52,54,63,15,28,125,121,106,106,13,14,8,10,0.4,0.5
2022-04-11T15:00:00,2240A,130.9762,45.3001,鸡西市,环保局,细颗粒物(PM2.5),70,70,104,51,48,84,61,78,35,29,43,8,10,0.5,0.6
2022-04-11T15:00:00,2243A,130.9429,45.3039,鸡西市,第一中学,细颗粒物(PM2.5),65,74,112,47,45,101,71,91,48,31,37,10,9,0.4,0.4
2022-04-11T15:00:00,2244A,130.2537,47.3416,鹤岗市,哈啤分公司,颗粒物(PM10),54,58,45,21,29,79,55,50,38,19,17,22,18,0.4,0.5
2022-04-11T15:00:00,2245A,130.2684,47.3086,鹤岗市,斯达机电,颗粒物(PM10),51,52,53,26,32,74,56,60,37,19,22,8,8,0.5,0.5
2022-04-11T15:00:00,2246A,130.3114,47.3388,鹤岗市,东山纸板厂,颗粒物(PM10),53,56,77,22,27,74,58,42,42,15,23,11,11,0.4,0.7
2022-04-11T15:00:00,2248A,131.1511,46.6937,双鸭山市,双合村,细颗粒物(PM2.5),55,57,65,39,39,85,46,36,33,18,22,11,10,0.3,0.4
2022-04-11T15:00:00,2249A,131.1652,46.6191,双鸭山市,南小市,细颗粒物(PM2.5),58,61,112,41,55,102,54,46,43,18,26,3,5,0.6,0.7
2022-04-11T15:00:00,2250A,131.1524,46.6554,双鸭山市,环保局,细颗粒物(PM2.5),143,62,74,109,44,104,52,42,42,21,24,6,5,0.5,0.6
2022-04-11T15:00:00,2251A,131.12,46.5656,双鸭山市,苗圃(对照点),细颗粒物(PM2.5),64,54,78,46,62,119,46,74,61,26,17,5,3,0.7,0.7
2022-04-11T15:00:00,2252A,128.5159,47.4311,伊春市,环保局,,23,6,23,4,12,103,71,85,68,8,10,5,5,0.4,0.5
2022-04-11T15:00:00,2253A,128.9102,47.7412,伊春市,电力嘉园,,24,9,28,6,14,102,74,83,72,5,7,5,6,0.5,0.6
2022-04-11T15:00:00,2254A,129.5029,48.471,伊春市,汤旺河国家公园(对照点),,24,0,11,7,8,87,75,75,75,13,14,8,6,0.3,0.3
2022-04-11T15:00:00,2255A,130.2751,46.8028,佳木斯市,佳纺,颗粒物(PM10),71,92,67,51,38,63,21,29,28,33,26,6,4,0.7,0.6
2022-04-11T15:00:00,2256A,130.3995,46.8307,佳木斯市,发电厂,,43,35,29,30,25,65,42,38,38,15,7,17,4,0.5,0.5
2022-04-11T15:00:00,2257A,130.3258,46.7975,佳木斯市,环保局,细颗粒物(PM2.5),65,73,50,47,34,65,24,28,27,41,28,10,5,0.7,0.9
2022-04-11T15:00:00,2258A,130.3648,46.8032,佳木斯市,十一中,细颗粒物(PM2.5),67,60,35,48,31,70,29,42,34,42,23,15,9,0.7,0.6
2022-04-11T15:00:00,2259A,130.3794,46.7588,佳木斯市,四丰(对照点),细颗粒物(PM2.5),85,79,51,63,38,60,34,29,25,28,30,7,6,0.5,0.6
2022-04-11T15:00:00,2262A,131.0518,45.8751,七台河市,新一中(对照点),颗粒物(PM10),56,61,112,38,60,112,85,87,68,12,23,8,12,0.8,1
2022-04-11T15:00:00,2263A,127.4833,50.2524,黑河市,交通局,,25,5,13,7,13,78,78,74,74,5,6,4,4,0.4,0.4
2022-04-11T15:00:00,2264A,127.5144,50.2341,黑河市,环保局,,24,8,17,7,14,90,75,79,79,10,6,12,4,0.3,0.3
2022-04-11T15:00:00,2265A,127.5291,50.2472,黑河市,大黑河岛(对照点),,25,17,10,4,7,83,77,75,75,11,9,13,7,0.4,0.4
2022-04-11T15:00:00,2266A,126.9785,46.6365,绥化市,人和东街,,20,14,46,5,27,108,63,70,57,7,11,8,8,0.4,0.5
2022-04-11T15:00:00,2267A,126.964,46.6528,绥化市,党政办公中心,,20,9,42,3,19,107,64,69,59,7,10,5,6,0.3,0.4
2022-04-11T15:00:00,2269A,124.1069,50.4097,大兴安岭地区,科技局,,26,8,14,8,14,83,83,79,79,4,5,2,4,0.3,0.3
2022-04-11T15:00:00,2270A,117.396,32.939,蚌埠市,工人疗养院,臭氧1小时,83,77,74,38,33,186,186,155,155,7,12,9,11,0.4,0.4
2022-04-11T15:00:00,2271A,117.3605,32.9427,蚌埠市,百货大楼,颗粒物(PM10),75,100,94,42,28,183,178,156,156,9,16,10,13,0.5,0.5
2022-04-11T15:00:00,2273A,117.4185,32.8911,蚌埠市,蚌埠学院,臭氧1小时,82,83,75,39,30,188,185,149,149,6,12,16,14,0.6,0.5
2022-04-11T15:00:00,2274A,117.3533,32.9673,蚌埠市,淮上区政府,臭氧1小时,67,78,76,41,31,181,173,153,153,7,15,13,16,0.4,0.4
2022-04-11T15:00:00,2275A,117.3145,32.8977,蚌埠市,高新区,臭氧1小时,67,75,88,41,38,177,173,148,148,9,19,11,17,0.4,0.5
2022-04-11T15:00:00,2277A,116.8305,32.7727,淮南市,潘集区政府,"细颗粒物(PM2.5),臭氧1小时",62,66,70,44,39,173,169,142,142,3,9,6,10,0.3,0.3
2022-04-11T15:00:00,2278A,117.0067,32.6524,淮南市,师范学院,臭氧1小时,63,52,60,26,34,172,170,153,153,3,8,8,11,0.3,0.3
2022-04-11T15:00:00,2279A,116.8569,32.5951,淮南市,谢家集区政府,臭氧1小时,70,67,67,29,30,176,176,144,144,52,39,12,14,0.6,0.5
2022-04-11T15:00:00,2280A,116.8281,32.633,淮南市,八公山区政府,颗粒物(PM10),61,71,69,36,32,164,163,138,138,4,9,7,9,0.2,0.2
2022-04-11T15:00:00,2281A,116.6325,32.6201,淮南市,焦岗湖风景区管理处(对照点),臭氧1小时,53,53,60,30,30,162,162,133,133,5,6,8,8,0.3,0.3
2022-04-11T15:00:00,2282A,116.8004,33.975,淮北市,监测站,颗粒物(PM10),75,100,93,49,40,164,163,138,138,4,15,6,8,0.6,0.6
2022-04-11T15:00:00,2283A,116.8091,33.9007,淮北市,烈山区政府,细颗粒物(PM2.5),72,77,90,52,40,163,162,133,133,5,19,8,10,0.6,0.6
2022-04-11T15:00:00,2284A,116.7856,33.9477,淮北市,职业技术学院,颗粒物(PM10),71,92,92,49,42,155,155,128,128,6,15,8,9,0.6,0.6
2022-04-11T15:00:00,2285A,117.8177,30.9412,铜陵市,市第四中学,臭氧1小时,89,61,70,20,32,192,191,146,146,8,30,15,25,0.3,0.9
2022-04-11T15:00:00,2286A,117.8059,30.9273,铜陵市,市公路局,,,84,89,18,20,182,181,146,146,12,30,16,32,,0.8
2022-04-11T15:00:00,2287A,117.7807,30.9413,铜陵市,市新民污水厂,臭氧1小时,70,52,78,26,40,176,176,133,133,21,50,14,35,0.5,0.8
2022-04-11T15:00:00,2288A,117.7439,30.8792,铜陵市,市第九中学,,,93,89,35,37,152,151,109,109,36,54,11,11,,0.7
2022-04-11T15:00:00,2289A,117.846,30.9413,铜陵市,车站新区,臭氧1小时,67,69,69,30,35,173,173,135,135,12,22,8,10,0.6,0.6
2022-04-11T15:00:00,2290A,117.8483,30.97,铜陵市,市职教基地,,,,69,,32,182,182,132,132,15,30,12,18,0.5,0.8
2022-04-11T15:00:00,2291A,117.0809,30.5177,安庆市,环科院,臭氧1小时,58,57,64,31,21,167,166,114,114,5,41,8,9,0.5,0.4
2022-04-11T15:00:00,2292A,117.0331,30.5119,安庆市,马山宾馆,臭氧1小时,58,54,59,21,16,166,166,124,119,11,32,9,10,0.5,0.6
2022-04-11T15:00:00,2294A,116.9896,30.6145,安庆市,安庆大学,,,61,66,33,38,184,184,130,130,,23,7,7,0.5,0.6
2022-04-11T15:00:00,2295A,118.2903,29.6963,黄山市,延安路89号,臭氧1小时,55,52,56,27,31,164,164,105,105,2,12,12,12,0.5,0.6
2022-04-11T15:00:00,2296A,118.327,29.7178,黄山市,黄山东路89号,,,41,49,20,30,155,155,105,105,,12,6,5,0.4,0.5
2022-04-11T15:00:00,2297A,118.1371,30.2756,黄山市,黄山区政府5号楼,颗粒物(PM10),51,52,56,25,28,151,149,108,108,4,8,11,10,0.3,0.4
2022-04-11T15:00:00,2298A,118.3093,32.3153,滁州市,老年大学,臭氧1小时,79,76,94,34,37,195,183,148,148,9,26,13,18,0.3,0.5
2022-04-11T15:00:00,2299A,118.3244,32.2786,滁州市,人大宾馆,,,71,91,39,42,192,177,140,140,,39,9,14,0.4,0.6
2022-04-11T15:00:00,2301A,115.8277,32.8929,阜阳市,市监测站,臭氧1小时,65,50,58,30,30,172,172,156,156,6,10,9,11,0.5,0.5
2022-04-11T15:00:00,2303A,115.8554,32.8605,阜阳市,开发区,臭氧1小时,60,62,66,35,31,168,168,149,149,6,11,7,8,0.3,0.3
2022-04-11T15:00:00,2307A,116.5079,31.737,六安市,监测大楼,臭氧1小时,58,52,54,34,30,174,166,154,154,3,6,8,9,0.3,0.3
2022-04-11T15:00:00,2308A,116.4738,31.7643,六安市,皖西学院,臭氧1小时,60,59,60,28,24,172,168,159,159,12,9,11,12,0.4,0.3
2022-04-11T15:00:00,2309A,116.4996,31.7905,六安市,朝阳厂,颗粒物(PM10),55,59,53,38,31,167,156,147,147,1,4,9,9,0.4,0.4
2022-04-11T15:00:00,2310A,116.5567,31.7886,六安市,开发区,臭氧1小时,68,77,67,30,30,181,174,152,152,8,13,13,10,0.4,0.4
2022-04-11T15:00:00,2311A,115.8072,33.8399,亳州市,污水处理厂,颗粒物(PM10),63,75,69,35,28,161,161,147,147,6,10,8,8,0.6,0.5
2022-04-11T15:00:00,2312A,115.7789,33.8518,亳州市,三国揽胜宫,颗粒物(PM10),65,80,70,46,36,162,162,152,152,5,8,9,9,0.6,0.6
2022-04-11T15:00:00,2314A,117.47,30.6618,池州市,池州学院,臭氧1小时,80,76,63,38,34,184,184,136,136,12,21,10,8,0.6,0.6
2022-04-11T15:00:00,2316A,118.7581,30.9454,宣城市,鳌峰子站,,45,45,65,30,34,136,131,108,108,7,21,5,11,0.4,0.5
2022-04-11T15:00:00,2317A,118.7385,30.9743,宣城市,敬亭山子站,,47,47,53,28,30,140,126,109,109,8,15,6,7,0.4,0.4
2022-04-11T15:00:00,2318A,118.7173,30.9427,宣城市,开发区子站,颗粒物(PM10),51,52,64,29,33,135,131,112,112,4,41,5,8,0.5,0.6
2022-04-11T15:00:00,2319A,119.0141,25.4325,莆田市,荔城区仓后路,颗粒物(PM10),64,78,57,36,28,160,155,121,121,14,15,7,5,0.7,0.6
2022-04-11T15:00:00,2320A,119.0015,25.4553,莆田市,莆田市监测站,颗粒物(PM10),55,59,48,35,30,167,158,120,120,11,10,12,6,0.8,0.6
2022-04-11T15:00:00,2321A,119.1119,25.4561,莆田市,涵江区六中,颗粒物(PM10),56,61,56,29,32,146,146,108,108,6,15,12,8,0.6,0.6
2022-04-11T15:00:00,2322A,119.1013,25.3215,莆田市,秀屿区政府,,49,49,59,29,38,166,152,113,113,9,17,9,8,0.7,0.7
2022-04-11T15:00:00,2323A,118.981,25.4792,莆田市,东圳水库(对照点),颗粒物(PM10),69,87,47,29,22,181,170,123,123,11,10,9,5,0.7,0.6
2022-04-11T15:00:00,2324A,117.6211,26.2625,三明市,三钢,,,,59,24,35,152,138,99,99,10,34,7,9,0.4,1.2
2022-04-11T15:00:00,2325A,117.635,26.2714,三明市,三明二中,,45,42,53,20,32,165,143,105,105,8,31,10,14,0.5,1.3
2022-04-11T15:00:00,2326A,117.6028,26.2378,三明市,三元区政府,,46,39,60,11,35,161,146,102,102,8,30,6,10,0.5,0.8
2022-04-11T15:00:00,2327A,117.7275,26.3108,三明市,洋溪(对照点),,49,32,52,16,31,188,154,119,119,7,16,9,11,0.7,1.3
2022-04-11T15:00:00,2331A,118.0966,26.6761,南平市,茫荡山(对照点),,36,33,32,21,21,127,115,114,114,4,4,6,6,0.7,0.7
2022-04-11T15:00:00,2332A,118.1681,26.6369,南平市,南平市监测站,,46,30,47,27,27,156,146,109,109,7,18,8,7,0.5,0.7
2022-04-11T15:00:00,2333A,118.1825,26.6489,南平市,南平铝业有限公司,,47,31,48,19,28,156,149,108,108,4,16,8,8,0.5,0.7
2022-04-11T15:00:00,2334A,118.1756,26.6272,南平市,南平七中,,48,24,45,18,29,154,151,106,106,5,14,6,5,0.5,0.6
2022-04-11T15:00:00,2335A,117.0189,25.1181,龙岩市,龙岩师专(对照点),,34,28,57,16,36,134,106,87,87,7,28,6,6,0.4,0.5
2022-04-11T15:00:00,2336A,117.0217,25.1033,龙岩市,龙岩市监测站,,34,30,45,12,27,134,106,85,85,7,25,5,8,0.3,0.3
2022-04-11T15:00:00,2337A,117.0258,25.0661,龙岩市,闽西职业技术学院,,31,23,56,16,27,123,97,78,78,5,32,6,12,0.3,0.5
2022-04-11T15:00:00,2338A,117.0196,25.0306,龙岩市,龙岩学院,,30,18,35,7,21,126,93,80,80,5,15,5,5,0.3,0.3
2022-04-11T15:00:00,2339A,119.5001,26.6946,宁德市,金涵水库(对照点),颗粒物(PM10),51,52,37,20,22,124,124,87,87,10,7,11,7,0.8,0.6
2022-04-11T15:00:00,2341A,119.5388,26.6612,宁德市,宁德市监测站,,37,36,39,20,19,118,118,82,82,7,8,11,8,0.6,0.5
2022-04-11T15:00:00,2342A,117.3102,29.3867,景德镇市,王港中学(对照点),臭氧1小时,103,57,52,22,29,205,205,133,133,8,11,4,4,0.6,0.7
2022-04-11T15:00:00,2343A,117.2117,29.2933,景德镇市,老干部活动中心,臭氧1小时,80,65,74,28,40,185,184,122,122,10,27,8,8,0.7,0.7
2022-04-11T15:00:00,2344A,117.1894,29.2789,景德镇市,兽医站,臭氧1小时,94,54,70,34,38,195,195,127,127,14,28,10,10,0.4,0.5
2022-04-11T15:00:00,2345A,117.1547,29.2617,景德镇市,台达陶瓷,,,71,85,24,41,171,171,122,122,32,42,22,21,,0.5
2022-04-11T15:00:00,2346A,117.2461,29.2956,景德镇市,陶研所,臭氧1小时,60,50,66,25,34,168,168,108,108,12,24,15,8,0.5,0.5
2022-04-11T15:00:00,2347A,114.0997,27.5002,萍乡市,武功山(对照点),臭氧1小时,52,26,30,19,24,165,161,133,133,6,8,13,12,0.1,0.2
2022-04-11T15:00:00,2348A,113.8385,27.6434,萍乡市,中医院,臭氧1小时,57,54,68,38,43,166,165,117,117,12,27,8,8,0.8,1
2022-04-11T15:00:00,2349A,113.8493,27.6253,萍乡市,市政府车库,臭氧1小时,63,57,71,31,37,170,170,127,127,18,27,7,7,0.8,1.2
2022-04-11T15:00:00,2350A,113.8676,27.6435,萍乡市,市环保局,臭氧1小时,59,64,68,41,49,169,167,117,117,7,27,8,10,0.7,1
2022-04-11T15:00:00,2351A,113.866,27.6198,萍乡市,安源区政府,臭氧1小时,63,63,67,35,40,172,170,122,122,8,19,18,18,0.5,1
2022-04-11T15:00:00,2352A,115.0861,27.9317,新余市,北岗(对照点),臭氧1小时,62,53,57,39,39,172,169,121,121,10,22,11,10,0.3,0.4
2022-04-11T15:00:00,2353A,114.9886,27.8431,新余市,飞宇,颗粒物(PM10),57,64,77,35,39,160,157,113,113,11,35,6,33,0.2,0.7
2022-04-11T15:00:00,2354A,114.9231,27.8246,新余市,第二水厂,细颗粒物(PM2.5),67,79,88,48,44,168,168,124,124,16,32,31,27,1.1,0.8
2022-04-11T15:00:00,2355A,114.9308,27.8036,新余市,市气象局,"颗粒物(PM10),细颗粒物(PM2.5)",52,54,71,36,46,158,156,108,108,12,33,10,21,0.6,1
2022-04-11T15:00:00,2357A,116.9822,28.1136,鹰潭市,龙虎山(对照点),臭氧1小时,70,43,42,21,24,185,176,134,134,1,2,2,2,0.2,0.2
2022-04-11T15:00:00,2358A,117.0564,28.2642,鹰潭市,新监测站,臭氧1小时,78,42,72,19,37,186,182,129,129,5,21,4,46,0.1,0.3
2022-04-11T15:00:00,2359A,117.0311,28.2475,鹰潭市,财苑宾馆,臭氧1小时,72,45,71,17,33,181,177,122,122,3,18,1,32,0.1,0.5
2022-04-11T15:00:00,2360A,117.0222,28.2264,鹰潭市,体育馆,臭氧1小时,72,44,63,19,33,183,177,124,124,2,11,1,14,0.3,0.4
2022-04-11T15:00:00,2361A,117.0017,28.2131,鹰潭市,三川水表,臭氧1小时,62,44,56,27,29,177,169,121,121,2,8,5,8,0.2,0.3
2022-04-11T15:00:00,2362A,114.9017,25.9149,赣州市,通天岩(对照点),臭氧1小时,112,48,62,26,37,237,224,174,174,10,18,8,10,0.6,0.7
2022-04-11T15:00:00,2363A,114.9367,25.8664,赣州市,地委,臭氧1小时,101,59,82,25,39,214,202,142,142,18,66,,9,0.9,1
2022-04-11T15:00:00,2364A,114.9461,25.8481,赣州市,气象台,臭氧1小时,100,52,63,30,36,208,200,150,150,12,37,8,10,0.6,0.7
2022-04-11T15:00:00,2365A,114.9322,25.8333,赣州市,市图书馆,臭氧1小时,102,50,65,25,38,215,204,150,150,20,43,7,10,0.7,0.9
2022-04-11T15:00:00,2367A,114.9754,27.0803,吉安市,红声器材厂,臭氧1小时,88,63,68,34,40,198,190,152,152,9,16,7,10,0.4,0.4
2022-04-11T15:00:00,2368A,114.9658,27.0999,吉安市,市森林工业局,,,66,73,39,44,191,183,141,141,10,29,,4,,0.5
2022-04-11T15:00:00,2369A,114.99,27.1312,吉安市,市环境监测站,臭氧1小时,85,72,76,32,40,199,188,150,150,7,19,8,12,0.3,0.5
2022-04-11T15:00:00,2370A,115.0093,27.0968,吉安市,青原区法院,臭氧1小时,98,60,69,36,40,210,198,159,159,5,18,10,13,0.3,0.5
2022-04-11T15:00:00,2371A,114.3408,27.8064,宜春市,槟榔水业(对照点),臭氧1小时,94,78,93,38,46,195,195,115,115,9,33,7,6,0.7,0.5
2022-04-11T15:00:00,2373A,114.3956,27.7844,宜春市,市石油公司,臭氧1小时,95,63,74,37,44,196,196,132,132,3,15,6,7,0.7,0.7
2022-04-11T15:00:00,2374A,114.3703,27.7914,宜春市,市气象局,臭氧1小时,103,63,72,41,43,205,205,142,142,9,19,9,10,0.8,0.7
2022-04-11T15:00:00,2375A,114.4013,27.8074,宜春市,市广电局,臭氧1小时,93,67,78,39,46,194,194,128,128,11,24,4,6,0.9,0.9
2022-04-11T15:00:00,2376A,116.2127,28.0814,抚州市,桐源党溪(对照点),臭氧1小时,72,42,53,26,35,177,177,121,121,5,11,9,9,0.6,0.6
2022-04-11T15:00:00,2377A,116.3544,27.9831,抚州市,市站,臭氧1小时,72,42,61,24,35,177,177,132,132,6,19,6,6,0.3,0.7
2022-04-11T15:00:00,2378A,116.3565,27.963,抚州市,血防站,臭氧1小时,69,41,58,22,31,175,175,122,122,7,17,6,7,0.3,0.7
2022-04-11T15:00:00,2379A,116.3564,28.0007,抚州市,采茶剧团,臭氧1小时,65,51,58,22,30,172,172,130,130,10,18,4,6,0.7,0.8
2022-04-11T15:00:00,2380A,116.385,27.9647,抚州市,医学分院,臭氧1小时,68,60,64,25,28,174,174,130,130,2,6,5,5,0.5,0.7
2022-04-11T15:00:00,2381A,118.005,28.4572,上饶市,百草园(对照点),"颗粒物(PM10),臭氧1小时",53,55,61,31,33,171,162,111,111,2,18,7,41,0.2,0.4
2022-04-11T15:00:00,2382A,117.9756,28.4436,上饶市,市监测站,臭氧1小时,64,51,69,24,34,182,171,118,118,6,21,7,39,0.2,0.4
2022-04-11T15:00:00,2383A,117.9519,28.4628,上饶市,凤凰光学,臭氧1小时,62,49,73,6,36,179,169,118,118,6,35,12,36,0.2,0.5
2022-04-11T15:00:00,2385A,114.17,35.9019,鹤壁市,市监测站,臭氧1小时,92,125,122,43,43,195,193,111,111,16,26,10,7,1.0,1.1
