timepoint,stationcode,longitude,latitude,area,positionname,primarypollutant,aqi,pm10,pm10_24h,pm2_5,pm2_5_24h,o3,o3_24h,o3_8h,o3_8h_24h,no2,no2_24h,so2,so2_24h,co,co_24h
2025-12-30T1500,2566A,102.1879,31.914,阿坝藏族羌族自治州,州农科所,,,,,,,,,,,,,,,,
2025-12-30T1500,2568A,102.2502,31.8896,阿坝藏族羌族自治州,马师校,,,6,23,3,16,61,61,38,38,9,17,,4,0.6,0.7
2025-12-30T1500,3994A,102.2165,31.9024,阿坝藏族羌族自治州,马尔康中学西区,,19,11,16,9,8,59,59,41,41,8,12,6,6,0.5,0.5
2025-12-30T1500,2695A,80.292,41.1694,阿克苏地区,电视台,,42,42,55,27,32,51,51,54,52,17,15,4,4,0.6,0.5
2025-12-30T1500,2696A,80.2613,41.1551,阿克苏地区,艺术中心,,45,38,51,31,33,50,50,58,53,14,12,4,4,0.5,0.4
2025-12-30T1500,2204A,105.6467,38.8363,阿拉善盟,西城区西花园,,,,,,,,,,,,,,,,
2025-12-30T1500,2205A,105.6985,38.8411,阿拉善盟,蒙二幼,,24,24,26,12,11,70,70,69,62,9,13,11,11,0.6,0.6
2025-12-30T1500,2206A,105.724,38.8516,阿拉善盟,环保局新楼,,32,32,14,18,9,62,62,80,66,10,7,10,10,0.5,0.6
2025-12-30T1500,2708A,88.1264,47.8517,阿勒泰地区,市站,,23,6,9,3,5,71,71,72,59,18,26,2,3,0.5,0.7
2025-12-30T1500,2630A,80.1161,32.5,阿里地区,阿里监测站,,25,,3,3,3,80,80,61,61,3,9,13,12,0.3,0.4
2025-12-30T1500,3192A,80.0903,32.5028,阿里地区,阿里藏医院,,25,,14,6,8,80,80,58,58,2,7,9,12,0.3,0.4
2025-12-30T1500,2642A,109.0318,32.6537,安康市,香溪洞,,,,,,,,,,,,,,,,
2025-12-30T1500,2644A,109.0072,32.6975,安康市,汉滨区检察院,,,,90,61,66,53,53,21,21,21,34,6,5,0.6,0.6
2025-12-30T1500,4054A,109.0325,32.6913,安康市,市邮政管理局,细颗粒物(PM2.5),75,79,86,55,66,40,40,17,17,25,29,6,5,0.8,1.1
2025-12-30T1500,2291A,117.0809,30.5177,安庆市,环科院,细颗粒物(PM2.5),199,182,128,149,105,128,128,75,75,18,20,8,8,1.0,0.7
2025-12-30T1500,2292A,117.0331,30.5119,安庆市,马山宾馆,细颗粒物(PM2.5),202,190,129,152,101,125,125,79,79,25,28,7,7,1.3,1
2025-12-30T1500,2294A,116.9896,30.6145,安庆市,安庆大学,细颗粒物(PM2.5),203,184,125,153,97,106,106,72,72,18,19,4,5,1.2,0.9
2025-12-30T1500,3173A,117.0598,30.5351,安庆市,市人大,细颗粒物(PM2.5),205,192,131,155,105,126,126,76,76,18,22,8,7,1.0,0.7
2025-12-30T1500,3122A,105.9606,26.2611,安顺市,伍家关,,,35,46,22,21,,,30,30,12,17,8,16,0.9,0.9
2025-12-30T1500,3123A,105.9408,26.2431,安顺市,凤凰山,,42,32,40,29,36,48,48,34,34,15,20,12,19,0.8,0.8
2025-12-30T1500,3124A,105.9439,26.2564,安顺市,金钟山,,45,,35,31,34,45,45,35,35,14,16,16,18,0.9,0.9
2025-12-30T1500,3125A,105.8983,26.2481,安顺市,娄家坡,,46,35,39,32,34,54,54,36,36,10,18,10,19,0.9,1
2025-12-30T1500,1818A,114.4839,36.0621,安阳市,棉研所,,,,,,,,,,,,,,,,
2025-12-30T1500,1819A,114.3551,36.1017,安阳市,红庙街,细颗粒物(PM2.5),112,92,132,84,111,48,48,28,28,40,51,13,8,0.8,1.3
2025-12-30T1500,1820A,114.361,36.0681,安阳市,银杏小区,细颗粒物(PM2.5),124,95,137,94,126,50,50,29,29,38,47,13,7,0.8,1.3
2025-12-30T1500,3141A,114.3922,36.0878,安阳市,信访局,细颗粒物(PM2.5),115,111,137,87,116,51,51,30,30,40,49,13,8,1.0,1.3
2025-12-30T1500,3669A,114.4705,36.0637,安阳市,左辅环卫站,细颗粒物(PM2.5),114,128,153,86,122,53,53,32,32,33,40,12,8,0.9,1
2025-12-30T1500,3703A,114.2917,36.0949,安阳市,安钢职工学校,细颗粒物(PM2.5),117,125,149,88,123,46,46,26,26,39,46,13,8,0.7,1.2
2025-12-30T1500,1748A,123.044,41.1196,鞍山市,深沟寺,,21,21,29,10,17,60,60,56,56,11,26,8,11,0.5,0.8
2025-12-30T1500,1749A,123.011,41.0931,鞍山市,太阳城,,20,18,29,10,16,61,61,55,55,9,24,11,18,0.7,1
2025-12-30T1500,1750A,123.0485,41.1442,鞍山市,太平,,19,19,43,8,20,56,56,43,43,11,31,10,12,0.5,0.9
2025-12-30T1500,1751A,122.9642,41.0971,鞍山市,铁西三道街,,21,21,45,8,26,61,61,51,51,10,27,11,21,0.5,1.1
2025-12-30T1500,1753A,123.022,41.0821,鞍山市,明达新区,,19,19,29,11,15,58,58,50,50,12,21,13,17,0.6,0.9
2025-12-30T1500,1754A,123.1289,41.0228,鞍山市,千山,,,,15,,10,,,40,,,18,,3,,0.6
2025-12-30T1500,4201A,122.9446,41.0826,鞍山市,兴盛南路290号,,28,28,69,9,36,59,59,46,46,22,51,10,14,0.6,1.6
2025-12-30T1500,2195A,107.4212,40.761,巴彦淖尔市,附二中,,37,37,47,13,28,62,62,51,51,7,19,7,7,0.2,0.4
2025-12-30T1500,2196A,107.37,40.7372,巴彦淖尔市,市环保大楼,,31,31,42,6,27,70,70,60,60,6,20,7,8,0.3,0.5
2025-12-30T1500,1956A,86.1472,41.7538,巴音郭楞蒙古自治州,孔雀公园,,49,38,50,34,32,57,57,44,40,12,18,7,7,0.5,0.6
2025-12-30T1500,1957A,86.1972,41.7166,巴音郭楞蒙古自治州,棉纺厂,颗粒物(PM10),55,60,71,15,23,63,63,42,41,12,19,4,5,0.5,0.5
2025-12-30T1500,1958A,86.2357,41.7173,巴音郭楞蒙古自治州,经济开发区,,45,45,65,18,25,56,56,38,34,8,20,5,6,0.4,0.6
2025-12-30T1500,2914A,106.7677,31.8794,巴中市,苏山坪,,,,,,,,,,,,,,,,
2025-12-30T1500,3181A,106.7768,31.8526,巴中市,市五中,细颗粒物(PM2.5),125,124,100,95,78,4,4,2,2,,24,,5,1.6,1.1
2025-12-30T1500,3183A,106.7418,31.8654,巴中市,圣泉水务公司,细颗粒物(PM2.5),114,109,95,86,78,3,3,1,1,30,28,5,5,1.0,0.9
2025-12-30T1500,3616A,106.7616,31.8344,巴中市,市中心医院,细颗粒物(PM2.5),129,121,95,98,77,4,4,2,2,39,26,7,7,1.4,1
2025-12-30T1500,2235A,122.7911,45.6077,白城市,洮北区环保局,,24,24,24,6,8,49,49,48,47,4,11,4,5,0.1,0.2
2025-12-30T1500,2236A,122.8738,45.5725,白城市,市环保局,,19,14,16,13,13,51,51,44,44,5,8,4,3,0.4,0.3
2025-12-30T1500,2231A,126.4219,41.9171,白山市,喜丰,颗粒物(PM10),51,52,54,10,28,53,53,40,40,15,35,12,12,0.5,0.9
2025-12-30T1500,2232A,126.4077,41.9419,白山市,环保局,,18,11,37,8,30,56,56,37,37,2,22,11,11,0.4,0.8
2025-12-30T1500,2647A,104.1724,36.5446,白银市,第三小学,细颗粒物(PM2.5),90,71,95,67,68,57,57,33,33,32,54,40,61,1.0,1.5
2025-12-30T1500,2648A,104.1465,36.5482,白银市,动力公司,细颗粒物(PM2.5),109,86,76,82,64,78,78,58,55,34,37,34,38,1.0,1.3
2025-12-30T1500,2512A,106.6103,23.9011,百色市,市监测站,细颗粒物(PM2.5),69,62,81,50,58,85,85,37,37,14,31,12,11,0.8,0.9
2025-12-30T1500,2513A,106.6538,23.8859,百色市,市中心血站,细颗粒物(PM2.5),87,68,103,64,77,92,92,37,37,17,46,12,12,1.0,1.2
2025-12-30T1500,3406A,106.6085,23.8798,百色市,祈福高中,细颗粒物(PM2.5),73,79,105,53,63,79,79,31,31,21,42,12,9,0.9,0.9
2025-12-30T1500,2270A,117.396,32.939,蚌埠市,工人疗养院,细颗粒物(PM2.5),87,93,159,64,118,105,105,68,68,13,32,6,6,0.6,0.8
2025-12-30T1500,2271A,117.3605,32.9427,蚌埠市,百货大楼,细颗粒物(PM2.5),87,92,146,64,115,104,104,66,66,14,32,6,6,0.5,0.8
2025-12-30T1500,2273A,117.4185,32.8911,蚌埠市,蚌埠学院,细颗粒物(PM2.5),88,83,139,65,112,100,100,64,64,22,52,8,7,0.5,0.7
2025-12-30T1500,2274A,117.3533,32.9673,蚌埠市,淮上区政府,细颗粒物(PM2.5),89,85,154,66,124,105,105,70,70,12,31,3,3,0.6,0.8
2025-12-30T1500,2275A,117.3145,32.8977,蚌埠市,高新区,细颗粒物(PM2.5),80,70,138,59,113,100,100,63,63,13,33,8,8,0.4,0.7
2025-12-30T1500,3715A,117.3092,32.9314,蚌埠市,蚌埠田家炳中学,,,,154,,123,104,104,73,73,14,29,5,6,0.5,0.8
2025-12-30T1500,1585A,109.8756,40.6532,包头市,市环境监测站,,25,23,44,10,20,78,78,57,57,8,31,4,12,0.4,0.9
2025-12-30T1500,1587A,109.9991,40.5842,包头市,包头八中,,43,43,51,30,31,54,54,33,32,20,39,9,16,0.7,1.1
2025-12-30T1500,1588A,109.8538,40.6821,包头市,青山宾馆,,24,8,45,3,24,76,76,57,57,2,29,6,14,0.4,1
2025-12-30T1500,1589A,109.8642,40.6288,包头市,惠龙物流,,25,14,41,7,23,79,79,60,60,6,28,7,13,0.2,0.9
2025-12-30T1500,1590A,110.0377,40.5546,包头市,东河鸿龙湾,,35,35,42,16,22,62,62,36,36,17,37,10,12,0.5,0.8
2025-12-30T1500,3283A,109.9154,40.5685,包头市,滨河大厦,,40,40,39,25,24,54,54,44,44,15,29,6,8,0.6,0.9
2025-12-30T1500,3419A,109.9447,40.6261,包头市,包头市委党校,,47,47,49,11,23,57,57,40,40,20,37,12,15,0.7,1
2025-12-30T1500,3683A,109.8331,40.6576,包头市,昆区政府,,24,14,47,3,27,76,76,61,61,8,30,4,12,0.4,0.9
2025-12-30T1500,1930A,107.185,34.3063,宝鸡市,庙沟村,,,,,,,,,,,,,,,,
2025-12-30T1500,1931A,107.0708,34.3017,宝鸡市,竹园沟,细颗粒物(PM2.5),163,150,82,124,74,26,26,26,20,63,30,8,6,0.9,0.6
2025-12-30T1500,1932A,107.1906,34.3672,宝鸡市,三陆医院,细颗粒物(PM2.5),188,166,143,141,132,26,26,22,18,58,49,8,6,1.2,1
2025-12-30T1500,1933A,107.1431,34.3547,宝鸡市,监测站,细颗粒物(PM2.5),196,150,118,147,105,37,37,19,19,44,38,6,5,0.9,0.8
2025-12-30T1500,1934A,107.1186,34.3739,宝鸡市,技工学校,细颗粒物(PM2.5),162,144,128,123,112,39,39,28,23,29,35,7,8,0.8,1
2025-12-30T1500,1936A,107.2058,34.3497,宝鸡市,文理学院,细颗粒物(PM2.5),179,145,118,135,110,41,41,25,24,50,44,6,5,0.9,0.8
2025-12-30T1500,1937A,107.2386,34.3622,宝鸡市,三迪小学,细颗粒物(PM2.5),185,158,133,139,119,30,30,18,17,58,53,7,5,1.1,1
2025-12-30T1500,4308A,107.3898,34.3601,宝鸡市,陈仓区北开路21号,细颗粒物(PM2.5),162,160,163,123,142,56,56,43,43,38,54,18,26,0.9,1
2025-12-30T1500,1051A,115.493,38.8632,保定市,游泳馆,,42,42,72,6,46,60,60,34,34,8,54,2,6,0.3,0.6
2025-12-30T1500,1052A,115.5213,38.8959,保定市,华电二区,,36,36,64,16,51,62,62,31,31,10,51,1,3,0.3,0.7
2025-12-30T1500,1053A,115.4713,38.9108,保定市,接待中心,,49,49,74,9,46,56,56,30,30,8,45,3,2,0.3,0.7
2025-12-30T1500,1054A,115.4612,38.8416,保定市,地表水厂,,50,50,82,25,52,65,65,39,39,14,58,2,4,0.3,0.6
2025-12-30T1500,3581A,115.31981,38.95208,保定市,满城区生态环境分局,,41,41,91,12,58,56,56,29,29,20,59,4,8,0.2,0.8
2025-12-30T1500,3582A,115.47694,38.76408,保定市,清苑区第二中学,,35,35,86,3,45,58,58,33,33,14,52,1,4,0.3,0.6
2025-12-30T1500,3583A,115.62909,39.02311,保定市,徐水物探局,,40,40,93,10,55,64,64,35,35,12,54,3,6,0.3,0.8
2025-12-30T1500,4004A,115.4202,38.8656,保定市,双鹰农机,,,44,86,12,47,62,62,40,40,,55,5,8,0.2,0.5
2025-12-30T1500,4034A,115.5150,38.8590,保定市,植保所站,,39,39,72,12,46,57,57,28,28,13,60,3,3,0.1,0.5
2025-12-30T1500,2594A,99.1678,25.1081,保山市,市环境监测站,,25,16,23,8,18,79,79,51,51,5,9,4,4,0.1,0.2
2025-12-30T1500,2595A,99.1711,25.1328,保山市,市环保局,,38,38,27,14,19,80,80,57,57,3,6,4,4,0.3,0.4
2025-12-30T1500,1866A,109.2262,21.588,北海市,牛尾岭水库,,49,43,52,31,48,156,156,128,128,11,16,8,12,0.5,0.6
2025-12-30T1500,1867A,109.1436,21.4086,北海市,海滩公园,臭氧1小时,54,40,61,22,43,163,163,136,136,12,18,9,14,0.9,0.9
2025-12-30T1500,1868A,109.0981,21.4661,北海市,新市环保局,,50,50,59,34,46,145,145,129,129,13,24,6,10,0.6,0.8
2025-12-30T1500,1869A,109.1778,21.5233,北海市,北海工业园,臭氧1小时,64,67,82,44,55,171,171,129,129,16,22,10,17,0.7,0.7
2025-12-30T1500,3400A,109.1911,21.4415,北海市,龙潭自来水厂,,48,36,62,33,52,136,136,126,126,8,19,7,11,0.7,0.8
2025-12-30T1500,1001A,116.3621,39.8784,北京市,万寿西宫,,21,14,40,3,20,67,67,61,61,7,37,2,2,0.3,0.4
2025-12-30T1500,1002A,116.2202,40.2915,北京市,定陵,,,,,,,,,,,,,,,,
2025-12-30T1500,1003A,116.4174,39.9289,北京市,东四,,20,16,35,6,19,61,61,58,58,7,27,2,2,0.4,0.5
2025-12-30T1500,1004A,116.4072,39.8863,北京市,天坛,,20,16,36,6,20,64,64,60,60,7,33,3,2,0.2,0.5
2025-12-30T1500,1005A,116.462,39.9365,北京市,农展馆,,21,12,32,3,18,65,65,62,62,5,25,4,4,0.3,0.4
2025-12-30T1500,1006A,116.3392,39.9295,北京市,官园,,20,15,39,6,24,61,61,56,56,7,34,3,4,0.3,0.4
2025-12-30T1500,1007A,116.2878,39.9611,北京市,海淀万柳,,19,14,36,3,19,60,60,52,52,4,39,3,3,0.3,0.5
2025-12-30T1500,1008A,116.6636,40.135,北京市,顺义新城,,23,6,17,3,8,71,71,67,67,3,24,4,4,0.3,0.3
2025-12-30T1500,1009A,116.6275,40.3275,北京市,怀柔镇,,21,6,12,3,7,67,67,66,66,4,11,6,6,0.2,0.5
2025-12-30T1500,1010A,116.2296,40.217,北京市,昌平镇,,20,17,22,6,11,63,63,60,60,3,13,5,5,0.3,0.4
2025-12-30T1500,1011A,116.3966,39.9821,北京市,奥体中心,,20,17,33,7,18,64,64,62,62,11,43,5,4,0.3,0.5
2025-12-30T1500,3281A,115.9718,40.4529,北京市,延庆夏都,,21,11,28,3,14,65,65,49,49,4,23,3,2,0.4,0.6
2025-12-30T1500,3418A,116.8336,40.4095,北京市,密云新城,,21,6,10,3,5,67,67,63,63,2,11,3,3,0.3,0.3
2025-12-30T1500,3671A,116.088,39.9726,北京市,门头沟三家店,,22,8,33,3,16,70,70,66,66,2,20,2,3,0.3,0.4
2025-12-30T1500,3672A,116.1541,39.8204,北京市,丰台云岗,,22,9,47,3,23,70,70,66,66,4,27,2,3,0.2,0.4
2025-12-30T1500,3673A,116.6804,39.9081,北京市,通州东关,,20,17,42,6,17,62,62,57,57,7,41,3,4,0.2,0.4
2025-12-30T1500,3674A,115.9577,39.7603,北京市,房山燕山,,21,6,39,3,24,66,66,64,64,3,19,3,4,0.1,0.3
2025-12-30T1500,3675A,116.4672,39.7733,北京市,大兴旧宫,,21,13,48,3,20,65,65,60,60,8,39,2,2,0.4,0.6
2025-12-30T1500,3694A,115.986,40.4563,北京市,延庆石河营,,20,10,24,3,13,62,62,45,45,4,27,3,3,0.2,0.6
2025-12-30T1500,3695A,116.6151,40.3053,北京市,怀柔新城,,21,6,10,3,7,66,66,69,69,6,7,4,4,0.3,0.3
2025-12-30T1500,3696A,116.2545,39.8768,北京市,丰台小屯,,18,12,48,3,23,56,56,48,48,6,44,3,3,0.3,0.5
2025-12-30T1500,3697A,116.84,40.3844,北京市,密云镇,,22,7,17,3,9,68,68,63,63,4,30,2,2,0.2,0.4
2025-12-30T1500,4182A,116.1942,39.9158,北京市,八角北路9号,,19,9,38,3,16,58,58,56,56,1,20,3,2,0,0.2
2025-12-30T1500,4194A,117.0790,40.1518,北京市,洳河巡河路,,,,17,,11,,,45,,,15,,2,,0.5
2025-12-30T1500,1761A,123.8275,41.3064,本溪市,大峪,,18,11,42,3,23,56,56,37,37,11,34,11,9,0.6,1.1
2025-12-30T1500,1762A,123.7567,41.3325,本溪市,溪湖,,36,36,47,8,21,59,59,37,37,11,35,10,9,0.5,0.9
2025-12-30T1500,1763A,123.7169,41.3094,本溪市,彩屯,,25,25,42,6,26,56,56,38,38,14,30,10,8,0.5,0.9
2025-12-30T1500,1764A,123.7669,41.2864,本溪市,东明,,18,18,51,3,29,54,54,34,34,11,34,12,12,0.7,1.4
2025-12-30T1500,1765A,123.7992,41.2664,本溪市,新立屯,,26,26,36,9,19,52,52,35,35,10,36,12,11,0.6,1.4
2025-12-30T1500,1766A,123.8142,41.3472,本溪市,威宁,,,24,62,6,28,53,53,38,38,,31,9,6,0.6,1.1
2025-12-30T1500,2587A,105.2864,27.3125,毕节市,八中,,38,35,47,26,38,24,24,29,14,18,14,11,9,0.9,1.3
2025-12-30T1500,2588A,105.31,27.2944,毕节市,师专,,28,27,39,19,31,28,28,37,15,18,15,10,8,0.8,0.9
2025-12-30T1500,4263A,105.3688,27.3598,毕节市,工业大道,,25,20,35,17,31,34,34,34,16,14,14,10,10,0.6,0.9
2025-12-30T1500,1629A,118.0018,37.3617,滨州市,第二水厂,颗粒物(PM10),63,75,107,39,61,34,34,31,31,44,51,12,12,0.5,0.8
2025-12-30T1500,1630A,117.9776,37.393,滨州市,北中新校,细颗粒物(PM2.5),64,66,97,46,65,33,33,28,28,49,53,8,9,0.5,0.8
2025-12-30T1500,3514A,117.9378,37.3956,滨州市,中海酒店,细颗粒物(PM2.5),67,63,96,48,69,46,46,40,40,36,41,10,10,0.6,0.9
2025-12-30T1500,3515A,117.9378,37.3553,滨州市,开发区一中,颗粒物(PM10),63,75,112,41,78,37,37,31,31,36,46,12,15,0.5,1
2025-12-30T1500,3516A,118.0917,37.694,滨州市,金海六路,细颗粒物(PM2.5),58,63,74,41,41,56,56,35,35,32,45,15,15,0.9,0.7
2025-12-30T1500,4028A,117.9956,37.3753,滨州市,滨州市西街道办事处,,,66,99,51,74,38,38,8,,39,48,12,11,,0.8
2025-12-30T1500,2311A,115.8072,33.8399,亳州市,污水处理厂,细颗粒物(PM2.5),105,106,172,79,146,105,105,62,62,,47,6,10,0.5,0.8
2025-12-30T1500,2312A,115.7789,33.8518,亳州市,三国揽胜宫,细颗粒物(PM2.5),89,122,197,66,136,101,101,63,63,23,42,3,6,0.8,1.1
2025-12-30T1500,3332A,115.7633,33.8034,亳州市,亳州学院,细颗粒物(PM2.5),109,107,169,82,136,108,108,71,71,22,34,4,5,0.6,0.9
2025-12-30T1500,2693A,82.0485,44.8556,博尔塔拉蒙古自治州,市党校,细颗粒物(PM2.5),83,100,94,61,52,39,39,40,37,26,20,8,4,0.9,0.9
2025-12-30T1500,2694A,82.0806,44.8969,博尔塔拉蒙古自治州,市环保局,细颗粒物(PM2.5),79,100,91,58,48,43,43,42,41,22,19,9,7,1.0,0.9
2025-12-30T1500,1071A,116.8842,38.2991,沧州市,沧县城建局,细颗粒物(PM2.5),53,48,100,37,76,52,52,30,30,25,57,6,3,0.8,0.9
2025-12-30T1500,1072A,116.8584,38.3254,沧州市,电视转播站,,48,48,93,22,63,51,51,30,30,27,50,6,6,0.8,0.9
2025-12-30T1500,1073A,116.8709,38.3228,沧州市,市环保局,颗粒物(PM10),52,54,95,30,70,45,45,28,28,21,45,7,6,0.6,0.7
2025-12-30T1500,3324A,116.8136,38.3004,沧州市,河北水利电力学院,,41,41,93,24,59,48,48,32,32,27,52,9,9,0.8,0.8
2025-12-30T1500,2622A,97.1806,31.1273,昌都市,昌都监测站,,32,32,56,7,19,62,62,46,46,14,26,3,4,0.4,0.8
2025-12-30T1500,3719A,97.1714,31.1406,昌都市,昌都会议中心,,19,18,19,8,12,58,58,47,47,11,11,5,5,0.4,0.5
2025-12-30T1500,2690A,88.1236,43.8886,昌吉回族自治州,天山天池,,,,,,,,,,,,,,,,
2025-12-30T1500,2692A,87.2717,44.0297,昌吉回族自治州,新区政务中心,细颗粒物(PM2.5),83,90,90,61,59,41,41,33,28,20,30,6,6,0.9,1
2025-12-30T1500,3613A,87.3095,44.0142,昌吉回族自治州,亚心广场,细颗粒物(PM2.5),98,90,93,73,69,42,42,32,28,11,23,7,7,1.1,1.2
2025-12-30T1500,1120A,125.2863,43.9027,长春市,客车厂,,22,21,28,15,18,49,49,44,44,9,19,6,8,0.3,0.4
2025-12-30T1500,1121A,125.2841,43.8463,长春市,邮电学院,,20,14,28,14,17,46,46,41,41,6,14,8,10,0.3,0.4
2025-12-30T1500,1122A,125.3716,43.8772,长春市,劳动公园,,16,16,27,9,14,47,47,42,42,10,17,8,9,0.6,0.3
2025-12-30T1500,1123A,125.3297,43.8805,长春市,园林处,,19,19,25,9,14,47,47,43,43,6,15,9,10,0.3,0.4
2025-12-30T1500,1124A,125.4605,43.79,长春市,净月潭,,19,19,25,9,16,49,49,43,43,5,15,7,6,0.2,0.3
2025-12-30T1500,1125A,125.7194,43.515,长春市,甩湾子,,19,19,27,10,21,52,52,49,49,4,10,5,5,0.3,0.6
2025-12-30T1500,1126A,125.3863,43.8447,长春市,经开区环卫处,,26,26,27,6,11,50,50,44,44,10,20,8,8,0.2,0.3
2025-12-30T1500,1127A,125.245,43.7783,长春市,高新区管委会,,17,15,26,7,17,53,53,48,48,4,15,7,6,0.3,0.3
2025-12-30T1500,1128A,125.1761,43.8325,长春市,岱山公园,,16,16,24,8,16,45,45,42,42,8,14,7,7,0.3,0.3
2025-12-30T1500,4281A,125.3346,43.9164,长春市,北亚泰大街1068号,,21,21,27,13,15,44,44,39,39,11,20,8,11,0.4,0.4
2025-12-30T1500,1335A,113.0833,28.2325,长沙市,经开区环保局,细颗粒物(PM2.5),175,169,141,132,128,52,52,29,29,27,31,6,7,0.8,0.8
2025-12-30T1500,1336A,112.8872,28.2189,长沙市,高开区环保局,细颗粒物(PM2.5),185,164,138,139,135,59,59,34,34,17,19,9,7,1.1,1.1
2025-12-30T1500,1337A,113.0792,28.2053,长沙市,马坡岭,细颗粒物(PM2.5),163,155,138,124,115,62,62,33,33,32,36,7,7,0.7,0.7
2025-12-30T1500,1338A,112.9394,28.19,长沙市,湖南师范大学,细颗粒物(PM2.5),169,175,147,128,109,65,65,43,43,34,32,6,5,0.9,0.9
2025-12-30T1500,1339A,113.0178,28.1322,长沙市,雨花区环保局,细颗粒物(PM2.5),144,134,132,110,129,67,67,37,37,28,32,10,10,0.9,0.9
2025-12-30T1500,1340A,112.9792,28.2597,长沙市,伍家岭,细颗粒物(PM2.5),166,172,151,126,122,58,58,36,36,34,33,8,8,0.6,0.6
2025-12-30T1500,1341A,113.0014,28.1944,长沙市,火车新站,细颗粒物(PM2.5),160,172,148,122,108,68,68,41,41,22,24,10,11,0.8,0.8
2025-12-30T1500,1342A,112.9844,28.1178,长沙市,天心区环保局,细颗粒物(PM2.5),158,155,140,120,109,77,77,44,44,28,31,10,10,0.7,0.7
2025-12-30T1500,1343A,112.8908,28.1308,长沙市,湖南中医药大学,细颗粒物(PM2.5),185,167,144,139,123,73,73,48,48,26,28,9,8,1.0,1
2025-12-30T1500,1344A,112.9581,28.3611,长沙市,沙坪,,,,,,,,,,,,,,,,
2025-12-30T1500,1727A,113.1147,36.1547,长治市,清华站,细颗粒物(PM2.5),89,89,67,66,49,90,90,38,38,25,39,18,16,0.9,0.9
2025-12-30T1500,1730A,113.0886,36.2125,长治市,审计局,细颗粒物(PM2.5),83,72,65,61,48,90,90,36,36,22,38,15,17,1.1,1
2025-12-30T1500,1731A,113.0844,36.1856,长治市,长治八中,细颗粒物(PM2.5),103,102,89,77,59,87,87,36,36,20,36,17,18,1.0,0.9
2025-12-30T1500,2845A,113.1569,36.1911,长治市,德盛苑,细颗粒物(PM2.5),79,72,58,58,50,94,94,63,49,9,20,13,15,1.0,0.9
2025-12-30T1500,3568A,113.06,36.0464,长治市,向阳小学,细颗粒物(PM2.5),77,101,98,56,59,84,84,51,49,37,35,18,17,0.9,0.9
2025-12-30T1500,3569A,112.8792,36.3144,长治市,屯留一中,细颗粒物(PM2.5),98,,56,73,36,98,98,47,47,21,46,10,22,0.4,0.7
2025-12-30T1500,4189A,113.1131,36.19948,长治市,英华南巷50号,细颗粒物(PM2.5),85,91,75,63,58,90,90,38,38,15,35,13,15,1.1,1.1
2025-12-30T1500,4190A,113.2367,36.3344,长治市,学府街1号,细颗粒物(PM2.5),87,,81,64,63,92,92,51,51,18,49,14,17,1.0,1.3
2025-12-30T1500,1854A,111.6975,28.9703,常德市,市二中,细颗粒物(PM2.5),147,129,150,112,118,114,114,61,61,16,32,12,7,0.7,1
2025-12-30T1500,1857A,111.7158,29.1456,常德市,白鹤山,,,,,,,,,,,,,,,,
2025-12-30T1500,3138A,111.7153,29.0289,常德市,武陵区永安,细颗粒物(PM2.5),138,136,149,105,117,109,109,68,68,18,29,17,8,0.9,1.1
2025-12-30T1500,3139A,111.6892,28.9881,常德市,鼎城区玉霞,细颗粒物(PM2.5),140,123,154,107,130,113,113,57,57,19,39,16,10,0.8,1.1
2025-12-30T1500,3140A,111.6625,29.0531,常德市,武陵区长庚,细颗粒物(PM2.5),135,130,156,103,122,111,111,60,60,18,29,20,9,0.7,0.9
2025-12-30T1500,1196A,119.9633,31.762,常州市,市监测站,细颗粒物(PM2.5),75,78,162,55,106,101,101,72,72,24,42,6,7,0.7,0.9
2025-12-30T1500,1200A,119.9468,31.7069,常州市,武进监测站,细颗粒物(PM2.5),73,80,148,53,100,101,101,70,70,24,41,9,11,0.4,0.6
2025-12-30T1500,1201A,119.9255,31.9087,常州市,安家,细颗粒物(PM2.5),84,89,166,62,103,80,80,59,59,32,51,16,14,1.4,1.4
2025-12-30T1500,3002A,119.9805,31.8174,常州市,行政中心,细颗粒物(PM2.5),85,100,145,63,104,87,87,71,71,32,37,9,8,0.9,0.9
2025-12-30T1500,3003A,120.0522,31.7748,常州市,经开区,细颗粒物(PM2.5),69,77,170,50,104,98,98,63,63,21,47,5,4,0.5,0.8
2025-12-30T1500,3010A,119.9025,31.7964,常州市,钟楼,细颗粒物(PM2.5),85,94,139,63,102,89,89,75,75,31,35,10,8,0.7,0.6
2025-12-30T1500,3429A,119.8598,31.7066,常州市,武进经发区,细颗粒物(PM2.5),80,85,142,59,110,104,104,67,67,21,49,9,10,0.8,1
2025-12-30T1500,3430A,119.5826,31.7245,常州市,金坛城区,细颗粒物(PM2.5),98,97,144,73,112,94,94,68,68,26,31,10,9,1.1,1
2025-12-30T1500,2220A,120.4318,41.5881,朝阳市,西梁,,34,34,54,3,28,55,55,36,36,7,31,4,9,0.4,0.9
2025-12-30T1500,2221A,120.4521,41.5646,朝阳市,河畔小区,,28,28,45,3,27,58,58,36,36,8,29,6,8,0.3,0.7
2025-12-30T1500,2222A,120.4176,41.5648,朝阳市,八里堡,,30,30,48,3,26,56,56,37,37,7,32,6,9,0.3,0.8
2025-12-30T1500,2223A,120.3806,41.5969,朝阳市,农业园区,,21,17,36,3,24,66,66,49,49,5,26,6,9,0.3,0.7
2025-12-30T1500,1705A,116.6367,23.6719,潮州市,西园路,,,,,,,,,,,,,,,,
2025-12-30T1500,3026A,116.6183,23.6608,潮州市,市政府,颗粒物(PM10),54,57,61,25,36,144,144,90,90,10,26,7,13,0.4,0.6
2025-12-30T1500,4036A,116.6461,23.6761,潮州市,金山,,46,38,46,32,33,144,144,87,87,11,15,5,4,0.4,0.4
2025-12-30T1500,2472A,113.0073,25.9061,郴州市,马头岭,,,,,,,,,,,,,,,,
2025-12-30T1500,2473A,113.0116,25.8226,郴州市,市职中,细颗粒物(PM2.5),84,70,72,62,59,118,118,57,57,9,26,10,10,0.7,0.8
2025-12-30T1500,2475A,113.0383,25.8071,郴州市,市审计局,细颗粒物(PM2.5),84,82,78,62,60,120,120,61,61,11,30,7,7,0.7,0.9
2025-12-30T1500,2476A,113.0348,25.7759,郴州市,市环保局,细颗粒物(PM2.5),79,85,86,58,62,109,109,53,53,19,40,9,7,0.7,0.8
2025-12-30T1500,4252A,113.0138,25.8011,郴州市,好美居路49号,细颗粒物(PM2.5),88,75,70,65,62,121,121,70,70,18,32,8,11,0.5,0.5
2025-12-30T1500,1431A,103.9728,30.7236,成都市,金泉两河,细颗粒物(PM2.5),135,135,121,103,98,2,2,2,2,60,44,2,2,1.1,1.1
2025-12-30T1500,1432A,104.176,30.6872,成都市,十里店,细颗粒物(PM2.5),145,140,128,111,92,20,20,8,8,49,49,4,4,0.7,0.7
2025-12-30T1500,1433A,104.079,30.5706,成都市,三瓦窑,细颗粒物(PM2.5),196,156,144,147,120,15,15,4,4,41,49,4,5,1.1,1.2
2025-12-30T1500,1434A,104.1114,30.63,成都市,沙河铺,细颗粒物(PM2.5),176,164,140,133,116,3,3,3,2,70,50,5,5,1.1,1
2025-12-30T1500,1437A,104.0786,30.6531,成都市,君平街,细颗粒物(PM2.5),183,173,161,138,125,2,2,4,4,69,53,5,6,1.4,1.1
2025-12-30T1500,1438A,103.613,31.0283,成都市,灵岩寺,,,,,,,,,,,,,,,,
2025-12-30T1500,2880A,104.0239,30.65639,成都市,大石西路,细颗粒物(PM2.5),198,161,143,148,114,1,1,2,2,63,50,5,5,1.2,1
2025-12-30T1500,3136A,104.2725,30.5589,成都市,龙泉驿区区政府,细颗粒物(PM2.5),107,102,93,80,72,25,25,17,17,19,21,6,6,0.6,0.6
2025-12-30T1500,3357A,104.0106,30.6931,成都市,金博路,细颗粒物(PM2.5),125,132,124,95,93,0,0,2,2,70,50,5,5,1.3,1.1
2025-12-30T1500,3359A,104.0578,30.5225,成都市,华阳,细颗粒物(PM2.5),138,144,130,105,96,34,34,10,10,30,48,3,4,0.7,0.9
2025-12-30T1500,3488A,104.3880,30.7467,成都市,青石路225号,细颗粒物(PM2.5),130,113,113,99,96,54,54,18,18,16,32,6,5,0.6,0.6
2025-12-30T1500,3489A,104.0789,30.4072,成都市,科学城,细颗粒物(PM2.5),112,107,113,84,88,50,50,14,14,18,32,6,6,0.7,0.8
2025-12-30T1500,4011A,103.8506,30.6947,成都市,光华大道三段,细颗粒物(PM2.5),166,157,109,126,86,23,23,12,12,35,34,4,3,0.9,1
2025-12-30T1500,4224A,104.2433,30.5353,成都市,鲸龙路1057号,细颗粒物(PM2.5),128,122,112,97,91,39,39,20,20,25,38,6,6,0.9,0.9
2025-12-30T1500,1062A,117.9531,40.9081,承德市,铁路,,31,31,49,3,23,65,65,42,42,4,28,2,5,0.2,0.7
2025-12-30T1500,1063A,117.9392,40.9763,承德市,中国银行,,20,10,44,3,19,63,63,46,46,2,24,2,2,0.2,0.5
2025-12-30T1500,1064A,117.9503,40.928,承德市,开发区,,27,27,55,7,26,68,68,44,44,5,34,3,5,0.2,0.6
2025-12-30T1500,1066A,117.9268,41.0026,承德市,离宫,,,,,,,,,,,,,,,,
2025-12-30T1500,4274A,117.7994,40.9605,承德市,滨河大街98号,,21,21,33,3,16,67,67,53,53,2,19,2,4,0.2,0.4
2025-12-30T1500,2314A,117.47,30.6618,池州市,池州学院,细颗粒物(PM2.5),211,180,131,161,108,104,104,60,60,33,46,7,7,1.0,0.8
2025-12-30T1500,3237A,117.4918,30.6617,池州市,展览馆,细颗粒物(PM2.5),193,187,126,145,95,111,111,65,65,33,43,5,4,1.1,1
2025-12-30T1500,3333A,117.5627,30.695,池州市,第八中学,细颗粒物(PM2.5),170,156,126,129,94,114,114,62,62,29,49,5,5,1.4,1.2
2025-12-30T1500,3334A,117.5038,30.6243,池州市,第十二中学,细颗粒物(PM2.5),179,163,125,135,95,125,125,72,72,28,42,6,6,1.4,1.2
2025-12-30T1500,1744A,118.9233,42.2816,赤峰市,松山一中,,25,25,21,3,6,56,56,51,51,6,20,4,6,0.4,0.6
2025-12-30T1500,1745A,118.9576,42.2728,赤峰市,哈达街,,28,28,18,10,10,60,60,57,57,9,17,5,7,0.4,0.5
2025-12-30T1500,1746A,118.8788,42.2554,赤峰市,天义路,,24,24,16,8,10,55,55,51,50,5,18,6,10,0.5,0.7
2025-12-30T1500,3058A,119.2658,42.0353,赤峰市,银河街,,20,18,26,3,11,63,63,65,65,2,10,11,12,0.5,0.7
2025-12-30T1500,3286A,118.9359,42.3147,赤峰市,桥北物流园区,,19,12,18,8,12,58,58,48,48,5,21,4,5,0.2,0.3
2025-12-30T1500,2521A,107.3476,22.4136,崇左市,市环保局江州分局,细颗粒物(PM2.5),75,81,81,55,51,106,106,67,67,13,27,10,10,0.8,0.8
2025-12-30T1500,4256A,107.3750,22.3736,崇左市,石景林东路7号,细颗粒物(PM2.5),77,77,66,56,57,101,101,75,75,15,27,10,9,0.7,0.7
2025-12-30T1500,2298A,118.3093,32.3153,滁州市,老年大学,细颗粒物(PM2.5),82,82,130,60,103,106,106,75,75,15,25,6,6,0.6,0.8
2025-12-30T1500,2299A,118.3244,32.2786,滁州市,人大宾馆,细颗粒物(PM2.5),80,84,133,59,117,106,106,73,73,16,32,9,7,0.7,0.8
2025-12-30T1500,3207A,118.3118,32.3038,滁州市,市政府原办公楼,细颗粒物(PM2.5),74,89,133,54,104,112,112,77,77,14,29,7,6,0.4,0.6
2025-12-30T1500,3331A,118.3267,32.2634,滁州市,图书馆,颗粒物(PM10),73,96,130,51,100,110,110,77,77,16,27,10,9,0.5,0.7
2025-12-30T1500,2605A,101.5482,25.0441,楚雄彝族自治州,州环境监测站,,18,18,26,9,19,56,56,31,31,6,21,5,9,0.5,0.6
2025-12-30T1500,2606A,101.538,25.0492,楚雄彝族自治州,市经济开发区,,,16,26,10,17,63,63,5,,,18,4,7,0.5,0.6
2025-12-30T1500,2548A,107.5277,31.2827,达州市,达州职业技术学院,,,,,,,,,,,,,,,,
2025-12-30T1500,2549A,107.5086,31.2186,达州市,市环境监测站,细颗粒物(PM2.5),138,133,128,105,102,5,5,4,4,48,36,23,12,0.9,0.9
2025-12-30T1500,2550A,107.4988,31.2132,达州市,凤凰小区,细颗粒物(PM2.5),140,141,134,107,101,6,6,5,5,46,35,18,12,0.9,0.9
2025-12-30T1500,2551A,107.5082,31.1986,达州市,达县机关宾馆,细颗粒物(PM2.5),129,127,138,98,98,6,6,5,5,45,35,20,11,1.0,1
2025-12-30T1500,2552A,107.4644,31.2124,达州市,市政中心,细颗粒物(PM2.5),149,162,146,114,99,6,6,5,5,51,39,17,11,1.2,1.1
2025-12-30T1500,2614A,100.1542,25.7054,大理白族自治州,大理市环境监测站,,22,14,18,13,21,70,70,62,62,8,8,6,6,0.6,0.6
2025-12-30T1500,2615A,100.2171,25.5811,大理白族自治州,大理古城,,29,29,26,3,12,83,83,67,67,2,8,8,8,0.3,0.4
2025-12-30T1500,1109A,121.612,38.9741,大连市,甘井子,,36,36,40,15,23,66,66,44,44,15,37,12,11,0.5,0.6
2025-12-30T1500,1110A,121.565,38.9511,大连市,周水子,,35,35,39,20,25,55,55,37,37,25,51,12,14,0.6,0.6
2025-12-30T1500,1111A,121.5637,38.8845,大连市,星海三站,,30,30,32,17,23,57,57,38,38,21,30,10,6,0.7,0.7
2025-12-30T1500,1112A,121.6302,38.9117,大连市,青泥洼桥,,23,23,31,14,20,56,56,38,38,21,36,11,9,0.5,0.6
2025-12-30T1500,1113A,121.6251,38.8638,大连市,傅家庄,,25,25,29,12,17,55,55,47,41,17,25,12,11,0.5,0.5
2025-12-30T1500,1114A,121.5213,38.8661,大连市,七贤岭,,30,30,30,16,18,57,57,41,41,24,30,11,10,0.7,0.7
2025-12-30T1500,1115A,121.2529,38.8061,大连市,旅顺,,21,21,31,11,21,62,62,53,46,12,18,11,10,0.5,0.5
2025-12-30T1500,1116A,121.7485,39.1311,大连市,金州,,29,29,32,14,19,64,64,63,53,17,20,11,11,0.4,0.5
2025-12-30T1500,1117A,121.7811,39.0496,大连市,开发区,,26,26,34,11,21,57,57,43,43,13,30,8,8,0.5,0.7
2025-12-30T1500,1118A,121.9762,39.0631,大连市,双D港,,29,29,25,10,13,73,73,65,60,12,14,12,11,0.4,0.5
2025-12-30T1500,1789A,124.81117,46.03138,大庆市,大同区,,32,32,28,13,12,49,49,44,44,4,14,6,5,0.3,0.3
2025-12-30T1500,1790A,125.129,46.533,大庆市,龙凤区,,25,25,34,17,24,44,44,40,40,13,22,7,11,0.6,0.7
2025-12-30T1500,1791A,124.902,46.408,大庆市,红岗区,,,79,31,9,17,77,77,41,41,12,19,7,6,,0.6
2025-12-30T1500,1792A,125.153,46.586,大庆市,萨尔图区,,17,17,24,8,9,44,44,50,42,15,14,10,8,0.6,0.6
2025-12-30T1500,1793A,124.9042,46.6215,大庆市,让胡路区,,28,28,26,19,22,47,47,48,45,4,7,8,8,0.3,0.3
2025-12-30T1500,3481A,125.141,46.634,大庆市,萨区政府监测点,,33,33,23,17,8,45,45,40,40,6,13,8,9,0.5,0.6
2025-12-30T1500,1721A,113.3819,40.1097,大同市,果树场,,,,34,17,27,,,63,63,6,28,6,10,0.3,0.6
2025-12-30T1500,1723A,113.2994,40.0758,大同市,云冈宾馆,,,8,41,8,20,65,65,53,53,7,28,,7,0.3,1.1
2025-12-30T1500,1724A,113.3444,40.0917,大同市,大同大学,,24,9,40,3,22,74,74,60,60,5,23,3,8,0.2,0.8
2025-12-30T1500,1725A,113.2661,40.1269,大同市,安家小村,,22,,39,6,20,69,69,57,57,9,25,8,12,0.4,0.7
2025-12-30T1500,1726A,113.2711,40.0844,大同市,教育学院,,,,43,,20,66,66,57,57,,31,4,7,0.3,0.5
2025-12-30T1500,3282A,113.3397,40.0597,大同市,大同市卫生学校,,23,6,39,3,19,72,72,61,61,7,27,3,7,0.3,0.8
2025-12-30T1500,3565A,113.1367,40.1122,大同市,云冈站,,22,13,45,12,23,68,68,48,48,6,32,6,8,0.4,0.6
2025-12-30T1500,3566A,113.1186,40.2556,大同市,图书馆,,22,22,73,6,36,62,62,42,42,9,18,6,5,0.6,1
2025-12-30T1500,3567A,113.5931,40.0461,大同市,区一中,,24,19,52,3,31,76,76,68,68,11,24,6,14,0.4,0.8
2025-12-30T1500,4199A,113.2798,40.0997,大同市,魏都大道141号,,23,10,51,8,23,72,72,63,63,7,30,3,7,0.4,1
2025-12-30T1500,2269A,124.1069,50.4097,大兴安岭地区,科技局,,23,21,18,16,18,38,38,40,38,2,2,4,5,0.3,0.2
2025-12-30T1500,3663A,124.1164,50.4278,大兴安岭地区,红旗社区,,14,6,6,3,4,44,44,46,42,2,2,2,2,0.3,0.3
2025-12-30T1500,1600A,124.3303,40.0625,丹东市,江湾东路,,20,20,34,12,25,61,61,42,42,10,24,8,12,0.4,1
2025-12-30T1500,1601A,124.4256,40.1503,丹东市,临江后街,,20,15,31,6,16,63,63,43,43,8,23,5,12,0.3,0.8
2025-12-30T1500,1602A,124.3933,40.1461,丹东市,元宝山,,20,17,24,7,15,63,63,54,54,9,15,9,13,0.3,0.6
2025-12-30T1500,1603A,124.3633,40.1092,丹东市,民主桥,,24,24,36,3,16,64,64,47,47,9,29,7,8,0.2,0.6
2025-12-30T1500,3541A,109.5726,19.5167,儋州市,第一中学子站,,24,15,29,8,16,75,75,80,79,9,9,3,4,0.4,0.5
2025-12-30T1500,3542A,109.5567,19.5187,儋州市,东坡学校子站,,27,15,29,9,16,85,85,89,89,2,5,5,5,0.3,0.4
2025-12-30T1500,2616A,98.5842,24.428,德宏傣族景颇族自治州,德宏州监测站,,39,37,43,27,32,85,85,40,40,9,20,8,6,0.5,0.6
2025-12-30T1500,3677A,98.5881,24.4368,德宏傣族景颇族自治州,芒市人民政府综合楼,,,53,42,32,26,78,78,38,38,13,15,10,8,,0.7
2025-12-30T1500,1901A,104.4239,31.1208,德阳市,东山公园,细颗粒物(PM2.5),138,119,107,105,90,36,36,29,26,20,34,3,3,0.9,0.9
2025-12-30T1500,1902A,104.3826,31.1317,德阳市,西小区,细颗粒物(PM2.5),148,139,130,113,96,30,30,14,14,27,46,3,3,1.0,1.1
2025-12-30T1500,1904A,104.3553,31.1091,德阳市,耐火材料厂,细颗粒物(PM2.5),163,131,122,124,99,16,16,4,4,38,51,3,3,1.1,1.1
2025-12-30T1500,3639A,104.4019,31.1244,德阳市,市教育局,细颗粒物(PM2.5),144,113,102,110,91,30,30,13,13,27,44,4,4,1.0,1
2025-12-30T1500,1622A,116.3032,37.4674,德州市,儿童乐园,,41,41,140,14,99,54,54,30,30,24,55,10,17,0.8,1.5
2025-12-30T1500,1624A,116.2991,37.4451,德州市,监理站,,39,39,135,9,98,64,64,42,42,28,56,11,19,0.5,1.2
2025-12-30T1500,3066A,116.2721,37.4379,德州市,九衢泉纯净水厂,,44,44,139,14,99,59,59,34,34,24,61,8,18,0.4,1.1
2025-12-30T1500,3371A,116.3728,37.4403,德州市,开发区人民医院,,,44,142,,100,60,60,35,35,25,64,10,19,0.6,1.2
2025-12-30T1500,3511A,116.5652,37.3319,德州市,陵城艺术中心,,,,173,,130,54,54,27,27,38,74,14,23,0.4,1.4
2025-12-30T1500,4292A,116.3525,37.4209,德州市,新河东路,,44,44,134,12,101,60,60,35,35,31,72,10,17,1.2,1.4
2025-12-30T1500,2621A,99.7056,27.8317,迪庆藏族自治州,迪庆州站,,19,,28,11,19,60,60,45,45,7,12,5,5,0.3,0.5
2025-12-30T1500,3180A,99.7136,27.8094,迪庆藏族自治州,质量技术监督局,,25,25,25,7,13,69,69,50,50,6,12,6,8,0.4,0.5
2025-12-30T1500,4257A,104.6092,35.5962,定西市,将台街,颗粒物(PM10),53,55,82,36,59,73,73,33,33,9,38,13,17,0.6,1
2025-12-30T1500,4309A,104.6159,35.5701,定西市,正龙路62号,颗粒物(PM10),54,57,83,33,56,72,72,37,37,4,15,12,12,0.4,1
2025-12-30T1500,1389A,113.7547,23.0494,东莞市,莞城梨川,,50,44,77,27,47,160,160,89,89,19,56,6,8,0.7,0.9
2025-12-30T1500,1390A,113.7944,23.0128,东莞市,东城石井,,49,40,66,27,45,154,154,82,82,26,51,12,10,0.8,1
2025-12-30T1500,1391A,113.7383,22.9658,东莞市,南城西平,,47,32,89,26,57,150,150,82,82,21,67,11,11,0.7,0.9
2025-12-30T1500,3319A,113.7338,23.0381,东莞市,万江金泰,,49,46,88,33,53,156,156,89,89,18,61,8,9,0.7,1
2025-12-30T1500,3626A,113.7533,23.0202,东莞市,南城元岭,臭氧1小时,72,43,74,38,46,177,177,94,94,23,67,8,10,0.7,1.1
2025-12-30T1500,3627A,113.7875,23.0457,东莞市,东城主山,,50,46,84,28,53,157,157,90,90,21,67,8,9,0.5,0.7
2025-12-30T1500,1666A,118.6614,37.4309,东营市,市环保局,细颗粒物(PM2.5),110,114,53,83,32,54,54,44,44,40,35,12,19,0.9,0.6
2025-12-30T1500,3036A,118.6904,37.4338,东营市,开发区管委会,细颗粒物(PM2.5),110,115,51,83,30,62,62,54,54,37,30,13,16,1.0,0.7
2025-12-30T1500,3365A,118.5719,37.565,东营市,垦利区民丰路,细颗粒物(PM2.5),83,88,55,61,30,43,43,36,36,44,41,7,8,1.3,0.7
2025-12-30T1500,3498A,118.5055,37.8612,东营市,河口城区,,34,34,59,17,32,65,65,38,38,22,38,7,7,0.5,0.7
2025-12-30T1500,3646A,118.4978,37.4623,东营市,胜利站,细颗粒物(PM2.5),85,114,60,63,31,38,38,39,39,53,41,14,13,1.1,0.8
2025-12-30T1500,3734A,118.35,37.26,东营市,理想之城,细颗粒物(PM2.5),110,117,63,83,40,30,30,29,29,49,43,6,6,1.0,0.7
2025-12-30T1500,1591A,110.0023,39.8129,鄂尔多斯市,综合楼,,34,34,32,17,16,64,64,50,45,12,26,7,8,0.5,0.5
2025-12-30T1500,1592A,109.9486,39.8261,鄂尔多斯市,巴音孟克林场办事处,,46,46,37,22,19,58,58,50,47,18,27,8,9,0.4,0.5
2025-12-30T1500,1593A,109.7736,39.5986,鄂尔多斯市,康泽苑,,27,27,27,17,17,72,72,47,47,10,19,8,7,0.3,0.4
2025-12-30T1500,1594A,109.8119,39.5989,鄂尔多斯市,华泰汽车城,,29,29,32,12,13,67,67,38,38,16,28,7,4,0.4,0.6
2025-12-30T1500,1595A,109.9734,39.7884,鄂尔多斯市,奥林花园,,48,48,36,19,15,60,60,54,50,17,23,6,6,0.5,0.5
2025-12-30T1500,2436A,114.8938,30.3994,鄂州市,市政府,细颗粒物(PM2.5),85,83,102,63,89,109,109,52,52,26,48,8,6,0.8,0.9
2025-12-30T1500,2437A,114.8989,30.3714,鄂州市,赵家坝,细颗粒物(PM2.5),95,102,106,71,84,101,101,46,46,22,36,12,8,1.0,1
2025-12-30T1500,3654A,114.8094,30.4089,鄂州市,精准医疗中心,细颗粒物(PM2.5),102,84,99,76,86,120,120,68,68,23,33,4,5,0.8,0.8
2025-12-30T1500,2454A,109.4978,30.2981,恩施土家族苗族自治州,湖北民院,细颗粒物(PM2.5),134,103,92,102,98,30,30,12,12,28,21,6,6,1.4,1.4
2025-12-30T1500,2455A,109.4707,30.2798,恩施土家族苗族自治州,州电力总公司,细颗粒物(PM2.5),124,119,103,94,87,11,11,3,3,38,27,6,6,1.0,1.1
2025-12-30T1500,3549A,109.5061,30.3772,恩施土家族苗族自治州,龙凤新区,细颗粒物(PM2.5),143,145,117,109,89,9,9,3,3,30,19,7,6,1.1,1.2
2025-12-30T1500,2499A,108.3411,21.6158,防城港市,沙万,颗粒物(PM10),72,94,101,26,61,106,106,70,70,32,34,13,8,0.8,1
2025-12-30T1500,2500A,108.3514,21.7731,防城港市,防城档案局,细颗粒物(PM2.5),85,94,97,63,70,136,136,75,75,23,31,12,8,1.3,1.3
2025-12-30T1500,2501A,108.3506,21.6414,防城港市,大海花园,颗粒物(PM10),72,94,93,43,68,136,136,81,81,30,30,20,12,1.3,1.3
2025-12-30T1500,1371A,113.1294,23.0067,佛山市,湾梁,颗粒物(PM10),51,51,89,26,41,111,111,59,59,32,65,9,11,0.6,0.8
2025-12-30T1500,1372A,113.1083,23.0478,佛山市,华材职中,颗粒物(PM10),52,53,94,31,52,115,115,66,66,31,69,9,9,0.6,0.9
2025-12-30T1500,1373A,113.144,23.0453,佛山市,南海气象局,细颗粒物(PM2.5),54,47,81,38,48,110,110,57,57,30,69,10,13,0.7,0.9
2025-12-30T1500,1374A,113.2881,22.8094,佛山市,顺德苏岗,,42,42,82,27,60,108,108,53,53,28,74,10,10,0.7,1
2025-12-30T1500,1376A,112.8383,22.8678,佛山市,高明孔堂,细颗粒物(PM2.5),58,48,65,41,49,128,128,76,76,24,27,8,7,0.6,0.7
2025-12-30T1500,1377A,112.8836,23.1588,佛山市,三水监测站,,46,44,77,32,47,111,111,58,58,18,58,6,8,0.7,0.9
2025-12-30T1500,1378A,112.867,23.185,佛山市,三水云东海,颗粒物(PM10),51,51,69,29,42,116,116,62,62,19,52,7,7,0.5,0.6
2025-12-30T1500,3625A,113.2544,22.7642,佛山市,容桂街道办,,,,110,,71,101,101,54,54,36,82,9,11,,1
2025-12-30T1500,1280A,119.3903,26.0543,福州市,鼓山,,,,21,,8,,,73,,,11,,2,,0.5
2025-12-30T1500,1282A,119.2681,26.0504,福州市,师大,,32,28,33,16,16,101,101,60,60,26,36,9,7,0.4,0.4
2025-12-30T1500,1283A,119.2984,26.1028,福州市,五四北路,,31,30,31,18,15,99,99,59,59,22,31,6,5,0.6,0.6
2025-12-30T1500,1284A,119.2648,26.0768,福州市,杨桥西路,,31,25,32,15,16,98,98,60,60,21,28,7,5,0.5,0.5
2025-12-30T1500,1285A,119.317,26.0746,福州市,紫阳,颗粒物(PM10),61,72,45,17,17,92,92,53,53,24,34,9,7,0.5,0.5
2025-12-30T1500,3048A,119.5799,26.0936,福州市,九龙,细颗粒物(PM2.5),67,54,26,48,13,144,144,85,85,19,19,7,6,0.5,0.5
2025-12-30T1500,3526A,119.5189,25.9664,福州市,吴航,颗粒物(PM10),60,69,34,37,15,141,141,78,78,18,30,6,6,0.5,0.5
2025-12-30T1500,1755A,123.7977,41.8491,抚顺市,望花区,,19,17,61,8,33,60,60,39,39,8,44,4,8,0.6,1.1
2025-12-30T1500,1756A,123.9161,41.8822,抚顺市,顺城区,,19,16,59,7,35,59,59,38,38,10,45,8,11,0.5,1
2025-12-30T1500,1757A,124.0436,41.8611,抚顺市,东洲区,,19,19,67,9,42,51,51,32,32,9,40,6,13,0.7,1.2
2025-12-30T1500,1758A,123.9247,41.8642,抚顺市,新抚区,,18,18,68,8,37,57,57,34,34,10,40,9,9,0.5,0.9
2025-12-30T1500,1759A,124.0972,41.8961,抚顺市,大伙房水库,,19,19,53,10,34,59,59,37,37,6,39,10,12,0.5,1
2025-12-30T1500,1760A,123.7086,41.8391,抚顺市,沈抚新城,,19,15,45,6,26,58,58,48,48,10,47,7,8,0.3,0.7
2025-12-30T1500,2376A,116.2127,28.0814,抚州市,桐源党溪,,,,,,,,,,,,,,,,
2025-12-30T1500,2377A,116.3544,27.9831,抚州市,市站,颗粒物(PM10),54,58,66,36,49,121,121,70,70,17,22,12,11,0.7,0.9
2025-12-30T1500,2378A,116.3565,27.963,抚州市,血防站,细颗粒物(PM2.5),59,56,68,42,51,131,131,80,80,18,25,11,12,1.1,1.2
2025-12-30T1500,2379A,116.3564,28.0007,抚州市,采茶剧团,颗粒物(PM10),54,58,67,32,50,131,131,79,79,10,18,12,12,1.1,1.2
2025-12-30T1500,2380A,116.385,27.9647,抚州市,医学分院,颗粒物(PM10),53,55,73,34,47,129,129,80,80,15,23,10,16,1.2,1.2
2025-12-30T1500,2207A,121.6094,41.998,阜新市,工业园区,,30,30,56,3,15,58,58,54,54,4,23,8,11,0.3,0.4
2025-12-30T1500,2208A,121.6697,42.0279,阜新市,长青街,,18,16,26,3,8,57,57,53,53,5,12,7,7,0.3,0.4
2025-12-30T1500,2209A,121.6673,42.0705,阜新市,农业园区,,23,23,26,3,6,52,52,52,52,5,8,6,10,0.3,0.3
2025-12-30T1500,2210A,121.6717,42.0224,阜新市,东苑,,32,32,35,7,10,55,55,52,52,4,10,4,4,0.3,0.4
2025-12-30T1500,2211A,121.6506,42.0498,阜新市,玉龙新城,,33,33,42,3,8,52,52,47,47,6,22,6,8,0.4,0.5
2025-12-30T1500,2301A,115.8277,32.8929,阜阳市,市监测站,细颗粒物(PM2.5),137,144,153,104,114,106,106,69,69,19,31,6,5,0.7,0.8
2025-12-30T1500,2303A,115.8554,32.8605,阜阳市,开发区,细颗粒物(PM2.5),138,127,148,105,108,103,103,65,65,17,28,7,6,0.6,0.7
2025-12-30T1500,2875A,115.784,32.8892,阜阳市,阜阳职业技术学院,细颗粒物(PM2.5),130,135,147,99,107,107,107,75,75,15,22,8,8,0.8,0.8
2025-12-30T1500,3468A,115.7901,32.8613,阜阳市,市规划展馆,细颗粒物(PM2.5),153,147,153,117,120,110,110,76,76,19,26,8,8,0.8,0.8
2025-12-30T1500,3469A,115.836,32.9183,阜阳市,枣园社区,细颗粒物(PM2.5),147,146,158,112,124,106,106,70,70,19,35,7,7,0.8,0.8
2025-12-30T1500,2669A,102.9099,34.9841,甘南藏族自治州,州政府,,29,24,51,20,27,79,79,43,43,7,33,10,12,0.3,0.8
2025-12-30T1500,3380A,102.8914,34.9617,甘南藏族自治州,甘肃民族师范学院,,25,22,61,3,21,80,80,43,43,9,33,4,8,0.7,1
2025-12-30T1500,2570A,101.9603,30.0475,甘孜藏族自治州,水桥子,,23,13,25,10,16,72,72,35,35,7,22,7,7,0.6,0.6
2025-12-30T1500,3065A,101.9533,29.9972,甘孜藏族自治州,州环保局,,,33,29,3,13,69,69,43,43,12,24,,6,0.5,0.6
2025-12-30T1500,3414A,115.8347,28.932,赣江新区,桑海产业园,细颗粒物(PM2.5),97,100,92,72,64,100,100,80,80,21,30,10,12,0.9,0.9
2025-12-30T1500,2362A,114.9017,25.9149,赣州市,通天岩,颗粒物(PM10),51,52,35,28,23,128,128,85,85,9,8,18,17,1.6,1.8
2025-12-30T1500,2363A,114.9367,25.8664,赣州市,地委,,46,46,59,32,33,106,106,70,70,10,36,9,8,0.7,0.8
2025-12-30T1500,2364A,114.9461,25.8481,赣州市,气象台,,,39,71,27,31,109,109,77,77,,50,7,7,0.5,0.9
2025-12-30T1500,2365A,114.9322,25.8333,赣州市,市图书馆,,37,37,62,24,33,95,95,68,68,12,47,5,5,0.9,1
2025-12-30T1500,2366A,114.8905,25.8471,赣州市,华坚鞋城,,37,37,60,23,30,96,96,55,55,10,45,7,8,0.4,0.6
2025-12-30T1500,3109A,115.0093,25.8613,赣州市,赣县区卫计委,细颗粒物(PM2.5),60,44,48,43,38,123,123,58,58,10,34,7,7,0.5,0.5
2025-12-30T1500,2683A,106.2319,36.1417,固原市,马园,,,,,,,,,,,,,,,,
2025-12-30T1500,2684A,106.2792,36.0022,固原市,监测站,,38,29,64,26,37,91,91,43,43,10,41,5,9,0.5,1.2
2025-12-30T1500,2685A,106.2375,36.0211,固原市,新区,,48,37,66,33,37,77,77,46,46,22,43,7,5,0.5,1
2025-12-30T1500,3522A,106.2177,35.9959,固原市,原州区十五小,颗粒物(PM10),57,63,60,36,34,71,71,50,50,18,26,7,9,0.6,0.8
2025-12-30T1500,2543A,106.6308,30.5278,广安市,小平旧居,,,,,,,,,,,,,,,,
2025-12-30T1500,2544A,106.6303,30.4576,广安市,市委,细颗粒物(PM2.5),137,114,113,104,100,17,17,12,12,23,29,4,4,1.0,1
2025-12-30T1500,2545A,106.6271,30.4663,广安市,友谊中学,细颗粒物(PM2.5),125,103,105,95,95,27,27,19,19,20,24,4,5,0.9,0.9
2025-12-30T1500,2547A,106.6388,30.4551,广安市,广电花园,细颗粒物(PM2.5),134,,95,102,97,17,17,12,11,20,24,8,9,0.8,0.8
2025-12-30T1500,2902A,106.6351,30.4865,广安市,北辰小学,细颗粒物(PM2.5),127,101,109,96,99,25,25,16,16,16,21,15,16,1.0,1
2025-12-30T1500,2523A,105.8945,32.4535,广元市,黑石坡,,,,,,,,,,,,,,,,
2025-12-30T1500,2524A,105.821,32.4444,广元市,老城,细颗粒物(PM2.5),112,102,85,84,62,8,8,7,7,57,47,20,13,1.5,1.1
2025-12-30T1500,2526A,105.8628,32.4287,广元市,监测站,细颗粒物(PM2.5),105,118,86,79,59,7,7,4,4,54,44,10,10,1.6,1.5
2025-12-30T1500,3617A,105.8047,32.4166,广元市,经开区,细颗粒物(PM2.5),132,155,91,100,68,2,2,1,1,56,46,70,14,2.1,1.3
2025-12-30T1500,1345A,113.2347,23.1423,广州市,广雅中学,颗粒物(PM10),54,58,99,29,54,98,98,47,47,18,67,8,6,0.9,1
2025-12-30T1500,1346A,113.2612,23.105,广州市,市五中,,35,32,74,19,50,111,111,60,60,18,69,9,12,0.6,0.9
2025-12-30T1500,1348A,113.3478,23.0916,广州市,广东商学院,,32,31,74,22,54,102,102,51,51,14,61,8,9,0.5,0.9
2025-12-30T1500,1349A,113.4332,23.1047,广州市,市八十六中,,35,28,63,17,45,112,112,56,56,14,70,9,10,0.8,1.1
2025-12-30T1500,1350A,113.3505,22.9483,广州市,番禺中学,,43,43,91,25,56,116,116,53,53,20,72,7,7,0.9,1.1
2025-12-30T1500,1351A,113.2146,23.3916,广州市,花都师范,,36,35,71,24,44,115,115,,,14,51,10,9,0.4,0.8
2025-12-30T1500,1352A,113.2597,23.1331,广州市,市监测站,,44,44,83,25,48,95,95,49,49,21,67,6,6,0.6,0.9
2025-12-30T1500,1353A,113.5618,23.312,广州市,九龙镇镇龙,,31,31,69,20,43,95,95,58,58,10,44,7,7,0.6,0.8
2025-12-30T1500,1354A,113.2765,23.1544,广州市,麓湖,,46,46,67,29,49,90,90,48,48,26,62,12,9,0.4,0.6
2025-12-30T1500,1355A,113.443,23.3035,广州市,帽峰山森林公园,,,,,,,,,,,,,,,,
2025-12-30T1500,2846A,113.3221,23.1322,广州市,体育西,,33,33,73,22,46,98,98,54,54,18,64,7,10,0.5,0.8
2025-12-30T1500,3298A,113.5717,23.5491,广州市,从化街口,,36,35,63,25,44,104,104,46,46,13,46,11,11,0.6,0.9
2025-12-30T1500,3299A,113.3472,23.3692,广州市,白云竹料,,39,39,79,23,47,116,116,53,53,17,49,9,8,0.6,1
2025-12-30T1500,3300A,113.2981,23.237,广州市,白云嘉禾,,48,48,99,28,57,119,119,53,53,20,69,10,8,0.7,1.1
2025-12-30T1500,3301A,113.4256,23.1716,广州市,黄埔科学城,,35,26,56,17,36,112,112,64,64,11,44,4,5,0.5,0.8
2025-12-30T1500,3302A,113.3942,23.0483,广州市,番禺大学城,,44,44,89,22,47,116,116,56,56,19,54,15,14,0.5,0.8
2025-12-30T1500,3303A,113.4922,22.8168,广州市,南沙黄阁,臭氧1小时,92,92,102,66,67,193,193,85,85,43,95,13,11,0.8,1.3
2025-12-30T1500,3304A,113.5342,22.7896,广州市,南沙街,臭氧1小时,92,87,94,50,60,193,193,78,78,36,73,10,10,0.7,0.9
2025-12-30T1500,3443A,113.2902,23.5544,广州市,花都梯面,,33,33,42,22,26,104,104,67,67,8,34,10,7,0.6,0.6
2025-12-30T1500,3445A,113.7858,23.7478,广州市,从化良口,,36,30,30,25,24,96,96,60,60,6,17,10,10,0.6,0.6
2025-12-30T1500,3446A,113.8051,23.2614,广州市,增城荔城,,,25,50,19,36,,,58,58,9,30,7,7,0.6,0.7
2025-12-30T1500,2505A,109.568,23.1478,贵港市,德智高中,,,,,,,,,,,,,,,,
2025-12-30T1500,2506A,109.6047,23.0666,贵港市,江南子站,,44,44,90,30,57,116,116,63,63,9,33,10,10,0.9,0.9
2025-12-30T1500,2508A,109.5669,23.1065,贵港市,荷城子站,,46,46,65,29,45,111,111,59,59,11,28,7,8,0.8,1.1
2025-12-30T1500,3405A,109.5886,23.1172,贵港市,新世纪学校,,46,46,68,29,46,119,119,68,68,15,28,11,7,0.5,0.6
2025-12-30T1500,4260A,109.5933,23.0951,贵港市,中山路155-3号,,50,44,70,35,54,123,123,72,72,12,30,7,8,0.7,0.8
2025-12-30T1500,1439A,106.6899,26.5998,贵阳市,马鞍山,细颗粒物(PM2.5),62,44,35,44,33,34,34,18,18,20,21,6,6,0.7,0.8
2025-12-30T1500,1441A,106.6243,26.6266,贵阳市,鉴湖路,,,,42,31,25,41,41,29,29,21,24,3,4,0.5,0.6
2025-12-30T1500,1442A,106.7487,26.6343,贵阳市,燕子冲,细颗粒物(PM2.5),52,36,37,36,36,34,34,24,24,22,19,10,6,0.7,0.7
2025-12-30T1500,1443A,106.6555,26.4365,贵阳市,碧云窝,,45,41,56,31,32,43,43,27,27,12,22,5,6,0.5,0.5
2025-12-30T1500,1445A,106.7109,26.6027,贵阳市,红边门,,,44,40,31,32,22,22,15,11,28,25,,10,0.8,0.7
2025-12-30T1500,1446A,106.7164,26.5699,贵阳市,新华路,颗粒物(PM10),51,51,49,34,31,29,29,20,18,22,21,10,7,0.6,0.6
2025-12-30T1500,1447A,106.674,26.5424,贵阳市,太慈桥,细颗粒物(PM2.5),67,68,45,48,31,33,33,18,18,20,25,7,6,0.4,0.4
2025-12-30T1500,1552A,106.805,26.3003,贵阳市,桐木岭,,34,34,43,19,33,54,54,52,52,4,7,9,9,1.2,1.2
2025-12-30T1500,4230A,106.6882,26.5695,贵阳市,花果园大街66号,细颗粒物(PM2.5),73,,36,53,31,32,32,18,18,21,23,2,3,0.2,0.2
2025-12-30T1500,4231A,106.6873,26.5169,贵阳市,漓江路57号,细颗粒物(PM2.5),62,51,48,44,35,33,33,15,15,21,28,10,9,0.8,0.9
2025-12-30T1500,1862A,110.4144,25.3167,桂林市,电子科大尧山校区,,,,,,,,,,,,,,,,
2025-12-30T1500,1864A,110.3089,25.2708,桂林市,龙隐路小学,细颗粒物(PM2.5),67,66,71,48,57,104,104,74,74,9,23,9,7,0.6,0.7
2025-12-30T1500,1865A,110.2869,25.2178,桂林市,八中,细颗粒物(PM2.5),72,67,81,52,59,105,105,64,64,16,44,10,8,0.5,0.7
2025-12-30T1500,3531A,110.296,25.1253,桂林市,旅游学院,,49,44,68,34,48,110,110,62,62,8,30,6,5,0.5,0.6
2025-12-30T1500,4222A,110.1835,25.2444,桂林市,环湖路276号,细颗粒物(PM2.5),58,56,76,41,51,99,99,56,56,14,42,8,7,0.4,0.6
2025-12-30T1500,4301A,110.2803,25.2773,桂林市,信义路13号,细颗粒物(PM2.5),62,66,77,44,53,105,105,77,77,14,33,8,6,0.7,0.8
2025-12-30T1500,2674A,100.2561,34.4714,果洛藏族自治州,玛沁县大武镇,,,,36,,10,68,68,44,44,,8,9,16,,0.4
2025-12-30T1500,1129A,126.5422,45.755,哈尔滨市,岭北,,,,,,,,,,,,,,,,
2025-12-30T1500,1130A,126.561,45.8167,哈尔滨市,松北商大,,26,26,26,16,13,38,38,32,32,17,19,12,10,0.4,0.4
2025-12-30T1500,1132A,126.599,45.7222,哈尔滨市,南岗学府路,,28,28,33,9,15,44,44,34,34,9,18,7,9,0.4,0.5
2025-12-30T1500,1133A,126.689,45.7733,哈尔滨市,太平宏伟公园,,27,27,25,15,13,48,48,42,42,7,12,12,20,0.5,0.6
2025-12-30T1500,1134A,126.635,45.7667,哈尔滨市,道外承德广场,,,35,41,14,13,47,47,42,42,,17,8,7,0.3,0.4
2025-12-30T1500,1136A,126.6411,45.7258,哈尔滨市,动力和平路,,28,28,33,13,12,45,45,38,38,10,20,10,12,0.4,0.6
2025-12-30T1500,1137A,126.593,45.7478,哈尔滨市,道里建国路,,23,20,28,16,15,41,41,38,38,11,14,5,7,0.5,0.4
2025-12-30T1500,1138A,126.615,45.61,哈尔滨市,平房东轻厂,细颗粒物(PM2.5),82,,37,60,20,38,38,16,,13,28,5,9,1.0,0.8
2025-12-30T1500,1139A,126.595,45.9855,哈尔滨市,呼兰师专,,40,28,32,28,25,36,36,34,34,13,17,6,8,0.6,0.6
2025-12-30T1500,1140A,126.6206,45.6842,哈尔滨市,省农科院,,28,28,39,17,23,43,43,35,35,12,29,10,12,0.5,0.6
2025-12-30T1500,4282A,126.6769,45.7379,哈尔滨市,华山路1号,,24,24,31,13,12,43,43,36,36,16,21,13,11,0.6,0.6
2025-12-30T1500,4283A,126.9717,45.5356,哈尔滨市,解放大街52号,,19,19,32,9,20,47,47,39,39,9,16,6,6,0.6,0.6
2025-12-30T1500,2688A,93.5128,42.8172,哈密市,地区监测站,颗粒物(PM10),57,63,69,34,47,56,56,45,45,12,25,12,7,0.0,0.1
2025-12-30T1500,2689A,93.4961,42.8328,哈密市,哈密师范学校,颗粒物(PM10),59,68,82,33,40,61,61,49,49,17,32,9,7,0.2,0.6
2025-12-30T1500,2671A,100.9048,36.9639,海北藏族自治州,海晏县西海镇,,29,,17,20,14,79,79,54,54,5,7,13,8,0.5,0.4
2025-12-30T1500,3867A,102.0738,36.5056,海东市,平安区公安北苑,,,,63,,38,48,48,33,33,42,27,33,24,1.7,1.3
2025-12-30T1500,1409A,110.576,19.9507,海口市,东寨港,,,,,,,,,,,,,,,,
2025-12-30T1500,1410A,110.3232,20.0574,海口市,海南大学,,39,18,30,12,20,122,122,111,111,7,10,6,6,0.3,0.3
2025-12-30T1500,1411A,110.283,20.0053,海口市,秀英海南医院,,33,22,34,9,21,104,104,98,98,7,13,7,8,0.3,0.4
2025-12-30T1500,1412A,110.338,19.9969,海口市,海南师范大学,,38,24,32,10,22,120,120,108,108,8,13,6,6,0.4,0.5
2025-12-30T1500,1413A,110.33,20.0356,海口市,龙华路环保局宿舍,,39,22,31,12,23,124,124,112,112,7,11,8,8,0.6,0.7
2025-12-30T1500,3539A,110.5111,19.9736,海口市,桂林洋子站,,34,13,35,10,25,106,106,94,94,6,11,8,8,0.3,0.4
2025-12-30T1500,2673A,100.6188,36.2866,海南藏族自治州,共和县恰卜恰镇,,46,,31,32,14,63,63,37,37,6,22,12,12,0.3,0.7
2025-12-30T1500,2676A,97.3731,37.3753,海西蒙古族藏族自治州,德令哈市,,25,25,21,7,10,72,72,71,67,9,7,13,11,0.8,0.7
2025-12-30T1500,1048A,114.5302,36.6116,邯郸市,东污水处理厂,细颗粒物(PM2.5),105,,109,79,97,56,56,36,36,28,51,9,7,0.8,0.9
2025-12-30T1500,1049A,114.4918,36.5713,邯郸市,矿院,细颗粒物(PM2.5),94,,103,70,100,60,60,36,36,37,54,8,6,0.7,0.9
2025-12-30T1500,1050A,114.484,36.6133,邯郸市,丛台公园,细颗粒物(PM2.5),94,78,114,70,93,61,61,38,38,31,47,9,7,0.6,0.9
2025-12-30T1500,3458A,114.7895,36.5593,邯郸市,香泉濮院小区,细颗粒物(PM2.5),138,131,122,105,99,60,60,34,34,40,51,8,9,0.9,1
2025-12-30T1500,3579A,114.50634,36.77178,邯郸市,永年区实验高中,细颗粒物(PM2.5),72,80,116,52,71,53,53,30,30,39,56,8,7,0.7,1.1
2025-12-30T1500,3580A,114.20016,36.44293,邯郸市,峰峰矿区临水派出所,细颗粒物(PM2.5),107,,80,80,98,72,72,57,53,26,28,12,12,0.8,0.9
2025-12-30T1500,2634A,106.9893,33.1842,汉中市,汉川机床厂子校,,,,,,,,,,,,,,,,
2025-12-30T1500,2635A,107.0154,33.0706,汉中市,市监测站,细颗粒物(PM2.5),162,141,118,123,109,7,7,5,5,48,45,5,5,1.5,1.4
2025-12-30T1500,2636A,107.0089,33.1138,汉中市,鑫源开发区,细颗粒物(PM2.5),118,98,97,89,84,13,13,9,9,42,38,5,5,1.2,1.2
2025-12-30T1500,2637A,107.007,33.0323,汉中市,南郑大河坎水厂,细颗粒物(PM2.5),182,163,143,137,120,5,5,3,3,49,35,7,6,1.8,1.6
2025-12-30T1500,1223A,120.2072,30.2111,杭州市,滨江,颗粒物(PM10),109,167,136,72,76,57,57,35,35,56,73,10,10,0.6,0.6
2025-12-30T1500,1224A,120.0633,30.2747,杭州市,西溪,细颗粒物(PM2.5),162,182,87,123,61,71,71,20,20,50,52,9,8,0.9,0.8
2025-12-30T1500,1226A,120.3417,30.3150,杭州市,下沙,细颗粒物(PM2.5),150,150,144,115,101,93,93,54,54,32,77,9,10,0.8,0.9
2025-12-30T1500,1227A,120.1269,30.2456,杭州市,卧龙桥,细颗粒物(PM2.5),158,181,109,120,72,74,74,38,38,39,46,10,9,0.9,0.8
2025-12-30T1500,1228A,120.1903,30.2692,杭州市,浙江农大,细颗粒物(PM2.5),134,153,142,102,96,88,88,45,45,37,69,3,4,0.7,1
2025-12-30T1500,1230A,120.1197,30.3119,杭州市,和睦小学,细颗粒物(PM2.5),139,188,151,106,87,73,73,41,41,36,69,5,6,1.0,1.1
2025-12-30T1500,1231A,120.3019,30.4183,杭州市,临平镇,细颗粒物(PM2.5),142,150,140,108,102,93,93,65,65,25,55,8,9,0.8,0.9
2025-12-30T1500,1232A,120.2753,30.1839,杭州市,城厢镇,细颗粒物(PM2.5),165,171,124,125,89,84,84,45,45,38,72,9,11,0.8,0.8
2025-12-30T1500,1233A,120.0883,30.1808,杭州市,云栖,细颗粒物(PM2.5),158,172,108,120,70,84,84,47,47,45,42,5,4,1.2,1
2025-12-30T1500,3557A,119.9464,30.0494,杭州市,镇二中,细颗粒物(PM2.5),162,147,95,123,75,84,84,29,29,36,62,6,6,0.9,1
2025-12-30T1500,3558A,119.7183,30.2367,杭州市,市府大楼,细颗粒物(PM2.5),149,196,105,114,63,94,94,36,36,29,40,10,11,0.9,0.8
2025-12-30T1500,3656A,120.1556,30.2864,杭州市,消防大队,细颗粒物(PM2.5),163,162,129,124,101,81,81,38,38,30,61,7,7,0.8,0.9
2025-12-30T1500,1270A,117.1959,31.7848,合肥市,明珠广场,细颗粒物(PM2.5),122,124,136,92,101,108,108,78,78,20,31,9,8,0.8,0.9
2025-12-30T1500,1271A,117.3072,31.8764,合肥市,三里街,细颗粒物(PM2.5),140,136,135,107,104,100,100,72,72,25,39,6,6,1.1,1.1
2025-12-30T1500,1272A,117.2588,31.8707,合肥市,琥珀山庄,,,,137,,104,108,108,85,85,23,35,8,8,1.0,1.1
2025-12-30T1500,1273A,117.1604,31.9052,合肥市,董铺水库,,,,,,,,,,,,,,,,
2025-12-30T1500,1274A,117.25,31.8571,合肥市,长江中路,细颗粒物(PM2.5),143,139,137,109,109,110,110,83,83,22,31,8,8,1.1,1.1
2025-12-30T1500,1275A,117.266,31.9436,合肥市,庐阳区,细颗粒物(PM2.5),128,136,144,97,104,111,111,82,82,28,37,5,5,1.0,1.1
2025-12-30T1500,1276A,117.3453,31.8616,合肥市,瑶海区,细颗粒物(PM2.5),135,134,137,103,102,106,106,78,78,29,40,6,6,1.0,1
2025-12-30T1500,1277A,117.3027,31.7964,合肥市,包河区,细颗粒物(PM2.5),125,139,136,95,106,103,103,71,71,34,67,9,9,1.2,1.2
2025-12-30T1500,1278A,117.2776,31.7385,合肥市,滨湖新区,细颗粒物(PM2.5),144,139,140,110,112,112,112,84,84,22,43,8,7,1.3,1.2
2025-12-30T1500,1279A,117.1318,31.8403,合肥市,高新区,细颗粒物(PM2.5),135,136,135,103,104,113,113,87,87,25,33,6,6,1.1,1.1
2025-12-30T1500,3464A,117.3803,31.9147,合肥市,高教基地,细颗粒物(PM2.5),145,132,138,111,116,104,104,82,82,23,26,9,9,1.0,0.9
2025-12-30T1500,3614A,79.924,37.0877,和田地区,地区环保局,颗粒物(PM10),82,114,120,49,51,50,50,31,31,17,25,2,2,0.8,0.7
2025-12-30T1500,3615A,79.9131,37.113,和田地区,市环保局,颗粒物(PM10),77,103,114,45,41,52,52,31,31,17,30,2,1,0.6,1.1
2025-12-30T1500,2516A,108.2011,24.715,河池市,东仁乐园,,,,,,,,,,,,,,,,
2025-12-30T1500,2517A,108.0497,24.6947,河池市,市环保站,颗粒物(PM10),62,74,78,41,52,84,84,41,41,15,27,27,6,0.9,1
2025-12-30T1500,4302A,108.0901,24.6945,河池市,上任中路54号,细颗粒物(PM2.5),63,66,81,45,60,70,70,31,31,15,33,24,12,0.9,1.1
2025-12-30T1500,1696A,114.6778,23.7569,河源市,源西,,,,,,,,,,,,,,,,
2025-12-30T1500,1697A,114.6944,23.7586,河源市,东埔,,,32,45,25,29,91,91,44,44,,38,7,6,0.7,0.9
2025-12-30T1500,1698A,114.6892,23.7233,河源市,老城,,42,42,38,20,23,96,96,46,46,8,26,8,6,0.7,0.8
2025-12-30T1500,1718A,115.4208,35.2464,菏泽市,气象局,细颗粒物(PM2.5),185,173,161,139,122,96,96,64,64,32,41,7,7,1.0,0.9
2025-12-30T1500,3374A,115.5564,35.0891,菏泽市,定陶老年大学,细颗粒物(PM2.5),122,119,163,92,126,90,90,54,54,23,46,6,9,1.0,1.2
2025-12-30T1500,4184A,115.4797,35.24401,菏泽市,永昌路1号,细颗粒物(PM2.5),188,178,167,141,130,82,82,51,51,37,46,11,12,1.3,1.2
2025-12-30T1500,4193A,115.4715,35.2800,菏泽市,长城路999号,细颗粒物(PM2.5),203,195,169,153,128,81,81,55,55,38,45,8,7,1.3,1.2
2025-12-30T1500,2514A,111.5264,24.4172,贺州市,环保小区,细颗粒物(PM2.5),52,47,72,36,50,96,96,44,44,8,27,7,7,0.8,1.1
2025-12-30T1500,2515A,111.5608,24.4078,贺州市,政协大楼,细颗粒物(PM2.5),54,47,58,38,41,97,97,45,45,9,29,9,8,0.5,0.9
2025-12-30T1500,3534A,111.4744,24.4553,贺州市,西湾,颗粒物(PM10),59,67,63,40,41,95,95,46,46,15,31,7,8,0.6,0.7
2025-12-30T1500,2385A,114.17,35.9019,鹤壁市,市监测站,细颗粒物(PM2.5),122,116,134,92,113,52,52,39,39,34,28,13,6,1.5,1.1
2025-12-30T1500,2386A,114.2956,35.7511,鹤壁市,市交警支队,细颗粒物(PM2.5),127,118,152,96,117,36,36,24,24,44,45,10,8,1.0,1.1
2025-12-30T1500,2387A,114.2878,35.7306,鹤壁市,迎宾馆,细颗粒物(PM2.5),113,121,142,85,113,48,48,34,34,40,37,9,8,1.2,1.2
2025-12-30T1500,3474A,114.2617,35.6822,鹤壁市,大新区,细颗粒物(PM2.5),105,141,125,79,105,52,52,44,44,42,30,11,7,1.1,1
2025-12-30T1500,3596A,114.1572,35.9603,鹤壁市,南山宾馆,细颗粒物(PM2.5),117,117,138,88,113,59,59,51,51,34,27,13,11,1.1,1.1
2025-12-30T1500,2244A,130.2537,47.3416,鹤岗市,哈啤分公司,,28,23,31,19,25,43,43,49,46,13,13,8,6,0.4,0.4
2025-12-30T1500,2245A,130.2684,47.3086,鹤岗市,斯达机电,,,51,44,42,23,44,44,47,45,,16,6,7,,0.6
2025-12-30T1500,2246A,130.3114,47.3388,鹤岗市,东山纸板厂,,36,26,57,25,40,31,31,44,43,28,32,17,12,0.7,1.7
2025-12-30T1500,2247A,130.1097,47.3382,鹤岗市,五号水库,,,,,,,,,,,,,,,,
2025-12-30T1500,2263A,127.4833,50.2524,黑河市,交通局,,,19,29,14,24,30,30,35,34,29,17,4,5,,0.9
2025-12-30T1500,2264A,127.5144,50.2341,黑河市,环保局,,33,26,28,23,24,43,43,40,40,13,22,5,6,0.5,0.6
2025-12-30T1500,2265A,127.5291,50.2472,黑河市,大黑河岛,,,,,,,,,,,,,,,,
2025-12-30T1500,1074A,115.6838,37.7541,衡水市,电机北厂,,38,38,97,7,63,57,57,23,23,14,50,7,9,0.2,0.8
2025-12-30T1500,1075A,115.6303,37.7316,衡水市,市监测站,,44,44,87,10,53,57,57,24,24,16,47,4,7,0.2,0.8
2025-12-30T1500,3188A,115.6683,37.7217,衡水市,市城管局,,37,37,98,19,69,58,58,27,27,19,52,6,9,0.3,0.9
2025-12-30T1500,3459A,115.5989,37.5491,衡水市,地表水厂,,,,82,17,66,54,54,28,28,18,56,3,7,0.3,0.7
2025-12-30T1500,2456A,112.5003,26.9167,衡阳市,原169医院,,,,,,,,,,,,,,,,
2025-12-30T1500,2457A,112.6194,26.9258,衡阳市,衡阳化工总厂,细颗粒物(PM2.5),133,107,106,101,99,118,118,58,58,16,34,12,13,1.1,1.3
2025-12-30T1500,2458A,112.6211,26.8956,衡阳市,珠晖区环保局,细颗粒物(PM2.5),125,95,103,95,94,98,98,52,52,20,40,10,10,1.3,1.5
2025-12-30T1500,2459A,112.6197,26.8733,衡阳市,市委党校,细颗粒物(PM2.5),130,117,103,99,99,117,117,66,66,18,32,14,13,1.1,1.2
2025-12-30T1500,2460A,112.6006,26.8919,衡阳市,市监测站,细颗粒物(PM2.5),130,133,130,99,88,114,114,60,60,13,32,12,12,0.9,1.1
2025-12-30T1500,2461A,112.5664,26.9056,衡阳市,真空机电公司,细颗粒物(PM2.5),129,123,108,98,91,107,107,28,,20,33,12,12,1.1,1.1
2025-12-30T1500,3399A,112.6703,26.882,衡阳市,师范学院,细颗粒物(PM2.5),110,123,118,83,85,123,123,72,72,21,31,8,8,1.2,1.3
2025-12-30T1500,2608A,103.3772,23.3993,红河哈尼族彝族自治州,污水处理厂,,32,30,32,22,27,63,63,54,54,6,8,6,7,0.4,0.5
2025-12-30T1500,2609A,103.3861,23.35,红河哈尼族彝族自治州,监测站,,41,41,32,19,29,70,70,61,61,4,5,8,8,0.3,0.3
2025-12-30T1500,3038A,103.3758,23.368,红河哈尼族彝族自治州,州图书馆,,26,26,27,12,18,67,67,60,60,4,6,6,6,0.4,0.4
2025-12-30T1500,1090A,111.6507,40.7517,呼和浩特市,呼市一监,,22,12,37,3,23,69,69,60,60,5,25,3,4,0.2,0.4
2025-12-30T1500,1094A,111.7516,40.8369,呼和浩特市,如意水处理厂,,22,7,33,3,19,68,68,62,62,10,26,8,9,0.2,0.4
2025-12-30T1500,1095A,111.7276,40.8062,呼和浩特市,二十九中,,23,8,48,3,19,72,72,64,64,4,25,9,10,0.1,0.4
2025-12-30T1500,1097A,111.717,40.7612,呼和浩特市,化肥厂生活区,,23,10,40,3,23,73,73,58,58,5,30,4,6,0.4,0.7
2025-12-30T1500,3699A,111.6518,40.8389,呼和浩特市,海东办,,25,9,29,3,14,77,77,63,63,4,21,3,7,0.2,0.3
2025-12-30T1500,4275A,111.5915,40.8273,呼和浩特市,成吉思汗西街8号,,18,9,25,3,12,57,57,54,52,11,25,5,9,0.3,0.5
2025-12-30T1500,4276A,111.6597,40.8077,呼和浩特市,公园东路75号,,20,7,15,3,7,62,62,54,54,10,16,5,5,0.1,0.2
2025-12-30T1500,4277A,111.5417,40.7846,呼和浩特市,金海路35号,,19,17,40,3,16,58,58,52,52,11,32,6,9,0.2,0.2
2025-12-30T1500,3061A,119.7512,49.1577,呼伦贝尔市,国华电力东,,,,25,,20,42,42,43,40,15,17,6,7,0.3,0.3
2025-12-30T1500,4279A,119.7569,49.2222,呼伦贝尔市,伊敏大街东7号,,36,25,25,25,22,41,41,42,39,8,9,7,7,0.3,0.1
2025-12-30T1500,1250A,120.0751,30.8669,湖州市,城西水厂,细颗粒物(PM2.5),138,131,133,105,107,106,106,73,73,31,59,10,11,0.6,0.7
2025-12-30T1500,2873A,120.0830,30.8929,湖州市,仁皇山新区,细颗粒物(PM2.5),127,119,129,96,104,112,112,84,84,30,43,10,11,0.5,0.7
2025-12-30T1500,2907A,120.1844,30.8596,湖州市,吴兴区站,细颗粒物(PM2.5),114,132,144,86,104,105,105,77,77,24,49,7,8,0.9,1
2025-12-30T1500,3562A,120.4148,30.8538,湖州市,南浔区站,细颗粒物(PM2.5),124,109,140,94,65,92,92,67,67,29,47,6,8,0.7,0.9
2025-12-30T1500,1607A,120.9049,40.7211,葫芦岛市,龙港区,,42,42,59,11,34,62,62,44,44,11,37,13,25,0.4,1.2
2025-12-30T1500,1608A,120.8392,40.7514,葫芦岛市,化工街,,24,24,60,7,34,57,57,42,42,10,40,13,46,0.3,0.8
2025-12-30T1500,1609A,120.8341,40.7073,葫芦岛市,新区,,26,26,51,6,32,58,58,40,40,12,45,10,16,0.6,1
2025-12-30T1500,1610A,120.8695,40.7677,葫芦岛市,东城区,,37,37,57,8,39,58,58,45,45,12,38,12,26,0.5,1
2025-12-30T1500,2482A,109.5981,27.5721,怀化市,林科所,,,,,,,,,,,,,,,,
2025-12-30T1500,2483A,109.9453,27.5444,怀化市,河西地税局,细颗粒物(PM2.5),97,86,80,72,65,68,68,54,54,18,23,9,10,0.7,0.7
2025-12-30T1500,2484A,109.9781,27.5342,怀化市,市四医院,细颗粒物(PM2.5),98,92,96,73,71,68,68,49,49,12,19,14,18,0.7,0.7
2025-12-30T1500,2485A,109.9972,27.5578,怀化市,监测楼,细颗粒物(PM2.5),87,89,91,64,65,71,71,42,42,18,27,10,10,0.3,0.3
2025-12-30T1500,2486A,110.0394,27.583,怀化市,市委党校,细颗粒物(PM2.5),124,125,91,94,66,54,54,38,38,13,24,13,16,0.6,0.5
2025-12-30T1500,1210A,119.036,33.5981,淮安市,钵池山,细颗粒物(PM2.5),63,,135,45,118,86,86,57,57,12,40,7,8,0.2,0.8
2025-12-30T1500,1211A,119.007,33.575,淮安市,北京南路,,48,36,125,33,108,78,78,62,62,8,30,7,8,0.4,1
2025-12-30T1500,1212A,118.989,33.6067,淮安市,市监测站,,34,34,128,19,109,78,78,53,53,13,36,8,10,0.3,0.9
2025-12-30T1500,1213A,119.135,33.5039,淮安市,楚州区监测站,,29,29,122,16,107,78,78,61,61,6,23,9,11,0.4,0.9
2025-12-30T1500,3426A,118.8755,33.2894,淮安市,新华书店,,42,42,137,24,109,77,77,61,61,16,33,8,11,0.5,0.9
2025-12-30T1500,4206A,119.0288,33.6319,淮安市,承德北路606号,细颗粒物(PM2.5),60,44,157,43,119,81,81,51,51,9,43,7,8,0.4,1
2025-12-30T1500,2282A,116.8004,33.975,淮北市,监测站,,,142,174,,128,94,94,68,68,24,43,10,10,1.0,1.2
2025-12-30T1500,2283A,116.8091,33.9007,淮北市,烈山区政府,细颗粒物(PM2.5),112,100,148,84,124,101,101,75,75,24,39,10,10,0.6,0.7
2025-12-30T1500,3330A,116.8873,33.9836,淮北市,杜集区检察院,细颗粒物(PM2.5),107,104,147,80,124,100,100,79,79,17,29,7,8,0.7,0.9
2025-12-30T1500,4017A,116.7923,33.9535,淮北市,市博物馆,细颗粒物(PM2.5),124,144,172,94,126,96,96,73,73,22,37,12,12,0.9,0.9
2025-12-30T1500,2277A,116.8305,32.7727,淮南市,潘集区政府,细颗粒物(PM2.5),112,113,157,84,129,103,103,70,70,15,28,7,7,0.6,0.8
2025-12-30T1500,2279A,116.8569,32.5951,淮南市,谢家集区政府,细颗粒物(PM2.5),105,114,137,79,94,101,101,76,76,21,30,8,9,0.6,0.7
2025-12-30T1500,2280A,116.8281,32.633,淮南市,八公山区政府,细颗粒物(PM2.5),113,119,139,85,104,103,103,80,80,16,24,7,7,0.7,0.8
2025-12-30T1500,2281A,116.6325,32.6201,淮南市,焦岗湖风景区管理处,,,,,,,,,,,,,,,,
2025-12-30T1500,2894A,117.0566,32.6531,淮南市,经济技术开发区消防队,细颗粒物(PM2.5),105,115,151,79,108,104,104,77,77,19,35,7,6,0.6,0.8
2025-12-30T1500,3329A,117.0108,32.5893,淮南市,山南新区,细颗粒物(PM2.5),103,112,145,77,98,110,110,87,87,15,28,4,4,0.7,0.8
2025-12-30T1500,4209A,117.0031,32.6445,淮南市,国庆中路369号,细颗粒物(PM2.5),102,102,135,76,108,94,94,72,72,21,33,8,8,0.6,0.7
2025-12-30T1500,2446A,114.9028,30.4742,黄冈市,职工中心,细颗粒物(PM2.5),74,77,89,54,65,120,120,75,75,15,29,10,8,0.8,0.9
2025-12-30T1500,2929A,114.8858,30.4519,黄冈市,红卫路,细颗粒物(PM2.5),92,82,86,68,72,117,117,70,70,24,31,10,8,0.7,0.8
2025-12-30T1500,3398A,114.9136,30.4445,黄冈市,市林业局,细颗粒物(PM2.5),98,88,96,73,73,119,119,69,69,31,35,8,6,1.1,1.1
2025-12-30T1500,2672A,102.0199,35.5102,黄南藏族自治州,同仁县隆务镇,,28,28,27,17,14,66,66,52,52,10,4,13,11,0.5,0.3
2025-12-30T1500,2295A,118.2903,29.6963,黄山市,延安路89号,细颗粒物(PM2.5),64,59,38,46,29,118,118,57,57,12,20,5,4,0.5,0.5
2025-12-30T1500,2297A,118.1371,30.2756,黄山市,黄山区政府5号楼,细颗粒物(PM2.5),72,82,43,52,32,119,119,66,66,16,12,8,6,0.8,0.5
2025-12-30T1500,4210A,118.3354,29.7203,黄山市,滨江东路7-2号,细颗粒物(PM2.5),68,68,54,49,34,114,114,54,54,14,21,5,4,0.5,0.5
2025-12-30T1500,2423A,115.0601,30.2313,黄石市,沈家营,细颗粒物(PM2.5),107,131,100,80,64,94,94,41,41,43,37,18,8,1.6,1.3
2025-12-30T1500,2426A,114.8988,30.2019,黄石市,铁山,细颗粒物(PM2.5),100,89,102,75,82,122,122,70,70,17,50,8,8,0.5,0.6
2025-12-30T1500,2427A,115.0307,30.2092,黄石市,团城山,细颗粒物(PM2.5),113,114,96,85,73,111,111,47,47,26,35,7,7,0.8,0.9
2025-12-30T1500,3149A,115.0235,30.1578,黄石市,笔架山北路,颗粒物(PM10),79,108,132,51,75,125,125,67,67,5,41,9,10,1.0,1.2
2025-12-30T1500,4185A,115.0780,30.21118,黄石市,磁湖东路29号,细颗粒物(PM2.5),140,137,108,107,81,73,73,28,28,48,54,22,10,1.6,1.2
2025-12-30T1500,1392A,114.4183,23.0528,惠州市,河南岸金山湖子站,,,29,57,22,37,99,99,53,53,,36,6,6,0.5,0.7
2025-12-30T1500,1393A,114.4053,23.0822,惠州市,下埔横江三路子站,,33,29,69,16,42,104,104,58,58,7,37,7,10,0.5,0.8
2025-12-30T1500,1395A,114.4645,22.7833,惠州市,惠阳区承修路船湖子站,,40,33,63,21,31,128,128,97,97,14,34,7,7,0.6,0.7
2025-12-30T1500,1396A,114.5317,22.7422,惠州市,大亚湾管委会子站,,42,37,56,21,31,134,134,81,81,14,41,8,7,0.5,0.5
2025-12-30T1500,3314A,114.4338,22.8134,惠州市,惠阳秋长,,44,34,76,19,40,138,138,85,85,10,50,17,16,0.5,0.7
2025-12-30T1500,3452A,114.6517,22.775,惠州市,大亚湾霞涌,,,44,38,23,22,151,151,100,100,,21,,5,0.7,0.6
2025-12-30T1500,4300A,114.4089,23.1147,惠州市,文华一路1号,,35,26,60,16,37,109,109,60,60,13,47,8,9,0.3,0.5
2025-12-30T1500,2240A,130.9762,45.3001,鸡西市,环保局,,,26,28,8,12,46,46,64,64,5,10,,6,0.2,0.2
2025-12-30T1500,2243A,130.9429,45.3039,鸡西市,第一中学,,17,17,24,7,12,52,52,50,50,4,7,3,3,0.3,0.3
2025-12-30T1500,3707A,131.0207,45.3073,鸡西市,欧美日汽修厂,,24,24,34,12,18,54,54,50,50,7,15,5,8,0.3,0.4
2025-12-30T1500,3709A,130.9967,45.3106,鸡西市,市政设施管理处,,,26,32,8,14,45,45,40,40,,20,,9,0.2,0.1
2025-12-30T1500,2367A,114.9754,27.0803,吉安市,红声器材厂,颗粒物(PM10),59,67,60,40,37,127,127,72,72,22,30,11,10,0.7,0.7
2025-12-30T1500,2368A,114.9658,27.0999,吉安市,市森林工业局,颗粒物(PM10),56,61,61,37,41,136,136,80,80,18,27,14,13,0.6,0.5
2025-12-30T1500,2369A,114.99,27.1312,吉安市,市环境监测站,细颗粒物(PM2.5),55,57,58,39,40,125,125,78,78,16,26,17,17,0.6,0.5
2025-12-30T1500,2370A,115.0093,27.0968,吉安市,青原区法院,细颗粒物(PM2.5),62,62,61,44,40,125,125,68,68,16,36,15,13,0.8,0.8
2025-12-30T1500,1772A,126.54,43.8622,吉林市,哈达湾,,20,20,23,12,13,47,47,47,47,10,10,6,15,1.0,1.1
2025-12-30T1500,1773A,126.5844,43.8358,吉林市,东局子,,21,21,22,10,11,49,49,45,45,11,12,4,5,0.8,0.8
2025-12-30T1500,1774A,126.5052,43.8245,吉林市,电力学院,,19,19,25,10,16,53,53,49,49,7,12,10,10,0.6,0.6
2025-12-30T1500,1775A,126.6133,43.8972,吉林市,江北,,23,23,23,12,14,50,50,46,46,11,14,2,4,0.6,0.3
2025-12-30T1500,1776A,126.555,43.8306,吉林市,江南公园,,19,17,17,13,12,49,49,47,47,8,10,6,7,0.6,0.6
2025-12-30T1500,1778A,126.7061,43.7133,吉林市,丰满,,20,15,17,14,13,43,43,42,42,3,6,6,7,0.5,0.5
2025-12-30T1500,2868A,126.4739,43.953,吉林市,九站,,19,19,23,10,17,51,51,46,46,9,16,4,6,0.9,1
2025-12-30T1500,1299A,116.9862,36.6114,济南市,科干所,细颗粒物(PM2.5),132,153,104,100,61,36,36,26,26,67,54,13,12,1.3,1.1
2025-12-30T1500,1300A,116.9376,36.665,济南市,农科所,细颗粒物(PM2.5),144,151,154,110,93,42,42,16,16,63,68,13,10,1.3,1.5
2025-12-30T1500,1301A,117.1265,36.6734,济南市,开发区,细颗粒物(PM2.5),153,151,113,117,74,43,43,32,22,59,54,11,6,1.3,1.1
2025-12-30T1500,1303A,117.0624,36.6868,济南市,省种子仓库,细颗粒物(PM2.5),156,163,175,119,101,49,49,18,18,56,65,17,13,1.2,1.4
2025-12-30T1500,1304A,116.9489,36.6447,济南市,机床二厂,细颗粒物(PM2.5),168,168,143,127,94,42,42,23,23,64,65,12,23,1.3,1.6
2025-12-30T1500,1305A,117.0495,36.663,济南市,市监测站,细颗粒物(PM2.5),170,168,115,129,70,36,36,13,13,57,53,13,7,1.3,1.2
2025-12-30T1500,1306A,116.7675,36.5484,济南市,长清党校,细颗粒物(PM2.5),170,183,99,129,63,33,33,26,26,63,59,15,10,1.3,0.9
2025-12-30T1500,1616A,117.6795,36.229,济南市,技术学院,细颗粒物(PM2.5),79,85,113,58,85,80,80,41,41,28,59,10,7,1.1,1
2025-12-30T1500,1961A,117.532,36.6868,济南市,东山小学,细颗粒物(PM2.5),160,173,119,122,76,57,57,42,42,59,58,15,8,1.5,1.2
2025-12-30T1500,3059A,117.7161,36.2049,济南市,泰兴公司,细颗粒物(PM2.5),89,97,135,66,103,82,82,38,38,32,58,13,9,1.6,1.2
2025-12-30T1500,3064A,117.6867,36.2171,济南市,莱芜战役纪念馆,细颗粒物(PM2.5),82,90,122,60,96,82,82,39,39,25,58,15,9,1.6,1
2025-12-30T1500,3494A,117.1673,36.9782,济南市,济阳区政府,细颗粒物(PM2.5),83,90,183,61,129,65,65,35,35,26,65,9,19,0.6,1.3
2025-12-30T1500,3495A,117.1171,36.63,济南市,锦屏中学,细颗粒物(PM2.5),129,142,80,98,50,38,38,47,33,62,36,9,4,1.0,1
2025-12-30T1500,3682A,116.9814,36.6819,济南市,济南四建,细颗粒物(PM2.5),150,,176,115,115,41,41,14,14,58,64,16,16,1.6,1.9
2025-12-30T1500,1653A,116.6251,35.4302,济宁市,火炬城,细颗粒物(PM2.5),170,142,122,129,99,96,96,44,44,21,48,8,8,0.8,0.9
2025-12-30T1500,1655A,116.5491,35.4042,济宁市,电化厂,细颗粒物(PM2.5),138,146,147,105,95,104,104,50,50,24,52,8,12,0.6,0.8
2025-12-30T1500,3500A,116.5814,35.3707,济宁市,北湖一中,细颗粒物(PM2.5),140,,106,107,94,103,103,49,49,18,46,8,9,0.8,0.9
2025-12-30T1500,3501A,116.8249,35.5593,济宁市,服务中心,细颗粒物(PM2.5),103,151,148,77,96,83,83,36,36,34,54,12,15,1.2,1.3
2025-12-30T1500,3678A,116.5907,35.4054,济宁市,市第七中学,细颗粒物(PM2.5),144,127,111,110,82,104,104,55,55,23,47,11,12,0.9,0.9
2025-12-30T1500,2255A,130.2751,46.8028,佳木斯市,佳纺,,28,28,35,19,21,41,41,35,35,12,16,4,6,0.3,0.3
2025-12-30T1500,2257A,130.3258,46.7975,佳木斯市,环保局,,25,25,28,17,16,43,43,38,37,12,15,7,7,0.3,0.3
2025-12-30T1500,2259A,130.3794,46.7588,佳木斯市,四丰,,,,,,,,,,,,,,,,
2025-12-30T1500,4285A,130.363,46.806,佳木斯市,顺和街,,26,26,26,18,15,39,39,37,35,12,13,8,8,0.3,0.3
2025-12-30T1500,4286A,130.3952,46.8268,佳木斯市,长安路196号,,25,21,20,17,16,42,42,40,40,12,17,6,6,0.3,0.3
2025-12-30T1500,1252A,120.7436,30.778,嘉兴市,清河小学,细颗粒物(PM2.5),89,93,149,66,110,96,96,61,61,26,67,6,6,0.3,0.8
2025-12-30T1500,1253A,120.726,30.7478,嘉兴市,嘉兴学院,细颗粒物(PM2.5),87,96,158,64,103,101,101,64,64,21,60,7,8,0.7,1
2025-12-30T1500,2872A,120.7846,30.7525,嘉兴市,南湖区残联,细颗粒物(PM2.5),82,76,135,60,104,111,111,70,70,21,65,5,5,0.6,0.9
2025-12-30T1500,3407A,120.6916,30.7739,嘉兴市,秀洲住建,细颗粒物(PM2.5),102,108,152,76,115,102,102,68,68,27,59,7,7,0.6,0.9
2025-12-30T1500,1945A,98.2908,39.7711,嘉峪关市,气象局,颗粒物(PM10),59,68,56,39,28,59,59,50,50,12,25,4,5,0.5,0.6
2025-12-30T1500,2884A,98.2672,39.7978,嘉峪关市,酒钢宾馆,颗粒物(PM10),62,73,66,36,32,54,54,36,36,14,24,11,15,0.5,0.8
2025-12-30T1500,3248A,98.2643,39.7724,嘉峪关市,雄关区,,48,48,57,29,34,64,64,38,38,14,33,9,13,0.7,0.9
2025-12-30T1500,1383A,113.1064,22.6058,江门市,北街,细颗粒物(PM2.5),65,72,83,47,62,138,138,74,74,33,50,12,11,0.7,0.9
2025-12-30T1500,1384A,113.0731,22.5835,江门市,西区,颗粒物(PM10),53,55,96,30,55,122,122,71,71,30,64,9,10,0.5,0.8
2025-12-30T1500,1385A,113.0219,22.5311,江门市,圭峰西,,36,35,80,24,59,113,113,83,83,19,40,8,9,0.4,0.9
2025-12-30T1500,1386A,113.0828,22.5947,江门市,东湖,细颗粒物(PM2.5),58,54,94,41,60,128,128,74,74,32,67,10,9,0.5,0.9
2025-12-30T1500,3311A,113.1075,22.5647,江门市,江海富民,颗粒物(PM10),61,71,116,25,61,135,135,76,76,35,73,10,10,0.6,0.9
2025-12-30T1500,3449A,113.05,22.4667,江门市,新会银湖,,46,46,93,24,75,116,116,67,67,18,44,8,8,0.5,0.8
2025-12-30T1500,1830A,113.1992,35.2590,焦作市,影视城,,,,114,,72,,,71,,,19,,5,,0.8
2025-12-30T1500,3335A,113.3137,35.2641,焦作市,马村街道办,细颗粒物(PM2.5),127,117,107,96,80,64,64,60,60,30,23,12,8,0.7,0.7
2025-12-30T1500,3336A,113.2465,35.2373,焦作市,焦作技师学院,细颗粒物(PM2.5),125,122,107,95,83,62,62,49,49,32,29,12,11,0.9,1
2025-12-30T1500,3477A,113.1656,35.2539,焦作市,中站许衡医院,细颗粒物(PM2.5),149,142,112,114,91,78,78,69,65,23,23,7,8,1.0,1
2025-12-30T1500,3981A,113.2449,35.1803,焦作市,原李万街道办,细颗粒物(PM2.5),132,129,120,100,84,62,62,52,52,32,26,18,13,0.9,0.8
2025-12-30T1500,4264A,113.2340,35.2190,焦作市,新安路1731号,细颗粒物(PM2.5),139,125,114,106,88,63,63,53,53,25,23,8,8,0.6,0.7
2025-12-30T1500,4295A,113.2722,35.2121,焦作市,人民路3066号,细颗粒物(PM2.5),112,112,117,84,70,57,57,48,48,31,26,11,10,0.4,0.4
2025-12-30T1500,1708A,116.3701,23.5345,揭阳市,新兴,,46,46,65,26,46,136,136,83,83,21,37,10,9,0.5,0.8
2025-12-30T1500,1709A,116.3264,23.5443,揭阳市,西马,,50,50,72,22,43,147,147,78,78,15,35,7,8,0.6,0.8
2025-12-30T1500,1710A,116.3611,23.5626,揭阳市,东兴,,49,49,70,28,40,133,133,79,79,14,36,10,11,0.7,0.9
2025-12-30T1500,1711A,116.4151,23.5294,揭阳市,渔湖,颗粒物(PM10),52,53,66,18,34,134,134,77,77,17,37,6,6,0.5,0.8
2025-12-30T1500,3320A,116.403,23.5699,揭阳市,曲溪,,45,38,67,29,37,142,142,85,85,18,40,13,8,0.5,0.7
2025-12-30T1500,1944A,102.1692,38.5167,金昌市,天庆家园,颗粒物(PM10),51,51,83,24,52,77,77,48,48,12,26,12,15,0.5,1
2025-12-30T1500,4022A,102.1647,38.5371,金昌市,金川区人防中心,颗粒物(PM10),51,51,68,25,45,77,77,49,49,11,19,9,11,0.6,0.8
2025-12-30T1500,4239A,102.1930,38.5319,金昌市,长春路96号,,40,40,75,22,41,81,81,46,46,9,21,12,12,0.7,0.9
2025-12-30T1500,1262A,119.647,29.077,金华市,十五中,细颗粒物(PM2.5),175,164,93,132,66,123,123,61,61,42,63,5,4,0.9,0.8
2025-12-30T1500,1263A,119.686,29.1029,金华市,监测站,细颗粒物(PM2.5),165,246,150,125,110,117,117,,,40,67,,4,0.9,0.7
2025-12-30T1500,3659A,119.656,29.1131,金华市,气象局,细颗粒物(PM2.5),172,166,114,130,77,115,115,57,57,48,81,4,4,0.6,0.6
2025-12-30T1500,1767A,121.1115,41.0879,锦州市,南山,,21,17,45,9,33,66,66,47,47,7,37,10,11,0.5,0.9
2025-12-30T1500,1768A,121.0604,40.8428,锦州市,开发区,,22,22,67,14,33,61,61,44,44,10,41,5,29,0.4,0.9
2025-12-30T1500,1769A,121.1836,41.1119,锦州市,百股街道,,25,25,43,3,31,61,61,48,48,7,37,6,14,0.5,0.9
2025-12-30T1500,1770A,121.1178,41.1222,锦州市,天安街道,,23,23,44,3,28,69,69,49,49,8,37,10,14,0.5,0.9
2025-12-30T1500,1771A,121.1303,41.1386,锦州市,北湖公园,,20,19,41,3,26,63,63,44,44,5,28,7,12,0.4,0.8
2025-12-30T1500,2160A,112.85,35.5051,晋城市,自来水公司,细颗粒物(PM2.5),122,137,110,92,72,90,90,45,45,17,36,9,11,1.0,1.4
2025-12-30T1500,2161A,112.8318,35.4936,晋城市,白云商贸,细颗粒物(PM2.5),100,102,116,75,59,95,95,43,43,12,25,6,6,0.8,1.1
2025-12-30T1500,2162A,112.8508,35.4887,晋城市,市环保局,细颗粒物(PM2.5),107,131,115,80,60,99,99,51,51,16,24,8,9,0.8,1.1
2025-12-30T1500,2163A,112.8676,35.4897,晋城市,技术学院,细颗粒物(PM2.5),122,137,116,92,69,84,84,42,42,22,45,9,11,0.7,1.1
2025-12-30T1500,2165A,112.8453,35.546,晋城市,白马寺,细颗粒物(PM2.5),119,126,97,90,69,94,94,70,59,15,21,11,12,0.9,1.1
2025-12-30T1500,3620A,112.8271,35.4828,晋城市,泽州一中,细颗粒物(PM2.5),117,129,100,88,66,104,104,49,49,19,31,6,7,0.8,1.1
2025-12-30T1500,2173A,112.7249,37.7067,晋中市,南都小区,颗粒物(PM10),53,55,68,25,34,54,54,34,34,30,47,12,13,0.5,0.8
2025-12-30T1500,2174A,112.6991,37.6982,晋中市,榆次区政府,颗粒物(PM10),52,53,74,25,36,50,50,34,34,32,44,12,13,0.6,0.9
2025-12-30T1500,2865A,112.7195,37.6828,晋中市,榆次三中,,,53,67,22,30,56,56,36,36,24,42,10,12,,0.9
2025-12-30T1500,4200A,112.7478,37.6954,晋中市,迎宾街26号,颗粒物(PM10),51,51,60,17,30,54,54,35,35,29,38,14,14,0.4,0.6
2025-12-30T1500,2439A,112.2014,31.0481,荆门市,竹园小学,细颗粒物(PM2.5),137,138,111,104,81,95,95,75,75,25,25,4,2,0.3,0.4
2025-12-30T1500,2440A,112.1969,30.9891,荆门市,掇刀,细颗粒物(PM2.5),127,142,110,96,78,102,102,88,86,22,20,5,5,0.5,0.6
2025-12-30T1500,2441A,112.2213,31.0386,荆门市,石化一小,细颗粒物(PM2.5),153,155,122,117,83,92,92,68,68,24,26,9,8,0.9,0.9
2025-12-30T1500,3012A,112.1849,31.0362,荆门市,西山林语,细颗粒物(PM2.5),130,133,104,99,72,100,100,89,84,25,20,8,7,0.6,0.6
2025-12-30T1500,3547A,112.1632,31.0138,荆门市,龙泉中学南校,细颗粒物(PM2.5),128,137,111,97,78,102,102,92,90,17,11,11,10,0.3,0.2
2025-12-30T1500,1844A,112.2494,30.3197,荆州市,市图书馆,细颗粒物(PM2.5),137,,103,104,114,102,102,65,65,16,33,9,9,0.8,0.9
2025-12-30T1500,1845A,112.2008,30.3544,荆州市,市委党校,细颗粒物(PM2.5),132,102,125,100,118,92,92,50,50,19,40,6,6,0.7,1
2025-12-30T1500,3194A,112.2747,30.3122,荆州市,管委会,细颗粒物(PM2.5),158,126,107,120,110,101,101,58,58,18,31,8,8,0.8,1.2
2025-12-30T1500,4268A,112.1722,30.3366,荆州市,学苑路85号,细颗粒物(PM2.5),119,100,120,90,112,107,107,57,57,16,31,2,1,0.7,0.9
2025-12-30T1500,2342A,117.3102,29.3867,景德镇市,王港中学,,,,,,,,,,,,,,,,
2025-12-30T1500,2343A,117.2117,29.2933,景德镇市,老干部活动中心,,36,30,55,25,32,97,97,51,51,7,26,9,8,0.6,0.8
2025-12-30T1500,2344A,117.1894,29.2789,景德镇市,兽医站,,39,39,51,21,26,102,102,60,60,11,30,7,8,0.3,0.5
2025-12-30T1500,2346A,117.2461,29.2956,景德镇市,陶研所,,30,26,38,20,28,93,93,46,46,12,25,4,4,0.6,0.7
2025-12-30T1500,4289A,117.1542,29.2566,景德镇市,青少年活动中心,,35,34,50,24,29,109,109,62,62,9,39,4,10,0.6,0.9
2025-12-30T1500,1803A,115.9872,29.6815,九江市,十里,细颗粒物(PM2.5),144,140,103,110,77,127,127,82,82,30,56,9,7,1.1,1
2025-12-30T1500,1804A,115.9584,29.7046,九江市,茅山头,细颗粒物(PM2.5),139,139,112,106,81,122,122,79,79,21,48,7,8,1.2,1.1
2025-12-30T1500,1805A,115.9877,29.7295,九江市,西园,细颗粒物(PM2.5),132,133,101,100,74,129,129,83,83,40,68,4,5,1.0,0.9
2025-12-30T1500,1808A,115.9114,29.6038,九江市,综合工业园,细颗粒物(PM2.5),186,144,100,140,91,101,101,71,71,50,60,6,5,0.8,0.8
2025-12-30T1500,1809A,116.0721,29.7535,九江市,石化总厂,细颗粒物(PM2.5),182,138,108,137,94,125,125,82,82,30,46,9,8,1.0,0.8
2025-12-30T1500,1810A,115.9773,29.5698,九江市,庐山气象台,,,,,,,,,,,,,,,,
2025-12-30T1500,3190A,116.0254,29.6994,九江市,外国语学校,,,128,99,,75,112,112,68,68,29,42,11,9,1.1,0.9
2025-12-30T1500,4253A,116.0102,29.6594,九江市,莲花大道8号,细颗粒物(PM2.5),183,146,98,138,85,106,106,79,79,22,32,4,6,0.9,0.7
2025-12-30T1500,4240A,98.4958,39.7339,酒泉市,玉门东路5号,颗粒物(PM10),63,75,73,29,33,51,51,27,27,8,19,10,10,0.5,0.7
2025-12-30T1500,4241A,98.5099,39.7506,酒泉市,北大街108号,颗粒物(PM10),51,51,68,24,24,61,61,32,32,12,27,9,10,0.4,0.7
2025-12-30T1500,2698A,76.0072,39.4467,喀什地区,巡警大队,细颗粒物(PM2.5),89,98,91,66,65,32,32,9,9,23,36,3,3,1.0,1.4
2025-12-30T1500,2699A,75.9755,39.4694,喀什地区,吾办,细颗粒物(PM2.5),103,108,93,77,71,26,26,10,6,23,30,7,6,1.0,1.4
2025-12-30T1500,4027A,75.9483,39.4689,喀什地区,老干局,细颗粒物(PM2.5),107,120,111,80,76,15,15,6,6,30,32,3,2,1.7,2
2025-12-30T1500,1824A,114.3389,34.7781,开封市,肿瘤医院,细颗粒物(PM2.5),152,154,191,116,157,68,68,38,38,40,50,7,8,1.2,1.4
2025-12-30T1500,1826A,114.2885,34.7965,开封市,世纪星幼儿园,细颗粒物(PM2.5),193,,169,145,186,66,66,38,38,41,46,7,5,0.7,0.9
2025-12-30T1500,3147A,114.3438,34.8106,开封市,龙亭公园,细颗粒物(PM2.5),169,162,188,128,191,71,71,37,37,41,55,6,5,1.1,1.3
2025-12-30T1500,3210A,114.3644,34.7964,开封市,汴京公园,细颗粒物(PM2.5),180,172,218,136,174,70,70,35,35,41,56,8,6,0.8,1
2025-12-30T1500,3473A,114.2485,34.8306,开封市,技师学院,细颗粒物(PM2.5),145,129,181,111,163,68,68,30,30,36,53,9,8,0.8,1.1
2025-12-30T1500,3592A,114.4644,34.7556,开封市,祥符区生态环境局,细颗粒物(PM2.5),189,,226,142,179,73,73,36,36,38,67,8,7,0.8,0.9
2025-12-30T1500,1951A,84.895,45.6094,克拉玛依市,长征新村,细颗粒物(PM2.5),58,64,68,41,51,47,47,51,49,26,34,6,6,0.7,0.8
2025-12-30T1500,1952A,84.8988,45.5893,克拉玛依市,南林小区,颗粒物(PM10),58,66,64,34,36,52,52,56,53,11,17,1,1,0.8,1
2025-12-30T1500,1954A,84.905,44.3396,克拉玛依市,独山子区,细颗粒物(PM2.5),124,133,139,94,96,52,52,41,41,22,33,5,5,1.0,0.9
2025-12-30T1500,1955A,85.6979,46.098,克拉玛依市,乌尔禾区商贸楼,细颗粒物(PM2.5),63,,53,45,53,64,64,61,61,17,24,7,6,0.7,0.8
2025-12-30T1500,3612A,85.1045,45.6899,克拉玛依市,白碱滩区新站,颗粒物(PM10),58,66,71,40,45,56,56,57,51,17,23,10,9,0.7,0.7
2025-12-30T1500,2697A,76.1454,39.7142,克孜勒苏柯尔克孜自治州,市人民政府,细颗粒物(PM2.5),109,118,114,82,79,24,24,16,16,27,26,6,6,0.7,0.7
2025-12-30T1500,3665A,76.1658,39.7157,克孜勒苏柯尔克孜自治州,克州文化中心,细颗粒物(PM2.5),105,96,100,79,75,27,27,15,15,21,26,4,4,1.1,1
2025-12-30T1500,1450A,102.8204,24.8886,昆明市,呈贡新区,,30,27,31,8,16,96,96,62,62,7,26,3,5,0.4,0.6
2025-12-30T1500,1451A,102.6251,24.9608,昆明市,西山森林公园,,,,,,,,,,,,,,,,
2025-12-30T1500,1452A,102.7252,25.0902,昆明市,龙泉镇,,27,11,37,10,19,85,85,44,44,10,27,3,3,0.4,0.5
2025-12-30T1500,1453A,102.7266,25.0375,昆明市,东风东路,,27,17,29,12,19,85,85,52,52,14,20,4,4,0.3,0.5
2025-12-30T1500,1454A,102.6742,25.0669,昆明市,金鼎山,,35,35,45,6,22,85,85,51,51,8,26,4,3,0.3,0.5
2025-12-30T1500,1455A,102.6644,25.0401,昆明市,碧鸡广场,,27,15,33,10,20,86,86,50,50,8,28,4,4,0.4,0.5
2025-12-30T1500,3179A,102.7494,25.0119,昆明市,官渡区博物馆,,27,23,25,15,17,86,86,60,60,9,20,3,3,0.2,0.4
2025-12-30T1500,3375A,102.8017,24.8336,昆明市,青年创业园,,30,16,28,13,17,96,96,62,62,3,21,4,4,0.5,0.6
2025-12-30T1500,3550A,102.7997,24.9786,昆明市,昆明学院,,29,15,26,8,15,90,90,56,56,8,17,2,3,0.3,0.4
2025-12-30T1500,3551A,102.5967,24.6736,昆明市,晋宁区生态环境分局,,23,14,29,9,17,72,72,48,48,4,15,2,2,0.3,0.5
2025-12-30T1500,3552A,102.6678,24.9856,昆明市,云天化总部,,27,13,27,6,16,86,86,54,54,8,21,5,6,0.5,0.6
2025-12-30T1500,1456A,91.1319,29.6514,拉萨市,八廓街,,31,,20,9,11,97,97,69,69,10,18,8,9,0.4,0.6
2025-12-30T1500,1457A,91.1221,29.6747,拉萨市,市环保局,,,,35,,18,,,47,47,16,24,2,4,0.5,0.9
2025-12-30T1500,1458A,91.0874,29.6475,拉萨市,区监测站,,29,11,17,8,9,90,90,50,50,11,29,4,6,0.6,0.9
2025-12-30T1500,1459A,91.1774,29.6541,拉萨市,西藏大学,,30,11,20,3,8,96,96,69,69,12,19,5,7,0.3,0.4
2025-12-30T1500,1460A,90.9798,29.6588,拉萨市,区辐射站,,27,24,27,7,14,85,85,61,51,19,25,3,4,0.4,0.6
2025-12-30T1500,1461A,91.0834,29.6292,拉萨市,拉萨火车站,,30,14,20,3,9,94,94,65,56,10,21,5,5,0.4,0.6
2025-12-30T1500,2520A,109.2203,23.7256,来宾市,来宾技工学校,"颗粒物(PM10),细颗粒物(PM2.5)",55,59,81,39,59,109,109,72,72,8,24,8,12,0.6,1.1
2025-12-30T1500,3535A,109.1781,23.7297,来宾市,兴宾区政府,细颗粒物(PM2.5),62,59,82,44,60,115,115,61,61,8,20,8,9,0.6,1
2025-12-30T1500,4002A,109.2416,23.7461,来宾市,中南小学,颗粒物(PM10),53,56,84,33,59,111,111,57,57,7,27,5,9,0.6,1.1
2025-12-30T1500,1477A,104.1373,35.9454,兰州市,榆中兰大校区,,,,,,,,,,,,,,,,
2025-12-30T1500,1479A,103.831,36.0464,兰州市,铁路设计院,,,,,,,,,,,,,,,,
2025-12-30T1500,3241A,103.7439,36.0842,兰州市,百合公园,细颗粒物(PM2.5),104,114,111,78,80,70,70,26,26,56,72,51,30,1.5,1.7
2025-12-30T1500,3242A,103.9611,35.998,兰州市,和平,细颗粒物(PM2.5),128,99,98,97,82,87,87,40,40,28,40,33,19,1.4,1.7
2025-12-30T1500,4236A,103.6293,36.0938,兰州市,庄浪东路808号,,,100,104,71,72,69,69,38,38,43,57,,22,,1.4
2025-12-30T1500,4237A,103.7251,36.1043,兰州市,安宁西路88号,细颗粒物(PM2.5),103,121,133,77,83,82,82,35,35,63,83,47,27,1.0,1.5
2025-12-30T1500,4238A,103.8470,36.0676,兰州市,北滨河东路1号,细颗粒物(PM2.5),93,92,125,69,78,56,56,20,20,70,81,35,19,1.8,2.1
2025-12-30T1500,3245A,103.6633,36.533,兰州新区,新区管委会,细颗粒物(PM2.5),69,80,92,50,58,105,105,54,54,21,36,44,22,1.0,1
2025-12-30T1500,3246A,103.6975,36.4789,兰州新区,舟曲中学,细颗粒物(PM2.5),89,86,122,66,72,112,112,70,70,19,50,51,23,0.9,1.2
2025-12-30T1500,1067A,116.6708,39.5111,廊坊市,药材公司,,,20,40,,27,67,67,60,60,6,43,3,2,0.4,0.6
2025-12-30T1500,1068A,116.7214,39.5589,廊坊市,开发区,,22,13,38,3,19,68,68,59,59,9,44,2,2,0.2,0.5
2025-12-30T1500,1070A,116.7244,39.5269,廊坊市,北华航天学院,,21,11,43,3,20,67,67,56,56,7,42,1,2,0.2,0.5
2025-12-30T1500,2919A,116.7022,39.5453,廊坊市,河北工业大学,,21,12,42,3,21,66,66,56,56,9,41,1,2,0.2,0.4
2025-12-30T1500,2535A,103.7723,29.5462,乐山市,花湖湾,,,,,,,,,,,,,,,,
2025-12-30T1500,2536A,103.7627,29.5844,乐山市,牛耳桥,细颗粒物(PM2.5),132,111,116,100,98,29,29,9,9,23,34,8,8,1.0,1.1
2025-12-30T1500,2537A,103.7508,29.6006,乐山市,市第三水厂,细颗粒物(PM2.5),119,121,125,90,92,24,24,7,7,30,39,6,6,1.1,1.2
2025-12-30T1500,2538A,103.7571,29.5664,乐山市,市监测站,细颗粒物(PM2.5),129,119,121,98,96,24,24,7,7,21,31,8,7,1.1,1.2
2025-12-30T1500,3361A,103.7311,29.5628,乐山市,理工大学,细颗粒物(PM2.5),119,112,116,90,92,33,33,9,9,18,34,6,4,1.1,1.1
2025-12-30T1500,2598A,100.2143,26.8576,丽江市,西南郊,,,,,,,,,,,,,,,,
2025-12-30T1500,2599A,100.2497,26.8802,丽江市,丽江古城,,25,15,21,7,9,80,80,68,68,7,11,8,8,0.4,0.5
2025-12-30T1500,2600A,100.2203,26.8906,丽江市,市中心,,26,23,19,8,10,81,81,65,65,10,12,7,6,0.3,0.4
2025-12-30T1500,1267A,119.914,28.4514,丽水市,监测站大楼,细颗粒物(PM2.5),65,66,57,47,41,110,110,48,48,25,39,7,8,0.5,0.8
2025-12-30T1500,1268A,119.93,28.4586,丽水市,莲都小学,细颗粒物(PM2.5),69,64,61,50,47,112,112,48,48,26,44,6,5,0.4,0.5
2025-12-30T1500,1269A,119.879,28.4231,丽水市,余庄前,细颗粒物(PM2.5),65,64,48,47,35,114,114,54,54,24,24,6,5,0.3,0.4
2025-12-30T1500,1173A,119.176,34.5885,连云港市,市环境监测站,,31,31,125,14,97,88,88,50,50,6,42,10,14,0.4,1.1
2025-12-30T1500,3000A,119.3581,34.6972,连云港市,德源药业,,31,31,120,9,84,81,81,54,54,14,37,6,8,0.6,1.1
2025-12-30T1500,3007A,119.178,34.844,连云港市,新城一中,颗粒物(PM10),57,64,158,10,127,79,79,36,36,13,52,10,16,0.3,1.2
2025-12-30T1500,3008A,119.3608,34.7519,连云港市,胡沟管理处,,27,27,112,7,82,69,69,48,48,24,33,8,8,0.9,1.4
2025-12-30T1500,3009A,119.1478,34.5911,连云港市,矿山设计院,,34,34,134,14,95,90,90,48,48,11,44,8,11,0.7,1.4
2025-12-30T1500,3434A,119.2413,34.6539,连云港市,工贸学校,,26,19,126,14,107,83,83,50,50,7,34,10,14,0.5,1.1
2025-12-30T1500,3664A,119.4172,34.7341,连云港市,连云街道,,27,13,119,7,86,84,84,52,52,16,41,6,8,0.8,1.3
2025-12-30T1500,2571A,102.3431,27.8099,凉山彝族自治州,青龙寺,,,,,,,,,,,,,,,,
2025-12-30T1500,2572A,102.2721,27.8415,凉山彝族自治州,邛海宾馆,,31,31,64,20,50,82,82,50,50,6,18,8,9,0.3,0.7
2025-12-30T1500,2573A,102.2625,27.898,凉山彝族自治州,西昌市政府,,44,44,54,30,40,80,80,42,42,11,17,15,11,0.8,0.9
2025-12-30T1500,2574A,102.2685,27.8851,凉山彝族自治州,凉山州政府,细颗粒物(PM2.5),52,37,58,36,50,76,76,44,44,12,20,14,10,0.6,0.8
2025-12-30T1500,4229A,102.2342,27.8859,凉山彝族自治州,凯乐南路30号,,,47,81,31,57,76,76,38,38,23,45,,34,,0.9
2025-12-30T1500,2212A,123.2,41.1953,辽阳市,宏伟区,,26,26,40,17,26,64,64,50,50,5,20,5,8,0.5,0.9
2025-12-30T1500,2213A,123.1683,41.2495,辽阳市,新华园,,21,21,46,3,29,62,62,49,49,7,32,6,12,0.6,1.1
2025-12-30T1500,2214A,123.2354,41.2639,辽阳市,滨河路,,18,12,50,11,28,57,57,39,39,4,30,5,8,0.5,0.9
2025-12-30T1500,2215A,123.149,41.2991,辽阳市,铁西工业园,,18,14,45,12,31,56,56,37,37,8,36,9,9,0.4,0.8
2025-12-30T1500,2227A,125.1358,42.8845,辽源市,环保局,颗粒物(PM10),51,51,82,3,17,60,60,48,48,7,17,3,3,0.3,0.4
2025-12-30T1500,3239A,125.0764,42.9078,辽源市,银鹰制药,,18,15,31,3,17,57,57,53,53,8,22,5,6,0.4,0.5
2025-12-30T1500,1625A,115.9848,36.4372,聊城市,区政府,细颗粒物(PM2.5),144,143,133,110,94,62,62,29,29,50,68,17,17,1.1,1.3
2025-12-30T1500,2878A,116.0072,36.4343,聊城市,聊大东校,细颗粒物(PM2.5),138,151,140,105,99,60,60,32,32,52,65,13,16,1.3,1.3
2025-12-30T1500,3200A,115.9819,36.4978,聊城市,监控中心,细颗粒物(PM2.5),175,160,145,132,110,66,66,31,31,48,61,20,17,1.0,1.1
2025-12-30T1500,3513A,116.0445,36.4361,聊城市,九州社区,细颗粒物(PM2.5),163,169,141,124,100,49,49,35,35,55,53,11,13,1.0,1
2025-12-30T1500,4018A,116.0567,36.4608,聊城市,星美广场,细颗粒物(PM2.5),160,179,159,122,103,51,51,27,27,64,67,9,10,1.1,1.1
2025-12-30T1500,2632A,94.3681,29.6376,林芝市,林芝监测站,,24,6,10,3,5,74,74,59,55,1,3,5,5,0.3,0.3
2025-12-30T1500,2633A,94.3616,29.6616,林芝市,林芝人民医院,,23,6,14,3,6,71,71,55,51,3,3,5,4,0.4,0.4
2025-12-30T1500,2603A,100.0781,23.8982,临沧市,市环保局,,27,17,36,15,37,86,86,42,42,4,12,4,5,0.3,0.4
2025-12-30T1500,2604A,100.0894,23.8822,临沧市,市气象局,,27,22,41,9,21,84,84,42,42,5,13,6,7,0.2,0.4
2025-12-30T1500,1733A,111.5531,36.0783,临汾市,临钢医院,颗粒物(PM10),66,82,88,45,49,69,69,36,36,26,35,25,15,1.0,1
2025-12-30T1500,1734A,111.5028,36.0714,临汾市,技工学校,颗粒物(PM10),63,76,89,43,51,63,63,31,31,29,45,26,16,1.1,1.1
2025-12-30T1500,1736A,111.5018,36.0855,临汾市,市委,细颗粒物(PM2.5),67,73,101,48,51,71,71,35,35,31,48,31,20,1.5,1.6
2025-12-30T1500,3018A,111.505,36.1014,临汾市,唐尧大酒店,细颗粒物(PM2.5),63,74,94,45,47,69,69,31,31,33,47,26,15,1.0,1.2
2025-12-30T1500,4244A,111.4879,36.0530,临汾市,启星学校,,,82,89,50,55,65,65,34,34,31,55,33,16,,1.6
2025-12-30T1500,4271A,103.2464,35.6123,临夏回族自治州,滨河东路1号,细颗粒物(PM2.5),90,113,157,67,90,81,81,40,40,19,35,14,8,0.9,1.6
2025-12-30T1500,4310A,103.2093,35.5995,临夏回族自治州,新华街21号,细颗粒物(PM2.5),78,86,140,57,95,73,73,28,28,21,42,17,13,0.8,1.8
2025-12-30T1500,1618A,118.3429,35.0532,临沂市,沂河小区,细颗粒物(PM2.5),84,83,148,62,128,75,75,41,41,30,60,13,13,0.7,1.2
2025-12-30T1500,1619A,118.295,35.0583,临沂市,鲁南制药厂,细颗粒物(PM2.5),78,80,139,57,108,72,72,45,45,37,56,14,15,0.7,1.1
2025-12-30T1500,1620A,118.2794,34.9976,临沂市,新光毛纺厂,细颗粒物(PM2.5),85,80,141,63,117,87,87,50,50,26,55,13,16,0.6,1.2
2025-12-30T1500,1621A,118.3956,35.0888,临沂市,河东保险公司,细颗粒物(PM2.5),65,70,151,47,111,77,77,38,38,21,56,18,12,0.7,1.3
2025-12-30T1500,3370A,118.3564,35.0215,临沂市,十里堡居委,细颗粒物(PM2.5),62,70,147,44,102,76,76,39,39,37,66,12,13,0.8,1.3
2025-12-30T1500,3496A,118.3604,35.1084,临沂市,南坊新区,细颗粒物(PM2.5),79,80,137,58,109,73,73,42,42,33,58,13,13,0.7,1.2
2025-12-30T1500,3860A,118.3920,35.0300,临沂市,皇山花园小区,细颗粒物(PM2.5),75,78,160,55,108,78,78,41,41,30,65,14,17,0.9,1.4
2025-12-30T1500,1870A,109.4856,24.3895,柳州市,柳东小学,细颗粒物(PM2.5),55,48,86,39,64,104,104,62,62,8,18,8,9,0.7,0.9
2025-12-30T1500,1871A,109.4157,24.3277,柳州市,环保监测站,细颗粒物(PM2.5),53,48,97,37,68,102,102,51,51,8,33,6,10,0.5,0.9
2025-12-30T1500,1872A,109.389,24.341,柳州市,河西水厂,细颗粒物(PM2.5),63,58,107,45,61,107,107,54,54,12,32,6,9,0.7,1
2025-12-30T1500,1873A,109.4311,24.2921,柳州市,市四中,细颗粒物(PM2.5),57,52,93,40,66,100,100,52,52,13,35,9,14,0.6,1.1
2025-12-30T1500,1874A,109.4006,24.3631,柳州市,市九中,细颗粒物(PM2.5),67,,101,48,73,103,103,55,55,9,34,10,14,0.6,1
2025-12-30T1500,1875A,109.4958,24.3134,柳州市,古亭山,颗粒物(PM10),58,65,72,32,49,105,105,53,53,10,24,10,9,0.5,0.7
2025-12-30T1500,3402A,109.5422,24.3996,柳州市,市二中,,46,46,81,25,61,102,102,54,54,11,24,9,9,0.7,0.9
2025-12-30T1500,2307A,116.5079,31.737,六安市,监测大楼,细颗粒物(PM2.5),168,139,147,127,131,107,107,58,58,25,42,6,4,0.8,0.9
2025-12-30T1500,2308A,116.4738,31.7643,六安市,皖西学院,细颗粒物(PM2.5),168,156,164,127,134,106,106,65,65,25,38,5,3,0.9,0.8
2025-12-30T1500,2309A,116.4996,31.7905,六安市,朝阳厂,细颗粒物(PM2.5),170,134,148,129,126,105,105,61,61,29,37,6,4,0.9,0.9
2025-12-30T1500,2310A,116.5567,31.7886,六安市,开发区,细颗粒物(PM2.5),143,149,167,109,119,109,109,61,61,25,47,4,2,0.8,0.8
2025-12-30T1500,2576A,104.8,26.5892,六盘水市,窑上,,30,25,47,21,31,42,42,48,40,11,12,3,3,0.5,0.6
2025-12-30T1500,2577A,104.83,26.5917,六盘水市,黄土坡,,22,19,32,15,25,35,35,46,30,18,20,6,6,0.7,0.8
2025-12-30T1500,2578A,104.89,26.5939,六盘水市,水钢,,25,25,32,10,26,34,34,45,31,13,12,3,4,0.5,0.6
2025-12-30T1500,2579A,104.8475,26.5894,六盘水市,民中,,32,,34,22,28,35,35,45,30,13,17,4,5,0.6,0.8
2025-12-30T1500,2580A,104.9544,26.5506,六盘水市,双水,,18,17,30,12,23,38,38,44,32,12,13,4,4,0.1,0.2
2025-12-30T1500,2335A,117.0189,25.1181,龙岩市,龙岩师专,,,,,,,,,,,,,,,,
2025-12-30T1500,2336A,117.0217,25.1033,龙岩市,龙岩市监测站,,33,33,40,12,24,94,94,55,55,9,34,11,16,0.4,0.6
2025-12-30T1500,2337A,117.0258,25.0661,龙岩市,闽西职业技术学院,,32,26,46,12,24,102,102,50,50,7,31,9,16,0.5,0.6
2025-12-30T1500,2338A,117.0196,25.0306,龙岩市,龙岩学院,,32,25,31,12,22,102,102,61,61,8,19,9,9,0.5,0.5
2025-12-30T1500,2665A,105.0822,33.3261,陇南市,汉王镇固水子,,,,,,,,,,,,,,,,
2025-12-30T1500,2885A,104.9339,33.3826,陇南市,滨江中学,颗粒物(PM10),75,100,108,44,53,49,49,20,20,19,60,7,21,0.8,2.9
2025-12-30T1500,3247A,104.955,33.371,陇南市,市总工会,颗粒物(PM10),55,59,83,34,41,52,52,28,28,17,37,5,7,0.9,1.2
2025-12-30T1500,2487A,111.9589,27.8901,娄底市,电视发射台,,,,,,,,,,,,,,,,
2025-12-30T1500,2488A,111.9975,27.725,娄底市,市监测站,细颗粒物(PM2.5),97,94,113,72,91,124,124,63,63,15,35,8,17,0.6,1.4
2025-12-30T1500,2489A,112.0194,27.7314,娄底市,市委党校,细颗粒物(PM2.5),94,88,110,70,84,117,117,64,64,22,37,9,11,0.6,1
2025-12-30T1500,2490A,111.9561,27.7569,娄底市,涟钢,细颗粒物(PM2.5),68,74,121,49,92,118,118,70,70,12,24,9,13,0.6,1.1
2025-12-30T1500,2491A,111.9892,27.7044,娄底市,市政府,细颗粒物(PM2.5),105,102,113,79,92,108,108,52,52,24,38,9,10,0.4,1.1
2025-12-30T1500,1893A,105.4324,28.9634,泸州市,九狮山,,,,,,,,,,,,,,,,
2025-12-30T1500,1894A,105.4427,28.9063,泸州市,小市上码头,细颗粒物(PM2.5),67,77,128,48,93,46,46,16,16,20,34,10,12,0.7,1
2025-12-30T1500,1895A,105.4241,28.8573,泸州市,兰田宪桥,细颗粒物(PM2.5),83,82,113,61,92,38,38,14,14,21,27,8,8,0.9,1.2
2025-12-30T1500,1896A,105.4379,28.8833,泸州市,市环监站,细颗粒物(PM2.5),85,82,119,63,89,35,35,12,12,21,29,8,8,0.6,0.9
2025-12-30T1500,4272A,105.3689,28.7783,泸州市,纳溪中医医院,细颗粒物(PM2.5),99,104,95,74,82,35,35,10,10,19,25,7,8,0.8,1.1
2025-12-30T1500,2183A,111.1406,37.5211,吕梁市,环保局,,44,44,64,18,25,75,75,34,34,8,38,8,6,0.3,0.4
2025-12-30T1500,2185A,111.1297,37.5136,吕梁市,自来水公司,,,,77,,32,77,77,35,35,9,36,7,8,0.3,0.7
2025-12-30T1500,2867A,111.1283,37.51,吕梁市,马茂庄小学,颗粒物(PM10),63,76,72,14,25,70,70,32,32,14,40,8,8,0.6,0.7
2025-12-30T1500,1812A,112.3931,34.6516,洛阳市,市委党校,细颗粒物(PM2.5),198,174,114,148,85,73,73,37,37,43,50,11,10,1.0,1
2025-12-30T1500,1815A,112.494,34.6886,洛阳市,河南林校,细颗粒物(PM2.5),213,186,129,163,98,62,62,32,32,47,50,10,9,1.1,1
2025-12-30T1500,1816A,112.3844,34.623,洛阳市,开发区管委会,细颗粒物(PM2.5),229,214,125,179,93,67,67,37,37,38,38,12,10,1.0,0.9
2025-12-30T1500,1817A,112.4267,34.6258,洛阳市,市委新办公区,细颗粒物(PM2.5),216,226,128,166,94,62,62,34,34,46,42,14,11,1.1,0.9
2025-12-30T1500,3340A,112.6005,34.6326,洛阳市,伊滨,细颗粒物(PM2.5),215,212,121,165,86,49,49,28,28,51,46,11,8,1.2,0.8
2025-12-30T1500,3341A,112.4951,34.6332,洛阳市,中移产业园,细颗粒物(PM2.5),224,192,118,174,97,58,58,28,28,52,50,15,12,1.2,0.9
2025-12-30T1500,3593A,112.5736,34.8993,洛阳市,吉利监测站,细颗粒物(PM2.5),168,144,111,127,95,65,65,41,41,45,49,13,10,1.0,1
2025-12-30T1500,3635A,112.3677,34.662,洛阳市,河科大西苑校区,细颗粒物(PM2.5),180,181,122,136,81,78,78,39,39,36,47,12,10,1.2,1.2
2025-12-30T1500,3636A,112.4388,34.6781,洛阳市,英才小学,细颗粒物(PM2.5),208,199,131,158,97,70,70,39,39,46,55,11,10,1.2,1.2
2025-12-30T1500,4214A,112.4600,34.6949,洛阳市,春都路1号院,细颗粒物(PM2.5),182,212,141,137,85,59,59,34,34,40,40,11,11,1.1,1.1
2025-12-30T1500,2399A,114.051,33.5699,漯河市,三五一五工厂,细颗粒物(PM2.5),159,153,210,121,165,91,91,50,50,18,52,9,8,0.8,1.1
2025-12-30T1500,2400A,114.0055,33.5698,漯河市,漯河大学,细颗粒物(PM2.5),140,136,180,107,152,96,96,50,50,19,50,8,7,0.7,0.9
2025-12-30T1500,2401A,114.0138,33.5828,漯河市,市水利局,细颗粒物(PM2.5),140,132,189,107,153,74,74,36,36,24,48,8,8,0.8,1
2025-12-30T1500,2402A,114.0261,33.5698,漯河市,市广电局,细颗粒物(PM2.5),160,142,188,122,157,96,96,51,51,18,47,9,8,0.7,0.9
2025-12-30T1500,3478A,113.9749,33.5664,漯河市,市图书馆,细颗粒物(PM2.5),158,160,201,120,152,84,84,48,48,21,44,8,7,1.0,1.1
2025-12-30T1500,4250A,114.0892,33.5882,漯河市,韶山路11号,细颗粒物(PM2.5),144,143,210,110,162,88,88,44,44,22,52,11,10,0.9,1.1
2025-12-30T1500,1798A,118.5092,31.6837,马鞍山市,湖东路四小,细颗粒物(PM2.5),109,115,137,82,99,117,117,87,87,19,31,6,6,0.7,0.9
2025-12-30T1500,1799A,118.5024,31.6449,马鞍山市,开发区,细颗粒物(PM2.5),120,121,138,91,109,117,117,86,86,19,28,6,6,0.8,0.9
2025-12-30T1500,1802A,118.6245,31.7241,马鞍山市,濮塘,,,,,,,,,,,,,,,,
2025-12-30T1500,3633A,118.4918,31.6809,马鞍山市,雨山,细颗粒物(PM2.5),118,124,142,89,104,121,121,89,89,18,30,7,7,0.8,0.9
2025-12-30T1500,4191A,118.5274,31.72227,马鞍山市,慈湖高新区,细颗粒物(PM2.5),117,117,144,88,114,120,120,87,87,17,29,6,6,0.7,0.8
2025-12-30T1500,1686A,111.0286,21.4688,茂名市,电白南海,细颗粒物(PM2.5),64,61,87,46,54,134,134,90,90,15,28,13,20,0.9,1
2025-12-30T1500,1687A,110.9294,21.6533,茂名市,茂石化七小,颗粒物(PM10),51,51,87,31,54,137,137,89,89,14,30,7,23,0.4,0.7
2025-12-30T1500,1688A,110.9107,21.6687,茂名市,健康路,臭氧1小时,57,51,80,31,60,165,165,102,102,16,24,10,24,0.6,0.9
2025-12-30T1500,1689A,110.8592,21.6828,茂名市,高岭,"颗粒物(PM10),臭氧1小时",64,78,130,41,71,171,171,99,99,23,39,13,24,0.7,0.9
2025-12-30T1500,3450A,111.01,21.5165,茂名市,电白水东,颗粒物(PM10),53,56,77,34,50,126,126,88,88,14,24,14,19,0.6,0.7
2025-12-30T1500,2539A,104.0308,30.0478,眉山市,黑龙滩水库,,,,,,,,,,,,,,,,
2025-12-30T1500,2540A,103.8416,30.0874,眉山市,气象局,细颗粒物(PM2.5),94,116,139,70,115,62,62,22,22,14,34,10,10,0.8,1
2025-12-30T1500,3137A,103.8578,30.0744,眉山市,市委党校,细颗粒物(PM2.5),89,90,125,66,103,55,55,21,21,15,35,7,7,0.8,1
2025-12-30T1500,3148A,103.8291,30.0564,眉山市,区人社局,细颗粒物(PM2.5),85,80,136,63,115,59,59,18,18,17,36,7,7,0.7,0.9
2025-12-30T1500,1690A,116.1231,24.3284,梅州市,梅江月梅,,36,26,46,25,30,105,105,47,47,13,28,7,6,0.5,0.6
2025-12-30T1500,1691A,116.0797,24.2719,梅州市,梅县新城,,,,46,19,31,106,106,51,51,14,35,9,8,0.6,0.7
2025-12-30T1500,1692A,116.1248,24.2654,梅州市,环境监控中心,,32,28,44,22,28,98,98,48,48,13,37,7,13,0.5,0.6
2025-12-30T1500,3315A,116.1233,24.2991,梅州市,梅龙,,32,27,43,16,25,101,101,47,47,9,29,9,9,0.6,0.7
2025-12-30T1500,1878A,104.7778,31.4741,绵阳市,富乐山,细颗粒物(PM2.5),132,119,94,100,78,23,23,13,13,23,36,11,11,0.8,0.8
2025-12-30T1500,1880A,104.6697,31.4668,绵阳市,高新区自来水公司,细颗粒物(PM2.5),147,149,113,112,88,16,16,6,6,40,47,9,9,0.8,1
2025-12-30T1500,1881A,104.7287,31.5075,绵阳市,三水厂,细颗粒物(PM2.5),139,137,117,106,87,22,22,6,6,32,47,7,8,0.9,1
2025-12-30T1500,3491A,104.69,31.5322,绵阳市,西科大附属小学,细颗粒物(PM2.5),137,141,115,104,83,17,17,6,6,33,42,8,8,0.9,0.9
2025-12-30T1500,3492A,104.5648,31.5343,绵阳市,安州区旅游局,细颗粒物(PM2.5),138,,83,105,82,12,12,17,15,47,38,12,12,1.1,1.1
2025-12-30T1500,4226A,104.7651,31.4531,绵阳市,绵阳市气象局,细颗粒物(PM2.5),127,116,104,96,79,22,22,14,14,24,38,10,9,1.4,1.4
2025-12-30T1500,1784A,129.61,44.561,牡丹江市,环保大楼,,,36,35,21,22,55,55,40,,6,18,,10,0.4,0.5
2025-12-30T1500,1785A,129.6115,44.5782,牡丹江市,文化广场,,39,39,42,18,28,52,52,42,42,8,18,4,6,0.4,0.6
2025-12-30T1500,1787A,129.6364,44.6075,牡丹江市,机车工厂,,30,30,54,16,34,59,59,43,43,5,30,2,9,0.2,0.6
2025-12-30T1500,1788A,129.6386,44.5462,牡丹江市,第一中学,,30,,29,21,23,53,53,43,43,4,18,4,6,0.3,0.4
2025-12-30T1500,4287A,129.5992,44.5964,牡丹江市,东晓云街98号,,37,37,62,23,41,53,53,39,39,4,26,4,6,0.4,0.8
2025-12-30T1500,2531A,105.0703,29.61,内江市,市监测站,细颗粒物(PM2.5),85,,91,63,87,50,50,28,28,18,29,5,6,0.8,1.1
2025-12-30T1500,2532A,105.0717,29.5947,内江市,东兴区政府,细颗粒物(PM2.5),79,60,94,58,86,37,37,22,22,26,32,4,5,0.6,0.7
2025-12-30T1500,2533A,105.0653,29.5817,内江市,内江二中,细颗粒物(PM2.5),89,66,109,66,92,34,34,25,25,29,35,4,5,0.8,1
2025-12-30T1500,2534A,105.0406,29.5822,内江市,内江日报社,细颗粒物(PM2.5),84,,102,62,89,36,36,18,18,32,42,2,3,0.7,0.9
2025-12-30T1500,2628A,92.0657,31.4846,那曲市,那曲监测站,,26,20,51,8,33,83,83,52,52,8,28,7,12,0.7,1.4
2025-12-30T1500,4243A,92.0515,31.4787,那曲市,那曲市委宣传部,,26,6,20,3,11,82,82,48,48,1,12,4,6,0.4,0.8
2025-12-30T1500,1290A,115.8931,28.6843,南昌市,省外办,细颗粒物(PM2.5),100,90,90,75,75,100,100,,,34,34,10,10,1.2,1.2
2025-12-30T1500,1291A,115.8886,28.7003,南昌市,省林业公司,细颗粒物(PM2.5),94,90,81,70,64,95,95,75,75,27,42,6,7,1.1,0.9
2025-12-30T1500,1292A,115.8126,28.7442,南昌市,林科所,细颗粒物(PM2.5),89,88,72,66,53,96,96,87,87,29,24,8,9,0.4,0.3
2025-12-30T1500,1294A,115.8518,28.687,南昌市,建工学校,细颗粒物(PM2.5),93,98,92,69,65,90,90,76,76,33,34,16,16,0.8,0.7
2025-12-30T1500,1295A,115.8921,28.6424,南昌市,象湖,细颗粒物(PM2.5),85,65,82,63,67,100,100,78,78,22,36,11,12,0.9,1
2025-12-30T1500,1296A,115.7423,28.7996,南昌市,武术学校,,,,,,,,,,,,,,,,
2025-12-30T1500,3046A,115.9084,28.6062,南昌市,机电学校,细颗粒物(PM2.5),92,97,100,68,70,105,105,84,84,24,40,8,9,0.8,0.8
2025-12-30T1500,3690A,115.9721,28.7031,南昌市,外国语学校,细颗粒物(PM2.5),87,92,92,64,68,102,102,74,74,23,37,14,14,0.7,0.7
2025-12-30T1500,4192A,115.9316,28.68677,南昌市,南京东路235号,细颗粒物(PM2.5),95,77,91,71,77,103,103,80,80,30,41,8,8,0.5,0.5
2025-12-30T1500,1905A,106.056,30.8064,南充市,西山风景区,,,,,,,,,,,,,,,,
2025-12-30T1500,1906A,106.0789,30.8023,南充市,南充市委,细颗粒物(PM2.5),133,116,122,101,108,7,7,2,2,35,31,4,5,0.9,1
2025-12-30T1500,1907A,106.1031,30.8217,南充市,南充炼油厂,细颗粒物(PM2.5),132,110,122,100,107,11,11,2,2,25,25,6,6,1.0,1
2025-12-30T1500,4227A,106.1083,30.7884,南充市,梨树横街98号,细颗粒物(PM2.5),145,130,116,111,95,6,6,6,5,33,28,8,6,0.9,0.8
2025-12-30T1500,4304A,106.1172,30.843,南充市,清泉寺北路188号,细颗粒物(PM2.5),117,109,104,88,89,8,8,4,4,24,25,5,5,0.9,0.9
2025-12-30T1500,4305A,106.067,30.7616,南充市,同庆路1号,细颗粒物(PM2.5),144,124,117,110,103,3,3,3,3,38,30,7,7,5.1,1.4
2025-12-30T1500,1151A,118.8086,32.1065,南京市,迈皋桥,细颗粒物(PM2.5),70,86,130,51,90,87,87,64,64,25,33,4,4,0.9,0.8
2025-12-30T1500,1152A,118.7538,32.0551,南京市,草场门,细颗粒物(PM2.5),83,100,134,61,94,78,78,62,62,33,40,8,7,0.6,0.7
2025-12-30T1500,1153A,118.7794,32.0745,南京市,山西路,细颗粒物(PM2.5),83,102,146,61,99,95,95,73,73,35,47,4,4,0.6,0.8
2025-12-30T1500,1154A,118.7752,32.0023,南京市,中华门,细颗粒物(PM2.5),70,78,128,51,94,114,114,76,76,1,22,4,5,0.4,0.7
2025-12-30T1500,1155A,118.8109,32.0309,南京市,瑞金路,细颗粒物(PM2.5),79,83,132,58,90,101,101,72,72,15,36,4,4,0.6,0.8
2025-12-30T1500,1156A,118.7997,32.0754,南京市,玄武湖,细颗粒物(PM2.5),83,95,135,61,99,81,81,64,64,24,26,4,4,0.7,1
2025-12-30T1500,1157A,118.6414,32.0931,南京市,浦口,细颗粒物(PM2.5),102,116,149,76,104,85,85,60,60,30,31,10,9,0.8,0.8
2025-12-30T1500,1158A,118.7356,31.9996,南京市,奥体中心,细颗粒物(PM2.5),73,87,134,53,97,125,125,89,89,12,32,6,5,0.5,0.8
2025-12-30T1500,1159A,118.9125,32.1028,南京市,仙林大学城,颗粒物(PM10),69,88,132,48,101,84,84,57,57,25,41,9,8,0.8,1.1
2025-12-30T1500,3422A,118.8436,31.9198,南京市,江宁彩虹桥,细颗粒物(PM2.5),77,102,142,56,87,119,119,78,78,12,30,3,4,0.5,0.8
2025-12-30T1500,3427A,118.8554,32.3578,南京市,六合雄州,细颗粒物(PM2.5),67,74,159,48,104,94,94,67,67,17,27,10,9,0.6,1
2025-12-30T1500,4249A,118.8708,31.3402,南京市,汶溪路181号,细颗粒物(PM2.5),150,136,137,115,122,104,104,78,78,32,37,6,7,0.9,1
2025-12-30T1500,4312A,119.019,31.6512,南京市,中山西路1号,细颗粒物(PM2.5),109,92,117,82,105,95,95,68,68,32,37,4,4,1.3,1.3
2025-12-30T1500,1401A,108.3103,22.7881,南宁市,二十一中,细颗粒物(PM2.5),74,73,70,54,57,108,108,69,69,13,20,6,6,0.8,0.8
2025-12-30T1500,1402A,108.3141,22.8528,南宁市,北湖,细颗粒物(PM2.5),63,60,66,45,49,120,120,75,75,16,26,6,6,0.8,0.9
2025-12-30T1500,1403A,108.3206,22.8225,南宁市,市监测站,,,60,63,48,50,116,116,68,68,,24,9,9,0.8,0.9
2025-12-30T1500,1404A,108.3829,22.8037,南宁市,大自然花园,细颗粒物(PM2.5),69,67,72,50,53,124,124,73,73,14,23,9,8,0.7,0.8
2025-12-30T1500,1405A,108.4394,22.7904,南宁市,仙葫,,,,,,,,,,,,,,,,
2025-12-30T1500,1406A,108.2397,22.8467,南宁市,区农职院,细颗粒物(PM2.5),70,65,69,51,51,116,116,60,60,14,29,10,10,1.0,1
2025-12-30T1500,1407A,108.3275,22.735,南宁市,英华嘉园,细颗粒物(PM2.5),69,71,74,50,58,114,114,60,60,14,31,6,6,0.7,0.9
2025-12-30T1500,3401A,108.4834,22.7618,南宁市,红星社区,细颗粒物(PM2.5),62,63,73,44,57,124,124,70,70,8,22,8,7,0.7,0.9
2025-12-30T1500,4221A,108.2177,22.7774,南宁市,乐贤路16号,细颗粒物(PM2.5),65,69,80,47,54,104,104,50,50,16,41,5,6,0.8,1
2025-12-30T1500,2331A,118.0966,26.6761,南平市,茫荡山,,,,16,,9,,,83,,,,,1,,
2025-12-30T1500,2332A,118.1681,26.6369,南平市,南平市监测站,,27,22,31,15,24,86,86,38,38,12,27,5,10,0.5,0.8
2025-12-30T1500,2333A,118.1825,26.6489,南平市,南平铝业有限公司,,37,37,31,17,24,84,84,34,34,11,28,6,12,0.6,0.8
2025-12-30T1500,2334A,118.1756,26.6272,南平市,南平七中,,40,40,31,15,23,88,88,38,38,11,23,7,10,0.6,0.8
2025-12-30T1500,1168A,120.9098,31.9663,南通市,狼山街道,,28,28,104,9,76,86,86,74,74,7,21,3,4,0.5,0.9
2025-12-30T1500,1169A,120.86,32.0005,南通市,虹桥,,26,25,101,11,77,82,82,71,71,12,27,2,5,0.4,0.9
2025-12-30T1500,1170A,120.87,32.02,南通市,城中,,31,31,114,13,79,79,79,65,65,12,26,3,6,0.3,0.7
2025-12-30T1500,1171A,120.94,31.93,南通市,星湖花园,,29,29,109,16,79,83,83,72,72,9,25,4,5,0.6,0.9
2025-12-30T1500,1172A,120.81,32.0417,南通市,紫琅学院,,39,39,117,10,82,84,84,70,70,12,26,3,5,0.5,0.9
2025-12-30T1500,3291A,121.067,32.062,南通市,通州监测站,,29,24,103,7,77,90,90,82,81,16,26,4,4,0.4,0.8
2025-12-30T1500,3432A,120.9348,31.9883,南通市,环境教育馆,,31,31,106,8,85,90,90,74,74,20,31,4,5,0.3,0.7
2025-12-30T1500,2404A,112.5224,33.0122,南阳市,瓦房庄,细颗粒物(PM2.5),180,153,114,136,92,107,107,79,79,17,20,9,8,0.9,0.8
2025-12-30T1500,2405A,112.5003,32.9735,南阳市,汉画馆,细颗粒物(PM2.5),158,152,119,120,87,106,106,79,79,20,24,8,7,0.9,0.9
2025-12-30T1500,2406A,112.5573,33.027,南阳市,气象站,细颗粒物(PM2.5),180,189,133,136,86,106,106,76,76,20,23,8,7,0.8,0.7
2025-12-30T1500,2407A,112.5481,32.9689,南阳市,理工学院,细颗粒物(PM2.5),148,160,123,113,82,105,105,77,77,20,25,8,7,0.9,0.8
2025-12-30T1500,4008A,112.5234,32.9922,南阳市,卧龙区政府,细颗粒物(PM2.5),166,176,133,126,88,104,104,79,79,22,25,8,8,0.9,0.9
2025-12-30T1500,1234A,121.8358,29.911,宁波市,区环保大楼,细颗粒物(PM2.5),72,90,102,52,60,101,101,59,59,35,72,6,6,0.7,0.8
2025-12-30T1500,1235A,121.56,29.82,宁波市,万里学院,细颗粒物(PM2.5),80,94,102,59,69,109,109,56,56,23,69,6,6,0.8,0.8
2025-12-30T1500,1236A,121.713,29.9572,宁波市,龙赛医院,细颗粒物(PM2.5),59,66,120,42,76,102,102,59,59,23,73,4,5,0.6,0.9
2025-12-30T1500,1239A,121.633,29.7733,宁波市,钱湖水厂,细颗粒物(PM2.5),79,79,86,58,56,121,121,52,52,20,51,6,6,0.7,0.8
2025-12-30T1500,1240A,121.5856,29.8635,宁波市,太古小学,颗粒物(PM10),62,74,111,43,70,114,114,64,64,14,62,3,4,0.7,0.9
2025-12-30T1500,1241A,121.524,29.8674,宁波市,市环境监测中心,细颗粒物(PM2.5),72,67,99,52,71,109,109,66,66,17,56,6,7,0.8,1
2025-12-30T1500,2871A,121.6147,29.9017,宁波市,万里国际学校,颗粒物(PM10),65,80,118,43,82,107,107,67,67,24,71,4,5,0.6,0.8
2025-12-30T1500,3710A,121.5594,29.8975,宁波市,白沙活动中心,颗粒物(PM10),65,79,94,38,71,107,107,67,67,26,63,6,5,0.5,0.7
2025-12-30T1500,2339A,119.5001,26.6946,宁德市,金涵水库,,,,16,,10,,,50,,,9,,2,,0.4
2025-12-30T1500,2341A,119.5388,26.6612,宁德市,宁德市监测站,,37,29,21,13,12,116,116,65,65,17,21,14,7,0.6,0.6
2025-12-30T1500,3209A,119.5231,26.6562,宁德市,宁德一中,,41,41,37,23,9,114,114,68,68,16,16,15,6,0.6,0.5
2025-12-30T1500,2618A,98.8601,25.8567,怒江傈僳族自治州,州监测站,,27,27,32,12,22,81,81,44,44,5,13,7,7,0.3,0.4
2025-12-30T1500,2619A,98.8546,25.8417,怒江傈僳族自治州,泸水一中,,33,27,30,23,21,72,72,32,32,7,20,6,6,0.5,0.7
2025-12-30T1500,1888A,101.6891,26.571,攀枝花市,弄弄坪,,43,43,56,26,34,86,86,33,33,19,31,17,16,0.9,1.2
2025-12-30T1500,1889A,101.5769,26.5928,攀枝花市,河门口,,44,44,56,21,34,86,86,39,39,19,25,32,22,2.1,1.3
2025-12-30T1500,1890A,101.7169,26.585,攀枝花市,炳草岗,,28,23,83,11,50,89,89,32,32,12,43,13,11,0.9,1.2
2025-12-30T1500,1891A,101.7369,26.5008,攀枝花市,仁和,,33,33,49,21,32,92,92,43,43,14,25,16,15,0.9,1.3
2025-12-30T1500,2835A,101.7227,26.567,攀枝花市,四十中小,,,,71,,45,84,84,34,34,17,44,20,15,1.1,1.5
2025-12-30T1500,1604A,122.0303,41.1489,盘锦市,开发区,,25,25,31,3,20,54,54,51,51,3,24,3,5,0.5,0.8
2025-12-30T1500,1605A,122.0485,41.0883,盘锦市,兴隆台,,17,13,29,6,20,54,54,51,51,11,40,5,6,0.5,0.8
2025-12-30T1500,1606A,121.8297,41.1028,盘锦市,新生街道,,20,20,20,3,11,58,58,48,48,8,36,5,4,0.3,0.5
2025-12-30T1500,1832A,113.3257,33.742,平顶山市,新华旅馆,细颗粒物(PM2.5),210,197,175,160,114,95,95,42,42,37,60,12,9,1.1,1.1
2025-12-30T1500,1833A,113.2919,33.737,平顶山市,规划设计院,细颗粒物(PM2.5),223,252,203,173,124,93,93,39,39,47,66,10,8,1.0,1.1
2025-12-30T1500,1834A,113.182,33.774,平顶山市,平顶山工学院,细颗粒物(PM2.5),218,220,156,168,114,99,99,59,59,31,41,9,10,0.8,0.7
2025-12-30T1500,3204A,113.3025,33.73,平顶山市,规划局,细颗粒物(PM2.5),219,227,175,169,117,96,96,42,42,40,55,11,9,1.2,1.1
2025-12-30T1500,3594A,112.8867,33.9116,平顶山市,石龙区,细颗粒物(PM2.5),205,197,151,155,95,102,102,54,54,30,62,11,10,1.2,0.8
2025-12-30T1500,2656A,106.6692,35.5461,平凉市,聚贤嘉苑,颗粒物(PM10),69,88,59,45,34,42,42,30,30,40,45,7,6,0.8,0.7
2025-12-30T1500,2657A,106.7021,35.5307,平凉市,博物馆,颗粒物(PM10),67,84,64,47,38,46,46,28,28,43,40,14,12,0.8,0.9
2025-12-30T1500,2347A,114.0997,27.5002,萍乡市,武功山,,,,,,,,,,,,,,,,
2025-12-30T1500,2348A,113.8385,27.6434,萍乡市,中医院,细颗粒物(PM2.5),73,80,132,53,88,126,126,56,56,25,53,10,13,1.0,1.8
2025-12-30T1500,2349A,113.8493,27.6253,萍乡市,市政府车库,细颗粒物(PM2.5),99,74,103,74,81,135,135,80,80,20,35,12,12,0.9,1.2
2025-12-30T1500,2350A,113.8676,27.6435,萍乡市,市环保局,细颗粒物(PM2.5),99,91,100,74,78,142,142,65,65,26,42,19,22,0.6,1
2025-12-30T1500,2351A,113.866,27.6198,萍乡市,安源区政府,细颗粒物(PM2.5),102,106,118,76,102,115,115,54,54,28,40,18,19,1.1,1.3
2025-12-30T1500,2319A,119.0141,25.4325,莆田市,荔城区仓后路,,33,33,35,11,16,99,99,64,64,16,22,4,3,0.5,0.7
2025-12-30T1500,2320A,119.0015,25.4553,莆田市,莆田市监测站,,42,42,20,11,8,110,110,83,83,11,8,6,4,0.3,0.3
2025-12-30T1500,2321A,119.1119,25.4561,莆田市,涵江区六中,,35,35,30,14,13,107,107,65,65,13,25,5,4,0.5,0.5
2025-12-30T1500,2322A,119.1013,25.3215,莆田市,秀屿区政府,,43,43,29,15,13,112,112,82,82,16,20,6,6,0.6,0.5
2025-12-30T1500,2323A,118.981,25.4792,莆田市,东圳水库,,,,15,,9,,,80,,,1,,4,,0.3
2025-12-30T1500,2392A,115.0312,35.7636,濮阳市,环保局,细颗粒物(PM2.5),159,143,106,121,87,59,59,32,32,46,51,16,10,1.4,1.3
2025-12-30T1500,2394A,115.0574,35.7609,濮阳市,油田运输公司,细颗粒物(PM2.5),169,,126,128,90,62,62,34,34,50,56,19,13,1.5,1.4
2025-12-30T1500,3021A,115,35.7668,濮阳市,濮水河管理处,细颗粒物(PM2.5),147,167,121,112,89,56,56,32,32,47,44,17,8,1.4,1.3
2025-12-30T1500,4216A,115.0924,35.7686,濮阳市,任丘路479号,细颗粒物(PM2.5),196,179,131,147,105,61,61,,,66,67,18,13,1.2,1
2025-12-30T1500,2601A,100.98,22.7633,普洱市,市环保局,,38,38,41,8,12,73,73,43,43,6,11,5,4,0.3,0.4
2025-12-30T1500,2602A,100.9817,22.8322,普洱市,普洱第二中学,,25,24,36,12,19,77,77,42,42,4,17,6,5,0.2,0.4
2025-12-30T1500,2262A,131.0518,45.8751,七台河市,新一中,,,,,,,,,,,,,,,,
2025-12-30T1500,3345A,131.0577,45.7879,七台河市,中波台,,32,32,40,11,16,49,49,40,40,8,18,8,8,0.3,0.4
2025-12-30T1500,3637A,131.0176,45.7761,七台河市,人民广场,,29,29,32,14,19,50,50,45,40,11,20,9,8,0.4,0.4
2025-12-30T1500,3684A,130.8781,45.8222,七台河市,新建矿广场,,34,34,54,16,27,41,41,31,31,6,18,4,9,0.3,0.4
2025-12-30T1500,1779A,123.9305,47.3636,齐齐哈尔市,安居小区,,20,20,19,14,12,49,49,49,47,6,7,1,2,0.6,0.6
2025-12-30T1500,1780A,123.9488,47.3386,齐齐哈尔市,中心广场,,15,9,12,7,6,46,46,48,44,2,3,5,6,0.4,0.4
2025-12-30T1500,1781A,123.9483,47.3227,齐齐哈尔市,农牧车辆厂,,14,12,17,3,8,44,44,47,43,8,6,4,4,0.5,0.5
2025-12-30T1500,1783A,123.945,47.2988,齐齐哈尔市,市环境监测站,,,13,15,9,7,46,46,48,45,5,5,,5,0.5,0.5
2025-12-30T1500,3662A,123.6333,47.2075,齐齐哈尔市,富区青少年活动中心,,23,23,23,7,9,43,43,45,42,6,8,4,5,0.4,0.4
2025-12-30T1500,2591A,107.9783,26.5747,黔东南苗族侗族自治州,市环境监测站,细颗粒物(PM2.5),90,85,66,67,49,31,31,34,30,18,15,5,6,0.9,0.7
2025-12-30T1500,2881A,107.8908,26.5311,黔东南苗族侗族自治州,凯里学院,细颗粒物(PM2.5),65,53,63,47,45,35,35,44,41,18,17,4,5,0.7,0.7
2025-12-30T1500,2593A,107.5228,26.2403,黔南布依族苗族自治州,小围寨,,39,34,56,27,47,32,32,20,17,7,9,5,5,0.6,0.6
2025-12-30T1500,3538A,107.5175,26.2978,黔南布依族苗族自治州,沙坝,,49,36,58,34,49,21,21,26,14,18,14,3,4,0.8,0.8
2025-12-30T1500,2589A,104.9022,25.0925,黔西南布依族苗族自治州,场坝街,,32,32,39,9,29,51,51,38,38,8,13,2,2,0.6,0.7
2025-12-30T1500,2590A,104.8811,25.0992,黔西南布依族苗族自治州,坪东大道,,25,21,36,17,28,52,52,38,38,6,11,5,5,0.5,0.6
2025-12-30T1500,2502A,108.6236,21.9667,钦州市,市环保站,细颗粒物(PM2.5),70,80,125,51,77,154,154,92,92,15,35,6,6,0.6,1.1
2025-12-30T1500,2503A,108.6549,21.9481,钦州市,沙埠小学,颗粒物(PM10),58,66,102,38,79,150,150,84,84,13,39,7,10,0.6,0.9
2025-12-30T1500,2504A,108.5989,21.7431,钦州市,港区一小,,45,45,94,26,63,121,121,76,76,14,41,6,9,0.5,0.8
2025-12-30T1500,3404A,108.5959,21.9633,钦州市,北职校,细颗粒物(PM2.5),60,66,103,43,75,153,153,77,77,15,39,10,10,0.7,1
2025-12-30T1500,1043A,119.7493,40.0116,秦皇岛市,第一关,,38,38,40,20,24,68,68,49,49,12,46,14,10,0.4,0.5
2025-12-30T1500,1044A,119.5897,39.9499,秦皇岛市,监测站,,38,38,52,3,22,62,62,44,44,20,51,14,10,0.3,0.8
2025-12-30T1500,1046A,119.5251,39.9041,秦皇岛市,建设大厦,,36,34,62,25,40,62,62,40,40,13,49,10,8,0.3,0.7
2025-12-30T1500,3132A,119.610547,39.943889,秦皇岛市,文明里,,40,40,60,20,22,64,64,45,45,5,36,14,11,0.1,0.5
2025-12-30T1500,4198A,119.5090,39.8253,秦皇岛市,北戴河轮滑馆,,32,32,53,18,17,68,68,46,46,10,40,9,7,0.3,0.9
2025-12-30T1500,1307A,120.6659,36.2403,青岛市,仰口,,,,,,,,,,,,,,,,
2025-12-30T1500,1310A,120.4134,36.0658,青岛市,市南区东部子站,,46,46,116,19,70,74,74,45,45,17,53,9,10,0.6,1.1
2025-12-30T1500,1311A,120.3664,36.1032,青岛市,四方区子站,"颗粒物(PM10),细颗粒物(PM2.5)",62,73,127,44,82,92,92,40,40,15,54,6,9,0.7,1.2
2025-12-30T1500,1312A,120.2994,36.054,青岛市,市南区西部子站,颗粒物(PM10),53,56,100,32,65,78,78,25,25,18,48,9,6,0.7,1
2025-12-30T1500,1313A,120.4581,36.0858,青岛市,崂山区子站,,,39,108,22,65,76,76,54,54,22,58,10,11,,1
2025-12-30T1500,1315A,120.3999,36.3083,青岛市,城阳区子站,颗粒物(PM10),56,61,128,32,70,81,81,41,41,24,61,9,10,0.7,1.3
2025-12-30T1500,3362A,120.5014,36.4034,青岛市,即墨2号,细颗粒物(PM2.5),74,55,104,54,100,70,70,41,41,22,39,9,10,0.6,1.1
2025-12-30T1500,3642A,120.3503,36.0736,青岛市,市北区南部,颗粒物(PM10),71,91,133,39,72,74,74,31,31,18,52,6,8,0.6,1
2025-12-30T1500,3643A,120.3948,36.1805,青岛市,李沧区北部,细颗粒物(PM2.5),83,83,146,61,107,62,62,33,33,44,65,11,11,1.1,1.7
2025-12-30T1500,4290A,120.1969,35.9546,青岛市,珠江路669号,,36,36,99,24,67,67,67,33,33,25,63,12,13,0.4,0.8
