timepoint,stationcode,longitude,latitude,area,positionname,primarypollutant,aqi,pm10,pm10_24h,pm2_5,pm2_5_24h,o3,o3_24h,o3_8h,o3_8h_24h,no2,no2_24h,so2,so2_24h,co,co_24h
2025-01-06T2100,2566A,102.1879,31.914,阿坝藏族羌族自治州,州农科所,,28,28,39,17,12,45,,62,58,27,18,5,6,1.0,0.9
2025-01-06T2100,2568A,102.2502,31.8896,阿坝藏族羌族自治州,马师校,,45,,14,31,12,15,,50,38,40,24,6,5,0.7,0.5
2025-01-06T2100,3994A,102.2165,31.9024,阿坝藏族羌族自治州,马尔康中学西区,,34,34,20,20,14,26,,58,48,37,20,4,4,0.7,0.5
2025-01-06T2100,2695A,80.292,41.1694,阿克苏地区,电视台,细颗粒物(PM2.5),125,158,110,95,74,18,,49,42,69,37,7,5,2.0,1.1
2025-01-06T2100,2696A,80.2613,41.1551,阿克苏地区,艺术中心,细颗粒物(PM2.5),137,155,120,104,79,7,,39,36,70,37,6,4,1.7,1.3
2025-01-06T2100,2204A,105.6467,38.8363,阿拉善盟,西城区西花园,颗粒物(PM10),69,88,66,46,31,26,,74,63,38,20,11,12,1.3,1.1
2025-01-06T2100,2205A,105.6985,38.8411,阿拉善盟,蒙二幼,颗粒物(PM10),85,119,71,24,17,32,,70,58,32,17,5,6,0.7,0.6
2025-01-06T2100,2206A,105.724,38.8516,阿拉善盟,环保局新楼,,42,42,44,10,15,58,,79,63,12,10,8,10,0.7,0.7
2025-01-06T2100,2708A,88.1264,47.8517,阿勒泰地区,市站,,41,29,17,18,14,0,,48,23,81,50,9,11,0.5,0.4
2025-01-06T2100,2630A,80.1161,32.5,阿里地区,阿里监测站,,30,6,9,3,7,93,,96,96,2,3,8,7,0.5,0.5
2025-01-06T2100,3192A,80.0903,32.5028,阿里地区,阿里藏医院,,29,6,10,3,4,91,,92,92,1,4,7,9,0.4,0.5
2025-01-06T2100,2642A,109.0318,32.6537,安康市,香溪洞,细颗粒物(PM2.5),84,,70,62,60,50,,40,40,17,26,9,10,0.7,0.8
2025-01-06T2100,2644A,109.0072,32.6975,安康市,汉滨区检察院,细颗粒物(PM2.5),140,130,94,107,75,10,,22,18,64,42,9,8,1.6,1.1
2025-01-06T2100,4054A,109.0325,32.6913,安康市,市邮政管理局,细颗粒物(PM2.5),189,186,105,142,77,6,,18,14,63,43,8,6,2.3,1.3
2025-01-06T2100,2291A,117.0809,30.5177,安庆市,环科院,颗粒物(PM10),87,124,99,43,57,86,,101,101,17,38,8,7,0.8,0.9
2025-01-06T2100,2292A,117.0331,30.5119,安庆市,马山宾馆,颗粒物(PM10),85,119,100,46,63,74,,96,94,29,39,8,8,0.6,0.8
2025-01-06T2100,2294A,116.9896,30.6145,安庆市,安庆大学,颗粒物(PM10),89,128,99,45,62,83,,104,104,29,37,12,11,0.7,0.8
2025-01-06T2100,3173A,117.0598,30.5351,安庆市,市人大,颗粒物(PM10),89,127,108,47,66,74,,96,94,35,43,7,6,0.7,0.8
2025-01-06T2100,3122A,105.9606,26.2611,安顺市,伍家关,细颗粒物(PM2.5),59,57,49,42,36,102,,90,90,14,19,14,18,0.8,0.8
2025-01-06T2100,3123A,105.9408,26.2431,安顺市,凤凰山,细颗粒物(PM2.5),65,56,48,47,42,93,,82,82,18,22,20,24,0.7,0.7
2025-01-06T2100,3124A,105.9439,26.2564,安顺市,金钟山,细颗粒物(PM2.5),72,67,52,52,41,94,,89,84,13,16,20,22,0.7,0.7
2025-01-06T2100,3125A,105.8983,26.2481,安顺市,娄家坡,细颗粒物(PM2.5),70,62,52,51,44,87,,78,78,16,20,21,29,0.7,0.7
2025-01-06T2100,1818A,114.4839,36.0621,安阳市,棉研所,细颗粒物(PM2.5),63,54,80,45,25,10,,67,50,62,31,9,9,0.6,0.4
2025-01-06T2100,1819A,114.3551,36.1017,安阳市,红庙街,颗粒物(PM10),56,61,70,28,25,34,,70,60,26,19,2,4,0.9,0.7
2025-01-06T2100,1820A,114.361,36.0681,安阳市,银杏小区,颗粒物(PM10),57,64,77,30,26,25,,68,56,53,29,2,2,0.5,0.5
2025-01-06T2100,3141A,114.3922,36.0878,安阳市,信访局,颗粒物(PM10),53,56,73,27,32,42,,67,57,22,27,2,2,0.3,0.3
2025-01-06T2100,3669A,114.4705,36.0637,安阳市,左辅环卫站,颗粒物(PM10),67,83,86,45,28,21,,69,55,45,22,6,6,0.6,0.5
2025-01-06T2100,3703A,114.2917,36.0949,安阳市,安钢职工学校,颗粒物(PM10),59,68,93,35,36,23,,66,55,46,33,3,6,0.6,0.7
2025-01-06T2100,1748A,123.044,41.1196,鞍山市,深沟寺,细颗粒物(PM2.5),78,72,123,57,97,30,,46,43,44,39,13,14,1.0,1.6
2025-01-06T2100,1749A,123.011,41.0931,鞍山市,太阳城,细颗粒物(PM2.5),72,73,124,52,93,38,,53,50,33,39,9,12,1.0,1.4
2025-01-06T2100,1750A,123.0485,41.1442,鞍山市,太平,细颗粒物(PM2.5),89,106,139,66,98,10,,43,37,64,44,13,18,1.4,1.7
2025-01-06T2100,1751A,122.9642,41.0971,鞍山市,铁西三道街,细颗粒物(PM2.5),89,103,144,66,105,12,,48,39,64,48,18,23,1.2,2
2025-01-06T2100,1752A,122.9341,41.0833,鞍山市,铁西工业园区,细颗粒物(PM2.5),102,109,150,76,116,24,,50,40,60,52,12,17,1.3,1.7
2025-01-06T2100,1753A,123.022,41.0821,鞍山市,明达新区,细颗粒物(PM2.5),73,74,122,53,94,41,,51,50,21,25,11,14,1.1,1.4
2025-01-06T2100,1754A,123.1289,41.0228,鞍山市,千山,,,,114,,66,,,38,,,32,,10,,0.9
2025-01-06T2100,2195A,107.4212,40.761,巴彦淖尔市,附二中,,42,42,47,20,21,46,,57,57,23,37,19,9,0.5,0.5
2025-01-06T2100,2196A,107.37,40.7372,巴彦淖尔市,市环保大楼,,33,33,39,18,18,60,,61,61,13,22,5,5,0.4,0.4
2025-01-06T2100,1956A,86.1472,41.7538,巴音郭楞蒙古自治州,孔雀公园,颗粒物(PM10),100,150,89,61,63,2,,67,60,112,34,6,7,1.4,0.8
2025-01-06T2100,1957A,86.1972,41.7166,巴音郭楞蒙古自治州,棉纺厂,颗粒物(PM10),91,132,111,51,61,2,,63,57,89,48,4,4,1.2,0.9
2025-01-06T2100,1958A,86.2357,41.7173,巴音郭楞蒙古自治州,经济开发区,颗粒物(PM10),64,77,70,23,46,16,,76,63,66,32,3,6,0.6,0.7
2025-01-06T2100,2914A,106.7677,31.8794,巴中市,苏山坪,,46,41,43,32,35,73,,58,51,6,12,3,2,0.5,0.6
2025-01-06T2100,3182A,106.7656,31.8545,巴中市,丽阳花园,细颗粒物(PM2.5),104,115,70,78,51,4,,9,7,48,40,4,4,1.6,1
2025-01-06T2100,3183A,106.7418,31.8654,巴中市,圣泉水务公司,细颗粒物(PM2.5),80,80,54,59,44,10,,23,10,54,34,4,3,0.7,0.6
2025-01-06T2100,3616A,106.7616,31.8344,巴中市,市中心医院,细颗粒物(PM2.5),99,113,71,74,56,3,,10,6,40,37,4,3,1.0,0.8
2025-01-06T2100,2235A,122.7911,45.6077,白城市,洮北区环保局,细颗粒物(PM2.5),69,,94,50,91,59,,61,55,18,35,10,10,0.8,1.1
2025-01-06T2100,2236A,122.8738,45.5725,白城市,市环保局,颗粒物(PM10),74,97,105,48,78,7,,56,36,62,42,8,6,0.8,0.9
2025-01-06T2100,2231A,126.4219,41.9171,白山市,喜丰,细颗粒物(PM2.5),53,51,62,37,42,42,,63,59,32,28,12,14,1.0,1
2025-01-06T2100,2232A,126.4077,41.9419,白山市,环保局,颗粒物(PM10),61,72,75,43,51,46,,69,66,21,24,8,10,1.1,1.2
2025-01-06T2100,2647A,104.1724,36.5446,白银市,第三小学,颗粒物(PM10),55,60,74,20,43,64,,77,77,22,32,10,109,0.8,1.3
2025-01-06T2100,2648A,104.1465,36.5482,白银市,动力公司,,48,48,54,26,37,68,,96,85,22,27,6,82,0.5,0.8
2025-01-06T2100,2512A,106.6103,23.9011,百色市,市监测站,细颗粒物(PM2.5),82,97,70,60,47,44,,112,106,65,35,11,12,1.3,1.1
2025-01-06T2100,2513A,106.6538,23.8859,百色市,市中心血站,细颗粒物(PM2.5),125,164,105,95,73,34,,102,94,87,49,14,23,1.3,1.2
2025-01-06T2100,3406A,106.6085,23.8798,百色市,祈福高中,"颗粒物(PM10),细颗粒物(PM2.5)",95,140,97,71,50,72,,98,98,50,43,9,9,1.1,1
2025-01-06T2100,2270A,117.396,32.939,蚌埠市,工人疗养院,,42,42,121,20,50,60,,69,65,25,41,6,7,0.4,0.6
2025-01-06T2100,2271A,117.3605,32.9427,蚌埠市,百货大楼,,40,40,126,22,53,51,,68,66,27,47,6,7,0.5,0.7
2025-01-06T2100,2273A,117.4185,32.8911,蚌埠市,蚌埠学院,,44,44,114,19,49,63,,74,71,20,37,7,8,0.3,0.5
2025-01-06T2100,2274A,117.3533,32.9673,蚌埠市,淮上区政府,颗粒物(PM10),54,58,139,34,55,52,,68,63,22,37,9,10,0.4,0.6
2025-01-06T2100,2275A,117.3145,32.8977,蚌埠市,高新区,,46,46,112,22,57,46,,64,59,34,49,8,8,0.4,0.6
2025-01-06T2100,3715A,117.3092,32.9314,蚌埠市,蚌埠田家炳中学,颗粒物(PM10),58,66,143,31,61,29,,65,55,45,55,5,9,0.5,0.7
2025-01-06T2100,1585A,109.8756,40.6532,包头市,市环境监测站,,31,31,35,9,13,50,,54,54,22,33,11,17,0.5,0.8
2025-01-06T2100,1587A,109.9991,40.5842,包头市,包头八中,,32,32,45,7,19,48,,58,56,20,37,6,11,0.4,0.8
2025-01-06T2100,1588A,109.8538,40.6821,包头市,青山宾馆,,22,22,30,8,14,38,,51,50,31,27,13,17,0.7,1
2025-01-06T2100,1589A,109.8642,40.6288,包头市,惠龙物流,,,22,47,10,21,,,43,,26,32,7,13,0.4,1.1
2025-01-06T2100,1590A,110.0377,40.5546,包头市,东河鸿龙湾,,30,30,35,6,14,52,,60,60,19,36,8,12,0.5,0.9
2025-01-06T2100,3283A,109.9154,40.5685,包头市,滨河大厦,,28,28,42,6,25,46,,59,58,27,36,7,12,0.6,1
2025-01-06T2100,3419A,109.9447,40.6261,包头市,包头市委党校,,24,24,46,7,16,49,,55,55,22,39,8,10,1.0,1.4
2025-01-06T2100,3683A,109.8331,40.6576,包头市,昆区政府,,30,30,32,17,15,40,,55,55,31,25,12,19,0.6,0.9
2025-01-06T2100,1930A,107.185,34.3063,宝鸡市,庙沟村,细颗粒物(PM2.5),83,86,87,61,63,33,,67,62,57,39,9,8,0.8,0.7
2025-01-06T2100,1931A,107.0708,34.3017,宝鸡市,竹园沟,颗粒物(PM10),71,92,79,47,50,42,,70,66,27,29,6,7,0.7,0.6
2025-01-06T2100,1932A,107.1906,34.3672,宝鸡市,三陆医院,细颗粒物(PM2.5),82,101,91,60,57,35,,62,59,46,44,6,6,0.8,0.9
2025-01-06T2100,1933A,107.1431,34.3547,宝鸡市,监测站,细颗粒物(PM2.5),97,118,84,72,53,25,,65,59,49,33,8,8,0.7,0.7
2025-01-06T2100,1934A,107.1186,34.3739,宝鸡市,技工学校,,,83,96,70,56,,,64,64,38,33,7,12,0.6,0.7
2025-01-06T2100,1935A,107.3906,34.3528,宝鸡市,陈仓区环保局家属楼,细颗粒物(PM2.5),92,91,102,68,60,25,,64,58,52,45,9,14,0.7,0.8
2025-01-06T2100,1936A,107.2058,34.3497,宝鸡市,文理学院,细颗粒物(PM2.5),83,93,85,61,52,22,,68,64,61,40,7,7,0.8,0.7
2025-01-06T2100,1937A,107.2386,34.3622,宝鸡市,三迪小学,细颗粒物(PM2.5),99,76,84,74,57,34,,61,59,40,34,8,8,0.7,0.7
2025-01-06T2100,1051A,115.493,38.8632,保定市,游泳馆,颗粒物(PM10),56,61,31,32,9,12,,67,48,52,14,8,4,0.8,0.4
2025-01-06T2100,1052A,115.5213,38.8959,保定市,华电二区,,46,40,26,32,14,27,,68,55,26,12,2,2,0.2,0.1
2025-01-06T2100,1053A,115.4713,38.9108,保定市,接待中心,,42,42,26,27,8,30,,66,55,28,9,5,3,0.8,0.5
2025-01-06T2100,1054A,115.4612,38.8416,保定市,地表水厂,颗粒物(PM10),67,84,37,36,11,13,,71,53,58,19,3,2,0.5,0.2
2025-01-06T2100,3581A,115.31981,38.95208,保定市,满城区生态环境分局,颗粒物(PM10),69,88,28,44,12,17,,69,48,58,16,5,3,0.7,0.3
2025-01-06T2100,3582A,115.47694,38.76408,保定市,清苑区第二中学,颗粒物(PM10),51,52,29,30,14,11,,66,51,53,14,4,2,0.5,0.3
2025-01-06T2100,3583A,115.62909,39.02311,保定市,徐水物探局,,47,47,22,24,6,6,,60,41,52,24,5,3,0.4,0.3
2025-01-06T2100,4004A,115.4202,38.8656,保定市,双鹰农机,颗粒物(PM10),57,64,34,28,14,16,,70,49,51,18,5,3,0.5,0.3
2025-01-06T2100,4034A,115.5150,38.8590,保定市,植保所站,颗粒物(PM10),52,53,35,30,15,20,,64,48,43,18,5,2,0.7,0.4
2025-01-06T2100,2594A,99.1678,25.1081,保山市,市环境监测站,,36,34,30,25,18,51,,75,73,10,11,5,4,0.5,0.5
2025-01-06T2100,2595A,99.1711,25.1328,保山市,市环保局,,33,27,30,23,21,63,,77,76,7,7,7,6,0.3,0.5
2025-01-06T2100,1866A,109.2262,21.588,北海市,牛尾岭水库,细颗粒物(PM2.5),113,85,91,85,83,90,,178,158,22,22,7,11,0.7,0.7
2025-01-06T2100,1867A,109.1436,21.4086,北海市,海滩公园,细颗粒物(PM2.5),89,90,111,66,87,153,,198,187,24,25,10,24,1.0,1
2025-01-06T2100,1868A,109.0981,21.4661,北海市,新市环保局,细颗粒物(PM2.5),125,115,111,95,91,126,,173,166,68,40,12,16,1.1,0.9
2025-01-06T2100,1869A,109.1778,21.5233,北海市,北海工业园,细颗粒物(PM2.5),119,99,126,90,97,141,,174,173,41,33,12,23,1.2,1.1
2025-01-06T2100,3400A,109.1911,21.4415,北海市,龙潭自来水厂,细颗粒物(PM2.5),118,103,124,89,122,116,,182,167,33,27,9,13,1.0,1
2025-01-06T2100,1001A,116.3621,39.8784,北京市,万寿西宫,,19,19,17,8,6,33,,56,47,34,17,3,3,0.3,0.2
2025-01-06T2100,1002A,116.2202,40.2915,北京市,定陵,,,,,,,,,,,,,,,,
2025-01-06T2100,1003A,116.4174,39.9289,北京市,东四,,22,22,17,10,7,34,,58,51,26,13,1,1,0.3,0.2
2025-01-06T2100,1004A,116.4072,39.8863,北京市,天坛,,15,15,17,7,7,41,,65,58,16,11,3,3,0.3,0.2
2025-01-06T2100,1005A,116.462,39.9365,北京市,农展馆,,16,16,14,3,5,46,,67,59,24,14,1,2,0.4,0.3
2025-01-06T2100,1006A,116.3392,39.9295,北京市,官园,,14,14,15,3,6,44,,56,53,17,14,4,4,0.5,0.4
2025-01-06T2100,1007A,116.2878,39.9611,北京市,海淀万柳,,17,17,16,3,7,43,,55,50,17,17,2,2,0.5,0.4
2025-01-06T2100,1008A,116.6636,40.135,北京市,顺义新城,,18,18,16,3,5,41,,57,50,19,9,2,2,0.2,0.2
2025-01-06T2100,1009A,116.6275,40.3275,北京市,怀柔镇,,20,6,8,3,6,63,,66,64,1,2,3,2,0.2,0.2
2025-01-06T2100,1010A,116.2296,40.217,北京市,昌平镇,,16,10,16,3,7,51,,62,57,11,7,1,2,0.5,0.4
2025-01-06T2100,1011A,116.3966,39.9821,北京市,奥体中心,,24,24,15,7,6,24,,60,50,42,19,3,3,0.3,0.2
2025-01-06T2100,1012A,116.184,39.9136,北京市,古城,,16,16,22,3,6,37,,37,36,2,4,3,1,0.4,0.4
2025-01-06T2100,3281A,115.9718,40.4529,北京市,延庆夏都,,18,7,15,3,7,57,,58,58,3,8,3,2,0.1,0.2
2025-01-06T2100,3417A,117.0709,40.1465,北京市,平谷新城,,22,22,14,10,6,23,,60,50,31,8,1,2,0.6,0.3
2025-01-06T2100,3418A,116.8336,40.4095,北京市,密云新城,,16,12,15,6,7,51,,58,55,5,9,3,2,0.2,0.2
2025-01-06T2100,3671A,116.088,39.9726,北京市,门头沟三家店,,17,14,18,3,7,53,,59,50,6,7,3,4,0.2,0.2
2025-01-06T2100,3672A,116.1541,39.8204,北京市,丰台云岗,,18,13,15,3,6,57,,64,58,1,3,3,3,0.1,0.1
2025-01-06T2100,3673A,116.6804,39.9081,北京市,通州东关,,22,22,20,7,6,28,,56,45,29,9,3,2,0.3,0.2
2025-01-06T2100,3674A,115.9577,39.7603,北京市,房山燕山,,19,11,11,3,5,59,,77,63,6,4,1,2,0.2,0.2
2025-01-06T2100,3675A,116.4672,39.7733,北京市,大兴旧宫,,21,21,17,6,4,24,,60,48,31,12,3,2,0.3,0.2
2025-01-06T2100,3694A,115.986,40.4563,北京市,延庆石河营,,18,7,15,3,8,56,,58,58,3,11,1,1,0.2,0.3
2025-01-06T2100,3695A,116.6151,40.3053,北京市,怀柔新城,,20,6,7,3,4,62,,65,62,2,2,3,3,0.1,0.1
2025-01-06T2100,3696A,116.2545,39.8768,北京市,丰台小屯,,20,20,33,6,9,39,,58,44,20,18,4,4,0.2,0.2
2025-01-06T2100,3697A,116.84,40.3844,北京市,密云镇,,17,17,19,7,7,33,,52,45,23,22,3,2,0.3,0.3
2025-01-06T2100,1761A,123.8275,41.3064,本溪市,大峪,细颗粒物(PM2.5),98,87,109,73,89,18,,53,49,56,41,6,10,2.0,1.5
2025-01-06T2100,1762A,123.7567,41.3325,本溪市,溪湖,细颗粒物(PM2.5),92,104,123,68,86,15,,52,43,45,36,9,12,1.9,1.4
2025-01-06T2100,1763A,123.7169,41.3094,本溪市,彩屯,细颗粒物(PM2.5),82,83,113,60,88,15,,48,31,49,40,7,10,1.1,1.2
2025-01-06T2100,1764A,123.7669,41.2864,本溪市,东明,细颗粒物(PM2.5),89,97,108,66,89,8,,51,44,66,45,11,13,1.7,1.7
2025-01-06T2100,1765A,123.7992,41.2664,本溪市,新立屯,颗粒物(PM10),61,71,82,31,40,9,,50,37,68,46,7,7,2.2,1.2
2025-01-06T2100,1766A,123.8142,41.3472,本溪市,威宁,细颗粒物(PM2.5),89,106,130,66,121,17,,53,45,52,46,3,5,1.0,1.1
2025-01-06T2100,2587A,105.2864,27.3125,毕节市,八中,细颗粒物(PM2.5),107,104,96,80,74,44,,63,52,25,20,9,7,0.8,0.8
2025-01-06T2100,2588A,105.31,27.2944,毕节市,师专,细颗粒物(PM2.5),110,98,93,83,75,45,,72,52,23,19,15,8,0.8,0.9
2025-01-06T2100,3537A,105.3631,27.3533,毕节市,长征村,细颗粒物(PM2.5),138,123,97,105,85,48,,80,56,20,15,8,9,0.9,0.9
2025-01-06T2100,1629A,118.0018,37.3617,滨州市,第二水厂,颗粒物(PM10),56,61,44,29,12,30,,68,56,41,24,23,9,0.4,0.2
2025-01-06T2100,1630A,117.9776,37.393,滨州市,北中新校,颗粒物(PM10),53,56,45,29,15,38,,65,54,37,29,9,6,0.2,0.3
2025-01-06T2100,3514A,117.9378,37.3956,滨州市,中海酒店,,46,46,39,27,19,33,,65,52,33,23,12,7,0.5,0.4
2025-01-06T2100,3515A,117.9378,37.3553,滨州市,开发区一中,颗粒物(PM10),57,63,54,31,17,24,,67,48,56,32,16,9,0.4,0.3
2025-01-06T2100,3516A,118.0917,37.694,滨州市,金海六路,,49,49,46,27,17,13,,62,42,55,40,6,7,0.4,0.4
2025-01-06T2100,4028A,117.9956,37.3753,滨州市,滨州市西街道办事处,细颗粒物(PM2.5),64,66,41,46,19,33,,67,56,36,24,42,9,1.4,0.7
2025-01-06T2100,2311A,115.8072,33.8399,亳州市,污水处理厂,颗粒物(PM10),55,60,109,30,44,50,,74,68,27,29,6,7,0.3,0.4
2025-01-06T2100,2312A,115.7789,33.8518,亳州市,三国揽胜宫,颗粒物(PM10),54,58,108,32,42,54,,77,70,26,31,5,5,0.4,0.5
2025-01-06T2100,3332A,115.7633,33.8034,亳州市,亳州学院,颗粒物(PM10),52,54,104,21,36,49,,76,70,22,21,3,4,0.5,0.6
2025-01-06T2100,2693A,82.0485,44.8556,博尔塔拉蒙古自治州,市党校,细颗粒物(PM2.5),57,,52,40,43,47,,51,51,22,20,6,7,1.2,1.2
2025-01-06T2100,2694A,82.0806,44.8969,博尔塔拉蒙古自治州,市环保局,颗粒物(PM10),51,51,52,30,31,52,,65,65,30,14,6,7,1.2,0.8
2025-01-06T2100,1071A,116.8842,38.2991,沧州市,沧县城建局,细颗粒物(PM2.5),55,56,41,39,17,26,,62,48,45,21,5,4,0.6,0.4
2025-01-06T2100,1072A,116.8584,38.3254,沧州市,电视转播站,,43,43,38,19,11,35,,66,56,41,26,6,6,0.3,0.2
2025-01-06T2100,1073A,116.8709,38.3228,沧州市,市环保局,,39,39,37,27,21,41,,64,55,28,18,4,2,0.3,0.2
2025-01-06T2100,3324A,116.8136,38.3004,沧州市,河北水利电力学院,,44,44,35,22,19,24,,60,47,42,18,10,7,0.4,0.2
2025-01-06T2100,2622A,97.1806,31.1273,昌都市,昌都监测站,,,,37,,18,8,,58,45,89,32,14,7,4.3,1.2
2025-01-06T2100,3719A,97.1714,31.1406,昌都市,昌都会议中心,,38,28,14,26,11,43,,71,68,30,10,5,4,1.1,0.8
2025-01-06T2100,2690A,88.1236,43.8886,昌吉回族自治州,天山天池,,27,6,3,3,1,85,,94,94,2,2,7,7,0.4,0.4
2025-01-06T2100,2692A,87.2717,44.0297,昌吉回族自治州,新区政务中心,细颗粒物(PM2.5),99,123,88,74,50,36,,40,39,36,38,3,3,1.5,1.3
2025-01-06T2100,3613A,87.3095,44.0142,昌吉回族自治州,亚心广场,细颗粒物(PM2.5),144,139,86,110,71,39,,50,49,42,37,6,7,1.6,1.4
2025-01-06T2100,1119A,125.3325,43.9166,长春市,食品厂,细颗粒物(PM2.5),127,115,90,96,78,8,,43,33,62,44,16,16,0.9,0.9
2025-01-06T2100,1120A,125.2863,43.9027,长春市,客车厂,细颗粒物(PM2.5),133,125,91,101,89,10,,43,33,70,49,16,24,1.1,0.9
2025-01-06T2100,1121A,125.2841,43.8463,长春市,邮电学院,细颗粒物(PM2.5),139,118,94,106,89,11,,48,40,67,48,13,17,0.9,0.8
2025-01-06T2100,1122A,125.3716,43.8772,长春市,劳动公园,细颗粒物(PM2.5),124,96,91,94,74,14,,52,44,66,48,24,19,1.0,1
2025-01-06T2100,1123A,125.3297,43.8805,长春市,园林处,细颗粒物(PM2.5),110,90,80,83,69,17,,46,39,56,44,14,13,1.0,0.9
2025-01-06T2100,1124A,125.4605,43.79,长春市,净月潭,细颗粒物(PM2.5),163,130,91,124,73,26,,51,43,37,33,7,9,0.9,0.8
2025-01-06T2100,1125A,125.7194,43.515,长春市,甩湾子,,,,,,,,,,,,,,,,
2025-01-06T2100,1126A,125.3863,43.8447,长春市,经开区环卫处,细颗粒物(PM2.5),133,125,96,101,72,6,,44,36,69,46,12,15,1.1,0.9
2025-01-06T2100,1127A,125.245,43.7783,长春市,高新区管委会,细颗粒物(PM2.5),200,,91,150,86,14,,48,35,66,48,8,10,1.7,1.1
2025-01-06T2100,1128A,125.1761,43.8325,长春市,岱山公园,细颗粒物(PM2.5),183,154,94,138,88,11,,49,35,69,46,11,10,1.3,1
2025-01-06T2100,1335A,113.0833,28.2325,长沙市,经开区环保局,颗粒物(PM10),89,128,88,61,44,53,,95,91,51,47,5,8,0.8,0.7
2025-01-06T2100,1336A,112.8872,28.2189,长沙市,高开区环保局,颗粒物(PM10),92,133,96,60,63,62,,103,98,27,42,7,5,0.4,0.5
2025-01-06T2100,1337A,113.0792,28.2053,长沙市,马坡岭,颗粒物(PM10),87,123,90,61,65,65,,103,98,37,43,6,3,0.9,0.7
2025-01-06T2100,1338A,112.9394,28.19,长沙市,湖南师范大学,颗粒物(PM10),87,123,91,59,62,65,,103,100,28,44,5,4,1.0,0.8
2025-01-06T2100,1339A,113.0178,28.1322,长沙市,雨花区环保局,颗粒物(PM10),84,118,90,57,60,65,,94,91,35,50,8,5,0.9,0.8
2025-01-06T2100,1340A,112.9792,28.2597,长沙市,伍家岭,颗粒物(PM10),92,133,106,64,70,53,,96,92,37,45,7,4,0.7,0.7
2025-01-06T2100,1341A,113.0014,28.1944,长沙市,火车新站,细颗粒物(PM2.5),98,128,98,73,70,63,,100,97,38,56,6,4,0.8,0.8
2025-01-06T2100,1342A,112.9844,28.1178,长沙市,天心区环保局,细颗粒物(PM2.5),90,124,94,67,66,69,,102,99,33,49,5,3,0.9,0.8
2025-01-06T2100,1343A,112.8908,28.1308,长沙市,湖南中医药大学,细颗粒物(PM2.5),103,119,98,77,65,60,,105,101,36,50,8,6,1.0,1
2025-01-06T2100,1344A,112.9581,28.3611,长沙市,沙坪,细颗粒物(PM2.5),99,87,75,74,60,58,,101,94,31,25,9,6,1.5,1.2
2025-01-06T2100,1727A,113.1147,36.1547,长治市,清华站,颗粒物(PM10),52,54,45,24,15,11,,55,45,48,31,13,14,0.7,0.7
2025-01-06T2100,1728A,113.1031,36.1989,长治市,监测站,,40,40,46,24,19,31,,61,54,37,33,13,14,0.9,0.9
2025-01-06T2100,1730A,113.0886,36.2125,长治市,审计局,,42,42,42,19,17,33,,59,53,36,32,17,15,0.7,0.6
2025-01-06T2100,1731A,113.0844,36.1856,长治市,长治八中,颗粒物(PM10),56,61,58,22,25,34,,57,51,32,33,15,15,0.6,0.6
2025-01-06T2100,2845A,113.1569,36.1911,长治市,德盛苑,,38,38,44,19,15,36,,61,58,35,27,12,16,0.9,0.9
2025-01-06T2100,3568A,113.06,36.0464,长治市,向阳小学,颗粒物(PM10),55,59,59,22,21,29,,58,52,40,27,18,20,0.6,0.7
2025-01-06T2100,3569A,112.8792,36.3144,长治市,屯留一中,,36,36,33,17,11,23,,61,50,53,40,21,13,1.1,0.8
2025-01-06T2100,3570A,113.235,36.3489,长治市,潞城四中,,50,50,67,23,22,5,,65,45,64,35,10,21,0.6,0.9
2025-01-06T2100,1854A,111.6975,28.9703,常德市,市二中,细颗粒物(PM2.5),113,117,119,85,101,77,,100,97,24,25,13,5,0.8,0.9
2025-01-06T2100,1857A,111.7158,29.1456,常德市,白鹤山,,,,,,,,,,,,,,,,
2025-01-06T2100,3138A,111.7153,29.0289,常德市,武陵区永安,细颗粒物(PM2.5),98,113,114,73,87,87,,103,100,15,20,14,5,0.9,1
2025-01-06T2100,3139A,111.6892,28.9881,常德市,鼎城区玉霞,细颗粒物(PM2.5),102,117,127,76,95,86,,100,99,14,20,15,6,0.8,0.9
2025-01-06T2100,3140A,111.6625,29.0531,常德市,武陵区长庚,,,113,121,68,94,,,100,99,19,27,11,3,0.7,1
2025-01-06T2100,1196A,119.9633,31.762,常州市,市监测站,颗粒物(PM10),62,73,91,37,57,53,,74,71,32,37,10,10,0.3,0.5
2025-01-06T2100,1200A,119.9468,31.7069,常州市,武进监测站,颗粒物(PM10),62,74,91,28,54,59,,75,71,26,38,7,7,0.5,0.7
2025-01-06T2100,1201A,119.9255,31.9087,常州市,安家,颗粒物(PM10),64,78,98,39,59,38,,74,65,50,52,9,12,0.5,0.6
2025-01-06T2100,3002A,119.9805,31.8174,常州市,行政中心,颗粒物(PM10),57,63,80,36,54,48,,71,65,34,34,9,11,0.5,0.6
2025-01-06T2100,3003A,120.0522,31.7748,常州市,经开区,颗粒物(PM10),72,93,100,35,52,48,,81,72,39,37,15,13,0.4,0.6
2025-01-06T2100,3010A,119.9025,31.7964,常州市,钟楼,颗粒物(PM10),61,71,91,37,57,42,,72,65,43,43,10,11,2.2,1.2
2025-01-06T2100,3429A,119.8598,31.7066,常州市,武进经发区,颗粒物(PM10),75,100,111,37,57,21,,76,64,72,47,8,8,0.5,0.7
2025-01-06T2100,3430A,119.5826,31.7245,常州市,金坛城区,颗粒物(PM10),75,99,104,37,53,54,,84,76,26,24,10,10,0.7,0.8
2025-01-06T2100,2220A,120.4318,41.5881,朝阳市,西梁,,44,44,60,30,38,23,,58,48,45,34,12,9,0.9,1.2
2025-01-06T2100,2221A,120.4521,41.5646,朝阳市,河畔小区,,27,27,55,12,33,44,,50,48,20,29,7,8,0.7,1.1
2025-01-06T2100,2222A,120.4176,41.5648,朝阳市,八里堡,,39,39,68,12,37,43,,55,50,17,28,11,12,0.4,0.9
2025-01-06T2100,2223A,120.3806,41.5969,朝阳市,农业园区,,25,25,52,14,36,43,,64,56,21,30,9,9,0.6,1
2025-01-06T2100,1705A,116.6367,23.6719,潮州市,西园路,细颗粒物(PM2.5),87,90,60,64,44,91,,122,120,31,18,8,6,0.4,0.3
2025-01-06T2100,3026A,116.6183,23.6608,潮州市,市政府,颗粒物(PM10),56,62,56,39,35,103,,118,117,22,18,7,5,0.5,0.4
2025-01-06T2100,4036A,116.6461,23.6761,潮州市,金山,细颗粒物(PM2.5),98,79,55,73,42,78,,118,114,33,19,9,7,0.8,0.6
2025-01-06T2100,2472A,113.0073,25.9061,郴州市,马头岭,细颗粒物(PM2.5),149,143,120,114,77,113,,116,116,37,33,13,14,1.0,0.9
2025-01-06T2100,2473A,113.0116,25.8226,郴州市,市职中,细颗粒物(PM2.5),114,117,111,86,89,38,,111,95,54,36,6,10,1.0,1
2025-01-06T2100,2474A,113.0161,25.8001,郴州市,兴隆步行街,细颗粒物(PM2.5),123,140,127,93,99,26,,119,104,74,41,7,10,1.2,1.1
2025-01-06T2100,2475A,113.0383,25.8071,郴州市,市审计局,细颗粒物(PM2.5),120,117,117,91,95,30,,118,104,58,32,6,8,1.4,1.4
2025-01-06T2100,2476A,113.0348,25.7759,郴州市,市环保局,细颗粒物(PM2.5),118,115,120,89,101,61,,112,105,50,45,7,10,1.2,1.1
2025-01-06T2100,1431A,103.9728,30.7236,成都市,金泉两河,细颗粒物(PM2.5),117,103,84,88,62,19,,62,49,50,44,2,3,0.8,0.8
2025-01-06T2100,1432A,104.176,30.6872,成都市,十里店,细颗粒物(PM2.5),128,104,80,97,63,12,,42,41,64,50,2,2,0.7,0.6
2025-01-06T2100,1433A,104.079,30.5706,成都市,三瓦窑,细颗粒物(PM2.5),105,108,81,79,61,29,,50,50,47,47,2,2,0.6,0.8
2025-01-06T2100,1434A,104.1114,30.63,成都市,沙河铺,细颗粒物(PM2.5),112,110,76,84,57,15,,52,49,59,40,2,2,0.7,0.6
2025-01-06T2100,1437A,104.0786,30.6531,成都市,君平街,细颗粒物(PM2.5),99,103,78,74,62,12,,54,48,64,45,6,6,0.9,0.9
2025-01-06T2100,1438A,103.613,31.0283,成都市,灵岩寺,,,,,,,,,,,,,,,,
2025-01-06T2100,2880A,104.0239,30.65639,成都市,大石西路,细颗粒物(PM2.5),102,93,80,76,58,19,,55,50,53,43,4,3,0.8,0.8
2025-01-06T2100,3136A,104.2725,30.5589,成都市,龙泉驿区区政府,细颗粒物(PM2.5),100,90,70,75,58,40,,65,63,30,27,4,4,0.6,0.5
2025-01-06T2100,3357A,104.0106,30.6931,成都市,金博路,细颗粒物(PM2.5),92,98,85,68,63,12,,58,48,58,41,3,2,0.8,0.9
2025-01-06T2100,3359A,104.0578,30.5225,成都市,华阳,细颗粒物(PM2.5),98,88,76,73,59,36,,59,58,40,37,3,3,0.7,0.7
2025-01-06T2100,3487A,104.2394,30.5319,成都市,车城东七路,细颗粒物(PM2.5),90,85,73,67,58,34,,60,58,35,29,2,2,0.7,0.7
2025-01-06T2100,3488A,104.3853,30.7453,成都市,青白江技师分院,细颗粒物(PM2.5),137,112,79,104,68,8,,46,40,54,39,3,2,0.8,0.6
2025-01-06T2100,3489A,104.0789,30.4072,成都市,科学城,细颗粒物(PM2.5),98,84,67,73,56,39,,62,61,30,26,4,4,0.6,0.6
2025-01-06T2100,4011A,103.8506,30.6947,成都市,光华大道三段,细颗粒物(PM2.5),103,98,93,77,70,29,,57,47,43,38,2,2,0.7,0.7
2025-01-06T2100,1062A,117.9531,40.9081,承德市,铁路,,18,11,27,7,8,57,,60,59,6,13,5,5,0.2,0.3
2025-01-06T2100,1063A,117.9392,40.9763,承德市,中国银行,,16,16,23,3,6,41,,56,53,4,10,2,2,0.3,0.3
2025-01-06T2100,1064A,117.9503,40.928,承德市,开发区,,20,20,32,12,16,58,,66,64,5,15,4,4,0.3,0.4
2025-01-06T2100,1065A,117.8051,40.9655,承德市,文化中心,,40,40,37,18,15,33,,60,56,24,19,4,3,0.3,0.4
2025-01-06T2100,1066A,117.9268,41.0026,承德市,离宫,,38,29,22,26,21,46,,59,53,6,7,5,5,0.1,0.2
2025-01-06T2100,2314A,117.47,30.6618,池州市,池州学院,颗粒物(PM10),76,101,74,3,47,68,,96,94,31,23,16,7,0.5,0.6
2025-01-06T2100,3237A,117.4918,30.6617,池州市,展览馆,颗粒物(PM10),87,123,82,44,47,60,,85,84,34,28,9,9,0.6,0.7
2025-01-06T2100,3333A,117.5627,30.695,池州市,第八中学,颗粒物(PM10),90,129,86,48,52,62,,88,86,33,30,7,10,0.5,0.6
2025-01-06T2100,3334A,117.5038,30.6243,池州市,第十二中学,颗粒物(PM10),86,122,79,49,49,60,,95,90,35,29,5,5,0.6,0.9
2025-01-06T2100,1744A,118.9233,42.2816,赤峰市,松山一中,,15,11,20,3,6,45,,56,52,16,22,8,10,0.6,0.7
2025-01-06T2100,1745A,118.9576,42.2728,赤峰市,哈达街,,20,20,23,9,11,47,,53,50,22,27,7,7,0.7,0.8
2025-01-06T2100,1746A,118.8788,42.2554,赤峰市,天义路,,21,21,19,7,7,37,,53,46,22,19,12,9,0.7,0.7
2025-01-06T2100,3058A,119.2658,42.0353,赤峰市,银河街,,23,23,62,12,31,46,,51,50,12,24,14,28,0.5,1.1
2025-01-06T2100,3286A,118.9359,42.3147,赤峰市,桥北物流园区,,17,9,13,9,10,30,,56,50,34,26,5,6,0.7,0.7
2025-01-06T2100,2521A,107.3476,22.4136,崇左市,市环保局江州分局,,,148,109,60,67,71,,157,139,65,32,7,10,,0.7
2025-01-06T2100,2522A,107.3702,22.3707,崇左市,城南新区,颗粒物(PM10),72,93,86,48,62,124,,161,156,31,30,8,9,0.9,1
2025-01-06T2100,2298A,118.3093,32.3153,滁州市,老年大学,,44,44,98,22,44,50,,76,68,30,31,4,5,0.3,0.5
2025-01-06T2100,2299A,118.3244,32.2786,滁州市,人大宾馆,,,,118,,46,51,,77,69,22,28,8,9,,0.6
2025-01-06T2100,3207A,118.3118,32.3038,滁州市,市政府原办公楼,,42,42,99,21,47,49,,74,66,28,28,5,6,0.1,0.2
2025-01-06T2100,3331A,118.3267,32.2634,滁州市,图书馆,颗粒物(PM10),52,54,107,19,36,44,,62,56,23,25,4,5,0.4,0.5
2025-01-06T2100,2605A,101.5482,25.0441,楚雄彝族自治州,州环境监测站,,40,32,38,28,31,68,,72,72,7,18,5,6,0.5,0.6
2025-01-06T2100,2606A,101.538,25.0492,楚雄彝族自治州,市经济开发区,,38,38,41,12,31,67,,68,68,8,19,5,6,0.6,0.7
2025-01-06T2100,2548A,107.5277,31.2827,达州市,达州职业技术学院,细颗粒物(PM2.5),153,141,81,117,72,12,,11,11,17,16,7,6,1.0,0.7
2025-01-06T2100,2549A,107.5086,31.2186,达州市,市环境监测站,细颗粒物(PM2.5),100,110,84,75,57,5,,5,5,42,41,7,7,1.0,0.9
2025-01-06T2100,2550A,107.4988,31.2132,达州市,凤凰小区,细颗粒物(PM2.5),107,110,82,80,59,6,,6,6,41,41,9,10,0.9,0.8
2025-01-06T2100,2551A,107.5082,31.1986,达州市,达县机关宾馆,细颗粒物(PM2.5),103,97,82,77,59,5,,5,5,41,41,7,8,1.0,1
2025-01-06T2100,2552A,107.4644,31.2124,达州市,市政中心,细颗粒物(PM2.5),98,108,106,73,67,5,,5,5,47,48,7,11,1.3,1.5
2025-01-06T2100,2614A,100.1542,25.7054,大理白族自治州,大理市环境监测站,,26,23,28,18,21,83,,81,81,5,8,7,7,0.5,0.5
2025-01-06T2100,2615A,100.2171,25.5811,大理白族自治州,大理古城,,43,43,30,3,20,96,,87,87,5,13,5,5,0.5,0.6
2025-01-06T2100,1109A,121.612,38.9741,大连市,甘井子,,39,36,51,27,22,20,,72,64,71,30,7,9,1.1,0.4
2025-01-06T2100,1110A,121.565,38.9511,大连市,周水子,,29,28,43,20,25,33,,62,52,46,27,14,14,0.6,0.5
2025-01-06T2100,1111A,121.5637,38.8845,大连市,星海三站,,24,24,42,11,23,54,,69,66,22,18,8,11,0.4,0.4
2025-01-06T2100,1112A,121.6302,38.9117,大连市,青泥洼桥,,20,20,36,11,22,38,,58,52,34,18,12,13,0.9,0.5
2025-01-06T2100,1113A,121.6251,38.8638,大连市,傅家庄,,21,21,38,8,20,59,,66,62,19,18,18,14,0.5,0.5
2025-01-06T2100,1114A,121.5213,38.8661,大连市,七贤岭,,21,21,33,11,19,52,,71,67,20,18,10,12,0.6,0.6
2025-01-06T2100,1115A,121.2529,38.8061,大连市,旅顺,,23,23,27,16,18,58,,73,71,21,17,13,11,0.6,0.6
2025-01-06T2100,1116A,121.7485,39.1311,大连市,金州,,35,31,40,24,29,56,,69,64,19,17,7,9,0.7,0.7
2025-01-06T2100,1117A,121.7811,39.0496,大连市,开发区,,43,40,48,30,26,37,,60,54,38,19,15,13,0.8,0.6
2025-01-06T2100,1118A,121.9762,39.0631,大连市,双D港,,20,20,44,12,25,60,,76,70,15,16,9,11,0.7,0.8
2025-01-06T2100,1789A,124.81117,46.03138,大庆市,大同区,细颗粒物(PM2.5),160,152,145,122,97,10,,44,36,61,44,13,11,1.4,1.1
2025-01-06T2100,1790A,125.129,46.533,大庆市,龙凤区,细颗粒物(PM2.5),95,106,91,71,62,25,,46,40,55,42,6,24,1.0,0.9
2025-01-06T2100,1791A,124.902,46.408,大庆市,红岗区,细颗粒物(PM2.5),64,62,87,46,67,32,,36,35,32,36,7,7,0.7,0.8
2025-01-06T2100,1792A,125.153,46.586,大庆市,萨尔图区,细颗粒物(PM2.5),73,72,88,53,70,23,,42,36,62,52,7,8,0.9,0.9
2025-01-06T2100,1793A,124.9042,46.6215,大庆市,让胡路区,细颗粒物(PM2.5),68,56,76,49,65,39,,46,43,35,36,6,7,0.5,0.6
2025-01-06T2100,3481A,125.141,46.634,大庆市,萨区政府监测点,细颗粒物(PM2.5),55,49,80,39,60,30,,46,39,42,39,9,6,0.7,0.8
2025-01-06T2100,1721A,113.3819,40.1097,大同市,果树场,,30,30,43,6,17,44,,54,43,25,34,18,16,0.9,0.6
2025-01-06T2100,1723A,113.2994,40.0758,大同市,云冈宾馆,,25,25,29,7,10,47,,62,60,19,18,13,11,0.5,0.7
2025-01-06T2100,1724A,113.3444,40.0917,大同市,大同大学,,29,29,24,12,9,46,,61,60,18,20,13,15,0.5,0.6
2025-01-06T2100,1725A,113.2661,40.1269,大同市,安家小村,,26,26,34,8,12,57,,64,64,11,17,15,18,0.5,1
2025-01-06T2100,1726A,113.2711,40.0844,大同市,教育学院,,34,34,34,12,20,39,,57,55,28,28,14,11,0.4,0.7
2025-01-06T2100,3282A,113.3397,40.0597,大同市,大同市卫生学校,,34,34,27,15,11,45,,54,54,20,22,8,9,0.5,0.7
2025-01-06T2100,3565A,113.1367,40.1122,大同市,云冈站,,30,30,30,10,11,29,,62,52,37,33,18,23,0.5,0.5
2025-01-06T2100,3566A,113.1186,40.2556,大同市,图书馆,,,37,27,13,12,54,,66,62,12,15,9,21,,0.8
2025-01-06T2100,3567A,113.5931,40.0461,大同市,区一中,颗粒物(PM10),68,86,32,38,13,24,,53,46,37,22,34,19,1.2,0.7
2025-01-06T2100,3676A,113.2802,40.0995,大同市,第二人民医院,,35,35,40,9,18,44,,61,58,26,28,13,15,0.5,0.9
2025-01-06T2100,2269A,124.1069,50.4097,大兴安岭地区,科技局,,22,,19,15,21,70,,68,68,2,5,5,5,0.4,0.4
2025-01-06T2100,3663A,124.1164,50.4278,大兴安岭地区,红旗社区,,21,6,12,3,8,66,,62,62,3,13,1,3,0.2,0.3
2025-01-06T2100,1600A,124.3303,40.0625,丹东市,江湾东路,细颗粒物(PM2.5),54,52,72,38,50,44,,66,58,29,25,11,9,0.8,0.8
2025-01-06T2100,1601A,124.4256,40.1503,丹东市,临江后街,细颗粒物(PM2.5),68,,74,49,81,52,,66,63,18,28,7,9,0.7,1
2025-01-06T2100,1602A,124.3933,40.1461,丹东市,元宝山,,40,38,68,28,56,32,,45,41,21,25,9,8,0.9,1
2025-01-06T2100,1603A,124.3633,40.1092,丹东市,民主桥,颗粒物(PM10),53,55,80,30,49,35,,61,52,35,29,13,11,0.9,0.9
2025-01-06T2100,3541A,109.5726,19.5167,儋州市,第一中学子站,细颗粒物(PM2.5),84,88,67,62,47,164,,144,144,21,18,8,9,0.8,0.7
2025-01-06T2100,3542A,109.5567,19.5187,儋州市,东坡学校子站,臭氧1小时,89,76,64,58,48,191,,169,169,17,14,8,9,0.8,0.7
2025-01-06T2100,2616A,98.5842,24.428,德宏傣族景颇族自治州,德宏州监测站,"颗粒物(PM10),细颗粒物(PM2.5)",69,88,62,50,36,32,,79,74,41,26,7,9,1.0,0.7
2025-01-06T2100,3677A,98.5881,24.4368,德宏傣族景颇族自治州,芒市人民政府综合楼,颗粒物(PM10),56,61,50,27,32,52,,74,73,16,17,5,6,0.6,0.6
2025-01-06T2100,1901A,104.4239,31.1208,德阳市,东山公园,细颗粒物(PM2.5),103,90,80,77,71,41,,40,40,22,36,2,3,0.8,0.8
2025-01-06T2100,1902A,104.3826,31.1317,德阳市,西小区,细颗粒物(PM2.5),120,98,103,91,82,29,,32,32,30,48,4,3,0.8,0.9
2025-01-06T2100,1904A,104.3553,31.1091,德阳市,耐火材料厂,细颗粒物(PM2.5),114,,95,86,80,20,,29,28,42,44,4,5,0.8,0.9
2025-01-06T2100,3639A,104.4019,31.1244,德阳市,市教育局,细颗粒物(PM2.5),112,88,84,84,74,29,,35,35,32,46,4,5,0.8,0.9
2025-01-06T2100,1622A,116.3032,37.4674,德州市,儿童乐园,,44,44,54,14,12,47,,66,61,29,27,8,6,0.7,0.6
2025-01-06T2100,1624A,116.2991,37.4451,德州市,监理站,颗粒物(PM10),51,51,42,29,8,41,,70,60,38,28,14,11,0.7,0.5
2025-01-06T2100,3066A,116.2721,37.4379,德州市,九衢泉纯净水厂,颗粒物(PM10),59,68,50,36,15,29,,65,51,39,27,13,10,0.8,0.5
2025-01-06T2100,3371A,116.3728,37.4403,德州市,开发区人民医院,,46,46,50,24,13,43,,67,60,33,29,11,10,0.6,0.5
2025-01-06T2100,3372A,116.3572,37.4094,德州市,太阳城中学,颗粒物(PM10),60,70,53,34,15,32,,71,58,48,23,12,9,0.7,0.5
2025-01-06T2100,3511A,116.5652,37.3319,德州市,陵城艺术中心,颗粒物(PM10),56,61,55,29,15,35,,64,53,34,21,8,9,0.8,0.6
2025-01-06T2100,2621A,99.7056,27.8317,迪庆藏族自治州,迪庆州站,,28,24,30,17,20,87,,89,89,10,14,8,8,0.6,0.7
2025-01-06T2100,3180A,99.7136,27.8094,迪庆藏族自治州,质量技术监督局,,25,20,24,15,19,78,,86,84,8,13,8,8,0.4,0.5
2025-01-06T2100,2663A,104.6241,35.5734,定西市,东关小学,"颗粒物(PM10),细颗粒物(PM2.5)",59,68,63,42,44,36,,68,65,45,26,21,15,0.7,0.9
2025-01-06T2100,2664A,104.6194,35.5934,定西市,供电公司,颗粒物(PM10),59,67,68,36,47,46,,76,74,37,32,13,15,1.0,1.3
2025-01-06T2100,1389A,113.7547,23.0494,东莞市,莞城梨川,细颗粒物(PM2.5),77,97,79,56,50,79,,159,143,61,35,10,8,1.0,0.9
2025-01-06T2100,1390A,113.7944,23.0128,东莞市,东城石井,颗粒物(PM10),53,56,68,33,45,76,,147,135,32,32,5,7,0.8,0.7
2025-01-06T2100,1391A,113.7383,22.9658,东莞市,南城西平,细颗粒物(PM2.5),74,90,85,54,52,110,,163,155,52,62,6,6,0.7,0.7
2025-01-06T2100,3319A,113.7338,23.0381,东莞市,万江金泰,"颗粒物(PM10),细颗粒物(PM2.5)",70,90,76,51,49,87,,152,134,54,34,9,6,0.8,0.8
2025-01-06T2100,3626A,113.7533,23.0202,东莞市,南城元岭,细颗粒物(PM2.5),73,89,78,53,52,79,,170,148,63,34,10,9,0.9,0.9
2025-01-06T2100,3627A,113.7875,23.0457,东莞市,东城主山,细颗粒物(PM2.5),74,89,81,54,50,40,,146,121,86,42,10,11,0.9,0.8
2025-01-06T2100,1666A,118.6614,37.4309,东营市,市环保局,,41,41,58,19,37,36,,62,55,31,39,7,8,0.7,0.8
2025-01-06T2100,3036A,118.6904,37.4338,东营市,开发区管委会,,39,39,60,17,37,40,,63,57,38,48,5,6,0.6,0.8
2025-01-06T2100,3365A,118.5719,37.565,东营市,垦利区民丰路,,48,48,59,22,36,22,,59,50,48,44,16,13,0.4,0.7
2025-01-06T2100,3498A,118.5055,37.8612,东营市,河口城区,颗粒物(PM10),53,56,55,24,25,31,,68,57,33,37,3,4,0.5,0.6
2025-01-06T2100,3646A,118.4978,37.4623,东营市,胜利站,,48,48,76,24,43,15,,54,43,55,49,8,10,0.4,0.8
2025-01-06T2100,3734A,118.35,37.26,东营市,理想之城,,41,41,67,19,40,33,,62,54,39,51,5,8,0,0.3
2025-01-06T2100,1591A,110.0023,39.8129,鄂尔多斯市,综合楼,,36,36,27,3,5,52,,72,68,27,22,10,8,0.5,0.6
2025-01-06T2100,1592A,109.9486,39.8261,鄂尔多斯市,巴音孟克林场办事处,,31,31,30,9,9,41,,70,64,31,26,8,10,0.5,0.5
2025-01-06T2100,1593A,109.7736,39.5986,鄂尔多斯市,康泽苑,,18,14,20,3,6,56,,66,64,11,11,5,6,0.3,0.4
2025-01-06T2100,1594A,109.8119,39.5989,鄂尔多斯市,华泰汽车城,,19,19,25,7,7,55,,70,68,19,18,6,6,0.5,0.5
2025-01-06T2100,1595A,109.9734,39.7884,鄂尔多斯市,奥林花园,,31,31,33,7,9,44,,71,65,33,31,6,7,0.4,0.6
2025-01-06T2100,2436A,114.8938,30.3994,鄂州市,市政府,细颗粒物(PM2.5),94,122,84,70,60,61,,53,53,34,41,10,9,0.8,0.8
2025-01-06T2100,2437A,114.8989,30.3714,鄂州市,赵家坝,细颗粒物(PM2.5),90,122,86,67,60,64,,60,60,36,43,8,7,0.6,0.7
2025-01-06T2100,3654A,114.8094,30.4089,鄂州市,精准医疗中心,细颗粒物(PM2.5),89,123,80,66,58,68,,72,71,33,35,11,10,0.6,0.9
2025-01-06T2100,2454A,109.4978,30.2981,恩施土家族苗族自治州,湖北民院,细颗粒物(PM2.5),120,,71,91,81,10,,15,10,31,21,7,7,1.1,0.9
2025-01-06T2100,2455A,109.4707,30.2798,恩施土家族苗族自治州,州电力总公司,,23,,87,16,72,8,,12,11,26,26,8,7,1.4,1.4
2025-01-06T2100,3549A,109.5061,30.3772,恩施土家族苗族自治州,龙凤新区,细颗粒物(PM2.5),98,87,72,73,58,7,,13,9,26,25,6,6,1.4,1.1
2025-01-06T2100,2499A,108.3411,21.6158,防城港市,沙万,细颗粒物(PM2.5),89,121,108,66,71,78,,157,138,72,40,19,16,1.0,1
2025-01-06T2100,2500A,108.3514,21.7731,防城港市,防城档案局,颗粒物(PM10),118,185,136,76,74,70,,162,147,51,45,7,9,1.3,1
2025-01-06T2100,2501A,108.3506,21.6414,防城港市,大海花园,,,126,104,68,73,,,165,164,40,31,40,16,,1.1
2025-01-06T2100,1371A,113.1294,23.0067,佛山市,湾梁,颗粒物(PM10),70,90,96,35,51,82,,131,126,50,51,7,9,0.8,0.7
2025-01-06T2100,1372A,113.1083,23.0478,佛山市,华材职中,细颗粒物(PM2.5),88,114,106,65,72,41,,146,127,107,73,8,10,1.0,0.9
2025-01-06T2100,1373A,113.144,23.0453,佛山市,南海气象局,细颗粒物(PM2.5),74,73,84,54,63,81,,144,136,62,52,8,10,0.9,0.8
2025-01-06T2100,1374A,113.2881,22.8094,佛山市,顺德苏岗,细颗粒物(PM2.5),89,115,88,66,59,60,,114,105,59,47,8,9,0.8,0.9
2025-01-06T2100,1376A,112.8383,22.8678,佛山市,高明孔堂,细颗粒物(PM2.5),85,87,110,63,83,105,,160,154,30,39,8,12,0.7,0.8
2025-01-06T2100,1377A,112.8836,23.1588,佛山市,三水监测站,细颗粒物(PM2.5),97,127,113,72,82,56,,149,130,93,48,14,15,1.1,1
2025-01-06T2100,1378A,112.867,23.185,佛山市,三水云东海,细颗粒物(PM2.5),82,95,94,60,74,61,,150,127,68,51,11,13,0.9,0.9
2025-01-06T2100,3625A,113.2544,22.7642,佛山市,容桂街道办,细颗粒物(PM2.5),113,132,98,85,62,73,,125,116,77,57,9,9,1.0,0.9
2025-01-06T2100,1280A,119.3903,26.0543,福州市,鼓山,,,,42,,25,,,92,,,15,,2,,0.4
2025-01-06T2100,1282A,119.2681,26.0504,福州市,师大,颗粒物(PM10),58,65,46,39,33,100,,113,113,25,23,3,4,0.5,0.4
2025-01-06T2100,1283A,119.2984,26.1028,福州市,五四北路,,,,43,,32,,,55,,,31,,2,,0.6
2025-01-06T2100,1284A,119.2648,26.0768,福州市,杨桥西路,颗粒物(PM10),60,70,48,38,32,110,,116,116,18,25,1,2,0.4,0.4
2025-01-06T2100,1285A,119.317,26.0746,福州市,紫阳,颗粒物(PM10),65,79,51,36,32,107,,104,104,20,34,3,4,0.5,0.5
2025-01-06T2100,3048A,119.5799,26.0936,福州市,九龙,颗粒物(PM10),52,54,38,35,28,96,,121,119,21,16,1,3,0.4,0.5
2025-01-06T2100,3526A,119.5189,25.9664,福州市,吴航,颗粒物(PM10),54,57,44,34,27,118,,125,125,14,25,2,2,0.5,0.5
2025-01-06T2100,1755A,123.7977,41.8491,抚顺市,望花区,细颗粒物(PM2.5),143,156,132,109,106,11,,38,30,60,42,10,8,1.5,1.1
2025-01-06T2100,1756A,123.9161,41.8822,抚顺市,顺城区,细颗粒物(PM2.5),145,176,140,111,99,16,,38,31,61,50,9,8,1.8,1.3
2025-01-06T2100,1757A,124.0436,41.8611,抚顺市,东洲区,细颗粒物(PM2.5),110,117,140,83,106,26,,46,40,48,37,7,8,1.2,1.4
2025-01-06T2100,1758A,123.9247,41.8642,抚顺市,新抚区,细颗粒物(PM2.5),145,168,133,111,108,16,,40,31,66,52,6,6,1.5,1.2
2025-01-06T2100,1759A,124.0972,41.8961,抚顺市,大伙房水库,细颗粒物(PM2.5),92,84,128,68,103,30,,42,40,37,39,8,9,1.1,1.3
2025-01-06T2100,1760A,123.7086,41.8391,抚顺市,沈抚新城,细颗粒物(PM2.5),150,153,130,115,106,19,,44,38,58,48,8,7,1.4,1
2025-01-06T2100,2376A,116.2127,28.0814,抚州市,桐源党溪,细颗粒物(PM2.5),72,78,98,52,66,63,,112,102,3,12,2,5,0.4,0.6
2025-01-06T2100,2377A,116.3544,27.9831,抚州市,市站,细颗粒物(PM2.5),69,78,103,50,72,96,,117,116,20,37,4,5,0.9,1.2
2025-01-06T2100,2378A,116.3565,27.963,抚州市,血防站,细颗粒物(PM2.5),74,81,106,54,69,98,,118,118,17,37,10,9,0.9,1.1
2025-01-06T2100,2379A,116.3564,28.0007,抚州市,采茶剧团,细颗粒物(PM2.5),73,79,99,53,71,80,,99,98,14,29,1,3,1.1,1.3
2025-01-06T2100,2380A,116.385,27.9647,抚州市,医学分院,细颗粒物(PM2.5),82,101,104,60,63,75,,94,94,20,35,28,11,1.0,1
2025-01-06T2100,2207A,121.6094,41.998,阜新市,工业园区,颗粒物(PM10),79,108,91,46,47,15,,56,40,53,35,26,10,1.4,1.2
2025-01-06T2100,2208A,121.6697,42.0279,阜新市,长青街,颗粒物(PM10),52,53,59,26,30,39,,60,54,25,24,8,8,0.5,0.5
2025-01-06T2100,2209A,121.6673,42.0705,阜新市,农业园区,,38,38,44,3,22,48,,60,57,12,12,9,10,0.8,0.9
2025-01-06T2100,2210A,121.6717,42.0224,阜新市,东苑,颗粒物(PM10),55,60,58,24,26,42,,58,54,22,21,10,11,0.5,0.9
2025-01-06T2100,2211A,121.6506,42.0498,阜新市,玉龙新城,颗粒物(PM10),110,170,77,71,43,16,,64,47,54,34,15,7,1.6,1
2025-01-06T2100,2301A,115.8277,32.8929,阜阳市,市监测站,,49,47,88,34,53,35,,63,57,40,27,8,8,0.4,0.5
2025-01-06T2100,2303A,115.8554,32.8605,阜阳市,开发区,颗粒物(PM10),63,75,120,28,50,43,,64,59,26,24,8,9,0.5,0.5
2025-01-06T2100,2875A,115.784,32.8892,阜阳市,阜阳职业技术学院,颗粒物(PM10),54,58,94,32,51,49,,66,62,23,25,9,9,0.4,0.5
2025-01-06T2100,3468A,115.7901,32.8613,阜阳市,市规划展馆,,38,38,95,16,43,49,,67,64,28,23,8,9,0.6,0.8
2025-01-06T2100,3469A,115.836,32.9183,阜阳市,枣园社区,颗粒物(PM10),58,65,99,28,46,44,,69,61,31,30,6,8,0.5,0.6
2025-01-06T2100,2669A,102.9099,34.9841,甘南藏族自治州,州政府,细颗粒物(PM2.5),65,73,63,47,34,78,,78,78,16,32,12,15,0.9,1.1
2025-01-06T2100,3380A,102.8914,34.9617,甘南藏族自治州,甘肃民族师范学院,细颗粒物(PM2.5),68,64,69,49,30,99,,90,90,12,32,6,7,0.5,0.6
2025-01-06T2100,2570A,101.9603,30.0475,甘孜藏族自治州,水桥子,,43,37,33,30,17,60,,75,74,20,29,2,3,0.6,0.6
2025-01-06T2100,3065A,101.9533,29.9972,甘孜藏族自治州,州环保局,,42,41,30,29,11,66,,78,77,17,16,4,4,0.6,0.4
2025-01-06T2100,3414A,115.8347,28.932,赣江新区,桑海产业园,颗粒物(PM10),86,122,108,58,71,63,,88,86,33,51,14,11,0.9,0.7
2025-01-06T2100,2362A,114.9017,25.9149,赣州市,通天岩,细颗粒物(PM2.5),72,85,86,52,60,78,,127,116,12,11,1,3,0.8,0.8
2025-01-06T2100,2363A,114.9367,25.8664,赣州市,地委,细颗粒物(PM2.5),82,85,93,60,69,108,,121,119,25,25,1,3,1.5,1.5
2025-01-06T2100,2364A,114.9461,25.8481,赣州市,气象台,"颗粒物(PM10),细颗粒物(PM2.5)",82,114,112,60,64,102,,135,128,59,46,13,11,1.1,1
2025-01-06T2100,2365A,114.9322,25.8333,赣州市,市图书馆,细颗粒物(PM2.5),92,104,103,68,67,123,,132,131,25,36,4,6,1.3,1
2025-01-06T2100,2366A,114.8905,25.8471,赣州市,华坚鞋城,细颗粒物(PM2.5),93,100,101,69,68,120,,128,125,23,24,8,7,0.7,0.7
2025-01-06T2100,3109A,115.0093,25.8613,赣州市,赣县区卫计委,细颗粒物(PM2.5),123,120,108,93,79,56,,118,110,48,33,4,5,0.9,0.7
2025-01-06T2100,2683A,106.2319,36.1417,固原市,马园,,,,68,,29,,,,,,39,,8,,0.9
2025-01-06T2100,2684A,106.2792,36.0022,固原市,监测站,,39,39,46,22,23,53,,75,72,31,23,10,8,0.6,0.8
2025-01-06T2100,2685A,106.2375,36.0211,固原市,新区,,45,45,50,21,18,52,,67,65,31,36,9,6,0.5,0.7
2025-01-06T2100,3522A,106.2177,35.9959,固原市,原州区十五小,颗粒物(PM10),56,61,48,27,20,68,,75,74,17,18,8,8,0.5,0.6
2025-01-06T2100,2543A,106.6308,30.5278,广安市,小平旧居,,,,,,,,,,,,,,,,
2025-01-06T2100,2544A,106.6303,30.4576,广安市,市委,细颗粒物(PM2.5),133,112,92,101,81,27,,30,21,26,29,3,3,0.9,0.9
2025-01-06T2100,2545A,106.6271,30.4663,广安市,友谊中学,细颗粒物(PM2.5),138,116,92,105,80,25,,24,17,26,31,4,3,1.0,1
2025-01-06T2100,2547A,106.6388,30.4551,广安市,广电花园,细颗粒物(PM2.5),135,110,85,103,77,20,,26,15,26,27,3,3,0.6,0.7
2025-01-06T2100,2902A,106.6351,30.4865,广安市,北辰小学,细颗粒物(PM2.5),124,108,88,94,75,22,,22,19,28,29,4,3,1.3,1.3
2025-01-06T2100,2523A,105.8945,32.4535,广元市,黑石坡,细颗粒物(PM2.5),80,68,63,59,54,34,,36,36,24,32,12,11,0.6,0.7
2025-01-06T2100,2524A,105.821,32.4444,广元市,老城,细颗粒物(PM2.5),108,148,92,81,57,5,,26,20,76,60,2,4,2.0,1.3
2025-01-06T2100,2526A,105.8628,32.4287,广元市,监测站,细颗粒物(PM2.5),79,77,69,58,54,8,,30,24,62,48,2,3,1.3,1.2
2025-01-06T2100,3617A,105.8047,32.4166,广元市,经开区,细颗粒物(PM2.5),118,128,106,89,76,,,21,17,68,57,7,9,1.7,1.4
2025-01-06T2100,1345A,113.2347,23.1423,广州市,广雅中学,细颗粒物(PM2.5),88,107,107,65,68,16,,137,112,127,61,10,11,1.1,0.9
2025-01-06T2100,1346A,113.2612,23.105,广州市,市五中,细颗粒物(PM2.5),85,89,97,63,74,68,,144,129,62,39,5,7,0.9,0.8
2025-01-06T2100,1348A,113.3478,23.0916,广州市,广东商学院,细颗粒物(PM2.5),73,81,82,53,61,90,,141,128,58,39,6,6,0.8,0.7
2025-01-06T2100,1349A,113.4332,23.1047,广州市,市八十六中,颗粒物(PM10),85,120,87,62,53,16,,128,105,128,58,6,7,1.1,0.9
2025-01-06T2100,1350A,113.3505,22.9483,广州市,番禺中学,细颗粒物(PM2.5),100,126,92,75,60,61,,134,122,85,49,6,6,1.2,0.9
2025-01-06T2100,1351A,113.2146,23.3916,广州市,花都师范,细颗粒物(PM2.5),74,88,85,54,59,95,,130,124,50,33,8,8,0.8,0.8
2025-01-06T2100,1352A,113.2597,23.1331,广州市,市监测站,细颗粒物(PM2.5),72,92,98,52,61,65,,135,119,72,50,7,9,1.1,1.1
2025-01-06T2100,1353A,113.5618,23.312,广州市,九龙镇镇龙,细颗粒物(PM2.5),80,102,86,59,58,28,,133,117,102,40,6,7,0.9,0.8
2025-01-06T2100,1354A,113.2765,23.1544,广州市,麓湖,细颗粒物(PM2.5),64,68,87,46,65,47,,139,122,75,42,4,6,0.9,0.9
2025-01-06T2100,1355A,113.443,23.3035,广州市,帽峰山森林公园,颗粒物(PM10),53,55,63,36,41,133,,148,147,17,19,10,8,0.7,0.6
2025-01-06T2100,2846A,113.3221,23.1322,广州市,体育西,细颗粒物(PM2.5),83,96,90,61,60,78,,135,126,48,30,7,7,1.0,0.8
2025-01-06T2100,3298A,113.5717,23.5491,广州市,从化街口,细颗粒物(PM2.5),105,121,89,79,62,35,,140,118,82,39,9,9,1.1,0.9
2025-01-06T2100,3299A,113.3472,23.3692,广州市,白云竹料,细颗粒物(PM2.5),85,94,94,63,64,103,,141,132,37,33,10,9,1.0,0.9
2025-01-06T2100,3300A,113.2981,23.237,广州市,白云嘉禾,颗粒物(PM10),77,103,104,52,64,28,,137,109,110,61,9,10,1.2,0.9
2025-01-06T2100,3301A,113.4256,23.1716,广州市,黄埔科学城,细颗粒物(PM2.5),63,71,72,45,50,80,,135,118,43,28,8,8,0.9,0.8
2025-01-06T2100,3302A,113.3942,23.0483,广州市,番禺大学城,细颗粒物(PM2.5),72,82,80,52,52,84,,142,132,62,45,10,10,0.8,0.8
2025-01-06T2100,3303A,113.4922,22.8168,广州市,南沙黄阁,颗粒物(PM10),80,109,96,56,60,35,,144,121,106,55,8,12,1.2,0.9
2025-01-06T2100,3304A,113.5342,22.7896,广州市,南沙街,细颗粒物(PM2.5),74,91,89,54,56,83,,173,162,60,49,9,9,0.9,0.8
2025-01-06T2100,3443A,113.2902,23.5544,广州市,花都梯面,细颗粒物(PM2.5),70,70,78,51,54,32,,142,110,78,31,8,12,0.9,0.8
2025-01-06T2100,3445A,113.7858,23.7478,广州市,从化良口,颗粒物(PM10),51,51,52,35,40,106,,130,123,16,16,6,6,0.8,0.7
2025-01-06T2100,3446A,113.8051,23.2614,广州市,增城荔城,细颗粒物(PM2.5),62,70,61,44,44,59,,132,108,42,19,5,6,0.9,1
2025-01-06T2100,2505A,109.568,23.1478,贵港市,德智高中,,,,,,,,,,,,,,,,
2025-01-06T2100,2506A,109.6047,23.0666,贵港市,江南子站,细颗粒物(PM2.5),163,195,170,124,110,103,,165,158,52,55,14,14,1.3,1.4
2025-01-06T2100,2507A,109.6014,23.0948,贵港市,贵城子站,细颗粒物(PM2.5),139,146,121,106,95,109,,157,150,43,38,14,13,1.2,1.1
2025-01-06T2100,2508A,109.5669,23.1065,贵港市,荷城子站,细颗粒物(PM2.5),134,141,136,102,98,109,,144,138,42,37,14,14,1.2,1.1
2025-01-06T2100,3405A,109.5886,23.1172,贵港市,新世纪学校,细颗粒物(PM2.5),132,134,116,100,79,126,,159,156,38,30,16,14,1.0,0.9
2025-01-06T2100,1439A,106.6899,26.5998,贵阳市,马鞍山,细颗粒物(PM2.5),85,83,63,63,45,28,,52,45,49,43,14,10,0.7,0.8
2025-01-06T2100,1440A,106.6971,26.5694,贵阳市,市环保站,细颗粒物(PM2.5),105,97,93,79,64,40,,50,43,54,60,25,30,1.1,1.1
2025-01-06T2100,1441A,106.6243,26.6266,贵阳市,鉴湖路,细颗粒物(PM2.5),92,85,60,68,42,46,,65,53,42,36,10,10,0.8,0.7
2025-01-06T2100,1442A,106.7487,26.6343,贵阳市,燕子冲,细颗粒物(PM2.5),89,75,61,66,51,73,,55,45,23,38,18,18,0.8,0.8
2025-01-06T2100,1443A,106.6555,26.4365,贵阳市,碧云窝,细颗粒物(PM2.5),128,136,86,97,56,9,,49,38,76,42,48,27,1.2,0.9
2025-01-06T2100,1444A,106.694,26.5161,贵阳市,中院村,细颗粒物(PM2.5),98,97,105,73,72,32,,36,32,67,63,29,46,1.1,1.3
2025-01-06T2100,1445A,106.7109,26.6027,贵阳市,红边门,细颗粒物(PM2.5),94,90,80,70,61,53,,46,44,39,56,39,50,0.8,1
2025-01-06T2100,1446A,106.7164,26.5699,贵阳市,新华路,细颗粒物(PM2.5),100,92,78,75,54,40,,55,43,45,52,29,27,1.0,0.9
2025-01-06T2100,1447A,106.674,26.5424,贵阳市,太慈桥,,,,69,,48,22,,51,44,70,44,24,16,,0.8
2025-01-06T2100,1552A,106.805,26.3003,贵阳市,桐木岭,细颗粒物(PM2.5),77,80,62,56,42,90,,103,100,1,2,27,13,0.6,0.5
2025-01-06T2100,1862A,110.4144,25.3167,桂林市,电子科大尧山校区,颗粒物(PM10),55,59,67,33,52,106,,118,113,18,18,6,8,0.5,0.7
2025-01-06T2100,1863A,110.2819,25.2697,桂林市,监测站,,46,32,88,32,69,98,,115,,28,29,12,14,0.6,0.9
2025-01-06T2100,1864A,110.3089,25.2708,桂林市,龙隐路小学,细颗粒物(PM2.5),64,,81,46,80,110,,129,122,22,25,15,15,0.6,0.8
2025-01-06T2100,1865A,110.2869,25.2178,桂林市,八中,细颗粒物(PM2.5),52,44,85,36,71,75,,122,110,34,23,13,13,0.7,1
2025-01-06T2100,3403A,110.1764,25.2381,桂林市,创业大厦,颗粒物(PM10),51,51,107,34,80,107,,128,120,23,33,9,17,0.7,0.8
2025-01-06T2100,3531A,110.296,25.1253,桂林市,旅游学院,细颗粒物(PM2.5),55,51,92,39,74,93,,123,115,22,32,10,10,0.9,1
2025-01-06T2100,2674A,100.2561,34.4714,果洛藏族自治州,玛沁县大武镇,颗粒物(PM10),54,57,37,20,13,46,,80,77,23,10,11,14,0.6,0.5
2025-01-06T2100,1129A,126.5422,45.755,哈尔滨市,岭北,细颗粒物(PM2.5),193,164,104,145,89,19,,62,54,78,41,12,15,2.7,1.1
2025-01-06T2100,1130A,126.561,45.8167,哈尔滨市,松北商大,细颗粒物(PM2.5),135,124,95,103,78,38,,53,48,47,36,5,7,1.0,0.9
2025-01-06T2100,1131A,126.979,45.5419,哈尔滨市,阿城会宁,细颗粒物(PM2.5),210,,118,160,116,20,,43,36,48,43,3,13,2.0,1.3
2025-01-06T2100,1132A,126.599,45.7222,哈尔滨市,南岗学府路,细颗粒物(PM2.5),152,152,114,116,81,36,,48,46,49,43,8,9,0.8,0.8
2025-01-06T2100,1133A,126.689,45.7733,哈尔滨市,太平宏伟公园,细颗粒物(PM2.5),117,106,113,88,83,26,,48,40,51,51,8,8,0.9,1
2025-01-06T2100,1134A,126.635,45.7667,哈尔滨市,道外承德广场,细颗粒物(PM2.5),140,143,113,107,72,20,,45,37,63,45,7,7,1.1,1.1
2025-01-06T2100,1135A,126.685,45.7319,哈尔滨市,香坊红旗大街,细颗粒物(PM2.5),175,144,107,132,90,17,,45,38,65,49,9,12,1.2,1.1
2025-01-06T2100,1136A,126.6411,45.7258,哈尔滨市,动力和平路,细颗粒物(PM2.5),159,134,95,121,77,28,,44,40,46,40,8,9,1.0,0.9
2025-01-06T2100,1137A,126.593,45.7478,哈尔滨市,道里建国路,细颗粒物(PM2.5),175,144,103,132,92,25,,43,36,61,48,8,7,1.1,0.9
2025-01-06T2100,1138A,126.615,45.61,哈尔滨市,平房东轻厂,细颗粒物(PM2.5),160,134,111,122,91,37,,44,34,41,52,6,13,1.1,0.9
2025-01-06T2100,1139A,126.595,45.9855,哈尔滨市,呼兰师专,细颗粒物(PM2.5),179,,103,135,88,15,,46,32,66,39,18,11,1.2,0.9
2025-01-06T2100,1140A,126.6206,45.6842,哈尔滨市,省农科院,细颗粒物(PM2.5),182,176,130,137,105,11,,43,32,75,54,14,9,1.3,1.3
2025-01-06T2100,2688A,93.5128,42.8172,哈密市,地区监测站,"颗粒物(PM10),细颗粒物(PM2.5)",108,165,149,81,74,8,,36,33,74,51,10,7,0.8,1.1
2025-01-06T2100,2689A,93.4961,42.8328,哈密市,哈密师范学校,颗粒物(PM10),109,168,141,75,67,8,,34,32,75,52,13,11,1.5,1.5
2025-01-06T2100,2671A,100.9048,36.9639,海北藏族自治州,海晏县西海镇,,50,46,34,35,20,90,,83,83,13,12,38,20,1.4,1.1
2025-01-06T2100,3867A,102.0738,36.5056,海东市,平安区公安北苑,颗粒物(PM10),58,66,61,40,46,70,,74,74,27,26,34,19,0.7,1
2025-01-06T2100,1409A,110.576,19.9507,海口市,东寨港,细颗粒物(PM2.5),95,,69,71,69,178,,178,178,11,12,8,9,0.8,0.8
2025-01-06T2100,1410A,110.3232,20.0574,海口市,海南大学,臭氧1小时,103,86,78,58,53,206,,199,199,26,27,7,8,0.7,0.7
2025-01-06T2100,1411A,110.283,20.0053,海口市,秀英海南医院,臭氧1小时,101,79,73,55,53,202,,195,195,25,27,5,6,0.6,0.6
2025-01-06T2100,1412A,110.338,19.9969,海口市,海南师范大学,臭氧1小时,107,81,73,55,51,213,,203,203,18,18,6,7,0.7,0.7
2025-01-06T2100,1413A,110.33,20.0356,海口市,龙华路环保局宿舍,臭氧1小时,106,76,71,54,51,211,,200,200,18,18,7,8,0.7,0.7
2025-01-06T2100,3539A,110.5111,19.9736,海口市,桂林洋子站,臭氧1小时,102,86,79,59,54,203,,202,202,17,19,6,7,0.6,0.6
2025-01-06T2100,2673A,100.6188,36.2866,海南藏族自治州,共和县恰卜恰镇,颗粒物(PM10),51,51,37,23,20,29,,80,68,40,21,10,10,1.1,1
2025-01-06T2100,2676A,97.3731,37.3753,海西蒙古族藏族自治州,德令哈市,颗粒物(PM10),59,68,31,17,10,28,,78,64,45,13,19,16,0.9,0.5
2025-01-06T2100,1048A,114.5302,36.6116,邯郸市,东污水处理厂,,45,40,53,31,21,43,,58,51,25,26,4,3,0.3,0.4
2025-01-06T2100,1049A,114.4918,36.5713,邯郸市,矿院,颗粒物(PM10),55,60,44,29,11,14,,62,48,57,24,3,3,0.6,0.4
2025-01-06T2100,1050A,114.484,36.6133,邯郸市,丛台公园,颗粒物(PM10),57,64,56,30,16,24,,60,52,48,27,1,2,0.5,0.4
2025-01-06T2100,3458A,114.7895,36.5593,邯郸市,香泉濮院小区,颗粒物(PM10),63,75,69,24,17,56,,80,74,22,19,10,5,0.4,0.4
2025-01-06T2100,3579A,114.50634,36.77178,邯郸市,永年区实验高中,,,,72,,21,29,,50,45,,35,6,7,0.3,0.4
2025-01-06T2100,3580A,114.20016,36.44293,邯郸市,峰峰矿区临水派出所,,45,45,62,20,21,59,,70,66,16,19,9,9,0.6,0.6
2025-01-06T2100,2634A,106.9893,33.1842,汉中市,汉川机床厂子校,细颗粒物(PM2.5),277,,108,227,118,16,,36,35,47,20,6,5,2.1,1.5
2025-01-06T2100,2635A,107.0154,33.0706,汉中市,市监测站,细颗粒物(PM2.5),262,247,213,212,205,11,,18,16,66,51,7,6,3.0,2.7
2025-01-06T2100,2636A,107.0089,33.1138,汉中市,鑫源开发区,细颗粒物(PM2.5),270,,195,220,199,11,,20,20,64,43,7,6,2.5,2.3
2025-01-06T2100,2637A,107.007,33.0323,汉中市,南郑大河坎水厂,细颗粒物(PM2.5),283,258,227,233,202,14,,19,18,59,38,6,4,3.0,2.4
2025-01-06T2100,1223A,120.2072,30.2111,杭州市,滨江,颗粒物(PM10),87,124,104,54,62,51,,79,73,49,54,8,7,0.6,0.7
2025-01-06T2100,1224A,120.0633,30.2747,杭州市,西溪,细颗粒物(PM2.5),77,102,88,56,52,40,,87,77,40,39,6,7,0.9,0.8
2025-01-06T2100,1226A,120.3461,30.3153,杭州市,下沙,颗粒物(PM10),96,142,105,60,68,21,,82,62,89,66,10,8,0.8,0.9
2025-01-06T2100,1227A,120.1269,30.2456,杭州市,卧龙桥,细颗粒物(PM2.5),69,81,76,50,54,26,,87,65,47,36,6,7,0.8,0.7
2025-01-06T2100,1228A,120.1903,30.2692,杭州市,浙江农大,"颗粒物(PM10),细颗粒物(PM2.5)",77,104,107,56,68,44,,77,69,57,57,8,7,0.7,0.8
2025-01-06T2100,1230A,120.1197,30.3119,杭州市,和睦小学,细颗粒物(PM2.5),74,96,97,54,66,55,,81,74,52,58,9,8,0.8,0.9
2025-01-06T2100,1231A,120.3019,30.4183,杭州市,临平镇,颗粒物(PM10),95,140,125,56,70,55,,89,82,42,48,9,8,1.0,1
2025-01-06T2100,1232A,120.2697,30.1819,杭州市,城厢镇,颗粒物(PM10),83,115,108,58,65,57,,80,73,49,62,8,7,0.8,0.9
2025-01-06T2100,1233A,120.0883,30.1808,杭州市,云栖,,,,,,,,,,,,,,,,
2025-01-06T2100,3557A,119.9464,30.0494,杭州市,镇二中,细颗粒物(PM2.5),102,133,82,76,58,,,80,72,62,46,8,7,0.8,0.8
2025-01-06T2100,3558A,119.7183,30.2367,杭州市,市府大楼,细颗粒物(PM2.5),100,136,86,75,62,50,,88,79,58,40,9,8,1.0,1
2025-01-06T2100,3656A,120.1556,30.2864,杭州市,消防大队,颗粒物(PM10),79,108,98,56,65,48,,85,76,56,51,10,9,0.9,0.9
2025-01-06T2100,1270A,117.1959,31.7848,合肥市,明珠广场,颗粒物(PM10),53,56,90,22,45,41,,72,65,35,36,10,9,0.6,0.6
2025-01-06T2100,1271A,117.3072,31.8764,合肥市,三里街,颗粒物(PM10),58,66,95,24,44,39,,70,62,34,33,6,5,0.6,0.7
2025-01-06T2100,1272A,117.2588,31.8707,合肥市,琥珀山庄,颗粒物(PM10),57,63,93,21,44,42,,66,60,36,39,7,6,0.5,0.6
2025-01-06T2100,1273A,117.1604,31.9052,合肥市,董铺水库,,,90,92,,37,46,,70,63,25,31,5,4,0.4,0.4
2025-01-06T2100,1274A,117.25,31.8571,合肥市,长江中路,颗粒物(PM10),57,63,91,28,44,42,,65,60,32,30,8,7,0.6,0.7
2025-01-06T2100,1275A,117.266,31.9436,合肥市,庐阳区,颗粒物(PM10),53,56,91,19,37,55,,76,70,18,25,5,4,0.6,0.7
2025-01-06T2100,1276A,117.336,31.8586,合肥市,瑶海区,颗粒物(PM10),60,70,101,26,41,42,,69,59,35,34,9,7,0.6,0.7
2025-01-06T2100,1277A,117.3027,31.7964,合肥市,包河区,颗粒物(PM10),57,63,95,24,42,30,,65,54,47,45,6,4,0.5,0.6
2025-01-06T2100,1278A,117.2776,31.7385,合肥市,滨湖新区,颗粒物(PM10),64,78,102,27,41,38,,71,62,32,41,8,7,0.3,0.4
2025-01-06T2100,1279A,117.1318,31.8403,合肥市,高新区,颗粒物(PM10),59,68,89,24,42,44,,69,62,42,31,1,2,0.8,0.8
2025-01-06T2100,3464A,117.3803,31.9147,合肥市,高教基地,颗粒物(PM10),55,60,91,19,37,47,,77,69,26,35,9,8,0.4,0.4
2025-01-06T2100,3614A,79.924,37.0877,和田地区,地区环保局,颗粒物(PM10),102,154,150,39,76,43,,84,82,35,40,17,23,0.4,1.1
2025-01-06T2100,3615A,79.9131,37.113,和田地区,市环保局,颗粒物(PM10),75,99,117,44,67,43,,84,83,41,51,16,22,1.0,2.4
2025-01-06T2100,2516A,108.2011,24.715,河池市,东仁乐园,细颗粒物(PM2.5),112,111,94,84,59,33,,114,99,80,46,13,12,1.0,0.9
2025-01-06T2100,2517A,108.0497,24.6947,河池市,市环保站,,,,71,,54,,,125,125,47,30,9,9,1.2,0.9
2025-01-06T2100,2518A,108.0983,24.6989,河池市,市疾控中心,细颗粒物(PM2.5),98,119,86,73,58,29,,129,99,80,47,6,6,1.0,0.8
2025-01-06T2100,1696A,114.6778,23.7569,河源市,源西,颗粒物(PM10),64,77,72,41,58,59,,117,86,45,30,5,8,0.7,0.7
2025-01-06T2100,1697A,114.6944,23.7586,河源市,东埔,细颗粒物(PM2.5),69,55,77,50,62,70,,136,116,49,27,4,7,0.9,0.8
2025-01-06T2100,1698A,114.6892,23.7233,河源市,老城,细颗粒物(PM2.5),65,61,71,47,60,46,,133,117,49,22,4,7,1.0,0.7
2025-01-06T2100,1718A,115.4208,35.2464,菏泽市,气象局,颗粒物(PM10),58,65,93,28,31,42,,74,63,43,27,6,5,0.5,0.5
2025-01-06T2100,1719A,115.4747,35.2375,菏泽市,市政协,颗粒物(PM10),65,79,95,28,31,11,,75,58,67,34,7,7,0.8,0.7
2025-01-06T2100,3374A,115.5564,35.0891,菏泽市,定陶老年大学,颗粒物(PM10),56,61,85,36,29,32,,72,58,47,32,10,10,0.3,0.3
2025-01-06T2100,3647A,115.4702,35.2706,菏泽市,菏泽医专,颗粒物(PM10),57,64,91,27,26,30,,75,62,54,33,13,11,0.6,0.6
2025-01-06T2100,2514A,111.5264,24.4172,贺州市,环保小区,细颗粒物(PM2.5),127,142,110,96,96,69,,127,113,32,28,8,8,1.3,1
2025-01-06T2100,2515A,111.5608,24.4078,贺州市,政协大楼,细颗粒物(PM2.5),112,140,110,84,77,43,,123,101,58,36,8,7,1.0,0.9
2025-01-06T2100,3534A,111.4744,24.4553,贺州市,西湾,细颗粒物(PM2.5),94,101,120,70,93,65,,132,119,40,23,8,8,1.1,1
2025-01-06T2100,2385A,114.17,35.9019,鹤壁市,市监测站,颗粒物(PM10),81,112,84,38,28,4,,71,56,53,24,2,5,0.6,0.6
2025-01-06T2100,2386A,114.2956,35.7511,鹤壁市,市交警支队,颗粒物(PM10),62,74,81,30,25,26,,69,57,49,33,2,3,0.5,0.5
2025-01-06T2100,2387A,114.2878,35.7306,鹤壁市,迎宾馆,颗粒物(PM10),62,74,90,26,24,27,,70,59,45,31,4,5,0.5,0.5
2025-01-06T2100,3474A,114.2617,35.6822,鹤壁市,大新区,颗粒物(PM10),59,67,84,37,22,26,,67,49,50,36,6,6,0.4,0.5
2025-01-06T2100,3596A,114.1572,35.9603,鹤壁市,南山宾馆,细颗粒物(PM2.5),69,67,86,50,41,42,,72,60,22,20,3,5,0.5,0.8
2025-01-06T2100,2244A,130.2537,47.3416,鹤岗市,哈啤分公司,细颗粒物(PM2.5),58,54,45,41,34,36,,49,30,18,20,16,16,0.6,0.7
2025-01-06T2100,2245A,130.2684,47.3086,鹤岗市,斯达机电,细颗粒物(PM2.5),62,63,45,44,28,33,,62,39,23,19,15,15,0.4,0.3
2025-01-06T2100,2246A,130.3114,47.3388,鹤岗市,东山纸板厂,细颗粒物(PM2.5),95,,43,71,48,8,,36,20,56,40,17,19,1.3,1.1
2025-01-06T2100,2247A,130.1097,47.3382,鹤岗市,五号水库,,34,34,35,18,18,56,,65,52,13,16,7,8,0.4,0.5
2025-01-06T2100,2263A,127.4833,50.2524,黑河市,交通局,,26,24,19,18,16,46,,56,51,15,11,7,7,0.6,0.5
2025-01-06T2100,2264A,127.5144,50.2341,黑河市,环保局,,35,,22,24,18,49,,54,48,10,10,7,7,0.6,0.6
2025-01-06T2100,2265A,127.5291,50.2472,黑河市,大黑河岛,,,14,21,6,12,27,,32,27,12,8,1,2,,
2025-01-06T2100,1074A,115.6838,37.7541,衡水市,电机北厂,,31,31,42,19,16,53,,71,64,17,18,8,7,0.4,0.3
2025-01-06T2100,1075A,115.6303,37.7316,衡水市,市监测站,,28,28,40,14,12,41,,60,54,24,22,12,10,0.5,0.4
2025-01-06T2100,3188A,115.6683,37.7217,衡水市,市城管局,,44,44,40,21,18,33,,67,57,30,17,9,8,0.5,0.3
2025-01-06T2100,3459A,115.5989,37.5491,衡水市,地表水厂,,41,41,41,15,14,18,,68,49,53,25,13,7,0.4,0.3
2025-01-06T2100,2456A,112.5003,26.9167,衡阳市,原169医院,细颗粒物(PM2.5),85,70,72,63,69,47,,99,88,56,33,8,27,0.7,0.6
2025-01-06T2100,2457A,112.6194,26.9258,衡阳市,衡阳化工总厂,细颗粒物(PM2.5),83,78,92,61,77,88,,117,115,24,31,6,7,0.8,0.9
2025-01-06T2100,2458A,112.6211,26.8956,衡阳市,珠晖区环保局,细颗粒物(PM2.5),85,74,82,63,74,56,,112,106,63,43,10,11,0.8,0.9
2025-01-06T2100,2459A,112.6197,26.8733,衡阳市,市委党校,细颗粒物(PM2.5),77,73,88,56,73,98,,126,124,25,31,10,9,0.8,1
2025-01-06T2100,2460A,112.6006,26.8919,衡阳市,市监测站,细颗粒物(PM2.5),109,113,101,82,83,79,,118,115,32,29,9,9,1.2,0.9
2025-01-06T2100,2461A,112.5664,26.9056,衡阳市,真空机电公司,细颗粒物(PM2.5),88,94,103,65,74,68,,114,110,50,36,9,7,1.0,1
2025-01-06T2100,3399A,112.6703,26.882,衡阳市,师范学院,细颗粒物(PM2.5),87,82,100,64,87,93,,129,125,27,27,10,9,0.8,0.9
2025-01-06T2100,2608A,103.3772,23.3993,红河哈尼族彝族自治州,污水处理厂,细颗粒物(PM2.5),104,,73,78,69,86,,105,98,13,17,6,9,0.6,0.7
2025-01-06T2100,2609A,103.3861,23.35,红河哈尼族彝族自治州,监测站,细颗粒物(PM2.5),87,75,69,64,64,97,,120,110,24,16,14,8,0.9,0.9
2025-01-06T2100,3038A,103.3758,23.368,红河哈尼族彝族自治州,州图书馆,细颗粒物(PM2.5),72,69,66,52,67,83,,99,91,11,14,7,8,0.7,0.7
2025-01-06T2100,1090A,111.6507,40.7517,呼和浩特市,呼市一监,,22,7,26,3,11,68,,64,64,6,16,8,10,0.3,0.5
2025-01-06T2100,1091A,111.6572,40.8033,呼和浩特市,小召,,20,9,26,3,9,62,,57,57,13,21,6,8,0.4,0.5
2025-01-06T2100,1094A,111.7516,40.8369,呼和浩特市,如意水处理厂,,17,8,23,3,9,54,,55,55,8,15,7,9,0.3,0.5
2025-01-06T2100,1095A,111.7276,40.8062,呼和浩特市,二十九中,,18,11,22,3,8,56,,54,54,13,22,7,8,0.2,0.4
2025-01-06T2100,1096A,111.5512,40.7866,呼和浩特市,工大金川校区,,18,11,33,3,14,57,,56,56,12,24,6,7,0.4,0.5
2025-01-06T2100,1097A,111.717,40.7612,呼和浩特市,化肥厂生活区,,19,8,26,3,10,60,,55,55,11,20,5,8,0.4,0.5
2025-01-06T2100,3698A,111.5968,40.8178,呼和浩特市,红旗小学,,20,7,29,3,10,62,,56,56,8,26,3,5,0.4,0.4
2025-01-06T2100,3699A,111.6518,40.8389,呼和浩特市,海东办,,20,7,26,3,10,61,,57,57,8,20,6,8,0.5,0.6
2025-01-06T2100,2192A,119.7594,49.2261,呼伦贝尔市,区环保局,,30,30,28,20,22,37,,48,46,26,21,6,6,0.5,0.5
2025-01-06T2100,3061A,119.7512,49.1577,呼伦贝尔市,国华电力东,,33,33,29,22,23,53,,52,52,8,10,5,5,0.4,0.4
2025-01-06T2100,1250A,120.0751,30.8669,湖州市,城西水厂,颗粒物(PM10),99,148,119,62,68,11,,81,61,102,59,10,10,0.8,0.8
2025-01-06T2100,2873A,120.0875,30.8955,湖州市,仁皇山新区,,,98,96,50,61,66,,87,83,,66,10,9,,0.8
2025-01-06T2100,2907A,120.1844,30.8596,湖州市,吴兴区站,颗粒物(PM10),75,100,90,50,59,31,,85,75,78,44,8,8,0.6,0.7
2025-01-06T2100,3562A,120.4148,30.8538,湖州市,南浔区站,细颗粒物(PM2.5),82,109,98,60,66,60,,78,76,38,41,11,11,0.6,0.7
2025-01-06T2100,1607A,120.9092,40.7136,葫芦岛市,龙港区,颗粒物(PM10),75,99,58,54,41,27,,70,53,70,32,69,32,1.4,0.8
2025-01-06T2100,1608A,120.8392,40.7514,葫芦岛市,化工街,细颗粒物(PM2.5),140,175,83,107,46,11,,54,35,72,43,38,21,2.4,1.1
2025-01-06T2100,1609A,120.8341,40.7073,葫芦岛市,新区,细颗粒物(PM2.5),84,64,50,62,34,7,,62,41,72,38,19,21,1.5,0.9
2025-01-06T2100,1610A,120.8695,40.7677,葫芦岛市,东城区,细颗粒物(PM2.5),148,,82,113,54,12,,58,39,69,42,35,32,2.1,0.7
2025-01-06T2100,2482A,109.5981,27.5721,怀化市,林科所,细颗粒物(PM2.5),58,52,59,41,52,98,,100,100,22,32,18,10,0.9,1.1
2025-01-06T2100,2483A,109.9453,27.5444,怀化市,河西地税局,细颗粒物(PM2.5),98,92,98,73,84,90,,92,92,14,20,10,7,0.9,1.1
2025-01-06T2100,2484A,109.9781,27.5342,怀化市,市四医院,细颗粒物(PM2.5),109,92,113,82,90,71,,94,93,21,32,8,4,1.1,1.3
2025-01-06T2100,2485A,109.9972,27.5578,怀化市,监测楼,细颗粒物(PM2.5),108,98,96,81,76,65,,87,86,31,27,4,4,0.8,0.9
2025-01-06T2100,2486A,110.0394,27.583,怀化市,市委党校,细颗粒物(PM2.5),93,88,97,69,80,83,,90,90,17,29,2,8,0.9,1.2
2025-01-06T2100,1210A,119.036,33.5981,淮安市,钵池山,颗粒物(PM10),51,51,137,34,66,55,,73,70,29,33,7,11,0.5,0.8
2025-01-06T2100,1211A,119.007,33.575,淮安市,北京南路,,48,48,148,31,64,50,,67,62,30,38,9,12,0.5,0.5
2025-01-06T2100,1212A,118.989,33.6067,淮安市,市监测站,颗粒物(PM10),53,56,140,34,72,47,,68,62,36,40,8,10,0.6,0.8
2025-01-06T2100,1213A,119.135,33.5039,淮安市,楚州区监测站,颗粒物(PM10),53,56,148,20,60,48,,68,65,33,38,10,10,0.4,0.8
2025-01-06T2100,1214A,119.0186,33.6297,淮安市,淮阴区监测站,细颗粒物(PM2.5),60,63,155,43,73,38,,68,60,44,42,8,11,0.5,0.8
2025-01-06T2100,3426A,118.8755,33.2894,淮安市,新华书店,颗粒物(PM10),53,56,153,18,60,64,,73,72,22,31,23,16,0.4,0.7
2025-01-06T2100,2282A,116.8004,33.975,淮北市,监测站,,34,34,121,12,42,63,,66,63,14,26,4,7,0.9,1.1
2025-01-06T2100,2283A,116.8091,33.9007,淮北市,烈山区政府,,49,49,121,22,48,39,,71,64,38,37,4,5,0.5,0.6
2025-01-06T2100,3330A,116.8873,33.9836,淮北市,杜集区检察院,,42,42,128,22,52,37,,70,62,32,25,2,4,0.1,0.4
2025-01-06T2100,4017A,116.7923,33.9535,淮北市,市博物馆,,31,31,118,15,42,61,,70,67,22,36,5,7,0.5,0.8
2025-01-06T2100,2277A,116.8305,32.7727,淮南市,潘集区政府,颗粒物(PM10),56,61,116,37,68,29,,67,59,48,27,10,10,0.3,0.5
2025-01-06T2100,2278A,117.0067,32.6524,淮南市,师范学院,细颗粒物(PM2.5),72,83,113,52,62,41,,65,58,30,30,7,6,0.6,0.6
2025-01-06T2100,2279A,116.8569,32.5951,淮南市,谢家集区政府,颗粒物(PM10),62,73,103,39,53,35,,67,59,30,20,9,7,0.6,0.6
2025-01-06T2100,2280A,116.8281,32.633,淮南市,八公山区政府,颗粒物(PM10),58,65,103,28,50,49,,67,58,24,23,4,5,0.3,0.5
2025-01-06T2100,2281A,116.6325,32.6201,淮南市,焦岗湖风景区管理处,颗粒物(PM10),55,60,77,28,42,28,,46,40,16,13,3,4,0.2,0.3
2025-01-06T2100,2894A,117.0566,32.6531,淮南市,经济技术开发区消防队,细颗粒物(PM2.5),72,75,116,52,58,47,,70,64,18,21,8,6,0.4,0.5
2025-01-06T2100,3329A,117.0108,32.5893,淮南市,山南新区,颗粒物(PM10),55,59,121,26,54,58,,71,68,19,26,8,9,0.4,0.6
2025-01-06T2100,2446A,114.9028,30.4742,黄冈市,职工中心,颗粒物(PM10),94,137,83,67,55,69,,62,62,35,41,10,8,0.5,0.5
2025-01-06T2100,2929A,114.8858,30.4519,黄冈市,红卫路,细颗粒物(PM2.5),88,124,83,65,55,70,,60,60,30,33,8,6,0.9,1
2025-01-06T2100,3398A,114.9136,30.4445,黄冈市,市林业局,颗粒物(PM10),88,125,79,61,55,67,,63,63,21,26,11,9,0.8,0.7
2025-01-06T2100,2672A,102.0199,35.5102,黄南藏族自治州,同仁县隆务镇,颗粒物(PM10),51,51,45,33,25,81,,87,87,4,6,11,11,0.6,0.5
2025-01-06T2100,2295A,118.2903,29.6963,黄山市,延安路89号,颗粒物(PM10),76,101,62,50,40,53,,94,84,23,22,4,4,0.5,0.4
2025-01-06T2100,2296A,118.327,29.7178,黄山市,黄山东路89号,颗粒物(PM10),75,99,72,45,41,53,,85,77,27,23,6,6,0.6,0.6
2025-01-06T2100,2297A,118.1371,30.2756,黄山市,黄山区政府5号楼,细颗粒物(PM2.5),92,108,73,68,44,54,,103,90,14,12,7,8,0.5,0.5
2025-01-06T2100,2423A,115.0601,30.2313,黄石市,沈家营,颗粒物(PM10),78,106,94,48,49,50,,67,62,36,38,13,12,1.2,0.9
2025-01-06T2100,2424A,115.0817,30.2006,黄石市,陈家湾,细颗粒物(PM2.5),67,76,93,48,64,49,,59,54,19,33,8,9,0.8,0.9
2025-01-06T2100,2426A,114.8988,30.2019,黄石市,铁山,细颗粒物(PM2.5),85,100,82,63,66,19,,72,62,37,29,4,8,0.9,0.9
2025-01-06T2100,2427A,115.0307,30.2092,黄石市,团城山,颗粒物(PM10),80,109,87,52,60,46,,66,63,40,38,11,8,1.2,1
2025-01-06T2100,3149A,115.0235,30.1578,黄石市,笔架山北路,细颗粒物(PM2.5),77,85,91,56,71,43,,77,72,40,34,13,16,1.3,1.2
2025-01-06T2100,1392A,114.4183,23.0528,惠州市,河南岸金山湖子站,细颗粒物(PM2.5),68,80,73,49,51,51,,126,104,58,24,7,10,0.8,0.7
2025-01-06T2100,1393A,114.4053,23.0822,惠州市,下埔横江三路子站,细颗粒物(PM2.5),79,96,77,58,53,38,,142,117,82,25,7,10,1.3,0.9
2025-01-06T2100,1394A,114.4103,23.1142,惠州市,江北云山西路子站,细颗粒物(PM2.5),82,100,79,60,52,76,,145,130,68,26,9,10,1.0,0.8
2025-01-06T2100,1395A,114.4645,22.7833,惠州市,惠阳区承修路船湖子站,颗粒物(PM10),66,82,84,45,46,125,,136,136,21,22,9,10,0.5,0.5
2025-01-06T2100,1396A,114.5317,22.7422,惠州市,大亚湾管委会子站,颗粒物(PM10),63,76,67,44,42,133,,152,151,34,27,12,12,0.6,0.6
2025-01-06T2100,3314A,114.4338,22.8134,惠州市,惠阳秋长,颗粒物(PM10),58,66,72,40,48,136,,154,152,30,23,8,8,0.8,0.7
2025-01-06T2100,3452A,114.6517,22.775,惠州市,大亚湾霞涌,颗粒物(PM10),60,69,60,42,45,102,,144,140,28,17,7,9,0.5,0.6
2025-01-06T2100,2240A,130.9762,45.3001,鸡西市,环保局,颗粒物(PM10),53,56,75,32,54,44,,51,45,22,30,9,11,0.6,0.7
2025-01-06T2100,2243A,130.9429,45.3039,鸡西市,第一中学,,20,20,66,12,48,61,,64,64,8,25,7,11,0.2,0.5
2025-01-06T2100,3707A,131.0207,45.3073,鸡西市,欧美日汽修厂,细颗粒物(PM2.5),117,126,123,88,84,8,,44,34,37,28,84,28,1.0,1
2025-01-06T2100,3709A,130.9967,45.3106,鸡西市,市政设施管理处,细颗粒物(PM2.5),109,101,92,82,62,15,,44,34,50,40,21,12,1.3,1.1
2025-01-06T2100,2367A,114.9754,27.0803,吉安市,红声器材厂,细颗粒物(PM2.5),82,94,131,60,92,87,,125,124,39,46,13,11,0.7,0.8
2025-01-06T2100,2368A,114.9658,27.0999,吉安市,市森林工业局,细颗粒物(PM2.5),78,83,122,57,89,92,,124,122,31,38,18,14,0.5,0.9
2025-01-06T2100,2369A,114.99,27.1312,吉安市,市环境监测站,细颗粒物(PM2.5),83,88,117,61,91,94,,129,126,36,41,24,14,0.6,0.9
2025-01-06T2100,2370A,115.0093,27.0968,吉安市,青原区法院,细颗粒物(PM2.5),92,96,129,68,96,104,,128,127,34,55,13,12,0.6,0.9
2025-01-06T2100,1772A,126.54,43.8622,吉林市,哈达湾,细颗粒物(PM2.5),99,85,90,74,70,45,,54,53,33,39,10,16,0.9,1.1
2025-01-06T2100,1773A,126.5844,43.8358,吉林市,东局子,细颗粒物(PM2.5),104,104,92,78,70,26,,56,50,48,37,7,9,1.1,1.1
2025-01-06T2100,1774A,126.5052,43.8245,吉林市,电力学院,细颗粒物(PM2.5),216,205,118,166,97,9,,47,33,62,43,17,15,2.6,1.5
2025-01-06T2100,1775A,126.6133,43.8972,吉林市,江北,细颗粒物(PM2.5),97,92,98,72,74,45,,51,50,29,43,10,14,0.9,1
2025-01-06T2100,1776A,126.555,43.8306,吉林市,江南公园,细颗粒物(PM2.5),118,104,93,89,79,30,,53,50,43,40,12,14,1.1,1.3
2025-01-06T2100,1778A,126.7061,43.7133,吉林市,丰满,细颗粒物(PM2.5),74,55,67,54,66,47,,60,56,22,25,10,10,0.7,0.9
2025-01-06T2100,2868A,126.4739,43.953,吉林市,九站,细颗粒物(PM2.5),90,82,96,67,76,31,,47,39,45,44,7,12,1.0,1.1
2025-01-06T2100,1299A,116.9862,36.6114,济南市,科干所,,24,24,48,12,14,56,,70,65,26,32,6,7,0.5,0.6
2025-01-06T2100,1300A,116.9376,36.665,济南市,农科所,颗粒物(PM10),64,78,64,27,12,9,,69,45,80,38,26,10,0.9,0.5
2025-01-06T2100,1301A,117.1265,36.6734,济南市,开发区,,34,34,47,20,17,42,,68,55,40,37,8,7,0.6,0.5
2025-01-06T2100,1303A,117.0624,36.6868,济南市,省种子仓库,,41,41,56,17,15,29,,71,60,54,32,9,8,0.7,0.6
2025-01-06T2100,1304A,116.9489,36.6447,济南市,机床二厂,颗粒物(PM10),64,78,63,32,17,13,,75,54,70,30,57,16,1.2,0.8
2025-01-06T2100,1305A,117.0495,36.663,济南市,市监测站,,39,39,50,15,12,39,,71,60,44,33,9,7,0.8,0.6
2025-01-06T2100,1306A,116.7675,36.5484,济南市,长清党校,,34,34,57,15,15,44,,75,67,39,31,6,7,0.8,0.8
2025-01-06T2100,1616A,117.6795,36.229,济南市,技术学院,,48,48,62,27,28,24,,63,51,48,40,15,10,1.1,0.9
2025-01-06T2100,1961A,117.532,36.6868,济南市,东山小学,,44,44,63,17,24,13,,69,50,66,38,10,8,0.7,0.7
2025-01-06T2100,3059A,117.7161,36.2049,济南市,泰兴公司,颗粒物(PM10),76,102,78,51,37,9,,67,47,69,39,16,11,0.9,0.6
2025-01-06T2100,3064A,117.6867,36.2171,济南市,莱芜战役纪念馆,颗粒物(PM10),64,78,75,36,30,10,,66,52,77,43,19,9,1.1,0.7
2025-01-06T2100,3494A,117.1673,36.9782,济南市,济阳区政府,,42,42,51,15,18,43,,59,50,21,41,13,9,0.5,0.5
2025-01-06T2100,3495A,117.1171,36.63,济南市,锦屏中学,,29,29,39,15,12,39,,72,60,43,31,11,6,0.5,0.3
2025-01-06T2100,3682A,116.9814,36.6819,济南市,济南四建,颗粒物(PM10),56,61,56,27,16,8,,64,48,79,38,21,9,0.9,0.7
2025-01-06T2100,1653A,116.6251,35.4302,济宁市,火炬城,,36,36,73,14,18,44,,70,59,31,26,8,8,0.5,0.5
2025-01-06T2100,1655A,116.5491,35.4042,济宁市,电化厂,颗粒物(PM10),52,54,90,31,26,26,,69,58,56,40,19,12,0.6,0.7
2025-01-06T2100,3500A,116.5814,35.3707,济宁市,北湖一中,,30,30,77,7,22,54,,74,64,27,27,6,6,0.8,0.9
2025-01-06T2100,3501A,116.8249,35.5593,济宁市,服务中心,,48,48,86,25,24,38,,71,57,43,36,18,13,0.7,0.6
2025-01-06T2100,3678A,116.5907,35.4054,济宁市,市第七中学,,44,44,80,22,21,46,,74,64,36,31,3,4,0.8,0.8
2025-01-06T2100,2255A,130.2751,46.8028,佳木斯市,佳纺,细颗粒物(PM2.5),98,87,89,73,84,34,,54,38,36,36,24,13,0.8,1.2
2025-01-06T2100,2256A,130.3995,46.8307,佳木斯市,发电厂,细颗粒物(PM2.5),92,71,63,68,59,29,,54,42,36,32,13,8,0.8,0.8
2025-01-06T2100,2257A,130.3258,46.7975,佳木斯市,环保局,细颗粒物(PM2.5),57,56,72,40,58,22,,51,40,47,33,18,11,0.8,0.8
2025-01-06T2100,2258A,130.3648,46.8032,佳木斯市,十一中,细颗粒物(PM2.5),57,47,59,40,55,31,,50,45,39,33,11,8,0.8,0.7
2025-01-06T2100,2259A,130.3794,46.7588,佳木斯市,四丰,,35,34,40,24,30,48,,59,56,14,10,1,1,0.6,0.7
2025-01-06T2100,1252A,120.7436,30.778,嘉兴市,清河小学,颗粒物(PM10),85,120,108,50,60,52,,69,66,43,56,11,10,1.1,1.2
2025-01-06T2100,1253A,120.726,30.7478,嘉兴市,嘉兴学院,颗粒物(PM10),80,109,110,56,66,58,,74,71,39,55,9,8,0.7,0.8
2025-01-06T2100,2872A,120.7846,30.7525,嘉兴市,南湖区残联,颗粒物(PM10),85,120,113,56,65,55,,77,74,44,53,10,10,0.7,0.8
2025-01-06T2100,3407A,120.6916,30.7739,嘉兴市,秀洲住建,颗粒物(PM10),91,131,114,57,70,57,,76,70,41,54,9,8,0.6,0.7
2025-01-06T2100,1945A,98.2908,39.7711,嘉峪关市,气象局,颗粒物(PM10),59,68,57,34,24,61,,79,77,16,32,2,11,0.4,0.7
2025-01-06T2100,2884A,98.2672,39.7978,嘉峪关市,酒钢宾馆,颗粒物(PM10),59,68,63,14,26,61,,69,68,25,30,21,35,0.7,0.9
2025-01-06T2100,3248A,98.2643,39.7724,嘉峪关市,雄关区,,50,50,55,27,24,68,,81,80,16,42,6,12,0.3,0.7
2025-01-06T2100,1383A,113.1064,22.6058,江门市,北街,细颗粒物(PM2.5),90,84,87,67,68,106,,158,154,58,53,6,8,1.0,1
2025-01-06T2100,1384A,113.0731,22.5835,江门市,西区,细颗粒物(PM2.5),120,164,120,91,75,72,,152,142,95,56,10,11,1.2,0.9
2025-01-06T2100,1385A,113.0219,22.5311,江门市,圭峰西,细颗粒物(PM2.5),93,73,80,69,69,135,,159,158,38,41,7,8,0.9,0.8
2025-01-06T2100,1386A,113.0828,22.5947,江门市,东湖,细颗粒物(PM2.5),108,118,105,81,72,97,,154,149,53,46,8,10,1.1,0.8
2025-01-06T2100,3311A,113.1075,22.5647,江门市,江海富民,细颗粒物(PM2.5),89,122,106,66,63,78,,156,148,95,56,9,10,1.5,0.9
2025-01-06T2100,3449A,113.05,22.4667,江门市,新会银湖,细颗粒物(PM2.5),122,94,90,92,79,56,,143,127,84,58,6,8,0.9,0.8
2025-01-06T2100,1828A,113.227,35.2125,焦作市,市环保局,颗粒物(PM10),70,90,71,41,23,38,,62,56,33,19,10,6,0.7,0.6
2025-01-06T2100,1830A,113.1992,35.2590,焦作市,影视城,颗粒物(PM10),66,81,69,36,29,60,,64,64,21,21,8,10,0.8,0.8
2025-01-06T2100,3169A,113.2725,35.2067,焦作市,太极体育中心,颗粒物(PM10),69,87,77,23,15,40,,63,56,39,25,8,8,0.6,0.5
2025-01-06T2100,3335A,113.3137,35.2641,焦作市,马村街道办,颗粒物(PM10),65,79,82,38,26,34,,63,54,35,21,8,8,1.4,0.6
2025-01-06T2100,3336A,113.2465,35.2373,焦作市,焦作技师学院,颗粒物(PM10),66,82,75,34,22,37,,67,59,44,28,8,7,0.8,0.5
2025-01-06T2100,3477A,113.1656,35.2539,焦作市,中站许衡医院,颗粒物(PM10),54,58,64,31,28,53,,64,59,24,21,5,6,0.5,0.5
2025-01-06T2100,3981A,113.2449,35.1803,焦作市,原李万街道办,颗粒物(PM10),77,104,73,27,28,43,,62,58,29,18,4,5,0.6,0.6
2025-01-06T2100,1708A,116.3701,23.5345,揭阳市,新兴,颗粒物(PM10),62,73,72,43,47,107,,128,127,28,35,9,10,0.7,0.7
2025-01-06T2100,1709A,116.3264,23.5443,揭阳市,西马,颗粒物(PM10),60,69,74,41,44,113,,143,140,24,30,8,10,0.8,0.8
2025-01-06T2100,1710A,116.3611,23.5626,揭阳市,东兴,颗粒物(PM10),61,72,78,36,41,114,,136,136,23,37,10,11,0.7,0.8
2025-01-06T2100,1711A,116.4151,23.5294,揭阳市,渔湖,颗粒物(PM10),61,71,85,41,51,109,,138,135,30,45,11,13,0.7,0.8
2025-01-06T2100,3320A,116.403,23.5699,揭阳市,曲溪,细颗粒物(PM2.5),68,74,90,49,54,122,,148,145,30,52,18,5,0.7,0.9
2025-01-06T2100,1944A,102.1692,38.5167,金昌市,天庆家园,细颗粒物(PM2.5),58,64,56,41,32,38,,76,70,37,21,24,20,1.1,1.1
2025-01-06T2100,3170A,102.1864,38.5253,金昌市,市委党校,颗粒物(PM10),67,83,66,38,27,67,,83,82,34,21,60,22,1.8,0.8
2025-01-06T2100,4022A,102.1647,38.5371,金昌市,金川区人防中心,颗粒物(PM10),62,74,65,34,34,46,,76,71,28,18,18,16,0.9,0.8
2025-01-06T2100,1262A,119.647,29.077,金华市,十五中,颗粒物(PM10),67,83,101,34,62,60,,91,84,45,54,5,5,0.7,0.9
2025-01-06T2100,1263A,119.686,29.1029,金华市,监测站,颗粒物(PM10),66,81,106,41,66,46,,93,80,64,60,6,6,0.7,0.9
2025-01-06T2100,3659A,119.656,29.1131,金华市,气象局,颗粒物(PM10),66,82,109,34,68,53,,97,82,53,54,6,8,0.6,0.9
2025-01-06T2100,1767A,121.1115,41.0879,锦州市,南山,,23,20,53,16,43,56,,67,64,21,26,12,15,0.6,1
2025-01-06T2100,1768A,121.0533,40.8434,锦州市,开发区,细颗粒物(PM2.5),103,95,91,77,49,10,,51,36,94,53,24,39,1.3,0.9
2025-01-06T2100,1769A,121.1836,41.1119,锦州市,百股街道,,35,35,58,17,40,57,,69,62,17,33,10,21,0.4,0.7
2025-01-06T2100,1770A,121.1178,41.1222,锦州市,天安街道,,28,28,49,11,33,61,,67,65,12,22,11,16,0.5,0.7
2025-01-06T2100,1771A,121.1303,41.1386,锦州市,北湖公园,,24,24,46,11,32,60,,62,61,8,19,12,18,0.4,0.6
2025-01-06T2100,2160A,112.85,35.5051,晋城市,自来水公司,颗粒物(PM10),74,98,60,27,17,35,,61,55,45,28,13,13,0.8,0.9
2025-01-06T2100,2161A,112.8318,35.4936,晋城市,白云商贸,颗粒物(PM10),71,91,61,36,13,30,,60,54,51,28,13,12,1.0,0.9
2025-01-06T2100,2162A,112.8508,35.4887,晋城市,市环保局,颗粒物(PM10),73,96,61,39,20,32,,59,54,48,30,13,13,0.9,1
2025-01-06T2100,2163A,112.8676,35.4897,晋城市,技术学院,颗粒物(PM10),72,93,60,39,18,18,,63,56,70,34,12,13,0.7,0.9
2025-01-06T2100,2165A,112.8453,35.546,晋城市,白马寺,,26,26,43,10,15,47,,51,51,10,11,10,17,0.5,0.8
2025-01-06T2100,3620A,112.8271,35.4828,晋城市,泽州一中,颗粒物(PM10),56,62,47,36,13,20,,62,55,59,28,14,12,0.9,0.8
2025-01-06T2100,2171A,112.7532,37.6945,晋中市,锦纶小区,颗粒物(PM10),64,78,59,24,15,18,,51,46,56,32,10,8,0.7,0.4
2025-01-06T2100,2173A,112.7249,37.7067,晋中市,南都小区,颗粒物(PM10),70,89,56,30,23,12,,55,48,62,32,14,9,0.6,0.4
2025-01-06T2100,2174A,112.6991,37.6982,晋中市,榆次区政府,,48,48,59,19,18,29,,51,49,40,36,7,10,0.6,0.7
2025-01-06T2100,2865A,112.7195,37.6828,晋中市,榆次三中,,36,36,57,7,12,42,,51,50,27,32,7,10,0.6,0.7
2025-01-06T2100,2439A,112.2014,31.0481,荆门市,竹园小学,颗粒物(PM10),80,110,85,39,55,54,,67,63,33,29,14,11,0.6,0.7
2025-01-06T2100,2440A,112.1969,30.9891,荆门市,掇刀,颗粒物(PM10),75,100,80,39,53,66,,73,70,27,29,12,10,0.6,0.7
2025-01-06T2100,2441A,112.2213,31.0386,荆门市,石化一小,颗粒物(PM10),87,124,90,55,59,52,,70,66,34,32,12,8,0.6,0.7
2025-01-06T2100,3012A,112.1849,31.0362,荆门市,西山林语,颗粒物(PM10),82,114,81,37,56,70,,74,72,20,20,10,7,0.6,0.5
2025-01-06T2100,3547A,112.1632,31.0138,荆门市,龙泉中学南校,颗粒物(PM10),74,97,79,40,56,74,,75,74,17,20,12,10,0.7,0.8
2025-01-06T2100,1844A,112.2494,30.3197,荆州市,市图书馆,细颗粒物(PM2.5),79,72,84,58,90,44,,84,76,32,34,8,6,0.8,0.9
2025-01-06T2100,1845A,112.2008,30.3544,荆州市,市委党校,细颗粒物(PM2.5),77,83,87,56,87,43,,81,75,35,34,9,8,0.6,0.7
2025-01-06T2100,3194A,112.2747,30.3122,荆州市,管委会,颗粒物(PM10),66,81,94,31,88,44,,88,77,24,35,6,6,0.7,0.9
2025-01-06T2100,3548A,112.1655,30.3364,荆州市,学苑路,细颗粒物(PM2.5),79,76,86,58,77,49,,88,80,50,49,11,10,0.9,1
2025-01-06T2100,2342A,117.3102,29.3867,景德镇市,王港中学,,,,,,,,,,,,,,,,
2025-01-06T2100,2343A,117.2117,29.2933,景德镇市,老干部活动中心,颗粒物(PM10),69,88,64,48,41,35,,79,71,42,32,5,6,0.9,0.8
2025-01-06T2100,2344A,117.1894,29.2789,景德镇市,兽医站,颗粒物(PM10),73,96,68,37,31,70,,96,89,26,39,4,4,0.4,0.5
2025-01-06T2100,2345A,117.1547,29.2617,景德镇市,台达陶瓷,颗粒物(PM10),81,111,65,47,35,43,,92,75,94,72,36,22,0.7,0.5
2025-01-06T2100,2346A,117.2461,29.2956,景德镇市,陶研所,颗粒物(PM10),66,82,58,29,36,29,,79,65,39,44,3,4,0.4,0.4
2025-01-06T2100,1803A,115.9872,29.6815,九江市,十里,细颗粒物(PM2.5),99,114,93,74,66,56,,78,74,41,41,8,7,0.8,1
2025-01-06T2100,1804A,115.9584,29.7046,九江市,茅山头,颗粒物(PM10),91,132,99,65,60,82,,86,86,38,48,4,4,0.9,1
2025-01-06T2100,1805A,115.9877,29.7295,九江市,西园,细颗粒物(PM2.5),102,119,94,76,68,63,,70,69,41,50,8,9,0.6,0.7
2025-01-06T2100,1806A,116.0172,29.6547,九江市,五七二七厂,颗粒物(PM10),77,104,94,55,59,69,,80,78,28,28,7,6,0.5,0.6
2025-01-06T2100,1808A,115.9114,29.6038,九江市,综合工业园,细颗粒物(PM2.5),87,107,144,64,63,35,,71,62,79,46,7,8,0.5,0.5
2025-01-06T2100,1809A,116.0721,29.7535,九江市,石化总厂,"颗粒物(PM10),细颗粒物(PM2.5)",97,144,106,72,77,68,,73,69,38,48,10,12,0.7,0.9
2025-01-06T2100,1810A,115.9773,29.5698,九江市,庐山气象台,细颗粒物(PM2.5),73,89,53,53,37,106,,104,98,13,12,6,8,1.3,1.1
2025-01-06T2100,3190A,116.0254,29.6994,九江市,外国语学校,细颗粒物(PM2.5),107,148,113,80,73,67,,73,73,32,40,1,7,0.6,0.7
2025-01-06T2100,2658A,98.5061,39.7443,酒泉市,仓门街子站,,46,46,45,29,25,75,,84,83,8,16,5,7,0.5,0.5
2025-01-06T2100,2659A,98.4989,39.7256,酒泉市,油田生活基地,颗粒物(PM10),68,85,54,32,25,64,,75,75,12,20,6,9,0.6,0.5
2025-01-06T2100,2698A,76.0072,39.4467,喀什地区,巡警大队,细颗粒物(PM2.5),118,132,187,89,115,54,,69,69,52,78,7,8,1.5,2.5
2025-01-06T2100,2699A,75.9755,39.4694,喀什地区,吾办,细颗粒物(PM2.5),104,132,189,78,139,40,,59,59,65,76,3,3,1.6,2.8
2025-01-06T2100,4027A,75.9483,39.4689,喀什地区,老干局,,,,245,,139,37,,60,60,,68,,7,1.9,4.3
2025-01-06T2100,1824A,114.3389,34.7781,开封市,肿瘤医院,颗粒物(PM10),66,82,86,43,31,20,,69,56,55,25,4,4,0.7,0.6
2025-01-06T2100,1826A,114.2885,34.7965,开封市,世纪星幼儿园,细颗粒物(PM2.5),58,63,82,41,36,41,,68,62,35,24,4,4,0.5,0.4
2025-01-06T2100,3147A,114.3438,34.8106,开封市,龙亭公园,细颗粒物(PM2.5),60,66,88,43,31,37,,70,63,43,32,4,3,0.6,0.6
2025-01-06T2100,3210A,114.3644,34.7964,开封市,汴京公园,细颗粒物(PM2.5),84,90,96,62,44,26,,73,62,57,31,6,5,0.6,0.5
2025-01-06T2100,3473A,114.2485,34.8306,开封市,技师学院,颗粒物(PM10),57,64,86,33,31,48,,68,64,34,36,3,2,0.3,0.2
2025-01-06T2100,3592A,114.4644,34.7556,开封市,祥符区生态环境局,颗粒物(PM10),71,92,106,48,38,8,,64,49,74,33,4,5,0.4,0.5
2025-01-06T2100,1951A,84.895,45.6094,克拉玛依市,长征新村,细颗粒物(PM2.5),52,42,50,36,35,44,,58,54,39,26,5,7,0.7,0.8
2025-01-06T2100,1952A,84.8988,45.5893,克拉玛依市,南林小区,,43,43,45,26,34,47,,59,55,20,15,4,4,0.9,1
2025-01-06T2100,1954A,84.905,44.3396,克拉玛依市,独山子区,细颗粒物(PM2.5),110,87,140,83,113,59,,65,61,34,28,4,4,1.0,1.1
2025-01-06T2100,1955A,85.6979,46.098,克拉玛依市,乌尔禾区商贸楼,,40,,26,28,28,61,,70,65,35,23,5,5,0.8,0.7
2025-01-06T2100,3612A,85.1045,45.6899,克拉玛依市,白碱滩区新站,,45,45,44,25,29,60,,62,59,26,24,8,8,1.0,1
2025-01-06T2100,2697A,76.1454,39.7142,克孜勒苏柯尔克孜自治州,市人民政府,细颗粒物(PM2.5),92,101,142,68,103,61,,73,73,38,36,5,6,0.9,1.4
2025-01-06T2100,3665A,76.1658,39.7157,克孜勒苏柯尔克孜自治州,克州文化中心,细颗粒物(PM2.5),94,106,128,70,97,64,,69,69,39,46,10,10,1.0,1.3
2025-01-06T2100,1450A,102.8204,24.8886,昆明市,呈贡新区,,39,31,43,27,36,64,,74,73,14,22,5,9,0.5,0.7
2025-01-06T2100,1451A,102.6251,24.9608,昆明市,西山森林公园,,,,,,,,,,,,,,,,
2025-01-06T2100,1452A,102.7252,25.0902,昆明市,龙泉镇,,40,40,41,27,28,70,,76,75,12,32,6,7,0.6,0.8
2025-01-06T2100,1453A,102.7266,25.0375,昆明市,东风东路,,45,39,46,31,35,59,,71,67,15,21,7,10,0.6,0.8
2025-01-06T2100,1454A,102.6742,25.0669,昆明市,金鼎山,,40,40,48,25,30,66,,75,74,15,28,5,6,0.6,0.7
2025-01-06T2100,1455A,102.6644,25.0401,昆明市,碧鸡广场,,42,33,43,29,32,61,,74,72,19,31,7,9,0.8,0.9
2025-01-06T2100,3179A,102.7494,25.0119,昆明市,官渡区博物馆,,43,43,50,27,33,60,,77,75,15,25,7,10,0.7,1
2025-01-06T2100,3375A,102.8017,24.8336,昆明市,青年创业园,,37,37,44,24,27,70,,79,78,10,27,4,8,0.2,0.5
2025-01-06T2100,3550A,102.7997,24.9786,昆明市,昆明学院,,40,40,60,25,38,67,,75,74,12,29,8,10,0.6,0.8
2025-01-06T2100,3551A,102.5967,24.6736,昆明市,晋宁区生态环境分局,颗粒物(PM10),60,69,52,29,36,70,,75,75,8,20,2,2,0.6,0.9
2025-01-06T2100,3552A,102.6678,24.9856,昆明市,云天化总部,,33,32,44,23,30,72,,81,80,8,26,6,9,0.4,0.6
2025-01-06T2100,1456A,91.1319,29.6514,拉萨市,八廓街,,33,30,33,23,22,75,,89,89,34,36,9,7,0.7,0.7
2025-01-06T2100,1457A,91.1221,29.6747,拉萨市,市环保局,,50,50,46,32,25,53,,84,83,44,38,10,9,1.2,2
2025-01-06T2100,1458A,91.0874,29.6475,拉萨市,区监测站,,23,14,29,6,20,72,,86,86,36,46,6,7,0.4,0.9
2025-01-06T2100,1459A,91.1774,29.6541,拉萨市,西藏大学,,29,27,28,20,13,64,,92,91,47,23,7,5,0.9,0.5
2025-01-06T2100,1460A,90.9798,29.6588,拉萨市,区辐射站,,48,48,40,32,27,68,,81,81,46,39,13,9,1.2,0.9
2025-01-06T2100,1461A,91.0834,29.6292,拉萨市,拉萨火车站,,,,32,,19,100,,97,97,14,45,4,5,0.4,1.1
2025-01-06T2100,2520A,109.2203,23.7256,来宾市,来宾技工学校,细颗粒物(PM2.5),152,135,126,116,106,88,,136,136,58,51,10,12,1.3,1.1
2025-01-06T2100,3535A,109.1781,23.7297,来宾市,兴宾区政府,细颗粒物(PM2.5),105,123,135,79,103,93,,151,144,49,34,8,8,1.0,1
2025-01-06T2100,4002A,109.2416,23.7461,来宾市,中南小学,细颗粒物(PM2.5),129,169,127,98,101,41,,133,121,76,47,7,9,1.4,1.2
2025-01-06T2100,1476A,103.631,36.1031,兰州市,兰炼宾馆,细颗粒物(PM2.5),134,143,119,102,87,16,,67,63,116,73,26,24,1.8,1.5
2025-01-06T2100,1477A,104.1373,35.9454,兰州市,榆中兰大校区,,,,,,,,,,,,,,,,
2025-01-06T2100,1478A,103.8412,36.0726,兰州市,生物制品所,细颗粒物(PM2.5),120,124,127,91,100,3,,28,26,105,80,18,18,1.8,2
2025-01-06T2100,1479A,103.831,36.0464,兰州市,铁路设计院,细颗粒物(PM2.5),132,138,143,100,108,4,,25,23,121,82,20,19,2.0,2.3
2025-01-06T2100,3186A,103.7158,36.1058,兰州市,教育港,细颗粒物(PM2.5),117,151,139,88,96,1,,56,48,119,82,25,23,2.0,1.8
2025-01-06T2100,3241A,103.7439,36.0842,兰州市,百合公园,细颗粒物(PM2.5),112,131,118,84,92,7,,44,40,115,73,22,19,1.9,2.3
2025-01-06T2100,3242A,103.9611,35.998,兰州市,和平,细颗粒物(PM2.5),104,106,123,78,97,43,,51,51,55,67,22,23,1.2,1.9
2025-01-06T2100,3245A,103.6633,36.533,兰州新区,新区管委会,颗粒物(PM10),55,60,64,32,42,68,,85,84,18,25,15,23,0.4,0.6
2025-01-06T2100,3246A,103.6975,36.4789,兰州新区,舟曲中学,,40,40,67,18,44,68,,79,79,19,39,9,23,0.5,0.8
2025-01-06T2100,1067A,116.6708,39.5111,廊坊市,药材公司,,27,27,19,14,7,17,,64,42,53,23,4,3,0.4,0.3
2025-01-06T2100,1068A,116.7214,39.5589,廊坊市,开发区,,24,23,16,12,5,26,,70,52,47,16,5,4,0.4,0.2
2025-01-06T2100,1070A,116.7244,39.5269,廊坊市,北华航天学院,,30,30,21,15,6,34,,70,57,38,12,8,6,0.5,0.3
2025-01-06T2100,2919A,116.7022,39.5453,廊坊市,河北工业大学,,33,33,23,14,6,31,,71,57,48,19,4,4,0.5,0.3
2025-01-06T2100,2535A,103.7723,29.5462,乐山市,花湖湾,细颗粒物(PM2.5),155,146,112,118,95,19,,46,43,54,22,5,5,0.8,0.6
2025-01-06T2100,2536A,103.7627,29.5844,乐山市,牛耳桥,细颗粒物(PM2.5),160,146,109,122,96,2,,31,27,56,31,5,5,1.1,0.8
2025-01-06T2100,2537A,103.7508,29.6006,乐山市,市第三水厂,细颗粒物(PM2.5),160,,87,122,95,6,,44,32,63,32,4,4,1.2,1
2025-01-06T2100,2538A,103.7571,29.5664,乐山市,市监测站,细颗粒物(PM2.5),122,128,93,92,79,22,,38,38,41,24,4,4,1.7,1.5
2025-01-06T2100,3361A,103.7311,29.5628,乐山市,理工大学,细颗粒物(PM2.5),142,125,103,108,90,29,,43,43,36,25,7,6,1.0,0.8
2025-01-06T2100,2598A,100.2143,26.8576,丽江市,西南郊,,,,,,,,,,,,,,,,
2025-01-06T2100,2599A,100.2497,26.8802,丽江市,丽江古城,颗粒物(PM10),51,51,33,30,22,68,,84,82,22,11,11,9,0.7,0.5
2025-01-06T2100,2600A,100.2203,26.8906,丽江市,市中心,颗粒物(PM10),52,53,23,24,15,63,,82,81,23,12,10,12,0.8,0.5
2025-01-06T2100,1267A,119.914,28.4514,丽水市,监测站大楼,细颗粒物(PM2.5),90,99,68,67,59,48,,98,91,55,34,4,7,0.8,0.7
2025-01-06T2100,1268A,119.93,28.4586,丽水市,莲都小学,细颗粒物(PM2.5),72,84,78,52,52,62,,113,108,41,31,6,6,0.8,0.7
2025-01-06T2100,1269A,119.879,28.4231,丽水市,余庄前,细颗粒物(PM2.5),68,71,65,49,52,56,,112,105,22,26,4,5,0.6,0.5
2025-01-06T2100,1173A,119.176,34.5885,连云港市,市环境监测站,颗粒物(PM10),53,56,143,29,76,36,,62,53,42,56,9,12,0.8,1.1
2025-01-06T2100,3000A,119.3581,34.6972,连云港市,德源药业,颗粒物(PM10),60,70,134,36,78,6,,55,38,75,64,9,11,0.4,0.8
2025-01-06T2100,3007A,119.178,34.844,连云港市,新城一中,颗粒物(PM10),59,67,126,26,78,39,,67,61,38,43,10,16,0.8,1.1
2025-01-06T2100,3008A,119.3608,34.7519,连云港市,胡沟管理处,,48,48,117,29,64,56,,65,65,21,36,9,11,0.7,1.1
2025-01-06T2100,3009A,119.1478,34.5911,连云港市,矿山设计院,颗粒物(PM10),80,110,141,29,75,15,,64,47,58,54,9,9,0.6,0.9
2025-01-06T2100,3434A,119.2413,34.6539,连云港市,工贸学校,颗粒物(PM10),55,59,122,33,75,36,,64,60,35,43,12,12,0.6,0.8
2025-01-06T2100,3664A,119.4172,34.7341,连云港市,连云街道,,36,36,118,20,68,42,,57,47,29,43,21,18,0.6,1.1
2025-01-06T2100,2571A,102.3431,27.8099,凉山彝族自治州,青龙寺,,50,50,53,19,21,69,,93,93,8,12,6,9,0.7,0.9
2025-01-06T2100,2572A,102.2721,27.8415,凉山彝族自治州,邛海宾馆,细颗粒物(PM2.5),74,78,57,54,37,53,,75,75,27,22,10,12,0.8,1
2025-01-06T2100,2573A,102.2625,27.898,凉山彝族自治州,西昌市政府,细颗粒物(PM2.5),77,66,59,56,48,57,,78,78,20,24,10,12,1.0,1.2
2025-01-06T2100,2574A,102.2685,27.8851,凉山彝族自治州,凉山州政府,细颗粒物(PM2.5),74,79,68,54,45,46,,80,80,31,27,8,9,0.8,1
2025-01-06T2100,2575A,102.237,27.8914,凉山彝族自治州,长安,细颗粒物(PM2.5),69,77,69,50,44,64,,79,79,21,32,9,11,0.8,0.9
2025-01-06T2100,2212A,123.2,41.1953,辽阳市,宏伟区,细颗粒物(PM2.5),74,83,109,54,100,22,,49,41,43,34,15,14,0.5,0.9
2025-01-06T2100,2213A,123.1683,41.2495,辽阳市,新华园,细颗粒物(PM2.5),216,192,137,166,117,10,,44,36,91,53,16,14,3.0,1.5
2025-01-06T2100,2214A,123.2354,41.2639,辽阳市,滨河路,细颗粒物(PM2.5),74,61,102,54,102,34,,49,46,37,38,17,18,0.8,1.1
2025-01-06T2100,2215A,123.149,41.2991,辽阳市,铁西工业园,细颗粒物(PM2.5),209,182,130,159,107,5,,46,30,66,40,8,9,2.5,1.4
2025-01-06T2100,2227A,125.1358,42.8845,辽源市,环保局,细颗粒物(PM2.5),87,84,77,64,57,10,,57,47,59,38,11,9,1.9,1.4
2025-01-06T2100,3239A,125.0764,42.9078,辽源市,银鹰制药,细颗粒物(PM2.5),89,78,74,66,63,12,,59,47,60,35,10,30,1.2,1
2025-01-06T2100,1625A,115.9848,36.4372,聊城市,区政府,,43,41,57,30,15,21,,73,59,62,27,17,11,0.9,0.7
2025-01-06T2100,2878A,116.0072,36.4343,聊城市,聊大东校,颗粒物(PM10),51,51,63,25,18,14,,70,55,65,30,11,8,0.8,0.6
2025-01-06T2100,3200A,115.9819,36.4978,聊城市,监控中心,颗粒物(PM10),67,84,75,44,23,9,,70,49,86,43,19,13,1.1,0.8
2025-01-06T2100,3513A,116.0445,36.4361,聊城市,九州社区,,38,38,56,12,16,34,,74,64,40,22,8,8,0.6,0.5
2025-01-06T2100,4018A,116.0567,36.4608,聊城市,星美广场,,50,50,61,19,17,25,,77,63,48,22,13,12,0.9,0.6
2025-01-06T2100,2632A,94.3681,29.6376,林芝市,林芝监测站,,44,44,31,12,11,80,,78,78,1,6,6,6,0.3,0.3
2025-01-06T2100,2633A,94.3616,29.6616,林芝市,林芝人民医院,,30,30,33,8,8,74,,71,71,1,5,5,6,0.4,0.4
2025-01-06T2100,2603A,100.0781,23.8982,临沧市,市环保局,颗粒物(PM10),56,61,42,38,32,35,,71,68,27,15,9,9,0.6,0.5
2025-01-06T2100,2604A,100.0894,23.8822,临沧市,市气象局,细颗粒物(PM2.5),57,46,43,40,34,45,,67,66,16,17,11,9,0.7,0.7
2025-01-06T2100,1733A,111.5531,36.0783,临汾市,临钢医院,,17,17,47,3,14,54,,54,54,15,29,2,4,0.4,0.5
2025-01-06T2100,1734A,111.5028,36.0714,临汾市,技工学校,,27,27,60,3,24,53,,52,52,13,32,4,6,0.4,0.6
2025-01-06T2100,1736A,111.5018,36.0855,临汾市,市委,,19,16,58,3,17,59,,56,56,12,29,1,3,0.4,0.6
2025-01-06T2100,3018A,111.505,36.1014,临汾市,唐尧大酒店,,17,16,53,6,20,54,,52,52,13,29,4,6,0.4,0.6
2025-01-06T2100,3668A,111.5036,36.0414,临汾市,城南,颗粒物(PM10),68,86,65,46,29,8,,52,46,47,34,6,4,0.7,0.6
2025-01-06T2100,2667A,103.2069,35.5993,临夏回族自治州,环保局,细颗粒物(PM2.5),65,72,107,47,62,50,,74,73,30,31,25,14,1.1,1.7
2025-01-06T2100,2668A,103.2417,35.6057,临夏回族自治州,建设大厦,颗粒物(PM10),81,112,100,48,45,28,,74,69,55,26,18,16,1.3,1.3
2025-01-06T2100,1618A,118.3429,35.0532,临沂市,沂河小区,颗粒物(PM10),54,58,117,28,52,19,,68,58,61,46,18,14,0.7,0.7
2025-01-06T2100,1619A,118.295,35.0583,临沂市,鲁南制药厂,颗粒物(PM10),103,156,128,46,43,8,,69,51,84,47,53,15,0.9,0.4
2025-01-06T2100,1620A,118.2794,34.9976,临沂市,新光毛纺厂,颗粒物(PM10),60,70,118,29,45,10,,62,45,68,54,12,12,0.8,0.8
2025-01-06T2100,1621A,118.3956,35.0888,临沂市,河东保险公司,,17,17,107,7,50,53,,69,66,22,42,6,9,0.5,0.8
2025-01-06T2100,3370A,118.3564,35.0215,临沂市,十里堡居委,颗粒物(PM10),73,95,116,48,51,11,,71,59,70,46,35,14,1.2,1
2025-01-06T2100,3496A,118.3604,35.1084,临沂市,南坊新区,,36,36,115,14,49,38,,69,63,45,50,7,9,0.4,0.6
2025-01-06T2100,3860A,118.3920,35.0300,临沂市,皇山花园小区,,22,22,114,11,43,45,,68,63,34,48,5,9,0.2,0.5
2025-01-06T2100,1870A,109.4856,24.3895,柳州市,柳东小学,细颗粒物(PM2.5),94,103,96,70,75,106,,146,143,31,27,12,15,0.9,0.6
2025-01-06T2100,1871A,109.4157,24.3277,柳州市,环保监测站,细颗粒物(PM2.5),95,132,126,71,83,59,,137,126,60,48,12,16,1.4,1.2
2025-01-06T2100,1872A,109.389,24.341,柳州市,河西水厂,细颗粒物(PM2.5),152,213,146,116,88,26,,136,118,100,58,16,20,1.4,1.2
2025-01-06T2100,1873A,109.4311,24.2921,柳州市,市四中,颗粒物(PM10),109,167,110,76,74,35,,141,120,87,47,11,13,2.5,1.7
2025-01-06T2100,1874A,109.4006,24.3631,柳州市,市九中,细颗粒物(PM2.5),107,127,124,80,92,80,,142,132,45,46,9,15,1.2,1.2
2025-01-06T2100,1875A,109.4958,24.3134,柳州市,古亭山,细颗粒物(PM2.5),75,92,83,55,60,48,,141,126,87,46,32,19,1.0,1
2025-01-06T2100,3402A,109.5422,24.3996,柳州市,市二中,颗粒物(PM10),68,85,93,35,62,66,,137,121,60,45,10,11,1.0,1.1
2025-01-06T2100,2307A,116.5079,31.737,六安市,监测大楼,颗粒物(PM10),61,72,80,41,39,48,,76,71,27,23,8,6,0.6,0.6
2025-01-06T2100,2308A,116.4738,31.7643,六安市,皖西学院,颗粒物(PM10),68,86,89,42,41,48,,78,71,31,28,8,6,0.8,0.8
2025-01-06T2100,2309A,116.4996,31.7905,六安市,朝阳厂,颗粒物(PM10),61,71,74,40,41,46,,75,68,25,22,4,3,0.8,0.9
2025-01-06T2100,2310A,116.5567,31.7886,六安市,开发区,颗粒物(PM10),75,99,104,43,44,43,,74,63,33,30,6,5,0.6,0.7
2025-01-06T2100,2576A,104.8,26.5892,六盘水市,窑上,颗粒物(PM10),52,53,66,30,41,39,,54,54,28,16,16,16,1.1,1
2025-01-06T2100,2577A,104.83,26.5917,六盘水市,黄土坡,细颗粒物(PM2.5),55,40,65,39,49,39,,55,55,32,31,10,12,1.2,1.1
2025-01-06T2100,2578A,104.89,26.5939,六盘水市,水钢,,50,38,61,35,47,57,,68,66,17,23,3,7,1.0,1
2025-01-06T2100,2579A,104.8475,26.5894,六盘水市,民中,,49,37,59,34,49,48,,58,58,22,32,10,13,1.2,1.2
2025-01-06T2100,2580A,104.9544,26.5506,六盘水市,双水,,,46,63,36,45,,,68,68,18,23,7,10,0.9,0.9
2025-01-06T2100,2335A,117.0189,25.1181,龙岩市,龙岩师专,,,,,,,,,,,,,,,,
2025-01-06T2100,2336A,117.0217,25.1033,龙岩市,龙岩市监测站,颗粒物(PM10),58,66,43,36,30,42,,105,91,50,25,6,7,0.8,0.6
2025-01-06T2100,2337A,117.0258,25.0661,龙岩市,闽西职业技术学院,颗粒物(PM10),60,70,62,27,30,30,,102,78,53,40,17,11,0.6,0.6
2025-01-06T2100,2338A,117.0196,25.0306,龙岩市,龙岩学院,,42,42,45,24,28,54,,101,90,27,25,12,9,0.5,0.5
2025-01-06T2100,2665A,105.0822,33.3261,陇南市,汉王镇固水子,,,,,,,,,,,,,,,,
2025-01-06T2100,2885A,104.9339,33.3826,陇南市,滨江中学,细颗粒物(PM2.5),60,61,78,43,37,78,,66,66,17,41,6,88,0.9,1.6
2025-01-06T2100,3247A,104.955,33.371,陇南市,市总工会,颗粒物(PM10),53,56,75,29,42,84,,72,72,15,39,5,44,0.5,1
2025-01-06T2100,2487A,111.9589,27.8901,娄底市,电视发射台,细颗粒物(PM2.5),62,52,45,44,42,108,,116,116,16,16,8,7,0.6,0.6
2025-01-06T2100,2488A,111.9975,27.725,娄底市,市监测站,细颗粒物(PM2.5),85,82,88,63,66,100,,114,113,21,43,9,12,0.5,0.9
2025-01-06T2100,2489A,112.0194,27.7314,娄底市,市委党校,细颗粒物(PM2.5),79,87,79,58,56,98,,108,108,26,39,6,8,0.7,0.8
2025-01-06T2100,2490A,111.9561,27.7569,娄底市,涟钢,细颗粒物(PM2.5),92,91,86,68,61,99,,108,108,20,26,12,11,0.7,1
2025-01-06T2100,2491A,111.9892,27.7044,娄底市,市政府,细颗粒物(PM2.5),79,79,78,58,62,102,,109,109,23,30,7,7,0.5,0.8
2025-01-06T2100,1893A,105.4324,28.9634,泸州市,九狮山,,,,,,,,,,,,,,,,
2025-01-06T2100,1894A,105.4427,28.9063,泸州市,小市上码头,细颗粒物(PM2.5),215,179,113,165,98,26,,40,39,33,29,3,3,0.8,0.7
2025-01-06T2100,1895A,105.4241,28.8573,泸州市,兰田宪桥,细颗粒物(PM2.5),215,166,112,165,102,25,,39,34,30,25,3,3,0.9,0.7
2025-01-06T2100,1896A,105.4379,28.8833,泸州市,市环监站,细颗粒物(PM2.5),190,167,109,143,93,20,,36,30,31,28,5,5,0.9,0.7
2025-01-06T2100,3490A,105.3617,28.7703,泸州市,纳溪区环保局,细颗粒物(PM2.5),145,120,105,111,98,18,,37,24,30,24,4,4,1.1,1
2025-01-06T2100,2183A,111.1406,37.5211,吕梁市,环保局,颗粒物(PM10),71,91,84,24,18,3,,46,35,49,36,3,3,0.5,0.5
2025-01-06T2100,2185A,111.1297,37.5136,吕梁市,自来水公司,颗粒物(PM10),52,53,84,22,18,19,,42,38,36,36,6,7,0.6,0.5
2025-01-06T2100,2867A,111.1283,37.51,吕梁市,马茂庄小学,颗粒物(PM10),68,85,85,21,18,3,,43,35,56,41,15,7,0.5,0.4
2025-01-06T2100,1812A,112.3931,34.6516,洛阳市,市委党校,颗粒物(PM10),73,95,68,40,26,34,,53,50,43,37,12,7,0.7,0.7
2025-01-06T2100,1814A,112.4657,34.6871,洛阳市,豫西宾馆,颗粒物(PM10),75,99,74,49,29,11,,58,49,68,38,9,8,0.8,0.6
2025-01-06T2100,1815A,112.494,34.6886,洛阳市,河南林校,细颗粒物(PM2.5),85,95,66,63,33,8,,51,40,63,33,4,4,0.8,0.7
2025-01-06T2100,1816A,112.3844,34.623,洛阳市,开发区管委会,颗粒物(PM10),70,90,65,45,32,31,,57,51,47,30,11,8,0.7,0.6
2025-01-06T2100,1817A,112.4267,34.6258,洛阳市,市委新办公区,颗粒物(PM10),74,97,75,53,35,38,,58,49,44,31,15,7,0.8,0.6
2025-01-06T2100,3340A,112.6005,34.6326,洛阳市,伊滨,颗粒物(PM10),85,119,88,50,31,7,,58,43,74,38,7,5,0.7,0.2
2025-01-06T2100,3341A,112.4951,34.6332,洛阳市,中移产业园,颗粒物(PM10),71,91,66,42,26,24,,62,53,57,33,16,6,0.9,0.6
2025-01-06T2100,3593A,112.5736,34.8993,洛阳市,吉利监测站,颗粒物(PM10),78,105,80,41,29,3,,57,44,69,39,5,5,0.6,0.5
2025-01-06T2100,3635A,112.3677,34.662,洛阳市,河科大西苑校区,颗粒物(PM10),87,124,75,62,32,6,,50,43,71,39,10,6,1.1,0.7
2025-01-06T2100,3636A,112.4388,34.6781,洛阳市,英才小学,颗粒物(PM10),73,96,72,42,31,0,,51,41,82,44,7,6,1.0,0.7
2025-01-06T2100,2399A,114.051,33.5699,漯河市,三五一五工厂,颗粒物(PM10),70,90,104,43,37,23,,72,60,50,21,8,8,0.5,0.7
2025-01-06T2100,2400A,114.0055,33.5698,漯河市,漯河大学,颗粒物(PM10),61,72,95,31,30,42,,75,67,37,24,6,7,0.4,0.4
2025-01-06T2100,2401A,114.0138,33.5828,漯河市,市水利局,颗粒物(PM10),64,78,96,34,33,41,,72,65,34,21,7,8,0.6,0.6
2025-01-06T2100,2402A,114.0261,33.5698,漯河市,市广电局,颗粒物(PM10),62,73,94,38,36,40,,72,64,37,21,7,8,0.6,0.6
2025-01-06T2100,3478A,113.9749,33.5664,漯河市,市图书馆,颗粒物(PM10),58,66,96,27,32,42,,72,65,40,27,6,7,0.5,0.5
2025-01-06T2100,3479A,114.0967,33.5906,漯河市,召陵区卫健委,颗粒物(PM10),77,103,95,46,38,12,,70,50,69,35,8,8,0.4,0.4
2025-01-06T2100,1798A,118.5092,31.6837,马鞍山市,湖东路四小,颗粒物(PM10),66,82,111,20,50,41,,82,73,37,45,4,11,0.6,1
2025-01-06T2100,1799A,118.5024,31.6449,马鞍山市,开发区,颗粒物(PM10),65,80,113,21,67,53,,79,75,24,36,8,10,0.6,0.8
2025-01-06T2100,1800A,118.5228,31.7231,马鞍山市,慈湖,颗粒物(PM10),83,116,120,36,62,5,,76,57,76,48,7,13,0.7,1.1
2025-01-06T2100,1802A,118.6245,31.7241,马鞍山市,濮塘,颗粒物(PM10),65,79,105,26,51,42,,86,76,37,36,8,10,0.5,0.4
2025-01-06T2100,3633A,118.4918,31.6809,马鞍山市,雨山,颗粒物(PM10),65,80,118,18,54,42,,76,67,35,41,9,12,1.0,1.1
2025-01-06T2100,1686A,111.0286,21.4688,茂名市,电白南海,细颗粒物(PM2.5),64,68,88,46,57,159,,162,162,40,35,7,12,0.8,1
2025-01-06T2100,1687A,110.9294,21.6533,茂名市,茂石化七小,颗粒物(PM10),59,68,93,36,47,150,,160,158,20,28,12,15,0.6,0.8
2025-01-06T2100,1688A,110.9107,21.6687,茂名市,健康路,细颗粒物(PM2.5),67,66,92,48,60,162,,170,170,23,33,13,16,0.8,1
2025-01-06T2100,1689A,110.8592,21.6828,茂名市,高岭,细颗粒物(PM2.5),89,95,111,66,71,113,,159,154,44,47,14,30,0.8,1
2025-01-06T2100,3450A,111.01,21.5165,茂名市,电白水东,细颗粒物(PM2.5),62,70,82,44,49,159,,162,162,19,24,9,17,0.7,0.8
2025-01-06T2100,2539A,104.0308,30.0478,眉山市,黑龙滩水库,细颗粒物(PM2.5),67,75,76,48,52,56,,68,68,18,13,3,3,0.8,0.8
2025-01-06T2100,2540A,103.8416,30.0874,眉山市,气象局,细颗粒物(PM2.5),199,199,109,149,83,7,,33,28,69,41,7,5,1.3,0.8
2025-01-06T2100,3137A,103.8578,30.0744,眉山市,市委党校,细颗粒物(PM2.5),132,132,94,100,74,4,,29,26,70,43,7,7,0.9,0.6
2025-01-06T2100,3148A,103.8291,30.0564,眉山市,区人社局,细颗粒物(PM2.5),168,131,78,127,80,6,,30,28,75,48,11,10,1.1,0.8
2025-01-06T2100,1690A,116.1231,24.3284,梅州市,梅江月梅,颗粒物(PM10),61,71,57,43,44,30,,116,96,60,34,9,10,0.7,0.6
2025-01-06T2100,1691A,116.0797,24.2719,梅州市,梅县新城,颗粒物(PM10),78,106,68,49,47,24,,113,83,68,42,5,6,0.8,0.7
2025-01-06T2100,1692A,116.1248,24.2654,梅州市,环境监控中心,细颗粒物(PM2.5),89,86,70,66,48,13,,111,86,71,39,8,11,0.9,0.7
2025-01-06T2100,3315A,116.1233,24.2991,梅州市,梅龙,颗粒物(PM10),64,78,60,42,41,27,,106,81,55,32,7,8,1.1,0.8
2025-01-06T2100,1878A,104.7778,31.4741,绵阳市,富乐山,细颗粒物(PM2.5),69,65,77,50,58,35,,51,49,24,38,2,3,0.8,0.9
2025-01-06T2100,1879A,104.7563,31.4535,绵阳市,市人大,细颗粒物(PM2.5),82,83,100,60,66,7,,26,24,58,51,3,3,1.0,1.1
2025-01-06T2100,1880A,104.6697,31.4668,绵阳市,高新区自来水公司,细颗粒物(PM2.5),89,90,96,66,72,3,,28,21,59,45,4,4,0.9,0.8
2025-01-06T2100,1881A,104.7287,31.5075,绵阳市,三水厂,细颗粒物(PM2.5),87,89,95,64,71,5,,40,34,63,46,6,6,1.2,0.9
2025-01-06T2100,3491A,104.69,31.5322,绵阳市,西科大附属小学,细颗粒物(PM2.5),85,100,90,63,65,10,,38,32,56,42,6,6,1.2,1.1
2025-01-06T2100,3492A,104.5648,31.5343,绵阳市,安州区旅游局,细颗粒物(PM2.5),94,104,102,70,78,6,,35,24,60,40,7,8,1.0,1
2025-01-06T2100,1784A,129.61,44.561,牡丹江市,环保大楼,细颗粒物(PM2.5),65,58,90,47,57,17,,37,24,48,46,8,11,0.8,1
2025-01-06T2100,1785A,129.6115,44.5782,牡丹江市,文化广场,颗粒物(PM10),74,98,100,46,66,17,,40,31,53,45,11,14,1.4,1.3
2025-01-06T2100,1786A,129.5904,44.5963,牡丹江市,第一医院,细颗粒物(PM2.5),169,169,96,128,78,11,,38,27,59,38,21,11,1.6,0.9
2025-01-06T2100,1787A,129.6364,44.6075,牡丹江市,机车工厂,细颗粒物(PM2.5),128,124,100,97,61,11,,40,31,54,39,49,31,1.3,1
2025-01-06T2100,1788A,129.6386,44.5462,牡丹江市,第一中学,细颗粒物(PM2.5),59,50,70,42,55,33,,39,30,26,34,6,8,0.7,0.9
2025-01-06T2100,2531A,105.0703,29.61,内江市,市监测站,细颗粒物(PM2.5),119,,71,90,73,42,,53,53,19,28,5,6,0.8,0.8
2025-01-06T2100,2532A,105.0717,29.5947,内江市,东兴区政府,细颗粒物(PM2.5),115,100,70,87,71,37,,52,51,24,27,3,3,0.8,0.8
2025-01-06T2100,2533A,105.0653,29.5817,内江市,内江二中,细颗粒物(PM2.5),117,93,80,88,78,36,,54,50,25,25,8,9,0.9,0.9
2025-01-06T2100,2534A,105.0406,29.5822,内江市,内江日报社,细颗粒物(PM2.5),108,83,76,81,75,36,,52,50,25,28,10,10,0.9,0.9
2025-01-06T2100,2628A,92.0657,31.4846,那曲市,那曲监测站,,29,29,41,18,26,67,,96,95,33,23,11,10,1.3,1.2
2025-01-06T2100,3128A,92.0506,31.4797,那曲市,那曲会议中心,,29,10,31,3,19,92,,100,100,2,16,2,5,0.3,0.9
2025-01-06T2100,1290A,115.8931,28.6843,南昌市,省外办,细颗粒物(PM2.5),94,105,139,70,96,54,,81,75,53,66,9,7,0.8,0.9
2025-01-06T2100,1291A,115.8886,28.7003,南昌市,省林业公司,细颗粒物(PM2.5),94,124,120,70,84,44,,90,82,65,65,11,8,0.9,0.8
2025-01-06T2100,1292A,115.8126,28.7442,南昌市,林科所,细颗粒物(PM2.5),83,102,117,61,87,61,,94,85,58,65,10,7,0.8,0.8
2025-01-06T2100,1294A,115.8518,28.687,南昌市,建工学校,细颗粒物(PM2.5),80,108,130,59,84,66,,95,92,43,61,12,10,1.0,1.1
2025-01-06T2100,1295A,115.8921,28.6424,南昌市,象湖,细颗粒物(PM2.5),92,100,126,68,93,68,,104,100,46,62,9,9,0.7,0.8
2025-01-06T2100,1296A,115.7423,28.7996,南昌市,武术学校,颗粒物(PM10),54,58,58,32,52,40,,79,67,18,16,2,2,0.8,0.8
2025-01-06T2100,1298A,115.9314,28.6842,南昌市,省站,细颗粒物(PM2.5),92,124,136,68,92,60,,89,85,32,45,10,10,0.7,0.8
2025-01-06T2100,3046A,115.9084,28.6062,南昌市,机电学校,细颗粒物(PM2.5),98,132,150,73,97,61,,96,90,41,58,12,12,0.7,0.8
2025-01-06T2100,3690A,115.9721,28.7031,南昌市,外国语学校,颗粒物(PM10),88,126,120,60,80,61,,95,92,40,48,8,7,0.6,0.6
2025-01-06T2100,1905A,106.056,30.8064,南充市,西山风景区,细颗粒物(PM2.5),118,,55,89,54,4,,50,11,27,19,1,2,1.1,1
2025-01-06T2100,1906A,106.0789,30.8023,南充市,南充市委,细颗粒物(PM2.5),129,115,74,98,63,8,,21,13,34,30,4,3,0.8,0.7
2025-01-06T2100,1907A,106.1031,30.8217,南充市,南充炼油厂,细颗粒物(PM2.5),149,202,87,114,68,8,,17,9,34,36,3,4,1.0,0.8
2025-01-06T2100,1908A,106.1064,30.7856,南充市,高坪区监测站,,,,81,,62,,,11,,,38,,2,,0.7
2025-01-06T2100,1909A,106.0642,30.7636,南充市,嘉陵区环保局,细颗粒物(PM2.5),125,115,76,95,62,3,,16,12,42,38,4,4,1.0,0.9
2025-01-06T2100,1910A,106.1087,30.8388,南充市,市环境监测站,细颗粒物(PM2.5),127,126,84,96,64,12,,23,13,24,31,4,5,0.8,0.7
2025-01-06T2100,1151A,118.8086,32.1065,南京市,迈皋桥,,40,40,93,17,40,37,,78,68,42,46,4,5,0.3,0.6
2025-01-06T2100,1152A,118.7538,32.0551,南京市,草场门,颗粒物(PM10),52,53,111,24,43,42,,74,67,37,38,10,10,0.2,0.4
2025-01-06T2100,1153A,118.7794,32.0745,南京市,山西路,颗粒物(PM10),52,53,117,24,44,59,,80,77,35,34,4,6,0.6,0.8
2025-01-06T2100,1154A,118.7752,32.0023,南京市,中华门,,48,48,101,17,40,40,,63,57,35,45,11,12,1.0,1
2025-01-06T2100,1155A,118.8109,32.0309,南京市,瑞金路,颗粒物(PM10),51,51,109,22,45,40,,71,63,31,35,4,7,1.0,1.1
2025-01-06T2100,1156A,118.7997,32.0754,南京市,玄武湖,,47,47,106,20,42,34,,72,65,25,25,8,10,0.7,0.9
2025-01-06T2100,1157A,118.6414,32.0931,南京市,浦口,,48,48,109,20,39,40,,72,65,20,14,6,9,0.3,0.4
2025-01-06T2100,1158A,118.7356,31.9996,南京市,奥体中心,,41,41,109,14,42,51,,77,71,35,41,10,12,0.7,0.9
2025-01-06T2100,1159A,118.9125,32.1028,南京市,仙林大学城,颗粒物(PM10),53,56,116,19,44,48,,76,63,31,39,8,9,0.4,0.6
2025-01-06T2100,3422A,118.8436,31.9198,南京市,江宁彩虹桥,颗粒物(PM10),54,58,111,19,44,45,,79,72,27,33,10,10,0.5,0.6
2025-01-06T2100,3423A,119.0138,31.6494,南京市,溧水永阳,颗粒物(PM10),60,70,90,38,57,42,,78,72,37,34,4,4,0.4,0.5
2025-01-06T2100,3424A,118.879,31.3302,南京市,高淳老职中,颗粒物(PM10),74,98,97,40,64,52,,86,78,34,32,6,5,0.4,0.6
2025-01-06T2100,3427A,118.8554,32.3578,南京市,六合雄州,,46,46,87,19,43,54,,65,60,12,19,4,5,0.5,0.7
2025-01-06T2100,1401A,108.3103,22.7881,南宁市,二十一中,细颗粒物(PM2.5),120,102,87,91,69,134,,174,173,53,42,8,8,1.2,1
2025-01-06T2100,1402A,108.3141,22.8528,南宁市,北湖,细颗粒物(PM2.5),125,126,94,95,72,120,,164,160,47,46,14,16,1.3,1
2025-01-06T2100,1403A,108.3206,22.8225,南宁市,市监测站,细颗粒物(PM2.5),98,124,88,73,66,129,,160,159,57,41,12,14,1.3,1.1
2025-01-06T2100,1404A,108.3829,22.8037,南宁市,大自然花园,细颗粒物(PM2.5),105,112,82,79,65,117,,162,158,52,36,8,10,1.1,0.9
2025-01-06T2100,1405A,108.4394,22.7904,南宁市,仙葫,细颗粒物(PM2.5),117,125,84,88,70,116,,156,151,46,38,7,7,1.0,0.9
2025-01-06T2100,1406A,108.2397,22.8467,南宁市,区农职院,细颗粒物(PM2.5),107,140,94,80,65,64,,157,145,71,41,12,13,1.2,1
2025-01-06T2100,1407A,108.3275,22.735,南宁市,英华嘉园,细颗粒物(PM2.5),117,179,97,88,68,5,,147,119,140,56,9,10,1.5,1
2025-01-06T2100,1408A,108.2257,22.7757,南宁市,沙井镇街道办,颗粒物(PM10),152,253,122,100,74,5,,136,109,134,70,7,7,1.1,0.9
2025-01-06T2100,3401A,108.4834,22.7618,南宁市,红星社区,细颗粒物(PM2.5),120,146,95,91,74,86,,163,151,64,44,11,12,1.1,1.1
2025-01-06T2100,2331A,118.0966,26.6761,南平市,茫荡山,,,,,,,,,,,,,,,,
2025-01-06T2100,2332A,118.1681,26.6369,南平市,南平市监测站,,45,42,50,31,36,40,,93,78,41,35,4,4,0.6,0.6
2025-01-06T2100,2333A,118.1825,26.6489,南平市,南平铝业有限公司,,48,47,44,33,32,27,,94,73,47,34,7,5,0.7,0.7
2025-01-06T2100,2334A,118.1756,26.6272,南平市,南平七中,,43,,49,30,38,56,,94,82,25,25,3,3,0.5,0.6
2025-01-06T2100,1168A,120.9098,31.9663,南通市,狼山街道,细颗粒物(PM2.5),90,102,120,67,68,61,,80,76,22,29,8,8,0.9,0.9
2025-01-06T2100,1169A,120.86,32.0005,南通市,虹桥,细颗粒物(PM2.5),80,77,106,59,67,63,,79,74,22,33,6,8,0.8,0.8
2025-01-06T2100,1170A,120.87,32.02,南通市,城中,细颗粒物(PM2.5),78,104,133,57,63,60,,80,75,30,38,8,9,0.9,0.8
2025-01-06T2100,1171A,120.94,31.93,南通市,星湖花园,细颗粒物(PM2.5),85,105,122,63,66,52,,72,67,30,35,7,8,0.9,0.9
2025-01-06T2100,1172A,120.81,32.0417,南通市,紫琅学院,细颗粒物(PM2.5),83,95,124,61,64,52,,80,73,35,38,4,6,1.1,0.9
2025-01-06T2100,3291A,121.067,32.062,南通市,通州监测站,细颗粒物(PM2.5),94,107,127,70,70,67,,86,80,26,37,3,5,0.8,0.8
2025-01-06T2100,3432A,120.9348,31.9883,南通市,环境教育馆,细颗粒物(PM2.5),79,95,121,58,63,63,,88,82,26,31,7,8,0.9,0.9
2025-01-06T2100,2404A,112.5224,33.0122,南阳市,瓦房庄,颗粒物(PM10),72,94,105,41,48,53,,69,67,24,26,9,7,0.6,0.6
2025-01-06T2100,2405A,112.5003,32.9735,南阳市,汉画馆,颗粒物(PM10),68,85,95,37,48,45,,66,63,37,35,8,7,0.6,0.7
2025-01-06T2100,2406A,112.5573,33.027,南阳市,气象站,颗粒物(PM10),78,105,109,41,37,48,,74,70,34,25,9,6,0.6,0.6
2025-01-06T2100,2407A,112.5481,32.9689,南阳市,理工学院,颗粒物(PM10),70,90,92,42,47,53,,68,62,26,29,7,7,0.5,0.7
2025-01-06T2100,4008A,112.5234,32.9922,南阳市,卧龙区政府,颗粒物(PM10),68,86,98,36,43,49,,63,60,30,32,7,6,0.6,0.7
2025-01-06T2100,1234A,121.8358,29.911,宁波市,区环保大楼,颗粒物(PM10),80,110,122,40,76,20,,82,66,82,53,11,12,0.7,0.9
2025-01-06T2100,1235A,121.56,29.82,宁波市,万里学院,细颗粒物(PM2.5),84,111,114,62,76,29,,84,73,70,52,6,6,0.9,0.9
2025-01-06T2100,1236A,121.713,29.9572,宁波市,龙赛医院,颗粒物(PM10),85,119,140,40,76,30,,80,61,72,60,12,18,0.8,0.9
2025-01-06T2100,1239A,121.633,29.7733,宁波市,钱湖水厂,颗粒物(PM10),84,117,111,48,70,38,,90,74,54,36,6,7,0.7,0.9
2025-01-06T2100,1240A,121.5856,29.8635,宁波市,太古小学,颗粒物(PM10),81,112,121,45,69,43,,84,74,49,53,10,9,1.0,1.1
2025-01-06T2100,1241A,121.524,29.8674,宁波市,市环境监测中心,细颗粒物(PM2.5),104,138,116,78,80,14,,82,64,84,55,11,10,1.1,1
2025-01-06T2100,2871A,121.6147,29.9017,宁波市,万里国际学校,颗粒物(PM10),87,124,117,54,54,4,,82,60,91,60,9,8,1.0,1.1
2025-01-06T2100,3710A,121.5594,29.8975,宁波市,白沙活动中心,颗粒物(PM10),73,95,114,50,67,32,,89,74,62,59,10,9,0.7,0.8
2025-01-06T2100,2339A,119.5001,26.6946,宁德市,金涵水库,,,,,,,,,,,,,,,,
2025-01-06T2100,2341A,119.5388,26.6612,宁德市,宁德市监测站,细颗粒物(PM2.5),70,56,38,51,29,94,,109,109,18,12,3,3,0.6,0.5
2025-01-06T2100,3209A,119.5231,26.6562,宁德市,宁德一中,细颗粒物(PM2.5),55,55,36,39,26,104,,112,112,9,10,2,3,0.6,0.6
2025-01-06T2100,2618A,98.8601,25.8567,怒江傈僳族自治州,州监测站,颗粒物(PM10),53,56,42,33,25,49,,71,70,25,16,4,4,0.7,0.6
2025-01-06T2100,2619A,98.8546,25.8417,怒江傈僳族自治州,泸水一中,细颗粒物(PM2.5),67,76,43,48,27,12,,52,45,47,24,8,7,1.1,0.5
2025-01-06T2100,1888A,101.6891,26.571,攀枝花市,弄弄坪,颗粒物(PM10),76,101,79,55,48,46,,69,69,46,43,19,27,1.2,1.4
2025-01-06T2100,1889A,101.5769,26.5928,攀枝花市,河门口,细颗粒物(PM2.5),74,84,68,54,42,49,,76,76,36,32,20,19,1.2,1.5
2025-01-06T2100,1890A,101.7169,26.585,攀枝花市,炳草岗,细颗粒物(PM2.5),74,91,80,54,50,23,,71,68,76,50,25,26,1.0,1
2025-01-06T2100,1891A,101.7369,26.5008,攀枝花市,仁和,细颗粒物(PM2.5),72,83,61,52,40,32,,83,78,44,28,10,16,0.8,0.9
2025-01-06T2100,2835A,101.7227,26.567,攀枝花市,四十中小,细颗粒物(PM2.5),70,85,77,51,46,56,,82,82,45,41,22,34,0.9,1.1
2025-01-06T2100,1604A,122.0303,41.1489,盘锦市,开发区,细颗粒物(PM2.5),98,130,72,73,54,21,,60,51,46,26,13,11,1.2,1
2025-01-06T2100,1605A,122.0485,41.0883,盘锦市,兴隆台,细颗粒物(PM2.5),98,,65,73,50,11,,54,45,58,29,15,15,1.4,0.8
2025-01-06T2100,1606A,121.8297,41.1028,盘锦市,新生街道,,40,40,45,27,29,8,,62,38,68,38,11,14,0.8,0.7
2025-01-06T2100,1832A,113.3257,33.742,平顶山市,新华旅馆,颗粒物(PM10),81,111,93,47,38,16,,70,59,60,20,8,10,0.3,0.3
2025-01-06T2100,1833A,113.2919,33.737,平顶山市,规划设计院,颗粒物(PM10),64,78,82,34,30,39,,70,65,38,20,5,7,0.3,0.2
2025-01-06T2100,1834A,113.182,33.774,平顶山市,平顶山工学院,颗粒物(PM10),66,81,80,29,23,39,,71,66,38,15,6,7,0.7,0.7
2025-01-06T2100,3204A,113.3025,33.73,平顶山市,规划局,颗粒物(PM10),65,80,88,41,34,43,,68,64,32,17,6,9,0.2,0.4
2025-01-06T2100,3594A,112.8867,33.9116,平顶山市,石龙区,颗粒物(PM10),78,105,95,43,31,44,,72,62,24,14,8,9,0.8,0.8
2025-01-06T2100,2656A,106.6692,35.5461,平凉市,聚贤嘉苑,细颗粒物(PM2.5),87,86,53,64,24,26,,76,68,68,42,16,15,0.9,0.6
2025-01-06T2100,2657A,106.7021,35.5307,平凉市,博物馆,细颗粒物(PM2.5),85,105,67,63,32,38,,80,67,54,39,17,11,1.3,0.9
2025-01-06T2100,2347A,114.0997,27.5002,萍乡市,武功山,细颗粒物(PM2.5),94,82,57,70,54,80,,118,112,24,17,7,8,1.1,0.4
2025-01-06T2100,2348A,113.8385,27.6434,萍乡市,中医院,细颗粒物(PM2.5),92,109,124,68,82,88,,113,110,29,32,13,10,1.1,1.3
2025-01-06T2100,2349A,113.8493,27.6253,萍乡市,市政府车库,细颗粒物(PM2.5),107,99,108,80,98,86,,114,112,31,30,12,13,0.9,1.5
2025-01-06T2100,2350A,113.8676,27.6435,萍乡市,市环保局,细颗粒物(PM2.5),108,116,126,81,98,92,,113,111,29,38,13,14,0.9,1.3
2025-01-06T2100,2351A,113.866,27.6198,萍乡市,安源区政府,细颗粒物(PM2.5),99,122,121,74,92,93,,119,118,34,32,9,11,1.1,1.4
2025-01-06T2100,2319A,119.0141,25.4325,莆田市,荔城区仓后路,颗粒物(PM10),53,55,56,31,34,108,,113,113,14,27,2,3,0.6,0.8
2025-01-06T2100,2320A,119.0015,25.4553,莆田市,莆田市监测站,,45,45,44,27,29,103,,115,114,10,15,3,4,0.5,0.7
2025-01-06T2100,2321A,119.1119,25.4561,莆田市,涵江区六中,颗粒物(PM10),55,60,60,36,39,121,,119,119,11,36,1,2,0.4,0.6
2025-01-06T2100,2322A,119.1013,25.3215,莆田市,秀屿区政府,细颗粒物(PM2.5),52,52,44,36,30,115,,123,123,19,20,2,4,0.7,0.7
2025-01-06T2100,2323A,118.981,25.4792,莆田市,东圳水库,,,,,,,,,,,,,,,,
2025-01-06T2100,2392A,115.0312,35.7636,濮阳市,环保局,颗粒物(PM10),53,55,70,30,23,34,,65,55,36,26,5,6,0.6,0.4
2025-01-06T2100,2394A,115.0574,35.7609,濮阳市,油田运输公司,颗粒物(PM10),61,71,75,29,25,24,,62,47,45,27,6,5,0.7,0.4
2025-01-06T2100,2395A,115.0866,35.7754,濮阳市,油田物探公司,颗粒物(PM10),68,85,78,44,28,16,,63,50,58,30,5,6,0.7,0.4
2025-01-06T2100,3021A,115,35.7668,濮阳市,濮水河管理处,颗粒物(PM10),57,64,77,24,24,17,,60,43,40,26,7,7,0.7,0.6
2025-01-06T2100,2601A,100.98,22.7633,普洱市,市环保局,,50,50,55,32,22,60,,73,68,7,10,5,4,0.6,0.6
2025-01-06T2100,2602A,100.9817,22.8322,普洱市,普洱第二中学,颗粒物(PM10),53,55,54,20,24,40,,71,65,16,17,5,5,0.7,0.7
2025-01-06T2100,2262A,131.0518,45.8751,七台河市,新一中,细颗粒物(PM2.5),72,62,74,52,57,48,,69,62,33,25,8,10,2.1,2.1
2025-01-06T2100,3345A,131.0577,45.7879,七台河市,中波台,细颗粒物(PM2.5),93,93,109,69,85,5,,41,31,78,52,14,14,1.2,1.4
2025-01-06T2100,3637A,131.0176,45.7761,七台河市,人民广场,细颗粒物(PM2.5),74,86,135,54,89,12,,38,30,66,54,7,8,1.0,1.4
2025-01-06T2100,3684A,130.8781,45.8222,七台河市,新建矿广场,细颗粒物(PM2.5),94,90,123,70,80,18,,40,32,57,55,8,9,0.9,1
2025-01-06T2100,1779A,123.9305,47.3636,齐齐哈尔市,安居小区,细颗粒物(PM2.5),59,64,68,42,54,29,,54,42,42,28,14,13,0.7,0.7
2025-01-06T2100,1780A,123.9488,47.3386,齐齐哈尔市,中心广场,细颗粒物(PM2.5),62,69,65,44,45,36,,49,42,34,26,10,8,0.6,0.8
2025-01-06T2100,1781A,123.9483,47.3227,齐齐哈尔市,农牧车辆厂,细颗粒物(PM2.5),59,58,59,42,50,32,,50,44,38,29,12,10,0.6,0.7
2025-01-06T2100,1783A,123.945,47.2988,齐齐哈尔市,市环境监测站,细颗粒物(PM2.5),69,63,78,50,59,35,,54,48,38,31,10,7,0.7,0.8
2025-01-06T2100,3662A,123.6333,47.2075,齐齐哈尔市,富区青少年活动中心,颗粒物(PM10),59,68,83,22,53,35,,58,53,36,29,16,18,1.5,1.2
2025-01-06T2100,2591A,107.9783,26.5747,黔东南苗族侗族自治州,市环境监测站,细颗粒物(PM2.5),87,80,68,64,55,24,,93,80,64,28,6,5,0.8,0.7
2025-01-06T2100,2881A,107.8908,26.5311,黔东南苗族侗族自治州,凯里学院,细颗粒物(PM2.5),78,88,55,57,46,36,,92,78,42,20,5,4,0.8,0.7
2025-01-06T2100,2593A,107.5228,26.2403,黔南布依族苗族自治州,小围寨,细颗粒物(PM2.5),64,56,56,46,47,72,,84,84,19,25,8,8,0.6,0.6
2025-01-06T2100,3538A,107.5175,26.2978,黔南布依族苗族自治州,沙坝,细颗粒物(PM2.5),98,95,63,73,50,26,,68,66,51,26,13,7,1.0,0.7
2025-01-06T2100,2589A,104.9022,25.0925,黔西南布依族苗族自治州,场坝街,细颗粒物(PM2.5),89,86,74,66,58,66,,64,64,13,24,2,42,0.7,0.8
2025-01-06T2100,2590A,104.8811,25.0992,黔西南布依族苗族自治州,坪东大道,细颗粒物(PM2.5),90,80,60,67,50,63,,61,61,14,25,4,6,0.8,0.8
2025-01-06T2100,2502A,108.6236,21.9667,钦州市,市环保站,颗粒物(PM10),125,200,139,90,78,85,,154,148,68,42,12,14,1.4,1.3
2025-01-06T2100,2503A,108.6549,21.9481,钦州市,沙埠小学,细颗粒物(PM2.5),155,204,130,118,84,34,,161,143,126,54,10,14,1.4,0.9
2025-01-06T2100,2504A,108.5989,21.7431,钦州市,港区一小,颗粒物(PM10),198,346,144,104,76,12,,149,132,158,55,13,14,2.0,1.2
2025-01-06T2100,3404A,108.5959,21.9633,钦州市,北职校,颗粒物(PM10),99,147,124,61,80,76,,162,153,84,47,9,16,1.3,1.6
2025-01-06T2100,1042A,119.5134,39.8207,秦皇岛市,北戴河环保局,,25,25,33,9,19,45,,60,52,17,28,2,3,0.3,0.4
2025-01-06T2100,1043A,119.7493,40.0116,秦皇岛市,第一关,,35,,42,18,31,4,,62,35,69,48,5,7,0.4,0.5
2025-01-06T2100,1044A,119.5897,39.9499,秦皇岛市,监测站,,33,33,43,17,24,8,,54,43,54,39,4,7,0.5,0.5
2025-01-06T2100,1046A,119.5251,39.9041,秦皇岛市,建设大厦,,42,42,51,21,29,21,,58,45,44,44,2,5,0.4,0.6
