timepoint,stationcode,longitude,latitude,area,positionname,primarypollutant,aqi,pm10,pm10_24h,pm2_5,pm2_5_24h,o3,o3_24h,o3_8h,o3_8h_24h,no2,no2_24h,so2,so2_24h,co,co_24h
2023-01-31T07:00:00,1001A,116.3621,39.8784,北京市,万寿西宫,细颗粒物(PM2.5),70,88,96,51,50,58,6,2,2,66,60,2,4,0.7,0.7
2023-01-31T07:00:00,1002A,116.2202,40.2915,北京市,定陵,,,,,,,,,,,,,,,,
2023-01-31T07:00:00,1003A,116.4174,39.9289,北京市,东四,颗粒物(PM10),73,95,106,49,51,50,14,6,6,50,54,5,6,0.7,0.9
2023-01-31T07:00:00,1004A,116.4072,39.8863,北京市,天坛,细颗粒物(PM2.5),69,76,92,50,52,55,3,3,3,62,58,3,3,0.8,0.8
2023-01-31T07:00:00,1005A,116.462,39.9365,北京市,农展馆,"颗粒物(PM10),细颗粒物(PM2.5)",73,96,100,53,52,59,2,3,2,71,61,2,5,0.8,0.7
2023-01-31T07:00:00,1006A,116.3392,39.9295,北京市,官园,颗粒物(PM10),72,93,91,50,47,66,2,4,2,68,56,6,6,0.8,0.7
2023-01-31T07:00:00,1007A,116.2878,39.9611,北京市,海淀万柳,颗粒物(PM10),67,84,90,44,46,46,1,1,1,68,60,3,3,0.7,0.6
2023-01-31T07:00:00,1008A,116.6636,40.135,北京市,顺义新城,细颗粒物(PM2.5),69,85,89,50,48,80,42,28,28,29,36,4,6,0.6,0.6
2023-01-31T07:00:00,1009A,116.6275,40.3275,北京市,怀柔镇,颗粒物(PM10),66,82,82,40,37,68,13,34,27,44,29,3,4,0.5,0.5
2023-01-31T07:00:00,1010A,116.2296,40.217,北京市,昌平镇,颗粒物(PM10),63,75,68,40,31,56,0,29,9,55,35,3,4,0.7,0.6
2023-01-31T07:00:00,1011A,116.3966,39.9821,北京市,奥体中心,颗粒物(PM10),71,92,90,51,46,50,1,4,3,63,55,3,3,0.7,0.7
2023-01-31T07:00:00,1012A,116.184,39.9136,北京市,古城,颗粒物(PM10),69,87,84,42,37,62,3,12,7,54,44,3,3,0.8,0.7
2023-01-31T07:00:00,1015A,117.1444,39.1661,天津市,勤俭道,细颗粒物(PM2.5),212,217,157,162,103,91,3,13,4,98,67,17,17,1.5,1.2
2023-01-31T07:00:00,1017A,117.237,39.1082,天津市,大直沽八号路,细颗粒物(PM2.5),160,175,154,122,93,90,4,4,3,86,67,9,15,1.7,1.2
2023-01-31T07:00:00,1018A,117.202,39.0927,天津市,前进道,细颗粒物(PM2.5),145,152,132,111,87,94,6,9,7,92,69,10,12,1.2,0.9
2023-01-31T07:00:00,1019A,117.1837,39.2133,天津市,淮河道,细颗粒物(PM2.5),173,229,200,131,109,86,6,10,7,90,74,14,17,1.3,1.2
2023-01-31T07:00:00,1021A,117.307,39.0877,天津市,跃进路,细颗粒物(PM2.5),169,175,155,128,98,91,3,3,3,75,65,10,16,1.8,1.4
2023-01-31T07:00:00,1023A,117.707,39.0343,天津市,第四大街,细颗粒物(PM2.5),159,181,183,121,98,47,2,2,2,100,104,12,13,1.5,1.4
2023-01-31T07:00:00,1024A,117.457,38.8394,天津市,永明路,细颗粒物(PM2.5),198,195,152,148,96,82,4,4,4,90,69,19,17,1.5,1.1
2023-01-31T07:00:00,1026A,117.764,39.1587,天津市,汉北路,细颗粒物(PM2.5),135,140,122,103,70,27,2,1,1,88,75,9,10,1.5,0.9
2023-01-31T07:00:00,1027A,117.157,38.9194,天津市,团泊洼,细颗粒物(PM2.5),178,182,158,134,104,85,1,2,2,85,59,20,22,1.5,1.1
2023-01-31T07:00:00,1029A,114.4422,38.0444,石家庄市,职工医院,细颗粒物(PM2.5),78,96,101,57,54,80,4,4,3,68,63,16,16,1.2,1
2023-01-31T07:00:00,1030A,114.6063,38.0266,石家庄市,高新区,颗粒物(PM10),70,90,96,47,51,78,9,12,11,55,51,11,16,1.1,1
2023-01-31T07:00:00,1031A,114.4898,38.1328,石家庄市,西北水源,颗粒物(PM10),76,101,101,47,52,71,5,5,5,53,52,12,15,1.3,1.1
2023-01-31T07:00:00,1032A,114.4586,38.0058,石家庄市,西南高教,细颗粒物(PM2.5),85,102,100,63,56,79,1,10,4,51,45,15,17,1.3,1
2023-01-31T07:00:00,1033A,114.5331,38.0178,石家庄市,世纪公园,细颗粒物(PM2.5),80,88,95,59,54,74,5,10,9,57,51,7,12,1.2,1.1
2023-01-31T07:00:00,1034A,114.509,38.0457,石家庄市,人民会堂,细颗粒物(PM2.5),73,93,99,53,58,80,5,12,11,56,48,16,16,1.1,0.9
2023-01-31T07:00:00,1035A,114.3524,37.8911,石家庄市,封龙山,细颗粒物(PM2.5),52,38,54,36,32,84,79,77,77,14,18,18,17,0.7,0.8
2023-01-31T07:00:00,1037A,118.131,39.6363,唐山市,雷达站,细颗粒物(PM2.5),128,176,135,97,72,85,0,0,0,83,69,25,24,2.2,1.5
2023-01-31T07:00:00,1038A,118.1725,39.6334,唐山市,物资局,细颗粒物(PM2.5),132,179,136,100,67,80,8,8,8,84,76,22,25,1.9,1.7
2023-01-31T07:00:00,1040A,118.1705,39.6506,唐山市,十二中,细颗粒物(PM2.5),132,170,137,100,76,78,0,0,0,87,75,31,24,2.0,1.5
2023-01-31T07:00:00,1041A,118.1869,39.622,唐山市,小山,细颗粒物(PM2.5),124,170,143,94,66,81,4,4,3,79,74,16,24,2.3,1.5
2023-01-31T07:00:00,1042A,119.5134,39.8207,秦皇岛市,北戴河环保局,颗粒物(PM10),91,132,75,66,30,55,26,21,21,42,41,22,11,1.9,1.1
2023-01-31T07:00:00,1043A,119.7493,40.0116,秦皇岛市,第一关,细颗粒物(PM2.5),78,99,78,57,35,71,14,7,7,55,43,11,7,1.3,0.8
2023-01-31T07:00:00,1044A,119.5897,39.9499,秦皇岛市,监测站,细颗粒物(PM2.5),92,114,88,68,42,57,0,1,1,66,53,13,10,1.3,0.8
2023-01-31T07:00:00,1046A,119.5251,39.9041,秦皇岛市,建设大厦,颗粒物(PM10),85,119,80,59,27,66,8,6,6,67,51,16,10,1.4,0.9
2023-01-31T07:00:00,1048A,114.5302,36.6116,邯郸市,东污水处理厂,细颗粒物(PM2.5),119,162,119,90,71,89,4,4,4,79,60,36,19,2.2,1
2023-01-31T07:00:00,1049A,114.4918,36.5713,邯郸市,矿院,细颗粒物(PM2.5),144,145,117,110,75,88,2,2,2,64,51,9,13,1.5,1.3
2023-01-31T07:00:00,1050A,114.484,36.6133,邯郸市,丛台公园,细颗粒物(PM2.5),98,124,102,73,63,87,1,2,1,66,51,30,18,2.8,1.6
2023-01-31T07:00:00,1051A,115.493,38.8632,保定市,游泳馆,细颗粒物(PM2.5),109,139,113,82,66,70,7,8,7,75,68,15,14,1.0,1
2023-01-31T07:00:00,1052A,115.5213,38.8959,保定市,华电二区,细颗粒物(PM2.5),97,134,113,72,67,62,5,4,4,61,59,10,11,1.7,1.3
2023-01-31T07:00:00,1053A,115.4713,38.9108,保定市,接待中心,细颗粒物(PM2.5),117,133,112,88,57,57,2,2,2,57,51,11,9,1.3,1
2023-01-31T07:00:00,1054A,115.4612,38.8416,保定市,地表水厂,细颗粒物(PM2.5),107,156,142,80,59,64,8,9,8,71,66,8,9,1.5,1.1
2023-01-31T07:00:00,1056A,115.5086,38.8639,保定市,监测站,细颗粒物(PM2.5),122,126,127,92,71,69,8,8,8,63,64,12,12,1.3,1.1
2023-01-31T07:00:00,1057A,114.8883,40.8336,张家口市,人民公园,颗粒物(PM10),61,72,64,13,26,79,55,51,51,8,22,12,15,0.6,0.8
2023-01-31T07:00:00,1059A,114.8687,40.8042,张家口市,五金库,,34,34,54,17,36,71,55,40,40,12,34,10,17,0.4,0.9
2023-01-31T07:00:00,1060A,114.8902,40.762,张家口市,世纪豪园,,47,47,78,8,42,70,56,41,41,9,32,6,12,0.4,0.9
2023-01-31T07:00:00,1061A,114.8916,40.8661,张家口市,北泵房,颗粒物(PM10),53,56,76,14,42,74,58,43,43,9,25,16,21,0.7,1.1
2023-01-31T07:00:00,1062A,117.9531,40.9081,承德市,铁路,"颗粒物(PM10),细颗粒物(PM2.5)",69,88,81,50,45,47,6,8,7,47,45,9,14,1.3,1.1
2023-01-31T07:00:00,1063A,117.9392,40.9763,承德市,中国银行,细颗粒物(PM2.5),69,70,69,50,36,62,6,8,7,42,40,6,8,1.2,1
2023-01-31T07:00:00,1064A,117.9503,40.928,承德市,开发区,细颗粒物(PM2.5),72,80,65,52,39,60,5,5,5,49,42,10,12,1.3,1.1
2023-01-31T07:00:00,1065A,117.8051,40.9655,承德市,文化中心,细颗粒物(PM2.5),97,126,103,72,51,55,14,14,14,44,42,8,18,1.1,1.2
2023-01-31T07:00:00,1066A,117.9268,41.0026,承德市,离宫,颗粒物(PM10),63,75,58,42,30,61,6,6,6,35,29,13,14,0.9,0.7
2023-01-31T07:00:00,1067A,116.6708,39.5111,廊坊市,药材公司,细颗粒物(PM2.5),117,145,137,88,80,84,6,6,6,87,74,10,15,1.6,1.2
2023-01-31T07:00:00,1068A,116.7214,39.5589,廊坊市,开发区,细颗粒物(PM2.5),104,119,116,78,71,84,6,6,6,89,77,14,16,1.3,1.1
2023-01-31T07:00:00,1070A,116.7244,39.5269,廊坊市,北华航天学院,细颗粒物(PM2.5),107,135,154,80,90,82,4,4,4,90,81,16,19,1.2,1.3
2023-01-31T07:00:00,1071A,116.8842,38.2991,沧州市,沧县城建局,细颗粒物(PM2.5),162,188,150,123,88,90,8,10,10,91,67,17,22,1.6,1.5
2023-01-31T07:00:00,1072A,116.8584,38.3254,沧州市,电视转播站,细颗粒物(PM2.5),159,143,118,121,81,93,11,11,11,82,61,15,19,1.3,1.2
2023-01-31T07:00:00,1073A,116.8709,38.3228,沧州市,市环保局,细颗粒物(PM2.5),152,153,129,116,79,82,4,8,6,82,72,13,19,1.5,1.2
2023-01-31T07:00:00,1074A,115.6838,37.7541,衡水市,电机北厂,细颗粒物(PM2.5),163,175,134,124,85,94,22,21,21,68,52,22,20,1.0,1
2023-01-31T07:00:00,1075A,115.6303,37.7316,衡水市,市监测站,细颗粒物(PM2.5),165,198,147,125,87,86,20,59,40,58,37,24,29,0.8,0.8
2023-01-31T07:00:00,1077A,114.4704,37.0886,邢台市,达活泉,细颗粒物(PM2.5),79,67,72,58,62,72,9,3,3,54,57,16,17,1.6,1.6
2023-01-31T07:00:00,1078A,114.5062,37.0349,邢台市,邢师高专,细颗粒物(PM2.5),75,82,75,55,54,76,7,6,5,61,56,11,12,1.7,1.5
2023-01-31T07:00:00,1079A,114.5237,37.0851,邢台市,路桥公司,细颗粒物(PM2.5),75,32,54,55,47,88,24,13,13,42,46,18,14,1.3,1.3
2023-01-31T07:00:00,1080A,114.4725,37.0719,邢台市,市环保局,细颗粒物(PM2.5),79,64,71,58,59,74,20,7,7,46,56,13,14,1.3,1.4
2023-01-31T07:00:00,1081A,112.522,37.8873,太原市,尖草坪,,39,39,77,25,47,78,4,5,4,64,64,17,25,0.7,1.2
2023-01-31T07:00:00,1083A,112.434,38.0108,太原市,上兰,,,,,,,,,,,,,,,,
2023-01-31T07:00:00,1084A,112.469,37.7124,太原市,晋源,颗粒物(PM10),61,72,81,43,47,92,4,5,5,68,65,10,18,1.0,1.2
2023-01-31T07:00:00,1085A,112.5583,37.7394,太原市,小店,细颗粒物(PM2.5),82,111,100,60,55,88,2,2,2,79,73,21,25,1.8,1.4
2023-01-31T07:00:00,1086A,112.5369,37.8692,太原市,桃园,颗粒物(PM10),51,51,89,24,49,84,1,2,2,71,71,17,23,0.7,1.3
2023-01-31T07:00:00,1087A,112.57,37.8195,太原市,坞城,颗粒物(PM10),65,80,97,41,57,89,5,5,5,82,70,18,22,1.3,1.2
2023-01-31T07:00:00,1088A,112.549,37.9854,太原市,南寨,颗粒物(PM10),57,63,83,39,44,71,4,4,4,52,57,7,22,1.0,1.3
2023-01-31T07:00:00,1089A,112.4783,37.7778,太原市,金胜,,,,,,,,,,,,,,,,
2023-01-31T07:00:00,1090A,111.6507,40.7517,呼和浩特市,呼市一监,细颗粒物(PM2.5),74,75,91,54,55,71,4,4,4,38,41,15,20,1.3,1.1
2023-01-31T07:00:00,1091A,111.6572,40.8033,呼和浩特市,小召,颗粒物(PM10),54,58,92,33,46,58,8,8,7,64,59,20,29,1.1,1.2
2023-01-31T07:00:00,1094A,111.7516,40.8369,呼和浩特市,如意水处理厂,颗粒物(PM10),60,69,107,33,47,66,4,4,4,59,56,10,18,1.0,1
2023-01-31T07:00:00,1095A,111.7276,40.8062,呼和浩特市,二十九中,颗粒物(PM10),55,59,92,33,49,69,8,6,6,60,59,14,21,0.8,1
2023-01-31T07:00:00,1096A,111.5512,40.7866,呼和浩特市,工大金川校区,,48,48,98,31,45,64,6,21,8,57,49,19,22,0.7,0.9
2023-01-31T07:00:00,1097A,111.717,40.7612,呼和浩特市,化肥厂生活区,颗粒物(PM10),72,93,94,48,50,72,13,14,13,51,50,13,16,1.1,1.1
2023-01-31T07:00:00,1098A,123.6836,41.9339,沈阳市,森林路,,,,,,,,,,,,,,,,
2023-01-31T07:00:00,1099A,123.505,41.7406,沈阳市,浑南东路,颗粒物(PM10),52,53,47,33,34,66,23,28,27,40,40,17,16,1.5,1.1
2023-01-31T07:00:00,1100A,123.4231,41.6989,沈阳市,新秀街,颗粒物(PM10),53,56,56,23,33,66,39,37,36,30,38,13,13,0.9,1
2023-01-31T07:00:00,1102A,123.5903,41.8411,沈阳市,东陵路,颗粒物(PM10),60,69,60,40,34,69,30,26,26,32,35,26,18,2.0,1.2
2023-01-31T07:00:00,1103A,123.4264,41.8467,沈阳市,陵东街,颗粒物(PM10),57,64,48,36,28,66,10,26,20,62,51,20,21,1.7,1.1
2023-01-31T07:00:00,1104A,123.4114,41.7653,沈阳市,文化路,颗粒物(PM10),58,65,52,34,31,70,24,28,23,50,47,21,21,1.1,1
2023-01-31T07:00:00,1105A,123.4678,41.7867,沈阳市,小河沿,颗粒物(PM10),55,60,58,37,37,68,12,20,19,56,48,16,17,1.6,1.2
2023-01-31T07:00:00,1106A,123.4017,41.7972,沈阳市,太原街,颗粒物(PM10),66,81,60,42,38,61,6,18,14,60,47,36,28,1.6,1.2
2023-01-31T07:00:00,1108A,123.3783,41.9228,沈阳市,京沈街,颗粒物(PM10),64,78,54,40,31,65,9,22,19,61,46,38,27,1.6,1
2023-01-31T07:00:00,1109A,121.612,38.9741,大连市,甘井子,细颗粒物(PM2.5),114,123,68,86,37,74,46,73,66,38,24,32,15,0.9,0.6
2023-01-31T07:00:00,1110A,121.565,38.9511,大连市,周水子,细颗粒物(PM2.5),103,148,92,77,39,74,32,72,62,61,35,26,19,1.4,1
2023-01-31T07:00:00,1111A,121.5637,38.8845,大连市,星海三站,细颗粒物(PM2.5),89,121,69,66,30,70,42,67,61,58,35,18,7,0.9,0.6
2023-01-31T07:00:00,1112A,121.6302,38.9117,大连市,青泥洼桥,细颗粒物(PM2.5),93,105,67,69,30,89,46,82,74,42,25,28,20,1.4,1.1
2023-01-31T07:00:00,1113A,121.6251,38.8638,大连市,傅家庄,颗粒物(PM10),88,125,70,63,27,86,63,83,80,38,23,15,9,1.3,0.9
2023-01-31T07:00:00,1114A,121.5213,38.8661,大连市,七贤岭,细颗粒物(PM2.5),156,103,64,119,51,91,68,80,77,26,25,15,9,1.0,0.7
2023-01-31T07:00:00,1115A,121.2529,38.8061,大连市,旅顺,细颗粒物(PM2.5),104,124,74,78,34,84,55,84,73,32,21,16,11,1.0,0.7
2023-01-31T07:00:00,1116A,121.7485,39.1311,大连市,金州,颗粒物(PM10),121,191,62,85,25,82,46,56,55,23,13,22,16,2.0,0.9
2023-01-31T07:00:00,1117A,121.7811,39.0496,大连市,开发区,细颗粒物(PM2.5),82,76,55,60,27,68,39,60,56,50,31,15,13,1.0,0.6
2023-01-31T07:00:00,1118A,121.9762,39.0631,大连市,双D港,细颗粒物(PM2.5),70,78,50,51,23,81,52,68,65,28,18,9,11,1.0,0.8
2023-01-31T07:00:00,1119A,125.3325,43.9166,长春市,食品厂,,49,49,86,34,56,65,17,14,14,47,48,29,19,0.7,0.9
2023-01-31T07:00:00,1120A,125.2863,43.9027,长春市,客车厂,颗粒物(PM10),57,63,67,34,48,61,7,5,5,67,54,23,24,0.6,0.8
2023-01-31T07:00:00,1121A,125.2841,43.8463,长春市,邮电学院,,36,33,56,25,40,66,18,13,13,45,40,33,15,0.5,0.6
2023-01-31T07:00:00,1122A,125.3716,43.8772,长春市,劳动公园,,32,32,58,22,37,69,22,22,22,47,42,9,15,0.7,0.6
2023-01-31T07:00:00,1123A,125.3297,43.8805,长春市,园林处,,50,50,57,27,40,62,23,18,18,46,44,20,22,0.6,0.7
2023-01-31T07:00:00,1124A,125.4605,43.79,长春市,净月潭,,41,41,41,19,25,74,54,56,52,9,12,5,6,0.6,0.6
2023-01-31T07:00:00,1125A,125.7194,43.515,长春市,甩湾子,,,,,,,,,,,,,,,,
2023-01-31T07:00:00,1126A,125.3863,43.8447,长春市,经开区环卫处,,33,32,63,23,36,65,9,14,11,59,44,8,12,0.6,0.8
2023-01-31T07:00:00,1127A,125.245,43.7783,长春市,高新区管委会,,33,24,63,23,52,71,34,34,34,26,29,8,8,0.6,0.8
2023-01-31T07:00:00,1128A,125.1761,43.8325,长春市,岱山公园,,28,26,60,19,40,73,20,27,26,53,36,27,12,0.6,0.8
2023-01-31T07:00:00,1129A,126.5422,45.755,哈尔滨市,岭北,细颗粒物(PM2.5),241,243,207,191,172,71,16,23,18,80,69,38,40,1.8,1.4
2023-01-31T07:00:00,1130A,126.561,45.8167,哈尔滨市,松北商大,细颗粒物(PM2.5),239,224,171,189,149,74,13,13,13,66,65,10,12,1.9,1.6
2023-01-31T07:00:00,1131A,126.979,45.5419,哈尔滨市,阿城会宁,细颗粒物(PM2.5),200,146,139,150,118,73,10,19,14,49,37,17,19,1.8,1.3
2023-01-31T07:00:00,1132A,126.599,45.7222,哈尔滨市,南岗学府路,细颗粒物(PM2.5),215,207,202,165,153,86,15,18,17,84,70,48,32,1.0,1
2023-01-31T07:00:00,1133A,126.689,45.7733,哈尔滨市,太平宏伟公园,细颗粒物(PM2.5),160,214,234,122,179,63,15,17,16,72,76,10,22,1.1,1.8
2023-01-31T07:00:00,1134A,126.635,45.7667,哈尔滨市,道外承德广场,细颗粒物(PM2.5),237,257,180,187,162,49,11,10,10,75,72,10,16,1.9,1.4
2023-01-31T07:00:00,1135A,126.685,45.7319,哈尔滨市,香坊红旗大街,细颗粒物(PM2.5),297,262,197,247,201,44,20,22,21,78,87,31,35,2.8,2
2023-01-31T07:00:00,1136A,126.6411,45.7258,哈尔滨市,动力和平路,细颗粒物(PM2.5),240,178,164,190,160,72,11,14,13,83,66,39,36,1.7,1.4
2023-01-31T07:00:00,1137A,126.593,45.7478,哈尔滨市,道里建国路,细颗粒物(PM2.5),252,215,167,202,160,51,8,11,8,79,71,26,32,2.5,1.6
2023-01-31T07:00:00,1138A,126.615,45.61,哈尔滨市,平房东轻厂,细颗粒物(PM2.5),190,175,153,143,145,97,22,42,32,62,40,11,12,1.4,1.2
2023-01-31T07:00:00,1139A,126.595,45.9855,哈尔滨市,呼兰师专,细颗粒物(PM2.5),274,237,196,224,183,71,5,5,4,61,53,23,27,2.3,2.5
2023-01-31T07:00:00,1140A,126.6206,45.6842,哈尔滨市,省农科院,细颗粒物(PM2.5),185,232,189,139,159,72,11,13,12,83,68,19,17,1.7,1.4
2023-01-31T07:00:00,1141A,121.4,31.238,上海市,普陀,,46,41,64,32,46,130,97,113,107,28,39,12,10,0.8,0.9
2023-01-31T07:00:00,1142A,121.478,31.2036,上海市,十五厂,,46,38,60,32,47,121,74,83,81,33,47,6,9,0.8,1
2023-01-31T07:00:00,1143A,121.467,31.3008,上海市,虹口,颗粒物(PM10),51,51,76,31,50,109,81,97,94,31,42,12,14,0.5,0.7
2023-01-31T07:00:00,1144A,121.412,31.1654,上海市,徐汇上师大,,50,43,57,35,43,121,69,81,79,37,43,8,9,0.9,0.8
2023-01-31T07:00:00,1145A,121.536,31.2659,上海市,杨浦四漂,细颗粒物(PM2.5),52,44,76,36,53,107,70,88,80,41,46,6,8,0.5,0.6
2023-01-31T07:00:00,1147A,121.425,31.2261,上海市,静安监测站,颗粒物(PM10),53,56,77,34,45,125,85,97,94,35,46,9,11,0.5,0.7
2023-01-31T07:00:00,1148A,121.703,31.1907,上海市,浦东川沙,细颗粒物(PM2.5),60,39,60,43,55,115,70,84,70,24,30,5,7,0.7,0.9
2023-01-31T07:00:00,1149A,121.533,31.2284,上海市,浦东新区监测站,颗粒物(PM10),51,51,77,32,48,111,77,89,87,29,40,6,8,0.9,1
2023-01-31T07:00:00,1150A,121.577,31.2071,上海市,浦东张江,,49,43,60,34,40,116,57,87,81,45,36,5,7,0.9,0.9
2023-01-31T07:00:00,1151A,118.8086,32.1065,南京市,迈皋桥,颗粒物(PM10),54,57,78,29,40,122,62,84,67,28,46,4,8,0.4,0.6
2023-01-31T07:00:00,1152A,118.7538,32.0551,南京市,草场门,颗粒物(PM10),57,63,78,36,41,116,38,67,54,42,37,3,7,0.5,0.7
2023-01-31T07:00:00,1153A,118.7794,32.0745,南京市,山西路,细颗粒物(PM2.5),55,58,75,39,43,122,59,85,70,26,31,4,8,0.5,0.7
2023-01-31T07:00:00,1154A,118.7752,32.0023,南京市,中华门,颗粒物(PM10),54,58,74,36,39,114,40,56,51,37,35,6,10,0.5,0.6
2023-01-31T07:00:00,1155A,118.8109,32.0309,南京市,瑞金路,颗粒物(PM10),58,66,79,36,43,115,8,63,31,65,46,4,6,1.0,0.7
2023-01-31T07:00:00,1156A,118.7997,32.0754,南京市,玄武湖,颗粒物(PM10),57,64,78,37,42,114,56,76,66,24,30,3,4,0.4,0.6
2023-01-31T07:00:00,1157A,118.6414,32.0931,南京市,浦口,颗粒物(PM10),57,63,86,31,46,96,49,70,61,32,43,4,11,0.5,0.8
2023-01-31T07:00:00,1158A,118.7356,31.9996,南京市,奥体中心,颗粒物(PM10),62,73,88,39,45,118,12,66,43,75,46,4,8,0.6,0.8
2023-01-31T07:00:00,1159A,118.9125,32.1028,南京市,仙林大学城,细颗粒物(PM2.5),58,51,71,41,41,120,53,70,62,26,29,6,9,0.4,0.7
2023-01-31T07:00:00,1160A,120.561,31.2472,苏州市,上方山,细颗粒物(PM2.5),75,79,75,55,50,126,24,60,40,52,35,6,9,0.7,0.7
2023-01-31T07:00:00,1162A,120.591,31.3019,苏州市,彩香,细颗粒物(PM2.5),70,76,84,51,53,124,48,88,67,38,31,6,8,0.8,0.8
2023-01-31T07:00:00,1163A,120.596,31.3264,苏州市,轧钢厂,细颗粒物(PM2.5),64,75,89,46,49,126,38,85,62,46,35,6,9,0.8,0.9
2023-01-31T07:00:00,1164A,120.613,31.2703,苏州市,吴中区,细颗粒物(PM2.5),64,71,82,46,51,131,45,78,64,47,40,6,9,0.5,0.6
2023-01-31T07:00:00,1165A,120.543,31.2994,苏州市,苏州新区,细颗粒物(PM2.5),68,71,76,49,51,127,47,79,63,30,32,9,10,0.7,0.8
2023-01-31T07:00:00,1166A,120.669,31.3097,苏州市,苏州工业园区,"颗粒物(PM10),细颗粒物(PM2.5)",60,69,85,43,53,133,72,93,82,21,27,7,10,0.6,0.7
2023-01-31T07:00:00,1167A,120.641,31.3708,苏州市,相城区,细颗粒物(PM2.5),70,77,89,51,55,132,24,90,65,64,41,9,11,0.6,0.7
2023-01-31T07:00:00,1168A,120.9098,31.9663,南通市,狼山街道,"颗粒物(PM10),细颗粒物(PM2.5)",69,88,91,50,59,112,33,54,42,43,40,7,11,0.6,0.7
2023-01-31T07:00:00,1169A,120.86,32.0005,南通市,虹桥,细颗粒物(PM2.5),74,81,94,54,61,112,63,57,57,41,50,8,9,0.8,0.9
2023-01-31T07:00:00,1170A,120.87,32.02,南通市,城中,细颗粒物(PM2.5),75,86,97,55,63,113,63,55,55,37,44,8,9,0.4,0.5
2023-01-31T07:00:00,1171A,120.94,31.93,南通市,星湖花园,"颗粒物(PM10),细颗粒物(PM2.5)",70,90,91,51,56,116,57,65,57,34,42,8,11,0.7,0.8
2023-01-31T07:00:00,1172A,120.81,32.0417,南通市,紫琅学院,细颗粒物(PM2.5),73,87,101,53,57,93,49,60,58,48,49,7,9,0.7,0.8
2023-01-31T07:00:00,1173A,119.176,34.5885,连云港市,市环境监测站,细颗粒物(PM2.5),113,117,126,85,80,122,50,70,57,31,28,12,13,0.9,0.7
2023-01-31T07:00:00,1177A,117.179,34.2761,徐州市,黄河新村,细颗粒物(PM2.5),118,136,135,89,86,124,21,44,35,58,42,12,13,1.0,0.9
2023-01-31T07:00:00,1178A,117.1918,34.2384,徐州市,淮塔,细颗粒物(PM2.5),138,142,138,105,87,129,0,31,10,73,50,9,10,1.1,0.8
2023-01-31T07:00:00,1180A,117.256,34.2153,徐州市,新城区,细颗粒物(PM2.5),110,112,130,83,83,129,25,47,32,53,40,12,14,1.0,0.9
2023-01-31T07:00:00,1181A,117.244,34.2911,徐州市,桃园路,细颗粒物(PM2.5),144,173,142,110,87,129,3,27,9,79,45,9,10,1.1,1.1
2023-01-31T07:00:00,1182A,117.2933,34.2778,徐州市,农科院,细颗粒物(PM2.5),138,171,137,105,83,134,5,28,18,65,42,10,11,1.0,0.8
2023-01-31T07:00:00,1186A,119.389,32.3761,扬州市,邗江监测站,细颗粒物(PM2.5),92,77,87,68,61,127,55,92,72,45,42,6,8,0.8,0.8
2023-01-31T07:00:00,1188A,120.269,31.4867,无锡市,雪浪,"颗粒物(PM10),细颗粒物(PM2.5)",62,73,70,44,39,123,34,82,63,32,23,10,10,0.9,0.9
2023-01-31T07:00:00,1189A,120.275,31.6219,无锡市,黄巷,颗粒物(PM10),70,90,91,48,48,134,8,78,43,100,66,9,12,0.7,0.7
2023-01-31T07:00:00,1190A,120.294,31.56,无锡市,曹张,颗粒物(PM10),66,82,78,44,42,134,28,79,58,65,47,9,10,0.4,0.5
2023-01-31T07:00:00,1191A,120.242,31.5031,无锡市,漆塘,颗粒物(PM10),57,63,64,39,38,136,36,102,73,42,30,8,10,1.0,0.9
2023-01-31T07:00:00,1192A,120.3489,31.5863,无锡市,东亭,细颗粒物(PM2.5),73,75,80,53,48,132,16,69,32,66,54,9,12,1.3,1.4
2023-01-31T07:00:00,1193A,120.354,31.5475,无锡市,旺庄,细颗粒物(PM2.5),79,80,78,58,48,129,3,42,28,88,58,5,6,0.7,0.7
2023-01-31T07:00:00,1194A,120.245,31.5631,无锡市,荣巷,细颗粒物(PM2.5),62,63,68,44,39,132,38,83,62,33,30,10,12,0.8,0.9
2023-01-31T07:00:00,1195A,120.299,31.6817,无锡市,堰桥,细颗粒物(PM2.5),73,80,85,53,51,122,56,60,59,42,42,6,8,1.0,1.1
2023-01-31T07:00:00,1196A,119.9633,31.762,常州市,市监测站,细颗粒物(PM2.5),85,102,94,63,56,129,26,97,68,59,38,9,9,0.9,0.7
2023-01-31T07:00:00,1200A,119.9468,31.7069,常州市,武进监测站,细颗粒物(PM2.5),77,90,85,56,51,127,65,95,80,23,24,8,10,0.6,0.7
2023-01-31T07:00:00,1201A,119.9255,31.9087,常州市,安家,细颗粒物(PM2.5),85,101,86,63,56,137,39,102,69,44,35,7,11,0.8,0.8
2023-01-31T07:00:00,1203A,119.6707,32.1875,镇江市,新区办事处,细颗粒物(PM2.5),92,104,95,68,59,131,36,84,61,49,31,4,6,1.2,1.1
2023-01-31T07:00:00,1204A,119.4974,32.1968,镇江市,职教中心,细颗粒物(PM2.5),95,104,96,71,58,134,60,102,77,39,35,7,11,0.8,0.9
2023-01-31T07:00:00,1205A,119.4303,32.1328,镇江市,丹徒区监测站,细颗粒物(PM2.5),87,88,94,64,61,129,68,80,76,28,31,4,6,0.6,0.7
2023-01-31T07:00:00,1206A,119.905,32.4878,泰州市,公园路,细颗粒物(PM2.5),100,95,111,75,77,133,40,36,36,38,45,5,9,1.0,1
2023-01-31T07:00:00,1207A,119.9189,32.4625,泰州市,莲花,细颗粒物(PM2.5),102,100,113,76,83,130,48,33,33,40,49,9,12,0.9,0.9
2023-01-31T07:00:00,1209A,119.888,32.4639,泰州市,留学生创业园,颗粒物(PM10),78,105,122,53,67,127,48,35,35,39,45,9,12,0.9,0.9
2023-01-31T07:00:00,1210A,119.036,33.5981,淮安市,钵池山,细颗粒物(PM2.5),103,95,106,77,73,127,44,78,57,42,36,10,11,0.9,0.9
2023-01-31T07:00:00,1211A,119.007,33.575,淮安市,北京南路,细颗粒物(PM2.5),103,119,122,77,71,126,24,68,43,54,38,10,12,1.0,0.9
2023-01-31T07:00:00,1212A,118.989,33.6067,淮安市,市监测站,细颗粒物(PM2.5),94,105,111,70,69,124,47,84,62,45,38,10,11,0.9,1
2023-01-31T07:00:00,1213A,119.135,33.5039,淮安市,楚州区监测站,细颗粒物(PM2.5),114,125,122,86,77,134,0,34,21,84,47,10,11,1.2,0.9
2023-01-31T07:00:00,1214A,119.0186,33.6297,淮安市,淮阴区监测站,细颗粒物(PM2.5),99,93,113,74,75,122,50,82,63,37,39,12,13,0.9,0.9
2023-01-31T07:00:00,1215A,120.118,33.4022,盐城市,盐城电厂,细颗粒物(PM2.5),97,105,96,72,63,132,60,76,71,41,31,12,10,1.3,0.8
2023-01-31T07:00:00,1216A,120.156,33.3942,盐城市,市监测站,细颗粒物(PM2.5),100,85,77,75,63,134,55,64,61,38,28,16,12,1.3,0.8
2023-01-31T07:00:00,1218A,120.2144,33.38,盐城市,开发区管委会,细颗粒物(PM2.5),117,122,104,88,63,137,31,64,47,40,28,6,10,0.8,0.7
2023-01-31T07:00:00,1220A,118.293,33.9528,宿迁市,宿迁学院,细颗粒物(PM2.5),92,119,137,68,86,133,50,53,52,37,42,9,12,0.9,0.9
2023-01-31T07:00:00,1221A,118.2442,33.9592,宿迁市,宿迁中学,细颗粒物(PM2.5),89,98,118,66,74,130,57,69,63,30,33,9,11,0.9,0.9
2023-01-31T07:00:00,1223A,120.2072,30.2111,杭州市,滨江,,36,36,58,22,33,112,42,49,48,22,21,6,7,0.5,0.5
2023-01-31T07:00:00,1224A,120.0633,30.2747,杭州市,西溪,,46,44,62,32,33,115,4,16,8,22,25,4,5,0.6,0.6
2023-01-31T07:00:00,1226A,120.3461,30.3153,杭州市,下沙,,43,43,67,27,43,114,60,48,48,18,31,7,7,0.6,0.6
2023-01-31T07:00:00,1227A,120.1269,30.2456,杭州市,卧龙桥,,38,37,44,26,29,112,12,28,24,27,24,5,6,0.5,0.5
2023-01-31T07:00:00,1228A,120.1903,30.2692,杭州市,浙江农大,,35,35,54,24,36,110,37,34,34,24,28,5,6,0.4,0.5
2023-01-31T07:00:00,1230A,120.1197,30.3119,杭州市,和睦小学,细颗粒物(PM2.5),55,54,64,39,41,108,13,22,20,24,25,5,6,0.7,0.7
2023-01-31T07:00:00,1231A,120.3019,30.4183,杭州市,临平镇,,42,42,66,22,37,115,27,67,37,36,24,7,8,0.6,0.6
2023-01-31T07:00:00,1232A,120.2697,30.1819,杭州市,城厢镇,细颗粒物(PM2.5),55,56,61,39,42,105,44,48,46,26,27,7,8,0.5,0.5
2023-01-31T07:00:00,1233A,120.0883,30.1808,杭州市,云栖,,38,38,47,22,28,110,22,50,33,19,16,5,5,0.6,0.6
2023-01-31T07:00:00,1234A,121.8358,29.911,宁波市,区环保大楼,,27,27,48,17,32,135,85,117,106,21,22,8,10,0.5,0.6
2023-01-31T07:00:00,1235A,121.56,29.82,宁波市,万里学院,,42,42,53,26,36,130,103,112,110,15,18,7,8,0.4,0.4
2023-01-31T07:00:00,1236A,121.713,29.9572,宁波市,龙赛医院,,43,43,64,21,33,135,80,113,98,18,18,10,11,0.4,0.5
2023-01-31T07:00:00,1239A,121.633,29.7733,宁波市,钱湖水厂,,30,17,46,20,32,128,94,104,100,1,7,6,7,0.5,0.6
2023-01-31T07:00:00,1240A,121.5856,29.8635,宁波市,太古小学,,44,44,57,25,35,127,90,112,102,19,18,10,10,0.6,0.7
2023-01-31T07:00:00,1241A,121.524,29.8674,宁波市,市环境监测中心,,49,49,56,24,32,110,82,96,92,17,20,6,7,0.3,0.4
2023-01-31T07:00:00,1242A,120.634,28.0089,温州市,瓯海,,50,50,49,31,33,104,23,43,36,34,24,6,7,0.4,0.4
2023-01-31T07:00:00,1243A,120.6748,27.9939,温州市,南浦,,50,49,48,35,33,109,36,46,44,26,22,6,8,0.4,0.4
2023-01-31T07:00:00,1244A,120.76,27.9747,温州市,龙湾,颗粒物(PM10),51,52,54,33,29,111,33,34,32,37,28,7,7,0.6,0.5
2023-01-31T07:00:00,1245A,120.6709,28.0167,温州市,市站,,48,48,52,32,32,105,40,58,48,27,26,6,7,0.4,0.4
2023-01-31T07:00:00,1247A,120.6053,29.9928,绍兴市,城东开发委,,45,45,59,30,36,125,24,43,38,36,28,4,5,0.9,0.7
2023-01-31T07:00:00,1250A,120.0751,30.8669,湖州市,城西水厂,细颗粒物(PM2.5),70,54,53,51,39,110,7,83,50,61,29,5,6,0.6,0.4
2023-01-31T07:00:00,1252A,120.7436,30.778,嘉兴市,清河小学,颗粒物(PM10),59,67,65,40,39,105,33,84,61,49,35,8,11,0.6,0.4
2023-01-31T07:00:00,1253A,120.726,30.7478,嘉兴市,嘉兴学院,颗粒物(PM10),56,62,66,36,42,117,49,88,72,37,33,8,10,0.6,0.6
2023-01-31T07:00:00,1255A,121.273,28.6459,台州市,黄岩环保大楼,颗粒物(PM10),51,52,60,29,34,132,49,53,52,24,21,8,9,0.4,0.5
2023-01-31T07:00:00,1256A,121.419,28.6542,台州市,台州环保大楼,"颗粒物(PM10),细颗粒物(PM2.5)",58,65,67,41,43,135,52,73,57,29,21,9,10,0.7,0.6
2023-01-31T07:00:00,1257A,121.377,28.5773,台州市,路桥田洋王,细颗粒物(PM2.5),58,63,69,41,48,133,22,58,37,39,25,7,11,0.5,0.6
2023-01-31T07:00:00,1258A,122.122,30.0203,舟山市,定海檀枫,,47,47,70,28,44,121,71,94,87,30,41,4,5,0.5,0.6
2023-01-31T07:00:00,1259A,122.3094,29.9558,舟山市,普陀东港,,40,40,70,24,44,117,103,114,112,16,30,5,8,0.4,0.6
2023-01-31T07:00:00,1260A,122.19,29.9944,舟山市,临城新区,,42,42,70,23,44,124,100,112,108,27,34,6,8,0.4,0.5
2023-01-31T07:00:00,1262A,119.647,29.077,金华市,十五中,,39,30,54,27,38,104,27,41,30,20,27,4,5,0.4,0.5
2023-01-31T07:00:00,1263A,119.686,29.1029,金华市,监测站,,48,41,49,33,38,109,14,12,11,33,31,5,6,0.5,0.5
2023-01-31T07:00:00,1264A,118.8692,28.9398,衢州市,环保大楼,,40,40,50,28,34,87,3,3,3,37,38,4,8,0.4,0.6
2023-01-31T07:00:00,1265A,118.8709,28.9666,衢州市,实验学校,,38,35,49,26,34,95,1,2,2,44,37,7,11,0.4,0.5
2023-01-31T07:00:00,1266A,118.8621,28.9808,衢州市,衢州学院,,37,37,50,21,28,88,2,3,2,39,37,4,7,0.5,0.5
2023-01-31T07:00:00,1267A,119.914,28.4514,丽水市,监测站大楼,,24,24,43,15,32,91,16,20,19,15,21,7,9,0.4,0.7
2023-01-31T07:00:00,1268A,119.93,28.4586,丽水市,莲都小学,,42,42,39,19,25,98,32,32,32,17,18,7,8,0.4,0.5
2023-01-31T07:00:00,1269A,119.879,28.4231,丽水市,余庄前,,27,27,35,12,22,90,7,16,10,9,11,8,8,0.3,0.4
2023-01-31T07:00:00,1270A,117.1959,31.7848,合肥市,明珠广场,颗粒物(PM10),56,61,77,39,44,113,43,87,56,42,32,5,6,0.9,0.9
2023-01-31T07:00:00,1271A,117.3072,31.8764,合肥市,三里街,颗粒物(PM10),67,83,84,45,51,104,37,70,48,54,43,7,7,0.7,0.7
2023-01-31T07:00:00,1272A,117.2588,31.8707,合肥市,琥珀山庄,细颗粒物(PM2.5),58,63,77,41,42,116,57,76,56,37,34,4,6,0.6,0.6
2023-01-31T07:00:00,1273A,117.1604,31.9052,合肥市,董铺水库,颗粒物(PM10),54,58,78,36,40,99,29,82,54,40,24,3,5,0.4,0.5
2023-01-31T07:00:00,1274A,117.25,31.8571,合肥市,长江中路,颗粒物(PM10),56,61,75,36,48,108,50,78,60,32,26,10,11,0.8,0.9
2023-01-31T07:00:00,1275A,117.266,31.9436,合肥市,庐阳区,颗粒物(PM10),62,73,80,36,40,105,56,79,65,29,25,7,8,0.6,0.6
2023-01-31T07:00:00,1276A,117.336,31.8586,合肥市,瑶海区,颗粒物(PM10),63,75,84,44,47,112,67,76,71,25,24,7,7,0.6,0.6
2023-01-31T07:00:00,1277A,117.3027,31.7964,合肥市,包河区,细颗粒物(PM2.5),62,63,75,44,47,118,54,92,44,38,29,7,7,0.6,0.6
2023-01-31T07:00:00,1278A,117.2776,31.7385,合肥市,滨湖新区,细颗粒物(PM2.5),62,61,75,44,40,117,72,90,78,17,16,13,13,0.7,0.7
2023-01-31T07:00:00,1279A,117.1318,31.8403,合肥市,高新区,细颗粒物(PM2.5),58,58,74,41,41,108,61,90,73,29,24,7,9,0.6,0.6
2023-01-31T07:00:00,1280A,119.3903,26.0543,福州市,鼓山,,,,,,,,,,,,,,,,
2023-01-31T07:00:00,1282A,119.2681,26.0504,福州市,师大,,35,35,41,23,25,108,57,61,60,12,15,4,5,0.4,0.5
2023-01-31T07:00:00,1283A,119.2984,26.1028,福州市,五四北路,,35,35,36,20,25,110,57,64,61,12,16,3,3,0.5,0.5
2023-01-31T07:00:00,1284A,119.2648,26.0768,福州市,杨桥西路,,34,34,41,20,23,110,49,63,56,14,14,3,4,0.6,0.6
2023-01-31T07:00:00,1285A,119.317,26.0746,福州市,紫阳,,38,38,42,23,25,106,54,68,58,12,18,3,3,0.6,0.6
2023-01-31T07:00:00,1286A,118.1608,24.8169,厦门市,溪东,,,,,,,,,,,,,,,,
2023-01-31T07:00:00,1287A,118.1514,24.4767,厦门市,洪文,,48,48,45,30,28,124,47,87,67,29,17,2,3,0.7,0.7
2023-01-31T07:00:00,1288A,118.0661,24.4444,厦门市,鼓浪屿,细颗粒物(PM2.5),57,62,49,40,34,134,35,88,62,52,25,5,5,0.5,0.4
2023-01-31T07:00:00,1290A,115.8931,28.6843,南昌市,省外办,细颗粒物(PM2.5),90,96,107,67,67,121,6,13,8,73,57,10,9,1.6,1.5
2023-01-31T07:00:00,1291A,115.8886,28.7003,南昌市,省林业公司,细颗粒物(PM2.5),85,85,81,63,52,117,1,13,3,66,60,6,7,1.4,1.1
2023-01-31T07:00:00,1292A,115.8126,28.7442,南昌市,林科所,细颗粒物(PM2.5),52,48,64,36,40,115,9,40,36,68,44,8,9,0.5,0.6
2023-01-31T07:00:00,1294A,115.8518,28.687,南昌市,建工学校,颗粒物(PM10),63,75,94,43,45,119,2,5,3,63,57,9,10,1.1,1.2
2023-01-31T07:00:00,1295A,115.8921,28.6424,南昌市,象湖,细颗粒物(PM2.5),89,95,90,66,58,114,1,1,0,56,57,6,8,1.3,1.2
2023-01-31T07:00:00,1296A,115.7423,28.7996,南昌市,武术学校,,38,22,38,26,30,109,27,35,31,6,8,5,6,0.4,0.5
2023-01-31T07:00:00,1298A,115.9314,28.6842,南昌市,省站,细颗粒物(PM2.5),117,145,117,88,72,120,3,5,4,63,50,13,12,1.3,1.1
2023-01-31T07:00:00,1299A,116.9862,36.6114,济南市,科干所,颗粒物(PM10),73,95,103,51,52,132,110,125,113,17,19,10,13,0.5,0.5
2023-01-31T07:00:00,1300A,116.9376,36.665,济南市,农科所,颗粒物(PM10),73,95,111,49,46,112,80,101,91,30,31,12,15,0.7,0.7
2023-01-31T07:00:00,1301A,117.1265,36.6734,济南市,开发区,细颗粒物(PM2.5),77,83,90,56,49,125,92,117,103,20,20,11,14,0.9,0.8
2023-01-31T07:00:00,1303A,117.0624,36.6868,济南市,省种子仓库,颗粒物(PM10),81,112,103,56,53,126,16,106,74,82,26,14,16,0.9,0.7
2023-01-31T07:00:00,1304A,116.9489,36.6447,济南市,机床二厂,"颗粒物(PM10),细颗粒物(PM2.5)",80,110,118,59,57,118,74,106,94,37,24,18,22,0.7,0.7
2023-01-31T07:00:00,1305A,117.0495,36.663,济南市,市监测站,颗粒物(PM10),72,93,97,51,50,138,94,132,116,29,25,9,11,0.7,0.7
2023-01-31T07:00:00,1306A,116.7675,36.5484,济南市,长清党校,细颗粒物(PM2.5),80,103,119,59,64,129,96,117,106,22,22,12,13,0.7,0.7
2023-01-31T07:00:00,1307A,120.6659,36.2403,青岛市,仰口,细颗粒物(PM2.5),85,100,85,63,43,122,96,121,111,19,14,9,9,1.2,1
2023-01-31T07:00:00,1310A,120.4134,36.0658,青岛市,市南区东部子站,颗粒物(PM10),69,88,82,48,24,106,65,104,94,35,25,9,9,0.9,0.5
2023-01-31T07:00:00,1311A,120.3664,36.1032,青岛市,四方区子站,细颗粒物(PM2.5),92,107,83,68,31,94,47,94,81,41,26,5,8,1.0,0.7
2023-01-31T07:00:00,1312A,120.2994,36.054,青岛市,市南区西部子站,细颗粒物(PM2.5),80,95,79,59,26,112,56,108,95,48,24,9,9,1.1,0.7
2023-01-31T07:00:00,1313A,120.4581,36.0858,青岛市,崂山区子站,颗粒物(PM10),69,88,85,48,27,106,56,104,93,36,21,7,9,0.6,0.5
2023-01-31T07:00:00,1314A,120.1983,35.9608,青岛市,黄岛区子站,细颗粒物(PM2.5),110,127,87,83,35,109,66,106,88,26,20,6,6,1.1,0.6
2023-01-31T07:00:00,1315A,120.3999,36.3083,青岛市,城阳区子站,颗粒物(PM10),69,88,76,46,25,103,66,101,92,37,23,10,8,0.9,0.5
2023-01-31T07:00:00,1316A,113.69031,34.76122,郑州市,烟厂,细颗粒物(PM2.5),113,130,116,85,82,94,5,18,6,77,62,23,15,0.9,0.8
2023-01-31T07:00:00,1317A,113.65724,34.77134,郑州市,郑纺机,细颗粒物(PM2.5),109,132,122,82,78,88,5,5,4,83,74,16,11,1.0,0.9
2023-01-31T07:00:00,1318A,113.67526,34.80246,郑州市,银行学校,细颗粒物(PM2.5),112,118,104,84,79,101,12,20,12,71,58,20,14,0.9,0.6
2023-01-31T07:00:00,1319A,113.56746,34.81334,郑州市,供水公司,细颗粒物(PM2.5),103,128,100,77,64,92,5,27,13,76,48,20,16,1.3,0.9
2023-01-31T07:00:00,1320A,113.7329,34.7178,郑州市,经开区管委,细颗粒物(PM2.5),129,122,118,98,86,114,5,33,11,82,57,14,13,0.8,0.6
2023-01-31T07:00:00,1321A,113.73961,34.77172,郑州市,四十七中,细颗粒物(PM2.5),115,135,116,87,82,102,7,46,18,69,51,13,10,0.8,0.7
2023-01-31T07:00:00,1322A,113.60532,34.74838,郑州市,市监测站,细颗粒物(PM2.5),123,142,131,93,82,93,4,10,7,69,59,16,13,0.8,0.7
2023-01-31T07:00:00,1323A,113.64164,34.7525,郑州市,河医大,细颗粒物(PM2.5),122,146,117,92,79,93,3,13,8,68,59,12,11,1.1,0.9
2023-01-31T07:00:00,1324A,113.51488,34.91089,郑州市,岗李水库,,,,,,,,,,,,,,,,
2023-01-31T07:00:00,1325A,114.3677,30.5584,武汉市,东湖梨园,细颗粒物(PM2.5),80,92,87,59,70,132,31,53,38,45,39,8,11,1.2,1.1
2023-01-31T07:00:00,1326A,114.2529,30.558,武汉市,汉阳月湖,细颗粒物(PM2.5),73,88,96,53,64,116,32,37,30,55,59,13,10,1.8,1.3
2023-01-31T07:00:00,1327A,114.282,30.6189,武汉市,汉口花桥,细颗粒物(PM2.5),74,78,91,54,65,119,42,61,48,47,51,18,14,1.9,1.3
2023-01-31T07:00:00,1328A,114.3025,30.5332,武汉市,武昌紫阳,细颗粒物(PM2.5),72,78,86,52,66,115,11,17,11,72,64,13,11,2.2,1.6
2023-01-31T07:00:00,1329A,114.3646,30.6217,武汉市,青山钢花,细颗粒物(PM2.5),77,79,101,56,73,137,38,48,40,61,52,16,17,0.9,1.2
2023-01-31T07:00:00,1330A,114.1566,30.4825,武汉市,沌口新区,细颗粒物(PM2.5),89,76,91,66,77,115,14,50,35,72,51,25,22,1.2,1.2
2023-01-31T07:00:00,1331A,114.3014,30.5944,武汉市,汉口江滩,细颗粒物(PM2.5),69,84,95,50,67,126,41,63,43,48,43,19,15,1.6,1.2
2023-01-31T07:00:00,1333A,114.135,30.6319,武汉市,吴家山,细颗粒物(PM2.5),70,75,88,51,64,118,17,31,28,78,67,10,11,1.4,1.1
2023-01-31T07:00:00,1334A,113.8454,30.2917,武汉市,沉湖七壕,细颗粒物(PM2.5),72,69,77,52,54,125,48,51,50,23,27,11,12,1.0,0.9
2023-01-31T07:00:00,1335A,113.0833,28.2325,长沙市,经开区环保局,细颗粒物(PM2.5),63,59,64,45,44,128,65,85,77,16,16,7,6,0.6,0.6
2023-01-31T07:00:00,1336A,112.8872,28.2189,长沙市,高开区环保局,"颗粒物(PM10),细颗粒物(PM2.5)",54,57,67,38,49,131,66,72,70,19,21,11,12,0.7,0.8
2023-01-31T07:00:00,1337A,113.0792,28.2053,长沙市,马坡岭,细颗粒物(PM2.5),62,55,71,44,44,136,59,74,71,19,18,12,9,0.7,0.6
2023-01-31T07:00:00,1338A,112.9394,28.19,长沙市,湖南师范大学,细颗粒物(PM2.5),54,50,69,38,45,118,52,51,51,21,26,8,9,0.5,0.5
2023-01-31T07:00:00,1339A,113.0178,28.1322,长沙市,雨花区环保局,细颗粒物(PM2.5),53,50,62,37,45,125,63,78,71,17,20,7,7,0.7,0.6
2023-01-31T07:00:00,1340A,112.9792,28.2597,长沙市,伍家岭,颗粒物(PM10),55,59,81,22,51,123,52,47,47,37,43,8,8,0.5,0.6
2023-01-31T07:00:00,1341A,113.0014,28.1944,长沙市,火车新站,细颗粒物(PM2.5),55,53,73,39,47,109,50,55,54,28,41,9,9,0.7,0.8
2023-01-31T07:00:00,1342A,112.9844,28.1178,长沙市,天心区环保局,细颗粒物(PM2.5),55,49,66,39,41,130,47,72,63,38,34,10,11,0.5,0.6
2023-01-31T07:00:00,1343A,112.8908,28.1308,长沙市,湖南中医药大学,细颗粒物(PM2.5),57,62,88,40,48,130,8,6,6,61,52,6,8,0.9,1
2023-01-31T07:00:00,1344A,112.9581,28.3611,长沙市,沙坪,,49,49,62,33,35,124,70,73,71,18,22,8,7,0.6,0.6
2023-01-31T07:00:00,1345A,113.2347,23.1423,广州市,广雅中学,细颗粒物(PM2.5),69,79,72,50,43,107,9,5,5,73,60,6,5,0.6,0.7
2023-01-31T07:00:00,1346A,113.2612,23.105,广州市,市五中,细颗粒物(PM2.5),67,69,69,48,48,110,14,13,13,70,48,8,7,0.8,0.9
2023-01-31T07:00:00,1348A,113.3478,23.0916,广州市,广东商学院,细颗粒物(PM2.5),62,65,58,44,38,113,5,32,24,76,43,6,6,0.8,0.7
2023-01-31T07:00:00,1349A,113.4332,23.1047,广州市,市八十六中,细颗粒物(PM2.5),73,88,72,53,43,120,3,18,5,72,54,5,4,0.9,0.7
2023-01-31T07:00:00,1350A,113.3505,22.9483,广州市,番禺中学,"颗粒物(PM10),细颗粒物(PM2.5)",64,77,67,46,41,120,10,31,25,77,48,8,6,0.8,0.7
2023-01-31T07:00:00,1351A,113.2146,23.3916,广州市,花都师范,细颗粒物(PM2.5),65,72,67,47,44,128,4,16,8,73,43,6,6,0.8,0.9
2023-01-31T07:00:00,1352A,113.2597,23.1331,广州市,市监测站,细颗粒物(PM2.5),64,71,65,46,42,107,4,5,4,79,60,6,6,0.9,1
2023-01-31T07:00:00,1353A,113.5618,23.312,广州市,九龙镇镇龙,细颗粒物(PM2.5),52,49,48,36,31,104,1,2,1,43,32,4,5,0.9,0.8
2023-01-31T07:00:00,1354A,113.2765,23.1544,广州市,麓湖,细颗粒物(PM2.5),62,70,56,44,33,112,4,4,4,72,54,4,5,0.6,0.5
2023-01-31T07:00:00,1355A,113.443,23.3035,广州市,帽峰山森林公园,,40,40,47,22,27,114,64,72,52,16,14,5,6,0.7,0.7
2023-01-31T07:00:00,1356A,114.1063,22.5545,深圳市,通心岭子站,,35,35,37,20,22,105,61,82,67,15,15,3,4,0.6,0.7
2023-01-31T07:00:00,1357A,114.117,22.5625,深圳市,洪湖,,44,44,43,20,22,117,7,87,51,60,22,7,8,0.6,0.3
2023-01-31T07:00:00,1358A,113.987,22.5417,深圳市,华侨城,,38,38,47,20,31,106,70,81,77,17,35,4,5,0.5,0.5
2023-01-31T07:00:00,1359A,113.9181,22.5171,深圳市,南海子站,,,38,50,18,27,107,79,88,86,18,32,5,6,,0.6
2023-01-31T07:00:00,1360A,114.2458,22.5689,深圳市,盐田,,32,32,32,18,19,102,62,81,70,14,19,5,6,0.5,0.5
2023-01-31T07:00:00,1361A,114.2283,22.7244,深圳市,龙岗,,47,47,44,27,24,125,65,87,77,11,13,3,4,0.8,0.7
2023-01-31T07:00:00,1363A,114.494,22.5422,深圳市,南澳,,39,36,35,27,21,126,82,93,91,9,12,3,3,0.7,0.7
2023-01-31T07:00:00,1364A,114.41,22.6342,深圳市,葵涌,,36,36,38,22,22,119,64,82,74,11,10,6,7,0.6,0.6
2023-01-31T07:00:00,1365A,114.297,22.5978,深圳市,梅沙,,33,33,38,18,20,122,95,100,95,8,8,4,4,0.7,0.7
2023-01-31T07:00:00,1366A,114.0678,22.738,深圳市,观澜,颗粒物(PM10),53,55,62,30,33,125,34,32,30,27,29,5,5,0.6,0.6
2023-01-31T07:00:00,1367A,113.5814,22.2618,珠海市,吉大,,42,42,46,20,24,115,88,80,80,15,19,8,8,0.4,0.4
2023-01-31T07:00:00,1368A,113.4881,22.2335,珠海市,前山,,32,32,46,15,21,105,80,79,79,20,25,4,5,0.4,0.5
2023-01-31T07:00:00,1369A,113.628,22.4251,珠海市,唐家,,40,40,43,17,23,119,90,86,86,13,18,8,9,0.4,0.5
2023-01-31T07:00:00,1370A,113.299,22.2281,珠海市,斗门,,33,33,47,19,31,126,80,74,74,16,22,2,4,0.4,0.5
2023-01-31T07:00:00,1371A,113.1294,23.0067,佛山市,湾梁,细颗粒物(PM2.5),55,48,54,39,36,117,23,53,38,60,39,5,6,0.7,0.7
2023-01-31T07:00:00,1372A,113.1083,23.0478,佛山市,华材职中,细颗粒物(PM2.5),53,48,51,37,41,115,28,48,43,42,40,9,9,0.5,0.6
2023-01-31T07:00:00,1373A,113.144,23.0453,佛山市,南海气象局,细颗粒物(PM2.5),57,42,52,40,39,102,9,27,24,66,39,5,5,0.6,0.6
2023-01-31T07:00:00,1374A,113.2881,22.8094,佛山市,顺德苏岗,,45,40,41,31,28,115,8,41,28,68,35,6,7,0.8,0.7
2023-01-31T07:00:00,1376A,112.8383,22.8678,佛山市,高明孔堂,颗粒物(PM10),51,52,50,31,34,116,35,72,42,36,18,4,4,0.6,0.5
2023-01-31T07:00:00,1377A,112.8836,23.1588,佛山市,三水监测站,细颗粒物(PM2.5),73,63,56,53,41,114,2,6,3,75,50,4,5,0.8,0.7
2023-01-31T07:00:00,1378A,112.867,23.185,佛山市,三水云东海,细颗粒物(PM2.5),70,70,40,51,32,112,2,13,4,55,38,4,5,0.7,0.6
2023-01-31T07:00:00,1379A,113.3769,22.5211,中山市,华柏园,,39,20,49,27,34,119,72,71,71,22,31,5,7,0.3,0.5
2023-01-31T07:00:00,1380A,113.3881,22.5497,中山市,张溪,,41,41,48,24,32,123,71,80,73,20,26,4,5,0.4,0.4
2023-01-31T07:00:00,1381A,113.4075,22.5111,中山市,紫马岭,,36,36,46,18,27,120,80,91,81,13,19,4,4,0.3,0.4
2023-01-31T07:00:00,1382A,113.4411,22.4853,中山市,长江旅游区,,,,,,,,,,,,,,,,
2023-01-31T07:00:00,1383A,113.1064,22.6058,江门市,北街,,45,41,48,31,32,118,42,77,61,34,26,7,8,0.5,0.6
2023-01-31T07:00:00,1384A,113.0731,22.5835,江门市,西区,细颗粒物(PM2.5),64,50,60,46,36,121,42,83,63,41,32,7,8,0.4,0.5
2023-01-31T07:00:00,1385A,113.0219,22.5311,江门市,圭峰西,,40,40,45,24,29,116,65,97,85,25,23,3,4,0.7,0.7
2023-01-31T07:00:00,1386A,113.0828,22.5947,江门市,东湖,细颗粒物(PM2.5),64,47,55,46,38,121,35,74,57,32,25,6,7,0.5,0.5
2023-01-31T07:00:00,1389A,113.7547,23.0494,东莞市,莞城梨川,颗粒物(PM10),53,55,53,34,35,132,57,43,43,24,30,9,10,0.6,0.6
2023-01-31T07:00:00,1390A,113.7944,23.0128,东莞市,东城石井,颗粒物(PM10),54,57,47,36,28,134,20,51,36,36,19,5,6,0.5,0.4
2023-01-31T07:00:00,1391A,113.7383,22.9658,东莞市,南城西平,颗粒物(PM10),56,62,53,30,30,130,38,42,42,38,31,8,10,0.6,0.5
2023-01-31T07:00:00,1392A,114.4183,23.0528,惠州市,河南岸金山湖子站,,37,37,44,22,27,101,52,55,52,11,15,4,4,0.7,0.7
2023-01-31T07:00:00,1393A,114.4053,23.0822,惠州市,下埔横江三路子站,,,36,47,23,28,111,72,76,65,,24,3,4,0.7,0.8
2023-01-31T07:00:00,1394A,114.4103,23.1142,惠州市,江北云山西路子站,,40,30,45,28,29,118,59,91,79,13,15,4,5,0.6,0.6
2023-01-31T07:00:00,1395A,114.4645,22.7833,惠州市,惠阳区承修路船湖子站,,48,48,50,33,33,125,50,100,68,18,15,4,5,0.7,0.7
2023-01-31T07:00:00,1396A,114.5317,22.7422,惠州市,大亚湾管委会子站,,35,25,46,24,25,110,31,88,69,40,21,5,5,0.8,0.7
2023-01-31T07:00:00,1397A,112.4267,23.0706,肇庆市,睦岗子站,,47,47,54,30,32,111,14,26,15,41,47,8,9,0.4,0.5
2023-01-31T07:00:00,1398A,112.4645,23.0475,肇庆市,城中子站,颗粒物(PM10),53,55,53,35,32,122,4,15,8,60,43,9,9,0.6,0.5
2023-01-31T07:00:00,1399A,112.5544,23.1522,肇庆市,坑口子站,,40,40,40,28,26,117,38,75,49,34,20,8,9,0.1,0.2
2023-01-31T07:00:00,1400A,112.4753,23.1,肇庆市,七星岩子站,,48,48,45,29,26,116,58,68,53,22,16,6,5,0.6,0.6
2023-01-31T07:00:00,1401A,108.3103,22.7881,南宁市,二十一中,细颗粒物(PM2.5),90,74,91,67,66,152,40,68,61,37,28,9,10,1.1,1
2023-01-31T07:00:00,1402A,108.3141,22.8528,南宁市,北湖,细颗粒物(PM2.5),99,88,103,74,79,155,6,12,11,44,41,13,11,1.0,1
2023-01-31T07:00:00,1403A,108.3206,22.8225,南宁市,市监测站,细颗粒物(PM2.5),97,84,99,72,74,154,59,63,52,37,41,14,11,1.2,1.1
2023-01-31T07:00:00,1404A,108.3829,22.8037,南宁市,大自然花园,细颗粒物(PM2.5),89,81,86,66,64,152,38,79,51,37,30,6,8,1.0,1
2023-01-31T07:00:00,1405A,108.4394,22.7904,南宁市,仙葫,细颗粒物(PM2.5),103,89,93,77,72,141,6,56,20,60,35,9,10,0.9,0.8
2023-01-31T07:00:00,1406A,108.2397,22.8467,南宁市,区农职院,细颗粒物(PM2.5),90,90,85,67,57,143,29,44,37,41,37,27,11,1.1,0.9
2023-01-31T07:00:00,1407A,108.3275,22.735,南宁市,英华嘉园,细颗粒物(PM2.5),108,83,97,81,76,130,25,60,41,52,44,8,9,1.1,1
2023-01-31T07:00:00,1408A,108.2257,22.7757,南宁市,沙井镇街道办,细颗粒物(PM2.5),102,92,95,76,67,138,25,31,30,52,43,9,10,1.1,1
2023-01-31T07:00:00,1409A,110.576,19.9507,海口市,东寨港,,,32,39,33,25,88,40,50,41,,,6,6,0.6,0.6
2023-01-31T07:00:00,1410A,110.3232,20.0574,海口市,海南大学,,44,44,55,26,29,129,83,111,94,13,12,4,5,0.6,0.6
2023-01-31T07:00:00,1411A,110.283,20.0053,海口市,秀英海南医院,,49,49,53,32,28,131,25,107,63,54,21,6,6,0.9,0.6
2023-01-31T07:00:00,1412A,110.338,19.9969,海口市,海南师范大学,,45,45,53,24,26,139,84,116,96,16,12,2,3,0.7,0.6
2023-01-31T07:00:00,1413A,110.33,20.0356,海口市,龙华路环保局宿舍,,46,46,52,25,28,126,71,108,86,13,13,5,5,0.8,0.7
2023-01-31T07:00:00,1414A,106.3787,29.8279,重庆市,缙云山,细颗粒物(PM2.5),67,76,83,48,50,143,123,126,125,23,26,5,7,0.5,0.6
2023-01-31T07:00:00,1416A,106.4213,29.8253,重庆市,天生,细颗粒物(PM2.5),113,100,105,85,79,134,11,32,22,40,35,5,8,0.8,0.8
2023-01-31T07:00:00,1417A,106.6263,29.7228,重庆市,两路,细颗粒物(PM2.5),99,122,96,74,63,111,7,52,30,84,47,12,11,1.4,1
2023-01-31T07:00:00,1418A,106.2953,29.5983,重庆市,虎溪,细颗粒物(PM2.5),118,104,94,89,81,108,20,9,9,42,44,5,7,0.6,0.7
2023-01-31T07:00:00,1419A,106.5777,29.5102,重庆市,南坪,细颗粒物(PM2.5),119,116,97,90,65,100,57,78,67,24,48,10,9,1.1,1.1
2023-01-31T07:00:00,1420A,106.6556,29.6277,重庆市,唐家沱,细颗粒物(PM2.5),97,100,97,72,66,127,7,8,7,62,63,4,6,0.5,0.5
2023-01-31T07:00:00,1421A,106.6349,29.4906,重庆市,茶园,细颗粒物(PM2.5),118,123,102,89,67,96,27,47,43,43,53,5,6,0.9,0.9
2023-01-31T07:00:00,1422A,106.3754,29.4572,重庆市,白市驿,细颗粒物(PM2.5),156,116,104,119,73,125,87,106,88,17,30,11,11,0.8,0.7
2023-01-31T07:00:00,1425A,106.6205,29.7166,重庆市,空港,细颗粒物(PM2.5),133,125,103,101,68,113,5,36,16,67,42,9,8,1.3,0.9
2023-01-31T07:00:00,1426A,106.4782,29.4875,重庆市,新山村,细颗粒物(PM2.5),114,127,106,86,66,100,8,6,6,70,81,15,11,0.8,1
2023-01-31T07:00:00,1427A,106.5616,29.6453,重庆市,礼嘉,细颗粒物(PM2.5),103,148,123,77,67,120,4,16,6,105,76,10,8,1.1,0.8
2023-01-31T07:00:00,1428A,106.4522,29.7091,重庆市,蔡家,细颗粒物(PM2.5),107,117,103,80,65,128,9,16,15,43,43,6,7,1.0,1
2023-01-31T07:00:00,1429A,106.5093,29.3917,重庆市,鱼新街,细颗粒物(PM2.5),89,95,97,66,65,105,14,11,11,50,62,8,10,1.3,1.5
2023-01-31T07:00:00,1431A,103.9728,30.7236,成都市,金泉两河,细颗粒物(PM2.5),153,136,121,117,92,119,0,0,0,45,57,3,3,1.1,1.2
2023-01-31T07:00:00,1432A,104.176,30.6872,成都市,十里店,细颗粒物(PM2.5),140,140,122,107,90,122,0,22,11,81,55,2,2,1.1,0.9
2023-01-31T07:00:00,1433A,104.079,30.5706,成都市,三瓦窑,细颗粒物(PM2.5),179,173,139,135,94,114,0,0,0,70,73,4,4,1.3,1.2
2023-01-31T07:00:00,1434A,104.1114,30.63,成都市,沙河铺,细颗粒物(PM2.5),147,137,139,112,98,115,1,1,1,62,55,3,3,1.4,1.2
2023-01-31T07:00:00,1437A,104.0786,30.6531,成都市,君平街,细颗粒物(PM2.5),188,172,143,141,110,114,2,3,2,78,72,3,3,1.3,1.1
2023-01-31T07:00:00,1438A,103.613,31.0283,成都市,灵岩寺,细颗粒物(PM2.5),82,96,99,60,61,142,97,114,110,13,15,22,13,0.8,0.7
2023-01-31T07:00:00,1439A,106.6899,26.5998,贵阳市,马鞍山,细颗粒物(PM2.5),92,80,78,68,64,123,57,70,66,17,23,8,15,0.8,0.8
2023-01-31T07:00:00,1440A,106.6971,26.5694,贵阳市,市环保站,细颗粒物(PM2.5),124,100,90,94,75,113,26,59,54,58,38,21,25,1.0,0.9
2023-01-31T07:00:00,1441A,106.6243,26.6266,贵阳市,鉴湖路,细颗粒物(PM2.5),94,97,86,70,57,126,98,94,94,16,23,12,15,0.7,0.7
2023-01-31T07:00:00,1442A,106.7487,26.6343,贵阳市,燕子冲,细颗粒物(PM2.5),104,92,86,78,71,124,66,64,63,22,25,13,16,0.8,0.8
2023-01-31T07:00:00,1443A,106.6555,26.4365,贵阳市,碧云窝,细颗粒物(PM2.5),113,95,90,85,63,132,62,92,85,14,17,14,19,0.8,0.9
2023-01-31T07:00:00,1444A,106.694,26.5161,贵阳市,中院村,细颗粒物(PM2.5),107,107,104,80,72,109,8,57,42,61,36,47,29,1.3,0.9
2023-01-31T07:00:00,1445A,106.7109,26.6027,贵阳市,红边门,细颗粒物(PM2.5),113,100,97,85,79,113,45,69,65,46,44,19,22,1.2,1.1
2023-01-31T07:00:00,1446A,106.7164,26.5699,贵阳市,新华路,细颗粒物(PM2.5),92,105,120,68,69,121,61,53,52,32,41,19,27,0.8,0.9
2023-01-31T07:00:00,1447A,106.674,26.5424,贵阳市,太慈桥,细颗粒物(PM2.5),110,105,94,83,60,134,53,87,78,24,22,6,17,0.7,0.7
2023-01-31T07:00:00,1450A,102.8204,24.8886,昆明市,呈贡新区,细颗粒物(PM2.5),80,58,75,59,75,126,37,63,53,28,25,9,10,0.9,1
2023-01-31T07:00:00,1451A,102.6251,24.9608,昆明市,西山森林公园,细颗粒物(PM2.5),72,75,44,52,42,126,69,89,76,20,15,12,11,1.2,1
2023-01-31T07:00:00,1452A,102.7252,25.0902,昆明市,龙泉镇,细颗粒物(PM2.5),104,81,66,78,55,127,5,5,5,37,45,5,9,1.5,1.3
2023-01-31T07:00:00,1453A,102.7266,25.0375,昆明市,东风东路,细颗粒物(PM2.5),142,123,95,108,87,121,0,52,13,53,49,10,14,2.0,1.5
2023-01-31T07:00:00,1454A,102.6742,25.0669,昆明市,金鼎山,细颗粒物(PM2.5),103,75,67,77,55,129,25,16,16,26,30,9,13,0.9,0.9
2023-01-31T07:00:00,1455A,102.6644,25.0401,昆明市,碧鸡广场,细颗粒物(PM2.5),99,84,61,74,48,126,29,32,31,29,31,5,8,1.1,1.1
2023-01-31T07:00:00,1456A,91.1319,29.6514,拉萨市,八廓街,,13,13,29,0,13,93,32,24,24,8,15,5,6,0.3,0.6
2023-01-31T07:00:00,1457A,91.1221,29.6747,拉萨市,市环保局,,17,17,38,8,23,93,24,22,20,20,30,5,7,0.7,1.2
2023-01-31T07:00:00,1458A,91.0874,29.6475,拉萨市,区监测站,,16,16,24,9,14,97,37,28,28,14,18,6,6,0.6,0.5
2023-01-31T07:00:00,1459A,91.1774,29.6541,拉萨市,西藏大学,,13,8,19,4,11,97,39,36,36,10,17,5,6,0.3,0.4
2023-01-31T07:00:00,1460A,90.9798,29.6588,拉萨市,区辐射站,,13,11,34,4,22,99,39,36,36,18,28,6,8,0.4,0.6
2023-01-31T07:00:00,1461A,91.0834,29.6292,拉萨市,拉萨火车站,,16,16,21,8,13,94,21,49,45,30,21,8,8,0.7,0.6
2023-01-31T07:00:00,1462A,108.882,34.2749,西安市,高压开关厂,细颗粒物(PM2.5),238,208,157,188,116,102,8,8,8,74,85,17,18,1.5,1.5
2023-01-31T07:00:00,1463A,108.993,34.2629,西安市,兴庆小区,细颗粒物(PM2.5),142,124,116,108,97,96,8,17,13,75,69,11,13,1.1,1.1
2023-01-31T07:00:00,1464A,109.06,34.2572,西安市,纺织城,细颗粒物(PM2.5),125,153,131,95,94,93,3,4,4,61,67,11,15,0.9,1.1
2023-01-31T07:00:00,1465A,108.9356,34.2173,西安市,小寨,细颗粒物(PM2.5),188,194,145,141,99,103,7,4,4,69,74,12,13,1.1,1.2
2023-01-31T07:00:00,1466A,108.954,34.2713,西安市,市人民体育场,细颗粒物(PM2.5),216,187,140,166,106,85,10,10,9,82,96,11,12,1.4,1.5
2023-01-31T07:00:00,1467A,108.8922,34.2322,西安市,高新西区,细颗粒物(PM2.5),230,186,145,180,112,115,16,14,14,77,74,12,12,1.4,1.3
2023-01-31T07:00:00,1468A,108.935,34.3474,西安市,经开区,细颗粒物(PM2.5),249,203,121,199,100,80,8,7,7,73,65,14,13,1.7,1.2
2023-01-31T07:00:00,1469A,108.906,34.1546,西安市,长安区,细颗粒物(PM2.5),149,141,139,114,101,114,8,11,9,55,56,10,12,1.2,1.1
2023-01-31T07:00:00,1471A,109.2186,34.3731,西安市,临潼区,细颗粒物(PM2.5),120,98,127,91,94,98,6,12,8,72,64,13,17,1.8,1.6
2023-01-31T07:00:00,1472A,108.869,34.378,西安市,草滩,细颗粒物(PM2.5),135,192,116,103,63,69,12,10,8,68,54,3,20,1.1,0.5
2023-01-31T07:00:00,1473A,108.985,34.1978,西安市,曲江文化产业集团,细颗粒物(PM2.5),178,185,142,134,98,107,6,10,8,79,77,9,11,1.1,1
2023-01-31T07:00:00,1474A,109.051,34.3213,西安市,广运潭,细颗粒物(PM2.5),113,107,114,85,84,100,5,4,4,59,54,10,12,1.1,1.1
2023-01-31T07:00:00,1476A,103.631,36.1031,兰州市,兰炼宾馆,颗粒物(PM10),86,121,154,63,90,175,5,5,5,55,89,35,38,1.4,2
2023-01-31T07:00:00,1477A,104.1373,35.9454,兰州市,榆中兰大校区,,,,,,,,,,,,,,,,
2023-01-31T07:00:00,1478A,103.8412,36.0726,兰州市,生物制品所,颗粒物(PM10),86,122,142,49,74,62,5,5,5,68,93,16,20,1.4,2.2
2023-01-31T07:00:00,1479A,103.831,36.0464,兰州市,铁路设计院,细颗粒物(PM2.5),107,160,165,80,99,41,7,8,8,77,110,33,35,3.3,2.9
2023-01-31T07:00:00,1483A,101.524,36.6867,西宁市,第五水厂,,,,,,,,,,,,,,,,
2023-01-31T07:00:00,1484A,105.9512,38.6016,银川市,贺兰山马莲口,,22,22,32,12,20,87,69,85,80,19,20,34,24,0.9,0.8
2023-01-31T07:00:00,1488A,106.2328,38.4975,银川市,贺兰山东路,细颗粒物(PM2.5),120,144,107,91,67,95,11,14,12,86,66,30,30,2.9,1.7
2023-01-31T07:00:00,1489A,106.1358,38.5036,银川市,学院路,细颗粒物(PM2.5),95,128,98,71,50,96,6,12,7,89,66,26,29,2.0,1.6
2023-01-31T07:00:00,1490A,87.5801,43.8303,乌鲁木齐市,监测站,细颗粒物(PM2.5),260,298,189,210,119,71,5,5,5,103,100,2,5,2.1,1.9
2023-01-31T07:00:00,1491A,87.6046,43.768,乌鲁木齐市,收费所,细颗粒物(PM2.5),285,376,231,235,119,73,3,4,4,110,97,4,6,2.2,1.5
2023-01-31T07:00:00,1492A,87.4754,43.9469,乌鲁木齐市,新疆农科院农场,细颗粒物(PM2.5),313,248,198,263,198,100,5,80,55,87,61,6,7,2.9,2.6
2023-01-31T07:00:00,1493A,87.5525,43.8711,乌鲁木齐市,铁路局,细颗粒物(PM2.5),290,267,205,240,172,63,29,30,30,73,98,1,4,2.0,2
2023-01-31T07:00:00,1494A,87.6432,43.831,乌鲁木齐市,三十一中学,细颗粒物(PM2.5),290,312,184,240,121,76,6,9,8,101,84,5,8,2.2,1.6
2023-01-31T07:00:00,1496A,87.7216,44.1747,乌鲁木齐市,米东区环保局,细颗粒物(PM2.5),277,274,254,227,209,121,70,99,79,49,57,13,12,2.3,1.9
2023-01-31T07:00:00,1508A,112.9433,27.8614,湘潭市,板塘,细颗粒物(PM2.5),62,65,74,44,43,105,40,54,50,25,18,20,11,1.5,0.8
2023-01-31T07:00:00,1511A,112.9118,27.8403,湘潭市,市监测站,颗粒物(PM10),55,60,80,36,44,118,57,74,68,24,30,15,12,1.3,1.1
2023-01-31T07:00:00,1512A,112.8937,27.8728,湘潭市,江麓,颗粒物(PM10),56,61,80,32,46,126,56,72,67,29,33,17,16,1.2,1.1
2023-01-31T07:00:00,1513A,112.9227,27.8159,湘潭市,岳塘,细颗粒物(PM2.5),54,56,84,38,48,116,49,59,55,27,32,19,12,1.2,0.9
2023-01-31T07:00:00,1514A,112.9074,27.9119,湘潭市,科大,颗粒物(PM10),55,60,76,37,45,132,66,70,66,19,23,27,24,1.7,1.5
2023-01-31T07:00:00,1515A,113.135,27.8244,株洲市,天台山庄,颗粒物(PM10),54,58,68,36,47,117,50,40,40,21,29,11,10,1.1,1
2023-01-31T07:00:00,1518A,113.095,27.8867,株洲市,株冶医院,细颗粒物(PM2.5),67,67,75,48,49,120,28,43,35,46,37,10,10,0.9,0.9
2023-01-31T07:00:00,1519A,113.167,27.8667,株洲市,市四中,细颗粒物(PM2.5),55,58,67,39,46,116,36,49,45,28,23,9,9,1.0,0.9
2023-01-31T07:00:00,1520A,113.143,27.8381,株洲市,火车站,颗粒物(PM10),57,63,72,39,47,115,57,40,40,21,26,13,11,1.0,1
2023-01-31T07:00:00,1524A,113.13,27.8528,株洲市,市监测站,细颗粒物(PM2.5),67,63,79,48,57,121,56,30,30,17,32,13,12,1.2,1.2
2023-01-31T07:00:00,1552A,106.805,26.3003,贵阳市,桐木岭,,,,,,,,,,,,,,,,
2023-01-31T07:00:00,1559A,113.251,27.8336,株洲市,大京风景区,细颗粒物(PM2.5),53,48,60,37,41,116,22,35,28,6,7,4,5,0.7,0.7
2023-01-31T07:00:00,1562A,113.0048,27.9153,湘潭市,昭山,细颗粒物(PM2.5),63,71,80,45,48,120,54,40,40,30,34,10,6,1.1,1
2023-01-31T07:00:00,1564A,112.4876,27.9164,湘潭市,韶山,,49,49,82,17,36,126,50,58,56,11,22,7,9,0.8,0.9
2023-01-31T07:00:00,1585A,109.8756,40.6532,包头市,市环境监测站,,36,36,58,15,29,66,27,42,37,42,52,12,25,0.7,1.4
2023-01-31T07:00:00,1587A,109.9991,40.5842,包头市,包头八中,颗粒物(PM10),53,56,81,21,38,68,6,16,5,70,66,30,33,1.2,1.4
2023-01-31T07:00:00,1588A,109.8538,40.6821,包头市,青山宾馆,,38,38,59,14,33,67,51,47,45,21,44,6,20,0.6,1.2
2023-01-31T07:00:00,1589A,109.8642,40.6288,包头市,惠龙物流,,45,45,76,27,44,64,14,34,29,53,63,13,29,0.8,1.8
2023-01-31T07:00:00,1590A,110.0377,40.5546,包头市,东河鸿龙湾,颗粒物(PM10),65,80,84,30,38,70,4,8,4,64,56,19,24,1.4,1.6
2023-01-31T07:00:00,1591A,110.0023,39.8129,鄂尔多斯市,综合楼,,24,19,57,2,22,88,74,66,66,15,36,10,17,0.5,0.9
2023-01-31T07:00:00,1592A,109.9486,39.8261,鄂尔多斯市,巴音孟克林场办事处,,23,19,42,9,19,96,72,77,76,15,27,9,14,0.6,0.8
2023-01-31T07:00:00,1593A,109.7736,39.5986,鄂尔多斯市,康泽苑,,24,24,37,7,12,90,30,48,42,26,26,5,8,0.7,0.8
2023-01-31T07:00:00,1594A,109.8119,39.5989,鄂尔多斯市,华泰汽车城,,39,39,37,22,19,97,7,24,20,44,29,7,9,0.9,0.7
2023-01-31T07:00:00,1595A,109.9734,39.7884,鄂尔多斯市,奥林花园,,34,34,54,9,20,92,80,66,66,10,36,8,15,0.5,0.7
2023-01-31T07:00:00,1596A,122.2414,40.6592,营口市,学府南路,,,,,,,,,,,,,,,,
2023-01-31T07:00:00,1597A,122.2703,40.7094,营口市,大庆路,细颗粒物(PM2.5),70,84,67,51,38,77,27,58,50,44,27,12,18,1.2,1.1
2023-01-31T07:00:00,1598A,122.2150,40.6511,营口市,镜湖西路,颗粒物(PM10),62,74,70,28,27,82,40,57,53,24,21,8,13,0.6,0.8
2023-01-31T07:00:00,1599A,122.1658,40.6789,营口市,西炮台,颗粒物(PM10),59,67,65,30,38,84,55,54,54,22,29,8,30,0.3,0.5
2023-01-31T07:00:00,1600A,124.3303,40.0625,丹东市,江湾东路,细颗粒物(PM2.5),78,90,58,57,36,76,16,41,36,38,21,26,21,2.0,1.3
2023-01-31T07:00:00,1601A,124.4256,40.1503,丹东市,临江后街,,46,46,55,25,30,75,20,49,35,42,21,45,19,1.1,1.1
2023-01-31T07:00:00,1602A,124.3933,40.1461,丹东市,元宝山,,47,47,49,23,27,68,28,42,35,28,21,23,20,1.0,0.9
2023-01-31T07:00:00,1603A,124.3633,40.1092,丹东市,民主桥,颗粒物(PM10),54,57,55,31,30,71,19,39,35,50,26,14,16,1.1,1.1
2023-01-31T07:00:00,1604A,122.0303,41.1489,盘锦市,开发区,颗粒物(PM10),54,57,62,35,34,77,18,15,15,46,36,10,16,1.0,1.1
2023-01-31T07:00:00,1605A,122.0485,41.0883,盘锦市,兴隆台,颗粒物(PM10),58,66,59,33,31,75,13,20,19,58,43,10,17,1.2,1.2
2023-01-31T07:00:00,1606A,121.8297,41.1028,盘锦市,新生街道,细颗粒物(PM2.5),55,58,49,39,26,78,7,41,26,56,35,8,14,1.2,0.8
2023-01-31T07:00:00,1607A,120.9092,40.7136,葫芦岛市,龙港区,细颗粒物(PM2.5),109,139,81,82,48,68,6,50,28,50,26,81,30,1.4,0.9
2023-01-31T07:00:00,1608A,120.8392,40.7514,葫芦岛市,化工街,颗粒物(PM10),81,112,86,56,39,59,4,29,9,61,45,18,20,0.9,0.8
2023-01-31T07:00:00,1609A,120.8341,40.7073,葫芦岛市,新区,细颗粒物(PM2.5),105,118,69,79,38,64,7,40,19,59,38,37,18,1.5,1
2023-01-31T07:00:00,1610A,120.8695,40.7677,葫芦岛市,东城区,"颗粒物(PM10),细颗粒物(PM2.5)",77,103,81,56,40,68,8,8,8,48,46,22,23,1.3,1.1
2023-01-31T07:00:00,1611A,118.5819,24.9117,泉州市,涂山街,,49,49,60,34,41,132,59,87,67,10,13,8,9,0.7,0.6
2023-01-31T07:00:00,1612A,118.5972,24.8978,泉州市,津头埔,细颗粒物(PM2.5),53,49,60,37,40,133,60,99,71,14,17,8,10,0.6,0.6
2023-01-31T07:00:00,1613A,118.6663,24.9424,泉州市,万安,,47,47,50,30,32,133,74,99,87,10,13,7,9,0.7,0.6
2023-01-31T07:00:00,1614A,118.6117,24.9604,泉州市,清源山,,,,,,,,,,,,,,,,
2023-01-31T07:00:00,1616A,117.6795,36.229,济南市,技术学院,细颗粒物(PM2.5),123,124,124,93,74,122,59,68,66,49,47,15,20,1.3,1.1
2023-01-31T07:00:00,1618A,118.3429,35.0532,临沂市,沂河小区,细颗粒物(PM2.5),175,153,134,132,93,131,38,83,54,47,31,53,26,1.3,1
2023-01-31T07:00:00,1619A,118.295,35.0583,临沂市,鲁南制药厂,细颗粒物(PM2.5),175,173,145,132,89,133,21,88,53,77,46,63,38,1.7,0.8
2023-01-31T07:00:00,1620A,118.2794,34.9976,临沂市,新光毛纺厂,细颗粒物(PM2.5),168,166,141,127,90,133,34,72,51,70,41,45,28,1.1,1
2023-01-31T07:00:00,1621A,118.3956,35.0888,临沂市,河东保险公司,细颗粒物(PM2.5),193,166,134,145,94,141,28,48,44,51,40,13,22,1.3,1
2023-01-31T07:00:00,1622A,116.3032,37.4674,德州市,儿童乐园,细颗粒物(PM2.5),138,163,132,105,81,114,57,80,63,37,32,18,19,0.8,0.7
2023-01-31T07:00:00,1624A,116.2991,37.4451,德州市,监理站,细颗粒物(PM2.5),178,193,148,134,88,110,23,76,53,77,39,26,23,1.2,1
2023-01-31T07:00:00,1625A,115.9848,36.4372,聊城市,区政府,细颗粒物(PM2.5),117,146,147,88,83,119,54,73,64,31,28,24,23,0.6,0.6
2023-01-31T07:00:00,1628A,118.0062,37.3803,滨州市,市环保局,细颗粒物(PM2.5),138,156,125,105,72,102,26,40,36,68,49,25,21,1.2,1
2023-01-31T07:00:00,1629A,118.0018,37.3617,滨州市,第二水厂,细颗粒物(PM2.5),117,141,118,88,63,104,24,28,27,77,56,15,21,1.2,1
2023-01-31T07:00:00,1630A,117.9776,37.393,滨州市,北中新校,细颗粒物(PM2.5),124,145,116,94,63,97,33,59,39,64,54,50,22,0.9,0.8
2023-01-31T07:00:00,1631A,118.0414,36.8103,淄博市,人民公园,细颗粒物(PM2.5),104,107,113,78,64,108,67,85,79,42,40,12,17,0.9,0.9
2023-01-31T07:00:00,1633A,117.8525,36.4847,淄博市,双山,细颗粒物(PM2.5),90,105,110,67,58,116,68,98,87,33,23,21,21,1.4,1.1
2023-01-31T07:00:00,1634A,117.9592,36.6331,淄博市,气象站,细颗粒物(PM2.5),89,100,106,66,53,110,88,106,98,14,14,16,18,1.0,1.5
2023-01-31T07:00:00,1635A,118.3092,36.8194,淄博市,莆田园,细颗粒物(PM2.5),100,114,110,75,64,101,76,97,91,27,22,15,16,1.4,1.1
2023-01-31T07:00:00,1637A,117.558,34.8438,枣庄市,市中区政府,细颗粒物(PM2.5),144,183,170,110,95,139,35,55,40,60,54,18,24,0.9,0.8
2023-01-31T07:00:00,1638A,117.2852,34.7837,枣庄市,薛城环保局,细颗粒物(PM2.5),117,134,135,88,85,137,44,81,59,60,46,16,19,1.2,1
2023-01-31T07:00:00,1639A,117.5852,34.7745,枣庄市,峄城区政府,细颗粒物(PM2.5),163,193,165,124,95,142,7,14,10,72,54,17,18,1.2,0.9
2023-01-31T07:00:00,1640A,117.7276,34.5578,枣庄市,台儿庄区环保局,细颗粒物(PM2.5),153,173,187,117,97,134,30,36,33,51,55,12,15,1.3,1.1
2023-01-31T07:00:00,1641A,117.4518,35.0992,枣庄市,山亭区环保局,细颗粒物(PM2.5),95,95,104,71,67,134,45,99,74,36,30,16,18,0.9,0.9
2023-01-31T07:00:00,1642A,121.2514,37.5639,烟台市,开发区,细颗粒物(PM2.5),73,83,76,53,32,84,66,82,77,29,22,13,11,0.9,0.8
2023-01-31T07:00:00,1643A,121.3719,37.5433,烟台市,轴承厂,细颗粒物(PM2.5),70,78,68,51,26,98,73,98,87,22,9,6,6,0.6,0.5
2023-01-31T07:00:00,1644A,121.3181,37.5436,烟台市,西郊化工站,颗粒物(PM10),73,95,71,52,28,104,94,101,100,19,13,11,9,1.0,0.8
2023-01-31T07:00:00,1645A,121.4478,37.4822,烟台市,莱山环保局,颗粒物(PM10),68,85,71,47,26,95,87,88,88,19,13,15,12,1.0,0.9
2023-01-31T07:00:00,1646A,121.2611,37.4967,烟台市,福山环保局,细颗粒物(PM2.5),70,80,80,51,29,79,41,70,61,40,20,8,9,0.8,0.6
2023-01-31T07:00:00,1650A,119.1437,36.7023,潍坊市,环保局,细颗粒物(PM2.5),109,117,110,82,59,100,70,67,67,33,32,11,12,1.2,1.2
2023-01-31T07:00:00,1653A,116.6251,35.4302,济宁市,火炬城,细颗粒物(PM2.5),117,103,122,88,86,131,65,80,72,41,43,15,17,1.0,1
2023-01-31T07:00:00,1655A,116.5491,35.4042,济宁市,电化厂,细颗粒物(PM2.5),117,122,124,88,85,125,63,89,73,33,28,13,14,0.8,0.7
2023-01-31T07:00:00,1656A,117.1437,36.1937,泰安市,监测站,细颗粒物(PM2.5),139,124,124,106,88,123,35,62,51,53,37,10,15,1.2,1
2023-01-31T07:00:00,1657A,117.0885,36.2017,泰安市,人口学校,细颗粒物(PM2.5),114,119,112,86,66,124,14,109,67,80,32,14,17,1.1,0.8
2023-01-31T07:00:00,1658A,117.1089,36.1758,泰安市,电力学校,细颗粒物(PM2.5),169,166,134,128,85,123,5,8,6,82,60,17,24,1.9,1.4
2023-01-31T07:00:00,1659A,119.471,35.4209,日照市,监测站,细颗粒物(PM2.5),102,,119,76,57,89,2,1,1,54,55,14,15,1.6,1.2
2023-01-31T07:00:00,1660A,119.523,35.4216,日照市,市政府广场,细颗粒物(PM2.5),115,117,106,87,49,82,44,45,45,46,38,20,10,1.5,0.9
2023-01-31T07:00:00,1661A,119.5587,35.4044,日照市,港务局,细颗粒物(PM2.5),114,127,122,86,48,82,12,44,21,79,49,14,8,1.4,0.9
2023-01-31T07:00:00,1662A,122.1214,37.4236,威海市,华夏技校,细颗粒物(PM2.5),59,66,67,42,24,103,103,93,93,15,14,3,4,0.5,0.5
2023-01-31T07:00:00,1663A,122.0508,37.5236,威海市,山大分校,颗粒物(PM10),59,68,70,34,18,102,102,96,96,10,12,3,3,0.5,0.4
2023-01-31T07:00:00,1664A,122.1067,37.5072,威海市,市监测站,颗粒物(PM10),63,76,74,44,22,113,108,109,109,13,17,6,5,0.6,0.5
2023-01-31T07:00:00,1666A,118.6614,37.4309,东营市,市环保局,细颗粒物(PM2.5),119,134,113,90,60,111,56,44,44,43,38,22,26,1.0,0.9
2023-01-31T07:00:00,1669A,113.5824,24.7733,韶关市,市八中,,41,41,49,26,31,102,8,8,7,38,33,8,9,0.7,0.7
2023-01-31T07:00:00,1671A,113.5917,24.7972,韶关市,园林处,,46,31,44,32,31,103,8,15,12,31,27,8,9,0.4,0.5
2023-01-31T07:00:00,1672A,113.6735,24.7791,韶关市,韶关学院,,45,39,49,31,37,111,4,13,8,29,24,9,10,0.4,0.4
2023-01-31T07:00:00,1673A,113.5971,24.6863,韶关市,曲江监测站,颗粒物(PM10),57,63,53,38,36,100,12,23,16,32,31,12,20,1.6,1.3
2023-01-31T07:00:00,1674A,116.6794,23.3667,汕头市,金平子站,,45,42,47,31,27,116,52,100,79,24,16,13,12,0.8,0.7
2023-01-31T07:00:00,1675A,116.7244,23.3633,汕头市,龙湖子站,细颗粒物(PM2.5),52,46,42,36,22,121,61,104,85,22,16,12,12,0.7,0.7
2023-01-31T07:00:00,1676A,116.7258,23.2775,汕头市,濠江子站,,42,41,39,29,22,115,62,89,80,18,12,9,10,0.7,0.5
2023-01-31T07:00:00,1677A,116.7519,23.4714,汕头市,澄海子站,细颗粒物(PM2.5),52,34,43,36,28,123,60,105,81,16,16,4,6,0.6,0.6
2023-01-31T07:00:00,1678A,116.6092,23.2539,汕头市,潮阳子站,细颗粒物(PM2.5),57,59,42,40,20,116,65,96,82,16,11,8,8,0.7,0.6
2023-01-31T07:00:00,1680A,110.3539,21.2706,湛江市,湛江影剧院,细颗粒物(PM2.5),57,62,65,40,40,136,82,108,97,16,16,9,9,0.6,0.6
2023-01-31T07:00:00,1681A,110.3928,21.2228,湛江市,市环境监测站,细颗粒物(PM2.5),55,55,59,39,37,128,91,116,104,14,15,12,10,0.6,0.6
2023-01-31T07:00:00,1682A,110.4019,21.1997,湛江市,环保局宿舍,,45,40,54,31,32,126,93,114,108,17,15,7,7,0.5,0.5
2023-01-31T07:00:00,1683A,110.4111,21.2028,湛江市,霞山游泳场,"颗粒物(PM10),细颗粒物(PM2.5)",54,58,62,38,40,131,85,114,103,20,14,9,10,0.5,0.6
2023-01-31T07:00:00,1684A,110.3316,21.2679,湛江市,麻章区环保局,细颗粒物(PM2.5),57,56,66,40,40,135,84,116,100,19,18,10,11,0.6,0.6
2023-01-31T07:00:00,1685A,110.4558,21.2567,湛江市,坡头区环保局,,,55,60,43,44,127,82,107,99,14,13,12,9,,0.6
2023-01-31T07:00:00,1686A,111.0286,21.4688,茂名市,电白南海,,48,48,67,27,31,128,53,74,55,14,20,5,6,0.5,0.5
2023-01-31T07:00:00,1687A,110.9294,21.6533,茂名市,茂石化七小,细颗粒物(PM2.5),77,80,63,56,39,120,65,88,74,13,15,19,8,0.6,0.6
2023-01-31T07:00:00,1688A,110.9107,21.6687,茂名市,健康路,细颗粒物(PM2.5),69,70,60,50,33,130,48,101,73,19,16,11,11,0.8,0.6
2023-01-31T07:00:00,1689A,110.8592,21.6828,茂名市,高岭,细颗粒物(PM2.5),79,75,72,58,47,131,26,84,45,26,26,13,15,1.0,0.7
2023-01-31T07:00:00,1690A,116.1231,24.3284,梅州市,梅江月梅,,32,25,36,22,27,92,16,22,21,19,18,6,8,0.4,0.5
2023-01-31T07:00:00,1691A,116.0797,24.2719,梅州市,梅县新城,,33,27,44,23,31,96,10,22,14,26,28,5,9,0.5,0.7
2023-01-31T07:00:00,1692A,116.1248,24.2654,梅州市,环境监控中心,,40,26,36,28,26,95,15,10,10,27,24,9,8,0.5,0.5
2023-01-31T07:00:00,1693A,115.3653,22.775,汕尾市,市环保局,,40,40,39,26,24,115,82,91,86,6,8,9,9,0.5,0.6
2023-01-31T07:00:00,1694A,115.3706,22.7898,汕尾市,市政府,,38,34,37,26,25,125,82,97,90,10,9,9,9,0.7,0.7
2023-01-31T07:00:00,1695A,115.3622,22.7925,汕尾市,新城中学,,42,42,41,28,24,116,83,97,86,7,7,6,6,0.5,0.5
2023-01-31T07:00:00,1696A,114.6778,23.7569,河源市,源西,,36,29,41,25,27,102,16,18,15,33,29,4,5,0.6,0.6
2023-01-31T07:00:00,1697A,114.6944,23.7586,河源市,东埔,,30,30,49,19,30,110,9,19,14,33,26,4,5,0.6,0.7
2023-01-31T07:00:00,1698A,114.6892,23.7233,河源市,老城,,30,30,50,19,24,111,28,16,16,18,21,4,4,0.5,0.6
2023-01-31T07:00:00,1699A,111.9797,21.8593,阳江市,鸳鸯湖,,40,32,43,28,28,130,48,90,67,14,13,8,9,0.7,0.6
2023-01-31T07:00:00,1701A,111.9491,21.8658,阳江市,马南垌,,50,50,50,32,29,125,34,47,38,22,22,7,6,0.6,0.6
2023-01-31T07:00:00,1702A,113.0426,23.691,清远市,环保大楼,细颗粒物(PM2.5),57,56,48,40,34,134,41,67,58,22,22,5,4,0.8,0.8
2023-01-31T07:00:00,1703A,113.0208,23.7106,清远市,凤城街办,,46,46,52,31,32,107,40,57,49,16,24,6,6,0.4,0.6
2023-01-31T07:00:00,1705A,116.6367,23.6719,潮州市,西园路,细颗粒物(PM2.5),55,47,50,39,39,139,51,72,59,7,11,7,8,0.7,0.8
2023-01-31T07:00:00,1706A,116.6447,23.6706,潮州市,档案局,,45,41,54,31,43,123,46,55,51,8,13,6,7,0.4,0.5
2023-01-31T07:00:00,1708A,116.3701,23.5345,揭阳市,新兴,细颗粒物(PM2.5),69,53,57,50,41,131,42,73,52,13,13,5,7,0.6,0.6
2023-01-31T07:00:00,1709A,116.3264,23.5443,揭阳市,西马,细颗粒物(PM2.5),73,56,61,53,43,130,40,74,49,14,12,9,10,0.5,0.5
2023-01-31T07:00:00,1710A,116.3611,23.5626,揭阳市,东兴,细颗粒物(PM2.5),57,54,59,40,34,140,43,85,54,21,20,6,7,0.7,0.7
2023-01-31T07:00:00,1711A,116.4151,23.5294,揭阳市,渔湖,细颗粒物(PM2.5),74,61,58,54,42,136,36,56,48,21,15,7,9,0.6,0.5
2023-01-31T07:00:00,1712A,112.0392,22.9169,云浮市,新市府,,36,33,36,25,28,110,44,66,55,9,9,4,5,0.5,0.5
2023-01-31T07:00:00,1714A,112.0539,22.9539,云浮市,牧羊,颗粒物(PM10),52,53,49,34,28,112,5,33,20,37,25,9,12,1.7,0.7
2023-01-31T07:00:00,1715A,102.575,24.3711,玉溪市,东风水库,细颗粒物(PM2.5),98,66,69,73,65,166,8,37,20,20,20,4,6,1.9,1.5
2023-01-31T07:00:00,1718A,115.4208,35.2464,菏泽市,气象局,细颗粒物(PM2.5),128,151,146,97,84,141,62,90,75,35,29,25,15,0.8,0.7
2023-01-31T07:00:00,1719A,115.4747,35.2375,菏泽市,市政协,细颗粒物(PM2.5),128,151,134,97,76,136,61,84,75,34,26,24,14,0.7,0.6
2023-01-31T07:00:00,1721A,113.3819,40.1097,大同市,果树场,,,,,,,,,,,,,,,,
2023-01-31T07:00:00,1723A,113.2994,40.0758,大同市,云冈宾馆,颗粒物(PM10),67,83,82,36,29,92,4,13,7,61,45,38,20,1.7,1
2023-01-31T07:00:00,1724A,113.3444,40.0917,大同市,大同大学,颗粒物(PM10),59,67,67,21,24,84,33,45,42,28,29,32,22,0.9,0.7
2023-01-31T07:00:00,1725A,113.2661,40.1269,大同市,安家小村,颗粒物(PM10),82,113,99,41,26,93,9,21,14,42,33,31,22,2.9,1.4
2023-01-31T07:00:00,1726A,113.2711,40.0844,大同市,教育学院,颗粒物(PM10),76,102,97,52,43,80,4,5,5,63,50,49,26,2.2,1.2
2023-01-31T07:00:00,1727A,113.1147,36.1547,长治市,清华站,颗粒物(PM10),62,74,56,31,27,96,4,28,18,52,36,25,27,1.2,1
2023-01-31T07:00:00,1728A,113.1031,36.1989,长治市,监测站,颗粒物(PM10),66,82,62,46,35,90,1,7,3,56,47,30,22,1.6,1.3
2023-01-31T07:00:00,1730A,113.0886,36.2125,长治市,审计局,"颗粒物(PM10),细颗粒物(PM2.5)",58,65,60,41,40,89,1,2,1,55,42,42,26,1.1,0.9
2023-01-31T07:00:00,1731A,113.0844,36.1856,长治市,长治八中,颗粒物(PM10),65,80,72,42,38,94,0,1,1,45,38,36,27,1.3,1.1
2023-01-31T07:00:00,1733A,111.5531,36.0783,临汾市,临钢医院,细颗粒物(PM2.5),89,84,103,66,65,109,15,32,27,40,38,6,15,1.3,1.4
2023-01-31T07:00:00,1734A,111.5028,36.0714,临汾市,技工学校,细颗粒物(PM2.5),97,110,116,72,72,102,4,26,14,49,43,23,28,1.5,1.6
2023-01-31T07:00:00,1736A,111.5018,36.0855,临汾市,市委,颗粒物(PM10),73,96,114,49,63,97,7,25,13,54,48,27,23,1.2,1.3
2023-01-31T07:00:00,1738A,113.5758,37.8572,阳泉市,市中心,细颗粒物(PM2.5),79,101,77,58,35,98,7,6,6,85,58,68,36,1.6,1
2023-01-31T07:00:00,1739A,113.4894,37.8731,阳泉市,赛鱼,颗粒物(PM10),83,115,70,60,38,93,6,9,8,78,57,59,32,1.2,0.8
2023-01-31T07:00:00,1740A,113.5819,37.8486,阳泉市,南庄,颗粒物(PM10),78,105,86,51,38,99,5,4,4,70,53,58,38,1.5,1.2
2023-01-31T07:00:00,1742A,113.5614,37.8703,阳泉市,平坦,细颗粒物(PM2.5),72,92,71,52,36,96,17,22,19,72,57,62,34,1.1,0.8
2023-01-31T07:00:00,1743A,113.5158,37.8392,阳泉市,大阳泉,细颗粒物(PM2.5),63,56,49,45,33,100,49,66,57,40,27,45,28,0.9,0.7
2023-01-31T07:00:00,1744A,118.9233,42.2816,赤峰市,松山一中,颗粒物(PM10),58,65,67,17,28,76,13,30,26,46,38,11,18,1.3,1
2023-01-31T07:00:00,1745A,118.9576,42.2728,赤峰市,哈达街,颗粒物(PM10),57,64,63,29,32,71,11,24,16,47,37,16,17,1.2,1
2023-01-31T07:00:00,1746A,118.8788,42.2554,赤峰市,天义路,颗粒物(PM10),54,57,48,17,24,80,9,24,21,45,32,14,15,1.1,1
2023-01-31T07:00:00,1748A,123.044,41.1196,鞍山市,深沟寺,,40,40,39,21,22,74,61,70,67,9,13,8,11,0.5,0.7
2023-01-31T07:00:00,1749A,123.011,41.0931,鞍山市,太阳城,颗粒物(PM10),53,56,46,25,23,75,63,73,68,12,16,9,12,0.8,0.9
2023-01-31T07:00:00,1750A,123.0485,41.1442,鞍山市,太平,颗粒物(PM10),51,51,51,28,24,66,55,66,63,18,21,10,15,0.7,0.9
2023-01-31T07:00:00,1751A,122.9642,41.0971,鞍山市,铁西三道街,,,,58,,26,42,,41,,,36,,19,,1.2
2023-01-31T07:00:00,1752A,122.9341,41.0833,鞍山市,铁西工业园区,颗粒物(PM10),63,76,67,37,32,70,20,58,45,56,40,13,14,1.0,1.4
2023-01-31T07:00:00,1753A,123.022,41.0821,鞍山市,明达新区,颗粒物(PM10),52,54,48,22,23,79,62,79,72,14,19,10,14,0.7,0.8
2023-01-31T07:00:00,1754A,123.1289,41.0228,鞍山市,千山,,,,,,,,,,,,,,,,
2023-01-31T07:00:00,1755A,123.7977,41.8491,抚顺市,望花区,细颗粒物(PM2.5),52,49,69,36,37,75,13,23,22,51,38,15,16,1.4,1.3
2023-01-31T07:00:00,1756A,123.9161,41.8822,抚顺市,顺城区,颗粒物(PM10),51,52,64,32,35,80,16,36,32,42,36,6,8,0.9,0.9
2023-01-31T07:00:00,1757A,124.0436,41.8611,抚顺市,东洲区,,48,48,46,32,30,76,53,53,53,13,15,6,6,1.0,0.8
2023-01-31T07:00:00,1758A,123.9247,41.8642,抚顺市,新抚区,细颗粒物(PM2.5),72,62,84,52,51,72,18,16,16,40,36,6,10,1.2,0.9
2023-01-31T07:00:00,1759A,124.0972,41.8961,抚顺市,大伙房水库,细颗粒物(PM2.5),65,53,51,47,41,85,46,44,44,16,15,4,6,1.7,1
2023-01-31T07:00:00,1760A,123.7086,41.8391,抚顺市,沈抚新城,颗粒物(PM10),57,64,76,34,36,78,28,24,24,43,42,38,24,1.9,1.5
2023-01-31T07:00:00,1761A,123.8275,41.3064,本溪市,大峪,,49,49,53,18,23,62,52,53,53,10,27,10,19,0.6,1.1
2023-01-31T07:00:00,1762A,123.7567,41.3325,本溪市,溪湖,颗粒物(PM10),54,58,58,25,26,72,26,61,45,54,33,64,33,1.6,1.5
2023-01-31T07:00:00,1763A,123.7169,41.3094,本溪市,彩屯,颗粒物(PM10),67,84,97,37,47,71,28,24,23,40,43,27,32,2.6,2.6
2023-01-31T07:00:00,1764A,123.7669,41.2864,本溪市,东明,,43,43,65,19,28,66,50,66,57,28,34,24,24,0.6,1.2
2023-01-31T07:00:00,1765A,123.7992,41.2664,本溪市,新立屯,,40,40,45,18,20,72,69,72,71,10,23,7,10,0.5,0.9
2023-01-31T07:00:00,1766A,123.8142,41.3472,本溪市,威宁,,33,33,66,17,32,47,14,42,38,37,35,6,15,0.8,1.5
2023-01-31T07:00:00,1767A,121.1115,41.0879,锦州市,南山,细颗粒物(PM2.5),105,94,71,79,44,78,9,40,19,51,42,12,32,1.3,0.9
2023-01-31T07:00:00,1768A,121.0533,40.8434,锦州市,开发区,细颗粒物(PM2.5),109,129,87,82,40,71,7,27,11,59,50,25,25,1.7,0.8
2023-01-31T07:00:00,1769A,121.1836,41.1119,锦州市,百股街道,颗粒物(PM10),79,107,89,56,41,75,6,31,10,57,49,13,19,1.4,1.1
2023-01-31T07:00:00,1770A,121.1178,41.1222,锦州市,天安街道,细颗粒物(PM2.5),103,110,82,77,42,74,8,38,16,57,47,15,29,1.5,1
2023-01-31T07:00:00,1771A,121.1303,41.1386,锦州市,北湖公园,细颗粒物(PM2.5),95,83,74,71,38,76,10,38,23,57,46,16,27,1.1,1
2023-01-31T07:00:00,1772A,126.54,43.8622,吉林市,哈达湾,,38,33,62,26,51,78,50,47,44,23,31,8,14,0.8,1
2023-01-31T07:00:00,1773A,126.5844,43.8358,吉林市,东局子,,49,42,51,34,40,73,35,60,56,30,25,10,12,0.7,0.7
2023-01-31T07:00:00,1774A,126.5052,43.8245,吉林市,电力学院,细颗粒物(PM2.5),94,99,113,70,78,75,14,18,18,38,37,15,23,1.3,1.5
2023-01-31T07:00:00,1775A,126.6133,43.8972,吉林市,江北,细颗粒物(PM2.5),53,50,62,37,47,71,40,36,35,22,30,10,15,0.8,1.1
2023-01-31T07:00:00,1776A,126.555,43.8306,吉林市,江南公园,,33,25,53,23,48,73,52,56,55,22,24,10,13,0.6,0.8
2023-01-31T07:00:00,1778A,126.7061,43.7133,吉林市,丰满,,,,,,,,,,,,,,,,
2023-01-31T07:00:00,1779A,123.9305,47.3636,齐齐哈尔市,安居小区,细颗粒物(PM2.5),188,160,161,141,136,76,14,13,12,64,54,23,12,1.3,1.6
2023-01-31T07:00:00,1780A,123.9488,47.3386,齐齐哈尔市,中心广场,细颗粒物(PM2.5),119,159,173,90,117,59,48,43,33,41,51,23,18,0.8,1.2
2023-01-31T07:00:00,1781A,123.9483,47.3227,齐齐哈尔市,农牧车辆厂,细颗粒物(PM2.5),160,136,159,122,127,62,24,48,24,58,54,5,8,1.2,1.3
2023-01-31T07:00:00,1783A,123.945,47.2988,齐齐哈尔市,市环境监测站,细颗粒物(PM2.5),182,162,189,137,168,42,21,42,26,58,61,6,11,1.1,1.4
2023-01-31T07:00:00,1784A,129.61,44.561,牡丹江市,环保大楼,细颗粒物(PM2.5),65,54,52,47,43,70,17,32,30,37,26,10,12,0.9,0.7
2023-01-31T07:00:00,1785A,129.6115,44.5782,牡丹江市,文化广场,细颗粒物(PM2.5),67,62,66,48,50,63,9,29,25,47,31,10,13,1.0,0.9
2023-01-31T07:00:00,1786A,129.5904,44.5963,牡丹江市,第一医院,细颗粒物(PM2.5),87,66,67,64,57,70,16,20,19,39,33,6,10,1.1,1.1
2023-01-31T07:00:00,1787A,129.6364,44.6075,牡丹江市,机车工厂,细颗粒物(PM2.5),88,107,79,65,50,73,11,15,14,30,26,1,2,1.0,0.9
2023-01-31T07:00:00,1788A,129.6386,44.5462,牡丹江市,第一中学,细颗粒物(PM2.5),55,43,47,39,43,70,24,34,32,25,20,3,7,0.8,0.7
2023-01-31T07:00:00,1789A,124.81117,46.03138,大庆市,大同区,细颗粒物(PM2.5),222,194,168,172,147,75,24,40,33,48,44,7,12,1.7,1.5
2023-01-31T07:00:00,1790A,125.129,46.533,大庆市,龙凤区,细颗粒物(PM2.5),156,132,172,119,147,53,37,27,24,30,59,3,11,1.2,1.7
2023-01-31T07:00:00,1791A,124.902,46.408,大庆市,红岗区,细颗粒物(PM2.5),223,210,117,173,105,79,15,29,26,55,42,8,9,1.5,1
2023-01-31T07:00:00,1792A,125.153,46.586,大庆市,萨尔图区,细颗粒物(PM2.5),222,190,155,172,140,55,34,21,20,39,58,7,9,2.1,2
2023-01-31T07:00:00,1793A,124.9042,46.6215,大庆市,让胡路区,细颗粒物(PM2.5),132,156,118,100,93,82,11,16,11,62,55,5,5,1.8,1.4
2023-01-31T07:00:00,1794A,118.3606,31.3519,芜湖市,监测站,细颗粒物(PM2.5),77,70,76,56,48,122,10,34,28,73,64,8,9,1.0,0.9
2023-01-31T07:00:00,1795A,118.3714,31.4134,芜湖市,科创中心,细颗粒物(PM2.5),84,81,84,62,55,119,2,7,3,66,65,8,9,0.7,0.7
2023-01-31T07:00:00,1796A,118.3673,31.3131,芜湖市,四水厂,细颗粒物(PM2.5),100,91,72,75,44,114,5,49,26,48,38,8,9,0.7,0.5
2023-01-31T07:00:00,1798A,118.5092,31.6837,马鞍山市,湖东路四小,细颗粒物(PM2.5),79,69,68,58,52,109,18,66,42,54,37,12,11,1.4,1.1
2023-01-31T07:00:00,1799A,118.5024,31.6449,马鞍山市,开发区,细颗粒物(PM2.5),74,76,76,54,47,112,19,55,32,64,47,14,12,1.5,1.1
2023-01-31T07:00:00,1800A,118.5228,31.7231,马鞍山市,慈湖,细颗粒物(PM2.5),75,69,73,55,48,109,22,70,51,52,33,11,12,1.2,1
2023-01-31T07:00:00,1802A,118.6245,31.7241,马鞍山市,濮塘,颗粒物(PM10),59,68,69,40,35,114,49,80,64,22,16,10,11,1.1,0.9
2023-01-31T07:00:00,1803A,115.9872,29.6815,九江市,十里,,43,43,69,30,39,111,24,31,29,30,31,8,9,0.7,0.8
2023-01-31T07:00:00,1804A,115.9584,29.7046,九江市,茅山头,细颗粒物(PM2.5),65,59,74,47,49,104,5,7,7,52,44,8,10,1.2,1.1
2023-01-31T07:00:00,1805A,115.9877,29.7295,九江市,西园,细颗粒物(PM2.5),72,64,70,52,51,103,4,8,6,65,48,7,9,1.3,1.2
2023-01-31T07:00:00,1806A,116.0172,29.6547,九江市,五七二七厂,,45,45,51,25,30,116,87,90,88,14,15,9,10,0.7,0.8
2023-01-31T07:00:00,1808A,115.9114,29.6038,九江市,综合工业园,,49,43,52,34,39,109,60,68,66,20,36,8,9,0.7,0.7
2023-01-31T07:00:00,1809A,116.0721,29.7535,九江市,石化总厂,颗粒物(PM10),64,78,78,44,41,113,74,79,77,18,18,12,17,0.7,0.7
2023-01-31T07:00:00,1810A,115.9773,29.5698,九江市,庐山气象台,,16,16,11,7,4,78,16,19,18,2,2,5,5,0,0
2023-01-31T07:00:00,1812A,112.3931,34.6516,洛阳市,市委党校,细颗粒物(PM2.5),104,132,104,78,57,97,5,6,6,56,47,19,14,1.0,0.9
2023-01-31T07:00:00,1814A,112.4657,34.6871,洛阳市,豫西宾馆,细颗粒物(PM2.5),122,158,117,92,66,101,4,5,4,62,55,43,23,1.4,1.2
2023-01-31T07:00:00,1815A,112.494,34.6886,洛阳市,河南林校,细颗粒物(PM2.5),119,152,99,90,60,102,14,16,16,62,53,18,6,1.4,0.9
2023-01-31T07:00:00,1816A,112.3844,34.623,洛阳市,开发区管委会,细颗粒物(PM2.5),84,92,84,62,56,103,22,52,36,31,23,5,8,0.6,0.5
2023-01-31T07:00:00,1817A,112.4267,34.6258,洛阳市,市委新办公区,细颗粒物(PM2.5),69,70,79,50,53,99,29,57,35,29,32,9,9,0.6,0.6
2023-01-31T07:00:00,1818A,114.4839,36.0621,安阳市,棉研所,,,,,,,,,,,,,,,,
2023-01-31T07:00:00,1819A,114.3551,36.1017,安阳市,红庙街,细颗粒物(PM2.5),102,110,105,76,65,87,7,8,7,60,54,7,10,1.3,1
2023-01-31T07:00:00,1820A,114.361,36.0681,安阳市,银杏小区,细颗粒物(PM2.5),98,91,93,73,64,88,7,5,5,49,44,7,10,0.9,1
2023-01-31T07:00:00,1824A,114.3389,34.7781,开封市,肿瘤医院,细颗粒物(PM2.5),142,191,158,108,89,142,22,63,48,58,35,7,10,,0.6
2023-01-31T07:00:00,1826A,114.2885,34.7965,开封市,世纪星幼儿园,细颗粒物(PM2.5),170,156,130,129,92,138,34,81,59,,32,10,13,0.8,0.7
2023-01-31T07:00:00,1828A,113.227,35.2125,焦作市,市环保局,颗粒物(PM10),74,98,84,51,45,96,20,23,18,41,43,25,20,1.0,0.9
2023-01-31T07:00:00,1830A,113.1992,35.2590,焦作市,影视城,,,,,,,,,,,,,,,,
2023-01-31T07:00:00,1832A,113.3257,33.742,平顶山市,新华旅馆,细颗粒物(PM2.5),147,178,155,112,94,132,3,36,17,83,58,8,10,1.0,0.8
2023-01-31T07:00:00,1833A,113.2919,33.737,平顶山市,规划设计院,细颗粒物(PM2.5),149,174,135,114,89,135,14,15,8,60,45,10,9,0.9,0.8
2023-01-31T07:00:00,1834A,113.182,33.774,平顶山市,平顶山工学院,细颗粒物(PM2.5),128,167,139,97,82,134,36,102,57,34,21,17,11,0.8,0.6
2023-01-31T07:00:00,1835A,111.1922,34.7752,三门峡市,市政府,细颗粒物(PM2.5),65,73,72,47,42,93,4,3,3,51,53,16,21,0.9,0.9
2023-01-31T07:00:00,1836A,111.1587,34.7942,三门峡市,开发区,细颗粒物(PM2.5),80,103,90,59,46,97,6,12,8,41,44,9,15,1.0,0.9
2023-01-31T07:00:00,1838A,111.143,34.7955,三门峡市,风景区,,,,,,,,,,,,,,,,
2023-01-31T07:00:00,1840A,111.2992,30.6981,宜昌市,白龙岗,细颗粒物(PM2.5),110,92,105,83,79,130,44,51,49,26,36,4,6,0.9,1
2023-01-31T07:00:00,1841A,111.3549,30.6465,宜昌市,伍家岗,细颗粒物(PM2.5),134,119,122,102,95,113,10,10,10,38,60,7,9,1.0,1.1
2023-01-31T07:00:00,1842A,111.2628,30.6961,宜昌市,点军区,细颗粒物(PM2.5),122,115,118,92,92,131,19,37,28,22,33,4,6,1.1,1.1
2023-01-31T07:00:00,1843A,111.3275,30.7819,宜昌市,夷陵区,细颗粒物(PM2.5),107,94,99,80,82,127,36,39,38,19,35,5,7,0.7,0.9
2023-01-31T07:00:00,1844A,112.2494,30.3197,荆州市,市图书馆,细颗粒物(PM2.5),100,80,111,75,85,138,56,75,65,37,30,7,9,1.0,1
2023-01-31T07:00:00,1845A,112.2008,30.3544,荆州市,市委党校,细颗粒物(PM2.5),90,85,113,67,87,134,67,84,78,24,26,7,9,0.8,0.8
2023-01-31T07:00:00,1847A,113.1094,29.3578,岳阳市,南湖风景区,,36,36,58,22,36,147,78,103,97,25,23,11,11,0.4,0.5
2023-01-31T07:00:00,1848A,113.1493,29.4251,岳阳市,城陵矶,,38,38,58,22,31,138,68,97,82,36,22,8,10,0.6,0.6
2023-01-31T07:00:00,1849A,113.1497,29.3575,岳阳市,开发区,,38,33,51,26,34,137,76,90,83,21,21,8,8,0.4,0.4
2023-01-31T07:00:00,1850A,113.2621,29.4758,岳阳市,云溪区,,41,41,53,22,30,131,71,87,83,22,17,7,7,0.4,0.4
2023-01-31T07:00:00,1851A,112.9943,29.4402,岳阳市,君山区,颗粒物(PM10),51,52,59,35,42,131,75,85,76,17,18,8,8,0.3,0.3
2023-01-31T07:00:00,1852A,113.2117,29.355,岳阳市,金凤水库,,39,39,55,27,35,125,69,74,72,18,20,7,6,0.6,0.6
2023-01-31T07:00:00,1854A,111.6975,28.9703,常德市,市二中,细颗粒物(PM2.5),118,100,85,89,64,112,44,65,59,18,17,5,7,0.9,0.8
2023-01-31T07:00:00,1857A,111.7158,29.1456,常德市,白鹤山,细颗粒物(PM2.5),73,66,87,53,59,128,59,100,80,9,10,3,6,0.4,0.4
2023-01-31T07:00:00,1858A,110.5319,29.1217,张家界市,永定新区,细颗粒物(PM2.5),52,47,68,36,44,107,8,32,26,34,23,4,5,0.8,0.8
2023-01-31T07:00:00,1859A,110.4697,29.1242,张家界市,电业局,细颗粒物(PM2.5),59,52,72,42,49,106,12,18,17,23,34,4,5,0.6,0.9
2023-01-31T07:00:00,1860A,110.5594,29.3547,张家界市,未央路,,42,41,62,29,40,108,47,50,49,7,19,8,9,0.6,0.7
2023-01-31T07:00:00,1861A,110.4417,29.315,张家界市,袁家界,,50,50,57,30,37,119,106,112,110,5,9,11,11,0.6,0.6
2023-01-31T07:00:00,1862A,110.4144,25.3167,桂林市,电子科大尧山校区,细颗粒物(PM2.5),62,53,51,44,40,118,38,54,46,9,10,3,4,0.6,0.5
2023-01-31T07:00:00,1863A,110.2819,25.2697,桂林市,监测站,细颗粒物(PM2.5),62,56,96,44,70,124,33,20,20,19,38,2,6,0.6,1
2023-01-31T07:00:00,1864A,110.3089,25.2708,桂林市,龙隐路小学,细颗粒物(PM2.5),84,60,79,62,64,129,13,21,20,43,42,6,10,0.9,0.9
2023-01-31T07:00:00,1865A,110.2869,25.2178,桂林市,八中,细颗粒物(PM2.5),73,70,76,53,60,124,13,24,22,36,32,4,5,0.7,0.7
2023-01-31T07:00:00,1866A,109.2262,21.588,北海市,牛尾岭水库,细颗粒物(PM2.5),132,89,92,100,72,135,26,52,32,21,19,6,8,0.9,0.7
2023-01-31T07:00:00,1867A,109.1436,21.4086,北海市,海滩公园,细颗粒物(PM2.5),113,122,85,85,53,150,70,110,81,22,19,13,11,0.7,0.7
2023-01-31T07:00:00,1868A,109.0981,21.4661,北海市,新市环保局,细颗粒物(PM2.5),140,125,79,107,60,149,46,106,68,35,24,8,5,0.8,0.6
2023-01-31T07:00:00,1869A,109.1778,21.5233,北海市,北海工业园,细颗粒物(PM2.5),125,128,106,95,78,152,68,60,48,24,26,13,8,0.8,0.7
2023-01-31T07:00:00,1870A,109.4856,24.3895,柳州市,柳东小学,细颗粒物(PM2.5),112,106,83,84,66,132,52,50,43,20,17,7,9,1.0,0.8
2023-01-31T07:00:00,1871A,109.4157,24.3277,柳州市,环保监测站,,,91,105,,59,126,30,28,26,32,42,6,14,0.9,1.1
2023-01-31T07:00:00,1872A,109.389,24.341,柳州市,河西水厂,细颗粒物(PM2.5),140,118,127,107,86,117,16,46,20,35,44,10,17,1.6,1.6
2023-01-31T07:00:00,1873A,109.4311,24.2921,柳州市,市四中,细颗粒物(PM2.5),114,91,107,86,86,132,15,27,16,39,44,8,15,1.0,1.2
2023-01-31T07:00:00,1874A,109.4006,24.3631,柳州市,市九中,细颗粒物(PM2.5),119,113,116,90,84,108,10,20,17,39,45,5,13,1.2,1.4
2023-01-31T07:00:00,1875A,109.4958,24.3134,柳州市,古亭山,细颗粒物(PM2.5),82,70,74,60,52,129,8,18,11,54,37,9,10,0.9,0.7
2023-01-31T07:00:00,1876A,109.5078,18.2489,三亚市,河东子站,,41,41,45,20,23,115,73,92,84,10,11,2,3,0.5,0.5
2023-01-31T07:00:00,1877A,109.4964,18.2681,三亚市,河西子站,,36,36,43,22,24,125,67,76,74,11,11,5,6,0.3,0.3
2023-01-31T07:00:00,1878A,104.7778,31.4741,绵阳市,富乐山,细颗粒物(PM2.5),127,118,111,96,84,139,32,30,30,32,36,3,4,1.0,0.9
2023-01-31T07:00:00,1879A,104.7563,31.4535,绵阳市,市人大,细颗粒物(PM2.5),134,127,126,102,87,135,12,13,13,53,65,10,9,0.8,1
2023-01-31T07:00:00,1880A,104.6697,31.4668,绵阳市,高新区自来水公司,细颗粒物(PM2.5),176,,131,133,90,133,17,8,8,37,52,4,6,1.0,1.1
2023-01-31T07:00:00,1881A,104.7287,31.5075,绵阳市,三水厂,细颗粒物(PM2.5),148,144,137,113,97,134,0,7,4,41,49,2,4,1.1,0.9
2023-01-31T07:00:00,1882A,104.563,28.793,宜宾市,石马中学,细颗粒物(PM2.5),124,113,106,94,83,116,16,25,20,28,27,5,6,1.0,0.9
2023-01-31T07:00:00,1883A,104.6201,28.7728,宜宾市,市委,细颗粒物(PM2.5),127,120,115,96,86,119,17,28,20,36,44,7,9,0.9,0.8
2023-01-31T07:00:00,1884A,104.6055,28.793,宜宾市,宜宾四中,细颗粒物(PM2.5),130,118,117,99,89,127,44,33,33,26,43,4,7,0.7,0.7
2023-01-31T07:00:00,1885A,104.639,28.7562,宜宾市,市政府,细颗粒物(PM2.5),124,114,117,94,85,130,9,4,4,48,54,6,8,0.6,0.7
2023-01-31T07:00:00,1886A,104.5742,28.7199,宜宾市,黄金嘴,细颗粒物(PM2.5),118,111,113,89,87,127,51,40,40,20,34,10,10,0.8,0.8
2023-01-31T07:00:00,1888A,101.6891,26.571,攀枝花市,弄弄坪,细颗粒物(PM2.5),107,97,93,80,74,129,22,58,43,30,31,13,21,2.3,2.3
2023-01-31T07:00:00,1889A,101.5769,26.5928,攀枝花市,河门口,细颗粒物(PM2.5),105,94,94,79,75,151,36,53,42,23,28,8,22,1.7,2
2023-01-31T07:00:00,1890A,101.7169,26.585,攀枝花市,炳草岗,,,,93,,68,121,,12,9,45,52,23,21,2.0,2.2
2023-01-31T07:00:00,1891A,101.7369,26.5008,攀枝花市,仁和,细颗粒物(PM2.5),112,103,91,84,71,151,22,46,33,21,26,8,16,1.7,1.9
2023-01-31T07:00:00,1893A,105.4324,28.9634,泸州市,九狮山,细颗粒物(PM2.5),138,156,123,105,89,129,1,28,12,23,20,6,12,0.6,0.6
2023-01-31T07:00:00,1894A,105.4427,28.9063,泸州市,小市上码头,细颗粒物(PM2.5),196,191,169,147,121,132,26,14,14,45,56,16,14,1.1,1.2
2023-01-31T07:00:00,1895A,105.4241,28.8573,泸州市,兰田宪桥,细颗粒物(PM2.5),234,227,179,184,136,128,37,56,53,24,27,24,21,1.2,1.1
2023-01-31T07:00:00,1896A,105.4379,28.8833,泸州市,市环监站,细颗粒物(PM2.5),192,198,167,144,116,119,37,61,56,37,44,13,13,0.9,0.9
2023-01-31T07:00:00,1901A,104.4239,31.1208,德阳市,东山公园,细颗粒物(PM2.5),148,142,132,113,93,137,59,86,76,30,26,53,24,1.3,1.1
2023-01-31T07:00:00,1902A,104.3826,31.1317,德阳市,西小区,细颗粒物(PM2.5),144,138,128,110,91,129,1,33,16,57,52,10,8,1.1,0.9
2023-01-31T07:00:00,1904A,104.3553,31.1091,德阳市,耐火材料厂,细颗粒物(PM2.5),165,182,171,125,102,130,4,36,18,40,40,5,6,1.0,0.8
2023-01-31T07:00:00,1905A,106.056,30.8064,南充市,西山风景区,,,,,,,,,,,,,,,,
2023-01-31T07:00:00,1906A,106.0789,30.8023,南充市,南充市委,细颗粒物(PM2.5),98,98,107,73,72,114,32,50,46,24,38,7,8,0.7,0.8
2023-01-31T07:00:00,1907A,106.1031,30.8217,南充市,南充炼油厂,细颗粒物(PM2.5),95,103,107,71,71,122,5,21,15,42,44,7,8,1.0,1
2023-01-31T07:00:00,1908A,106.1064,30.7856,南充市,高坪区监测站,细颗粒物(PM2.5),99,112,113,74,76,113,4,4,3,50,47,8,10,1.2,1.1
2023-01-31T07:00:00,1909A,106.0642,30.7636,南充市,嘉陵区环保局,细颗粒物(PM2.5),94,110,112,70,76,114,3,3,3,57,60,6,7,1.1,1.3
2023-01-31T07:00:00,1910A,106.1087,30.8388,南充市,市环境监测站,细颗粒物(PM2.5),107,113,108,80,72,118,16,84,49,44,29,10,10,,0.8
2023-01-31T07:00:00,1911A,106.9222,27.6869,遵义市,丁字口,细颗粒物(PM2.5),68,50,63,49,49,136,27,20,20,34,46,50,52,1.3,1.4
2023-01-31T07:00:00,1912A,106.9242,27.7019,遵义市,凤凰山,颗粒物(PM10),67,83,68,38,32,151,95,109,99,15,17,13,15,0.8,0.8
2023-01-31T07:00:00,1913A,106.8906,27.6486,遵义市,忠庄,细颗粒物(PM2.5),69,71,62,50,47,138,27,59,44,33,26,27,19,1.0,0.9
2023-01-31T07:00:00,1914A,106.9231,27.6506,遵义市,舟水桥,细颗粒物(PM2.5),58,59,71,41,43,143,12,33,22,29,23,14,23,0.8,0.8
2023-01-31T07:00:00,1915A,106.9178,27.72,遵义市,干田坝,细颗粒物(PM2.5),62,53,61,44,43,125,24,21,21,28,34,16,23,1.1,1.1
2023-01-31T07:00:00,1916A,103.7897,25.5035,曲靖市,环境监测站,细颗粒物(PM2.5),58,59,69,41,45,150,49,106,67,19,24,6,8,0.9,1
2023-01-31T07:00:00,1917A,103.8,25.5364,曲靖市,烟厂办公区,细颗粒物(PM2.5),85,72,80,63,50,150,43,102,74,32,21,4,7,1.6,1.1
2023-01-31T07:00:00,1918A,108.7197,34.3956,咸阳市,气象站,细颗粒物(PM2.5),169,137,118,128,106,89,3,5,4,77,75,12,16,1.1,1
2023-01-31T07:00:00,1919A,108.673,34.3155,咸阳市,实验中学,细颗粒物(PM2.5),288,290,176,238,133,97,9,8,7,65,72,7,9,1.5,1.1
2023-01-31T07:00:00,1920A,108.7233,34.3617,咸阳市,师范学院,细颗粒物(PM2.5),186,169,143,140,118,97,10,16,13,63,65,7,11,1.2,1
2023-01-31T07:00:00,1922A,109.0656,35.0994,铜川市,党校,,43,43,86,30,52,115,48,50,50,26,40,14,20,0.9,1.1
2023-01-31T07:00:00,1923A,109.0697,35.0697,铜川市,王益区政府,细颗粒物(PM2.5),54,47,83,38,63,115,25,22,22,31,44,6,13,0.6,0.9
2023-01-31T07:00:00,1924A,108.9344,34.9058,铜川市,新区管委会,,50,45,79,35,61,129,68,79,72,16,26,9,17,0.6,0.7
2023-01-31T07:00:00,1926A,109.4131,36.6275,延安市,枣园,,42,42,46,21,31,110,11,9,9,31,37,4,6,0.8,0.9
2023-01-31T07:00:00,1927A,109.4761,36.6028,延安市,延大医附院,,42,42,57,21,42,99,7,7,7,41,50,5,9,1.3,1.4
2023-01-31T07:00:00,1929A,109.5056,36.6106,延安市,百米大道,,46,46,70,27,46,107,9,10,10,55,67,10,12,1.2,1.4
2023-01-31T07:00:00,1930A,107.185,34.3063,宝鸡市,庙沟村,细颗粒物(PM2.5),79,70,80,58,56,105,72,63,63,18,28,6,7,0.9,0.9
2023-01-31T07:00:00,1931A,107.0708,34.3017,宝鸡市,竹园沟,细颗粒物(PM2.5),74,65,80,54,64,109,47,46,43,22,30,3,5,0.7,0.8
2023-01-31T07:00:00,1932A,107.1906,34.3672,宝鸡市,三陆医院,细颗粒物(PM2.5),99,104,111,74,85,108,26,52,44,52,43,13,15,1.1,1
2023-01-31T07:00:00,1933A,107.1431,34.3547,宝鸡市,监测站,细颗粒物(PM2.5),95,90,91,71,77,110,12,28,26,54,43,4,6,0.9,0.8
2023-01-31T07:00:00,1934A,107.1186,34.3739,宝鸡市,技工学校,细颗粒物(PM2.5),127,125,118,96,77,107,26,34,28,45,43,11,12,1.0,1
2023-01-31T07:00:00,1935A,107.3906,34.3528,宝鸡市,陈仓区环保局家属楼,细颗粒物(PM2.5),135,133,142,103,115,109,48,55,54,56,59,52,53,1.3,1.4
2023-01-31T07:00:00,1936A,107.2058,34.3497,宝鸡市,文理学院,细颗粒物(PM2.5),97,94,107,72,74,118,36,44,42,37,41,11,12,1.0,0.9
2023-01-31T07:00:00,1937A,107.2386,34.3622,宝鸡市,三迪小学,细颗粒物(PM2.5),98,110,118,73,81,103,34,40,39,41,52,10,12,0.9,0.9
2023-01-31T07:00:00,1938A,109.5293,34.5101,渭南市,农科所,颗粒物(PM10),117,183,136,85,94,110,2,22,8,54,43,10,14,1.7,1.3
2023-01-31T07:00:00,1939A,109.4974,34.4877,渭南市,日报社,细颗粒物(PM2.5),123,127,135,93,94,109,11,18,10,69,65,9,12,1.1,1.2
2023-01-31T07:00:00,1940A,109.4636,34.493,渭南市,体育馆,细颗粒物(PM2.5),140,132,133,107,108,117,6,19,13,81,65,15,19,1.0,1.1
2023-01-31T07:00:00,1941A,109.4259,34.5023,渭南市,高新一小,细颗粒物(PM2.5),193,159,148,145,114,109,2,4,3,56,55,12,16,1.0,1
2023-01-31T07:00:00,1943A,102.1725,38.5339,金昌市,新川苑,颗粒物(PM10),86,121,78,51,34,94,28,27,27,35,35,206,66,1.1,1
2023-01-31T07:00:00,1944A,102.1692,38.5167,金昌市,天庆家园,颗粒物(PM10),67,84,68,41,38,95,25,18,18,34,39,241,67,1.0,1.1
2023-01-31T07:00:00,1945A,98.2908,39.7711,嘉峪关市,气象局,颗粒物(PM10),58,66,80,22,35,86,52,47,42,25,30,4,18,0.3,0.5
2023-01-31T07:00:00,1947A,106.3394,38.817,石嘴山市,沙湖旅游区,细颗粒物(PM2.5),155,151,180,118,108,80,9,14,12,44,62,20,52,2.2,2.8
2023-01-31T07:00:00,1948A,106.3668,39.0145,石嘴山市,大武口朝阳西街,细颗粒物(PM2.5),145,146,140,111,100,52,9,9,9,86,76,51,78,2.3,2.3
2023-01-31T07:00:00,1949A,106.7704,39.2282,石嘴山市,惠农南大街,颗粒物(PM10),65,79,113,40,66,55,10,7,7,67,65,71,66,2.3,2
2023-01-31T07:00:00,1950A,106.7099,39.1325,石嘴山市,红果子镇惠新街,"颗粒物(PM10),细颗粒物(PM2.5)",60,69,106,43,57,64,5,9,6,48,55,23,41,1.2,1.4
2023-01-31T07:00:00,1951A,84.895,45.6094,克拉玛依市,长征新村,细颗粒物(PM2.5),102,101,113,76,79,82,62,74,71,25,34,6,9,0.9,1
2023-01-31T07:00:00,1952A,84.8988,45.5893,克拉玛依市,南林小区,细颗粒物(PM2.5),100,114,131,75,89,73,60,66,65,25,32,5,6,0.9,1.1
2023-01-31T07:00:00,1954A,84.905,44.3396,克拉玛依市,独山子区,细颗粒物(PM2.5),235,243,238,185,155,106,66,68,58,33,50,8,8,1.4,1.7
2023-01-31T07:00:00,1955A,85.6979,46.098,克拉玛依市,乌尔禾区商贸楼,细颗粒物(PM2.5),94,87,102,70,82,100,60,62,62,24,32,5,8,1.0,1.2
2023-01-31T07:00:00,1956A,86.1472,41.7538,巴音郭楞州,孔雀公园,颗粒物(PM10),126,202,238,56,74,82,41,82,72,46,30,4,5,1.0,0.8
2023-01-31T07:00:00,1957A,86.1972,41.7166,巴音郭楞州,棉纺厂,颗粒物(PM10),152,253,273,57,72,86,52,74,62,42,44,5,5,0.8,0.7
2023-01-31T07:00:00,1958A,86.2357,41.7173,巴音郭楞州,经济开发区,颗粒物(PM10),133,215,230,64,61,98,68,95,88,22,15,5,5,1.0,0.7
2023-01-31T07:00:00,1961A,117.532,36.6868,济南市,东山小学,细颗粒物(PM2.5),80,95,110,59,56,121,88,115,101,19,16,10,11,0.6,0.6
2023-01-31T07:00:00,1966A,120.0405,35.8735,青岛市,黄岛区4号,细颗粒物(PM2.5),104,110,82,78,33,100,60,88,79,36,23,9,7,1.3,0.9
2023-01-31T07:00:00,1982A,122.0693,37.2174,威海市,文登开发区,颗粒物(PM10),62,73,81,34,24,103,97,95,95,14,19,4,4,0.6,0.5
2023-01-31T07:00:00,2031A,113.1817,27.9958,株洲市,云田中学,细颗粒物(PM2.5),59,56,68,42,46,123,49,76,55,15,17,7,8,0.8,0.7
2023-01-31T07:00:00,2054A,114.1099,32.1059,信阳市,平桥分局,细颗粒物(PM2.5),105,107,98,79,67,129,10,77,41,42,24,10,11,1.6,1.1
2023-01-31T07:00:00,2064A,113.9956,32.1271,信阳市,南湾水厂,颗粒物(PM10),67,84,88,46,54,140,90,109,101,14,15,10,11,0.9,0.9
2023-01-31T07:00:00,2065A,114.0775,32.1195,信阳市,市酿酒公司,细颗粒物(PM2.5),94,81,80,70,68,130,0,16,8,57,41,8,10,1.3,1
2023-01-31T07:00:00,2066A,114.0609,32.1399,信阳市,审计局,细颗粒物(PM2.5),95,73,91,71,73,132,4,5,4,63,37,10,12,1.3,1
2023-01-31T07:00:00,2067A,114.6613,33.6128,周口市,市环境监测站,细颗粒物(PM2.5),124,120,127,94,82,111,30,71,53,41,30,7,8,0.9,0.6
2023-01-31T07:00:00,2068A,114.6758,33.6347,周口市,周口师范,细颗粒物(PM2.5),135,115,117,103,87,117,44,79,62,40,33,9,10,0.8,0.7
2023-01-31T07:00:00,2069A,114.6546,33.5979,周口市,市运管处,细颗粒物(PM2.5),129,138,128,98,84,119,39,82,61,57,33,13,10,0.8,0.6
2023-01-31T07:00:00,2070A,114.6369,33.6406,周口市,川汇区环保局,细颗粒物(PM2.5),140,134,121,107,84,102,28,69,57,40,32,7,8,0.7,0.5
2023-01-31T07:00:00,2075A,117.6336,24.4674,漳州市,九湖,,,,,,,,,,,,,,,,
2023-01-31T07:00:00,2160A,112.85,35.5051,晋城市,自来水公司,颗粒物(PM10),69,88,59,46,34,98,2,2,2,57,47,33,25,2.6,1.6
2023-01-31T07:00:00,2161A,112.8318,35.4936,晋城市,白云商贸,颗粒物(PM10),67,84,64,36,32,93,9,12,11,43,42,15,17,2.1,1.8
2023-01-31T07:00:00,2162A,112.8508,35.4887,晋城市,市环保局,细颗粒物(PM2.5),70,80,76,51,38,100,5,5,5,53,45,37,27,2.8,1.7
2023-01-31T07:00:00,2163A,112.8676,35.4897,晋城市,技术学院,颗粒物(PM10),71,92,65,48,37,95,12,12,12,63,53,31,25,2.6,1.6
2023-01-31T07:00:00,2165A,112.8453,35.546,晋城市,白马寺 ,,,,,,,,,,,,,,,,
2023-01-31T07:00:00,2166A,112.4397,39.3522,朔州市,平朔,颗粒物(PM10),76,102,86,28,27,89,21,19,12,41,40,16,22,0.7,0.7
2023-01-31T07:00:00,2167A,112.4575,39.3617,朔州市,朔唯,颗粒物(PM10),80,110,95,35,32,94,10,4,4,55,45,22,28,0.7,0.6
2023-01-31T07:00:00,2168A,112.4258,39.3197,朔州市,区政府,颗粒物(PM10),72,93,84,25,24,95,20,14,11,43,37,18,18,1.0,0.7
2023-01-31T07:00:00,2169A,112.4072,39.3278,朔州市,市环保局,颗粒物(PM10),71,91,81,35,30,90,20,20,17,35,33,19,17,0.8,0.6
2023-01-31T07:00:00,2170A,112.4272,39.3681,朔州市,市二中,颗粒物(PM10),74,98,95,29,27,95,30,24,18,33,35,17,20,0.9,0.8
2023-01-31T07:00:00,2171A,112.7532,37.6945,晋中市,锦纶小区,细颗粒物(PM2.5),80,99,80,59,46,88,16,18,18,38,42,25,26,0.9,0.8
2023-01-31T07:00:00,2173A,112.7249,37.7067,晋中市,南都小区,颗粒物(PM10),77,104,96,49,48,84,9,9,9,52,49,29,30,1.0,1
2023-01-31T07:00:00,2174A,112.6991,37.6982,晋中市,榆次区政府,颗粒物(PM10),80,110,94,51,42,82,11,11,10,42,44,26,28,1.0,0.9
2023-01-31T07:00:00,2175A,110.9956,35.0147,运城市,运城中学,细颗粒物(PM2.5),170,163,126,129,87,102,7,17,15,45,44,14,24,3.1,1.9
2023-01-31T07:00:00,2178A,110.9686,35.0303,运城市,地区技校,细颗粒物(PM2.5),169,158,132,128,94,104,6,10,8,63,57,14,21,2.3,1.7
2023-01-31T07:00:00,2179A,111.0414,35.1147,运城市,空港新区,细颗粒物(PM2.5),200,176,143,150,111,111,6,14,10,58,50,18,19,3.7,2.7
2023-01-31T07:00:00,2181A,112.7383,38.4519,忻州市,开发区,颗粒物(PM10),56,62,80,36,51,52,9,14,10,42,45,6,17,0.9,1.1
2023-01-31T07:00:00,2182A,112.7003,38.4928,忻州市,会展中心,细颗粒物(PM2.5),72,73,89,52,57,46,9,10,10,41,47,6,14,1.2,1.2
2023-01-31T07:00:00,2183A,111.1406,37.5211,吕梁市,环保局,颗粒物(PM10),59,67,79,19,22,76,1,1,1,51,50,11,15,0.6,0.7
2023-01-31T07:00:00,2185A,111.1297,37.5136,吕梁市,自来水公司,颗粒物(PM10),70,90,89,27,25,74,1,1,1,46,45,16,17,0.7,0.8
2023-01-31T07:00:00,2187A,106.8174,39.6973,乌海市,市林业局,颗粒物(PM10),51,51,91,32,50,104,7,5,5,60,57,14,48,1.1,1.8
2023-01-31T07:00:00,2188A,106.7907,39.6667,乌海市,中海勃湾学校,颗粒物(PM10),68,86,103,37,48,105,6,8,7,69,62,18,55,1.4,1.8
2023-01-31T07:00:00,2191A,122.2532,43.6801,通辽市,艺术职业学校,细颗粒物(PM2.5),105,115,53,79,31,69,19,38,30,36,23,14,16,1.2,0.5
2023-01-31T07:00:00,2192A,119.7594,49.2261,呼伦贝尔市,区环保局,,21,21,43,13,35,49,42,33,33,25,33,5,6,0.6,0.7
2023-01-31T07:00:00,2195A,107.4212,40.761,巴彦淖尔市,附二中,,,106,77,56,35,90,,13,12,49,32,52,18,1.5,0.9
2023-01-31T07:00:00,2196A,107.37,40.7372,巴彦淖尔市,市环保大楼,颗粒物(PM10),55,59,69,38,37,92,29,24,18,37,35,8,10,0.6,0.7
2023-01-31T07:00:00,2197A,113.1306,40.9923,乌兰察布市,集宁新区,,42,42,48,29,24,79,30,42,35,32,25,13,13,0.7,0.5
2023-01-31T07:00:00,2200A,122.0392,46.0656,兴安盟,胜华新制药厂,细颗粒物(PM2.5),54,44,43,38,35,71,21,29,28,28,26,4,9,1.0,1.1
2023-01-31T07:00:00,2201A,121.9504,46.0741,兴安盟,科右前旗环保局,细颗粒物(PM2.5),52,37,56,36,45,75,40,40,40,21,27,3,5,0.7,0.9
2023-01-31T07:00:00,2202A,116.1042,43.9317,锡林郭勒盟,市环保监测站,,30,30,45,11,15,76,54,59,57,3,9,6,6,0.2,0.3
2023-01-31T07:00:00,2203A,116.0781,43.9311,锡林郭勒盟,市政府,,33,33,45,3,9,72,51,55,53,4,8,7,8,0.2,0.3
2023-01-31T07:00:00,2204A,105.6467,38.8363,阿拉善盟,西城区西花园,,23,23,20,12,12,98,70,95,91,11,13,13,7,0.5,0.6
2023-01-31T07:00:00,2205A,105.6985,38.8411,阿拉善盟,蒙二幼,,26,7,18,17,16,98,83,98,94,9,10,8,7,0.5,0.5
2023-01-31T07:00:00,2206A,105.724,38.8516,阿拉善盟,环保局新楼,,,,14,,13,92,,93,,,6,,7,,0.4
2023-01-31T07:00:00,2207A,121.6094,41.998,阜新市,工业园区,颗粒物(PM10),77,103,144,55,73,67,6,7,6,31,30,12,22,1.8,1.7
2023-01-31T07:00:00,2208A,121.6697,42.0279,阜新市,长青街,细颗粒物(PM2.5),87,116,93,64,44,74,9,8,8,40,36,6,15,1.3,1.2
2023-01-31T07:00:00,2209A,121.6673,42.0705,阜新市,农业园区,细颗粒物(PM2.5),69,83,75,50,38,70,31,32,31,24,21,16,22,0.9,0.9
2023-01-31T07:00:00,2210A,121.6717,42.0224,阜新市,东苑,细颗粒物(PM2.5),123,120,124,93,89,71,19,9,9,30,37,17,24,1.0,1.4
2023-01-31T07:00:00,2211A,121.6506,42.0498,阜新市,玉龙新城,颗粒物(PM10),71,92,88,47,42,77,15,9,9,33,32,13,18,1.0,1
2023-01-31T07:00:00,2212A,123.2,41.1953,辽阳市,宏伟区,,34,34,39,17,20,64,58,62,61,6,15,9,14,0.8,0.9
2023-01-31T07:00:00,2213A,123.1683,41.2495,辽阳市,新华园,,50,50,51,23,29,77,66,77,74,13,25,8,15,0.5,0.8
2023-01-31T07:00:00,2214A,123.2354,41.2639,辽阳市,滨河路,,40,40,42,23,23,67,57,67,63,13,19,5,13,0.4,0.6
2023-01-31T07:00:00,2215A,123.149,41.2991,辽阳市,铁西工业园,,42,42,54,23,26,66,54,66,62,16,28,9,16,0.7,1
2023-01-31T07:00:00,2216A,123.8139,42.3022,铁岭市,汇工街西,细颗粒物(PM2.5),52,48,51,36,34,62,50,55,54,26,27,15,14,0.6,0.7
2023-01-31T07:00:00,2217A,123.8649,42.2923,铁岭市,水上乐园,细颗粒物(PM2.5),63,65,51,45,36,64,55,56,56,17,23,16,15,0.2,0.4
2023-01-31T07:00:00,2218A,123.8486,42.2867,铁岭市,银州路东段,颗粒物(PM10),51,51,51,26,28,67,54,61,59,20,25,8,11,0.6,0.6
2023-01-31T07:00:00,2219A,123.7153,42.2217,铁岭市,金沙江路北,,47,47,41,23,24,63,56,58,58,19,27,8,9,0.6,0.5
2023-01-31T07:00:00,2220A,120.4318,41.5881,朝阳市,西梁,细颗粒物(PM2.5),89,100,81,66,40,76,6,8,6,42,34,16,20,2.4,1.4
2023-01-31T07:00:00,2221A,120.4521,41.5646,朝阳市,河畔小区,颗粒物(PM10),68,86,74,40,41,79,15,11,11,37,28,14,15,1.6,1.2
2023-01-31T07:00:00,2222A,120.4176,41.5648,朝阳市,八里堡,颗粒物(PM10),72,93,76,47,39,77,4,5,5,44,32,14,19,1.8,1.3
2023-01-31T07:00:00,2223A,120.3806,41.5969,朝阳市,农业园区,细颗粒物(PM2.5),72,86,74,52,37,76,6,13,12,47,34,9,20,1.5,1.2
2023-01-31T07:00:00,2225A,124.4002,43.1713,四平市,一商场,,40,40,39,24,25,68,31,53,49,32,18,18,12,0.7,0.5
2023-01-31T07:00:00,2226A,124.388,43.193,四平市,境园,,38,38,41,15,23,73,27,42,38,42,31,18,13,0.5,0.4
2023-01-31T07:00:00,2227A,125.1358,42.8845,辽源市,环保局,细颗粒物(PM2.5),53,41,44,37,33,74,14,29,18,50,30,13,13,0.8,0.6
2023-01-31T07:00:00,2229A,125.9358,41.7173,通化市,光明,颗粒物(PM10),52,54,47,28,26,74,6,17,9,57,37,54,24,1.5,1.1
2023-01-31T07:00:00,2230A,125.9446,41.7325,通化市,铁路,颗粒物(PM10),64,77,54,39,29,77,11,20,15,50,36,47,23,1.9,1.1
2023-01-31T07:00:00,2231A,126.4219,41.9171,白山市,喜丰,颗粒物(PM10),54,58,52,23,28,76,21,36,31,35,25,33,23,1.3,1.1
2023-01-31T07:00:00,2232A,126.4077,41.9419,白山市,环保局,颗粒物(PM10),55,60,78,35,47,62,15,23,21,35,33,22,23,1.4,1.3
2023-01-31T07:00:00,2233A,124.8006,45.1214,松原市,江南,细颗粒物(PM2.5),89,78,77,66,63,66,39,42,30,26,38,11,17,1.0,0.9
2023-01-31T07:00:00,2234A,124.7965,45.1722,松原市,江北,细颗粒物(PM2.5),80,81,95,59,64,69,17,22,21,42,36,8,6,0.9,1.1
2023-01-31T07:00:00,2235A,122.7911,45.6077,白城市,洮北区环保局,细颗粒物(PM2.5),82,59,46,60,42,74,47,53,43,19,22,3,4,0.6,0.6
2023-01-31T07:00:00,2236A,122.8738,45.5725,白城市,市环保局,颗粒物(PM10),56,62,40,30,16,79,41,62,49,21,18,5,6,0.7,0.5
2023-01-31T07:00:00,2237A,129.47,42.8883,延边朝鲜族自治州,妇幼医院,,35,34,50,24,44,73,21,46,32,28,26,27,16,0.8,0.9
2023-01-31T07:00:00,2238A,129.5055,42.9108,延边朝鲜族自治州,延边医院,,38,33,51,26,42,74,17,39,29,39,31,26,17,0.9,1.1
2023-01-31T07:00:00,2239A,129.3964,42.8881,延边朝鲜族自治州,朝阳川镇医院,,26,26,36,14,31,79,34,40,36,12,13,6,9,0.6,0.7
2023-01-31T07:00:00,2240A,130.9762,45.3001,鸡西市,环保局,,,,79,,62,32,,34,,,42,,12,,1.3
2023-01-31T07:00:00,2243A,130.9429,45.3039,鸡西市,第一中学,细颗粒物(PM2.5),89,79,51,66,39,71,42,40,40,16,16,11,10,0.9,0.5
2023-01-31T07:00:00,2244A,130.2537,47.3416,鹤岗市,哈啤分公司,,39,31,28,27,25,65,56,65,62,12,8,15,15,0.4,0.3
2023-01-31T07:00:00,2245A,130.2684,47.3086,鹤岗市,斯达机电,,42,42,36,28,24,73,69,70,70,20,12,13,13,0.4,0.3
2023-01-31T07:00:00,2246A,130.3114,47.3388,鹤岗市,东山纸板厂,细颗粒物(PM2.5),114,116,63,86,37,67,15,67,46,47,23,14,15,2.0,0.9
2023-01-31T07:00:00,2247A,130.1097,47.3382,鹤岗市,五号水库,,36,33,21,25,18,70,58,62,60,5,5,6,7,0.5,0.4
2023-01-31T07:00:00,2248A,131.1511,46.6937,双鸭山市,双合村,细颗粒物(PM2.5),175,219,67,132,52,69,20,56,44,44,19,21,15,2.8,1.1
2023-01-31T07:00:00,2249A,131.1652,46.6191,双鸭山市,南小市,细颗粒物(PM2.5),72,46,50,52,39,71,48,61,56,22,15,16,18,0.7,0.6
2023-01-31T07:00:00,2250A,131.1524,46.6554,双鸭山市,环保局,细颗粒物(PM2.5),85,64,52,63,49,66,17,44,30,62,28,11,7,0.7,0.7
2023-01-31T07:00:00,2251A,131.12,46.5656,双鸭山市,苗圃,细颗粒物(PM2.5),67,48,42,48,40,82,57,72,63,19,12,7,8,0.3,0.3
2023-01-31T07:00:00,2252A,128.5159,47.4311,伊春市,环保局,细颗粒物(PM2.5),62,41,39,44,34,68,34,48,44,21,20,3,7,0.9,0.8
2023-01-31T07:00:00,2253A,128.9102,47.7412,伊春市,电力嘉园,,41,41,41,8,27,68,27,37,33,21,15,6,8,0.5,0.4
2023-01-31T07:00:00,2254A,129.5029,48.471,伊春市,汤旺河国家公园,,27,27,26,15,17,69,36,40,38,2,3,5,7,0.2,0.3
2023-01-31T07:00:00,2255A,130.2751,46.8028,佳木斯市,佳纺,细颗粒物(PM2.5),89,73,71,66,64,65,9,30,24,45,25,10,12,1.3,0.9
2023-01-31T07:00:00,2256A,130.3995,46.8307,佳木斯市,发电厂,细颗粒物(PM2.5),93,76,48,69,50,64,14,14,14,42,33,4,9,1.1,0.8
2023-01-31T07:00:00,2257A,130.3258,46.7975,佳木斯市,环保局,细颗粒物(PM2.5),75,69,56,55,50,62,8,20,15,55,32,5,9,1.2,0.7
2023-01-31T07:00:00,2258A,130.3648,46.8032,佳木斯市,十一中,,,56,49,51,44,61,9,30,22,83,35,6,6,1.1,0.6
2023-01-31T07:00:00,2259A,130.3794,46.7588,佳木斯市,四丰,细颗粒物(PM2.5),58,48,40,41,36,150,132,141,136,10,9,1,1,0.2,0.1
2023-01-31T07:00:00,2262A,131.0518,45.8751,七台河市,新一中,细颗粒物(PM2.5),78,62,51,57,44,87,45,62,59,22,14,8,8,1.5,1.1
2023-01-31T07:00:00,2263A,127.4833,50.2524,黑河市,交通局,细颗粒物(PM2.5),58,53,59,41,46,55,32,26,24,25,36,15,24,0.8,0.9
2023-01-31T07:00:00,2264A,127.5144,50.2341,黑河市,环保局,细颗粒物(PM2.5),72,84,112,52,69,61,25,19,19,31,34,15,30,0.8,1.1
2023-01-31T07:00:00,2265A,127.5291,50.2472,黑河市,大黑河岛,细颗粒物(PM2.5),74,51,49,54,56,90,57,46,46,3,10,7,17,0.6,0.7
2023-01-31T07:00:00,2266A,126.9785,46.6365,绥化市,人和东街,细颗粒物(PM2.5),285,262,163,235,141,89,5,51,38,74,44,4,8,1.6,1.1
2023-01-31T07:00:00,2267A,126.964,46.6528,绥化市,党政办公中心,细颗粒物(PM2.5),306,276,193,256,177,95,10,14,13,77,59,,11,1.7,1.2
2023-01-31T07:00:00,2269A,124.1069,50.4097,大兴安岭地区,科技局,,30,30,30,19,20,59,39,44,42,8,10,5,8,0.2,0.2
2023-01-31T07:00:00,2270A,117.396,32.939,蚌埠市,工人疗养院,颗粒物(PM10),61,72,80,36,52,126,59,86,73,28,22,8,6,0.6,0.6
2023-01-31T07:00:00,2271A,117.3605,32.9427,蚌埠市,百货大楼,细颗粒物(PM2.5),69,78,81,50,51,123,27,94,63,51,26,10,11,0.7,0.7
2023-01-31T07:00:00,2273A,117.4185,32.8911,蚌埠市,蚌埠学院,颗粒物(PM10),62,73,89,41,46,126,66,89,76,18,20,11,9,0.6,0.6
2023-01-31T07:00:00,2274A,117.3533,32.9673,蚌埠市,淮上区政府,颗粒物(PM10),68,85,90,48,48,127,50,94,61,35,27,12,10,0.6,0.6
2023-01-31T07:00:00,2275A,117.3145,32.8977,蚌埠市,高新区,细颗粒物(PM2.5),83,88,83,61,51,123,50,81,67,22,17,7,9,0.5,0.5
2023-01-31T07:00:00,2277A,116.8305,32.7727,淮南市,潘集区政府,细颗粒物(PM2.5),95,94,98,71,68,115,26,72,47,42,25,6,7,0.7,0.6
2023-01-31T07:00:00,2278A,117.0067,32.6524,淮南市,师范学院,,,,91,,48,105,56,84,56,25,30,,11,0.6,0.7
2023-01-31T07:00:00,2279A,116.8569,32.5951,淮南市,谢家集区政府,颗粒物(PM10),68,85,85,43,53,114,71,70,69,15,26,10,10,0.5,0.6
2023-01-31T07:00:00,2280A,116.8281,32.633,淮南市,八公山区政府,颗粒物(PM10),61,72,84,42,51,112,69,79,70,16,18,10,11,0.5,0.5
2023-01-31T07:00:00,2281A,116.6325,32.6201,淮南市,焦岗湖风景区管理处,颗粒物(PM10),64,77,83,5,6,99,28,56,37,8,5,4,5,0.9,0.8
2023-01-31T07:00:00,2282A,116.8004,33.975,淮北市,监测站,细颗粒物(PM2.5),97,106,118,72,70,123,53,76,69,39,35,11,11,0.7,0.7
2023-01-31T07:00:00,2283A,116.8091,33.9007,淮北市,烈山区政府,细颗粒物(PM2.5),110,113,113,83,74,126,36,77,62,60,34,9,9,0.8,0.8
2023-01-31T07:00:00,2284A,116.7856,33.9477,淮北市,职业技术学院,细颗粒物(PM2.5),99,90,98,74,76,120,53,64,60,38,36,11,11,0.6,0.6
2023-01-31T07:00:00,2285A,117.8177,30.9412,铜陵市,市第四中学,细颗粒物(PM2.5),57,62,81,40,48,102,50,72,58,34,44,15,15,1.3,1.1
2023-01-31T07:00:00,2286A,117.8059,30.9273,铜陵市,市公路局,颗粒物(PM10),60,69,75,25,46,92,41,68,54,36,32,14,12,1.1,0.9
2023-01-31T07:00:00,2287A,117.7807,30.9413,铜陵市,市新民污水厂,颗粒物(PM10),57,63,89,38,46,108,2,70,34,51,45,6,14,1.1,0.9
2023-01-31T07:00:00,2288A,117.7439,30.8792,铜陵市,市第九中学,颗粒物(PM10),81,111,88,43,44,103,31,54,38,50,39,9,12,1.1,0.8
2023-01-31T07:00:00,2289A,117.846,30.9413,铜陵市,车站新区,颗粒物(PM10),53,56,64,35,40,101,72,75,75,20,31,14,11,1.0,0.8
2023-01-31T07:00:00,2290A,117.8483,30.97,铜陵市,市职教基地,颗粒物(PM10),54,57,75,28,44,106,75,61,58,19,28,18,15,0.7,0.7
2023-01-31T07:00:00,2291A,117.0809,30.5177,安庆市,环科院,细颗粒物(PM2.5),64,62,79,46,56,114,22,39,37,65,40,10,8,0.7,0.8
2023-01-31T07:00:00,2292A,117.0331,30.5119,安庆市,马山宾馆,细颗粒物(PM2.5),59,60,80,42,50,119,45,62,52,41,32,10,9,0.7,0.7
2023-01-31T07:00:00,2294A,116.9896,30.6145,安庆市,安庆大学,颗粒物(PM10),52,53,63,35,42,123,70,96,80,30,22,14,12,0.7,0.7
2023-01-31T07:00:00,2295A,118.2903,29.6963,黄山市,延安路89号,,20,20,33,10,21,105,9,27,16,16,12,5,6,0.2,0.3
2023-01-31T07:00:00,2296A,118.327,29.7178,黄山市,黄山东路89号,,37,37,44,24,30,100,4,18,12,16,22,6,7,0.5,0.6
2023-01-31T07:00:00,2297A,118.1371,30.2756,黄山市,黄山区政府5号楼,,29,29,41,8,21,100,17,23,20,8,9,6,6,0.5,0.5
2023-01-31T07:00:00,2298A,118.3093,32.3153,滁州市,老年大学,细颗粒物(PM2.5),69,65,81,50,52,120,18,65,40,43,40,7,10,0.8,0.8
2023-01-31T07:00:00,2299A,118.3244,32.2786,滁州市,人大宾馆,细颗粒物(PM2.5),73,74,86,53,55,116,22,54,38,45,40,6,9,0.7,0.7
2023-01-31T07:00:00,2301A,115.8277,32.8929,阜阳市,市监测站,细颗粒物(PM2.5),108,106,89,81,59,113,30,92,61,38,23,9,10,0.7,0.6
2023-01-31T07:00:00,2303A,115.8554,32.8605,阜阳市,开发区,细颗粒物(PM2.5),99,131,104,74,56,119,19,75,52,45,24,7,8,1.1,0.8
2023-01-31T07:00:00,2307A,116.5079,31.737,六安市,监测大楼,"颗粒物(PM10),细颗粒物(PM2.5)",52,53,61,36,44,101,62,69,66,15,20,7,8,0.4,0.4
2023-01-31T07:00:00,2308A,116.4738,31.7643,六安市,皖西学院,细颗粒物(PM2.5),67,65,68,48,40,104,24,56,34,28,21,4,5,0.5,0.4
2023-01-31T07:00:00,2309A,116.4996,31.7905,六安市,朝阳厂,细颗粒物(PM2.5),64,59,58,46,40,100,23,72,45,44,27,6,5,0.7,0.6
2023-01-31T07:00:00,2310A,116.5567,31.7886,六安市,开发区,细颗粒物(PM2.5),65,77,80,47,44,108,54,79,65,14,16,6,9,0.5,0.5
2023-01-31T07:00:00,2311A,115.8072,33.8399,亳州市,污水处理厂,细颗粒物(PM2.5),118,115,109,89,72,107,45,55,51,20,22,9,9,0.5,0.5
2023-01-31T07:00:00,2312A,115.7789,33.8518,亳州市,三国揽胜宫,细颗粒物(PM2.5),125,132,125,95,79,117,28,73,48,38,25,9,10,0.9,0.7
2023-01-31T07:00:00,2314A,117.47,30.6618,池州市,池州学院,,41,41,69,28,44,114,49,70,61,18,19,6,12,1.0,0.8
2023-01-31T07:00:00,2316A,118.7581,30.9454,宣城市,鳌峰子站,,28,27,47,19,26,101,36,68,42,27,23,3,8,0.4,0.4
2023-01-31T07:00:00,2317A,118.7385,30.9743,宣城市,敬亭山子站,,26,26,40,17,21,109,75,79,74,12,16,7,7,0.3,0.3
2023-01-31T07:00:00,2318A,118.7173,30.9427,宣城市,开发区子站,,33,31,46,23,30,109,5,21,8,59,38,7,7,0.6,0.6
2023-01-31T07:00:00,2319A,119.0141,25.4325,莆田市,荔城区仓后路,,42,42,47,27,29,114,60,78,66,13,15,7,8,0.7,0.8
2023-01-31T07:00:00,2320A,119.0015,25.4553,莆田市,莆田市监测站,,32,27,38,22,23,116,71,75,73,6,9,6,7,0.4,0.5
2023-01-31T07:00:00,2321A,119.1119,25.4561,莆田市,涵江区六中,,32,32,47,16,29,112,68,83,77,12,13,5,7,0.6,0.6
2023-01-31T07:00:00,2322A,119.1013,25.3215,莆田市,秀屿区政府,,46,46,49,30,34,124,72,79,75,12,14,6,8,0.6,0.6
2023-01-31T07:00:00,2323A,118.981,25.4792,莆田市,东圳水库,,,,,,,,,,,,,,,,
2023-01-31T07:00:00,2324A,117.6211,26.2625,三明市,三钢,,45,32,46,31,37,103,12,28,23,22,20,5,7,1.2,0.8
2023-01-31T07:00:00,2325A,117.635,26.2714,三明市,三明二中,,40,27,50,28,34,98,16,25,22,20,21,3,5,0.9,0.7
2023-01-31T07:00:00,2326A,117.6028,26.2378,三明市,三元区政府,细颗粒物(PM2.5),57,30,51,40,38,94,9,24,20,19,24,5,8,1.0,1.2
2023-01-31T07:00:00,2327A,117.7275,26.3108,三明市,洋溪,,,,,,,,,,,,,,,,
2023-01-31T07:00:00,2331A,118.0966,26.6761,南平市,茫荡山,,,,,,,,,,,,,,,,
2023-01-31T07:00:00,2332A,118.1681,26.6369,南平市,南平市监测站,细颗粒物(PM2.5),58,60,50,41,35,97,23,24,22,14,19,6,5,0.6,0.7
2023-01-31T07:00:00,2333A,118.1825,26.6489,南平市,南平铝业有限公司,细颗粒物(PM2.5),64,48,47,46,34,94,18,19,18,15,16,9,10,0.5,0.6
2023-01-31T07:00:00,2334A,118.1756,26.6272,南平市,南平七中,细颗粒物(PM2.5),55,38,45,39,32,100,19,25,22,14,21,4,5,0.8,0.7
2023-01-31T07:00:00,2335A,117.0189,25.1181,龙岩市,龙岩师专,,,,,,,,,,,,,,,,
2023-01-31T07:00:00,2336A,117.0217,25.1033,龙岩市,龙岩市监测站,,32,25,38,22,25,107,16,24,20,26,27,6,7,0.5,0.6
2023-01-31T07:00:00,2337A,117.0258,25.0661,龙岩市,闽西职业技术学院,,35,35,37,22,20,102,32,40,38,20,21,14,12,0.6,0.6
2023-01-31T07:00:00,2338A,117.0196,25.0306,龙岩市,龙岩学院,,23,11,29,16,19,105,39,48,42,10,12,5,6,0.4,0.4
2023-01-31T07:00:00,2339A,119.5001,26.6946,宁德市,金涵水库,,,,,,,,,,,,,,,,
2023-01-31T07:00:00,2341A,119.5388,26.6612,宁德市,宁德市监测站,,29,20,38,20,27,106,47,65,56,15,11,5,6,0.7,0.7
2023-01-31T07:00:00,2342A,117.3102,29.3867,景德镇市,王港中学,,26,26,37,14,26,129,18,24,20,6,10,4,4,0.2,0.1
2023-01-31T07:00:00,2343A,117.2117,29.2933,景德镇市,老干部活动中心,颗粒物(PM10),61,72,82,38,42,105,21,20,18,17,27,7,10,0.5,0.7
2023-01-31T07:00:00,2344A,117.1894,29.2789,景德镇市,兽医站,,38,24,58,26,40,112,12,17,16,26,24,4,10,0.4,0.7
2023-01-31T07:00:00,2345A,117.1547,29.2617,景德镇市,台达陶瓷,,29,29,56,15,33,286,22,24,22,21,28,5,7,0.7,0.8
2023-01-31T07:00:00,2346A,117.2461,29.2956,景德镇市,陶研所,,46,46,64,16,24,109,10,16,14,15,17,3,5,0.6,0.7
2023-01-31T07:00:00,2347A,114.0997,27.5002,萍乡市,武功山,,28,17,33,19,23,100,34,42,39,9,17,13,9,0.2,0.3
2023-01-31T07:00:00,2348A,113.8385,27.6434,萍乡市,中医院,细颗粒物(PM2.5),62,70,76,44,47,108,10,52,27,26,29,11,18,1.0,1.6
2023-01-31T07:00:00,2349A,113.8493,27.6253,萍乡市,市政府车库,细颗粒物(PM2.5),75,70,90,55,61,118,8,14,13,31,32,8,11,1.0,1.8
2023-01-31T07:00:00,2350A,113.8676,27.6435,萍乡市,市环保局,细颗粒物(PM2.5),64,64,70,46,46,114,37,52,45,25,26,20,21,0.7,1
2023-01-31T07:00:00,2351A,113.866,27.6198,萍乡市,安源区政府,细颗粒物(PM2.5),58,33,78,41,59,117,20,22,22,22,33,23,19,0.9,1.7
2023-01-31T07:00:00,2352A,115.0861,27.9317,新余市,北岗,,42,40,44,29,33,95,5,47,21,21,17,4,10,0.7,0.7
2023-01-31T07:00:00,2353A,114.9886,27.8431,新余市,飞宇,颗粒物(PM10),62,74,70,38,37,85,1,33,14,35,28,9,19,0.7,0.8
2023-01-31T07:00:00,2354A,114.9231,27.8246,新余市,第二水厂,细颗粒物(PM2.5),63,67,84,45,47,85,7,10,10,40,43,13,18,0.7,0.8
2023-01-31T07:00:00,2355A,114.9308,27.8036,新余市,市气象局,,49,49,72,30,44,85,8,21,18,27,33,8,13,0.7,0.8
2023-01-31T07:00:00,2357A,116.9822,28.1136,鹰潭市,龙虎山,,33,33,44,16,22,126,34,64,48,2,2,3,4,1.0,0.9
2023-01-31T07:00:00,2358A,117.0564,28.2642,鹰潭市,新监测站,,50,50,51,34,31,187,0,77,27,42,24,92,38,0.6,0.4
2023-01-31T07:00:00,2359A,117.0311,28.2475,鹰潭市,财苑宾馆,颗粒物(PM10),54,57,56,36,33,158,88,71,71,39,26,162,27,0.4,0.5
2023-01-31T07:00:00,2360A,117.0222,28.2264,鹰潭市,体育馆,,38,37,49,26,30,116,65,60,47,15,18,12,4,0.6,0.5
2023-01-31T07:00:00,2361A,117.0017,28.2131,鹰潭市,三川水表,,32,32,50,19,28,108,30,46,37,2,13,3,4,0.2,0.3
2023-01-31T07:00:00,2362A,114.9017,25.9149,赣州市,通天岩,,31,31,48,14,19,104,27,44,37,9,13,5,6,0.9,0.9
2023-01-31T07:00:00,2363A,114.9367,25.8664,赣州市,地委,,46,46,62,22,29,97,6,14,11,33,32,12,10,0.8,0.8
2023-01-31T07:00:00,2364A,114.9461,25.8481,赣州市,气象台,,37,37,64,23,36,94,5,6,6,34,38,7,10,1.0,1.1
2023-01-31T07:00:00,2365A,114.9322,25.8333,赣州市,市图书馆,,40,40,67,25,36,89,4,1,1,36,35,5,8,1.1,1.3
2023-01-31T07:00:00,2366A,114.8905,25.8471,赣州市,华坚鞋城,颗粒物(PM10),56,62,69,33,36,77,7,9,8,34,38,5,6,0.9,1
2023-01-31T07:00:00,2367A,114.9754,27.0803,吉安市,红声器材厂,颗粒物(PM10),54,57,69,33,37,108,42,36,35,12,25,11,13,0.6,0.7
2023-01-31T07:00:00,2368A,114.9658,27.0999,吉安市,市森林工业局,细颗粒物(PM2.5),53,49,66,37,44,106,40,23,23,20,37,9,12,0.4,0.6
2023-01-31T07:00:00,2369A,114.99,27.1312,吉安市,市环境监测站,颗粒物(PM10),52,54,69,33,42,112,32,25,25,18,27,6,8,0.4,0.5
2023-01-31T07:00:00,2370A,115.0093,27.0968,吉安市,青原区法院,,46,46,62,26,35,114,7,24,19,28,21,9,10,0.6,0.6
2023-01-31T07:00:00,2371A,114.3408,27.8064,宜春市,槟榔水业,颗粒物(PM10),57,63,64,35,36,74,9,28,13,19,23,6,10,0.4,0.4
2023-01-31T07:00:00,2373A,114.3956,27.7844,宜春市,市石油公司,,42,38,57,29,32,115,6,17,13,23,25,2,4,0.8,0.8
2023-01-31T07:00:00,2374A,114.3703,27.7914,宜春市,市气象局,,46,42,58,32,34,108,21,27,26,17,30,2,4,1.4,1.3
2023-01-31T07:00:00,2375A,114.4013,27.8074,宜春市,市广电局,细颗粒物(PM2.5),54,56,75,38,40,115,10,19,16,30,36,2,5,1.1,1.1
2023-01-31T07:00:00,2376A,116.2127,28.0814,抚州市,桐源党溪,颗粒物(PM10),51,51,66,33,40,106,9,31,19,34,21,2,7,0.6,0.6
2023-01-31T07:00:00,2377A,116.3544,27.9831,抚州市,市站,,37,37,70,20,39,106,33,38,37,23,29,2,4,0.7,0.7
2023-01-31T07:00:00,2378A,116.3565,27.963,抚州市,血防站,颗粒物(PM10),53,56,69,24,37,93,18,35,31,26,27,5,6,1.0,0.9
2023-01-31T07:00:00,2379A,116.3564,28.0007,抚州市,采茶剧团,,50,48,65,35,43,106,16,16,16,21,24,4,5,0.7,0.8
2023-01-31T07:00:00,2380A,116.385,27.9647,抚州市,医学分院,,34,34,56,20,29,102,42,37,37,14,23,4,5,0.8,0.8
2023-01-31T07:00:00,2381A,118.005,28.4572,上饶市,百草园,,,,46,,26,42,,40,,,10,,7,,1.0
