timepoint,stationcode,longitude,latitude,area,positionname,primarypollutant,aqi,pm10,pm10_24h,pm2_5,pm2_5_24h,o3,o3_24h,o3_8h,o3_8h_24h,no2,no2_24h,so2,so2_24h,co,co_24h
2026-04-07T0400,2568A,102.2503,31.8896,阿坝藏族羌族自治州,马师校,,30,30,24,3,6,54,54,NA,NA,2,6,6,6,0.3,0.4
2026-04-07T0400,3994A,102.2174,31.9016,阿坝藏族羌族自治州,马尔康中学西区,,17,15,12,3,6,53,53,NA,NA,4,6,3,3,0.3,0.3
2026-04-07T0400,2695A,80.2899,41.1684,阿克苏地区,电视台,颗粒物(PM10),138,217,192,92,66,33,33,NA,NA,33,29,3,4,0.7,0.6
2026-04-07T0400,2696A,80.2592,41.1541,阿克苏地区,艺术中心,颗粒物(PM10),180,310,224,131,83,3,3,NA,NA,77,41,6,6,1.4,0.8
2026-04-07T0400,2205A,105.699,38.8409,阿拉善盟,蒙二幼,,45,45,36,9,5,114,114,NA,NA,7,7,11,8,0.5,0.5
2026-04-07T0400,2206A,105.7198,38.8508,阿拉善盟,环保局新楼,,37,37,35,16,10,115,115,NA,NA,5,4,11,8,0.5,0.5
2026-04-07T0400,2708A,88.1266,47.8515,阿勒泰地区,市站,,36,20,15,3,3,115,115,NA,NA,2,5,5,5,0.1,0
2026-04-07T0400,4166A,88.1198,47.7931,阿勒泰地区,阿勒泰路33号,,34,25,16,3,2,107,107,NA,NA,2,5,6,5,0.3,0.3
2026-04-07T0400,2630A,80.1171,32.4999,阿里地区,阿里监测站,,28,12,12,3,5,89,89,NA,NA,5,5,8,7,0.5,0.5
2026-04-07T0400,3192A,80.0906,32.5029,阿里地区,阿里藏医院,,35,11,9,3,3,109,109,NA,NA,3,2,13,8,0.4,0.4
2026-04-07T0400,2644A,109.0088,32.6974,安康市,汉滨区检察院,颗粒物(PM10),66,72,76,32,32,34,34,NA,NA,11,17,5,8,0.5,0.5
2026-04-07T0400,4054A,109.0324,32.6913,安康市,市邮政管理局,颗粒物(PM10),78,89,95,35,36,35,35,NA,NA,12,23,26,16,0.5,0.7
2026-04-07T0400,2291A,117.0806,30.5181,安庆市,环科院,颗粒物(PM10),70,78,70,27,33,84,84,NA,NA,11,18,8,7,0.6,0.6
2026-04-07T0400,2292A,117.0331,30.5118,安庆市,马山宾馆,颗粒物(PM10),69,76,69,28,34,83,83,NA,NA,6,15,6,6,0.3,0.4
2026-04-07T0400,2294A,116.9897,30.6146,安庆市,安庆大学,颗粒物(PM10),64,69,75,30,33,73,73,NA,NA,8,13,4,6,0.5,0.6
2026-04-07T0400,3173A,117.0598,30.5351,安庆市,市人大,颗粒物(PM10),69,76,72,27,34,83,83,NA,NA,13,17,9,9,0.5,0.5
2026-04-07T0400,3123A,105.9408,26.2431,安顺市,凤凰山,,31,31,46,20,35,70,70,NA,NA,6,7,6,7,0.6,0.6
2026-04-07T0400,3124A,105.9443,26.2567,安顺市,金钟山,,32,31,45,22,35,62,62,NA,NA,5,6,10,9,0.6,0.7
2026-04-07T0400,3125A,105.8983,26.248,安顺市,娄家坡,,34,34,43,21,36,60,60,NA,NA,5,6,27,15,0.5,0.6
2026-04-07T0400,1819A,114.3552,36.1017,安阳市,红庙街,颗粒物(PM10),71,79,92,21,29,60,60,NA,NA,22,18,5,5,0.3,0.4
2026-04-07T0400,1820A,114.361,36.0681,安阳市,银杏小区,颗粒物(PM10),73,81,97,20,33,65,65,NA,NA,16,14,7,6,0.1,0.2
2026-04-07T0400,3141A,114.3921,36.0879,安阳市,信访局,颗粒物(PM10),62,66,86,29,29,64,64,NA,NA,18,17,6,5,0.3,0.4
2026-04-07T0400,3669A,114.4706,36.0634,安阳市,左辅环卫站,颗粒物(PM10),68,75,97,29,32,56,56,NA,NA,17,13,6,6,0.6,0.6
2026-04-07T0400,4117A,114.2918,36.0769,安阳市,钢三路198号,颗粒物(PM10),58,60,102,29,30,61,61,NA,NA,20,19,12,9,0.4,0.5
2026-04-07T0400,1748A,123.0441,41.1201,鞍山市,深沟寺,颗粒物(PM10),65,71,27,35,12,28,28,NA,NA,54,22,66,23,3.5,1.6
2026-04-07T0400,1749A,123.011,41.0931,鞍山市,太阳城,颗粒物(PM10),54,55,24,26,10,61,61,NA,NA,10,12,13,10,0.5,0.7
2026-04-07T0400,1750A,123.0483,41.1445,鞍山市,太平,颗粒物(PM10),55,57,30,24,11,49,49,NA,NA,24,17,30,17,1.6,1
2026-04-07T0400,1751A,122.964,41.0968,鞍山市,铁西三道街,,29,29,29,10,14,50,50,NA,NA,17,19,8,7,0.5,0.6
2026-04-07T0400,1753A,123.0219,41.0822,鞍山市,明达新区,,40,40,22,21,10,58,58,NA,NA,12,15,13,10,0.5,0.7
2026-04-07T0400,4201A,122.944647,41.082639,鞍山市,兴盛南路290号,,26,26,28,11,12,47,47,NA,NA,21,19,9,8,0.4,0.6
2026-04-07T0400,2195A,107.4206,40.7609,巴彦淖尔市,附二中,颗粒物(PM10),71,79,52,33,21,34,34,NA,NA,21,11,11,11,0.6,0.4
2026-04-07T0400,2196A,107.37,40.7372,巴彦淖尔市,市环保大楼,细颗粒物(PM2.5),96,84,45,58,23,45,45,NA,NA,18,9,9,7,0.5,0.4
2026-04-07T0400,1956A,86.1476,41.7529,巴音郭楞蒙古自治州,孔雀公园,颗粒物(PM10),58,61,57,22,17,3,3,NA,NA,87,31,11,11,0.4,0.4
2026-04-07T0400,1957A,86.1971,41.7166,巴音郭楞蒙古自治州,棉纺厂,颗粒物(PM10),86,100,64,26,17,38,38,NA,NA,31,20,/,/,/,/
2026-04-07T0400,1958A,86.236,41.7172,巴音郭楞蒙古自治州,经济开发区,,24,24,44,9,11,60,60,NA,NA,5,12,7,8,0.3,0.3
2026-04-07T0400,3181A,106.776805,31.852614,巴中市,市五中,颗粒物(PM10),58,61,57,38,31,16,16,NA,NA,11,16,8,8,0.7,0.7
2026-04-07T0400,3183A,106.7419,31.8654,巴中市,圣泉水务公司,细颗粒物(PM2.5),64,56,51,42,34,22,22,NA,NA,13,19,9,9,0.8,0.7
2026-04-07T0400,3616A,106.7617,31.8343,巴中市,市中心医院,细颗粒物(PM2.5),60,52,55,40,36,14,14,NA,NA,9,14,8,8,0.7,0.7
2026-04-07T0400,2235A,122.7909,45.608,白城市,洮北区环保局,,25,25,25,10,16,69,69,NA,NA,13,11,4,4,0.5,0.1
2026-04-07T0400,2236A,122.8741,45.5725,白城市,市环保局,,30,NA,19,21,18,75,75,NA,NA,4,5,6,5,0.2,0.2
2026-04-07T0400,2231A,126.4219,41.9172,白山市,喜丰,,39,28,45,27,10,77,77,NA,NA,8,7,6,7,0.9,0.8
2026-04-07T0400,2232A,126.4082,41.9416,白山市,环保局,,43,33,35,30,10,81,81,NA,NA,10,9,11,8,0.6,0.6
2026-04-07T0400,2647A,104.1727,36.5448,白银市,第三小学,颗粒物(PM10),97,115,75,33,27,14,14,NA,NA,53,22,36,32,0.9,0.7
2026-04-07T0400,2648A,104.1467,36.5482,白银市,动力公司,颗粒物(PM10),66,72,69,33,24,46,46,NA,NA,18,16,19,8,1.7,0.5
2026-04-07T0400,2512A,106.6102,23.901,百色市,市监测站,细颗粒物(PM2.5),110,104,97,70,77,87,87,NA,NA,14,14,31,19,1.1,1.1
2026-04-07T0400,2513A,106.6524,23.8842,百色市,市中心血站,颗粒物(PM10),81,93,102,48,89,81,81,NA,NA,12,11,24,16,1.2,1.1
2026-04-07T0400,4133A,106.6273,23.8798,百色市,龙景西路,细颗粒物(PM2.5),122,119,115,84,84,85,85,NA,NA,16,14,38,23,1.0,1
2026-04-07T0400,2270A,117.396,32.9389,蚌埠市,工人疗养院,颗粒物(PM10),64,69,94,30,35,46,46,NA,NA,30,24,4,5,0.3,0.3
2026-04-07T0400,2271A,117.3606,32.9428,蚌埠市,百货大楼,颗粒物(PM10),58,60,80,28,31,55,55,NA,NA,30,21,5,6,0.4,0.5
2026-04-07T0400,2273A,117.4183,32.8909,蚌埠市,蚌埠学院,颗粒物(PM10),72,80,84,27,33,2,2,NA,NA,83,27,8,6,0.4,0.5
2026-04-07T0400,2274A,117.3534,32.9672,蚌埠市,淮上区政府,颗粒物(PM10),56,58,82,28,34,58,58,NA,NA,23,20,5,6,0.3,0.3
2026-04-07T0400,2275A,117.3143,32.8977,蚌埠市,高新区,颗粒物(PM10),58,61,80,22,34,62,62,NA,NA,36,24,8,8,0.5,0.6
2026-04-07T0400,3715A,117.3091,32.9314,蚌埠市,蚌埠田家炳中学,颗粒物(PM10),64,69,89,27,34,60,60,NA,NA,27,18,5,6,0.3,0.4
2026-04-07T0400,1585A,109.8761,40.6533,包头市,市环境监测站,,24,24,31,11,12,60,60,NA,NA,14,16,14,11,0.5,0.6
2026-04-07T0400,1587A,109.9992,40.5843,包头市,包头八中,,30,29,29,21,20,49,49,NA,NA,19,15,21,12,0.6,0.4
2026-04-07T0400,1589A,109.8641,40.6288,包头市,惠龙物流,,21,21,24,14,12,53,53,NA,NA,14,13,11,10,0.4,0.5
2026-04-07T0400,1590A,110.0376,40.5546,包头市,东河鸿龙湾,,20,20,25,14,12,43,43,NA,NA,20,19,12,12,0.5,0.5
2026-04-07T0400,3283A,109.9154,40.5684,包头市,滨河大厦,,23,23,23,12,10,48,48,NA,NA,16,15,14,12,0.4,0.5
2026-04-07T0400,3419A,109.9449,40.6259,包头市,包头市委党校,,21,21,22,3,8,39,39,NA,NA,24,14,20,11,0.7,0.4
2026-04-07T0400,3683A,109.8332,40.6577,包头市,昆区政府,,22,22,23,12,11,58,58,NA,NA,17,17,10,9,0.5,0.7
2026-04-07T0400,1931A,107.0802,34.3129,宝鸡市,竹园沟,颗粒物(PM10),69,76,94,14,19,44,44,NA,NA,15,18,7,8,0.3,0.4
2026-04-07T0400,1933A,107.1429,34.3549,宝鸡市,监测站,颗粒物(PM10),82,94,110,20,24,36,36,NA,NA,17,18,6,8,0.5,0.5
2026-04-07T0400,1934A,107.1172,34.3759,宝鸡市,技工学校,颗粒物(PM10),83,95,113,30,35,51,51,NA,NA,6,12,6,7,0.5,0.5
2026-04-07T0400,1936A,107.2025,34.3518,宝鸡市,文理学院,颗粒物(PM10),88,103,108,32,34,42,42,NA,NA,15,18,6,7,0.4,0.4
2026-04-07T0400,1937A,107.2396,34.3626,宝鸡市,三迪小学,颗粒物(PM10),92,108,116,37,53,39,39,NA,NA,20,22,5,6,0.5,0.5
2026-04-07T0400,4155A,107.1721,34.3558,宝鸡市,滨河北路,颗粒物(PM10),89,104,120,29,33,42,42,NA,NA,14,18,6,8,0.5,0.5
2026-04-07T0400,4308A,107.3898,34.3601,宝鸡市,陈仓区北开路21号,颗粒物(PM10),95,113,129,36,38,52,52,NA,NA,21,25,114,33,1.0,0.6
2026-04-07T0400,1051A,115.4803,38.8568,保定市,游泳馆,颗粒物(PM10),54,55,47,15,15,64,64,NA,NA,13,13,2,3,0.4,0.3
2026-04-07T0400,1052A,115.509,38.8895,保定市,华电二区,颗粒物(PM10),52,52,42,3,9,53,53,NA,NA,20,15,3,2,0.1,0
2026-04-07T0400,1053A,115.4588,38.9037,保定市,接待中心,,47,47,42,12,10,65,65,NA,NA,10,11,3,4,0.1,0.1
2026-04-07T0400,1054A,115.4484,38.8344,保定市,地表水厂,颗粒物(PM10),63,67,54,15,11,65,65,NA,NA,16,16,3,2,0,0
2026-04-07T0400,3581A,115.3136,38.9511,保定市,满城区生态环境分局,颗粒物(PM10),53,53,59,6,13,75,75,NA,NA,9,18,3,2,0.2,0.3
2026-04-07T0400,3582A,115.4709,38.7628,保定市,清苑区第二中学,颗粒物(PM10),61,65,65,11,15,61,61,NA,NA,14,15,7,7,0.4,0.3
2026-04-07T0400,3583A,115.6231,39.0223,保定市,徐水物探局,,42,42,62,12,11,70,70,NA,NA,10,13,3,2,0.3,0.3
2026-04-07T0400,4004A,115.4199,38.8665,保定市,双鹰农机,颗粒物(PM10),65,70,50,7,12,64,64,NA,NA,12,11,5,3,0.2,0.1
2026-04-07T0400,4034A,115.515,38.8589,保定市,植保所站,颗粒物(PM10),59,62,52,8,9,62,62,NA,NA,16,16,1,2,0.6,0.4
2026-04-07T0400,2594A,99.1589,25.1137,保山市,市环境监测站,,33,32,36,23,23,84,84,NA,NA,7,7,4,6,0.3,0.3
2026-04-07T0400,2595A,99.1616,25.1381,保山市,市环保局,,33,32,40,23,25,89,89,NA,NA,4,5,6,6,0.4,0.4
2026-04-07T0400,1867A,109.1435,21.4085,北海市,海滩公园,颗粒物(PM10),55,56,64,35,33,55,55,NA,NA,2,6,8,7,0.7,0.7
2026-04-07T0400,1868A,109.0983,21.466,北海市,新市环保局,细颗粒物(PM2.5),68,58,55,44,32,63,63,NA,NA,18,11,8,8,0.8,0.7
2026-04-07T0400,1869A,109.1775,21.5232,北海市,北海工业园,颗粒物(PM10),102,124,68,61,39,28,28,NA,NA,26,11,12,6,0.8,0.7
2026-04-07T0400,3400A,109.1844,21.4396,北海市,龙潭自来水厂,细颗粒物(PM2.5),90,NA,49,55,32,27,27,NA,NA,16,10,4,7,0.9,0.8
2026-04-07T0400,1001A,116.3611,39.8786,北京市,万寿西宫,,25,13,20,3,5,79,79,NA,NA,12,9,2,2,0.1,0.2
2026-04-07T0400,1003A,116.4174,39.9289,北京市,东四,,25,17,25,3,6,79,79,NA,NA,13,8,5,5,0.2,0.2
2026-04-07T0400,1004A,116.4073,39.8858,北京市,天坛,,22,13,21,3,5,70,70,NA,NA,13,11,3,3,0.4,0.4
2026-04-07T0400,1005A,116.4622,39.9364,北京市,农展馆,,23,12,17,3,4,73,73,NA,NA,11,8,2,2,0.2,0.2
2026-04-07T0400,1006A,116.3399,39.9293,北京市,官园,,23,12,19,3,5,71,71,NA,NA,13,12,3,3,0.4,0.4
2026-04-07T0400,1007A,116.2879,39.9613,北京市,海淀万柳,,24,NA,16,3,4,75,75,NA,NA,11,10,3,3,0.2,0.2
2026-04-07T0400,1008A,116.6635,40.1349,北京市,顺义新城,,24,12,21,3,4,76,76,NA,NA,7,9,3,3,0.3,0.3
2026-04-07T0400,1009A,116.6275,40.327,北京市,怀柔镇,,25,9,14,3,3,79,79,NA,NA,1,4,4,4,0.3,0.3
2026-04-07T0400,1010A,116.2295,40.217,北京市,昌平镇,,25,13,19,3,4,80,80,NA,NA,1,4,2,2,0.1,0.1
2026-04-07T0400,1011A,116.3968,39.982,北京市,奥体中心,,21,14,19,3,3,67,67,NA,NA,12,8,4,4,0.3,0.2
2026-04-07T0400,3418A,116.8336,40.4095,北京市,密云新城,,25,8,18,3,4,77,77,NA,NA,2,3,2,1,0.2,0.2
2026-04-07T0400,3671A,116.0879,39.9725,北京市,门头沟三家店,,22,22,23,3,5,70,70,NA,NA,8,7,2,2,0.2,0.2
2026-04-07T0400,3672A,116.1507,39.8246,北京市,丰台云岗,,21,19,24,3,5,67,67,NA,NA,6,3,3,3,0.2,0.3
2026-04-07T0400,3674A,115.9578,39.7602,北京市,房山燕山,,33,33,28,9,7,59,59,NA,NA,9,8,4,4,0.3,0.3
2026-04-07T0400,3675A,116.4669,39.7734,北京市,大兴旧宫,,23,13,23,3,4,73,73,NA,NA,11,7,4,3,0.3,0.3
2026-04-07T0400,3694A,115.9859,40.4562,北京市,延庆石河营,,23,14,16,3,4,73,73,NA,NA,2,3,1,1,0.3,0.3
2026-04-07T0400,3695A,116.6151,40.3052,北京市,怀柔新城,,25,10,14,3,4,80,80,NA,NA,4,6,4,3,0.3,0.3
2026-04-07T0400,3696A,116.2542,39.8764,北京市,丰台小屯,,20,13,21,3,5,62,62,NA,NA,6,7,2,2,0.3,0.2
2026-04-07T0400,3697A,116.8399,40.3843,北京市,密云镇,,25,7,17,3,4,78,78,NA,NA,4,10,2,2,0.3,0.3
2026-04-07T0400,4057A,115.9423,40.4431,北京市,延庆百泉,,23,22,16,3,4,72,72,NA,NA,8,9,3,3,0.2,0.2
2026-04-07T0400,4058A,116.6598,39.9164,北京市,通州新华,,25,14,27,3,5,79,79,NA,NA,8,8,4,4,0.4,0.4
2026-04-07T0400,4182A,116.1942,39.9158,北京市,石景山八角,,19,19,25,3,5,55,55,NA,NA,31,17,3,3,0.1,0.1
2026-04-07T0400,4194A,117.078628,40.151726,北京市,平谷新城,,26,10,18,3,3,82,82,NA,NA,3,6,1,1,0.2,0.3
2026-04-07T0400,1761A,123.8274146,41.31234549,本溪市,大峪,,27,27,27,6,10,55,55,NA,NA,6,10,6,6,0.5,0.6
2026-04-07T0400,1763A,123.7169,41.3094,本溪市,彩屯,,42,42,35,7,9,68,68,NA,NA,5,8,8,8,0.3,0.4
2026-04-07T0400,1764A,123.7672166,41.28649327,本溪市,东明,,37,37,44,3,9,61,61,NA,NA,13,16,8,10,0.3,0.7
2026-04-07T0400,1765A,123.799345,41.266614,本溪市,新立屯,,29,29,35,3,7,40,40,NA,NA,17,16,8,9,0.9,0.8
2026-04-07T0400,1766A,123.829144,41.336777,本溪市,威宁,,46,46,46,8,10,37,37,NA,NA,19,21,6,6,0.4,0.5
2026-04-07T0400,2587A,105.287,27.3133,毕节市,八中,颗粒物(PM10),51,51,45,22,24,50,50,NA,NA,8,6,10,10,0.6,0.5
2026-04-07T0400,2588A,105.3079,27.2987,毕节市,师专,,37,37,42,17,23,55,55,NA,NA,6,7,8,9,0.4,0.4
2026-04-07T0400,4263A,105.3688,27.3598,毕节市,工业大道,,26,26,46,12,23,59,59,NA,NA,6,6,9,9,/,/
2026-04-07T0400,1629A,117.9961,37.3604,滨州市,第二水厂,,39,39,43,3,7,77,77,NA,NA,10,15,10,17,0.1,0.1
2026-04-07T0400,1630A,117.9789,37.3931,滨州市,北中新校,,29,29,40,3,7,70,70,NA,NA,12,16,8,11,0.3,0.3
2026-04-07T0400,3514A,117.9379,37.3959,滨州市,中海酒店,,31,31,34,3,7,88,88,NA,NA,11,17,8,13,0.4,0.4
2026-04-07T0400,3515A,117.9381509,37.35547456,滨州市,开发区一中,,44,44,50,3,7,79,79,NA,NA,11,16,5,15,0.4,0.4
2026-04-07T0400,3516A,118.0914,37.6938,滨州市,金海六路,NA,NA,22,40,3,8,82,82,NA,NA,6,13,7,8,NA,0.1
2026-04-07T0400,4028A,117.9955,37.3752,滨州市,滨州市西街道办事处,,36,36,43,3,7,82,82,NA,NA,7,11,9,15,0.1,0.2
2026-04-07T0400,2311A,115.8071,33.8399,亳州市,污水处理厂,颗粒物(PM10),73,81,80,45,29,42,42,NA,NA,27,20,7,9,0.2,0.3
2026-04-07T0400,2312A,115.7789,33.8519,亳州市,三国揽胜宫,颗粒物(PM10),76,86,82,39,28,49,49,NA,NA,21,15,12,9,0.3,0.3
2026-04-07T0400,3332A,115.7631,33.803,亳州市,亳州学院,颗粒物(PM10),72,80,77,42,28,58,58,NA,NA,17,12,8,10,0.4,0.4
2026-04-07T0400,2693A,82.0482,44.8553,博尔塔拉蒙古自治州,市党校,颗粒物(PM10),101,121,128,8,20,54,54,NA,NA,5,5,4,3,0.1,0.1
2026-04-07T0400,2694A,82.0805,44.8966,博尔塔拉蒙古自治州,市环保局,颗粒物(PM10),103,126,134,24,35,42,42,NA,NA,18,20,2,3,0.3,0.3
2026-04-07T0400,1071A,116.8733,38.2922,沧州市,沧县城建局,,39,39,50,8,16,83,83,NA,NA,11,20,3,4,0.2,0.3
2026-04-07T0400,1072A,116.8462,38.3189,沧州市,电视转播站,NA,NA,37,47,12,17,81,81,NA,NA,13,19,NA,8,0.3,0.4
2026-04-07T0400,1073A,116.8588,38.3161,沧州市,市环保局,细颗粒物(PM2.5),104,NA,55,64,19,77,77,NA,NA,10,16,3,4,0.2,0.3
2026-04-07T0400,3324A,116.8011,38.294,沧州市,河北水利电力学院,,25,22,43,15,16,80,80,NA,NA,11,14,3,5,0.2,0.4
2026-04-07T0400,2622A,97.1813,31.1289,昌都市,昌都监测站,,20,6,9,3,4,61,61,NA,NA,8,8,8,8,0.3,0.4
2026-04-07T0400,3719A,97.1707,31.1428,昌都市,昌都会议中心,,24,9,7,3,4,75,75,NA,NA,4,4,6,6,0.2,0.2
2026-04-07T0400,2692A,87.2722,44.0298,昌吉回族自治州,新区政务中心,颗粒物(PM10),135,211,50,37,15,79,79,NA,NA,10,14,6,6,0.4,0.4
2026-04-07T0400,3613A,87.3069,44.0093,昌吉回族自治州,亚心广场,颗粒物(PM10),265,395,73,37,16,87,87,NA,NA,6,14,9,8,0.1,0.2
2026-04-07T0400,4164A,87.2057,43.9289,昌吉回族自治州,财政所,颗粒物(PM10),145,237,65,18,11,86,86,NA,NA,7,12,9,9,0.3,0.4
2026-04-07T0400,1120A,125.2874,43.9024,长春市,客车厂,,36,NA,22,25,22,61,61,NA,NA,7,14,6,6,0.3,0.3
2026-04-07T0400,1121A,125.2943,43.8508,长春市,邮电学院,,36,NA,22,25,21,66,66,NA,NA,6,10,6,6,0.4,0.4
2026-04-07T0400,1122A,125.3648,43.8745,长春市,劳动公园,,33,23,24,23,21,61,61,NA,NA,6,10,6,6,0.6,0.5
2026-04-07T0400,1123A,125.3233,43.8781,长春市,园林处,,33,NA,24,23,23,66,66,NA,NA,7,11,6,6,0.4,0.4
2026-04-07T0400,1124A,125.4604,43.7904,长春市,净月潭,,35,NA,23,24,19,66,66,NA,NA,8,11,9,6,0.4,0.4
2026-04-07T0400,1126A,125.38,43.8422,长春市,经开区环卫处,,35,NA,26,24,20,64,64,NA,NA,6,11,6,6,0.3,0.4
2026-04-07T0400,1127A,125.234,43.7761,长春市,高新区管委会,,32,NA,24,22,20,62,62,NA,NA,5,8,5,5,0.5,0.5
2026-04-07T0400,1128A,125.1695,43.83,长春市,岱山公园,,30,24,21,21,20,64,64,NA,NA,8,11,4,4,0.3,0.3
2026-04-07T0400,4281A,125.334645,43.916281,长春市,北亚泰大街1068号,,32,NA,24,22,21,63,63,NA,NA,10,18,6,7,0.4,0.4
2026-04-07T0400,1335A,113.082,28.2421,长沙市,经开区环保局,细颗粒物(PM2.5),90,82,49,55,34,39,39,NA,NA,6,9,4,4,0.6,0.5
2026-04-07T0400,1336A,112.8873,28.2202,长沙市,高开区环保局,细颗粒物(PM2.5),101,90,50,61,38,34,34,NA,NA,11,9,6,6,0.7,0.6
2026-04-07T0400,1337A,113.0785,28.2012,长沙市,马坡岭,细颗粒物(PM2.5),90,84,47,55,35,37,37,NA,NA,10,14,4,4,0.8,0.8
2026-04-07T0400,1338A,112.9448,28.1894,长沙市,湖南师范大学,细颗粒物(PM2.5),92,92,49,56,36,37,37,NA,NA,9,10,5,4,0.8,0.7
2026-04-07T0400,1339A,113.0177,28.1322,长沙市,雨花区环保局,细颗粒物(PM2.5),88,78,46,54,36,36,36,NA,NA,8,10,4,4,0.8,0.8
2026-04-07T0400,1340A,112.9795,28.2593,长沙市,伍家岭,细颗粒物(PM2.5),92,91,52,56,35,26,26,NA,NA,13,15,4,4,0.5,0.5
2026-04-07T0400,1341A,113.002,28.1944,长沙市,火车新站,NA,NA,NA,45,NA,48,NA,NA,64,NA,NA,11,NA,4,NA,0.6
2026-04-07T0400,1342A,112.9846,28.1177,长沙市,天心区环保局,细颗粒物(PM2.5),113,90,49,74,44,43,43,NA,NA,10,13,6,5,0.7,0.7
2026-04-07T0400,1343A,112.8906,28.1307,长沙市,湖南中医药大学,细颗粒物(PM2.5),90,89,48,55,35,39,39,NA,NA,10,11,5,5,0.8,0.7
2026-04-07T0400,1727A,113.1146,36.1547,长治市,清华站,颗粒物(PM10),66,72,59,39,18,90,90,NA,NA,12,18,15,10,1.0,0.5
2026-04-07T0400,1730A,113.0887,36.2126,长治市,审计局,细颗粒物(PM2.5),76,83,54,48,22,79,79,NA,NA,19,17,21,13,1.2,0.6
2026-04-07T0400,1731A,113.0845,36.1856,长治市,长治八中,颗粒物(PM10),86,100,72,47,21,82,82,NA,NA,17,16,19,13,1.2,0.6
2026-04-07T0400,2845A,113.1561,36.1912,长治市,德盛苑,颗粒物(PM10),72,80,57,36,18,97,97,NA,NA,22,18,16,12,0.8,0.5
2026-04-07T0400,3568A,113.0603,36.0464,长治市,向阳小学,颗粒物(PM10),98,117,84,39,22,91,91,NA,NA,18,22,17,11,1.6,0.6
2026-04-07T0400,3569A,112.8788,36.315,长治市,屯留一中,颗粒物(PM10),83,95,51,44,15,70,70,NA,NA,31,22,17,10,1.8,0.5
2026-04-07T0400,4189A,113.113092,36.199482,长治市,英华南巷50号,细颗粒物(PM2.5),84,88,70,52,23,88,88,NA,NA,14,15,19,10,1.1,0.5
2026-04-07T0400,4190A,113.23666,36.33435,长治市,学府街1号,颗粒物(PM10),67,73,65,32,16,88,88,NA,NA,14,21,13,13,0.9,0.8
2026-04-07T0400,1854A,111.696,28.9725,常德市,市二中,颗粒物(PM10),53,53,48,36,36,15,15,NA,NA,7,11,8,8,1.3,1.3
2026-04-07T0400,3138A,111.7152,29.0288,常德市,武陵区永安,细颗粒物(PM2.5),84,64,51,52,43,20,20,NA,NA,14,12,6,6,0.9,0.9
2026-04-07T0400,3139A,111.6891,28.9881,常德市,鼎城区玉霞,,48,47,45,33,36,14,14,NA,NA,6,12,8,8,0.8,1
2026-04-07T0400,3140A,111.6651,29.0526,常德市,武陵区长庚,细颗粒物(PM2.5),66,64,48,43,37,25,25,NA,NA,10,9,8,8,1.0,1
2026-04-07T0400,1196A,119.9524,31.7586,常州市,市监测站,颗粒物(PM10),65,71,115,23,40,89,89,NA,NA,14,24,12,12,1.2,0.9
2026-04-07T0400,1200A,119.9351,31.703,常州市,武进监测站,NA,NA,61,111,22,42,93,93,NA,NA,16,22,5,8,NA,0.7
2026-04-07T0400,3002A,119.9701,31.813,常州市,行政中心,颗粒物(PM10),68,75,102,26,44,74,74,NA,NA,19,22,8,9,0.6,0.6
2026-04-07T0400,3003A,120.0434,31.7726,常州市,经开区,颗粒物(PM10),60,64,117,18,40,90,90,NA,NA,13,21,7,6,1.3,1
2026-04-07T0400,3010A,119.8919,31.7892,常州市,钟楼,颗粒物(PM10),65,71,97,29,42,79,79,NA,NA,22,25,11,12,0.7,0.5
2026-04-07T0400,3429A,119.8595,31.706,常州市,武进经发区,NA,NA,66,99,29,42,71,71,NA,NA,26,28,9,10,NA,1
2026-04-07T0400,3430A,119.5812,31.7256,常州市,金坛城区,NA,NA,68,94,38,42,69,69,NA,NA,14,15,NA,11,0.8,0.8
2026-04-07T0400,4089A,119.9551,31.863,常州市,崇义南街5-H号,颗粒物(PM10),67,73,104,23,44,74,74,NA,NA,22,29,9,9,0.9,0.7
2026-04-07T0400,2220A,120.4318,41.588,朝阳市,西梁,NA,NA,13,24,3,6,69,69,NA,NA,5,12,NA,6,0.5,0.6
2026-04-07T0400,2221A,120.452,41.565,朝阳市,河畔小区,NA,NA,12,21,3,7,75,75,NA,NA,4,10,NA,7,0.4,0.4
2026-04-07T0400,2222A,120.4176,41.5648,朝阳市,八里堡,,24,10,26,3,7,75,75,NA,NA,5,14,7,8,0.4,0.5
2026-04-07T0400,3026A,116.6179,23.6608,潮州市,市政府,,47,47,47,22,22,8,8,NA,NA,16,19,3,4,0.6,0.9
2026-04-07T0400,4036A,116.646,23.676,潮州市,金山,,38,38,39,22,23,0,0,NA,NA,13,14,2,2,0.5,0.6
2026-04-07T0400,2473A,113.0116,25.8228,郴州市,市职中,,11,NA,23,3,20,33,33,NA,NA,7,4,6,9,0.6,0.8
2026-04-07T0400,2475A,113.0381,25.8074,郴州市,市审计局,,12,6,23,3,20,38,38,NA,NA,4,7,2,6,/,/
2026-04-07T0400,2476A,113.0348,25.7757,郴州市,市环保局,,11,6,29,3,27,34,34,NA,NA,7,10,8,19,0.4,0.5
2026-04-07T0400,4252A,113.0138,25.8011,郴州市,好美居路49号,,13,8,25,8,18,41,41,NA,NA,6,10,5,9,/,/
2026-04-07T0400,1431A,103.9727,30.7242,成都市,金泉两河,,25,24,34,17,21,48,48,NA,NA,12,18,2,2,0.2,0.3
2026-04-07T0400,1432A,104.1423,30.6765,成都市,十里店,,24,24,43,14,26,71,71,NA,NA,7,20,4,4,0.5,0.6
2026-04-07T0400,1433A,104.0594,30.5765,成都市,三瓦窑,,21,21,38,14,25,65,65,NA,NA,10,15,2,2,0.4,0.6
2026-04-07T0400,1434A,104.1122,30.6306,成都市,沙河铺,,34,34,37,12,21,34,34,NA,NA,10,21,2,2,0.4,0.5
2026-04-07T0400,2880A,104.0219,30.6561,成都市,大石西路,,31,31,41,18,26,42,42,NA,NA,11,19,4,4,0.5,0.6
2026-04-07T0400,3136A,104.2724,30.559,成都市,龙泉驿区区政府,NA,NA,22,27,22,25,59,59,NA,NA,NA,12,6,6,0.3,0.4
2026-04-07T0400,3357A,104.0028,30.6891,成都市,金博路,,25,25,29,16,24,45,45,NA,NA,15,24,5,6,0.4,0.5
2026-04-07T0400,3359A,104.056,30.5228,成都市,华阳,,24,19,31,10,22,74,74,NA,NA,9,19,4,4,0.2,0.3
2026-04-07T0400,3488A,104.387954,30.746684,成都市,青石路225号,,32,30,44,22,30,35,35,NA,NA,18,19,4,5,0.5,0.6
2026-04-07T0400,3489A,104.0788,30.4054,成都市,科学城,,25,14,30,12,19,77,77,NA,NA,8,14,8,7,0.5,0.6
2026-04-07T0400,4011A,103.8505,30.6946,成都市,光华大道三段,,32,28,39,22,23,34,34,NA,NA,20,22,3,3,0.4,0.4
2026-04-07T0400,4144A,104.3257,30.6406,成都市,八角井街185号,,40,40,46,26,29,26,26,NA,NA,18,17,3,5,0.4,0.5
2026-04-07T0400,4224A,104.2433276,30.53529463,成都市,鲸龙路1057号,,39,39,44,19,23,47,47,NA,NA,20,18,5,6,0.5,0.5
2026-04-07T0400,1062A,117.9531,40.908,承德市,铁路,,24,24,25,3,6,51,51,NA,NA,14,8,1,3,0.2,0.2
2026-04-07T0400,1063A,117.9397,40.9763,承德市,中国银行,,13,6,25,3,4,41,41,NA,NA,12,6,1,2,0.2,0.2
2026-04-07T0400,4073A,117.9462,40.95,承德市,杏林街1号,,15,13,23,3,8,46,46,NA,NA,9,7,3,2,0.2,0.2
2026-04-07T0400,4274A,117.7994,40.9605,承德市,滨河大街98号,,32,32,29,3,8,46,46,NA,NA,11,7,3,5,0.2,0.3
2026-04-07T0400,2314A,117.4698,30.6617,池州市,池州学院,颗粒物(PM10),81,93,81,39,37,74,74,NA,NA,36,27,9,8,0.8,0.8
2026-04-07T0400,3237A,117.4918,30.6617,池州市,展览馆,颗粒物(PM10),78,88,79,43,36,75,75,NA,NA,26,21,6,7,0.8,0.8
2026-04-07T0400,3333A,117.5626,30.695,池州市,第八中学,颗粒物(PM10),79,90,80,40,34,80,80,NA,NA,24,25,6,8,0.7,0.8
2026-04-07T0400,3334A,117.5037,30.6242,池州市,第十二中学,颗粒物(PM10),75,85,76,38,33,93,93,NA,NA,12,20,7,6,0.7,0.9
2026-04-07T0400,1744A,118.9229,42.2816,赤峰市,松山一中,,26,7,24,3,7,83,83,NA,NA,5,11,5,6,0.3,0.4
2026-04-07T0400,1745A,118.9588,42.2733,赤峰市,哈达街,NA,NA,6,20,3,5,62,62,NA,NA,NA,10,6,8,0.3,0.4
2026-04-07T0400,1746A,118.8792,42.2551,赤峰市,天义路,,20,6,10,3,6,64,64,NA,NA,5,5,11,5,0.4,0.4
2026-04-07T0400,3058A,119.2656,42.0356,赤峰市,银河街,,24,NA,18,9,8,76,76,NA,NA,2,5,7,8,0.3,0.4
2026-04-07T0400,3286A,118.9359,42.3146,赤峰市,桥北物流园区,,24,11,15,3,7,76,76,NA,NA,2,9,4,4,0.1,0.1
2026-04-07T0400,2521A,107.3473,22.4137,崇左市,市环保局江州分局,细颗粒物(PM2.5),117,90,108,78,77,52,52,NA,NA,10,15,8,8,0.9,1
2026-04-07T0400,4256A,107.375,22.3736,崇左市,石景林东路7号,细颗粒物(PM2.5),94,62,87,57,70,52,52,NA,NA,8,12,2,3,1.0,1.1
2026-04-07T0400,3207A,118.31131,32.3033,滁州市,市政府原办公楼,NA,NA,55,70,50,43,64,64,NA,NA,18,18,5,7,NA,0.5
2026-04-07T0400,3331A,118.3268,32.2633,滁州市,图书馆,细颗粒物(PM2.5),64,58,81,42,32,60,60,NA,NA,20,17,9,11,0.4,0.4
2026-04-07T0400,4101A,118.3196,32.3335,滁州市,银山路666号,细颗粒物(PM2.5),56,54,77,38,34,66,66,NA,NA,15,17,6,10,0.6,0.6
2026-04-07T0400,4102A,118.3426,32.2979,滁州市,黄山路555号,颗粒物(PM10),70,77,93,44,37,62,62,NA,NA,23,21,7,8,0.7,0.6
2026-04-07T0400,2606A,101.5379,25.0492,楚雄彝族自治州,市经济开发区,,30,30,30,18,18,80,80,NA,NA,11,7,6,5,0.5,0.5
2026-04-07T0400,4153A,101.5536,25.0343,楚雄彝族自治州,团结路562号,,34,24,26,18,18,108,108,NA,NA,3,4,2,2,0.2,0.2
2026-04-07T0400,2549A,107.5087,31.2186,达州市,市环境监测站,颗粒物(PM10),58,60,84,29,44,3,3,NA,NA,29,38,6,8,0.5,0.6
2026-04-07T0400,2550A,107.4988,31.2132,达州市,凤凰小区,,48,46,82,33,48,3,3,NA,NA,33,37,5,7,0.6,0.7
2026-04-07T0400,2551A,107.5081,31.1987,达州市,达县机关宾馆,细颗粒物(PM2.5),74,48,80,47,57,0,0,NA,NA,30,37,4,6,0.5,0.6
2026-04-07T0400,2552A,107.4644,31.2124,达州市,市政中心,颗粒物(PM10),52,52,77,26,39,5,5,NA,NA,30,33,5,6,0.6,0.7
2026-04-07T0400,2614A,100.2168,25.5818,大理白族自治州,大理市环境监测站,,36,28,28,25,22,76,76,NA,NA,11,10,4,4,0.3,0.3
2026-04-07T0400,2615A,100.1542,25.7055,大理白族自治州,大理古城,,30,22,28,15,16,93,93,NA,NA,5,5,2,2,0.5,0.5
2026-04-07T0400,1109A,121.6119,38.974,大连市,甘井子,,26,26,15,9,6,73,73,NA,NA,14,13,10,8,0.4,0.4
2026-04-07T0400,1110A,121.565,38.9509,大连市,周水子,,22,22,26,10,7,62,62,NA,NA,18,18,6,4,0.4,0.3
2026-04-07T0400,1111A,121.5637,38.8849,大连市,星海三站,,18,17,19,3,7,55,55,NA,NA,24,11,8,4,0.3,0.3
2026-04-07T0400,1112A,121.6301,38.9117,大连市,青泥洼桥,,33,33,20,9,6,72,72,NA,NA,14,14,6,5,0.3,0.2
2026-04-07T0400,1113A,121.6248,38.8643,大连市,傅家庄,,21,21,20,6,7,64,64,NA,NA,12,10,8,8,0.3,0.3
2026-04-07T0400,1114A,121.5117,38.8636,大连市,七贤岭,,22,21,15,10,6,69,69,NA,NA,14,9,6,5,0.4,0.4
2026-04-07T0400,1116A,121.7507,39.1339,大连市,金州,,23,20,21,8,7,72,72,NA,NA,12,13,5,6,0.4,0.4
2026-04-07T0400,1117A,121.7811,39.0495,大连市,开发区,,22,19,21,3,6,68,68,NA,NA,9,11,9,8,0.5,0.5
2026-04-07T0400,1118A,121.9762,39.0631,大连市,双D港,,23,23,24,8,7,72,72,NA,NA,10,10,4,5,0.6,0.5
2026-04-07T0400,4082A,121.2548,38.8188,大连市,旅顺,,22,20,21,9,7,68,68,NA,NA,11,10,2,3,0.3,0.3
2026-04-07T0400,1789A,124.8085,46.0381,大庆市,大同区,NA,NA,26,40,20,33,57,57,NA,NA,NA,11,4,4,0.2,0.2
2026-04-07T0400,1790A,125.1166,46.5255,大庆市,龙凤区,,29,29,40,13,28,52,52,NA,NA,16,16,4,3,0.2,0.2
2026-04-07T0400,1791A,124.8894,46.4007,大庆市,红岗区,,32,32,41,22,32,49,49,NA,NA,6,6,11,10,0.4,0.4
2026-04-07T0400,1792A,125.1391,46.578,大庆市,萨尔图区,,31,31,35,17,26,53,53,NA,NA,11,13,6,6,0.2,0.2
2026-04-07T0400,1793A,124.9026,46.6217,大庆市,让胡路区,,31,31,42,18,30,51,51,NA,NA,8,9,5,4,0.3,0.4
2026-04-07T0400,3481A,125.127,46.6277,大庆市,萨区政府监测点,,28,22,36,19,24,43,43,NA,NA,8,8,8,8,0.4,0.4
2026-04-07T0400,1723A,113.2926,40.0759,大同市,云冈宾馆,,30,30,22,11,7,49,49,NA,NA,15,8,22,6,0.5,0.4
2026-04-07T0400,1724A,113.3437,40.0921,大同市,大同大学,,31,31,22,11,5,43,43,NA,NA,26,13,19,8,0.9,0.4
2026-04-07T0400,1725A,113.2637,40.129,大同市,安家小村,,25,25,20,3,5,49,49,NA,NA,13,8,17,8,0.5,0.4
2026-04-07T0400,3282A,113.3399,40.0586,大同市,大同市卫生学校,,20,16,19,3,7,64,64,NA,NA,9,8,7,4,0.6,0.4
2026-04-07T0400,3565A,113.1371,40.1122,大同市,云冈站,,19,19,19,12,8,53,53,NA,NA,10,8,11,8,0.3,0.3
2026-04-07T0400,3566A,113.1186,40.2556,大同市,图书馆,,18,18,18,7,6,52,52,NA,NA,6,5,5,8,0.3,0.3
2026-04-07T0400,3567A,113.5931,40.0459,大同市,区一中,,23,NA,23,12,6,73,73,NA,NA,3,6,8,10,0.6,0.7
2026-04-07T0400,4199A,113.2798248,40.09972476,大同市,魏都大道141号,,25,25,22,12,7,47,47,NA,NA,15,8,19,9,0.5,0.3
2026-04-07T0400,2269A,124.1068,50.4091,大兴安岭地区,科技局,,19,17,27,6,11,60,60,NA,NA,3,4,6,6,0.5,0.5
2026-04-07T0400,3663A,124.117,50.4279,大兴安岭地区,红旗社区,,20,7,12,6,9,62,62,NA,NA,4,5,10,10,0.2,0.2
2026-04-07T0400,1600A,124.33,40.0625,丹东市,江湾东路,,22,21,17,7,8,70,70,NA,NA,10,11,5,3,0.5,0.4
2026-04-07T0400,1601A,124.4242,40.1513,丹东市,临江后街,,21,21,17,11,7,35,35,NA,NA,24,13,10,6,0.5,0.4
2026-04-07T0400,1602A,124.3935,40.1461,丹东市,元宝山,,21,16,14,13,3,67,67,NA,NA,8,7,7,6,0.4,0.4
2026-04-07T0400,1603A,124.3634,40.1093,丹东市,民主桥,,23,22,20,6,8,72,72,NA,NA,7,14,8,6,0.4,0.4
2026-04-07T0400,3541A,109.5726195,19.51688767,儋州市,第一中学子站,细颗粒物(PM2.5),70,62,59,45,42,104,104,NA,NA,6,6,9,9,0.6,0.6
2026-04-07T0400,3542A,109.5567,19.5187,儋州市,东坡学校子站,细颗粒物(PM2.5),68,56,58,44,42,105,105,NA,NA,6,6,8,7,0.7,0.6
2026-04-07T0400,2616A,98.5611,24.4273,德宏傣族景颇族自治州,德宏州监测站,,45,NA,37,31,35,52,52,NA,NA,15,14,4,5,0.4,0.4
2026-04-07T0400,3677A,98.5887,24.4366,德宏傣族景颇族自治州,芒市人民政府综合楼,颗粒物(PM10),63,68,71,38,39,57,57,NA,NA,11,13,6,7,1.0,0.9
2026-04-07T0400,1901A,104.424,31.1209,德阳市,东山公园,,28,25,26,19,28,42,42,NA,NA,8,16,4,4,0.5,0.6
2026-04-07T0400,1902A,104.3827,31.1318,德阳市,西小区,,41,41,42,15,27,54,54,NA,NA,12,22,4,3,0.5,0.6
2026-04-07T0400,1904A,104.3553,31.1091,德阳市,耐火材料厂,,38,38,38,21,31,43,43,NA,NA,18,22,3,2,0.5,0.5
2026-04-07T0400,4145A,104.4144,31.1495,德阳市,市林业局,,27,27,30,16,28,55,55,NA,NA,10,20,4,4,0.4,0.5
2026-04-07T0400,1622A,116.3034,37.4675,德州市,儿童乐园,颗粒物(PM10),63,68,58,15,16,63,63,NA,NA,21,17,16,17,0.5,0.4
2026-04-07T0400,1624A,116.2992,37.4449,德州市,监理站,颗粒物(PM10),70,78,55,17,11,68,68,NA,NA,26,19,20,13,0.6,0.5
2026-04-07T0400,3066A,116.2722,37.438,德州市,九衢泉纯净水厂,颗粒物(PM10),60,63,51,15,12,63,63,NA,NA,21,15,13,11,0.5,0.5
2026-04-07T0400,3371A,116.3693,37.44,德州市,开发区人民医院,颗粒物(PM10),70,78,59,15,14,59,59,NA,NA,24,22,10,12,0.5,0.3
2026-04-07T0400,3511A,116.5687,37.3331,德州市,陵城艺术中心,颗粒物(PM10),56,58,52,23,13,38,38,NA,NA,28,14,8,8,0.7,0.6
2026-04-07T0400,4292A,116.352738,37.420875,德州市,新河东路,颗粒物(PM10),70,78,54,13,11,61,61,NA,NA,22,16,9,12,0.7,0.6
2026-04-07T0400,2621A,99.7054,27.8319,迪庆藏族自治州,迪庆州站,,25,22,18,9,10,77,77,NA,NA,6,6,6,6,0.3,0.3
2026-04-07T0400,3180A,99.7122,27.8129,迪庆藏族自治州,质量技术监督局,,29,13,18,13,10,92,92,NA,NA,7,5,6,6,0.4,0.4
2026-04-07T0400,4257A,104.6092,35.5962,定西市,将台街,颗粒物(PM10),63,67,67,28,24,31,31,NA,NA,42,17,10,10,0.6,0.6
2026-04-07T0400,4309A,104.6159,35.5701,定西市,正龙路62号,颗粒物(PM10),52,52,66,21,19,62,62,NA,NA,12,11,5,5,0.2,0.3
2026-04-07T0400,4071A,114.9883,38.5232,定州市,交通局,颗粒物(PM10),83,96,57,3,13,61,61,NA,NA,17,21,4,5,0.4,0.4
2026-04-07T0400,4072A,115.0045,38.5136,定州市,第五中学,颗粒物(PM10),94,111,75,10,13,59,59,NA,NA,10,21,2,3,0.3,0.3
2026-04-07T0400,1390A,113.7943,23.0132,东莞市,东城石井,,32,32,31,13,15,13,13,NA,NA,15,14,3,3,0.6,0.5
2026-04-07T0400,1391A,113.7384,22.9659,东莞市,南城西平,,34,34,30,13,12,32,32,NA,NA,11,8,3,3,0.5,0.5
2026-04-07T0400,3319A,113.7283,23.041,东莞市,万江金泰,,36,36,32,18,20,28,28,NA,NA,13,14,6,6,0.6,0.7
2026-04-07T0400,4129A,113.8666,23.1062,东莞市,裕兴路,颗粒物(PM10),59,62,47,25,20,6,6,NA,NA,28,19,5,5,0.8,0.8
2026-04-07T0400,4130A,114.0076,22.9739,东莞市,教育路1号,颗粒物(PM10),63,67,40,16,16,26,26,NA,NA,11,15,5,5,0.7,0.7
2026-04-07T0400,4131A,113.7981,22.8124,东莞市,长怡路1号,,42,42,37,13,15,32,32,NA,NA,12,14,5,5,0.7,0.7
2026-04-07T0400,1666A,118.6612,37.4313,东营市,市环保局,,36,36,21,3,2,80,80,NA,NA,8,10,7,8,0.3,0.2
2026-04-07T0400,3036A,118.6903,37.4337,东营市,开发区管委会,,44,44,29,3,2,86,86,NA,NA,12,14,5,7,0.5,0.4
2026-04-07T0400,3365A,118.5721,37.5654,东营市,垦利区民丰路,,27,24,23,3,4,86,86,NA,NA,8,12,3,3,0.4,0.4
2026-04-07T0400,3498A,118.5063,37.8606,东营市,河口城区,,29,27,31,3,2,90,90,NA,NA,5,8,7,8,0.4,0.5
2026-04-07T0400,3646A,118.4979,37.4623,东营市,胜利站,,30,30,29,3,3,78,78,NA,NA,9,12,7,7,0.3,0.4
2026-04-07T0400,3734A,118.5753,37.4405,东营市,理想之城,,36,36,26,3,1,90,90,NA,NA,14,16,4,5,0.6,0.6
2026-04-07T0400,1591A,110.0024,39.8127,鄂尔多斯市,综合楼,,26,9,40,6,12,81,81,NA,NA,11,18,6,8,0.2,0.3
2026-04-07T0400,1592A,109.9485,39.8259,鄂尔多斯市,巴音孟克林场办事处,,25,19,40,3,11,77,77,NA,NA,9,19,5,7,0.4,0.4
2026-04-07T0400,1593A,109.7734,39.5987,鄂尔多斯市,康泽苑,,39,39,35,15,9,27,27,NA,NA,26,10,5,6,0.3,0.2
2026-04-07T0400,1594A,109.8121,39.5987,鄂尔多斯市,华泰汽车城,,46,46,39,14,10,4,4,NA,NA,56,18,6,6,0.5,0.3
2026-04-07T0400,1595A,109.9734,39.7884,鄂尔多斯市,奥林花园,,31,31,45,12,11,49,49,NA,NA,27,29,4,5,0.3,0.3
2026-04-07T0400,2436A,114.894,30.3989,鄂州市,市政府,颗粒物(PM10),77,87,86,38,43,25,25,NA,NA,40,38,11,13,0.7,0.7
2026-04-07T0400,2437A,114.8986,30.3714,鄂州市,赵家坝,颗粒物(PM10),85,98,89,51,46,53,53,NA,NA,14,22,13,16,0.8,0.9
2026-04-07T0400,3654A,114.8093,30.4091,鄂州市,精准医疗中心,颗粒物(PM10),73,81,87,36,45,53,53,NA,NA,17,28,4,9,0.6,1
2026-04-07T0400,2454A,109.4978,30.2979,恩施土家族苗族自治州,湖北民院,,20,20,40,13,27,15,15,NA,NA,10,17,7,7,0.7,0.9
2026-04-07T0400,3549A,109.5061,30.3771,恩施土家族苗族自治州,龙凤新区,,22,22,34,8,21,3,3,NA,NA,4,14,7,8,0.2,0.4
2026-04-07T0400,2499A,108.3411,21.6159,防城港市,沙万,颗粒物(PM10),56,58,58,35,32,73,73,NA,NA,21,14,9,7,0.6,0.6
2026-04-07T0400,2500A,108.3515,21.7733,防城港市,防城档案局,,49,49,54,34,33,62,62,NA,NA,7,5,7,8,0.7,0.7
2026-04-07T0400,2501A,108.3506,21.6414,防城港市,大海花园,,49,44,52,34,36,96,96,NA,NA,17,17,9,8,0.6,0.6
2026-04-07T0400,1371A,113.1293,23.0065,佛山市,湾梁,,34,34,35,21,21,6,6,NA,NA,27,17,/,/,/,/
2026-04-07T0400,1372A,113.1082,23.0477,佛山市,华材职中,,33,24,35,23,23,14,14,NA,NA,21,17,4,5,0.4,0.4
2026-04-07T0400,1373A,113.1439,23.045,佛山市,南海气象局,,40,40,43,19,22,3,3,NA,NA,30,18,/,/,/,/
2026-04-07T0400,1374A,113.2879,22.8094,佛山市,顺德苏岗,颗粒物(PM10),53,53,43,20,21,28,28,NA,NA,6,8,/,/,0.6,0.6
2026-04-07T0400,1376A,112.8384,22.8678,佛山市,高明孔堂,,37,37,37,18,20,18,18,NA,NA,11,10,/,/,/,/
2026-04-07T0400,1377A,112.8835,23.1584,佛山市,三水监测站,,36,27,37,25,27,9,9,NA,NA,32,28,3,4,0.4,0.5
2026-04-07T0400,1378A,112.8668,23.185,佛山市,三水云东海,,34,34,51,23,24,2,2,NA,NA,18,19,/,/,/,/
2026-04-07T0400,3625A,113.2568,22.7629,佛山市,容桂街道办,,32,24,29,22,20,27,27,NA,NA,14,12,/,/,/,/
2026-04-07T0400,1282A,119.2681,26.0506,福州市,师大,,29,29,29,16,25,27,27,NA,NA,14,19,4,4,0.5,0.5
2026-04-07T0400,1283A,119.2983,26.1028,福州市,五四北路,,36,NA,29,25,28,12,12,NA,NA,24,26,4,4,0.6,0.6
2026-04-07T0400,1284A,119.2648,26.0769,福州市,杨桥西路,,28,22,26,19,25,19,19,NA,NA,18,21,4,4,/,/
2026-04-07T0400,3048A,119.5799,26.0937,福州市,九龙,,48,NA,24,33,25,24,24,NA,NA,22,15,7,5,1.6,0.6
2026-04-07T0400,3526A,119.5188,25.9666,福州市,吴航,颗粒物(PM10),52,52,43,29,22,26,26,NA,NA,22,20,7,5,1.3,0.7
2026-04-07T0400,4104A,119.3106,26.0648,福州市,路通桥巷6号,细颗粒物(PM2.5),58,42,37,39,32,15,15,NA,NA,19,22,/,/,/,/
2026-04-07T0400,1755A,123.7974,41.8494,抚顺市,望花区,,36,36,63,6,13,60,60,NA,NA,11,18,6,7,0.5,0.6
2026-04-07T0400,1756A,123.9161,41.8827,抚顺市,顺城区,,33,33,46,8,13,53,53,NA,NA,12,19,9,9,0.5,0.6
2026-04-07T0400,1757A,124.0437,41.8615,抚顺市,东洲区,颗粒物(PM10),52,52,63,13,12,51,51,NA,NA,13,14,10,9,0.5,0.6
2026-04-07T0400,1758A,123.9246,41.8638,抚顺市,新抚区,NA,NA,52,60,9,11,55,55,NA,NA,14,15,10,10,NA,0.5
2026-04-07T0400,1759A,124.0972,41.8961,抚顺市,大伙房水库,颗粒物(PM10),52,52,61,15,10,45,45,NA,NA,18,18,11,8,0.4,0.4
2026-04-07T0400,1760A,123.708,41.8386,抚顺市,沈抚新城,,38,38,55,3,9,56,56,NA,NA,14,17,8,8,0.4,0.5
2026-04-07T0400,2377A,116.3544,27.9833,抚州市,市站,,32,30,34,22,23,47,47,NA,NA,6,5,5,9,0.8,0.9
2026-04-07T0400,2378A,116.3562,27.9631,抚州市,血防站,,30,30,34,19,20,52,52,NA,NA,5,5,9,8,0.8,0.8
2026-04-07T0400,2379A,116.3561,28.0007,抚州市,采茶剧团,,35,33,35,24,21,43,43,NA,NA,3,3,10,12,0.7,0.7
2026-04-07T0400,2380A,116.3854,27.9648,抚州市,医学分院,,26,26,36,15,15,58,58,NA,NA,7,7,10,10,1.0,1.1
2026-04-07T0400,2207A,121.6095,41.9978,阜新市,工业园区,,20,17,30,3,2,64,64,NA,NA,5,7,6,7,0.2,0.2
2026-04-07T0400,2208A,121.6567,42.0188,阜新市,长青街,NA,NA,10,16,3,2,70,70,NA,NA,NA,7,5,5,0.3,0.3
2026-04-07T0400,2209A,121.6672,42.07,阜新市,农业园区,,20,15,22,3,1,64,64,NA,NA,8,7,3,3,0.3,0.3
2026-04-07T0400,2211A,121.6343,42.0455,阜新市,玉龙新城,,33,33,24,3,2,54,54,NA,NA,13,8,6,6,0.3,0.3
2026-04-07T0400,2301A,115.8276,32.8929,阜阳市,市监测站,颗粒物(PM10),79,90,87,44,35,46,46,NA,NA,31,25,7,7,0.5,0.4
2026-04-07T0400,2303A,115.8551,32.8606,阜阳市,开发区,颗粒物(PM10),81,93,98,38,34,63,63,NA,NA,19,15,10,7,0.5,0.5
2026-04-07T0400,2875A,115.783962,32.889217,阜阳市,阜阳职业技术学院,颗粒物(PM10),70,77,80,29,29,76,76,NA,NA,14,12,8,8,0.5,0.5
2026-04-07T0400,3468A,115.79,32.8614,阜阳市,市规划展馆,NA,NA,83,84,34,33,73,73,NA,NA,15,15,10,10,NA,0.5
2026-04-07T0400,3469A,115.835101,32.918568,阜阳市,枣园社区,颗粒物(PM10),76,86,87,38,34,57,57,NA,NA,20,20,8,8,0.6,0.6
2026-04-07T0400,2669A,102.9097,34.9841,甘南藏族自治州,州政府,,38,38,53,15,23,22,22,NA,NA,25,17,5,6,0.4,0.4
2026-04-07T0400,3380A,102.8915,34.9618,甘南藏族自治州,甘肃民族师范学院,,30,30,63,3,19,29,29,NA,NA,31,22,1,3,0.4,0.4
2026-04-07T0400,2570A,101.96,30.048,甘孜藏族自治州,水桥子,,10,8,9,3,4,32,32,NA,NA,16,7,6,6,0.2,0.2
2026-04-07T0400,3065A,101.9534,29.9976,甘孜藏族自治州,州环保局,,15,6,8,3,4,45,45,NA,NA,8,9,4,5,0.2,0.2
2026-04-07T0400,2363A,114.9368,25.8663,赣州市,地委,,19,19,20,3,12,53,53,NA,NA,4,9,3,2,0.9,1
2026-04-07T0400,2364A,114.946,25.8483,赣州市,气象台,,19,18,25,11,14,58,58,NA,NA,5,10,5,5,0.8,0.8
2026-04-07T0400,2365A,114.932,25.8332,赣州市,市图书馆,NA,NA,12,17,11,11,62,62,NA,NA,NA,8,4,4,0.8,0.9
2026-04-07T0400,2366A,114.8905,25.8472,赣州市,华坚鞋城,,17,14,21,10,12,52,52,NA,NA,4,11,4,6,0.6,0.6
2026-04-07T0400,3109A,115.0094,25.8614,赣州市,赣县区卫计委,,17,13,19,6,12,52,52,NA,NA,10,18,1,1,0.9,0.9
2026-04-07T0400,2684A,106.2753,36.0057,固原市,监测站,颗粒物(PM10),53,54,80,24,22,72,72,NA,NA,19,22,4,5,0.3,0.4
2026-04-07T0400,2685A,106.2384,36.0189,固原市,新区,,46,46,86,21,24,106,106,NA,NA,3,17,3,4,0.3,0.3
2026-04-07T0400,2544A,106.6307,30.4577,广安市,市委,,48,33,34,33,31,33,33,NA,NA,4,9,6,6,0.6,0.6
2026-04-07T0400,2545A,106.6266,30.4662,广安市,友谊中学,,35,24,32,24,26,42,42,NA,NA,4,8,7,7,0.6,0.6
2026-04-07T0400,2547A,106.6386,30.4551,广安市,广电花园,NA,NA,NA,43,NA,31,NA,NA,60,NA,NA,13,NA,5,NA,0.7
2026-04-07T0400,2902A,106.6347,30.4868,广安市,北辰小学,,38,30,34,26,30,42,42,NA,NA,5,8,9,10,0.7,0.7
2026-04-07T0400,2524A,105.8211,32.4444,广元市,老城,,43,43,55,23,27,35,35,NA,NA,22,33,8,12,1.0,0.8
2026-04-07T0400,2526A,105.8629,32.429,广元市,监测站,,38,38,48,14,23,38,38,NA,NA,10,23,2,9,0.6,0.8
2026-04-07T0400,3617A,105.8047,32.4167,广元市,经开区,,28,28,51,14,27,48,48,NA,NA,12,29,4,11,0.5,0.8
2026-04-07T0400,1345A,113.2346,23.1423,广州市,广雅中学,,38,38,39,18,20,3,3,NA,NA,29,22,1,1,0.7,0.7
2026-04-07T0400,1346A,113.2611,23.105,广州市,市五中,,39,39,40,24,23,3,3,NA,NA,36,25,2,2,/,/
2026-04-07T0400,1348A,113.3477,23.0916,广州市,广东商学院,,31,31,32,14,19,2,2,NA,NA,36,25,5,4,0.7,0.8
2026-04-07T0400,1349A,113.4332,23.105,广州市,市八十六中,,30,30,29,12,14,0,0,NA,NA,38,36,5,6,/,/
2026-04-07T0400,1350A,113.3506,22.9488,广州市,番禺中学,,36,36,34,20,18,17,17,NA,NA,23,17,4,4,0.6,0.6
2026-04-07T0400,1351A,113.2147,23.3918,广州市,花都师范,,40,40,43,19,24,6,6,NA,NA,37,34,6,6,0.9,1
2026-04-07T0400,1352A,113.2599,23.1329,广州市,市监测站,,40,40,39,17,18,2,2,NA,NA,31,19,2,2,/,/
2026-04-07T0400,1353A,113.5618,23.3119,广州市,九龙镇镇龙,,41,41,38,19,21,0,0,NA,NA,30,24,5,6,0.5,0.6
2026-04-07T0400,1354A,113.2764,23.1544,广州市,麓湖,,36,36,36,17,19,0,0,NA,NA,32,20,4,3,0.8,0.8
2026-04-07T0400,2846A,113.3209,23.1323,广州市,体育西,,38,38,37,16,17,2,2,NA,NA,32,28,5,4,0.6,0.6
2026-04-07T0400,3298A,113.5718,23.5493,广州市,从化街口,,44,44,41,23,26,0,0,NA,NA,25,19,7,6,0.7,0.7
2026-04-07T0400,3299A,113.3463,23.369,广州市,白云竹料,,45,45,44,21,24,0,0,NA,NA,28,24,3,3,0.7,0.7
2026-04-07T0400,3300A,113.2981,23.2365,广州市,白云嘉禾,,41,41,41,18,21,2,2,NA,NA,37,30,9,9,/,/
2026-04-07T0400,3301A,113.4256,23.1716,广州市,黄埔科学城,,39,39,38,17,20,4,4,NA,NA,35,34,6,6,0.6,0.6
2026-04-07T0400,3302A,113.3942,23.0485,广州市,番禺大学城,NA,NA,NA,31,NA,13,NA,NA,60,NA,NA,24,NA,1,NA,0.7
2026-04-07T0400,3303A,113.4923,22.8169,广州市,南沙黄阁,,35,35,37,20,18,28,28,NA,NA,12,10,6,6,/,/
2026-04-07T0400,3304A,113.534,22.7893,广州市,南沙街,,39,39,35,18,14,24,24,NA,NA,11,10,7,7,0.4,0.4
2026-04-07T0400,3443A,113.2905,23.5541,广州市,花都梯面,,41,41,40,19,20,12,12,NA,NA,18,17,7,7,/,/
2026-04-07T0400,3445A,113.786,23.7479,广州市,从化良口,,41,41,44,25,31,5,5,NA,NA,21,13,4,4,/,/
2026-04-07T0400,3446A,113.805,23.2614,广州市,增城荔城,,44,44,38,24,24,5,5,NA,NA,24,17,5,5,0.5,0.5
2026-04-07T0400,2506A,109.604387,23.066791,贵港市,江南子站,细颗粒物(PM2.5),115,92,86,76,58,35,35,NA,NA,32,18,12,12,1.0,1
2026-04-07T0400,2508A,109.5669,23.1065,贵港市,荷城子站,细颗粒物(PM2.5),110,85,79,70,62,53,53,NA,NA,19,20,12,14,1.0,1.1
2026-04-07T0400,3405A,109.5886,23.1172,贵港市,新世纪学校,细颗粒物(PM2.5),115,78,81,76,62,46,46,NA,NA,23,24,/,/,0.9,0.9
2026-04-07T0400,4260A,109.5933,23.095,贵港市,中山路155-3号,细颗粒物(PM2.5),122,116,101,84,68,41,41,NA,NA,24,19,/,/,1.0,1
2026-04-07T0400,1439A,106.6863,26.6035,贵阳市,马鞍山,,16,NA,26,3,20,50,50,NA,NA,6,9,4,2,/,/
2026-04-07T0400,1441A,106.6241,26.6266,贵阳市,鉴湖路,,20,12,36,3,21,61,61,NA,NA,5,9,4,4,0.1,0.3
2026-04-07T0400,1442A,106.7468,26.6344,贵阳市,燕子冲,,17,17,36,3,20,52,52,NA,NA,6,9,3,4,0.6,0.6
2026-04-07T0400,1443A,106.6556,26.4362,贵阳市,碧云窝,,19,17,34,3,24,59,59,NA,NA,6,9,6,5,/,/
2026-04-07T0400,1445A,106.6963,26.6063,贵阳市,红边门,,19,9,33,6,23,59,59,NA,NA,4,9,8,7,/,/
2026-04-07T0400,1446A,106.7162383,26.56964667,贵阳市,新华路,,20,12,37,3,22,63,63,NA,NA,6,10,2,3,0.4,0.4
2026-04-07T0400,1447A,106.6742,26.542,贵阳市,太慈桥,,19,12,31,3,22,59,59,NA,NA,6,10,3,2,/,/
2026-04-07T0400,4230A,106.688212,26.56952,贵阳市,花果园大街66号,NA,NA,NA,23,4,23,55,55,NA,NA,5,10,2,3,/,/
2026-04-07T0400,4231A,106.687268,26.516892,贵阳市,漓江路57号,,20,NA,21,3,24,64,64,NA,NA,5,10,5,6,0.7,0.7
2026-04-07T0400,1864A,110.3091,25.2705,桂林市,龙隐路小学,,24,6,61,3,39,74,74,NA,NA,5,15,3,13,0.6,0.9
2026-04-07T0400,1865A,110.2849361,25.22909545,桂林市,八中,,20,6,66,3,23,62,62,NA,NA,5,16,4,10,0.7,1
2026-04-07T0400,3531A,110.296,25.1254,桂林市,旅游学院,,24,19,61,3,49,74,74,NA,NA,3,10,5,9,0.6,0.8
2026-04-07T0400,4222A,110.1835,25.2444,桂林市,环湖路276号,,21,NA,63,8,49,67,67,NA,NA,4,16,10,14,0.5,0.7
2026-04-07T0400,4301A,110.2803,25.2773,桂林市,信义路13号,,22,6,73,3,40,70,70,NA,NA,5,17,4,16,0.8,1.1
2026-04-07T0400,2674A,100.2262,34.4854,果洛藏族自治州,玛沁县大武镇,,24,24,47,6,18,60,60,NA,NA,2,2,18,16,0.4,0.4
2026-04-07T0400,1130A,126.5557,45.8109,哈尔滨市,松北商大,细颗粒物(PM2.5),62,NA,34,41,39,54,54,NA,NA,8,9,10,10,0.5,0.7
2026-04-07T0400,1132A,126.6162,45.719,哈尔滨市,南岗学府路,细颗粒物(PM2.5),68,54,51,44,41,54,54,NA,NA,9,11,4,3,0.3,0.6
2026-04-07T0400,1133A,126.6894,45.7733,哈尔滨市,太平宏伟公园,细颗粒物(PM2.5),56,38,36,38,37,52,52,NA,NA,12,12,9,10,0.1,0.4
2026-04-07T0400,1134A,126.6361,45.7672,哈尔滨市,道外承德广场,颗粒物(PM10),72,80,66,43,33,52,52,NA,NA,11,13,8,8,0.3,0.3
2026-04-07T0400,1136A,126.644,45.7261,哈尔滨市,动力和平路,细颗粒物(PM2.5),66,51,41,43,39,54,54,NA,NA,9,13,4,3,0.7,0.6
2026-04-07T0400,1137A,126.5933,45.7479,哈尔滨市,道里建国路,,49,40,39,34,36,57,57,NA,NA,14,18,18,17,0.1,0.2
2026-04-07T0400,1138A,126.6127,45.6119,哈尔滨市,平房东轻厂,细颗粒物(PM2.5),66,52,42,43,35,43,43,NA,NA,50,52,7,8,0.8,0.7
2026-04-07T0400,1139A,126.5875,45.9827,哈尔滨市,呼兰师专,,46,NA,33,32,32,48,48,NA,NA,12,14,8,8,0.2,0.2
2026-04-07T0400,1140A,126.6299,45.6799,哈尔滨市,省农科院,NA,NA,NA,52,44,40,57,57,NA,NA,6,12,7,7,0.5,0.5
2026-04-07T0400,4282A,126.6769,45.7379,哈尔滨市,华山路1号,,46,44,41,32,36,59,59,NA,NA,6,13,6,6,0.8,0.8
2026-04-07T0400,4283A,126.9717,45.5356,哈尔滨市,解放大街52号,细颗粒物(PM2.5),68,67,57,44,39,53,53,NA,NA,11,11,3,3,0.7,0.7
2026-04-07T0400,2688A,93.5124,42.8176,哈密市,地区监测站,,17,17,33,6,14,44,44,NA,NA,29,22,6,11,0.0,0.3
2026-04-07T0400,2689A,93.5014,42.8312,哈密市,哈密师范学校,,30,30,45,12,14,39,39,NA,NA,20,20,8,9,0.2,0.3
2026-04-07T0400,2671A,100.9016,36.9464,海北藏族自治州,海晏县西海镇,颗粒物(PM10),53,53,46,23,20,72,72,NA,NA,2,2,8,10,0.5,0.4
2026-04-07T0400,3867A,102.074,36.5056,海东市,平安区公安局北苑,颗粒物(PM10),53,53,65,24,25,78,78,NA,NA,3,8,8,12,0.5,0.6
2026-04-07T0400,4163A,102.0984,36.5119,海东市,滨河路,颗粒物(PM10),69,76,70,34,34,9,9,NA,NA,50,30,11,11,0.7,0.7
2026-04-07T0400,1410A,110.3189,20.0596,海口市,海南大学,颗粒物(PM10),53,54,47,35,32,60,60,NA,NA,7,6,5,5,0.5,0.5
2026-04-07T0400,1411A,110.2827,20.0051,海口市,秀英海南医院,,46,38,43,32,31,49,49,NA,NA,10,13,8,8,0.4,0.4
2026-04-07T0400,1412A,110.3391,19.9979,海口市,海南师范大学,,48,47,47,33,30,51,51,NA,NA,8,7,6,6,0.5,0.6
2026-04-07T0400,1413A,110.3303,20.0359,海口市,龙华路环保局宿舍,,46,42,47,32,32,55,55,NA,NA,8,8,/,/,0.6,0.6
2026-04-07T0400,3539A,110.5111,19.9737,海口市,桂林洋子站,,50,50,42,30,27,56,56,NA,NA,7,7,/,/,/,/
2026-04-07T0400,4134A,110.1952,20.0451,海口市,长滨二路9号,,48,42,48,33,34,52,52,NA,NA,6,8,/,/,/,/
2026-04-07T0400,2673A,100.6158,36.2985,海南藏族自治州,共和县恰卜恰镇,颗粒物(PM10),53,54,60,20,24,77,77,NA,NA,3,11,13,14,0.2,0.3
2026-04-07T0400,2676A,97.373,37.376,海西蒙古族藏族自治州,德令哈市,颗粒物(PM10),64,69,49,25,17,130,130,NA,NA,1,4,16,16,0.4,0.4
2026-04-07T0400,1049A,114.492,36.5712,邯郸市,矿院,,42,42,63,6,17,77,77,NA,NA,14,14,6,6,0.3,0.4
2026-04-07T0400,1050A,114.4839,36.6136,邯郸市,丛台公园,,47,47,60,26,30,77,77,NA,NA,19,19,11,10,0.3,0.4
2026-04-07T0400,3458A,114.7893,36.5592,邯郸市,香泉濮院小区,颗粒物(PM10),61,65,91,27,31,52,52,NA,NA,24,21,2,4,0.3,0.4
2026-04-07T0400,3580A,114.1998,36.4439,邯郸市,峰峰矿区临水派出所,,47,47,64,27,40,87,87,NA,NA,12,16,8,10,0.5,0.5
2026-04-07T0400,4068A,114.5209,36.7697,邯郸市,建安街268号,颗粒物(PM10),51,51,71,26,27,75,75,NA,NA,15,24,4,5,0.4,0.4
2026-04-07T0400,4069A,114.5488,36.6177,邯郸市,丛台东路558号,,49,49,66,30,34,53,53,NA,NA,29,15,4,4,0.3,0.5
2026-04-07T0400,2635A,107.0155,33.0707,汉中市,市监测站,颗粒物(PM10),62,66,81,36,39,22,22,NA,NA,26,24,7,7,0.7,0.6
2026-04-07T0400,2636A,107.0083,33.114,汉中市,鑫源开发区,颗粒物(PM10),53,54,71,25,35,35,35,NA,NA,22,23,6,6,0.5,0.5
2026-04-07T0400,2637A,107.0072,33.0323,汉中市,南郑大河坎水厂,颗粒物(PM10),56,58,75,33,36,16,16,NA,NA,20,21,4,5,0.5,0.5
2026-04-07T0400,1223A,120.2073,30.2111,杭州市,滨江,颗粒物(PM10),88,102,100,51,42,93,93,NA,NA,10,17,8,8,0.9,1
2026-04-07T0400,1224A,120.0625,30.2737,杭州市,西溪,颗粒物(PM10),70,77,95,41,41,102,102,NA,NA,9,18,9,9,0.7,0.9
2026-04-07T0400,1226A,120.3417,30.315,杭州市,下沙,颗粒物(PM10),100,120,117,48,43,86,86,NA,NA,9,17,7,9,0.7,0.7
2026-04-07T0400,1227A,120.1252,30.2465,杭州市,卧龙桥,颗粒物(PM10),72,80,85,42,38,101,101,NA,NA,6,14,8,9,0.4,0.5
2026-04-07T0400,1228A,120.1902,30.2691,杭州市,浙江农大,颗粒物(PM10),88,103,97,45,42,93,93,NA,NA,9,22,8,9,0.4,0.5
2026-04-07T0400,1230A,120.1195,30.3121,杭州市,和睦小学,颗粒物(PM10),80,92,111,38,43,103,103,NA,NA,6,18,8,8,0.6,0.7
2026-04-07T0400,1231A,120.3076,30.4146,杭州市,临平镇,颗粒物(PM10),73,81,112,44,46,98,98,NA,NA,15,26,7,8,0.6,0.7
2026-04-07T0400,1232A,120.2753,30.1839,杭州市,城厢镇,颗粒物(PM10),93,109,98,50,44,83,83,NA,NA,12,23,6,7,0.7,0.7
2026-04-07T0400,1233A,120.0883,30.1808,杭州市,云栖,颗粒物(PM10),83,96,89,42,39,100,100,NA,NA,14,24,6,7,0.7,0.8
2026-04-07T0400,3557A,119.9463,30.0496,杭州市,镇二中,颗粒物(PM10),65,70,81,35,37,105,105,NA,NA,10,18,5,5,0.6,0.8
2026-04-07T0400,3558A,119.7184,30.2367,杭州市,市府大楼,颗粒物(PM10),85,98,80,50,37,100,100,NA,NA,11,13,7,7,0.4,0.4
2026-04-07T0400,3656A,120.1554,30.2863,杭州市,消防大队,颗粒物(PM10),80,92,103,47,43,94,94,NA,NA,11,19,9,10,0.8,1
2026-04-07T0400,1270A,117.1957,31.7845,合肥市,明珠广场,颗粒物(PM10),65,70,83,26,33,51,51,NA,NA,34,21,5,5,0.5,0.6
2026-04-07T0400,1271A,117.307,31.8765,合肥市,三里街,颗粒物(PM10),62,66,83,22,32,51,51,NA,NA,36,27,7,7,0.6,0.6
2026-04-07T0400,1272A,117.2587,31.8703,合肥市,琥珀山庄,颗粒物(PM10),60,63,83,22,32,67,67,NA,NA,24,23,8,7,0.5,0.6
2026-04-07T0400,1275A,117.2593,31.9376,合肥市,庐阳区,颗粒物(PM10),68,75,89,22,34,45,45,NA,NA,38,24,6,7,0.6,0.7
2026-04-07T0400,1276A,117.345251,31.861615,合肥市,瑶海区,颗粒物(PM10),67,73,83,22,29,59,59,NA,NA,31,24,8,8,0.7,0.7
2026-04-07T0400,1277A,117.3033,31.7967,合肥市,包河区,颗粒物(PM10),62,66,84,26,29,7,7,NA,NA,93,39,10,10,0.6,0.7
2026-04-07T0400,1278A,117.278,31.7392,合肥市,滨湖新区,颗粒物(PM10),67,73,86,23,29,64,64,NA,NA,17,20,6,6,0.5,0.5
2026-04-07T0400,1279A,117.1324,31.8395,合肥市,高新区,颗粒物(PM10),68,75,90,23,33,66,66,NA,NA,21,17,7,7,0.6,0.7
2026-04-07T0400,3464A,117.3802,31.9148,合肥市,高教基地,颗粒物(PM10),55,56,79,29,30,54,54,NA,NA,17,19,8,9,0.5,0.6
2026-04-07T0400,4098A,117.2518,31.8404,合肥市,中国科学技术大学,颗粒物(PM10),62,66,82,25,30,70,70,NA,NA,21,17,9,8,0.6,0.7
2026-04-07T0400,3614A,79.9241,37.0878,和田地区,地区环保局,细颗粒物(PM2.5),227,342,294,177,77,41,41,NA,NA,32,8,3,2,0.5,0.5
2026-04-07T0400,3615A,79.9132,37.1137,和田地区,市环保局,颗粒物(PM10),189,328,265,105,82,25,25,NA,NA,40,12,3,5,0.1,0.1
2026-04-07T0400,2517A,108.0496,24.6957,河池市,市环保站,,33,NA,104,23,65,50,50,NA,NA,2,7,4,6,0.7,1
2026-04-07T0400,4302A,108.0901,24.6945,河池市,上任中路54号,,35,27,99,24,62,43,43,NA,NA,5,10,6,6,0.9,1.1
2026-04-07T0400,1697A,114.6962,23.7538,河源市,东埔,,37,37,35,21,22,27,27,NA,NA,11,12,6,6,0.3,0.5
2026-04-07T0400,1698A,114.6895,23.7232,河源市,老城,,36,36,37,20,20,20,20,NA,NA,14,13,6,6,0.5,0.6
2026-04-07T0400,3374A,115.5562,35.089,菏泽市,定陶老年大学,颗粒物(PM10),86,100,94,41,30,37,37,NA,NA,34,20,11,8,0.8,0.7
2026-04-07T0400,4114A,115.4239,35.2593,菏泽市,黄河路600号,颗粒物(PM10),94,111,106,41,31,31,31,NA,NA,40,19,6,5,0.4,0.4
2026-04-07T0400,4115A,115.5025,35.2727,菏泽市,菏泽市人社局,NA,NA,NA,87,NA,31,NA,NA,119,NA,NA,18,NA,8,NA,0.3
2026-04-07T0400,4184A,115.479691,35.244011,菏泽市,永昌路1号,颗粒物(PM10),88,103,95,44,29,32,32,NA,NA,45,23,6,5,0.3,0.2
2026-04-07T0400,4193A,115.471542,35.280012,菏泽市,长城路999号,颗粒物(PM10),88,103,96,43,33,31,31,NA,NA,47,19,2,3,0.3,0.3
2026-04-07T0400,2514A,111.5264,24.4178,贺州市,环保小区,,22,22,57,12,40,44,44,NA,NA,7,16,6,7,0.5,0.7
2026-04-07T0400,2515A,111.561,24.4074,贺州市,政协大楼,,28,28,51,15,43,48,48,NA,NA,6,18,8,9,0.8,0.9
2026-04-07T0400,3534A,111.4744,24.455,贺州市,西湾,,35,35,68,9,38,39,39,NA,NA,8,15,8,8,0.8,0.8
2026-04-07T0400,2385A,114.17,35.9019,鹤壁市,市监测站,颗粒物(PM10),67,73,88,23,34,63,63,NA,NA,24,20,9,9,0.6,0.7
2026-04-07T0400,2386A,114.2953,35.7512,鹤壁市,市交警支队,颗粒物(PM10),88,103,107,34,34,49,49,NA,NA,27,20,15,11,0.7,0.7
2026-04-07T0400,2387A,114.2877,35.7302,鹤壁市,迎宾馆,颗粒物(PM10),92,108,117,38,34,48,48,NA,NA,24,18,11,9,0.8,0.6
2026-04-07T0400,3474A,114.2616,35.6824,鹤壁市,大新区,颗粒物(PM10),81,93,112,44,38,55,55,NA,NA,23,20,13,9,0.6,0.7
2026-04-07T0400,3596A,114.1573,35.9607,鹤壁市,南山宾馆,颗粒物(PM10),93,110,129,44,38,66,66,NA,NA,14,13,13,12,0.8,0.8
2026-04-07T0400,2244A,130.2537,47.3416,鹤岗市,哈啤分公司,,21,21,29,6,20,63,63,NA,NA,5,9,8,8,0.3,0.3
2026-04-07T0400,2245A,130.2683,47.3087,鹤岗市,斯达机电,,21,18,30,11,19,65,65,NA,NA,5,9,10,11,0.4,0.4
2026-04-07T0400,2246A,130.3114,47.3388,鹤岗市,东山纸板厂,,24,24,33,11,20,66,66,NA,NA,6,10,8,8,0.4,0.2
2026-04-07T0400,2263A,127.4832,50.2524,黑河市,交通局,,23,13,36,6,18,71,71,NA,NA,3,7,4,5,0.2,0.3
2026-04-07T0400,2264A,127.5146,50.2339,黑河市,环保局,,24,10,29,7,14,74,74,NA,NA,7,10,5,6,0.3,0.3
2026-04-07T0400,1074A,115.6839,37.754,衡水市,电机北厂,颗粒物(PM10),68,75,57,18,17,74,74,NA,NA,16,23,5,6,0.3,0.3
2026-04-07T0400,1075A,115.6303,37.7318,衡水市,市监测站,颗粒物(PM10),68,75,52,12,10,71,71,NA,NA,20,22,6,6,0.3,0.4
2026-04-07T0400,3188A,115.6684,37.7216,衡水市,市城管局,颗粒物(PM10),70,78,53,16,14,70,70,NA,NA,18,21,7,7,0.3,0.4
2026-04-07T0400,3459A,115.599,37.5491,衡水市,地表水厂,颗粒物(PM10),83,95,51,13,14,67,67,NA,NA,15,19,2,4,0.3,0.3
2026-04-07T0400,2457A,112.6209,26.9268,衡阳市,衡阳化工总厂,,22,22,28,14,18,47,47,NA,NA,8,9,4,4,0.7,0.7
2026-04-07T0400,2458A,112.621,26.8957,衡阳市,珠晖区环保局,,22,21,27,15,18,47,47,NA,NA,9,13,6,6,0.8,0.8
2026-04-07T0400,2459A,112.628,26.8654,衡阳市,市委党校,,36,NA,25,25,18,55,55,NA,NA,5,6,5,6,0.9,0.9
2026-04-07T0400,2460A,112.6007,26.8977,衡阳市,市监测站,,18,17,33,12,21,47,47,NA,NA,12,15,6,7,0.8,0.9
2026-04-07T0400,2461A,112.5658,26.9013,衡阳市,真空机电公司,,49,36,30,34,23,52,52,NA,NA,2,3,5,6,0.9,1
2026-04-07T0400,3399A,112.6703,26.8817,衡阳市,师范学院,,36,30,29,25,19,58,58,NA,NA,3,4,5,5,0.9,0.8
2026-04-07T0400,3038A,103.3757,23.3679,红河哈尼族彝族自治州,州图书馆,细颗粒物(PM2.5),74,56,56,47,42,119,119,NA,NA,7,8,5,6,0.4,0.4
2026-04-07T0400,4154A,103.401,23.3561,红河哈尼族彝族自治州,蒙自市朝阳路,细颗粒物(PM2.5),64,51,41,42,38,127,127,NA,NA,5,7,11,10,0.6,0.5
2026-04-07T0400,1090A,111.6506,40.7517,呼和浩特市,呼市一监,,20,12,17,8,9,62,62,NA,NA,9,7,4,6,0.5,0.3
2026-04-07T0400,1094A,111.7516,40.8369,呼和浩特市,如意水处理厂,,19,16,19,3,6,59,59,NA,NA,10,8,6,7,0.4,0.2
2026-04-07T0400,1095A,111.727798,40.806187,呼和浩特市,二十九中,,18,11,18,3,7,57,57,NA,NA,6,4,8,8,0.6,0.3
2026-04-07T0400,1097A,111.717,40.7617,呼和浩特市,化肥厂生活区,NA,NA,10,24,3,12,57,57,NA,NA,8,7,NA,7,0.5,0.3
2026-04-07T0400,3699A,111.6519,40.8389,呼和浩特市,海东办,,19,7,14,3,7,59,59,NA,NA,8,9,3,4,0.4,0.3
2026-04-07T0400,4275A,111.591512,40.827312,呼和浩特市,成吉思汗西街8号,,14,7,20,3,7,37,37,NA,NA,27,20,4,5,0.4,0.3
2026-04-07T0400,4276A,111.6597,40.8077,呼和浩特市,公园东路75号,NA,NA,12,18,3,6,64,64,NA,NA,10,10,NA,9,0.3,0.2
2026-04-07T0400,4277A,111.5427,40.7846,呼和浩特市,金海路35号,,20,20,23,3,7,42,42,NA,NA,20,15,4,5,0.4,0.3
2026-04-07T0400,3061A,119.7511,49.1576,呼伦贝尔市,国华电力东,,20,18,23,14,12,57,57,NA,NA,6,9,6,6,0.2,0.2
2026-04-07T0400,4279A,119.7569,49.2222,呼伦贝尔市,伊敏大街东7号,,22,22,25,8,11,65,65,NA,NA,6,8,6,6,0.2,0.3
2026-04-07T0400,1250A,120.075,30.867,湖州市,城西水厂,颗粒物(PM10),53,54,104,28,47,118,118,NA,NA,11,27,5,8,0.3,0.6
2026-04-07T0400,2873A,120.083,30.8929,湖州市,仁皇山新区,,50,50,102,26,45,111,111,NA,NA,12,28,5,7,0.7,1
2026-04-07T0400,2907A,120.1846,30.8592,湖州市,吴兴区站,颗粒物(PM10),68,74,104,29,50,112,112,NA,NA,7,21,5,8,0.7,0.9
2026-04-07T0400,3562A,120.4146,30.8538,湖州市,南浔区站,颗粒物(PM10),63,67,100,29,47,99,99,NA,NA,8,19,5,7,0.7,1
2026-04-07T0400,1607A,120.904878,40.721091,葫芦岛市,龙港区,,20,16,26,3,9,61,61,NA,NA,15,17,10,9,0.3,0.4
2026-04-07T0400,1608A,120.8382,40.7521,葫芦岛市,化工街,,18,7,24,3,11,56,56,NA,NA,19,26,9,12,0.3,0.4
2026-04-07T0400,1609A,120.8339,40.7078,葫芦岛市,新区,,23,11,20,3,8,73,73,NA,NA,8,17,8,9,0.3,0.4
2026-04-07T0400,1610A,120.8697,40.7679,葫芦岛市,东城区,,22,16,29,3,14,70,70,NA,NA,11,25,11,12,0.3,0.5
2026-04-07T0400,2483A,109.9297,27.5383,怀化市,河西地税局,,35,27,24,24,16,54,54,NA,NA,4,10,5,4,/,/
2026-04-07T0400,2484A,109.9783,27.5342,怀化市,市四医院,,26,26,27,17,15,54,54,NA,NA,4,7,8,8,0.3,0.4
2026-04-07T0400,2485A,109.9971,27.5579,怀化市,监测楼,,33,29,23,23,16,55,55,NA,NA,4,6,2,4,0.3,0.3
2026-04-07T0400,1210A,119.0566,33.5991,淮安市,钵池山,,41,41,61,15,22,71,71,NA,NA,15,20,7,8,0.0,0.1
2026-04-07T0400,1211A,119.0083,33.578,淮安市,北京南路,,41,41,64,18,23,68,68,NA,NA,9,12,6,8,0.4,0.5
2026-04-07T0400,1212A,118.9938,33.6083,淮安市,市监测站,,31,31,56,19,22,75,75,NA,NA,9,13,6,7,0.4,0.5
2026-04-07T0400,1213A,119.135,33.5038,淮安市,楚州区监测站,,39,39,68,19,24,71,71,NA,NA,9,13,5,6,0.3,0.4
2026-04-07T0400,3426A,118.8757,33.2897,淮安市,新华书店,颗粒物(PM10),58,60,75,26,27,63,63,NA,NA,16,16,7,8,0.4,0.3
2026-04-07T0400,4092A,119.119691,33.550006,淮安市,枚皋中路89号,,46,46,66,20,25,65,65,NA,NA,13,14,10,11,0.4,0.5
2026-04-07T0400,4206A,119.028838,33.631911,淮安市,承德北路606号,,46,46,69,24,23,61,61,NA,NA,16,14,9,8,0.2,0.2
2026-04-07T0400,2282A,116.8005,33.9749,淮北市,监测站,颗粒物(PM10),64,69,78,24,25,76,76,NA,NA,15,18,7,10,0.3,0.4
2026-04-07T0400,2283A,116.8094,33.9008,淮北市,烈山区政府,颗粒物(PM10),60,63,85,30,23,53,53,NA,NA,33,17,8,10,0.4,0.5
2026-04-07T0400,4017A,116.7926,33.9534,淮北市,市博物馆,颗粒物(PM10),60,63,83,27,25,71,71,NA,NA,13,16,4,8,0.5,0.6
2026-04-07T0400,4100A,116.8322,33.9884,淮北市,杜集区第一实验学校,颗粒物(PM10),64,69,85,24,24,64,64,NA,NA,13,15,7,10,0.3,0.4
2026-04-07T0400,2277A,116.8304,32.7726,淮南市,潘集区政府,颗粒物(PM10),56,58,78,25,35,53,53,NA,NA,26,29,6,7,0.4,0.4
2026-04-07T0400,2279A,116.8569,32.5949,淮南市,谢家集区政府,颗粒物(PM10),61,65,84,24,38,69,69,NA,NA,20,21,14,11,0.5,0.5
2026-04-07T0400,2280A,116.8279,32.6333,淮南市,八公山区政府,颗粒物(PM10),83,96,90,27,37,58,58,NA,NA,18,15,11,10,0.5,0.5
2026-04-07T0400,2894A,117.0561,32.6536,淮南市,经济技术开发区消防队,颗粒物(PM10),63,67,87,21,35,58,58,NA,NA,18,23,7,8,0.4,0.5
2026-04-07T0400,3329A,117.011,32.5891,淮南市,山南新区,颗粒物(PM10),68,74,112,25,37,72,72,NA,NA,14,22,8,9,0.4,0.5
2026-04-07T0400,4209A,117.003137,32.644456,淮南市,国庆中路369号,颗粒物(PM10),58,61,81,24,36,68,68,NA,NA,14,18,12,14,0.4,0.4
2026-04-07T0400,2446A,114.9021,30.474,黄冈市,职工中心,细颗粒物(PM2.5),74,72,70,47,46,41,41,NA,NA,17,21,10,11,1.0,0.8
2026-04-07T0400,2929A,114.8858,30.4519,黄冈市,红卫路,细颗粒物(PM2.5),76,69,69,48,48,54,54,NA,NA,14,24,9,9,0.6,0.3
2026-04-07T0400,3398A,114.9134,30.4446,黄冈市,市林业局,细颗粒物(PM2.5),86,94,87,53,47,56,56,NA,NA,11,21,4,5,0.4,0.4
2026-04-07T0400,2672A,102.02,35.5101,黄南藏族自治州,同仁县隆务镇,,34,34,58,21,26,82,82,NA,NA,2,3,9,11,0.2,0.2
2026-04-07T0400,2295A,118.2905,29.6965,黄山市,延安路89号,,48,46,44,33,24,27,27,NA,NA,12,10,5,5,0.6,0.5
2026-04-07T0400,2297A,118.1369,30.2755,黄山市,黄山区政府5号楼,细颗粒物(PM2.5),98,93,78,59,39,69,69,NA,NA,8,11,4,4,0.6,0.5
2026-04-07T0400,4210A,118.335445,29.720283,黄山市,滨江东路7-2号,细颗粒物(PM2.5),88,98,57,54,28,66,66,NA,NA,10,10,/,/,/,/
2026-04-07T0400,2423A,115.0547,30.2332,黄石市,沈家营,颗粒物(PM10),98,117,92,54,41,18,18,NA,NA,20,20,15,13,0.7,0.7
2026-04-07T0400,2426A,114.899,30.211,黄石市,铁山,细颗粒物(PM2.5),104,85,75,64,48,50,50,NA,NA,27,30,12,15,1.0,0.6
2026-04-07T0400,2427A,115.0259,30.2108,黄石市,团城山,细颗粒物(PM2.5),101,116,88,61,48,38,38,NA,NA,18,22,6,6,0.9,1.1
2026-04-07T0400,3149A,115.0174,30.1591,黄石市,笔架山北路,颗粒物(PM10),114,156,118,55,46,24,24,NA,NA,25,26,11,14,1.4,1.2
2026-04-07T0400,4185A,115.078022,30.21118,黄石市,磁湖东路29号,细颗粒物(PM2.5),98,114,100,59,47,9,9,NA,NA,40,29,4,8,1.2,1.2
2026-04-07T0400,1392A,114.4181,23.0528,惠州市,河南岸金山湖子站,,35,35,34,18,21,15,15,NA,NA,14,15,6,6,0.6,0.6
2026-04-07T0400,1393A,114.4055,23.0824,惠州市,下埔横江三路子站,,39,39,39,18,21,17,17,NA,NA,13,14,4,4,0.6,0.7
2026-04-07T0400,1395A,114.4645,22.7832,惠州市,惠阳区承修路船湖子站,,33,33,31,16,16,23,23,NA,NA,12,11,5,5,0.4,0.4
2026-04-07T0400,1396A,114.5316,22.7423,惠州市,大亚湾管委会子站,,36,36,35,17,18,11,11,NA,NA,22,9,4,3,0.6,0.6
2026-04-07T0400,3314A,114.4334,22.8134,惠州市,惠阳秋长,,29,29,29,17,16,21,21,NA,NA,15,13,/,/,/,/
2026-04-07T0400,3452A,114.6521,22.7755,惠州市,大亚湾霞涌,,22,22,23,10,11,23,23,NA,NA,17,14,/,/,/,/
2026-04-07T0400,4300A,114.4089,23.1147,惠州市,文华一路1号,,38,38,34,20,20,9,9,NA,NA,18,16,/,/,/,/
2026-04-07T0400,2240A,130.9618,45.2926,鸡西市,环保局,,21,14,30,10,27,67,67,NA,NA,4,11,7,6,0.0,0.1
2026-04-07T0400,2243A,130.9294,45.2959,鸡西市,第一中学,,20,NA,27,14,27,53,53,NA,NA,14,10,5,4,0.1,0.2
2026-04-07T0400,3707A,131.0069,45.2988,鸡西市,欧美日汽修厂,,21,NA,30,8,30,67,67,NA,NA,2,13,5,5,0.2,0.4
2026-04-07T0400,2367A,114.9753,27.0803,吉安市,红声器材厂,,40,40,37,20,19,49,49,NA,NA,13,13,7,7,1.1,1
2026-04-07T0400,2369A,114.9903,27.1313,吉安市,市环境监测站,,38,38,33,21,21,51,51,NA,NA,13,12,12,10,/,/
2026-04-07T0400,2370A,115.009527,27.096792,吉安市,青原区法院,,41,41,34,23,19,53,53,NA,NA,13,15,8,7,0.9,0.9
2026-04-07T0400,1772A,126.54,43.8622,吉林市,哈达湾,,36,27,30,25,22,63,63,NA,NA,8,9,5,9,0.5,0.5
2026-04-07T0400,1773A,126.5843,43.8358,吉林市,东局子,,32,24,25,22,22,60,60,NA,NA,6,9,3,3,0.8,0.9
2026-04-07T0400,1774A,126.5051,43.8243,吉林市,电力学院,NA,NA,30,30,23,23,70,70,NA,NA,8,9,4,4,NA,0.6
2026-04-07T0400,1775A,126.6133,43.8971,吉林市,江北,,39,32,33,27,27,55,55,NA,NA,8,9,9,9,0.7,0.7
2026-04-07T0400,1776A,126.5549,43.8304,吉林市,江南公园,,32,22,26,22,21,59,59,NA,NA,8,10,6,6,0.5,0.5
2026-04-07T0400,2868A,126.4737,43.953,吉林市,九站,,33,NA,26,23,22,53,53,NA,NA,13,12,5,4,0.6,0.5
2026-04-07T0400,1299A,116.9866,36.6118,济南市,科干所,,39,39,42,14,12,86,86,NA,NA,18,17,10,8,0.6,0.5
2026-04-07T0400,1300A,116.9379,36.6652,济南市,农科所,颗粒物(PM10),67,73,61,36,15,45,45,NA,NA,36,25,22,9,0.8,0.4
2026-04-07T0400,1301A,117.1265,36.6736,济南市,开发区,细颗粒物(PM2.5),88,76,56,54,14,42,42,NA,NA,49,26,10,8,0.8,0.6
2026-04-07T0400,1303A,117.0616,36.6865,济南市,省种子仓库,颗粒物(PM10),96,114,72,48,23,18,18,NA,NA,60,26,26,12,1.0,0.5
2026-04-07T0400,1304A,116.9495185,36.644937,济南市,机床二厂,颗粒物(PM10),60,63,63,28,13,64,64,NA,NA,38,26,14,8,0.7,0.6
2026-04-07T0400,1305A,117.0496,36.6629,济南市,市监测站,颗粒物(PM10),73,81,57,28,12,43,43,NA,NA,50,24,11,6,0.7,0.5
2026-04-07T0400,1306A,116.7674,36.5458,济南市,长清党校,,46,46,55,14,8,88,88,NA,NA,17,17,8,6,0.5,0.5
2026-04-07T0400,1961A,117.5323,36.6865,济南市,东山小学,颗粒物(PM10),79,90,61,16,10,38,38,NA,NA,51,33,10,6,0.5,0.4
2026-04-07T0400,3059A,117.7181,36.205,济南市,泰兴公司,颗粒物(PM10),86,100,47,44,10,8,8,NA,NA,69,21,6,6,0.7,0.3
2026-04-07T0400,3064A,117.6861,36.2172,济南市,莱芜战役纪念馆,颗粒物(PM10),63,68,47,34,9,31,31,NA,NA,40,21,5,4,0.8,0.5
2026-04-07T0400,3494A,117.1673,36.9782,济南市,济阳区政府,颗粒物(PM10),57,59,57,24,14,43,43,NA,NA,30,21,17,12,0.6,0.5
2026-04-07T0400,3495A,117.1168,36.6299,济南市,锦屏中学,颗粒物(PM10),58,61,43,17,9,80,80,NA,NA,22,20,10,7,0.6,0.6
2026-04-07T0400,4108A,117.7107,36.2385,济南市,山财大街5号,颗粒物(PM10),62,66,42,30,8,23,23,NA,NA,61,23,5,5,0.8,0.4
2026-04-07T0400,4109A,116.9744,36.6889,济南市,无影山路12号,细颗粒物(PM2.5),102,90,57,62,16,26,26,NA,NA,54,23,28,8,1.3,0.6
2026-04-07T0400,1653A,116.6229,35.4288,济宁市,火炬城,颗粒物(PM10),62,66,56,32,14,61,61,NA,NA,21,16,4,4,0.8,0.5
2026-04-07T0400,3500A,116.5808,35.3703,济宁市,北湖一中,颗粒物(PM10),59,62,57,31,14,65,65,NA,NA,21,19,7,6,0.8,0.5
2026-04-07T0400,3501A,116.8251,35.5592,济宁市,服务中心,颗粒物(PM10),70,77,66,28,16,62,62,NA,NA,16,18,8,3,0.2,0.1
2026-04-07T0400,3678A,116.5907,35.4054,济宁市,市第七中学,颗粒物(PM10),68,74,76,32,18,67,67,NA,NA,23,20,6,3,0.8,0.5
2026-04-07T0400,4111A,116.6075,35.4566,济宁市,任和路,颗粒物(PM10),80,92,69,34,17,57,57,NA,NA,23,21,9,7,0.6,0.3
2026-04-07T0400,4112A,116.5648,35.3921,济宁市,文体南路1号,NA,NA,79,64,34,15,64,64,NA,NA,18,14,7,5,NA,0.4
2026-04-07T0400,4122A,112.6071,35.1015,济源市,市委党校,颗粒物(PM10),97,115,137,37,44,58,58,NA,NA,21,25,11,12,0.7,0.7
2026-04-07T0400,4123A,112.596,35.0702,济源市,沁园中路1号,颗粒物(PM10),87,101,140,48,45,32,32,NA,NA,52,29,10,11,1.0,0.9
2026-04-07T0400,2255A,130.2749,46.8028,佳木斯市,佳纺,,21,16,19,14,19,67,67,NA,NA,5,10,4,4,0.3,0.3
2026-04-07T0400,2257A,130.3258,46.7975,佳木斯市,环保局,,18,12,17,11,18,55,55,NA,NA,9,12,6,5,0.3,0.4
2026-04-07T0400,4285A,130.363,46.806,佳木斯市,顺和街,,20,NA,15,14,16,57,57,NA,NA,15,11,3,2,0.3,0.3
2026-04-07T0400,4286A,130.3952,46.8268,佳木斯市,长安路196号,,22,NA,16,10,14,68,68,NA,NA,6,6,5,5,0.4,0.5
2026-04-07T0400,1252A,120.7439,30.778,嘉兴市,清河小学,颗粒物(PM10),52,52,89,18,41,100,100,NA,NA,10,21,6,8,0.6,0.6
2026-04-07T0400,1253A,120.7261,30.7477,嘉兴市,嘉兴学院,颗粒物(PM10),60,64,91,32,41,102,102,NA,NA,13,24,6,7,0.6,0.6
2026-04-07T0400,2872A,120.7845,30.7524,嘉兴市,南湖区残联,颗粒物(PM10),56,58,82,34,42,91,91,NA,NA,9,16,4,6,0.8,0.8
2026-04-07T0400,3407A,120.6915,30.7741,嘉兴市,秀洲住建,,49,49,82,24,41,100,100,NA,NA,11,22,6,7,0.5,0.6
2026-04-07T0400,1945A,98.291,39.7705,嘉峪关市,气象局,,44,44,50,19,14,68,68,NA,NA,23,21,20,13,0.6,0.4
2026-04-07T0400,2884A,98.2672,39.7978,嘉峪关市,酒钢宾馆,颗粒物(PM10),70,78,64,21,14,36,36,NA,NA,32,16,17,16,0.4,0.5
2026-04-07T0400,3248A,98.2644,39.7723,嘉峪关市,雄关区,,47,47,50,18,14,57,57,NA,NA,26,21,10,8,0.6,0.6
2026-04-07T0400,1383A,113.1063,22.6058,江门市,北街,,36,36,35,17,15,11,11,NA,NA,22,11,/,/,/,/
2026-04-07T0400,1384A,113.073,22.5835,江门市,西区,,30,30,36,19,17,24,24,NA,NA,17,12,/,/,/,/
2026-04-07T0400,1385A,113.0218,22.531,江门市,圭峰西,,35,35,35,21,18,26,26,NA,NA,12,8,/,/,/,/
2026-04-07T0400,1386A,113.0826,22.5947,江门市,东湖,颗粒物(PM10),53,53,55,20,16,22,22,NA,NA,13,10,5,5,0.4,0.5
2026-04-07T0400,3311A,113.1077,22.5647,江门市,江海富民,,47,47,50,24,18,21,21,NA,NA,18,10,/,/,0.4,0.4
2026-04-07T0400,3449A,113.0496,22.4669,江门市,新会银湖,,36,36,37,14,14,25,25,NA,NA,17,10,6,6,0.2,0.2
2026-04-07T0400,3335A,113.3137,35.2643,焦作市,马村街道办,颗粒物(PM10),76,86,112,36,34,67,67,NA,NA,20,18,9,11,0.4,0.5
2026-04-07T0400,3336A,113.2464,35.2374,焦作市,焦作技师学院,颗粒物(PM10),91,107,137,38,34,72,72,NA,NA,16,15,10,11,0.9,0.8
2026-04-07T0400,3477A,113.1656,35.2536,焦作市,中站许衡医院,颗粒物(PM10),80,91,111,33,37,86,86,NA,NA,11,15,12,15,0.5,0.7
2026-04-07T0400,3981A,113.2456,35.18,焦作市,原李万街道办,颗粒物(PM10),89,104,124,42,36,62,62,NA,NA,19,16,15,12,0.7,0.6
2026-04-07T0400,4264A,113.234,35.219,焦作市,新安路1731号,颗粒物(PM10),98,116,126,39,33,77,77,NA,NA,21,19,11,12,0.9,0.8
2026-04-07T0400,4295A,113.2722,35.2121,焦作市,人民路3066号,颗粒物(PM10),85,99,121,43,36,70,70,NA,NA,16,12,7,8,0.6,0.6
2026-04-07T0400,1708A,116.3701,23.5345,揭阳市,新兴,,47,47,44,16,23,22,22,NA,NA,12,20,8,9,0.6,0.8
2026-04-07T0400,1709A,116.3261,23.5442,揭阳市,西马,,38,38,45,14,22,24,24,NA,NA,10,16,4,7,0.8,1
2026-04-07T0400,1710A,116.361,23.5627,揭阳市,东兴,,48,48,42,16,22,17,17,NA,NA,16,17,2,4,/,/
2026-04-07T0400,1711A,116.4151,23.5295,揭阳市,渔湖,,50,50,45,22,24,5,5,NA,NA,30,17,11,5,/,/
2026-04-07T0400,3320A,116.4028,23.5699,揭阳市,曲溪,,36,36,39,17,22,5,5,NA,NA,20,16,6,11,0.6,0.8
2026-04-07T0400,1944A,102.1691,38.5166,金昌市,天庆家园,颗粒物(PM10),51,51,54,28,18,65,65,NA,NA,26,16,9,14,0.4,0.5
2026-04-07T0400,4022A,102.1648,38.5369,金昌市,金川区人防中心,,40,40,62,24,22,73,73,NA,NA,12,16,21,14,0.6,0.5
2026-04-07T0400,4239A,102.193042,38.531887,金昌市,长春路96号,,49,49,85,12,26,62,62,NA,NA,23,15,50,118,0.6,0.8
2026-04-07T0400,1262A,119.6478,29.0773,金华市,十五中,细颗粒物(PM2.5),103,98,69,63,40,59,59,NA,NA,17,28,3,4,0.9,0.9
2026-04-07T0400,1263A,119.6859,29.1032,金华市,监测站,细颗粒物(PM2.5),105,106,68,65,36,68,68,NA,NA,16,20,4,4,0.8,0.6
2026-04-07T0400,3659A,119.656,29.1132,金华市,气象局,细颗粒物(PM2.5),102,97,74,62,42,40,40,NA,NA,26,34,3,3,0.7,0.8
2026-04-07T0400,1767A,121.1114,41.0879,锦州市,南山,NA,NA,22,23,10,11,74,74,NA,NA,NA,13,8,13,0.4,0.5
2026-04-07T0400,1768A,121.060361,40.842794,锦州市,开发区,,22,22,42,6,12,67,67,NA,NA,15,29,8,10,0.3,0.4
2026-04-07T0400,1769A,121.1836,41.1118,锦州市,百股街道,,22,22,22,12,9,67,67,NA,NA,16,11,11,13,0.5,0.4
2026-04-07T0400,1770A,121.1176,41.1224,锦州市,天安街道,NA,NA,31,24,9,10,75,75,NA,NA,NA,12,10,14,0.3,0.4
2026-04-07T0400,1771A,121.1303,41.1385,锦州市,北湖公园,,24,19,20,8,10,76,76,NA,NA,7,9,4,34,0.4,0.4
2026-04-07T0400,2160A,112.8496,35.5051,晋城市,自来水公司,颗粒物(PM10),99,118,91,30,16,52,52,NA,NA,35,22,6,9,0.5,0.7
2026-04-07T0400,2162A,112.8509,35.4886,晋城市,市环保局,颗粒物(PM10),105,131,92,44,20,42,42,NA,NA,32,17,5,10,0.4,0.6
2026-04-07T0400,3620A,112.8258,35.4804,晋城市,泽州一中,颗粒物(PM10),81,93,82,26,18,60,60,NA,NA,21,15,4,7,0.5,0.5
2026-04-07T0400,4078A,112.8246,35.5152,晋城市,前书院路,NA,NA,NA,80,37,20,53,53,NA,NA,26,26,5,9,0.6,0.6
2026-04-07T0400,4079A,112.8864,35.4773,晋城市,祥云街666号,颗粒物(PM10),83,96,81,40,24,65,65,NA,NA,19,13,9,12,0.6,0.7
2026-04-07T0400,2174A,112.6992,37.6984,晋中市,榆次区政府,颗粒物(PM10),67,73,74,29,17,76,76,NA,NA,19,28,11,11,0.5,0.5
2026-04-07T0400,2865A,112.7195,37.683,晋中市,榆次三中,颗粒物(PM10),84,97,75,27,20,80,80,NA,NA,15,20,12,11,0.4,0.3
2026-04-07T0400,4080A,112.7375,37.7215,晋中市,广安街188号,颗粒物(PM10),66,72,63,34,16,78,78,NA,NA,17,25,12,13,0.4,0.3
2026-04-07T0400,4200A,112.7478,37.6954,晋中市,迎宾街26号,颗粒物(PM10),80,92,69,34,17,80,80,NA,NA,17,17,11,10,0.4,0.4
2026-04-07T0400,2439A,112.2012,31.048,荆门市,竹园小学,NA,NA,97,125,30,44,68,68,NA,NA,17,19,1,4,NA,0.5
2026-04-07T0400,2440A,112.1968,30.9892,荆门市,掇刀,NA,NA,96,105,40,47,79,79,NA,NA,13,17,5,10,NA,0.8
2026-04-07T0400,3012A,112.1849,31.0361,荆门市,西山林语,NA,NA,75,101,27,42,69,69,NA,NA,NA,13,5,7,0.4,0.5
2026-04-07T0400,3547A,112.1631,31.0134,荆门市,龙泉中学南校,颗粒物(PM10),85,98,103,31,38,88,88,NA,NA,14,13,6,6,0.6,0.7
2026-04-07T0400,4124A,112.2213,31.0654,荆门市,新台西路6号,颗粒物(PM10),101,122,113,43,51,34,34,NA,NA,33,17,7,7,0.5,0.6
2026-04-07T0400,1844A,112.2493,30.3198,荆州市,市图书馆,NA,NA,88,67,47,44,38,38,NA,NA,NA,22,7,7,0.6,0.6
2026-04-07T0400,1845A,112.2009,30.3543,荆州市,市委党校,NA,NA,87,77,54,43,17,17,NA,NA,NA,35,6,7,0.8,0.9
2026-04-07T0400,3194A,112.2749,30.3124,荆州市,管委会,NA,NA,85,75,49,49,36,36,NA,NA,NA,24,8,8,0.6,0.7
2026-04-07T0400,4268A,112.1722,30.3366,荆州市,学苑路85号,NA,NA,71,59,54,45,10,10,NA,NA,NA,18,4,14,0.7,0.6
2026-04-07T0400,2343A,117.2114,29.2931,景德镇市,老干部活动中心,,43,37,42,30,31,1,1,NA,NA,22,14,4,5,0.6,0.6
2026-04-07T0400,2344A,117.1893,29.2789,景德镇市,兽医站,,49,49,48,26,24,17,17,NA,NA,16,17,5,4,0.8,0.7
2026-04-07T0400,2346A,117.246,29.2958,景德镇市,陶研所,,34,34,36,15,21,3,3,NA,NA,24,16,3,4,0.6,0.5
2026-04-07T0400,4289A,117.154766,29.256967,景德镇市,青少年活动中心,细颗粒物(PM2.5),56,54,42,38,28,3,3,NA,NA,26,19,9,15,/,/
2026-04-07T0400,1803A,115.9873,29.6816,九江市,十里,颗粒物(PM10),85,98,66,36,37,89,89,NA,NA,16,26,10,9,0.9,0.9
2026-04-07T0400,1804A,115.9583,29.7047,九江市,茅山头,颗粒物(PM10),85,98,64,42,37,89,89,NA,NA,9,21,3,5,0.6,0.7
2026-04-07T0400,1805A,115.9877,29.7295,九江市,西园,颗粒物(PM10),82,94,64,40,39,83,83,NA,NA,21,40,5,7,0.6,0.7
2026-04-07T0400,1808A,115.9112,29.6038,九江市,综合工业园,颗粒物(PM10),86,100,61,41,34,74,74,NA,NA,22,32,9,11,0.6,0.7
2026-04-07T0400,3190A,116.0254,29.6995,九江市,外国语学校,NA,NA,99,59,36,36,79,79,NA,NA,13,24,9,8,NA,0.8
2026-04-07T0400,4253A,116.010205,29.659402,九江市,莲花大道8号,颗粒物(PM10),90,105,62,38,33,78,78,NA,NA,13,19,7,6,0.7,0.7
2026-04-07T0400,4240A,98.495752,39.733935,酒泉市,玉门东路5号,颗粒物(PM10),56,58,55,23,18,49,49,NA,NA,17,12,6,7,0.2,0.3
2026-04-07T0400,4241A,98.5099,39.7506,酒泉市,北大街108号,,41,41,45,19,17,63,63,NA,NA,8,11,9,9,0.2,0.2
2026-04-07T0400,2698A,76.0071,39.466,喀什地区,巡警大队,颗粒物(PM10),161,272,185,86,83,1,1,NA,NA,68,34,6,5,0.7,0.5
2026-04-07T0400,2699A,75.9756,39.4693,喀什地区,吾办,颗粒物(PM10),189,327,173,112,68,1,1,NA,NA,64,24,2,3,1.1,0.6
2026-04-07T0400,4027A,75.9485,39.4688,喀什地区,老干局,颗粒物(PM10),140,224,160,74,61,8,8,NA,NA,60,26,3,3,0.7,0.5
2026-04-07T0400,1824A,114.3389,34.778,开封市,肿瘤医院,颗粒物(PM10),76,86,107,35,35,51,51,NA,NA,28,21,7,10,0.6,0.6
2026-04-07T0400,1826A,114.2884,34.7966,开封市,世纪星幼儿园,颗粒物(PM10),70,77,101,32,30,55,55,NA,NA,29,24,8,10,0.6,0.6
2026-04-07T0400,3147A,114.3434,34.8101,开封市,龙亭公园,颗粒物(PM10),73,82,105,28,32,52,52,NA,NA,32,24,8,12,0.7,0.7
2026-04-07T0400,3210A,114.3645,34.7955,开封市,汴京公园,颗粒物(PM10),65,70,102,34,39,43,43,NA,NA,29,22,5,9,0.7,0.6
2026-04-07T0400,3473A,114.2485,34.8306,开封市,技师学院,颗粒物(PM10),73,82,94,35,31,61,61,NA,NA,28,17,13,11,0.7,0.6
2026-04-07T0400,3592A,114.4518,34.7503,开封市,祥符区生态环境局,颗粒物(PM10),97,115,108,35,36,38,38,NA,NA,45,30,7,8,0.6,0.6
2026-04-07T0400,1951A,84.886,45.6029,克拉玛依市,长征新村,,32,19,47,7,14,102,102,NA,NA,2,8,7,8,0.6,0.6
2026-04-07T0400,1952A,84.8894,45.5827,克拉玛依市,南林小区,,34,19,46,3,3,108,108,NA,NA,2,6,3,3,0.1,0.2
2026-04-07T0400,1954A,84.896,44.3328,克拉玛依市,独山子区,颗粒物(PM10),112,151,78,18,14,88,88,NA,NA,1,7,5,6,0.4,0.5
2026-04-07T0400,1955A,85.6888,46.0909,克拉玛依市,乌尔禾区商贸楼,,46,46,54,9,14,92,92,NA,NA,8,13,2,3,0.4,0.5
2026-04-07T0400,3612A,85.1045,45.6895,克拉玛依市,白碱滩区新站,颗粒物(PM10),80,92,85,9,13,114,114,NA,NA,2,14,8,8,0.3,0.4
2026-04-07T0400,2697A,76.1457,39.7143,克孜勒苏柯尔克孜自治州,市人民政府,颗粒物(PM10),115,157,133,51,43,91,91,NA,NA,3,13,4,10,0.1,0.1
2026-04-07T0400,3665A,76.1654,39.7157,克孜勒苏柯尔克孜自治州,克州文化中心,颗粒物(PM10),108,140,130,48,46,70,70,NA,NA,15,16,9,15,0.1,0.2
2026-04-07T0400,1450A,102.8203,24.889,昆明市,呈贡新区,,33,31,34,23,20,95,95,NA,NA,10,9,4,4,0.5,0.4
2026-04-07T0400,1452A,102.7253,25.0904,昆明市,龙泉镇,颗粒物(PM10),52,52,34,23,18,48,48,NA,NA,27,18,4,5,0.6,0.6
2026-04-07T0400,1453A,102.7267,25.0378,昆明市,东风东路,,35,35,30,20,17,85,85,NA,NA,17,12,9,4,0.6,0.5
2026-04-07T0400,1454A,102.6744,25.0671,昆明市,金鼎山,,34,34,34,22,18,93,93,NA,NA,9,10,2,2,0.4,0.4
2026-04-07T0400,1455A,102.6643,25.0401,昆明市,碧鸡广场,,38,38,35,20,18,74,74,NA,NA,11,12,5,5,0.4,0.4
2026-04-07T0400,3179A,102.7491,25.012,昆明市,官渡区博物馆,,33,29,31,23,18,82,82,NA,NA,15,10,10,5,0.4,0.4
2026-04-07T0400,3375A,102.8016,24.8336,昆明市,青年创业园,,42,42,33,20,19,91,91,NA,NA,10,5,6,5,0.5,0.4
2026-04-07T0400,3550A,102.8,24.9787,昆明市,昆明学院,,33,33,33,19,15,96,96,NA,NA,8,7,7,6,0.5,0.5
2026-04-07T0400,3551A,102.5969,24.6738,昆明市,晋宁区生态环境分局,,40,40,25,28,19,90,90,NA,NA,7,5,2,3,0.4,0.4
2026-04-07T0400,3552A,102.6673,24.9861,昆明市,云天化总部,,40,40,31,20,15,50,50,NA,NA,40,11,7,6,0.5,0.5
2026-04-07T0400,1456A,91.132,29.6515,拉萨市,八廓街,,35,6,13,3,7,110,110,NA,NA,2,5,4,4,0.2,0.2
2026-04-07T0400,1457A,91.1221,29.6748,拉萨市,市环保局,,32,10,10,7,6,101,101,NA,NA,3,6,5,5,0.2,0.3
2026-04-07T0400,1458A,91.0874,29.6476,拉萨市,区监测站,,35,NA,9,6,6,109,109,NA,NA,5,9,4,5,0.1,0.1
2026-04-07T0400,1459A,91.1774,29.6541,拉萨市,西藏大学,,33,7,10,6,6,103,103,NA,NA,6,8,4,4,0.3,0.3
2026-04-07T0400,1460A,90.9798,29.6586,拉萨市,区辐射站,,32,6,14,6,7,101,101,NA,NA,4,10,4,4,0.4,0.4
2026-04-07T0400,1461A,91.0831,29.6292,拉萨市,拉萨火车站,,34,7,10,3,6,108,108,NA,NA,3,5,4,4,0.2,0.2
2026-04-07T0400,2520A,109.2203,23.7252,来宾市,来宾技工学校,细颗粒物(PM2.5),110,89,88,71,67,41,41,NA,NA,9,9,3,4,1.1,1
2026-04-07T0400,3535A,109.1781,23.7293,来宾市,兴宾区政府,细颗粒物(PM2.5),111,110,94,72,66,51,51,NA,NA,9,10,10,10,1.2,1.1
2026-04-07T0400,4002A,109.2312,23.7428,来宾市,中南小学,细颗粒物(PM2.5),117,85,88,78,73,45,45,NA,NA,12,14,8,7,1.0,0.9
2026-04-07T0400,1479A,103.8309,36.0467,兰州市,铁路设计院,颗粒物(PM10),65,71,85,33,33,42,42,NA,NA,35,37,3,8,0.5,0.6
2026-04-07T0400,3241A,103.7439,36.0841,兰州市,百合公园,颗粒物(PM10),75,84,86,36,33,2,2,NA,NA,56,32,2,8,0.8,0.6
2026-04-07T0400,3242A,103.9613,35.9985,兰州市,和平,颗粒物(PM10),53,54,78,20,28,67,67,NA,NA,13,15,5,7,0.3,0.4
2026-04-07T0400,4236A,103.629272,36.093822,兰州市,庄浪东路808号,颗粒物(PM10),58,61,84,22,31,60,60,NA,NA,8,17,7,15,0.3,0.4
2026-04-07T0400,4237A,103.7251,36.104344,兰州市,安宁西路88号,颗粒物(PM10),78,89,95,31,34,5,5,NA,NA,68,30,7,11,0.4,0.4
2026-04-07T0400,4238A,103.846982,36.067567,兰州市,北滨河东路1号,颗粒物(PM10),58,61,82,27,33,36,36,NA,NA,40,32,7,10,0.6,0.6
2026-04-07T0400,1067A,116.6712,39.5109,廊坊市,药材公司,,26,13,24,6,10,83,83,NA,NA,3,7,3,2,0.2,0.2
2026-04-07T0400,1068A,116.7215,39.5592,廊坊市,开发区,,26,13,23,3,5,82,82,NA,NA,1,3,3,2,0.2,0.2
2026-04-07T0400,1070A,116.7246,39.5273,廊坊市,北华航天学院,,25,17,23,3,6,79,79,NA,NA,4,9,3,4,0.2,0.2
2026-04-07T0400,2919A,116.7022,39.5454,廊坊市,河北工业大学,,26,11,23,8,7,81,81,NA,NA,2,5,2,3,0.2,0.2
2026-04-07T0400,2536A,103.7629,29.5844,乐山市,牛耳桥,,21,13,29,3,14,65,65,NA,NA,9,16,4,6,0.3,0.4
2026-04-07T0400,2537A,103.7501,29.6002,乐山市,市第三水厂,,24,12,30,3,15,74,74,NA,NA,10,17,3,4,0.3,0.4
2026-04-07T0400,2538A,103.7571,29.5664,乐山市,市监测站,,22,12,28,3,12,68,68,NA,NA,7,12,3,3,0.5,0.6
2026-04-07T0400,3361A,103.7313,29.563,乐山市,理工大学,,21,10,28,3,15,67,67,NA,NA,4,12,2,3,0.4,0.5
2026-04-07T0400,2599A,100.2497,26.8802,丽江市,丽江古城,,30,15,21,3,7,93,93,NA,NA,5,7,9,8,0.4,0.5
2026-04-07T0400,2600A,100.2203,26.8906,丽江市,市中心,,31,15,14,12,8,97,97,NA,NA,5,8,6,7,0.4,0.5
2026-04-07T0400,1267A,119.9141,28.4513,丽水市,监测站大楼,,29,29,34,17,25,13,13,NA,NA,18,19,5,4,0.5,0.6
2026-04-07T0400,1268A,119.93,28.4589,丽水市,莲都小学,,40,40,34,22,23,26,26,NA,NA,15,20,/,/,/,/
2026-04-07T0400,1269A,119.8794,28.4232,丽水市,余庄前,,28,28,36,19,26,2,2,NA,NA,14,14,4,4,0.7,0.6
2026-04-07T0400,1173A,119.1759,34.5885,连云港市,市环境监测站,,39,39,43,9,11,59,59,NA,NA,20,16,8,8,0.5,0.6
2026-04-07T0400,3000A,119.3577,34.6971,连云港市,德源药业,,27,27,42,7,8,73,73,NA,NA,19,22,5,6,0.5,0.4
2026-04-07T0400,3007A,119.178,34.8442,连云港市,新城一中,,34,34,51,6,15,82,82,NA,NA,14,19,6,7,0.4,0.4
2026-04-07T0400,3008A,119.3607,34.7519,连云港市,胡沟管理处,,29,29,42,3,12,47,47,NA,NA,49,37,12,12,0.6,0.6
2026-04-07T0400,3009A,119.1478,34.5913,连云港市,矿山设计院,,44,44,48,9,10,59,59,NA,NA,17,17,8,8,0.6,0.6
2026-04-07T0400,3434A,119.2414,34.6539,连云港市,工贸学校,NA,NA,42,45,13,13,69,69,NA,NA,13,13,10,11,NA,0.4
2026-04-07T0400,3664A,119.4171,34.734,连云港市,连云街道,,28,28,44,8,15,78,78,NA,NA,18,21,4,6,0.4,0.4
2026-04-07T0400,2573A,102.2629,27.8981,凉山彝族自治州,西昌市政府,,22,22,33,8,19,70,70,NA,NA,4,9,3,4,0.4,0.5
2026-04-07T0400,2574A,102.2686,27.885,凉山彝族自治州,凉山州政府,,18,17,27,8,15,57,57,NA,NA,7,10,4,6,0.4,0.4
2026-04-07T0400,4229A,102.2342,27.8859,凉山彝族自治州,凯乐南路30号,,21,18,28,3,12,65,65,NA,NA,11,13,4,7,0.4,0.6
2026-04-07T0400,2212A,123.1978,41.2036,辽阳市,宏伟区,,28,28,32,3,8,64,64,NA,NA,10,11,5,5,0.4,0.5
2026-04-07T0400,2213A,123.1684,41.2497,辽阳市,新华园,,22,22,32,6,9,50,50,NA,NA,11,14,7,9,0.5,0.6
2026-04-07T0400,2214A,123.2355,41.2663,辽阳市,滨河路,,32,32,29,3,6,63,63,NA,NA,8,10,6,6,0.3,0.4
2026-04-07T0400,4083A,123.153,41.2874,辽阳市,铁西路150号,,34,34,36,3,11,48,48,NA,NA,12,14,6,6,0.3,0.5
2026-04-07T0400,2227A,125.1359,42.8845,辽源市,环保局,,25,25,28,14,11,72,72,NA,NA,6,6,5,5,0.3,0.3
2026-04-07T0400,4085A,125.0998,42.9134,辽源市,安宁大街333号,,26,26,34,15,12,73,73,NA,NA,6,7,5,4,0.5,0.4
2026-04-07T0400,1625A,115.9789,36.4372,聊城市,区政府,颗粒物(PM10),56,58,70,16,19,81,81,NA,NA,20,21,10,11,0.5,0.6
2026-04-07T0400,3200A,115.9772,36.4986,聊城市,监控中心,颗粒物(PM10),63,67,76,26,22,70,70,NA,NA,30,26,13,12,0.6,0.6
2026-04-07T0400,3513A,116.0443,36.436,聊城市,九州社区,颗粒物(PM10),60,64,80,22,22,76,76,NA,NA,27,26,11,11,0.5,0.5
2026-04-07T0400,4018A,116.0564,36.4609,聊城市,星美广场,颗粒物(PM10),58,60,76,20,22,69,69,NA,NA,24,23,12,12,0.5,0.6
2026-04-07T0400,4113A,116.0091,36.4495,聊城市,利民路,,48,48,62,16,19,84,84,NA,NA,22,24,9,9,0.5,0.5
2026-04-07T0400,2632A,94.3683,29.6373,林芝市,林芝监测站,,32,6,7,3,3,102,102,NA,NA,1,3,7,6,0.5,0.5
2026-04-07T0400,2633A,94.3616,29.6634,林芝市,林芝人民医院,,32,6,9,3,4,102,102,NA,NA,2,3,6,5,0.5,0.5
2026-04-07T0400,2603A,100.0779,23.8981,临沧市,市环保局,,26,NA,40,18,29,60,60,NA,NA,8,7,8,11,0.4,0.5
2026-04-07T0400,2604A,100.0894,23.882,临沧市,市气象局,,30,28,39,21,33,67,67,NA,NA,6,8,9,10,0.5,0.4
2026-04-07T0400,1733A,111.5552,36.0791,临汾市,临钢医院,颗粒物(PM10),56,58,78,14,17,48,48,NA,NA,25,21,10,7,0.8,0.6
2026-04-07T0400,1734A,111.4984,36.0734,临汾市,技工学校,颗粒物(PM10),55,57,67,25,23,44,44,NA,NA,26,19,7,9,0.7,0.6
2026-04-07T0400,1736A,111.5017,36.0857,临汾市,市委,颗粒物(PM10),63,67,86,20,19,50,50,NA,NA,22,19,9,10,0.7,0.5
2026-04-07T0400,3018A,111.5048,36.1015,临汾市,唐尧大酒店,颗粒物(PM10),70,78,95,29,23,44,44,NA,NA,27,21,8,10,0.8,0.5
2026-04-07T0400,4244A,111.4879,36.053,临汾市,启星学校,颗粒物(PM10),65,70,81,33,18,39,39,NA,NA,37,27,8,11,0.7,0.5
2026-04-07T0400,4271A,103.2464,35.6123,临夏回族自治州,滨河东路1号,颗粒物(PM10),107,138,139,46,43,26,26,NA,NA,25,34,9,10,0.5,0.5
2026-04-07T0400,4310A,103.207136,35.599807,临夏回族自治州,新华街21号,细颗粒物(PM2.5),105,111,107,65,45,23,23,NA,NA,20,17,7,8,0.7,0.4
2026-04-07T0400,1618A,118.3429,35.0532,临沂市,沂河小区,颗粒物(PM10),55,56,58,24,13,45,45,NA,NA,21,16,11,10,0.7,0.3
2026-04-07T0400,1619A,118.2962,35.0568,临沂市,鲁南制药厂,,46,46,55,15,14,60,60,NA,NA,17,14,11,11,0.4,0.2
2026-04-07T0400,1620A,118.2793,34.9976,临沂市,新光毛纺厂,,31,31,56,14,14,56,56,NA,NA,16,15,9,9,0.2,0.2
2026-04-07T0400,1621A,118.3955,35.0889,临沂市,河东保险公司,颗粒物(PM10),56,58,52,24,14,33,33,NA,NA,38,18,16,11,1.0,0.4
2026-04-07T0400,3370A,118.3563,35.0215,临沂市,十里堡居委,,41,41,51,13,12,49,49,NA,NA,24,19,11,11,0.6,0.4
2026-04-07T0400,3496A,118.359,35.1067,临沂市,南坊新区,颗粒物(PM10),58,61,59,25,14,41,41,NA,NA,33,20,15,11,1.0,0.4
2026-04-07T0400,3860A,118.3915,35.0297,临沂市,皇山花园小区,颗粒物(PM10),56,58,60,20,13,43,43,NA,NA,32,22,11,10,0.7,0.3
2026-04-07T0400,1870A,109.4854,24.3898,柳州市,柳东小学,,48,48,63,23,51,42,42,NA,NA,6,9,7,5,0.8,0.9
2026-04-07T0400,1871A,109.4109,24.3304,柳州市,环保监测站,,40,40,69,18,53,37,37,NA,NA,10,18,11,7,0.8,1
2026-04-07T0400,1872A,109.3886,24.3408,柳州市,河西水厂,,30,28,74,21,57,37,37,NA,NA,12,19,19,9,1.4,1.2
2026-04-07T0400,1873A,109.4263,24.2951,柳州市,市四中,,31,31,74,20,55,40,40,NA,NA,6,17,12,7,0.8,1
2026-04-07T0400,1874A,109.396,24.3658,柳州市,市九中,,26,21,69,18,49,33,33,NA,NA,10,13,14,9,0.9,0.9
2026-04-07T0400,1875A,109.4912,24.3164,柳州市,古亭山,,40,29,68,28,54,44,44,NA,NA,5,14,7,7,0.8,0.9
2026-04-07T0400,3402A,109.5422,24.3994,柳州市,市二中,,46,41,72,32,55,33,33,NA,NA,6,11,7,7,0.8,0.8
2026-04-07T0400,2307A,116.5078,31.7369,六安市,监测大楼,颗粒物(PM10),65,71,76,30,41,66,66,NA,NA,14,14,4,5,0.5,0.5
2026-04-07T0400,2308A,116.4738,31.7642,六安市,皖西学院,颗粒物(PM10),58,60,80,30,41,68,68,NA,NA,13,14,6,6,0.4,0.4
2026-04-07T0400,2309A,116.4997,31.7904,六安市,朝阳厂,颗粒物(PM10),61,65,72,27,40,62,62,NA,NA,17,20,6,7,0.3,0.3
2026-04-07T0400,2310A,116.5566,31.7885,六安市,开发区,颗粒物(PM10),57,59,88,26,39,54,54,NA,NA,15,23,6,7,0.4,0.5
2026-04-07T0400,2577A,104.8293,26.592,六盘水市,黄土坡,,49,45,46,34,34,85,85,NA,NA,9,12,5,8,0.6,0.6
2026-04-07T0400,2579A,104.8481,26.5898,六盘水市,民中,,46,39,48,32,33,82,82,NA,NA,8,12,4,7,0.6,0.8
2026-04-07T0400,2580A,104.9541,26.5506,六盘水市,双水,,43,41,44,30,31,85,85,NA,NA,6,9,4,6,0.3,0.4
2026-04-07T0400,4151A,104.8899,26.5685,六盘水市,钟山大道中段564号,,50,50,58,32,34,84,84,NA,NA,5,8,2,4,0.4,0.5
2026-04-07T0400,2336A,117.022,25.1031,龙岩市,龙岩市监测站,,36,36,21,24,16,45,45,NA,NA,5,7,5,5,0.7,0.8
2026-04-07T0400,2337A,117.0257,25.0662,龙岩市,闽西职业技术学院,,39,39,22,23,15,57,57,NA,NA,2,4,4,4,0.6,0.6
2026-04-07T0400,2338A,117.0195,25.0306,龙岩市,龙岩学院,,33,33,22,22,15,51,51,NA,NA,3,6,3,3,/,/
2026-04-07T0400,2885A,104.9344,33.3827,陇南市,滨江中学,,50,50,62,18,24,37,37,NA,NA,9,17,8,8,0.5,0.6
2026-04-07T0400,3247A,104.9551,33.3709,陇南市,市总工会,颗粒物(PM10),53,53,52,25,23,41,41,NA,NA,10,15,7,7,0.5,0.5
2026-04-07T0400,2488A,111.9984,27.7346,娄底市,市监测站,细颗粒物(PM2.5),68,61,35,44,25,54,54,NA,NA,13,14,4,5,1.6,0.7
2026-04-07T0400,2491A,111.9888,27.7035,娄底市,市政府,细颗粒物(PM2.5),66,43,33,43,24,49,49,NA,NA,8,9,3,3,0.7,0.6
2026-04-07T0400,4127A,111.9812,27.7591,娄底市,涟钢职大,,40,40,29,23,18,46,46,NA,NA,7,8,2,2,1.8,0.5
2026-04-07T0400,4128A,112.0303,27.7457,娄底市,娄底体校,细颗粒物(PM2.5),72,72,45,46,25,47,47,NA,NA,8,5,3,3,0.5,0.6
2026-04-07T0400,1894A,105.4427,28.9063,泸州市,小市上码头,,15,14,30,10,24,45,45,NA,NA,8,15,7,7,0.7,0.8
2026-04-07T0400,1895A,105.4241,28.8573,泸州市,兰田宪桥,,15,14,37,6,20,46,46,NA,NA,5,13,9,8,0.7,0.7
2026-04-07T0400,1896A,105.4378,28.8833,泸州市,市环监站,,17,17,43,8,24,48,48,NA,NA,11,16,7,8,0.6,0.7
2026-04-07T0400,4272A,105.3689,28.7783,泸州市,纳溪中医医院,,19,9,37,3,31,58,58,NA,NA,5,14,7,7,0.6,0.7
2026-04-07T0400,2183A,111.1447,37.5212,吕梁市,环保局,,38,38,50,6,12,45,45,NA,NA,22,26,7,7,0.3,0.3
2026-04-07T0400,2185A,111.1285,37.5338,吕梁市,自来水公司,颗粒物(PM10),94,111,69,28,16,4,4,NA,NA,49,27,10,9,0.5,0.4
2026-04-07T0400,2867A,111.1225,37.5093,吕梁市,马茂庄小学,颗粒物(PM10),54,55,61,11,10,16,16,NA,NA,41,28,10,4,0.4,0.4
2026-04-07T0400,1812A,112.3934,34.6517,洛阳市,市委党校,细颗粒物(PM2.5),84,90,122,52,39,36,36,NA,NA,26,19,10,13,0.8,0.6
2026-04-07T0400,1815A,112.494,34.6883,洛阳市,河南林校,颗粒物(PM10),82,94,128,35,34,48,48,NA,NA,37,26,12,15,0.6,0.5
2026-04-07T0400,1816A,112.3843,34.623,洛阳市,开发区管委会,颗粒物(PM10),93,110,130,43,36,63,63,NA,NA,24,20,16,17,0.8,0.7
2026-04-07T0400,1817A,112.4263,34.6249,洛阳市,市委新办公区,颗粒物(PM10),90,105,124,46,35,70,70,NA,NA,21,20,11,14,0.6,0.5
2026-04-07T0400,3340A,112.6005,34.6323,洛阳市,伊滨,颗粒物(PM10),101,122,133,45,35,26,26,NA,NA,41,23,8,10,0.7,0.6
2026-04-07T0400,3341A,112.495,34.6338,洛阳市,中移产业园,颗粒物(PM10),81,93,130,43,35,54,54,NA,NA,30,24,12,14,0.5,0.4
2026-04-07T0400,3593A,112.5736,34.8993,洛阳市,吉利监测站,颗粒物(PM10),74,83,126,27,29,61,61,NA,NA,20,27,11,14,0.3,0.4
2026-04-07T0400,3635A,112.3678,34.6623,洛阳市,河科大西苑校区,颗粒物(PM10),90,105,131,40,34,43,43,NA,NA,32,21,15,14,0.8,0.6
2026-04-07T0400,3636A,112.4387,34.678,洛阳市,英才小学,颗粒物(PM10),92,108,137,51,35,40,40,NA,NA,39,24,12,16,0.9,0.7
2026-04-07T0400,4214A,112.460027,34.694929,洛阳市,春都路1号院,颗粒物(PM10),87,101,145,44,32,52,52,NA,NA,28,20,10,14,0.8,0.7
2026-04-07T0400,2399A,114.051,33.5721,漯河市,三五一五工厂,颗粒物(PM10),73,81,111,41,34,72,72,NA,NA,28,23,8,8,0.4,0.4
2026-04-07T0400,2400A,114.0055,33.5698,漯河市,漯河大学,颗粒物(PM10),67,73,109,31,36,97,97,NA,NA,18,22,17,10,0.5,0.5
2026-04-07T0400,2401A,114.0134,33.5826,漯河市,市水利局,颗粒物(PM10),62,66,103,24,33,98,98,NA,NA,12,16,10,7,0.5,0.6
2026-04-07T0400,2402A,114.0261,33.5697,漯河市,市广电局,颗粒物(PM10),65,71,104,33,34,96,96,NA,NA,17,17,11,9,0.5,0.5
2026-04-07T0400,3478A,113.9691,33.568,漯河市,市图书馆,颗粒物(PM10),65,71,113,27,34,85,85,NA,NA,20,21,14,10,0.5,0.5
2026-04-07T0400,4250A,114.089259,33.588274,漯河市,韶山路11号,颗粒物(PM10),63,67,102,32,35,83,83,NA,NA,22,20,8,10,0.5,0.5
2026-04-07T0400,1798A,118.5084,31.6838,马鞍山市,湖东路四小,颗粒物(PM10),58,61,89,32,38,85,85,NA,NA,13,24,8,14,0.4,0.9
2026-04-07T0400,1799A,118.5019,31.6449,马鞍山市,开发区,颗粒物(PM10),64,69,90,40,39,67,67,NA,NA,29,28,8,11,0.5,0.7
2026-04-07T0400,3633A,118.4914,31.681,马鞍山市,雨山,颗粒物(PM10),65,70,86,31,36,86,86,NA,NA,17,28,6,15,0.5,1
2026-04-07T0400,4191A,118.527362,31.722269,马鞍山市,慈湖高新区,颗粒物(PM10),78,89,99,34,41,80,80,NA,NA,16,24,7,12,0.4,0.6
2026-04-07T0400,1686A,111.0285,21.469,茂名市,电白南海,,48,48,48,22,18,52,52,NA,NA,6,6,4,5,0.8,0.8
2026-04-07T0400,1687A,110.9294,21.6533,茂名市,茂石化七小,,41,41,52,24,23,46,46,NA,NA,8,9,6,6,0.5,0.6
2026-04-07T0400,1688A,110.9108,21.6688,茂名市,健康路,,36,31,42,25,22,50,50,NA,NA,6,8,4,4,0.6,0.6
2026-04-07T0400,1689A,110.8592,21.6826,茂名市,高岭,,48,48,51,30,25,50,50,NA,NA,11,8,6,5,/,/
2026-04-07T0400,3450A,111.0101,21.5165,茂名市,电白水东,,36,36,37,18,18,52,52,NA,NA,5,6,2,2,/,/
2026-04-07T0400,2540A,103.8414,30.0871,眉山市,气象局,,14,11,38,3,11,44,44,NA,NA,13,17,8,8,0.5,0.6
2026-04-07T0400,3148A,103.829,30.0563,眉山市,区人社局,,31,31,42,10,15,50,50,NA,NA,15,22,6,7,0.3,0.5
2026-04-07T0400,4148A,103.8836,30.0695,眉山市,眉职院,,22,22,33,3,12,69,69,NA,NA,12,17,6,7,0.6,0.6
2026-04-07T0400,1690A,116.1248,24.3307,梅州市,梅江月梅,,47,47,26,22,19,0,0,NA,NA,16,14,/,/,/,/
2026-04-07T0400,1691A,116.0798,24.2719,梅州市,梅县新城,NA,NA,34,27,24,22,0,0,NA,NA,NA,18,8,8,0.8,0.8
2026-04-07T0400,3315A,116.1234,24.2994,梅州市,梅龙,,41,41,24,26,21,0,0,NA,NA,16,16,6,6,0.9,0.8
2026-04-07T0400,1878A,104.7775,31.4741,绵阳市,富乐山,,26,26,46,13,27,21,21,NA,NA,16,20,6,6,0.7,0.8
2026-04-07T0400,1880A,104.6698,31.4668,绵阳市,高新区自来水公司,,22,22,44,10,26,35,35,NA,NA,10,19,5,7,0.6,0.7
2026-04-07T0400,3491A,104.6899,31.5324,绵阳市,西科大附属小学,,17,17,40,9,26,34,34,NA,NA,18,20,5,7,0.4,0.5
2026-04-07T0400,3492A,104.5647,31.5343,绵阳市,安州区旅游局,,17,17,48,7,25,39,39,NA,NA,8,13,3,6,0.3,0.5
2026-04-07T0400,4146A,104.7092,31.4972,绵阳市,科技城新区公安局,NA,NA,26,45,10,25,31,31,NA,NA,NA,23,5,7,0.5,0.6
2026-04-07T0400,4226A,104.765114,31.453094,绵阳市,绵阳市气象局,,31,31,44,14,25,20,20,NA,NA,18,24,9,8,0.6,0.6
2026-04-07T0400,1784A,129.61,44.561,牡丹江市,环保大楼,,48,NA,38,33,39,69,69,NA,NA,8,13,1,2,0.4,0.5
2026-04-07T0400,1787A,129.6364,44.6075,牡丹江市,机车工厂,,43,43,44,28,37,46,46,NA,NA,27,14,5,6,0.5,0.6
2026-04-07T0400,1788A,129.6386,44.5462,牡丹江市,第一中学,,43,40,38,30,35,61,61,NA,NA,15,14,3,3,0.4,0.5
2026-04-07T0400,4287A,129.5992,44.5964,牡丹江市,东晓云街98号,,43,43,46,13,33,65,65,NA,NA,8,9,2,2,0.5,0.5
2026-04-07T0400,2531A,105.0703,29.61,内江市,市监测站,,22,19,29,7,24,69,69,NA,NA,7,12,8,9,0.5,0.6
2026-04-07T0400,2533A,105.0657,29.5807,内江市,内江二中,,22,18,40,7,25,70,70,NA,NA,6,12,7,8,0.3,0.4
2026-04-07T0400,2534A,105.0407,29.5828,内江市,内江日报社,,24,10,34,7,24,76,76,NA,NA,8,12,4,6,0.4,0.5
2026-04-07T0400,4147A,105.0433,29.6105,内江市,玉峰路西段888号,,24,13,27,9,29,76,76,NA,NA,5,11,5,9,0.2,0.4
2026-04-07T0400,2628A,92.0653,31.4846,那曲市,那曲监测站,,37,15,22,8,12,118,118,NA,NA,2,9,6,7,0.4,0.6
2026-04-07T0400,4243A,92.0515,31.4787,那曲市,那曲市委宣传部,,37,20,14,3,7,118,118,NA,NA,1,3,7,8,0.4,0.4
2026-04-07T0400,1291A,115.8887,28.7006,南昌市,省林业公司,细颗粒物(PM2.5),100,66,40,60,29,58,58,NA,NA,9,12,6,4,0.6,0.4
2026-04-07T0400,1292A,115.813,28.7443,南昌市,林科所,细颗粒物(PM2.5),86,53,35,53,28,74,74,NA,NA,8,10,8,8,0.8,0.5
2026-04-07T0400,1294A,115.8518,28.687,南昌市,建工学校,细颗粒物(PM2.5),84,69,53,52,31,66,66,NA,NA,11,15,10,9,0.9,0.8
2026-04-07T0400,1295A,115.8926,28.6425,南昌市,象湖,细颗粒物(PM2.5),98,65,38,59,31,65,65,NA,NA,13,19,10,8,1.0,0.9
2026-04-07T0400,3046A,115.9084,28.6062,南昌市,机电学校,细颗粒物(PM2.5),98,86,54,59,34,71,71,NA,NA,7,13,5,4,0.7,0.7
2026-04-07T0400,3690A,115.9718,28.7032,南昌市,外国语学校,细颗粒物(PM2.5),100,72,43,60,26,68,68,NA,NA,12,15,10,9,0.7,0.5
2026-04-07T0400,4106A,115.7923,28.6873,南昌市,工业二路,细颗粒物(PM2.5),90,78,51,55,31,72,72,NA,NA,10,19,6,5,0.8,0.7
2026-04-07T0400,4192A,115.931587,28.686774,南昌市,南京东路235号,细颗粒物(PM2.5),92,66,49,56,30,66,66,NA,NA,5,7,7,6,0.6,0.4
2026-04-07T0400,1906A,106.0791,30.8022,南充市,南充市委,,38,38,37,25,25,19,19,NA,NA,11,16,6,6,0.2,0.2
2026-04-07T0400,1907A,106.1038,30.8215,南充市,南充炼油厂,NA,NA,32,38,24,27,32,32,NA,NA,6,13,4,4,NA,0.3
2026-04-07T0400,4227A,106.108336,30.788436,南充市,梨树横街98号,,38,36,39,26,28,27,27,NA,NA,8,15,5,5,0.2,0.3
2026-04-07T0400,4304A,106.1172,30.843,南充市,清泉寺北路188号,,36,36,39,25,29,25,25,NA,NA,6,9,6,6,0.5,0.6
2026-04-07T0400,4305A,106.067,30.7616,南充市,同庆路1号,,39,39,36,16,25,45,45,NA,NA,9,16,6,6,0.3,0.4
2026-04-07T0400,1151A,118.8033,32.1085,南京市,迈皋桥,颗粒物(PM10),61,65,70,39,34,59,59,NA,NA,35,38,7,9,1.0,1
2026-04-07T0400,1152A,118.7487,32.057,南京市,草场门,颗粒物(PM10),56,58,84,28,32,83,83,NA,NA,25,33,8,12,0.4,0.6
2026-04-07T0400,1154A,118.770105,32.004342,南京市,中华门,颗粒物(PM10),58,61,86,33,32,76,76,NA,NA,16,28,5,6,0.5,0.8
2026-04-07T0400,1155A,118.8059,32.0329,南京市,瑞金路,颗粒物(PM10),56,58,83,37,35,71,71,NA,NA,10,18,4,7,0.8,0.9
2026-04-07T0400,1156A,118.7946,32.0774,南京市,玄武湖,颗粒物(PM10),62,66,79,36,29,61,61,NA,NA,18,25,8,11,0.8,0.6
2026-04-07T0400,1157A,118.6415,32.0964,南京市,浦口,颗粒物(PM10),75,85,86,42,31,29,29,NA,NA,38,23,4,6,0.5,0.4
2026-04-07T0400,1158A,118.730129,32.000956,南京市,奥体中心,颗粒物(PM10),65,70,90,27,30,62,62,NA,NA,24,28,7,11,0.4,0.5
2026-04-07T0400,1159A,118.9072,32.1047,南京市,仙林大学城,颗粒物(PM10),65,70,89,40,40,48,48,NA,NA,31,33,9,12,0.6,0.7
2026-04-07T0400,3422A,118.8443,31.919,南京市,江宁彩虹桥,颗粒物(PM10),58,61,82,32,31,87,87,NA,NA,15,28,3,4,0.7,0.8
2026-04-07T0400,3427A,118.8497,32.3599,南京市,六合雄州,颗粒物(PM10),63,68,77,37,31,55,55,NA,NA,23,28,4,4,0.6,0.7
2026-04-07T0400,4086A,118.7641,32.0841,南京市,新模范马路66号,颗粒物(PM10),62,66,89,32,28,66,66,NA,NA,23,29,3,4,0.5,0.6
2026-04-07T0400,4249A,118.8707617,31.34017673,南京市,汶溪路181号,颗粒物(PM10),58,61,84,38,38,79,79,NA,NA,18,20,8,7,0.7,0.6
2026-04-07T0400,4312A,119.019,31.6512,南京市,中山西路1号,颗粒物(PM10),53,53,80,28,35,75,75,NA,NA,15,21,4,4,0.4,0.6
2026-04-07T0400,1401A,108.3098,22.788,南宁市,二十一中,细颗粒物(PM2.5),66,50,64,43,50,70,70,NA,NA,7,8,2,4,0.6,0.7
2026-04-07T0400,1402A,108.3135,22.8529,南宁市,北湖,细颗粒物(PM2.5),72,54,67,46,54,74,74,NA,NA,5,8,2,3,0.6,0.7
2026-04-07T0400,1403A,108.3205,22.8222,南宁市,市监测站,细颗粒物(PM2.5),56,51,64,38,47,73,73,NA,NA,5,6,2,3,0.6,0.7
2026-04-07T0400,1404A,108.3828,22.8038,南宁市,大自然花园,细颗粒物(PM2.5),72,54,63,46,48,67,67,NA,NA,10,8,5,5,0.5,0.5
2026-04-07T0400,1406A,108.2397,22.8462,南宁市,区农职院,颗粒物(PM10),56,58,72,36,45,74,74,NA,NA,4,7,7,9,0.4,0.5
2026-04-07T0400,1407A,108.3285,22.7356,南宁市,英华嘉园,细颗粒物(PM2.5),58,56,66,39,46,79,79,NA,NA,6,9,4,4,0.6,0.7
2026-04-07T0400,3401A,108.4829,22.762,南宁市,红星社区,细颗粒物(PM2.5),60,54,65,40,47,75,75,NA,NA,10,10,5,5,0.6,0.7
2026-04-07T0400,4132A,108.2927,23.1477,南宁市,起凤路9号,细颗粒物(PM2.5),94,80,75,57,58,72,72,NA,NA,6,6,4,4,0.7,0.7
2026-04-07T0400,4221A,108.2177,22.7774,南宁市,乐贤路16号,细颗粒物(PM2.5),68,61,67,44,49,73,73,NA,NA,10,13,4,5,0.5,0.7
2026-04-07T0400,2332A,118.1682,26.6371,南平市,南平市监测站,,26,21,18,18,12,33,33,NA,NA,9,9,4,4,0.5,0.5
2026-04-07T0400,2334A,118.1757,26.6276,南平市,南平七中,,26,18,17,18,13,25,25,NA,NA,10,10,2,2,0.6,0.7
2026-04-07T0400,1168A,120.9056,31.9669,南通市,狼山街道,,45,45,74,13,35,81,81,NA,NA,15,18,4,5,0.5,0.6
2026-04-07T0400,1170A,120.8635,32.0231,南通市,城中,颗粒物(PM10),51,51,87,13,35,87,87,NA,NA,10,17,4,6,0.3,0.6
2026-04-07T0400,1171A,120.9376,31.9301,南通市,星湖花园,,50,50,81,14,36,82,82,NA,NA,16,23,6,7,0.7,0.8
2026-04-07T0400,1172A,120.8053,32.046,南通市,紫琅学院,,48,48,76,13,32,90,90,NA,NA,13,25,5,7,0.6,0.9
2026-04-07T0400,3291A,121.0631,32.0644,南通市,通州监测站,,46,46,78,10,36,95,95,NA,NA,6,17,3,5,0.4,0.7
2026-04-07T0400,3432A,120.9348,31.9874,南通市,环境教育馆,,39,39,82,12,37,78,78,NA,NA,14,19,4,7,0.5,0.7
2026-04-07T0400,4091A,120.8692,31.9885,南通市,洪江路,,41,41,77,13,38,85,85,NA,NA,15,26,4,7,0.8,1
2026-04-07T0400,2404A,112.5338,33.0086,南阳市,瓦房庄,颗粒物(PM10),73,81,97,30,21,46,46,NA,NA,22,13,4,6,0.6,0.6
2026-04-07T0400,2405A,112.5002,32.9734,南阳市,汉画馆,颗粒物(PM10),75,84,99,32,27,15,15,NA,NA,34,18,5,7,0.6,0.6
2026-04-07T0400,2406A,112.5778,33.0144,南阳市,气象站,颗粒物(PM10),83,96,116,28,25,47,47,NA,NA,34,18,5,6,0.5,0.4
2026-04-07T0400,2407A,112.548,32.9687,南阳市,理工学院,颗粒物(PM10),73,81,96,35,28,45,45,NA,NA,25,14,6,7,0.6,0.5
2026-04-07T0400,4008A,112.5233,32.9921,南阳市,卧龙区政府,颗粒物(PM10),83,95,104,29,25,36,36,NA,NA,26,15,6,8,0.6,0.6
2026-04-07T0400,1234A,121.8352,29.9111,宁波市,区环保大楼,,36,36,44,15,20,114,114,NA,NA,15,42,6,7,0.5,0.7
2026-04-07T0400,1235A,121.5595,29.8208,宁波市,万里学院,,42,42,36,22,23,114,114,NA,NA,8,16,7,8,0.6,0.7
2026-04-07T0400,1236A,121.713,29.9564,宁波市,龙赛医院,,42,42,46,15,21,103,103,NA,NA,10,30,6,7,0.4,0.5
2026-04-07T0400,1240A,121.5855,29.8635,宁波市,太古小学,,43,43,40,17,20,109,109,NA,NA,12,18,5,5,0.5,0.6
2026-04-07T0400,1241A,121.5239,29.8673,宁波市,市环境监测中心,,40,40,45,17,25,109,109,NA,NA,9,21,6,7,0.4,0.6
2026-04-07T0400,2871A,121.6156,29.9015,宁波市,万里国际学校,,40,40,31,14,20,112,112,NA,NA,8,21,5,5,0.6,0.6
2026-04-07T0400,3710A,121.5593,29.8976,宁波市,白沙活动中心,,36,34,30,15,20,113,113,NA,NA,10,17,4,6,0.4,0.5
2026-04-07T0400,4095A,121.8962,29.7529,宁波市,中科路88号,,38,36,27,16,17,119,119,NA,NA,11,13,7,7,0.5,0.5
2026-04-07T0400,2341A,119.5387,26.6611,宁德市,宁德市监测站,,16,16,25,6,23,6,6,NA,NA,19,28,4,4,1.0,0.9
2026-04-07T0400,3209A,119.5231,26.6562,宁德市,宁德一中,,18,18,29,9,26,9,9,NA,NA,14,22,4,4,0.6,0.7
2026-04-07T0400,2618A,98.859,25.8541,怒江傈僳族自治州,州监测站,,32,31,36,22,23,59,59,NA,NA,6,5,8,8,0.2,0.2
2026-04-07T0400,2619A,98.8607,25.8168,怒江傈僳族自治州,泸水一中,,30,NA,30,21,25,49,49,NA,NA,15,17,6,6,0.4,0.5
2026-04-07T0400,1888A,101.6891,26.571,攀枝花市,弄弄坪,,32,NA,40,22,22,80,80,NA,NA,8,20,1,12,0.4,1.3
2026-04-07T0400,1889A,101.577,26.5914,攀枝花市,河门口,,39,39,44,15,23,61,61,NA,NA,11,12,11,11,0.5,0.6
2026-04-07T0400,1891A,101.7365,26.4986,攀枝花市,仁和,,32,32,30,18,20,67,67,NA,NA,7,9,5,5,0.5,0.5
2026-04-07T0400,2835A,101.7222,26.567,攀枝花市,四十中小,,26,26,33,18,16,79,79,NA,NA,10,16,8,10,0.7,0.9
2026-04-07T0400,1604A,122.0303,41.1489,盘锦市,开发区,,20,20,21,3,6,56,56,NA,NA,13,12,9,6,0.2,0.2
2026-04-07T0400,1605A,122.0486,41.0883,盘锦市,兴隆台,,23,23,21,12,10,49,49,NA,NA,17,18,6,5,0.3,0.3
2026-04-07T0400,1606A,121.8297,41.1026,盘锦市,新生街道,,17,17,16,3,5,54,54,NA,NA,16,21,4,9,0.3,0.3
2026-04-07T0400,1832A,113.3257,33.7423,平顶山市,新华旅馆,颗粒物(PM10),90,105,125,35,33,14,14,NA,NA,61,20,4,6,0.5,0.4
2026-04-07T0400,1833A,113.2917,33.737,平顶山市,规划设计院,颗粒物(PM10),68,74,114,29,32,52,52,NA,NA,25,14,6,8,0.6,0.6
2026-04-07T0400,1834A,113.182,33.7738,平顶山市,平顶山工学院,颗粒物(PM10),60,63,118,26,35,85,85,NA,NA,13,14,7,9,0.3,0.4
2026-04-07T0400,3594A,112.8736,33.9068,平顶山市,石龙区,颗粒物(PM10),102,124,151,44,39,34,34,NA,NA,35,22,9,10,0.9,0.7
2026-04-07T0400,4116A,113.284,33.7139,平顶山市,姚电大道23号,颗粒物(PM10),80,92,144,32,35,62,62,NA,NA,28,21,6,8,0.5,0.6
2026-04-07T0400,2656A,106.6633,35.5338,平凉市,聚贤嘉苑,颗粒物(PM10),90,106,98,35,38,35,35,NA,NA,31,21,7,8,0.6,0.6
2026-04-07T0400,2657A,106.7021,35.5307,平凉市,博物馆,颗粒物(PM10),76,86,95,27,27,40,40,NA,NA,20,17,7,10,0.5,0.5
2026-04-07T0400,2348A,113.8384,27.6436,萍乡市,中医院,,24,24,22,11,15,47,47,NA,NA,10,8,3,4,0.6,0.6
2026-04-07T0400,2350A,113.8677,27.6438,萍乡市,市环保局,,25,25,25,12,16,49,49,NA,NA,3,4,8,10,0.6,0.7
2026-04-07T0400,2351A,113.8663,27.6202,萍乡市,安源区政府,,18,18,26,8,24,31,31,NA,NA,6,10,4,5,0.2,0.5
2026-04-07T0400,4107A,113.8686,27.6668,萍乡市,联洪村委会,,20,20,24,8,14,42,42,NA,NA,2,3,2,2,0.3,0.3
2026-04-07T0400,2319A,119.0142,25.4324,莆田市,荔城区仓后路,,13,13,40,3,35,34,34,NA,NA,10,24,/,/,/,/
2026-04-07T0400,2320A,119.0016,25.4553,莆田市,莆田市监测站,,12,12,34,3,28,35,35,NA,NA,4,12,2,6,0.6,0.7
2026-04-07T0400,2321A,119.112,25.4561,莆田市,涵江区六中,,38,38,33,18,28,13,13,NA,NA,18,20,/,/,0.5,0.7
2026-04-07T0400,2322A,119.1014,25.3215,莆田市,秀屿区政府,NA,NA,31,29,14,21,32,32,NA,NA,6,10,NA,4,0.6,0.7
2026-04-07T0400,2392A,115.0312,35.7636,濮阳市,环保局,细颗粒物(PM2.5),74,76,83,47,26,41,41,NA,NA,45,20,18,9,0.6,0.5
2026-04-07T0400,3021A,115,35.7667,濮阳市,濮水河管理处,颗粒物(PM10),82,94,90,42,30,40,40,NA,NA,42,24,24,5,0.7,0.6
2026-04-07T0400,4118A,115.0552,35.7816,濮阳市,中原东路68号,颗粒物(PM10),83,96,91,40,24,28,28,NA,NA,39,19,7,8,0.5,0.5
2026-04-07T0400,4216A,115.0923632,35.76857718,濮阳市,任丘路479号,颗粒物(PM10),87,101,88,40,27,27,27,NA,NA,36,17,10,8,0.4,0.3
2026-04-07T0400,2601A,100.9801,22.7634,普洱市,市环保局,细颗粒物(PM2.5),100,96,95,60,51,87,87,NA,NA,9,11,7,7,0.8,0.8
2026-04-07T0400,2602A,100.9763,22.8237,普洱市,普洱第二中学,细颗粒物(PM2.5),113,101,94,74,57,52,52,NA,NA,36,21,6,6,0.9,0.7
2026-04-07T0400,3345A,131.0413,45.7795,七台河市,中波台,,25,NA,20,3,23,79,79,NA,NA,1,9,3,3,0.1,0.2
2026-04-07T0400,3637A,131.0136,45.7688,七台河市,人民广场,NA,NA,16,31,3,23,74,74,NA,NA,NA,17,8,9,0.4,0.6
2026-04-07T0400,3684A,130.8639,45.8144,七台河市,新建矿广场,,20,NA,22,8,23,61,61,NA,NA,11,16,8,9,0.6,0.8
2026-04-07T0400,1779A,123.9307,47.3641,齐齐哈尔市,安居小区,,22,22,29,12,22,53,53,NA,NA,8,8,10,11,0.4,0.5
2026-04-07T0400,1780A,123.9497,47.3389,齐齐哈尔市,中心广场,,23,23,34,10,26,63,63,NA,NA,7,11,2,2,0.4,0.5
2026-04-07T0400,1781A,123.9483,47.3229,齐齐哈尔市,农牧车辆厂,,24,24,33,8,25,59,59,NA,NA,6,9,6,6,0.1,0.1
2026-04-07T0400,1783A,123.9442,47.2994,齐齐哈尔市,市环境监测站,,21,21,31,13,24,64,64,NA,NA,7,10,2,2,0.3,0.4
2026-04-07T0400,3662A,123.6341,47.2079,齐齐哈尔市,富区青少年活动中心,,19,17,29,13,22,59,59,NA,NA,7,8,3,3,0.2,0.3
2026-04-07T0400,2591A,107.9765,26.5724,黔东南苗族侗族自治州,市环境监测站,,17,8,20,3,18,54,54,NA,NA,3,6,3,3,0.5,0.5
2026-04-07T0400,2881A,107.8909,26.531,黔东南苗族侗族自治州,凯里学院,,19,7,28,6,17,60,60,NA,NA,3,6,3,3,0.6,0.7
2026-04-07T0400,2593A,107.5223,26.2371,黔南布依族苗族自治州,小围寨,,20,NA,30,3,27,62,62,NA,NA,2,7,4,5,0.6,0.6
2026-04-07T0400,3538A,107.5175,26.2977,黔南布依族苗族自治州,沙坝,,14,7,31,3,27,42,42,NA,NA,5,7,4,6,0.8,0.9
2026-04-07T0400,2589A,104.9022,25.0943,黔西南布依族苗族自治州,场坝街,细颗粒物(PM2.5),82,61,52,51,46,71,71,NA,NA,11,10,36,13,0.6,0.6
2026-04-07T0400,2590A,104.8812,25.0994,黔西南布依族苗族自治州,坪东大道,细颗粒物(PM2.5),68,57,50,44,47,52,52,NA,NA,12,9,4,4,0.5,0.5
2026-04-07T0400,2502A,108.6238,21.9667,钦州市,市环保站,,49,48,58,34,38,67,67,NA,NA,10,11,6,7,0.6,0.7
2026-04-07T0400,2503A,108.655,21.9481,钦州市,沙埠小学,,50,50,62,34,39,66,66,NA,NA,8,12,4,6,0.7,0.7
2026-04-07T0400,2504A,108.5989,21.7435,钦州市,港区一小,颗粒物(PM10),70,77,76,38,39,75,75,NA,NA,17,14,5,4,1.1,0.6
2026-04-07T0400,3404A,108.5959,21.9634,钦州市,北职校,,49,49,61,31,39,60,60,NA,NA,12,10,9,11,0.6,0.7
2026-04-07T0400,1046A,119.5247,39.9346,秦皇岛市,建设大厦,,25,23,25,3,5,78,78,NA,NA,2,11,4,5,0.2,0.2
2026-04-07T0400,3132A,119.5979,39.938,秦皇岛市,文明里,,24,24,29,3,5,75,75,NA,NA,6,12,8,8,0.2,0.3
2026-04-07T0400,4066A,119.7458,39.9952,秦皇岛市,南园路157号,,17,17,25,3,6,45,45,NA,NA,28,23,8,7,0.3,0.3
2026-04-07T0400,4067A,119.5131,39.8858,秦皇岛市,翠岛大街1号,,24,19,30,3,4,75,75,NA,NA,3,12,7,7,0.3,0.3
2026-04-07T0400,4198A,119.509013,39.825305,秦皇岛市,北戴河轮滑馆,,25,12,33,3,5,80,80,NA,NA,4,12,7,8,0.2,0.3
2026-04-07T0400,1310A,120.404,36.0625,青岛市,市南区东部子站,,24,14,31,3,6,74,74,NA,NA,12,18,9,10,0.4,0.4
2026-04-07T0400,1311A,120.362344,36.10282,青岛市,四方区子站,,24,14,33,3,6,75,75,NA,NA,13,14,5,6,0.5,0.5
2026-04-07T0400,1312A,120.294373,36.054183,青岛市,市南区西部子站,,19,14,37,3,7,59,59,NA,NA,28,26,4,4,0.3,0.4
2026-04-07T0400,1313A,120.4581,36.0858,青岛市,崂山区子站,,24,12,28,3,5,76,76,NA,NA,11,13,7,8,0.3,0.3
2026-04-07T0400,1315A,120.3945,36.3083,青岛市,城阳区子站,,25,17,41,3,11,80,80,NA,NA,12,18,5,6,0.5,0.6
2026-04-07T0400,3642A,120.3454,36.0735,青岛市,市北区南部,,25,19,33,3,6,78,78,NA,NA,8,12,3,3,0.3,0.4
2026-04-07T0400,3643A,120.3897,36.18,青岛市,李沧区北部,,27,27,37,9,7,69,69,NA,NA,14,14,8,8,0.4,0.4
2026-04-07T0400,4110A,120.5222,36.4089,青岛市,盟旺路653号,,24,17,30,3,7,75,75,NA,NA,4,5,3,3,0.4,0.5
2026-04-07T0400,4290A,120.196923,35.954556,青岛市,珠江路669号,,26,24,41,3,9,82,82,NA,NA,9,20,4,5,0.4,0.4
2026-04-07T0400,4291A,120.0424,35.8656,青岛市,黄岛区人民政府广场,,20,12,33,3,6,61,61,NA,NA,11,12,7,8,0.4,0.4
2026-04-07T0400,1703A,113.0218,23.7086,清远市,凤城街办,,45,45,52,27,41,2,2,NA,NA,29,35,/,/,/,/
2026-04-07T0400,3025A,113.0479,23.6343,清远市,技师学院,,45,45,47,20,32,1,1,NA,NA,27,31,4,5,0.6,0.8
2026-04-07T0400,3318A,112.9898,23.7403,清远市,清新太和,,41,41,41,20,28,8,8,NA,NA,24,20,7,6,0.6,0.7
2026-04-07T0400,3455A,113.076,23.72,清远市,清城东城,,49,49,59,22,31,0,0,NA,NA,24,24,/,/,/,/
2026-04-07T0400,2661A,107.6325,35.7357,庆阳市,庆阳五中,颗粒物(PM10),66,72,98,27,28,108,108,NA,NA,7,13,4,6,0.3,0.3
2026-04-07T0400,2662A,107.6361,35.7067,庆阳市,市环保局,颗粒物(PM10),77,87,95,22,27,112,112,NA,NA,10,13,5,5,0.4,0.3
2026-04-07T0400,1916A,103.7897,25.5036,曲靖市,环境监测站,,33,33,36,18,18,101,101,NA,NA,10,10,7,7,0.5,0.5
2026-04-07T0400,1917A,103.8013,25.5357,曲靖市,烟厂办公区,,38,38,37,24,17,69,69,NA,NA,15,8,9,7,0.6,0.5
2026-04-07T0400,3376A,103.7926,25.4651,曲靖市,南苑二区,,35,35,31,19,16,86,86,NA,NA,9,10,4,4,0.3,0.4
2026-04-07T0400,3377A,103.7442,25.5259,曲靖市,曲靖师范学院,细颗粒物(PM2.5),80,52,37,50,22,63,63,NA,NA,27,12,19,6,0.6,0.5
2026-04-07T0400,1264A,118.8694,28.94,衢州市,环保大楼,颗粒物(PM10),51,51,64,31,37,54,54,NA,NA,12,27,/,/,/,/
2026-04-07T0400,1266A,118.8622,28.9809,衢州市,衢州学院,,50,50,59,34,34,0,0,NA,NA,33,29,5,6,0.6,0.6
2026-04-07T0400,4097A,118.9646,28.9832,衢州市,衢州三中,颗粒物(PM10),60,64,72,36,39,3,3,NA,NA,37,30,6,7,0.7,0.7
2026-04-07T0400,1611A,118.5818,24.9116,泉州市,涂山街,,29,29,28,19,24,18,18,NA,NA,18,19,3,4,0.6,0.7
2026-04-07T0400,1612A,118.597,24.8976,泉州市,津头埔,NA,NA,24,31,21,25,16,16,NA,NA,16,19,2,2,NA,0.6
2026-04-07T0400,1613A,118.6669,24.9422,泉州市,万安,,27,27,26,16,20,21,21,NA,NA,10,14,3,3,0.4,0.5
2026-04-07T0400,4105A,118.6355,24.9148,泉州市,霞新路6号,,28,28,26,18,21,21,21,NA,NA,10,19,/,/,0.4,0.5
2026-04-07T0400,2626A,88.8873,29.2723,日喀则市,日喀则监测站,,35,9,14,3,4,109,109,NA,NA,3,5,9,9,0.4,0.3
2026-04-07T0400,3726A,88.8775,29.2425,日喀则市,林业技术推广中心,,34,11,18,6,3,107,107,NA,NA,3,4,8,6,0.3,0.3
2026-04-07T0400,1659A,119.4711,35.421,日照市,监测站,,22,22,34,6,7,46,46,NA,NA,31,14,6,8,0.5,0.5
2026-04-07T0400,1660A,119.523,35.4216,日照市,市政府广场,,24,24,32,3,6,69,69,NA,NA,18,16,6,7,0.4,0.4
2026-04-07T0400,1661A,119.5511,35.4113,日照市,港务局,,34,34,37,3,5,58,58,NA,NA,27,18,4,5,0.5,0.5
2026-04-07T0400,3507A,119.5326,35.4627,日照市,职业技术学院,,21,19,33,3,6,65,65,NA,NA,15,11,7,7,0.5,0.5
2026-04-07T0400,3604A,119.3267,35.1043,日照市,岚山环保分局,,39,39,49,3,9,68,68,NA,NA,23,22,8,21,0.5,0.6
2026-04-07T0400,1835A,111.1922,34.7752,三门峡市,市政府,,50,50,66,12,17,58,58,NA,NA,11,24,16,12,0.5,0.5
2026-04-07T0400,1836A,111.1588,34.794,三门峡市,开发区,颗粒物(PM10),63,67,71,16,20,47,47,NA,NA,12,16,12,12,0.5,0.4
2026-04-07T0400,3039A,111.1911,34.7829,三门峡市,三门峡市第一小学,,49,49,72,12,23,58,58,NA,NA,10,17,19,15,0.4,0.4
2026-04-07T0400,3598A,111.1031,34.719,三门峡市,富达温泉假日酒店,颗粒物(PM10),71,79,86,26,32,45,45,NA,NA,14,22,16,21,0.6,0.6
2026-04-07T0400,2324A,117.621,26.2626,三明市,三钢,,16,10,17,3,15,49,49,NA,NA,6,12,3,4,0.4,0.6
2026-04-07T0400,2325A,117.6352,26.2714,三明市,三明二中,,16,7,16,3,13,51,51,NA,NA,4,12,1,3,0.5,0.7
2026-04-07T0400,2326A,117.6028,26.2377,三明市,三元区政府,,17,6,16,3,16,54,54,NA,NA,5,14,5,6,1.3,1.3
2026-04-07T0400,1877A,109.4962,18.2682,三亚市,河西子站,,35,35,40,22,23,50,50,NA,NA,6,5,4,4,0.5,0.5
2026-04-07T0400,3540A,109.7348,18.3443,三亚市,君悦子站,,36,36,44,19,19,39,39,NA,NA,7,8,3,3,0.5,0.5
2026-04-07T0400,4135A,109.1714,18.3739,三亚市,城东小学站,,35,33,45,24,28,56,56,NA,NA,6,6,/,/,/,/
2026-04-07T0400,2624A,91.7592,29.234,山南市,山南监测站,,35,6,11,3,4,112,112,NA,NA,1,3,9,9,0.2,0.2
2026-04-07T0400,2625A,91.7701,29.2436,山南市,山南人民医院,,35,9,16,3,5,112,112,NA,NA,1,3,10,9,0.2,0.3
2026-04-07T0400,1674A,116.6795,23.3666,汕头市,金平子站,,23,23,26,11,14,30,30,NA,NA,8,13,4,4,0.5,0.7
2026-04-07T0400,1675A,116.7248,23.3632,汕头市,龙湖子站,,27,27,27,16,14,26,26,NA,NA,13,11,6,5,/,/
2026-04-07T0400,1676A,116.7257,23.2774,汕头市,濠江子站,,27,27,30,13,12,17,17,NA,NA,28,20,8,8,/,/
2026-04-07T0400,1677A,116.7518,23.4712,汕头市,澄海子站,,35,35,38,15,16,26,26,NA,NA,8,13,6,6,0.6,0.7
2026-04-07T0400,1678A,116.6088,23.2539,汕头市,潮阳子站,,26,26,24,9,13,33,33,NA,NA,8,8,5,6,0.4,0.4
2026-04-07T0400,3444A,116.4539,23.2684,汕头市,潮南峡山,,27,27,28,14,17,33,33,NA,NA,4,8,5,6,0.6,0.6
2026-04-07T0400,3624A,116.4069,23.2533,汕头市,潮南子站,NA,NA,39,30,19,16,30,30,NA,NA,NA,5,6,5,/,/
2026-04-07T0400,1693A,115.3653,22.7751,汕尾市,市环保局,,31,31,30,10,12,32,32,NA,NA,5,4,4,5,0.5,0.5
2026-04-07T0400,1695A,115.362,22.7926,汕尾市,新城中学,,31,31,31,9,11,35,35,NA,NA,7,5,6,6,0.2,0.3
2026-04-07T0400,2645A,109.9155,33.8714,商洛市,监测站,颗粒物(PM10),77,87,83,31,30,47,47,NA,NA,23,16,7,8,0.5,0.4
2026-04-07T0400,3045A,109.9647,33.8486,商洛市,商州区中学,颗粒物(PM10),85,98,95,31,32,67,67,NA,NA,12,20,5,7,0.5,0.5
2026-04-07T0400,2408A,115.6701,34.4283,商丘市,环境监测站,颗粒物(PM10),84,97,86,47,29,53,53,NA,NA,22,12,6,5,0.6,0.5
2026-04-07T0400,2409A,115.6458,34.4047,商丘市,粮食局,颗粒物(PM10),76,86,78,45,26,55,55,NA,NA,24,15,4,5,0.5,0.4
2026-04-07T0400,3171A,115.6069,34.4465,商丘市,梁园区档案局,颗粒物(PM10),75,84,81,40,26,52,52,NA,NA,29,17,6,6,0.4,0.3
2026-04-07T0400,4119A,115.6701,34.3767,商丘市,北海东路185号,颗粒物(PM10),88,103,85,37,26,50,50,NA,NA,26,19,7,6,0.4,0.3
2026-04-07T0400,4120A,115.6172,34.3704,商丘市,中山大街3号,颗粒物(PM10),93,110,100,36,31,61,61,NA,NA,20,19,7,6,0.4,0.4
2026-04-07T0400,1141A,121.401,31.2382,上海市,普陀,,41,41,72,21,37,94,94,NA,NA,21,26,8,8,0.5,0.7
2026-04-07T0400,1142A,121.4774,31.2043,上海市,十五厂,,38,38,72,20,34,89,89,NA,NA,19,27,6,7,0.4,0.6
2026-04-07T0400,1143A,121.4673,31.3011,上海市,虹口,,38,38,71,16,36,82,82,NA,NA,30,29,3,3,0.4,0.6
2026-04-07T0400,1147A,121.4253,31.226,上海市,静安监测站,,35,35,67,16,34,100,100,NA,NA,21,27,8,10,0.5,0.8
2026-04-07T0400,1148A,121.7029,31.1905,上海市,浦东川沙,,30,26,62,11,32,96,96,NA,NA,12,20,7,8,0.6,0.8
2026-04-07T0400,1149A,121.5339,31.229,上海市,浦东新区监测站,,33,33,64,14,32,87,87,NA,NA,19,23,6,7,0.4,0.6
2026-04-07T0400,1150A,121.5776,31.2038,上海市,浦东张江,,37,37,64,13,32,96,96,NA,NA,22,23,6,8,0.2,0.3
2026-04-07T0400,3265A,121.4242,31.3303,上海市,宝山庙行,,37,37,76,12,36,91,91,NA,NA,17,25,6,8,0.6,0.8
2026-04-07T0400,3266A,121.8789,31.4662,上海市,崇明上实东滩,,28,17,47,8,26,88,88,NA,NA,12,20,8,9,0.2,0.3
2026-04-07T0400,3268A,121.316,31.2839,上海市,嘉定南翔,,32,32,71,16,34,88,88,NA,NA,12,20,4,6,0.4,0.6
2026-04-07T0400,3269A,121.3357,30.7455,上海市,金山新城,,36,36,60,17,38,104,104,NA,NA,10,17,5,7,0.7,0.9
2026-04-07T0400,3270A,121.4996,31.0741,上海市,闵行浦江,,37,37,64,18,33,100,100,NA,NA,9,17,6,8,0.3,0.5
2026-04-07T0400,3271A,121.2886,31.1663,上海市,青浦徐泾,NA,NA,33,75,16,39,98,98,NA,NA,18,23,9,7,NA,0.8
2026-04-07T0400,3272A,121.2193,31.0382,上海市,松江图书馆,,36,36,80,16,40,102,102,NA,NA,14,26,7,9,0.4,0.7
2026-04-07T0400,3273A,121.3904,31.206,上海市,长宁仙霞,,35,35,69,19,35,96,96,NA,NA,16,22,5,6,0.2,0.4
2026-04-07T0400,3274A,121.7964,31.0507,上海市,浦东惠南,,29,28,51,13,29,92,92,NA,NA,14,19,6,7,0.5,0.7
2026-04-07T0400,3544A,121.4891,30.925,上海市,奉贤南桥新城,,36,36,62,22,36,111,111,NA,NA,4,14,7,9,0.5,0.7
2026-04-07T0400,4183A,121.417401,31.16637,上海市,冠生园路458号,,37,37,66,17,35,87,87,NA,NA,26,31,8,8,0.2,0.6
2026-04-07T0400,4205A,121.541914,31.268301,上海市,宁武路151号,,32,32,81,15,36,84,84,NA,NA,22,28,8,9,0.3,0.5
2026-04-07T0400,2382A,117.9758,28.4439,上饶市,市监测站,,43,35,46,30,27,16,16,NA,NA,16,16,7,8,/,/
2026-04-07T0400,2383A,117.9521,28.4637,上饶市,凤凰光学,NA,NA,34,46,28,30,10,10,NA,NA,24,22,13,13,NA,1
2026-04-07T0400,3685A,117.897,28.4316,上饶市,双创科技城,细颗粒物(PM2.5),56,NA,46,38,31,24,24,NA,NA,21,19,30,10,0.7,0.6
2026-04-07T0400,4211A,118.190438,28.444845,上饶市,裕丰大道,,42,42,44,25,26,14,14,NA,NA,12,13,8,10,0.7,0.7
2026-04-07T0400,1669A,113.5821,24.7733,韶关市,市八中,细颗粒物(PM2.5),78,62,64,49,49,10,10,NA,NA,17,29,6,12,1.0,1.1
2026-04-07T0400,1671A,113.5916,24.7973,韶关市,园林处,,48,43,54,33,46,12,12,NA,NA,16,24,4,10,/,/
2026-04-07T0400,1673A,113.5971,24.6864,韶关市,曲江监测站,细颗粒物(PM2.5),74,68,57,47,37,1,1,NA,NA,22,27,9,10,1.1,1.2
2026-04-07T0400,2809A,113.6668,24.7756,韶关市,大学路288号,,40,40,55,28,41,1,1,NA,NA,26,18,1,11,/,/
2026-04-07T0400,3622A,113.5556,24.8082,韶关市,碧湖山庄,,48,48,60,33,43,16,16,NA,NA,13,15,5,5,0.8,0.8
2026-04-07T0400,2464A,111.5277,27.2442,邵阳市,市化工厂,NA,NA,43,32,26,28,78,78,NA,NA,NA,13,8,9,0.7,0.9
2026-04-07T0400,2466A,111.4327,27.2276,邵阳市,市环保局,,32,32,26,21,25,60,60,NA,NA,6,8,8,8,0.7,0.9
2026-04-07T0400,4218A,111.446,27.2472,邵阳市,北塔二期4-26地块,,30,30,29,3,20,46,46,NA,NA,7,10,6,7,0.4,0.7
2026-04-07T0400,4219A,111.4739,27.2282,邵阳市,邵水西路287号,NA,NA,41,32,26,25,74,74,NA,NA,NA,11,6,6,0.2,0.5
2026-04-07T0400,1247A,120.6053,29.9927,绍兴市,城东开发委,颗粒物(PM10),58,60,94,30,47,95,95,NA,NA,10,23,8,8,0.3,0.5
2026-04-07T0400,2921A,120.5482,30.0003,绍兴市,树下王站,颗粒物(PM10),69,76,90,44,48,101,101,NA,NA,7,21,8,8,0.5,0.5
2026-04-07T0400,3408A,120.5685,29.936,绍兴市,绍兴中专,颗粒物(PM10),65,70,90,33,41,112,112,NA,NA,6,19,9,9,0.5,0.6
2026-04-07T0400,3409A,120.4905,30.086,绍兴市,柯桥区政府,"颗粒物(PM10),细颗粒物(PM2.5)",102,123,98,62,47,81,81,NA,NA,13,22,6,8,0.6,0.6
2026-04-07T0400,3410A,120.8751,30.0249,绍兴市,重华小学,,50,50,72,29,40,103,103,NA,NA,9,18,7,8,0.4,0.5
