timepoint,stationcode,longitude,latitude,area,positionname,primarypollutant,aqi,pm10,pm10_24h,pm2_5,pm2_5_24h,o3,o3_24h,o3_8h,o3_8h_24h,no2,no2_24h,so2,so2_24h,co,co_24h
2022-04-14T18:00:00,1001A,116.3621,39.8784,北京市,万寿西宫,,29,28,36,7,16,118,90,93,93,9,24,3,2,0.2,0.3
2022-04-14T18:00:00,1002A,116.2202,40.2915,北京市,定陵(对照点),,29,22,37,6,14,124,92,92,92,9,13,3,3,0.2,0.2
2022-04-14T18:00:00,1003A,116.4174,39.9289,北京市,东四,,30,24,29,10,14,118,95,98,98,3,15,3,2,0.3,0.3
2022-04-14T18:00:00,1004A,116.4072,39.8863,北京市,天坛,,29,22,31,7,14,115,92,95,95,8,16,3,3,0.2,0.3
2022-04-14T18:00:00,1005A,116.462,39.9365,北京市,农展馆,,28,26,31,7,10,122,89,93,93,5,20,3,3,0.3,0.3
2022-04-14T18:00:00,1006A,116.3392,39.9295,北京市,官园,,27,23,32,7,13,117,85,88,88,7,20,2,3,0.1,0.2
2022-04-14T18:00:00,1007A,116.2878,39.9611,北京市,海淀万柳,,28,26,35,6,13,111,89,93,93,8,23,3,2,0.2,0.3
2022-04-14T18:00:00,1008A,116.6636,40.135,北京市,顺义新城,,28,24,38,7,13,116,88,88,88,4,21,3,2,0.2,0.3
2022-04-14T18:00:00,1009A,116.6275,40.3275,北京市,怀柔镇,,29,18,31,7,12,120,90,91,91,12,13,3,3,0.2,0.3
2022-04-14T18:00:00,1010A,116.2296,40.217,北京市,昌平镇,,30,29,41,7,15,125,93,93,93,8,14,3,2,0.2,0.2
2022-04-14T18:00:00,1011A,116.3966,39.9821,北京市,奥体中心,,29,24,31,6,11,124,91,94,94,8,20,3,2,0.2,0.3
2022-04-14T18:00:00,1012A,116.184,39.9136,北京市,古城,,29,28,38,7,16,119,91,94,94,8,20,3,3,0.2,0.2
2022-04-14T18:00:00,1015A,117.1444,39.1661,天津市,勤俭道,,32,32,32,12,12,106,99,98,98,11,30,5,8,0.3,0.4
2022-04-14T18:00:00,1017A,117.237,39.1082,天津市,大直沽八号路,,35,35,35,11,13,107,98,99,99,15,32,6,8,0.3,0.4
2022-04-14T18:00:00,1018A,117.202,39.0927,天津市,前进道,,31,29,29,14,15,106,99,99,99,13,30,4,6,0.5,0.6
2022-04-14T18:00:00,1019A,117.1837,39.2133,天津市,淮河道,,31,31,37,7,12,104,96,98,98,13,35,6,10,0.3,0.5
2022-04-14T18:00:00,1021A,117.307,39.0877,天津市,跃进路,,32,32,44,8,12,105,97,98,98,18,38,5,6,0.3,0.4
2022-04-14T18:00:00,1023A,117.707,39.0343,天津市,第四大街,,29,23,36,6,12,106,91,94,94,16,45,5,8,0.1,0.2
2022-04-14T18:00:00,1024A,117.457,38.8394,天津市,永明路,,33,26,31,7,14,111,105,101,101,10,30,6,9,0.3,0.4
2022-04-14T18:00:00,1026A,117.764,39.1587,天津市,汉北路,,31,19,28,6,11,108,97,99,99,12,36,5,9,0.6,0.4
2022-04-14T18:00:00,1027A,117.157,38.9194,天津市,团泊洼(对照点),,32,18,26,4,11,108,100,99,99,21,43,5,6,0.4,0.5
2022-04-14T18:00:00,1029A,114.4422,38.0444,石家庄市,职工医院,颗粒物(PM10),62,74,79,33,34,122,117,110,110,24,45,5,5,0.4,0.5
2022-04-14T18:00:00,1030A,114.6063,38.0266,石家庄市,高新区,,,,78,,34,131,124,109,109,,42,6,9,,0.7
2022-04-14T18:00:00,1031A,114.4898,38.1328,石家庄市,西北水源,颗粒物(PM10),61,71,84,28,35,120,114,103,103,14,35,8,8,0.4,0.5
2022-04-14T18:00:00,1032A,114.4586,38.0058,石家庄市,西南高教,颗粒物(PM10),56,61,65,39,34,116,111,102,102,23,38,5,4,0.5,0.6
2022-04-14T18:00:00,1033A,114.5331,38.0178,石家庄市,世纪公园,颗粒物(PM10),66,82,76,36,32,121,118,106,106,13,31,8,8,0.5,0.5
2022-04-14T18:00:00,1034A,114.509,38.0457,石家庄市,人民会堂,颗粒物(PM10),65,80,74,42,37,130,124,111,111,26,43,5,6,0.5,0.5
2022-04-14T18:00:00,1035A,114.3524,37.8911,石家庄市,封龙山(对照点),颗粒物(PM10),71,92,58,42,29,130,121,121,112,23,17,1,3,0.5,0.4
2022-04-14T18:00:00,1037A,118.131,39.6363,唐山市,雷达站,,48,48,48,12,18,125,100,110,110,10,30,2,4,0.5,0.5
2022-04-14T18:00:00,1038A,118.1725,39.6334,唐山市,物资局,,42,42,48,19,19,121,100,106,106,10,34,5,7,0.4,0.5
2022-04-14T18:00:00,1040A,118.1705,39.6506,唐山市,十二中,,37,37,38,16,21,120,94,104,104,14,33,3,6,0.3,0.4
2022-04-14T18:00:00,1041A,118.1869,39.622,唐山市,小山,,,26,44,10,21,126,101,116,116,,35,4,5,,0.4
2022-04-14T18:00:00,1042A,119.5134,39.8207,秦皇岛市,北戴河环保局,颗粒物(PM10),52,54,39,34,24,107,77,86,78,50,35,12,10,1.4,1
2022-04-14T18:00:00,1043A,119.7493,40.0116,秦皇岛市,第一关,颗粒物(PM10),75,99,65,53,34,114,78,103,99,56,60,17,15,1.0,0.6
2022-04-14T18:00:00,1044A,119.5897,39.9499,秦皇岛市,监测站,颗粒物(PM10),66,82,60,34,24,106,85,95,95,52,45,13,12,1.4,0.9
2022-04-14T18:00:00,1046A,119.5251,39.9041,秦皇岛市,建设大厦,颗粒物(PM10),65,79,62,44,25,125,92,108,108,48,41,13,16,1.1,0.7
2022-04-14T18:00:00,1048A,114.5302,36.6116,邯郸市,东污水处理厂,颗粒物(PM10),51,52,45,30,24,119,113,112,112,12,13,6,3,0.4,0.3
2022-04-14T18:00:00,1049A,114.4918,36.5713,邯郸市,矿院,颗粒物(PM10),51,51,48,32,30,121,118,115,115,6,10,6,5,0.4,0.3
2022-04-14T18:00:00,1050A,114.484,36.6133,邯郸市,丛台公园,,45,45,43,26,25,125,123,118,118,9,10,8,6,0.6,0.4
2022-04-14T18:00:00,1051A,115.493,38.8632,保定市,游泳馆,,44,44,60,26,26,122,112,100,100,14,39,3,5,0.4,0.5
2022-04-14T18:00:00,1053A,115.4713,38.9108,保定市,接待中心,颗粒物(PM10),51,52,80,20,27,125,109,100,100,17,45,5,4,0.4,0.4
2022-04-14T18:00:00,1054A,115.4612,38.8416,保定市,地表水厂,颗粒物(PM10),52,53,89,23,31,127,108,101,101,18,43,7,7,0.5,0.5
2022-04-14T18:00:00,1055A,115.4323,38.8697,保定市,胶片厂,,,46,63,26,35,127,117,108,108,8,33,,7,0.4,0.5
2022-04-14T18:00:00,1056A,115.5086,38.8639,保定市,监测站,颗粒物(PM10),51,52,77,28,40,123,112,95,95,10,42,5,7,0.3,0.4
2022-04-14T18:00:00,1057A,114.8883,40.8336,张家口市,人民公园,,33,21,29,2,3,104,104,101,101,6,5,3,3,0.2,0.2
2022-04-14T18:00:00,1059A,114.8687,40.8042,张家口市,五金库,,33,29,31,12,10,103,103,101,101,3,4,4,4,0.3,0.3
2022-04-14T18:00:00,1061A,114.8916,40.8661,张家口市,北泵房(对照点),,33,25,27,20,17,105,105,102,102,4,4,6,6,0.4,0.4
2022-04-14T18:00:00,1062A,117.9531,40.9081,承德市,铁路,,39,39,44,15,27,91,81,87,86,6,31,4,5,0.2,0.4
2022-04-14T18:00:00,1063A,117.9392,40.9763,承德市,中国银行,,,,53,,28,104,75,80,80,,26,4,4,0.3,0.4
2022-04-14T18:00:00,1064A,117.9503,40.928,承德市,开发区,,28,26,48,12,27,122,87,92,92,5,31,4,6,0.3,0.5
2022-04-14T18:00:00,1065A,117.8051,40.9655,承德市,文化中心,,27,24,54,2,26,116,84,86,85,8,32,2,5,0.3,0.5
2022-04-14T18:00:00,1066A,117.9268,41.0026,承德市,离宫(对照点),,25,9,43,17,33,95,80,84,84,5,18,2,3,0.3,0.4
2022-04-14T18:00:00,1067A,116.6708,39.5111,廊坊市,药材公司,,33,29,34,16,23,112,104,106,106,17,28,3,2,0.3,0.3
2022-04-14T18:00:00,1068A,116.7214,39.5589,廊坊市,开发区,,,,47,12,13,115,103,104,104,2,12,1,3,0.3,0.3
2022-04-14T18:00:00,1070A,116.7244,39.5269,廊坊市,北华航天学院,颗粒物(PM10),52,54,57,29,15,105,96,98,98,11,21,4,5,0.3,0.3
2022-04-14T18:00:00,1071A,116.8842,38.2991,沧州市,沧县城建局,,35,29,38,10,19,109,109,95,95,12,34,7,13,0.4,0.5
2022-04-14T18:00:00,1072A,116.8584,38.3254,沧州市,电视转播站,,35,30,38,7,15,111,111,95,95,12,28,2,5,0.4,0.6
2022-04-14T18:00:00,1073A,116.8709,38.3228,沧州市,市环保局,,34,23,36,8,20,110,107,97,97,16,36,5,7,0.3,0.5
2022-04-14T18:00:00,1074A,115.6838,37.7541,衡水市,电机北厂,,48,48,52,18,31,120,113,107,107,12,28,5,7,0.3,0.4
2022-04-14T18:00:00,1075A,115.6303,37.7316,衡水市,市监测站,,46,46,58,15,27,124,111,108,108,13,24,5,9,0.2,0.4
2022-04-14T18:00:00,1077A,114.4704,37.0886,邢台市,达活泉,颗粒物(PM10),59,68,56,33,26,126,126,110,110,16,25,5,5,0.5,0.3
2022-04-14T18:00:00,1078A,114.5062,37.0349,邢台市,邢师高专,颗粒物(PM10),52,54,49,31,31,126,126,103,103,21,32,7,7,0.8,0.6
2022-04-14T18:00:00,1079A,114.5237,37.0851,邢台市,路桥公司,颗粒物(PM10),56,62,55,29,28,121,119,112,112,18,35,9,8,0.7,0.5
2022-04-14T18:00:00,1080A,114.4725,37.0719,邢台市,市环保局,颗粒物(PM10),57,63,53,31,31,126,126,108,108,19,27,6,5,0.6,0.4
2022-04-14T18:00:00,1081A,112.5139,37.8873,太原市,尖草坪,颗粒物(PM10),56,61,56,25,26,114,114,95,95,10,21,9,14,0.3,0.6
2022-04-14T18:00:00,1083A,112.434,38.0108,太原市,上兰(对照点),颗粒物(PM10),51,52,32,18,14,110,110,100,100,12,10,8,6,0.4,0.3
2022-04-14T18:00:00,1084A,112.469,37.7124,太原市,晋源,颗粒物(PM10),53,55,50,25,24,120,118,111,111,18,25,11,13,0.4,0.5
2022-04-14T18:00:00,1085A,112.5583,37.7394,太原市,小店,颗粒物(PM10),53,55,57,25,27,118,117,110,110,12,23,9,14,0.4,0.5
2022-04-14T18:00:00,1086A,112.5369,37.8692,太原市,桃园,颗粒物(PM10),55,59,57,28,31,115,114,99,99,10,24,7,11,0.3,0.7
2022-04-14T18:00:00,1087A,112.57,37.8195,太原市,坞城,颗粒物(PM10),56,61,55,27,28,121,118,104,104,13,21,9,11,0.3,0.4
2022-04-14T18:00:00,1088A,112.549,37.9854,太原市,南寨,颗粒物(PM10),55,59,55,24,22,108,108,100,100,17,21,17,10,0.8,0.5
2022-04-14T18:00:00,1090A,111.6507,40.7517,呼和浩特市,呼市一监,,32,19,17,6,7,103,100,100,100,4,8,4,5,0.3,0.3
2022-04-14T18:00:00,1091A,111.6572,40.8033,呼和浩特市,小召,,30,22,19,4,7,99,94,97,97,8,10,6,6,0.3,0.3
2022-04-14T18:00:00,1094A,111.7516,40.8369,呼和浩特市,如意水处理厂,,33,33,22,6,6,101,94,99,99,10,9,8,9,0.2,0.2
2022-04-14T18:00:00,1095A,111.7276,40.8062,呼和浩特市,二十九中,,30,15,20,3,6,100,94,98,98,7,7,6,7,0.4,0.4
2022-04-14T18:00:00,1096A,111.5512,40.7866,呼和浩特市,工大金川校区,,27,11,23,5,9,92,84,88,88,9,8,8,8,0.4,0.4
2022-04-14T18:00:00,1097A,111.717,40.7612,呼和浩特市,化肥厂生活区,,29,21,37,11,8,94,90,92,92,5,7,8,9,0.3,0.3
2022-04-14T18:00:00,1098A,123.6836,41.9339,沈阳市,森林路(对照点),颗粒物(PM10),52,54,49,35,39,146,118,135,135,14,16,8,16,0.4,0.5
2022-04-14T18:00:00,1099A,123.505,41.7406,沈阳市,浑南东路,颗粒物(PM10),52,53,83,23,68,131,115,120,120,13,31,14,20,0.5,0.8
2022-04-14T18:00:00,1100A,123.4231,41.6989,沈阳市,新秀街,颗粒物(PM10),52,53,69,30,48,135,121,125,125,18,35,12,21,0.7,0.9
2022-04-14T18:00:00,1102A,123.5903,41.8411,沈阳市,东陵路,颗粒物(PM10),64,77,61,32,40,126,104,116,116,14,26,10,15,0.4,0.6
2022-04-14T18:00:00,1103A,123.4264,41.8467,沈阳市,陵东街,,43,43,91,26,66,130,109,118,118,18,39,5,9,0.7,1
2022-04-14T18:00:00,1104A,123.4114,41.7653,沈阳市,文化路,细颗粒物(PM2.5),59,51,76,42,68,136,124,125,125,11,26,5,9,0.9,1.1
2022-04-14T18:00:00,1105A,123.4678,41.7867,沈阳市,小河沿,颗粒物(PM10),52,53,78,31,70,126,106,118,118,21,38,6,10,0.6,0.8
2022-04-14T18:00:00,1106A,123.4017,41.7972,沈阳市,太原街,颗粒物(PM10),53,55,89,35,73,128,112,118,118,16,32,6,10,0.5,0.8
2022-04-14T18:00:00,1108A,123.3783,41.9228,沈阳市,京沈街,颗粒物(PM10),52,54,75,30,69,133,114,124,124,15,26,7,12,0.8,1.1
2022-04-14T18:00:00,1109A,121.612,38.9741,大连市,甘井子,颗粒物(PM10),54,58,63,31,36,104,103,90,90,36,42,6,7,0.6,0.6
2022-04-14T18:00:00,1110A,121.565,38.9511,大连市,周水子,,45,45,52,22,30,110,100,87,87,27,35,3,4,0.5,0.6
2022-04-14T18:00:00,1111A,121.5637,38.8845,大连市,星海三站,,24,24,49,11,21,92,74,85,85,28,29,14,11,0.4,0.6
2022-04-14T18:00:00,1112A,121.6302,38.9117,大连市,青泥洼桥,,,36,40,9,17,105,66,90,87,,40,10,9,0.6,0.6
2022-04-14T18:00:00,1113A,121.6251,38.8638,大连市,傅家庄,,31,21,25,9,15,112,97,97,97,17,24,10,7,0.3,0.4
2022-04-14T18:00:00,1114A,121.5213,38.8661,大连市,七贤岭,,34,34,34,13,11,102,12,80,17,25,17,13,13,0.5,0.6
2022-04-14T18:00:00,1115A,121.2529,38.8061,大连市,旅顺,,28,28,35,16,30,114,88,107,88,20,22,8,10,0.4,0.5
2022-04-14T18:00:00,1116A,121.7485,39.1311,大连市,金州,细颗粒物(PM2.5),58,61,45,41,31,119,107,89,89,25,23,7,7,0.6,0.7
2022-04-14T18:00:00,1117A,121.7811,39.0496,大连市,开发区,,38,34,36,26,25,104,104,82,82,29,34,6,7,0.5,0.6
2022-04-14T18:00:00,1118A,121.9762,39.0631,大连市,双D港,,24,16,16,8,12,105,76,94,94,29,17,8,8,0.3,0.3
2022-04-14T18:00:00,1119A,125.3325,43.9166,长春市,食品厂,细颗粒物(PM2.5),64,68,57,46,55,122,102,113,113,16,20,7,7,0.5,0.6
2022-04-14T18:00:00,1120A,125.2863,43.9027,长春市,客车厂,细颗粒物(PM2.5),59,64,52,42,39,132,112,122,122,14,18,7,7,0.9,0.9
2022-04-14T18:00:00,1121A,125.2841,43.8463,长春市,邮电学院,,,82,64,42,42,,,,,10,10,3,4,0.7,0.7
2022-04-14T18:00:00,1122A,125.3716,43.8772,长春市,劳动公园,,,69,59,40,48,131,118,124,124,,,5,5,0.6,0.7
2022-04-14T18:00:00,1123A,125.3297,43.8805,长春市,园林处,,,60,52,,,133,114,122,122,16,17,6,6,0.4,0.4
2022-04-14T18:00:00,1124A,125.4605,43.79,长春市,净月潭,,,62,47,,,142,,132,132,,12,,8,,0.6
2022-04-14T18:00:00,1125A,125.7194,43.515,长春市,甩湾子(对照点),细颗粒物(PM2.5),110,115,73,83,57,144,118,125,125,19,21,13,12,0.8,1
2022-04-14T18:00:00,1126A,125.3863,43.8447,长春市,经开区环卫处,,,60,60,46,50,122,110,116,116,,,8,8,0.8,0.8
2022-04-14T18:00:00,1127A,125.245,43.7783,长春市,高新区管委会,细颗粒物(PM2.5),65,76,46,47,39,140,124,128,128,12,13,6,7,0.6,0.6
2022-04-14T18:00:00,1128A,125.1761,43.8325,长春市,岱山公园,颗粒物(PM10),56,61,62,35,43,127,103,114,114,11,15,7,8,0.7,0.7
2022-04-14T18:00:00,1129A,126.5422,45.755,哈尔滨市,岭北(对照点),,,,39,,14,105,100,102,102,6,15,3,13,0.5,0.5
2022-04-14T18:00:00,1130A,126.561,45.8167,哈尔滨市,松北商大,,32,21,39,9,23,109,101,104,104,5,23,3,9,0.5,0.7
2022-04-14T18:00:00,1131A,126.979,45.5419,哈尔滨市,阿城会宁,,36,36,64,6,30,101,90,98,98,14,26,15,17,0.5,0.8
2022-04-14T18:00:00,1132A,126.599,45.7222,哈尔滨市,南岗学府路,,30,12,33,8,17,100,93,96,96,6,18,3,6,0.6,0.7
2022-04-14T18:00:00,1133A,126.689,45.7733,哈尔滨市,太平宏伟公园,,,,72,,28,104,95,101,101,15,36,,16,0.5,0.6
2022-04-14T18:00:00,1134A,126.635,45.7667,哈尔滨市,道外承德广场,颗粒物(PM10),56,62,65,16,28,98,96,93,93,13,34,16,20,0.3,0.6
2022-04-14T18:00:00,1135A,126.685,45.7319,哈尔滨市,香坊红旗大街,,,,59,12,23,96,86,92,92,16,28,13,16,0.5,0.6
2022-04-14T18:00:00,1136A,126.6411,45.7258,哈尔滨市,动力和平路,,29,22,44,8,22,99,91,95,95,14,22,16,11,0.3,0.3
2022-04-14T18:00:00,1137A,126.593,45.7478,哈尔滨市,道里建国路,,29,27,36,13,23,95,90,93,93,14,23,12,14,0.7,0.8
2022-04-14T18:00:00,1138A,126.615,45.61,哈尔滨市,平房东轻厂,,35,35,52,18,33,96,89,92,92,17,28,25,30,0,0
2022-04-14T18:00:00,1139A,126.595,45.9855,哈尔滨市,呼兰师专,,32,32,64,13,32,93,89,92,92,9,19,6,9,0.5,0.6
2022-04-14T18:00:00,1140A,126.6206,45.6842,哈尔滨市,省农科院,,30,21,47,8,23,97,93,94,94,13,28,13,17,0.7,0.9
2022-04-14T18:00:00,1141A,121.4,31.238,上海市,普陀,,20,2,8,2,5,110,62,98,60,15,13,2,2,1.3,1.3
2022-04-14T18:00:00,1142A,121.478,31.2036,上海市,十五厂,,18,6,5,11,9,106,57,100,53,17,12,4,4,0.9,0.8
2022-04-14T18:00:00,1144A,121.412,31.1654,上海市,徐汇上师大,,19,9,9,13,8,108,57,97,56,11,10,7,7,0.7,0.8
2022-04-14T18:00:00,1145A,121.536,31.2659,上海市,杨浦四漂,,21,5,4,2,5,101,66,96,58,8,7,7,7,0.7,0.8
2022-04-14T18:00:00,1147A,121.425,31.2261,上海市,静安监测站,,17,11,9,8,8,108,54,98,54,18,14,4,4,0,0.1
2022-04-14T18:00:00,1148A,121.703,31.1907,上海市,浦东川沙,,24,3,3,8,6,104,76,81,66,15,15,4,4,0.8,0.7
2022-04-14T18:00:00,1149A,121.533,31.2284,上海市,浦东新区监测站,,22,9,10,5,7,105,68,99,61,15,13,5,5,0.7,0.7
2022-04-14T18:00:00,1150A,121.577,31.2071,上海市,浦东张江,,,,5,8,10,99,64,87,56,14,13,3,3,0.8,0.8
2022-04-14T18:00:00,1151A,118.8086,32.1065,南京市,迈皋桥,,36,36,29,9,9,101,77,92,92,25,16,1,2,0.5,0.5
2022-04-14T18:00:00,1152A,118.7538,32.0551,南京市,草场门,,,31,29,12,12,107,90,96,96,13,9,4,7,,0.4
2022-04-14T18:00:00,1153A,118.7794,32.0745,南京市,山西路,,44,44,38,14,16,112,90,99,99,11,12,4,4,0.2,0.4
2022-04-14T18:00:00,1154A,118.7752,32.0023,南京市,中华门,,39,39,36,12,7,114,94,106,106,9,16,5,4,0.3,0.4
2022-04-14T18:00:00,1155A,118.8109,32.0309,南京市,瑞金路,,,,33,,17,95,82,87,87,15,13,3,4,0.2,0.3
2022-04-14T18:00:00,1156A,118.7997,32.0754,南京市,玄武湖,,35,35,29,7,12,105,91,95,95,11,11,3,4,0.3,0.4
2022-04-14T18:00:00,1157A,118.6414,32.0931,南京市,浦口,,30,29,24,5,6,107,93,98,98,7,7,3,4,0.3,0.3
2022-04-14T18:00:00,1158A,118.7356,31.9996,南京市,奥体中心,,31,29,27,9,12,112,99,102,102,10,12,4,6,0.4,0.6
2022-04-14T18:00:00,1159A,118.9125,32.1028,南京市,仙林大学城,,32,24,26,14,12,114,102,106,106,7,11,3,4,0.5,0.5
2022-04-14T18:00:00,1160A,120.561,31.2472,苏州市,上方山(对照点),细颗粒物(PM2.5),95,43,26,71,27,72,48,46,46,14,13,4,4,0.8,0.7
2022-04-14T18:00:00,1162A,120.591,31.3019,苏州市,彩香,,,33,19,13,17,75,59,65,54,,13,6,5,0.6,0.7
2022-04-14T18:00:00,1163A,120.596,31.3264,苏州市,轧钢厂,,30,30,30,12,15,77,61,68,55,15,11,5,5,0.7,0.7
2022-04-14T18:00:00,1164A,120.613,31.2703,苏州市,吴中区,,29,29,26,17,24,73,63,70,60,12,10,4,4,0.5,0.6
2022-04-14T18:00:00,1165A,120.543,31.2994,苏州市,苏州新区,,28,28,27,19,19,73,59,67,55,14,9,6,6,0.6,0.6
2022-04-14T18:00:00,1166A,120.669,31.3097,苏州市,苏州工业园区,,22,22,24,13,16,69,56,66,52,17,14,3,2,0.5,0.6
2022-04-14T18:00:00,1167A,120.641,31.3708,苏州市,相城区,,19,18,23,13,17,71,58,69,57,10,6,2,2,0.6,0.7
2022-04-14T18:00:00,1168A,120.9098,31.9663,南通市,狼山街道,,22,8,17,0,7,90,68,86,68,9,8,6,6,0.3,0.2
2022-04-14T18:00:00,1169A,120.86,32.0005,南通市,虹桥,,18,8,16,7,13,75,57,75,58,12,10,8,7,0.5,0.5
2022-04-14T18:00:00,1170A,120.87,32.02,南通市,城中,,20,9,17,5,12,79,61,79,62,12,10,5,4,0.8,0.8
2022-04-14T18:00:00,1171A,120.94,31.93,南通市,星湖花园,,20,6,16,5,9,83,62,81,62,9,8,4,4,0.6,0.5
2022-04-14T18:00:00,1172A,120.81,32.0417,南通市,紫琅学院,,19,10,18,5,6,79,60,78,64,12,10,6,6,0.5,0.5
2022-04-14T18:00:00,1173A,119.176,34.5885,连云港市,市环境监测站,,29,29,35,9,15,107,86,93,93,20,19,5,6,0.3,0.5
2022-04-14T18:00:00,1177A,117.179,34.2761,徐州市,黄河新村,颗粒物(PM10),59,68,55,38,34,121,121,114,114,21,20,16,8,0.7,0.7
2022-04-14T18:00:00,1178A,117.1918,34.2384,徐州市,淮塔,,50,50,46,19,24,120,119,111,111,19,24,13,11,0.7,0.7
2022-04-14T18:00:00,1180A,117.256,34.2153,徐州市,新城区,颗粒物(PM10),58,66,56,22,24,114,102,104,104,27,26,8,9,0.6,0.6
2022-04-14T18:00:00,1181A,117.244,34.2911,徐州市,桃园路,,,73,60,27,28,118,116,109,109,,30,13,13,0.5,0.5
2022-04-14T18:00:00,1182A,117.2933,34.2778,徐州市,农科院,颗粒物(PM10),52,53,52,19,19,111,100,102,102,15,24,12,11,0.7,0.7
2022-04-14T18:00:00,1186A,119.389,32.3761,扬州市,邗江监测站,,29,29,28,12,15,94,82,86,86,11,9,6,7,0.5,0.5
2022-04-14T18:00:00,1188A,120.269,31.4867,无锡市,雪浪,,44,44,28,14,12,74,69,72,63,15,11,5,5,0.4,0.4
2022-04-14T18:00:00,1189A,120.275,31.6219,无锡市,黄巷,,47,47,28,19,15,74,70,72,62,19,20,5,5,0.4,0.5
2022-04-14T18:00:00,1190A,120.294,31.56,无锡市,曹张,,35,35,28,9,15,71,67,70,60,9,8,5,5,0.7,0.8
2022-04-14T18:00:00,1191A,120.242,31.5031,无锡市,漆塘,,31,31,21,20,17,77,73,72,66,15,10,5,5,0.5,0.5
2022-04-14T18:00:00,1192A,120.3489,31.5863,无锡市,东亭,,44,44,29,22,17,44,39,39,39,13,11,7,7,0.9,0.8
2022-04-14T18:00:00,1193A,120.354,31.5475,无锡市,旺庄,,44,44,26,24,18,71,62,71,59,14,10,6,6,0.9,0.9
2022-04-14T18:00:00,1194A,120.245,31.5631,无锡市,荣巷,,36,36,22,19,15,78,72,72,64,16,13,6,6,0.6,0.5
2022-04-14T18:00:00,1195A,120.299,31.6817,无锡市,堰桥,,29,29,21,9,15,78,69,74,66,13,9,5,5,0.7,0.8
2022-04-14T18:00:00,1196A,119.9633,31.762,常州市,市监测站,,40,40,40,17,16,80,72,70,70,18,10,6,6,0.4,0.4
2022-04-14T18:00:00,1200A,119.9468,31.7069,常州市,武进监测站,,38,38,32,18,18,88,80,78,78,23,12,5,4,0.6,0.6
2022-04-14T18:00:00,1201A,119.9255,31.9087,常州市,安家,,37,37,30,25,24,87,79,79,79,16,8,4,4,0.4,0.4
2022-04-14T18:00:00,1203A,119.6707,32.1875,镇江市,新区办事处,,33,33,28,12,12,90,81,83,83,23,21,1,2,0.2,0.2
2022-04-14T18:00:00,1204A,119.4974,32.1968,镇江市,职教中心,,28,28,26,17,18,100,88,90,90,14,12,4,3,0.3,0.3
2022-04-14T18:00:00,1205A,119.4303,32.1328,镇江市,丹徒区监测站,,40,40,31,12,11,109,94,97,97,13,19,1,2,0.2,0.3
2022-04-14T18:00:00,1206A,119.905,32.4878,泰州市,公园路,,24,24,25,12,12,96,71,82,82,12,10,4,4,0.6,0.6
2022-04-14T18:00:00,1207A,119.9189,32.4625,泰州市,莲花,,34,34,24,17,17,102,75,93,92,10,6,5,4,0.6,0.7
2022-04-14T18:00:00,1209A,119.888,32.4639,泰州市,留学生创业园,,36,36,29,16,14,105,80,97,96,14,11,6,8,0.5,0.5
2022-04-14T18:00:00,1210A,119.036,33.5981,淮安市,钵池山,,26,24,30,11,18,87,83,82,82,14,16,9,9,0.5,0.5
2022-04-14T18:00:00,1211A,119.007,33.575,淮安市,北京南路,,31,31,33,12,17,96,91,90,90,16,16,8,9,0.4,0.4
2022-04-14T18:00:00,1212A,118.989,33.6067,淮安市,市监测站,,30,19,29,9,16,101,96,94,94,14,16,9,9,0.5,0.5
2022-04-14T18:00:00,1213A,119.135,33.5039,淮安市,楚州区监测站,,34,34,30,6,15,99,91,91,91,12,13,8,9,0.7,0.8
2022-04-14T18:00:00,1214A,119.0186,33.6297,淮安市,淮阴区监测站,,28,21,34,6,17,94,89,88,88,16,17,8,8,0.3,0.4
2022-04-14T18:00:00,1215A,120.118,33.4022,盐城市,盐城电厂,,,,28,,15,92,86,85,85,,10,7,8,0.4,0.4
2022-04-14T18:00:00,1216A,120.156,33.3942,盐城市,市监测站,,33,30,24,23,20,87,82,81,81,13,12,11,8,0.3,0.3
2022-04-14T18:00:00,1218A,120.2144,33.38,盐城市,开发区管委会,,26,20,19,12,11,87,82,82,82,10,10,5,6,0.5,0.5
2022-04-14T18:00:00,1220A,118.293,33.9528,宿迁市,宿迁学院,,31,19,36,5,23,104,99,97,97,8,16,4,6,0.3,0.5
2022-04-14T18:00:00,1221A,118.2442,33.9592,宿迁市,宿迁中学,,31,17,42,9,22,107,97,98,98,11,16,3,5,0.5,0.7
2022-04-14T18:00:00,1223A,120.2072,30.2111,杭州市,滨江,,49,49,21,34,14,65,53,60,58,22,18,5,5,0.5,0.5
2022-04-14T18:00:00,1224A,120.0633,30.2747,杭州市,西溪,,42,42,15,23,7,72,58,63,61,19,17,4,4,0.5,0.5
2022-04-14T18:00:00,1226A,120.3461,30.3153,杭州市,下沙,颗粒物(PM10),51,52,31,34,13,67,52,60,54,31,24,6,6,0.6,0.6
2022-04-14T18:00:00,1227A,120.1269,30.2456,杭州市,卧龙桥,,50,50,16,24,9,67,59,60,60,17,16,4,4,0.5,0.5
2022-04-14T18:00:00,1228A,120.1903,30.2692,杭州市,浙江农大,颗粒物(PM10),54,57,24,34,16,72,54,61,61,26,21,4,4,0.6,0.5
2022-04-14T18:00:00,1230A,120.1197,30.3119,杭州市,和睦小学,颗粒物(PM10),65,80,28,32,11,63,45,59,54,24,20,2,2,0.7,0.7
2022-04-14T18:00:00,1231A,120.3019,30.4183,杭州市,临平镇,颗粒物(PM10),56,62,32,34,20,68,53,64,54,25,19,3,3,0.7,0.7
2022-04-14T18:00:00,1232A,120.2697,30.1819,杭州市,城厢镇,颗粒物(PM10),53,56,23,27,9,61,52,57,53,27,24,5,5,0.5,0.6
2022-04-14T18:00:00,1233A,120.0883,30.1808,杭州市,云栖,,45,45,17,24,7,70,57,61,61,18,16,6,6,0.6,0.5
2022-04-14T18:00:00,1234A,121.8358,29.911,宁波市,区环保大楼,,25,24,19,17,12,68,52,58,53,19,20,6,6,0.5,0.5
2022-04-14T18:00:00,1235A,121.56,29.82,宁波市,万里学院,细颗粒物(PM2.5),55,53,20,39,11,73,47,67,51,27,17,7,7,0.9,0.7
2022-04-14T18:00:00,1236A,121.713,29.9572,宁波市,龙赛医院,,32,32,17,22,11,62,47,55,52,23,24,5,6,0.6,0.6
2022-04-14T18:00:00,1239A,121.633,29.7733,宁波市,钱湖水厂,,49,42,15,34,10,76,55,68,53,21,17,6,4,0.7,0.6
2022-04-14T18:00:00,1240A,121.5856,29.8635,宁波市,太古小学,细颗粒物(PM2.5),70,46,15,51,22,59,47,56,50,25,18,7,7,1.0,0.8
2022-04-14T18:00:00,1241A,121.524,29.8674,宁波市,市环境监测中心,颗粒物(PM10),55,59,21,26,8,67,46,62,49,26,18,5,6,0.9,0.7
2022-04-14T18:00:00,1242A,120.634,28.0089,温州市,瓯海,,39,39,21,22,8,78,66,74,73,21,22,5,5,0.4,0.4
2022-04-14T18:00:00,1243A,120.6748,27.9939,温州市,南浦,,22,22,20,3,8,86,69,82,81,20,18,5,5,0.5,0.5
2022-04-14T18:00:00,1244A,120.76,27.9747,温州市,龙湾,,27,27,26,13,8,80,64,76,75,16,22,4,4,0.4,0.4
2022-04-14T18:00:00,1245A,120.6709,28.0167,温州市,市站,,23,23,19,9,8,87,73,83,82,13,18,5,5,0.5,0.5
2022-04-14T18:00:00,1247A,120.6053,29.9928,绍兴市,城东开发委,细颗粒物(PM2.5),68,64,23,49,20,69,36,61,43,32,20,5,5,0.8,0.8
2022-04-14T18:00:00,1250A,120.0751,30.8669,湖州市,城西水厂,,39,39,29,24,18,61,53,58,41,38,34,5,5,0.5,0.5
2022-04-14T18:00:00,1252A,120.7436,30.778,嘉兴市,清河小学,,35,35,23,20,14,67,41,63,43,33,23,5,5,0.7,0.6
2022-04-14T18:00:00,1253A,120.726,30.7478,嘉兴市,嘉兴学院,,40,39,21,28,14,66,44,62,47,27,18,8,8,1.1,1.1
2022-04-14T18:00:00,1255A,121.273,28.6459,台州市,黄岩环保大楼,,24,13,13,16,4,82,76,79,79,11,10,5,5,0.4,0.4
2022-04-14T18:00:00,1256A,121.419,28.6542,台州市,台州环保大楼,,25,19,19,5,4,88,77,83,83,11,10,4,4,0.3,0.3
2022-04-14T18:00:00,1257A,121.377,28.5773,台州市,路桥田洋王,,32,32,13,14,5,82,75,79,78,13,11,5,5,0.4,0.3
2022-04-14T18:00:00,1258A,122.122,30.0203,舟山市,定海檀枫,,23,9,10,8,4,140,71,78,78,10,12,1,1,0.3,0.3
2022-04-14T18:00:00,1259A,122.3094,29.9558,舟山市,普陀东港,,27,10,9,5,3,91,85,87,87,9,12,3,3,0.3,0.4
2022-04-14T18:00:00,1260A,122.19,29.9944,舟山市,临城新区,,25,12,9,6,5,83,78,76,76,9,10,2,2,0.4,0.4
2022-04-14T18:00:00,1262A,119.647,29.077,金华市,十五中,,40,40,24,24,12,64,58,60,60,29,24,6,7,0.5,0.5
2022-04-14T18:00:00,1263A,119.686,29.1029,金华市,监测站,,32,32,20,22,8,67,56,59,59,28,24,6,6,0.6,0.6
2022-04-14T18:00:00,1264A,118.8692,28.9398,衢州市,环保大楼,,30,30,16,12,8,94,75,84,84,16,14,5,5,0.6,0.7
2022-04-14T18:00:00,1265A,118.8709,28.9666,衢州市,实验学校,,26,17,13,9,6,100,82,88,88,18,19,5,4,0.5,0.6
2022-04-14T18:00:00,1266A,118.8621,28.9808,衢州市,衢州学院,,24,20,16,9,7,94,75,84,82,17,18,5,5,0.5,0.6
2022-04-14T18:00:00,1267A,119.914,28.4514,丽水市,监测站大楼,,23,23,10,12,4,70,66,67,67,9,10,5,5,0.5,0.5
2022-04-14T18:00:00,1268A,119.93,28.4586,丽水市,莲都小学,,34,34,14,9,2,76,72,73,73,9,12,5,5,0.4,0.4
2022-04-14T18:00:00,1269A,119.879,28.4231,丽水市,余庄前,,33,21,10,23,7,73,65,62,62,8,14,6,6,0.4,0.4
2022-04-14T18:00:00,1270A,117.1959,31.7848,合肥市,明珠广场,,48,48,36,9,15,110,91,100,100,15,22,6,7,0.5,0.5
2022-04-14T18:00:00,1271A,117.3072,31.8764,合肥市,三里街,,39,39,34,12,13,112,94,101,101,12,14,8,10,0.3,0.3
2022-04-14T18:00:00,1272A,117.2588,31.8707,合肥市,琥珀山庄,,39,39,37,17,11,110,92,101,101,13,16,5,6,0.5,0.5
2022-04-14T18:00:00,1273A,117.1604,31.9052,合肥市,董铺水库(对照点),,46,46,41,22,13,105,83,95,95,15,18,9,10,0.4,0.4
2022-04-14T18:00:00,1274A,117.25,31.8571,合肥市,长江中路,,41,41,37,12,8,114,98,105,105,15,19,6,8,0.4,0.4
2022-04-14T18:00:00,1275A,117.266,31.9436,合肥市,庐阳区,,,,40,,8,102,,94,94,,23,,9,,0.2
2022-04-14T18:00:00,1276A,117.336,31.8586,合肥市,瑶海区,,,51,40,14,13,106,89,99,99,,17,7,8,0.5,0.5
2022-04-14T18:00:00,1277A,117.3027,31.7964,合肥市,包河区,,41,41,37,14,15,100,83,92,92,21,28,4,5,0.4,0.3
2022-04-14T18:00:00,1278A,117.2776,31.7385,合肥市,滨湖新区,,39,39,37,14,12,115,99,106,106,15,24,5,5,0.3,0.3
2022-04-14T18:00:00,1279A,117.1318,31.8403,合肥市,高新区,颗粒物(PM10),52,53,43,22,18,113,83,100,100,21,22,6,11,0.4,0.8
2022-04-14T18:00:00,1280A,119.3903,26.0543,福州市,鼓山(对照点),,35,9,23,5,14,109,109,95,95,9,12,5,4,0.4,0.4
2022-04-14T18:00:00,1282A,119.2681,26.0504,福州市,师大,,45,45,26,6,10,117,94,102,102,23,13,4,3,0.5,0.5
2022-04-14T18:00:00,1283A,119.2984,26.1028,福州市,五四北路,,,,26,5,8,123,95,108,108,19,16,4,3,0.4,0.4
2022-04-14T18:00:00,1284A,119.2648,26.0768,福州市,杨桥西路,颗粒物(PM10),52,54,28,10,14,108,83,93,93,25,14,5,4,0.9,0.9
2022-04-14T18:00:00,1285A,119.317,26.0746,福州市,紫阳,,32,32,24,11,9,113,100,99,99,17,15,6,5,0.4,0.4
2022-04-14T18:00:00,1286A,118.1608,24.8169,厦门市,溪东(对照点),,38,31,23,26,17,120,114,98,98,4,4,4,2,0.4,0.4
2022-04-14T18:00:00,1287A,118.1514,24.4767,厦门市,洪文,,26,10,36,2,22,115,83,96,96,20,20,5,5,0.5,0.5
2022-04-14T18:00:00,1288A,118.0661,24.4444,厦门市,鼓浪屿,,32,6,33,2,28,125,102,102,102,5,30,2,8,0.1,0.3
2022-04-14T18:00:00,1290A,115.8931,28.6843,南昌市,省外办,,46,46,39,14,16,128,122,119,119,4,7,5,4,0.6,0.6
2022-04-14T18:00:00,1291A,115.8886,28.7003,南昌市,省林业公司,,41,41,34,15,15,129,118,118,118,14,12,6,5,0.7,0.8
2022-04-14T18:00:00,1292A,115.8126,28.7442,南昌市,林科所,,39,36,28,9,11,134,124,121,121,7,9,8,8,0.4,0.6
2022-04-14T18:00:00,1294A,115.8518,28.687,南昌市,建工学校,,38,38,34,13,16,128,120,117,117,12,12,10,10,0.5,0.6
2022-04-14T18:00:00,1295A,115.8921,28.6424,南昌市,象湖,,41,41,30,10,11,127,118,114,114,2,5,3,2,0.5,0.7
2022-04-14T18:00:00,1296A,115.7423,28.7996,南昌市,武术学校(对照点),,36,36,28,13,12,129,115,115,115,9,10,6,12,0.7,0.9
2022-04-14T18:00:00,1298A,115.9314,28.6842,南昌市,省站,,42,42,29,14,14,127,118,114,114,5,6,7,6,0.5,0.5
2022-04-14T18:00:00,1299A,116.9862,36.6114,济南市,科干所,,,44,40,27,18,,,,,25,26,15,17,0.9,0.9
2022-04-14T18:00:00,1300A,116.9376,36.665,济南市,农科所,,46,46,54,24,20,111,110,96,96,22,41,12,16,0.5,0.6
2022-04-14T18:00:00,1301A,117.1265,36.6734,济南市,开发区,,49,49,47,22,21,115,110,98,98,23,35,13,18,0.6,0.6
2022-04-14T18:00:00,1303A,117.0624,36.6868,济南市,省种子仓库,颗粒物(PM10),53,56,55,32,35,114,108,96,96,27,44,14,19,0.9,1
2022-04-14T18:00:00,1304A,116.9489,36.6447,济南市,机床二厂,颗粒物(PM10),52,54,56,32,24,117,112,100,100,24,37,12,16,0.6,0.7
2022-04-14T18:00:00,1305A,117.0495,36.663,济南市,市监测站,,49,49,50,24,19,110,102,93,93,29,34,15,19,0.5,0.5
2022-04-14T18:00:00,1306A,116.7675,36.5484,济南市,长清党校,颗粒物(PM10),53,56,60,27,21,119,113,98,98,23,48,16,16,0.6,0.9
2022-04-14T18:00:00,1307A,120.6659,36.2403,青岛市,仰口(对照点),,,19,19,9,12,101,101,99,99,10,12,,3,0.5,0.6
2022-04-14T18:00:00,1310A,120.4134,36.0658,青岛市,市南区东部子站,,29,14,23,12,10,99,90,90,90,13,14,4,5,0.3,0.3
2022-04-14T18:00:00,1311A,120.3664,36.1032,青岛市,四方区子站,颗粒物(PM10),53,56,30,29,15,98,98,91,91,29,33,4,5,0.7,0.6
2022-04-14T18:00:00,1312A,120.2994,36.054,青岛市,市南区西部子站,,31,17,29,2,9,110,99,86,86,42,38,6,6,0.7,0.6
2022-04-14T18:00:00,1313A,120.4581,36.0858,青岛市,崂山区子站,,35,12,28,7,9,112,112,102,102,9,23,7,6,0.3,0.4
2022-04-14T18:00:00,1314A,120.1983,35.9608,青岛市,黄岛区子站,,28,19,33,7,16,98,89,94,94,31,39,5,6,0.3,0.5
2022-04-14T18:00:00,1315A,120.3999,36.3083,青岛市,城阳区子站,颗粒物(PM10),57,63,33,27,14,110,86,100,100,28,20,7,5,0.6,0.6
2022-04-14T18:00:00,1316A,113.69031,34.76122,郑州市,烟厂,,40,36,65,28,32,111,99,100,100,14,22,6,9,0.4,0.5
2022-04-14T18:00:00,1317A,113.65724,34.77134,郑州市,郑纺机,颗粒物(PM10),55,59,71,26,32,115,104,105,105,12,20,7,11,0.8,0.8
2022-04-14T18:00:00,1318A,113.67526,34.80246,郑州市,银行学校,,48,44,62,33,38,115,105,106,106,16,26,5,8,0.5,0.5
2022-04-14T18:00:00,1319A,113.56746,34.81334,郑州市,供水公司,,41,41,71,19,28,123,107,112,112,20,34,5,8,0.4,0.4
2022-04-14T18:00:00,1320A,113.7329,34.7178,郑州市,经开区管委,,50,46,66,35,42,116,105,105,105,16,30,6,8,0.5,0.5
2022-04-14T18:00:00,1321A,113.73961,34.77172,郑州市,四十七中,,50,44,67,35,37,122,110,109,109,13,22,6,9,0.6,0.6
2022-04-14T18:00:00,1322A,113.60532,34.74838,郑州市,市监测站,,,,64,,32,117,106,107,107,,26,7,10,,0.5
2022-04-14T18:00:00,1324A,113.51488,34.91089,郑州市,岗李水库(对照点),,40,40,71,28,28,111,94,88,88,18,26,8,9,0.5,0.6
2022-04-14T18:00:00,1325A,114.3677,30.5584,武汉市,东湖梨园,,,22,41,,37,92,92,72,66,23,28,6,9,0.4,1
2022-04-14T18:00:00,1326A,114.2529,30.558,武汉市,汉阳月湖,,34,34,43,18,12,93,93,80,65,23,25,7,7,0.6,0.9
2022-04-14T18:00:00,1327A,114.282,30.6189,武汉市,汉口花桥,,29,19,24,15,25,90,90,74,61,17,17,9,10,0.2,0.5
2022-04-14T18:00:00,1328A,114.3025,30.5332,武汉市,武昌紫阳,,35,35,39,16,21,88,85,67,59,17,20,9,10,0.7,1.2
2022-04-14T18:00:00,1329A,114.3646,30.6217,武汉市,青山钢花,,35,35,39,24,26,87,87,66,66,27,23,8,9,0.7,0.8
2022-04-14T18:00:00,1330A,114.1566,30.4825,武汉市,沌口新区,,33,33,45,16,23,85,70,69,50,39,31,10,10,0.7,0.9
2022-04-14T18:00:00,1331A,114.3014,30.5944,武汉市,汉口江滩,,33,33,40,15,18,92,90,74,68,20,18,7,7,0.7,0.8
2022-04-14T18:00:00,1333A,114.135,30.6319,武汉市,吴家山,,30,29,41,20,22,95,95,82,73,17,17,10,10,0.6,0.6
2022-04-14T18:00:00,1334A,113.8454,30.2917,武汉市,沉湖七壕(对照点),,44,44,44,9,18,100,84,76,58,10,13,5,5,0.6,0.7
2022-04-14T18:00:00,1335A,113.0833,28.2325,长沙市,经开区环保局,细颗粒物(PM2.5),63,39,37,45,29,98,76,88,82,20,16,6,6,0.7,0.5
2022-04-14T18:00:00,1336A,112.8872,28.2189,长沙市,高开区环保局,细颗粒物(PM2.5),70,56,48,51,35,93,80,88,75,14,14,6,7,0.8,0.7
2022-04-14T18:00:00,1337A,113.0792,28.2053,长沙市,马坡岭,,44,44,42,27,22,95,79,86,78,13,10,8,8,0.7,0.5
2022-04-14T18:00:00,1338A,112.9394,28.19,长沙市,湖南师范大学,细颗粒物(PM2.5),60,57,38,43,33,95,80,77,77,11,13,2,2,0.4,0.4
2022-04-14T18:00:00,1339A,113.0178,28.1322,长沙市,雨花区环保局,细颗粒物(PM2.5),67,40,39,48,32,94,82,87,83,16,15,5,5,0.5,0.4
2022-04-14T18:00:00,1340A,112.9792,28.2597,长沙市,伍家岭,细颗粒物(PM2.5),62,55,43,44,35,91,76,76,74,12,15,6,6,0.7,0.6
2022-04-14T18:00:00,1341A,113.0014,28.1944,长沙市,火车新站,细颗粒物(PM2.5),77,62,42,56,35,91,74,91,76,14,13,6,7,0.5,0.4
2022-04-14T18:00:00,1342A,112.9844,28.1178,长沙市,天心区环保局,细颗粒物(PM2.5),64,37,34,46,29,87,76,82,74,15,15,5,5,0.7,0.6
2022-04-14T18:00:00,1343A,112.8908,28.1308,长沙市,湖南中医药大学,细颗粒物(PM2.5),62,44,43,44,32,92,79,76,76,11,13,4,4,0.7,0.6
2022-04-14T18:00:00,1344A,112.9581,28.3611,长沙市,沙坪(对照点),细颗粒物(PM2.5),70,71,49,51,33,84,68,69,69,11,9,5,6,0.8,0.6
2022-04-14T18:00:00,1345A,113.2347,23.1423,广州市,广雅中学,,44,33,26,16,13,152,140,135,135,21,21,8,7,0.9,0.9
2022-04-14T18:00:00,1346A,113.2612,23.105,广州市,市五中,,47,33,24,16,12,174,149,151,151,22,16,6,6,0.7,0.7
2022-04-14T18:00:00,1348A,113.3478,23.0916,广州市,广东商学院,,46,34,25,18,14,169,145,141,141,17,22,5,5,0.7,0.8
2022-04-14T18:00:00,1349A,113.4332,23.1047,广州市,市八十六中,颗粒物(PM10),56,61,54,14,11,162,135,136,136,20,22,7,7,0.6,0.6
2022-04-14T18:00:00,1350A,113.3505,22.9483,广州市,番禺中学,,,,13,,13,187,179,152,152,,22,9,9,0.8,1.2
2022-04-14T18:00:00,1351A,113.2146,23.3916,广州市,花都师范,,43,21,17,11,9,146,135,131,131,13,15,5,5,0.8,0.7
2022-04-14T18:00:00,1352A,113.2597,23.1331,广州市,市监测站,,49,30,21,16,13,178,156,154,154,16,18,7,7,0.8,0.7
2022-04-14T18:00:00,1353A,113.5618,23.312,广州市,九龙镇镇龙,,39,29,23,15,11,130,124,112,112,10,14,6,6,0.7,0.7
2022-04-14T18:00:00,1354A,113.2765,23.1544,广州市,麓湖,,,28,21,14,11,178,142,164,164,18,20,8,8,,0.8
2022-04-14T18:00:00,1355A,113.443,23.3035,广州市,帽峰山森林公园(对照点),,40,23,16,12,9,129,126,119,119,6,7,5,5,0.8,0.8
2022-04-14T18:00:00,1356A,114.1063,22.5545,深圳市,通心岭子站,臭氧1小时,85,45,31,24,15,197,188,158,158,15,18,3,3,0.7,0.6
2022-04-14T18:00:00,1357A,114.117,22.5625,深圳市,洪湖,臭氧1小时,84,46,32,24,15,197,187,161,161,21,22,6,6,0.8,0.7
2022-04-14T18:00:00,1358A,113.987,22.5417,深圳市,华侨城,臭氧1小时,93,38,32,14,18,204,194,165,165,8,27,6,6,0.8,0.7
2022-04-14T18:00:00,1359A,113.9181,22.5171,深圳市,南海子站,臭氧1小时,67,61,40,24,19,184,173,152,152,33,26,5,4,0.7,0.6
2022-04-14T18:00:00,1360A,114.2458,22.5689,深圳市,盐田,臭氧1小时,67,32,25,18,14,201,173,157,157,15,24,2,3,0.8,0.7
2022-04-14T18:00:00,1361A,114.2283,22.7244,深圳市,龙岗,,49,34,37,16,18,186,156,148,148,17,35,3,4,0.7,0.7
2022-04-14T18:00:00,1363A,114.494,22.5422,深圳市,南澳,臭氧1小时,54,42,24,29,12,185,163,149,149,32,14,6,5,0.7,0.6
2022-04-14T18:00:00,1364A,114.41,22.6342,深圳市,葵涌,,44,27,23,13,12,159,138,126,126,11,13,4,4,0.6,0.5
2022-04-14T18:00:00,1365A,114.297,22.5978,深圳市,梅沙,,49,33,24,18,15,196,154,155,155,14,15,5,5,0.8,0.7
2022-04-14T18:00:00,1366A,114.0678,22.738,深圳市,观澜,,40,29,30,10,10,161,128,138,138,32,26,5,5,0.8,0.9
2022-04-14T18:00:00,1367A,113.5814,22.2618,珠海市,吉大,,,,24,,8,220,202,170,170,21,20,11,10,0.6,0.6
2022-04-14T18:00:00,1368A,113.4881,22.2335,珠海市,前山,臭氧1小时,111,32,33,20,13,221,221,164,164,25,26,11,10,0.5,0.5
2022-04-14T18:00:00,1369A,113.628,22.4251,珠海市,唐家,臭氧1小时,113,30,22,9,8,227,225,188,188,16,19,10,10,0.5,0.5
2022-04-14T18:00:00,1370A,113.299,22.2281,珠海市,斗门,臭氧1小时,128,40,26,17,10,256,256,196,196,21,18,9,8,0.7,0.6
2022-04-14T18:00:00,1371A,113.1294,23.0067,佛山市,湾梁,,47,36,29,16,13,188,150,154,154,10,14,10,10,0.6,0.6
2022-04-14T18:00:00,1372A,113.1083,23.0478,佛山市,华材职中,,45,31,28,23,12,170,142,143,143,16,23,7,8,0.6,0.6
2022-04-14T18:00:00,1373A,113.144,23.0453,佛山市,南海气象局,,44,33,22,15,11,166,139,141,141,12,18,5,5,0.7,0.6
2022-04-14T18:00:00,1374A,113.2881,22.8094,佛山市,顺德苏岗,臭氧1小时,79,34,24,22,11,205,183,157,157,19,24,2,2,0.9,0.9
2022-04-14T18:00:00,1376A,112.8383,22.8678,佛山市,高明孔堂,臭氧1小时,67,41,31,17,13,173,173,142,142,16,18,13,10,0.8,0.7
2022-04-14T18:00:00,1377A,112.8836,23.1588,佛山市,三水监测站,,38,27,22,15,12,127,119,114,114,10,17,5,5,0.8,0.8
2022-04-14T18:00:00,1378A,112.867,23.185,佛山市,三水云东海,,43,38,28,9,7,146,135,130,130,11,14,8,8,0.8,0.8
2022-04-14T18:00:00,1379A,113.3769,22.5211,中山市,华柏园,臭氧1小时,119,63,32,20,12,243,237,179,179,22,21,5,5,0.6,0.6
2022-04-14T18:00:00,1380A,113.3881,22.5497,中山市,张溪,臭氧1小时,108,49,36,6,9,222,216,168,168,19,22,4,4,0.6,0.6
2022-04-14T18:00:00,1381A,113.4075,22.5111,中山市,紫马岭,臭氧1小时,110,57,31,21,13,232,219,170,170,20,20,5,6,0.6,0.6
2022-04-14T18:00:00,1382A,113.4411,22.4853,中山市,长江旅游区(对照点),臭氧1小时,106,50,26,23,13,225,211,164,164,27,23,5,4,0.6,0.6
2022-04-14T18:00:00,1383A,113.1064,22.6058,江门市,北街,臭氧1小时,111,47,31,12,10,234,222,191,191,23,24,8,6,0.6,0.6
2022-04-14T18:00:00,1384A,113.0731,22.5835,江门市,西区,臭氧1小时,99,47,32,19,14,208,199,177,177,22,26,8,7,0.7,0.6
2022-04-14T18:00:00,1385A,113.0219,22.5311,江门市,圭峰西,臭氧1小时,90,36,27,9,9,201,192,171,171,14,18,10,9,0.5,0.5
2022-04-14T18:00:00,1386A,113.0828,22.5947,江门市,东湖,臭氧1小时,103,33,36,12,15,216,206,181,181,20,22,5,4,0.6,0.7
2022-04-14T18:00:00,1389A,113.7547,23.0494,东莞市,莞城梨川,,44,28,22,15,12,148,138,135,135,16,19,9,10,0.8,0.7
2022-04-14T18:00:00,1390A,113.7944,23.0128,东莞市,东城石井,,45,21,20,12,11,159,141,140,140,19,17,7,8,0.7,0.7
2022-04-14T18:00:00,1391A,113.7383,22.9658,东莞市,南城西平,,46,28,23,12,12,163,147,152,152,19,25,8,8,0.6,0.6
2022-04-14T18:00:00,1392A,114.4183,23.0528,惠州市,河南岸金山湖子站,,39,39,25,8,11,139,114,118,118,12,16,5,4,0.6,0.6
2022-04-14T18:00:00,1393A,114.4053,23.0822,惠州市,下埔横江三路子站,,36,30,23,9,9,148,114,122,122,15,16,5,5,0.6,0.6
2022-04-14T18:00:00,1394A,114.4103,23.1142,惠州市,江北云山西路子站,,36,16,26,12,12,147,114,123,123,11,13,5,6,0.5,0.5
2022-04-14T18:00:00,1395A,114.4645,22.7833,惠州市,惠阳区承修路船湖子站,,45,42,28,14,12,143,143,118,118,17,20,2,4,0.8,0.7
2022-04-14T18:00:00,1396A,114.5317,22.7422,惠州市,大亚湾管委会子站,,45,39,29,14,13,153,144,118,118,18,19,4,5,0.8,0.8
2022-04-14T18:00:00,1397A,112.4267,23.0706,肇庆市,睦岗子站,,50,27,20,16,11,162,159,141,141,20,21,7,7,0.9,0.8
2022-04-14T18:00:00,1398A,112.4645,23.0475,肇庆市,城中子站,臭氧1小时,52,29,18,13,9,163,161,141,141,20,16,8,8,0.7,0.7
2022-04-14T18:00:00,1399A,112.5544,23.1522,肇庆市,坑口子站,,50,25,18,12,10,158,158,139,139,9,12,10,9,0.6,0.6
2022-04-14T18:00:00,1400A,112.4753,23.1,肇庆市,七星岩子站(对照点),,47,25,18,10,8,160,148,135,135,18,17,10,10,0.7,0.7
2022-04-14T18:00:00,1401A,108.3103,22.7881,南宁市,二十一中,颗粒物(PM10),55,60,33,31,17,156,146,144,144,14,16,8,10,0.5,0.7
2022-04-14T18:00:00,1402A,108.3141,22.8528,南宁市,北湖,颗粒物(PM10),55,59,41,30,19,159,147,143,143,10,16,10,13,0.8,0.7
2022-04-14T18:00:00,1403A,108.3206,22.8225,南宁市,市监测站,颗粒物(PM10),51,52,38,30,18,155,144,145,145,18,31,9,12,0.7,0.7
2022-04-14T18:00:00,1404A,108.3829,22.8037,南宁市,大自然花园,,48,48,33,25,19,149,138,140,140,11,18,7,9,0.7,0.8
2022-04-14T18:00:00,1405A,108.4394,22.7904,南宁市,仙葫(对照点),,50,50,40,29,21,145,139,136,136,12,20,8,8,0.7,0.7
2022-04-14T18:00:00,1406A,108.2397,22.8467,南宁市,区农职院,颗粒物(PM10),55,60,41,34,20,174,149,151,151,18,30,9,11,0.7,0.7
2022-04-14T18:00:00,1407A,108.3275,22.735,南宁市,英华嘉园,颗粒物(PM10),55,60,41,35,21,136,118,122,122,33,27,8,9,0.8,0.8
2022-04-14T18:00:00,1408A,108.2257,22.7757,南宁市,沙井镇街道办,颗粒物(PM10),51,51,56,29,24,148,134,132,132,21,47,6,8,0.7,0.7
2022-04-14T18:00:00,1409A,110.576,19.9507,海口市,东寨港(对照点),,39,37,39,22,23,122,122,101,101,6,11,4,3,0.5,0.5
2022-04-14T18:00:00,1410A,110.3232,20.0574,海口市,海南大学,,40,30,36,17,18,127,127,102,102,3,22,5,5,0.6,0.5
2022-04-14T18:00:00,1411A,110.283,20.0053,海口市,秀英海南医院,,40,40,44,17,25,122,122,95,95,1,21,4,4,0.3,0.3
2022-04-14T18:00:00,1412A,110.338,19.9969,海口市,海南师范大学,,38,38,39,18,18,115,112,95,95,6,22,3,3,0.6,0.5
2022-04-14T18:00:00,1413A,110.33,20.0356,海口市,龙华路环保局宿舍,,43,28,35,13,18,136,136,110,110,4,20,6,5,0.6,0.5
2022-04-14T18:00:00,1414A,106.3787,29.8279,重庆市,缙云山(对照点),,24,8,10,5,5,136,74,93,78,15,13,8,9,0.7,0.6
2022-04-14T18:00:00,1416A,106.4213,29.8253,重庆市,天生,,17,15,20,3,12,107,53,59,58,18,24,5,6,0.8,0.8
2022-04-14T18:00:00,1417A,106.6263,29.7228,重庆市,两路,,17,11,19,9,9,108,48,61,49,33,32,7,11,0.7,0.7
2022-04-14T18:00:00,1418A,106.2953,29.5983,重庆市,虎溪,,28,28,32,13,21,120,41,58,40,28,33,3,2,0.7,0.7
2022-04-14T18:00:00,1419A,106.5777,29.5102,重庆市,南坪,,24,24,28,16,16,116,47,73,48,28,22,6,6,0.7,0.7
2022-04-14T18:00:00,1420A,106.6556,29.6277,重庆市,唐家沱,,22,22,22,11,14,120,62,71,64,20,24,4,5,0.6,0.5
2022-04-14T18:00:00,1421A,106.6349,29.4906,重庆市,茶园,,19,19,28,7,12,107,52,55,48,34,42,8,8,0.6,0.7
2022-04-14T18:00:00,1422A,106.3754,29.4572,重庆市,白市驿,,25,25,21,8,11,132,62,72,68,24,24,6,7,0.8,0.9
2022-04-14T18:00:00,1425A,106.6205,29.7166,重庆市,空港,,22,21,27,15,15,121,60,69,60,22,23,10,10,0.5,0.6
2022-04-14T18:00:00,1426A,106.4782,29.4875,重庆市,新山村,,21,21,27,10,14,118,51,59,56,38,44,8,9,0.8,0.8
2022-04-14T18:00:00,1427A,106.5616,29.6453,重庆市,礼嘉,,22,14,20,15,10,114,59,67,58,25,28,9,9,0.4,0.4
2022-04-14T18:00:00,1428A,106.4522,29.7091,重庆市,蔡家,,32,13,19,13,16,152,102,94,94,21,31,2,2,0.6,0.6
2022-04-14T18:00:00,1429A,106.5093,29.3917,重庆市,鱼新街,,16,13,23,9,14,124,46,63,60,32,33,5,7,0.8,0.9
2022-04-14T18:00:00,1431A,103.9728,30.7236,成都市,金泉两河,,28,28,60,18,32,84,66,61,61,18,23,3,3,0.4,0.5
2022-04-14T18:00:00,1432A,104.1419,30.6764,成都市,十里店,,26,26,74,14,32,52,33,45,45,34,40,4,5,0.6,0.6
2022-04-14T18:00:00,1433A,104.0594,30.5767,成都市,三瓦窑,,23,21,63,16,31,72,47,53,53,22,35,2,3,0.4,0.4
2022-04-14T18:00:00,1434A,104.1122,30.6306,成都市,沙河铺,,38,37,78,26,43,65,43,46,46,26,32,1,2,0.4,0.5
2022-04-14T18:00:00,1437A,104.0431,30.6556,成都市,君平街,,38,34,75,26,43,72,42,47,47,34,31,4,5,0.6,0.5
2022-04-14T18:00:00,1438A,103.6202,31.0201,成都市,灵岩寺(对照点),,,,21,,19,112,50,89,45,7,5,5,5,0.5,0.4
2022-04-14T18:00:00,1439A,106.6899,26.5998,贵阳市,马鞍山,,41,41,21,22,8,84,39,55,51,14,13,5,4,0.6,0.5
2022-04-14T18:00:00,1440A,106.6971,26.5694,贵阳市,市环保站,,35,35,22,20,10,82,51,76,52,18,18,5,5,0.4,0.3
2022-04-14T18:00:00,1441A,106.6243,26.6266,贵阳市,鉴湖路,颗粒物(PM10),59,68,31,36,10,94,60,77,59,13,14,2,2,0.7,0.6
2022-04-14T18:00:00,1442A,106.7487,26.6343,贵阳市,燕子冲,,,,25,,18,90,55,86,62,4,4,,7,0.6,0.6
2022-04-14T18:00:00,1443A,106.6555,26.4365,贵阳市,碧云窝,颗粒物(PM10),53,56,34,29,14,97,57,88,68,18,10,8,5,0.5,0.4
2022-04-14T18:00:00,1444A,106.694,26.5161,贵阳市,中院村,,41,41,26,19,10,90,56,75,64,25,18,4,4,0.5,0.4
2022-04-14T18:00:00,1445A,106.7109,26.6027,贵阳市,红边门,,50,50,28,34,14,83,52,80,52,23,23,1,3,0.3,0.2
2022-04-14T18:00:00,1446A,106.7164,26.5699,贵阳市,新华路,,39,39,25,22,12,84,58,84,62,13,11,5,5,0.4,0.2
2022-04-14T18:00:00,1447A,106.674,26.5424,贵阳市,太慈桥,颗粒物(PM10),52,53,35,12,7,83,52,71,60,19,12,4,4,0.4,0.3
2022-04-14T18:00:00,1450A,102.8204,24.8886,昆明市,呈贡新区,颗粒物(PM10),63,76,55,41,32,132,123,126,125,12,14,9,9,0.3,0.5
2022-04-14T18:00:00,1451A,102.6251,24.9608,昆明市,西山森林公园(对照点),细颗粒物(PM2.5),52,52,42,36,29,140,135,135,135,8,7,8,10,0.4,0.4
2022-04-14T18:00:00,1452A,102.7252,25.0902,昆明市,龙泉镇,颗粒物(PM10),56,61,54,38,32,127,123,122,122,12,21,10,11,0.6,0.6
2022-04-14T18:00:00,1453A,102.7266,25.0375,昆明市,东风东路,颗粒物(PM10),61,71,53,40,31,135,118,126,126,18,15,6,7,0.5,0.5
2022-04-14T18:00:00,1454A,102.6742,25.0669,昆明市,金鼎山,颗粒物(PM10),59,68,58,40,32,131,124,125,125,14,17,5,8,0.5,0.4
2022-04-14T18:00:00,1455A,102.6644,25.0401,昆明市,碧鸡广场,颗粒物(PM10),59,67,59,35,32,137,129,130,130,16,23,10,12,0.6,0.4
2022-04-14T18:00:00,1456A,91.1319,29.6514,拉萨市,八廓街,,36,9,20,9,10,118,114,108,108,13,12,6,6,0.2,0.3
2022-04-14T18:00:00,1457A,91.1221,29.6747,拉萨市,市环保局,,40,18,19,0,14,133,126,121,121,9,8,5,4,0.2,0.2
2022-04-14T18:00:00,1458A,91.0874,29.6475,拉萨市,区监测站,,37,14,21,6,9,116,116,104,104,9,10,6,6,0.2,0.3
2022-04-14T18:00:00,1459A,91.1774,29.6541,拉萨市,西藏大学,,,,19,,6,123,122,111,111,,9,,5,0.4,0.3
2022-04-14T18:00:00,1460A,90.9798,29.6588,拉萨市,区辐射站,,38,23,24,8,9,133,121,116,116,15,16,6,6,0.3,0.5
2022-04-14T18:00:00,1461A,91.0834,29.6292,拉萨市,拉萨火车站,,40,18,22,0,3,125,125,114,114,5,6,5,5,0.3,0.3
2022-04-14T18:00:00,1462A,108.882,34.2749,西安市,高压开关厂,颗粒物(PM10),54,57,94,28,29,121,68,80,71,31,23,10,11,0.5,0.5
2022-04-14T18:00:00,1463A,108.993,34.2629,西安市,兴庆小区,,50,50,88,30,24,115,57,72,64,34,26,6,7,0.5,0.6
2022-04-14T18:00:00,1464A,109.06,34.2572,西安市,纺织城,,46,46,99,24,33,107,53,61,53,27,28,6,8,0.4,0.5
2022-04-14T18:00:00,1465A,108.9356,34.2173,西安市,小寨,颗粒物(PM10),52,54,84,22,20,106,58,68,53,29,28,3,5,0.4,0.5
2022-04-14T18:00:00,1466A,108.954,34.2713,西安市,市人民体育场,颗粒物(PM10),53,56,88,36,30,111,55,71,63,36,25,6,8,0.7,0.6
2022-04-14T18:00:00,1467A,108.8922,34.2322,西安市,高新西区,,50,50,82,25,35,117,54,72,63,30,23,6,8,0.5,0.4
2022-04-14T18:00:00,1468A,108.935,34.3474,西安市,经开区,颗粒物(PM10),55,60,86,35,27,113,69,78,66,28,21,4,4,0.5,0.5
2022-04-14T18:00:00,1469A,108.906,34.1546,西安市,长安区,颗粒物(PM10),59,68,90,38,32,112,55,54,54,27,28,6,7,0.8,0.7
2022-04-14T18:00:00,1471A,109.2186,34.3731,西安市,临潼区,,,,97,,35,118,74,81,73,24,14,7,6,,0.7
2022-04-14T18:00:00,1472A,108.869,34.378,西安市,草滩(对照点),颗粒物(PM10),54,57,83,36,31,100,65,72,65,26,19,4,5,0.4,0.5
2022-04-14T18:00:00,1473A,108.985,34.1978,西安市,曲江文化产业集团,,37,37,82,17,34,112,50,50,45,31,37,3,5,0.5,0.5
2022-04-14T18:00:00,1474A,109.051,34.3213,西安市,广运潭,颗粒物(PM10),61,71,100,36,29,105,53,72,59,25,19,8,9,0.5,0.5
2022-04-14T18:00:00,1476A,103.631,36.1031,兰州市,兰炼宾馆,,47,47,71,27,32,103,91,99,83,11,11,5,6,0.3,0.3
2022-04-14T18:00:00,1477A,104.1373,35.9454,兰州市,榆中兰大校区(对照点),,34,32,66,7,21,164,108,114,114,10,11,3,3,0.7,0.5
2022-04-14T18:00:00,1478A,103.8412,36.0726,兰州市,生物制品所,,38,38,62,18,22,110,91,100,87,11,11,6,7,0.2,0.3
2022-04-14T18:00:00,1479A,103.831,36.0464,兰州市,铁路设计院,,46,46,68,31,28,101,84,99,83,25,22,6,6,0.3,0.4
2022-04-14T18:00:00,1483A,101.524,36.6867,西宁市,第五水厂(对照点),颗粒物(PM10),58,66,77,19,16,109,103,100,100,16,18,9,12,0.7,0.9
2022-04-14T18:00:00,1484A,105.9512,38.6016,银川市,贺兰山马莲口(对照点),颗粒物(PM10),63,75,93,22,24,110,110,96,96,7,15,8,16,0.2,0.4
2022-04-14T18:00:00,1488A,106.2328,38.4975,银川市,贺兰山东路,颗粒物(PM10),62,74,90,21,30,106,105,89,89,13,27,6,10,0.4,0.5
2022-04-14T18:00:00,1489A,106.1358,38.5036,银川市,学院路,颗粒物(PM10),68,85,103,24,31,111,110,100,100,10,27,7,18,0.5,0.8
2022-04-14T18:00:00,1490A,87.5801,43.8303,乌鲁木齐市,监测站,颗粒物(PM10),70,89,76,9,13,127,124,107,107,16,42,9,6,0.3,0.4
2022-04-14T18:00:00,1491A,87.6046,43.768,乌鲁木齐市,收费所,颗粒物(PM10),69,87,69,28,21,113,112,92,92,20,49,7,7,0.3,0.4
2022-04-14T18:00:00,1492A,87.4754,43.9469,乌鲁木齐市,新疆农科院农场(对照点),颗粒物(PM10),85,119,108,27,31,103,101,88,88,5,40,10,10,0.3,0.4
2022-04-14T18:00:00,1493A,87.5525,43.8711,乌鲁木齐市,铁路局,颗粒物(PM10),74,98,71,9,18,121,119,101,101,10,36,6,5,0.3,0.4
2022-04-14T18:00:00,1494A,87.6432,43.831,乌鲁木齐市,三十一中学,颗粒物(PM10),63,76,63,18,13,114,112,93,93,14,34,9,7,0.3,0.4
2022-04-14T18:00:00,1496A,87.7216,44.1747,乌鲁木齐市,米东区环保局,颗粒物(PM10),65,80,75,13,16,124,122,94,94,5,24,10,11,0.2,0.4
2022-04-14T18:00:00,1508A,112.9433,27.8614,湘潭市,板塘,颗粒物(PM10),56,61,59,34,31,81,81,70,70,13,12,6,6,0.6,0.5
2022-04-14T18:00:00,1511A,112.9118,27.8403,湘潭市,市监测站,细颗粒物(PM2.5),64,46,45,46,42,79,72,69,69,19,14,7,7,0.9,0.7
2022-04-14T18:00:00,1512A,112.8937,27.8728,湘潭市,江麓,颗粒物(PM10),62,74,64,41,20,79,72,71,71,19,18,6,9,0.5,0.4
2022-04-14T18:00:00,1513A,112.9227,27.8159,湘潭市,岳塘,细颗粒物(PM2.5),58,62,61,41,36,91,87,80,80,16,18,11,8,0.6,0.5
2022-04-14T18:00:00,1514A,112.9074,27.9119,湘潭市,科大,,,,54,,39,88,,79,79,,25,,4,,0.6
2022-04-14T18:00:00,1515A,113.135,27.8244,株洲市,天台山庄,,43,32,38,30,29,93,79,76,76,26,19,7,6,0.2,0.2
2022-04-14T18:00:00,1518A,113.095,27.8867,株洲市,株冶医院,,43,36,33,30,21,87,74,76,76,28,16,4,5,0.6,0.4
2022-04-14T18:00:00,1519A,113.167,27.8667,株洲市,市四中,,38,34,39,26,30,92,85,78,78,18,15,4,6,0.5,0.4
2022-04-14T18:00:00,1520A,113.143,27.8381,株洲市,火车站,,39,39,45,25,26,96,88,81,81,24,18,2,7,0.5,0.3
2022-04-14T18:00:00,1524A,113.13,27.8528,株洲市,市监测站,,48,34,44,33,28,89,78,74,74,22,17,3,5,0.6,0.5
2022-04-14T18:00:00,1552A,106.805,26.3003,贵阳市,桐木岭(对照点),颗粒物(PM10),52,53,29,31,18,96,69,92,76,5,4,13,11,0.4,0.4
2022-04-14T18:00:00,1559A,113.251,27.8336,株洲市,大京风景区(对照点),,28,27,31,15,55,92,87,81,81,14,17,5,5,0,0.3
2022-04-14T18:00:00,1562A,113.0048,27.9153,湘潭市,昭山,细颗粒物(PM2.5),62,46,40,44,37,74,72,69,69,19,20,6,6,0.6,0.5
2022-04-14T18:00:00,1564A,112.4876,27.9164,湘潭市,韶山(对照点),颗粒物(PM10),54,57,54,23,26,91,78,80,80,8,6,4,5,0.5,0.4
2022-04-14T18:00:00,1585A,109.8756,40.6532,包头市,市环境监测站,,34,28,27,12,14,122,108,106,106,10,13,7,12,0.8,0.8
2022-04-14T18:00:00,1587A,109.9991,40.5842,包头市,包头八中,,37,37,37,8,14,119,109,112,112,8,13,9,15,0.4,0.7
2022-04-14T18:00:00,1588A,109.8538,40.6821,包头市,青山宾馆,,34,29,27,19,15,120,108,103,103,10,15,11,14,0.5,0.6
2022-04-14T18:00:00,1589A,109.8642,40.6288,包头市,惠龙物流,,35,33,26,12,11,120,110,106,106,8,11,6,10,0.4,0.5
2022-04-14T18:00:00,1590A,110.0377,40.5546,包头市,东河鸿龙湾,,38,38,29,11,12,117,110,110,110,6,8,10,12,0.4,0.4
2022-04-14T18:00:00,1591A,110.0023,39.8129,鄂尔多斯市,综合楼,,46,46,52,27,36,99,98,92,92,11,22,5,10,0.4,0.4
2022-04-14T18:00:00,1592A,109.9486,39.8261,鄂尔多斯市,巴音孟克林场办事处,,41,41,56,9,14,101,99,96,96,8,20,9,11,0.2,0.4
2022-04-14T18:00:00,1593A,109.7736,39.5986,鄂尔多斯市,康泽苑,,36,36,32,5,4,110,105,103,103,10,14,5,5,0.4,0.5
2022-04-14T18:00:00,1594A,109.8119,39.5989,鄂尔多斯市,华泰汽车城,,39,39,35,9,9,114,110,106,106,6,21,5,7,0.3,0.4
2022-04-14T18:00:00,1595A,109.9734,39.7884,鄂尔多斯市,奥林花园,,41,41,39,9,8,101,98,97,97,9,16,5,7,0.3,0.4
2022-04-14T18:00:00,1597A,122.2703,40.7094,营口市,大庆路,细颗粒物(PM2.5),72,76,68,52,47,144,127,123,123,26,25,8,11,0.7,0.9
2022-04-14T18:00:00,1598A,122.215,40.6511,营口市,镜湖西路,细颗粒物(PM2.5),67,68,63,48,43,125,115,108,108,21,21,6,10,0.4,0.5
2022-04-14T18:00:00,1599A,122.167,40.6655,营口市,西炮台,细颗粒物(PM2.5),70,67,58,51,43,126,123,114,114,24,22,5,9,0.6,0.6
2022-04-14T18:00:00,1600A,124.3303,40.0625,丹东市,江湾东路,,32,32,33,20,19,105,82,99,96,23,19,9,10,0.4,0.7
2022-04-14T18:00:00,1601A,124.4256,40.1503,丹东市,临江后街,,31,20,29,11,15,114,97,104,104,16,16,9,10,0.4,0.5
2022-04-14T18:00:00,1602A,124.3933,40.1461,丹东市,元宝山,,31,26,27,10,15,106,97,96,96,12,16,10,10,0.3,0.4
2022-04-14T18:00:00,1603A,124.3633,40.1092,丹东市,民主桥,,33,33,28,18,14,104,91,96,96,13,18,10,10,0.5,0.6
2022-04-14T18:00:00,1604A,122.0303,41.1489,盘锦市,开发区,颗粒物(PM10),60,70,62,41,47,146,116,132,132,21,27,7,11,0.7,0.8
2022-04-14T18:00:00,1605A,122.0485,41.0883,盘锦市,兴隆台,颗粒物(PM10),72,94,66,39,47,148,117,130,130,22,29,8,12,0.7,0.7
2022-04-14T18:00:00,1606A,121.8297,41.1028,盘锦市,新生街道,细颗粒物(PM2.5),85,87,66,63,57,158,113,137,137,31,38,12,12,0.8,0.8
2022-04-14T18:00:00,1607A,120.9092,40.7136,葫芦岛市,龙港区,颗粒物(PM10),58,65,95,16,62,151,105,126,126,16,43,13,44,0.4,0.8
2022-04-14T18:00:00,1608A,120.8392,40.7514,葫芦岛市,化工街,,,74,107,31,53,154,101,131,131,12,41,6,15,,0.9
2022-04-14T18:00:00,1609A,120.8341,40.7073,葫芦岛市,新区,颗粒物(PM10),55,60,88,14,65,143,105,121,121,19,49,10,20,0.4,0.7
2022-04-14T18:00:00,1610A,120.8695,40.7677,葫芦岛市,东城区,,40,40,98,13,58,152,98,129,128,17,37,7,18,0.4,0.7
2022-04-14T18:00:00,1611A,118.5819,24.9117,泉州市,涂山街,,,,28,3,23,138,106,109,109,8,28,8,14,0.6,0.7
2022-04-14T18:00:00,1612A,118.5972,24.8978,泉州市,津头埔,,,,41,7,24,131,99,104,104,13,29,9,19,0.5,0.6
2022-04-14T18:00:00,1613A,118.6663,24.9424,泉州市,万安,,32,15,35,8,23,127,101,100,100,5,22,9,11,0.7,0.8
2022-04-14T18:00:00,1614A,118.6117,24.9604,泉州市,清源山(对照点),,,15,31,3,23,149,107,111,111,10,22,8,11,,0.7
2022-04-14T18:00:00,1616A,117.6795,36.229,济南市,技术学院,颗粒物(PM10),58,66,48,30,24,130,127,117,117,21,31,14,16,0.5,0.5
2022-04-14T18:00:00,1618A,118.3429,35.0532,临沂市,沂河小区,,48,48,46,19,27,127,103,113,113,13,16,10,10,0.3,0.3
2022-04-14T18:00:00,1619A,118.295,35.0583,临沂市,鲁南制药厂,,39,39,34,17,19,124,115,114,114,17,18,8,9,0.6,0.6
2022-04-14T18:00:00,1620A,118.2794,34.9976,临沂市,新光毛纺厂,,46,46,41,18,20,115,104,105,105,14,15,4,5,0.4,0.5
2022-04-14T18:00:00,1621A,118.3956,35.0888,临沂市,河东保险公司,,41,41,42,23,22,119,106,110,110,22,26,7,7,0.6,0.6
2022-04-14T18:00:00,1622A,116.3032,37.4674,德州市,儿童乐园,,48,48,47,27,29,114,114,99,99,25,27,8,14,0.4,0.4
2022-04-14T18:00:00,1624A,116.2991,37.4451,德州市,监理站,,50,50,46,34,33,121,116,105,105,19,19,7,14,0.4,0.5
2022-04-14T18:00:00,1625A,115.9848,36.4372,聊城市,区政府,,35,35,53,12,24,122,102,86,86,17,30,9,17,0.3,0.5
2022-04-14T18:00:00,1628A,118.0062,37.3803,滨州市,市环保局,,41,33,49,18,32,136,131,130,130,16,20,9,17,2.6,2.7
2022-04-14T18:00:00,1629A,118.0018,37.3617,滨州市,第二水厂,,,35,57,,,118,110,112,112,14,20,10,20,0.6,0.7
2022-04-14T18:00:00,1630A,117.9776,37.393,滨州市,北中新校,,35,35,58,11,32,112,107,104,104,19,25,9,14,0.4,0.5
2022-04-14T18:00:00,1631A,118.0414,36.8103,淄博市,人民公园,细颗粒物(PM2.5),62,61,44,44,31,134,116,123,123,24,27,12,14,0.3,0.3
2022-04-14T18:00:00,1633A,117.8525,36.4847,淄博市,双山,细颗粒物(PM2.5),69,77,65,50,41,139,124,120,120,30,40,14,15,0.7,0.7
2022-04-14T18:00:00,1634A,117.9592,36.6331,淄博市,气象站,颗粒物(PM10),60,70,79,41,38,144,121,124,124,27,42,19,25,0.4,0.8
2022-04-14T18:00:00,1635A,118.3092,36.8194,淄博市,莆田园,颗粒物(PM10),62,73,54,36,31,166,121,140,140,23,27,11,14,0.4,1.1
2022-04-14T18:00:00,1637A,117.558,34.8438,枣庄市,市中区政府,,39,39,64,7,23,132,116,121,121,8,23,9,8,0.5,0.6
2022-04-14T18:00:00,1638A,117.2852,34.7837,枣庄市,薛城环保局,颗粒物(PM10),66,81,68,29,31,130,94,111,111,30,40,14,16,0.3,0.4
2022-04-14T18:00:00,1639A,117.5852,34.7745,枣庄市,峄城区政府,,,46,58,9,22,134,108,119,119,,31,15,13,0.3,0.4
2022-04-14T18:00:00,1640A,117.7276,34.5578,枣庄市,台儿庄区环保局,,46,46,48,22,24,115,104,101,101,25,28,9,10,0.7,0.7
2022-04-14T18:00:00,1641A,117.4518,35.0992,枣庄市,山亭区环保局,颗粒物(PM10),52,53,49,15,21,116,95,106,105,24,18,8,10,0.6,0.5
2022-04-14T18:00:00,1642A,121.2514,37.5639,烟台市,开发区,,,,39,,21,96,61,64,63,,33,3,5,0.5,0.4
2022-04-14T18:00:00,1643A,121.3719,37.5433,烟台市,轴承厂,,36,36,38,24,24,89,70,76,76,22,32,6,8,0.6,0.6
2022-04-14T18:00:00,1644A,121.3181,37.5436,烟台市,西郊化工站,,36,36,45,17,24,79,66,72,72,23,38,7,13,0.3,0.2
2022-04-14T18:00:00,1645A,121.4478,37.4822,烟台市,莱山环保局,,44,44,29,17,13,93,64,81,67,30,24,4,6,0.5,0.4
2022-04-14T18:00:00,1646A,121.2611,37.4967,烟台市,福山环保局,,,,48,,20,86,78,76,76,17,36,,7,0.6,0.7
2022-04-14T18:00:00,1650A,119.1437,36.7023,潍坊市,环保局,颗粒物(PM10),60,70,44,41,29,136,131,129,129,27,22,21,8,0.8,0.5
2022-04-14T18:00:00,1653A,116.6251,35.4302,济宁市,火炬城,颗粒物(PM10),54,57,54,22,25,111,47,77,70,35,27,14,14,0.8,0.7
2022-04-14T18:00:00,1655A,116.5491,35.4042,济宁市,电化厂,颗粒物(PM10),63,76,63,27,32,103,42,67,59,39,37,9,10,1.0,0.8
2022-04-14T18:00:00,1656A,117.1437,36.1937,泰安市,监测站,颗粒物(PM10),51,51,45,35,30,122,120,112,112,10,18,14,17,0.5,0.5
2022-04-14T18:00:00,1657A,117.0885,36.2017,泰安市,人口学校,,39,39,45,17,22,106,102,99,99,17,22,8,8,0.6,0.6
2022-04-14T18:00:00,1658A,117.1089,36.1758,泰安市,电力学校,,,44,40,22,22,119,116,110,110,16,21,,13,0.4,0.4
2022-04-14T18:00:00,1659A,119.471,35.4209,日照市,监测站,,34,34,41,13,20,100,81,90,90,23,24,4,5,0.3,0.4
2022-04-14T18:00:00,1660A,119.523,35.4216,日照市,市政府广场,,31,27,38,11,19,108,98,95,95,14,18,4,6,0.5,0.5
2022-04-14T18:00:00,1661A,119.5587,35.4044,日照市,港务局,,36,9,32,7,14,118,113,107,107,9,15,3,5,0.3,0.4
2022-04-14T18:00:00,1662A,122.1214,37.4236,威海市,华夏技校,,31,31,23,17,16,92,51,71,68,38,22,3,4,0.4,0.3
2022-04-14T18:00:00,1663A,122.0508,37.5236,威海市,山大分校,,24,10,16,10,9,86,75,60,60,16,26,5,5,0.2,0.2
2022-04-14T18:00:00,1664A,122.1067,37.5072,威海市,市监测站,,23,22,21,13,15,95,71,74,73,22,20,6,6,0.4,0.3
2022-04-14T18:00:00,1666A,118.6614,37.4309,东营市,市环保局,,36,31,47,12,32,146,115,136,135,16,19,7,8,0.4,0.5
2022-04-14T18:00:00,1669A,113.5824,24.7733,韶关市,市八中,,37,29,15,18,7,128,117,120,120,10,10,30,10,0.4,0.5
2022-04-14T18:00:00,1671A,113.5917,24.7972,韶关市,园林处,,36,19,15,16,12,120,113,113,113,6,6,32,10,0.6,0.6
2022-04-14T18:00:00,1672A,113.6735,24.7791,韶关市,韶关学院,,40,14,12,17,8,129,126,124,124,8,10,10,16,0.6,0.7
2022-04-14T18:00:00,1673A,113.5971,24.6863,韶关市,曲江监测站,,38,14,15,19,9,135,120,123,123,5,11,11,10,0.5,0.5
2022-04-14T18:00:00,1674A,116.6794,23.3667,汕头市,金平子站,颗粒物(PM10),52,54,34,20,12,154,154,129,129,18,17,10,10,0.6,0.5
2022-04-14T18:00:00,1675A,116.7244,23.3633,汕头市,龙湖子站,,50,50,30,15,10,145,145,119,119,21,20,7,8,0.7,0.6
2022-04-14T18:00:00,1676A,116.7258,23.2775,汕头市,濠江子站,,50,45,33,21,12,160,160,132,132,12,16,10,11,0.8,0.8
2022-04-14T18:00:00,1677A,116.7519,23.4714,汕头市,澄海子站,细颗粒物(PM2.5),53,46,30,37,16,152,152,113,113,16,19,8,8,0.7,0.7
2022-04-14T18:00:00,1678A,116.6092,23.2539,汕头市,潮阳子站,颗粒物(PM10),52,54,33,7,11,154,154,136,136,12,13,11,11,0.6,0.5
2022-04-14T18:00:00,1680A,110.3539,21.2706,湛江市,湛江影剧院,,43,43,45,22,29,115,112,102,102,10,14,6,15,0.5,0.5
2022-04-14T18:00:00,1681A,110.3928,21.2228,湛江市,市环境监测站,,40,37,45,21,32,128,126,112,112,8,13,6,17,0.4,0.4
2022-04-14T18:00:00,1682A,110.4019,21.1997,湛江市,环保局宿舍,,40,34,41,20,29,127,127,108,108,7,14,5,12,0.5,0.5
2022-04-14T18:00:00,1683A,110.4111,21.2028,湛江市,霞山游泳场,,35,33,39,20,30,118,111,101,101,12,13,6,11,0.6,0.6
2022-04-14T18:00:00,1684A,110.3316,21.2679,湛江市,麻章区环保局,颗粒物(PM10),53,55,51,21,29,120,112,106,106,14,15,6,17,0.6,0.6
2022-04-14T18:00:00,1685A,110.4558,21.2567,湛江市,坡头区环保局,,43,43,45,24,32,129,128,115,115,6,13,4,12,0.5,0.6
2022-04-14T18:00:00,1686A,111.0286,21.4688,茂名市,电白南海,,39,39,35,22,19,130,122,110,110,32,17,6,7,1.0,0.6
2022-04-14T18:00:00,1687A,110.9294,21.6533,茂名市,茂石化七小,,46,46,42,31,26,122,114,109,109,16,15,8,9,0.7,0.6
2022-04-14T18:00:00,1688A,110.9107,21.6687,茂名市,健康路,,,,37,,24,125,105,109,109,,10,,9,0.8,0.7
2022-04-14T18:00:00,1689A,110.8592,21.6828,茂名市,高岭,颗粒物(PM10),51,51,48,19,18,127,115,113,113,12,14,11,12,0.6,0.7
2022-04-14T18:00:00,1690A,116.1231,24.3284,梅州市,梅江月梅,,27,16,14,4,8,110,86,96,96,12,10,6,5,0.5,0.4
2022-04-14T18:00:00,1691A,116.0797,24.2719,梅州市,梅县新城,,29,22,15,13,11,110,90,95,95,12,12,5,5,0.5,0.5
2022-04-14T18:00:00,1692A,116.1248,24.2654,梅州市,环境监控中心,,30,23,13,2,8,114,96,98,98,13,12,5,5,0.6,0.5
2022-04-14T18:00:00,1693A,115.3653,22.775,汕尾市,市环保局,,40,26,20,15,10,125,125,98,98,11,8,8,7,0.7,0.6
2022-04-14T18:00:00,1694A,115.3706,22.7898,汕尾市,市政府,,42,13,18,4,9,132,132,106,106,8,7,7,6,0.5,0.4
2022-04-14T18:00:00,1695A,115.3622,22.7925,汕尾市,新城中学,,44,21,20,19,13,140,140,100,100,6,5,6,5,0.7,0.6
2022-04-14T18:00:00,1696A,114.6778,23.7569,河源市,源西(对照点),,36,32,14,14,7,117,114,110,110,8,11,4,3,0.7,0.7
2022-04-14T18:00:00,1697A,114.6944,23.7586,河源市,东埔,,37,24,14,13,10,121,116,112,112,11,10,5,4,0.7,0.7
2022-04-14T18:00:00,1698A,114.6892,23.7233,河源市,老城,,38,25,13,9,7,126,121,118,118,10,8,4,3,0.8,0.8
2022-04-14T18:00:00,1699A,111.9797,21.8593,阳江市,鸳鸯湖(对照点),,43,39,27,20,13,156,137,135,135,6,10,8,8,0.5,0.5
2022-04-14T18:00:00,1701A,111.9491,21.8658,阳江市,马南垌,,42,34,29,26,16,143,132,126,126,10,12,6,6,0.7,0.6
2022-04-14T18:00:00,1702A,113.0426,23.691,清远市,环保大楼(对照点),,45,18,11,12,8,150,141,134,134,8,6,8,8,0.8,0.6
2022-04-14T18:00:00,1703A,113.0208,23.7106,清远市,凤城街办,,41,23,12,12,7,146,129,130,130,12,8,8,9,0.8,0.7
2022-04-14T18:00:00,1705A,116.6367,23.6719,潮州市,西园路(对照点),,26,24,26,5,15,94,82,85,85,6,11,7,8,0.7,0.7
2022-04-14T18:00:00,1706A,116.6447,23.6706,潮州市,档案局,,26,24,25,7,15,93,83,84,84,8,12,7,10,0.7,0.7
2022-04-14T18:00:00,1708A,116.3701,23.5345,揭阳市,新兴,,32,28,30,12,18,115,100,101,101,9,16,8,8,0.7,0.9
2022-04-14T18:00:00,1709A,116.3264,23.5443,揭阳市,西马,,31,30,34,12,15,99,99,94,94,8,12,5,5,0.7,0.7
2022-04-14T18:00:00,1710A,116.3611,23.5626,揭阳市,东兴,,29,29,34,11,16,100,88,92,92,15,16,5,7,0.8,0.8
2022-04-14T18:00:00,1711A,116.4151,23.5294,揭阳市,渔湖,,37,37,33,12,21,110,93,96,96,12,15,8,8,0.6,0.7
2022-04-14T18:00:00,1712A,112.0392,22.9169,云浮市,新市府(对照点),,37,37,23,13,11,135,117,120,120,11,9,15,9,0.6,0.6
2022-04-14T18:00:00,1714A,112.0539,22.9539,云浮市,牧羊,,39,33,25,21,12,138,122,124,124,7,11,17,12,0.6,0.6
2022-04-14T18:00:00,1715A,102.575,24.3711,玉溪市,东风水库,细颗粒物(PM2.5),62,68,52,44,30,134,125,126,126,11,15,7,8,0.5,0.7
2022-04-14T18:00:00,1718A,115.4208,35.2464,菏泽市,气象局,,,,84,,40,122,71,86,77,19,36,24,15,0.1,0.5
2022-04-14T18:00:00,1719A,115.4747,35.2375,菏泽市,市政协,颗粒物(PM10),53,55,68,18,29,129,82,82,82,20,27,9,15,0.3,0.5
2022-04-14T18:00:00,1721A,113.3819,40.1097,大同市,果树场(对照点),,32,25,28,5,7,105,102,97,97,4,6,5,7,0.3,0.3
2022-04-14T18:00:00,1723A,113.2994,40.0758,大同市,云冈宾馆,,35,35,37,2,7,101,96,98,98,6,10,5,7,0.5,0.6
2022-04-14T18:00:00,1724A,113.3444,40.0917,大同市,大同大学,,30,27,36,11,9,99,95,96,96,6,12,8,11,0.2,0.2
2022-04-14T18:00:00,1725A,113.2661,40.1269,大同市,安家小村,,33,33,30,2,6,106,102,102,102,6,9,8,11,0.2,0.2
2022-04-14T18:00:00,1726A,113.2711,40.0844,大同市,教育学院,,35,35,42,2,9,96,93,93,93,9,12,5,7,0.3,0.3
2022-04-14T18:00:00,1727A,113.1147,36.1547,长治市,清华站,,37,37,47,19,27,111,109,101,101,9,20,9,9,0.3,0.7
2022-04-14T18:00:00,1728A,113.1031,36.1989,长治市,监测站,,,40,48,19,29,119,119,113,113,7,21,,9,0.5,0.7
2022-04-14T18:00:00,1730A,113.0886,36.2125,长治市,审计局,,38,34,42,24,28,119,119,107,107,7,19,8,10,0.8,1.1
2022-04-14T18:00:00,1731A,113.0844,36.1856,长治市,长治八中,,39,39,52,22,27,114,114,105,105,12,21,8,10,0.6,0.9
2022-04-14T18:00:00,1733A,111.5531,36.0783,临汾市,临钢医院,,49,20,59,34,48,124,86,86,86,13,17,4,7,0.6,0.7
2022-04-14T18:00:00,1734A,111.5028,36.0714,临汾市,技工学校,,32,15,55,22,37,125,88,89,89,15,18,5,9,0.5,0.5
2022-04-14T18:00:00,1736A,111.5018,36.0855,临汾市,市委,,38,19,54,26,36,120,92,92,92,12,18,4,6,0.7,0.6
2022-04-14T18:00:00,1738A,113.5758,37.8572,阳泉市,市中心,,34,32,72,13,32,116,108,105,105,15,47,10,17,0.4,0.6
2022-04-14T18:00:00,1739A,113.4894,37.8731,阳泉市,赛鱼,,36,36,55,23,31,119,104,102,102,18,43,11,15,0.3,0.7
2022-04-14T18:00:00,1740A,113.5819,37.8486,阳泉市,南庄,,36,35,83,25,38,120,107,105,105,15,37,5,23,0.5,0.8
2022-04-14T18:00:00,1742A,113.5614,37.8703,阳泉市,平坦,,40,40,75,8,33,116,103,100,100,16,51,10,18,0.5,0.8
2022-04-14T18:00:00,1743A,113.5158,37.8392,阳泉市,大阳泉,,35,25,49,23,35,122,109,109,109,13,21,13,18,0.3,0.6
2022-04-14T18:00:00,1744A,118.9233,42.2816,赤峰市,松山一中,细颗粒物(PM2.5),54,43,54,38,31,110,94,98,98,14,19,10,14,0.5,0.6
2022-04-14T18:00:00,1745A,118.9576,42.2728,赤峰市,哈达街,,43,43,50,30,26,110,95,98,98,10,13,8,12,0.5,0.6
2022-04-14T18:00:00,1746A,118.8788,42.2554,赤峰市,天义路,,45,38,45,31,25,104,94,97,97,10,12,8,9,0.5,0.5
2022-04-14T18:00:00,1748A,123.044,41.1196,鞍山市,深沟寺,细颗粒物(PM2.5),59,64,86,42,58,160,132,136,136,19,26,8,15,0.7,1.1
2022-04-14T18:00:00,1749A,123.011,41.0931,鞍山市,太阳城,颗粒物(PM10),58,66,75,40,59,161,120,139,139,23,20,16,15,0.9,0.9
2022-04-14T18:00:00,1750A,123.0485,41.1442,鞍山市,太平,细颗粒物(PM2.5),92,75,87,68,73,149,122,129,129,23,35,12,20,0.6,1.1
2022-04-14T18:00:00,1751A,122.9642,41.0971,鞍山市,铁西三道街,颗粒物(PM10),58,65,100,37,68,159,121,137,137,25,45,18,24,1.0,1.7
2022-04-14T18:00:00,1752A,122.9341,41.0833,鞍山市,铁西工业园区,"颗粒物(PM10),细颗粒物(PM2.5)",57,64,106,40,75,169,131,144,144,17,37,20,21,0.7,1.2
2022-04-14T18:00:00,1753A,123.022,41.0821,鞍山市,明达新区,细颗粒物(PM2.5),58,63,84,41,58,154,121,134,134,23,25,16,14,0.9,1
2022-04-14T18:00:00,1754A,123.1289,41.0228,鞍山市,千山(对照点),细颗粒物(PM2.5),54,48,44,38,32,156,121,131,131,15,16,11,12,0.8,0.9
2022-04-14T18:00:00,1755A,123.7977,41.8491,抚顺市,望花区,颗粒物(PM10),73,96,65,48,40,130,102,115,115,13,24,12,17,0.6,0.8
2022-04-14T18:00:00,1756A,123.9161,41.8822,抚顺市,顺城区,颗粒物(PM10),63,75,53,40,35,121,105,113,113,16,30,5,10,0.4,0.6
2022-04-14T18:00:00,1757A,124.0436,41.8611,抚顺市,东洲区,颗粒物(PM10),63,75,44,38,26,140,114,126,126,14,15,7,11,0.5,0.6
2022-04-14T18:00:00,1758A,123.9247,41.8642,抚顺市,新抚区,,,,64,61,41,148,116,135,135,14,23,,12,,0.7
2022-04-14T18:00:00,1759A,124.0972,41.8961,抚顺市,大伙房水库,,,94,37,44,24,146,120,127,127,,9,6,8,0.4,0.5
2022-04-14T18:00:00,1760A,123.7086,41.8391,抚顺市,沈抚新城,,,85,67,,,137,112,126,126,10,20,6,13,1.0,1.2
2022-04-14T18:00:00,1761A,123.8275,41.3064,本溪市,大峪,颗粒物(PM10),58,65,46,26,26,142,124,124,124,16,25,14,16,0.6,0.9
2022-04-14T18:00:00,1762A,123.7567,41.3325,本溪市,溪湖,颗粒物(PM10),55,60,73,30,36,145,121,122,122,21,37,10,17,0.6,1.5
2022-04-14T18:00:00,1763A,123.7169,41.3094,本溪市,彩屯,颗粒物(PM10),56,62,59,35,38,153,121,132,132,18,27,11,18,0.6,1.3
2022-04-14T18:00:00,1764A,123.7669,41.2864,本溪市,东明,颗粒物(PM10),56,61,55,28,28,144,120,126,126,19,38,9,16,0.6,1.1
2022-04-14T18:00:00,1765A,123.7992,41.2664,本溪市,新立屯,颗粒物(PM10),68,85,51,28,25,150,124,129,129,15,33,12,16,0.6,0.9
2022-04-14T18:00:00,1766A,123.8142,41.3472,本溪市,威宁,颗粒物(PM10),64,77,65,27,32,132,116,113,113,15,27,12,14,0.7,1.1
2022-04-14T18:00:00,1767A,121.1115,41.0879,锦州市,南山,颗粒物(PM10),67,84,72,34,53,126,99,108,108,14,26,11,12,0.6,0.7
2022-04-14T18:00:00,1768A,121.0533,40.8434,锦州市,开发区,颗粒物(PM10),89,128,95,18,65,127,90,114,113,27,34,10,33,0.6,0.8
2022-04-14T18:00:00,1769A,121.1836,41.1119,锦州市,百股街道,颗粒物(PM10),75,99,70,32,49,165,122,133,133,15,25,10,12,0.7,0.7
2022-04-14T18:00:00,1770A,121.1178,41.1222,锦州市,天安街道,颗粒物(PM10),74,98,74,38,44,140,114,123,123,15,33,13,14,0.5,0.6
2022-04-14T18:00:00,1771A,121.1303,41.1386,锦州市,北湖公园,颗粒物(PM10),74,97,70,36,45,136,113,115,115,12,20,12,13,0.5,0.6
2022-04-14T18:00:00,1772A,126.54,43.8622,吉林市,哈达湾,细颗粒物(PM2.5),113,102,39,85,30,147,128,124,124,19,12,10,11,0.7,0.7
2022-04-14T18:00:00,1773A,126.5844,43.8358,吉林市,东局子,细颗粒物(PM2.5),130,138,40,99,31,144,119,117,117,25,14,22,7,0.8,0.6
2022-04-14T18:00:00,1774A,126.5052,43.8245,吉林市,电力学院,细颗粒物(PM2.5),117,111,45,88,32,162,138,139,139,26,16,19,13,0.9,0.7
2022-04-14T18:00:00,1775A,126.6133,43.8972,吉林市,江北,细颗粒物(PM2.5),175,153,43,132,34,145,122,120,120,23,11,12,7,0.8,0.6
2022-04-14T18:00:00,1776A,126.555,43.8306,吉林市,江南公园,细颗粒物(PM2.5),123,122,40,93,33,141,123,117,117,19,15,9,8,0.8,0.7
2022-04-14T18:00:00,1778A,126.7061,43.7133,吉林市,丰满(对照点),细颗粒物(PM2.5),199,168,24,149,21,140,140,114,114,18,4,10,5,0.8,0.4
2022-04-14T18:00:00,1779A,123.9305,47.3636,齐齐哈尔市,安居小区,,34,26,53,14,35,109,108,103,103,12,23,1,2,0.5,0.6
2022-04-14T18:00:00,1780A,123.9488,47.3386,齐齐哈尔市,中心广场,,31,19,39,15,30,104,99,98,98,10,15,7,8,0.5,0.5
2022-04-14T18:00:00,1781A,123.9483,47.3227,齐齐哈尔市,农牧车辆厂,,31,31,47,17,28,106,99,99,99,18,22,42,25,0.3,0.4
2022-04-14T18:00:00,1783A,123.945,47.2988,齐齐哈尔市,市环境监测站,,32,25,48,13,33,100,100,92,92,8,21,4,26,0.4,0.6
2022-04-14T18:00:00,1784A,129.61,44.561,牡丹江市,环保大楼,,30,23,20,10,10,104,95,99,99,4,10,2,6,0.2,0.3
2022-04-14T18:00:00,1785A,129.6115,44.5782,牡丹江市,文化广场,,30,19,25,12,17,106,96,101,100,5,12,2,7,0.1,0.2
2022-04-14T18:00:00,1786A,129.5904,44.5963,牡丹江市,第一医院,,30,20,26,21,24,102,92,98,98,5,9,3,6,0.5,0.5
2022-04-14T18:00:00,1787A,129.6364,44.6075,牡丹江市,机车工厂,,28,21,32,5,15,104,89,98,98,7,12,5,11,0.1,0.2
2022-04-14T18:00:00,1788A,129.6386,44.5462,牡丹江市,第一中学,,30,17,17,6,11,108,93,102,102,11,12,5,3,0.3,0.2
2022-04-14T18:00:00,1789A,124.81117,46.03138,大庆市,大同区,细颗粒物(PM2.5),65,67,36,47,29,103,92,98,98,18,9,5,4,0.6,0.5
2022-04-14T18:00:00,1790A,125.129,46.533,大庆市,龙凤区,,28,17,20,14,15,92,89,90,90,8,9,4,5,0.3,0.3
2022-04-14T18:00:00,1791A,124.902,46.408,大庆市,红岗区,,29,19,25,11,15,95,92,92,92,4,10,5,6,0.9,0.9
2022-04-14T18:00:00,1792A,125.153,46.586,大庆市,萨尔图区,,33,17,21,23,24,97,84,92,92,16,8,5,5,0.4,0.4
2022-04-14T18:00:00,1793A,124.9042,46.6215,大庆市,让胡路区,,30,16,29,15,16,96,94,93,93,8,16,5,5,0.8,1
2022-04-14T18:00:00,1794A,118.3606,31.3519,芜湖市,监测站,,42,42,41,13,18,94,93,87,87,26,26,10,9,0.6,0.7
2022-04-14T18:00:00,1795A,118.3714,31.4134,芜湖市,科创中心,,34,34,36,14,20,100,92,86,86,22,25,8,9,0.7,0.7
2022-04-14T18:00:00,1796A,118.3673,31.3131,芜湖市,四水厂,,46,46,42,17,22,99,89,89,89,27,23,9,9,0.7,0.6
2022-04-14T18:00:00,1798A,118.5092,31.6837,马鞍山市,湖东路四小,,32,32,30,15,19,109,99,101,101,12,14,4,10,0.2,0.7
2022-04-14T18:00:00,1799A,118.5024,31.6449,马鞍山市,开发区,,35,35,35,17,14,104,94,91,91,26,28,7,14,0.7,1
2022-04-14T18:00:00,1800A,118.5228,31.7231,马鞍山市,慈湖,,,,35,,24,106,85,94,94,24,20,6,8,,0.7
2022-04-14T18:00:00,1802A,118.6245,31.7241,马鞍山市,濮塘(对照点),,38,38,34,14,15,97,86,87,87,9,9,6,11,0.1,0.2
2022-04-14T18:00:00,1803A,115.9872,29.6815,九江市,十里,,,35,30,26,18,123,108,113,113,17,14,,7,0.3,0.4
2022-04-14T18:00:00,1804A,115.9584,29.7046,九江市,茅山头,,34,27,29,13,11,118,107,108,108,13,13,3,3,0.3,0.3
2022-04-14T18:00:00,1805A,115.9877,29.7295,九江市,西园,,30,30,30,15,16,104,92,93,93,19,15,8,9,0.4,0.5
2022-04-14T18:00:00,1806A,116.0172,29.6547,九江市,五七二七厂,,31,27,28,7,10,104,98,97,97,6,5,5,5,0.4,0.4
2022-04-14T18:00:00,1808A,115.9114,29.6038,九江市,综合工业园,,45,45,31,17,17,124,117,112,112,9,11,10,10,0.4,0.5
2022-04-14T18:00:00,1809A,116.0721,29.7535,九江市,石化总厂,,,37,41,8,12,104,101,101,101,,13,5,5,0.4,0.3
2022-04-14T18:00:00,1810A,115.9773,29.5698,九江市,庐山气象台(对照点),,34,26,19,22,11,131,107,121,108,4,3,2,4,0.3,0.2
2022-04-14T18:00:00,1812A,112.3931,34.6516,洛阳市,市委党校,颗粒物(PM10),59,68,75,26,28,114,106,99,99,19,25,5,8,0.5,0.5
2022-04-14T18:00:00,1814A,112.4657,34.6871,洛阳市,豫西宾馆,颗粒物(PM10),55,60,70,31,31,115,101,97,97,16,25,7,9,0.3,0.5
2022-04-14T18:00:00,1815A,112.494,34.6886,洛阳市,河南林校,颗粒物(PM10),59,67,81,25,28,114,107,99,99,16,29,6,9,0.3,0.3
2022-04-14T18:00:00,1816A,112.3844,34.623,洛阳市,开发区管委会,颗粒物(PM10),57,64,69,29,32,118,108,99,99,19,28,3,6,0.3,0.4
2022-04-14T18:00:00,1817A,112.4267,34.6258,洛阳市,市委新办公区,颗粒物(PM10),57,63,75,26,29,110,95,90,90,17,27,4,7,0.4,0.4
2022-04-14T18:00:00,1818A,114.4839,36.0621,安阳市,棉研所(对照点),,42,42,55,29,29,117,111,102,102,14,26,5,11,0.5,0.5
2022-04-14T18:00:00,1819A,114.3551,36.1017,安阳市,红庙街,,46,46,47,22,22,122,114,108,108,20,22,8,11,0.6,0.5
2022-04-14T18:00:00,1820A,114.361,36.0681,安阳市,银杏小区,,49,48,46,34,29,126,106,110,110,22,21,7,11,0.5,0.3
2022-04-14T18:00:00,1824A,114.3389,34.7781,开封市,肿瘤医院,颗粒物(PM10),55,59,82,23,33,123,96,93,93,11,21,8,12,0.4,0.4
2022-04-14T18:00:00,1826A,114.2885,34.7965,开封市,世纪星幼儿园,颗粒物(PM10),53,56,65,25,36,121,99,92,92,11,24,10,14,0.5,0.6
2022-04-14T18:00:00,1828A,113.2269,35.2127,焦作市,市环保局,颗粒物(PM10),52,54,69,29,35,117,98,101,101,23,26,5,14,0.6,0.5
2022-04-14T18:00:00,1829A,113.2467,35.176,焦作市,高新区政府,,49,45,72,34,36,111,91,100,100,21,24,8,15,0.3,0.3
2022-04-14T18:00:00,1830A,113.1987,35.2703,焦作市,影视城(对照点),,45,45,54,30,29,104,93,84,84,6,10,5,9,0.5,0.6
2022-04-14T18:00:00,1832A,113.3257,33.742,平顶山市,新华旅馆,颗粒物(PM10),56,62,92,35,42,113,90,89,89,17,28,5,18,0.1,0.2
2022-04-14T18:00:00,1833A,113.2919,33.737,平顶山市,规划设计院,颗粒物(PM10),67,83,83,19,24,110,101,101,101,13,23,6,14,0.3,0.3
2022-04-14T18:00:00,1834A,113.182,33.774,平顶山市,平顶山工学院,细颗粒物(PM2.5),59,65,93,42,42,115,97,91,91,15,29,2,9,0.5,0.4
2022-04-14T18:00:00,1835A,111.1922,34.7752,三门峡市,市政府,细颗粒物(PM2.5),80,82,96,59,27,117,91,108,107,32,22,12,10,0.7,0.5
2022-04-14T18:00:00,1836A,111.1587,34.7942,三门峡市,开发区,细颗粒物(PM2.5),70,74,80,51,28,109,93,103,103,25,17,12,10,0.6,0.4
2022-04-14T18:00:00,1838A,111.143,34.7955,三门峡市,风景区(对照点),颗粒物(PM10),62,73,74,42,21,111,92,101,101,27,19,13,10,0.6,0.4
2022-04-14T18:00:00,1840A,111.2992,30.6981,宜昌市,白龙岗,,,31,44,,15,100,56,56,56,34,29,5,6,,0.2
2022-04-14T18:00:00,1841A,111.3549,30.6465,宜昌市,伍家岗,,27,27,48,17,19,105,62,58,58,22,30,4,5,0.4,0.4
2022-04-14T18:00:00,1842A,111.2628,30.6961,宜昌市,点军区,,23,22,49,9,17,124,73,71,71,20,20,7,8,0.5,0.4
2022-04-14T18:00:00,1843A,111.3275,30.7819,宜昌市,夷陵区,,28,28,48,17,16,109,82,60,60,16,20,3,3,0.2,0.2
2022-04-14T18:00:00,1844A,112.2494,30.3197,荆州市,市图书馆,,32,32,59,16,19,100,71,77,60,29,28,7,10,0.6,0.6
2022-04-14T18:00:00,1845A,112.2008,30.3544,荆州市,市委党校,,43,25,56,30,31,107,62,73,58,26,21,6,9,0.6,0.6
2022-04-14T18:00:00,1847A,113.1094,29.3578,岳阳市,南湖风景区,颗粒物(PM10),52,54,47,33,28,98,57,80,63,27,22,10,10,0.8,0.9
2022-04-14T18:00:00,1848A,113.1493,29.4251,岳阳市,城陵矶,,,56,42,22,23,103,59,68,59,,19,11,13,0.7,0.7
2022-04-14T18:00:00,1849A,113.1497,29.3575,岳阳市,开发区,,45,45,46,26,22,97,60,76,66,23,17,10,10,0.8,0.8
2022-04-14T18:00:00,1850A,113.2621,29.4758,岳阳市,云溪区,,46,46,37,25,24,93,62,62,61,21,16,8,11,0.7,0.7
2022-04-14T18:00:00,1851A,112.9943,29.4402,岳阳市,君山区,,43,41,44,30,30,104,68,76,68,15,14,7,8,0.6,0.6
2022-04-14T18:00:00,1852A,113.2117,29.355,岳阳市,金凤水库(对照点),颗粒物(PM10),51,51,39,28,22,93,59,80,63,20,13,6,6,0.5,0.5
2022-04-14T18:00:00,1854A,111.6975,28.9703,常德市,市二中,,23,18,58,12,28,104,71,78,78,10,10,5,8,0.7,0.7
2022-04-14T18:00:00,1857A,111.7158,29.1456,常德市,白鹤山(对照点),,26,26,55,13,29,98,82,94,80,8,8,3,6,0.6,0.6
2022-04-14T18:00:00,1858A,110.5319,29.1217,张家界市,永定新区,,37,37,52,20,30,120,71,83,75,17,11,2,3,0.7,0.7
2022-04-14T18:00:00,1861A,110.4417,29.315,张家界市,袁家界(对照点),,30,22,40,5,21,124,96,119,94,4,3,4,5,0.1,0.1
2022-04-14T18:00:00,1862A,110.4144,25.3167,桂林市,电子科大尧山校区(对照点),,37,37,26,23,16,113,113,109,109,5,7,6,11,0.6,0.5
2022-04-14T18:00:00,1863A,110.2819,25.2697,桂林市,监测站,,38,29,27,26,12,126,117,117,117,11,8,9,11,0.9,0.7
2022-04-14T18:00:00,1864A,110.3089,25.2708,桂林市,龙隐路小学,,38,36,22,25,14,128,121,119,119,8,8,8,13,0.7,0.7
2022-04-14T18:00:00,1865A,110.2869,25.2178,桂林市,八中,,38,36,24,26,18,129,119,118,118,8,7,10,11,0.9,0.8
2022-04-14T18:00:00,1866A,109.2262,21.588,北海市,牛尾岭水库(对照点),颗粒物(PM10),54,57,36,36,28,135,133,124,124,8,14,9,6,0.6,0.5
2022-04-14T18:00:00,1867A,109.1436,21.4086,北海市,海滩公园,,50,50,42,29,21,143,123,128,127,6,11,5,7,0.9,0.5
2022-04-14T18:00:00,1868A,109.0981,21.4661,北海市,新市环保局,细颗粒物(PM2.5),52,50,41,36,31,143,140,133,133,5,8,5,8,0.8,0.7
2022-04-14T18:00:00,1869A,109.1778,21.5233,北海市,北海工业园,颗粒物(PM10),63,75,51,29,29,148,146,134,134,6,11,6,13,0.7,0.9
2022-04-14T18:00:00,1870A,109.4856,24.3895,柳州市,柳东小学,,40,26,25,20,17,143,127,131,131,5,6,7,12,0.6,0.6
2022-04-14T18:00:00,1871A,109.4157,24.3277,柳州市,环保监测站,,40,24,26,18,13,136,128,129,129,11,10,6,7,0.6,0.6
2022-04-14T18:00:00,1872A,109.389,24.341,柳州市,河西水厂,,41,30,22,19,15,138,130,130,130,12,10,8,10,0.8,0.8
2022-04-14T18:00:00,1873A,109.4311,24.2921,柳州市,市四中,,39,36,27,19,12,131,124,124,124,8,9,7,10,0.7,0.7
2022-04-14T18:00:00,1874A,109.4006,24.3631,柳州市,市九中,,40,38,25,13,6,136,125,130,130,9,9,6,8,0.7,0.5
2022-04-14T18:00:00,1875A,109.4958,24.3134,柳州市,古亭山,,37,27,22,25,12,118,118,113,113,6,7,5,7,0.6,0.6
2022-04-14T18:00:00,1876A,109.5078,18.2489,三亚市,河东子站,,41,41,25,25,16,75,74,73,73,1,2,3,3,0.6,0.6
2022-04-14T18:00:00,1877A,109.4964,18.2681,三亚市,河西子站,,,,23,,17,80,67,72,72,3,3,3,3,,0.4
2022-04-14T18:00:00,1878A,104.7778,31.4741,绵阳市,富乐山,,19,5,52,1,22,81,58,81,56,6,15,5,5,0.5,0.5
2022-04-14T18:00:00,1879A,104.7563,31.4535,绵阳市,市人大,,14,0,55,7,25,77,44,72,44,23,30,7,8,0.5,0.5
2022-04-14T18:00:00,1880A,104.6697,31.4668,绵阳市,高新区自来水公司,,18,5,57,7,20,90,56,90,56,11,21,1,2,0.6,0.6
2022-04-14T18:00:00,1881A,104.7287,31.5075,绵阳市,三水厂,,18,13,63,9,30,71,57,71,57,8,22,3,3,0.6,0.6
2022-04-14T18:00:00,1882A,104.563,28.793,宜宾市,石马中学(对照点),,38,36,38,26,26,118,54,57,52,12,12,6,6,0.6,0.6
2022-04-14T18:00:00,1883A,104.6201,28.7728,宜宾市,市委,,40,36,40,28,27,121,49,54,46,18,18,6,6,0.6,0.6
2022-04-14T18:00:00,1884A,104.6055,28.793,宜宾市,宜宾四中,,38,35,43,26,27,102,42,55,44,31,26,5,6,0.6,0.6
2022-04-14T18:00:00,1885A,104.639,28.7562,宜宾市,市政府,,35,32,37,24,26,111,50,55,50,19,17,8,9,0.6,0.6
2022-04-14T18:00:00,1886A,104.5742,28.7199,宜宾市,黄金嘴,,35,35,36,21,24,114,43,59,49,17,13,8,8,0.5,0.5
2022-04-14T18:00:00,1888A,101.6891,26.571,攀枝花市,弄弄坪,颗粒物(PM10),57,63,61,32,29,109,108,96,96,13,24,15,15,1.1,1.5
2022-04-14T18:00:00,1889A,101.5769,26.5928,攀枝花市,河门口,颗粒物(PM10),54,58,55,32,29,110,108,92,88,12,24,9,19,0.6,1
2022-04-14T18:00:00,1890A,101.7169,26.585,攀枝花市,炳草岗,,49,37,50,34,31,110,104,96,96,18,37,14,16,0.6,0.8
2022-04-14T18:00:00,1891A,101.7369,26.5008,攀枝花市,仁和,颗粒物(PM10),53,55,50,33,30,110,104,104,104,21,18,7,5,0.8,0.6
2022-04-14T18:00:00,1893A,105.4324,28.9634,泸州市,九狮山(对照点),,38,38,38,10,17,119,28,53,33,23,20,5,7,0.4,0.5
2022-04-14T18:00:00,1894A,105.4427,28.9063,泸州市,小市上码头,,37,37,41,16,20,118,35,78,37,34,26,14,11,0.6,0.6
2022-04-14T18:00:00,1895A,105.4241,28.8573,泸州市,兰田宪桥,,20,20,40,10,19,112,35,78,36,20,20,7,13,0.7,0.7
2022-04-14T18:00:00,1896A,105.4379,28.8833,泸州市,市环监站,,13,12,39,5,18,109,41,78,29,24,25,3,7,0.4,0.5
2022-04-14T18:00:00,1901A,104.4239,31.1208,德阳市,东山公园,,20,20,63,9,29,70,46,70,50,10,23,4,8,0.5,0.5
2022-04-14T18:00:00,1902A,104.3826,31.1317,德阳市,西小区,,30,30,62,7,25,66,45,66,52,15,24,6,10,0.5,0.4
2022-04-14T18:00:00,1904A,104.3553,31.1091,德阳市,耐火材料厂,,18,18,60,9,29,76,50,76,54,15,26,6,11,0.5,0.4
2022-04-14T18:00:00,1905A,106.056,30.8064,南充市,西山风景区(对照点),,29,19,36,20,25,108,65,76,73,13,12,4,3,0.5,0.7
2022-04-14T18:00:00,1906A,106.0789,30.8023,南充市,南充市委,,21,21,43,13,21,92,54,66,65,16,11,3,3,0.5,0.6
2022-04-14T18:00:00,1907A,106.1031,30.8217,南充市,南充炼油厂,,24,24,42,6,19,102,71,76,76,6,8,3,2,0.4,0.4
2022-04-14T18:00:00,1908A,106.1064,30.7856,南充市,高坪区监测站,,25,13,35,17,22,90,55,68,68,11,13,4,4,0.4,0.5
2022-04-14T18:00:00,1909A,106.0642,30.7636,南充市,嘉陵区环保局,,22,22,33,7,19,122,69,72,72,11,14,2,3,0.5,0.6
2022-04-14T18:00:00,1910A,106.1087,30.8388,南充市,市环境监测站,,25,16,44,17,27,93,72,73,73,7,11,4,8,0.3,0.4
2022-04-14T18:00:00,1911A,106.9222,27.6869,遵义市,丁字口,,22,17,20,12,8,109,69,106,74,15,11,7,5,0.5,0.5
2022-04-14T18:00:00,1912A,106.9242,27.7019,遵义市,凤凰山,,24,11,17,12,15,105,74,104,70,8,8,5,5,0.5,0.4
2022-04-14T18:00:00,1913A,106.8906,27.6486,遵义市,忠庄,,22,17,21,15,15,101,67,96,69,11,12,1,2,0.3,0.2
2022-04-14T18:00:00,1914A,106.9231,27.6506,遵义市,舟水桥,,22,16,13,15,12,97,66,94,70,13,9,2,2,0.4,0.3
2022-04-14T18:00:00,1915A,106.9178,27.72,遵义市,干田坝,,25,21,16,17,13,108,44,107,69,28,10,6,4,0.8,0.6
2022-04-14T18:00:00,1916A,103.7897,25.5035,曲靖市,环境监测站,颗粒物(PM10),55,59,52,25,24,144,114,127,127,14,12,7,7,0.6,0.6
2022-04-14T18:00:00,1917A,103.8,25.5364,曲靖市,烟厂办公区,颗粒物(PM10),52,53,50,19,22,160,123,141,141,18,9,9,5,0.6,0.5
2022-04-14T18:00:00,1918A,108.7197,34.3956,咸阳市,气象站(对照点),颗粒物(PM10),59,68,83,32,31,122,76,83,71,24,27,7,8,0.5,0.7
2022-04-14T18:00:00,1919A,108.673,34.3155,咸阳市,实验中学,颗粒物(PM10),58,66,84,32,30,120,72,81,68,26,25,5,5,0.6,0.6
2022-04-14T18:00:00,1920A,108.7233,34.3617,咸阳市,师范学院,,,,81,,33,97,75,81,71,27,22,5,6,0.8,0.8
2022-04-14T18:00:00,1922A,109.0656,35.0994,铜川市,党校(对照点),,31,25,63,14,27,112,99,102,90,9,12,5,5,0.3,0.4
2022-04-14T18:00:00,1923A,109.0697,35.0697,铜川市,王益区政府,,34,30,65,13,28,120,107,106,97,11,10,8,6,0.3,0.4
2022-04-14T18:00:00,1924A,108.9344,34.9058,铜川市,新区管委会,,42,42,73,25,30,114,103,101,89,12,18,10,10,0.3,0.3
2022-04-14T18:00:00,1926A,109.4131,36.6275,延安市,枣园(对照点),,,,79,27,28,111,79,102,83,14,9,2,2,0.4,0.3
2022-04-14T18:00:00,1927A,109.4761,36.6028,延安市,延大医附院,,48,38,69,33,24,109,85,105,86,15,11,4,4,0.6,0.5
2022-04-14T18:00:00,1929A,109.5056,36.6106,延安市,百米大道,,44,44,69,27,28,102,74,102,74,22,15,6,4,0.7,0.5
2022-04-14T18:00:00,1930A,107.185,34.3063,宝鸡市,庙沟村(对照点),细颗粒物(PM2.5),60,50,63,43,41,122,58,86,63,17,14,4,4,0.5,0.5
2022-04-14T18:00:00,1931A,107.0708,34.3017,宝鸡市,竹园沟,,50,49,62,35,41,133,77,77,77,17,15,6,6,0.6,0.5
2022-04-14T18:00:00,1932A,107.1906,34.3672,宝鸡市,三陆医院,颗粒物(PM10),53,55,73,36,47,117,64,64,64,23,24,4,5,0.6,0.5
2022-04-14T18:00:00,1933A,107.1431,34.3547,宝鸡市,监测站,,46,43,70,32,43,123,68,67,67,25,24,3,4,0.6,0.5
2022-04-14T18:00:00,1935A,107.3906,34.3528,宝鸡市,陈仓区环保局家属楼,颗粒物(PM10),53,56,82,30,68,106,55,69,63,26,27,5,6,0.7,0.6
2022-04-14T18:00:00,1936A,107.2058,34.3497,宝鸡市,文理学院,颗粒物(PM10),52,53,77,32,45,102,66,72,69,24,23,6,7,0.5,0.4
2022-04-14T18:00:00,1937A,107.2386,34.3622,宝鸡市,三迪小学,颗粒物(PM10),54,57,76,36,43,112,66,69,69,26,26,7,8,0.5,0.4
2022-04-14T18:00:00,1938A,109.5293,34.5101,渭南市,农科所(对照点),颗粒物(PM10),53,56,157,24,33,111,55,78,70,30,21,6,8,0.3,0.4
2022-04-14T18:00:00,1939A,109.4974,34.4877,渭南市,日报社,颗粒物(PM10),54,58,139,22,29,119,71,83,81,19,13,8,10,0.4,0.4
2022-04-14T18:00:00,1940A,109.4636,34.493,渭南市,体育馆,,48,48,131,20,26,124,83,89,89,22,18,6,8,0.4,0.4
2022-04-14T18:00:00,1941A,109.4259,34.5023,渭南市,高新一小,颗粒物(PM10),68,85,103,17,26,114,86,89,89,14,14,5,7,0.3,0.4
2022-04-14T18:00:00,1943A,102.1725,38.5339,金昌市,新川苑,颗粒物(PM10),53,56,77,13,19,115,110,109,109,13,16,9,21,0.3,0.4
2022-04-14T18:00:00,1944A,102.1692,38.5167,金昌市,天庆家园,,42,42,67,7,15,110,107,101,101,11,14,17,24,0.4,0.4
2022-04-14T18:00:00,1945A,98.2908,39.7711,嘉峪关市,气象局,,39,39,34,9,11,112,112,98,98,4,11,8,12,0.3,0.3
2022-04-14T18:00:00,1947A,106.3394,38.817,石嘴山市,沙湖旅游区(对照点),颗粒物(PM10),77,104,119,35,39,122,122,113,113,4,23,5,11,0.2,0.6
2022-04-14T18:00:00,1948A,106.3668,39.0145,石嘴山市,大武口朝阳西街,,,90,102,50,41,123,123,106,106,11,28,10,24,,0.7
2022-04-14T18:00:00,1949A,106.7704,39.2282,石嘴山市,惠农南大街,颗粒物(PM10),52,53,73,20,27,115,114,102,102,10,22,10,12,0.4,0.4
2022-04-14T18:00:00,1950A,106.7099,39.1325,石嘴山市,红果子镇惠新街,,,,98,,31,114,114,102,102,7,25,9,12,,0.6
2022-04-14T18:00:00,1951A,84.895,45.6094,克拉玛依市,长征新村,颗粒物(PM10),90,130,119,6,10,102,102,92,92,4,13,8,8,0.3,0.4
2022-04-14T18:00:00,1952A,84.8988,45.5893,克拉玛依市,南林小区,颗粒物(PM10),134,218,128,21,15,116,113,101,101,6,20,5,5,0.3,0.4
2022-04-14T18:00:00,1954A,84.905,44.3396,克拉玛依市,独山子区,颗粒物(PM10),90,129,123,16,19,134,122,124,124,8,18,4,6,0.3,0.4
2022-04-14T18:00:00,1955A,85.6979,46.098,克拉玛依市,乌尔禾区商贸楼,颗粒物(PM10),64,78,138,12,24,104,103,96,96,2,24,8,9,0.6,0.7
2022-04-14T18:00:00,1956A,86.1472,41.7538,巴音郭楞州,孔雀公园,颗粒物(PM10),85,119,80,33,20,113,107,104,104,4,20,2,2,0.3,0.5
2022-04-14T18:00:00,1957A,86.1972,41.7166,巴音郭楞州,棉纺厂,颗粒物(PM10),75,100,75,24,23,110,102,103,103,7,25,2,2,0.3,0.4
2022-04-14T18:00:00,1958A,86.2357,41.7173,巴音郭楞州,经济开发区,颗粒物(PM10),77,104,79,29,18,115,106,110,110,4,11,2,2,0.3,0.4
2022-04-14T18:00:00,1961A,117.532,36.6868,济南市,东山小学,颗粒物(PM10),53,56,67,29,25,124,124,108,108,19,35,18,24,0.7,0.8
2022-04-14T18:00:00,1966A,120.0405,35.8735,青岛市,黄岛区4号,,44,44,32,17,14,109,103,99,99,24,30,7,6,0.4,0.4
2022-04-14T18:00:00,1982A,122.0693,37.2174,威海市,文登开发区,,,19,28,9,16,99,99,93,93,14,20,4,5,,
2022-04-14T18:00:00,2031A,113.1817,27.9958,株洲市,云田中学,,43,36,38,30,25,96,84,82,82,21,16,5,5,0.5,0.3
2022-04-14T18:00:00,2054A,114.1099,32.1059,信阳市,平桥分局,,,,60,,26,98,57,72,70,20,18,,9,0.7,0.6
2022-04-14T18:00:00,2064A,113.9956,32.1271,信阳市,南湾水厂,颗粒物(PM10),68,85,62,20,21,101,48,74,57,21,16,7,7,0.5,0.4
2022-04-14T18:00:00,2065A,114.0775,32.1195,信阳市,市酿酒公司,颗粒物(PM10),53,55,52,28,24,98,52,78,68,33,22,4,5,0.6,0.5
2022-04-14T18:00:00,2066A,114.0609,32.1399,信阳市,审计局,细颗粒物(PM2.5),67,58,54,48,29,92,40,78,58,33,20,8,8,0.5,0.4
2022-04-14T18:00:00,2067A,114.6613,33.6128,周口市,市环境监测站,颗粒物(PM10),68,85,72,38,34,115,102,105,105,16,18,17,27,0.6,0.5
2022-04-14T18:00:00,2068A,114.6758,33.6347,周口市,周口师范,颗粒物(PM10),70,89,81,34,35,106,96,98,98,19,24,20,27,0.6,0.6
2022-04-14T18:00:00,2069A,114.6546,33.5979,周口市,市运管处,颗粒物(PM10),66,82,69,37,35,113,102,105,105,16,17,13,22,0.5,0.5
2022-04-14T18:00:00,2070A,114.6369,33.6406,周口市,川汇区环保局,颗粒物(PM10),66,81,76,28,27,109,97,102,102,19,26,11,17,0.8,0.8
2022-04-14T18:00:00,2075A,117.6336,24.4674,漳州市,九湖(对照点),颗粒物(PM10),51,52,42,25,21,149,131,129,129,15,18,8,12,0.5,0.6
2022-04-14T18:00:00,2160A,112.85,35.5051,晋城市,自来水公司,,48,48,67,22,23,126,80,90,89,30,26,6,8,1.2,0.5
2022-04-14T18:00:00,2161A,112.8318,35.4936,晋城市,白云商贸,,39,25,58,27,26,129,90,95,94,21,20,4,5,1.2,0.7
2022-04-14T18:00:00,2162A,112.8508,35.4887,晋城市,市环保局,,32,27,57,22,26,124,86,93,92,24,23,6,8,1.1,0.7
2022-04-14T18:00:00,2163A,112.8676,35.4897,晋城市,技术学院,,37,37,57,19,22,119,79,88,87,25,25,4,5,1.0,0.6
2022-04-14T18:00:00,2165A,112.8453,35.546,晋城市,白马寺 (对照点),,,,68,,26,119,,107,107,17,21,5,6,1.0,0.7
2022-04-14T18:00:00,2166A,112.4397,39.3522,朔州市,平朔,颗粒物(PM10),65,80,70,29,17,104,97,94,94,14,29,10,12,0.4,0.4
2022-04-14T18:00:00,2167A,112.4575,39.3617,朔州市,朔唯,颗粒物(PM10),62,73,70,16,15,108,105,98,98,9,25,3,8,0.4,0.4
2022-04-14T18:00:00,2168A,112.4258,39.3197,朔州市,区政府,颗粒物(PM10),57,64,54,5,9,107,103,97,97,10,19,9,11,0.4,0.4
2022-04-14T18:00:00,2169A,112.4072,39.3278,朔州市,市环保局,颗粒物(PM10),64,78,61,9,10,108,101,98,98,14,20,8,10,0.4,0.4
2022-04-14T18:00:00,2170A,112.4272,39.3681,朔州市,市二中,颗粒物(PM10),54,57,71,9,16,108,102,98,98,11,28,5,9,0.4,0.3
2022-04-14T18:00:00,2171A,112.7532,37.6945,晋中市,锦纶小区,颗粒物(PM10),51,52,67,22,31,120,113,114,114,15,24,2,6,0.3,0.3
2022-04-14T18:00:00,2173A,112.7249,37.7067,晋中市,南都小区,颗粒物(PM10),57,64,65,17,41,116,113,111,111,16,28,6,10,0.3,0.4
2022-04-14T18:00:00,2174A,112.6991,37.6982,晋中市,榆次区政府,,46,46,66,24,42,116,115,111,111,11,24,6,10,2.7,1.9
2022-04-14T18:00:00,2175A,110.9956,35.0147,运城市,运城中学,,39,36,74,27,33,118,112,116,114,8,10,4,7,0.4,0.4
2022-04-14T18:00:00,2178A,110.9686,35.0303,运城市,地区技校,颗粒物(PM10),51,52,73,20,25,116,106,110,110,14,13,4,7,0.4,0.3
2022-04-14T18:00:00,2179A,111.0414,35.1147,运城市,空港新区,颗粒物(PM10),51,51,75,25,33,110,102,105,105,10,12,5,8,0.6,0.5
2022-04-14T18:00:00,2181A,112.7383,38.4519,忻州市,开发区,,32,21,49,1,18,103,102,100,100,3,11,7,14,0.3,0.4
2022-04-14T18:00:00,2182A,112.7003,38.4928,忻州市,会展中心,,30,19,43,3,12,95,95,88,88,6,20,4,7,0.4,0.5
2022-04-14T18:00:00,2183A,111.1406,37.5211,吕梁市,环保局,,46,46,80,13,17,100,89,92,92,22,37,11,7,0.3,0.3
2022-04-14T18:00:00,2185A,111.1297,37.5136,吕梁市,自来水公司,,49,49,71,11,14,96,94,94,94,21,33,9,5,0.5,0.3
2022-04-14T18:00:00,2187A,106.8174,39.6973,乌海市,市林业局,颗粒物(PM10),51,51,59,15,21,119,119,109,109,6,28,6,14,0.4,0.7
2022-04-14T18:00:00,2188A,106.7907,39.6667,乌海市,中海勃湾学校,,48,48,67,14,18,124,122,111,111,10,33,10,17,0.4,0.5
2022-04-14T18:00:00,2191A,122.2532,43.6801,通辽市,艺术职业学校,,46,46,66,13,33,113,98,107,107,15,20,5,6,0.5,0.6
2022-04-14T18:00:00,2192A,119.7594,49.2261,呼伦贝尔市,区环保局,,32,27,32,19,18,102,100,98,98,6,17,5,5,0.2,0.3
2022-04-14T18:00:00,2195A,107.4212,40.761,巴彦淖尔市,附二中,颗粒物(PM10),52,54,61,15,19,111,111,100,100,5,9,7,13,0.3,0.4
2022-04-14T18:00:00,2196A,107.37,40.7372,巴彦淖尔市,市环保大楼,,46,46,46,15,22,115,114,103,103,5,8,4,8,0.3,0.4
2022-04-14T18:00:00,2197A,113.1306,40.9923,乌兰察布市,集宁新区,,30,30,22,13,16,101,96,98,98,6,3,12,7,0.3,0.4
2022-04-14T18:00:00,2200A,122.0392,46.0656,兴安盟,胜华新制药厂,颗粒物(PM10),61,72,72,37,52,99,93,95,95,7,15,4,5,0.2,0.6
2022-04-14T18:00:00,2201A,121.9504,46.0741,兴安盟,科右前旗环保局,颗粒物(PM10),51,52,54,35,41,105,98,103,102,12,14,4,5,0.3,0.3
2022-04-14T18:00:00,2202A,116.1042,43.9317,锡林郭勒盟,市环保监测站,,28,10,27,3,11,91,89,90,90,4,5,8,9,0.4,0.4
2022-04-14T18:00:00,2203A,116.0781,43.9311,锡林郭勒盟,市政府,,28,13,27,4,7,91,88,88,88,5,9,7,7,0.4,0.5
2022-04-14T18:00:00,2204A,105.6467,38.8363,阿拉善盟,西城区西花园(对照点),颗粒物(PM10),62,74,69,36,23,125,125,116,116,6,10,5,6,0.4,0.5
2022-04-14T18:00:00,2205A,105.6985,38.8411,阿拉善盟,蒙二幼,颗粒物(PM10),78,105,68,41,27,123,123,115,115,6,9,7,7,0.5,0.5
2022-04-14T18:00:00,2206A,105.724,38.8516,阿拉善盟,环保局新楼,颗粒物(PM10),91,132,56,35,30,126,126,116,116,6,7,8,8,0.4,0.5
2022-04-14T18:00:00,2207A,121.6094,41.998,阜新市,工业园区,颗粒物(PM10),56,61,90,25,62,129,113,119,119,19,34,7,23,0.4,0.6
2022-04-14T18:00:00,2208A,121.6697,42.0279,阜新市,长青街,,50,50,80,26,47,122,110,114,114,14,32,9,35,0.4,0.6
2022-04-14T18:00:00,2209A,121.6673,42.0705,阜新市,农业园区,,50,47,53,35,47,128,116,119,119,17,20,6,20,0.5,0.5
2022-04-14T18:00:00,2210A,121.6717,42.0224,阜新市,东苑,颗粒物(PM10),52,53,79,34,58,123,113,115,115,15,31,6,42,0.4,0.5
2022-04-14T18:00:00,2211A,121.6506,42.0498,阜新市,玉龙新城,,43,43,60,27,41,125,110,116,116,13,27,9,20,0.4,0.5
2022-04-14T18:00:00,2212A,123.2,41.1953,辽阳市,宏伟区,"颗粒物(PM10),细颗粒物(PM2.5)",53,55,65,37,49,155,127,138,138,18,30,11,17,0.6,0.8
2022-04-14T18:00:00,2213A,123.1683,41.2495,辽阳市,新华园,细颗粒物(PM2.5),69,65,83,50,83,150,121,130,130,22,37,7,17,0.6,1
2022-04-14T18:00:00,2214A,123.2354,41.2639,辽阳市,滨河路,细颗粒物(PM2.5),80,72,75,59,72,151,118,126,126,21,29,10,12,0.6,0.7
2022-04-14T18:00:00,2215A,123.149,41.2991,辽阳市,铁西工业园,细颗粒物(PM2.5),89,108,100,66,86,152,120,138,138,26,39,14,20,0.6,0.8
2022-04-14T18:00:00,2216A,123.8139,42.3022,铁岭市,汇工街西,颗粒物(PM10),68,85,80,40,57,135,119,122,122,14,27,7,14,0.4,0.7
2022-04-14T18:00:00,2217A,123.8649,42.2923,铁岭市,水上乐园,颗粒物(PM10),69,88,66,43,49,134,120,121,121,16,31,6,7,0.4,0.5
2022-04-14T18:00:00,2218A,123.8486,42.2867,铁岭市,银州路东段,颗粒物(PM10),80,110,65,46,43,126,114,113,113,15,24,5,6,0.3,0.3
2022-04-14T18:00:00,2219A,123.7153,42.2217,铁岭市,金沙江路北,颗粒物(PM10),81,112,84,45,56,126,106,115,115,23,26,7,7,0.6,0.6
2022-04-14T18:00:00,2220A,120.4318,41.5881,朝阳市,西梁,颗粒物(PM10),86,122,88,32,40,115,106,96,96,12,26,7,14,0.6,0.7
2022-04-14T18:00:00,2221A,120.4521,41.5646,朝阳市,河畔小区,颗粒物(PM10),89,127,68,39,33,118,104,98,93,13,20,6,10,0.6,0.7
2022-04-14T18:00:00,2222A,120.4176,41.5648,朝阳市,八里堡,颗粒物(PM10),98,145,86,32,41,116,107,98,98,13,30,6,10,0.5,0.6
2022-04-14T18:00:00,2223A,120.3806,41.5969,朝阳市,农业园区,颗粒物(PM10),85,120,68,28,30,111,106,99,99,11,23,7,10,0.6,0.6
2022-04-14T18:00:00,2225A,124.4002,43.1713,四平市,一商场,细颗粒物(PM2.5),87,73,79,64,74,134,120,123,123,16,19,10,11,0.3,0.5
2022-04-14T18:00:00,2226A,124.388,43.193,四平市,境园,细颗粒物(PM2.5),85,68,87,63,75,136,122,124,124,12,17,9,12,0.4,0.5
2022-04-14T18:00:00,2227A,125.1358,42.8845,辽源市,环保局,细颗粒物(PM2.5),85,72,62,63,54,156,134,137,137,12,11,9,7,0.8,0.7
2022-04-14T18:00:00,2229A,125.9358,41.7173,通化市,光明,,40,28,26,13,11,125,125,114,114,10,14,11,13,0.6,0.6
2022-04-14T18:00:00,2230A,125.9446,41.7325,通化市,铁路,,38,22,26,16,14,119,119,108,108,10,18,11,20,0.6,0.8
2022-04-14T18:00:00,2231A,126.4219,41.9171,白山市,喜丰,,42,42,55,14,12,121,119,113,113,12,21,6,18,0.5,0.6
2022-04-14T18:00:00,2232A,126.4077,41.9419,白山市,环保局,,37,27,39,7,12,118,118,114,114,9,18,7,16,0.9,0.8
2022-04-14T18:00:00,2233A,124.8006,45.1214,松原市,江南,细颗粒物(PM2.5),69,62,42,50,27,130,130,112,112,25,12,6,3,0.6,0.3
2022-04-14T18:00:00,2234A,124.7965,45.1722,松原市,江北,细颗粒物(PM2.5),92,73,48,68,33,124,114,104,104,24,17,6,3,0.6,0.4
2022-04-14T18:00:00,2236A,122.8738,45.5725,白城市,市环保局,细颗粒物(PM2.5),55,51,67,39,55,68,63,64,64,30,42,5,8,0.5,0.5
2022-04-14T18:00:00,2237A,129.47,42.8883,延边朝鲜族自治州,妇幼医院,,29,22,17,10,10,97,91,96,95,10,11,6,6,0.6,0.6
2022-04-14T18:00:00,2238A,129.5055,42.9108,延边朝鲜族自治州,延边医院,,30,29,18,11,9,101,94,98,98,10,8,10,9,0.5,0.5
2022-04-14T18:00:00,2239A,129.3964,42.8881,延边朝鲜族自治州,朝阳川镇医院,,43,43,27,8,14,101,89,98,98,14,14,8,8,0.4,0.5
2022-04-14T18:00:00,2240A,130.9762,45.3001,鸡西市,环保局,,25,24,53,13,24,96,78,89,89,35,34,3,6,0.3,0.4
2022-04-14T18:00:00,2243A,130.9429,45.3039,鸡西市,第一中学,颗粒物(PM10),52,54,52,14,20,100,92,95,95,23,33,5,7,0.1,0.3
2022-04-14T18:00:00,2244A,130.2537,47.3416,鹤岗市,哈啤分公司,,30,16,28,9,16,103,95,100,100,5,9,8,10,0.3,0.4
2022-04-14T18:00:00,2245A,130.2684,47.3086,鹤岗市,斯达机电,,30,30,25,10,12,99,92,97,97,6,11,5,6,0.4,0.4
2022-04-14T18:00:00,2246A,130.3114,47.3388,鹤岗市,东山纸板厂,,29,29,77,10,18,101,92,99,99,5,19,7,10,0.3,0.6
2022-04-14T18:00:00,2248A,131.1511,46.6937,双鸭山市,双合村,,32,32,75,9,33,100,86,96,95,12,22,8,17,0.2,1
2022-04-14T18:00:00,2249A,131.1652,46.6191,双鸭山市,南小市,,30,24,47,12,22,106,94,103,103,13,16,9,3,0.4,0.5
2022-04-14T18:00:00,2250A,131.1524,46.6554,双鸭山市,环保局,,30,24,54,16,21,107,96,103,103,12,28,4,11,0.2,0.8
2022-04-14T18:00:00,2251A,131.12,46.5656,双鸭山市,苗圃(对照点),,33,24,20,16,20,113,104,108,108,9,8,5,4,0.6,0.5
2022-04-14T18:00:00,2252A,128.5159,47.4311,伊春市,环保局,,27,13,17,0,11,92,86,90,90,13,13,7,5,0.4,0.4
2022-04-14T18:00:00,2253A,128.9102,47.7412,伊春市,电力嘉园,,30,26,26,18,20,98,95,96,96,4,10,5,5,0.5,0.6
2022-04-14T18:00:00,2254A,129.5029,48.471,伊春市,汤旺河国家公园(对照点),,29,2,3,0,3,101,92,97,96,7,7,2,6,0.1,0.2
2022-04-14T18:00:00,2255A,130.2751,46.8028,佳木斯市,佳纺,,27,15,29,2,20,103,86,98,98,14,18,3,4,0.4,0.4
2022-04-14T18:00:00,2256A,130.3995,46.8307,佳木斯市,发电厂,,30,26,26,3,19,102,94,100,100,7,12,6,4,0.3,0.4
2022-04-14T18:00:00,2257A,130.3258,46.7975,佳木斯市,环保局,,26,12,39,5,25,101,82,98,96,15,20,4,6,0.4,0.4
2022-04-14T18:00:00,2258A,130.3648,46.8032,佳木斯市,十一中,,30,12,39,5,27,106,96,101,101,10,25,7,10,0.4,0.6
2022-04-14T18:00:00,2259A,130.3794,46.7588,佳木斯市,四丰(对照点),,24,14,26,8,20,95,76,91,91,18,18,4,3,0.4,0.4
2022-04-14T18:00:00,2262A,131.0518,45.8751,七台河市,新一中(对照点),,40,40,20,27,12,117,116,108,108,10,10,7,8,0.6,0.5
2022-04-14T18:00:00,2263A,127.4833,50.2524,黑河市,交通局,,26,11,13,7,10,90,83,87,87,7,6,5,5,0.4,0.4
2022-04-14T18:00:00,2264A,127.5144,50.2341,黑河市,环保局,,28,6,17,7,12,93,87,89,89,8,7,2,4,0.4,0.3
2022-04-14T18:00:00,2265A,127.5291,50.2472,黑河市,大黑河岛(对照点),,30,2,15,2,8,97,95,94,94,5,8,5,5,0.3,0.3
2022-04-14T18:00:00,2266A,126.9785,46.6365,绥化市,人和东街,,26,19,36,9,20,89,82,86,86,12,15,6,8,0.4,0.4
2022-04-14T18:00:00,2267A,126.964,46.6528,绥化市,党政办公中心,,,17,47,6,24,87,81,85,85,,19,,9,0.3,0.4
2022-04-14T18:00:00,2269A,124.1069,50.4097,大兴安岭地区,科技局,,30,11,13,7,10,93,93,90,90,3,4,2,3,0.4,0.3
2022-04-14T18:00:00,2270A,117.396,32.939,蚌埠市,工人疗养院,颗粒物(PM10),59,68,46,41,22,114,106,100,100,13,11,5,5,0.5,0.3
2022-04-14T18:00:00,2271A,117.3605,32.9427,蚌埠市,百货大楼,颗粒物(PM10),61,71,45,36,18,115,108,102,102,20,19,6,7,0.6,0.5
2022-04-14T18:00:00,2273A,117.4185,32.8911,蚌埠市,蚌埠学院,颗粒物(PM10),54,58,40,27,17,108,106,96,96,12,22,7,8,0.6,0.5
2022-04-14T18:00:00,2274A,117.3533,32.9673,蚌埠市,淮上区政府,颗粒物(PM10),58,66,44,31,19,117,106,103,103,14,16,8,9,0.5,0.3
2022-04-14T18:00:00,2275A,117.3145,32.8977,蚌埠市,高新区,颗粒物(PM10),56,61,39,31,19,117,112,104,104,22,24,7,9,0.5,0.4
2022-04-14T18:00:00,2277A,116.8305,32.7727,淮南市,潘集区政府,细颗粒物(PM2.5),57,59,49,40,31,110,110,103,103,6,11,5,6,0.4,0.4
2022-04-14T18:00:00,2278A,117.0067,32.6524,淮南市,师范学院,细颗粒物(PM2.5),78,60,38,57,27,98,98,94,94,8,8,8,8,0.7,0.4
2022-04-14T18:00:00,2279A,116.8569,32.5951,淮南市,谢家集区政府,细颗粒物(PM2.5),54,55,42,38,27,100,100,93,93,10,12,5,7,0.4,0.2
2022-04-14T18:00:00,2280A,116.8281,32.633,淮南市,八公山区政府,细颗粒物(PM2.5),55,52,43,39,25,98,98,92,92,9,11,13,9,0.6,0.3
2022-04-14T18:00:00,2281A,116.6325,32.6201,淮南市,焦岗湖风景区管理处(对照点),颗粒物(PM10),53,56,45,25,25,101,90,94,94,16,11,7,7,0.4,0.4
2022-04-14T18:00:00,2282A,116.8004,33.975,淮北市,监测站,颗粒物(PM10),60,69,64,36,30,112,103,103,103,25,24,15,10,0.6,0.6
2022-04-14T18:00:00,2283A,116.8091,33.9007,淮北市,烈山区政府,颗粒物(PM10),63,75,70,32,34,121,121,111,111,11,30,10,7,0.4,0.6
2022-04-14T18:00:00,2284A,116.7856,33.9477,淮北市,职业技术学院,,,68,61,37,34,112,107,105,105,22,29,12,8,,0.5
2022-04-14T18:00:00,2285A,117.8177,30.9412,铜陵市,市第四中学,,41,41,16,11,13,111,92,100,100,31,29,12,12,0.3,0.3
2022-04-14T18:00:00,2286A,117.8059,30.9273,铜陵市,市公路局,,,45,45,22,15,106,93,95,95,,21,15,13,,0.4
2022-04-14T18:00:00,2287A,117.7807,30.9413,铜陵市,市新民污水厂,,,,38,19,22,112,103,105,105,18,16,9,9,0.4,0.4
2022-04-14T18:00:00,2288A,117.7439,30.8792,铜陵市,市第九中学,,44,44,36,21,23,100,97,94,94,18,16,8,12,0.4,0.5
2022-04-14T18:00:00,2289A,117.846,30.9413,铜陵市,车站新区,,35,30,32,24,20,100,87,93,93,19,14,2,3,0.4,0.4
2022-04-14T18:00:00,2290A,117.8483,30.97,铜陵市,市职教基地,,32,32,31,6,13,106,97,101,100,18,17,8,9,0.5,0.5
2022-04-14T18:00:00,2291A,117.0809,30.5177,安庆市,环科院,,47,47,36,22,20,119,119,107,107,10,8,7,6,0.5,0.4
2022-04-14T18:00:00,2292A,117.0331,30.5119,安庆市,马山宾馆,,46,46,36,21,20,116,115,105,105,16,13,6,5,0.5,0.5
2022-04-14T18:00:00,2294A,116.9896,30.6145,安庆市,安庆大学,,37,36,33,17,18,121,118,109,109,11,9,7,5,0.4,0.4
2022-04-14T18:00:00,2295A,118.2903,29.6963,黄山市,延安路89号,,32,32,22,17,9,113,79,98,98,5,5,4,4,0.6,0.6
2022-04-14T18:00:00,2296A,118.327,29.7178,黄山市,黄山东路89号,,,28,19,10,10,110,73,93,93,,7,4,4,0.5,0.5
2022-04-14T18:00:00,2297A,118.1371,30.2756,黄山市,黄山区政府5号楼,,42,42,29,23,13,80,77,73,73,12,9,10,9,0.7,0.6
2022-04-14T18:00:00,2298A,118.3093,32.3153,滁州市,老年大学,颗粒物(PM10),52,53,37,21,17,109,100,103,103,14,12,9,9,0.3,0.3
2022-04-14T18:00:00,2299A,118.3244,32.2786,滁州市,人大宾馆,,44,44,36,18,15,105,95,99,99,21,18,5,5,0.4,0.3
2022-04-14T18:00:00,2301A,115.8277,32.8929,阜阳市,市监测站,,46,38,49,32,28,105,97,90,90,15,19,8,8,0.5,0.5
2022-04-14T18:00:00,2303A,115.8554,32.8605,阜阳市,开发区,颗粒物(PM10),53,56,49,27,29,102,95,95,95,21,23,11,7,0.5,0.5
2022-04-14T18:00:00,2307A,116.5079,31.737,六安市,监测大楼,,,53,39,28,22,116,94,109,107,9,11,6,6,,0.3
2022-04-14T18:00:00,2308A,116.4738,31.7643,六安市,皖西学院,颗粒物(PM10),53,55,43,20,20,125,102,116,116,8,10,8,8,0.3,0.3
2022-04-14T18:00:00,2309A,116.4996,31.7905,六安市,朝阳厂,,45,45,40,30,20,120,93,108,108,7,8,6,7,0.4,0.3
2022-04-14T18:00:00,2310A,116.5567,31.7886,六安市,开发区,颗粒物(PM10),56,62,46,22,22,130,97,115,115,14,12,11,7,0.3,0.3
2022-04-14T18:00:00,2311A,115.8072,33.8399,亳州市,污水处理厂,颗粒物(PM10),56,61,51,29,28,118,92,108,108,14,18,9,10,0.4,0.4
2022-04-14T18:00:00,2312A,115.7789,33.8518,亳州市,三国揽胜宫,颗粒物(PM10),60,70,62,33,31,118,95,109,109,17,20,8,9,0.4,0.4
2022-04-14T18:00:00,2314A,117.47,30.6618,池州市,池州学院,,36,33,30,21,16,114,114,102,102,18,16,5,6,0.3,0.3
2022-04-14T18:00:00,2316A,118.7581,30.9454,宣城市,鳌峰子站,,34,34,30,22,18,79,67,68,68,28,17,3,5,0.6,0.6
2022-04-14T18:00:00,2317A,118.7385,30.9743,宣城市,敬亭山子站,,,35,29,22,22,78,67,67,67,22,19,5,6,,0.5
2022-04-14T18:00:00,2318A,118.7173,30.9427,宣城市,开发区子站,,39,39,29,23,19,79,72,72,72,28,18,4,4,0.6,0.6
2022-04-14T18:00:00,2319A,119.0141,25.4325,莆田市,荔城区仓后路,,26,26,34,7,19,116,82,96,96,16,15,6,4,0.5,0.6
2022-04-14T18:00:00,2320A,119.0015,25.4553,莆田市,莆田市监测站,,27,26,27,11,21,118,85,98,98,12,7,6,5,0.7,0.7
2022-04-14T18:00:00,2321A,119.1119,25.4561,莆田市,涵江区六中,,29,19,37,7,26,114,90,96,96,11,15,7,8,0.5,0.6
2022-04-14T18:00:00,2322A,119.1013,25.3215,莆田市,秀屿区政府,颗粒物(PM10),51,52,38,4,21,112,93,96,96,9,20,5,7,0.5,0.6
2022-04-14T18:00:00,2323A,118.981,25.4792,莆田市,东圳水库(对照点),,26,13,26,9,19,112,82,94,94,11,9,5,4,0.6,0.7
2022-04-14T18:00:00,2324A,117.6211,26.2625,三明市,三钢,,21,0,18,12,14,75,66,60,60,11,20,3,13,0.7,1.3
2022-04-14T18:00:00,2325A,117.635,26.2714,三明市,三明二中,,22,19,16,11,10,78,69,64,64,10,14,2,12,0.6,0.9
2022-04-14T18:00:00,2326A,117.6028,26.2378,三明市,三元区政府,,24,24,15,13,11,82,71,68,68,13,15,2,5,0.8,0.8
2022-04-14T18:00:00,2327A,117.7275,26.3108,三明市,洋溪(对照点),,23,19,14,12,10,80,72,70,70,8,9,5,5,0.6,0.7
2022-04-14T18:00:00,2331A,118.0966,26.6761,南平市,茫荡山(对照点),,20,8,2,7,4,92,62,65,60,2,3,4,4,0.4,0.5
2022-04-14T18:00:00,2332A,118.1681,26.6369,南平市,南平市监测站,,25,11,8,10,9,87,77,77,70,8,7,5,5,0.7,0.7
2022-04-14T18:00:00,2333A,118.1825,26.6489,南平市,南平铝业有限公司,,25,16,9,9,16,85,80,80,71,6,7,4,5,0.7,0.7
2022-04-14T18:00:00,2334A,118.1756,26.6272,南平市,南平七中,,23,19,11,5,7,83,72,70,68,8,6,2,2,0.6,0.5
2022-04-14T18:00:00,2335A,117.0189,25.1181,龙岩市,龙岩师专(对照点),,34,15,15,11,11,110,107,96,96,10,13,8,6,0.5,0.5
2022-04-14T18:00:00,2336A,117.0217,25.1033,龙岩市,龙岩市监测站,,34,18,15,12,10,110,108,96,96,10,13,6,5,0.6,0.5
2022-04-14T18:00:00,2337A,117.0258,25.0661,龙岩市,闽西职业技术学院,,33,19,16,9,10,108,103,94,94,9,10,6,5,0.6,0.5
2022-04-14T18:00:00,2338A,117.0196,25.0306,龙岩市,龙岩学院,,34,16,14,6,8,111,108,96,96,10,10,5,4,0.5,0.5
2022-04-14T18:00:00,2339A,119.5001,26.6946,宁德市,金涵水库(对照点),,,,15,6,11,115,115,97,97,6,7,10,7,0.6,0.6
2022-04-14T18:00:00,2341A,119.5388,26.6612,宁德市,宁德市监测站,,34,26,18,6,9,107,107,92,92,8,11,10,7,0.6,0.5
2022-04-14T18:00:00,2342A,117.3102,29.3867,景德镇市,王港中学(对照点),,27,19,11,11,8,92,86,88,88,3,4,4,4,0.5,0.6
2022-04-14T18:00:00,2343A,117.2117,29.2933,景德镇市,老干部活动中心,,32,32,23,16,14,97,84,88,88,8,8,3,4,0.7,0.7
2022-04-14T18:00:00,2344A,117.1894,29.2789,景德镇市,兽医站,,,16,12,11,11,76,74,73,73,12,11,4,4,,0.5
2022-04-14T18:00:00,2345A,117.1547,29.2617,景德镇市,台达陶瓷,,28,28,13,16,10,102,83,90,90,15,14,8,8,0.4,0.4
2022-04-14T18:00:00,2346A,117.2461,29.2956,景德镇市,陶研所,,31,31,29,16,7,90,81,83,83,5,7,4,4,0.0,0.2
2022-04-14T18:00:00,2347A,114.0997,27.5002,萍乡市,武功山(对照点),,25,8,3,7,4,95,79,90,90,5,6,14,15,0.4,0.4
2022-04-14T18:00:00,2348A,113.8385,27.6434,萍乡市,中医院,,31,19,28,14,25,102,99,96,96,14,14,5,9,0.8,0.9
2022-04-14T18:00:00,2349A,113.8493,27.6253,萍乡市,市政府车库,,35,24,27,12,14,111,111,103,103,14,16,4,7,0.7,0.8
2022-04-14T18:00:00,2350A,113.8676,27.6435,萍乡市,市环保局,,33,19,28,14,24,104,104,94,94,6,11,5,10,0.6,0.8
2022-04-14T18:00:00,2351A,113.866,27.6198,萍乡市,安源区政府,,31,31,33,12,16,102,97,92,92,11,10,13,12,1.3,0.7
2022-04-14T18:00:00,2352A,115.0861,27.9317,新余市,北岗(对照点),,41,41,22,26,15,124,124,100,100,14,17,11,10,0.3,0.4
2022-04-14T18:00:00,2353A,114.9886,27.8431,新余市,飞宇,,38,32,45,20,12,121,121,104,104,16,19,12,11,0.3,0.5
2022-04-14T18:00:00,2354A,114.9231,27.8246,新余市,第二水厂,,,,25,,13,124,120,110,110,15,14,16,9,,0.5
2022-04-14T18:00:00,2355A,114.9308,27.8036,新余市,市气象局,,36,36,27,20,19,111,110,90,90,20,19,9,8,0.5,0.5
2022-04-14T18:00:00,2357A,116.9822,28.1136,鹰潭市,龙虎山(对照点),,29,29,19,6,9,92,83,73,73,3,5,1,4,0.2,0.4
2022-04-14T18:00:00,2358A,117.0564,28.2642,鹰潭市,新监测站,,31,26,17,12,9,97,97,76,76,6,6,2,4,0.5,0.4
2022-04-14T18:00:00,2359A,117.0311,28.2475,鹰潭市,财苑宾馆,,34,34,18,9,5,88,88,69,69,3,5,1,2,0.5,0.5
2022-04-14T18:00:00,2360A,117.0222,28.2264,鹰潭市,体育馆,,36,36,19,12,8,91,91,73,73,4,4,1,6,0.5,0.4
2022-04-14T18:00:00,2361A,117.0017,28.2131,鹰潭市,三川水表,,37,37,20,14,9,90,90,77,77,10,8,6,9,0.6,0.5
2022-04-14T18:00:00,2362A,114.9017,25.9149,赣州市,通天岩(对照点),,29,13,15,13,7,108,92,102,102,6,6,5,5,0.9,0.9
2022-04-14T18:00:00,2363A,114.9367,25.8664,赣州市,地委,,25,16,13,4,6,96,77,94,89,13,11,9,6,0.6,0.6
2022-04-14T18:00:00,2364A,114.9461,25.8481,赣州市,气象台,,25,17,14,11,7,97,80,95,82,11,11,5,7,0.7,0.7
2022-04-14T18:00:00,2365A,114.9322,25.8333,赣州市,市图书馆,,29,15,10,7,7,110,92,104,100,14,12,5,6,0.8,0.8
2022-04-14T18:00:00,2366A,114.8905,25.8471,赣州市,华坚鞋城,,26,22,15,9,7,103,81,95,94,8,10,4,4,0.6,0.6
2022-04-14T18:00:00,2367A,114.9754,27.0803,吉安市,红声器材厂,,,,24,,12,85,85,69,69,,9,7,7,0.8,0.5
2022-04-14T18:00:00,2368A,114.9658,27.0999,吉安市,市森林工业局,,32,27,22,14,11,101,101,91,91,10,9,3,4,0.5,0.5
2022-04-14T18:00:00,2369A,114.99,27.1312,吉安市,市环境监测站,,33,33,23,14,12,102,98,94,94,16,12,6,12,0.5,0.3
2022-04-14T18:00:00,2370A,115.0093,27.0968,吉安市,青原区法院,,34,34,26,16,13,108,101,98,98,15,10,11,13,0.5,0.5
2022-04-14T18:00:00,2371A,114.3408,27.8064,宜春市,槟榔水业(对照点),,35,26,30,14,19,109,109,83,83,8,12,3,6,0.3,0.6
2022-04-14T18:00:00,2373A,114.3956,27.7844,宜春市,市石油公司,,32,22,25,15,16,104,102,89,89,2,8,3,7,0.4,0.7
2022-04-14T18:00:00,2374A,114.3703,27.7914,宜春市,市气象局,,34,28,30,17,18,108,108,91,91,13,17,5,9,0.6,0.8
2022-04-14T18:00:00,2375A,114.4013,27.8074,宜春市,市广电局,,34,26,30,18,22,106,106,87,87,12,14,4,7,0.7,0.9
2022-04-14T18:00:00,2376A,116.2127,28.0814,抚州市,桐源党溪(对照点),,34,15,21,7,12,107,107,99,99,4,4,6,5,0.6,0.6
2022-04-14T18:00:00,2377A,116.3544,27.9831,抚州市,市站,,29,23,24,9,11,91,90,81,81,5,6,6,6,0.5,0.5
2022-04-14T18:00:00,2378A,116.3565,27.963,抚州市,血防站,,30,25,24,10,10,94,94,84,84,4,3,4,4,0.7,0.7
2022-04-14T18:00:00,2379A,116.3564,28.0007,抚州市,采茶剧团,,29,20,22,9,11,92,92,82,82,9,10,4,4,0.8,0.7
2022-04-14T18:00:00,2380A,116.385,27.9647,抚州市,医学分院,,28,19,22,10,11,88,88,72,72,3,2,5,5,0.7,0.7
2022-04-14T18:00:00,2381A,118.005,28.4572,上饶市,百草园(对照点),,35,35,20,15,17,81,50,64,64,9,7,5,9,0.7,0.7
2022-04-14T18:00:00,2382A,117.9756,28.4436,上饶市,市监测站,,42,42,20,10,8,85,71,67,67,18,13,8,11,0.4,0.4
2022-04-14T18:00:00,2383A,117.9519,28.4628,上饶市,凤凰光学,,34,34,19,12,14,78,67,74,74,10,13,13,15,0.5,0.5
2022-04-14T18:00:00,2385A,114.17,35.9019,鹤壁市,市监测站,细颗粒物(PM2.5),57,59,71,40,39,111,100,103,103,16,28,6,12,1.0,1.1
2022-04-14T18:00:00,2386A,114.2956,35.7511,鹤壁市,市交警支队,颗粒物(PM10),54,58,63,20,31,108,94,93,93,24,32,8,13,0.8,0.6
2022-04-14T18:00:00,2387A,114.2878,35.7306,鹤壁市,迎宾馆,颗粒物(PM10),53,55,55,28,33,110,88,95,95,28,34,12,14,0.7,0.6
2022-04-14T18:00:00,2389A,113.836,35.311,新乡市,环保西院,,,72,73,24,28,111,108,106,106,,27,11,16,0.5,0.6
2022-04-14T18:00:00,2390A,113.884,35.272,新乡市,开发区,颗粒物(PM10),54,57,69,29,29,108,105,102,102,21,32,11,15,1.0,0.8
2022-04-14T18:00:00,2391A,113.883,35.303,新乡市,环保东院,,,42,58,30,29,112,108,103,103,,41,2,15,0.9,0.7
2022-04-14T18:00:00,2392A,115.0312,35.7636,濮阳市,环保局,,42,41,47,29,32,120,90,88,88,26,25,7,14,0.3,0.4
2022-04-14T18:00:00,2394A,115.0574,35.7609,濮阳市,油田运输公司,,,51,63,28,34,133,102,95,95,21,22,,12,0.4,0.5
2022-04-14T18:00:00,2395A,115.0866,35.7754,濮阳市,油田物探公司,,44,44,51,30,34,118,85,83,83,29,28,8,16,0.3,0.4
2022-04-14T18:00:00,2396A,113.8276,34.0159,许昌市,监测站,颗粒物(PM10),72,93,93,23,41,118,92,93,93,11,19,5,8,0.5,0.6
2022-04-14T18:00:00,2398A,113.7906,33.9953,许昌市,开发区,,,70,107,19,34,119,97,97,97,10,29,5,8,,0.5
2022-04-14T18:00:00,2399A,114.051,33.5699,漯河市,三五一五工厂,,,,69,14,27,114,90,102,102,12,19,9,17,0.4,0.5
2022-04-14T18:00:00,2400A,114.0055,33.5698,漯河市,漯河大学,颗粒物(PM10),52,53,57,20,32,113,92,98,98,32,17,23,18,0.5,0.6
2022-04-14T18:00:00,2401A,114.0138,33.5828,漯河市,市水利局,,,56,61,,38,105,87,94,94,11,17,4,11,,0.5
2022-04-14T18:00:00,2402A,114.0261,33.5698,漯河市,市广电局,颗粒物(PM10),55,59,64,27,32,114,91,102,102,8,13,19,25,0.3,0.4
2022-04-14T18:00:00,2403A,112.5192,32.9917,南阳市,环保局,颗粒物(PM10),58,66,80,33,32,106,89,93,93,29,22,8,7,0.5,0.5
2022-04-14T18:00:00,2404A,112.5339,33.0086,南阳市,瓦房庄,颗粒物(PM10),63,75,84,29,30,103,92,95,95,24,18,7,6,0.3,0.4
2022-04-14T18:00:00,2405A,112.5003,32.9735,南阳市,汉画馆,颗粒物(PM10),62,74,74,34,31,112,96,98,98,20,16,10,9,0.3,0.4
2022-04-14T18:00:00,2406A,112.5779,33.0144,南阳市,气象站,颗粒物(PM10),61,72,79,33,33,111,98,94,94,22,18,11,10,0.5,0.5
2022-04-14T18:00:00,2407A,112.548,32.9692,南阳市,理工学院,颗粒物(PM10),63,75,77,35,32,101,95,92,92,19,15,10,8,0.5,0.5
2022-04-14T18:00:00,2408A,115.6702,34.4285,商丘市,环境监测站,颗粒物(PM10),53,56,71,32,49,108,70,90,90,18,23,10,13,0.5,0.5
2022-04-14T18:00:00,2409A,115.6458,34.4045,商丘市,粮食局,颗粒物(PM10),52,53,73,28,45,108,70,103,93,22,25,10,14,0.5,0.5
2022-04-14T18:00:00,2410A,115.6293,34.3948,商丘市,睢阳区环保局,颗粒物(PM10),54,58,74,23,38,112,76,97,97,19,24,10,15,0.5,0.5
2022-04-14T18:00:00,2420A,114.0189,32.9656,驻马店市,市一纸厂,细颗粒物(PM2.5),73,85,67,53,38,102,92,92,92,21,19,14,12,0.7,0.6
2022-04-14T18:00:00,2421A,114.0114,33.015,驻马店市,市彩印厂,细颗粒物(PM2.5),77,91,74,56,32,95,86,87,87,20,20,9,7,0.6,0.8
2022-04-14T18:00:00,2422A,113.9976,32.9771,驻马店市,天方二分厂,颗粒物(PM10),71,91,65,51,38,96,84,83,83,29,22,10,8,0.8,0.7
2022-04-14T18:00:00,2423A,115.0601,30.2313,黄石市,沈家营,,35,35,32,16,15,89,81,70,70,14,13,6,7,0.5,0.5
2022-04-14T18:00:00,2424A,115.0817,30.2006,黄石市,陈家湾,,47,47,37,20,20,68,65,55,55,17,15,4,5,0.4,0.5
2022-04-14T18:00:00,2426A,114.8988,30.2019,黄石市,铁山,颗粒物(PM10),57,63,51,16,19,89,83,72,72,12,13,5,6,0.5,0.6
2022-04-14T18:00:00,2427A,115.0307,30.2092,黄石市,团城山,,36,36,31,19,18,89,82,71,71,19,18,8,10,0.6,0.6
2022-04-14T18:00:00,2428A,111.0419,32.395,十堰市,武当山(对照点),,42,21,39,29,25,122,102,98,98,9,8,9,8,0.8,0.8
2022-04-14T18:00:00,2429A,110.78,32.6494,十堰市,滨河新村,颗粒物(PM10),59,67,74,24,24,103,83,101,84,24,19,10,10,0.7,0.6
2022-04-14T18:00:00,2430A,110.7258,32.6389,十堰市,刘家沟,颗粒物(PM10),52,54,66,14,23,110,98,105,96,16,14,10,10,0.5,0.5
2022-04-14T18:00:00,2431A,110.8839,32.5714,十堰市,铁二处,,47,47,72,22,23,105,98,94,94,11,14,8,14,0.4,0.4
2022-04-14T18:00:00,2432A,112.155,32.0197,襄阳市,襄城运动路,,45,45,67,26,30,108,73,65,60,19,29,10,10,0.5,0.5
2022-04-14T18:00:00,2433A,112.1392,32.0564,襄阳市,樊城新华路,,49,49,70,27,28,109,72,77,67,18,26,7,7,0.5,0.5
2022-04-14T18:00:00,2434A,112.1825,32.1142,襄阳市,高新管委会,"颗粒物(PM10),细颗粒物(PM2.5)",53,56,67,37,30,102,60,72,63,27,23,5,6,0.6,0.6
2022-04-14T18:00:00,2435A,112.2106,32.0903,襄阳市,襄州航空路,颗粒物(PM10),53,56,72,30,28,96,57,64,59,20,23,9,11,0.6,0.8
2022-04-14T18:00:00,2436A,114.8938,30.3994,鄂州市,市政府,,37,37,34,13,17,80,73,65,65,20,15,9,9,0.4,0.5
2022-04-14T18:00:00,2437A,114.8989,30.3714,鄂州市,赵家坝,,43,43,34,12,17,91,88,71,71,8,9,3,4,0.2,0.3
2022-04-14T18:00:00,2439A,112.2014,31.0481,荆门市,竹园小学,,40,40,62,24,23,110,81,76,76,18,20,8,8,0.6,0.8
