timepoint,stationcode,longitude,latitude,area,positionname,primarypollutant,aqi,pm10,pm10_24h,pm2_5,pm2_5_24h,o3,o3_24h,o3_8h,o3_8h_24h,no2,no2_24h,so2,so2_24h,co,co_24h
2023-02-15T10:00:00,1001A,116.3621,39.8784,北京市,万寿西宫,,47,47,36,30,22,61,21,14,8,49,40,3,2,0.6,0.5
2023-02-15T10:00:00,1002A,116.2202,40.2915,北京市,定陵,,,62,21,36,12,69,15,33,16,33,15,,2,0.5,0.3
2023-02-15T10:00:00,1003A,116.4174,39.9289,北京市,东四,,45,45,37,26,20,60,36,23,12,28,32,5,3,0.4,0.4
2023-02-15T10:00:00,1004A,116.4072,39.8863,北京市,天坛,,40,40,34,25,19,65,34,14,8,32,35,3,3,0.4,0.3
2023-02-15T10:00:00,1005A,116.462,39.9365,北京市,农展馆,,47,47,34,28,18,65,26,35,7,39,37,6,3,0.4,0.3
2023-02-15T10:00:00,1006A,116.3392,39.9295,北京市,官园,,44,44,34,27,20,74,38,26,15,36,35,7,3,0.4,0.3
2023-02-15T10:00:00,1007A,116.2878,39.9611,北京市,海淀万柳,,50,50,38,33,22,53,23,16,10,39,38,5,2,0.4,0.4
2023-02-15T10:00:00,1008A,116.6636,40.135,北京市,顺义新城,颗粒物(PM10),57,63,38,34,17,81,29,15,14,33,34,4,2,0.5,0.3
2023-02-15T10:00:00,1009A,116.6275,40.3275,北京市,怀柔镇,颗粒物(PM10),56,62,32,30,14,65,29,26,12,21,21,3,2,0.4,0.3
2023-02-15T10:00:00,1010A,116.2296,40.217,北京市,昌平镇,颗粒物(PM10),53,55,27,31,15,67,14,31,8,34,21,3,2,0.5,0.3
2023-02-15T10:00:00,1011A,116.3966,39.9821,北京市,奥体中心,,44,44,34,28,19,66,31,22,13,33,34,3,2,0.4,0.4
2023-02-15T10:00:00,1012A,116.184,39.9136,北京市,古城,颗粒物(PM10),62,74,50,41,24,61,21,19,8,42,47,3,2,0.6,0.5
2023-02-15T10:00:00,1015A,117.1444,39.1661,天津市,勤俭道,,36,36,40,16,17,61,56,51,51,20,30,6,8,0.4,0.6
2023-02-15T10:00:00,1017A,117.237,39.1082,天津市,大直沽八号路,,39,39,46,14,17,58,54,42,42,21,32,7,8,0.4,0.6
2023-02-15T10:00:00,1018A,117.202,39.0927,天津市,前进道,,34,34,36,16,17,60,57,53,50,22,30,3,5,0.3,0.5
2023-02-15T10:00:00,1019A,117.1837,39.2133,天津市,淮河道,,43,43,48,18,19,66,48,40,28,28,35,6,8,0.4,0.6
2023-02-15T10:00:00,1021A,117.307,39.0877,天津市,跃进路,,,31,37,14,17,62,,46,33,,32,8,10,0.4,0.6
2023-02-15T10:00:00,1023A,117.707,39.0343,天津市,第四大街,,48,48,39,17,14,60,35,25,25,35,43,10,8,0.6,0.5
2023-02-15T10:00:00,1024A,117.457,38.8394,天津市,永明路,,27,27,35,11,15,67,62,58,44,15,27,8,8,0.3,0.4
2023-02-15T10:00:00,1026A,117.764,39.1587,天津市,汉北路,,39,39,34,18,15,66,56,50,48,15,24,12,10,0.6,0.6
2023-02-15T10:00:00,1027A,117.157,38.9194,天津市,团泊洼,,31,31,32,14,13,58,39,27,19,30,37,5,6,0.5,0.5
2023-02-15T10:00:00,1029A,114.4422,38.0444,石家庄市,职工医院,细颗粒物(PM2.5),89,91,80,66,54,73,14,28,6,45,50,5,5,1.1,0.9
2023-02-15T10:00:00,1030A,114.6063,38.0266,石家庄市,高新区,细颗粒物(PM2.5),60,60,65,43,41,77,26,22,15,36,38,13,6,0.4,0.5
2023-02-15T10:00:00,1031A,114.4898,38.1328,石家庄市,西北水源,"颗粒物(PM10),细颗粒物(PM2.5)",70,90,87,51,56,81,14,6,4,40,47,4,2,0.7,0.8
2023-02-15T10:00:00,1032A,114.4586,38.0058,石家庄市,西南高教,颗粒物(PM10),66,82,76,46,46,70,12,5,5,45,46,8,5,0.8,0.8
2023-02-15T10:00:00,1033A,114.5331,38.0178,石家庄市,世纪公园,颗粒物(PM10),64,78,61,39,43,69,16,20,11,34,34,8,5,0.8,0.8
2023-02-15T10:00:00,1034A,114.509,38.0457,石家庄市,人民会堂,颗粒物(PM10),59,68,69,41,41,76,20,42,17,37,31,6,4,0.6,0.5
2023-02-15T10:00:00,1035A,114.3524,37.8911,石家庄市,封龙山,"颗粒物(PM10),细颗粒物(PM2.5)",57,63,57,40,39,75,54,68,61,29,26,8,6,0.8,0.8
2023-02-15T10:00:00,1037A,118.131,39.6363,唐山市,雷达站,,48,48,38,22,14,66,48,60,51,33,28,8,9,0.6,0.6
2023-02-15T10:00:00,1038A,118.1725,39.6334,唐山市,物资局,,,,42,,24,62,38,44,33,,33,,13,0.9,0.7
2023-02-15T10:00:00,1040A,118.1705,39.6506,唐山市,十二中,,47,47,43,28,24,53,37,38,28,42,43,10,9,1.0,0.7
2023-02-15T10:00:00,1041A,118.1869,39.622,唐山市,小山,颗粒物(PM10),51,52,45,27,19,61,38,32,23,32,36,13,12,0.7,0.7
2023-02-15T10:00:00,1042A,119.5134,39.8207,秦皇岛市,北戴河环保局,,32,32,23,15,13,77,49,54,54,23,14,14,7,0.4,0.4
2023-02-15T10:00:00,1043A,119.7493,40.0116,秦皇岛市,第一关,颗粒物(PM10),53,55,39,30,20,69,22,30,19,51,38,12,6,0.5,0.4
2023-02-15T10:00:00,1044A,119.5897,39.9499,秦皇岛市,监测站,颗粒物(PM10),52,54,45,27,21,70,19,35,27,49,31,14,8,0.5,0.4
2023-02-15T10:00:00,1046A,119.5251,39.9041,秦皇岛市,建设大厦,,48,48,37,14,15,75,30,22,21,40,33,12,8,0.5,0.4
2023-02-15T10:00:00,1048A,114.5302,36.6116,邯郸市,东污水处理厂,,,107,64,60,34,80,12,39,7,,42,10,7,1.3,0.9
2023-02-15T10:00:00,1049A,114.4918,36.5713,邯郸市,矿院,细颗粒物(PM2.5),79,93,56,58,40,80,10,18,6,57,44,9,6,0.9,0.6
2023-02-15T10:00:00,1050A,114.484,36.6133,邯郸市,丛台公园,细颗粒物(PM2.5),82,78,44,60,30,79,12,11,4,54,31,7,5,0.9,0.6
2023-02-15T10:00:00,1051A,115.493,38.8632,保定市,游泳馆,颗粒物(PM10),52,53,50,32,25,65,37,21,20,21,31,13,9,0.2,0.3
2023-02-15T10:00:00,1052A,115.5213,38.8959,保定市,华电二区,颗粒物(PM10),54,57,49,32,30,57,28,19,12,38,48,9,7,0.7,0.6
2023-02-15T10:00:00,1053A,115.4713,38.9108,保定市,接待中心,,,29,43,16,21,52,30,29,16,,32,11,6,0.7,0.6
2023-02-15T10:00:00,1054A,115.4612,38.8416,保定市,地表水厂,颗粒物(PM10),57,64,62,32,30,67,31,18,15,37,44,11,7,0.2,0.2
2023-02-15T10:00:00,1056A,115.5086,38.8639,保定市,监测站,颗粒物(PM10),52,53,52,34,31,64,30,22,15,32,41,10,6,0.8,0.7
2023-02-15T10:00:00,1057A,114.8883,40.8336,张家口市,人民公园,,27,27,25,6,12,77,56,54,52,12,18,10,9,0.7,0.7
2023-02-15T10:00:00,1059A,114.8687,40.8042,张家口市,五金库,,32,22,21,22,22,70,42,49,46,22,26,8,10,0.7,0.8
2023-02-15T10:00:00,1060A,114.8902,40.762,张家口市,世纪豪园,,,,26,,16,74,,48,48,24,21,7,6,0.7,0.7
2023-02-15T10:00:00,1061A,114.8916,40.8661,张家口市,北泵房,,26,24,26,18,20,78,58,56,51,12,17,18,14,0.7,0.8
2023-02-15T10:00:00,1062A,117.9531,40.9081,承德市,铁路,,,,42,,30,69,,8,8,35,35,9,9,0.9,0.7
2023-02-15T10:00:00,1063A,117.9392,40.9763,承德市,中国银行,,44,44,36,25,21,72,25,11,11,28,33,7,6,0.8,0.6
2023-02-15T10:00:00,1064A,117.9503,40.928,承德市,开发区,细颗粒物(PM2.5),57,58,44,40,29,76,22,11,11,39,39,8,7,1.0,0.7
2023-02-15T10:00:00,1065A,117.8051,40.9655,承德市,文化中心,颗粒物(PM10),53,55,56,32,24,60,23,10,10,32,40,10,9,0.7,0.6
2023-02-15T10:00:00,1066A,117.9268,41.0026,承德市,离宫,,36,28,25,25,18,67,28,32,16,15,16,10,8,0.6,0.4
2023-02-15T10:00:00,1067A,116.6708,39.5111,廊坊市,药材公司,颗粒物(PM10),51,52,39,24,19,72,36,20,14,34,37,7,5,0.6,0.6
2023-02-15T10:00:00,1068A,116.7214,39.5589,廊坊市,开发区,颗粒物(PM10),54,58,37,27,20,78,32,40,14,45,41,8,7,0.6,0.6
2023-02-15T10:00:00,1070A,116.7244,39.5269,廊坊市,北华航天学院,颗粒物(PM10),51,52,43,18,19,74,34,31,10,42,39,12,10,0.4,0.4
2023-02-15T10:00:00,1071A,116.8842,38.2991,沧州市,沧县城建局,,44,44,40,12,20,68,56,49,49,28,30,12,12,0.3,0.6
2023-02-15T10:00:00,1072A,116.8584,38.3254,沧州市,电视转播站,,32,32,41,9,14,71,67,54,54,22,32,12,13,0.5,0.6
2023-02-15T10:00:00,1073A,116.8709,38.3228,沧州市,市环保局,,41,41,46,9,16,68,57,40,36,22,33,8,8,0.2,0.3
2023-02-15T10:00:00,1074A,115.6838,37.7541,衡水市,电机北厂,,46,46,35,22,17,78,38,26,26,20,21,12,6,0.4,0.4
2023-02-15T10:00:00,1075A,115.6303,37.7316,衡水市,市监测站,,43,43,37,18,17,76,47,40,40,23,22,24,14,0.3,0.3
2023-02-15T10:00:00,1077A,114.4704,37.0886,邢台市,达活泉,细颗粒物(PM2.5),89,95,58,66,49,72,9,5,5,41,34,5,5,1.0,0.8
2023-02-15T10:00:00,1078A,114.5062,37.0349,邢台市,邢师高专,细颗粒物(PM2.5),84,69,54,62,44,72,13,5,5,54,42,9,7,1.1,0.9
2023-02-15T10:00:00,1079A,114.5237,37.0851,邢台市,路桥公司,细颗粒物(PM2.5),92,67,55,68,46,74,7,19,2,46,33,14,11,1.1,0.9
2023-02-15T10:00:00,1080A,114.4725,37.0719,邢台市,市环保局,细颗粒物(PM2.5),89,102,65,66,51,74,11,6,6,45,38,8,7,1.0,0.8
2023-02-15T10:00:00,1081A,112.522,37.8873,太原市,尖草坪,,,102,66,68,40,68,,6,6,36,54,6,12,,0.6
2023-02-15T10:00:00,1083A,112.434,38.0108,太原市,上兰,,,,,,,,,,,,,,,,
2023-02-15T10:00:00,1084A,112.469,37.7124,太原市,晋源,细颗粒物(PM2.5),98,100,75,73,50,62,19,16,7,46,55,10,12,1.0,0.9
2023-02-15T10:00:00,1085A,112.5583,37.7394,太原市,小店,细颗粒物(PM2.5),85,89,58,63,39,63,11,23,4,59,51,17,11,1.5,0.7
2023-02-15T10:00:00,1086A,112.5369,37.8692,太原市,桃园,细颗粒物(PM2.5),100,112,71,75,44,66,18,5,5,42,58,11,13,1.1,0.8
2023-02-15T10:00:00,1087A,112.57,37.8195,太原市,坞城,细颗粒物(PM2.5),97,106,58,72,41,68,16,6,6,55,56,40,15,2.2,0.9
2023-02-15T10:00:00,1088A,112.549,37.9854,太原市,南寨,细颗粒物(PM2.5),80,83,51,59,34,72,17,6,6,50,52,5,11,1.0,0.8
2023-02-15T10:00:00,1090A,111.6507,40.7517,呼和浩特市,呼市一监,颗粒物(PM10),53,56,35,30,22,70,23,11,11,39,38,16,11,1.0,0.7
2023-02-15T10:00:00,1091A,111.6572,40.8033,呼和浩特市,小召,,,56,33,22,16,52,,12,8,39,44,17,16,0.9,0.7
2023-02-15T10:00:00,1094A,111.7516,40.8369,呼和浩特市,如意水处理厂,颗粒物(PM10),54,57,28,31,15,73,22,12,10,45,41,19,13,1.1,0.6
2023-02-15T10:00:00,1095A,111.7276,40.8062,呼和浩特市,二十九中,颗粒物(PM10),51,51,31,26,17,68,20,12,12,33,33,15,12,1.0,0.7
2023-02-15T10:00:00,1096A,111.5512,40.7866,呼和浩特市,工大金川校区,颗粒物(PM10),51,52,49,29,19,60,15,4,4,42,39,30,15,1.0,0.7
2023-02-15T10:00:00,1097A,111.717,40.7612,呼和浩特市,化肥厂生活区,颗粒物(PM10),53,56,37,30,19,74,31,20,15,34,40,19,13,0.9,0.6
2023-02-15T10:00:00,1098A,123.6836,41.9339,沈阳市,森林路,,,,,,,,,,,,,,,,
2023-02-15T10:00:00,1099A,123.505,41.7406,沈阳市,浑南东路,,26,26,34,17,18,70,55,61,50,17,16,16,14,0.5,0.4
2023-02-15T10:00:00,1100A,123.4231,41.6989,沈阳市,新秀街,,26,26,36,14,18,74,51,60,44,21,17,16,10,0.7,0.7
2023-02-15T10:00:00,1102A,123.5903,41.8411,沈阳市,东陵路,,,9,31,12,18,75,,63,49,10,13,,9,0.6,0.6
2023-02-15T10:00:00,1103A,123.4264,41.8467,沈阳市,陵东街,,41,41,50,20,25,77,50,44,19,25,32,9,9,0.5,0.6
2023-02-15T10:00:00,1104A,123.4114,41.7653,沈阳市,文化路,,34,34,39,21,22,73,46,60,46,29,21,12,10,0.6,0.5
2023-02-15T10:00:00,1105A,123.4678,41.7867,沈阳市,小河沿,,19,18,36,10,17,74,59,58,48,16,20,8,9,0.5,0.5
2023-02-15T10:00:00,1106A,123.4017,41.7972,沈阳市,太原街,,30,30,41,21,25,70,44,57,43,26,21,9,10,0.6,0.6
2023-02-15T10:00:00,1108A,123.3783,41.9228,沈阳市,京沈街,,,47,44,28,28,76,51,55,29,,24,9,10,0.5,0.6
2023-02-15T10:00:00,1109A,121.612,38.9741,大连市,甘井子,细颗粒物(PM2.5),67,78,50,48,25,84,49,68,51,31,18,18,8,1.1,0.3
2023-02-15T10:00:00,1110A,121.565,38.9511,大连市,周水子,颗粒物(PM10),76,101,63,46,25,79,45,64,47,34,22,18,8,1.1,0.5
2023-02-15T10:00:00,1111A,121.5637,38.8845,大连市,星海三站,细颗粒物(PM2.5),65,67,46,47,27,63,42,55,40,41,29,20,14,1.2,0.7
2023-02-15T10:00:00,1112A,121.6302,38.9117,大连市,青泥洼桥,细颗粒物(PM2.5),65,63,48,47,24,80,43,67,50,52,28,21,11,1.4,0.7
2023-02-15T10:00:00,1113A,121.6251,38.8638,大连市,傅家庄,细颗粒物(PM2.5),60,64,44,43,20,82,44,64,49,38,20,21,13,1.3,0.8
2023-02-15T10:00:00,1114A,121.5213,38.8661,大连市,七贤岭,细颗粒物(PM2.5),60,47,38,43,24,80,56,67,57,22,14,17,11,1.3,0.7
2023-02-15T10:00:00,1115A,121.2529,38.8061,大连市,旅顺,,50,39,30,35,20,78,57,68,53,14,11,14,12,0.9,0.8
2023-02-15T10:00:00,1116A,121.7485,39.1311,大连市,金州,细颗粒物(PM2.5),69,70,44,50,25,82,48,64,47,39,24,19,10,1.8,0.9
2023-02-15T10:00:00,1117A,121.7811,39.0496,大连市,开发区,细颗粒物(PM2.5),65,45,32,47,23,74,39,63,41,40,22,23,13,1.3,0.6
2023-02-15T10:00:00,1118A,121.9762,39.0631,大连市,双D港,细颗粒物(PM2.5),69,59,39,50,24,84,56,67,56,28,14,25,14,0.9,0.5
2023-02-15T10:00:00,1119A,125.3325,43.9166,长春市,食品厂,,,76,42,57,32,75,,47,20,44,32,40,9,0.8,0.6
2023-02-15T10:00:00,1120A,125.2863,43.9027,长春市,客车厂,,,,33,,24,73,,34,16,34,34,,9,0.3,0.3
2023-02-15T10:00:00,1121A,125.2841,43.8463,长春市,邮电学院,,28,28,27,15,19,71,48,45,21,30,30,29,14,0.5,0.4
2023-02-15T10:00:00,1122A,125.3716,43.8772,长春市,劳动公园,,,29,37,21,23,73,,42,22,43,34,,14,0.3,0.3
2023-02-15T10:00:00,1123A,125.3297,43.8805,长春市,园林处,,28,24,29,19,22,70,45,48,25,32,30,14,17,0.5,0.4
2023-02-15T10:00:00,1124A,125.4605,43.79,长春市,净月潭,,21,18,20,11,11,74,65,51,51,8,7,13,4,0.5,0.4
2023-02-15T10:00:00,1125A,125.7194,43.515,长春市,甩湾子,,,,,,,,,,,,,,,,
2023-02-15T10:00:00,1126A,125.3863,43.8447,长春市,经开区环卫处,,42,42,34,19,19,72,49,13,13,27,34,14,10,0.6,0.6
2023-02-15T10:00:00,1127A,125.245,43.7783,长春市,高新区管委会,,48,39,29,33,22,74,56,16,16,19,34,14,13,0.6,0.5
2023-02-15T10:00:00,1128A,125.1761,43.8325,长春市,岱山公园,颗粒物(PM10),51,51,43,26,30,72,37,12,12,37,39,11,11,0.7,0.7
2023-02-15T10:00:00,1129A,126.5422,45.755,哈尔滨市,岭北,细颗粒物(PM2.5),147,101,47,112,39,81,39,46,37,48,25,42,18,1.4,0.9
2023-02-15T10:00:00,1130A,126.561,45.8167,哈尔滨市,松北商大,细颗粒物(PM2.5),88,72,37,65,28,83,41,24,21,43,33,12,6,1.1,0.6
2023-02-15T10:00:00,1131A,126.979,45.5419,哈尔滨市,阿城会宁,细颗粒物(PM2.5),84,85,60,62,41,77,50,28,28,25,34,20,14,1.1,0.9
2023-02-15T10:00:00,1132A,126.599,45.7222,哈尔滨市,南岗学府路,颗粒物(PM10),81,112,44,45,29,78,52,41,31,32,28,40,22,0.7,0.8
2023-02-15T10:00:00,1133A,126.689,45.7733,哈尔滨市,太平宏伟公园,细颗粒物(PM2.5),248,255,60,198,41,81,20,60,20,74,34,34,12,2.3,0.7
2023-02-15T10:00:00,1134A,126.635,45.7667,哈尔滨市,道外承德广场,颗粒物(PM10),77,103,37,41,22,73,28,54,32,54,29,29,12,1.2,0.7
2023-02-15T10:00:00,1135A,126.685,45.7319,哈尔滨市,香坊红旗大街,细颗粒物(PM2.5),166,195,56,126,44,70,27,44,17,69,37,51,24,1.5,0.9
2023-02-15T10:00:00,1136A,126.6411,45.7258,哈尔滨市,动力和平路,细颗粒物(PM2.5),138,97,32,105,25,72,21,21,21,69,24,43,17,1.4,0.6
2023-02-15T10:00:00,1137A,126.593,45.7478,哈尔滨市,道里建国路,颗粒物(PM10),80,110,37,55,27,70,27,43,28,52,29,50,9,1.1,0.6
2023-02-15T10:00:00,1138A,126.615,45.61,哈尔滨市,平房东轻厂,,,71,46,63,34,66,52,22,20,26,47,18,16,,0.4
2023-02-15T10:00:00,1139A,126.595,45.9855,哈尔滨市,呼兰师专,细颗粒物(PM2.5),110,111,45,83,40,74,32,43,37,47,24,,12,1.0,0.6
2023-02-15T10:00:00,1140A,126.6206,45.6842,哈尔滨市,省农科院,,,80,58,52,32,79,34,14,12,,14,36,26,1.3,1
2023-02-15T10:00:00,1141A,121.4,31.238,上海市,普陀,,46,43,38,32,18,82,58,79,56,33,22,6,4,0.7,0.6
2023-02-15T10:00:00,1142A,121.478,31.2036,上海市,十五厂,,42,42,36,26,19,73,52,70,53,33,24,7,5,0.7,0.7
2023-02-15T10:00:00,1143A,121.467,31.3008,上海市,虹口,颗粒物(PM10),53,56,40,31,20,77,45,69,47,34,21,7,6,0.8,0.6
2023-02-15T10:00:00,1144A,121.412,31.1654,上海市,徐汇上师大,,50,50,36,28,15,72,37,68,47,46,25,9,8,0.8,0.7
2023-02-15T10:00:00,1145A,121.536,31.2659,上海市,杨浦四漂,,39,34,33,27,18,78,65,73,59,20,20,7,6,0.5,0.5
2023-02-15T10:00:00,1147A,121.425,31.2261,上海市,静安监测站,颗粒物(PM10),52,53,40,30,18,73,51,73,52,40,28,9,7,1.0,0.8
2023-02-15T10:00:00,1148A,121.703,31.1907,上海市,浦东川沙,,32,31,34,22,18,70,63,68,54,14,17,5,5,0.5,0.5
2023-02-15T10:00:00,1149A,121.533,31.2284,上海市,浦东新区监测站,颗粒物(PM10),55,59,36,17,18,72,39,70,55,38,21,6,6,0.7,0.6
2023-02-15T10:00:00,1150A,121.577,31.2071,上海市,浦东张江,,35,35,34,11,12,72,56,70,55,23,19,4,4,0.6,0.6
2023-02-15T10:00:00,1151A,118.8086,32.1065,南京市,迈皋桥,颗粒物(PM10),60,69,50,34,25,99,54,41,23,35,20,10,5,0.5,0.4
2023-02-15T10:00:00,1152A,118.7538,32.0551,南京市,草场门,颗粒物(PM10),55,60,53,31,23,89,53,47,17,33,28,16,4,0.7,0.4
2023-02-15T10:00:00,1153A,118.7794,32.0745,南京市,山西路,颗粒物(PM10),60,70,50,29,28,99,59,60,28,27,21,8,5,0.6,0.5
2023-02-15T10:00:00,1154A,118.7752,32.0023,南京市,中华门,颗粒物(PM10),57,63,47,34,23,95,45,69,25,38,29,12,8,1.0,0.7
2023-02-15T10:00:00,1155A,118.8109,32.0309,南京市,瑞金路,颗粒物(PM10),52,54,47,27,23,92,49,48,20,39,30,7,4,0.6,0.6
2023-02-15T10:00:00,1156A,118.7997,32.0754,南京市,玄武湖,颗粒物(PM10),60,70,49,36,31,86,40,42,16,39,24,4,4,0.6,0.4
2023-02-15T10:00:00,1157A,118.6414,32.0931,南京市,浦口,颗粒物(PM10),51,52,48,34,25,94,66,60,48,24,20,25,6,0.8,0.5
2023-02-15T10:00:00,1158A,118.7356,31.9996,南京市,奥体中心,颗粒物(PM10),61,71,51,29,25,95,54,65,25,39,34,9,6,0.9,0.8
2023-02-15T10:00:00,1159A,118.9125,32.1028,南京市,仙林大学城,颗粒物(PM10),53,56,44,29,26,93,55,55,18,36,27,15,6,0.6,0.4
2023-02-15T10:00:00,1160A,120.561,31.2472,苏州市,上方山,,42,42,48,28,27,67,57,58,48,25,22,9,6,0.7,0.6
2023-02-15T10:00:00,1162A,120.591,31.3019,苏州市,彩香,,50,50,47,32,27,79,59,69,54,29,20,9,6,0.8,0.6
2023-02-15T10:00:00,1163A,120.596,31.3264,苏州市,轧钢厂,颗粒物(PM10),52,54,48,28,23,77,59,68,40,22,18,9,6,0.8,0.7
2023-02-15T10:00:00,1164A,120.613,31.2703,苏州市,吴中区,,46,46,44,26,23,76,65,68,60,26,20,9,6,0.7,0.6
2023-02-15T10:00:00,1165A,120.543,31.2994,苏州市,苏州新区,,43,43,45,29,27,75,64,66,54,18,14,10,8,0.7,0.6
2023-02-15T10:00:00,1166A,120.669,31.3097,苏州市,苏州工业园区,颗粒物(PM10),53,55,45,31,25,73,58,67,53,26,19,10,7,0.7,0.6
2023-02-15T10:00:00,1167A,120.641,31.3708,苏州市,相城区,,50,50,45,28,22,76,69,69,64,15,13,10,6,0.6,0.5
2023-02-15T10:00:00,1168A,120.9098,31.9663,南通市,狼山街道,颗粒物(PM10),61,71,39,39,20,89,70,81,67,18,13,8,6,0.4,0.4
2023-02-15T10:00:00,1169A,120.86,32.0005,南通市,虹桥,颗粒物(PM10),65,80,43,40,22,86,60,75,60,22,14,8,5,0.6,0.4
2023-02-15T10:00:00,1170A,120.87,32.02,南通市,城中,"颗粒物(PM10),细颗粒物(PM2.5)",65,80,42,47,23,79,56,72,57,22,15,9,6,0.5,0.3
2023-02-15T10:00:00,1171A,120.94,31.93,南通市,星湖花园,颗粒物(PM10),59,67,38,29,19,85,67,78,62,14,12,10,8,0.5,0.4
2023-02-15T10:00:00,1172A,120.81,32.0417,南通市,紫琅学院,颗粒物(PM10),71,92,45,36,20,77,58,68,54,18,14,8,6,0.5,0.4
2023-02-15T10:00:00,1173A,119.176,34.5885,连云港市,市环境监测站,,48,48,46,27,24,78,54,50,39,16,21,15,13,1.1,0.6
2023-02-15T10:00:00,1177A,117.179,34.2761,徐州市,黄河新村,,46,46,54,13,27,81,56,41,38,22,33,12,14,0.7,0.9
2023-02-15T10:00:00,1178A,117.1918,34.2384,徐州市,淮塔,,39,39,50,14,23,84,63,62,48,16,23,9,11,0.6,0.7
2023-02-15T10:00:00,1180A,117.256,34.2153,徐州市,新城区,,34,34,46,15,23,85,59,54,50,14,24,11,11,0.7,0.7
2023-02-15T10:00:00,1181A,117.244,34.2911,徐州市,桃园路,,44,44,55,5,22,77,54,36,36,19,31,10,12,0.5,0.6
2023-02-15T10:00:00,1182A,117.2933,34.2778,徐州市,农科院,,36,36,46,9,19,86,59,46,46,11,20,9,10,0.5,0.6
2023-02-15T10:00:00,1186A,119.389,32.3761,扬州市,邗江监测站,颗粒物(PM10),53,56,48,34,25,90,60,66,58,25,20,8,5,0.5,0.4
2023-02-15T10:00:00,1188A,120.269,31.4867,无锡市,雪浪,颗粒物(PM10),51,51,46,27,23,74,65,59,55,18,18,10,8,1.0,1.1
2023-02-15T10:00:00,1189A,120.275,31.6219,无锡市,黄巷,颗粒物(PM10),60,70,51,29,21,50,33,48,26,43,30,8,7,0.5,0.5
2023-02-15T10:00:00,1190A,120.294,31.56,无锡市,曹张,颗粒物(PM10),57,64,47,27,21,70,52,63,46,25,20,11,6,0.8,0.6
2023-02-15T10:00:00,1191A,120.242,31.5031,无锡市,漆塘,颗粒物(PM10),52,53,41,31,24,79,66,63,53,17,14,10,7,0.6,0.6
2023-02-15T10:00:00,1192A,120.3489,31.5863,无锡市,东亭,颗粒物(PM10),60,70,46,39,23,70,45,65,44,42,25,13,10,1.0,0.8
2023-02-15T10:00:00,1193A,120.354,31.5475,无锡市,旺庄,颗粒物(PM10),54,58,43,31,24,68,48,62,49,33,22,8,5,0.9,0.6
2023-02-15T10:00:00,1194A,120.245,31.5631,无锡市,荣巷,颗粒物(PM10),57,63,45,29,22,72,54,62,51,32,20,14,10,0.6,0.5
2023-02-15T10:00:00,1195A,120.299,31.6817,无锡市,堰桥,颗粒物(PM10),58,66,43,34,21,56,41,50,38,29,16,3,2,0.9,0.7
2023-02-15T10:00:00,1196A,119.9633,31.762,常州市,市监测站,颗粒物(PM10),60,69,42,42,26,83,55,68,48,33,22,10,6,0.5,0.4
2023-02-15T10:00:00,1200A,119.9468,31.7069,常州市,武进监测站,颗粒物(PM10),60,69,44,41,24,80,46,68,36,41,24,10,7,0.6,0.5
2023-02-15T10:00:00,1201A,119.9255,31.9087,常州市,安家,细颗粒物(PM2.5),65,70,45,47,28,86,54,66,32,27,23,12,8,0.5,0.4
2023-02-15T10:00:00,1203A,119.6707,32.1875,镇江市,新区办事处,颗粒物(PM10),55,60,50,37,25,88,48,56,30,25,30,5,5,0.5,0.4
2023-02-15T10:00:00,1204A,119.4974,32.1968,镇江市,职教中心,颗粒物(PM10),53,56,45,29,25,98,64,72,59,21,17,7,5,0.5,0.4
2023-02-15T10:00:00,1205A,119.4303,32.1328,镇江市,丹徒区监测站,颗粒物(PM10),51,52,42,31,23,86,55,68,33,28,24,8,6,0.6,0.4
2023-02-15T10:00:00,1206A,119.905,32.4878,泰州市,公园路,颗粒物(PM10),52,53,41,27,23,85,51,64,48,18,17,9,7,0.7,0.6
2023-02-15T10:00:00,1207A,119.9189,32.4625,泰州市,莲花,,49,49,42,30,25,82,52,68,52,18,17,11,9,0.8,0.6
2023-02-15T10:00:00,1209A,119.888,32.4639,泰州市,留学生创业园,颗粒物(PM10),55,59,48,33,23,80,51,63,34,22,22,12,10,0.5,0.4
2023-02-15T10:00:00,1210A,119.036,33.5981,淮安市,钵池山,,,39,40,13,22,87,59,48,37,,22,,7,0.6,0.7
2023-02-15T10:00:00,1211A,119.007,33.575,淮安市,北京南路,,36,36,43,18,22,83,55,48,40,20,24,9,10,0.6,0.7
2023-02-15T10:00:00,1212A,118.989,33.6067,淮安市,市监测站,,31,31,38,12,22,94,60,53,46,20,25,7,8,0.6,0.7
2023-02-15T10:00:00,1213A,119.135,33.5039,淮安市,楚州区监测站,,42,42,44,19,22,83,53,44,40,19,24,9,9,0.6,0.7
2023-02-15T10:00:00,1214A,119.0186,33.6297,淮安市,淮阴区监测站,,45,45,49,16,25,92,58,46,38,16,28,10,11,0.5,0.6
2023-02-15T10:00:00,1215A,120.118,33.4022,盐城市,盐城电厂,,39,39,40,16,15,96,69,57,51,12,15,8,7,0.4,0.4
2023-02-15T10:00:00,1216A,120.156,33.3942,盐城市,市监测站,,33,33,36,19,17,91,68,67,51,11,14,6,6,0.5,0.5
2023-02-15T10:00:00,1218A,120.2144,33.38,盐城市,开发区管委会,,44,44,46,14,19,91,59,61,47,14,14,6,5,0.4,0.4
2023-02-15T10:00:00,1220A,118.293,33.9528,宿迁市,宿迁学院,,35,35,49,17,28,86,59,44,41,18,29,13,11,0.8,0.6
2023-02-15T10:00:00,1221A,118.2442,33.9592,宿迁市,宿迁中学,,35,33,48,24,29,85,60,44,42,16,24,15,12,0.8,0.5
2023-02-15T10:00:00,1223A,120.2072,30.2111,杭州市,滨江,,42,42,44,23,25,80,63,52,50,27,30,10,8,0.7,0.6
2023-02-15T10:00:00,1224A,120.0633,30.2747,杭州市,西溪,,49,49,45,31,28,92,62,62,55,28,26,6,6,0.5,0.5
2023-02-15T10:00:00,1226A,120.3461,30.3153,杭州市,下沙,,40,40,50,21,30,82,81,48,48,15,32,7,7,0.4,0.5
2023-02-15T10:00:00,1227A,120.1269,30.2456,杭州市,卧龙桥,颗粒物(PM10),51,51,40,32,26,88,50,57,50,32,23,9,8,0.6,0.6
2023-02-15T10:00:00,1228A,120.1903,30.2692,杭州市,浙江农大,,44,44,45,27,30,83,63,49,48,23,26,7,6,0.7,0.6
2023-02-15T10:00:00,1230A,120.1197,30.3119,杭州市,和睦小学,,49,49,40,34,31,80,53,56,45,36,32,7,6,0.7,0.6
2023-02-15T10:00:00,1231A,120.3019,30.4183,杭州市,临平镇,,35,35,44,18,24,84,82,57,57,8,20,8,8,0.4,0.4
2023-02-15T10:00:00,1232A,120.2697,30.1819,杭州市,城厢镇,,50,50,46,27,30,76,65,50,50,21,25,9,8,0.4,0.4
2023-02-15T10:00:00,1233A,120.0883,30.1808,杭州市,云栖,,41,41,39,25,23,90,69,47,47,17,19,7,6,0.5,0.5
2023-02-15T10:00:00,1234A,121.8358,29.911,宁波市,区环保大楼,,25,24,30,17,22,79,68,70,68,20,25,10,10,0.5,0.5
2023-02-15T10:00:00,1235A,121.56,29.82,宁波市,万里学院,,42,42,44,18,20,83,69,68,68,19,19,7,6,0.6,0.6
2023-02-15T10:00:00,1236A,121.713,29.9572,宁波市,龙赛医院,,35,35,40,16,18,82,64,70,63,20,19,4,4,0.5,0.6
2023-02-15T10:00:00,1239A,121.633,29.7733,宁波市,钱湖水厂,,32,25,30,22,20,84,78,70,69,13,16,5,5,0.6,0.6
2023-02-15T10:00:00,1240A,121.5856,29.8635,宁波市,太古小学,,24,24,33,14,22,83,76,65,65,12,19,8,8,0.7,0.7
2023-02-15T10:00:00,1241A,121.524,29.8674,宁波市,市环境监测中心,,33,33,36,8,12,77,66,61,60,16,20,5,5,0.5,0.4
2023-02-15T10:00:00,1242A,120.634,28.0089,温州市,瓯海,颗粒物(PM10),53,56,47,33,28,74,54,46,35,27,33,8,7,0.4,0.4
2023-02-15T10:00:00,1243A,120.6748,27.9939,温州市,南浦,,48,47,45,33,36,79,57,46,45,20,26,6,5,0.4,0.4
2023-02-15T10:00:00,1244A,120.76,27.9747,温州市,龙湾,,,,43,,26,74,,42,40,20,32,7,7,0.5,0.5
2023-02-15T10:00:00,1245A,120.6709,28.0167,温州市,市站,,,53,46,35,34,80,,40,40,26,29,7,6,0.5,0.5
2023-02-15T10:00:00,1247A,120.6053,29.9928,绍兴市,城东开发委,颗粒物(PM10),54,57,53,34,30,85,64,48,48,20,25,6,5,0.9,0.8
2023-02-15T10:00:00,1250A,120.0751,30.8669,湖州市,城西水厂,,42,42,36,20,21,86,64,51,51,33,31,7,6,0.4,0.4
2023-02-15T10:00:00,1252A,120.7436,30.778,嘉兴市,清河小学,,38,38,39,25,28,71,68,59,54,21,25,9,6,0.9,0.8
2023-02-15T10:00:00,1253A,120.726,30.7478,嘉兴市,嘉兴学院,,46,46,42,25,23,78,71,63,61,21,24,7,5,0.6,0.5
2023-02-15T10:00:00,1255A,121.273,28.6459,台州市,黄岩环保大楼,细颗粒物(PM2.5),59,66,46,42,30,95,60,59,48,22,22,8,8,0.3,0.3
2023-02-15T10:00:00,1256A,121.419,28.6542,台州市,台州环保大楼,细颗粒物(PM2.5),69,65,45,50,26,97,61,70,51,20,19,8,8,0.4,0.3
2023-02-15T10:00:00,1257A,121.377,28.5773,台州市,路桥田洋王,细颗粒物(PM2.5),69,67,52,50,31,98,58,69,51,20,19,7,6,0.4,0.3
2023-02-15T10:00:00,1258A,122.122,30.0203,舟山市,定海檀枫,,27,27,28,14,15,79,71,79,74,12,13,4,4,0.6,0.6
2023-02-15T10:00:00,1259A,122.3094,29.9558,舟山市,普陀东港,,27,27,27,16,14,83,71,82,75,10,9,5,5,0.3,0.3
2023-02-15T10:00:00,1260A,122.19,29.9944,舟山市,临城新区,,29,29,29,11,12,83,74,83,79,14,13,5,5,0.4,0.4
2023-02-15T10:00:00,1262A,119.647,29.077,金华市,十五中,细颗粒物(PM2.5),57,50,50,40,34,67,62,55,52,20,25,6,5,0.3,0.4
2023-02-15T10:00:00,1263A,119.686,29.1029,金华市,监测站,,,,42,46,37,71,,56,50,21,27,6,5,0.6,0.6
2023-02-15T10:00:00,1264A,118.8692,28.9398,衢州市,环保大楼,细颗粒物(PM2.5),60,56,46,43,33,58,47,41,41,24,25,5,3,0.5,0.6
2023-02-15T10:00:00,1265A,118.8709,28.9666,衢州市,实验学校,细颗粒物(PM2.5),59,62,44,42,33,60,54,42,42,23,28,6,3,0.6,0.6
2023-02-15T10:00:00,1266A,118.8621,28.9808,衢州市,衢州学院,细颗粒物(PM2.5),54,55,43,38,31,58,58,39,39,19,27,8,5,0.6,0.6
2023-02-15T10:00:00,1267A,119.914,28.4514,丽水市,监测站大楼,颗粒物(PM10),53,56,36,32,23,76,56,57,54,19,14,8,8,0.3,0.3
2023-02-15T10:00:00,1268A,119.93,28.4586,丽水市,莲都小学,,,60,42,,24,80,,60,56,,20,8,7,0.3,0.2
2023-02-15T10:00:00,1269A,119.879,28.4231,丽水市,余庄前,颗粒物(PM10),53,56,38,36,22,77,60,37,37,16,16,9,8,0.4,0.3
2023-02-15T10:00:00,1270A,117.1959,31.7848,合肥市,明珠广场,颗粒物(PM10),84,118,46,36,23,95,17,48,17,60,35,7,9,0.9,0.6
2023-02-15T10:00:00,1271A,117.3072,31.8764,合肥市,三里街,细颗粒物(PM2.5),65,75,41,47,27,86,39,48,16,51,38,7,6,0.7,0.5
2023-02-15T10:00:00,1272A,117.2588,31.8707,合肥市,琥珀山庄,颗粒物(PM10),63,75,40,31,20,92,38,53,16,48,34,8,5,0.7,0.5
2023-02-15T10:00:00,1273A,117.1604,31.9052,合肥市,董铺水库,颗粒物(PM10),53,56,42,24,18,87,32,39,11,37,25,5,5,0.5,0.3
2023-02-15T10:00:00,1274A,117.25,31.8571,合肥市,长江中路,颗粒物(PM10),58,66,42,39,29,89,36,48,17,42,28,15,11,0.9,0.8
2023-02-15T10:00:00,1275A,117.266,31.9436,合肥市,庐阳区,颗粒物(PM10),68,85,44,29,20,84,43,45,23,42,28,18,9,0.6,0.5
2023-02-15T10:00:00,1276A,117.336,31.8586,合肥市,瑶海区,颗粒物(PM10),69,88,42,39,24,84,48,50,21,39,31,8,6,0.9,0.7
2023-02-15T10:00:00,1277A,117.3027,31.7964,合肥市,包河区,颗粒物(PM10),75,100,46,48,26,80,32,22,9,53,50,12,10,0.7,0.5
2023-02-15T10:00:00,1278A,117.2776,31.7385,合肥市,滨湖新区,颗粒物(PM10),67,84,47,36,22,71,47,45,20,42,49,9,6,0.4,0.3
2023-02-15T10:00:00,1279A,117.1318,31.8403,合肥市,高新区,颗粒物(PM10),70,90,49,39,23,86,39,52,18,46,34,11,7,0.8,0.6
2023-02-15T10:00:00,1280A,119.3903,26.0543,福州市,鼓山,,,,,,,,,,,,,,,,
2023-02-15T10:00:00,1282A,119.2681,26.0504,福州市,师大,,46,46,26,31,24,75,57,71,66,19,20,4,3,0.7,0.6
2023-02-15T10:00:00,1283A,119.2984,26.1028,福州市,五四北路,,46,46,22,32,20,78,52,78,68,22,16,4,2,0.8,0.7
2023-02-15T10:00:00,1284A,119.2648,26.0768,福州市,杨桥西路,,45,45,28,29,20,76,59,72,66,13,14,4,3,0.7,0.7
2023-02-15T10:00:00,1285A,119.317,26.0746,福州市,紫阳,,40,40,26,28,22,75,56,72,66,14,16,4,3,0.7,0.7
2023-02-15T10:00:00,1286A,118.1608,24.8169,厦门市,溪东,,,,,,,,,,,,,,,,
2023-02-15T10:00:00,1287A,118.1514,24.4767,厦门市,洪文,,44,44,44,24,28,71,57,59,59,30,30,2,2,0.2,0.3
2023-02-15T10:00:00,1288A,118.0661,24.4444,厦门市,鼓浪屿,,34,34,36,23,25,69,57,64,64,35,30,4,3,0.3,0.5
2023-02-15T10:00:00,1290A,115.8931,28.6843,南昌市,省外办,细颗粒物(PM2.5),69,73,53,50,35,89,55,44,36,19,19,10,7,0.5,0.5
2023-02-15T10:00:00,1291A,115.8886,28.7003,南昌市,省林业公司,细颗粒物(PM2.5),64,56,35,46,37,86,54,47,37,23,18,7,4,0.8,0.8
2023-02-15T10:00:00,1292A,115.8126,28.7442,南昌市,林科所,细颗粒物(PM2.5),58,56,44,41,37,80,63,55,43,11,12,8,6,0.6,0.6
2023-02-15T10:00:00,1294A,115.8518,28.687,南昌市,建工学校,,,,52,,30,83,,49,40,,17,,8,,0.8
2023-02-15T10:00:00,1295A,115.8921,28.6424,南昌市,象湖,细颗粒物(PM2.5),68,50,38,49,38,84,53,44,39,20,19,7,5,0.6,0.5
2023-02-15T10:00:00,1296A,115.7423,28.7996,南昌市,武术学校,,48,45,29,33,27,77,56,24,22,10,6,5,3,0.8,0.7
2023-02-15T10:00:00,1298A,115.9314,28.6842,南昌市,省站,细颗粒物(PM2.5),78,73,50,57,38,90,55,40,36,13,10,11,9,0.6,0.6
2023-02-15T10:00:00,1299A,116.9862,36.6114,济南市,科干所,,31,31,37,7,14,69,45,56,36,27,29,7,9,0.7,0.6
2023-02-15T10:00:00,1300A,116.9376,36.665,济南市,农科所,颗粒物(PM10),59,68,42,17,13,73,35,50,21,42,36,9,8,1.0,0.6
2023-02-15T10:00:00,1301A,117.1265,36.6734,济南市,开发区,,49,49,38,17,15,65,48,51,27,22,29,12,12,0.6,0.5
2023-02-15T10:00:00,1303A,117.0624,36.6868,济南市,省种子仓库,颗粒物(PM10),60,70,42,27,22,69,44,62,28,35,31,13,12,0.6,0.4
2023-02-15T10:00:00,1304A,116.9489,36.6447,济南市,机床二厂,颗粒物(PM10),51,51,39,10,14,76,40,51,30,37,35,8,10,0.7,0.6
2023-02-15T10:00:00,1305A,117.0495,36.663,济南市,市监测站,颗粒物(PM10),51,51,39,12,16,68,42,51,30,36,38,8,9,0.6,0.5
2023-02-15T10:00:00,1306A,116.7675,36.5484,济南市,长清党校,颗粒物(PM10),52,54,47,29,21,77,27,31,14,47,46,12,10,0.8,0.7
2023-02-15T10:00:00,1307A,120.6659,36.2403,青岛市,仰口,,39,39,30,19,17,85,67,76,69,14,11,2,3,0.5,0.4
2023-02-15T10:00:00,1310A,120.4134,36.0658,青岛市,市南区东部子站,颗粒物(PM10),51,51,38,22,16,80,50,66,50,33,25,11,10,0.6,0.5
2023-02-15T10:00:00,1311A,120.3664,36.1032,青岛市,四方区子站,,,51,39,19,14,73,,62,45,,21,,8,,0.6
2023-02-15T10:00:00,1312A,120.2994,36.054,青岛市,市南区西部子站,,44,44,37,22,13,85,68,76,66,15,15,9,9,0.3,0.3
2023-02-15T10:00:00,1313A,120.4581,36.0858,青岛市,崂山区子站,,,,37,,12,84,,71,55,,19,,9,,0.5
2023-02-15T10:00:00,1314A,120.1983,35.9608,青岛市,黄岛区子站,颗粒物(PM10),51,51,41,17,17,84,62,58,47,23,29,8,8,0.5,0.5
2023-02-15T10:00:00,1315A,120.3999,36.3083,青岛市,城阳区子站,颗粒物(PM10),52,53,34,24,15,80,62,61,44,12,16,7,7,0.4,0.4
2023-02-15T10:00:00,1316A,113.69031,34.76122,郑州市,烟厂,细颗粒物(PM2.5),62,70,41,44,28,82,31,35,33,60,41,11,6,0.7,0.4
2023-02-15T10:00:00,1317A,113.65724,34.77134,郑州市,郑纺机,细颗粒物(PM2.5),59,59,40,42,27,81,43,35,33,70,42,7,5,0.6,0.4
2023-02-15T10:00:00,1318A,113.67526,34.80246,郑州市,银行学校,细颗粒物(PM2.5),69,61,34,50,28,85,17,41,34,68,38,8,5,0.9,0.7
2023-02-15T10:00:00,1319A,113.56746,34.81334,郑州市,供水公司,颗粒物(PM10),67,83,46,45,28,81,19,23,23,66,43,10,5,0.9,0.6
2023-02-15T10:00:00,1320A,113.7329,34.7178,郑州市,经开区管委,细颗粒物(PM2.5),83,114,53,61,34,79,15,5,5,68,52,12,8,0.9,0.6
2023-02-15T10:00:00,1321A,113.73961,34.77172,郑州市,四十七中,颗粒物(PM10),61,71,42,43,27,87,27,35,30,62,39,8,4,0.7,0.5
2023-02-15T10:00:00,1322A,113.60532,34.74838,郑州市,市监测站,细颗粒物(PM2.5),63,64,50,45,30,76,43,27,27,44,43,26,8,0.6,0.4
2023-02-15T10:00:00,1323A,113.64164,34.7525,郑州市,河医大,细颗粒物(PM2.5),64,61,45,46,28,72,30,32,23,51,42,9,5,0.7,0.5
2023-02-15T10:00:00,1324A,113.51488,34.91089,郑州市,岗李水库,,,,,,,,,,,,,,,,
2023-02-15T10:00:00,1325A,114.3677,30.5584,武汉市,东湖梨园,细颗粒物(PM2.5),85,60,45,63,44,106,43,78,56,48,26,25,8,3.0,0.7
2023-02-15T10:00:00,1326A,114.2529,30.558,武汉市,汉阳月湖,细颗粒物(PM2.5),79,61,50,58,46,99,59,61,45,30,31,8,7,1.4,0.7
2023-02-15T10:00:00,1327A,114.282,30.6189,武汉市,汉口花桥,细颗粒物(PM2.5),62,65,49,44,40,99,54,67,50,26,23,6,6,0.6,0.6
2023-02-15T10:00:00,1328A,114.3025,30.5332,武汉市,武昌紫阳,细颗粒物(PM2.5),108,58,46,81,45,92,34,72,44,50,30,23,9,2.6,0.8
2023-02-15T10:00:00,1329A,114.3646,30.6217,武汉市,青山钢花,细颗粒物(PM2.5),77,64,48,56,44,100,52,65,41,30,31,10,10,0.7,0.6
2023-02-15T10:00:00,1330A,114.1566,30.4825,武汉市,沌口新区,细颗粒物(PM2.5),97,69,50,72,51,84,39,45,22,44,43,10,8,1.2,0.8
2023-02-15T10:00:00,1331A,114.3014,30.5944,武汉市,汉口江滩,细颗粒物(PM2.5),73,60,48,53,44,96,54,64,54,26,23,7,7,0.6,0.6
2023-02-15T10:00:00,1333A,114.135,30.6319,武汉市,吴家山,细颗粒物(PM2.5),68,72,53,49,42,97,57,37,26,29,44,7,7,0.8,0.8
2023-02-15T10:00:00,1334A,113.8454,30.2917,武汉市,沉湖七壕,颗粒物(PM10),52,54,42,32,24,97,49,59,46,30,20,10,9,0.8,0.7
2023-02-15T10:00:00,1335A,113.0833,28.2325,长沙市,经开区环保局,细颗粒物(PM2.5),94,79,68,70,56,52,46,22,18,22,31,5,4,0.6,0.5
2023-02-15T10:00:00,1336A,112.8872,28.2189,长沙市,高开区环保局,细颗粒物(PM2.5),79,95,80,58,46,69,30,37,19,41,26,9,6,1.0,0.8
2023-02-15T10:00:00,1337A,113.0792,28.2053,长沙市,马坡岭,细颗粒物(PM2.5),92,86,68,68,55,55,31,22,10,31,31,8,7,0.7,0.5
2023-02-15T10:00:00,1338A,112.9394,28.19,长沙市,湖南师范大学,细颗粒物(PM2.5),89,76,56,66,50,62,32,39,26,35,22,8,5,0.8,0.6
2023-02-15T10:00:00,1339A,113.0178,28.1322,长沙市,雨花区环保局,细颗粒物(PM2.5),84,80,64,62,51,60,43,19,19,27,29,5,3,0.7,0.6
2023-02-15T10:00:00,1340A,112.9792,28.2597,长沙市,伍家岭,细颗粒物(PM2.5),78,91,71,57,50,66,34,34,15,34,28,8,6,0.8,0.7
2023-02-15T10:00:00,1341A,113.0014,28.1944,长沙市,火车新站,细颗粒物(PM2.5),79,73,65,58,51,58,49,34,29,30,28,9,7,0.7,0.7
2023-02-15T10:00:00,1342A,112.9844,28.1178,长沙市,天心区环保局,细颗粒物(PM2.5),85,83,67,63,49,64,53,17,17,26,31,5,3,0.6,0.5
2023-02-15T10:00:00,1343A,112.8908,28.1308,长沙市,湖南中医药大学,细颗粒物(PM2.5),83,82,65,61,49,69,34,28,14,32,29,5,3,0.8,0.6
2023-02-15T10:00:00,1344A,112.9581,28.3611,长沙市,沙坪,细颗粒物(PM2.5),72,66,57,52,42,67,43,46,28,21,17,6,4,0.6,0.5
2023-02-15T10:00:00,1345A,113.2347,23.1423,广州市,广雅中学,,33,33,29,21,14,58,57,48,48,21,23,4,5,0.5,0.7
2023-02-15T10:00:00,1346A,113.2612,23.105,广州市,市五中,,42,42,40,16,12,68,68,59,59,13,19,5,6,0.8,1
2023-02-15T10:00:00,1348A,113.3478,23.0916,广州市,广东商学院,,24,24,23,11,9,65,64,58,58,12,15,4,4,0.8,1
2023-02-15T10:00:00,1349A,113.4332,23.1047,广州市,市八十六中,,29,29,28,20,15,66,55,56,53,16,15,3,3,0.8,1
2023-02-15T10:00:00,1350A,113.3505,22.9483,广州市,番禺中学,,28,28,25,15,8,62,59,54,54,20,22,5,5,0.8,1
2023-02-15T10:00:00,1351A,113.2146,23.3916,广州市,花都师范,,26,23,18,18,11,70,70,43,43,13,16,5,6,0.7,0.9
2023-02-15T10:00:00,1352A,113.2597,23.1331,广州市,市监测站,,29,27,20,20,14,61,61,54,54,17,20,6,6,0.8,0.9
2023-02-15T10:00:00,1353A,113.5618,23.312,广州市,九龙镇镇龙,,25,24,17,17,10,64,61,61,56,10,10,5,5,0.8,0.9
2023-02-15T10:00:00,1354A,113.2765,23.1544,广州市,麓湖,,29,26,20,20,13,63,63,52,52,15,19,4,4,0.6,0.8
2023-02-15T10:00:00,1355A,113.443,23.3035,广州市,帽峰山森林公园,,23,23,17,14,9,73,73,68,64,6,8,4,5,1.0,1.2
2023-02-15T10:00:00,1356A,114.1063,22.5545,深圳市,通心岭子站,,38,38,27,18,10,71,50,55,52,14,16,4,4,0.7,0.8
2023-02-15T10:00:00,1357A,114.117,22.5625,深圳市,洪湖,,41,41,24,18,10,76,55,61,57,16,18,8,8,0.6,0.7
2023-02-15T10:00:00,1358A,113.987,22.5417,深圳市,华侨城,,32,32,26,14,10,81,53,49,49,16,21,6,6,0.8,0.9
2023-02-15T10:00:00,1359A,113.9181,22.5171,深圳市,南海子站,,34,34,27,17,11,76,47,46,45,11,15,4,4,0.9,0.9
2023-02-15T10:00:00,1360A,114.2458,22.5689,深圳市,盐田,,22,22,16,15,9,79,52,58,53,10,12,6,5,0.7,0.9
2023-02-15T10:00:00,1361A,114.2283,22.7244,深圳市,龙岗,,31,31,22,19,11,77,58,57,53,8,11,3,4,0.5,0.7
2023-02-15T10:00:00,1363A,114.494,22.5422,深圳市,南澳,,18,15,14,7,6,90,57,60,56,14,13,20,12,1.0,1.1
2023-02-15T10:00:00,1364A,114.41,22.6342,深圳市,葵涌,,25,25,17,12,7,76,52,58,51,11,12,8,8,0.6,0.7
2023-02-15T10:00:00,1365A,114.297,22.5978,深圳市,梅沙,,31,31,18,17,7,90,60,62,60,9,8,4,4,0.8,0.9
2023-02-15T10:00:00,1366A,114.0678,22.738,深圳市,观澜,,32,31,26,22,11,81,64,59,59,16,18,7,7,0.5,0.6
2023-02-15T10:00:00,1367A,113.5814,22.2618,珠海市,吉大,,22,22,20,4,3,85,63,55,55,7,15,8,9,0.6,0.7
2023-02-15T10:00:00,1368A,113.4881,22.2335,珠海市,前山,,19,19,16,4,9,64,44,40,40,27,28,4,4,0.8,0.8
2023-02-15T10:00:00,1369A,113.628,22.4251,珠海市,唐家,,24,24,23,8,5,81,56,53,53,14,19,6,7,0.5,0.6
2023-02-15T10:00:00,1370A,113.299,22.2281,珠海市,斗门,,,14,21,6,8,55,,43,43,19,23,6,5,0.6,0.7
2023-02-15T10:00:00,1371A,113.1294,23.0067,佛山市,湾梁,,,51,19,,6,60,59,49,49,15,18,,7,0.7,0.9
2023-02-15T10:00:00,1372A,113.1083,23.0478,佛山市,华材职中,,29,29,18,20,11,58,58,42,42,21,20,4,5,0.6,0.8
2023-02-15T10:00:00,1373A,113.144,23.0453,佛山市,南海气象局,,22,22,12,6,7,55,55,43,43,16,17,6,7,0.7,0.9
2023-02-15T10:00:00,1374A,113.2881,22.8094,佛山市,顺德苏岗,,20,15,13,14,9,53,50,47,47,20,20,7,7,0.9,1.1
2023-02-15T10:00:00,1376A,112.8383,22.8678,佛山市,高明孔堂,,36,36,18,6,5,55,40,33,31,15,17,8,8,1.2,1.1
2023-02-15T10:00:00,1377A,112.8836,23.1588,佛山市,三水监测站,,17,17,14,8,8,44,40,28,28,16,17,5,4,1.0,1
2023-02-15T10:00:00,1378A,112.867,23.185,佛山市,三水云东海,,,15,14,16,13,44,,29,28,,20,6,4,0.7,0.7
2023-02-15T10:00:00,1379A,113.3769,22.5211,中山市,华柏园,,19,19,18,9,8,58,51,46,46,22,23,8,7,0.8,0.9
2023-02-15T10:00:00,1380A,113.3881,22.5497,中山市,张溪,,30,30,22,8,7,58,54,48,48,19,20,7,5,0.7,0.9
2023-02-15T10:00:00,1381A,113.4075,22.5111,中山市,紫马岭,,25,21,22,17,14,60,52,44,44,16,19,7,6,0.7,0.8
2023-02-15T10:00:00,1382A,113.4411,22.4853,中山市,长江旅游区,,23,23,24,10,6,50,45,37,37,19,23,11,12,0.7,0.8
2023-02-15T10:00:00,1383A,113.1064,22.6058,江门市,北街,,22,22,22,10,5,59,59,48,48,18,25,7,8,0.8,0.9
2023-02-15T10:00:00,1384A,113.0731,22.5835,江门市,西区,,39,39,26,4,4,55,55,44,44,18,24,6,6,0.7,0.8
2023-02-15T10:00:00,1385A,113.0219,22.5311,江门市,圭峰西,,23,23,19,12,10,56,56,42,42,20,25,5,6,0.8,1
2023-02-15T10:00:00,1386A,113.0828,22.5947,江门市,东湖,,28,28,24,4,4,58,58,45,45,18,22,6,5,0.8,0.9
2023-02-15T10:00:00,1389A,113.7547,23.0494,东莞市,莞城梨川,,26,26,19,18,11,71,66,63,63,14,15,8,8,0.5,0.7
2023-02-15T10:00:00,1390A,113.7944,23.0128,东莞市,东城石井,,28,28,16,17,9,76,75,59,59,13,13,8,8,0.6,0.8
2023-02-15T10:00:00,1391A,113.7383,22.9658,东莞市,南城西平,,28,28,18,19,10,71,63,52,52,14,18,6,6,0.5,0.7
2023-02-15T10:00:00,1392A,114.4183,23.0528,惠州市,河南岸金山湖子站,,,,18,7,10,82,55,52,52,10,13,5,5,0.7,0.8
2023-02-15T10:00:00,1393A,114.4053,23.0822,惠州市,下埔横江三路子站,,30,30,17,12,8,89,64,62,61,11,13,4,5,0.7,0.8
2023-02-15T10:00:00,1394A,114.4103,23.1142,惠州市,江北云山西路子站,,28,28,13,13,8,94,65,63,61,5,7,4,5,0.6,0.7
2023-02-15T10:00:00,1395A,114.4645,22.7833,惠州市,惠阳区承修路船湖子站,,20,17,19,14,9,80,55,56,51,10,11,5,5,0.9,1
2023-02-15T10:00:00,1396A,114.5317,22.7422,惠州市,大亚湾管委会子站,,27,27,16,10,9,76,52,57,50,11,12,5,5,0.6,0.7
2023-02-15T10:00:00,1397A,112.4267,23.0706,肇庆市,睦岗子站,,16,16,15,10,8,50,44,41,38,20,21,8,8,0.6,0.7
2023-02-15T10:00:00,1398A,112.4645,23.0475,肇庆市,城中子站,,18,18,15,11,9,52,50,42,42,12,14,5,5,0.7,0.8
2023-02-15T10:00:00,1399A,112.5544,23.1522,肇庆市,坑口子站,,18,14,13,12,10,51,46,39,39,13,15,3,3,0.7,0.8
2023-02-15T10:00:00,1400A,112.4753,23.1,肇庆市,七星岩子站,,19,14,13,13,9,47,47,42,42,8,8,8,8,1.0,1.1
2023-02-15T10:00:00,1401A,108.3103,22.7881,南宁市,二十一中,,25,24,26,17,16,73,61,70,64,14,12,6,7,0.7,0.8
2023-02-15T10:00:00,1402A,108.3141,22.8528,南宁市,北湖,,21,21,28,13,12,68,58,63,61,13,12,6,8,0.9,1
2023-02-15T10:00:00,1403A,108.3206,22.8225,南宁市,市监测站,,35,23,28,24,23,66,53,61,58,21,17,7,8,0.8,0.9
2023-02-15T10:00:00,1404A,108.3829,22.8037,南宁市,大自然花园,,25,25,25,16,14,68,54,64,57,14,13,8,6,0.6,0.7
2023-02-15T10:00:00,1405A,108.4394,22.7904,南宁市,仙葫,,19,18,24,11,11,71,59,66,61,9,9,6,9,0.6,0.7
2023-02-15T10:00:00,1406A,108.2397,22.8467,南宁市,区农职院,,20,18,22,14,16,73,61,70,62,12,13,7,9,0.8,0.8
2023-02-15T10:00:00,1407A,108.3275,22.735,南宁市,英华嘉园,,23,22,25,16,12,65,50,60,53,16,14,6,6,0.6,0.6
2023-02-15T10:00:00,1408A,108.2257,22.7757,南宁市,沙井镇街道办,,33,30,31,23,19,60,44,49,49,23,21,12,8,0.4,0.5
2023-02-15T10:00:00,1409A,110.576,19.9507,海口市,东寨港,,,23,24,7,5,47,32,36,31,,,6,6,1.0,0.9
2023-02-15T10:00:00,1410A,110.3232,20.0574,海口市,海南大学,,25,17,26,17,18,82,50,54,50,12,10,6,5,1.0,1
2023-02-15T10:00:00,1411A,110.283,20.0053,海口市,秀英海南医院,,28,28,31,15,18,77,50,53,48,14,13,4,4,0.9,0.9
2023-02-15T10:00:00,1412A,110.338,19.9969,海口市,海南师范大学,,32,32,30,14,16,77,49,52,47,12,9,3,3,1.0,0.9
2023-02-15T10:00:00,1413A,110.33,20.0356,海口市,龙华路环保局宿舍,,29,29,29,7,8,77,48,52,47,12,10,6,6,1.0,0.9
2023-02-15T10:00:00,1414A,106.3787,29.8279,重庆市,缙云山,,26,26,20,9,12,34,23,26,24,18,17,5,5,0.7,0.7
2023-02-15T10:00:00,1416A,106.4213,29.8253,重庆市,天生,,48,33,31,33,23,30,7,11,11,36,30,5,7,1.0,0.9
2023-02-15T10:00:00,1417A,106.6263,29.7228,重庆市,两路,,29,29,26,19,18,22,11,17,15,33,29,4,3,0.9,0.9
2023-02-15T10:00:00,1418A,106.2953,29.5983,重庆市,虎溪,,28,28,25,14,15,46,12,14,14,31,31,5,5,1.0,1
2023-02-15T10:00:00,1419A,106.5777,29.5102,重庆市,南坪,,38,37,35,26,24,37,12,16,16,24,25,6,6,0.9,0.9
2023-02-15T10:00:00,1420A,106.6556,29.6277,重庆市,唐家沱,,43,28,28,30,23,33,15,26,25,37,33,8,7,1.0,1
2023-02-15T10:00:00,1421A,106.6349,29.4906,重庆市,茶园,,46,46,35,27,23,47,13,14,13,32,32,6,5,0.9,0.9
2023-02-15T10:00:00,1422A,106.3754,29.4572,重庆市,白市驿,,43,25,25,30,24,51,13,11,11,30,36,7,6,1.3,1.3
2023-02-15T10:00:00,1425A,106.6205,29.7166,重庆市,空港,,36,25,23,25,21,33,16,22,19,34,31,5,5,1.0,1
2023-02-15T10:00:00,1426A,106.4782,29.4875,重庆市,新山村,,42,37,37,29,24,36,12,15,12,38,44,6,6,0.6,0.7
2023-02-15T10:00:00,1427A,106.5616,29.6453,重庆市,礼嘉,,31,31,26,21,15,28,15,21,18,36,37,7,6,0.8,0.7
2023-02-15T10:00:00,1428A,106.4522,29.7091,重庆市,蔡家,,35,35,29,23,19,52,17,19,18,33,24,5,5,0.8,0.8
2023-02-15T10:00:00,1429A,106.5093,29.3917,重庆市,鱼新街,,44,44,35,19,26,48,10,12,12,27,29,8,8,0.9,0.9
2023-02-15T10:00:00,1431A,103.9728,30.7236,成都市,金泉两河,,44,44,42,19,25,72,34,48,46,26,25,3,3,0.7,0.7
2023-02-15T10:00:00,1432A,104.176,30.6872,成都市,十里店,颗粒物(PM10),55,59,33,30,18,90,8,54,30,37,20,3,2,0.9,0.8
2023-02-15T10:00:00,1433A,104.079,30.5706,成都市,三瓦窑,,42,37,30,29,19,87,13,56,39,36,21,1,1,0.7,0.6
2023-02-15T10:00:00,1434A,104.1114,30.63,成都市,沙河铺,,44,44,33,25,19,92,11,50,39,45,26,1,2,0.8,0.8
2023-02-15T10:00:00,1437A,104.0786,30.6531,成都市,君平街,细颗粒物(PM2.5),52,38,32,36,21,82,42,54,49,31,26,2,2,0.5,0.5
2023-02-15T10:00:00,1438A,103.613,31.0283,成都市,灵岩寺,细颗粒物(PM2.5),63,60,41,45,27,78,3,60,10,16,15,4,5,0.9,0.7
2023-02-15T10:00:00,1439A,106.6899,26.5998,贵阳市,马鞍山,细颗粒物(PM2.5),52,34,26,36,23,74,65,71,71,15,12,7,8,0.7,0.7
2023-02-15T10:00:00,1440A,106.6971,26.5694,贵阳市,市环保站,,50,34,26,35,29,76,54,73,70,26,15,6,8,0.6,0.6
2023-02-15T10:00:00,1441A,106.6243,26.6266,贵阳市,鉴湖路,,44,44,32,27,19,75,57,69,68,21,13,4,6,0.4,0.5
2023-02-15T10:00:00,1442A,106.7487,26.6343,贵阳市,燕子冲,细颗粒物(PM2.5),55,41,33,39,30,78,69,72,72,8,8,6,7,0.6,0.7
2023-02-15T10:00:00,1443A,106.6555,26.4365,贵阳市,碧云窝,,,53,39,29,25,73,62,70,69,20,20,,14,0.7,0.7
2023-02-15T10:00:00,1444A,106.694,26.5161,贵阳市,中院村,,46,46,42,29,22,75,53,72,67,23,17,11,12,0.6,0.6
2023-02-15T10:00:00,1445A,106.7109,26.6027,贵阳市,红边门,,42,39,31,29,27,78,63,74,71,19,12,8,11,0.7,0.7
2023-02-15T10:00:00,1446A,106.7164,26.5699,贵阳市,新华路,,46,46,37,24,22,75,60,71,69,16,10,6,8,0.6,0.6
2023-02-15T10:00:00,1447A,106.674,26.5424,贵阳市,太慈桥,,46,46,38,24,19,74,55,71,68,26,15,7,6,0.6,0.6
2023-02-15T10:00:00,1450A,102.8204,24.8886,昆明市,呈贡新区,细颗粒物(PM2.5),108,82,69,81,61,142,60,53,53,27,29,9,9,1.0,1
2023-02-15T10:00:00,1451A,102.6251,24.9608,昆明市,西山森林公园,细颗粒物(PM2.5),97,94,76,72,53,162,102,134,116,16,17,7,11,1.1,1.1
2023-02-15T10:00:00,1452A,102.7252,25.0902,昆明市,龙泉镇,细颗粒物(PM2.5),110,94,67,83,54,147,44,66,51,51,33,9,8,1.1,0.9
2023-02-15T10:00:00,1453A,102.7266,25.0375,昆明市,东风东路,细颗粒物(PM2.5),122,110,87,92,65,146,28,47,47,59,40,8,9,1.2,1
2023-02-15T10:00:00,1454A,102.6742,25.0669,昆明市,金鼎山,细颗粒物(PM2.5),117,103,83,88,60,155,27,30,30,42,29,10,8,1.1,0.9
2023-02-15T10:00:00,1455A,102.6644,25.0401,昆明市,碧鸡广场,细颗粒物(PM2.5),124,107,90,94,70,151,42,54,54,51,43,6,8,1.0,0.9
2023-02-15T10:00:00,1456A,91.1319,29.6514,拉萨市,八廓街,颗粒物(PM10),54,57,33,22,12,105,53,58,57,21,20,7,7,0.7,0.7
2023-02-15T10:00:00,1457A,91.1221,29.6747,拉萨市,市环保局,细颗粒物(PM2.5),65,52,43,47,25,104,33,43,42,35,30,7,7,0.9,0.9
2023-02-15T10:00:00,1458A,91.0874,29.6475,拉萨市,区监测站,,36,36,35,18,15,108,38,46,45,22,18,6,7,1.0,0.8
2023-02-15T10:00:00,1459A,91.1774,29.6541,拉萨市,西藏大学,,21,21,25,13,10,109,52,61,60,16,18,4,5,0.2,0.2
2023-02-15T10:00:00,1460A,90.9798,29.6588,拉萨市,区辐射站,细颗粒物(PM2.5),54,56,48,38,23,99,10,24,22,58,45,8,8,1.0,0.9
2023-02-15T10:00:00,1461A,91.0834,29.6292,拉萨市,拉萨火车站,,32,32,34,15,12,103,32,33,30,34,30,8,8,0.7,0.7
2023-02-15T10:00:00,1462A,108.882,34.2749,西安市,高压开关厂,细颗粒物(PM2.5),129,115,83,98,58,69,11,13,7,40,47,7,7,1.2,0.8
2023-02-15T10:00:00,1463A,108.993,34.2629,西安市,兴庆小区,细颗粒物(PM2.5),148,88,62,113,60,74,10,8,8,40,43,7,7,2.4,1
2023-02-15T10:00:00,1464A,109.06,34.2572,西安市,纺织城,细颗粒物(PM2.5),139,104,62,106,53,77,7,5,5,39,40,10,9,1.0,0.5
2023-02-15T10:00:00,1465A,108.9356,34.2173,西安市,小寨,细颗粒物(PM2.5),113,109,73,85,49,66,7,8,6,46,44,8,7,1.4,0.8
2023-02-15T10:00:00,1466A,108.954,34.2713,西安市,市人民体育场,细颗粒物(PM2.5),142,108,68,108,59,67,8,4,4,35,43,8,8,1.5,1
2023-02-15T10:00:00,1467A,108.8922,34.2322,西安市,高新西区,细颗粒物(PM2.5),132,89,63,100,58,65,9,18,8,43,46,8,7,1.3,0.8
2023-02-15T10:00:00,1468A,108.935,34.3474,西安市,经开区,细颗粒物(PM2.5),118,82,65,89,61,74,20,18,10,26,37,8,7,1.0,0.7
2023-02-15T10:00:00,1469A,108.906,34.1546,西安市,长安区,细颗粒物(PM2.5),115,129,80,87,51,73,6,6,5,48,40,6,6,1.4,0.9
2023-02-15T10:00:00,1471A,109.2186,34.3731,西安市,临潼区,细颗粒物(PM2.5),128,95,65,97,55,74,5,7,4,32,31,9,9,1.3,0.9
2023-02-15T10:00:00,1472A,108.869,34.378,西安市,草滩,细颗粒物(PM2.5),80,84,65,59,39,57,13,8,8,28,37,14,10,0.7,0.4
2023-02-15T10:00:00,1473A,108.985,34.1978,西安市,曲江文化产业集团,细颗粒物(PM2.5),98,88,70,73,47,77,7,6,6,44,40,6,6,1.4,0.8
2023-02-15T10:00:00,1474A,109.051,34.3213,西安市,广运潭,细颗粒物(PM2.5),119,96,72,90,57,78,10,4,4,27,32,7,7,1.2,0.8
2023-02-15T10:00:00,1476A,103.631,36.1031,兰州市,兰炼宾馆,细颗粒物(PM2.5),119,143,111,90,82,128,28,15,15,59,65,11,16,2.1,1.5
2023-02-15T10:00:00,1477A,104.1373,35.9454,兰州市,榆中兰大校区,,,,,,,,,,,,,,,,
2023-02-15T10:00:00,1478A,103.8412,36.0726,兰州市,生物制品所,,,,,,,,,,,,,,,,
2023-02-15T10:00:00,1479A,103.831,36.0464,兰州市,铁路设计院,细颗粒物(PM2.5),134,126,106,102,83,94,32,27,27,57,69,6,10,1.7,1.4
2023-02-15T10:00:00,1483A,101.524,36.6867,西宁市,第五水厂,,,,,,,,,,,,,,,,
2023-02-15T10:00:00,1484A,105.9512,38.6016,银川市,贺兰山马莲口,细颗粒物(PM2.5),94,76,56,70,40,81,54,74,67,29,23,40,17,1.0,0.6
2023-02-15T10:00:00,1488A,106.2328,38.4975,银川市,贺兰山东路,细颗粒物(PM2.5),129,129,103,98,65,93,16,9,9,45,53,4,11,1.5,1.1
2023-02-15T10:00:00,1489A,106.1358,38.5036,银川市,学院路,细颗粒物(PM2.5),84,115,99,62,52,89,20,11,11,37,50,7,12,1.2,0.9
2023-02-15T10:00:00,1490A,87.5801,43.8303,乌鲁木齐市,监测站,细颗粒物(PM2.5),156,174,174,119,128,96,3,2,2,107,94,4,4,2.6,1.7
2023-02-15T10:00:00,1491A,87.6046,43.768,乌鲁木齐市,收费所,细颗粒物(PM2.5),163,201,214,124,137,60,6,18,14,72,79,5,5,1.4,1.5
2023-02-15T10:00:00,1492A,87.4754,43.9469,乌鲁木齐市,新疆农科院农场,,,141,153,138,158,129,6,5,5,86,75,10,9,2.2,1.9
2023-02-15T10:00:00,1493A,87.5525,43.8711,乌鲁木齐市,铁路局,细颗粒物(PM2.5),214,176,162,164,148,111,5,5,5,87,65,3,3,2.3,1.6
2023-02-15T10:00:00,1494A,87.6432,43.831,乌鲁木齐市,三十一中学,细颗粒物(PM2.5),147,89,175,112,124,81,7,10,8,73,68,6,6,1.8,1.5
2023-02-15T10:00:00,1496A,87.7216,44.1747,乌鲁木齐市,米东区环保局,细颗粒物(PM2.5),296,296,200,246,173,133,16,68,7,79,60,5,10,1.8,1.3
2023-02-15T10:00:00,1508A,112.9433,27.8614,湘潭市,板塘,细颗粒物(PM2.5),89,65,55,66,52,65,31,36,27,30,22,3,2,0.7,0.8
2023-02-15T10:00:00,1511A,112.9118,27.8403,湘潭市,市监测站,细颗粒物(PM2.5),87,85,70,64,48,62,28,35,14,30,23,9,6,0.6,0.6
2023-02-15T10:00:00,1512A,112.8937,27.8728,湘潭市,江麓,细颗粒物(PM2.5),78,69,60,57,47,71,41,50,21,22,18,8,4,0.9,1.1
2023-02-15T10:00:00,1513A,112.9227,27.8159,湘潭市,岳塘,细颗粒物(PM2.5),79,81,65,58,49,71,33,29,17,36,31,10,5,1.0,0.9
2023-02-15T10:00:00,1514A,112.9074,27.9119,湘潭市,科大,,,74,60,57,46,71,,33,21,27,24,6,4,1.2,1.3
2023-02-15T10:00:00,1515A,113.135,27.8244,株洲市,天台山庄,细颗粒物(PM2.5),84,81,64,62,52,55,30,30,23,28,27,6,5,0.8,0.7
2023-02-15T10:00:00,1518A,113.095,27.8867,株洲市,株冶医院,,,84,78,58,54,50,31,11,8,26,38,,2,1.2,1.2
2023-02-15T10:00:00,1519A,113.167,27.8667,株洲市,市四中,细颗粒物(PM2.5),77,56,59,56,52,52,27,46,7,24,31,7,7,0.8,0.8
2023-02-15T10:00:00,1520A,113.143,27.8381,株洲市,火车站,细颗粒物(PM2.5),79,75,67,58,53,50,24,40,22,37,31,8,5,0.8,0.8
2023-02-15T10:00:00,1524A,113.13,27.8528,株洲市,市监测站,细颗粒物(PM2.5),90,83,68,67,60,52,31,29,20,28,31,11,7,0.9,0.8
2023-02-15T10:00:00,1552A,106.805,26.3003,贵阳市,桐木岭,,,,,,,,,,,,,,,,
2023-02-15T10:00:00,1559A,113.251,27.8336,株洲市,大京风景区,细颗粒物(PM2.5),59,56,53,42,40,51,26,31,14,17,21,1,2,0.5,0.4
2023-02-15T10:00:00,1562A,113.0048,27.9153,湘潭市,昭山,细颗粒物(PM2.5),79,82,69,58,49,59,20,18,6,29,26,3,2,0.7,0.5
2023-02-15T10:00:00,1564A,112.4876,27.9164,湘潭市,韶山,细颗粒物(PM2.5),67,54,43,48,35,70,46,26,18,18,14,7,5,0.8,0.7
2023-02-15T10:00:00,1585A,109.8756,40.6532,包头市,市环境监测站,颗粒物(PM10),58,66,46,39,25,65,16,6,6,51,46,57,22,1.9,1
2023-02-15T10:00:00,1587A,109.9991,40.5842,包头市,包头八中,细颗粒物(PM2.5),87,104,63,64,33,65,11,4,4,55,48,34,33,1.4,1.3
2023-02-15T10:00:00,1588A,109.8538,40.6821,包头市,青山宾馆,细颗粒物(PM2.5),73,77,47,53,35,60,12,7,7,50,49,33,17,1.7,1.1
2023-02-15T10:00:00,1589A,109.8642,40.6288,包头市,惠龙物流,细颗粒物(PM2.5),60,56,47,43,30,64,15,4,4,55,51,38,21,1.7,1.2
2023-02-15T10:00:00,1590A,110.0377,40.5546,包头市,东河鸿龙湾,"颗粒物(PM10),细颗粒物(PM2.5)",64,77,51,46,27,68,16,6,6,31,42,14,16,1.0,1.1
2023-02-15T10:00:00,1591A,110.0023,39.8129,鄂尔多斯市,综合楼,颗粒物(PM10),52,53,48,19,13,71,54,65,57,40,40,12,16,0.8,0.7
2023-02-15T10:00:00,1592A,109.9486,39.8261,鄂尔多斯市,巴音孟克林场办事处,,,,32,17,13,80,58,78,62,36,35,14,18,0.7,0.7
2023-02-15T10:00:00,1593A,109.7736,39.5986,鄂尔多斯市,康泽苑,,22,22,26,7,12,75,54,63,48,24,27,4,8,0.7,0.7
2023-02-15T10:00:00,1594A,109.8119,39.5989,鄂尔多斯市,华泰汽车城,,34,34,35,17,20,70,27,23,18,39,41,8,10,0.6,0.6
2023-02-15T10:00:00,1595A,109.9734,39.7884,鄂尔多斯市,奥林花园,,42,41,29,29,16,67,40,14,14,48,58,9,9,0.7,0.7
2023-02-15T10:00:00,1597A,122.2703,40.7094,营口市,大庆路,细颗粒物(PM2.5),60,56,64,43,42,81,50,48,34,19,20,14,9,0.7,0.8
2023-02-15T10:00:00,1598A,122.2150,40.6511,营口市,镜湖西路,颗粒物(PM10),54,57,58,34,26,85,55,54,42,19,17,13,10,0.6,0.6
2023-02-15T10:00:00,1599A,122.1658,40.6789,营口市,西炮台,,46,46,52,25,26,89,57,52,41,18,21,14,12,0.5,0.5
2023-02-15T10:00:00,1600A,124.3303,40.0625,丹东市,江湾东路,,24,24,27,15,18,90,72,78,71,9,9,10,12,0.4,0.4
2023-02-15T10:00:00,1601A,124.4256,40.1503,丹东市,临江后街,,22,22,26,12,15,85,70,75,67,10,11,8,9,0.4,0.5
2023-02-15T10:00:00,1602A,124.3933,40.1461,丹东市,元宝山,,22,22,30,12,15,78,65,70,65,10,9,11,13,0.5,0.5
2023-02-15T10:00:00,1603A,124.3633,40.1092,丹东市,民主桥,,21,21,27,12,14,80,63,70,63,13,12,9,11,0.4,0.4
2023-02-15T10:00:00,1604A,122.0303,41.1489,盘锦市,开发区,,35,21,38,24,22,79,56,54,50,14,12,8,6,0.7,0.6
2023-02-15T10:00:00,1605A,122.0485,41.0883,盘锦市,兴隆台,,,30,35,22,17,75,,51,45,18,15,8,9,0.7,0.6
2023-02-15T10:00:00,1606A,121.8297,41.1028,盘锦市,新生街道,,33,33,40,20,18,76,58,35,35,16,25,9,7,0.5,0.5
2023-02-15T10:00:00,1607A,120.9092,40.7136,葫芦岛市,龙港区,颗粒物(PM10),69,87,60,38,27,76,67,57,37,20,28,72,95,1.0,0.9
2023-02-15T10:00:00,1608A,120.8392,40.7514,葫芦岛市,化工街,颗粒物(PM10),58,66,45,36,18,77,62,46,46,19,28,19,14,0.9,0.8
2023-02-15T10:00:00,1609A,120.8341,40.7073,葫芦岛市,新区,,41,41,35,24,16,72,57,48,48,18,26,23,16,0.7,0.7
2023-02-15T10:00:00,1610A,120.8695,40.7677,葫芦岛市,东城区,,39,39,34,22,17,73,59,44,44,12,25,26,21,0.5,0.5
2023-02-15T10:00:00,1611A,118.5819,24.9117,泉州市,涂山街,,41,41,29,24,25,82,70,79,75,17,18,9,9,0.6,0.7
2023-02-15T10:00:00,1612A,118.5972,24.8978,泉州市,津头埔,,42,42,31,24,23,85,65,76,71,22,23,10,9,0.6,0.7
2023-02-15T10:00:00,1613A,118.6663,24.9424,泉州市,万安,,44,44,32,30,33,85,67,80,75,19,18,9,9,0.5,0.7
2023-02-15T10:00:00,1614A,118.6117,24.9604,泉州市,清源山,,,,,,,,,,,,,,,,
2023-02-15T10:00:00,1616A,117.6795,36.229,济南市,技术学院,,31,31,32,13,19,85,61,61,45,20,28,7,9,0.7,0.7
2023-02-15T10:00:00,1618A,118.3429,35.0532,临沂市,沂河小区,,41,41,35,23,20,81,60,58,58,12,18,8,6,0.6,0.6
2023-02-15T10:00:00,1619A,118.295,35.0583,临沂市,鲁南制药厂,,39,39,30,16,16,88,68,65,65,12,16,14,13,0.3,0.3
2023-02-15T10:00:00,1620A,118.2794,34.9976,临沂市,新光毛纺厂,,39,39,33,16,16,77,64,60,60,11,15,8,7,0.6,0.6
2023-02-15T10:00:00,1621A,118.3956,35.0888,临沂市,河东保险公司,,,,31,,21,90,65,58,58,15,20,,10,,0.7
2023-02-15T10:00:00,1622A,116.3032,37.4674,德州市,儿童乐园,,44,44,34,14,14,79,58,59,45,16,20,7,9,0.3,0.4
2023-02-15T10:00:00,1624A,116.2991,37.4451,德州市,监理站,,38,38,29,9,14,78,62,56,52,16,21,7,11,0.5,0.6
2023-02-15T10:00:00,1625A,115.9848,36.4372,聊城市,区政府,颗粒物(PM10),55,59,46,25,25,88,34,22,22,42,36,20,12,0.8,0.6
2023-02-15T10:00:00,1628A,118.0062,37.3803,滨州市,市环保局,,25,25,31,13,15,80,58,46,40,16,25,6,12,0.5,0.5
2023-02-15T10:00:00,1629A,118.0018,37.3617,滨州市,第二水厂,,27,27,32,13,12,81,59,45,45,16,26,4,8,0.3,0.4
2023-02-15T10:00:00,1630A,117.9776,37.393,滨州市,北中新校,,40,40,39,11,13,81,63,46,39,17,28,9,11,0.3,0.3
2023-02-15T10:00:00,1631A,118.0414,36.8103,淄博市,人民公园,,44,44,35,18,23,80,63,57,50,18,23,9,14,0.4,0.5
2023-02-15T10:00:00,1633A,117.8525,36.4847,淄博市,双山,颗粒物(PM10),53,55,48,22,22,73,54,50,18,21,28,12,12,0.7,0.6
2023-02-15T10:00:00,1634A,117.9592,36.6331,淄博市,气象站,,47,47,51,19,23,79,62,50,20,20,31,17,17,0.6,0.7
2023-02-15T10:00:00,1635A,118.3092,36.8194,淄博市,莆田园,,36,36,25,19,16,83,55,56,44,19,18,11,10,0.4,0.4
2023-02-15T10:00:00,1637A,117.558,34.8438,枣庄市,市中区政府,,46,46,52,9,21,93,72,57,57,18,28,14,23,0.5,0.6
2023-02-15T10:00:00,1638A,117.2852,34.7837,枣庄市,薛城环保局,,,44,52,14,27,97,62,54,54,,34,,22,0.5,0.6
2023-02-15T10:00:00,1639A,117.5852,34.7745,枣庄市,峄城区政府,,44,44,47,7,16,94,74,64,64,15,26,10,15,0.3,0.4
2023-02-15T10:00:00,1640A,117.7276,34.5578,枣庄市,台儿庄区环保局,,41,41,43,22,22,92,58,49,44,22,27,11,12,0.6,0.7
2023-02-15T10:00:00,1641A,117.4518,35.0992,枣庄市,山亭区环保局,,24,24,42,15,24,93,69,55,55,14,26,14,14,0.6,0.7
2023-02-15T10:00:00,1642A,121.2514,37.5639,烟台市,开发区,,34,34,36,19,15,71,57,58,52,13,12,10,10,0.3,0.3
2023-02-15T10:00:00,1643A,121.3719,37.5433,烟台市,轴承厂,,44,44,43,28,20,83,66,62,54,13,17,8,6,0.5,0.4
2023-02-15T10:00:00,1644A,121.3181,37.5436,烟台市,西郊化工站,,,,,,,,,,,,,,,,
2023-02-15T10:00:00,1645A,121.4478,37.4822,烟台市,莱山环保局,,34,34,39,14,17,82,67,66,64,6,8,11,10,0.8,0.7
2023-02-15T10:00:00,1646A,121.2611,37.4967,烟台市,福山环保局,,36,36,42,12,16,67,51,53,45,14,13,10,9,0.6,0.5
2023-02-15T10:00:00,1650A,119.1437,36.7023,潍坊市,环保局,,31,31,29,21,16,80,58,56,48,13,15,4,5,0.4,0.4
2023-02-15T10:00:00,1653A,116.6251,35.4302,济宁市,火炬城,颗粒物(PM10),56,61,37,34,26,92,33,29,14,34,31,14,8,0.5,0.5
2023-02-15T10:00:00,1655A,116.5491,35.4042,济宁市,电化厂,颗粒物(PM10),56,61,43,31,28,87,35,32,14,32,35,14,8,0.5,0.5
2023-02-15T10:00:00,1656A,117.1437,36.1937,泰安市,监测站,,31,31,38,18,22,73,60,55,53,7,19,13,9,0.9,0.8
2023-02-15T10:00:00,1657A,117.0885,36.2017,泰安市,人口学校,,39,39,38,13,17,74,63,69,60,7,17,9,7,1.1,0.9
2023-02-15T10:00:00,1658A,117.1089,36.1758,泰安市,电力学校,,39,39,37,16,20,74,58,56,52,18,29,15,13,1.0,0.9
2023-02-15T10:00:00,1659A,119.471,35.4209,日照市,监测站,,36,36,30,16,14,87,62,62,54,15,17,7,8,0.4,0.4
2023-02-15T10:00:00,1660A,119.523,35.4216,日照市,市政府广场,,39,39,32,21,15,82,60,62,55,6,7,5,6,0.6,0.6
2023-02-15T10:00:00,1661A,119.5587,35.4044,日照市,港务局,,36,36,34,13,15,93,70,69,64,9,11,7,8,0.6,0.6
2023-02-15T10:00:00,1662A,122.1214,37.4236,威海市,华夏技校,,34,34,41,22,19,83,74,75,69,10,11,2,3,0.3,0.3
2023-02-15T10:00:00,1663A,122.0508,37.5236,威海市,山大分校,,39,39,44,12,15,84,76,74,70,6,8,2,3,0.3,0.4
2023-02-15T10:00:00,1664A,122.1067,37.5072,威海市,市监测站,,32,32,41,15,17,82,74,75,70,8,10,6,7,0.3,0.3
2023-02-15T10:00:00,1666A,118.6614,37.4309,东营市,市环保局,,23,19,23,9,9,86,72,70,66,9,12,7,8,0.5,0.5
2023-02-15T10:00:00,1669A,113.5824,24.7733,韶关市,市八中,,23,23,14,13,9,46,46,32,32,11,11,9,9,0.7,0.9
2023-02-15T10:00:00,1671A,113.5917,24.7972,韶关市,园林处,,32,26,14,22,14,50,50,33,33,10,11,10,11,0.6,0.8
2023-02-15T10:00:00,1672A,113.6735,24.7791,韶关市,韶关学院,,38,22,14,26,15,56,56,35,35,11,13,10,14,0.6,0.8
2023-02-15T10:00:00,1673A,113.5971,24.6863,韶关市,曲江监测站,,31,31,15,19,10,55,55,38,38,10,11,10,10,0.8,0.9
2023-02-15T10:00:00,1674A,116.6794,23.3667,汕头市,金平子站,,13,13,22,8,8,86,31,66,33,24,20,16,13,1.1,1
2023-02-15T10:00:00,1675A,116.7244,23.3633,汕头市,龙湖子站,,25,25,21,8,7,88,29,66,35,24,19,15,12,0.9,0.8
2023-02-15T10:00:00,1676A,116.7258,23.2775,汕头市,濠江子站,,27,27,20,13,9,93,35,62,33,14,13,10,10,0.9,0.8
2023-02-15T10:00:00,1677A,116.7519,23.4714,汕头市,澄海子站,,18,18,21,10,11,93,35,67,38,20,20,8,6,0.9,0.8
2023-02-15T10:00:00,1678A,116.6092,23.2539,汕头市,潮阳子站,,20,20,21,6,5,85,34,64,35,15,13,7,6,1.2,1.2
2023-02-15T10:00:00,1680A,110.3539,21.2706,湛江市,湛江影剧院,,24,24,30,14,12,66,40,50,44,13,12,8,9,0.8,0.8
2023-02-15T10:00:00,1681A,110.3928,21.2228,湛江市,市环境监测站,,,26,30,12,10,63,,46,43,17,14,,11,0.9,0.8
2023-02-15T10:00:00,1682A,110.4019,21.1997,湛江市,环保局宿舍,,26,24,31,18,21,59,34,41,38,15,13,7,8,0.9,0.9
2023-02-15T10:00:00,1683A,110.4111,21.2028,湛江市,霞山游泳场,,20,20,27,14,18,66,38,47,44,13,12,9,9,1.0,0.9
2023-02-15T10:00:00,1684A,110.3316,21.2679,湛江市,麻章区环保局,,27,27,32,15,13,58,32,40,34,15,14,20,14,0.9,0.9
2023-02-15T10:00:00,1685A,110.4558,21.2567,湛江市,坡头区环保局,,,27,29,17,20,62,,42,40,15,12,7,8,0.9,0.8
2023-02-15T10:00:00,1686A,111.0286,21.4688,茂名市,电白南海,,39,39,34,17,18,67,41,42,39,11,10,7,8,0.9,0.9
2023-02-15T10:00:00,1687A,110.9294,21.6533,茂名市,茂石化七小,,32,29,32,22,23,59,44,46,44,11,10,8,6,0.7,0.7
2023-02-15T10:00:00,1688A,110.9107,21.6687,茂名市,健康路,,26,24,33,18,18,61,41,48,42,13,11,22,17,1.0,1
2023-02-15T10:00:00,1689A,110.8592,21.6828,茂名市,高岭,,39,31,33,27,23,59,36,48,41,18,13,25,22,1.1,1.1
2023-02-15T10:00:00,1690A,116.1231,24.3284,梅州市,梅江月梅,,19,7,9,8,4,69,60,57,57,7,7,6,6,0.7,0.7
2023-02-15T10:00:00,1691A,116.0797,24.2719,梅州市,梅县新城,,19,9,12,8,5,70,60,58,57,8,8,6,7,0.7,0.7
2023-02-15T10:00:00,1692A,116.1248,24.2654,梅州市,环境监控中心,,19,18,9,8,5,73,60,58,57,8,8,7,7,0.7,0.8
2023-02-15T10:00:00,1693A,115.3653,22.775,汕尾市,市环保局,,19,19,17,13,11,72,47,58,50,6,6,9,8,0.7,0.8
2023-02-15T10:00:00,1694A,115.3706,22.7898,汕尾市,市政府,,,26,14,15,5,77,48,62,54,8,8,,8,0.5,0.7
2023-02-15T10:00:00,1695A,115.3622,22.7925,汕尾市,新城中学,,24,24,17,12,12,68,45,58,51,7,6,6,6,0.6,0.6
2023-02-15T10:00:00,1696A,114.6778,23.7569,河源市,源西,,,22,15,13,8,92,71,69,69,8,9,,5,0.7,0.9
2023-02-15T10:00:00,1697A,114.6944,23.7586,河源市,东埔,,32,27,23,22,13,88,67,66,66,11,9,5,5,0.7,0.8
2023-02-15T10:00:00,1698A,114.6892,23.7233,河源市,老城,,30,30,20,21,13,88,69,66,66,8,8,4,4,0.7,0.9
2023-02-15T10:00:00,1699A,111.9797,21.8593,阳江市,鸳鸯湖,,28,28,18,8,10,58,45,40,40,11,13,7,6,1.0,1
2023-02-15T10:00:00,1701A,111.9491,21.8658,阳江市,马南垌,,20,20,26,11,11,57,48,40,40,11,12,6,6,0.7,0.7
2023-02-15T10:00:00,1702A,113.0426,23.691,清远市,环保大楼,,21,14,12,11,11,67,67,50,50,16,17,4,4,0.6,0.7
2023-02-15T10:00:00,1703A,113.0208,23.7106,清远市,凤城街办,,15,14,15,10,10,42,42,32,32,5,7,7,6,0.6,0.8
2023-02-15T10:00:00,1705A,116.6367,23.6719,潮州市,西园路,,22,22,19,9,10,56,43,45,44,8,10,7,6,0.8,0.9
2023-02-15T10:00:00,1706A,116.6447,23.6706,潮州市,档案局,,14,14,15,8,8,56,43,42,42,10,11,6,7,0.9,0.8
2023-02-15T10:00:00,1708A,116.3701,23.5345,揭阳市,新兴,,18,16,20,12,14,67,40,42,38,9,13,8,8,0.8,0.9
2023-02-15T10:00:00,1709A,116.3264,23.5443,揭阳市,西马,,21,21,20,13,11,69,45,47,44,10,11,8,8,0.7,0.7
2023-02-15T10:00:00,1710A,116.3611,23.5626,揭阳市,东兴,,20,20,20,12,12,74,44,45,40,16,18,7,7,0.7,0.8
2023-02-15T10:00:00,1711A,116.4151,23.5294,揭阳市,渔湖,,26,24,20,18,14,69,43,46,43,13,14,8,8,0.8,0.8
2023-02-15T10:00:00,1712A,112.0392,22.9169,云浮市,新市府,,13,11,14,9,9,63,41,45,38,10,13,5,6,0.9,0.9
2023-02-15T10:00:00,1714A,112.0539,22.9539,云浮市,牧羊,,20,20,15,8,7,58,43,43,41,8,11,7,7,0.8,0.9
2023-02-15T10:00:00,1715A,102.575,24.3711,玉溪市,东风水库,细颗粒物(PM2.5),97,81,74,72,69,154,68,103,64,15,15,11,10,1.3,1.1
2023-02-15T10:00:00,1718A,115.4208,35.2464,菏泽市,气象局,颗粒物(PM10),82,113,69,57,43,95,39,49,25,53,42,19,13,0.9,0.6
2023-02-15T10:00:00,1719A,115.4747,35.2375,菏泽市,市政协,,,100,58,57,40,93,34,46,23,,32,19,11,0.7,0.4
2023-02-15T10:00:00,1721A,113.3819,40.1097,大同市,果树场,,,,,,,,,,,,,,,,
2023-02-15T10:00:00,1723A,113.2994,40.0758,大同市,云冈宾馆,颗粒物(PM10),69,87,56,47,33,82,24,11,11,42,41,53,17,1.6,0.8
2023-02-15T10:00:00,1724A,113.3444,40.0917,大同市,大同大学,细颗粒物(PM2.5),75,84,51,55,29,76,29,14,11,40,39,25,14,0.8,0.6
2023-02-15T10:00:00,1725A,113.2661,40.1269,大同市,安家小村,颗粒物(PM10),88,125,70,60,33,77,19,11,8,43,39,50,19,1.7,1
2023-02-15T10:00:00,1726A,113.2711,40.0844,大同市,教育学院,细颗粒物(PM2.5),83,106,71,61,45,71,19,10,10,48,42,30,18,1.2,0.8
2023-02-15T10:00:00,1727A,113.1147,36.1547,长治市,清华站,细颗粒物(PM2.5),77,62,73,56,66,64,61,55,51,10,19,7,10,0.9,1.2
2023-02-15T10:00:00,1728A,113.1031,36.1989,长治市,监测站,细颗粒物(PM2.5),85,61,70,63,66,60,47,52,46,21,24,5,7,1.2,1.4
2023-02-15T10:00:00,1730A,113.0886,36.2125,长治市,审计局,细颗粒物(PM2.5),85,67,70,63,73,56,44,48,44,22,26,8,10,1.2,1.3
2023-02-15T10:00:00,1731A,113.0844,36.1856,长治市,长治八中,细颗粒物(PM2.5),120,75,78,91,72,62,54,54,50,15,21,4,7,0.9,1.2
2023-02-15T10:00:00,1733A,111.5531,36.0783,临汾市,临钢医院,细颗粒物(PM2.5),94,88,81,70,64,64,14,7,7,34,35,2,4,1.2,1.2
2023-02-15T10:00:00,1734A,111.5028,36.0714,临汾市,技工学校,细颗粒物(PM2.5),87,82,81,64,62,68,16,8,6,28,33,5,8,1.4,1.4
2023-02-15T10:00:00,1736A,111.5018,36.0855,临汾市,市委,细颗粒物(PM2.5),109,94,90,82,64,70,20,10,9,33,38,2,4,1.5,1.5
2023-02-15T10:00:00,1738A,113.5758,37.8572,阳泉市,市中心,细颗粒物(PM2.5),113,123,76,85,43,58,,11,11,56,49,85,31,1.8,1.1
2023-02-15T10:00:00,1739A,113.4894,37.8731,阳泉市,赛鱼,细颗粒物(PM2.5),108,98,69,81,42,66,16,7,7,56,46,20,13,1.4,0.9
2023-02-15T10:00:00,1740A,113.5819,37.8486,阳泉市,南庄,细颗粒物(PM2.5),113,149,83,85,50,65,11,13,6,55,44,122,32,1.6,1.1
2023-02-15T10:00:00,1742A,113.5614,37.8703,阳泉市,平坦,细颗粒物(PM2.5),113,138,79,85,44,69,14,6,6,51,52,54,24,1.7,1.2
2023-02-15T10:00:00,1743A,113.5158,37.8392,阳泉市,大阳泉,细颗粒物(PM2.5),113,101,68,85,61,67,26,53,41,41,33,10,12,1.3,1
2023-02-15T10:00:00,1744A,118.9233,42.2816,赤峰市,松山一中,颗粒物(PM10),53,56,35,26,18,78,26,18,14,34,31,19,18,1.0,0.7
2023-02-15T10:00:00,1745A,118.9576,42.2728,赤峰市,哈达街,,42,42,33,17,14,79,36,28,28,27,28,19,26,0.8,0.7
2023-02-15T10:00:00,1746A,118.8788,42.2554,赤峰市,天义路,,48,48,32,16,13,74,31,31,25,27,27,19,21,1.0,0.8
2023-02-15T10:00:00,1748A,123.044,41.1196,鞍山市,深沟寺,"颗粒物(PM10),细颗粒物(PM2.5)",58,65,58,41,33,81,46,49,39,27,21,22,16,1.1,0.7
2023-02-15T10:00:00,1749A,123.011,41.0931,鞍山市,太阳城,细颗粒物(PM2.5),58,61,54,41,29,85,47,55,45,25,18,17,15,0.9,0.5
2023-02-15T10:00:00,1750A,123.0485,41.1442,鞍山市,太平,细颗粒物(PM2.5),63,66,66,45,34,76,48,50,40,25,23,21,16,1.2,0.7
2023-02-15T10:00:00,1751A,122.9642,41.0971,鞍山市,铁西三道街,,,102,74,59,34,70,,54,41,58,33,,18,2.3,1.7
2023-02-15T10:00:00,1752A,122.9341,41.0833,鞍山市,铁西工业园区,细颗粒物(PM2.5),89,105,82,66,45,75,25,36,20,56,45,51,33,3.2,1.8
2023-02-15T10:00:00,1753A,123.022,41.0821,鞍山市,明达新区,颗粒物(PM10),54,57,50,35,26,82,46,56,40,28,23,16,11,1.1,0.8
2023-02-15T10:00:00,1754A,123.1289,41.0228,鞍山市,千山,,,,,,,,,,,,,,,,
2023-02-15T10:00:00,1755A,123.7977,41.8491,抚顺市,望花区,,29,22,34,20,19,74,51,62,51,21,11,9,6,0.6,0.5
2023-02-15T10:00:00,1756A,123.9161,41.8822,抚顺市,顺城区,,39,39,32,20,18,88,66,71,54,18,16,9,6,0.5,0.5
2023-02-15T10:00:00,1757A,124.0436,41.8611,抚顺市,东洲区,,29,29,34,15,20,86,72,71,58,7,11,10,8,0.4,0.5
2023-02-15T10:00:00,1758A,123.9247,41.8642,抚顺市,新抚区,,42,34,38,29,21,75,58,64,43,16,15,7,6,0.5,0.4
2023-02-15T10:00:00,1759A,124.0972,41.8961,抚顺市,大伙房水库,,35,35,34,24,19,91,75,73,62,6,10,8,7,0.4,0.4
2023-02-15T10:00:00,1760A,123.7086,41.8391,抚顺市,沈抚新城,,36,36,36,14,16,85,66,71,54,14,10,15,8,0.4,0.4
2023-02-15T10:00:00,1761A,123.8275,41.3064,本溪市,大峪,,27,27,37,14,20,84,61,65,51,34,29,15,9,0.7,0.8
2023-02-15T10:00:00,1762A,123.7567,41.3325,本溪市,溪湖,,30,30,40,9,20,78,68,68,49,10,15,7,9,0.5,0.6
2023-02-15T10:00:00,1763A,123.7169,41.3094,本溪市,彩屯,,37,37,50,14,27,74,52,65,41,24,20,13,10,0.5,0.5
2023-02-15T10:00:00,1764A,123.7669,41.2864,本溪市,东明,,36,36,39,25,22,74,49,58,44,28,23,13,12,0.7,0.6
2023-02-15T10:00:00,1765A,123.7992,41.2664,本溪市,新立屯,,46,46,39,22,25,77,55,57,42,24,21,12,8,0.8,0.7
2023-02-15T10:00:00,1766A,123.8142,41.3472,本溪市,威宁,颗粒物(PM10),52,54,49,24,27,71,48,50,30,23,23,9,6,0.5,0.5
2023-02-15T10:00:00,1767A,121.1115,41.0879,锦州市,南山,,45,37,32,31,19,79,58,50,47,20,18,19,12,0.7,0.6
2023-02-15T10:00:00,1768A,121.0533,40.8434,锦州市,开发区,颗粒物(PM10),63,75,34,44,18,78,49,59,44,29,17,14,9,0.8,0.5
2023-02-15T10:00:00,1769A,121.1836,41.1119,锦州市,百股街道,细颗粒物(PM2.5),92,97,59,68,24,81,52,49,33,28,25,39,13,1.0,0.8
2023-02-15T10:00:00,1770A,121.1178,41.1222,锦州市,天安街道,,46,36,38,32,18,78,55,47,47,21,19,22,13,0.6,0.6
2023-02-15T10:00:00,1771A,121.1303,41.1386,锦州市,北湖公园,,,77,37,36,19,78,51,45,45,,18,,14,0.8,0.8
2023-02-15T10:00:00,1772A,126.54,43.8622,吉林市,哈达湾,,,59,45,43,32,76,,63,28,37,23,20,14,1.1,0.8
2023-02-15T10:00:00,1773A,126.5844,43.8358,吉林市,东局子,,46,42,31,32,22,71,50,52,39,21,17,13,15,0.7,0.6
2023-02-15T10:00:00,1774A,126.5052,43.8245,吉林市,电力学院,细颗粒物(PM2.5),57,60,43,40,30,77,43,29,28,29,21,28,16,1.0,0.8
2023-02-15T10:00:00,1775A,126.6133,43.8972,吉林市,江北,,43,42,39,30,27,77,53,60,40,34,22,37,13,0.8,0.8
2023-02-15T10:00:00,1776A,126.555,43.8306,吉林市,江南公园,细颗粒物(PM2.5),83,68,34,61,28,72,32,46,30,42,23,21,11,1.1,0.6
2023-02-15T10:00:00,1778A,126.7061,43.7133,吉林市,丰满,,,,,,,,,,,,,,,,
2023-02-15T10:00:00,1779A,123.9305,47.3636,齐齐哈尔市,安居小区,,32,24,30,22,20,80,61,62,60,13,19,10,7,0.3,0.3
2023-02-15T10:00:00,1780A,123.9488,47.3386,齐齐哈尔市,中心广场,,35,35,24,16,11,73,52,63,55,21,22,10,7,0.7,0.5
2023-02-15T10:00:00,1781A,123.9483,47.3227,齐齐哈尔市,农牧车辆厂,,40,36,30,28,16,69,46,54,44,24,27,9,5,0.4,0.4
2023-02-15T10:00:00,1783A,123.945,47.2988,齐齐哈尔市,市环境监测站,,35,35,42,24,30,71,52,50,48,20,30,14,12,0.5,0.6
2023-02-15T10:00:00,1784A,129.61,44.561,牡丹江市,环保大楼,,29,24,33,20,20,69,55,63,52,14,11,6,4,0.4,0.4
2023-02-15T10:00:00,1785A,129.6115,44.5782,牡丹江市,文化广场,,38,26,31,26,26,64,50,59,47,16,15,9,7,0.6,0.5
2023-02-15T10:00:00,1786A,129.5904,44.5963,牡丹江市,第一医院,,43,38,41,30,31,74,50,62,40,19,12,11,3,0.7,0.7
2023-02-15T10:00:00,1787A,129.6364,44.6075,牡丹江市,机车工厂,,48,41,45,33,27,74,56,35,35,13,15,1,1,0.6,0.6
2023-02-15T10:00:00,1788A,129.6386,44.5462,牡丹江市,第一中学,,,34,29,19,22,70,57,52,52,,10,,3,0.5,0.5
2023-02-15T10:00:00,1789A,124.81117,46.03138,大庆市,大同区,细颗粒物(PM2.5),69,52,39,50,29,70,56,52,42,15,16,9,5,0.6,0.6
2023-02-15T10:00:00,1790A,125.129,46.533,大庆市,龙凤区,细颗粒物(PM2.5),75,56,31,55,23,64,46,44,23,22,29,10,7,0.8,0.6
2023-02-15T10:00:00,1791A,124.902,46.408,大庆市,红岗区,,32,32,24,22,22,72,52,40,31,21,22,8,6,0.5,0.4
2023-02-15T10:00:00,1792A,125.153,46.586,大庆市,萨尔图区,细颗粒物(PM2.5),65,38,24,47,22,68,47,52,26,26,29,13,8,0.5,0.5
2023-02-15T10:00:00,1793A,124.9042,46.6215,大庆市,让胡路区,,45,32,26,31,23,75,49,45,27,25,24,24,6,0.4,0.4
2023-02-15T10:00:00,1794A,118.3606,31.3519,芜湖市,监测站,颗粒物(PM10),62,73,52,37,31,82,64,54,29,34,48,8,9,0.8,0.8
2023-02-15T10:00:00,1795A,118.3714,31.4134,芜湖市,科创中心,细颗粒物(PM2.5),72,86,58,52,35,79,60,51,24,29,41,7,9,0.5,0.6
2023-02-15T10:00:00,1796A,118.3673,31.3131,芜湖市,四水厂,,45,45,50,30,29,80,68,61,40,23,35,9,9,0.5,0.5
2023-02-15T10:00:00,1798A,118.5092,31.6837,马鞍山市,湖东路四小,细颗粒物(PM2.5),60,39,36,43,31,85,57,67,29,34,28,14,10,1.0,0.9
2023-02-15T10:00:00,1799A,118.5024,31.6449,马鞍山市,开发区,细颗粒物(PM2.5),60,58,46,43,32,82,51,66,26,34,31,10,10,0.9,0.9
2023-02-15T10:00:00,1800A,118.5228,31.7231,马鞍山市,慈湖,细颗粒物(PM2.5),64,60,54,46,37,85,50,50,17,34,35,14,10,0.9,0.8
2023-02-15T10:00:00,1802A,118.6245,31.7241,马鞍山市,濮塘,,,,42,,23,84,,48,34,14,21,7,6,0.8,0.8
2023-02-15T10:00:00,1803A,115.9872,29.6815,九江市,十里,,45,45,53,22,41,86,71,53,53,17,22,8,7,0.6,0.7
2023-02-15T10:00:00,1804A,115.9584,29.7046,九江市,茅山头,,45,45,53,21,41,86,69,55,55,14,19,12,10,0.6,0.7
2023-02-15T10:00:00,1805A,115.9877,29.7295,九江市,西园,,38,38,50,23,42,84,70,55,55,16,24,7,7,0.8,0.8
2023-02-15T10:00:00,1806A,116.0172,29.6547,九江市,五七二七厂,,30,30,50,18,37,87,74,44,44,10,18,7,6,0.7,0.8
2023-02-15T10:00:00,1808A,115.9114,29.6038,九江市,综合工业园,,42,38,54,29,46,77,75,40,40,15,30,10,9,0.7,0.9
2023-02-15T10:00:00,1809A,116.0721,29.7535,九江市,石化总厂,,43,43,51,26,33,87,70,61,61,15,21,9,8,0.6,0.6
2023-02-15T10:00:00,1810A,115.9773,29.5698,九江市,庐山气象台,,42,35,19,29,24,67,55,61,60,24,17,6,5,0.3,0.3
2023-02-15T10:00:00,1812A,112.3931,34.6516,洛阳市,市委党校,细颗粒物(PM2.5),88,104,109,65,80,19,11,4,4,49,51,9,7,1.0,1.1
2023-02-15T10:00:00,1814A,112.4657,34.6871,洛阳市,豫西宾馆,细颗粒物(PM2.5),89,97,101,66,82,32,17,9,9,38,44,15,10,1.1,1.2
2023-02-15T10:00:00,1815A,112.494,34.6886,洛阳市,河南林校,细颗粒物(PM2.5),94,102,113,70,84,32,12,5,5,46,47,8,4,0.9,1.1
2023-02-15T10:00:00,1816A,112.3844,34.623,洛阳市,开发区管委会,细颗粒物(PM2.5),92,109,101,68,85,31,20,7,7,49,52,9,5,0.7,1
2023-02-15T10:00:00,1817A,112.4267,34.6258,洛阳市,市委新办公区,细颗粒物(PM2.5),104,95,105,78,103,22,,5,5,56,54,8,4,0.8,1.1
2023-02-15T10:00:00,1818A,114.4839,36.0621,安阳市,棉研所,,,,,,,,,,,,,,,,
2023-02-15T10:00:00,1819A,114.3551,36.1017,安阳市,红庙街,细颗粒物(PM2.5),93,78,49,69,42,87,26,51,22,56,39,10,8,0.9,0.7
2023-02-15T10:00:00,1820A,114.361,36.0681,安阳市,银杏小区,,,,,,,,,,,,,,,,
2023-02-15T10:00:00,1824A,114.3389,34.7781,开封市,肿瘤医院,细颗粒物(PM2.5),95,123,68,71,39,92,16,19,5,70,37,9,6,0.4,0.3
2023-02-15T10:00:00,1826A,114.2885,34.7965,开封市,世纪星幼儿园,颗粒物(PM10),75,99,55,51,34,88,29,11,6,60,42,10,6,0.6,0.6
2023-02-15T10:00:00,1828A,113.227,35.2125,焦作市,市环保局,细颗粒物(PM2.5),77,91,69,56,44,81,27,39,31,45,29,19,8,1.1,0.8
2023-02-15T10:00:00,1830A,113.1992,35.2590,焦作市,影视城,,,,,,,,,,,,,,,,
2023-02-15T10:00:00,1832A,113.3257,33.742,平顶山市,新华旅馆,细颗粒物(PM2.5),73,78,73,53,40,83,38,38,15,52,47,14,10,0.6,0.6
2023-02-15T10:00:00,1833A,113.2919,33.737,平顶山市,规划设计院,颗粒物(PM10),61,72,62,42,42,87,58,36,32,31,41,16,6,0.6,0.6
2023-02-15T10:00:00,1834A,113.182,33.774,平顶山市,平顶山工学院,颗粒物(PM10),60,69,74,36,41,92,56,31,28,18,26,9,6,0.4,0.5
2023-02-15T10:00:00,1835A,111.1922,34.7752,三门峡市,市政府,,,56,66,68,77,47,45,46,40,,23,11,8,1.0,1.2
2023-02-15T10:00:00,1836A,111.1587,34.7942,三门峡市,开发区,细颗粒物(PM2.5),99,88,97,74,72,52,51,46,45,25,24,16,11,0.9,1
2023-02-15T10:00:00,1838A,111.143,34.7955,三门峡市,风景区,,,,,,,,,,,,,,,,
2023-02-15T10:00:00,1840A,111.2992,30.6981,宜昌市,白龙岗,细颗粒物(PM2.5),113,105,73,85,58,96,41,42,33,33,28,11,5,0.8,0.7
2023-02-15T10:00:00,1841A,111.3549,30.6465,宜昌市,伍家岗,细颗粒物(PM2.5),107,114,72,80,56,104,46,36,23,27,28,23,9,0.9,0.9
2023-02-15T10:00:00,1842A,111.2628,30.6961,宜昌市,点军区,细颗粒物(PM2.5),83,64,64,61,50,94,33,43,18,38,26,12,6,0.9,0.9
2023-02-15T10:00:00,1843A,111.3275,30.7819,宜昌市,夷陵区,细颗粒物(PM2.5),104,82,58,78,56,95,26,48,23,33,24,9,7,1.0,0.8
2023-02-15T10:00:00,1844A,112.2494,30.3197,荆州市,市图书馆,细颗粒物(PM2.5),113,68,67,85,66,91,36,47,32,46,40,16,6,0.8,0.8
2023-02-15T10:00:00,1845A,112.2008,30.3544,荆州市,市委党校,细颗粒物(PM2.5),107,85,68,80,69,94,45,56,28,32,30,11,6,0.7,0.7
2023-02-15T10:00:00,1847A,113.1094,29.3578,岳阳市,南湖风景区,细颗粒物(PM2.5),63,59,60,45,47,81,41,10,10,36,33,18,6,1.3,1.1
2023-02-15T10:00:00,1848A,113.1493,29.4251,岳阳市,城陵矶,细颗粒物(PM2.5),73,67,65,53,42,74,41,11,11,37,48,8,6,1.2,1
2023-02-15T10:00:00,1849A,113.1497,29.3575,岳阳市,开发区,细颗粒物(PM2.5),100,68,62,75,59,77,36,7,7,33,34,10,7,0.9,0.7
2023-02-15T10:00:00,1850A,113.2621,29.4758,岳阳市,云溪区,,,80,53,54,35,80,34,20,15,37,26,,,1.0,1
2023-02-15T10:00:00,1851A,112.9943,29.4402,岳阳市,君山区,细颗粒物(PM2.5),85,73,58,63,54,87,48,35,15,26,33,9,7,0.6,0.7
2023-02-15T10:00:00,1852A,113.2117,29.355,岳阳市,金凤水库,细颗粒物(PM2.5),58,58,50,41,36,74,40,42,28,17,14,11,7,0.9,0.7
2023-02-15T10:00:00,1854A,111.6975,28.9703,常德市,市二中,细颗粒物(PM2.5),74,54,65,54,57,74,16,23,16,22,22,17,6,1.2,0.9
2023-02-15T10:00:00,1857A,111.7158,29.1456,常德市,白鹤山,细颗粒物(PM2.5),70,84,59,51,42,84,25,62,51,25,9,5,4,0.8,0.6
2023-02-15T10:00:00,1858A,110.5319,29.1217,张家界市,永定新区,细颗粒物(PM2.5),65,66,48,47,36,92,41,71,38,20,15,4,4,0.7,0.6
2023-02-15T10:00:00,1859A,110.4697,29.1242,张家界市,电业局,细颗粒物(PM2.5),59,63,40,42,36,92,29,62,39,25,11,5,5,0.8,0.6
2023-02-15T10:00:00,1860A,110.5594,29.3547,张家界市,未央路,细颗粒物(PM2.5),59,54,47,42,37,89,42,55,34,23,13,1,2,1.0,0.8
2023-02-15T10:00:00,1861A,110.4417,29.315,张家界市,袁家界,细颗粒物(PM2.5),60,54,36,43,31,89,89,71,61,9,9,7,7,1.0,0.9
2023-02-15T10:00:00,1862A,110.4144,25.3167,桂林市,电子科大尧山校区,,,32,30,25,22,77,75,70,66,,11,6,5,0.6,0.7
2023-02-15T10:00:00,1863A,110.2819,25.2697,桂林市,监测站,细颗粒物(PM2.5),55,44,38,39,38,70,64,64,63,9,7,4,3,0.5,0.6
2023-02-15T10:00:00,1864A,110.3089,25.2708,桂林市,龙隐路小学,细颗粒物(PM2.5),57,41,34,40,36,74,65,64,64,13,10,6,5,0.6,0.7
2023-02-15T10:00:00,1865A,110.2869,25.2178,桂林市,八中,细颗粒物(PM2.5),55,49,34,39,36,68,62,60,59,13,11,4,3,0.4,0.6
2023-02-15T10:00:00,1866A,109.2262,21.588,北海市,牛尾岭水库,,26,16,21,18,19,60,47,48,44,7,10,7,6,0.7,0.8
2023-02-15T10:00:00,1867A,109.1436,21.4086,北海市,海滩公园,,32,31,29,22,20,62,42,50,45,14,12,5,5,0.7,0.9
2023-02-15T10:00:00,1868A,109.0981,21.4661,北海市,新市环保局,,32,23,28,22,23,66,47,52,47,11,11,2,2,0.8,0.8
2023-02-15T10:00:00,1869A,109.1778,21.5233,北海市,北海工业园,,,,32,,25,62,,49,44,15,12,,5,0.7,0.7
2023-02-15T10:00:00,1870A,109.4856,24.3895,柳州市,柳东小学,细颗粒物(PM2.5),70,48,35,51,36,66,53,55,54,7,6,7,6,0.6,0.7
2023-02-15T10:00:00,1871A,109.4157,24.3277,柳州市,环保监测站,,48,41,30,33,24,68,50,56,55,11,7,5,5,0.5,0.7
2023-02-15T10:00:00,1872A,109.389,24.341,柳州市,河西水厂,,48,42,30,33,26,66,44,51,51,12,9,10,9,0.9,0.9
2023-02-15T10:00:00,1873A,109.4311,24.2921,柳州市,市四中,,48,32,27,33,23,68,52,59,57,13,10,8,7,0.8,0.9
2023-02-15T10:00:00,1874A,109.4006,24.3631,柳州市,市九中,细颗粒物(PM2.5),52,46,32,36,27,70,47,52,51,14,12,6,5,0.6,0.7
2023-02-15T10:00:00,1875A,109.4958,24.3134,柳州市,古亭山,,39,38,25,27,20,66,56,60,60,8,6,9,9,0.8,0.8
2023-02-15T10:00:00,1876A,109.5078,18.2489,三亚市,河东子站,,19,13,15,8,9,60,58,54,54,9,8,3,2,0.8,0.6
2023-02-15T10:00:00,1877A,109.4964,18.2681,三亚市,河西子站,,,9,14,6,8,62,54,53,53,9,8,,2,0.8,0.6
2023-02-15T10:00:00,1878A,104.7778,31.4741,绵阳市,富乐山,,25,21,24,17,20,111,38,61,46,15,12,3,3,0.8,0.8
2023-02-15T10:00:00,1879A,104.7563,31.4535,绵阳市,市人大,,22,21,27,15,20,96,35,56,42,20,18,7,8,0.7,0.7
2023-02-15T10:00:00,1880A,104.6697,31.4668,绵阳市,高新区自来水公司,,32,24,29,22,24,101,14,58,46,39,18,4,5,0.9,0.8
2023-02-15T10:00:00,1881A,104.7287,31.5075,绵阳市,三水厂,,20,20,30,14,13,101,23,62,45,23,18,2,2,0.8,0.7
2023-02-15T10:00:00,1882A,104.563,28.793,宜宾市,石马中学,细颗粒物(PM2.5),53,48,34,37,29,61,22,7,7,26,26,6,5,0.9,0.9
2023-02-15T10:00:00,1883A,104.6201,28.7728,宜宾市,市委,细颗粒物(PM2.5),62,62,41,44,31,66,24,21,10,31,30,11,8,0.9,0.9
2023-02-15T10:00:00,1884A,104.6055,28.793,宜宾市,宜宾四中,细颗粒物(PM2.5),65,61,45,47,35,64,18,14,8,41,39,11,7,0.9,0.8
2023-02-15T10:00:00,1885A,104.639,28.7562,宜宾市,市政府,,,,37,,31,57,,31,12,31,36,,8,0.6,0.6
2023-02-15T10:00:00,1886A,104.5742,28.7199,宜宾市,黄金嘴,细颗粒物(PM2.5),54,55,38,38,29,60,29,9,9,29,34,8,9,0.9,0.9
2023-02-15T10:00:00,1888A,101.6891,26.571,攀枝花市,弄弄坪,,,,95,,59,150,10,24,10,,38,70,26,5.2,2.1
2023-02-15T10:00:00,1889A,101.5769,26.5928,攀枝花市,河门口,细颗粒物(PM2.5),92,99,98,68,64,169,42,54,37,32,30,20,25,1.7,1.8
2023-02-15T10:00:00,1890A,101.7169,26.585,攀枝花市,炳草岗,颗粒物(PM10),102,153,100,72,55,155,8,19,15,72,57,32,20,3.3,1.5
2023-02-15T10:00:00,1891A,101.7369,26.5008,攀枝花市,仁和,细颗粒物(PM2.5),74,89,72,54,45,157,19,62,33,47,24,13,17,1.7,1.1
2023-02-15T10:00:00,1893A,105.4324,28.9634,泸州市,九狮山,,48,48,35,30,22,61,2,17,7,39,21,9,9,0.6,0.5
2023-02-15T10:00:00,1894A,105.4427,28.9063,泸州市,小市上码头,,,52,36,30,24,70,,36,14,37,24,12,12,0.8,0.9
2023-02-15T10:00:00,1895A,105.4241,28.8573,泸州市,兰田宪桥,细颗粒物(PM2.5),55,47,37,39,27,64,15,23,12,27,25,6,10,0.8,0.8
2023-02-15T10:00:00,1896A,105.4379,28.8833,泸州市,市环监站,,46,46,36,24,20,63,16,28,13,31,22,5,5,1.0,1
2023-02-15T10:00:00,1901A,104.4239,31.1208,德阳市,东山公园,,40,38,38,28,25,91,29,62,37,24,22,5,2,0.9,0.8
2023-02-15T10:00:00,1902A,104.3826,31.1317,德阳市,西小区,,47,47,46,29,33,83,27,58,32,30,31,6,3,0.9,0.8
2023-02-15T10:00:00,1904A,104.3553,31.1091,德阳市,耐火材料厂,,,50,46,34,31,86,27,48,34,37,28,1,2,,1.1
2023-02-15T10:00:00,1905A,106.056,30.8064,南充市,西山风景区,,,,,,,,,,,,,,,,
2023-02-15T10:00:00,1906A,106.0789,30.8023,南充市,南充市委,,36,36,26,18,13,59,9,28,12,23,15,10,9,0.9,0.7
2023-02-15T10:00:00,1907A,106.1031,30.8217,南充市,南充炼油厂,,35,35,23,22,13,59,10,23,15,22,17,10,9,0.7,0.7
2023-02-15T10:00:00,1908A,106.1064,30.7856,南充市,高坪区监测站,,39,39,25,18,14,57,12,25,16,24,20,8,7,0.8,0.7
2023-02-15T10:00:00,1909A,106.0642,30.7636,南充市,嘉陵区环保局,,33,33,21,17,15,47,9,22,15,28,22,8,8,0.8,0.7
2023-02-15T10:00:00,1910A,106.1087,30.8388,南充市,市环境监测站,,,38,24,28,19,58,5,25,13,,16,,10,0.7,0.7
2023-02-15T10:00:00,1911A,106.9222,27.6869,遵义市,丁字口,,35,25,25,24,19,79,64,72,68,14,15,9,12,0.7,0.6
2023-02-15T10:00:00,1912A,106.9242,27.7019,遵义市,凤凰山,,32,28,23,22,16,82,67,74,69,11,12,4,5,0.7,0.6
2023-02-15T10:00:00,1913A,106.8906,27.6486,遵义市,忠庄,,34,34,31,22,18,78,62,66,63,15,14,3,2,0.5,0.4
2023-02-15T10:00:00,1914A,106.9231,27.6506,遵义市,舟水桥,,39,29,26,27,22,84,66,72,66,12,12,8,6,0.5,0.5
2023-02-15T10:00:00,1915A,106.9178,27.72,遵义市,干田坝,,35,27,23,24,19,84,64,75,70,15,14,10,10,0.7,0.7
2023-02-15T10:00:00,1916A,103.7897,25.5035,曲靖市,环境监测站,细颗粒物(PM2.5),58,56,67,41,46,113,53,56,56,19,22,14,15,1.0,1.1
2023-02-15T10:00:00,1917A,103.8,25.5364,曲靖市,烟厂办公区,颗粒物(PM10),52,54,70,34,44,125,58,68,68,19,21,12,14,1.1,1.1
2023-02-15T10:00:00,1918A,108.7197,34.3956,咸阳市,气象站,细颗粒物(PM2.5),120,76,61,91,66,64,17,9,9,29,41,10,9,1.3,1
2023-02-15T10:00:00,1919A,108.673,34.3155,咸阳市,实验中学,细颗粒物(PM2.5),135,105,76,103,65,83,17,24,11,35,38,5,5,1.2,0.8
2023-02-15T10:00:00,1920A,108.7233,34.3617,咸阳市,师范学院,细颗粒物(PM2.5),119,88,71,90,59,78,20,19,12,25,35,5,5,1.1,0.8
2023-02-15T10:00:00,1922A,109.0656,35.0994,铜川市,党校,,50,50,66,34,32,69,13,4,4,33,37,14,13,0.8,0.8
2023-02-15T10:00:00,1923A,109.0697,35.0697,铜川市,王益区政府,细颗粒物(PM2.5),83,72,60,61,46,72,12,7,7,41,30,11,7,1.0,0.7
2023-02-15T10:00:00,1924A,108.9344,34.9058,铜川市,新区管委会,细颗粒物(PM2.5),92,81,70,68,57,72,15,21,21,38,32,19,13,1.0,0.7
2023-02-15T10:00:00,1926A,109.4131,36.6275,延安市,枣园,,50,25,32,35,23,89,18,7,7,24,33,5,7,0.7,0.6
2023-02-15T10:00:00,1927A,109.4761,36.6028,延安市,延大医附院,,38,36,38,26,25,84,12,7,7,32,39,6,8,0.8,0.9
2023-02-15T10:00:00,1929A,109.5056,36.6106,延安市,百米大道,细颗粒物(PM2.5),70,53,43,51,34,85,15,11,9,44,41,11,11,1.2,0.9
2023-02-15T10:00:00,1930A,107.185,34.3063,宝鸡市,庙沟村,细颗粒物(PM2.5),93,75,59,69,47,72,18,22,16,31,27,4,8,0.7,0.6
2023-02-15T10:00:00,1931A,107.0708,34.3017,宝鸡市,竹园沟,,,,53,,47,79,19,8,8,,25,,6,1.0,0.7
2023-02-15T10:00:00,1932A,107.1906,34.3672,宝鸡市,三陆医院,细颗粒物(PM2.5),97,96,81,72,61,83,21,20,20,42,36,6,6,0.8,0.6
2023-02-15T10:00:00,1933A,107.1431,34.3547,宝鸡市,监测站,细颗粒物(PM2.5),97,93,76,72,56,80,18,17,17,44,37,5,4,0.8,0.6
2023-02-15T10:00:00,1934A,107.1186,34.3739,宝鸡市,技工学校,细颗粒物(PM2.5),107,87,77,80,56,79,25,25,25,41,35,5,5,0.9,0.7
2023-02-15T10:00:00,1935A,107.3906,34.3528,宝鸡市,陈仓区环保局家属楼,细颗粒物(PM2.5),109,121,95,82,68,90,14,14,12,50,37,6,5,1.1,0.9
2023-02-15T10:00:00,1936A,107.2058,34.3497,宝鸡市,文理学院,细颗粒物(PM2.5),94,92,80,70,56,82,16,14,14,45,36,11,9,0.9,0.8
2023-02-15T10:00:00,1937A,107.2386,34.3622,宝鸡市,三迪小学,细颗粒物(PM2.5),102,95,91,76,66,79,18,17,17,46,39,9,8,0.9,0.7
2023-02-15T10:00:00,1938A,109.5293,34.5101,渭南市,农科所,细颗粒物(PM2.5),94,90,69,70,48,77,9,2,2,17,14,6,7,1.0,0.6
2023-02-15T10:00:00,1939A,109.4974,34.4877,渭南市,日报社,细颗粒物(PM2.5),125,107,64,95,48,75,12,5,5,36,40,10,11,1.4,1
2023-02-15T10:00:00,1940A,109.4636,34.493,渭南市,体育馆,细颗粒物(PM2.5),124,95,60,94,48,85,22,9,9,30,41,6,7,1.1,0.7
2023-02-15T10:00:00,1941A,109.4259,34.5023,渭南市,高新一小,细颗粒物(PM2.5),119,100,64,90,56,80,17,8,8,29,32,9,8,1.3,0.9
2023-02-15T10:00:00,1943A,102.1725,38.5339,金昌市,新川苑,颗粒物(PM10),102,153,122,70,70,80,21,34,26,44,25,22,36,1.8,1.1
2023-02-15T10:00:00,1944A,102.1692,38.5167,金昌市,天庆家园,细颗粒物(PM2.5),104,134,101,78,65,87,20,33,23,56,29,38,26,2.4,1
2023-02-15T10:00:00,1945A,98.2908,39.7711,嘉峪关市,气象局,颗粒物(PM10),54,58,63,22,28,74,74,62,62,23,28,13,11,0.1,0.5
2023-02-15T10:00:00,1947A,106.3394,38.817,石嘴山市,沙湖旅游区,细颗粒物(PM2.5),100,85,100,75,58,92,18,13,12,36,36,17,15,1.4,0.8
2023-02-15T10:00:00,1948A,106.3668,39.0145,石嘴山市,大武口朝阳西街,,,,90,,61,91,,21,21,,47,,27,0.9,0.8
2023-02-15T10:00:00,1949A,106.7704,39.2282,石嘴山市,惠农南大街,,50,50,61,30,40,86,36,32,32,41,37,12,13,0.5,0.5
2023-02-15T10:00:00,1950A,106.7099,39.1325,石嘴山市,红果子镇惠新街,,32,22,70,22,52,93,43,38,35,5,16,10,20,0.6,0.8
2023-02-15T10:00:00,1951A,84.895,45.6094,克拉玛依市,长征新村,颗粒物(PM10),57,63,56,35,36,74,26,60,52,66,35,6,6,1.1,0.6
2023-02-15T10:00:00,1952A,84.8988,45.5893,克拉玛依市,南林小区,细颗粒物(PM2.5),68,69,52,49,43,82,18,63,56,70,37,7,4,1.2,0.6
2023-02-15T10:00:00,1954A,84.905,44.3396,克拉玛依市,独山子区,细颗粒物(PM2.5),67,70,80,48,56,109,44,96,84,64,28,5,5,1.3,0.7
2023-02-15T10:00:00,1955A,85.6979,46.098,克拉玛依市,乌尔禾区商贸楼,细颗粒物(PM2.5),78,47,39,57,40,93,12,52,28,44,32,1,3,0.7,0.8
2023-02-15T10:00:00,1956A,86.1472,41.7538,巴音郭楞州,孔雀公园,颗粒物(PM10),103,155,411,38,62,92,4,6,6,80,53,5,5,1.1,0.7
2023-02-15T10:00:00,1957A,86.1972,41.7166,巴音郭楞州,棉纺厂,颗粒物(PM10),124,198,536,41,65,92,5,30,28,76,36,2,2,0.8,0.4
2023-02-15T10:00:00,1958A,86.2357,41.7173,巴音郭楞州,经济开发区,颗粒物(PM10),147,243,506,48,52,92,36,52,52,29,21,3,4,0.4,0.5
2023-02-15T10:00:00,1961A,117.532,36.6868,济南市,东山小学,颗粒物(PM10),52,54,52,17,19,70,56,42,32,29,34,5,4,0.6,0.7
2023-02-15T10:00:00,1966A,120.0405,35.8735,青岛市,黄岛区4号,颗粒物(PM10),51,51,37,27,15,82,61,57,48,16,20,9,8,0.6,0.6
2023-02-15T10:00:00,1982A,122.0693,37.2174,威海市,文登开发区,,44,44,47,19,19,77,66,71,55,15,17,4,5,0.2,0.2
2023-02-15T10:00:00,2031A,113.1817,27.9958,株洲市,云田中学,细颗粒物(PM2.5),65,53,60,47,50,52,38,38,17,17,29,6,5,0.8,0.8
2023-02-15T10:00:00,2054A,114.1099,32.1059,信阳市,平桥分局,细颗粒物(PM2.5),75,77,68,55,51,88,37,9,9,22,27,9,9,0.7,0.7
2023-02-15T10:00:00,2064A,113.9956,32.1271,信阳市,南湾水厂,细颗粒物(PM2.5),62,50,57,44,39,89,44,57,41,14,17,8,8,0.6,0.6
2023-02-15T10:00:00,2065A,114.0775,32.1195,信阳市,市酿酒公司,细颗粒物(PM2.5),79,52,54,58,48,94,27,9,9,35,36,9,9,0.9,0.8
2023-02-15T10:00:00,2066A,114.0609,32.1399,信阳市,审计局,细颗粒物(PM2.5),75,51,60,55,46,89,37,17,17,31,35,9,8,0.8,0.7
2023-02-15T10:00:00,2067A,114.6613,33.6128,周口市,市环境监测站,细颗粒物(PM2.5),108,121,60,81,38,80,30,22,13,50,34,18,12,0.7,0.5
2023-02-15T10:00:00,2068A,114.6758,33.6347,周口市,周口师范,细颗粒物(PM2.5),82,83,49,60,33,86,49,47,24,44,37,22,13,0.5,0.3
2023-02-15T10:00:00,2069A,114.6546,33.5979,周口市,市运管处,细颗粒物(PM2.5),125,110,64,95,37,87,30,45,12,69,40,,15,0.9,0.5
2023-02-15T10:00:00,2070A,114.6369,33.6406,周口市,川汇区环保局,颗粒物(PM10),65,80,51,43,28,82,42,37,12,44,41,13,8,0.6,0.3
2023-02-15T10:00:00,2075A,117.6336,24.4674,漳州市,九湖,,,,,,,,,,,,,,,,
2023-02-15T10:00:00,2160A,112.85,35.5051,晋城市,自来水公司,"颗粒物(PM10),细颗粒物(PM2.5)",64,77,59,46,41,81,54,72,62,34,23,8,9,0.7,0.7
2023-02-15T10:00:00,2161A,112.8318,35.4936,晋城市,白云商贸,颗粒物(PM10),55,59,59,31,34,76,56,64,58,30,21,8,8,0.8,0.7
2023-02-15T10:00:00,2162A,112.8508,35.4887,晋城市,市环保局,细颗粒物(PM2.5),70,62,59,51,41,85,56,70,62,29,19,8,8,0.9,0.8
2023-02-15T10:00:00,2163A,112.8676,35.4897,晋城市,技术学院,细颗粒物(PM2.5),70,64,60,51,44,80,53,69,57,33,22,6,7,0.9,0.8
2023-02-15T10:00:00,2165A,112.8453,35.546,晋城市,白马寺 ,,,,,,,,,,,,,,,,
2023-02-15T10:00:00,2166A,112.4397,39.3522,朔州市,平朔,细颗粒物(PM2.5),144,200,98,110,58,58,13,7,7,49,41,53,26,1.2,0.8
2023-02-15T10:00:00,2167A,112.4575,39.3617,朔州市,朔唯,细颗粒物(PM2.5),176,232,135,133,69,62,7,4,4,,54,,29,1.1,0.9
2023-02-15T10:00:00,2168A,112.4258,39.3197,朔州市,区政府,细颗粒物(PM2.5),94,121,79,70,49,75,17,3,3,42,48,24,20,1.1,0.8
2023-02-15T10:00:00,2169A,112.4072,39.3278,朔州市,市环保局,细颗粒物(PM2.5),112,122,69,84,46,67,25,11,11,41,48,25,22,0.9,0.8
2023-02-15T10:00:00,2170A,112.4272,39.3681,朔州市,市二中,颗粒物(PM10),153,256,122,112,64,62,9,4,4,58,46,49,26,1.1,0.8
2023-02-15T10:00:00,2171A,112.7532,37.6945,晋中市,锦纶小区,细颗粒物(PM2.5),112,122,66,84,41,69,20,27,9,43,42,10,9,0.9,0.6
2023-02-15T10:00:00,2173A,112.7249,37.7067,晋中市,南都小区,细颗粒物(PM2.5),119,124,66,90,43,63,21,23,13,43,45,13,11,0.9,0.6
2023-02-15T10:00:00,2174A,112.6991,37.6982,晋中市,榆次区政府,,,,181,52,35,59,12,24,9,52,48,9,9,1.0,0.7
2023-02-15T10:00:00,2175A,110.9956,35.0147,运城市,运城中学,细颗粒物(PM2.5),82,82,58,60,47,76,55,52,47,15,17,7,7,0.8,0.9
2023-02-15T10:00:00,2178A,110.9686,35.0303,运城市,地区技校,细颗粒物(PM2.5),87,96,62,64,51,80,42,33,33,24,19,7,6,1.1,1
2023-02-15T10:00:00,2179A,111.0414,35.1147,运城市,空港新区,细颗粒物(PM2.5),104,89,69,78,64,85,44,22,22,21,24,18,12,1.2,1.2
2023-02-15T10:00:00,2181A,112.7383,38.4519,忻州市,开发区,细颗粒物(PM2.5),73,72,56,53,41,132,27,12,12,31,43,6,6,0.8,0.7
2023-02-15T10:00:00,2182A,112.7003,38.4928,忻州市,会展中心,,,,54,,37,64,,9,9,47,52,9,8,1.3,0.9
2023-02-15T10:00:00,2183A,111.1406,37.5211,吕梁市,环保局,颗粒物(PM10),73,95,88,44,38,52,11,4,4,49,50,13,14,0.6,0.8
2023-02-15T10:00:00,2185A,111.1297,37.5136,吕梁市,自来水公司,颗粒物(PM10),80,110,76,42,32,56,11,5,5,39,45,13,13,1.0,0.9
2023-02-15T10:00:00,2187A,106.8174,39.6973,乌海市,市林业局,细颗粒物(PM2.5),172,205,103,130,62,89,10,11,8,67,45,47,34,3.8,1.5
2023-02-15T10:00:00,2188A,106.7907,39.6667,乌海市,中海勃湾学校,细颗粒物(PM2.5),100,114,93,75,52,86,23,17,17,55,47,67,33,2.8,1.4
2023-02-15T10:00:00,2191A,122.2532,43.6801,通辽市,艺术职业学校,,,,56,,34,79,,43,13,,27,17,9,0.6,0.6
2023-02-15T10:00:00,2192A,119.7594,49.2261,呼伦贝尔市,区环保局,,,35,48,34,39,53,45,42,42,25,39,,5,0.5,0.6
2023-02-15T10:00:00,2195A,107.4212,40.761,巴彦淖尔市,附二中,颗粒物(PM10),69,87,44,39,19,82,27,44,18,34,25,12,6,1.2,0.7
2023-02-15T10:00:00,2196A,107.37,40.7372,巴彦淖尔市,市环保大楼,颗粒物(PM10),54,58,43,35,23,81,26,38,11,28,36,8,7,0.8,0.7
2023-02-15T10:00:00,2197A,113.1306,40.9923,乌兰察布市,集宁新区,,42,41,27,29,20,78,23,8,8,36,38,14,12,0.8,0.6
2023-02-15T10:00:00,2200A,122.0392,46.0656,兴安盟,胜华新制药厂,细颗粒物(PM2.5),63,60,38,45,27,73,35,33,20,22,22,5,6,1.0,1
2023-02-15T10:00:00,2201A,121.9504,46.0741,兴安盟,科右前旗环保局,细颗粒物(PM2.5),79,81,41,58,28,77,30,43,18,27,21,7,4,1.2,0.7
2023-02-15T10:00:00,2202A,116.1042,43.9317,锡林郭勒盟,市环保监测站,,18,17,13,10,9,71,55,67,54,18,12,11,9,0.4,0.3
2023-02-15T10:00:00,2203A,116.0781,43.9311,锡林郭勒盟,市政府,,19,16,19,12,7,67,59,58,51,13,17,11,9,0.4,0.3
2023-02-15T10:00:00,2204A,105.6467,38.8363,阿拉善盟,西城区西花园,颗粒物(PM10),55,59,55,33,26,87,68,75,74,25,17,11,10,0.8,0.7
2023-02-15T10:00:00,2205A,105.6985,38.8411,阿拉善盟,蒙二幼,细颗粒物(PM2.5),65,56,53,47,36,92,54,79,75,42,17,18,13,1.1,0.6
2023-02-15T10:00:00,2206A,105.724,38.8516,阿拉善盟,环保局新楼,,45,40,49,31,30,91,65,86,83,21,11,9,10,0.7,0.6
2023-02-15T10:00:00,2207A,121.6094,41.998,阜新市,工业园区,颗粒物(PM10),110,169,66,52,27,62,32,28,14,28,24,15,10,1.7,1.1
2023-02-15T10:00:00,2208A,121.6697,42.0279,阜新市,长青街,,37,37,26,21,12,79,59,49,44,18,16,109,19,1.1,0.8
2023-02-15T10:00:00,2209A,121.6673,42.0705,阜新市,农业园区,细颗粒物(PM2.5),58,64,35,41,28,70,53,52,51,14,12,12,12,1.1,1.4
2023-02-15T10:00:00,2210A,121.6717,42.0224,阜新市,东苑,颗粒物(PM10),62,74,35,40,23,74,50,40,34,18,13,175,21,1.1,0.7
2023-02-15T10:00:00,2211A,121.6506,42.0498,阜新市,玉龙新城,,,70,46,31,23,79,,34,19,18,19,14,12,1.0,1.2
2023-02-15T10:00:00,2212A,123.2,41.1953,辽阳市,宏伟区,颗粒物(PM10),53,56,45,31,25,71,49,49,41,22,20,14,12,1.1,0.8
2023-02-15T10:00:00,2213A,123.1683,41.2495,辽阳市,新华园,,38,36,42,26,27,79,59,56,48,17,21,14,14,1.2,0.8
2023-02-15T10:00:00,2214A,123.2354,41.2639,辽阳市,滨河路,,,54,46,35,33,68,,49,32,18,24,6,6,1.2,0.6
2023-02-15T10:00:00,2215A,123.149,41.2991,辽阳市,铁西工业园,,32,32,50,20,27,73,53,45,31,15,25,8,10,0.6,0.6
2023-02-15T10:00:00,2216A,123.8139,42.3022,铁岭市,汇工街西,,38,38,57,15,24,81,59,19,19,15,32,14,16,0.5,0.5
2023-02-15T10:00:00,2217A,123.8649,42.2923,铁岭市,水上乐园,颗粒物(PM10),56,62,38,20,24,81,41,34,26,31,28,9,9,0.5,0.5
2023-02-15T10:00:00,2218A,123.8486,42.2867,铁岭市,银州路东段,,37,37,43,20,21,77,44,46,22,25,27,7,7,0.6,0.5
2023-02-15T10:00:00,2219A,123.7153,42.2217,铁岭市,金沙江路北,,,35,39,23,23,72,,42,22,24,25,13,10,0.5,0.5
2023-02-15T10:00:00,2220A,120.4318,41.5881,朝阳市,西梁,颗粒物(PM10),83,116,46,43,20,76,16,25,16,48,26,30,13,1.9,1
2023-02-15T10:00:00,2221A,120.4521,41.5646,朝阳市,河畔小区,颗粒物(PM10),52,54,31,24,21,80,36,33,16,23,24,13,12,1.0,0.8
2023-02-15T10:00:00,2222A,120.4176,41.5648,朝阳市,八里堡,颗粒物(PM10),59,67,38,34,22,76,26,17,14,34,26,16,13,1.1,0.8
2023-02-15T10:00:00,2223A,120.3806,41.5969,朝阳市,农业园区,,,104,35,55,17,78,,27,27,48,26,31,10,1.5,0.7
2023-02-15T10:00:00,2225A,124.4002,43.1713,四平市,一商场,,,66,44,39,27,80,,36,20,,27,8,9,0.2,0.3
2023-02-15T10:00:00,2226A,124.388,43.193,四平市,境园,颗粒物(PM10),55,59,43,36,23,80,58,18,18,17,29,4,4,0.3,0.5
2023-02-15T10:00:00,2227A,125.1358,42.8845,辽源市,环保局,细颗粒物(PM2.5),63,71,38,45,28,72,43,28,20,27,23,15,11,0.6,0.4
2023-02-15T10:00:00,2229A,125.9358,41.7173,通化市,光明,颗粒物(PM10),58,65,30,34,18,79,31,66,31,43,19,37,16,0.6,0.3
2023-02-15T10:00:00,2230A,125.9446,41.7325,通化市,铁路,细颗粒物(PM2.5),67,73,29,48,19,84,31,70,38,46,17,52,14,0.6,0.2
2023-02-15T10:00:00,2231A,126.4219,41.9171,白山市,喜丰,颗粒物(PM10),62,73,45,33,20,79,46,42,38,28,21,16,13,0.5,0.5
2023-02-15T10:00:00,2232A,126.4077,41.9419,白山市,环保局,颗粒物(PM10),63,75,62,30,22,73,42,33,33,26,22,109,17,0.9,0.8
2023-02-15T10:00:00,2233A,124.8006,45.1214,松原市,江南,,,78,46,31,23,75,,35,11,21,27,12,9,0.5,0.5
2023-02-15T10:00:00,2234A,124.7965,45.1722,松原市,江北,颗粒物(PM10),59,67,43,38,21,71,37,22,11,43,31,12,4,0.7,0.6
2023-02-15T10:00:00,2235A,122.7911,45.6077,白城市,洮北区环保局,,,46,23,38,16,136,64,60,58,11,20,6,6,,0.3
2023-02-15T10:00:00,2236A,122.8738,45.5725,白城市,市环保局,,29,26,32,20,15,75,59,38,38,16,30,7,6,0.6,0.6
2023-02-15T10:00:00,2237A,129.47,42.8883,延边朝鲜族自治州,妇幼医院,,,34,21,9,14,77,67,60,46,8,14,,15,0.3,0.4
2023-02-15T10:00:00,2238A,129.5055,42.9108,延边朝鲜族自治州,延边医院,,21,19,16,13,10,79,67,68,61,10,9,9,7,0.4,0.3
2023-02-15T10:00:00,2239A,129.3964,42.8881,延边朝鲜族自治州,朝阳川镇医院,,22,19,16,6,9,78,68,63,54,5,6,7,7,0.4,0.4
2023-02-15T10:00:00,2240A,130.9762,45.3001,鸡西市,环保局,,,31,22,23,13,67,,63,48,11,14,4,6,0.6,0.2
2023-02-15T10:00:00,2243A,130.9429,45.3039,鸡西市,第一中学,,44,44,25,15,14,65,60,61,42,4,9,4,5,0.5,0.4
2023-02-15T10:00:00,2244A,130.2537,47.3416,鹤岗市,哈啤分公司,,28,23,24,19,16,66,50,59,49,14,7,11,8,0.4,0.3
2023-02-15T10:00:00,2245A,130.2684,47.3086,鹤岗市,斯达机电,,32,32,24,16,15,66,50,51,46,15,7,7,6,0.4,0.2
2023-02-15T10:00:00,2246A,130.3114,47.3388,鹤岗市,东山纸板厂,,33,33,99,18,20,70,56,60,32,6,8,11,9,0.3,0.4
2023-02-15T10:00:00,2247A,130.1097,47.3382,鹤岗市,五号水库,,19,6,18,7,16,70,59,51,47,4,4,6,5,0.3,0.3
2023-02-15T10:00:00,2248A,131.1511,46.6937,双鸭山市,双合村,,20,14,17,14,14,71,61,59,58,4,7,8,10,0.6,0.5
2023-02-15T10:00:00,2249A,131.1652,46.6191,双鸭山市,南小市,颗粒物(PM10),112,173,37,,14,74,51,64,47,,12,11,8,,0.7
2023-02-15T10:00:00,2250A,131.1524,46.6554,双鸭山市,环保局,,28,28,26,15,21,81,68,70,52,5,10,4,4,0.5,0.4
2023-02-15T10:00:00,2251A,131.12,46.5656,双鸭山市,苗圃,,20,16,36,10,27,70,61,54,53,13,13,5,6,0.2,0.2
2023-02-15T10:00:00,2252A,128.5159,47.4311,伊春市,环保局,,28,16,18,19,10,69,45,47,46,14,11,2,8,0.6,0.5
2023-02-15T10:00:00,2253A,128.9102,47.7412,伊春市,电力嘉园,,19,17,23,13,17,107,39,42,39,14,8,8,6,0.7,0.5
2023-02-15T10:00:00,2254A,129.5029,48.471,伊春市,汤旺河国家公园,,16,10,17,11,10,67,43,47,38,3,2,6,6,0.4,0.2
2023-02-15T10:00:00,2255A,130.2751,46.8028,佳木斯市,佳纺,细颗粒物(PM2.5),83,64,37,61,26,63,51,26,26,16,29,9,7,0.7,0.7
2023-02-15T10:00:00,2256A,130.3995,46.8307,佳木斯市,发电厂,,23,20,17,16,12,69,52,54,42,14,12,7,4,0.5,0.4
2023-02-15T10:00:00,2257A,130.3258,46.7975,佳木斯市,环保局,细颗粒物(PM2.5),57,46,24,40,15,60,39,40,31,37,23,9,5,0.6,0.6
2023-02-15T10:00:00,2258A,130.3648,46.8032,佳木斯市,十一中,,36,31,23,25,15,66,49,57,29,16,20,4,5,0.5,0.4
2023-02-15T10:00:00,2259A,130.3794,46.7588,佳木斯市,四丰,,35,18,20,21,13,121,111,104,104,6,11,1,1,0.4,0.5
2023-02-15T10:00:00,2262A,131.0518,45.8751,七台河市,新一中,,46,39,24,32,19,80,67,61,59,14,15,8,7,0.4,0.4
2023-02-15T10:00:00,2263A,127.4833,50.2524,黑河市,交通局,,36,28,16,25,14,60,40,50,43,17,12,12,5,0.7,0.5
2023-02-15T10:00:00,2264A,127.5144,50.2341,黑河市,环保局,颗粒物(PM10),51,52,37,26,22,61,39,32,32,19,16,21,12,0.6,0.5
2023-02-15T10:00:00,2265A,127.5291,50.2472,黑河市,大黑河岛,,,42,19,45,14,57,44,50,40,4,4,,3,0.5,0.4
2023-02-15T10:00:00,2266A,126.9785,46.6365,绥化市,人和东街,细颗粒物(PM2.5),93,76,30,69,24,72,31,49,35,34,19,18,4,1.0,0.7
2023-02-15T10:00:00,2267A,126.964,46.6528,绥化市,党政办公中心,细颗粒物(PM2.5),134,91,33,102,32,80,32,42,37,40,20,19,4,1.0,0.5
2023-02-15T10:00:00,2269A,124.1069,50.4097,大兴安岭地区,科技局,,19,4,22,8,19,81,60,56,56,4,9,4,9,0.3,0.3
2023-02-15T10:00:00,2270A,117.396,32.939,蚌埠市,工人疗养院,细颗粒物(PM2.5),75,87,46,55,31,86,27,26,21,44,31,10,5,0.6,0.5
2023-02-15T10:00:00,2271A,117.3605,32.9427,蚌埠市,百货大楼,,,91,53,49,29,86,30,32,25,,29,12,11,0.8,0.6
2023-02-15T10:00:00,2273A,117.4185,32.8911,蚌埠市,蚌埠学院,,,,47,,23,86,38,38,19,39,27,,8,0.7,0.5
2023-02-15T10:00:00,2274A,117.3533,32.9673,蚌埠市,淮上区政府,颗粒物(PM10),71,92,57,48,28,87,30,48,23,42,30,14,10,0.6,0.5
2023-02-15T10:00:00,2275A,117.3145,32.8977,蚌埠市,高新区,细颗粒物(PM2.5),67,75,54,48,32,82,36,22,11,47,32,16,9,0.7,0.4
2023-02-15T10:00:00,2277A,116.8305,32.7727,淮南市,潘集区政府,细颗粒物(PM2.5),94,97,55,70,40,80,45,48,21,30,27,28,12,0.6,0.4
2023-02-15T10:00:00,2278A,117.0067,32.6524,淮南市,师范学院,细颗粒物(PM2.5),79,77,59,58,32,78,46,44,27,27,21,20,13,0.7,0.6
2023-02-15T10:00:00,2279A,116.8569,32.5951,淮南市,谢家集区政府,细颗粒物(PM2.5),87,89,56,64,33,83,54,47,30,31,25,28,21,0.6,0.5
2023-02-15T10:00:00,2280A,116.8281,32.633,淮南市,八公山区政府,细颗粒物(PM2.5),80,87,52,59,32,88,53,54,39,32,21,21,12,0.7,0.4
2023-02-15T10:00:00,2281A,116.6325,32.6201,淮南市,焦岗湖风景区管理处,细颗粒物(PM2.5),79,82,55,58,33,73,31,8,8,37,40,10,5,0.8,0.4
2023-02-15T10:00:00,2282A,116.8004,33.975,淮北市,监测站,颗粒物(PM10),51,52,55,16,31,86,55,73,36,16,20,9,8,0.6,0.6
2023-02-15T10:00:00,2283A,116.8091,33.9007,淮北市,烈山区政府,,41,41,59,27,36,90,53,33,33,23,31,12,7,0.5,0.4
2023-02-15T10:00:00,2284A,116.7856,33.9477,淮北市,职业技术学院,,,,62,15,36,88,58,64,37,17,25,8,8,0.6,0.6
2023-02-15T10:00:00,2285A,117.8177,30.9412,铜陵市,市第四中学,颗粒物(PM10),57,64,41,35,29,87,54,21,15,26,37,8,9,0.3,0.3
2023-02-15T10:00:00,2286A,117.8059,30.9273,铜陵市,市公路局,颗粒物(PM10),53,56,43,33,30,88,53,26,15,22,33,4,4,0.6,0.6
2023-02-15T10:00:00,2287A,117.7807,30.9413,铜陵市,市新民污水厂,,,55,37,22,24,91,39,53,21,34,29,,7,0.5,0.4
2023-02-15T10:00:00,2288A,117.7439,30.8792,铜陵市,市第九中学,"颗粒物(PM10),细颗粒物(PM2.5)",60,69,50,43,32,87,36,48,23,32,28,10,8,0.6,0.5
2023-02-15T10:00:00,2289A,117.846,30.9413,铜陵市,车站新区,,48,47,35,33,25,90,55,49,25,18,23,7,7,0.4,0.4
2023-02-15T10:00:00,2290A,117.8483,30.97,铜陵市,市职教基地,,47,47,35,21,19,89,44,53,29,22,20,5,4,0.4,0.2
2023-02-15T10:00:00,2291A,117.0809,30.5177,安庆市,环科院,颗粒物(PM10),60,70,52,41,36,86,56,66,52,19,18,10,8,0.7,0.6
2023-02-15T10:00:00,2292A,117.0331,30.5119,安庆市,马山宾馆,颗粒物(PM10),58,66,57,36,34,83,52,64,52,21,15,9,7,0.6,0.4
2023-02-15T10:00:00,2294A,116.9896,30.6145,安庆市,安庆大学,颗粒物(PM10),51,52,56,25,39,85,64,61,56,18,15,8,7,0.8,0.8
2023-02-15T10:00:00,2295A,118.2903,29.6963,黄山市,延安路89号,细颗粒物(PM2.5),58,43,36,41,30,99,50,65,42,15,12,7,6,0.5,0.5
2023-02-15T10:00:00,2296A,118.327,29.7178,黄山市,黄山东路89号,,49,48,39,34,30,95,52,61,38,19,15,7,6,0.7,0.6
2023-02-15T10:00:00,2297A,118.1371,30.2756,黄山市,黄山区政府5号楼,颗粒物(PM10),53,55,43,31,26,95,49,38,26,12,12,7,7,0.6,0.6
2023-02-15T10:00:00,2298A,118.3093,32.3153,滁州市,老年大学,颗粒物(PM10),60,69,43,42,30,98,45,54,37,26,20,7,6,0.7,0.5
2023-02-15T10:00:00,2299A,118.3244,32.2786,滁州市,人大宾馆,细颗粒物(PM2.5),69,68,51,50,36,92,61,56,41,27,24,9,7,0.7,0.6
2023-02-15T10:00:00,2301A,115.8277,32.8929,阜阳市,市监测站,细颗粒物(PM2.5),72,80,57,52,42,88,46,47,33,45,34,9,6,0.6,0.5
2023-02-15T10:00:00,2303A,115.8554,32.8605,阜阳市,开发区,细颗粒物(PM2.5),79,102,72,58,41,90,47,50,38,51,28,10,7,0.8,0.7
2023-02-15T10:00:00,2307A,116.5079,31.737,六安市,监测大楼,颗粒物(PM10),63,76,51,43,37,88,39,52,20,26,22,7,6,0.4,0.4
2023-02-15T10:00:00,2308A,116.4738,31.7643,六安市,皖西学院,细颗粒物(PM2.5),57,59,57,40,35,95,41,44,26,18,17,5,4,0.4,0.3
2023-02-15T10:00:00,2309A,116.4996,31.7905,六安市,朝阳厂,颗粒物(PM10),55,60,44,31,32,97,34,56,33,31,23,5,4,0.5,0.4
2023-02-15T10:00:00,2310A,116.5567,31.7886,六安市,开发区,颗粒物(PM10),64,77,63,37,35,90,40,23,20,28,25,10,7,0.4,0.4
2023-02-15T10:00:00,2311A,115.8072,33.8399,亳州市,污水处理厂,,,,65,,52,82,,29,17,32,25,14,8,0.6,0.6
2023-02-15T10:00:00,2312A,115.7789,33.8518,亳州市,三国揽胜宫,细颗粒物(PM2.5),75,89,77,55,46,88,40,38,18,32,28,17,8,0.5,0.5
2023-02-15T10:00:00,2314A,117.47,30.6618,池州市,池州学院,细颗粒物(PM2.5),63,60,40,45,30,93,42,54,41,25,16,8,7,0.5,0.4
2023-02-15T10:00:00,2316A,118.7581,30.9454,宣城市,鳌峰子站,颗粒物(PM10),59,67,46,36,28,96,69,70,51,15,17,8,7,0.5,0.5
2023-02-15T10:00:00,2317A,118.7385,30.9743,宣城市,敬亭山子站,颗粒物(PM10),56,62,48,35,31,82,73,64,55,18,19,8,7,0.4,0.4
2023-02-15T10:00:00,2318A,118.7173,30.9427,宣城市,开发区子站,颗粒物(PM10),59,67,48,33,30,80,71,70,51,18,23,5,6,0.6,0.5
2023-02-15T10:00:00,2319A,119.0141,25.4325,莆田市,荔城区仓后路,颗粒物(PM10),52,54,32,29,22,78,58,78,68,15,14,8,8,0.5,0.6
2023-02-15T10:00:00,2320A,119.0015,25.4553,莆田市,莆田市监测站,,47,47,25,29,21,76,59,76,69,16,14,6,6,0.7,0.8
2023-02-15T10:00:00,2321A,119.1119,25.4561,莆田市,涵江区六中,颗粒物(PM10),52,53,34,32,25,86,60,86,71,18,16,6,6,0.7,0.7
2023-02-15T10:00:00,2322A,119.1013,25.3215,莆田市,秀屿区政府,,50,50,34,30,26,92,64,88,74,15,14,5,4,0.4,0.6
2023-02-15T10:00:00,2323A,118.981,25.4792,莆田市,东圳水库,,,,,,,,,,,,,,,,
2023-02-15T10:00:00,2324A,117.6211,26.2625,三明市,三钢,,20,9,11,14,12,52,41,41,41,10,12,6,7,0.8,0.8
2023-02-15T10:00:00,2325A,117.635,26.2714,三明市,三明二中,,15,7,9,10,11,51,42,46,45,14,14,3,3,0.6,0.7
2023-02-15T10:00:00,2326A,117.6028,26.2378,三明市,三元区政府,,18,16,17,12,14,49,40,34,30,12,14,5,8,0.6,0.7
2023-02-15T10:00:00,2327A,117.7275,26.3108,三明市,洋溪,,,,,,,,,,,,,,,,
2023-02-15T10:00:00,2331A,118.0966,26.6761,南平市,茫荡山,,,,,,,,,,,,,,,,
2023-02-15T10:00:00,2332A,118.1681,26.6369,南平市,南平市监测站,,16,13,11,8,6,60,51,57,45,7,8,3,3,0.7,0.7
2023-02-15T10:00:00,2333A,118.1825,26.6489,南平市,南平铝业有限公司,,16,10,11,10,8,59,50,56,43,6,7,5,6,0.6,0.8
2023-02-15T10:00:00,2334A,118.1756,26.6272,南平市,南平七中,,18,9,11,8,8,62,56,59,44,8,9,5,4,0.7,0.8
2023-02-15T10:00:00,2335A,117.0189,25.1181,龙岩市,龙岩师专,,,,,,,,,,,,,,,,
2023-02-15T10:00:00,2336A,117.0217,25.1033,龙岩市,龙岩市监测站,,21,12,9,7,6,67,67,52,52,7,10,5,6,0.6,0.8
2023-02-15T10:00:00,2337A,117.0258,25.0661,龙岩市,闽西职业技术学院,,,,10,,7,59,59,50,50,,8,5,6,0.7,0.8
2023-02-15T10:00:00,2338A,117.0196,25.0306,龙岩市,龙岩学院,,19,18,10,5,7,60,58,50,50,11,10,4,5,0.6,0.6
2023-02-15T10:00:00,2339A,119.5001,26.6946,宁德市,金涵水库,,,,,,,,,,,,,,,,
2023-02-15T10:00:00,2341A,119.5388,26.6612,宁德市,宁德市监测站,,50,39,30,35,31,89,54,83,54,18,17,6,3,0.7,0.7
2023-02-15T10:00:00,2342A,117.3102,29.3867,景德镇市,王港中学,,43,29,28,30,28,44,30,18,15,6,6,3,4,0.4,0.3
2023-02-15T10:00:00,2343A,117.2117,29.2933,景德镇市,老干部活动中心,颗粒物(PM10),56,62,68,36,33,63,49,59,45,13,13,9,8,0.6,0.6
2023-02-15T10:00:00,2344A,117.1894,29.2789,景德镇市,兽医站,,46,39,34,32,26,72,55,58,46,14,13,8,8,0.5,0.5
2023-02-15T10:00:00,2345A,117.1547,29.2617,景德镇市,台达陶瓷,,43,43,37,25,25,70,53,58,46,17,20,21,15,0.9,0.8
2023-02-15T10:00:00,2346A,117.2461,29.2956,景德镇市,陶研所,,50,43,58,35,21,62,46,60,41,12,9,5,5,0.7,0.7
2023-02-15T10:00:00,2347A,114.0997,27.5002,萍乡市,武功山,细颗粒物(PM2.5),70,45,26,51,28,32,20,32,24,22,15,12,11,1.2,0.9
2023-02-15T10:00:00,2348A,113.8385,27.6434,萍乡市,中医院,细颗粒物(PM2.5),104,126,73,78,51,29,11,20,13,30,19,30,17,1.8,1
2023-02-15T10:00:00,2349A,113.8493,27.6253,萍乡市,市政府车库,细颗粒物(PM2.5),105,102,69,79,55,29,9,19,14,31,21,32,14,1.0,0.8
2023-02-15T10:00:00,2350A,113.8676,27.6435,萍乡市,市环保局,细颗粒物(PM2.5),99,104,69,74,50,25,9,19,12,28,20,28,19,1.4,0.9
2023-02-15T10:00:00,2351A,113.866,27.6198,萍乡市,安源区政府,细颗粒物(PM2.5),88,99,71,65,50,29,10,22,14,34,22,36,16,0.8,0.6
2023-02-15T10:00:00,2352A,115.0861,27.9317,新余市,北岗,,49,39,23,34,20,56,41,43,42,19,14,17,8,0.7,0.7
2023-02-15T10:00:00,2353A,114.9886,27.8431,新余市,飞宇,,50,50,39,35,20,48,38,37,37,14,15,10,11,0.3,0.4
2023-02-15T10:00:00,2354A,114.9231,27.8246,新余市,第二水厂,,46,46,32,32,22,43,35,37,37,16,13,12,9,0.5,0.5
2023-02-15T10:00:00,2355A,114.9308,27.8036,新余市,市气象局,颗粒物(PM10),68,85,39,37,26,42,25,31,31,23,17,10,7,0.6,0.6
2023-02-15T10:00:00,2357A,116.9822,28.1136,鹰潭市,龙虎山,,40,40,28,5,14,56,54,56,38,2,2,4,2,0.3,0.4
2023-02-15T10:00:00,2358A,117.0564,28.2642,鹰潭市,新监测站,细颗粒物(PM2.5),57,45,32,40,27,59,44,59,41,20,14,6,2,0.4,0.5
2023-02-15T10:00:00,2359A,117.0311,28.2475,鹰潭市,财苑宾馆,,48,47,36,33,26,50,40,50,39,21,16,5,3,0.4,0.5
2023-02-15T10:00:00,2360A,117.0222,28.2264,鹰潭市,体育馆,,49,42,31,34,28,50,42,46,39,16,16,3,3,0.6,0.4
2023-02-15T10:00:00,2361A,117.0017,28.2131,鹰潭市,三川水表,,,47,35,41,34,51,,44,38,21,16,2,2,,0.5
2023-02-15T10:00:00,2362A,114.9017,25.9149,赣州市,通天岩,,42,42,27,21,14,66,45,48,34,16,9,15,7,0.8,0.9
2023-02-15T10:00:00,2363A,114.9367,25.8664,赣州市,地委,,49,45,27,34,20,68,64,50,50,12,12,6,15,0.7,0.9
2023-02-15T10:00:00,2364A,114.9461,25.8481,赣州市,气象台,,48,41,24,33,21,63,58,52,52,17,10,11,10,0.4,0.7
2023-02-15T10:00:00,2365A,114.9322,25.8333,赣州市,市图书馆,,41,41,25,24,18,61,56,51,51,18,14,8,9,0.8,1
2023-02-15T10:00:00,2366A,114.8905,25.8471,赣州市,华坚鞋城,,44,44,28,25,16,58,38,46,41,31,15,11,5,0.9,1
2023-02-15T10:00:00,2367A,114.9754,27.0803,吉安市,红声器材厂,"颗粒物(PM10),细颗粒物(PM2.5)",54,58,41,38,22,64,48,44,44,15,15,13,7,0.6,0.7
2023-02-15T10:00:00,2368A,114.9658,27.0999,吉安市,市森林工业局,,,46,32,38,24,65,46,43,43,,14,12,7,0.1,0.4
2023-02-15T10:00:00,2369A,114.99,27.1312,吉安市,市环境监测站,细颗粒物(PM2.5),57,51,36,40,25,65,47,46,46,18,16,21,12,0.6,0.7
2023-02-15T10:00:00,2370A,115.0093,27.0968,吉安市,青原区法院,颗粒物(PM10),51,51,35,35,23,68,47,44,44,18,18,10,7,0.6,0.7
2023-02-15T10:00:00,2371A,114.3408,27.8064,宜春市,槟榔水业,,48,47,43,33,28,33,22,20,20,20,18,16,14,0.7,0.8
2023-02-15T10:00:00,2373A,114.3956,27.7844,宜春市,市石油公司,,45,43,44,31,32,46,36,28,28,17,16,8,9,0.7,0.9
2023-02-15T10:00:00,2374A,114.3703,27.7914,宜春市,市气象局,,50,50,48,32,34,45,33,28,28,28,24,11,13,0.6,0.7
2023-02-15T10:00:00,2375A,114.4013,27.8074,宜春市,市广电局,细颗粒物(PM2.5),55,44,47,39,36,45,32,30,30,25,23,11,14,1.2,1.2
2023-02-15T10:00:00,2376A,116.2127,28.0814,抚州市,桐源党溪,细颗粒物(PM2.5),74,65,42,54,29,90,57,39,26,6,5,2,2,0.9,0.9
2023-02-15T10:00:00,2377A,116.3544,27.9831,抚州市,市站,细颗粒物(PM2.5),64,63,49,46,31,75,52,57,39,17,16,5,3,0.6,0.6
2023-02-15T10:00:00,2378A,116.3565,27.963,抚州市,血防站,细颗粒物(PM2.5),64,72,57,46,31,73,53,56,40,14,13,7,6,0.9,0.8
2023-02-15T10:00:00,2379A,116.3564,28.0007,抚州市,采茶剧团,细颗粒物(PM2.5),62,62,44,44,31,68,50,52,36,15,15,3,5,0.7,0.7
2023-02-15T10:00:00,2380A,116.385,27.9647,抚州市,医学分院,细颗粒物(PM2.5),55,58,50,39,28,65,49,52,36,16,14,6,4,0.8,0.9
2023-02-15T10:00:00,2381A,118.005,28.4572,上饶市,百草园,,,,,,,,,,,,,,,,
2023-02-15T10:00:00,2382A,117.9756,28.4436,上饶市,市监测站,颗粒物(PM10),53,56,35,32,20,61,19,27,26,27,19,28,18,0.7,0.7
2023-02-15T10:00:00,2383A,117.9519,28.4628,上饶市,凤凰光学,,50,49,33,35,19,60,15,28,24,32,16,27,21,0.6,0.7
2023-02-15T10:00:00,2385A,114.17,35.9019,鹤壁市,市监测站,颗粒物(PM10),83,116,90,60,52,83,21,10,10,41,35,13,9,0.7,0.5
2023-02-15T10:00:00,2386A,114.2956,35.7511,鹤壁市,市交警支队,细颗粒物(PM2.5),88,97,62,65,39,80,8,3,3,62,46,12,8,0.7,0.5
2023-02-15T10:00:00,2387A,114.2878,35.7306,鹤壁市,迎宾馆,,,67,44,56,38,87,,6,5,58,43,16,7,0.9,0.6
2023-02-15T10:00:00,2389A,113.836,35.311,新乡市,环保西院,细颗粒物(PM2.5),62,63,81,44,53,81,50,10,10,41,41,8,8,0.5,0.6
2023-02-15T10:00:00,2390A,113.884,35.272,新乡市,开发区,细颗粒物(PM2.5),64,69,73,46,48,81,44,14,11,51,49,11,9,0.6,0.7
2023-02-15T10:00:00,2391A,113.883,35.303,新乡市,环保东院,细颗粒物(PM2.5),65,60,62,47,45,80,45,24,12,46,42,10,9,0.7,0.7
2023-02-15T10:00:00,2392A,115.0312,35.7636,濮阳市,环保局,细颗粒物(PM2.5),63,59,33,45,32,88,32,45,32,43,25,37,10,0.7,0.4
2023-02-15T10:00:00,2394A,115.0574,35.7609,濮阳市,油田运输公司,细颗粒物(PM2.5),72,89,56,52,37,95,36,57,41,38,20,34,10,1.2,0.9
2023-02-15T10:00:00,2395A,115.0866,35.7754,濮阳市,油田物探公司,细颗粒物(PM2.5),84,57,41,62,41,88,27,49,31,44,23,29,11,0.9,0.6
2023-02-15T10:00:00,2396A,113.8276,34.0159,许昌市,监测站,细颗粒物(PM2.5),83,86,57,61,48,88,27,15,8,49,37,3,2,1.0,0.7
2023-02-15T10:00:00,2398A,113.7906,33.9953,许昌市,开发区,细颗粒物(PM2.5),89,100,61,66,43,85,7,3,3,61,43,4,2,0.9,0.6
2023-02-15T10:00:00,2399A,114.051,33.5699,漯河市,三五一五工厂,颗粒物(PM10),74,98,57,51,37,88,20,19,10,58,35,14,6,0.7,0.5
2023-02-15T10:00:00,2400A,114.0055,33.5698,漯河市,漯河大学,细颗粒物(PM2.5),74,87,52,54,37,93,36,19,13,56,40,15,7,0.8,0.5
2023-02-15T10:00:00,2401A,114.0138,33.5828,漯河市,市水利局,"颗粒物(PM10),细颗粒物(PM2.5)",67,83,53,48,35,92,35,28,16,51,33,13,9,0.5,0.3
2023-02-15T10:00:00,2402A,114.0261,33.5698,漯河市,市广电局,细颗粒物(PM2.5),82,95,55,60,38,89,19,10,10,64,37,14,8,0.8,0.5
2023-02-15T10:00:00,2404A,112.5224,33.0122,南阳市,瓦房庄,颗粒物(PM10),54,57,59,37,46,78,55,66,60,32,25,7,6,0.5,0.5
2023-02-15T10:00:00,2405A,112.5003,32.9735,南阳市,汉画馆,细颗粒物(PM2.5),57,59,61,40,46,76,56,62,54,28,23,6,4,0.5,0.6
2023-02-15T10:00:00,2406A,112.5573,33.027,南阳市,气象站,颗粒物(PM10),54,58,62,36,45,81,63,66,54,18,19,9,7,0.5,0.5
2023-02-15T10:00:00,2407A,112.5481,32.9689,南阳市,理工学院,颗粒物(PM10),55,60,62,38,44,82,59,63,50,23,21,8,5,0.5,0.5
2023-02-15T10:00:00,2408A,115.6702,34.4285,商丘市,环境监测站,细颗粒物(PM2.5),97,94,62,72,44,86,26,11,11,45,42,18,11,0.5,0.5
2023-02-15T10:00:00,2409A,115.6458,34.4045,商丘市,粮食局,细颗粒物(PM2.5),88,70,60,65,45,90,36,14,12,41,40,19,11,0.6,0.6
2023-02-15T10:00:00,2410A,115.6293,34.3948,商丘市,睢阳区环保局,细颗粒物(PM2.5),73,79,75,53,41,94,37,9,9,42,43,19,10,0.5,0.5
2023-02-15T10:00:00,2420A,114.0189,32.9656,驻马店市,市一纸厂,"颗粒物(PM10),细颗粒物(PM2.5)",65,80,57,47,45,91,41,24,24,44,34,10,5,0.7,0.5
2023-02-15T10:00:00,2421A,114.0114,33.015,驻马店市,市彩印厂,细颗粒物(PM2.5),58,61,52,41,34,85,56,40,36,28,30,12,9,0.4,0.3
2023-02-15T10:00:00,2422A,113.9976,32.9771,驻马店市,天方二分厂,颗粒物(PM10),59,67,53,41,37,83,51,32,32,40,34,6,2,0.8,0.7
2023-02-15T10:00:00,2423A,115.0601,30.2313,黄石市,沈家营,细颗粒物(PM2.5),85,96,65,63,49,59,26,30,21,35,26,17,17,1.3,1
2023-02-15T10:00:00,2424A,115.0817,30.2006,黄石市,陈家湾,细颗粒物(PM2.5),120,86,67,91,59,63,27,25,25,37,22,26,9,1.3,1.1
2023-02-15T10:00:00,2426A,114.8988,30.2019,黄石市,铁山,细颗粒物(PM2.5),105,87,73,79,59,75,22,14,14,36,24,102,8,2.0,1.2
2023-02-15T10:00:00,2427A,115.0307,30.2092,黄石市,团城山,细颗粒物(PM2.5),89,104,83,66,62,52,40,28,18,26,25,25,32,1.1,1.1
2023-02-15T10:00:00,2428A,111.0419,32.395,十堰市,武当山,,38,19,29,26,26,87,79,72,72,2,7,10,10,0.9,0.9
2023-02-15T10:00:00,2429A,110.78,32.6494,十堰市,滨河新村,细颗粒物(PM2.5),80,89,64,59,46,76,46,70,61,28,17,10,8,0.9,0.9
2023-02-15T10:00:00,2430A,110.7258,32.6389,十堰市,刘家沟,颗粒物(PM10),74,98,69,47,40,72,43,66,52,33,25,11,8,1.1,1.1
2023-02-15T10:00:00,2431A,110.8839,32.5714,十堰市,铁二处,细颗粒物(PM2.5),84,80,58,62,42,82,44,40,38,24,21,15,8,0.9,0.9
2023-02-15T10:00:00,2432A,112.155,32.0197,襄阳市,襄城运动路,颗粒物(PM10),71,92,83,50,61,98,25,42,33,35,25,8,8,0.8,0.7
2023-02-15T10:00:00,2433A,112.1392,32.0564,襄阳市,樊城新华路,细颗粒物(PM2.5),79,84,76,58,63,92,17,45,35,51,27,9,9,1.3,1
2023-02-15T10:00:00,2434A,112.1825,32.1142,襄阳市,高新管委会,颗粒物(PM10),68,85,86,44,64,94,43,48,39,30,27,12,12,0.5,0.6
2023-02-15T10:00:00,2435A,112.2106,32.0903,襄阳市,襄州航空路,,,,85,,69,91,,43,28,,25,11,11,,0.9
2023-02-15T10:00:00,2436A,114.8938,30.3994,鄂州市,市政府,细颗粒物(PM2.5),74,68,63,54,48,80,20,39,14,22,27,8,10,0.9,0.8
2023-02-15T10:00:00,2437A,114.8989,30.3714,鄂州市,赵家坝,细颗粒物(PM2.5),77,76,63,56,47,74,11,31,13,20,22,6,7,0.8,0.7
2023-02-15T10:00:00,2439A,112.2014,31.0481,荆门市,竹园小学,细颗粒物(PM2.5),100,119,90,75,65,104,48,62,35,29,22,7,8,0.9,0.8
2023-02-15T10:00:00,2440A,112.1969,30.9891,荆门市,掇刀,细颗粒物(PM2.5),90,109,86,67,68,102,61,66,38,26,25,12,11,0.8,0.8
