timepoint,stationcode,longitude,latitude,area,positionname,primarypollutant,aqi,pm10,pm10_24h,pm2_5,pm2_5_24h,o3,o3_24h,o3_8h,o3_8h_24h,no2,no2_24h,so2,so2_24h,co,co_24h
2025-10-06T2000,2566A,102.1879,31.914,阿坝藏族羌族自治州,州农科所,,19,18,15,13,8,29,,42,41,7,5,2,1,0.5,0.4
2025-10-06T2000,2568A,102.2502,31.8896,阿坝藏族羌族自治州,马师校,,29,,19,20,14,10,,29,26,13,6,5,5,0.7,0.7
2025-10-06T2000,3994A,102.2165,31.9024,阿坝藏族羌族自治州,马尔康中学西区,,25,23,13,17,12,19,,42,40,9,5,5,4,0.5,0.5
2025-10-06T2000,2695A,80.292,41.1694,阿克苏地区,电视台,颗粒物(PM10),168,286,368,102,111,75,,81,81,12,22,4,11,0.4,0.5
2025-10-06T2000,2696A,80.2613,41.1551,阿克苏地区,艺术中心,颗粒物(PM10),151,251,339,83,114,85,,80,80,3,27,3,4,0.3,0.5
2025-10-06T2000,2204A,105.6467,38.8363,阿拉善盟,西城区西花园,,30,21,25,21,16,82,,94,94,12,14,8,8,0.4,0.4
2025-10-06T2000,2205A,105.6985,38.8411,阿拉善盟,蒙二幼,,33,33,28,14,14,81,,91,90,8,6,8,8,0.6,0.6
2025-10-06T2000,2206A,105.724,38.8516,阿拉善盟,环保局新楼,,26,26,28,14,14,80,,87,87,7,6,9,8,0.5,0.5
2025-10-06T2000,2708A,88.1264,47.8517,阿勒泰地区,市站,,24,24,14,3,5,31,,56,53,35,11,4,5,0.3,0.2
2025-10-06T2000,2630A,80.1161,32.5,阿里地区,阿里监测站,,33,6,3,3,3,104,,114,109,1,1,10,9,0.3,0.2
2025-10-06T2000,3192A,80.0903,32.5028,阿里地区,阿里藏医院,,34,10,12,3,3,108,,117,112,1,2,8,7,0.2,0.2
2025-10-06T2000,2642A,109.0318,32.6537,安康市,香溪洞,,19,19,10,7,5,30,,33,33,6,6,7,7,0.4,0.4
2025-10-06T2000,2644A,109.0072,32.6975,安康市,汉滨区检察院,,20,20,15,10,9,13,,22,22,13,12,5,5,0.7,0.6
2025-10-06T2000,4054A,109.0325,32.6913,安康市,市邮政管理局,,20,20,17,9,8,9,,27,26,20,16,6,6,1.0,0.8
2025-10-06T2000,2291A,117.0809,30.5177,安庆市,环科院,,41,41,52,23,37,54,,110,101,28,37,8,8,0.9,0.9
2025-10-06T2000,2292A,117.0331,30.5119,安庆市,马山宾馆,,43,36,47,30,35,78,,107,101,14,39,6,6,0.7,0.8
2025-10-06T2000,2294A,116.9896,30.6145,安庆市,安庆大学,,42,42,48,22,32,75,,105,95,10,15,6,5,0.5,0.6
2025-10-06T2000,3173A,117.0598,30.5351,安庆市,市人大,,32,32,54,22,37,64,,116,106,18,23,8,8,0.8,0.8
2025-10-06T2000,3122A,105.9606,26.2611,安顺市,伍家关,,43,43,43,29,24,47,,55,53,9,8,13,10,0.5,0.4
2025-10-06T2000,3123A,105.9408,26.2431,安顺市,凤凰山,,42,36,35,29,32,48,,55,54,6,9,16,9,0.6,0.6
2025-10-06T2000,3124A,105.9439,26.2564,安顺市,金钟山,细颗粒物(PM2.5),62,,26,44,23,53,,61,59,7,4,16,11,0.7,0.6
2025-10-06T2000,3125A,105.8983,26.2481,安顺市,娄家坡,,46,,19,32,18,47,,52,51,6,5,16,11,0.5,0.5
2025-10-06T2000,1818A,114.4839,36.0621,安阳市,棉研所,,,,,,,,,,,,,,,,
2025-10-06T2000,1819A,114.3551,36.1017,安阳市,红庙街,,23,,9,16,4,48,,52,52,17,10,2,1,0.3,0.4
2025-10-06T2000,1820A,114.361,36.0681,安阳市,银杏小区,,25,18,8,17,5,58,,58,58,14,12,2,1,0.3,0.4
2025-10-06T2000,3141A,114.3922,36.0878,安阳市,信访局,,19,17,8,8,3,58,,57,57,10,8,1,3,0.4,0.5
2025-10-06T2000,3669A,114.4705,36.0637,安阳市,左辅环卫站,,25,21,10,17,5,68,,67,67,14,14,1,2,0.2,0.3
2025-10-06T2000,3703A,114.2917,36.0949,安阳市,安钢职工学校,,30,29,13,21,7,49,,54,54,13,15,2,4,0.5,0.9
2025-10-06T2000,1748A,123.044,41.1196,鞍山市,深沟寺,颗粒物(PM10),55,60,36,38,18,1,,24,16,35,27,6,9,1.1,0.6
2025-10-06T2000,1749A,123.011,41.0931,鞍山市,太阳城,细颗粒物(PM2.5),59,60,35,42,19,2,,28,16,31,22,8,9,1.1,0.6
2025-10-06T2000,1750A,123.0485,41.1442,鞍山市,太平,细颗粒物(PM2.5),82,98,50,60,22,4,,27,22,41,28,8,12,1.4,0.7
2025-10-06T2000,1751A,122.9642,41.0971,鞍山市,铁西三道街,颗粒物(PM10),59,67,56,35,23,3,,23,19,45,40,13,24,1.1,1.7
2025-10-06T2000,1753A,123.022,41.0821,鞍山市,明达新区,细颗粒物(PM2.5),75,74,38,55,19,2,,29,15,35,23,11,13,1.4,0.8
2025-10-06T2000,1754A,123.1289,41.0228,鞍山市,千山,,,,31,,17,,,33,,,23,,6,,0.8
2025-10-06T2000,4201A,122.9446,41.0826,鞍山市,兴盛南路290号,颗粒物(PM10),60,70,62,39,25,2,,22,19,50,47,17,33,0.9,1.8
2025-10-06T2000,2195A,107.4212,40.761,巴彦淖尔市,附二中,颗粒物(PM10),86,121,56,40,22,68,,103,101,25,12,10,11,0.6,0.4
2025-10-06T2000,2196A,107.37,40.7372,巴彦淖尔市,市环保大楼,颗粒物(PM10),59,68,53,26,22,54,,93,90,28,13,10,11,0.5,0.3
2025-10-06T2000,1956A,86.1472,41.7538,巴音郭楞蒙古自治州,孔雀公园,颗粒物(PM10),60,70,72,18,22,83,,92,92,11,18,6,7,0.3,0.4
2025-10-06T2000,1957A,86.1972,41.7166,巴音郭楞蒙古自治州,棉纺厂,颗粒物(PM10),56,61,85,16,17,89,,100,100,7,17,5,5,0.2,0.3
2025-10-06T2000,1958A,86.2357,41.7173,巴音郭楞蒙古自治州,经济开发区,,46,46,63,15,15,84,,92,92,6,9,6,6,0.2,0.2
2025-10-06T2000,2914A,106.7677,31.8794,巴中市,苏山坪,,19,18,15,13,11,54,,44,44,4,4,4,4,0.5,0.6
2025-10-06T2000,3181A,106.7768,31.8526,巴中市,市五中,,26,26,15,16,7,20,,40,40,22,13,8,7,0.9,0.9
2025-10-06T2000,3183A,106.7418,31.8654,巴中市,圣泉水务公司,,25,19,10,17,8,28,,38,38,7,8,7,7,0.6,0.6
2025-10-06T2000,3616A,106.7616,31.8344,巴中市,市中心医院,,,20,13,,9,27,,42,42,,11,9,9,,0.7
2025-10-06T2000,2235A,122.7911,45.6077,白城市,洮北区环保局,,27,27,25,18,20,54,,73,70,16,18,6,6,0.4,0.5
2025-10-06T2000,2236A,122.8738,45.5725,白城市,市环保局,,31,31,20,18,12,43,,71,65,20,20,4,4,0.4,0.4
2025-10-06T2000,2231A,126.4219,41.9171,白山市,喜丰,,20,20,27,10,7,25,,59,30,8,8,8,7,0.5,0.4
2025-10-06T2000,2232A,126.4077,41.9419,白山市,环保局,,14,14,19,7,12,22,,44,31,10,13,7,7,0.5,0.5
2025-10-06T2000,2647A,104.1724,36.5446,白银市,第三小学,,38,38,44,24,32,77,,82,82,10,16,11,21,0.6,0.7
2025-10-06T2000,2648A,104.1465,36.5482,白银市,动力公司,,36,36,41,17,29,83,,89,89,8,13,10,13,0.4,0.6
2025-10-06T2000,2512A,106.6103,23.9011,百色市,市监测站,,15,6,16,3,10,46,,41,41,7,8,6,6,0.4,0.4
2025-10-06T2000,2513A,106.6538,23.8859,百色市,市中心血站,,16,7,29,7,13,50,,44,44,8,18,3,4,0.4,0.6
2025-10-06T2000,3406A,106.6085,23.8798,百色市,祈福高中,,14,,22,3,13,43,,38,38,7,11,4,7,0.5,0.6
2025-10-06T2000,2270A,117.396,32.939,蚌埠市,工人疗养院,,38,38,75,12,39,82,,109,106,5,13,4,5,0.6,0.7
2025-10-06T2000,2271A,117.3605,32.9427,蚌埠市,百货大楼,,31,31,63,14,40,73,,105,102,8,19,7,7,0.8,0.9
2025-10-06T2000,2273A,117.4185,32.8911,蚌埠市,蚌埠学院,,,31,67,,50,85,,114,109,4,17,,6,0.6,0.8
2025-10-06T2000,2274A,117.3533,32.9673,蚌埠市,淮上区政府,,39,39,70,17,43,69,,114,108,11,16,7,7,0.6,0.7
2025-10-06T2000,2275A,117.3145,32.8977,蚌埠市,高新区,,29,27,67,20,43,72,,105,101,10,19,7,9,0.8,0.9
2025-10-06T2000,3715A,117.3092,32.9314,蚌埠市,蚌埠田家炳中学,,39,39,72,11,42,70,,110,105,11,22,5,5,0.7,0.8
2025-10-06T2000,1585A,109.8756,40.6532,包头市,市环境监测站,颗粒物(PM10),56,62,62,23,16,73,,101,97,24,30,10,15,0.6,0.9
2025-10-06T2000,1587A,109.9991,40.5842,包头市,包头八中,颗粒物(PM10),61,72,65,36,25,37,,95,90,68,28,15,13,0.8,0.7
2025-10-06T2000,1588A,109.8538,40.6821,包头市,青山宾馆,,40,40,54,17,23,73,,100,95,25,32,8,14,0.4,0.8
2025-10-06T2000,1589A,109.8642,40.6288,包头市,惠龙物流,,46,46,58,26,22,70,,98,96,23,24,14,19,0.5,0.9
2025-10-06T2000,1590A,110.0377,40.5546,包头市,东河鸿龙湾,颗粒物(PM10),65,79,47,41,17,31,,96,91,65,22,18,12,0.9,0.7
2025-10-06T2000,3283A,109.9154,40.5685,包头市,滨河大厦,,44,44,42,27,18,68,,102,100,30,17,11,9,0.7,0.5
2025-10-06T2000,3419A,109.9447,40.6261,包头市,包头市委党校,,45,45,53,24,16,68,,105,103,30,23,14,13,0.6,0.7
2025-10-06T2000,3683A,109.8331,40.6576,包头市,昆区政府,颗粒物(PM10),53,56,59,28,25,73,,100,97,21,28,15,23,0.4,0.8
2025-10-06T2000,1930A,107.185,34.3063,宝鸡市,庙沟村,,13,,15,6,8,39,,75,51,17,9,5,5,0.4,0.4
2025-10-06T2000,1931A,107.0708,34.3017,宝鸡市,竹园沟,,16,16,13,3,8,40,,59,50,4,5,8,8,0.6,0.5
2025-10-06T2000,1932A,107.1906,34.3672,宝鸡市,三陆医院,,21,14,20,11,10,16,,48,34,42,27,6,6,0.7,0.6
2025-10-06T2000,1933A,107.1431,34.3547,宝鸡市,监测站,,13,13,19,8,11,32,,59,43,11,8,4,4,0.7,0.7
2025-10-06T2000,1934A,107.1186,34.3739,宝鸡市,技工学校,,14,12,21,9,13,44,,57,48,11,12,6,6,0.6,0.6
2025-10-06T2000,1936A,107.2058,34.3497,宝鸡市,文理学院,,13,9,21,9,12,37,,60,45,15,14,5,5,0.6,0.5
2025-10-06T2000,1937A,107.2386,34.3622,宝鸡市,三迪小学,,16,14,20,11,14,35,,59,47,19,14,5,5,0.7,0.6
2025-10-06T2000,4308A,107.3898,34.3601,宝鸡市,陈仓区北开路21号,,16,,13,11,11,38,,60,43,19,13,6,6,0.6,0.5
2025-10-06T2000,1051A,115.493,38.8632,保定市,游泳馆,,41,41,24,18,14,56,,67,67,17,9,3,4,0.2,0.3
2025-10-06T2000,1052A,115.5213,38.8959,保定市,华电二区,,39,35,24,27,18,60,,66,66,15,11,4,3,0.4,0.4
2025-10-06T2000,1053A,115.4713,38.9108,保定市,接待中心,,37,37,30,19,14,56,,60,60,16,8,2,2,0.5,0.4
2025-10-06T2000,1054A,115.4612,38.8416,保定市,地表水厂,,42,42,20,3,9,55,,66,66,24,14,7,7,0.2,0.3
2025-10-06T2000,3581A,115.31981,38.95208,保定市,满城区生态环境分局,细颗粒物(PM2.5),73,70,24,53,13,48,,69,68,18,8,2,1,0.5,0.4
2025-10-06T2000,3582A,115.47694,38.76408,保定市,清苑区第二中学,颗粒物(PM10),65,79,25,39,13,47,,68,67,29,14,3,3,0.4,0.4
2025-10-06T2000,3583A,115.62909,39.02311,保定市,徐水物探局,细颗粒物(PM2.5),69,76,24,50,18,58,,68,68,19,11,7,4,0.4,0.5
2025-10-06T2000,4004A,115.4202,38.8656,保定市,双鹰农机,,42,42,20,24,19,46,,69,68,24,11,4,4,0.3,0.2
2025-10-06T2000,4034A,115.5150,38.8590,保定市,植保所站,,48,48,35,26,18,59,,67,67,20,11,2,3,0.4,0.4
2025-10-06T2000,2594A,99.1678,25.1081,保山市,市环境监测站,,26,,14,18,16,39,,54,52,4,6,7,8,0.3,0.3
2025-10-06T2000,2595A,99.1711,25.1328,保山市,市环保局,,22,22,17,10,8,43,,61,59,3,4,8,8,0.5,0.5
2025-10-06T2000,1866A,109.2262,21.588,北海市,牛尾岭水库,,,,,,,,,,,,,,,,
2025-10-06T2000,1867A,109.1436,21.4086,北海市,海滩公园,,,,17,,4,53,,,,4,4,5,6,0.7,0.7
2025-10-06T2000,1868A,109.0981,21.4661,北海市,新市环保局,,,11,18,9,8,54,,58,58,7,4,,5,0.4,0.4
2025-10-06T2000,1869A,109.1778,21.5233,北海市,北海工业园,,16,12,17,3,8,49,,58,57,6,3,3,3,0.3,0.3
2025-10-06T2000,3400A,109.1911,21.4415,北海市,龙潭自来水厂,,17,17,22,10,7,54,,57,57,5,3,4,3,0.4,0.4
2025-10-06T2000,1001A,116.3621,39.8784,北京市,万寿西宫,,20,20,18,9,9,64,,74,74,20,14,2,3,0.5,0.5
2025-10-06T2000,1002A,116.2202,40.2915,北京市,定陵,,18,18,16,10,9,25,,63,57,5,4,6,6,0.3,0.4
2025-10-06T2000,1003A,116.4174,39.9289,北京市,东四,,24,23,20,10,9,75,,76,76,15,11,2,4,0.4,0.4
2025-10-06T2000,1004A,116.4072,39.8863,北京市,天坛,,15,15,17,7,8,35,,66,60,14,12,3,4,0.5,0.5
2025-10-06T2000,1005A,116.462,39.9365,北京市,农展馆,,20,19,18,10,10,64,,66,66,18,13,4,4,0.6,0.7
2025-10-06T2000,1006A,116.3392,39.9295,北京市,官园,,21,18,19,11,10,65,,71,71,19,14,4,5,0.4,0.5
2025-10-06T2000,1007A,116.2878,39.9611,北京市,海淀万柳,,20,20,20,11,11,42,,51,51,24,18,4,4,0.2,0.2
2025-10-06T2000,1008A,116.6636,40.135,北京市,顺义新城,,27,27,21,8,9,43,,74,72,34,17,6,6,0.2,0.2
2025-10-06T2000,1009A,116.6275,40.3275,北京市,怀柔镇,,25,25,19,12,10,46,,67,65,15,15,2,2,0.3,0.3
2025-10-06T2000,1010A,116.2296,40.217,北京市,昌平镇,,22,22,21,14,13,45,,60,60,17,15,3,3,0.3,0.4
2025-10-06T2000,1011A,116.3966,39.9821,北京市,奥体中心,,20,18,19,10,10,64,,64,64,20,15,3,3,0.4,0.5
2025-10-06T2000,3281A,115.9718,40.4529,北京市,延庆夏都,,21,21,20,12,11,52,,65,64,12,8,1,1,0.4,0.4
2025-10-06T2000,3418A,116.8336,40.4095,北京市,密云新城,,33,33,17,13,7,34,,68,65,15,5,4,4,0.5,0.4
2025-10-06T2000,3671A,116.088,39.9726,北京市,门头沟三家店,,26,26,21,12,11,23,,56,54,24,14,2,2,0.5,0.6
2025-10-06T2000,3672A,116.1541,39.8204,北京市,丰台云岗,,22,22,18,12,9,37,,57,57,20,13,3,3,0.4,0.4
2025-10-06T2000,3673A,116.6804,39.9081,北京市,通州东关,,22,22,25,9,9,57,,66,66,19,14,5,5,0.3,0.5
2025-10-06T2000,3674A,115.9577,39.7603,北京市,房山燕山,,25,25,20,17,13,25,,43,42,16,16,2,2,0.5,0.5
2025-10-06T2000,3675A,116.4672,39.7733,北京市,大兴旧宫,,17,17,16,6,7,39,,69,67,23,13,3,4,0.5,0.6
2025-10-06T2000,3694A,115.986,40.4563,北京市,延庆石河营,,25,25,21,14,11,42,,65,61,9,6,2,2,0.4,0.4
2025-10-06T2000,3695A,116.6151,40.3053,北京市,怀柔新城,,16,14,18,11,11,51,,65,64,8,11,4,4,0.3,0.4
2025-10-06T2000,3696A,116.2545,39.8768,北京市,丰台小屯,,20,20,19,9,10,40,,60,60,26,15,2,2,0.5,0.6
2025-10-06T2000,3697A,116.84,40.3844,北京市,密云镇,,39,39,19,17,7,33,,69,66,28,12,6,6,0.6,0.4
2025-10-06T2000,4182A,116.1942,39.9158,北京市,八角北路9号,,32,32,21,12,11,46,,63,63,29,18,2,1,0.3,0.4
2025-10-06T2000,4194A,117.0790,40.1518,北京市,洳河巡河路,,31,31,24,12,10,28,,62,59,19,12,2,2,0.5,0.5
2025-10-06T2000,1761A,123.8275,41.3064,本溪市,大峪,,27,27,22,11,6,19,,38,24,14,14,8,8,0.6,0.5
2025-10-06T2000,1762A,123.7567,41.3325,本溪市,溪湖,,30,29,23,21,10,17,,42,23,19,16,7,7,0.7,0.6
2025-10-06T2000,1763A,123.7169,41.3094,本溪市,彩屯,,39,39,33,25,12,15,,26,17,17,21,6,6,0.6,0.6
2025-10-06T2000,1764A,123.7669,41.2864,本溪市,东明,,33,24,28,23,10,12,,41,20,24,22,7,8,0.9,0.8
2025-10-06T2000,1765A,123.7992,41.2664,本溪市,新立屯,,26,,21,18,11,14,,38,19,16,14,7,8,0.6,0.5
2025-10-06T2000,1766A,123.8142,41.3472,本溪市,威宁,,23,18,26,16,12,18,,27,20,11,18,5,5,0.5,0.4
2025-10-06T2000,2587A,105.2864,27.3125,毕节市,八中,,49,38,23,34,18,44,,56,54,9,8,10,14,0.5,0.5
2025-10-06T2000,2588A,105.31,27.2944,毕节市,师专,,33,33,20,23,13,46,,57,55,9,9,9,9,0.5,0.5
2025-10-06T2000,4263A,105.3688,27.3598,毕节市,工业大道,细颗粒物(PM2.5),59,56,21,42,14,53,,65,63,9,7,8,8,0.7,0.6
2025-10-06T2000,1629A,118.0018,37.3617,滨州市,第二水厂,,22,22,11,6,7,52,,54,50,9,6,5,4,0.2,0.2
2025-10-06T2000,1630A,117.9776,37.393,滨州市,北中新校,,36,36,13,22,6,35,,53,48,15,9,8,6,0,0
2025-10-06T2000,3514A,117.9378,37.3956,滨州市,中海酒店,细颗粒物(PM2.5),52,41,9,36,8,31,,53,44,20,8,3,2,0.4,0.3
2025-10-06T2000,3515A,117.9378,37.3553,滨州市,开发区一中,,39,39,11,22,6,44,,60,51,16,10,5,4,0.5,0.5
2025-10-06T2000,3516A,118.0917,37.694,滨州市,金海六路,,22,22,12,9,2,51,,60,60,8,3,4,3,0.4,0.4
2025-10-06T2000,4028A,117.9956,37.3753,滨州市,滨州市西街道办事处,,17,14,5,9,7,52,,57,53,12,9,4,3,0.4,0.4
2025-10-06T2000,2311A,115.8072,33.8399,亳州市,污水处理厂,,24,24,17,13,12,32,,47,42,10,7,4,4,0.3,0.6
2025-10-06T2000,2312A,115.7789,33.8518,亳州市,三国揽胜宫,,28,19,22,19,14,32,,50,45,9,6,4,4,0.4,0.6
2025-10-06T2000,3332A,115.7633,33.8034,亳州市,亳州学院,,29,,15,20,16,34,,54,48,8,4,4,4,0.4,0.6
2025-10-06T2000,2693A,82.0485,44.8556,博尔塔拉蒙古自治州,市党校,,36,36,36,21,21,53,,55,55,11,7,7,4,0.2,0.2
2025-10-06T2000,2694A,82.0806,44.8969,博尔塔拉蒙古自治州,市环保局,,50,50,49,11,14,53,,55,55,8,8,5,5,0.2,0.2
2025-10-06T2000,1071A,116.8842,38.2991,沧州市,沧县城建局,,36,33,23,25,12,26,,56,53,42,15,6,5,0.6,0.4
2025-10-06T2000,1072A,116.8584,38.3254,沧州市,电视转播站,,33,33,26,14,11,26,,46,45,17,12,2,3,0.6,0.6
2025-10-06T2000,1073A,116.8709,38.3228,沧州市,市环保局,,,,27,,20,,,49,,,11,,3,,0.4
2025-10-06T2000,3324A,116.8136,38.3004,沧州市,河北水利电力学院,,39,39,13,17,9,39,,60,58,37,16,4,3,0.5,0.5
2025-10-06T2000,2622A,97.1806,31.1273,昌都市,昌都监测站,,18,,19,12,9,39,,57,57,21,12,6,6,0.5,0.4
2025-10-06T2000,3719A,97.1714,31.1406,昌都市,昌都会议中心,,19,10,9,8,5,60,,67,67,2,4,4,4,0.3,0.2
2025-10-06T2000,2690A,88.1236,43.8886,昌吉回族自治州,天山天池,,,,7,,7,37,,,,15,11,7,6,0.4,0.3
2025-10-06T2000,2692A,87.2717,44.0297,昌吉回族自治州,新区政务中心,,26,26,18,8,6,52,,54,54,12,6,13,7,0.7,0.4
2025-10-06T2000,3613A,87.3095,44.0142,昌吉回族自治州,亚心广场,,36,36,23,14,3,57,,58,58,11,4,14,8,0.6,0.3
2025-10-06T2000,1120A,125.2863,43.9027,长春市,客车厂,,50,50,29,17,12,27,,60,55,52,21,6,6,0.5,0.3
2025-10-06T2000,1121A,125.2841,43.8463,长春市,邮电学院,,24,24,26,15,9,38,,64,62,25,14,5,6,0.4,0.3
2025-10-06T2000,1122A,125.3716,43.8772,长春市,劳动公园,颗粒物(PM10),54,57,39,24,13,52,,70,70,26,17,8,9,0.5,0.4
2025-10-06T2000,1123A,125.3297,43.8805,长春市,园林处,,39,39,26,21,10,51,,66,66,34,23,2,3,0.5,0.3
2025-10-06T2000,1124A,125.4605,43.79,长春市,净月潭,,,30,19,13,7,47,,70,68,,9,4,5,0.3,0.2
2025-10-06T2000,1125A,125.7194,43.515,长春市,甩湾子,,26,20,23,18,13,50,,65,65,6,6,4,5,0.1,0.1
2025-10-06T2000,1126A,125.3863,43.8447,长春市,经开区环卫处,,33,33,27,13,10,30,,65,63,44,18,5,6,0.4,0.3
2025-10-06T2000,1127A,125.245,43.7783,长春市,高新区管委会,,29,29,24,18,10,33,,61,59,29,14,4,4,0.4,0.3
2025-10-06T2000,1128A,125.1761,43.8325,长春市,岱山公园,,43,43,26,23,10,43,,59,58,30,17,4,5,0.4,0.2
2025-10-06T2000,4281A,125.3346,43.9164,长春市,北亚泰大街1068号,颗粒物(PM10),51,52,31,26,14,36,,63,61,35,15,8,9,0.3,0.2
2025-10-06T2000,1335A,113.0833,28.2325,长沙市,经开区环保局,,25,25,41,16,23,45,,89,81,21,13,6,6,0.4,0.5
2025-10-06T2000,1336A,112.8872,28.2189,长沙市,高开区环保局,,28,28,44,12,21,46,,82,76,14,15,6,8,0.2,0.5
2025-10-06T2000,1337A,113.0792,28.2053,长沙市,马坡岭,,33,30,44,23,23,37,,94,84,16,16,5,6,0.4,0.5
2025-10-06T2000,1338A,112.9394,28.19,长沙市,湖南师范大学,,24,24,36,12,17,42,,82,71,8,12,5,6,0.4,0.6
2025-10-06T2000,1339A,113.0178,28.1322,长沙市,雨花区环保局,,26,23,29,18,19,56,,80,76,8,14,7,8,0.6,0.6
2025-10-06T2000,1340A,112.9792,28.2597,长沙市,伍家岭,,28,28,57,7,36,31,,84,74,28,20,4,4,0.6,0.5
2025-10-06T2000,1341A,113.0014,28.1944,长沙市,火车新站,,29,29,46,19,28,49,,79,74,12,26,8,8,0.5,0.7
2025-10-06T2000,1342A,112.9844,28.1178,长沙市,天心区环保局,,21,21,35,12,19,59,,85,80,13,20,6,6,0.3,0.5
2025-10-06T2000,1343A,112.8908,28.1308,长沙市,湖南中医药大学,,27,27,47,16,27,22,,81,68,23,20,5,6,0.7,0.9
2025-10-06T2000,1344A,112.9581,28.3611,长沙市,沙坪,,22,22,26,12,15,47,,98,87,10,8,4,5,0.5,0.5
2025-10-06T2000,1727A,113.1147,36.1547,长治市,清华站,,16,6,4,3,0,49,,56,52,12,10,8,7,0.9,0.9
2025-10-06T2000,1730A,113.0886,36.2125,长治市,审计局,,18,6,3,3,2,57,,56,56,10,10,5,5,0.5,0.7
2025-10-06T2000,1731A,113.0844,36.1856,长治市,长治八中,,33,,6,23,10,41,,54,52,13,7,7,7,0.7,0.8
2025-10-06T2000,2845A,113.1569,36.1911,长治市,德盛苑,,13,9,5,3,0,39,,51,50,16,8,8,8,0.6,0.7
2025-10-06T2000,3568A,113.06,36.0464,长治市,向阳小学,,21,21,20,3,7,39,,52,44,12,13,8,9,1.2,1.3
2025-10-06T2000,3569A,112.8792,36.3144,长治市,屯留一中,,22,,14,15,12,56,,43,43,11,16,9,11,1.3,0.9
2025-10-06T2000,4189A,113.1131,36.19948,长治市,英华南巷50号,,14,10,6,3,2,44,,50,50,17,13,8,8,0.8,0.9
2025-10-06T2000,4190A,113.2367,36.3344,长治市,学府街1号,,21,6,6,3,2,66,,61,57,9,10,6,6,0.7,0.8
2025-10-06T2000,1854A,111.6975,28.9703,常德市,市二中,,,55,74,36,55,82,,108,107,10,16,,6,0.8,0.9
2025-10-06T2000,1857A,111.7158,29.1456,常德市,白鹤山,,,,,,,,,,,,,,,,
2025-10-06T2000,3138A,111.7153,29.0289,常德市,武陵区永安,颗粒物(PM10),52,53,72,31,51,88,,105,105,8,13,4,3,0.4,0.6
2025-10-06T2000,3139A,111.6892,28.9881,常德市,鼎城区玉霞,细颗粒物(PM2.5),59,57,82,42,58,86,,110,110,8,18,6,6,0.7,0.9
2025-10-06T2000,3140A,111.6625,29.0531,常德市,武陵区长庚,,46,46,72,26,51,82,,106,106,7,8,3,3,0.6,0.8
2025-10-06T2000,1196A,119.9633,31.762,常州市,市监测站,颗粒物(PM10),68,85,51,44,37,144,,140,137,13,21,10,9,0.9,0.9
2025-10-06T2000,1200A,119.9468,31.7069,常州市,武进监测站,颗粒物(PM10),54,58,44,37,33,134,,120,115,12,17,9,10,1.0,0.8
2025-10-06T2000,1201A,119.9255,31.9087,常州市,安家,细颗粒物(PM2.5),79,75,65,58,41,111,,132,127,27,41,10,10,1.0,0.9
2025-10-06T2000,3002A,119.9805,31.8174,常州市,行政中心,细颗粒物(PM2.5),73,70,59,53,39,141,,135,134,16,24,4,4,1.0,0.9
2025-10-06T2000,3003A,120.0522,31.7748,常州市,经开区,细颗粒物(PM2.5),67,70,64,48,38,110,,133,123,19,26,10,10,1.2,1.3
2025-10-06T2000,3010A,119.9025,31.7964,常州市,钟楼,细颗粒物(PM2.5),55,45,51,39,35,136,,138,132,16,23,7,8,1.1,1
2025-10-06T2000,3429A,119.8598,31.7066,常州市,武进经发区,颗粒物(PM10),62,74,54,41,30,124,,130,122,22,28,11,12,1.2,1
2025-10-06T2000,3430A,119.5826,31.7245,常州市,金坛城区,细颗粒物(PM2.5),67,66,46,48,35,122,,133,124,16,16,12,10,1.1,0.8
2025-10-06T2000,2220A,120.4318,41.5881,朝阳市,西梁,颗粒物(PM10),61,72,13,32,6,10,,75,63,50,11,6,4,1.0,0.4
2025-10-06T2000,2221A,120.4521,41.5646,朝阳市,河畔小区,,20,17,14,14,6,49,,76,74,18,9,7,7,0.4,0.3
2025-10-06T2000,2222A,120.4176,41.5648,朝阳市,八里堡,颗粒物(PM10),58,66,18,36,6,8,,78,68,59,12,8,7,1.2,0.4
2025-10-06T2000,2223A,120.3806,41.5969,朝阳市,农业园区,,26,26,13,18,7,49,,79,72,19,8,7,5,0.5,0.3
2025-10-06T2000,1705A,116.6367,23.6719,潮州市,西园路,,30,30,15,10,9,38,,67,65,10,6,6,4,0.3,0.1
2025-10-06T2000,3026A,116.6183,23.6608,潮州市,市政府,,21,21,20,14,8,42,,77,73,8,5,10,9,0.5,0.4
2025-10-06T2000,4036A,116.6461,23.6761,潮州市,金山,,20,20,19,3,6,33,,68,64,1,2,10,5,0.7,0.5
2025-10-06T2000,2472A,113.0073,25.9061,郴州市,马头岭,,27,27,16,12,7,31,,47,40,14,8,6,6,0.2,0.2
2025-10-06T2000,2473A,113.0116,25.8226,郴州市,市职中,,14,14,12,3,8,31,,38,36,8,6,5,4,0.3,0.3
2025-10-06T2000,2475A,113.0383,25.8071,郴州市,市审计局,,18,15,11,12,7,36,,39,38,7,5,6,7,0.4,0.4
2025-10-06T2000,2476A,113.0348,25.7759,郴州市,市环保局,,17,17,13,8,6,38,,43,43,9,4,5,5,0.4,0.3
2025-10-06T2000,4252A,113.0138,25.8011,郴州市,好美居路49号,,,,11,8,5,40,,45,44,8,5,8,8,0.3,0.3
2025-10-06T2000,1431A,103.9728,30.7236,成都市,金泉两河,,20,16,22,14,7,48,,50,50,10,14,2,2,0.5,0.6
2025-10-06T2000,1432A,104.176,30.6872,成都市,十里店,,16,16,15,3,8,49,,59,57,9,10,3,3,0.7,0.7
2025-10-06T2000,1433A,104.079,30.5706,成都市,三瓦窑,,18,,13,12,7,53,,64,63,15,13,4,4,0.5,0.6
2025-10-06T2000,1434A,104.1114,30.63,成都市,沙河铺,,24,24,20,3,5,45,,52,52,19,19,3,3,0.5,0.5
2025-10-06T2000,1437A,104.0786,30.6531,成都市,君平街,,25,25,22,11,11,54,,58,58,10,14,4,4,0.5,0.6
2025-10-06T2000,1438A,103.613,31.0283,成都市,灵岩寺,,,,,,,,,,,,,,,,
2025-10-06T2000,2880A,104.0239,30.65639,成都市,大石西路,,18,18,20,10,13,50,,52,52,14,17,2,2,0.5,0.6
2025-10-06T2000,3136A,104.2725,30.5589,成都市,龙泉驿区区政府,,15,9,7,3,3,47,,56,55,12,13,5,4,0.5,0.5
2025-10-06T2000,3357A,104.0106,30.6931,成都市,金博路,,16,16,14,10,6,48,,52,52,13,16,6,6,0.5,0.6
2025-10-06T2000,3359A,104.0578,30.5225,成都市,华阳,,15,12,11,9,9,48,,61,60,17,13,4,4,0.5,0.5
2025-10-06T2000,3488A,104.3880,30.7467,成都市,青石路225号,,21,21,16,6,8,41,,52,51,11,13,3,4,0.6,0.7
2025-10-06T2000,3489A,104.0789,30.4072,成都市,科学城,,17,12,13,9,7,52,,61,61,12,12,4,4,0.5,0.6
2025-10-06T2000,4011A,103.8506,30.6947,成都市,光华大道三段,,21,21,23,8,14,44,,45,45,13,17,1,2,0.5,0.7
2025-10-06T2000,4224A,104.2433,30.5353,成都市,鲸龙路1057号,,15,10,14,8,10,46,,56,55,15,16,4,4,0.6,0.7
2025-10-06T2000,1062A,117.9531,40.9081,承德市,铁路,,27,27,20,9,6,34,,64,61,14,13,2,2,0.3,0.2
2025-10-06T2000,1063A,117.9392,40.9763,承德市,中国银行,,34,34,18,17,5,23,,67,64,20,11,2,2,0.5,0.3
2025-10-06T2000,1064A,117.9503,40.928,承德市,开发区,,27,27,25,16,10,39,,66,65,14,9,1,1,0.3,0.2
2025-10-06T2000,1066A,117.9268,41.0026,承德市,离宫,,23,18,12,16,10,36,,62,61,10,8,2,2,0.3,0.2
2025-10-06T2000,4274A,117.7994,40.9605,承德市,滨河大街98号,,16,16,18,7,6,39,,64,62,5,5,3,2,0.3,0.2
2025-10-06T2000,2314A,117.47,30.6618,池州市,池州学院,,45,40,40,31,31,60,,113,101,23,15,7,8,0.7,1
2025-10-06T2000,3237A,117.4918,30.6617,池州市,展览馆,,33,33,40,19,27,45,,109,94,14,13,6,7,0.6,0.9
2025-10-06T2000,3333A,117.5627,30.695,池州市,第八中学,,39,39,45,25,33,80,,108,100,11,9,7,8,0.7,0.9
2025-10-06T2000,3334A,117.5038,30.6243,池州市,第十二中学,,48,46,38,33,28,57,,107,95,18,19,6,6,0.8,1.1
2025-10-06T2000,1744A,118.9233,42.2816,赤峰市,松山一中,,27,27,14,8,4,19,,57,51,51,19,16,14,0.8,0.5
2025-10-06T2000,1745A,118.9576,42.2728,赤峰市,哈达街,,37,37,16,13,7,33,,59,56,36,18,27,20,0.7,0.7
2025-10-06T2000,1746A,118.8788,42.2554,赤峰市,天义路,,28,22,14,19,8,14,,53,50,52,17,8,11,0.6,0.5
2025-10-06T2000,3058A,119.2658,42.0353,赤峰市,银河街,,42,37,19,29,11,27,,61,56,32,12,11,10,0.5,0.2
2025-10-06T2000,3286A,118.9359,42.3147,赤峰市,桥北物流园区,,30,30,13,18,7,51,,64,62,17,13,14,14,0.5,0.5
2025-10-06T2000,2521A,107.3476,22.4136,崇左市,市环保局江州分局,,15,,9,3,5,46,,50,47,4,4,4,3,0.5,0.5
2025-10-06T2000,4256A,107.3750,22.3736,崇左市,石景林东路7号,,16,6,9,3,5,50,,54,50,4,4,4,4,0.4,0.4
2025-10-06T2000,2298A,118.3093,32.3153,滁州市,老年大学,细颗粒物(PM2.5),60,48,54,43,42,98,,119,112,1,6,4,5,0.5,0.5
2025-10-06T2000,2299A,118.3244,32.2786,滁州市,人大宾馆,细颗粒物(PM2.5),72,,51,52,43,108,,132,124,8,17,4,6,0.6,0.7
2025-10-06T2000,3207A,118.3118,32.3038,滁州市,市政府原办公楼,细颗粒物(PM2.5),62,54,53,44,45,96,,124,117,4,11,5,5,0.6,0.7
2025-10-06T2000,3331A,118.3267,32.2634,滁州市,图书馆,细颗粒物(PM2.5),88,75,66,65,41,100,,120,112,2,8,7,7,0.6,0.7
2025-10-06T2000,2605A,101.5482,25.0441,楚雄彝族自治州,州环境监测站,,22,22,18,11,9,58,,53,53,4,7,7,8,0.5,0.6
2025-10-06T2000,2606A,101.538,25.0492,楚雄彝族自治州,市经济开发区,,25,20,17,17,12,57,,54,54,7,9,6,5,0.7,0.7
2025-10-06T2000,2548A,107.5277,31.2827,达州市,达州职业技术学院,,46,46,36,12,7,13,,64,58,25,10,5,11,0.4,0.4
2025-10-06T2000,2549A,107.5086,31.2186,达州市,市环境监测站,,47,47,30,22,9,9,,65,60,43,23,6,10,0.8,0.6
2025-10-06T2000,2550A,107.4988,31.2132,达州市,凤凰小区,颗粒物(PM10),54,58,33,31,13,6,,68,60,49,23,6,10,1.0,0.6
2025-10-06T2000,2551A,107.5082,31.1986,达州市,达县机关宾馆,颗粒物(PM10),67,83,37,12,6,2,,58,49,52,26,7,11,1.3,0.6
2025-10-06T2000,2552A,107.4644,31.2124,达州市,市政中心,颗粒物(PM10),52,54,43,19,10,10,,61,58,46,22,6,9,0.8,0.5
2025-10-06T2000,2614A,100.1542,25.7054,大理白族自治州,大理市环境监测站,,28,,13,19,12,41,,48,48,7,6,4,5,0.7,0.7
2025-10-06T2000,2615A,100.2171,25.5811,大理白族自治州,大理古城,,20,20,17,14,10,32,,56,51,11,7,6,6,0.8,0.7
2025-10-06T2000,1109A,121.612,38.9741,大连市,甘井子,,21,21,47,3,21,35,,29,29,19,29,6,8,0.4,0.7
2025-10-06T2000,1110A,121.565,38.9511,大连市,周水子,,25,25,44,3,20,43,,32,32,11,27,7,7,0.4,0.6
2025-10-06T2000,1111A,121.5637,38.8845,大连市,星海三站,,26,26,43,3,23,46,,36,35,5,12,4,5,0.3,0.7
2025-10-06T2000,1112A,121.6302,38.9117,大连市,青泥洼桥,,15,9,51,3,23,47,,34,34,10,25,8,9,0.5,0.8
2025-10-06T2000,1113A,121.6251,38.8638,大连市,傅家庄,,18,17,41,3,21,55,,36,36,7,25,10,12,0.6,1
2025-10-06T2000,1114A,121.5213,38.8661,大连市,七贤岭,,23,23,44,6,21,46,,45,41,9,18,4,5,0.6,0.8
2025-10-06T2000,1115A,121.2529,38.8061,大连市,旅顺,,24,24,30,14,18,35,,44,41,12,18,7,8,0.5,0.7
2025-10-06T2000,1116A,121.7485,39.1311,大连市,金州,,16,8,42,3,25,50,,33,33,9,25,8,9,0.3,0.6
2025-10-06T2000,1117A,121.7811,39.0496,大连市,开发区,,21,21,41,3,19,46,,48,46,10,19,4,6,0.5,0.5
2025-10-06T2000,1118A,121.9762,39.0631,大连市,双D港,,19,14,37,3,18,59,,50,45,6,14,7,7,0.5,0.8
2025-10-06T2000,1789A,124.81117,46.03138,大庆市,大同区,,34,34,27,11,9,51,,69,64,19,16,9,9,0.6,0.6
2025-10-06T2000,1790A,125.129,46.533,大庆市,龙凤区,,43,43,28,22,14,45,,62,59,22,14,11,9,0.6,0.4
2025-10-06T2000,1791A,124.902,46.408,大庆市,红岗区,,28,28,28,18,13,49,,72,69,16,14,5,5,0.4,0.4
2025-10-06T2000,1792A,125.153,46.586,大庆市,萨尔图区,,38,38,25,7,8,59,,65,65,11,10,10,11,0.5,0.5
2025-10-06T2000,1793A,124.9042,46.6215,大庆市,让胡路区,,33,33,27,16,15,53,,67,64,18,25,6,6,0.4,0.6
2025-10-06T2000,3481A,125.141,46.634,大庆市,萨区政府监测点,,26,26,20,3,4,63,,69,69,8,6,8,8,0.5,0.5
2025-10-06T2000,1721A,113.3819,40.1097,大同市,果树场,,43,35,50,30,44,63,,89,87,14,20,6,5,0.5,0.6
2025-10-06T2000,1723A,113.2994,40.0758,大同市,云冈宾馆,细颗粒物(PM2.5),62,49,65,44,52,82,,104,103,18,19,7,6,0.9,1
2025-10-06T2000,1724A,113.3444,40.0917,大同市,大同大学,,,,56,,42,88,,108,108,17,19,9,8,,0.6
2025-10-06T2000,1725A,113.2661,40.1269,大同市,安家小村,细颗粒物(PM2.5),57,49,61,40,52,85,,112,111,20,19,7,4,0.7,0.8
2025-10-06T2000,1726A,113.2711,40.0844,大同市,教育学院,细颗粒物(PM2.5),69,61,67,50,47,83,,105,104,17,20,12,10,0.6,0.7
2025-10-06T2000,3282A,113.3397,40.0597,大同市,大同市卫生学校,细颗粒物(PM2.5),57,42,68,40,44,84,,100,100,15,19,6,5,0.9,1
2025-10-06T2000,3565A,113.1367,40.1122,大同市,云冈站,颗粒物(PM10),53,56,73,32,40,69,,110,107,16,13,6,6,0.7,0.9
2025-10-06T2000,3566A,113.1186,40.2556,大同市,图书馆,细颗粒物(PM2.5),79,62,66,58,41,82,,102,101,16,15,7,5,0.8,0.9
2025-10-06T2000,3567A,113.5931,40.0461,大同市,区一中,,42,42,65,29,44,80,,106,104,18,13,11,6,0.7,0.8
2025-10-06T2000,4199A,113.2798,40.0997,大同市,魏都大道141号,细颗粒物(PM2.5),64,49,61,46,45,84,,106,106,20,23,7,5,0.8,0.9
2025-10-06T2000,2269A,124.1069,50.4097,大兴安岭地区,科技局,,17,12,16,3,12,52,,55,55,3,5,5,5,0.3,0.2
2025-10-06T2000,3663A,124.1164,50.4278,大兴安岭地区,红旗社区,,16,6,14,3,8,49,,56,56,6,16,4,4,0.3,0.3
2025-10-06T2000,1600A,124.3303,40.0625,丹东市,江湾东路,,18,,13,12,7,28,,55,36,17,13,6,6,0.6,0.6
2025-10-06T2000,1601A,124.4256,40.1503,丹东市,临江后街,,9,9,15,3,5,27,,49,35,9,10,7,7,0.5,0.5
2025-10-06T2000,1602A,124.3933,40.1461,丹东市,元宝山,,12,10,15,8,9,24,,45,30,8,8,7,7,0.7,0.7
2025-10-06T2000,1603A,124.3633,40.1092,丹东市,民主桥,,14,14,19,9,7,22,,50,27,20,17,4,4,0.6,0.6
2025-10-06T2000,3541A,109.5726,19.5167,儋州市,第一中学子站,,13,13,9,6,4,28,,36,31,2,2,6,6,0.7,0.6
2025-10-06T2000,3542A,109.5567,19.5187,儋州市,东坡学校子站,,12,9,13,8,5,30,,42,36,4,3,5,7,0.3,0.3
2025-10-06T2000,2616A,98.5842,24.428,德宏傣族景颇族自治州,德宏州监测站,,19,19,21,10,11,34,,55,53,9,10,7,13,0.6,0.6
2025-10-06T2000,3677A,98.5881,24.4368,德宏傣族景颇族自治州,芒市人民政府综合楼,,26,26,29,8,11,32,,53,51,8,9,8,14,0.5,0.6
2025-10-06T2000,1901A,104.4239,31.1208,德阳市,东山公园,,15,,13,7,10,48,,50,50,5,10,1,2,0.6,0.7
2025-10-06T2000,1902A,104.3826,31.1317,德阳市,西小区,,22,22,21,6,13,51,,51,51,8,13,3,3,0,0.1
2025-10-06T2000,1904A,104.3553,31.1091,德阳市,耐火材料厂,,16,15,20,7,12,51,,52,52,9,16,1,1,0.7,0.9
2025-10-06T2000,3639A,104.4019,31.1244,德阳市,市教育局,,15,15,17,6,11,44,,49,49,6,10,1,1,0.7,0.8
2025-10-06T2000,1622A,116.3032,37.4674,德州市,儿童乐园,细颗粒物(PM2.5),83,97,16,61,9,38,,61,50,24,15,14,8,0.7,0.6
2025-10-06T2000,1624A,116.2991,37.4451,德州市,监理站,颗粒物(PM10),52,53,5,34,5,47,,60,51,22,17,16,12,0.6,0.6
2025-10-06T2000,3066A,116.2721,37.4379,德州市,九衢泉纯净水厂,颗粒物(PM10),52,53,8,34,8,36,,54,42,22,15,14,9,0.6,0.5
2025-10-06T2000,3371A,116.3728,37.4403,德州市,开发区人民医院,,36,36,10,22,7,32,,53,40,31,20,14,10,0.7,0.7
2025-10-06T2000,3511A,116.5652,37.3319,德州市,陵城艺术中心,细颗粒物(PM2.5),62,70,14,44,9,28,,62,35,25,17,14,9,0.6,0.8
2025-10-06T2000,4292A,116.3525,37.4209,德州市,新河东路,,36,36,10,24,9,39,,61,47,25,16,11,9,0.7,0.8
2025-10-06T2000,2621A,99.7056,27.8317,迪庆藏族自治州,迪庆州站,,18,17,20,12,14,35,,47,46,6,6,7,7,0.5,0.5
2025-10-06T2000,3180A,99.7136,27.8094,迪庆藏族自治州,质量技术监督局,,19,14,18,13,9,36,,48,46,6,8,6,7,0.6,0.6
2025-10-06T2000,4257A,104.6092,35.5962,定西市,将台街,,26,25,23,18,17,82,,93,92,10,13,7,8,0.6,0.6
2025-10-06T2000,4309A,104.6159,35.5701,定西市,正龙路62号,,31,31,28,21,22,76,,86,84,6,7,5,5,0.4,0.4
2025-10-06T2000,1389A,113.7547,23.0494,东莞市,莞城梨川,细颗粒物(PM2.5),74,,16,54,27,33,,64,59,23,8,7,6,0.5,0.5
2025-10-06T2000,1390A,113.7944,23.0128,东莞市,东城石井,,15,15,14,7,5,20,,64,56,18,8,6,6,0.3,0.3
2025-10-06T2000,1391A,113.7383,22.9658,东莞市,南城西平,,26,26,17,11,9,31,,64,59,24,10,5,4,0.4,0.4
2025-10-06T2000,3319A,113.7338,23.0381,东莞市,万江金泰,,24,24,17,14,9,31,,63,59,23,7,7,6,0.6,0.5
2025-10-06T2000,3626A,113.7533,23.0202,东莞市,南城元岭,,23,23,17,14,8,30,,66,61,26,10,6,5,0.4,0.4
2025-10-06T2000,3627A,113.7875,23.0457,东莞市,东城主山,,13,11,17,3,7,39,,67,64,22,10,3,2,0.5,0.4
2025-10-06T2000,1666A,118.6614,37.4309,东营市,市环保局,,17,17,8,9,2,51,,64,57,14,10,5,5,0.3,0.3
2025-10-06T2000,3036A,118.6904,37.4338,东营市,开发区管委会,,27,27,14,7,5,52,,65,58,12,9,6,5,0.3,0.2
2025-10-06T2000,3365A,118.5719,37.565,东营市,垦利区民丰路,,17,14,15,7,5,53,,59,56,12,9,4,5,0.4,0.5
2025-10-06T2000,3498A,118.5055,37.8612,东营市,河口城区,,34,34,19,7,2,69,,68,68,19,17,7,7,0.4,0.5
2025-10-06T2000,3646A,118.4978,37.4623,东营市,胜利站,,31,31,18,9,3,50,,63,58,25,16,8,6,0.4,0.4
2025-10-06T2000,3734A,118.35,37.26,东营市,理想之城,,17,17,10,3,5,43,,58,49,20,14,2,2,0.3,0.3
2025-10-06T2000,1591A,110.0023,39.8129,鄂尔多斯市,综合楼,颗粒物(PM10),52,53,44,22,16,101,,100,100,21,21,9,9,0.7,0.7
2025-10-06T2000,1592A,109.9486,39.8261,鄂尔多斯市,巴音孟克林场办事处,颗粒物(PM10),62,73,51,36,18,106,,103,103,23,20,7,7,0.6,0.5
2025-10-06T2000,1593A,109.7736,39.5986,鄂尔多斯市,康泽苑,颗粒物(PM10),58,66,51,31,21,101,,109,109,22,14,9,9,0.6,0.5
2025-10-06T2000,1594A,109.8119,39.5989,鄂尔多斯市,华泰汽车城,颗粒物(PM10),51,51,47,34,21,103,,105,105,20,16,6,6,0.7,0.6
2025-10-06T2000,1595A,109.9734,39.7884,鄂尔多斯市,奥林花园,颗粒物(PM10),56,61,51,19,17,82,,91,91,21,20,4,5,0.7,0.7
2025-10-06T2000,2436A,114.8938,30.3994,鄂州市,市政府,,50,42,55,35,34,30,,87,73,37,32,7,9,1.0,0.9
2025-10-06T2000,2437A,114.8989,30.3714,鄂州市,赵家坝,细颗粒物(PM2.5),52,40,57,36,29,43,,100,89,26,14,9,9,1.1,0.9
2025-10-06T2000,3654A,114.8094,30.4089,鄂州市,精准医疗中心,,32,32,56,22,35,48,,88,76,42,23,8,9,0.5,1
2025-10-06T2000,2454A,109.4978,30.2981,恩施土家族苗族自治州,湖北民院,,21,21,27,8,17,48,,70,67,8,8,7,7,0.7,0.6
2025-10-06T2000,2455A,109.4707,30.2798,恩施土家族苗族自治州,州电力总公司,,36,32,27,25,18,42,,66,63,12,12,8,7,0.4,0.5
2025-10-06T2000,3549A,109.5061,30.3772,恩施土家族苗族自治州,龙凤新区,细颗粒物(PM2.5),53,,22,37,16,24,,65,58,10,4,6,6,0.6,0.5
2025-10-06T2000,2499A,108.3411,21.6158,防城港市,沙万,,22,,18,15,35,34,,36,35,6,4,3,4,0.7,0.6
2025-10-06T2000,2500A,108.3514,21.7731,防城港市,防城档案局,,15,12,14,10,6,41,,46,45,5,6,4,4,0.5,0.6
2025-10-06T2000,2501A,108.3506,21.6414,防城港市,大海花园,,25,25,18,11,8,57,,55,54,5,5,5,5,0.6,0.6
2025-10-06T2000,1371A,113.1294,23.0067,佛山市,湾梁,,12,9,14,7,5,36,,49,48,15,20,6,6,0.3,0.3
2025-10-06T2000,1372A,113.1083,23.0478,佛山市,华材职中,,14,14,14,8,5,40,,57,55,6,8,4,5,0.6,0.6
2025-10-06T2000,1373A,113.144,23.0453,佛山市,南海气象局,,19,19,22,8,7,34,,53,51,10,12,6,6,0.5,0.5
2025-10-06T2000,1374A,113.2881,22.8094,佛山市,顺德苏岗,,21,21,19,3,2,31,,42,41,10,13,5,6,0.7,0.6
2025-10-06T2000,1376A,112.8383,22.8678,佛山市,高明孔堂,,19,19,16,3,6,39,,60,58,9,12,2,2,0.3,0.3
2025-10-06T2000,1377A,112.8836,23.1588,佛山市,三水监测站,,19,19,14,9,8,19,,46,44,22,12,6,6,0.6,0.6
2025-10-06T2000,1378A,112.867,23.185,佛山市,三水云东海,,49,36,20,34,9,15,,49,47,18,14,2,2,0.6,0.5
2025-10-06T2000,3625A,113.2544,22.7642,佛山市,容桂街道办,,12,7,10,7,8,38,,44,44,10,14,6,6,0.7,0.6
2025-10-06T2000,1280A,119.3903,26.0543,福州市,鼓山,,,,,,,,,,,,,,,,
2025-10-06T2000,1282A,119.2681,26.0504,福州市,师大,,27,24,36,12,18,84,,128,119,12,14,6,7,0.3,0.4
2025-10-06T2000,1283A,119.2984,26.1028,福州市,五四北路,,30,30,37,19,21,92,,123,117,7,12,5,5,0.3,0.4
2025-10-06T2000,1284A,119.2648,26.0768,福州市,杨桥西路,,30,27,36,18,20,95,,129,123,7,12,4,5,0.4,0.5
2025-10-06T2000,1285A,119.317,26.0746,福州市,紫阳,,27,25,41,15,23,84,,103,101,6,15,5,5,0.4,0.5
2025-10-06T2000,3048A,119.5799,26.0936,福州市,九龙,,23,16,26,8,15,71,,105,99,2,8,4,5,0.2,0.4
2025-10-06T2000,3526A,119.5189,25.9664,福州市,吴航,,25,19,29,12,16,77,,103,98,3,7,4,5,0.1,0.4
2025-10-06T2000,1755A,123.7977,41.8491,抚顺市,望花区,,34,34,24,18,14,24,,50,38,22,16,7,6,0.8,0.6
2025-10-06T2000,1756A,123.9161,41.8822,抚顺市,顺城区,,49,49,31,31,16,22,,52,43,27,14,7,9,0.7,0.5
2025-10-06T2000,1757A,124.0436,41.8611,抚顺市,东洲区,,31,31,19,10,11,33,,50,44,11,12,5,6,0.7,0.6
2025-10-06T2000,1758A,123.9247,41.8642,抚顺市,新抚区,,30,30,25,21,16,20,,48,41,19,14,7,8,0.7,0.5
2025-10-06T2000,1759A,124.0972,41.8961,抚顺市,大伙房水库,,25,17,25,17,15,30,,52,43,11,12,8,9,0.6,0.4
2025-10-06T2000,1760A,123.7086,41.8391,抚顺市,沈抚新城,细颗粒物(PM2.5),57,44,28,40,18,10,,51,43,35,14,10,8,0.7,0.4
2025-10-06T2000,2376A,116.2127,28.0814,抚州市,桐源党溪,细颗粒物(PM2.5),83,82,42,61,22,32,,60,55,9,11,12,7,0.6,0.6
2025-10-06T2000,2377A,116.3544,27.9831,抚州市,市站,,40,40,27,24,14,62,,78,77,6,6,19,6,0.4,0.4
2025-10-06T2000,2378A,116.3565,27.963,抚州市,血防站,,38,38,26,21,13,60,,75,74,8,7,37,8,0.5,0.5
2025-10-06T2000,2379A,116.3564,28.0007,抚州市,采茶剧团,,48,48,30,32,15,54,,77,75,6,6,12,8,0.7,0.6
2025-10-06T2000,2380A,116.385,27.9647,抚州市,医学分院,,45,45,31,24,14,65,,80,80,2,5,10,5,0.7,0.7
2025-10-06T2000,2207A,121.6094,41.998,阜新市,工业园区,,45,41,20,31,5,27,,78,70,42,15,11,8,0.8,0.5
2025-10-06T2000,2208A,121.6697,42.0279,阜新市,长青街,,34,34,12,8,1,34,,72,67,31,13,9,8,0.4,0.2
2025-10-06T2000,2209A,121.6673,42.0705,阜新市,农业园区,,27,14,17,3,3,58,,72,69,16,12,5,5,2.7,1.2
2025-10-06T2000,2210A,121.6717,42.0224,阜新市,东苑,颗粒物(PM10),52,54,27,22,6,31,,72,66,38,16,11,8,0.5,0.3
2025-10-06T2000,2211A,121.6506,42.0498,阜新市,玉龙新城,,42,42,25,20,7,34,,76,68,32,16,8,9,0.7,0.6
2025-10-06T2000,2301A,115.8277,32.8929,阜阳市,市监测站,,40,40,54,17,30,41,,62,62,12,23,5,4,0.5,0.7
2025-10-06T2000,2303A,115.8554,32.8605,阜阳市,开发区,,42,42,60,16,30,42,,61,61,9,18,7,7,0.5,0.6
2025-10-06T2000,2875A,115.784,32.8892,阜阳市,阜阳职业技术学院,颗粒物(PM10),52,53,60,25,27,46,,69,67,10,15,6,6,0.5,0.8
2025-10-06T2000,3468A,115.7901,32.8613,阜阳市,市规划展馆,,38,38,57,22,36,37,,64,62,10,15,4,4,0.2,0.5
2025-10-06T2000,3469A,115.836,32.9183,阜阳市,枣园社区,颗粒物(PM10),58,66,59,23,33,45,,66,66,9,19,6,6,0.4,0.7
2025-10-06T2000,2669A,102.9099,34.9841,甘南藏族自治州,州政府,,38,,15,26,16,48,,58,50,10,8,4,4,0.4,0.3
2025-10-06T2000,3380A,102.8914,34.9617,甘南藏族自治州,甘肃民族师范学院,,30,30,8,12,10,42,,54,45,14,10,4,5,0.3,0.3
2025-10-06T2000,2570A,101.9603,30.0475,甘孜藏族自治州,水桥子,,15,7,7,6,5,48,,54,54,7,15,7,7,0.5,0.5
2025-10-06T2000,3065A,101.9533,29.9972,甘孜藏族自治州,州环保局,,15,,13,8,5,45,,54,54,9,12,4,4,0.4,0.4
2025-10-06T2000,3414A,115.8347,28.932,赣江新区,桑海产业园,,27,19,28,11,13,86,,93,92,10,18,8,10,0.1,0.2
2025-10-06T2000,2362A,114.9017,25.9149,赣州市,通天岩,,32,28,20,22,7,22,,46,37,4,4,16,15,0.7,0.7
2025-10-06T2000,2363A,114.9367,25.8664,赣州市,地委,,19,19,17,11,9,39,,53,48,10,8,6,7,0.6,0.5
2025-10-06T2000,2364A,114.9461,25.8481,赣州市,气象台,,27,27,18,9,6,42,,56,51,6,8,8,7,0.4,0.4
2025-10-06T2000,2365A,114.9322,25.8333,赣州市,市图书馆,,20,20,13,11,8,40,,54,50,7,7,6,5,0.5,0.5
2025-10-06T2000,2366A,114.8905,25.8471,赣州市,华坚鞋城,,26,26,18,16,9,44,,58,55,9,8,6,5,0.5,0.5
2025-10-06T2000,3109A,115.0093,25.8613,赣州市,赣县区卫计委,,38,26,14,26,8,30,,46,42,4,4,7,7,0.4,0.4
2025-10-06T2000,2683A,106.2319,36.1417,固原市,马园,,,,,,,,,,,,,,,,
2025-10-06T2000,2684A,106.2792,36.0022,固原市,监测站,,20,10,17,3,16,62,,74,73,7,9,4,5,0.5,0.5
2025-10-06T2000,2685A,106.2375,36.0211,固原市,新区,,18,6,17,3,14,57,,69,67,9,9,6,6,0.6,0.6
2025-10-06T2000,3522A,106.2177,35.9959,固原市,原州区十五小,,19,6,28,3,16,58,,70,68,10,11,42,15,0.5,0.5
2025-10-06T2000,2543A,106.6308,30.5278,广安市,小平旧居,,,,,,,,,,,,,,,,
2025-10-06T2000,2544A,106.6303,30.4576,广安市,市委,,35,35,23,21,17,56,,64,64,8,8,9,9,0.7,0.7
2025-10-06T2000,2545A,106.6271,30.4663,广安市,友谊中学,,,,26,,15,60,,69,69,10,10,8,8,1.0,1
2025-10-06T2000,2547A,106.6388,30.4551,广安市,广电花园,,30,28,21,21,15,55,,59,59,9,10,7,7,0.6,0.6
2025-10-06T2000,2902A,106.6351,30.4865,广安市,北辰小学,,35,25,19,24,15,60,,71,71,8,7,9,8,0.9,0.9
2025-10-06T2000,2523A,105.8945,32.4535,广元市,黑石坡,,8,8,6,3,7,19,,52,26,2,2,8,9,0.4,0.4
2025-10-06T2000,2524A,105.821,32.4444,广元市,老城,,15,15,12,8,3,48,,64,60,14,9,5,5,0.7,0.6
2025-10-06T2000,2526A,105.8628,32.4287,广元市,监测站,,16,10,12,6,7,50,,58,54,8,8,5,5,0.7,0.7
2025-10-06T2000,3617A,105.8047,32.4166,广元市,经开区,,14,10,5,3,2,42,,58,52,12,8,2,2,0.6,0.6
2025-10-06T2000,1345A,113.2347,23.1423,广州市,广雅中学,,19,19,19,10,8,46,,66,64,11,15,4,5,0.5,0.4
2025-10-06T2000,1346A,113.2612,23.105,广州市,市五中,,19,19,19,10,9,44,,68,66,13,14,5,6,0.3,0.3
2025-10-06T2000,1348A,113.3478,23.0916,广州市,广东商学院,,40,,21,28,13,43,,68,66,17,17,3,5,0.3,0.3
2025-10-06T2000,1349A,113.4332,23.1047,广州市,市八十六中,,16,16,16,8,8,43,,80,78,26,19,5,6,0.4,0.4
2025-10-06T2000,1350A,113.3505,22.9483,广州市,番禺中学,,17,17,17,10,8,47,,58,58,8,9,6,6,0.6,0.6
2025-10-06T2000,1351A,113.2146,23.3916,广州市,花都师范,,26,26,22,14,9,65,,87,87,16,15,5,5,0.5,0.5
2025-10-06T2000,1352A,113.2597,23.1331,广州市,市监测站,,23,23,19,10,8,48,,66,65,11,12,6,7,0.5,0.5
2025-10-06T2000,1353A,113.5618,23.312,广州市,九龙镇镇龙,,41,41,21,27,11,40,,65,62,19,10,5,5,0.4,0.3
2025-10-06T2000,1354A,113.2765,23.1544,广州市,麓湖,,17,17,17,10,7,50,,68,67,9,13,4,5,0.4,0.4
2025-10-06T2000,1355A,113.443,23.3035,广州市,帽峰山森林公园,,20,18,12,3,5,61,,72,71,22,10,10,7,0.5,0.4
2025-10-06T2000,2846A,113.3221,23.1322,广州市,体育西,,19,18,20,13,9,53,,73,72,14,15,4,5,0.4,0.4
2025-10-06T2000,3298A,113.5717,23.5491,广州市,从化街口,,30,30,16,19,9,34,,57,55,12,7,6,6,0.6,0.4
2025-10-06T2000,3299A,113.3472,23.3692,广州市,白云竹料,,36,36,20,18,8,60,,81,80,20,11,6,5,0.5,0.4
2025-10-06T2000,3300A,113.2981,23.237,广州市,白云嘉禾,,38,38,18,21,10,48,,77,75,21,12,4,5,0.4,0.3
2025-10-06T2000,3301A,113.4256,23.1716,广州市,黄埔科学城,,21,21,19,11,10,52,,88,86,15,11,3,4,0.8,0.7
2025-10-06T2000,3302A,113.3942,23.0483,广州市,番禺大学城,,15,11,21,10,8,46,,68,66,12,15,6,7,0.5,0.4
2025-10-06T2000,3303A,113.4922,22.8168,广州市,南沙黄阁,,16,12,16,7,7,49,,60,60,11,11,6,6,0.6,0.6
2025-10-06T2000,3304A,113.5342,22.7896,广州市,南沙街,,17,17,15,8,6,42,,55,55,11,10,4,5,0.3,0.4
2025-10-06T2000,3443A,113.2902,23.5544,广州市,花都梯面,,18,18,16,11,8,32,,69,65,11,8,5,5,0.5,0.4
2025-10-06T2000,3445A,113.7858,23.7478,广州市,从化良口,,18,16,11,12,7,34,,47,45,7,6,6,5,0.4,0.4
2025-10-06T2000,3446A,113.8051,23.2614,广州市,增城荔城,,25,25,17,13,9,32,,69,64,10,6,6,6,0.5,0.4
2025-10-06T2000,2505A,109.568,23.1478,贵港市,德智高中,,,,,,,,,,,,,,,,
2025-10-06T2000,2506A,109.6047,23.0666,贵港市,江南子站,,22,22,15,11,10,36,,38,37,7,6,7,6,0.7,0.7
2025-10-06T2000,2508A,109.5669,23.1065,贵港市,荷城子站,,13,12,11,9,4,33,,36,35,10,8,5,4,0.7,0.5
2025-10-06T2000,3405A,109.5886,23.1172,贵港市,新世纪学校,,15,12,14,10,8,39,,42,41,5,6,2,3,0.6,0.5
2025-10-06T2000,4260A,109.5933,23.0951,贵港市,中山路155-3号,,20,20,20,14,8,39,,42,42,8,6,5,4,0.7,0.6
2025-10-06T2000,1439A,106.6899,26.5998,贵阳市,马鞍山,,18,12,12,12,12,43,,47,47,8,7,3,3,0.2,0.4
2025-10-06T2000,1441A,106.6243,26.6266,贵阳市,鉴湖路,,19,19,22,7,8,48,,56,55,8,7,4,5,0.3,0.3
2025-10-06T2000,1442A,106.7487,26.6343,贵阳市,燕子冲,,28,,14,19,15,48,,54,54,9,12,3,3,0.3,0.4
2025-10-06T2000,1443A,106.6555,26.4365,贵阳市,碧云窝,,27,27,29,7,10,50,,54,54,6,6,3,4,0.2,0.2
2025-10-06T2000,1445A,106.7109,26.6027,贵阳市,红边门,,25,17,20,17,14,42,,51,49,9,12,3,2,0.2,0.2
2025-10-06T2000,1446A,106.7164,26.5699,贵阳市,新华路,,22,22,19,3,7,50,,56,55,11,16,3,3,0.1,0.3
2025-10-06T2000,1447A,106.674,26.5424,贵阳市,太慈桥,,17,14,16,7,8,54,,55,55,13,16,2,2,0,0
2025-10-06T2000,1552A,106.805,26.3003,贵阳市,桐木岭,,34,34,27,19,14,52,,56,56,7,6,3,3,1.4,1.3
2025-10-06T2000,4230A,106.6882,26.5695,贵阳市,花果园大街66号,,17,9,14,8,10,52,,54,54,8,13,3,2,0.6,0.6
2025-10-06T2000,4231A,106.6873,26.5169,贵阳市,漓江路57号,,22,22,21,12,14,50,,55,55,9,14,5,6,0.6,0.6
2025-10-06T2000,1862A,110.4144,25.3167,桂林市,电子科大尧山校区,,,,,,,,,,,,,,,,
2025-10-06T2000,1864A,110.3089,25.2708,桂林市,龙隐路小学,,19,19,19,8,10,50,,56,56,8,10,6,8,0.3,0.3
2025-10-06T2000,1865A,110.2869,25.2178,桂林市,八中,,18,17,21,12,10,50,,61,60,9,10,10,12,0.4,0.4
2025-10-06T2000,3531A,110.296,25.1253,桂林市,旅游学院,,16,,10,7,7,50,,56,56,3,7,5,7,0.3,0.4
2025-10-06T2000,4222A,110.1835,25.2444,桂林市,环湖路276号,,17,17,23,7,14,50,,55,54,7,13,6,16,0.3,0.4
2025-10-06T2000,4301A,110.2803,25.2773,桂林市,信义路13号,,17,17,24,6,11,48,,58,57,12,12,7,14,0.3,0.4
2025-10-06T2000,2674A,100.2561,34.4714,果洛藏族自治州,玛沁县大武镇,,30,26,17,21,11,66,,81,79,4,2,6,9,0.5,0.5
2025-10-06T2000,1129A,126.5422,45.755,哈尔滨市,岭北,,29,27,23,17,9,58,,79,76,25,22,2,6,2.9,2.4
2025-10-06T2000,1130A,126.561,45.8167,哈尔滨市,松北商大,,38,38,30,10,9,36,,64,60,22,24,6,6,0.4,0.4
2025-10-06T2000,1131A,126.979,45.5419,哈尔滨市,阿城会宁,颗粒物(PM10),55,60,51,24,19,34,,61,56,25,27,6,7,0.5,0.5
2025-10-06T2000,1132A,126.599,45.7222,哈尔滨市,南岗学府路,,44,44,34,15,8,39,,62,59,29,26,9,10,0.4,0.6
2025-10-06T2000,1133A,126.689,45.7733,哈尔滨市,太平宏伟公园,,41,41,34,22,15,32,,60,54,28,22,10,9,0.6,0.5
2025-10-06T2000,1134A,126.635,45.7667,哈尔滨市,道外承德广场,,48,48,37,19,13,42,,61,57,24,24,8,8,0.6,0.5
2025-10-06T2000,1135A,126.685,45.7319,哈尔滨市,香坊红旗大街,颗粒物(PM10),63,75,39,39,11,25,,62,56,42,26,10,10,0.6,0.5
2025-10-06T2000,1136A,126.6411,45.7258,哈尔滨市,动力和平路,细颗粒物(PM2.5),52,40,26,36,14,32,,63,58,33,19,9,8,0.5,0.5
2025-10-06T2000,1137A,126.593,45.7478,哈尔滨市,道里建国路,,45,45,25,19,11,32,,64,58,38,21,6,5,2.1,0.7
2025-10-06T2000,1138A,126.615,45.61,哈尔滨市,平房东轻厂,,31,31,34,18,12,52,,60,56,16,37,9,10,0.5,0.6
2025-10-06T2000,1139A,126.595,45.9855,哈尔滨市,呼兰师专,,38,38,38,17,19,46,,57,56,16,24,4,4,0.3,0.3
2025-10-06T2000,1140A,126.6206,45.6842,哈尔滨市,省农科院,颗粒物(PM10),51,51,36,26,10,12,,59,49,50,28,8,8,0.6,0.5
2025-10-06T2000,2688A,93.5128,42.8172,哈密市,地区监测站,颗粒物(PM10),70,90,50,18,15,54,,85,84,36,19,8,8,0.2,0.4
2025-10-06T2000,2689A,93.4961,42.8328,哈密市,哈密师范学校,颗粒物(PM10),72,94,44,17,15,49,,84,82,26,20,5,8,0.5,0.6
2025-10-06T2000,2671A,100.9048,36.9639,海北藏族自治州,海晏县西海镇,,27,22,27,15,24,84,,89,89,4,8,18,18,0.6,0.6
2025-10-06T2000,3867A,102.0738,36.5056,海东市,平安区公安北苑,,39,39,41,20,27,83,,80,80,5,10,12,13,0.7,0.6
2025-10-06T2000,1409A,110.576,19.9507,海口市,东寨港,,,20,17,11,15,,,,,,,,,,
2025-10-06T2000,1410A,110.3232,20.0574,海口市,海南大学,,34,34,15,12,8,48,,52,51,5,6,4,4,0.3,0.2
2025-10-06T2000,1411A,110.283,20.0053,海口市,秀英海南医院,,22,22,13,11,7,45,,48,47,5,5,6,6,0.3,0.2
2025-10-06T2000,1412A,110.338,19.9969,海口市,海南师范大学,,26,26,16,13,9,48,,51,50,6,4,5,5,0.3,0.4
2025-10-06T2000,1413A,110.33,20.0356,海口市,龙华路环保局宿舍,,24,24,15,14,8,46,,50,48,7,5,6,6,0.1,0.1
2025-10-06T2000,3539A,110.5111,19.9736,海口市,桂林洋子站,,26,26,20,10,12,38,,44,42,4,3,5,5,0.6,0.3
2025-10-06T2000,2673A,100.6188,36.2866,海南藏族自治州,共和县恰卜恰镇,,29,29,22,9,9,72,,80,79,3,3,16,12,0.6,0.6
2025-10-06T2000,2676A,97.3731,37.3753,海西蒙古族藏族自治州,德令哈市,,48,48,41,23,19,82,,98,98,23,6,19,19,0.4,0.4
2025-10-06T2000,1048A,114.5302,36.6116,邯郸市,东污水处理厂,,35,,6,24,13,42,,58,57,20,11,6,6,0.6,0.4
2025-10-06T2000,1049A,114.4918,36.5713,邯郸市,矿院,,42,,9,29,14,40,,65,62,21,9,3,2,0.4,0.4
2025-10-06T2000,1050A,114.484,36.6133,邯郸市,丛台公园,,25,,7,17,7,50,,65,63,24,15,7,8,0.4,0.4
2025-10-06T2000,3458A,114.7895,36.5593,邯郸市,香泉濮院小区,,35,,11,24,9,42,,58,57,12,8,3,3,0.4,0.4
2025-10-06T2000,3579A,114.50634,36.77178,邯郸市,永年区实验高中,,38,32,15,26,12,34,,55,51,22,10,4,3,0.9,0.6
2025-10-06T2000,3580A,114.20016,36.44293,邯郸市,峰峰矿区临水派出所,,32,23,13,22,5,64,,65,60,15,10,3,2,0.7,0.5
2025-10-06T2000,2634A,106.9893,33.1842,汉中市,汉川机床厂子校,,18,18,11,12,6,49,,62,60,13,9,4,5,1.0,0.8
2025-10-06T2000,2635A,107.0154,33.0706,汉中市,市监测站,,14,9,6,6,4,44,,49,49,10,8,4,4,0.6,0.6
2025-10-06T2000,2636A,107.0089,33.1138,汉中市,鑫源开发区,,18,15,8,12,4,51,,58,58,14,12,4,4,1.1,0.8
2025-10-06T2000,2637A,107.007,33.0323,汉中市,南郑大河坎水厂,,13,9,7,9,5,40,,50,47,10,9,2,2,0.6,0.6
2025-10-06T2000,1223A,120.2072,30.2111,杭州市,滨江,,39,39,50,24,31,99,,139,127,19,29,8,8,0.5,0.6
2025-10-06T2000,1224A,120.0633,30.2747,杭州市,西溪,,38,27,37,26,33,60,,134,96,16,24,6,6,0.4,0.5
2025-10-06T2000,1226A,120.3417,30.3150,杭州市,下沙,,40,40,40,23,24,91,,148,131,22,27,8,9,0.3,0.4
2025-10-06T2000,1227A,120.1269,30.2456,杭州市,卧龙桥,,45,35,43,31,35,26,,129,88,26,15,8,8,0.6,0.6
2025-10-06T2000,1228A,120.1903,30.2692,杭州市,浙江农大,,50,50,55,28,32,90,,111,102,16,28,6,6,0.6,0.6
2025-10-06T2000,1230A,120.1197,30.3119,杭州市,和睦小学,,36,32,41,25,29,100,,124,114,11,19,6,6,0.7,0.8
2025-10-06T2000,1231A,120.3019,30.4183,杭州市,临平镇,颗粒物(PM10),51,51,49,22,25,96,,144,129,18,23,7,6,0.6,0.6
2025-10-06T2000,1232A,120.2753,30.1839,杭州市,城厢镇,,43,34,44,30,31,88,,130,122,18,26,5,5,0.4,0.5
2025-10-06T2000,1233A,120.0883,30.1808,杭州市,云栖,,36,32,42,25,33,56,,146,104,23,23,6,6,0.5,0.7
2025-10-06T2000,3557A,119.9464,30.0494,杭州市,镇二中,颗粒物(PM10),74,98,41,51,33,59,,128,113,27,20,6,6,0.7,0.6
2025-10-06T2000,3558A,119.7183,30.2367,杭州市,市府大楼,颗粒物(PM10),53,56,35,36,26,27,,106,84,16,14,8,8,0.4,0.3
2025-10-06T2000,3656A,120.1556,30.2864,杭州市,消防大队,,38,38,45,24,30,102,,128,121,16,23,8,8,0.9,0.9
2025-10-06T2000,1270A,117.1959,31.7848,合肥市,明珠广场,细颗粒物(PM2.5),70,53,50,51,39,102,,113,112,11,23,7,7,0.9,0.9
2025-10-06T2000,1271A,117.3072,31.8764,合肥市,三里街,细颗粒物(PM2.5),67,73,60,48,41,99,,115,113,10,29,4,4,1.0,1
2025-10-06T2000,1272A,117.2588,31.8707,合肥市,琥珀山庄,细颗粒物(PM2.5),72,70,58,52,44,108,,121,120,9,18,8,8,0.8,0.9
2025-10-06T2000,1273A,117.1604,31.9052,合肥市,董铺水库,细颗粒物(PM2.5),67,61,55,48,38,74,,86,86,5,17,5,5,0.6,0.6
2025-10-06T2000,1274A,117.25,31.8571,合肥市,长江中路,颗粒物(PM10),70,90,60,45,39,107,,118,118,8,15,8,7,0.9,0.9
2025-10-06T2000,1275A,117.266,31.9436,合肥市,庐阳区,颗粒物(PM10),60,70,66,39,38,107,,122,120,12,31,7,8,0.9,1
2025-10-06T2000,1276A,117.3453,31.8616,合肥市,瑶海区,细颗粒物(PM2.5),64,75,58,46,38,108,,117,114,12,30,7,8,0.8,0.8
2025-10-06T2000,1277A,117.3027,31.7964,合肥市,包河区,细颗粒物(PM2.5),73,75,55,53,40,104,,111,109,17,38,9,9,1.0,1
2025-10-06T2000,1278A,117.2776,31.7385,合肥市,滨湖新区,细颗粒物(PM2.5),67,75,50,48,39,116,,107,107,8,14,6,6,0.9,0.9
2025-10-06T2000,1279A,117.1318,31.8403,合肥市,高新区,细颗粒物(PM2.5),58,53,54,41,39,102,,116,116,8,19,5,6,0.9,0.9
2025-10-06T2000,3464A,117.3803,31.9147,合肥市,高教基地,细颗粒物(PM2.5),90,80,54,67,37,102,,124,118,15,18,6,6,0.8,0.7
2025-10-06T2000,3614A,79.924,37.0877,和田地区,地区环保局,颗粒物(PM10),142,234,298,73,99,74,,88,87,14,9,3,3,0.4,0.2
2025-10-06T2000,3615A,79.9131,37.113,和田地区,市环保局,颗粒物(PM10),138,226,292,60,97,66,,87,86,26,17,2,3,0.7,0.6
2025-10-06T2000,2516A,108.2011,24.715,河池市,东仁乐园,,,,,,,,,,,,,,,,
2025-10-06T2000,2517A,108.0497,24.6947,河池市,市环保站,,10,9,12,7,7,32,,45,44,9,9,6,6,0.6,0.6
2025-10-06T2000,2518A,108.0983,24.6989,河池市,市疾控中心,,13,8,14,7,7,40,,50,49,12,13,7,8,0.6,0.6
2025-10-06T2000,1696A,114.6778,23.7569,河源市,源西,,29,,14,20,8,21,,50,44,20,9,4,4,0.8,0.7
2025-10-06T2000,1697A,114.6944,23.7586,河源市,东埔,,16,16,14,9,10,34,,44,41,10,7,4,5,0.5,0.5
2025-10-06T2000,1698A,114.6892,23.7233,河源市,老城,,12,12,16,7,10,34,,51,46,5,6,5,7,0.4,0.4
2025-10-06T2000,1718A,115.4208,35.2464,菏泽市,气象局,,16,11,11,11,9,49,,50,49,13,11,2,2,0.5,0.4
2025-10-06T2000,3374A,115.5564,35.0891,菏泽市,定陶老年大学,,13,12,6,7,3,40,,44,41,4,3,4,4,0.1,0.2
2025-10-06T2000,4184A,115.4797,35.24401,菏泽市,永昌路1号,,19,,8,13,9,44,,50,46,9,7,6,7,0.3,0.3
2025-10-06T2000,4193A,115.4715,35.2800,菏泽市,长城路999号,,13,8,9,3,4,41,,44,42,19,16,8,8,0.4,0.3
2025-10-06T2000,2514A,111.5264,24.4172,贺州市,环保小区,,20,20,15,7,10,55,,61,61,6,7,14,14,0.6,0.6
2025-10-06T2000,2515A,111.5608,24.4078,贺州市,政协大楼,,15,15,12,7,8,46,,55,55,7,7,14,12,0.6,0.5
2025-10-06T2000,3534A,111.4744,24.4553,贺州市,西湾,,18,,21,12,9,50,,62,62,9,9,8,9,0.6,0.4
2025-10-06T2000,2385A,114.17,35.9019,鹤壁市,市监测站,,36,25,15,25,12,55,,55,55,12,11,5,5,0.6,0.8
2025-10-06T2000,2386A,114.2956,35.7511,鹤壁市,市交警支队,,39,,25,27,13,53,,46,46,16,15,10,4,0.8,0.8
2025-10-06T2000,2387A,114.2878,35.7306,鹤壁市,迎宾馆,,31,31,16,21,12,56,,51,51,19,16,3,4,0.8,0.9
2025-10-06T2000,3474A,114.2617,35.6822,鹤壁市,大新区,,29,20,13,20,5,49,,51,51,17,10,4,5,0.8,0.8
2025-10-06T2000,3596A,114.1572,35.9603,鹤壁市,南山宾馆,,32,,12,22,15,50,,52,52,15,11,2,2,0.3,0.5
2025-10-06T2000,2244A,130.2537,47.3416,鹤岗市,哈啤分公司,,28,25,22,19,11,51,,76,68,16,6,11,10,0.6,0.4
2025-10-06T2000,2245A,130.2684,47.3086,鹤岗市,斯达机电,,32,32,18,14,11,73,,77,74,12,6,14,12,0.4,0.3
2025-10-06T2000,2246A,130.3114,47.3388,鹤岗市,东山纸板厂,,42,42,44,25,16,41,,79,64,18,10,13,12,0.3,0.4
2025-10-06T2000,2247A,130.1097,47.3382,鹤岗市,五号水库,,24,24,16,6,6,31,,58,49,12,8,6,5,0.3,0.3
2025-10-06T2000,2263A,127.4833,50.2524,黑河市,交通局,,33,33,20,16,14,52,,59,59,11,12,4,5,0.3,0.3
2025-10-06T2000,2264A,127.5144,50.2341,黑河市,环保局,,28,,18,19,13,58,,55,55,9,11,5,7,0.3,0.4
2025-10-06T2000,2265A,127.5291,50.2472,黑河市,大黑河岛,,,26,17,3,6,52,,50,50,6,7,9,9,,
2025-10-06T2000,1074A,115.6838,37.7541,衡水市,电机北厂,,45,38,15,31,15,58,,56,56,14,11,5,5,0.4,0.4
2025-10-06T2000,1075A,115.6303,37.7316,衡水市,市监测站,,42,42,20,20,9,39,,54,52,18,11,4,4,0.4,0.3
2025-10-06T2000,3188A,115.6683,37.7217,衡水市,市城管局,,29,22,18,20,15,34,,55,53,21,12,7,6,0.6,0.5
2025-10-06T2000,3459A,115.5989,37.5491,衡水市,地表水厂,,43,43,17,19,7,8,,52,38,36,12,4,3,0.5,0.4
2025-10-06T2000,2456A,112.5003,26.9167,衡阳市,原169医院,细颗粒物(PM2.5),54,42,21,38,11,48,,69,66,23,10,9,10,0.7,0.5
2025-10-06T2000,2457A,112.6194,26.9258,衡阳市,衡阳化工总厂,,39,,27,27,11,48,,60,58,8,10,7,7,0.7,0.7
2025-10-06T2000,2458A,112.6211,26.8956,衡阳市,珠晖区环保局,,30,30,22,13,14,41,,61,58,18,11,8,9,1.0,0.9
2025-10-06T2000,2459A,112.6197,26.8733,衡阳市,市委党校,,27,27,22,16,12,51,,60,59,8,8,8,8,0.5,0.4
2025-10-06T2000,2460A,112.6006,26.8919,衡阳市,市监测站,,45,39,21,31,13,38,,60,56,17,8,5,5,0.9,0.7
2025-10-06T2000,2461A,112.5664,26.9056,衡阳市,真空机电公司,,50,,31,35,8,31,,60,56,25,10,5,9,1.3,1.2
2025-10-06T2000,3399A,112.6703,26.882,衡阳市,师范学院,,33,33,24,23,12,39,,59,56,12,7,8,7,1.0,0.8
2025-10-06T2000,2608A,103.3772,23.3993,红河哈尼族彝族自治州,污水处理厂,,26,25,27,18,18,39,,56,53,7,10,36,37,0.3,0.4
2025-10-06T2000,2609A,103.3861,23.35,红河哈尼族彝族自治州,监测站,,22,19,28,15,17,43,,57,56,6,6,14,39,0.5,0.5
2025-10-06T2000,3038A,103.3758,23.368,红河哈尼族彝族自治州,州图书馆,,33,,24,23,29,41,,56,54,6,7,11,29,0.3,0.3
2025-10-06T2000,1090A,111.6507,40.7517,呼和浩特市,呼市一监,颗粒物(PM10),80,110,46,37,21,77,,98,98,15,10,19,8,0.3,0.3
2025-10-06T2000,1091A,111.6572,40.8033,呼和浩特市,小召,颗粒物(PM10),113,175,53,76,36,73,,96,96,26,17,20,7,0.5,0.5
2025-10-06T2000,1094A,111.7516,40.8369,呼和浩特市,如意水处理厂,颗粒物(PM10),59,68,49,27,20,86,,101,101,16,15,14,8,0.5,0.4
2025-10-06T2000,1095A,111.7276,40.8062,呼和浩特市,二十九中,颗粒物(PM10),59,68,115,37,24,89,,106,106,18,14,18,8,0.5,0.5
2025-10-06T2000,1096A,111.5512,40.7866,呼和浩特市,工大金川校区,细颗粒物(PM2.5),84,113,54,62,23,73,,93,93,27,20,46,8,0.2,0.2
2025-10-06T2000,1097A,111.717,40.7612,呼和浩特市,化肥厂生活区,颗粒物(PM10),80,109,51,50,23,78,,104,103,26,18,23,7,0.4,0.4
2025-10-06T2000,3698A,111.5968,40.8178,呼和浩特市,红旗小学,颗粒物(PM10),98,146,48,43,21,63,,94,93,40,22,19,8,0.4,0.4
2025-10-06T2000,3699A,111.6518,40.8389,呼和浩特市,海东办,颗粒物(PM10),103,156,56,49,21,72,,106,105,29,17,18,6,0.6,0.4
2025-10-06T2000,2192A,119.7594,49.2261,呼伦贝尔市,区环保局,,35,35,33,17,16,69,,68,68,6,18,4,5,0.3,0.2
2025-10-06T2000,3061A,119.7512,49.1577,呼伦贝尔市,国华电力东,,25,25,26,11,11,64,,74,74,7,15,6,6,0.4,0.4
2025-10-06T2000,1250A,120.0751,30.8669,湖州市,城西水厂,,36,34,48,25,32,88,,121,113,55,33,8,8,0.2,0.2
2025-10-06T2000,2873A,120.0830,30.8929,湖州市,仁皇山新区,,38,32,45,26,34,107,,129,119,10,17,5,5,0.4,0.4
2025-10-06T2000,2907A,120.1844,30.8596,湖州市,吴兴区站,,36,32,42,20,29,115,,128,121,5,14,6,6,0.5,0.5
2025-10-06T2000,3562A,120.4148,30.8538,湖州市,南浔区站,,42,33,33,29,26,107,,140,129,9,15,8,9,0.5,0.5
2025-10-06T2000,1607A,120.9049,40.7211,葫芦岛市,龙港区,细颗粒物(PM2.5),83,63,27,61,11,18,,66,61,48,20,11,13,0.7,0.4
2025-10-06T2000,1608A,120.8392,40.7514,葫芦岛市,化工街,颗粒物(PM10),59,68,23,24,5,14,,63,58,63,17,9,9,0.5,0.2
2025-10-06T2000,1609A,120.8341,40.7073,葫芦岛市,新区,颗粒物(PM10),52,53,24,32,8,36,,65,62,43,17,9,10,0.8,0.5
2025-10-06T2000,1610A,120.8695,40.7677,葫芦岛市,东城区,,36,36,24,23,9,37,,66,64,49,18,11,10,0.6,0.5
2025-10-06T2000,2482A,109.5981,27.5721,怀化市,林科所,,20,17,21,14,12,48,,72,65,7,6,5,4,0.5,0.6
2025-10-06T2000,2483A,109.9453,27.5444,怀化市,河西地税局,,36,36,26,21,19,19,,60,51,16,8,5,4,0.4,0.4
2025-10-06T2000,2484A,109.9781,27.5342,怀化市,市四医院,,19,18,35,3,25,59,,76,72,5,10,6,7,0.1,0.4
2025-10-06T2000,2485A,109.9972,27.5578,怀化市,监测楼,,32,,32,22,22,56,,74,69,4,7,4,4,0,0.1
2025-10-06T2000,2486A,110.0394,27.583,怀化市,市委党校,,22,22,26,14,18,51,,60,58,7,8,7,9,0.2,0.2
2025-10-06T2000,1210A,119.036,33.5981,淮安市,钵池山,细颗粒物(PM2.5),54,46,60,38,48,68,,100,89,17,28,8,7,1.1,1
2025-10-06T2000,1211A,119.007,33.575,淮安市,北京南路,,48,48,61,32,45,70,,95,87,8,27,9,7,1.0,1.2
2025-10-06T2000,1212A,118.989,33.6067,淮安市,市监测站,,,,65,,55,77,,106,96,,29,6,6,0.9,1.2
2025-10-06T2000,1213A,119.135,33.5039,淮安市,楚州区监测站,颗粒物(PM10),58,66,64,39,35,71,,103,94,13,18,8,8,0.9,0.9
2025-10-06T2000,3426A,118.8755,33.2894,淮安市,新华书店,,45,45,51,31,34,69,,108,98,12,18,11,8,0.7,0.9
2025-10-06T2000,4206A,119.0288,33.6319,淮安市,承德北路606号,颗粒物(PM10),57,63,76,36,42,61,,90,80,13,24,10,7,0.6,0.8
2025-10-06T2000,2282A,116.8004,33.975,淮北市,监测站,,33,28,32,23,22,32,,67,60,13,13,7,8,0.6,0.8
2025-10-06T2000,2283A,116.8091,33.9007,淮北市,烈山区政府,,26,19,33,18,18,34,,76,68,11,10,7,8,0.4,0.6
2025-10-06T2000,3330A,116.8873,33.9836,淮北市,杜集区检察院,,49,43,42,34,33,31,,73,66,6,6,9,10,0.3,0.6
2025-10-06T2000,4017A,116.7923,33.9535,淮北市,市博物馆,,35,32,36,24,21,33,,70,63,12,12,8,9,0.5,0.7
2025-10-06T2000,2277A,116.8305,32.7727,淮南市,潘集区政府,,45,43,68,31,40,63,,87,85,8,11,7,6,0.6,0.7
2025-10-06T2000,2279A,116.8569,32.5951,淮南市,谢家集区政府,,33,33,71,16,39,61,,106,96,15,14,15,12,0.6,0.7
2025-10-06T2000,2280A,116.8281,32.633,淮南市,八公山区政府,,46,46,68,23,42,63,,99,92,11,13,10,9,0.8,0.8
2025-10-06T2000,2281A,116.6325,32.6201,淮南市,焦岗湖风景区管理处,,,,,,,,,,,,,,,,
2025-10-06T2000,2894A,117.0566,32.6531,淮南市,经济技术开发区消防队,,40,40,54,16,32,67,,91,88,6,12,8,9,0.5,0.6
2025-10-06T2000,3329A,117.0108,32.5893,淮南市,山南新区,,33,30,60,23,39,78,,104,100,9,11,5,6,0.5,0.6
2025-10-06T2000,4209A,117.0031,32.6445,淮南市,国庆中路369号,,45,45,75,14,44,69,,97,94,7,13,6,7,0.6,0.7
2025-10-06T2000,2446A,114.9028,30.4742,黄冈市,职工中心,,40,40,59,25,36,84,,108,100,13,16,7,8,0.5,0.6
2025-10-06T2000,2929A,114.8858,30.4519,黄冈市,红卫路,,38,36,48,26,34,88,,102,93,15,15,6,6,0.5,0.6
2025-10-06T2000,3398A,114.9136,30.4445,黄冈市,市林业局,,28,28,51,14,34,87,,112,106,15,17,4,7,0.7,0.6
2025-10-06T2000,2672A,102.0199,35.5102,黄南藏族自治州,同仁县隆务镇,,28,28,30,17,15,72,,80,79,6,6,10,10,0.4,0.3
2025-10-06T2000,2295A,118.2903,29.6963,黄山市,延安路89号,,36,36,34,15,15,41,,82,70,6,6,5,5,0.6,0.6
2025-10-06T2000,2297A,118.1371,30.2756,黄山市,黄山区政府5号楼,,43,42,29,30,22,20,,61,52,6,4,5,5,0.3,0.2
2025-10-06T2000,4210A,118.3354,29.7203,黄山市,滨江东路7-2号,,33,30,31,23,13,37,,81,68,8,7,3,3,0.5,0.4
2025-10-06T2000,2423A,115.0601,30.2313,黄石市,沈家营,,44,44,73,27,31,68,,136,126,22,16,8,10,0.6,0.7
2025-10-06T2000,2426A,114.8988,30.2019,黄石市,铁山,,,36,52,13,23,76,,107,103,,13,7,7,1.0,0.7
2025-10-06T2000,2427A,115.0307,30.2092,黄石市,团城山,,45,45,62,24,28,103,,128,126,10,11,9,9,0.8,1
2025-10-06T2000,3149A,115.0235,30.1578,黄石市,笔架山北路,,35,35,49,22,27,109,,118,118,3,6,8,8,0.3,0.4
2025-10-06T2000,4185A,115.0780,30.21118,黄石市,磁湖东路29号,颗粒物(PM10),71,92,78,31,36,72,,124,118,18,24,11,11,1.0,0.9
2025-10-06T2000,1392A,114.4183,23.0528,惠州市,河南岸金山湖子站,,17,17,17,10,12,39,,46,44,7,5,8,8,0.5,0.5
2025-10-06T2000,1393A,114.4053,23.0822,惠州市,下埔横江三路子站,,23,23,19,12,8,35,,46,44,8,4,8,8,0.5,0.7
2025-10-06T2000,1394A,114.4103,23.1142,惠州市,江北云山西路子站,,14,14,16,8,7,38,,52,48,7,7,10,10,0.4,0.4
2025-10-06T2000,1395A,114.4645,22.7833,惠州市,惠阳区承修路船湖子站,,18,18,16,12,7,45,,50,48,8,6,8,8,0.5,0.4
2025-10-06T2000,1396A,114.5317,22.7422,惠州市,大亚湾管委会子站,,15,15,17,8,7,48,,53,52,10,7,10,10,0.4,0.4
2025-10-06T2000,3314A,114.4338,22.8134,惠州市,惠阳秋长,,15,14,13,9,8,45,,53,50,5,4,12,11,0.5,0.4
2025-10-06T2000,3452A,114.6517,22.775,惠州市,大亚湾霞涌,,18,15,14,12,6,55,,62,62,7,6,6,6,0.7,0.6
2025-10-06T2000,2240A,130.9762,45.3001,鸡西市,环保局,,28,28,22,7,9,22,,59,53,33,17,11,9,0.9,0.6
2025-10-06T2000,2243A,130.9429,45.3039,鸡西市,第一中学,,40,40,27,22,9,32,,59,54,22,12,10,9,0.7,0.6
2025-10-06T2000,3707A,131.0207,45.3073,鸡西市,欧美日汽修厂,颗粒物(PM10),72,94,42,45,14,8,,59,46,34,18,11,12,1.0,0.7
2025-10-06T2000,3709A,130.9967,45.3106,鸡西市,市政设施管理处,"颗粒物(PM10),细颗粒物(PM2.5)",54,58,30,38,12,12,,61,51,36,24,12,12,1.2,0.8
2025-10-06T2000,2367A,114.9754,27.0803,吉安市,红声器材厂,,22,22,21,12,8,40,,54,51,7,4,11,10,0.6,0.5
2025-10-06T2000,2368A,114.9658,27.0999,吉安市,市森林工业局,,38,32,21,26,10,35,,54,51,9,5,14,9,0.7,0.4
2025-10-06T2000,2369A,114.99,27.1312,吉安市,市环境监测站,,28,28,18,16,9,42,,54,51,3,2,10,9,0.5,0.5
2025-10-06T2000,2370A,115.0093,27.0968,吉安市,青原区法院,,37,37,20,18,9,39,,57,53,6,8,15,11,0.6,0.6
2025-10-06T2000,1772A,126.54,43.8622,吉林市,哈达湾,,22,22,22,8,8,49,,65,63,16,11,5,6,0.3,0.2
2025-10-06T2000,1773A,126.5844,43.8358,吉林市,东局子,,21,21,21,12,9,52,,64,62,10,9,6,6,0.3,0.3
2025-10-06T2000,1774A,126.5052,43.8245,吉林市,电力学院,,44,44,22,20,10,38,,62,58,20,10,5,6,0.5,0.3
2025-10-06T2000,1775A,126.6133,43.8972,吉林市,江北,,23,23,23,15,12,50,,59,58,7,7,4,4,0.4,0.4
2025-10-06T2000,1776A,126.555,43.8306,吉林市,江南公园,,,26,21,11,11,41,,63,58,20,10,4,4,,0.5
2025-10-06T2000,1778A,126.7061,43.7133,吉林市,丰满,,21,13,11,9,5,67,,75,73,5,5,7,7,0.0,0.1
2025-10-06T2000,2868A,126.4739,43.953,吉林市,九站,,30,30,32,15,16,36,,66,59,24,16,10,12,0.4,0.4
2025-10-06T2000,1299A,116.9862,36.6114,济南市,科干所,,29,29,4,17,4,36,,47,37,17,14,6,6,0.5,0.4
2025-10-06T2000,1300A,116.9376,36.665,济南市,农科所,,20,20,5,12,3,30,,51,36,20,15,6,7,0.6,0.5
2025-10-06T2000,1301A,117.1265,36.6734,济南市,开发区,,29,29,4,17,5,36,,47,39,15,12,2,2,0.7,0.6
2025-10-06T2000,1303A,117.0624,36.6868,济南市,省种子仓库,,31,31,6,17,4,36,,46,36,17,15,6,5,0.8,0.7
2025-10-06T2000,1304A,116.9489,36.6447,济南市,机床二厂,,29,29,8,17,4,32,,46,36,21,15,7,6,0.5,0.3
2025-10-06T2000,1305A,117.0495,36.663,济南市,市监测站,,34,34,6,15,5,39,,48,39,16,14,2,2,0.9,0.8
2025-10-06T2000,1306A,116.7675,36.5484,济南市,长清党校,,22,22,5,10,6,31,,47,39,27,18,5,5,0.8,0.7
2025-10-06T2000,1616A,117.6795,36.229,济南市,技术学院,,16,,0,7,3,50,,55,50,12,13,7,7,0.5,0.6
2025-10-06T2000,1961A,117.532,36.6868,济南市,东山小学,,32,24,8,22,6,35,,47,39,15,15,6,6,0.5,0.4
2025-10-06T2000,3059A,117.7161,36.2049,济南市,泰兴公司,,15,6,3,3,2,46,,55,53,10,12,8,9,0.2,0.3
2025-10-06T2000,3064A,117.6867,36.2171,济南市,莱芜战役纪念馆,,15,12,5,6,4,48,,54,49,16,16,6,7,0.6,0.7
2025-10-06T2000,3494A,117.1673,36.9782,济南市,济阳区政府,,22,22,7,10,2,24,,56,37,20,9,8,6,0.5,0.3
2025-10-06T2000,3495A,117.1171,36.63,济南市,锦屏中学,,20,20,4,7,6,38,,43,38,14,12,5,5,0.8,0.8
2025-10-06T2000,3682A,116.9814,36.6819,济南市,济南四建,,25,19,2,17,5,32,,50,36,16,11,5,4,0.8,0.7
2025-10-06T2000,1653A,116.6251,35.4302,济宁市,火炬城,,32,24,20,22,10,26,,38,34,10,9,4,5,0.4,0.4
2025-10-06T2000,1655A,116.5491,35.4042,济宁市,电化厂,,42,31,18,29,14,27,,42,39,21,16,2,1,0.4,0.6
2025-10-06T2000,3500A,116.5814,35.3707,济宁市,北湖一中,,26,20,17,18,13,27,,37,34,11,12,1,3,0.4,0.5
2025-10-06T2000,3501A,116.8249,35.5593,济宁市,服务中心,,12,12,14,3,3,21,,34,30,11,12,5,5,0.3,0.5
2025-10-06T2000,3678A,116.5907,35.4054,济宁市,市第七中学,,23,23,20,12,5,29,,39,37,12,11,8,8,0.4,0.5
2025-10-06T2000,2255A,130.2751,46.8028,佳木斯市,佳纺,颗粒物(PM10),51,52,27,18,10,14,,61,45,37,21,2,2,0.6,0.4
2025-10-06T2000,2256A,130.3995,46.8307,佳木斯市,发电厂,,45,45,29,16,10,8,,62,48,54,24,8,6,0.6,0.4
2025-10-06T2000,2257A,130.3258,46.7975,佳木斯市,环保局,,28,28,23,10,13,45,,58,55,23,21,5,5,0.4,0.4
2025-10-06T2000,2258A,130.3648,46.8032,佳木斯市,十一中,,33,33,23,16,12,28,,58,49,31,21,12,11,0.6,0.5
2025-10-06T2000,2259A,130.3794,46.7588,佳木斯市,四丰,,11,10,10,3,5,35,,41,40,9,11,1,17,0.0,0
2025-10-06T2000,1252A,120.7436,30.778,嘉兴市,清河小学,,37,37,32,22,17,99,,116,112,12,19,7,8,0.5,0.5
2025-10-06T2000,1253A,120.726,30.7478,嘉兴市,嘉兴学院,,40,39,33,28,21,97,,127,120,14,18,5,6,0.8,0.7
2025-10-06T2000,2872A,120.7846,30.7525,嘉兴市,南湖区残联,,49,45,32,34,22,108,,131,125,13,15,6,7,0.8,0.7
2025-10-06T2000,3407A,120.6916,30.7739,嘉兴市,秀洲住建,,42,38,32,29,20,73,,139,125,12,18,6,8,0.6,0.6
2025-10-06T2000,1945A,98.2908,39.7711,嘉峪关市,气象局,颗粒物(PM10),51,51,60,14,13,77,,91,90,13,21,8,25,0.2,0.5
2025-10-06T2000,2884A,98.2672,39.7978,嘉峪关市,酒钢宾馆,颗粒物(PM10),52,53,70,17,19,74,,84,84,14,17,16,38,0.5,0.8
2025-10-06T2000,3248A,98.2643,39.7724,嘉峪关市,雄关区,,46,46,52,15,20,77,,85,85,14,25,12,30,0.4,0.5
2025-10-06T2000,1383A,113.1064,22.6058,江门市,北街,,13,10,21,3,5,39,,50,49,10,9,5,4,0.3,0.4
2025-10-06T2000,1384A,113.0731,22.5835,江门市,西区,,21,21,15,7,6,37,,49,48,11,9,3,3,0.5,0.4
2025-10-06T2000,1385A,113.0219,22.5311,江门市,圭峰西,颗粒物(PM10),56,62,23,9,8,46,,51,51,8,8,4,4,0.5,0.5
2025-10-06T2000,1386A,113.0828,22.5947,江门市,东湖,,18,18,15,7,8,41,,51,50,11,10,2,2,0.4,0.4
2025-10-06T2000,3311A,113.1075,22.5647,江门市,江海富民,,18,18,27,8,9,42,,54,53,14,13,6,6,0.3,0.3
2025-10-06T2000,3449A,113.05,22.4667,江门市,新会银湖,,18,18,17,9,8,26,,44,42,10,7,3,3,0.6,0.4
2025-10-06T2000,1830A,113.1992,35.2590,焦作市,影视城,,,,29,,12,,,39,,,11,,9,,1.0
2025-10-06T2000,3335A,113.3137,35.2641,焦作市,马村街道办,,21,21,27,3,15,34,,42,39,14,12,3,3,0.5,0.8
2025-10-06T2000,3336A,113.2465,35.2373,焦作市,焦作技师学院,,14,14,25,3,10,31,,37,34,10,9,8,7,0.8,1.1
2025-10-06T2000,3477A,113.1656,35.2539,焦作市,中站许衡医院,,19,14,35,13,24,33,,43,40,17,17,5,6,0.7,1.1
2025-10-06T2000,3981A,113.2449,35.1803,焦作市,原李万街道办,,29,29,34,3,7,34,,44,42,19,14,8,9,0.6,0.9
2025-10-06T2000,4264A,113.2340,35.2190,焦作市,新安路1731号,,,22,26,3,13,38,,44,43,,12,,5,0.9,1.2
2025-10-06T2000,4295A,113.2722,35.2121,焦作市,人民路3066号,,20,20,32,3,10,41,,46,44,14,11,3,3,0.7,1
2025-10-06T2000,1708A,116.3701,23.5345,揭阳市,新兴,,30,,24,21,14,43,,72,69,10,12,5,10,0.7,0.6
2025-10-06T2000,1709A,116.3264,23.5443,揭阳市,西马,,25,25,24,13,11,48,,78,75,7,7,3,4,0.9,0.7
2025-10-06T2000,1710A,116.3611,23.5626,揭阳市,东兴,,22,19,20,15,11,38,,73,70,10,8,8,8,0.6,0.5
2025-10-06T2000,1711A,116.4151,23.5294,揭阳市,渔湖,,21,21,25,12,12,36,,75,70,14,12,9,10,0.7,0.7
2025-10-06T2000,3320A,116.403,23.5699,揭阳市,曲溪,,33,33,22,20,11,47,,86,79,6,7,5,9,0.9,0.6
2025-10-06T2000,1944A,102.1692,38.5167,金昌市,天庆家园,,44,44,64,10,28,77,,72,72,4,14,3,21,0.5,0.5
2025-10-06T2000,4022A,102.1647,38.5371,金昌市,金川区人防中心,,47,47,53,8,27,68,,64,64,3,11,2,7,0.3,0.5
2025-10-06T2000,4239A,102.1930,38.5319,金昌市,长春路96号,,26,26,52,8,25,71,,66,66,3,11,4,18,0.3,0.4
2025-10-06T2000,1262A,119.647,29.077,金华市,十五中,,42,42,38,21,21,110,,151,142,16,15,2,3,0.8,0.7
2025-10-06T2000,1263A,119.686,29.1029,金华市,监测站,,46,46,42,27,22,111,,152,146,20,21,4,4,0.7,0.6
2025-10-06T2000,3659A,119.656,29.1131,金华市,气象局,,43,43,39,22,23,83,,135,124,28,21,3,4,0.5,0.4
2025-10-06T2000,1767A,121.1115,41.0879,锦州市,南山,,49,40,25,34,10,41,,72,69,29,14,8,9,0.6,0.5
2025-10-06T2000,1768A,121.0604,40.8428,锦州市,开发区,,45,45,32,22,10,40,,64,63,42,22,11,10,0.7,0.6
2025-10-06T2000,1769A,121.1836,41.1119,锦州市,百股街道,,40,40,36,27,9,33,,72,68,34,19,93,19,0.7,0.6
2025-10-06T2000,1770A,121.1178,41.1222,锦州市,天安街道,,40,40,25,24,9,34,,74,70,44,14,39,14,0.7,0.6
2025-10-06T2000,1771A,121.1303,41.1386,锦州市,北湖公园,细颗粒物(PM2.5),67,,25,48,9,42,,77,73,28,10,28,12,0.6,0.5
2025-10-06T2000,2160A,112.85,35.5051,晋城市,自来水公司,,21,21,26,3,8,31,,33,33,14,21,3,3,0.9,1.3
2025-10-06T2000,2161A,112.8318,35.4936,晋城市,白云商贸,,,13,24,,3,27,,31,31,12,15,3,3,0.9,1.2
2025-10-06T2000,2162A,112.8508,35.4887,晋城市,市环保局,,10,10,12,3,7,28,,30,30,12,16,3,4,0.9,1.3
2025-10-06T2000,2163A,112.8676,35.4897,晋城市,技术学院,,10,8,13,3,4,29,,30,30,11,17,4,9,0.9,1.3
2025-10-06T2000,2165A,112.8453,35.546,晋城市,白马寺,,13,11,10,6,10,40,,43,42,8,10,6,6,0.8,1.3
2025-10-06T2000,3620A,112.8271,35.4828,晋城市,泽州一中,,10,8,16,3,3,31,,36,34,13,16,2,2,0.8,1.1
2025-10-06T2000,2173A,112.7249,37.7067,晋中市,南都小区,,24,24,17,10,11,50,,67,66,21,14,5,5,0.8,0.9
2025-10-06T2000,2174A,112.6991,37.6982,晋中市,榆次区政府,,34,34,16,14,15,40,,63,62,31,19,6,5,0.2,0.4
2025-10-06T2000,2865A,112.7195,37.6828,晋中市,榆次三中,,19,19,9,3,6,59,,69,69,16,12,6,6,0.1,0.2
2025-10-06T2000,4200A,112.7478,37.6954,晋中市,迎宾街26号,,19,12,8,3,5,60,,68,68,15,13,4,4,0.3,0.4
2025-10-06T2000,2439A,112.2014,31.0481,荆门市,竹园小学,,29,29,38,18,22,36,,57,56,12,9,1,1,0.8,0.7
2025-10-06T2000,2440A,112.1969,30.9891,荆门市,掇刀,,38,,34,26,33,38,,66,66,10,8,1,1,0.7,0.6
2025-10-06T2000,2441A,112.2213,31.0386,荆门市,石化一小,,26,24,33,18,22,34,,54,53,10,8,4,2,0.8,0.7
2025-10-06T2000,3012A,112.1849,31.0362,荆门市,西山林语,,32,,35,22,26,41,,57,57,7,8,3,3,0.7,0.8
2025-10-06T2000,3547A,112.1632,31.0138,荆门市,龙泉中学南校,,31,31,35,20,22,42,,60,60,14,12,4,4,0.9,0.9
2025-10-06T2000,1844A,112.2494,30.3197,荆州市,市图书馆,细颗粒物(PM2.5),62,49,57,44,38,100,,138,138,14,17,6,6,0.8,0.8
2025-10-06T2000,1845A,112.2008,30.3544,荆州市,市委党校,细颗粒物(PM2.5),63,67,64,45,39,87,,130,130,14,17,8,8,0.8,0.8
2025-10-06T2000,3194A,112.2747,30.3122,荆州市,管委会,细颗粒物(PM2.5),64,60,56,46,34,86,,129,129,15,16,9,10,0.8,0.8
2025-10-06T2000,4268A,112.1722,30.3366,荆州市,学苑路85号,细颗粒物(PM2.5),74,72,58,54,47,100,,146,146,4,16,4,5,0.7,0.7
2025-10-06T2000,2342A,117.3102,29.3867,景德镇市,王港中学,,,,,,,,,,,,,,,,
2025-10-06T2000,2343A,117.2117,29.2933,景德镇市,老干部活动中心,,42,32,37,29,26,58,,103,94,11,8,4,5,1.2,1.1
2025-10-06T2000,2344A,117.1894,29.2789,景德镇市,兽医站,,25,25,36,16,24,52,,99,90,19,10,9,8,0.9,0.8
2025-10-06T2000,2346A,117.2461,29.2956,景德镇市,陶研所,,35,33,36,24,27,49,,110,95,12,11,5,7,0.7,0.7
2025-10-06T2000,4289A,117.1542,29.2566,景德镇市,青少年活动中心,,34,34,38,23,28,69,,100,93,13,16,7,8,0.7,0.8
2025-10-06T2000,1803A,115.9872,29.6815,九江市,十里,,39,33,29,27,24,59,,82,79,20,18,5,5,0.7,0.7
2025-10-06T2000,1804A,115.9584,29.7046,九江市,茅山头,,36,36,34,18,24,64,,82,78,15,23,4,4,0.7,0.7
2025-10-06T2000,1805A,115.9877,29.7295,九江市,西园,,28,28,38,13,24,84,,104,99,18,43,5,7,0.6,0.8
2025-10-06T2000,1808A,115.9114,29.6038,九江市,综合工业园,,23,23,26,10,14,46,,78,72,19,29,10,7,0.7,0.7
2025-10-06T2000,1809A,116.0721,29.7535,九江市,石化总厂,细颗粒物(PM2.5),69,,43,50,32,84,,99,96,15,22,8,6,0.6,0.8
2025-10-06T2000,1810A,115.9773,29.5698,九江市,庐山气象台,,,,,,,,,,,,,,,,
2025-10-06T2000,3190A,116.0254,29.6994,九江市,外国语学校,,30,24,25,21,25,66,,91,85,27,17,7,5,0.6,0.6
2025-10-06T2000,4253A,116.0102,29.6594,九江市,莲花大道8号,,26,26,26,12,18,49,,73,71,13,4,6,5,0.5,0.5
2025-10-06T2000,4240A,98.4958,39.7339,酒泉市,玉门东路5号,,45,41,60,31,28,75,,82,82,6,13,109,24,0.5,0.3
2025-10-06T2000,4241A,98.5099,39.7506,酒泉市,北大街108号,,29,29,53,19,19,73,,82,81,4,8,5,19,0.2,0.3
2025-10-06T2000,2698A,76.0072,39.4467,喀什地区,巡警大队,颗粒物(PM10),80,110,133,57,51,101,,90,90,6,33,3,4,0.2,0.4
2025-10-06T2000,2699A,75.9755,39.4694,喀什地区,吾办,颗粒物(PM10),82,114,127,46,50,96,,86,86,6,21,5,6,0.3,0.4
2025-10-06T2000,4027A,75.9483,39.4689,喀什地区,老干局,颗粒物(PM10),89,127,124,43,37,96,,89,89,9,24,2,2,0.2,0.2
2025-10-06T2000,1824A,114.3389,34.7781,开封市,肿瘤医院,,,,13,7,9,56,,49,48,11,11,5,5,0.7,0.9
2025-10-06T2000,1826A,114.2885,34.7965,开封市,世纪星幼儿园,,19,10,11,6,7,58,,52,49,15,13,5,4,0.6,0.8
2025-10-06T2000,3147A,114.3438,34.8106,开封市,龙亭公园,,,,12,2,3,53,,44,43,11,10,7,6,0.8,1.1
2025-10-06T2000,3210A,114.3644,34.7964,开封市,汴京公园,,17,9,12,3,7,54,,47,46,12,11,7,6,0.5,0.7
2025-10-06T2000,3473A,114.2485,34.8306,开封市,技师学院,,17,,11,11,9,54,,47,46,10,8,7,7,0.8,1
2025-10-06T2000,3592A,114.4644,34.7556,开封市,祥符区生态环境局,,16,11,10,3,5,50,,46,46,12,11,4,4,0.5,0.8
2025-10-06T2000,1951A,84.895,45.6094,克拉玛依市,长征新村,,19,12,12,10,5,58,,59,59,4,2,2,2,0.2,0.2
2025-10-06T2000,1952A,84.8988,45.5893,克拉玛依市,南林小区,,18,11,11,3,5,55,,58,58,5,4,7,6,0.3,0.3
2025-10-06T2000,1954A,84.905,44.3396,克拉玛依市,独山子区,,44,44,38,12,9,45,,50,50,14,11,9,9,0.4,0.3
2025-10-06T2000,1955A,85.6979,46.098,克拉玛依市,乌尔禾区商贸楼,,17,15,16,3,4,53,,60,60,10,6,3,3,0.2,0.2
2025-10-06T2000,3612A,85.1045,45.6899,克拉玛依市,白碱滩区新站,,23,23,22,6,5,65,,64,64,2,3,4,3,0.2,0.2
2025-10-06T2000,2697A,76.1454,39.7142,克孜勒苏柯尔克孜自治州,市人民政府,颗粒物(PM10),98,145,105,68,47,97,,95,95,4,10,5,15,0.1,0.2
2025-10-06T2000,3665A,76.1658,39.7157,克孜勒苏柯尔克孜自治州,克州文化中心,颗粒物(PM10),103,156,110,59,42,95,,95,95,4,9,7,20,0.2,0.2
2025-10-06T2000,1450A,102.8204,24.8886,昆明市,呈贡新区,,18,7,19,3,18,56,,68,68,5,15,2,4,0.4,0.6
2025-10-06T2000,1451A,102.6251,24.9608,昆明市,西山森林公园,,,,,,,,,,,,,,,,
2025-10-06T2000,1452A,102.7252,25.0902,昆明市,龙泉镇,,28,28,25,9,11,59,,73,73,9,13,2,2,0.3,0.5
2025-10-06T2000,1453A,102.7266,25.0375,昆明市,东风东路,,,18,26,16,17,57,,71,71,5,13,,4,0.2,0.3
2025-10-06T2000,1454A,102.6742,25.0669,昆明市,金鼎山,,25,25,31,9,14,55,,67,67,5,12,2,2,0.4,0.5
2025-10-06T2000,1455A,102.6644,25.0401,昆明市,碧鸡广场,,18,18,30,11,14,54,,67,67,12,17,8,8,0.3,0.5
2025-10-06T2000,3179A,102.7494,25.0119,昆明市,官渡区博物馆,,23,,32,16,12,52,,64,64,11,20,2,2,0.4,0.5
2025-10-06T2000,3375A,102.8017,24.8336,昆明市,青年创业园,,18,13,25,6,15,56,,67,67,4,14,1,2,0.4,0.6
2025-10-06T2000,3550A,102.7997,24.9786,昆明市,昆明学院,,15,13,32,7,17,48,,61,61,7,18,8,7,0.2,0.4
2025-10-06T2000,3551A,102.5967,24.6736,昆明市,晋宁区生态环境分局,,31,31,25,14,17,63,,75,75,6,12,2,3,0.4,0.5
2025-10-06T2000,3552A,102.6678,24.9856,昆明市,云天化总部,,18,16,27,9,18,57,,70,70,10,16,4,4,0.5,0.5
2025-10-06T2000,1456A,91.1319,29.6514,拉萨市,八廓街,,28,20,11,3,8,87,,92,92,13,11,6,5,0.3,0.3
2025-10-06T2000,1457A,91.1221,29.6747,拉萨市,市环保局,,29,6,9,6,7,92,,98,98,9,10,7,8,0.7,0.6
2025-10-06T2000,1458A,91.0874,29.6475,拉萨市,区监测站,,28,7,8,3,6,89,,92,92,14,15,4,4,0.2,0.2
2025-10-06T2000,1459A,91.1774,29.6541,拉萨市,西藏大学,,28,17,9,8,7,89,,90,90,15,15,7,7,0.2,0.3
2025-10-06T2000,1460A,90.9798,29.6588,拉萨市,区辐射站,,23,17,12,8,7,72,,78,78,18,18,5,7,0.4,0.4
2025-10-06T2000,1461A,91.0834,29.6292,拉萨市,拉萨火车站,,30,6,9,3,6,96,,90,90,6,14,6,6,0.1,0.3
2025-10-06T2000,2520A,109.2203,23.7256,来宾市,来宾技工学校,,13,13,13,6,5,27,,40,39,6,5,9,8,0.8,0.6
2025-10-06T2000,3535A,109.1781,23.7297,来宾市,兴宾区政府,,12,12,12,8,6,29,,42,41,6,4,6,6,0.6,0.4
2025-10-06T2000,4002A,109.2416,23.7461,来宾市,中南小学,,15,15,12,3,4,26,,39,38,7,5,7,7,0.5,0.4
2025-10-06T2000,1477A,104.1373,35.9454,兰州市,榆中兰大校区,,,,,,,,,,,,,,,,
2025-10-06T2000,1479A,103.831,36.0464,兰州市,铁路设计院,,,,,,,,,,,,,,,,
2025-10-06T2000,3241A,103.7439,36.0842,兰州市,百合公园,,43,43,48,26,25,54,,78,78,30,21,4,3,0.9,0.9
2025-10-06T2000,3242A,103.9611,35.998,兰州市,和平,,40,40,46,24,26,62,,81,81,16,20,2,4,0.7,0.8
2025-10-06T2000,4236A,103.6293,36.0938,兰州市,庄浪东路808号,,,56,50,40,37,36,,78,76,66,35,10,10,,0.5
2025-10-06T2000,4237A,103.7251,36.1043,兰州市,安宁西路88号,细颗粒物(PM2.5),60,60,53,43,36,60,,89,88,38,20,5,4,0.7,0.5
2025-10-06T2000,4238A,103.8470,36.0676,兰州市,北滨河东路1号,,39,37,45,27,32,73,,76,76,20,32,6,8,0.6,0.8
2025-10-06T2000,3245A,103.6633,36.533,兰州新区,新区管委会,,45,40,44,31,21,92,,110,110,11,12,7,9,0.3,0.5
2025-10-06T2000,3246A,103.6975,36.4789,兰州新区,舟曲中学,,39,39,41,26,26,90,,107,107,11,12,8,9,0.6,0.6
2025-10-06T2000,1067A,116.6708,39.5111,廊坊市,药材公司,,20,20,27,14,13,51,,68,68,16,14,5,6,0.4,0.5
2025-10-06T2000,1068A,116.7214,39.5589,廊坊市,开发区,,24,24,20,11,8,55,,67,67,17,14,2,2,0.4,0.4
2025-10-06T2000,1070A,116.7244,39.5269,廊坊市,北华航天学院,,27,27,26,8,10,63,,72,72,14,11,6,6,0.3,0.4
2025-10-06T2000,2919A,116.7022,39.5453,廊坊市,河北工业大学,,22,22,19,15,11,61,,71,71,14,13,3,2,0.4,0.4
2025-10-06T2000,2535A,103.7723,29.5462,乐山市,花湖湾,,9,9,16,6,12,17,,31,31,12,13,7,7,0.6,0.6
2025-10-06T2000,2536A,103.7627,29.5844,乐山市,牛耳桥,,16,16,19,10,11,14,,31,30,21,15,6,6,0.7,0.7
2025-10-06T2000,2537A,103.7508,29.6006,乐山市,市第三水厂,,10,8,19,3,10,29,,33,33,12,14,4,5,0.7,0.7
2025-10-06T2000,2538A,103.7571,29.5664,乐山市,市监测站,,11,11,18,7,12,25,,30,30,9,13,4,4,0.8,0.5
2025-10-06T2000,3361A,103.7311,29.5628,乐山市,理工大学,,11,11,17,7,11,24,,37,37,11,11,9,9,0.8,0.8
2025-10-06T2000,2598A,100.2143,26.8576,丽江市,西南郊,,18,6,3,3,3,57,,58,58,5,3,7,6,1.4,1.2
2025-10-06T2000,2599A,100.2497,26.8802,丽江市,丽江古城,,22,18,15,15,7,49,,54,53,8,9,9,9,0.4,0.4
2025-10-06T2000,2600A,100.2203,26.8906,丽江市,市中心,,17,17,13,8,6,50,,56,56,10,10,10,9,0.7,0.6
2025-10-06T2000,1267A,119.914,28.4514,丽水市,监测站大楼,,22,18,28,12,15,68,,106,97,10,13,4,5,0.4,0.4
2025-10-06T2000,1268A,119.93,28.4586,丽水市,莲都小学,,28,28,34,14,16,63,,108,99,9,15,3,4,0.4,0.4
2025-10-06T2000,1269A,119.879,28.4231,丽水市,余庄前,,31,31,31,20,19,36,,100,81,11,11,5,5,0.4,0.4
2025-10-06T2000,1173A,119.176,34.5885,连云港市,市环境监测站,,22,17,34,9,26,68,,84,83,13,20,9,6,1.0,0.9
2025-10-06T2000,3000A,119.3581,34.6972,连云港市,德源药业,,22,9,37,7,23,70,,84,82,10,22,5,5,0.9,1.1
2025-10-06T2000,3007A,119.178,34.844,连云港市,新城一中,,,38,35,3,16,71,,85,83,11,23,4,5,,0.6
2025-10-06T2000,3008A,119.3608,34.7519,连云港市,胡沟管理处,,25,9,25,3,19,77,,88,87,12,19,11,10,0.7,0.8
2025-10-06T2000,3009A,119.1478,34.5911,连云港市,矿山设计院,,23,12,33,7,25,72,,85,84,13,21,7,5,0.8,0.9
2025-10-06T2000,3434A,119.2413,34.6539,连云港市,工贸学校,,23,10,28,3,18,72,,93,90,11,18,12,8,1.4,1
2025-10-06T2000,3664A,119.4172,34.7341,连云港市,连云街道,,24,7,34,3,18,74,,82,82,16,34,2,2,0.5,0.8
2025-10-06T2000,2571A,102.3431,27.8099,凉山彝族自治州,青龙寺,,18,18,16,7,6,52,,73,71,7,6,7,7,0.3,0.2
2025-10-06T2000,2572A,102.2721,27.8415,凉山彝族自治州,邛海宾馆,,20,20,15,13,9,62,,72,72,4,6,10,11,0.5,0.5
2025-10-06T2000,2573A,102.2625,27.898,凉山彝族自治州,西昌市政府,,33,,17,23,14,40,,71,68,9,7,11,14,0.4,0.4
2025-10-06T2000,2574A,102.2685,27.8851,凉山彝族自治州,凉山州政府,,32,32,23,17,15,48,,72,70,7,6,8,11,0.7,0.7
2025-10-06T2000,4229A,102.2342,27.8859,凉山彝族自治州,凯乐南路30号,,40,33,24,28,12,51,,86,84,5,11,7,12,0.4,0.5
2025-10-06T2000,2212A,123.2,41.1953,辽阳市,宏伟区,细颗粒物(PM2.5),70,,30,51,13,4,,30,14,26,24,5,10,1.5,0.6
2025-10-06T2000,2213A,123.1683,41.2495,辽阳市,新华园,,42,42,35,24,9,8,,37,25,33,24,6,10,0.6,0.5
2025-10-06T2000,2214A,123.2354,41.2639,辽阳市,滨河路,,45,45,33,23,16,6,,30,22,28,22,7,11,0.6,0.4
2025-10-06T2000,2215A,123.149,41.2991,辽阳市,铁西工业园,颗粒物(PM10),51,51,34,23,19,3,,26,23,30,22,7,7,0.8,0.6
2025-10-06T2000,2227A,125.1358,42.8845,辽源市,环保局,颗粒物(PM10),53,55,41,14,5,43,,63,59,17,14,5,6,0.4,0.3
2025-10-06T2000,3239A,125.0764,42.9078,辽源市,银鹰制药,,30,30,19,17,11,17,,60,52,40,13,10,7,0.6,0.4
2025-10-06T2000,1625A,115.9848,36.4372,聊城市,区政府,,20,,4,14,4,31,,52,37,17,12,8,8,0.7,0.7
2025-10-06T2000,2878A,116.0072,36.4343,聊城市,聊大东校,,26,,7,18,8,36,,59,41,17,15,9,9,0.7,0.7
2025-10-06T2000,3200A,115.9819,36.4978,聊城市,监控中心,,20,14,4,14,2,36,,58,42,21,15,8,8,0.5,0.5
2025-10-06T2000,3513A,116.0445,36.4361,聊城市,九州社区,,24,24,12,13,4,32,,55,37,17,11,1,3,0.5,0.4
2025-10-06T2000,4018A,116.0567,36.4608,聊城市,星美广场,,25,22,10,17,4,34,,54,38,11,10,3,2,0.6,0.5
2025-10-06T2000,2632A,94.3681,29.6376,林芝市,林芝监测站,,16,6,4,3,4,49,,48,48,2,2,6,6,0.3,0.3
2025-10-06T2000,2633A,94.3616,29.6616,林芝市,林芝人民医院,,14,11,8,6,4,44,,46,46,2,3,4,4,0.7,0.6
2025-10-06T2000,2603A,100.0781,23.8982,临沧市,市环保局,细颗粒物(PM2.5),52,,19,36,20,35,,42,42,7,6,9,7,0.5,0.5
2025-10-06T2000,2604A,100.0894,23.8822,临沧市,市气象局,,19,19,15,9,15,42,,46,46,5,6,7,7,0.5,0.5
2025-10-06T2000,1733A,111.5531,36.0783,临汾市,临钢医院,,32,32,18,16,9,32,,39,36,18,15,6,7,1.1,1.1
2025-10-06T2000,1734A,111.5028,36.0714,临汾市,技工学校,,50,,15,35,20,24,,38,35,24,16,6,6,1.2,1.2
2025-10-06T2000,1736A,111.5018,36.0855,临汾市,市委,,32,31,29,22,13,23,,39,37,26,18,5,5,1.2,1.1
2025-10-06T2000,3018A,111.505,36.1014,临汾市,唐尧大酒店,,46,46,30,25,14,26,,39,38,24,18,4,4,1.2,1.2
2025-10-06T2000,4244A,111.4879,36.0530,临汾市,启星学校,,32,26,20,22,18,20,,38,32,25,17,6,6,1.1,1.1
2025-10-06T2000,4271A,103.2464,35.6123,临夏回族自治州,滨河东路1号,,44,44,41,28,25,49,,59,56,14,11,9,9,0.6,0.4
2025-10-06T2000,4310A,103.2093,35.5995,临夏回族自治州,新华街21号,颗粒物(PM10),51,51,44,34,28,78,,75,75,10,12,6,6,0.6,0.5
2025-10-06T2000,1618A,118.3429,35.0532,临沂市,沂河小区,,19,12,46,11,28,59,,73,71,12,22,7,8,0.5,0.9
2025-10-06T2000,1619A,118.295,35.0583,临沂市,鲁南制药厂,,19,12,35,6,22,60,,76,73,13,20,7,8,0.9,1.3
2025-10-06T2000,1620A,118.2794,34.9976,临沂市,新光毛纺厂,,20,,37,7,25,63,,77,76,14,25,7,8,0.5,0.9
2025-10-06T2000,1621A,118.3956,35.0888,临沂市,河东保险公司,,19,6,34,3,20,59,,72,70,13,19,5,6,0.4,0.8
2025-10-06T2000,3370A,118.3564,35.0215,临沂市,十里堡居委,,20,14,36,3,21,64,,81,78,16,23,7,8,0.5,1
2025-10-06T2000,3496A,118.3604,35.1084,临沂市,南坊新区,,19,7,43,3,21,59,,69,68,10,20,8,8,0.9,1.3
2025-10-06T2000,3860A,118.3920,35.0300,临沂市,皇山花园小区,,19,6,32,3,16,60,,78,76,10,18,9,10,0.8,1.2
2025-10-06T2000,1870A,109.4856,24.3895,柳州市,柳东小学,,18,16,13,12,9,23,,52,46,14,5,6,5,1.0,0.4
2025-10-06T2000,1871A,109.4157,24.3277,柳州市,环保监测站,,,,13,7,7,32,,50,46,9,5,7,7,0.8,0.5
2025-10-06T2000,1872A,109.389,24.341,柳州市,河西水厂,,13,12,16,9,7,30,,49,45,8,5,7,5,0.4,0.3
2025-10-06T2000,1873A,109.4311,24.2921,柳州市,市四中,,16,16,12,7,5,29,,48,44,10,7,7,9,0.4,0.2
2025-10-06T2000,1874A,109.4006,24.3631,柳州市,市九中,,23,22,19,16,9,25,,48,44,14,6,2,3,0.5,0.3
2025-10-06T2000,1875A,109.4958,24.3134,柳州市,古亭山,,18,18,14,3,6,21,,49,44,8,4,6,10,0.4,0.3
2025-10-06T2000,3402A,109.5422,24.3996,柳州市,市二中,,18,,13,12,6,28,,53,48,12,6,7,6,0.9,0.4
2025-10-06T2000,2307A,116.5079,31.737,六安市,监测大楼,细颗粒物(PM2.5),74,54,47,54,39,80,,110,110,8,10,6,6,0.7,0.7
2025-10-06T2000,2308A,116.4738,31.7643,六安市,皖西学院,细颗粒物(PM2.5),79,68,56,58,43,82,,114,114,4,6,4,3,0.7,0.7
2025-10-06T2000,2309A,116.4996,31.7905,六安市,朝阳厂,细颗粒物(PM2.5),64,65,51,46,37,68,,102,102,12,14,4,5,0.7,0.7
2025-10-06T2000,2310A,116.5567,31.7886,六安市,开发区,细颗粒物(PM2.5),57,59,44,40,34,74,,109,109,6,10,3,2,0.7,0.7
2025-10-06T2000,2576A,104.8,26.5892,六盘水市,窑上,,20,20,27,14,12,38,,56,53,5,2,2,2,0.4,0.3
2025-10-06T2000,2577A,104.83,26.5917,六盘水市,黄土坡,,23,,11,16,7,44,,57,54,9,5,2,2,0.4,0.3
2025-10-06T2000,2578A,104.89,26.5939,六盘水市,水钢,,23,23,17,13,8,42,,59,55,7,2,5,2,0.3,0.2
2025-10-06T2000,2579A,104.8475,26.5894,六盘水市,民中,,19,19,14,12,6,42,,57,54,8,3,3,2,0.4,0.3
2025-10-06T2000,2580A,104.9544,26.5506,六盘水市,双水,,17,17,14,3,8,42,,54,50,6,4,3,3,0.2,0.1
2025-10-06T2000,2335A,117.0189,25.1181,龙岩市,龙岩师专,,,,,,,,,,,,,,,,
2025-10-06T2000,2336A,117.0217,25.1033,龙岩市,龙岩市监测站,,15,9,20,7,14,48,,76,72,11,11,8,8,0.5,0.4
2025-10-06T2000,2337A,117.0258,25.0661,龙岩市,闽西职业技术学院,,25,25,23,9,11,29,,84,75,9,8,8,12,0.4,0.3
2025-10-06T2000,2338A,117.0196,25.0306,龙岩市,龙岩学院,,18,,18,12,11,31,,78,68,4,6,6,7,0.4,0.4
2025-10-06T2000,2665A,105.0822,33.3261,陇南市,汉王镇固水子,,,,,,,,,,,,,,,,
2025-10-06T2000,2885A,104.9339,33.3826,陇南市,滨江中学,,37,37,27,13,11,42,,61,60,14,7,6,6,0.7,0.6
2025-10-06T2000,3247A,104.955,33.371,陇南市,市总工会,,38,38,28,11,9,45,,66,66,14,9,8,8,0.9,0.8
2025-10-06T2000,2487A,111.9589,27.8901,娄底市,电视发射台,,16,16,25,3,12,30,,61,54,6,6,5,6,0.3,0.4
2025-10-06T2000,2488A,111.9975,27.725,娄底市,市监测站,,22,,48,15,29,58,,63,62,12,18,61,12,0.5,0.7
2025-10-06T2000,2489A,112.0194,27.7314,娄底市,市委党校,,38,,37,26,30,50,,62,60,13,11,22,7,0.5,0.5
2025-10-06T2000,2490A,111.9561,27.7569,娄底市,涟钢,,17,17,46,11,31,40,,50,49,25,18,43,15,1.2,1.2
2025-10-06T2000,2491A,111.9892,27.7044,娄底市,市政府,,30,,44,21,33,46,,61,58,12,12,8,7,0.8,0.9
2025-10-06T2000,1893A,105.4324,28.9634,泸州市,九狮山,颗粒物(PM10),62,73,33,21,11,32,,47,47,7,5,6,6,0.5,0.4
2025-10-06T2000,1894A,105.4427,28.9063,泸州市,小市上码头,,40,40,28,19,11,30,,34,34,9,7,6,6,0.8,0.6
2025-10-06T2000,1895A,105.4241,28.8573,泸州市,兰田宪桥,,37,37,29,22,11,38,,48,48,7,7,4,5,1.0,0.9
2025-10-06T2000,1896A,105.4379,28.8833,泸州市,市环监站,,35,35,28,21,16,43,,49,49,15,12,7,6,0.6,0.5
2025-10-06T2000,4272A,105.3689,28.7783,泸州市,纳溪中医医院,,23,18,25,16,14,25,,35,35,14,11,6,5,0.9,0.8
2025-10-06T2000,2183A,111.1406,37.5211,吕梁市,环保局,,50,50,18,29,17,11,,48,44,53,40,3,5,0.9,0.8
2025-10-06T2000,2185A,111.1297,37.5136,吕梁市,自来水公司,,,57,19,29,17,7,,49,42,,38,4,3,0.9,0.9
2025-10-06T2000,2867A,111.1283,37.51,吕梁市,马茂庄小学,,50,50,22,28,16,20,,52,48,44,42,5,4,0.9,0.8
2025-10-06T2000,1812A,112.3931,34.6516,洛阳市,市委党校,,16,16,16,8,13,43,,47,47,20,18,6,6,0.6,1
2025-10-06T2000,1815A,112.494,34.6886,洛阳市,河南林校,,20,20,22,11,15,42,,47,47,18,17,7,6,0.6,0.9
2025-10-06T2000,1816A,112.3844,34.623,洛阳市,开发区管委会,,,20,16,12,12,50,,52,52,17,14,10,8,,1
2025-10-06T2000,1817A,112.4267,34.6258,洛阳市,市委新办公区,,15,15,18,9,12,42,,43,43,14,14,7,7,0.5,0.9
2025-10-06T2000,3340A,112.6005,34.6326,洛阳市,伊滨,,28,28,17,8,13,43,,45,45,16,15,6,6,0.7,1
2025-10-06T2000,3341A,112.4951,34.6332,洛阳市,中移产业园,,16,16,20,7,14,40,,43,43,14,15,6,6,0.6,1
2025-10-06T2000,3593A,112.5736,34.8993,洛阳市,吉利监测站,,16,16,22,3,13,40,,44,42,14,12,7,6,0.6,0.9
2025-10-06T2000,3635A,112.3677,34.662,洛阳市,河科大西苑校区,,18,18,17,9,8,47,,48,48,16,16,7,7,0.7,1
2025-10-06T2000,3636A,112.4388,34.6781,洛阳市,英才小学,,21,21,28,13,13,34,,37,37,17,15,6,6,0.7,1.1
2025-10-06T2000,4214A,112.4600,34.6949,洛阳市,春都路1号院,,12,12,15,6,9,34,,36,36,16,14,6,5,0.6,1
2025-10-06T2000,2399A,114.051,33.5699,漯河市,三五一五工厂,,18,14,9,12,11,42,,40,40,10,8,5,5,0.5,0.8
2025-10-06T2000,2400A,114.0055,33.5698,漯河市,漯河大学,,20,19,14,14,10,41,,38,38,8,6,5,4,0.5,0.7
2025-10-06T2000,2401A,114.0138,33.5828,漯河市,市水利局,,25,22,15,17,10,40,,37,37,9,8,6,6,0.5,0.8
2025-10-06T2000,2402A,114.0261,33.5698,漯河市,市广电局,,,22,13,13,11,41,,40,40,8,4,3,3,,0.8
2025-10-06T2000,3478A,113.9749,33.5664,漯河市,市图书馆,,22,22,14,11,7,38,,35,35,9,8,3,3,0.5,0.7
2025-10-06T2000,4250A,114.0892,33.5882,漯河市,韶山路11号,,24,24,13,12,8,38,,35,35,10,9,5,5,0.5,0.8
2025-10-06T2000,1798A,118.5092,31.6837,马鞍山市,湖东路四小,细颗粒物(PM2.5),62,46,56,44,37,102,,122,113,13,17,8,8,0.9,0.9
2025-10-06T2000,1799A,118.5024,31.6449,马鞍山市,开发区,,50,48,62,35,34,110,,120,113,12,19,7,7,1.0,0.9
2025-10-06T2000,1802A,118.6245,31.7241,马鞍山市,濮塘,,,,,,,,,,,,,,,,
2025-10-06T2000,3633A,118.4918,31.6809,马鞍山市,雨山,颗粒物(PM10),55,59,50,31,22,99,,122,110,15,14,5,6,0.9,0.9
2025-10-06T2000,4191A,118.5274,31.72227,马鞍山市,慈湖高新区,颗粒物(PM10),60,69,57,38,35,93,,120,108,20,19,7,8,0.8,0.7
2025-10-06T2000,1686A,111.0286,21.4688,茂名市,电白南海,,36,36,32,17,19,54,,60,59,5,3,5,4,0.7,0.7
2025-10-06T2000,1687A,110.9294,21.6533,茂名市,茂石化七小,,24,24,22,12,9,48,,54,52,5,3,6,6,0.3,0.3
2025-10-06T2000,1688A,110.9107,21.6687,茂名市,健康路,,22,22,19,12,10,54,,57,56,6,4,4,5,0.5,0.5
2025-10-06T2000,1689A,110.8592,21.6828,茂名市,高岭,,27,27,23,3,4,53,,56,56,8,6,11,8,0.6,0.5
2025-10-06T2000,3450A,111.01,21.5165,茂名市,电白水东,,16,14,18,7,8,50,,56,55,6,5,5,5,0.5,0.5
2025-10-06T2000,2539A,104.0308,30.0478,眉山市,黑龙滩水库,,15,9,12,3,9,47,,45,45,3,6,3,3,0.3,0.4
2025-10-06T2000,2540A,103.8416,30.0874,眉山市,气象局,,18,18,22,3,7,46,,55,55,11,13,11,12,0.4,0.4
2025-10-06T2000,3137A,103.8578,30.0744,眉山市,市委党校,,12,7,12,3,4,37,,48,48,14,14,7,7,0.7,0.7
2025-10-06T2000,3148A,103.8291,30.0564,眉山市,区人社局,,27,27,28,3,4,32,,49,48,16,12,10,10,0.8,0.7
2025-10-06T2000,1690A,116.1231,24.3284,梅州市,梅江月梅,,13,11,17,9,7,21,,49,43,10,9,9,8,0.5,0.5
2025-10-06T2000,1691A,116.0797,24.2719,梅州市,梅县新城,,28,28,18,6,10,20,,54,49,11,8,7,7,0.6,0.5
2025-10-06T2000,1692A,116.1248,24.2654,梅州市,环境监控中心,,18,18,16,9,9,13,,48,41,18,9,4,12,0.6,0.4
2025-10-06T2000,3315A,116.1233,24.2991,梅州市,梅龙,,19,14,15,13,8,20,,44,40,13,7,15,9,0.7,0.6
2025-10-06T2000,1878A,104.7778,31.4741,绵阳市,富乐山,,10,8,11,3,7,29,,50,46,7,6,3,2,0.7,0.8
2025-10-06T2000,1880A,104.6697,31.4668,绵阳市,高新区自来水公司,,11,9,13,3,6,35,,42,42,14,12,8,8,0.6,0.7
2025-10-06T2000,1881A,104.7287,31.5075,绵阳市,三水厂,,15,15,14,6,9,28,,49,46,16,9,13,12,0.7,0.8
2025-10-06T2000,3491A,104.69,31.5322,绵阳市,西科大附属小学,,13,8,16,3,8,39,,45,44,13,12,8,8,0.6,0.7
2025-10-06T2000,3492A,104.5648,31.5343,绵阳市,安州区旅游局,,,6,12,3,8,40,,38,38,10,10,1,7,,0.7
2025-10-06T2000,4226A,104.7651,31.4531,绵阳市,绵阳市气象局,,11,10,10,3,6,34,,48,44,10,7,9,9,0.3,0.3
2025-10-06T2000,1784A,129.61,44.561,牡丹江市,环保大楼,,23,22,23,16,12,46,,60,60,11,12,5,7,0.2,0.2
2025-10-06T2000,1785A,129.6115,44.5782,牡丹江市,文化广场,,47,47,29,24,15,27,,54,50,31,18,7,7,0.6,0.4
2025-10-06T2000,1786A,129.5904,44.5963,牡丹江市,第一医院,细颗粒物(PM2.5),60,56,33,43,27,22,,59,48,30,18,8,8,0.4,0.2
2025-10-06T2000,1787A,129.6364,44.6075,牡丹江市,机车工厂,,35,28,26,24,16,31,,58,52,16,13,35,17,0.3,0.2
2025-10-06T2000,1788A,129.6386,44.5462,牡丹江市,第一中学,,29,22,24,20,14,37,,55,51,9,15,3,4,0.2,0.1
2025-10-06T2000,2531A,105.0703,29.61,内江市,市监测站,,25,,17,17,12,16,,22,21,9,7,2,2,0.7,0.7
2025-10-06T2000,2532A,105.0717,29.5947,内江市,东兴区政府,,12,11,13,8,7,22,,26,26,10,9,5,5,0.5,0.5
2025-10-06T2000,2533A,105.0653,29.5817,内江市,内江二中,,17,17,19,11,13,20,,24,24,12,10,2,2,0.6,0.6
2025-10-06T2000,2534A,105.0406,29.5822,内江市,内江日报社,,18,13,19,12,12,22,,30,29,15,10,4,4,0.6,0.6
2025-10-06T2000,2628A,92.0657,31.4846,那曲市,那曲监测站,,27,16,27,7,14,84,,99,98,14,14,6,5,0.3,0.4
2025-10-06T2000,4243A,92.0515,31.4787,那曲市,那曲市委宣传部,,30,22,14,8,8,94,,105,105,11,15,3,3,0.5,0.6
2025-10-06T2000,1290A,115.8931,28.6843,南昌市,省外办,,33,33,26,22,18,69,,82,79,13,19,4,5,0.7,0.6
2025-10-06T2000,1291A,115.8886,28.7003,南昌市,省林业公司,,48,48,26,24,10,58,,71,69,7,14,4,4,0.3,0.3
2025-10-06T2000,1292A,115.8126,28.7442,南昌市,林科所,,20,17,14,9,8,64,,77,75,15,17,8,10,0.2,0.2
2025-10-06T2000,1294A,115.8518,28.687,南昌市,建工学校,,32,32,30,17,16,73,,74,74,3,21,9,10,0.6,0.6
2025-10-06T2000,1295A,115.8921,28.6424,南昌市,象湖,,28,,24,19,5,58,,73,71,14,22,10,10,0.9,0.8
2025-10-06T2000,1296A,115.7423,28.7996,南昌市,武术学校,,27,27,14,7,11,47,,64,57,9,8,9,9,0.3,0.2
2025-10-06T2000,3046A,115.9084,28.6062,南昌市,机电学校,,42,42,33,22,15,52,,80,78,13,16,12,9,0.4,0.4
2025-10-06T2000,3690A,115.9721,28.7031,南昌市,外国语学校,,45,45,32,16,18,71,,78,78,10,19,10,8,0.2,0.3
2025-10-06T2000,4192A,115.9316,28.68677,南昌市,南京东路235号,,32,25,32,22,15,65,,76,75,14,18,6,6,0.7,0.8
2025-10-06T2000,1905A,106.056,30.8064,南充市,西山风景区,,,,,,,,,,,,,,,,
2025-10-06T2000,1906A,106.0789,30.8023,南充市,南充市委,,27,27,17,16,9,16,,30,29,19,9,4,4,0.6,0.5
2025-10-06T2000,1907A,106.1031,30.8217,南充市,南充炼油厂,,27,27,24,13,9,22,,32,32,14,7,6,5,0.3,0.3
2025-10-06T2000,4227A,106.1083,30.7884,南充市,梨树横街98号,,26,23,18,18,9,29,,34,34,11,8,5,4,0.4,0.4
2025-10-06T2000,4304A,106.1172,30.843,南充市,清泉寺北路188号,,20,20,18,14,10,26,,34,34,10,6,5,5,0.4,0.4
2025-10-06T2000,4305A,106.067,30.7616,南充市,同庆路1号,,,29,10,12,5,15,,31,30,24,9,,5,0.5,0.4
2025-10-06T2000,1151A,118.8086,32.1065,南京市,迈皋桥,,45,38,50,31,38,83,,121,111,2,7,4,4,0.5,0.6
2025-10-06T2000,1152A,118.7538,32.0551,南京市,草场门,,,46,59,29,40,91,,126,112,,19,3,5,0.8,0.9
2025-10-06T2000,1153A,118.7794,32.0745,南京市,山西路,颗粒物(PM10),51,51,58,29,31,97,,134,122,2,11,4,4,0.8,0.8
2025-10-06T2000,1154A,118.7752,32.0023,南京市,中华门,,49,46,47,34,36,102,,117,111,3,11,4,4,0.7,0.7
2025-10-06T2000,1155A,118.8109,32.0309,南京市,瑞金路,细颗粒物(PM2.5),55,53,50,39,38,102,,124,116,8,15,7,6,0.5,0.5
2025-10-06T2000,1156A,118.7997,32.0754,南京市,玄武湖,,48,48,53,22,28,86,,120,110,13,14,4,6,0.3,0.4
2025-10-06T2000,1157A,118.6414,32.0931,南京市,浦口,颗粒物(PM10),51,52,52,30,32,93,,118,108,8,13,6,8,0.7,0.8
2025-10-06T2000,1158A,118.7356,31.9996,南京市,奥体中心,细颗粒物(PM2.5),55,47,52,39,42,124,,144,133,10,21,5,6,0.7,0.7
2025-10-06T2000,1159A,118.9125,32.1028,南京市,仙林大学城,颗粒物(PM10),57,63,63,39,35,100,,140,128,13,16,8,10,0.9,1
2025-10-06T2000,3422A,118.8436,31.9198,南京市,江宁彩虹桥,颗粒物(PM10),66,81,52,46,37,112,,131,125,7,11,5,6,1.0,0.8
2025-10-06T2000,3427A,118.8554,32.3578,南京市,六合雄州,细颗粒物(PM2.5),57,61,58,40,42,84,,143,122,14,19,5,7,1.0,1.1
2025-10-06T2000,4249A,118.8708,31.3402,南京市,汶溪路181号,细颗粒物(PM2.5),72,,40,52,34,72,,112,101,17,15,7,6,0.7,0.7
2025-10-06T2000,4312A,119.019,31.6512,南京市,中山西路1号,,42,39,42,29,28,80,,112,102,16,17,4,4,0.8,0.8
2025-10-06T2000,1401A,108.3103,22.7881,南宁市,二十一中,,12,10,6,3,4,36,,40,40,4,4,4,4,0.5,0.5
2025-10-06T2000,1402A,108.3141,22.8528,南宁市,北湖,,23,23,14,3,5,42,,48,48,7,5,4,4,0.5,0.4
2025-10-06T2000,1403A,108.3206,22.8225,南宁市,市监测站,,13,11,9,7,7,40,,44,44,6,4,4,4,0.4,0.3
2025-10-06T2000,1404A,108.3829,22.8037,南宁市,大自然花园,,16,16,9,6,7,46,,50,50,3,3,4,4,0.6,0.5
2025-10-06T2000,1405A,108.4394,22.7904,南宁市,仙葫,,20,20,13,3,4,46,,51,50,3,3,4,4,0.4,0.3
2025-10-06T2000,1406A,108.2397,22.8467,南宁市,区农职院,,13,8,12,6,5,40,,43,43,7,5,2,2,0.4,0.4
2025-10-06T2000,1407A,108.3275,22.735,南宁市,英华嘉园,,14,14,15,8,6,43,,48,48,3,3,1,1,0.3,0.3
2025-10-06T2000,3401A,108.4834,22.7618,南宁市,红星社区,,14,14,10,3,4,41,,48,48,3,4,3,3,0.3,0.2
2025-10-06T2000,4221A,108.2177,22.7774,南宁市,乐贤路16号,,14,12,12,3,8,42,,46,44,8,6,5,5,0.3,0.2
2025-10-06T2000,2331A,118.0966,26.6761,南平市,茫荡山,,,,18,,12,,,78,,,,,2,,
2025-10-06T2000,2332A,118.1681,26.6369,南平市,南平市监测站,,19,19,22,13,16,47,,77,66,6,12,5,3,0.5,0.5
2025-10-06T2000,2333A,118.1825,26.6489,南平市,南平铝业有限公司,,20,20,25,9,15,53,,80,68,4,11,8,7,0.3,0.4
2025-10-06T2000,2334A,118.1756,26.6272,南平市,南平七中,,18,,22,12,15,52,,78,69,5,9,5,4,0.5,0.5
2025-10-06T2000,1168A,120.9098,31.9663,南通市,狼山街道,,40,35,32,25,22,128,,152,143,10,20,4,4,0.4,0.4
2025-10-06T2000,1169A,120.86,32.0005,南通市,虹桥,,43,43,39,29,28,129,,170,162,16,29,4,7,0.5,0.5
2025-10-06T2000,1170A,120.87,32.02,南通市,城中,,45,45,42,25,24,122,,165,157,11,24,6,8,0.8,0.7
2025-10-06T2000,1171A,120.94,31.93,南通市,星湖花园,,38,31,29,21,22,121,,157,144,10,26,4,5,0.7,0.7
2025-10-06T2000,1172A,120.81,32.0417,南通市,紫琅学院,,46,39,36,32,22,119,,150,142,10,30,5,5,0.9,0.9
2025-10-06T2000,3291A,121.067,32.062,南通市,通州监测站,,41,36,28,27,20,129,,166,163,7,16,2,3,0.8,0.6
2025-10-06T2000,3432A,120.9348,31.9883,南通市,环境教育馆,,41,41,38,25,23,126,,161,157,8,21,4,5,0.4,0.4
2025-10-06T2000,2404A,112.5224,33.0122,南阳市,瓦房庄,,25,25,13,6,6,47,,50,50,9,6,8,7,0.6,0.7
2025-10-06T2000,2405A,112.5003,32.9735,南阳市,汉画馆,,29,29,16,17,7,46,,49,49,11,8,7,7,0.6,0.7
2025-10-06T2000,2406A,112.5573,33.027,南阳市,气象站,,25,20,8,17,5,46,,48,48,11,8,7,8,0.6,0.7
2025-10-06T2000,2407A,112.5481,32.9689,南阳市,理工学院,,29,29,15,6,7,44,,49,49,12,7,9,9,0.7,0.8
2025-10-06T2000,4008A,112.5234,32.9922,南阳市,卧龙区政府,,24,24,9,12,6,46,,48,48,11,8,6,6,0.7,0.7
2025-10-06T2000,1234A,121.8358,29.911,宁波市,区环保大楼,,34,34,28,16,12,81,,100,98,12,15,5,6,0.6,0.6
2025-10-06T2000,1235A,121.56,29.82,宁波市,万里学院,,32,30,24,22,16,95,,127,122,5,9,6,7,0.4,0.4
2025-10-06T2000,1236A,121.713,29.9572,宁波市,龙赛医院,颗粒物(PM10),51,51,33,14,9,70,,125,113,17,19,6,9,0.5,0.5
2025-10-06T2000,1239A,121.633,29.7733,宁波市,钱湖水厂,,29,29,22,15,12,88,,109,107,4,5,6,6,0.6,0.5
2025-10-06T2000,1240A,121.5856,29.8635,宁波市,太古小学,,30,30,28,16,12,86,,123,116,5,7,3,3,0.6,0.6
2025-10-06T2000,1241A,121.524,29.8674,宁波市,市环境监测中心,,39,39,28,22,12,79,,120,114,10,11,7,8,0.5,0.5
2025-10-06T2000,2871A,121.6147,29.9017,宁波市,万里国际学校,,32,32,23,17,13,93,,128,123,4,7,4,6,0.5,0.4
2025-10-06T2000,3710A,121.5594,29.8975,宁波市,白沙活动中心,,29,29,19,16,10,83,,131,123,9,10,4,6,0.6,0.5
2025-10-06T2000,2339A,119.5001,26.6946,宁德市,金涵水库,,,,,,17,,,35,,,5,,2,,0.5
2025-10-06T2000,2341A,119.5388,26.6612,宁德市,宁德市监测站,,27,,24,16,16,86,,116,114,6,10,4,4,0.4,0.6
2025-10-06T2000,3209A,119.5231,26.6562,宁德市,宁德一中,,33,,29,23,19,84,,113,110,5,8,6,7,0.3,0.5
2025-10-06T2000,2618A,98.8601,25.8567,怒江傈僳族自治州,州监测站,,34,34,23,23,13,40,,54,54,8,8,11,10,0.5,0.4
2025-10-06T2000,2619A,98.8546,25.8417,怒江傈僳族自治州,泸水一中,,24,24,17,10,12,23,,41,40,12,9,5,5,0.7,0.5
2025-10-06T2000,1888A,101.6891,26.571,攀枝花市,弄弄坪,,41,41,39,17,16,26,,78,74,30,20,16,13,1.8,1.1
2025-10-06T2000,1889A,101.5769,26.5928,攀枝花市,河门口,,41,41,28,19,15,48,,89,87,15,14,15,14,0.8,0.9
2025-10-06T2000,1890A,101.7169,26.585,攀枝花市,炳草岗,,26,26,38,13,17,48,,86,84,25,22,7,14,0.7,0.9
2025-10-06T2000,1891A,101.7369,26.5008,攀枝花市,仁和,,,58,21,35,12,32,,71,66,,11,10,13,,0.9
2025-10-06T2000,2835A,101.7227,26.567,攀枝花市,四十中小,,37,37,34,22,20,28,,85,80,40,17,8,19,1.8,1.3
2025-10-06T2000,1604A,122.0303,41.1489,盘锦市,开发区,,47,47,29,31,12,42,,52,51,26,14,10,8,0.5,0.3
2025-10-06T2000,1605A,122.0485,41.0883,盘锦市,兴隆台,颗粒物(PM10),53,55,33,23,10,37,,51,50,27,15,7,7,0.3,0.2
2025-10-06T2000,1606A,121.8297,41.1028,盘锦市,新生街道,,39,31,24,27,11,34,,53,50,26,18,8,7,0.4,0.2
2025-10-06T2000,1832A,113.3257,33.742,平顶山市,新华旅馆,,,,11,15,14,42,,44,44,,11,6,5,,0.6
2025-10-06T2000,1833A,113.2919,33.737,平顶山市,规划设计院,,16,16,24,11,10,43,,44,44,12,12,4,4,0.6,0.8
2025-10-06T2000,1834A,113.182,33.774,平顶山市,平顶山工学院,,16,13,13,7,8,51,,52,52,11,10,6,6,0.5,0.7
2025-10-06T2000,3204A,113.3025,33.73,平顶山市,规划局,,18,17,14,12,10,47,,48,48,10,10,6,5,0.5,0.7
2025-10-06T2000,3594A,112.8867,33.9116,平顶山市,石龙区,,22,22,12,14,12,42,,51,50,13,9,6,5,0.7,0.8
2025-10-06T2000,2656A,106.6692,35.5461,平凉市,聚贤嘉苑,,33,33,32,18,20,26,,55,52,26,13,11,9,0.7,0.6
2025-10-06T2000,2657A,106.7021,35.5307,平凉市,博物馆,,35,35,37,15,18,32,,56,53,26,12,8,9,0.7,0.7
2025-10-06T2000,2347A,114.0997,27.5002,萍乡市,武功山,,8,6,4,3,3,21,,38,32,5,4,15,14,0.4,0.4
2025-10-06T2000,2348A,113.8385,27.6434,萍乡市,中医院,,36,36,23,24,16,51,,90,84,21,15,5,7,0.9,0.8
2025-10-06T2000,2349A,113.8493,27.6253,萍乡市,市政府车库,,,31,20,22,17,56,,90,86,15,14,14,16,,0.7
2025-10-06T2000,2350A,113.8676,27.6435,萍乡市,市环保局,,27,27,24,16,17,77,,100,98,9,9,7,13,0.5,0.5
2025-10-06T2000,2351A,113.866,27.6198,萍乡市,安源区政府,,43,33,22,30,16,62,,87,84,13,11,13,15,0.7,0.6
2025-10-06T2000,2319A,119.0141,25.4325,莆田市,荔城区仓后路,,28,28,44,11,25,76,,125,111,9,10,9,8,0.6,0.6
2025-10-06T2000,2320A,119.0015,25.4553,莆田市,莆田市监测站,,21,12,38,12,24,65,,126,113,11,10,8,8,0.7,0.6
2025-10-06T2000,2321A,119.1119,25.4561,莆田市,涵江区六中,,28,28,36,14,23,77,,120,109,11,10,7,7,0.6,0.6
2025-10-06T2000,2322A,119.1013,25.3215,莆田市,秀屿区政府,,26,26,36,10,22,80,,118,106,8,10,10,8,0.6,0.5
2025-10-06T2000,2323A,118.981,25.4792,莆田市,东圳水库,,,,30,,19,,,86,,,6,,4,,0.3
2025-10-06T2000,2392A,115.0312,35.7636,濮阳市,环保局,,20,,8,14,7,44,,42,42,11,10,4,4,0.8,0.9
2025-10-06T2000,2394A,115.0574,35.7609,濮阳市,油田运输公司,,15,13,9,9,3,47,,46,46,12,12,7,7,0.7,0.8
2025-10-06T2000,3021A,115,35.7668,濮阳市,濮水河管理处,,15,,8,7,4,47,,42,42,11,11,8,7,0.6,0.7
2025-10-06T2000,4216A,115.0924,35.7686,濮阳市,任丘路479号,,18,15,12,12,5,42,,42,42,12,11,6,6,0.5,0.7
2025-10-06T2000,2601A,100.98,22.7633,普洱市,市环保局,,45,,28,31,19,21,,40,38,7,5,8,8,0.5,0.4
2025-10-06T2000,2602A,100.9817,22.8322,普洱市,普洱第二中学,,31,31,28,18,12,24,,36,35,5,6,7,7,0.4,0.3
2025-10-06T2000,2262A,131.0518,45.8751,七台河市,新一中,,39,39,17,3,7,41,,75,67,23,12,12,11,0.7,0.7
2025-10-06T2000,3345A,131.0577,45.7879,七台河市,中波台,,44,44,25,20,9,35,,55,49,28,26,6,6,0.6,0.6
2025-10-06T2000,3637A,131.0176,45.7761,七台河市,人民广场,颗粒物(PM10),56,62,28,22,15,35,,67,56,31,20,7,9,0.7,0.6
2025-10-06T2000,3684A,130.8781,45.8222,七台河市,新建矿广场,,32,,19,22,12,30,,58,50,20,14,13,9,0.5,0.4
2025-10-06T2000,1779A,123.9305,47.3636,齐齐哈尔市,安居小区,,34,34,29,18,10,53,,65,64,19,17,1,3,0.4,0.4
2025-10-06T2000,1780A,123.9488,47.3386,齐齐哈尔市,中心广场,,33,33,22,9,7,59,,71,70,15,13,4,4,0.2,0.2
2025-10-06T2000,1781A,123.9483,47.3227,齐齐哈尔市,农牧车辆厂,,31,31,32,12,6,59,,69,68,11,17,4,4,0.5,0.6
2025-10-06T2000,1783A,123.945,47.2988,齐齐哈尔市,市环境监测站,,22,22,25,9,9,62,,69,68,9,16,6,6,0.4,0.4
2025-10-06T2000,3662A,123.6333,47.2075,齐齐哈尔市,富区青少年活动中心,,30,30,33,7,8,50,,59,58,7,9,3,3,0.5,0.5
2025-10-06T2000,2591A,107.9783,26.5747,黔东南苗族侗族自治州,市环境监测站,,26,19,17,18,16,37,,58,55,11,10,3,3,0.5,0.4
2025-10-06T2000,2881A,107.8908,26.5311,黔东南苗族侗族自治州,凯里学院,,35,24,15,24,9,44,,55,54,9,9,3,3,0.4,0.4
2025-10-06T2000,2593A,107.5228,26.2403,黔南布依族苗族自治州,小围寨,,13,12,15,9,11,35,,46,44,3,5,3,2,0.4,0.4
2025-10-06T2000,3538A,107.5175,26.2978,黔南布依族苗族自治州,沙坝,,22,22,19,9,13,37,,42,41,6,8,3,3,0.5,0.5
2025-10-06T2000,2589A,104.9022,25.0925,黔西南布依族苗族自治州,场坝街,,23,,20,16,13,40,,46,45,5,9,6,14,0.3,0.4
2025-10-06T2000,2590A,104.8811,25.0992,黔西南布依族苗族自治州,坪东大道,,25,,25,17,14,43,,45,45,4,11,3,3,0.4,0.5
2025-10-06T2000,2502A,108.6236,21.9667,钦州市,市环保站,,,,6,2,1,53,,56,55,4,4,2,2,0.7,0.6
2025-10-06T2000,2503A,108.6549,21.9481,钦州市,沙埠小学,,20,20,11,6,4,55,,58,57,2,2,2,1,0.3,0.3
2025-10-06T2000,2504A,108.5989,21.7431,钦州市,港区一小,,16,14,19,6,6,49,,53,52,6,6,4,4,0.5,0.6
2025-10-06T2000,3404A,108.5959,21.9633,钦州市,北职校,,18,18,8,6,3,51,,54,53,2,2,3,3,0.5,0.5
2025-10-06T2000,1043A,119.7493,40.0116,秦皇岛市,第一关,,47,47,18,32,17,7,,69,48,68,18,6,5,0.5,0.3
2025-10-06T2000,1044A,119.5897,39.9499,秦皇岛市,监测站,颗粒物(PM10),69,88,29,30,8,7,,65,51,57,15,6,5,1.1,0.3
2025-10-06T2000,1046A,119.5251,39.9041,秦皇岛市,建设大厦,,49,49,25,17,10,10,,66,54,57,14,6,3,0.5,0.2
2025-10-06T2000,3132A,119.610547,39.943889,秦皇岛市,文明里,,47,47,17,17,8,21,,59,49,44,13,12,8,0.8,0.3
2025-10-06T2000,4198A,119.5090,39.8253,秦皇岛市,北戴河轮滑馆,颗粒物(PM10),52,54,27,21,9,20,,66,56,37,10,2,2,0.6,0.2
2025-10-06T2000,1307A,120.6659,36.2403,青岛市,仰口,,20,14,4,7,1,61,,84,68,8,5,11,11,0.9,0.8
2025-10-06T2000,1310A,120.4134,36.0658,青岛市,市南区东部子站,,18,12,5,9,2,56,,91,67,8,6,6,6,0.3,0.2
2025-10-06T2000,1311A,120.3664,36.1032,青岛市,四方区子站,,24,12,3,9,5,74,,100,86,5,5,2,2,0.4,0.3
2025-10-06T2000,1312A,120.2994,36.054,青岛市,市南区西部子站,,24,12,5,10,3,74,,97,78,8,7,6,6,0.6,0.5
2025-10-06T2000,1313A,120.4581,36.0858,青岛市,崂山区子站,,21,9,3,9,2,66,,102,77,10,8,8,8,0.4,0.3
2025-10-06T2000,1315A,120.3999,36.3083,青岛市,城阳区子站,,24,12,3,12,5,76,,92,84,4,4,3,3,0.5,0.5
2025-10-06T2000,3362A,120.5014,36.4034,青岛市,即墨2号,,22,13,3,7,2,68,,98,75,9,7,3,4,0.4,0.3
2025-10-06T2000,3642A,120.3503,36.0736,青岛市,市北区南部,,21,15,8,7,2,66,,94,72,13,13,6,8,0.5,0.4
2025-10-06T2000,3643A,120.3948,36.1805,青岛市,李沧区北部,,20,,2,14,7,63,,72,71,13,14,5,5,0.5,0.4
2025-10-06T2000,4290A,120.1969,35.9546,青岛市,珠江路669号,,20,,3,10,5,61,,90,75,18,10,8,8,0.6,0.4
2025-10-06T2000,4291A,120.0424,35.8656,青岛市,黄岛区人民政府广场,,20,17,4,12,1,61,,89,78,11,7,5,5,0.8,0.5
2025-10-06T2000,1702A,113.0426,23.691,清远市,环保大楼,,35,35,15,21,11,81,,82,82,13,9,10,9,0.8,0.6
2025-10-06T2000,1703A,113.0208,23.7106,清远市,凤城街办,,35,35,17,18,10,70,,77,77,18,11,14,11,0.7,0.5
2025-10-06T2000,3025A,113.0477,23.6344,清远市,技师学院,,32,32,20,17,8,77,,82,82,11,11,6,8,0.5,0.4
2025-10-06T2000,3318A,112.9903,23.7403,清远市,清新太和,,24,24,16,10,7,68,,79,79,11,9,7,8,0.6,0.5
2025-10-06T2000,3455A,113.076,23.7198,清远市,清城东城,,27,27,17,11,7,55,,73,73,9,8,8,9,0.8,0.6
2025-10-06T2000,2661A,107.6325,35.7357,庆阳市,庆阳五中,,15,12,20,10,12,46,,49,48,8,6,8,8,0.7,0.5
2025-10-06T2000,2662A,107.6364,35.7067,庆阳市,市环保局,,20,20,24,3,9,50,,55,52,9,8,3,3,0.8,0.7
2025-10-06T2000,1916A,103.7897,25.5035,曲靖市,环境监测站,,15,15,11,7,8,48,,59,57,5,6,4,6,0.2,0.2
2025-10-06T2000,1917A,103.8,25.5364,曲靖市,烟厂办公区,,15,9,14,7,9,48,,56,55,4,5,3,4,0.3,0.3
2025-10-06T2000,3376A,103.7947,25.462,曲靖市,南苑二区,,17,6,17,6,10,52,,61,60,4,8,3,5,0.3,0.4
2025-10-06T2000,3377A,103.7444,25.5261,曲靖市,曲靖师范学院,,16,14,17,3,11,49,,60,58,6,8,2,4,0.3,0.4
2025-10-06T2000,1264A,118.8692,28.9398,衢州市,环保大楼,,44,44,38,30,24,73,,96,88,18,14,6,6,0.6,0.6
2025-10-06T2000,1265A,118.8709,28.9666,衢州市,实验学校,,40,40,36,24,23,74,,108,97,17,17,6,5,0.5,0.5
2025-10-06T2000,1266A,118.8621,28.9808,衢州市,衢州学院,,34,34,35,22,24,65,,108,94,22,22,5,6,0.5,0.5
2025-10-06T2000,1611A,118.5819,24.9117,泉州市,涂山街,,46,,49,32,29,92,,150,138,10,18,2,5,0.5,0.5
2025-10-06T2000,1612A,118.5972,24.8978,泉州市,津头埔,,37,34,48,24,28,116,,148,139,10,17,4,6,0.6,0.6
2025-10-06T2000,1613A,118.6663,24.9424,泉州市,万安,,37,37,46,22,25,112,,140,131,7,18,2,4,0.5,0.5
2025-10-06T2000,1614A,118.6117,24.9604,泉州市,清源山,,,,27,,19,,,104,,,8,,4,,0.5
2025-10-06T2000,3529A,118.6333,24.9264,泉州市,城华南路,,33,24,40,23,26,105,,136,126,9,16,4,6,0.5,0.6
2025-10-06T2000,2626A,88.8876,29.2718,日喀则市,日喀则监测站,,,8,10,,1,97,,98,98,7,12,15,14,0.2,0.3
2025-10-06T2000,3726A,88.8781,29.2426,日喀则市,林业技术推广中心,,31,6,5,3,1,98,,99,99,3,3,6,6,0.3,0.3
2025-10-06T2000,1659A,119.471,35.4209,日照市,监测站,,25,,11,10,10,80,,80,80,13,15,6,6,0.8,0.6
2025-10-06T2000,1660A,119.523,35.4216,日照市,市政府广场,,,14,10,13,9,72,,77,77,9,9,3,3,,0.7
2025-10-06T2000,1661A,119.5587,35.4044,日照市,港务局,,23,,13,14,15,71,,76,76,8,10,2,3,0.8,0.7
2025-10-06T2000,3507A,119.5328,35.4625,日照市,职业技术学院,颗粒物(PM10),51,51,17,17,11,70,,76,76,8,9,4,4,1.0,0.8
2025-10-06T2000,3604A,119.3266,35.1044,日照市,岚山环保分局,,25,14,26,3,13,79,,82,82,12,22,7,10,0.9,1.4
2025-10-06T2000,1835A,111.1922,34.7752,三门峡市,市政府,,14,14,16,9,11,40,,36,36,15,19,6,7,1.3,1.2
2025-10-06T2000,1836A,111.1587,34.7942,三门峡市,开发区,,13,10,16,8,10,24,,39,36,26,17,4,5,1.3,1
2025-10-06T2000,1838A,111.143,34.7955,三门峡市,风景区,,14,6,12,6,9,25,,43,40,16,9,5,6,1.4,1.1
2025-10-06T2000,3039A,111.1911,34.7829,三门峡市,三门峡市第一小学,,14,8,16,7,10,34,,39,39,13,14,7,9,1.4,1.3
2025-10-06T2000,3598A,111.1,34.7167,三门峡市,富达温泉假日酒店,,17,17,17,7,14,33,,42,42,18,16,7,8,1.4,1
2025-10-06T2000,2324A,117.6211,26.2625,三明市,三钢,,45,,25,31,18,41,,80,68,14,13,3,5,0.6,1
2025-10-06T2000,2325A,117.635,26.2714,三明市,三明二中,,,14,27,,,46,,79,71,12,12,2,3,0.3,0.5
2025-10-06T2000,2326A,117.6028,26.2378,三明市,三元区政府,,32,32,22,3,12,39,,83,71,17,13,3,4,0.6,0.6
2025-10-06T2000,2327A,117.7275,26.3108,三明市,洋溪,,,,20,,13,,,52,,,10,,8,,1.3
2025-10-06T2000,1876A,109.5078,18.2489,三亚市,河东子站,,22,18,15,15,8,39,,44,44,7,6,2,2,0.6,0.6
2025-10-06T2000,1877A,109.4964,18.2681,三亚市,河西子站,,20,20,16,3,2,42,,47,47,4,4,5,5,0.6,0.6
2025-10-06T2000,3540A,109.7348,18.3443,三亚市,君悦子站,,23,23,14,9,5,48,,48,48,6,5,3,3,0.6,0.5
2025-10-06T2000,2624A,91.7608,29.2313,山南市,山南监测站,,29,6,7,3,4,90,,87,87,3,7,6,6,0.3,0.3
2025-10-06T2000,2625A,91.7706,29.2436,山南市,山南人民医院,,30,6,7,3,4,93,,90,90,2,5,4,4,0.2,0.2
2025-10-06T2000,1674A,116.6794,23.3667,汕头市,金平子站,,13,6,16,3,6,41,,56,53,6,7,3,3,0.5,0.5
2025-10-06T2000,1675A,116.7244,23.3633,汕头市,龙湖子站,,14,9,16,3,6,42,,54,51,4,5,7,7,0.5,0.5
2025-10-06T2000,1676A,116.7258,23.2775,汕头市,濠江子站,,14,,18,3,9,42,,48,47,3,4,6,5,0.4,0.6
2025-10-06T2000,1677A,116.7519,23.4714,汕头市,澄海子站,,12,8,19,8,8,30,,56,50,6,7,4,4,0.6,0.5
2025-10-06T2000,1678A,116.6092,23.2539,汕头市,潮阳子站,,14,9,15,6,8,42,,43,42,7,9,5,5,0.4,0.6
2025-10-06T2000,3444A,116.454,23.2684,汕头市,潮南峡山,,30,30,15,17,8,41,,51,50,8,7,8,7,0.6,0.6
2025-10-06T2000,3624A,116.4069,23.2533,汕头市,潮南子站,,19,19,21,9,8,39,,52,50,3,6,4,5,0.5,0.5
2025-10-06T2000,1693A,115.3653,22.775,汕尾市,市环保局,,16,,20,11,10,35,,48,44,5,6,4,4,0.5,0.5
2025-10-06T2000,1694A,115.3706,22.7898,汕尾市,市政府,,11,10,15,3,9,33,,50,45,5,6,6,6,0.4,0.4
2025-10-06T2000,1695A,115.3622,22.7925,汕尾市,新城中学,,9,8,15,6,8,27,,50,44,8,6,6,6,0.6,0.5
2025-10-06T2000,2645A,109.9154,33.8715,商洛市,监测站,,13,13,8,6,4,33,,41,41,10,9,4,4,0.8,0.7
2025-10-06T2000,3045A,109.9643,33.8471,商洛市,商州区中学,,10,10,13,3,5,25,,42,40,19,16,3,3,0.7,0.6
2025-10-06T2000,2408A,115.6702,34.4285,商丘市,环境监测站,,22,21,16,15,12,31,,45,40,11,9,1,2,0.4,0.5
2025-10-06T2000,2409A,115.6458,34.4045,商丘市,粮食局,,,,14,,7,30,,42,38,9,10,3,3,,0.7
2025-10-06T2000,2410A,115.6293,34.3948,商丘市,睢阳区环保局,,25,20,17,17,13,31,,43,39,11,8,3,3,0.5,0.5
2025-10-06T2000,3171A,115.6071,34.4465,商丘市,梁园区档案局,,22,,12,15,11,31,,40,37,12,8,3,3,0.6,0.6
2025-10-06T2000,1141A,121.4,31.238,上海市,普陀,,,40,29,26,16,92,,142,137,,20,6,6,0.5,0.4
2025-10-06T2000,1142A,121.478,31.2036,上海市,十五厂,,37,37,33,25,18,89,,141,134,23,25,7,7,0.7,0.6
2025-10-06T2000,1143A,121.467,31.3008,上海市,虹口,,40,40,30,26,17,95,,141,136,22,18,8,8,0.7,0.7
2025-10-06T2000,1147A,121.425,31.2261,上海市,静安监测站,,45,45,32,24,16,94,,149,143,24,22,4,5,0.8,0.7
2025-10-06T2000,1148A,121.703,31.1907,上海市,浦东川沙,,43,43,38,25,16,71,,123,118,20,25,10,10,0.4,0.5
2025-10-06T2000,1149A,121.533,31.2284,上海市,浦东新区监测站,,31,31,31,19,17,95,,125,123,13,15,6,6,0.6,0.4
2025-10-06T2000,1150A,121.577,31.2071,上海市,浦东张江,,47,47,34,16,12,107,,139,136,19,17,7,7,0.5,0.5
2025-10-06T2000,3265A,121.4316,31.3322,上海市,宝山庙行,,41,41,34,24,18,101,,140,136,21,21,6,6,0.5,0.5
2025-10-06T2000,3266A,121.8791,31.4662,上海市,崇明上实东滩,,38,38,13,14,9,43,,84,81,33,27,6,6,0.3,0.4
2025-10-06T2000,3268A,121.3162,31.2838,上海市,嘉定南翔,,45,45,31,31,19,92,,136,131,29,28,5,5,0.4,0.3
2025-10-06T2000,3269A,121.3359,30.7456,上海市,金山新城,,37,26,22,18,16,117,,146,144,4,10,6,6,0.8,0.9
2025-10-06T2000,3270A,121.4996,31.0739,上海市,闵行浦江,,25,25,27,17,14,71,,129,124,11,16,5,5,0.6,1.1
2025-10-06T2000,3271A,121.2886,31.1663,上海市,青浦徐泾,,30,27,28,19,16,95,,147,140,15,16,8,8,0.6,0.5
2025-10-06T2000,3272A,121.2186,31.0378,上海市,松江图书馆,,34,32,27,23,16,106,,147,143,21,20,5,5,0.4,0.3
2025-10-06T2000,3273A,121.3902,31.2059,上海市,长宁仙霞,,29,29,30,19,15,91,,130,125,14,17,5,5,0.6,0.6
2025-10-06T2000,3274A,121.7965,31.0507,上海市,浦东惠南,,36,36,22,18,13,47,,131,123,16,19,7,8,0.8,0.9
2025-10-06T2000,3544A,121.4891,30.925,上海市,奉贤南桥新城,,35,35,24,19,12,72,,128,124,16,14,6,6,0.6,0.6
2025-10-06T2000,4183A,121.4174,31.16637,上海市,冠生园路458号,,29,22,27,19,17,92,,126,123,15,22,4,4,0.8,0.7
2025-10-06T2000,4205A,121.5419,31.2683,上海市,宁武路151号,,38,38,38,14,15,91,,117,114,26,28,5,5,0.7,0.6
2025-10-06T2000,2381A,118.005,28.4572,上饶市,百草园,,,,,,,,,,,,,,,,
2025-10-06T2000,2382A,117.9756,28.4436,上饶市,市监测站,,38,38,37,20,23,83,,124,114,10,14,6,14,0.4,0.4
2025-10-06T2000,2383A,117.9519,28.4628,上饶市,凤凰光学,,36,34,39,25,23,70,,119,105,4,13,14,18,0.3,0.4
2025-10-06T2000,3685A,117.897,28.4315,上饶市,双创科技城,,35,31,36,24,24,75,,116,105,14,19,8,15,0.4,0.5
2025-10-06T2000,4211A,118.1904,28.4448,上饶市,裕丰大道,,38,34,30,26,16,70,,90,84,10,9,16,15,0.4,0.4
2025-10-06T2000,1669A,113.5824,24.7733,韶关市,市八中,,26,26,14,15,7,33,,56,50,8,8,18,10,0.4,0.5
