timepoint,stationcode,longitude,latitude,area,positionname,primarypollutant,aqi,pm10,pm10_24h,pm2_5,pm2_5_24h,o3,o3_24h,o3_8h,o3_8h_24h,no2,no2_24h,so2,so2_24h,co,co_24h
2025-10-06T1500,2566A,102.1879,31.914,阿坝藏族羌族自治州,州农科所,,15,7,19,3,8,48,,34,34,3,5,2,2,0.3,0.4
2025-10-06T1500,2568A,102.2502,31.8896,阿坝藏族羌族自治州,马师校,,13,13,21,9,13,34,,21,21,2,7,5,5,0.7,0.7
2025-10-06T1500,3994A,102.2165,31.9024,阿坝藏族羌族自治州,马尔康中学西区,,15,8,14,8,12,46,,26,26,1,5,4,4,0.5,0.5
2025-10-06T1500,2695A,80.292,41.1694,阿克苏地区,电视台,颗粒物(PM10),134,217,448,65,130,87,,47,47,5,23,5,11,0.3,0.5
2025-10-06T1500,2696A,80.2613,41.1551,阿克苏地区,艺术中心,颗粒物(PM10),118,185,411,65,135,84,,43,43,3,27,4,4,0.2,0.5
2025-10-06T1500,2204A,105.6467,38.8363,阿拉善盟,西城区西花园,,33,18,24,16,16,104,,82,82,8,15,8,8,0.3,0.4
2025-10-06T1500,2205A,105.6985,38.8411,阿拉善盟,蒙二幼,,32,27,29,13,14,102,,78,78,4,6,8,7,0.6,0.6
2025-10-06T1500,2206A,105.724,38.8516,阿拉善盟,环保局新楼,,30,28,30,15,15,93,,78,78,5,6,9,8,0.5,0.5
2025-10-06T1500,2708A,88.1264,47.8517,阿勒泰地区,市站,,19,15,15,10,5,58,,54,53,10,9,6,4,0.2,0.2
2025-10-06T1500,2630A,80.1161,32.5,阿里地区,阿里监测站,,35,,3,3,3,110,,114,110,1,1,9,9,0.2,0.2
2025-10-06T1500,3192A,80.0903,32.5028,阿里地区,阿里藏医院,,36,9,14,3,3,114,,117,112,1,2,8,7,0.2,0.2
2025-10-06T1500,2642A,109.0318,32.6537,安康市,香溪洞,,12,11,8,7,4,36,,22,22,4,6,7,7,0.4,0.3
2025-10-06T1500,2644A,109.0072,32.6975,安康市,汉滨区检察院,,15,10,15,10,8,30,,10,10,7,13,5,5,0.5,0.6
2025-10-06T1500,4054A,109.0325,32.6913,安康市,市邮政管理局,,11,10,16,7,8,34,,15,15,7,17,6,6,0.7,0.8
2025-10-06T1500,2291A,117.0809,30.5177,安庆市,环科院,,35,27,56,15,40,109,,76,76,4,38,7,7,0.5,0.9
2025-10-06T1500,2292A,117.0331,30.5119,安庆市,马山宾馆,,33,24,51,12,37,104,,82,82,13,39,6,5,0.4,0.9
2025-10-06T1500,2294A,116.9896,30.6145,安庆市,安庆大学,,31,14,53,12,34,99,,87,87,4,17,6,5,0.3,0.6
2025-10-06T1500,3173A,117.0598,30.5351,安庆市,市人大,,35,24,56,12,40,110,,90,90,1,23,8,8,0.4,0.8
2025-10-06T1500,3122A,105.9606,26.2611,安顺市,伍家关,,47,47,42,25,20,57,,49,49,6,8,10,9,0.4,0.4
2025-10-06T1500,3123A,105.9408,26.2431,安顺市,凤凰山,细颗粒物(PM2.5),52,38,33,36,33,58,,51,51,6,9,8,8,0.6,0.6
2025-10-06T1500,3124A,105.9439,26.2564,安顺市,金钟山,细颗粒物(PM2.5),55,,23,39,19,64,,59,59,4,4,11,10,0.6,0.6
2025-10-06T1500,3125A,105.8983,26.2481,安顺市,娄家坡,细颗粒物(PM2.5),53,,18,37,17,53,,51,51,6,4,10,10,0.5,0.5
2025-10-06T1500,1819A,114.3551,36.1017,安阳市,红庙街,,17,10,9,3,4,54,,51,46,11,9,1,1,0.4,0.4
2025-10-06T1500,1820A,114.361,36.0681,安阳市,银杏小区,,19,6,9,3,6,60,,56,50,12,11,2,1,0.4,0.5
2025-10-06T1500,3141A,114.3922,36.0878,安阳市,信访局,,19,6,8,3,3,58,,56,48,10,7,3,3,0.5,0.6
2025-10-06T1500,3669A,114.4705,36.0637,安阳市,左辅环卫站,,21,10,13,3,5,66,,60,56,15,14,1,2,0.3,0.4
2025-10-06T1500,3703A,114.2917,36.0949,安阳市,安钢职工学校,,19,8,14,3,7,58,,48,48,9,18,4,5,0.7,1.1
2025-10-06T1500,1748A,123.044,41.1196,鞍山市,深沟寺,,45,45,35,27,16,17,,24,16,34,26,8,9,0.9,0.5
2025-10-06T1500,1749A,123.011,41.0931,鞍山市,太阳城,,42,40,33,29,15,18,,28,18,25,20,8,9,0.9,0.5
2025-10-06T1500,1750A,123.0485,41.1442,鞍山市,太平,颗粒物(PM10),56,61,47,33,17,23,,24,23,32,26,10,12,1.0,0.6
2025-10-06T1500,1751A,122.9642,41.0971,鞍山市,铁西三道街,颗粒物(PM10),52,54,59,28,21,22,,20,20,36,40,15,27,1.4,1.8
2025-10-06T1500,1753A,123.022,41.0821,鞍山市,明达新区,,47,47,34,30,13,19,,29,18,30,20,14,12,1.0,0.7
2025-10-06T1500,4201A,122.9446,41.0826,鞍山市,兴盛南路290号,颗粒物(PM10),57,63,68,33,23,21,,18,18,42,48,21,38,1.5,2
2025-10-06T1500,2195A,107.4212,40.761,巴彦淖尔市,附二中,,50,50,56,16,21,115,,76,76,5,12,10,11,0.3,0.4
2025-10-06T1500,2196A,107.37,40.7372,巴彦淖尔市,市环保大楼,,47,47,53,23,20,107,,70,70,5,14,10,11,0.3,0.3
2025-10-06T1500,1956A,86.1472,41.7538,巴音郭楞蒙古自治州,孔雀公园,,33,33,96,8,27,96,,90,82,6,17,7,7,0.3,0.4
2025-10-06T1500,1957A,86.1972,41.7166,巴音郭楞蒙古自治州,棉纺厂,,35,35,112,6,24,102,,85,82,2,17,5,5,0.2,0.3
2025-10-06T1500,1958A,86.2357,41.7173,巴音郭楞蒙古自治州,经济开发区,,32,32,88,9,20,94,,82,81,2,10,6,6,0.2,0.2
2025-10-06T1500,2914A,106.7677,31.8794,巴中市,苏山坪,,19,18,14,13,10,36,,14,14,4,4,5,4,0.7,0.6
2025-10-06T1500,3181A,106.7768,31.8526,巴中市,市五中,,20,20,13,10,6,41,,16,16,12,15,8,7,0.8,0.9
2025-10-06T1500,3183A,106.7418,31.8654,巴中市,圣泉水务公司,,16,13,8,11,6,39,,18,18,5,9,7,7,0.6,0.7
2025-10-06T1500,3616A,106.7616,31.8344,巴中市,市中心医院,,16,14,11,11,8,40,,16,16,8,13,8,9,0.7,0.7
2025-10-06T1500,2235A,122.7911,45.6077,白城市,洮北区环保局,,25,,26,10,20,77,,58,58,4,21,4,6,0.3,0.5
2025-10-06T1500,2236A,122.8738,45.5725,白城市,市环保局,,25,9,19,3,12,79,,59,59,2,22,4,4,0.3,0.4
2025-10-06T1500,2231A,126.4219,41.9171,白山市,喜丰,,29,29,32,8,7,30,,59,43,14,8,7,6,0.5,0.4
2025-10-06T1500,2232A,126.4077,41.9419,白山市,环保局,,18,18,21,12,13,31,,44,37,16,13,9,7,0.5,0.4
2025-10-06T1500,2647A,104.1724,36.5446,白银市,第三小学,细颗粒物(PM2.5),80,61,46,59,38,82,,59,59,16,17,55,13,0.7,0.7
2025-10-06T1500,2648A,104.1465,36.5482,白银市,动力公司,细颗粒物(PM2.5),107,,40,80,31,97,,64,64,16,14,51,10,0.8,0.6
2025-10-06T1500,2512A,106.6103,23.9011,百色市,市监测站,,12,,22,3,13,38,,34,34,5,8,6,7,0.3,0.4
2025-10-06T1500,2513A,106.6538,23.8859,百色市,市中心血站,,31,31,35,3,17,39,,32,32,9,20,3,6,0.4,0.6
2025-10-06T1500,3406A,106.6085,23.8798,百色市,祈福高中,,13,13,34,6,17,34,,28,28,7,14,4,8,0.5,0.6
2025-10-06T1500,2270A,117.396,32.939,蚌埠市,工人疗养院,颗粒物(PM10),64,77,75,35,40,115,,84,84,4,13,5,5,0.7,0.7
2025-10-06T1500,2271A,117.3605,32.9427,蚌埠市,百货大楼,颗粒物(PM10),63,75,64,39,41,112,,78,78,6,20,7,7,0.9,0.9
2025-10-06T1500,2273A,117.4185,32.8911,蚌埠市,蚌埠学院,,,73,66,,49,120,,89,89,4,17,,6,0.7,0.7
2025-10-06T1500,2274A,117.3533,32.9673,蚌埠市,淮上区政府,颗粒物(PM10),64,78,71,41,45,121,,87,87,4,17,8,7,0.7,0.7
2025-10-06T1500,2275A,117.3145,32.8977,蚌埠市,高新区,颗粒物(PM10),62,73,67,37,44,114,,80,80,7,21,8,10,0.9,0.9
2025-10-06T1500,3715A,117.3092,32.9314,蚌埠市,蚌埠田家炳中学,颗粒物(PM10),63,76,73,38,44,120,,83,83,6,23,5,5,0.8,0.8
2025-10-06T1500,1585A,109.8756,40.6532,包头市,市环境监测站,颗粒物(PM10),53,56,66,24,16,123,,79,79,15,30,33,13,1.2,0.9
2025-10-06T1500,1587A,109.9991,40.5842,包头市,包头八中,,46,46,71,14,24,106,,61,61,10,29,9,12,0.4,0.7
2025-10-06T1500,1588A,109.8538,40.6821,包头市,青山宾馆,,,56,57,33,23,126,,73,73,17,34,36,13,,0.7
2025-10-06T1500,1589A,109.8642,40.6288,包头市,惠龙物流,颗粒物(PM10),53,55,58,24,21,113,,70,70,10,25,25,18,0.8,0.9
2025-10-06T1500,1590A,110.0377,40.5546,包头市,东河鸿龙湾,,35,35,50,10,16,109,,62,62,9,25,13,12,0.6,0.6
2025-10-06T1500,3283A,109.9154,40.5685,包头市,滨河大厦,,40,40,47,3,18,111,,65,65,4,21,8,9,0.4,0.5
2025-10-06T1500,3419A,109.9447,40.6261,包头市,包头市委党校,,35,33,58,12,17,111,,69,69,8,27,11,12,0.5,0.7
2025-10-06T1500,3683A,109.8331,40.6576,包头市,昆区政府,颗粒物(PM10),55,60,61,34,25,114,,78,78,14,29,29,21,1.0,0.8
2025-10-06T1500,1930A,107.185,34.3063,宝鸡市,庙沟村,,19,7,20,6,8,58,,75,63,10,9,5,5,0.4,0.3
2025-10-06T1500,1931A,107.0708,34.3017,宝鸡市,竹园沟,,18,,19,6,10,56,,59,54,5,5,8,8,0.6,0.5
2025-10-06T1500,1932A,107.1906,34.3672,宝鸡市,三陆医院,,14,10,29,6,13,42,,48,41,25,25,6,6,0.6,0.6
2025-10-06T1500,1933A,107.1431,34.3547,宝鸡市,监测站,,16,15,28,8,13,50,,59,50,8,8,5,4,0.7,0.6
2025-10-06T1500,1934A,107.1186,34.3739,宝鸡市,技工学校,,17,13,30,6,17,53,,57,53,13,12,6,6,0.6,0.6
2025-10-06T1500,1936A,107.2058,34.3497,宝鸡市,文理学院,,16,10,29,8,13,51,,60,52,12,13,5,5,0.5,0.5
2025-10-06T1500,1937A,107.2386,34.3622,宝鸡市,三迪小学,,17,12,28,9,16,54,,59,52,11,14,5,5,0.6,0.6
2025-10-06T1500,4308A,107.3898,34.3601,宝鸡市,陈仓区北开路21号,,15,,21,6,13,47,,60,50,13,12,7,7,0.5,0.5
2025-10-06T1500,1051A,115.493,38.8632,保定市,游泳馆,,24,24,23,16,15,69,,54,54,8,9,3,4,0.2,0.3
2025-10-06T1500,1052A,115.5213,38.8959,保定市,华电二区,,29,,27,20,18,65,,50,50,10,13,3,3,0.4,0.5
2025-10-06T1500,1053A,115.4713,38.9108,保定市,接待中心,,26,26,30,11,15,58,,44,44,8,8,2,2,0.4,0.5
2025-10-06T1500,1054A,115.4612,38.8416,保定市,地表水厂,,22,20,18,7,9,68,,52,49,14,14,7,6,0.3,0.4
2025-10-06T1500,3581A,115.31981,38.95208,保定市,满城区生态环境分局,,27,27,21,9,11,74,,55,55,8,8,2,1,0.3,0.4
2025-10-06T1500,3582A,115.47694,38.76408,保定市,清苑区第二中学,,24,21,24,16,13,74,,59,54,12,13,1,3,0.3,0.4
2025-10-06T1500,3583A,115.62909,39.02311,保定市,徐水物探局,,24,24,22,16,19,71,,48,48,9,12,5,4,0.4,0.5
2025-10-06T1500,4004A,115.4202,38.8656,保定市,双鹰农机,,23,23,18,16,19,72,,53,53,9,11,4,3,0.2,0.2
2025-10-06T1500,4034A,115.5150,38.8590,保定市,植保所站,,32,32,34,15,19,65,,53,52,10,12,3,3,0.4,0.4
2025-10-06T1500,2594A,99.1678,25.1081,保山市,市环境监测站,,25,,14,17,15,62,,40,40,5,6,8,7,0.3,0.3
2025-10-06T1500,2595A,99.1711,25.1328,保山市,市环保局,,22,17,16,6,8,70,,46,46,4,4,9,8,0.5,0.5
2025-10-06T1500,1868A,109.0981,21.4661,北海市,新市环保局,,,22,21,3,9,54,,57,57,5,4,,5,0.4,0.4
2025-10-06T1500,1869A,109.1778,21.5233,北海市,北海工业园,,20,20,18,7,10,59,,57,57,3,3,3,3,0.3,0.2
2025-10-06T1500,3400A,109.1911,21.4415,北海市,龙潭自来水厂,,18,18,21,9,7,53,,57,56,3,3,4,3,0.5,0.4
2025-10-06T1500,1001A,116.3621,39.8784,北京市,万寿西宫,,24,13,22,6,11,76,,59,59,11,14,3,3,0.4,0.6
2025-10-06T1500,1002A,116.2202,40.2915,北京市,定陵,,22,20,18,10,11,68,,48,48,6,4,6,6,0.3,0.4
2025-10-06T1500,1003A,116.4174,39.9289,北京市,东四,,25,13,23,6,11,78,,60,60,9,11,2,5,0.2,0.5
2025-10-06T1500,1004A,116.4072,39.8863,北京市,天坛,,24,13,20,6,10,75,,57,57,10,12,4,4,0.4,0.6
2025-10-06T1500,1005A,116.462,39.9365,北京市,农展馆,,22,11,22,3,11,70,,52,52,10,14,4,4,0.5,0.7
2025-10-06T1500,1006A,116.3392,39.9295,北京市,官园,,24,14,24,7,11,74,,53,53,10,15,3,5,0.3,0.6
2025-10-06T1500,1007A,116.2878,39.9611,北京市,海淀万柳,,19,19,25,10,13,56,,34,34,14,19,4,4,0.1,0.3
2025-10-06T1500,1008A,116.6636,40.135,北京市,顺义新城,,25,8,24,3,10,79,,59,59,4,18,6,6,0.0,0.3
2025-10-06T1500,1009A,116.6275,40.3275,北京市,怀柔镇,,23,9,24,3,13,71,,54,54,6,17,2,2,0.2,0.4
2025-10-06T1500,1010A,116.2296,40.217,北京市,昌平镇,,21,19,24,10,15,65,,39,39,12,16,3,3,0.3,0.4
2025-10-06T1500,1011A,116.3966,39.9821,北京市,奥体中心,,20,14,24,7,12,63,,47,47,11,16,4,3,0.4,0.5
2025-10-06T1500,3281A,115.9718,40.4529,北京市,延庆夏都,,23,13,22,7,12,73,,55,55,5,10,1,1,0.4,0.4
2025-10-06T1500,3418A,116.8336,40.4095,北京市,密云新城,,23,8,23,3,10,73,,57,57,1,8,4,4,0.4,0.5
2025-10-06T1500,3671A,116.088,39.9726,北京市,门头沟三家店,,20,16,24,8,13,64,,39,39,10,14,3,2,0.4,0.7
2025-10-06T1500,3672A,116.1541,39.8204,北京市,丰台云岗,,22,15,23,9,12,68,,38,38,11,13,4,3,0.3,0.5
2025-10-06T1500,3673A,116.6804,39.9081,北京市,通州东关,,22,11,31,3,12,70,,51,51,8,16,4,5,0.3,0.6
2025-10-06T1500,3674A,115.9577,39.7603,北京市,房山燕山,,22,22,23,14,15,48,,29,29,14,16,3,2,0.4,0.5
2025-10-06T1500,3675A,116.4672,39.7733,北京市,大兴旧宫,,25,9,21,3,9,77,,53,53,10,14,4,4,0.4,0.7
2025-10-06T1500,3694A,115.986,40.4563,北京市,延庆石河营,,24,15,24,7,13,74,,56,56,4,6,2,2,0.3,0.4
2025-10-06T1500,3695A,116.6151,40.3053,北京市,怀柔新城,,23,8,22,7,14,72,,53,53,4,14,4,4,0.3,0.5
2025-10-06T1500,3696A,116.2545,39.8768,北京市,丰台小屯,,22,15,24,9,12,69,,47,47,10,14,3,2,0.5,0.6
2025-10-06T1500,3697A,116.84,40.3844,北京市,密云镇,,24,10,25,3,10,75,,57,57,5,14,6,6,0.4,0.5
2025-10-06T1500,4182A,116.1942,39.9158,北京市,八角北路9号,,24,15,25,8,13,74,,43,43,10,18,2,1,0.2,0.4
2025-10-06T1500,4194A,117.0790,40.1518,北京市,洳河巡河路,,23,9,27,3,12,71,,51,51,3,15,3,2,0.4,0.6
2025-10-06T1500,1761A,123.8275,41.3064,本溪市,大峪,,26,26,20,6,6,28,,38,27,15,14,8,8,0.6,0.5
2025-10-06T1500,1762A,123.7567,41.3325,本溪市,溪湖,,25,25,23,11,8,24,,42,23,20,14,6,8,0.6,0.6
2025-10-06T1500,1763A,123.7169,41.3094,本溪市,彩屯,,32,32,31,14,10,18,,26,18,22,18,6,7,0.6,0.6
2025-10-06T1500,1764A,123.7669,41.2864,本溪市,东明,,24,24,31,15,7,24,,41,21,22,20,7,8,0.8,0.7
2025-10-06T1500,1765A,123.7992,41.2664,本溪市,新立屯,,20,20,23,13,9,26,,38,22,15,12,7,8,0.5,0.4
2025-10-06T1500,1766A,123.8142,41.3472,本溪市,威宁,,22,22,26,14,11,21,,27,19,17,17,5,6,0.5,0.4
2025-10-06T1500,2587A,105.2864,27.3125,毕节市,八中,,20,12,25,10,18,62,,51,51,6,8,11,14,0.4,0.5
2025-10-06T1500,2588A,105.31,27.2944,毕节市,师专,,20,17,22,10,14,63,,53,53,6,9,11,8,0.4,0.5
2025-10-06T1500,4263A,105.3688,27.3598,毕节市,工业大道,,23,14,21,7,14,72,,60,60,5,7,8,8,0.5,0.6
2025-10-06T1500,1629A,118.0018,37.3617,滨州市,第二水厂,,,12,4,7,7,47,,54,,8,6,4,4,,0.2
2025-10-06T1500,1630A,117.9776,37.393,滨州市,北中新校,,19,19,9,3,5,49,,53,48,10,9,7,6,0,0
2025-10-06T1500,3514A,117.9378,37.3956,滨州市,中海酒店,,17,17,5,7,6,47,,53,45,8,7,2,3,0.4,0.4
2025-10-06T1500,3515A,117.9378,37.3553,滨州市,开发区一中,,17,17,7,3,6,54,,60,53,10,10,4,4,0.4,0.5
2025-10-06T1500,3516A,118.0917,37.694,滨州市,金海六路,,27,27,7,3,1,59,,57,55,2,3,3,3,0.3,0.4
2025-10-06T1500,4028A,117.9956,37.3753,滨州市,滨州市西街道办事处,,17,,2,9,7,53,,57,51,10,9,3,3,0.4,0.4
2025-10-06T1500,2311A,115.8072,33.8399,亳州市,污水处理厂,,14,9,19,3,13,44,,45,45,6,7,4,4,0.4,0.6
2025-10-06T1500,2312A,115.7789,33.8518,亳州市,三国揽胜宫,,20,20,25,3,15,45,,48,48,5,5,4,4,0.5,0.6
2025-10-06T1500,3332A,115.7633,33.8034,亳州市,亳州学院,,17,,18,8,18,52,,51,51,4,4,4,4,0.5,0.7
2025-10-06T1500,2693A,82.0485,44.8556,博尔塔拉蒙古自治州,市党校,,30,30,36,15,19,54,,52,43,6,6,6,3,0.2,0.2
2025-10-06T1500,2694A,82.0806,44.8969,博尔塔拉蒙古自治州,市环保局,,44,44,49,10,15,55,,48,44,4,9,5,5,0.2,0.2
2025-10-06T1500,1071A,116.8842,38.2991,沧州市,沧县城建局,,34,34,20,11,11,60,,52,47,16,13,7,4,0.4,0.4
2025-10-06T1500,1072A,116.8584,38.3254,沧州市,电视转播站,,31,31,25,14,12,50,,46,39,15,12,5,3,0.5,0.5
2025-10-06T1500,1073A,116.8709,38.3228,沧州市,市环保局,,24,24,27,16,20,52,,45,,11,11,3,4,0.3,0.4
2025-10-06T1500,3324A,116.8136,38.3004,沧州市,河北水利电力学院,,24,24,9,3,10,62,,59,53,25,13,5,3,0.4,0.4
2025-10-06T1500,2622A,97.1806,31.1273,昌都市,昌都监测站,,19,16,19,3,9,58,,33,33,2,13,6,6,0.2,0.4
2025-10-06T1500,3719A,97.1714,31.1406,昌都市,昌都会议中心,,21,6,10,3,5,67,,41,41,1,4,4,4,0.2,0.2
2025-10-06T1500,2692A,87.2717,44.0297,昌吉回族自治州,新区政务中心,,24,24,16,3,6,52,,42,42,8,6,10,6,0.5,0.3
2025-10-06T1500,3613A,87.3095,44.0142,昌吉回族自治州,亚心广场,,34,34,20,3,2,55,,47,46,6,4,9,7,0.4,0.3
2025-10-06T1500,1120A,125.2863,43.9027,长春市,客车厂,,22,21,27,7,11,68,,51,51,13,17,6,6,0.3,0.2
2025-10-06T1500,1121A,125.2841,43.8463,长春市,邮电学院,,23,15,24,3,9,72,,52,52,7,13,6,6,0.3,0.3
2025-10-06T1500,1122A,125.3716,43.8772,长春市,劳动公园,,24,23,39,8,12,74,,52,52,10,19,10,8,0.4,0.4
2025-10-06T1500,1123A,125.3297,43.8805,长春市,园林处,,21,17,24,9,8,67,,51,51,18,22,5,3,0.3,0.3
2025-10-06T1500,1124A,125.4605,43.79,长春市,净月潭,,23,16,18,8,5,73,,58,58,6,9,7,5,0.2,0.2
2025-10-06T1500,1125A,125.7194,43.515,长春市,甩湾子,,24,16,24,7,13,75,,53,53,1,6,4,5,0.0,0.1
2025-10-06T1500,1126A,125.3863,43.8447,长春市,经开区环卫处,,23,18,27,6,9,72,,50,50,9,17,7,6,0.3,0.3
2025-10-06T1500,1127A,125.245,43.7783,长春市,高新区管委会,,23,20,23,7,9,73,,53,53,8,13,5,4,0.2,0.3
2025-10-06T1500,1128A,125.1761,43.8325,长春市,岱山公园,,25,25,28,7,8,68,,48,48,9,19,6,5,0.2,0.2
2025-10-06T1500,4281A,125.3346,43.9164,长春市,北亚泰大街1068号,,22,17,28,8,12,70,,50,50,9,13,10,8,0.2,0.2
2025-10-06T1500,1335A,113.0833,28.2325,长沙市,经开区环保局,,29,27,47,9,27,90,,73,73,2,15,6,6,0.3,0.5
2025-10-06T1500,1336A,112.8872,28.2189,长沙市,高开区环保局,,28,20,49,6,23,87,,69,69,1,15,8,8,0.3,0.5
2025-10-06T1500,1337A,113.0792,28.2053,长沙市,马坡岭,,29,20,49,7,27,92,,79,79,1,18,6,6,0.2,0.5
2025-10-06T1500,1338A,112.9394,28.19,长沙市,湖南师范大学,,27,22,40,6,19,84,,68,68,1,12,6,6,0.3,0.7
2025-10-06T1500,1339A,113.0178,28.1322,长沙市,雨花区环保局,,27,26,36,13,21,86,,67,67,3,16,8,8,0.5,0.7
2025-10-06T1500,1340A,112.9792,28.2597,长沙市,伍家岭,,30,21,62,11,41,93,,67,67,4,21,4,4,0.2,0.6
2025-10-06T1500,1341A,113.0014,28.1944,长沙市,火车新站,,30,30,51,9,31,87,,64,64,1,27,8,8,0.4,0.8
2025-10-06T1500,1342A,112.9844,28.1178,长沙市,天心区环保局,,28,20,39,6,20,89,,72,72,9,20,6,6,0.3,0.5
2025-10-06T1500,1343A,112.8908,28.1308,长沙市,湖南中医药大学,,25,22,52,7,32,80,,68,68,2,22,8,7,0.6,1
2025-10-06T1500,1344A,112.9581,28.3611,长沙市,沙坪,,36,18,26,13,18,115,,80,80,4,8,5,5,0.3,0.6
2025-10-06T1500,1727A,113.1147,36.1547,长治市,清华站,,17,6,6,3,2,53,,56,49,9,11,7,7,0.8,1
2025-10-06T1500,1730A,113.0886,36.2125,长治市,审计局,,18,,5,3,4,55,,56,50,9,11,5,5,0.6,0.8
2025-10-06T1500,1731A,113.0844,36.1856,长治市,长治八中,,18,7,8,3,9,56,,54,49,6,8,7,7,0.6,0.9
2025-10-06T1500,2845A,113.1569,36.1911,长治市,德盛苑,,20,6,6,3,1,63,,51,49,6,7,8,8,0.5,0.8
2025-10-06T1500,3568A,113.06,36.0464,长治市,向阳小学,,16,,21,11,9,46,,52,45,10,14,9,9,1.4,1.3
2025-10-06T1500,3569A,112.8792,36.3144,长治市,屯留一中,,13,9,15,6,12,39,,32,32,14,16,9,11,1.0,0.9
2025-10-06T1500,4189A,113.1131,36.19948,长治市,英华南巷50号,,17,6,8,3,4,53,,50,46,12,14,8,8,0.8,1
2025-10-06T1500,4190A,113.2367,36.3344,长治市,学府街1号,,17,6,7,3,2,54,,61,50,9,9,7,6,0.8,0.8
2025-10-06T1500,1854A,111.6975,28.9703,常德市,市二中,细颗粒物(PM2.5),62,67,74,44,56,130,,71,71,8,16,6,6,0.8,0.9
2025-10-06T1500,3138A,111.7153,29.0289,常德市,武陵区永安,颗粒物(PM10),57,64,73,36,52,121,,77,77,5,13,3,3,0.5,0.6
2025-10-06T1500,3139A,111.6892,28.9881,常德市,鼎城区玉霞,颗粒物(PM10),61,72,83,42,58,131,,69,69,5,18,6,6,0.8,0.9
2025-10-06T1500,3140A,111.6625,29.0531,常德市,武陵区长庚,细颗粒物(PM2.5),54,56,75,38,53,122,,66,66,3,9,3,3,0.6,0.8
2025-10-06T1500,1196A,119.9633,31.762,常州市,市监测站,,50,50,51,28,38,147,,122,122,5,22,10,8,0.7,0.9
2025-10-06T1500,1200A,119.9468,31.7069,常州市,武进监测站,,35,24,42,11,31,109,,111,111,2,17,9,10,0.6,0.8
2025-10-06T1500,1201A,119.9255,31.9087,常州市,安家,,40,34,68,17,43,125,,115,115,8,44,9,10,0.6,0.9
2025-10-06T1500,3002A,119.9805,31.8174,常州市,行政中心,,43,35,61,22,41,135,,121,121,7,26,4,3,0.6,0.9
2025-10-06T1500,3003A,120.0522,31.7748,常州市,经开区,,45,35,63,25,38,141,,119,119,7,27,9,10,0.9,1.3
2025-10-06T1500,3010A,119.9025,31.7964,常州市,钟楼,,39,30,51,18,36,124,,127,127,8,24,7,8,0.7,1
2025-10-06T1500,3429A,119.8598,31.7066,常州市,武进经发区,,34,25,52,16,29,108,,119,119,6,28,9,12,0.8,1
2025-10-06T1500,3430A,119.5826,31.7245,常州市,金坛城区,,36,27,45,19,35,113,,116,116,4,16,8,9,0.6,0.8
2025-10-06T1500,2220A,120.4318,41.5881,朝阳市,西梁,,25,10,11,3,5,80,,68,68,6,8,3,3,0.3,0.3
2025-10-06T1500,2221A,120.4521,41.5646,朝阳市,河畔小区,,25,7,21,6,5,80,,70,70,6,10,7,7,0.3,0.3
2025-10-06T1500,2222A,120.4176,41.5648,朝阳市,八里堡,,26,17,19,6,4,82,,70,70,8,10,6,7,0.4,0.4
2025-10-06T1500,2223A,120.3806,41.5969,朝阳市,农业园区,,26,10,13,6,5,82,,70,70,4,9,4,5,0.3,0.3
2025-10-06T1500,1705A,116.6367,23.6719,潮州市,西园路,,24,6,13,6,8,75,,49,49,3,6,4,4,0.1,0.1
2025-10-06T1500,3026A,116.6183,23.6608,潮州市,市政府,,26,18,19,7,8,81,,53,53,3,5,9,10,0.4,0.4
2025-10-06T1500,4036A,116.6461,23.6761,潮州市,金山,,,18,17,3,7,77,,45,45,,2,5,5,0.5,0.5
2025-10-06T1500,2472A,113.0073,25.9061,郴州市,马头岭,,15,11,17,3,7,45,,40,40,2,7,5,6,0.2,0.2
2025-10-06T1500,2473A,113.0116,25.8226,郴州市,市职中,,12,,13,6,8,37,,32,32,2,6,3,4,0.2,0.3
2025-10-06T1500,2475A,113.0383,25.8071,郴州市,市审计局,,13,6,11,3,6,39,,34,34,3,5,7,7,0.3,0.4
2025-10-06T1500,2476A,113.0348,25.7759,郴州市,市环保局,,18,18,14,3,6,42,,38,38,1,4,5,5,0.3,0.3
2025-10-06T1500,4252A,113.0138,25.8011,郴州市,好美居路49号,,15,11,10,3,5,45,,39,39,2,5,7,8,0.2,0.3
2025-10-06T1500,1431A,103.9728,30.7236,成都市,金泉两河,,,,24,3,7,59,,32,32,6,15,2,3,0.6,0.6
2025-10-06T1500,1432A,104.176,30.6872,成都市,十里店,,20,12,20,3,10,63,,51,51,7,11,3,3,0.6,0.8
2025-10-06T1500,1433A,104.079,30.5706,成都市,三瓦窑,,22,7,17,3,9,70,,56,56,9,14,4,4,0.5,0.6
2025-10-06T1500,1434A,104.1114,30.63,成都市,沙河铺,,18,11,24,3,8,57,,44,44,16,20,3,3,0.4,0.5
2025-10-06T1500,1437A,104.0786,30.6531,成都市,君平街,,21,19,25,3,12,66,,46,46,5,15,4,4,0.5,0.6
2025-10-06T1500,2880A,104.0239,30.65639,成都市,大石西路,,18,11,23,3,15,57,,39,39,13,18,2,2,0.5,0.6
2025-10-06T1500,3136A,104.2725,30.5589,成都市,龙泉驿区区政府,,20,6,12,3,5,62,,48,48,8,15,4,5,0.5,0.6
2025-10-06T1500,3357A,104.0106,30.6931,成都市,金博路,,18,6,17,3,8,57,,34,34,9,16,6,6,0.5,0.6
2025-10-06T1500,3359A,104.0578,30.5225,成都市,华阳,,22,,15,12,11,68,,52,52,8,14,4,4,0.4,0.5
2025-10-06T1500,3488A,104.3880,30.7467,成都市,青石路225号,,18,8,21,3,11,56,,45,45,6,15,4,5,0.6,0.7
2025-10-06T1500,3489A,104.0789,30.4072,成都市,科学城,,21,6,16,3,9,67,,46,46,8,14,4,5,0.5,0.6
2025-10-06T1500,4011A,103.8506,30.6947,成都市,光华大道三段,,21,21,28,3,18,49,,27,27,10,19,2,2,0.6,0.7
2025-10-06T1500,4224A,104.2433,30.5353,成都市,鲸龙路1057号,,20,6,16,3,12,62,,47,47,10,18,4,4,0.6,0.7
2025-10-06T1500,1062A,117.9531,40.9081,承德市,铁路,,25,,20,3,5,77,,48,48,5,12,2,2,0.2,0.2
2025-10-06T1500,1063A,117.9392,40.9763,承德市,中国银行,,26,11,19,3,5,81,,45,45,3,9,2,2,0.3,0.2
2025-10-06T1500,1064A,117.9503,40.928,承德市,开发区,,25,13,27,10,10,78,,48,48,5,9,1,1,0.2,0.2
2025-10-06T1500,1066A,117.9268,41.0026,承德市,离宫,,26,6,12,3,11,82,,44,44,3,8,2,2,0.3,0.2
2025-10-06T1500,4274A,117.7994,40.9605,承德市,滨河大街98号,,25,17,18,8,5,79,,52,52,2,5,1,2,0.3,0.2
2025-10-06T1500,2314A,117.47,30.6618,池州市,池州学院,,37,23,43,15,33,117,,92,92,6,15,9,8,0.6,1.1
2025-10-06T1500,3237A,117.4918,30.6617,池州市,展览馆,,36,22,43,16,30,114,,88,88,6,14,8,7,0.5,1
2025-10-06T1500,3333A,117.5627,30.695,池州市,第八中学,,33,18,50,12,36,104,,84,84,3,10,8,9,0.6,1
2025-10-06T1500,3334A,117.5038,30.6243,池州市,第十二中学,,36,20,42,14,31,113,,86,86,5,21,7,7,0.6,1.3
2025-10-06T1500,1744A,118.9233,42.2816,赤峰市,松山一中,,19,18,13,10,3,51,,45,45,31,15,38,10,1.9,0.5
2025-10-06T1500,1745A,118.9576,42.2728,赤峰市,哈达街,,25,25,14,7,6,57,,48,48,30,16,56,15,2.0,0.6
2025-10-06T1500,1746A,118.8788,42.2554,赤峰市,天义路,,19,14,14,13,7,56,,45,45,22,13,16,8,0.9,0.4
2025-10-06T1500,3058A,119.2658,42.0353,赤峰市,银河街,,20,18,17,9,8,64,,48,48,7,9,8,9,0.1,0.1
2025-10-06T1500,3286A,118.9359,42.3147,赤峰市,桥北物流园区,,22,15,12,15,6,57,,51,51,24,12,34,9,2.0,0.4
2025-10-06T1500,2521A,107.3476,22.4136,崇左市,市环保局江州分局,,15,8,13,3,6,48,,50,46,4,4,4,2,0.6,0.4
2025-10-06T1500,4256A,107.3750,22.3736,崇左市,石景林东路7号,,17,9,13,3,7,52,,54,50,4,5,4,4,0.4,0.4
2025-10-06T1500,2298A,118.3093,32.3153,滁州市,老年大学,,48,45,54,33,43,116,,95,95,2,8,6,5,0.4,0.6
2025-10-06T1500,2299A,118.3244,32.2786,滁州市,人大宾馆,,40,30,52,21,42,127,,113,113,12,18,5,6,0.4,0.8
2025-10-06T1500,3207A,118.3118,32.3038,滁州市,市政府原办公楼,细颗粒物(PM2.5),52,38,55,36,46,123,,102,102,2,13,6,6,0.5,0.7
2025-10-06T1500,3331A,118.3267,32.2634,滁州市,图书馆,,35,33,68,14,40,111,,103,103,2,9,7,7,0.5,0.8
2025-10-06T1500,2605A,101.5482,25.0441,楚雄彝族自治州,州环境监测站,,16,10,16,3,9,51,,34,34,2,7,7,8,0.5,0.6
2025-10-06T1500,2606A,101.538,25.0492,楚雄彝族自治州,市经济开发区,,17,6,16,3,11,53,,34,34,3,9,5,5,0.6,0.7
2025-10-06T1500,2548A,107.5277,31.2827,达州市,达州职业技术学院,,27,25,34,10,5,86,,46,46,4,9,6,14,0.4,0.3
2025-10-06T1500,2549A,107.5086,31.2186,达州市,市环境监测站,,30,23,29,7,7,95,,44,44,9,22,8,11,0.4,0.6
2025-10-06T1500,2550A,107.4988,31.2132,达州市,凤凰小区,,27,27,31,14,12,85,,45,45,18,21,7,10,0.4,0.6
2025-10-06T1500,2551A,107.5082,31.1986,达州市,达县机关宾馆,,31,27,31,3,5,98,,46,46,10,22,7,11,0.4,0.6
2025-10-06T1500,2552A,107.4644,31.2124,达州市,市政中心,,29,29,42,7,10,82,,39,39,9,22,8,9,0.3,0.5
2025-10-06T1500,2614A,100.1542,25.7054,大理白族自治州,大理市环境监测站,,17,6,13,6,12,52,,36,36,5,7,5,5,0.7,0.8
2025-10-06T1500,2615A,100.2171,25.5811,大理白族自治州,大理古城,,17,6,18,3,9,54,,44,44,2,8,6,6,0.6,0.7
2025-10-06T1500,1109A,121.612,38.9741,大连市,甘井子,颗粒物(PM10),52,53,50,34,21,21,,24,22,36,30,9,8,0.8,0.8
2025-10-06T1500,1110A,121.565,38.9511,大连市,周水子,,47,47,44,30,21,30,,29,29,29,27,8,6,0.8,0.6
2025-10-06T1500,1111A,121.5637,38.8845,大连市,星海三站,,48,48,43,33,23,35,,36,35,17,11,5,5,0.8,0.6
2025-10-06T1500,1112A,121.6302,38.9117,大连市,青泥洼桥,颗粒物(PM10),54,58,57,33,24,29,,34,32,31,25,9,10,0.9,0.8
2025-10-06T1500,1113A,121.6251,38.8638,大连市,傅家庄,,46,43,43,32,22,30,,35,34,31,26,12,12,1.1,1
2025-10-06T1500,1114A,121.5213,38.8661,大连市,七贤岭,,46,46,45,31,21,44,,44,44,21,17,5,5,0.9,0.8
2025-10-06T1500,1115A,121.2529,38.8061,大连市,旅顺,,29,28,29,20,17,44,,40,40,15,19,8,8,0.9,0.6
2025-10-06T1500,1116A,121.7485,39.1311,大连市,金州,颗粒物(PM10),51,52,40,34,23,23,,30,25,31,27,9,10,0.8,0.6
2025-10-06T1500,1117A,121.7811,39.0496,大连市,开发区,,32,32,45,18,22,42,,46,43,16,21,5,7,0.6,0.5
2025-10-06T1500,1118A,121.9762,39.0631,大连市,双D港,,28,26,51,19,22,41,,50,45,14,17,7,9,1.0,0.9
2025-10-06T1500,1789A,124.81117,46.03138,大庆市,大同区,,26,26,22,3,8,77,,60,60,7,13,8,8,0.5,0.5
2025-10-06T1500,1790A,125.129,46.533,大庆市,龙凤区,,22,21,28,9,14,68,,54,54,6,16,9,8,0.4,0.4
2025-10-06T1500,1791A,124.902,46.408,大庆市,红岗区,,25,20,28,11,14,77,,70,70,6,15,4,5,0.3,0.4
2025-10-06T1500,1792A,125.153,46.586,大庆市,萨尔图区,,25,25,25,7,8,67,,54,54,7,12,10,11,0.5,0.5
2025-10-06T1500,1793A,124.9042,46.6215,大庆市,让胡路区,,23,15,29,7,16,72,,56,56,8,28,7,6,0.3,0.7
2025-10-06T1500,3481A,125.141,46.634,大庆市,萨区政府监测点,,22,15,20,3,4,70,,61,61,3,6,7,8,0.5,0.5
2025-10-06T1500,1721A,113.3819,40.1097,大同市,果树场,,34,30,55,22,47,106,,70,70,8,21,5,5,0.5,0.6
2025-10-06T1500,1723A,113.2994,40.0758,大同市,云冈宾馆,,46,35,70,32,54,117,,79,79,12,20,5,6,0.9,1.1
2025-10-06T1500,1724A,113.3444,40.0917,大同市,大同大学,,46,,60,32,43,114,,80,80,15,19,8,8,0.5,0.7
2025-10-06T1500,1725A,113.2661,40.1269,大同市,安家小村,细颗粒物(PM2.5),55,,64,39,52,120,,82,82,12,20,5,4,0.8,0.8
2025-10-06T1500,1726A,113.2711,40.0844,大同市,教育学院,,44,44,72,30,48,116,,75,75,10,21,8,10,0.6,0.7
2025-10-06T1500,3282A,113.3397,40.0597,大同市,大同市卫生学校,,42,30,74,29,45,112,,76,76,9,21,5,6,0.8,1
2025-10-06T1500,3565A,113.1367,40.1122,大同市,云冈站,颗粒物(PM10),77,104,78,24,42,122,,80,80,9,15,6,6,0.7,0.9
2025-10-06T1500,3566A,113.1186,40.2556,大同市,图书馆,,38,38,71,23,42,107,,71,71,10,16,5,5,0.7,0.9
2025-10-06T1500,3567A,113.5931,40.0461,大同市,区一中,,36,32,72,23,47,115,,85,85,7,13,4,6,0.7,0.8
2025-10-06T1500,4199A,113.2798,40.0997,大同市,魏都大道141号,,43,,65,30,46,118,,76,76,12,24,4,5,0.8,0.9
2025-10-06T1500,2269A,124.1069,50.4097,大兴安岭地区,科技局,,30,30,19,17,13,66,,39,39,2,7,4,5,0.2,0.2
2025-10-06T1500,3663A,124.1164,50.4278,大兴安岭地区,红旗社区,,21,,16,3,9,66,,41,41,5,17,4,4,0.3,0.3
2025-10-06T1500,1600A,124.3303,40.0625,丹东市,江湾东路,,13,8,19,3,9,39,,55,41,13,13,7,6,0.6,0.6
2025-10-06T1500,1601A,124.4256,40.1503,丹东市,临江后街,,13,8,20,3,8,40,,49,39,8,12,7,7,0.5,0.5
2025-10-06T1500,1602A,124.3933,40.1461,丹东市,元宝山,,11,8,20,3,10,33,,45,36,9,8,7,7,0.7,0.7
2025-10-06T1500,1603A,124.3633,40.1092,丹东市,民主桥,,11,11,23,3,10,31,,50,33,19,17,4,4,0.5,0.6
2025-10-06T1500,3541A,109.5726,19.5167,儋州市,第一中学子站,,10,8,11,3,5,32,,36,35,2,2,6,6,0.7,0.6
2025-10-06T1500,3542A,109.5567,19.5187,儋州市,东坡学校子站,,12,,15,3,6,36,,42,41,3,3,7,7,0.3,0.3
2025-10-06T1500,2616A,98.5842,24.428,德宏傣族景颇族自治州,德宏州监测站,,21,13,21,6,11,65,,34,34,5,10,12,14,0.4,0.6
2025-10-06T1500,3677A,98.5881,24.4368,德宏傣族景颇族自治州,芒市人民政府综合楼,,20,20,29,3,11,57,,32,32,4,10,9,14,0.4,0.6
2025-10-06T1500,1901A,104.4239,31.1208,德阳市,东山公园,,16,6,15,6,12,51,,40,40,4,12,3,2,0.6,0.7
2025-10-06T1500,1902A,104.3826,31.1317,德阳市,西小区,,16,15,27,3,15,51,,39,39,8,16,3,3,0.0,0.2
2025-10-06T1500,1904A,104.3553,31.1091,德阳市,耐火材料厂,,17,6,24,3,14,54,,39,39,6,18,1,2,0.8,0.9
2025-10-06T1500,3639A,104.4019,31.1244,德阳市,市教育局,,16,7,21,6,12,50,,38,38,3,12,1,2,0.7,0.8
2025-10-06T1500,1622A,116.3032,37.4674,德州市,儿童乐园,,17,17,10,9,8,51,,61,51,16,15,8,8,0.6,0.6
2025-10-06T1500,1624A,116.2991,37.4451,德州市,监理站,,16,7,2,7,5,50,,60,50,19,16,12,11,0.6,0.6
2025-10-06T1500,3066A,116.2721,37.4379,德州市,九衢泉纯净水厂,,18,12,6,12,8,40,,54,42,20,14,10,9,0.5,0.5
2025-10-06T1500,3371A,116.3728,37.4403,德州市,开发区人民医院,,14,14,8,3,8,40,,53,39,25,19,11,10,0.7,0.6
2025-10-06T1500,3511A,116.5652,37.3319,德州市,陵城艺术中心,,41,41,10,19,7,41,,62,43,21,15,10,9,0.7,0.9
2025-10-06T1500,4292A,116.3525,37.4209,德州市,新河东路,,20,17,8,14,9,46,,61,46,20,14,8,8,0.8,0.8
2025-10-06T1500,2621A,99.7056,27.8317,迪庆藏族自治州,迪庆州站,,15,10,20,7,14,48,,34,34,3,7,7,7,0.4,0.5
2025-10-06T1500,3180A,99.7136,27.8094,迪庆藏族自治州,质量技术监督局,,16,12,19,6,8,51,,34,34,6,9,7,8,0.5,0.6
2025-10-06T1500,4257A,104.6092,35.5962,定西市,将台街,,32,17,27,11,18,100,,76,76,8,13,7,8,0.5,0.5
2025-10-06T1500,4309A,104.6159,35.5701,定西市,正龙路62号,,29,22,33,17,24,92,,75,75,4,7,5,5,0.3,0.4
2025-10-06T1500,1389A,113.7547,23.0494,东莞市,莞城梨川,细颗粒物(PM2.5),54,,15,38,15,69,,55,55,2,6,5,6,0.4,0.5
2025-10-06T1500,1390A,113.7944,23.0128,东莞市,东城石井,,22,6,15,3,5,70,,52,52,2,7,6,6,0.2,0.3
2025-10-06T1500,1391A,113.7383,22.9658,东莞市,南城西平,,24,,17,14,7,76,,51,51,5,9,4,4,0.3,0.4
2025-10-06T1500,3319A,113.7338,23.0381,东莞市,万江金泰,,21,8,18,6,8,67,,50,50,1,5,6,6,0.5,0.5
2025-10-06T1500,3626A,113.7533,23.0202,东莞市,南城元岭,,23,10,18,7,8,71,,52,52,5,9,4,4,0.3,0.4
2025-10-06T1500,3627A,113.7875,23.0457,东莞市,东城主山,,23,8,17,3,6,73,,54,54,3,8,2,2,0.3,0.4
2025-10-06T1500,1666A,118.6614,37.4309,东营市,市环保局,,20,9,4,3,2,61,,64,58,11,10,5,5,0.3,0.3
2025-10-06T1500,3036A,118.6904,37.4338,东营市,开发区管委会,,20,12,10,7,4,64,,65,59,10,9,5,5,0.2,0.2
2025-10-06T1500,3365A,118.5719,37.565,东营市,垦利区民丰路,,19,19,12,7,4,56,,59,56,11,9,5,6,0.5,0.5
2025-10-06T1500,3498A,118.5055,37.8612,东营市,河口城区,,29,29,14,3,1,66,,,,16,16,7,9,0.5,0.6
2025-10-06T1500,3646A,118.4978,37.4623,东营市,胜利站,,21,21,16,3,2,61,,63,60,19,16,6,6,0.4,0.5
2025-10-06T1500,3734A,118.35,37.26,东营市,理想之城,,17,12,7,3,4,54,,58,54,16,14,2,2,0.3,0.3
2025-10-06T1500,1591A,110.0023,39.8129,鄂尔多斯市,综合楼,,44,44,47,12,18,103,,76,76,11,26,8,9,0.5,0.7
2025-10-06T1500,1592A,109.9486,39.8261,鄂尔多斯市,巴音孟克林场办事处,颗粒物(PM10),54,58,56,24,18,105,,76,76,12,24,7,7,0.5,0.5
2025-10-06T1500,1593A,109.7736,39.5986,鄂尔多斯市,康泽苑,颗粒物(PM10),53,56,52,24,20,114,,70,70,10,15,10,8,0.5,0.5
2025-10-06T1500,1594A,109.8119,39.5989,鄂尔多斯市,华泰汽车城,颗粒物(PM10),53,56,49,24,21,111,,61,61,10,18,8,6,0.5,0.7
2025-10-06T1500,1595A,109.9734,39.7884,鄂尔多斯市,奥林花园,颗粒物(PM10),56,61,56,12,18,96,,72,72,12,24,7,6,0.5,0.7
2025-10-06T1500,2436A,114.8938,30.3994,鄂州市,市政府,,,17,62,7,39,99,,80,80,,29,8,9,0.6,0.9
2025-10-06T1500,2437A,114.8989,30.3714,鄂州市,赵家坝,,34,21,64,7,33,107,,84,84,4,14,9,9,0.6,0.9
2025-10-06T1500,3654A,114.8094,30.4089,鄂州市,精准医疗中心,,25,24,64,6,41,78,,80,80,4,27,4,9,0.4,1.1
2025-10-06T1500,2454A,109.4978,30.2981,恩施土家族苗族自治州,湖北民院,,23,21,27,3,18,71,,46,46,3,9,7,7,0.5,0.6
2025-10-06T1500,2455A,109.4707,30.2798,恩施土家族苗族自治州,州电力总公司,,22,6,26,3,18,68,,46,46,3,11,7,7,0.3,0.5
2025-10-06T1500,3549A,109.5061,30.3772,恩施土家族苗族自治州,龙凤新区,,22,17,22,13,14,70,,48,48,2,4,6,6,0.5,0.5
2025-10-06T1500,2499A,108.3411,21.6158,防城港市,沙万,,33,33,18,8,34,40,,36,36,2,4,4,4,0.5,0.6
2025-10-06T1500,2500A,108.3514,21.7731,防城港市,防城档案局,,16,16,16,9,6,47,,44,44,7,5,4,4,0.8,0.5
2025-10-06T1500,2501A,108.3506,21.6414,防城港市,大海花园,,25,25,18,8,8,56,,55,55,8,4,6,4,1.1,0.5
2025-10-06T1500,1371A,113.1294,23.0067,佛山市,湾梁,,19,12,13,7,4,59,,38,38,11,21,7,6,0.3,0.3
2025-10-06T1500,1372A,113.1083,23.0478,佛山市,华材职中,,21,7,13,6,5,65,,44,44,5,9,6,5,0.6,0.6
2025-10-06T1500,1373A,113.144,23.0453,佛山市,南海气象局,,19,11,21,7,8,60,,41,41,6,13,7,6,0.5,0.5
2025-10-06T1500,1374A,113.2881,22.8094,佛山市,顺德苏岗,,15,7,22,3,3,45,,31,31,4,14,6,6,0.6,0.6
2025-10-06T1500,1376A,112.8383,22.8678,佛山市,高明孔堂,,21,8,15,8,6,67,,44,44,7,12,2,2,0.2,0.3
2025-10-06T1500,1377A,112.8836,23.1588,佛山市,三水监测站,,18,,13,10,7,55,,32,32,1,12,5,6,0.5,0.6
2025-10-06T1500,1378A,112.867,23.185,佛山市,三水云东海,,19,16,19,6,6,59,,32,32,6,15,2,2,0.4,0.5
2025-10-06T1500,3625A,113.2544,22.7642,佛山市,容桂街道办,,15,6,11,3,9,47,,34,34,6,15,6,6,0.6,0.6
2025-10-06T1500,1282A,119.2681,26.0504,福州市,师大,,44,29,40,14,19,140,,102,102,8,15,8,7,0.5,0.4
2025-10-06T1500,1283A,119.2984,26.1028,福州市,五四北路,,43,,41,25,20,135,,100,100,7,13,6,5,0.5,0.4
2025-10-06T1500,1284A,119.2648,26.0768,福州市,杨桥西路,,44,31,39,25,20,140,,101,101,6,12,6,5,0.5,0.5
2025-10-06T1500,1285A,119.317,26.0746,福州市,紫阳,颗粒物(PM10),52,53,48,21,23,103,,75,75,18,17,5,5,0.6,0.5
2025-10-06T1500,3048A,119.5799,26.0936,福州市,九龙,,34,15,27,13,15,108,,88,88,4,8,4,5,0.3,0.4
2025-10-06T1500,3526A,119.5189,25.9664,福州市,吴航,,33,19,32,11,16,103,,92,92,3,8,5,6,0.3,0.5
2025-10-06T1500,1755A,123.7977,41.8491,抚顺市,望花区,,36,36,23,21,11,46,,50,45,21,14,10,6,0.7,0.5
2025-10-06T1500,1756A,123.9161,41.8822,抚顺市,顺城区,,44,44,29,25,12,52,,52,49,16,12,9,9,0.5,0.5
2025-10-06T1500,1757A,124.0436,41.8611,抚顺市,东洲区,,18,,19,12,12,51,,50,48,9,14,4,7,0.7,0.6
2025-10-06T1500,1758A,123.9247,41.8642,抚顺市,新抚区,,29,22,26,20,15,49,,48,45,13,13,9,9,0.6,0.5
2025-10-06T1500,1759A,124.0972,41.8961,抚顺市,大伙房水库,,29,23,29,20,14,49,,52,48,10,12,8,10,0.4,0.4
2025-10-06T1500,1760A,123.7086,41.8391,抚顺市,沈抚新城,,39,31,27,27,10,54,,49,49,13,11,8,7,0.5,0.3
2025-10-06T1500,2376A,116.2127,28.0814,抚州市,桐源党溪,,26,26,37,11,19,64,,47,47,4,11,3,5,0.5,0.6
2025-10-06T1500,2377A,116.3544,27.9831,抚州市,市站,,27,21,26,10,13,84,,63,63,2,6,5,5,0.1,0.4
2025-10-06T1500,2378A,116.3565,27.963,抚州市,血防站,,24,17,24,10,12,75,,56,56,1,8,7,7,0.4,0.5
2025-10-06T1500,2379A,116.3564,28.0007,抚州市,采茶剧团,,28,27,28,8,14,87,,62,62,2,6,8,7,0.6,0.7
2025-10-06T1500,2380A,116.385,27.9647,抚州市,医学分院,,40,40,28,9,13,85,,62,62,2,5,3,4,0.7,0.7
2025-10-06T1500,2207A,121.6094,41.998,阜新市,工业园区,,28,15,22,3,3,87,,67,67,9,13,8,8,0.5,0.5
2025-10-06T1500,2208A,121.6697,42.0279,阜新市,长青街,,26,9,12,3,0,81,,64,64,8,12,7,8,0.2,0.2
2025-10-06T1500,2209A,121.6673,42.0705,阜新市,农业园区,,,17,19,,2,79,,65,65,7,11,4,5,0.6,1
2025-10-06T1500,2210A,121.6717,42.0224,阜新市,东苑,,26,16,28,7,4,81,,64,64,10,14,7,8,0.3,0.3
2025-10-06T1500,2211A,121.6506,42.0498,阜新市,玉龙新城,,27,14,25,7,2,84,,69,69,8,14,9,9,0.7,0.7
2025-10-06T1500,2301A,115.8277,32.8929,阜阳市,市监测站,,30,30,58,19,33,69,,39,39,7,25,4,4,0.6,0.7
2025-10-06T1500,2303A,115.8554,32.8605,阜阳市,开发区,,43,43,65,27,33,67,,35,35,7,20,7,7,0.6,0.7
2025-10-06T1500,2875A,115.784,32.8892,阜阳市,阜阳职业技术学院,,42,42,64,22,29,75,,47,47,6,16,6,5,0.6,0.8
2025-10-06T1500,3468A,115.7901,32.8613,阜阳市,市规划展馆,,40,40,60,18,39,72,,38,38,4,16,4,4,0.4,0.6
2025-10-06T1500,3469A,115.836,32.9183,阜阳市,枣园社区,,32,32,65,17,37,73,,42,42,5,21,6,6,0.7,0.7
2025-10-06T1500,2669A,102.9099,34.9841,甘南藏族自治州,州政府,,22,,16,15,15,51,,58,46,3,9,4,4,0.3,0.3
2025-10-06T1500,3380A,102.8914,34.9617,甘南藏族自治州,甘肃民族师范学院,,15,,7,3,9,47,,54,41,7,10,7,5,0.3,0.3
2025-10-06T1500,2570A,101.9603,30.0475,甘孜藏族自治州,水桥子,,18,,6,3,5,56,,34,34,3,15,7,7,0.4,0.4
2025-10-06T1500,3065A,101.9533,29.9972,甘孜藏族自治州,州环保局,,19,8,14,3,5,58,,34,34,2,12,4,4,0.3,0.4
2025-10-06T1500,3414A,115.8347,28.932,赣江新区,桑海产业园,,28,14,31,6,14,88,,70,70,5,20,9,10,0.1,0.2
2025-10-06T1500,2362A,114.9017,25.9149,赣州市,通天岩,,,10,17,7,6,,,41,41,2,3,14,15,0.6,0.7
2025-10-06T1500,2363A,114.9367,25.8664,赣州市,地委,,14,9,17,8,8,42,,53,52,5,9,5,7,0.5,0.5
2025-10-06T1500,2364A,114.9461,25.8481,赣州市,气象台,,16,9,19,3,6,49,,49,49,4,8,5,7,0.2,0.5
2025-10-06T1500,2365A,114.9322,25.8333,赣州市,市图书馆,,16,6,13,6,8,50,,46,46,2,7,4,5,0.4,0.5
2025-10-06T1500,2366A,114.8905,25.8471,赣州市,华坚鞋城,,19,18,17,3,8,60,,50,50,5,8,5,5,0.5,0.5
2025-10-06T1500,3109A,115.0093,25.8613,赣州市,赣县区卫计委,,13,13,13,3,8,38,,41,41,4,4,7,7,0.4,0.4
2025-10-06T1500,2684A,106.2792,36.0022,固原市,监测站,,24,8,24,7,23,76,,64,64,7,10,5,5,0.5,0.5
2025-10-06T1500,2685A,106.2375,36.0211,固原市,新区,,23,9,23,3,19,72,,60,60,7,10,6,6,0.5,0.5
2025-10-06T1500,3522A,106.2177,35.9959,固原市,原州区十五小,,,,44,5,23,74,,59,59,7,12,5,11,0.4,0.5
2025-10-06T1500,2544A,106.6303,30.4576,广安市,市委,,38,30,19,26,14,66,,34,34,9,8,9,8,0.7,0.6
2025-10-06T1500,2545A,106.6271,30.4663,广安市,友谊中学,,32,32,22,19,12,69,,40,40,11,9,8,7,1.0,0.9
2025-10-06T1500,2547A,106.6388,30.4551,广安市,广电花园,,38,38,17,16,12,62,,32,32,10,9,7,7,0.6,0.6
2025-10-06T1500,2902A,106.6351,30.4865,广安市,北辰小学,,28,25,16,19,12,71,,42,42,9,7,8,8,0.9,0.9
2025-10-06T1500,2523A,105.8945,32.4535,广元市,黑石坡,,9,6,7,3,7,28,,52,41,3,2,7,9,0.4,0.4
2025-10-06T1500,2524A,105.821,32.4444,广元市,老城,,22,12,12,3,2,68,,64,63,7,9,5,5,0.6,0.7
2025-10-06T1500,2526A,105.8628,32.4287,广元市,监测站,,19,13,13,8,7,58,,58,57,8,8,5,5,0.6,0.7
2025-10-06T1500,3617A,105.8047,32.4166,广元市,经开区,,18,6,5,3,1,57,,58,56,10,7,2,2,0.5,0.6
2025-10-06T1500,1345A,113.2347,23.1423,广州市,广雅中学,,21,13,21,6,9,67,,45,45,8,18,4,5,0.4,0.4
2025-10-06T1500,1346A,113.2612,23.105,广州市,市五中,,22,12,20,3,9,69,,49,49,7,16,5,6,0.2,0.3
2025-10-06T1500,1348A,113.3478,23.0916,广州市,广东商学院,,23,9,22,7,11,72,,51,51,9,18,4,5,0.2,0.2
2025-10-06T1500,1349A,113.4332,23.1047,广州市,市八十六中,,33,14,17,6,8,103,,58,58,18,20,6,6,0.4,0.4
2025-10-06T1500,1350A,113.3505,22.9483,广州市,番禺中学,,22,11,18,3,8,68,,45,45,3,10,6,6,0.6,0.6
2025-10-06T1500,1351A,113.2146,23.3916,广州市,花都师范,,32,21,22,11,8,100,,57,57,9,15,6,5,0.5,0.5
2025-10-06T1500,1352A,113.2597,23.1331,广州市,市监测站,,21,14,19,3,8,67,,47,47,9,13,6,7,0.4,0.5
2025-10-06T1500,1353A,113.5618,23.312,广州市,九龙镇镇龙,,23,17,23,10,11,72,,49,49,7,9,5,5,0.3,0.3
2025-10-06T1500,1354A,113.2765,23.1544,广州市,麓湖,,23,12,18,6,7,73,,50,50,7,14,5,5,0.4,0.4
2025-10-06T1500,1355A,113.443,23.3035,广州市,帽峰山森林公园,,26,10,11,3,4,81,,56,56,4,9,6,7,0.4,0.4
2025-10-06T1500,2846A,113.3221,23.1322,广州市,体育西,,25,15,22,6,9,79,,53,53,9,16,4,5,0.3,0.4
2025-10-06T1500,3298A,113.5717,23.5491,广州市,从化街口,,20,17,15,12,8,63,,42,42,5,7,6,6,0.4,0.4
2025-10-06T1500,3299A,113.3472,23.3692,广州市,白云竹料,,27,18,19,8,8,86,,56,56,6,10,5,4,0.3,0.4
2025-10-06T1500,3300A,113.2981,23.237,广州市,白云嘉禾,,31,18,17,9,9,98,,57,57,7,11,4,5,0.3,0.3
2025-10-06T1500,3301A,113.4256,23.1716,广州市,黄埔科学城,,33,17,19,12,9,104,,64,64,10,10,5,4,0.7,0.7
2025-10-06T1500,3302A,113.3942,23.0483,广州市,番禺大学城,,22,18,23,3,9,68,,49,49,11,16,7,7,0.4,0.4
2025-10-06T1500,3303A,113.4922,22.8168,广州市,南沙黄阁,,22,18,18,7,7,68,,46,46,6,12,6,6,0.5,0.6
2025-10-06T1500,3304A,113.5342,22.7896,广州市,南沙街,,20,10,16,3,6,64,,42,42,5,11,6,5,0.3,0.3
2025-10-06T1500,3443A,113.2902,23.5544,广州市,花都梯面,,26,9,15,3,6,83,,53,53,5,7,5,5,0.3,0.4
2025-10-06T1500,3445A,113.7858,23.7478,广州市,从化良口,,16,13,11,11,6,49,,41,41,6,6,6,5,0.4,0.4
2025-10-06T1500,3446A,113.8051,23.2614,广州市,增城荔城,,25,17,17,11,8,77,,55,55,4,6,6,6,0.4,0.4
2025-10-06T1500,2506A,109.6047,23.0666,贵港市,江南子站,,15,,19,10,10,37,,33,33,4,6,4,6,0.6,0.7
2025-10-06T1500,2508A,109.5669,23.1065,贵港市,荷城子站,,12,12,12,7,2,34,,30,30,10,7,3,4,0.6,0.5
2025-10-06T1500,3405A,109.5886,23.1172,贵港市,新世纪学校,,14,,15,9,6,42,,37,37,6,5,2,3,0.7,0.4
2025-10-06T1500,4260A,109.5933,23.0951,贵港市,中山路155-3号,,15,14,19,10,8,42,,38,38,6,5,4,3,0.6,0.6
2025-10-06T1500,1439A,106.6899,26.5998,贵阳市,马鞍山,,15,,12,7,12,46,,35,35,5,7,2,3,0.2,0.5
2025-10-06T1500,1441A,106.6243,26.6266,贵阳市,鉴湖路,,27,27,23,3,8,60,,51,51,5,7,6,5,0.3,0.3
2025-10-06T1500,1442A,106.7487,26.6343,贵阳市,燕子冲,,18,,14,12,15,55,,41,41,8,12,3,3,0.3,0.4
2025-10-06T1500,1443A,106.6555,26.4365,贵阳市,碧云窝,,18,17,30,3,11,56,,42,42,4,7,3,4,0.1,0.3
2025-10-06T1500,1445A,106.7109,26.6027,贵阳市,红边门,,17,14,22,3,14,52,,45,45,6,12,2,3,0.1,0.2
2025-10-06T1500,1446A,106.7164,26.5699,贵阳市,新华路,,19,12,19,3,7,58,,49,49,7,16,3,4,0.2,0.3
2025-10-06T1500,1447A,106.674,26.5424,贵阳市,太慈桥,,18,12,17,3,8,55,,46,46,13,17,2,2,0,0
2025-10-06T1500,1552A,106.805,26.3003,贵阳市,桐木岭,,22,22,26,14,13,57,,54,54,6,6,3,3,1.3,1.3
2025-10-06T1500,4230A,106.6882,26.5695,贵阳市,花果园大街66号,,17,7,14,6,11,54,,48,48,6,14,1,2,0.5,0.6
2025-10-06T1500,4231A,106.6873,26.5169,贵阳市,漓江路57号,,19,9,23,3,15,58,,45,45,4,14,6,6,0.5,0.6
2025-10-06T1500,1864A,110.3089,25.2708,桂林市,龙隐路小学,,19,12,19,6,11,58,,44,44,6,11,5,8,0.2,0.3
2025-10-06T1500,1865A,110.2869,25.2178,桂林市,八中,,20,11,21,3,10,63,,48,48,4,10,6,12,0.3,0.4
2025-10-06T1500,3531A,110.296,25.1253,桂林市,旅游学院,,19,6,11,3,7,60,,43,43,2,7,3,7,0.3,0.4
2025-10-06T1500,4222A,110.1835,25.2444,桂林市,环湖路276号,,18,7,24,3,15,56,,38,38,5,14,5,16,0.3,0.4
2025-10-06T1500,4301A,110.2803,25.2773,桂林市,信义路13号,,19,13,24,3,12,60,,47,47,4,12,6,14,0.2,0.4
2025-10-06T1500,2674A,100.2561,34.4714,果洛藏族自治州,玛沁县大武镇,,23,10,15,6,9,72,,74,74,2,2,5,10,0.4,0.5
2025-10-06T1500,1129A,126.5422,45.755,哈尔滨市,岭北,,,15,19,3,8,86,,69,69,12,20,,6,4.2,2
2025-10-06T1500,1130A,126.561,45.8167,哈尔滨市,松北商大,,23,22,27,6,9,72,,52,52,5,24,5,6,0.3,0.4
2025-10-06T1500,1131A,126.979,45.5419,哈尔滨市,阿城会宁,,21,19,52,3,20,67,,46,46,6,29,8,7,0.4,0.5
2025-10-06T1500,1132A,126.599,45.7222,哈尔滨市,南岗学府路,,,,30,,7,70,,53,53,12,24,10,9,,0.6
2025-10-06T1500,1133A,126.689,45.7733,哈尔滨市,太平宏伟公园,,35,35,32,14,13,69,,50,50,7,20,8,9,0.3,0.5
2025-10-06T1500,1134A,126.635,45.7667,哈尔滨市,道外承德广场,,40,40,34,8,12,67,,51,51,11,22,8,8,0.5,0.5
2025-10-06T1500,1135A,126.685,45.7319,哈尔滨市,香坊红旗大街,,24,24,35,3,9,69,,51,51,13,24,10,10,0.4,0.5
2025-10-06T1500,1136A,126.6411,45.7258,哈尔滨市,动力和平路,,26,26,23,12,10,71,,54,54,9,18,8,8,0.4,0.5
2025-10-06T1500,1137A,126.593,45.7478,哈尔滨市,道里建国路,,30,30,22,10,9,70,,54,54,12,19,4,4,0.9,0.5
2025-10-06T1500,1138A,126.615,45.61,哈尔滨市,平房东轻厂,,26,26,32,14,10,65,,50,50,19,39,9,10,0.4,0.6
2025-10-06T1500,1139A,126.595,45.9855,哈尔滨市,呼兰师专,,49,49,34,14,19,63,,46,46,10,23,3,5,0.3,0.3
2025-10-06T1500,1140A,126.6206,45.6842,哈尔滨市,省农科院,,27,27,33,9,8,69,,49,49,6,23,6,8,0.4,0.5
2025-10-06T1500,2688A,93.5128,42.8172,哈密市,地区监测站,,32,32,52,12,14,85,,62,62,9,19,16,6,0.3,0.4
2025-10-06T1500,2689A,93.4961,42.8328,哈密市,哈密师范学校,,41,41,43,9,15,87,,67,67,6,20,11,8,0.4,0.6
2025-10-06T1500,2671A,100.9048,36.9639,海北藏族自治州,海晏县西海镇,,29,,29,12,24,92,,84,84,4,9,13,19,0.6,0.7
2025-10-06T1500,3867A,102.0738,36.5056,海东市,平安区公安北苑,,33,33,43,17,30,81,,58,58,10,11,19,14,0.6,0.6
2025-10-06T1500,1409A,110.576,19.9507,海口市,东寨港,,,16,15,11,25,,,,,,,,,,
2025-10-06T1500,1410A,110.3232,20.0574,海口市,海南大学,,16,8,12,7,6,51,,50,48,5,5,4,4,0.2,0.2
2025-10-06T1500,1411A,110.283,20.0053,海口市,秀英海南医院,,16,11,13,3,6,49,,48,46,4,4,6,6,0.2,0.2
2025-10-06T1500,1412A,110.338,19.9969,海口市,海南师范大学,,15,8,14,6,8,48,,51,47,7,4,5,5,0.3,0.4
2025-10-06T1500,1413A,110.33,20.0356,海口市,龙华路环保局宿舍,,20,20,14,6,7,50,,50,47,6,5,6,6,0.1,0
2025-10-06T1500,3539A,110.5111,19.9736,海口市,桂林洋子站,,21,21,17,11,13,44,,44,40,3,3,5,5,0.6,0.3
2025-10-06T1500,2673A,100.6188,36.2866,海南藏族自治州,共和县恰卜恰镇,,26,19,26,8,11,82,,74,74,2,3,9,12,0.7,0.6
2025-10-06T1500,2676A,97.3731,37.3753,海西蒙古族藏族自治州,德令哈市,,37,37,44,8,21,101,,88,88,2,5,18,19,0.5,0.4
2025-10-06T1500,1048A,114.5302,36.6116,邯郸市,东污水处理厂,,23,,6,16,13,66,,53,52,9,10,7,6,0.3,0.5
2025-10-06T1500,1049A,114.4918,36.5713,邯郸市,矿院,,32,,10,22,13,73,,61,61,8,8,5,2,0.3,0.4
2025-10-06T1500,1050A,114.484,36.6133,邯郸市,丛台公园,,23,,8,14,7,72,,62,62,17,14,9,8,0.3,0.4
2025-10-06T1500,3458A,114.7895,36.5593,邯郸市,香泉濮院小区,,21,15,14,8,9,65,,53,53,6,8,3,3,0.2,0.4
2025-10-06T1500,3579A,114.50634,36.77178,邯郸市,永年区实验高中,,28,,14,19,12,63,,54,54,8,10,1,2,0.5,0.6
2025-10-06T1500,3580A,114.20016,36.44293,邯郸市,峰峰矿区临水派出所,,21,16,14,12,4,66,,65,61,11,9,2,2,0.5,0.5
2025-10-06T1500,2634A,106.9893,33.1842,汉中市,汉川机床厂子校,,20,13,10,6,5,64,,60,60,8,8,5,5,0.8,0.8
2025-10-06T1500,2635A,107.0154,33.0706,汉中市,市监测站,,17,6,7,3,4,52,,47,47,6,8,3,4,0.6,0.6
2025-10-06T1500,2636A,107.0089,33.1138,汉中市,鑫源开发区,,19,6,7,3,3,60,,48,48,13,10,5,4,1.0,0.7
2025-10-06T1500,2637A,107.007,33.0323,汉中市,南郑大河坎水厂,,17,6,7,3,4,52,,49,49,6,8,1,2,0.6,0.6
2025-10-06T1500,1223A,120.2072,30.2111,杭州市,滨江,,44,35,51,24,31,139,,112,112,11,30,7,8,0.4,0.6
2025-10-06T1500,1224A,120.0633,30.2747,杭州市,西溪,,37,34,38,24,33,116,,124,124,11,24,7,6,0.3,0.5
2025-10-06T1500,1226A,120.3417,30.3150,杭州市,下沙,,45,34,40,21,24,141,,124,124,4,28,8,9,0.3,0.4
2025-10-06T1500,1227A,120.1269,30.2456,杭州市,卧龙桥,,46,37,42,32,33,136,,118,118,5,16,8,8,0.5,0.6
2025-10-06T1500,1228A,120.1903,30.2692,杭州市,浙江农大,,44,44,56,24,32,112,,94,94,11,31,6,6,0.5,0.7
2025-10-06T1500,1230A,120.1197,30.3119,杭州市,和睦小学,,40,30,41,26,29,126,,112,112,6,20,6,6,0.7,0.8
2025-10-06T1500,1231A,120.3019,30.4183,杭州市,临平镇,,42,30,50,20,26,132,,120,120,6,25,6,7,0.4,0.6
2025-10-06T1500,1232A,120.2753,30.1839,杭州市,城厢镇,,40,35,46,23,30,126,,102,102,22,27,5,5,0.3,0.5
2025-10-06T1500,1233A,120.0883,30.1808,杭州市,云栖,,,42,42,25,32,137,,128,128,12,24,6,6,,0.7
2025-10-06T1500,3557A,119.9464,30.0494,杭州市,镇二中,,44,29,37,25,31,138,,104,104,8,21,6,6,0.5,0.7
2025-10-06T1500,3558A,119.7183,30.2367,杭州市,市府大楼,,36,36,33,21,25,114,,92,92,8,14,9,8,0.1,0.3
2025-10-06T1500,3656A,120.1556,30.2864,杭州市,消防大队,,41,40,45,21,31,129,,111,111,8,24,8,8,0.8,0.9
2025-10-06T1500,1270A,117.1959,31.7848,合肥市,明珠广场,,31,24,51,9,38,97,,86,86,6,26,7,7,0.6,1
2025-10-06T1500,1271A,117.3072,31.8764,合肥市,三里街,,34,29,57,14,39,106,,97,97,4,31,4,4,0.6,1
2025-10-06T1500,1272A,117.2588,31.8707,合肥市,琥珀山庄,,35,27,59,19,44,110,,94,94,4,19,8,7,0.5,1
2025-10-06T1500,1273A,117.1604,31.9052,合肥市,董铺水库,细颗粒物(PM2.5),62,,52,44,36,80,,61,61,2,17,4,5,0.5,0.6
2025-10-06T1500,1274A,117.25,31.8571,合肥市,长江中路,,35,34,58,17,38,109,,94,94,2,16,7,7,0.6,1
2025-10-06T1500,1275A,117.266,31.9436,合肥市,庐阳区,,48,48,62,24,36,112,,95,95,7,32,8,8,0.7,0.9
2025-10-06T1500,1276A,117.3453,31.8616,合肥市,瑶海区,,32,22,57,15,36,100,,99,99,6,32,8,8,0.4,0.9
2025-10-06T1500,1277A,117.3027,31.7964,合肥市,包河区,,33,29,55,22,39,103,,98,98,6,42,9,9,0.7,1.1
2025-10-06T1500,1278A,117.2776,31.7385,合肥市,滨湖新区,,29,19,50,19,40,91,,88,88,2,15,6,6,0.5,0.9
2025-10-06T1500,1279A,117.1318,31.8403,合肥市,高新区,,32,31,51,22,36,99,,88,88,4,21,5,6,0.6,0.9
2025-10-06T1500,3464A,117.3803,31.9147,合肥市,高教基地,,34,29,50,18,32,107,,106,106,10,18,6,6,0.4,0.7
2025-10-06T1500,3614A,79.924,37.0877,和田地区,地区环保局,颗粒物(PM10),125,200,385,65,131,91,,80,80,3,9,2,3,0.2,0.2
2025-10-06T1500,3615A,79.9131,37.113,和田地区,市环保局,颗粒物(PM10),104,158,379,44,120,92,,80,80,8,16,2,3,0.5,0.6
2025-10-06T1500,2517A,108.0497,24.6947,河池市,市环保站,,23,23,12,6,8,50,,41,41,9,9,6,6,0.6,0.6
2025-10-06T1500,2518A,108.0983,24.6989,河池市,市疾控中心,,17,11,16,8,7,53,,42,42,10,15,8,8,0.6,0.6
2025-10-06T1500,1696A,114.6778,23.7569,河源市,源西,,15,13,12,6,6,48,,43,43,2,8,4,4,0.6,0.7
2025-10-06T1500,1697A,114.6944,23.7586,河源市,东埔,,15,11,12,10,11,43,,38,38,4,7,4,5,0.3,0.4
2025-10-06T1500,1698A,114.6892,23.7233,河源市,老城,,17,17,16,10,7,49,,42,42,2,5,5,7,0.3,0.4
2025-10-06T1500,1718A,115.4208,35.2464,菏泽市,气象局,,18,18,12,11,8,50,,49,49,13,10,2,2,0.4,0.4
2025-10-06T1500,3374A,115.5564,35.0891,菏泽市,定陶老年大学,,14,9,6,3,2,43,,44,43,2,4,4,4,0,0.3
2025-10-06T1500,4184A,115.4797,35.24401,菏泽市,永昌路1号,,15,11,9,9,9,47,,50,48,8,7,6,8,0.2,0.3
2025-10-06T1500,4193A,115.4715,35.2800,菏泽市,长城路999号,,14,11,9,6,5,43,,44,42,19,15,7,8,0.3,0.3
2025-10-06T1500,2514A,111.5264,24.4172,贺州市,环保小区,,19,,16,11,10,60,,40,40,3,8,13,14,0.5,0.6
2025-10-06T1500,2515A,111.5608,24.4078,贺州市,政协大楼,,18,,12,6,9,57,,40,40,5,7,10,12,0.5,0.5
2025-10-06T1500,3534A,111.4744,24.4553,贺州市,西湾,,21,19,22,3,10,65,,41,41,4,10,9,9,0.3,0.4
2025-10-06T1500,2385A,114.17,35.9019,鹤壁市,市监测站,,19,12,18,10,13,58,,51,49,10,12,4,5,0.5,0.9
2025-10-06T1500,2386A,114.2956,35.7511,鹤壁市,市交警支队,,26,26,28,12,12,47,,45,39,16,15,4,4,0.8,0.9
2025-10-06T1500,2387A,114.2878,35.7306,鹤壁市,迎宾馆,,22,17,17,15,13,52,,48,44,16,16,3,4,0.8,0.9
2025-10-06T1500,3474A,114.2617,35.6822,鹤壁市,大新区,,17,10,14,3,5,54,,50,44,10,9,2,6,0.6,0.9
2025-10-06T1500,3596A,114.1572,35.9603,鹤壁市,南山宾馆,,18,9,13,3,17,56,,50,48,10,12,2,3,0.3,0.7
2025-10-06T1500,2244A,130.2537,47.3416,鹤岗市,哈啤分公司,,,11,22,7,11,77,,76,76,2,5,,10,0.4,0.4
2025-10-06T1500,2245A,130.2684,47.3086,鹤岗市,斯达机电,,25,7,19,3,14,78,,72,72,2,5,11,11,0.3,0.3
2025-10-06T1500,2246A,130.3114,47.3388,鹤岗市,东山纸板厂,,27,27,41,9,16,80,,74,74,5,7,12,12,0.1,0.4
2025-10-06T1500,2247A,130.1097,47.3382,鹤岗市,五号水库,,19,10,15,3,6,60,,56,56,5,7,5,5,0.4,0.3
2025-10-06T1500,2263A,127.4833,50.2524,黑河市,交通局,,21,17,20,8,14,66,,53,53,8,13,4,5,0.2,0.3
2025-10-06T1500,2264A,127.5144,50.2341,黑河市,环保局,,19,13,21,3,13,59,,48,48,8,12,5,7,0.4,0.4
2025-10-06T1500,2265A,127.5291,50.2472,黑河市,大黑河岛,,,14,20,3,7,52,,47,42,6,7,9,9,,
2025-10-06T1500,1074A,115.6838,37.7541,衡水市,电机北厂,,28,28,12,13,15,58,,50,50,12,11,6,5,0.4,0.4
2025-10-06T1500,1075A,115.6303,37.7316,衡水市,市监测站,,28,28,19,9,9,57,,50,50,12,11,5,4,0.3,0.3
2025-10-06T1500,3188A,115.6683,37.7217,衡水市,市城管局,,28,28,15,14,14,57,,51,51,13,12,7,6,0.5,0.4
2025-10-06T1500,3459A,115.5989,37.5491,衡水市,地表水厂,,28,28,16,9,6,50,,52,52,12,10,4,3,0.4,0.4
2025-10-06T1500,2456A,112.5003,26.9167,衡阳市,原169医院,,22,12,21,3,10,69,,56,56,2,9,5,10,0.4,0.5
2025-10-06T1500,2457A,112.6194,26.9258,衡阳市,衡阳化工总厂,,20,10,29,3,11,62,,55,55,2,10,6,7,0.5,0.7
2025-10-06T1500,2458A,112.6211,26.8956,衡阳市,珠晖区环保局,,,,22,13,16,65,,51,51,2,10,,9,0.8,0.9
2025-10-06T1500,2459A,112.6197,26.8733,衡阳市,市委党校,,20,9,23,7,12,62,,51,51,2,8,7,8,0.3,0.4
2025-10-06T1500,2460A,112.6006,26.8919,衡阳市,市监测站,,20,9,23,7,13,62,,50,50,2,8,5,5,0.6,0.7
2025-10-06T1500,2461A,112.5664,26.9056,衡阳市,真空机电公司,,20,13,30,3,7,64,,51,51,2,10,7,9,0.9,1.2
2025-10-06T1500,3399A,112.6703,26.882,衡阳市,师范学院,,20,19,24,3,12,61,,50,50,3,7,6,7,0.7,0.8
2025-10-06T1500,2608A,103.3772,23.3993,红河哈尼族彝族自治州,污水处理厂,,22,19,27,15,17,61,,45,45,7,10,12,38,0.3,0.4
2025-10-06T1500,2609A,103.3861,23.35,红河哈尼族彝族自治州,监测站,,32,32,29,17,15,67,,46,46,3,6,14,40,0.4,0.5
2025-10-06T1500,3038A,103.3758,23.368,红河哈尼族彝族自治州,州图书馆,,39,,23,27,28,66,,45,45,4,7,4,30,0.2,0.3
2025-10-06T1500,1090A,111.6507,40.7517,呼和浩特市,呼市一监,,46,46,50,14,23,108,,72,72,5,13,8,7,0.2,0.4
2025-10-06T1500,1091A,111.6572,40.8033,呼和浩特市,小召,颗粒物(PM10),52,53,50,22,35,107,,68,68,11,18,7,7,0.4,0.5
2025-10-06T1500,1094A,111.7516,40.8369,呼和浩特市,如意水处理厂,,36,36,54,12,21,110,,65,65,8,19,8,8,0.3,0.4
2025-10-06T1500,1095A,111.7276,40.8062,呼和浩特市,二十九中,,,,112,13,25,113,,71,71,8,18,8,8,0.4,0.6
2025-10-06T1500,1096A,111.5512,40.7866,呼和浩特市,工大金川校区,颗粒物(PM10),52,54,58,17,22,104,,58,58,7,23,10,6,0.2,0.3
2025-10-06T1500,1097A,111.717,40.7612,呼和浩特市,化肥厂生活区,,35,34,58,13,25,109,,73,73,12,24,7,6,0.3,0.4
2025-10-06T1500,3698A,111.5968,40.8178,呼和浩特市,红旗小学,颗粒物(PM10),54,58,50,23,21,106,,62,62,10,24,12,7,0.4,0.4
2025-10-06T1500,3699A,111.6518,40.8389,呼和浩特市,海东办,颗粒物(PM10),54,58,55,19,21,115,,74,74,8,18,7,6,0.4,0.4
2025-10-06T1500,2192A,119.7594,49.2261,呼伦贝尔市,区环保局,,26,26,37,8,16,80,,51,51,6,22,5,6,0.3,0.3
2025-10-06T1500,3061A,119.7512,49.1577,呼伦贝尔市,国华电力东,,28,28,27,3,12,82,,60,60,8,18,6,6,0.4,0.4
2025-10-06T1500,1250A,120.0751,30.8669,湖州市,城西水厂,,30,21,51,14,33,96,,93,93,12,33,8,8,0.1,0.3
2025-10-06T1500,2873A,120.0830,30.8929,湖州市,仁皇山新区,,34,22,49,16,36,106,,101,101,4,18,5,5,0.3,0.5
2025-10-06T1500,2907A,120.1844,30.8596,湖州市,吴兴区站,,36,33,45,20,31,114,,104,104,4,16,6,6,0.4,0.6
2025-10-06T1500,3562A,120.4148,30.8538,湖州市,南浔区站,,45,34,34,25,27,143,,113,113,5,16,8,9,0.4,0.5
2025-10-06T1500,1607A,120.9049,40.7211,葫芦岛市,龙港区,,23,17,27,14,5,73,,54,54,15,18,12,11,0.4,0.4
2025-10-06T1500,1608A,120.8392,40.7514,葫芦岛市,化工街,,21,12,24,3,2,67,,53,53,12,14,8,9,0.2,0.2
2025-10-06T1500,1609A,120.8341,40.7073,葫芦岛市,新区,,22,16,24,6,4,68,,55,55,14,15,8,9,0.5,0.5
2025-10-06T1500,1610A,120.8695,40.7677,葫芦岛市,东城区,,23,21,25,9,6,72,,57,57,13,16,9,9,0.5,0.4
2025-10-06T1500,2482A,109.5981,27.5721,怀化市,林科所,,22,9,26,3,13,69,,64,64,4,5,4,4,0.4,0.6
2025-10-06T1500,2483A,109.9453,27.5444,怀化市,河西地税局,,20,6,29,3,21,62,,49,49,3,9,4,3,0.2,0.4
2025-10-06T1500,2484A,109.9781,27.5342,怀化市,市四医院,,23,9,41,8,30,72,,61,61,2,11,6,8,0.1,0.4
2025-10-06T1500,2485A,109.9972,27.5578,怀化市,监测楼,,22,11,38,3,26,70,,65,65,2,8,3,5,0,0.2
2025-10-06T1500,2486A,110.0394,27.583,怀化市,市委党校,,19,9,31,3,21,59,,51,51,5,8,6,12,0.1,0.3
2025-10-06T1500,1210A,119.036,33.5981,淮安市,钵池山,细颗粒物(PM2.5),64,51,58,46,45,94,,87,87,11,28,7,7,0.8,0.9
2025-10-06T1500,1211A,119.007,33.575,淮安市,北京南路,细颗粒物(PM2.5),59,58,60,42,43,88,,77,77,3,29,7,7,1.0,1.1
2025-10-06T1500,1212A,118.989,33.6067,淮安市,市监测站,细颗粒物(PM2.5),79,63,65,58,52,95,,86,86,9,31,5,6,1.0,1.2
2025-10-06T1500,1213A,119.135,33.5039,淮安市,楚州区监测站,颗粒物(PM10),57,63,60,35,31,102,,82,82,8,20,8,8,0.8,0.9
2025-10-06T1500,3426A,118.8755,33.2894,淮安市,新华书店,细颗粒物(PM2.5),58,55,54,41,34,109,,92,92,13,19,7,8,0.8,0.9
2025-10-06T1500,4206A,119.0288,33.6319,淮安市,承德北路606号,细颗粒物(PM2.5),64,73,77,46,40,85,,83,83,6,25,7,7,0.6,0.8
2025-10-06T1500,2282A,116.8004,33.975,淮北市,监测站,,26,22,37,8,23,81,,57,57,8,14,7,8,0.7,0.8
2025-10-06T1500,2283A,116.8091,33.9007,淮北市,烈山区政府,,28,12,37,3,19,88,,64,64,6,10,8,8,0.6,0.6
2025-10-06T1500,3330A,116.8873,33.9836,淮北市,杜集区检察院,,34,34,44,14,33,87,,61,61,1,6,10,10,0.5,0.6
2025-10-06T1500,4017A,116.7923,33.9535,淮北市,市博物馆,,27,20,40,3,22,84,,60,60,7,13,8,9,0.6,0.7
2025-10-06T1500,2277A,116.8305,32.7727,淮南市,潘集区政府,细颗粒物(PM2.5),63,68,70,45,40,98,,68,68,3,11,6,6,0.7,0.7
2025-10-06T1500,2279A,116.8569,32.5951,淮南市,谢家集区政府,颗粒物(PM10),56,61,70,36,41,107,,83,83,8,15,10,12,0.7,0.7
2025-10-06T1500,2280A,116.8281,32.633,淮南市,八公山区政府,细颗粒物(PM2.5),62,68,67,44,42,105,,74,74,9,13,9,8,0.8,0.8
2025-10-06T1500,2894A,117.0566,32.6531,淮南市,经济技术开发区消防队,颗粒物(PM10),53,56,53,30,33,94,,71,71,5,12,9,9,0.6,0.6
2025-10-06T1500,3329A,117.0108,32.5893,淮南市,山南新区,细颗粒物(PM2.5),55,58,60,39,39,108,,86,86,7,11,5,6,0.6,0.6
2025-10-06T1500,4209A,117.0031,32.6445,淮南市,国庆中路369号,颗粒物(PM10),59,67,75,38,47,104,,73,73,5,13,6,7,0.7,0.7
2025-10-06T1500,2446A,114.9028,30.4742,黄冈市,职工中心,,34,27,66,13,40,106,,94,94,5,17,7,8,0.3,0.6
2025-10-06T1500,2929A,114.8858,30.4519,黄冈市,红卫路,,35,24,54,15,39,110,,92,92,6,18,5,7,0.3,0.6
2025-10-06T1500,3398A,114.9136,30.4445,黄冈市,市林业局,,36,22,57,11,39,113,,94,94,6,19,6,7,0.4,0.6
2025-10-06T1500,2672A,102.0199,35.5102,黄南藏族自治州,同仁县隆务镇,,27,16,32,9,16,85,,73,73,5,6,10,10,0.4,0.3
2025-10-06T1500,2295A,118.2903,29.6963,黄山市,延安路89号,,28,26,35,19,15,78,,70,70,1,7,5,5,0.5,0.6
2025-10-06T1500,2297A,118.1371,30.2756,黄山市,黄山区政府5号楼,,19,19,32,9,23,60,,49,49,1,5,5,5,0.1,0.2
2025-10-06T1500,4210A,118.3354,29.7203,黄山市,滨江东路7-2号,,33,33,32,8,12,79,,69,69,2,8,3,3,0.3,0.5
2025-10-06T1500,2423A,115.0601,30.2313,黄石市,沈家营,,46,32,81,17,34,146,,105,105,2,17,10,10,0.5,0.8
2025-10-06T1500,2426A,114.8988,30.2019,黄石市,铁山,,36,36,56,8,28,106,,96,96,1,13,5,6,0.9,0.7
2025-10-06T1500,2427A,115.0307,30.2092,黄石市,团城山,,41,24,66,13,31,129,,85,85,3,12,10,9,0.7,1.1
2025-10-06T1500,3149A,115.0235,30.1578,黄石市,笔架山北路,,38,13,54,8,30,120,,86,86,2,6,7,8,0.3,0.4
2025-10-06T1500,4185A,115.0780,30.21118,黄石市,磁湖东路29号,,40,28,83,20,38,125,,87,87,8,25,11,12,0.8,0.9
2025-10-06T1500,1392A,114.4183,23.0528,惠州市,河南岸金山湖子站,,19,,17,13,11,40,,41,41,2,5,8,8,0.4,0.5
2025-10-06T1500,1393A,114.4053,23.0822,惠州市,下埔横江三路子站,,13,13,20,3,8,40,,43,43,2,3,7,7,0.4,0.8
2025-10-06T1500,1394A,114.4103,23.1142,惠州市,江北云山西路子站,,15,9,17,6,7,45,,47,47,4,7,9,10,0.4,0.4
2025-10-06T1500,1395A,114.4645,22.7833,惠州市,惠阳区承修路船湖子站,,13,8,18,7,7,41,,49,49,4,6,8,8,0.4,0.4
2025-10-06T1500,1396A,114.5317,22.7422,惠州市,大亚湾管委会子站,,18,9,20,7,6,56,,50,50,7,7,10,10,0.4,0.4
2025-10-06T1500,3314A,114.4338,22.8134,惠州市,惠阳秋长,,14,9,15,7,8,44,,49,49,1,4,9,11,0.4,0.4
2025-10-06T1500,3452A,114.6517,22.775,惠州市,大亚湾霞涌,,19,18,14,3,6,59,,53,53,8,5,7,6,0.5,0.6
2025-10-06T1500,2240A,130.9762,45.3001,鸡西市,环保局,,19,13,22,6,9,59,,50,50,12,17,14,9,0.5,0.6
2025-10-06T1500,2243A,130.9429,45.3039,鸡西市,第一中学,,24,24,26,6,8,60,,55,55,9,12,10,9,0.5,0.6
2025-10-06T1500,3707A,131.0207,45.3073,鸡西市,欧美日汽修厂,,20,19,33,3,10,61,,51,51,8,16,23,11,0.6,0.6
2025-10-06T1500,3709A,130.9967,45.3106,鸡西市,市政设施管理处,,20,17,28,3,11,64,,51,51,10,24,16,11,0.7,0.8
2025-10-06T1500,2367A,114.9754,27.0803,吉安市,红声器材厂,,17,12,22,3,9,54,,48,48,2,4,9,10,0.4,0.5
2025-10-06T1500,2368A,114.9658,27.0999,吉安市,市森林工业局,,18,14,21,3,10,57,,48,48,1,5,7,8,0.6,0.4
2025-10-06T1500,2369A,114.99,27.1312,吉安市,市环境监测站,,18,17,18,6,9,55,,50,50,1,2,8,9,0.4,0.5
2025-10-06T1500,2370A,115.0093,27.0968,吉安市,青原区法院,,19,13,20,3,10,60,,51,51,7,8,9,11,0.5,0.6
2025-10-06T1500,1772A,126.54,43.8622,吉林市,哈达湾,,23,16,24,8,8,72,,60,60,4,11,5,6,0.3,0.2
2025-10-06T1500,1773A,126.5844,43.8358,吉林市,东局子,,22,12,22,3,8,68,,62,62,5,9,6,6,0.2,0.3
2025-10-06T1500,1774A,126.5052,43.8245,吉林市,电力学院,,21,10,22,7,9,66,,56,56,4,10,6,6,0.3,0.3
2025-10-06T1500,1775A,126.6133,43.8972,吉林市,江北,,21,14,24,3,12,67,,54,54,6,8,5,4,0.4,0.4
2025-10-06T1500,1776A,126.555,43.8306,吉林市,江南公园,,22,14,21,10,10,68,,58,58,3,11,4,4,0.4,0.5
2025-10-06T1500,1778A,126.7061,43.7133,吉林市,丰满,,24,8,12,6,5,76,,75,75,4,6,7,7,0.0,0.1
2025-10-06T1500,2868A,126.4739,43.953,吉林市,九站,,25,20,35,9,17,78,,60,60,11,16,10,15,0.3,0.4
2025-10-06T1500,1299A,116.9862,36.6114,济南市,科干所,,13,6,4,3,4,39,,47,40,13,16,6,6,0.4,0.5
2025-10-06T1500,1300A,116.9376,36.665,济南市,农科所,,13,6,5,3,4,39,,51,41,14,16,6,8,0.5,0.5
2025-10-06T1500,1301A,117.1265,36.6734,济南市,开发区,,13,,4,3,5,41,,47,42,11,13,2,2,0.6,0.7
2025-10-06T1500,1303A,117.0624,36.6868,济南市,省种子仓库,,11,,6,3,5,35,,46,39,17,16,5,5,0.7,0.7
2025-10-06T1500,1304A,116.9489,36.6447,济南市,机床二厂,,13,6,8,3,5,39,,46,40,13,16,6,6,0.3,0.4
2025-10-06T1500,1305A,117.0495,36.663,济南市,市监测站,,13,6,5,3,5,40,,48,42,13,15,2,2,0.8,0.8
2025-10-06T1500,1306A,116.7675,36.5484,济南市,长清党校,,14,6,6,3,6,44,,47,44,16,19,5,6,0.7,0.7
2025-10-06T1500,1616A,117.6795,36.229,济南市,技术学院,,18,6,1,3,3,57,,52,52,10,14,7,7,0.5,0.6
2025-10-06T1500,1961A,117.532,36.6868,济南市,东山小学,,14,6,8,3,7,42,,47,44,12,18,6,6,0.3,0.4
2025-10-06T1500,3059A,117.7161,36.2049,济南市,泰兴公司,,17,6,4,3,2,53,,51,51,9,14,8,9,0.2,0.3
2025-10-06T1500,3064A,117.6867,36.2171,济南市,莱芜战役纪念馆,,18,,5,8,4,55,,49,49,15,17,6,7,0.6,0.7
2025-10-06T1500,3494A,117.1673,36.9782,济南市,济阳区政府,,13,6,6,3,2,41,,56,44,12,8,7,6,0.4,0.3
2025-10-06T1500,3495A,117.1171,36.63,济南市,锦屏中学,,15,15,4,3,6,39,,43,39,13,13,5,5,0.8,0.8
2025-10-06T1500,3682A,116.9814,36.6819,济南市,济南四建,,13,,2,3,5,40,,50,42,10,12,4,4,0.6,0.7
2025-10-06T1500,1653A,116.6251,35.4302,济宁市,火炬城,,26,26,18,14,8,35,,37,37,8,10,5,5,0.3,0.5
2025-10-06T1500,1655A,116.5491,35.4042,济宁市,电化厂,,22,22,16,14,12,41,,42,42,13,17,1,2,0.3,0.6
2025-10-06T1500,3500A,116.5814,35.3707,济宁市,北湖一中,,21,21,17,14,10,36,,37,37,8,12,2,3,0.3,0.6
2025-10-06T1500,3501A,116.8249,35.5593,济宁市,服务中心,,12,12,15,6,3,33,,32,32,7,14,4,5,0.4,0.6
2025-10-06T1500,3678A,116.5907,35.4054,济宁市,市第七中学,,23,23,20,3,4,41,,38,38,8,12,8,8,0.3,0.6
2025-10-06T1500,2255A,130.2751,46.8028,佳木斯市,佳纺,,22,7,27,3,10,69,,50,50,5,20,1,3,0.4,0.4
2025-10-06T1500,2256A,130.3995,46.8307,佳木斯市,发电厂,,26,26,33,3,11,73,,54,54,6,21,6,6,0.3,0.3
2025-10-06T1500,2257A,130.3258,46.7975,佳木斯市,环保局,,21,11,23,6,14,65,,46,46,8,21,4,5,0.3,0.3
2025-10-06T1500,2258A,130.3648,46.8032,佳木斯市,十一中,,21,11,23,6,12,65,,50,50,3,19,10,11,0.4,0.5
2025-10-06T1500,2259A,130.3794,46.7588,佳木斯市,四丰,,14,6,11,3,5,42,,38,38,9,13,1,17,0.0,0
2025-10-06T1500,1252A,120.7436,30.778,嘉兴市,清河小学,,41,41,33,23,18,127,,99,99,8,21,7,8,0.5,0.6
2025-10-06T1500,1253A,120.726,30.7478,嘉兴市,嘉兴学院,,42,42,33,28,21,133,,108,108,9,19,5,6,0.7,0.7
2025-10-06T1500,2872A,120.7846,30.7525,嘉兴市,南湖区残联,,45,39,32,30,21,142,,111,111,4,16,6,7,0.6,0.7
2025-10-06T1500,3407A,120.6916,30.7739,嘉兴市,秀洲住建,,45,36,33,27,20,143,,118,118,4,20,7,8,0.6,0.6
2025-10-06T1500,1945A,98.2908,39.7711,嘉峪关市,气象局,,41,41,64,9,15,96,,83,83,4,22,4,24,0.2,0.5
2025-10-06T1500,2884A,98.2672,39.7978,嘉峪关市,酒钢宾馆,,39,39,74,9,20,92,,75,75,3,18,11,38,0.4,0.9
2025-10-06T1500,3248A,98.2643,39.7724,嘉峪关市,雄关区,,31,31,62,16,22,90,,74,74,9,26,14,30,0.1,0.5
2025-10-06T1500,1383A,113.1064,22.6058,江门市,北街,,,,23,3,6,51,,44,44,7,10,4,4,0.3,0.4
2025-10-06T1500,1384A,113.0731,22.5835,江门市,西区,,16,16,16,3,8,50,,38,38,3,10,3,3,0.4,0.4
2025-10-06T1500,1385A,113.0219,22.5311,江门市,圭峰西,,16,6,18,3,8,50,,43,43,5,10,4,4,0.5,0.5
2025-10-06T1500,1386A,113.0828,22.5947,江门市,东湖,,18,12,15,8,7,55,,40,40,6,11,2,2,0.3,0.4
2025-10-06T1500,3311A,113.1075,22.5647,江门市,江海富民,,19,17,28,6,9,58,,43,43,8,14,6,6,0.3,0.3
2025-10-06T1500,3449A,113.05,22.4667,江门市,新会银湖,,18,14,16,12,7,45,,37,37,3,7,3,3,0.5,0.4
2025-10-06T1500,3335A,113.3137,35.2641,焦作市,马村街道办,,19,19,28,3,18,39,,40,40,11,12,3,3,0.5,1
2025-10-06T1500,3336A,113.2465,35.2373,焦作市,焦作技师学院,,27,27,28,3,12,37,,36,36,7,9,7,7,0.7,1.2
2025-10-06T1500,3477A,113.1656,35.2539,焦作市,中站许衡医院,,25,,37,17,26,42,,42,42,12,17,5,6,0.7,1.2
2025-10-06T1500,3981A,113.2449,35.1803,焦作市,原李万街道办,,31,31,33,3,9,45,,42,42,14,13,8,10,0.6,1
2025-10-06T1500,4264A,113.2340,35.2190,焦作市,新安路1731号,,17,17,27,3,15,43,,43,43,13,12,5,5,0.9,1.3
2025-10-06T1500,4295A,113.2722,35.2121,焦作市,人民路3066号,,25,25,34,3,12,44,,44,44,12,11,6,3,0.9,1.1
2025-10-06T1500,1708A,116.3701,23.5345,揭阳市,新兴,,24,20,23,11,13,75,,54,54,4,12,6,10,0.5,0.6
2025-10-06T1500,1709A,116.3264,23.5443,揭阳市,西马,,25,15,22,11,10,78,,55,55,2,7,2,4,0.6,0.7
2025-10-06T1500,1710A,116.3611,23.5626,揭阳市,东兴,,24,14,19,12,10,76,,51,51,3,8,6,7,0.4,0.4
2025-10-06T1500,1711A,116.4151,23.5294,揭阳市,渔湖,,25,12,24,8,12,80,,53,53,4,11,7,9,0.6,0.6
2025-10-06T1500,3320A,116.403,23.5699,揭阳市,曲溪,,27,,21,16,10,86,,60,60,2,7,20,6,0.5,0.5
2025-10-06T1500,1944A,102.1692,38.5167,金昌市,天庆家园,颗粒物(PM10),51,51,62,23,30,68,,49,49,5,16,6,24,0.5,0.5
2025-10-06T1500,4022A,102.1647,38.5371,金昌市,金川区人防中心,,45,45,51,24,30,60,,42,42,4,13,4,11,0.4,0.5
2025-10-06T1500,4239A,102.1930,38.5319,金昌市,长春路96号,,37,37,57,20,26,61,,37,37,4,13,6,19,0.4,0.5
2025-10-06T1500,1262A,119.647,29.077,金华市,十五中,,40,30,38,18,20,128,,116,116,6,16,3,3,0.6,0.7
2025-10-06T1500,1263A,119.686,29.1029,金华市,监测站,,47,34,43,20,22,150,,114,114,9,22,4,4,0.6,0.6
2025-10-06T1500,3659A,119.656,29.1131,金华市,气象局,,41,35,40,21,23,130,,106,106,9,23,4,4,0.4,0.4
2025-10-06T1500,1767A,121.1115,41.0879,锦州市,南山,,27,17,26,14,6,86,,61,61,14,13,9,8,0.5,0.5
2025-10-06T1500,1768A,121.0604,40.8428,锦州市,开发区,,32,32,36,9,9,76,,51,51,17,20,8,10,0.6,0.6
2025-10-06T1500,1769A,121.1836,41.1119,锦州市,百股街道,,47,47,32,3,7,87,,62,62,16,17,10,10,0.6,0.6
2025-10-06T1500,1770A,121.1178,41.1222,锦州市,天安街道,,28,20,27,7,7,89,,64,64,12,12,10,9,0.6,0.5
2025-10-06T1500,1771A,121.1303,41.1386,锦州市,北湖公园,,28,11,27,3,4,89,,65,65,8,9,8,7,0.5,0.4
2025-10-06T1500,2160A,112.85,35.5051,晋城市,自来水公司,,15,15,26,3,9,34,,26,26,14,22,4,3,1.0,1.3
2025-10-06T1500,2161A,112.8318,35.4936,晋城市,白云商贸,,,17,25,,3,32,,29,28,10,15,3,3,0.9,1.2
2025-10-06T1500,2162A,112.8508,35.4887,晋城市,市环保局,,16,16,12,3,8,30,,24,24,12,16,4,4,1.0,1.4
2025-10-06T1500,2163A,112.8676,35.4897,晋城市,技术学院,,10,9,14,3,5,31,,26,26,11,18,4,9,1.0,1.3
2025-10-06T1500,3620A,112.8271,35.4828,晋城市,泽州一中,,13,13,18,3,3,34,,36,34,13,16,2,2,0.9,1.1
2025-10-06T1500,2173A,112.7249,37.7067,晋中市,南都小区,,23,18,20,11,13,73,,53,53,9,18,4,5,0.7,1
2025-10-06T1500,2174A,112.6991,37.6982,晋中市,榆次区政府,,22,9,23,8,23,70,,51,51,11,25,5,5,0.1,0.6
2025-10-06T1500,2865A,112.7195,37.6828,晋中市,榆次三中,,24,12,16,3,14,74,,57,57,9,18,6,7,0.1,0.4
2025-10-06T1500,4200A,112.7478,37.6954,晋中市,迎宾街26号,,24,7,12,7,10,74,,55,55,11,16,4,4,0.3,0.4
2025-10-06T1500,2439A,112.2014,31.0481,荆门市,竹园小学,,31,31,45,17,28,67,,43,43,6,10,2,1,0.8,0.8
2025-10-06T1500,2440A,112.1969,30.9891,荆门市,掇刀,,46,42,40,32,57,90,,53,53,7,9,1,1,0.8,0.6
2025-10-06T1500,2441A,112.2213,31.0386,荆门市,石化一小,,35,29,37,24,29,64,,41,41,9,10,1,3,0.7,0.6
2025-10-06T1500,3012A,112.1849,31.0362,荆门市,西山林语,,32,32,41,19,30,70,,45,45,6,9,4,3,0.6,0.8
2025-10-06T1500,3547A,112.1632,31.0138,荆门市,龙泉中学南校,,32,32,40,20,26,72,,52,52,12,13,4,4,0.8,0.9
2025-10-06T1500,1844A,112.2494,30.3197,荆州市,市图书馆,细颗粒物(PM2.5),59,55,56,42,35,152,,77,77,11,18,7,6,0.8,0.8
2025-10-06T1500,1845A,112.2008,30.3544,荆州市,市委党校,颗粒物(PM10),56,61,63,38,37,138,,66,66,10,18,8,8,0.7,0.8
2025-10-06T1500,3194A,112.2747,30.3122,荆州市,管委会,细颗粒物(PM2.5),57,55,55,40,31,150,,72,72,10,16,12,9,0.8,0.8
2025-10-06T1500,4268A,112.1722,30.3366,荆州市,学苑路85号,细颗粒物(PM2.5),59,50,52,42,44,154,,78,78,9,18,4,4,0.7,0.6
2025-10-06T1500,2343A,117.2117,29.2933,景德镇市,老干部活动中心,,31,20,37,13,26,98,,86,86,2,8,4,5,1.0,1.1
2025-10-06T1500,2344A,117.1894,29.2789,景德镇市,兽医站,,30,22,39,16,25,96,,84,84,3,10,8,8,0.7,0.8
2025-10-06T1500,2346A,117.2461,29.2956,景德镇市,陶研所,,34,27,38,18,29,106,,91,91,5,12,8,8,0.6,0.7
2025-10-06T1500,4289A,117.1542,29.2566,景德镇市,青少年活动中心,,36,36,39,16,29,95,,80,80,4,17,6,8,0.5,0.8
2025-10-06T1500,1803A,115.9872,29.6815,九江市,十里,,23,,33,10,28,73,,67,67,3,18,4,5,0.4,0.7
2025-10-06T1500,1804A,115.9584,29.7046,九江市,茅山头,,23,12,37,6,28,72,,65,65,3,24,4,4,0.4,0.7
2025-10-06T1500,1805A,115.9877,29.7295,九江市,西园,,35,16,44,6,27,112,,89,89,15,45,5,7,0.6,0.9
2025-10-06T1500,1808A,115.9114,29.6038,九江市,综合工业园,,25,9,28,3,17,78,,64,64,5,30,7,7,0.6,0.7
2025-10-06T1500,1809A,116.0721,29.7535,九江市,石化总厂,,32,25,46,12,33,100,,89,89,6,23,6,6,0.5,0.8
2025-10-06T1500,3190A,116.0254,29.6994,九江市,外国语学校,,27,,28,14,28,86,,80,80,6,17,5,5,0.4,0.6
2025-10-06T1500,4253A,116.0102,29.6594,九江市,莲花大道8号,,23,,28,14,20,72,,60,60,2,4,6,5,0.4,0.6
2025-10-06T1500,4240A,98.4958,39.7339,酒泉市,玉门东路5号,,34,34,65,21,29,84,,81,81,5,14,44,20,0.3,0.3
2025-10-06T1500,4241A,98.5099,39.7506,酒泉市,北大街108号,,34,34,57,6,20,87,,80,80,2,9,10,20,0.1,0.3
2025-10-06T1500,2698A,76.0072,39.4467,喀什地区,巡警大队,颗粒物(PM10),86,121,133,42,48,97,,36,36,9,34,4,4,0.2,0.4
2025-10-06T1500,2699A,75.9755,39.4694,喀什地区,吾办,颗粒物(PM10),83,115,128,40,47,93,,42,42,9,25,6,6,0.3,0.4
2025-10-06T1500,4027A,75.9483,39.4689,喀什地区,老干局,颗粒物(PM10),82,114,121,34,34,95,,40,40,12,24,2,2,0.1,0.1
2025-10-06T1500,1824A,114.3389,34.7781,开封市,肿瘤医院,,14,7,15,3,10,44,,49,42,10,12,5,5,0.7,1
2025-10-06T1500,1826A,114.2885,34.7965,开封市,世纪星幼儿园,,15,9,13,3,9,45,,52,43,14,12,4,5,0.7,0.9
2025-10-06T1500,3147A,114.3438,34.8106,开封市,龙亭公园,,12,10,14,3,5,38,,44,38,9,9,6,6,0.9,1.1
2025-10-06T1500,3210A,114.3644,34.7964,开封市,汴京公园,,14,7,14,3,8,43,,47,41,11,11,6,6,0.5,0.8
2025-10-06T1500,3473A,114.2485,34.8306,开封市,技师学院,,14,6,13,3,10,42,,47,41,8,8,7,7,0.9,1.2
2025-10-06T1500,3592A,114.4644,34.7556,开封市,祥符区生态环境局,,15,9,10,3,6,45,,43,43,10,11,4,4,0.6,0.8
2025-10-06T1500,1951A,84.895,45.6094,克拉玛依市,长征新村,,19,16,12,3,5,59,,53,53,1,3,2,2,0.2,0.2
2025-10-06T1500,1952A,84.8988,45.5893,克拉玛依市,南林小区,,19,15,12,3,5,58,,54,54,3,4,7,6,0.3,0.3
2025-10-06T1500,1954A,84.905,44.3396,克拉玛依市,独山子区,颗粒物(PM10),51,52,35,12,9,47,,38,38,14,11,28,7,0.4,0.3
2025-10-06T1500,1955A,85.6979,46.098,克拉玛依市,乌尔禾区商贸楼,,19,8,18,3,4,59,,46,46,4,5,3,3,0.2,0.2
2025-10-06T1500,3612A,85.1045,45.6899,克拉玛依市,白碱滩区新站,,21,21,28,3,6,63,,59,58,2,3,3,3,0.2,0.2
2025-10-06T1500,2697A,76.1454,39.7142,克孜勒苏柯尔克孜自治州,市人民政府,细颗粒物(PM2.5),78,96,113,57,45,101,,69,69,4,11,5,15,0.1,0.2
2025-10-06T1500,3665A,76.1658,39.7157,克孜勒苏柯尔克孜自治州,克州文化中心,颗粒物(PM10),88,126,133,33,43,102,,76,71,1,10,7,20,0.2,0.2
2025-10-06T1500,1450A,102.8204,24.8886,昆明市,呈贡新区,,24,22,20,12,18,74,,49,49,4,16,3,4,0.4,0.6
2025-10-06T1500,1452A,102.7252,25.0902,昆明市,龙泉镇,,26,,25,10,11,81,,46,46,5,13,2,2,0.3,0.5
2025-10-06T1500,1453A,102.7266,25.0375,昆明市,东风东路,,28,22,24,19,15,74,,40,40,7,13,3,4,0.2,0.3
2025-10-06T1500,1454A,102.6742,25.0669,昆明市,金鼎山,,21,13,30,13,13,66,,35,35,6,12,1,2,0.4,0.5
2025-10-06T1500,1455A,102.6644,25.0401,昆明市,碧鸡广场,,22,22,29,3,13,64,,37,37,11,17,7,8,0.3,0.6
2025-10-06T1500,3179A,102.7494,25.0119,昆明市,官渡区博物馆,,22,18,30,15,10,68,,38,38,7,20,1,2,0.3,0.5
2025-10-06T1500,3375A,102.8017,24.8336,昆明市,青年创业园,,28,26,23,19,14,71,,43,43,4,14,1,2,0.5,0.6
2025-10-06T1500,3550A,102.7997,24.9786,昆明市,昆明学院,,22,22,31,12,16,67,,40,40,4,18,7,8,0.2,0.4
2025-10-06T1500,3551A,102.5967,24.6736,昆明市,晋宁区生态环境分局,,25,12,23,12,15,77,,45,45,4,12,3,3,0.4,0.5
2025-10-06T1500,3552A,102.6678,24.9856,昆明市,云天化总部,,24,22,25,15,16,74,,36,36,7,16,4,5,0.4,0.5
2025-10-06T1500,1456A,91.1319,29.6514,拉萨市,八廓街,,30,7,11,3,8,96,,53,53,3,11,5,5,0.2,0.3
2025-10-06T1500,1457A,91.1221,29.6747,拉萨市,市环保局,,32,8,9,6,7,101,,57,57,5,11,8,8,0.7,0.6
2025-10-06T1500,1458A,91.0874,29.6475,拉萨市,区监测站,,30,6,8,3,6,94,,51,51,6,16,4,4,0.2,0.2
2025-10-06T1500,1459A,91.1774,29.6541,拉萨市,西藏大学,,30,6,8,6,7,94,,52,52,7,15,7,7,0.3,0.4
2025-10-06T1500,1460A,90.9798,29.6588,拉萨市,区辐射站,,27,10,12,3,7,86,,40,40,7,18,5,7,0.3,0.4
2025-10-06T1500,1461A,91.0834,29.6292,拉萨市,拉萨火车站,,28,7,12,6,6,89,,45,45,4,13,6,6,0.2,0.4
2025-10-06T1500,2520A,109.2203,23.7256,来宾市,来宾技工学校,,20,20,15,9,5,46,,37,34,5,5,9,8,0.7,0.6
2025-10-06T1500,3535A,109.1781,23.7297,来宾市,兴宾区政府,,16,14,12,11,5,43,,40,37,3,4,6,6,0.5,0.4
2025-10-06T1500,4002A,109.2416,23.7461,来宾市,中南小学,,16,16,13,3,4,44,,38,35,4,4,7,7,0.4,0.4
2025-10-06T1500,3241A,103.7439,36.0842,兰州市,百合公园,,35,35,51,19,24,92,,53,53,6,20,5,3,0.8,0.9
2025-10-06T1500,3242A,103.9611,35.998,兰州市,和平,,35,35,47,23,25,89,,58,58,10,20,4,4,0.8,0.7
2025-10-06T1500,4236A,103.6293,36.0938,兰州市,庄浪东路808号,细颗粒物(PM2.5),52,44,50,36,35,104,,54,54,24,34,11,10,0.7,0.4
2025-10-06T1500,4237A,103.7251,36.1043,兰州市,安宁西路88号,,42,42,53,29,35,105,,61,61,8,18,5,4,0.5,0.5
2025-10-06T1500,4238A,103.8470,36.0676,兰州市,北滨河东路1号,,45,35,45,31,31,87,,59,59,22,29,7,8,0.8,0.7
2025-10-06T1500,3245A,103.6633,36.533,兰州新区,新区管委会,,39,29,40,15,18,123,,83,83,10,13,4,10,0.4,0.5
2025-10-06T1500,3246A,103.6975,36.4789,兰州新区,舟曲中学,,36,20,48,15,25,115,,80,80,10,13,6,8,0.6,0.5
2025-10-06T1500,1067A,116.6708,39.5111,廊坊市,药材公司,,24,18,31,6,15,76,,45,45,10,16,6,6,0.3,0.6
2025-10-06T1500,1068A,116.7214,39.5589,廊坊市,开发区,,25,16,24,10,11,77,,43,43,7,16,3,2,0.3,0.5
2025-10-06T1500,1070A,116.7244,39.5269,廊坊市,北华航天学院,,25,22,30,3,12,78,,49,49,5,13,6,6,0.2,0.4
2025-10-06T1500,2919A,116.7022,39.5453,廊坊市,河北工业大学,,24,12,23,3,14,76,,45,45,7,15,2,2,0.3,0.5
2025-10-06T1500,2535A,103.7723,29.5462,乐山市,花湖湾,,12,10,20,6,13,37,,23,23,9,15,7,7,0.6,0.6
2025-10-06T1500,2536A,103.7627,29.5844,乐山市,牛耳桥,,11,10,22,3,12,33,,24,24,11,16,6,6,0.7,0.7
2025-10-06T1500,2537A,103.7508,29.6006,乐山市,市第三水厂,,11,10,22,7,12,34,,26,26,10,15,4,5,0.7,0.7
2025-10-06T1500,2538A,103.7571,29.5664,乐山市,市监测站,,11,10,21,7,13,33,,25,25,9,13,4,5,0.4,0.6
2025-10-06T1500,3361A,103.7311,29.5628,乐山市,理工大学,,13,9,20,6,13,39,,27,27,8,12,8,9,0.7,0.7
2025-10-06T1500,2598A,100.2143,26.8576,丽江市,西南郊,,19,,3,3,3,59,,,,3,3,6,6,1.1,1.1
2025-10-06T1500,2599A,100.2497,26.8802,丽江市,丽江古城,,18,11,15,3,6,55,,42,42,6,9,10,10,0.3,0.4
2025-10-06T1500,2600A,100.2203,26.8906,丽江市,市中心,,18,10,13,3,5,57,,39,39,6,10,9,9,0.6,0.6
2025-10-06T1500,1267A,119.914,28.4514,丽水市,监测站大楼,,37,34,29,13,15,116,,87,87,8,14,4,5,0.4,0.4
2025-10-06T1500,1268A,119.93,28.4586,丽水市,莲都小学,,39,34,36,12,16,124,,88,88,6,18,4,4,0.4,0.4
2025-10-06T1500,1269A,119.879,28.4231,丽水市,余庄前,,40,28,30,14,17,125,,82,82,6,11,5,5,0.4,0.4
2025-10-06T1500,1173A,119.176,34.5885,连云港市,市环境监测站,,30,17,40,9,30,96,,58,58,8,21,5,6,0.8,0.9
2025-10-06T1500,3000A,119.3581,34.6972,连云港市,德源药业,,30,14,41,9,25,93,,58,58,8,24,5,5,1.1,1.1
2025-10-06T1500,3007A,119.178,34.844,连云港市,新城一中,,28,26,37,6,21,87,,65,65,4,27,4,5,0.6,1
2025-10-06T1500,3008A,119.3608,34.7519,连云港市,胡沟管理处,,30,19,28,7,20,95,,74,74,9,21,10,9,0.9,0.8
2025-10-06T1500,3009A,119.1478,34.5911,连云港市,矿山设计院,,32,14,36,7,26,101,,61,61,6,21,4,4,0.8,0.9
2025-10-06T1500,3434A,119.2413,34.6539,连云港市,工贸学校,,32,10,33,3,21,100,,72,72,6,18,8,7,0.9,1
2025-10-06T1500,3664A,119.4172,34.7341,连云港市,连云街道,,30,22,43,14,22,93,,76,76,22,42,3,2,0.9,0.8
2025-10-06T1500,2571A,102.3431,27.8099,凉山彝族自治州,青龙寺,,25,7,16,7,5,78,,53,53,4,6,8,7,0.2,0.2
2025-10-06T1500,2572A,102.2721,27.8415,凉山彝族自治州,邛海宾馆,,25,19,17,10,10,80,,56,56,3,6,11,12,0.5,0.5
2025-10-06T1500,2573A,102.2625,27.898,凉山彝族自治州,西昌市政府,,24,13,17,8,12,74,,52,52,4,8,16,16,0.3,0.5
2025-10-06T1500,2574A,102.2685,27.8851,凉山彝族自治州,凉山州政府,,24,19,22,15,15,76,,53,53,2,7,13,13,0.6,0.7
2025-10-06T1500,4229A,102.2342,27.8859,凉山彝族自治州,凯乐南路30号,,30,19,24,10,11,95,,58,58,5,12,15,13,0.5,0.6
2025-10-06T1500,2212A,123.2,41.1953,辽阳市,宏伟区,,32,32,34,22,7,18,,30,15,28,22,28,9,0.7,0.5
2025-10-06T1500,2213A,123.1683,41.2495,辽阳市,新华园,,38,38,38,11,6,28,,37,28,23,24,4,10,0.3,0.5
2025-10-06T1500,2214A,123.2354,41.2639,辽阳市,滨河路,,29,29,35,15,15,22,,30,18,20,21,13,10,0.5,0.4
2025-10-06T1500,2215A,123.149,41.2991,辽阳市,铁西工业园,,22,22,35,10,20,29,,26,19,16,21,7,7,0.7,0.5
2025-10-06T1500,2227A,125.1358,42.8845,辽源市,环保局,,29,29,48,3,5,67,,55,55,9,14,5,6,0.2,0.3
2025-10-06T1500,3239A,125.0764,42.9078,辽源市,银鹰制药,,21,18,20,9,10,65,,54,54,9,11,6,6,0.4,0.4
2025-10-06T1500,1625A,115.9848,36.4372,聊城市,区政府,,13,6,5,3,4,40,,52,40,13,11,8,8,0.7,0.7
2025-10-06T1500,2878A,116.0072,36.4343,聊城市,聊大东校,,14,,7,8,9,44,,59,45,16,15,9,9,0.7,0.7
2025-10-06T1500,3200A,115.9819,36.4978,聊城市,监控中心,,15,6,4,3,2,47,,58,46,17,13,8,8,0.6,0.5
2025-10-06T1500,3513A,116.0445,36.4361,聊城市,九州社区,,13,9,13,3,6,40,,55,41,14,11,2,3,0.6,0.4
2025-10-06T1500,4018A,116.0567,36.4608,聊城市,星美广场,,13,9,11,3,4,40,,54,41,11,10,1,2,0.6,0.6
2025-10-06T1500,2632A,94.3681,29.6376,林芝市,林芝监测站,,17,6,5,3,4,52,,34,34,1,2,6,6,0.3,0.3
2025-10-06T1500,2633A,94.3616,29.6616,林芝市,林芝人民医院,,15,9,9,3,5,46,,32,32,3,4,4,4,0.7,0.6
2025-10-06T1500,2603A,100.0781,23.8982,临沧市,市环保局,,16,16,18,7,20,43,,28,28,4,6,10,7,0.4,0.5
2025-10-06T1500,2604A,100.0894,23.8822,临沧市,市气象局,,15,11,15,7,14,47,,31,31,4,6,8,8,0.4,0.5
2025-10-06T1500,1733A,111.5531,36.0783,临汾市,临钢医院,,14,13,22,8,12,43,,39,35,15,16,7,7,1.2,1.2
2025-10-06T1500,1734A,111.5028,36.0714,临汾市,技工学校,,35,,20,24,23,41,,38,37,16,16,6,6,1.2,1.2
2025-10-06T1500,1736A,111.5018,36.0855,临汾市,市委,,25,25,34,10,18,42,,38,38,19,19,6,5,1.2,1.2
2025-10-06T1500,3018A,111.505,36.1014,临汾市,唐尧大酒店,,23,23,35,6,19,44,,38,37,18,18,4,4,1.3,1.3
2025-10-06T1500,4244A,111.4879,36.0530,临汾市,启星学校,,20,,25,14,23,38,,38,36,18,18,6,6,1.2,1.2
2025-10-06T1500,4271A,103.2464,35.6123,临夏回族自治州,滨河东路1号,,31,31,43,18,25,60,,46,46,7,12,10,9,0.5,0.4
2025-10-06T1500,4310A,103.2093,35.5995,临夏回族自治州,新华街21号,,32,32,46,22,28,75,,56,56,7,12,6,6,0.4,0.4
2025-10-06T1500,1618A,118.3429,35.0532,临沂市,沂河小区,,,,57,20,33,71,,64,64,,26,8,8,0.7,1
2025-10-06T1500,1619A,118.295,35.0583,临沂市,鲁南制药厂,,24,17,44,16,27,74,,62,62,10,24,8,8,1.1,1.4
2025-10-06T1500,1620A,118.2794,34.9976,临沂市,新光毛纺厂,,27,14,47,12,30,85,,60,60,14,29,8,8,0.7,1
2025-10-06T1500,1621A,118.3956,35.0888,临沂市,河东保险公司,,21,17,43,9,27,67,,54,54,11,21,7,6,0.6,0.9
2025-10-06T1500,3370A,118.3564,35.0215,临沂市,十里堡居委,,25,17,46,3,28,77,,65,65,14,26,8,8,0.7,1
2025-10-06T1500,3496A,118.3604,35.1084,临沂市,南坊新区,,21,12,51,3,27,66,,54,54,9,24,9,8,1.1,1.4
2025-10-06T1500,3860A,118.3920,35.0300,临沂市,皇山花园小区,,24,17,42,8,22,74,,63,63,10,21,10,10,1.0,1.3
2025-10-06T1500,1870A,109.4856,24.3895,柳州市,柳东小学,,22,15,12,15,8,61,,46,46,4,4,5,5,0.4,0.3
2025-10-06T1500,1871A,109.4157,24.3277,柳州市,环保监测站,,19,,9,13,5,60,,46,46,5,4,8,7,0.5,0.4
2025-10-06T1500,1872A,109.389,24.341,柳州市,河西水厂,,34,34,15,14,5,56,,44,44,7,5,6,5,0.5,0.3
2025-10-06T1500,1873A,109.4311,24.2921,柳州市,市四中,,21,21,12,3,6,60,,43,43,8,7,8,9,0.3,0.2
2025-10-06T1500,1874A,109.4006,24.3631,柳州市,市九中,,40,,18,28,6,56,,44,44,11,4,6,3,0.8,0.2
2025-10-06T1500,1875A,109.4958,24.3134,柳州市,古亭山,,19,19,13,7,6,58,,46,46,3,3,7,10,0.4,0.3
2025-10-06T1500,3402A,109.5422,24.3996,柳州市,市二中,,21,20,13,10,5,65,,47,47,5,6,7,6,0.4,0.3
2025-10-06T1500,2307A,116.5079,31.737,六安市,监测大楼,细颗粒物(PM2.5),63,,43,45,35,124,,74,74,4,11,6,6,0.7,0.7
2025-10-06T1500,2308A,116.4738,31.7643,六安市,皖西学院,细颗粒物(PM2.5),65,62,52,47,40,128,,74,74,2,6,3,3,0.7,0.7
2025-10-06T1500,2309A,116.4996,31.7905,六安市,朝阳厂,细颗粒物(PM2.5),53,52,48,37,36,118,,66,66,8,15,5,5,0.7,0.7
2025-10-06T1500,2310A,116.5567,31.7886,六安市,开发区,颗粒物(PM10),51,52,42,34,31,130,,71,71,3,12,3,2,0.8,0.7
2025-10-06T1500,2576A,104.8,26.5892,六盘水市,窑上,,,,30,12,15,57,,55,55,2,3,2,2,0.3,0.3
2025-10-06T1500,2577A,104.83,26.5917,六盘水市,黄土坡,,19,6,14,3,7,59,,57,57,4,5,4,3,0.3,0.3
2025-10-06T1500,2578A,104.89,26.5939,六盘水市,水钢,,20,14,20,3,8,61,,59,59,2,2,1,2,0.1,0.2
2025-10-06T1500,2579A,104.8475,26.5894,六盘水市,民中,,19,9,15,3,7,59,,56,56,2,3,2,2,0.2,0.3
2025-10-06T1500,2580A,104.9544,26.5506,六盘水市,双水,,18,9,16,3,9,56,,54,54,3,4,3,3,0.1,0.1
2025-10-06T1500,2336A,117.0217,25.1033,龙岩市,龙岩市监测站,,25,23,20,6,13,79,,58,58,4,11,4,8,0.3,0.4
2025-10-06T1500,2337A,117.0258,25.0661,龙岩市,闽西职业技术学院,,30,22,23,9,11,96,,64,64,2,8,6,13,0.3,0.3
2025-10-06T1500,2338A,117.0196,25.0306,龙岩市,龙岩学院,,28,28,19,8,12,88,,62,62,4,7,8,7,0.4,0.4
2025-10-06T1500,2885A,104.9339,33.3826,陇南市,滨江中学,,26,26,30,3,12,69,,46,46,4,7,6,6,0.5,0.6
2025-10-06T1500,3247A,104.955,33.371,陇南市,市总工会,,29,29,30,10,9,79,,52,52,6,10,8,8,0.8,0.8
2025-10-06T1500,2487A,111.9589,27.8901,娄底市,电视发射台,,22,19,31,3,16,69,,48,48,6,6,7,6,0.4,0.4
2025-10-06T1500,2488A,111.9975,27.725,娄底市,市监测站,,27,27,54,6,34,64,,53,53,5,19,8,9,0.4,0.7
2025-10-06T1500,2489A,112.0194,27.7314,娄底市,市委党校,,20,,42,8,34,62,,54,54,5,12,5,6,0.3,0.6
2025-10-06T1500,2490A,111.9561,27.7569,娄底市,涟钢,,39,39,51,18,35,48,,40,40,19,18,33,12,1.1,1.3
2025-10-06T1500,2491A,111.9892,27.7044,娄底市,市政府,,20,12,48,3,35,61,,49,49,2,13,7,8,0.5,0.9
2025-10-06T1500,1893A,105.4324,28.9634,泸州市,九狮山,,23,23,32,3,11,52,,28,28,4,6,6,6,0.5,0.4
2025-10-06T1500,1894A,105.4427,28.9063,泸州市,小市上码头,,27,27,25,12,9,34,,22,22,5,8,6,6,0.7,0.6
2025-10-06T1500,1895A,105.4241,28.8573,泸州市,兰田宪桥,,31,31,27,14,11,51,,27,27,4,8,5,5,0.9,0.8
2025-10-06T1500,1896A,105.4379,28.8833,泸州市,市环监站,,27,27,28,18,14,51,,28,28,9,13,7,6,0.5,0.5
2025-10-06T1500,4272A,105.3689,28.7783,泸州市,纳溪中医医院,,34,34,26,22,13,45,,24,24,8,10,6,5,0.8,0.8
2025-10-06T1500,2183A,111.1406,37.5211,吕梁市,环保局,,23,,17,16,17,56,,42,42,20,41,3,6,1.0,0.8
2025-10-06T1500,2185A,111.1297,37.5136,吕梁市,自来水公司,,23,19,18,16,18,61,,34,34,16,41,3,2,1.0,0.9
2025-10-06T1500,2867A,111.1283,37.51,吕梁市,马茂庄小学,,22,22,21,11,17,63,,36,36,16,43,4,4,0.9,0.8
2025-10-06T1500,1812A,112.3931,34.6516,洛阳市,市委党校,,20,20,17,13,15,38,,42,40,19,18,6,6,0.8,1
2025-10-06T1500,1815A,112.494,34.6886,洛阳市,河南林校,,23,23,23,16,16,44,,40,38,16,18,7,6,0.7,0.9
2025-10-06T1500,1816A,112.3844,34.623,洛阳市,开发区管委会,,22,21,15,15,12,43,,47,42,16,14,8,8,0.9,0.9
2025-10-06T1500,1817A,112.4267,34.6258,洛阳市,市委新办公区,,21,21,19,13,13,35,,40,34,15,14,7,7,0.8,0.9
2025-10-06T1500,3340A,112.6005,34.6326,洛阳市,伊滨,,16,12,17,9,14,49,,38,36,14,15,6,6,0.7,1
2025-10-06T1500,3341A,112.4951,34.6332,洛阳市,中移产业园,,22,21,20,15,16,38,,36,33,14,15,7,6,0.8,1
2025-10-06T1500,3593A,112.5736,34.8993,洛阳市,吉利监测站,,19,19,21,6,13,46,,39,39,11,11,6,6,0.6,1
2025-10-06T1500,3635A,112.3677,34.662,洛阳市,河科大西苑校区,,22,22,17,12,8,38,,44,36,16,17,6,7,0.8,1
2025-10-06T1500,3636A,112.4388,34.6781,洛阳市,英才小学,,35,35,29,13,14,33,,36,31,13,14,6,6,0.8,1.1
2025-10-06T1500,4214A,112.4600,34.6949,洛阳市,春都路1号院,,20,20,15,10,10,35,,33,30,13,14,6,5,0.7,1
2025-10-06T1500,2399A,114.051,33.5699,漯河市,三五一五工厂,,13,,10,9,12,35,,37,36,8,8,6,5,0.6,0.8
2025-10-06T1500,2400A,114.0055,33.5698,漯河市,漯河大学,,15,15,14,9,10,35,,37,35,7,6,4,4,0.5,0.7
2025-10-06T1500,2401A,114.0138,33.5828,漯河市,市水利局,,,17,13,14,10,34,,36,35,10,8,6,6,,0.8
2025-10-06T1500,2402A,114.0261,33.5698,漯河市,市广电局,,20,20,12,12,11,37,,38,37,3,4,3,3,0.7,0.8
2025-10-06T1500,3478A,113.9749,33.5664,漯河市,市图书馆,,15,15,12,3,6,35,,35,33,8,8,3,3,0.5,0.7
2025-10-06T1500,4250A,114.0892,33.5882,漯河市,韶山路11号,,13,12,11,9,6,30,,32,32,10,9,5,5,0.8,0.8
2025-10-06T1500,1798A,118.5092,31.6837,马鞍山市,湖东路四小,,46,46,62,12,38,117,,115,115,3,18,9,8,0.6,1
2025-10-06T1500,1799A,118.5024,31.6449,马鞍山市,开发区,,40,37,70,22,37,127,,111,111,4,21,7,6,0.6,1
2025-10-06T1500,3633A,118.4918,31.6809,马鞍山市,雨山,,49,49,53,15,22,115,,116,116,3,15,5,5,0.6,0.9
2025-10-06T1500,4191A,118.5274,31.72227,马鞍山市,慈湖高新区,,33,16,60,16,36,105,,111,111,8,21,9,9,0.5,0.8
2025-10-06T1500,1686A,111.0286,21.4688,茂名市,电白南海,,34,34,36,9,24,62,,59,59,3,2,5,4,0.7,0.6
2025-10-06T1500,1687A,110.9294,21.6533,茂名市,茂石化七小,,22,22,22,14,9,56,,53,53,2,3,6,6,0.3,0.3
2025-10-06T1500,1688A,110.9107,21.6687,茂名市,健康路,,19,19,18,9,10,60,,55,55,4,4,5,5,0.5,0.5
2025-10-06T1500,1689A,110.8592,21.6828,茂名市,高岭,,27,27,23,3,5,59,,55,55,6,6,6,11,0.5,0.5
2025-10-06T1500,3450A,111.01,21.5165,茂名市,电白水东,,19,14,22,3,9,59,,54,54,5,4,5,5,0.5,0.5
2025-10-06T1500,2539A,104.0308,30.0478,眉山市,黑龙滩水库,,13,6,13,3,10,40,,35,35,1,8,3,3,0.3,0.4
2025-10-06T1500,2540A,103.8416,30.0874,眉山市,气象局,,23,7,25,3,9,72,,40,40,6,15,12,12,0.3,0.5
2025-10-06T1500,3137A,103.8578,30.0744,眉山市,市委党校,,20,6,16,3,5,62,,38,38,6,15,8,8,0.7,0.7
2025-10-06T1500,3148A,103.8291,30.0564,眉山市,区人社局,,,13,32,,6,68,,39,39,7,13,10,11,0.7,0.7
2025-10-06T1500,1690A,116.1231,24.3284,梅州市,梅江月梅,,14,6,16,3,7,43,,37,37,5,9,8,8,0.5,0.5
2025-10-06T1500,1691A,116.0797,24.2719,梅州市,梅县新城,,18,11,17,9,11,55,,40,40,2,7,7,7,0.5,0.5
2025-10-06T1500,1692A,116.1248,24.2654,梅州市,环境监控中心,,15,10,15,3,10,46,,36,36,3,8,4,12,0.4,0.4
2025-10-06T1500,3315A,116.1233,24.2991,梅州市,梅龙,,14,7,15,6,7,42,,32,32,2,6,8,9,0.6,0.6
2025-10-06T1500,1878A,104.7778,31.4741,绵阳市,富乐山,,17,6,13,3,7,52,,48,48,4,6,3,2,0.7,0.8
2025-10-06T1500,1880A,104.6697,31.4668,绵阳市,高新区自来水公司,,14,6,18,3,7,43,,37,37,7,15,8,8,0.6,0.7
2025-10-06T1500,1881A,104.7287,31.5075,绵阳市,三水厂,,16,,15,3,11,50,,45,45,4,11,12,13,0.7,0.8
2025-10-06T1500,3491A,104.69,31.5322,绵阳市,西科大附属小学,,14,6,21,3,11,43,,40,40,9,16,8,8,0.6,0.7
2025-10-06T1500,3492A,104.5648,31.5343,绵阳市,安州区旅游局,,13,6,16,3,11,40,,32,32,8,13,6,8,0.6,0.7
2025-10-06T1500,4226A,104.7651,31.4531,绵阳市,绵阳市气象局,,16,6,12,3,7,51,,46,46,4,7,9,9,0.2,0.3
2025-10-06T1500,1784A,129.61,44.561,牡丹江市,环保大楼,,21,15,22,3,14,66,,50,50,4,13,6,7,0.2,0.2
2025-10-06T1500,1785A,129.6115,44.5782,牡丹江市,文化广场,,20,17,27,14,15,61,,47,47,10,18,5,8,0.3,0.4
2025-10-06T1500,1786A,129.5904,44.5963,牡丹江市,第一医院,,22,19,31,14,26,68,,50,50,8,15,5,8,0.2,0.2
2025-10-06T1500,1787A,129.6364,44.6075,牡丹江市,机车工厂,,21,16,28,12,16,66,,50,50,5,13,7,12,0.2,0.2
2025-10-06T1500,1788A,129.6386,44.5462,牡丹江市,第一中学,,26,22,24,18,14,64,,47,47,4,14,4,4,0.1,0.1
2025-10-06T1500,2531A,105.0703,29.61,内江市,市监测站,,15,11,17,10,12,28,,21,20,5,7,2,2,0.7,0.7
2025-10-06T1500,2532A,105.0717,29.5947,内江市,东兴区政府,,10,6,14,6,7,30,,25,23,6,9,5,5,0.5,0.4
2025-10-06T1500,2533A,105.0653,29.5817,内江市,内江二中,,,19,18,15,13,28,,22,20,8,10,,2,0.6,0.6
2025-10-06T1500,2534A,105.0406,29.5822,内江市,内江日报社,,22,22,18,13,12,35,,26,26,7,10,4,4,0.6,0.6
2025-10-06T1500,2628A,92.0657,31.4846,那曲市,那曲监测站,,31,12,27,6,14,98,,74,74,6,14,4,5,0.2,0.4
2025-10-06T1500,4243A,92.0515,31.4787,那曲市,那曲市委宣传部,,34,6,14,3,7,107,,78,78,3,15,3,3,0.4,0.6
2025-10-06T1500,1290A,115.8931,28.6843,南昌市,省外办,,26,13,27,12,18,83,,72,72,7,18,3,5,0.5,0.6
2025-10-06T1500,1291A,115.8886,28.7003,南昌市,省林业公司,,23,9,26,3,11,73,,61,61,6,14,3,4,0.1,0.3
2025-10-06T1500,1292A,115.8126,28.7442,南昌市,林科所,,26,7,13,7,9,81,,65,65,3,18,9,10,0.3,0.2
2025-10-06T1500,1294A,115.8518,28.687,南昌市,建工学校,,23,8,32,6,18,73,,64,64,2,23,8,10,0.5,0.6
2025-10-06T1500,1295A,115.8921,28.6424,南昌市,象湖,,24,18,26,3,8,76,,62,62,5,23,8,10,0.6,0.8
2025-10-06T1500,1296A,115.7423,28.7996,南昌市,武术学校,,25,10,12,10,11,80,,53,53,6,8,12,9,0.2,0.2
2025-10-06T1500,3046A,115.9084,28.6062,南昌市,机电学校,,28,18,34,3,16,88,,66,66,2,17,8,9,0.3,0.5
2025-10-06T1500,3690A,115.9721,28.7031,南昌市,外国语学校,,27,13,32,7,19,86,,63,63,8,20,7,8,0.2,0.3
2025-10-06T1500,4192A,115.9316,28.68677,南昌市,南京东路235号,,25,14,35,6,15,78,,65,65,5,19,3,6,0.6,0.8
2025-10-06T1500,1906A,106.0789,30.8023,南充市,南充市委,,25,25,14,14,8,33,,22,22,6,9,4,3,0.5,0.5
2025-10-06T1500,1907A,106.1031,30.8217,南充市,南充炼油厂,,25,25,23,13,8,35,,24,24,5,6,5,5,0.3,0.3
2025-10-06T1500,4227A,106.1083,30.7884,南充市,梨树横街98号,,25,25,15,10,9,37,,25,25,7,8,4,4,0.4,0.4
2025-10-06T1500,4304A,106.1172,30.843,南充市,清泉寺北路188号,,22,15,16,15,8,37,,26,26,5,6,5,5,0.4,0.4
2025-10-06T1500,4305A,106.067,30.7616,南充市,同庆路1号,,24,24,8,12,4,32,,23,23,8,9,5,5,0.4,0.4
2025-10-06T1500,1151A,118.8086,32.1065,南京市,迈皋桥,,34,26,53,22,40,107,,113,113,2,9,4,4,0.3,0.7
2025-10-06T1500,1152A,118.7538,32.0551,南京市,草场门,,42,31,62,29,42,105,,120,120,9,21,5,5,0.6,0.9
2025-10-06T1500,1153A,118.7794,32.0745,南京市,山西路,,36,34,62,14,33,115,,129,129,2,14,4,4,0.6,0.8
2025-10-06T1500,1154A,118.7752,32.0023,南京市,中华门,,33,27,49,12,38,103,,117,117,1,14,4,4,0.4,0.7
2025-10-06T1500,1155A,118.8109,32.0309,南京市,瑞金路,,33,27,51,14,39,105,,116,116,1,16,7,6,0.2,0.5
2025-10-06T1500,1156A,118.7997,32.0754,南京市,玄武湖,,34,34,55,10,30,105,,116,116,6,14,6,6,0.1,0.4
2025-10-06T1500,1157A,118.6414,32.0931,南京市,浦口,,35,32,55,23,34,110,,108,108,6,15,7,8,0.5,0.9
2025-10-06T1500,1158A,118.7356,31.9996,南京市,奥体中心,,39,28,55,24,44,123,,136,136,7,23,5,6,0.5,0.7
2025-10-06T1500,1159A,118.9125,32.1028,南京市,仙林大学城,,38,36,66,14,36,120,,140,140,8,19,9,10,0.6,1
2025-10-06T1500,3422A,118.8436,31.9198,南京市,江宁彩虹桥,,40,35,52,14,38,126,,118,118,2,12,7,6,0.8,0.8
2025-10-06T1500,3427A,118.8554,32.3578,南京市,六合雄州,,49,,58,34,43,136,,123,123,10,21,6,7,1.1,1.1
2025-10-06T1500,4249A,118.8708,31.3402,南京市,汶溪路181号,,36,26,43,10,35,114,,104,104,7,15,7,5,0.6,0.7
2025-10-06T1500,4312A,119.019,31.6512,南京市,中山西路1号,,32,24,42,22,28,101,,100,100,6,18,4,4,0.5,0.8
2025-10-06T1500,1401A,108.3103,22.7881,南宁市,二十一中,,13,,8,3,7,41,,38,38,4,4,5,5,0.5,0.4
2025-10-06T1500,1402A,108.3141,22.8528,南宁市,北湖,,16,14,14,3,6,50,,47,46,5,6,4,4,0.5,0.4
2025-10-06T1500,1403A,108.3206,22.8225,南宁市,市监测站,,15,,10,3,8,46,,43,41,4,5,4,4,0.4,0.3
2025-10-06T1500,1404A,108.3829,22.8037,南宁市,大自然花园,,17,8,11,6,9,52,,47,47,3,4,4,5,0.5,0.5
2025-10-06T1500,1405A,108.4394,22.7904,南宁市,仙葫,,17,7,16,3,5,53,,49,49,3,3,4,5,0.4,0.3
2025-10-06T1500,1406A,108.2397,22.8467,南宁市,区农职院,,14,11,14,3,7,44,,42,40,6,6,1,2,0.4,0.5
2025-10-06T1500,1407A,108.3275,22.735,南宁市,英华嘉园,,19,19,14,3,7,50,,47,47,3,3,1,1,0.3,0.3
2025-10-06T1500,3401A,108.4834,22.7618,南宁市,红星社区,,16,10,12,3,4,51,,47,47,4,4,2,3,0.3,0.2
2025-10-06T1500,4221A,108.2177,22.7774,南宁市,乐贤路16号,,15,6,13,3,12,46,,46,43,7,6,5,5,0.2,0.2
2025-10-06T1500,2332A,118.1681,26.6369,南平市,南平市监测站,,25,22,21,16,16,79,,66,66,3,12,3,3,0.4,0.5
2025-10-06T1500,2333A,118.1825,26.6489,南平市,南平铝业有限公司,,25,17,24,13,14,80,,69,69,3,12,6,7,0.3,0.4
2025-10-06T1500,2334A,118.1756,26.6272,南平市,南平七中,,44,44,23,18,15,85,,66,66,3,9,4,4,0.4,0.5
2025-10-06T1500,1168A,120.9098,31.9663,南通市,狼山街道,,48,33,31,19,22,152,,113,113,11,20,4,5,0.4,0.4
2025-10-06T1500,1169A,120.86,32.0005,南通市,虹桥,臭氧1小时,74,35,38,31,27,179,,122,122,20,26,5,6,0.2,0.6
2025-10-06T1500,1170A,120.87,32.02,南通市,城中,臭氧1小时,68,42,41,23,22,174,,120,120,11,23,6,8,0.8,0.7
2025-10-06T1500,1171A,120.94,31.93,南通市,星湖花园,臭氧1小时,73,32,29,27,21,178,,114,114,9,23,4,5,0.7,0.7
2025-10-06T1500,1172A,120.81,32.0417,南通市,紫琅学院,,48,33,35,27,21,152,,109,109,30,28,5,5,0.8,0.9
2025-10-06T1500,3291A,121.067,32.062,南通市,通州监测站,臭氧1小时,64,36,27,24,18,171,,110,110,7,17,3,3,0.7,0.7
2025-10-06T1500,3432A,120.9348,31.9883,南通市,环境教育馆,臭氧1小时,59,48,37,25,23,167,,108,108,8,21,5,5,0.5,0.4
2025-10-06T1500,2404A,112.5224,33.0122,南阳市,瓦房庄,,19,19,14,8,5,50,,43,43,7,7,7,7,0.8,0.7
2025-10-06T1500,2405A,112.5003,32.9735,南阳市,汉画馆,,20,20,15,8,6,49,,41,41,9,8,8,7,0.8,0.7
2025-10-06T1500,2406A,112.5573,33.027,南阳市,气象站,,16,8,8,3,4,50,,41,41,9,8,8,8,0.8,0.7
2025-10-06T1500,2407A,112.5481,32.9689,南阳市,理工学院,,17,17,13,7,6,51,,42,42,8,8,9,8,0.8,0.8
2025-10-06T1500,4008A,112.5234,32.9922,南阳市,卧龙区政府,,15,8,8,3,7,48,,41,41,10,9,6,6,0.8,0.7
2025-10-06T1500,1234A,121.8358,29.911,宁波市,区环保大楼,,36,26,26,11,12,114,,81,81,23,14,9,6,0.6,0.6
2025-10-06T1500,1235A,121.56,29.82,宁波市,万里学院,,44,29,22,17,14,139,,104,104,4,8,7,7,0.4,0.4
2025-10-06T1500,1236A,121.713,29.9572,宁波市,龙赛医院,,50,37,29,10,7,159,,123,123,21,16,14,8,0.7,0.5
2025-10-06T1500,1239A,121.633,29.7733,宁波市,钱湖水厂,,37,21,20,13,10,117,,87,87,2,5,6,6,0.6,0.5
2025-10-06T1500,1240A,121.5856,29.8635,宁波市,太古小学,,44,28,25,18,10,140,,101,101,3,7,3,3,0.6,0.6
2025-10-06T1500,1241A,121.524,29.8674,宁波市,市环境监测中心,,45,32,24,17,10,142,,94,94,6,11,8,8,0.5,0.5
2025-10-06T1500,2871A,121.6147,29.9017,宁波市,万里国际学校,,46,22,20,19,10,146,,97,97,4,6,5,5,0.4,0.4
2025-10-06T1500,3710A,121.5594,29.8975,宁波市,白沙活动中心,,45,22,17,15,8,143,,102,102,4,9,4,6,0.5,0.5
2025-10-06T1500,2341A,119.5388,26.6612,宁德市,宁德市监测站,,40,26,25,18,15,128,,84,84,5,12,5,4,0.6,0.6
2025-10-06T1500,3209A,119.5231,26.6562,宁德市,宁德一中,,40,22,28,13,16,126,,90,90,3,8,9,7,0.5,0.5
2025-10-06T1500,2618A,98.8601,25.8567,怒江傈僳族自治州,州监测站,,18,14,22,10,12,55,,32,32,3,8,8,10,0.4,0.4
2025-10-06T1500,2619A,98.8546,25.8417,怒江傈僳族自治州,泸水一中,,16,12,17,11,11,42,,21,21,4,11,5,5,0.4,0.5
2025-10-06T1500,1888A,101.6891,26.571,攀枝花市,弄弄坪,,30,20,43,14,15,96,,54,54,7,20,11,12,0.8,1
2025-10-06T1500,1889A,101.5769,26.5928,攀枝花市,河门口,,38,28,28,14,14,121,,58,58,9,14,21,13,1.5,0.9
2025-10-06T1500,1890A,101.7169,26.585,攀枝花市,炳草岗,,30,26,40,11,17,96,,55,55,6,22,12,14,0.8,0.9
2025-10-06T1500,1891A,101.7369,26.5008,攀枝花市,仁和,,25,17,20,9,12,78,,48,48,7,11,13,12,0.6,0.9
2025-10-06T1500,2835A,101.7227,26.567,攀枝花市,四十中小,,32,32,32,22,19,95,,54,54,3,17,13,19,1.0,1.2
2025-10-06T1500,1604A,122.0303,41.1489,盘锦市,开发区,,31,31,32,12,8,56,,48,48,13,11,8,8,0.4,0.3
2025-10-06T1500,1605A,122.0485,41.0883,盘锦市,兴隆台,,29,29,38,11,7,55,,48,46,14,14,7,6,0.2,0.1
2025-10-06T1500,1606A,121.8297,41.1028,盘锦市,新生街道,,20,20,28,11,8,61,,49,49,18,17,8,7,0.3,0.2
2025-10-06T1500,1832A,113.3257,33.742,平顶山市,新华旅馆,,15,14,11,10,14,46,,42,42,10,12,5,5,0.5,0.6
2025-10-06T1500,1833A,113.2919,33.737,平顶山市,规划设计院,,16,11,24,11,11,46,,41,41,10,13,4,4,0.7,0.9
2025-10-06T1500,1834A,113.182,33.774,平顶山市,平顶山工学院,,,10,12,7,8,55,,49,49,10,10,6,6,,0.7
2025-10-06T1500,3204A,113.3025,33.73,平顶山市,规划局,,17,17,14,7,11,49,,44,44,9,12,5,4,0.6,0.7
2025-10-06T1500,3594A,112.8867,33.9116,平顶山市,石龙区,,18,15,10,12,11,52,,46,46,9,8,6,5,0.9,0.7
2025-10-06T1500,2656A,106.6692,35.5461,平凉市,聚贤嘉苑,,35,35,43,18,23,59,,48,48,8,12,9,8,0.6,0.6
2025-10-06T1500,2657A,106.7021,35.5307,平凉市,博物馆,,34,34,48,18,21,54,,51,51,12,11,9,9,0.7,0.7
2025-10-06T1500,2347A,114.0997,27.5002,萍乡市,武功山,,,6,4,3,3,41,,36,36,,4,,15,0.4,0.4
2025-10-06T1500,2348A,113.8385,27.6434,萍乡市,中医院,,31,23,21,12,13,97,,68,68,8,14,7,6,0.8,0.7
2025-10-06T1500,2349A,113.8493,27.6253,萍乡市,市政府车库,,30,7,18,3,16,96,,67,67,8,13,14,16,0.6,0.6
2025-10-06T1500,2350A,113.8676,27.6435,萍乡市,市环保局,,34,17,23,10,16,107,,73,73,3,9,8,12,0.5,0.5
2025-10-06T1500,2351A,113.866,27.6198,萍乡市,安源区政府,,29,15,20,9,15,91,,65,65,6,11,11,14,0.5,0.6
2025-10-06T1500,2319A,119.0141,25.4325,莆田市,荔城区仓后路,,41,36,50,12,28,131,,113,113,5,11,8,8,0.6,0.6
2025-10-06T1500,2320A,119.0015,25.4553,莆田市,莆田市监测站,,46,46,44,14,27,136,,111,111,7,10,8,8,0.6,0.6
2025-10-06T1500,2321A,119.1119,25.4561,莆田市,涵江区六中,,40,26,41,11,26,128,,110,110,5,11,7,7,0.6,0.5
2025-10-06T1500,2322A,119.1013,25.3215,莆田市,秀屿区政府,,40,24,38,13,24,126,,106,106,6,11,8,8,0.5,0.6
2025-10-06T1500,2392A,115.0312,35.7636,濮阳市,环保局,,12,6,5,3,7,37,,40,36,10,11,4,4,0.9,1
2025-10-06T1500,2394A,115.0574,35.7609,濮阳市,油田运输公司,,13,8,9,3,3,41,,43,40,12,12,7,7,0.9,0.9
2025-10-06T1500,3021A,115,35.7668,濮阳市,濮水河管理处,,12,6,7,3,3,36,,40,36,12,11,7,8,0.7,0.8
2025-10-06T1500,4216A,115.0924,35.7686,濮阳市,任丘路479号,,12,8,12,3,5,38,,39,37,11,11,7,6,0.7,0.7
2025-10-06T1500,2601A,100.98,22.7633,普洱市,市环保局,,26,26,27,15,18,42,,31,31,3,5,8,8,0.3,0.4
2025-10-06T1500,2602A,100.9817,22.8322,普洱市,普洱第二中学,,23,23,27,6,12,36,,26,26,3,6,7,7,0.3,0.3
2025-10-06T1500,2262A,131.0518,45.8751,七台河市,新一中,,26,6,19,3,7,82,,64,64,5,10,10,11,0.5,0.7
2025-10-06T1500,3345A,131.0577,45.7879,七台河市,中波台,,19,11,27,6,8,60,,47,47,19,24,5,6,0.5,0.5
2025-10-06T1500,3637A,131.0176,45.7761,七台河市,人民广场,,24,10,27,3,16,74,,60,60,4,18,7,9,0.5,0.6
2025-10-06T1500,3684A,130.8781,45.8222,七台河市,新建矿广场,,20,17,17,3,13,61,,51,51,6,12,8,9,0.4,0.4
2025-10-06T1500,1779A,123.9305,47.3636,齐齐哈尔市,安居小区,,24,24,31,3,11,69,,55,55,12,21,3,3,0.3,0.4
2025-10-06T1500,1780A,123.9488,47.3386,齐齐哈尔市,中心广场,,24,15,20,3,8,76,,57,57,6,16,4,4,0.1,0.2
2025-10-06T1500,1781A,123.9483,47.3227,齐齐哈尔市,农牧车辆厂,,34,34,34,3,7,73,,57,57,5,21,4,4,0.5,0.7
2025-10-06T1500,1783A,123.945,47.2988,齐齐哈尔市,市环境监测站,,23,22,27,6,9,73,,59,59,5,19,6,6,0.4,0.5
2025-10-06T1500,3662A,123.6333,47.2075,齐齐哈尔市,富区青少年活动中心,,,,39,,10,64,,53,53,3,10,,4,0.4,0.5
2025-10-06T1500,2591A,107.9783,26.5747,黔东南苗族侗族自治州,市环境监测站,,20,6,17,3,16,61,,40,40,2,10,3,3,0.3,0.4
2025-10-06T1500,2881A,107.8908,26.5311,黔东南苗族侗族自治州,凯里学院,,19,7,15,3,9,58,,39,39,6,9,3,3,0.4,0.4
2025-10-06T1500,2593A,107.5228,26.2403,黔南布依族苗族自治州,小围寨,,15,6,15,3,11,48,,33,33,1,5,3,2,0.3,0.4
2025-10-06T1500,3538A,107.5175,26.2978,黔南布依族苗族自治州,沙坝,,14,6,19,3,14,43,,33,33,3,8,3,3,0.4,0.5
2025-10-06T1500,2589A,104.9022,25.0925,黔西南布依族苗族自治州,场坝街,,16,16,22,7,14,49,,37,37,6,9,8,13,0.3,0.4
2025-10-06T1500,2590A,104.8811,25.0992,黔西南布依族苗族自治州,坪东大道,,16,14,27,7,15,50,,42,42,4,11,3,3,0.3,0.5
2025-10-06T1500,2502A,108.6236,21.9667,钦州市,市环保站,,,,12,0,2,56,,56,56,4,5,2,2,0.7,0.6
2025-10-06T1500,2503A,108.6549,21.9481,钦州市,沙埠小学,,18,15,12,3,5,57,,58,58,1,2,1,1,0.3,0.3
2025-10-06T1500,2504A,108.5989,21.7431,钦州市,港区一小,,25,25,24,3,7,51,,52,52,7,6,8,4,0.9,0.5
2025-10-06T1500,3404A,108.5959,21.9633,钦州市,北职校,,17,,13,3,4,53,,54,54,2,2,3,3,0.5,0.5
2025-10-06T1500,1043A,119.7493,40.0116,秦皇岛市,第一关,,23,,19,16,17,70,,68,68,14,13,5,6,0.3,0.2
2025-10-06T1500,1044A,119.5897,39.9499,秦皇岛市,监测站,,20,16,27,6,7,64,,64,64,13,11,4,5,0.4,0.2
2025-10-06T1500,1046A,119.5251,39.9041,秦皇岛市,建设大厦,,23,23,26,8,10,67,,65,65,10,11,3,3,0.2,0.2
2025-10-06T1500,3132A,119.610547,39.943889,秦皇岛市,文明里,,20,20,17,3,7,55,,59,53,12,12,7,7,0.4,0.2
2025-10-06T1500,4198A,119.5090,39.8253,秦皇岛市,北戴河轮滑馆,,26,26,29,13,9,69,,65,65,8,8,2,3,0.2,0.2
2025-10-06T1500,1307A,120.6659,36.2403,青岛市,仰口,,25,6,3,3,1,77,,84,72,5,5,11,11,0.7,0.7
2025-10-06T1500,1310A,120.4134,36.0658,青岛市,市南区东部子站,,25,7,4,3,2,77,,91,67,6,4,6,6,0.2,0.2
2025-10-06T1500,1311A,120.3664,36.1032,青岛市,四方区子站,,30,7,2,3,5,93,,100,81,4,5,2,2,0.3,0.3
2025-10-06T1500,1312A,120.2994,36.054,青岛市,市南区西部子站,,27,7,5,3,3,85,,97,75,8,6,6,6,0.5,0.5
2025-10-06T1500,1313A,120.4581,36.0858,青岛市,崂山区子站,,28,6,2,3,2,89,,102,77,8,7,8,8,0.3,0.2
2025-10-06T1500,1315A,120.3999,36.3083,青岛市,城阳区子站,,31,7,2,3,4,98,,92,88,2,4,3,3,0.4,0.4
2025-10-06T1500,3362A,120.5014,36.4034,青岛市,即墨2号,,29,6,1,3,1,90,,98,83,7,6,4,4,0.3,0.3
2025-10-06T1500,3642A,120.3503,36.0736,青岛市,市北区南部,,25,8,7,3,1,80,,94,68,15,12,9,8,0.4,0.4
2025-10-06T1500,3643A,120.3948,36.1805,青岛市,李沧区北部,,26,,1,3,6,82,,72,72,10,14,5,5,0.4,0.4
2025-10-06T1500,4290A,120.1969,35.9546,青岛市,珠江路669号,,28,,2,3,5,88,,90,68,7,9,7,7,0.4,0.4
2025-10-06T1500,4291A,120.0424,35.8656,青岛市,黄岛区人民政府广场,,27,6,3,3,0,86,,89,72,6,7,5,5,0.5,0.5
2025-10-06T1500,1702A,113.0426,23.691,清远市,环保大楼,,25,,13,14,9,79,,51,51,6,9,8,9,0.6,0.5
2025-10-06T1500,1703A,113.0208,23.7106,清远市,凤城街办,,24,18,14,15,7,74,,49,49,9,11,10,10,0.5,0.4
2025-10-06T1500,3025A,113.0477,23.6344,清远市,技师学院,,28,16,17,8,6,89,,50,50,5,12,4,7,0.4,0.4
2025-10-06T1500,3318A,112.9903,23.7403,清远市,清新太和,,27,19,14,8,6,85,,56,56,9,10,10,7,0.6,0.5
2025-10-06T1500,3455A,113.076,23.7198,清远市,清城东城,,24,16,15,10,5,75,,48,48,6,8,8,9,0.6,0.6
2025-10-06T1500,2661A,107.6325,35.7357,庆阳市,庆阳五中,,19,19,29,10,17,47,,49,48,6,7,8,8,0.5,0.5
2025-10-06T1500,2662A,107.6364,35.7067,庆阳市,市环保局,,26,26,34,7,13,51,,55,52,8,9,3,3,0.7,0.7
2025-10-06T1500,1916A,103.7897,25.5035,曲靖市,环境监测站,,20,,10,3,8,64,,53,53,3,7,5,6,0.2,0.2
2025-10-06T1500,1917A,103.8,25.5364,曲靖市,烟厂办公区,,19,13,15,8,9,60,,52,52,3,5,4,4,0.3,0.3
2025-10-06T1500,3376A,103.7947,25.462,曲靖市,南苑二区,,21,8,19,3,11,65,,53,53,3,8,3,5,0.2,0.4
2025-10-06T1500,3377A,103.7444,25.5261,曲靖市,曲靖师范学院,,,,18,4,12,66,,54,54,6,9,2,4,0.3,0.4
2025-10-06T1500,1264A,118.8692,28.9398,衢州市,环保大楼,,26,15,41,10,25,82,,78,78,4,14,5,5,0.4,0.6
2025-10-06T1500,1265A,118.8709,28.9666,衢州市,实验学校,,31,13,38,8,23,98,,90,90,3,17,2,4,0.3,0.5
2025-10-06T1500,1266A,118.8621,28.9808,衢州市,衢州学院,,32,19,36,10,24,100,,87,87,4,22,6,6,0.4,0.5
2025-10-06T1500,1611A,118.5819,24.9117,泉州市,涂山街,,48,43,50,29,27,152,,127,127,6,20,2,5,0.6,0.5
2025-10-06T1500,1612A,118.5972,24.8978,泉州市,津头埔,,46,37,48,24,27,145,,126,126,7,18,4,6,0.6,0.6
2025-10-06T1500,1613A,118.6663,24.9424,泉州市,万安,,40,29,47,17,24,128,,117,117,4,20,2,4,0.5,0.5
2025-10-06T1500,3529A,118.6333,24.9264,泉州市,城华南路,,40,30,41,21,26,126,,116,116,7,18,4,6,0.6,0.5
2025-10-06T1500,2626A,88.8876,29.2718,日喀则市,日喀则监测站,,31,6,9,3,1,98,,78,78,3,13,14,14,0.2,0.3
2025-10-06T1500,3726A,88.8781,29.2426,日喀则市,林业技术推广中心,,31,6,5,3,1,98,,83,83,2,3,6,6,0.3,0.3
2025-10-06T1500,1659A,119.471,35.4209,日照市,监测站,,25,6,13,3,11,80,,57,57,10,16,6,6,0.6,0.6
2025-10-06T1500,1660A,119.523,35.4216,日照市,市政府广场,,25,6,11,3,9,77,,52,52,5,10,3,3,0.7,0.7
2025-10-06T1500,1661A,119.5587,35.4044,日照市,港务局,,24,,14,10,16,76,,54,54,6,11,3,2,0.6,0.6
2025-10-06T1500,3507A,119.5328,35.4625,日照市,职业技术学院,,24,7,18,3,12,76,,54,54,6,11,4,4,0.7,0.7
2025-10-06T1500,3604A,119.3266,35.1044,日照市,岚山环保分局,,25,9,32,3,17,77,,57,57,10,26,7,11,0.8,1.6
2025-10-06T1500,1835A,111.1922,34.7752,三门峡市,市政府,,27,27,16,14,11,36,,32,28,21,18,7,6,1.2,1.1
2025-10-06T1500,1836A,111.1587,34.7942,三门峡市,开发区,,18,17,16,12,10,45,,33,33,12,17,6,5,1.0,0.9
2025-10-06T1500,1838A,111.143,34.7955,三门峡市,风景区,,20,,11,14,9,52,,36,36,7,10,6,6,1.1,1
2025-10-06T1500,3039A,111.1911,34.7829,三门峡市,三门峡市第一小学,,23,23,17,12,10,42,,34,30,13,14,8,9,1.3,1.2
2025-10-06T1500,3598A,111.1,34.7167,三门峡市,富达温泉假日酒店,,22,,17,15,14,50,,36,36,14,16,8,8,0.8,0.9
2025-10-06T1500,2324A,117.6211,26.2625,三明市,三钢,,22,12,26,12,11,70,,64,64,2,14,3,5,0.4,1.1
2025-10-06T1500,2325A,117.635,26.2714,三明市,三明二中,,,25,31,,,74,,64,64,3,13,3,3,0.1,0.5
2025-10-06T1500,2326A,117.6028,26.2378,三明市,三元区政府,,24,19,22,9,13,74,,66,66,3,14,2,4,0.4,0.6
2025-10-06T1500,1876A,109.5078,18.2489,三亚市,河东子站,,19,19,16,6,9,49,,41,41,4,6,3,2,0.6,0.6
2025-10-06T1500,1877A,109.4964,18.2681,三亚市,河西子站,,18,18,17,3,3,51,,44,44,3,5,5,5,0.6,0.6
2025-10-06T1500,3540A,109.7348,18.3443,三亚市,君悦子站,,16,7,14,3,5,50,,45,42,4,6,3,3,0.6,0.5
2025-10-06T1500,2624A,91.7608,29.2313,山南市,山南监测站,,,6,8,3,4,86,,51,51,,8,6,6,,0.3
2025-10-06T1500,2625A,91.7706,29.2436,山南市,山南人民医院,,28,6,8,3,5,89,,54,54,1,6,4,4,0.1,0.2
2025-10-06T1500,1674A,116.6794,23.3667,汕头市,金平子站,,21,17,16,6,7,66,,48,48,4,7,2,3,0.5,0.5
2025-10-06T1500,1675A,116.7244,23.3633,汕头市,龙湖子站,,21,21,17,8,7,62,,46,46,2,5,7,7,0.5,0.5
2025-10-06T1500,1676A,116.7258,23.2775,汕头市,濠江子站,,25,25,21,12,9,56,,43,43,1,4,5,5,0.3,0.6
2025-10-06T1500,1677A,116.7519,23.4714,汕头市,澄海子站,,33,33,20,7,9,65,,45,45,2,7,4,4,0.5,0.5
2025-10-06T1500,1678A,116.6092,23.2539,汕头市,潮阳子站,,15,13,15,9,8,46,,40,40,11,7,5,5,0.5,0.6
2025-10-06T1500,3444A,116.454,23.2684,汕头市,潮南峡山,,17,6,15,3,8,53,,41,41,4,7,7,6,0.5,0.6
2025-10-06T1500,3624A,116.4069,23.2533,汕头市,潮南子站,,18,18,21,3,8,56,,41,41,1,6,4,5,0.4,0.5
2025-10-06T1500,1693A,115.3653,22.775,汕尾市,市环保局,,27,27,23,12,9,50,,46,46,2,7,4,4,0.5,0.5
2025-10-06T1500,1694A,115.3706,22.7898,汕尾市,市政府,,16,13,19,3,11,50,,46,46,4,7,6,6,0.4,0.4
2025-10-06T1500,1695A,115.3622,22.7925,汕尾市,新城中学,,16,10,19,7,8,51,,47,47,4,7,6,6,0.5,0.5
2025-10-06T1500,2645A,109.9154,33.8715,商洛市,监测站,,13,6,8,3,4,41,,34,34,8,9,4,4,0.6,0.7
2025-10-06T1500,3045A,109.9643,33.8471,商洛市,商州区中学,,15,11,13,3,5,46,,30,30,7,16,3,3,0.5,0.6
2025-10-06T1500,2408A,115.6702,34.4285,商丘市,环境监测站,,22,17,17,15,11,45,,44,44,7,9,2,2,0.3,0.5
2025-10-06T1500,2409A,115.6458,34.4045,商丘市,粮食局,,22,22,16,9,8,39,,42,42,9,11,3,2,0.5,0.7
2025-10-06T1500,2410A,115.6293,34.3948,商丘市,睢阳区环保局,,25,21,17,17,13,39,,43,43,7,8,3,2,0.4,0.6
2025-10-06T1500,3171A,115.6071,34.4465,商丘市,梁园区档案局,,20,20,13,14,11,35,,40,40,7,8,2,3,0.4,0.6
2025-10-06T1500,1141A,121.4,31.238,上海市,普陀,,48,35,28,21,15,152,,103,103,9,21,5,6,0.4,0.4
2025-10-06T1500,1142A,121.478,31.2036,上海市,十五厂,,50,37,32,20,17,158,,102,102,18,25,7,7,0.6,0.6
2025-10-06T1500,1143A,121.467,31.3008,上海市,虹口,,49,38,29,24,16,154,,104,104,7,18,7,8,0.7,0.6
2025-10-06T1500,1147A,121.425,31.2261,上海市,静安监测站,臭氧1小时,55,40,30,26,15,164,,110,110,12,22,5,4,0.7,0.7
2025-10-06T1500,1148A,121.703,31.1907,上海市,浦东川沙,,45,25,36,20,14,144,,83,83,8,25,10,10,0.4,0.5
2025-10-06T1500,1149A,121.533,31.2284,上海市,浦东新区监测站,,45,28,30,21,17,141,,89,89,6,15,6,6,0.5,0.4
2025-10-06T1500,1150A,121.577,31.2071,上海市,浦东张江,臭氧1小时,53,35,30,14,12,162,,99,99,14,17,7,6,0.5,0.5
2025-10-06T1500,3265A,121.4316,31.3322,上海市,宝山庙行,,47,42,33,25,17,149,,106,106,14,22,6,6,0.5,0.4
2025-10-06T1500,3266A,121.8791,31.4662,上海市,崇明上实东滩,,30,14,10,8,8,94,,56,56,13,26,6,6,0.4,0.4
2025-10-06T1500,3268A,121.3162,31.2838,上海市,嘉定南翔,,45,37,29,22,17,143,,98,98,9,29,5,5,0.3,0.3
2025-10-06T1500,3269A,121.3359,30.7456,上海市,金山新城,臭氧1小时,65,22,21,21,15,172,,108,108,7,9,10,6,0.9,0.8
2025-10-06T1500,3270A,121.4996,31.0739,上海市,闵行浦江,,50,25,26,14,14,160,,94,94,6,16,5,5,1.2,1.1
2025-10-06T1500,3271A,121.2886,31.1663,上海市,青浦徐泾,,45,30,26,19,15,144,,109,109,4,17,7,8,0.5,0.5
2025-10-06T1500,3272A,121.2186,31.0378,上海市,松江图书馆,,48,38,23,21,15,151,,110,110,10,20,5,5,0.3,0.3
2025-10-06T1500,3273A,121.3902,31.2059,上海市,长宁仙霞,,42,37,29,20,14,133,,95,95,9,18,6,5,0.6,0.6
2025-10-06T1500,3274A,121.7965,31.0507,上海市,浦东惠南,臭氧1小时,65,26,20,16,12,172,,93,93,10,19,10,8,0.8,0.8
2025-10-06T1500,3544A,121.4891,30.925,上海市,奉贤南桥新城,,45,18,23,16,11,141,,96,96,7,14,7,6,0.6,0.6
2025-10-06T1500,4183A,121.4174,31.16637,上海市,冠生园路458号,,49,30,28,21,16,154,,89,89,11,23,4,4,0.8,0.7
2025-10-06T1500,4205A,121.5419,31.2683,上海市,宁武路151号,,46,46,39,18,16,131,,84,84,20,31,5,5,0.7,0.6
2025-10-06T1500,2382A,117.9756,28.4436,上饶市,市监测站,,42,30,37,17,24,133,,101,101,7,15,7,14,0.4,0.4
2025-10-06T1500,2383A,117.9519,28.4628,上饶市,凤凰光学,,38,28,40,17,24,120,,95,95,3,14,12,18,0.4,0.4
2025-10-06T1500,3685A,117.897,28.4315,上饶市,双创科技城,,38,27,36,19,24,121,,99,99,8,19,8,15,0.4,0.5
2025-10-06T1500,4211A,118.1904,28.4448,上饶市,裕丰大道,,31,23,31,9,16,97,,75,75,4,10,20,15,0.4,0.4
2025-10-06T1500,1669A,113.5824,24.7733,韶关市,市八中,,23,23,12,12,6,56,,45,45,2,8,7,10,0.3,0.5
2025-10-06T1500,1671A,113.5917,24.7972,韶关市,园林处,,20,8,13,6,7,63,,48,48,3,9,8,11,0.5,0.6
2025-10-06T1500,1673A,113.5971,24.6863,韶关市,曲江监测站,,17,,14,10,7,53,,42,42,4,9,8,11,0.5,0.7
2025-10-06T1500,2809A,113.6668,24.7756,韶关市,大学路288号,,18,17,10,7,6,55,,37,37,5,9,9,7,0.4,0.3
2025-10-06T1500,3622A,113.5556,24.8082,韶关市,碧湖山庄,,20,14,15,8,8,61,,47,47,5,10,7,8,0.5,0.6
2025-10-06T1500,2464A,111.5283,27.2442,邵阳市,市化工厂,,20,8,42,3,31,63,,50,50,8,19,8,12,0.3,0.5
2025-10-06T1500,2466A,111.4328,27.2272,邵阳市,市环保局,,20,11,44,3,20,62,,51,51,6,15,10,12,0.5,0.8
2025-10-06T1500,4218A,111.4460,27.2472,邵阳市,北塔二期4-26地块,,18,12,44,3,29,57,,47,47,6,18,7,8,0.2,0.5
2025-10-06T1500,4219A,111.4739,27.2282,邵阳市,邵水西路287号,,21,8,44,3,28,65,,52,52,6,17,6,8,0.1,0.3
2025-10-06T1500,1247A,120.6053,29.9928,绍兴市,城东开发委,,42,30,36,29,24,127,,97,97,9,18,7,7,0.3,0.4
2025-10-06T1500,2921A,120.5483,30.0003,绍兴市,树下王站,,40,36,38,28,26,128,,102,102,6,19,6,6,0.4,0.5
2025-10-06T1500,3408A,120.5683,29.9361,绍兴市,绍兴中专,,48,48,35,30,21,128,,102,102,2,19,7,7,0.6,0.6
2025-10-06T1500,3409A,120.4906,30.0861,绍兴市,柯桥区政府,,42,29,38,20,25,133,,108,108,8,20,8,8,0.4,0.5
2025-10-06T1500,3410A,120.8752,30.0249,绍兴市,重华小学,,32,24,33,20,21,102,,82,82,6,13,8,7,0.7,0.7
2025-10-06T1500,3411A,120.8369,30.0137,绍兴市,上虞中学,,33,22,31,20,22,104,,89,89,5,13,5,5,0.3,0.4
2025-10-06T1500,3560A,120.4722,30.0415,绍兴市,柯桥妇保,,40,30,43,21,26,127,,106,106,6,18,6,5,0.5,0.6
2025-10-06T1500,3658A,120.6153,30.0764,绍兴市,袍江中学,,49,49,43,28,26,153,,112,112,8,20,2,3,0.4,0.5
2025-10-06T1500,1356A,114.1063,22.5545,深圳市,通心岭子站,,19,11,15,7,5,59,,45,45,3,4,8,8,0.5,0.5
2025-10-06T1500,1357A,114.117,22.5625,深圳市,洪湖,,20,10,15,3,5,61,,48,48,2,5,7,7,0.5,0.6
2025-10-06T1500,1358A,113.987,22.5417,深圳市,华侨城,,19,15,16,3,4,60,,43,43,2,3,7,6,0.5,0.5
2025-10-06T1500,1359A,113.9181,22.5171,深圳市,南海子站,,19,12,16,3,5,58,,46,46,8,8,6,6,0.7,0.7
2025-10-06T1500,1360A,114.2458,22.5689,深圳市,盐田,,20,12,19,6,6,64,,44,44,6,6,8,8,0.3,0.3
2025-10-06T1500,1361A,114.2283,22.7244,深圳市,龙岗,,16,16,16,3,4,47,,43,43,2,2,6,6,0.8,0.8
2025-10-06T1500,1363A,114.494,22.5422,深圳市,南澳,,18,7,13,3,4,57,,50,50,1,2,7,7,0.4,0.4
2025-10-06T1500,1364A,114.41,22.6342,深圳市,葵涌,,20,10,16,3,5,62,,48,48,2,4,6,6,0.3,0.3
2025-10-06T1500,1365A,114.297,22.5978,深圳市,梅沙,,23,12,19,3,5,71,,54,54,2,2,7,7,0.6,0.6
2025-10-06T1500,1366A,114.0678,22.738,深圳市,观澜,,20,17,23,14,7,58,,46,46,4,6,8,8,0.5,0.7
2025-10-06T1500,3305A,114.0731,22.559,深圳市,莲花,,16,10,15,6,7,50,,39,39,4,6,7,7,0.7,0.7
2025-10-06T1500,3306A,114.0261,22.6198,深圳市,民治,,23,,14,16,7,59,,46,46,5,6,7,7,0.5,0.5
2025-10-06T1500,3307A,114.1871,22.6451,深圳市,横岗,,18,8,15,3,6,56,,48,48,3,3,8,8,0.5,0.7
2025-10-06T1500,3447A,114.3551,22.7151,深圳市,坪山,,18,10,15,7,7,55,,41,41,4,5,7,7,0.6,0.5
2025-10-06T1500,3623A,113.8953,22.5861,深圳市,西乡,,22,11,17,8,5,68,,52,52,12,16,7,6,0.6,0.6
2025-10-06T1500,1099A,123.505,41.7406,沈阳市,浑南东路,,36,36,32,15,9,46,,37,34,23,22,9,7,0.8,0.4
2025-10-06T1500,1100A,123.4231,41.6989,沈阳市,新秀街,,44,44,30,17,12,44,,42,37,20,18,7,6,0.8,0.5
2025-10-06T1500,1102A,123.5903,41.8411,沈阳市,东陵路,,30,30,30,11,5,50,,38,38,13,15,7,6,0.4,0.4
2025-10-06T1500,1103A,123.4264,41.8467,沈阳市,陵东街,,36,36,44,17,10,53,,37,37,17,19,6,9,0.4,0.4
2025-10-06T1500,1104A,123.4114,41.7653,沈阳市,文化路,,41,41,37,14,6,53,,40,36,13,16,6,6,0.5,0.4
2025-10-06T1500,1105A,123.4678,41.7867,沈阳市,小河沿,,32,32,24,15,10,50,,38,34,17,22,5,4,0.7,0.6
2025-10-06T1500,1106A,123.4017,41.7972,沈阳市,太原街,,48,48,46,27,16,53,,35,34,16,21,6,7,0.4,0.3
2025-10-06T1500,1108A,123.3783,41.9228,沈阳市,京沈街,,44,44,33,21,8,55,,43,43,19,18,3,2,0.6,0.5
2025-10-06T1500,2897A,123.2444,41.7347,沈阳市,沈辽西路,,48,48,44,17,11,46,,36,32,23,23,7,7,0.6,0.5
2025-10-06T1500,2900A,123.5953,41.9086,沈阳市,裕农路,,26,26,20,11,7,54,,43,43,10,15,4,4,0.4,0.3
