timepoint,stationcode,longitude,latitude,area,positionname,primarypollutant,aqi,pm10,pm10_24h,pm2_5,pm2_5_24h,o3,o3_24h,o3_8h,o3_8h_24h,no2,no2_24h,so2,so2_24h,co,co_24h
2026-02-22T1500,2568A,102.2503,31.8896,阿坝藏族羌族自治州,马师校,,30,13,19,11,10,95,,67,67,2,4,4,4,0.2,0.2
2026-02-22T1500,3994A,102.2174,31.9016,阿坝藏族羌族自治州,马尔康中学西区,,,,26,,8,81,,63,63,,5,5,4,0.3,0.4
2026-02-22T1500,2695A,80.2899,41.1684,阿克苏地区,电视台,,,23,194,15,84,96,,72,72,,31,7,12,0.6,1.2
2026-02-22T1500,2696A,80.2592,41.1541,阿克苏地区,艺术中心,,41,41,192,8,92,99,,78,78,10,38,3,4,0.5,0.9
2026-02-22T1500,2205A,105.699,38.8409,阿拉善盟,蒙二幼,颗粒物(PM10),91,132,586,23,121,101,,89,89,5,6,9,9,0.5,0.5
2026-02-22T1500,2206A,105.7198,38.8508,阿拉善盟,环保局新楼,颗粒物(PM10),64,78,498,26,118,95,,89,88,2,3,8,9,0.4,0.5
2026-02-22T1500,2708A,88.1266,47.8515,阿勒泰地区,市站,,30,19,27,3,8,95,,86,86,10,17,5,5,0.3,0.3
2026-02-22T1500,4166A,88.1198,47.7931,阿勒泰地区,阿勒泰路33号,,29,19,27,3,6,91,,82,82,5,12,7,7,0.3,0.3
2026-02-22T1500,2630A,80.1171,32.4999,阿里地区,阿里监测站,,32,,13,3,7,102,,87,87,1,5,2,5,0.3,0.4
2026-02-22T1500,3192A,80.0906,32.5029,阿里地区,阿里藏医院,,34,,11,3,3,107,,86,86,2,4,6,9,0.2,0.3
2026-02-22T1500,2644A,109.0088,32.6974,安康市,汉滨区检察院,颗粒物(PM10),91,132,59,51,38,76,,48,48,11,13,3,3,0.4,0.5
2026-02-22T1500,4054A,109.0324,32.6913,安康市,市邮政管理局,颗粒物(PM10),99,148,70,52,42,80,,51,51,9,18,4,5,0.6,0.8
2026-02-22T1500,2291A,117.0806,30.5181,安庆市,环科院,颗粒物(PM10),142,233,68,32,34,111,,66,66,3,19,8,8,0.5,0.7
2026-02-22T1500,2292A,117.0331,30.5118,安庆市,马山宾馆,颗粒物(PM10),135,220,70,35,39,113,,69,69,8,20,6,7,0.3,0.7
2026-02-22T1500,2294A,116.9897,30.6146,安庆市,安庆大学,颗粒物(PM10),146,242,68,34,28,112,,75,75,2,6,6,6,0.4,0.6
2026-02-22T1500,3173A,117.0598,30.5351,安庆市,市人大,颗粒物(PM10),146,242,71,34,35,111,,69,69,4,14,7,11,0.4,0.6
2026-02-22T1500,3123A,105.9408,26.2431,安顺市,凤凰山,,40,28,36,28,29,73,,59,59,5,7,8,10,0.4,0.4
2026-02-22T1500,3124A,105.9443,26.2567,安顺市,金钟山,,42,,30,29,29,68,,56,56,5,6,9,11,0.5,0.6
2026-02-22T1500,3125A,105.8983,26.248,安顺市,娄家坡,细颗粒物(PM2.5),55,,35,39,30,71,,55,55,6,7,13,14,0.5,0.5
2026-02-22T1500,1819A,114.3552,36.1017,安阳市,红庙街,颗粒物(PM10),500,632,389,133,78,84,,87,86,4,7,3,4,0.4,0.5
2026-02-22T1500,1820A,114.361,36.0681,安阳市,银杏小区,颗粒物(PM10),500,620,384,146,88,88,,91,91,4,8,1,5,0.2,0.3
2026-02-22T1500,3141A,114.3921,36.0879,安阳市,信访局,颗粒物(PM10),500,617,380,147,87,92,,96,94,1,4,4,5,0.4,0.4
2026-02-22T1500,3669A,114.4706,36.0634,安阳市,左辅环卫站,颗粒物(PM10),500,718,456,141,83,88,,90,84,6,7,3,5,0.3,0.3
2026-02-22T1500,4117A,114.2918,36.0769,安阳市,钢三路198号,颗粒物(PM10),500,628,405,145,87,79,,84,82,9,9,1,3,0.4,0.4
2026-02-22T1500,1748A,123.0441,41.1201,鞍山市,深沟寺,颗粒物(PM10),75,99,86,8,28,79,,75,75,9,13,10,12,0.8,1
2026-02-22T1500,1749A,123.011,41.0931,鞍山市,太阳城,颗粒物(PM10),58,66,81,8,30,79,,77,77,4,10,8,12,0.5,0.8
2026-02-22T1500,1750A,123.0483,41.1445,鞍山市,太平,颗粒物(PM10),82,113,91,13,30,75,,72,72,6,11,9,11,0.3,0.5
2026-02-22T1500,1751A,122.964,41.0968,鞍山市,铁西三道街,颗粒物(PM10),74,98,88,8,33,80,,76,76,4,19,4,15,0.3,0.7
2026-02-22T1500,1753A,123.0219,41.0822,鞍山市,明达新区,颗粒物(PM10),62,73,81,8,32,80,,75,75,6,11,8,12,0.4,0.6
2026-02-22T1500,4201A,122.944647,41.082639,鞍山市,兴盛南路290号,颗粒物(PM10),67,83,97,9,30,87,,83,83,4,12,5,8,0.4,0.7
2026-02-22T1500,2195A,107.4206,40.7609,巴彦淖尔市,附二中,颗粒物(PM10),83,116,266,20,72,79,,72,72,2,3,6,6,0.5,0.5
2026-02-22T1500,2196A,107.37,40.7372,巴彦淖尔市,市环保大楼,颗粒物(PM10),63,76,242,43,74,86,,70,70,2,5,5,4,0.4,0.4
2026-02-22T1500,1956A,86.1476,41.7529,巴音郭楞蒙古自治州,孔雀公园,颗粒物(PM10),112,174,222,44,62,81,,70,62,6,24,11,12,0.3,0.6
2026-02-22T1500,1957A,86.1971,41.7166,巴音郭楞蒙古自治州,棉纺厂,颗粒物(PM10),111,171,237,29,55,88,,66,66,2,18,/,/,/,/
2026-02-22T1500,1958A,86.236,41.7172,巴音郭楞蒙古自治州,经济开发区,颗粒物(PM10),91,131,158,22,25,79,,69,69,2,7,6,7,0.3,0.4
2026-02-22T1500,3181A,106.776805,31.852614,巴中市,市五中,细颗粒物(PM2.5),69,64,59,50,50,67,,34,34,28,21,8,8,1.1,1
2026-02-22T1500,3183A,106.7419,31.8654,巴中市,圣泉水务公司,细颗粒物(PM2.5),62,51,51,44,44,72,,43,43,15,19,8,8,0.8,0.8
2026-02-22T1500,3616A,106.7617,31.8343,巴中市,市中心医院,细颗粒物(PM2.5),70,63,66,51,58,70,,30,30,21,29,8,8,1.1,1.2
2026-02-22T1500,2235A,122.7909,45.608,白城市,洮北区环保局,颗粒物(PM10),98,146,100,12,61,80,,77,77,2,9,5,5,0.1,0.4
2026-02-22T1500,2236A,122.8741,45.5725,白城市,市环保局,颗粒物(PM10),125,200,102,12,51,89,,84,84,4,9,3,5,0.3,0.6
2026-02-22T1500,2231A,126.4219,41.9172,白山市,喜丰,颗粒物(PM10),63,75,80,3,20,81,,83,71,3,5,6,10,0.7,1
2026-02-22T1500,2232A,126.4082,41.9416,白山市,环保局,,50,50,96,3,45,83,,84,76,5,10,8,13,0.7,1
2026-02-22T1500,2647A,104.1727,36.5448,白银市,第三小学,颗粒物(PM10),495,595,604,196,173,85,,67,61,57,12,250,21,1.1,0.5
2026-02-22T1500,2648A,104.1467,36.5482,白银市,动力公司,颗粒物(PM10),467,567,587,172,162,76,,55,53,12,9,12,7,0.6,0.4
2026-02-22T1500,2512A,106.6102,23.901,百色市,市监测站,细颗粒物(PM2.5),65,,59,47,52,81,,48,48,9,14,11,14,0.5,0.6
2026-02-22T1500,2513A,106.6524,23.8842,百色市,市中心血站,,49,44,63,34,55,80,,47,47,9,15,11,15,0.7,0.8
2026-02-22T1500,4133A,106.6273,23.8798,百色市,龙景西路,颗粒物(PM10),67,84,77,33,56,84,,45,45,9,13,14,16,0.5,0.6
2026-02-22T1500,2270A,117.396,32.9389,蚌埠市,工人疗养院,颗粒物(PM10),252,386,176,80,49,114,,84,84,10,15,6,6,0.6,0.7
2026-02-22T1500,2271A,117.3606,32.9428,蚌埠市,百货大楼,颗粒物(PM10),275,402,175,66,44,115,,84,84,5,11,7,8,0.5,0.6
2026-02-22T1500,2273A,117.4183,32.8909,蚌埠市,蚌埠学院,颗粒物(PM10),269,398,167,70,49,114,,86,86,8,11,6,6,0.5,0.6
2026-02-22T1500,2274A,117.3534,32.9672,蚌埠市,淮上区政府,颗粒物(PM10),248,383,166,66,45,116,,83,83,6,15,6,7,0.4,0.6
2026-02-22T1500,2275A,117.3143,32.8977,蚌埠市,高新区,颗粒物(PM10),276,403,170,69,48,105,,76,76,4,10,8,8,0.5,0.6
2026-02-22T1500,3715A,117.3091,32.9314,蚌埠市,蚌埠田家炳中学,颗粒物(PM10),258,390,175,69,48,113,,82,82,7,14,6,8,0.5,0.5
2026-02-22T1500,1585A,109.8761,40.6533,包头市,市环境监测站,颗粒物(PM10),76,102,170,10,36,96,,88,88,4,6,3,4,0.1,0.4
2026-02-22T1500,1587A,109.9992,40.5843,包头市,包头八中,颗粒物(PM10),77,104,165,20,33,87,,82,82,7,5,8,5,0.7,0.5
2026-02-22T1500,1589A,109.8641,40.6288,包头市,惠龙物流,颗粒物(PM10),75,100,180,18,25,93,,88,88,6,5,10,7,0.8,0.5
2026-02-22T1500,1590A,110.0376,40.5546,包头市,东河鸿龙湾,,,,152,,20,87,,80,80,5,7,10,7,,0.4
2026-02-22T1500,3283A,109.9154,40.5684,包头市,滨河大厦,颗粒物(PM10),69,88,142,9,28,86,,81,81,4,6,7,6,0.7,0.8
2026-02-22T1500,3419A,109.9449,40.6259,包头市,包头市委党校,颗粒物(PM10),72,94,134,13,28,85,,80,80,5,4,9,6,0.8,0.6
2026-02-22T1500,3683A,109.8332,40.6577,包头市,昆区政府,颗粒物(PM10),65,80,145,21,27,92,,84,84,6,7,6,6,0.5,0.4
2026-02-22T1500,1931A,107.0802,34.3129,宝鸡市,竹园沟,颗粒物(PM10),296,417,317,60,53,86,,60,60,14,16,9,6,0.3,0.2
2026-02-22T1500,1933A,107.1429,34.3549,宝鸡市,监测站,颗粒物(PM10),352,461,337,55,54,75,,48,48,8,11,6,5,0.4,0.4
2026-02-22T1500,1934A,107.1172,34.3759,宝鸡市,技工学校,颗粒物(PM10),359,467,356,94,95,90,,54,54,11,15,5,7,0.4,0.4
2026-02-22T1500,1936A,107.2025,34.3518,宝鸡市,文理学院,颗粒物(PM10),318,434,350,93,98,88,,56,56,4,12,4,6,0.4,0.4
2026-02-22T1500,1937A,107.2396,34.3626,宝鸡市,三迪小学,颗粒物(PM10),305,424,363,98,99,90,,54,54,7,18,4,6,0.4,0.5
2026-02-22T1500,4155A,107.1721,34.3558,宝鸡市,滨河北路,颗粒物(PM10),285,409,358,94,98,84,,55,55,8,13,5,6,0.3,0.4
2026-02-22T1500,4308A,107.3898,34.3601,宝鸡市,陈仓区北开路21号,颗粒物(PM10),367,473,414,92,105,87,,57,57,4,15,6,19,0.4,0.5
2026-02-22T1500,1051A,115.4803,38.8568,保定市,游泳馆,,50,50,245,18,54,88,,80,80,6,6,2,5,0.3,0.2
2026-02-22T1500,1052A,115.509,38.8895,保定市,华电二区,,46,46,217,12,35,91,,81,81,6,7,1,2,0.8,0.7
2026-02-22T1500,1053A,115.4588,38.9037,保定市,接待中心,颗粒物(PM10),51,52,210,22,43,88,,78,78,3,3,3,2,0.1,0.1
2026-02-22T1500,1054A,115.4484,38.8344,保定市,地表水厂,颗粒物(PM10),67,83,270,3,31,94,,83,83,6,7,2,2,0.2,0.2
2026-02-22T1500,3581A,115.3136,38.9511,保定市,满城区生态环境分局,颗粒物(PM10),78,105,204,17,31,94,,80,80,5,5,3,2,0.2,0.4
2026-02-22T1500,3582A,115.4709,38.7628,保定市,清苑区第二中学,颗粒物(PM10),79,108,323,14,44,91,,81,81,5,4,4,6,0.2,0.2
2026-02-22T1500,3583A,115.6231,39.0223,保定市,徐水物探局,颗粒物(PM10),97,144,549,15,44,92,,83,83,5,5,4,7,0.0,0.2
2026-02-22T1500,4004A,115.4199,38.8665,保定市,双鹰农机,颗粒物(PM10),62,74,307,3,38,100,,89,89,2,2,1,2,0.3,0.3
2026-02-22T1500,4034A,115.515,38.8589,保定市,植保所站,颗粒物(PM10),51,51,226,12,41,89,,81,81,5,4,3,3,0.5,0.5
2026-02-22T1500,2594A,99.1589,25.1137,保山市,市环境监测站,,43,43,32,24,21,117,,88,88,5,8,6,6,0.3,0.4
2026-02-22T1500,2595A,99.1616,25.1381,保山市,市环保局,,40,40,39,19,22,115,,95,95,3,4,4,5,0.4,0.5
2026-02-22T1500,1867A,109.1435,21.4085,北海市,海滩公园,,46,46,39,13,18,95,,74,74,7,11,3,3,0.6,0.8
2026-02-22T1500,1868A,109.0983,21.466,北海市,新市环保局,,29,27,31,17,17,90,,70,70,6,10,4,4,0.5,0.6
2026-02-22T1500,1869A,109.1775,21.5232,北海市,北海工业园,,40,40,39,12,25,85,,62,62,2,8,6,6,0.6,0.7
2026-02-22T1500,3400A,109.1844,21.4396,北海市,龙潭自来水厂,,35,35,31,14,18,86,,67,67,2,4,3,3,0.8,0.8
2026-02-22T1500,1001A,116.3611,39.8786,北京市,万寿西宫,颗粒物(PM10),57,63,154,8,36,92,,85,85,1,3,1,1,0.3,0.4
2026-02-22T1500,1003A,116.4174,39.9289,北京市,东四,颗粒物(PM10),54,57,27,3,9,78,,70,70,2,5,3,5,0.2,0.3
2026-02-22T1500,1004A,116.4073,39.8858,北京市,天坛,颗粒物(PM10),62,73,162,9,30,84,,78,78,2,4,1,2,0.4,0.4
2026-02-22T1500,1005A,116.4622,39.9364,北京市,农展馆,颗粒物(PM10),59,67,146,6,27,90,,83,83,2,3,4,4,0.3,0.4
2026-02-22T1500,1006A,116.3399,39.9293,北京市,官园,,,,184,,36,,,93,74,,4,,3,,0.3
2026-02-22T1500,1007A,116.2879,39.9613,北京市,海淀万柳,颗粒物(PM10),55,60,146,7,27,70,,66,66,9,9,2,2,0.2,0.3
2026-02-22T1500,1008A,116.6635,40.1349,北京市,顺义新城,颗粒物(PM10),57,64,198,6,30,88,,81,81,2,3,5,5,0.4,0.4
2026-02-22T1500,1009A,116.6275,40.327,北京市,怀柔镇,颗粒物(PM10),54,58,209,6,36,78,,75,75,2,3,4,3,0.5,0.5
2026-02-22T1500,1010A,116.2295,40.217,北京市,昌平镇,颗粒物(PM10),53,55,212,3,41,85,,78,78,1,4,1,2,0.4,0.5
2026-02-22T1500,1011A,116.3968,39.982,北京市,奥体中心,颗粒物(PM10),61,71,148,9,29,79,,74,74,2,6,4,4,0.3,0.3
2026-02-22T1500,3418A,116.8336,40.4095,北京市,密云新城,颗粒物(PM10),56,61,205,6,35,84,,76,76,2,5,3,3,0.2,0.2
2026-02-22T1500,3671A,116.0879,39.9725,北京市,门头沟三家店,颗粒物(PM10),62,74,206,19,41,84,,78,78,2,3,3,3,0.3,0.3
2026-02-22T1500,3672A,116.1507,39.8246,北京市,丰台云岗,颗粒物(PM10),58,65,156,9,33,91,,84,84,1,4,2,2,0.3,0.3
2026-02-22T1500,3674A,115.9578,39.7602,北京市,房山燕山,颗粒物(PM10),65,79,169,13,31,85,,78,78,2,4,3,4,0.3,0.3
2026-02-22T1500,3675A,116.4669,39.7734,北京市,大兴旧宫,颗粒物(PM10),65,80,178,9,30,86,,79,79,2,6,3,3,0.3,0.3
2026-02-22T1500,3694A,115.9859,40.4562,北京市,延庆石河营,,47,47,186,3,40,87,,78,78,1,2,1,1,0.2,0.3
2026-02-22T1500,3695A,116.6151,40.3052,北京市,怀柔新城,颗粒物(PM10),58,66,204,6,33,87,,80,80,1,3,3,2,0.2,0.2
2026-02-22T1500,3696A,116.2542,39.8764,北京市,丰台小屯,颗粒物(PM10),60,69,174,8,31,74,,68,68,2,4,3,3,0.3,0.3
2026-02-22T1500,3697A,116.8399,40.3843,北京市,密云镇,颗粒物(PM10),79,108,183,9,36,85,,77,77,3,6,1,1,0.2,0.3
2026-02-22T1500,4057A,115.9423,40.4431,北京市,延庆百泉,颗粒物(PM10),70,90,177,15,35,86,,77,77,1,2,3,3,0.2,0.2
2026-02-22T1500,4058A,116.6598,39.9164,北京市,通州新华,颗粒物(PM10),90,129,167,15,37,83,,76,76,2,9,1,2,0.5,0.5
2026-02-22T1500,4182A,116.1942,39.9158,北京市,石景山八角,颗粒物(PM10),61,71,186,18,38,72,,67,67,2,6,2,2,0.1,0.2
2026-02-22T1500,4194A,117.078628,40.151726,北京市,平谷新城,颗粒物(PM10),53,55,184,6,33,80,,74,74,2,4,2,3,0.4,0.5
2026-02-22T1500,1761A,123.8274146,41.31234549,本溪市,大峪,颗粒物(PM10),112,173,127,6,21,78,,74,74,6,10,8,10,0.6,0.7
2026-02-22T1500,1763A,123.7169,41.3094,本溪市,彩屯,颗粒物(PM10),88,125,96,8,23,84,,81,81,5,14,6,12,0.5,1.3
2026-02-22T1500,1764A,123.7672166,41.28649327,本溪市,东明,颗粒物(PM10),118,185,143,8,21,76,,73,73,5,8,7,9,0.3,0.5
2026-02-22T1500,1765A,123.799345,41.266614,本溪市,新立屯,颗粒物(PM10),134,218,131,9,22,77,,73,73,2,7,6,8,0.4,0.7
2026-02-22T1500,1766A,123.829144,41.336777,本溪市,威宁,颗粒物(PM10),175,300,195,11,22,81,,79,79,4,6,7,8,0.4,0.6
2026-02-22T1500,2587A,105.287,27.3133,毕节市,八中,,,,67,,48,,,85,52,,11,,11,,0.9
2026-02-22T1500,2588A,105.3079,27.2987,毕节市,师专,,,,70,,50,,,95,73,,13,,11,,0.8
2026-02-22T1500,4263A,105.3688,27.3598,毕节市,工业大道,细颗粒物(PM2.5),62,57,67,44,51,70,,80,77,10,12,10,12,/,/
2026-02-22T1500,1629A,117.9961,37.3604,滨州市,第二水厂,颗粒物(PM10),330,444,260,12,27,88,,76,76,7,9,8,10,0.6,0.7
2026-02-22T1500,1630A,117.9789,37.3931,滨州市,北中新校,颗粒物(PM10),52,53,210,12,27,80,,71,71,9,11,8,7,0.3,0.4
2026-02-22T1500,3514A,117.9379,37.3959,滨州市,中海酒店,,41,41,216,9,26,92,,80,80,7,10,8,10,0.5,0.5
2026-02-22T1500,3515A,117.9381509,37.35547456,滨州市,开发区一中,颗粒物(PM10),52,53,236,10,28,86,,75,75,5,7,12,15,0.6,0.7
2026-02-22T1500,3516A,118.0914,37.6938,滨州市,金海六路,,30,22,243,10,26,94,,83,83,7,9,7,7,0.5,0.6
2026-02-22T1500,4028A,117.9955,37.3752,滨州市,滨州市西街道办事处,,46,46,232,12,37,91,,80,80,3,6,8,8,0,0.2
2026-02-22T1500,2311A,115.8071,33.8399,亳州市,污水处理厂,颗粒物(PM10),500,608,314,127,66,90,,76,76,5,9,4,7,0.3,0.4
2026-02-22T1500,2312A,115.7789,33.8519,亳州市,三国揽胜宫,颗粒物(PM10),500,663,272,129,68,85,,73,73,3,7,4,6,0.1,0.3
2026-02-22T1500,3332A,115.7631,33.803,亳州市,亳州学院,颗粒物(PM10),453,553,276,121,70,91,,78,78,4,8,2,6,0,0.2
2026-02-22T1500,2693A,82.0482,44.8553,博尔塔拉蒙古自治州,市党校,,24,24,65,8,16,68,,57,56,10,13,3,2,0.2,0.2
2026-02-22T1500,2694A,82.0805,44.8966,博尔塔拉蒙古自治州,市环保局,,23,23,52,3,19,60,,48,46,11,15,7,3,0.5,0.4
2026-02-22T1500,1071A,116.8733,38.2922,沧州市,沧县城建局,,45,45,247,9,34,92,,80,80,7,7,1,4,0.2,0.2
2026-02-22T1500,1072A,116.8462,38.3189,沧州市,电视转播站,,39,39,218,15,40,91,,78,78,9,9,4,2,0.3,0.3
2026-02-22T1500,1073A,116.8588,38.3161,沧州市,市环保局,,45,45,249,3,32,82,,69,69,5,7,4,2,0.3,0.2
2026-02-22T1500,3324A,116.8011,38.294,沧州市,河北水利电力学院,颗粒物(PM10),96,141,304,20,42,82,,71,71,5,5,5,6,0.2,0.1
2026-02-22T1500,2622A,97.1813,31.1289,昌都市,昌都监测站,,34,6,13,3,6,107,,71,71,1,3,4,3,0.4,0.4
2026-02-22T1500,3719A,97.1707,31.1428,昌都市,昌都会议中心,,34,6,9,3,8,107,,73,73,2,2,5,5,0.4,0.4
2026-02-22T1500,2692A,87.2722,44.0298,昌吉回族自治州,新区政务中心,,23,20,32,3,16,72,,57,52,13,19,6,5,0.4,0.5
2026-02-22T1500,3613A,87.3069,44.0093,昌吉回族自治州,亚心广场,,24,22,39,13,22,74,,58,56,6,16,6,9,0.2,0.3
2026-02-22T1500,4164A,87.2057,43.9289,昌吉回族自治州,财政所,,31,31,44,3,15,71,,65,65,4,8,6,6,0.3,0.5
2026-02-22T1500,1120A,125.2874,43.9024,长春市,客车厂,颗粒物(PM10),116,182,279,16,35,64,,64,64,7,8,6,9,0.3,0.4
2026-02-22T1500,1121A,125.2943,43.8508,长春市,邮电学院,,,,281,14,35,69,,68,68,7,13,6,9,0.4,0.5
2026-02-22T1500,1122A,125.3648,43.8745,长春市,劳动公园,,,,263,13,32,65,,66,66,8,9,5,7,0.8,0.7
2026-02-22T1500,1123A,125.3233,43.8781,长春市,园林处,颗粒物(PM10),94,137,250,13,34,67,,68,68,3,4,6,8,0,0.1
2026-02-22T1500,1124A,125.4604,43.7904,长春市,净月潭,颗粒物(PM10),123,196,242,14,32,66,,68,68,6,7,5,7,0.3,0.4
2026-02-22T1500,1126A,125.38,43.8422,长春市,经开区环卫处,颗粒物(PM10),98,146,249,14,32,68,,70,70,7,6,5,6,0.3,0.4
2026-02-22T1500,1127A,125.234,43.7761,长春市,高新区管委会,颗粒物(PM10),110,170,236,13,34,70,,70,70,3,5,6,8,0.4,0.4
2026-02-22T1500,1128A,125.1695,43.83,长春市,岱山公园,颗粒物(PM10),108,166,257,16,36,67,,69,69,6,7,4,5,0.4,0.4
2026-02-22T1500,4281A,125.334645,43.916281,长春市,北亚泰大街1068号,颗粒物(PM10),82,114,284,16,40,64,,64,64,7,10,6,8,0.3,0.4
2026-02-22T1500,1335A,113.082,28.2421,长沙市,经开区环保局,,46,46,46,31,34,96,,52,52,7,10,7,15,0.6,0.8
2026-02-22T1500,1336A,112.8873,28.2202,长沙市,高开区环保局,,48,40,43,33,38,95,,51,51,5,14,6,7,0.9,1.3
2026-02-22T1500,1337A,113.0785,28.2012,长沙市,马坡岭,细颗粒物(PM2.5),52,44,48,36,37,106,,52,52,4,13,6,5,0.7,0.9
2026-02-22T1500,1338A,112.9448,28.1894,长沙市,湖南师范大学,,48,48,46,32,32,109,,54,54,7,14,5,5,0.7,1.1
2026-02-22T1500,1339A,113.0177,28.1322,长沙市,雨花区环保局,,48,48,44,28,31,115,,66,66,12,18,8,8,1.0,1.2
2026-02-22T1500,1340A,112.9795,28.2593,长沙市,伍家岭,,46,46,52,23,26,100,,49,49,3,11,7,6,0.8,1
2026-02-22T1500,1341A,113.002,28.1944,长沙市,火车新站,,41,41,54,26,41,95,,46,46,4,26,3,3,0.8,1.2
2026-02-22T1500,1342A,112.9846,28.1177,长沙市,天心区环保局,,,,42,,31,101,,57,57,,15,6,7,0.9,1.1
2026-02-22T1500,1343A,112.8906,28.1307,长沙市,湖南中医药大学,,41,41,46,26,33,100,,48,48,3,14,6,7,0.7,1.1
2026-02-22T1500,1727A,113.1146,36.1547,长治市,清华站,颗粒物(PM10),170,290,314,98,95,93,,89,89,4,7,4,9,0.3,0.3
2026-02-22T1500,1730A,113.0887,36.2126,长治市,审计局,颗粒物(PM10),156,262,315,84,82,94,,91,91,8,10,6,7,0.3,0.4
2026-02-22T1500,1731A,113.0845,36.1856,长治市,长治八中,颗粒物(PM10),180,309,354,106,99,95,,92,92,2,3,7,9,0.3,0.3
2026-02-22T1500,2845A,113.1561,36.1912,长治市,德盛苑,颗粒物(PM10),177,304,342,112,103,99,,96,96,8,9,4,7,0.3,0.4
2026-02-22T1500,3568A,113.0603,36.0464,长治市,向阳小学,细颗粒物(PM2.5),193,319,359,145,103,102,,102,101,1,6,8,10,0.1,0.2
2026-02-22T1500,3569A,112.8788,36.315,长治市,屯留一中,颗粒物(PM10),142,233,314,79,83,103,,96,96,1,7,3,5,0.2,0.3
2026-02-22T1500,4189A,113.113092,36.199482,长治市,英华南巷50号,颗粒物(PM10),176,301,356,94,104,94,,92,92,3,6,4,7,0.2,0.3
2026-02-22T1500,4190A,113.23666,36.33435,长治市,学府街1号,颗粒物(PM10),187,323,350,83,79,92,,89,89,7,9,5,7,0.4,0.5
2026-02-22T1500,1854A,111.696,28.9725,常德市,市二中,细颗粒物(PM2.5),57,51,47,40,41,89,,55,55,3,7,8,7,1.4,1.2
2026-02-22T1500,3138A,111.7152,29.0288,常德市,武陵区永安,细颗粒物(PM2.5),55,49,56,39,47,90,,53,53,4,12,7,6,1.1,1.1
2026-02-22T1500,3139A,111.6891,28.9881,常德市,鼎城区玉霞,细颗粒物(PM2.5),58,45,50,41,43,91,,53,53,6,13,8,7,1.1,0.9
2026-02-22T1500,3140A,111.6651,29.0526,常德市,武陵区长庚,细颗粒物(PM2.5),63,50,56,45,53,88,,58,58,3,14,8,6,1.0,1
2026-02-22T1500,1196A,119.9524,31.7586,常州市,市监测站,颗粒物(PM10),168,286,80,67,40,99,,75,75,11,16,11,12,0.4,0.7
2026-02-22T1500,1200A,119.9351,31.703,常州市,武进监测站,颗粒物(PM10),162,274,69,58,35,102,,76,76,5,10,10,10,0.6,0.8
2026-02-22T1500,3002A,119.9701,31.813,常州市,行政中心,颗粒物(PM10),426,526,116,65,37,88,,70,70,11,12,5,7,0.5,0.6
2026-02-22T1500,3003A,120.0434,31.7726,常州市,经开区,颗粒物(PM10),184,318,83,60,34,100,,79,79,5,8,8,10,0.6,1
2026-02-22T1500,3010A,119.8919,31.7892,常州市,钟楼,颗粒物(PM10),150,250,72,61,42,101,,76,76,9,15,7,8,0.6,0.7
2026-02-22T1500,3429A,119.8595,31.706,常州市,武进经发区,颗粒物(PM10),190,330,80,69,43,101,,76,76,8,11,7,8,0.8,0.9
2026-02-22T1500,3430A,119.5812,31.7256,常州市,金坛城区,颗粒物(PM10),184,318,80,69,45,109,,83,83,7,10,8,10,0.7,0.9
2026-02-22T1500,4089A,119.9551,31.863,常州市,崇义南街5-H号,颗粒物(PM10),383,486,114,64,36,93,,72,72,11,15,5,6,0.5,0.7
2026-02-22T1500,2220A,120.4318,41.588,朝阳市,西梁,,32,32,204,3,33,93,,91,91,4,9,3,8,0.4,0.5
2026-02-22T1500,2221A,120.452,41.565,朝阳市,河畔小区,,29,25,158,8,31,92,,91,91,5,8,7,10,0.3,0.5
2026-02-22T1500,2222A,120.4176,41.5648,朝阳市,八里堡,,32,32,208,3,34,86,,84,84,6,7,7,10,0.2,0.6
2026-02-22T1500,3026A,116.6179,23.6608,潮州市,市政府,颗粒物(PM10),52,54,59,25,43,112,,83,83,1,5,3,4,0.5,0.6
2026-02-22T1500,4036A,116.646,23.676,潮州市,金山,,47,47,60,26,45,111,,80,80,4,8,3,4,0.6,0.6
2026-02-22T1500,2473A,113.0116,25.8228,郴州市,市职中,,30,28,48,21,39,86,,48,48,5,16,7,7,0.5,0.8
2026-02-22T1500,2475A,113.0381,25.8074,郴州市,市审计局,,31,31,75,19,59,85,,41,41,4,21,5,6,/,/
2026-02-22T1500,2476A,113.0348,25.7757,郴州市,市环保局,,41,41,51,24,36,89,,42,42,6,21,8,4,0.3,0.6
2026-02-22T1500,4252A,113.0138,25.8011,郴州市,好美居路49号,,30,29,42,10,31,95,,51,51,4,16,3,4,/,/
2026-02-22T1500,1431A,103.9727,30.7242,成都市,金泉两河,,,58,80,,,119,,71,71,19,39,6,4,0.6,1
2026-02-22T1500,1432A,104.1423,30.6765,成都市,十里店,细颗粒物(PM2.5),88,80,93,65,69,101,,60,60,20,25,7,7,0.8,0.8
2026-02-22T1500,1433A,104.0594,30.5765,成都市,三瓦窑,细颗粒物(PM2.5),78,57,72,57,62,116,,71,71,10,33,5,4,0.5,0.7
2026-02-22T1500,1434A,104.1122,30.6306,成都市,沙河铺,细颗粒物(PM2.5),77,59,82,56,68,102,,47,47,24,46,5,4,0.6,0.9
2026-02-22T1500,2880A,104.0219,30.6561,成都市,大石西路,细颗粒物(PM2.5),88,76,96,65,74,111,,57,57,18,35,7,6,0.2,0.6
2026-02-22T1500,3136A,104.2724,30.559,成都市,龙泉驿区区政府,细颗粒物(PM2.5),84,70,66,62,60,113,,82,82,12,14,10,8,0.7,0.7
2026-02-22T1500,3357A,104.0028,30.6891,成都市,金博路,细颗粒物(PM2.5),60,63,77,43,59,114,,61,61,20,43,8,7,0.8,1
2026-02-22T1500,3359A,104.056,30.5228,成都市,华阳,细颗粒物(PM2.5),84,68,77,62,68,107,,70,70,20,40,6,4,0.6,0.8
2026-02-22T1500,3488A,104.387954,30.746684,成都市,青石路225号,细颗粒物(PM2.5),89,78,83,66,69,124,,67,67,15,31,7,4,0.6,0.7
2026-02-22T1500,3489A,104.0788,30.4054,成都市,科学城,细颗粒物(PM2.5),73,63,72,53,60,115,,54,54,8,15,9,8,0.7,0.8
2026-02-22T1500,4011A,103.8505,30.6946,成都市,光华大道三段,细颗粒物(PM2.5),73,64,95,53,64,127,,67,67,11,33,5,5,0.5,0.7
2026-02-22T1500,4144A,104.3257,30.6406,成都市,八角井街185号,细颗粒物(PM2.5),84,72,81,62,59,113,,74,74,21,24,8,6,0.7,0.8
2026-02-22T1500,4224A,104.2433276,30.53529463,成都市,鲸龙路1057号,细颗粒物(PM2.5),83,76,81,61,64,120,,87,87,11,18,9,7,0.8,0.8
2026-02-22T1500,1062A,117.9531,40.908,承德市,铁路,颗粒物(PM10),94,138,281,9,46,88,,83,83,1,2,2,3,0.2,0.2
2026-02-22T1500,1063A,117.9397,40.9763,承德市,中国银行,颗粒物(PM10),112,174,324,13,44,85,,81,81,2,2,3,2,0.2,0.2
2026-02-22T1500,4073A,117.9462,40.95,承德市,杏林街1号,颗粒物(PM10),84,117,286,13,48,92,,86,86,2,2,3,3,0.2,0.2
2026-02-22T1500,4274A,117.7994,40.9605,承德市,滨河大街98号,颗粒物(PM10),101,151,312,11,45,92,,87,87,2,2,2,4,0.1,0.2
2026-02-22T1500,2314A,117.4698,30.6617,池州市,池州学院,颗粒物(PM10),106,161,55,51,33,109,,74,74,17,20,8,11,0.8,1.2
2026-02-22T1500,3237A,117.4918,30.6617,池州市,展览馆,颗粒物(PM10),106,161,54,44,31,110,,70,70,9,16,7,9,0.7,1
2026-02-22T1500,3333A,117.5626,30.695,池州市,第八中学,颗粒物(PM10),103,156,50,43,28,109,,75,75,17,20,6,9,0.4,0.8
2026-02-22T1500,3334A,117.5037,30.6242,池州市,第十二中学,颗粒物(PM10),109,167,50,43,29,108,,70,70,13,15,6,7,0.6,1
2026-02-22T1500,1744A,118.9229,42.2816,赤峰市,松山一中,颗粒物(PM10),57,63,292,16,37,61,,68,66,9,9,3,4,0.5,0.4
2026-02-22T1500,1745A,118.9588,42.2733,赤峰市,哈达街,颗粒物(PM10),60,69,270,15,43,66,,68,68,7,6,7,8,0.7,0.6
2026-02-22T1500,1746A,118.8792,42.2551,赤峰市,天义路,,41,41,263,11,34,77,,79,78,2,2,5,5,0.5,0.4
2026-02-22T1500,3058A,119.2656,42.0356,赤峰市,银河街,,45,45,328,10,43,93,,93,93,2,2,6,7,0.3,0.3
2026-02-22T1500,3286A,118.9359,42.3146,赤峰市,桥北物流园区,,27,19,207,11,35,84,,85,85,2,2,4,4,0.3,0.4
2026-02-22T1500,2521A,107.3473,22.4137,崇左市,市环保局江州分局,,43,43,87,26,71,74,,46,46,11,19,6,6,0.9,1.1
2026-02-22T1500,4256A,107.375,22.3736,崇左市,石景林东路7号,,,47,81,22,77,72,,46,46,8,21,3,5,,1.3
2026-02-22T1500,3207A,118.31131,32.3033,滁州市,市政府原办公楼,颗粒物(PM10),191,331,95,72,42,,,71,,8,8,6,6,0.3,0.4
2026-02-22T1500,3331A,118.3268,32.2633,滁州市,图书馆,颗粒物(PM10),203,352,84,53,29,102,,83,83,7,7,9,10,0.3,0.4
2026-02-22T1500,4101A,118.3196,32.3335,滁州市,银山路666号,颗粒物(PM10),256,389,94,77,49,105,,85,85,5,5,9,9,0.5,0.6
2026-02-22T1500,4102A,118.3426,32.2979,滁州市,黄山路555号,颗粒物(PM10),333,446,119,70,45,100,,82,82,4,4,7,8,0.5,0.6
2026-02-22T1500,2606A,101.5379,25.0492,楚雄彝族自治州,市经济开发区,,30,25,32,9,19,96,,86,86,3,8,3,5,0.3,0.4
2026-02-22T1500,4153A,101.5536,25.0343,楚雄彝族自治州,团结路562号,,32,32,23,14,15,97,,94,94,2,4,3,5,0.3,0.4
2026-02-22T1500,2549A,107.5087,31.2186,达州市,市环境监测站,细颗粒物(PM2.5),62,61,71,44,52,106,,55,55,13,30,9,8,0.3,0.4
2026-02-22T1500,2550A,107.4988,31.2132,达州市,凤凰小区,细颗粒物(PM2.5),62,56,71,44,52,95,,54,54,19,35,10,9,0.4,0.6
2026-02-22T1500,2551A,107.5081,31.1987,达州市,达县机关宾馆,颗粒物(PM10),54,58,71,36,53,109,,58,58,20,42,8,6,0.8,1
2026-02-22T1500,2552A,107.4644,31.2124,达州市,市政中心,细颗粒物(PM2.5),58,55,75,41,52,111,,53,53,13,44,9,7,0.5,0.8
2026-02-22T1500,2614A,100.2168,25.5818,大理白族自治州,大理市环境监测站,,33,24,26,18,18,105,,99,99,6,6,7,6,0.7,0.7
2026-02-22T1500,2615A,100.1542,25.7055,大理白族自治州,大理古城,,34,25,28,18,19,106,,100,100,5,6,8,8,0.6,0.6
2026-02-22T1500,1109A,121.6119,38.974,大连市,甘井子,颗粒物(PM10),52,54,159,10,52,95,,86,86,7,18,6,9,0.4,0.5
2026-02-22T1500,1110A,121.565,38.9509,大连市,周水子,颗粒物(PM10),58,65,155,9,46,87,,77,77,4,16,7,9,0.2,0.4
2026-02-22T1500,1111A,121.5637,38.8849,大连市,星海三站,颗粒物(PM10),57,63,158,3,43,85,,75,75,5,12,3,5,0.4,0.6
2026-02-22T1500,1112A,121.6301,38.9117,大连市,青泥洼桥,,34,34,175,8,44,90,,80,80,9,17,7,9,0.4,0.7
2026-02-22T1500,1113A,121.6248,38.8643,大连市,傅家庄,,,,152,,50,,,77,,,23,,9,,0.5
2026-02-22T1500,1114A,121.5117,38.8636,大连市,七贤岭,颗粒物(PM10),64,77,170,8,44,87,,79,79,6,13,6,9,0.4,0.5
2026-02-22T1500,1116A,121.7507,39.1339,大连市,金州,,31,31,91,3,37,89,,79,79,2,11,8,12,0.2,0.4
2026-02-22T1500,1117A,121.7811,39.0495,大连市,开发区,颗粒物(PM10),59,67,129,7,42,89,,80,80,4,15,4,5,0.2,0.4
2026-02-22T1500,1118A,121.9762,39.0631,大连市,双D港,,32,8,169,3,37,100,,90,90,6,14,6,8,0.5,0.8
2026-02-22T1500,4082A,121.2548,38.8188,大连市,旅顺,颗粒物(PM10),51,51,165,8,43,81,,72,72,6,12,10,11,0.4,0.4
2026-02-22T1500,1789A,124.8085,46.0381,大庆市,大同区,,32,32,89,8,59,77,,82,82,10,13,10,13,0.3,0.7
2026-02-22T1500,1790A,125.1166,46.5255,大庆市,龙凤区,,48,48,90,11,65,69,,69,69,12,23,2,3,0.1,0.5
2026-02-22T1500,1791A,124.8894,46.4007,大庆市,红岗区,,49,49,81,16,13,60,,60,60,7,18,7,10,0.2,0.6
2026-02-22T1500,1792A,125.1391,46.578,大庆市,萨尔图区,,,37,85,11,55,67,,66,66,8,17,7,9,,0.7
2026-02-22T1500,1793A,124.9026,46.6217,大庆市,让胡路区,,44,44,69,14,60,62,,63,62,8,17,17,19,0.3,0.6
2026-02-22T1500,3481A,125.127,46.6277,大庆市,萨区政府监测点,颗粒物(PM10),54,58,94,12,53,75,,74,74,2,8,9,11,0.2,0.6
2026-02-22T1500,1723A,113.2926,40.0759,大同市,云冈宾馆,颗粒物(PM10),73,96,209,14,39,77,,71,71,3,4,3,4,0.6,0.6
2026-02-22T1500,1724A,113.3437,40.0921,大同市,大同大学,细颗粒物(PM2.5),78,93,231,57,47,85,,78,78,1,3,2,3,0.2,0.3
2026-02-22T1500,1725A,113.2637,40.129,大同市,安家小村,颗粒物(PM10),68,85,242,16,39,72,,70,65,4,6,7,8,0.2,0.3
2026-02-22T1500,3282A,113.3399,40.0586,大同市,大同市卫生学校,颗粒物(PM10),70,89,218,9,39,89,,82,82,4,5,1,2,0.2,0.3
2026-02-22T1500,3565A,113.1371,40.1122,大同市,云冈站,颗粒物(PM10),74,98,221,26,40,82,,75,75,3,4,4,5,0.3,0.4
2026-02-22T1500,3566A,113.1186,40.2556,大同市,图书馆,颗粒物(PM10),87,124,335,17,41,82,,77,77,1,4,2,2,0.2,0.5
2026-02-22T1500,3567A,113.5931,40.0459,大同市,区一中,颗粒物(PM10),71,92,267,8,36,89,,81,81,3,4,6,7,0.3,0.3
2026-02-22T1500,4199A,113.2798248,40.09972476,大同市,魏都大道141号,颗粒物(PM10),76,101,241,11,32,84,,76,76,3,5,5,6,0.2,0.3
2026-02-22T1500,2269A,124.1068,50.4091,大兴安岭地区,科技局,颗粒物(PM10),56,62,49,12,12,67,,69,67,2,3,4,4,0.4,0.4
2026-02-22T1500,3663A,124.117,50.4279,大兴安岭地区,红旗社区,,22,14,18,3,11,70,,73,71,2,2,4,5,0.2,0.2
2026-02-22T1500,1600A,124.33,40.0625,丹东市,江湾东路,颗粒物(PM10),60,69,56,12,19,90,,85,77,6,7,6,7,0.3,0.6
2026-02-22T1500,1601A,124.4242,40.1513,丹东市,临江后街,,50,50,52,7,18,87,,84,78,4,5,6,8,0.3,0.4
2026-02-22T1500,1602A,124.3935,40.1461,丹东市,元宝山,,41,41,47,6,16,84,,83,75,2,5,7,10,0.3,0.5
2026-02-22T1500,1603A,124.3634,40.1093,丹东市,民主桥,,,,54,,19,85,,84,79,2,2,7,9,0.6,0.5
2026-02-22T1500,3541A,109.5726195,19.51688767,儋州市,第一中学子站,,20,13,33,8,23,64,,55,55,2,3,4,4,0.5,0.6
2026-02-22T1500,3542A,109.5567,19.5187,儋州市,东坡学校子站,,23,16,32,8,21,72,,60,60,2,4,5,4,0.4,0.5
2026-02-22T1500,2616A,98.5611,24.4273,德宏傣族景颇族自治州,德宏州监测站,,39,32,40,27,31,107,,56,56,9,20,8,7,0.5,0.6
2026-02-22T1500,3677A,98.5887,24.4366,德宏傣族景颇族自治州,芒市人民政府综合楼,颗粒物(PM10),52,53,54,24,27,106,,59,59,7,12,6,5,0.4,0.5
2026-02-22T1500,1901A,104.424,31.1209,德阳市,东山公园,细颗粒物(PM2.5),98,,66,73,65,96,,75,75,28,13,7,10,0.8,0.7
2026-02-22T1500,1902A,104.3827,31.1318,德阳市,西小区,细颗粒物(PM2.5),92,92,91,68,73,101,,45,45,30,32,9,12,0.8,0.9
2026-02-22T1500,1904A,104.3553,31.1091,德阳市,耐火材料厂,细颗粒物(PM2.5),123,,82,93,77,104,,56,56,21,25,6,9,0.8,0.9
2026-02-22T1500,4145A,104.4144,31.1495,德阳市,市林业局,细颗粒物(PM2.5),78,67,79,57,66,104,,58,58,14,22,10,10,0.8,0.8
2026-02-22T1500,1622A,116.3034,37.4675,德州市,儿童乐园,颗粒物(PM10),113,175,315,41,30,89,,77,77,6,10,9,10,0.3,0.3
2026-02-22T1500,1624A,116.2992,37.4449,德州市,监理站,颗粒物(PM10),128,205,316,52,47,87,,76,76,9,11,9,10,0.8,0.8
2026-02-22T1500,3066A,116.2722,37.438,德州市,九衢泉纯净水厂,颗粒物(PM10),126,202,320,53,40,90,,80,80,10,11,4,4,0.5,0.5
2026-02-22T1500,3371A,116.3693,37.44,德州市,开发区人民医院,颗粒物(PM10),126,202,301,41,29,84,,73,73,11,12,9,10,0.4,0.4
2026-02-22T1500,3511A,116.5687,37.3331,德州市,陵城艺术中心,颗粒物(PM10),118,185,305,40,31,83,,71,71,5,5,6,7,0.4,0.5
2026-02-22T1500,4292A,116.352738,37.420875,德州市,新河东路,颗粒物(PM10),112,173,289,44,30,84,,75,75,5,8,11,11,0.6,0.6
2026-02-22T1500,2621A,99.7054,27.8319,迪庆藏族自治州,迪庆州站,,41,29,35,19,22,130,,78,78,6,9,5,5,0.9,0.9
2026-02-22T1500,3180A,99.7122,27.8129,迪庆藏族自治州,质量技术监督局,,40,27,28,23,18,127,,80,80,10,13,5,5,0.6,0.6
2026-02-22T1500,4257A,104.6092,35.5962,定西市,将台街,颗粒物(PM10),168,285,334,86,96,86,,51,51,3,9,10,11,0.4,0.5
2026-02-22T1500,4309A,104.6159,35.5701,定西市,正龙路62号,颗粒物(PM10),177,304,363,99,90,86,,48,48,6,6,7,10,0.4,0.6
2026-02-22T1500,1390A,113.7943,23.0132,东莞市,东城石井,,39,25,31,18,23,122,,93,93,9,12,5,5,0.6,0.6
2026-02-22T1500,1391A,113.7384,22.9659,东莞市,南城西平,,37,23,30,16,22,116,,89,89,9,13,7,6,0.5,0.6
2026-02-22T1500,3319A,113.7283,23.041,东莞市,万江金泰,,40,31,38,28,28,120,,93,93,6,9,6,5,0.7,0.8
2026-02-22T1500,4129A,113.8666,23.1062,东莞市,裕兴路,,34,27,40,15,26,106,,83,83,6,10,6,6,0.7,0.8
2026-02-22T1500,4130A,114.0076,22.9739,东莞市,教育路1号,,35,21,38,12,27,109,,89,89,6,11,5,5,0.5,0.6
2026-02-22T1500,4131A,113.7981,22.8124,东莞市,长怡路1号,,35,25,33,15,20,110,,85,85,9,12,8,8,0.6,0.7
2026-02-22T1500,1666A,118.6612,37.4313,东营市,市环保局,,29,14,198,3,25,90,,82,82,14,16,6,9,0.6,0.6
2026-02-22T1500,3036A,118.6903,37.4337,东营市,开发区管委会,,29,23,187,3,24,90,,82,82,10,13,10,11,0.6,0.6
2026-02-22T1500,3365A,118.5721,37.5654,东营市,垦利区民丰路,,30,14,202,3,24,95,,85,85,10,12,7,9,0.6,0.7
2026-02-22T1500,3498A,118.5063,37.8606,东营市,河口城区,,31,7,209,3,25,99,,91,91,15,17,5,7,0.3,0.4
2026-02-22T1500,3646A,118.4979,37.4623,东营市,胜利站,,28,17,158,3,28,89,,80,80,9,11,6,8,0.5,0.6
2026-02-22T1500,3734A,118.5753,37.4405,东营市,理想之城,,,,228,0,18,92,,83,83,7,10,5,7,0.5,0.6
2026-02-22T1500,1591A,110.0024,39.8127,鄂尔多斯市,综合楼,颗粒物(PM10),52,53,251,3,42,88,,82,82,3,4,5,5,0.2,0.2
2026-02-22T1500,1592A,109.9485,39.8259,鄂尔多斯市,巴音孟克林场办事处,,46,46,257,14,45,88,,81,81,3,4,4,4,0.2,0.2
2026-02-22T1500,1593A,109.7734,39.5987,鄂尔多斯市,康泽苑,颗粒物(PM10),56,61,92,38,63,94,,80,80,3,4,5,5,0.2,0.2
2026-02-22T1500,1594A,109.8121,39.5987,鄂尔多斯市,华泰汽车城,颗粒物(PM10),57,63,295,10,54,98,,84,84,3,3,10,8,0.1,0.3
2026-02-22T1500,1595A,109.9734,39.7884,鄂尔多斯市,奥林花园,,44,44,318,9,43,88,,82,82,10,9,5,3,0.3,0.3
2026-02-22T1500,2436A,114.894,30.3989,鄂州市,市政府,颗粒物(PM10),59,67,44,33,33,110,,69,69,12,21,9,16,0.8,0.9
2026-02-22T1500,2437A,114.8986,30.3714,鄂州市,赵家坝,颗粒物(PM10),55,60,45,32,35,124,,76,76,4,11,17,16,0.8,0.9
2026-02-22T1500,3654A,114.8093,30.4091,鄂州市,精准医疗中心,颗粒物(PM10),56,62,52,33,36,122,,81,81,6,24,6,27,0.8,1.3
2026-02-22T1500,2454A,109.4978,30.2979,恩施土家族苗族自治州,湖北民院,,48,48,54,25,45,100,,50,50,10,15,6,6,0.8,1
2026-02-22T1500,3549A,109.5061,30.3771,恩施土家族苗族自治州,龙凤新区,,46,46,49,25,39,96,,47,47,6,9,7,7,0.4,0.5
2026-02-22T1500,2499A,108.3411,21.6159,防城港市,沙万,,42,42,40,23,28,69,,46,46,8,14,6,6,0.5,0.7
2026-02-22T1500,2500A,108.3515,21.7733,防城港市,防城档案局,,,34,36,18,31,68,,40,40,4,8,,5,0.5,0.6
2026-02-22T1500,2501A,108.3506,21.6414,防城港市,大海花园,,29,29,35,14,33,78,,50,50,4,12,6,6,0.4,0.7
2026-02-22T1500,1371A,113.1293,23.0065,佛山市,湾梁,,35,27,32,24,29,109,,80,80,5,7,/,/,/,/
2026-02-22T1500,1372A,113.1082,23.0477,佛山市,华材职中,,39,31,33,27,26,110,,86,86,6,8,6,6,0.4,0.4
2026-02-22T1500,1373A,113.1439,23.045,佛山市,南海气象局,,36,36,35,17,27,106,,85,85,4,8,/,/,/,/
2026-02-22T1500,1374A,113.2879,22.8094,佛山市,顺德苏岗,,40,40,42,22,27,104,,83,83,7,9,/,/,0.7,0.7
2026-02-22T1500,1376A,112.8384,22.8678,佛山市,高明孔堂,,32,20,31,16,23,101,,77,77,4,6,/,/,/,/
2026-02-22T1500,1377A,112.8835,23.1584,佛山市,三水监测站,,33,31,32,23,27,104,,81,81,6,8,1,2,0.4,0.5
2026-02-22T1500,1378A,112.8668,23.185,佛山市,三水云东海,,40,40,39,22,26,112,,82,82,7,11,/,/,/,/
2026-02-22T1500,3625A,113.2568,22.7629,佛山市,容桂街道办,,26,24,28,17,22,83,,71,71,4,6,/,/,/,/
2026-02-22T1500,1282A,119.2681,26.0506,福州市,师大,,36,36,48,24,35,109,,81,81,8,12,4,4,0.6,0.7
2026-02-22T1500,1283A,119.2983,26.1028,福州市,五四北路,,45,,50,31,40,113,,84,84,9,14,5,6,0.6,0.6
2026-02-22T1500,1284A,119.2648,26.0769,福州市,杨桥西路,,42,34,48,29,38,108,,81,81,7,14,4,5,/,/
2026-02-22T1500,3048A,119.5799,26.0937,福州市,九龙,细颗粒物(PM2.5),52,46,43,36,36,120,,80,80,11,13,5,4,0.6,0.6
2026-02-22T1500,3526A,119.5188,25.9666,福州市,吴航,细颗粒物(PM2.5),52,52,48,36,37,119,,78,78,15,18,6,5,0.6,0.6
2026-02-22T1500,4104A,119.3106,26.0648,福州市,路通桥巷6号,,41,41,49,27,38,113,,83,83,8,13,/,/,/,/
2026-02-22T1500,1755A,123.7974,41.8494,抚顺市,望花区,颗粒物(PM10),183,316,207,11,27,86,,80,80,4,13,2,16,0.6,0.7
2026-02-22T1500,1756A,123.9161,41.8827,抚顺市,顺城区,颗粒物(PM10),137,224,137,14,35,84,,80,80,7,13,6,13,0.5,0.7
2026-02-22T1500,1757A,124.0437,41.8615,抚顺市,东洲区,颗粒物(PM10),285,409,178,13,21,78,,74,74,6,10,7,11,0.4,0.5
2026-02-22T1500,1758A,123.9246,41.8638,抚顺市,新抚区,颗粒物(PM10),276,403,194,16,30,84,,80,80,6,11,6,10,0.3,0.6
2026-02-22T1500,1759A,124.0972,41.8961,抚顺市,大伙房水库,颗粒物(PM10),233,373,145,15,20,83,,79,79,2,7,9,10,0.3,0.5
2026-02-22T1500,1760A,123.708,41.8386,抚顺市,沈抚新城,颗粒物(PM10),175,300,187,8,23,81,,76,76,3,9,5,10,0.4,0.6
2026-02-22T1500,2377A,116.3544,27.9833,抚州市,市站,,,34,59,21,48,103,,67,67,,8,8,7,0.9,1.2
2026-02-22T1500,2378A,116.3562,27.9631,抚州市,血防站,,38,38,55,20,44,96,,58,58,5,18,13,12,1.5,1.6
2026-02-22T1500,2379A,116.3561,28.0007,抚州市,采茶剧团,,33,33,56,20,44,91,,58,58,1,8,12,11,1.4,1.5
2026-02-22T1500,2380A,116.3854,27.9648,抚州市,医学分院,,31,31,52,14,34,94,,58,58,2,10,5,5,1.2,1.3
2026-02-22T1500,2207A,121.6095,41.9978,阜新市,工业园区,颗粒物(PM10),90,129,297,3,32,83,,81,81,2,7,7,10,0.4,0.6
2026-02-22T1500,2208A,121.6567,42.0188,阜新市,长青街,颗粒物(PM10),64,78,224,3,34,93,,92,92,2,8,6,8,0.3,0.5
2026-02-22T1500,2209A,121.6672,42.07,阜新市,农业园区,颗粒物(PM10),118,185,283,3,32,76,,75,75,1,6,5,7,0.4,0.6
2026-02-22T1500,2211A,121.6343,42.0455,阜新市,玉龙新城,颗粒物(PM10),109,167,322,3,38,83,,80,80,3,9,6,12,0.4,0.6
2026-02-22T1500,2301A,115.8276,32.8929,阜阳市,市监测站,颗粒物(PM10),433,533,171,105,46,92,,74,74,8,10,5,6,0.4,0.6
2026-02-22T1500,2303A,115.8551,32.8606,阜阳市,开发区,颗粒物(PM10),490,590,189,90,45,92,,75,75,2,5,5,7,0.3,0.5
2026-02-22T1500,2875A,115.783962,32.889217,阜阳市,阜阳职业技术学院,颗粒物(PM10),461,561,166,90,46,97,,,,8,10,6,8,0.5,0.7
2026-02-22T1500,3468A,115.79,32.8614,阜阳市,市规划展馆,颗粒物(PM10),382,485,154,90,44,101,,81,81,4,7,7,8,0.6,0.9
2026-02-22T1500,3469A,115.835101,32.918568,阜阳市,枣园社区,颗粒物(PM10),476,576,172,104,46,86,,70,70,7,9,7,9,0.3,0.5
2026-02-22T1500,2669A,102.9097,34.9841,甘南藏族自治州,州政府,,32,32,85,3,30,87,,48,48,3,13,7,8,0.2,0.6
2026-02-22T1500,3380A,102.8915,34.9618,甘南藏族自治州,甘肃民族师范学院,,29,28,83,3,18,90,,66,66,7,11,7,8,0.3,0.3
2026-02-22T1500,2570A,101.96,30.048,甘孜藏族自治州,水桥子,,,12,9,7,5,83,,61,61,,8,7,7,0.3,0.3
2026-02-22T1500,3065A,101.9534,29.9976,甘孜藏族自治州,州环保局,,32,15,8,3,6,100,,84,84,2,3,7,6,0.5,0.4
2026-02-22T1500,2363A,114.9368,25.8663,赣州市,地委,,37,37,51,23,36,113,,72,72,7,22,8,8,1.2,1.3
2026-02-22T1500,2364A,114.946,25.8483,赣州市,气象台,,36,33,50,24,40,115,,73,73,8,23,7,7,0.6,0.6
2026-02-22T1500,2365A,114.932,25.8332,赣州市,市图书馆,,42,31,50,29,36,100,,63,63,4,22,3,5,1.0,1.2
2026-02-22T1500,2366A,114.8905,25.8472,赣州市,华坚鞋城,,38,38,55,24,42,97,,61,61,7,22,6,6,0.5,0.7
2026-02-22T1500,3109A,115.0094,25.8614,赣州市,赣县区卫计委,,38,35,53,22,39,121,,83,83,7,20,8,8,0.6,0.8
2026-02-22T1500,2684A,106.2753,36.0057,固原市,监测站,颗粒物(PM10),181,312,471,80,111,82,,65,64,4,8,7,8,0.3,0.5
2026-02-22T1500,2685A,106.2384,36.0189,固原市,新区,颗粒物(PM10),166,281,448,76,113,84,,62,61,3,10,6,7,0.4,0.5
2026-02-22T1500,2544A,106.6307,30.4577,广安市,市委,细颗粒物(PM2.5),112,99,102,84,92,119,,69,69,16,37,12,8,0.9,1.2
2026-02-22T1500,2545A,106.6266,30.4662,广安市,友谊中学,细颗粒物(PM2.5),80,90,94,59,66,129,,68,68,14,27,12,8,1.1,1.1
2026-02-22T1500,2547A,106.6386,30.4551,广安市,广电花园,细颗粒物(PM2.5),115,102,97,87,94,111,,65,65,14,27,12,9,0.8,1.1
2026-02-22T1500,2902A,106.6347,30.4868,广安市,北辰小学,细颗粒物(PM2.5),105,87,85,79,82,119,,61,61,14,18,16,12,0.9,0.9
2026-02-22T1500,2524A,105.8211,32.4444,广元市,老城,颗粒物(PM10),88,126,83,63,59,83,,50,50,24,31,32,9,1.2,1
2026-02-22T1500,2526A,105.8629,32.429,广元市,监测站,颗粒物(PM10),90,130,64,58,48,81,,49,49,25,20,28,13,0.9,0.8
2026-02-22T1500,3617A,105.8047,32.4167,广元市,经开区,颗粒物(PM10),79,107,78,57,59,81,,42,42,20,31,46,15,1.5,1.1
2026-02-22T1500,1345A,113.2346,23.1423,广州市,广雅中学,,32,23,33,17,24,102,,77,77,4,9,2,2,0.6,0.5
2026-02-22T1500,1346A,113.2611,23.105,广州市,市五中,,38,29,33,21,24,120,,89,89,7,11,6,6,/,/
2026-02-22T1500,1348A,113.3477,23.0916,广州市,广东商学院,,37,24,32,22,28,116,,80,80,6,11,5,5,0.8,0.8
2026-02-22T1500,1349A,113.4332,23.105,广州市,市八十六中,,40,24,48,20,20,126,,89,89,12,17,4,5,/,/
2026-02-22T1500,1350A,113.3506,22.9488,广州市,番禺中学,,33,23,48,16,22,104,,80,80,4,9,3,4,0.7,0.8
2026-02-22T1500,1351A,113.2147,23.3918,广州市,花都师范,,35,24,37,24,32,105,,75,75,7,15,6,6,0.7,0.7
2026-02-22T1500,1352A,113.2599,23.1329,广州市,市监测站,,35,28,34,20,24,109,,79,79,5,10,1,1,/,/
2026-02-22T1500,1353A,113.5618,23.3119,广州市,九龙镇镇龙,,30,28,37,21,29,95,,73,73,5,10,5,5,0.5,0.6
2026-02-22T1500,1354A,113.2764,23.1544,广州市,麓湖,,35,30,32,19,25,112,,82,82,5,9,3,4,0.5,0.5
2026-02-22T1500,2846A,113.3209,23.1323,广州市,体育西,,35,33,34,22,22,111,,81,81,7,11,5,6,0.7,0.7
2026-02-22T1500,3298A,113.5718,23.5493,广州市,从化街口,,33,26,42,19,32,104,,74,74,6,11,7,8,0.6,0.7
2026-02-22T1500,3299A,113.3463,23.369,广州市,白云竹料,,36,25,42,18,31,114,,80,80,12,13,4,4,0.5,0.6
2026-02-22T1500,3300A,113.2981,23.2365,广州市,白云嘉禾,,37,20,33,14,25,116,,82,82,8,13,5,6,/,/
2026-02-22T1500,3301A,113.4256,23.1716,广州市,黄埔科学城,,38,22,34,18,28,120,,85,85,6,11,5,5,0.6,0.6
2026-02-22T1500,3302A,113.3942,23.0485,广州市,番禺大学城,,39,39,48,15,26,120,,83,83,4,9,8,9,0.5,0.5
2026-02-22T1500,3303A,113.4923,22.8169,广州市,南沙黄阁,,36,36,37,24,26,108,,79,79,10,13,6,6,/,/
2026-02-22T1500,3304A,113.534,22.7893,广州市,南沙街,,,33,35,17,24,110,,77,77,,11,5,5,0.5,0.6
2026-02-22T1500,3443A,113.2905,23.5541,广州市,花都梯面,,23,19,33,14,24,73,,69,62,2,6,5,5,/,/
2026-02-22T1500,3445A,113.786,23.7479,广州市,从化良口,,36,30,36,25,29,92,,70,70,4,8,4,4,/,/
2026-02-22T1500,3446A,113.805,23.2614,广州市,增城荔城,,35,23,37,19,28,110,,88,88,6,11,6,6,0.5,0.5
2026-02-22T1500,2506A,109.604387,23.066791,贵港市,江南子站,颗粒物(PM10),52,53,90,31,67,88,,57,57,6,17,8,8,0.7,0.9
2026-02-22T1500,2508A,109.5669,23.1065,贵港市,荷城子站,细颗粒物(PM2.5),58,51,82,41,65,85,,59,59,11,20,9,8,0.8,0.9
2026-02-22T1500,3405A,109.5886,23.1172,贵港市,新世纪学校,细颗粒物(PM2.5),54,51,84,38,76,91,,62,62,12,21,/,/,0.6,0.8
2026-02-22T1500,4260A,109.5933,23.095,贵港市,中山路155-3号,细颗粒物(PM2.5),63,60,98,45,75,86,,58,58,8,17,/,/,0.6,0.9
2026-02-22T1500,1439A,106.6863,26.6035,贵阳市,马鞍山,,36,36,31,25,27,38,,46,43,15,11,6,5,/,/
2026-02-22T1500,1441A,106.6241,26.6266,贵阳市,鉴湖路,,36,36,40,22,26,52,,54,52,11,11,6,8,0.6,0.5
2026-02-22T1500,1442A,106.7468,26.6344,贵阳市,燕子冲,,36,36,36,20,25,38,,52,51,22,13,8,6,0.5,0.4
2026-02-22T1500,1443A,106.6556,26.4362,贵阳市,碧云窝,,40,36,34,28,24,48,,57,53,8,7,10,11,/,/
2026-02-22T1500,1445A,106.6963,26.6063,贵阳市,红边门,,29,29,40,19,32,41,,52,47,21,19,9,12,/,/
2026-02-22T1500,1446A,106.7162383,26.56964667,贵阳市,新华路,,45,39,44,31,27,49,,54,49,17,17,13,13,0.4,0.4
2026-02-22T1500,1447A,106.6742,26.542,贵阳市,太慈桥,,29,29,30,19,26,36,,46,40,14,15,4,4,/,/
2026-02-22T1500,4230A,106.688212,26.56952,贵阳市,花果园大街66号,,36,27,29,25,26,43,,50,43,14,13,3,4,/,/
2026-02-22T1500,4231A,106.687268,26.516892,贵阳市,漓江路57号,,33,24,34,23,27,50,,52,48,9,11,8,9,0.6,0.6
2026-02-22T1500,1864A,110.3091,25.2705,桂林市,龙隐路小学,细颗粒物(PM2.5),99,85,102,74,91,28,,11,11,24,28,5,5,1.2,1.4
2026-02-22T1500,1865A,110.2849361,25.22909545,桂林市,八中,颗粒物(PM10),64,77,85,44,47,27,,13,13,19,28,5,5,1.1,1.2
2026-02-22T1500,3531A,110.296,25.1254,桂林市,旅游学院,细颗粒物(PM2.5),90,69,68,67,61,39,,20,20,8,13,6,6,0.9,0.9
2026-02-22T1500,4222A,110.1835,25.2444,桂林市,环湖路276号,细颗粒物(PM2.5),75,75,81,55,75,23,,9,9,20,22,7,5,1.1,1.2
2026-02-22T1500,4301A,110.2803,25.2773,桂林市,信义路13号,细颗粒物(PM2.5),95,72,100,71,81,22,,9,9,18,25,4,5,1.3,1.5
2026-02-22T1500,2674A,100.2262,34.4854,果洛藏族自治州,玛沁县大武镇,,33,33,34,3,10,83,,64,64,1,3,5,13,0.3,0.4
2026-02-22T1500,1130A,126.5557,45.8109,哈尔滨市,松北商大,,23,20,125,12,43,72,,65,65,4,6,7,11,0.5,0.6
2026-02-22T1500,1132A,126.6162,45.719,哈尔滨市,南岗学府路,,48,48,145,15,38,69,,71,71,8,10,7,10,0.6,0.7
2026-02-22T1500,1133A,126.6894,45.7733,哈尔滨市,太平宏伟公园,,33,33,164,8,40,70,,66,66,10,7,8,10,0.5,0.6
2026-02-22T1500,1134A,126.6361,45.7672,哈尔滨市,道外承德广场,颗粒物(PM10),57,64,181,12,39,65,,61,61,14,12,8,13,0.2,0.2
2026-02-22T1500,1136A,126.644,45.7261,哈尔滨市,动力和平路,,48,48,155,23,40,70,,66,66,5,10,3,9,0.7,0.7
2026-02-22T1500,1137A,126.5933,45.7479,哈尔滨市,道里建国路,,30,30,119,12,38,67,,66,64,14,15,8,17,0.1,0.3
2026-02-22T1500,1138A,126.6127,45.6119,哈尔滨市,平房东轻厂,颗粒物(PM10),71,92,103,7,40,52,,49,49,7,17,4,8,0.5,0.6
2026-02-22T1500,1139A,126.5875,45.9827,哈尔滨市,呼兰师专,,24,22,148,10,39,75,,61,61,5,12,8,14,0.3,0.5
2026-02-22T1500,1140A,126.6299,45.6799,哈尔滨市,省农科院,,,48,177,24,39,67,,64,64,4,11,,,0.4,0.5
2026-02-22T1500,4282A,126.6769,45.7379,哈尔滨市,华山路1号,,22,22,174,8,36,70,,67,67,10,11,6,12,0.6,0.7
2026-02-22T1500,4283A,126.9717,45.5356,哈尔滨市,解放大街52号,,,122,133,6,32,66,,69,67,5,7,,11,0.4,0.5
2026-02-22T1500,2688A,93.5124,42.8176,哈密市,地区监测站,,,,106,,26,78,,63,57,2,6,4,5,0.1,0
2026-02-22T1500,2689A,93.5014,42.8312,哈密市,哈密师范学校,,42,42,72,10,19,78,,60,60,5,11,6,5,0.7,0.6
2026-02-22T1500,2671A,100.9016,36.9464,海北藏族自治州,海晏县西海镇,,30,14,28,7,11,95,,76,76,2,2,8,8,0.3,0.5
2026-02-22T1500,3867A,102.074,36.5056,海东市,平安区公安局北苑,细颗粒物(PM2.5),227,199,336,177,124,82,,47,47,5,7,10,13,0.6,0.8
2026-02-22T1500,4163A,102.0984,36.5119,海东市,滨河路,颗粒物(PM10),163,275,382,86,110,87,,47,47,10,13,13,12,0.6,0.6
2026-02-22T1500,1410A,110.3189,20.0596,海口市,海南大学,,27,27,26,16,14,80,,71,71,2,3,6,6,0.4,0.4
2026-02-22T1500,1411A,110.2827,20.0051,海口市,秀英海南医院,,24,23,27,15,15,75,,62,62,2,7,8,8,0.3,0.3
2026-02-22T1500,1412A,110.3391,19.9979,海口市,海南师范大学,,27,27,29,16,15,80,,70,70,3,4,5,6,0.4,0.4
2026-02-22T1500,1413A,110.3303,20.0359,海口市,龙华路环保局宿舍,,25,25,24,15,15,80,,73,73,4,5,/,/,0.7,0.6
2026-02-22T1500,3539A,110.5111,19.9737,海口市,桂林洋子站,,25,23,25,14,16,77,,67,67,2,4,/,/,/,/
2026-02-22T1500,4134A,110.1952,20.0451,海口市,长滨二路9号,,26,24,22,16,14,81,,68,68,2,3,/,/,/,/
2026-02-22T1500,2673A,100.6158,36.2985,海南藏族自治州,共和县恰卜恰镇,,29,17,47,11,22,90,,67,67,1,7,10,13,0.3,0.3
2026-02-22T1500,2676A,97.373,37.376,海西蒙古族藏族自治州,德令哈市,,34,20,21,11,10,106,,95,95,2,2,19,18,0.3,0.3
2026-02-22T1500,1049A,114.492,36.5712,邯郸市,矿院,细颗粒物(PM2.5),201,328,388,151,133,98,,92,92,2,2,3,3,0.3,0.4
2026-02-22T1500,1050A,114.4839,36.6136,邯郸市,丛台公园,颗粒物(PM10),193,336,368,137,126,95,,92,89,7,7,3,3,0.3,0.4
2026-02-22T1500,3458A,114.7893,36.5592,邯郸市,香泉濮院小区,颗粒物(PM10),412,512,512,101,79,91,,89,86,1,2,3,3,0.5,0.4
2026-02-22T1500,3580A,114.1998,36.4439,邯郸市,峰峰矿区临水派出所,颗粒物(PM10),136,221,316,68,76,96,,94,92,2,2,2,3,0.3,0.3
2026-02-22T1500,4068A,114.5209,36.7697,邯郸市,建安街268号,颗粒物(PM10),248,383,382,134,112,89,,87,85,2,2,3,3,0.4,0.2
2026-02-22T1500,4069A,114.5488,36.6177,邯郸市,丛台东路558号,颗粒物(PM10),219,363,356,160,124,98,,96,93,6,7,1,3,0.4,0.3
2026-02-22T1500,2635A,107.0155,33.0707,汉中市,市监测站,颗粒物(PM10),144,238,105,59,78,90,,57,57,9,23,6,8,0.6,1.1
2026-02-22T1500,2636A,107.0083,33.114,汉中市,鑫源开发区,颗粒物(PM10),150,249,117,67,64,90,,58,58,8,22,5,8,0.4,0.9
2026-02-22T1500,2637A,107.0072,33.0323,汉中市,南郑大河坎水厂,颗粒物(PM10),128,206,90,49,58,94,,55,55,9,17,7,6,0.6,0.9
2026-02-22T1500,1223A,120.2073,30.2111,杭州市,滨江,颗粒物(PM10),63,76,35,29,22,115,,72,72,7,14,8,7,0.6,0.6
2026-02-22T1500,1224A,120.0625,30.2737,杭州市,西溪,颗粒物(PM10),57,63,35,29,23,113,,67,67,3,8,10,8,0.8,0.8
2026-02-22T1500,1226A,120.3417,30.315,杭州市,下沙,细颗粒物(PM2.5),58,49,32,41,22,112,,74,74,12,15,10,9,0.5,0.3
2026-02-22T1500,1227A,120.1252,30.2465,杭州市,卧龙桥,颗粒物(PM10),56,62,29,27,18,113,,68,68,5,14,9,8,0.4,0.3
2026-02-22T1500,1228A,120.1902,30.2691,杭州市,浙江农大,颗粒物(PM10),54,57,34,28,22,121,,76,76,5,14,7,6,0.7,0.6
2026-02-22T1500,1230A,120.1195,30.3121,杭州市,和睦小学,颗粒物(PM10),60,70,42,31,29,116,,69,69,4,17,6,5,0.6,0.6
2026-02-22T1500,1231A,120.3076,30.4146,杭州市,临平镇,颗粒物(PM10),67,83,41,40,24,124,,78,78,8,18,9,7,0.7,0.5
2026-02-22T1500,1232A,120.2753,30.1839,杭州市,城厢镇,,50,47,35,35,23,116,,76,76,6,10,10,8,0.7,0.5
2026-02-22T1500,1233A,120.0883,30.1808,杭州市,云栖,颗粒物(PM10),53,55,29,27,18,112,,60,60,8,20,6,4,0.7,0.7
2026-02-22T1500,3557A,119.9463,30.0496,杭州市,镇二中,,,84,35,31,25,102,,66,66,7,17,5,5,,0.7
2026-02-22T1500,3558A,119.7184,30.2367,杭州市,市府大楼,颗粒物(PM10),73,96,33,34,24,97,,64,64,5,9,7,7,0.3,0.4
2026-02-22T1500,3656A,120.1554,30.2863,杭州市,消防大队,颗粒物(PM10),52,53,32,31,23,104,,66,66,3,13,8,7,0.8,0.6
2026-02-22T1500,1270A,117.1957,31.7845,合肥市,明珠广场,颗粒物(PM10),202,351,92,61,28,104,,82,82,4,10,7,7,0.4,0.7
2026-02-22T1500,1271A,117.307,31.8765,合肥市,三里街,颗粒物(PM10),196,342,96,45,30,90,,71,71,7,22,6,6,0.4,0.7
2026-02-22T1500,1272A,117.2587,31.8703,合肥市,琥珀山庄,颗粒物(PM10),240,378,104,48,32,94,,75,75,9,29,6,6,0.5,0.8
2026-02-22T1500,1275A,117.2593,31.9376,合肥市,庐阳区,颗粒物(PM10),255,388,94,51,26,92,,75,75,6,12,5,5,0.8,1
2026-02-22T1500,1276A,117.345251,31.861615,合肥市,瑶海区,颗粒物(PM10),265,395,98,45,23,102,,80,80,13,21,6,6,0.3,0.5
2026-02-22T1500,1277A,117.3033,31.7967,合肥市,包河区,颗粒物(PM10),198,346,97,43,25,90,,77,77,8,19,10,10,0.5,0.7
2026-02-22T1500,1278A,117.278,31.7392,合肥市,滨湖新区,颗粒物(PM10),209,356,97,47,25,89,,74,74,1,13,4,4,0.6,0.7
2026-02-22T1500,1279A,117.1324,31.8395,合肥市,高新区,颗粒物(PM10),209,356,107,45,25,93,,79,79,3,6,4,5,0.4,0.6
2026-02-22T1500,3464A,117.3802,31.9148,合肥市,高教基地,颗粒物(PM10),255,388,101,47,25,109,,84,84,6,14,9,9,0.4,0.6
2026-02-22T1500,4098A,117.2518,31.8404,合肥市,中国科学技术大学,颗粒物(PM10),245,381,98,45,25,108,,87,87,2,9,8,8,0.6,0.8
2026-02-22T1500,3614A,79.9241,37.0878,和田地区,地区环保局,,,90,560,8,80,95,,82,82,2,11,2,3,,
2026-02-22T1500,3615A,79.9132,37.1137,和田地区,市环保局,颗粒物(PM10),79,108,537,3,88,117,,94,94,5,20,3,3,0.6,0.8
2026-02-22T1500,2517A,108.0496,24.6957,河池市,市环保站,细颗粒物(PM2.5),105,81,92,79,79,42,,18,18,11,10,3,3,1.0,1
2026-02-22T1500,4302A,108.0901,24.6945,河池市,上任中路54号,细颗粒物(PM2.5),95,80,91,71,80,30,,13,13,15,19,4,5,0.9,0.9
2026-02-22T1500,1697A,114.6962,23.7538,河源市,东埔,,30,,42,18,33,96,,84,82,4,9,5,5,0.6,0.8
2026-02-22T1500,1698A,114.6895,23.7232,河源市,老城,,30,20,42,16,32,96,,84,82,3,7,6,6,0.5,0.6
2026-02-22T1500,3374A,115.5562,35.089,菏泽市,定陶老年大学,颗粒物(PM10),392,493,326,103,66,100,,84,84,10,14,4,6,0.1,0.4
2026-02-22T1500,4114A,115.4239,35.2593,菏泽市,黄河路600号,颗粒物(PM10),400,500,358,118,76,88,,71,71,5,10,3,5,0.2,0.4
2026-02-22T1500,4115A,115.5025,35.2727,菏泽市,菏泽市人社局,颗粒物(PM10),308,426,292,102,63,91,,72,72,8,14,4,5,0.3,0.5
2026-02-22T1500,4184A,115.479691,35.244011,菏泽市,永昌路1号,颗粒物(PM10),377,481,326,116,72,102,,83,83,4,9,2,4,0.3,0.5
2026-02-22T1500,4193A,115.471542,35.280012,菏泽市,长城路999号,颗粒物(PM10),345,456,343,137,80,93,,74,74,5,10,,13,0.2,0.4
2026-02-22T1500,2514A,111.5264,24.4178,贺州市,环保小区,,,33,81,29,76,99,,56,56,4,13,4,4,,0.7
2026-02-22T1500,2515A,111.561,24.4074,贺州市,政协大楼,,42,35,76,29,72,102,,53,53,12,27,5,6,0.5,0.8
2026-02-22T1500,3534A,111.4744,24.455,贺州市,西湾,颗粒物(PM10),57,63,108,27,80,90,,45,45,8,18,6,6,0.8,1.2
2026-02-22T1500,2385A,114.17,35.9019,鹤壁市,市监测站,颗粒物(PM10),370,476,288,121,77,88,,90,88,2,2,3,3,0.4,0.4
2026-02-22T1500,2386A,114.2953,35.7512,鹤壁市,市交警支队,颗粒物(PM10),500,600,340,127,72,79,,82,75,4,6,5,4,0.3,0.3
2026-02-22T1500,2387A,114.2877,35.7302,鹤壁市,迎宾馆,颗粒物(PM10),500,714,406,132,77,82,,84,77,6,9,5,3,0.5,0.5
2026-02-22T1500,3474A,114.2616,35.6824,鹤壁市,大新区,颗粒物(PM10),500,642,372,102,70,64,,87,,7,8,7,7,0.5,0.4
2026-02-22T1500,3596A,114.1573,35.9607,鹤壁市,南山宾馆,颗粒物(PM10),500,668,387,124,81,87,,93,91,1,2,3,4,0.5,0.5
2026-02-22T1500,2244A,130.2537,47.3416,鹤岗市,哈啤分公司,颗粒物(PM10),58,65,41,24,29,82,,90,77,5,9,10,13,0.4,0.5
2026-02-22T1500,2245A,130.2683,47.3087,鹤岗市,斯达机电,颗粒物(PM10),67,83,49,24,26,79,,88,79,7,10,8,11,0.4,0.4
2026-02-22T1500,2246A,130.3114,47.3388,鹤岗市,东山纸板厂,颗粒物(PM10),92,134,42,30,31,76,,86,77,7,10,13,17,0.6,0.7
2026-02-22T1500,2263A,127.4832,50.2524,黑河市,交通局,,32,32,31,22,18,64,,85,66,12,14,7,6,0.5,0.4
2026-02-22T1500,2264A,127.5146,50.2339,黑河市,环保局,,39,38,41,27,27,67,,85,66,9,9,8,9,0.3,0.3
2026-02-22T1500,1074A,115.6839,37.754,衡水市,电机北厂,颗粒物(PM10),85,120,300,26,63,93,,78,78,7,9,11,7,0.3,0.4
2026-02-22T1500,1075A,115.6303,37.7318,衡水市,市监测站,颗粒物(PM10),87,124,275,30,56,90,,76,76,4,5,5,5,0.3,0.3
2026-02-22T1500,3188A,115.6684,37.7216,衡水市,市城管局,颗粒物(PM10),94,137,334,24,54,91,,78,78,3,4,6,5,0.3,0.3
2026-02-22T1500,3459A,115.599,37.5491,衡水市,地表水厂,颗粒物(PM10),156,261,351,66,59,92,,78,78,2,2,5,5,0.3,0.3
2026-02-22T1500,2457A,112.6209,26.9268,衡阳市,衡阳化工总厂,,46,46,75,27,60,94,,48,48,4,24,13,18,0.9,1.5
2026-02-22T1500,2458A,112.621,26.8957,衡阳市,珠晖区环保局,,32,32,87,22,68,85,,38,38,5,33,6,9,0.9,2.3
2026-02-22T1500,2459A,112.628,26.8654,衡阳市,市委党校,,44,44,72,29,58,95,,47,47,5,22,8,11,0.9,1.6
2026-02-22T1500,2460A,112.6007,26.8977,衡阳市,市监测站,细颗粒物(PM2.5),55,44,101,39,77,92,,44,44,13,29,8,10,0.7,2.3
2026-02-22T1500,2461A,112.5658,26.9013,衡阳市,真空机电公司,,35,31,70,24,56,92,,44,44,3,30,8,12,1.0,1.9
2026-02-22T1500,3399A,112.6703,26.8817,衡阳市,师范学院,,50,50,71,22,49,97,,47,47,1,14,6,6,1.0,1.5
2026-02-22T1500,3038A,103.3757,23.3679,红河哈尼族彝族自治州,州图书馆,,30,18,25,16,20,95,,81,81,2,4,5,6,0.2,0.3
2026-02-22T1500,4154A,103.401,23.3561,红河哈尼族彝族自治州,蒙自市朝阳路,,28,11,21,11,19,89,,78,78,3,5,7,8,0.6,0.4
2026-02-22T1500,1090A,111.6506,40.7517,呼和浩特市,呼市一监,,36,36,82,9,21,88,,83,83,5,6,5,6,0.3,0.3
2026-02-22T1500,1094A,111.7516,40.8369,呼和浩特市,如意水处理厂,,28,27,88,3,22,89,,84,84,2,4,8,8,0.2,0.2
2026-02-22T1500,1095A,111.727798,40.806187,呼和浩特市,二十九中,,26,20,102,6,17,83,,76,76,2,2,10,10,0.5,0.5
2026-02-22T1500,1097A,111.717,40.7617,呼和浩特市,化肥厂生活区,,39,39,102,8,24,88,,84,84,1,3,3,4,0.2,0.3
2026-02-22T1500,3699A,111.6519,40.8389,呼和浩特市,海东办,,28,22,66,3,13,87,,82,82,2,3,2,3,0.3,0.3
2026-02-22T1500,4275A,111.591512,40.827312,呼和浩特市,成吉思汗西街8号,,26,24,74,7,15,83,,79,79,1,2,3,4,0.4,0.4
2026-02-22T1500,4276A,111.6597,40.8077,呼和浩特市,公园东路75号,,27,27,76,3,14,83,,78,78,5,6,5,6,0.3,0.4
2026-02-22T1500,4277A,111.5427,40.7846,呼和浩特市,金海路35号,,29,29,110,3,18,87,,82,82,2,3,5,5,0.5,0.5
2026-02-22T1500,3061A,119.7511,49.1576,呼伦贝尔市,国华电力东,颗粒物(PM10),54,58,67,16,13,80,,79,79,10,12,5,5,0.4,0.4
2026-02-22T1500,4279A,119.7569,49.2222,呼伦贝尔市,伊敏大街东7号,,35,35,40,3,13,70,,70,70,6,6,6,6,0.2,0.3
2026-02-22T1500,1250A,120.075,30.867,湖州市,城西水厂,颗粒物(PM10),87,124,45,63,30,127,,86,86,15,26,9,6,0.8,0.4
2026-02-22T1500,2873A,120.083,30.8929,湖州市,仁皇山新区,细颗粒物(PM2.5),93,121,44,69,29,123,,94,94,17,21,8,5,0.9,0.5
2026-02-22T1500,2907A,120.1846,30.8592,湖州市,吴兴区站,细颗粒物(PM2.5),83,90,39,61,30,115,,81,81,11,10,8,6,1.0,0.7
2026-02-22T1500,3562A,120.4146,30.8538,湖州市,南浔区站,细颗粒物(PM2.5),80,106,41,59,29,122,,88,88,11,11,11,8,1.0,0.6
2026-02-22T1500,1607A,120.904878,40.721091,葫芦岛市,龙港区,颗粒物(PM10),53,55,95,11,46,84,,79,79,3,13,5,7,0.3,0.5
2026-02-22T1500,1608A,120.8382,40.7521,葫芦岛市,化工街,,46,46,107,3,43,75,,70,70,7,17,11,23,0.2,0.4
2026-02-22T1500,1609A,120.8339,40.7078,葫芦岛市,新区,,,19,95,3,43,81,,78,78,5,16,6,8,,0.6
2026-02-22T1500,1610A,120.8697,40.7679,葫芦岛市,东城区,颗粒物(PM10),65,80,102,7,46,84,,78,78,5,16,6,9,0.3,0.6
2026-02-22T1500,2483A,109.9297,27.5383,怀化市,河西地税局,,,33,44,25,34,85,,42,42,,11,2,2,/,/
2026-02-22T1500,2484A,109.9783,27.5342,怀化市,市四医院,,50,50,46,18,36,75,,40,40,8,12,8,8,0.5,0.6
2026-02-22T1500,2485A,109.9971,27.5579,怀化市,监测楼,,38,38,47,25,38,78,,43,43,5,12,4,4,0.1,0.2
2026-02-22T1500,1210A,119.0566,33.5991,淮安市,钵池山,颗粒物(PM10),392,493,167,74,41,91,,72,72,8,14,10,13,0.3,0.7
2026-02-22T1500,1211A,119.0083,33.578,淮安市,北京南路,颗粒物(PM10),379,483,177,75,44,82,,67,67,10,17,10,15,0.4,0.9
2026-02-22T1500,1212A,118.9938,33.6083,淮安市,市监测站,颗粒物(PM10),398,498,168,80,43,91,,72,72,8,10,10,11,0.5,0.7
2026-02-22T1500,1213A,119.135,33.5038,淮安市,楚州区监测站,颗粒物(PM10),442,542,186,78,44,93,,74,74,6,15,7,7,0.6,0.6
2026-02-22T1500,3426A,118.8757,33.2897,淮安市,新华书店,颗粒物(PM10),397,497,159,69,43,91,,68,68,10,13,9,7,0.7,0.6
2026-02-22T1500,4092A,119.119691,33.550006,淮安市,枚皋中路89号,颗粒物(PM10),363,470,152,83,46,93,,74,74,8,11,10,11,0.3,0.5
2026-02-22T1500,4206A,119.028838,33.631911,淮安市,承德北路606号,颗粒物(PM10),420,520,187,69,40,95,,75,75,5,11,8,11,0.3,0.8
2026-02-22T1500,2282A,116.8005,33.9749,淮北市,监测站,颗粒物(PM10),500,602,250,114,65,97,,81,81,9,13,5,7,0.3,0.5
2026-02-22T1500,2283A,116.8094,33.9008,淮北市,烈山区政府,颗粒物(PM10),500,633,357,165,77,96,,77,77,4,13,4,6,0.2,0.4
2026-02-22T1500,4017A,116.7926,33.9534,淮北市,市博物馆,颗粒物(PM10),492,592,278,106,65,91,,76,76,6,13,1,4,0.3,0.6
2026-02-22T1500,4100A,116.8322,33.9884,淮北市,杜集区第一实验学校,颗粒物(PM10),500,679,337,138,70,96,,77,77,8,12,8,9,0.3,0.6
2026-02-22T1500,2277A,116.8304,32.7726,淮南市,潘集区政府,颗粒物(PM10),329,443,187,70,43,96,,73,73,4,11,6,15,0.2,0.4
2026-02-22T1500,2279A,116.8569,32.5949,淮南市,谢家集区政府,颗粒物(PM10),265,395,162,58,37,98,,78,78,4,9,8,9,0.4,0.5
2026-02-22T1500,2280A,116.8279,32.6333,淮南市,八公山区政府,颗粒物(PM10),312,429,169,67,39,98,,79,77,6,7,6,7,0.3,0.4
2026-02-22T1500,2894A,117.0561,32.6536,淮南市,经济技术开发区消防队,颗粒物(PM10),477,577,180,65,36,92,,71,71,12,17,5,7,0.4,0.5
2026-02-22T1500,3329A,117.011,32.5891,淮南市,山南新区,颗粒物(PM10),500,661,221,65,38,101,,82,82,7,13,7,8,0.2,0.4
2026-02-22T1500,4209A,117.003137,32.644456,淮南市,国庆中路369号,颗粒物(PM10),272,400,133,70,39,93,,70,70,4,11,7,10,0.4,0.5
2026-02-22T1500,2446A,114.9021,30.474,黄冈市,职工中心,细颗粒物(PM2.5),60,66,43,43,36,119,,75,75,5,9,7,5,0.5,0.6
2026-02-22T1500,2929A,114.8858,30.4519,黄冈市,红卫路,颗粒物(PM10),54,57,41,36,35,119,,81,81,5,11,6,4,0.5,0.6
2026-02-22T1500,3398A,114.9134,30.4446,黄冈市,市林业局,颗粒物(PM10),72,94,50,41,35,105,,,,8,12,4,4,0.5,0.5
2026-02-22T1500,2672A,102.02,35.5101,黄南藏族自治州,同仁县隆务镇,,42,42,55,14,18,82,,73,71,1,2,9,9,0.2,0.2
2026-02-22T1500,2295A,118.2905,29.6965,黄山市,延安路89号,颗粒物(PM10),58,65,28,27,20,99,,57,57,3,6,5,4,0.5,0.5
2026-02-22T1500,2297A,118.1369,30.2755,黄山市,黄山区政府5号楼,颗粒物(PM10),142,233,68,26,38,110,,64,64,3,5,4,3,0.5,0.6
2026-02-22T1500,4210A,118.335445,29.720283,黄山市,滨江东路7-2号,颗粒物(PM10),83,115,43,25,21,104,,61,61,4,8,/,/,/,/
2026-02-22T1500,2423A,115.0547,30.2332,黄石市,沈家营,,50,50,45,16,29,118,,90,90,4,13,50,30,0.9,1.1
2026-02-22T1500,2426A,114.899,30.211,黄石市,铁山,颗粒物(PM10),58,66,46,27,31,114,,76,76,4,19,9,13,1.1,0.7
2026-02-22T1500,2427A,115.0259,30.2108,黄石市,团城山,,43,43,48,23,31,94,,59,59,14,24,6,8,0.8,1.2
2026-02-22T1500,3149A,115.0174,30.1591,黄石市,笔架山北路,颗粒物(PM10),63,75,62,26,38,109,,67,67,5,15,11,14,1.0,1.1
2026-02-22T1500,4185A,115.078022,30.21118,黄石市,磁湖东路29号,颗粒物(PM10),56,61,49,35,39,93,,65,65,15,20,8,8,1.2,1.4
2026-02-22T1500,1392A,114.4181,23.0528,惠州市,河南岸金山湖子站,,30,17,39,15,30,94,,82,82,5,7,6,6,0.6,0.7
2026-02-22T1500,1393A,114.4055,23.0824,惠州市,下埔横江三路子站,,33,17,41,11,29,103,,92,92,4,8,7,7,0.6,0.7
2026-02-22T1500,1395A,114.4645,22.7832,惠州市,惠阳区承修路船湖子站,,31,21,41,15,29,98,,82,82,6,9,6,6,0.5,0.6
2026-02-22T1500,1396A,114.5316,22.7423,惠州市,大亚湾管委会子站,,31,21,39,16,28,99,,79,79,6,10,6,7,0.5,0.6
2026-02-22T1500,3314A,114.4334,22.8134,惠州市,惠阳秋长,,34,19,38,12,27,108,,93,93,4,9,/,/,/,/
2026-02-22T1500,3452A,114.6521,22.7755,惠州市,大亚湾霞涌,,34,34,39,20,26,103,,100,100,34,11,/,/,/,/
2026-02-22T1500,4300A,114.4089,23.1147,惠州市,文华一路1号,,32,16,38,12,29,102,,87,87,5,9,/,/,/,/
2026-02-22T1500,2240A,130.9618,45.2926,鸡西市,环保局,颗粒物(PM10),79,108,76,9,44,70,,65,60,6,17,6,10,0.4,0.6
2026-02-22T1500,2243A,130.9294,45.2959,鸡西市,第一中学,颗粒物(PM10),76,101,64,14,39,68,,73,69,5,13,5,8,0.3,0.5
2026-02-22T1500,3707A,131.0069,45.2988,鸡西市,欧美日汽修厂,颗粒物(PM10),81,112,72,11,41,66,,61,56,8,16,7,11,0.4,0.6
2026-02-22T1500,2367A,114.9753,27.0803,吉安市,红声器材厂,,39,32,62,27,44,84,,42,42,4,21,9,8,0.6,0.8
2026-02-22T1500,2369A,114.9903,27.1313,吉安市,市环境监测站,,35,31,46,24,34,86,,47,47,6,16,10,8,/,/
2026-02-22T1500,2370A,115.009527,27.096792,吉安市,青原区法院,,35,35,52,19,37,90,,46,46,8,23,7,8,0.5,0.8
2026-02-22T1500,1772A,126.54,43.8622,吉林市,哈达湾,颗粒物(PM10),146,241,140,19,32,70,,74,72,5,7,6,10,0.4,0.7
2026-02-22T1500,1773A,126.5843,43.8358,吉林市,东局子,颗粒物(PM10),147,244,131,20,34,72,,72,72,5,7,3,6,0.4,0.5
2026-02-22T1500,1774A,126.5051,43.8243,吉林市,电力学院,颗粒物(PM10),155,259,137,20,33,74,,74,74,5,7,4,7,0.4,0.5
2026-02-22T1500,1775A,126.6133,43.8971,吉林市,江北,颗粒物(PM10),138,226,135,15,34,71,,72,72,5,7,6,9,0.2,0.3
2026-02-22T1500,1776A,126.5549,43.8304,吉林市,江南公园,颗粒物(PM10),145,239,128,19,34,67,,68,68,4,5,6,8,0.5,0.5
2026-02-22T1500,2868A,126.4737,43.953,吉林市,九站,,,,153,19,32,70,,70,70,5,7,8,10,0.4,0.5
2026-02-22T1500,1299A,116.9866,36.6118,济南市,科干所,颗粒物(PM10),113,175,197,42,38,87,,76,76,4,8,4,7,0.4,0.5
2026-02-22T1500,1300A,116.9379,36.6652,济南市,农科所,颗粒物(PM10),118,186,218,48,43,88,,78,78,5,9,4,6,0.5,0.6
2026-02-22T1500,1301A,117.1265,36.6736,济南市,开发区,颗粒物(PM10),102,154,201,29,31,93,,84,84,8,11,4,4,0.3,0.4
2026-02-22T1500,1303A,117.0616,36.6865,济南市,省种子仓库,颗粒物(PM10),93,136,224,28,34,90,,80,80,6,10,4,5,0.5,0.6
2026-02-22T1500,1304A,116.9495185,36.644937,济南市,机床二厂,颗粒物(PM10),117,183,233,37,34,91,,80,80,3,7,3,6,0.4,0.5
2026-02-22T1500,1305A,117.0496,36.6629,济南市,市监测站,颗粒物(PM10),103,156,226,37,42,92,,82,82,8,11,3,4,0.3,0.3
2026-02-22T1500,1306A,116.7674,36.5458,济南市,长清党校,颗粒物(PM10),122,193,247,38,37,81,,73,73,5,10,3,5,0.5,0.6
2026-02-22T1500,1961A,117.5323,36.6865,济南市,东山小学,颗粒物(PM10),73,95,209,18,27,87,,80,80,6,10,3,4,0.3,0.3
2026-02-22T1500,3059A,117.7181,36.205,济南市,泰兴公司,颗粒物(PM10),91,132,212,25,49,93,,86,86,4,17,9,11,0.6,0.6
2026-02-22T1500,3064A,117.6861,36.2172,济南市,莱芜战役纪念馆,颗粒物(PM10),84,117,188,19,36,85,,79,79,5,11,5,8,0.4,0.5
2026-02-22T1500,3494A,117.1673,36.9782,济南市,济阳区政府,颗粒物(PM10),94,137,216,28,32,79,,71,71,3,7,4,8,0.1,0.2
2026-02-22T1500,3495A,117.1168,36.6299,济南市,锦屏中学,颗粒物(PM10),102,154,225,41,37,90,,81,81,9,10,5,6,0.4,0.5
2026-02-22T1500,4108A,117.7107,36.2385,济南市,山财大街5号,颗粒物(PM10),87,124,200,22,39,86,,80,80,6,12,10,12,0.5,0.7
2026-02-22T1500,4109A,116.9744,36.6889,济南市,无影山路12号,颗粒物(PM10),107,163,208,37,34,87,,77,77,6,10,3,5,0.4,0.5
2026-02-22T1500,1653A,116.6229,35.4288,济宁市,火炬城,颗粒物(PM10),175,299,250,84,56,83,,76,76,5,8,3,5,0.3,0.5
2026-02-22T1500,3500A,116.5808,35.3703,济宁市,北湖一中,颗粒物(PM10),175,300,241,62,49,86,,77,77,7,8,5,10,0.3,0.5
2026-02-22T1500,3501A,116.8251,35.5592,济宁市,服务中心,颗粒物(PM10),193,336,254,75,59,88,,78,78,7,14,1,5,0,0.2
2026-02-22T1500,3678A,116.5907,35.4054,济宁市,市第七中学,颗粒物(PM10),192,334,278,66,55,91,,80,80,8,11,2,8,0.4,0.5
2026-02-22T1500,4111A,116.6075,35.4566,济宁市,任和路,颗粒物(PM10),189,327,263,71,57,88,,77,77,5,10,4,7,0.5,0.7
2026-02-22T1500,4112A,116.5648,35.3921,济宁市,文体南路1号,颗粒物(PM10),186,321,268,64,58,92,,82,82,1,7,2,6,0.1,0.3
2026-02-22T1500,2255A,130.2749,46.8028,佳木斯市,佳纺,颗粒物(PM10),95,140,62,18,31,70,,60,60,2,18,6,7,0.3,0.6
2026-02-22T1500,2257A,130.3258,46.7975,佳木斯市,环保局,颗粒物(PM10),96,142,54,18,26,73,,58,58,3,18,8,10,0.2,0.5
2026-02-22T1500,4285A,130.363,46.806,佳木斯市,顺和街,颗粒物(PM10),98,146,51,16,29,68,,67,52,8,16,6,9,0.3,0.4
2026-02-22T1500,4286A,130.3952,46.8268,佳木斯市,长安路196号,颗粒物(PM10),110,169,52,20,22,73,,62,57,3,11,3,5,0.3,0.4
2026-02-22T1500,1252A,120.7439,30.778,嘉兴市,清河小学,细颗粒物(PM2.5),94,109,49,70,27,122,,86,86,14,19,9,7,0.8,0.5
2026-02-22T1500,1253A,120.7261,30.7477,嘉兴市,嘉兴学院,颗粒物(PM10),78,106,47,51,26,128,,83,83,14,18,8,6,1.0,0.8
2026-02-22T1500,2872A,120.7845,30.7524,嘉兴市,南湖区残联,细颗粒物(PM2.5),87,96,42,64,28,119,,84,84,15,17,7,5,0.9,0.5
2026-02-22T1500,3407A,120.6915,30.7741,嘉兴市,秀洲住建,颗粒物(PM10),77,104,42,54,24,127,,88,88,16,18,10,8,1.0,0.7
2026-02-22T1500,1945A,98.291,39.7705,嘉峪关市,气象局,颗粒物(PM10),185,320,426,75,81,90,,69,69,7,12,13,11,0.7,0.6
2026-02-22T1500,2884A,98.2672,39.7978,嘉峪关市,酒钢宾馆,颗粒物(PM10),194,337,395,76,78,76,,56,54,17,13,54,23,2.7,1.1
2026-02-22T1500,3248A,98.2644,39.7723,嘉峪关市,雄关区,颗粒物(PM10),150,250,282,77,73,85,,56,56,13,24,15,11,1.1,0.8
2026-02-22T1500,1383A,113.1063,22.6058,江门市,北街,,34,34,33,13,23,106,,83,83,3,6,/,/,/,/
2026-02-22T1500,1384A,113.073,22.5835,江门市,西区,,33,27,35,17,24,105,,85,85,9,10,/,/,/,/
2026-02-22T1500,1385A,113.0218,22.531,江门市,圭峰西,,30,26,32,16,22,93,,78,78,5,7,/,/,/,/
2026-02-22T1500,1386A,113.0826,22.5947,江门市,东湖,,33,25,33,13,24,104,,82,82,6,7,6,7,0.4,0.4
2026-02-22T1500,3311A,113.1077,22.5647,江门市,江海富民,,39,39,49,18,24,102,,87,87,11,13,/,/,0.4,0.4
2026-02-22T1500,3449A,113.0496,22.4669,江门市,新会银湖,,31,25,31,13,22,98,,74,74,7,13,6,6,0.4,0.4
2026-02-22T1500,3335A,113.3137,35.2643,焦作市,马村街道办,颗粒物(PM10),144,238,287,54,54,90,,91,90,6,5,5,5,0.1,0.2
2026-02-22T1500,3336A,113.2464,35.2374,焦作市,焦作技师学院,颗粒物(PM10),185,319,313,67,80,87,,88,88,7,7,4,5,0.0,0.1
2026-02-22T1500,3477A,113.1656,35.2536,焦作市,中站许衡医院,颗粒物(PM10),129,207,286,52,57,101,,100,100,5,6,6,7,0.2,0.3
2026-02-22T1500,3981A,113.2456,35.18,焦作市,原李万街道办,颗粒物(PM10),229,370,325,76,61,93,,94,94,6,4,7,8,0.3,0.3
2026-02-22T1500,4264A,113.234,35.219,焦作市,新安路1731号,颗粒物(PM10),240,378,308,75,60,93,,96,96,7,6,7,7,0.5,0.5
2026-02-22T1500,4295A,113.2722,35.2121,焦作市,人民路3066号,颗粒物(PM10),259,391,322,78,63,112,,,,5,5,5,5,0.5,0.5
2026-02-22T1500,1708A,116.3701,23.5345,揭阳市,新兴,,45,41,71,31,56,105,,82,82,7,14,7,8,0.7,0.8
2026-02-22T1500,1709A,116.3261,23.5442,揭阳市,西马,,47,47,76,32,53,110,,82,82,4,10,7,8,0.7,0.8
2026-02-22T1500,1710A,116.361,23.5627,揭阳市,东兴,颗粒物(PM10),62,73,68,35,50,114,,86,86,8,12,4,4,/,/
2026-02-22T1500,1711A,116.4151,23.5295,揭阳市,渔湖,颗粒物(PM10),61,72,71,27,56,121,,95,95,7,12,4,5,/,/
2026-02-22T1500,3320A,116.4028,23.5699,揭阳市,曲溪,,50,50,68,30,51,129,,97,97,8,13,4,4,0.8,0.9
2026-02-22T1500,1944A,102.1691,38.5166,金昌市,天庆家园,颗粒物(PM10),181,312,482,81,90,101,,89,89,7,7,46,18,0.6,0.6
2026-02-22T1500,4022A,102.1648,38.5369,金昌市,金川区人防中心,颗粒物(PM10),189,328,502,75,94,97,,87,87,4,4,32,19,0.4,0.4
2026-02-22T1500,4239A,102.193042,38.531887,金昌市,长春路96号,颗粒物(PM10),209,356,480,80,93,89,,78,78,7,7,9,20,0.5,0.5
2026-02-22T1500,1262A,119.6478,29.0773,金华市,十五中,,33,24,33,18,24,103,,71,71,2,9,4,4,0.7,0.7
2026-02-22T1500,1263A,119.6859,29.1032,金华市,监测站,,27,24,29,16,19,85,,52,52,5,12,3,3,0.7,0.6
2026-02-22T1500,3659A,119.656,29.1132,金华市,气象局,,29,25,41,15,29,91,,56,56,4,24,3,2,0.8,0.9
2026-02-22T1500,1767A,121.1114,41.0879,锦州市,南山,,29,28,101,6,30,90,,87,87,4,11,5,8,0.4,0.6
2026-02-22T1500,1768A,121.060361,40.842794,锦州市,开发区,,44,44,121,3,34,89,,83,83,4,14,6,11,0.4,0.7
2026-02-22T1500,1769A,121.1836,41.1118,锦州市,百股街道,,36,36,119,3,41,88,,86,85,3,13,4,7,0.3,0.8
2026-02-22T1500,1770A,121.1176,41.1224,锦州市,天安街道,,,39,126,3,35,90,,86,86,,14,6,8,0.3,0.7
2026-02-22T1500,1771A,121.1303,41.1385,锦州市,北湖公园,,30,24,111,3,34,93,,90,90,3,11,4,7,0.4,0.6
2026-02-22T1500,2160A,112.8496,35.5051,晋城市,自来水公司,颗粒物(PM10),119,187,330,35,67,92,,90,90,2,8,3,5,0.4,0.4
2026-02-22T1500,2162A,112.8509,35.4886,晋城市,市环保局,颗粒物(PM10),109,168,297,43,84,99,,96,96,6,12,2,4,0.1,0.2
2026-02-22T1500,3620A,112.8258,35.4804,晋城市,泽州一中,颗粒物(PM10),152,254,348,62,67,99,,95,95,2,4,3,3,0.4,0.4
2026-02-22T1500,4078A,112.8246,35.5152,晋城市,前书院路,颗粒物(PM10),142,233,397,39,69,80,,82,82,2,6,6,6,0.1,0.1
2026-02-22T1500,4079A,112.8864,35.4773,晋城市,祥云街666号,颗粒物(PM10),124,197,361,47,89,98,,94,94,4,6,5,6,0.1,0.2
2026-02-22T1500,2174A,112.6992,37.6984,晋中市,榆次区政府,颗粒物(PM10),92,134,573,30,122,89,,85,84,4,4,6,7,0.2,0.2
2026-02-22T1500,2865A,112.7195,37.683,晋中市,榆次三中,颗粒物(PM10),120,190,688,40,98,91,,88,86,2,2,8,7,0.1,0.1
2026-02-22T1500,4080A,112.7375,37.7215,晋中市,广安街188号,颗粒物(PM10),80,110,533,26,103,95,,90,90,1,2,8,7,0.2,0.1
2026-02-22T1500,4200A,112.7478,37.6954,晋中市,迎宾街26号,颗粒物(PM10),104,158,589,50,125,90,,85,84,3,4,7,7,0.3,0.3
2026-02-22T1500,2439A,112.2012,31.048,荆门市,竹园小学,颗粒物(PM10),92,134,75,40,50,99,,71,71,10,20,26,5,2.2,2.3
2026-02-22T1500,2440A,112.1968,30.9892,荆门市,掇刀,颗粒物(PM10),89,128,78,37,56,104,,82,82,5,20,6,7,0.5,0.9
2026-02-22T1500,3012A,112.1849,31.0361,荆门市,西山林语,颗粒物(PM10),94,138,66,42,42,104,,75,75,8,11,7,5,0.6,0.8
2026-02-22T1500,3547A,112.1631,31.0134,荆门市,龙泉中学南校,,,,,,,,,,,,,,,,
2026-02-22T1500,4124A,112.2213,31.0654,荆门市,新台西路6号,颗粒物(PM10),103,155,84,41,62,101,,68,68,4,17,10,10,0.4,0.7
2026-02-22T1500,1844A,112.2493,30.3198,荆州市,市图书馆,细颗粒物(PM2.5),63,66,50,45,43,109,,70,70,8,19,10,8,0.8,1
2026-02-22T1500,1845A,112.2009,30.3543,荆州市,市委党校,颗粒物(PM10),73,96,61,38,41,100,,60,60,13,24,10,8,0.6,0.8
2026-02-22T1500,3194A,112.2749,30.3124,荆州市,管委会,颗粒物(PM10),61,71,48,37,42,103,,61,61,8,18,11,10,0.8,0.9
2026-02-22T1500,4268A,112.1722,30.3366,荆州市,学苑路85号,细颗粒物(PM2.5),59,65,55,42,45,113,,69,69,8,14,1,2,0.2,0.3
2026-02-22T1500,2343A,117.2114,29.2931,景德镇市,老干部活动中心,颗粒物(PM10),58,66,47,29,34,91,,54,54,3,12,4,5,0.7,0.9
2026-02-22T1500,2344A,117.1893,29.2789,景德镇市,兽医站,颗粒物(PM10),57,64,54,22,38,93,,60,60,6,16,4,4,0.4,0.7
2026-02-22T1500,2346A,117.246,29.2958,景德镇市,陶研所,颗粒物(PM10),53,55,35,26,29,88,,53,53,6,15,4,4,0.6,0.7
2026-02-22T1500,4289A,117.154766,29.256967,景德镇市,青少年活动中心,,40,40,51,23,36,89,,66,66,4,16,4,5,/,/
2026-02-22T1500,1803A,115.9873,29.6816,九江市,十里,颗粒物(PM10),93,136,57,34,40,101,,64,64,6,24,8,8,0.7,1.1
2026-02-22T1500,1804A,115.9583,29.7047,九江市,茅山头,颗粒物(PM10),94,138,63,36,43,112,,70,70,9,34,8,8,0.5,0.8
2026-02-22T1500,1805A,115.9877,29.7295,九江市,西园,颗粒物(PM10),80,110,63,31,41,105,,68,68,15,46,5,7,0.4,0.8
2026-02-22T1500,1808A,115.9112,29.6038,九江市,综合工业园,颗粒物(PM10),112,173,43,27,18,110,,72,72,11,23,8,7,0.5,0.6
2026-02-22T1500,3190A,116.0254,29.6995,九江市,外国语学校,颗粒物(PM10),78,105,46,35,31,98,,66,66,6,22,7,8,0.3,0.5
2026-02-22T1500,4253A,116.010205,29.659402,九江市,莲花大道8号,颗粒物(PM10),102,154,43,39,22,98,,67,67,7,14,1,4,0.3,0.5
2026-02-22T1500,4240A,98.495752,39.733935,酒泉市,玉门东路5号,颗粒物(PM10),186,322,505,79,93,84,,61,61,2,6,12,10,0.3,0.4
2026-02-22T1500,4241A,98.5099,39.7506,酒泉市,北大街108号,颗粒物(PM10),179,307,513,80,107,82,,65,65,2,5,10,10,0.3,0.3
2026-02-22T1500,2698A,76.0071,39.466,喀什地区,巡警大队,,30,22,163,3,26,93,,58,58,3,16,3,4,0.3,0.7
2026-02-22T1500,2699A,75.9756,39.4693,喀什地区,吾办,,30,,153,21,47,96,,58,58,2,21,4,6,0.2,0.7
2026-02-22T1500,4027A,75.9485,39.4688,喀什地区,老干局,,,,128,0,25,,,55,54,2,13,2,4,,0.6
2026-02-22T1500,1824A,114.3389,34.778,开封市,肿瘤医院,颗粒物(PM10),242,379,341,74,56,103,,90,90,12,14,6,7,0.3,0.3
2026-02-22T1500,1826A,114.2884,34.7966,开封市,世纪星幼儿园,颗粒物(PM10),233,373,308,71,52,97,,88,88,14,14,6,7,0.4,0.4
2026-02-22T1500,3147A,114.3434,34.8101,开封市,龙亭公园,颗粒物(PM10),235,374,352,60,44,100,,86,86,14,17,7,8,0.4,0.4
2026-02-22T1500,3210A,114.3645,34.7955,开封市,汴京公园,颗粒物(PM10),286,410,352,53,39,100,,86,86,17,17,4,5,0.0,0.1
2026-02-22T1500,3473A,114.2485,34.8306,开封市,技师学院,颗粒物(PM10),198,346,266,89,59,98,,89,89,14,14,5,7,0.3,0.3
2026-02-22T1500,3592A,114.4518,34.7503,开封市,祥符区生态环境局,颗粒物(PM10),191,332,341,75,56,100,,83,82,9,12,4,6,0.3,0.4
2026-02-22T1500,1951A,84.886,45.6029,克拉玛依市,长征新村,,28,28,19,14,11,71,,70,66,6,4,6,5,0.5,0.4
2026-02-22T1500,1952A,84.8894,45.5827,克拉玛依市,南林小区,,25,19,18,3,1,78,,79,72,2,3,3,2,0.5,0.5
2026-02-22T1500,1954A,84.896,44.3328,克拉玛依市,独山子区,,29,26,67,16,32,91,,67,67,13,11,4,3,0.7,0.7
2026-02-22T1500,1955A,85.6888,46.0909,克拉玛依市,乌尔禾区商贸楼,,27,27,38,3,7,75,,64,64,6,7,7,8,0.2,0.5
2026-02-22T1500,3612A,85.1045,45.6895,克拉玛依市,白碱滩区新站,,,107,27,3,2,74,,76,69,,11,10,9,0.3,0.2
2026-02-22T1500,2697A,76.1457,39.7143,克孜勒苏柯尔克孜自治州,市人民政府,,32,,190,8,31,101,,95,88,2,3,3,4,0.2,0.2
2026-02-22T1500,3665A,76.1654,39.7157,克孜勒苏柯尔克孜自治州,克州文化中心,,,29,144,9,26,97,,92,90,,2,4,5,0.2,0.2
2026-02-22T1500,1450A,102.8203,24.889,昆明市,呈贡新区,,34,24,26,10,16,107,,102,102,2,6,3,6,0.4,0.4
2026-02-22T1500,1452A,102.7253,25.0904,昆明市,龙泉镇,,34,,27,17,18,106,,81,81,2,12,3,5,0.3,0.4
2026-02-22T1500,1453A,102.7267,25.0378,昆明市,东风东路,,35,23,27,13,17,110,,90,90,6,12,6,9,0.4,0.4
2026-02-22T1500,1454A,102.6744,25.0671,昆明市,金鼎山,,34,25,29,9,18,108,,92,92,4,9,3,8,0.5,0.6
2026-02-22T1500,1455A,102.6643,25.0401,昆明市,碧鸡广场,,35,21,28,16,19,110,,96,96,5,12,4,8,0.3,0.4
2026-02-22T1500,3179A,102.7491,25.012,昆明市,官渡区博物馆,,35,27,30,10,18,110,,80,80,6,21,3,4,0.2,0.3
2026-02-22T1500,3375A,102.8016,24.8336,昆明市,青年创业园,,31,15,26,6,15,99,,92,92,1,8,4,5,0.4,0.5
2026-02-22T1500,3550A,102.8,24.9787,昆明市,昆明学院,,36,24,26,9,16,113,,85,85,3,9,4,5,0.3,0.4
2026-02-22T1500,3551A,102.5969,24.6738,昆明市,晋宁区生态环境分局,,31,12,27,3,18,99,,97,97,1,6,3,2,0.2,0.3
2026-02-22T1500,3552A,102.6673,24.9861,昆明市,云天化总部,,35,19,25,6,13,111,,103,103,6,7,10,9,0.3,0.3
2026-02-22T1500,1456A,91.132,29.6515,拉萨市,八廓街,,41,15,15,7,8,130,,102,102,4,10,8,8,0.5,0.5
2026-02-22T1500,1457A,91.1221,29.6748,拉萨市,市环保局,,39,9,20,7,10,122,,94,94,6,15,7,7,0.5,0.7
2026-02-22T1500,1458A,91.0874,29.6476,拉萨市,区监测站,,39,19,12,3,7,124,,97,97,5,14,5,4,0.6,0.6
2026-02-22T1500,1459A,91.1774,29.6541,拉萨市,西藏大学,,40,11,13,6,8,128,,100,100,7,11,4,4,0.4,0.6
2026-02-22T1500,1460A,90.9798,29.6586,拉萨市,区辐射站,,38,16,18,6,11,120,,87,87,4,15,3,4,0.3,0.4
2026-02-22T1500,1461A,91.0831,29.6292,拉萨市,拉萨火车站,,39,10,11,6,8,123,,84,84,4,15,4,4,0.4,0.5
2026-02-22T1500,2520A,109.2203,23.7252,来宾市,来宾技工学校,,48,48,129,27,124,74,,49,49,4,17,8,9,0.5,1.1
2026-02-22T1500,3535A,109.1781,23.7293,来宾市,兴宾区政府,颗粒物(PM10),65,80,122,29,109,84,,58,58,5,15,15,8,0.7,1.1
2026-02-22T1500,4002A,109.2312,23.7428,来宾市,中南小学,,47,47,131,28,127,68,,46,46,5,19,5,6,0.6,1.2
2026-02-22T1500,1479A,103.8309,36.0467,兰州市,铁路设计院,,,,,,,,,,,,,,,,
2026-02-22T1500,3241A,103.7439,36.0841,兰州市,百合公园,颗粒物(PM10),428,528,513,174,160,87,,47,47,14,17,18,9,0.6,0.6
2026-02-22T1500,3242A,103.9613,35.9985,兰州市,和平,颗粒物(PM10),494,594,545,142,135,86,,62,62,7,10,14,11,0.8,0.6
2026-02-22T1500,4236A,103.629272,36.093822,兰州市,庄浪东路808号,颗粒物(PM10),445,545,525,176,157,112,,67,67,24,15,31,17,0.7,0.5
2026-02-22T1500,4237A,103.7251,36.104344,兰州市,安宁西路88号,颗粒物(PM10),500,600,616,174,166,98,,58,56,11,12,21,11,0.5,0.4
2026-02-22T1500,4238A,103.846982,36.067567,兰州市,北滨河东路1号,颗粒物(PM10),429,529,568,178,169,71,,58,40,26,21,14,13,0.9,0.8
2026-02-22T1500,1067A,116.6712,39.5109,廊坊市,药材公司,颗粒物(PM10),67,84,192,14,38,89,,80,80,1,5,3,3,0.3,0.3
2026-02-22T1500,1068A,116.7215,39.5592,廊坊市,开发区,颗粒物(PM10),86,121,200,14,40,93,,84,84,2,4,3,3,0.2,0.3
2026-02-22T1500,1070A,116.7246,39.5273,廊坊市,北华航天学院,颗粒物(PM10),67,84,182,11,30,90,,80,80,2,4,3,4,0.2,0.3
2026-02-22T1500,2919A,116.7022,39.5454,廊坊市,河北工业大学,颗粒物(PM10),69,88,185,16,39,88,,78,78,2,3,3,3,0.2,0.3
2026-02-22T1500,2536A,103.7629,29.5844,乐山市,牛耳桥,细颗粒物(PM2.5),74,65,82,54,61,120,,47,47,14,32,8,6,0.8,0.9
2026-02-22T1500,2537A,103.7501,29.6002,乐山市,市第三水厂,,,73,75,,61,120,,52,52,13,31,8,5,0.9,1
2026-02-22T1500,2538A,103.7571,29.5664,乐山市,市监测站,细颗粒物(PM2.5),77,76,71,56,56,112,,49,49,12,20,10,8,0.9,0.8
2026-02-22T1500,3361A,103.7313,29.563,乐山市,理工大学,细颗粒物(PM2.5),77,74,65,56,54,122,,58,58,8,14,8,5,0.9,0.9
2026-02-22T1500,2599A,100.2497,26.8802,丽江市,丽江古城,,39,32,45,19,37,124,,104,104,9,12,9,7,0.5,0.7
2026-02-22T1500,2600A,100.2203,26.8906,丽江市,市中心,,41,28,39,22,38,129,,106,106,8,11,6,6,0.4,0.5
2026-02-22T1500,1267A,119.9141,28.4513,丽水市,监测站大楼,,27,16,31,14,23,85,,53,53,6,15,4,4,0.5,0.5
2026-02-22T1500,1268A,119.93,28.4589,丽水市,莲都小学,,28,20,30,13,20,88,,54,54,4,12,/,/,/,/
2026-02-22T1500,1269A,119.8794,28.4232,丽水市,余庄前,,27,18,25,12,18,85,,49,49,4,6,4,4,0.5,0.5
2026-02-22T1500,1173A,119.1759,34.5885,连云港市,市环境监测站,颗粒物(PM10),161,271,203,53,48,86,,72,72,8,16,7,8,0.5,0.5
2026-02-22T1500,3000A,119.3577,34.6971,连云港市,德源药业,颗粒物(PM10),139,227,195,39,38,88,,79,79,4,8,6,7,0.5,0.7
2026-02-22T1500,3007A,119.178,34.8442,连云港市,新城一中,颗粒物(PM10),106,161,120,25,52,90,,83,83,12,18,8,10,0.5,0.7
2026-02-22T1500,3008A,119.3607,34.7519,连云港市,胡沟管理处,颗粒物(PM10),79,107,153,14,33,82,,77,77,16,14,12,13,0.7,0.9
2026-02-22T1500,3009A,119.1478,34.5913,连云港市,矿山设计院,颗粒物(PM10),175,300,204,41,40,86,,71,71,15,20,7,8,0.4,0.5
2026-02-22T1500,3434A,119.2414,34.6539,连云港市,工贸学校,颗粒物(PM10),179,307,168,55,46,87,,72,72,7,16,10,11,0.2,0.5
2026-02-22T1500,3664A,119.4171,34.734,连云港市,连云街道,颗粒物(PM10),69,87,102,20,35,80,,82,74,15,13,6,7,0.5,0.6
2026-02-22T1500,2573A,102.2629,27.8981,凉山彝族自治州,西昌市政府,,49,,27,34,28,116,,74,74,7,8,17,9,0.6,0.5
2026-02-22T1500,2574A,102.2686,27.885,凉山彝族自治州,凉山州政府,,39,33,31,27,24,103,,65,65,7,11,19,11,0.6,0.5
2026-02-22T1500,4229A,102.2342,27.8859,凉山彝族自治州,凯乐南路30号,,35,35,34,24,22,107,,62,62,13,19,20,12,0.7,0.5
2026-02-22T1500,2212A,123.1978,41.2036,辽阳市,宏伟区,颗粒物(PM10),121,191,148,6,24,82,,79,79,2,6,5,7,0.3,0.5
2026-02-22T1500,2213A,123.1684,41.2497,辽阳市,新华园,颗粒物(PM10),141,232,153,8,25,78,,75,75,3,8,5,7,0.5,0.6
2026-02-22T1500,2214A,123.2355,41.2663,辽阳市,滨河路,颗粒物(PM10),115,180,140,7,22,78,,77,77,2,4,4,6,0.4,0.6
2026-02-22T1500,4083A,123.153,41.2874,辽阳市,铁西路150号,颗粒物(PM10),130,209,165,9,24,74,,70,70,4,7,5,7,0.4,0.7
2026-02-22T1500,2227A,125.1359,42.8845,辽源市,环保局,颗粒物(PM10),123,196,105,14,22,77,,74,74,2,5,3,5,0.3,0.4
2026-02-22T1500,4085A,125.0998,42.9134,辽源市,安宁大街333号,颗粒物(PM10),500,782,218,20,27,76,,76,76,2,5,2,6,0.4,0.5
2026-02-22T1500,1625A,115.9789,36.4372,聊城市,区政府,颗粒物(PM10),324,439,336,88,45,94,,81,81,2,7,11,14,0.4,0.6
2026-02-22T1500,3200A,115.9772,36.4986,聊城市,监控中心,颗粒物(PM10),379,483,355,101,53,96,,80,80,7,11,8,11,0.4,0.5
2026-02-22T1500,3513A,116.0443,36.436,聊城市,九州社区,颗粒物(PM10),305,424,344,95,50,100,,86,86,2,4,3,3,0.4,0.5
2026-02-22T1500,4018A,116.0564,36.4609,聊城市,星美广场,颗粒物(PM10),283,408,338,98,56,84,,70,70,2,6,1,5,0.4,0.5
2026-02-22T1500,4113A,116.0091,36.4495,聊城市,利民路,颗粒物(PM10),256,389,308,96,53,96,,81,81,5,8,6,9,0.5,0.6
2026-02-22T1500,2632A,94.3683,29.6373,林芝市,林芝监测站,,35,18,11,3,9,112,,97,97,2,1,5,5,0.4,0.3
2026-02-22T1500,2633A,94.3616,29.6634,林芝市,林芝人民医院,,36,,13,13,10,113,,90,90,1,1,6,6,0.3,0.2
2026-02-22T1500,2603A,100.0779,23.8981,临沧市,市环保局,,35,35,31,18,26,103,,76,76,1,6,7,7,0.5,0.7
2026-02-22T1500,2604A,100.0894,23.882,临沧市,市气象局,,31,29,36,16,24,99,,75,75,3,5,9,8,0.3,0.5
2026-02-22T1500,1733A,111.5552,36.0791,临汾市,临钢医院,颗粒物(PM10),219,363,537,110,110,99,,93,93,7,9,3,4,0.5,0.5
2026-02-22T1500,1734A,111.4984,36.0734,临汾市,技工学校,颗粒物(PM10),232,372,526,99,122,94,,90,90,6,7,3,3,0.0,0
2026-02-22T1500,1736A,111.5017,36.0857,临汾市,市委,颗粒物(PM10),226,368,514,91,99,96,,92,92,8,7,3,3,0.4,0.4
2026-02-22T1500,3018A,111.5048,36.1015,临汾市,唐尧大酒店,颗粒物(PM10),198,346,479,94,107,94,,91,91,11,8,4,4,0.4,0.4
2026-02-22T1500,4244A,111.4879,36.053,临汾市,启星学校,颗粒物(PM10),225,367,486,83,98,94,,90,90,8,9,4,4,0.4,0.4
2026-02-22T1500,4271A,103.2464,35.6123,临夏回族自治州,滨河东路1号,颗粒物(PM10),459,559,431,167,143,86,,48,48,5,11,11,11,0.5,0.8
2026-02-22T1500,4310A,103.207136,35.599807,临夏回族自治州,新华街21号,颗粒物(PM10),450,550,457,116,99,65,,43,43,4,8,10,12,0.4,0.7
2026-02-22T1500,1618A,118.3429,35.0532,临沂市,沂河小区,颗粒物(PM10),200,349,266,70,58,89,,76,76,6,13,10,14,0.3,0.4
2026-02-22T1500,1619A,118.2962,35.0568,临沂市,鲁南制药厂,颗粒物(PM10),255,388,298,85,71,91,,80,80,7,18,9,17,0.2,0.4
2026-02-22T1500,1620A,118.2793,34.9976,临沂市,新光毛纺厂,颗粒物(PM10),198,346,262,71,59,91,,77,77,8,16,8,13,0.4,0.7
2026-02-22T1500,1621A,118.3955,35.0889,临沂市,河东保险公司,颗粒物(PM10),189,327,239,70,58,96,,81,81,12,19,9,12,0.4,0.6
2026-02-22T1500,3370A,118.3563,35.0215,临沂市,十里堡居委,颗粒物(PM10),250,385,272,79,61,94,,80,80,8,19,9,15,0.4,0.7
2026-02-22T1500,3496A,118.359,35.1067,临沂市,南坊新区,颗粒物(PM10),206,354,270,68,54,100,,86,86,7,14,9,11,0.5,0.6
2026-02-22T1500,3860A,118.3915,35.0297,临沂市,皇山花园小区,颗粒物(PM10),226,368,288,75,62,96,,83,83,9,17,12,18,0.3,0.6
2026-02-22T1500,1870A,109.4854,24.3898,柳州市,柳东小学,细颗粒物(PM2.5),92,98,142,68,136,52,,32,32,9,18,5,7,0.9,1.2
2026-02-22T1500,1871A,109.4109,24.3304,柳州市,环保监测站,细颗粒物(PM2.5),104,121,178,78,159,55,,25,25,16,36,5,7,1.2,1.7
2026-02-22T1500,1872A,109.3886,24.3408,柳州市,河西水厂,细颗粒物(PM2.5),120,104,198,91,197,62,,27,27,11,29,9,10,0.9,1.4
2026-02-22T1500,1873A,109.4263,24.2951,柳州市,市四中,细颗粒物(PM2.5),158,143,191,120,181,54,,25,25,18,35,8,9,1.6,1.9
2026-02-22T1500,1874A,109.396,24.3658,柳州市,市九中,细颗粒物(PM2.5),98,81,191,73,169,55,,24,24,8,28,8,10,0.9,1.3
2026-02-22T1500,1875A,109.4912,24.3164,柳州市,古亭山,细颗粒物(PM2.5),130,129,120,99,126,53,,22,22,17,21,7,7,1.1,1.2
2026-02-22T1500,3402A,109.5422,24.3994,柳州市,市二中,细颗粒物(PM2.5),79,88,166,58,164,55,,23,23,12,24,7,7,0.8,1.1
2026-02-22T1500,2307A,116.5078,31.7369,六安市,监测大楼,颗粒物(PM10),171,292,90,52,34,93,,78,78,3,10,4,4,0.4,0.5
2026-02-22T1500,2308A,116.4738,31.7642,六安市,皖西学院,颗粒物(PM10),190,329,100,49,36,105,,84,84,4,11,5,5,0.3,0.4
2026-02-22T1500,2309A,116.4997,31.7904,六安市,朝阳厂,颗粒物(PM10),144,237,81,56,37,102,,82,82,8,14,6,6,0.3,0.5
2026-02-22T1500,2310A,116.5566,31.7885,六安市,开发区,颗粒物(PM10),283,408,123,51,37,,,80,80,2,9,6,6,0.3,0.6
2026-02-22T1500,2577A,104.8293,26.592,六盘水市,黄土坡,细颗粒物(PM2.5),79,79,43,58,33,52,,54,54,24,14,13,12,1.6,0.8
2026-02-22T1500,2579A,104.8481,26.5898,六盘水市,民中,细颗粒物(PM2.5),78,72,56,57,45,51,,53,53,20,16,10,9,1.3,0.8
2026-02-22T1500,2580A,104.9541,26.5506,六盘水市,双水,细颗粒物(PM2.5),69,61,47,50,31,64,,52,52,10,9,6,6,0.6,0.6
2026-02-22T1500,4151A,104.8899,26.5685,六盘水市,钟山大道中段564号,细颗粒物(PM2.5),77,94,57,56,34,58,,52,52,10,10,7,9,0.8,0.7
2026-02-22T1500,2336A,117.022,25.1031,龙岩市,龙岩市监测站,,32,26,38,22,30,99,,73,73,2,8,7,8,0.7,0.7
2026-02-22T1500,2337A,117.0257,25.0662,龙岩市,闽西职业技术学院,,31,28,36,19,27,97,,74,74,2,5,5,6,0.5,0.6
2026-02-22T1500,2338A,117.0195,25.0306,龙岩市,龙岩学院,,37,37,35,19,27,100,,81,81,4,6,5,5,/,/
2026-02-22T1500,2885A,104.9344,33.3827,陇南市,滨江中学,颗粒物(PM10),70,90,115,42,48,96,,54,54,4,23,5,8,0.7,1.2
2026-02-22T1500,3247A,104.9551,33.3709,陇南市,市总工会,颗粒物(PM10),64,78,101,39,44,95,,57,57,5,15,4,4,0.7,0.8
2026-02-22T1500,2488A,111.9984,27.7346,娄底市,市监测站,,38,34,63,26,47,94,,48,48,8,25,4,8,0.5,1
2026-02-22T1500,2491A,111.9888,27.7035,娄底市,市政府,,34,34,57,22,42,86,,41,41,13,18,3,6,0.2,0.7
2026-02-22T1500,4127A,111.9812,27.7591,娄底市,涟钢职大,,33,23,55,7,38,105,,51,51,6,17,4,7,0.8,1.1
2026-02-22T1500,4128A,112.0303,27.7457,娄底市,娄底体校,,36,34,56,25,41,84,,38,38,1,10,6,6,0.7,0.9
2026-02-22T1500,1894A,105.4427,28.9063,泸州市,小市上码头,细颗粒物(PM2.5),108,104,87,81,67,43,,30,30,26,28,21,7,0.7,0.7
2026-02-22T1500,1895A,105.4241,28.8573,泸州市,兰田宪桥,细颗粒物(PM2.5),99,112,99,74,71,26,,26,24,30,21,13,11,0.9,0.8
2026-02-22T1500,1896A,105.4378,28.8833,泸州市,市环监站,,,,96,,67,29,,42,,27,24,,11,0.8,0.7
2026-02-22T1500,4272A,105.3689,28.7783,泸州市,纳溪中医医院,细颗粒物(PM2.5),114,95,93,86,73,33,,22,22,17,18,7,7,1.0,0.9
2026-02-22T1500,2183A,111.1447,37.5212,吕梁市,环保局,颗粒物(PM10),128,205,700,40,166,86,,70,70,2,4,1,2,0.1,0.1
2026-02-22T1500,2185A,111.1285,37.5338,吕梁市,自来水公司,颗粒物(PM10),132,214,703,44,128,95,,80,79,2,3,3,3,0.1,0.2
2026-02-22T1500,2867A,111.1225,37.5093,吕梁市,马茂庄小学,颗粒物(PM10),140,230,772,54,165,87,,69,68,2,5,1,3,0.1,0.1
2026-02-22T1500,1812A,112.3934,34.6517,洛阳市,市委党校,颗粒物(PM10),220,364,277,95,84,92,,76,76,8,20,8,10,0.5,0.6
2026-02-22T1500,1815A,112.494,34.6883,洛阳市,河南林校,颗粒物(PM10),232,372,316,76,72,97,,90,90,12,18,10,11,0.3,0.4
2026-02-22T1500,1816A,112.3843,34.623,洛阳市,开发区管委会,颗粒物(PM10),285,409,305,98,75,92,,81,81,10,14,10,12,0.4,0.5
2026-02-22T1500,1817A,112.4263,34.6249,洛阳市,市委新办公区,颗粒物(PM10),235,374,280,99,70,96,,82,82,7,13,8,10,0.3,0.4
2026-02-22T1500,3340A,112.6005,34.6323,洛阳市,伊滨,颗粒物(PM10),262,393,323,89,79,94,,87,87,8,11,8,9,0.5,0.6
2026-02-22T1500,3341A,112.495,34.6338,洛阳市,中移产业园,颗粒物(PM10),199,348,319,88,80,93,,85,85,9,15,8,10,0.5,0.6
2026-02-22T1500,3593A,112.5736,34.8993,洛阳市,吉利监测站,颗粒物(PM10),280,406,323,91,75,95,,89,89,7,11,8,9,0.6,0.6
2026-02-22T1500,3635A,112.3678,34.6623,洛阳市,河科大西苑校区,颗粒物(PM10),289,412,314,118,94,99,,83,83,8,18,10,11,0.5,0.6
2026-02-22T1500,3636A,112.4387,34.678,洛阳市,英才小学,颗粒物(PM10),272,400,340,96,88,99,,90,90,13,23,10,12,0.5,0.7
2026-02-22T1500,4214A,112.460027,34.694929,洛阳市,春都路1号院,颗粒物(PM10),315,432,364,97,84,92,,86,86,15,21,8,10,0.5,0.6
2026-02-22T1500,2399A,114.051,33.5721,漯河市,三五一五工厂,颗粒物(PM10),187,323,204,54,54,98,,85,85,9,13,4,6,0.3,0.6
2026-02-22T1500,2400A,114.0055,33.5698,漯河市,漯河大学,颗粒物(PM10),170,290,186,46,52,95,,83,83,9,14,6,7,0.3,0.5
2026-02-22T1500,2401A,114.0134,33.5826,漯河市,市水利局,颗粒物(PM10),192,334,214,65,56,97,,85,85,13,14,5,7,0.2,0.5
2026-02-22T1500,2402A,114.0261,33.5697,漯河市,市广电局,颗粒物(PM10),195,339,218,66,56,90,,77,77,9,11,6,7,0.3,0.5
2026-02-22T1500,3478A,113.9691,33.568,漯河市,市图书馆,颗粒物(PM10),190,330,196,56,55,92,,79,79,9,11,6,7,0.4,0.5
2026-02-22T1500,4250A,114.089259,33.588274,漯河市,韶山路11号,颗粒物(PM10),195,340,203,57,55,96,,81,81,12,15,5,8,0.3,0.5
2026-02-22T1500,1798A,118.5084,31.6838,马鞍山市,湖东路四小,颗粒物(PM10),140,229,72,48,30,118,,80,80,9,17,9,10,0.4,0.7
2026-02-22T1500,1799A,118.5019,31.6449,马鞍山市,开发区,颗粒物(PM10),139,227,73,51,33,120,,80,80,15,22,11,9,0.6,0.6
2026-02-22T1500,3633A,118.4914,31.681,马鞍山市,雨山,颗粒物(PM10),144,238,79,51,33,119,,79,79,10,20,8,10,0.7,0.8
2026-02-22T1500,4191A,118.527362,31.722269,马鞍山市,慈湖高新区,颗粒物(PM10),132,213,71,59,34,121,,81,81,9,21,8,14,0.3,0.8
2026-02-22T1500,1686A,111.0285,21.469,茂名市,电白南海,,34,34,34,13,17,74,,64,64,6,9,5,5,0.7,0.7
2026-02-22T1500,1687A,110.9294,21.6533,茂名市,茂石化七小,,39,39,35,14,21,70,,63,63,9,12,5,6,0.5,0.6
2026-02-22T1500,1688A,110.9108,21.6688,茂名市,健康路,,29,29,29,14,20,80,,73,73,8,9,4,4,0.6,0.7
2026-02-22T1500,1689A,110.8592,21.6826,茂名市,高岭,,41,41,38,15,18,78,,71,71,9,11,2,5,/,/
2026-02-22T1500,3450A,111.0101,21.5165,茂名市,电白水东,,27,27,28,13,18,81,,66,66,13,14,3,4,/,/
2026-02-22T1500,2540A,103.8414,30.0871,眉山市,气象局,细颗粒物(PM2.5),64,74,68,46,59,135,,59,59,9,19,7,6,0.5,0.6
2026-02-22T1500,3148A,103.829,30.0563,眉山市,区人社局,细颗粒物(PM2.5),65,60,77,47,58,123,,46,46,14,33,10,9,0.8,0.9
2026-02-22T1500,4148A,103.8836,30.0695,眉山市,眉职院,细颗粒物(PM2.5),67,70,82,48,54,126,,64,64,10,19,8,7,0.6,0.7
2026-02-22T1500,1690A,116.1248,24.3307,梅州市,梅江月梅,,33,33,43,18,38,98,,80,80,8,12,/,/,/,/
2026-02-22T1500,1691A,116.0798,24.2719,梅州市,梅县新城,,41,41,52,23,41,105,,78,78,9,14,8,8,0.6,0.7
2026-02-22T1500,3315A,116.1234,24.2994,梅州市,梅龙,,32,27,44,22,37,95,,81,81,6,10,8,8,0.7,0.8
2026-02-22T1500,1878A,104.7775,31.4741,绵阳市,富乐山,颗粒物(PM10),52,53,62,32,48,97,,46,43,8,15,9,9,0.6,0.7
2026-02-22T1500,1880A,104.6698,31.4668,绵阳市,高新区自来水公司,,50,50,68,33,50,83,,40,40,14,26,8,8,0.8,0.9
2026-02-22T1500,3491A,104.6899,31.5324,绵阳市,西科大附属小学,,50,48,65,35,50,82,,51,45,13,20,8,8,0.5,0.6
2026-02-22T1500,3492A,104.5647,31.5343,绵阳市,安州区旅游局,,43,41,65,30,50,90,,40,40,13,30,9,7,0.6,0.8
2026-02-22T1500,4146A,104.7092,31.4972,绵阳市,科技城新区公安局,,49,43,64,34,45,82,,67,54,16,19,6,6,0.7,0.8
2026-02-22T1500,4226A,104.765114,31.453094,绵阳市,绵阳市气象局,细颗粒物(PM2.5),55,56,71,39,53,69,,35,33,19,27,9,9,0.8,0.9
2026-02-22T1500,1784A,129.61,44.561,牡丹江市,环保大楼,颗粒物(PM10),65,80,81,8,39,78,,84,74,4,12,2,11,0.2,0.4
2026-02-22T1500,1787A,129.6364,44.6075,牡丹江市,机车工厂,颗粒物(PM10),72,93,99,12,67,73,,66,66,7,32,6,12,0.3,0.8
2026-02-22T1500,1788A,129.6386,44.5462,牡丹江市,第一中学,颗粒物(PM10),66,82,99,15,48,76,,79,72,4,17,5,18,0.4,0.6
2026-02-22T1500,4287A,129.5992,44.5964,牡丹江市,东晓云街98号,颗粒物(PM10),60,70,90,12,54,74,,68,68,6,22,6,16,0.4,0.7
2026-02-22T1500,2531A,105.0703,29.61,内江市,市监测站,细颗粒物(PM2.5),77,56,78,56,72,126,,73,73,16,26,8,8,0.6,0.8
2026-02-22T1500,2533A,105.0657,29.5807,内江市,内江二中,细颗粒物(PM2.5),75,74,85,55,71,117,,55,55,17,41,8,8,0.6,0.8
2026-02-22T1500,2534A,105.0407,29.5828,内江市,内江日报社,细颗粒物(PM2.5),72,,69,52,72,134,,69,69,13,42,10,10,0.5,0.7
2026-02-22T1500,4147A,105.0433,29.6105,内江市,玉峰路西段888号,细颗粒物(PM2.5),72,55,69,52,68,138,,75,75,17,33,10,9,0.6,0.8
2026-02-22T1500,2628A,92.0653,31.4846,那曲市,那曲监测站,,35,24,30,19,25,111,,70,70,6,15,9,10,0.4,0.7
2026-02-22T1500,4243A,92.0515,31.4787,那曲市,那曲市委宣传部,,37,21,19,8,17,116,,73,73,1,9,3,5,0.3,0.7
2026-02-22T1500,1291A,115.8887,28.7006,南昌市,省林业公司,颗粒物(PM10),53,56,42,33,37,93,,49,49,2,25,4,4,0.6,0.9
2026-02-22T1500,1292A,115.813,28.7443,南昌市,林科所,颗粒物(PM10),62,73,25,23,25,98,,58,58,2,14,8,8,0.7,0.9
2026-02-22T1500,1294A,115.8518,28.687,南昌市,建工学校,,39,38,55,27,36,90,,47,47,6,24,7,7,0.4,0.6
2026-02-22T1500,1295A,115.8926,28.6425,南昌市,象湖,,39,30,52,27,48,93,,51,51,9,28,8,8,0.9,1.2
2026-02-22T1500,3046A,115.9084,28.6062,南昌市,机电学校,,45,45,63,24,44,97,,58,58,1,21,6,6,0.6,0.8
2026-02-22T1500,3690A,115.9718,28.7032,南昌市,外国语学校,颗粒物(PM10),55,60,51,27,44,95,,55,55,5,23,8,8,0.7,0.9
2026-02-22T1500,4106A,115.7923,28.6873,南昌市,工业二路,颗粒物(PM10),61,71,59,23,41,99,,51,51,10,28,5,4,0.7,1
2026-02-22T1500,4192A,115.931587,28.686774,南昌市,南京东路235号,,39,39,63,26,44,97,,53,53,6,31,6,6,0.3,0.6
2026-02-22T1500,1906A,106.0791,30.8022,南充市,南充市委,细颗粒物(PM2.5),79,79,71,58,55,82,,44,44,16,29,8,7,0.7,0.8
2026-02-22T1500,1907A,106.1038,30.8215,南充市,南充炼油厂,细颗粒物(PM2.5),80,67,78,59,61,86,,48,48,14,36,7,6,0.7,0.8
2026-02-22T1500,4227A,106.108336,30.788436,南充市,梨树横街98号,,,74,83,59,71,94,,52,52,,37,8,6,0.5,0.8
2026-02-22T1500,4304A,106.1172,30.843,南充市,清泉寺北路188号,细颗粒物(PM2.5),77,67,63,56,55,97,,61,61,7,13,7,6,0.5,0.5
2026-02-22T1500,4305A,106.067,30.7616,南充市,同庆路1号,细颗粒物(PM2.5),84,78,79,62,60,90,,46,46,18,48,8,6,0.8,1
2026-02-22T1500,1151A,118.8033,32.1085,南京市,迈皋桥,颗粒物(PM10),171,291,79,66,32,115,,92,92,3,15,9,12,0.0,0.4
2026-02-22T1500,1152A,118.7487,32.057,南京市,草场门,颗粒物(PM10),255,388,98,61,31,73,,58,58,15,23,9,12,0.8,1.1
2026-02-22T1500,1154A,118.770105,32.004342,南京市,中华门,颗粒物(PM10),216,361,87,53,30,109,,82,82,8,15,4,6,0.4,0.7
2026-02-22T1500,1155A,118.8059,32.0329,南京市,瑞金路,颗粒物(PM10),190,329,85,51,34,65,,65,65,22,29,4,5,0.1,4.2
2026-02-22T1500,1156A,118.7946,32.0774,南京市,玄武湖,颗粒物(PM10),165,280,74,61,29,106,,80,80,20,27,8,12,0.5,0.9
2026-02-22T1500,1157A,118.6415,32.0964,南京市,浦口,颗粒物(PM10),213,359,88,57,31,102,,82,82,12,14,6,6,0.4,0.4
2026-02-22T1500,1158A,118.730129,32.000956,南京市,奥体中心,颗粒物(PM10),249,384,91,47,28,98,,74,74,13,22,10,12,0.3,0.6
2026-02-22T1500,1159A,118.9072,32.1047,南京市,仙林大学城,颗粒物(PM10),420,520,109,66,34,100,,80,80,11,18,6,8,0.5,0.8
2026-02-22T1500,3422A,118.8443,31.919,南京市,江宁彩虹桥,颗粒物(PM10),177,304,75,48,30,119,,91,91,3,10,4,4,0.4,0.8
2026-02-22T1500,3427A,118.8497,32.3599,南京市,六合雄州,颗粒物(PM10),236,375,94,64,30,94,,64,,12,14,4,4,0.7,1
2026-02-22T1500,4086A,118.7641,32.0841,南京市,新模范马路66号,颗粒物(PM10),309,427,106,51,31,127,,99,99,2,5,4,4,0.6,1
2026-02-22T1500,4249A,118.8707617,31.34017673,南京市,汶溪路181号,颗粒物(PM10),109,167,54,42,33,121,,74,74,14,17,7,7,0.7,0.8
2026-02-22T1500,4312A,119.019,31.6512,南京市,中山西路1号,颗粒物(PM10),115,180,70,52,36,109,,78,78,10,18,4,4,0.8,0.9
2026-02-22T1500,1401A,108.3098,22.788,南宁市,二十一中,颗粒物(PM10),58,66,36,26,29,72,,57,55,8,10,4,4,0.5,0.6
2026-02-22T1500,1402A,108.3135,22.8529,南宁市,北湖,,50,50,40,32,34,78,,58,58,6,10,2,2,0.6,0.7
2026-02-22T1500,1403A,108.3205,22.8222,南宁市,市监测站,,50,50,35,24,27,73,,59,53,8,10,6,6,0.6,0.7
2026-02-22T1500,1404A,108.3828,22.8038,南宁市,大自然花园,,45,45,27,25,28,75,,65,62,6,7,5,5,0.5,0.6
2026-02-22T1500,1406A,108.2397,22.8462,南宁市,区农职院,,42,42,37,26,29,76,,53,53,9,12,5,4,0.4,0.5
2026-02-22T1500,1407A,108.3285,22.7356,南宁市,英华嘉园,颗粒物(PM10),56,61,43,26,30,70,,58,57,7,7,3,3,0.5,0.6
2026-02-22T1500,3401A,108.4829,22.762,南宁市,红星社区,,33,33,38,21,28,78,,61,61,5,8,4,4,0.5,0.6
2026-02-22T1500,4132A,108.2927,23.1477,南宁市,起凤路9号,,29,25,47,20,39,75,,62,62,3,8,3,3,0.6,0.7
2026-02-22T1500,4221A,108.2177,22.7774,南宁市,乐贤路16号,,,51,34,20,26,64,,54,54,,13,2,2,0.4,0.6
2026-02-22T1500,2332A,118.1682,26.6371,南平市,南平市监测站,,30,30,42,18,31,90,,62,62,3,12,4,9,0.4,0.5
2026-02-22T1500,2334A,118.1757,26.6276,南平市,南平七中,,37,37,44,18,32,92,,64,64,2,10,3,6,0.6,0.7
2026-02-22T1500,1168A,120.9056,31.9669,南通市,狼山街道,颗粒物(PM10),190,330,136,46,42,85,,65,65,4,28,3,4,0.4,0.7
2026-02-22T1500,1170A,120.8635,32.0231,南通市,城中,颗粒物(PM10),199,348,141,34,37,94,,72,72,4,26,3,7,0.3,0.6
2026-02-22T1500,1171A,120.9376,31.9301,南通市,星湖花园,颗粒物(PM10),185,319,125,42,40,87,,68,68,2,25,2,6,0.2,0.5
2026-02-22T1500,1172A,120.8053,32.046,南通市,紫琅学院,颗粒物(PM10),185,319,132,30,33,86,,67,67,7,44,3,6,0.2,0.5
2026-02-22T1500,3291A,121.0631,32.0644,南通市,通州监测站,颗粒物(PM10),146,241,124,23,35,84,,66,66,5,25,2,6,0.3,0.7
2026-02-22T1500,3432A,120.9348,31.9874,南通市,环境教育馆,颗粒物(PM10),179,307,128,37,40,88,,68,68,3,32,4,7,0.3,0.5
2026-02-22T1500,4091A,120.8692,31.9885,南通市,洪江路,颗粒物(PM10),145,239,110,35,42,82,,60,60,4,38,4,7,0.4,0.7
2026-02-22T1500,2404A,112.5338,33.0086,南阳市,瓦房庄,颗粒物(PM10),145,240,104,36,56,92,,61,61,6,21,5,6,0.5,1
2026-02-22T1500,2405A,112.5002,32.9734,南阳市,汉画馆,颗粒物(PM10),155,259,117,66,66,91,,56,56,8,23,5,7,0.5,1.1
2026-02-22T1500,2406A,112.5778,33.0144,南阳市,气象站,颗粒物(PM10),191,331,119,28,53,99,,67,67,8,19,6,6,0.4,0.9
2026-02-22T1500,2407A,112.548,32.9687,南阳市,理工学院,颗粒物(PM10),153,255,100,32,53,93,,59,59,4,17,5,7,0.5,0.9
2026-02-22T1500,4008A,112.5233,32.9921,南阳市,卧龙区政府,颗粒物(PM10),105,159,101,37,58,90,,58,58,5,21,7,7,0.6,1
2026-02-22T1500,1234A,121.8352,29.9111,宁波市,区环保大楼,颗粒物(PM10),54,57,35,26,19,122,,78,78,14,21,7,6,0.4,0.4
2026-02-22T1500,1235A,121.5595,29.8208,宁波市,万里学院,,37,36,28,22,16,117,,76,76,10,11,4,3,0.6,0.5
2026-02-22T1500,1236A,121.713,29.9564,宁波市,龙赛医院,颗粒物(PM10),72,93,36,39,22,109,,80,80,11,9,4,4,0.6,0.6
2026-02-22T1500,1240A,121.5855,29.8635,宁波市,太古小学,,39,39,29,24,17,120,,77,77,8,10,4,3,0.5,0.5
2026-02-22T1500,1241A,121.5239,29.8673,宁波市,市环境监测中心,,36,34,31,23,18,114,,73,73,7,15,5,4,0.5,0.5
2026-02-22T1500,2871A,121.6156,29.9015,宁波市,万里国际学校,,40,33,28,28,18,121,,78,78,11,12,6,4,0.6,0.6
2026-02-22T1500,3710A,121.5593,29.8976,宁波市,白沙活动中心,,41,41,32,28,22,121,,,,4,4,5,4,0.6,0.6
2026-02-22T1500,4095A,121.8962,29.7529,宁波市,中科路88号,,38,33,29,24,20,121,,83,83,10,9,7,6,0.5,0.5
2026-02-22T1500,2341A,119.5387,26.6611,宁德市,宁德市监测站,,42,42,41,20,31,92,,68,68,10,15,5,5,0.6,0.9
2026-02-22T1500,3209A,119.5231,26.6562,宁德市,宁德一中,,32,26,41,22,35,95,,73,73,9,12,4,5,0.6,0.9
2026-02-22T1500,2618A,98.859,25.8541,怒江傈僳族自治州,州监测站,,,,47,,42,,,115,,,7,,6,,0.6
2026-02-22T1500,2619A,98.8607,25.8168,怒江傈僳族自治州,泸水一中,细颗粒物(PM2.5),62,61,50,44,48,88,,66,66,10,9,5,6,0.8,0.9
2026-02-22T1500,1888A,101.6891,26.571,攀枝花市,弄弄坪,,42,35,56,29,32,122,,65,65,8,33,30,35,1.0,1.8
2026-02-22T1500,1889A,101.577,26.5914,攀枝花市,河门口,,46,38,36,32,28,111,,66,66,5,13,10,17,0.6,0.8
2026-02-22T1500,1891A,101.7365,26.4986,攀枝花市,仁和,,46,39,33,32,25,118,,73,73,6,12,15,13,0.7,0.9
2026-02-22T1500,2835A,101.7222,26.567,攀枝花市,四十中小,,50,50,50,29,36,128,,63,63,15,37,24,22,1.7,1.4
2026-02-22T1500,1604A,122.0303,41.1489,盘锦市,开发区,颗粒物(PM10),58,66,114,9,32,85,,82,82,7,10,4,6,0.2,0.4
2026-02-22T1500,1605A,122.0486,41.0883,盘锦市,兴隆台,,40,40,108,3,34,85,,81,81,3,10,4,7,0.2,0.4
2026-02-22T1500,1606A,121.8297,41.1026,盘锦市,新生街道,颗粒物(PM10),54,57,130,3,22,81,,78,78,8,14,5,6,0.2,0.4
2026-02-22T1500,1832A,113.3257,33.7423,平顶山市,新华旅馆,颗粒物(PM10),158,265,220,55,67,95,,84,84,5,16,5,6,0.2,0.5
2026-02-22T1500,1833A,113.2917,33.737,平顶山市,规划设计院,颗粒物(PM10),175,300,210,60,63,92,,82,82,7,15,7,7,0.1,0.5
2026-02-22T1500,1834A,113.182,33.7738,平顶山市,平顶山工学院,颗粒物(PM10),178,306,204,65,52,95,,83,83,5,8,9,9,0.1,0.3
2026-02-22T1500,3594A,112.8736,33.9068,平顶山市,石龙区,颗粒物(PM10),338,450,333,78,61,93,,83,83,2,7,6,8,0.3,0.3
2026-02-22T1500,4116A,113.284,33.7139,平顶山市,姚电大道23号,颗粒物(PM10),215,360,204,67,62,97,,86,86,3,10,6,6,0.3,0.5
2026-02-22T1500,2656A,106.6633,35.5338,平凉市,聚贤嘉苑,颗粒物(PM10),369,475,448,129,123,80,,57,56,11,9,8,7,0.7,0.6
2026-02-22T1500,2657A,106.7021,35.5307,平凉市,博物馆,颗粒物(PM10),349,459,440,138,126,84,,60,60,11,9,12,9,0.7,0.7
2026-02-22T1500,2348A,113.8384,27.6436,萍乡市,中医院,,28,28,82,10,60,89,,41,41,4,17,4,5,0.4,1.1
2026-02-22T1500,2350A,113.8677,27.6438,萍乡市,市环保局,,41,41,75,23,57,109,,49,49,6,18,12,10,0,0.8
2026-02-22T1500,2351A,113.8663,27.6202,萍乡市,安源区政府,,27,27,69,18,46,81,,35,35,6,17,6,7,0.7,1.8
2026-02-22T1500,4107A,113.8686,27.6668,萍乡市,联洪村委会,,36,36,65,23,48,84,,43,43,2,12,2,2,0.4,0.8
2026-02-22T1500,2319A,119.0142,25.4324,莆田市,荔城区仓后路,,48,46,60,33,50,126,,97,97,8,14,/,/,/,/
2026-02-22T1500,2320A,119.0016,25.4553,莆田市,莆田市监测站,,49,48,46,34,42,128,,92,92,9,10,4,3,0.5,0.5
2026-02-22T1500,2321A,119.112,25.4561,莆田市,涵江区六中,细颗粒物(PM2.5),54,40,53,38,44,130,,86,86,10,15,/,/,0.8,0.8
2026-02-22T1500,2322A,119.1014,25.3215,莆田市,秀屿区政府,细颗粒物(PM2.5),67,60,72,48,68,130,,89,89,7,12,5,4,0.5,0.5
2026-02-22T1500,2392A,115.0312,35.7636,濮阳市,环保局,颗粒物(PM10),303,422,335,96,62,85,,77,77,,7,5,6,0.2,0.3
2026-02-22T1500,3021A,115,35.7667,濮阳市,濮水河管理处,颗粒物(PM10),350,460,372,111,70,92,,82,82,10,13,6,6,0.2,0.3
2026-02-22T1500,4118A,115.0552,35.7816,濮阳市,中原东路68号,颗粒物(PM10),373,478,379,88,60,94,,81,81,7,13,4,5,0.4,0.5
2026-02-22T1500,4216A,115.0923632,35.76857718,濮阳市,任丘路479号,颗粒物(PM10),300,420,357,98,65,88,,78,78,5,12,4,5,0.1,0.2
2026-02-22T1500,2601A,100.9801,22.7634,普洱市,市环保局,,49,49,50,20,20,109,,76,76,4,7,6,5,0.6,0.6
2026-02-22T1500,2602A,100.9763,22.8237,普洱市,普洱第二中学,,48,48,50,22,24,108,,68,68,6,18,6,6,0.5,0.6
2026-02-22T1500,3345A,131.0413,45.7795,七台河市,中波台,颗粒物(PM10),71,92,47,25,32,66,,92,79,7,10,7,9,0.2,0.4
2026-02-22T1500,3637A,131.0136,45.7688,七台河市,人民广场,颗粒物(PM10),98,145,71,21,42,59,,84,72,14,17,8,12,0.5,0.6
2026-02-22T1500,3684A,130.8639,45.8144,七台河市,新建矿广场,,,107,71,23,44,59,,63,62,7,22,,44,0.4,0.7
2026-02-22T1500,1779A,123.9307,47.3641,齐齐哈尔市,安居小区,,46,46,33,14,11,74,,74,74,3,4,16,18,0.5,0.5
2026-02-22T1500,1780A,123.9497,47.3389,齐齐哈尔市,中心广场,,28,28,61,3,34,72,,77,73,5,10,8,10,0.5,0.7
2026-02-22T1500,1781A,123.9483,47.3229,齐齐哈尔市,农牧车辆厂,颗粒物(PM10),54,58,61,6,40,76,,80,76,2,8,7,8,0.1,0.2
2026-02-22T1500,1783A,123.9442,47.2994,齐齐哈尔市,市环境监测站,颗粒物(PM10),59,67,60,10,36,74,,79,75,4,9,3,4,0.2,0.4
2026-02-22T1500,3662A,123.6341,47.2079,齐齐哈尔市,富区青少年活动中心,颗粒物(PM10),70,90,54,3,32,71,,75,71,6,5,4,5,0.3,0.5
2026-02-22T1500,2591A,107.9765,26.5724,黔东南苗族侗族自治州,市环境监测站,,43,40,40,30,34,56,,32,32,9,10,4,5,0.5,0.5
2026-02-22T1500,2881A,107.8909,26.531,黔东南苗族侗族自治州,凯里学院,,32,27,39,22,35,57,,44,44,9,9,3,3,0.6,0.6
2026-02-22T1500,2593A,107.5223,26.2371,黔南布依族苗族自治州,小围寨,,36,31,33,25,32,47,,38,38,6,5,5,6,0.7,0.7
2026-02-22T1500,3538A,107.5175,26.2977,黔南布依族苗族自治州,沙坝,,35,34,38,24,31,46,,39,39,8,7,3,4,0.8,0.7
2026-02-22T1500,2589A,104.9022,25.0943,黔西南布依族苗族自治州,场坝街,,39,,41,27,32,79,,64,64,6,7,6,5,0.6,0.7
2026-02-22T1500,2590A,104.8812,25.0994,黔西南布依族苗族自治州,坪东大道,,38,,41,26,36,83,,66,66,5,9,6,6,0.5,0.7
2026-02-22T1500,2502A,108.6238,21.9667,钦州市,市环保站,,44,44,40,17,29,79,,61,61,6,10,4,3,0.4,0.5
2026-02-22T1500,2503A,108.655,21.9481,钦州市,沙埠小学,,44,44,43,18,31,80,,62,62,6,10,5,4,0.6,0.6
2026-02-22T1500,2504A,108.5989,21.7435,钦州市,港区一小,,38,38,44,18,24,82,,58,58,10,16,4,2,0.7,0.8
2026-02-22T1500,3404A,108.5959,21.9634,钦州市,北职校,,37,37,35,18,27,81,,60,60,7,10,4,4,0.6,0.7
2026-02-22T1500,1046A,119.5247,39.9346,秦皇岛市,建设大厦,颗粒物(PM10),91,132,203,10,41,88,,83,83,2,10,4,6,0.2,0.4
2026-02-22T1500,3132A,119.5979,39.938,秦皇岛市,文明里,颗粒物(PM10),61,72,199,6,37,89,,82,82,3,15,8,10,0.2,0.4
2026-02-22T1500,4066A,119.7458,39.9952,秦皇岛市,南园路157号,,,,156,3,37,85,,82,82,8,16,4,9,,0.5
2026-02-22T1500,4067A,119.5131,39.8858,秦皇岛市,翠岛大街1号,颗粒物(PM10),52,53,182,3,39,84,,77,77,3,10,8,9,0.2,0.4
2026-02-22T1500,4198A,119.509013,39.825305,秦皇岛市,北戴河轮滑馆,,40,40,248,3,39,88,,80,80,4,12,5,7,0.2,0.3
2026-02-22T1500,1310A,120.404,36.0625,青岛市,市南区东部子站,,27,22,182,3,34,86,,80,80,2,11,9,10,0.4,0.6
2026-02-22T1500,1311A,120.362344,36.10282,青岛市,四方区子站,,28,24,173,3,39,88,,81,81,2,12,4,7,0.3,0.5
2026-02-22T1500,1312A,120.294373,36.054183,青岛市,市南区西部子站,,28,17,145,3,30,87,,79,79,6,17,2,4,0.4,0.6
2026-02-22T1500,1313A,120.4581,36.0858,青岛市,崂山区子站,,27,17,172,3,33,86,,79,79,2,10,7,8,0.4,0.5
2026-02-22T1500,1315A,120.3945,36.3083,青岛市,城阳区子站,,27,19,160,3,34,86,,79,79,8,16,5,8,0.6,0.8
2026-02-22T1500,3642A,120.3454,36.0735,青岛市,市北区南部,,37,37,140,3,33,79,,73,73,5,13,3,4,0.5,0.6
2026-02-22T1500,3643A,120.3897,36.18,青岛市,李沧区北部,,25,24,181,3,33,79,,72,72,5,13,7,10,0.4,0.6
2026-02-22T1500,4110A,120.5222,36.4089,青岛市,盟旺路653号,,28,24,167,3,33,87,,82,82,2,7,3,4,0.5,0.7
2026-02-22T1500,4290A,120.196923,35.954556,青岛市,珠江路669号,,27,22,147,3,34,85,,79,79,7,12,8,8,0.2,0.4
2026-02-22T1500,4291A,120.0424,35.8656,青岛市,黄岛区人民政府广场,,29,27,182,3,28,90,,80,80,5,14,7,9,0.4,0.6
2026-02-22T1500,1703A,113.0218,23.7086,清远市,凤城街办,,33,26,41,21,32,104,,83,83,6,11,/,/,/,/
2026-02-22T1500,3025A,113.0479,23.6343,清远市,技师学院,,35,26,41,16,28,109,,84,84,6,10,4,4,0.4,0.5
2026-02-22T1500,3318A,112.9898,23.7403,清远市,清新太和,,37,29,43,22,32,116,,94,94,8,12,9,9,0.5,0.6
2026-02-22T1500,3455A,113.076,23.72,清远市,清城东城,,36,28,45,20,30,113,,81,81,9,16,/,/,/,/
2026-02-22T1500,2661A,107.6325,35.7357,庆阳市,庆阳五中,颗粒物(PM10),213,359,394,119,112,91,,84,82,6,6,5,5,0.4,0.4
2026-02-22T1500,2662A,107.6361,35.7067,庆阳市,市环保局,颗粒物(PM10),199,348,383,108,104,91,,82,81,6,6,3,4,0.4,0.3
2026-02-22T1500,1916A,103.7897,25.5036,曲靖市,环境监测站,,42,22,33,14,21,134,,87,87,4,14,6,9,0.4,0.5
2026-02-22T1500,1917A,103.8013,25.5357,曲靖市,烟厂办公区,,39,19,42,7,25,123,,72,72,4,27,6,12,0.4,0.5
2026-02-22T1500,3376A,103.7926,25.4651,曲靖市,南苑二区,,37,20,26,8,15,118,,85,85,10,10,4,5,0.5,0.5
2026-02-22T1500,3377A,103.7442,25.5259,曲靖市,曲靖师范学院,,40,,37,11,26,128,,86,86,4,21,3,9,0.4,0.5
2026-02-22T1500,1264A,118.8694,28.94,衢州市,环保大楼,,33,33,41,21,29,101,,66,66,5,14,/,/,/,/
2026-02-22T1500,1266A,118.8622,28.9809,衢州市,衢州学院,,30,29,35,19,26,94,,60,60,4,20,4,5,0.5,0.6
2026-02-22T1500,4097A,118.9646,28.9832,衢州市,衢州三中,,30,28,36,17,25,93,,53,53,4,18,6,6,0.6,0.7
2026-02-22T1500,1611A,118.5818,24.9116,泉州市,涂山街,细颗粒物(PM2.5),64,54,53,46,42,111,,75,75,12,15,4,4,0.7,0.7
2026-02-22T1500,1612A,118.597,24.8976,泉州市,津头埔,细颗粒物(PM2.5),62,56,54,44,43,118,,78,78,12,14,4,3,0.7,0.7
2026-02-22T1500,1613A,118.6669,24.9422,泉州市,万安,细颗粒物(PM2.5),68,61,44,49,33,111,,69,69,10,13,5,3,0.7,0.6
2026-02-22T1500,4105A,118.6355,24.9148,泉州市,霞新路6号,细颗粒物(PM2.5),64,53,42,46,36,114,,71,71,7,10,/,/,0.6,0.5
2026-02-22T1500,2626A,88.8873,29.2723,日喀则市,日喀则监测站,,40,11,22,3,14,127,,102,102,3,10,10,11,0.5,0.6
2026-02-22T1500,3726A,88.8775,29.2425,日喀则市,林业技术推广中心,,39,18,18,18,9,123,,103,103,3,6,15,14,0.3,0.4
2026-02-22T1500,1659A,119.4711,35.421,日照市,监测站,颗粒物(PM10),67,83,172,13,35,90,,82,82,7,17,7,13,0.5,0.8
2026-02-22T1500,1660A,119.523,35.4216,日照市,市政府广场,颗粒物(PM10),59,68,151,12,35,93,,84,84,6,14,7,12,0.3,0.6
2026-02-22T1500,1661A,119.5511,35.4113,日照市,港务局,颗粒物(PM10),65,80,182,13,35,91,,83,83,7,17,5,10,0.4,0.8
2026-02-22T1500,3507A,119.5326,35.4627,日照市,职业技术学院,颗粒物(PM10),60,70,168,9,32,91,,83,83,6,14,7,12,0.5,0.9
2026-02-22T1500,3604A,119.3267,35.1043,日照市,岚山环保分局,颗粒物(PM10),136,222,194,38,48,89,,82,82,5,17,10,27,0.7,1.1
2026-02-22T1500,1835A,111.1922,34.7752,三门峡市,市政府,颗粒物(PM10),500,613,372,135,85,84,,78,78,4,14,8,8,0.3,0.4
2026-02-22T1500,1836A,111.1588,34.794,三门峡市,开发区,颗粒物(PM10),500,665,367,170,100,86,,80,80,6,11,9,7,0.3,0.4
2026-02-22T1500,3039A,111.1911,34.7829,三门峡市,三门峡市第一小学,颗粒物(PM10),500,727,444,149,96,86,,81,81,10,16,9,8,0.4,0.5
2026-02-22T1500,3598A,111.1031,34.719,三门峡市,富达温泉假日酒店,颗粒物(PM10),500,642,421,132,90,89,,77,77,6,13,8,12,0.3,0.4
2026-02-22T1500,2324A,117.621,26.2626,三明市,三钢,,33,33,32,22,25,103,,68,68,4,12,5,7,0.5,0.7
2026-02-22T1500,2325A,117.6352,26.2714,三明市,三明二中,,33,28,36,23,27,96,,61,61,5,12,4,8,0.3,0.5
2026-02-22T1500,2326A,117.6028,26.2377,三明市,三元区政府,,36,36,32,24,24,109,,72,72,4,10,4,6,0.8,0.7
2026-02-22T1500,1877A,109.4962,18.2682,三亚市,河西子站,,23,23,34,9,17,68,,63,63,2,5,1,1,0.2,0.3
2026-02-22T1500,3540A,109.7348,18.3443,三亚市,君悦子站,,28,28,35,12,18,68,,61,61,4,7,2,3,0.4,0.4
2026-02-22T1500,4135A,109.1714,18.3739,三亚市,城东小学站,,26,26,24,10,14,76,,71,71,4,6,/,/,/,/
2026-02-22T1500,2624A,91.7592,29.234,山南市,山南监测站,,37,10,11,6,4,117,,94,94,1,2,10,9,0.4,0.4
2026-02-22T1500,2625A,91.7701,29.2436,山南市,山南人民医院,,39,,12,8,6,122,,101,101,1,2,10,10,0.4,0.4
2026-02-22T1500,1674A,116.6795,23.3666,汕头市,金平子站,颗粒物(PM10),56,61,52,36,43,142,,102,102,8,10,6,5,0.9,0.8
2026-02-22T1500,1675A,116.7248,23.3632,汕头市,龙湖子站,颗粒物(PM10),55,59,50,35,42,125,,95,95,13,14,11,10,/,/
2026-02-22T1500,1676A,116.7257,23.2774,汕头市,濠江子站,细颗粒物(PM2.5),53,50,52,37,42,115,,92,92,18,15,8,8,/,/
2026-02-22T1500,1677A,116.7518,23.4712,汕头市,澄海子站,颗粒物(PM10),64,77,54,42,40,126,,94,94,6,7,7,7,0.9,0.8
2026-02-22T1500,1678A,116.6088,23.2539,汕头市,潮阳子站,细颗粒物(PM2.5),65,68,56,47,50,130,,92,92,10,11,7,6,0.7,0.7
2026-02-22T1500,3444A,116.4539,23.2684,汕头市,潮南峡山,细颗粒物(PM2.5),77,74,65,56,50,131,,89,89,7,6,6,6,0.8,0.7
2026-02-22T1500,3624A,116.4069,23.2533,汕头市,潮南子站,颗粒物(PM10),55,59,73,34,53,113,,82,82,4,7,7,6,/,/
2026-02-22T1500,1693A,115.3653,22.7751,汕尾市,市环保局,,,,44,,38,103,,93,93,6,9,5,5,,0.8
2026-02-22T1500,1695A,115.362,22.7926,汕尾市,新城中学,,40,40,42,17,34,102,,94,94,7,8,6,6,0.6,0.7
2026-02-22T1500,2645A,109.9155,33.8714,商洛市,监测站,颗粒物(PM10),174,297,261,100,93,95,,66,66,8,9,9,5,0.4,0.4
2026-02-22T1500,3045A,109.9647,33.8486,商洛市,商州区中学,颗粒物(PM10),200,350,287,84,84,92,,64,64,3,6,5,5,0.5,0.6
2026-02-22T1500,2408A,115.6701,34.4283,商丘市,环境监测站,颗粒物(PM10),500,610,330,129,74,88,,76,76,7,10,2,3,0.3,0.4
2026-02-22T1500,2409A,115.6458,34.4047,商丘市,粮食局,颗粒物(PM10),462,562,290,123,73,87,,72,72,4,7,3,2,0.2,0.3
2026-02-22T1500,3171A,115.6069,34.4465,商丘市,梁园区档案局,颗粒物(PM10),500,617,312,112,64,98,,82,82,3,6,3,2,0.1,0.3
2026-02-22T1500,4119A,115.6701,34.3767,商丘市,北海东路185号,颗粒物(PM10),500,625,293,135,77,88,,76,76,3,7,2,3,0.2,0.3
2026-02-22T1500,4120A,115.6172,34.3704,商丘市,中山大街3号,颗粒物(PM10),500,676,319,149,84,90,,77,77,8,11,2,4,0.1,0.3
2026-02-22T1500,1141A,121.401,31.2382,上海市,普陀,颗粒物(PM10),195,339,65,57,32,92,,75,75,7,19,5,7,0.4,0.6
2026-02-22T1500,1142A,121.4774,31.2043,上海市,十五厂,颗粒物(PM10),166,281,64,50,35,95,,79,79,9,25,7,9,0.5,0.6
2026-02-22T1500,1143A,121.4673,31.3011,上海市,虹口,颗粒物(PM10),185,320,68,54,34,81,,69,69,9,19,5,6,0.3,0.6
2026-02-22T1500,1147A,121.4253,31.226,上海市,静安监测站,颗粒物(PM10),120,189,59,59,33,92,,80,80,9,20,6,8,0.4,0.7
2026-02-22T1500,1148A,121.7029,31.1905,上海市,浦东川沙,颗粒物(PM10),150,250,66,41,36,86,,72,72,9,18,,4,0.5,0.7
2026-02-22T1500,1149A,121.5339,31.229,上海市,浦东新区监测站,颗粒物(PM10),158,265,59,68,34,87,,80,80,7,15,5,6,0.4,0.6
2026-02-22T1500,1150A,121.5776,31.2038,上海市,浦东张江,颗粒物(PM10),166,282,63,54,32,91,,79,79,8,22,6,7,0.0,0.3
2026-02-22T1500,3265A,121.4242,31.3303,上海市,宝山庙行,颗粒物(PM10),206,354,72,60,35,86,,73,73,6,16,9,10,0.4,0.5
2026-02-22T1500,3266A,121.8789,31.4662,上海市,崇明上实东滩,颗粒物(PM10),127,204,61,33,29,88,,70,70,6,26,5,6,0,0.1
2026-02-22T1500,3268A,121.316,31.2839,上海市,嘉定南翔,颗粒物(PM10),180,310,70,59,37,89,,71,71,14,35,5,5,0.7,0.6
2026-02-22T1500,3269A,121.3357,30.7455,上海市,金山新城,,,140,42,66,32,106,,88,88,9,13,6,6,,0.8
2026-02-22T1500,3270A,121.4996,31.0741,上海市,闵行浦江,颗粒物(PM10),134,218,55,48,33,88,,74,74,9,18,6,7,0,0.2
2026-02-22T1500,3271A,121.2886,31.1663,上海市,青浦徐泾,颗粒物(PM10),174,297,66,55,37,83,,70,70,14,19,9,6,0.7,0.6
2026-02-22T1500,3272A,121.2193,31.0382,上海市,松江图书馆,颗粒物(PM10),156,262,57,53,35,94,,80,80,13,16,10,7,0.8,0.7
2026-02-22T1500,3273A,121.3904,31.206,上海市,长宁仙霞,颗粒物(PM10),171,292,62,55,32,91,,69,69,2,15,7,8,0.2,0.3
2026-02-22T1500,3274A,121.7964,31.0507,上海市,浦东惠南,颗粒物(PM10),148,246,59,44,33,86,,76,76,11,17,5,6,0.4,0.7
2026-02-22T1500,3544A,121.4891,30.925,上海市,奉贤南桥新城,颗粒物(PM10),135,220,53,49,32,96,,84,84,6,15,3,3,0.4,0.6
2026-02-22T1500,4183A,121.417401,31.16637,上海市,冠生园路458号,颗粒物(PM10),149,248,56,58,35,86,,70,70,14,22,6,6,0.2,0.4
2026-02-22T1500,4205A,121.541914,31.268301,上海市,宁武路151号,颗粒物(PM10),177,303,62,53,32,89,,76,76,11,21,6,7,0.2,0.4
2026-02-22T1500,2382A,117.9758,28.4439,上饶市,市监测站,,32,32,41,20,29,94,,63,63,10,14,5,6,/,/
2026-02-22T1500,2383A,117.9521,28.4637,上饶市,凤凰光学,,32,,54,22,38,86,,55,55,10,24,8,9,0.7,0.8
2026-02-22T1500,3685A,117.897,28.4316,上饶市,双创科技城,,33,33,49,18,36,102,,68,68,6,21,6,6,0.8,0.9
2026-02-22T1500,4211A,118.190438,28.444845,上饶市,裕丰大道,,30,23,46,21,32,95,,60,60,6,15,9,9,0.7,0.7
2026-02-22T1500,1669A,113.5821,24.7733,韶关市,市八中,,42,38,66,29,49,106,,79,79,8,20,8,10,0.5,0.7
2026-02-22T1500,1671A,113.5916,24.7973,韶关市,园林处,,36,25,49,23,48,113,,82,82,6,19,6,8,/,/
2026-02-22T1500,1673A,113.5971,24.6864,韶关市,曲江监测站,,46,34,74,32,59,146,,85,85,8,21,12,7,0.7,0.9
2026-02-22T1500,2809A,113.6668,24.7756,韶关市,大学路288号,,42,36,55,29,47,125,,78,78,8,13,5,5,/,/
2026-02-22T1500,3622A,113.5556,24.8082,韶关市,碧湖山庄,,38,27,65,26,51,108,,74,74,5,8,6,7,0.8,0.8
2026-02-22T1500,2464A,111.5277,27.2442,邵阳市,市化工厂,,36,,60,25,51,86,,45,45,1,11,8,7,0.6,0.9
2026-02-22T1500,2466A,111.4327,27.2276,邵阳市,市环保局,,46,46,58,24,51,88,,44,44,4,14,6,6,0.8,1.1
2026-02-22T1500,4218A,111.446,27.2472,邵阳市,北塔二期4-26地块,,46,46,62,13,47,86,,45,45,4,17,8,7,0.6,1.2
2026-02-22T1500,4219A,111.4739,27.2282,邵阳市,邵水西路287号,,33,29,72,23,60,86,,43,43,2,14,4,5,0.7,1.2
2026-02-22T1500,1247A,120.6053,29.9927,绍兴市,城东开发委,颗粒物(PM10),53,56,31,29,21,105,,71,71,4,8,9,7,0.5,0.5
2026-02-22T1500,2921A,120.5482,30.0003,绍兴市,树下王站,,48,48,31,28,20,109,,77,77,7,9,8,7,0.5,0.4
2026-02-22T1500,3408A,120.5685,29.936,绍兴市,绍兴中专,颗粒物(PM10),51,52,29,27,17,115,,76,76,7,7,6,6,0.6,0.5
2026-02-22T1500,3409A,120.4905,30.086,绍兴市,柯桥区政府,颗粒物(PM10),52,53,32,31,21,110,,72,72,9,13,6,6,0.5,0.4
2026-02-22T1500,3410A,120.8751,30.0249,绍兴市,重华小学,,49,49,31,32,21,106,,75,75,7,7,8,7,0.4,0.3
2026-02-22T1500,3411A,120.837,30.0137,绍兴市,上虞中学,,50,50,31,32,23,118,,80,80,10,12,8,7,0.7,0.6
