timepoint,stationcode,longitude,latitude,area,positionname,primarypollutant,aqi,pm10,pm10_24h,pm2_5,pm2_5_24h,o3,o3_24h,o3_8h,o3_8h_24h,no2,no2_24h,so2,so2_24h,co,co_24h
2026-02-22T1400,2568A,102.2503,31.8896,阿坝藏族羌族自治州,马师校,,28,21,18,12,10,89,,61,61,2,4,4,4,0.2,0.2
2026-02-22T1400,3994A,102.2174,31.9016,阿坝藏族羌族自治州,马尔康中学西区,,,19,25,12,8,77,,57,57,,5,5,4,0.2,0.4
2026-02-22T1400,2695A,80.2899,41.1684,阿克苏地区,电视台,颗粒物(PM10),56,62,201,24,87,88,,69,69,8,30,8,12,0.8,1.3
2026-02-22T1400,2696A,80.2592,41.1541,阿克苏地区,艺术中心,颗粒物(PM10),52,53,199,12,96,83,,74,74,18,38,4,4,0.6,0.9
2026-02-22T1400,2205A,105.699,38.8409,阿拉善盟,蒙二幼,颗粒物(PM10),122,193,594,43,122,97,,87,87,4,6,9,9,0.5,0.5
2026-02-22T1400,2206A,105.7198,38.8508,阿拉善盟,环保局新楼,颗粒物(PM10),94,137,508,38,119,90,,89,87,3,3,8,9,0.5,0.5
2026-02-22T1400,2708A,88.1266,47.8515,阿勒泰地区,市站,,28,15,28,3,9,89,,83,83,15,18,6,6,0.3,0.3
2026-02-22T1400,4166A,88.1198,47.7931,阿勒泰地区,阿勒泰路33号,,28,18,28,3,6,88,,80,80,6,12,7,7,0.3,0.3
2026-02-22T1400,2630A,80.1171,32.4999,阿里地区,阿里监测站,,32,6,13,3,6,101,,83,83,1,5,2,5,0.3,0.4
2026-02-22T1400,3192A,80.0906,32.5029,阿里地区,阿里藏医院,,34,6,11,3,4,106,,82,82,1,4,7,9,0.2,0.3
2026-02-22T1400,2644A,109.0088,32.6974,安康市,汉滨区检察院,颗粒物(PM10),71,91,55,45,37,77,,41,41,10,13,3,3,0.4,0.5
2026-02-22T1400,4054A,109.0324,32.6913,安康市,市邮政管理局,颗粒物(PM10),83,115,66,48,42,81,,44,44,7,17,4,5,0.6,0.8
2026-02-22T1400,2291A,117.0806,30.5181,安庆市,环科院,颗粒物(PM10),128,205,60,31,34,106,,56,56,3,19,8,8,0.5,0.7
2026-02-22T1400,2292A,117.0331,30.5118,安庆市,马山宾馆,颗粒物(PM10),131,211,62,34,38,106,,60,60,8,20,6,7,0.4,0.7
2026-02-22T1400,2294A,116.9897,30.6146,安庆市,安庆大学,颗粒物(PM10),146,241,59,32,27,109,,68,68,2,6,6,6,0.4,0.6
2026-02-22T1400,3173A,117.0598,30.5351,安庆市,市人大,颗粒物(PM10),140,229,63,33,34,105,,60,60,4,14,7,11,0.3,0.6
2026-02-22T1400,3123A,105.9408,26.2431,安顺市,凤凰山,,46,,36,32,28,67,,58,56,5,7,9,10,0.4,0.4
2026-02-22T1400,3124A,105.9443,26.2567,安顺市,金钟山,,45,,30,31,29,62,,55,54,6,6,10,11,0.6,0.6
2026-02-22T1400,3125A,105.8983,26.248,安顺市,娄家坡,细颗粒物(PM2.5),53,,35,37,30,62,,53,53,7,7,17,13,0.6,0.5
2026-02-22T1400,1819A,114.3552,36.1017,安阳市,红庙街,颗粒物(PM10),443,543,374,138,74,86,,87,86,5,8,1,4,0.4,0.5
2026-02-22T1400,1820A,114.361,36.0681,安阳市,银杏小区,颗粒物(PM10),485,585,369,153,84,89,,91,91,4,8,2,5,0.2,0.3
2026-02-22T1400,3141A,114.3921,36.0879,安阳市,信访局,颗粒物(PM10),436,536,365,147,83,93,,96,94,4,4,4,5,0.4,0.4
2026-02-22T1400,3669A,114.4706,36.0634,安阳市,左辅环卫站,颗粒物(PM10),500,635,436,139,79,89,,90,85,6,7,4,5,0.3,0.3
2026-02-22T1400,4117A,114.2918,36.0769,安阳市,钢三路198号,颗粒物(PM10),500,623,386,153,83,78,,84,82,11,9,2,4,0.4,0.4
2026-02-22T1400,1748A,123.0441,41.1201,鞍山市,深沟寺,颗粒物(PM10),82,113,85,9,29,80,,72,72,8,13,9,12,0.7,1
2026-02-22T1400,1749A,123.011,41.0931,鞍山市,太阳城,颗粒物(PM10),78,106,82,10,32,80,,75,75,3,11,8,12,0.5,0.8
2026-02-22T1400,1750A,123.0483,41.1445,鞍山市,太平,颗粒物(PM10),91,132,90,13,32,74,,69,69,5,11,8,11,0.2,0.6
2026-02-22T1400,1751A,122.964,41.0968,鞍山市,铁西三道街,颗粒物(PM10),83,115,88,10,35,79,,72,72,5,20,4,15,0.3,0.7
2026-02-22T1400,1753A,123.0219,41.0822,鞍山市,明达新区,颗粒物(PM10),74,98,81,10,34,80,,72,72,5,12,8,12,0.4,0.6
2026-02-22T1400,4201A,122.944647,41.082639,鞍山市,兴盛南路290号,颗粒物(PM10),86,121,98,11,31,86,,79,79,5,12,5,8,0.4,0.7
2026-02-22T1400,2195A,107.4206,40.7609,巴彦淖尔市,附二中,颗粒物(PM10),76,101,314,21,84,77,,70,70,3,3,6,6,0.5,0.5
2026-02-22T1400,2196A,107.37,40.7372,巴彦淖尔市,市环保大楼,颗粒物(PM10),74,98,281,27,84,80,,68,68,3,5,4,4,0.4,0.4
2026-02-22T1400,1956A,86.1476,41.7529,巴音郭楞蒙古自治州,孔雀公园,,,,230,,63,82,,70,61,5,24,,13,0.4,0.6
2026-02-22T1400,1957A,86.1971,41.7166,巴音郭楞蒙古自治州,棉纺厂,颗粒物(PM10),135,220,240,41,56,87,,63,62,2,18,/,/,/,/
2026-02-22T1400,1958A,86.236,41.7172,巴音郭楞蒙古自治州,经济开发区,颗粒物(PM10),95,139,164,18,26,79,,68,68,3,7,5,7,0.3,0.4
2026-02-22T1400,3181A,106.776805,31.852614,巴中市,市五中,细颗粒物(PM2.5),77,64,58,56,50,60,,28,28,25,20,8,8,1.2,1
2026-02-22T1400,3183A,106.7419,31.8654,巴中市,圣泉水务公司,细颗粒物(PM2.5),68,52,51,49,44,61,,38,38,11,18,8,8,0.8,0.8
2026-02-22T1400,3616A,106.7617,31.8343,巴中市,市中心医院,细颗粒物(PM2.5),82,70,65,60,57,60,,22,22,25,28,8,8,1.3,1.2
2026-02-22T1400,2235A,122.7909,45.608,白城市,洮北区环保局,颗粒物(PM10),125,200,99,8,64,81,,76,76,3,10,4,5,0.1,0.5
2026-02-22T1400,2236A,122.8741,45.5725,白城市,市环保局,颗粒物(PM10),135,219,101,11,55,89,,83,83,4,9,4,5,0.3,0.6
2026-02-22T1400,2231A,126.4219,41.9172,白山市,喜丰,颗粒物(PM10),58,65,80,3,22,85,,83,68,2,5,6,11,0.7,1
2026-02-22T1400,2232A,126.4082,41.9416,白山市,环保局,,47,47,96,3,46,88,,84,74,4,11,6,14,0.8,1
2026-02-22T1400,2647A,104.1727,36.5448,白银市,第三小学,颗粒物(PM10),482,582,607,180,173,68,,67,57,21,10,19,13,0.7,0.5
2026-02-22T1400,2648A,104.1467,36.5482,白银市,动力公司,颗粒物(PM10),496,596,590,172,162,71,,55,48,11,9,10,8,0.5,0.4
2026-02-22T1400,2512A,106.6102,23.901,百色市,市监测站,细颗粒物(PM2.5),82,71,59,60,50,78,,41,41,12,14,15,14,0.6,0.6
2026-02-22T1400,2513A,106.6524,23.8842,百色市,市中心血站,"颗粒物(PM10),细颗粒物(PM2.5)",63,76,63,45,55,74,,41,41,12,15,14,15,0.8,0.8
2026-02-22T1400,4133A,106.6273,23.8798,百色市,龙景西路,细颗粒物(PM2.5),74,94,76,54,56,79,,38,38,13,13,18,16,0.6,0.6
2026-02-22T1400,2270A,117.396,32.9389,蚌埠市,工人疗养院,颗粒物(PM10),296,417,161,90,47,109,,77,77,9,15,6,6,0.6,0.7
2026-02-22T1400,2271A,117.3606,32.9428,蚌埠市,百货大楼,颗粒物(PM10),315,432,160,70,42,110,,77,77,6,11,8,8,0.5,0.6
2026-02-22T1400,2273A,117.4183,32.8909,蚌埠市,蚌埠学院,颗粒物(PM10),276,403,152,69,46,110,,78,78,7,11,6,6,0.5,0.6
2026-02-22T1400,2274A,117.3534,32.9672,蚌埠市,淮上区政府,颗粒物(PM10),315,432,152,69,43,112,,76,76,7,15,7,7,0.5,0.6
2026-02-22T1400,2275A,117.3143,32.8977,蚌埠市,高新区,颗粒物(PM10),322,437,140,68,46,99,,71,71,4,11,8,8,0.4,0.6
2026-02-22T1400,3715A,117.3091,32.9314,蚌埠市,蚌埠田家炳中学,颗粒物(PM10),304,423,161,68,45,108,,75,75,8,14,6,8,0.5,0.5
2026-02-22T1400,1585A,109.8761,40.6533,包头市,市环境监测站,颗粒物(PM10),94,137,205,17,43,93,,86,86,5,6,4,4,0.2,0.4
2026-02-22T1400,1587A,109.9992,40.5843,包头市,包头八中,颗粒物(PM10),87,123,203,24,41,88,,81,81,5,5,5,4,0.7,0.5
2026-02-22T1400,1589A,109.8641,40.6288,包头市,惠龙物流,颗粒物(PM10),88,125,213,19,30,90,,88,88,7,5,10,7,1.0,0.5
2026-02-22T1400,1590A,110.0376,40.5546,包头市,东河鸿龙湾,,,113,183,7,24,83,,77,77,,7,8,7,0.5,0.4
2026-02-22T1400,3283A,109.9154,40.5684,包头市,滨河大厦,颗粒物(PM10),78,106,175,12,34,84,,80,80,5,6,9,6,0.8,0.8
2026-02-22T1400,3419A,109.9449,40.6259,包头市,包头市委党校,颗粒物(PM10),84,118,162,32,33,85,,80,80,4,4,7,6,0.7,0.6
2026-02-22T1400,3683A,109.8332,40.6577,包头市,昆区政府,颗粒物(PM10),80,110,173,19,33,87,,84,84,8,7,7,6,0.6,0.4
2026-02-22T1400,1931A,107.0802,34.3129,宝鸡市,竹园沟,颗粒物(PM10),289,412,317,60,53,77,,55,55,15,16,9,6,0.3,0.2
2026-02-22T1400,1933A,107.1429,34.3549,宝鸡市,监测站,颗粒物(PM10),355,464,336,56,54,72,,42,42,8,11,8,5,0.4,0.4
2026-02-22T1400,1934A,107.1172,34.3759,宝鸡市,技工学校,颗粒物(PM10),345,456,355,97,94,83,,47,47,11,15,9,7,0.4,0.4
2026-02-22T1400,1936A,107.2025,34.3518,宝鸡市,文理学院,颗粒物(PM10),290,413,349,92,98,83,,49,49,5,12,6,6,0.4,0.4
2026-02-22T1400,1937A,107.2396,34.3626,宝鸡市,三迪小学,颗粒物(PM10),314,431,363,100,99,85,,46,46,8,18,6,6,0.4,0.4
2026-02-22T1400,4155A,107.1721,34.3558,宝鸡市,滨河北路,颗粒物(PM10),273,401,355,94,98,80,,49,49,8,13,7,6,0.3,0.4
2026-02-22T1400,4308A,107.3898,34.3601,宝鸡市,陈仓区北开路21号,颗粒物(PM10),353,462,414,96,105,81,,51,51,4,14,8,19,0.4,0.5
2026-02-22T1400,1051A,115.4803,38.8568,保定市,游泳馆,,43,43,254,12,56,85,,78,78,6,6,2,6,0.3,0.3
2026-02-22T1400,1052A,115.509,38.8895,保定市,华电二区,,40,40,228,12,37,87,,79,79,6,7,2,2,0.8,0.7
2026-02-22T1400,1053A,115.4588,38.9037,保定市,接待中心,,37,37,223,13,46,84,,76,76,2,2,1,2,0.2,0.1
2026-02-22T1400,1054A,115.4484,38.8344,保定市,地表水厂,颗粒物(PM10),54,57,289,8,33,90,,79,79,6,8,2,2,0.2,0.2
2026-02-22T1400,3581A,115.3136,38.9511,保定市,满城区生态环境分局,颗粒物(PM10),60,70,240,12,32,89,,78,78,5,5,1,2,0.2,0.4
2026-02-22T1400,3582A,115.4709,38.7628,保定市,清苑区第二中学,颗粒物(PM10),77,103,340,18,45,88,,78,78,4,4,4,6,0.2,0.2
2026-02-22T1400,3583A,115.6231,39.0223,保定市,徐水物探局,颗粒物(PM10),79,108,618,13,48,90,,82,82,4,5,4,8,0.0,0.2
2026-02-22T1400,4004A,115.4199,38.8665,保定市,双鹰农机,颗粒物(PM10),58,66,315,20,40,96,,86,86,2,3,1,2,0.3,0.3
2026-02-22T1400,4034A,115.515,38.8589,保定市,植保所站,,48,48,234,3,44,86,,79,79,5,4,3,3,0.5,0.5
2026-02-22T1400,2594A,99.1589,25.1137,保山市,市环境监测站,,,,31,,21,120,,82,82,5,8,5,5,,0.4
2026-02-22T1400,2595A,99.1616,25.1381,保山市,市环保局,,44,44,39,26,22,120,,92,92,3,4,4,5,0.4,0.5
2026-02-22T1400,1867A,109.1435,21.4085,北海市,海滩公园,颗粒物(PM10),51,52,39,24,19,95,,69,69,8,11,4,3,0.6,0.8
2026-02-22T1400,1868A,109.0983,21.466,北海市,新市环保局,,35,35,32,16,17,87,,65,65,7,10,4,4,0.5,0.6
2026-02-22T1400,1869A,109.1775,21.5232,北海市,北海工业园,,44,44,39,20,26,83,,55,55,2,8,6,6,0.6,0.7
2026-02-22T1400,3400A,109.1844,21.4396,北海市,龙潭自来水厂,,36,36,31,21,18,86,,62,62,4,4,4,3,0.8,0.8
2026-02-22T1400,1001A,116.3611,39.8786,北京市,万寿西宫,颗粒物(PM10),72,93,156,13,39,90,,83,83,2,4,1,2,0.3,0.4
2026-02-22T1400,1003A,116.4174,39.9289,北京市,东四,颗粒物(PM10),62,73,31,7,13,77,,67,67,2,7,4,5,0.1,0.3
2026-02-22T1400,1004A,116.4073,39.8858,北京市,天坛,颗粒物(PM10),78,105,165,13,32,83,,76,76,2,5,1,2,0.4,0.4
2026-02-22T1400,1005A,116.4622,39.9364,北京市,农展馆,颗粒物(PM10),70,90,149,10,30,88,,81,81,2,4,4,5,0.4,0.5
2026-02-22T1400,1006A,116.3399,39.9293,北京市,官园,颗粒物(PM10),80,109,182,12,38,78,,73,73,2,5,3,3,0.3,0.3
2026-02-22T1400,1007A,116.2879,39.9613,北京市,海淀万柳,颗粒物(PM10),69,87,148,10,30,69,,66,66,9,10,2,2,0.2,0.3
2026-02-22T1400,1008A,116.6635,40.1349,北京市,顺义新城,颗粒物(PM10),71,92,202,8,34,87,,80,80,2,4,5,6,0.4,0.4
2026-02-22T1400,1009A,116.6275,40.327,北京市,怀柔镇,颗粒物(PM10),55,59,213,7,39,76,,75,75,2,5,4,4,0.5,0.5
2026-02-22T1400,1010A,116.2295,40.217,北京市,昌平镇,颗粒物(PM10),68,85,225,8,45,83,,76,76,2,4,2,2,0.4,0.5
2026-02-22T1400,1011A,116.3968,39.982,北京市,奥体中心,颗粒物(PM10),69,87,151,11,32,77,,72,72,2,7,4,5,0.3,0.3
2026-02-22T1400,3418A,116.8336,40.4095,北京市,密云新城,颗粒物(PM10),64,77,208,7,38,80,,74,74,3,6,3,4,0.2,0.2
2026-02-22T1400,3671A,116.0879,39.9725,北京市,门头沟三家店,颗粒物(PM10),77,104,213,16,44,84,,77,77,2,4,3,3,0.3,0.3
2026-02-22T1400,3672A,116.1507,39.8246,北京市,丰台云岗,颗粒物(PM10),67,84,160,14,36,91,,84,84,1,5,2,3,0.3,0.4
2026-02-22T1400,3674A,115.9578,39.7602,北京市,房山燕山,颗粒物(PM10),74,98,173,17,33,84,,78,78,2,5,4,4,0.3,0.3
2026-02-22T1400,3675A,116.4669,39.7734,北京市,大兴旧宫,颗粒物(PM10),78,105,180,13,32,84,,77,77,2,6,3,4,0.3,0.3
2026-02-22T1400,3694A,115.9859,40.4562,北京市,延庆石河营,颗粒物(PM10),68,85,193,8,48,84,,75,75,1,2,1,1,0.2,0.3
2026-02-22T1400,3695A,116.6151,40.3052,北京市,怀柔新城,颗粒物(PM10),53,55,207,6,36,84,,79,79,1,4,2,3,0.2,0.2
2026-02-22T1400,3696A,116.2542,39.8764,北京市,丰台小屯,颗粒物(PM10),73,96,176,12,34,73,,67,67,2,5,3,4,0.3,0.3
2026-02-22T1400,3697A,116.8399,40.3843,北京市,密云镇,颗粒物(PM10),67,84,185,8,40,81,,76,76,4,6,1,2,0.3,0.3
2026-02-22T1400,4057A,115.9423,40.4431,北京市,延庆百泉,颗粒物(PM10),62,74,181,15,40,81,,75,75,1,2,3,3,0.2,0.2
2026-02-22T1400,4058A,116.6598,39.9164,北京市,通州新华,颗粒物(PM10),108,165,168,19,40,83,,74,74,2,10,1,2,0.5,0.5
2026-02-22T1400,4182A,116.1942,39.9158,北京市,石景山八角,颗粒物(PM10),73,95,189,14,41,70,,66,66,3,6,2,3,0.1,0.2
2026-02-22T1400,4194A,117.078628,40.151726,北京市,平谷新城,颗粒物(PM10),72,94,190,9,38,75,,73,73,2,5,3,4,0.4,0.5
2026-02-22T1400,1761A,123.8274146,41.31234549,本溪市,大峪,颗粒物(PM10),126,201,124,8,22,76,,72,72,6,10,8,10,0.6,0.7
2026-02-22T1400,1763A,123.7169,41.3094,本溪市,彩屯,颗粒物(PM10),95,139,94,9,25,83,,78,78,5,15,6,13,0.5,1.4
2026-02-22T1400,1764A,123.7672166,41.28649327,本溪市,东明,颗粒物(PM10),125,200,138,10,22,75,,71,71,6,9,7,9,0.3,0.5
2026-02-22T1400,1765A,123.799345,41.266614,本溪市,新立屯,颗粒物(PM10),119,188,125,10,23,76,,70,70,1,7,6,8,0.4,0.7
2026-02-22T1400,1766A,123.829144,41.336777,本溪市,威宁,颗粒物(PM10),167,284,187,12,23,81,,77,77,4,6,6,9,0.4,0.6
2026-02-22T1400,2587A,105.287,27.3133,毕节市,八中,,,,66,,48,,,85,49,,11,,11,,0.9
2026-02-22T1400,2588A,105.3079,27.2987,毕节市,师专,,,,68,,49,,,95,74,,13,,11,,0.7
2026-02-22T1400,4263A,105.3688,27.3598,毕节市,工业大道,颗粒物(PM10),54,57,67,34,51,72,,80,79,9,12,10,12,/,/
2026-02-22T1400,1629A,117.9961,37.3604,滨州市,第二水厂,,36,36,248,7,28,86,,74,74,7,9,9,10,0.6,0.7
2026-02-22T1400,1630A,117.9789,37.3931,滨州市,北中新校,,48,48,214,8,28,79,,68,68,10,11,7,7,0.3,0.4
2026-02-22T1400,3514A,117.9379,37.3959,滨州市,中海酒店,,34,34,221,6,27,85,,76,76,7,11,8,10,0.5,0.5
2026-02-22T1400,3515A,117.9381509,37.35547456,滨州市,开发区一中,,34,34,243,7,28,86,,72,72,5,7,13,15,0.6,0.7
2026-02-22T1400,3516A,118.0914,37.6938,滨州市,金海六路,,30,22,248,8,27,93,,80,80,6,10,6,7,0.5,0.6
2026-02-22T1400,4028A,117.9955,37.3752,滨州市,滨州市西街道办事处,,29,27,237,12,39,90,,78,78,3,6,7,9,0,0.2
2026-02-22T1400,2311A,115.8071,33.8399,亳州市,污水处理厂,颗粒物(PM10),500,691,290,132,62,87,,73,73,4,9,4,7,0.2,0.4
2026-02-22T1400,2312A,115.7789,33.8519,亳州市,三国揽胜宫,颗粒物(PM10),500,723,247,135,64,82,,70,70,3,7,4,6,0.1,0.4
2026-02-22T1400,3332A,115.7631,33.803,亳州市,亳州学院,颗粒物(PM10),480,580,255,124,66,88,,75,75,3,8,2,6,0,0.2
2026-02-22T1400,2693A,82.0482,44.8553,博尔塔拉蒙古自治州,市党校,,34,34,68,8,16,67,,57,54,9,13,3,2,0.1,0.2
2026-02-22T1400,2694A,82.0805,44.8966,博尔塔拉蒙古自治州,市环保局,,31,31,53,3,19,61,,48,43,10,15,4,3,0.4,0.4
2026-02-22T1400,1071A,116.8733,38.2922,沧州市,沧县城建局,,31,31,251,14,35,89,,77,77,8,7,1,5,0.2,0.2
2026-02-22T1400,1072A,116.8462,38.3189,沧州市,电视转播站,,28,28,222,13,42,88,,75,75,10,9,5,2,0.3,0.3
2026-02-22T1400,1073A,116.8588,38.3161,沧州市,市环保局,,36,36,254,18,34,78,,66,66,6,7,4,3,0.3,0.3
2026-02-22T1400,3324A,116.8011,38.294,沧州市,河北水利电力学院,,39,39,307,9,44,79,,69,69,6,6,5,6,0.2,0.1
2026-02-22T1400,2622A,97.1813,31.1289,昌都市,昌都监测站,,31,13,13,3,6,98,,64,64,1,3,4,3,0.4,0.4
2026-02-22T1400,3719A,97.1707,31.1428,昌都市,昌都会议中心,,31,6,9,3,8,99,,67,67,1,2,5,5,0.4,0.4
2026-02-22T1400,2692A,87.2722,44.0298,昌吉回族自治州,新区政务中心,,22,13,34,3,17,69,,57,49,14,19,6,5,0.4,0.5
2026-02-22T1400,3613A,87.3069,44.0093,昌吉回族自治州,亚心广场,,24,19,42,11,24,75,,58,52,10,17,8,9,0.2,0.3
2026-02-22T1400,4164A,87.2057,43.9289,昌吉回族自治州,财政所,,35,35,46,3,16,71,,63,63,3,8,6,6,0.3,0.5
2026-02-22T1400,1120A,125.2874,43.9024,长春市,客车厂,颗粒物(PM10),151,252,275,18,36,63,,64,64,6,8,6,9,0.3,0.4
2026-02-22T1400,1121A,125.2943,43.8508,长春市,邮电学院,,,,273,,37,63,,67,67,11,14,7,10,,0.6
2026-02-22T1400,1122A,125.3648,43.8745,长春市,劳动公园,颗粒物(PM10),163,276,256,14,33,63,,66,66,8,9,5,7,0.8,0.7
2026-02-22T1400,1123A,125.3233,43.8781,长春市,园林处,颗粒物(PM10),144,237,248,16,36,65,,66,66,4,4,6,8,0.0,0.1
2026-02-22T1400,1124A,125.4604,43.7904,长春市,净月潭,颗粒物(PM10),195,339,237,16,33,67,,68,68,6,7,5,7,0.3,0.4
2026-02-22T1400,1126A,125.38,43.8422,长春市,经开区环卫处,,,,246,17,33,68,,70,70,6,6,4,6,0.3,0.4
2026-02-22T1400,1127A,125.234,43.7761,长春市,高新区管委会,颗粒物(PM10),163,276,233,16,35,68,,69,69,2,5,6,8,0.4,0.4
2026-02-22T1400,1128A,125.1695,43.83,长春市,岱山公园,颗粒物(PM10),134,218,254,18,37,66,,69,69,4,7,4,5,0.4,0.5
2026-02-22T1400,4281A,125.334645,43.916281,长春市,北亚泰大街1068号,颗粒物(PM10),129,207,283,17,42,62,,64,64,8,10,6,8,0.3,0.4
2026-02-22T1400,1335A,113.082,28.2421,长沙市,经开区环保局,,48,48,45,30,33,87,,42,42,6,10,6,15,0.6,0.8
2026-02-22T1400,1336A,112.8873,28.2202,长沙市,高开区环保局,,48,39,42,33,38,88,,41,41,4,15,6,7,0.9,1.3
2026-02-22T1400,1337A,113.0785,28.2012,长沙市,马坡岭,细颗粒物(PM2.5),53,43,48,37,36,97,,39,39,4,13,6,5,0.7,0.9
2026-02-22T1400,1338A,112.9448,28.1894,长沙市,湖南师范大学,,49,45,46,34,32,98,,41,41,6,14,6,5,0.8,1.1
2026-02-22T1400,1339A,113.0177,28.1322,长沙市,雨花区环保局,,49,49,43,28,31,106,,54,54,14,18,8,8,1.0,1.2
2026-02-22T1400,1340A,112.9795,28.2593,长沙市,伍家岭,颗粒物(PM10),51,52,52,25,26,93,,35,35,5,12,7,6,0.8,1
2026-02-22T1400,1341A,113.002,28.1944,长沙市,火车新站,,44,44,53,29,41,91,,34,34,6,26,4,3,0.8,1.2
2026-02-22T1400,1342A,112.9846,28.1177,长沙市,天心区环保局,,,46,42,34,31,90,,47,47,,15,,7,0.9,1.1
2026-02-22T1400,1343A,112.8906,28.1307,长沙市,湖南中医药大学,,46,46,45,30,32,92,,36,36,6,14,7,7,0.8,1.1
2026-02-22T1400,1727A,113.1146,36.1547,长治市,清华站,颗粒物(PM10),186,321,310,94,92,93,,88,88,3,7,4,9,0.3,0.3
2026-02-22T1400,1730A,113.0887,36.2126,长治市,审计局,颗粒物(PM10),176,301,309,89,80,94,,90,90,8,10,7,7,0.3,0.4
2026-02-22T1400,1731A,113.0845,36.1856,长治市,长治八中,颗粒物(PM10),187,324,347,119,95,96,,91,91,2,3,6,9,0.3,0.3
2026-02-22T1400,2845A,113.1561,36.1912,长治市,德盛苑,颗粒物(PM10),177,304,335,113,100,99,,95,95,7,9,5,7,0.3,0.4
2026-02-22T1400,3568A,113.0603,36.0464,长治市,向阳小学,颗粒物(PM10),194,338,353,116,99,103,,102,101,2,6,7,10,0.1,0.2
2026-02-22T1400,3569A,112.8788,36.315,长治市,屯留一中,颗粒物(PM10),152,254,310,87,81,103,,96,96,1,7,4,6,0.1,0.3
2026-02-22T1400,4189A,113.113092,36.199482,长治市,英华南巷50号,颗粒物(PM10),189,328,350,104,102,95,,92,92,3,6,4,7,0.2,0.3
2026-02-22T1400,4190A,113.23666,36.33435,长治市,学府街1号,颗粒物(PM10),195,340,346,84,79,92,,88,88,6,9,5,7,0.4,0.5
2026-02-22T1400,1854A,111.696,28.9725,常德市,市二中,细颗粒物(PM2.5),62,58,46,44,40,83,,46,46,3,7,8,7,1.4,1.2
2026-02-22T1400,3138A,111.7152,29.0288,常德市,武陵区永安,细颗粒物(PM2.5),57,51,55,40,47,84,,42,42,4,12,7,6,1.1,1.1
2026-02-22T1400,3139A,111.6891,28.9881,常德市,鼎城区玉霞,细颗粒物(PM2.5),63,49,49,45,42,87,,42,42,6,13,8,7,1.1,0.9
2026-02-22T1400,3140A,111.6651,29.0526,常德市,武陵区长庚,细颗粒物(PM2.5),67,53,56,48,52,86,,49,49,3,13,8,6,1.1,1
2026-02-22T1400,1196A,119.9524,31.7586,常州市,市监测站,颗粒物(PM10),151,251,70,64,38,94,,69,69,13,16,12,12,0.5,0.7
2026-02-22T1400,1200A,119.9351,31.703,常州市,武进监测站,颗粒物(PM10),131,212,59,56,33,98,,69,69,8,10,10,10,0.7,0.8
2026-02-22T1400,3002A,119.9701,31.813,常州市,行政中心,颗粒物(PM10),432,532,96,65,35,90,,65,65,9,12,5,7,0.5,0.6
2026-02-22T1400,3003A,120.0434,31.7726,常州市,经开区,颗粒物(PM10),173,295,72,57,32,98,,73,73,3,7,6,10,0.6,1
2026-02-22T1400,3010A,119.8919,31.7892,常州市,钟楼,颗粒物(PM10),133,216,63,59,40,96,,69,69,10,15,7,8,0.6,0.7
2026-02-22T1400,3429A,119.8595,31.706,常州市,武进经发区,颗粒物(PM10),143,236,68,63,41,99,,69,69,8,11,7,8,0.8,0.9
2026-02-22T1400,3430A,119.5812,31.7256,常州市,金坛城区,颗粒物(PM10),145,239,68,67,43,102,,76,76,8,10,8,10,0.7,0.9
2026-02-22T1400,4089A,119.9551,31.863,常州市,崇义南街5-H号,颗粒物(PM10),432,532,95,68,34,93,,66,66,10,14,6,6,0.6,0.7
2026-02-22T1400,2220A,120.4318,41.588,朝阳市,西梁,,32,32,211,3,37,93,,91,91,4,9,4,8,0.4,0.5
2026-02-22T1400,2221A,120.452,41.565,朝阳市,河畔小区,,36,36,163,6,33,93,,90,90,4,8,7,10,0.3,0.5
2026-02-22T1400,2222A,120.4176,41.5648,朝阳市,八里堡,,27,24,215,3,38,86,,84,84,6,7,7,11,0.2,0.6
2026-02-22T1400,3026A,116.6179,23.6608,潮州市,市政府,颗粒物(PM10),53,55,59,28,43,111,,75,75,1,5,4,4,0.5,0.6
2026-02-22T1400,4036A,116.646,23.676,潮州市,金山,,49,49,61,27,45,110,,71,71,3,8,3,4,0.6,0.6
2026-02-22T1400,2473A,113.0116,25.8228,郴州市,市职中,,30,28,48,21,39,82,,42,42,6,16,7,7,0.5,0.8
2026-02-22T1400,2475A,113.0381,25.8074,郴州市,市审计局,,34,34,77,23,60,82,,30,30,4,22,6,6,/,/
2026-02-22T1400,2476A,113.0348,25.7757,郴州市,市环保局,,47,47,51,25,36,83,,31,31,6,21,6,4,0.3,0.6
2026-02-22T1400,4252A,113.0138,25.8011,郴州市,好美居路49号,,33,30,43,23,32,93,,39,39,4,17,5,4,/,/
2026-02-22T1400,1431A,103.9727,30.7242,成都市,金泉两河,,,61,80,,,114,,60,60,18,38,6,4,0.6,1
2026-02-22T1400,1432A,104.1423,30.6765,成都市,十里店,细颗粒物(PM2.5),88,78,92,65,68,102,,51,51,16,25,8,7,0.8,0.8
2026-02-22T1400,1433A,104.0594,30.5765,成都市,三瓦窑,细颗粒物(PM2.5),82,,72,60,62,104,,62,62,13,33,6,4,0.6,0.7
2026-02-22T1400,1434A,104.1122,30.6306,成都市,沙河铺,细颗粒物(PM2.5),85,72,82,63,68,82,,37,37,32,45,5,4,0.8,0.9
2026-02-22T1400,2880A,104.0219,30.6561,成都市,大石西路,细颗粒物(PM2.5),95,87,95,71,73,96,,46,46,22,35,8,6,0.2,0.6
2026-02-22T1400,3136A,104.2724,30.559,成都市,龙泉驿区区政府,细颗粒物(PM2.5),89,75,66,66,60,105,,76,76,16,13,10,8,0.7,0.7
2026-02-22T1400,3357A,104.0028,30.6891,成都市,金博路,细颗粒物(PM2.5),63,49,76,45,59,106,,49,49,21,42,9,7,0.8,1
2026-02-22T1400,3359A,104.056,30.5228,成都市,华阳,细颗粒物(PM2.5),84,68,77,62,67,100,,62,62,20,40,7,4,0.6,0.8
2026-02-22T1400,3488A,104.387954,30.746684,成都市,青石路225号,细颗粒物(PM2.5),94,71,83,70,69,117,,55,55,17,31,7,4,0.6,0.7
2026-02-22T1400,3489A,104.0788,30.4054,成都市,科学城,细颗粒物(PM2.5),85,73,72,63,60,87,,44,44,11,15,10,8,0.7,0.8
2026-02-22T1400,4011A,103.8505,30.6946,成都市,光华大道三段,细颗粒物(PM2.5),77,81,95,56,63,119,,54,54,11,33,6,5,0.5,0.7
2026-02-22T1400,4144A,104.3257,30.6406,成都市,八角井街185号,细颗粒物(PM2.5),87,81,81,64,59,108,,65,65,22,24,8,6,0.7,0.8
2026-02-22T1400,4224A,104.2433276,30.53529463,成都市,鲸龙路1057号,细颗粒物(PM2.5),90,84,80,67,63,115,,78,78,13,18,10,7,0.8,0.8
2026-02-22T1400,1062A,117.9531,40.908,承德市,铁路,颗粒物(PM10),82,114,297,3,49,85,,82,82,1,2,2,3,0.2,0.2
2026-02-22T1400,1063A,117.9397,40.9763,承德市,中国银行,颗粒物(PM10),55,59,334,3,46,82,,80,80,2,2,3,2,0.2,0.2
2026-02-22T1400,4073A,117.9462,40.95,承德市,杏林街1号,颗粒物(PM10),70,90,295,10,50,88,,85,85,2,2,3,3,0.2,0.2
2026-02-22T1400,4274A,117.7994,40.9605,承德市,滨河大街98号,颗粒物(PM10),98,145,324,3,48,89,,86,86,2,2,3,4,0.2,0.2
2026-02-22T1400,2314A,117.4698,30.6617,池州市,池州学院,颗粒物(PM10),93,135,50,50,32,100,,66,66,17,20,7,11,0.8,1.2
2026-02-22T1400,3237A,117.4918,30.6617,池州市,展览馆,颗粒物(PM10),88,125,48,41,30,103,,59,59,10,16,8,9,0.7,1
2026-02-22T1400,3333A,117.5626,30.695,池州市,第八中学,颗粒物(PM10),84,117,44,41,27,104,,62,62,17,20,5,9,0.4,0.8
2026-02-22T1400,3334A,117.5037,30.6242,池州市,第十二中学,颗粒物(PM10),89,128,44,45,28,105,,58,58,14,15,5,7,0.6,1
2026-02-22T1400,1744A,118.9229,42.2816,赤峰市,松山一中,,47,47,313,3,42,66,,68,67,9,9,3,4,0.5,0.4
2026-02-22T1400,1745A,118.9588,42.2733,赤峰市,哈达街,,45,45,289,3,47,70,,68,68,6,6,6,8,0.6,0.6
2026-02-22T1400,1746A,118.8792,42.2551,赤峰市,天义路,,28,28,283,8,40,79,,79,78,1,2,5,5,0.5,0.4
2026-02-22T1400,3058A,119.2656,42.0356,赤峰市,银河街,,49,49,352,8,47,95,,93,93,2,2,6,7,0.3,0.3
2026-02-22T1400,3286A,118.9359,42.3146,赤峰市,桥北物流园区,,28,14,224,9,39,87,,85,85,2,2,4,4,0.3,0.4
2026-02-22T1400,2521A,107.3473,22.4137,崇左市,市环保局江州分局,,50,50,88,32,71,64,,39,39,11,19,5,6,1.0,1.1
2026-02-22T1400,4256A,107.375,22.3736,崇左市,石景林东路7号,,,,82,,77,68,,35,35,9,21,4,5,,1.2
2026-02-22T1400,3207A,118.31131,32.3033,滁州市,市政府原办公楼,颗粒物(PM10),186,321,82,71,40,,,71,,8,8,6,6,0.4,0.4
2026-02-22T1400,3331A,118.3268,32.2633,滁州市,图书馆,颗粒物(PM10),173,295,70,53,27,98,,80,80,7,7,9,10,0.4,0.4
2026-02-22T1400,4101A,118.3196,32.3335,滁州市,银山路666号,颗粒物(PM10),223,366,79,73,47,102,,82,82,6,5,9,9,0.5,0.6
2026-02-22T1400,4102A,118.3426,32.2979,滁州市,黄山路555号,颗粒物(PM10),296,417,102,68,43,97,,80,80,5,4,7,8,0.5,0.6
2026-02-22T1400,2606A,101.5379,25.0492,楚雄彝族自治州,市经济开发区,,31,27,32,12,19,99,,83,83,2,8,3,5,0.3,0.4
2026-02-22T1400,4153A,101.5536,25.0343,楚雄彝族自治州,团结路562号,,37,37,23,20,15,100,,94,94,3,5,4,5,0.3,0.4
2026-02-22T1400,2549A,107.5087,31.2186,达州市,市环境监测站,细颗粒物(PM2.5),60,58,71,43,51,89,,44,44,17,30,9,8,0.3,0.4
2026-02-22T1400,2550A,107.4988,31.2132,达州市,凤凰小区,细颗粒物(PM2.5),53,53,71,37,52,88,,45,45,13,35,10,9,0.3,0.6
2026-02-22T1400,2551A,107.5081,31.1987,达州市,达县机关宾馆,颗粒物(PM10),54,58,70,30,53,93,,45,45,22,42,8,6,0.7,1
2026-02-22T1400,2552A,107.4644,31.2124,达州市,市政中心,细颗粒物(PM2.5),57,48,75,40,51,98,,40,40,18,44,9,7,0.5,0.8
2026-02-22T1400,2614A,100.2168,25.5818,大理白族自治州,大理市环境监测站,,34,29,26,19,18,108,,98,98,6,6,7,6,0.7,0.7
2026-02-22T1400,2615A,100.1542,25.7055,大理白族自治州,大理古城,,36,31,28,13,19,114,,98,98,3,6,8,8,0.6,0.6
2026-02-22T1400,1109A,121.6119,38.974,大连市,甘井子,,49,49,160,8,54,96,,84,84,5,18,6,9,0.4,0.5
2026-02-22T1400,1110A,121.565,38.9509,大连市,周水子,颗粒物(PM10),57,63,155,6,48,86,,75,75,4,17,7,9,0.2,0.4
2026-02-22T1400,1111A,121.5637,38.8849,大连市,星海三站,颗粒物(PM10),60,70,158,11,46,83,,72,72,5,13,5,5,0.4,0.6
2026-02-22T1400,1112A,121.6301,38.9117,大连市,青泥洼桥,,28,25,177,8,46,88,,78,78,8,17,7,9,0.4,0.7
2026-02-22T1400,1113A,121.6248,38.8643,大连市,傅家庄,,,,142,,50,,,78,,,22,,9,,0.5
2026-02-22T1400,1114A,121.5117,38.8636,大连市,七贤岭,颗粒物(PM10),64,77,170,3,45,86,,77,77,6,14,6,9,0.3,0.6
2026-02-22T1400,1116A,121.7507,39.1339,大连市,金州,,30,30,92,3,39,89,,76,76,2,12,8,12,0.2,0.4
2026-02-22T1400,1117A,121.7811,39.0495,大连市,开发区,颗粒物(PM10),61,71,129,6,44,87,,77,77,6,16,5,5,0.2,0.5
2026-02-22T1400,1118A,121.9762,39.0631,大连市,双D港,,31,8,172,3,39,99,,88,88,6,15,6,8,0.5,0.8
2026-02-22T1400,4082A,121.2548,38.8188,大连市,旅顺,颗粒物(PM10),51,51,165,7,45,80,,70,70,5,13,9,11,0.3,0.5
2026-02-22T1400,1789A,124.8085,46.0381,大庆市,大同区,颗粒物(PM10),51,51,92,17,62,82,,82,82,4,13,10,14,0.3,0.8
2026-02-22T1400,1790A,125.1166,46.5255,大庆市,龙凤区,,45,45,93,18,67,68,,69,69,14,23,4,3,0.2,0.5
2026-02-22T1400,1791A,124.8894,46.4007,大庆市,红岗区,,48,48,83,11,12,59,,60,60,8,18,7,10,0.2,0.6
2026-02-22T1400,1792A,125.1391,46.578,大庆市,萨尔图区,,25,25,87,10,57,66,,66,66,10,17,6,9,0.3,0.7
2026-02-22T1400,1793A,124.9026,46.6217,大庆市,让胡路区,,40,40,71,12,62,61,,63,62,7,17,17,19,0.3,0.6
2026-02-22T1400,3481A,125.127,46.6277,大庆市,萨区政府监测点,颗粒物(PM10),54,57,96,14,55,74,,74,74,2,9,9,11,0.2,0.6
2026-02-22T1400,1723A,113.2926,40.0759,大同市,云冈宾馆,颗粒物(PM10),78,105,270,15,49,76,,68,68,2,4,3,4,0.6,0.6
2026-02-22T1400,1724A,113.3437,40.0921,大同市,大同大学,细颗粒物(PM2.5),88,94,294,65,55,82,,75,75,1,3,2,3,0.2,0.3
2026-02-22T1400,1725A,113.2637,40.129,大同市,安家小村,颗粒物(PM10),71,92,317,14,52,77,,70,64,3,7,7,8,0.2,0.3
2026-02-22T1400,3282A,113.3399,40.0586,大同市,大同市卫生学校,颗粒物(PM10),69,87,280,13,48,88,,79,79,4,5,1,2,0.2,0.3
2026-02-22T1400,3565A,113.1371,40.1122,大同市,云冈站,颗粒物(PM10),82,114,287,24,51,81,,72,72,3,4,4,5,0.3,0.4
2026-02-22T1400,3566A,113.1186,40.2556,大同市,图书馆,颗粒物(PM10),103,155,408,15,54,77,,75,75,2,4,2,2,0.2,0.6
2026-02-22T1400,3567A,113.5931,40.0459,大同市,区一中,颗粒物(PM10),86,122,335,12,48,89,,78,78,2,4,6,6,0.3,0.3
2026-02-22T1400,4199A,113.2798248,40.09972476,大同市,魏都大道141号,颗粒物(PM10),75,99,307,11,42,82,,73,73,2,5,5,6,0.2,0.3
2026-02-22T1400,2269A,124.1068,50.4091,大兴安岭地区,科技局,颗粒物(PM10),62,73,48,9,12,66,,69,67,2,3,4,5,0.4,0.4
2026-02-22T1400,3663A,124.117,50.4279,大兴安岭地区,红旗社区,,22,19,18,6,12,70,,73,71,1,2,4,5,0.2,0.2
2026-02-22T1400,1600A,124.33,40.0625,丹东市,江湾东路,颗粒物(PM10),57,64,55,11,19,90,,85,73,6,8,6,7,0.3,0.6
2026-02-22T1400,1601A,124.4242,40.1513,丹东市,临江后街,,48,48,53,8,19,89,,84,75,4,6,6,8,0.3,0.4
2026-02-22T1400,1602A,124.3935,40.1461,丹东市,元宝山,,39,39,48,7,17,88,,83,73,1,5,7,10,0.3,0.5
2026-02-22T1400,1603A,124.3634,40.1093,丹东市,民主桥,颗粒物(PM10),53,55,54,9,20,90,,84,76,2,3,7,9,0.5,0.5
2026-02-22T1400,3541A,109.5726195,19.51688767,儋州市,第一中学子站,,20,12,33,7,23,63,,55,53,2,3,4,5,0.5,0.6
2026-02-22T1400,3542A,109.5567,19.5187,儋州市,东坡学校子站,,22,18,33,7,22,70,,58,57,2,4,5,4,0.4,0.5
2026-02-22T1400,2616A,98.5611,24.4273,德宏傣族景颇族自治州,德宏州监测站,,39,39,40,24,31,98,,45,45,11,20,8,7,0.6,0.6
2026-02-22T1400,3677A,98.5887,24.4366,德宏傣族景颇族自治州,芒市人民政府综合楼,,50,50,54,23,27,99,,49,49,12,12,6,5,0.5,0.5
2026-02-22T1400,1901A,104.424,31.1209,德阳市,东山公园,细颗粒物(PM2.5),90,72,65,67,64,91,,72,70,23,12,6,10,0.7,0.7
2026-02-22T1400,1902A,104.3827,31.1318,德阳市,西小区,细颗粒物(PM2.5),95,104,89,71,73,86,,41,36,35,31,8,12,0.9,0.9
2026-02-22T1400,1904A,104.3553,31.1091,德阳市,耐火材料厂,细颗粒物(PM2.5),104,,82,78,75,100,,47,47,18,24,7,9,0.8,0.9
2026-02-22T1400,4145A,104.4144,31.1495,德阳市,市林业局,细颗粒物(PM2.5),75,75,79,55,66,97,,50,50,12,21,10,10,0.7,0.8
2026-02-22T1400,1622A,116.3034,37.4675,德州市,儿童乐园,颗粒物(PM10),97,144,316,36,30,86,,75,75,7,10,9,11,0.3,0.4
2026-02-22T1400,1624A,116.2992,37.4449,德州市,监理站,颗粒物(PM10),114,178,317,45,48,80,,74,74,10,12,9,11,0.8,0.8
2026-02-22T1400,3066A,116.2722,37.438,德州市,九衢泉纯净水厂,颗粒物(PM10),109,168,320,43,40,89,,79,79,8,11,5,4,0.5,0.5
2026-02-22T1400,3371A,116.3693,37.44,德州市,开发区人民医院,颗粒物(PM10),91,132,301,28,29,80,,71,71,11,12,10,10,0.4,0.4
2026-02-22T1400,3511A,116.5687,37.3331,德州市,陵城艺术中心,颗粒物(PM10),57,63,305,15,32,81,,68,68,5,5,5,8,0.4,0.5
2026-02-22T1400,4292A,116.352738,37.420875,德州市,新河东路,颗粒物(PM10),92,134,289,35,30,81,,73,73,6,8,11,12,0.6,0.6
2026-02-22T1400,2621A,99.7054,27.8319,迪庆藏族自治州,迪庆州站,,35,28,34,23,22,110,,69,69,6,9,5,5,0.9,0.9
2026-02-22T1400,3180A,99.7122,27.8129,迪庆藏族自治州,质量技术监督局,,37,28,27,18,18,117,,71,71,9,14,5,5,0.7,0.6
2026-02-22T1400,4257A,104.6092,35.5962,定西市,将台街,颗粒物(PM10),171,292,332,80,95,82,,43,43,4,9,11,11,0.4,0.5
2026-02-22T1400,4309A,104.6159,35.5701,定西市,正龙路62号,颗粒物(PM10),189,328,361,81,89,80,,42,41,6,6,9,10,0.5,0.6
2026-02-22T1400,1390A,113.7943,23.0132,东莞市,东城石井,,36,24,31,17,23,113,,82,82,7,12,5,5,0.5,0.6
2026-02-22T1400,1391A,113.7384,22.9659,东莞市,南城西平,,35,23,30,16,22,109,,81,81,8,13,7,6,0.5,0.6
2026-02-22T1400,3319A,113.7283,23.041,东莞市,万江金泰,,39,31,38,27,28,112,,87,87,6,9,6,5,0.7,0.8
2026-02-22T1400,4129A,113.8666,23.1062,东莞市,裕兴路,,32,28,40,16,26,102,,78,78,5,10,6,6,0.7,0.8
2026-02-22T1400,4130A,114.0076,22.9739,东莞市,教育路1号,,35,23,38,14,27,109,,81,81,7,11,5,5,0.5,0.6
2026-02-22T1400,4131A,113.7981,22.8124,东莞市,长怡路1号,,32,23,33,13,20,101,,79,79,7,12,8,8,0.6,0.7
2026-02-22T1400,1666A,118.6612,37.4313,东营市,市环保局,,28,12,204,3,26,89,,80,80,13,17,6,9,0.6,0.6
2026-02-22T1400,3036A,118.6903,37.4337,东营市,开发区管委会,,28,17,193,3,25,89,,80,80,9,13,9,11,0.5,0.6
2026-02-22T1400,3365A,118.5721,37.5654,东营市,垦利区民丰路,,29,12,208,3,25,92,,83,83,8,12,6,9,0.6,0.7
2026-02-22T1400,3498A,118.5063,37.8606,东营市,河口城区,,30,6,214,3,26,95,,89,89,15,17,5,8,0.3,0.4
2026-02-22T1400,3646A,118.4979,37.4623,东营市,胜利站,,27,16,162,3,29,86,,77,77,8,11,6,8,0.4,0.6
2026-02-22T1400,3734A,118.5753,37.4405,东营市,理想之城,,,,224,0,19,89,,81,81,4,10,5,8,0.5,0.6
2026-02-22T1400,1591A,110.0024,39.8127,鄂尔多斯市,综合楼,颗粒物(PM10),60,70,296,3,46,87,,80,80,3,4,5,5,0.2,0.2
2026-02-22T1400,1592A,109.9485,39.8259,鄂尔多斯市,巴音孟克林场办事处,颗粒物(PM10),54,58,297,14,48,87,,79,79,3,4,4,4,0.2,0.2
2026-02-22T1400,1593A,109.7734,39.5987,鄂尔多斯市,康泽苑,颗粒物(PM10),60,70,94,6,65,91,,76,76,3,4,5,5,0.2,0.2
2026-02-22T1400,1594A,109.8121,39.5987,鄂尔多斯市,华泰汽车城,颗粒物(PM10),60,70,335,11,58,96,,80,80,2,3,10,8,0.1,0.3
2026-02-22T1400,1595A,109.9734,39.7884,鄂尔多斯市,奥林花园,颗粒物(PM10),57,63,361,9,47,87,,80,80,8,9,4,3,0.3,0.3
2026-02-22T1400,2436A,114.894,30.3989,鄂州市,市政府,颗粒物(PM10),52,53,43,32,33,101,,57,57,13,21,9,16,0.9,0.9
2026-02-22T1400,2437A,114.8986,30.3714,鄂州市,赵家坝,颗粒物(PM10),51,51,44,29,34,116,,62,62,6,11,13,16,0.9,1
2026-02-22T1400,3654A,114.8093,30.4091,鄂州市,精准医疗中心,细颗粒物(PM2.5),54,48,51,38,36,115,,69,69,7,25,9,28,0.9,1.3
2026-02-22T1400,2454A,109.4978,30.2979,恩施土家族苗族自治州,湖北民院,,47,47,54,30,45,92,,39,39,10,15,7,6,0.9,1
2026-02-22T1400,3549A,109.5061,30.3771,恩施土家族苗族自治州,龙凤新区,细颗粒物(PM2.5),54,46,48,38,39,87,,35,35,9,9,6,7,0.5,0.5
2026-02-22T1400,2499A,108.3411,21.6159,防城港市,沙万,,47,47,40,12,28,67,,42,42,8,14,6,6,0.5,0.7
2026-02-22T1400,2500A,108.3515,21.7733,防城港市,防城档案局,,48,48,37,22,32,66,,34,34,5,8,5,5,0.5,0.6
2026-02-22T1400,2501A,108.3506,21.6414,防城港市,大海花园,,45,45,36,16,34,74,,44,44,6,12,6,6,0.5,0.7
2026-02-22T1400,1371A,113.1293,23.0065,佛山市,湾梁,,33,27,33,23,29,105,,71,71,5,7,/,/,/,/
2026-02-22T1400,1372A,113.1082,23.0477,佛山市,华材职中,,38,29,34,26,27,105,,81,81,6,8,6,6,0.4,0.4
2026-02-22T1400,1373A,113.1439,23.045,佛山市,南海气象局,,33,32,35,18,27,104,,79,79,4,8,/,/,/,/
2026-02-22T1400,1374A,113.2879,22.8094,佛山市,顺德苏岗,,32,28,42,22,27,99,,77,77,8,9,/,/,0.7,0.7
2026-02-22T1400,1376A,112.8384,22.8678,佛山市,高明孔堂,,31,22,32,18,23,99,,70,70,4,6,/,/,/,/
2026-02-22T1400,1377A,112.8835,23.1584,佛山市,三水监测站,,33,31,32,23,27,102,,76,76,5,8,1,2,0.4,0.5
2026-02-22T1400,1378A,112.8668,23.185,佛山市,三水云东海,,34,30,40,22,26,108,,73,73,7,11,/,/,/,/
2026-02-22T1400,3625A,113.2568,22.7629,佛山市,容桂街道办,,27,27,28,18,22,81,,68,68,4,6,/,/,/,/
2026-02-22T1400,1282A,119.2681,26.0506,福州市,师大,,37,37,48,25,35,108,,73,73,7,12,4,4,0.6,0.7
2026-02-22T1400,1283A,119.2983,26.1028,福州市,五四北路,,40,30,49,28,40,104,,75,75,8,14,5,6,0.6,0.6
2026-02-22T1400,1284A,119.2648,26.0769,福州市,杨桥西路,,42,33,48,29,38,107,,73,73,7,14,4,5,/,/
2026-02-22T1400,3048A,119.5799,26.0937,福州市,九龙,细颗粒物(PM2.5),59,47,42,42,35,116,,68,68,11,13,5,4,0.6,0.6
2026-02-22T1400,3526A,119.5188,25.9666,福州市,吴航,,46,46,47,31,36,109,,66,66,14,17,5,5,0.6,0.6
2026-02-22T1400,4104A,119.3106,26.0648,福州市,路通桥巷6号,颗粒物(PM10),51,51,49,33,37,115,,74,74,11,13,/,/,/,/
2026-02-22T1400,1755A,123.7974,41.8494,抚顺市,望花区,颗粒物(PM10),199,348,198,14,29,85,,78,78,4,13,3,17,0.6,0.7
2026-02-22T1400,1756A,123.9161,41.8827,抚顺市,顺城区,颗粒物(PM10),126,201,131,18,36,82,,79,79,7,13,7,13,0.5,0.7
2026-02-22T1400,1757A,124.0437,41.8615,抚顺市,东洲区,颗粒物(PM10),189,328,165,13,23,76,,72,72,6,10,7,11,0.4,0.5
2026-02-22T1400,1758A,123.9246,41.8638,抚顺市,新抚区,颗粒物(PM10),236,375,181,20,32,83,,78,78,6,12,7,10,0.3,0.6
2026-02-22T1400,1759A,124.0972,41.8961,抚顺市,大伙房水库,颗粒物(PM10),150,250,132,14,21,82,,78,78,3,7,9,11,0.4,0.5
2026-02-22T1400,1760A,123.708,41.8386,抚顺市,沈抚新城,颗粒物(PM10),192,334,178,12,24,80,,74,74,3,9,5,10,0.4,0.6
2026-02-22T1400,2377A,116.3544,27.9833,抚州市,市站,,45,43,59,31,48,103,,55,55,2,8,9,7,0.9,1.2
2026-02-22T1400,2378A,116.3562,27.9631,抚州市,血防站,,49,46,55,34,44,96,,46,46,5,18,13,12,1.5,1.6
2026-02-22T1400,2379A,116.3561,28.0007,抚州市,采茶剧团,,43,43,55,22,44,92,,47,47,2,8,13,11,1.4,1.5
2026-02-22T1400,2380A,116.3854,27.9648,抚州市,医学分院,,42,42,51,18,33,93,,48,48,3,10,5,5,1.2,1.3
2026-02-22T1400,2207A,121.6095,41.9978,阜新市,工业园区,颗粒物(PM10),105,160,301,3,33,83,,80,80,1,8,7,11,0.4,0.6
2026-02-22T1400,2208A,121.6567,42.0188,阜新市,长青街,颗粒物(PM10),92,134,225,6,36,94,,92,92,2,9,6,9,0.3,0.5
2026-02-22T1400,2209A,121.6672,42.07,阜新市,农业园区,颗粒物(PM10),130,209,281,7,35,76,,74,74,1,7,5,8,0.4,0.6
2026-02-22T1400,2211A,121.6343,42.0455,阜新市,玉龙新城,颗粒物(PM10),146,241,322,7,40,82,,80,80,3,10,7,13,0.4,0.6
2026-02-22T1400,2301A,115.8276,32.8929,阜阳市,市监测站,颗粒物(PM10),375,480,151,89,43,89,,70,70,7,10,5,6,0.4,0.6
2026-02-22T1400,2303A,115.8551,32.8606,阜阳市,开发区,颗粒物(PM10),485,585,165,84,42,87,,72,72,2,5,5,7,0.4,0.5
2026-02-22T1400,2875A,115.783962,32.889217,阜阳市,阜阳职业技术学院,颗粒物(PM10),404,504,144,74,43,96,,,,8,10,7,8,0.5,0.8
2026-02-22T1400,3468A,115.79,32.8614,阜阳市,市规划展馆,颗粒物(PM10),385,488,136,73,41,101,,76,76,3,7,7,8,0.6,0.9
2026-02-22T1400,3469A,115.835101,32.918568,阜阳市,枣园社区,颗粒物(PM10),458,558,149,88,43,85,,66,66,6,9,7,9,0.3,0.5
2026-02-22T1400,2669A,102.9097,34.9841,甘南藏族自治州,州政府,,36,36,85,3,31,78,,38,38,8,13,8,8,0.3,0.6
2026-02-22T1400,3380A,102.8915,34.9618,甘南藏族自治州,甘肃民族师范学院,,,51,83,30,18,82,,60,60,13,11,,8,0.4,0.3
2026-02-22T1400,2570A,101.96,30.048,甘孜藏族自治州,水桥子,,,11,8,3,5,82,,56,56,,8,7,7,0.3,0.3
2026-02-22T1400,3065A,101.9534,29.9976,甘孜藏族自治州,州环保局,,31,8,8,6,6,99,,80,80,3,3,7,6,0.5,0.4
2026-02-22T1400,2363A,114.9368,25.8663,赣州市,地委,,40,40,51,23,36,113,,61,61,8,23,8,8,1.2,1.3
2026-02-22T1400,2364A,114.946,25.8483,赣州市,气象台,,40,36,50,28,40,115,,60,60,8,23,8,7,0.6,0.6
2026-02-22T1400,2365A,114.932,25.8332,赣州市,市图书馆,,38,27,50,26,35,100,,52,52,4,22,3,5,1.0,1.3
2026-02-22T1400,2366A,114.8905,25.8472,赣州市,华坚鞋城,,42,40,54,29,42,101,,50,50,8,23,6,6,0.6,0.7
2026-02-22T1400,3109A,115.0094,25.8614,赣州市,赣县区卫计委,,42,39,53,29,39,118,,72,72,7,20,8,8,0.7,0.8
2026-02-22T1400,2684A,106.2753,36.0057,固原市,监测站,颗粒物(PM10),205,353,478,90,113,75,,65,60,4,8,6,8,0.4,0.5
2026-02-22T1400,2685A,106.2384,36.0189,固原市,新区,颗粒物(PM10),191,331,456,86,115,75,,62,56,5,10,6,7,0.4,0.5
2026-02-22T1400,2544A,106.6307,30.4577,广安市,市委,细颗粒物(PM2.5),115,91,101,87,91,103,,59,59,17,37,12,8,,1.2
2026-02-22T1400,2545A,106.6266,30.4662,广安市,友谊中学,细颗粒物(PM2.5),85,85,93,63,66,110,,58,58,16,27,12,8,1.1,1.1
2026-02-22T1400,2547A,106.6386,30.4551,广安市,广电花园,细颗粒物(PM2.5),119,101,95,90,93,97,,56,56,15,28,12,8,0.9,1.1
2026-02-22T1400,2902A,106.6347,30.4868,广安市,北辰小学,细颗粒物(PM2.5),117,92,84,88,81,105,,50,50,15,18,16,12,1.0,0.9
2026-02-22T1400,2524A,105.8211,32.4444,广元市,老城,颗粒物(PM10),93,135,80,63,59,80,,40,40,25,30,15,8,1.0,0.9
2026-02-22T1400,2526A,105.8629,32.429,广元市,监测站,细颗粒物(PM2.5),75,94,60,55,47,80,,42,42,23,20,22,12,0.9,0.8
2026-02-22T1400,3617A,105.8047,32.4167,广元市,经开区,细颗粒物(PM2.5),75,96,76,55,58,71,,32,32,30,31,28,14,1.2,1
2026-02-22T1400,1345A,113.2346,23.1423,广州市,广雅中学,,30,24,34,20,24,94,,72,72,5,10,2,3,0.6,0.5
2026-02-22T1400,1346A,113.2611,23.105,广州市,市五中,,36,28,34,19,24,114,,82,82,7,11,6,6,/,/
2026-02-22T1400,1348A,113.3477,23.0916,广州市,广东商学院,,35,23,32,21,29,110,,70,70,7,11,5,6,0.8,0.8
2026-02-22T1400,1349A,113.4332,23.105,广州市,市八十六中,,38,24,49,19,20,121,,78,78,12,17,4,5,/,/
2026-02-22T1400,1350A,113.3506,22.9488,广州市,番禺中学,,31,22,49,16,22,99,,74,74,4,9,3,4,0.7,0.8
2026-02-22T1400,1351A,113.2147,23.3918,广州市,花都师范,,43,,37,30,33,102,,70,68,9,15,6,6,0.7,0.7
2026-02-22T1400,1352A,113.2599,23.1329,广州市,市监测站,,32,31,35,22,25,101,,72,72,6,11,1,1,/,/
2026-02-22T1400,1353A,113.5618,23.3119,广州市,九龙镇镇龙,,30,27,38,21,30,89,,67,67,5,10,5,6,0.5,0.6
2026-02-22T1400,1354A,113.2764,23.1544,广州市,麓湖,,35,35,32,22,25,106,,76,76,6,9,4,4,0.5,0.5
2026-02-22T1400,2846A,113.3209,23.1323,广州市,体育西,,33,29,34,20,22,103,,75,75,8,12,5,6,0.7,0.7
2026-02-22T1400,3298A,113.5718,23.5493,广州市,从化街口,,32,27,43,20,33,102,,65,65,6,12,7,8,0.6,0.7
2026-02-22T1400,3299A,113.3463,23.369,广州市,白云竹料,,32,27,42,19,31,100,,70,70,13,13,4,4,0.5,0.6
2026-02-22T1400,3300A,113.2981,23.2365,广州市,白云嘉禾,,34,21,34,16,25,106,,73,73,8,13,5,6,/,/
2026-02-22T1400,3301A,113.4256,23.1716,广州市,黄埔科学城,,36,23,34,19,28,113,,75,75,6,11,4,5,0.6,0.6
2026-02-22T1400,3302A,113.3942,23.0485,广州市,番禺大学城,,40,40,48,15,27,113,,72,72,5,9,8,9,0.5,0.6
2026-02-22T1400,3303A,113.4923,22.8169,广州市,南沙黄阁,,35,33,36,24,25,105,,72,72,10,13,6,6,/,/
2026-02-22T1400,3304A,113.534,22.7893,广州市,南沙街,,,31,35,16,24,106,,67,67,,11,5,5,0.5,0.6
2026-02-22T1400,3443A,113.2905,23.5541,广州市,花都梯面,,24,20,35,14,25,74,,69,58,2,6,5,5,/,/
2026-02-22T1400,3445A,113.786,23.7479,广州市,从化良口,,35,28,36,24,30,92,,64,64,4,8,4,4,/,/
2026-02-22T1400,3446A,113.805,23.2614,广州市,增城荔城,,34,22,38,18,28,107,,80,80,6,11,6,6,0.5,0.5
2026-02-22T1400,2506A,109.604387,23.066791,贵港市,江南子站,颗粒物(PM10),53,56,91,36,68,85,,50,50,6,17,7,8,0.6,0.9
2026-02-22T1400,2508A,109.5669,23.1065,贵港市,荷城子站,细颗粒物(PM2.5),52,51,83,36,66,80,,54,54,10,20,8,8,0.6,0.9
2026-02-22T1400,3405A,109.5886,23.1172,贵港市,新世纪学校,细颗粒物(PM2.5),52,51,85,36,77,85,,56,56,12,21,/,/,0.6,0.9
2026-02-22T1400,4260A,109.5933,23.095,贵港市,中山路155-3号,细颗粒物(PM2.5),69,66,99,50,76,83,,52,52,8,17,/,/,0.6,0.9
2026-02-22T1400,1439A,106.6863,26.6035,贵阳市,马鞍山,,32,31,30,22,27,40,,46,44,17,10,5,5,/,/
2026-02-22T1400,1441A,106.6241,26.6266,贵阳市,鉴湖路,,41,41,40,15,26,51,,54,52,12,11,6,8,0.6,0.5
2026-02-22T1400,1442A,106.7468,26.6344,贵阳市,燕子冲,,36,36,36,11,25,48,,52,52,17,12,7,6,0.5,0.4
2026-02-22T1400,1443A,106.6556,26.4362,贵阳市,碧云窝,,36,29,34,25,24,53,,57,54,8,7,11,11,/,/
2026-02-22T1400,1445A,106.6963,26.6063,贵阳市,红边门,,36,36,40,19,32,40,,52,48,24,18,8,12,/,/
2026-02-22T1400,1446A,106.7162383,26.56964667,贵阳市,新华路,,41,41,44,14,26,44,,54,49,20,17,12,13,0.4,0.4
2026-02-22T1400,1447A,106.6742,26.542,贵阳市,太慈桥,,26,24,30,18,26,37,,46,42,13,15,4,4,/,/
2026-02-22T1400,4230A,106.688212,26.56952,贵阳市,花果园大街66号,,24,24,28,15,26,40,,50,44,15,13,2,4,/,/
2026-02-22T1400,4231A,106.687268,26.516892,贵阳市,漓江路57号,,36,34,35,25,27,45,,52,48,12,11,9,9,0.6,0.6
2026-02-22T1400,1864A,110.3091,25.2705,桂林市,龙隐路小学,细颗粒物(PM2.5),107,103,100,80,90,20,,8,8,31,27,6,5,1.3,1.3
2026-02-22T1400,1865A,110.2849361,25.22909545,桂林市,八中,颗粒物(PM10),74,98,84,51,46,22,,10,10,30,28,6,6,1.2,1.2
2026-02-22T1400,3531A,110.296,25.1254,桂林市,旅游学院,细颗粒物(PM2.5),102,80,68,76,60,23,,16,16,10,13,6,6,0.9,0.9
2026-02-22T1400,4222A,110.1835,25.2444,桂林市,环湖路276号,细颗粒物(PM2.5),97,73,80,72,75,16,,6,6,21,22,6,6,1.1,1.2
2026-02-22T1400,4301A,110.2803,25.2773,桂林市,信义路13号,细颗粒物(PM2.5),92,91,99,68,80,19,,6,6,19,25,5,5,1.3,1.5
2026-02-22T1400,2674A,100.2262,34.4854,果洛藏族自治州,玛沁县大武镇,,26,22,34,6,10,83,,59,59,1,3,6,13,0.4,0.4
2026-02-22T1400,1130A,126.5557,45.8109,哈尔滨市,松北商大,,49,49,127,18,45,68,,64,63,4,6,7,11,0.5,0.7
2026-02-22T1400,1132A,126.6162,45.719,哈尔滨市,南岗学府路,颗粒物(PM10),64,78,147,15,39,64,,70,70,7,10,6,11,0.5,0.7
2026-02-22T1400,1133A,126.6894,45.7733,哈尔滨市,太平宏伟公园,颗粒物(PM10),69,88,166,3,42,64,,66,64,8,7,6,10,0.5,0.6
2026-02-22T1400,1134A,126.6361,45.7672,哈尔滨市,道外承德广场,颗粒物(PM10),118,186,182,7,41,59,,61,60,11,12,7,13,0.1,0.2
2026-02-22T1400,1136A,126.644,45.7261,哈尔滨市,动力和平路,颗粒物(PM10),72,94,157,10,41,63,,66,64,4,10,2,9,0.6,0.7
2026-02-22T1400,1137A,126.5933,45.7479,哈尔滨市,道里建国路,颗粒物(PM10),51,52,122,9,40,61,,66,63,12,16,8,17,0.1,0.3
2026-02-22T1400,1138A,126.6127,45.6119,哈尔滨市,平房东轻厂,颗粒物(PM10),74,98,102,6,42,50,,47,47,6,18,4,9,0.5,0.6
2026-02-22T1400,1139A,126.5875,45.9827,哈尔滨市,呼兰师专,,22,19,150,14,41,70,,60,58,6,13,8,15,0.3,0.5
2026-02-22T1400,1140A,126.6299,45.6799,哈尔滨市,省农科院,,,76,179,7,41,60,,62,62,4,11,,,0.4,0.5
2026-02-22T1400,4282A,126.6769,45.7379,哈尔滨市,华山路1号,颗粒物(PM10),51,51,177,3,38,65,,65,65,8,12,4,12,0.5,0.7
2026-02-22T1400,4283A,126.9717,45.5356,哈尔滨市,解放大街52号,颗粒物(PM10),102,154,131,12,34,68,,69,66,4,7,3,11,0.4,0.5
2026-02-22T1400,2688A,93.5124,42.8176,哈密市,地区监测站,,,,111,,27,72,,63,54,4,6,,5,0.2,0
2026-02-22T1400,2689A,93.5014,42.8312,哈密市,哈密师范学校,,33,33,81,6,20,73,,55,55,7,11,6,5,0.7,0.6
2026-02-22T1400,2671A,100.9016,36.9464,海北藏族自治州,海晏县西海镇,,30,10,31,6,11,93,,72,72,1,2,10,8,0.4,0.5
2026-02-22T1400,3867A,102.074,36.5056,海东市,平安区公安局北苑,颗粒物(PM10),191,332,337,128,118,72,,47,42,6,7,17,13,0.9,0.7
2026-02-22T1400,4163A,102.0984,36.5119,海东市,滨河路,颗粒物(PM10),230,371,390,116,108,79,,40,40,11,13,17,12,0.7,0.6
2026-02-22T1400,1410A,110.3189,20.0596,海口市,海南大学,,28,28,25,15,14,80,,69,69,2,3,6,6,0.4,0.4
2026-02-22T1400,1411A,110.2827,20.0051,海口市,秀英海南医院,,25,25,27,16,15,74,,60,60,3,8,8,8,0.3,0.3
2026-02-22T1400,1412A,110.3391,19.9979,海口市,海南师范大学,,29,29,29,16,15,81,,66,66,3,4,6,6,0.4,0.4
2026-02-22T1400,1413A,110.3303,20.0359,海口市,龙华路环保局宿舍,,26,25,24,16,15,81,,71,71,4,5,/,/,0.7,0.6
2026-02-22T1400,3539A,110.5111,19.9737,海口市,桂林洋子站,,25,23,25,14,16,77,,63,63,3,5,/,/,/,/
2026-02-22T1400,4134A,110.1952,20.0451,海口市,长滨二路9号,,26,23,22,16,14,81,,64,64,3,3,/,/,/,/
2026-02-22T1400,2673A,100.6158,36.2985,海南藏族自治州,共和县恰卜恰镇,,29,25,75,10,26,90,,63,61,1,7,11,13,0.1,0.3
2026-02-22T1400,2676A,97.373,37.376,海西蒙古族藏族自治州,德令哈市,,34,18,21,13,10,106,,92,92,5,2,23,18,0.4,0.3
2026-02-22T1400,1049A,114.492,36.5712,邯郸市,矿院,细颗粒物(PM2.5),195,334,384,146,130,96,,92,90,2,2,1,3,0.3,0.4
2026-02-22T1400,1050A,114.4839,36.6136,邯郸市,丛台公园,"颗粒物(PM10),细颗粒物(PM2.5)",186,322,362,140,124,95,,92,88,7,6,3,3,0.4,0.4
2026-02-22T1400,3458A,114.7893,36.5592,邯郸市,香泉濮院小区,颗粒物(PM10),399,499,507,111,76,92,,89,85,1,2,1,3,0.5,0.4
2026-02-22T1400,3580A,114.1998,36.4439,邯郸市,峰峰矿区临水派出所,颗粒物(PM10),145,240,314,75,75,95,,94,92,2,2,2,3,0.3,0.3
2026-02-22T1400,4068A,114.5209,36.7697,邯郸市,建安街268号,颗粒物(PM10),218,362,374,132,109,89,,87,84,2,2,4,3,0.4,0.2
2026-02-22T1400,4069A,114.5488,36.6177,邯郸市,丛台东路558号,颗粒物(PM10),249,384,358,161,122,98,,96,92,6,7,2,3,0.4,0.3
2026-02-22T1400,2635A,107.0155,33.0707,汉中市,市监测站,颗粒物(PM10),129,208,98,61,78,91,,48,48,11,23,7,8,0.7,1.1
2026-02-22T1400,2636A,107.0083,33.114,汉中市,鑫源开发区,颗粒物(PM10),130,210,109,64,63,90,,47,47,9,22,6,8,0.5,0.9
2026-02-22T1400,2637A,107.0072,33.0323,汉中市,南郑大河坎水厂,颗粒物(PM10),117,183,83,48,58,91,,45,45,10,17,7,6,0.6,0.9
2026-02-22T1400,1223A,120.2073,30.2111,杭州市,滨江,颗粒物(PM10),57,64,33,29,21,108,,63,63,7,14,8,7,0.6,0.6
2026-02-22T1400,1224A,120.0625,30.2737,杭州市,西溪,颗粒物(PM10),52,53,33,27,22,106,,53,53,3,8,10,8,0.8,0.8
2026-02-22T1400,1226A,120.3417,30.315,杭州市,下沙,,43,38,30,30,21,102,,66,66,10,15,9,9,0.4,0.3
2026-02-22T1400,1227A,120.1252,30.2465,杭州市,卧龙桥,颗粒物(PM10),54,57,28,29,18,108,,55,55,4,14,9,8,0.4,0.3
2026-02-22T1400,1228A,120.1902,30.2691,杭州市,浙江农大,颗粒物(PM10),51,51,32,29,21,116,,65,65,3,14,7,6,0.6,0.6
2026-02-22T1400,1230A,120.1195,30.3121,杭州市,和睦小学,颗粒物(PM10),55,59,40,29,28,107,,56,56,3,17,6,5,0.5,0.6
2026-02-22T1400,1231A,120.3076,30.4146,杭州市,临平镇,颗粒物(PM10),53,56,38,28,23,111,,66,66,6,18,8,6,0.6,0.5
2026-02-22T1400,1232A,120.2753,30.1839,杭州市,城厢镇,,48,39,34,33,22,110,,66,66,6,10,9,8,0.6,0.5
2026-02-22T1400,1233A,120.0883,30.1808,杭州市,云栖,,44,44,28,26,17,105,,46,46,7,20,5,4,0.7,0.7
2026-02-22T1400,3557A,119.9463,30.0496,杭州市,镇二中,颗粒物(PM10),56,62,32,29,24,97,,53,53,7,17,6,5,0.7,0.7
2026-02-22T1400,3558A,119.7184,30.2367,杭州市,市府大楼,颗粒物(PM10),63,76,30,35,23,93,,56,56,6,9,8,7,0.3,0.4
2026-02-22T1400,3656A,120.1554,30.2863,杭州市,消防大队,,45,45,30,30,22,99,,57,57,3,13,8,7,0.7,0.6
2026-02-22T1400,1270A,117.1957,31.7845,合肥市,明珠广场,颗粒物(PM10),192,334,79,53,27,100,,76,76,4,10,7,7,0.5,0.7
2026-02-22T1400,1271A,117.307,31.8765,合肥市,三里街,颗粒物(PM10),190,329,84,43,28,88,,65,65,9,22,6,6,0.5,0.7
2026-02-22T1400,1272A,117.2587,31.8703,合肥市,琥珀山庄,颗粒物(PM10),223,366,90,46,30,92,,68,68,9,29,7,6,0.5,0.8
2026-02-22T1400,1275A,117.2593,31.9376,合肥市,庐阳区,,,,78,48,25,90,,71,71,6,12,5,5,0.8,1
2026-02-22T1400,1276A,117.345251,31.861615,合肥市,瑶海区,颗粒物(PM10),223,366,83,40,22,95,,74,74,12,21,6,6,0.3,0.6
2026-02-22T1400,1277A,117.3033,31.7967,合肥市,包河区,颗粒物(PM10),192,334,84,41,23,89,,73,73,8,19,10,11,0.5,0.8
2026-02-22T1400,1278A,117.278,31.7392,合肥市,滨湖新区,颗粒物(PM10),200,349,83,47,24,87,,70,70,1,13,4,4,0.6,0.8
2026-02-22T1400,1279A,117.1324,31.8395,合肥市,高新区,颗粒物(PM10),233,373,93,45,24,91,,77,77,4,6,5,5,0.5,0.6
2026-02-22T1400,3464A,117.3802,31.9148,合肥市,高教基地,颗粒物(PM10),230,371,86,42,24,105,,73,73,6,14,9,9,0.4,0.6
2026-02-22T1400,4098A,117.2518,31.8404,合肥市,中国科学技术大学,颗粒物(PM10),206,354,84,43,24,105,,82,82,2,9,9,8,0.6,0.8
2026-02-22T1400,3614A,79.9241,37.0878,和田地区,地区环保局,,,134,609,17,85,94,,80,80,2,12,1,3,,
2026-02-22T1400,3615A,79.9132,37.1137,和田地区,市环保局,颗粒物(PM10),98,145,557,13,92,113,,91,91,6,20,3,3,0.6,0.8
2026-02-22T1400,2517A,108.0496,24.6957,河池市,市环保站,细颗粒物(PM2.5),98,90,92,73,78,28,,14,14,11,10,3,3,1.0,1
2026-02-22T1400,4302A,108.0901,24.6945,河池市,上任中路54号,细颗粒物(PM2.5),89,78,91,66,79,21,,10,10,17,19,5,5,0.9,0.9
2026-02-22T1400,1697A,114.6962,23.7538,河源市,东埔,,30,,43,18,34,94,,84,79,4,9,5,5,0.7,0.8
2026-02-22T1400,1698A,114.6895,23.7232,河源市,老城,,30,24,43,15,33,93,,84,77,3,7,5,6,0.5,0.6
2026-02-22T1400,3374A,115.5562,35.089,菏泽市,定陶老年大学,颗粒物(PM10),362,469,309,99,64,97,,80,80,9,15,4,6,0.1,0.4
2026-02-22T1400,4114A,115.4239,35.2593,菏泽市,黄河路600号,颗粒物(PM10),369,475,342,118,73,86,,68,68,4,10,3,5,0.2,0.4
2026-02-22T1400,4115A,115.5025,35.2727,菏泽市,菏泽市人社局,颗粒物(PM10),304,423,278,98,60,87,,68,68,8,15,4,5,0.3,0.5
2026-02-22T1400,4184A,115.479691,35.244011,菏泽市,永昌路1号,颗粒物(PM10),373,478,309,113,69,97,,79,79,4,9,2,4,0.3,0.5
2026-02-22T1400,4193A,115.471542,35.280012,菏泽市,长城路999号,颗粒物(PM10),343,454,329,133,76,89,,70,70,5,10,,13,0.2,0.4
2026-02-22T1400,2514A,111.5264,24.4178,贺州市,环保小区,,43,40,82,30,77,101,,45,45,3,13,4,4,0.4,0.7
2026-02-22T1400,2515A,111.561,24.4074,贺州市,政协大楼,,48,44,77,33,72,100,,40,40,11,27,5,6,0.5,0.8
2026-02-22T1400,3534A,111.4744,24.455,贺州市,西湾,颗粒物(PM10),63,75,108,31,80,87,,34,34,8,18,6,6,0.8,1.2
2026-02-22T1400,2385A,114.17,35.9019,鹤壁市,市监测站,颗粒物(PM10),395,496,268,124,74,86,,90,89,2,2,3,3,0.4,0.4
2026-02-22T1400,2386A,114.2953,35.7512,鹤壁市,市交警支队,颗粒物(PM10),500,640,322,126,69,76,,82,76,4,6,6,4,0.3,0.3
2026-02-22T1400,2387A,114.2877,35.7302,鹤壁市,迎宾馆,颗粒物(PM10),500,764,384,139,73,78,,84,78,6,9,5,3,0.5,0.5
2026-02-22T1400,3474A,114.2616,35.6824,鹤壁市,大新区,颗粒物(PM10),500,718,354,114,68,,,87,,8,8,7,7,0.5,0.4
2026-02-22T1400,3596A,114.1573,35.9607,鹤壁市,南山宾馆,颗粒物(PM10),500,616,368,131,78,88,,93,92,3,2,3,4,0.5,0.5
2026-02-22T1400,2244A,130.2537,47.3416,鹤岗市,哈啤分公司,颗粒物(PM10),79,108,39,28,29,74,,90,78,14,10,17,14,0.5,0.5
2026-02-22T1400,2245A,130.2683,47.3087,鹤岗市,斯达机电,颗粒物(PM10),83,115,48,35,26,79,,88,80,8,10,10,11,0.4,0.4
2026-02-22T1400,2246A,130.3114,47.3388,鹤岗市,东山纸板厂,颗粒物(PM10),83,116,38,37,31,76,,86,78,10,10,14,17,0.6,0.7
2026-02-22T1400,2263A,127.4832,50.2524,黑河市,交通局,,32,31,31,22,18,69,,85,68,16,14,7,6,0.5,0.4
2026-02-22T1400,2264A,127.5146,50.2339,黑河市,环保局,,42,31,41,29,27,62,,85,69,13,9,9,9,0.4,0.3
2026-02-22T1400,1074A,115.6839,37.754,衡水市,电机北厂,颗粒物(PM10),85,119,312,28,65,88,,76,76,7,9,13,7,0.3,0.4
2026-02-22T1400,1075A,115.6303,37.7318,衡水市,市监测站,颗粒物(PM10),95,140,285,34,57,84,,74,74,4,5,6,5,0.3,0.3
2026-02-22T1400,3188A,115.6684,37.7216,衡水市,市城管局,颗粒物(PM10),104,157,346,20,55,86,,75,75,3,4,8,6,0.3,0.3
2026-02-22T1400,3459A,115.599,37.5491,衡水市,地表水厂,颗粒物(PM10),151,251,355,59,59,86,,76,76,2,2,5,5,0.3,0.3
2026-02-22T1400,2457A,112.6209,26.9268,衡阳市,衡阳化工总厂,颗粒物(PM10),52,53,76,30,60,90,,36,36,4,25,12,18,0.9,1.5
2026-02-22T1400,2458A,112.621,26.8957,衡阳市,珠晖区环保局,颗粒物(PM10),53,56,89,26,69,80,,28,28,4,34,6,9,1.0,2.3
2026-02-22T1400,2459A,112.628,26.8654,衡阳市,市委党校,颗粒物(PM10),59,68,73,41,59,90,,36,36,9,23,9,12,1.0,1.6
2026-02-22T1400,2460A,112.6007,26.8977,衡阳市,市监测站,细颗粒物(PM2.5),73,66,103,53,78,83,,32,32,13,30,8,10,0.9,2.3
2026-02-22T1400,2461A,112.5658,26.9013,衡阳市,真空机电公司,颗粒物(PM10),52,54,71,25,57,83,,32,32,4,30,7,12,1.1,1.9
2026-02-22T1400,3399A,112.6703,26.8817,衡阳市,师范学院,颗粒物(PM10),52,53,71,35,49,92,,34,34,2,15,6,6,1.0,1.5
2026-02-22T1400,3038A,103.3757,23.3679,红河哈尼族彝族自治州,州图书馆,,31,22,25,18,20,98,,76,76,2,4,5,6,0.2,0.3
2026-02-22T1400,4154A,103.401,23.3561,红河哈尼族彝族自治州,蒙自市朝阳路,,29,,21,16,19,91,,74,74,3,5,7,8,0.5,0.4
2026-02-22T1400,1090A,111.6506,40.7517,呼和浩特市,呼市一监,,39,39,117,3,27,86,,83,83,5,6,6,6,0.3,0.3
2026-02-22T1400,1094A,111.7516,40.8369,呼和浩特市,如意水处理厂,,42,32,125,29,28,87,,82,82,2,4,8,8,0.2,0.2
2026-02-22T1400,1095A,111.727798,40.806187,呼和浩特市,二十九中,,26,21,152,6,23,82,,75,75,2,2,10,10,0.5,0.5
2026-02-22T1400,1097A,111.717,40.7617,呼和浩特市,化肥厂生活区,,41,41,144,10,34,88,,83,83,1,3,3,4,0.2,0.3
2026-02-22T1400,3699A,111.6519,40.8389,呼和浩特市,海东办,,27,27,95,3,19,86,,80,80,2,3,2,3,0.3,0.3
2026-02-22T1400,4275A,111.591512,40.827312,呼和浩特市,成吉思汗西街8号,,26,24,101,7,20,82,,78,78,2,2,3,4,0.4,0.4
2026-02-22T1400,4276A,111.6597,40.8077,呼和浩特市,公园东路75号,,27,27,108,3,20,81,,77,77,5,6,5,6,0.4,0.4
2026-02-22T1400,4277A,111.5427,40.7846,呼和浩特市,金海路35号,,28,28,155,6,25,86,,81,81,2,3,5,5,0.5,0.5
2026-02-22T1400,3061A,119.7511,49.1576,呼伦贝尔市,国华电力东,颗粒物(PM10),52,53,65,11,12,81,,79,79,11,12,5,5,0.4,0.4
2026-02-22T1400,4279A,119.7569,49.2222,呼伦贝尔市,伊敏大街东7号,,35,35,39,10,13,71,,70,70,6,7,6,6,0.3,0.3
2026-02-22T1400,1250A,120.075,30.867,湖州市,城西水厂,颗粒物(PM10),76,102,41,52,28,125,,74,74,12,25,8,6,0.7,0.4
2026-02-22T1400,2873A,120.083,30.8929,湖州市,仁皇山新区,细颗粒物(PM2.5),79,104,40,58,27,120,,83,83,12,20,8,5,0.8,0.5
2026-02-22T1400,2907A,120.1846,30.8592,湖州市,吴兴区站,细颗粒物(PM2.5),72,76,37,52,28,111,,71,71,6,9,8,5,1.0,0.7
2026-02-22T1400,3562A,120.4146,30.8538,湖州市,南浔区站,颗粒物(PM10),73,96,38,51,27,117,,80,80,8,11,10,8,1.0,0.6
2026-02-22T1400,1607A,120.904878,40.721091,葫芦岛市,龙港区,,28,28,96,3,48,84,,76,76,2,13,5,8,0.3,0.6
2026-02-22T1400,1608A,120.8382,40.7521,葫芦岛市,化工街,,34,34,109,12,46,74,,67,67,6,17,10,24,0.2,0.5
2026-02-22T1400,1609A,120.8339,40.7078,葫芦岛市,新区,,26,24,97,3,46,81,,77,77,5,17,6,8,0.4,0.6
2026-02-22T1400,1610A,120.8697,40.7679,葫芦岛市,东城区,,34,34,102,3,48,83,,77,77,5,17,6,10,0.3,0.7
2026-02-22T1400,2483A,109.9297,27.5383,怀化市,河西地税局,,,44,44,28,34,84,,32,32,,10,2,2,/,/
2026-02-22T1400,2484A,109.9783,27.5342,怀化市,市四医院,,50,50,46,20,36,81,,31,31,9,13,7,8,0.5,0.6
2026-02-22T1400,2485A,109.9971,27.5579,怀化市,监测楼,,40,37,47,28,38,81,,33,33,7,13,4,4,0.1,0.2
2026-02-22T1400,1210A,119.0566,33.5991,淮安市,钵池山,颗粒物(PM10),377,481,148,69,38,87,,67,67,9,14,10,13,0.4,0.7
2026-02-22T1400,1211A,119.0083,33.578,淮安市,北京南路,颗粒物(PM10),388,490,159,67,41,82,,61,61,6,17,8,15,0.5,0.9
2026-02-22T1400,1212A,118.9938,33.6083,淮安市,市监测站,颗粒物(PM10),377,481,148,72,40,85,,66,66,8,10,10,11,0.6,0.7
2026-02-22T1400,1213A,119.135,33.5038,淮安市,楚州区监测站,颗粒物(PM10),413,513,165,70,42,88,,66,66,6,15,8,7,0.7,0.6
2026-02-22T1400,3426A,118.8757,33.2897,淮安市,新华书店,颗粒物(PM10),334,447,140,63,41,84,,63,63,10,13,9,7,0.7,0.6
2026-02-22T1400,4092A,119.119691,33.550006,淮安市,枚皋中路89号,颗粒物(PM10),333,446,134,75,43,89,,67,67,7,11,11,11,0.4,0.6
2026-02-22T1400,4206A,119.028838,33.631911,淮安市,承德北路606号,颗粒物(PM10),430,530,167,66,38,89,,68,68,5,11,8,11,0.4,0.8
2026-02-22T1400,2282A,116.8005,33.9749,淮北市,监测站,颗粒物(PM10),500,650,227,118,62,93,,77,77,10,13,5,7,0.3,0.5
2026-02-22T1400,2283A,116.8094,33.9008,淮北市,烈山区政府,颗粒物(PM10),500,743,334,162,71,93,,73,73,3,13,4,6,0.2,0.4
2026-02-22T1400,4017A,116.7926,33.9534,淮北市,市博物馆,颗粒物(PM10),500,626,256,109,62,87,,73,73,7,13,1,5,0.3,0.6
2026-02-22T1400,4100A,116.8322,33.9884,淮北市,杜集区第一实验学校,颗粒物(PM10),500,697,311,122,65,93,,72,72,8,12,7,9,0.3,0.7
2026-02-22T1400,2277A,116.8304,32.7726,淮南市,潘集区政府,颗粒物(PM10),406,506,171,71,41,91,,67,67,4,12,6,15,0.2,0.4
2026-02-22T1400,2279A,116.8569,32.5949,淮南市,谢家集区政府,颗粒物(PM10),308,426,146,61,35,96,,74,74,3,9,8,9,0.4,0.5
2026-02-22T1400,2280A,116.8279,32.6333,淮南市,八公山区政府,颗粒物(PM10),368,474,152,67,37,96,,79,73,6,7,6,7,0.3,0.4
2026-02-22T1400,2894A,117.0561,32.6536,淮南市,经济技术开发区消防队,颗粒物(PM10),495,595,158,61,34,90,,69,67,11,17,5,7,0.4,0.5
2026-02-22T1400,3329A,117.011,32.5891,淮南市,山南新区,颗粒物(PM10),500,678,195,63,36,99,,76,76,7,13,7,8,0.3,0.4
2026-02-22T1400,4209A,117.003137,32.644456,淮南市,国庆中路369号,颗粒物(PM10),285,409,118,66,37,91,,64,64,4,11,8,10,0.4,0.5
2026-02-22T1400,2446A,114.9021,30.474,黄冈市,职工中心,颗粒物(PM10),55,59,42,34,35,112,,64,64,6,9,8,5,0.6,0.6
2026-02-22T1400,2929A,114.8858,30.4519,黄冈市,红卫路,颗粒物(PM10),51,52,40,32,34,112,,71,71,8,11,6,4,0.5,0.6
2026-02-22T1400,3398A,114.9134,30.4446,黄冈市,市林业局,颗粒物(PM10),67,84,46,36,34,99,,,,10,13,3,4,0.5,0.5
2026-02-22T1400,2672A,102.02,35.5101,黄南藏族自治州,同仁县隆务镇,,37,37,56,16,18,81,,73,70,2,2,9,9,0.2,0.2
2026-02-22T1400,2295A,118.2905,29.6965,黄山市,延安路89号,,45,45,26,24,19,95,,46,46,3,6,5,4,0.5,0.5
2026-02-22T1400,2297A,118.1369,30.2755,黄山市,黄山区政府5号楼,,,,59,23,37,105,,52,52,3,5,4,3,0.5,0.6
2026-02-22T1400,4210A,118.335445,29.720283,黄山市,滨江东路7-2号,颗粒物(PM10),63,76,40,21,21,99,,50,50,4,8,/,/,/,/
2026-02-22T1400,2423A,115.0547,30.2332,黄石市,沈家营,,41,41,45,27,30,120,,81,81,2,13,98,34,0.7,1.1
2026-02-22T1400,2426A,114.899,30.211,黄石市,铁山,颗粒物(PM10),55,59,45,24,31,106,,62,62,1,19,8,13,0.8,0.7
2026-02-22T1400,2427A,115.0259,30.2108,黄石市,团城山,,38,38,48,19,31,92,,49,49,12,24,7,8,0.7,1.2
2026-02-22T1400,3149A,115.0174,30.1591,黄石市,笔架山北路,颗粒物(PM10),54,58,61,18,38,104,,57,57,5,15,10,15,1.0,1.1
2026-02-22T1400,4185A,115.078022,30.21118,黄石市,磁湖东路29号,,42,41,48,29,39,104,,54,54,3,20,4,8,1.0,1.5
2026-02-22T1400,1392A,114.4181,23.0528,惠州市,河南岸金山湖子站,,30,18,39,16,30,95,,77,77,4,7,6,6,0.6,0.7
2026-02-22T1400,1393A,114.4055,23.0824,惠州市,下埔横江三路子站,,32,17,42,11,29,100,,89,89,4,8,6,7,0.6,0.7
2026-02-22T1400,1395A,114.4645,22.7832,惠州市,惠阳区承修路船湖子站,,30,21,41,16,29,95,,77,77,6,9,6,6,0.5,0.6
2026-02-22T1400,1396A,114.5316,22.7423,惠州市,大亚湾管委会子站,,30,23,40,17,28,93,,72,72,6,10,6,7,0.5,0.6
2026-02-22T1400,3314A,114.4334,22.8134,惠州市,惠阳秋长,,34,22,38,13,28,107,,85,85,5,9,/,/,/,/
2026-02-22T1400,3452A,114.6521,22.7755,惠州市,大亚湾霞涌,,44,40,39,23,27,138,,95,95,28,10,/,/,/,/
2026-02-22T1400,4300A,114.4089,23.1147,惠州市,文华一路1号,,31,16,39,12,29,98,,84,84,5,9,/,/,/,/
2026-02-22T1400,2240A,130.9618,45.2926,鸡西市,环保局,颗粒物(PM10),78,105,76,16,45,77,,65,60,8,18,6,10,0.4,0.6
2026-02-22T1400,2243A,130.9294,45.2959,鸡西市,第一中学,颗粒物(PM10),79,107,64,20,41,78,,73,70,5,13,5,9,0.4,0.5
2026-02-22T1400,3707A,131.0069,45.2988,鸡西市,欧美日汽修厂,颗粒物(PM10),81,111,70,17,42,72,,61,55,6,16,8,11,0.4,0.6
2026-02-22T1400,2367A,114.9753,27.0803,吉安市,红声器材厂,,36,36,62,21,44,81,,32,32,6,21,8,8,0.6,0.8
2026-02-22T1400,2369A,114.9903,27.1313,吉安市,市环境监测站,,36,36,45,21,34,84,,38,38,5,16,8,8,/,/
2026-02-22T1400,2370A,115.009527,27.096792,吉安市,青原区法院,,42,42,51,18,37,85,,35,35,7,23,7,8,0.6,0.8
2026-02-22T1400,1772A,126.54,43.8622,吉林市,哈达湾,颗粒物(PM10),145,240,133,17,33,72,,74,72,4,8,9,10,0.3,0.8
2026-02-22T1400,1773A,126.5843,43.8358,吉林市,东局子,颗粒物(PM10),124,198,124,17,35,75,,72,72,4,7,3,7,0.4,0.5
2026-02-22T1400,1774A,126.5051,43.8243,吉林市,电力学院,颗粒物(PM10),144,238,130,17,35,77,,74,74,5,8,4,7,0.4,0.5
2026-02-22T1400,1775A,126.6133,43.8971,吉林市,江北,颗粒物(PM10),122,193,129,13,35,74,,72,72,5,7,6,9,0.2,0.3
2026-02-22T1400,1776A,126.5549,43.8304,吉林市,江南公园,颗粒物(PM10),129,207,121,16,35,69,,68,67,3,5,5,8,0.4,0.6
2026-02-22T1400,2868A,126.4737,43.953,吉林市,九站,颗粒物(PM10),185,319,150,19,33,71,,70,70,5,7,8,10,0.4,0.5
2026-02-22T1400,1299A,116.9866,36.6118,济南市,科干所,颗粒物(PM10),95,139,195,29,38,83,,74,74,5,8,4,7,0.4,0.5
2026-02-22T1400,1300A,116.9379,36.6652,济南市,农科所,颗粒物(PM10),94,137,215,35,43,86,,75,75,6,9,4,6,0.5,0.6
2026-02-22T1400,1301A,117.1265,36.6736,济南市,开发区,颗粒物(PM10),99,147,201,31,31,90,,82,82,8,11,4,4,0.4,0.4
2026-02-22T1400,1303A,117.0616,36.6865,济南市,省种子仓库,颗粒物(PM10),100,149,224,31,34,89,,77,77,6,10,4,6,0.5,0.6
2026-02-22T1400,1304A,116.9495185,36.644937,济南市,机床二厂,颗粒物(PM10),101,151,231,30,34,89,,78,78,3,7,3,6,0.4,0.5
2026-02-22T1400,1305A,117.0496,36.6629,济南市,市监测站,颗粒物(PM10),97,144,226,33,42,89,,79,79,8,11,3,4,0.3,0.4
2026-02-22T1400,1306A,116.7674,36.5458,济南市,长清党校,颗粒物(PM10),122,193,243,35,37,80,,72,72,5,11,3,5,0.5,0.6
2026-02-22T1400,1961A,117.5323,36.6865,济南市,东山小学,颗粒物(PM10),73,95,210,16,28,86,,78,78,6,10,3,4,0.3,0.3
2026-02-22T1400,3059A,117.7181,36.205,济南市,泰兴公司,颗粒物(PM10),81,112,210,22,50,91,,85,85,3,18,8,11,0.7,0.6
2026-02-22T1400,3064A,117.6861,36.2172,济南市,莱芜战役纪念馆,颗粒物(PM10),76,102,187,15,37,84,,77,77,4,12,5,8,0.4,0.6
2026-02-22T1400,3494A,117.1673,36.9782,济南市,济阳区政府,颗粒物(PM10),69,88,223,19,33,77,,69,69,2,7,6,8,0.1,0.2
2026-02-22T1400,3495A,117.1168,36.6299,济南市,锦屏中学,颗粒物(PM10),91,132,225,36,37,88,,79,79,9,10,5,6,0.4,0.5
2026-02-22T1400,4108A,117.7107,36.2385,济南市,山财大街5号,颗粒物(PM10),81,112,199,18,40,85,,79,79,6,12,10,13,0.5,0.7
2026-02-22T1400,4109A,116.9744,36.6889,济南市,无影山路12号,颗粒物(PM10),80,110,206,25,34,85,,74,74,6,10,3,5,0.4,0.5
2026-02-22T1400,1653A,116.6229,35.4288,济宁市,火炬城,颗粒物(PM10),180,309,240,74,54,82,,74,74,5,8,3,6,0.3,0.5
2026-02-22T1400,3500A,116.5808,35.3703,济宁市,北湖一中,颗粒物(PM10),180,309,231,63,48,84,,75,75,7,8,6,10,0.3,0.5
2026-02-22T1400,3501A,116.8251,35.5592,济宁市,服务中心,颗粒物(PM10),194,337,243,75,58,86,,75,75,7,14,1,5,0,0.3
2026-02-22T1400,3678A,116.5907,35.4054,济宁市,市第七中学,颗粒物(PM10),189,328,267,68,54,89,,78,78,8,11,2,8,0.3,0.5
2026-02-22T1400,4111A,116.6075,35.4566,济宁市,任和路,颗粒物(PM10),181,311,252,75,56,86,,74,74,5,10,4,7,0.4,0.7
2026-02-22T1400,4112A,116.5648,35.3921,济宁市,文体南路1号,颗粒物(PM10),177,304,256,62,56,91,,80,80,1,7,2,7,0.1,0.3
2026-02-22T1400,2255A,130.2749,46.8028,佳木斯市,佳纺,颗粒物(PM10),98,145,57,12,32,72,,57,57,2,19,5,8,0.3,0.6
2026-02-22T1400,2257A,130.3258,46.7975,佳木斯市,环保局,颗粒物(PM10),98,146,50,18,27,75,,57,54,4,19,8,10,0.2,0.5
2026-02-22T1400,4285A,130.363,46.806,佳木斯市,顺和街,颗粒物(PM10),101,152,47,17,30,69,,67,49,8,16,7,9,0.2,0.4
2026-02-22T1400,4286A,130.3952,46.8268,佳木斯市,长安路196号,颗粒物(PM10),110,170,45,17,22,75,,62,55,4,12,3,6,0.3,0.4
2026-02-22T1400,1252A,120.7439,30.778,嘉兴市,清河小学,细颗粒物(PM2.5),67,70,45,48,24,118,,76,76,10,19,8,6,0.7,0.5
2026-02-22T1400,1253A,120.7261,30.7477,嘉兴市,嘉兴学院,颗粒物(PM10),66,82,42,38,25,121,,70,70,10,18,8,6,0.8,0.8
2026-02-22T1400,2872A,120.7845,30.7524,嘉兴市,南湖区残联,细颗粒物(PM2.5),62,64,39,44,26,118,,75,75,11,17,7,5,0.7,0.5
2026-02-22T1400,3407A,120.6915,30.7741,嘉兴市,秀洲住建,颗粒物(PM10),60,69,38,39,22,124,,76,76,12,18,10,8,0.9,0.6
2026-02-22T1400,1945A,98.291,39.7705,嘉峪关市,气象局,颗粒物(PM10),202,351,444,89,83,88,,61,61,13,12,27,11,1.2,0.6
2026-02-22T1400,2884A,98.2672,39.7978,嘉峪关市,酒钢宾馆,颗粒物(PM10),195,339,408,96,81,68,,56,49,29,13,76,22,4.0,1
2026-02-22T1400,3248A,98.2644,39.7723,嘉峪关市,雄关区,颗粒物(PM10),158,265,294,86,76,81,,45,45,21,24,24,11,1.8,0.8
2026-02-22T1400,1383A,113.1063,22.6058,江门市,北街,,34,34,32,14,23,101,,76,76,3,6,/,/,/,/
2026-02-22T1400,1384A,113.073,22.5835,江门市,西区,,31,22,35,17,24,99,,80,80,9,10,/,/,/,/
2026-02-22T1400,1385A,113.0218,22.531,江门市,圭峰西,,28,17,32,16,22,88,,73,73,6,7,/,/,/,/
2026-02-22T1400,1386A,113.0826,22.5947,江门市,东湖,,31,25,33,13,25,99,,77,77,6,7,7,7,0.4,0.5
2026-02-22T1400,3311A,113.1077,22.5647,江门市,江海富民,,,43,49,17,24,100,,81,81,,13,/,/,0.4,0.4
2026-02-22T1400,3449A,113.0496,22.4669,江门市,新会银湖,,30,30,32,13,22,91,,65,65,7,13,6,6,0.4,0.4
2026-02-22T1400,3335A,113.3137,35.2643,焦作市,马村街道办,颗粒物(PM10),170,290,283,57,53,90,,91,91,5,5,4,5,0.1,0.2
2026-02-22T1400,3336A,113.2464,35.2374,焦作市,焦作技师学院,颗粒物(PM10),170,289,309,76,79,88,,87,87,6,7,3,5,0,0.1
2026-02-22T1400,3477A,113.1656,35.2536,焦作市,中站许衡医院,颗粒物(PM10),165,279,285,61,56,100,,99,99,5,6,6,7,0.2,0.4
2026-02-22T1400,3981A,113.2456,35.18,焦作市,原李万街道办,颗粒物(PM10),173,296,318,60,59,95,,94,94,4,4,6,8,0.2,0.3
2026-02-22T1400,4264A,113.234,35.219,焦作市,新安路1731号,颗粒物(PM10),165,279,300,61,58,97,,96,96,5,6,5,7,0.5,0.5
2026-02-22T1400,4295A,113.2722,35.2121,焦作市,人民路3066号,颗粒物(PM10),169,288,315,64,62,114,,,,4,5,3,5,0.5,0.5
2026-02-22T1400,1708A,116.3701,23.5345,揭阳市,新兴,颗粒物(PM10),52,54,71,33,55,104,,75,75,7,14,8,8,0.7,0.8
2026-02-22T1400,1709A,116.3261,23.5442,揭阳市,西马,颗粒物(PM10),55,60,76,38,53,110,,74,74,4,10,8,8,0.7,0.8
2026-02-22T1400,1710A,116.361,23.5627,揭阳市,东兴,颗粒物(PM10),62,74,67,39,50,112,,78,78,9,12,4,4,/,/
2026-02-22T1400,1711A,116.4151,23.5295,揭阳市,渔湖,颗粒物(PM10),61,72,71,31,56,121,,87,87,7,12,4,5,/,/
2026-02-22T1400,3320A,116.4028,23.5699,揭阳市,曲溪,,48,48,68,32,51,128,,87,87,8,13,4,4,0.8,0.9
2026-02-22T1400,1944A,102.1691,38.5166,金昌市,天庆家园,颗粒物(PM10),216,361,493,80,90,105,,85,85,8,7,136,17,0.6,0.6
2026-02-22T1400,4022A,102.1648,38.5369,金昌市,金川区人防中心,颗粒物(PM10),213,359,512,88,95,100,,83,83,6,4,105,18,0.4,0.4
2026-02-22T1400,4239A,102.193042,38.531887,金昌市,长春路96号,颗粒物(PM10),194,337,489,81,94,84,,76,75,9,7,50,20,0.5,0.4
2026-02-22T1400,1262A,119.6478,29.0773,金华市,十五中,,30,24,33,18,24,96,,62,62,2,9,4,4,0.7,0.7
2026-02-22T1400,1263A,119.6859,29.1032,金华市,监测站,,26,24,29,16,19,81,,42,42,7,12,4,3,0.7,0.6
2026-02-22T1400,3659A,119.656,29.1132,金华市,气象局,,27,24,41,16,29,86,,44,44,5,24,3,2,0.9,0.8
2026-02-22T1400,1767A,121.1114,41.0879,锦州市,南山,,43,43,104,6,32,89,,87,87,5,11,6,8,0.5,0.7
2026-02-22T1400,1768A,121.060361,40.842794,锦州市,开发区,,36,36,122,3,36,88,,81,81,3,15,5,12,0.4,0.7
2026-02-22T1400,1769A,121.1836,41.1118,锦州市,百股街道,,34,34,121,6,44,87,,86,85,3,14,4,7,0.4,0.8
2026-02-22T1400,1770A,121.1176,41.1224,锦州市,天安街道,,37,37,128,3,38,90,,86,86,6,14,6,8,0.4,0.8
2026-02-22T1400,1771A,121.1303,41.1385,锦州市,北湖公园,,31,31,113,3,36,92,,89,89,4,11,4,7,0.5,0.6
2026-02-22T1400,2160A,112.8496,35.5051,晋城市,自来水公司,颗粒物(PM10),147,244,330,44,67,91,,89,89,2,8,3,5,0.3,0.4
2026-02-22T1400,2162A,112.8509,35.4886,晋城市,市环保局,颗粒物(PM10),142,233,297,68,84,97,,95,95,7,12,2,4,0.1,0.2
2026-02-22T1400,3620A,112.8258,35.4804,晋城市,泽州一中,颗粒物(PM10),189,328,346,58,66,96,,94,94,2,4,3,3,0.4,0.4
2026-02-22T1400,4078A,112.8246,35.5152,晋城市,前书院路,颗粒物(PM10),160,270,396,54,68,83,,82,82,2,6,5,6,0.1,0.2
2026-02-22T1400,4079A,112.8864,35.4773,晋城市,祥云街666号,颗粒物(PM10),156,261,361,60,88,95,,94,94,4,6,5,6,0.1,0.2
2026-02-22T1400,2174A,112.6992,37.6984,晋中市,榆次区政府,颗粒物(PM10),142,234,594,66,124,89,,85,84,4,4,7,7,0.2,0.2
2026-02-22T1400,2865A,112.7195,37.683,晋中市,榆次三中,颗粒物(PM10),161,271,712,68,99,91,,88,86,1,2,8,7,0.1,0.1
2026-02-22T1400,4080A,112.7375,37.7215,晋中市,广安街188号,颗粒物(PM10),82,114,553,26,106,95,,90,89,1,2,7,7,0.2,0.1
2026-02-22T1400,4200A,112.7478,37.6954,晋中市,迎宾街26号,颗粒物(PM10),137,224,610,63,127,88,,85,84,3,4,8,7,0.3,0.3
2026-02-22T1400,2439A,112.2012,31.048,荆门市,竹园小学,颗粒物(PM10),81,111,71,44,50,94,,64,64,10,20,63,4,2.2,2.3
2026-02-22T1400,2440A,112.1968,30.9892,荆门市,掇刀,颗粒物(PM10),81,111,74,42,56,104,,77,77,8,20,8,7,0.6,0.9
2026-02-22T1400,3012A,112.1849,31.0361,荆门市,西山林语,颗粒物(PM10),84,118,62,40,42,98,,68,68,8,11,6,5,0.6,0.8
2026-02-22T1400,3547A,112.1631,31.0134,荆门市,龙泉中学南校,,,,,,,,,,,,,,,,
2026-02-22T1400,4124A,112.2213,31.0654,荆门市,新台西路6号,颗粒物(PM10),106,162,80,50,62,99,,59,59,4,17,10,11,0.4,0.8
2026-02-22T1400,1844A,112.2493,30.3198,荆州市,市图书馆,细颗粒物(PM2.5),58,42,48,41,42,99,,60,60,6,19,9,7,0.9,1
2026-02-22T1400,1845A,112.2009,30.3543,荆州市,市委党校,颗粒物(PM10),59,68,58,36,41,92,,49,49,13,25,10,7,0.7,0.8
2026-02-22T1400,3194A,112.2749,30.3124,荆州市,管委会,细颗粒物(PM2.5),62,48,46,44,42,93,,51,51,8,18,11,10,0.8,0.9
2026-02-22T1400,4268A,112.1722,30.3366,荆州市,学苑路85号,细颗粒物(PM2.5),58,53,54,41,45,103,,58,58,6,14,1,2,0.2,0.3
2026-02-22T1400,2343A,117.2114,29.2931,景德镇市,老干部活动中心,,38,38,45,23,33,88,,44,44,4,13,5,6,0.7,0.9
2026-02-22T1400,2344A,117.1893,29.2789,景德镇市,兽医站,,42,42,53,19,38,94,,51,51,6,17,5,4,0.5,0.7
2026-02-22T1400,2346A,117.246,29.2958,景德镇市,陶研所,,39,39,34,24,29,88,,42,42,9,15,4,4,0.6,0.7
2026-02-22T1400,4289A,117.154766,29.256967,景德镇市,青少年活动中心,,32,32,50,20,36,89,,54,54,5,16,4,5,/,/
2026-02-22T1400,1803A,115.9873,29.6816,九江市,十里,颗粒物(PM10),75,100,52,30,40,96,,52,52,5,24,8,8,0.7,1.1
2026-02-22T1400,1804A,115.9583,29.7047,九江市,茅山头,颗粒物(PM10),77,104,58,35,42,103,,56,56,10,33,8,8,0.5,0.8
2026-02-22T1400,1805A,115.9877,29.7295,九江市,西园,颗粒物(PM10),65,80,59,33,41,99,,56,56,17,46,5,7,0.4,0.8
2026-02-22T1400,1808A,115.9112,29.6038,九江市,综合工业园,颗粒物(PM10),93,135,36,25,18,104,,60,60,16,23,8,7,0.5,0.7
2026-02-22T1400,3190A,116.0254,29.6995,九江市,外国语学校,颗粒物(PM10),68,85,43,33,30,94,,56,56,5,22,8,8,0.4,0.5
2026-02-22T1400,4253A,116.010205,29.659402,九江市,莲花大道8号,颗粒物(PM10),84,117,38,36,21,93,,57,57,8,14,4,4,0.3,0.6
2026-02-22T1400,4240A,98.495752,39.733935,酒泉市,玉门东路5号,颗粒物(PM10),322,437,516,98,94,83,,54,54,4,6,14,10,0.4,0.4
2026-02-22T1400,4241A,98.5099,39.7506,酒泉市,北大街108号,颗粒物(PM10),282,407,522,98,108,80,,64,62,4,5,14,10,0.4,0.3
2026-02-22T1400,2698A,76.0071,39.466,喀什地区,巡警大队,颗粒物(PM10),51,52,172,3,29,90,,58,53,4,17,3,4,0.3,0.7
2026-02-22T1400,2699A,75.9756,39.4693,喀什地区,吾办,细颗粒物(PM2.5),52,36,162,36,50,92,,51,51,3,22,4,7,0.2,0.7
2026-02-22T1400,4027A,75.9485,39.4688,喀什地区,老干局,,,,132,,28,92,,55,54,,13,2,4,0.2,0.6
2026-02-22T1400,1824A,114.3389,34.778,开封市,肿瘤医院,颗粒物(PM10),394,495,328,71,55,104,,89,89,12,14,6,7,0.3,0.4
2026-02-22T1400,1826A,114.2884,34.7966,开封市,世纪星幼儿园,颗粒物(PM10),262,393,298,72,50,99,,87,87,13,14,6,7,0.4,0.4
2026-02-22T1400,3147A,114.3434,34.8101,开封市,龙亭公园,颗粒物(PM10),355,464,341,52,43,100,,85,85,14,18,7,8,0.4,0.4
2026-02-22T1400,3210A,114.3645,34.7955,开封市,汴京公园,颗粒物(PM10),473,573,338,52,39,97,,84,84,15,17,4,5,0.1,0.1
2026-02-22T1400,3473A,114.2485,34.8306,开封市,技师学院,颗粒物(PM10),215,360,258,88,58,100,,88,88,12,14,5,7,0.3,0.3
2026-02-22T1400,3592A,114.4518,34.7503,开封市,祥符区生态环境局,颗粒物(PM10),460,560,330,90,55,90,,83,80,9,12,6,6,0.3,0.4
2026-02-22T1400,1951A,84.886,45.6029,克拉玛依市,长征新村,,26,26,18,10,11,66,,70,66,9,4,6,5,0.5,0.4
2026-02-22T1400,1952A,84.8894,45.5827,克拉玛依市,南林小区,,24,24,18,3,1,73,,79,71,1,3,3,2,0.6,0.5
2026-02-22T1400,1954A,84.896,44.3328,克拉玛依市,独山子区,,30,22,73,21,34,80,,64,63,7,11,4,3,0.7,0.7
2026-02-22T1400,1955A,85.6888,46.0909,克拉玛依市,乌尔禾区商贸楼,,25,19,38,3,7,78,,63,61,5,7,8,8,0.2,0.5
2026-02-22T1400,3612A,85.1045,45.6895,克拉玛依市,白碱滩区新站,,,,23,,2,,,76,68,11,11,,9,0.2,0.2
2026-02-22T1400,2697A,76.1457,39.7143,克孜勒苏柯尔克孜自治州,市人民政府,,31,13,200,8,35,98,,95,87,2,3,3,4,0.2,0.2
2026-02-22T1400,3665A,76.1654,39.7157,克孜勒苏柯尔克孜自治州,克州文化中心,,,10,149,,27,96,,92,90,,3,5,5,0.2,0.2
2026-02-22T1400,1450A,102.8203,24.889,昆明市,呈贡新区,,35,22,26,12,15,109,,99,99,3,6,4,6,0.4,0.4
2026-02-22T1400,1452A,102.7253,25.0904,昆明市,龙泉镇,,36,,27,14,18,113,,74,74,2,12,3,5,0.3,0.4
2026-02-22T1400,1453A,102.7267,25.0378,昆明市,东风东路,,36,27,27,14,16,115,,86,86,6,12,6,9,0.4,0.5
2026-02-22T1400,1454A,102.6744,25.0671,昆明市,金鼎山,,36,30,29,13,17,114,,87,87,4,9,3,8,0.5,0.6
2026-02-22T1400,1455A,102.6643,25.0401,昆明市,碧鸡广场,,36,26,27,14,19,115,,90,90,5,12,3,8,0.3,0.4
2026-02-22T1400,3179A,102.7491,25.012,昆明市,官渡区博物馆,,36,29,30,11,18,113,,67,67,6,21,2,4,0.2,0.3
2026-02-22T1400,3375A,102.8016,24.8336,昆明市,青年创业园,,31,16,26,7,15,99,,87,87,2,8,5,5,0.4,0.5
2026-02-22T1400,3550A,102.8,24.9787,昆明市,昆明学院,,37,27,26,22,16,116,,75,75,3,9,5,5,0.3,0.4
2026-02-22T1400,3551A,102.5969,24.6738,昆明市,晋宁区生态环境分局,,32,11,27,7,18,101,,92,92,1,6,3,2,0.3,0.3
2026-02-22T1400,3552A,102.6673,24.9861,昆明市,云天化总部,,35,22,24,7,13,111,,99,99,5,7,8,9,0.3,0.3
2026-02-22T1400,1456A,91.132,29.6515,拉萨市,八廓街,,40,14,15,8,8,128,,96,96,5,10,8,8,0.5,0.5
2026-02-22T1400,1457A,91.1221,29.6748,拉萨市,市环保局,,39,12,20,10,10,122,,88,88,6,15,7,7,0.6,0.7
2026-02-22T1400,1458A,91.0874,29.6476,拉萨市,区监测站,,39,9,12,6,7,122,,91,91,5,14,5,4,0.6,0.6
2026-02-22T1400,1459A,91.1774,29.6541,拉萨市,西藏大学,,39,10,13,6,8,124,,95,95,8,11,4,4,0.4,0.6
2026-02-22T1400,1460A,90.9798,29.6586,拉萨市,区辐射站,,38,13,18,3,11,119,,80,80,4,15,3,4,0.3,0.4
2026-02-22T1400,1461A,91.0831,29.6292,拉萨市,拉萨火车站,,39,8,11,6,8,122,,76,76,5,15,4,4,0.4,0.5
2026-02-22T1400,2520A,109.2203,23.7252,来宾市,来宾技工学校,颗粒物(PM10),56,62,129,29,124,72,,42,42,4,17,8,9,0.5,1.1
2026-02-22T1400,3535A,109.1781,23.7293,来宾市,兴宾区政府,颗粒物(PM10),75,100,122,45,109,87,,51,51,5,15,8,7,0.7,1.1
2026-02-22T1400,4002A,109.2312,23.7428,来宾市,中南小学,颗粒物(PM10),57,64,131,34,127,66,,40,40,6,19,5,6,0.6,1.2
2026-02-22T1400,1479A,103.8309,36.0467,兰州市,铁路设计院,,,,,,,,,,,,,,,,
2026-02-22T1400,3241A,103.7439,36.0841,兰州市,百合公园,颗粒物(PM10),449,549,502,179,157,80,,44,40,16,17,19,9,0.6,0.6
2026-02-22T1400,3242A,103.9613,35.9985,兰州市,和平,颗粒物(PM10),500,624,534,156,132,80,,57,57,8,10,17,11,1.0,0.6
2026-02-22T1400,4236A,103.629272,36.093822,兰州市,庄浪东路808号,颗粒物(PM10),460,560,514,180,153,105,,58,58,22,15,32,17,0.5,0.5
2026-02-22T1400,4237A,103.7251,36.104344,兰州市,安宁西路88号,颗粒物(PM10),500,631,606,175,163,89,,58,48,14,12,23,11,0.5,0.4
2026-02-22T1400,4238A,103.846982,36.067567,兰州市,北滨河东路1号,颗粒物(PM10),433,533,558,178,166,61,,58,37,32,21,16,13,1.0,0.8
2026-02-22T1400,1067A,116.6712,39.5109,廊坊市,药材公司,颗粒物(PM10),61,72,196,12,41,86,,78,78,1,5,3,4,0.3,0.4
2026-02-22T1400,1068A,116.7215,39.5592,廊坊市,开发区,颗粒物(PM10),74,97,202,23,43,91,,82,82,2,5,3,4,0.2,0.3
2026-02-22T1400,1070A,116.7246,39.5273,廊坊市,北华航天学院,颗粒物(PM10),57,64,186,14,33,88,,79,79,2,4,3,4,0.2,0.3
2026-02-22T1400,2919A,116.7022,39.5454,廊坊市,河北工业大学,颗粒物(PM10),60,69,189,17,42,85,,76,76,2,4,3,4,0.2,0.3
2026-02-22T1400,2536A,103.7629,29.5844,乐山市,牛耳桥,细颗粒物(PM2.5),78,68,81,57,60,100,,35,35,17,32,9,6,0.8,0.9
2026-02-22T1400,2537A,103.7501,29.6002,乐山市,市第三水厂,,,72,74,,60,99,,42,42,18,31,7,5,1.0,1
2026-02-22T1400,2538A,103.7571,29.5664,乐山市,市监测站,细颗粒物(PM2.5),83,82,70,61,56,91,,41,38,17,20,11,8,1.0,0.8
2026-02-22T1400,3361A,103.7313,29.563,乐山市,理工大学,细颗粒物(PM2.5),74,70,64,54,54,111,,46,46,10,14,9,5,0.9,0.9
2026-02-22T1400,2599A,100.2497,26.8802,丽江市,丽江古城,,37,36,44,22,36,118,,98,98,9,12,9,7,0.5,0.7
2026-02-22T1400,2600A,100.2203,26.8906,丽江市,市中心,,39,29,39,27,38,122,,101,101,8,11,6,6,0.4,0.5
2026-02-22T1400,1267A,119.9141,28.4513,丽水市,监测站大楼,,28,28,31,15,22,79,,44,44,6,15,4,4,0.4,0.5
2026-02-22T1400,1268A,119.93,28.4589,丽水市,莲都小学,,25,21,30,15,20,80,,46,46,5,12,/,/,/,/
2026-02-22T1400,1269A,119.8794,28.4232,丽水市,余庄前,,25,19,25,12,18,79,,39,39,5,6,4,4,0.5,0.5
2026-02-22T1400,1173A,119.1759,34.5885,连云港市,市环境监测站,颗粒物(PM10),174,298,194,63,48,84,,69,69,8,17,7,8,0.5,0.5
2026-02-22T1400,3000A,119.3577,34.6971,连云港市,德源药业,颗粒物(PM10),135,219,188,34,38,86,,76,76,3,9,6,7,0.5,0.7
2026-02-22T1400,3007A,119.178,34.8442,连云港市,新城一中,颗粒物(PM10),123,196,116,46,52,94,,80,80,9,18,8,10,0.5,0.7
2026-02-22T1400,3008A,119.3607,34.7519,连云港市,胡沟管理处,颗粒物(PM10),79,107,150,14,34,86,,76,76,10,14,11,13,0.7,0.9
2026-02-22T1400,3009A,119.1478,34.5913,连云港市,矿山设计院,颗粒物(PM10),181,312,194,41,40,84,,67,67,14,20,7,8,0.4,0.5
2026-02-22T1400,3434A,119.2414,34.6539,连云港市,工贸学校,颗粒物(PM10),181,312,157,53,45,82,,69,69,8,16,10,11,0.2,0.5
2026-02-22T1400,3664A,119.4171,34.734,连云港市,连云街道,颗粒物(PM10),66,82,101,21,36,82,,82,73,12,13,6,7,0.4,0.7
2026-02-22T1400,2573A,102.2629,27.8981,凉山彝族自治州,西昌市政府,,42,30,27,29,28,105,,72,68,6,8,9,9,0.4,0.5
2026-02-22T1400,2574A,102.2686,27.885,凉山彝族自治州,凉山州政府,,35,30,31,24,24,93,,58,58,7,11,12,11,0.5,0.5
2026-02-22T1400,4229A,102.2342,27.8859,凉山彝族自治州,凯乐南路30号,,31,31,34,20,22,98,,52,52,12,19,12,12,0.4,0.5
2026-02-22T1400,2212A,123.1978,41.2036,辽阳市,宏伟区,颗粒物(PM10),140,229,143,7,25,82,,77,77,3,6,5,7,0.3,0.5
2026-02-22T1400,2213A,123.1684,41.2497,辽阳市,新华园,颗粒物(PM10),149,247,147,8,26,77,,73,73,3,8,5,7,0.5,0.7
2026-02-22T1400,2214A,123.2355,41.2663,辽阳市,滨河路,颗粒物(PM10),128,206,135,7,24,78,,76,76,2,5,4,6,0.4,0.6
2026-02-22T1400,4083A,123.153,41.2874,辽阳市,铁西路150号,颗粒物(PM10),421,521,160,7,25,72,,67,67,4,7,5,8,0.4,0.7
2026-02-22T1400,2227A,125.1359,42.8845,辽源市,环保局,颗粒物(PM10),97,143,99,8,24,74,,74,74,2,5,3,5,0.3,0.4
2026-02-22T1400,4085A,125.0998,42.9134,辽源市,安宁大街333号,颗粒物(PM10),225,367,186,9,28,74,,75,75,3,5,2,6,0.4,0.5
2026-02-22T1400,1625A,115.9789,36.4372,聊城市,区政府,颗粒物(PM10),298,418,323,85,43,90,,78,78,2,7,11,14,0.4,0.6
2026-02-22T1400,3200A,115.9772,36.4986,聊城市,监控中心,颗粒物(PM10),405,505,339,96,51,93,,77,77,7,11,9,11,0.4,0.5
2026-02-22T1400,3513A,116.0443,36.436,聊城市,九州社区,颗粒物(PM10),215,360,332,82,48,96,,82,82,2,4,3,4,0.4,0.5
2026-02-22T1400,4018A,116.0564,36.4609,聊城市,星美广场,颗粒物(PM10),216,361,326,84,53,82,,66,66,2,6,3,5,0.4,0.6
2026-02-22T1400,4113A,116.0091,36.4495,聊城市,利民路,颗粒物(PM10),196,341,296,86,51,91,,77,77,5,8,7,9,0.5,0.6
2026-02-22T1400,2632A,94.3683,29.6373,林芝市,林芝监测站,,33,9,11,8,9,103,,93,93,1,1,4,5,0.4,0.3
2026-02-22T1400,2633A,94.3616,29.6634,林芝市,林芝人民医院,,33,13,13,9,10,105,,84,84,1,1,7,6,0.3,0.2
2026-02-22T1400,2603A,100.0779,23.8981,临沧市,市环保局,,39,39,31,21,25,113,,68,68,2,6,7,7,0.6,0.7
2026-02-22T1400,2604A,100.0894,23.882,临沧市,市气象局,,34,28,36,15,24,108,,68,68,3,5,9,8,0.3,0.5
2026-02-22T1400,1733A,111.5552,36.0791,临汾市,临钢医院,颗粒物(PM10),243,380,535,116,109,98,,91,91,8,9,4,4,0.5,0.5
2026-02-22T1400,1734A,111.4984,36.0734,临汾市,技工学校,颗粒物(PM10),248,383,523,94,120,93,,89,89,6,7,3,3,0.0,0
2026-02-22T1400,1736A,111.5017,36.0857,临汾市,市委,颗粒物(PM10),243,380,511,87,98,95,,91,91,8,7,4,3,0.4,0.4
2026-02-22T1400,3018A,111.5048,36.1015,临汾市,唐尧大酒店,颗粒物(PM10),198,346,476,86,105,93,,90,90,12,8,6,4,0.4,0.4
2026-02-22T1400,4244A,111.4879,36.053,临汾市,启星学校,颗粒物(PM10),213,359,482,78,97,93,,90,90,8,9,4,4,0.4,0.4
2026-02-22T1400,4271A,103.2464,35.6123,临夏回族自治州,滨河东路1号,颗粒物(PM10),468,568,410,185,137,84,,41,41,7,11,13,11,0.6,0.8
2026-02-22T1400,4310A,103.207136,35.599807,临夏回族自治州,新华街21号,颗粒物(PM10),483,583,437,122,95,67,,37,37,4,8,11,12,0.5,0.7
2026-02-22T1400,1618A,118.3429,35.0532,临沂市,沂河小区,颗粒物(PM10),245,381,254,70,56,86,,73,73,6,13,10,14,0.3,0.5
2026-02-22T1400,1619A,118.2962,35.0568,临沂市,鲁南制药厂,颗粒物(PM10),286,410,284,89,69,89,,77,77,10,19,13,17,0.1,0.4
2026-02-22T1400,1620A,118.2793,34.9976,临沂市,新光毛纺厂,颗粒物(PM10),258,390,250,70,57,87,,73,73,8,16,9,13,0.4,0.7
2026-02-22T1400,1621A,118.3955,35.0889,临沂市,河东保险公司,颗粒物(PM10),230,371,228,75,56,93,,77,77,11,19,10,13,0.4,0.6
2026-02-22T1400,3370A,118.3563,35.0215,临沂市,十里堡居委,颗粒物(PM10),282,407,258,73,59,90,,76,76,9,19,9,15,0.4,0.7
2026-02-22T1400,3496A,118.359,35.1067,临沂市,南坊新区,颗粒物(PM10),303,422,258,73,53,98,,81,81,6,15,10,12,0.5,0.6
2026-02-22T1400,3860A,118.3915,35.0297,临沂市,皇山花园小区,颗粒物(PM10),276,403,275,75,60,94,,79,79,9,17,13,18,0.3,0.7
2026-02-22T1400,1870A,109.4854,24.3898,柳州市,柳东小学,细颗粒物(PM2.5),128,113,141,97,136,42,,29,29,12,18,5,7,1.0,1.2
2026-02-22T1400,1871A,109.4109,24.3304,柳州市,环保监测站,细颗粒物(PM2.5),147,133,177,112,159,46,,18,18,17,36,5,7,1.3,1.7
2026-02-22T1400,1872A,109.3886,24.3408,柳州市,河西水厂,细颗粒物(PM2.5),160,129,197,122,197,51,,20,20,14,29,10,10,1.0,1.4
2026-02-22T1400,1873A,109.4263,24.2951,柳州市,市四中,细颗粒物(PM2.5),173,163,189,131,180,45,,19,19,20,35,8,9,1.6,1.9
2026-02-22T1400,1874A,109.396,24.3658,柳州市,市九中,细颗粒物(PM2.5),135,110,188,103,169,46,,18,18,10,28,8,10,1.0,1.3
2026-02-22T1400,1875A,109.4912,24.3164,柳州市,古亭山,细颗粒物(PM2.5),165,146,118,125,125,44,,16,16,18,21,8,7,1.2,1.2
2026-02-22T1400,3402A,109.5422,24.3994,柳州市,市二中,细颗粒物(PM2.5),97,110,166,72,164,46,,17,17,14,24,7,7,0.8,1.1
2026-02-22T1400,2307A,116.5078,31.7369,六安市,监测大楼,颗粒物(PM10),160,270,80,50,33,89,,75,75,4,10,4,4,0.4,0.6
2026-02-22T1400,2308A,116.4738,31.7642,六安市,皖西学院,颗粒物(PM10),195,339,88,47,35,101,,79,79,5,11,5,5,0.3,0.4
2026-02-22T1400,2309A,116.4997,31.7904,六安市,朝阳厂,颗粒物(PM10),144,238,72,54,35,95,,78,78,8,14,6,6,0.3,0.5
2026-02-22T1400,2310A,116.5566,31.7885,六安市,开发区,颗粒物(PM10),319,435,106,44,36,,,79,79,1,9,5,6,0.3,0.6
2026-02-22T1400,2577A,104.8293,26.592,六盘水市,黄土坡,细颗粒物(PM2.5),79,76,40,58,31,57,,51,51,16,13,13,12,1.0,0.7
2026-02-22T1400,2579A,104.8481,26.5898,六盘水市,民中,细颗粒物(PM2.5),90,73,54,67,43,52,,51,51,15,16,9,8,1.1,0.8
2026-02-22T1400,2580A,104.9541,26.5506,六盘水市,双水,细颗粒物(PM2.5),69,80,46,50,29,59,,51,49,11,9,6,6,0.6,0.6
2026-02-22T1400,4151A,104.8899,26.5685,六盘水市,钟山大道中段564号,颗粒物(PM10),79,107,54,51,32,56,,49,49,9,9,8,9,0.8,0.7
2026-02-22T1400,2336A,117.022,25.1031,龙岩市,龙岩市监测站,,38,38,38,23,30,98,,64,64,2,8,7,8,0.7,0.7
2026-02-22T1400,2337A,117.0257,25.0662,龙岩市,闽西职业技术学院,,37,37,36,21,27,96,,68,68,2,5,6,6,0.6,0.6
2026-02-22T1400,2338A,117.0195,25.0306,龙岩市,龙岩学院,,46,46,36,21,27,101,,74,74,4,5,5,5,/,/
2026-02-22T1400,2885A,104.9344,33.3827,陇南市,滨江中学,颗粒物(PM10),93,136,113,58,47,85,,45,45,9,24,5,8,0.7,1.2
2026-02-22T1400,3247A,104.9551,33.3709,陇南市,市总工会,颗粒物(PM10),102,153,100,56,43,85,,50,50,8,15,4,4,0.7,0.8
2026-02-22T1400,2488A,111.9984,27.7346,娄底市,市监测站,,49,49,63,33,47,93,,36,36,11,25,7,8,0.9,1
2026-02-22T1400,2491A,111.9888,27.7035,娄底市,市政府,颗粒物(PM10),53,55,57,29,42,87,,30,30,14,18,7,6,0.6,0.7
2026-02-22T1400,4127A,111.9812,27.7591,娄底市,涟钢职大,,32,28,54,12,38,102,,39,39,9,17,8,7,1.1,1.1
2026-02-22T1400,4128A,112.0303,27.7457,娄底市,娄底体校,,40,38,56,28,41,81,,27,27,3,10,8,6,1.0,0.9
2026-02-22T1400,1894A,105.4427,28.9063,泸州市,小市上码头,细颗粒物(PM2.5),117,113,86,88,66,29,,27,27,32,28,20,7,0.7,0.7
2026-02-22T1400,1895A,105.4241,28.8573,泸州市,兰田宪桥,细颗粒物(PM2.5),99,112,98,74,70,16,,26,24,38,20,15,11,0.9,0.8
2026-02-22T1400,1896A,105.4378,28.8833,泸州市,市环监站,细颗粒物(PM2.5),104,119,95,78,67,,,42,,30,24,14,11,,0.7
2026-02-22T1400,4272A,105.3689,28.7783,泸州市,纳溪中医医院,细颗粒物(PM2.5),109,102,91,82,71,35,,22,19,17,18,8,7,0.9,0.9
2026-02-22T1400,2183A,111.1447,37.5212,吕梁市,环保局,颗粒物(PM10),137,223,719,82,168,85,,70,65,2,4,1,2,0.1,0.1
2026-02-22T1400,2185A,111.1285,37.5338,吕梁市,自来水公司,颗粒物(PM10),141,231,723,51,129,91,,80,76,2,3,3,3,0.1,0.2
2026-02-22T1400,2867A,111.1225,37.5093,吕梁市,马茂庄小学,颗粒物(PM10),147,244,795,60,167,86,,69,64,2,5,1,3,0.1,0.1
2026-02-22T1400,1812A,112.3934,34.6517,洛阳市,市委党校,颗粒物(PM10),212,358,269,98,82,89,,73,73,9,20,7,9,0.5,0.6
2026-02-22T1400,1815A,112.494,34.6883,洛阳市,河南林校,颗粒物(PM10),233,373,309,84,71,93,,88,88,12,18,10,11,0.3,0.4
2026-02-22T1400,1816A,112.3843,34.623,洛阳市,开发区管委会,颗粒物(PM10),283,408,296,94,73,90,,77,77,10,14,10,12,0.4,0.5
2026-02-22T1400,1817A,112.4263,34.6249,洛阳市,市委新办公区,颗粒物(PM10),220,364,272,89,68,94,,80,80,6,13,8,10,0.3,0.4
2026-02-22T1400,3340A,112.6005,34.6323,洛阳市,伊滨,颗粒物(PM10),278,404,313,85,77,92,,86,86,8,11,8,9,0.6,0.6
2026-02-22T1400,3341A,112.495,34.6338,洛阳市,中移产业园,颗粒物(PM10),206,354,314,95,79,91,,84,84,9,15,8,10,0.5,0.6
2026-02-22T1400,3593A,112.5736,34.8993,洛阳市,吉利监测站,颗粒物(PM10),265,395,314,91,74,95,,88,88,7,11,8,9,0.5,0.6
2026-02-22T1400,3635A,112.3678,34.6623,洛阳市,河科大西苑校区,颗粒物(PM10),280,406,305,112,92,97,,79,79,8,18,9,11,0.5,0.6
2026-02-22T1400,3636A,112.4387,34.678,洛阳市,英才小学,颗粒物(PM10),279,405,333,96,87,96,,88,88,14,23,9,12,0.6,0.7
2026-02-22T1400,4214A,112.460027,34.694929,洛阳市,春都路1号院,颗粒物(PM10),313,430,356,98,82,90,,84,84,15,21,8,10,0.5,0.6
2026-02-22T1400,2399A,114.051,33.5721,漯河市,三五一五工厂,颗粒物(PM10),199,348,193,49,53,98,,81,81,8,13,4,6,0.2,0.7
2026-02-22T1400,2400A,114.0055,33.5698,漯河市,漯河大学,颗粒物(PM10),178,305,177,48,52,94,,78,78,8,14,5,7,0.3,0.5
2026-02-22T1400,2401A,114.0134,33.5826,漯河市,市水利局,颗粒物(PM10),194,337,202,55,55,96,,80,80,10,14,4,7,0.2,0.5
2026-02-22T1400,2402A,114.0261,33.5697,漯河市,市广电局,颗粒物(PM10),194,337,206,58,55,88,,73,73,8,11,6,7,0.3,0.5
2026-02-22T1400,3478A,113.9691,33.568,漯河市,市图书馆,颗粒物(PM10),196,342,185,56,54,90,,74,74,8,11,6,7,0.4,0.5
2026-02-22T1400,4250A,114.089259,33.588274,漯河市,韶山路11号,颗粒物(PM10),200,350,191,63,54,96,,76,76,11,15,5,8,0.3,0.5
2026-02-22T1400,1798A,118.5084,31.6838,马鞍山市,湖东路四小,颗粒物(PM10),130,210,65,49,29,111,,71,71,10,17,9,10,0.5,0.7
2026-02-22T1400,1799A,118.5019,31.6449,马鞍山市,开发区,颗粒物(PM10),134,217,65,50,32,115,,70,70,15,22,11,9,0.6,0.6
2026-02-22T1400,3633A,118.4914,31.681,马鞍山市,雨山,颗粒物(PM10),138,226,71,52,32,112,,70,70,11,20,10,10,0.8,0.8
2026-02-22T1400,4191A,118.527362,31.722269,马鞍山市,慈湖高新区,颗粒物(PM10),125,199,64,58,32,114,,69,69,10,21,8,14,0.4,0.8
2026-02-22T1400,1686A,111.0285,21.469,茂名市,电白南海,,34,34,34,14,17,70,,61,61,7,9,5,5,0.7,0.7
2026-02-22T1400,1687A,110.9294,21.6533,茂名市,茂石化七小,,39,39,34,15,21,70,,61,61,9,12,5,6,0.5,0.6
2026-02-22T1400,1688A,110.9108,21.6688,茂名市,健康路,,34,34,29,15,20,80,,71,71,8,9,4,4,0.6,0.7
2026-02-22T1400,1689A,110.8592,21.6826,茂名市,高岭,,41,41,38,17,18,78,,70,70,8,11,2,5,/,/
2026-02-22T1400,3450A,111.0101,21.5165,茂名市,电白水东,,25,24,28,13,18,78,,64,64,13,14,3,4,/,/
2026-02-22T1400,2540A,103.8414,30.0871,眉山市,气象局,细颗粒物(PM2.5),65,53,67,47,58,116,,45,45,9,19,7,6,0.5,0.6
2026-02-22T1400,3148A,103.829,30.0563,眉山市,区人社局,细颗粒物(PM2.5),70,59,76,51,58,95,,34,33,18,33,8,9,0.5,0.9
2026-02-22T1400,4148A,103.8836,30.0695,眉山市,眉职院,细颗粒物(PM2.5),73,77,82,53,54,115,,50,50,10,19,8,7,0.7,0.7
2026-02-22T1400,1690A,116.1248,24.3307,梅州市,梅江月梅,,39,39,43,20,38,99,,74,74,9,12,/,/,/,/
2026-02-22T1400,1691A,116.0798,24.2719,梅州市,梅县新城,,38,36,53,26,41,101,,70,70,9,14,8,8,0.7,0.7
2026-02-22T1400,3315A,116.1234,24.2994,梅州市,梅龙,,38,31,44,26,37,98,,76,76,6,10,8,8,0.7,0.8
2026-02-22T1400,1878A,104.7775,31.4741,绵阳市,富乐山,颗粒物(PM10),53,56,62,36,49,61,,46,36,17,15,9,9,0.7,0.7
2026-02-22T1400,1880A,104.6698,31.4668,绵阳市,高新区自来水公司,,49,49,68,32,50,67,,34,34,17,25,8,8,0.8,0.9
2026-02-22T1400,3491A,104.6899,31.5324,绵阳市,西科大附属小学,细颗粒物(PM2.5),52,50,65,36,50,72,,51,39,14,20,8,8,0.5,0.6
2026-02-22T1400,3492A,104.5647,31.5343,绵阳市,安州区旅游局,细颗粒物(PM2.5),54,53,65,38,51,78,,31,31,16,30,11,7,0.6,0.8
2026-02-22T1400,4146A,104.7092,31.4972,绵阳市,科技城新区公安局,颗粒物(PM10),52,53,64,31,45,77,,67,50,15,19,6,7,0.7,0.8
2026-02-22T1400,4226A,104.765114,31.453094,绵阳市,绵阳市气象局,细颗粒物(PM2.5),58,55,70,41,53,53,,35,28,20,26,9,9,0.9,0.9
2026-02-22T1400,1784A,129.61,44.561,牡丹江市,环保大楼,颗粒物(PM10),82,114,80,12,40,76,,84,75,4,13,2,11,0.2,0.4
2026-02-22T1400,1787A,129.6364,44.6075,牡丹江市,机车工厂,颗粒物(PM10),77,104,98,18,68,69,,62,62,7,32,7,12,0.3,0.8
2026-02-22T1400,1788A,129.6386,44.5462,牡丹江市,第一中学,颗粒物(PM10),77,103,98,15,49,74,,79,73,4,17,5,19,0.4,0.6
2026-02-22T1400,4287A,129.5992,44.5964,牡丹江市,东晓云街98号,颗粒物(PM10),70,89,89,16,55,71,,68,68,6,22,6,16,0.4,0.7
2026-02-22T1400,2531A,105.0703,29.61,内江市,市监测站,细颗粒物(PM2.5),79,79,78,58,72,132,,62,62,13,26,7,8,0.7,0.8
2026-02-22T1400,2533A,105.0657,29.5807,内江市,内江二中,细颗粒物(PM2.5),72,73,83,52,71,118,,42,42,19,41,8,8,0.6,0.8
2026-02-22T1400,2534A,105.0407,29.5828,内江市,内江日报社,细颗粒物(PM2.5),82,,70,60,72,127,,54,54,19,42,10,11,0.6,0.7
2026-02-22T1400,4147A,105.0433,29.6105,内江市,玉峰路西段888号,细颗粒物(PM2.5),80,60,69,59,67,128,,62,62,23,33,10,9,0.7,0.8
2026-02-22T1400,2628A,92.0653,31.4846,那曲市,那曲监测站,,34,,30,18,24,106,,62,62,5,14,8,10,0.4,0.7
2026-02-22T1400,4243A,92.0515,31.4787,那曲市,那曲市委宣传部,,35,13,19,3,17,112,,64,64,1,9,4,5,0.3,0.7
2026-02-22T1400,1291A,115.8887,28.7006,南昌市,省林业公司,,35,,40,24,37,82,,37,37,2,26,4,4,0.7,1
2026-02-22T1400,1292A,115.813,28.7443,南昌市,林科所,,28,19,22,17,24,89,,49,49,2,14,8,8,0.8,0.9
2026-02-22T1400,1294A,115.8518,28.687,南昌市,建工学校,,32,30,55,22,36,81,,37,37,6,24,6,7,0.4,0.6
2026-02-22T1400,1295A,115.8926,28.6425,南昌市,象湖,,,,52,19,47,89,,39,39,10,28,8,8,0.9,1.2
2026-02-22T1400,3046A,115.9084,28.6062,南昌市,机电学校,,32,32,62,22,44,95,,47,47,3,22,6,6,0.6,0.8
2026-02-22T1400,3690A,115.9718,28.7032,南昌市,外国语学校,,30,30,50,21,44,85,,44,44,6,24,8,8,0.7,0.9
2026-02-22T1400,4106A,115.7923,28.6873,南昌市,工业二路,,34,34,57,22,41,89,,39,39,11,28,4,4,0.8,1
2026-02-22T1400,4192A,115.931587,28.686774,南昌市,南京东路235号,,30,28,62,21,44,88,,41,41,7,31,6,6,0.2,0.6
2026-02-22T1400,1906A,106.0791,30.8022,南充市,南充市委,细颗粒物(PM2.5),83,79,70,61,54,79,,37,37,17,29,9,7,0.8,0.8
2026-02-22T1400,1907A,106.1038,30.8215,南充市,南充炼油厂,细颗粒物(PM2.5),84,,78,62,61,77,,41,41,12,36,7,6,0.7,0.8
2026-02-22T1400,4227A,106.108336,30.788436,南充市,梨树横街98号,,,81,82,66,70,85,,39,39,12,35,8,6,,0.8
2026-02-22T1400,4304A,106.1172,30.843,南充市,清泉寺北路188号,细颗粒物(PM2.5),84,64,62,62,55,85,,54,54,7,13,7,6,0.5,0.5
2026-02-22T1400,4305A,106.067,30.7616,南充市,同庆路1号,细颗粒物(PM2.5),84,77,78,62,59,75,,37,37,23,47,8,6,0.8,1
2026-02-22T1400,1151A,118.8033,32.1085,南京市,迈皋桥,颗粒物(PM10),159,267,68,58,30,111,,86,86,1,16,10,13,0.1,0.5
2026-02-22T1400,1152A,118.7487,32.057,南京市,草场门,,,,81,63,29,72,,55,55,15,23,9,13,0.7,1.1
2026-02-22T1400,1154A,118.770105,32.004342,南京市,中华门,颗粒物(PM10),197,344,73,51,28,107,,74,74,9,15,5,6,0.4,0.7
2026-02-22T1400,1155A,118.8059,32.0329,南京市,瑞金路,颗粒物(PM10),187,324,73,49,32,52,,63,63,21,29,4,5,,4.3
2026-02-22T1400,1156A,118.7946,32.0774,南京市,玄武湖,颗粒物(PM10),154,258,64,55,27,102,,75,75,21,27,8,12,0.6,0.9
2026-02-22T1400,1157A,118.6415,32.0964,南京市,浦口,颗粒物(PM10),187,324,75,57,29,103,,79,79,16,14,9,6,0.6,0.4
2026-02-22T1400,1158A,118.730129,32.000956,南京市,奥体中心,颗粒物(PM10),206,354,76,46,27,95,,68,68,12,22,10,12,0.3,0.7
2026-02-22T1400,1159A,118.9072,32.1047,南京市,仙林大学城,颗粒物(PM10),250,385,89,64,32,100,,75,75,13,18,7,8,0.6,0.8
2026-02-22T1400,3422A,118.8443,31.919,南京市,江宁彩虹桥,颗粒物(PM10),157,264,64,44,28,114,,82,82,4,10,3,4,0.5,0.8
2026-02-22T1400,3427A,118.8497,32.3599,南京市,六合雄州,颗粒物(PM10),199,347,80,59,28,,,64,,12,14,4,4,0.7,1
2026-02-22T1400,4086A,118.7641,32.0841,南京市,新模范马路66号,颗粒物(PM10),293,415,90,52,29,124,,91,91,2,5,4,4,0.7,1
2026-02-22T1400,4249A,118.8707617,31.34017673,南京市,汶溪路181号,颗粒物(PM10),100,150,48,40,32,111,,65,65,15,17,7,7,0.8,0.8
2026-02-22T1400,4312A,119.019,31.6512,南京市,中山西路1号,颗粒物(PM10),124,197,63,46,34,106,,70,70,10,18,4,4,0.8,0.9
2026-02-22T1400,1401A,108.3098,22.788,南宁市,二十一中,颗粒物(PM10),52,53,35,27,29,71,,57,52,8,10,4,4,0.5,0.6
2026-02-22T1400,1402A,108.3135,22.8529,南宁市,北湖,,48,38,39,33,34,78,,53,53,6,10,2,2,0.6,0.7
2026-02-22T1400,1403A,108.3205,22.8222,南宁市,市监测站,,40,40,36,27,27,74,,59,50,8,11,6,6,0.6,0.7
2026-02-22T1400,1404A,108.3828,22.8038,南宁市,大自然花园,颗粒物(PM10),51,51,26,27,28,77,,65,59,5,7,5,6,0.5,0.6
2026-02-22T1400,1406A,108.2397,22.8462,南宁市,区农职院,,45,45,37,26,29,71,,52,50,9,12,4,4,0.4,0.5
2026-02-22T1400,1407A,108.3285,22.7356,南宁市,英华嘉园,颗粒物(PM10),56,61,43,27,30,73,,58,55,5,6,3,3,0.5,0.6
2026-02-22T1400,3401A,108.4829,22.762,南宁市,红星社区,,40,40,40,19,28,78,,58,58,6,8,4,4,0.5,0.6
2026-02-22T1400,4132A,108.2927,23.1477,南宁市,起凤路9号,,28,25,48,19,40,69,,60,60,4,8,3,3,0.6,0.7
2026-02-22T1400,4221A,108.2177,22.7774,南宁市,乐贤路16号,,30,29,34,21,26,65,,51,51,5,13,2,2,0.4,0.6
2026-02-22T1400,2332A,118.1682,26.6371,南平市,南平市监测站,,31,31,42,20,31,87,,53,53,3,13,5,9,0.4,0.5
2026-02-22T1400,2334A,118.1757,26.6276,南平市,南平七中,,35,35,44,20,31,90,,55,55,2,10,3,6,0.6,0.7
2026-02-22T1400,1168A,120.9056,31.9669,南通市,狼山街道,颗粒物(PM10),367,473,124,68,41,86,,56,56,4,28,2,4,0.4,0.7
2026-02-22T1400,1170A,120.8635,32.0231,南通市,城中,颗粒物(PM10),299,419,128,44,37,93,,63,63,4,26,3,7,0.3,0.7
2026-02-22T1400,1171A,120.9376,31.9301,南通市,星湖花园,颗粒物(PM10),353,462,113,61,39,88,,60,60,3,26,3,6,0.3,0.5
2026-02-22T1400,1172A,120.8053,32.046,南通市,紫琅学院,颗粒物(PM10),293,415,120,47,33,86,,57,57,8,45,3,6,0.2,0.5
2026-02-22T1400,3291A,121.0631,32.0644,南通市,通州监测站,颗粒物(PM10),245,381,115,37,35,83,,60,60,5,25,3,7,0.3,0.7
2026-02-22T1400,3432A,120.9348,31.9874,南通市,环境教育馆,颗粒物(PM10),303,422,117,52,39,88,,61,61,4,33,4,7,0.3,0.5
2026-02-22T1400,4091A,120.8692,31.9885,南通市,洪江路,颗粒物(PM10),191,332,101,47,42,82,,50,50,4,38,3,7,0.4,0.7
2026-02-22T1400,2404A,112.5338,33.0086,南阳市,瓦房庄,颗粒物(PM10),137,224,97,31,56,90,,52,52,6,21,6,6,0.5,1
2026-02-22T1400,2405A,112.5002,32.9734,南阳市,汉画馆,颗粒物(PM10),144,238,109,67,65,89,,46,46,8,23,6,7,0.6,1.1
2026-02-22T1400,2406A,112.5778,33.0144,南阳市,气象站,颗粒物(PM10),184,318,108,30,53,94,,58,58,8,19,7,6,0.4,0.9
2026-02-22T1400,2407A,112.548,32.9687,南阳市,理工学院,颗粒物(PM10),145,240,91,28,54,88,,50,50,4,17,6,7,0.5,0.9
2026-02-22T1400,4008A,112.5233,32.9921,南阳市,卧龙区政府,颗粒物(PM10),88,126,97,43,58,88,,50,50,5,21,7,7,0.6,1
2026-02-22T1400,1234A,121.8352,29.9111,宁波市,区环保大楼,,35,34,34,18,18,110,,64,64,14,21,7,6,0.4,0.4
2026-02-22T1400,1235A,121.5595,29.8208,宁波市,万里学院,,33,31,27,18,16,105,,68,68,9,11,4,3,0.6,0.5
2026-02-22T1400,1236A,121.713,29.9564,宁波市,龙赛医院,,36,34,33,21,20,115,,72,72,9,9,4,4,0.6,0.6
2026-02-22T1400,1240A,121.5855,29.8635,宁波市,太古小学,,34,31,28,20,16,106,,66,66,5,9,3,3,0.5,0.5
2026-02-22T1400,1241A,121.5239,29.8673,宁波市,市环境监测中心,,33,28,30,20,17,103,,60,60,6,15,4,4,0.5,0.5
2026-02-22T1400,2871A,121.6156,29.9015,宁波市,万里国际学校,,34,25,27,20,18,108,,66,66,8,12,4,4,0.6,0.5
2026-02-22T1400,3710A,121.5593,29.8976,宁波市,白沙活动中心,,34,34,34,23,23,108,,,,3,3,4,4,0.7,0.7
2026-02-22T1400,4095A,121.8962,29.7529,宁波市,中科路88号,,37,24,29,19,20,116,,73,73,9,9,7,5,0.5,0.4
2026-02-22T1400,2341A,119.5387,26.6611,宁德市,宁德市监测站,颗粒物(PM10),51,51,42,24,31,92,,59,59,11,15,6,5,0.7,0.9
2026-02-22T1400,3209A,119.5231,26.6562,宁德市,宁德一中,,40,40,41,26,35,98,,65,65,11,12,5,5,0.7,0.9
2026-02-22T1400,2618A,98.859,25.8541,怒江傈僳族自治州,州监测站,,,6,47,3,42,90,,,,,6,,6,0.9,0.6
2026-02-22T1400,2619A,98.8607,25.8168,怒江傈僳族自治州,泸水一中,细颗粒物(PM2.5),64,62,49,46,47,89,,60,60,7,9,6,6,0.8,0.9
2026-02-22T1400,1888A,101.6891,26.571,攀枝花市,弄弄坪,,46,37,56,32,31,128,,50,50,17,33,34,35,2.1,1.8
2026-02-22T1400,1889A,101.577,26.5914,攀枝花市,河门口,,46,39,36,32,28,108,,56,56,6,13,12,17,0.7,0.8
2026-02-22T1400,1891A,101.7365,26.4986,攀枝花市,仁和,,49,42,32,34,24,117,,63,63,8,12,19,13,0.9,0.9
2026-02-22T1400,2835A,101.7222,26.567,攀枝花市,四十中小,颗粒物(PM10),52,53,50,29,36,123,,50,50,14,37,22,22,1.4,1.4
2026-02-22T1400,1604A,122.0303,41.1489,盘锦市,开发区,颗粒物(PM10),53,55,115,30,34,86,,80,80,8,10,5,6,0.3,0.4
2026-02-22T1400,1605A,122.0486,41.0883,盘锦市,兴隆台,,48,48,109,6,36,84,,79,79,3,10,5,7,0.2,0.4
2026-02-22T1400,1606A,121.8297,41.1026,盘锦市,新生街道,,35,35,130,6,25,80,,76,76,7,14,5,6,0.2,0.4
2026-02-22T1400,1832A,113.3257,33.7423,平顶山市,新华旅馆,颗粒物(PM10),158,266,212,58,66,94,,82,82,5,16,6,6,0.2,0.5
2026-02-22T1400,1833A,113.2917,33.737,平顶山市,规划设计院,颗粒物(PM10),176,301,200,62,62,90,,80,80,6,15,8,7,0.1,0.5
2026-02-22T1400,1834A,113.182,33.7738,平顶山市,平顶山工学院,颗粒物(PM10),174,298,193,60,51,94,,80,80,5,8,9,9,0.1,0.3
2026-02-22T1400,3594A,112.8736,33.9068,平顶山市,石龙区,颗粒物(PM10),323,438,317,66,58,92,,82,82,2,8,5,8,0.3,0.3
2026-02-22T1400,4116A,113.284,33.7139,平顶山市,姚电大道23号,颗粒物(PM10),209,356,191,67,61,96,,83,83,2,10,6,6,0.3,0.5
2026-02-22T1400,2656A,106.6633,35.5338,平凉市,聚贤嘉苑,颗粒物(PM10),382,485,445,130,123,66,,57,51,11,8,8,7,0.7,0.6
2026-02-22T1400,2657A,106.7021,35.5307,平凉市,博物馆,颗粒物(PM10),357,465,437,139,125,72,,60,55,12,9,12,9,0.7,0.7
2026-02-22T1400,2348A,113.8384,27.6436,萍乡市,中医院,,44,44,82,13,60,81,,30,30,4,17,4,5,0.4,1.1
2026-02-22T1400,2350A,113.8677,27.6438,萍乡市,市环保局,,43,43,74,21,57,102,,35,35,5,19,11,10,0,0.9
2026-02-22T1400,2351A,113.8663,27.6202,萍乡市,安源区政府,,32,32,70,21,47,78,,25,25,6,18,6,7,0.7,1.8
2026-02-22T1400,4107A,113.8686,27.6668,萍乡市,联洪村委会,,29,,66,20,48,79,,32,32,2,12,2,2,0.4,0.8
2026-02-22T1400,2319A,119.0142,25.4324,莆田市,荔城区仓后路,细颗粒物(PM2.5),64,64,59,46,50,129,,84,84,10,14,/,/,/,/
2026-02-22T1400,2320A,119.0016,25.4553,莆田市,莆田市监测站,颗粒物(PM10),69,88,46,48,42,130,,81,81,12,10,5,3,0.5,0.5
2026-02-22T1400,2321A,119.112,25.4561,莆田市,涵江区六中,细颗粒物(PM2.5),52,49,52,36,44,124,,72,72,8,14,/,/,0.8,0.8
2026-02-22T1400,2322A,119.1014,25.3215,莆田市,秀屿区政府,细颗粒物(PM2.5),84,63,71,62,68,139,,77,77,8,12,7,4,0.5,0.5
2026-02-22T1400,2392A,115.0312,35.7636,濮阳市,环保局,颗粒物(PM10),309,427,323,89,57,82,,75,75,,7,5,6,0.3,0.3
2026-02-22T1400,3021A,115,35.7667,濮阳市,濮水河管理处,颗粒物(PM10),314,431,359,112,67,91,,80,79,8,14,5,7,0.2,0.4
2026-02-22T1400,4118A,115.0552,35.7816,濮阳市,中原东路68号,颗粒物(PM10),342,453,363,87,58,89,,78,78,6,14,3,5,0.4,0.5
2026-02-22T1400,4216A,115.0923632,35.76857718,濮阳市,任丘路479号,颗粒物(PM10),283,408,345,95,63,87,,75,75,4,12,4,5,0.1,0.2
2026-02-22T1400,2601A,100.9801,22.7634,普洱市,市环保局,,48,48,49,20,20,110,,68,68,5,7,6,5,0.6,0.6
2026-02-22T1400,2602A,100.9763,22.8237,普洱市,普洱第二中学,,45,45,50,25,24,109,,56,56,5,18,6,6,0.5,0.6
2026-02-22T1400,3345A,131.0413,45.7795,七台河市,中波台,颗粒物(PM10),65,79,45,34,33,64,,92,83,10,10,9,10,0.3,0.4
2026-02-22T1400,3637A,131.0136,45.7688,七台河市,人民广场,颗粒物(PM10),87,124,68,34,43,55,,84,75,15,17,9,12,0.5,0.6
2026-02-22T1400,3684A,130.8639,45.8144,七台河市,新建矿广场,颗粒物(PM10),108,166,69,32,44,58,,63,63,6,22,44,44,0.3,0.8
2026-02-22T1400,1779A,123.9307,47.3641,齐齐哈尔市,安居小区,,43,43,31,11,11,74,,74,74,2,4,17,18,0.5,0.5
2026-02-22T1400,1780A,123.9497,47.3389,齐齐哈尔市,中心广场,,38,38,64,3,37,71,,77,73,6,10,8,10,0.5,0.7
2026-02-22T1400,1781A,123.9483,47.3229,齐齐哈尔市,农牧车辆厂,,41,41,63,9,42,75,,80,76,2,8,7,8,0.1,0.2
2026-02-22T1400,1783A,123.9442,47.2994,齐齐哈尔市,市环境监测站,颗粒物(PM10),51,52,62,6,39,74,,79,75,4,10,3,4,0.2,0.4
2026-02-22T1400,3662A,123.6341,47.2079,齐齐哈尔市,富区青少年活动中心,颗粒物(PM10),65,79,55,3,32,72,,75,72,4,6,4,6,0.3,0.5
2026-02-22T1400,2591A,107.9765,26.5724,黔东南苗族侗族自治州,市环境监测站,细颗粒物(PM2.5),58,,40,41,34,56,,26,26,8,9,5,5,0.5,0.5
2026-02-22T1400,2881A,107.8909,26.531,黔东南苗族侗族自治州,凯里学院,,43,34,38,30,36,67,,40,40,9,9,3,3,0.6,0.6
2026-02-22T1400,2593A,107.5223,26.2371,黔南布依族苗族自治州,小围寨,,43,31,34,30,33,46,,37,35,6,5,6,6,0.8,0.7
2026-02-22T1400,3538A,107.5175,26.2977,黔南布依族苗族自治州,沙坝,,39,39,38,22,32,46,,38,37,8,6,4,5,0.8,0.7
2026-02-22T1400,2589A,104.9022,25.0943,黔西南布依族苗族自治州,场坝街,,30,,41,21,32,76,,61,61,6,7,4,4,0.6,0.7
2026-02-22T1400,2590A,104.8812,25.0994,黔西南布依族苗族自治州,坪东大道,,45,,42,31,36,79,,63,63,4,9,5,6,0.5,0.7
2026-02-22T1400,2502A,108.6238,21.9667,钦州市,市环保站,,34,34,40,15,29,75,,58,58,5,10,3,3,0.4,0.6
2026-02-22T1400,2503A,108.655,21.9481,钦州市,沙埠小学,,39,39,43,13,31,81,,58,58,5,10,5,4,0.5,0.6
2026-02-22T1400,2504A,108.5989,21.7435,钦州市,港区一小,,40,40,45,19,24,79,,52,52,6,16,1,2,0.6,0.8
2026-02-22T1400,3404A,108.5959,21.9634,钦州市,北职校,,25,25,35,17,27,72,,55,55,6,11,4,4,0.6,0.7
2026-02-22T1400,1046A,119.5247,39.9346,秦皇岛市,建设大厦,颗粒物(PM10),61,71,202,8,44,88,,81,81,2,10,4,6,0.2,0.4
2026-02-22T1400,3132A,119.5979,39.938,秦皇岛市,文明里,,45,45,200,3,39,88,,80,80,4,16,7,10,0.2,0.4
2026-02-22T1400,4066A,119.7458,39.9952,秦皇岛市,南园路157号,,,43,156,3,39,81,,81,81,8,17,,9,,0.5
2026-02-22T1400,4067A,119.5131,39.8858,秦皇岛市,翠岛大街1号,颗粒物(PM10),73,96,184,3,42,82,,74,74,3,11,7,10,0.2,0.4
2026-02-22T1400,4198A,119.509013,39.825305,秦皇岛市,北戴河轮滑馆,颗粒物(PM10),61,71,250,7,41,88,,77,77,4,13,5,7,0.2,0.4
2026-02-22T1400,1310A,120.404,36.0625,青岛市,市南区东部子站,,31,31,184,3,36,86,,78,78,2,12,9,10,0.5,0.6
2026-02-22T1400,1311A,120.362344,36.10282,青岛市,四方区子站,,31,31,174,8,40,87,,79,79,2,13,4,7,0.3,0.6
2026-02-22T1400,1312A,120.294373,36.054183,青岛市,市南区西部子站,,27,17,147,3,32,86,,77,77,6,18,2,4,0.4,0.6
2026-02-22T1400,1313A,120.4581,36.0858,青岛市,崂山区子站,,27,22,174,3,35,85,,78,78,2,10,7,8,0.3,0.5
2026-02-22T1400,1315A,120.3945,36.3083,青岛市,城阳区子站,,27,17,162,3,35,86,,78,78,8,16,5,8,0.6,0.8
2026-02-22T1400,3642A,120.3454,36.0735,青岛市,市北区南部,,50,50,141,3,34,78,,72,72,5,14,3,4,0.5,0.6
2026-02-22T1400,3643A,120.3897,36.18,青岛市,李沧区北部,,25,24,183,3,35,80,,70,70,4,13,8,10,0.4,0.6
2026-02-22T1400,4110A,120.5222,36.4089,青岛市,盟旺路653号,,32,32,137,3,37,87,,80,80,1,7,1,4,0.5,0.7
2026-02-22T1400,4290A,120.196923,35.954556,青岛市,珠江路669号,,31,31,149,3,36,84,,77,77,8,13,7,9,0.2,0.4
2026-02-22T1400,4291A,120.0424,35.8656,青岛市,黄岛区人民政府广场,,41,41,183,3,30,88,,78,78,5,15,8,9,0.4,0.6
2026-02-22T1400,1703A,113.0218,23.7086,清远市,凤城街办,,33,28,43,23,34,100,,79,79,5,11,/,/,/,/
2026-02-22T1400,3025A,113.0479,23.6343,清远市,技师学院,,33,28,43,18,29,104,,79,79,7,10,4,4,0.4,0.5
2026-02-22T1400,3318A,112.9898,23.7403,清远市,清新太和,,35,31,45,22,33,110,,89,89,7,13,9,10,0.5,0.6
2026-02-22T1400,3455A,113.076,23.72,清远市,清城东城,,34,30,46,20,32,108,,74,74,9,16,/,/,/,/
2026-02-22T1400,2661A,107.6325,35.7357,庆阳市,庆阳五中,颗粒物(PM10),249,384,394,134,112,89,,84,81,7,6,6,5,0.4,0.3
2026-02-22T1400,2662A,107.6361,35.7067,庆阳市,市环保局,颗粒物(PM10),200,350,383,116,104,90,,82,79,6,6,4,4,0.4,0.3
2026-02-22T1400,1916A,103.7897,25.5036,曲靖市,环境监测站,,40,26,33,17,20,128,,75,75,5,14,7,9,0.4,0.5
2026-02-22T1400,1917A,103.8013,25.5357,曲靖市,烟厂办公区,,38,23,42,11,25,120,,57,57,4,27,7,12,0.4,0.5
2026-02-22T1400,3376A,103.7926,25.4651,曲靖市,南苑二区,,35,27,26,15,15,111,,78,78,12,10,4,5,0.5,0.5
2026-02-22T1400,3377A,103.7442,25.5259,曲靖市,曲靖师范学院,,39,14,37,11,26,122,,76,76,4,21,6,9,0.4,0.5
2026-02-22T1400,1264A,118.8694,28.94,衢州市,环保大楼,,29,27,41,19,28,92,,56,56,4,14,/,/,/,/
2026-02-22T1400,1266A,118.8622,28.9809,衢州市,衢州学院,,28,25,34,18,26,89,,51,51,4,20,4,5,0.5,0.6
2026-02-22T1400,4097A,118.9646,28.9832,衢州市,衢州三中,,28,24,36,17,25,88,,42,42,4,18,6,6,0.7,0.7
2026-02-22T1400,1611A,118.5818,24.9116,泉州市,涂山街,细颗粒物(PM2.5),58,53,52,41,42,107,,66,66,10,15,5,4,0.8,0.7
2026-02-22T1400,1612A,118.597,24.8976,泉州市,津头埔,细颗粒物(PM2.5),57,54,53,40,43,114,,68,68,11,14,3,3,0.7,0.7
2026-02-22T1400,1613A,118.6669,24.9422,泉州市,万安,细颗粒物(PM2.5),53,53,44,37,33,97,,58,58,7,13,4,3,0.7,0.6
2026-02-22T1400,4105A,118.6355,24.9148,泉州市,霞新路6号,细颗粒物(PM2.5),57,45,41,40,35,101,,60,60,5,9,/,/,0.6,0.5
2026-02-22T1400,2626A,88.8873,29.2723,日喀则市,日喀则监测站,,40,13,22,3,14,128,,96,96,3,10,10,11,0.5,0.6
2026-02-22T1400,3726A,88.8775,29.2425,日喀则市,林业技术推广中心,,39,,18,16,9,123,,98,98,4,6,15,14,0.4,0.4
2026-02-22T1400,1659A,119.4711,35.421,日照市,监测站,颗粒物(PM10),71,92,172,13,36,88,,81,81,7,17,7,13,0.5,0.9
2026-02-22T1400,1660A,119.523,35.4216,日照市,市政府广场,颗粒物(PM10),64,78,151,12,36,90,,83,83,6,14,6,12,0.3,0.6
2026-02-22T1400,1661A,119.5511,35.4113,日照市,港务局,颗粒物(PM10),69,88,182,12,36,89,,81,81,6,18,5,10,0.4,0.8
2026-02-22T1400,3507A,119.5326,35.4627,日照市,职业技术学院,颗粒物(PM10),67,83,168,10,33,89,,81,81,6,14,7,12,0.5,0.9
2026-02-22T1400,3604A,119.3267,35.1043,日照市,岚山环保分局,颗粒物(PM10),123,195,215,33,48,89,,80,80,4,17,10,27,0.6,1.1
2026-02-22T1400,1835A,111.1922,34.7752,三门峡市,市政府,颗粒物(PM10),498,598,352,131,82,82,,77,77,3,14,8,8,0.2,0.4
2026-02-22T1400,1836A,111.1588,34.794,三门峡市,开发区,颗粒物(PM10),500,603,345,151,95,83,,78,78,4,11,7,7,0.3,0.4
2026-02-22T1400,3039A,111.1911,34.7829,三门峡市,三门峡市第一小学,颗粒物(PM10),500,749,423,153,92,84,,79,79,8,16,9,8,0.4,0.5
2026-02-22T1400,3598A,111.1031,34.719,三门峡市,富达温泉假日酒店,颗粒物(PM10),493,593,402,120,87,88,,75,75,6,13,7,12,0.2,0.4
2026-02-22T1400,2324A,117.621,26.2626,三明市,三钢,,45,45,32,24,25,108,,57,57,4,12,6,7,0.7,0.7
2026-02-22T1400,2325A,117.6352,26.2714,三明市,三明二中,,39,32,36,27,26,100,,51,51,6,12,6,8,0.4,0.5
2026-02-22T1400,2326A,117.6028,26.2377,三明市,三元区政府,,39,37,32,27,24,113,,61,61,6,10,7,6,1.0,0.7
2026-02-22T1400,1877A,109.4962,18.2682,三亚市,河西子站,,30,30,34,10,17,65,,60,60,16,5,1,1,0.3,0.3
2026-02-22T1400,3540A,109.7348,18.3443,三亚市,君悦子站,,26,26,35,12,18,71,,58,58,5,7,2,3,0.4,0.4
2026-02-22T1400,4135A,109.1714,18.3739,三亚市,城东小学站,,25,24,24,10,14,80,,68,68,4,6,/,/,/,/
2026-02-22T1400,2624A,91.7592,29.234,山南市,山南监测站,,37,9,11,3,4,117,,89,89,1,2,10,9,0.4,0.4
2026-02-22T1400,2625A,91.7701,29.2436,山南市,山南人民医院,,38,7,12,3,6,120,,96,96,2,2,11,10,0.4,0.4
2026-02-22T1400,1674A,116.6795,23.3666,汕头市,金平子站,颗粒物(PM10),58,66,51,37,42,138,,93,93,8,10,7,5,0.9,0.8
2026-02-22T1400,1675A,116.7248,23.3632,汕头市,龙湖子站,颗粒物(PM10),56,62,48,38,41,126,,89,89,12,14,11,10,/,/
2026-02-22T1400,1676A,116.7257,23.2774,汕头市,濠江子站,细颗粒物(PM2.5),58,54,52,41,41,113,,86,86,17,15,8,8,/,/
2026-02-22T1400,1677A,116.7518,23.4712,汕头市,澄海子站,颗粒物(PM10),55,59,53,38,39,120,,85,85,5,7,8,7,0.9,0.8
2026-02-22T1400,1678A,116.6088,23.2539,汕头市,潮阳子站,细颗粒物(PM2.5),59,56,54,42,49,126,,83,83,8,11,7,6,0.7,0.7
2026-02-22T1400,3444A,116.4539,23.2684,汕头市,潮南峡山,细颗粒物(PM2.5),73,67,63,53,49,124,,81,81,6,6,7,6,0.8,0.7
2026-02-22T1400,3624A,116.4069,23.2533,汕头市,潮南子站,,41,41,72,26,53,104,,74,74,2,7,6,6,/,/
2026-02-22T1400,1693A,115.3653,22.7751,汕尾市,市环保局,,,35,43,17,37,,,87,87,,9,5,5,0.7,0.8
2026-02-22T1400,1695A,115.362,22.7926,汕尾市,新城中学,,43,43,42,18,35,101,,90,90,8,8,6,6,0.6,0.7
2026-02-22T1400,2645A,109.9155,33.8714,商洛市,监测站,颗粒物(PM10),172,294,252,99,91,89,,59,59,5,9,4,5,0.3,0.4
2026-02-22T1400,3045A,109.9647,33.8486,商洛市,商州区中学,颗粒物(PM10),206,354,280,86,82,95,,57,57,2,6,7,5,0.6,0.6
2026-02-22T1400,2408A,115.6701,34.4283,商丘市,环境监测站,颗粒物(PM10),500,627,307,133,70,85,,73,73,6,10,2,3,0.3,0.4
2026-02-22T1400,2409A,115.6458,34.4047,商丘市,粮食局,颗粒物(PM10),500,607,270,125,70,81,,69,69,4,7,3,2,0.2,0.4
2026-02-22T1400,3171A,115.6069,34.4465,商丘市,梁园区档案局,颗粒物(PM10),500,668,289,114,61,91,,77,77,3,6,3,2,0.2,0.3
2026-02-22T1400,4119A,115.6701,34.3767,商丘市,北海东路185号,颗粒物(PM10),500,662,269,138,70,84,,73,73,3,7,2,3,0.2,0.3
2026-02-22T1400,4120A,115.6172,34.3704,商丘市,中山大街3号,颗粒物(PM10),500,708,293,159,80,86,,73,73,8,11,2,4,0.1,0.3
2026-02-22T1400,1141A,121.401,31.2382,上海市,普陀,颗粒物(PM10),149,247,52,56,31,92,,69,69,7,19,5,7,0.5,0.6
2026-02-22T1400,1142A,121.4774,31.2043,上海市,十五厂,颗粒物(PM10),141,231,54,59,33,96,,70,70,12,25,8,9,0.6,0.6
2026-02-22T1400,1143A,121.4673,31.3011,上海市,虹口,颗粒物(PM10),147,244,56,53,32,82,,63,63,8,19,5,6,0.3,0.6
2026-02-22T1400,1147A,121.4253,31.226,上海市,静安监测站,颗粒物(PM10),142,233,52,74,31,94,,72,72,9,20,7,8,,0.7
2026-02-22T1400,1148A,121.7029,31.1905,上海市,浦东川沙,颗粒物(PM10),143,236,57,53,35,88,,67,67,11,18,,4,0.5,0.7
2026-02-22T1400,1149A,121.5339,31.229,上海市,浦东新区监测站,颗粒物(PM10),130,209,49,76,32,88,,74,74,7,15,5,7,0.4,0.6
2026-02-22T1400,1150A,121.5776,31.2038,上海市,浦东张江,颗粒物(PM10),136,222,52,58,31,93,,71,71,8,22,6,7,0.1,0.3
2026-02-22T1400,3265A,121.4242,31.3303,上海市,宝山庙行,颗粒物(PM10),153,256,59,56,33,88,,67,67,5,16,8,10,0.4,0.5
2026-02-22T1400,3266A,121.8789,31.4662,上海市,崇明上实东滩,颗粒物(PM10),141,232,53,40,28,90,,59,59,6,26,5,6,0,0.1
2026-02-22T1400,3268A,121.316,31.2839,上海市,嘉定南翔,颗粒物(PM10),137,224,58,59,36,86,,63,63,16,35,6,5,0.8,0.6
2026-02-22T1400,3269A,121.3357,30.7455,上海市,金山新城,,,60,37,47,30,120,,75,75,7,12,6,6,,0.7
2026-02-22T1400,3270A,121.4996,31.0741,上海市,闵行浦江,颗粒物(PM10),114,178,47,61,32,95,,68,68,12,18,7,7,0.1,0.2
2026-02-22T1400,3271A,121.2886,31.1663,上海市,青浦徐泾,颗粒物(PM10),128,205,54,61,36,87,,62,62,14,18,9,6,0.8,0.6
2026-02-22T1400,3272A,121.2193,31.0382,上海市,松江图书馆,颗粒物(PM10),106,161,48,58,34,105,,73,73,14,16,9,7,0.9,0.7
2026-02-22T1400,3273A,121.3904,31.206,上海市,长宁仙霞,颗粒物(PM10),133,216,51,57,31,93,,60,60,1,15,7,8,0.2,0.3
2026-02-22T1400,3274A,121.7964,31.0507,上海市,浦东惠南,颗粒物(PM10),135,220,49,62,32,88,,70,70,13,17,5,6,0.5,0.8
2026-02-22T1400,3544A,121.4891,30.925,上海市,奉贤南桥新城,颗粒物(PM10),95,140,45,48,31,107,,78,78,12,15,4,3,0.7,0.6
2026-02-22T1400,4183A,121.417401,31.16637,上海市,冠生园路458号,颗粒物(PM10),120,189,46,67,33,91,,62,62,15,22,7,6,0.3,0.5
2026-02-22T1400,4205A,121.541914,31.268301,上海市,宁武路151号,颗粒物(PM10),138,225,51,53,31,86,,68,68,12,21,6,7,0.2,0.4
2026-02-22T1400,2382A,117.9758,28.4439,上饶市,市监测站,,40,40,41,25,29,100,,54,54,8,13,8,6,/,/
2026-02-22T1400,2383A,117.9521,28.4637,上饶市,凤凰光学,,35,24,53,24,37,88,,46,46,11,24,9,9,0.7,0.8
2026-02-22T1400,3685A,117.897,28.4316,上饶市,双创科技城,,37,37,49,20,36,99,,58,58,7,21,7,6,0.8,0.9
2026-02-22T1400,4211A,118.190438,28.444845,上饶市,裕丰大道,,29,26,46,20,32,90,,50,50,7,15,9,9,0.7,0.7
2026-02-22T1400,1669A,113.5821,24.7733,韶关市,市八中,细颗粒物(PM2.5),53,47,67,37,50,106,,67,67,8,20,9,10,0.5,0.7
2026-02-22T1400,1671A,113.5916,24.7973,韶关市,园林处,,40,28,50,28,49,111,,70,70,7,19,7,8,/,/
2026-02-22T1400,1673A,113.5971,24.6864,韶关市,曲江监测站,,45,34,75,31,60,106,,67,67,6,21,6,6,0.6,0.9
2026-02-22T1400,2809A,113.6668,24.7756,韶关市,大学路288号,,50,42,56,35,48,120,,65,65,9,13,6,5,/,/
2026-02-22T1400,3622A,113.5556,24.8082,韶关市,碧湖山庄,,46,36,67,32,52,108,,64,64,4,9,7,7,0.8,0.8
2026-02-22T1400,2464A,111.5277,27.2442,邵阳市,市化工厂,,40,32,61,28,51,83,,34,34,2,11,7,7,0.6,0.9
2026-02-22T1400,2466A,111.4327,27.2276,邵阳市,市环保局,,43,43,58,30,51,86,,34,34,6,15,6,6,0.9,1.1
2026-02-22T1400,4218A,111.446,27.2472,邵阳市,北塔二期4-26地块,,48,48,63,15,48,85,,34,34,4,18,8,7,0.7,1.2
2026-02-22T1400,4219A,111.4739,27.2282,邵阳市,邵水西路287号,,42,41,73,29,61,87,,32,32,2,14,4,5,0.7,1.2
2026-02-22T1400,1247A,120.6053,29.9927,绍兴市,城东开发委,,45,45,29,25,20,98,,62,62,3,8,8,7,0.5,0.5
2026-02-22T1400,2921A,120.5482,30.0003,绍兴市,树下王站,,40,40,29,25,20,100,,70,70,6,9,7,7,0.5,0.4
2026-02-22T1400,3408A,120.5685,29.936,绍兴市,绍兴中专,,48,48,28,26,16,105,,65,65,6,7,7,6,0.6,0.4
2026-02-22T1400,3409A,120.4905,30.086,绍兴市,柯桥区政府,,43,43,31,28,21,102,,63,63,8,13,6,6,0.5,0.4
2026-02-22T1400,3410A,120.8751,30.0249,绍兴市,重华小学,,40,39,29,28,20,99,,69,69,6,7,7,7,0.4,0.3
