timepoint,stationcode,longitude,latitude,area,positionname,primarypollutant,aqi,pm10,pm10_24h,pm2_5,pm2_5_24h,o3,o3_24h,o3_8h,o3_8h_24h,no2,no2_24h,so2,so2_24h,co,co_24h
2026-03-10T1900,2568A,102.2503,31.8896,阿坝藏族羌族自治州,马师校,,27,27,18,6,10,82,82,84,84,3,5,4,4,0.4,0.4
2026-03-10T1900,3994A,102.2174,31.9016,阿坝藏族羌族自治州,马尔康中学西区,,25,9,12,6,9,80,80,81,81,4,6,5,6,0.2,0.3
2026-03-10T1900,2695A,80.2899,41.1684,阿克苏地区,电视台,颗粒物(PM10),137,214,212,53,65,93,93,86,86,3,22,3,4,0.6,1
2026-03-10T1900,2696A,80.2592,41.1541,阿克苏地区,艺术中心,颗粒物(PM10),135,211,194,50,65,NA,NA,91,91,2,32,5,6,0.1,0.6
2026-03-10T1900,2205A,105.699,38.8409,阿拉善盟,蒙二幼,,32,32,32,10,11,102,102,105,104,4,5,8,8,0.4,0.4
2026-03-10T1900,2206A,105.7198,38.8508,阿拉善盟,环保局新楼,,32,24,25,11,8,101,101,101,101,5,5,7,8,0.4,0.4
2026-03-10T1900,2708A,88.1266,47.8515,阿勒泰地区,市站,,24,23,14,11,4,76,76,118,90,34,13,4,3,0.5,0.3
2026-03-10T1900,4166A,88.1198,47.7931,阿勒泰地区,阿勒泰路33号,,28,28,15,6,4,79,79,108,87,27,13,7,6,0.3,0.3
2026-03-10T1900,2630A,80.1171,32.4999,阿里地区,阿里监测站,,35,13,13,3,3,109,109,104,104,1,4,8,8,0.2,0.3
2026-03-10T1900,3192A,80.0906,32.5029,阿里地区,阿里藏医院,NA,NA,12,11,3,3,114,114,109,109,NA,4,8,10,0.2,0.3
2026-03-10T1900,2644A,109.0088,32.6974,安康市,汉滨区检察院,,26,18,32,7,17,83,83,90,90,9,15,4,4,0.4,0.4
2026-03-10T1900,4054A,109.0324,32.6913,安康市,市邮政管理局,,27,18,38,9,20,84,84,90,90,10,19,4,6,0.7,0.7
2026-03-10T1900,2291A,117.0806,30.5181,安庆市,环科院,,46,46,74,22,47,106,106,120,120,33,23,8,10,0.4,0.5
2026-03-10T1900,2292A,117.0331,30.5118,安庆市,马山宾馆,颗粒物(PM10),52,52,79,31,53,45,45,116,111,102,29,6,7,0.6,0.7
2026-03-10T1900,2294A,116.9897,30.6146,安庆市,安庆大学,,47,47,72,24,45,108,108,125,125,31,24,6,5,0.5,0.7
2026-03-10T1900,3173A,117.0598,30.5351,安庆市,市人大,颗粒物(PM10),51,51,79,22,49,86,86,121,121,51,24,6,7,0.5,0.6
2026-03-10T1900,3123A,105.9408,26.2431,安顺市,凤凰山,,38,NA,23,26,20,75,75,66,66,11,9,14,16,0.6,0.6
2026-03-10T1900,3124A,105.9443,26.2567,安顺市,金钟山,,33,NA,15,23,19,69,69,66,66,10,7,13,16,0.7,0.7
2026-03-10T1900,3125A,105.8983,26.248,安顺市,娄家坡,,30,24,23,21,20,71,71,64,64,11,8,10,15,0.6,0.6
2026-03-10T1900,1819A,114.3552,36.1017,安阳市,红庙街,细颗粒物(PM2.5),162,147,100,123,100,NA,NA,123,123,25,19,3,3,NA,0.5
2026-03-10T1900,1820A,114.361,36.0681,安阳市,银杏小区,细颗粒物(PM2.5),163,NA,106,124,105,121,121,127,127,23,19,3,3,0.6,0.6
2026-03-10T1900,3141A,114.3921,36.0879,安阳市,信访局,细颗粒物(PM2.5),163,NA,109,124,103,106,106,127,127,NA,18,4,4,NA,0.7
2026-03-10T1900,3669A,114.4706,36.0634,安阳市,左辅环卫站,细颗粒物(PM2.5),150,153,146,114,104,110,110,121,121,22,21,3,3,0.6,0.6
2026-03-10T1900,4117A,114.2918,36.0769,安阳市,钢三路198号,细颗粒物(PM2.5),145,139,134,109,98,119,119,119,119,22,22,4,3,0.6,0.5
2026-03-10T1900,1748A,123.0441,41.1201,鞍山市,深沟寺,,50,47,62,35,43,103,103,104,104,13,21,8,10,0.6,0.8
2026-03-10T1900,1749A,123.011,41.0931,鞍山市,太阳城,细颗粒物(PM2.5),56,54,60,38,43,102,102,104,104,15,21,11,13,0.6,0.8
2026-03-10T1900,1750A,123.0483,41.1445,鞍山市,太平,颗粒物(PM10),58,61,69,35,44,93,93,97,97,19,24,10,12,0.7,0.8
2026-03-10T1900,1751A,122.964,41.0968,鞍山市,铁西三道街,细颗粒物(PM2.5),78,72,82,49,54,91,91,99,99,28,42,13,19,0.6,0.9
2026-03-10T1900,1753A,123.0219,41.0822,鞍山市,明达新区,细颗粒物(PM2.5),52,51,62,36,43,100,100,103,103,13,19,12,14,0.6,0.8
2026-03-10T1900,4201A,122.944647,41.082639,鞍山市,兴盛南路290号,颗粒物(PM10),57,59,96,38,52,101,101,102,102,16,42,7,11,0.6,1
2026-03-10T1900,2195A,107.4206,40.7609,巴彦淖尔市,附二中,颗粒物(PM10),76,86,115,33,67,87,87,96,96,14,33,20,18,0.5,0.9
2026-03-10T1900,2196A,107.37,40.7372,巴彦淖尔市,市环保大楼,颗粒物(PM10),60,64,93,28,49,94,94,102,102,16,33,6,10,0.3,0.7
2026-03-10T1900,1956A,86.1476,41.7529,巴音郭楞蒙古自治州,孔雀公园,颗粒物(PM10),184,318,180,61,47,96,96,98,98,6,33,9,10,0.3,0.5
2026-03-10T1900,1957A,86.1971,41.7166,巴音郭楞蒙古自治州,棉纺厂,颗粒物(PM10),199,348,211,78,67,101,101,104,104,5,31,/,/,/,/
2026-03-10T1900,1958A,86.236,41.7172,巴音郭楞蒙古自治州,经济开发区,颗粒物(PM10),194,337,185,70,49,87,87,91,91,9,22,7,7,0.4,0.4
2026-03-10T1900,3181A,106.776805,31.852614,巴中市,市五中,,28,20,25,10,16,87,87,85,85,10,16,8,7,0.7,0.7
2026-03-10T1900,3183A,106.7419,31.8654,巴中市,圣泉水务公司,,27,21,25,9,15,84,84,87,87,15,22,8,9,1.0,1
2026-03-10T1900,3616A,106.7617,31.8343,巴中市,市中心医院,,27,16,28,10,18,84,84,84,84,9,16,9,9,0.7,0.7
2026-03-10T1900,2235A,122.7909,45.608,白城市,洮北区环保局,颗粒物(PM10),72,80,33,31,18,81,81,87,87,15,11,1,5,0.3,0.2
2026-03-10T1900,2236A,122.8741,45.5725,白城市,市环保局,颗粒物(PM10),68,75,38,21,18,86,86,89,89,9,13,6,5,0.4,0.4
2026-03-10T1900,2231A,126.4219,41.9172,白山市,喜丰,,40,40,68,24,34,82,82,96,96,14,28,7,9,0.9,0.9
2026-03-10T1900,2232A,126.4082,41.9416,白山市,环保局,细颗粒物(PM2.5),84,58,49,52,33,55,55,92,90,27,15,12,9,1.3,0.8
2026-03-10T1900,2647A,104.1727,36.5448,白银市,第三小学,,49,37,60,34,37,115,115,107,107,18,32,20,33,0.4,0.7
2026-03-10T1900,2648A,104.1467,36.5482,白银市,动力公司,,45,45,43,31,27,104,104,104,104,18,22,20,10,0.5,0.7
2026-03-10T1900,2512A,106.6102,23.901,百色市,市监测站,,32,25,18,14,7,100,100,92,92,19,17,16,12,0.6,0.7
2026-03-10T1900,2513A,106.6524,23.8842,百色市,市中心血站,,37,37,26,10,8,94,94,89,89,19,20,16,14,0.7,0.8
2026-03-10T1900,4133A,106.6273,23.8798,百色市,龙景西路,NA,NA,13,18,8,6,97,97,84,84,13,16,19,14,NA,0.6
2026-03-10T1900,2270A,117.396,32.9389,蚌埠市,工人疗养院,细颗粒物(PM2.5),76,81,102,48,76,121,121,131,131,23,30,5,7,0.7,0.8
2026-03-10T1900,2271A,117.3606,32.9428,蚌埠市,百货大楼,颗粒物(PM10),72,80,98,40,69,130,130,132,132,20,21,10,9,0.6,0.7
2026-03-10T1900,2273A,117.4183,32.8909,蚌埠市,蚌埠学院,"颗粒物(PM10),细颗粒物(PM2.5)",62,66,85,41,74,117,117,131,131,23,19,5,5,0.6,0.7
2026-03-10T1900,2274A,117.3534,32.9672,蚌埠市,淮上区政府,细颗粒物(PM2.5),82,73,90,51,78,129,129,134,134,21,25,5,6,0.6,0.7
2026-03-10T1900,2275A,117.3143,32.8977,蚌埠市,高新区,细颗粒物(PM2.5),92,75,91,56,82,116,116,122,122,23,22,8,7,0.6,0.7
2026-03-10T1900,3715A,117.3091,32.9314,蚌埠市,蚌埠田家炳中学,细颗粒物(PM2.5),82,81,102,51,80,125,125,132,132,21,20,5,6,0.5,0.7
2026-03-10T1900,1585A,109.8761,40.6533,包头市,市环境监测站,,30,29,86,12,47,96,96,104,104,12,45,5,10,0.3,0.8
2026-03-10T1900,1587A,109.9992,40.5843,包头市,包头八中,,33,33,83,13,49,85,85,90,90,12,47,7,14,0.4,0.9
2026-03-10T1900,1589A,109.8641,40.6288,包头市,惠龙物流,,31,18,76,12,50,97,97,104,104,11,41,4,11,0.1,1
2026-03-10T1900,1590A,110.0376,40.5546,包头市,东河鸿龙湾,,31,31,103,19,68,86,86,94,94,17,65,8,16,0.5,1.1
2026-03-10T1900,3283A,109.9154,40.5684,包头市,滨河大厦,,30,16,73,7,47,96,96,99,99,7,52,7,13,0.3,0.8
2026-03-10T1900,3419A,109.9449,40.6259,包头市,包头市委党校,,30,11,61,8,44,93,93,97,97,9,46,7,12,0.2,0.7
2026-03-10T1900,3683A,109.8332,40.6577,包头市,昆区政府,,30,17,80,3,56,96,96,101,101,12,51,7,14,0.4,1
2026-03-10T1900,1931A,107.0802,34.3129,宝鸡市,竹园沟,NA,NA,19,47,6,46,NA,NA,82,82,NA,19,NA,7,0.3,0.6
2026-03-10T1900,1933A,107.1429,34.3549,宝鸡市,监测站,"颗粒物(PM10),细颗粒物(PM2.5)",56,58,74,38,59,88,88,86,86,31,23,6,11,0.7,0.6
2026-03-10T1900,1934A,107.1172,34.3759,宝鸡市,技工学校,颗粒物(PM10),58,60,72,31,56,98,98,96,96,34,26,4,6,0.7,0.8
2026-03-10T1900,1936A,107.2025,34.3518,宝鸡市,文理学院,"颗粒物(PM10),细颗粒物(PM2.5)",60,63,67,40,61,99,99,99,99,26,24,4,4,0.6,0.7
2026-03-10T1900,1937A,107.2396,34.3626,宝鸡市,三迪小学,NA,NA,52,68,42,68,95,95,97,97,28,31,5,5,NA,0.8
2026-03-10T1900,4155A,107.1721,34.3558,宝鸡市,滨河北路,,50,44,76,35,59,97,97,93,93,23,25,6,5,0.6,0.7
2026-03-10T1900,4308A,107.3898,34.3601,宝鸡市,陈仓区北开路21号,细颗粒物(PM2.5),60,52,74,40,61,98,98,100,100,25,25,8,9,0.5,0.6
2026-03-10T1900,1051A,115.4803,38.8568,保定市,游泳馆,细颗粒物(PM2.5),134,115,95,97,82,81,81,76,76,40,38,6,5,0.7,0.6
2026-03-10T1900,1052A,115.509,38.8895,保定市,华电二区,细颗粒物(PM2.5),120,100,89,81,72,90,90,74,74,26,32,3,4,0.8,0.7
2026-03-10T1900,1053A,115.4588,38.9037,保定市,接待中心,细颗粒物(PM2.5),138,111,100,101,80,76,76,67,67,33,33,4,3,0.6,0.6
2026-03-10T1900,1054A,115.4484,38.8344,保定市,地表水厂,细颗粒物(PM2.5),134,137,116,97,78,53,53,71,71,67,39,7,6,0.6,0.5
2026-03-10T1900,3581A,115.3136,38.9511,保定市,满城区生态环境分局,细颗粒物(PM2.5),133,136,130,96,86,62,62,71,71,51,44,7,6,0.5,0.3
2026-03-10T1900,3582A,115.4709,38.7628,保定市,清苑区第二中学,细颗粒物(PM2.5),130,154,125,93,78,72,72,64,64,42,41,7,6,0.7,0.5
2026-03-10T1900,3583A,115.6231,39.0223,保定市,徐水物探局,细颗粒物(PM2.5),145,153,122,109,81,60,60,69,69,42,36,4,4,0.7,0.6
2026-03-10T1900,4004A,115.4199,38.8665,保定市,双鹰农机,细颗粒物(PM2.5),140,133,127,104,86,92,92,82,82,31,37,8,7,0.7,0.7
2026-03-10T1900,4034A,115.515,38.8589,保定市,植保所站,细颗粒物(PM2.5),130,122,103,93,74,82,82,73,73,36,39,5,4,0.7,0.6
2026-03-10T1900,2594A,99.1589,25.1137,保山市,市环境监测站,,46,39,54,32,37,127,127,131,131,8,13,4,4,0.3,0.4
2026-03-10T1900,2595A,99.1616,25.1381,保山市,市环保局,,43,43,58,29,40,130,130,129,129,5,9,5,5,0.4,0.6
2026-03-10T1900,1867A,109.1435,21.4085,北海市,海滩公园,,28,28,14,14,8,68,68,65,65,12,10,3,3,0.4,0.4
2026-03-10T1900,1868A,109.0983,21.466,北海市,新市环保局,,22,22,10,11,5,70,70,69,69,12,9,6,6,0.7,0.7
2026-03-10T1900,1869A,109.1775,21.5232,北海市,北海工业园,,35,NA,12,24,8,64,64,63,63,10,8,5,6,0.8,0.8
2026-03-10T1900,3400A,109.1844,21.4396,北海市,龙潭自来水厂,NA,NA,25,10,23,8,53,53,56,56,NA,7,351,24,NA,1
2026-03-10T1900,1001A,116.3611,39.8786,北京市,万寿西宫,细颗粒物(PM2.5),128,118,90,90,64,85,85,81,81,38,41,5,4,0.7,0.6
2026-03-10T1900,1003A,116.4174,39.9289,北京市,东四,细颗粒物(PM2.5),128,120,89,90,64,80,80,79,79,38,34,8,7,0.7,0.6
2026-03-10T1900,1004A,116.4073,39.8858,北京市,天坛,细颗粒物(PM2.5),122,115,82,84,58,56,56,72,72,29,32,3,4,0.7,0.6
2026-03-10T1900,1005A,116.4622,39.9364,北京市,农展馆,细颗粒物(PM2.5),124,116,86,86,61,78,78,82,82,35,27,7,7,0.9,0.7
2026-03-10T1900,1006A,116.3399,39.9293,北京市,官园,细颗粒物(PM2.5),131,106,111,94,71,72,72,65,65,41,39,5,5,0.6,0.7
2026-03-10T1900,1007A,116.2879,39.9613,北京市,海淀万柳,细颗粒物(PM2.5),119,111,98,80,69,61,61,63,63,50,47,5,4,0.8,0.7
2026-03-10T1900,1008A,116.6635,40.1349,北京市,顺义新城,细颗粒物(PM2.5),129,129,87,91,55,89,89,89,89,35,33,7,6,0.7,0.6
2026-03-10T1900,1009A,116.6275,40.327,北京市,怀柔镇,细颗粒物(PM2.5),135,120,64,98,46,74,74,81,81,49,25,8,5,0.8,0.6
2026-03-10T1900,1010A,116.2295,40.217,北京市,昌平镇,细颗粒物(PM2.5),111,101,92,72,59,76,76,82,82,41,35,5,3,0.8,0.7
2026-03-10T1900,1011A,116.3968,39.982,北京市,奥体中心,细颗粒物(PM2.5),118,118,93,79,61,65,65,62,62,37,32,6,5,0.8,0.7
2026-03-10T1900,3418A,116.8336,40.4095,北京市,密云新城,细颗粒物(PM2.5),129,132,82,91,54,92,92,95,95,30,26,6,4,0.8,0.6
2026-03-10T1900,3671A,116.0879,39.9725,北京市,门头沟三家店,细颗粒物(PM2.5),122,114,86,84,56,53,53,72,72,49,33,4,4,0.7,0.6
2026-03-10T1900,3672A,116.1507,39.8246,北京市,丰台云岗,细颗粒物(PM2.5),118,118,112,79,75,80,80,77,77,31,36,4,3,0.7,0.7
2026-03-10T1900,3674A,115.9578,39.7602,北京市,房山燕山,细颗粒物(PM2.5),126,136,103,88,75,68,68,66,66,34,30,4,4,0.6,0.6
2026-03-10T1900,3675A,116.4669,39.7734,北京市,大兴旧宫,细颗粒物(PM2.5),129,126,90,91,58,72,72,75,75,30,32,5,5,0.8,0.7
2026-03-10T1900,3694A,115.9859,40.4562,北京市,延庆石河营,细颗粒物(PM2.5),110,97,60,70,42,84,84,88,88,27,22,2,2,0.7,0.6
2026-03-10T1900,3695A,116.6151,40.3052,北京市,怀柔新城,细颗粒物(PM2.5),122,116,58,84,41,75,75,84,84,42,22,5,4,0.8,0.5
2026-03-10T1900,3696A,116.2542,39.8764,北京市,丰台小屯,细颗粒物(PM2.5),124,120,107,86,71,73,73,67,67,39,46,5,4,0.5,0.6
2026-03-10T1900,3697A,116.8399,40.3843,北京市,密云镇,细颗粒物(PM2.5),131,114,81,94,58,98,98,94,94,32,27,7,6,0.8,0.6
2026-03-10T1900,4057A,115.9423,40.4431,北京市,延庆百泉,细颗粒物(PM2.5),107,98,58,67,40,76,76,84,84,31,24,1,2,0.7,0.5
2026-03-10T1900,4058A,116.6598,39.9164,北京市,通州新华,细颗粒物(PM2.5),126,130,89,88,57,77,77,78,78,44,41,7,6,0.7,0.7
2026-03-10T1900,4182A,116.1942,39.9158,北京市,石景山八角,细颗粒物(PM2.5),111,112,109,72,64,68,68,71,71,47,41,6,4,0.5,0.5
2026-03-10T1900,4194A,117.078628,40.151726,北京市,平谷新城,细颗粒物(PM2.5),135,137,74,98,53,92,92,96,96,42,35,5,4,0.8,0.6
2026-03-10T1900,1761A,123.8274146,41.31234549,本溪市,大峪,颗粒物(PM10),54,55,68,28,35,108,108,106,106,12,27,11,10,0.6,0.6
2026-03-10T1900,1763A,123.7169,41.3094,本溪市,彩屯,NA,NA,63,79,40,53,NA,NA,103,103,NA,32,21,13,2.3,2
2026-03-10T1900,1764A,123.7672166,41.28649327,本溪市,东明,颗粒物(PM10),60,64,69,35,42,104,104,102,102,13,34,10,9,0.7,0.9
2026-03-10T1900,1765A,123.799345,41.266614,本溪市,新立屯,颗粒物(PM10),53,53,48,32,29,110,110,106,106,11,30,8,7,0.5,0.6
2026-03-10T1900,1766A,123.829144,41.336777,本溪市,威宁,颗粒物(PM10),52,52,83,33,44,104,104,108,108,13,26,6,7,0.6,0.8
2026-03-10T1900,2587A,105.287,27.3133,毕节市,八中,,25,25,21,16,13,74,74,64,64,14,10,18,12,0.7,0.6
2026-03-10T1900,2588A,105.3079,27.2987,毕节市,师专,,28,28,19,19,12,74,74,64,64,13,11,14,11,0.4,0.4
2026-03-10T1900,4263A,105.3688,27.3598,毕节市,工业大道,,37,37,28,21,10,79,79,70,70,12,8,11,10,/,/
2026-03-10T1900,1629A,117.9961,37.3604,滨州市,第二水厂,细颗粒物(PM2.5),125,127,88,87,59,120,120,132,132,25,38,12,15,0.4,0.4
2026-03-10T1900,1630A,117.9789,37.3931,滨州市,北中新校,细颗粒物(PM2.5),121,134,86,83,54,98,98,130,130,55,38,12,14,0.5,0.4
2026-03-10T1900,3514A,117.9379,37.3959,滨州市,中海酒店,细颗粒物(PM2.5),127,129,89,89,58,118,118,139,139,36,38,10,13,0.7,0.7
2026-03-10T1900,3515A,117.9381509,37.35547456,滨州市,开发区一中,细颗粒物(PM2.5),128,141,92,90,55,112,112,131,128,24,30,14,17,0.7,0.8
2026-03-10T1900,3516A,118.0914,37.6938,滨州市,金海六路,细颗粒物(PM2.5),144,144,79,108,55,122,122,139,139,35,31,11,12,0.7,0.6
2026-03-10T1900,4028A,117.9955,37.3752,滨州市,滨州市西街道办事处,细颗粒物(PM2.5),131,144,90,94,57,110,110,133,133,25,29,15,17,0.8,0.6
2026-03-10T1900,2311A,115.8071,33.8399,亳州市,污水处理厂,细颗粒物(PM2.5),78,75,109,49,87,114,114,124,124,20,22,4,6,0.2,0.2
2026-03-10T1900,2312A,115.7789,33.8519,亳州市,三国揽胜宫,细颗粒物(PM2.5),80,88,126,50,88,106,106,113,113,15,18,5,6,0.3,0.4
2026-03-10T1900,3332A,115.7631,33.803,亳州市,亳州学院,NA,NA,82,122,51,91,NA,NA,116,116,15,18,6,6,0.4,0.4
2026-03-10T1900,2693A,82.0482,44.8553,博尔塔拉蒙古自治州,市党校,NA,NA,NA,57,12,19,114,114,87,87,15,17,4,3,0.3,0.4
2026-03-10T1900,2694A,82.0805,44.8966,博尔塔拉蒙古自治州,市环保局,,36,31,42,25,27,100,100,80,80,20,26,1,1,0.8,0.8
2026-03-10T1900,1071A,116.8733,38.2922,沧州市,沧县城建局,细颗粒物(PM2.5),236,NA,99,186,78,90,90,105,105,41,29,5,7,0.8,0.6
2026-03-10T1900,1072A,116.8462,38.3189,沧州市,电视转播站,细颗粒物(PM2.5),179,147,93,135,80,114,114,120,120,30,31,1,6,0.6,0.6
2026-03-10T1900,1073A,116.8588,38.3161,沧州市,市环保局,细颗粒物(PM2.5),189,171,107,142,76,101,101,110,110,34,28,7,11,0.7,0.6
2026-03-10T1900,3324A,116.8011,38.294,沧州市,河北水利电力学院,细颗粒物(PM2.5),163,156,103,124,80,92,92,101,101,34,27,8,10,0.7,0.5
2026-03-10T1900,2622A,97.1813,31.1289,昌都市,昌都监测站,,29,17,15,3,4,92,92,88,88,6,5,3,2,0.6,0.6
2026-03-10T1900,3719A,97.1707,31.1428,昌都市,昌都会议中心,,27,14,15,9,11,85,85,86,86,8,4,6,6,0.5,0.5
2026-03-10T1900,2692A,87.2722,44.0298,昌吉回族自治州,新区政务中心,细颗粒物(PM2.5),72,55,100,46,96,120,120,119,119,22,28,8,7,0.5,1
2026-03-10T1900,3613A,87.3069,44.0093,昌吉回族自治州,亚心广场,颗粒物(PM10),62,66,124,36,95,127,127,126,126,24,26,12,11,0.7,1
2026-03-10T1900,4164A,87.2057,43.9289,昌吉回族自治州,财政所,NA,NA,78,98,31,68,NA,NA,68,NA,12,11,8,16,0.8,0.9
2026-03-10T1900,1120A,125.2874,43.9024,长春市,客车厂,细颗粒物(PM2.5),108,110,66,68,44,76,76,93,92,42,39,12,10,0.9,0.7
2026-03-10T1900,1121A,125.2943,43.8508,长春市,邮电学院,细颗粒物(PM2.5),108,113,63,68,45,82,82,91,91,38,36,14,11,0.9,0.7
2026-03-10T1900,1122A,125.3648,43.8745,长春市,劳动公园,细颗粒物(PM2.5),114,113,77,75,43,86,86,102,100,37,32,14,9,1.0,0.9
2026-03-10T1900,1123A,125.3233,43.8781,长春市,园林处,细颗粒物(PM2.5),110,100,65,71,44,84,84,98,98,34,29,14,9,0.9,0.7
2026-03-10T1900,1124A,125.4604,43.7904,长春市,净月潭,细颗粒物(PM2.5),101,62,49,61,35,84,84,99,98,16,13,8,7,0.5,0.4
2026-03-10T1900,1126A,125.38,43.8422,长春市,经开区环卫处,细颗粒物(PM2.5),110,105,70,70,43,88,88,98,97,34,36,9,6,0.8,0.6
2026-03-10T1900,1127A,125.234,43.7761,长春市,高新区管委会,细颗粒物(PM2.5),106,113,72,66,46,80,80,100,98,36,40,12,7,0.8,0.7
2026-03-10T1900,1128A,125.1695,43.83,长春市,岱山公园,细颗粒物(PM2.5),102,102,72,62,44,81,81,92,91,31,44,8,8,0.8,0.6
2026-03-10T1900,4281A,125.334645,43.916281,长春市,北亚泰大街1068号,细颗粒物(PM2.5),108,113,75,68,46,67,67,89,87,51,46,11,10,0.7,0.7
2026-03-10T1900,1335A,113.082,28.2421,长沙市,经开区环保局,颗粒物(PM10),55,56,72,30,51,101,101,93,93,20,26,3,4,0.6,0.6
2026-03-10T1900,1336A,112.8873,28.2202,长沙市,高开区环保局,细颗粒物(PM2.5),66,60,73,43,70,98,98,97,97,11,19,5,6,1.0,0.9
2026-03-10T1900,1337A,113.0785,28.2012,长沙市,马坡岭,"颗粒物(PM10),细颗粒物(PM2.5)",58,61,79,39,66,102,102,96,96,14,22,4,5,0.7,0.8
2026-03-10T1900,1338A,112.9448,28.1894,长沙市,湖南师范大学,细颗粒物(PM2.5),72,79,88,46,66,105,105,110,110,21,21,6,5,1.0,0.8
2026-03-10T1900,1339A,113.0177,28.1322,长沙市,雨花区环保局,细颗粒物(PM2.5),68,63,78,44,57,104,104,97,97,13,26,4,4,0.5,0.9
2026-03-10T1900,1340A,112.9795,28.2593,长沙市,伍家岭,细颗粒物(PM2.5),88,87,79,54,66,106,106,104,104,22,20,5,4,1.0,0.8
2026-03-10T1900,1341A,113.002,28.1944,长沙市,火车新站,细颗粒物(PM2.5),76,82,80,48,64,100,100,102,102,20,21,4,4,0.8,0.7
2026-03-10T1900,1342A,112.9846,28.1177,长沙市,天心区环保局,细颗粒物(PM2.5),78,71,82,49,73,107,107,109,109,21,22,6,6,0.7,0.6
2026-03-10T1900,1343A,112.8906,28.1307,长沙市,湖南中医药大学,颗粒物(PM10),55,57,82,33,63,97,97,108,108,13,20,6,6,0.8,0.8
2026-03-10T1900,1727A,113.1146,36.1547,长治市,清华站,细颗粒物(PM2.5),58,46,73,39,68,106,106,110,110,18,19,9,8,0.7,0.8
2026-03-10T1900,1730A,113.0887,36.2126,长治市,审计局,细颗粒物(PM2.5),92,NA,69,56,78,110,110,113,113,18,17,8,9,0.6,0.7
2026-03-10T1900,1731A,113.0845,36.1856,长治市,长治八中,细颗粒物(PM2.5),82,74,89,51,80,108,108,114,114,14,18,10,10,0.7,0.8
2026-03-10T1900,2845A,113.1561,36.1912,长治市,德盛苑,细颗粒物(PM2.5),82,NA,73,51,75,112,112,113,113,11,15,7,8,0.6,0.8
2026-03-10T1900,3568A,113.0603,36.0464,长治市,向阳小学,细颗粒物(PM2.5),101,98,115,61,74,105,105,115,115,23,22,12,10,1.0,0.9
2026-03-10T1900,3569A,112.8788,36.315,长治市,屯留一中,NA,NA,NA,83,NA,80,NA,NA,116,116,22,27,8,6,0.7,0.8
2026-03-10T1900,4189A,113.113092,36.199482,长治市,英华南巷50号,细颗粒物(PM2.5),70,62,77,45,79,100,100,111,111,30,20,8,8,0.5,0.7
2026-03-10T1900,4190A,113.23666,36.33435,长治市,学府街1号,细颗粒物(PM2.5),66,46,77,43,71,102,102,108,108,11,19,3,4,0.6,0.9
2026-03-10T1900,1854A,111.696,28.9725,常德市,市二中,,48,48,55,23,34,96,96,108,108,11,12,6,6,0.9,1
2026-03-10T1900,3138A,111.7152,29.0288,常德市,武陵区永安,,47,47,57,24,41,93,93,103,103,13,14,6,4,0.7,0.8
2026-03-10T1900,3139A,111.6891,28.9881,常德市,鼎城区玉霞,,47,47,53,22,31,91,91,103,103,17,20,8,6,0.6,0.8
2026-03-10T1900,3140A,111.6651,29.0526,常德市,武陵区长庚,,40,40,50,26,39,84,84,95,95,15,13,6,6,0.9,0.9
2026-03-10T1900,1196A,119.9524,31.7586,常州市,市监测站,,42,42,55,13,26,72,72,92,90,42,34,6,6,0.4,0.6
2026-03-10T1900,1200A,119.9351,31.703,常州市,武进监测站,,30,29,49,12,28,93,93,100,100,22,23,4,7,0.2,0.3
2026-03-10T1900,3002A,119.9701,31.813,常州市,行政中心,颗粒物(PM10),55,56,64,17,26,66,66,83,82,43,33,7,7,0.7,0.6
2026-03-10T1900,3003A,120.0434,31.7726,常州市,经开区,,45,45,61,15,29,81,81,93,93,34,35,9,12,0.5,0.6
2026-03-10T1900,3010A,119.8919,31.7892,常州市,钟楼,,49,49,53,14,26,86,86,107,104,40,31,8,8,0.3,0.5
2026-03-10T1900,3429A,119.8595,31.706,常州市,武进经发区,,35,35,51,21,32,84,84,101,100,34,31,7,10,0.3,0.4
2026-03-10T1900,3430A,119.5812,31.7256,常州市,金坛城区,,36,36,54,23,37,93,93,113,112,20,19,8,9,0.6,0.8
2026-03-10T1900,4089A,119.9551,31.863,常州市,崇义南街5-H号,,42,42,53,19,27,60,60,85,82,46,29,6,6,0.4,0.5
2026-03-10T1900,2220A,120.4318,41.588,朝阳市,西梁,细颗粒物(PM2.5),76,56,65,48,44,86,86,106,106,26,32,11,11,0.8,0.9
2026-03-10T1900,2221A,120.452,41.565,朝阳市,河畔小区,细颗粒物(PM2.5),66,NA,46,43,35,88,88,108,108,21,26,9,11,0.7,0.8
2026-03-10T1900,2222A,120.4176,41.5648,朝阳市,八里堡,细颗粒物(PM2.5),92,NA,44,56,39,85,85,103,103,24,25,13,12,0.7,0.7
2026-03-10T1900,3026A,116.6179,23.6608,潮州市,市政府,,42,40,39,29,24,114,114,98,98,15,10,11,10,0.4,0.4
2026-03-10T1900,4036A,116.646,23.676,潮州市,金山,NA,NA,NA,36,30,21,110,110,93,93,15,10,5,4,0.5,0.4
2026-03-10T1900,2473A,113.0116,25.8228,郴州市,市职中,NA,NA,53,45,49,42,57,57,68,67,NA,14,4,3,0.7,0.7
2026-03-10T1900,2475A,113.0381,25.8074,郴州市,市审计局,颗粒物(PM10),54,55,45,36,38,45,45,56,56,21,13,4,3,/,/
2026-03-10T1900,2476A,113.0348,25.7757,郴州市,市环保局,细颗粒物(PM2.5),56,50,46,38,43,56,56,59,59,24,18,4,3,0.4,0.5
2026-03-10T1900,4252A,113.0138,25.8011,郴州市,好美居路49号,细颗粒物(PM2.5),76,NA,40,48,42,61,61,64,64,20,16,7,5,/,/
2026-03-10T1900,1431A,103.9727,30.7242,成都市,金泉两河,细颗粒物(PM2.5),80,55,30,50,22,66,66,88,88,27,18,4,3,0.5,0.4
2026-03-10T1900,1432A,104.1423,30.6765,成都市,十里店,,46,46,29,23,20,59,59,70,70,20,20,4,7,0.4,0.4
2026-03-10T1900,1433A,104.0594,30.5765,成都市,三瓦窑,,40,40,23,22,22,93,93,96,96,12,17,2,2,0.6,0.6
2026-03-10T1900,1434A,104.1122,30.6306,成都市,沙河铺,,34,34,29,20,21,75,75,84,84,26,23,4,4,0.3,0.4
2026-03-10T1900,2880A,104.0219,30.6561,成都市,大石西路,,44,44,29,26,20,82,82,93,93,21,18,5,5,0.5,0.4
2026-03-10T1900,3136A,104.2724,30.559,成都市,龙泉驿区区政府,,32,24,19,22,18,94,94,96,96,15,9,6,6,0.6,0.5
2026-03-10T1900,3357A,104.0028,30.6891,成都市,金博路,,48,47,19,33,19,78,78,92,92,31,22,6,6,0.7,0.7
2026-03-10T1900,3359A,104.056,30.5228,成都市,华阳,,31,31,27,19,19,91,91,99,99,23,19,4,4,0.8,0.7
2026-03-10T1900,3488A,104.387954,30.746684,成都市,青石路225号,NA,NA,45,26,28,21,80,80,88,87,NA,16,6,5,0.7,0.7
2026-03-10T1900,3489A,104.0788,30.4054,成都市,科学城,,33,18,22,14,17,104,104,96,96,7,9,7,7,0.6,0.7
2026-03-10T1900,4011A,103.8505,30.6946,成都市,光华大道三段,细颗粒物(PM2.5),74,64,30,47,20,71,71,94,94,32,24,4,4,0.6,0.5
2026-03-10T1900,4144A,104.3257,30.6406,成都市,八角井街185号,颗粒物(PM10),51,51,31,19,18,86,86,93,93,23,13,4,4,0.6,0.6
2026-03-10T1900,4224A,104.2433276,30.53529463,成都市,鲸龙路1057号,,30,29,28,19,17,94,94,98,98,20,18,5,5,0.6,0.5
2026-03-10T1900,1062A,117.9531,40.908,承德市,铁路,细颗粒物(PM2.5),102,105,49,62,27,80,80,96,96,45,29,8,4,0.8,0.6
2026-03-10T1900,1063A,117.9397,40.9763,承德市,中国银行,细颗粒物(PM2.5),110,110,52,70,26,93,93,100,100,25,21,6,3,0.8,0.6
2026-03-10T1900,4073A,117.9462,40.95,承德市,杏林街1号,细颗粒物(PM2.5),114,93,49,75,33,108,108,110,110,21,21,8,5,0.8,0.6
2026-03-10T1900,4274A,117.7994,40.9605,承德市,滨河大街98号,细颗粒物(PM2.5),107,76,41,67,27,97,97,108,108,14,17,6,10,0.4,0.8
2026-03-10T1900,2314A,117.4698,30.6617,池州市,池州学院,颗粒物(PM10),51,51,69,35,56,120,120,128,128,24,24,6,6,0.8,0.9
2026-03-10T1900,3237A,117.4918,30.6617,池州市,展览馆,,44,44,72,29,52,108,108,124,124,27,24,4,4,0.9,0.8
2026-03-10T1900,3333A,117.5626,30.695,池州市,第八中学,颗粒物(PM10),53,54,77,34,54,95,95,133,121,50,29,5,5,0.7,0.8
2026-03-10T1900,3334A,117.5037,30.6242,池州市,第十二中学,颗粒物(PM10),55,57,72,36,49,98,98,125,125,41,34,5,4,0.9,0.8
2026-03-10T1900,1744A,118.9229,42.2816,赤峰市,松山一中,,38,38,59,14,41,59,59,73,71,26,40,4,9,0.5,1.1
2026-03-10T1900,1745A,118.9588,42.2733,赤峰市,哈达街,,35,33,63,24,38,69,69,85,84,20,37,10,18,0.6,1.1
2026-03-10T1900,1746A,118.8792,42.2551,赤峰市,天义路,,24,22,34,13,30,75,75,95,93,16,23,5,6,0.3,0.6
2026-03-10T1900,3058A,119.2656,42.0356,赤峰市,银河街,颗粒物(PM10),64,69,73,36,45,80,80,104,103,16,20,11,14,0.7,1
2026-03-10T1900,3286A,118.9359,42.3146,赤峰市,桥北物流园区,,38,38,51,18,38,71,71,98,96,23,41,4,12,0.6,0.9
2026-03-10T1900,2521A,107.3473,22.4137,崇左市,市环保局江州分局,,25,18,12,3,1,79,79,79,79,10,10,5,6,0.8,0.9
2026-03-10T1900,4256A,107.375,22.3736,崇左市,石景林东路7号,,25,13,9,3,3,80,80,81,81,11,10,4,5,0.9,1
2026-03-10T1900,3207A,118.31131,32.3033,滁州市,市政府原办公楼,细颗粒物(PM2.5),96,64,74,58,68,118,118,120,120,21,25,7,7,0.9,0.9
2026-03-10T1900,3331A,118.3268,32.2633,滁州市,图书馆,"颗粒物(PM10),细颗粒物(PM2.5)",60,64,74,40,52,114,114,118,118,25,25,11,10,0.6,0.6
2026-03-10T1900,4101A,118.3196,32.3335,滁州市,银山路666号,细颗粒物(PM2.5),74,69,74,47,62,126,126,130,130,20,25,10,9,0.8,0.8
2026-03-10T1900,4102A,118.3426,32.2979,滁州市,黄山路555号,细颗粒物(PM2.5),86,91,99,53,67,112,112,127,127,33,25,8,10,0.8,0.7
2026-03-10T1900,2606A,101.5379,25.0492,楚雄彝族自治州,市经济开发区,NA,NA,NA,24,NA,15,NA,NA,66,66,NA,11,NA,6,NA,0.8
2026-03-10T1900,4153A,101.5536,25.0343,楚雄彝族自治州,团结路562号,,32,32,19,21,12,77,77,75,75,6,9,6,8,0.6,0.6
2026-03-10T1900,2549A,107.5087,31.2186,达州市,市环境监测站,NA,NA,NA,39,NA,14,NA,NA,92,92,NA,29,NA,5,NA,0.2
2026-03-10T1900,2550A,107.4988,31.2132,达州市,凤凰小区,,36,36,38,11,17,79,79,89,89,24,29,4,5,0.3,0.4
2026-03-10T1900,2551A,107.5081,31.1987,达州市,达县机关宾馆,颗粒物(PM10),62,66,41,14,18,30,30,87,86,70,34,4,4,0.8,0.5
2026-03-10T1900,2552A,107.4644,31.2124,达州市,市政中心,NA,NA,NA,NA,NA,NA,NA,NA,NA,NA,NA,NA,NA,NA,NA,NA
2026-03-10T1900,2614A,100.2168,25.5818,大理白族自治州,大理市环境监测站,,46,34,22,32,20,113,113,93,93,10,18,7,7,0.4,0.6
2026-03-10T1900,2615A,100.1542,25.7055,大理白族自治州,大理古城,,45,39,18,31,16,110,110,98,98,11,9,8,9,0.7,0.9
2026-03-10T1900,1109A,121.6119,38.974,大连市,甘井子,,31,25,23,12,14,98,98,92,92,13,24,8,9,0.5,0.5
2026-03-10T1900,1110A,121.565,38.9509,大连市,周水子,颗粒物(PM10),86,100,40,18,17,77,77,87,85,28,27,14,10,0.6,0.5
2026-03-10T1900,1111A,121.5637,38.8849,大连市,星海三站,,24,24,27,9,12,73,73,71,71,13,16,6,6,0.4,0.5
2026-03-10T1900,1112A,121.6301,38.9117,大连市,青泥洼桥,,28,28,25,16,14,86,86,90,90,18,18,5,6,0.3,0.4
2026-03-10T1900,1113A,121.6248,38.8643,大连市,傅家庄,,25,24,23,11,11,79,79,78,78,17,16,4,4,0.5,0.5
2026-03-10T1900,1114A,121.5117,38.8636,大连市,七贤岭,,27,22,21,14,10,84,84,88,87,22,15,6,7,0.6,0.6
2026-03-10T1900,1116A,121.7507,39.1339,大连市,金州,,33,15,32,3,18,105,105,99,99,7,14,4,5,0.3,0.4
2026-03-10T1900,1117A,121.7811,39.0495,大连市,开发区,,30,23,27,12,16,93,93,89,89,15,22,8,7,0.4,0.4
2026-03-10T1900,1118A,121.9762,39.0631,大连市,双D港,,33,25,28,15,15,103,103,98,98,13,24,5,6,0.2,0.2
2026-03-10T1900,4082A,121.2548,38.8188,大连市,旅顺,,26,26,25,14,14,76,76,79,78,23,17,6,6,0.2,0.3
2026-03-10T1900,1789A,124.8085,46.0381,大庆市,大同区,NA,NA,NA,61,NA,28,NA,NA,91,91,NA,12,NA,11,NA,0.6
2026-03-10T1900,1790A,125.1166,46.5255,大庆市,龙凤区,,46,43,47,32,28,98,98,87,87,13,16,4,5,0.2,0.3
2026-03-10T1900,1791A,124.8894,46.4007,大庆市,红岗区,,43,43,39,25,21,93,93,87,87,14,15,8,8,0.4,0.4
2026-03-10T1900,1792A,125.1391,46.578,大庆市,萨尔图区,,46,46,49,30,24,104,104,90,90,13,16,5,6,0.5,0.5
2026-03-10T1900,1793A,124.9026,46.6217,大庆市,让胡路区,,42,41,32,29,20,92,92,87,87,11,12,5,6,0.4,0.4
2026-03-10T1900,3481A,125.127,46.6277,大庆市,萨区政府监测点,,42,42,42,24,21,110,110,96,96,8,12,9,10,0.7,0.7
2026-03-10T1900,1723A,113.2926,40.0759,大同市,云冈宾馆,,29,28,95,20,59,84,84,89,89,12,46,5,11,0.4,1.3
2026-03-10T1900,1724A,113.3437,40.0921,大同市,大同大学,,50,50,88,18,48,87,87,95,95,15,39,3,10,0.4,0.8
2026-03-10T1900,1725A,113.2637,40.129,大同市,安家小村,,49,49,125,22,55,82,82,89,89,15,43,7,16,0.4,1.5
2026-03-10T1900,3282A,113.3399,40.0586,大同市,大同市卫生学校,,49,49,98,16,51,93,93,99,99,11,45,4,11,0.5,0.9
2026-03-10T1900,3565A,113.1371,40.1122,大同市,云冈站,,35,35,79,11,35,88,88,98,98,9,37,5,15,0.4,0.6
2026-03-10T1900,3566A,113.1186,40.2556,大同市,图书馆,,31,31,77,17,39,83,83,95,95,12,20,19,12,0.5,0.7
2026-03-10T1900,3567A,113.5931,40.0459,大同市,区一中,,32,23,94,8,59,100,100,109,109,6,22,7,16,0.3,0.9
2026-03-10T1900,4199A,113.2798248,40.09972476,大同市,魏都大道141号,颗粒物(PM10),58,61,123,25,58,85,85,92,92,16,53,7,15,0.5,1.6
2026-03-10T1900,2269A,124.1068,50.4091,大兴安岭地区,科技局,NA,NA,32,26,19,13,NA,NA,81,81,NA,6,NA,7,NA,0.3
2026-03-10T1900,3663A,124.117,50.4279,大兴安岭地区,红旗社区,,28,19,14,19,13,64,64,92,88,25,13,15,10,0.3,0.2
2026-03-10T1900,1600A,124.33,40.0625,丹东市,江湾东路,细颗粒物(PM2.5),84,69,64,52,45,100,100,106,106,24,19,16,14,0.7,0.8
2026-03-10T1900,1601A,124.4242,40.1513,丹东市,临江后街,细颗粒物(PM2.5),68,56,58,44,45,110,110,105,105,18,20,15,14,0.7,0.7
2026-03-10T1900,1602A,124.3935,40.1461,丹东市,元宝山,细颗粒物(PM2.5),56,49,53,38,39,103,103,104,104,22,21,7,8,0.6,0.7
2026-03-10T1900,1603A,124.3634,40.1093,丹东市,民主桥,细颗粒物(PM2.5),66,67,63,43,42,108,108,105,105,19,20,8,9,0.5,0.5
2026-03-10T1900,3541A,109.5726195,19.51688767,儋州市,第一中学子站,,18,17,26,12,16,37,37,41,38,8,6,6,6,0.8,0.7
2026-03-10T1900,3542A,109.5567,19.5187,儋州市,东坡学校子站,,19,14,24,13,18,39,39,42,41,11,7,2,4,1.0,0.9
2026-03-10T1900,2616A,98.5611,24.4273,德宏傣族景颇族自治州,德宏州监测站,细颗粒物(PM2.5),72,62,69,46,51,105,105,115,115,18,32,4,4,0.6,0.8
2026-03-10T1900,3677A,98.5887,24.4366,德宏傣族景颇族自治州,芒市人民政府综合楼,颗粒物(PM10),72,80,88,36,49,104,104,109,109,13,20,6,5,0.4,0.7
2026-03-10T1900,1901A,104.424,31.1209,德阳市,东山公园,,46,NA,25,32,20,68,68,80,80,15,11,2,2,0.6,0.5
2026-03-10T1900,1902A,104.3827,31.1318,德阳市,西小区,细颗粒物(PM2.5),80,54,39,50,24,53,53,71,71,21,22,4,3,0.7,0.6
2026-03-10T1900,1904A,104.3553,31.1091,德阳市,耐火材料厂,细颗粒物(PM2.5),96,68,40,58,24,56,56,82,82,20,22,9,2,0.7,0.6
2026-03-10T1900,4145A,104.4144,31.1495,德阳市,市林业局,NA,NA,58,32,48,24,55,55,75,75,18,20,5,5,NA,0.6
2026-03-10T1900,1622A,116.3034,37.4675,德州市,儿童乐园,细颗粒物(PM2.5),133,158,119,96,79,133,133,137,137,30,27,12,14,0.8,0.6
2026-03-10T1900,1624A,116.2992,37.4449,德州市,监理站,细颗粒物(PM2.5),132,156,121,95,76,129,129,134,134,36,34,8,9,0.9,0.7
2026-03-10T1900,3066A,116.2722,37.438,德州市,九衢泉纯净水厂,细颗粒物(PM2.5),137,144,114,100,81,124,124,135,135,36,40,6,8,0.9,0.9
2026-03-10T1900,3371A,116.3693,37.44,德州市,开发区人民医院,细颗粒物(PM2.5),133,158,120,96,78,131,131,134,134,31,31,12,15,0.9,0.7
2026-03-10T1900,3511A,116.5687,37.3331,德州市,陵城艺术中心,细颗粒物(PM2.5),138,136,109,101,79,116,116,123,122,28,28,4,8,0.7,0.9
2026-03-10T1900,4292A,116.352738,37.420875,德州市,新河东路,细颗粒物(PM2.5),135,166,120,98,73,122,122,130,130,30,39,14,14,0.7,0.6
2026-03-10T1900,2621A,99.7054,27.8319,迪庆藏族自治州,迪庆州站,,33,24,34,12,21,103,103,107,98,8,8,6,6,0.5,0.5
2026-03-10T1900,3180A,99.7122,27.8129,迪庆藏族自治州,质量技术监督局,,31,31,30,16,19,97,97,106,98,7,7,5,5,0.4,0.4
2026-03-10T1900,4257A,104.6092,35.5962,定西市,将台街,细颗粒物(PM2.5),64,65,53,42,28,101,101,107,107,12,23,9,10,0.9,0.6
2026-03-10T1900,4309A,104.6159,35.5701,定西市,正龙路62号,,39,39,47,25,28,96,96,101,101,7,10,12,5,0.9,0.6
2026-03-10T1900,4071A,114.9883,38.5232,定州市,交通局,细颗粒物(PM2.5),134,139,121,97,88,74,74,79,79,39,40,12,11,0.8,0.7
2026-03-10T1900,4072A,115.0045,38.5136,定州市,第五中学,细颗粒物(PM2.5),134,162,137,97,90,75,75,79,79,37,38,10,9,0.7,0.7
2026-03-10T1900,1390A,113.7943,23.0132,东莞市,东城石井,,30,30,16,18,10,44,44,54,49,23,15,5,6,0.7,0.7
2026-03-10T1900,1391A,113.7384,22.9659,东莞市,南城西平,,23,23,15,14,9,43,43,47,NA,22,17,7,7,0.7,0.7
2026-03-10T1900,3319A,113.7283,23.041,东莞市,万江金泰,NA,NA,21,12,11,8,54,54,54,51,NA,11,NA,5,0.7,0.7
2026-03-10T1900,4129A,113.8666,23.1062,东莞市,裕兴路,,25,25,15,12,8,46,46,54,48,19,13,8,7,0.7,0.7
2026-03-10T1900,4130A,114.0076,22.9739,东莞市,教育路1号,,36,36,21,17,10,42,42,51,46,24,15,5,5,0.6,0.6
2026-03-10T1900,4131A,113.7981,22.8124,东莞市,长怡路1号,NA,NA,29,23,14,11,NA,NA,49,46,25,16,6,6,0.8,0.7
2026-03-10T1900,1666A,118.6612,37.4313,东营市,市环保局,细颗粒物(PM2.5),131,136,69,94,45,106,106,134,134,39,23,10,14,0.7,0.7
2026-03-10T1900,3036A,118.6903,37.4337,东营市,开发区管委会,颗粒物(PM10),139,220,75,96,45,NA,NA,135,135,62,31,9,13,0.8,0.6
2026-03-10T1900,3365A,118.5721,37.5654,东营市,垦利区民丰路,细颗粒物(PM2.5),142,124,66,106,49,108,108,150,150,38,29,12,14,1.0,0.9
2026-03-10T1900,3498A,118.5063,37.8606,东营市,河口城区,细颗粒物(PM2.5),140,144,79,104,49,100,100,112,112,29,22,9,9,0.7,0.8
2026-03-10T1900,3646A,118.4979,37.4623,东营市,胜利站,细颗粒物(PM2.5),129,129,73,91,44,90,90,128,128,62,35,9,13,1.3,1.1
2026-03-10T1900,3734A,118.5753,37.4405,东营市,理想之城,细颗粒物(PM2.5),130,141,77,92,44,121,121,149,149,35,31,7,9,1.0,0.9
2026-03-10T1900,1591A,110.0024,39.8127,鄂尔多斯市,综合楼,,46,46,48,17,24,96,96,109,109,15,24,8,10,0.3,0.5
2026-03-10T1900,1592A,109.9485,39.8259,鄂尔多斯市,巴音孟克林场办事处,NA,NA,46,43,20,20,NA,NA,109,109,24,18,7,7,0.4,0.5
2026-03-10T1900,1593A,109.7734,39.5987,鄂尔多斯市,康泽苑,,44,44,42,24,19,125,125,116,116,9,16,8,9,0.4,0.4
2026-03-10T1900,1594A,109.8121,39.5987,鄂尔多斯市,华泰汽车城,,44,44,41,23,20,126,126,118,118,14,21,12,10,0.4,0.4
2026-03-10T1900,1595A,109.9734,39.7884,鄂尔多斯市,奥林花园,,41,41,54,14,21,101,101,109,109,17,31,5,5,0.4,0.5
2026-03-10T1900,2436A,114.894,30.3989,鄂州市,市政府,细颗粒物(PM2.5),66,52,68,43,48,91,91,113,112,32,27,9,10,0.6,0.7
2026-03-10T1900,2437A,114.8986,30.3714,鄂州市,赵家坝,细颗粒物(PM2.5),58,44,70,39,51,123,123,138,138,10,19,10,10,0.6,0.6
2026-03-10T1900,3654A,114.8093,30.4091,鄂州市,精准医疗中心,,41,41,72,27,53,123,123,133,133,10,20,11,15,0.6,0.7
2026-03-10T1900,2454A,109.4978,30.2979,恩施土家族苗族自治州,湖北民院,,33,23,24,23,14,86,86,80,80,9,12,6,6,0.4,0.5
2026-03-10T1900,3549A,109.5061,30.3771,恩施土家族苗族自治州,龙凤新区,,26,20,23,18,11,52,52,74,74,15,6,7,7,0.4,0.4
2026-03-10T1900,2499A,108.3411,21.6159,防城港市,沙万,,30,30,13,8,3,72,72,74,74,12,9,6,6,0.6,0.6
2026-03-10T1900,2500A,108.3515,21.7733,防城港市,防城档案局,,38,38,18,13,3,72,72,74,74,13,9,5,6,0.6,0.7
2026-03-10T1900,2501A,108.3506,21.6414,防城港市,大海花园,,24,19,12,10,5,74,74,77,77,15,14,6,6,0.5,0.6
2026-03-10T1900,1371A,113.1293,23.0065,佛山市,湾梁,,32,27,15,22,10,51,51,54,54,29,18,/,/,/,/
2026-03-10T1900,1372A,113.1082,23.0477,佛山市,华材职中,,25,24,18,17,9,47,47,53,53,35,23,6,6,0.5,0.6
2026-03-10T1900,1373A,113.1439,23.045,佛山市,南海气象局,,23,22,13,16,8,48,48,53,53,30,20,/,/,/,/
2026-03-10T1900,1374A,113.2879,22.8094,佛山市,顺德苏岗,,19,NA,14,13,8,42,42,50,46,23,17,/,/,0.7,0.7
2026-03-10T1900,1376A,112.8384,22.8678,佛山市,高明孔堂,,35,34,16,24,11,42,42,46,45,25,14,/,/,/,/
2026-03-10T1900,1377A,112.8835,23.1584,佛山市,三水监测站,,36,36,11,20,9,44,44,51,51,31,16,3,3,0.6,0.6
2026-03-10T1900,1378A,112.8668,23.185,佛山市,三水云东海,,32,32,15,17,8,33,33,50,50,29,17,/,/,/,/
2026-03-10T1900,3625A,113.2568,22.7629,佛山市,容桂街道办,,23,19,12,16,8,39,39,44,44,28,23,/,/,/,/
2026-03-10T1900,1282A,119.2681,26.0506,福州市,师大,,44,44,37,27,23,112,112,121,121,17,13,3,4,0.3,0.3
2026-03-10T1900,1283A,119.2983,26.1028,福州市,五四北路,,42,40,34,29,23,116,116,122,122,18,14,5,5,0.4,0.3
2026-03-10T1900,1284A,119.2648,26.0769,福州市,杨桥西路,,45,45,35,23,20,112,112,124,124,16,12,4,4,/,/
2026-03-10T1900,3048A,119.5799,26.0937,福州市,九龙,,38,36,32,15,22,120,120,123,123,9,9,4,4,0.3,0.3
2026-03-10T1900,3526A,119.5188,25.9666,福州市,吴航,,38,27,39,14,21,120,120,123,123,12,11,5,5,0.4,0.4
2026-03-10T1900,4104A,119.3106,26.0648,福州市,路通桥巷6号,颗粒物(PM10),52,52,42,28,25,114,114,121,121,12,10,/,/,/,/
2026-03-10T1900,1755A,123.7974,41.8494,抚顺市,望花区,细颗粒物(PM2.5),100,106,110,60,54,75,75,98,97,37,40,11,10,0.9,1
2026-03-10T1900,1756A,123.9161,41.8827,抚顺市,顺城区,细颗粒物(PM2.5),80,84,75,50,52,69,69,98,97,45,44,12,11,0.9,0.8
2026-03-10T1900,1757A,124.0437,41.8615,抚顺市,东洲区,细颗粒物(PM2.5),80,82,72,50,41,87,87,101,101,24,21,19,10,0.8,0.6
2026-03-10T1900,1758A,123.9246,41.8638,抚顺市,新抚区,颗粒物(PM10),88,103,91,47,47,65,65,108,104,46,39,11,9,0.9,0.7
2026-03-10T1900,1759A,124.0972,41.8961,抚顺市,大伙房水库,颗粒物(PM10),65,71,64,35,39,105,105,111,111,14,19,14,11,0.6,0.6
2026-03-10T1900,1760A,123.708,41.8386,抚顺市,沈抚新城,细颗粒物(PM2.5),80,88,111,50,55,75,75,99,98,40,47,10,12,0.6,1.1
2026-03-10T1900,2377A,116.3544,27.9833,抚州市,市站,,50,49,52,35,40,106,106,135,135,19,10,8,9,0.9,0.8
2026-03-10T1900,2378A,116.3562,27.9631,抚州市,血防站,,48,46,55,33,38,132,132,136,136,8,8,4,7,0.8,0.8
2026-03-10T1900,2379A,116.3561,28.0007,抚州市,采茶剧团,,45,43,50,31,40,136,136,134,134,7,9,7,9,0.9,1
2026-03-10T1900,2380A,116.3854,27.9648,抚州市,医学分院,颗粒物(PM10),53,53,59,28,35,134,134,128,128,6,11,8,11,0.9,1
2026-03-10T1900,2207A,121.6095,41.9978,阜新市,工业园区,"颗粒物(PM10),细颗粒物(PM2.5)",68,75,78,44,43,81,81,90,90,25,32,13,17,0.6,0.7
2026-03-10T1900,2208A,121.6567,42.0188,阜新市,长青街,细颗粒物(PM2.5),70,70,60,45,36,84,84,89,89,23,26,12,16,0.6,0.6
2026-03-10T1900,2209A,121.6672,42.07,阜新市,农业园区,颗粒物(PM10),73,82,76,46,32,76,76,83,83,22,21,10,16,0.6,0.7
2026-03-10T1900,2211A,121.6343,42.0455,阜新市,玉龙新城,颗粒物(PM10),66,72,71,40,37,79,79,89,89,28,38,10,11,0.7,0.7
2026-03-10T1900,2301A,115.8276,32.8929,阜阳市,市监测站,NA,NA,76,117,52,90,119,119,96,NA,19,29,NA,5,NA,0.6
2026-03-10T1900,2303A,115.8551,32.8606,阜阳市,开发区,颗粒物(PM10),89,104,119,47,73,121,121,123,123,19,18,5,6,0.5,0.6
2026-03-10T1900,2875A,115.783962,32.889217,阜阳市,阜阳职业技术学院,细颗粒物(PM2.5),86,78,93,53,65,125,125,125,125,19,19,7,7,0.6,0.5
2026-03-10T1900,3468A,115.79,32.8614,阜阳市,市规划展馆,细颗粒物(PM2.5),84,69,101,52,75,124,124,130,130,16,17,7,8,0.6,0.6
2026-03-10T1900,3469A,115.835101,32.918568,阜阳市,枣园社区,细颗粒物(PM2.5),94,82,108,57,80,118,118,121,121,19,20,8,9,0.6,0.6
2026-03-10T1900,2669A,102.9097,34.9841,甘南藏族自治州,州政府,,36,NA,37,25,24,90,90,82,82,5,18,3,2,0.3,0.6
2026-03-10T1900,3380A,102.8915,34.9618,甘南藏族自治州,甘肃民族师范学院,NA,NA,34,42,3,14,89,89,83,83,10,31,NA,3,NA,0.6
2026-03-10T1900,2570A,101.96,30.048,甘孜藏族自治州,水桥子,,22,12,9,3,2,70,70,62,62,5,12,4,3,0.5,0.5
2026-03-10T1900,3065A,101.9534,29.9976,甘孜藏族自治州,州环保局,,21,9,7,3,3,65,65,72,72,17,13,6,6,0.5,0.4
2026-03-10T1900,2363A,114.9368,25.8663,赣州市,地委,,50,38,39,35,34,89,89,99,98,20,13,5,5,0.8,0.8
2026-03-10T1900,2364A,114.946,25.8483,赣州市,气象台,颗粒物(PM10),54,55,44,36,37,88,88,106,104,33,16,5,6,0.4,0.4
2026-03-10T1900,2365A,114.932,25.8332,赣州市,市图书馆,,48,38,39,33,34,59,59,77,64,19,12,5,4,0.6,0.6
2026-03-10T1900,2366A,114.8905,25.8472,赣州市,华坚鞋城,,45,45,40,31,32,94,94,99,99,15,13,5,5,0.3,0.3
2026-03-10T1900,3109A,115.0094,25.8614,赣州市,赣县区卫计委,NA,NA,40,33,33,32,NA,NA,85,85,14,6,4,4,0.7,0.8
2026-03-10T1900,2684A,106.2753,36.0057,固原市,监测站,颗粒物(PM10),76,86,32,17,12,84,84,87,87,16,13,8,8,0.4,0.5
2026-03-10T1900,2685A,106.2384,36.0189,固原市,新区,,39,39,29,16,12,82,82,86,86,13,10,8,8,0.4,0.4
2026-03-10T1900,2544A,106.6307,30.4577,广安市,市委,NA,NA,26,33,13,24,114,114,104,104,NA,21,43,7,0.6,0.7
2026-03-10T1900,2545A,106.6266,30.4662,广安市,友谊中学,,36,32,30,10,21,115,115,104,104,13,18,10,10,0.7,1
2026-03-10T1900,2547A,106.6386,30.4551,广安市,广电花园,,33,31,34,14,23,105,105,98,98,18,18,8,8,0.6,0.7
2026-03-10T1900,2902A,106.6347,30.4868,广安市,北辰小学,,35,27,30,14,24,109,109,99,99,12,16,4,3,0.7,0.8
2026-03-10T1900,2524A,105.8211,32.4444,广元市,老城,,49,49,30,17,16,58,58,56,56,25,24,4,6,0.9,1
2026-03-10T1900,2526A,105.8629,32.429,广元市,监测站,颗粒物(PM10),53,53,37,19,18,47,47,55,54,36,23,11,7,0.6,0.8
2026-03-10T1900,3617A,105.8047,32.4167,广元市,经开区,,36,36,32,22,21,34,34,47,47,40,23,6,7,0.9,0.8
2026-03-10T1900,1345A,113.2346,23.1423,广州市,广雅中学,,29,29,18,17,10,47,47,53,53,25,20,2,2,0.4,0.4
2026-03-10T1900,1346A,113.2611,23.105,广州市,市五中,,23,20,11,16,8,58,58,64,64,23,17,6,6,/,/
2026-03-10T1900,1348A,113.3477,23.0916,广州市,广东商学院,NA,NA,18,11,12,6,53,53,53,53,NA,12,5,4,0.6,0.6
2026-03-10T1900,1349A,113.4332,23.105,广州市,市八十六中,,18,16,9,12,7,48,48,59,53,21,14,4,4,/,/
2026-03-10T1900,1350A,113.3506,22.9488,广州市,番禺中学,,26,26,18,13,8,43,43,49,47,21,15,2,2,0.8,0.7
2026-03-10T1900,1351A,113.2147,23.3918,广州市,花都师范,,32,27,13,22,9,61,61,62,62,14,11,5,6,0.7,0.8
2026-03-10T1900,1352A,113.2599,23.1329,广州市,市监测站,,29,29,15,17,8,47,47,54,54,24,16,3,2,/,/
2026-03-10T1900,1353A,113.5618,23.3119,广州市,九龙镇镇龙,,20,20,6,13,4,48,48,52,51,9,8,5,5,0.5,0.5
2026-03-10T1900,1354A,113.2764,23.1544,广州市,麓湖,,25,18,12,17,9,40,40,56,54,18,13,2,2,0.4,0.7
2026-03-10T1900,2846A,113.3209,23.1323,广州市,体育西,,30,30,16,18,9,52,52,55,55,18,15,5,5,0.8,0.8
2026-03-10T1900,3298A,113.5718,23.5493,广州市,从化街口,,36,27,8,25,7,50,50,59,58,11,7,8,8,0.7,0.6
2026-03-10T1900,3299A,113.3463,23.369,广州市,白云竹料,,30,28,10,21,7,64,64,68,68,10,8,3,3,0.7,0.7
2026-03-10T1900,3300A,113.2981,23.2365,广州市,白云嘉禾,NA,NA,34,13,16,8,NA,NA,63,63,19,14,4,10,/,/
2026-03-10T1900,3301A,113.4256,23.1716,广州市,黄埔科学城,,20,19,10,14,7,50,50,58,55,12,7,6,7,0.6,0.6
2026-03-10T1900,3302A,113.3942,23.0485,广州市,番禺大学城,,19,19,19,10,4,45,45,54,52,24,19,4,4,0.5,0.5
2026-03-10T1900,3303A,113.4923,22.8169,广州市,南沙黄阁,,26,26,24,13,10,40,40,48,43,31,24,9,7,/,/
2026-03-10T1900,3304A,113.534,22.7893,广州市,南沙街,,27,27,25,15,12,40,40,46,44,23,16,8,8,0.7,0.7
2026-03-10T1900,3443A,113.2905,23.5541,广州市,花都梯面,,32,31,14,22,9,60,60,62,62,10,9,4,5,/,/
2026-03-10T1900,3445A,113.786,23.7479,广州市,从化良口,,23,18,9,16,6,45,45,54,53,9,7,4,4,/,/
2026-03-10T1900,3446A,113.805,23.2614,广州市,增城荔城,NA,NA,11,8,9,6,NA,NA,57,57,11,10,7,7,0.6,0.7
2026-03-10T1900,2506A,109.604387,23.066791,贵港市,江南子站,,24,24,10,11,6,71,71,68,68,10,10,5,4,0.7,0.7
2026-03-10T1900,2508A,109.5669,23.1065,贵港市,荷城子站,,22,22,10,13,7,65,65,63,63,13,10,5,5,0.7,0.7
2026-03-10T1900,3405A,109.5886,23.1172,贵港市,新世纪学校,,27,27,14,12,8,69,69,67,67,14,12,/,/,0.6,0.8
2026-03-10T1900,4260A,109.5933,23.095,贵港市,中山路155-3号,,26,26,17,13,7,71,71,67,67,9,9,/,/,0.5,0.5
2026-03-10T1900,1439A,106.6863,26.6035,贵阳市,马鞍山,,22,22,15,10,11,65,65,81,81,12,10,5,5,/,/
2026-03-10T1900,1441A,106.6241,26.6266,贵阳市,鉴湖路,,25,24,23,13,8,80,80,82,82,15,13,7,5,0.4,0.4
2026-03-10T1900,1442A,106.7468,26.6344,贵阳市,燕子冲,NA,NA,22,17,11,13,98,98,97,97,NA,11,3,7,0.3,0.8
2026-03-10T1900,1443A,106.6556,26.4362,贵阳市,碧云窝,,29,14,20,9,10,90,90,94,94,10,10,6,8,/,/
2026-03-10T1900,1445A,106.6963,26.6063,贵阳市,红边门,,34,34,21,20,11,82,82,92,92,25,16,9,11,/,/
2026-03-10T1900,1446A,106.7162383,26.56964667,贵阳市,新华路,,31,31,27,14,9,81,81,88,88,29,14,17,10,0.6,0.4
2026-03-10T1900,1447A,106.6742,26.542,贵阳市,太慈桥,,23,12,13,3,8,73,73,90,88,19,13,4,5,/,/
2026-03-10T1900,4230A,106.688212,26.56952,贵阳市,花果园大街66号,,30,NA,12,14,9,93,93,84,84,13,13,2,3,/,/
2026-03-10T1900,4231A,106.687268,26.516892,贵阳市,漓江路57号,,26,14,8,11,8,83,83,97,97,22,16,9,10,0.5,0.6
2026-03-10T1900,1864A,110.3091,25.2705,桂林市,龙隐路小学,,35,33,27,24,23,76,76,83,83,12,9,4,3,0.7,0.7
2026-03-10T1900,1865A,110.2849361,25.22909545,桂林市,八中,,30,30,26,16,16,61,61,69,69,18,13,3,3,0.7,0.7
2026-03-10T1900,3531A,110.296,25.1254,桂林市,旅游学院,,41,41,33,22,25,71,71,85,83,9,9,5,4,0.5,0.6
2026-03-10T1900,4222A,110.1835,25.2444,桂林市,环湖路276号,,30,29,25,21,17,75,75,81,81,8,9,2,5,0.6,0.6
2026-03-10T1900,4301A,110.2803,25.2773,桂林市,信义路13号,NA,NA,31,25,27,22,NA,NA,83,83,14,10,4,5,0.6,0.7
2026-03-10T1900,2674A,100.2262,34.4854,果洛藏族自治州,玛沁县大武镇,NA,NA,NA,48,35,26,NA,NA,96,96,2,5,21,22,0.3,0.4
2026-03-10T1900,1130A,126.5557,45.8109,哈尔滨市,松北商大,细颗粒物(PM2.5),68,48,57,44,36,75,75,95,93,13,19,10,10,0.6,0.6
2026-03-10T1900,1132A,126.6162,45.719,哈尔滨市,南岗学府路,颗粒物(PM10),67,73,62,32,31,74,74,102,99,16,18,14,11,0.3,0.3
2026-03-10T1900,1133A,126.6894,45.7733,哈尔滨市,太平宏伟公园,颗粒物(PM10),58,60,58,36,29,77,77,98,96,16,24,8,9,0.5,0.5
2026-03-10T1900,1134A,126.6361,45.7672,哈尔滨市,道外承德广场,颗粒物(PM10),75,85,79,35,31,76,76,95,94,15,29,10,11,0.6,0.7
2026-03-10T1900,1136A,126.644,45.7261,哈尔滨市,动力和平路,"颗粒物(PM10),细颗粒物(PM2.5)",64,69,62,42,33,73,73,97,95,17,25,18,11,0.7,0.8
2026-03-10T1900,1137A,126.5933,45.7479,哈尔滨市,道里建国路,细颗粒物(PM2.5),64,NA,60,42,34,73,73,94,92,21,29,11,18,0.4,0.3
2026-03-10T1900,1138A,126.6127,45.6119,哈尔滨市,平房东轻厂,细颗粒物(PM2.5),58,53,47,39,33,48,48,64,64,73,48,13,10,0.7,0.7
2026-03-10T1900,1139A,126.5875,45.9827,哈尔滨市,呼兰师专,细颗粒物(PM2.5),70,46,57,45,28,79,79,88,88,16,23,13,13,0.2,0.2
2026-03-10T1900,1140A,126.6299,45.6799,哈尔滨市,省农科院,颗粒物(PM10),74,83,68,38,33,74,74,95,94,16,24,12,12,0.6,0.6
2026-03-10T1900,4282A,126.6769,45.7379,哈尔滨市,华山路1号,,48,48,67,31,30,78,78,96,95,22,32,17,14,0.6,0.6
2026-03-10T1900,4283A,126.9717,45.5356,哈尔滨市,解放大街52号,颗粒物(PM10),72,80,46,43,22,80,80,103,101,21,15,12,3,0.9,0.8
2026-03-10T1900,2688A,93.5124,42.8176,哈密市,地区监测站,,43,43,65,20,29,81,81,84,84,7,25,5,7,0.0,0.3
2026-03-10T1900,2689A,93.5014,42.8312,哈密市,哈密师范学校,颗粒物(PM10),51,51,72,28,24,88,88,88,88,7,30,7,10,0.4,0.8
2026-03-10T1900,2671A,100.9016,36.9464,海北藏族自治州,海晏县西海镇,,25,16,18,3,10,80,80,80,80,1,4,7,7,0.3,0.3
2026-03-10T1900,3867A,102.074,36.5056,海东市,平安区公安局北苑,,32,20,42,3,24,102,102,99,99,5,14,7,10,1.5,1.2
2026-03-10T1900,4163A,102.0984,36.5119,海东市,滨河路,NA,NA,NA,42,13,25,NA,NA,86,86,24,30,6,8,0.3,0.7
2026-03-10T1900,1410A,110.3189,20.0596,海口市,海南大学,,21,17,25,11,15,65,65,62,62,8,10,5,6,0.6,0.7
2026-03-10T1900,1411A,110.2827,20.0051,海口市,秀英海南医院,,18,13,20,11,13,56,56,56,56,13,13,7,8,0.6,0.7
2026-03-10T1900,1412A,110.3391,19.9979,海口市,海南师范大学,,21,15,27,13,16,65,65,63,63,9,9,5,5,0.6,0.7
2026-03-10T1900,1413A,110.3303,20.0359,海口市,龙华路环保局宿舍,,21,14,24,14,16,65,65,64,64,11,11,/,/,0.5,0.6
2026-03-10T1900,3539A,110.5111,19.9737,海口市,桂林洋子站,,22,16,29,10,16,68,68,64,64,8,9,/,/,/,/
2026-03-10T1900,4134A,110.1952,20.0451,海口市,长滨二路9号,,19,12,21,9,17,59,59,48,48,7,9,/,/,/,/
2026-03-10T1900,2673A,100.6158,36.2985,海南藏族自治州,共和县恰卜恰镇,NA,NA,NA,31,NA,14,90,90,90,90,5,12,11,11,0.3,0.3
2026-03-10T1900,2676A,97.373,37.376,海西蒙古族藏族自治州,德令哈市,,30,20,22,6,9,93,93,92,92,6,3,13,16,0.4,0.3
2026-03-10T1900,1049A,114.492,36.5712,邯郸市,矿院,细颗粒物(PM2.5),133,127,100,96,68,121,121,127,127,30,29,4,3,0.7,0.6
2026-03-10T1900,1050A,114.4839,36.6136,邯郸市,丛台公园,细颗粒物(PM2.5),180,138,108,136,96,119,119,120,120,21,18,5,4,0.7,0.7
2026-03-10T1900,3458A,114.7893,36.5592,邯郸市,香泉濮院小区,细颗粒物(PM2.5),127,135,127,89,78,113,113,126,126,26,17,1,2,0.9,0.7
2026-03-10T1900,3580A,114.1998,36.4439,邯郸市,峰峰矿区临水派出所,细颗粒物(PM2.5),122,107,79,84,58,137,137,139,139,15,6,9,6,0.4,0.7
2026-03-10T1900,4068A,114.5209,36.7697,邯郸市,建安街268号,细颗粒物(PM2.5),172,145,96,130,81,90,90,123,122,47,26,3,4,0.6,0.7
2026-03-10T1900,4069A,114.5488,36.6177,邯郸市,丛台东路558号,细颗粒物(PM2.5),137,124,99,100,86,118,118,124,124,28,29,2,2,0.8,0.6
2026-03-10T1900,2635A,107.0155,33.0707,汉中市,市监测站,,29,29,32,15,18,73,73,83,83,19,18,5,5,0.6,0.7
2026-03-10T1900,2636A,107.0083,33.114,汉中市,鑫源开发区,,27,27,36,14,19,86,86,91,91,16,25,5,5,0.7,0.7
2026-03-10T1900,2637A,107.0072,33.0323,汉中市,南郑大河坎水厂,,28,28,31,12,17,67,67,81,81,18,19,5,5,0.6,0.6
2026-03-10T1900,1223A,120.2073,30.2111,杭州市,滨江,颗粒物(PM10),61,65,61,38,38,86,86,103,103,44,25,10,8,0.6,0.6
2026-03-10T1900,1224A,120.0625,30.2737,杭州市,西溪,颗粒物(PM10),53,53,61,29,42,84,84,104,103,24,19,9,9,0.5,0.4
2026-03-10T1900,1226A,120.3417,30.315,杭州市,下沙,颗粒物(PM10),89,104,67,53,39,80,80,93,93,46,33,12,8,0.7,0.6
2026-03-10T1900,1227A,120.1252,30.2465,杭州市,卧龙桥,,44,44,56,28,40,58,58,111,106,40,19,8,8,0.4,0.4
2026-03-10T1900,1228A,120.1902,30.2691,杭州市,浙江农大,颗粒物(PM10),56,58,60,34,37,69,69,88,88,42,22,8,7,0.5,0.6
2026-03-10T1900,1230A,120.1195,30.3121,杭州市,和睦小学,颗粒物(PM10),56,58,67,33,46,83,83,100,100,34,24,6,7,0.6,0.6
2026-03-10T1900,1231A,120.3076,30.4146,杭州市,临平镇,细颗粒物(PM2.5),72,76,63,46,41,95,95,99,99,38,26,9,7,0.5,0.5
2026-03-10T1900,1232A,120.2753,30.1839,杭州市,城厢镇,细颗粒物(PM2.5),72,69,62,46,37,89,89,104,104,35,27,12,10,0.7,0.7
2026-03-10T1900,1233A,120.0883,30.1808,杭州市,云栖,,47,47,58,24,37,69,69,104,102,32,28,4,5,0.6,0.6
2026-03-10T1900,3557A,119.9463,30.0496,杭州市,镇二中,,43,38,42,30,37,100,100,113,113,25,22,5,5,0.6,0.6
2026-03-10T1900,3558A,119.7184,30.2367,杭州市,市府大楼,颗粒物(PM10),53,53,57,27,45,100,100,116,116,21,15,7,7,0.3,0.4
2026-03-10T1900,3656A,120.1554,30.2863,杭州市,消防大队,颗粒物(PM10),55,57,60,36,43,81,81,100,99,39,20,8,8,0.5,0.5
2026-03-10T1900,1270A,117.1957,31.7845,合肥市,明珠广场,细颗粒物(PM2.5),72,78,91,46,72,121,121,124,124,22,23,7,7,0.9,0.9
2026-03-10T1900,1271A,117.307,31.8765,合肥市,三里街,细颗粒物(PM2.5),74,78,94,47,68,110,110,114,114,36,39,8,7,0.7,0.7
2026-03-10T1900,1272A,117.2587,31.8703,合肥市,琥珀山庄,细颗粒物(PM2.5),82,80,90,51,67,125,125,126,126,29,33,8,7,0.7,0.8
2026-03-10T1900,1275A,117.2593,31.9376,合肥市,庐阳区,"颗粒物(PM10),细颗粒物(PM2.5)",70,78,98,45,65,121,121,120,120,22,31,6,4,0.8,0.8
2026-03-10T1900,1276A,117.345251,31.861615,合肥市,瑶海区,颗粒物(PM10),72,80,94,42,59,123,123,125,125,28,33,7,6,0.7,0.8
2026-03-10T1900,1277A,117.3033,31.7967,合肥市,包河区,颗粒物(PM10),65,70,92,39,63,124,124,123,123,32,57,10,8,0.8,0.9
2026-03-10T1900,1278A,117.278,31.7392,合肥市,滨湖新区,颗粒物(PM10),63,68,94,40,64,128,128,126,126,14,16,4,4,0.7,0.8
2026-03-10T1900,1279A,117.1324,31.8395,合肥市,高新区,颗粒物(PM10),65,70,93,39,63,119,119,121,121,27,28,5,5,0.7,0.8
2026-03-10T1900,3464A,117.3802,31.9148,合肥市,高教基地,颗粒物(PM10),74,83,91,39,62,125,125,130,130,28,28,11,10,0.6,0.7
2026-03-10T1900,4098A,117.2518,31.8404,合肥市,中国科学技术大学,颗粒物(PM10),65,70,90,41,64,133,133,134,134,20,19,10,10,0.7,0.8
2026-03-10T1900,3614A,79.9241,37.0878,和田地区,地区环保局,颗粒物(PM10),315,432,334,77,77,92,92,82,82,3,12,2,2,0.7,0.9
2026-03-10T1900,3615A,79.9132,37.1137,和田地区,市环保局,颗粒物(PM10),255,388,310,79,82,94,94,82,82,6,22,3,2,0.5,1
2026-03-10T1900,2517A,108.0496,24.6957,河池市,市环保站,NA,NA,14,11,3,3,NA,NA,67,67,7,6,4,4,0.6,0.6
2026-03-10T1900,4302A,108.0901,24.6945,河池市,上任中路54号,,20,16,11,3,4,61,61,65,65,8,9,5,5,0.5,0.5
2026-03-10T1900,1697A,114.6962,23.7538,河源市,东埔,,32,28,11,22,9,51,51,57,57,13,8,5,5,0.7,0.8
2026-03-10T1900,1698A,114.6895,23.7232,河源市,老城,,29,29,12,19,9,51,51,58,58,12,8,6,6,0.7,0.7
2026-03-10T1900,3374A,115.5562,35.089,菏泽市,定陶老年大学,细颗粒物(PM2.5),122,119,124,84,91,120,120,129,129,18,17,5,6,0.5,0.4
2026-03-10T1900,4114A,115.4239,35.2593,菏泽市,黄河路600号,细颗粒物(PM2.5),127,NA,143,89,99,NA,NA,123,123,NA,20,NA,5,NA,0.6
2026-03-10T1900,4115A,115.5025,35.2727,菏泽市,菏泽市人社局,细颗粒物(PM2.5),123,121,124,85,95,118,118,120,120,21,21,4,5,0.6,0.6
2026-03-10T1900,4184A,115.479691,35.244011,菏泽市,永昌路1号,细颗粒物(PM2.5),129,128,128,91,96,123,123,131,131,22,22,2,3,0.6,0.5
2026-03-10T1900,4193A,115.471542,35.280012,菏泽市,长城路999号,细颗粒物(PM2.5),123,124,128,85,93,130,130,133,133,20,19,11,7,0.5,0.5
2026-03-10T1900,2514A,111.5264,24.4178,贺州市,环保小区,,39,39,14,25,11,63,63,72,72,15,10,4,3,0.6,0.8
2026-03-10T1900,2515A,111.561,24.4074,贺州市,政协大楼,,36,28,16,25,12,59,59,68,68,17,13,5,5,0.5,0.6
2026-03-10T1900,3534A,111.4744,24.455,贺州市,西湾,,36,34,16,25,12,61,61,65,65,14,10,5,5,0.7,0.7
2026-03-10T1900,2385A,114.17,35.9019,鹤壁市,市监测站,细颗粒物(PM2.5),140,136,114,104,87,128,128,123,123,22,14,7,6,0.8,0.8
2026-03-10T1900,2386A,114.2953,35.7512,鹤壁市,市交警支队,细颗粒物(PM2.5),162,150,128,123,102,106,106,115,115,27,21,10,10,0.7,0.7
2026-03-10T1900,2387A,114.2877,35.7302,鹤壁市,迎宾馆,细颗粒物(PM2.5),158,161,138,120,100,110,110,119,119,31,25,13,10,0.8,0.8
2026-03-10T1900,3474A,114.2616,35.6824,鹤壁市,大新区,细颗粒物(PM2.5),185,NA,118,139,107,NA,NA,117,117,NA,43,6,6,0.9,0.8
2026-03-10T1900,3596A,114.1573,35.9607,鹤壁市,南山宾馆,细颗粒物(PM2.5),158,138,116,120,94,124,124,122,122,28,16,8,9,0.8,0.7
2026-03-10T1900,2244A,130.2537,47.3416,鹤岗市,哈啤分公司,,44,44,30,26,18,74,74,81,78,13,11,13,12,0.2,0.3
2026-03-10T1900,2245A,130.2683,47.3087,鹤岗市,斯达机电,,47,47,32,29,13,72,72,87,83,17,10,10,9,0.5,0.4
2026-03-10T1900,2246A,130.3114,47.3388,鹤岗市,东山纸板厂,颗粒物(PM10),53,54,101,34,26,73,73,83,82,21,33,9,11,0.6,1.1
2026-03-10T1900,2263A,127.4832,50.2524,黑河市,交通局,,43,39,34,30,22,37,37,90,84,69,25,11,10,1.0,0.6
2026-03-10T1900,2264A,127.5146,50.2339,黑河市,环保局,细颗粒物(PM2.5),100,NA,24,60,21,55,55,90,87,56,23,27,12,0.9,0.5
2026-03-10T1900,1074A,115.6839,37.754,衡水市,电机北厂,NA,NA,NA,111,NA,86,132,132,131,131,NA,22,NA,5,0.8,0.7
2026-03-10T1900,1075A,115.6303,37.7318,衡水市,市监测站,细颗粒物(PM2.5),138,134,106,101,82,118,118,124,124,23,26,8,8,0.6,0.6
2026-03-10T1900,3188A,115.6684,37.7216,衡水市,市城管局,细颗粒物(PM2.5),132,128,112,95,80,127,127,128,128,20,28,7,6,0.7,0.7
2026-03-10T1900,3459A,115.599,37.5491,衡水市,地表水厂,细颗粒物(PM2.5),129,130,109,91,93,107,107,128,128,31,35,7,7,0.5,0.5
2026-03-10T1900,2457A,112.6209,26.9268,衡阳市,衡阳化工总厂,NA,NA,53,54,40,53,NA,NA,82,82,17,14,10,10,1.0,1
2026-03-10T1900,2458A,112.621,26.8957,衡阳市,珠晖区环保局,,46,46,60,32,52,79,79,80,80,12,20,5,5,1.4,0.9
2026-03-10T1900,2459A,112.628,26.8654,衡阳市,市委党校,细颗粒物(PM2.5),56,52,55,38,55,73,73,80,80,14,15,8,10,1.0,1.1
2026-03-10T1900,2460A,112.6007,26.8977,衡阳市,市监测站,细颗粒物(PM2.5),64,67,59,42,54,68,68,78,78,19,18,6,7,0.7,0.8
2026-03-10T1900,2461A,112.5658,26.9013,衡阳市,真空机电公司,,49,45,55,34,55,77,77,84,84,15,17,6,6,1.1,1.1
2026-03-10T1900,3399A,112.6703,26.8817,衡阳市,师范学院,细颗粒物(PM2.5),60,51,61,40,45,79,79,83,83,7,10,4,4,0.9,0.9
2026-03-10T1900,3038A,103.3757,23.3679,红河哈尼族彝族自治州,州图书馆,,33,28,18,23,14,66,66,74,74,7,6,4,6,0.6,0.5
2026-03-10T1900,4154A,103.401,23.3561,红河哈尼族彝族自治州,蒙自市朝阳路,,35,30,15,24,12,70,70,78,78,8,6,7,6,0.5,0.6
2026-03-10T1900,1090A,111.6506,40.7517,呼和浩特市,呼市一监,,30,NA,64,20,35,95,95,95,95,8,33,5,8,0.2,0.5
2026-03-10T1900,1094A,111.7516,40.8369,呼和浩特市,如意水处理厂,,31,NA,56,10,31,97,97,98,98,5,36,9,12,0.2,0.5
2026-03-10T1900,1095A,111.727798,40.806187,呼和浩特市,二十九中,,30,8,58,3,31,93,93,92,92,5,30,10,13,0.2,0.5
2026-03-10T1900,1097A,111.717,40.7617,呼和浩特市,化肥厂生活区,,30,NA,62,19,35,94,94,95,95,8,30,4,8,0.3,0.5
2026-03-10T1900,3699A,111.6519,40.8389,呼和浩特市,海东办,NA,NA,14,60,3,34,96,96,95,95,5,38,3,6,NA,0.2
2026-03-10T1900,4275A,111.591512,40.827312,呼和浩特市,成吉思汗西街8号,,27,14,55,3,28,86,86,89,89,9,37,5,8,0.2,0.5
2026-03-10T1900,4276A,111.6597,40.8077,呼和浩特市,公园东路75号,,29,17,58,3,34,91,91,90,90,8,29,7,10,0.3,0.6
2026-03-10T1900,4277A,111.5427,40.7846,呼和浩特市,金海路35号,,27,26,55,6,33,86,86,86,86,13,39,6,11,0.4,0.6
2026-03-10T1900,3061A,119.7511,49.1576,呼伦贝尔市,国华电力东,,30,29,35,21,23,94,94,98,98,15,16,5,5,0.3,0.3
2026-03-10T1900,4279A,119.7569,49.2222,呼伦贝尔市,伊敏大街东7号,,32,24,29,22,23,92,92,98,98,13,17,5,5,0.3,0.4
2026-03-10T1900,1250A,120.075,30.867,湖州市,城西水厂,,42,42,63,29,46,109,109,120,120,22,24,6,7,0.4,0.5
2026-03-10T1900,2873A,120.083,30.8929,湖州市,仁皇山新区,,42,41,61,29,42,94,94,111,111,33,22,5,6,0.4,0.5
2026-03-10T1900,2907A,120.1846,30.8592,湖州市,吴兴区站,,49,49,60,30,41,110,110,106,106,23,16,6,6,0.3,0.3
2026-03-10T1900,3562A,120.4146,30.8538,湖州市,南浔区站,颗粒物(PM10),53,53,51,33,35,105,105,113,113,22,18,8,8,0.5,0.5
2026-03-10T1900,1607A,120.904878,40.721091,葫芦岛市,龙港区,,36,33,24,25,18,87,87,87,87,17,13,8,9,0.6,0.5
2026-03-10T1900,1608A,120.8382,40.7521,葫芦岛市,化工街,,41,41,40,25,26,80,80,80,80,24,33,11,12,0.5,0.5
2026-03-10T1900,1609A,120.8339,40.7078,葫芦岛市,新区,,45,43,29,31,18,76,76,79,79,20,20,8,10,0.5,0.4
2026-03-10T1900,1610A,120.8697,40.7679,葫芦岛市,东城区,,42,31,30,29,26,75,75,79,79,27,29,9,12,0.6,0.6
2026-03-10T1900,2483A,109.9297,27.5383,怀化市,河西地税局,,38,38,46,20,29,85,85,98,98,19,15,3,3,/,/
2026-03-10T1900,2484A,109.9783,27.5342,怀化市,市四医院,NA,NA,53,52,18,33,NA,NA,100,100,13,13,6,7,0.5,0.6
2026-03-10T1900,2485A,109.9971,27.5579,怀化市,监测楼,细颗粒物(PM2.5),70,NA,44,45,48,94,94,105,105,13,11,3,3,0.4,0.4
2026-03-10T1900,1210A,119.0566,33.5991,淮安市,钵池山,细颗粒物(PM2.5),98,85,66,59,45,113,113,116,116,27,24,12,11,0.5,0.4
2026-03-10T1900,1211A,119.0083,33.578,淮安市,北京南路,细颗粒物(PM2.5),94,95,67,57,48,109,109,111,111,24,23,8,8,0.6,0.5
2026-03-10T1900,1212A,118.9938,33.6083,淮安市,市监测站,细颗粒物(PM2.5),104,85,64,64,52,116,116,115,115,24,20,8,7,0.7,0.6
2026-03-10T1900,1213A,119.135,33.5038,淮安市,楚州区监测站,细颗粒物(PM2.5),103,90,73,63,49,101,101,118,118,34,37,7,7,0.6,0.4
2026-03-10T1900,3426A,118.8757,33.2897,淮安市,新华书店,细颗粒物(PM2.5),88,80,75,54,55,95,95,111,111,34,28,8,8,0.5,0.5
2026-03-10T1900,4092A,119.119691,33.550006,淮安市,枚皋中路89号,细颗粒物(PM2.5),104,90,73,64,49,NA,NA,116,116,27,27,11,10,0.5,0.4
2026-03-10T1900,4206A,119.028838,33.631911,淮安市,承德北路606号,细颗粒物(PM2.5),104,97,80,64,49,112,112,133,133,22,22,9,8,0.5,0.4
2026-03-10T1900,2282A,116.8005,33.9749,淮北市,监测站,细颗粒物(PM2.5),117,102,129,78,91,120,120,127,127,24,27,6,7,0.7,0.8
2026-03-10T1900,2283A,116.8094,33.9008,淮北市,烈山区政府,细颗粒物(PM2.5),106,89,117,66,86,121,121,124,124,21,25,6,6,0.5,0.5
2026-03-10T1900,4017A,116.7926,33.9534,淮北市,市博物馆,细颗粒物(PM2.5),115,105,127,76,93,114,114,120,120,20,24,3,4,0.7,0.7
2026-03-10T1900,4100A,116.8322,33.9884,淮北市,杜集区第一实验学校,细颗粒物(PM2.5),110,101,121,70,91,115,115,121,120,17,24,7,9,0.6,0.6
2026-03-10T1900,2277A,116.8304,32.7726,淮南市,潘集区政府,NA,NA,84,116,52,83,113,113,121,121,NA,26,7,10,NA,0.6
2026-03-10T1900,2279A,116.8569,32.5949,淮南市,谢家集区政府,细颗粒物(PM2.5),70,67,97,45,74,109,109,122,122,29,26,8,8,0.6,0.6
2026-03-10T1900,2280A,116.8279,32.6333,淮南市,八公山区政府,细颗粒物(PM2.5),88,75,98,54,82,117,117,124,124,17,22,6,7,0.6,0.6
2026-03-10T1900,2894A,117.0561,32.6536,淮南市,经济技术开发区消防队,颗粒物(PM10),78,89,109,43,74,109,109,121,121,30,28,7,7,0.5,0.6
2026-03-10T1900,3329A,117.011,32.5891,淮南市,山南新区,细颗粒物(PM2.5),72,78,92,46,73,122,122,126,126,22,25,7,7,0.5,0.6
2026-03-10T1900,4209A,117.003137,32.644456,淮南市,国庆中路369号,细颗粒物(PM2.5),78,69,91,49,80,108,108,113,113,18,19,7,6,0.5,0.6
2026-03-10T1900,2446A,114.9021,30.474,黄冈市,职工中心,细颗粒物(PM2.5),60,41,68,40,58,122,122,134,134,10,19,6,8,0.9,1
2026-03-10T1900,2929A,114.8858,30.4519,黄冈市,红卫路,细颗粒物(PM2.5),74,NA,63,47,50,113,113,129,129,15,20,4,7,0.2,0.3
2026-03-10T1900,3398A,114.9134,30.4446,黄冈市,市林业局,细颗粒物(PM2.5),52,49,80,36,59,129,129,138,138,6,24,4,4,0.4,0.8
2026-03-10T1900,2672A,102.02,35.5101,黄南藏族自治州,同仁县隆务镇,,34,34,29,19,14,77,77,77,77,5,4,9,9,0.3,0.3
2026-03-10T1900,2295A,118.2905,29.6965,黄山市,延安路89号,,41,41,42,26,32,99,99,122,122,27,13,5,5,0.5,0.6
2026-03-10T1900,2297A,118.1369,30.2755,黄山市,黄山区政府5号楼,颗粒物(PM10),52,52,51,29,29,89,89,118,114,13,12,4,3,0.5,0.7
2026-03-10T1900,4210A,118.335445,29.720283,黄山市,滨江东路7-2号,NA,NA,NA,60,NA,31,NA,NA,128,128,16,12,/,/,/,/
2026-03-10T1900,2423A,115.0547,30.2332,黄石市,沈家营,颗粒物(PM10),56,58,77,35,53,105,105,129,126,22,21,17,12,1.0,1.1
2026-03-10T1900,2426A,114.899,30.211,黄石市,铁山,NA,NA,62,60,38,57,NA,NA,135,135,22,21,7,8,NA,1.4
2026-03-10T1900,2427A,115.0259,30.2108,黄石市,团城山,颗粒物(PM10),62,66,79,37,57,104,104,115,115,23,17,7,9,0.8,1
2026-03-10T1900,3149A,115.0174,30.1591,黄石市,笔架山北路,细颗粒物(PM2.5),70,55,96,45,57,121,121,132,132,10,23,8,8,0.7,0.9
2026-03-10T1900,4185A,115.078022,30.21118,黄石市,磁湖东路29号,细颗粒物(PM2.5),100,74,71,60,58,92,92,128,125,43,19,9,14,1.1,1
2026-03-10T1900,1392A,114.4181,23.0528,惠州市,河南岸金山湖子站,,23,23,14,14,8,48,48,54,54,14,10,6,6,0.7,0.7
2026-03-10T1900,1393A,114.4055,23.0824,惠州市,下埔横江三路子站,,23,23,13,14,8,57,57,62,62,8,8,8,8,0.7,0.7
2026-03-10T1900,1395A,114.4645,22.7832,惠州市,惠阳区承修路船湖子站,,30,30,23,17,11,43,43,50,50,15,11,6,7,0.7,0.7
2026-03-10T1900,1396A,114.5316,22.7423,惠州市,大亚湾管委会子站,,20,20,18,13,11,42,42,44,44,12,9,3,3,0.7,0.7
2026-03-10T1900,3314A,114.4334,22.8134,惠州市,惠阳秋长,,23,17,17,16,12,49,49,54,54,13,10,/,/,/,/
2026-03-10T1900,3452A,114.6521,22.7755,惠州市,大亚湾霞涌,,24,24,19,16,12,41,41,56,56,13,11,/,/,/,/
2026-03-10T1900,4300A,114.4089,23.1147,惠州市,文华一路1号,,26,26,11,16,8,54,54,58,58,10,8,/,/,/,/
2026-03-10T1900,2240A,130.9618,45.2926,鸡西市,环保局,,40,NA,26,28,17,64,64,93,89,27,10,10,7,0.4,0.2
2026-03-10T1900,2243A,130.9294,45.2959,鸡西市,第一中学,,45,42,23,31,16,68,68,95,92,24,6,7,5,0.4,0.3
2026-03-10T1900,3707A,131.0069,45.2988,鸡西市,欧美日汽修厂,颗粒物(PM10),76,86,37,46,22,53,53,90,84,35,18,25,11,0.8,0.3
2026-03-10T1900,2367A,114.9753,27.0803,吉安市,红声器材厂,颗粒物(PM10),55,56,53,37,39,109,109,106,106,15,16,4,4,0.6,0.8
2026-03-10T1900,2369A,114.9903,27.1313,吉安市,市环境监测站,细颗粒物(PM2.5),66,45,47,43,40,106,106,102,102,14,14,7,6,/,/
2026-03-10T1900,2370A,115.009527,27.096792,吉安市,青原区法院,NA,NA,48,49,43,40,110,110,111,111,21,21,4,5,NA,0.7
2026-03-10T1900,1772A,126.54,43.8622,吉林市,哈达湾,,44,44,48,30,33,82,82,97,95,26,24,8,8,0.8,0.8
2026-03-10T1900,1773A,126.5843,43.8358,吉林市,东局子,,49,49,37,34,32,82,82,100,98,24,19,6,4,0.8,0.8
2026-03-10T1900,1774A,126.5051,43.8243,吉林市,电力学院,细颗粒物(PM2.5),56,56,54,38,44,80,80,103,100,30,28,8,8,0.9,1.1
2026-03-10T1900,1775A,126.6133,43.8971,吉林市,江北,,47,47,45,25,32,85,85,96,95,18,16,7,7,0.6,0.8
2026-03-10T1900,1776A,126.5549,43.8304,吉林市,江南公园,,47,47,41,32,30,77,77,96,94,26,16,9,8,0.6,0.6
2026-03-10T1900,2868A,126.4737,43.953,吉林市,九站,颗粒物(PM10),54,55,53,34,35,83,83,96,95,26,35,7,14,0.5,0.5
2026-03-10T1900,1299A,116.9866,36.6118,济南市,科干所,细颗粒物(PM2.5),100,102,94,60,57,134,134,138,138,18,17,7,7,0.7,0.7
2026-03-10T1900,1300A,116.9379,36.6652,济南市,农科所,细颗粒物(PM2.5),119,107,107,80,74,126,126,133,133,24,27,7,8,0.7,0.7
2026-03-10T1900,1301A,117.1265,36.6736,济南市,开发区,细颗粒物(PM2.5),98,83,87,59,63,137,137,144,144,22,23,5,5,0.7,0.7
2026-03-10T1900,1303A,117.0616,36.6865,济南市,省种子仓库,细颗粒物(PM2.5),102,95,105,62,63,133,133,136,136,21,33,5,5,0.6,0.6
2026-03-10T1900,1304A,116.9495185,36.644937,济南市,机床二厂,细颗粒物(PM2.5),116,112,112,77,78,131,131,133,133,22,28,8,10,0.7,0.7
2026-03-10T1900,1305A,117.0496,36.6629,济南市,市监测站,细颗粒物(PM2.5),107,98,98,67,67,132,132,136,136,22,25,5,5,0.6,0.6
2026-03-10T1900,1306A,116.7674,36.5458,济南市,长清党校,细颗粒物(PM2.5),108,117,116,68,76,135,135,136,136,21,25,5,5,0.7,0.7
2026-03-10T1900,1961A,117.5323,36.6865,济南市,东山小学,细颗粒物(PM2.5),105,115,103,65,60,122,122,135,135,27,31,4,5,0.6,0.7
2026-03-10T1900,3059A,117.7181,36.205,济南市,泰兴公司,细颗粒物(PM2.5),94,110,103,57,64,105,105,134,133,40,47,9,10,0.7,0.8
2026-03-10T1900,3064A,117.6861,36.2172,济南市,莱芜战役纪念馆,NA,NA,105,104,55,65,NA,NA,137,137,22,37,5,6,0.6,0.8
2026-03-10T1900,3494A,117.1673,36.9782,济南市,济阳区政府,细颗粒物(PM2.5),124,125,103,86,69,118,118,123,123,26,35,8,9,0.8,0.6
2026-03-10T1900,3495A,117.1168,36.6299,济南市,锦屏中学,细颗粒物(PM2.5),96,88,83,58,60,126,126,136,135,16,13,8,8,0.4,0.4
2026-03-10T1900,4108A,117.7107,36.2385,济南市,山财大街5号,细颗粒物(PM2.5),101,100,98,61,63,120,120,129,129,35,54,12,14,0.7,0.8
2026-03-10T1900,4109A,116.9744,36.6889,济南市,无影山路12号,细颗粒物(PM2.5),116,95,98,77,70,119,119,125,125,22,27,6,8,0.7,0.7
2026-03-10T1900,1653A,116.6229,35.4288,济宁市,火炬城,细颗粒物(PM2.5),120,90,97,81,82,122,122,133,133,21,25,4,4,0.7,0.7
2026-03-10T1900,3500A,116.5808,35.3703,济宁市,北湖一中,细颗粒物(PM2.5),120,88,92,81,83,124,124,133,133,21,22,7,6,0.4,0.4
2026-03-10T1900,3501A,116.8251,35.5592,济宁市,服务中心,细颗粒物(PM2.5),120,114,132,81,91,NA,NA,134,134,20,32,2,5,NA,0.5
2026-03-10T1900,3678A,116.5907,35.4054,济宁市,市第七中学,细颗粒物(PM2.5),121,89,95,83,85,132,132,141,141,22,26,8,8,0.7,0.7
2026-03-10T1900,4111A,116.6075,35.4566,济宁市,任和路,细颗粒物(PM2.5),117,121,122,78,81,127,127,134,134,23,28,5,6,0.6,0.6
2026-03-10T1900,4112A,116.5648,35.3921,济宁市,文体南路1号,细颗粒物(PM2.5),112,120,120,73,84,125,125,132,132,20,24,4,4,0.6,0.6
2026-03-10T1900,4122A,112.6071,35.1015,济源市,市委党校,细颗粒物(PM2.5),132,164,174,95,107,97,97,113,113,31,26,7,11,0.8,1
2026-03-10T1900,4123A,112.596,35.0702,济源市,沁园中路1号,细颗粒物(PM2.5),145,142,158,109,114,112,112,119,119,26,33,6,7,0.8,1.1
2026-03-10T1900,2255A,130.2749,46.8028,佳木斯市,佳纺,NA,NA,48,54,33,20,NA,NA,87,86,26,19,6,7,NA,0.6
2026-03-10T1900,2257A,130.3258,46.7975,佳木斯市,环保局,,29,27,29,20,17,74,74,93,90,16,16,2,4,0.3,0.3
2026-03-10T1900,4285A,130.363,46.806,佳木斯市,顺和街,,40,31,28,28,21,59,59,84,80,30,22,6,6,0.4,0.3
2026-03-10T1900,4286A,130.3952,46.8268,佳木斯市,长安路196号,,43,35,27,30,17,56,56,88,83,36,17,8,6,0.5,0.4
2026-03-10T1900,1252A,120.7439,30.778,嘉兴市,清河小学,颗粒物(PM10),56,58,46,25,23,104,104,97,97,25,20,7,7,0.3,0.4
2026-03-10T1900,1253A,120.7261,30.7477,嘉兴市,嘉兴学院,颗粒物(PM10),51,51,45,26,25,107,107,102,102,24,18,6,7,0.4,0.4
2026-03-10T1900,2872A,120.7845,30.7524,嘉兴市,南湖区残联,,45,45,43,26,23,102,102,102,102,25,17,6,6,0.5,0.6
2026-03-10T1900,3407A,120.6915,30.7741,嘉兴市,秀洲住建,颗粒物(PM10),54,55,51,26,24,114,114,107,107,26,23,9,8,0.6,0.6
2026-03-10T1900,1945A,98.291,39.7705,嘉峪关市,气象局,颗粒物(PM10),70,78,62,18,24,92,92,93,93,5,19,7,7,0.3,0.4
2026-03-10T1900,2884A,98.2672,39.7978,嘉峪关市,酒钢宾馆,颗粒物(PM10),68,75,69,18,23,88,88,99,99,19,17,17,14,0.6,0.4
2026-03-10T1900,3248A,98.2644,39.7723,嘉峪关市,雄关区,颗粒物(PM10),52,52,56,18,21,100,100,104,104,7,18,13,13,0.3,0.4
2026-03-10T1900,1383A,113.1063,22.6058,江门市,北街,,34,34,25,22,11,40,40,44,43,44,30,/,/,/,/
2026-03-10T1900,1384A,113.073,22.5835,江门市,西区,,36,32,21,25,13,35,35,43,41,43,25,/,/,/,/
2026-03-10T1900,1385A,113.0218,22.531,江门市,圭峰西,,30,26,19,21,12,40,40,42,42,34,20,/,/,/,/
2026-03-10T1900,1386A,113.0826,22.5947,江门市,东湖,,32,32,18,17,11,39,39,42,42,35,22,6,5,0.6,0.6
2026-03-10T1900,3311A,113.1077,22.5647,江门市,江海富民,,30,30,28,20,11,40,40,45,44,44,27,/,/,0.6,0.5
2026-03-10T1900,3449A,113.0496,22.4669,江门市,新会银湖,,32,29,20,22,12,34,34,36,36,43,28,7,7,0.6,0.6
2026-03-10T1900,3335A,113.3137,35.2643,焦作市,马村街道办,细颗粒物(PM2.5),178,166,122,134,100,116,116,119,119,31,21,8,8,0.9,0.8
2026-03-10T1900,3336A,113.2464,35.2374,焦作市,焦作技师学院,细颗粒物(PM2.5),159,143,117,121,95,115,115,120,120,31,22,9,8,0.9,0.8
2026-03-10T1900,3477A,113.1656,35.2536,焦作市,中站许衡医院,细颗粒物(PM2.5),178,179,122,134,96,102,102,114,114,43,24,20,11,1.1,0.9
2026-03-10T1900,3981A,113.2456,35.18,焦作市,原李万街道办,细颗粒物(PM2.5),166,150,122,126,96,113,113,120,120,29,25,13,11,0.8,0.8
2026-03-10T1900,4264A,113.234,35.219,焦作市,新安路1731号,细颗粒物(PM2.5),175,135,123,132,100,124,124,127,127,33,26,9,10,0.8,0.7
2026-03-10T1900,4295A,113.2722,35.2121,焦作市,人民路3066号,细颗粒物(PM2.5),189,170,120,142,89,116,116,128,126,39,31,9,9,0.8,0.8
2026-03-10T1900,1708A,116.3701,23.5345,揭阳市,新兴,,34,34,43,20,26,102,102,88,88,19,16,7,9,0.5,0.6
2026-03-10T1900,1709A,116.3261,23.5442,揭阳市,西马,颗粒物(PM10),51,51,47,26,28,100,100,83,83,17,15,6,7,0.5,0.5
2026-03-10T1900,1710A,116.361,23.5627,揭阳市,东兴,,40,34,45,28,30,95,95,82,82,21,15,7,7,/,/
2026-03-10T1900,1711A,116.4151,23.5295,揭阳市,渔湖,,40,35,41,28,26,117,117,105,105,21,18,8,8,/,/
2026-03-10T1900,3320A,116.4028,23.5699,揭阳市,曲溪,NA,NA,NA,43,NA,26,105,105,94,94,17,16,4,9,NA,0.6
2026-03-10T1900,1944A,102.1691,38.5166,金昌市,天庆家园,,36,36,70,24,35,107,107,117,114,6,17,4,27,0.6,0.7
2026-03-10T1900,4022A,102.1648,38.5369,金昌市,金川区人防中心,,47,47,73,26,36,104,104,117,115,9,16,7,28,0.3,0.6
2026-03-10T1900,4239A,102.193042,38.531887,金昌市,长春路96号,NA,NA,37,75,NA,41,98,98,106,105,13,25,6,31,0.4,0.6
2026-03-10T1900,1262A,119.6478,29.0773,金华市,十五中,细颗粒物(PM2.5),62,56,56,41,33,143,143,160,160,26,20,4,4,0.5,0.5
2026-03-10T1900,1263A,119.6859,29.1032,金华市,监测站,细颗粒物(PM2.5),70,67,61,45,36,122,122,125,125,21,24,5,3,0.3,0.6
2026-03-10T1900,3659A,119.656,29.1132,金华市,气象局,细颗粒物(PM2.5),64,66,64,42,39,137,137,135,135,27,32,3,3,0.5,0.5
2026-03-10T1900,1767A,121.1114,41.0879,锦州市,南山,,44,44,38,29,28,70,70,82,82,36,30,14,12,0.5,0.6
2026-03-10T1900,1768A,121.060361,40.842794,锦州市,开发区,颗粒物(PM10),53,54,60,25,20,63,63,71,71,39,32,7,17,0.5,0.5
2026-03-10T1900,1769A,121.1836,41.1118,锦州市,百股街道,,49,43,34,34,27,85,85,85,85,26,24,8,11,0.7,0.7
2026-03-10T1900,1770A,121.1176,41.1224,锦州市,天安街道,颗粒物(PM10),53,53,40,32,27,75,75,82,82,33,27,11,9,0.6,0.5
2026-03-10T1900,1771A,121.1303,41.1385,锦州市,北湖公园,,48,44,37,33,27,80,80,86,86,30,25,11,10,0.5,0.6
2026-03-10T1900,2160A,112.8496,35.5051,晋城市,自来水公司,细颗粒物(PM2.5),131,151,106,94,69,114,114,100,100,23,27,6,5,0.5,0.7
2026-03-10T1900,2162A,112.8509,35.4886,晋城市,市环保局,NA,NA,NA,100,NA,75,NA,NA,111,111,16,36,6,5,0.9,0.8
2026-03-10T1900,3620A,112.8258,35.4804,晋城市,泽州一中,细颗粒物(PM2.5),144,NA,110,108,79,116,116,114,114,26,20,6,4,0.8,0.5
2026-03-10T1900,4078A,112.8246,35.5152,晋城市,前书院路,细颗粒物(PM2.5),145,156,115,109,63,114,114,103,103,21,20,8,5,0.5,0.4
2026-03-10T1900,4079A,112.8864,35.4773,晋城市,祥云街666号,细颗粒物(PM2.5),166,142,114,126,82,122,122,110,110,23,25,6,5,0.8,0.6
2026-03-10T1900,2174A,112.6992,37.6984,晋中市,榆次区政府,细颗粒物(PM2.5),115,127,123,76,96,117,117,123,123,36,28,14,14,0.8,1
2026-03-10T1900,2865A,112.7195,37.683,晋中市,榆次三中,细颗粒物(PM2.5),112,119,126,73,87,134,134,129,129,24,30,14,15,0.3,0.6
2026-03-10T1900,4080A,112.7375,37.7215,晋中市,广安街188号,细颗粒物(PM2.5),121,141,128,83,86,127,127,122,122,27,31,15,13,0.6,0.8
2026-03-10T1900,4200A,112.7478,37.6954,晋中市,迎宾街26号,细颗粒物(PM2.5),115,119,121,76,90,136,136,131,131,27,27,14,14,0.6,0.8
2026-03-10T1900,2439A,112.2012,31.048,荆门市,竹园小学,细颗粒物(PM2.5),94,76,98,57,68,111,111,115,115,18,19,1,1,0.2,0.3
2026-03-10T1900,2440A,112.1968,30.9892,荆门市,掇刀,细颗粒物(PM2.5),98,71,97,59,72,115,115,120,120,13,17,8,5,0.6,0.8
2026-03-10T1900,3012A,112.1849,31.0361,荆门市,西山林语,细颗粒物(PM2.5),68,73,89,44,64,110,110,114,114,15,14,5,4,0.7,0.8
2026-03-10T1900,3547A,112.1631,31.0134,荆门市,龙泉中学南校,NA,NA,NA,NA,NA,NA,NA,NA,NA,NA,NA,NA,NA,NA,NA,NA
2026-03-10T1900,4124A,112.2213,31.0654,荆门市,新台西路6号,NA,NA,86,104,52,79,108,108,115,115,16,24,NA,5,0.6,0.7
2026-03-10T1900,1844A,112.2493,30.3198,荆州市,市图书馆,细颗粒物(PM2.5),58,NA,60,39,60,101,101,110,110,13,24,6,6,0.7,0.8
2026-03-10T1900,1845A,112.2009,30.3543,荆州市,市委党校,细颗粒物(PM2.5),68,45,78,44,69,85,85,96,96,20,27,7,7,0.7,0.8
2026-03-10T1900,3194A,112.2749,30.3124,荆州市,管委会,细颗粒物(PM2.5),66,52,74,43,65,90,90,106,106,13,22,9,9,0.7,0.9
2026-03-10T1900,4268A,112.1722,30.3366,荆州市,学苑路85号,细颗粒物(PM2.5),60,54,91,40,67,104,104,118,118,8,15,2,2,0.5,0.6
2026-03-10T1900,2343A,117.2114,29.2931,景德镇市,老干部活动中心,,48,44,36,33,27,112,112,117,117,12,10,8,5,0.7,0.6
2026-03-10T1900,2344A,117.1893,29.2789,景德镇市,兽医站,,48,43,49,33,23,124,124,125,125,16,12,4,4,0.6,0.4
2026-03-10T1900,2346A,117.246,29.2958,景德镇市,陶研所,,48,NA,31,33,23,83,83,115,114,13,14,4,4,0.7,0.5
2026-03-10T1900,4289A,117.154766,29.256967,景德镇市,青少年活动中心,细颗粒物(PM2.5),68,53,41,44,27,98,98,105,105,25,17,34,7,/,/
2026-03-10T1900,1803A,115.9873,29.6816,九江市,十里,,48,48,59,20,43,102,102,117,117,25,30,5,7,0.7,0.8
2026-03-10T1900,1804A,115.9583,29.7047,九江市,茅山头,颗粒物(PM10),55,56,59,25,56,106,106,122,122,25,23,4,4,0.7,0.7
2026-03-10T1900,1805A,115.9877,29.7295,九江市,西园,,43,43,64,25,57,106,106,123,121,35,39,3,5,0.6,0.7
2026-03-10T1900,1808A,115.9112,29.6038,九江市,综合工业园,,43,43,48,19,45,83,83,115,114,50,27,6,7,0.8,0.7
2026-03-10T1900,3190A,116.0254,29.6995,九江市,外国语学校,,46,46,55,20,52,111,111,113,113,15,21,6,7,0.6,0.8
2026-03-10T1900,4253A,116.010205,29.659402,九江市,莲花大道8号,,47,47,64,13,50,102,102,111,111,15,23,4,7,0.4,0.6
2026-03-10T1900,4240A,98.495752,39.733935,酒泉市,玉门东路5号,颗粒物(PM10),98,117,69,49,36,90,90,91,91,7,12,6,7,0.3,0.4
2026-03-10T1900,4241A,98.5099,39.7506,酒泉市,北大街108号,颗粒物(PM10),88,102,67,33,30,86,86,88,88,8,15,8,8,0.3,0.4
2026-03-10T1900,2698A,76.0071,39.466,喀什地区,巡警大队,颗粒物(PM10),140,223,239,68,88,98,98,80,80,5,36,4,5,0.2,0.9
2026-03-10T1900,2699A,75.9756,39.4693,喀什地区,吾办,颗粒物(PM10),133,204,232,78,82,94,94,82,82,4,24,3,4,0.2,0.6
2026-03-10T1900,4027A,75.9485,39.4688,喀什地区,老干局,颗粒物(PM10),141,225,254,47,68,NA,NA,82,82,1,27,3,4,NA,0.8
2026-03-10T1900,1824A,114.3389,34.778,开封市,肿瘤医院,细颗粒物(PM2.5),130,NA,134,93,120,106,106,123,123,26,36,8,8,0.9,0.9
2026-03-10T1900,1826A,114.2884,34.7966,开封市,世纪星幼儿园,细颗粒物(PM2.5),118,88,126,79,110,98,98,114,114,23,33,8,9,0.8,0.9
2026-03-10T1900,3147A,114.3434,34.8101,开封市,龙亭公园,细颗粒物(PM2.5),120,83,137,81,110,114,114,124,124,22,34,9,9,0.8,0.9
2026-03-10T1900,3210A,114.3645,34.7955,开封市,汴京公园,NA,NA,NA,139,NA,115,NA,NA,122,122,25,45,5,5,NA,0.8
2026-03-10T1900,3473A,114.2485,34.8306,开封市,技师学院,细颗粒物(PM2.5),120,NA,120,82,111,114,114,124,124,18,25,9,9,0.9,1
2026-03-10T1900,3592A,114.4518,34.7503,开封市,祥符区生态环境局,细颗粒物(PM2.5),180,NA,158,136,120,107,107,124,124,32,49,5,5,0.7,0.8
2026-03-10T1900,1951A,84.886,45.6029,克拉玛依市,长征新村,,25,7,36,3,18,78,78,79,64,4,19,6,7,0.2,0.4
2026-03-10T1900,1952A,84.8894,45.5827,克拉玛依市,南林小区,,27,6,39,3,18,84,84,65,65,2,19,2,3,0.1,0.3
2026-03-10T1900,1954A,84.896,44.3328,克拉玛依市,独山子区,,40,40,54,12,29,105,105,110,109,8,18,6,5,0.3,0.6
2026-03-10T1900,1955A,85.6888,46.0909,克拉玛依市,乌尔禾区商贸楼,颗粒物(PM10),53,54,55,25,30,84,84,59,59,12,23,9,9,0.5,0.8
2026-03-10T1900,3612A,85.1045,45.6895,克拉玛依市,白碱滩区新站,,45,45,46,18,26,63,63,78,39,32,30,12,12,0.5,0.6
2026-03-10T1900,2697A,76.1457,39.7143,克孜勒苏柯尔克孜自治州,市人民政府,颗粒物(PM10),132,203,211,51,53,100,100,89,89,2,8,5,4,0.8,0.6
2026-03-10T1900,3665A,76.1654,39.7157,克孜勒苏柯尔克孜自治州,克州文化中心,颗粒物(PM10),133,204,204,60,61,94,94,88,88,7,12,7,6,0.3,0.3
2026-03-10T1900,1450A,102.8203,24.889,昆明市,呈贡新区,,46,39,23,32,21,102,102,93,93,12,15,4,6,0.9,0.9
2026-03-10T1900,1452A,102.7253,25.0904,昆明市,龙泉镇,颗粒物(PM10),51,51,20,32,15,96,96,88,88,13,10,5,4,0.6,0.5
2026-03-10T1900,1453A,102.7267,25.0378,昆明市,东风东路,细颗粒物(PM2.5),56,44,33,38,19,91,91,86,86,17,16,3,3,0.8,0.7
2026-03-10T1900,1454A,102.6744,25.0671,昆明市,金鼎山,颗粒物(PM10),63,68,26,34,16,95,95,88,88,19,14,5,3,0.8,0.7
2026-03-10T1900,1455A,102.6643,25.0401,昆明市,碧鸡广场,NA,NA,NA,23,43,16,NA,NA,82,82,19,15,5,5,0.9,0.7
2026-03-10T1900,3179A,102.7491,25.012,昆明市,官渡区博物馆,颗粒物(PM10),51,51,31,30,18,95,95,87,87,14,21,4,4,0.7,0.8
2026-03-10T1900,3375A,102.8016,24.8336,昆明市,青年创业园,,42,39,29,29,19,94,94,88,88,7,10,5,5,0.9,0.7
2026-03-10T1900,3550A,102.8,24.9787,昆明市,昆明学院,,43,42,33,30,17,92,92,88,88,18,19,5,4,0.7,0.7
2026-03-10T1900,3551A,102.5969,24.6738,昆明市,晋宁区生态环境分局,细颗粒物(PM2.5),56,39,26,38,21,98,98,86,86,8,11,1,2,0.7,0.6
2026-03-10T1900,3552A,102.6673,24.9861,昆明市,云天化总部,,40,33,27,28,14,93,93,85,85,12,17,8,8,0.9,0.9
2026-03-10T1900,1456A,91.132,29.6515,拉萨市,八廓街,,32,13,14,6,6,102,102,100,100,12,9,5,4,0.3,0.3
2026-03-10T1900,1457A,91.1221,29.6748,拉萨市,市环保局,,29,9,18,3,6,90,90,88,88,11,12,4,3,0.3,0.4
2026-03-10T1900,1458A,91.0874,29.6476,拉萨市,区监测站,,32,7,13,3,7,100,100,96,96,11,18,5,5,0.5,0.5
2026-03-10T1900,1459A,91.1774,29.6541,拉萨市,西藏大学,,31,9,12,8,7,99,99,100,100,15,11,2,2,0.4,0.4
2026-03-10T1900,1460A,90.9798,29.6586,拉萨市,区辐射站,,30,14,19,7,8,96,96,98,98,19,16,4,3,0.4,0.4
2026-03-10T1900,1461A,91.0831,29.6292,拉萨市,拉萨火车站,,32,7,16,6,7,100,100,96,96,9,16,3,3,0.4,0.5
2026-03-10T1900,2520A,109.2203,23.7252,来宾市,来宾技工学校,,36,32,21,25,9,78,78,81,81,13,10,9,8,0.9,0.9
2026-03-10T1900,3535A,109.1781,23.7293,来宾市,兴宾区政府,NA,NA,NA,9,NA,6,86,86,88,88,13,6,6,5,NA,0.8
2026-03-10T1900,4002A,109.2312,23.7428,来宾市,中南小学,,36,34,19,25,10,76,76,83,83,16,9,6,6,0.8,0.8
2026-03-10T1900,1479A,103.8309,36.0467,兰州市,铁路设计院,NA,NA,NA,NA,NA,NA,NA,NA,NA,NA,NA,NA,NA,NA,NA,NA
2026-03-10T1900,3241A,103.7439,36.0841,兰州市,百合公园,,28,27,64,19,48,67,67,98,98,32,46,5,12,0.7,1.1
2026-03-10T1900,3242A,103.9613,35.9985,兰州市,和平,,29,22,55,16,30,91,91,98,98,13,25,11,14,0.6,1
2026-03-10T1900,4236A,103.629272,36.093822,兰州市,庄浪东路808号,,44,44,67,23,40,98,98,115,115,24,38,9,9,0.5,0.6
2026-03-10T1900,4237A,103.7251,36.104344,兰州市,安宁西路88号,,46,46,78,22,43,95,95,120,120,17,36,7,14,0.3,0.6
2026-03-10T1900,4238A,103.846982,36.067567,兰州市,北滨河东路1号,,36,36,65,21,40,83,83,88,88,30,58,8,12,0.5,1.2
2026-03-10T1900,1067A,116.6712,39.5109,廊坊市,药材公司,细颗粒物(PM2.5),155,154,89,118,70,61,61,71,71,50,32,7,4,0.9,0.6
2026-03-10T1900,1068A,116.7215,39.5592,廊坊市,开发区,细颗粒物(PM2.5),156,153,92,119,68,71,71,73,73,42,33,3,3,0.8,0.5
2026-03-10T1900,1070A,116.7246,39.5273,廊坊市,北华航天学院,细颗粒物(PM2.5),155,158,91,118,67,53,53,74,74,62,37,8,7,0.9,0.6
2026-03-10T1900,2919A,116.7022,39.5454,廊坊市,河北工业大学,细颗粒物(PM2.5),144,150,93,108,68,64,64,72,72,39,27,4,4,0.8,0.6
2026-03-10T1900,2536A,103.7629,29.5844,乐山市,牛耳桥,,28,18,21,9,13,88,88,82,82,20,15,6,6,0.6,0.6
2026-03-10T1900,2537A,103.7501,29.6002,乐山市,市第三水厂,,28,21,24,10,13,88,88,82,82,20,16,3,4,0.6,0.6
2026-03-10T1900,2538A,103.7571,29.5664,乐山市,市监测站,,30,16,23,3,12,95,95,80,80,12,13,7,7,0.6,0.7
2026-03-10T1900,3361A,103.7313,29.563,乐山市,理工大学,,30,30,23,13,13,92,92,83,83,13,11,8,8,0.8,0.8
2026-03-10T1900,2599A,100.2497,26.8802,丽江市,丽江古城,,45,45,29,24,13,103,103,106,106,8,6,11,10,0.6,0.6
2026-03-10T1900,2600A,100.2203,26.8906,丽江市,市中心,,46,38,21,32,16,109,109,109,109,14,11,10,9,0.7,0.6
2026-03-10T1900,1267A,119.9141,28.4513,丽水市,监测站大楼,,38,38,38,24,30,119,119,122,122,14,22,5,6,0.2,0.2
2026-03-10T1900,1268A,119.93,28.4589,丽水市,莲都小学,,38,34,40,22,28,119,119,119,119,14,23,/,/,/,/
2026-03-10T1900,1269A,119.8794,28.4232,丽水市,余庄前,,29,29,35,17,24,77,77,115,112,14,15,3,3,0.4,0.3
2026-03-10T1900,1173A,119.1759,34.5885,连云港市,市环境监测站,细颗粒物(PM2.5),117,95,83,78,61,101,101,112,112,36,39,9,8,NA,0.6
2026-03-10T1900,3000A,119.3577,34.6971,连云港市,德源药业,细颗粒物(PM2.5),114,97,100,75,55,106,106,114,114,NA,48,8,8,0.8,0.8
2026-03-10T1900,3007A,119.178,34.8442,连云港市,新城一中,细颗粒物(PM2.5),117,98,77,78,60,118,118,117,117,39,55,9,10,0.8,0.7
2026-03-10T1900,3008A,119.3607,34.7519,连云港市,胡沟管理处,细颗粒物(PM2.5),106,102,57,66,39,119,119,111,111,26,22,6,6,0.6,0.9
2026-03-10T1900,3009A,119.1478,34.5913,连云港市,矿山设计院,细颗粒物(PM2.5),106,100,84,66,56,104,104,113,113,38,40,9,10,0.8,0.7
2026-03-10T1900,3434A,119.2414,34.6539,连云港市,工贸学校,细颗粒物(PM2.5),113,96,79,74,52,107,107,114,114,33,20,12,12,0.6,0.5
2026-03-10T1900,3664A,119.4171,34.734,连云港市,连云街道,细颗粒物(PM2.5),113,106,63,74,40,121,121,117,117,30,23,6,6,0.6,0.4
2026-03-10T1900,2573A,102.2629,27.8981,凉山彝族自治州,西昌市政府,,22,17,13,12,10,69,69,79,79,10,8,8,9,0.7,0.8
2026-03-10T1900,2574A,102.2686,27.885,凉山彝族自治州,凉山州政府,,21,20,16,12,11,66,66,72,72,10,9,7,8,0.6,0.7
2026-03-10T1900,4229A,102.2342,27.8859,凉山彝族自治州,凯乐南路30号,,21,16,16,10,11,66,66,77,77,14,14,6,7,0.6,0.7
2026-03-10T1900,2212A,123.1978,41.2036,辽阳市,宏伟区,,43,43,62,27,42,110,110,110,110,8,14,7,9,0.4,0.5
2026-03-10T1900,2213A,123.1684,41.2497,辽阳市,新华园,,47,47,91,28,59,103,103,104,104,15,33,8,9,0.5,1
2026-03-10T1900,2214A,123.2355,41.2663,辽阳市,滨河路,细颗粒物(PM2.5),66,53,70,43,50,96,96,103,103,20,25,6,8,0.6,0.7
2026-03-10T1900,4083A,123.153,41.2874,辽阳市,铁西路150号,,47,47,81,31,55,96,96,94,94,15,32,8,12,0.5,0.8
2026-03-10T1900,2227A,125.1359,42.8845,辽源市,环保局,细颗粒物(PM2.5),90,87,68,55,46,97,97,103,102,17,27,7,7,0.8,1
2026-03-10T1900,4085A,125.0998,42.9134,辽源市,安宁大街333号,细颗粒物(PM2.5),106,119,81,66,49,88,88,99,99,26,20,13,11,0.9,0.8
2026-03-10T1900,1625A,115.9789,36.4372,聊城市,区政府,NA,NA,NA,119,NA,79,NA,NA,132,132,21,23,13,13,0.9,0.9
2026-03-10T1900,3200A,115.9772,36.4986,聊城市,监控中心,细颗粒物(PM2.5),128,138,132,90,86,128,128,144,144,24,27,10,11,0.8,0.8
2026-03-10T1900,3513A,116.0443,36.436,聊城市,九州社区,细颗粒物(PM2.5),122,118,118,84,84,126,126,142,142,25,31,2,3,0.7,0.8
2026-03-10T1900,4018A,116.0564,36.4609,聊城市,星美广场,细颗粒物(PM2.5),126,127,132,88,91,127,127,133,133,15,26,5,5,0.8,0.8
2026-03-10T1900,4113A,116.0091,36.4495,聊城市,利民路,NA,NA,NA,115,NA,82,NA,NA,145,145,22,25,7,9,0.8,0.8
2026-03-10T1900,2632A,94.3683,29.6373,林芝市,林芝监测站,,33,11,9,10,6,104,104,101,101,2,3,4,3,0.4,0.4
2026-03-10T1900,2633A,94.3616,29.6634,林芝市,林芝人民医院,,31,18,12,10,7,98,98,95,95,3,4,2,2,0.3,0.5
2026-03-10T1900,2603A,100.0779,23.8981,临沧市,市环保局,细颗粒物(PM2.5),62,50,52,41,43,87,87,87,87,9,12,7,10,0.7,0.7
2026-03-10T1900,2604A,100.0894,23.882,临沧市,市气象局,细颗粒物(PM2.5),60,47,51,40,42,91,91,88,88,8,12,7,11,0.5,0.4
2026-03-10T1900,1733A,111.5552,36.0791,临汾市,临钢医院,细颗粒物(PM2.5),141,140,116,105,89,118,118,122,122,31,29,14,10,1.4,1.2
2026-03-10T1900,1734A,111.4984,36.0734,临汾市,技工学校,细颗粒物(PM2.5),146,137,118,110,105,125,125,119,119,31,31,14,9,1.3,1.2
2026-03-10T1900,1736A,111.5017,36.0857,临汾市,市委,细颗粒物(PM2.5),133,NA,132,96,92,125,125,121,121,30,30,11,6,1.3,1.2
2026-03-10T1900,3018A,111.5048,36.1015,临汾市,唐尧大酒店,细颗粒物(PM2.5),130,134,125,92,92,123,123,120,120,31,31,13,9,1.3,1.2
2026-03-10T1900,4244A,111.4879,36.053,临汾市,启星学校,细颗粒物(PM2.5),159,142,113,121,97,121,121,118,118,36,41,12,9,1.4,1
2026-03-10T1900,4271A,103.2464,35.6123,临夏回族自治州,滨河东路1号,,43,43,79,22,43,47,47,91,91,43,30,9,8,0.4,0.7
2026-03-10T1900,4310A,103.207136,35.599807,临夏回族自治州,新华街21号,,34,34,88,11,58,77,77,87,87,5,21,7,8,0.7,1.2
2026-03-10T1900,1618A,118.3429,35.0532,临沂市,沂河小区,细颗粒物(PM2.5),104,100,96,64,67,116,116,120,120,22,26,11,18,0.5,0.5
2026-03-10T1900,1619A,118.2962,35.0568,临沂市,鲁南制药厂,细颗粒物(PM2.5),102,88,96,62,66,131,131,132,132,25,31,12,16,0.4,0.4
2026-03-10T1900,1620A,118.2793,34.9976,临沂市,新光毛纺厂,细颗粒物(PM2.5),102,85,100,62,76,119,119,124,123,27,34,12,16,0.5,0.8
2026-03-10T1900,1621A,118.3955,35.0889,临沂市,河东保险公司,细颗粒物(PM2.5),103,88,100,63,72,128,128,132,132,30,44,10,12,0.6,0.6
2026-03-10T1900,3370A,118.3563,35.0215,临沂市,十里堡居委,细颗粒物(PM2.5),105,92,94,65,66,119,119,130,130,32,31,10,22,0.8,0.8
2026-03-10T1900,3496A,118.359,35.1067,临沂市,南坊新区,细颗粒物(PM2.5),90,80,87,55,61,130,130,130,130,24,25,9,12,0.7,0.7
2026-03-10T1900,3860A,118.3915,35.0297,临沂市,皇山花园小区,细颗粒物(PM2.5),106,95,95,66,68,124,124,132,132,28,31,14,17,0.6,0.6
2026-03-10T1900,1870A,109.4854,24.3898,柳州市,柳东小学,NA,NA,17,9,15,7,NA,NA,65,65,8,4,4,4,0.6,0.6
2026-03-10T1900,1871A,109.4109,24.3304,柳州市,环保监测站,,20,NA,13,10,9,63,63,68,68,10,12,4,5,1.0,0.8
2026-03-10T1900,1872A,109.3886,24.3408,柳州市,河西水厂,颗粒物(PM10),52,52,24,24,12,57,57,68,68,21,15,6,12,0.9,1.3
2026-03-10T1900,1873A,109.4263,24.2951,柳州市,市四中,,29,29,16,18,7,63,63,68,68,14,7,7,7,0.8,0.7
2026-03-10T1900,1874A,109.396,24.3658,柳州市,市九中,,24,24,16,14,10,63,63,68,68,10,8,7,8,0.6,0.7
2026-03-10T1900,1875A,109.4912,24.3164,柳州市,古亭山,,33,33,13,17,8,58,58,70,70,11,4,6,6,0.7,0.7
2026-03-10T1900,3402A,109.5422,24.3994,柳州市,市二中,,25,20,14,17,9,66,66,66,66,11,9,6,5,0.5,0.6
2026-03-10T1900,2307A,116.5078,31.7369,六安市,监测大楼,细颗粒物(PM2.5),80,70,78,50,64,125,125,119,119,21,20,6,6,0.6,0.6
2026-03-10T1900,2308A,116.4738,31.7642,六安市,皖西学院,细颗粒物(PM2.5),80,82,83,50,63,131,131,127,127,19,20,5,5,0.4,0.5
2026-03-10T1900,2309A,116.4997,31.7904,六安市,朝阳厂,细颗粒物(PM2.5),76,71,76,48,62,131,131,122,122,24,27,5,6,0.5,0.5
2026-03-10T1900,2310A,116.5566,31.7885,六安市,开发区,细颗粒物(PM2.5),78,86,86,49,57,133,133,130,130,20,23,6,5,0.5,0.5
2026-03-10T1900,2577A,104.8293,26.592,六盘水市,黄土坡,,48,33,15,33,9,56,56,63,62,17,11,6,6,0.8,0.7
2026-03-10T1900,2579A,104.8481,26.5898,六盘水市,民中,,42,30,17,29,10,60,60,64,64,11,10,4,4,0.7,0.6
2026-03-10T1900,2580A,104.9541,26.5506,六盘水市,双水,,31,31,19,15,9,68,68,60,60,10,7,4,4,0.5,0.5
2026-03-10T1900,4151A,104.8899,26.5685,六盘水市,钟山大道中段564号,,46,46,19,21,10,63,63,61,61,8,8,7,8,0.8,0.6
2026-03-10T1900,2336A,117.022,25.1031,龙岩市,龙岩市监测站,NA,NA,30,18,20,14,NA,NA,75,75,19,7,9,6,0.7,0.8
2026-03-10T1900,2337A,117.0257,25.0662,龙岩市,闽西职业技术学院,,24,24,16,15,12,61,61,77,75,11,5,5,5,0.5,0.5
2026-03-10T1900,2338A,117.0195,25.0306,龙岩市,龙岩学院,,29,29,17,18,12,57,57,79,76,13,6,3,3,/,/
2026-03-10T1900,2885A,104.9344,33.3827,陇南市,滨江中学,,43,43,40,14,14,71,71,78,78,10,11,6,7,0.5,0.6
2026-03-10T1900,3247A,104.9551,33.3709,陇南市,市总工会,颗粒物(PM10),64,69,37,18,11,70,70,77,77,10,10,5,6,0.6,0.5
2026-03-10T1900,2488A,111.9984,27.7346,娄底市,市监测站,颗粒物(PM10),55,56,57,25,46,97,97,92,92,12,26,4,9,0.4,1
2026-03-10T1900,2491A,111.9888,27.7035,娄底市,市政府,,45,45,42,22,39,100,100,96,96,7,11,4,3,0.2,0.3
2026-03-10T1900,4127A,111.9812,27.7591,娄底市,涟钢职大,颗粒物(PM10),58,61,55,38,41,100,100,101,101,11,13,2,2,0.4,2.6
2026-03-10T1900,4128A,112.0303,27.7457,娄底市,娄底体校,NA,NA,NA,64,NA,47,76,76,86,86,20,17,3,4,0.3,1.2
2026-03-10T1900,1894A,105.4427,28.9063,泸州市,小市上码头,,31,7,12,3,8,99,99,92,92,12,15,8,11,0.4,0.5
2026-03-10T1900,1895A,105.4241,28.8573,泸州市,兰田宪桥,,26,11,16,3,7,81,81,84,84,22,15,7,7,0.7,0.7
2026-03-10T1900,1896A,105.4378,28.8833,泸州市,市环监站,,30,9,17,3,9,95,95,85,85,17,22,4,8,0.5,0.6
2026-03-10T1900,4272A,105.3689,28.7783,泸州市,纳溪中医医院,,32,16,21,3,11,100,100,86,86,11,16,6,6,0.6,0.7
2026-03-10T1900,2183A,111.1447,37.5212,吕梁市,环保局,颗粒物(PM10),51,51,74,32,31,95,95,106,106,33,42,6,6,0.5,0.5
2026-03-10T1900,2185A,111.1285,37.5338,吕梁市,自来水公司,颗粒物(PM10),57,59,74,38,31,100,100,109,108,30,37,6,7,0.7,0.5
2026-03-10T1900,2867A,111.1225,37.5093,吕梁市,马茂庄小学,,45,42,79,31,33,110,110,109,109,21,42,6,10,0.5,0.5
2026-03-10T1900,1812A,112.3934,34.6517,洛阳市,市委党校,细颗粒物(PM2.5),118,92,118,79,108,107,107,105,105,25,28,12,8,0.9,1
2026-03-10T1900,1815A,112.494,34.6883,洛阳市,河南林校,细颗粒物(PM2.5),126,104,120,88,104,83,83,105,105,46,45,12,10,0.8,0.8
2026-03-10T1900,1816A,112.3843,34.623,洛阳市,开发区管委会,细颗粒物(PM2.5),126,128,139,88,105,109,109,107,107,26,21,10,9,0.7,0.8
2026-03-10T1900,1817A,112.4263,34.6249,洛阳市,市委新办公区,细颗粒物(PM2.5),122,113,137,84,113,113,113,110,110,32,27,12,8,0.7,0.8
2026-03-10T1900,3340A,112.6005,34.6323,洛阳市,伊滨,细颗粒物(PM2.5),140,104,139,104,110,94,94,106,106,28,34,10,9,0.8,0.9
2026-03-10T1900,3341A,112.495,34.6338,洛阳市,中移产业园,细颗粒物(PM2.5),123,110,131,85,117,109,109,108,108,NA,41,19,10,0.8,0.9
2026-03-10T1900,3593A,112.5736,34.8993,洛阳市,吉利监测站,细颗粒物(PM2.5),130,96,101,93,102,101,101,120,120,36,33,9,8,0.8,0.7
2026-03-10T1900,3635A,112.3678,34.6623,洛阳市,河科大西苑校区,细颗粒物(PM2.5),114,93,119,75,103,NA,NA,110,110,23,37,10,9,NA,0.8
2026-03-10T1900,3636A,112.4387,34.678,洛阳市,英才小学,细颗粒物(PM2.5),119,108,139,80,108,105,105,111,111,34,45,15,10,0.9,1
2026-03-10T1900,4214A,112.460027,34.694929,洛阳市,春都路1号院,细颗粒物(PM2.5),122,109,141,84,105,NA,NA,93,93,33,34,10,8,1.0,1
2026-03-10T1900,2399A,114.051,33.5721,漯河市,三五一五工厂,细颗粒物(PM2.5),115,105,160,76,116,100,100,114,114,21,40,5,5,0.6,0.7
2026-03-10T1900,2400A,114.0055,33.5698,漯河市,漯河大学,细颗粒物(PM2.5),119,100,129,80,112,96,96,117,117,23,30,7,6,0.7,0.8
2026-03-10T1900,2401A,114.0134,33.5826,漯河市,市水利局,细颗粒物(PM2.5),116,92,128,77,104,102,102,116,116,21,35,6,6,0.7,0.7
2026-03-10T1900,2402A,114.0261,33.5697,漯河市,市广电局,细颗粒物(PM2.5),110,88,130,70,108,95,95,109,109,18,34,6,6,0.6,0.7
2026-03-10T1900,3478A,113.9691,33.568,漯河市,市图书馆,细颗粒物(PM2.5),112,98,147,73,107,90,90,110,110,23,31,6,7,0.6,1
2026-03-10T1900,4250A,114.089259,33.588274,漯河市,韶山路11号,细颗粒物(PM2.5),109,103,148,69,105,98,98,113,113,23,36,8,7,0.7,0.8
2026-03-10T1900,1798A,118.5084,31.6838,马鞍山市,湖东路四小,细颗粒物(PM2.5),84,75,74,52,55,116,116,126,126,25,19,6,6,0.6,0.5
2026-03-10T1900,1799A,118.5019,31.6449,马鞍山市,开发区,颗粒物(PM10),68,74,78,43,54,101,101,128,127,39,24,5,5,0.6,0.5
2026-03-10T1900,3633A,118.4914,31.681,马鞍山市,雨山,细颗粒物(PM2.5),72,73,80,46,56,119,119,130,130,22,17,8,8,0.6,0.5
2026-03-10T1900,4191A,118.527362,31.722269,马鞍山市,慈湖高新区,细颗粒物(PM2.5),90,76,79,55,57,104,104,125,125,39,25,4,6,0.4,0.5
2026-03-10T1900,1686A,111.0285,21.469,茂名市,电白南海,,29,29,25,14,14,44,44,43,43,12,13,6,6,0.8,1
2026-03-10T1900,1687A,110.9294,21.6533,茂名市,茂石化七小,,16,NA,16,11,14,26,26,26,26,18,17,6,8,0.8,0.9
2026-03-10T1900,1688A,110.9108,21.6688,茂名市,健康路,,10,9,13,6,13,32,32,28,28,18,17,9,9,0.7,1
2026-03-10T1900,1689A,110.8592,21.6826,茂名市,高岭,,19,19,18,10,11,30,30,27,27,17,16,13,11,/,/
2026-03-10T1900,3450A,111.0101,21.5165,茂名市,电白水东,,22,19,15,15,15,36,36,40,40,20,17,5,4,/,/
2026-03-10T1900,2540A,103.8414,30.0871,眉山市,气象局,,46,46,34,13,13,94,94,92,92,12,15,6,6,0.5,0.6
2026-03-10T1900,3148A,103.829,30.0563,眉山市,区人社局,,34,34,33,8,14,93,93,88,88,15,17,8,7,0.6,0.6
2026-03-10T1900,4148A,103.8836,30.0695,眉山市,眉职院,,30,19,29,3,12,96,96,93,93,14,14,5,5,0.6,0.7
2026-03-10T1900,1690A,116.1248,24.3307,梅州市,梅江月梅,,18,14,11,12,7,47,47,48,48,12,11,/,/,/,/
2026-03-10T1900,1691A,116.0798,24.2719,梅州市,梅县新城,,19,18,12,13,7,45,45,49,49,13,12,7,7,0.7,0.7
2026-03-10T1900,3315A,116.1234,24.2994,梅州市,梅龙,,20,NA,9,14,7,46,46,50,50,10,9,5,6,0.7,0.8
2026-03-10T1900,1878A,104.7775,31.4741,绵阳市,富乐山,,45,32,31,31,22,67,67,77,77,29,4,6,7,0.7,0.6
2026-03-10T1900,1880A,104.6698,31.4668,绵阳市,高新区自来水公司,,49,49,36,34,23,62,62,71,71,25,17,8,9,0.7,0.7
2026-03-10T1900,3491A,104.6899,31.5324,绵阳市,西科大附属小学,颗粒物(PM10),54,55,39,36,26,56,56,66,66,30,20,8,8,0.6,0.6
2026-03-10T1900,3492A,104.5647,31.5343,绵阳市,安州区旅游局,颗粒物(PM10),55,56,38,35,25,70,70,62,62,14,17,7,6,0.7,0.6
2026-03-10T1900,4146A,104.7092,31.4972,绵阳市,科技城新区公安局,,46,38,34,32,22,60,60,67,67,27,18,8,9,0.7,0.6
2026-03-10T1900,4226A,104.765114,31.453094,绵阳市,绵阳市气象局,,50,50,36,33,25,53,53,60,60,24,14,9,10,0.8,0.7
2026-03-10T1900,1784A,129.61,44.561,牡丹江市,环保大楼,细颗粒物(PM2.5),52,43,38,36,28,68,68,95,90,28,22,3,4,0.5,0.4
2026-03-10T1900,1787A,129.6364,44.6075,牡丹江市,机车工厂,,46,46,56,28,31,55,55,87,81,29,28,10,8,0.5,0.6
2026-03-10T1900,1788A,129.6386,44.5462,牡丹江市,第一中学,,46,46,30,32,19,20,20,90,80,69,21,6,4,0.8,0.6
2026-03-10T1900,4287A,129.5992,44.5964,牡丹江市,东晓云街98号,细颗粒物(PM2.5),86,91,40,53,28,43,43,86,81,48,21,8,4,0.9,0.5
2026-03-10T1900,2531A,105.0703,29.61,内江市,市监测站,,30,19,24,7,15,96,96,91,91,27,21,6,6,0.4,0.5
2026-03-10T1900,2533A,105.0657,29.5807,内江市,内江二中,,33,25,28,6,15,104,104,91,91,16,21,8,8,0.4,0.5
2026-03-10T1900,2534A,105.0407,29.5828,内江市,内江日报社,,35,21,23,6,14,110,110,96,96,15,19,9,8,0.4,0.5
2026-03-10T1900,4147A,105.0433,29.6105,内江市,玉峰路西段888号,,32,23,24,3,17,100,100,87,87,15,18,6,5,0.4,0.5
2026-03-10T1900,2628A,92.0653,31.4846,那曲市,那曲监测站,,29,16,43,16,30,90,90,88,88,9,22,3,7,0.6,1
2026-03-10T1900,4243A,92.0515,31.4787,那曲市,那曲市委宣传部,,31,NA,29,6,23,98,98,96,96,3,14,6,8,0.4,0.9
2026-03-10T1900,1291A,115.8887,28.7006,南昌市,省林业公司,颗粒物(PM10),55,56,64,30,45,120,120,124,124,18,20,4,6,0.5,0.7
2026-03-10T1900,1292A,115.813,28.7443,南昌市,林科所,,48,48,61,26,37,124,124,134,134,14,14,8,10,0.7,0.8
2026-03-10T1900,1294A,115.8518,28.687,南昌市,建工学校,颗粒物(PM10),63,68,71,30,43,116,116,120,120,26,20,8,9,0.4,0.5
2026-03-10T1900,1295A,115.8926,28.6425,南昌市,象湖,,49,49,65,28,47,119,119,124,124,30,23,8,10,0.4,0.6
2026-03-10T1900,3046A,115.9084,28.6062,南昌市,机电学校,颗粒物(PM10),65,70,75,31,47,116,116,125,125,24,18,5,7,0.5,0.6
2026-03-10T1900,3690A,115.9718,28.7032,南昌市,外国语学校,颗粒物(PM10),56,58,69,31,46,122,122,123,123,19,20,8,9,0.6,0.7
2026-03-10T1900,4106A,115.7923,28.6873,南昌市,工业二路,颗粒物(PM10),60,64,74,32,45,131,131,139,139,20,18,4,6,0.6,0.6
2026-03-10T1900,4192A,115.931587,28.686774,南昌市,南京东路235号,颗粒物(PM10),63,68,67,32,48,118,118,130,130,25,18,6,8,0.6,0.7
2026-03-10T1900,1906A,106.0791,30.8022,南充市,南充市委,,30,11,25,8,18,94,94,92,92,14,24,6,6,0.5,0.6
2026-03-10T1900,1907A,106.1038,30.8215,南充市,南充炼油厂,,29,22,34,6,18,92,92,86,86,13,19,5,5,0.5,0.7
2026-03-10T1900,4227A,106.108336,30.788436,南充市,梨树横街98号,NA,NA,14,27,7,19,NA,NA,93,93,15,21,6,6,0.4,0.5
2026-03-10T1900,4304A,106.1172,30.843,南充市,清泉寺北路188号,,35,14,24,3,18,110,110,98,98,9,15,5,6,0.4,0.5
2026-03-10T1900,4305A,106.067,30.7616,南充市,同庆路1号,,28,15,28,3,16,89,89,91,91,14,17,6,6,0.5,0.6
2026-03-10T1900,1151A,118.8033,32.1085,南京市,迈皋桥,,47,47,60,29,38,127,127,141,141,20,19,4,5,0.3,0.3
2026-03-10T1900,1152A,118.7487,32.057,南京市,草场门,,48,48,63,27,39,116,116,125,125,26,27,8,9,0.4,0.4
2026-03-10T1900,1154A,118.770105,32.004342,南京市,中华门,,48,48,63,20,42,116,116,131,131,12,13,6,5,0.5,0.6
2026-03-10T1900,1155A,118.8059,32.0329,南京市,瑞金路,NA,NA,NA,65,NA,42,NA,NA,129,129,NA,22,NA,4,0.5,0.4
2026-03-10T1900,1156A,118.7946,32.0774,南京市,玄武湖,颗粒物(PM10),53,54,63,25,41,116,116,126,126,7,14,7,8,0.5,0.6
2026-03-10T1900,1157A,118.6415,32.0964,南京市,浦口,颗粒物(PM10),68,74,74,41,50,121,121,121,121,22,22,6,6,0.4,0.4
2026-03-10T1900,1158A,118.730129,32.000956,南京市,奥体中心,颗粒物(PM10),56,58,69,24,38,123,123,131,131,23,23,9,9,0.4,0.4
2026-03-10T1900,1159A,118.9072,32.1047,南京市,仙林大学城,NA,NA,46,67,16,37,118,118,130,128,14,20,7,6,NA,0.6
2026-03-10T1900,3422A,118.8443,31.919,南京市,江宁彩虹桥,,49,49,74,17,40,116,116,132,132,16,17,3,3,0.5,0.6
2026-03-10T1900,3427A,118.8497,32.3599,南京市,六合雄州,,43,43,66,26,45,98,98,120,120,31,30,4,4,0.7,0.7
2026-03-10T1900,4086A,118.7641,32.0841,南京市,新模范马路66号,颗粒物(PM10),53,53,68,20,38,146,146,152,152,19,21,4,4,0.3,0.6
2026-03-10T1900,4249A,118.8707617,31.34017673,南京市,汶溪路181号,颗粒物(PM10),65,70,75,38,53,109,109,129,129,22,21,7,8,0.1,0.4
2026-03-10T1900,4312A,119.019,31.6512,南京市,中山西路1号,,46,46,58,15,37,90,90,106,105,15,15,4,4,0.6,0.8
2026-03-10T1900,1401A,108.3098,22.788,南宁市,二十一中,,20,NA,10,8,3,64,64,65,65,12,12,5,6,0.7,0.8
2026-03-10T1900,1402A,108.3135,22.8529,南宁市,北湖,,20,NA,11,10,5,64,64,67,67,14,14,3,6,0.6,0.7
2026-03-10T1900,1403A,108.3205,22.8222,南宁市,市监测站,,20,17,14,8,3,62,62,67,67,17,14,6,8,0.7,0.7
2026-03-10T1900,1404A,108.3828,22.8038,南宁市,大自然花园,,22,12,7,3,2,69,69,71,71,8,8,5,6,0.3,0.4
2026-03-10T1900,1406A,108.2397,22.8462,南宁市,区农职院,,23,23,12,12,6,60,60,62,62,13,7,5,5,0.7,0.7
2026-03-10T1900,1407A,108.3285,22.7356,南宁市,英华嘉园,,27,27,18,12,3,67,67,69,69,11,11,3,4,0.8,0.8
2026-03-10T1900,3401A,108.4829,22.762,南宁市,红星社区,,22,19,9,3,2,70,70,72,72,8,10,5,5,0.4,0.5
2026-03-10T1900,4132A,108.2927,23.1477,南宁市,起凤路9号,,22,20,6,15,4,62,62,68,68,12,8,2,2,0.8,0.8
2026-03-10T1900,4221A,108.2177,22.7774,南宁市,乐贤路16号,,26,26,13,12,3,68,68,68,68,13,9,3,3,0.3,0.4
2026-03-10T1900,2332A,118.1682,26.6371,南平市,南平市监测站,,40,40,30,24,21,66,66,99,98,26,9,4,4,0.6,0.2
2026-03-10T1900,2334A,118.1757,26.6276,南平市,南平七中,,37,37,32,18,20,82,82,104,104,18,8,2,4,0.5,0.5
2026-03-10T1900,1168A,120.9056,31.9669,南通市,狼山街道,,30,30,31,6,11,71,71,83,82,23,19,4,5,0.4,0.5
2026-03-10T1900,1170A,120.8635,32.0231,南通市,城中,,42,42,37,12,13,85,85,91,90,26,20,2,2,0.5,0.5
2026-03-10T1900,1171A,120.9376,31.9301,南通市,星湖花园,,36,36,32,12,11,61,61,88,84,38,19,4,4,0.4,0.4
2026-03-10T1900,1172A,120.8053,32.046,南通市,紫琅学院,,45,45,44,10,16,60,60,89,86,48,30,6,5,0.8,0.7
2026-03-10T1900,3291A,121.0631,32.0644,南通市,通州监测站,,31,31,35,11,17,94,94,110,110,20,20,6,4,0.8,0.6
2026-03-10T1900,3432A,120.9348,31.9874,南通市,环境教育馆,,48,48,38,14,16,59,59,98,94,44,23,5,4,0.4,0.4
2026-03-10T1900,4091A,120.8692,31.9885,南通市,洪江路,,34,34,30,9,11,72,72,81,81,29,18,4,4,0.5,0.5
2026-03-10T1900,2404A,112.5338,33.0086,南阳市,瓦房庄,细颗粒物(PM2.5),136,112,116,99,98,104,104,110,110,20,20,6,5,0.9,0.9
2026-03-10T1900,2405A,112.5002,32.9734,南阳市,汉画馆,细颗粒物(PM2.5),137,131,130,100,110,86,86,108,108,41,32,6,5,0.9,0.9
2026-03-10T1900,2406A,112.5778,33.0144,南阳市,气象站,细颗粒物(PM2.5),127,137,138,89,95,108,108,110,110,22,20,7,6,0.9,0.9
2026-03-10T1900,2407A,112.548,32.9687,南阳市,理工学院,细颗粒物(PM2.5),130,110,122,92,107,NA,NA,109,109,24,22,8,6,0.7,0.7
2026-03-10T1900,4008A,112.5233,32.9921,南阳市,卧龙区政府,细颗粒物(PM2.5),146,128,135,110,97,94,94,103,103,25,24,8,6,0.8,0.8
2026-03-10T1900,1234A,121.8352,29.9111,宁波市,区环保大楼,,36,36,36,10,15,80,80,92,91,34,18,6,7,0.3,0.3
2026-03-10T1900,1235A,121.5595,29.8208,宁波市,万里学院,,31,31,38,7,19,92,92,102,102,24,16,4,5,0.2,0.3
2026-03-10T1900,1236A,121.713,29.9564,宁波市,龙赛医院,,31,31,33,6,12,73,73,89,88,28,12,5,4,0.4,0.4
2026-03-10T1900,1240A,121.5855,29.8635,宁波市,太古小学,,29,25,38,8,18,90,90,102,102,27,19,4,5,0.1,0.4
2026-03-10T1900,1241A,121.5239,29.8673,宁波市,市环境监测中心,,31,31,38,9,19,87,87,100,100,28,16,11,6,0.4,0.4
2026-03-10T1900,2871A,121.6156,29.9015,宁波市,万里国际学校,,30,30,36,7,16,84,84,101,99,26,18,4,6,0.2,0.4
2026-03-10T1900,3710A,121.5593,29.8976,宁波市,白沙活动中心,,27,27,31,8,18,84,84,103,102,27,15,10,7,0.4,0.4
2026-03-10T1900,4095A,121.8962,29.7529,宁波市,中科路88号,,34,18,29,3,14,107,107,107,107,11,17,5,6,0.3,0.5
2026-03-10T1900,2341A,119.5387,26.6611,宁德市,宁德市监测站,,41,41,33,19,18,112,112,122,122,16,15,4,5,0.4,0.4
2026-03-10T1900,3209A,119.5231,26.6562,宁德市,宁德一中,,39,39,33,22,20,117,117,124,124,14,12,5,6,0.4,0.3
2026-03-10T1900,2618A,98.859,25.8541,怒江傈僳族自治州,州监测站,细颗粒物(PM2.5),64,47,46,42,36,114,114,112,112,12,8,9,8,0.4,0.4
2026-03-10T1900,2619A,98.8607,25.8168,怒江傈僳族自治州,泸水一中,细颗粒物(PM2.5),68,64,44,44,36,108,108,108,108,18,6,5,5,0.6,0.6
2026-03-10T1900,1888A,101.6891,26.571,攀枝花市,弄弄坪,,35,33,25,13,10,110,110,103,103,14,14,21,15,0.9,0.8
2026-03-10T1900,1889A,101.577,26.5914,攀枝花市,河门口,,42,42,32,27,17,96,96,95,95,14,16,23,19,1.2,1.2
2026-03-10T1900,1891A,101.7365,26.4986,攀枝花市,仁和,,36,36,15,23,11,87,87,78,78,10,10,12,10,0.6,0.6
2026-03-10T1900,2835A,101.7222,26.567,攀枝花市,四十中小,,35,35,34,12,20,96,96,91,91,16,19,18,23,0.9,1.1
2026-03-10T1900,1604A,122.0303,41.1489,盘锦市,开发区,细颗粒物(PM2.5),52,50,43,36,24,80,80,88,88,20,18,6,6,0.5,0.4
2026-03-10T1900,1605A,122.0486,41.0883,盘锦市,兴隆台,,48,45,39,33,25,73,73,87,84,31,28,9,7,0.5,0.4
2026-03-10T1900,1606A,121.8297,41.1026,盘锦市,新生街道,,45,39,31,31,17,85,85,89,89,19,26,6,6,0.5,0.4
2026-03-10T1900,1832A,113.3257,33.7423,平顶山市,新华旅馆,细颗粒物(PM2.5),123,116,139,85,112,107,107,113,113,15,32,6,6,0.6,0.6
2026-03-10T1900,1833A,113.2917,33.737,平顶山市,规划设计院,细颗粒物(PM2.5),131,132,146,94,104,99,99,111,111,20,19,7,6,0.8,0.7
2026-03-10T1900,1834A,113.182,33.7738,平顶山市,平顶山工学院,细颗粒物(PM2.5),135,113,130,98,97,99,99,121,121,18,18,4,3,0.5,0.5
2026-03-10T1900,3594A,112.8736,33.9068,平顶山市,石龙区,细颗粒物(PM2.5),130,108,136,93,106,119,119,121,121,19,33,6,6,0.7,0.7
2026-03-10T1900,4116A,113.284,33.7139,平顶山市,姚电大道23号,细颗粒物(PM2.5),140,127,149,104,106,94,94,111,111,23,24,6,5,0.7,0.7
2026-03-10T1900,2656A,106.6633,35.5338,平凉市,聚贤嘉苑,,31,31,61,11,32,94,94,77,77,10,31,10,8,0.4,0.7
2026-03-10T1900,2657A,106.7021,35.5307,平凉市,博物馆,,43,43,67,22,38,89,89,70,70,13,31,9,11,0.4,0.9
2026-03-10T1900,2348A,113.8384,27.6436,萍乡市,中医院,NA,NA,NA,60,40,38,94,94,118,118,25,20,4,4,0.6,0.8
2026-03-10T1900,2350A,113.8677,27.6438,萍乡市,市环保局,细颗粒物(PM2.5),76,58,47,48,42,96,96,113,113,16,14,6,3,0.9,0.9
2026-03-10T1900,2351A,113.8663,27.6202,萍乡市,安源区政府,细颗粒物(PM2.5),62,54,52,41,39,80,80,99,99,14,12,6,4,0.6,0.7
2026-03-10T1900,4107A,113.8686,27.6668,萍乡市,联洪村委会,细颗粒物(PM2.5),62,63,52,41,39,96,96,106,106,11,13,3,2,0.6,0.6
2026-03-10T1900,2319A,119.0142,25.4324,莆田市,荔城区仓后路,颗粒物(PM10),52,52,36,31,25,106,106,118,118,20,12,/,/,/,/
2026-03-10T1900,2320A,119.0016,25.4553,莆田市,莆田市监测站,,50,50,32,28,21,110,110,122,122,15,8,3,2,0.5,0.6
2026-03-10T1900,2321A,119.112,25.4561,莆田市,涵江区六中,颗粒物(PM10),51,51,35,32,24,112,112,121,121,16,9,/,/,0.6,0.4
2026-03-10T1900,2322A,119.1014,25.3215,莆田市,秀屿区政府,,43,43,35,24,25,119,119,124,124,10,8,4,3,0.5,0.5
2026-03-10T1900,2392A,115.0312,35.7636,濮阳市,环保局,NA,NA,NA,87,NA,95,NA,NA,120,120,23,27,7,9,0.7,0.6
2026-03-10T1900,3021A,115,35.7667,濮阳市,濮水河管理处,细颗粒物(PM2.5),126,110,128,88,99,126,126,130,130,19,20,7,7,0.7,0.7
2026-03-10T1900,4118A,115.0552,35.7816,濮阳市,中原东路68号,细颗粒物(PM2.5),126,125,132,88,94,122,122,126,126,24,18,5,6,0.5,0.6
2026-03-10T1900,4216A,115.0923632,35.76857718,濮阳市,任丘路479号,细颗粒物(PM2.5),126,143,133,88,99,120,120,129,129,30,28,6,6,0.7,0.7
2026-03-10T1900,2601A,100.9801,22.7634,普洱市,市环保局,,29,29,49,14,24,71,71,70,70,7,6,6,6,0.8,0.8
2026-03-10T1900,2602A,100.9763,22.8237,普洱市,普洱第二中学,,36,36,46,23,25,77,77,80,80,8,5,2,2,0.7,0.6
2026-03-10T1900,3345A,131.0413,45.7795,七台河市,中波台,颗粒物(PM10),61,65,48,20,22,91,91,100,100,13,21,7,9,0.4,0.4
2026-03-10T1900,3637A,131.0136,45.7688,七台河市,人民广场,,37,37,42,15,17,80,80,98,97,22,25,8,9,0.4,0.4
2026-03-10T1900,3684A,130.8639,45.8144,七台河市,新建矿广场,NA,NA,58,45,37,23,NA,NA,96,96,46,19,4,6,0.7,0.4
2026-03-10T1900,1779A,123.9307,47.3641,齐齐哈尔市,安居小区,,45,45,44,21,16,91,91,88,88,16,13,9,8,0.5,0.4
2026-03-10T1900,1780A,123.9497,47.3389,齐齐哈尔市,中心广场,,32,32,39,17,16,90,90,86,86,16,13,8,8,0.4,0.6
2026-03-10T1900,1781A,123.9483,47.3229,齐齐哈尔市,农牧车辆厂,,34,34,43,20,15,95,95,89,89,10,10,8,8,0.2,0.3
2026-03-10T1900,1783A,123.9442,47.2994,齐齐哈尔市,市环境监测站,,34,34,44,18,16,93,93,89,89,13,12,5,4,0.4,0.4
2026-03-10T1900,3662A,123.6341,47.2079,齐齐哈尔市,富区青少年活动中心,,38,38,56,3,18,92,92,90,90,7,9,4,5,0.4,0.5
2026-03-10T1900,2591A,107.9765,26.5724,黔东南苗族侗族自治州,市环境监测站,,35,30,28,24,20,60,60,76,76,25,9,3,2,0.7,0.5
2026-03-10T1900,2881A,107.8909,26.531,黔东南苗族侗族自治州,凯里学院,,45,34,22,31,18,73,73,86,86,20,14,3,4,0.6,0.6
2026-03-10T1900,2593A,107.5223,26.2371,黔南布依族苗族自治州,小围寨,,27,17,12,15,10,85,85,86,86,3,4,4,4,0.5,0.7
2026-03-10T1900,3538A,107.5175,26.2977,黔南布依族苗族自治州,沙坝,,27,22,20,18,9,85,85,90,90,6,5,3,4,0.7,0.7
2026-03-10T1900,2589A,104.9022,25.0943,黔西南布依族苗族自治州,场坝街,,33,NA,22,23,10,58,58,55,55,6,7,1,4,0.7,0.7
2026-03-10T1900,2590A,104.8812,25.0994,黔西南布依族苗族自治州,坪东大道,,39,33,24,27,12,50,50,48,48,8,10,5,6,0.7,0.7
2026-03-10T1900,2502A,108.6238,21.9667,钦州市,市环保站,,29,27,9,20,4,73,73,74,74,11,9,3,3,0.6,0.8
2026-03-10T1900,2503A,108.655,21.9481,钦州市,沙埠小学,,28,26,12,19,4,80,80,74,74,12,10,6,4,0.6,0.6
2026-03-10T1900,2504A,108.5989,21.7435,钦州市,港区一小,,25,25,21,15,8,69,69,73,73,16,16,3,4,0.5,0.6
2026-03-10T1900,3404A,108.5959,21.9634,钦州市,北职校,,23,15,9,12,4,72,72,75,75,10,7,3,3,0.8,0.7
2026-03-10T1900,1046A,119.5247,39.9346,秦皇岛市,建设大厦,细颗粒物(PM2.5),108,105,52,68,29,NA,NA,82,82,34,33,6,8,0.8,0.6
2026-03-10T1900,3132A,119.5979,39.938,秦皇岛市,文明里,细颗粒物(PM2.5),103,95,42,63,22,69,69,80,80,44,29,10,10,0.7,0.5
2026-03-10T1900,4066A,119.7458,39.9952,秦皇岛市,南园路157号,细颗粒物(PM2.5),94,79,38,57,22,71,71,78,78,42,36,8,8,0.7,0.5
2026-03-10T1900,4067A,119.5131,39.8858,秦皇岛市,翠岛大街1号,细颗粒物(PM2.5),112,89,44,73,26,77,77,81,81,31,23,9,9,0.7,0.5
2026-03-10T1900,4198A,119.509013,39.825305,秦皇岛市,北戴河轮滑馆,细颗粒物(PM2.5),84,80,34,52,18,77,77,81,81,36,23,6,6,0.7,0.5
2026-03-10T1900,1310A,120.404,36.0625,青岛市,市南区东部子站,颗粒物(PM10),51,51,34,28,19,91,91,96,96,18,24,9,9,0.5,0.6
2026-03-10T1900,1311A,120.362344,36.10282,青岛市,四方区子站,细颗粒物(PM2.5),56,56,41,38,22,93,93,104,104,23,29,5,6,0.6,0.6
2026-03-10T1900,1312A,120.294373,36.054183,青岛市,市南区西部子站,,46,46,44,32,21,86,86,95,95,26,36,2,6,0.7,0.6
2026-03-10T1900,1313A,120.4581,36.0858,青岛市,崂山区子站,,44,44,28,24,15,98,98,104,104,13,18,7,7,0.3,0.4
2026-03-10T1900,1315A,120.3945,36.3083,青岛市,城阳区子站,细颗粒物(PM2.5),74,80,45,47,23,94,94,103,103,33,30,6,7,0.7,0.7
2026-03-10T1900,3642A,120.3454,36.0735,青岛市,市北区南部,颗粒物(PM10),53,54,36,27,17,96,96,102,102,16,24,1,3,0.6,0.6
2026-03-10T1900,3643A,120.3897,36.18,青岛市,李沧区北部,颗粒物(PM10),56,58,38,36,18,88,88,101,100,27,24,8,9,0.6,0.7
2026-03-10T1900,4110A,120.5222,36.4089,青岛市,盟旺路653号,细颗粒物(PM2.5),101,86,40,61,23,119,119,124,124,19,13,5,5,0.7,0.7
2026-03-10T1900,4290A,120.196923,35.954556,青岛市,珠江路669号,,49,41,37,34,23,98,98,100,100,24,42,7,9,0.4,0.5
2026-03-10T1900,4291A,120.0424,35.8656,青岛市,黄岛区人民政府广场,颗粒物(PM10),51,51,48,32,28,96,96,92,92,15,32,7,8,0.5,0.6
2026-03-10T1900,1703A,113.0218,23.7086,清远市,凤城街办,,26,26,8,17,6,68,68,67,67,19,12,/,/,/,/
2026-03-10T1900,3025A,113.0479,23.6343,清远市,技师学院,,32,32,13,22,8,67,67,70,70,18,15,5,5,0.7,0.7
2026-03-10T1900,3318A,112.9898,23.7403,清远市,清新太和,,25,22,7,15,4,77,77,77,77,13,10,6,5,0.5,0.5
2026-03-10T1900,3455A,113.076,23.72,清远市,清城东城,,36,36,12,23,7,70,70,70,70,18,13,/,/,/,/
2026-03-10T1900,2661A,107.6325,35.7357,庆阳市,庆阳五中,,47,47,48,24,26,87,87,91,91,24,16,10,6,0.6,0.5
2026-03-10T1900,2662A,107.6361,35.7067,庆阳市,市环保局,,39,39,47,24,28,86,86,82,82,22,18,11,15,0.6,0.5
2026-03-10T1900,1916A,103.7897,25.5036,曲靖市,环境监测站,细颗粒物(PM2.5),68,58,23,44,18,90,90,71,71,21,15,9,8,0.8,0.7
2026-03-10T1900,1917A,103.8013,25.5357,曲靖市,烟厂办公区,颗粒物(PM10),53,54,26,31,16,82,82,65,65,15,13,4,4,0.8,0.8
2026-03-10T1900,3376A,103.7926,25.4651,曲靖市,南苑二区,细颗粒物(PM2.5),54,52,27,37,18,85,85,63,63,22,15,5,5,0.9,0.8
2026-03-10T1900,3377A,103.7442,25.5259,曲靖市,曲靖师范学院,细颗粒物(PM2.5),60,54,27,40,21,93,93,77,77,16,18,3,3,0.6,0.7
2026-03-10T1900,1264A,118.8694,28.94,衢州市,环保大楼,细颗粒物(PM2.5),56,54,54,38,37,120,120,126,126,22,26,/,/,/,/
2026-03-10T1900,1266A,118.8622,28.9809,衢州市,衢州学院,,45,45,55,30,38,101,101,123,122,40,30,6,6,0.6,0.6
2026-03-10T1900,4097A,118.9646,28.9832,衢州市,衢州三中,,37,35,57,23,40,116,116,128,128,13,27,6,6,0.7,0.7
2026-03-10T1900,1611A,118.5818,24.9116,泉州市,涂山街,,38,38,31,22,23,89,89,102,102,17,11,3,3,0.4,0.4
2026-03-10T1900,1612A,118.597,24.8976,泉州市,津头埔,,39,39,31,22,22,97,97,114,114,16,11,3,3,0.5,0.4
2026-03-10T1900,1613A,118.6669,24.9422,泉州市,万安,,44,44,35,24,22,86,86,102,100,13,10,3,3,0.4,0.4
2026-03-10T1900,4105A,118.6355,24.9148,泉州市,霞新路6号,,36,36,36,22,22,85,85,100,100,18,12,/,/,0.5,0.4
2026-03-10T1900,2626A,88.8873,29.2723,日喀则市,日喀则监测站,,39,39,18,16,13,100,100,107,107,6,7,8,8,0.3,0.4
2026-03-10T1900,3726A,88.8775,29.2425,日喀则市,林业技术推广中心,颗粒物(PM10),53,53,30,3,12,103,103,98,98,4,6,9,8,0.4,0.4
2026-03-10T1900,1659A,119.4711,35.421,日照市,监测站,细颗粒物(PM2.5),108,117,69,68,38,82,82,92,92,56,47,9,11,0.7,0.9
2026-03-10T1900,1660A,119.523,35.4216,日照市,市政府广场,细颗粒物(PM2.5),101,95,69,61,38,101,101,92,92,32,45,7,10,0.6,0.8
2026-03-10T1900,1661A,119.5511,35.4113,日照市,港务局,细颗粒物(PM2.5),94,92,78,57,36,104,104,95,95,30,44,5,9,0.6,0.8
2026-03-10T1900,3507A,119.5326,35.4627,日照市,职业技术学院,细颗粒物(PM2.5),100,83,63,60,35,110,110,98,98,31,35,7,10,0.7,0.8
2026-03-10T1900,3604A,119.3267,35.1043,日照市,岚山环保分局,细颗粒物(PM2.5),109,102,86,69,51,113,113,104,104,36,42,13,15,0.8,0.8
2026-03-10T1900,1835A,111.1922,34.7752,三门峡市,市政府,NA,NA,65,92,54,91,NA,NA,103,103,36,18,9,9,0.9,0.8
2026-03-10T1900,1836A,111.1588,34.794,三门峡市,开发区,细颗粒物(PM2.5),74,82,123,47,97,114,114,108,108,22,22,10,10,0.6,0.8
2026-03-10T1900,3039A,111.1911,34.7829,三门峡市,三门峡市第一小学,细颗粒物(PM2.5),88,73,100,54,91,102,102,108,108,30,18,14,12,0.7,0.6
2026-03-10T1900,3598A,111.1031,34.719,三门峡市,富达温泉假日酒店,细颗粒物(PM2.5),107,101,112,67,99,79,79,98,98,45,24,15,14,0.8,0.8
2026-03-10T1900,2324A,117.621,26.2626,三明市,三钢,,42,42,31,17,24,79,79,98,98,18,9,4,4,0.6,0.5
2026-03-10T1900,2325A,117.6352,26.2714,三明市,三明二中,,32,32,30,15,21,81,81,95,95,12,7,3,4,0.5,0.3
2026-03-10T1900,2326A,117.6028,26.2377,三明市,三元区政府,,48,48,27,22,24,63,63,96,95,31,9,3,3,0.8,0.5
2026-03-10T1900,1877A,109.4962,18.2682,三亚市,河西子站,NA,NA,NA,23,16,15,NA,NA,121,121,4,5,4,4,0.5,0.4
2026-03-10T1900,3540A,109.7348,18.3443,三亚市,君悦子站,,28,28,37,10,18,78,78,102,93,8,6,4,4,0.6,0.5
2026-03-10T1900,4135A,109.1714,18.3739,三亚市,城东小学站,,37,29,21,14,14,118,118,114,114,8,6,/,/,/,/
2026-03-10T1900,2624A,91.7592,29.234,山南市,山南监测站,,31,10,18,3,7,97,97,95,95,4,5,6,8,0.3,0.4
2026-03-10T1900,2625A,91.7701,29.2436,山南市,山南人民医院,,32,24,24,3,7,100,100,100,100,2,5,3,7,0.3,0.4
2026-03-10T1900,1674A,116.6795,23.3666,汕头市,金平子站,,38,34,36,19,21,120,120,118,118,10,9,4,5,0.6,0.5
2026-03-10T1900,1675A,116.7248,23.3632,汕头市,龙湖子站,,36,33,36,20,21,115,115,112,112,13,13,5,5,/,/
2026-03-10T1900,1676A,116.7257,23.2774,汕头市,濠江子站,,36,30,34,20,25,113,113,111,111,12,11,7,8,/,/
2026-03-10T1900,1677A,116.7518,23.4712,汕头市,澄海子站,,36,30,36,17,20,114,114,109,109,8,9,7,7,0.6,0.5
2026-03-10T1900,1678A,116.6088,23.2539,汕头市,潮阳子站,,38,38,35,24,22,116,116,113,113,7,6,5,6,0.6,0.5
2026-03-10T1900,3444A,116.4539,23.2684,汕头市,潮南峡山,,39,34,41,20,23,123,123,125,125,8,8,6,6,0.5,0.5
2026-03-10T1900,3624A,116.4069,23.2533,汕头市,潮南子站,,45,45,48,24,25,105,105,108,108,12,11,6,8,/,/
2026-03-10T1900,1693A,115.3653,22.7751,汕尾市,市环保局,,39,36,35,21,21,124,124,107,107,12,11,6,6,0.6,0.6
2026-03-10T1900,1695A,115.362,22.7926,汕尾市,新城中学,,38,35,34,20,20,119,119,103,103,12,9,7,6,0.6,0.6
2026-03-10T1900,2645A,109.9155,33.8714,商洛市,监测站,,27,27,69,18,53,74,74,96,94,31,18,6,7,0.5,0.6
2026-03-10T1900,3045A,109.9647,33.8486,商洛市,商州区中学,,46,46,61,17,59,61,61,94,90,34,16,6,6,0.5,0.6
2026-03-10T1900,2408A,115.6701,34.4283,商丘市,环境监测站,细颗粒物(PM2.5),107,92,122,67,95,122,122,130,130,18,24,2,2,0.3,0.4
2026-03-10T1900,2409A,115.6458,34.4047,商丘市,粮食局,细颗粒物(PM2.5),115,NA,106,76,94,113,113,123,123,18,20,2,2,0.4,0.5
