timepoint,stationcode,longitude,latitude,area,positionname,primarypollutant,aqi,pm10,pm10_24h,pm2_5,pm2_5_24h,o3,o3_24h,o3_8h,o3_8h_24h,no2,no2_24h,so2,so2_24h,co,co_24h
2025-06-24T2100,2566A,102.1879,31.914,阿坝藏族羌族自治州,州农科所,,12,,27,8,9,34,,55,44,10,13,13,14,0.6,0.7
2025-06-24T2100,2568A,102.2502,31.8896,阿坝藏族羌族自治州,马师校,,31,31,16,20,17,14,,60,52,12,12,6,6,0.6,0.5
2025-06-24T2100,3994A,102.2165,31.9024,阿坝藏族羌族自治州,马尔康中学西区,,25,,10,17,15,33,,69,62,7,6,6,6,0.4,0.4
2025-06-24T2100,2695A,80.292,41.1694,阿克苏地区,电视台,颗粒物(PM10),81,112,77,27,29,129,,126,126,8,11,4,6,0.6,0.6
2025-06-24T2100,2696A,80.2613,41.1551,阿克苏地区,艺术中心,颗粒物(PM10),81,112,77,50,31,140,,132,132,2,5,3,3,0.3,0.3
2025-06-24T2100,2204A,105.6467,38.8363,阿拉善盟,西城区西花园,,46,,23,22,21,145,,170,169,9,9,7,7,1.0,1
2025-06-24T2100,2205A,105.6985,38.8411,阿拉善盟,蒙二幼,,43,26,29,14,16,137,,165,164,11,10,10,10,0.7,0.6
2025-06-24T2100,2206A,105.724,38.8516,阿拉善盟,环保局新楼,,41,24,27,16,15,130,,163,160,8,7,9,9,0.7,0.6
2025-06-24T2100,2708A,88.1264,47.8517,阿勒泰地区,市站,,27,20,17,6,6,85,,100,96,7,6,1,1,0.4,0.4
2025-06-24T2100,2630A,80.1161,32.5,阿里地区,阿里监测站,,42,40,16,12,9,132,,127,127,6,8,6,8,0.3,0.3
2025-06-24T2100,3192A,80.0903,32.5028,阿里地区,阿里藏医院,颗粒物(PM10),64,78,34,15,9,133,,129,129,4,5,8,8,0.4,0.4
2025-06-24T2100,2642A,109.0318,32.6537,安康市,香溪洞,,49,34,24,13,12,155,,145,145,7,6,5,7,0.4,0.4
2025-06-24T2100,2644A,109.0072,32.6975,安康市,汉滨区检察院,,,36,25,,14,148,,143,143,,8,,8,0.5,0.5
2025-06-24T2100,4054A,109.0325,32.6913,安康市,市邮政管理局,,44,36,27,16,14,138,,138,138,11,11,12,8,0.7,0.5
2025-06-24T2100,2291A,117.0809,30.5177,安庆市,环科院,臭氧1小时,60,36,30,21,22,168,,176,176,12,8,5,4,0.8,0.7
2025-06-24T2100,2292A,117.0331,30.5119,安庆市,马山宾馆,,48,37,33,20,24,153,,170,170,16,9,6,5,0.8,0.9
2025-06-24T2100,2294A,116.9896,30.6145,安庆市,安庆大学,,,40,30,19,18,,,135,135,16,9,1,2,0.7,0.7
2025-06-24T2100,3173A,117.0598,30.5351,安庆市,市人大,,45,38,32,25,25,143,,176,175,23,11,4,5,0.7,0.7
2025-06-24T2100,3122A,105.9606,26.2611,安顺市,伍家关,,,,,,16,,,65,,,5,,5,,0.5
2025-06-24T2100,3123A,105.9408,26.2431,安顺市,凤凰山,,22,18,17,15,9,46,,51,51,8,6,4,4,0.4,0.5
2025-06-24T2100,3124A,105.9439,26.2564,安顺市,金钟山,,16,14,18,10,12,49,,52,52,4,4,4,5,0.3,0.3
2025-06-24T2100,3125A,105.8983,26.2481,安顺市,娄家坡,,15,11,10,3,6,47,,49,49,2,2,3,4,0.5,0.4
2025-06-24T2100,1818A,114.4839,36.0621,安阳市,棉研所,,,,,,,,,,,,,,,,
2025-06-24T2100,1819A,114.3551,36.1017,安阳市,红庙街,臭氧1小时,67,44,45,22,20,173,,204,201,5,5,2,5,0.3,0.6
2025-06-24T2100,1820A,114.361,36.0681,安阳市,银杏小区,臭氧1小时,70,42,52,27,26,176,,213,207,13,16,3,6,0.3,0.5
2025-06-24T2100,3141A,114.3922,36.0878,安阳市,信访局,臭氧1小时,82,40,49,22,20,185,,214,210,10,13,3,4,0.5,0.6
2025-06-24T2100,3669A,114.4705,36.0637,安阳市,左辅环卫站,臭氧1小时,64,47,51,24,25,171,,213,208,14,16,4,6,0.5,0.5
2025-06-24T2100,3703A,114.2917,36.0949,安阳市,安钢职工学校,臭氧1小时,59,51,57,26,26,167,,193,190,8,9,20,6,0.4,0.5
2025-06-24T2100,1748A,123.044,41.1196,鞍山市,深沟寺,,45,45,41,24,25,113,,208,185,28,16,9,11,2.0,1
2025-06-24T2100,1749A,123.011,41.0931,鞍山市,太阳城,,41,41,39,22,24,104,,198,178,26,16,8,10,0.7,0.9
2025-06-24T2100,1750A,123.0485,41.1442,鞍山市,太平,颗粒物(PM10),61,72,56,36,28,104,,206,182,40,18,11,11,1.1,1
2025-06-24T2100,1751A,122.9642,41.0971,鞍山市,铁西三道街,颗粒物(PM10),58,66,55,32,28,93,,190,158,34,28,8,8,2.1,1.2
2025-06-24T2100,1753A,123.022,41.0821,鞍山市,明达新区,,44,44,40,22,25,94,,194,175,36,16,8,10,0.5,0.7
2025-06-24T2100,1754A,123.1289,41.0228,鞍山市,千山,,,,,,,,,,,,,,,,
2025-06-24T2100,4201A,122.9446,41.0826,鞍山市,兴盛南路290号,颗粒物(PM10),57,64,61,30,28,84,,199,162,47,34,6,8,0.5,0.8
2025-06-24T2100,2195A,107.4212,40.761,巴彦淖尔市,附二中,颗粒物(PM10),98,145,41,15,17,136,,165,161,22,11,11,11,0.7,0.6
2025-06-24T2100,2196A,107.37,40.7372,巴彦淖尔市,市环保大楼,颗粒物(PM10),51,52,43,21,16,148,,160,158,17,11,8,8,0.6,0.5
2025-06-24T2100,1956A,86.1472,41.7538,巴音郭楞蒙古自治州,孔雀公园,颗粒物(PM10),57,63,92,31,36,112,,112,112,12,7,10,9,0.2,0.1
2025-06-24T2100,1957A,86.1972,41.7166,巴音郭楞蒙古自治州,棉纺厂,颗粒物(PM10),64,77,103,9,24,116,,115,115,10,10,3,3,0.2,0.2
2025-06-24T2100,1958A,86.2357,41.7173,巴音郭楞蒙古自治州,经济开发区,颗粒物(PM10),51,51,53,23,17,121,,118,118,4,7,9,9,0.2,0.2
2025-06-24T2100,2914A,106.7677,31.8794,巴中市,苏山坪,,25,21,16,14,12,77,,92,84,3,4,5,6,0.3,0.3
2025-06-24T2100,3181A,106.7768,31.8526,巴中市,市五中,,,25,24,14,14,,,100,91,6,14,7,8,0.4,0.5
2025-06-24T2100,3183A,106.7418,31.8654,巴中市,圣泉水务公司,,26,16,18,11,12,83,,101,90,8,16,6,6,0.5,0.5
2025-06-24T2100,3616A,106.7616,31.8344,巴中市,市中心医院,,24,20,21,10,13,76,,99,86,7,19,7,7,0.4,0.5
2025-06-24T2100,2235A,122.7911,45.6077,白城市,洮北区环保局,,45,39,30,20,23,144,,162,158,16,12,4,3,0.4,0.4
2025-06-24T2100,2236A,122.8738,45.5725,白城市,市环保局,,45,41,37,18,22,143,,148,147,8,5,5,6,0.6,0.5
2025-06-24T2100,2231A,126.4219,41.9171,白山市,喜丰,颗粒物(PM10),56,62,68,22,21,7,,156,112,68,28,7,7,0.8,0.8
2025-06-24T2100,2232A,126.4077,41.9419,白山市,环保局,颗粒物(PM10),51,52,34,19,13,69,,152,122,15,14,4,3,0.7,0.6
2025-06-24T2100,2647A,104.1724,36.5446,白银市,第三小学,,31,22,16,15,12,98,,111,106,10,8,20,16,0.9,0.6
2025-06-24T2100,2648A,104.1465,36.5482,白银市,动力公司,,33,20,14,12,14,105,,111,109,11,9,50,12,0.6,0.4
2025-06-24T2100,2512A,106.6103,23.9011,百色市,市监测站,,30,30,30,17,16,59,,73,72,10,10,9,6,0.3,0.3
2025-06-24T2100,2513A,106.6538,23.8859,百色市,市中心血站,,32,32,33,17,19,58,,70,69,9,15,7,5,0.6,0.6
2025-06-24T2100,3406A,106.6085,23.8798,百色市,祈福高中,,33,33,31,23,16,54,,73,71,15,12,8,6,0.4,0.6
2025-06-24T2100,2270A,117.396,32.939,蚌埠市,工人疗养院,,37,23,43,10,22,116,,146,139,5,13,3,4,0.4,0.4
2025-06-24T2100,2271A,117.3605,32.9427,蚌埠市,百货大楼,,36,30,40,10,20,114,,148,139,11,15,4,5,0.3,0.4
2025-06-24T2100,2273A,117.4185,32.8911,蚌埠市,蚌埠学院,,33,24,33,15,23,104,,147,138,6,18,4,5,0.3,0.3
2025-06-24T2100,2274A,117.3533,32.9673,蚌埠市,淮上区政府,,39,24,42,17,23,123,,150,140,7,18,4,6,0.4,0.4
2025-06-24T2100,2275A,117.3145,32.8977,蚌埠市,高新区,,34,34,42,16,24,106,,152,140,12,22,5,7,0.4,0.4
2025-06-24T2100,3715A,117.3092,32.9314,蚌埠市,蚌埠田家炳中学,,35,22,50,16,27,112,,151,140,8,20,5,7,0.2,0.3
2025-06-24T2100,1585A,109.8756,40.6532,包头市,市环境监测站,,42,29,42,20,24,133,,188,180,49,27,13,15,0.7,0.8
2025-06-24T2100,1587A,109.9991,40.5842,包头市,包头八中,臭氧1小时,63,46,48,19,27,170,,188,187,21,22,7,12,0.6,0.8
2025-06-24T2100,1588A,109.8538,40.6821,包头市,青山宾馆,,39,33,38,20,23,124,,191,182,53,28,12,14,0.6,0.7
2025-06-24T2100,1589A,109.8642,40.6288,包头市,惠龙物流,,,24,47,17,26,,,190,190,32,26,11,12,0.6,0.7
2025-06-24T2100,1590A,110.0377,40.5546,包头市,东河鸿龙湾,,47,47,42,17,22,140,,192,186,37,23,14,11,0.6,0.6
2025-06-24T2100,3283A,109.9154,40.5685,包头市,滨河大厦,,,39,39,22,25,,,198,198,27,26,14,11,0.6,0.6
2025-06-24T2100,3419A,109.9447,40.6261,包头市,包头市委党校,,43,31,41,18,23,137,,190,184,47,27,15,17,0.6,0.7
2025-06-24T2100,3683A,109.8331,40.6576,包头市,昆区政府,臭氧1小时,53,25,48,21,30,162,,185,182,24,26,12,15,0.6,0.8
2025-06-24T2100,1930A,107.185,34.3063,宝鸡市,庙沟村,,28,27,27,12,17,87,,118,94,11,13,5,5,0.3,0.4
2025-06-24T2100,1931A,107.0708,34.3017,宝鸡市,竹园沟,,21,21,26,9,16,50,,87,78,15,15,6,6,0.4,0.4
2025-06-24T2100,1932A,107.1906,34.3672,宝鸡市,三陆医院,,42,,38,29,28,58,,94,82,22,31,6,7,0.6,0.6
2025-06-24T2100,1933A,107.1431,34.3547,宝鸡市,监测站,,32,32,37,20,24,49,,88,81,19,18,6,7,0.3,0.3
2025-06-24T2100,1934A,107.1186,34.3739,宝鸡市,技工学校,,39,33,33,27,24,57,,90,82,10,12,8,8,0.5,0.5
2025-06-24T2100,1935A,107.3906,34.3528,宝鸡市,陈仓区环保局家属楼,,35,24,39,24,22,80,,86,82,19,19,6,6,0.6,0.6
2025-06-24T2100,1936A,107.2058,34.3497,宝鸡市,文理学院,,30,30,34,21,19,80,,99,94,14,17,5,6,0.5,0.6
2025-06-24T2100,1937A,107.2386,34.3622,宝鸡市,三迪小学,,35,30,34,24,28,74,,99,90,19,22,6,6,0.5,0.6
2025-06-24T2100,1051A,115.493,38.8632,保定市,游泳馆,臭氧1小时,73,55,61,28,32,178,,216,212,27,28,5,7,0.4,0.4
2025-06-24T2100,1052A,115.5213,38.8959,保定市,华电二区,臭氧1小时,98,46,49,24,24,198,,219,216,14,20,3,4,0.6,0.6
2025-06-24T2100,1053A,115.4713,38.9108,保定市,接待中心,颗粒物(PM10),59,67,57,28,28,153,,212,206,26,21,2,3,0.6,0.5
2025-06-24T2100,1054A,115.4612,38.8416,保定市,地表水厂,颗粒物(PM10),67,83,73,25,30,149,,227,215,52,36,1,3,0.3,0.4
2025-06-24T2100,3581A,115.31981,38.95208,保定市,满城区生态环境分局,颗粒物(PM10),57,63,61,31,23,145,,220,205,20,18,3,4,0.3,0.3
2025-06-24T2100,3582A,115.47694,38.76408,保定市,清苑区第二中学,臭氧1小时,80,95,84,36,41,184,,244,234,27,21,3,5,0.4,0.4
2025-06-24T2100,3583A,115.62909,39.02311,保定市,徐水物探局,颗粒物(PM10),62,73,72,19,23,162,,201,188,22,23,2,2,0.4,0.4
2025-06-24T2100,4004A,115.4202,38.8656,保定市,双鹰农机,细颗粒物(PM2.5),64,73,54,46,32,144,,222,210,48,30,5,5,0.4,0.4
2025-06-24T2100,4034A,115.5150,38.8590,保定市,植保所站,臭氧1小时,82,59,66,23,33,185,,220,217,27,28,5,5,0.5,0.5
2025-06-24T2100,2594A,99.1678,25.1081,保山市,市环境监测站,,17,17,12,11,13,14,,34,29,7,9,8,8,0.4,0.4
2025-06-24T2100,2595A,99.1711,25.1328,保山市,市环保局,,,,12,,9,20,,38,33,,7,7,6,0.6,0.6
2025-06-24T2100,1866A,109.2262,21.588,北海市,牛尾岭水库,,21,11,17,8,13,65,,81,78,8,7,2,3,0.4,0.4
2025-06-24T2100,1867A,109.1436,21.4086,北海市,海滩公园,,22,22,23,3,4,61,,66,66,4,4,2,2,0.1,0.2
2025-06-24T2100,1868A,109.0981,21.4661,北海市,新市环保局,,20,,12,9,9,63,,71,71,4,5,2,2,0.4,0.4
2025-06-24T2100,1869A,109.1778,21.5233,北海市,北海工业园,,22,22,21,10,10,54,,73,72,9,8,2,2,0.4,0.4
2025-06-24T2100,3400A,109.1911,21.4415,北海市,龙潭自来水厂,,,19,15,3,9,,,77,77,5,4,3,3,0.4,0.4
2025-06-24T2100,1001A,116.3621,39.8784,北京市,万寿西宫,臭氧1小时,97,54,66,36,37,197,,252,230,25,24,4,5,0.5,0.6
2025-06-24T2100,1002A,116.2202,40.2915,北京市,定陵,,,,,,,,,,,,,,,,
2025-06-24T2100,1003A,116.4174,39.9289,北京市,东四,臭氧1小时,107,62,64,27,33,214,,269,245,34,30,3,4,0.3,0.5
2025-06-24T2100,1004A,116.4072,39.8863,北京市,天坛,细颗粒物(PM2.5),54,54,64,38,39,153,,244,211,18,20,3,4,0.6,0.7
2025-06-24T2100,1005A,116.462,39.9365,北京市,农展馆,臭氧1小时,88,60,63,31,37,190,,230,209,20,28,6,6,0.7,0.9
2025-06-24T2100,1006A,116.3392,39.9295,北京市,官园,臭氧1小时,95,52,63,34,36,196,,249,228,23,24,3,5,0.3,0.5
2025-06-24T2100,1007A,116.2878,39.9611,北京市,海淀万柳,颗粒物(PM10),52,53,68,32,39,150,,223,198,29,39,4,4,0.6,0.6
2025-06-24T2100,1008A,116.6636,40.135,北京市,顺义新城,臭氧1小时,74,51,59,27,33,179,,226,213,28,23,4,4,0.6,0.6
2025-06-24T2100,1009A,116.6275,40.3275,北京市,怀柔镇,细颗粒物(PM2.5),52,48,48,36,29,151,,215,201,13,12,2,2,0.5,0.5
2025-06-24T2100,1010A,116.2296,40.217,北京市,昌平镇,颗粒物(PM10),55,59,48,30,30,133,,211,189,12,14,4,5,0.4,0.5
2025-06-24T2100,1011A,116.3966,39.9821,北京市,奥体中心,颗粒物(PM10),52,53,57,30,31,158,,201,188,21,26,4,4,0.4,0.5
2025-06-24T2100,3281A,115.9718,40.4529,北京市,延庆夏都,,45,42,47,27,28,143,,174,164,13,15,5,5,0.6,0.6
2025-06-24T2100,3418A,116.8336,40.4095,北京市,密云新城,颗粒物(PM10),72,94,53,44,28,156,,223,216,23,12,3,3,0.5,0.5
2025-06-24T2100,3671A,116.088,39.9726,北京市,门头沟三家店,,48,46,41,33,18,102,,191,165,19,10,3,3,0.5,0.5
2025-06-24T2100,3672A,116.1541,39.8204,北京市,丰台云岗,颗粒物(PM10),81,111,67,48,34,63,,237,184,64,21,3,4,0.5,0.5
2025-06-24T2100,3673A,116.6804,39.9081,北京市,通州东关,臭氧1小时,103,71,84,42,46,205,,277,248,24,28,3,6,0.6,0.8
2025-06-24T2100,3674A,115.9577,39.7603,北京市,房山燕山,臭氧1小时,67,56,49,29,27,173,,178,157,8,11,3,3,0.4,0.4
2025-06-24T2100,3675A,116.4672,39.7733,北京市,大兴旧宫,颗粒物(PM10),56,62,82,33,45,139,,254,211,21,28,3,4,0.5,0.8
2025-06-24T2100,3694A,115.986,40.4563,北京市,延庆石河营,颗粒物(PM10),51,52,52,27,29,137,,164,152,13,13,2,2,0.5,0.5
2025-06-24T2100,3695A,116.6151,40.3053,北京市,怀柔新城,,,,48,,30,,,173,,,9,,3,,0.6
2025-06-24T2100,3696A,116.2545,39.8768,北京市,丰台小屯,颗粒物(PM10),54,57,69,30,37,149,,219,192,21,29,3,3,0.6,0.7
2025-06-24T2100,3697A,116.84,40.3844,北京市,密云镇,臭氧1小时,90,69,54,36,31,192,,221,219,19,17,5,4,0.7,0.5
2025-06-24T2100,4182A,116.1942,39.9158,北京市,八角北路9号,颗粒物(PM10),55,60,64,29,32,131,,216,184,24,29,3,4,0.4,0.5
2025-06-24T2100,4194A,117.0790,40.1518,北京市,洳河巡河路,细颗粒物(PM2.5),83,99,90,61,53,180,,236,224,22,16,5,4,0.8,0.7
2025-06-24T2100,1761A,123.8275,41.3064,本溪市,大峪,,38,38,34,16,16,74,,139,112,14,13,7,7,0.5,0.5
2025-06-24T2100,1762A,123.7567,41.3325,本溪市,溪湖,颗粒物(PM10),62,74,55,20,22,77,,149,114,35,21,7,10,0.8,1.3
2025-06-24T2100,1763A,123.7169,41.3094,本溪市,彩屯,颗粒物(PM10),52,54,44,25,23,52,,126,98,45,31,10,14,0.8,1.3
2025-06-24T2100,1764A,123.7669,41.2864,本溪市,东明,,46,46,37,20,16,62,,141,118,34,20,7,8,0.9,0.8
2025-06-24T2100,1765A,123.7992,41.2664,本溪市,新立屯,,30,30,28,13,15,70,,144,103,34,31,5,7,0.5,0.7
2025-06-24T2100,1766A,123.8142,41.3472,本溪市,威宁,颗粒物(PM10),51,52,45,20,19,44,,149,114,31,18,5,7,0.4,0.4
2025-06-24T2100,2587A,105.2864,27.3125,毕节市,八中,,13,,35,9,32,26,,50,41,8,10,5,7,0.6,0.5
2025-06-24T2100,2588A,105.31,27.2944,毕节市,师专,,12,11,33,8,27,27,,52,43,16,13,4,8,0.5,0.5
2025-06-24T2100,4263A,105.3688,27.3598,毕节市,工业大道,,11,7,30,3,23,34,,50,43,11,14,6,6,0.7,0.6
2025-06-24T2100,1629A,118.0018,37.3617,滨州市,第二水厂,臭氧1小时,69,68,48,22,25,175,,228,219,19,23,9,7,0.5,0.4
2025-06-24T2100,1630A,117.9776,37.393,滨州市,北中新校,臭氧1小时,90,56,43,29,23,192,,234,228,2,19,23,18,0.7,0.7
2025-06-24T2100,3514A,117.9378,37.3956,滨州市,中海酒店,臭氧1小时,94,51,42,34,28,195,,219,217,15,19,17,15,0.8,0.8
2025-06-24T2100,3515A,117.9378,37.3553,滨州市,开发区一中,,,117,48,41,23,,,216,216,19,29,16,13,0.8,0.5
2025-06-24T2100,3516A,118.0917,37.694,滨州市,金海六路,臭氧1小时,70,71,53,27,25,176,,231,226,24,32,20,13,0.5,0.3
2025-06-24T2100,4028A,117.9956,37.3753,滨州市,滨州市西街道办事处,臭氧1小时,74,58,42,31,26,179,,232,224,16,17,12,9,0.5,0.5
2025-06-24T2100,2311A,115.8072,33.8399,亳州市,污水处理厂,颗粒物(PM10),51,51,40,28,23,134,,177,169,16,9,18,4,0.8,0.8
2025-06-24T2100,2312A,115.7789,33.8518,亳州市,三国揽胜宫,,48,37,36,25,23,151,,171,169,10,6,2,3,0.5,0.5
2025-06-24T2100,3332A,115.7633,33.8034,亳州市,亳州学院,,49,44,36,24,20,155,,181,175,13,8,4,4,0.5,0.4
2025-06-24T2100,2693A,82.0485,44.8556,博尔塔拉蒙古自治州,市党校,,35,30,21,24,12,110,,108,108,13,9,3,3,0.3,0.2
2025-06-24T2100,2694A,82.0806,44.8969,博尔塔拉蒙古自治州,市环保局,,37,27,24,12,14,116,,107,107,4,5,1,1,0.3,0.3
2025-06-24T2100,1071A,116.8842,38.2991,沧州市,沧县城建局,臭氧1小时,70,47,45,25,31,176,,204,202,24,26,3,4,0.3,0.4
2025-06-24T2100,1072A,116.8584,38.3254,沧州市,电视转播站,臭氧1小时,84,47,41,29,25,187,,201,199,10,12,2,4,0.3,0.3
2025-06-24T2100,1073A,116.8709,38.3228,沧州市,市环保局,臭氧1小时,62,70,49,29,26,169,,206,201,20,18,2,3,0.4,0.4
2025-06-24T2100,3324A,116.8136,38.3004,沧州市,河北水利电力学院,臭氧1小时,62,53,49,25,27,169,,226,220,37,32,4,5,0.4,0.4
2025-06-24T2100,2622A,97.1806,31.1273,昌都市,昌都监测站,,24,10,5,9,5,76,,112,90,12,4,5,5,0.2,0.2
2025-06-24T2100,3719A,97.1714,31.1406,昌都市,昌都会议中心,,25,11,7,10,5,77,,120,94,6,3,6,6,0.1,0.1
2025-06-24T2100,2690A,88.1236,43.8886,昌吉回族自治州,天山天池,,28,28,16,7,6,65,,86,84,7,6,5,5,0.6,0.6
2025-06-24T2100,2692A,87.2717,44.0297,昌吉回族自治州,新区政务中心,,33,13,18,6,7,105,,115,115,5,8,4,4,0.2,0.2
2025-06-24T2100,3613A,87.3095,44.0142,昌吉回族自治州,亚心广场,,30,22,21,7,8,94,,108,108,11,12,5,6,0.2,0.3
2025-06-24T2100,1120A,125.2863,43.9027,长春市,客车厂,颗粒物(PM10),63,76,49,38,26,113,,219,202,75,41,6,8,0.7,0.5
2025-06-24T2100,1121A,125.2841,43.8463,长春市,邮电学院,,45,45,40,22,18,131,,212,198,38,32,7,8,0.8,0.6
2025-06-24T2100,1122A,125.3716,43.8772,长春市,劳动公园,细颗粒物(PM2.5),89,106,55,66,29,109,,210,196,39,46,7,9,0.7,0.5
2025-06-24T2100,1123A,125.3297,43.8805,长春市,园林处,,49,49,43,28,21,140,,216,205,28,30,6,7,0.7,0.6
2025-06-24T2100,1124A,125.4605,43.79,长春市,净月潭,,46,33,32,20,15,145,,193,173,8,16,6,7,0.4,0.4
2025-06-24T2100,1125A,125.7194,43.515,长春市,甩湾子,二氧化氮,56,36,35,16,15,17,,216,182,111,52,2,3,0.8,0.8
2025-06-24T2100,1126A,125.3863,43.8447,长春市,经开区环卫处,颗粒物(PM10),53,55,51,26,18,90,,199,184,71,45,6,6,0.6,0.5
2025-06-24T2100,1127A,125.245,43.7783,长春市,高新区管委会,"颗粒物(PM10),细颗粒物(PM2.5)",58,65,45,41,20,84,,207,177,44,39,3,6,0.6,0.4
2025-06-24T2100,1128A,125.1761,43.8325,长春市,岱山公园,臭氧1小时,53,47,55,24,26,162,,212,201,30,53,5,6,0.5,0.5
2025-06-24T2100,4281A,125.3346,43.9164,长春市,北亚泰大街1068号,颗粒物(PM10),54,57,48,31,22,135,,214,205,45,37,6,6,0.9,0.7
2025-06-24T2100,1335A,113.0833,28.2325,长沙市,经开区环保局,,14,14,13,7,8,43,,63,59,24,16,4,4,0.4,0.4
2025-06-24T2100,1336A,112.8872,28.2189,长沙市,高开区环保局,,28,28,23,12,11,63,,79,77,10,11,3,3,0.7,0.7
2025-06-24T2100,1337A,113.0792,28.2053,长沙市,马坡岭,,25,25,18,12,11,28,,66,55,33,15,3,3,0.9,0.7
2025-06-24T2100,1338A,112.9394,28.19,长沙市,湖南师范大学,,25,21,17,17,10,55,,80,72,13,12,2,2,0.5,0.4
2025-06-24T2100,1339A,113.0178,28.1322,长沙市,雨花区环保局,,27,27,19,12,10,41,,68,63,28,14,4,4,0.5,0.5
2025-06-24T2100,1340A,112.9792,28.2597,长沙市,伍家岭,,27,27,19,13,15,50,,72,68,16,10,2,2,0.4,0.3
2025-06-24T2100,1341A,113.0014,28.1944,长沙市,火车新站,,27,27,20,17,10,56,,69,64,16,11,6,6,0.6,0.6
2025-06-24T2100,1342A,112.9844,28.1178,长沙市,天心区环保局,,26,26,20,14,13,46,,77,70,22,14,1,1,1.3,1.1
2025-06-24T2100,1343A,112.8908,28.1308,长沙市,湖南中医药大学,,,24,20,21,12,40,,77,70,,10,,3,0.6,0.5
2025-06-24T2100,1344A,112.9581,28.3611,长沙市,沙坪,,15,15,18,7,10,45,,63,61,7,8,4,4,0.6,0.6
2025-06-24T2100,1727A,113.1147,36.1547,长治市,清华站,臭氧1小时,54,32,36,14,15,163,,182,176,10,14,6,7,0.5,0.7
2025-06-24T2100,1730A,113.0886,36.2125,长治市,审计局,臭氧1小时,60,31,32,19,18,168,,145,,15,16,10,12,0.6,1.5
2025-06-24T2100,1731A,113.0844,36.1856,长治市,长治八中,臭氧1小时,63,46,41,22,22,170,,192,187,18,14,12,12,0.5,0.8
2025-06-24T2100,2845A,113.1569,36.1911,长治市,德盛苑,,50,29,33,12,17,158,,187,179,11,10,9,10,0.5,0.8
2025-06-24T2100,3568A,113.06,36.0464,长治市,向阳小学,,,63,57,19,19,173,,180,180,,14,8,8,0.5,0.6
2025-06-24T2100,3569A,112.8792,36.3144,长治市,屯留一中,,,45,44,28,25,167,,192,187,18,16,8,8,,0.4
2025-06-24T2100,4189A,113.1131,36.19948,长治市,英华南巷50号,臭氧1小时,54,34,41,22,21,163,,185,179,12,15,8,10,0.5,1.3
2025-06-24T2100,4190A,113.2367,36.3344,长治市,学府街1号,臭氧1小时,67,37,48,16,20,173,,177,177,9,40,4,5,0.5,0.6
2025-06-24T2100,1854A,111.6975,28.9703,常德市,市二中,,25,15,16,11,16,78,,96,84,6,11,3,4,0.7,0.7
2025-06-24T2100,1857A,111.7158,29.1456,常德市,白鹤山,,,,,,,,,,,,,,,,
2025-06-24T2100,3138A,111.7153,29.0289,常德市,武陵区永安,,,14,20,13,16,,,95,89,7,10,1,3,0.4,0.5
2025-06-24T2100,3139A,111.6892,28.9881,常德市,鼎城区玉霞,,25,14,19,10,13,80,,98,87,8,11,3,5,0.5,0.6
2025-06-24T2100,3140A,111.6625,29.0531,常德市,武陵区长庚,,22,14,19,12,12,68,,102,89,7,10,2,3,0.5,0.5
2025-06-24T2100,1196A,119.9633,31.762,常州市,市监测站,,48,48,26,27,15,64,,113,107,50,27,6,6,0.6,0.5
2025-06-24T2100,1200A,119.9468,31.7069,常州市,武进监测站,,38,32,26,26,16,80,,96,94,25,18,8,7,0.8,0.9
2025-06-24T2100,1201A,119.9255,31.9087,常州市,安家,颗粒物(PM10),51,51,28,20,12,46,,118,107,57,17,8,8,0.5,0.4
2025-06-24T2100,3002A,119.9805,31.8174,常州市,行政中心,,33,33,28,19,13,102,,111,110,18,15,7,7,0.3,0.3
2025-06-24T2100,3003A,120.0522,31.7748,常州市,经开区,,49,49,29,18,12,91,,108,107,28,21,5,5,0.3,0.3
2025-06-24T2100,3010A,119.9025,31.7964,常州市,钟楼,,42,42,25,26,13,53,,100,94,51,18,6,6,0.7,0.6
2025-06-24T2100,3429A,119.8598,31.7066,常州市,武进经发区,,45,45,29,25,15,60,,91,87,31,19,5,5,0.8,0.7
2025-06-24T2100,3430A,119.5826,31.7245,常州市,金坛城区,,,38,23,20,14,,,111,109,19,17,6,6,0.4,0.3
2025-06-24T2100,2220A,120.4318,41.5881,朝阳市,西梁,臭氧1小时,58,50,51,37,40,166,,176,174,14,20,9,12,0.7,0.8
2025-06-24T2100,2221A,120.4521,41.5646,朝阳市,河畔小区,臭氧1小时,73,30,43,20,34,178,,183,183,10,14,8,9,0.3,0.5
2025-06-24T2100,2222A,120.4176,41.5648,朝阳市,八里堡,臭氧1小时,57,53,57,24,35,165,,191,186,16,21,7,10,0.8,0.9
2025-06-24T2100,2223A,120.3806,41.5969,朝阳市,农业园区,,42,36,44,17,35,133,,176,169,21,19,5,6,0.5,0.6
2025-06-24T2100,1705A,116.6367,23.6719,潮州市,西园路,,37,37,24,8,12,37,,95,85,16,11,10,6,0.6,0.5
2025-06-24T2100,3026A,116.6183,23.6608,潮州市,市政府,,37,37,28,15,9,32,,92,78,17,11,10,7,1.0,0.7
2025-06-24T2100,4036A,116.6461,23.6761,潮州市,金山,,,,21,20,12,32,,34,,,12,4,6,0.7,0.6
2025-06-24T2100,2472A,113.0073,25.9061,郴州市,马头岭,,30,30,26,11,10,13,,52,48,40,10,8,7,0.3,0.3
2025-06-24T2100,2473A,113.0116,25.8226,郴州市,市职中,,22,22,26,3,19,28,,62,58,12,8,4,4,0.5,0.5
2025-06-24T2100,2475A,113.0383,25.8071,郴州市,市审计局,,27,27,28,18,20,43,,61,58,7,9,3,6,0.5,0.5
2025-06-24T2100,2476A,113.0348,25.7759,郴州市,市环保局,,27,27,35,3,31,45,,62,58,18,13,3,11,0.2,0.3
2025-06-24T2100,4252A,113.0138,25.8011,郴州市,好美居路49号,,19,19,28,8,16,43,,69,64,13,9,6,4,0.5,0.5
2025-06-24T2100,1431A,103.9728,30.7236,成都市,金泉两河,,,,11,,6,61,,98,78,15,10,2,2,0.4,0.4
2025-06-24T2100,1432A,104.176,30.6872,成都市,十里店,,21,13,18,3,9,66,,109,78,13,9,4,4,0.5,0.5
2025-06-24T2100,1433A,104.079,30.5706,成都市,三瓦窑,,23,23,22,13,13,72,,109,84,16,12,3,3,0.6,0.5
2025-06-24T2100,1434A,104.1114,30.63,成都市,沙河铺,,,13,20,12,11,,,93,76,14,12,4,4,0.5,0.4
2025-06-24T2100,1437A,104.0786,30.6531,成都市,君平街,,20,20,26,10,12,52,,88,70,15,10,4,4,0.7,0.7
2025-06-24T2100,1438A,103.613,31.0283,成都市,灵岩寺,,,,,,,,,,,,,,,,
2025-06-24T2100,2880A,104.0239,30.65639,成都市,大石西路,,30,22,21,21,12,57,,104,77,14,9,5,4,0.7,0.6
2025-06-24T2100,3136A,104.2725,30.5589,成都市,龙泉驿区区政府,,22,6,10,3,8,68,,102,81,10,12,3,3,0.6,0.6
2025-06-24T2100,3357A,104.0106,30.6931,成都市,金博路,,15,,8,7,7,48,,99,72,21,12,3,3,0.7,0.7
2025-06-24T2100,3359A,104.0578,30.5225,成都市,华阳,,20,7,11,7,13,62,,88,67,16,16,6,6,0.7,0.7
2025-06-24T2100,3488A,104.3853,30.7453,成都市,青白江技师分院,,25,25,24,17,17,65,,102,81,19,20,4,5,0.6,0.6
2025-06-24T2100,3489A,104.0789,30.4072,成都市,科学城,,26,9,15,7,10,82,,110,89,10,11,3,3,0.6,0.6
2025-06-24T2100,4011A,103.8506,30.6947,成都市,光华大道三段,,,22,19,16,11,,,108,85,18,9,4,4,0.6,0.1
2025-06-24T2100,4224A,104.2433,30.5353,成都市,鲸龙路1057号,,20,16,21,12,13,61,,104,77,20,16,6,6,0.7,0.7
2025-06-24T2100,1062A,117.9531,40.9081,承德市,铁路,臭氧1小时,83,77,47,43,28,186,,176,176,22,15,8,3,1.1,0.6
2025-06-24T2100,1063A,117.9392,40.9763,承德市,中国银行,细颗粒物(PM2.5),69,76,47,50,34,67,,169,151,32,14,3,2,0.6,0.5
2025-06-24T2100,1064A,117.9503,40.928,承德市,开发区,臭氧1小时,63,71,53,33,28,170,,172,164,16,17,7,5,1.1,0.7
2025-06-24T2100,1065A,117.8051,40.9655,承德市,文化中心,颗粒物(PM10),66,82,65,43,33,80,,178,137,38,24,3,19,0.7,1.1
2025-06-24T2100,1066A,117.9268,41.0026,承德市,离宫,颗粒物(PM10),57,64,43,16,28,68,,155,115,19,13,3,2,0.4,0.4
2025-06-24T2100,2314A,117.47,30.6618,池州市,池州学院,,34,22,31,14,20,107,,162,158,13,11,6,6,0.5,0.7
2025-06-24T2100,3237A,117.4918,30.6617,池州市,展览馆,,30,21,28,14,20,96,,151,145,11,10,5,6,0.7,0.8
2025-06-24T2100,3333A,117.5627,30.695,池州市,第八中学,,30,17,29,9,19,96,,157,148,14,11,5,6,0.5,0.7
2025-06-24T2100,3334A,117.5038,30.6243,池州市,第十二中学,,28,24,26,14,17,89,,139,133,14,8,3,4,0.8,0.9
2025-06-24T2100,1744A,118.9233,42.2816,赤峰市,松山一中,,50,50,46,29,29,130,,152,143,25,32,13,14,0.8,0.7
2025-06-24T2100,1745A,118.9576,42.2728,赤峰市,哈达街,,47,47,45,28,23,143,,133,131,18,30,17,21,0.8,0.7
2025-06-24T2100,1746A,118.8788,42.2554,赤峰市,天义路,细颗粒物(PM2.5),53,37,41,37,33,146,,157,151,21,20,14,19,0.6,0.6
2025-06-24T2100,3058A,119.2658,42.0353,赤峰市,银河街,颗粒物(PM10),53,56,56,23,31,157,,147,147,10,15,7,20,0.7,0.7
2025-06-24T2100,3286A,118.9359,42.3147,赤峰市,桥北物流园区,,48,48,44,31,31,121,,152,141,26,19,17,11,0.6,0.4
2025-06-24T2100,2521A,107.3476,22.4136,崇左市,市环保局江州分局,,19,19,26,9,10,57,,80,74,5,10,5,6,0.6,0.6
2025-06-24T2100,4256A,107.3750,22.3736,崇左市,石景林东路7号,,20,20,25,11,10,53,,78,71,10,12,4,3,0.5,0.6
2025-06-24T2100,2298A,118.3093,32.3153,滁州市,老年大学,,,17,30,8,17,,,127,122,12,11,8,9,0.2,0.3
2025-06-24T2100,2299A,118.3244,32.2786,滁州市,人大宾馆,,32,14,27,9,22,100,,121,115,18,14,4,4,0.2,0.3
2025-06-24T2100,3207A,118.3118,32.3038,滁州市,市政府原办公楼,,,,29,,27,,,128,120,,7,,4,,0.4
2025-06-24T2100,3331A,118.3267,32.2634,滁州市,图书馆,,34,,25,13,21,106,,122,118,6,7,9,9,0.3,0.4
2025-06-24T2100,2605A,101.5482,25.0441,楚雄彝族自治州,州环境监测站,,9,8,6,3,2,27,,31,30,6,4,7,7,0.3,0.4
2025-06-24T2100,2606A,101.538,25.0492,楚雄彝族自治州,市经济开发区,,32,32,12,9,4,26,,31,30,6,4,6,6,0.4,0.5
2025-06-24T2100,2548A,107.5277,31.2827,达州市,达州职业技术学院,,29,29,28,3,4,44,,67,60,15,22,9,10,0.3,0.4
2025-06-24T2100,2549A,107.5086,31.2186,达州市,市环境监测站,,23,16,25,3,4,73,,72,70,16,32,11,6,0.3,0.4
2025-06-24T2100,2550A,107.4988,31.2132,达州市,凤凰小区,,,19,22,9,6,,,88,84,,26,,6,,0.3
2025-06-24T2100,2551A,107.5082,31.1986,达州市,达县机关宾馆,,18,12,21,3,6,56,,84,73,25,29,6,7,0.2,0.3
2025-06-24T2100,2552A,107.4644,31.2124,达州市,市政中心,,20,18,26,3,4,61,,80,74,14,24,5,3,0.4,0.5
2025-06-24T2100,2614A,100.1542,25.7054,大理白族自治州,大理市环境监测站,,22,,4,15,12,30,,34,34,5,5,5,5,0.5,0.5
2025-06-24T2100,2615A,100.2171,25.5811,大理白族自治州,大理古城,,19,19,10,3,4,15,,32,28,12,8,9,9,0.7,0.7
2025-06-24T2100,1109A,121.612,38.9741,大连市,甘井子,,37,23,28,14,17,117,,116,114,22,22,8,7,0.5,0.5
2025-06-24T2100,1110A,121.565,38.9511,大连市,周水子,,34,25,35,14,19,107,,110,107,28,22,12,12,0.4,0.4
2025-06-24T2100,1111A,121.5637,38.8845,大连市,星海三站,,36,27,27,13,19,114,,127,126,13,14,6,6,0.3,0.3
2025-06-24T2100,1112A,121.6302,38.9117,大连市,青泥洼桥,,40,18,29,12,18,126,,123,119,15,13,8,8,0.3,0.4
2025-06-24T2100,1113A,121.6251,38.8638,大连市,傅家庄,,44,19,23,9,15,139,,133,133,13,12,10,10,0.2,0.2
2025-06-24T2100,1114A,121.5213,38.8661,大连市,七贤岭,,40,24,23,14,16,128,,142,138,19,14,8,8,0.7,0.7
2025-06-24T2100,1115A,121.2529,38.8061,大连市,旅顺,,41,14,28,11,25,130,,93,,17,15,5,4,0.3,0.4
2025-06-24T2100,1116A,121.7485,39.1311,大连市,金州,,39,39,30,15,15,72,,122,105,45,20,8,8,0.3,0.3
2025-06-24T2100,1117A,121.7811,39.0496,大连市,开发区,二氧化氮,64,34,33,25,21,14,,114,91,127,41,13,9,0.6,0.5
2025-06-24T2100,1118A,121.9762,39.0631,大连市,双D港,,38,24,19,10,16,119,,130,123,18,16,8,8,0.3,0.4
2025-06-24T2100,1789A,124.81117,46.03138,大庆市,大同区,颗粒物(PM10),51,51,51,17,19,111,,163,144,12,12,6,7,0.5,0.7
2025-06-24T2100,1790A,125.129,46.533,大庆市,龙凤区,,48,48,39,21,18,107,,166,148,19,11,5,6,0.4,0.4
2025-06-24T2100,1791A,124.902,46.408,大庆市,红岗区,颗粒物(PM10),53,55,47,26,24,128,,181,165,17,10,10,10,0.6,0.6
2025-06-24T2100,1792A,125.153,46.586,大庆市,萨尔图区,颗粒物(PM10),52,54,47,31,22,118,,149,140,19,14,9,10,0.6,0.5
2025-06-24T2100,1793A,124.9042,46.6215,大庆市,让胡路区,,49,48,35,34,23,111,,160,152,19,12,6,6,0.5,0.4
2025-06-24T2100,3481A,125.141,46.634,大庆市,萨区政府监测点,颗粒物(PM10),55,59,51,22,19,125,,175,164,16,10,8,9,0.5,0.5
2025-06-24T2100,1721A,113.3819,40.1097,大同市,果树场,,,,,,,,,,,,,,,,
2025-06-24T2100,1723A,113.2994,40.0758,大同市,云冈宾馆,,43,42,43,30,19,128,,162,147,19,20,5,7,0.5,0.7
2025-06-24T2100,1724A,113.3444,40.0917,大同市,大同大学,,35,32,36,14,17,111,,169,153,25,20,7,8,0.4,0.5
2025-06-24T2100,1725A,113.2661,40.1269,大同市,安家小村,颗粒物(PM10),57,64,45,24,20,85,,158,138,43,20,5,6,0.3,0.7
2025-06-24T2100,1726A,113.2711,40.0844,大同市,教育学院,,,,51,,23,,,163,150,22,23,7,11,0.4,0.6
2025-06-24T2100,3282A,113.3397,40.0597,大同市,大同市卫生学校,,43,43,48,21,20,129,,161,148,24,22,7,8,0.5,0.6
2025-06-24T2100,3565A,113.1367,40.1122,大同市,云冈站,,36,32,69,16,26,113,,162,148,11,27,4,7,0.4,0.5
2025-06-24T2100,3566A,113.1186,40.2556,大同市,图书馆,,28,26,38,16,20,88,,159,141,13,10,7,8,0.6,0.6
2025-06-24T2100,3567A,113.5931,40.0461,大同市,区一中,,45,28,31,16,17,144,,158,152,18,11,11,12,0.4,0.4
2025-06-24T2100,4199A,113.2798,40.0997,大同市,魏都大道141号,,,,50,8,20,,,163,153,21,23,,9,0.5,1
2025-06-24T2100,2269A,124.1069,50.4097,大兴安岭地区,科技局,,39,39,44,15,14,71,,89,79,7,7,7,7,0.5,0.5
2025-06-24T2100,3663A,124.1164,50.4278,大兴安岭地区,红旗社区,,23,,20,14,18,72,,95,84,8,11,6,6,0.3,0.3
2025-06-24T2100,1600A,124.3303,40.0625,丹东市,江湾东路,颗粒物(PM10),60,69,54,35,30,117,,164,152,28,25,7,8,0.9,0.9
2025-06-24T2100,1601A,124.4256,40.1503,丹东市,临江后街,颗粒物(PM10),120,189,88,36,24,103,,148,141,40,22,8,10,1.1,0.8
2025-06-24T2100,1602A,124.3933,40.1461,丹东市,元宝山,,50,50,49,28,25,137,,131,131,17,18,9,8,0.7,0.7
2025-06-24T2100,1603A,124.3633,40.1092,丹东市,民主桥,,,69,51,,25,66,,163,141,42,23,8,9,1.1,0.9
2025-06-24T2100,3541A,109.5726,19.5167,儋州市,第一中学子站,,13,13,13,6,8,36,,46,46,2,4,6,7,0.4,0.5
2025-06-24T2100,3542A,109.5567,19.5187,儋州市,东坡学校子站,,15,15,7,3,4,38,,52,51,2,2,5,7,0.6,0.7
2025-06-24T2100,2616A,98.5842,24.428,德宏傣族景颇族自治州,德宏州监测站,,21,21,19,9,7,23,,30,30,20,9,7,8,0.8,0.7
2025-06-24T2100,3677A,98.5881,24.4368,德宏傣族景颇族自治州,芒市人民政府综合楼,,26,26,23,7,6,21,,29,28,15,7,8,8,0.7,0.5
2025-06-24T2100,1901A,104.4239,31.1208,德阳市,东山公园,,19,,11,6,12,58,,106,76,8,9,4,6,0.7,0.7
2025-06-24T2100,1902A,104.3826,31.1317,德阳市,西小区,,19,19,16,12,11,55,,81,73,16,11,5,5,0.9,0.8
2025-06-24T2100,1904A,104.3553,31.1091,德阳市,耐火材料厂,,19,13,18,10,12,58,,104,74,14,11,7,7,0.5,0.4
2025-06-24T2100,3639A,104.4019,31.1244,德阳市,市教育局,,17,14,17,8,12,52,,113,74,15,8,5,6,0.7,0.6
2025-06-24T2100,1622A,116.3032,37.4674,德州市,儿童乐园,臭氧1小时,111,51,48,24,24,221,,237,237,15,13,7,11,0.5,0.4
2025-06-24T2100,1624A,116.2991,37.4451,德州市,监理站,臭氧1小时,102,61,46,27,23,203,,236,234,29,22,10,10,0.3,0.3
2025-06-24T2100,3066A,116.2721,37.4379,德州市,九衢泉纯净水厂,颗粒物(PM10),58,66,51,31,29,161,,199,,48,39,9,7,0.6,0.7
2025-06-24T2100,3371A,116.3728,37.4403,德州市,开发区人民医院,臭氧1小时,105,63,50,27,22,209,,227,227,29,24,8,10,0.4,0.5
2025-06-24T2100,3372A,116.3572,37.4094,德州市,太阳城中学,,,,,,,,,,,,,,,,
2025-06-24T2100,3511A,116.5652,37.3319,德州市,陵城艺术中心,臭氧1小时,104,66,52,31,24,208,,234,233,20,18,5,10,0.7,0.7
2025-06-24T2100,2621A,99.7056,27.8317,迪庆藏族自治州,迪庆州站,,14,14,15,9,10,42,,52,49,11,7,7,7,0.3,0.3
2025-06-24T2100,3180A,99.7136,27.8094,迪庆藏族自治州,质量技术监督局,,15,15,13,3,6,40,,53,45,11,8,6,6,0.5,0.5
2025-06-24T2100,4257A,104.6092,35.5962,定西市,将台街,,28,27,32,17,17,89,,110,108,20,12,4,4,0.2,0.2
2025-06-24T2100,4309A,104.6159,35.5701,定西市,正龙路62号,,31,17,25,13,18,97,,113,111,5,6,3,4,0.2,0.3
2025-06-24T2100,1389A,113.7547,23.0494,东莞市,莞城梨川,,28,28,17,12,12,39,,147,121,16,11,6,6,0.5,0.4
2025-06-24T2100,1390A,113.7944,23.0128,东莞市,东城石井,,22,22,17,12,9,27,,124,106,22,13,3,2,0.4,0.4
2025-06-24T2100,1391A,113.7383,22.9658,东莞市,南城西平,,17,17,14,3,9,30,,117,97,19,13,3,2,0.5,0.6
2025-06-24T2100,3319A,113.7338,23.0381,东莞市,万江金泰,,,22,19,14,13,30,,133,109,17,12,,9,0.4,0.6
2025-06-24T2100,3626A,113.7533,23.0202,东莞市,南城元岭,,16,16,16,10,11,34,,134,108,18,13,4,4,0.4,0.4
2025-06-24T2100,3627A,113.7875,23.0457,东莞市,东城主山,,24,24,27,9,9,39,,134,117,17,12,7,6,0.5,0.5
2025-06-24T2100,1666A,118.6614,37.4309,东营市,市环保局,,38,19,45,7,21,120,,226,210,16,30,5,10,0.3,0.5
2025-06-24T2100,3036A,118.6904,37.4338,东营市,开发区管委会,,,32,56,,18,117,,228,208,15,35,6,9,,0.4
2025-06-24T2100,3365A,118.5719,37.565,东营市,垦利区民丰路,,41,41,54,19,23,125,,254,230,23,26,9,10,0.7,0.8
2025-06-24T2100,3498A,118.5055,37.8612,东营市,河口城区,臭氧1小时,63,41,52,3,19,170,,229,224,14,29,7,8,0.8,0.9
2025-06-24T2100,3646A,118.4978,37.4623,东营市,胜利站,臭氧1小时,62,35,52,7,20,169,,232,221,18,33,10,13,0.7,0.8
2025-06-24T2100,3734A,118.35,37.26,东营市,理想之城,臭氧1小时,55,29,46,17,22,164,,259,242,14,34,6,9,0.5,0.7
2025-06-24T2100,1591A,110.0023,39.8129,鄂尔多斯市,综合楼,,48,36,39,12,23,152,,170,167,20,17,5,5,0.5,0.6
2025-06-24T2100,1592A,109.9486,39.8261,鄂尔多斯市,巴音孟克林场办事处,臭氧1小时,65,41,47,17,23,172,,189,185,20,19,5,7,0.5,0.6
2025-06-24T2100,1593A,109.7736,39.5986,鄂尔多斯市,康泽苑,臭氧1小时,55,27,43,17,18,164,,202,196,17,16,9,11,0.4,0.4
2025-06-24T2100,1594A,109.8119,39.5989,鄂尔多斯市,华泰汽车城,,46,39,42,17,20,146,,180,176,21,25,6,7,0.5,0.6
2025-06-24T2100,1595A,109.9734,39.7884,鄂尔多斯市,奥林花园,,46,46,46,22,28,135,,181,173,28,22,6,7,0.2,0.4
2025-06-24T2100,2436A,114.8938,30.3994,鄂州市,市政府,,21,21,28,7,15,54,,102,89,10,6,4,4,0.7,0.9
2025-06-24T2100,2437A,114.8989,30.3714,鄂州市,赵家坝,,20,18,24,6,9,64,,108,97,13,10,10,9,0.5,0.6
2025-06-24T2100,3654A,114.8094,30.4089,鄂州市,精准医疗中心,,,,22,,10,68,,113,102,,14,3,4,,0.6
2025-06-24T2100,2454A,109.4978,30.2981,恩施土家族苗族自治州,湖北民院,,29,29,25,13,12,57,,102,90,10,8,4,5,0.5,0.5
2025-06-24T2100,2455A,109.4707,30.2798,恩施土家族苗族自治州,州电力总公司,,,26,24,20,15,,,82,76,12,12,7,7,0.5,0.4
2025-06-24T2100,3549A,109.5061,30.3772,恩施土家族苗族自治州,龙凤新区,,28,28,23,19,15,54,,113,93,8,6,4,4,0.4,0.4
2025-06-24T2100,2499A,108.3411,21.6158,防城港市,沙万,,11,11,15,7,7,35,,51,47,12,8,3,2,0.5,0.4
2025-06-24T2100,2500A,108.3514,21.7731,防城港市,防城档案局,,20,20,16,3,8,44,,52,51,7,7,4,2,0.6,0.4
2025-06-24T2100,2501A,108.3506,21.6414,防城港市,大海花园,,15,9,17,6,6,48,,54,52,3,5,2,2,0.4,0.4
2025-06-24T2100,1371A,113.1294,23.0067,佛山市,湾梁,,24,24,16,12,7,40,,94,86,28,16,10,8,0.5,0.4
2025-06-24T2100,1372A,113.1083,23.0478,佛山市,华材职中,,,19,14,19,7,,,109,107,16,7,7,6,0.4,0.4
2025-06-24T2100,1373A,113.144,23.0453,佛山市,南海气象局,,32,32,25,21,8,40,,92,84,28,13,5,3,0.5,0.5
2025-06-24T2100,1374A,113.2881,22.8094,佛山市,顺德苏岗,,33,33,20,9,6,37,,94,78,24,11,6,6,0.7,0.6
2025-06-24T2100,1376A,112.8383,22.8678,佛山市,高明孔堂,,21,21,13,9,7,51,,70,69,10,6,6,6,0.6,0.6
2025-06-24T2100,1377A,112.8836,23.1588,佛山市,三水监测站,,24,19,17,13,9,24,,70,65,47,24,4,4,0.5,0.5
2025-06-24T2100,1378A,112.867,23.185,佛山市,三水云东海,,26,26,28,15,11,46,,89,85,35,20,1,2,0.5,0.5
2025-06-24T2100,3625A,113.2544,22.7642,佛山市,容桂街道办,,,,10,27,5,24,,100,69,,18,7,6,1.0,0.7
2025-06-24T2100,1280A,119.3903,26.0543,福州市,鼓山,,,,,,,,,,,,,,,,
2025-06-24T2100,1282A,119.2681,26.0504,福州市,师大,,38,38,34,19,15,43,,121,94,17,11,4,4,0.3,0.3
2025-06-24T2100,1283A,119.2984,26.1028,福州市,五四北路,,39,39,27,14,15,70,,112,98,18,14,4,4,0.3,0.3
2025-06-24T2100,1284A,119.2648,26.0768,福州市,杨桥西路,,36,36,30,15,16,49,,110,92,18,11,4,3,0.3,0.3
2025-06-24T2100,1285A,119.317,26.0746,福州市,紫阳,,38,38,40,13,17,46,,108,84,21,20,4,4,0.3,0.3
2025-06-24T2100,3048A,119.5799,26.0936,福州市,九龙,,,33,36,25,22,,,140,120,13,14,4,4,0.3,0.3
2025-06-24T2100,3526A,119.5189,25.9664,福州市,吴航,,28,28,34,14,18,72,,125,110,14,11,5,5,0.4,0.4
2025-06-24T2100,1755A,123.7977,41.8491,抚顺市,望花区,臭氧1小时,80,53,59,29,28,184,,209,209,32,37,12,14,0.8,0.8
2025-06-24T2100,1756A,123.9161,41.8822,抚顺市,顺城区,颗粒物(PM10),71,91,53,37,25,98,,204,186,88,45,8,9,1.0,0.8
2025-06-24T2100,1757A,124.0436,41.8611,抚顺市,东洲区,,,29,29,24,19,97,,146,131,,13,10,8,0.7,0.2
2025-06-24T2100,1758A,123.9247,41.8642,抚顺市,新抚区,颗粒物(PM10),60,69,49,20,23,162,,194,190,35,31,8,8,0.9,0.7
2025-06-24T2100,1759A,124.0972,41.8961,抚顺市,大伙房水库,,24,14,24,13,18,75,,132,112,10,15,7,8,0.3,0.4
2025-06-24T2100,1760A,123.7086,41.8391,抚顺市,沈抚新城,颗粒物(PM10),60,70,52,30,29,135,,207,199,37,37,7,12,0.8,1.1
2025-06-24T2100,2376A,116.2127,28.0814,抚州市,桐源党溪,,31,31,21,10,8,32,,63,57,2,3,3,4,0.7,0.6
2025-06-24T2100,2377A,116.3544,27.9831,抚州市,市站,,20,20,16,13,7,55,,62,62,5,4,9,3,1.1,1.1
2025-06-24T2100,2378A,116.3565,27.963,抚州市,血防站,,28,28,19,11,9,56,,62,62,6,6,17,4,0.6,0.5
2025-06-24T2100,2379A,116.3564,28.0007,抚州市,采茶剧团,,21,21,16,9,5,53,,59,59,3,3,3,3,0.5,0.4
2025-06-24T2100,2380A,116.385,27.9647,抚州市,医学分院,,,,18,,5,,,66,66,2,2,,4,0.8,0.9
2025-06-24T2100,2207A,121.6094,41.998,阜新市,工业园区,颗粒物(PM10),52,54,53,16,30,128,,195,178,30,22,63,17,0.6,0.5
2025-06-24T2100,2208A,121.6697,42.0279,阜新市,长青街,,43,33,47,17,26,136,,179,171,17,16,15,17,0.6,0.7
2025-06-24T2100,2209A,121.6673,42.0705,阜新市,农业园区,,48,37,45,19,27,152,,184,176,14,12,10,13,0.6,0.7
2025-06-24T2100,2210A,121.6717,42.0224,阜新市,东苑,,45,41,53,16,25,143,,183,175,21,22,17,21,0.6,0.7
2025-06-24T2100,2211A,121.6506,42.0498,阜新市,玉龙新城,颗粒物(PM10),55,60,49,30,22,105,,172,160,40,28,11,9,0.7,0.7
2025-06-24T2100,2301A,115.8277,32.8929,阜阳市,市监测站,,,,41,,23,,,187,185,15,19,3,3,,0.4
2025-06-24T2100,2303A,115.8554,32.8605,阜阳市,开发区,,48,48,45,16,19,148,,183,178,15,21,6,6,0.2,0.2
2025-06-24T2100,2875A,115.784,32.8892,阜阳市,阜阳职业技术学院,,48,48,33,22,19,150,,188,184,14,20,4,4,0.3,0.3
2025-06-24T2100,3468A,115.7901,32.8613,阜阳市,市规划展馆,颗粒物(PM10),56,62,49,38,24,134,,183,176,18,16,3,4,0.4,0.3
2025-06-24T2100,3469A,115.836,32.9183,阜阳市,枣园社区,,48,47,46,33,25,149,,186,182,14,25,5,5,0.4,0.4
2025-06-24T2100,2669A,102.9099,34.9841,甘南藏族自治州,州政府,,24,,10,12,13,76,,108,100,9,7,5,5,0.4,0.3
2025-06-24T2100,3380A,102.8914,34.9617,甘南藏族自治州,甘肃民族师范学院,,,13,19,3,5,,,114,108,,3,,8,,0.3
2025-06-24T2100,2570A,101.9603,30.0475,甘孜藏族自治州,水桥子,,22,14,6,10,5,70,,90,78,26,16,4,5,0.5,0.4
2025-06-24T2100,3065A,101.9533,29.9972,甘孜藏族自治州,州环保局,,24,18,8,8,5,76,,97,84,26,14,2,2,0.5,0.5
2025-06-24T2100,3414A,115.8347,28.932,赣江新区,桑海产业园,,29,17,10,10,6,92,,101,101,13,10,5,6,0.4,0.6
2025-06-24T2100,2362A,114.9017,25.9149,赣州市,通天岩,,33,33,31,3,6,31,,80,63,7,5,1,2,0.4,0.4
2025-06-24T2100,2363A,114.9367,25.8664,赣州市,地委,,24,24,22,13,13,55,,83,73,9,10,3,6,0.6,0.6
2025-06-24T2100,2364A,114.9461,25.8481,赣州市,气象台,,25,25,23,6,9,55,,83,73,8,7,6,9,0.3,0.3
2025-06-24T2100,2365A,114.9322,25.8333,赣州市,市图书馆,,20,,17,13,12,62,,83,78,6,7,4,5,0.4,0.5
2025-06-24T2100,2366A,114.8905,25.8471,赣州市,华坚鞋城,,24,24,24,9,13,59,,84,76,13,11,3,5,0.3,0.3
2025-06-24T2100,3109A,115.0093,25.8613,赣州市,赣县区卫计委,,23,,23,16,12,52,,79,71,12,10,2,3,0.2,0.2
2025-06-24T2100,2683A,106.2319,36.1417,固原市,马园,,38,20,29,12,20,121,,138,126,8,23,10,26,0.6,0.7
2025-06-24T2100,2684A,106.2792,36.0022,固原市,监测站,,36,20,26,13,20,115,,142,126,11,10,6,8,0.2,0.2
2025-06-24T2100,2685A,106.2375,36.0211,固原市,新区,,39,13,23,10,17,124,,138,129,8,10,3,4,0.3,0.4
2025-06-24T2100,3522A,106.2177,35.9959,固原市,原州区十五小,,40,12,26,9,17,128,,143,131,6,8,9,10,0.2,0.3
2025-06-24T2100,2543A,106.6308,30.5278,广安市,小平旧居,,,,,,,,,,,,,,,,
2025-06-24T2100,2544A,106.6303,30.4576,广安市,市委,,,22,13,15,16,73,,96,86,,14,2,3,0.5,0.4
2025-06-24T2100,2545A,106.6271,30.4663,广安市,友谊中学,,30,19,20,10,11,94,,109,106,12,15,6,6,0.8,0.7
2025-06-24T2100,2547A,106.6388,30.4551,广安市,广电花园,细颗粒物(PM2.5),75,,18,55,12,73,,97,86,11,13,2,9,0.5,0.5
2025-06-24T2100,2902A,106.6351,30.4865,广安市,北辰小学,,27,16,18,13,10,84,,103,96,8,10,7,8,0.7,0.6
2025-06-24T2100,2523A,105.8945,32.4535,广元市,黑石坡,,26,24,26,6,12,82,,79,79,7,11,8,10,0.2,0.4
2025-06-24T2100,2524A,105.821,32.4444,广元市,老城,,30,14,18,8,10,95,,102,101,6,20,1,2,0.8,0.9
2025-06-24T2100,2526A,105.8628,32.4287,广元市,监测站,,,,18,27,15,,,98,98,11,13,8,8,0.6,0.5
2025-06-24T2100,3617A,105.8047,32.4166,广元市,经开区,,30,16,23,11,15,94,,102,102,7,15,3,4,0.4,0.5
2025-06-24T2100,1345A,113.2347,23.1423,广州市,广雅中学,,28,28,20,14,8,60,,115,108,17,14,2,2,0.6,0.5
2025-06-24T2100,1346A,113.2612,23.105,广州市,市五中,,25,25,18,13,8,57,,114,105,18,14,4,4,0.5,0.5
2025-06-24T2100,1348A,113.3478,23.0916,广州市,广东商学院,,31,31,20,12,10,49,,124,110,28,19,3,3,0.6,0.5
2025-06-24T2100,1349A,113.4332,23.1047,广州市,市八十六中,,28,25,21,13,7,23,,103,86,55,30,3,3,0.5,0.5
2025-06-24T2100,1350A,113.3505,22.9483,广州市,番禺中学,,31,31,18,18,9,40,,117,102,28,14,7,7,0.4,0.4
2025-06-24T2100,1351A,113.2146,23.3916,广州市,花都师范,,30,30,20,14,8,91,,130,128,22,16,4,4,0.3,0.3
2025-06-24T2100,1352A,113.2597,23.1331,广州市,市监测站,,27,27,17,11,7,60,,108,102,9,7,5,5,0.4,0.3
2025-06-24T2100,1353A,113.5618,23.312,广州市,九龙镇镇龙,,28,28,26,14,11,51,,133,126,35,22,8,6,0.4,0.4
2025-06-24T2100,1354A,113.2765,23.1544,广州市,麓湖,,,,18,,7,,,100,100,17,11,3,2,0.5,0.5
2025-06-24T2100,1355A,113.443,23.3035,广州市,帽峰山森林公园,,27,27,15,15,7,55,,120,113,36,17,11,7,0.6,0.5
2025-06-24T2100,2846A,113.3221,23.1322,广州市,体育西,,34,34,23,16,10,55,,126,115,29,19,5,5,0.4,0.3
2025-06-24T2100,3298A,113.5717,23.5491,广州市,从化街口,,42,42,23,20,10,100,,146,143,20,17,8,8,0.7,0.6
2025-06-24T2100,3299A,113.3472,23.3692,广州市,白云竹料,,39,39,26,19,11,60,,132,126,31,20,4,3,0.7,0.6
2025-06-24T2100,3300A,113.2981,23.237,广州市,白云嘉禾,,,35,23,13,10,52,,130,121,,18,6,5,0.8,1.1
2025-06-24T2100,3301A,113.4256,23.1716,广州市,黄埔科学城,,29,29,22,12,9,49,,112,102,21,17,4,4,0.6,0.6
2025-06-24T2100,3302A,113.3942,23.0483,广州市,番禺大学城,,20,20,21,12,8,48,,130,114,32,20,5,5,0.6,0.6
2025-06-24T2100,3303A,113.4922,22.8168,广州市,南沙黄阁,,,31,20,8,8,,,93,81,17,13,4,4,0.5,0.4
2025-06-24T2100,3304A,113.5342,22.7896,广州市,南沙街,,30,30,19,7,7,33,,89,70,16,14,3,3,0.4,0.5
2025-06-24T2100,3443A,113.2902,23.5544,广州市,花都梯面,,31,31,23,18,10,64,,112,104,18,18,4,5,0.6,0.5
2025-06-24T2100,3445A,113.7858,23.7478,广州市,从化良口,,30,20,15,12,9,93,,121,120,7,10,6,6,0.7,0.6
2025-06-24T2100,3446A,113.8051,23.2614,广州市,增城荔城,,35,35,25,15,12,107,,156,153,16,13,6,6,0.4,0.4
2025-06-24T2100,2505A,109.568,23.1478,贵港市,德智高中,,,,,,,,,,,,,,,,
2025-06-24T2100,2506A,109.6047,23.0666,贵港市,江南子站,,19,19,27,11,13,50,,74,71,9,9,5,5,0.4,0.5
2025-06-24T2100,2508A,109.5669,23.1065,贵港市,荷城子站,,23,23,25,7,8,51,,71,68,10,10,5,6,0.2,0.2
2025-06-24T2100,3405A,109.5886,23.1172,贵港市,新世纪学校,,28,24,24,19,15,51,,67,64,11,12,6,6,0.4,0.4
2025-06-24T2100,4260A,109.5933,23.0951,贵港市,中山路155-3号,,33,33,30,12,15,64,,86,82,10,12,3,4,0.4,0.5
2025-06-24T2100,1439A,106.6899,26.5998,贵阳市,马鞍山,,13,12,12,3,1,41,,42,42,8,8,4,3,0.4,0.4
2025-06-24T2100,1441A,106.6243,26.6266,贵阳市,鉴湖路,,27,27,18,3,3,44,,48,48,10,11,7,7,0.3,0.4
2025-06-24T2100,1442A,106.7487,26.6343,贵阳市,燕子冲,,25,17,15,17,14,46,,51,51,10,10,4,4,0.1,0.2
2025-06-24T2100,1443A,106.6555,26.4365,贵阳市,碧云窝,,19,19,16,12,6,47,,49,49,7,9,4,5,0.4,0.4
2025-06-24T2100,1445A,106.7109,26.6027,贵阳市,红边门,,22,22,14,3,5,36,,47,46,12,8,6,6,0.3,0.3
2025-06-24T2100,1446A,106.7164,26.5699,贵阳市,新华路,,14,14,8,9,11,40,,48,47,19,13,7,6,0.3,0.5
2025-06-24T2100,1447A,106.674,26.5424,贵阳市,太慈桥,,,17,14,3,4,,,43,43,14,17,6,6,0.2,0.3
2025-06-24T2100,1552A,106.805,26.3003,贵阳市,桐木岭,,,,21,,9,,,72,,,2,,2,,0.7
2025-06-24T2100,4230A,106.6882,26.5695,贵阳市,花果园大街66号,,15,14,10,9,9,45,,50,50,11,11,3,3,0.0,0.1
2025-06-24T2100,4231A,106.6873,26.5169,贵阳市,漓江路57号,,14,12,12,3,3,44,,49,49,11,12,6,6,0.3,0.3
2025-06-24T2100,1862A,110.4144,25.3167,桂林市,电子科大尧山校区,,,,,,,,,,,,,,,,
2025-06-24T2100,1864A,110.3089,25.2708,桂林市,龙隐路小学,,22,22,23,14,14,33,,63,58,10,8,11,9,0.6,0.6
2025-06-24T2100,1865A,110.2869,25.2178,桂林市,八中,,31,31,25,11,12,24,,65,58,22,13,8,7,0.6,0.5
2025-06-24T2100,3531A,110.296,25.1253,桂林市,旅游学院,,18,,12,12,9,38,,46,45,6,8,1,3,0.3,0.3
2025-06-24T2100,4222A,110.1835,25.2444,桂林市,环湖路276号,,24,24,21,12,14,44,,69,67,9,11,5,12,0.5,0.5
2025-06-24T2100,4301A,110.2803,25.2773,桂林市,信义路13号,,35,,22,24,15,28,,63,58,23,12,1,1,0.6,0.5
2025-06-24T2100,2674A,100.2561,34.4714,果洛藏族自治州,玛沁县大武镇,,40,19,11,10,12,125,,121,121,2,2,18,18,0.4,0.4
2025-06-24T2100,1129A,126.5422,45.755,哈尔滨市,岭北,臭氧1小时,52,31,34,21,19,161,,199,193,25,30,8,10,0.9,0.9
2025-06-24T2100,1130A,126.561,45.8167,哈尔滨市,松北商大,,43,22,38,22,17,137,,190,180,23,30,6,6,0.7,0.6
2025-06-24T2100,1131A,126.979,45.5419,哈尔滨市,阿城会宁,,45,45,38,24,21,120,,208,194,38,41,8,11,0.5,0.5
2025-06-24T2100,1132A,126.599,45.7222,哈尔滨市,南岗学府路,,44,44,41,20,17,137,,194,186,31,33,7,8,0.6,0.6
2025-06-24T2100,1133A,126.689,45.7733,哈尔滨市,太平宏伟公园,,48,31,40,14,14,153,,196,192,25,32,7,7,0.6,0.6
2025-06-24T2100,1134A,126.635,45.7667,哈尔滨市,道外承德广场,颗粒物(PM10),52,53,50,22,17,144,,190,183,30,38,9,9,0.6,0.5
2025-06-24T2100,1135A,126.685,45.7319,哈尔滨市,香坊红旗大街,颗粒物(PM10),52,53,46,29,21,130,,199,188,46,44,6,11,0.6,0.6
2025-06-24T2100,1136A,126.6411,45.7258,哈尔滨市,动力和平路,,46,42,43,17,32,147,,200,193,32,44,10,11,0.5,0.5
2025-06-24T2100,1137A,126.593,45.7478,哈尔滨市,道里建国路,,46,22,31,16,19,145,,206,195,30,34,10,16,0.8,0.9
2025-06-24T2100,1138A,126.615,45.61,哈尔滨市,平房东轻厂,,42,42,38,16,16,126,,201,187,43,51,10,10,0.5,0.4
2025-06-24T2100,1139A,126.595,45.9855,哈尔滨市,呼兰师专,,45,37,40,19,18,142,,200,190,31,27,8,9,0.5,0.5
2025-06-24T2100,1140A,126.6206,45.6842,哈尔滨市,省农科院,颗粒物(PM10),62,74,78,20,32,130,,190,182,38,50,8,9,0.7,0.6
2025-06-24T2100,2688A,93.5128,42.8172,哈密市,地区监测站,颗粒物(PM10),122,194,45,10,15,115,,129,126,14,14,3,11,0.1,0.1
2025-06-24T2100,2689A,93.4961,42.8328,哈密市,哈密师范学校,颗粒物(PM10),79,107,34,23,12,105,,121,116,20,18,11,7,0.4,0.4
2025-06-24T2100,2671A,100.9048,36.9639,海北藏族自治州,海晏县西海镇,,,,14,,12,120,,126,126,4,6,10,9,,0.4
2025-06-24T2100,3867A,102.0738,36.5056,海东市,平安区公安北苑,,36,27,20,9,11,114,,130,128,9,5,14,11,0.5,0.6
2025-06-24T2100,1409A,110.576,19.9507,海口市,东寨港,,17,17,10,6,7,32,,46,41,3,3,5,9,0.4,0.3
2025-06-24T2100,1410A,110.3232,20.0574,海口市,海南大学,,16,16,14,7,6,36,,57,50,5,4,3,3,0.3,0.3
2025-06-24T2100,1411A,110.283,20.0053,海口市,秀英海南医院,,18,18,16,10,6,30,,53,46,8,7,5,5,0.3,0.3
2025-06-24T2100,1412A,110.338,19.9969,海口市,海南师范大学,,12,12,15,8,7,34,,55,48,5,4,4,4,0.3,0.2
2025-06-24T2100,1413A,110.33,20.0356,海口市,龙华路环保局宿舍,,18,18,16,7,7,37,,56,48,5,5,5,5,0.3,0.2
2025-06-24T2100,3539A,110.5111,19.9736,海口市,桂林洋子站,,14,14,15,8,6,34,,49,43,6,5,5,4,0.2,0.2
2025-06-24T2100,2673A,100.6188,36.2866,海南藏族自治州,共和县恰卜恰镇,,,24,18,3,6,,,143,143,,5,20,13,0.2,0.5
2025-06-24T2100,2676A,97.3731,37.3753,海西蒙古族藏族自治州,德令哈市,臭氧1小时,53,30,49,11,10,162,,156,156,1,2,17,16,0.6,0.6
2025-06-24T2100,1048A,114.5302,36.6116,邯郸市,东污水处理厂,,,,46,,7,,,168,,,23,,11,,0.8
2025-06-24T2100,1049A,114.4918,36.5713,邯郸市,矿院,臭氧1小时,101,44,38,14,12,202,,236,230,20,27,44,11,0.4,0.5
2025-06-24T2100,1050A,114.484,36.6133,邯郸市,丛台公园,臭氧1小时,101,43,39,23,17,201,,226,222,13,19,14,15,0.4,0.9
2025-06-24T2100,3458A,114.7895,36.5593,邯郸市,香泉濮院小区,臭氧1小时,88,61,59,13,11,190,,215,212,13,15,5,8,0.1,0.3
2025-06-24T2100,3579A,114.50634,36.77178,邯郸市,永年区实验高中,臭氧1小时,104,54,55,28,27,207,,228,227,13,20,4,14,0.1,0.5
2025-06-24T2100,3580A,114.20016,36.44293,邯郸市,峰峰矿区临水派出所,臭氧1小时,100,40,29,16,9,200,,224,222,13,12,4,11,0.3,0.3
2025-06-24T2100,2634A,106.9893,33.1842,汉中市,汉川机床厂子校,,26,25,20,18,13,64,,123,80,17,9,9,4,0.7,0.6
2025-06-24T2100,2635A,107.0154,33.0706,汉中市,市监测站,,25,25,24,10,11,71,,98,87,12,12,6,7,0.6,0.5
2025-06-24T2100,2636A,107.0089,33.1138,汉中市,鑫源开发区,,22,21,22,14,13,70,,105,85,18,14,6,7,0.6,0.6
2025-06-24T2100,2637A,107.007,33.0323,汉中市,南郑大河坎水厂,,30,30,30,19,15,44,,84,74,21,18,4,5,0.7,0.6
2025-06-24T2100,1223A,120.2072,30.2111,杭州市,滨江,,46,46,26,28,17,102,,100,100,23,24,6,6,0.7,0.6
2025-06-24T2100,1224A,120.0633,30.2747,杭州市,西溪,,38,,18,26,21,73,,85,84,12,12,3,4,0.5,0.5
2025-06-24T2100,1226A,120.3417,30.3150,杭州市,下沙,,33,29,21,23,19,100,,106,106,22,21,4,4,0.5,0.5
2025-06-24T2100,1227A,120.1269,30.2456,杭州市,卧龙桥,,40,37,31,28,23,42,,68,63,14,16,7,8,0.5,0.7
2025-06-24T2100,1228A,120.1903,30.2692,杭州市,浙江农大,,48,42,34,33,24,70,,82,82,38,20,4,7,0.7,0.8
2025-06-24T2100,1230A,120.1197,30.3119,杭州市,和睦小学,,34,33,22,22,16,106,,106,106,12,14,8,8,0.5,0.5
2025-06-24T2100,1231A,120.3019,30.4183,杭州市,临平镇,,40,40,32,23,13,99,,117,117,24,14,5,5,0.6,0.6
2025-06-24T2100,1232A,120.2753,30.1839,杭州市,城厢镇,细颗粒物(PM2.5),52,44,26,36,26,103,,98,98,18,17,7,6,0.9,0.9
2025-06-24T2100,1233A,120.0883,30.1808,杭州市,云栖,,35,35,23,22,12,52,,67,66,9,10,7,7,0.6,0.7
2025-06-24T2100,3557A,119.9464,30.0494,杭州市,镇二中,,46,45,16,32,14,69,,74,74,20,16,2,3,0.8,0.7
2025-06-24T2100,3558A,119.7183,30.2367,杭州市,市府大楼,细颗粒物(PM2.5),52,50,15,36,13,93,,91,91,18,12,7,6,0.6,0.6
2025-06-24T2100,3656A,120.1556,30.2864,杭州市,消防大队,,39,36,23,27,21,101,,104,104,18,18,5,5,0.8,0.8
2025-06-24T2100,1270A,117.1959,31.7848,合肥市,明珠广场,颗粒物(PM10),54,58,40,36,26,115,,164,156,34,23,6,5,0.7,0.6
2025-06-24T2100,1271A,117.3072,31.8764,合肥市,三里街,,44,44,34,27,21,121,,136,134,20,18,6,6,0.7,0.6
2025-06-24T2100,1272A,117.2588,31.8707,合肥市,琥珀山庄,,,,37,21,24,,,156,154,20,16,6,7,0.9,0.6
2025-06-24T2100,1273A,117.1604,31.9052,合肥市,董铺水库,"颗粒物(PM10),细颗粒物(PM2.5)",52,53,40,36,24,116,,150,146,17,12,5,5,0.5,0.4
2025-06-24T2100,1274A,117.25,31.8571,合肥市,长江中路,颗粒物(PM10),56,61,45,34,28,131,,160,156,20,15,7,6,0.8,0.7
2025-06-24T2100,1275A,117.266,31.9436,合肥市,庐阳区,,41,41,37,24,23,111,,137,133,20,12,7,8,0.6,0.6
2025-06-24T2100,1276A,117.3453,31.8616,合肥市,瑶海区,"颗粒物(PM10),细颗粒物(PM2.5)",53,56,42,37,25,117,,140,137,24,18,7,6,0.7,0.6
2025-06-24T2100,1277A,117.3027,31.7964,合肥市,包河区,颗粒物(PM10),51,51,37,29,23,54,,145,134,96,36,5,5,0.9,0.7
2025-06-24T2100,1278A,117.2776,31.7385,合肥市,滨湖新区,,41,41,38,27,29,127,,148,147,13,24,9,9,0.7,0.6
2025-06-24T2100,1279A,117.1318,31.8403,合肥市,高新区,,,46,38,26,24,97,,158,152,,17,8,7,,0.6
2025-06-24T2100,3464A,117.3803,31.9147,合肥市,高教基地,,31,29,36,15,20,98,,137,130,15,14,7,7,0.5,0.6
2025-06-24T2100,3614A,79.924,37.0877,和田地区,地区环保局,颗粒物(PM10),74,97,361,22,105,142,,142,142,8,10,1,2,0.6,0.6
2025-06-24T2100,3615A,79.9131,37.113,和田地区,市环保局,颗粒物(PM10),55,59,338,24,101,132,,142,142,16,11,1,1,0.6,0.5
2025-06-24T2100,2516A,108.2011,24.715,河池市,东仁乐园,,,,,,,,,,,,,,,,
2025-06-24T2100,2517A,108.0497,24.6947,河池市,市环保站,,,,28,,13,,,49,49,,8,,3,,0.6
2025-06-24T2100,2518A,108.0983,24.6989,河池市,市疾控中心,,24,24,25,11,13,16,,56,52,19,12,3,3,0.7,0.6
2025-06-24T2100,1696A,114.6778,23.7569,河源市,源西,,31,31,20,16,14,56,,101,94,20,19,4,4,0.7,0.5
2025-06-24T2100,1697A,114.6944,23.7586,河源市,东埔,,,25,18,14,12,54,,100,93,18,13,4,4,,0.3
2025-06-24T2100,1698A,114.6892,23.7233,河源市,老城,,27,27,20,18,13,32,,92,83,25,12,3,4,0.5,0.4
2025-06-24T2100,1718A,115.4208,35.2464,菏泽市,气象局,颗粒物(PM10),64,77,58,30,28,163,,198,191,25,19,4,5,0.5,0.4
2025-06-24T2100,3374A,115.5564,35.0891,菏泽市,定陶老年大学,,45,36,47,19,15,143,,187,179,17,16,2,3,0.2,0.3
2025-06-24T2100,4184A,115.4797,35.24401,菏泽市,永昌路1号,臭氧1小时,60,53,51,23,22,168,,197,186,17,14,4,5,0.2,0.2
2025-06-24T2100,4193A,115.4715,35.2800,菏泽市,长城路999号,臭氧1小时,83,58,51,22,24,186,,205,197,19,16,4,5,0.3,0.3
2025-06-24T2100,2514A,111.5264,24.4172,贺州市,环保小区,,30,30,26,17,14,56,,57,57,9,14,10,11,0.6,0.6
2025-06-24T2100,2515A,111.5608,24.4078,贺州市,政协大楼,,35,35,22,15,13,50,,66,66,14,11,11,12,0.8,0.7
2025-06-24T2100,3534A,111.4744,24.4553,贺州市,西湾,,26,26,20,16,12,43,,64,62,18,12,10,11,0.6,0.5
2025-06-24T2100,2385A,114.17,35.9019,鹤壁市,市监测站,臭氧1小时,60,45,41,38,27,168,,202,198,11,10,6,7,0.6,0.7
2025-06-24T2100,2386A,114.2956,35.7511,鹤壁市,市交警支队,臭氧1小时,58,50,44,37,24,166,,204,198,19,17,10,10,0.8,0.8
2025-06-24T2100,2387A,114.2878,35.7306,鹤壁市,迎宾馆,,50,41,42,25,22,160,,194,188,17,17,6,5,0.6,0.6
2025-06-24T2100,3474A,114.2617,35.6822,鹤壁市,大新区,,39,27,48,24,22,124,,189,177,26,15,6,7,0.6,0.6
2025-06-24T2100,3596A,114.1572,35.9603,鹤壁市,南山宾馆,臭氧1小时,74,54,51,41,33,179,,214,210,7,7,11,6,0.6,0.5
2025-06-24T2100,2244A,130.2537,47.3416,鹤岗市,哈啤分公司,,35,35,23,19,15,95,,122,118,11,6,13,13,0.5,0.4
2025-06-24T2100,2245A,130.2684,47.3086,鹤岗市,斯达机电,,43,43,36,16,19,90,,117,112,10,8,13,13,0.4,0.4
2025-06-24T2100,2246A,130.3114,47.3388,鹤岗市,东山纸板厂,,,36,32,21,16,59,,108,92,22,15,,14,0.5,0.8
2025-06-24T2100,2247A,130.1097,47.3382,鹤岗市,五号水库,,14,14,12,3,7,35,,102,84,14,10,14,12,0.6,0.5
2025-06-24T2100,2263A,127.4833,50.2524,黑河市,交通局,颗粒物(PM10),57,64,31,9,12,25,,91,76,34,12,7,7,2.0,0.6
2025-06-24T2100,2264A,127.5144,50.2341,黑河市,环保局,,,100,45,17,15,47,,97,86,,12,7,7,0.9,0.6
2025-06-24T2100,2265A,127.5291,50.2472,黑河市,大黑河岛,,13,,6,8,10,34,,66,60,25,8,24,21,0.5,0.4
2025-06-24T2100,1074A,115.6838,37.7541,衡水市,电机北厂,臭氧1小时,107,73,55,29,22,214,,232,232,13,13,6,5,0.4,0.4
2025-06-24T2100,1075A,115.6303,37.7316,衡水市,市监测站,臭氧1小时,99,49,51,27,20,199,,225,225,17,16,6,8,0.4,0.5
2025-06-24T2100,3188A,115.6683,37.7217,衡水市,市城管局,臭氧1小时,106,70,57,37,27,212,,236,236,13,17,3,5,0.4,0.5
2025-06-24T2100,3459A,115.5989,37.5491,衡水市,地表水厂,臭氧1小时,72,87,64,30,23,177,,231,228,31,36,6,8,0.3,0.3
2025-06-24T2100,2456A,112.5003,26.9167,衡阳市,原169医院,,19,19,16,6,7,45,,79,76,12,11,3,2,0.6,0.6
2025-06-24T2100,2457A,112.6194,26.9258,衡阳市,衡阳化工总厂,,19,19,22,8,14,45,,74,72,10,9,3,4,0.6,0.7
2025-06-24T2100,2458A,112.6211,26.8956,衡阳市,珠晖区环保局,,,24,20,,12,29,,80,74,31,13,6,6,0.8,0.8
2025-06-24T2100,2459A,112.6197,26.8733,衡阳市,市委党校,,25,25,18,10,11,53,,75,74,10,8,4,5,0.6,0.6
2025-06-24T2100,2460A,112.6006,26.8919,衡阳市,市监测站,,33,33,21,19,14,44,,75,73,16,11,6,6,0.6,0.6
2025-06-24T2100,2461A,112.5664,26.9056,衡阳市,真空机电公司,,25,24,19,17,15,46,,73,72,8,8,5,6,0.6,0.9
2025-06-24T2100,3399A,112.6703,26.882,衡阳市,师范学院,,17,15,18,8,10,54,,80,76,9,8,5,5,0.9,0.9
2025-06-24T2100,2608A,103.3772,23.3993,红河哈尼族彝族自治州,污水处理厂,,23,20,13,16,9,38,,41,40,3,3,6,6,0.3,0.3
2025-06-24T2100,2609A,103.3861,23.35,红河哈尼族彝族自治州,监测站,,29,29,20,14,12,38,,39,38,4,3,8,7,0.3,0.3
2025-06-24T2100,3038A,103.3758,23.368,红河哈尼族彝族自治州,州图书馆,,16,14,8,11,10,38,,43,41,4,3,1,1,0.2,0.1
2025-06-24T2100,1090A,111.6507,40.7517,呼和浩特市,呼市一监,,48,48,41,27,24,131,,184,173,25,18,10,9,0.5,0.6
2025-06-24T2100,1091A,111.6572,40.8033,呼和浩特市,小召,,48,41,36,20,21,152,,186,180,19,18,6,7,0.4,0.5
2025-06-24T2100,1094A,111.7516,40.8369,呼和浩特市,如意水处理厂,,45,45,45,23,23,141,,184,173,15,19,6,7,0.4,0.4
2025-06-24T2100,1095A,111.7276,40.8062,呼和浩特市,二十九中,,45,42,43,21,22,142,,183,174,15,18,6,6,0.4,0.5
2025-06-24T2100,1096A,111.5512,40.7866,呼和浩特市,工大金川校区,颗粒物(PM10),59,68,48,27,22,142,,188,179,25,23,7,8,0.5,0.6
2025-06-24T2100,1097A,111.717,40.7612,呼和浩特市,化肥厂生活区,颗粒物(PM10),51,52,48,21,22,131,,201,186,26,21,8,9,0.3,0.4
2025-06-24T2100,3698A,111.5968,40.8178,呼和浩特市,红旗小学,颗粒物(PM10),52,53,48,23,24,152,,195,187,26,29,4,5,0.4,0.4
2025-06-24T2100,3699A,111.6518,40.8389,呼和浩特市,海东办,,45,34,37,23,23,144,,179,172,18,22,6,6,0.5,0.5
2025-06-24T2100,2192A,119.7594,49.2261,呼伦贝尔市,区环保局,颗粒物(PM10),62,74,58,42,34,75,,123,116,20,26,6,6,0.7,0.6
2025-06-24T2100,3061A,119.7512,49.1577,呼伦贝尔市,国华电力东,,49,49,45,22,24,105,,136,132,14,18,4,4,0.5,0.5
2025-06-24T2100,1250A,120.0751,30.8669,湖州市,城西水厂,,48,47,34,33,27,106,,133,132,47,15,5,5,0.6,0.6
2025-06-24T2100,2873A,120.0830,30.8929,湖州市,仁皇山新区,,40,34,30,28,25,108,,138,137,14,11,4,4,0.7,0.7
2025-06-24T2100,2907A,120.1844,30.8596,湖州市,吴兴区站,,42,29,23,29,22,130,,138,138,23,17,6,6,0.5,0.5
2025-06-24T2100,3562A,120.4148,30.8538,湖州市,南浔区站,细颗粒物(PM2.5),52,49,29,36,26,112,,99,,22,17,5,4,0.9,0.8
2025-06-24T2100,1607A,120.9049,40.7211,葫芦岛市,龙港区,,46,46,29,21,15,137,,169,164,15,12,6,7,0.5,0.5
2025-06-24T2100,1608A,120.8392,40.7514,葫芦岛市,化工街,颗粒物(PM10),52,53,31,22,21,88,,166,152,49,21,15,7,0.5,0.5
2025-06-24T2100,1609A,120.8341,40.7073,葫芦岛市,新区,臭氧1小时,58,34,28,26,18,166,,164,164,16,13,4,5,0.5,0.5
2025-06-24T2100,1610A,120.8695,40.7677,葫芦岛市,东城区,,49,49,34,24,21,94,,156,145,42,18,9,6,0.6,0.6
2025-06-24T2100,2482A,109.5981,27.5721,怀化市,林科所,,15,9,12,3,4,48,,39,39,5,8,4,4,0.2,0.3
2025-06-24T2100,2483A,109.9453,27.5444,怀化市,河西地税局,,15,10,12,7,8,48,,38,38,4,11,10,5,0.3,0.3
2025-06-24T2100,2484A,109.9781,27.5342,怀化市,市四医院,,16,16,10,8,9,33,,38,32,5,8,2,2,0.3,0.3
2025-06-24T2100,2485A,109.9972,27.5578,怀化市,监测楼,,12,12,12,6,7,36,,34,34,4,7,1,1,0.2,0.3
2025-06-24T2100,2486A,110.0394,27.583,怀化市,市委党校,,14,7,9,3,6,44,,41,41,16,10,3,5,0.3,0.3
2025-06-24T2100,1210A,119.036,33.5981,淮安市,钵池山,,42,,22,18,17,133,,160,157,8,13,7,9,0.4,0.5
2025-06-24T2100,1211A,119.007,33.575,淮安市,北京南路,,35,22,25,19,20,110,,144,137,14,9,12,9,0.8,0.6
2025-06-24T2100,1212A,118.989,33.6067,淮安市,市监测站,,34,27,28,17,17,108,,148,141,16,12,9,10,0.5,0.5
2025-06-24T2100,1213A,119.135,33.5039,淮安市,楚州区监测站,,34,,23,15,19,106,,139,133,12,7,8,8,0.5,0.6
2025-06-24T2100,3426A,118.8755,33.2894,淮安市,新华书店,,37,24,20,13,12,117,,128,127,8,7,8,8,0.5,0.4
2025-06-24T2100,4206A,119.0288,33.6319,淮安市,承德北路606号,,36,22,32,17,21,113,,148,142,7,9,6,6,0.5,0.5
2025-06-24T2100,2282A,116.8004,33.975,淮北市,监测站,,42,23,38,11,25,132,,162,157,13,7,7,7,0.8,0.8
2025-06-24T2100,2283A,116.8091,33.9007,淮北市,烈山区政府,,47,47,53,16,22,132,,161,155,17,10,7,7,0.5,0.6
2025-06-24T2100,3330A,116.8873,33.9836,淮北市,杜集区检察院,颗粒物(PM10),52,54,51,14,31,116,,150,146,17,10,8,9,0.7,0.8
2025-06-24T2100,4017A,116.7923,33.9535,淮北市,市博物馆,,46,28,38,9,24,147,,166,160,9,6,8,8,0.7,0.7
2025-06-24T2100,2277A,116.8305,32.7727,淮南市,潘集区政府,,,61,61,,42,,,163,157,15,13,4,4,0.5,0.5
2025-06-24T2100,2279A,116.8569,32.5951,淮南市,谢家集区政府,,42,42,42,18,23,100,,156,140,19,14,5,7,0.3,0.3
2025-06-24T2100,2280A,116.8281,32.633,淮南市,八公山区政府,,43,43,42,13,23,101,,157,144,16,10,3,4,0.2,0.3
2025-06-24T2100,2281A,116.6325,32.6201,淮南市,焦岗湖风景区管理处,,,,,,,,,,,,,,,,
2025-06-24T2100,2894A,117.0566,32.6531,淮南市,经济技术开发区消防队,,36,33,49,25,25,107,,148,136,16,14,6,7,0.3,0.3
2025-06-24T2100,3329A,117.0108,32.5893,淮南市,山南新区,,,30,43,6,15,,,154,149,6,10,7,8,0.5,0.5
2025-06-24T2100,4209A,117.0031,32.6445,淮南市,国庆中路369号,颗粒物(PM10),54,57,53,17,32,120,,155,146,13,16,6,8,0.4,0.3
2025-06-24T2100,2446A,114.9028,30.4742,黄冈市,职工中心,,21,16,20,3,15,65,,108,91,2,4,8,8,0.6,0.6
2025-06-24T2100,2929A,114.8858,30.4519,黄冈市,红卫路,,23,19,23,9,14,71,,113,101,2,4,5,6,0.5,0.6
2025-06-24T2100,3398A,114.9136,30.4445,黄冈市,市林业局,,21,16,24,12,17,65,,101,90,2,3,7,7,0.5,0.6
2025-06-24T2100,2672A,102.0199,35.5102,黄南藏族自治州,同仁县隆务镇,,31,17,20,7,8,97,,98,97,1,4,6,7,0.3,0.2
2025-06-24T2100,2295A,118.2903,29.6963,黄山市,延安路89号,,28,25,16,19,6,67,,72,71,4,4,6,6,0.7,0.6
2025-06-24T2100,2297A,118.1371,30.2756,黄山市,黄山区政府5号楼,,16,16,14,7,12,29,,76,64,3,3,4,4,0.5,0.6
2025-06-24T2100,4210A,118.3354,29.7203,黄山市,滨江东路7-2号,,19,14,12,3,5,59,,68,66,4,4,4,4,0.6,0.5
2025-06-24T2100,2423A,115.0601,30.2313,黄石市,沈家营,,31,31,33,8,9,54,,119,100,22,11,7,7,0.8,0.9
2025-06-24T2100,2426A,114.8988,30.2019,黄石市,铁山,,31,31,27,11,12,82,,121,114,21,9,4,7,0.5,0.6
2025-06-24T2100,2427A,115.0307,30.2092,黄石市,团城山,,28,28,33,3,7,86,,126,115,5,6,7,7,0.4,0.5
2025-06-24T2100,3149A,115.0235,30.1578,黄石市,笔架山北路,,25,25,24,3,6,77,,115,104,3,8,7,5,0.6,0.6
2025-06-24T2100,4185A,115.0780,30.21118,黄石市,磁湖东路29号,,32,32,31,16,11,71,,123,104,6,8,7,7,0.3,0.4
2025-06-24T2100,1392A,114.4183,23.0528,惠州市,河南岸金山湖子站,,19,19,18,8,10,44,,104,94,16,15,6,6,0.4,0.4
2025-06-24T2100,1393A,114.4053,23.0822,惠州市,下埔横江三路子站,,23,23,19,12,7,59,,120,113,17,14,3,4,0.5,0.5
2025-06-24T2100,1394A,114.4103,23.1142,惠州市,江北云山西路子站,,21,21,18,7,8,60,,133,125,13,13,7,7,0.4,0.4
2025-06-24T2100,1395A,114.4645,22.7833,惠州市,惠阳区承修路船湖子站,,27,27,18,12,8,49,,89,79,11,13,7,7,0.5,0.5
2025-06-24T2100,1396A,114.5317,22.7422,惠州市,大亚湾管委会子站,,20,13,14,9,6,64,,66,66,7,10,9,9,0.3,0.3
2025-06-24T2100,3314A,114.4338,22.8134,惠州市,惠阳秋长,,19,14,20,6,9,60,,110,97,11,18,9,10,0.4,0.4
2025-06-24T2100,3452A,114.6517,22.775,惠州市,大亚湾霞涌,,18,,12,3,4,57,,64,62,9,10,5,5,0.3,0.3
2025-06-24T2100,2240A,130.9762,45.3001,鸡西市,环保局,颗粒物(PM10),51,52,34,25,19,64,,198,163,45,14,6,5,0.8,0.4
2025-06-24T2100,2243A,130.9429,45.3039,鸡西市,第一中学,颗粒物(PM10),56,61,31,26,16,67,,177,150,22,13,7,8,0.8,0.6
2025-06-24T2100,3707A,131.0207,45.3073,鸡西市,欧美日汽修厂,颗粒物(PM10),73,96,40,22,19,62,,189,147,34,19,6,7,0.7,0.6
2025-06-24T2100,3709A,130.9967,45.3106,鸡西市,市政设施管理处,颗粒物(PM10),63,75,40,29,20,70,,184,140,38,21,5,5,0.7,0.5
2025-06-24T2100,2367A,114.9754,27.0803,吉安市,红声器材厂,,19,18,20,11,9,60,,92,88,5,7,7,10,0.8,0.8
2025-06-24T2100,2368A,114.9658,27.0999,吉安市,市森林工业局,,,21,17,9,7,,,91,91,6,5,6,10,0.6,0.4
2025-06-24T2100,2369A,114.99,27.1312,吉安市,市环境监测站,,22,22,17,10,10,53,,87,82,3,4,13,15,0.5,0.4
2025-06-24T2100,2370A,115.0093,27.0968,吉安市,青原区法院,,23,23,21,11,10,38,,88,83,22,12,6,10,0.4,0.3
2025-06-24T2100,1772A,126.54,43.8622,吉林市,哈达湾,颗粒物(PM10),87,123,40,32,20,121,,215,204,37,22,10,8,0.8,0.4
2025-06-24T2100,1773A,126.5844,43.8358,吉林市,东局子,颗粒物(PM10),55,60,37,34,20,134,,219,196,23,22,6,6,0.9,0.8
2025-06-24T2100,1774A,126.5052,43.8245,吉林市,电力学院,细颗粒物(PM2.5),88,83,42,65,22,113,,208,189,25,35,5,6,0.8,0.6
2025-06-24T2100,1775A,126.6133,43.8972,吉林市,江北,颗粒物(PM10),59,68,38,36,19,131,,209,187,20,16,7,8,0.7,0.5
2025-06-24T2100,1776A,126.555,43.8306,吉林市,江南公园,细颗粒物(PM2.5),60,63,31,43,20,85,,205,183,61,22,7,7,1.1,0.6
2025-06-24T2100,1778A,126.7061,43.7133,吉林市,丰满,,,,,,,,,,,,,,,,
2025-06-24T2100,2868A,126.4739,43.953,吉林市,九站,,,90,46,72,26,,,231,229,93,38,6,7,0.6,0.4
2025-06-24T2100,1299A,116.9862,36.6114,济南市,科干所,臭氧1小时,78,44,39,24,23,182,,219,215,17,15,4,7,0.6,0.7
2025-06-24T2100,1300A,116.9376,36.665,济南市,农科所,颗粒物(PM10),51,51,47,27,19,140,,211,200,33,20,7,9,0.4,0.4
2025-06-24T2100,1301A,117.1265,36.6734,济南市,开发区,臭氧1小时,80,46,38,27,21,184,,222,217,23,18,7,9,0.5,0.5
2025-06-24T2100,1303A,117.0624,36.6868,济南市,省种子仓库,臭氧1小时,102,51,43,22,20,204,,230,227,21,17,6,8,0.5,0.5
2025-06-24T2100,1304A,116.9489,36.6447,济南市,机床二厂,颗粒物(PM10),59,68,52,29,21,156,,223,214,41,23,4,7,0.7,0.6
2025-06-24T2100,1305A,117.0495,36.663,济南市,市监测站,臭氧1小时,80,49,39,29,21,184,,219,215,28,22,8,11,0.6,0.6
2025-06-24T2100,1306A,116.7675,36.5484,济南市,长清党校,臭氧1小时,77,49,40,32,28,181,,212,209,31,23,5,8,0.5,0.6
2025-06-24T2100,1616A,117.6795,36.229,济南市,技术学院,臭氧1小时,88,44,38,29,24,190,,209,209,19,25,11,11,1.0,1
2025-06-24T2100,1961A,117.532,36.6868,济南市,东山小学,臭氧1小时,68,46,40,22,18,174,,240,234,22,13,7,9,0.3,0.4
2025-06-24T2100,3059A,117.7161,36.2049,济南市,泰兴公司,颗粒物(PM10),53,56,41,34,24,160,,197,195,29,30,14,10,0.5,0.7
2025-06-24T2100,3064A,117.6867,36.2171,济南市,莱芜战役纪念馆,臭氧1小时,85,58,45,32,27,188,,210,210,20,23,10,10,1.2,1.2
2025-06-24T2100,3494A,117.1673,36.9782,济南市,济阳区政府,臭氧1小时,105,51,62,27,22,209,,211,211,17,33,10,9,0.4,0.5
2025-06-24T2100,3495A,117.1171,36.63,济南市,锦屏中学,,50,49,38,24,18,158,,220,213,22,15,4,8,0.6,0.6
2025-06-24T2100,3682A,116.9814,36.6819,济南市,济南四建,颗粒物(PM10),53,56,40,34,23,161,,220,214,35,20,6,7,0.5,0.5
2025-06-24T2100,1653A,116.6251,35.4302,济宁市,火炬城,,45,43,49,14,26,144,,176,172,10,12,5,8,0.4,0.6
2025-06-24T2100,1655A,116.5491,35.4042,济宁市,电化厂,颗粒物(PM10),54,57,51,27,32,125,,181,173,25,11,4,6,0.6,0.8
2025-06-24T2100,3500A,116.5814,35.3707,济宁市,北湖一中,,50,45,51,27,34,157,,192,189,15,15,9,10,0.3,0.4
2025-06-24T2100,3501A,116.8249,35.5593,济宁市,服务中心,,,,43,,21,,,190,190,19,19,4,3,0.4,0.4
2025-06-24T2100,3678A,116.5907,35.4054,济宁市,市第七中学,,49,25,50,14,24,156,,184,181,6,8,10,12,0.3,0.5
2025-06-24T2100,2255A,130.2751,46.8028,佳木斯市,佳纺,,50,50,40,27,23,117,,148,144,22,21,4,4,0.5,0.4
2025-06-24T2100,2256A,130.3995,46.8307,佳木斯市,发电厂,颗粒物(PM10),55,60,47,25,23,83,,134,113,37,22,6,6,0.6,0.5
2025-06-24T2100,2257A,130.3258,46.7975,佳木斯市,环保局,,48,48,46,26,25,142,,155,154,19,22,5,5,0.6,0.5
2025-06-24T2100,2258A,130.3648,46.8032,佳木斯市,十一中,,46,46,43,26,26,119,,156,150,19,20,6,6,0.6,0.5
2025-06-24T2100,2259A,130.3794,46.7588,佳木斯市,四丰,,,40,33,,,,,,,17,15,1,1,0.6,0.5
2025-06-24T2100,1252A,120.7436,30.778,嘉兴市,清河小学,,36,30,28,10,10,115,,119,119,19,17,7,7,0.9,0.9
2025-06-24T2100,1253A,120.726,30.7478,嘉兴市,嘉兴学院,,33,24,19,16,18,104,,111,111,25,19,4,4,0.7,0.7
2025-06-24T2100,2872A,120.7846,30.7525,嘉兴市,南湖区残联,,32,26,19,17,16,100,,113,113,19,14,6,5,0.7,0.7
2025-06-24T2100,3407A,120.6916,30.7739,嘉兴市,秀洲住建,,38,37,21,26,14,87,,110,110,23,18,6,6,0.9,0.8
2025-06-24T2100,1945A,98.2908,39.7711,嘉峪关市,气象局,,,41,20,12,11,,,143,143,21,8,4,9,0.5,0.6
2025-06-24T2100,2884A,98.2672,39.7978,嘉峪关市,酒钢宾馆,,42,29,22,14,11,133,,143,142,9,5,10,17,0.5,0.5
2025-06-24T2100,3248A,98.2643,39.7724,嘉峪关市,雄关区,,41,31,25,17,13,129,,141,140,15,11,6,10,0.3,0.3
2025-06-24T2100,1383A,113.1064,22.6058,江门市,北街,,,,19,3,7,37,,78,67,11,12,4,4,0.4,0.4
2025-06-24T2100,1384A,113.0731,22.5835,江门市,西区,,28,26,25,19,11,36,,68,61,13,12,9,8,0.4,0.4
2025-06-24T2100,1385A,113.0219,22.5311,江门市,圭峰西,,,,25,5,10,38,,57,53,142,32,3,3,0.4,0.4
2025-06-24T2100,1386A,113.0828,22.5947,江门市,东湖,,18,18,14,7,7,37,,64,57,13,11,7,6,0.4,0.4
2025-06-24T2100,3311A,113.1075,22.5647,江门市,江海富民,,31,31,22,3,10,35,,72,62,15,10,9,9,0.4,0.4
2025-06-24T2100,3449A,113.05,22.4667,江门市,新会银湖,,15,15,16,6,7,33,,60,48,8,7,2,3,0.3,0.3
2025-06-24T2100,1830A,113.1992,35.2590,焦作市,影视城,,,,27,,16,,,,,,10,,12,,0.3
2025-06-24T2100,3169A,113.2725,35.2067,焦作市,太极体育中心,臭氧1小时,68,50,56,22,22,174,,195,189,27,27,3,6,0.3,0.4
2025-06-24T2100,3335A,113.3137,35.2641,焦作市,马村街道办,颗粒物(PM10),52,54,49,31,24,156,,180,172,24,17,10,12,0.4,0.5
2025-06-24T2100,3336A,113.2465,35.2373,焦作市,焦作技师学院,臭氧1小时,54,52,41,17,15,163,,169,166,14,15,4,5,0.6,0.6
2025-06-24T2100,3477A,113.1656,35.2539,焦作市,中站许衡医院,臭氧1小时,65,40,42,29,24,172,,181,178,13,20,6,8,0.4,0.4
2025-06-24T2100,3981A,113.2449,35.1803,焦作市,原李万街道办,,,79,52,17,17,,,181,179,24,20,8,12,0.3,0.8
2025-06-24T2100,4264A,113.2340,35.2190,焦作市,新安路1731号,臭氧1小时,59,54,47,22,20,167,,179,176,13,11,4,6,0.3,0.3
2025-06-24T2100,1708A,116.3701,23.5345,揭阳市,新兴,,,,20,12,10,45,,75,68,11,7,4,5,0.5,0.4
2025-06-24T2100,1709A,116.3264,23.5443,揭阳市,西马,,,34,23,16,9,,,68,67,12,9,3,2,0.5,0.5
2025-06-24T2100,1710A,116.3611,23.5626,揭阳市,东兴,,22,,24,15,8,54,,84,78,9,8,2,3,0.4,0.4
2025-06-24T2100,1711A,116.4151,23.5294,揭阳市,渔湖,,46,43,31,32,14,45,,73,68,9,10,7,7,0.3,0.3
2025-06-24T2100,3320A,116.403,23.5699,揭阳市,曲溪,,27,27,20,16,8,54,,85,80,7,6,6,4,0.5,0.4
2025-06-24T2100,1944A,102.1692,38.5167,金昌市,天庆家园,,34,19,27,7,15,106,,117,117,12,16,10,24,0.7,0.7
2025-06-24T2100,4022A,102.1647,38.5371,金昌市,金川区人防中心,,30,16,26,9,13,95,,121,119,18,13,12,17,0.7,0.6
2025-06-24T2100,4239A,102.1930,38.5319,金昌市,长春路96号,,34,7,26,3,12,107,,120,120,10,13,8,11,0.5,0.7
2025-06-24T2100,1262A,119.647,29.077,金华市,十五中,,34,34,17,17,9,67,,85,82,18,10,1,2,0.7,0.5
2025-06-24T2100,1263A,119.686,29.1029,金华市,监测站,,42,42,17,23,11,58,,78,75,26,14,2,2,0.8,0.5
2025-06-24T2100,3659A,119.656,29.1131,金华市,气象局,,,39,18,27,9,40,,56,52,28,16,2,2,,0.3
2025-06-24T2100,1767A,121.1115,41.0879,锦州市,南山,,42,,39,29,33,107,,171,160,36,16,8,17,0.6,0.6
2025-06-24T2100,1768A,121.0604,40.8428,锦州市,开发区,,39,39,44,18,18,107,,167,158,42,23,17,14,0.7,0.6
2025-06-24T2100,1769A,121.1836,41.1119,锦州市,百股街道,,39,39,37,17,20,102,,173,161,32,16,13,14,0.6,0.6
2025-06-24T2100,1770A,121.1178,41.1222,锦州市,天安街道,,45,45,42,23,32,116,,168,160,31,19,6,16,0.8,0.9
2025-06-24T2100,1771A,121.1303,41.1386,锦州市,北湖公园,,40,22,38,20,31,125,,169,164,24,16,6,14,0.6,0.7
2025-06-24T2100,2160A,112.85,35.5051,晋城市,自来水公司,臭氧1小时,84,48,46,17,15,187,,187,187,15,13,3,2,0,0.1
2025-06-24T2100,2161A,112.8318,35.4936,晋城市,白云商贸,,,,54,,12,181,,178,178,13,17,3,3,0.5,0.4
2025-06-24T2100,2162A,112.8508,35.4887,晋城市,市环保局,臭氧1小时,73,53,49,17,17,178,,183,183,16,16,7,8,0,0
2025-06-24T2100,2163A,112.8676,35.4897,晋城市,技术学院,臭氧1小时,54,41,42,17,14,163,,164,164,16,17,7,8,0.3,0.4
2025-06-24T2100,2165A,112.8453,35.546,晋城市,白马寺,,,29,37,21,21,188,,185,185,9,7,,8,0.4,0.5
2025-06-24T2100,3620A,112.8271,35.4828,晋城市,泽州一中,臭氧1小时,84,20,40,17,14,187,,186,186,24,21,4,4,0.4,0.4
2025-06-24T2100,2173A,112.7249,37.7067,晋中市,南都小区,臭氧1小时,60,48,35,28,20,168,,188,187,17,9,2,2,0.5,0.4
2025-06-24T2100,2174A,112.6991,37.6982,晋中市,榆次区政府,颗粒物(PM10),58,66,37,23,17,148,,188,184,29,9,7,5,0.7,0.5
2025-06-24T2100,2865A,112.7195,37.6828,晋中市,榆次三中,臭氧1小时,67,68,40,29,14,173,,196,195,20,14,8,6,0.5,0.3
2025-06-24T2100,4200A,112.7478,37.6954,晋中市,迎宾街26号,臭氧1小时,79,48,36,17,15,183,,200,200,16,10,8,7,0.5,0.4
2025-06-24T2100,2439A,112.2014,31.0481,荆门市,竹园小学,,38,38,27,13,19,97,,130,122,15,9,5,7,0.1,0.2
2025-06-24T2100,2440A,112.1969,30.9891,荆门市,掇刀,,31,29,24,17,19,99,,131,125,8,6,10,9,0.5,0.6
2025-06-24T2100,2441A,112.2213,31.0386,荆门市,石化一小,,33,33,27,18,21,92,,131,122,17,9,14,11,0.3,0.3
2025-06-24T2100,3012A,112.1849,31.0362,荆门市,西山林语,,34,16,22,13,18,107,,135,127,6,3,10,11,0.4,0.4
2025-06-24T2100,3547A,112.1632,31.0138,荆门市,龙泉中学南校,,34,24,23,15,14,107,,135,126,6,5,5,6,0.4,0.5
2025-06-24T2100,1844A,112.2494,30.3197,荆州市,市图书馆,,34,17,22,10,14,107,,123,119,8,9,3,7,0.5,0.5
2025-06-24T2100,1845A,112.2008,30.3544,荆州市,市委党校,,34,19,21,12,16,106,,115,113,12,13,6,7,0.4,0.5
2025-06-24T2100,3194A,112.2747,30.3122,荆州市,管委会,,,26,20,12,18,,,116,113,18,10,6,7,0.6,0.7
2025-06-24T2100,4268A,112.1722,30.3366,荆州市,学苑路85号,,32,,21,18,19,100,,114,112,8,14,3,5,0.3,0.4
2025-06-24T2100,2342A,117.3102,29.3867,景德镇市,王港中学,,,,,,,,,,,,,,,,
2025-06-24T2100,2343A,117.2117,29.2933,景德镇市,老干部活动中心,,37,37,24,14,11,44,,93,80,22,16,8,12,1.2,0.9
2025-06-24T2100,2344A,117.1894,29.2789,景德镇市,兽医站,,40,40,27,11,12,43,,86,75,16,12,14,9,0.6,0.6
2025-06-24T2100,2345A,117.1547,29.2617,景德镇市,台达陶瓷,,40,40,36,25,22,44,,83,74,24,20,58,46,0.9,0.8
2025-06-24T2100,2346A,117.2461,29.2956,景德镇市,陶研所,,,24,23,14,12,,,82,72,7,8,4,5,0.9,0.7
2025-06-24T2100,1803A,115.9872,29.6815,九江市,十里,,35,34,19,23,18,110,,118,117,19,13,9,3,1.0,0.8
2025-06-24T2100,1804A,115.9584,29.7046,九江市,茅山头,,45,30,21,23,16,141,,126,126,16,14,3,5,0.7,0.6
2025-06-24T2100,1805A,115.9877,29.7295,九江市,西园,,45,37,23,20,22,141,,129,129,21,18,7,5,0.7,1
2025-06-24T2100,1808A,115.9114,29.6038,九江市,综合工业园,,37,22,22,16,12,118,,129,125,17,20,4,3,0.9,0.9
2025-06-24T2100,1809A,116.0721,29.7535,九江市,石化总厂,,49,48,24,34,22,117,,118,118,27,12,6,6,1.0,1
2025-06-24T2100,1810A,115.9773,29.5698,九江市,庐山气象台,,30,13,7,3,4,93,,84,84,3,3,6,6,1.1,0.8
2025-06-24T2100,3190A,116.0254,29.6994,九江市,外国语学校,,35,,19,23,16,109,,116,116,14,13,7,5,0.8,0.8
2025-06-24T2100,4253A,116.0102,29.6594,九江市,莲花大道8号,,33,,18,15,11,105,,109,109,5,5,4,4,0.8,0.8
2025-06-24T2100,4240A,98.4958,39.7339,酒泉市,玉门东路5号,,44,44,24,27,22,135,,150,148,10,7,12,12,0.6,0.3
2025-06-24T2100,4241A,98.5099,39.7506,酒泉市,北大街108号,,45,27,23,20,17,144,,155,155,6,7,25,14,0.3,0.3
2025-06-24T2100,2698A,76.0072,39.4467,喀什地区,巡警大队,颗粒物(PM10),71,92,161,26,34,152,,141,141,11,13,3,3,0.2,0.3
2025-06-24T2100,2699A,75.9755,39.4694,喀什地区,吾办,,,99,155,45,54,148,,139,139,,16,4,5,0.4,0.4
2025-06-24T2100,4027A,75.9483,39.4689,喀什地区,老干局,颗粒物(PM10),77,104,194,22,46,144,,134,134,8,13,7,4,0.3,0.4
2025-06-24T2100,1824A,114.3389,34.7781,开封市,肿瘤医院,,48,47,50,27,26,151,,190,183,21,18,3,3,0.3,0.3
2025-06-24T2100,1826A,114.2885,34.7965,开封市,世纪星幼儿园,,50,43,52,24,31,159,,185,180,17,19,4,4,0.7,0.7
2025-06-24T2100,3147A,114.3438,34.8106,开封市,龙亭公园,臭氧1小时,59,36,48,22,29,167,,194,189,16,13,3,4,0.3,0.3
2025-06-24T2100,3210A,114.3644,34.7964,开封市,汴京公园,,,,54,,29,,,194,192,17,19,4,5,0.3,0.4
2025-06-24T2100,3473A,114.2485,34.8306,开封市,技师学院,臭氧1小时,55,,43,26,28,164,,190,184,18,15,4,5,0.6,0.5
2025-06-24T2100,3592A,114.4644,34.7556,开封市,祥符区生态环境局,,48,48,54,22,27,144,,184,177,29,28,4,5,0.6,0.6
2025-06-24T2100,1951A,84.895,45.6094,克拉玛依市,长征新村,,29,23,27,3,5,92,,92,92,6,11,4,4,0.2,0.3
2025-06-24T2100,1952A,84.8988,45.5893,克拉玛依市,南林小区,,26,26,30,12,11,79,,84,84,14,19,3,3,0.1,0.2
2025-06-24T2100,1954A,84.905,44.3396,克拉玛依市,独山子区,,33,25,20,8,8,105,,107,107,8,7,11,7,0.3,0.3
2025-06-24T2100,1955A,85.6979,46.098,克拉玛依市,乌尔禾区商贸楼,颗粒物(PM10),56,61,32,9,7,101,,100,100,3,8,4,4,0.3,0.3
2025-06-24T2100,3612A,85.1045,45.6899,克拉玛依市,白碱滩区新站,,36,33,60,23,27,113,,108,108,1,13,5,5,0.5,0.6
2025-06-24T2100,2697A,76.1454,39.7142,克孜勒苏柯尔克孜自治州,市人民政府,颗粒物(PM10),76,102,142,45,47,156,,144,144,4,7,3,11,0.3,0.3
2025-06-24T2100,3665A,76.1658,39.7157,克孜勒苏柯尔克孜自治州,克州文化中心,颗粒物(PM10),80,110,141,35,47,152,,140,140,8,5,4,5,0.4,0.4
2025-06-24T2100,1450A,102.8204,24.8886,昆明市,呈贡新区,,10,7,5,7,5,11,,41,35,20,13,5,7,0.2,0.2
2025-06-24T2100,1451A,102.6251,24.9608,昆明市,西山森林公园,,,,,,,,,,,,,,,,
2025-06-24T2100,1452A,102.7252,25.0902,昆明市,龙泉镇,,30,30,14,6,6,29,,48,46,11,13,1,1,0.3,0.4
2025-06-24T2100,1453A,102.7266,25.0375,昆明市,东风东路,,10,10,13,3,7,28,,46,44,11,17,4,5,0.3,0.4
2025-06-24T2100,1454A,102.6742,25.0669,昆明市,金鼎山,,,10,14,3,3,,,43,41,10,16,1,2,0.3,0.3
2025-06-24T2100,1455A,102.6644,25.0401,昆明市,碧鸡广场,,14,14,10,3,5,20,,40,36,14,16,6,6,0.4,0.4
2025-06-24T2100,3179A,102.7494,25.0119,昆明市,官渡区博物馆,,11,11,15,3,5,28,,44,40,9,13,6,6,0.2,0.4
2025-06-24T2100,3375A,102.8017,24.8336,昆明市,青年创业园,,9,6,7,3,4,26,,46,41,11,12,6,9,0.3,0.3
2025-06-24T2100,3550A,102.7997,24.9786,昆明市,昆明学院,,11,11,16,6,7,20,,42,38,15,14,5,5,0.2,0.2
2025-06-24T2100,3551A,102.5967,24.6736,昆明市,晋宁区生态环境分局,,12,12,13,7,4,30,,38,37,2,4,1,2,0.3,0.4
2025-06-24T2100,3552A,102.6678,24.9856,昆明市,云天化总部,,10,6,7,3,4,32,,37,36,5,15,3,4,0.4,0.5
2025-06-24T2100,1456A,91.1319,29.6514,拉萨市,八廓街,,39,13,8,7,7,122,,138,136,14,8,7,6,0.3,0.2
2025-06-24T2100,1457A,91.1221,29.6747,拉萨市,市环保局,,,28,12,10,7,,,144,144,14,11,7,6,0.2,0.3
2025-06-24T2100,1458A,91.0874,29.6475,拉萨市,区监测站,,40,13,8,7,6,126,,135,135,17,13,7,6,0.2,0.2
2025-06-24T2100,1459A,91.1774,29.6541,拉萨市,西藏大学,,38,14,7,9,6,121,,138,137,18,9,5,4,0.3,0.3
2025-06-24T2100,1460A,90.9798,29.6588,拉萨市,区辐射站,,34,20,12,11,7,108,,122,120,19,14,6,6,0.3,0.3
2025-06-24T2100,1461A,91.0834,29.6292,拉萨市,拉萨火车站,,42,9,9,6,6,132,,139,139,7,9,4,4,0.1,0.2
2025-06-24T2100,2520A,109.2203,23.7256,来宾市,来宾技工学校,,31,31,22,16,12,64,,85,84,13,7,7,7,0.4,0.4
2025-06-24T2100,3535A,109.1781,23.7297,来宾市,兴宾区政府,,,25,21,24,12,,,90,90,13,9,5,5,0.4,0.6
2025-06-24T2100,4002A,109.2416,23.7461,来宾市,中南小学,,30,30,22,13,9,67,,91,88,11,5,6,7,0.4,0.3
2025-06-24T2100,1477A,104.1373,35.9454,兰州市,榆中兰大校区,,,,,,,,,,,,,,,,
2025-06-24T2100,1479A,103.831,36.0464,兰州市,铁路设计院,,35,30,38,24,27,82,,92,91,29,31,10,12,0.6,0.6
2025-06-24T2100,3241A,103.7439,36.0842,兰州市,百合公园,,,26,27,13,24,,,101,100,16,15,6,4,0.4,0.4
2025-06-24T2100,3242A,103.9611,35.998,兰州市,和平,,28,12,23,11,29,89,,107,104,15,15,8,9,0.8,0.9
2025-06-24T2100,4236A,103.6293,36.0938,兰州市,庄浪东路808号,,39,33,29,27,26,67,,106,102,40,26,9,10,0.4,0.3
2025-06-24T2100,4237A,103.7251,36.1043,兰州市,安宁西路88号,,35,28,30,24,26,96,,109,108,12,12,5,6,0.3,0.4
2025-06-24T2100,4238A,103.8470,36.0676,兰州市,北滨河东路1号,,32,24,26,20,26,101,,100,100,18,25,10,11,0.6,0.6
2025-06-24T2100,3245A,103.6633,36.533,兰州新区,新区管委会,,39,,28,21,23,122,,130,130,7,7,9,7,0.5,0.4
2025-06-24T2100,3246A,103.6975,36.4789,兰州新区,舟曲中学,,34,13,17,10,12,106,,120,120,12,8,14,8,0.5,0.4
2025-06-24T2100,1067A,116.6708,39.5111,廊坊市,药材公司,颗粒物(PM10),81,111,103,44,53,176,,259,234,25,31,4,5,0.6,0.6
2025-06-24T2100,1068A,116.7214,39.5589,廊坊市,开发区,臭氧1小时,100,75,101,43,55,200,,257,237,22,30,3,4,0.6,0.6
2025-06-24T2100,1070A,116.7244,39.5269,廊坊市,北华航天学院,颗粒物(PM10),75,100,121,40,64,154,,245,225,24,26,2,4,0.6,0.6
2025-06-24T2100,2919A,116.7022,39.5453,廊坊市,河北工业大学,臭氧1小时,110,98,114,45,55,220,,262,252,19,27,5,6,0.6,0.6
2025-06-24T2100,2535A,103.7723,29.5462,乐山市,花湖湾,,20,6,11,3,10,62,,80,69,11,11,2,2,0.5,0.5
2025-06-24T2100,2536A,103.7627,29.5844,乐山市,牛耳桥,,21,6,12,3,9,66,,89,78,12,11,6,7,0.7,0.7
2025-06-24T2100,2537A,103.7508,29.6006,乐山市,市第三水厂,,,6,13,3,9,,,82,74,14,14,3,4,0.5,0.7
2025-06-24T2100,2538A,103.7571,29.5664,乐山市,市监测站,,21,,13,3,11,66,,83,76,7,6,6,6,0.6,0.6
2025-06-24T2100,3361A,103.7311,29.5628,乐山市,理工大学,,20,6,11,3,10,62,,86,77,13,10,5,6,0.6,0.6
2025-06-24T2100,2598A,100.2143,26.8576,丽江市,西南郊,,15,,13,10,7,26,,59,55,13,8,6,20,0.8,1.3
2025-06-24T2100,2599A,100.2497,26.8802,丽江市,丽江古城,,15,15,18,3,9,27,,39,36,12,10,9,10,0.4,0.4
2025-06-24T2100,2600A,100.2203,26.8906,丽江市,市中心,,,,10,7,10,,,32,29,19,8,7,7,,0.9
2025-06-24T2100,1267A,119.914,28.4514,丽水市,监测站大楼,,29,29,17,17,6,73,,73,73,14,17,3,3,0.5,0.4
2025-06-24T2100,1268A,119.93,28.4586,丽水市,莲都小学,,28,27,20,19,8,75,,78,73,12,13,3,3,0.5,0.4
2025-06-24T2100,1269A,119.879,28.4231,丽水市,余庄前,,19,19,19,8,8,43,,84,59,9,11,3,3,0.4,0.4
2025-06-24T2100,1173A,119.176,34.5885,连云港市,市环境监测站,,34,29,28,12,14,107,,165,155,25,18,7,8,0.6,0.6
2025-06-24T2100,3000A,119.3581,34.6972,连云港市,德源药业,颗粒物(PM10),63,75,34,12,9,22,,112,89,60,14,24,9,0.8,0.8
2025-06-24T2100,3007A,119.178,34.844,连云港市,新城一中,,27,16,22,8,11,67,,128,112,54,18,7,6,0.7,0.6
2025-06-24T2100,3008A,119.3608,34.7519,连云港市,胡沟管理处,,,24,19,3,9,,,119,113,45,32,8,8,0.7,0.3
2025-06-24T2100,3009A,119.1478,34.5911,连云港市,矿山设计院,,39,31,27,9,12,122,,160,155,13,10,7,7,0.5,0.5
2025-06-24T2100,3434A,119.2413,34.6539,连云港市,工贸学校,,36,23,34,11,18,114,,150,139,10,7,8,8,0.7,0.6
2025-06-24T2100,3664A,119.4172,34.7341,连云港市,连云街道,,,20,20,8,10,,,118,109,11,16,7,8,0.4,0.4
2025-06-24T2100,2571A,102.3431,27.8099,凉山彝族自治州,青龙寺,,14,14,17,3,5,25,,52,44,8,9,4,4,0.5,0.6
2025-06-24T2100,2572A,102.2721,27.8415,凉山彝族自治州,邛海宾馆,,,27,18,13,9,,,47,47,7,8,9,9,0.4,0.3
2025-06-24T2100,2573A,102.2625,27.898,凉山彝族自治州,西昌市政府,,14,14,14,6,7,33,,51,46,8,8,10,14,0.4,0.6
2025-06-24T2100,2574A,102.2685,27.8851,凉山彝族自治州,凉山州政府,,16,16,13,10,9,36,,52,47,10,9,10,11,0.6,0.6
2025-06-24T2100,4229A,102.2342,27.8859,凉山彝族自治州,凯乐南路30号,,15,15,16,7,6,44,,46,46,8,10,16,17,0.6,0.8
2025-06-24T2100,2212A,123.2,41.1953,辽阳市,宏伟区,颗粒物(PM10),53,55,37,27,21,106,,219,204,33,8,7,6,1.1,0.8
2025-06-24T2100,2213A,123.1683,41.2495,辽阳市,新华园,颗粒物(PM10),78,106,44,39,26,96,,225,197,47,12,20,9,1.2,0.6
2025-06-24T2100,2214A,123.2354,41.2639,辽阳市,滨河路,颗粒物(PM10),53,56,38,21,20,108,,196,186,42,15,9,10,1.0,0.6
2025-06-24T2100,2215A,123.149,41.2991,辽阳市,铁西工业园,,,49,51,30,24,95,,196,166,46,20,5,7,,0.8
2025-06-24T2100,2227A,125.1358,42.8845,辽源市,环保局,,,45,35,19,17,78,,218,194,48,53,4,5,,0.4
2025-06-24T2100,3239A,125.0764,42.9078,辽源市,银鹰制药,,42,42,36,26,20,81,,227,196,50,46,4,6,0.4,0.4
2025-06-24T2100,1625A,115.9848,36.4372,聊城市,区政府,臭氧1小时,83,46,48,22,23,186,,211,208,19,18,8,10,0.5,0.4
2025-06-24T2100,2878A,116.0072,36.4343,聊城市,聊大东校,臭氧1小时,79,46,52,28,32,183,,214,209,20,20,6,8,0.6,0.6
2025-06-24T2100,3200A,115.9819,36.4978,聊城市,监控中心,臭氧1小时,88,46,44,24,24,190,,220,216,16,26,8,10,0.6,0.6
2025-06-24T2100,3513A,116.0445,36.4361,聊城市,九州社区,臭氧1小时,87,54,59,30,26,189,,220,215,16,18,4,6,0.5,0.4
2025-06-24T2100,4018A,116.0567,36.4608,聊城市,星美广场,臭氧1小时,93,51,59,23,25,194,,217,213,15,24,11,11,0.6,0.6
2025-06-24T2100,2632A,94.3681,29.6376,林芝市,林芝监测站,,19,,3,6,4,59,,65,64,11,5,3,4,0.3,0.2
2025-06-24T2100,2633A,94.3616,29.6616,林芝市,林芝人民医院,,20,11,7,7,4,62,,71,70,5,4,5,5,0.4,0.4
2025-06-24T2100,2603A,100.0781,23.8982,临沧市,市环保局,,38,,19,26,15,15,,30,25,10,8,6,7,0.7,0.6
2025-06-24T2100,2604A,100.0894,23.8822,临沧市,市气象局,,,13,19,12,10,,,25,22,15,9,8,8,0.5,0.4
2025-06-24T2100,1733A,111.5531,36.0783,临汾市,临钢医院,,48,43,39,11,13,151,,177,174,17,14,8,8,0.5,0.6
2025-06-24T2100,1734A,111.5028,36.0714,临汾市,技工学校,,48,36,45,27,26,152,,185,181,14,14,9,8,0.5,0.5
2025-06-24T2100,1736A,111.5018,36.0855,临汾市,市委,,48,48,51,17,14,149,,186,180,20,18,10,9,0.5,0.6
2025-06-24T2100,3018A,111.505,36.1014,临汾市,唐尧大酒店,颗粒物(PM10),51,52,51,7,18,140,,175,175,16,19,9,8,0.3,0.4
2025-06-24T2100,4244A,111.4879,36.0530,临汾市,启星学校,,50,50,44,34,26,146,,182,177,14,13,7,7,0.5,0.5
2025-06-24T2100,4271A,103.2464,35.6123,临夏回族自治州,滨河东路1号,,22,17,18,8,11,70,,96,93,5,7,8,8,0.3,0.3
2025-06-24T2100,4310A,103.2093,35.5995,临夏回族自治州,新华街21号,,28,18,16,3,13,88,,104,102,3,9,5,5,0.3,0.3
2025-06-24T2100,1618A,118.3429,35.0532,临沂市,沂河小区,颗粒物(PM10),52,53,43,25,23,152,,197,194,26,22,17,10,0.4,0.4
2025-06-24T2100,1619A,118.295,35.0583,临沂市,鲁南制药厂,颗粒物(PM10),51,51,48,16,23,141,,217,208,25,27,15,10,0.6,0.5
2025-06-24T2100,1620A,118.2794,34.9976,临沂市,新光毛纺厂,颗粒物(PM10),53,56,40,19,23,127,,208,201,29,22,20,11,0.5,0.4
2025-06-24T2100,1621A,118.3956,35.0888,临沂市,河东保险公司,臭氧1小时,73,39,32,23,13,178,,195,195,23,23,12,8,0.5,0.5
2025-06-24T2100,3370A,118.3564,35.0215,临沂市,十里堡居委,颗粒物(PM10),56,61,36,29,19,150,,219,214,32,19,20,11,0.6,0.5
2025-06-24T2100,3496A,118.3604,35.1084,临沂市,南坊新区,臭氧1小时,59,56,38,22,15,167,,202,200,26,24,14,10,0.7,0.7
2025-06-24T2100,3860A,118.3920,35.0300,临沂市,皇山花园小区,颗粒物(PM10),56,61,36,35,25,160,,198,196,28,22,15,11,0.6,0.4
2025-06-24T2100,1870A,109.4856,24.3895,柳州市,柳东小学,,,,20,,13,,,91,91,6,8,4,9,0.4,0.4
2025-06-24T2100,1871A,109.4157,24.3277,柳州市,环保监测站,,34,34,30,20,22,72,,92,91,12,10,7,8,0.8,0.8
2025-06-24T2100,1872A,109.389,24.341,柳州市,河西水厂,,32,32,28,16,14,81,,96,95,10,12,4,7,0.4,0.4
2025-06-24T2100,1873A,109.4311,24.2921,柳州市,市四中,,29,27,29,20,15,73,,94,92,17,14,7,7,0.4,0.4
2025-06-24T2100,1874A,109.4006,24.3631,柳州市,市九中,,48,48,32,16,15,78,,97,96,12,12,9,10,0.6,0.5
2025-06-24T2100,1875A,109.4958,24.3134,柳州市,古亭山,,30,27,27,21,13,66,,92,89,14,11,4,5,0.5,0.5
2025-06-24T2100,3402A,109.5422,24.3996,柳州市,市二中,,,,26,57,16,76,,91,90,,11,4,11,,0.4
2025-06-24T2100,2307A,116.5079,31.737,六安市,监测大楼,,40,32,25,25,22,127,,131,131,5,5,4,4,0.3,0.3
2025-06-24T2100,2308A,116.4738,31.7643,六安市,皖西学院,,42,34,26,22,22,134,,142,142,7,6,5,5,0.4,0.4
2025-06-24T2100,2309A,116.4996,31.7905,六安市,朝阳厂,,40,32,31,28,24,115,,128,128,13,13,6,6,0.4,0.4
2025-06-24T2100,2310A,116.5567,31.7886,六安市,开发区,,,,33,,20,119,,134,133,,5,4,2,,0.4
2025-06-24T2100,2576A,104.8,26.5892,六盘水市,窑上,,,,25,,3,,,76,,,6,,3,,0.3
2025-06-24T2100,2577A,104.83,26.5917,六盘水市,黄土坡,,16,14,13,10,7,50,,52,52,8,9,8,9,0.4,0.5
2025-06-24T2100,2578A,104.89,26.5939,六盘水市,水钢,,29,,27,20,17,56,,57,57,4,5,10,9,0.3,0.3
2025-06-24T2100,2579A,104.8475,26.5894,六盘水市,民中,,17,16,12,7,4,52,,54,54,6,7,8,8,0.3,0.4
2025-06-24T2100,2580A,104.9544,26.5506,六盘水市,双水,,,12,8,9,7,,,57,54,8,6,10,9,0.3,0.4
2025-06-24T2100,2335A,117.0189,25.1181,龙岩市,龙岩师专,,,,,,,,,,,,,,,,
2025-06-24T2100,2336A,117.0217,25.1033,龙岩市,龙岩市监测站,,20,18,23,14,11,56,,88,77,13,10,4,6,0.5,0.4
2025-06-24T2100,2337A,117.0258,25.0661,龙岩市,闽西职业技术学院,,32,32,27,10,11,33,,77,66,16,12,24,23,0.5,0.5
2025-06-24T2100,2338A,117.0196,25.0306,龙岩市,龙岩学院,,,,24,17,12,50,,79,67,7,6,5,4,0.5,0.3
2025-06-24T2100,2665A,105.0822,33.3261,陇南市,汉王镇固水子,,,,,,,,,,,,,,,,
2025-06-24T2100,2885A,104.9339,33.3826,陇南市,滨江中学,,29,,32,20,17,89,,102,99,10,5,5,4,0.6,0.6
2025-06-24T2100,3247A,104.955,33.371,陇南市,市总工会,,32,32,34,8,6,83,,112,105,9,6,6,6,0.7,0.6
2025-06-24T2100,2487A,111.9589,27.8901,娄底市,电视发射台,,10,10,12,3,2,25,,70,55,5,4,6,10,0.2,0.4
2025-06-24T2100,2488A,111.9975,27.725,娄底市,市监测站,,22,,16,15,11,53,,67,65,20,15,10,9,0.6,0.7
2025-06-24T2100,2489A,112.0194,27.7314,娄底市,市委党校,,21,12,13,7,7,65,,79,77,12,8,4,4,0.6,0.6
2025-06-24T2100,2490A,111.9561,27.7569,娄底市,涟钢,,26,26,15,13,8,60,,68,66,8,11,3,2,0.3,0.5
2025-06-24T2100,2491A,111.9892,27.7044,娄底市,市政府,,20,20,16,11,10,54,,85,80,9,7,5,5,0.5,0.5
2025-06-24T2100,1893A,105.4324,28.9634,泸州市,九狮山,,33,,43,23,32,55,,71,61,19,27,4,6,0.4,0.6
2025-06-24T2100,1894A,105.4427,28.9063,泸州市,小市上码头,,16,13,37,7,21,50,,72,59,13,15,12,14,0.7,0.7
2025-06-24T2100,1895A,105.4241,28.8573,泸州市,兰田宪桥,,24,24,39,3,24,55,,63,62,8,17,7,8,0.7,0.7
2025-06-24T2100,1896A,105.4379,28.8833,泸州市,市环监站,,17,17,39,9,25,50,,67,55,14,18,8,9,0.4,0.4
2025-06-24T2100,4272A,105.3689,28.7783,泸州市,纳溪中医医院,,,,33,,26,,,66,63,17,24,4,4,0.7,0.9
2025-06-24T2100,2183A,111.1406,37.5211,吕梁市,环保局,颗粒物(PM10),96,141,77,44,29,162,,199,198,32,27,6,7,0.7,0.5
2025-06-24T2100,2185A,111.1297,37.5136,吕梁市,自来水公司,颗粒物(PM10),63,75,57,30,25,132,,191,186,32,21,6,8,0.8,0.5
2025-06-24T2100,2867A,111.1283,37.51,吕梁市,马茂庄小学,颗粒物(PM10),64,77,66,37,26,109,,187,181,55,31,5,7,0.7,0.5
2025-06-24T2100,1812A,112.3931,34.6516,洛阳市,市委党校,,50,40,47,23,33,157,,170,166,14,21,6,12,0.5,0.6
2025-06-24T2100,1815A,112.494,34.6886,洛阳市,河南林校,,49,41,49,30,28,154,,177,169,13,19,4,7,0.4,0.5
2025-06-24T2100,1816A,112.3844,34.623,洛阳市,开发区管委会,臭氧1小时,63,35,42,22,29,170,,183,178,13,15,8,14,0.5,0.5
2025-06-24T2100,1817A,112.4267,34.6258,洛阳市,市委新办公区,臭氧1小时,53,51,55,21,28,162,,175,171,12,13,8,12,0.4,0.5
2025-06-24T2100,3340A,112.6005,34.6326,洛阳市,伊滨,,,44,57,24,30,,,171,168,12,20,4,7,0.4,0.5
2025-06-24T2100,3341A,112.4951,34.6332,洛阳市,中移产业园,,50,40,52,23,27,159,,172,167,12,20,6,9,0.6,0.6
2025-06-24T2100,3593A,112.5736,34.8993,洛阳市,吉利监测站,,45,35,45,24,24,142,,178,172,17,16,7,8,0.4,0.4
2025-06-24T2100,3635A,112.3677,34.662,洛阳市,河科大西苑校区,臭氧1小时,67,40,48,17,22,173,,181,178,9,20,7,11,0.4,0.5
2025-06-24T2100,3636A,112.4388,34.6781,洛阳市,英才小学,,50,42,49,25,28,157,,168,165,14,18,7,10,0.7,0.7
2025-06-24T2100,4214A,112.4600,34.6949,洛阳市,春都路1号院,,48,41,46,20,24,152,,174,168,13,18,2,5,0.6,0.7
2025-06-24T2100,2399A,114.051,33.5699,漯河市,三五一五工厂,细颗粒物(PM2.5),53,43,28,37,22,143,,194,185,23,15,6,5,0.6,0.6
2025-06-24T2100,2400A,114.0055,33.5698,漯河市,漯河大学,,,42,33,,18,158,,195,190,22,16,4,5,0.4,0.4
2025-06-24T2100,2401A,114.0138,33.5828,漯河市,市水利局,,48,48,31,27,20,151,,192,186,19,13,6,5,0.6,0.6
2025-06-24T2100,2402A,114.0261,33.5698,漯河市,市广电局,,48,44,32,23,19,152,,197,190,20,12,2,3,0.6,0.5
2025-06-24T2100,3478A,113.9749,33.5664,漯河市,市图书馆,,47,42,47,19,21,150,,192,186,23,17,3,4,0.4,0.4
2025-06-24T2100,4250A,114.0892,33.5882,漯河市,韶山路11号,颗粒物(PM10),54,57,42,31,21,126,,191,178,38,21,4,3,0.6,0.5
2025-06-24T2100,1798A,118.5092,31.6837,马鞍山市,湖东路四小,,35,25,29,24,15,102,,159,142,16,14,6,7,0.5,0.5
2025-06-24T2100,1799A,118.5024,31.6449,马鞍山市,开发区,,35,35,30,20,14,95,,155,141,22,14,6,6,0.6,0.6
2025-06-24T2100,1802A,118.6245,31.7241,马鞍山市,濮塘,,33,26,23,16,15,103,,139,128,5,7,8,8,0.7,0.7
2025-06-24T2100,3633A,118.4918,31.6809,马鞍山市,雨山,,,32,26,17,14,,,155,148,19,13,7,7,0.5,0.5
2025-06-24T2100,4191A,118.5274,31.72227,马鞍山市,慈湖高新区,,34,34,24,21,15,98,,151,136,16,14,5,6,0.5,0.5
2025-06-24T2100,1686A,111.0286,21.4688,茂名市,电白南海,,14,9,13,9,8,42,,47,44,7,4,2,2,0.6,0.5
2025-06-24T2100,1687A,110.9294,21.6533,茂名市,茂石化七小,,22,22,17,3,4,35,,47,43,8,5,2,3,0.4,0.3
2025-06-24T2100,1688A,110.9107,21.6687,茂名市,健康路,,14,12,12,3,7,42,,52,49,9,7,2,3,0.4,0.1
2025-06-24T2100,1689A,110.8592,21.6828,茂名市,高岭,,27,27,21,7,3,36,,49,46,13,10,4,4,0.3,0.2
2025-06-24T2100,3450A,111.01,21.5165,茂名市,电白水东,,14,7,9,3,3,44,,46,45,5,4,4,4,0.3,0.3
2025-06-24T2100,2539A,104.0308,30.0478,眉山市,黑龙滩水库,,26,,11,18,23,75,,90,69,6,9,1,2,0.5,0.6
2025-06-24T2100,2540A,103.8416,30.0874,眉山市,气象局,,24,14,19,7,12,75,,94,78,13,15,3,3,0.3,0.4
2025-06-24T2100,3137A,103.8578,30.0744,眉山市,市委党校,,,6,13,3,7,,,94,78,12,15,4,4,0.6,0.7
2025-06-24T2100,3148A,103.8291,30.0564,眉山市,区人社局,,32,32,31,3,7,78,,99,79,15,16,7,8,0.5,0.6
2025-06-24T2100,1690A,116.1231,24.3284,梅州市,梅江月梅,,25,25,18,12,11,60,,80,74,5,8,6,7,0.6,0.6
2025-06-24T2100,1691A,116.0797,24.2719,梅州市,梅县新城,,28,28,20,3,8,18,,75,65,25,11,6,6,0.7,0.5
2025-06-24T2100,1692A,116.1248,24.2654,梅州市,环境监控中心,,15,,18,6,10,27,,70,60,30,13,3,4,0.3,0.3
2025-06-24T2100,3315A,116.1233,24.2991,梅州市,梅龙,,,,18,,10,,,78,75,19,7,10,7,0.5,0.4
2025-06-24T2100,1878A,104.7778,31.4741,绵阳市,富乐山,,28,20,21,19,12,58,,69,64,6,13,8,8,0.4,0.5
2025-06-24T2100,1880A,104.6697,31.4668,绵阳市,高新区自来水公司,,,16,23,7,7,,,77,65,10,14,7,7,0.3,0.6
2025-06-24T2100,1881A,104.7287,31.5075,绵阳市,三水厂,,,,25,11,15,78,,67,67,6,17,7,8,,0.7
2025-06-24T2100,3491A,104.69,31.5322,绵阳市,西科大附属小学,,25,14,21,8,13,78,,69,66,7,16,7,8,0.2,0.3
2025-06-24T2100,3492A,104.5648,31.5343,绵阳市,安州区旅游局,,18,8,11,3,7,55,,76,68,10,10,9,8,0.3,0.4
2025-06-24T2100,4226A,104.7651,31.4531,绵阳市,绵阳市气象局,,,,23,,12,,,82,,,12,,10,,0.4
2025-06-24T2100,1784A,129.61,44.561,牡丹江市,环保大楼,,41,41,31,13,15,109,,182,164,20,22,3,5,0.4,0.4
2025-06-24T2100,1785A,129.6115,44.5782,牡丹江市,文化广场,,,20,28,16,17,,,186,178,21,25,4,5,,0.4
2025-06-24T2100,1786A,129.5904,44.5963,牡丹江市,第一医院,颗粒物(PM10),62,74,36,33,20,94,,127,,32,27,8,7,0.7,0.5
2025-06-24T2100,1787A,129.6364,44.6075,牡丹江市,机车工厂,颗粒物(PM10),57,63,37,16,10,101,,186,167,21,23,11,7,0.5,0.4
2025-06-24T2100,1788A,129.6386,44.5462,牡丹江市,第一中学,,38,38,27,19,13,94,,179,149,15,16,5,6,0.4,0.4
2025-06-24T2100,2531A,105.0703,29.61,内江市,市监测站,,20,17,21,10,14,61,,73,57,10,17,6,6,0.7,0.7
2025-06-24T2100,2532A,105.0717,29.5947,内江市,东兴区政府,,19,9,19,3,9,60,,80,56,10,16,3,2,0.5,0.5
2025-06-24T2100,2533A,105.0653,29.5817,内江市,内江二中,,22,22,23,10,17,60,,80,56,10,15,8,8,0.5,0.5
2025-06-24T2100,2534A,105.0406,29.5822,内江市,内江日报社,,24,24,19,9,14,54,,75,56,11,13,9,9,0.4,0.3
2025-06-24T2100,2628A,92.0657,31.4846,那曲市,那曲监测站,,38,34,18,12,8,119,,132,132,18,10,6,12,0.3,0.2
2025-06-24T2100,4243A,92.0515,31.4787,那曲市,那曲市委宣传部,,45,25,10,13,6,142,,140,140,7,7,8,8,0.3,0.2
2025-06-24T2100,1290A,115.8931,28.6843,南昌市,省外办,,,16,14,14,11,,,92,92,16,16,3,2,0.6,0.7
2025-06-24T2100,1291A,115.8886,28.7003,南昌市,省林业公司,,23,12,8,7,6,72,,89,87,12,12,8,9,0.7,0.7
2025-06-24T2100,1292A,115.8126,28.7442,南昌市,林科所,,14,12,5,3,2,42,,81,73,9,7,4,4,0.6,0.6
2025-06-24T2100,1294A,115.8518,28.687,南昌市,建工学校,,24,11,14,10,16,74,,90,88,9,8,6,7,0.6,0.6
2025-06-24T2100,1295A,115.8921,28.6424,南昌市,象湖,,22,22,10,9,5,59,,86,84,20,12,6,6,0.9,0.8
2025-06-24T2100,1296A,115.7423,28.7996,南昌市,武术学校,,12,12,16,7,10,14,,66,48,2,2,7,7,0.7,0.5
2025-06-24T2100,3046A,115.9084,28.6062,南昌市,机电学校,,19,14,16,7,7,58,,80,79,14,12,3,3,0.8,0.7
2025-06-24T2100,3690A,115.9721,28.7031,南昌市,外国语学校,,22,13,11,8,5,70,,94,91,10,7,9,9,0.8,0.7
2025-06-24T2100,4192A,115.9316,28.68677,南昌市,南京东路235号,,34,34,18,8,3,70,,90,88,17,14,3,4,0.8,0.6
2025-06-24T2100,1905A,106.056,30.8064,南充市,西山风景区,,,,,,,,,,,,,,,,
2025-06-24T2100,1906A,106.0789,30.8023,南充市,南充市委,,23,23,22,11,11,66,,94,84,11,14,4,5,0.4,0.4
2025-06-24T2100,1907A,106.1031,30.8217,南充市,南充炼油厂,,23,21,27,16,17,66,,86,78,6,13,5,6,0.2,0.3
2025-06-24T2100,4227A,106.1083,30.7884,南充市,梨树横街98号,,30,30,29,16,13,66,,89,82,8,11,3,4,0.3,0.3
2025-06-24T2100,4304A,106.1172,30.843,南充市,清泉寺北路188号,,31,31,28,16,14,60,,88,78,6,10,3,3,0.3,0.3
2025-06-24T2100,4305A,106.067,30.7616,南充市,同庆路1号,,20,20,23,12,14,64,,89,80,10,13,3,4,0.2,0.3
2025-06-24T2100,1151A,118.8086,32.1065,南京市,迈皋桥,,27,27,19,14,11,81,,121,112,16,10,4,4,0.7,0.5
2025-06-24T2100,1152A,118.7538,32.0551,南京市,草场门,,29,29,23,12,14,92,,130,120,14,16,5,3,0.4,0.4
2025-06-24T2100,1153A,118.7794,32.0745,南京市,山西路,,31,27,25,12,9,97,,138,129,15,12,3,4,0.2,0.2
2025-06-24T2100,1154A,118.7752,32.0023,南京市,中华门,,29,19,19,12,11,92,,127,116,12,15,7,8,0.7,0.7
2025-06-24T2100,1155A,118.8109,32.0309,南京市,瑞金路,,29,19,19,17,12,90,,129,118,8,7,6,6,0.3,0.4
2025-06-24T2100,1156A,118.7997,32.0754,南京市,玄武湖,,28,19,24,3,5,88,,118,110,10,11,4,4,0.5,0.5
2025-06-24T2100,1157A,118.6414,32.0931,南京市,浦口,,35,35,28,12,13,84,,124,115,19,16,4,5,0.2,0.3
2025-06-24T2100,1158A,118.7356,31.9996,南京市,奥体中心,,32,,23,22,12,97,,136,125,16,16,4,4,0.3,0.2
2025-06-24T2100,1159A,118.9125,32.1028,南京市,仙林大学城,,30,24,27,9,9,93,,128,119,11,10,5,6,0.5,0.5
2025-06-24T2100,3422A,118.8436,31.9198,南京市,江宁彩虹桥,,32,31,21,22,12,88,,124,114,20,13,3,3,0.6,0.5
2025-06-24T2100,3427A,118.8554,32.3578,南京市,六合雄州,,42,42,28,21,14,94,,124,118,28,22,4,4,0.6,0.5
2025-06-24T2100,4249A,118.8708,31.3402,南京市,汶溪路181号,,38,,19,20,17,121,,123,122,13,15,6,5,0.4,0.5
2025-06-24T2100,4312A,119.019,31.6512,南京市,中山西路1号,,33,29,18,23,13,88,,105,103,12,10,4,4,0.6,0.6
2025-06-24T2100,1401A,108.3103,22.7881,南宁市,二十一中,,18,,18,6,8,57,,68,66,9,9,2,1,0.5,0.5
2025-06-24T2100,1402A,108.3141,22.8528,南宁市,北湖,,28,28,18,12,8,57,,74,69,9,8,4,4,0.5,0.4
2025-06-24T2100,1403A,108.3206,22.8225,南宁市,市监测站,,20,,20,14,12,55,,67,64,7,7,8,6,0.5,0.5
2025-06-24T2100,1404A,108.3829,22.8037,南宁市,大自然花园,,25,19,19,13,11,77,,81,80,8,6,6,5,0.5,0.4
2025-06-24T2100,1405A,108.4394,22.7904,南宁市,仙葫,,26,23,18,9,9,82,,81,81,8,7,6,6,0.7,0.6
2025-06-24T2100,1406A,108.2397,22.8467,南宁市,区农职院,,29,29,20,16,9,57,,79,75,13,10,6,4,0.4,0.4
2025-06-24T2100,1407A,108.3275,22.735,南宁市,英华嘉园,,19,12,19,8,11,60,,73,72,12,11,9,7,0.6,0.5
2025-06-24T2100,3401A,108.4834,22.7618,南宁市,红星社区,,30,30,21,7,11,81,,82,82,8,6,3,2,0.6,0.6
2025-06-24T2100,4221A,108.2177,22.7774,南宁市,乐贤路16号,,19,18,20,13,10,55,,72,70,18,13,7,6,0.7,0.6
2025-06-24T2100,2331A,118.0966,26.6761,南平市,茫荡山,,,,,,,,,,,,,,,,
2025-06-24T2100,2332A,118.1681,26.6369,南平市,南平市监测站,,21,21,18,13,12,56,,94,84,7,8,4,5,0.5,0.6
2025-06-24T2100,2333A,118.1825,26.6489,南平市,南平铝业有限公司,,20,12,19,3,2,64,,96,87,5,8,4,5,0.6,0.7
2025-06-24T2100,2334A,118.1756,26.6272,南平市,南平七中,,20,19,20,11,11,61,,96,87,6,6,12,6,0.6,0.5
2025-06-24T2100,1168A,120.9098,31.9663,南通市,狼山街道,,22,19,14,9,7,70,,118,110,13,6,3,3,0.6,0.6
2025-06-24T2100,1169A,120.86,32.0005,南通市,虹桥,,28,23,14,13,10,87,,114,111,24,12,2,1,0.7,0.6
2025-06-24T2100,1170A,120.87,32.02,南通市,城中,,30,27,17,14,8,96,,113,111,14,8,2,3,0.8,0.7
2025-06-24T2100,1171A,120.94,31.93,南通市,星湖花园,,28,21,11,15,11,88,,112,108,18,10,2,2,0.8,0.6
2025-06-24T2100,1172A,120.81,32.0417,南通市,紫琅学院,,26,23,16,6,4,82,,114,108,21,8,4,4,0.6,0.5
2025-06-24T2100,3291A,121.067,32.062,南通市,通州监测站,,34,14,10,12,6,108,,120,118,7,3,5,5,0.6,0.5
2025-06-24T2100,3432A,120.9348,31.9883,南通市,环境教育馆,,21,17,19,12,6,65,,119,111,28,8,2,2,0.2,0.1
2025-06-24T2100,2404A,112.5224,33.0122,南阳市,瓦房庄,,39,33,41,14,22,122,,175,159,18,14,6,6,0.5,0.6
2025-06-24T2100,2405A,112.5003,32.9735,南阳市,汉画馆,,35,24,37,9,18,111,,171,153,24,17,6,6,0.5,0.6
2025-06-24T2100,2406A,112.5573,33.027,南阳市,气象站,,37,25,34,9,17,118,,175,160,21,12,6,6,0.4,0.5
2025-06-24T2100,2407A,112.5481,32.9689,南阳市,理工学院,,36,27,36,13,22,113,,168,153,22,13,6,5,0.4,0.4
2025-06-24T2100,4008A,112.5234,32.9922,南阳市,卧龙区政府,,,,36,,20,,,178,168,20,12,5,4,0.4,0.5
2025-06-24T2100,1234A,121.8358,29.911,宁波市,区环保大楼,,36,36,29,14,14,91,,112,112,39,38,4,5,0.8,0.7
2025-06-24T2100,1235A,121.56,29.82,宁波市,万里学院,细颗粒物(PM2.5),59,,18,42,20,82,,89,89,29,23,2,3,0.8,0.8
2025-06-24T2100,1236A,121.713,29.9572,宁波市,龙赛医院,,36,36,23,9,11,87,,107,107,42,31,5,4,0.7,0.6
2025-06-24T2100,1239A,121.633,29.7733,宁波市,钱湖水厂,,27,27,17,18,12,80,,96,96,8,12,4,4,0.5,0.5
2025-06-24T2100,1240A,121.5856,29.8635,宁波市,太古小学,,40,40,21,20,13,90,,95,95,21,17,4,4,0.8,0.7
2025-06-24T2100,1241A,121.524,29.8674,宁波市,市环境监测中心,细颗粒物(PM2.5),53,38,27,37,15,97,,89,89,21,20,4,4,0.9,0.8
2025-06-24T2100,2871A,121.6147,29.9017,宁波市,万里国际学校,,36,36,28,17,13,91,,96,96,23,21,4,3,0.7,0.7
2025-06-24T2100,3710A,121.5594,29.8975,宁波市,白沙活动中心,,32,25,17,22,12,89,,94,94,21,17,3,3,0.6,0.5
2025-06-24T2100,2339A,119.5001,26.6946,宁德市,金涵水库,,,,,,,,,,,,,,,,
2025-06-24T2100,2341A,119.5388,26.6612,宁德市,宁德市监测站,,32,19,27,18,15,101,,150,147,14,16,4,4,0.7,0.7
2025-06-24T2100,3209A,119.5231,26.6562,宁德市,宁德一中,,32,31,28,22,16,97,,153,147,10,9,4,5,0.4,0.5
2025-06-24T2100,2618A,98.8601,25.8567,怒江傈僳族自治州,州监测站,,19,15,16,13,11,37,,43,42,6,6,8,7,0.4,0.4
2025-06-24T2100,2619A,98.8546,25.8417,怒江傈僳族自治州,泸水一中,,14,14,13,9,6,18,,30,28,9,9,5,5,0.4,0.4
2025-06-24T2100,1888A,101.6891,26.571,攀枝花市,弄弄坪,,48,48,43,3,12,35,,55,48,14,19,10,14,0.8,0.9
2025-06-24T2100,1889A,101.5769,26.5928,攀枝花市,河门口,,16,16,23,3,9,42,,63,60,8,16,6,8,0.5,0.9
2025-06-24T2100,1890A,101.7169,26.585,攀枝花市,炳草岗,颗粒物(PM10),51,52,40,7,12,34,,49,45,14,24,10,15,0.8,0.9
2025-06-24T2100,1891A,101.7369,26.5008,攀枝花市,仁和,,17,17,16,7,8,37,,38,36,6,8,7,8,0.5,0.5
2025-06-24T2100,2835A,101.7227,26.567,攀枝花市,四十中小,,37,37,29,19,16,38,,54,47,14,17,12,18,0.7,0.8
2025-06-24T2100,1604A,122.0303,41.1489,盘锦市,开发区,,46,45,31,25,23,145,,181,178,34,22,5,6,0.7,0.6
2025-06-24T2100,1605A,122.0485,41.0883,盘锦市,兴隆台,,46,36,33,18,21,146,,167,165,34,24,4,6,0.4,0.4
2025-06-24T2100,1606A,121.8297,41.1028,盘锦市,新生街道,,36,35,27,25,17,97,,172,163,21,15,6,7,0.6,0.5
2025-06-24T2100,1832A,113.3257,33.742,平顶山市,新华旅馆,,50,39,43,30,27,159,,198,194,17,15,5,5,0.4,0.5
2025-06-24T2100,1833A,113.2919,33.737,平顶山市,规划设计院,,49,41,45,23,28,155,,191,187,19,13,5,6,0.5,0.5
2025-06-24T2100,1834A,113.182,33.774,平顶山市,平顶山工学院,,49,45,40,22,25,156,,196,192,14,10,2,2,0.4,0.4
2025-06-24T2100,3204A,113.3025,33.73,平顶山市,规划局,,,,40,,22,,,202,202,,13,,5,,0.5
2025-06-24T2100,3594A,112.8867,33.9116,平顶山市,石龙区,臭氧1小时,67,54,61,32,30,173,,195,193,18,21,7,8,0.5,0.5
2025-06-24T2100,2656A,106.6692,35.5461,平凉市,聚贤嘉苑,,32,29,41,11,17,102,,115,111,12,27,8,8,0.7,0.8
2025-06-24T2100,2657A,106.7021,35.5307,平凉市,博物馆,,33,33,47,17,20,91,,124,119,28,23,12,12,0.7,0.8
2025-06-24T2100,2347A,114.0997,27.5002,萍乡市,武功山,,7,6,4,3,3,19,,44,35,2,3,19,19,0.2,0.3
2025-06-24T2100,2348A,113.8385,27.6434,萍乡市,中医院,颗粒物(PM10),53,55,28,26,19,15,,35,31,24,17,12,13,1.4,1.2
2025-06-24T2100,2349A,113.8493,27.6253,萍乡市,市政府车库,,28,27,19,19,20,21,,36,35,23,18,6,10,1.0,0.8
2025-06-24T2100,2350A,113.8676,27.6435,萍乡市,市环保局,,,49,62,,16,,,38,38,,17,8,9,1.2,1.2
2025-06-24T2100,2351A,113.866,27.6198,萍乡市,安源区政府,,19,19,23,12,17,15,,38,36,13,16,8,8,0.7,0.9
2025-06-24T2100,2319A,119.0141,25.4325,莆田市,荔城区仓后路,,25,22,38,17,18,57,,143,103,10,14,3,4,0.5,0.5
2025-06-24T2100,2320A,119.0015,25.4553,莆田市,莆田市监测站,,22,,32,7,18,68,,141,111,5,13,3,5,0.3,0.4
2025-06-24T2100,2321A,119.1119,25.4561,莆田市,涵江区六中,,27,27,31,12,19,48,,120,90,12,14,3,2,0.5,0.5
2025-06-24T2100,2322A,119.1013,25.3215,莆田市,秀屿区政府,,32,32,25,22,15,51,,112,84,20,11,8,6,0.6,0.6
2025-06-24T2100,2323A,118.981,25.4792,莆田市,东圳水库,,,,,,,,,,,,,,,,
2025-06-24T2100,2392A,115.0312,35.7636,濮阳市,环保局,臭氧1小时,87,42,31,23,24,189,,212,210,15,13,5,7,0.4,0.4
2025-06-24T2100,2394A,115.0574,35.7609,濮阳市,油田运输公司,臭氧1小时,78,48,47,15,21,182,,206,203,19,19,5,7,0.5,0.5
2025-06-24T2100,3021A,115,35.7668,濮阳市,濮水河管理处,,,,45,,26,,,188,180,46,25,5,5,0.5,0.4
2025-06-24T2100,4216A,115.0924,35.7686,濮阳市,任丘路479号,颗粒物(PM10),54,58,53,28,25,162,,199,194,21,15,7,7,0.7,0.7
2025-06-24T2100,2601A,100.98,22.7633,普洱市,市环保局,,45,,26,31,10,34,,39,39,5,3,4,4,0.5,0.5
2025-06-24T2100,2602A,100.9817,22.8322,普洱市,普洱第二中学,,30,30,20,17,14,26,,40,39,10,5,6,6,0.6,0.5
2025-06-24T2100,2262A,131.0518,45.8751,七台河市,新一中,细颗粒物(PM2.5),83,,30,61,23,62,,204,172,30,13,11,11,1.1,0.9
2025-06-24T2100,3345A,131.0577,45.7879,七台河市,中波台,,43,43,20,8,8,74,,159,140,54,18,8,7,0.4,0.3
2025-06-24T2100,3637A,131.0176,45.7761,七台河市,人民广场,细颗粒物(PM2.5),80,89,43,59,27,43,,160,136,58,19,13,12,1.0,0.6
2025-06-24T2100,3684A,130.8781,45.8222,七台河市,新建矿广场,,49,46,44,34,18,60,,180,152,37,21,11,11,0.5,0.5
2025-06-24T2100,1779A,123.9305,47.3636,齐齐哈尔市,安居小区,颗粒物(PM10),54,57,40,9,19,126,,158,154,22,18,11,10,0.7,0.6
2025-06-24T2100,1780A,123.9488,47.3386,齐齐哈尔市,中心广场,臭氧1小时,68,60,44,29,15,174,,166,166,23,17,9,8,0.7,0.6
2025-06-24T2100,1781A,123.9483,47.3227,齐齐哈尔市,农牧车辆厂,颗粒物(PM10),59,68,42,15,16,120,,156,152,19,15,9,7,0.1,0.1
2025-06-24T2100,1783A,123.945,47.2988,齐齐哈尔市,市环境监测站,,50,50,35,22,18,120,,162,158,14,14,3,4,0.4,0.3
2025-06-24T2100,3662A,123.6333,47.2075,齐齐哈尔市,富区青少年活动中心,颗粒物(PM10),59,68,42,36,24,156,,175,175,12,13,4,5,0.6,0.5
2025-06-24T2100,2591A,107.9783,26.5747,黔东南苗族侗族自治州,市环境监测站,,14,14,8,8,5,14,,41,31,14,7,3,2,0.7,0.6
2025-06-24T2100,2881A,107.8908,26.5311,黔东南苗族侗族自治州,凯里学院,,17,17,5,7,6,22,,47,39,13,7,2,2,0.5,0.4
2025-06-24T2100,2593A,107.5228,26.2403,黔南布依族苗族自治州,小围寨,,7,7,4,3,1,20,,26,26,2,6,2,2,0.3,0.4
2025-06-24T2100,3538A,107.5175,26.2978,黔南布依族苗族自治州,沙坝,,19,19,10,3,1,17,,18,18,5,9,5,5,0.6,0.7
2025-06-24T2100,2589A,104.9022,25.0925,黔西南布依族苗族自治州,场坝街,,21,21,13,7,6,41,,47,46,5,5,3,3,0.3,0.3
2025-06-24T2100,2590A,104.8811,25.0992,黔西南布依族苗族自治州,坪东大道,,26,20,15,18,8,31,,37,35,7,7,1,1,0.2,0.1
2025-06-24T2100,2502A,108.6236,21.9667,钦州市,市环保站,,,19,15,7,5,,,68,64,9,9,4,3,0.4,0.3
2025-06-24T2100,2503A,108.6549,21.9481,钦州市,沙埠小学,,18,18,28,12,11,42,,70,61,13,17,3,2,0.3,0.4
2025-06-24T2100,2504A,108.5989,21.7431,钦州市,港区一小,,36,36,25,11,8,46,,58,54,18,12,2,2,0.4,0.4
2025-06-24T2100,3404A,108.5959,21.9633,钦州市,北职校,,29,29,22,19,9,41,,66,58,11,7,4,3,0.3,0.3
2025-06-24T2100,1043A,119.7493,40.0116,秦皇岛市,第一关,细颗粒物(PM2.5),60,45,52,43,28,159,,185,185,9,33,8,6,0.3,0.3
2025-06-24T2100,1044A,119.5897,39.9499,秦皇岛市,监测站,,,75,60,29,25,,,175,175,19,24,6,5,0.4,0.5
2025-06-24T2100,1046A,119.5251,39.9041,秦皇岛市,建设大厦,,46,46,65,14,27,142,,163,163,18,26,7,5,0.4,0.5
2025-06-24T2100,3132A,119.610547,39.943889,秦皇岛市,文明里,,46,46,63,18,28,138,,163,163,14,16,7,6,0.3,0.3
2025-06-24T2100,4198A,119.5090,39.8253,秦皇岛市,北戴河轮滑馆,,43,43,49,21,23,126,,156,156,17,13,4,3,0.3,0.3
2025-06-24T2100,1307A,120.6659,36.2403,青岛市,仰口,,30,24,24,12,11,96,,109,103,6,9,6,7,0.5,0.4
2025-06-24T2100,1310A,120.4134,36.0658,青岛市,市南区东部子站,,24,17,18,7,11,74,,93,93,27,22,9,10,0.3,0.3
2025-06-24T2100,1311A,120.3664,36.1032,青岛市,四方区子站,,28,14,22,14,15,88,,123,105,24,24,7,10,0.4,0.4
2025-06-24T2100,1312A,120.2994,36.054,青岛市,市南区西部子站,,35,24,24,12,14,47,,88,72,70,40,10,10,0.4,0.5
2025-06-24T2100,1313A,120.4581,36.0858,青岛市,崂山区子站,,27,17,18,17,10,86,,94,93,23,28,8,9,0.3,0.3
2025-06-24T2100,1315A,120.3999,36.3083,青岛市,城阳区子站,,41,41,31,12,15,61,,155,130,56,27,7,6,0.4,0.3
2025-06-24T2100,1966A,120.0405,35.8735,青岛市,黄岛区4号,,31,24,25,3,10,97,,122,113,29,22,9,10,0.7,0.7
2025-06-24T2100,3362A,120.5014,36.4034,青岛市,即墨2号,,35,27,27,11,11,110,,124,115,7,15,2,2,0.2,0.2
2025-06-24T2100,3642A,120.3503,36.0736,青岛市,市北区南部,,28,7,23,3,20,89,,99,95,20,22,9,9,0.3,0.4
2025-06-24T2100,3643A,120.3948,36.1805,青岛市,李沧区北部,,,34,28,14,15,,,125,106,42,24,8,9,0.6,0.5
2025-06-24T2100,4290A,120.1969,35.9546,青岛市,珠江路669号,,35,29,20,10,11,111,,124,121,20,19,9,8,0.4,0.3
2025-06-24T2100,1702A,113.0426,23.691,清远市,环保大楼,,26,17,11,11,12,82,,122,118,19,12,6,6,0.6,0.4
2025-06-24T2100,1703A,113.0208,23.7106,清远市,凤城街办,,35,35,22,18,11,82,,110,109,16,15,6,7,0.4,0.3
2025-06-24T2100,3025A,113.0477,23.6344,清远市,技师学院,,50,50,23,25,10,67,,114,109,38,13,8,8,0.5,0.4
2025-06-24T2100,3318A,112.9903,23.7403,清远市,清新太和,,26,26,25,11,12,83,,104,104,12,13,8,8,0.4,0.4
2025-06-24T2100,3455A,113.076,23.7198,清远市,清城东城,,37,37,23,16,11,64,,112,107,22,12,8,8,0.3,0.2
2025-06-24T2100,2661A,107.6325,35.7357,庆阳市,庆阳五中,,35,25,35,16,20,111,,146,133,8,10,5,8,0.4,0.4
2025-06-24T2100,2662A,107.6364,35.7067,庆阳市,市环保局,,35,35,35,20,17,109,,147,134,11,8,8,12,0.5,0.5
2025-06-24T2100,1916A,103.7897,25.5035,曲靖市,环境监测站,,48,48,13,3,3,34,,44,44,6,6,3,3,0.4,0.5
2025-06-24T2100,1917A,103.8,25.5364,曲靖市,烟厂办公区,颗粒物(PM10),51,52,12,9,6,37,,50,48,7,4,4,3,0.5,0.5
2025-06-24T2100,3376A,103.7947,25.462,曲靖市,南苑二区,,13,9,6,6,4,39,,48,48,6,5,4,4,0.5,0.5
2025-06-24T2100,3377A,103.7444,25.5261,曲靖市,曲靖师范学院,,25,25,8,6,3,39,,50,49,7,5,7,5,0.3,0.3
2025-06-24T2100,1264A,118.8692,28.9398,衢州市,环保大楼,,14,6,15,3,8,42,,47,47,6,9,4,4,0.4,0.3
2025-06-24T2100,1265A,118.8709,28.9666,衢州市,实验学校,,14,7,14,3,9,42,,54,53,9,9,2,3,0.3,0.2
2025-06-24T2100,1266A,118.8621,28.9808,衢州市,衢州学院,,11,8,12,6,9,34,,58,56,19,11,3,4,0.5,0.4
2025-06-24T2100,1611A,118.5819,24.9117,泉州市,涂山街,,38,38,38,14,18,64,,139,106,21,22,3,6,0.6,0.6
2025-06-24T2100,1612A,118.5972,24.8978,泉州市,津头埔,,36,36,34,10,16,71,,134,103,19,21,2,4,0.5,0.5
2025-06-24T2100,1613A,118.6663,24.9424,泉州市,万安,,,,34,,15,,,129,101,19,16,3,3,,0.5
2025-06-24T2100,1614A,118.6117,24.9604,泉州市,清源山,,,,,,,,,,,,,,,,
2025-06-24T2100,3529A,118.6333,24.9264,泉州市,城华南路,,21,21,31,10,16,63,,126,96,16,17,4,5,0.4,0.5
2025-06-24T2100,2626A,88.8876,29.2718,日喀则市,日喀则监测站,,42,19,7,8,4,133,,136,136,7,6,13,13,0.3,0.3
2025-06-24T2100,3726A,88.8781,29.2426,日喀则市,林业技术推广中心,,41,14,9,3,2,130,,132,132,3,3,9,9,0.4,0.4
2025-06-24T2100,1659A,119.471,35.4209,日照市,监测站,,39,39,29,16,15,68,,137,127,56,38,8,9,0.6,0.7
2025-06-24T2100,1660A,119.523,35.4216,日照市,市政府广场,,30,29,30,16,10,96,,123,121,37,27,14,10,0.9,0.7
2025-06-24T2100,1661A,119.5587,35.4044,日照市,港务局,,32,29,38,20,18,102,,133,132,28,24,9,9,0.9,0.7
2025-06-24T2100,3507A,119.5328,35.4625,日照市,职业技术学院,,36,36,33,12,12,106,,142,140,24,23,6,7,0.8,0.6
2025-06-24T2100,3604A,119.3266,35.1044,日照市,岚山环保分局,,36,36,28,9,8,89,,131,125,34,20,8,9,0.6,0.7
2025-06-24T2100,1835A,111.1922,34.7752,三门峡市,市政府,,,,45,,26,,,179,179,20,14,6,8,0.5,0.5
2025-06-24T2100,1836A,111.1587,34.7942,三门峡市,开发区,颗粒物(PM10),51,52,47,27,27,159,,184,182,24,17,8,8,0.5,0.5
2025-06-24T2100,1838A,111.143,34.7955,三门峡市,风景区,臭氧1小时,60,41,42,26,24,168,,194,192,15,9,10,10,0.4,0.4
2025-06-24T2100,3039A,111.1911,34.7829,三门峡市,三门峡市第一小学,,49,46,43,26,22,156,,182,179,20,14,8,10,0.7,0.7
2025-06-24T2100,3598A,111.1,34.7167,三门峡市,富达温泉假日酒店,臭氧1小时,62,32,31,23,24,169,,175,174,9,12,9,10,0.3,0.3
2025-06-24T2100,2324A,117.6211,26.2625,三明市,三钢,,36,36,23,19,19,34,,90,72,19,14,4,8,0.8,1.2
2025-06-24T2100,2325A,117.635,26.2714,三明市,三明二中,,20,20,20,14,11,41,,88,70,14,12,1,2,0.6,0.7
2025-06-24T2100,2326A,117.6028,26.2378,三明市,三元区政府,,18,16,22,12,11,51,,98,82,9,9,5,7,0.4,0.1
2025-06-24T2100,2327A,117.7275,26.3108,三明市,洋溪,,,,,,,,,,,,,,,,
2025-06-24T2100,1876A,109.5078,18.2489,三亚市,河东子站,,18,18,14,6,6,37,,51,45,3,4,4,3,0.3,0.4
2025-06-24T2100,1877A,109.4964,18.2681,三亚市,河西子站,,,10,14,9,6,,,52,46,5,8,2,2,,0.3
2025-06-24T2100,3540A,109.7348,18.3443,三亚市,君悦子站,,15,10,11,3,6,46,,56,52,2,4,2,2,0.3,0.2
2025-06-24T2100,2624A,91.7608,29.2313,山南市,山南监测站,,36,6,4,3,3,113,,118,118,7,6,3,3,0.3,0.3
2025-06-24T2100,2625A,91.7706,29.2436,山南市,山南人民医院,,39,12,9,8,7,124,,125,125,4,6,6,6,0.2,0.2
2025-06-24T2100,1674A,116.6794,23.3667,汕头市,金平子站,,19,11,12,9,7,59,,74,68,4,5,4,5,0.5,0.5
2025-06-24T2100,1675A,116.7244,23.3633,汕头市,龙湖子站,,19,6,13,3,5,58,,70,62,8,7,6,6,0.4,0.4
2025-06-24T2100,1676A,116.7258,23.2775,汕头市,濠江子站,,18,,15,12,8,49,,60,56,18,7,5,4,0.5,0.5
2025-06-24T2100,1677A,116.7519,23.4714,汕头市,澄海子站,,17,,18,8,8,53,,83,67,9,8,3,3,0.6,0.5
2025-06-24T2100,1678A,116.6092,23.2539,汕头市,潮阳子站,,21,15,15,8,8,65,,73,66,2,2,4,4,0.4,0.4
2025-06-24T2100,3444A,116.454,23.2684,汕头市,潮南峡山,,22,20,21,15,8,46,,72,64,8,6,5,5,0.4,0.3
2025-06-24T2100,3624A,116.4069,23.2533,汕头市,潮南子站,,16,15,15,9,7,50,,68,64,5,4,4,4,0.5,0.5
2025-06-24T2100,1693A,115.3653,22.775,汕尾市,市环保局,,19,,8,3,3,60,,64,64,5,5,2,2,0.3,0.3
2025-06-24T2100,1694A,115.3706,22.7898,汕尾市,市政府,,20,11,9,6,4,63,,66,66,5,5,4,4,0.4,0.4
2025-06-24T2100,1695A,115.3622,22.7925,汕尾市,新城中学,,19,6,9,3,3,58,,65,65,4,4,3,3,0.5,0.5
2025-06-24T2100,2645A,109.9154,33.8715,商洛市,监测站,,42,36,33,24,20,134,,156,146,9,16,8,9,0.5,0.4
2025-06-24T2100,3045A,109.9643,33.8471,商洛市,商州区中学,,42,36,39,23,18,134,,150,143,9,22,9,8,0.5,0.5
2025-06-24T2100,2408A,115.6702,34.4285,商丘市,环境监测站,颗粒物(PM10),51,52,59,31,31,156,,184,175,14,10,2,3,0.5,0.5
2025-06-24T2100,2409A,115.6458,34.4045,商丘市,粮食局,细颗粒物(PM2.5),52,52,41,36,32,152,,189,181,16,10,3,4,0.4,0.4
2025-06-24T2100,2410A,115.6293,34.3948,商丘市,睢阳区环保局,颗粒物(PM10),54,58,49,31,31,119,,180,168,29,15,2,2,0.4,0.3
2025-06-24T2100,3171A,115.6071,34.4465,商丘市,梁园区档案局,颗粒物(PM10),74,98,45,35,32,137,,178,169,24,14,3,3,0.5,0.5
2025-06-24T2100,1141A,121.4,31.238,上海市,普陀,,32,15,20,7,19,100,,101,101,17,18,5,4,0.3,0.4
2025-06-24T2100,1142A,121.478,31.2036,上海市,十五厂,,31,15,20,12,17,97,,101,101,20,21,7,7,0.5,0.6
2025-06-24T2100,1143A,121.467,31.3008,上海市,虹口,,29,10,18,10,14,90,,93,93,20,19,8,8,0.6,0.7
2025-06-24T2100,1147A,121.425,31.2261,上海市,静安监测站,,29,16,20,10,18,92,,95,95,20,20,4,4,0.5,0.7
