timepoint,stationcode,longitude,latitude,area,positionname,primarypollutant,aqi,pm10,pm10_24h,pm2_5,pm2_5_24h,o3,o3_24h,o3_8h,o3_8h_24h,no2,no2_24h,so2,so2_24h,co,co_24h
2025-06-24T0000,2566A,102.1879,31.914,阿坝藏族羌族自治州,州农科所,,18,18,20,3,9,40,,74,51,7,8,12,12,0.5,0.5
2025-06-24T0000,2568A,102.2502,31.8896,阿坝藏族羌族自治州,马师校,,38,,16,26,19,14,,84,43,12,9,6,6,0.5,0.5
2025-06-24T0000,3994A,102.2165,31.9024,阿坝藏族羌族自治州,马尔康中学西区,,18,15,18,12,15,41,,92,59,4,5,6,6,0.5,0.5
2025-06-24T0000,2695A,80.292,41.1694,阿克苏地区,电视台,,38,38,64,23,27,107,,124,123,14,9,6,5,0.6,0.6
2025-06-24T0000,2696A,80.2613,41.1551,阿克苏地区,艺术中心,,39,39,63,20,26,118,,132,132,4,5,3,3,0.3,1.1
2025-06-24T0000,2204A,105.6467,38.8363,阿拉善盟,西城区西花园,,50,32,19,23,19,158,,158,158,9,9,6,5,0.9,0.9
2025-06-24T0000,2205A,105.6985,38.8411,阿拉善盟,蒙二幼,,48,34,26,13,13,153,,153,153,9,9,10,9,0.6,0.6
2025-06-24T0000,2206A,105.724,38.8516,阿拉善盟,环保局新楼,,49,30,23,12,13,154,,152,152,6,6,9,9,0.6,0.6
2025-06-24T0000,2708A,88.1264,47.8517,阿勒泰地区,市站,,31,25,23,7,4,97,,104,100,2,7,1,1,0.2,0.2
2025-06-24T0000,2630A,80.1161,32.5,阿里地区,阿里监测站,,29,8,5,3,5,91,,140,130,36,8,9,8,0.5,0.3
2025-06-24T0000,3192A,80.0903,32.5028,阿里地区,阿里藏医院,,37,17,12,3,5,118,,144,138,2,4,8,8,0.5,0.4
2025-06-24T0000,2642A,109.0318,32.6537,安康市,香溪洞,,36,22,24,6,12,113,,132,123,4,5,5,5,0.3,0.5
2025-06-24T0000,2644A,109.0072,32.6975,安康市,汉滨区检察院,,24,20,22,9,10,74,,130,104,9,8,5,7,0.4,0.4
2025-06-24T0000,4054A,109.0325,32.6913,安康市,市邮政管理局,,,,21,11,12,,,130,,9,10,6,7,0.4,0.4
2025-06-24T0000,2291A,117.0809,30.5177,安庆市,环科院,,30,,17,21,14,94,,90,89,7,10,2,3,0.8,0.8
2025-06-24T0000,2292A,117.0331,30.5119,安庆市,马山宾馆,,36,,18,25,17,90,,81,81,6,11,3,4,1.0,0.9
2025-06-24T0000,2294A,116.9896,30.6145,安庆市,安庆大学,,30,24,17,19,15,94,,93,93,8,7,2,2,0.6,0.7
2025-06-24T0000,3173A,117.0598,30.5351,安庆市,市人大,,36,26,18,25,15,97,,89,88,9,12,3,3,0.7,0.7
2025-06-24T0000,3122A,105.9606,26.2611,安顺市,伍家关,,,,32,22,18,36,,78,60,9,9,7,7,0.6,0.6
2025-06-24T0000,3123A,105.9408,26.2431,安顺市,凤凰山,,32,30,35,22,32,49,,99,80,11,12,7,8,0.6,0.6
2025-06-24T0000,3124A,105.9439,26.2564,安顺市,金钟山,,36,32,33,25,32,51,,104,86,8,9,8,9,0.4,0.4
2025-06-24T0000,3125A,105.8983,26.2481,安顺市,娄家坡,,18,14,28,10,28,55,,96,81,5,7,4,7,0.5,0.5
2025-06-24T0000,1818A,114.4839,36.0621,安阳市,棉研所,,,,,,,,,,,,,,,,
2025-06-24T0000,1819A,114.3551,36.1017,安阳市,红庙街,,46,46,45,19,18,123,,172,159,8,6,5,7,0.7,0.5
2025-06-24T0000,1820A,114.361,36.0681,安阳市,银杏小区,,47,47,49,24,22,122,,175,156,15,14,8,7,0.5,0.4
2025-06-24T0000,3141A,114.3922,36.0878,安阳市,信访局,,45,45,47,13,20,135,,178,165,18,12,3,4,0.6,0.5
2025-06-24T0000,3669A,114.4705,36.0637,安阳市,左辅环卫站,颗粒物(PM10),51,51,52,26,22,126,,179,158,16,18,5,5,0.5,0.5
2025-06-24T0000,3703A,114.2917,36.0949,安阳市,安钢职工学校,颗粒物(PM10),51,52,52,26,24,115,,162,144,12,12,7,5,0.7,0.3
2025-06-24T0000,1748A,123.044,41.1196,鞍山市,深沟寺,,45,43,40,26,23,143,,192,169,12,18,8,10,0.7,0.9
2025-06-24T0000,1749A,123.011,41.0931,鞍山市,太阳城,,50,50,49,31,28,109,,195,159,13,17,8,11,0.8,1.1
2025-06-24T0000,1750A,123.0485,41.1442,鞍山市,太平,颗粒物(PM10),52,53,50,29,23,140,,181,162,11,20,8,12,0.8,1
2025-06-24T0000,1751A,122.9642,41.0971,鞍山市,铁西三道街,颗粒物(PM10),54,58,59,33,30,129,,176,,18,27,7,11,1.0,1.2
2025-06-24T0000,1753A,123.022,41.0821,鞍山市,明达新区,,48,48,48,26,26,137,,189,165,12,18,8,11,0.6,0.9
2025-06-24T0000,1754A,123.1289,41.0228,鞍山市,千山,,,,,,,,,,,,,,,,
2025-06-24T0000,4201A,122.9446,41.0826,鞍山市,兴盛南路290号,颗粒物(PM10),58,65,68,32,30,125,,193,157,25,34,8,10,0.7,1.1
2025-06-24T0000,2195A,107.4212,40.761,巴彦淖尔市,附二中,,40,40,44,14,17,126,,152,137,8,10,9,11,0.6,0.6
2025-06-24T0000,2196A,107.37,40.7372,巴彦淖尔市,市环保大楼,,47,47,50,24,19,135,,160,151,14,13,7,8,0.5,0.5
2025-06-24T0000,1956A,86.1472,41.7538,巴音郭楞蒙古自治州,孔雀公园,颗粒物(PM10),118,186,65,55,22,85,,111,98,11,13,8,11,0.3,0.5
2025-06-24T0000,1957A,86.1972,41.7166,巴音郭楞蒙古自治州,棉纺厂,颗粒物(PM10),116,182,71,45,14,95,,118,104,11,17,3,6,0.3,0.3
2025-06-24T0000,1958A,86.2357,41.7173,巴音郭楞蒙古自治州,经济开发区,颗粒物(PM10),97,144,55,41,13,88,,115,97,12,10,9,10,0.2,0.1
2025-06-24T0000,2914A,106.7677,31.8794,巴中市,苏山坪,,33,18,12,14,10,105,,129,122,4,3,6,5,0.3,0.3
2025-06-24T0000,3181A,106.7768,31.8526,巴中市,市五中,,25,25,20,15,12,67,,143,124,19,11,8,8,0.5,0.5
2025-06-24T0000,3183A,106.7418,31.8654,巴中市,圣泉水务公司,,22,22,16,14,10,55,,142,116,33,14,6,6,0.6,0.5
2025-06-24T0000,3616A,106.7616,31.8344,巴中市,市中心医院,,24,21,16,7,13,75,,138,117,18,12,6,7,0.5,0.4
2025-06-24T0000,2235A,122.7911,45.6077,白城市,洮北区环保局,,48,,18,33,18,100,,124,106,13,13,1,2,0.3,0.3
2025-06-24T0000,2236A,122.8738,45.5725,白城市,市环保局,,33,22,22,16,11,104,,116,108,7,5,8,5,0.4,0.4
2025-06-24T0000,2231A,126.4219,41.9171,白山市,喜丰,颗粒物(PM10),94,138,52,27,16,36,,154,83,34,25,8,8,0.8,0.7
2025-06-24T0000,2232A,126.4077,41.9419,白山市,环保局,,38,38,29,11,11,55,,148,95,13,15,2,6,0.7,0.7
2025-06-24T0000,2647A,104.1724,36.5446,白银市,第三小学,,33,20,34,8,22,104,,120,114,6,14,13,65,0.5,1
2025-06-24T0000,2648A,104.1465,36.5482,白银市,动力公司,,32,15,29,11,16,102,,121,110,14,15,10,31,0.4,0.5
2025-06-24T0000,2512A,106.6103,23.9011,百色市,市监测站,,25,25,28,16,14,10,,59,33,8,11,3,7,0.3,0.4
2025-06-24T0000,2513A,106.6538,23.8859,百色市,市中心血站,,28,28,32,15,17,3,,56,30,28,16,1,5,0.6,0.6
2025-06-24T0000,3406A,106.6085,23.8798,百色市,祈福高中,,26,26,32,12,16,10,,57,26,15,14,4,7,0.6,0.7
2025-06-24T0000,2270A,117.396,32.939,蚌埠市,工人疗养院,,48,48,47,25,24,83,,117,101,19,14,4,4,0.5,0.4
2025-06-24T0000,2271A,117.3605,32.9427,蚌埠市,百货大楼,,44,44,43,25,21,76,,116,100,23,18,5,6,0.4,0.4
2025-06-24T0000,2273A,117.4185,32.8911,蚌埠市,蚌埠学院,,44,44,36,24,25,70,,116,93,22,22,4,6,0.4,0.4
2025-06-24T0000,2274A,117.3533,32.9673,蚌埠市,淮上区政府,,46,46,41,26,24,70,,125,94,34,22,5,6,0.4,0.5
2025-06-24T0000,2275A,117.3145,32.8977,蚌埠市,高新区,颗粒物(PM10),60,70,42,32,23,25,,112,79,57,23,8,7,0.5,0.5
2025-06-24T0000,3715A,117.3092,32.9314,蚌埠市,蚌埠田家炳中学,颗粒物(PM10),61,71,55,37,28,31,,112,75,42,23,7,7,0.3,0.3
2025-06-24T0000,1585A,109.8756,40.6532,包头市,市环境监测站,颗粒物(PM10),51,51,40,24,18,78,,161,136,34,22,20,17,0.9,0.6
2025-06-24T0000,1587A,109.9991,40.5842,包头市,包头八中,,48,42,45,33,22,100,,167,139,19,18,8,12,0.6,0.6
2025-06-24T0000,1588A,109.8538,40.6821,包头市,青山宾馆,细颗粒物(PM2.5),55,52,32,39,19,59,,168,,46,23,15,18,1.0,0.7
2025-06-24T0000,1589A,109.8642,40.6288,包头市,惠龙物流,颗粒物(PM10),54,57,37,27,16,88,,166,132,30,20,17,14,0.7,0.6
2025-06-24T0000,1590A,110.0377,40.5546,包头市,东河鸿龙湾,,41,41,38,26,14,96,,171,140,18,18,8,10,0.6,0.5
2025-06-24T0000,3283A,109.9154,40.5685,包头市,滨河大厦,,30,25,33,13,15,93,,169,135,23,20,8,11,0.6,0.5
2025-06-24T0000,3419A,109.9447,40.6261,包头市,包头市委党校,,40,39,37,28,15,90,,170,137,31,18,14,16,0.6,0.5
2025-06-24T0000,3683A,109.8331,40.6576,包头市,昆区政府,细颗粒物(PM2.5),77,77,41,56,24,90,,161,125,37,23,40,18,1.3,0.8
2025-06-24T0000,1930A,107.185,34.3063,宝鸡市,庙沟村,,44,24,38,14,14,139,,159,150,14,9,5,6,0.4,0.4
2025-06-24T0000,1931A,107.0708,34.3017,宝鸡市,竹园沟,,28,23,23,12,13,89,,158,121,16,11,6,6,0.3,0.4
2025-06-24T0000,1932A,107.1906,34.3672,宝鸡市,三陆医院,,32,32,24,15,14,86,,160,137,26,14,7,8,0.5,0.5
2025-06-24T0000,1933A,107.1431,34.3547,宝鸡市,监测站,,33,31,27,23,16,71,,151,127,23,11,6,7,0.3,0.3
2025-06-24T0000,1934A,107.1186,34.3739,宝鸡市,技工学校,,37,37,24,23,16,98,,158,136,15,8,8,8,0.5,0.5
2025-06-24T0000,1935A,107.3906,34.3528,宝鸡市,陈仓区环保局家属楼,,27,27,24,14,19,12,,112,72,16,11,6,9,0.7,0.5
2025-06-24T0000,1936A,107.2058,34.3497,宝鸡市,文理学院,,42,42,24,15,13,94,,164,142,18,10,5,7,0.5,0.5
2025-06-24T0000,1937A,107.2386,34.3622,宝鸡市,三迪小学,,37,37,26,25,17,83,,160,140,29,15,6,8,0.6,0.5
2025-06-24T0000,1051A,115.493,38.8632,保定市,游泳馆,颗粒物(PM10),65,80,68,41,38,124,,253,200,29,25,8,7,0.4,0.3
2025-06-24T0000,1052A,115.5213,38.8959,保定市,华电二区,,49,49,55,31,26,153,,257,208,15,22,6,4,0.6,0.5
2025-06-24T0000,1053A,115.4713,38.9108,保定市,接待中心,,48,48,57,23,30,131,,247,191,20,20,5,3,0.6,0.5
2025-06-24T0000,1054A,115.4612,38.8416,保定市,地表水厂,颗粒物(PM10),63,76,84,39,38,101,,263,194,40,32,5,3,0.4,0.4
2025-06-24T0000,3581A,115.31981,38.95208,保定市,满城区生态环境分局,颗粒物(PM10),63,75,66,24,25,116,,248,190,27,18,4,4,0.3,0.3
2025-06-24T0000,3582A,115.47694,38.76408,保定市,清苑区第二中学,颗粒物(PM10),65,79,93,42,46,127,,276,200,20,26,6,5,0.6,0.5
2025-06-24T0000,3583A,115.62909,39.02311,保定市,徐水物探局,颗粒物(PM10),67,83,80,34,33,115,,247,164,32,28,2,3,0.5,0.4
2025-06-24T0000,4004A,115.4202,38.8656,保定市,双鹰农机,颗粒物(PM10),54,57,58,33,32,108,,264,190,41,28,7,6,0.4,0.4
2025-06-24T0000,4034A,115.5150,38.8590,保定市,植保所站,细颗粒物(PM2.5),58,58,73,41,38,152,,271,213,21,30,6,6,0.6,0.5
2025-06-24T0000,2594A,99.1678,25.1081,保山市,市环境监测站,,32,,11,22,13,6,,37,20,6,9,7,8,0.4,0.4
2025-06-24T0000,2595A,99.1711,25.1328,保山市,市环保局,,22,,11,15,9,16,,43,23,6,6,6,6,0.6,0.6
2025-06-24T0000,1866A,109.2262,21.588,北海市,牛尾岭水库,,39,31,20,27,11,37,,74,58,14,8,3,3,0.5,0.4
2025-06-24T0000,1867A,109.1436,21.4086,北海市,海滩公园,,23,23,35,3,7,52,,58,54,4,6,2,2,0.1,0.2
2025-06-24T0000,1868A,109.0981,21.4661,北海市,新市环保局,,18,7,20,3,11,57,,64,60,4,8,2,3,0.3,0.4
2025-06-24T0000,1869A,109.1778,21.5233,北海市,北海工业园,,15,8,27,7,13,48,,63,59,7,11,2,6,0.3,0.4
2025-06-24T0000,3400A,109.1911,21.4415,北海市,龙潭自来水厂,,18,11,19,6,10,56,,71,66,4,7,3,4,0.4,0.4
2025-06-24T0000,1001A,116.3621,39.8784,北京市,万寿西宫,颗粒物(PM10),67,83,58,39,30,106,,280,207,54,34,5,6,0.9,0.6
2025-06-24T0000,1002A,116.2202,40.2915,北京市,定陵,,,,,,,,,,,,,,,,
2025-06-24T0000,1003A,116.4174,39.9289,北京市,东四,颗粒物(PM10),60,70,58,35,26,134,,290,221,48,37,5,5,0.8,0.5
2025-06-24T0000,1004A,116.4072,39.8863,北京市,天坛,颗粒物(PM10),54,58,55,36,31,70,,265,160,31,24,4,5,0.9,0.7
2025-06-24T0000,1005A,116.462,39.9365,北京市,农展馆,颗粒物(PM10),59,68,57,37,30,87,,242,177,42,35,5,7,1.1,0.8
2025-06-24T0000,1006A,116.3392,39.9295,北京市,官园,颗粒物(PM10),64,78,57,44,29,122,,277,208,42,39,4,5,0.8,0.6
2025-06-24T0000,1007A,116.2878,39.9611,北京市,海淀万柳,颗粒物(PM10),63,76,62,37,30,85,,250,171,53,38,4,5,0.8,0.6
2025-06-24T0000,1008A,116.6636,40.135,北京市,顺义新城,,,93,49,46,27,,,215,,30,21,3,4,0.8,0.5
2025-06-24T0000,1009A,116.6275,40.3275,北京市,怀柔镇,臭氧1小时,53,46,39,31,24,162,,229,196,10,13,2,2,0.5,0.4
2025-06-24T0000,1010A,116.2296,40.217,北京市,昌平镇,臭氧1小时,80,51,46,35,26,184,,254,229,11,13,4,5,0.5,0.4
2025-06-24T0000,1011A,116.3966,39.9821,北京市,奥体中心,颗粒物(PM10),57,64,51,35,26,48,,220,163,93,34,4,5,0.9,0.7
2025-06-24T0000,3281A,115.9718,40.4529,北京市,延庆夏都,颗粒物(PM10),54,57,40,30,21,114,,181,160,14,15,5,5,0.6,0.5
2025-06-24T0000,3418A,116.8336,40.4095,北京市,密云新城,颗粒物(PM10),51,52,42,25,21,142,,198,161,9,11,3,3,0.4,0.3
2025-06-24T0000,3671A,116.088,39.9726,北京市,门头沟三家店,颗粒物(PM10),52,54,53,31,29,134,,200,190,9,18,3,3,0.6,0.7
2025-06-24T0000,3672A,116.1541,39.8204,北京市,丰台云岗,颗粒物(PM10),70,89,66,31,28,156,,259,203,27,20,4,5,0.7,0.6
2025-06-24T0000,3673A,116.6804,39.9081,北京市,通州东关,颗粒物(PM10),104,157,78,76,37,80,,277,203,89,31,5,7,1.0,0.8
2025-06-24T0000,3674A,115.9577,39.7603,北京市,房山燕山,颗粒物(PM10),55,60,53,28,29,134,,226,180,11,14,2,3,0.5,0.5
2025-06-24T0000,3675A,116.4672,39.7733,北京市,大兴旧宫,颗粒物(PM10),60,69,58,34,30,74,,250,155,26,25,2,5,0.7,0.8
2025-06-24T0000,3694A,115.986,40.4563,北京市,延庆石河营,"颗粒物(PM10),细颗粒物(PM2.5)",53,55,39,37,23,108,,164,144,11,12,2,2,0.5,0.4
2025-06-24T0000,3695A,116.6151,40.3053,北京市,怀柔新城,臭氧1小时,52,47,40,34,24,161,,221,192,9,9,2,2,0.5,0.5
2025-06-24T0000,3696A,116.2545,39.8768,北京市,丰台小屯,颗粒物(PM10),68,86,57,43,29,73,,226,152,51,31,2,4,0.8,0.7
2025-06-24T0000,3697A,116.84,40.3844,北京市,密云镇,颗粒物(PM10),63,76,40,27,20,96,,205,168,29,18,3,3,0.6,0.4
2025-06-24T0000,4182A,116.1942,39.9158,北京市,八角北路9号,颗粒物(PM10),60,69,59,32,28,151,,241,192,12,22,3,5,0.5,0.5
2025-06-24T0000,4194A,117.0790,40.1518,北京市,洳河巡河路,"颗粒物(PM10),细颗粒物(PM2.5)",77,103,61,56,33,102,,244,189,19,14,3,5,0.8,0.7
2025-06-24T0000,1761A,123.8275,41.3064,本溪市,大峪,,35,35,32,15,16,68,,152,105,22,12,7,8,0.4,0.6
2025-06-24T0000,1762A,123.7567,41.3325,本溪市,溪湖,,42,42,46,18,20,93,,162,125,21,20,9,11,1.3,1.3
2025-06-24T0000,1763A,123.7169,41.3094,本溪市,彩屯,,44,44,45,23,26,63,,161,104,31,31,9,15,0.7,1.4
2025-06-24T0000,1764A,123.7669,41.2864,本溪市,东明,,50,50,38,18,17,62,,159,129,40,18,7,8,0.8,0.8
2025-06-24T0000,1765A,123.7992,41.2664,本溪市,新立屯,,37,24,30,14,16,34,,159,101,74,25,5,6,0.6,0.7
2025-06-24T0000,1766A,123.8142,41.3472,本溪市,威宁,颗粒物(PM10),63,76,48,28,20,48,,160,100,30,17,5,7,0.5,0.6
2025-06-24T0000,2587A,105.2864,27.3125,毕节市,八中,,48,43,30,33,25,74,,112,96,12,10,8,7,0.5,0.5
2025-06-24T0000,2588A,105.31,27.2944,毕节市,师专,,42,42,32,28,22,78,,123,104,14,12,9,6,0.5,0.4
2025-06-24T0000,4263A,105.3688,27.3598,毕节市,工业大道,,39,37,28,27,20,46,,108,89,27,17,6,6,0.7,0.6
2025-06-24T0000,1629A,118.0018,37.3617,滨州市,第二水厂,,36,36,39,19,19,79,,209,152,31,18,6,6,0.3,0.3
2025-06-24T0000,1630A,117.9776,37.393,滨州市,北中新校,,36,36,35,9,16,87,,219,152,30,21,18,17,0.5,0.6
2025-06-24T0000,3514A,117.9378,37.3956,滨州市,中海酒店,,34,34,36,22,22,90,,209,157,23,19,11,12,0.6,0.7
2025-06-24T0000,3515A,117.9378,37.3553,滨州市,开发区一中,,41,41,37,14,18,59,,205,143,50,26,11,11,0.4,0.5
2025-06-24T0000,3516A,118.0917,37.694,滨州市,金海六路,颗粒物(PM10),52,54,48,24,19,85,,221,162,42,32,17,12,0.3,0.4
2025-06-24T0000,4028A,117.9956,37.3753,滨州市,滨州市西街道办事处,,34,34,33,22,21,83,,220,165,25,14,8,8,0.3,0.3
2025-06-24T0000,2311A,115.8072,33.8399,亳州市,污水处理厂,颗粒物(PM10),51,52,41,29,23,111,,169,140,13,13,5,4,1.5,0.9
2025-06-24T0000,2312A,115.7789,33.8518,亳州市,三国揽胜宫,,41,41,37,26,22,110,,164,139,8,7,2,3,0.5,0.5
2025-06-24T0000,3332A,115.7633,33.8034,亳州市,亳州学院,,46,46,38,26,21,104,,171,136,12,8,5,4,0.7,0.5
2025-06-24T0000,2693A,82.0485,44.8556,博尔塔拉蒙古自治州,市党校,,28,14,22,3,14,89,,115,105,6,8,3,3,0,0
2025-06-24T0000,2694A,82.0806,44.8969,博尔塔拉蒙古自治州,市环保局,,25,16,31,16,14,78,,113,102,6,5,3,2,0.3,0.2
2025-06-24T0000,1071A,116.8842,38.2991,沧州市,沧县城建局,颗粒物(PM10),55,60,41,38,24,118,,198,163,33,23,6,7,0.7,0.4
2025-06-24T0000,1072A,116.8584,38.3254,沧州市,电视转播站,,49,43,44,22,24,156,,195,181,17,15,1,2,0.4,0.3
2025-06-24T0000,1073A,116.8709,38.3228,沧州市,市环保局,颗粒物(PM10),63,75,60,29,26,130,,198,162,22,21,3,3,0.4,0.4
2025-06-24T0000,3324A,116.8136,38.3004,沧州市,河北水利电力学院,颗粒物(PM10),57,63,49,38,22,95,,217,169,64,29,5,6,0.5,0.4
2025-06-24T0000,2622A,97.1806,31.1273,昌都市,昌都监测站,,36,7,18,3,10,113,,93,92,1,7,5,5,0.1,0.3
2025-06-24T0000,3719A,97.1714,31.1406,昌都市,昌都会议中心,,40,12,20,6,11,127,,110,105,1,7,6,6,0.1,0.1
2025-06-24T0000,2690A,88.1236,43.8886,昌吉回族自治州,天山天池,,29,23,20,10,7,91,,136,118,8,7,5,6,0.6,0.6
2025-06-24T0000,2692A,87.2717,44.0297,昌吉回族自治州,新区政务中心,,28,14,26,9,9,88,,125,106,15,11,4,6,0.2,0.2
2025-06-24T0000,3613A,87.3095,44.0142,昌吉回族自治州,亚心广场,,27,27,35,17,8,80,,116,97,18,14,7,7,0.2,0.3
2025-06-24T0000,1120A,125.2863,43.9027,长春市,客车厂,,47,47,34,29,19,90,,163,142,60,34,6,7,0.6,0.5
2025-06-24T0000,1121A,125.2841,43.8463,长春市,邮电学院,,44,44,37,16,13,73,,164,134,45,26,7,8,0.6,0.5
2025-06-24T0000,1122A,125.3716,43.8772,长春市,劳动公园,颗粒物(PM10),56,62,48,23,15,69,,165,132,48,35,3,2,0.6,0.5
2025-06-24T0000,1123A,125.3297,43.8805,长春市,园林处,,44,44,36,22,15,101,,164,151,39,25,7,7,0.6,0.5
2025-06-24T0000,1124A,125.4605,43.79,长春市,净月潭,,30,24,30,6,14,93,,162,127,12,23,6,7,0.4,0.3
2025-06-24T0000,1125A,125.7194,43.515,长春市,甩湾子,,48,36,26,13,11,3,,150,71,95,49,2,2,0.7,0.6
2025-06-24T0000,1126A,125.3863,43.8447,长春市,经开区环卫处,颗粒物(PM10),56,62,43,29,12,5,,159,116,98,33,6,7,0.6,0.4
2025-06-24T0000,1127A,125.245,43.7783,长春市,高新区管委会,,43,43,34,20,14,58,,161,122,60,33,4,5,0.4,0.3
2025-06-24T0000,1128A,125.1761,43.8325,长春市,岱山公园,颗粒物(PM10),53,55,42,23,18,77,,161,107,81,50,5,5,0.4,0.4
2025-06-24T0000,4281A,125.3346,43.9164,长春市,北亚泰大街1068号,颗粒物(PM10),52,54,42,28,19,82,,156,132,48,30,5,5,0.7,0.6
2025-06-24T0000,1335A,113.0833,28.2325,长沙市,经开区环保局,,16,15,15,11,11,46,,77,66,25,16,4,4,0.4,0.4
2025-06-24T0000,1336A,112.8872,28.2189,长沙市,高开区环保局,,22,21,21,15,11,35,,81,58,23,12,3,3,0.6,0.6
2025-06-24T0000,1337A,113.0792,28.2053,长沙市,马坡岭,,15,15,19,10,12,43,,78,60,24,16,3,3,0.7,0.7
2025-06-24T0000,1338A,112.9394,28.19,长沙市,湖南师范大学,,19,19,18,11,11,53,,85,67,13,12,2,2,0.3,0.3
2025-06-24T0000,1339A,113.0178,28.1322,长沙市,雨花区环保局,,19,19,20,10,11,58,,81,71,16,13,4,4,0.7,0.6
2025-06-24T0000,1340A,112.9792,28.2597,长沙市,伍家岭,,19,17,18,13,14,50,,79,65,18,11,2,2,0.4,0.3
2025-06-24T0000,1341A,113.0014,28.1944,长沙市,火车新站,,18,14,18,12,10,55,,80,71,15,11,6,6,0.6,0.5
2025-06-24T0000,1342A,112.9844,28.1178,长沙市,天心区环保局,,,20,20,13,12,,,86,78,22,14,1,1,1.0,0.9
2025-06-24T0000,1343A,112.8908,28.1308,长沙市,湖南中医药大学,,23,23,18,16,10,43,,78,56,14,11,3,3,0.5,0.5
2025-06-24T0000,1344A,112.9581,28.3611,长沙市,沙坪,,18,13,19,3,8,57,,81,67,10,8,4,4,0.6,0.5
2025-06-24T0000,1727A,113.1147,36.1547,长治市,清华站,,44,26,30,9,14,140,,151,151,12,12,7,6,0.5,0.5
2025-06-24T0000,1730A,113.0886,36.2125,长治市,审计局,,45,27,26,12,16,142,,153,153,15,12,9,10,0.7,0.8
2025-06-24T0000,1731A,113.0844,36.1856,长治市,长治八中,,49,29,37,20,22,154,,163,161,13,14,12,11,0.6,0.8
2025-06-24T0000,2845A,113.1569,36.1911,长治市,德盛苑,,44,39,32,19,15,139,,152,152,12,8,9,9,0.9,1
2025-06-24T0000,3568A,113.06,36.0464,长治市,向阳小学,颗粒物(PM10),53,55,52,11,20,139,,163,154,15,11,13,7,0.7,0.6
2025-06-24T0000,3569A,112.8792,36.3144,长治市,屯留一中,,48,45,45,33,24,147,,166,145,11,14,8,7,0.3,0.4
2025-06-24T0000,4189A,113.1131,36.19948,长治市,英华南巷50号,,42,41,34,19,17,132,,145,145,16,12,8,8,0.5,0.9
2025-06-24T0000,4190A,113.2367,36.3344,长治市,学府街1号,,40,40,47,19,19,65,,155,138,60,31,4,5,0.5,0.6
2025-06-24T0000,1854A,111.6975,28.9703,常德市,市二中,,18,18,11,10,9,43,,100,78,14,7,4,4,0.7,0.6
2025-06-24T0000,1857A,111.7158,29.1456,常德市,白鹤山,,,,,,,,,,,,,,,,
2025-06-24T0000,3138A,111.7153,29.0289,常德市,武陵区永安,,19,16,14,13,10,51,,108,81,9,5,7,3,0.4,0.4
2025-06-24T0000,3139A,111.6892,28.9881,常德市,鼎城区玉霞,,16,15,13,11,8,38,,107,75,18,7,5,4,0.6,0.5
2025-06-24T0000,3140A,111.6625,29.0531,常德市,武陵区长庚,,18,13,13,9,7,57,,105,86,14,6,3,2,0.5,0.4
2025-06-24T0000,1196A,119.9633,31.762,常州市,市监测站,,42,42,25,24,17,39,,104,74,46,33,8,3,1.0,0.7
2025-06-24T0000,1200A,119.9468,31.7069,常州市,武进监测站,,40,40,25,28,19,32,,91,63,35,25,8,8,1.3,1
2025-06-24T0000,1201A,119.9255,31.9087,常州市,安家,,22,22,26,9,12,63,,115,90,26,18,7,9,0.3,0.5
2025-06-24T0000,3002A,119.9805,31.8174,常州市,行政中心,,35,35,33,12,15,47,,101,71,34,23,9,10,0.5,0.5
2025-06-24T0000,3003A,120.0522,31.7748,常州市,经开区,,45,45,29,20,14,26,,103,64,55,27,7,7,0.7,0.5
2025-06-24T0000,3010A,119.9025,31.7964,常州市,钟楼,,26,26,24,10,13,64,,98,75,23,22,6,7,0.7,0.8
2025-06-24T0000,3429A,119.8598,31.7066,常州市,武进经发区,,48,48,28,23,16,14,,89,58,52,24,5,5,1.2,0.9
2025-06-24T0000,3430A,119.5826,31.7245,常州市,金坛城区,,35,35,24,18,17,47,,114,87,30,21,6,7,0.5,0.5
2025-06-24T0000,2220A,120.4318,41.5881,朝阳市,西梁,颗粒物(PM10),64,78,44,43,21,70,,175,153,41,23,14,10,0.9,0.9
2025-06-24T0000,2221A,120.4521,41.5646,朝阳市,河畔小区,细颗粒物(PM2.5),52,49,39,36,21,106,,186,170,22,16,10,8,0.7,0.5
2025-06-24T0000,2222A,120.4176,41.5648,朝阳市,八里堡,颗粒物(PM10),51,52,47,30,22,113,,190,174,26,23,9,9,0.9,0.8
2025-06-24T0000,2223A,120.3806,41.5969,朝阳市,农业园区,细颗粒物(PM2.5),54,48,42,38,26,50,,167,137,24,23,4,8,0.6,0.7
2025-06-24T0000,1705A,116.6367,23.6719,潮州市,西园路,,35,35,22,9,11,31,,69,51,10,9,3,5,0.5,0.5
2025-06-24T0000,3026A,116.6183,23.6608,潮州市,市政府,,19,19,25,7,9,31,,64,46,8,10,4,7,0.7,0.6
2025-06-24T0000,4036A,116.6461,23.6761,潮州市,金山,,,,25,14,12,39,,77,57,9,7,6,7,0.6,0.5
2025-06-24T0000,2472A,113.0073,25.9061,郴州市,马头岭,,38,38,29,15,9,38,,50,42,10,11,7,8,0.4,0.4
2025-06-24T0000,2473A,113.0116,25.8226,郴州市,市职中,,42,33,25,29,17,34,,52,34,9,9,3,6,0.6,0.5
2025-06-24T0000,2475A,113.0383,25.8071,郴州市,市审计局,,33,28,25,23,15,30,,55,34,6,9,3,5,0.6,0.5
2025-06-24T0000,2476A,113.0348,25.7759,郴州市,市环保局,,,,24,30,15,,,69,,11,11,18,9,0.5,0.2
2025-06-24T0000,4252A,113.0138,25.8011,郴州市,好美居路49号,,35,35,27,22,16,46,,64,47,9,10,2,6,0.6,0.5
2025-06-24T0000,1431A,103.9728,30.7236,成都市,金泉两河,,30,13,26,3,13,95,,92,91,9,14,3,4,0.3,0.4
2025-06-24T0000,1432A,104.176,30.6872,成都市,十里店,,35,25,30,24,17,61,,94,82,21,15,4,4,0.6,0.5
2025-06-24T0000,1433A,104.079,30.5706,成都市,三瓦窑,,,96,38,,20,93,,102,98,19,22,5,4,0.6,0.6
2025-06-24T0000,1434A,104.1114,30.63,成都市,沙河铺,,35,33,35,24,16,53,,91,80,25,17,4,4,0.5,0.5
2025-06-24T0000,1437A,104.0786,30.6531,成都市,君平街,,,95,42,,19,75,,104,,14,17,5,5,0.7,0.9
2025-06-24T0000,1438A,103.613,31.0283,成都市,灵岩寺,,,,,,,,,,,,,,,,
2025-06-24T0000,2880A,104.0239,30.65639,成都市,大石西路,,33,33,34,16,19,96,,94,94,12,16,4,5,0.6,0.6
2025-06-24T0000,3136A,104.2725,30.5589,成都市,龙泉驿区区政府,,31,31,20,17,10,62,,117,90,21,12,4,4,0.6,0.6
2025-06-24T0000,3357A,104.0106,30.6931,成都市,金博路,,29,6,22,3,11,91,,89,88,14,18,4,4,0.7,0.7
2025-06-24T0000,3359A,104.0578,30.5225,成都市,华阳,,39,36,28,27,22,73,,89,83,25,20,7,7,0.7,0.7
2025-06-24T0000,3488A,104.3853,30.7453,成都市,青白江技师分院,细颗粒物(PM2.5),55,50,33,39,19,15,,118,82,58,22,7,7,0.7,0.6
2025-06-24T0000,3489A,104.0789,30.4072,成都市,科学城,,30,30,29,18,20,73,,115,101,25,15,3,3,0.7,0.7
2025-06-24T0000,4011A,103.8506,30.6947,成都市,光华大道三段,,33,23,32,23,21,102,,83,83,7,12,3,4,0.0,0.1
2025-06-24T0000,4224A,104.2433,30.5353,成都市,鲸龙路1057号,,40,40,31,22,19,73,,117,92,25,18,8,7,0.7,0.7
2025-06-24T0000,1062A,117.9531,40.9081,承德市,铁路,,49,49,32,29,16,75,,146,97,13,14,2,3,0.6,0.4
2025-06-24T0000,1063A,117.9392,40.9763,承德市,中国银行,颗粒物(PM10),55,59,36,37,20,38,,162,79,18,14,3,4,0.5,0.4
2025-06-24T0000,1064A,117.9503,40.928,承德市,开发区,颗粒物(PM10),53,55,40,32,20,79,,150,105,18,15,4,4,0.7,0.5
2025-06-24T0000,1065A,117.8051,40.9655,承德市,文化中心,颗粒物(PM10),57,63,59,26,23,66,,169,102,33,24,1,16,0.5,1
2025-06-24T0000,1066A,117.9268,41.0026,承德市,离宫,细颗粒物(PM2.5),58,45,33,41,24,57,,168,73,19,13,3,3,0.3,0.4
2025-06-24T0000,2314A,117.47,30.6618,池州市,池州学院,,32,26,16,22,14,85,,90,83,14,10,4,4,0.8,0.7
2025-06-24T0000,3237A,117.4918,30.6617,池州市,展览馆,,31,31,19,21,11,84,,81,78,13,11,5,4,1.0,0.9
2025-06-24T0000,3333A,117.5627,30.695,池州市,第八中学,,31,31,17,20,12,85,,84,79,14,14,5,5,0.9,0.8
2025-06-24T0000,3334A,117.5038,30.6243,池州市,第十二中学,,32,19,17,16,10,100,,94,87,7,10,3,3,1.0,1
2025-06-24T0000,1744A,118.9233,42.2816,赤峰市,松山一中,"颗粒物(PM10),细颗粒物(PM2.5)",69,88,34,50,20,24,,140,72,44,28,9,8,0.6,0.6
2025-06-24T0000,1745A,118.9576,42.2728,赤峰市,哈达街,,49,49,28,23,15,64,,135,98,18,20,11,11,0.5,0.5
2025-06-24T0000,1746A,118.8788,42.2554,赤峰市,天义路,颗粒物(PM10),65,79,30,41,22,51,,147,91,23,20,19,10,0.5,0.5
2025-06-24T0000,3058A,119.2658,42.0353,赤峰市,银河街,颗粒物(PM10),58,66,45,36,22,36,,132,77,24,15,51,18,1.0,0.6
2025-06-24T0000,3286A,118.9359,42.3147,赤峰市,桥北物流园区,颗粒物(PM10),63,75,38,11,30,44,,132,75,19,23,8,11,0.4,0.5
2025-06-24T0000,2521A,107.3476,22.4136,崇左市,市环保局江州分局,,23,23,27,9,10,34,,66,48,11,12,6,5,0.6,0.6
2025-06-24T0000,4256A,107.3750,22.3736,崇左市,石景林东路7号,,13,13,22,6,11,26,,72,46,17,12,3,3,0.6,0.6
2025-06-24T0000,2298A,118.3093,32.3153,滁州市,老年大学,,33,33,32,14,19,71,,116,96,10,12,10,10,0.3,0.3
2025-06-24T0000,2299A,118.3244,32.2786,滁州市,人大宾馆,,29,27,27,20,25,62,,114,95,12,12,3,4,0.3,0.3
2025-06-24T0000,3207A,118.3118,32.3038,滁州市,市政府原办公楼,,40,,31,28,28,62,,118,98,7,8,4,4,0.4,0.4
2025-06-24T0000,3331A,118.3267,32.2634,滁州市,图书馆,,29,22,27,20,21,57,,113,92,10,8,8,9,0.4,0.4
2025-06-24T0000,2605A,101.5482,25.0441,楚雄彝族自治州,州环境监测站,,8,6,8,3,6,25,,47,27,4,9,7,6,0.4,0.5
2025-06-24T0000,2606A,101.538,25.0492,楚雄彝族自治州,市经济开发区,,14,14,12,7,6,22,,46,25,4,8,6,6,0.6,0.7
2025-06-24T0000,2548A,107.5277,31.2827,达州市,达州职业技术学院,,,25,25,3,4,,,100,,36,20,5,6,0.3,0.3
2025-06-24T0000,2549A,107.5086,31.2186,达州市,市环境监测站,,22,22,23,3,3,20,,98,56,40,28,5,5,0.4,0.3
2025-06-24T0000,2550A,107.4988,31.2132,达州市,凤凰小区,,19,19,19,3,5,26,,106,71,37,20,4,4,0.3,0.2
2025-06-24T0000,2551A,107.5082,31.1986,达州市,达县机关宾馆,,31,31,18,11,7,20,,102,57,42,25,6,6,0.4,0.3
2025-06-24T0000,2552A,107.4644,31.2124,达州市,市政中心,,32,32,26,7,3,21,,100,61,41,22,3,3,0.6,0.4
2025-06-24T0000,2614A,100.1542,25.7054,大理白族自治州,大理市环境监测站,,,,5,,12,,,51,,,7,,5,,0.4
2025-06-24T0000,2615A,100.2171,25.5811,大理白族自治州,大理古城,,7,6,12,3,7,22,,60,30,7,7,9,9,0.6,0.7
2025-06-24T0000,1109A,121.612,38.9741,大连市,甘井子,,35,30,35,24,17,85,,146,104,30,26,9,8,0.5,0.5
2025-06-24T0000,1110A,121.565,38.9511,大连市,周水子,,47,47,43,30,19,89,,155,108,23,25,12,14,0.4,0.4
2025-06-24T0000,1111A,121.5637,38.8845,大连市,星海三站,,32,24,27,22,18,63,,139,106,21,14,5,6,0.3,0.2
2025-06-24T0000,1112A,121.6302,38.9117,大连市,青泥洼桥,,35,35,23,21,15,87,,156,108,21,16,8,9,0.4,0.3
2025-06-24T0000,1113A,121.6251,38.8638,大连市,傅家庄,,39,20,25,14,15,124,,134,121,16,19,11,12,0.2,0.2
2025-06-24T0000,1114A,121.5213,38.8661,大连市,七贤岭,,26,25,32,13,16,81,,163,116,18,18,8,8,0.7,0.6
2025-06-24T0000,1115A,121.2529,38.8061,大连市,旅顺,,32,18,23,18,18,102,,136,109,23,22,5,5,0.4,0.3
2025-06-24T0000,1116A,121.7485,39.1311,大连市,金州,,30,18,23,7,12,96,,162,106,16,22,10,10,0.2,0.3
2025-06-24T0000,1117A,121.7811,39.0496,大连市,开发区,,43,36,41,30,20,57,,150,89,60,37,8,8,0.5,0.5
2025-06-24T0000,1118A,121.9762,39.0631,大连市,双D港,,30,,23,21,20,74,,130,111,19,23,7,10,0.4,0.4
2025-06-24T0000,1789A,124.81117,46.03138,大庆市,大同区,,31,31,39,11,10,78,,114,93,10,11,6,7,0.7,0.7
2025-06-24T0000,1790A,125.129,46.533,大庆市,龙凤区,,27,27,36,16,16,82,,120,93,8,13,5,6,0.3,0.3
2025-06-24T0000,1791A,124.902,46.408,大庆市,红岗区,,38,38,32,26,16,98,,125,110,10,8,8,9,0.5,0.4
2025-06-24T0000,1792A,125.153,46.586,大庆市,萨尔图区,,32,32,39,12,16,85,,107,88,14,16,10,10,0.6,0.5
2025-06-24T0000,1793A,124.9042,46.6215,大庆市,让胡路区,,32,28,27,22,21,87,,112,102,12,14,6,5,0.3,0.3
2025-06-24T0000,3481A,125.141,46.634,大庆市,萨区政府监测点,,33,33,36,9,11,104,,124,108,7,12,7,7,0.3,0.3
2025-06-24T0000,1721A,113.3819,40.1097,大同市,果树场,,,,,,,,,,,,,,,,
2025-06-24T0000,1723A,113.2994,40.0758,大同市,云冈宾馆,,41,41,39,27,16,111,,144,127,18,19,7,7,0.5,0.9
2025-06-24T0000,1724A,113.3444,40.0917,大同市,大同大学,,39,39,31,20,15,66,,155,118,30,20,6,13,0.4,0.4
2025-06-24T0000,1725A,113.2661,40.1269,大同市,安家小村,,40,40,43,19,18,102,,152,116,17,19,5,5,0.4,0.7
2025-06-24T0000,1726A,113.2711,40.0844,大同市,教育学院,,41,41,43,21,21,120,,152,132,18,25,11,10,0.4,0.8
2025-06-24T0000,3282A,113.3397,40.0597,大同市,大同市卫生学校,颗粒物(PM10),59,68,36,23,17,97,,144,118,28,19,8,7,0.5,0.5
2025-06-24T0000,3565A,113.1367,40.1122,大同市,云冈站,颗粒物(PM10),66,82,62,34,22,13,,155,99,64,28,7,6,0.5,0.5
2025-06-24T0000,3566A,113.1186,40.2556,大同市,图书馆,,38,38,30,18,17,51,,153,101,11,10,6,8,0.6,0.6
2025-06-24T0000,3567A,113.5931,40.0461,大同市,区一中,,26,21,26,18,14,67,,145,105,9,9,11,11,0.4,0.3
2025-06-24T0000,4199A,113.2798,40.0997,大同市,魏都大道141号,,42,42,48,23,19,68,,154,122,35,22,8,9,0.6,1.2
2025-06-24T0000,2269A,124.1069,50.4097,大兴安岭地区,科技局,,46,46,37,17,15,36,,87,63,6,5,8,6,0.5,0.5
2025-06-24T0000,3663A,124.1164,50.4278,大兴安岭地区,红旗社区,,25,17,17,17,15,22,,93,62,10,8,5,5,0.3,0.3
2025-06-24T0000,1600A,124.3303,40.0625,丹东市,江湾东路,,49,48,38,34,24,64,,149,112,28,19,7,13,1.0,0.8
2025-06-24T0000,1601A,124.4256,40.1503,丹东市,临江后街,颗粒物(PM10),89,127,84,35,19,53,,146,124,28,16,9,9,1.0,0.8
2025-06-24T0000,1602A,124.3933,40.1461,丹东市,元宝山,颗粒物(PM10),59,68,44,26,20,104,,136,130,16,14,8,9,0.8,0.8
2025-06-24T0000,1603A,124.3633,40.1092,丹东市,民主桥,,43,43,43,25,22,50,,147,105,39,21,8,10,0.9,0.7
2025-06-24T0000,3541A,109.5726,19.5167,儋州市,第一中学子站,,14,14,13,7,6,28,,47,44,4,5,9,8,0.5,0.5
2025-06-24T0000,3542A,109.5567,19.5187,儋州市,东坡学校子站,,,,11,,3,,,19,,,5,,10,,0.6
2025-06-24T0000,2616A,98.5842,24.428,德宏傣族景颇族自治州,德宏州监测站,,20,20,17,11,7,12,,40,29,10,9,7,10,0.8,0.7
2025-06-24T0000,3677A,98.5881,24.4368,德宏傣族景颇族自治州,芒市人民政府综合楼,,24,24,24,3,6,6,,38,21,8,7,7,8,0.5,0.5
2025-06-24T0000,1901A,104.4239,31.1208,德阳市,东山公园,,42,,20,29,16,85,,105,87,13,10,28,9,0.9,0.7
2025-06-24T0000,1902A,104.3826,31.1317,德阳市,西小区,,,,28,,17,,,100,,,12,,6,,0.8
2025-06-24T0000,1904A,104.3553,31.1091,德阳市,耐火材料厂,,27,27,28,16,16,56,,100,79,24,15,7,9,0.5,0.5
2025-06-24T0000,3639A,104.4019,31.1244,德阳市,市教育局,,24,24,24,16,14,69,,108,87,21,9,11,8,0.7,0.6
2025-06-24T0000,1622A,116.3032,37.4674,德州市,儿童乐园,,47,36,53,19,23,150,,219,192,14,16,9,10,0.4,0.4
2025-06-24T0000,1624A,116.2991,37.4451,德州市,监理站,,44,36,48,12,23,140,,221,187,26,22,10,11,0.3,0.4
2025-06-24T0000,3066A,116.2721,37.4379,德州市,九衢泉纯净水厂,,48,48,54,24,25,89,,202,144,60,38,8,8,0.7,0.6
2025-06-24T0000,3371A,116.3728,37.4403,德州市,开发区人民医院,,44,44,52,19,22,136,,211,180,24,24,10,11,0.6,0.6
2025-06-24T0000,3372A,116.3572,37.4094,德州市,太阳城中学,,,,,,,,,,,,,,,,
2025-06-24T0000,3511A,116.5652,37.3319,德州市,陵城艺术中心,,46,46,49,19,20,127,,210,180,21,20,17,10,0.6,0.6
2025-06-24T0000,2621A,99.7056,27.8317,迪庆藏族自治州,迪庆州站,,22,18,15,15,12,53,,95,74,7,7,7,7,0.4,0.4
2025-06-24T0000,3180A,99.7136,27.8094,迪庆藏族自治州,质量技术监督局,,18,14,16,3,7,55,,92,73,7,9,7,7,0.5,0.5
2025-06-24T0000,4257A,104.6092,35.5962,定西市,将台街,,36,36,27,9,13,82,,116,106,17,8,4,4,0.1,0.1
2025-06-24T0000,4309A,104.6159,35.5701,定西市,正龙路62号,,32,32,23,21,15,80,,116,106,8,4,4,4,0.2,0.2
2025-06-24T0000,1389A,113.7547,23.0494,东莞市,莞城梨川,,12,7,13,3,8,37,,100,57,9,9,5,6,0.4,0.4
2025-06-24T0000,1390A,113.7944,23.0128,东莞市,东城石井,,10,10,15,3,6,30,,87,50,10,11,2,2,0.4,0.4
2025-06-24T0000,1391A,113.7383,22.9658,东莞市,南城西平,,13,10,12,3,7,40,,87,54,8,10,2,3,0.5,0.6
2025-06-24T0000,3319A,113.7338,23.0381,东莞市,万江金泰,,12,12,16,3,7,27,,88,47,11,11,2,2,0.7,0.7
2025-06-24T0000,3626A,113.7533,23.0202,东莞市,南城元岭,,11,6,13,3,6,35,,90,55,11,12,3,5,0.2,0.5
2025-06-24T0000,3627A,113.7875,23.0457,东莞市,东城主山,,13,13,19,3,6,33,,96,56,10,9,6,6,0.5,0.5
2025-06-24T0000,1666A,118.6614,37.4309,东营市,市环保局,,36,36,45,12,21,77,,219,126,35,27,5,9,0.4,0.5
2025-06-24T0000,3036A,118.6904,37.4338,东营市,开发区管委会,,38,38,53,12,20,91,,216,143,28,26,6,8,0.4,0.5
2025-06-24T0000,3365A,118.5719,37.565,东营市,垦利区民丰路,,36,36,45,14,20,98,,218,142,22,22,8,8,0.7,0.8
2025-06-24T0000,3498A,118.5055,37.8612,东营市,河口城区,,46,46,48,7,19,65,,199,147,47,26,7,8,0.8,0.7
2025-06-24T0000,3646A,118.4978,37.4623,东营市,胜利站,,32,31,48,22,20,88,,208,136,28,30,9,10,0.7,0.8
2025-06-24T0000,3734A,118.35,37.26,东营市,理想之城,,34,34,46,14,24,90,,232,126,28,28,5,8,0.5,0.7
2025-06-24T0000,1591A,110.0023,39.8129,鄂尔多斯市,综合楼,,,136,37,,16,103,,163,142,38,19,4,4,0.8,0.6
2025-06-24T0000,1592A,109.9486,39.8261,鄂尔多斯市,巴音孟克林场办事处,细颗粒物(PM2.5),70,68,46,51,18,132,,172,149,23,19,10,8,0.7,0.7
2025-06-24T0000,1593A,109.7736,39.5986,鄂尔多斯市,康泽苑,,41,41,48,22,16,89,,179,151,24,12,9,8,0.3,0.4
2025-06-24T0000,1594A,109.8119,39.5989,鄂尔多斯市,华泰汽车城,,48,48,50,17,16,46,,154,119,53,17,5,6,0.6,0.5
2025-06-24T0000,1595A,109.9734,39.7884,鄂尔多斯市,奥林花园,颗粒物(PM10),52,53,44,34,19,78,,174,139,37,29,7,7,0.4,0.5
2025-06-24T0000,2436A,114.8938,30.3994,鄂州市,市政府,,31,31,25,12,11,68,,72,66,8,6,4,5,0.8,0.8
2025-06-24T0000,2437A,114.8989,30.3714,鄂州市,赵家坝,,22,22,19,3,5,61,,81,73,8,8,9,8,0.5,0.5
2025-06-24T0000,3654A,114.8094,30.4089,鄂州市,精准医疗中心,,19,13,16,8,4,59,,85,66,15,10,3,3,0.5,0.5
2025-06-24T0000,2454A,109.4978,30.2981,恩施土家族苗族自治州,湖北民院,,24,24,18,16,8,37,,115,78,10,4,5,4,0.5,0.4
2025-06-24T0000,2455A,109.4707,30.2798,恩施土家族苗族自治州,州电力总公司,,22,22,16,14,10,22,,91,59,18,6,7,7,0.4,0.3
2025-06-24T0000,3549A,109.5061,30.3772,恩施土家族苗族自治州,龙凤新区,,24,24,17,14,11,10,,100,56,5,3,4,4,0.5,0.4
2025-06-24T0000,2499A,108.3411,21.6158,防城港市,沙万,,13,12,20,8,8,40,,46,43,12,7,3,2,0.4,0.4
2025-06-24T0000,2500A,108.3514,21.7731,防城港市,防城档案局,,19,19,19,3,8,34,,50,43,8,6,1,2,0.4,0.4
2025-06-24T0000,2501A,108.3506,21.6414,防城港市,大海花园,,17,17,20,3,8,45,,52,50,9,4,2,2,0.4,0.4
2025-06-24T0000,1371A,113.1294,23.0067,佛山市,湾梁,,9,9,15,6,7,25,,80,52,15,16,8,8,0.4,0.4
2025-06-24T0000,1372A,113.1083,23.0478,佛山市,华材职中,,16,12,12,11,8,25,,89,60,12,7,6,6,0.4,0.4
2025-06-24T0000,1373A,113.144,23.0453,佛山市,南海气象局,,12,,15,8,8,24,,82,49,11,11,3,3,0.6,0.5
2025-06-24T0000,1374A,113.2881,22.8094,佛山市,顺德苏岗,,,10,17,3,4,,,67,,9,10,6,7,0.6,0.4
2025-06-24T0000,1376A,112.8383,22.8678,佛山市,高明孔堂,,19,19,14,11,8,31,,57,50,8,5,6,6,0.6,0.6
2025-06-24T0000,1377A,112.8836,23.1588,佛山市,三水监测站,,14,14,21,3,11,15,,59,33,22,25,3,4,0.5,0.5
2025-06-24T0000,1378A,112.867,23.185,佛山市,三水云东海,,36,36,32,12,10,16,,84,51,29,18,3,2,0.4,0.5
2025-06-24T0000,3625A,113.2544,22.7642,佛山市,容桂街道办,,9,6,9,3,4,27,,62,39,13,14,5,6,0.6,0.6
2025-06-24T0000,1280A,119.3903,26.0543,福州市,鼓山,,,,,,,,,,,,,,,,
2025-06-24T0000,1282A,119.2681,26.0504,福州市,师大,,38,38,32,18,11,28,,103,53,22,13,4,4,0.3,0.3
2025-06-24T0000,1283A,119.2984,26.1028,福州市,五四北路,,20,15,30,14,17,37,,120,72,17,16,4,4,0.3,0.3
2025-06-24T0000,1284A,119.2648,26.0768,福州市,杨桥西路,,20,20,28,9,15,32,,100,46,11,13,3,3,0.3,0.3
2025-06-24T0000,1285A,119.317,26.0746,福州市,紫阳,,34,34,38,17,16,49,,109,76,16,20,4,4,0.3,0.3
2025-06-24T0000,3048A,119.5799,26.0936,福州市,九龙,,29,29,32,17,18,49,,139,103,17,14,4,4,0.3,0.3
2025-06-24T0000,3526A,119.5189,25.9664,福州市,吴航,,31,31,33,16,17,50,,136,89,12,11,6,5,0.4,0.4
2025-06-24T0000,1755A,123.7977,41.8491,抚顺市,望花区,颗粒物(PM10),52,54,62,30,24,64,,202,144,46,34,17,13,0.9,0.9
2025-06-24T0000,1756A,123.9161,41.8822,抚顺市,顺城区,颗粒物(PM10),59,67,47,27,20,3,,196,98,97,42,8,9,0.8,0.8
2025-06-24T0000,1757A,124.0436,41.8611,抚顺市,东洲区,,27,24,31,18,16,85,,186,137,19,15,7,10,0.1,0.2
2025-06-24T0000,1758A,123.9247,41.8642,抚顺市,新抚区,颗粒物(PM10),56,61,46,27,22,12,,191,105,66,31,6,8,0.8,0.7
2025-06-24T0000,1759A,124.0972,41.8961,抚顺市,大伙房水库,,29,23,24,20,17,66,,175,128,25,16,8,9,0.4,0.5
2025-06-24T0000,1760A,123.7086,41.8391,抚顺市,沈抚新城,颗粒物(PM10),53,56,53,23,26,92,,201,139,35,38,10,11,0.8,1.1
2025-06-24T0000,2376A,116.2127,28.0814,抚州市,桐源党溪,,19,16,22,10,10,59,,55,41,3,3,3,4,0.6,0.6
2025-06-24T0000,2377A,116.3544,27.9831,抚州市,市站,,14,14,18,3,8,26,,60,45,11,5,2,2,1.1,1.1
2025-06-24T0000,2378A,116.3565,27.963,抚州市,血防站,,18,18,20,9,10,29,,59,45,11,6,3,2,0.5,0.6
2025-06-24T0000,2379A,116.3564,28.0007,抚州市,采茶剧团,,16,16,18,3,7,23,,58,45,9,3,3,3,0.3,0.5
2025-06-24T0000,2380A,116.385,27.9647,抚州市,医学分院,,21,21,19,3,7,34,,61,46,2,2,3,4,0.9,1
2025-06-24T0000,2207A,121.6094,41.998,阜新市,工业园区,细颗粒物(PM2.5),63,52,49,45,28,128,,198,159,28,30,19,14,0.6,0.6
2025-06-24T0000,2208A,121.6697,42.0279,阜新市,长青街,细颗粒物(PM2.5),59,49,45,42,25,138,,182,160,19,25,21,18,0.8,0.7
2025-06-24T0000,2209A,121.6673,42.0705,阜新市,农业园区,臭氧1小时,65,55,39,36,20,172,,190,176,15,17,20,22,1.0,0.7
2025-06-24T0000,2210A,121.6717,42.0224,阜新市,东苑,细颗粒物(PM2.5),57,52,59,40,26,158,,189,167,21,28,29,23,0.8,0.8
2025-06-24T0000,2211A,121.6506,42.0498,阜新市,玉龙新城,颗粒物(PM10),55,59,48,33,21,37,,174,116,58,30,7,12,0.7,0.8
2025-06-24T0000,2301A,115.8277,32.8929,阜阳市,市监测站,,29,29,43,14,29,87,,143,120,17,17,2,3,0.4,0.4
2025-06-24T0000,2303A,115.8554,32.8605,阜阳市,开发区,,44,44,48,16,21,86,,143,119,20,17,5,6,0.2,0.2
2025-06-24T0000,2875A,115.784,32.8892,阜阳市,阜阳职业技术学院,,29,,30,20,18,74,,145,124,42,14,3,4,0.2,0.3
2025-06-24T0000,3468A,115.7901,32.8613,阜阳市,市规划展馆,,30,29,40,15,25,96,,140,120,15,12,3,3,0.3,0.4
2025-06-24T0000,3469A,115.836,32.9183,阜阳市,枣园社区,,35,35,56,12,29,49,,138,114,45,20,4,5,0.4,0.5
2025-06-24T0000,2669A,102.9099,34.9841,甘南藏族自治州,州政府,,28,,28,15,18,88,,110,103,11,18,5,5,0.2,0.3
2025-06-24T0000,3380A,102.8914,34.9617,甘南藏族自治州,甘肃民族师范学院,,24,20,37,11,11,76,,117,105,12,13,8,8,0.4,0.4
2025-06-24T0000,2570A,101.9603,30.0475,甘孜藏族自治州,水桥子,,26,,20,8,11,82,,106,85,9,18,5,5,0.4,0.3
2025-06-24T0000,3065A,101.9533,29.9972,甘孜藏族自治州,州环保局,,27,8,23,3,8,84,,108,90,10,15,2,2,0.5,0.4
2025-06-24T0000,3414A,115.8347,28.932,赣江新区,桑海产业园,,24,7,3,3,1,75,,89,86,11,8,7,6,0.5,0.3
2025-06-24T0000,2362A,114.9017,25.9149,赣州市,通天岩,,28,28,18,3,4,33,,56,41,5,4,3,2,0.4,0.4
2025-06-24T0000,2363A,114.9367,25.8664,赣州市,地委,,23,23,16,12,10,43,,66,53,7,9,1,3,0.6,0.7
2025-06-24T0000,2364A,114.9461,25.8481,赣州市,气象台,,31,31,18,6,5,38,,65,49,8,5,8,8,0.3,0.3
2025-06-24T0000,2365A,114.9322,25.8333,赣州市,市图书馆,,16,16,13,9,8,35,,63,46,8,7,5,4,0.5,0.5
2025-06-24T0000,2366A,114.8905,25.8471,赣州市,华坚鞋城,,29,29,21,17,9,43,,69,53,11,8,5,4,0.3,0.3
2025-06-24T0000,3109A,115.0093,25.8613,赣州市,赣县区卫计委,,15,13,14,10,7,36,,58,45,8,8,4,2,0.2,0.2
2025-06-24T0000,2683A,106.2319,36.1417,固原市,马园,,34,29,23,22,10,108,,123,108,25,21,43,17,0.8,0.7
2025-06-24T0000,2684A,106.2792,36.0022,固原市,监测站,,37,26,17,21,17,117,,130,127,12,6,12,9,0.2,0.2
2025-06-24T0000,2685A,106.2375,36.0211,固原市,新区,,33,26,18,14,11,105,,129,123,15,7,4,3,0.4,0.4
2025-06-24T0000,3522A,106.2177,35.9959,固原市,原州区十五小,,34,22,20,15,14,106,,125,120,12,8,10,9,0.3,0.3
2025-06-24T0000,2543A,106.6308,30.5278,广安市,小平旧居,,,,,,,,,,,,,,,,
2025-06-24T0000,2544A,106.6303,30.4576,广安市,市委,,23,,12,16,10,68,,116,93,15,13,3,2,0.5,0.4
2025-06-24T0000,2545A,106.6271,30.4663,广安市,友谊中学,,,23,16,14,8,,,128,107,17,13,6,6,0.7,0.6
2025-06-24T0000,2547A,106.6388,30.4551,广安市,广电花园,,20,15,15,9,11,62,,121,93,14,11,9,8,0.5,0.4
2025-06-24T0000,2902A,106.6351,30.4865,广安市,北辰小学,,26,20,16,10,9,81,,120,100,11,9,8,7,0.6,0.6
2025-06-24T0000,2523A,105.8945,32.4535,广元市,黑石坡,,25,22,27,17,12,54,,124,90,18,8,14,10,0.5,0.4
2025-06-24T0000,2524A,105.821,32.4444,广元市,老城,,28,21,20,11,8,16,,132,79,55,20,1,6,0.8,0.9
2025-06-24T0000,2526A,105.8628,32.4287,广元市,监测站,,30,,17,21,12,56,,131,92,17,15,7,9,0.5,0.5
2025-06-24T0000,3617A,105.8047,32.4166,广元市,经开区,,26,26,28,18,16,54,,132,95,22,18,4,10,0.5,0.6
2025-06-24T0000,1345A,113.2347,23.1423,广州市,广雅中学,,18,18,20,8,8,25,,104,65,16,15,3,3,0.5,0.5
2025-06-24T0000,1346A,113.2612,23.105,广州市,市五中,,16,16,19,6,9,22,,99,59,19,15,5,4,0.5,0.4
2025-06-24T0000,1348A,113.3478,23.0916,广州市,广东商学院,,23,20,20,16,12,23,,94,,22,21,4,3,0.6,0.6
2025-06-24T0000,1349A,113.4332,23.1047,广州市,市八十六中,,18,18,18,6,7,8,,87,29,36,27,4,3,0.6,0.6
2025-06-24T0000,1350A,113.3505,22.9483,广州市,番禺中学,,15,15,17,7,8,27,,86,52,16,14,9,7,0.6,0.5
2025-06-24T0000,1351A,113.2146,23.3916,广州市,花都师范,,21,21,20,8,7,24,,118,78,22,19,4,4,0.4,0.2
2025-06-24T0000,1352A,113.2597,23.1331,广州市,市监测站,,14,14,16,8,8,26,,100,61,9,8,6,5,0.3,0.3
2025-06-24T0000,1353A,113.5618,23.312,广州市,九龙镇镇龙,,26,26,21,7,9,6,,102,57,37,21,7,6,0.4,0.4
2025-06-24T0000,1354A,113.2765,23.1544,广州市,麓湖,,15,15,17,6,6,24,,93,56,15,13,3,2,0.5,0.7
2025-06-24T0000,1355A,113.443,23.3035,广州市,帽峰山森林公园,,17,17,14,6,7,27,,114,71,25,17,8,7,0.5,0.4
2025-06-24T0000,2846A,113.3221,23.1322,广州市,体育西,,20,20,21,10,10,24,,101,56,20,20,5,5,0.4,0.4
2025-06-24T0000,3298A,113.5717,23.5491,广州市,从化街口,,19,19,21,7,10,28,,138,96,24,18,9,8,0.6,0.6
2025-06-24T0000,3299A,113.3472,23.3692,广州市,白云竹料,,22,22,22,8,9,17,,106,63,31,20,3,3,0.6,0.7
2025-06-24T0000,3300A,113.2981,23.237,广州市,白云嘉禾,,25,25,23,12,10,24,,108,61,20,20,5,5,1.0,0.9
2025-06-24T0000,3301A,113.4256,23.1716,广州市,黄埔科学城,,22,22,21,7,8,13,,83,38,24,17,4,4,0.7,0.6
2025-06-24T0000,3302A,113.3942,23.0483,广州市,番禺大学城,,26,26,16,7,7,22,,89,48,25,20,7,5,0.8,0.6
2025-06-24T0000,3303A,113.4922,22.8168,广州市,南沙黄阁,,18,18,19,3,6,20,,74,40,17,10,4,4,0.4,0.5
2025-06-24T0000,3304A,113.5342,22.7896,广州市,南沙街,,23,23,18,7,7,17,,69,38,18,12,3,3,0.5,0.5
2025-06-24T0000,3443A,113.2902,23.5544,广州市,花都梯面,,26,26,21,8,10,23,,108,80,28,19,5,5,0.6,0.6
2025-06-24T0000,3445A,113.7858,23.7478,广州市,从化良口,,18,18,19,9,10,49,,125,102,13,10,6,6,0.6,0.6
2025-06-24T0000,3446A,113.8051,23.2614,广州市,增城荔城,,14,14,21,6,10,27,,116,67,15,13,6,6,0.3,0.4
2025-06-24T0000,2505A,109.568,23.1478,贵港市,德智高中,,,,,,,,,,,,,,,,
2025-06-24T0000,2506A,109.6047,23.0666,贵港市,江南子站,,31,31,29,13,14,29,,83,57,12,11,4,6,0.4,0.5
2025-06-24T0000,2508A,109.5669,23.1065,贵港市,荷城子站,,22,22,27,3,9,37,,72,54,11,13,6,6,0.2,0.3
2025-06-24T0000,3405A,109.5886,23.1172,贵港市,新世纪学校,,17,17,24,9,13,40,,80,57,10,13,6,5,0.3,0.4
2025-06-24T0000,4260A,109.5933,23.0951,贵港市,中山路155-3号,,22,22,34,15,18,43,,92,67,14,13,4,4,0.4,0.4
2025-06-24T0000,1439A,106.6899,26.5998,贵阳市,马鞍山,,14,14,23,3,7,32,,49,40,9,12,3,4,0.5,0.5
2025-06-24T0000,1441A,106.6243,26.6266,贵阳市,鉴湖路,,24,24,28,3,11,36,,76,57,14,13,7,7,0.4,0.4
2025-06-24T0000,1442A,106.7487,26.6343,贵阳市,燕子冲,,20,14,25,14,23,41,,82,60,9,13,4,4,0.2,0.2
2025-06-24T0000,1443A,106.6555,26.4365,贵阳市,碧云窝,,13,9,27,3,14,39,,97,75,14,12,4,5,0.4,0.5
2025-06-24T0000,1445A,106.7109,26.6027,贵阳市,红边门,,12,9,27,7,17,38,,84,59,9,12,4,4,0.3,0.4
2025-06-24T0000,1446A,106.7164,26.5699,贵阳市,新华路,,14,,21,9,24,43,,82,62,15,18,3,5,0.4,0.6
2025-06-24T0000,1447A,106.674,26.5424,贵阳市,太慈桥,,12,12,26,3,16,30,,78,56,17,20,5,6,0.4,0.5
2025-06-24T0000,1552A,106.805,26.3003,贵阳市,桐木岭,,18,12,28,7,15,55,,82,68,2,4,2,3,0.8,0.8
2025-06-24T0000,4230A,106.6882,26.5695,贵阳市,花果园大街66号,,16,,29,11,26,37,,83,64,14,17,3,4,0.1,0.4
2025-06-24T0000,4231A,106.6873,26.5169,贵阳市,漓江路57号,,11,7,29,3,16,33,,90,63,17,19,6,7,0.3,0.4
2025-06-24T0000,1862A,110.4144,25.3167,桂林市,电子科大尧山校区,,,,,,,,,,,,,,,,
2025-06-24T0000,1864A,110.3089,25.2708,桂林市,龙隐路小学,,28,28,26,15,10,19,,60,41,12,8,11,12,0.6,0.5
2025-06-24T0000,1865A,110.2869,25.2178,桂林市,八中,,40,40,24,16,8,21,,67,48,18,11,10,9,0.5,0.4
2025-06-24T0000,3531A,110.296,25.1253,桂林市,旅游学院,,14,14,12,9,9,21,,62,47,14,7,1,3,0.3,0.3
2025-06-24T0000,4222A,110.1835,25.2444,桂林市,环湖路276号,,32,31,22,22,14,14,,59,39,16,9,16,15,0.5,0.5
2025-06-24T0000,4301A,110.2803,25.2773,桂林市,信义路13号,,25,24,22,17,14,11,,62,42,20,10,2,3,0.6,0.5
2025-06-24T0000,2674A,100.2561,34.4714,果洛藏族自治州,玛沁县大武镇,,31,11,20,6,15,97,,111,105,2,5,19,20,0.4,0.5
2025-06-24T0000,1129A,126.5422,45.755,哈尔滨市,岭北,,41,26,22,16,14,129,,136,129,25,27,8,8,0.8,0.8
2025-06-24T0000,1130A,126.561,45.8167,哈尔滨市,松北商大,,30,30,27,10,11,78,,124,92,34,31,5,5,0.5,0.5
2025-06-24T0000,1131A,126.979,45.5419,哈尔滨市,阿城会宁,,41,41,34,22,16,35,,140,91,72,45,7,10,0.4,0.4
2025-06-24T0000,1132A,126.599,45.7222,哈尔滨市,南岗学府路,,39,38,42,13,14,122,,129,110,23,34,6,7,0.5,0.5
2025-06-24T0000,1133A,126.689,45.7733,哈尔滨市,太平宏伟公园,,41,7,44,3,18,129,,127,115,22,40,6,6,0.5,0.4
2025-06-24T0000,1134A,126.635,45.7667,哈尔滨市,道外承德广场,,50,50,43,15,15,110,,127,102,32,39,8,8,0.6,0.5
2025-06-24T0000,1135A,126.685,45.7319,哈尔滨市,香坊红旗大街,,35,29,37,15,16,109,,132,102,33,44,9,11,0.6,0.5
2025-06-24T0000,1136A,126.6411,45.7258,哈尔滨市,动力和平路,,41,30,30,13,9,129,,134,115,25,39,11,11,0.3,0.4
2025-06-24T0000,1137A,126.593,45.7478,哈尔滨市,道里建国路,,36,11,28,3,17,114,,131,103,26,38,11,17,0.5,0.5
2025-06-24T0000,1138A,126.615,45.61,哈尔滨市,平房东轻厂,,40,27,29,6,12,44,,134,86,80,47,9,10,0.3,0.3
2025-06-24T0000,1139A,126.595,45.9855,哈尔滨市,呼兰师专,,31,30,33,3,11,98,,134,106,28,24,8,8,0.3,0.3
2025-06-24T0000,1140A,126.6206,45.6842,哈尔滨市,省农科院,,49,49,64,18,22,74,,105,75,56,51,13,11,0.6,0.6
2025-06-24T0000,2688A,93.5128,42.8172,哈密市,地区监测站,,34,16,29,3,13,107,,129,120,13,8,13,18,0.1,0.1
2025-06-24T0000,2689A,93.4961,42.8328,哈密市,哈密师范学校,,35,14,27,13,10,111,,126,110,9,12,4,6,0.0,0.1
2025-06-24T0000,2671A,100.9048,36.9639,海北藏族自治州,海晏县西海镇,,36,20,19,12,17,113,,135,129,9,7,10,9,0.4,0.4
2025-06-24T0000,3867A,102.0738,36.5056,海东市,平安区公安北苑,,34,21,26,8,11,107,,124,109,4,8,8,12,0.5,0.6
2025-06-24T0000,1409A,110.576,19.9507,海口市,东寨港,,19,19,9,6,7,34,,45,40,3,3,9,12,0.3,0.3
2025-06-24T0000,1410A,110.3232,20.0574,海口市,海南大学,,19,19,14,7,7,40,,60,46,3,4,3,3,0.4,0.3
2025-06-24T0000,1411A,110.283,20.0053,海口市,秀英海南医院,,23,23,16,7,6,37,,59,36,6,9,5,5,0.2,0.3
2025-06-24T0000,1412A,110.338,19.9969,海口市,海南师范大学,,19,19,15,7,8,36,,60,42,5,5,4,4,0.3,0.2
2025-06-24T0000,1413A,110.33,20.0356,海口市,龙华路环保局宿舍,,22,22,15,9,8,38,,59,44,4,5,5,5,0.3,0.2
2025-06-24T0000,3539A,110.5111,19.9736,海口市,桂林洋子站,,18,18,15,6,7,36,,48,40,5,6,4,4,0.2,0.2
2025-06-24T0000,2673A,100.6188,36.2866,海南藏族自治州,共和县恰卜恰镇,,34,15,28,10,12,108,,138,,15,13,12,13,0.5,0.6
2025-06-24T0000,2676A,97.3731,37.3753,海西蒙古族藏族自治州,德令哈市,,,,21,,14,,,153,,,3,,11,,0.6
2025-06-24T0000,1048A,114.5302,36.6116,邯郸市,东污水处理厂,,48,48,55,9,8,118,,183,152,34,28,7,8,0.4,0.6
2025-06-24T0000,1049A,114.4918,36.5713,邯郸市,矿院,,45,45,41,14,14,124,,197,167,32,25,10,8,0.4,0.5
2025-06-24T0000,1050A,114.484,36.6133,邯郸市,丛台公园,,50,50,41,16,17,137,,184,165,20,20,9,10,0.4,0.6
2025-06-24T0000,3458A,114.7895,36.5593,邯郸市,香泉濮院小区,颗粒物(PM10),66,82,59,10,9,139,,176,154,13,14,7,8,0.6,0.6
2025-06-24T0000,3579A,114.50634,36.77178,邯郸市,永年区实验高中,颗粒物(PM10),55,59,61,32,26,110,,187,157,28,25,5,11,0.6,0.9
2025-06-24T0000,3580A,114.20016,36.44293,邯郸市,峰峰矿区临水派出所,,49,34,29,11,7,155,,182,176,16,11,8,8,0.4,0.3
2025-06-24T0000,2634A,106.9893,33.1842,汉中市,汉川机床厂子校,,45,17,18,10,11,141,,157,146,5,9,3,3,0.5,0.5
2025-06-24T0000,2635A,107.0154,33.0706,汉中市,市监测站,,34,27,26,11,17,106,,144,128,12,12,6,9,0.5,0.6
2025-06-24T0000,2636A,107.0089,33.1138,汉中市,鑫源开发区,,36,21,24,13,14,114,,151,129,11,12,5,7,0.4,0.5
2025-06-24T0000,2637A,107.007,33.0323,汉中市,南郑大河坎水厂,,24,24,22,15,13,71,,143,118,22,12,5,5,0.5,0.5
2025-06-24T0000,1223A,120.2072,30.2111,杭州市,滨江,,41,41,17,25,10,69,,98,92,22,21,6,7,0.5,0.7
2025-06-24T0000,1224A,120.0633,30.2747,杭州市,西溪,细颗粒物(PM2.5),57,,14,40,13,52,,84,81,13,11,3,4,0.4,0.4
2025-06-24T0000,1226A,120.3417,30.3150,杭州市,下沙,细颗粒物(PM2.5),52,,15,36,15,41,,104,78,42,23,4,4,0.4,0.4
2025-06-24T0000,1227A,120.1269,30.2456,杭州市,卧龙桥,,50,45,18,35,11,62,,86,77,16,10,6,7,0.8,0.8
2025-06-24T0000,1228A,120.1903,30.2692,杭州市,浙江农大,细颗粒物(PM2.5),58,63,21,41,15,53,,76,70,18,18,10,10,0.7,0.7
2025-06-24T0000,1230A,120.1197,30.3119,杭州市,和睦小学,,31,31,13,16,9,61,,96,87,17,12,8,8,0.4,0.4
2025-06-24T0000,1231A,120.3019,30.4183,杭州市,临平镇,,46,46,19,21,9,60,,111,90,21,14,5,5,0.5,0.5
2025-06-24T0000,1232A,120.2753,30.1839,杭州市,城厢镇,细颗粒物(PM2.5),59,,16,42,16,65,,96,86,23,16,7,6,0.8,0.8
2025-06-24T0000,1233A,120.0883,30.1808,杭州市,云栖,,27,27,12,12,6,62,,87,82,5,7,6,6,0.6,0.6
2025-06-24T0000,3557A,119.9464,30.0494,杭州市,镇二中,,29,,9,14,8,91,,88,88,8,18,2,3,0.6,0.6
2025-06-24T0000,3558A,119.7183,30.2367,杭州市,市府大楼,,26,,8,13,9,81,,94,94,9,10,6,6,0.5,0.5
2025-06-24T0000,3656A,120.1556,30.2864,杭州市,消防大队,,46,,12,32,11,79,,93,87,15,16,4,5,0.7,0.7
2025-06-24T0000,1270A,117.1959,31.7848,合肥市,明珠广场,,31,31,29,19,22,52,,103,77,23,22,4,4,0.6,0.6
2025-06-24T0000,1271A,117.3072,31.8764,合肥市,三里街,,34,34,27,19,18,63,,90,79,36,17,6,6,0.6,0.6
2025-06-24T0000,1272A,117.2588,31.8707,合肥市,琥珀山庄,,29,29,27,17,24,58,,97,81,25,15,6,6,0.7,0.7
2025-06-24T0000,1273A,117.1604,31.9052,合肥市,董铺水库,,41,41,27,24,16,56,,100,75,20,12,5,4,0.3,0.4
2025-06-24T0000,1274A,117.25,31.8571,合肥市,长江中路,,34,34,32,22,23,81,,106,94,22,14,7,6,0.6,0.7
2025-06-24T0000,1275A,117.266,31.9436,合肥市,庐阳区,,46,46,29,27,18,51,,104,80,21,14,8,8,0.7,0.7
2025-06-24T0000,1276A,117.3453,31.8616,合肥市,瑶海区,,,,32,,20,,,100,89,,16,,7,,0.7
2025-06-24T0000,1277A,117.3027,31.7964,合肥市,包河区,,36,36,31,17,22,23,,78,54,60,47,4,5,0.7,0.8
2025-06-24T0000,1278A,117.2776,31.7385,合肥市,滨湖新区,,34,34,28,22,24,34,,102,80,53,20,9,9,0.6,0.7
2025-06-24T0000,1279A,117.1318,31.8403,合肥市,高新区,,25,24,28,17,19,69,,94,72,14,20,7,7,0.6,0.6
2025-06-24T0000,3464A,117.3803,31.9147,合肥市,高教基地,,34,34,29,20,21,40,,82,56,24,13,7,7,0.6,0.6
2025-06-24T0000,3614A,79.924,37.0877,和田地区,地区环保局,颗粒物(PM10),373,478,537,132,126,61,,116,105,26,7,2,1,0.7,0.6
2025-06-24T0000,3615A,79.9131,37.113,和田地区,市环保局,颗粒物(PM10),293,415,479,123,144,75,,114,98,21,8,1,1,0.4,0.3
2025-06-24T0000,2516A,108.2011,24.715,河池市,东仁乐园,,,,,,,,,,,,,,,,
2025-06-24T0000,2517A,108.0497,24.6947,河池市,市环保站,,33,33,25,14,9,2,,42,22,15,7,3,4,0.7,0.6
2025-06-24T0000,2518A,108.0983,24.6989,河池市,市疾控中心,,39,39,25,16,13,3,,48,26,18,12,2,3,0.7,0.6
2025-06-24T0000,1696A,114.6778,23.7569,河源市,源西,,20,,22,14,15,58,,103,87,21,16,4,4,0.4,0.5
2025-06-24T0000,1697A,114.6944,23.7586,河源市,东埔,,17,12,21,9,11,52,,103,84,13,14,4,4,0.3,0.4
2025-06-24T0000,1698A,114.6892,23.7233,河源市,老城,,23,23,24,12,15,39,,101,82,12,11,4,4,0.4,0.2
2025-06-24T0000,1718A,115.4208,35.2464,菏泽市,气象局,颗粒物(PM10),54,57,53,29,25,110,,173,147,27,20,5,5,0.4,0.4
2025-06-24T0000,3374A,115.5564,35.0891,菏泽市,定陶老年大学,颗粒物(PM10),54,58,39,22,16,108,,162,140,20,15,3,4,0.3,0.2
2025-06-24T0000,4184A,115.4797,35.24401,菏泽市,永昌路1号,,44,44,44,16,16,116,,172,145,18,13,4,5,0.2,0.2
2025-06-24T0000,4193A,115.4715,35.2800,菏泽市,长城路999号,,44,42,46,18,18,138,,179,160,14,16,4,5,0.3,0.3
2025-06-24T0000,2514A,111.5264,24.4172,贺州市,环保小区,,38,35,28,26,18,26,,76,48,18,12,11,11,0.7,0.6
2025-06-24T0000,2515A,111.5608,24.4078,贺州市,政协大楼,,39,39,24,17,14,25,,77,50,17,13,16,12,0.8,0.6
2025-06-24T0000,3534A,111.4744,24.4553,贺州市,西湾,,33,31,26,23,15,29,,73,53,18,12,10,10,0.5,0.5
2025-06-24T0000,2385A,114.17,35.9019,鹤壁市,市监测站,,48,48,39,33,21,127,,180,159,12,11,8,9,0.9,0.8
2025-06-24T0000,2386A,114.2956,35.7511,鹤壁市,市交警支队,细颗粒物(PM2.5),64,,49,46,28,132,,177,153,20,29,13,6,0.6,0.7
2025-06-24T0000,2387A,114.2878,35.7306,鹤壁市,迎宾馆,,44,44,51,18,23,119,,171,146,20,27,9,6,0.6,0.6
2025-06-24T0000,3474A,114.2617,35.6822,鹤壁市,大新区,,47,47,51,25,22,99,,172,135,25,27,10,7,0.6,0.6
2025-06-24T0000,3596A,114.1572,35.9603,鹤壁市,南山宾馆,,48,48,49,27,30,142,,191,170,12,8,9,6,0.6,0.5
2025-06-24T0000,2244A,130.2537,47.3416,鹤岗市,哈啤分公司,,26,26,21,14,15,43,,95,72,10,10,13,14,0.5,0.3
2025-06-24T0000,2245A,130.2684,47.3086,鹤岗市,斯达机电,,39,39,30,19,18,55,,93,75,10,12,13,17,0.3,0.4
2025-06-24T0000,2246A,130.3114,47.3388,鹤岗市,东山纸板厂,,37,37,33,22,18,30,,90,52,10,17,14,15,0.8,1
2025-06-24T0000,2247A,130.1097,47.3382,鹤岗市,五号水库,,16,16,13,9,6,45,,93,59,12,12,12,12,0.6,0.5
2025-06-24T0000,2263A,127.4833,50.2524,黑河市,交通局,,26,26,32,14,12,30,,76,47,9,12,7,6,0.4,0.3
2025-06-24T0000,2264A,127.5144,50.2341,黑河市,环保局,颗粒物(PM10),54,58,37,20,15,47,,84,55,13,11,8,8,0.6,0.5
2025-06-24T0000,2265A,127.5291,50.2472,黑河市,大黑河岛,,18,,6,12,12,31,,61,48,4,9,19,21,0.4,0.4
2025-06-24T0000,1074A,115.6838,37.7541,衡水市,电机北厂,颗粒物(PM10),52,54,52,24,24,139,,215,187,17,15,5,7,0.3,0.4
2025-06-24T0000,1075A,115.6303,37.7316,衡水市,市监测站,颗粒物(PM10),52,53,58,26,20,127,,209,174,22,19,7,8,0.4,0.5
2025-06-24T0000,3188A,115.6683,37.7217,衡水市,市城管局,颗粒物(PM10),54,58,55,32,27,128,,220,185,24,19,6,8,0.4,0.5
2025-06-24T0000,3459A,115.5989,37.5491,衡水市,地表水厂,颗粒物(PM10),56,62,68,26,21,75,,196,138,52,39,6,8,0.2,0.3
2025-06-24T0000,2456A,112.5003,26.9167,衡阳市,原169医院,,17,13,22,3,9,53,,75,55,16,10,1,2,0.5,0.6
2025-06-24T0000,2457A,112.6194,26.9258,衡阳市,衡阳化工总厂,,19,14,29,13,18,60,,63,57,8,8,3,4,0.7,0.6
2025-06-24T0000,2458A,112.6211,26.8956,衡阳市,珠晖区环保局,,,17,25,,,67,,67,60,9,11,6,6,0.8,0.8
2025-06-24T0000,2459A,112.6197,26.8733,衡阳市,市委党校,,21,13,25,13,13,65,,69,62,8,8,6,6,0.7,0.7
2025-06-24T0000,2460A,112.6006,26.8919,衡阳市,市监测站,,18,,24,11,16,57,,66,58,10,9,8,6,0.8,0.6
2025-06-24T0000,2461A,112.5664,26.9056,衡阳市,真空机电公司,,22,,21,15,17,49,,62,52,7,7,5,6,0.9,1
2025-06-24T0000,3399A,112.6703,26.882,衡阳市,师范学院,,22,22,26,10,17,66,,71,68,8,8,5,5,1.0,0.9
2025-06-24T0000,2608A,103.3772,23.3993,红河哈尼族彝族自治州,污水处理厂,,14,14,21,6,13,42,,42,40,3,5,6,9,0.3,0.4
2025-06-24T0000,2609A,103.3861,23.35,红河哈尼族彝族自治州,监测站,,17,17,23,9,16,40,,40,38,3,5,8,15,0.3,0.3
2025-06-24T0000,3038A,103.3758,23.368,红河哈尼族彝族自治州,州图书馆,,15,,13,10,15,44,,42,42,3,5,1,8,0.1,0.2
2025-06-24T0000,1090A,111.6507,40.7517,呼和浩特市,呼市一监,颗粒物(PM10),52,53,44,30,20,82,,172,126,28,17,8,8,0.6,0.5
2025-06-24T0000,1091A,111.6572,40.8033,呼和浩特市,小召,,48,48,36,27,19,108,,179,151,29,26,7,6,0.5,0.5
2025-06-24T0000,1094A,111.7516,40.8369,呼和浩特市,如意水处理厂,细颗粒物(PM2.5),65,78,44,47,20,84,,190,148,47,23,9,6,0.6,0.5
2025-06-24T0000,1095A,111.7276,40.8062,呼和浩特市,二十九中,颗粒物(PM10),55,60,42,26,19,96,,187,153,25,18,7,6,0.6,0.6
2025-06-24T0000,1096A,111.5512,40.7866,呼和浩特市,工大金川校区,颗粒物(PM10),56,62,44,30,19,63,,190,146,59,21,8,8,0.6,0.5
2025-06-24T0000,1097A,111.717,40.7612,呼和浩特市,化肥厂生活区,颗粒物(PM10),53,55,43,23,18,96,,190,144,24,21,8,8,0.3,0.4
2025-06-24T0000,3698A,111.5968,40.8178,呼和浩特市,红旗小学,颗粒物(PM10),60,70,43,32,21,52,,195,132,84,26,5,5,0.5,0.4
2025-06-24T0000,3699A,111.6518,40.8389,呼和浩特市,海东办,颗粒物(PM10),51,51,39,30,19,78,,182,142,41,26,6,5,0.6,0.4
2025-06-24T0000,2192A,119.7594,49.2261,呼伦贝尔市,区环保局,颗粒物(PM10),66,81,47,45,34,6,,127,43,49,24,9,6,0.6,0.5
2025-06-24T0000,3061A,119.7512,49.1577,呼伦贝尔市,国华电力东,颗粒物(PM10),63,75,35,29,16,11,,141,72,36,12,4,4,0.6,0.4
2025-06-24T0000,1250A,120.0751,30.8669,湖州市,城西水厂,,48,43,17,33,11,67,,116,92,14,12,5,5,0.5,0.4
2025-06-24T0000,2873A,120.0830,30.8929,湖州市,仁皇山新区,,40,39,14,28,10,52,,114,84,25,11,4,4,0.6,0.5
2025-06-24T0000,2907A,120.1844,30.8596,湖州市,吴兴区站,,30,,9,21,10,59,,109,85,18,12,6,6,0.4,0.4
2025-06-24T0000,3562A,120.4148,30.8538,湖州市,南浔区站,,45,33,12,31,11,48,,106,75,21,15,5,4,0.5,0.5
2025-06-24T0000,1607A,120.9049,40.7211,葫芦岛市,龙港区,,,,64,11,49,173,,198,197,6,12,7,7,0.5,0.7
2025-06-24T0000,1608A,120.8392,40.7514,葫芦岛市,化工街,臭氧1小时,63,41,58,41,36,170,,200,196,19,44,6,9,0.6,0.7
2025-06-24T0000,1609A,120.8341,40.7073,葫芦岛市,新区,臭氧1小时,68,,52,22,57,174,,202,199,8,16,5,5,0.5,0.7
2025-06-24T0000,1610A,120.8695,40.7677,葫芦岛市,东城区,细颗粒物(PM2.5),64,,57,46,47,170,,175,174,12,40,6,15,0.8,0.8
2025-06-24T0000,2482A,109.5981,27.5721,怀化市,林科所,,17,17,8,7,4,20,,77,41,8,6,5,4,0.3,0.1
2025-06-24T0000,2483A,109.9453,27.5444,怀化市,河西地税局,,28,28,21,11,6,12,,70,39,21,8,4,4,0.3,0.2
2025-06-24T0000,2484A,109.9781,27.5342,怀化市,市四医院,,17,17,9,11,8,23,,65,42,13,5,2,2,0.3,0.5
2025-06-24T0000,2485A,109.9972,27.5578,怀化市,监测楼,,,28,11,25,6,20,,63,,,21,1,3,0.3,0.1
2025-06-24T0000,2486A,110.0394,27.583,怀化市,市委党校,,14,14,9,6,6,30,,67,41,7,6,4,5,0.3,0.2
2025-06-24T0000,1210A,119.036,33.5981,淮安市,钵池山,,28,,24,15,19,87,,150,110,13,16,8,8,0.4,0.5
2025-06-24T0000,1211A,119.007,33.575,淮安市,北京南路,,28,17,26,13,17,88,,148,108,3,8,6,7,0.4,0.5
2025-06-24T0000,1212A,118.989,33.6067,淮安市,市监测站,,,19,27,9,16,109,,173,,8,14,,9,0.3,0.4
2025-06-24T0000,1213A,119.135,33.5039,淮安市,楚州区监测站,,29,24,29,20,23,71,,136,97,14,10,10,8,0.6,0.6
2025-06-24T0000,3426A,118.8755,33.2894,淮安市,新华书店,,28,21,26,10,13,88,,139,114,8,9,8,8,0.4,0.4
2025-06-24T0000,4206A,119.0288,33.6319,淮安市,承德北路606号,,26,19,32,18,19,80,,141,101,8,13,6,5,0.5,0.6
2025-06-24T0000,2282A,116.8004,33.975,淮北市,监测站,细颗粒物(PM2.5),53,39,41,37,23,111,,169,140,13,8,7,7,0.8,0.8
2025-06-24T0000,2283A,116.8091,33.9007,淮北市,烈山区政府,颗粒物(PM10),56,61,52,26,20,78,,164,119,25,11,7,8,0.6,0.6
2025-06-24T0000,3330A,116.8873,33.9836,淮北市,杜集区检察院,颗粒物(PM10),55,60,53,37,28,89,,157,122,15,11,8,9,0.8,0.8
2025-06-24T0000,4017A,116.7923,33.9535,淮北市,市博物馆,细颗粒物(PM2.5),52,38,39,36,24,109,,171,140,13,7,8,9,0.8,0.8
2025-06-24T0000,2277A,116.8305,32.7727,淮南市,潘集区政府,颗粒物(PM10),60,69,49,42,33,68,,112,89,18,12,2,4,0.5,0.5
2025-06-24T0000,2279A,116.8569,32.5951,淮南市,谢家集区政府,颗粒物(PM10),54,57,43,23,18,78,,122,105,20,13,6,7,0.3,0.3
2025-06-24T0000,2280A,116.8281,32.633,淮南市,八公山区政府,,41,41,36,22,19,101,,123,109,8,10,3,3,0.3,0.3
2025-06-24T0000,2281A,116.6325,32.6201,淮南市,焦岗湖风景区管理处,,,,,,,,,,,,,,,,
2025-06-24T0000,2894A,117.0566,32.6531,淮南市,经济技术开发区消防队,颗粒物(PM10),56,61,39,24,20,64,,118,97,23,15,7,6,0.4,0.3
2025-06-24T0000,3329A,117.0108,32.5893,淮南市,山南新区,,28,28,31,6,10,69,,124,106,14,8,7,7,0.5,0.4
2025-06-24T0000,4209A,117.0031,32.6445,淮南市,国庆中路369号,颗粒物(PM10),60,70,45,34,28,64,,126,106,23,13,7,7,0.4,0.3
2025-06-24T0000,2446A,114.9028,30.4742,黄冈市,职工中心,,24,,14,15,12,76,,85,80,2,2,8,8,0.6,0.6
2025-06-24T0000,2929A,114.8858,30.4519,黄冈市,红卫路,,26,14,21,7,13,82,,85,82,2,4,5,5,0.5,0.5
2025-06-24T0000,3398A,114.9136,30.4445,黄冈市,市林业局,,23,19,20,14,15,73,,80,79,2,3,6,6,0.6,0.5
2025-06-24T0000,2672A,102.0199,35.5102,黄南藏族自治州,同仁县隆务镇,,26,19,19,3,7,83,,109,98,2,2,7,7,0.2,0.2
2025-06-24T0000,2295A,118.2903,29.6963,黄山市,延安路89号,,21,21,10,3,4,39,,70,52,6,3,6,5,0.6,0.6
2025-06-24T0000,2297A,118.1371,30.2756,黄山市,黄山区政府5号楼,,24,13,11,3,5,75,,68,60,5,3,4,4,0.6,0.5
2025-06-24T0000,4210A,118.3354,29.7203,黄山市,滨江东路7-2号,,18,18,12,3,5,36,,68,53,5,4,4,4,0.5,0.5
2025-06-24T0000,2423A,115.0601,30.2313,黄石市,沈家营,,40,40,34,12,9,49,,78,66,6,15,6,6,0.8,0.8
2025-06-24T0000,2426A,114.8988,30.2019,黄石市,铁山,,23,23,23,15,11,43,,88,74,10,13,3,4,0.4,0.6
2025-06-24T0000,2427A,115.0307,30.2092,黄石市,团城山,,37,37,29,14,9,66,,86,76,9,5,7,7,0.6,0.4
2025-06-24T0000,3149A,115.0235,30.1578,黄石市,笔架山北路,,42,42,23,10,6,34,,80,64,13,14,5,5,0.8,0.6
2025-06-24T0000,4185A,115.0780,30.21118,黄石市,磁湖东路29号,,39,39,32,12,13,58,,83,76,9,14,7,7,0.4,0.5
2025-06-24T0000,1392A,114.4183,23.0528,惠州市,河南岸金山湖子站,,12,12,18,3,10,18,,76,41,20,14,6,6,0.4,0.5
2025-06-24T0000,1393A,114.4053,23.0822,惠州市,下埔横江三路子站,,15,15,22,7,10,21,,94,49,21,15,4,4,0.5,0.2
2025-06-24T0000,1394A,114.4103,23.1142,惠州市,江北云山西路子站,,20,20,24,3,10,22,,104,53,19,15,6,7,0.4,0.5
2025-06-24T0000,1395A,114.4645,22.7833,惠州市,惠阳区承修路船湖子站,,11,11,15,6,7,33,,70,48,11,12,7,7,0.4,0.4
2025-06-24T0000,1396A,114.5317,22.7422,惠州市,大亚湾管委会子站,,16,9,12,3,5,49,,63,58,9,11,9,9,0.3,0.4
2025-06-24T0000,3314A,114.4338,22.8134,惠州市,惠阳秋长,,12,12,16,3,8,30,,84,63,16,15,8,9,0.4,0.4
2025-06-24T0000,3452A,114.6517,22.775,惠州市,大亚湾霞涌,,13,6,11,3,5,41,,63,54,10,11,5,6,0.2,0.2
2025-06-24T0000,2240A,130.9762,45.3001,鸡西市,环保局,,30,30,25,17,14,84,,102,85,12,12,4,4,0.4,0.4
2025-06-24T0000,2243A,130.9429,45.3039,鸡西市,第一中学,,30,27,24,16,16,93,,124,85,12,12,7,7,0.5,0.4
2025-06-24T0000,3707A,131.0207,45.3073,鸡西市,欧美日汽修厂,,36,36,30,19,16,71,,136,90,26,18,6,7,0.6,0.6
2025-06-24T0000,3709A,130.9967,45.3106,鸡西市,市政设施管理处,,41,41,30,19,15,80,,130,83,21,20,4,4,0.5,0.5
2025-06-24T0000,2367A,114.9754,27.0803,吉安市,红声器材厂,,21,21,23,7,11,36,,72,48,8,8,16,11,0.7,0.9
2025-06-24T0000,2368A,114.9658,27.0999,吉安市,市森林工业局,,17,17,23,7,10,42,,76,52,4,6,16,10,0.3,0.5
2025-06-24T0000,2369A,114.99,27.1312,吉安市,市环境监测站,,15,14,20,7,13,47,,78,,1,5,17,15,0.3,0.6
2025-06-24T0000,2370A,115.0093,27.0968,吉安市,青原区法院,,25,25,25,10,12,31,,73,41,12,11,20,11,0.2,0.4
2025-06-24T0000,1772A,126.54,43.8622,吉林市,哈达湾,,47,47,29,19,17,63,,160,131,37,17,8,7,0.3,0.3
2025-06-24T0000,1773A,126.5844,43.8358,吉林市,东局子,,42,36,25,29,18,93,,157,134,24,20,5,6,0.7,0.6
2025-06-24T0000,1774A,126.5052,43.8245,吉林市,电力学院,颗粒物(PM10),66,82,34,39,15,16,,160,91,57,29,5,5,0.5,0.5
2025-06-24T0000,1775A,126.6133,43.8972,吉林市,江北,,34,34,32,19,15,86,,158,122,16,18,7,7,0.4,0.4
2025-06-24T0000,1776A,126.555,43.8306,吉林市,江南公园,,32,32,26,15,17,78,,157,125,26,16,6,5,0.4,0.4
2025-06-24T0000,1778A,126.7061,43.7133,吉林市,丰满,,,,,,,,,,,,,,,,
2025-06-24T0000,2868A,126.4739,43.953,吉林市,九站,细颗粒物(PM2.5),69,64,34,50,18,50,,172,135,56,30,7,7,0.4,0.3
2025-06-24T0000,1299A,116.9862,36.6114,济南市,科干所,,39,29,28,20,15,124,,154,127,20,16,6,6,0.8,0.6
2025-06-24T0000,1300A,116.9376,36.665,济南市,农科所,颗粒物(PM10),58,66,35,27,15,80,,150,115,34,20,8,8,0.5,0.3
2025-06-24T0000,1301A,117.1265,36.6734,济南市,开发区,,40,32,29,12,15,127,,154,138,17,20,8,8,0.5,0.5
2025-06-24T0000,1303A,117.0624,36.6868,济南市,省种子仓库,,41,41,35,14,13,113,,170,139,38,21,7,7,0.5,0.4
2025-06-24T0000,1304A,116.9489,36.6447,济南市,机床二厂,颗粒物(PM10),56,61,42,24,15,76,,159,129,46,23,6,6,0.7,0.6
2025-06-24T0000,1305A,117.0495,36.663,济南市,市监测站,,43,34,29,20,14,137,,160,139,23,25,10,10,0.6,0.5
2025-06-24T0000,1306A,116.7675,36.5484,济南市,长清党校,,39,39,31,20,20,95,,165,141,42,23,5,7,0.5,0.5
2025-06-24T0000,1616A,117.6795,36.229,济南市,技术学院,,39,39,40,22,24,103,,179,130,26,23,9,11,0.8,1
2025-06-24T0000,1961A,117.532,36.6868,济南市,东山小学,,43,32,33,17,15,137,,161,150,12,13,10,9,0.5,0.4
2025-06-24T0000,3059A,117.7161,36.2049,济南市,泰兴公司,,35,34,40,24,24,97,,168,124,35,30,8,10,0.8,0.8
2025-06-24T0000,3064A,117.6867,36.2171,济南市,莱芜战役纪念馆,,40,39,47,28,30,102,,172,129,23,20,8,9,1.1,1.3
2025-06-24T0000,3494A,117.1673,36.9782,济南市,济阳区政府,颗粒物(PM10),61,71,54,22,16,73,,207,155,56,34,7,8,0.5,0.4
2025-06-24T0000,3495A,117.1171,36.63,济南市,锦屏中学,,38,34,22,12,10,119,,149,125,19,13,11,10,0.7,0.6
2025-06-24T0000,3682A,116.9814,36.6819,济南市,济南四建,,44,44,31,27,17,113,,167,142,33,21,7,6,0.6,0.4
2025-06-24T0000,1653A,116.6251,35.4302,济宁市,火炬城,,44,44,38,29,19,104,,148,130,19,13,4,6,0.5,0.4
2025-06-24T0000,1655A,116.5491,35.4042,济宁市,电化厂,,47,47,44,29,25,101,,162,129,19,15,4,5,0.7,0.7
2025-06-24T0000,3500A,116.5814,35.3707,济宁市,北湖一中,,,48,44,26,26,,,179,155,17,16,9,9,0.4,0.3
2025-06-24T0000,3501A,116.8249,35.5593,济宁市,服务中心,颗粒物(PM10),51,52,42,29,17,93,,154,127,29,21,3,3,0.4,0.3
2025-06-24T0000,3678A,116.5907,35.4054,济宁市,市第七中学,,47,47,43,19,16,111,,162,143,14,11,10,10,0.4,0.4
2025-06-24T0000,2255A,130.2751,46.8028,佳木斯市,佳纺,,49,49,33,23,16,64,,106,87,38,20,4,4,0.4,0.4
2025-06-24T0000,2256A,130.3995,46.8307,佳木斯市,发电厂,颗粒物(PM10),57,63,37,28,17,86,,118,104,21,20,5,5,0.4,0.4
2025-06-24T0000,2257A,130.3258,46.7975,佳木斯市,环保局,,44,44,33,24,18,73,,112,96,38,19,4,4,0.4,0.5
2025-06-24T0000,2258A,130.3648,46.8032,佳木斯市,十一中,,45,45,31,27,19,97,,116,107,20,17,6,6,0.4,0.4
2025-06-24T0000,2259A,130.3794,46.7588,佳木斯市,四丰,,,20,19,,,,,,,11,10,1,1,0.5,0.5
2025-06-24T0000,1252A,120.7436,30.778,嘉兴市,清河小学,,31,31,16,14,7,58,,112,84,16,16,8,7,0.8,0.8
2025-06-24T0000,1253A,120.726,30.7478,嘉兴市,嘉兴学院,,36,,14,25,14,53,,106,83,18,17,4,4,0.6,0.6
2025-06-24T0000,2872A,120.7846,30.7525,嘉兴市,南湖区残联,,30,24,14,21,11,56,,106,82,12,13,5,5,0.6,0.6
2025-06-24T0000,3407A,120.6916,30.7739,嘉兴市,秀洲住建,,22,22,11,14,7,56,,113,80,18,15,5,5,0.7,0.7
2025-06-24T0000,1945A,98.2908,39.7711,嘉峪关市,气象局,,45,7,22,7,9,141,,141,141,4,9,8,15,0.5,0.5
2025-06-24T0000,2884A,98.2672,39.7978,嘉峪关市,酒钢宾馆,,40,12,27,7,11,127,,141,136,5,8,11,23,0.5,0.5
2025-06-24T0000,3248A,98.2643,39.7724,嘉峪关市,雄关区,,41,24,30,12,16,129,,140,138,12,14,6,13,0.3,0.4
2025-06-24T0000,1383A,113.1064,22.6058,江门市,北街,,9,,24,3,7,28,,52,40,9,9,3,3,0.4,0.3
2025-06-24T0000,1384A,113.0731,22.5835,江门市,西区,,14,14,14,3,6,28,,56,42,10,8,8,8,0.4,0.4
2025-06-24T0000,1385A,113.0219,22.5311,江门市,圭峰西,,18,18,16,7,6,16,,51,37,13,7,3,3,0.4,0.4
2025-06-24T0000,1386A,113.0828,22.5947,江门市,东湖,,10,9,11,6,7,30,,55,42,9,9,6,6,0.4,0.4
2025-06-24T0000,3311A,113.1075,22.5647,江门市,江海富民,,26,26,21,7,11,32,,56,43,9,8,9,9,0.4,0.4
2025-06-24T0000,3449A,113.05,22.4667,江门市,新会银湖,,10,,16,3,8,29,,49,38,4,6,2,2,0.3,0.3
2025-06-24T0000,1830A,113.1992,35.2590,焦作市,影视城,,,,25,,8,,,,,,7,,13,,0.4
2025-06-24T0000,3169A,113.2725,35.2067,焦作市,太极体育中心,颗粒物(PM10),59,67,55,23,22,105,,202,156,38,25,6,7,0.4,0.4
2025-06-24T0000,3335A,113.3137,35.2641,焦作市,马村街道办,颗粒物(PM10),58,66,46,19,20,101,,183,147,25,18,14,12,0.6,0.5
2025-06-24T0000,3336A,113.2465,35.2373,焦作市,焦作技师学院,颗粒物(PM10),52,53,41,14,16,100,,178,143,17,13,6,6,0.7,0.6
2025-06-24T0000,3477A,113.1656,35.2539,焦作市,中站许衡医院,颗粒物(PM10),56,62,44,26,24,82,,187,143,53,23,7,8,0.4,0.4
2025-06-24T0000,3981A,113.2449,35.1803,焦作市,原李万街道办,颗粒物(PM10),61,71,45,17,14,96,,186,148,27,18,11,12,0.8,0.8
2025-06-24T0000,4264A,113.2340,35.2190,焦作市,新安路1731号,颗粒物(PM10),52,54,48,24,21,102,,185,153,20,11,9,8,0.4,0.4
2025-06-24T0000,1708A,116.3701,23.5345,揭阳市,新兴,,12,,18,8,11,33,,57,48,11,6,7,5,0.5,0.4
2025-06-24T0000,1709A,116.3264,23.5443,揭阳市,西马,,27,27,23,7,10,29,,50,40,12,9,1,2,0.5,0.5
2025-06-24T0000,1710A,116.3611,23.5626,揭阳市,东兴,,13,13,22,8,8,39,,65,55,10,8,2,2,0.5,0.4
2025-06-24T0000,1711A,116.4151,23.5294,揭阳市,渔湖,颗粒物(PM10),51,52,31,30,15,32,,57,46,9,8,7,8,0.3,0.3
2025-06-24T0000,3320A,116.403,23.5699,揭阳市,曲溪,,20,20,19,12,8,35,,68,57,9,4,3,3,0.4,0.4
2025-06-24T0000,1944A,102.1692,38.5167,金昌市,天庆家园,,25,17,30,8,18,80,,113,103,16,12,9,12,0.7,0.7
2025-06-24T0000,4022A,102.1647,38.5371,金昌市,金川区人防中心,,27,16,32,7,16,84,,124,112,11,10,12,14,0.6,0.6
2025-06-24T0000,4239A,102.1930,38.5319,金昌市,长春路96号,,31,21,31,9,13,97,,126,115,12,10,8,11,0.7,0.5
2025-06-24T0000,1262A,119.647,29.077,金华市,十五中,,15,15,14,7,11,44,,69,63,9,13,1,2,0.5,0.5
2025-06-24T0000,1263A,119.686,29.1029,金华市,监测站,,23,23,13,14,9,28,,60,51,18,13,2,2,0.3,0.3
2025-06-24T0000,3659A,119.656,29.1131,金华市,气象局,,20,19,14,14,8,26,,55,47,17,18,2,2,0.3,0.3
2025-06-24T0000,1767A,121.1115,41.0879,锦州市,南山,细颗粒物(PM2.5),114,,56,86,46,194,,206,206,16,35,37,19,1.3,0.8
2025-06-24T0000,1768A,121.0604,40.8428,锦州市,开发区,臭氧1小时,64,38,75,22,44,171,,189,188,19,24,18,17,0.7,0.9
2025-06-24T0000,1769A,121.1836,41.1119,锦州市,百股街道,臭氧1小时,102,,44,46,29,203,,206,198,15,24,18,10,0.8,0.8
2025-06-24T0000,1770A,121.1178,41.1222,锦州市,天安街道,细颗粒物(PM2.5),97,,59,72,43,189,,193,193,16,39,25,18,1.3,1.1
2025-06-24T0000,1771A,121.1303,41.1386,锦州市,北湖公园,细颗粒物(PM2.5),119,,55,90,38,216,,213,213,12,31,22,15,1.0,0.8
2025-06-24T0000,2160A,112.85,35.5051,晋城市,自来水公司,,47,36,46,19,17,148,,188,175,13,11,1,2,0,0
2025-06-24T0000,2161A,112.8318,35.4936,晋城市,白云商贸,颗粒物(PM10),54,57,50,7,11,138,,180,166,18,16,3,2,0.3,0.4
2025-06-24T0000,2162A,112.8508,35.4887,晋城市,市环保局,,43,43,50,14,17,125,,186,169,22,16,8,8,0,0
2025-06-24T0000,2163A,112.8676,35.4897,晋城市,技术学院,颗粒物(PM10),59,68,43,12,14,114,,167,149,25,17,8,8,0.3,0.3
2025-06-24T0000,2165A,112.8453,35.546,晋城市,白马寺,,50,40,33,23,21,157,,194,185,11,7,6,6,0.4,0.5
2025-06-24T0000,3620A,112.8271,35.4828,晋城市,泽州一中,,40,30,40,14,15,126,,189,173,28,20,4,5,0.4,0.4
2025-06-24T0000,2173A,112.7249,37.7067,晋中市,南都小区,,39,35,41,19,19,122,,173,140,8,9,3,3,0.4,0.4
2025-06-24T0000,2174A,112.6991,37.6982,晋中市,榆次区政府,,39,24,38,22,18,124,,171,141,7,9,5,6,0.4,0.5
2025-06-24T0000,2865A,112.7195,37.6828,晋中市,榆次三中,,36,36,42,12,12,107,,178,134,20,14,6,7,0.3,0.4
2025-06-24T0000,4200A,112.7478,37.6954,晋中市,迎宾街26号,,39,27,35,12,14,123,,184,144,15,11,6,7,0.4,0.5
2025-06-24T0000,2439A,112.2014,31.0481,荆门市,竹园小学,,35,,34,24,22,90,,145,114,11,11,8,6,0.2,0.3
2025-06-24T0000,2440A,112.1969,30.9891,荆门市,掇刀,,30,22,24,21,22,89,,135,113,6,7,8,7,0.6,0.5
2025-06-24T0000,2441A,112.2213,31.0386,荆门市,石化一小,,27,27,30,18,21,83,,149,115,10,11,9,9,0.3,0.3
2025-06-24T0000,3012A,112.1849,31.0362,荆门市,西山林语,,30,27,23,21,20,88,,139,113,5,3,10,10,0.4,0.4
2025-06-24T0000,3547A,112.1632,31.0138,荆门市,龙泉中学南校,,31,31,24,19,18,91,,134,111,3,4,5,5,0.4,0.4
2025-06-24T0000,1844A,112.2494,30.3197,荆州市,市图书馆,,34,34,21,16,17,87,,128,109,13,12,5,4,0.6,0.5
2025-06-24T0000,1845A,112.2008,30.3544,荆州市,市委党校,,26,18,21,16,15,81,,118,102,19,14,20,7,0.5,0.4
2025-06-24T0000,3194A,112.2747,30.3122,荆州市,管委会,,33,,21,23,18,83,,122,105,11,10,6,6,0.7,0.7
2025-06-24T0000,4268A,112.1722,30.3366,荆州市,学苑路85号,,30,24,16,21,19,48,,115,88,35,10,7,3,0.4,0.4
2025-06-24T0000,2342A,117.3102,29.3867,景德镇市,王港中学,,,,,,,,,,,,,,,,
2025-06-24T0000,2343A,117.2117,29.2933,景德镇市,老干部活动中心,,18,18,10,6,2,57,,68,53,10,14,7,6,0.8,0.8
2025-06-24T0000,2344A,117.1894,29.2789,景德镇市,兽医站,,19,19,17,7,5,58,,68,54,7,9,4,5,0.5,0.5
2025-06-24T0000,2345A,117.1547,29.2617,景德镇市,台达陶瓷,,18,11,14,9,8,56,,68,54,9,15,15,32,0.7,0.7
2025-06-24T0000,2346A,117.2461,29.2956,景德镇市,陶研所,,20,16,11,14,5,48,,73,49,6,7,6,4,0.5,0.6
2025-06-24T0000,1803A,115.9872,29.6815,九江市,十里,,18,12,8,12,8,39,,86,68,23,14,2,2,0.8,0.7
2025-06-24T0000,1804A,115.9584,29.7046,九江市,茅山头,,19,,9,9,10,60,,94,75,21,17,4,5,0.5,0.5
2025-06-24T0000,1805A,115.9877,29.7295,九江市,西园,,22,7,11,3,5,68,,105,77,24,20,5,7,0.8,0.8
2025-06-24T0000,1808A,115.9114,29.6038,九江市,综合工业园,,14,13,10,3,3,38,,81,52,27,30,3,3,0.8,0.8
2025-06-24T0000,1809A,116.0721,29.7535,九江市,石化总厂,,39,,10,27,19,66,,90,78,12,11,6,6,0.9,0.9
2025-06-24T0000,1810A,115.9773,29.5698,九江市,庐山气象台,,31,,3,6,4,97,,90,89,3,4,6,6,0.6,0.9
2025-06-24T0000,3190A,116.0254,29.6994,九江市,外国语学校,,17,14,8,7,7,54,,85,57,21,18,2,5,0.7,0.7
2025-06-24T0000,4253A,116.0102,29.6594,九江市,莲花大道8号,,15,15,7,8,7,38,,81,61,12,6,4,4,0.6,0.6
2025-06-24T0000,4240A,98.4958,39.7339,酒泉市,玉门东路5号,,44,,29,25,22,138,,142,137,3,8,9,14,0.2,0.3
2025-06-24T0000,4241A,98.5099,39.7506,酒泉市,北大街108号,,39,,28,18,17,122,,149,141,6,7,12,16,0.3,0.4
2025-06-24T0000,2698A,76.0072,39.4467,喀什地区,巡警大队,颗粒物(PM10),77,104,72,24,17,118,,156,149,21,15,4,3,0.4,0.3
2025-06-24T0000,2699A,75.9755,39.4694,喀什地区,吾办,颗粒物(PM10),76,102,73,36,29,108,,152,142,27,17,5,6,0.5,0.4
2025-06-24T0000,4027A,75.9483,39.4689,喀什地区,老干局,,,142,81,55,21,,,150,150,27,10,5,3,0.6,0.4
2025-06-24T0000,1824A,114.3389,34.7781,开封市,肿瘤医院,,49,49,50,26,22,103,,172,139,25,20,2,3,0.3,0.3
2025-06-24T0000,1826A,114.2885,34.7965,开封市,世纪星幼儿园,,50,46,49,35,27,130,,178,150,17,20,3,4,0.7,0.7
2025-06-24T0000,3147A,114.3438,34.8106,开封市,龙亭公园,颗粒物(PM10),54,57,42,32,19,133,,185,171,14,13,4,5,0.3,0.3
2025-06-24T0000,3210A,114.3644,34.7964,开封市,汴京公园,颗粒物(PM10),56,61,51,30,25,116,,184,146,24,21,5,6,0.3,0.4
2025-06-24T0000,3473A,114.2485,34.8306,开封市,技师学院,,46,39,37,32,23,146,,182,162,13,16,4,6,0.5,0.4
2025-06-24T0000,3592A,114.4644,34.7556,开封市,祥符区生态环境局,颗粒物(PM10),59,68,52,29,23,19,,171,108,88,34,6,8,0.6,0.5
2025-06-24T0000,1951A,84.895,45.6094,克拉玛依市,长征新村,,27,27,27,3,8,74,,96,93,22,13,4,4,0.3,0.3
2025-06-24T0000,1952A,84.8988,45.5893,克拉玛依市,南林小区,,41,41,33,15,14,27,,79,76,40,21,3,3,0.2,0.1
2025-06-24T0000,1954A,84.905,44.3396,克拉玛依市,独山子区,,27,25,30,12,11,85,,104,85,6,8,7,7,0.2,0.3
2025-06-24T0000,1955A,85.6979,46.098,克拉玛依市,乌尔禾区商贸楼,,31,31,29,3,5,88,,98,92,9,9,4,4,0.3,0.3
2025-06-24T0000,3612A,85.1045,45.6899,克拉玛依市,白碱滩区新站,,50,50,66,31,27,87,,90,90,8,16,4,5,0.5,0.5
2025-06-24T0000,2697A,76.1454,39.7142,克孜勒苏柯尔克孜自治州,市人民政府,,50,50,41,24,18,132,,148,148,10,5,5,11,0.3,0.2
2025-06-24T0000,3665A,76.1658,39.7157,克孜勒苏柯尔克孜自治州,克州文化中心,,45,40,34,17,15,142,,148,148,4,3,2,8,0.4,0.4
2025-06-24T0000,1450A,102.8204,24.8886,昆明市,呈贡新区,,14,9,8,9,10,0,,52,24,28,16,6,5,0.4,0.3
2025-06-24T0000,1451A,102.6251,24.9608,昆明市,西山森林公园,,,,,,,,,,,,,,,,
2025-06-24T0000,1452A,102.7252,25.0902,昆明市,龙泉镇,,21,21,12,3,5,4,,55,30,25,12,1,2,0.5,0.4
2025-06-24T0000,1453A,102.7266,25.0375,昆明市,东风东路,,26,26,19,12,8,1,,56,29,38,20,4,4,0.6,0.4
2025-06-24T0000,1454A,102.6742,25.0669,昆明市,金鼎山,,15,15,17,6,5,7,,50,29,30,16,2,2,0.4,0.4
2025-06-24T0000,1455A,102.6644,25.0401,昆明市,碧鸡广场,,20,15,14,14,9,4,,48,29,31,19,6,5,0.5,0.5
2025-06-24T0000,3179A,102.7494,25.0119,昆明市,官渡区博物馆,,20,19,16,14,7,1,,55,26,37,22,6,6,0.6,0.5
2025-06-24T0000,3375A,102.8017,24.8336,昆明市,青年创业园,,13,10,9,8,8,0,,62,25,26,16,19,8,0.4,0.4
2025-06-24T0000,3550A,102.7997,24.9786,昆明市,昆明学院,,18,18,23,9,14,1,,54,25,35,21,5,5,0.3,0.3
2025-06-24T0000,3551A,102.5967,24.6736,昆明市,晋宁区生态环境分局,,15,15,14,7,6,11,,52,22,8,7,2,2,0.4,0.5
2025-06-24T0000,3552A,102.6678,24.9856,昆明市,云天化总部,,17,9,13,6,9,2,,48,23,34,18,5,4,0.6,0.5
2025-06-24T0000,1456A,91.1319,29.6514,拉萨市,八廓街,,32,7,15,7,8,102,,114,109,6,14,6,7,0.2,0.3
2025-06-24T0000,1457A,91.1221,29.6747,拉萨市,市环保局,,31,,18,9,10,99,,116,108,11,12,6,6,0.2,0.3
2025-06-24T0000,1458A,91.0874,29.6475,拉萨市,区监测站,,30,,13,6,8,94,,111,106,12,14,7,6,0.2,0.2
2025-06-24T0000,1459A,91.1774,29.6541,拉萨市,西藏大学,,32,6,15,3,8,102,,115,110,8,13,4,4,0.3,0.3
2025-06-24T0000,1460A,90.9798,29.6588,拉萨市,区辐射站,,26,10,15,7,7,83,,101,95,16,12,6,6,0.3,0.3
2025-06-24T0000,1461A,91.0834,29.6292,拉萨市,拉萨火车站,,28,8,18,7,7,87,,112,101,9,9,4,4,0.2,0.1
2025-06-24T0000,2520A,109.2203,23.7256,来宾市,来宾技工学校,,18,16,26,12,13,52,,84,74,9,8,13,8,0.4,0.4
2025-06-24T0000,3535A,109.1781,23.7297,来宾市,兴宾区政府,,26,26,23,14,12,55,,79,72,9,9,5,5,0.5,0.6
2025-06-24T0000,4002A,109.2416,23.7461,来宾市,中南小学,,23,23,25,3,10,57,,84,78,6,7,7,7,0.3,0.4
2025-06-24T0000,1477A,104.1373,35.9454,兰州市,榆中兰大校区,,,,,,,,,,,,,,,,
2025-06-24T0000,1479A,103.831,36.0464,兰州市,铁路设计院,,42,33,38,29,25,102,,121,107,20,28,11,14,0.4,0.6
2025-06-24T0000,3241A,103.7439,36.0842,兰州市,百合公园,,30,29,30,19,18,95,,126,111,8,19,6,6,0.6,0.4
2025-06-24T0000,3242A,103.9611,35.998,兰州市,和平,,35,27,26,24,16,111,,125,118,12,13,9,11,0.8,0.8
2025-06-24T0000,4236A,103.6293,36.0938,兰州市,庄浪东路808号,,45,31,35,31,25,96,,130,106,19,24,11,12,0.3,0.3
2025-06-24T0000,4237A,103.7251,36.1043,兰州市,安宁西路88号,,38,,27,26,20,109,,140,124,4,11,5,8,0.3,0.4
2025-06-24T0000,4238A,103.8470,36.0676,兰州市,北滨河东路1号,,40,28,29,28,23,108,,131,117,15,23,10,13,0.5,0.6
2025-06-24T0000,3245A,103.6633,36.533,兰州新区,新区管委会,,38,23,37,18,28,121,,152,136,8,12,7,21,0.3,0.5
2025-06-24T0000,3246A,103.6975,36.4789,兰州新区,舟曲中学,,37,12,22,6,16,118,,148,132,9,12,7,25,0.4,0.5
2025-06-24T0000,1067A,116.6708,39.5111,廊坊市,药材公司,颗粒物(PM10),75,100,102,46,59,102,,252,162,44,31,5,7,0.6,0.7
2025-06-24T0000,1068A,116.7214,39.5589,廊坊市,开发区,颗粒物(PM10),69,88,114,45,67,110,,270,142,37,32,3,6,0.5,0.8
2025-06-24T0000,1070A,116.7244,39.5269,廊坊市,北华航天学院,颗粒物(PM10),84,118,138,45,79,156,,244,155,21,32,4,6,0.6,0.8
2025-06-24T0000,2919A,116.7022,39.5453,廊坊市,河北工业大学,颗粒物(PM10),84,117,121,42,63,161,,266,180,29,33,7,9,0.6,0.8
2025-06-24T0000,2535A,103.7723,29.5462,乐山市,花湖湾,,30,24,28,21,24,69,,80,80,15,14,2,2,0.5,0.6
2025-06-24T0000,2536A,103.7627,29.5844,乐山市,牛耳桥,,30,29,31,21,24,69,,87,81,16,15,8,7,0.8,0.8
2025-06-24T0000,2537A,103.7508,29.6006,乐山市,市第三水厂,,31,31,34,18,25,59,,80,76,23,19,4,4,0.8,0.8
2025-06-24T0000,2538A,103.7571,29.5664,乐山市,市监测站,,32,27,32,22,22,64,,80,76,10,9,6,6,0.7,0.7
2025-06-24T0000,3361A,103.7311,29.5628,乐山市,理工大学,,26,21,29,18,24,74,,89,83,15,15,6,6,0.6,0.5
2025-06-24T0000,2598A,100.2143,26.8576,丽江市,西南郊,,14,12,13,9,6,44,,95,66,11,7,6,6,1.2,1.2
2025-06-24T0000,2599A,100.2497,26.8802,丽江市,丽江古城,,18,18,17,10,9,45,,85,60,12,9,10,10,0.5,0.4
2025-06-24T0000,2600A,100.2203,26.8906,丽江市,市中心,,16,,10,11,7,40,,90,56,8,7,7,7,0.9,0.8
2025-06-24T0000,1267A,119.914,28.4514,丽水市,监测站大楼,,11,6,16,3,6,7,,29,17,21,19,2,3,0.4,0.4
2025-06-24T0000,1268A,119.93,28.4586,丽水市,莲都小学,,13,13,15,6,6,20,,69,43,19,11,3,3,0.3,0.4
2025-06-24T0000,1269A,119.879,28.4231,丽水市,余庄前,,15,15,17,3,7,11,,75,30,18,10,3,3,0.4,0.5
2025-06-24T0000,1173A,119.176,34.5885,连云港市,市环境监测站,,30,22,36,9,22,94,,172,107,14,15,8,9,0.5,0.6
2025-06-24T0000,3000A,119.3581,34.6972,连云港市,德源药业,,24,22,37,3,18,74,,142,85,12,10,8,9,0.8,0.9
2025-06-24T0000,3007A,119.178,34.844,连云港市,新城一中,,29,18,51,6,28,92,,178,104,18,19,6,9,0.6,0.9
2025-06-24T0000,3008A,119.3608,34.7519,连云港市,胡沟管理处,,39,19,28,12,20,28,,168,69,78,26,13,10,0.3,0.5
2025-06-24T0000,3009A,119.1478,34.5911,连云港市,矿山设计院,,28,19,38,7,20,88,,168,102,8,9,7,8,0.5,0.6
2025-06-24T0000,3434A,119.2413,34.6539,连云港市,工贸学校,,38,19,56,10,28,119,,168,122,4,5,10,9,0.9,0.7
2025-06-24T0000,3664A,119.4172,34.7341,连云港市,连云街道,,47,8,32,3,19,150,,166,129,3,11,7,9,0.4,0.5
2025-06-24T0000,2571A,102.3431,27.8099,凉山彝族自治州,青龙寺,,31,31,20,7,6,38,,99,77,19,7,4,4,0.6,0.6
2025-06-24T0000,2572A,102.2721,27.8415,凉山彝族自治州,邛海宾馆,,24,24,21,14,12,69,,102,92,9,10,14,9,0.5,0.4
2025-06-24T0000,2573A,102.2625,27.898,凉山彝族自治州,西昌市政府,,22,12,18,7,15,70,,103,91,8,8,15,14,0.5,0.6
2025-06-24T0000,2574A,102.2685,27.8851,凉山彝族自治州,凉山州政府,,23,,15,15,16,72,,101,91,11,11,13,12,0.7,0.7
2025-06-24T0000,4229A,102.2342,27.8859,凉山彝族自治州,凯乐南路30号,,21,21,25,10,10,66,,97,86,8,14,17,14,0.8,0.8
2025-06-24T0000,2212A,123.2,41.1953,辽阳市,宏伟区,臭氧1小时,52,30,39,20,15,161,,202,178,5,10,5,7,0.8,0.8
2025-06-24T0000,2213A,123.1683,41.2495,辽阳市,新华园,臭氧1小时,52,31,44,21,19,161,,210,171,6,15,5,7,0.5,0.6
2025-06-24T0000,2214A,123.2354,41.2639,辽阳市,滨河路,,46,36,39,17,17,146,,194,157,12,15,9,11,0.6,0.6
2025-06-24T0000,2215A,123.149,41.2991,辽阳市,铁西工业园,,43,43,58,23,22,115,,190,137,13,24,5,9,0.7,1
2025-06-24T0000,2227A,125.1358,42.8845,辽源市,环保局,颗粒物(PM10),51,51,31,18,14,7,,151,80,77,33,4,5,0.3,0.3
2025-06-24T0000,3239A,125.0764,42.9078,辽源市,银鹰制药,,46,43,28,23,17,4,,168,82,92,40,5,6,0.4,0.3
2025-06-24T0000,1625A,115.9848,36.4372,聊城市,区政府,,46,30,41,16,20,147,,174,161,18,19,9,10,0.4,0.5
2025-06-24T0000,2878A,116.0072,36.4343,聊城市,聊大东校,颗粒物(PM10),53,56,51,35,30,118,,180,146,27,22,7,9,0.6,0.5
2025-06-24T0000,3200A,115.9819,36.4978,聊城市,监控中心,,45,45,42,27,21,94,,182,130,41,29,9,11,0.6,0.6
2025-06-24T0000,3513A,116.0445,36.4361,聊城市,九州社区,颗粒物(PM10),54,57,53,29,23,100,,180,149,31,18,5,7,0.4,0.7
2025-06-24T0000,4018A,116.0567,36.4608,聊城市,星美广场,颗粒物(PM10),54,58,58,29,23,97,,178,133,42,28,11,12,0.6,0.6
2025-06-24T0000,2632A,94.3681,29.6376,林芝市,林芝监测站,,,,24,5,6,72,,91,86,4,5,4,4,0.2,0.2
2025-06-24T0000,2633A,94.3616,29.6616,林芝市,林芝人民医院,,25,8,13,3,5,77,,98,91,2,3,5,5,0.4,0.1
2025-06-24T0000,2603A,100.0781,23.8982,临沧市,市环保局,,23,22,14,16,14,5,,33,,9,7,8,4,0.6,0.4
2025-06-24T0000,2604A,100.0894,23.8822,临沧市,市气象局,,20,20,15,9,11,10,,30,20,9,7,8,8,0.4,0.4
2025-06-24T0000,1733A,111.5531,36.0783,临汾市,临钢医院,臭氧1小时,53,52,44,13,15,162,,191,187,14,14,8,8,0.5,0.6
2025-06-24T0000,1734A,111.5028,36.0714,临汾市,技工学校,,49,49,49,30,27,150,,197,182,20,14,11,9,0.5,0.5
2025-06-24T0000,1736A,111.5018,36.0855,临汾市,市委,颗粒物(PM10),57,64,59,18,17,159,,197,184,21,18,11,9,0.6,0.6
2025-06-24T0000,3018A,111.505,36.1014,临汾市,唐尧大酒店,颗粒物(PM10),56,62,61,14,18,148,,185,173,17,15,10,8,0.6,0.6
2025-06-24T0000,4244A,111.4879,36.0530,临汾市,启星学校,,49,49,46,32,29,140,,197,180,23,15,8,6,0.6,0.9
2025-06-24T0000,4271A,103.2464,35.6123,临夏回族自治州,滨河东路1号,,21,17,34,14,15,65,,100,90,10,8,8,9,0.3,0.3
2025-06-24T0000,4310A,103.2093,35.5995,临夏回族自治州,新华街21号,,33,17,29,12,18,104,,106,105,8,12,5,6,0.2,0.3
2025-06-24T0000,1618A,118.3429,35.0532,临沂市,沂河小区,,32,19,55,10,31,100,,174,133,14,20,7,9,0.3,0.5
2025-06-24T0000,1619A,118.295,35.0583,临沂市,鲁南制药厂,,32,24,57,18,30,100,,178,136,26,22,8,10,0.4,0.6
2025-06-24T0000,1620A,118.2794,34.9976,临沂市,新光毛纺厂,,29,,45,15,29,91,,181,133,23,18,7,10,0.3,0.6
2025-06-24T0000,1621A,118.3956,35.0888,临沂市,河东保险公司,,30,22,51,3,30,96,,178,135,18,22,5,7,0.4,0.6
2025-06-24T0000,3370A,118.3564,35.0215,临沂市,十里堡居委,,34,19,47,7,38,108,,194,148,13,21,8,10,0.4,0.6
2025-06-24T0000,3496A,118.3604,35.1084,临沂市,南坊新区,,31,24,60,9,31,98,,186,139,18,23,7,9,0.6,0.8
2025-06-24T0000,3860A,118.3920,35.0300,临沂市,皇山花园小区,,30,,56,13,40,95,,177,133,16,25,8,9,0.2,0.6
2025-06-24T0000,1870A,109.4856,24.3895,柳州市,柳东小学,,29,23,24,20,13,31,,74,54,11,9,10,10,0.5,0.5
2025-06-24T0000,1871A,109.4157,24.3277,柳州市,环保监测站,,,46,31,18,16,,,22,12,25,11,20,8,1.1,0.7
2025-06-24T0000,1872A,109.389,24.341,柳州市,河西水厂,,48,48,29,28,12,21,,74,42,22,13,24,7,0.4,0.5
2025-06-24T0000,1873A,109.4311,24.2921,柳州市,市四中,,33,33,31,18,14,35,,77,50,26,17,7,7,0.5,0.5
2025-06-24T0000,1874A,109.4006,24.3631,柳州市,市九中,颗粒物(PM10),59,68,32,29,13,18,,76,45,22,12,14,10,0.9,0.6
2025-06-24T0000,1875A,109.4958,24.3134,柳州市,古亭山,,21,21,28,11,12,25,,72,48,25,13,5,5,0.6,0.6
2025-06-24T0000,3402A,109.5422,24.3996,柳州市,市二中,,42,29,25,29,12,10,,76,54,26,13,12,13,0.4,0.4
2025-06-24T0000,2307A,116.5079,31.737,六安市,监测大楼,,40,,21,28,18,76,,104,97,5,4,4,4,0.3,0.3
2025-06-24T0000,2308A,116.4738,31.7643,六安市,皖西学院,,45,,17,31,17,84,,129,114,5,5,4,5,0.4,0.4
2025-06-24T0000,2309A,116.4996,31.7905,六安市,朝阳厂,,36,,16,25,15,77,,118,104,10,11,6,6,0.4,0.4
2025-06-24T0000,2310A,116.5567,31.7886,六安市,开发区,,28,,19,15,16,87,,115,107,6,5,3,2,0.4,0.4
2025-06-24T0000,2576A,104.8,26.5892,六盘水市,窑上,,34,34,27,3,5,47,,97,70,6,6,3,4,0.3,0.3
2025-06-24T0000,2577A,104.83,26.5917,六盘水市,黄土坡,,25,13,19,12,10,78,,107,92,8,12,8,10,0.5,0.6
2025-06-24T0000,2578A,104.89,26.5939,六盘水市,水钢,,42,,36,29,20,89,,112,95,4,16,9,11,0.4,0.7
2025-06-24T0000,2579A,104.8475,26.5894,六盘水市,民中,,,16,19,,9,,,108,94,6,14,8,10,,0.6
2025-06-24T0000,2580A,104.9544,26.5506,六盘水市,双水,,26,,15,11,10,81,,105,89,6,13,9,10,0.4,0.5
2025-06-24T0000,2335A,117.0189,25.1181,龙岩市,龙岩师专,,,,,,,,,,,,,,,,
2025-06-24T0000,2336A,117.0217,25.1033,龙岩市,龙岩市监测站,,28,28,17,12,6,19,,59,41,15,9,8,4,0.5,0.4
2025-06-24T0000,2337A,117.0258,25.0661,龙岩市,闽西职业技术学院,,28,28,22,10,9,14,,54,36,21,10,36,13,0.5,0.5
2025-06-24T0000,2338A,117.0196,25.0306,龙岩市,龙岩学院,,8,6,18,3,7,23,,56,42,10,6,6,4,0.4,0.3
2025-06-24T0000,2665A,105.0822,33.3261,陇南市,汉王镇固水子,,,,,,,,,,,,,,,,
2025-06-24T0000,2885A,104.9339,33.3826,陇南市,滨江中学,,34,34,28,12,16,65,,90,74,3,4,4,4,0.6,0.6
2025-06-24T0000,3247A,104.955,33.371,陇南市,市总工会,,38,38,35,6,7,69,,94,81,2,4,6,6,0.6,0.6
2025-06-24T0000,2487A,111.9589,27.8901,娄底市,电视发射台,,13,13,13,3,3,20,,70,34,3,3,6,6,0.4,0.4
2025-06-24T0000,2488A,111.9975,27.725,娄底市,市监测站,,16,16,16,7,8,36,,79,52,21,18,9,10,0.7,0.7
2025-06-24T0000,2489A,112.0194,27.7314,娄底市,市委党校,,21,8,12,3,8,66,,91,72,5,7,3,3,0.5,0.5
2025-06-24T0000,2490A,111.9561,27.7569,娄底市,涟钢,,19,19,15,11,7,36,,77,54,7,8,3,2,0.3,0.4
2025-06-24T0000,2491A,111.9892,27.7044,娄底市,市政府,,22,22,15,15,10,30,,91,61,8,8,5,5,0.5,0.4
2025-06-24T0000,1893A,105.4324,28.9634,泸州市,九狮山,,43,43,34,24,18,118,,126,114,29,19,7,6,0.4,0.3
2025-06-24T0000,1894A,105.4427,28.9063,泸州市,小市上码头,,39,37,27,20,14,123,,136,134,15,7,14,13,0.7,0.7
2025-06-24T0000,1895A,105.4241,28.8573,泸州市,兰田宪桥,,,34,21,24,16,,,124,123,17,11,8,8,0.8,0.7
2025-06-24T0000,1896A,105.4379,28.8833,泸州市,市环监站,,38,32,25,22,17,119,,122,122,15,11,8,8,0.4,0.3
2025-06-24T0000,4272A,105.3689,28.7783,泸州市,纳溪中医医院,,40,40,30,26,23,48,,131,108,41,14,4,4,1.0,0.9
2025-06-24T0000,2183A,111.1406,37.5211,吕梁市,环保局,颗粒物(PM10),66,81,67,32,27,74,,193,140,34,22,9,7,0.5,0.7
2025-06-24T0000,2185A,111.1297,37.5136,吕梁市,自来水公司,颗粒物(PM10),61,71,68,29,25,67,,185,123,26,21,12,8,0.5,0.6
2025-06-24T0000,2867A,111.1283,37.51,吕梁市,马茂庄小学,颗粒物(PM10),67,84,68,29,27,66,,188,131,33,27,12,8,0.5,0.6
2025-06-24T0000,1812A,112.3931,34.6516,洛阳市,市委党校,,49,49,32,30,21,137,,186,169,17,11,19,11,0.6,0.5
2025-06-24T0000,1815A,112.494,34.6886,洛阳市,河南林校,,46,42,40,25,19,145,,188,173,12,13,5,7,0.5,0.5
2025-06-24T0000,1816A,112.3844,34.623,洛阳市,开发区管委会,,47,47,31,30,20,119,,185,165,20,12,16,18,0.6,0.5
2025-06-24T0000,1817A,112.4267,34.6258,洛阳市,市委新办公区,,44,44,36,27,17,133,,179,162,12,9,11,10,0.4,0.3
2025-06-24T0000,3340A,112.6005,34.6326,洛阳市,伊滨,颗粒物(PM10),54,58,40,28,22,125,,180,165,17,12,5,6,0.5,0.5
2025-06-24T0000,3341A,112.4951,34.6332,洛阳市,中移产业园,,45,45,35,23,18,143,,180,168,12,10,6,7,0.6,0.5
2025-06-24T0000,3593A,112.5736,34.8993,洛阳市,吉利监测站,,43,43,44,22,23,105,,195,158,17,17,5,7,0.4,0.4
2025-06-24T0000,3635A,112.3677,34.662,洛阳市,河科大西苑校区,,50,50,33,20,15,139,,187,172,15,11,14,11,0.5,0.4
2025-06-24T0000,3636A,112.4388,34.6781,洛阳市,英才小学,,45,40,36,30,21,143,,180,166,13,12,14,9,0.8,0.7
2025-06-24T0000,4214A,112.4600,34.6949,洛阳市,春都路1号院,,46,40,37,29,18,146,,184,170,12,12,6,5,0.6,0.6
2025-06-24T0000,2399A,114.051,33.5699,漯河市,三五一五工厂,,38,38,37,22,23,104,,188,154,19,16,4,5,0.6,0.6
2025-06-24T0000,2400A,114.0055,33.5698,漯河市,漯河大学,,35,32,37,19,21,112,,189,157,16,17,4,5,0.4,0.4
2025-06-24T0000,2401A,114.0138,33.5828,漯河市,市水利局,,35,29,34,17,23,111,,186,157,14,13,8,5,0.6,0.6
2025-06-24T0000,2402A,114.0261,33.5698,漯河市,市广电局,,35,22,31,21,22,111,,190,158,14,13,4,3,0.5,0.5
2025-06-24T0000,3478A,113.9749,33.5664,漯河市,市图书馆,,34,34,44,22,24,91,,184,148,26,18,3,4,0.5,0.4
2025-06-24T0000,4250A,114.0892,33.5882,漯河市,韶山路11号,颗粒物(PM10),69,88,45,19,24,111,,181,153,18,18,2,3,0.5,0.5
2025-06-24T0000,1798A,118.5092,31.6837,马鞍山市,湖东路四小,,28,28,37,17,24,75,,103,83,13,12,6,7,0.5,0.7
2025-06-24T0000,1799A,118.5024,31.6449,马鞍山市,开发区,,37,37,34,20,18,65,,110,83,21,16,6,6,0.6,0.9
2025-06-24T0000,1802A,118.6245,31.7241,马鞍山市,濮塘,,29,29,30,14,21,63,,92,70,12,10,7,8,0.7,0.9
2025-06-24T0000,3633A,118.4918,31.6809,马鞍山市,雨山,,27,27,27,14,18,70,,103,83,17,14,7,7,0.4,0.7
2025-06-24T0000,4191A,118.5274,31.72227,马鞍山市,慈湖高新区,,29,29,32,19,23,55,,102,80,20,15,6,6,0.5,0.7
2025-06-24T0000,1686A,111.0286,21.4688,茂名市,电白南海,,15,14,12,7,8,48,,46,46,3,4,2,2,0.5,0.5
2025-06-24T0000,1687A,110.9294,21.6533,茂名市,茂石化七小,,19,19,14,3,3,38,,43,37,5,5,3,3,0.3,0.2
2025-06-24T0000,1688A,110.9107,21.6687,茂名市,健康路,,14,9,12,3,5,43,,48,43,7,7,3,3,0.1,0.1
2025-06-24T0000,1689A,110.8592,21.6828,茂名市,高岭,,19,19,18,3,1,35,,44,40,14,9,4,4,0.3,0.2
2025-06-24T0000,3450A,111.01,21.5165,茂名市,电白水东,,15,7,8,3,2,46,,45,45,4,4,4,4,0.3,0.3
2025-06-24T0000,2539A,104.0308,30.0478,眉山市,黑龙滩水库,,33,,16,23,27,62,,93,72,22,10,2,2,0.7,0.6
2025-06-24T0000,2540A,103.8416,30.0874,眉山市,气象局,,32,22,27,22,16,63,,92,,23,18,3,3,0.4,0.5
2025-06-24T0000,3137A,103.8578,30.0744,眉山市,市委党校,,23,22,25,12,13,72,,91,81,21,17,5,5,0.7,0.7
2025-06-24T0000,3148A,103.8291,30.0564,眉山市,区人社局,,40,40,40,17,12,64,,94,83,21,19,9,9,0.7,0.7
2025-06-24T0000,1690A,116.1231,24.3284,梅州市,梅江月梅,,28,28,20,14,9,13,,61,40,19,8,8,6,0.6,0.6
2025-06-24T0000,1691A,116.0797,24.2719,梅州市,梅县新城,,24,24,17,3,6,7,,56,35,20,8,6,6,0.5,0.5
2025-06-24T0000,1692A,116.1248,24.2654,梅州市,环境监控中心,,10,,23,7,9,16,,55,32,19,10,4,4,0.3,0.4
2025-06-24T0000,3315A,116.1233,24.2991,梅州市,梅龙,,19,19,14,13,10,21,,58,41,12,6,7,7,0.4,0.4
2025-06-24T0000,1878A,104.7778,31.4741,绵阳市,富乐山,,34,34,21,17,14,66,,101,83,13,12,8,8,0.5,0.4
2025-06-24T0000,1880A,104.6697,31.4668,绵阳市,高新区自来水公司,,35,35,25,7,8,42,,92,73,30,15,7,7,0.6,0.6
2025-06-24T0000,1881A,104.7287,31.5075,绵阳市,三水厂,,31,31,23,16,14,66,,95,75,19,14,8,8,0.6,0.6
2025-06-24T0000,3491A,104.69,31.5322,绵阳市,西科大附属小学,,26,26,24,14,13,66,,94,72,21,18,8,8,0.2,0.2
2025-06-24T0000,3492A,104.5648,31.5343,绵阳市,安州区旅游局,,20,14,25,12,11,64,,87,79,13,15,8,7,0.4,0.3
2025-06-24T0000,4226A,104.7651,31.4531,绵阳市,绵阳市气象局,,31,31,19,13,14,76,,100,82,12,13,12,11,0.4,0.4
2025-06-24T0000,1784A,129.61,44.561,牡丹江市,环保大楼,,28,28,26,10,12,65,,136,94,18,22,8,8,0.3,0.3
2025-06-24T0000,1785A,129.6115,44.5782,牡丹江市,文化广场,,28,28,22,16,14,67,,131,90,21,24,5,5,0.4,0.3
2025-06-24T0000,1786A,129.5904,44.5963,牡丹江市,第一医院,细颗粒物(PM2.5),99,,27,74,13,40,,131,,27,23,6,6,0.5,0.4
2025-06-24T0000,1787A,129.6364,44.6075,牡丹江市,机车工厂,,43,43,32,20,11,30,,126,76,32,22,7,7,0.5,0.5
2025-06-24T0000,1788A,129.6386,44.5462,牡丹江市,第一中学,,38,38,25,15,15,65,,133,95,13,19,6,6,0.4,0.4
2025-06-24T0000,2531A,105.0703,29.61,内江市,市监测站,,,,19,15,16,112,,122,118,,8,7,7,0.6,0.6
2025-06-24T0000,2532A,105.0717,29.5947,内江市,东兴区政府,,40,19,19,6,11,125,,128,128,9,10,1,2,0.4,0.4
2025-06-24T0000,2533A,105.0653,29.5817,内江市,内江二中,,34,21,21,12,20,108,,121,120,14,11,8,4,0.4,0.5
2025-06-24T0000,2534A,105.0406,29.5822,内江市,内江日报社,,36,15,20,10,18,114,,124,122,12,9,8,10,0.3,0.3
2025-06-24T0000,2628A,92.0657,31.4846,那曲市,那曲监测站,,35,10,31,8,21,112,,111,110,11,18,8,10,0.2,0.3
2025-06-24T0000,4243A,92.0515,31.4787,那曲市,那曲市委宣传部,,39,8,20,7,9,124,,120,120,6,15,8,10,0.3,0.3
2025-06-24T0000,1290A,115.8931,28.6843,南昌市,省外办,,20,15,9,9,7,62,,80,76,24,13,2,3,0.6,0.6
2025-06-24T0000,1291A,115.8886,28.7003,南昌市,省林业公司,,21,6,2,3,4,66,,79,75,15,11,9,8,0.7,0.7
2025-06-24T0000,1292A,115.8126,28.7442,南昌市,林科所,,10,6,1,3,1,30,,73,61,17,7,4,4,0.6,0.6
2025-06-24T0000,1294A,115.8518,28.687,南昌市,建工学校,,,6,7,,11,63,,77,75,12,6,,6,0.5,0.5
2025-06-24T0000,1295A,115.8921,28.6424,南昌市,象湖,,21,10,9,3,5,67,,79,73,18,12,6,6,0.7,0.7
2025-06-24T0000,1296A,115.7423,28.7996,南昌市,武术学校,,19,19,12,7,10,44,,66,58,3,3,6,11,0.4,0.4
2025-06-24T0000,3046A,115.9084,28.6062,南昌市,机电学校,,25,10,8,3,5,77,,77,69,10,12,3,2,0.6,0.7
2025-06-24T0000,3690A,115.9721,28.7031,南昌市,外国语学校,,25,9,4,6,4,78,,87,80,8,7,9,8,0.7,0.7
2025-06-24T0000,4192A,115.9316,28.68677,南昌市,南京东路235号,,22,21,10,3,0,70,,78,76,14,14,3,3,0.5,0.5
2025-06-24T0000,1905A,106.056,30.8064,南充市,西山风景区,,,,,,,,,,,,,,,,
2025-06-24T0000,1906A,106.0789,30.8023,南充市,南充市委,,29,15,16,7,10,92,,127,115,16,11,5,5,0.3,0.3
2025-06-24T0000,1907A,106.1031,30.8217,南充市,南充炼油厂,,28,28,19,16,13,72,,118,105,17,9,5,6,0.3,0.2
2025-06-24T0000,4227A,106.1083,30.7884,南充市,梨树横街98号,,29,23,19,10,9,90,,120,111,13,9,3,5,0.3,0.3
2025-06-24T0000,4304A,106.1172,30.843,南充市,清泉寺北路188号,,26,26,21,18,12,71,,120,110,14,10,3,4,0.3,0.3
2025-06-24T0000,4305A,106.067,30.7616,南充市,同庆路1号,,22,18,16,14,11,70,,117,104,24,9,4,4,0.3,0.2
2025-06-24T0000,1151A,118.8086,32.1065,南京市,迈皋桥,,23,22,28,14,18,72,,104,85,17,21,4,4,0.3,0.4
2025-06-24T0000,1152A,118.7538,32.0551,南京市,草场门,,27,27,33,14,20,78,,112,96,22,23,2,3,0.3,0.5
2025-06-24T0000,1153A,118.7794,32.0745,南京市,山西路,,29,24,36,9,17,91,,121,105,16,22,4,5,0.2,0.4
2025-06-24T0000,1154A,118.7752,32.0023,南京市,中华门,,23,14,28,12,20,72,,100,81,14,20,8,8,0.8,0.6
2025-06-24T0000,1155A,118.8109,32.0309,南京市,瑞金路,,22,22,30,14,21,68,,104,80,10,14,6,6,0.4,0.3
2025-06-24T0000,1156A,118.7997,32.0754,南京市,玄武湖,,26,20,33,3,13,82,,102,90,10,11,4,4,0.3,0.4
2025-06-24T0000,1157A,118.6414,32.0931,南京市,浦口,,34,34,32,16,17,44,,96,65,22,21,3,4,0.3,0.3
2025-06-24T0000,1158A,118.7356,31.9996,南京市,奥体中心,,25,24,31,12,20,78,,110,95,21,30,4,5,0.2,0.4
2025-06-24T0000,1159A,118.9125,32.1028,南京市,仙林大学城,,,31,39,12,15,,,113,,15,17,6,7,0.5,0.6
2025-06-24T0000,3422A,118.8436,31.9198,南京市,江宁彩虹桥,,23,23,26,14,18,68,,112,84,20,19,3,3,0.5,0.8
2025-06-24T0000,3427A,118.8554,32.3578,南京市,六合雄州,,40,40,30,27,21,69,,121,84,32,23,4,4,0.6,0.6
2025-06-24T0000,4249A,118.8708,31.3402,南京市,汶溪路181号,,33,26,21,23,17,80,,101,91,20,21,3,3,0.8,0.8
2025-06-24T0000,4312A,119.019,31.6512,南京市,中山西路1号,,29,29,24,13,17,61,,106,82,14,13,3,4,0.6,0.8
2025-06-24T0000,1401A,108.3103,22.7881,南宁市,二十一中,,12,8,20,8,8,36,,69,52,12,10,3,3,0.6,0.5
2025-06-24T0000,1402A,108.3141,22.8528,南宁市,北湖,,23,23,21,8,9,37,,75,53,9,9,4,4,0.5,0.4
2025-06-24T0000,1403A,108.3206,22.8225,南宁市,市监测站,,23,23,18,12,10,37,,72,52,8,8,6,6,0.6,0.5
2025-06-24T0000,1404A,108.3829,22.8037,南宁市,大自然花园,,22,22,21,13,10,42,,82,68,8,6,5,4,0.5,0.5
2025-06-24T0000,1405A,108.4394,22.7904,南宁市,仙葫,,21,21,18,10,11,46,,79,70,9,7,6,6,0.6,0.5
2025-06-24T0000,1406A,108.2397,22.8467,南宁市,区农职院,,18,16,21,12,9,37,,79,49,11,11,4,4,0.4,0.4
2025-06-24T0000,1407A,108.3275,22.735,南宁市,英华嘉园,,24,24,20,8,9,29,,72,51,19,12,8,7,0.6,0.5
2025-06-24T0000,3401A,108.4834,22.7618,南宁市,红星社区,,24,24,20,8,11,35,,79,66,8,5,3,2,0.6,0.5
2025-06-24T0000,4221A,108.2177,22.7774,南宁市,乐贤路16号,,24,24,21,9,10,27,,70,38,15,15,6,6,0.5,0.5
2025-06-24T0000,2331A,118.0966,26.6761,南平市,茫荡山,,,,,,,,,,,,,,,,
2025-06-24T0000,2332A,118.1681,26.6369,南平市,南平市监测站,,13,11,16,9,10,24,,66,33,12,11,5,5,0.5,0.6
2025-06-24T0000,2333A,118.1825,26.6489,南平市,南平铝业有限公司,,14,14,20,3,4,28,,66,30,12,12,4,5,0.6,0.7
2025-06-24T0000,2334A,118.1756,26.6272,南平市,南平七中,,20,20,17,10,8,24,,68,32,9,9,6,5,0.5,0.5
2025-06-24T0000,1168A,120.9098,31.9663,南通市,狼山街道,,26,10,12,6,6,82,,108,95,8,7,3,3,0.6,0.6
2025-06-24T0000,1169A,120.86,32.0005,南通市,虹桥,,27,15,14,7,9,86,,104,96,12,13,1,2,0.6,0.6
2025-06-24T0000,1170A,120.87,32.02,南通市,城中,,28,11,14,7,6,87,,104,97,8,8,2,3,0.7,0.7
2025-06-24T0000,1171A,120.94,31.93,南通市,星湖花园,,28,,9,10,10,88,,104,90,10,11,2,2,0.4,0.4
2025-06-24T0000,1172A,120.81,32.0417,南通市,紫琅学院,,28,9,15,3,2,88,,103,97,7,10,4,5,0.5,0.5
2025-06-24T0000,3291A,121.067,32.062,南通市,通州监测站,,32,,8,9,6,100,,110,104,2,5,5,5,0.5,0.6
2025-06-24T0000,3432A,120.9348,31.9883,南通市,环境教育馆,,26,19,19,8,5,82,,106,94,9,9,2,2,0.1,0.1
2025-06-24T0000,2404A,112.5224,33.0122,南阳市,瓦房庄,,41,41,37,20,18,114,,176,155,14,12,6,6,0.6,0.5
2025-06-24T0000,2405A,112.5003,32.9735,南阳市,汉画馆,,35,35,33,17,15,110,,170,149,17,14,6,6,0.6,0.6
2025-06-24T0000,2406A,112.5573,33.027,南阳市,气象站,,35,34,31,24,17,106,,177,154,16,9,4,5,0.5,0.5
2025-06-24T0000,2407A,112.5481,32.9689,南阳市,理工学院,,39,39,32,23,19,111,,168,146,15,12,5,6,0.5,0.4
2025-06-24T0000,4008A,112.5234,32.9922,南阳市,卧龙区政府,,42,42,30,20,17,120,,178,158,12,11,4,5,0.5,0.5
2025-06-24T0000,1234A,121.8358,29.911,宁波市,区环保大楼,,34,34,30,15,13,68,,101,91,33,28,3,3,0.7,0.6
2025-06-24T0000,1235A,121.56,29.82,宁波市,万里学院,,22,17,21,15,18,66,,95,88,33,18,2,2,0.8,0.7
2025-06-24T0000,1236A,121.713,29.9572,宁波市,龙赛医院,,34,34,24,12,12,87,,122,117,26,18,4,5,0.6,0.5
2025-06-24T0000,1239A,121.633,29.7733,宁波市,钱湖水厂,,26,10,20,8,14,81,,90,90,4,8,4,4,0.5,0.5
2025-06-24T0000,1240A,121.5856,29.8635,宁波市,太古小学,,25,19,23,11,13,79,,96,94,15,14,4,3,0.7,0.7
2025-06-24T0000,1241A,121.524,29.8674,宁波市,市环境监测中心,,25,25,25,12,12,75,,92,88,18,19,3,4,0.8,0.7
2025-06-24T0000,2871A,121.6147,29.9017,宁波市,万里国际学校,,27,16,18,12,13,85,,98,98,16,20,3,3,0.7,0.6
2025-06-24T0000,3710A,121.5594,29.8975,宁波市,白沙活动中心,,25,20,18,16,13,80,,95,92,17,16,3,3,0.5,0.4
2025-06-24T0000,2339A,119.5001,26.6946,宁德市,金涵水库,,,,,,,,,,,,,,,,
2025-06-24T0000,2341A,119.5388,26.6612,宁德市,宁德市监测站,,15,,39,9,20,23,,150,67,30,17,4,6,0.6,0.7
2025-06-24T0000,3209A,119.5231,26.6562,宁德市,宁德一中,,22,22,33,3,23,29,,152,74,9,9,3,5,0.3,0.6
2025-06-24T0000,2618A,98.8601,25.8567,怒江傈僳族自治州,州监测站,,20,20,15,14,10,15,,52,36,11,6,7,7,0.6,0.4
2025-06-24T0000,2619A,98.8546,25.8417,怒江傈僳族自治州,泸水一中,,,20,10,,5,1,,39,19,14,8,5,5,0.4,0.4
2025-06-24T0000,1888A,101.6891,26.571,攀枝花市,弄弄坪,,22,22,46,3,19,30,,83,52,13,22,9,16,0.7,1.3
2025-06-24T0000,1889A,101.5769,26.5928,攀枝花市,河门口,,24,24,25,6,14,15,,88,50,19,16,3,6,0.6,1
2025-06-24T0000,1890A,101.7169,26.585,攀枝花市,炳草岗,,22,22,42,3,20,24,,86,50,19,24,12,16,0.9,1.3
2025-06-24T0000,1891A,101.7369,26.5008,攀枝花市,仁和,,19,19,16,10,8,24,,69,50,10,9,7,8,0.6,0.5
2025-06-24T0000,2835A,101.7227,26.567,攀枝花市,四十中小,,18,18,35,9,22,34,,94,62,8,16,9,22,0.8,1.2
2025-06-24T0000,1604A,122.0303,41.1489,盘锦市,开发区,臭氧1小时,87,,45,44,41,189,,240,210,17,21,5,7,0.8,0.7
2025-06-24T0000,1605A,122.0485,41.0883,盘锦市,兴隆台,臭氧1小时,78,38,44,35,30,182,,232,195,19,23,4,6,0.5,0.6
2025-06-24T0000,1606A,121.8297,41.1028,盘锦市,新生街道,臭氧1小时,72,,38,35,34,177,,225,193,8,13,7,8,0.7,0.7
2025-06-24T0000,1832A,113.3257,33.742,平顶山市,新华旅馆,,48,48,48,26,21,111,,174,152,20,19,5,6,0.5,0.5
2025-06-24T0000,1833A,113.2919,33.737,平顶山市,规划设计院,,48,48,46,32,24,124,,168,152,12,15,6,6,0.5,0.5
2025-06-24T0000,1834A,113.182,33.774,平顶山市,平顶山工学院,,43,43,37,27,18,131,,177,160,14,11,1,2,0.4,0.4
2025-06-24T0000,3204A,113.3025,33.73,平顶山市,规划局,,,41,42,23,19,,,180,,18,18,6,6,0.5,0.5
2025-06-24T0000,3594A,112.8867,33.9116,平顶山市,石龙区,颗粒物(PM10),62,73,56,30,24,110,,186,153,29,23,7,9,0.5,0.5
2025-06-24T0000,2656A,106.6692,35.5461,平凉市,聚贤嘉苑,,44,44,36,12,13,46,,131,106,54,17,9,8,0.8,0.8
2025-06-24T0000,2657A,106.7021,35.5307,平凉市,博物馆,,47,47,37,18,14,68,,138,111,33,14,10,10,0.9,0.7
2025-06-24T0000,2347A,114.0997,27.5002,萍乡市,武功山,,9,9,5,3,3,12,,,,3,3,19,17,0.3,0.4
2025-06-24T0000,2348A,113.8385,27.6434,萍乡市,中医院,,31,31,30,17,19,45,,75,62,12,16,14,16,1.1,1.2
2025-06-24T0000,2349A,113.8493,27.6253,萍乡市,市政府车库,,32,29,19,22,19,26,,66,52,18,14,10,11,0.7,0.6
2025-06-24T0000,2350A,113.8676,27.6435,萍乡市,市环保局,颗粒物(PM10),65,80,48,14,16,34,,68,54,14,17,11,13,1.1,1.2
2025-06-24T0000,2351A,113.866,27.6198,萍乡市,安源区政府,,39,32,20,27,18,27,,69,55,15,11,8,8,0.8,0.6
2025-06-24T0000,2319A,119.0141,25.4325,莆田市,荔城区仓后路,,32,32,43,10,20,33,,136,69,18,15,4,3,0.5,0.6
2025-06-24T0000,2320A,119.0015,25.4553,莆田市,莆田市监测站,,28,28,40,15,20,28,,145,76,19,14,4,5,0.4,0.4
2025-06-24T0000,2321A,119.1119,25.4561,莆田市,涵江区六中,,20,20,37,14,20,33,,140,62,17,18,2,2,0.4,0.5
2025-06-24T0000,2322A,119.1013,25.3215,莆田市,秀屿区政府,,20,20,30,6,18,44,,126,64,10,12,6,6,0.5,0.5
2025-06-24T0000,2323A,118.981,25.4792,莆田市,东圳水库,,,,,,,,,,,,,,,,
2025-06-24T0000,2392A,115.0312,35.7636,濮阳市,环保局,,40,,35,22,21,125,,189,169,13,16,7,6,0.3,0.3
2025-06-24T0000,2394A,115.0574,35.7609,濮阳市,油田运输公司,,39,39,45,14,18,119,,182,156,18,18,8,6,0.6,0.5
2025-06-24T0000,3021A,115,35.7668,濮阳市,濮水河管理处,,48,48,41,24,23,94,,158,127,27,25,5,4,0.4,0.4
2025-06-24T0000,4216A,115.0924,35.7686,濮阳市,任丘路479号,,43,43,57,18,25,106,,176,150,16,15,8,7,0.7,0.7
2025-06-24T0000,2601A,100.98,22.7633,普洱市,市环保局,,45,45,24,9,13,28,,36,31,4,4,4,4,0.5,0.6
2025-06-24T0000,2602A,100.9817,22.8322,普洱市,普洱第二中学,,23,17,18,16,11,16,,38,27,8,6,6,6,0.6,0.5
2025-06-24T0000,2262A,131.0518,45.8751,七台河市,新一中,,37,22,22,17,12,118,,134,131,13,9,11,10,0.8,0.8
2025-06-24T0000,3345A,131.0577,45.7879,七台河市,中波台,,33,9,20,8,8,104,,93,91,11,15,6,7,0.3,0.3
2025-06-24T0000,3637A,131.0176,45.7761,七台河市,人民广场,,38,38,34,18,21,97,,88,80,17,17,11,12,0.5,0.5
2025-06-24T0000,3684A,130.8781,45.8222,七台河市,新建矿广场,,33,,40,23,14,67,,96,86,19,18,11,10,0.5,0.4
2025-06-24T0000,1779A,123.9305,47.3636,齐齐哈尔市,安居小区,,48,,39,33,15,77,,134,99,18,22,9,10,0.6,0.6
2025-06-24T0000,1780A,123.9488,47.3386,齐齐哈尔市,中心广场,,38,38,38,14,13,88,,142,109,14,18,8,9,0.5,0.7
2025-06-24T0000,1781A,123.9483,47.3227,齐齐哈尔市,农牧车辆厂,,29,29,45,20,13,76,,132,100,16,15,7,8,0.1,0.1
2025-06-24T0000,1783A,123.945,47.2988,齐齐哈尔市,市环境监测站,,30,30,32,15,14,72,,142,104,17,13,4,5,0.3,0.3
2025-06-24T0000,3662A,123.6333,47.2075,齐齐哈尔市,富区青少年活动中心,,28,28,48,17,25,76,,129,105,15,23,4,25,0.5,1.3
2025-06-24T0000,2591A,107.9783,26.5747,黔东南苗族侗族自治州,市环境监测站,,13,7,6,3,5,40,,47,43,4,6,2,2,0.6,0.5
2025-06-24T0000,2881A,107.8908,26.5311,黔东南苗族侗族自治州,凯里学院,,13,6,2,3,5,41,,56,46,8,6,2,2,0.4,0.4
2025-06-24T0000,2593A,107.5228,26.2403,黔南布依族苗族自治州,小围寨,,10,6,2,3,0,31,,41,35,4,6,4,2,0.4,0.4
2025-06-24T0000,3538A,107.5175,26.2978,黔南布依族苗族自治州,沙坝,,14,14,8,3,0,30,,46,35,8,7,5,5,0.7,0.6
2025-06-24T0000,2589A,104.9022,25.0925,黔西南布依族苗族自治州,场坝街,,10,10,15,3,6,31,,80,50,5,8,4,4,0.3,0.4
2025-06-24T0000,2590A,104.8811,25.0992,黔西南布依族苗族自治州,坪东大道,,23,23,17,11,7,22,,72,42,8,11,1,1,0.2,0.3
2025-06-24T0000,2502A,108.6236,21.9667,钦州市,市环保站,,17,17,19,3,7,38,,65,48,11,10,6,4,0.3,0.3
2025-06-24T0000,2503A,108.6549,21.9481,钦州市,沙埠小学,,31,31,33,10,12,15,,64,39,29,17,7,3,0.5,0.4
2025-06-24T0000,2504A,108.5989,21.7431,钦州市,港区一小,,19,19,28,7,8,46,,51,46,6,15,2,3,0.4,0.4
2025-06-24T0000,3404A,108.5959,21.9633,钦州市,北职校,,27,27,22,7,8,32,,64,45,13,8,4,3,0.3,0.4
2025-06-24T0000,1043A,119.7493,40.0116,秦皇岛市,第一关,细颗粒物(PM2.5),64,62,63,46,31,149,,249,226,21,40,4,7,0.4,0.5
2025-06-24T0000,1044A,119.5897,39.9499,秦皇岛市,监测站,臭氧1小时,75,61,61,35,22,180,,262,235,7,28,5,7,0.5,0.5
2025-06-24T0000,1046A,119.5251,39.9041,秦皇岛市,建设大厦,臭氧1小时,70,36,57,23,21,176,,252,234,10,30,4,7,0.5,0.5
2025-06-24T0000,3132A,119.610547,39.943889,秦皇岛市,文明里,臭氧1小时,69,70,69,33,27,175,,259,236,2,28,4,7,0.3,0.4
2025-06-24T0000,4198A,119.5090,39.8253,秦皇岛市,北戴河轮滑馆,,45,36,74,30,43,144,,253,219,5,16,2,4,0.4,0.6
2025-06-24T0000,1307A,120.6659,36.2403,青岛市,仰口,,26,26,38,11,22,68,,139,80,11,11,7,7,0.5,0.7
2025-06-24T0000,1310A,120.4134,36.0658,青岛市,市南区东部子站,,18,,37,9,28,55,,143,66,27,14,10,9,0.3,0.4
2025-06-24T0000,1311A,120.3664,36.1032,青岛市,四方区子站,,28,22,44,19,30,82,,167,104,27,18,11,9,0.4,0.6
2025-06-24T0000,1312A,120.2994,36.054,青岛市,市南区西部子站,,21,14,40,12,28,38,,173,66,42,16,8,8,0.5,0.6
2025-06-24T0000,1313A,120.4581,36.0858,青岛市,崂山区子站,,22,22,36,12,27,47,,144,76,33,14,10,7,0.3,0.4
2025-06-24T0000,1315A,120.3999,36.3083,青岛市,城阳区子站,,34,34,42,20,21,87,,157,104,36,24,6,6,0.4,0.4
2025-06-24T0000,1966A,120.0405,35.8735,青岛市,黄岛区4号,,25,14,35,7,24,78,,161,94,9,12,9,9,0.6,0.7
2025-06-24T0000,3362A,120.5014,36.4034,青岛市,即墨2号,,29,28,40,8,31,92,,150,122,15,13,2,3,0.3,0.3
2025-06-24T0000,3642A,120.3503,36.0736,青岛市,市北区南部,,19,13,36,12,31,60,,149,75,23,13,8,8,0.4,0.5
2025-06-24T0000,3643A,120.3948,36.1805,青岛市,李沧区北部,,32,27,46,22,29,98,,150,106,22,19,9,9,0.6,0.7
2025-06-24T0000,4290A,120.1969,35.9546,青岛市,珠江路669号,,29,,30,10,25,91,,172,95,5,6,6,6,0.2,0.4
2025-06-24T0000,1702A,113.0426,23.691,清远市,环保大楼,,12,8,14,8,13,34,,116,92,15,17,6,6,0.5,0.3
2025-06-24T0000,1703A,113.0208,23.7106,清远市,凤城街办,,15,15,24,8,12,29,,98,82,20,21,6,8,0.3,0.4
2025-06-24T0000,3025A,113.0477,23.6344,清远市,技师学院,,18,18,26,8,12,26,,106,79,19,19,7,8,0.4,0.5
2025-06-24T0000,3318A,112.9903,23.7403,清远市,清新太和,,26,26,27,8,13,31,,90,77,25,19,7,9,0.5,0.4
2025-06-24T0000,3455A,113.076,23.7198,清远市,清城东城,,27,27,27,8,13,33,,110,88,29,16,9,9,0.4,0.3
2025-06-24T0000,2661A,107.6325,35.7357,庆阳市,庆阳五中,,39,32,26,20,16,124,,136,126,10,8,8,5,0.4,0.4
2025-06-24T0000,2662A,107.6364,35.7067,庆阳市,市环保局,,40,35,27,16,11,128,,139,130,8,7,18,9,0.5,0.5
2025-06-24T0000,1916A,103.7897,25.5035,曲靖市,环境监测站,,22,22,18,3,8,22,,83,51,10,11,3,3,0.5,0.6
2025-06-24T0000,1917A,103.8,25.5364,曲靖市,烟厂办公区,,12,12,19,3,11,29,,82,55,8,12,4,3,0.6,0.7
2025-06-24T0000,3376A,103.7947,25.462,曲靖市,南苑二区,,10,,13,7,8,25,,87,54,6,9,4,4,0.5,0.6
2025-06-24T0000,3377A,103.7444,25.5261,曲靖市,曲靖师范学院,,13,13,17,3,12,34,,84,58,6,11,5,8,0.3,0.5
2025-06-24T0000,1264A,118.8692,28.9398,衢州市,环保大楼,,13,7,17,3,10,41,,51,48,5,10,3,3,0.2,0.3
2025-06-24T0000,1265A,118.8709,28.9666,衢州市,实验学校,,13,6,14,3,11,41,,57,49,7,9,3,4,0.2,0.2
2025-06-24T0000,1266A,118.8621,28.9808,衢州市,衢州学院,,14,6,13,3,9,43,,63,53,11,11,3,4,0.3,0.3
2025-06-24T0000,1611A,118.5819,24.9117,泉州市,涂山街,,21,21,43,11,17,40,,123,66,18,25,4,9,0.5,0.6
2025-06-24T0000,1612A,118.5972,24.8978,泉州市,津头埔,,18,18,38,7,18,38,,121,67,19,23,3,6,0.5,0.5
2025-06-24T0000,1613A,118.6663,24.9424,泉州市,万安,,17,17,39,7,15,44,,122,69,9,18,3,5,0.4,0.5
2025-06-24T0000,1614A,118.6117,24.9604,泉州市,清源山,,,,,,,,,,,,,,,,
2025-06-24T0000,3529A,118.6333,24.9264,泉州市,城华南路,,16,16,34,8,17,37,,117,62,16,20,5,7,0.4,0.5
2025-06-24T0000,2626A,88.8876,29.2718,日喀则市,日喀则监测站,,37,,8,3,3,116,,120,120,5,4,13,13,0.3,0.3
2025-06-24T0000,3726A,88.8781,29.2426,日喀则市,林业技术推广中心,,35,7,10,3,2,111,,117,117,2,3,9,9,0.4,0.4
2025-06-24T0000,1659A,119.471,35.4209,日照市,监测站,,19,14,48,9,43,59,,159,95,35,29,6,5,0.4,0.8
2025-06-24T0000,1660A,119.523,35.4216,日照市,市政府广场,,22,17,45,3,28,70,,137,94,15,12,6,8,0.4,0.7
2025-06-24T0000,1661A,119.5587,35.4044,日照市,港务局,,24,19,37,11,34,74,,135,99,11,7,7,7,0.5,0.7
2025-06-24T0000,3507A,119.5328,35.4625,日照市,职业技术学院,,23,14,44,3,26,71,,151,99,14,15,4,6,0.4,0.7
2025-06-24T0000,3604A,119.3266,35.1044,日照市,岚山环保分局,,25,7,48,3,22,77,,157,91,20,22,9,13,0.5,0.9
2025-06-24T0000,1835A,111.1922,34.7752,三门峡市,市政府,,48,39,42,24,23,153,,187,176,10,15,5,8,0.5,0.5
2025-06-24T0000,1836A,111.1587,34.7942,三门峡市,开发区,,49,49,43,23,24,154,,193,177,18,19,6,8,0.4,0.5
2025-06-24T0000,1838A,111.143,34.7955,三门峡市,风景区,,48,35,40,31,21,151,,200,187,10,9,9,10,0.4,0.4
2025-06-24T0000,3039A,111.1911,34.7829,三门峡市,三门峡市第一小学,,48,28,43,15,18,151,,188,177,12,14,7,10,0.7,0.7
2025-06-24T0000,3598A,111.1,34.7167,三门峡市,富达温泉假日酒店,,40,37,30,25,23,128,,187,172,22,14,9,10,0.2,0.2
2025-06-24T0000,2324A,117.6211,26.2625,三明市,三钢,,26,19,21,18,17,13,,61,27,16,14,3,12,0.5,1.2
2025-06-24T0000,2325A,117.635,26.2714,三明市,三明二中,,19,15,18,13,9,16,,64,28,16,12,1,3,0.6,0.7
2025-06-24T0000,2326A,117.6028,26.2378,三明市,三元区政府,,15,15,19,10,9,25,,68,37,11,9,5,6,0,0.1
2025-06-24T0000,2327A,117.7275,26.3108,三明市,洋溪,,,,,,,,,,,,,,,,
2025-06-24T0000,1876A,109.5078,18.2489,三亚市,河东子站,,40,40,12,7,4,38,,46,40,3,5,4,5,0.4,0.4
2025-06-24T0000,1877A,109.4964,18.2681,三亚市,河西子站,,19,17,13,13,8,33,,46,37,9,9,2,2,0.3,0.3
2025-06-24T0000,3540A,109.7348,18.3443,三亚市,君悦子站,,,12,10,8,6,59,,56,,,4,2,2,0.1,0.2
2025-06-24T0000,2624A,91.7608,29.2313,山南市,山南监测站,,34,6,11,3,4,108,,121,102,2,5,3,5,0.3,0.3
2025-06-24T0000,2625A,91.7706,29.2436,山南市,山南人民医院,,37,6,18,3,8,118,,123,105,1,7,6,7,0.1,0.2
2025-06-24T0000,1674A,116.6794,23.3667,汕头市,金平子站,,14,10,13,6,9,43,,66,53,6,4,6,6,0.4,0.4
2025-06-24T0000,1675A,116.7244,23.3633,汕头市,龙湖子站,,13,7,16,3,8,41,,61,51,8,6,5,5,0.4,0.4
2025-06-24T0000,1676A,116.7258,23.2775,汕头市,濠江子站,,22,,16,15,8,41,,53,48,5,6,4,4,0.5,0.5
2025-06-24T0000,1677A,116.7519,23.4714,汕头市,澄海子站,,16,,21,11,10,39,,70,51,8,7,2,3,0.5,0.5
2025-06-24T0000,1678A,116.6092,23.2539,汕头市,潮阳子站,,18,13,15,12,7,45,,60,56,5,3,4,4,0.4,0.5
2025-06-24T0000,3444A,116.454,23.2684,汕头市,潮南峡山,,13,13,26,3,10,40,,56,49,7,5,7,5,0.3,0.3
2025-06-24T0000,3624A,116.4069,23.2533,汕头市,潮南子站,,13,6,15,3,7,41,,55,50,3,3,4,4,0.5,0.5
2025-06-24T0000,1693A,115.3653,22.775,汕尾市,市环保局,,16,,9,3,4,51,,65,61,4,5,2,2,0.3,0.3
2025-06-24T0000,1694A,115.3706,22.7898,汕尾市,市政府,,17,12,9,6,5,54,,66,63,4,4,4,4,0.4,0.4
2025-06-24T0000,1695A,115.3622,22.7925,汕尾市,新城中学,,17,6,11,3,4,53,,65,62,3,4,3,3,0.5,0.5
2025-06-24T0000,2645A,109.9154,33.8715,商洛市,监测站,,29,25,30,16,17,90,,152,117,20,15,6,9,0.3,0.4
2025-06-24T0000,3045A,109.9643,33.8471,商洛市,商州区中学,颗粒物(PM10),52,54,34,14,14,50,,148,100,44,19,8,8,0.5,0.5
2025-06-24T0000,2408A,115.6702,34.4285,商丘市,环境监测站,颗粒物(PM10),67,83,59,41,30,128,,169,144,9,14,3,3,0.5,0.5
2025-06-24T0000,2409A,115.6458,34.4045,商丘市,粮食局,,49,44,41,34,30,121,,172,146,10,11,4,5,0.3,0.3
2025-06-24T0000,2410A,115.6293,34.3948,商丘市,睢阳区环保局,,49,41,48,34,27,106,,164,136,16,16,2,3,0.3,0.3
2025-06-24T0000,3171A,115.6071,34.4465,商丘市,梁园区档案局,细颗粒物(PM2.5),54,53,48,38,28,100,,170,138,22,14,2,3,0.5,0.5
2025-06-24T0000,1141A,121.4,31.238,上海市,普陀,,23,20,10,15,7,73,,90,81,16,17,4,4,0.3,0.3
2025-06-24T0000,1142A,121.478,31.2036,上海市,十五厂,,23,23,9,16,6,64,,95,75,23,16,7,7,0.5,0.4
2025-06-24T0000,1143A,121.467,31.3008,上海市,虹口,,24,24,9,9,7,66,,84,73,17,18,7,7,0.7,0.6
2025-06-24T0000,1147A,121.425,31.2261,上海市,静安监测站,,21,20,9,14,7,66,,89,77,20,17,4,4,0.5,0.5
2025-06-24T0000,1148A,121.703,31.1907,上海市,浦东川沙,,26,26,8,16,5,66,,96,79,20,15,7,7,0.7,0.6
2025-06-24T0000,1149A,121.533,31.2284,上海市,浦东新区监测站,,28,28,10,14,4,59,,92,70,21,14,8,7,0.4,0.4
2025-06-24T0000,1150A,121.577,31.2071,上海市,浦东张江,,33,33,13,18,7,59,,100,80,20,12,5,5,0.7,0.7
2025-06-24T0000,3265A,121.4316,31.3322,上海市,宝山庙行,,26,26,9,6,4,63,,89,74,19,19,8,8,0.4,0.3
