timepoint,stationcode,longitude,latitude,area,positionname,primarypollutant,aqi,pm10,pm10_24h,pm2_5,pm2_5_24h,o3,o3_24h,o3_8h,o3_8h_24h,no2,no2_24h,so2,so2_24h,co,co_24h
2025-06-24T1700,2566A,102.1879,31.914,阿坝藏族羌族自治州,州农科所,,17,16,22,3,9,53,,55,46,16,12,13,13,0.6,0.7
2025-06-24T1700,2568A,102.2502,31.8896,阿坝藏族羌族自治州,马师校,,22,,17,13,18,68,,57,57,11,12,6,6,0.5,0.5
2025-06-24T1700,3994A,102.2165,31.9024,阿坝藏族羌族自治州,马尔康中学西区,,24,,14,13,16,74,,67,67,6,6,6,6,0.3,0.4
2025-06-24T1700,2695A,80.292,41.1694,阿克苏地区,电视台,颗粒物(PM10),92,134,77,58,27,123,,111,111,4,11,6,6,0.6,0.6
2025-06-24T1700,2696A,80.2613,41.1551,阿克苏地区,艺术中心,颗粒物(PM10),105,159,73,51,27,128,,115,115,2,5,3,3,0.2,0.3
2025-06-24T1700,2204A,105.6467,38.8363,阿拉善盟,西城区西花园,臭氧1小时,85,25,23,16,22,188,,159,159,10,9,6,6,1.0,1
2025-06-24T1700,2205A,105.6985,38.8411,阿拉善盟,蒙二幼,臭氧1小时,83,29,31,19,16,186,,155,155,11,10,10,10,0.6,0.6
2025-06-24T1700,2206A,105.724,38.8516,阿拉善盟,环保局新楼,臭氧1小时,83,26,28,18,14,186,,156,156,6,6,9,9,0.6,0.6
2025-06-24T1700,2708A,88.1264,47.8517,阿勒泰地区,市站,,32,16,15,3,5,101,,99,99,8,5,1,1,0.4,0.3
2025-06-24T1700,2630A,80.1161,32.5,阿里地区,阿里监测站,,40,8,11,3,8,127,,123,123,3,8,9,8,0.3,0.3
2025-06-24T1700,3192A,80.0903,32.5028,阿里地区,阿里藏医院,,40,30,19,13,8,125,,128,128,10,5,8,8,0.4,0.4
2025-06-24T1700,2642A,109.0318,32.6537,安康市,香溪洞,,45,,23,18,12,141,,122,122,8,5,4,8,0.4,0.4
2025-06-24T1700,2644A,109.0072,32.6975,安康市,汉滨区检察院,,45,26,23,13,13,141,,118,118,5,8,6,8,0.4,0.4
2025-06-24T1700,4054A,109.0325,32.6913,安康市,市邮政管理局,,,26,24,19,14,137,,117,117,8,11,7,7,,0.5
2025-06-24T1700,2291A,117.0809,30.5177,安庆市,环科院,臭氧1小时,78,35,25,21,20,182,,145,145,7,8,5,4,0.7,0.7
2025-06-24T1700,2292A,117.0331,30.5119,安庆市,马山宾馆,臭氧1小时,73,41,28,19,22,178,,142,142,8,8,5,4,0.7,0.9
2025-06-24T1700,2294A,116.9896,30.6145,安庆市,安庆大学,,,30,25,15,17,142,,116,116,8,8,3,2,,0.7
2025-06-24T1700,3173A,117.0598,30.5351,安庆市,市人大,臭氧1小时,85,34,28,22,22,188,,150,150,8,10,5,4,0.6,0.7
2025-06-24T1700,3122A,105.9606,26.2611,安顺市,伍家关,,,,34,,19,,,72,,,6,,7,,0.5
2025-06-24T1700,3123A,105.9408,26.2431,安顺市,凤凰山,,18,14,22,3,14,56,,46,46,4,6,4,6,0.4,0.5
2025-06-24T1700,3124A,105.9439,26.2564,安顺市,金钟山,,18,14,23,10,17,57,,48,48,3,5,4,8,0.2,0.3
2025-06-24T1700,3125A,105.8983,26.2481,安顺市,娄家坡,,17,9,14,3,11,52,,44,44,2,3,3,5,0.4,0.5
2025-06-24T1700,1818A,114.4839,36.0621,安阳市,棉研所,,,,,,,,,,,,,,,,
2025-06-24T1700,1819A,114.3551,36.1017,安阳市,红庙街,臭氧1小时,107,41,43,19,19,214,,195,195,2,5,3,5,0.3,0.6
2025-06-24T1700,1820A,114.361,36.0681,安阳市,银杏小区,臭氧1小时,111,41,51,32,25,222,,205,205,2,18,3,6,0.3,0.5
2025-06-24T1700,3141A,114.3922,36.0878,安阳市,信访局,臭氧1小时,112,41,47,22,19,224,,208,208,1,13,2,4,0.5,0.6
2025-06-24T1700,3669A,114.4705,36.0637,安阳市,左辅环卫站,臭氧1小时,113,38,51,19,24,225,,204,204,4,16,4,6,0.5,0.5
2025-06-24T1700,3703A,114.2917,36.0949,安阳市,安钢职工学校,臭氧1小时,101,46,55,23,26,202,,184,184,4,9,4,5,0.4,0.5
2025-06-24T1700,1748A,123.044,41.1196,鞍山市,深沟寺,臭氧1小时,105,42,41,23,26,209,,205,205,16,16,15,11,1.3,0.9
2025-06-24T1700,1749A,123.011,41.0931,鞍山市,太阳城,臭氧1小时,98,41,40,24,24,198,,197,197,15,15,13,10,1.0,0.9
2025-06-24T1700,1750A,123.0485,41.1442,鞍山市,太平,臭氧1小时,103,62,55,30,28,206,,205,205,18,18,14,11,1.3,1
2025-06-24T1700,1751A,122.9642,41.0971,鞍山市,铁西三道街,臭氧1小时,77,46,54,23,29,181,,190,190,21,27,10,8,1.1,1.1
2025-06-24T1700,1753A,123.022,41.0821,鞍山市,明达新区,臭氧1小时,90,44,41,30,26,192,,189,189,19,15,13,10,0.9,0.7
2025-06-24T1700,1754A,123.1289,41.0228,鞍山市,千山,,,,,,,,,,,,,,,,
2025-06-24T1700,4201A,122.9446,41.0826,鞍山市,兴盛南路290号,臭氧1小时,89,50,62,24,29,191,,199,199,30,32,9,8,0.8,0.8
2025-06-24T1700,2195A,107.4212,40.761,巴彦淖尔市,附二中,臭氧1小时,54,41,41,20,18,163,,154,154,9,10,10,11,0.6,0.6
2025-06-24T1700,2196A,107.37,40.7372,巴彦淖尔市,市环保大楼,臭氧1小时,54,42,47,10,18,163,,154,154,10,11,8,8,0.5,0.5
2025-06-24T1700,1956A,86.1472,41.7538,巴音郭楞蒙古自治州,孔雀公园,颗粒物(PM10),56,61,96,21,37,110,,103,103,2,7,8,8,0.1,0.2
2025-06-24T1700,1957A,86.1972,41.7166,巴音郭楞蒙古自治州,棉纺厂,颗粒物(PM10),76,101,109,3,26,118,,107,107,4,10,3,3,0.2,0.2
2025-06-24T1700,1958A,86.2357,41.7173,巴音郭楞蒙古自治州,经济开发区,,38,32,59,19,20,119,,110,110,4,8,9,9,0.2,0.1
2025-06-24T1700,2914A,106.7677,31.8794,巴中市,苏山坪,,27,18,16,14,12,86,,92,92,3,4,5,6,0.3,0.3
2025-06-24T1700,3181A,106.7768,31.8526,巴中市,市五中,,29,23,23,14,14,92,,100,100,7,14,7,8,0.5,0.5
2025-06-24T1700,3183A,106.7418,31.8654,巴中市,圣泉水务公司,,30,17,18,12,12,93,,99,99,8,16,5,6,0.5,0.5
2025-06-24T1700,3616A,106.7616,31.8344,巴中市,市中心医院,,28,20,21,3,14,87,,99,99,8,19,6,7,0.4,0.4
2025-06-24T1700,2235A,122.7911,45.6077,白城市,洮北区环保局,臭氧1小时,63,26,28,12,27,170,,158,158,11,12,4,3,0.4,0.4
2025-06-24T1700,2236A,122.8738,45.5725,白城市,市环保局,,46,41,35,20,20,147,,146,146,4,5,5,6,0.6,0.5
2025-06-24T1700,2231A,126.4219,41.9171,白山市,喜丰,,46,36,66,12,21,146,,156,156,16,26,5,8,0.6,0.8
2025-06-24T1700,2232A,126.4077,41.9419,白山市,环保局,,45,21,34,10,14,141,,152,152,7,14,3,2,0.6,0.7
2025-06-24T1700,2647A,104.1724,36.5446,白银市,第三小学,,36,16,17,12,12,113,,110,110,8,8,12,25,0.6,0.6
2025-06-24T1700,2648A,104.1465,36.5482,白银市,动力公司,,38,11,15,11,14,119,,109,109,7,10,8,11,0.4,0.4
2025-06-24T1700,2512A,106.6103,23.9011,百色市,市监测站,,23,,29,14,15,72,,64,64,6,10,4,6,0.2,0.3
2025-06-24T1700,2513A,106.6538,23.8859,百色市,市中心血站,,28,28,32,16,20,70,,60,60,7,16,3,5,0.5,0.6
2025-06-24T1700,3406A,106.6085,23.8798,百色市,祈福高中,,23,16,30,16,16,72,,60,60,5,14,5,6,0.4,0.6
2025-06-24T1700,2270A,117.396,32.939,蚌埠市,工人疗养院,,47,22,46,7,24,149,,144,144,6,13,4,5,0.3,0.4
2025-06-24T1700,2271A,117.3605,32.9427,蚌埠市,百货大楼,,48,31,42,11,21,151,,146,146,9,16,5,6,0.3,0.4
2025-06-24T1700,2273A,117.4185,32.8911,蚌埠市,蚌埠学院,,45,17,36,12,25,144,,141,141,2,21,4,6,0.2,0.4
2025-06-24T1700,2274A,117.3533,32.9673,蚌埠市,淮上区政府,,48,24,43,11,24,152,,148,148,7,20,6,6,0.3,0.4
2025-06-24T1700,2275A,117.3145,32.8977,蚌埠市,高新区,,48,27,45,13,25,153,,150,150,6,24,5,8,0.4,0.4
2025-06-24T1700,3715A,117.3092,32.9314,蚌埠市,蚌埠田家炳中学,,48,31,55,16,29,151,,150,150,7,23,6,7,0.2,0.3
2025-06-24T1700,1585A,109.8756,40.6532,包头市,市环境监测站,臭氧1小时,97,22,45,19,25,197,,178,178,9,27,11,19,0.5,0.9
2025-06-24T1700,1587A,109.9991,40.5842,包头市,包头八中,臭氧1小时,89,36,49,14,27,191,,174,174,6,22,8,12,0.5,0.8
2025-06-24T1700,1588A,109.8538,40.6821,包头市,青山宾馆,臭氧1小时,100,22,40,13,24,200,,180,180,6,30,12,17,0.4,0.8
2025-06-24T1700,1589A,109.8642,40.6288,包头市,惠龙物流,臭氧1小时,95,25,48,17,26,196,,178,178,8,27,8,15,0.5,0.7
2025-06-24T1700,1590A,110.0377,40.5546,包头市,东河鸿龙湾,臭氧1小时,92,32,41,16,22,193,,178,178,10,23,8,10,0.5,0.6
2025-06-24T1700,3283A,109.9154,40.5685,包头市,滨河大厦,臭氧1小时,101,27,37,18,24,201,,186,186,,27,,10,0.5,0.6
2025-06-24T1700,3419A,109.9447,40.6261,包头市,包头市委党校,臭氧1小时,92,29,42,17,23,193,,177,177,6,26,11,17,0.4,0.7
2025-06-24T1700,3683A,109.8331,40.6576,包头市,昆区政府,臭氧1小时,90,24,51,17,31,192,,175,175,11,28,9,18,0.4,0.9
2025-06-24T1700,1930A,107.185,34.3063,宝鸡市,庙沟村,,31,26,30,20,19,98,,118,95,12,13,5,6,0.4,0.4
2025-06-24T1700,1931A,107.0708,34.3017,宝鸡市,竹园沟,,29,24,26,18,16,91,,85,85,7,16,6,6,0.4,0.4
2025-06-24T1700,1932A,107.1906,34.3672,宝鸡市,三陆医院,,,,36,33,25,86,,94,93,13,29,6,7,,0.5
2025-06-24T1700,1933A,107.1431,34.3547,宝鸡市,监测站,,38,37,36,26,23,88,,86,86,12,18,7,7,0.3,0.3
2025-06-24T1700,1934A,107.1186,34.3739,宝鸡市,技工学校,,38,,33,26,23,89,,88,88,6,12,7,8,0.5,0.5
2025-06-24T1700,1935A,107.3906,34.3528,宝鸡市,陈仓区环保局家属楼,颗粒物(PM10),54,58,37,30,22,90,,72,72,24,17,6,6,0.6,0.6
2025-06-24T1700,1936A,107.2058,34.3497,宝鸡市,文理学院,,33,33,33,20,18,94,,99,99,14,16,6,6,0.6,0.5
2025-06-24T1700,1937A,107.2386,34.3622,宝鸡市,三迪小学,,43,33,34,30,26,95,,99,99,14,21,6,6,0.6,0.6
2025-06-24T1700,1051A,115.493,38.8632,保定市,游泳馆,臭氧1小时,118,44,63,25,32,236,,201,201,8,27,5,7,0.3,0.4
2025-06-24T1700,1052A,115.5213,38.8959,保定市,华电二区,臭氧1小时,112,22,53,18,25,224,,204,204,6,21,6,4,0.6,0.6
2025-06-24T1700,1053A,115.4713,38.9108,保定市,接待中心,臭氧1小时,112,33,58,17,29,223,,197,197,10,21,3,3,0.3,0.5
2025-06-24T1700,1054A,115.4612,38.8416,保定市,地表水厂,臭氧1小时,123,49,74,17,30,245,,221,221,15,35,2,4,0.2,0.4
2025-06-24T1700,3581A,115.31981,38.95208,保定市,满城区生态环境分局,臭氧1小时,106,31,64,9,23,211,,210,210,2,19,3,4,0.2,0.3
2025-06-24T1700,3582A,115.47694,38.76408,保定市,清苑区第二中学,臭氧1小时,124,48,85,29,42,248,,232,232,2,20,3,5,0.3,0.5
2025-06-24T1700,3583A,115.62909,39.02311,保定市,徐水物探局,臭氧1小时,87,44,76,7,24,189,,196,196,1,24,2,3,0.2,0.4
2025-06-24T1700,4004A,115.4202,38.8656,保定市,双鹰农机,臭氧1小时,122,30,55,23,32,244,,210,210,12,29,5,5,0.3,0.4
2025-06-24T1700,4034A,115.5150,38.8590,保定市,植保所站,臭氧1小时,120,53,68,26,35,240,,204,204,13,29,4,5,0.4,0.5
2025-06-24T1700,2594A,99.1678,25.1081,保山市,市环境监测站,,11,8,12,3,13,33,,32,32,7,9,8,8,0.4,0.4
2025-06-24T1700,2595A,99.1711,25.1328,保山市,市环保局,,12,10,12,6,9,37,,36,36,6,7,6,6,0.6,0.6
2025-06-24T1700,1866A,109.2262,21.588,北海市,牛尾岭水库,,28,21,18,7,12,87,,77,77,4,7,2,3,0.4,0.4
2025-06-24T1700,1867A,109.1436,21.4086,北海市,海滩公园,,33,33,25,3,4,68,,62,62,3,4,2,2,0.1,0.2
2025-06-24T1700,1868A,109.0981,21.4661,北海市,新市环保局,,28,,12,19,9,75,,64,64,4,5,2,2,0.4,0.4
2025-06-24T1700,1869A,109.1778,21.5233,北海市,北海工业园,,28,28,22,7,10,80,,67,67,5,8,3,2,0.4,0.4
2025-06-24T1700,3400A,109.1911,21.4415,北海市,龙潭自来水厂,,26,14,15,10,9,82,,71,71,3,4,2,3,0.4,0.4
2025-06-24T1700,1001A,116.3621,39.8784,北京市,万寿西宫,臭氧1小时,110,40,66,27,37,219,,251,251,10,25,4,6,0.4,0.6
2025-06-24T1700,1002A,116.2202,40.2915,北京市,定陵,,,,,,,,,,,,,,,,
2025-06-24T1700,1003A,116.4174,39.9289,北京市,东四,臭氧1小时,123,46,63,24,32,246,,268,268,18,30,4,4,0.3,0.5
2025-06-24T1700,1004A,116.4072,39.8863,北京市,天坛,臭氧1小时,109,46,64,24,38,218,,244,244,9,20,4,5,0.5,0.8
2025-06-24T1700,1005A,116.462,39.9365,北京市,农展馆,臭氧1小时,107,47,63,28,37,213,,229,229,10,28,6,6,0.5,0.9
2025-06-24T1700,1006A,116.3392,39.9295,北京市,官园,臭氧1小时,108,45,63,26,36,216,,246,246,14,25,3,5,0.3,0.6
2025-06-24T1700,1007A,116.2878,39.9611,北京市,海淀万柳,臭氧1小时,88,86,68,57,38,190,,223,223,9,39,4,5,0.5,0.6
2025-06-24T1700,1008A,116.6636,40.135,北京市,顺义新城,臭氧1小时,94,39,62,23,37,195,,226,226,16,24,4,4,0.5,0.6
2025-06-24T1700,1009A,116.6275,40.3275,北京市,怀柔镇,臭氧1小时,106,41,48,24,29,211,,206,206,10,12,2,2,0.4,0.5
2025-06-24T1700,1010A,116.2296,40.217,北京市,昌平镇,臭氧1小时,103,47,49,27,31,205,,207,207,8,15,5,5,0.3,0.5
2025-06-24T1700,1011A,116.3966,39.9821,北京市,奥体中心,臭氧1小时,84,45,57,27,31,187,,199,199,11,27,4,4,0.3,0.6
2025-06-24T1700,3281A,115.9718,40.4529,北京市,延庆夏都,臭氧1小时,52,26,49,20,29,161,,167,167,4,16,5,5,0.4,0.6
2025-06-24T1700,3418A,116.8336,40.4095,北京市,密云新城,臭氧1小时,109,60,52,32,27,217,,196,196,14,11,4,3,0.3,0.4
2025-06-24T1700,3671A,116.088,39.9726,北京市,门头沟三家店,臭氧1小时,83,39,46,18,20,186,,181,181,4,11,5,3,0.4,0.6
2025-06-24T1700,3672A,116.1541,39.8204,北京市,丰台云岗,臭氧1小时,105,49,68,35,33,209,,235,235,9,19,4,4,0.4,0.6
2025-06-24T1700,3673A,116.6804,39.9081,北京市,通州东关,臭氧1小时,124,47,87,32,46,248,,275,271,13,28,4,6,0.5,0.9
2025-06-24T1700,3674A,115.9577,39.7603,北京市,房山燕山,臭氧1小时,52,42,51,24,28,161,,178,178,8,11,3,3,0.3,0.5
2025-06-24T1700,3675A,116.4672,39.7733,北京市,大兴旧宫,臭氧1小时,115,39,83,23,45,230,,248,248,6,28,4,4,0.4,0.8
2025-06-24T1700,3694A,115.986,40.4563,北京市,延庆石河营,,46,37,53,17,30,146,,157,157,6,13,3,2,0.4,0.5
2025-06-24T1700,3695A,116.6151,40.3053,北京市,怀柔新城,臭氧1小时,105,43,48,26,30,209,,209,209,10,9,3,3,0.4,0.6
2025-06-24T1700,3696A,116.2545,39.8768,北京市,丰台小屯,臭氧1小时,84,45,68,26,36,187,,216,216,1,30,3,3,0.5,0.7
2025-06-24T1700,3697A,116.84,40.3844,北京市,密云镇,臭氧1小时,111,36,54,28,30,222,,193,193,8,18,4,3,0.4,0.5
2025-06-24T1700,4182A,116.1942,39.9158,北京市,八角北路9号,臭氧1小时,94,45,66,26,32,195,,215,215,10,30,4,4,0.3,0.5
2025-06-24T1700,4194A,117.0790,40.1518,北京市,洳河巡河路,臭氧1小时,118,41,94,26,55,235,,230,230,10,16,4,5,0.5,0.8
2025-06-24T1700,1761A,123.8275,41.3064,本溪市,大峪,,40,33,34,16,17,127,,139,139,8,12,7,8,0.4,0.5
2025-06-24T1700,1762A,123.7567,41.3325,本溪市,溪湖,,40,24,53,8,23,128,,149,149,8,18,8,10,0.7,1.3
2025-06-24T1700,1763A,123.7169,41.3094,本溪市,彩屯,,39,34,44,18,24,122,,126,126,21,29,12,15,0.7,1.3
2025-06-24T1700,1764A,123.7669,41.2864,本溪市,东明,,41,34,38,18,17,131,,140,140,12,18,8,8,0.6,0.8
2025-06-24T1700,1765A,123.7992,41.2664,本溪市,新立屯,,40,29,29,13,17,125,,144,144,11,31,5,7,0.5,0.8
2025-06-24T1700,1766A,123.8142,41.3472,本溪市,威宁,,43,28,44,13,19,136,,148,148,7,16,6,7,0.3,0.5
2025-06-24T1700,2587A,105.2864,27.3125,毕节市,八中,,28,20,40,19,35,44,,50,47,7,10,5,8,0.5,0.5
2025-06-24T1700,2588A,105.31,27.2944,毕节市,师专,,28,23,38,19,31,45,,52,45,11,13,6,8,0.4,0.5
2025-06-24T1700,4263A,105.3688,27.3598,毕节市,工业大道,,20,19,33,14,26,43,,50,47,10,14,6,6,0.6,0.6
2025-06-24T1700,1629A,118.0018,37.3617,滨州市,第二水厂,臭氧1小时,114,41,47,24,24,227,,211,211,5,23,4,7,0.2,0.4
2025-06-24T1700,1630A,117.9776,37.393,滨州市,北中新校,臭氧1小时,120,31,42,19,22,239,,220,220,7,24,14,18,0.4,0.7
2025-06-24T1700,3514A,117.9378,37.3956,滨州市,中海酒店,臭氧1小时,113,29,43,24,28,225,,205,205,5,21,9,14,0.5,0.8
2025-06-24T1700,3515A,117.9378,37.3553,滨州市,开发区一中,臭氧1小时,111,31,45,14,21,221,,198,198,7,30,10,13,0.4,0.5
2025-06-24T1700,3516A,118.0917,37.694,滨州市,金海六路,臭氧1小时,121,34,51,19,24,241,,213,213,10,35,9,12,0.1,0.3
2025-06-24T1700,4028A,117.9956,37.3753,滨州市,滨州市西街道办事处,臭氧1小时,118,31,40,19,25,235,,217,217,6,17,5,9,0.3,0.4
2025-06-24T1700,2311A,115.8072,33.8399,亳州市,污水处理厂,臭氧1小时,78,31,40,18,23,182,,175,175,6,9,4,3,0.6,0.8
2025-06-24T1700,2312A,115.7789,33.8518,亳州市,三国揽胜宫,臭氧1小时,67,36,36,21,23,173,,167,167,3,6,3,3,0.4,0.5
2025-06-24T1700,3332A,115.7633,33.8034,亳州市,亳州学院,臭氧1小时,78,27,35,16,19,182,,178,178,4,8,5,4,0.4,0.5
2025-06-24T1700,2693A,82.0485,44.8556,博尔塔拉蒙古自治州,市党校,,34,23,20,14,10,106,,88,88,6,9,2,3,0.3,0.1
2025-06-24T1700,2694A,82.0806,44.8969,博尔塔拉蒙古自治州,市环保局,,34,23,24,23,14,106,,85,85,3,5,1,2,0.1,0.3
2025-06-24T1700,1071A,116.8842,38.2991,沧州市,沧县城建局,臭氧1小时,107,27,46,13,31,213,,194,194,12,26,3,5,0.2,0.4
2025-06-24T1700,1072A,116.8584,38.3254,沧州市,电视转播站,臭氧1小时,105,39,41,22,25,210,,190,190,4,13,3,4,0.3,0.3
2025-06-24T1700,1073A,116.8709,38.3228,沧州市,市环保局,臭氧1小时,105,35,51,20,27,210,,196,196,8,19,3,3,0.3,0.4
2025-06-24T1700,3324A,116.8136,38.3004,沧州市,河北水利电力学院,臭氧1小时,116,29,51,23,27,232,,217,217,8,33,3,5,0.3,0.4
2025-06-24T1700,2622A,97.1806,31.1273,昌都市,昌都监测站,,30,,7,3,6,94,,112,94,3,4,5,5,0.1,0.2
2025-06-24T1700,3719A,97.1714,31.1406,昌都市,昌都会议中心,,30,12,8,8,6,94,,120,100,6,3,6,6,0.1,0.1
2025-06-24T1700,2690A,88.1236,43.8886,昌吉回族自治州,天山天池,,26,6,19,3,7,83,,82,82,5,6,5,5,0.6,0.6
2025-06-24T1700,2692A,87.2717,44.0297,昌吉回族自治州,新区政务中心,,40,10,19,3,8,125,,102,102,3,9,5,4,0.2,0.2
2025-06-24T1700,3613A,87.3095,44.0142,昌吉回族自治州,亚心广场,,39,19,23,12,8,123,,99,99,6,13,6,6,0.2,0.3
2025-06-24T1700,1120A,125.2863,43.9027,长春市,客车厂,臭氧1小时,116,43,46,23,24,232,,212,212,20,38,7,7,0.5,0.5
2025-06-24T1700,1121A,125.2841,43.8463,长春市,邮电学院,臭氧1小时,113,38,39,26,17,225,,208,208,11,31,8,8,0.5,0.6
2025-06-24T1700,1122A,125.3716,43.8772,长春市,劳动公园,臭氧1小时,110,,51,30,24,220,,207,207,15,45,7,9,0.2,0.5
2025-06-24T1700,1123A,125.3297,43.8805,长春市,园林处,臭氧1小时,114,34,41,18,20,227,,210,210,12,30,7,7,0.5,0.6
2025-06-24T1700,1124A,125.4605,43.79,长春市,净月潭,臭氧1小时,99,32,32,18,12,199,,192,192,6,16,7,7,0.4,0.4
2025-06-24T1700,1125A,125.7194,43.515,长春市,甩湾子,臭氧1小时,124,28,33,15,14,248,,206,206,8,52,3,3,0.7,0.8
2025-06-24T1700,1126A,125.3863,43.8447,长春市,经开区环卫处,臭氧1小时,103,44,50,13,16,205,,189,189,8,43,6,6,0.4,0.4
2025-06-24T1700,1127A,125.245,43.7783,长春市,高新区管委会,臭氧1小时,108,31,42,22,19,215,,206,206,10,39,4,6,0.4,0.4
2025-06-24T1700,1128A,125.1761,43.8325,长春市,岱山公园,臭氧1小时,115,37,54,25,24,230,,209,209,13,55,5,6,0.5,0.5
2025-06-24T1700,4281A,125.3346,43.9164,长春市,北亚泰大街1068号,臭氧1小时,114,34,47,17,21,228,,208,208,13,36,6,6,0.6,0.7
2025-06-24T1700,1335A,113.0833,28.2325,长沙市,经开区环保局,,20,6,14,3,8,63,,,,9,15,4,4,0.4,0.4
2025-06-24T1700,1336A,112.8872,28.2189,长沙市,高开区环保局,,25,12,22,3,11,79,,78,78,7,12,3,3,0.7,0.6
2025-06-24T1700,1337A,113.0792,28.2053,长沙市,马坡岭,,20,10,19,3,10,62,,66,66,11,14,3,3,0.7,0.7
2025-06-24T1700,1338A,112.9394,28.19,长沙市,湖南师范大学,,24,,19,3,10,76,,80,79,5,12,2,2,0.4,0.3
2025-06-24T1700,1339A,113.0178,28.1322,长沙市,雨花区环保局,,20,10,19,7,10,61,,68,68,15,13,4,4,0.4,0.6
2025-06-24T1700,1340A,112.9792,28.2597,长沙市,伍家岭,,23,7,19,3,15,71,,70,70,3,10,2,2,0.3,0.3
2025-06-24T1700,1341A,113.0014,28.1944,长沙市,火车新站,,21,9,19,3,10,66,,68,68,9,11,6,6,0.6,0.5
2025-06-24T1700,1342A,112.9844,28.1178,长沙市,天心区环保局,,24,14,20,7,12,76,,76,76,12,14,1,1,1.1,1
2025-06-24T1700,1343A,112.8908,28.1308,长沙市,湖南中医药大学,,25,9,20,7,11,77,,76,76,7,11,3,3,0.5,0.5
2025-06-24T1700,1344A,112.9581,28.3611,长沙市,沙坪,,22,14,17,3,9,68,,61,61,7,8,4,4,0.5,0.5
2025-06-24T1700,1727A,113.1147,36.1547,长治市,清华站,臭氧1小时,58,21,35,7,14,166,,177,177,8,14,5,7,0.4,0.7
2025-06-24T1700,1730A,113.0886,36.2125,长治市,审计局,,,,30,,17,,,145,,,15,,12,,1.5
2025-06-24T1700,1731A,113.0844,36.1856,长治市,长治八中,臭氧1小时,70,24,39,15,22,176,,188,188,10,13,10,12,0.4,0.8
2025-06-24T1700,2845A,113.1569,36.1911,长治市,德盛苑,臭氧1小时,78,29,31,14,17,182,,184,184,9,10,8,10,0.6,0.8
2025-06-24T1700,3568A,113.06,36.0464,长治市,向阳小学,臭氧1小时,75,60,55,17,18,180,,171,171,8,13,6,8,0.4,0.6
2025-06-24T1700,3569A,112.8792,36.3144,长治市,屯留一中,臭氧1小时,89,23,43,12,25,191,,188,188,7,16,5,8,0.4,0.4
2025-06-24T1700,4189A,113.1131,36.19948,长治市,英华南巷50号,臭氧1小时,73,25,38,12,20,178,,182,182,10,15,7,10,0.5,1.3
2025-06-24T1700,4190A,113.2367,36.3344,长治市,学府街1号,臭氧1小时,80,36,49,12,20,184,,168,168,8,42,4,5,0.4,0.6
2025-06-24T1700,1854A,111.6975,28.9703,常德市,市二中,,32,,15,22,15,84,,96,96,7,11,4,5,0.7,0.7
2025-06-24T1700,1857A,111.7158,29.1456,常德市,白鹤山,,,,,,,,,,,,,,,,
2025-06-24T1700,3138A,111.7153,29.0289,常德市,武陵区永安,,36,28,19,25,14,74,,95,95,16,10,2,4,0.5,0.5
2025-06-24T1700,3139A,111.6892,28.9881,常德市,鼎城区玉霞,,28,22,18,16,12,87,,97,97,6,11,4,4,0.6,0.6
2025-06-24T1700,3140A,111.6625,29.0531,常德市,武陵区长庚,,26,23,17,17,11,83,,102,102,9,10,2,3,0.5,0.5
2025-06-24T1700,1196A,119.9633,31.762,常州市,市监测站,,38,29,23,21,14,121,,104,104,22,27,6,6,0.4,0.5
2025-06-24T1700,1200A,119.9468,31.7069,常州市,武进监测站,,29,26,26,17,15,92,,90,90,20,19,7,8,0.8,0.9
2025-06-24T1700,1201A,119.9255,31.9087,常州市,安家,,40,30,26,10,11,127,,114,114,15,16,7,7,0.4,0.4
2025-06-24T1700,3002A,119.9805,31.8174,常州市,行政中心,,39,28,28,18,12,122,,104,104,12,17,6,8,0.2,0.3
2025-06-24T1700,3003A,120.0522,31.7748,常州市,经开区,,38,34,27,15,12,121,,101,101,14,23,6,6,0.2,0.4
2025-06-24T1700,3010A,119.9025,31.7964,常州市,钟楼,,32,31,22,16,11,102,,95,95,17,18,6,6,0.6,0.6
2025-06-24T1700,3429A,119.8598,31.7066,常州市,武进经发区,,35,35,26,18,13,89,,85,85,18,20,5,5,0.7,0.7
2025-06-24T1700,3430A,119.5826,31.7245,常州市,金坛城区,,35,22,21,13,13,112,,105,105,13,18,6,6,0.3,0.3
2025-06-24T1700,2220A,120.4318,41.5881,朝阳市,西梁,臭氧1小时,83,35,52,22,40,186,,170,170,10,20,8,12,0.6,0.8
2025-06-24T1700,2221A,120.4521,41.5646,朝阳市,河畔小区,臭氧1小时,92,32,45,22,35,193,,175,175,8,14,8,9,0.3,0.6
2025-06-24T1700,2222A,120.4176,41.5648,朝阳市,八里堡,臭氧1小时,99,53,57,21,36,199,,188,188,13,21,6,10,0.7,0.9
2025-06-24T1700,2223A,120.3806,41.5969,朝阳市,农业园区,臭氧1小时,79,34,45,14,37,183,,170,170,10,19,5,6,0.4,0.6
2025-06-24T1700,1705A,116.6367,23.6719,潮州市,西园路,,35,21,22,8,12,112,,88,88,9,10,5,5,0.5,0.5
2025-06-24T1700,3026A,116.6183,23.6608,潮州市,市政府,,42,42,26,12,8,107,,92,92,9,10,4,6,0.8,0.7
2025-06-24T1700,4036A,116.6461,23.6761,潮州市,金山,,,,21,9,11,,,34,,16,10,5,6,0.6,0.6
2025-06-24T1700,2472A,113.0073,25.9061,郴州市,马头岭,,15,15,27,3,9,46,,44,44,2,10,7,7,0.2,0.3
2025-06-24T1700,2473A,113.0116,25.8226,郴州市,市职中,,16,12,27,9,20,51,,53,53,4,9,4,4,0.4,0.5
2025-06-24T1700,2475A,113.0383,25.8071,郴州市,市审计局,,19,13,28,9,21,60,,51,51,4,9,20,6,0.3,0.5
2025-06-24T1700,2476A,113.0348,25.7759,郴州市,市环保局,,20,16,35,3,31,63,,53,53,8,14,24,11,0.2,0.3
2025-06-24T1700,4252A,113.0138,25.8011,郴州市,好美居路49号,,19,18,31,6,17,60,,62,62,4,10,6,4,0.4,0.5
2025-06-24T1700,1431A,103.9728,30.7236,成都市,金泉两河,,25,6,16,3,6,80,,98,82,7,11,2,3,0.4,0.4
2025-06-24T1700,1432A,104.176,30.6872,成都市,十里店,,27,,22,13,12,85,,109,83,8,10,4,4,0.4,0.5
2025-06-24T1700,1433A,104.079,30.5706,成都市,三瓦窑,,28,15,24,11,14,87,,109,89,10,13,3,3,0.5,0.5
2025-06-24T1700,1434A,104.1114,30.63,成都市,沙河铺,,39,,22,27,12,80,,93,77,10,13,4,4,0.4,0.4
2025-06-24T1700,1437A,104.0786,30.6531,成都市,君平街,,23,6,26,3,12,71,,88,75,9,11,4,4,0.7,0.7
2025-06-24T1700,1438A,103.613,31.0283,成都市,灵岩寺,,,,,,,,,,,,,,,,
2025-06-24T1700,2880A,104.0239,30.65639,成都市,大石西路,,26,16,24,8,13,81,,104,84,6,11,4,4,0.6,0.6
2025-06-24T1700,3136A,104.2725,30.5589,成都市,龙泉驿区区政府,,27,,15,3,9,84,,102,87,8,14,3,3,0.6,0.6
2025-06-24T1700,3357A,104.0106,30.6931,成都市,金博路,,,,11,17,8,76,,99,79,10,13,3,3,,0.7
2025-06-24T1700,3359A,104.0578,30.5225,成都市,华阳,,22,,14,9,15,69,,88,72,14,17,6,6,0.6,0.7
2025-06-24T1700,3488A,104.3853,30.7453,成都市,青白江技师分院,,30,23,28,12,19,94,,102,91,9,21,4,6,0.6,0.6
2025-06-24T1700,3489A,104.0789,30.4072,成都市,科学城,,29,6,18,3,12,92,,110,96,7,12,3,3,0.6,0.6
2025-06-24T1700,4011A,103.8506,30.6947,成都市,光华大道三段,,27,12,20,3,12,84,,108,83,8,9,4,4,0.0,0
2025-06-24T1700,4224A,104.2433,30.5353,成都市,鲸龙路1057号,,26,10,23,7,14,82,,104,84,12,17,6,7,0.7,0.7
2025-06-24T1700,1062A,117.9531,40.9081,承德市,铁路,,49,27,46,18,26,154,,166,166,3,16,3,3,0.4,0.5
2025-06-24T1700,1063A,117.9392,40.9763,承德市,中国银行,,48,26,46,15,33,153,,166,166,2,15,1,2,0.3,0.4
2025-06-24T1700,1064A,117.9503,40.928,承德市,开发区,,46,35,50,21,27,146,,168,168,6,17,4,4,0.4,0.6
2025-06-24T1700,1065A,117.8051,40.9655,承德市,文化中心,,49,37,65,17,33,156,,174,174,5,23,2,19,0.4,1.1
2025-06-24T1700,1066A,117.9268,41.0026,承德市,离宫,,40,30,42,24,30,126,,155,155,3,12,2,2,0.3,0.4
2025-06-24T1700,2314A,117.47,30.6618,池州市,池州学院,,49,28,29,18,19,156,,140,140,9,12,7,5,0.5,0.7
2025-06-24T1700,3237A,117.4918,30.6617,池州市,展览馆,,44,24,27,18,19,138,,131,131,11,11,5,5,0.7,0.8
2025-06-24T1700,3333A,117.5627,30.695,池州市,第八中学,,,25,28,16,19,149,,136,136,,13,6,6,0.5,0.8
2025-06-24T1700,3334A,117.5038,30.6243,池州市,第十二中学,,43,28,24,15,16,136,,128,128,6,9,3,4,0.7,0.9
2025-06-24T1700,1744A,118.9233,42.2816,赤峰市,松山一中,,46,31,45,26,29,146,,145,145,13,33,8,14,0.6,0.7
2025-06-24T1700,1745A,118.9576,42.2728,赤峰市,哈达街,颗粒物(PM10),55,59,43,29,23,116,,130,130,46,28,15,19,0.6,0.7
2025-06-24T1700,1746A,118.8788,42.2554,赤峰市,天义路,细颗粒物(PM2.5),58,,42,41,33,153,,152,152,10,21,14,17,0.5,0.6
2025-06-24T1700,3058A,119.2658,42.0353,赤峰市,银河街,,44,31,56,17,31,138,,134,134,6,16,7,20,0.5,0.7
2025-06-24T1700,3286A,118.9359,42.3147,赤峰市,桥北物流园区,细颗粒物(PM2.5),63,,48,45,34,145,,145,145,13,23,10,11,0.2,0.4
2025-06-24T1700,2521A,107.3476,22.4136,崇左市,市环保局江州分局,,23,8,27,8,10,73,,75,75,3,11,5,6,0.5,0.6
2025-06-24T1700,4256A,107.3750,22.3736,崇左市,石景林东路7号,,24,22,23,12,10,76,,74,74,3,13,3,3,0.5,0.6
2025-06-24T1700,2298A,118.3093,32.3153,滁州市,老年大学,,40,15,34,10,19,125,,127,127,6,12,8,9,0.2,0.3
2025-06-24T1700,2299A,118.3244,32.2786,滁州市,人大宾馆,,38,9,30,3,24,119,,120,120,9,14,4,4,0.2,0.3
2025-06-24T1700,3207A,118.3118,32.3038,滁州市,市政府原办公楼,,40,15,32,14,28,125,,128,128,2,7,4,4,0.3,0.4
2025-06-24T1700,3331A,118.3267,32.2634,滁州市,图书馆,,38,11,28,9,22,121,,122,122,1,8,8,9,0.3,0.4
2025-06-24T1700,2605A,101.5482,25.0441,楚雄彝族自治州,州环境监测站,,10,9,6,3,2,32,,30,30,3,5,7,7,0.3,0.4
2025-06-24T1700,2606A,101.538,25.0492,楚雄彝族自治州,市经济开发区,,,,10,2,4,32,,31,31,3,4,6,6,0.4,0.5
2025-06-24T1700,2548A,107.5277,31.2827,达州市,达州职业技术学院,,23,23,27,8,5,70,,67,67,8,22,7,10,0.5,0.4
2025-06-24T1700,2549A,107.5086,31.2186,达州市,市环境监测站,,23,23,26,3,4,67,,71,71,36,34,5,6,0.3,0.4
2025-06-24T1700,2550A,107.4988,31.2132,达州市,凤凰小区,,,12,20,3,5,88,,85,85,15,25,,6,0.2,0.3
2025-06-24T1700,2551A,107.5082,31.1986,达州市,达县机关宾馆,,28,14,20,3,6,87,,81,81,13,29,5,7,0.2,0.3
2025-06-24T1700,2552A,107.4644,31.2124,达州市,市政中心,,25,20,25,3,3,80,,78,78,11,24,2,3,0.4,0.5
2025-06-24T1700,2614A,100.1542,25.7054,大理白族自治州,大理市环境监测站,,26,,4,18,12,37,,33,33,4,5,5,5,0.5,0.5
2025-06-24T1700,2615A,100.2171,25.5811,大理白族自治州,大理古城,,19,,10,13,5,30,,32,32,7,7,9,9,0.7,0.6
2025-06-24T1700,1109A,121.612,38.9741,大连市,甘井子,,37,20,29,7,17,117,,116,116,21,22,6,7,0.4,0.5
2025-06-24T1700,1110A,121.565,38.9511,大连市,周水子,,35,23,36,6,19,109,,110,110,18,21,10,12,0.3,0.4
2025-06-24T1700,1111A,121.5637,38.8845,大连市,星海三站,,,22,27,7,19,146,,124,124,8,15,,6,0.2,0.3
2025-06-24T1700,1112A,121.6302,38.9117,大连市,青泥洼桥,,43,10,29,8,18,137,,123,123,8,12,8,8,0.3,0.3
2025-06-24T1700,1113A,121.6251,38.8638,大连市,傅家庄,,47,18,23,10,16,149,,128,128,9,13,10,10,0.2,0.2
2025-06-24T1700,1114A,121.5213,38.8661,大连市,七贤岭,,47,20,24,11,16,150,,142,142,13,15,10,8,0.5,0.7
2025-06-24T1700,1115A,121.2529,38.8061,大连市,旅顺,,,,28,,24,,,107,,,16,,4,,0.4
2025-06-24T1700,1116A,121.7485,39.1311,大连市,金州,,36,13,27,7,14,113,,122,122,20,19,7,8,0.2,0.3
2025-06-24T1700,1117A,121.7811,39.0496,大连市,开发区,,35,24,32,11,20,110,,114,114,40,36,11,9,0.5,0.4
2025-06-24T1700,1118A,121.9762,39.0631,大连市,双D港,,40,25,18,21,17,128,,130,130,15,17,9,8,0.4,0.4
2025-06-24T1700,1789A,124.81117,46.03138,大庆市,大同区,,49,44,49,16,18,155,,163,163,10,12,7,7,0.5,0.7
2025-06-24T1700,1790A,125.129,46.533,大庆市,龙凤区,,50,35,37,14,18,158,,166,166,10,11,5,6,0.4,0.4
2025-06-24T1700,1791A,124.902,46.408,大庆市,红岗区,臭氧1小时,68,48,45,15,24,174,,181,181,10,10,10,10,0.5,0.6
2025-06-24T1700,1792A,125.153,46.586,大庆市,萨尔图区,颗粒物(PM10),51,52,46,22,20,143,,149,149,16,14,10,10,0.5,0.5
2025-06-24T1700,1793A,124.9042,46.6215,大庆市,让胡路区,臭氧1小时,59,36,32,22,22,167,,158,158,10,12,7,6,0.4,0.4
2025-06-24T1700,3481A,125.141,46.634,大庆市,萨区政府监测点,臭氧1小时,63,57,48,17,17,170,,174,174,10,10,8,8,0.5,0.4
2025-06-24T1700,1721A,113.3819,40.1097,大同市,果树场,,,,,,,,,,,,,,,,
2025-06-24T1700,1723A,113.2994,40.0758,大同市,云冈宾馆,,,27,43,3,18,155,,159,159,,20,6,7,0.3,0.7
2025-06-24T1700,1724A,113.3444,40.0917,大同市,大同大学,臭氧1小时,57,24,36,24,17,165,,165,165,7,20,8,8,0.3,0.5
2025-06-24T1700,1725A,113.2661,40.1269,大同市,安家小村,,50,18,44,17,20,157,,156,156,8,18,5,6,0.2,0.7
2025-06-24T1700,1726A,113.2711,40.0844,大同市,教育学院,,50,23,50,11,24,158,,160,160,8,23,8,11,0.3,0.6
2025-06-24T1700,3282A,113.3397,40.0597,大同市,大同市卫生学校,,49,34,48,13,20,154,,160,160,6,22,8,8,0.4,0.6
2025-06-24T1700,3565A,113.1367,40.1122,大同市,云冈站,,49,,70,15,27,156,,159,159,8,28,4,7,0.4,0.5
2025-06-24T1700,3566A,113.1186,40.2556,大同市,图书馆,,50,23,38,6,20,157,,156,156,5,11,8,8,0.4,0.6
2025-06-24T1700,3567A,113.5931,40.0461,大同市,区一中,,50,26,30,13,17,157,,155,155,7,11,12,12,0.3,0.4
2025-06-24T1700,4199A,113.2798,40.0997,大同市,魏都大道141号,,50,24,49,10,21,160,,160,160,6,22,8,9,0.4,1
2025-06-24T1700,2269A,124.1069,50.4097,大兴安岭地区,科技局,颗粒物(PM10),98,145,41,25,14,87,,89,89,6,7,7,7,0.5,0.5
2025-06-24T1700,3663A,124.1164,50.4278,大兴安岭地区,红旗社区,,26,24,20,13,17,82,,95,95,6,10,6,6,0.3,0.3
2025-06-24T1700,1600A,124.3303,40.0625,丹东市,江湾东路,颗粒物(PM10),51,51,50,23,30,159,,161,161,23,24,9,13,0.8,0.9
2025-06-24T1700,1601A,124.4256,40.1503,丹东市,临江后街,颗粒物(PM10),83,116,95,17,24,143,,147,147,21,21,9,10,0.9,0.8
2025-06-24T1700,1602A,124.3933,40.1461,丹东市,元宝山,,36,28,50,18,24,114,,122,121,11,18,7,8,0.6,0.8
2025-06-24T1700,1603A,124.3633,40.1092,丹东市,民主桥,颗粒物(PM10),51,51,48,18,26,140,,158,158,14,21,10,9,0.8,0.8
2025-06-24T1700,3541A,109.5726,19.5167,儋州市,第一中学子站,,13,11,13,3,7,41,,37,37,2,4,6,7,0.4,0.5
2025-06-24T1700,3542A,109.5567,19.5187,儋州市,东坡学校子站,,15,,7,7,3,47,,40,40,2,2,4,7,0.5,0.7
2025-06-24T1700,2616A,98.5842,24.428,德宏傣族景颇族自治州,德宏州监测站,,11,9,19,3,8,34,,27,27,5,8,7,8,0.6,0.7
2025-06-24T1700,3677A,98.5881,24.4368,德宏傣族景颇族自治州,芒市人民政府综合楼,,18,18,24,3,6,30,,27,27,4,6,7,8,0.4,0.5
2025-06-24T1700,1901A,104.4239,31.1208,德阳市,东山公园,,26,,15,8,15,81,,106,87,8,11,4,8,0.7,0.7
2025-06-24T1700,1902A,104.3826,31.1317,德阳市,西小区,,25,14,20,8,13,80,,81,81,9,11,5,5,0.8,0.8
2025-06-24T1700,1904A,104.3553,31.1091,德阳市,耐火材料厂,,26,10,21,6,14,82,,104,85,6,12,7,7,0.4,0.5
2025-06-24T1700,3639A,104.4019,31.1244,德阳市,市教育局,,,10,20,9,13,87,,113,88,5,8,,7,0.6,0.6
2025-06-24T1700,1622A,116.3032,37.4674,德州市,儿童乐园,臭氧1小时,121,34,49,22,24,242,,220,220,3,14,9,11,0.4,0.4
2025-06-24T1700,1624A,116.2991,37.4451,德州市,监理站,臭氧1小时,120,31,44,14,23,240,,221,221,9,21,9,10,0.4,0.3
2025-06-24T1700,3066A,116.2721,37.4379,德州市,九衢泉纯净水厂,,,,51,,27,,,143,,,40,,7,,0.6
2025-06-24T1700,3371A,116.3728,37.4403,德州市,开发区人民医院,臭氧1小时,117,39,50,17,22,234,,210,210,14,23,10,11,0.4,0.5
2025-06-24T1700,3372A,116.3572,37.4094,德州市,太阳城中学,,,,,,,,,,,,,,,,
2025-06-24T1700,3511A,116.5652,37.3319,德州市,陵城艺术中心,臭氧1小时,125,41,51,22,23,250,,215,215,5,18,4,10,0.6,0.7
2025-06-24T1700,2621A,99.7056,27.8317,迪庆藏族自治州,迪庆州站,,,14,15,14,11,52,,52,50,10,7,7,7,,0.4
2025-06-24T1700,3180A,99.7136,27.8094,迪庆藏族自治州,质量技术监督局,,15,14,13,8,6,46,,53,46,10,8,6,6,0.5,0.5
2025-06-24T1700,4257A,104.6092,35.5962,定西市,将台街,,36,21,34,14,16,113,,106,101,8,11,4,4,0.1,0.2
2025-06-24T1700,4309A,104.6159,35.5701,定西市,正龙路62号,,37,22,26,10,19,117,,106,105,4,6,4,4,0.2,0.3
2025-06-24T1700,1389A,113.7547,23.0494,东莞市,莞城梨川,臭氧1小时,65,35,14,23,11,172,,137,137,11,10,5,5,0.5,0.4
2025-06-24T1700,1390A,113.7944,23.0128,东莞市,东城石井,,46,22,16,19,8,147,,124,124,10,12,3,2,0.5,0.4
2025-06-24T1700,1391A,113.7383,22.9658,东莞市,南城西平,,39,,13,24,8,122,,112,112,11,12,3,2,0.6,0.6
2025-06-24T1700,3319A,113.7338,23.0381,东莞市,万江金泰,,,29,18,19,12,155,,124,124,12,11,,9,0.7,0.6
2025-06-24T1700,3626A,113.7533,23.0202,东莞市,南城元岭,,48,28,16,19,10,153,,126,126,12,12,4,4,0.4,0.4
2025-06-24T1700,3627A,113.7875,23.0457,东莞市,东城主山,,50,42,27,16,8,158,,123,123,15,11,6,6,0.6,0.5
2025-06-24T1700,1666A,118.6614,37.4309,东营市,市环保局,臭氧1小时,124,51,46,27,19,247,,208,208,17,32,11,10,0.5,0.5
2025-06-24T1700,3036A,118.6904,37.4338,东营市,开发区管委会,臭氧1小时,124,56,53,22,17,247,,206,206,14,35,11,8,0.4,0.4
2025-06-24T1700,3365A,118.5719,37.565,东营市,垦利区民丰路,臭氧1小时,135,70,51,29,22,269,,247,247,18,27,11,10,0.8,0.8
2025-06-24T1700,3498A,118.5055,37.8612,东营市,河口城区,臭氧1小时,137,70,51,22,20,274,,210,210,18,31,9,12,0.5,0.8
2025-06-24T1700,3646A,118.4978,37.4623,东营市,胜利站,臭氧1小时,125,52,50,22,18,249,,217,217,24,34,11,13,0.6,0.8
2025-06-24T1700,3734A,118.35,37.26,东营市,理想之城,臭氧1小时,135,51,44,19,20,270,,232,232,15,37,10,8,0.7,0.7
2025-06-24T1700,1591A,110.0023,39.8129,鄂尔多斯市,综合楼,臭氧1小时,54,19,38,14,23,163,,165,165,8,19,4,5,0.4,0.7
2025-06-24T1700,1592A,109.9486,39.8261,鄂尔多斯市,巴音孟克林场办事处,臭氧1小时,73,31,46,12,23,178,,186,184,10,20,4,8,0.3,0.6
2025-06-24T1700,1593A,109.7736,39.5986,鄂尔多斯市,康泽苑,臭氧1小时,104,41,42,14,18,208,,190,190,10,16,12,11,0.4,0.4
2025-06-24T1700,1594A,109.8119,39.5989,鄂尔多斯市,华泰汽车城,臭氧1小时,78,36,42,22,20,182,,170,170,9,25,8,6,0.5,0.6
2025-06-24T1700,1595A,109.9734,39.7884,鄂尔多斯市,奥林花园,臭氧1小时,67,36,44,12,27,173,,176,176,9,23,6,7,0.2,0.4
2025-06-24T1700,2436A,114.8938,30.3994,鄂州市,市政府,,29,9,28,6,15,92,,96,96,2,7,4,5,0.7,0.9
2025-06-24T1700,2437A,114.8989,30.3714,鄂州市,赵家坝,,32,12,24,7,9,102,,100,100,4,10,9,9,0.5,0.6
2025-06-24T1700,3654A,114.8094,30.4089,鄂州市,精准医疗中心,,34,12,21,3,9,107,,105,105,7,14,4,4,0.6,0.6
2025-06-24T1700,2454A,109.4978,30.2981,恩施土家族苗族自治州,湖北民院,,28,26,22,3,11,89,,94,94,3,7,5,5,0.5,0.5
2025-06-24T1700,2455A,109.4707,30.2798,恩施土家族苗族自治州,州电力总公司,,29,26,22,20,13,72,,75,75,6,11,7,7,0.4,0.4
2025-06-24T1700,3549A,109.5061,30.3772,恩施土家族苗族自治州,龙凤新区,,32,26,20,22,13,85,,108,108,10,5,4,4,0.4,0.4
2025-06-24T1700,2499A,108.3411,21.6158,防城港市,沙万,,17,11,16,8,7,52,,51,51,4,8,2,2,0.5,0.4
2025-06-24T1700,2500A,108.3514,21.7731,防城港市,防城档案局,,22,22,17,13,8,53,,50,50,6,7,3,3,0.4,0.4
2025-06-24T1700,2501A,108.3506,21.6414,防城港市,大海花园,,22,22,17,10,6,54,,53,53,5,5,3,2,0.3,0.4
2025-06-24T1700,1371A,113.1294,23.0067,佛山市,湾梁,,35,24,15,11,6,111,,82,82,12,15,8,8,0.4,0.4
2025-06-24T1700,1372A,113.1083,23.0478,佛山市,华材职中,,36,14,13,3,7,113,,94,94,4,7,6,6,0.3,0.4
2025-06-24T1700,1373A,113.144,23.0453,佛山市,南海气象局,颗粒物(PM10),52,54,19,7,7,103,,82,82,10,12,4,3,0.5,0.5
2025-06-24T1700,1374A,113.2881,22.8094,佛山市,顺德苏岗,,28,22,21,9,6,88,,91,91,12,10,6,6,0.6,0.6
2025-06-24T1700,1376A,112.8383,22.8678,佛山市,高明孔堂,,24,14,12,9,7,74,,62,62,4,5,6,5,0.6,0.6
2025-06-24T1700,1377A,112.8836,23.1588,佛山市,三水监测站,,,,17,13,10,76,,59,59,16,24,4,4,0.5,0.5
2025-06-24T1700,1378A,112.867,23.185,佛山市,三水云东海,,30,12,29,11,10,95,,76,76,11,20,2,2,0.4,0.5
2025-06-24T1700,3625A,113.2544,22.7642,佛山市,容桂街道办,,24,12,10,9,4,76,,100,96,18,14,5,5,0.7,0.6
2025-06-24T1700,1280A,119.3903,26.0543,福州市,鼓山,,,,,,,,,,,,,,,,
2025-06-24T1700,1282A,119.2681,26.0504,福州市,师大,,37,37,35,16,15,113,,121,121,8,13,4,4,0.3,0.3
2025-06-24T1700,1283A,119.2984,26.1028,福州市,五四北路,颗粒物(PM10),54,57,32,25,17,131,,112,112,13,16,4,4,0.3,0.3
2025-06-24T1700,1284A,119.2648,26.0768,福州市,杨桥西路,,49,49,31,30,17,125,,110,110,12,13,3,3,0.3,0.3
2025-06-24T1700,1285A,119.317,26.0746,福州市,紫阳,,37,37,40,23,19,103,,108,108,25,20,3,4,0.3,0.3
2025-06-24T1700,3048A,119.5799,26.0936,福州市,九龙,,36,36,35,20,21,113,,140,137,9,14,4,5,0.3,0.3
2025-06-24T1700,3526A,119.5189,25.9664,福州市,吴航,,40,32,34,17,19,128,,120,120,6,10,4,5,0.4,0.4
2025-06-24T1700,1755A,123.7977,41.8491,抚顺市,望花区,臭氧1小时,111,40,59,23,27,222,,188,188,18,37,11,14,0.7,0.8
2025-06-24T1700,1756A,123.9161,41.8822,抚顺市,顺城区,,49,35,51,14,24,156,,190,190,15,44,7,9,0.5,0.8
2025-06-24T1700,1757A,124.0436,41.8611,抚顺市,东洲区,,44,14,31,12,19,138,,146,146,7,15,6,9,0,0.2
2025-06-24T1700,1758A,123.9247,41.8642,抚顺市,新抚区,,45,35,48,20,24,143,,178,178,11,33,6,8,0.5,0.7
2025-06-24T1700,1759A,124.0972,41.8961,抚顺市,大伙房水库,,38,15,26,10,19,120,,132,132,6,16,7,8,0.3,0.5
2025-06-24T1700,1760A,123.7086,41.8391,抚顺市,沈抚新城,臭氧1小时,115,,51,17,28,229,,200,200,14,38,7,12,0.6,1.1
2025-06-24T1700,2376A,116.2127,28.0814,抚州市,桐源党溪,,24,24,22,9,9,67,,63,63,3,3,5,4,0.6,0.6
2025-06-24T1700,2377A,116.3544,27.9831,抚州市,市站,,20,16,17,9,7,63,,53,53,2,4,1,2,1.0,1.1
2025-06-24T1700,2378A,116.3565,27.963,抚州市,血防站,,20,13,19,10,10,63,,53,53,3,7,2,3,0.6,0.5
2025-06-24T1700,2379A,116.3564,28.0007,抚州市,采茶剧团,,20,17,16,3,5,61,,51,51,2,3,3,3,0.4,0.4
2025-06-24T1700,2380A,116.385,27.9647,抚州市,医学分院,,20,16,18,3,6,64,,55,55,2,2,9,4,0.9,0.9
2025-06-24T1700,2207A,121.6094,41.998,阜新市,工业园区,臭氧1小时,85,34,53,9,31,188,,192,191,12,23,8,15,0.4,0.5
2025-06-24T1700,2208A,121.6697,42.0279,阜新市,长青街,臭氧1小时,68,34,48,11,27,174,,173,173,9,17,9,17,0.5,0.7
2025-06-24T1700,2209A,121.6673,42.0705,阜新市,农业园区,臭氧1小时,77,31,46,7,28,181,,181,181,7,12,7,13,0.5,0.7
2025-06-24T1700,2210A,121.6717,42.0224,阜新市,东苑,臭氧1小时,77,44,55,12,26,181,,178,178,12,22,10,22,0.5,0.7
2025-06-24T1700,2211A,121.6506,42.0498,阜新市,玉龙新城,臭氧1小时,59,30,50,10,24,167,,169,169,8,29,8,9,0.5,0.7
2025-06-24T1700,2301A,115.8277,32.8929,阜阳市,市监测站,臭氧1小时,101,45,38,29,22,201,,173,173,8,18,3,3,0.3,0.3
2025-06-24T1700,2303A,115.8554,32.8605,阜阳市,开发区,臭氧1小时,100,52,40,25,15,200,,171,171,9,20,7,6,0.2,0.2
2025-06-24T1700,2875A,115.784,32.8892,阜阳市,阜阳职业技术学院,臭氧1小时,102,39,28,31,17,204,,176,176,8,19,5,4,0.3,0.3
2025-06-24T1700,3468A,115.7901,32.8613,阜阳市,市规划展馆,臭氧1小时,95,70,42,28,20,196,,174,174,10,15,4,3,0.3,0.3
2025-06-24T1700,3469A,115.836,32.9183,阜阳市,枣园社区,臭氧1小时,93,44,41,37,21,194,,172,172,11,25,5,5,0.4,0.4
2025-06-24T1700,2669A,102.9099,34.9841,甘南藏族自治州,州政府,,33,,11,12,14,105,,108,108,4,8,5,5,0.2,0.3
2025-06-24T1700,3380A,102.8914,34.9617,甘南藏族自治州,甘肃民族师范学院,,,11,15,3,6,110,,114,114,,3,8,8,0.4,0.3
2025-06-24T1700,2570A,101.9603,30.0475,甘孜藏族自治州,水桥子,,24,8,5,3,4,75,,89,89,27,12,5,5,0.5,0.4
2025-06-24T1700,3065A,101.9533,29.9972,甘孜藏族自治州,州环保局,,25,6,9,3,5,78,,97,97,23,11,2,2,0.5,0.5
2025-06-24T1700,3414A,115.8347,28.932,赣江新区,桑海产业园,,33,9,9,3,5,105,,93,93,8,10,6,7,0.4,0.6
2025-06-24T1700,2362A,114.9017,25.9149,赣州市,通天岩,颗粒物(PM10),56,61,21,8,6,69,,80,80,4,5,1,2,0.4,0.4
2025-06-24T1700,2363A,114.9367,25.8664,赣州市,地委,,25,18,22,15,14,77,,83,83,12,10,1,6,0.6,0.6
2025-06-24T1700,2364A,114.9461,25.8481,赣州市,气象台,,26,20,23,7,9,82,,83,83,4,7,6,9,0.3,0.3
2025-06-24T1700,2365A,114.9322,25.8333,赣州市,市图书馆,,27,18,18,8,11,85,,82,82,6,8,7,5,0.3,0.5
2025-06-24T1700,2366A,114.8905,25.8471,赣州市,华坚鞋城,,26,22,25,18,13,82,,84,84,11,10,3,5,0.3,0.3
2025-06-24T1700,3109A,115.0093,25.8613,赣州市,赣县区卫计委,,24,11,24,9,11,75,,78,78,4,10,2,3,0.1,0.2
2025-06-24T1700,2683A,106.2319,36.1417,固原市,马园,,39,25,32,20,20,123,,138,138,12,24,10,24,0.7,0.7
2025-06-24T1700,2684A,106.2792,36.0022,固原市,监测站,,38,20,28,9,23,119,,142,140,10,10,6,9,0.2,0.2
2025-06-24T1700,2685A,106.2375,36.0211,固原市,新区,,40,,25,19,17,127,,138,138,6,10,3,4,0.4,0.4
2025-06-24T1700,3522A,106.2177,35.9959,固原市,原州区十五小,,41,19,27,13,18,129,,143,141,5,9,10,11,0.2,0.3
2025-06-24T1700,2543A,106.6308,30.5278,广安市,小平旧居,,,,,,,,,,,,,,,,
2025-06-24T1700,2544A,106.6303,30.4576,广安市,市委,,29,,12,9,12,91,,94,94,11,14,3,3,0.4,0.4
2025-06-24T1700,2545A,106.6271,30.4663,广安市,友谊中学,,34,16,18,9,10,107,,107,107,11,15,5,6,0.6,0.7
2025-06-24T1700,2547A,106.6388,30.4551,广安市,广电花园,,,16,17,,10,94,,97,97,10,12,9,9,0.5,0.5
2025-06-24T1700,2902A,106.6351,30.4865,广安市,北辰小学,,32,15,17,11,10,100,,102,102,7,10,7,8,0.6,0.6
2025-06-24T1700,2523A,105.8945,32.4535,广元市,黑石坡,,25,24,27,7,14,80,,66,66,7,11,7,11,0.3,0.4
2025-06-24T1700,2524A,105.821,32.4444,广元市,老城,,32,10,20,10,11,102,,100,100,9,21,3,3,0.8,0.9
2025-06-24T1700,2526A,105.8628,32.4287,广元市,监测站,,35,35,17,9,14,100,,93,93,8,14,8,8,0.4,0.5
2025-06-24T1700,3617A,105.8047,32.4166,广元市,经开区,,33,20,24,12,16,105,,98,98,7,17,3,5,0.4,0.5
2025-06-24T1700,1345A,113.2347,23.1423,广州市,广雅中学,,35,20,20,8,8,109,,98,98,9,14,2,2,0.6,0.5
2025-06-24T1700,1346A,113.2612,23.105,广州市,市五中,,42,34,18,16,8,132,,100,100,14,14,4,4,0.4,0.5
2025-06-24T1700,1348A,113.3478,23.0916,广州市,广东商学院,,47,24,19,12,11,148,,112,112,16,20,3,3,0.5,0.5
2025-06-24T1700,1349A,113.4332,23.1047,广州市,市八十六中,,41,29,20,11,6,131,,98,98,27,29,3,3,0.4,0.5
2025-06-24T1700,1350A,113.3505,22.9483,广州市,番禺中学,,43,23,17,9,8,135,,110,110,10,14,7,7,0.4,0.4
2025-06-24T1700,1351A,113.2146,23.3916,广州市,花都师范,,40,15,20,8,8,128,,100,100,8,17,4,4,0.2,0.4
2025-06-24T1700,1352A,113.2597,23.1331,广州市,市监测站,,35,16,16,7,7,112,,92,92,5,7,4,5,0.2,0.3
2025-06-24T1700,1353A,113.5618,23.312,广州市,九龙镇镇龙,,46,19,23,11,9,146,,106,106,12,21,6,6,0.3,0.4
2025-06-24T1700,1354A,113.2765,23.1544,广州市,麓湖,,,41,18,19,7,98,,84,84,8,12,,2,0.6,0.5
2025-06-24T1700,1355A,113.443,23.3035,广州市,帽峰山森林公园,,39,12,14,9,6,124,,106,106,7,16,6,7,0.4,0.5
2025-06-24T1700,2846A,113.3221,23.1322,广州市,体育西,,47,36,22,12,10,148,,112,112,17,19,4,5,0.3,0.3
2025-06-24T1700,3298A,113.5717,23.5491,广州市,从化街口,臭氧1小时,67,25,21,14,10,173,,123,123,11,18,8,8,0.5,0.6
2025-06-24T1700,3299A,113.3472,23.3692,广州市,白云竹料,,48,36,23,15,9,152,,110,110,11,20,3,3,0.6,0.6
2025-06-24T1700,3300A,113.2981,23.237,广州市,白云嘉禾,,39,29,22,12,9,124,,104,104,15,19,5,5,1.4,1.1
2025-06-24T1700,3301A,113.4256,23.1716,广州市,黄埔科学城,,44,26,20,14,8,140,,99,99,10,17,4,4,0.6,0.6
2025-06-24T1700,3302A,113.3942,23.0483,广州市,番禺大学城,,47,20,21,10,7,148,,120,120,16,20,6,6,0.6,0.6
2025-06-24T1700,3303A,113.4922,22.8168,广州市,南沙黄阁,,27,24,20,10,7,84,,90,90,6,11,4,4,0.3,0.4
2025-06-24T1700,3304A,113.5342,22.7896,广州市,南沙街,,28,18,18,6,7,87,,87,87,7,13,4,3,0.4,0.5
2025-06-24T1700,3443A,113.2902,23.5544,广州市,花都梯面,,36,20,22,10,9,113,,96,96,9,18,5,5,0.4,0.6
2025-06-24T1700,3445A,113.7858,23.7478,广州市,从化良口,,45,14,16,10,10,141,,106,106,7,10,6,6,0.6,0.6
2025-06-24T1700,3446A,113.8051,23.2614,广州市,增城荔城,臭氧1小时,88,45,22,27,11,190,,133,133,10,12,7,6,0.4,0.3
2025-06-24T1700,2505A,109.568,23.1478,贵港市,德智高中,,,,,,,,,,,,,,,,
2025-06-24T1700,2506A,109.6047,23.0666,贵港市,江南子站,,26,19,26,12,14,81,,69,69,3,9,5,5,0.4,0.5
2025-06-24T1700,2508A,109.5669,23.1065,贵港市,荷城子站,,24,22,24,9,8,75,,67,67,7,10,6,6,0.2,0.2
2025-06-24T1700,3405A,109.5886,23.1172,贵港市,新世纪学校,,24,24,23,16,14,73,,66,66,9,11,7,5,0.5,0.4
2025-06-24T1700,4260A,109.5933,23.0951,贵港市,中山路155-3号,,32,32,30,15,16,93,,81,81,8,11,3,4,0.4,0.4
2025-06-24T1700,1439A,106.6899,26.5998,贵阳市,马鞍山,,,12,15,,4,45,,30,30,6,8,4,4,0.4,0.5
2025-06-24T1700,1441A,106.6243,26.6266,贵阳市,鉴湖路,,17,14,20,3,5,52,,37,37,8,12,8,7,0.4,0.4
2025-06-24T1700,1442A,106.7487,26.6343,贵阳市,燕子冲,,20,14,17,14,16,53,,39,39,10,10,4,4,0.1,0.2
2025-06-24T1700,1443A,106.6555,26.4365,贵阳市,碧云窝,,16,12,18,3,7,49,,42,42,3,11,5,5,0.4,0.4
2025-06-24T1700,1445A,106.7109,26.6027,贵阳市,红边门,,17,17,15,3,7,50,,40,40,5,7,9,6,0.2,0.3
2025-06-24T1700,1446A,106.7164,26.5699,贵阳市,新华路,,16,6,10,3,12,49,,42,42,11,13,19,5,0.4,0.5
2025-06-24T1700,1447A,106.674,26.5424,贵阳市,太慈桥,,14,12,15,3,6,42,,29,29,14,18,6,5,0.2,0.4
2025-06-24T1700,1552A,106.805,26.3003,贵阳市,桐木岭,,,,25,,12,,,77,,,2,,2,,0.8
2025-06-24T1700,4230A,106.6882,26.5695,贵阳市,花果园大街66号,,17,7,13,6,11,52,,40,40,6,11,3,3,0,0.1
2025-06-24T1700,4231A,106.6873,26.5169,贵阳市,漓江路57号,,17,9,15,3,5,52,,39,39,6,14,6,6,0.2,0.3
2025-06-24T1700,1862A,110.4144,25.3167,桂林市,电子科大尧山校区,,,,,,,,,,,,,,,,
2025-06-24T1700,1864A,110.3089,25.2708,桂林市,龙隐路小学,,20,16,24,14,14,59,,59,59,4,9,8,11,0.5,0.6
2025-06-24T1700,1865A,110.2869,25.2178,桂林市,八中,,21,19,25,8,12,65,,60,60,6,13,6,8,0.4,0.5
2025-06-24T1700,3531A,110.296,25.1253,桂林市,旅游学院,,15,,12,3,10,47,,44,44,2,9,1,3,0.3,0.3
2025-06-24T1700,4222A,110.1835,25.2444,桂林市,环湖路276号,,24,14,22,9,15,75,,62,62,4,12,4,17,0.4,0.5
2025-06-24T1700,4301A,110.2803,25.2773,桂林市,信义路13号,,24,24,23,11,15,59,,58,58,6,12,1,3,0.5,0.5
2025-06-24T1700,2674A,100.2561,34.4714,果洛藏族自治州,玛沁县大武镇,,38,,9,12,11,120,,113,113,2,2,18,18,0.4,0.4
2025-06-24T1700,1129A,126.5422,45.755,哈尔滨市,岭北,臭氧1小时,109,33,32,18,18,217,,190,190,13,28,9,10,1.0,0.9
2025-06-24T1700,1130A,126.561,45.8167,哈尔滨市,松北商大,臭氧1小时,104,87,37,25,15,208,,182,182,12,31,6,6,0.6,0.6
2025-06-24T1700,1131A,126.979,45.5419,哈尔滨市,阿城会宁,臭氧1小时,122,35,37,18,20,243,,190,190,18,43,16,11,0.5,0.5
2025-06-24T1700,1132A,126.599,45.7222,哈尔滨市,南岗学府路,臭氧1小时,104,45,42,14,16,208,,184,184,12,33,7,8,0.6,0.6
2025-06-24T1700,1133A,126.689,45.7733,哈尔滨市,太平宏伟公园,臭氧1小时,105,47,42,22,14,210,,184,184,15,33,8,7,0.4,0.5
2025-06-24T1700,1134A,126.635,45.7667,哈尔滨市,道外承德广场,臭氧1小时,102,45,48,18,17,204,,177,177,22,39,9,9,0.1,0.5
2025-06-24T1700,1135A,126.685,45.7319,哈尔滨市,香坊红旗大街,臭氧1小时,105,44,46,20,20,210,,189,189,20,45,19,11,0.4,0.6
2025-06-24T1700,1136A,126.6411,45.7258,哈尔滨市,动力和平路,臭氧1小时,108,,40,47,26,215,,188,188,18,44,13,11,0.5,0.5
2025-06-24T1700,1137A,126.593,45.7478,哈尔滨市,道里建国路,臭氧1小时,110,,33,39,19,220,,195,195,12,35,,18,0.7,0.8
2025-06-24T1700,1138A,126.615,45.61,哈尔滨市,平房东轻厂,臭氧1小时,105,64,36,28,15,209,,194,194,16,52,11,10,0.3,0.4
2025-06-24T1700,1139A,126.595,45.9855,哈尔滨市,呼兰师专,臭氧1小时,110,49,38,35,16,220,,191,191,17,26,9,9,0.4,0.4
2025-06-24T1700,1140A,126.6206,45.6842,哈尔滨市,省农科院,臭氧1小时,95,88,76,27,32,196,,181,181,24,52,5,9,0.5,0.6
2025-06-24T1700,2688A,93.5128,42.8172,哈密市,地区监测站,,42,22,36,14,16,133,,125,125,5,13,3,14,0.1,0.1
2025-06-24T1700,2689A,93.4961,42.8328,哈密市,哈密师范学校,,39,18,31,14,11,124,,115,115,5,18,13,7,0.2,0.3
2025-06-24T1700,2671A,100.9048,36.9639,海北藏族自治州,海晏县西海镇,,,10,14,9,12,129,,119,119,2,6,,9,0.4,0.4
2025-06-24T1700,3867A,102.0738,36.5056,海东市,平安区公安北苑,,41,24,18,12,10,129,,119,119,4,6,11,10,0.5,0.6
2025-06-24T1700,1409A,110.576,19.9507,海口市,东寨港,,14,10,11,3,7,43,,46,46,2,3,6,11,0.3,0.3
2025-06-24T1700,1410A,110.3232,20.0574,海口市,海南大学,,16,9,15,3,7,51,,57,57,3,4,3,3,0.3,0.3
2025-06-24T1700,1411A,110.283,20.0053,海口市,秀英海南医院,,15,12,17,3,7,47,,53,53,4,9,5,5,0.2,0.3
2025-06-24T1700,1412A,110.338,19.9969,海口市,海南师范大学,,16,12,15,3,7,50,,55,55,2,5,4,4,0.2,0.2
2025-06-24T1700,1413A,110.33,20.0356,海口市,龙华路环保局宿舍,,16,14,16,3,8,50,,56,55,4,5,5,5,0.2,0.2
2025-06-24T1700,3539A,110.5111,19.9736,海口市,桂林洋子站,,15,10,16,3,6,45,,49,49,5,6,4,4,0.2,0.2
2025-06-24T1700,2673A,100.6188,36.2866,海南藏族自治州,共和县恰卜恰镇,,,22,18,3,7,139,,132,132,3,6,15,12,,0.5
2025-06-24T1700,2676A,97.3731,37.3753,海西蒙古族藏族自治州,德令哈市,臭氧1小时,53,21,52,10,8,162,,148,148,1,2,13,16,0.6,0.6
2025-06-24T1700,1048A,114.5302,36.6116,邯郸市,东污水处理厂,臭氧1小时,113,37,45,3,6,226,,216,216,10,23,4,10,0.4,0.8
2025-06-24T1700,1049A,114.4918,36.5713,邯郸市,矿院,臭氧1小时,121,35,36,9,12,241,,224,224,8,26,5,9,0.3,0.5
2025-06-24T1700,1050A,114.484,36.6133,邯郸市,丛台公园,臭氧1小时,115,23,37,11,16,229,,220,220,10,19,5,15,0.4,0.9
2025-06-24T1700,3458A,114.7895,36.5593,邯郸市,香泉濮院小区,臭氧1小时,112,50,57,10,10,223,,204,204,8,15,5,8,0.2,0.4
2025-06-24T1700,3579A,114.50634,36.77178,邯郸市,永年区实验高中,臭氧1小时,120,43,54,27,26,240,,222,222,9,21,3,14,0.1,0.6
2025-06-24T1700,3580A,114.20016,36.44293,邯郸市,峰峰矿区临水派出所,臭氧1小时,114,26,28,3,8,228,,214,214,10,11,4,11,0.3,0.3
2025-06-24T1700,2634A,106.9893,33.1842,汉中市,汉川机床厂子校,,26,26,18,17,11,76,,123,91,9,7,4,4,0.8,0.6
2025-06-24T1700,2635A,107.0154,33.0706,汉中市,市监测站,,29,29,23,6,13,90,,98,95,11,11,6,7,0.6,0.5
2025-06-24T1700,2636A,107.0089,33.1138,汉中市,鑫源开发区,,31,31,21,16,12,89,,105,88,16,13,10,7,0.9,0.5
2025-06-24T1700,2637A,107.007,33.0323,汉中市,南郑大河坎水厂,,32,32,28,14,14,83,,77,77,10,16,4,5,0.6,0.5
2025-06-24T1700,1223A,120.2072,30.2111,杭州市,滨江,,40,39,25,28,15,101,,76,76,27,24,6,6,0.8,0.6
2025-06-24T1700,1224A,120.0633,30.2747,杭州市,西溪,,43,,18,30,21,85,,71,71,12,12,4,4,0.6,0.5
2025-06-24T1700,1226A,120.3417,30.3150,杭州市,下沙,,35,25,21,22,20,111,,90,90,16,22,4,4,0.7,0.5
2025-06-24T1700,1227A,120.1269,30.2456,杭州市,卧龙桥,,50,49,29,35,22,54,,63,63,22,15,7,8,0.7,0.8
2025-06-24T1700,1228A,120.1903,30.2692,杭州市,浙江农大,细颗粒物(PM2.5),53,49,36,37,24,84,,68,68,25,19,6,8,0.8,0.8
2025-06-24T1700,1230A,120.1197,30.3119,杭州市,和睦小学,,35,29,20,21,14,111,,86,86,15,14,7,8,0.6,0.5
2025-06-24T1700,1231A,120.3019,30.4183,杭州市,临平镇,,40,33,31,12,12,127,,97,97,11,14,5,5,0.6,0.6
2025-06-24T1700,1232A,120.2753,30.1839,杭州市,城厢镇,细颗粒物(PM2.5),53,44,23,37,26,98,,75,75,22,17,6,6,1.1,0.8
2025-06-24T1700,1233A,120.0883,30.1808,杭州市,云栖,,42,42,20,28,10,64,,62,62,12,9,7,7,0.8,0.6
2025-06-24T1700,3557A,119.9464,30.0494,杭州市,镇二中,,39,,12,27,12,81,,64,64,27,16,2,3,0.9,0.6
2025-06-24T1700,3558A,119.7183,30.2367,杭州市,市府大楼,,32,26,11,22,11,84,,78,78,14,11,6,6,0.7,0.6
2025-06-24T1700,3656A,120.1556,30.2864,杭州市,消防大队,,42,34,20,29,20,109,,83,83,18,18,5,5,1.0,0.8
2025-06-24T1700,1270A,117.1959,31.7848,合肥市,明珠广场,臭氧1小时,57,46,38,27,26,165,,156,156,18,24,6,5,0.6,0.6
2025-06-24T1700,1271A,117.3072,31.8764,合肥市,三里街,,42,29,33,19,20,132,,125,125,10,18,6,6,0.5,0.6
2025-06-24T1700,1272A,117.2588,31.8707,合肥市,琥珀山庄,,49,41,36,17,24,156,,143,143,12,17,7,7,0.7,0.6
2025-06-24T1700,1273A,117.1604,31.9052,合肥市,董铺水库,颗粒物(PM10),51,51,37,31,22,136,,130,130,6,12,5,4,0.3,0.4
2025-06-24T1700,1274A,117.25,31.8571,合肥市,长江中路,臭氧1小时,53,44,43,29,27,162,,150,150,14,15,7,6,0.7,0.7
2025-06-24T1700,1275A,117.266,31.9436,合肥市,庐阳区,,42,27,37,12,23,132,,129,129,5,12,7,8,0.5,0.6
2025-06-24T1700,1276A,117.3453,31.8616,合肥市,瑶海区,,,39,40,20,22,138,,130,130,,19,7,6,,0.6
2025-06-24T1700,1277A,117.3027,31.7964,合肥市,包河区,,45,34,36,22,23,144,,129,129,9,37,5,4,0.8,0.7
2025-06-24T1700,1278A,117.2776,31.7385,合肥市,滨湖新区,,46,36,36,29,28,147,,135,135,9,26,10,9,0.7,0.7
2025-06-24T1700,1279A,117.1318,31.8403,合肥市,高新区,,,51,37,33,23,166,,144,144,18,18,,7,0.7,0.6
2025-06-24T1700,3464A,117.3803,31.9147,合肥市,高教基地,,41,29,36,13,20,131,,129,129,7,15,7,7,0.5,0.6
2025-06-24T1700,3614A,79.924,37.0877,和田地区,地区环保局,颗粒物(PM10),84,117,396,29,117,144,,118,118,5,10,3,2,0.6,0.6
2025-06-24T1700,3615A,79.9131,37.113,和田地区,市环保局,颗粒物(PM10),77,103,375,34,114,143,,118,118,5,10,1,1,0.6,0.4
2025-06-24T1700,2516A,108.2011,24.715,河池市,东仁乐园,,,,,,,,,,,,,,,,
2025-06-24T1700,2517A,108.0497,24.6947,河池市,市环保站,,,24,28,12,13,56,,43,43,2,7,,3,0.6,0.6
2025-06-24T1700,2518A,108.0983,24.6989,河池市,市疾控中心,,21,20,25,12,13,66,,46,46,6,12,2,3,0.6,0.6
2025-06-24T1700,1696A,114.6778,23.7569,河源市,源西,,,24,19,16,14,113,,92,92,,19,4,4,0.4,0.5
2025-06-24T1700,1697A,114.6944,23.7586,河源市,东埔,,37,18,18,15,12,116,,93,93,9,14,4,4,0.2,0.3
2025-06-24T1700,1698A,114.6892,23.7233,河源市,老城,,33,27,21,18,13,104,,82,82,7,12,4,4,0.4,0.4
2025-06-24T1700,1718A,115.4208,35.2464,菏泽市,气象局,臭氧1小时,87,32,56,18,27,189,,197,197,6,18,3,5,0.4,0.4
2025-06-24T1700,3374A,115.5564,35.0891,菏泽市,定陶老年大学,臭氧1小时,79,24,46,12,13,183,,186,186,9,16,2,3,0.2,0.3
2025-06-24T1700,4184A,115.4797,35.24401,菏泽市,永昌路1号,臭氧1小时,79,39,51,14,20,183,,197,197,8,13,4,5,0.2,0.2
2025-06-24T1700,4193A,115.4715,35.2800,菏泽市,长城路999号,臭氧1小时,100,34,50,9,22,200,,204,204,11,16,5,5,0.2,0.3
2025-06-24T1700,2514A,111.5264,24.4172,贺州市,环保小区,,30,28,26,21,15,63,,42,42,8,15,10,11,0.6,0.6
2025-06-24T1700,2515A,111.5608,24.4078,贺州市,政协大楼,,23,23,22,7,13,69,,54,54,7,12,11,12,0.7,0.7
2025-06-24T1700,3534A,111.4744,24.4553,贺州市,西湾,,24,24,20,8,12,69,,54,54,8,11,12,10,0.4,0.5
2025-06-24T1700,2385A,114.17,35.9019,鹤壁市,市监测站,臭氧1小时,104,43,41,29,26,208,,193,193,8,10,8,7,0.6,0.7
2025-06-24T1700,2386A,114.2956,35.7511,鹤壁市,市交警支队,臭氧1小时,104,40,44,19,24,208,,198,198,10,17,11,9,0.7,0.8
2025-06-24T1700,2387A,114.2878,35.7306,鹤壁市,迎宾馆,臭氧1小时,97,40,42,31,22,197,,189,189,10,17,3,6,0.6,0.6
2025-06-24T1700,3474A,114.2617,35.6822,鹤壁市,大新区,臭氧1小时,93,34,46,16,22,194,,184,184,5,15,6,7,0.5,0.6
2025-06-24T1700,3596A,114.1572,35.9603,鹤壁市,南山宾馆,臭氧1小时,111,47,49,37,32,222,,208,208,4,7,5,6,0.5,0.5
2025-06-24T1700,2244A,130.2537,47.3416,鹤岗市,哈啤分公司,,40,25,21,17,14,126,,119,119,9,6,14,13,0.5,0.4
2025-06-24T1700,2245A,130.2684,47.3086,鹤岗市,斯达机电,,41,41,35,17,20,113,,117,116,7,9,13,14,0.5,0.3
2025-06-24T1700,2246A,130.3114,47.3388,鹤岗市,东山纸板厂,,,29,32,3,17,115,,104,104,10,14,,14,,0.9
2025-06-24T1700,2247A,130.1097,47.3382,鹤岗市,五号水库,,34,16,12,10,7,106,,101,101,13,9,16,12,0.5,0.5
2025-06-24T1700,2263A,127.4833,50.2524,黑河市,交通局,,31,31,31,19,12,93,,91,91,8,11,6,7,0.6,0.4
2025-06-24T1700,2264A,127.5144,50.2341,黑河市,环保局,,39,39,42,14,15,98,,97,97,12,13,6,7,0.7,0.6
2025-06-24T1700,2265A,127.5291,50.2472,黑河市,大黑河岛,,21,,6,11,10,65,,64,64,6,7,24,20,0.4,0.4
2025-06-24T1700,1074A,115.6838,37.7541,衡水市,电机北厂,,,,52,,20,239,,213,213,6,13,4,4,,0.4
2025-06-24T1700,1075A,115.6303,37.7316,衡水市,市监测站,臭氧1小时,118,37,53,14,19,236,,199,199,5,16,6,9,0.4,0.5
2025-06-24T1700,3188A,115.6683,37.7217,衡水市,市城管局,臭氧1小时,122,41,56,31,28,244,,209,209,5,18,3,5,0.3,0.5
2025-06-24T1700,3459A,115.5989,37.5491,衡水市,地表水厂,臭氧1小时,127,49,64,16,22,253,,208,208,11,38,7,8,0.3,0.3
2025-06-24T1700,2456A,112.5003,26.9167,衡阳市,原169医院,,30,22,16,14,7,94,,72,72,9,11,1,2,0.7,0.6
2025-06-24T1700,2457A,112.6194,26.9258,衡阳市,衡阳化工总厂,,26,17,20,12,14,82,,68,68,8,8,4,3,0.7,0.6
2025-06-24T1700,2458A,112.6211,26.8956,衡阳市,珠晖区环保局,,,19,19,,12,86,,75,75,10,11,6,6,0.7,0.8
2025-06-24T1700,2459A,112.6197,26.8733,衡阳市,市委党校,,26,24,17,11,11,82,,70,70,10,8,6,5,0.6,0.6
2025-06-24T1700,2460A,112.6006,26.8919,衡阳市,市监测站,,29,,21,20,14,83,,70,70,8,10,5,6,0.5,0.6
2025-06-24T1700,2461A,112.5664,26.9056,衡阳市,真空机电公司,,29,22,20,20,15,80,,65,65,8,8,6,6,0.7,0.9
2025-06-24T1700,3399A,112.6703,26.882,衡阳市,师范学院,,26,,18,10,11,83,,58,,6,8,5,5,0.8,0.8
2025-06-24T1700,2608A,103.3772,23.3993,红河哈尼族彝族自治州,污水处理厂,,13,13,15,7,9,41,,41,41,2,3,6,6,0.3,0.3
2025-06-24T1700,2609A,103.3861,23.35,红河哈尼族彝族自治州,监测站,,22,22,19,10,12,39,,38,38,2,3,10,7,0.3,0.3
2025-06-24T1700,3038A,103.3758,23.368,红河哈尼族彝族自治州,州图书馆,,14,10,6,3,11,43,,42,42,3,3,1,1,0.2,0.1
2025-06-24T1700,1090A,111.6507,40.7517,呼和浩特市,呼市一监,臭氧1小时,84,22,44,18,24,187,,178,178,7,18,10,9,0.5,0.6
2025-06-24T1700,1091A,111.6572,40.8033,呼和浩特市,小召,臭氧1小时,80,24,37,16,21,184,,180,180,11,20,6,7,0.4,0.5
2025-06-24T1700,1094A,111.7516,40.8369,呼和浩特市,如意水处理厂,臭氧1小时,83,35,45,23,23,186,,180,180,5,20,7,6,0.4,0.5
2025-06-24T1700,1095A,111.7276,40.8062,呼和浩特市,二十九中,臭氧1小时,83,31,45,17,22,186,,183,183,7,18,6,6,0.3,0.6
2025-06-24T1700,1096A,111.5512,40.7866,呼和浩特市,工大金川校区,臭氧1小时,85,29,47,16,22,188,,179,179,7,24,8,9,0.4,0.6
2025-06-24T1700,1097A,111.717,40.7612,呼和浩特市,化肥厂生活区,臭氧1小时,102,34,49,17,22,203,,193,193,11,22,9,9,0.3,0.4
2025-06-24T1700,3698A,111.5968,40.8178,呼和浩特市,红旗小学,臭氧1小时,84,24,49,14,24,187,,187,187,8,31,4,6,0.3,0.5
2025-06-24T1700,3699A,111.6518,40.8389,呼和浩特市,海东办,臭氧1小时,70,24,40,18,23,176,,174,174,10,22,6,6,0.4,0.5
2025-06-24T1700,2192A,119.7594,49.2261,呼伦贝尔市,区环保局,颗粒物(PM10),51,52,58,35,35,136,,113,113,20,28,4,6,0.6,0.6
2025-06-24T1700,3061A,119.7512,49.1577,呼伦贝尔市,国华电力东,,49,43,44,27,25,154,,136,136,7,19,4,4,0.5,0.5
2025-06-24T1700,1250A,120.0751,30.8669,湖州市,城西水厂,,45,40,33,30,25,144,,121,121,12,12,5,5,0.5,0.6
2025-06-24T1700,2873A,120.0830,30.8929,湖州市,仁皇山新区,,45,34,29,28,23,144,,118,118,10,11,4,4,0.7,0.7
2025-06-24T1700,2907A,120.1844,30.8596,湖州市,吴兴区站,,45,24,20,20,21,142,,114,114,18,16,6,6,0.5,0.5
2025-06-24T1700,3562A,120.4148,30.8538,湖州市,南浔区站,,,,26,,24,,,81,,,17,,4,,0.7
2025-06-24T1700,1607A,120.9049,40.7211,葫芦岛市,龙港区,臭氧1小时,78,36,38,18,20,182,,168,168,10,12,8,7,0.5,0.5
2025-06-24T1700,1608A,120.8392,40.7514,葫芦岛市,化工街,臭氧1小时,63,29,35,22,25,170,,158,158,13,22,8,7,0.5,0.5
2025-06-24T1700,1609A,120.8341,40.7073,葫芦岛市,新区,臭氧1小时,74,50,32,18,24,179,,157,157,12,13,5,5,0.5,0.6
2025-06-24T1700,1610A,120.8695,40.7677,葫芦岛市,东城区,,50,32,36,14,28,160,,150,150,14,19,6,6,0.6,0.7
2025-06-24T1700,2482A,109.5981,27.5721,怀化市,林科所,,13,6,12,3,4,40,,38,32,7,8,5,4,0.3,0.3
2025-06-24T1700,2483A,109.9453,27.5444,怀化市,河西地税局,,14,,13,8,8,44,,33,32,7,12,5,5,0.3,0.3
2025-06-24T1700,2484A,109.9781,27.5342,怀化市,市四医院,,18,,11,12,9,35,,38,29,7,8,2,2,0.4,0.3
2025-06-24T1700,2485A,109.9972,27.5578,怀化市,监测楼,,13,,12,9,7,38,,31,30,5,7,1,1,0.2,0.3
2025-06-24T1700,2486A,110.0394,27.583,怀化市,市委党校,,15,,9,6,7,46,,35,34,13,10,4,6,0.4,0.3
2025-06-24T1700,1210A,119.036,33.5981,淮安市,钵池山,臭氧1小时,69,29,22,17,17,175,,154,154,13,13,10,8,0.6,0.5
2025-06-24T1700,1211A,119.007,33.575,淮安市,北京南路,,44,34,27,26,19,139,,144,144,15,8,10,9,1.2,0.6
2025-06-24T1700,1212A,118.989,33.6067,淮安市,市监测站,,47,36,28,19,17,148,,143,143,9,12,10,10,0.5,0.5
2025-06-24T1700,1213A,119.135,33.5039,淮安市,楚州区监测站,,,24,25,16,21,141,,136,136,5,8,,8,0.6,0.6
2025-06-24T1700,3426A,118.8755,33.2894,淮安市,新华书店,,41,13,22,7,13,129,,124,124,4,7,7,8,0.4,0.4
2025-06-24T1700,4206A,119.0288,33.6319,淮安市,承德北路606号,,48,34,32,22,20,153,,143,143,6,9,6,6,0.5,0.5
2025-06-24T1700,2282A,116.8004,33.975,淮北市,监测站,臭氧1小时,63,23,41,10,27,170,,159,159,2,7,7,7,0.7,0.8
2025-06-24T1700,2283A,116.8091,33.9007,淮北市,烈山区政府,臭氧1小时,53,21,56,11,22,162,,160,160,2,10,6,7,0.5,0.6
2025-06-24T1700,3330A,116.8873,33.9836,淮北市,杜集区检察院,,48,30,53,8,33,152,,146,146,2,10,8,9,0.7,0.8
2025-06-24T1700,4017A,116.7923,33.9535,淮北市,市博物馆,臭氧1小时,64,29,40,7,27,171,,164,164,2,7,8,8,0.6,0.7
2025-06-24T1700,2277A,116.8305,32.7727,淮南市,潘集区政府,臭氧1小时,64,41,59,27,42,171,,159,159,6,13,3,4,0.4,0.5
2025-06-24T1700,2279A,116.8569,32.5951,淮南市,谢家集区政府,,47,19,41,8,22,148,,154,154,5,14,6,7,0.3,0.3
2025-06-24T1700,2280A,116.8281,32.633,淮南市,八公山区政府,,46,20,41,10,22,147,,155,155,6,10,3,4,0.2,0.3
2025-06-24T1700,2281A,116.6325,32.6201,淮南市,焦岗湖风景区管理处,,,,,,,,,,,,,,,,
2025-06-24T1700,2894A,117.0566,32.6531,淮南市,经济技术开发区消防队,,46,21,48,8,25,145,,146,146,6,14,6,7,0.3,0.3
2025-06-24T1700,3329A,117.0108,32.5893,淮南市,山南新区,,47,27,41,6,15,148,,152,152,4,10,7,8,0.4,0.4
2025-06-24T1700,4209A,117.0031,32.6445,淮南市,国庆中路369号,,48,20,53,15,32,152,,152,152,7,16,5,8,0.3,0.3
2025-06-24T1700,2446A,114.9028,30.4742,黄冈市,职工中心,,32,22,17,13,15,101,,108,107,2,3,8,8,0.6,0.6
2025-06-24T1700,2929A,114.8858,30.4519,黄冈市,红卫路,,33,16,23,10,14,104,,107,107,2,4,5,6,0.5,0.6
2025-06-24T1700,3398A,114.9136,30.4445,黄冈市,市林业局,,30,30,23,10,17,95,,98,98,2,3,6,7,0.5,0.6
2025-06-24T1700,2672A,102.0199,35.5102,黄南藏族自治州,同仁县隆务镇,,29,29,19,3,8,84,,92,92,8,4,8,7,0.2,0.2
2025-06-24T1700,2295A,118.2903,29.6963,黄山市,延安路89号,,25,9,18,3,5,77,,68,68,2,4,6,6,0.6,0.6
2025-06-24T1700,2297A,118.1371,30.2756,黄山市,黄山区政府5号楼,,33,,13,23,12,77,,76,76,3,3,4,4,0.6,0.6
2025-06-24T1700,4210A,118.3354,29.7203,黄山市,滨江东路7-2号,,22,,11,7,5,69,,65,65,2,4,4,4,0.5,0.5
2025-06-24T1700,2423A,115.0601,30.2313,黄石市,沈家营,,32,29,31,9,10,102,,117,117,7,9,6,7,0.7,0.9
2025-06-24T1700,2426A,114.8988,30.2019,黄石市,铁山,,41,22,27,3,13,130,,116,116,6,10,4,7,0.6,0.6
2025-06-24T1700,2427A,115.0307,30.2092,黄石市,团城山,,39,29,35,3,8,124,,124,124,9,6,7,7,0.6,0.5
2025-06-24T1700,3149A,115.0235,30.1578,黄石市,笔架山北路,,38,13,26,3,7,120,,115,115,4,10,4,6,0.6,0.6
2025-06-24T1700,4185A,115.0780,30.21118,黄石市,磁湖东路29号,,38,23,30,3,12,119,,123,123,12,8,7,8,0.2,0.4
2025-06-24T1700,1392A,114.4183,23.0528,惠州市,河南岸金山湖子站,,36,28,18,25,10,113,,94,94,11,16,6,6,0.4,0.4
2025-06-24T1700,1393A,114.4053,23.0822,惠州市,下埔横江三路子站,,41,25,19,9,8,131,,107,107,10,15,4,4,0.5,0.4
2025-06-24T1700,1394A,114.4103,23.1142,惠州市,江北云山西路子站,,46,19,18,11,7,147,,128,128,7,14,6,7,0.4,0.4
2025-06-24T1700,1395A,114.4645,22.7833,惠州市,惠阳区承修路船湖子站,,28,22,16,9,7,87,,82,82,17,13,7,7,0.5,0.5
2025-06-24T1700,1396A,114.5317,22.7422,惠州市,大亚湾管委会子站,,22,13,13,11,6,68,,56,56,5,11,9,9,0.3,0.3
2025-06-24T1700,3314A,114.4338,22.8134,惠州市,惠阳秋长,,32,29,19,15,9,102,,103,103,21,18,10,9,0.4,0.4
2025-06-24T1700,3452A,114.6517,22.775,惠州市,大亚湾霞涌,,20,18,12,3,4,62,,61,61,10,11,5,5,0.3,0.3
2025-06-24T1700,2240A,130.9762,45.3001,鸡西市,环保局,臭氧1小时,104,30,33,14,18,208,,198,198,11,12,5,4,0.5,0.4
2025-06-24T1700,2243A,130.9429,45.3039,鸡西市,第一中学,臭氧1小时,88,32,29,18,16,190,,176,176,7,13,8,8,0.6,0.6
2025-06-24T1700,3707A,131.0207,45.3073,鸡西市,欧美日汽修厂,臭氧1小时,67,41,38,10,20,173,,188,188,13,20,8,7,0.6,0.6
2025-06-24T1700,3709A,130.9967,45.3106,鸡西市,市政设施管理处,臭氧1小时,65,36,38,16,20,172,,184,184,17,21,5,5,0.5,0.5
2025-06-24T1700,2367A,114.9754,27.0803,吉安市,红声器材厂,,33,16,18,9,8,104,,81,81,5,7,7,11,0.8,0.8
2025-06-24T1700,2368A,114.9658,27.0999,吉安市,市森林工业局,,33,16,16,8,6,103,,82,82,4,5,6,11,0.6,0.4
2025-06-24T1700,2369A,114.99,27.1312,吉安市,市环境监测站,,33,,15,18,9,104,,80,80,2,4,13,16,0.5,0.4
2025-06-24T1700,2370A,115.0093,27.0968,吉安市,青原区法院,,31,22,19,10,9,98,,74,74,8,12,6,11,0.4,0.3
2025-06-24T1700,1772A,126.54,43.8622,吉林市,哈达湾,臭氧1小时,111,21,36,20,19,222,,199,199,7,22,8,8,0.4,0.4
2025-06-24T1700,1773A,126.5844,43.8358,吉林市,东局子,臭氧1小时,114,,31,18,18,228,,212,212,14,22,7,6,0.8,0.7
2025-06-24T1700,1774A,126.5052,43.8245,吉林市,电力学院,臭氧1小时,113,15,41,8,19,225,,200,200,11,36,6,6,0.6,0.5
2025-06-24T1700,1775A,126.6133,43.8972,吉林市,江北,臭氧1小时,112,36,35,18,17,223,,202,202,10,17,9,8,0.5,0.5
2025-06-24T1700,1776A,126.555,43.8306,吉林市,江南公园,臭氧1小时,108,30,28,21,17,216,,195,195,9,19,7,6,0.5,0.5
2025-06-24T1700,1778A,126.7061,43.7133,吉林市,丰满,,,,,,,,,,,,,,,,
2025-06-24T1700,2868A,126.4739,43.953,吉林市,九站,臭氧1小时,123,33,44,14,23,246,,224,224,9,35,6,7,0.5,0.4
2025-06-24T1700,1299A,116.9862,36.6114,济南市,科干所,臭氧1小时,113,36,37,20,21,225,,203,203,13,15,6,7,0.6,0.7
2025-06-24T1700,1300A,116.9376,36.665,济南市,农科所,臭氧1小时,115,42,43,22,18,230,,201,201,12,19,8,9,0.3,0.4
2025-06-24T1700,1301A,117.1265,36.6734,济南市,开发区,臭氧1小时,115,39,37,17,20,230,,208,208,15,17,8,9,0.4,0.5
2025-06-24T1700,1303A,117.0624,36.6868,济南市,省种子仓库,臭氧1小时,122,44,41,22,18,244,,215,215,9,17,6,8,0.4,0.5
2025-06-24T1700,1304A,116.9489,36.6447,济南市,机床二厂,臭氧1小时,119,39,47,20,20,238,,208,208,17,22,6,7,0.6,0.6
2025-06-24T1700,1305A,117.0495,36.663,济南市,市监测站,臭氧1小时,117,39,37,24,20,233,,205,205,18,22,10,11,0.5,0.6
2025-06-24T1700,1306A,116.7675,36.5484,济南市,长清党校,臭氧1小时,113,39,38,32,25,225,,199,199,13,22,5,8,0.5,0.6
2025-06-24T1700,1616A,117.6795,36.229,济南市,技术学院,臭氧1小时,109,34,35,22,22,218,,186,186,9,25,10,10,0.7,0.9
2025-06-24T1700,1961A,117.532,36.6868,济南市,东山小学,臭氧1小时,131,54,38,22,17,261,,223,223,8,13,8,10,0.3,0.4
2025-06-24T1700,3059A,117.7161,36.2049,济南市,泰兴公司,臭氧1小时,104,34,40,27,22,207,,181,181,8,31,9,9,0.3,0.7
2025-06-24T1700,3064A,117.6867,36.2171,济南市,莱芜战役纪念馆,臭氧1小时,113,34,42,28,25,225,,183,183,7,23,11,10,0.6,1.1
2025-06-24T1700,3494A,117.1673,36.9782,济南市,济阳区政府,臭氧1小时,109,46,61,15,20,217,,203,203,11,33,8,9,0.3,0.5
2025-06-24T1700,3495A,117.1171,36.63,济南市,锦屏中学,臭氧1小时,117,39,35,20,16,234,,207,207,11,15,6,9,0.5,0.7
2025-06-24T1700,3682A,116.9814,36.6819,济南市,济南四建,臭氧1小时,118,36,37,20,22,235,,205,205,12,18,6,7,0.4,0.5
2025-06-24T1700,1653A,116.6251,35.4302,济宁市,火炬城,臭氧1小时,83,45,49,22,27,186,,170,170,8,13,6,8,0.5,0.6
2025-06-24T1700,1655A,116.5491,35.4042,济宁市,电化厂,臭氧1小时,98,36,52,27,32,198,,174,174,2,11,5,6,0.6,0.8
2025-06-24T1700,3500A,116.5814,35.3707,济宁市,北湖一中,臭氧1小时,102,43,50,22,34,204,,185,185,12,15,10,10,0.3,0.4
2025-06-24T1700,3501A,116.8249,35.5593,济宁市,服务中心,臭氧1小时,102,29,42,16,20,204,,175,175,9,19,2,3,0.2,0.4
2025-06-24T1700,3678A,116.5907,35.4054,济宁市,市第七中学,臭氧1小时,98,35,50,14,24,198,,176,176,3,9,11,12,0.4,0.5
2025-06-24T1700,2255A,130.2751,46.8028,佳木斯市,佳纺,,50,27,40,18,22,159,,137,137,7,22,3,4,0.4,0.4
2025-06-24T1700,2256A,130.3995,46.8307,佳木斯市,发电厂,,38,31,47,19,23,120,,134,134,30,21,6,5,0.5,0.4
2025-06-24T1700,2257A,130.3258,46.7975,佳木斯市,环保局,臭氧1小时,54,37,44,22,24,163,,142,142,9,24,4,4,0.5,0.5
2025-06-24T1700,2258A,130.3648,46.8032,佳木斯市,十一中,,50,40,42,23,26,158,,147,147,12,21,7,6,0.4,0.5
2025-06-24T1700,2259A,130.3794,46.7588,佳木斯市,四丰,,,34,31,,,,,,,7,14,1,1,0.5,0.5
2025-06-24T1700,1252A,120.7436,30.778,嘉兴市,清河小学,,40,37,28,17,11,128,,96,96,19,17,7,7,1.2,0.9
2025-06-24T1700,1253A,120.726,30.7478,嘉兴市,嘉兴学院,,38,23,18,21,18,121,,91,91,23,18,5,4,0.7,0.7
2025-06-24T1700,2872A,120.7846,30.7525,嘉兴市,南湖区残联,,40,22,19,19,16,126,,94,94,12,14,5,5,0.8,0.7
2025-06-24T1700,3407A,120.6916,30.7739,嘉兴市,秀洲住建,,40,29,19,21,12,126,,92,92,20,18,6,5,0.8,0.8
2025-06-24T1700,1945A,98.2908,39.7711,嘉峪关市,气象局,,46,31,18,9,9,147,,139,139,4,7,5,9,0.6,0.6
2025-06-24T1700,2884A,98.2672,39.7978,嘉峪关市,酒钢宾馆,,46,22,20,14,11,145,,140,140,3,6,23,17,0.7,0.5
2025-06-24T1700,3248A,98.2643,39.7724,嘉峪关市,雄关区,,45,31,25,16,14,144,,137,137,8,11,14,10,0.3,0.3
2025-06-24T1700,1383A,113.1064,22.6058,江门市,北街,,21,,19,14,8,66,,76,76,18,10,4,4,0.4,0.4
2025-06-24T1700,1384A,113.0731,22.5835,江门市,西区,颗粒物(PM10),78,105,22,22,9,68,,68,68,10,11,8,8,0.4,0.4
2025-06-24T1700,1385A,113.0219,22.5311,江门市,圭峰西,二氧化氮,95,,24,15,9,57,,56,56,189,14,4,3,0.4,0.4
2025-06-24T1700,1386A,113.0828,22.5947,江门市,东湖,,18,14,13,3,7,57,,63,63,10,10,6,6,0.5,0.4
2025-06-24T1700,3311A,113.1075,22.5647,江门市,江海富民,,20,17,21,12,10,61,,71,71,10,9,8,9,0.4,0.4
2025-06-24T1700,3449A,113.05,22.4667,江门市,新会银湖,,24,24,16,7,7,52,,59,59,5,7,3,2,0.3,0.3
2025-06-24T1700,1830A,113.1992,35.2590,焦作市,影视城,,,,27,,16,,,,,,10,,12,,0.3
2025-06-24T1700,3169A,113.2725,35.2067,焦作市,太极体育中心,臭氧1小时,87,43,56,13,22,189,,191,191,13,27,2,6,0.2,0.4
2025-06-24T1700,3335A,113.3137,35.2641,焦作市,马村街道办,臭氧1小时,64,33,49,23,23,171,,179,179,12,16,9,12,0.3,0.5
2025-06-24T1700,3336A,113.2465,35.2373,焦作市,焦作技师学院,臭氧1小时,53,31,41,9,15,162,,168,168,10,13,3,5,0.4,0.6
2025-06-24T1700,3477A,113.1656,35.2539,焦作市,中站许衡医院,臭氧1小时,64,24,43,20,24,171,,179,179,6,20,6,8,0.3,0.4
2025-06-24T1700,3981A,113.2449,35.1803,焦作市,原李万街道办,,,33,50,3,16,170,,174,174,13,20,8,13,,0.9
2025-06-24T1700,4264A,113.2340,35.2190,焦作市,新安路1731号,臭氧1小时,63,27,47,9,20,170,,175,175,4,11,4,7,0.2,0.3
2025-06-24T1700,1708A,116.3701,23.5345,揭阳市,新兴,,49,49,20,12,10,90,,71,71,7,6,5,5,0.4,0.4
2025-06-24T1700,1709A,116.3264,23.5443,揭阳市,西马,,42,42,22,10,9,84,,63,63,5,9,2,2,0.4,0.5
2025-06-24T1700,1710A,116.3611,23.5626,揭阳市,东兴,,42,42,24,9,7,101,,79,79,7,8,3,3,0.3,0.4
2025-06-24T1700,1711A,116.4151,23.5294,揭阳市,渔湖,颗粒物(PM10),55,59,28,3,14,83,,69,69,15,9,7,7,0.2,0.3
2025-06-24T1700,3320A,116.403,23.5699,揭阳市,曲溪,,32,26,20,3,7,101,,78,78,6,5,4,3,0.5,0.4
2025-06-24T1700,1944A,102.1692,38.5167,金昌市,天庆家园,,38,7,30,3,16,119,,104,104,4,17,12,24,0.7,0.7
2025-06-24T1700,4022A,102.1647,38.5371,金昌市,金川区人防中心,,39,10,29,3,13,122,,103,103,5,13,14,18,0.4,0.5
2025-06-24T1700,4239A,102.1930,38.5319,金昌市,长春路96号,,39,6,28,3,13,122,,105,105,3,14,8,12,0.5,0.7
2025-06-24T1700,1262A,119.647,29.077,金华市,十五中,,26,13,16,12,9,81,,83,83,8,10,2,2,0.4,0.5
2025-06-24T1700,1263A,119.686,29.1029,金华市,监测站,,25,10,15,8,10,77,,75,75,9,13,2,2,0.4,0.4
2025-06-24T1700,3659A,119.656,29.1131,金华市,气象局,,17,12,17,3,9,52,,56,56,12,16,2,2,0.2,0.4
2025-06-24T1700,1767A,121.1115,41.0879,锦州市,南山,臭氧1小时,74,50,42,21,38,179,,161,161,15,16,10,21,0.5,0.7
2025-06-24T1700,1768A,121.0604,40.8428,锦州市,开发区,臭氧1小时,65,44,49,12,23,172,,161,161,20,22,13,10,0.6,0.6
2025-06-24T1700,1769A,121.1836,41.1119,锦州市,百股街道,臭氧1小时,74,33,39,14,23,179,,166,166,10,15,6,14,0.6,0.7
2025-06-24T1700,1770A,121.1178,41.1222,锦州市,天安街道,臭氧1小时,68,44,45,19,36,174,,159,159,18,18,7,19,0.8,0.9
2025-06-24T1700,1771A,121.1303,41.1386,锦州市,北湖公园,臭氧1小时,70,38,42,18,35,176,,160,160,14,16,6,16,0.6,0.7
2025-06-24T1700,2160A,112.85,35.5051,晋城市,自来水公司,臭氧1小时,101,50,46,17,16,201,,179,179,8,12,1,2,0,0.1
2025-06-24T1700,2161A,112.8318,35.4936,晋城市,白云商贸,臭氧1小时,87,41,53,9,12,189,,171,171,11,17,3,2,0.4,0.4
2025-06-24T1700,2162A,112.8508,35.4887,晋城市,市环保局,臭氧1小时,97,40,50,14,17,197,,177,177,9,17,8,8,0,0
2025-06-24T1700,2163A,112.8676,35.4897,晋城市,技术学院,臭氧1小时,72,36,42,14,14,177,,157,157,10,18,8,8,0.3,0.4
2025-06-24T1700,2165A,112.8453,35.546,晋城市,白马寺,,,38,37,23,21,200,,174,174,5,7,,7,0.4,0.5
2025-06-24T1700,3620A,112.8271,35.4828,晋城市,泽州一中,,,42,40,9,14,197,,181,181,,21,,4,0.3,0.4
2025-06-24T1700,2173A,112.7249,37.7067,晋中市,南都小区,臭氧1小时,94,29,35,13,19,195,,176,176,2,8,3,2,0.3,0.4
2025-06-24T1700,2174A,112.6991,37.6982,晋中市,榆次区政府,臭氧1小时,97,29,32,13,16,197,,177,177,6,7,5,5,0.5,0.4
2025-06-24T1700,2865A,112.7195,37.6828,晋中市,榆次三中,臭氧1小时,103,31,38,17,13,205,,186,186,4,13,6,6,0.2,0.3
2025-06-24T1700,4200A,112.7478,37.6954,晋中市,迎宾街26号,臭氧1小时,103,29,34,9,14,205,,187,187,4,10,7,7,0.3,0.4
2025-06-24T1700,2439A,112.2014,31.0481,荆门市,竹园小学,,40,14,30,10,21,127,,126,126,7,9,5,7,0.1,0.2
2025-06-24T1700,2440A,112.1969,30.9891,荆门市,掇刀,,40,16,26,14,20,125,,129,129,4,6,8,8,0.5,0.6
2025-06-24T1700,2441A,112.2213,31.0386,荆门市,石化一小,,40,,28,17,21,128,,127,127,4,9,11,11,0.2,0.3
2025-06-24T1700,3012A,112.1849,31.0362,荆门市,西山林语,,41,27,25,12,20,129,,131,131,1,3,10,11,0.4,0.4
2025-06-24T1700,3547A,112.1632,31.0138,荆门市,龙泉中学南校,,41,,25,16,16,129,,131,131,2,5,5,6,0.4,0.5
2025-06-24T1700,1844A,112.2494,30.3197,荆州市,市图书馆,,40,19,22,12,16,126,,121,121,5,10,3,7,0.5,0.5
2025-06-24T1700,1845A,112.2008,30.3544,荆州市,市委党校,,37,18,21,16,16,116,,113,113,10,13,6,7,0.4,0.5
2025-06-24T1700,3194A,112.2747,30.3122,荆州市,管委会,,38,,21,16,18,119,,115,115,6,10,6,7,0.6,0.7
2025-06-24T1700,4268A,112.1722,30.3366,荆州市,学苑路85号,,37,19,20,16,20,117,,112,112,11,14,4,5,0.3,0.4
2025-06-24T1700,2342A,117.3102,29.3867,景德镇市,王港中学,,,,,,,,,,,,,,,,
2025-06-24T1700,2343A,117.2117,29.2933,景德镇市,老干部活动中心,,26,23,21,9,9,82,,92,92,17,14,12,9,1.0,0.9
2025-06-24T1700,2344A,117.1894,29.2789,景德镇市,兽医站,,38,38,26,15,11,75,,83,83,12,11,9,7,0.6,0.6
2025-06-24T1700,2345A,117.1547,29.2617,景德镇市,台达陶瓷,颗粒物(PM10),54,58,32,30,20,69,,78,78,24,19,41,45,0.9,0.8
2025-06-24T1700,2346A,117.2461,29.2956,景德镇市,陶研所,,,,21,,11,69,,82,81,16,8,7,4,0.9,0.6
2025-06-24T1700,1803A,115.9872,29.6815,九江市,十里,,38,18,16,14,16,121,,112,112,8,13,3,3,0.8,0.8
2025-06-24T1700,1804A,115.9584,29.7046,九江市,茅山头,,38,14,19,9,15,121,,116,116,6,15,5,5,0.6,0.6
2025-06-24T1700,1805A,115.9877,29.7295,九江市,西园,,40,17,21,11,20,126,,121,121,9,19,5,5,0.6,1
2025-06-24T1700,1808A,115.9114,29.6038,九江市,综合工业园,,42,26,20,14,10,132,,120,120,13,25,3,3,0.9,0.8
2025-06-24T1700,1809A,116.0721,29.7535,九江市,石化总厂,,35,,20,14,21,109,,105,105,9,10,4,6,0.9,1
2025-06-24T1700,1810A,115.9773,29.5698,九江市,庐山气象台,,26,8,5,3,3,83,,84,77,4,3,7,6,0.6,0.8
2025-06-24T1700,3190A,116.0254,29.6994,九江市,外国语学校,,36,,18,18,14,113,,109,109,8,16,4,5,0.7,0.8
2025-06-24T1700,4253A,116.0102,29.6594,九江市,莲花大道8号,,35,18,16,13,10,111,,101,101,2,6,4,4,0.8,0.7
2025-06-24T1700,4240A,98.4958,39.7339,酒泉市,玉门东路5号,,48,27,24,18,22,153,,140,140,2,8,9,13,0.2,0.3
2025-06-24T1700,4241A,98.5099,39.7506,酒泉市,北大街108号,,,,23,14,17,160,,146,146,1,6,11,14,0.3,0.3
2025-06-24T1700,2698A,76.0072,39.4467,喀什地区,巡警大队,颗粒物(PM10),125,199,152,47,32,136,,117,117,9,14,3,3,0.2,0.3
2025-06-24T1700,2699A,75.9755,39.4694,喀什地区,吾办,颗粒物(PM10),110,170,148,58,50,136,,115,115,11,16,3,5,0.3,0.4
2025-06-24T1700,4027A,75.9483,39.4689,喀什地区,老干局,颗粒物(PM10),138,225,187,51,44,129,,106,106,4,14,4,4,0.3,0.4
2025-06-24T1700,1824A,114.3389,34.7781,开封市,肿瘤医院,臭氧1小时,78,47,48,18,25,182,,186,186,11,18,3,3,0.2,0.3
2025-06-24T1700,1826A,114.2885,34.7965,开封市,世纪星幼儿园,臭氧1小时,77,48,51,16,30,181,,179,179,16,19,4,4,0.7,0.7
2025-06-24T1700,3147A,114.3438,34.8106,开封市,龙亭公园,臭氧1小时,87,41,48,19,29,189,,188,188,8,13,3,5,0.3,0.3
2025-06-24T1700,3210A,114.3644,34.7964,开封市,汴京公园,臭氧1小时,85,40,53,16,29,188,,188,188,12,20,4,5,0.3,0.4
2025-06-24T1700,3473A,114.2485,34.8306,开封市,技师学院,臭氧1小时,93,33,43,19,28,194,,183,183,9,15,5,6,0.5,0.5
2025-06-24T1700,3592A,114.4644,34.7556,开封市,祥符区生态环境局,臭氧1小时,78,48,55,20,27,182,,178,178,13,30,4,5,0.4,0.5
2025-06-24T1700,1951A,84.895,45.6094,克拉玛依市,长征新村,,32,18,26,3,6,100,,76,76,4,12,5,4,0.2,0.3
2025-06-24T1700,1952A,84.8988,45.5893,克拉玛依市,南林小区,,30,18,30,10,13,93,,58,58,5,19,3,3,0.1,0.2
2025-06-24T1700,1954A,84.905,44.3396,克拉玛依市,独山子区,,33,31,19,3,8,104,,90,87,4,9,7,7,0.3,0.3
2025-06-24T1700,1955A,85.6979,46.098,克拉玛依市,乌尔禾区商贸楼,,32,30,28,3,6,101,,87,87,1,9,4,4,0.3,0.3
2025-06-24T1700,3612A,85.1045,45.6899,克拉玛依市,白碱滩区新站,,40,30,60,28,27,108,,82,82,2,14,4,5,0.5,0.6
2025-06-24T1700,2697A,76.1454,39.7142,克孜勒苏柯尔克孜自治州,市人民政府,颗粒物(PM10),92,133,132,49,42,140,,123,119,2,7,3,11,0.3,0.3
2025-06-24T1700,3665A,76.1658,39.7157,克孜勒苏柯尔克孜自治州,克州文化中心,颗粒物(PM10),89,128,130,58,41,137,,128,117,3,5,3,5,0.4,0.4
2025-06-24T1700,1450A,102.8204,24.8886,昆明市,呈贡新区,,13,6,5,3,5,41,,40,40,8,13,5,7,0.0,0.2
2025-06-24T1700,1451A,102.6251,24.9608,昆明市,西山森林公园,,,,,,,,,,,,,,,,
2025-06-24T1700,1452A,102.7252,25.0902,昆明市,龙泉镇,,18,9,13,3,5,56,,46,46,6,13,1,1,0.3,0.4
2025-06-24T1700,1453A,102.7266,25.0375,昆明市,东风东路,,16,8,13,3,7,50,,44,44,8,18,4,5,0.3,0.4
2025-06-24T1700,1454A,102.6742,25.0669,昆明市,金鼎山,,,,11,0,3,51,,41,41,10,16,,2,0.3,0.4
2025-06-24T1700,1455A,102.6644,25.0401,昆明市,碧鸡广场,,15,6,10,3,5,46,,39,39,9,16,5,6,0.3,0.4
2025-06-24T1700,3179A,102.7494,25.0119,昆明市,官渡区博物馆,,16,6,14,3,5,49,,44,44,5,14,6,6,0.2,0.4
2025-06-24T1700,3375A,102.8017,24.8336,昆明市,青年创业园,,16,6,7,3,5,50,,44,44,4,12,6,9,0.2,0.4
2025-06-24T1700,3550A,102.7997,24.9786,昆明市,昆明学院,,15,8,19,3,8,46,,42,42,6,15,5,5,0.1,0.3
2025-06-24T1700,3551A,102.5967,24.6736,昆明市,晋宁区生态环境分局,,13,13,14,3,5,36,,36,36,2,5,2,2,0.3,0.4
2025-06-24T1700,3552A,102.6678,24.9856,昆明市,云天化总部,,13,6,6,3,4,39,,36,36,6,15,4,4,0.6,0.5
2025-06-24T1700,1456A,91.1319,29.6514,拉萨市,八廓街,,45,10,9,8,7,141,,132,132,7,7,7,7,0.2,0.2
2025-06-24T1700,1457A,91.1221,29.6747,拉萨市,市环保局,,46,12,11,7,8,145,,133,133,9,11,6,6,0.3,0.3
2025-06-24T1700,1458A,91.0874,29.6475,拉萨市,区监测站,,44,8,9,6,6,140,,125,125,11,14,7,6,0.2,0.2
2025-06-24T1700,1459A,91.1774,29.6541,拉萨市,西藏大学,,45,6,7,3,6,143,,129,129,7,8,4,4,0.2,0.3
2025-06-24T1700,1460A,90.9798,29.6588,拉萨市,区辐射站,,39,10,12,6,7,123,,118,118,13,13,6,6,0.2,0.3
2025-06-24T1700,1461A,91.0834,29.6292,拉萨市,拉萨火车站,,45,11,16,7,6,141,,127,127,7,9,4,4,0.1,0.2
2025-06-24T1700,2520A,109.2203,23.7256,来宾市,来宾技工学校,,29,19,22,15,12,90,,78,78,6,6,6,7,0.4,0.4
2025-06-24T1700,3535A,109.1781,23.7297,来宾市,兴宾区政府,,,20,21,18,11,92,,79,79,,9,,5,0.6,0.6
2025-06-24T1700,4002A,109.2416,23.7461,来宾市,中南小学,,30,24,21,10,9,96,,83,83,5,5,7,7,0.3,0.3
2025-06-24T1700,1477A,104.1373,35.9454,兰州市,榆中兰大校区,,,,,,,,,,,,,,,,
2025-06-24T1700,1479A,103.831,36.0464,兰州市,铁路设计院,,40,37,40,28,28,102,,87,76,29,31,11,12,0.5,0.6
2025-06-24T1700,3241A,103.7439,36.0842,兰州市,百合公园,,,,28,23,25,104,,91,91,15,15,3,4,,0.4
2025-06-24T1700,3242A,103.9611,35.998,兰州市,和平,,40,,26,28,30,109,,99,99,12,14,9,9,1.0,0.9
2025-06-24T1700,4236A,103.6293,36.0938,兰州市,庄浪东路808号,,35,29,30,20,28,110,,102,102,16,25,10,10,0.3,0.3
2025-06-24T1700,4237A,103.7251,36.1043,兰州市,安宁西路88号,,38,36,30,26,27,111,,102,102,18,10,6,6,0.4,0.4
2025-06-24T1700,4238A,103.8470,36.0676,兰州市,北滨河东路1号,,37,,28,22,27,118,,91,91,19,24,10,11,0.6,0.6
2025-06-24T1700,3245A,103.6633,36.533,兰州新区,新区管委会,,42,25,29,22,24,133,,121,121,6,8,5,7,0.3,0.4
2025-06-24T1700,3246A,103.6975,36.4789,兰州新区,舟曲中学,,39,11,18,10,11,124,,115,115,7,9,6,8,0.4,0.4
2025-06-24T1700,1067A,116.6708,39.5111,廊坊市,药材公司,臭氧1小时,124,62,98,35,50,248,,249,249,10,30,4,5,0.5,0.6
2025-06-24T1700,1068A,116.7214,39.5589,廊坊市,开发区,臭氧1小时,117,47,101,29,51,234,,246,246,7,32,3,4,0.5,0.6
2025-06-24T1700,1070A,116.7244,39.5269,廊坊市,北华航天学院,臭氧1小时,113,55,122,26,62,226,,231,231,2,28,3,4,0.4,0.6
2025-06-24T1700,2919A,116.7022,39.5453,廊坊市,河北工业大学,臭氧1小时,122,64,110,30,52,244,,248,248,7,28,5,6,0.5,0.6
2025-06-24T1700,2535A,103.7723,29.5462,乐山市,花湖湾,,25,8,14,8,13,78,,80,76,10,12,1,2,0.5,0.5
2025-06-24T1700,2536A,103.7627,29.5844,乐山市,牛耳桥,,28,7,16,3,12,87,,89,84,10,13,7,7,0.7,0.7
2025-06-24T1700,2537A,103.7508,29.6006,乐山市,市第三水厂,,,8,18,3,14,77,,82,78,,16,3,4,0.7,0.8
2025-06-24T1700,2538A,103.7571,29.5664,乐山市,市监测站,,27,8,17,8,14,84,,83,80,5,7,5,6,0.6,0.7
2025-06-24T1700,3361A,103.7311,29.5628,乐山市,理工大学,,28,8,15,6,12,87,,86,81,6,12,5,6,0.5,0.5
2025-06-24T1700,2598A,100.2143,26.8576,丽江市,西南郊,臭氧1小时,100,8,15,3,7,200,,59,59,5,8,335,20,1.8,1.2
2025-06-24T1700,2599A,100.2497,26.8802,丽江市,丽江古城,,24,24,18,7,11,38,,38,38,13,10,10,10,0.4,0.4
2025-06-24T1700,2600A,100.2203,26.8906,丽江市,市中心,,14,14,10,6,10,34,,32,32,7,7,7,7,0.9,0.9
2025-06-24T1700,1267A,119.914,28.4514,丽水市,监测站大楼,,20,15,17,9,5,62,,55,55,7,18,3,3,0.4,0.4
2025-06-24T1700,1268A,119.93,28.4586,丽水市,莲都小学,,20,17,17,10,6,61,,74,74,4,12,3,3,0.4,0.3
2025-06-24T1700,1269A,119.879,28.4231,丽水市,余庄前,,20,16,18,9,7,62,,84,84,5,11,3,3,0.4,0.4
2025-06-24T1700,1173A,119.176,34.5885,连云港市,市环境监测站,臭氧1小时,52,24,27,12,14,161,,160,160,12,17,6,8,0.5,0.6
2025-06-24T1700,3000A,119.3581,34.6972,连云港市,德源药业,,34,22,29,3,9,108,,112,112,6,9,8,8,0.7,0.8
2025-06-24T1700,3007A,119.178,34.844,连云港市,新城一中,,35,22,23,8,11,112,,123,123,13,14,6,6,0.5,0.6
2025-06-24T1700,3008A,119.3608,34.7519,连云港市,胡沟管理处,,,14,17,,9,110,,117,117,18,32,7,9,0.2,0.3
2025-06-24T1700,3009A,119.1478,34.5911,连云港市,矿山设计院,,49,19,26,7,12,155,,151,151,8,10,6,7,0.5,0.5
2025-06-24T1700,3434A,119.2413,34.6539,连云港市,工贸学校,,44,21,34,10,18,138,,148,148,5,6,8,8,0.5,0.6
2025-06-24T1700,3664A,119.4172,34.7341,连云港市,连云街道,,36,25,18,10,9,113,,116,116,27,13,10,8,0.4,0.4
2025-06-24T1700,2571A,102.3431,27.8099,凉山彝族自治州,青龙寺,,16,6,18,3,5,49,,50,50,1,9,4,4,0.5,0.6
2025-06-24T1700,2572A,102.2721,27.8415,凉山彝族自治州,邛海宾馆,,27,27,19,11,10,52,,47,44,3,8,9,9,0.3,0.3
2025-06-24T1700,2573A,102.2625,27.898,凉山彝族自治州,西昌市政府,,17,16,15,11,8,54,,48,48,5,8,11,14,0.5,0.5
2025-06-24T1700,2574A,102.2685,27.8851,凉山彝族自治州,凉山州政府,,18,13,13,8,10,55,,49,49,8,9,10,11,0.6,0.6
2025-06-24T1700,4229A,102.2342,27.8859,凉山彝族自治州,凯乐南路30号,,16,14,17,6,7,51,,44,42,7,9,19,16,0.7,0.8
2025-06-24T1700,2212A,123.2,41.1953,辽阳市,宏伟区,臭氧1小时,119,46,37,20,20,237,,202,202,6,7,8,6,0.9,0.8
2025-06-24T1700,2213A,123.1683,41.2495,辽阳市,新华园,臭氧1小时,115,48,42,31,24,230,,213,213,7,11,12,9,0.6,0.6
2025-06-24T1700,2214A,123.2354,41.2639,辽阳市,滨河路,臭氧1小时,105,49,38,19,22,210,,179,179,10,14,11,11,0.7,0.6
2025-06-24T1700,2215A,123.149,41.2991,辽阳市,铁西工业园,臭氧1小时,83,43,49,17,23,186,,194,194,12,19,6,8,0.7,0.9
2025-06-24T1700,2227A,125.1358,42.8845,辽源市,环保局,臭氧1小时,115,40,33,16,17,229,,215,215,,52,5,5,0.5,0.4
2025-06-24T1700,3239A,125.0764,42.9078,辽源市,银鹰制药,臭氧1小时,124,29,35,9,20,248,,223,223,11,46,5,6,0.3,0.4
2025-06-24T1700,1625A,115.9848,36.4372,聊城市,区政府,臭氧1小时,112,39,46,25,22,224,,200,200,9,18,8,10,0.4,0.4
2025-06-24T1700,2878A,116.0072,36.4343,聊城市,聊大东校,臭氧1小时,110,39,52,28,32,219,,202,202,8,21,8,8,0.6,0.5
2025-06-24T1700,3200A,115.9819,36.4978,聊城市,监控中心,臭氧1小时,116,35,42,19,22,232,,209,209,6,29,8,10,0.5,0.6
2025-06-24T1700,3513A,116.0445,36.4361,聊城市,九州社区,臭氧1小时,114,43,57,25,25,227,,210,210,6,19,6,6,0.4,0.4
2025-06-24T1700,4018A,116.0567,36.4608,聊城市,星美广场,臭氧1小时,111,42,61,20,25,222,,206,206,10,28,10,11,0.6,0.6
2025-06-24T1700,2632A,94.3681,29.6376,林芝市,林芝监测站,,20,11,6,3,4,64,,62,62,7,5,4,4,0.3,0.2
2025-06-24T1700,2633A,94.3616,29.6616,林芝市,林芝人民医院,,22,8,7,3,4,69,,66,66,5,3,5,5,0.4,0.4
2025-06-24T1700,2603A,100.0781,23.8982,临沧市,市环保局,,22,,20,15,13,25,,29,29,8,8,8,7,0.5,0.6
2025-06-24T1700,2604A,100.0894,23.8822,临沧市,市气象局,,22,,18,15,10,19,,24,24,14,8,8,8,0.4,0.4
2025-06-24T1700,1733A,111.5531,36.0783,临汾市,临钢医院,臭氧1小时,97,36,41,9,14,197,,171,171,10,14,10,8,0.6,0.6
2025-06-24T1700,1734A,111.5028,36.0714,临汾市,技工学校,臭氧1小时,100,,44,25,26,200,,178,178,7,14,9,8,0.5,0.5
2025-06-24T1700,1736A,111.5018,36.0855,临汾市,市委,臭氧1小时,99,39,52,9,14,199,,180,180,12,18,11,9,0.5,0.6
2025-06-24T1700,3018A,111.505,36.1014,临汾市,唐尧大酒店,臭氧1小时,94,48,53,3,19,195,,122,,17,18,9,8,0.0,0.5
2025-06-24T1700,4244A,111.4879,36.0530,临汾市,启星学校,臭氧1小时,95,41,43,20,25,196,,174,174,6,14,8,7,0.5,0.5
2025-06-24T1700,4271A,103.2464,35.6123,临夏回族自治州,滨河东路1号,,30,11,19,7,12,96,,86,86,1,8,8,8,0.2,0.3
2025-06-24T1700,4310A,103.2093,35.5995,临夏回族自治州,新华街21号,,37,19,18,15,15,116,,98,98,4,9,5,5,0.2,0.3
2025-06-24T1700,1618A,118.3429,35.0532,临沂市,沂河小区,臭氧1小时,110,56,43,27,23,220,,178,178,18,21,9,9,0.4,0.4
2025-06-24T1700,1619A,118.295,35.0583,临沂市,鲁南制药厂,臭氧1小时,116,53,47,23,23,231,,200,200,21,26,12,9,0.6,0.5
2025-06-24T1700,1620A,118.2794,34.9976,临沂市,新光毛纺厂,臭氧1小时,116,53,39,23,23,232,,199,199,15,21,11,10,0.4,0.5
2025-06-24T1700,1621A,118.3956,35.0888,临沂市,河东保险公司,臭氧1小时,107,36,33,17,13,213,,178,178,18,22,8,8,0.5,0.5
2025-06-24T1700,3370A,118.3564,35.0215,临沂市,十里堡居委,臭氧1小时,122,36,34,24,20,244,,198,198,13,18,10,10,0.4,0.5
2025-06-24T1700,3496A,118.3604,35.1084,临沂市,南坊新区,臭氧1小时,109,39,38,17,15,218,,184,184,17,23,8,10,0.7,0.7
2025-06-24T1700,3860A,118.3920,35.0300,临沂市,皇山花园小区,臭氧1小时,111,48,36,35,25,222,,182,182,18,21,11,11,0.5,0.4
2025-06-24T1700,1870A,109.4856,24.3895,柳州市,柳东小学,,,15,21,15,12,90,,74,74,4,8,,10,0.4,0.4
2025-06-24T1700,1871A,109.4157,24.3277,柳州市,环保监测站,细颗粒物(PM2.5),78,,31,57,17,97,,84,84,6,10,7,8,0.7,0.8
2025-06-24T1700,1872A,109.389,24.341,柳州市,河西水厂,,31,21,30,8,14,99,,82,82,8,14,4,7,0.4,0.4
2025-06-24T1700,1873A,109.4311,24.2921,柳州市,市四中,,31,30,29,15,15,99,,80,80,10,15,7,7,0.3,0.4
2025-06-24T1700,1874A,109.4006,24.3631,柳州市,市九中,,36,36,32,11,15,103,,84,84,6,13,9,11,0.5,0.6
2025-06-24T1700,1875A,109.4958,24.3134,柳州市,古亭山,,45,45,27,20,13,94,,76,76,5,11,5,5,0.5,0.5
2025-06-24T1700,3402A,109.5422,24.3996,柳州市,市二中,,,18,24,11,12,91,,76,76,7,11,,13,0.4,0.4
2025-06-24T1700,2307A,116.5079,31.737,六安市,监测大楼,,43,,24,23,21,137,,117,117,2,5,4,4,0.3,0.3
2025-06-24T1700,2308A,116.4738,31.7643,六安市,皖西学院,,47,20,25,17,22,148,,124,124,3,6,4,5,0.4,0.4
2025-06-24T1700,2309A,116.4996,31.7905,六安市,朝阳厂,,43,35,28,22,22,137,,116,116,8,12,5,6,0.3,0.4
2025-06-24T1700,2310A,116.5567,31.7886,六安市,开发区,,45,31,32,27,20,143,,125,125,1,5,2,2,0.3,0.4
2025-06-24T1700,2576A,104.8,26.5892,六盘水市,窑上,,,,25,,5,,,87,,,6,,3,,0.3
2025-06-24T1700,2577A,104.83,26.5917,六盘水市,黄土坡,,22,22,13,3,6,55,,51,42,8,9,9,9,0.4,0.5
2025-06-24T1700,2578A,104.89,26.5939,六盘水市,水钢,,31,31,28,8,17,60,,57,47,5,5,10,9,0.4,0.4
2025-06-24T1700,2579A,104.8475,26.5894,六盘水市,民中,,19,12,12,7,5,58,,52,44,6,7,8,8,0.3,0.4
2025-06-24T1700,2580A,104.9544,26.5506,六盘水市,双水,,,17,8,,8,55,,57,41,6,7,,9,0.3,0.4
2025-06-24T1700,2335A,117.0189,25.1181,龙岩市,龙岩师专,,,,,,,,,,,,,,,,
2025-06-24T1700,2336A,117.0217,25.1033,龙岩市,龙岩市监测站,,26,14,22,7,10,82,,87,87,4,10,3,6,0.3,0.4
2025-06-24T1700,2337A,117.0258,25.0661,龙岩市,闽西职业技术学院,,23,16,27,3,10,72,,77,77,2,12,3,23,0.4,0.5
2025-06-24T1700,2338A,117.0196,25.0306,龙岩市,龙岩学院,,,40,22,12,9,75,,79,79,,6,5,4,,0.3
2025-06-24T1700,2665A,105.0822,33.3261,陇南市,汉王镇固水子,,,,,,,,,,,,,,,,
2025-06-24T1700,2885A,104.9339,33.3826,陇南市,滨江中学,,33,27,36,15,17,103,,101,101,5,5,4,4,0.6,0.6
2025-06-24T1700,3247A,104.955,33.371,陇南市,市总工会,,35,32,34,3,6,111,,110,110,6,5,6,6,0.6,0.6
2025-06-24T1700,2487A,111.9589,27.8901,娄底市,电视发射台,,,12,12,3,2,60,,70,70,6,3,7,10,,0.4
2025-06-24T1700,2488A,111.9975,27.725,娄底市,市监测站,,21,8,16,3,12,66,,63,63,8,15,6,9,0.5,0.7
2025-06-24T1700,2489A,112.0194,27.7314,娄底市,市委党校,,25,10,12,3,7,78,,76,76,8,8,3,4,0.5,0.5
2025-06-24T1700,2490A,111.9561,27.7569,娄底市,涟钢,,,,14,,7,64,,65,65,12,11,1,2,0.5,0.5
2025-06-24T1700,2491A,111.9892,27.7044,娄底市,市政府,,29,12,16,8,9,90,,84,84,6,7,5,5,0.4,0.5
2025-06-24T1700,1893A,105.4324,28.9634,泸州市,九狮山,,49,39,43,34,30,69,,71,71,22,26,5,6,0.7,0.6
2025-06-24T1700,1894A,105.4427,28.9063,泸州市,小市上码头,,24,24,38,12,22,64,,72,63,12,15,12,14,0.7,0.7
2025-06-24T1700,1895A,105.4241,28.8573,泸州市,兰田宪桥,,22,21,37,13,24,69,,45,45,10,16,7,8,0.7,0.7
2025-06-24T1700,1896A,105.4379,28.8833,泸州市,市环监站,,23,23,39,14,26,60,,67,59,15,17,8,9,0.4,0.4
2025-06-24T1700,4272A,105.3689,28.7783,泸州市,纳溪中医医院,,39,39,34,16,26,69,,66,66,13,22,4,4,0.8,0.9
2025-06-24T1700,2183A,111.1406,37.5211,吕梁市,环保局,臭氧1小时,101,32,77,21,27,201,,176,176,7,27,6,8,0.4,0.5
2025-06-24T1700,2185A,111.1297,37.5136,吕梁市,自来水公司,臭氧1小时,88,31,56,18,24,190,,170,170,7,19,6,8,0.4,0.5
2025-06-24T1700,2867A,111.1283,37.51,吕梁市,马茂庄小学,臭氧1小时,88,33,64,16,26,190,,173,173,9,28,3,7,0.4,0.5
2025-06-24T1700,1812A,112.3931,34.6516,洛阳市,市委党校,,,,48,,32,166,,165,165,9,21,7,12,,0.6
2025-06-24T1700,1815A,112.494,34.6886,洛阳市,河南林校,臭氧1小时,63,24,49,16,27,170,,170,170,6,19,5,7,0.3,0.5
2025-06-24T1700,1816A,112.3844,34.623,洛阳市,开发区管委会,臭氧1小时,74,31,43,16,29,179,,179,179,8,15,12,15,0.4,0.5
2025-06-24T1700,1817A,112.4267,34.6258,洛阳市,市委新办公区,臭氧1小时,65,40,54,15,27,172,,169,169,7,13,10,12,0.4,0.5
2025-06-24T1700,3340A,112.6005,34.6326,洛阳市,伊滨,,,36,57,22,32,178,,167,167,,19,,7,0.5,0.5
2025-06-24T1700,3341A,112.4951,34.6332,洛阳市,中移产业园,臭氧1小时,65,25,52,13,27,172,,167,167,7,19,7,9,0.4,0.6
2025-06-24T1700,3593A,112.5736,34.8993,洛阳市,吉利监测站,臭氧1小时,73,31,45,18,24,178,,175,175,6,16,6,7,0.3,0.4
2025-06-24T1700,3635A,112.3677,34.662,洛阳市,河科大西苑校区,臭氧1小时,68,25,48,17,22,174,,176,176,6,20,8,12,0.3,0.5
2025-06-24T1700,3636A,112.4388,34.6781,洛阳市,英才小学,臭氧1小时,55,23,50,13,29,164,,161,161,6,18,7,10,0.5,0.7
2025-06-24T1700,4214A,112.4600,34.6949,洛阳市,春都路1号院,臭氧1小时,60,28,47,13,25,168,,166,166,5,18,4,5,0.5,0.7
2025-06-24T1700,2399A,114.051,33.5699,漯河市,三五一五工厂,臭氧1小时,97,24,30,23,21,197,,186,186,8,15,4,5,0.5,0.6
2025-06-24T1700,2400A,114.0055,33.5698,漯河市,漯河大学,臭氧1小时,100,34,34,14,19,200,,185,185,11,16,4,5,0.4,0.4
2025-06-24T1700,2401A,114.0138,33.5828,漯河市,市水利局,臭氧1小时,94,44,30,19,20,195,,183,183,8,12,4,5,0.5,0.6
2025-06-24T1700,2402A,114.0261,33.5698,漯河市,市广电局,臭氧1小时,101,34,32,16,20,201,,188,188,6,12,2,3,0.5,0.5
2025-06-24T1700,3478A,113.9749,33.5664,漯河市,市图书馆,臭氧1小时,97,38,50,18,23,197,,181,181,11,17,2,4,0.4,0.4
2025-06-24T1700,4250A,114.0892,33.5882,漯河市,韶山路11号,臭氧1小时,95,24,44,14,21,196,,185,185,11,21,2,2,0.5,0.5
2025-06-24T1700,1798A,118.5092,31.6837,马鞍山市,湖东路四小,,46,24,32,9,15,145,,159,157,9,16,7,7,0.5,0.5
2025-06-24T1700,1799A,118.5024,31.6449,马鞍山市,开发区,,47,19,32,10,14,148,,154,154,10,15,6,6,0.6,0.6
2025-06-24T1700,1802A,118.6245,31.7241,马鞍山市,濮塘,,41,18,24,15,15,129,,137,137,3,8,8,8,0.7,0.7
2025-06-24T1700,3633A,118.4918,31.6809,马鞍山市,雨山,,47,26,26,10,14,150,,153,153,8,14,7,7,0.5,0.5
2025-06-24T1700,4191A,118.5274,31.72227,马鞍山市,慈湖高新区,,42,15,24,9,15,132,,149,149,6,16,5,6,0.5,0.5
2025-06-24T1700,1686A,111.0286,21.4688,茂名市,电白南海,,20,,13,14,7,46,,47,47,6,4,2,2,0.5,0.5
2025-06-24T1700,1687A,110.9294,21.6533,茂名市,茂石化七小,,22,22,17,7,4,46,,47,47,4,6,3,3,0.3,0.3
2025-06-24T1700,1688A,110.9107,21.6687,茂名市,健康路,,,14,12,3,7,52,,52,52,7,7,,3,0.1,0.1
2025-06-24T1700,1689A,110.8592,21.6828,茂名市,高岭,,27,27,20,3,2,52,,49,49,10,9,4,4,0.3,0.2
2025-06-24T1700,3450A,111.01,21.5165,茂名市,电白水东,,14,7,8,3,3,44,,46,46,4,4,4,4,0.3,0.3
2025-06-24T1700,2539A,104.0308,30.0478,眉山市,黑龙滩水库,,29,,14,20,24,64,,90,74,10,11,2,2,1.5,0.6
2025-06-24T1700,2540A,103.8416,30.0874,眉山市,气象局,,24,14,22,9,13,74,,94,83,12,16,3,3,0.4,0.4
2025-06-24T1700,3137A,103.8578,30.0744,眉山市,市委党校,,23,7,17,3,9,72,,94,82,14,16,5,5,0.7,0.7
2025-06-24T1700,3148A,103.8291,30.0564,眉山市,区人社局,,,25,36,,8,73,,99,85,17,17,8,8,0.6,0.6
2025-06-24T1700,1690A,116.1231,24.3284,梅州市,梅江月梅,,27,9,16,3,10,86,,76,76,3,8,6,7,0.5,0.6
2025-06-24T1700,1691A,116.0797,24.2719,梅州市,梅县新城,,30,30,19,3,8,82,,69,69,5,10,6,6,0.5,0.5
2025-06-24T1700,1692A,116.1248,24.2654,梅州市,环境监控中心,,32,32,21,8,10,74,,68,68,7,12,2,4,0.2,0.3
2025-06-24T1700,3315A,116.1233,24.2991,梅州市,梅龙,,26,9,15,7,10,83,,73,73,2,6,6,7,0.4,0.4
2025-06-24T1700,1878A,104.7778,31.4741,绵阳市,富乐山,,19,15,22,3,12,59,,69,69,8,15,8,8,0.5,0.5
2025-06-24T1700,1880A,104.6697,31.4668,绵阳市,高新区自来水公司,,18,13,25,7,8,56,,77,72,14,15,7,7,0.4,0.6
2025-06-24T1700,1881A,104.7287,31.5075,绵阳市,三水厂,,22,20,26,10,15,68,,67,67,9,18,8,8,0.6,0.7
2025-06-24T1700,3491A,104.69,31.5322,绵阳市,西科大附属小学,,18,11,23,7,14,56,,69,67,9,17,7,8,0.3,0.3
2025-06-24T1700,3492A,104.5648,31.5343,绵阳市,安州区旅游局,,20,6,15,3,8,64,,76,73,9,11,9,8,0.4,0.4
2025-06-24T1700,4226A,104.7651,31.4531,绵阳市,绵阳市气象局,,,,23,,12,,,90,,,14,,10,,0.4
2025-06-24T1700,1784A,129.61,44.561,牡丹江市,环保大楼,臭氧1小时,90,28,31,15,14,192,,176,176,12,21,1,6,0.4,0.3
2025-06-24T1700,1785A,129.6115,44.5782,牡丹江市,文化广场,臭氧1小时,95,25,29,20,17,196,,173,173,12,25,5,5,0.3,0.4
2025-06-24T1700,1786A,129.5904,44.5963,牡丹江市,第一医院,,,,31,,18,,,127,,,26,,7,,0.4
2025-06-24T1700,1787A,129.6364,44.6075,牡丹江市,机车工厂,臭氧1小时,95,30,38,10,11,196,,177,177,14,23,6,8,0.4,0.6
2025-06-24T1700,1788A,129.6386,44.5462,牡丹江市,第一中学,臭氧1小时,83,26,30,9,16,186,,174,174,11,16,6,6,0.3,0.4
2025-06-24T1700,2531A,105.0703,29.61,内江市,市监测站,,17,17,22,3,15,54,,73,68,18,15,5,6,0.7,0.6
2025-06-24T1700,2532A,105.0717,29.5947,内江市,东兴区政府,,17,12,20,3,10,52,,80,70,19,14,3,2,0.5,0.4
2025-06-24T1700,2533A,105.0653,29.5817,内江市,内江二中,,17,9,22,6,16,52,,80,66,16,15,8,8,0.5,0.5
2025-06-24T1700,2534A,105.0406,29.5822,内江市,内江日报社,,18,10,19,6,15,56,,75,68,11,12,9,10,0.3,0.3
2025-06-24T1700,2628A,92.0657,31.4846,那曲市,那曲监测站,,44,25,15,9,14,138,,123,123,9,10,6,14,0.1,0.2
2025-06-24T1700,4243A,92.0515,31.4787,那曲市,那曲市委宣传部,,44,11,8,6,5,140,,128,128,12,7,10,9,0.2,0.2
2025-06-24T1700,1290A,115.8931,28.6843,南昌市,省外办,,31,,12,14,10,99,,82,82,12,16,3,2,0.7,0.6
2025-06-24T1700,1291A,115.8886,28.7003,南昌市,省林业公司,,29,7,6,3,6,92,,84,84,10,12,9,9,0.8,0.7
2025-06-24T1700,1292A,115.8126,28.7442,南昌市,林科所,,26,6,4,3,1,82,,77,77,3,7,4,4,0.5,0.6
2025-06-24T1700,1294A,115.8518,28.687,南昌市,建工学校,,30,18,14,13,16,93,,84,84,5,8,6,7,0.7,0.6
2025-06-24T1700,1295A,115.8921,28.6424,南昌市,象湖,,31,12,10,9,3,97,,79,79,11,12,6,6,0.8,0.8
2025-06-24T1700,1296A,115.7423,28.7996,南昌市,武术学校,,23,21,16,9,10,72,,66,66,2,3,7,7,0.6,0.5
2025-06-24T1700,3046A,115.9084,28.6062,南昌市,机电学校,,30,30,13,7,6,90,,76,76,13,12,2,2,0.7,0.7
2025-06-24T1700,3690A,115.9721,28.7031,南昌市,外国语学校,,31,12,9,3,4,99,,87,87,9,7,9,9,0.8,0.7
2025-06-24T1700,4192A,115.9316,28.68677,南昌市,南京东路235号,,30,6,16,6,2,93,,83,83,14,14,4,4,0.7,0.6
2025-06-24T1700,1905A,106.056,30.8064,南充市,西山风景区,,,,,,,,,,,,,,,,
2025-06-24T1700,1906A,106.0789,30.8023,南充市,南充市委,,29,24,21,14,12,92,,93,93,15,14,5,5,0.4,0.4
2025-06-24T1700,1907A,106.1031,30.8217,南充市,南充炼油厂,,27,25,26,15,17,84,,85,85,12,13,6,6,0.3,0.3
2025-06-24T1700,4227A,106.1083,30.7884,南充市,梨树横街98号,,30,22,27,11,12,93,,88,88,10,11,3,4,0.3,0.3
2025-06-24T1700,4304A,106.1172,30.843,南充市,清泉寺北路188号,,36,36,25,13,14,90,,87,87,13,10,3,3,0.3,0.3
2025-06-24T1700,4305A,106.067,30.7616,南充市,同庆路1号,,28,23,23,7,15,87,,88,88,14,12,4,4,0.3,0.3
2025-06-24T1700,1151A,118.8086,32.1065,南京市,迈皋桥,,39,12,21,12,12,122,,120,120,7,14,4,4,0.5,0.5
2025-06-24T1700,1152A,118.7538,32.0551,南京市,草场门,,41,22,27,12,15,131,,129,129,10,20,3,3,1.1,0.4
2025-06-24T1700,1153A,118.7794,32.0745,南京市,山西路,,45,24,27,3,10,143,,137,137,7,15,3,4,0.2,0.3
2025-06-24T1700,1154A,118.7752,32.0023,南京市,中华门,,40,24,21,12,12,128,,125,125,11,17,6,8,0.6,0.7
2025-06-24T1700,1155A,118.8109,32.0309,南京市,瑞金路,,42,19,20,7,13,134,,128,128,8,10,7,6,0.4,0.4
2025-06-24T1700,1156A,118.7997,32.0754,南京市,玄武湖,,39,16,27,6,6,123,,118,118,9,11,3,4,0.5,0.4
2025-06-24T1700,1157A,118.6414,32.0931,南京市,浦口,,39,24,30,7,14,122,,122,122,13,17,4,5,0.2,0.3
2025-06-24T1700,1158A,118.7356,31.9996,南京市,奥体中心,,43,23,25,7,13,136,,135,135,11,18,4,4,0.2,0.2
2025-06-24T1700,1159A,118.9125,32.1028,南京市,仙林大学城,,41,27,28,9,9,131,,128,128,6,13,6,6,0.4,0.5
2025-06-24T1700,3422A,118.8436,31.9198,南京市,江宁彩虹桥,,39,30,21,14,12,122,,123,123,9,16,4,3,0.5,0.5
2025-06-24T1700,3427A,118.8554,32.3578,南京市,六合雄州,,40,12,25,8,14,127,,124,124,15,23,3,4,0.5,0.5
2025-06-24T1700,4249A,118.8708,31.3402,南京市,汶溪路181号,,,21,25,,18,121,,120,120,10,18,6,4,0.3,0.6
2025-06-24T1700,4312A,119.019,31.6512,南京市,中山西路1号,,34,14,19,14,13,108,,102,102,7,10,4,4,0.6,0.6
2025-06-24T1700,1401A,108.3103,22.7881,南宁市,二十一中,,22,14,18,10,9,68,,63,63,6,9,1,2,0.4,0.5
2025-06-24T1700,1402A,108.3141,22.8528,南宁市,北湖,,22,17,18,10,8,70,,69,69,8,8,3,4,0.4,0.4
2025-06-24T1700,1403A,108.3206,22.8225,南宁市,市监测站,,22,22,21,12,12,65,,65,65,6,7,6,6,0.2,0.5
2025-06-24T1700,1404A,108.3829,22.8037,南宁市,大自然花园,,25,24,20,12,10,79,,74,74,3,6,4,5,0.4,0.5
2025-06-24T1700,1405A,108.4394,22.7904,南宁市,仙葫,,28,27,18,10,10,89,,73,73,5,7,5,6,0.5,0.6
2025-06-24T1700,1406A,108.2397,22.8467,南宁市,区农职院,,24,21,20,3,9,74,,73,73,8,10,4,4,0.2,0.4
2025-06-24T1700,1407A,108.3275,22.735,南宁市,英华嘉园,,25,17,19,11,10,78,,69,69,7,11,7,7,0.5,0.5
2025-06-24T1700,3401A,108.4834,22.7618,南宁市,红星社区,,30,12,21,7,12,93,,72,72,3,6,2,2,0.5,0.6
2025-06-24T1700,4221A,108.2177,22.7774,南宁市,乐贤路16号,,20,,19,13,10,64,,67,67,5,14,6,6,0.5,0.6
2025-06-24T1700,2331A,118.0966,26.6761,南平市,茫荡山,,,,,,,,,,,,,,,,
2025-06-24T1700,2332A,118.1681,26.6369,南平市,南平市监测站,,30,26,17,16,11,94,,90,90,4,8,5,5,0.6,0.6
2025-06-24T1700,2333A,118.1825,26.6489,南平市,南平铝业有限公司,,32,26,20,3,2,101,,92,92,5,10,5,5,0.7,0.7
2025-06-24T1700,2334A,118.1756,26.6272,南平市,南平七中,,30,23,19,10,10,96,,91,91,3,7,5,6,0.6,0.5
2025-06-24T1700,1168A,120.9098,31.9663,南通市,狼山街道,,40,10,13,9,6,126,,116,116,6,6,3,3,0.5,0.6
2025-06-24T1700,1169A,120.86,32.0005,南通市,虹桥,,38,14,14,10,11,120,,112,112,9,12,1,1,0.6,0.6
2025-06-24T1700,1170A,120.87,32.02,南通市,城中,,38,16,16,7,7,119,,112,112,6,7,3,3,0.7,0.7
2025-06-24T1700,1171A,120.94,31.93,南通市,星湖花园,,37,,10,13,10,118,,111,111,10,10,2,2,0.7,0.5
2025-06-24T1700,1172A,120.81,32.0417,南通市,紫琅学院,,38,11,16,7,4,120,,112,112,7,7,4,4,0.5,0.5
2025-06-24T1700,3291A,121.067,32.062,南通市,通州监测站,,39,7,9,3,6,122,,119,119,3,3,5,5,0.5,0.5
2025-06-24T1700,3432A,120.9348,31.9883,南通市,环境教育馆,,40,19,19,7,7,126,,118,118,7,8,2,2,0.1,0.1
2025-06-24T1700,2404A,112.5224,33.0122,南阳市,瓦房庄,臭氧1小时,59,33,42,18,23,167,,172,172,10,13,5,6,0.5,0.6
2025-06-24T1700,2405A,112.5003,32.9735,南阳市,汉画馆,,50,29,38,14,19,160,,169,169,12,16,6,6,0.4,0.6
2025-06-24T1700,2406A,112.5573,33.027,南阳市,气象站,臭氧1小时,68,23,36,9,18,174,,169,169,7,12,6,5,0.4,0.5
2025-06-24T1700,2407A,112.5481,32.9689,南阳市,理工学院,臭氧1小时,54,29,37,18,23,163,,166,166,8,13,5,5,0.3,0.4
2025-06-24T1700,4008A,112.5234,32.9922,南阳市,卧龙区政府,臭氧1小时,65,22,37,16,22,172,,175,175,8,12,5,4,0.4,0.5
2025-06-24T1700,1234A,121.8358,29.911,宁波市,区环保大楼,,37,9,32,9,14,118,,84,84,17,41,4,5,0.6,0.7
2025-06-24T1700,1235A,121.56,29.82,宁波市,万里学院,,29,,19,18,19,91,,72,72,21,24,2,3,0.8,0.8
2025-06-24T1700,1236A,121.713,29.9572,宁波市,龙赛医院,,38,8,24,6,12,119,,82,82,18,30,3,4,0.6,0.6
2025-06-24T1700,1239A,121.633,29.7733,宁波市,钱湖水厂,,34,23,18,16,13,106,,85,85,20,12,4,4,0.5,0.5
2025-06-24T1700,1240A,121.5856,29.8635,宁波市,太古小学,,31,20,21,10,13,99,,76,76,17,17,4,4,0.7,0.7
2025-06-24T1700,1241A,121.524,29.8674,宁波市,市环境监测中心,,27,27,27,15,13,84,,50,,20,20,4,4,0.9,0.8
2025-06-24T1700,2871A,121.6147,29.9017,宁波市,万里国际学校,,43,43,25,10,14,102,,80,80,22,21,4,3,0.6,0.7
2025-06-24T1700,3710A,121.5594,29.8975,宁波市,白沙活动中心,,31,12,17,7,13,98,,76,76,15,18,3,3,0.5,0.5
2025-06-24T1700,2339A,119.5001,26.6946,宁德市,金涵水库,,,,,,,,,,,,,,,,
2025-06-24T1700,2341A,119.5388,26.6612,宁德市,宁德市监测站,臭氧1小时,67,46,26,26,14,173,,134,134,8,16,4,4,1.0,0.7
2025-06-24T1700,3209A,119.5231,26.6562,宁德市,宁德一中,臭氧1小时,68,45,26,36,14,174,,137,137,5,8,5,4,0.7,0.4
2025-06-24T1700,2618A,98.8601,25.8567,怒江傈僳族自治州,州监测站,,16,16,16,10,11,42,,39,39,5,6,8,7,0.4,0.4
2025-06-24T1700,2619A,98.8546,25.8417,怒江傈僳族自治州,泸水一中,,19,19,13,7,6,31,,27,27,10,9,5,5,0.4,0.4
2025-06-24T1700,1888A,101.6891,26.571,攀枝花市,弄弄坪,,23,23,42,6,13,54,,53,53,12,19,11,14,0.6,0.9
2025-06-24T1700,1889A,101.5769,26.5928,攀枝花市,河门口,,20,14,24,3,9,64,,55,55,8,15,9,8,0.7,0.8
2025-06-24T1700,1890A,101.7169,26.585,攀枝花市,炳草岗,,29,29,38,7,13,48,,45,45,17,24,11,15,0.7,1
2025-06-24T1700,1891A,101.7369,26.5008,攀枝花市,仁和,,11,7,15,3,7,35,,37,37,7,8,7,8,0.4,0.6
2025-06-24T1700,2835A,101.7227,26.567,攀枝花市,四十中小,,34,34,26,18,15,54,,54,54,10,16,12,18,0.5,0.9
2025-06-24T1700,1604A,122.0303,41.1489,盘锦市,开发区,臭氧1小时,82,39,33,15,26,185,,170,170,20,22,6,6,0.5,0.6
2025-06-24T1700,1605A,122.0485,41.0883,盘锦市,兴隆台,臭氧1小时,64,26,36,16,22,171,,162,162,20,24,4,6,0.3,0.5
2025-06-24T1700,1606A,121.8297,41.1028,盘锦市,新生街道,臭氧1小时,74,28,28,15,19,179,,162,162,28,15,8,7,0.5,0.6
2025-06-24T1700,1832A,113.3257,33.742,平顶山市,新华旅馆,臭氧1小时,104,40,44,29,26,207,,186,186,8,15,5,5,0.4,0.5
2025-06-24T1700,1833A,113.2919,33.737,平顶山市,规划设计院,臭氧1小时,100,33,45,26,28,200,,179,179,8,13,6,6,0.4,0.5
2025-06-24T1700,1834A,113.182,33.774,平顶山市,平顶山工学院,臭氧1小时,104,34,41,22,25,207,,184,184,5,10,1,2,0.4,0.4
2025-06-24T1700,3204A,113.3025,33.73,平顶山市,规划局,臭氧1小时,105,34,41,21,23,209,,186,186,5,13,7,5,0.4,0.5
2025-06-24T1700,3594A,112.8867,33.9116,平顶山市,石龙区,臭氧1小时,98,43,61,19,29,198,,182,182,12,21,8,8,0.5,0.5
2025-06-24T1700,2656A,106.6692,35.5461,平凉市,聚贤嘉苑,,37,37,42,17,17,106,,113,113,9,27,8,8,0.8,0.8
2025-06-24T1700,2657A,106.7021,35.5307,平凉市,博物馆,,41,41,47,24,20,113,,121,121,13,23,12,12,0.8,0.8
2025-06-24T1700,2347A,114.0997,27.5002,萍乡市,武功山,,15,6,4,3,3,46,,43,43,3,3,19,19,0.2,0.3
2025-06-24T1700,2348A,113.8385,27.6434,萍乡市,中医院,,32,24,28,22,20,29,,34,34,18,17,13,14,1.2,1.2
2025-06-24T1700,2349A,113.8493,27.6253,萍乡市,市政府车库,,22,,20,15,21,36,,32,32,8,18,6,10,0.5,0.8
2025-06-24T1700,2350A,113.8676,27.6435,萍乡市,市环保局,,,,59,,17,32,,34,34,,17,,11,,1.2
2025-06-24T1700,2351A,113.866,27.6198,萍乡市,安源区政府,,12,9,23,7,19,37,,32,32,8,16,8,8,0.7,0.9
2025-06-24T1700,2319A,119.0141,25.4325,莆田市,荔城区仓后路,,38,38,42,12,19,107,,143,143,9,14,5,4,0.5,0.5
2025-06-24T1700,2320A,119.0015,25.4553,莆田市,莆田市监测站,,40,40,38,15,21,121,,140,140,10,15,5,5,0.4,0.4
2025-06-24T1700,2321A,119.1119,25.4561,莆田市,涵江区六中,,41,41,33,10,19,96,,120,120,7,15,2,2,0.4,0.4
2025-06-24T1700,2322A,119.1013,25.3215,莆田市,秀屿区政府,,31,23,26,11,15,97,,112,112,5,11,4,6,0.6,0.5
2025-06-24T1700,2323A,118.981,25.4792,莆田市,东圳水库,,,,,,,,,,,,,,,,
2025-06-24T1700,2392A,115.0312,35.7636,濮阳市,环保局,臭氧1小时,107,40,29,16,23,213,,204,204,8,14,5,7,0.3,0.4
2025-06-24T1700,2394A,115.0574,35.7609,濮阳市,油田运输公司,臭氧1小时,104,32,47,18,21,208,,196,196,12,19,5,7,0.3,0.6
2025-06-24T1700,3021A,115,35.7668,濮阳市,濮水河管理处,臭氧1小时,95,25,44,15,25,196,,182,182,13,24,4,5,0.3,0.4
2025-06-24T1700,4216A,115.0924,35.7686,濮阳市,任丘路479号,臭氧1小时,102,29,53,17,25,203,,191,191,5,15,6,7,0.6,0.7
2025-06-24T1700,2601A,100.98,22.7633,普洱市,市环保局,,15,15,25,10,10,41,,35,35,2,3,4,4,0.5,0.5
2025-06-24T1700,2602A,100.9817,22.8322,普洱市,普洱第二中学,,18,18,19,8,14,43,,37,37,3,5,6,6,0.5,0.5
2025-06-24T1700,2262A,131.0518,45.8751,七台河市,新一中,臭氧1小时,99,30,28,26,19,199,,204,204,11,12,11,11,0.8,0.9
2025-06-24T1700,3345A,131.0577,45.7879,七台河市,中波台,,48,17,24,16,8,152,,158,158,12,17,7,7,0.3,0.3
2025-06-24T1700,3637A,131.0176,45.7761,七台河市,人民广场,臭氧1小时,54,39,42,23,24,163,,159,159,8,19,12,12,0.6,0.6
2025-06-24T1700,3684A,130.8781,45.8222,七台河市,新建矿广场,臭氧1小时,69,44,41,12,16,175,,179,179,14,19,11,11,0.5,0.5
2025-06-24T1700,1779A,123.9305,47.3636,齐齐哈尔市,安居小区,臭氧1小时,60,33,38,25,17,168,,149,149,12,19,11,10,0.5,0.6
2025-06-24T1700,1780A,123.9488,47.3386,齐齐哈尔市,中心广场,臭氧1小时,67,46,43,9,14,173,,153,153,16,17,8,8,0.6,0.6
2025-06-24T1700,1781A,123.9483,47.3227,齐齐哈尔市,农牧车辆厂,臭氧1小时,57,36,40,18,14,165,,143,143,9,15,7,7,0.0,0.1
2025-06-24T1700,1783A,123.945,47.2988,齐齐哈尔市,市环境监测站,臭氧1小时,64,41,31,22,16,171,,151,151,9,14,4,4,0.4,0.3
2025-06-24T1700,3662A,123.6333,47.2075,齐齐哈尔市,富区青少年活动中心,臭氧1小时,88,52,37,24,22,190,,158,158,16,13,9,5,0.6,0.5
2025-06-24T1700,2591A,107.9783,26.5747,黔东南苗族侗族自治州,市环境监测站,,14,14,7,3,4,36,,41,37,8,6,3,2,0.7,0.6
2025-06-24T1700,2881A,107.8908,26.5311,黔东南苗族侗族自治州,凯里学院,,15,12,3,6,5,48,,47,45,10,6,1,2,0.5,0.4
2025-06-24T1700,2593A,107.5228,26.2403,黔南布依族苗族自治州,小围寨,,10,9,3,3,0,31,,25,22,6,7,1,2,0.5,0.5
2025-06-24T1700,3538A,107.5175,26.2978,黔南布依族苗族自治州,沙坝,,17,17,8,3,0,22,,18,18,9,9,5,5,0.7,0.7
2025-06-24T1700,2589A,104.9022,25.0925,黔西南布依族苗族自治州,场坝街,,14,13,12,3,5,42,,44,44,7,5,3,3,0.3,0.3
2025-06-24T1700,2590A,104.8811,25.0992,黔西南布依族苗族自治州,坪东大道,,14,14,14,3,7,35,,36,36,6,6,2,1,0.1,0.1
2025-06-24T1700,2502A,108.6236,21.9667,钦州市,市环保站,,24,24,16,3,5,76,,68,68,9,9,5,3,0.4,0.3
2025-06-24T1700,2503A,108.6549,21.9481,钦州市,沙埠小学,,27,27,28,12,11,75,,68,68,10,16,3,2,0.4,0.4
2025-06-24T1700,2504A,108.5989,21.7431,钦州市,港区一小,,31,31,24,10,8,59,,55,55,5,11,2,2,0.4,0.4
2025-06-24T1700,3404A,108.5959,21.9633,钦州市,北职校,,22,20,21,7,8,68,,65,65,6,7,3,3,0.3,0.3
2025-06-24T1700,1043A,119.7493,40.0116,秦皇岛市,第一关,臭氧1小时,103,46,58,17,31,206,,154,154,10,33,8,6,0.3,0.4
2025-06-24T1700,1044A,119.5897,39.9499,秦皇岛市,监测站,臭氧1小时,83,52,62,21,28,186,,149,149,16,23,7,6,0.4,0.5
2025-06-24T1700,1046A,119.5251,39.9041,秦皇岛市,建设大厦,臭氧1小时,75,48,69,29,31,180,,146,146,14,25,7,5,0.5,0.5
2025-06-24T1700,3132A,119.610547,39.943889,秦皇岛市,文明里,臭氧1小时,70,53,71,12,34,176,,145,145,6,14,6,6,0.2,0.3
2025-06-24T1700,4198A,119.5090,39.8253,秦皇岛市,北戴河轮滑馆,臭氧1小时,74,53,55,20,29,179,,135,135,9,12,4,3,0.3,0.4
2025-06-24T1700,1307A,120.6659,36.2403,青岛市,仰口,,35,16,25,7,13,110,,109,109,6,10,6,7,0.3,0.5
2025-06-24T1700,1310A,120.4134,36.0658,青岛市,市南区东部子站,,37,19,18,17,12,117,,88,88,9,25,11,10,0.3,0.3
2025-06-24T1700,1311A,120.3664,36.1032,青岛市,四方区子站,,37,17,24,12,16,118,,123,123,14,25,8,11,0.3,0.4
2025-06-24T1700,1312A,120.2994,36.054,青岛市,市南区西部子站,,,27,24,17,14,104,,88,88,20,36,10,9,,0.5
2025-06-24T1700,1313A,120.4581,36.0858,青岛市,崂山区子站,,32,14,16,7,10,100,,78,78,10,26,9,9,0.3,0.3
2025-06-24T1700,1315A,120.3999,36.3083,青岛市,城阳区子站,,45,22,32,10,15,143,,155,155,12,26,5,6,0.2,0.3
2025-06-24T1700,1966A,120.0405,35.8735,青岛市,黄岛区4号,,37,22,24,3,11,116,,120,120,25,20,9,10,0.7,0.7
2025-06-24T1700,3362A,120.5014,36.4034,青岛市,即墨2号,,37,9,28,6,11,116,,123,123,3,15,2,3,0.2,0.3
2025-06-24T1700,3642A,120.3503,36.0736,青岛市,市北区南部,,36,30,23,12,21,113,,98,98,15,23,10,9,0.3,0.4
2025-06-24T1700,3643A,120.3948,36.1805,青岛市,李沧区北部,,35,19,29,9,16,111,,125,125,14,23,8,9,0.5,0.5
2025-06-24T1700,4290A,120.1969,35.9546,青岛市,珠江路669号,,46,19,17,10,10,145,,113,113,12,17,9,7,0.4,0.3
2025-06-24T1700,1702A,113.0426,23.691,清远市,环保大楼,,40,,11,21,13,125,,105,105,8,12,6,6,0.4,0.4
2025-06-24T1700,1703A,113.0208,23.7106,清远市,凤城街办,,39,31,21,16,11,122,,92,92,11,15,7,7,0.3,0.3
2025-06-24T1700,3025A,113.0477,23.6344,清远市,技师学院,,36,25,22,11,10,114,,97,97,6,13,8,8,0.4,0.4
2025-06-24T1700,3318A,112.9903,23.7403,清远市,清新太和,,40,32,24,18,11,125,,95,95,9,14,8,8,0.4,0.4
2025-06-24T1700,3455A,113.076,23.7198,清远市,清城东城,,38,32,23,26,12,120,,98,98,7,12,8,9,0.1,0.3
2025-06-24T1700,2661A,107.6325,35.7357,庆阳市,庆阳五中,,47,36,35,20,20,150,,146,146,10,10,6,8,0.4,0.4
2025-06-24T1700,2662A,107.6364,35.7067,庆阳市,市环保局,,47,38,35,20,15,148,,147,147,8,8,7,11,0.5,0.5
2025-06-24T1700,1916A,103.7897,25.5035,曲靖市,环境监测站,,15,,11,3,4,47,,40,40,3,6,3,3,0.4,0.5
2025-06-24T1700,1917A,103.8,25.5364,曲靖市,烟厂办公区,,,,11,2,6,53,,45,45,2,5,4,3,0.4,0.6
2025-06-24T1700,3376A,103.7947,25.462,曲靖市,南苑二区,,16,6,6,3,4,49,,43,43,4,5,4,4,0.5,0.5
2025-06-24T1700,3377A,103.7444,25.5261,曲靖市,曲靖师范学院,,17,6,9,3,3,54,,45,45,4,5,5,5,0.3,0.3
2025-06-24T1700,1264A,118.8692,28.9398,衢州市,环保大楼,,15,9,17,3,10,47,,44,44,7,9,3,4,0.3,0.3
2025-06-24T1700,1265A,118.8709,28.9666,衢州市,实验学校,,17,9,15,6,10,52,,50,50,8,9,2,4,0.2,0.2
2025-06-24T1700,1266A,118.8621,28.9808,衢州市,衢州学院,,19,9,13,6,9,59,,56,56,7,10,2,4,0.4,0.3
2025-06-24T1700,1611A,118.5819,24.9117,泉州市,涂山街,,31,25,39,10,18,99,,138,138,9,22,2,6,0.5,0.5
2025-06-24T1700,1612A,118.5972,24.8978,泉州市,津头埔,,28,16,35,10,17,89,,132,132,11,20,2,4,0.5,0.5
2025-06-24T1700,1613A,118.6663,24.9424,泉州市,万安,,30,23,34,10,15,96,,127,127,9,15,4,3,0.4,0.5
2025-06-24T1700,1614A,118.6117,24.9604,泉州市,清源山,,,,,,,,,,,,,,,,
2025-06-24T1700,3529A,118.6333,24.9264,泉州市,城华南路,,28,19,32,8,16,87,,126,126,11,17,4,5,0.4,0.5
2025-06-24T1700,2626A,88.8876,29.2718,日喀则市,日喀则监测站,,44,8,8,3,3,138,,130,130,5,5,13,13,0.3,0.3
2025-06-24T1700,3726A,88.8781,29.2426,日喀则市,林业技术推广中心,,41,7,9,3,2,131,,126,126,3,3,9,9,0.4,0.4
2025-06-24T1700,1659A,119.471,35.4209,日照市,监测站,,48,19,27,10,15,153,,126,126,21,36,9,8,0.6,0.7
2025-06-24T1700,1660A,119.523,35.4216,日照市,市政府广场,,42,36,26,7,9,134,,112,112,19,21,10,9,0.6,0.6
2025-06-24T1700,1661A,119.5587,35.4044,日照市,港务局,颗粒物(PM10),51,51,33,17,17,145,,123,123,17,21,10,9,0.8,0.7
2025-06-24T1700,3507A,119.5328,35.4625,日照市,职业技术学院,,49,36,29,12,11,156,,132,132,17,21,8,6,0.6,0.6
2025-06-24T1700,3604A,119.3266,35.1044,日照市,岚山环保分局,,43,14,27,7,8,135,,123,123,11,21,7,9,0.5,0.6
2025-06-24T1700,1835A,111.1922,34.7752,三门峡市,市政府,臭氧1小时,67,32,44,26,25,173,,170,170,8,13,6,8,0.4,0.5
2025-06-24T1700,1836A,111.1587,34.7942,三门峡市,开发区,臭氧1小时,90,39,45,20,26,192,,176,176,14,16,8,8,0.4,0.5
2025-06-24T1700,1838A,111.143,34.7955,三门峡市,风景区,臭氧1小时,100,50,39,25,23,200,,183,183,8,9,11,10,0.3,0.4
2025-06-24T1700,3039A,111.1911,34.7829,三门峡市,三门峡市第一小学,臭氧1小时,77,39,42,24,20,181,,172,172,10,13,7,10,0.6,0.7
2025-06-24T1700,3598A,111.1,34.7167,三门峡市,富达温泉假日酒店,臭氧1小时,68,22,31,19,24,174,,169,169,5,12,9,10,0.3,0.3
2025-06-24T1700,2324A,117.6211,26.2625,三明市,三钢,,24,24,22,10,18,74,,89,89,17,14,18,8,1.8,1.1
2025-06-24T1700,2325A,117.635,26.2714,三明市,三明二中,,25,25,20,6,11,78,,88,88,6,13,1,2,0.5,0.7
2025-06-24T1700,2326A,117.6028,26.2378,三明市,三元区政府,,28,22,21,7,12,87,,97,97,7,10,6,7,0.3,0.1
2025-06-24T1700,2327A,117.7275,26.3108,三明市,洋溪,,,,,,,,,,,,,,,,
2025-06-24T1700,1876A,109.5078,18.2489,三亚市,河东子站,,17,17,14,3,6,44,,51,51,2,4,4,4,0.3,0.4
2025-06-24T1700,1877A,109.4964,18.2681,三亚市,河西子站,,15,14,14,6,6,45,,52,52,8,8,2,2,0.3,0.3
2025-06-24T1700,3540A,109.7348,18.3443,三亚市,君悦子站,,,,10,3,7,54,,56,56,,4,2,2,0.2,0.2
2025-06-24T1700,2624A,91.7608,29.2313,山南市,山南监测站,,36,6,6,3,3,115,,108,108,9,6,3,3,0.3,0.3
2025-06-24T1700,2625A,91.7706,29.2436,山南市,山南人民医院,,39,10,10,7,8,122,,113,113,4,6,6,6,0.2,0.2
2025-06-24T1700,1674A,116.6794,23.3667,汕头市,金平子站,,23,8,12,6,7,71,,74,73,4,5,5,5,0.5,0.4
2025-06-24T1700,1675A,116.7244,23.3633,汕头市,龙湖子站,,19,19,15,8,6,55,,70,68,9,7,6,6,0.4,0.4
2025-06-24T1700,1676A,116.7258,23.2775,汕头市,濠江子站,,16,10,16,7,8,49,,59,59,6,7,5,4,0.5,0.5
2025-06-24T1700,1677A,116.7519,23.4714,汕头市,澄海子站,,26,26,20,7,8,72,,83,83,10,7,4,3,0.5,0.5
2025-06-24T1700,1678A,116.6092,23.2539,汕头市,潮阳子站,,20,19,15,9,8,61,,72,72,1,2,4,4,0.4,0.4
2025-06-24T1700,3444A,116.454,23.2684,汕头市,潮南峡山,,40,40,25,11,8,70,,70,70,5,6,5,5,0.3,0.3
2025-06-24T1700,3624A,116.4069,23.2533,汕头市,潮南子站,,21,19,15,6,6,67,,64,64,3,3,4,4,0.5,0.5
2025-06-24T1700,1693A,115.3653,22.775,汕尾市,市环保局,,22,11,8,3,3,70,,56,56,4,5,3,2,0.3,0.3
2025-06-24T1700,1694A,115.3706,22.7898,汕尾市,市政府,,22,9,8,3,4,69,,57,57,5,5,4,4,0.4,0.4
2025-06-24T1700,1695A,115.3622,22.7925,汕尾市,新城中学,,22,13,9,3,2,70,,57,57,3,4,4,3,0.5,0.5
2025-06-24T1700,2645A,109.9154,33.8715,商洛市,监测站,,46,37,30,22,18,146,,152,152,9,16,9,8,0.4,0.4
2025-06-24T1700,3045A,109.9643,33.8471,商洛市,商州区中学,,44,34,36,25,16,139,,147,147,12,22,5,8,0.5,0.5
2025-06-24T1700,2408A,115.6702,34.4285,商丘市,环境监测站,臭氧1小时,77,34,61,19,32,181,,181,181,6,11,2,3,0.4,0.5
2025-06-24T1700,2409A,115.6458,34.4045,商丘市,粮食局,臭氧1小时,85,35,42,25,32,188,,185,185,7,11,2,4,0.3,0.4
2025-06-24T1700,2410A,115.6293,34.3948,商丘市,睢阳区环保局,臭氧1小时,74,52,52,25,31,179,,176,176,10,15,2,3,0.3,0.3
2025-06-24T1700,3171A,115.6071,34.4465,商丘市,梁园区档案局,臭氧1小时,78,44,42,27,31,182,,174,174,8,14,2,3,0.4,0.5
2025-06-24T1700,1141A,121.4,31.238,上海市,普陀,,33,,20,18,18,104,,96,96,18,18,5,4,0.4,0.4
2025-06-24T1700,1142A,121.478,31.2036,上海市,十五厂,,32,24,19,22,16,101,,96,96,28,21,8,7,0.8,0.6
2025-06-24T1700,1143A,121.467,31.3008,上海市,虹口,,33,,19,23,13,94,,86,86,21,20,8,7,0.8,0.7
2025-06-24T1700,1147A,121.425,31.2261,上海市,静安监测站,,31,,20,21,17,97,,91,91,24,20,5,4,0.7,0.7
