timepoint,stationcode,longitude,latitude,area,positionname,primarypollutant,aqi,pm10,pm10_24h,pm2_5,pm2_5_24h,o3,o3_24h,o3_8h,o3_8h_24h,no2,no2_24h,so2,so2_24h,co,co_24h
2023-02-18T11:00:00,1001A,116.3621,39.8784,北京市,万寿西宫,细颗粒物(PM2.5),235,229,216,185,168,39,8,6,6,76,88,3,4,1.5,1.5
2023-02-18T11:00:00,1002A,116.2202,40.2915,北京市,定陵,细颗粒物(PM2.5),241,224,209,191,177,50,24,39,36,31,32,2,2,1.0,0.9
2023-02-18T11:00:00,1003A,116.4174,39.9289,北京市,东四,细颗粒物(PM2.5),230,228,221,180,165,41,14,12,12,66,78,4,5,1.3,1.3
2023-02-18T11:00:00,1004A,116.4072,39.8863,北京市,天坛,细颗粒物(PM2.5),238,225,209,188,176,33,12,8,8,64,69,2,4,1.4,1.3
2023-02-18T11:00:00,1005A,116.462,39.9365,北京市,农展馆,细颗粒物(PM2.5),240,238,223,190,168,39,11,6,6,67,78,2,3,1.3,1.2
2023-02-18T11:00:00,1006A,116.3392,39.9295,北京市,官园,细颗粒物(PM2.5),237,230,228,187,175,53,12,8,8,67,76,6,6,1.2,1.3
2023-02-18T11:00:00,1007A,116.2878,39.9611,北京市,海淀万柳,细颗粒物(PM2.5),256,227,222,206,169,31,4,1,1,65,74,1,3,1.2,1.2
2023-02-18T11:00:00,1008A,116.6636,40.135,北京市,顺义新城,细颗粒物(PM2.5),220,201,222,170,174,71,16,12,12,48,59,3,3,1.1,1.2
2023-02-18T11:00:00,1009A,116.6275,40.3275,北京市,怀柔镇,细颗粒物(PM2.5),229,248,247,179,167,71,21,38,19,54,60,1,3,1.0,1
2023-02-18T11:00:00,1010A,116.2296,40.217,北京市,昌平镇,细颗粒物(PM2.5),222,211,207,172,163,61,2,37,11,58,47,1,2,1.4,1.1
2023-02-18T11:00:00,1011A,116.3966,39.9821,北京市,奥体中心,细颗粒物(PM2.5),243,214,218,193,172,38,5,6,6,67,74,2,2,1.2,1.2
2023-02-18T11:00:00,1012A,116.184,39.9136,北京市,古城,细颗粒物(PM2.5),229,239,223,179,167,38,11,4,4,56,68,1,2,1.3,1.3
2023-02-18T11:00:00,1015A,117.1444,39.1661,天津市,勤俭道,细颗粒物(PM2.5),198,185,187,148,144,75,18,4,4,79,82,15,12,1.9,1.3
2023-02-18T11:00:00,1017A,117.237,39.1082,天津市,大直沽八号路,细颗粒物(PM2.5),195,187,186,146,138,69,8,5,4,90,84,12,13,1.4,1.3
2023-02-18T11:00:00,1018A,117.202,39.0927,天津市,前进道,细颗粒物(PM2.5),178,178,169,134,128,71,13,55,8,87,77,8,10,1.3,1.2
2023-02-18T11:00:00,1019A,117.1837,39.2133,天津市,淮河道,细颗粒物(PM2.5),189,221,232,142,145,63,13,7,7,87,86,14,12,1.8,1.2
2023-02-18T11:00:00,1021A,117.307,39.0877,天津市,跃进路,,,,178,,133,68,8,3,3,78,85,16,14,2.1,1.3
2023-02-18T11:00:00,1023A,117.707,39.0343,天津市,第四大街,细颗粒物(PM2.5),163,173,181,124,131,56,1,1,1,91,105,12,11,1.0,1.1
2023-02-18T11:00:00,1024A,117.457,38.8394,天津市,永明路,细颗粒物(PM2.5),199,183,157,149,129,64,10,7,5,70,84,10,13,0.7,0.9
2023-02-18T11:00:00,1026A,117.764,39.1587,天津市,汉北路,细颗粒物(PM2.5),165,142,167,125,146,31,8,4,4,66,93,12,11,1.1,1.3
2023-02-18T11:00:00,1027A,117.157,38.9194,天津市,团泊洼,细颗粒物(PM2.5),155,157,180,118,132,58,8,1,1,69,84,8,9,0.9,1.2
2023-02-18T11:00:00,1029A,114.4422,38.0444,石家庄市,职工医院,细颗粒物(PM2.5),251,265,226,201,174,84,23,8,8,69,74,10,8,1.5,1.4
2023-02-18T11:00:00,1030A,114.6063,38.0266,石家庄市,高新区,细颗粒物(PM2.5),230,239,221,180,157,87,18,6,6,68,72,9,6,1.2,1.2
2023-02-18T11:00:00,1031A,114.4898,38.1328,石家庄市,西北水源,细颗粒物(PM2.5),225,266,234,175,160,53,,3,3,83,81,6,4,1.6,1.4
2023-02-18T11:00:00,1032A,114.4586,38.0058,石家庄市,西南高教,细颗粒物(PM2.5),262,267,228,212,184,78,16,5,5,68,67,9,7,1.5,1.5
2023-02-18T11:00:00,1033A,114.5331,38.0178,石家庄市,世纪公园,细颗粒物(PM2.5),238,247,223,188,183,73,15,6,4,65,63,7,6,1.6,1.6
2023-02-18T11:00:00,1034A,114.509,38.0457,石家庄市,人民会堂,细颗粒物(PM2.5),250,240,220,200,182,77,29,10,10,53,61,8,6,1.2,1.2
2023-02-18T11:00:00,1035A,114.3524,37.8911,石家庄市,封龙山,细颗粒物(PM2.5),248,261,218,198,166,111,77,97,91,55,58,3,4,1.9,1.7
2023-02-18T11:00:00,1037A,118.131,39.6363,唐山市,雷达站,细颗粒物(PM2.5),247,271,202,197,162,75,25,11,10,98,80,31,17,3.2,1.8
2023-02-18T11:00:00,1038A,118.1725,39.6334,唐山市,物资局,细颗粒物(PM2.5),258,306,206,208,155,64,20,8,8,104,95,41,24,3.6,1.8
2023-02-18T11:00:00,1040A,118.1705,39.6506,唐山市,十二中,细颗粒物(PM2.5),245,283,203,195,163,58,18,3,3,89,95,,17,3.3,1.8
2023-02-18T11:00:00,1041A,118.1869,39.622,唐山市,小山,细颗粒物(PM2.5),257,329,220,207,162,77,18,6,6,113,97,40,20,4.2,1.9
2023-02-18T11:00:00,1042A,119.5134,39.8207,秦皇岛市,北戴河环保局,细颗粒物(PM2.5),212,178,142,162,130,81,37,50,41,53,70,19,13,1.4,1.4
2023-02-18T11:00:00,1043A,119.7493,40.0116,秦皇岛市,第一关,细颗粒物(PM2.5),220,192,171,170,147,51,51,12,12,36,80,14,11,1.1,1.5
2023-02-18T11:00:00,1044A,119.5897,39.9499,秦皇岛市,监测站,细颗粒物(PM2.5),217,208,187,167,150,66,39,7,7,56,81,16,13,1.2,1.5
2023-02-18T11:00:00,1046A,119.5251,39.9041,秦皇岛市,建设大厦,细颗粒物(PM2.5),172,189,177,130,117,80,44,10,10,56,77,18,16,1.3,1.6
2023-02-18T11:00:00,1048A,114.5302,36.6116,邯郸市,东污水处理厂,细颗粒物(PM2.5),239,245,184,189,150,83,37,19,19,39,44,10,10,1.9,1.5
2023-02-18T11:00:00,1049A,114.4918,36.5713,邯郸市,矿院,细颗粒物(PM2.5),265,248,177,215,157,86,25,40,16,55,43,12,10,2.2,1.4
2023-02-18T11:00:00,1050A,114.484,36.6133,邯郸市,丛台公园,,,,176,,148,80,34,34,14,,40,,9,1.3,1.2
2023-02-18T11:00:00,1051A,115.493,38.8632,保定市,游泳馆,细颗粒物(PM2.5),232,209,206,182,182,45,25,19,13,72,76,17,15,1.3,1.2
2023-02-18T11:00:00,1052A,115.5213,38.8959,保定市,华电二区,细颗粒物(PM2.5),240,196,198,190,184,40,19,8,7,90,95,8,8,1.8,1.7
2023-02-18T11:00:00,1053A,115.4713,38.9108,保定市,接待中心,细颗粒物(PM2.5),220,235,201,170,174,34,16,6,6,71,78,10,8,1.7,1.5
2023-02-18T11:00:00,1054A,115.4612,38.8416,保定市,地表水厂,细颗粒物(PM2.5),202,248,235,152,153,36,19,15,10,77,76,12,10,1.3,1.1
2023-02-18T11:00:00,1056A,115.5086,38.8639,保定市,监测站,细颗粒物(PM2.5),243,209,206,193,187,46,24,17,12,71,78,8,8,1.7,1.6
2023-02-18T11:00:00,1057A,114.8883,40.8336,张家口市,人民公园,细颗粒物(PM2.5),78,77,102,57,76,76,52,60,52,23,34,15,11,0.6,0.8
2023-02-18T11:00:00,1059A,114.8687,40.8042,张家口市,五金库,细颗粒物(PM2.5),102,78,86,76,79,62,34,60,45,46,53,8,8,,0.9
2023-02-18T11:00:00,1060A,114.8902,40.762,张家口市,世纪豪园,细颗粒物(PM2.5),150,122,135,115,108,63,22,55,23,49,51,8,9,1.4,1.3
2023-02-18T11:00:00,1061A,114.8916,40.8661,张家口市,北泵房,细颗粒物(PM2.5),83,88,112,61,92,80,53,58,47,37,43,26,18,1.0,1.2
2023-02-18T11:00:00,1062A,117.9531,40.9081,承德市,铁路,,,,187,,132,65,,12,8,59,65,11,12,1.5,1.5
2023-02-18T11:00:00,1063A,117.9392,40.9763,承德市,中国银行,细颗粒物(PM2.5),176,184,166,133,130,90,25,12,12,50,56,7,8,1.2,1.3
2023-02-18T11:00:00,1064A,117.9503,40.928,承德市,开发区,细颗粒物(PM2.5),182,192,166,137,139,81,18,8,8,68,65,11,11,1.5,1.5
2023-02-18T11:00:00,1065A,117.8051,40.9655,承德市,文化中心,细颗粒物(PM2.5),202,193,183,152,141,83,32,11,11,47,55,9,10,1.3,1.4
2023-02-18T11:00:00,1066A,117.9268,41.0026,承德市,离宫,细颗粒物(PM2.5),183,170,165,138,126,92,25,10,10,29,32,12,12,1.2,1.2
2023-02-18T11:00:00,1067A,116.6708,39.5111,廊坊市,药材公司,细颗粒物(PM2.5),221,223,240,171,169,38,16,8,8,84,88,12,9,1.6,1.7
2023-02-18T11:00:00,1068A,116.7214,39.5589,廊坊市,开发区,细颗粒物(PM2.5),242,237,237,192,182,27,16,10,10,97,105,12,10,1.7,1.6
2023-02-18T11:00:00,1070A,116.7244,39.5269,廊坊市,北华航天学院,细颗粒物(PM2.5),256,244,249,206,188,38,16,7,7,98,105,17,14,1.5,1.5
2023-02-18T11:00:00,1071A,116.8842,38.2991,沧州市,沧县城建局,细颗粒物(PM2.5),220,254,172,170,128,107,18,9,9,92,80,20,16,1.2,1.1
2023-02-18T11:00:00,1072A,116.8584,38.3254,沧州市,电视转播站,细颗粒物(PM2.5),212,175,156,162,123,104,18,5,5,71,64,23,12,1.2,1.1
2023-02-18T11:00:00,1073A,116.8709,38.3228,沧州市,市环保局,细颗粒物(PM2.5),218,238,162,168,126,104,13,8,8,94,78,12,8,1.2,0.9
2023-02-18T11:00:00,1074A,115.6838,37.7541,衡水市,电机北厂,细颗粒物(PM2.5),239,249,172,189,132,97,11,2,2,76,52,8,6,1.3,0.9
2023-02-18T11:00:00,1075A,115.6303,37.7316,衡水市,市监测站,细颗粒物(PM2.5),246,275,189,196,134,95,12,5,5,75,47,16,16,1.4,0.9
2023-02-18T11:00:00,1077A,114.4704,37.0886,邢台市,达活泉,细颗粒物(PM2.5),284,253,235,234,207,53,35,19,12,41,55,11,12,1.5,1.5
2023-02-18T11:00:00,1078A,114.5062,37.0349,邢台市,邢师高专,细颗粒物(PM2.5),270,236,200,220,181,60,30,26,13,42,52,10,9,1.7,1.3
2023-02-18T11:00:00,1079A,114.5237,37.0851,邢台市,路桥公司,细颗粒物(PM2.5),286,273,227,236,191,59,29,15,8,56,59,15,12,2.6,1.6
2023-02-18T11:00:00,1080A,114.4725,37.0719,邢台市,市环保局,细颗粒物(PM2.5),279,266,230,229,193,53,34,20,13,41,55,10,10,2.0,1.4
2023-02-18T11:00:00,1081A,112.522,37.8873,太原市,尖草坪,细颗粒物(PM2.5),93,96,182,69,139,86,66,46,36,32,59,10,13,0.9,1.3
2023-02-18T11:00:00,1083A,112.434,38.0108,太原市,上兰,,,,,,,,,,,,,,,,
2023-02-18T11:00:00,1084A,112.469,37.7124,太原市,晋源,细颗粒物(PM2.5),283,291,186,233,150,92,18,8,8,76,62,25,14,3.0,1.6
2023-02-18T11:00:00,1085A,112.5583,37.7394,太原市,小店,细颗粒物(PM2.5),257,254,192,207,148,81,31,44,17,61,60,20,15,2.3,1.5
2023-02-18T11:00:00,1086A,112.5369,37.8692,太原市,桃园,细颗粒物(PM2.5),153,154,191,117,150,90,50,36,31,45,66,12,14,1.4,1.5
2023-02-18T11:00:00,1087A,112.57,37.8195,太原市,坞城,细颗粒物(PM2.5),242,246,182,192,140,87,25,34,19,68,62,23,16,2.5,1.6
2023-02-18T11:00:00,1088A,112.549,37.9854,太原市,南寨,细颗粒物(PM2.5),201,217,188,151,147,109,43,10,10,50,73,20,10,1.6,1.4
2023-02-18T11:00:00,1090A,111.6507,40.7517,呼和浩特市,呼市一监,,20,17,83,5,67,89,64,40,40,20,46,5,12,0.3,0.8
2023-02-18T11:00:00,1091A,111.6572,40.8033,呼和浩特市,小召,,24,24,88,5,60,81,62,42,42,19,59,11,20,0.3,0.9
2023-02-18T11:00:00,1094A,111.7516,40.8369,呼和浩特市,如意水处理厂,,22,10,89,5,56,103,68,45,45,12,53,12,15,0.3,0.8
2023-02-18T11:00:00,1095A,111.7276,40.8062,呼和浩特市,二十九中,,31,31,97,6,61,95,65,37,37,10,50,9,12,0.3,0.8
2023-02-18T11:00:00,1096A,111.5512,40.7866,呼和浩特市,工大金川校区,,24,24,98,4,66,88,68,41,41,3,45,5,12,0.3,0.8
2023-02-18T11:00:00,1097A,111.717,40.7612,呼和浩特市,化肥厂生活区,,21,13,94,6,62,99,66,44,44,13,46,8,14,0.4,0.8
2023-02-18T11:00:00,1098A,123.6836,41.9339,沈阳市,森林路,,,,,,,,,,,,,,,,
2023-02-18T11:00:00,1099A,123.505,41.7406,沈阳市,浑南东路,细颗粒物(PM2.5),82,84,142,60,114,65,30,43,32,37,47,15,18,0.9,1.4
2023-02-18T11:00:00,1100A,123.4231,41.6989,沈阳市,新秀街,细颗粒物(PM2.5),74,78,164,54,124,68,29,63,30,41,42,13,17,0.8,1.4
2023-02-18T11:00:00,1102A,123.5903,41.8411,沈阳市,东陵路,细颗粒物(PM2.5),85,68,126,63,114,73,34,37,26,36,45,14,16,0.7,1.2
2023-02-18T11:00:00,1103A,123.4264,41.8467,沈阳市,陵东街,,50,50,154,32,117,78,52,65,44,26,47,11,17,0.6,1.2
2023-02-18T11:00:00,1104A,123.4114,41.7653,沈阳市,文化路,细颗粒物(PM2.5),69,66,162,50,128,77,38,72,36,35,38,14,15,0.8,1.3
2023-02-18T11:00:00,1105A,123.4678,41.7867,沈阳市,小河沿,细颗粒物(PM2.5),63,62,150,45,112,77,39,62,39,37,48,12,18,0.7,1.2
2023-02-18T11:00:00,1106A,123.4017,41.7972,沈阳市,太原街,细颗粒物(PM2.5),68,67,161,49,135,70,37,69,32,36,47,12,16,0.8,1.3
2023-02-18T11:00:00,1108A,123.3783,41.9228,沈阳市,京沈街,,50,44,135,35,133,65,57,58,42,25,50,12,16,0.5,1.2
2023-02-18T11:00:00,1109A,121.612,38.9741,大连市,甘井子,细颗粒物(PM2.5),90,111,105,67,65,72,41,44,33,46,50,5,10,0.7,0.6
2023-02-18T11:00:00,1110A,121.565,38.9511,大连市,周水子,细颗粒物(PM2.5),118,164,125,89,72,72,15,32,26,66,55,14,18,1.1,0.9
2023-02-18T11:00:00,1111A,121.5637,38.8845,大连市,星海三站,,,62,68,46,52,67,,40,35,36,40,7,5,0.6,0.6
2023-02-18T11:00:00,1112A,121.6302,38.9117,大连市,青泥洼桥,细颗粒物(PM2.5),63,59,71,45,58,96,59,49,35,32,42,12,14,0.7,0.8
2023-02-18T11:00:00,1113A,121.6251,38.8638,大连市,傅家庄,颗粒物(PM10),53,56,72,34,44,86,67,54,50,19,28,10,11,0.7,0.7
2023-02-18T11:00:00,1114A,121.5213,38.8661,大连市,七贤岭,细颗粒物(PM2.5),64,56,79,46,66,87,62,38,38,24,39,9,9,0.5,0.7
2023-02-18T11:00:00,1115A,121.2529,38.8061,大连市,旅顺,细颗粒物(PM2.5),55,48,66,39,56,85,50,63,47,20,25,7,8,0.6,0.7
2023-02-18T11:00:00,1116A,121.7485,39.1311,大连市,金州,细颗粒物(PM2.5),102,95,91,76,69,74,50,74,39,19,42,7,12,1.2,1.1
2023-02-18T11:00:00,1117A,121.7811,39.0496,大连市,开发区,细颗粒物(PM2.5),98,78,75,73,64,74,28,38,27,47,54,6,9,0.6,0.6
2023-02-18T11:00:00,1118A,121.9762,39.0631,大连市,双D港,细颗粒物(PM2.5),58,52,61,41,49,76,68,54,50,25,32,8,8,0.7,0.7
2023-02-18T11:00:00,1119A,125.3325,43.9166,长春市,食品厂,,33,33,46,18,29,75,66,59,59,22,33,6,7,0.4,0.4
2023-02-18T11:00:00,1120A,125.2863,43.9027,长春市,客车厂,,33,33,44,20,29,77,67,56,56,24,35,8,17,0.3,0.4
2023-02-18T11:00:00,1121A,125.2841,43.8463,长春市,邮电学院,,26,25,41,18,27,82,65,62,62,25,34,16,15,0.4,0.4
2023-02-18T11:00:00,1122A,125.3716,43.8772,长春市,劳动公园,,,,49,,29,52,,55,,,42,,17,,0.4
2023-02-18T11:00:00,1123A,125.3297,43.8805,长春市,园林处,,36,36,39,18,26,71,57,58,58,29,38,9,15,0.4,0.4
2023-02-18T11:00:00,1124A,125.4605,43.79,长春市,净月潭,,25,22,45,10,19,83,78,62,62,7,20,6,6,0.4,0.5
2023-02-18T11:00:00,1125A,125.7194,43.515,长春市,甩湾子,,,,,,,,,,,,,,,,
2023-02-18T11:00:00,1126A,125.3863,43.8447,长春市,经开区环卫处,,40,40,44,21,30,77,62,54,54,24,35,26,14,0.4,0.5
2023-02-18T11:00:00,1127A,125.245,43.7783,长春市,高新区管委会,,38,38,55,16,42,86,62,49,49,27,37,20,11,0.3,0.5
2023-02-18T11:00:00,1128A,125.1761,43.8325,长春市,岱山公园,,33,33,47,17,32,78,63,54,54,21,34,12,8,0.4,0.5
2023-02-18T11:00:00,1129A,126.5422,45.755,哈尔滨市,岭北,,29,25,59,20,48,104,82,63,60,8,23,18,14,0.3,0.5
2023-02-18T11:00:00,1130A,126.561,45.8167,哈尔滨市,松北商大,,40,40,56,18,39,109,88,68,68,16,37,11,11,0.5,0.6
2023-02-18T11:00:00,1131A,126.979,45.5419,哈尔滨市,阿城会宁,颗粒物(PM10),72,94,88,46,72,107,67,79,45,28,33,25,12,0.7,0.7
2023-02-18T11:00:00,1132A,126.599,45.7222,哈尔滨市,南岗学府路,,34,34,83,11,47,100,78,65,58,19,42,23,27,0.9,0.8
2023-02-18T11:00:00,1133A,126.689,45.7733,哈尔滨市,太平宏伟公园,,39,39,69,14,46,104,81,63,63,15,43,21,16,0.2,0.4
2023-02-18T11:00:00,1134A,126.635,45.7667,哈尔滨市,道外承德广场,,43,37,61,30,46,99,74,61,61,20,40,20,13,0.5,0.7
2023-02-18T11:00:00,1135A,126.685,45.7319,哈尔滨市,香坊红旗大街,,37,37,72,18,58,89,73,59,59,17,48,28,24,0.6,0.8
2023-02-18T11:00:00,1136A,126.6411,45.7258,哈尔滨市,动力和平路,,39,39,62,15,46,92,76,58,58,15,42,16,16,0.4,0.7
2023-02-18T11:00:00,1137A,126.593,45.7478,哈尔滨市,道里建国路,,44,44,64,26,53,92,71,56,56,22,44,16,16,0.5,0.7
2023-02-18T11:00:00,1138A,126.615,45.61,哈尔滨市,平房东轻厂,,,40,68,19,55,94,70,73,42,,35,,13,0.3,0.6
2023-02-18T11:00:00,1139A,126.595,45.9855,哈尔滨市,呼兰师专,,39,39,63,22,54,101,74,52,52,15,33,13,16,0.3,0.5
2023-02-18T11:00:00,1140A,126.6206,45.6842,哈尔滨市,省农科院,,29,28,88,20,61,104,84,54,54,6,44,14,19,0.4,0.9
2023-02-18T11:00:00,1141A,121.4,31.238,上海市,普陀,细颗粒物(PM2.5),77,82,55,56,35,72,30,22,16,64,61,8,8,0.8,0.7
2023-02-18T11:00:00,1142A,121.478,31.2036,上海市,十五厂,,,92,51,,19,66,17,12,12,76,68,12,7,0.9,0.8
2023-02-18T11:00:00,1143A,121.467,31.3008,上海市,虹口,细颗粒物(PM2.5),77,97,65,56,38,71,31,10,10,63,69,9,6,0.9,0.8
2023-02-18T11:00:00,1144A,121.412,31.1654,上海市,徐汇上师大,细颗粒物(PM2.5),82,82,53,60,32,67,28,13,13,65,67,12,11,0.9,0.7
2023-02-18T11:00:00,1145A,121.536,31.2659,上海市,杨浦四漂,细颗粒物(PM2.5),80,95,66,59,38,77,21,8,8,69,69,18,9,0.9,0.7
2023-02-18T11:00:00,1147A,121.425,31.2261,上海市,静安监测站,细颗粒物(PM2.5),79,100,64,58,33,70,28,25,23,73,65,12,11,1.0,0.8
2023-02-18T11:00:00,1148A,121.703,31.1907,上海市,浦东川沙,细颗粒物(PM2.5),64,72,52,46,31,81,37,9,9,44,53,6,6,0.7,0.5
2023-02-18T11:00:00,1149A,121.533,31.2284,上海市,浦东新区监测站,,,103,63,58,37,70,20,12,8,,57,12,6,0.4,0.3
2023-02-18T11:00:00,1150A,121.577,31.2071,上海市,浦东张江,细颗粒物(PM2.5),72,83,52,52,29,74,27,9,7,56,59,7,5,0.8,0.7
2023-02-18T11:00:00,1151A,118.8086,32.1065,南京市,迈皋桥,细颗粒物(PM2.5),117,147,114,88,68,57,18,16,8,67,57,9,6,0.7,0.6
2023-02-18T11:00:00,1152A,118.7538,32.0551,南京市,草场门,细颗粒物(PM2.5),107,150,109,80,55,50,12,20,6,82,65,9,6,0.9,0.6
2023-02-18T11:00:00,1153A,118.7794,32.0745,南京市,山西路,细颗粒物(PM2.5),117,149,105,88,65,54,12,32,11,77,51,9,5,0.8,0.6
2023-02-18T11:00:00,1154A,118.7752,32.0023,南京市,中华门,细颗粒物(PM2.5),117,153,104,88,61,52,10,8,5,90,65,11,8,1.5,1
2023-02-18T11:00:00,1155A,118.8109,32.0309,南京市,瑞金路,细颗粒物(PM2.5),107,144,114,80,62,47,11,18,4,83,64,10,7,1.0,0.6
2023-02-18T11:00:00,1156A,118.7997,32.0754,南京市,玄武湖,细颗粒物(PM2.5),139,151,107,106,79,54,8,20,7,89,52,5,4,0.8,0.5
2023-02-18T11:00:00,1157A,118.6414,32.0931,南京市,浦口,细颗粒物(PM2.5),104,131,111,78,60,50,21,12,12,60,68,8,5,0.9,0.7
2023-02-18T11:00:00,1158A,118.7356,31.9996,南京市,奥体中心,细颗粒物(PM2.5),104,155,117,78,60,51,13,13,9,91,76,10,6,1.2,0.9
2023-02-18T11:00:00,1159A,118.9125,32.1028,南京市,仙林大学城,细颗粒物(PM2.5),110,134,97,83,65,66,7,32,3,94,61,10,7,1.0,0.7
2023-02-18T11:00:00,1160A,120.561,31.2472,苏州市,上方山,细颗粒物(PM2.5),88,77,71,65,52,70,35,12,8,55,61,11,8,0.7,0.6
2023-02-18T11:00:00,1162A,120.591,31.3019,苏州市,彩香,细颗粒物(PM2.5),95,115,82,71,51,78,30,20,8,62,67,11,7,0.8,0.7
2023-02-18T11:00:00,1163A,120.596,31.3264,苏州市,轧钢厂,细颗粒物(PM2.5),90,123,100,67,52,72,25,15,6,57,64,10,7,0.7,0.7
2023-02-18T11:00:00,1164A,120.613,31.2703,苏州市,吴中区,细颗粒物(PM2.5),98,126,78,73,45,75,29,13,6,75,75,12,8,0.7,0.6
2023-02-18T11:00:00,1165A,120.543,31.2994,苏州市,苏州新区,细颗粒物(PM2.5),87,100,73,64,48,68,15,10,4,67,62,12,9,0.9,0.8
2023-02-18T11:00:00,1166A,120.669,31.3097,苏州市,苏州工业园区,细颗粒物(PM2.5),82,109,81,60,50,75,16,26,6,61,63,13,9,0.7,0.7
2023-02-18T11:00:00,1167A,120.641,31.3708,苏州市,相城区,细颗粒物(PM2.5),87,97,85,64,48,70,18,4,4,66,74,12,8,0.8,0.7
2023-02-18T11:00:00,1168A,120.9098,31.9663,南通市,狼山街道,颗粒物(PM10),66,81,64,47,39,50,8,6,4,64,63,8,7,0.6,0.6
2023-02-18T11:00:00,1169A,120.86,32.0005,南通市,虹桥,颗粒物(PM10),81,112,88,55,49,47,4,4,2,64,68,9,7,0.8,0.6
2023-02-18T11:00:00,1170A,120.87,32.02,南通市,城中,颗粒物(PM10),100,150,92,62,53,44,5,4,3,62,69,10,8,0.6,0.5
2023-02-18T11:00:00,1171A,120.94,31.93,南通市,星湖花园,颗粒物(PM10),69,87,76,48,43,45,8,2,2,56,64,9,7,0.5,0.5
2023-02-18T11:00:00,1172A,120.81,32.0417,南通市,紫琅学院,颗粒物(PM10),80,109,90,58,46,39,0,0,0,63,66,9,8,0.7,0.5
2023-02-18T11:00:00,1173A,119.176,34.5885,连云港市,市环境监测站,细颗粒物(PM2.5),73,85,56,53,37,86,16,54,24,46,26,10,9,0.4,0.4
2023-02-18T11:00:00,1177A,117.179,34.2761,徐州市,黄河新村,细颗粒物(PM2.5),142,149,101,108,80,100,16,35,10,44,34,14,11,1.2,1
2023-02-18T11:00:00,1178A,117.1918,34.2384,徐州市,淮塔,细颗粒物(PM2.5),140,163,118,107,77,106,12,37,6,45,36,13,10,1.2,0.9
2023-02-18T11:00:00,1180A,117.256,34.2153,徐州市,新城区,细颗粒物(PM2.5),159,132,104,121,90,106,13,33,9,45,34,15,11,1.2,0.9
2023-02-18T11:00:00,1181A,117.244,34.2911,徐州市,桃园路,细颗粒物(PM2.5),132,156,117,100,80,98,19,30,11,38,33,11,9,1.1,0.9
2023-02-18T11:00:00,1182A,117.2933,34.2778,徐州市,农科院,细颗粒物(PM2.5),113,136,104,85,72,103,16,30,8,35,31,12,10,1.0,0.8
2023-02-18T11:00:00,1186A,119.389,32.3761,扬州市,邗江监测站,细颗粒物(PM2.5),120,168,120,91,80,35,6,3,3,100,87,11,9,1.4,1
2023-02-18T11:00:00,1188A,120.269,31.4867,无锡市,雪浪,"颗粒物(PM10),细颗粒物(PM2.5)",58,66,82,41,45,92,32,5,5,48,66,13,10,0.5,0.5
2023-02-18T11:00:00,1189A,120.275,31.6219,无锡市,黄巷,颗粒物(PM10),76,101,105,41,45,58,14,10,8,85,85,8,7,0.9,0.9
2023-02-18T11:00:00,1190A,120.294,31.56,无锡市,曹张,颗粒物(PM10),72,94,87,44,45,80,16,4,4,68,75,10,8,0.8,0.7
2023-02-18T11:00:00,1191A,120.242,31.5031,无锡市,漆塘,颗粒物(PM10),57,63,78,39,46,93,30,8,8,49,62,12,10,0.7,0.8
2023-02-18T11:00:00,1192A,120.3489,31.5863,无锡市,东亭,颗粒物(PM10),79,107,88,53,48,72,10,22,13,80,77,13,11,1.1,1
2023-02-18T11:00:00,1193A,120.354,31.5475,无锡市,旺庄,颗粒物(PM10),75,100,84,48,45,78,12,2,2,70,80,10,7,0.7,0.7
2023-02-18T11:00:00,1194A,120.245,31.5631,无锡市,荣巷,颗粒物(PM10),65,80,78,41,43,90,20,7,7,62,61,14,12,0.8,0.7
2023-02-18T11:00:00,1195A,120.299,31.6817,无锡市,堰桥,颗粒物(PM10),81,112,88,51,45,40,6,11,11,88,69,10,8,1.2,1
2023-02-18T11:00:00,1196A,119.9633,31.762,常州市,市监测站,细颗粒物(PM2.5),92,109,106,68,67,75,13,6,6,87,81,10,8,0.8,0.8
2023-02-18T11:00:00,1200A,119.9468,31.7069,常州市,武进监测站,细颗粒物(PM2.5),84,110,103,62,63,77,16,6,6,78,72,14,11,0.8,0.9
2023-02-18T11:00:00,1201A,119.9255,31.9087,常州市,安家,,,109,102,74,66,57,8,4,4,,78,16,10,1.4,0.9
2023-02-18T11:00:00,1203A,119.6707,32.1875,镇江市,新区办事处,细颗粒物(PM2.5),107,134,120,80,76,39,8,6,6,96,80,9,6,1.5,1.1
2023-02-18T11:00:00,1204A,119.4974,32.1968,镇江市,职教中心,细颗粒物(PM2.5),108,115,109,81,77,41,12,4,4,90,88,13,12,1.1,0.9
2023-02-18T11:00:00,1205A,119.4303,32.1328,镇江市,丹徒区监测站,细颗粒物(PM2.5),123,143,126,93,84,55,6,3,3,88,77,10,7,1.0,0.9
2023-02-18T11:00:00,1206A,119.905,32.4878,泰州市,公园路,细颗粒物(PM2.5),113,156,96,85,65,42,6,8,3,71,56,24,10,1.6,1.2
2023-02-18T11:00:00,1207A,119.9189,32.4625,泰州市,莲花,细颗粒物(PM2.5),98,122,96,73,69,41,7,7,2,75,58,15,10,1.6,1.2
2023-02-18T11:00:00,1209A,119.888,32.4639,泰州市,留学生创业园,细颗粒物(PM2.5),102,142,110,76,61,41,4,3,1,78,64,18,11,1.5,1.1
2023-02-18T11:00:00,1210A,119.036,33.5981,淮安市,钵池山,细颗粒物(PM2.5),102,83,72,76,73,79,9,29,10,36,31,6,6,0.7,0.8
2023-02-18T11:00:00,1211A,119.007,33.575,淮安市,北京南路,细颗粒物(PM2.5),102,107,76,76,65,70,4,30,3,44,38,9,9,1.2,0.9
2023-02-18T11:00:00,1212A,118.989,33.6067,淮安市,市监测站,细颗粒物(PM2.5),100,100,83,75,64,78,9,38,9,42,38,10,9,0.9,1
2023-02-18T11:00:00,1213A,119.135,33.5039,淮安市,楚州区监测站,细颗粒物(PM2.5),94,88,75,70,63,68,4,10,3,34,36,7,7,0.7,0.8
2023-02-18T11:00:00,1214A,119.0186,33.6297,淮安市,淮阴区监测站,细颗粒物(PM2.5),123,99,88,93,79,79,7,35,8,39,35,12,10,0.6,0.8
2023-02-18T11:00:00,1215A,120.118,33.4022,盐城市,盐城电厂,颗粒物(PM10),59,68,55,32,30,100,16,59,17,36,26,8,8,0.6,0.6
2023-02-18T11:00:00,1216A,120.156,33.3942,盐城市,市监测站,颗粒物(PM10),58,66,50,30,30,91,16,56,16,36,25,8,8,0.5,0.4
2023-02-18T11:00:00,1218A,120.2144,33.38,盐城市,开发区管委会,细颗粒物(PM2.5),77,97,64,56,36,91,13,50,18,36,25,5,4,0.7,0.6
2023-02-18T11:00:00,1220A,118.293,33.9528,宿迁市,宿迁学院,"颗粒物(PM10),细颗粒物(PM2.5)",83,116,114,61,80,95,15,27,13,40,39,8,9,0.6,0.8
2023-02-18T11:00:00,1221A,118.2442,33.9592,宿迁市,宿迁中学,"颗粒物(PM10),细颗粒物(PM2.5)",85,119,116,63,76,103,16,31,14,40,36,8,10,0.5,0.7
2023-02-18T11:00:00,1223A,120.2072,30.2111,杭州市,滨江,颗粒物(PM10),58,65,87,31,45,64,28,10,10,53,80,10,9,0.9,1
2023-02-18T11:00:00,1224A,120.0633,30.2747,杭州市,西溪,细颗粒物(PM2.5),83,105,97,61,60,72,25,8,8,57,50,7,6,0.8,0.7
2023-02-18T11:00:00,1226A,120.3461,30.3153,杭州市,下沙,细颗粒物(PM2.5),67,76,112,48,70,79,48,14,14,47,84,8,8,0.8,0.7
2023-02-18T11:00:00,1227A,120.1269,30.2456,杭州市,卧龙桥,细颗粒物(PM2.5),79,78,79,58,57,77,27,8,8,52,49,8,7,0.9,0.8
2023-02-18T11:00:00,1228A,120.1903,30.2692,杭州市,浙江农大,细颗粒物(PM2.5),72,82,109,52,70,69,37,10,10,56,78,8,7,0.8,0.9
2023-02-18T11:00:00,1230A,120.1197,30.3119,杭州市,和睦小学,细颗粒物(PM2.5),115,133,116,87,77,63,41,18,18,64,78,7,6,0.9,0.8
2023-02-18T11:00:00,1231A,120.3019,30.4183,杭州市,临平镇,细颗粒物(PM2.5),92,130,110,68,62,67,27,14,9,64,65,11,8,1.0,0.8
2023-02-18T11:00:00,1232A,120.2697,30.1819,杭州市,城厢镇,,,81,104,46,60,58,49,15,15,39,62,,9,0.6,0.7
2023-02-18T11:00:00,1233A,120.0883,30.1808,杭州市,云栖,颗粒物(PM10),57,64,84,36,47,71,31,20,11,61,50,7,6,0.9,0.7
2023-02-18T11:00:00,1234A,121.8358,29.911,宁波市,区环保大楼,颗粒物(PM10),54,58,35,29,22,96,17,74,6,78,41,12,6,0.7,0.6
2023-02-18T11:00:00,1235A,121.56,29.82,宁波市,万里学院,,45,36,43,31,30,95,67,48,43,35,36,7,6,0.5,0.5
2023-02-18T11:00:00,1236A,121.713,29.9572,宁波市,龙赛医院,颗粒物(PM10),61,72,52,40,26,76,24,16,16,72,51,9,7,0.6,0.5
2023-02-18T11:00:00,1239A,121.633,29.7733,宁波市,钱湖水厂,,46,34,30,32,21,106,55,64,48,28,15,6,5,0.7,0.6
2023-02-18T11:00:00,1240A,121.5856,29.8635,宁波市,太古小学,,40,29,42,28,31,85,57,42,39,32,34,11,10,0.6,0.5
2023-02-18T11:00:00,1241A,121.524,29.8674,宁波市,市环境监测中心,,45,45,43,22,20,88,39,22,16,48,50,8,6,0.6,0.5
2023-02-18T11:00:00,1242A,120.634,28.0089,温州市,瓯海,颗粒物(PM10),77,103,108,52,54,69,39,9,9,48,63,9,9,0.5,0.7
2023-02-18T11:00:00,1243A,120.6748,27.9939,温州市,南浦,颗粒物(PM10),66,82,94,42,51,55,36,10,10,49,68,8,8,0.6,0.6
2023-02-18T11:00:00,1244A,120.76,27.9747,温州市,龙湾,颗粒物(PM10),79,108,109,54,48,54,25,9,9,68,80,10,10,0.7,0.6
2023-02-18T11:00:00,1245A,120.6709,28.0167,温州市,市站,颗粒物(PM10),72,94,106,49,52,53,38,12,12,57,80,9,8,0.6,0.6
2023-02-18T11:00:00,1247A,120.6053,29.9928,绍兴市,城东开发委,颗粒物(PM10),54,57,84,34,46,100,55,15,15,45,57,5,5,0.6,0.6
2023-02-18T11:00:00,1250A,120.0751,30.8669,湖州市,城西水厂,细颗粒物(PM2.5),132,93,82,100,79,55,27,15,12,85,77,16,12,0.7,0.7
2023-02-18T11:00:00,1252A,120.7436,30.778,嘉兴市,清河小学,细颗粒物(PM2.5),109,111,80,82,54,68,39,11,11,66,60,8,6,0.9,0.8
2023-02-18T11:00:00,1253A,120.726,30.7478,嘉兴市,嘉兴学院,细颗粒物(PM2.5),109,108,77,82,52,72,46,12,12,69,68,8,6,0.8,0.6
2023-02-18T11:00:00,1255A,121.273,28.6459,台州市,黄岩环保大楼,"颗粒物(PM10),细颗粒物(PM2.5)",58,66,67,41,39,105,44,20,20,41,48,10,9,0.6,0.6
2023-02-18T11:00:00,1256A,121.419,28.6542,台州市,台州环保大楼,颗粒物(PM10),58,66,57,40,34,105,42,44,25,45,36,10,9,0.6,0.5
2023-02-18T11:00:00,1257A,121.377,28.5773,台州市,路桥田洋王,细颗粒物(PM2.5),82,99,66,60,41,94,37,48,16,65,44,16,16,0.6,0.5
2023-02-18T11:00:00,1258A,122.122,30.0203,舟山市,定海檀枫,,,23,33,10,14,89,58,52,43,,33,5,5,0.2,0.3
2023-02-18T11:00:00,1259A,122.3094,29.9558,舟山市,普陀东港,,40,21,29,28,18,91,47,56,56,39,24,6,5,0.5,0.5
2023-02-18T11:00:00,1260A,122.19,29.9944,舟山市,临城新区,,25,23,27,17,16,92,70,66,60,29,36,6,6,0.3,0.3
2023-02-18T11:00:00,1262A,119.647,29.077,金华市,十五中,细颗粒物(PM2.5),74,89,81,54,48,101,48,15,15,49,60,9,10,0.7,0.7
2023-02-18T11:00:00,1263A,119.686,29.1029,金华市,监测站,颗粒物(PM10),68,86,74,48,44,106,42,10,10,49,57,8,8,0.7,0.7
2023-02-18T11:00:00,1264A,118.8692,28.9398,衢州市,环保大楼,细颗粒物(PM2.5),87,78,74,64,48,86,47,12,12,40,50,13,8,0.8,0.9
2023-02-18T11:00:00,1265A,118.8709,28.9666,衢州市,实验学校,细颗粒物(PM2.5),83,86,66,61,42,98,32,10,10,46,46,15,7,0.7,0.7
2023-02-18T11:00:00,1266A,118.8621,28.9808,衢州市,衢州学院,细颗粒物(PM2.5),84,86,65,62,42,90,30,8,8,40,42,17,8,0.7,0.7
2023-02-18T11:00:00,1267A,119.914,28.4514,丽水市,监测站大楼,,48,48,48,31,27,94,45,44,15,23,29,10,9,0.5,0.5
2023-02-18T11:00:00,1268A,119.93,28.4586,丽水市,莲都小学,颗粒物(PM10),52,54,45,9,16,106,54,15,15,20,35,8,7,0.4,0.4
2023-02-18T11:00:00,1269A,119.879,28.4231,丽水市,余庄前,颗粒物(PM10),58,65,40,30,26,101,46,17,12,39,23,12,9,0.5,0.3
2023-02-18T11:00:00,1270A,117.1959,31.7848,合肥市,明珠广场,颗粒物(PM10),82,114,105,56,60,66,11,20,9,60,53,13,11,1.2,1.1
2023-02-18T11:00:00,1271A,117.3072,31.8764,合肥市,三里街,细颗粒物(PM2.5),125,153,112,95,79,69,6,4,3,73,59,8,8,1.1,0.9
2023-02-18T11:00:00,1272A,117.2588,31.8707,合肥市,琥珀山庄,颗粒物(PM10),98,145,104,61,58,80,23,13,10,60,57,6,6,1.0,0.9
2023-02-18T11:00:00,1273A,117.1604,31.9052,合肥市,董铺水库,细颗粒物(PM2.5),85,114,109,63,63,72,9,20,10,51,46,5,6,0.8,0.7
2023-02-18T11:00:00,1274A,117.25,31.8571,合肥市,长江中路,细颗粒物(PM2.5),122,156,108,92,81,71,13,10,9,61,51,12,13,1.2,1.1
2023-02-18T11:00:00,1275A,117.266,31.9436,合肥市,庐阳区,细颗粒物(PM2.5),107,158,119,80,67,71,17,7,7,54,57,9,10,0.8,0.8
2023-02-18T11:00:00,1276A,117.336,31.8586,合肥市,瑶海区,细颗粒物(PM2.5),118,183,124,89,78,75,8,5,5,72,54,11,9,1.5,1.1
2023-02-18T11:00:00,1277A,117.3027,31.7964,合肥市,包河区,细颗粒物(PM2.5),107,124,106,80,70,76,17,13,6,61,47,12,12,1.1,0.9
2023-02-18T11:00:00,1278A,117.2776,31.7385,合肥市,滨湖新区,细颗粒物(PM2.5),85,117,101,63,61,77,8,27,16,76,42,12,11,1.0,0.7
2023-02-18T11:00:00,1279A,117.1318,31.8403,合肥市,高新区,细颗粒物(PM2.5),100,135,101,75,66,73,10,28,16,64,49,10,10,1.1,1
2023-02-18T11:00:00,1280A,119.3903,26.0543,福州市,鼓山,,,,,,,,,,,,,,,,
2023-02-18T11:00:00,1282A,119.2681,26.0504,福州市,师大,颗粒物(PM10),52,54,43,33,24,105,57,30,23,21,29,8,5,0.5,0.5
2023-02-18T11:00:00,1283A,119.2984,26.1028,福州市,五四北路,,45,43,43,31,24,103,54,23,23,24,30,4,3,0.6,0.4
2023-02-18T11:00:00,1284A,119.2648,26.0768,福州市,杨桥西路,,48,48,42,29,21,105,60,23,23,16,24,8,4,0.6,0.5
2023-02-18T11:00:00,1285A,119.317,26.0746,福州市,紫阳,,49,49,45,30,23,102,49,22,22,23,30,5,4,0.7,0.6
2023-02-18T11:00:00,1286A,118.1608,24.8169,厦门市,溪东,,,,,,,,,,,,,,,,
2023-02-18T11:00:00,1287A,118.1514,24.4767,厦门市,洪文,细颗粒物(PM2.5),75,79,57,55,36,112,55,56,25,57,36,4,3,0.1,0.1
2023-02-18T11:00:00,1288A,118.0661,24.4444,厦门市,鼓浪屿,细颗粒物(PM2.5),97,106,50,72,30,120,65,64,34,48,36,14,5,0.5,0.3
2023-02-18T11:00:00,1290A,115.8931,28.6843,南昌市,省外办,细颗粒物(PM2.5),83,103,119,61,67,87,35,12,12,51,63,22,11,0.7,0.9
2023-02-18T11:00:00,1291A,115.8886,28.7003,南昌市,省林业公司,细颗粒物(PM2.5),85,90,108,63,64,84,28,9,9,74,77,21,12,1.2,1
2023-02-18T11:00:00,1292A,115.8126,28.7442,南昌市,林科所,"颗粒物(PM10),细颗粒物(PM2.5)",73,95,75,53,45,77,35,45,39,50,38,15,9,1.0,0.8
2023-02-18T11:00:00,1294A,115.8518,28.687,南昌市,建工学校,颗粒物(PM10),70,90,103,48,53,79,46,11,11,38,60,20,6,0.9,0.9
2023-02-18T11:00:00,1295A,115.8921,28.6424,南昌市,象湖,细颗粒物(PM2.5),77,81,95,56,69,86,38,9,9,42,65,25,9,1.0,1.2
2023-02-18T11:00:00,1296A,115.7423,28.7996,南昌市,武术学校,细颗粒物(PM2.5),64,41,39,46,31,92,65,13,13,10,12,11,7,0.4,0.4
2023-02-18T11:00:00,1298A,115.9314,28.6842,南昌市,省站,细颗粒物(PM2.5),85,104,122,63,69,86,40,12,12,38,53,16,8,0.8,0.9
2023-02-18T11:00:00,1299A,116.9862,36.6114,济南市,科干所,细颗粒物(PM2.5),119,139,103,90,62,115,48,72,35,36,37,13,12,0.8,0.8
2023-02-18T11:00:00,1300A,116.9376,36.665,济南市,农科所,细颗粒物(PM2.5),110,149,107,83,60,107,20,32,12,69,66,16,11,0.9,0.8
2023-02-18T11:00:00,1301A,117.1265,36.6734,济南市,开发区,细颗粒物(PM2.5),118,120,98,89,65,114,49,45,29,27,44,15,14,0.7,0.7
2023-02-18T11:00:00,1303A,117.0624,36.6868,济南市,省种子仓库,细颗粒物(PM2.5),132,136,107,100,75,118,50,39,37,27,39,16,15,0.6,0.6
2023-02-18T11:00:00,1304A,116.9489,36.6447,济南市,机床二厂,细颗粒物(PM2.5),132,144,109,100,70,112,33,31,20,44,47,22,16,0.8,0.8
2023-02-18T11:00:00,1305A,117.0495,36.663,济南市,市监测站,细颗粒物(PM2.5),128,134,96,97,71,114,47,77,40,47,48,13,11,0.8,0.7
2023-02-18T11:00:00,1306A,116.7675,36.5484,济南市,长清党校,细颗粒物(PM2.5),129,142,106,98,68,119,47,46,37,42,55,19,14,1.0,0.8
2023-02-18T11:00:00,1307A,120.6659,36.2403,青岛市,仰口,,,,,,,,,,,,,,,,
2023-02-18T11:00:00,1310A,120.4134,36.0658,青岛市,市南区东部子站,,28,22,27,19,17,105,69,77,65,21,23,10,8,0.5,0.5
2023-02-18T11:00:00,1311A,120.3664,36.1032,青岛市,四方区子站,,31,31,35,17,20,90,54,69,56,35,26,4,6,0.5,0.4
2023-02-18T11:00:00,1312A,120.2994,36.054,青岛市,市南区西部子站,,25,24,23,17,13,105,70,80,64,22,24,8,8,0.3,0.3
2023-02-18T11:00:00,1313A,120.4581,36.0858,青岛市,崂山区子站,,24,24,22,12,14,107,71,83,71,15,16,7,7,0.4,0.4
2023-02-18T11:00:00,1314A,120.1983,35.9608,青岛市,黄岛区子站,,41,41,33,24,21,109,64,89,59,32,21,6,5,0.5,0.5
2023-02-18T11:00:00,1315A,120.3999,36.3083,青岛市,城阳区子站,颗粒物(PM10),62,73,47,29,25,116,15,77,40,70,28,6,6,0.6,0.4
2023-02-18T11:00:00,1316A,113.69031,34.76122,郑州市,烟厂,细颗粒物(PM2.5),169,152,93,128,87,105,29,13,13,50,54,12,7,0.7,0.6
2023-02-18T11:00:00,1317A,113.65724,34.77134,郑州市,郑纺机,细颗粒物(PM2.5),169,138,93,128,87,102,30,20,12,54,54,10,5,0.9,0.8
2023-02-18T11:00:00,1318A,113.67526,34.80246,郑州市,银行学校,细颗粒物(PM2.5),170,138,94,129,88,106,27,13,13,45,50,14,7,1.1,1
2023-02-18T11:00:00,1319A,113.56746,34.81334,郑州市,供水公司,细颗粒物(PM2.5),169,139,99,128,88,99,27,8,8,48,57,12,6,1.0,0.9
2023-02-18T11:00:00,1320A,113.7329,34.7178,郑州市,经开区管委,细颗粒物(PM2.5),178,146,110,134,93,101,27,8,8,51,58,15,8,1.0,0.9
2023-02-18T11:00:00,1321A,113.73961,34.77172,郑州市,四十七中,细颗粒物(PM2.5),169,136,100,128,90,95,29,11,11,43,48,11,5,1.0,0.8
2023-02-18T11:00:00,1322A,113.60532,34.74838,郑州市,市监测站,细颗粒物(PM2.5),192,169,123,144,94,100,20,5,5,45,50,14,8,1.1,1
2023-02-18T11:00:00,1323A,113.64164,34.7525,郑州市,河医大,细颗粒物(PM2.5),173,164,101,131,86,100,24,6,6,47,53,,6,1.0,0.9
2023-02-18T11:00:00,1324A,113.51488,34.91089,郑州市,岗李水库,,,,,,,,,,,,,,,,
2023-02-18T11:00:00,1325A,114.3677,30.5584,武汉市,东湖梨园,细颗粒物(PM2.5),83,83,85,61,72,86,20,14,14,58,54,9,12,1.0,1.2
2023-02-18T11:00:00,1326A,114.2529,30.558,武汉市,汉阳月湖,细颗粒物(PM2.5),104,101,96,78,80,72,15,8,8,64,59,9,12,1.1,1.4
2023-02-18T11:00:00,1327A,114.282,30.6189,武汉市,汉口花桥,细颗粒物(PM2.5),83,91,93,61,62,69,19,5,5,51,56,8,11,1.1,1.3
2023-02-18T11:00:00,1328A,114.3025,30.5332,武汉市,武昌紫阳,细颗粒物(PM2.5),98,80,92,73,79,65,14,5,5,63,60,10,16,1.3,1.8
2023-02-18T11:00:00,1329A,114.3646,30.6217,武汉市,青山钢花,细颗粒物(PM2.5),98,103,98,73,75,81,11,7,7,63,61,11,16,1.1,1.3
2023-02-18T11:00:00,1330A,114.1566,30.4825,武汉市,沌口新区,细颗粒物(PM2.5),79,98,91,58,66,67,22,9,7,54,61,10,19,1.1,1.4
2023-02-18T11:00:00,1331A,114.3014,30.5944,武汉市,汉口江滩,细颗粒物(PM2.5),78,103,93,57,65,70,26,20,20,55,56,8,12,1.1,1.2
2023-02-18T11:00:00,1333A,114.135,30.6319,武汉市,吴家山,细颗粒物(PM2.5),98,128,96,73,65,72,16,10,10,67,67,7,10,0.8,1
2023-02-18T11:00:00,1334A,113.8454,30.2917,武汉市,沉湖七壕,颗粒物(PM10),75,100,74,47,45,71,24,10,6,35,41,11,11,1.0,1.1
2023-02-18T11:00:00,1335A,113.0833,28.2325,长沙市,经开区环保局,细颗粒物(PM2.5),95,96,89,71,67,56,8,6,3,63,54,7,5,1.1,1
2023-02-18T11:00:00,1336A,112.8872,28.2189,长沙市,高开区环保局,细颗粒物(PM2.5),89,113,119,66,67,53,16,10,10,62,68,11,11,1.0,1.2
2023-02-18T11:00:00,1337A,113.0792,28.2053,长沙市,马坡岭,细颗粒物(PM2.5),89,100,109,66,77,60,13,3,3,50,51,12,10,0.5,0.9
2023-02-18T11:00:00,1338A,112.9394,28.19,长沙市,湖南师范大学,细颗粒物(PM2.5),94,92,91,70,65,33,8,5,5,63,59,8,7,1.2,1.1
2023-02-18T11:00:00,1339A,113.0178,28.1322,长沙市,雨花区环保局,细颗粒物(PM2.5),83,83,92,61,65,48,20,15,15,51,60,7,6,0.9,0.8
2023-02-18T11:00:00,1340A,112.9792,28.2597,长沙市,伍家岭,细颗粒物(PM2.5),94,99,115,70,66,37,10,6,5,62,57,9,8,1.4,1.3
2023-02-18T11:00:00,1341A,113.0014,28.1944,长沙市,火车新站,细颗粒物(PM2.5),115,115,124,87,94,34,4,5,4,80,75,9,9,1.7,1.7
2023-02-18T11:00:00,1342A,112.9844,28.1178,长沙市,天心区环保局,细颗粒物(PM2.5),85,88,97,63,60,49,10,8,8,60,65,8,7,0.8,0.9
2023-02-18T11:00:00,1343A,112.8908,28.1308,长沙市,湖南中医药大学,细颗粒物(PM2.5),80,92,107,59,70,44,12,2,2,49,56,13,7,1.2,1.4
2023-02-18T11:00:00,1344A,112.9581,28.3611,长沙市,沙坪,细颗粒物(PM2.5),65,72,69,47,49,47,32,37,22,35,40,12,12,0.9,0.9
2023-02-18T11:00:00,1345A,113.2347,23.1423,广州市,广雅中学,颗粒物(PM10),97,144,108,70,58,127,64,13,13,98,94,7,6,1.0,1
2023-02-18T11:00:00,1346A,113.2612,23.105,广州市,市五中,细颗粒物(PM2.5),110,125,101,83,66,146,85,18,18,98,90,,7,1.2,1.2
2023-02-18T11:00:00,1348A,113.3478,23.0916,广州市,广东商学院,细颗粒物(PM2.5),97,142,111,72,54,140,61,13,13,93,87,8,6,1.1,1.1
2023-02-18T11:00:00,1349A,113.4332,23.1047,广州市,市八十六中,颗粒物(PM10),115,180,120,79,55,137,54,14,14,93,83,7,5,1.1,1
2023-02-18T11:00:00,1350A,113.3505,22.9483,广州市,番禺中学,细颗粒物(PM2.5),97,123,92,72,57,161,95,21,21,69,70,19,8,1.3,1.2
2023-02-18T11:00:00,1351A,113.2146,23.3916,广州市,花都师范,细颗粒物(PM2.5),69,83,83,50,51,183,98,49,24,60,57,8,7,0.8,0.8
2023-02-18T11:00:00,1352A,113.2597,23.1331,广州市,市监测站,细颗粒物(PM2.5),88,107,93,65,52,137,82,18,18,89,96,10,8,1.1,1.1
2023-02-18T11:00:00,1353A,113.5618,23.312,广州市,九龙镇镇龙,"颗粒物(PM10),细颗粒物(PM2.5)",63,75,70,45,37,122,75,13,13,42,48,5,5,0.7,0.7
2023-02-18T11:00:00,1354A,113.2765,23.1544,广州市,麓湖,细颗粒物(PM2.5),84,101,75,62,45,147,99,20,20,70,70,7,5,0.9,0.9
2023-02-18T11:00:00,1355A,113.443,23.3035,广州市,帽峰山森林公园,,39,26,42,11,29,154,123,114,88,24,19,8,6,0.9,0.9
2023-02-18T11:00:00,1356A,114.1063,22.5545,深圳市,通心岭子站,颗粒物(PM10),59,67,48,37,27,121,52,71,22,58,32,4,3,0.8,0.7
2023-02-18T11:00:00,1357A,114.117,22.5625,深圳市,洪湖,颗粒物(PM10),78,105,62,41,29,157,60,58,19,64,44,9,8,0.6,0.6
2023-02-18T11:00:00,1358A,113.987,22.5417,深圳市,华侨城,颗粒物(PM10),57,63,71,38,39,190,44,67,30,66,54,7,7,0.8,0.7
2023-02-18T11:00:00,1359A,113.9181,22.5171,深圳市,南海子站,颗粒物(PM10),62,73,78,38,40,176,40,61,39,66,52,5,5,1.0,0.9
2023-02-18T11:00:00,1360A,114.2458,22.5689,深圳市,盐田,,44,44,37,28,21,122,64,78,71,49,33,9,7,0.7,0.7
2023-02-18T11:00:00,1361A,114.2283,22.7244,深圳市,龙岗,颗粒物(PM10),59,68,63,32,34,156,79,70,32,42,38,4,4,0.5,0.6
2023-02-18T11:00:00,1363A,114.494,22.5422,深圳市,南澳,,48,48,38,26,20,161,87,71,60,25,16,8,6,0.6,0.5
2023-02-18T11:00:00,1364A,114.41,22.6342,深圳市,葵涌,颗粒物(PM10),51,52,45,23,23,142,63,50,47,32,21,5,5,0.6,0.5
2023-02-18T11:00:00,1365A,114.297,22.5978,深圳市,梅沙,颗粒物(PM10),58,66,45,30,21,152,23,114,69,75,19,10,5,0.9,0.8
2023-02-18T11:00:00,1366A,114.0678,22.738,深圳市,观澜,颗粒物(PM10),71,92,90,50,44,178,103,28,28,48,56,10,8,0.8,0.8
2023-02-18T11:00:00,1367A,113.5814,22.2618,珠海市,吉大,细颗粒物(PM2.5),67,61,53,48,31,170,76,79,45,56,32,5,4,0.6,0.5
2023-02-18T11:00:00,1368A,113.4881,22.2335,珠海市,前山,颗粒物(PM10),54,58,67,28,30,146,110,21,21,39,57,5,4,0.6,0.6
2023-02-18T11:00:00,1369A,113.628,22.4251,珠海市,唐家,细颗粒物(PM2.5),65,69,56,47,35,224,103,59,34,50,31,8,7,0.5,0.4
2023-02-18T11:00:00,1370A,113.299,22.2281,珠海市,斗门,颗粒物(PM10),59,68,60,34,35,162,113,62,49,32,30,7,4,0.5,0.4
2023-02-18T11:00:00,1371A,113.1294,23.0067,佛山市,湾梁,颗粒物(PM10),106,161,117,61,53,126,45,14,14,149,88,18,10,1.1,1.1
2023-02-18T11:00:00,1372A,113.1083,23.0478,佛山市,华材职中,细颗粒物(PM2.5),112,168,122,84,66,133,44,12,12,153,95,12,9,1.0,0.8
2023-02-18T11:00:00,1373A,113.144,23.0453,佛山市,南海气象局,颗粒物(PM10),101,151,99,73,59,115,15,6,6,174,99,12,10,1.2,1
2023-02-18T11:00:00,1374A,113.2881,22.8094,佛山市,顺德苏岗,细颗粒物(PM2.5),94,101,54,70,39,189,89,19,19,92,60,17,9,0.8,0.7
2023-02-18T11:00:00,1376A,112.8383,22.8678,佛山市,高明孔堂,细颗粒物(PM2.5),112,169,91,84,60,182,65,45,25,103,52,19,10,1.0,0.7
2023-02-18T11:00:00,1377A,112.8836,23.1588,佛山市,三水监测站,细颗粒物(PM2.5),92,112,110,68,66,165,81,33,33,70,72,14,10,0.8,0.9
2023-02-18T11:00:00,1378A,112.867,23.185,佛山市,三水云东海,细颗粒物(PM2.5),92,92,92,68,65,180,96,21,21,57,56,24,10,0.8,0.8
2023-02-18T11:00:00,1379A,113.3769,22.5211,中山市,华柏园,细颗粒物(PM2.5),82,86,55,60,33,149,96,37,37,73,43,9,7,0.6,0.5
2023-02-18T11:00:00,1380A,113.3881,22.5497,中山市,张溪,细颗粒物(PM2.5),107,116,71,80,36,157,111,27,27,63,51,9,5,0.7,0.6
2023-02-18T11:00:00,1381A,113.4075,22.5111,中山市,紫马岭,细颗粒物(PM2.5),84,101,46,62,26,163,98,44,44,62,34,7,5,0.7,0.6
2023-02-18T11:00:00,1382A,113.4411,22.4853,中山市,长江旅游区,细颗粒物(PM2.5),89,93,32,66,24,136,80,44,39,61,18,14,11,0.7,0.5
2023-02-18T11:00:00,1383A,113.1064,22.6058,江门市,北街,细颗粒物(PM2.5),123,118,75,93,47,190,111,70,36,80,58,13,9,1.0,0.9
2023-02-18T11:00:00,1384A,113.0731,22.5835,江门市,西区,,,110,85,72,52,202,125,41,23,57,65,,7,0.8,0.9
2023-02-18T11:00:00,1385A,113.0219,22.5311,江门市,圭峰西,细颗粒物(PM2.5),107,84,63,80,48,204,112,58,58,69,46,9,6,1.2,0.9
2023-02-18T11:00:00,1386A,113.0828,22.5947,江门市,东湖,颗粒物(PM10),91,132,84,58,44,200,121,38,33,63,59,11,7,0.9,1
2023-02-18T11:00:00,1389A,113.7547,23.0494,东莞市,莞城梨川,细颗粒物(PM2.5),68,84,66,49,37,165,124,35,35,42,54,13,11,0.7,0.7
2023-02-18T11:00:00,1390A,113.7944,23.0128,东莞市,东城石井,细颗粒物(PM2.5),70,79,58,51,33,167,135,48,30,42,43,13,9,0.7,0.7
2023-02-18T11:00:00,1391A,113.7383,22.9658,东莞市,南城西平,颗粒物(PM10),67,84,79,38,36,160,120,25,25,45,62,10,9,0.5,0.6
2023-02-18T11:00:00,1392A,114.4183,23.0528,惠州市,河南岸金山湖子站,颗粒物(PM10),62,73,59,42,33,112,57,36,36,31,34,8,5,0.6,0.6
2023-02-18T11:00:00,1393A,114.4053,23.0822,惠州市,下埔横江三路子站,颗粒物(PM10),64,77,58,41,35,128,67,66,48,31,36,9,6,0.8,0.8
2023-02-18T11:00:00,1394A,114.4103,23.1142,惠州市,江北云山西路子站,细颗粒物(PM2.5),67,75,55,48,44,129,62,60,42,32,33,10,6,0.7,0.7
2023-02-18T11:00:00,1395A,114.4645,22.7833,惠州市,惠阳区承修路船湖子站,颗粒物(PM10),53,56,54,32,32,131,74,94,45,28,24,6,6,0.8,0.8
2023-02-18T11:00:00,1396A,114.5317,22.7422,惠州市,大亚湾管委会子站,颗粒物(PM10),76,102,61,34,31,115,16,26,10,71,52,8,6,0.7,0.6
2023-02-18T11:00:00,1397A,112.4267,23.0706,肇庆市,睦岗子站,细颗粒物(PM2.5),79,98,70,58,40,156,72,24,19,52,58,12,11,0.7,0.7
2023-02-18T11:00:00,1398A,112.4645,23.0475,肇庆市,城中子站,细颗粒物(PM2.5),99,114,77,74,50,152,77,19,19,58,65,13,10,0.9,0.8
2023-02-18T11:00:00,1399A,112.5544,23.1522,肇庆市,坑口子站,细颗粒物(PM2.5),94,89,64,70,48,169,107,78,54,36,34,18,10,0.6,0.6
2023-02-18T11:00:00,1400A,112.4753,23.1,肇庆市,七星岩子站,细颗粒物(PM2.5),67,74,63,48,40,163,129,80,76,26,29,22,18,0.6,0.6
2023-02-18T11:00:00,1401A,108.3103,22.7881,南宁市,二十一中,,46,46,54,27,32,128,88,82,80,17,20,8,8,0.8,0.9
2023-02-18T11:00:00,1402A,108.3141,22.8528,南宁市,北湖,,47,47,53,23,34,120,84,84,67,16,21,7,9,0.6,0.8
2023-02-18T11:00:00,1403A,108.3206,22.8225,南宁市,市监测站,颗粒物(PM10),51,51,53,30,35,116,75,85,79,43,36,8,9,0.6,0.7
2023-02-18T11:00:00,1404A,108.3829,22.8037,南宁市,大自然花园,,48,48,49,32,36,119,80,84,79,15,16,6,7,0.6,0.8
2023-02-18T11:00:00,1405A,108.4394,22.7904,南宁市,仙葫,,48,48,56,28,39,115,90,88,68,12,21,8,8,0.5,0.7
2023-02-18T11:00:00,1406A,108.2397,22.8467,南宁市,区农职院,颗粒物(PM10),52,54,52,28,31,118,78,82,55,28,32,9,9,0.6,0.8
2023-02-18T11:00:00,1407A,108.3275,22.735,南宁市,英华嘉园,颗粒物(PM10),55,59,55,37,38,112,66,64,53,26,31,7,7,0.6,0.8
2023-02-18T11:00:00,1408A,108.2257,22.7757,南宁市,沙井镇街道办,颗粒物(PM10),54,58,73,32,35,113,76,34,34,22,46,9,9,0.7,0.8
2023-02-18T11:00:00,1409A,110.576,19.9507,海口市,东寨港,,,36,26,11,13,64,47,28,23,,,5,6,0.6,0.6
2023-02-18T11:00:00,1410A,110.3232,20.0574,海口市,海南大学,,,36,38,18,21,97,69,76,55,,10,6,5,0.6,0.6
2023-02-18T11:00:00,1411A,110.283,20.0053,海口市,秀英海南医院,,,40,40,13,17,100,,59,36,12,22,4,4,,0.6
2023-02-18T11:00:00,1412A,110.338,19.9969,海口市,海南师范大学,,44,44,39,15,18,104,83,74,57,10,13,3,3,0.6,0.7
2023-02-18T11:00:00,1413A,110.33,20.0356,海口市,龙华路环保局宿舍,,45,45,41,19,19,100,80,75,57,15,15,6,6,0.6,0.7
2023-02-18T11:00:00,1414A,106.3787,29.8279,重庆市,缙云山,细颗粒物(PM2.5),52,45,41,36,27,80,48,67,57,21,22,13,7,0.7,0.7
2023-02-18T11:00:00,1416A,106.4213,29.8253,重庆市,天生,细颗粒物(PM2.5),69,64,57,50,37,78,14,32,18,44,34,10,8,1.1,0.9
2023-02-18T11:00:00,1417A,106.6263,29.7228,重庆市,两路,颗粒物(PM10),62,73,49,40,37,52,12,38,20,58,38,4,4,1.2,1
2023-02-18T11:00:00,1418A,106.2953,29.5983,重庆市,虎溪,细颗粒物(PM2.5),67,73,53,48,41,65,45,45,21,21,32,14,7,0.6,0.7
2023-02-18T11:00:00,1419A,106.5777,29.5102,重庆市,南坪,"颗粒物(PM10),细颗粒物(PM2.5)",63,75,58,45,42,52,23,46,39,32,26,13,9,0.9,0.9
2023-02-18T11:00:00,1420A,106.6556,29.6277,重庆市,唐家沱,细颗粒物(PM2.5),65,63,53,47,45,66,22,53,33,46,32,10,9,1.1,1
2023-02-18T11:00:00,1421A,106.6349,29.4906,重庆市,茶园,细颗粒物(PM2.5),72,64,68,52,44,60,39,48,40,28,36,7,8,0.9,1
2023-02-18T11:00:00,1422A,106.3754,29.4572,重庆市,白市驿,细颗粒物(PM2.5),80,78,61,59,42,60,18,52,38,41,37,16,9,0.9,0.8
2023-02-18T11:00:00,1425A,106.6205,29.7166,重庆市,空港,细颗粒物(PM2.5),64,69,51,46,40,71,15,47,28,59,36,5,6,1.1,1
2023-02-18T11:00:00,1426A,106.4782,29.4875,重庆市,新山村,细颗粒物(PM2.5),134,119,67,102,44,54,17,44,32,47,44,8,7,0.7,0.7
2023-02-18T11:00:00,1427A,106.5616,29.6453,重庆市,礼嘉,颗粒物(PM10),77,104,63,48,38,61,23,51,22,48,39,10,8,0.9,0.8
2023-02-18T11:00:00,1428A,106.4522,29.7091,重庆市,蔡家,颗粒物(PM10),65,79,56,46,37,79,30,38,15,39,35,12,6,0.9,0.8
2023-02-18T11:00:00,1429A,106.5093,29.3917,重庆市,鱼新街,"颗粒物(PM10),细颗粒物(PM2.5)",69,87,63,50,46,54,22,47,36,35,30,14,12,1.1,1.1
2023-02-18T11:00:00,1431A,103.9728,30.7236,成都市,金泉两河,细颗粒物(PM2.5),73,67,93,53,73,61,34,22,22,21,33,2,2,0.8,0.8
2023-02-18T11:00:00,1432A,104.176,30.6872,成都市,十里店,细颗粒物(PM2.5),69,59,84,50,72,62,29,16,16,30,32,1,2,1.1,1
2023-02-18T11:00:00,1433A,104.079,30.5706,成都市,三瓦窑,细颗粒物(PM2.5),82,84,82,60,64,70,20,20,20,36,29,3,3,0.8,0.8
2023-02-18T11:00:00,1434A,104.1114,30.63,成都市,沙河铺,"颗粒物(PM10),细颗粒物(PM2.5)",59,67,82,42,66,69,29,24,24,41,37,3,3,0.9,0.9
2023-02-18T11:00:00,1437A,104.0786,30.6531,成都市,君平街,细颗粒物(PM2.5),73,81,90,53,80,69,33,26,26,38,42,2,3,0.9,0.8
2023-02-18T11:00:00,1438A,103.613,31.0283,成都市,灵岩寺,,19,11,50,13,42,55,25,47,25,10,13,6,4,0.8,0.8
2023-02-18T11:00:00,1439A,106.6899,26.5998,贵阳市,马鞍山,,35,24,36,24,31,66,38,66,49,23,17,5,5,0.9,0.9
2023-02-18T11:00:00,1440A,106.6971,26.5694,贵阳市,市环保站,,,,42,,40,34,,31,,,33,,6,,0.6
2023-02-18T11:00:00,1441A,106.6243,26.6266,贵阳市,鉴湖路,,29,29,40,12,27,73,28,73,54,36,15,3,4,0.7,0.6
2023-02-18T11:00:00,1442A,106.7487,26.6343,贵阳市,燕子冲,细颗粒物(PM2.5),52,41,45,36,43,62,12,62,44,45,22,5,7,0.9,0.7
2023-02-18T11:00:00,1443A,106.6555,26.4365,贵阳市,碧云窝,颗粒物(PM10),52,53,46,34,33,75,33,73,57,32,12,8,6,0.7,0.6
2023-02-18T11:00:00,1444A,106.694,26.5161,贵阳市,中院村,颗粒物(PM10),53,56,47,36,33,67,16,65,43,48,22,25,12,1.0,0.7
2023-02-18T11:00:00,1445A,106.7109,26.6027,贵阳市,红边门,细颗粒物(PM2.5),58,44,45,41,41,65,15,61,41,54,32,10,9,1.1,0.9
2023-02-18T11:00:00,1446A,106.7164,26.5699,贵阳市,新华路,,49,34,43,34,35,65,16,63,42,47,20,7,7,1.0,0.7
2023-02-18T11:00:00,1447A,106.674,26.5424,贵阳市,太慈桥,,39,39,47,24,28,68,23,68,47,40,17,4,4,0.9,0.7
2023-02-18T11:00:00,1450A,102.8204,24.8886,昆明市,呈贡新区,,37,37,40,24,30,114,89,68,68,12,16,8,7,0.5,0.6
2023-02-18T11:00:00,1451A,102.6251,24.9608,昆明市,西山森林公园,,32,32,34,19,25,114,94,96,84,13,11,6,7,0.7,0.7
2023-02-18T11:00:00,1452A,102.7252,25.0902,昆明市,龙泉镇,,28,22,51,17,25,103,88,34,34,12,36,7,8,0.6,0.7
2023-02-18T11:00:00,1453A,102.7266,25.0375,昆明市,东风东路,,36,36,39,23,28,102,80,71,64,21,20,11,10,0.7,0.7
2023-02-18T11:00:00,1454A,102.6742,25.0669,昆明市,金鼎山,,31,31,40,20,29,107,93,73,73,12,18,5,7,0.6,0.6
2023-02-18T11:00:00,1455A,102.6644,25.0401,昆明市,碧鸡广场,,,26,35,22,29,106,80,67,67,,24,11,8,0.7,0.5
2023-02-18T11:00:00,1456A,91.1319,29.6514,拉萨市,八廓街,,42,42,36,9,16,90,56,29,29,15,28,12,11,0.4,0.7
2023-02-18T11:00:00,1457A,91.1221,29.6747,拉萨市,市环保局,,49,49,45,24,26,91,45,18,18,26,39,6,7,0.8,1.2
2023-02-18T11:00:00,1458A,91.0874,29.6475,拉萨市,区监测站,,42,42,35,22,20,92,56,18,18,26,25,6,7,1.0,1.1
2023-02-18T11:00:00,1459A,91.1774,29.6541,拉萨市,西藏大学,,31,31,28,10,16,91,59,53,53,13,27,4,5,0.4,0.6
2023-02-18T11:00:00,1460A,90.9798,29.6588,拉萨市,区辐射站,,42,42,32,18,18,86,40,40,35,39,36,7,7,0.8,0.8
2023-02-18T11:00:00,1461A,91.0834,29.6292,拉萨市,拉萨火车站,,47,47,31,17,13,89,45,54,28,27,32,8,8,0.7,0.7
2023-02-18T11:00:00,1462A,108.882,34.2749,西安市,高压开关厂,细颗粒物(PM2.5),100,106,159,75,124,53,39,25,20,35,51,10,10,0.9,1.1
2023-02-18T11:00:00,1463A,108.993,34.2629,西安市,兴庆小区,细颗粒物(PM2.5),130,112,125,99,129,49,23,28,19,44,54,8,7,3.5,1.6
2023-02-18T11:00:00,1464A,109.06,34.2572,西安市,纺织城,细颗粒物(PM2.5),137,136,161,104,135,31,23,9,9,45,66,11,10,1.1,1.3
2023-02-18T11:00:00,1465A,108.9356,34.2173,西安市,小寨,细颗粒物(PM2.5),128,132,156,97,122,44,30,21,21,33,50,10,8,1.0,1.1
2023-02-18T11:00:00,1466A,108.954,34.2713,西安市,市人民体育场,细颗粒物(PM2.5),132,129,130,100,128,45,23,27,18,41,47,11,9,1.1,1.1
2023-02-18T11:00:00,1467A,108.8922,34.2322,西安市,高新西区,细颗粒物(PM2.5),138,121,134,105,123,52,28,26,24,39,52,10,8,1.1,1.2
2023-02-18T11:00:00,1468A,108.935,34.3474,西安市,经开区,细颗粒物(PM2.5),90,110,133,67,130,73,43,26,23,33,50,8,9,0.7,1.1
2023-02-18T11:00:00,1469A,108.906,34.1546,西安市,长安区,细颗粒物(PM2.5),132,137,158,100,127,46,30,16,16,30,51,7,6,1.0,1.2
2023-02-18T11:00:00,1471A,109.2186,34.3731,西安市,临潼区,细颗粒物(PM2.5),117,115,141,88,124,63,34,56,42,28,35,10,10,1.0,1.2
2023-02-18T11:00:00,1472A,108.869,34.378,西安市,草滩,"颗粒物(PM10),细颗粒物(PM2.5)",88,125,150,65,80,68,54,16,16,13,49,16,9,0.0,0.3
2023-02-18T11:00:00,1473A,108.985,34.1978,西安市,曲江文化产业集团,细颗粒物(PM2.5),127,146,155,96,119,44,30,23,22,33,51,7,6,1.3,1.4
2023-02-18T11:00:00,1474A,109.051,34.3213,西安市,广运潭,细颗粒物(PM2.5),113,120,155,85,132,56,26,12,12,36,52,8,9,1.0,1.3
2023-02-18T11:00:00,1476A,103.631,36.1031,兰州市,兰炼宾馆,颗粒物(PM10),74,98,96,28,66,87,85,85,85,22,39,4,18,0.4,1
2023-02-18T11:00:00,1477A,104.1373,35.9454,兰州市,榆中兰大校区,,,,,,,,,,,,,,,,
2023-02-18T11:00:00,1478A,103.8412,36.0726,兰州市,生物制品所,,49,49,78,29,58,87,85,82,82,19,48,4,13,0.5,1.1
2023-02-18T11:00:00,1479A,103.831,36.0464,兰州市,铁路设计院,,,46,96,34,75,86,69,75,75,35,58,3,16,,1.3
2023-02-18T11:00:00,1483A,101.524,36.6867,西宁市,第五水厂,,,,,,,,,,,,,,,,
2023-02-18T11:00:00,1484A,105.9512,38.6016,银川市,贺兰山马莲口,,37,37,56,9,29,112,93,111,104,14,21,8,19,0.3,0.7
2023-02-18T11:00:00,1488A,106.2328,38.4975,银川市,贺兰山东路,颗粒物(PM10),64,77,105,19,59,109,89,102,100,12,32,2,10,0.4,1
2023-02-18T11:00:00,1489A,106.1358,38.5036,银川市,学院路,颗粒物(PM10),61,72,101,14,47,100,84,94,92,10,27,3,12,0.6,1.1
2023-02-18T11:00:00,1490A,87.5801,43.8303,乌鲁木齐市,监测站,细颗粒物(PM2.5),107,113,103,80,68,92,47,35,35,55,77,2,4,1.2,1.3
2023-02-18T11:00:00,1491A,87.6046,43.768,乌鲁木齐市,收费所,细颗粒物(PM2.5),139,153,142,106,82,82,45,16,16,54,79,4,5,1.1,1
2023-02-18T11:00:00,1492A,87.4754,43.9469,乌鲁木齐市,新疆农科院农场,细颗粒物(PM2.5),156,44,98,119,134,116,40,77,47,71,52,8,12,1.7,1.6
2023-02-18T11:00:00,1493A,87.5525,43.8711,乌鲁木齐市,铁路局,细颗粒物(PM2.5),112,105,97,84,79,103,61,61,61,52,75,2,4,1.1,1.1
2023-02-18T11:00:00,1494A,87.6432,43.831,乌鲁木齐市,三十一中学,细颗粒物(PM2.5),139,163,114,106,82,85,58,32,32,36,61,5,7,1.1,1
2023-02-18T11:00:00,1496A,87.7216,44.1747,乌鲁木齐市,米东区环保局,细颗粒物(PM2.5),218,199,163,168,137,129,53,85,65,55,34,10,15,1.2,1.3
2023-02-18T11:00:00,1508A,112.9433,27.8614,湘潭市,板塘,细颗粒物(PM2.5),97,83,86,72,62,70,19,5,5,47,56,27,12,0.7,0.8
2023-02-18T11:00:00,1511A,112.9118,27.8403,湘潭市,市监测站,细颗粒物(PM2.5),85,98,94,63,64,38,26,18,18,44,55,22,13,0.8,1
2023-02-18T11:00:00,1512A,112.8937,27.8728,湘潭市,江麓,细颗粒物(PM2.5),75,73,98,55,69,54,36,10,10,28,48,66,39,1.0,1.1
2023-02-18T11:00:00,1513A,112.9227,27.8159,湘潭市,岳塘,细颗粒物(PM2.5),89,96,92,66,63,79,35,21,21,42,52,18,7,1.4,1.4
2023-02-18T11:00:00,1514A,112.9074,27.9119,湘潭市,科大,,,93,97,66,64,56,24,4,4,44,64,,12,0.5,0.6
2023-02-18T11:00:00,1515A,113.135,27.8244,株洲市,天台山庄,细颗粒物(PM2.5),90,90,98,67,70,87,23,13,13,41,44,16,11,1.2,2
2023-02-18T11:00:00,1518A,113.095,27.8867,株洲市,株冶医院,细颗粒物(PM2.5),87,109,88,64,50,82,15,5,5,59,55,17,13,1.1,1
2023-02-18T11:00:00,1519A,113.167,27.8667,株洲市,市四中,细颗粒物(PM2.5),87,78,83,64,64,77,27,10,10,32,45,20,14,1.1,1.3
2023-02-18T11:00:00,1520A,113.143,27.8381,株洲市,火车站,细颗粒物(PM2.5),93,95,94,69,66,83,21,9,9,41,45,16,10,1.4,1.7
2023-02-18T11:00:00,1524A,113.13,27.8528,株洲市,市监测站,细颗粒物(PM2.5),110,114,100,83,74,88,15,12,12,58,50,22,16,1.6,1.4
2023-02-18T11:00:00,1552A,106.805,26.3003,贵阳市,桐木岭,,,,,,,,,,,,,,,,
2023-02-18T11:00:00,1559A,113.251,27.8336,株洲市,大京风景区,细颗粒物(PM2.5),85,70,53,63,40,82,24,10,10,19,15,12,8,0.9,0.8
2023-02-18T11:00:00,1562A,113.0048,27.9153,湘潭市,昭山,细颗粒物(PM2.5),84,90,78,62,53,65,27,8,8,42,55,14,8,0.7,0.7
2023-02-18T11:00:00,1564A,112.4876,27.9164,湘潭市,韶山,颗粒物(PM10),65,80,62,42,40,51,29,5,5,26,23,17,9,1.2,1.1
2023-02-18T11:00:00,1585A,109.8756,40.6532,包头市,市环境监测站,,40,40,67,20,44,97,79,64,64,6,39,10,21,0.5,0.9
2023-02-18T11:00:00,1587A,109.9991,40.5842,包头市,包头八中,,35,35,88,4,64,101,78,66,66,6,37,16,24,0.6,1
2023-02-18T11:00:00,1588A,109.8538,40.6821,包头市,青山宾馆,,32,32,68,4,51,98,79,62,62,8,45,6,16,0.4,0.9
2023-02-18T11:00:00,1589A,109.8642,40.6288,包头市,惠龙物流,颗粒物(PM10),57,63,79,17,52,101,78,64,64,11,44,6,17,0.6,1.2
2023-02-18T11:00:00,1590A,110.0377,40.5546,包头市,东河鸿龙湾,,23,21,82,14,52,96,71,60,60,6,30,12,13,0.6,1
2023-02-18T11:00:00,1591A,110.0023,39.8129,鄂尔多斯市,综合楼,颗粒物(PM10),133,215,122,36,48,96,82,90,89,12,35,5,11,0.4,0.7
2023-02-18T11:00:00,1592A,109.9486,39.8261,鄂尔多斯市,巴音孟克林场办事处,颗粒物(PM10),128,205,112,34,45,96,83,92,89,9,30,6,10,0.6,0.9
2023-02-18T11:00:00,1593A,109.7736,39.5986,鄂尔多斯市,康泽苑,颗粒物(PM10),137,224,119,31,51,88,82,85,85,14,35,4,7,0.7,1.1
2023-02-18T11:00:00,1594A,109.8119,39.5989,鄂尔多斯市,华泰汽车城,颗粒物(PM10),135,219,118,41,56,95,88,92,91,10,34,7,10,0.4,0.8
2023-02-18T11:00:00,1595A,109.9734,39.7884,鄂尔多斯市,奥林花园,颗粒物(PM10),137,224,134,39,50,95,84,85,84,9,38,6,9,0.6,1
2023-02-18T11:00:00,1597A,122.2703,40.7094,营口市,大庆路,细颗粒物(PM2.5),431,266,153,396,154,95,35,44,40,47,44,12,12,1.6,1.4
2023-02-18T11:00:00,1598A,122.2150,40.6511,营口市,镜湖西路,细颗粒物(PM2.5),308,282,160,258,122,98,41,58,53,33,32,12,11,1.6,1.1
2023-02-18T11:00:00,1599A,122.1658,40.6789,营口市,西炮台,细颗粒物(PM2.5),324,293,146,274,122,89,37,48,42,47,42,13,11,1.7,1.1
2023-02-18T11:00:00,1600A,124.3303,40.0625,丹东市,江湾东路,细颗粒物(PM2.5),84,82,79,62,57,91,75,86,63,21,18,26,16,0.9,1
2023-02-18T11:00:00,1601A,124.4256,40.1503,丹东市,临江后街,细颗粒物(PM2.5),77,78,78,56,54,94,71,82,54,26,23,29,17,0.8,0.9
2023-02-18T11:00:00,1602A,124.3933,40.1461,丹东市,元宝山,细颗粒物(PM2.5),80,85,76,59,52,85,46,85,48,46,22,26,17,1.0,0.8
2023-02-18T11:00:00,1603A,124.3633,40.1092,丹东市,民主桥,,,84,76,58,49,84,60,78,54,,24,22,19,1.0,1.2
2023-02-18T11:00:00,1604A,122.0303,41.1489,盘锦市,开发区,,46,46,110,22,97,77,69,74,50,15,36,8,10,0.6,1
2023-02-18T11:00:00,1605A,122.0485,41.0883,盘锦市,兴隆台,颗粒物(PM10),52,54,121,26,108,76,58,74,45,22,41,12,12,0.8,1.1
2023-02-18T11:00:00,1606A,121.8297,41.1028,盘锦市,新生街道,,36,36,99,20,100,70,70,51,39,16,41,8,9,0.6,1
2023-02-18T11:00:00,1607A,120.9092,40.7136,葫芦岛市,龙港区,细颗粒物(PM2.5),104,129,138,78,127,67,57,62,42,28,32,63,25,1.2,1.4
2023-02-18T11:00:00,1608A,120.8392,40.7514,葫芦岛市,化工街,细颗粒物(PM2.5),138,151,171,105,132,62,62,34,34,28,51,25,19,0.7,1.1
2023-02-18T11:00:00,1609A,120.8341,40.7073,葫芦岛市,新区,细颗粒物(PM2.5),107,111,137,80,129,55,55,42,35,30,42,27,21,1.1,1.4
2023-02-18T11:00:00,1610A,120.8695,40.7677,葫芦岛市,东城区,细颗粒物(PM2.5),84,116,153,62,136,68,60,31,31,21,51,21,22,0.9,1.5
2023-02-18T11:00:00,1611A,118.5819,24.9117,泉州市,涂山街,颗粒物(PM10),63,76,56,40,34,125,74,67,28,32,26,10,10,0.7,0.6
2023-02-18T11:00:00,1612A,118.5972,24.8978,泉州市,津头埔,颗粒物(PM10),64,78,53,43,36,122,71,64,29,37,30,10,10,0.6,0.5
2023-02-18T11:00:00,1613A,118.6663,24.9424,泉州市,万安,"颗粒物(PM10),细颗粒物(PM2.5)",59,68,48,42,32,133,77,64,26,28,25,10,9,0.7,0.6
2023-02-18T11:00:00,1614A,118.6117,24.9604,泉州市,清源山,,,,,,,,,,,,,,,,
2023-02-18T11:00:00,1616A,117.6795,36.229,济南市,技术学院,细颗粒物(PM2.5),128,151,103,97,73,122,28,58,28,64,45,18,11,1.6,0.8
2023-02-18T11:00:00,1618A,118.3429,35.0532,临沂市,沂河小区,细颗粒物(PM2.5),108,107,74,81,60,94,17,49,23,48,30,12,11,1.7,0.9
2023-02-18T11:00:00,1619A,118.295,35.0583,临沂市,鲁南制药厂,细颗粒物(PM2.5),88,117,70,65,51,100,16,47,26,66,40,24,18,1.5,0.6
2023-02-18T11:00:00,1620A,118.2794,34.9976,临沂市,新光毛纺厂,细颗粒物(PM2.5),95,124,76,71,54,96,22,42,28,44,30,12,11,1.3,0.9
2023-02-18T11:00:00,1621A,118.3956,35.0888,临沂市,河东保险公司,细颗粒物(PM2.5),109,107,72,82,54,100,19,50,16,57,39,15,13,1.8,1.1
2023-02-18T11:00:00,1622A,116.3032,37.4674,德州市,儿童乐园,细颗粒物(PM2.5),147,166,114,112,84,105,30,12,12,67,58,22,12,1.1,0.9
2023-02-18T11:00:00,1624A,116.2991,37.4451,德州市,监理站,细颗粒物(PM2.5),185,189,124,139,94,101,28,55,14,71,55,24,14,1.1,0.9
2023-02-18T11:00:00,1625A,115.9848,36.4372,聊城市,区政府,细颗粒物(PM2.5),140,156,106,107,70,117,34,60,38,44,32,18,12,0.8,0.6
2023-02-18T11:00:00,1628A,118.0062,37.3803,滨州市,市环保局,细颗粒物(PM2.5),214,255,158,164,107,120,6,17,2,84,58,45,21,1.7,1
2023-02-18T11:00:00,1629A,118.0018,37.3617,滨州市,第二水厂,细颗粒物(PM2.5),170,224,144,129,93,124,8,20,5,81,57,28,18,1.4,1.1
2023-02-18T11:00:00,1630A,117.9776,37.393,滨州市,北中新校,,,,148,,92,126,,13,2,,58,28,19,1.2,1
2023-02-18T11:00:00,1631A,118.0414,36.8103,淄博市,人民公园,细颗粒物(PM2.5),148,153,122,113,95,117,15,23,22,64,55,25,19,1.1,0.8
2023-02-18T11:00:00,1633A,117.8525,36.4847,淄博市,双山,细颗粒物(PM2.5),135,127,101,103,74,116,38,72,35,49,38,16,13,1.0,0.8
2023-02-18T11:00:00,1634A,117.9592,36.6331,淄博市,气象站,细颗粒物(PM2.5),153,200,117,117,74,116,16,55,32,77,46,32,23,1.3,0.9
2023-02-18T11:00:00,1635A,118.3092,36.8194,淄博市,莆田园,细颗粒物(PM2.5),140,171,116,107,77,125,15,54,24,63,44,30,18,1.3,1.4
2023-02-18T11:00:00,1637A,117.558,34.8438,枣庄市,市中区政府,细颗粒物(PM2.5),113,136,115,85,70,118,22,32,18,53,45,48,23,0.7,0.7
2023-02-18T11:00:00,1638A,117.2852,34.7837,枣庄市,薛城环保局,细颗粒物(PM2.5),117,127,101,88,72,113,26,33,17,43,42,20,17,0.9,0.8
2023-02-18T11:00:00,1639A,117.5852,34.7745,枣庄市,峄城区政府,细颗粒物(PM2.5),92,112,103,68,58,118,25,42,23,46,45,18,16,0.5,0.6
2023-02-18T11:00:00,1640A,117.7276,34.5578,枣庄市,台儿庄区环保局,细颗粒物(PM2.5),119,129,97,90,67,107,18,43,19,50,44,25,14,1.1,0.9
2023-02-18T11:00:00,1641A,117.4518,35.0992,枣庄市,山亭区环保局,细颗粒物(PM2.5),104,110,89,78,59,130,47,56,40,45,40,18,15,1.0,0.9
2023-02-18T11:00:00,1642A,121.2514,37.5639,烟台市,开发区,细颗粒物(PM2.5),58,53,44,41,36,91,36,63,38,46,32,12,11,0.7,0.6
2023-02-18T11:00:00,1643A,121.3719,37.5433,烟台市,轴承厂,细颗粒物(PM2.5),57,34,43,40,34,114,53,97,55,33,18,5,5,0.6,0.5
2023-02-18T11:00:00,1644A,121.3181,37.5436,烟台市,西郊化工站,颗粒物(PM10),69,88,53,46,34,110,29,97,37,64,28,10,7,1.4,0.9
2023-02-18T11:00:00,1645A,121.4478,37.4822,烟台市,莱山环保局,细颗粒物(PM2.5),57,53,48,40,34,107,42,80,54,36,19,10,9,1.1,0.9
2023-02-18T11:00:00,1646A,121.2611,37.4967,烟台市,福山环保局,细颗粒物(PM2.5),73,85,66,53,40,98,26,55,24,55,37,10,9,0.9,0.8
2023-02-18T11:00:00,1650A,119.1437,36.7023,潍坊市,环保局,,,95,78,50,55,110,11,62,28,64,37,,4,0.9,0.8
2023-02-18T11:00:00,1653A,116.6251,35.4302,济宁市,火炬城,细颗粒物(PM2.5),138,118,77,105,72,118,36,52,32,35,31,15,14,1.0,0.7
2023-02-18T11:00:00,1655A,116.5491,35.4042,济宁市,电化厂,细颗粒物(PM2.5),140,141,90,107,74,115,30,53,30,42,33,18,13,1.0,0.7
2023-02-18T11:00:00,1656A,117.1437,36.1937,泰安市,监测站,细颗粒物(PM2.5),142,136,102,108,87,118,24,54,30,48,33,11,12,1.2,0.8
2023-02-18T11:00:00,1657A,117.0885,36.2017,泰安市,人口学校,细颗粒物(PM2.5),124,141,103,94,75,131,20,59,38,57,34,17,19,1.2,1
2023-02-18T11:00:00,1658A,117.1089,36.1758,泰安市,电力学校,细颗粒物(PM2.5),132,139,102,100,78,122,11,43,23,61,42,18,18,1.0,0.9
2023-02-18T11:00:00,1659A,119.471,35.4209,日照市,监测站,颗粒物(PM10),59,68,44,34,25,91,22,68,34,50,27,8,9,0.5,0.5
2023-02-18T11:00:00,1660A,119.523,35.4216,日照市,市政府广场,颗粒物(PM10),60,70,43,29,23,92,27,71,50,39,14,4,5,0.6,0.6
2023-02-18T11:00:00,1661A,119.5587,35.4044,日照市,港务局,,34,34,33,16,20,96,61,69,52,18,20,7,7,0.5,0.5
2023-02-18T11:00:00,1662A,122.1214,37.4236,威海市,华夏技校,,42,31,35,29,27,106,54,76,54,37,21,2,2,0.4,0.3
2023-02-18T11:00:00,1663A,122.0508,37.5236,威海市,山大分校,,46,46,35,24,19,113,40,88,54,47,19,3,3,0.8,0.6
2023-02-18T11:00:00,1664A,122.1067,37.5072,威海市,市监测站,,37,37,36,20,22,112,46,77,45,39,25,6,6,0.6,0.4
2023-02-18T11:00:00,1666A,118.6614,37.4309,东营市,市环保局,细颗粒物(PM2.5),119,156,111,90,77,104,12,65,26,69,39,27,18,1.4,1.1
2023-02-18T11:00:00,1669A,113.5824,24.7733,韶关市,市八中,细颗粒物(PM2.5),78,70,70,57,47,131,44,16,12,26,38,28,17,1.0,1.1
2023-02-18T11:00:00,1671A,113.5917,24.7972,韶关市,园林处,细颗粒物(PM2.5),68,66,63,49,42,138,36,12,12,26,34,22,16,1.1,1
2023-02-18T11:00:00,1672A,113.6735,24.7791,韶关市,韶关学院,细颗粒物(PM2.5),59,47,62,42,50,100,32,9,9,27,32,35,19,0.9,1.2
2023-02-18T11:00:00,1673A,113.5971,24.6863,韶关市,曲江监测站,,,,60,,43,51,,48,,,38,,18,,0.8
2023-02-18T11:00:00,1674A,116.6794,23.3667,汕头市,金平子站,细颗粒物(PM2.5),72,72,43,52,30,125,64,74,58,41,24,21,14,0.8,0.6
2023-02-18T11:00:00,1675A,116.7244,23.3633,汕头市,龙湖子站,颗粒物(PM10),61,71,42,34,27,122,76,80,64,36,24,17,13,0.7,0.6
2023-02-18T11:00:00,1676A,116.7258,23.2775,汕头市,濠江子站,细颗粒物(PM2.5),60,66,42,43,28,121,77,81,61,28,20,13,11,0.7,0.5
2023-02-18T11:00:00,1677A,116.7519,23.4714,汕头市,澄海子站,细颗粒物(PM2.5),72,68,48,52,35,131,79,83,61,35,27,16,9,0.7,0.6
2023-02-18T11:00:00,1678A,116.6092,23.2539,汕头市,潮阳子站,,,,45,,26,123,65,81,63,37,21,12,8,,0.8
2023-02-18T11:00:00,1680A,110.3539,21.2706,湛江市,湛江影剧院,,46,46,42,18,22,131,102,119,98,16,15,6,7,0.5,0.5
2023-02-18T11:00:00,1681A,110.3928,21.2228,湛江市,市环境监测站,,34,33,39,16,22,132,106,119,96,8,13,7,7,0.5,0.5
2023-02-18T11:00:00,1682A,110.4019,21.1997,湛江市,环保局宿舍,,37,37,39,20,24,131,104,114,99,12,12,5,5,0.5,0.5
2023-02-18T11:00:00,1683A,110.4111,21.2028,湛江市,霞山游泳场,,34,30,38,16,23,137,108,112,98,10,11,7,7,0.6,0.6
2023-02-18T11:00:00,1684A,110.3316,21.2679,湛江市,麻章区环保局,,41,41,42,18,24,134,102,121,97,13,14,7,7,0.5,0.6
2023-02-18T11:00:00,1685A,110.4558,21.2567,湛江市,坡头区环保局,,35,35,38,18,25,130,103,108,95,7,11,6,7,0.5,0.6
2023-02-18T11:00:00,1686A,111.0286,21.4688,茂名市,电白南海,,46,46,51,17,24,150,107,108,90,12,18,9,7,0.5,0.5
2023-02-18T11:00:00,1687A,110.9294,21.6533,茂名市,茂石化七小,颗粒物(PM10),56,61,50,31,31,151,102,119,95,8,13,8,7,0.4,0.5
2023-02-18T11:00:00,1688A,110.9107,21.6687,茂名市,健康路,,48,48,47,20,24,143,96,119,90,9,14,13,14,0.5,0.5
2023-02-18T11:00:00,1689A,110.8592,21.6828,茂名市,高岭,颗粒物(PM10),62,73,56,41,33,149,97,122,80,16,20,18,16,0.4,0.5
2023-02-18T11:00:00,1690A,116.1231,24.3284,梅州市,梅江月梅,颗粒物(PM10),54,57,51,28,30,125,54,18,18,22,33,9,9,0.7,0.6
2023-02-18T11:00:00,1691A,116.0797,24.2719,梅州市,梅县新城,颗粒物(PM10),60,69,58,34,37,127,48,26,26,36,38,16,9,0.7,0.7
2023-02-18T11:00:00,1692A,116.1248,24.2654,梅州市,环境监控中心,颗粒物(PM10),57,64,54,37,34,134,50,29,29,35,39,13,12,0.6,0.7
2023-02-18T11:00:00,1693A,115.3653,22.775,汕尾市,市环保局,细颗粒物(PM2.5),64,65,46,46,32,128,65,87,62,22,14,10,9,0.8,0.7
2023-02-18T11:00:00,1694A,115.3706,22.7898,汕尾市,市政府,颗粒物(PM10),52,54,41,34,31,131,67,89,57,25,21,11,10,0.7,0.5
2023-02-18T11:00:00,1695A,115.3622,22.7925,汕尾市,新城中学,颗粒物(PM10),60,70,52,40,31,123,61,78,56,19,16,8,7,0.6,0.5
2023-02-18T11:00:00,1696A,114.6778,23.7569,河源市,源西,,35,35,40,21,22,126,77,23,23,20,42,8,6,0.7,0.8
2023-02-18T11:00:00,1697A,114.6944,23.7586,河源市,东埔,,48,48,46,23,24,120,74,24,24,19,34,9,6,0.7,0.8
2023-02-18T11:00:00,1698A,114.6892,23.7233,河源市,老城,,48,48,49,24,22,120,62,21,21,21,28,10,6,0.9,0.7
2023-02-18T11:00:00,1699A,111.9797,21.8593,阳江市,鸳鸯湖,颗粒物(PM10),72,94,48,31,33,148,106,120,55,17,21,10,8,0.7,0.7
2023-02-18T11:00:00,1701A,111.9491,21.8658,阳江市,马南垌,颗粒物(PM10),58,65,62,28,30,151,109,75,40,22,28,8,7,0.5,0.6
2023-02-18T11:00:00,1702A,113.0426,23.691,清远市,环保大楼,细颗粒物(PM2.5),58,45,59,41,51,176,77,52,42,38,48,8,5,0.6,0.7
2023-02-18T11:00:00,1703A,113.0208,23.7106,清远市,凤城街办,细颗粒物(PM2.5),59,61,68,42,41,138,64,44,38,36,37,9,7,0.7,0.8
2023-02-18T11:00:00,1705A,116.6367,23.6719,潮州市,西园路,细颗粒物(PM2.5),80,77,59,59,47,131,70,34,34,21,17,7,5,0.9,0.7
2023-02-18T11:00:00,1706A,116.6447,23.6706,潮州市,档案局,细颗粒物(PM2.5),73,90,58,53,48,136,71,33,33,25,27,10,10,0.7,0.7
2023-02-18T11:00:00,1708A,116.3701,23.5345,揭阳市,新兴,细颗粒物(PM2.5),74,82,62,54,47,144,76,61,47,25,24,16,14,0.7,0.7
2023-02-18T11:00:00,1709A,116.3264,23.5443,揭阳市,西马,细颗粒物(PM2.5),97,92,68,72,48,137,82,59,48,28,24,26,15,0.9,0.7
2023-02-18T11:00:00,1710A,116.3611,23.5626,揭阳市,东兴,,,,70,,47,161,83,51,50,,32,20,16,0.8,0.7
2023-02-18T11:00:00,1711A,116.4151,23.5294,揭阳市,渔湖,细颗粒物(PM2.5),69,61,60,50,39,132,78,61,49,22,26,19,14,0.6,0.6
2023-02-18T11:00:00,1712A,112.0392,22.9169,云浮市,新市府,细颗粒物(PM2.5),77,66,46,56,40,144,101,52,44,26,18,11,4,1.0,0.8
2023-02-18T11:00:00,1714A,112.0539,22.9539,云浮市,牧羊,细颗粒物(PM2.5),105,140,86,79,48,140,69,18,18,59,45,25,14,0.6,0.6
2023-02-18T11:00:00,1715A,102.575,24.3711,玉溪市,东风水库,,,48,37,27,26,103,,57,35,20,13,6,6,1.0,0.9
2023-02-18T11:00:00,1718A,115.4208,35.2464,菏泽市,气象局,细颗粒物(PM2.5),159,168,101,121,72,114,43,56,38,66,48,28,12,0.8,0.7
2023-02-18T11:00:00,1719A,115.4747,35.2375,菏泽市,市政协,细颗粒物(PM2.5),160,174,111,122,74,114,33,44,42,53,39,34,12,0.9,0.7
2023-02-18T11:00:00,1721A,113.3819,40.1097,大同市,果树场,,,,,,,,,,,,,,,,
2023-02-18T11:00:00,1723A,113.2994,40.0758,大同市,云冈宾馆,,36,36,79,22,45,92,72,32,32,16,50,13,14,0.4,0.8
2023-02-18T11:00:00,1724A,113.3444,40.0917,大同市,大同大学,颗粒物(PM10),65,80,76,23,42,91,61,25,24,59,49,11,12,0.5,0.7
2023-02-18T11:00:00,1725A,113.2661,40.1269,大同市,安家小村,细颗粒物(PM2.5),62,65,88,44,49,90,70,38,38,6,40,10,16,0.3,0.8
2023-02-18T11:00:00,1726A,113.2711,40.0844,大同市,教育学院,颗粒物(PM10),69,87,94,29,47,77,63,27,27,16,53,10,14,0.3,0.6
2023-02-18T11:00:00,1727A,113.1147,36.1547,长治市,清华站,细颗粒物(PM2.5),119,92,84,90,79,68,54,56,54,22,24,9,8,1.1,1.3
2023-02-18T11:00:00,1728A,113.1031,36.1989,长治市,监测站,细颗粒物(PM2.5),119,82,82,90,82,66,49,54,51,23,25,6,6,1.3,1.5
2023-02-18T11:00:00,1730A,113.0886,36.2125,长治市,审计局,细颗粒物(PM2.5),132,87,83,100,89,71,51,55,52,20,23,9,8,1.1,1.2
2023-02-18T11:00:00,1731A,113.0844,36.1856,长治市,长治八中,细颗粒物(PM2.5),107,101,93,80,69,77,58,62,57,20,23,7,5,1.0,1.2
2023-02-18T11:00:00,1733A,111.5531,36.0783,临汾市,临钢医院,细颗粒物(PM2.5),169,180,125,128,90,63,26,8,8,43,43,19,5,2.3,1.4
2023-02-18T11:00:00,1734A,111.5028,36.0714,临汾市,技工学校,细颗粒物(PM2.5),186,179,125,140,94,56,29,9,9,34,41,24,11,1.8,1.1
2023-02-18T11:00:00,1736A,111.5018,36.0855,临汾市,市委,细颗粒物(PM2.5),173,179,133,131,93,65,34,12,12,38,43,18,4,2.0,1.4
2023-02-18T11:00:00,1738A,113.5758,37.8572,阳泉市,市中心,细颗粒物(PM2.5),241,253,227,191,172,80,33,51,14,46,49,27,19,1.7,1.7
2023-02-18T11:00:00,1739A,113.4894,37.8731,阳泉市,赛鱼,细颗粒物(PM2.5),242,230,207,192,170,87,43,51,19,49,52,26,17,1.8,1.6
2023-02-18T11:00:00,1740A,113.5819,37.8486,阳泉市,南庄,细颗粒物(PM2.5),205,245,232,155,160,80,34,54,18,50,49,26,19,2.0,1.8
2023-02-18T11:00:00,1742A,113.5614,37.8703,阳泉市,平坦,细颗粒物(PM2.5),249,262,231,199,180,85,41,64,20,49,50,24,17,1.8,1.7
2023-02-18T11:00:00,1743A,113.5158,37.8392,阳泉市,大阳泉,细颗粒物(PM2.5),178,174,208,134,153,87,56,67,44,36,42,18,12,1.5,1.5
2023-02-18T11:00:00,1744A,118.9233,42.2816,赤峰市,松山一中,,34,34,87,19,44,65,54,50,50,30,42,12,23,0.7,1
2023-02-18T11:00:00,1745A,118.9576,42.2728,赤峰市,哈达街,,43,43,87,11,48,76,57,46,46,27,45,18,39,0.6,1
2023-02-18T11:00:00,1746A,118.8788,42.2554,赤峰市,天义路,,40,40,66,7,34,89,57,58,52,25,34,15,20,0.6,0.8
2023-02-18T11:00:00,1748A,123.044,41.1196,鞍山市,深沟寺,细颗粒物(PM2.5),279,259,145,229,119,91,28,89,48,57,33,20,14,1.6,1.2
2023-02-18T11:00:00,1749A,123.011,41.0931,鞍山市,太阳城,细颗粒物(PM2.5),263,257,158,213,122,109,28,101,58,51,34,21,15,1.5,1.2
2023-02-18T11:00:00,1750A,123.0485,41.1442,鞍山市,太平,细颗粒物(PM2.5),293,289,160,243,126,87,23,84,43,63,42,21,18,1.9,1.5
2023-02-18T11:00:00,1751A,122.9642,41.0971,鞍山市,铁西三道街,细颗粒物(PM2.5),273,286,183,223,134,78,22,73,35,56,50,21,23,1.6,1.8
2023-02-18T11:00:00,1752A,122.9341,41.0833,鞍山市,铁西工业园区,细颗粒物(PM2.5),334,343,183,284,142,98,13,83,39,70,47,48,23,4.5,1.9
2023-02-18T11:00:00,1753A,123.022,41.0821,鞍山市,明达新区,细颗粒物(PM2.5),248,231,146,198,116,110,26,101,57,62,35,25,14,1.7,1.4
2023-02-18T11:00:00,1754A,123.1289,41.0228,鞍山市,千山,,,,,,,,,,,,,,,,
2023-02-18T11:00:00,1755A,123.7977,41.8491,抚顺市,望花区,细颗粒物(PM2.5),113,107,138,85,115,76,43,71,40,24,32,16,20,0.8,1.3
2023-02-18T11:00:00,1756A,123.9161,41.8822,抚顺市,顺城区,细颗粒物(PM2.5),180,184,140,136,105,81,21,21,21,59,56,9,13,1.2,1.2
2023-02-18T11:00:00,1757A,124.0436,41.8611,抚顺市,东洲区,细颗粒物(PM2.5),229,197,134,179,107,94,22,88,37,53,33,13,14,1.6,1.2
2023-02-18T11:00:00,1758A,123.9247,41.8642,抚顺市,新抚区,细颗粒物(PM2.5),238,202,149,188,133,74,11,54,27,66,45,8,12,1.4,1.2
2023-02-18T11:00:00,1759A,124.0972,41.8961,抚顺市,大伙房水库,细颗粒物(PM2.5),236,230,131,186,108,99,21,91,39,60,35,7,9,1.7,1.1
2023-02-18T11:00:00,1760A,123.7086,41.8391,抚顺市,沈抚新城,细颗粒物(PM2.5),75,58,140,55,111,87,64,68,34,24,49,11,18,0.6,1.3
2023-02-18T11:00:00,1761A,123.8275,41.3064,本溪市,大峪,细颗粒物(PM2.5),162,149,111,123,87,97,41,78,60,81,53,18,13,1.7,1.1
2023-02-18T11:00:00,1762A,123.7567,41.3325,本溪市,溪湖,细颗粒物(PM2.5),163,150,118,124,95,87,53,87,59,36,33,25,22,1.5,1.4
2023-02-18T11:00:00,1763A,123.7169,41.3094,本溪市,彩屯,细颗粒物(PM2.5),172,170,153,130,113,76,40,53,50,48,56,23,47,1.4,2.8
2023-02-18T11:00:00,1764A,123.7669,41.2864,本溪市,东明,细颗粒物(PM2.5),148,129,81,113,84,86,48,81,61,47,44,23,53,1.5,1
2023-02-18T11:00:00,1765A,123.7992,41.2664,本溪市,新立屯,细颗粒物(PM2.5),163,142,98,124,88,100,51,100,78,49,30,15,9,1.3,0.7
2023-02-18T11:00:00,1766A,123.8142,41.3472,本溪市,威宁,细颗粒物(PM2.5),173,175,124,131,96,76,44,52,30,47,44,9,9,1.4,1
2023-02-18T11:00:00,1767A,121.1115,41.0879,锦州市,南山,细颗粒物(PM2.5),52,41,120,36,147,72,72,30,30,26,65,16,22,0.7,1.3
2023-02-18T11:00:00,1768A,121.0533,40.8434,锦州市,开发区,"颗粒物(PM10),细颗粒物(PM2.5)",65,79,116,47,137,71,71,34,30,14,57,20,20,0.7,1.2
2023-02-18T11:00:00,1769A,121.1836,41.1119,锦州市,百股街道,颗粒物(PM10),76,102,172,38,140,68,68,35,29,26,62,16,29,1.0,1.6
2023-02-18T11:00:00,1770A,121.1178,41.1222,锦州市,天安街道,,,,145,31,145,69,69,33,33,25,61,18,29,0.8,1.5
2023-02-18T11:00:00,1771A,121.1303,41.1386,锦州市,北湖公园,颗粒物(PM10),58,65,126,32,147,68,68,33,33,24,63,19,30,0.8,1.5
2023-02-18T11:00:00,1772A,126.54,43.8622,吉林市,哈达湾,,42,42,70,26,49,86,73,68,68,21,26,25,13,0.8,0.8
2023-02-18T11:00:00,1773A,126.5844,43.8358,吉林市,东局子,细颗粒物(PM2.5),60,66,83,43,61,78,60,60,60,28,29,37,14,1.2,0.9
2023-02-18T11:00:00,1774A,126.5052,43.8245,吉林市,电力学院,,33,32,95,23,75,86,74,67,67,17,29,21,15,0.5,1.1
2023-02-18T11:00:00,1775A,126.6133,43.8972,吉林市,江北,,32,31,86,22,64,85,80,66,66,15,34,16,14,0.8,0.9
2023-02-18T11:00:00,1776A,126.555,43.8306,吉林市,江南公园,,43,42,80,30,65,80,63,65,65,30,29,26,12,1.1,0.8
2023-02-18T11:00:00,1778A,126.7061,43.7133,吉林市,丰满,,,,,,,,,,,,,,,,
2023-02-18T11:00:00,1779A,123.9305,47.3636,齐齐哈尔市,安居小区,,32,32,25,18,21,94,89,84,84,5,10,6,6,0.3,0.3
2023-02-18T11:00:00,1780A,123.9488,47.3386,齐齐哈尔市,中心广场,,24,14,24,4,9,86,74,80,75,12,12,5,6,0.4,0.4
2023-02-18T11:00:00,1781A,123.9483,47.3227,齐齐哈尔市,农牧车辆厂,,31,31,26,13,16,79,66,70,65,20,15,6,5,0.3,0.3
2023-02-18T11:00:00,1783A,123.945,47.2988,齐齐哈尔市,市环境监测站,,29,29,27,20,22,92,79,82,73,14,16,14,10,0.5,0.4
2023-02-18T11:00:00,1784A,129.61,44.561,牡丹江市,环保大楼,,43,20,68,30,50,91,77,34,34,14,36,8,8,0.4,0.8
2023-02-18T11:00:00,1785A,129.6115,44.5782,牡丹江市,文化广场,细颗粒物(PM2.5),64,59,75,46,51,84,67,29,29,17,42,12,11,0.6,1
2023-02-18T11:00:00,1786A,129.5904,44.5963,牡丹江市,第一医院,,,63,70,49,55,93,,37,21,,34,5,5,0.8,1.1
2023-02-18T11:00:00,1787A,129.6364,44.6075,牡丹江市,机车工厂,细颗粒物(PM2.5),57,41,84,40,55,89,71,25,25,14,36,1,8,0.6,1
2023-02-18T11:00:00,1788A,129.6386,44.5462,牡丹江市,第一中学,细颗粒物(PM2.5),55,45,63,39,47,92,75,46,45,14,30,7,5,0.7,0.9
2023-02-18T11:00:00,1789A,124.81117,46.03138,大庆市,大同区,,26,20,44,18,34,88,70,60,60,8,17,6,8,0.4,0.6
2023-02-18T11:00:00,1790A,125.129,46.533,大庆市,龙凤区,,23,23,34,10,23,74,63,58,58,16,22,16,15,0.5,0.6
2023-02-18T11:00:00,1791A,124.902,46.408,大庆市,红岗区,,25,12,30,6,22,93,79,71,70,7,18,9,9,0.3,0.4
2023-02-18T11:00:00,1792A,125.153,46.586,大庆市,萨尔图区,,38,21,33,26,28,75,68,66,64,12,21,8,12,0.1,0.2
2023-02-18T11:00:00,1793A,124.9042,46.6215,大庆市,让胡路区,,,23,33,23,22,98,80,79,74,,18,5,7,0.3,0.2
2023-02-18T11:00:00,1794A,118.3606,31.3519,芜湖市,监测站,细颗粒物(PM2.5),168,185,117,127,95,51,5,10,5,95,69,13,9,1.0,0.8
2023-02-18T11:00:00,1795A,118.3714,31.4134,芜湖市,科创中心,细颗粒物(PM2.5),175,200,127,132,95,48,5,14,6,81,59,12,8,1.1,0.7
2023-02-18T11:00:00,1796A,118.3673,31.3131,芜湖市,四水厂,细颗粒物(PM2.5),166,178,127,126,90,54,5,11,7,89,58,16,11,0.9,0.6
2023-02-18T11:00:00,1798A,118.5092,31.6837,马鞍山市,湖东路四小,细颗粒物(PM2.5),170,160,80,129,83,60,6,17,8,90,56,18,10,1.5,0.9
2023-02-18T11:00:00,1799A,118.5024,31.6449,马鞍山市,开发区,细颗粒物(PM2.5),162,122,88,123,89,60,10,9,6,74,55,14,10,1.6,1.2
2023-02-18T11:00:00,1800A,118.5228,31.7231,马鞍山市,慈湖,细颗粒物(PM2.5),175,155,99,132,87,53,10,29,8,83,55,24,13,1.8,1.1
2023-02-18T11:00:00,1802A,118.6245,31.7241,马鞍山市,濮塘,细颗粒物(PM2.5),109,132,95,82,58,70,14,26,14,55,39,8,6,1.1,0.9
2023-02-18T11:00:00,1803A,115.9872,29.6815,九江市,十里,颗粒物(PM10),73,96,86,50,54,57,14,24,8,71,60,14,12,1.4,1.2
2023-02-18T11:00:00,1804A,115.9584,29.7046,九江市,茅山头,细颗粒物(PM2.5),73,79,83,53,56,64,6,6,4,50,61,15,14,1.3,1.3
2023-02-18T11:00:00,1805A,115.9877,29.7295,九江市,西园,细颗粒物(PM2.5),93,89,84,69,65,40,16,25,10,69,66,14,14,0.7,1
2023-02-18T11:00:00,1806A,116.0172,29.6547,九江市,五七二七厂,细颗粒物(PM2.5),74,73,69,54,49,67,52,44,44,39,39,14,9,1.1,1.2
2023-02-18T11:00:00,1808A,115.9114,29.6038,九江市,综合工业园,细颗粒物(PM2.5),100,87,78,75,59,65,13,17,17,65,59,12,11,1.2,1.1
2023-02-18T11:00:00,1809A,116.0721,29.7535,九江市,石化总厂,细颗粒物(PM2.5),80,94,80,59,51,79,15,20,7,63,57,19,16,1.2,1
2023-02-18T11:00:00,1810A,115.9773,29.5698,九江市,庐山气象台,,32,28,23,22,20,95,84,90,89,12,11,7,7,0.2,0.2
2023-02-18T11:00:00,1812A,112.3931,34.6516,洛阳市,市委党校,细颗粒物(PM2.5),153,159,127,117,86,93,59,31,28,24,43,11,10,0.9,0.8
2023-02-18T11:00:00,1814A,112.4657,34.6871,洛阳市,豫西宾馆,细颗粒物(PM2.5),158,140,122,120,92,87,54,33,21,23,38,8,7,1.0,0.9
2023-02-18T11:00:00,1815A,112.494,34.6886,洛阳市,河南林校,细颗粒物(PM2.5),155,150,116,118,91,91,54,37,20,30,45,10,7,1.0,0.9
2023-02-18T11:00:00,1816A,112.3844,34.623,洛阳市,开发区管委会,细颗粒物(PM2.5),160,146,119,122,92,105,67,36,36,24,40,11,8,0.7,0.6
2023-02-18T11:00:00,1817A,112.4267,34.6258,洛阳市,市委新办公区,,,,118,,110,59,,54,,,45,,7,,0.8
2023-02-18T11:00:00,1818A,114.4839,36.0621,安阳市,棉研所,,,,,,,,,,,,,,,,
2023-02-18T11:00:00,1819A,114.3551,36.1017,安阳市,红庙街,细颗粒物(PM2.5),341,330,176,291,157,94,39,30,23,67,51,22,11,3.1,1.4
2023-02-18T11:00:00,1820A,114.361,36.0681,安阳市,银杏小区,细颗粒物(PM2.5),319,269,152,269,153,97,37,32,23,51,39,27,11,2.6,1.3
2023-02-18T11:00:00,1824A,114.3389,34.7781,开封市,肿瘤医院,细颗粒物(PM2.5),186,191,125,140,86,106,21,8,8,40,41,10,7,1.0,0.7
2023-02-18T11:00:00,1826A,114.2885,34.7965,开封市,世纪星幼儿园,细颗粒物(PM2.5),205,182,101,155,90,106,16,9,9,45,47,15,9,1.2,0.8
2023-02-18T11:00:00,1828A,113.227,35.2125,焦作市,市环保局,细颗粒物(PM2.5),138,168,121,105,82,86,52,54,36,30,33,15,13,1.0,1.1
2023-02-18T11:00:00,1830A,113.1992,35.2590,焦作市,影视城,,,,,,,,,,,,,,,,
2023-02-18T11:00:00,1832A,113.3257,33.742,平顶山市,新华旅馆,细颗粒物(PM2.5),147,144,133,112,96,101,57,28,24,25,42,23,12,1.0,0.9
2023-02-18T11:00:00,1833A,113.2919,33.737,平顶山市,规划设计院,细颗粒物(PM2.5),158,161,138,120,105,108,47,18,18,40,53,17,7,1.0,1.1
2023-02-18T11:00:00,1834A,113.182,33.774,平顶山市,平顶山工学院,细颗粒物(PM2.5),160,181,147,122,102,99,48,37,26,26,31,26,18,0.8,0.8
2023-02-18T11:00:00,1835A,111.1922,34.7752,三门峡市,市政府,细颗粒物(PM2.5),202,156,105,152,123,78,18,55,13,56,42,19,13,1.2,0.9
2023-02-18T11:00:00,1836A,111.1587,34.7942,三门峡市,开发区,细颗粒物(PM2.5),189,190,154,142,119,81,24,53,16,45,36,13,14,1.1,0.9
2023-02-18T11:00:00,1838A,111.143,34.7955,三门峡市,风景区,,,,,,,,,,,,,,,,
2023-02-18T11:00:00,1840A,111.2992,30.6981,宜昌市,白龙岗,细颗粒物(PM2.5),144,129,134,110,115,59,11,16,12,41,46,6,6,1.0,1
2023-02-18T11:00:00,1841A,111.3549,30.6465,宜昌市,伍家岗,细颗粒物(PM2.5),140,139,138,107,117,69,8,13,13,53,44,12,10,1.0,0.9
2023-02-18T11:00:00,1842A,111.2628,30.6961,宜昌市,点军区,细颗粒物(PM2.5),149,140,139,114,122,60,4,7,4,32,39,5,5,0.9,1
2023-02-18T11:00:00,1843A,111.3275,30.7819,宜昌市,夷陵区,细颗粒物(PM2.5),147,106,104,112,114,49,8,20,8,48,44,8,7,1.3,0.9
2023-02-18T11:00:00,1844A,112.2494,30.3197,荆州市,市图书馆,细颗粒物(PM2.5),130,87,93,99,91,83,31,17,17,29,35,5,8,0.9,0.9
2023-02-18T11:00:00,1845A,112.2008,30.3544,荆州市,市委党校,细颗粒物(PM2.5),133,99,88,101,88,81,27,14,14,28,31,6,8,0.8,0.8
2023-02-18T11:00:00,1847A,113.1094,29.3578,岳阳市,南湖风景区,细颗粒物(PM2.5),79,74,72,58,59,61,12,10,9,37,41,13,11,1.3,1.3
2023-02-18T11:00:00,1848A,113.1493,29.4251,岳阳市,城陵矶,细颗粒物(PM2.5),65,76,82,47,49,66,9,8,8,47,58,8,10,1.0,0.9
2023-02-18T11:00:00,1849A,113.1497,29.3575,岳阳市,开发区,,,84,81,67,67,66,,4,4,44,43,18,12,1.3,1.1
2023-02-18T11:00:00,1850A,113.2621,29.4758,岳阳市,云溪区,细颗粒物(PM2.5),72,78,62,52,42,68,15,29,13,28,26,8,9,1.0,0.9
2023-02-18T11:00:00,1851A,112.9943,29.4402,岳阳市,君山区,细颗粒物(PM2.5),75,57,72,55,60,66,12,6,6,28,45,7,9,0.8,0.8
2023-02-18T11:00:00,1852A,113.2117,29.355,岳阳市,金凤水库,细颗粒物(PM2.5),68,71,58,49,43,65,7,38,14,40,30,14,14,1.0,0.8
2023-02-18T11:00:00,1854A,111.6975,28.9703,常德市,市二中,细颗粒物(PM2.5),119,121,102,90,76,65,29,30,9,23,34,7,7,1.2,1.2
2023-02-18T11:00:00,1857A,111.7158,29.1456,常德市,白鹤山,细颗粒物(PM2.5),94,112,87,70,52,68,32,44,34,17,17,4,6,0.9,0.8
2023-02-18T11:00:00,1858A,110.5319,29.1217,张家界市,永定新区,细颗粒物(PM2.5),97,107,95,72,60,63,5,8,6,37,31,5,4,1.0,0.9
2023-02-18T11:00:00,1859A,110.4697,29.1242,张家界市,电业局,细颗粒物(PM2.5),88,114,90,65,60,61,5,5,4,35,38,6,5,1.3,1.1
2023-02-18T11:00:00,1860A,110.5594,29.3547,张家界市,未央路,细颗粒物(PM2.5),65,61,58,47,38,71,35,18,18,21,18,5,5,1.0,0.9
2023-02-18T11:00:00,1861A,110.4417,29.315,张家界市,袁家界,,18,16,40,12,33,76,47,73,52,13,9,6,7,1.0,0.9
2023-02-18T11:00:00,1862A,110.4144,25.3167,桂林市,电子科大尧山校区,细颗粒物(PM2.5),79,82,65,58,48,91,36,35,25,15,18,7,6,0.9,0.8
2023-02-18T11:00:00,1863A,110.2819,25.2697,桂林市,监测站,细颗粒物(PM2.5),149,143,121,114,90,63,6,6,4,58,49,30,10,1.7,1.4
2023-02-18T11:00:00,1864A,110.3089,25.2708,桂林市,龙隐路小学,细颗粒物(PM2.5),139,132,97,106,85,74,13,9,7,57,44,33,11,1.2,1
2023-02-18T11:00:00,1865A,110.2869,25.2178,桂林市,八中,细颗粒物(PM2.5),158,135,101,120,83,57,6,4,3,64,51,34,11,1.4,1
2023-02-18T11:00:00,1866A,109.2262,21.588,北海市,牛尾岭水库,,44,44,54,29,45,173,98,66,66,8,18,9,20,0.3,0.8
2023-02-18T11:00:00,1867A,109.1436,21.4086,北海市,海滩公园,,47,47,47,22,24,149,114,114,98,8,13,12,7,0.5,0.6
2023-02-18T11:00:00,1868A,109.0981,21.4661,北海市,新市环保局,,39,39,44,17,27,121,106,110,91,10,17,5,4,0.5,0.5
2023-02-18T11:00:00,1869A,109.1778,21.5233,北海市,北海工业园,颗粒物(PM10),53,56,61,20,36,132,100,92,68,6,15,5,8,0.4,0.7
2023-02-18T11:00:00,1870A,109.4856,24.3895,柳州市,柳东小学,细颗粒物(PM2.5),119,93,82,90,85,106,42,46,46,31,28,10,7,1.0,1
2023-02-18T11:00:00,1871A,109.4157,24.3277,柳州市,环保监测站,细颗粒物(PM2.5),79,77,87,58,66,115,54,48,34,35,40,9,6,1.1,1.1
2023-02-18T11:00:00,1872A,109.389,24.341,柳州市,河西水厂,细颗粒物(PM2.5),90,85,100,67,75,114,52,32,32,31,38,9,7,1.2,1.4
2023-02-18T11:00:00,1873A,109.4311,24.2921,柳州市,市四中,细颗粒物(PM2.5),64,76,93,46,62,120,68,49,42,25,40,12,10,1.1,1.5
2023-02-18T11:00:00,1874A,109.4006,24.3631,柳州市,市九中,细颗粒物(PM2.5),83,85,102,61,70,111,55,25,25,35,47,11,10,0.8,0.9
2023-02-18T11:00:00,1875A,109.4958,24.3134,柳州市,古亭山,细颗粒物(PM2.5),72,79,79,52,65,108,62,40,27,28,29,11,9,0.7,0.8
2023-02-18T11:00:00,1876A,109.5078,18.2489,三亚市,河东子站,,34,34,18,12,8,102,82,84,80,5,6,2,2,0.4,0.4
2023-02-18T11:00:00,1877A,109.4964,18.2681,三亚市,河西子站,,33,33,17,10,6,109,88,85,81,4,4,3,2,0.4,0.4
2023-02-18T11:00:00,1878A,104.7778,31.4741,绵阳市,富乐山,细颗粒物(PM2.5),77,68,75,56,65,55,27,31,19,46,21,5,4,1.2,0.9
2023-02-18T11:00:00,1879A,104.7563,31.4535,绵阳市,市人大,细颗粒物(PM2.5),85,79,80,63,67,41,24,24,15,46,33,12,7,1.0,0.9
2023-02-18T11:00:00,1880A,104.6697,31.4668,绵阳市,高新区自来水公司,细颗粒物(PM2.5),107,85,80,80,73,47,20,22,13,46,40,8,6,1.0,0.9
2023-02-18T11:00:00,1881A,104.7287,31.5075,绵阳市,三水厂,细颗粒物(PM2.5),92,90,91,68,71,48,32,13,12,36,32,6,4,1.0,1
2023-02-18T11:00:00,1882A,104.563,28.793,宜宾市,石马中学,细颗粒物(PM2.5),114,107,96,86,86,73,29,44,33,23,24,8,8,1.1,1.1
2023-02-18T11:00:00,1883A,104.6201,28.7728,宜宾市,市委,细颗粒物(PM2.5),127,124,112,96,86,80,24,32,23,32,35,10,10,1.1,1.1
2023-02-18T11:00:00,1884A,104.6055,28.793,宜宾市,宜宾四中,细颗粒物(PM2.5),134,124,115,102,95,79,30,41,27,27,36,7,8,1.0,1
2023-02-18T11:00:00,1885A,104.639,28.7562,宜宾市,市政府,细颗粒物(PM2.5),128,114,107,97,90,85,28,39,26,34,37,10,10,0.8,0.8
2023-02-18T11:00:00,1886A,104.5742,28.7199,宜宾市,黄金嘴,细颗粒物(PM2.5),120,110,102,91,84,73,29,44,37,36,33,10,10,1.1,1
2023-02-18T11:00:00,1888A,101.6891,26.571,攀枝花市,弄弄坪,,,,79,,45,102,10,25,3,,42,77,37,4.5,2.6
2023-02-18T11:00:00,1889A,101.5769,26.5928,攀枝花市,河门口,颗粒物(PM10),61,71,47,37,22,104,47,33,25,29,26,20,12,1.2,0.7
2023-02-18T11:00:00,1890A,101.7169,26.585,攀枝花市,炳草岗,细颗粒物(PM2.5),149,211,106,114,52,98,6,4,4,69,62,,26,3.8,2
2023-02-18T11:00:00,1891A,101.7369,26.5008,攀枝花市,仁和,颗粒物(PM10),65,80,50,46,28,113,37,46,33,55,29,60,21,4.6,1.6
2023-02-18T11:00:00,1893A,105.4324,28.9634,泸州市,九狮山,细颗粒物(PM2.5),69,75,68,50,46,83,21,28,18,26,23,26,13,0.7,0.6
2023-02-18T11:00:00,1894A,105.4427,28.9063,泸州市,小市上码头,细颗粒物(PM2.5),105,112,96,79,62,84,19,46,21,40,30,25,12,1.2,1.1
2023-02-18T11:00:00,1895A,105.4241,28.8573,泸州市,兰田宪桥,细颗粒物(PM2.5),105,104,94,79,68,83,30,39,21,27,31,29,11,1.0,0.9
2023-02-18T11:00:00,1896A,105.4379,28.8833,泸州市,市环监站,细颗粒物(PM2.5),98,111,91,73,59,84,22,44,21,34,26,27,13,0.9,0.9
2023-02-18T11:00:00,1901A,104.4239,31.1208,德阳市,东山公园,细颗粒物(PM2.5),99,93,87,74,74,59,24,24,20,39,31,4,2,1.1,1
2023-02-18T11:00:00,1902A,104.3826,31.1317,德阳市,西小区,细颗粒物(PM2.5),117,106,93,88,82,49,16,22,19,49,39,5,4,1.2,1
2023-02-18T11:00:00,1904A,104.3553,31.1091,德阳市,耐火材料厂,细颗粒物(PM2.5),109,107,94,82,85,39,32,22,21,30,33,5,3,1.1,0.9
2023-02-18T11:00:00,1905A,106.056,30.8064,南充市,西山风景区,,,,,,,,,,,,,,,,
2023-02-18T11:00:00,1906A,106.0789,30.8023,南充市,南充市委,颗粒物(PM10),57,64,57,30,35,83,26,35,30,24,29,9,10,0.8,0.8
2023-02-18T11:00:00,1907A,106.1031,30.8217,南充市,南充炼油厂,颗粒物(PM10),57,63,51,37,33,89,16,48,28,40,24,10,9,0.8,0.8
2023-02-18T11:00:00,1908A,106.1064,30.7856,南充市,高坪区监测站,细颗粒物(PM2.5),65,60,49,47,39,81,23,46,26,35,31,9,10,0.9,0.8
2023-02-18T11:00:00,1909A,106.0642,30.7636,南充市,嘉陵区环保局,细颗粒物(PM2.5),55,51,52,39,40,83,32,41,24,24,33,9,10,0.8,0.8
2023-02-18T11:00:00,1910A,106.1087,30.8388,南充市,市环境监测站,颗粒物(PM10),69,87,61,46,40,89,18,44,25,39,26,11,9,0.8,0.8
2023-02-18T11:00:00,1911A,106.9222,27.6869,遵义市,丁字口,细颗粒物(PM2.5),68,47,46,49,39,48,8,11,10,34,30,59,26,2.2,1.1
2023-02-18T11:00:00,1912A,106.9242,27.7019,遵义市,凤凰山,,25,25,40,12,25,45,19,25,22,23,22,5,5,1.0,0.9
2023-02-18T11:00:00,1913A,106.8906,27.6486,遵义市,忠庄,,42,42,56,27,37,44,6,5,4,30,24,16,8,1.2,0.9
2023-02-18T11:00:00,1914A,106.9231,27.6506,遵义市,舟水桥,细颗粒物(PM2.5),78,93,58,57,41,52,8,10,8,31,22,64,30,1.6,1
2023-02-18T11:00:00,1915A,106.9178,27.72,遵义市,干田坝,,19,19,40,11,31,42,9,20,13,36,28,29,11,1.4,1
2023-02-18T11:00:00,1916A,103.7897,25.5035,曲靖市,环境监测站,,33,33,37,20,23,110,94,80,72,10,10,8,7,0.6,0.5
2023-02-18T11:00:00,1917A,103.8,25.5364,曲靖市,烟厂办公区,,,42,39,24,20,116,,87,73,10,9,4,5,0.6,0.6
2023-02-18T11:00:00,1918A,108.7197,34.3956,咸阳市,气象站,颗粒物(PM10),60,70,130,36,134,72,65,20,20,19,48,9,10,1.0,1.6
2023-02-18T11:00:00,1919A,108.673,34.3155,咸阳市,实验中学,颗粒物(PM10),80,110,162,40,139,63,63,18,18,24,51,6,7,0.6,1.2
2023-02-18T11:00:00,1920A,108.7233,34.3617,咸阳市,师范学院,颗粒物(PM10),78,106,150,39,128,73,65,22,22,11,39,7,6,0.6,1.1
2023-02-18T11:00:00,1922A,109.0656,35.0994,铜川市,党校,颗粒物(PM10),55,59,115,12,57,84,81,16,16,21,45,12,14,0.6,1.3
2023-02-18T11:00:00,1923A,109.0697,35.0697,铜川市,王益区政府,颗粒物(PM10),94,137,120,34,100,86,71,27,16,19,39,7,7,0.6,1.3
2023-02-18T11:00:00,1924A,108.9344,34.9058,铜川市,新区管委会,颗粒物(PM10),55,60,116,34,98,92,65,37,37,14,36,7,13,0.6,1.2
2023-02-18T11:00:00,1926A,109.4131,36.6275,延安市,枣园,颗粒物(PM10),57,63,67,19,68,88,88,28,28,13,38,5,6,0.4,1
2023-02-18T11:00:00,1927A,109.4761,36.6028,延安市,延大医附院,颗粒物(PM10),59,67,75,15,66,77,77,22,22,15,40,6,7,0.4,1.3
2023-02-18T11:00:00,1929A,109.5056,36.6106,延安市,百米大道,颗粒物(PM10),61,72,81,15,72,82,82,28,28,10,41,8,9,0.5,1.3
2023-02-18T11:00:00,1930A,107.185,34.3063,宝鸡市,庙沟村,,,72,99,,99,78,78,39,39,9,29,4,4,0.4,0.9
2023-02-18T11:00:00,1931A,107.0708,34.3017,宝鸡市,竹园沟,颗粒物(PM10),60,70,104,22,101,89,89,28,28,12,29,7,6,0.5,1.1
2023-02-18T11:00:00,1932A,107.1906,34.3672,宝鸡市,三陆医院,颗粒物(PM10),75,100,130,24,112,82,82,19,19,14,37,7,8,0.5,1.1
2023-02-18T11:00:00,1933A,107.1431,34.3547,宝鸡市,监测站,颗粒物(PM10),78,105,116,47,107,64,63,34,17,25,38,5,6,0.7,1.1
2023-02-18T11:00:00,1934A,107.1186,34.3739,宝鸡市,技工学校,细颗粒物(PM2.5),130,100,108,99,113,63,48,36,19,28,33,6,7,0.8,1
2023-02-18T11:00:00,1935A,107.3906,34.3528,宝鸡市,陈仓区环保局家属楼,颗粒物(PM10),75,99,134,45,125,68,68,25,25,20,40,14,9,0.8,1.2
2023-02-18T11:00:00,1936A,107.2058,34.3497,宝鸡市,文理学院,颗粒物(PM10),80,110,129,29,107,72,72,29,18,17,34,8,11,0.8,1.3
2023-02-18T11:00:00,1937A,107.2386,34.3622,宝鸡市,三迪小学,颗粒物(PM10),67,83,130,14,108,86,86,22,22,12,38,10,12,0.4,1.1
2023-02-18T11:00:00,1938A,109.5293,34.5101,渭南市,农科所,细颗粒物(PM2.5),122,124,150,92,118,93,23,31,31,37,41,10,11,1.0,1.1
2023-02-18T11:00:00,1939A,109.4974,34.4877,渭南市,日报社,细颗粒物(PM2.5),133,127,146,101,126,90,22,26,26,42,45,16,13,1.3,1.5
2023-02-18T11:00:00,1940A,109.4636,34.493,渭南市,体育馆,细颗粒物(PM2.5),138,122,144,105,125,103,28,33,31,42,42,9,9,0.9,1.1
2023-02-18T11:00:00,1941A,109.4259,34.5023,渭南市,高新一小,细颗粒物(PM2.5),134,130,143,102,127,92,16,31,27,45,43,10,12,1.1,1.3
2023-02-18T11:00:00,1943A,102.1725,38.5339,金昌市,新川苑,颗粒物(PM10),61,72,68,6,10,102,88,101,93,9,10,11,8,0.6,0.6
2023-02-18T11:00:00,1944A,102.1692,38.5167,金昌市,天庆家园,,49,49,50,3,16,100,88,99,92,6,8,5,10,0.5,0.6
2023-02-18T11:00:00,1945A,98.2908,39.7711,嘉峪关市,气象局,颗粒物(PM10),54,58,61,19,21,102,81,101,80,15,13,10,6,0.4,0.2
2023-02-18T11:00:00,1947A,106.3394,38.817,石嘴山市,沙湖旅游区,颗粒物(PM10),118,185,155,26,64,106,74,81,79,52,38,9,18,0.2,0.7
2023-02-18T11:00:00,1948A,106.3668,39.0145,石嘴山市,大武口朝阳西街,颗粒物(PM10),76,101,71,15,29,106,84,99,94,1,11,3,13,0.1,0.3
2023-02-18T11:00:00,1949A,106.7704,39.2282,石嘴山市,惠农南大街,,,,115,21,35,98,79,90,89,12,26,8,23,0.3,0.7
2023-02-18T11:00:00,1950A,106.7099,39.1325,石嘴山市,红果子镇惠新街,颗粒物(PM10),86,121,94,16,43,100,82,92,87,4,13,6,27,0.2,0.4
2023-02-18T11:00:00,1951A,84.895,45.6094,克拉玛依市,长征新村,,42,42,50,23,28,98,58,90,64,33,26,5,6,0.5,0.5
2023-02-18T11:00:00,1952A,84.8988,45.5893,克拉玛依市,南林小区,细颗粒物(PM2.5),58,47,54,41,39,97,40,80,60,45,30,2,2,0.6,0.5
2023-02-18T11:00:00,1954A,84.905,44.3396,克拉玛依市,独山子区,细颗粒物(PM2.5),90,104,122,67,81,124,86,107,99,37,29,5,5,0.9,0.9
2023-02-18T11:00:00,1955A,85.6979,46.098,克拉玛依市,乌尔禾区商贸楼,细颗粒物(PM2.5),70,62,55,51,42,101,20,50,21,49,35,3,2,0.8,1
2023-02-18T11:00:00,1956A,86.1472,41.7538,巴音郭楞州,孔雀公园,颗粒物(PM10),67,83,175,17,33,95,87,73,73,18,32,5,5,0.5,0.5
2023-02-18T11:00:00,1957A,86.1972,41.7166,巴音郭楞州,棉纺厂,颗粒物(PM10),84,118,217,21,41,92,75,66,52,24,35,4,3,0.2,0.4
2023-02-18T11:00:00,1958A,86.2357,41.7173,巴音郭楞州,经济开发区,颗粒物(PM10),64,78,155,23,30,93,87,83,83,11,11,5,5,0.3,0.5
2023-02-18T11:00:00,1961A,117.532,36.6868,济南市,东山小学,细颗粒物(PM2.5),113,129,105,85,66,120,38,49,33,46,44,4,5,0.7,0.7
2023-02-18T11:00:00,1966A,120.0405,35.8735,青岛市,黄岛区4号,,28,22,23,19,16,97,50,81,61,34,18,6,5,0.6,0.6
2023-02-18T11:00:00,1982A,122.0693,37.2174,威海市,文登开发区,颗粒物(PM10),52,53,44,31,30,104,53,63,52,39,25,5,4,0.5,0.4
2023-02-18T11:00:00,2031A,113.1817,27.9958,株洲市,云田中学,细颗粒物(PM2.5),80,73,72,59,55,76,32,43,27,28,30,11,11,1.0,1
2023-02-18T11:00:00,2054A,114.1099,32.1059,信阳市,平桥分局,细颗粒物(PM2.5),112,113,93,84,64,98,49,43,19,33,40,9,10,0.9,0.9
2023-02-18T11:00:00,2064A,113.9956,32.1271,信阳市,南湾水厂,,,,85,,60,105,76,69,61,17,18,9,9,,0.8
2023-02-18T11:00:00,2065A,114.0775,32.1195,信阳市,市酿酒公司,细颗粒物(PM2.5),113,100,77,85,66,106,55,32,32,33,40,10,10,0.9,0.9
2023-02-18T11:00:00,2066A,114.0609,32.1399,信阳市,审计局,细颗粒物(PM2.5),109,109,82,82,63,101,50,41,25,35,39,9,8,0.8,0.8
2023-02-18T11:00:00,2067A,114.6613,33.6128,周口市,市环境监测站,细颗粒物(PM2.5),148,139,91,113,79,95,24,23,11,32,32,24,13,0.7,0.7
2023-02-18T11:00:00,2068A,114.6758,33.6347,周口市,周口师范,细颗粒物(PM2.5),150,140,90,115,80,104,26,41,13,39,32,27,14,0.6,0.5
2023-02-18T11:00:00,2069A,114.6546,33.5979,周口市,市运管处,细颗粒物(PM2.5),152,144,96,116,81,104,29,37,16,40,38,24,17,0.7,0.6
2023-02-18T11:00:00,2070A,114.6369,33.6406,周口市,川汇区环保局,细颗粒物(PM2.5),172,142,89,130,84,99,26,41,10,32,28,25,12,0.7,0.6
2023-02-18T11:00:00,2075A,117.6336,24.4674,漳州市,九湖,,,,,,,,,,,,,,,,
2023-02-18T11:00:00,2160A,112.85,35.5051,晋城市,自来水公司,细颗粒物(PM2.5),104,97,87,78,59,99,64,96,73,22,20,7,9,1.0,0.7
2023-02-18T11:00:00,2161A,112.8318,35.4936,晋城市,白云商贸,细颗粒物(PM2.5),104,115,88,78,56,93,62,89,70,16,17,8,7,1.2,0.9
2023-02-18T11:00:00,2162A,112.8508,35.4887,晋城市,市环保局,细颗粒物(PM2.5),104,100,87,78,60,100,67,96,77,24,24,9,9,1.1,0.8
2023-02-18T11:00:00,2163A,112.8676,35.4897,晋城市,技术学院,细颗粒物(PM2.5),117,119,91,88,66,95,68,89,71,20,22,7,6,1.2,1
2023-02-18T11:00:00,2165A,112.8453,35.546,晋城市,白马寺 ,,,,,,,,,,,,,,,,
2023-02-18T11:00:00,2166A,112.4397,39.3522,朔州市,平朔,颗粒物(PM10),104,158,93,28,63,79,77,34,34,10,39,4,15,0.3,0.8
2023-02-18T11:00:00,2167A,112.4575,39.3617,朔州市,朔唯,颗粒物(PM10),111,171,109,28,60,84,78,31,31,15,48,6,19,0.4,0.8
2023-02-18T11:00:00,2168A,112.4258,39.3197,朔州市,区政府,,,,93,,59,47,,40,,,38,,14,,0.8
2023-02-18T11:00:00,2169A,112.4072,39.3278,朔州市,市环保局,颗粒物(PM10),81,111,93,37,63,80,80,36,36,12,38,7,18,0.4,0.8
2023-02-18T11:00:00,2170A,112.4272,39.3681,朔州市,市二中,颗粒物(PM10),71,92,106,28,59,80,80,32,32,10,38,3,14,0.4,0.9
2023-02-18T11:00:00,2171A,112.7532,37.6945,晋中市,锦纶小区,细颗粒物(PM2.5),272,274,178,222,152,90,19,58,22,63,44,32,16,2.1,1.5
2023-02-18T11:00:00,2173A,112.7249,37.7067,晋中市,南都小区,细颗粒物(PM2.5),245,281,217,195,139,86,22,54,26,57,45,24,17,1.8,1.4
2023-02-18T11:00:00,2174A,112.6991,37.6982,晋中市,榆次区政府,细颗粒物(PM2.5),231,280,196,181,128,81,18,54,21,58,48,18,13,2.0,1.5
2023-02-18T11:00:00,2175A,110.9956,35.0147,运城市,运城中学,细颗粒物(PM2.5),156,164,122,119,96,89,25,62,22,36,27,8,11,1.1,1
2023-02-18T11:00:00,2178A,110.9686,35.0303,运城市,地区技校,细颗粒物(PM2.5),159,163,124,121,93,93,23,38,20,33,28,7,9,1.2,1.1
2023-02-18T11:00:00,2179A,111.0414,35.1147,运城市,空港新区,细颗粒物(PM2.5),186,173,129,140,100,107,18,39,14,39,33,12,12,1.3,1.2
2023-02-18T11:00:00,2181A,112.7383,38.4519,忻州市,开发区,细颗粒物(PM2.5),238,211,240,188,200,111,43,18,18,53,73,12,9,1.5,1.6
2023-02-18T11:00:00,2182A,112.7003,38.4928,忻州市,会展中心,细颗粒物(PM2.5),233,221,235,183,192,90,43,16,16,56,81,24,18,1.1,1.2
2023-02-18T11:00:00,2183A,111.1406,37.5211,吕梁市,环保局,颗粒物(PM10),81,112,107,43,47,91,91,23,23,14,56,10,14,0.3,0.9
2023-02-18T11:00:00,2185A,111.1297,37.5136,吕梁市,自来水公司,颗粒物(PM10),97,144,108,38,47,92,92,24,24,13,49,10,14,0.3,1.1
2023-02-18T11:00:00,2187A,106.8174,39.6973,乌海市,市林业局,颗粒物(PM10),102,153,116,34,48,102,79,92,91,8,21,8,20,0.5,0.9
2023-02-18T11:00:00,2188A,106.7907,39.6667,乌海市,中海勃湾学校,颗粒物(PM10),99,147,121,31,50,105,82,99,96,13,24,8,22,0.2,0.7
2023-02-18T11:00:00,2191A,122.2532,43.6801,通辽市,艺术职业学校,,29,29,51,8,24,82,77,70,70,10,29,6,9,0.4,0.6
2023-02-18T11:00:00,2192A,119.7594,49.2261,呼伦贝尔市,区环保局,,27,27,28,12,22,82,71,75,66,6,8,6,5,0.3,0.3
2023-02-18T11:00:00,2195A,107.4212,40.761,巴彦淖尔市,附二中,颗粒物(PM10),54,58,182,24,61,121,74,87,79,9,23,4,9,0.5,0.8
2023-02-18T11:00:00,2196A,107.37,40.7372,巴彦淖尔市,市环保大楼,,46,46,160,28,63,132,72,89,79,10,24,6,11,0.4,0.7
2023-02-18T11:00:00,2197A,113.1306,40.9923,乌兰察布市,集宁新区,颗粒物(PM10),142,233,92,19,37,104,79,61,53,7,24,7,15,0.4,0.6
2023-02-18T11:00:00,2200A,122.0392,46.0656,兴安盟,胜华新制药厂,,25,22,25,17,14,81,78,76,69,11,11,7,5,0.5,0.4
2023-02-18T11:00:00,2201A,121.9504,46.0741,兴安盟,科右前旗环保局,,24,16,24,15,18,84,74,71,64,8,11,4,4,0.2,0.4
2023-02-18T11:00:00,2202A,116.1042,43.9317,锡林郭勒盟,市环保监测站,,20,20,21,11,7,78,57,64,52,15,11,9,10,0.3,0.3
2023-02-18T11:00:00,2203A,116.0781,43.9311,锡林郭勒盟,市政府,,,33,21,12,6,78,,67,51,14,12,11,8,0.3,0.2
2023-02-18T11:00:00,2204A,105.6467,38.8363,阿拉善盟,西城区西花园,颗粒物(PM10),62,73,76,20,34,104,86,95,93,10,14,8,10,0.6,0.8
2023-02-18T11:00:00,2205A,105.6985,38.8411,阿拉善盟,蒙二幼,颗粒物(PM10),78,106,65,40,41,109,89,101,97,9,12,8,10,0.4,0.6
2023-02-18T11:00:00,2206A,105.724,38.8516,阿拉善盟,环保局新楼,颗粒物(PM10),64,78,59,25,37,110,90,104,99,6,9,7,8,0.5,0.6
2023-02-18T11:00:00,2207A,121.6094,41.998,阜新市,工业园区,,30,30,191,9,116,76,60,37,37,16,42,12,22,1.0,1.6
2023-02-18T11:00:00,2208A,121.6697,42.0279,阜新市,长青街,,39,39,147,21,100,88,80,54,54,11,41,11,24,0.6,1.2
2023-02-18T11:00:00,2209A,121.6673,42.0705,阜新市,农业园区,,27,27,111,14,106,81,70,54,54,9,24,17,38,1.0,1
2023-02-18T11:00:00,2210A,121.6717,42.0224,阜新市,东苑,,36,36,150,9,108,78,74,48,48,9,39,9,30,0.6,1.3
2023-02-18T11:00:00,2211A,121.6506,42.0498,阜新市,玉龙新城,,25,16,122,16,94,88,78,54,54,10,40,14,29,0.7,1.1
2023-02-18T11:00:00,2212A,123.2,41.1953,辽阳市,宏伟区,细颗粒物(PM2.5),263,226,100,213,96,90,22,90,46,57,28,23,13,1.7,1.1
2023-02-18T11:00:00,2213A,123.1683,41.2495,辽阳市,新华园,细颗粒物(PM2.5),267,217,115,217,108,97,23,94,44,65,38,21,13,1.7,1.1
2023-02-18T11:00:00,2214A,123.2354,41.2639,辽阳市,滨河路,细颗粒物(PM2.5),329,232,96,279,126,84,19,82,37,61,34,9,7,1.9,1.2
2023-02-18T11:00:00,2215A,123.149,41.2991,辽阳市,铁西工业园,细颗粒物(PM2.5),306,251,139,256,139,84,14,82,28,58,38,12,12,1.6,1.2
2023-02-18T11:00:00,2216A,123.8139,42.3022,铁岭市,汇工街西,颗粒物(PM10),51,52,183,26,169,70,64,39,39,17,52,17,36,0.4,1.2
2023-02-18T11:00:00,2217A,123.8649,42.2923,铁岭市,水上乐园,颗粒物(PM10),51,51,158,32,141,66,60,46,36,26,71,13,16,0.7,1.4
2023-02-18T11:00:00,2218A,123.8486,42.2867,铁岭市,银州路东段,,,42,175,34,141,60,54,38,34,,60,8,11,0.7,1.3
2023-02-18T11:00:00,2219A,123.7153,42.2217,铁岭市,金沙江路北,,43,41,159,30,152,60,59,42,34,27,59,11,14,0.5,1.2
2023-02-18T11:00:00,2220A,120.4318,41.5881,朝阳市,西梁,,49,49,173,11,135,104,73,51,51,16,49,12,20,0.6,1.5
2023-02-18T11:00:00,2221A,120.4521,41.5646,朝阳市,河畔小区,,42,42,166,14,137,121,76,58,58,17,58,14,18,0.6,1.5
2023-02-18T11:00:00,2222A,120.4176,41.5648,朝阳市,八里堡,,45,45,171,10,140,115,73,52,52,16,48,12,21,0.6,1.5
2023-02-18T11:00:00,2223A,120.3806,41.5969,朝阳市,农业园区,,25,25,156,8,136,105,72,52,52,14,48,10,19,0.6,1.4
2023-02-18T11:00:00,2225A,124.4002,43.1713,四平市,一商场,颗粒物(PM10),51,51,88,27,46,83,70,50,50,12,36,9,10,0.3,0.6
2023-02-18T11:00:00,2226A,124.388,43.193,四平市,境园,,45,33,78,31,45,85,76,55,55,10,36,5,4,0.3,0.6
2023-02-18T11:00:00,2227A,125.1358,42.8845,辽源市,环保局,细颗粒物(PM2.5),63,56,98,45,84,95,53,53,53,32,41,17,15,0.5,1
2023-02-18T11:00:00,2229A,125.9358,41.7173,通化市,光明,细颗粒物(PM2.5),67,53,53,48,38,109,103,105,105,18,17,11,12,0.4,0.5
2023-02-18T11:00:00,2230A,125.9446,41.7325,通化市,铁路,细颗粒物(PM2.5),57,45,54,40,40,113,108,109,109,19,20,10,10,0.3,0.4
2023-02-18T11:00:00,2231A,126.4219,41.9171,白山市,喜丰,细颗粒物(PM2.5),73,83,88,53,53,98,98,85,85,23,23,16,16,1.1,1.1
2023-02-18T11:00:00,2232A,126.4077,41.9419,白山市,环保局,细颗粒物(PM2.5),85,94,97,63,67,88,86,55,55,23,26,13,13,1.2,1.3
2023-02-18T11:00:00,2233A,124.8006,45.1214,松原市,江南,颗粒物(PM10),57,63,40,14,27,80,63,51,45,12,23,11,8,0.3,0.4
2023-02-18T11:00:00,2234A,124.7965,45.1722,松原市,江北,颗粒物(PM10),56,61,31,25,17,74,69,49,49,10,19,10,4,0.4,0.4
2023-02-18T11:00:00,2235A,122.7911,45.6077,白城市,洮北区环保局,,47,47,39,30,21,97,83,76,72,12,13,6,6,0.3,0.4
2023-02-18T11:00:00,2236A,122.8738,45.5725,白城市,市环保局,,33,33,39,13,14,93,77,65,50,12,21,5,5,0.3,0.2
2023-02-18T11:00:00,2237A,129.47,42.8883,延边朝鲜族自治州,妇幼医院,,,37,82,18,76,93,,49,20,16,40,11,24,0.4,0.9
2023-02-18T11:00:00,2238A,129.5055,42.9108,延边朝鲜族自治州,延边医院,颗粒物(PM10),62,74,89,27,88,99,66,38,32,27,41,19,16,0.6,1.1
2023-02-18T11:00:00,2239A,129.3964,42.8881,延边朝鲜族自治州,朝阳川镇医院,,25,23,77,16,73,100,80,41,41,13,31,8,11,0.4,0.9
2023-02-18T11:00:00,2240A,130.9762,45.3001,鸡西市,环保局,细颗粒物(PM2.5),114,104,53,86,40,91,75,76,38,14,29,9,8,0.6,0.5
2023-02-18T11:00:00,2243A,130.9429,45.3039,鸡西市,第一中学,颗粒物(PM10),54,58,45,34,31,93,79,80,60,5,12,6,6,0.6,0.5
2023-02-18T11:00:00,2244A,130.2537,47.3416,鹤岗市,哈啤分公司,,40,39,67,28,43,100,78,96,74,8,26,12,16,0.3,0.6
2023-02-18T11:00:00,2245A,130.2684,47.3086,鹤岗市,斯达机电,,35,35,75,21,46,98,78,96,70,11,27,8,11,0.4,0.5
2023-02-18T11:00:00,2246A,130.3114,47.3388,鹤岗市,东山纸板厂,颗粒物(PM10),59,68,111,31,52,91,80,89,41,7,27,15,18,0.2,1
2023-02-18T11:00:00,2247A,130.1097,47.3382,鹤岗市,五号水库,,28,26,55,19,40,101,84,101,75,4,10,8,8,0.4,0.6
2023-02-18T11:00:00,2248A,131.1511,46.6937,双鸭山市,双合村,细颗粒物(PM2.5),52,38,76,36,58,107,92,88,82,8,15,11,14,0.6,0.9
2023-02-18T11:00:00,2249A,131.1652,46.6191,双鸭山市,南小市,颗粒物(PM10),58,66,81,26,56,112,92,102,88,11,14,10,9,0.8,0.9
2023-02-18T11:00:00,2250A,131.1524,46.6554,双鸭山市,环保局,,,44,76,23,61,116,97,100,100,12,19,,8,0.7,0.8
2023-02-18T11:00:00,2251A,131.12,46.5656,双鸭山市,苗圃,细颗粒物(PM2.5),55,39,65,39,64,114,92,100,90,10,13,7,6,0.2,0.3
2023-02-18T11:00:00,2252A,128.5159,47.4311,伊春市,环保局,,49,35,74,34,69,108,72,91,68,12,24,6,8,0.5,0.8
2023-02-18T11:00:00,2253A,128.9102,47.7412,伊春市,电力嘉园,,48,47,87,33,58,127,80,93,62,6,24,8,9,0.5,0.9
2023-02-18T11:00:00,2254A,129.5029,48.471,伊春市,汤旺河国家公园,细颗粒物(PM2.5),60,53,69,43,49,88,75,76,64,5,7,8,7,0.7,0.3
2023-02-18T11:00:00,2255A,130.2751,46.8028,佳木斯市,佳纺,细颗粒物(PM2.5),78,65,82,57,65,99,89,82,68,15,30,7,10,0.4,0.6
2023-02-18T11:00:00,2256A,130.3995,46.8307,佳木斯市,发电厂,细颗粒物(PM2.5),78,61,65,57,59,100,88,78,67,17,28,8,8,0.5,0.6
2023-02-18T11:00:00,2257A,130.3258,46.7975,佳木斯市,环保局,细颗粒物(PM2.5),82,67,71,60,62,94,86,73,73,15,28,9,8,0.4,0.6
2023-02-18T11:00:00,2258A,130.3648,46.8032,佳木斯市,十一中,细颗粒物(PM2.5),63,53,73,45,63,95,86,71,71,19,32,7,8,0.5,0.7
2023-02-18T11:00:00,2259A,130.3794,46.7588,佳木斯市,四丰,,,43,64,36,53,188,164,170,163,,15,3,1,0.6,0.7
2023-02-18T11:00:00,2262A,131.0518,45.8751,七台河市,新一中,,,83,58,68,47,117,76,96,78,,20,18,9,0.8,0.7
2023-02-18T11:00:00,2263A,127.4833,50.2524,黑河市,交通局,,,,33,,29,90,67,72,59,13,17,8,9,0.5,0.6
2023-02-18T11:00:00,2264A,127.5144,50.2341,黑河市,环保局,,24,24,60,15,33,89,71,76,52,10,18,6,9,0.3,0.6
2023-02-18T11:00:00,2265A,127.5291,50.2472,黑河市,大黑河岛,,29,22,27,20,30,90,74,77,63,1,6,2,6,0.3,0.4
2023-02-18T11:00:00,2266A,126.9785,46.6365,绥化市,人和东街,,35,33,82,24,65,130,78,56,56,13,28,4,6,0.7,0.9
2023-02-18T11:00:00,2267A,126.964,46.6528,绥化市,党政办公中心,,27,26,73,13,64,140,86,62,62,10,25,4,5,0.5,0.7
2023-02-18T11:00:00,2269A,124.1069,50.4097,大兴安岭地区,科技局,,23,4,24,9,22,82,71,66,58,6,9,4,6,0.3,0.4
2023-02-18T11:00:00,2270A,117.396,32.939,蚌埠市,工人疗养院,细颗粒物(PM2.5),125,136,102,95,74,57,6,10,4,61,60,13,12,1.0,0.9
2023-02-18T11:00:00,2271A,117.3605,32.9427,蚌埠市,百货大楼,细颗粒物(PM2.5),120,146,116,91,79,60,5,9,3,58,55,4,5,0.9,0.7
2023-02-18T11:00:00,2273A,117.4185,32.8911,蚌埠市,蚌埠学院,细颗粒物(PM2.5),113,127,98,85,67,64,5,16,4,54,52,6,8,0.9,0.8
2023-02-18T11:00:00,2274A,117.3533,32.9673,蚌埠市,淮上区政府,细颗粒物(PM2.5),110,139,114,83,71,59,7,7,4,52,50,10,11,0.9,0.8
2023-02-18T11:00:00,2275A,117.3145,32.8977,蚌埠市,高新区,细颗粒物(PM2.5),125,144,104,95,74,68,5,17,5,59,50,14,11,1.0,0.9
2023-02-18T11:00:00,2277A,116.8305,32.7727,淮南市,潘集区政府,细颗粒物(PM2.5),128,149,121,97,92,56,0,5,0,45,39,9,8,0.9,0.7
2023-02-18T11:00:00,2278A,117.0067,32.6524,淮南市,师范学院,细颗粒物(PM2.5),148,169,127,113,84,69,0,10,1,55,45,15,13,1.0,0.8
2023-02-18T11:00:00,2279A,116.8569,32.5951,淮南市,谢家集区政府,细颗粒物(PM2.5),137,147,112,104,82,70,10,18,2,58,47,12,15,1.0,0.8
2023-02-18T11:00:00,2280A,116.8281,32.633,淮南市,八公山区政府,细颗粒物(PM2.5),133,128,113,101,94,68,22,26,6,30,32,10,11,0.7,0.7
2023-02-18T11:00:00,2281A,116.6325,32.6201,淮南市,焦岗湖风景区管理处,细颗粒物(PM2.5),122,128,109,92,81,66,,2,0,48,45,7,6,1.0,0.9
2023-02-18T11:00:00,2282A,116.8004,33.975,淮北市,监测站,细颗粒物(PM2.5),163,163,111,124,81,103,15,35,13,47,31,17,7,1.2,0.9
2023-02-18T11:00:00,2283A,116.8091,33.9007,淮北市,烈山区政府,细颗粒物(PM2.5),144,149,104,110,80,106,14,25,11,53,43,9,7,0.9,0.7
2023-02-18T11:00:00,2284A,116.7856,33.9477,淮北市,职业技术学院,细颗粒物(PM2.5),172,181,115,130,86,104,13,34,12,49,36,,7,1.2,0.8
2023-02-18T11:00:00,2285A,117.8177,30.9412,铜陵市,市第四中学,细颗粒物(PM2.5),94,124,93,70,60,52,6,6,6,60,61,12,11,0.7,1
2023-02-18T11:00:00,2286A,117.8059,30.9273,铜陵市,市公路局,,,,90,,65,14,,16,,,53,,9,,1.3
2023-02-18T11:00:00,2287A,117.7807,30.9413,铜陵市,市新民污水厂,"颗粒物(PM10),细颗粒物(PM2.5)",75,99,103,55,52,41,5,3,3,58,62,10,10,0.8,1.1
2023-02-18T11:00:00,2288A,117.7439,30.8792,铜陵市,市第九中学,颗粒物(PM10),76,102,127,53,62,42,7,5,5,57,69,10,12,1.0,1
2023-02-18T11:00:00,2289A,117.846,30.9413,铜陵市,车站新区,细颗粒物(PM2.5),99,141,96,74,53,36,6,6,6,66,58,19,12,1.1,1
2023-02-18T11:00:00,2290A,117.8483,30.97,铜陵市,市职教基地,细颗粒物(PM2.5),88,111,86,65,50,29,5,6,5,42,42,8,6,0.6,0.6
2023-02-18T11:00:00,2291A,117.0809,30.5177,安庆市,环科院,细颗粒物(PM2.5),109,108,94,82,72,58,7,4,4,65,65,14,11,1.1,0.8
2023-02-18T11:00:00,2292A,117.0331,30.5119,安庆市,马山宾馆,细颗粒物(PM2.5),105,115,99,79,66,72,6,5,5,78,65,17,12,1.3,0.8
2023-02-18T11:00:00,2294A,116.9896,30.6145,安庆市,安庆大学,细颗粒物(PM2.5),87,121,96,64,56,77,11,4,4,63,62,13,11,1.0,0.8
2023-02-18T11:00:00,2295A,118.2903,29.6963,黄山市,延安路89号,,,41,43,,,102,32,14,10,22,19,7,6,0.4,0.4
2023-02-18T11:00:00,2296A,118.327,29.7178,黄山市,黄山东路89号,,48,48,50,32,34,100,38,12,8,19,24,6,6,0.8,0.7
2023-02-18T11:00:00,2297A,118.1371,30.2756,黄山市,黄山区政府5号楼,,48,48,52,31,33,83,47,26,17,17,19,7,7,0.6,0.6
2023-02-18T11:00:00,2298A,118.3093,32.3153,滁州市,老年大学,细颗粒物(PM2.5),148,141,110,113,88,52,7,5,5,72,69,9,8,1.1,1
2023-02-18T11:00:00,2299A,118.3244,32.2786,滁州市,人大宾馆,细颗粒物(PM2.5),144,172,123,110,85,51,10,5,5,87,79,10,9,1.3,1
2023-02-18T11:00:00,2301A,115.8277,32.8929,阜阳市,市监测站,细颗粒物(PM2.5),155,141,115,118,93,76,13,25,7,49,38,7,7,1.0,0.7
2023-02-18T11:00:00,2303A,115.8554,32.8605,阜阳市,开发区,细颗粒物(PM2.5),147,186,143,112,91,78,12,22,5,51,40,9,9,0.9,0.9
2023-02-18T11:00:00,2307A,116.5079,31.737,六安市,监测大楼,细颗粒物(PM2.5),135,140,98,103,80,84,8,22,11,51,36,6,6,0.8,0.6
2023-02-18T11:00:00,2308A,116.4738,31.7643,六安市,皖西学院,细颗粒物(PM2.5),109,135,108,82,70,79,8,14,6,47,42,4,4,0.8,0.6
2023-02-18T11:00:00,2309A,116.4996,31.7905,六安市,朝阳厂,细颗粒物(PM2.5),125,124,93,95,77,79,10,12,12,52,44,6,7,0.9,0.8
2023-02-18T11:00:00,2310A,116.5567,31.7886,六安市,开发区,细颗粒物(PM2.5),104,151,116,78,70,89,7,23,8,46,31,7,8,0.9,0.7
2023-02-18T11:00:00,2311A,115.8072,33.8399,亳州市,污水处理厂,细颗粒物(PM2.5),128,128,86,97,68,95,20,28,10,33,24,10,8,1.0,0.7
2023-02-18T11:00:00,2312A,115.7789,33.8518,亳州市,三国揽胜宫,细颗粒物(PM2.5),110,145,104,83,60,107,20,33,11,36,27,10,7,1.0,0.6
2023-02-18T11:00:00,2314A,117.47,30.6618,池州市,池州学院,细颗粒物(PM2.5),79,98,93,58,64,65,10,11,5,41,41,11,8,1.2,1
2023-02-18T11:00:00,2316A,118.7581,30.9454,宣城市,鳌峰子站,细颗粒物(PM2.5),80,89,109,59,79,57,56,26,24,37,48,10,8,0.7,0.7
2023-02-18T11:00:00,2317A,118.7385,30.9743,宣城市,敬亭山子站,细颗粒物(PM2.5),99,95,103,74,75,59,21,59,18,45,46,37,13,0.8,0.6
2023-02-18T11:00:00,2318A,118.7173,30.9427,宣城市,开发区子站,细颗粒物(PM2.5),82,106,106,60,76,52,38,27,20,47,51,16,9,0.7,0.7
2023-02-18T11:00:00,2319A,119.0141,25.4325,莆田市,荔城区仓后路,颗粒物(PM10),70,90,49,28,29,111,63,33,33,25,21,8,8,0.9,0.8
2023-02-18T11:00:00,2320A,119.0015,25.4553,莆田市,莆田市监测站,颗粒物(PM10),62,74,39,27,22,114,66,38,31,27,16,7,7,0.7,0.6
2023-02-18T11:00:00,2321A,119.1119,25.4561,莆田市,涵江区六中,颗粒物(PM10),58,65,55,38,35,108,62,18,18,30,32,8,7,0.8,0.9
2023-02-18T11:00:00,2322A,119.1013,25.3215,莆田市,秀屿区政府,颗粒物(PM10),60,70,43,34,30,106,71,41,28,24,23,8,6,0.6,0.6
2023-02-18T11:00:00,2323A,118.981,25.4792,莆田市,东圳水库,,,,,,,,,,,,,,,,
2023-02-18T11:00:00,2324A,117.6211,26.2625,三明市,三钢,颗粒物(PM10),52,53,44,28,27,115,48,19,19,23,35,10,10,0.8,1.1
2023-02-18T11:00:00,2325A,117.635,26.2714,三明市,三明二中,颗粒物(PM10),57,63,42,22,25,111,49,20,20,27,36,7,7,0.4,0.8
2023-02-18T11:00:00,2326A,117.6028,26.2378,三明市,三元区政府,颗粒物(PM10),55,60,66,28,33,105,53,15,15,28,41,9,10,0.9,1.3
2023-02-18T11:00:00,2327A,117.7275,26.3108,三明市,洋溪,,,,,,,,,,,,,,,,
2023-02-18T11:00:00,2331A,118.0966,26.6761,南平市,茫荡山,,,,,,,,,,,,,,,,
2023-02-18T11:00:00,2332A,118.1681,26.6369,南平市,南平市监测站,,37,37,37,18,27,103,56,22,22,11,22,4,4,0.6,0.7
2023-02-18T11:00:00,2333A,118.1825,26.6489,南平市,南平铝业有限公司,,47,47,38,23,24,93,50,13,13,14,29,9,11,0.6,0.6
2023-02-18T11:00:00,2334A,118.1756,26.6272,南平市,南平七中,,32,32,39,21,25,107,52,22,22,15,24,5,4,0.6,0.7
2023-02-18T11:00:00,2335A,117.0189,25.1181,龙岩市,龙岩师专,,,,,,,,,,,,,,,,
2023-02-18T11:00:00,2336A,117.0217,25.1033,龙岩市,龙岩市监测站,颗粒物(PM10),60,70,57,36,35,144,50,35,22,42,38,12,8,0.9,0.8
2023-02-18T11:00:00,2337A,117.0258,25.0661,龙岩市,闽西职业技术学院,颗粒物(PM10),62,74,58,35,26,137,60,36,24,32,36,14,21,0.8,0.6
2023-02-18T11:00:00,2338A,117.0196,25.0306,龙岩市,龙岩学院,颗粒物(PM10),59,67,43,31,23,130,49,60,33,36,20,10,6,0.7,0.5
2023-02-18T11:00:00,2339A,119.5001,26.6946,宁德市,金涵水库,,,,,,,,,,,,,,,,
2023-02-18T11:00:00,2341A,119.5388,26.6612,宁德市,宁德市监测站,颗粒物(PM10),52,53,45,25,30,83,49,25,20,22,26,4,5,0.7,0.8
2023-02-18T11:00:00,2342A,117.3102,29.3867,景德镇市,王港中学,,35,33,42,24,26,56,27,6,6,7,10,5,4,0.3,0.4
2023-02-18T11:00:00,2343A,117.2117,29.2933,景德镇市,老干部活动中心,细颗粒物(PM2.5),67,64,91,48,36,74,25,9,9,27,31,8,11,0.7,0.7
2023-02-18T11:00:00,2344A,117.1894,29.2789,景德镇市,兽医站,,49,49,64,17,38,94,34,11,11,27,35,6,12,0.6,0.8
2023-02-18T11:00:00,2345A,117.1547,29.2617,景德镇市,台达陶瓷,细颗粒物(PM2.5),68,80,65,49,38,86,41,34,13,22,40,22,27,0.8,1
2023-02-18T11:00:00,2346A,117.2461,29.2956,景德镇市,陶研所,颗粒物(PM10),52,53,63,30,27,83,39,11,11,23,27,3,7,0.7,0.8
2023-02-18T11:00:00,2347A,114.0997,27.5002,萍乡市,武功山,,36,26,30,25,26,76,47,19,13,10,13,15,14,0.7,0.8
2023-02-18T11:00:00,2348A,113.8385,27.6434,萍乡市,中医院,细颗粒物(PM2.5),107,115,110,80,66,74,37,24,22,30,36,69,58,1.1,1.3
2023-02-18T11:00:00,2349A,113.8493,27.6253,萍乡市,市政府车库,细颗粒物(PM2.5),122,140,103,92,64,78,27,6,6,42,37,86,33,4.0,2.4
2023-02-18T11:00:00,2350A,113.8676,27.6435,萍乡市,市环保局,细颗粒物(PM2.5),97,120,88,72,56,74,38,33,19,37,39,77,77,1.1,1
2023-02-18T11:00:00,2351A,113.866,27.6198,萍乡市,安源区政府,细颗粒物(PM2.5),120,101,91,91,56,78,42,34,12,41,40,41,27,1.2,1.3
2023-02-18T11:00:00,2352A,115.0861,27.9317,新余市,北岗,细颗粒物(PM2.5),82,84,56,60,44,87,51,29,19,38,32,48,30,0.8,0.7
2023-02-18T11:00:00,2353A,114.9886,27.8431,新余市,飞宇,细颗粒物(PM2.5),79,99,74,58,38,77,23,43,6,46,28,45,27,0.3,0.3
2023-02-18T11:00:00,2354A,114.9231,27.8246,新余市,第二水厂,细颗粒物(PM2.5),79,102,94,58,55,72,30,27,10,56,42,39,24,0.8,1
2023-02-18T11:00:00,2355A,114.9308,27.8036,新余市,市气象局,细颗粒物(PM2.5),92,126,97,68,53,94,30,35,14,46,32,39,19,0.8,0.9
2023-02-18T11:00:00,2357A,116.9822,28.1136,鹰潭市,龙虎山,颗粒物(PM10),57,63,39,25,28,104,44,39,19,4,2,4,5,1.0,0.7
2023-02-18T11:00:00,2358A,117.0564,28.2642,鹰潭市,新监测站,颗粒物(PM10),59,68,63,38,39,102,42,36,9,28,35,44,37,0.7,0.6
2023-02-18T11:00:00,2359A,117.0311,28.2475,鹰潭市,财苑宾馆,颗粒物(PM10),65,79,67,44,38,124,70,66,30,29,36,54,34,0.8,0.8
2023-02-18T11:00:00,2360A,117.0222,28.2264,鹰潭市,体育馆,细颗粒物(PM2.5),72,72,55,52,34,104,93,55,55,36,27,50,23,0.7,0.4
2023-02-18T11:00:00,2361A,117.0017,28.2131,鹰潭市,三川水表,颗粒物(PM10),82,113,64,56,36,110,82,40,40,46,30,34,10,1.0,0.6
2023-02-18T11:00:00,2362A,114.9017,25.9149,赣州市,通天岩,颗粒物(PM10),54,58,58,28,32,148,55,42,28,42,16,16,9,1.1,1
2023-02-18T11:00:00,2363A,114.9367,25.8664,赣州市,地委,颗粒物(PM10),61,72,78,36,33,130,39,13,13,49,42,19,15,1.1,1.1
2023-02-18T11:00:00,2364A,114.9461,25.8481,赣州市,气象台,颗粒物(PM10),54,58,70,30,38,120,40,14,14,33,42,21,13,1.0,1.1
2023-02-18T11:00:00,2365A,114.9322,25.8333,赣州市,市图书馆,细颗粒物(PM2.5),55,56,76,39,37,122,28,8,8,49,51,17,10,1.3,1.4
2023-02-18T11:00:00,2366A,114.8905,25.8471,赣州市,华坚鞋城,颗粒物(PM10),66,82,103,41,47,106,26,8,4,43,42,17,9,1.1,1.2
2023-02-18T11:00:00,2367A,114.9754,27.0803,吉安市,红声器材厂,细颗粒物(PM2.5),59,63,68,42,38,101,49,18,18,28,39,18,9,0.8,0.8
2023-02-18T11:00:00,2368A,114.9658,27.0999,吉安市,市森林工业局,细颗粒物(PM2.5),57,57,68,40,43,104,50,24,24,26,43,13,9,0.6,0.7
2023-02-18T11:00:00,2369A,114.99,27.1312,吉安市,市环境监测站,细颗粒物(PM2.5),59,59,62,42,37,105,51,25,25,27,35,16,10,0.7,0.7
2023-02-18T11:00:00,2370A,115.0093,27.0968,吉安市,青原区法院,细颗粒物(PM2.5),62,66,65,44,41,107,48,18,18,30,38,26,13,0.6,0.6
2023-02-18T11:00:00,2371A,114.3408,27.8064,宜春市,槟榔水业,细颗粒物(PM2.5),62,65,63,44,38,73,20,9,9,33,23,18,14,0.9,0.7
2023-02-18T11:00:00,2373A,114.3956,27.7844,宜春市,市石油公司,颗粒物(PM10),63,76,73,44,45,98,27,39,8,35,29,21,7,0.9,0.8
2023-02-18T11:00:00,2374A,114.3703,27.7914,宜春市,市气象局,细颗粒物(PM2.5),65,74,72,47,43,93,29,18,16,35,33,29,12,0.9,0.9
2023-02-18T11:00:00,2375A,114.4013,27.8074,宜春市,市广电局,细颗粒物(PM2.5),72,80,71,52,47,101,31,63,23,38,30,22,13,1.1,1
2023-02-18T11:00:00,2376A,116.2127,28.0814,抚州市,桐源党溪,,,90,56,53,38,94,27,26,19,41,5,82,17,1.1,0.8
2023-02-18T11:00:00,2377A,116.3544,27.9831,抚州市,市站,细颗粒物(PM2.5),67,72,61,48,42,92,31,42,13,37,31,8,7,0.7,0.7
2023-02-18T11:00:00,2378A,116.3565,27.963,抚州市,血防站,颗粒物(PM10),62,73,63,43,38,89,28,28,11,40,33,10,10,0.8,0.8
