timepoint,stationcode,longitude,latitude,area,positionname,primarypollutant,aqi,pm10,pm10_24h,pm2_5,pm2_5_24h,o3,o3_24h,o3_8h,o3_8h_24h,no2,no2_24h,so2,so2_24h,co,co_24h
2023-02-18T08:00:00,1001A,116.3621,39.8784,北京市,万寿西宫,细颗粒物(PM2.5),223,214,210,173,162,39,12,2,2,62,90,1,4,1.3,1.4
2023-02-18T08:00:00,1002A,116.2202,40.2915,北京市,定陵,细颗粒物(PM2.5),230,209,202,180,170,50,39,39,39,18,33,1,2,0.9,0.9
2023-02-18T08:00:00,1003A,116.4174,39.9289,北京市,东四,细颗粒物(PM2.5),220,215,216,170,159,41,14,7,7,56,79,2,6,1.1,1.2
2023-02-18T08:00:00,1004A,116.4072,39.8863,北京市,天坛,细颗粒物(PM2.5),232,208,206,182,173,33,7,3,3,57,71,3,4,1.2,1.3
2023-02-18T08:00:00,1005A,116.462,39.9365,北京市,农展馆,细颗粒物(PM2.5),223,223,216,173,160,39,8,3,3,59,79,3,4,1.0,1.1
2023-02-18T08:00:00,1006A,116.3392,39.9295,北京市,官园,细颗粒物(PM2.5),232,228,222,182,168,53,18,4,4,52,77,4,7,1.0,1.3
2023-02-18T08:00:00,1007A,116.2878,39.9611,北京市,海淀万柳,细颗粒物(PM2.5),242,212,215,192,157,31,0,1,0,67,74,1,3,1.2,1.1
2023-02-18T08:00:00,1008A,116.6636,40.135,北京市,顺义新城,细颗粒物(PM2.5),219,199,216,169,167,71,21,7,7,38,58,3,3,1.0,1.1
2023-02-18T08:00:00,1009A,116.6275,40.3275,北京市,怀柔镇,细颗粒物(PM2.5),214,231,238,164,159,71,9,38,27,70,59,1,3,1.1,0.9
2023-02-18T08:00:00,1010A,116.2296,40.217,北京市,昌平镇,细颗粒物(PM2.5),215,201,202,165,157,61,16,37,24,42,45,3,3,1.2,1.1
2023-02-18T08:00:00,1011A,116.3966,39.9821,北京市,奥体中心,细颗粒物(PM2.5),238,221,212,188,164,38,11,5,5,55,72,3,3,1.1,1.2
2023-02-18T08:00:00,1012A,116.184,39.9136,北京市,古城,细颗粒物(PM2.5),219,219,215,169,160,38,4,3,2,58,69,1,2,1.2,1.2
2023-02-18T08:00:00,1015A,117.1444,39.1661,天津市,勤俭道,细颗粒物(PM2.5),208,199,185,158,142,75,2,1,1,99,78,10,12,1.5,1.2
2023-02-18T08:00:00,1017A,117.237,39.1082,天津市,大直沽八号路,细颗粒物(PM2.5),189,187,185,142,135,69,3,5,3,101,80,12,13,1.3,1.3
2023-02-18T08:00:00,1018A,117.202,39.0927,天津市,前进道,细颗粒物(PM2.5),172,166,167,130,127,71,7,55,14,97,73,8,10,1.2,1.2
2023-02-18T08:00:00,1019A,117.1837,39.2133,天津市,淮河道,细颗粒物(PM2.5),212,250,229,162,142,63,5,5,5,103,83,12,12,1.6,1.2
2023-02-18T08:00:00,1021A,117.307,39.0877,天津市,跃进路,细颗粒物(PM2.5),189,184,177,142,132,68,2,2,2,93,82,12,14,1.3,1.2
2023-02-18T08:00:00,1023A,117.707,39.0343,天津市,第四大街,细颗粒物(PM2.5),206,198,178,156,129,56,1,0,0,95,104,8,12,1.2,1.1
2023-02-18T08:00:00,1024A,117.457,38.8394,天津市,永明路,细颗粒物(PM2.5),158,143,154,120,127,64,1,7,5,89,81,10,17,0.9,0.9
2023-02-18T08:00:00,1026A,117.764,39.1587,天津市,汉北路,细颗粒物(PM2.5),231,184,170,181,145,31,2,2,2,84,97,10,12,1.6,1.3
2023-02-18T08:00:00,1027A,117.157,38.9194,天津市,团泊洼,细颗粒物(PM2.5),185,186,178,139,131,58,0,0,0,95,82,8,9,1.4,1.2
2023-02-18T08:00:00,1029A,114.4422,38.0444,石家庄市,职工医院,细颗粒物(PM2.5),230,254,216,180,165,84,4,4,4,74,72,8,8,1.6,1.4
2023-02-18T08:00:00,1030A,114.6063,38.0266,石家庄市,高新区,细颗粒物(PM2.5),216,222,214,166,150,87,4,4,3,73,68,6,6,1.4,1.2
2023-02-18T08:00:00,1031A,114.4898,38.1328,石家庄市,西北水源,细颗粒物(PM2.5),216,243,225,166,154,53,3,2,2,87,76,4,3,1.4,1.4
2023-02-18T08:00:00,1032A,114.4586,38.0058,石家庄市,西南高教,细颗粒物(PM2.5),235,231,221,185,176,78,2,2,2,77,66,7,7,1.6,1.5
2023-02-18T08:00:00,1033A,114.5331,38.0178,石家庄市,世纪公园,细颗粒物(PM2.5),239,224,217,189,178,73,1,6,2,70,61,5,5,1.6,1.6
2023-02-18T08:00:00,1034A,114.509,38.0457,石家庄市,人民会堂,细颗粒物(PM2.5),235,221,215,185,176,77,5,6,5,67,59,6,6,1.3,1.2
2023-02-18T08:00:00,1035A,114.3524,37.8911,石家庄市,封龙山,细颗粒物(PM2.5),209,201,204,159,155,111,83,97,95,54,57,3,5,1.9,1.7
2023-02-18T08:00:00,1037A,118.131,39.6363,唐山市,雷达站,细颗粒物(PM2.5),223,228,194,173,155,75,4,11,5,91,79,17,15,2.0,1.6
2023-02-18T08:00:00,1038A,118.1725,39.6334,唐山市,物资局,细颗粒物(PM2.5),220,227,196,170,146,64,6,6,5,93,93,25,23,2.1,1.7
2023-02-18T08:00:00,1040A,118.1705,39.6506,唐山市,十二中,细颗粒物(PM2.5),230,235,196,180,158,58,0,0,0,72,93,14,16,2.1,1.7
2023-02-18T08:00:00,1041A,118.1869,39.622,唐山市,小山,细颗粒物(PM2.5),235,264,209,185,156,77,4,4,4,107,95,20,19,2.4,1.7
2023-02-18T08:00:00,1042A,119.5134,39.8207,秦皇岛市,北戴河环保局,细颗粒物(PM2.5),234,186,140,184,126,81,5,50,44,94,69,12,15,2.1,1.4
2023-02-18T08:00:00,1043A,119.7493,40.0116,秦皇岛市,第一关,细颗粒物(PM2.5),190,162,172,143,145,45,1,1,1,88,82,8,12,1.6,1.6
2023-02-18T08:00:00,1044A,119.5897,39.9499,秦皇岛市,监测站,细颗粒物(PM2.5),233,230,183,183,146,66,0,5,2,91,83,12,13,2.3,1.7
2023-02-18T08:00:00,1046A,119.5251,39.9041,秦皇岛市,建设大厦,细颗粒物(PM2.5),172,216,172,130,114,80,1,3,3,90,77,10,16,2.1,1.7
2023-02-18T08:00:00,1048A,114.5302,36.6116,邯郸市,东污水处理厂,细颗粒物(PM2.5),235,230,170,185,138,83,20,18,15,47,43,9,10,1.7,1.5
2023-02-18T08:00:00,1049A,114.4918,36.5713,邯郸市,矿院,细颗粒物(PM2.5),240,232,163,190,143,86,11,40,21,57,41,8,10,1.5,1.2
2023-02-18T08:00:00,1050A,114.484,36.6133,邯郸市,丛台公园,细颗粒物(PM2.5),249,230,166,199,139,80,8,34,16,55,39,8,9,1.4,1.1
2023-02-18T08:00:00,1051A,115.493,38.8632,保定市,游泳馆,细颗粒物(PM2.5),238,209,200,188,176,45,8,19,12,76,75,14,14,1.3,1.2
2023-02-18T08:00:00,1052A,115.5213,38.8959,保定市,华电二区,细颗粒物(PM2.5),259,223,192,209,176,40,5,8,6,88,93,11,8,2.0,1.7
2023-02-18T08:00:00,1053A,115.4713,38.9108,保定市,接待中心,细颗粒物(PM2.5),250,222,190,200,166,34,3,6,3,70,78,7,7,1.8,1.5
2023-02-18T08:00:00,1054A,115.4612,38.8416,保定市,地表水厂,细颗粒物(PM2.5),229,253,227,179,148,36,9,15,10,66,76,9,10,1.4,1
2023-02-18T08:00:00,1056A,115.5086,38.8639,保定市,监测站,细颗粒物(PM2.5),259,227,201,209,179,46,9,17,12,72,77,7,8,1.8,1.5
2023-02-18T08:00:00,1057A,114.8883,40.8336,张家口市,人民公园,细颗粒物(PM2.5),85,82,102,63,76,76,48,60,57,23,33,13,11,0.7,0.8
2023-02-18T08:00:00,1059A,114.8687,40.8042,张家口市,五金库,,,76,85,56,78,62,39,60,55,40,50,7,8,,0.8
2023-02-18T08:00:00,1060A,114.8902,40.762,张家口市,世纪豪园,细颗粒物(PM2.5),158,147,130,120,102,63,9,55,39,61,49,10,8,1.6,1.3
2023-02-18T08:00:00,1061A,114.8916,40.8661,张家口市,北泵房,细颗粒物(PM2.5),104,90,112,78,91,80,41,58,52,40,42,34,17,1.1,1.2
2023-02-18T08:00:00,1062A,117.9531,40.9081,承德市,铁路,细颗粒物(PM2.5),207,201,179,157,126,65,7,12,8,58,64,9,12,1.9,1.5
2023-02-18T08:00:00,1063A,117.9392,40.9763,承德市,中国银行,细颗粒物(PM2.5),189,176,158,142,123,90,8,8,7,56,55,6,8,1.5,1.3
2023-02-18T08:00:00,1064A,117.9503,40.928,承德市,开发区,细颗粒物(PM2.5),207,181,160,157,134,81,6,5,5,60,63,11,11,1.9,1.4
2023-02-18T08:00:00,1065A,117.8051,40.9655,承德市,文化中心,细颗粒物(PM2.5),212,196,178,162,136,83,8,6,6,51,55,8,11,1.6,1.4
2023-02-18T08:00:00,1066A,117.9268,41.0026,承德市,离宫,细颗粒物(PM2.5),162,178,155,123,119,92,7,7,6,33,31,9,12,1.3,1.1
2023-02-18T08:00:00,1067A,116.6708,39.5111,廊坊市,药材公司,细颗粒物(PM2.5),229,257,239,179,165,38,6,6,6,81,82,8,9,2.1,1.7
2023-02-18T08:00:00,1068A,116.7214,39.5589,廊坊市,开发区,细颗粒物(PM2.5),233,240,235,183,178,27,8,8,8,84,106,8,10,1.9,1.6
2023-02-18T08:00:00,1070A,116.7244,39.5269,廊坊市,北华航天学院,细颗粒物(PM2.5),249,261,247,199,184,38,4,4,4,91,106,13,14,1.8,1.5
2023-02-18T08:00:00,1071A,116.8842,38.2991,沧州市,沧县城建局,细颗粒物(PM2.5),220,234,160,170,119,107,8,8,7,93,75,19,15,1.4,1.1
2023-02-18T08:00:00,1072A,116.8584,38.3254,沧州市,电视转播站,细颗粒物(PM2.5),216,200,150,166,115,104,2,2,2,74,60,12,12,1.4,1
2023-02-18T08:00:00,1073A,116.8709,38.3228,沧州市,市环保局,细颗粒物(PM2.5),202,205,150,152,119,104,7,7,7,90,73,9,8,1.2,0.8
2023-02-18T08:00:00,1074A,115.6838,37.7541,衡水市,电机北厂,细颗粒物(PM2.5),236,244,158,186,121,97,1,0,0,85,45,6,6,1.2,0.8
2023-02-18T08:00:00,1075A,115.6303,37.7316,衡水市,市监测站,细颗粒物(PM2.5),235,258,174,185,124,95,3,3,3,75,42,14,16,1.2,0.8
2023-02-18T08:00:00,1077A,114.4704,37.0886,邢台市,达活泉,细颗粒物(PM2.5),276,247,226,226,196,53,8,19,9,56,56,9,13,1.5,1.5
2023-02-18T08:00:00,1078A,114.5062,37.0349,邢台市,邢师高专,细颗粒物(PM2.5),253,228,188,203,168,60,6,26,14,63,52,7,9,1.3,1.3
2023-02-18T08:00:00,1079A,114.5237,37.0851,邢台市,路桥公司,细颗粒物(PM2.5),262,255,217,212,181,59,4,15,7,67,58,9,12,1.5,1.6
2023-02-18T08:00:00,1080A,114.4725,37.0719,邢台市,市环保局,细颗粒物(PM2.5),257,253,220,207,183,53,11,20,11,55,55,7,10,1.2,1.4
2023-02-18T08:00:00,1081A,112.522,37.8873,太原市,尖草坪,细颗粒物(PM2.5),211,205,182,161,138,86,20,46,38,66,59,17,13,1.5,1.3
2023-02-18T08:00:00,1083A,112.434,38.0108,太原市,上兰,,,,,,,,,,,,,,,,
2023-02-18T08:00:00,1084A,112.469,37.7124,太原市,晋源,细颗粒物(PM2.5),212,200,180,162,145,92,6,8,6,69,60,16,13,1.7,1.5
2023-02-18T08:00:00,1085A,112.5583,37.7394,太原市,小店,细颗粒物(PM2.5),234,221,187,184,141,81,8,44,20,66,60,14,16,1.6,1.6
2023-02-18T08:00:00,1086A,112.5369,37.8692,太原市,桃园,细颗粒物(PM2.5),228,227,187,178,147,90,10,36,31,71,66,16,14,1.6,1.5
2023-02-18T08:00:00,1087A,112.57,37.8195,太原市,坞城,细颗粒物(PM2.5),237,239,174,187,133,87,6,34,25,73,61,23,16,1.9,1.5
2023-02-18T08:00:00,1088A,112.549,37.9854,太原市,南寨,细颗粒物(PM2.5),169,153,184,128,144,109,4,4,3,79,72,7,9,1.4,1.3
2023-02-18T08:00:00,1090A,111.6507,40.7517,呼和浩特市,呼市一监,颗粒物(PM10),51,51,91,11,75,89,54,28,27,36,51,6,13,0.4,0.9
2023-02-18T08:00:00,1091A,111.6572,40.8033,呼和浩特市,小召,,29,29,100,8,68,81,57,21,21,14,66,11,26,0.4,1
2023-02-18T08:00:00,1094A,111.7516,40.8369,呼和浩特市,如意水处理厂,,25,25,103,15,65,103,59,24,24,16,60,11,16,0.4,0.9
2023-02-18T08:00:00,1095A,111.7276,40.8062,呼和浩特市,二十九中,颗粒物(PM10),95,139,107,14,69,95,48,23,22,20,56,7,13,0.5,0.9
2023-02-18T08:00:00,1096A,111.5512,40.7866,呼和浩特市,工大金川校区,颗粒物(PM10),66,81,108,14,74,88,52,23,23,10,52,6,13,0.7,0.9
2023-02-18T08:00:00,1097A,111.717,40.7612,呼和浩特市,化肥厂生活区,,25,25,106,15,70,99,57,35,34,17,50,9,15,0.5,0.9
2023-02-18T08:00:00,1098A,123.6836,41.9339,沈阳市,森林路,,,,,,,,,,,,,,,,
2023-02-18T08:00:00,1099A,123.505,41.7406,沈阳市,浑南东路,细颗粒物(PM2.5),216,196,146,166,117,65,21,43,35,47,48,16,19,1.3,1.4
2023-02-18T08:00:00,1100A,123.4231,41.6989,沈阳市,新秀街,细颗粒物(PM2.5),224,216,171,174,128,68,18,63,42,53,42,17,18,1.3,1.4
2023-02-18T08:00:00,1102A,123.5903,41.8411,沈阳市,东陵路,细颗粒物(PM2.5),213,191,129,163,117,73,20,37,25,45,46,13,18,1.2,1.3
2023-02-18T08:00:00,1103A,123.4264,41.8467,沈阳市,陵东街,细颗粒物(PM2.5),83,84,163,61,123,78,48,65,52,31,49,11,18,0.7,1.3
2023-02-18T08:00:00,1104A,123.4114,41.7653,沈阳市,文化路,细颗粒物(PM2.5),158,146,171,120,134,77,36,72,50,41,38,14,16,1.0,1.3
2023-02-18T08:00:00,1105A,123.4678,41.7867,沈阳市,小河沿,细颗粒物(PM2.5),160,156,158,122,116,77,33,62,48,47,49,12,19,1.0,1.3
2023-02-18T08:00:00,1106A,123.4017,41.7972,沈阳市,太原街,细颗粒物(PM2.5),113,107,169,85,142,70,37,69,44,39,50,11,18,0.8,1.3
2023-02-18T08:00:00,1108A,123.3783,41.9228,沈阳市,京沈街,细颗粒物(PM2.5),82,65,141,60,141,65,47,58,46,29,53,10,18,0.6,1.3
2023-02-18T08:00:00,1109A,121.612,38.9741,大连市,甘井子,细颗粒物(PM2.5),82,103,109,60,68,72,24,44,35,54,51,5,12,0.6,0.7
2023-02-18T08:00:00,1110A,121.565,38.9511,大连市,周水子,细颗粒物(PM2.5),84,106,127,62,74,72,15,32,26,54,55,9,20,0.8,0.9
2023-02-18T08:00:00,1111A,121.5637,38.8845,大连市,星海三站,细颗粒物(PM2.5),59,52,72,42,55,67,34,40,38,40,38,8,4,0.6,0.7
2023-02-18T08:00:00,1112A,121.6302,38.9117,大连市,青泥洼桥,细颗粒物(PM2.5),72,54,74,52,60,96,18,49,37,55,41,13,16,0.8,0.8
2023-02-18T08:00:00,1113A,121.6251,38.8638,大连市,傅家庄,细颗粒物(PM2.5),69,75,75,50,46,86,46,54,51,22,28,9,10,0.7,0.7
2023-02-18T08:00:00,1114A,121.5213,38.8661,大连市,七贤岭,细颗粒物(PM2.5),65,56,83,47,70,87,43,27,27,29,40,8,8,0.5,0.7
2023-02-18T08:00:00,1115A,121.2529,38.8061,大连市,旅顺,细颗粒物(PM2.5),63,54,71,45,61,85,39,63,52,27,25,7,8,0.7,0.7
2023-02-18T08:00:00,1116A,121.7485,39.1311,大连市,金州,细颗粒物(PM2.5),88,94,94,65,71,74,30,74,46,29,47,6,14,1.5,1.1
2023-02-18T08:00:00,1117A,121.7811,39.0496,大连市,开发区,细颗粒物(PM2.5),83,71,75,61,64,74,27,38,26,43,53,7,10,0.7,0.6
2023-02-18T08:00:00,1118A,121.9762,39.0631,大连市,双D港,细颗粒物(PM2.5),73,66,63,53,52,76,49,54,45,24,32,7,9,0.8,0.7
2023-02-18T08:00:00,1119A,125.3325,43.9166,长春市,食品厂,,36,36,52,21,34,75,48,51,50,30,35,8,8,0.5,0.5
2023-02-18T08:00:00,1120A,125.2863,43.9027,长春市,客车厂,,38,38,48,20,36,77,41,53,50,42,36,10,19,0.4,0.4
2023-02-18T08:00:00,1121A,125.2841,43.8463,长春市,邮电学院,,28,28,48,17,34,82,56,55,53,27,36,26,15,0.3,0.5
2023-02-18T08:00:00,1122A,125.3716,43.8772,长春市,劳动公园,,,,49,,32,81,,42,42,,40,,17,,0.5
2023-02-18T08:00:00,1123A,125.3297,43.8805,长春市,园林处,,25,24,42,17,30,71,55,53,53,24,39,9,16,0.3,0.4
2023-02-18T08:00:00,1124A,125.4605,43.79,长春市,净月潭,,26,26,53,13,24,83,61,46,46,13,22,9,7,0.4,0.6
2023-02-18T08:00:00,1125A,125.7194,43.515,长春市,甩湾子,,,,,,,,,,,,,,,,
2023-02-18T08:00:00,1126A,125.3863,43.8447,长春市,经开区环卫处,,23,22,49,16,36,77,61,41,41,17,36,11,13,0.4,0.5
2023-02-18T08:00:00,1127A,125.245,43.7783,长春市,高新区管委会,,33,33,61,19,53,86,38,32,32,37,36,12,9,0.5,0.6
2023-02-18T08:00:00,1128A,125.1761,43.8325,长春市,岱山公园,,33,30,51,23,38,78,45,42,42,28,34,7,7,0.4,0.5
2023-02-18T08:00:00,1129A,126.5422,45.755,哈尔滨市,岭北,,48,48,74,32,60,104,58,63,57,16,24,16,14,0.3,0.6
2023-02-18T08:00:00,1130A,126.561,45.8167,哈尔滨市,松北商大,,28,28,66,16,51,109,69,61,61,23,39,9,11,0.5,0.7
2023-02-18T08:00:00,1131A,126.979,45.5419,哈尔滨市,阿城会宁,细颗粒物(PM2.5),133,96,84,101,70,107,16,79,57,51,32,9,11,1.0,0.7
2023-02-18T08:00:00,1132A,126.599,45.7222,哈尔滨市,南岗学府路,,43,43,95,8,59,100,55,65,56,36,44,45,26,0.9,0.8
2023-02-18T08:00:00,1133A,126.689,45.7733,哈尔滨市,太平宏伟公园,,26,26,80,11,58,104,60,54,54,28,45,49,13,0.2,0.5
2023-02-18T08:00:00,1134A,126.635,45.7667,哈尔滨市,道外承德广场,,42,42,71,26,57,99,60,52,52,29,41,16,12,0.5,0.8
2023-02-18T08:00:00,1135A,126.685,45.7319,哈尔滨市,香坊红旗大街,,27,27,83,14,71,89,58,43,43,26,50,24,23,0.6,0.9
2023-02-18T08:00:00,1136A,126.6411,45.7258,哈尔滨市,动力和平路,,27,27,74,12,58,92,60,46,46,27,44,28,15,0.5,0.7
2023-02-18T08:00:00,1137A,126.593,45.7478,哈尔滨市,道里建国路,,36,25,74,25,63,92,56,49,49,29,45,17,15,0.4,0.7
2023-02-18T08:00:00,1138A,126.615,45.61,哈尔滨市,平房东轻厂,细颗粒物(PM2.5),83,65,74,61,62,94,28,73,46,48,34,18,12,0.8,0.7
2023-02-18T08:00:00,1139A,126.595,45.9855,哈尔滨市,呼兰师专,细颗粒物(PM2.5),59,29,75,42,66,101,54,48,44,24,35,14,15,0.5,0.6
2023-02-18T08:00:00,1140A,126.6206,45.6842,哈尔滨市,省农科院,细颗粒物(PM2.5),62,46,102,44,71,104,39,50,45,42,46,24,19,0.8,1
2023-02-18T08:00:00,1141A,121.4,31.238,上海市,普陀,,48,36,51,33,33,72,17,22,16,52,58,8,7,0.6,0.7
2023-02-18T08:00:00,1142A,121.478,31.2036,上海市,十五厂,,,36,47,,20,66,5,11,10,62,66,6,6,0.8,0.8
2023-02-18T08:00:00,1143A,121.467,31.3008,上海市,虹口,颗粒物(PM10),54,58,61,37,36,71,6,6,5,67,66,8,6,0.8,0.7
2023-02-18T08:00:00,1144A,121.412,31.1654,上海市,徐汇上师大,,47,47,50,30,29,67,5,13,11,65,66,9,10,0.7,0.7
2023-02-18T08:00:00,1145A,121.536,31.2659,上海市,杨浦四漂,颗粒物(PM10),73,95,61,41,34,77,4,4,4,70,67,10,8,0.8,0.6
2023-02-18T08:00:00,1147A,121.425,31.2261,上海市,静安监测站,颗粒物(PM10),51,51,60,32,30,70,14,25,24,60,63,16,10,0.8,0.8
2023-02-18T08:00:00,1148A,121.703,31.1907,上海市,浦东川沙,颗粒物(PM10),55,59,48,32,29,81,4,6,3,55,51,6,5,0.5,0.5
2023-02-18T08:00:00,1149A,121.533,31.2284,上海市,浦东新区监测站,颗粒物(PM10),54,57,58,34,34,70,4,12,7,61,55,6,6,0.2,0.4
2023-02-18T08:00:00,1150A,121.577,31.2071,上海市,浦东张江,,40,38,47,28,25,74,4,9,5,58,57,4,4,0.7,0.7
2023-02-18T08:00:00,1151A,118.8086,32.1065,南京市,迈皋桥,细颗粒物(PM2.5),107,126,106,80,62,57,5,16,10,68,52,6,6,0.7,0.5
2023-02-18T08:00:00,1152A,118.7538,32.0551,南京市,草场门,颗粒物(PM10),92,133,100,66,49,50,6,20,10,87,60,7,5,0.8,0.6
2023-02-18T08:00:00,1153A,118.7794,32.0745,南京市,山西路,细颗粒物(PM2.5),100,127,95,75,58,54,7,32,19,75,45,6,5,0.8,0.5
2023-02-18T08:00:00,1154A,118.7752,32.0023,南京市,中华门,细颗粒物(PM2.5),100,117,95,75,55,52,4,8,6,84,59,10,8,1.2,0.9
2023-02-18T08:00:00,1155A,118.8109,32.0309,南京市,瑞金路,细颗粒物(PM2.5),100,132,104,75,56,47,3,18,5,83,58,10,6,0.8,0.5
2023-02-18T08:00:00,1156A,118.7997,32.0754,南京市,玄武湖,细颗粒物(PM2.5),128,127,98,97,72,54,4,20,12,80,45,4,4,0.7,0.5
2023-02-18T08:00:00,1157A,118.6414,32.0931,南京市,浦口,细颗粒物(PM2.5),100,133,104,75,55,50,8,9,8,70,67,6,5,0.8,0.7
2023-02-18T08:00:00,1158A,118.7356,31.9996,南京市,奥体中心,细颗粒物(PM2.5),98,139,108,73,55,51,6,13,10,90,72,7,6,1.1,0.9
2023-02-18T08:00:00,1159A,118.9125,32.1028,南京市,仙林大学城,细颗粒物(PM2.5),98,110,88,73,60,66,3,32,12,92,54,8,7,0.9,0.6
2023-02-18T08:00:00,1160A,120.561,31.2472,苏州市,上方山,细颗粒物(PM2.5),60,54,70,43,51,70,2,12,6,67,59,7,7,0.6,0.6
2023-02-18T08:00:00,1162A,120.591,31.3019,苏州市,彩香,颗粒物(PM10),63,75,77,44,50,78,4,20,9,70,66,7,7,0.7,0.7
2023-02-18T08:00:00,1163A,120.596,31.3264,苏州市,轧钢厂,颗粒物(PM10),69,87,95,47,50,72,3,15,5,63,60,7,7,0.7,0.7
2023-02-18T08:00:00,1164A,120.613,31.2703,苏州市,吴中区,颗粒物(PM10),63,76,73,39,43,75,2,13,5,77,71,8,8,0.7,0.6
2023-02-18T08:00:00,1165A,120.543,31.2994,苏州市,苏州新区,"颗粒物(PM10),细颗粒物(PM2.5)",59,68,70,42,47,68,1,10,3,63,59,10,9,0.8,0.7
2023-02-18T08:00:00,1166A,120.669,31.3097,苏州市,苏州工业园区,颗粒物(PM10),61,71,78,40,49,75,2,26,9,63,60,13,9,0.6,0.6
2023-02-18T08:00:00,1167A,120.641,31.3708,苏州市,相城区,颗粒物(PM10),67,83,82,47,46,70,0,0,0,75,71,8,8,0.8,0.7
2023-02-18T08:00:00,1168A,120.9098,31.9663,南通市,狼山街道,细颗粒物(PM2.5),57,51,61,40,37,50,3,6,4,38,61,5,6,0.5,0.5
2023-02-18T08:00:00,1169A,120.86,32.0005,南通市,虹桥,细颗粒物(PM2.5),67,77,84,48,47,47,1,4,2,57,66,6,7,0.6,0.6
2023-02-18T08:00:00,1170A,120.87,32.02,南通市,城中,细颗粒物(PM2.5),75,87,84,55,51,44,2,4,2,60,68,8,8,0.5,0.5
2023-02-18T08:00:00,1171A,120.94,31.93,南通市,星湖花园,"颗粒物(PM10),细颗粒物(PM2.5)",62,74,72,44,41,45,1,1,0,51,62,6,6,0.4,0.5
2023-02-18T08:00:00,1172A,120.81,32.0417,南通市,紫琅学院,细颗粒物(PM2.5),73,87,86,53,44,39,0,0,0,57,65,7,8,0.5,0.5
2023-02-18T08:00:00,1173A,119.176,34.5885,连云港市,市环境监测站,细颗粒物(PM2.5),58,61,56,41,37,86,24,54,38,33,24,8,9,0.4,0.4
2023-02-18T08:00:00,1177A,117.179,34.2761,徐州市,黄河新村,细颗粒物(PM2.5),128,122,94,97,74,100,6,35,17,46,34,11,11,1.1,0.9
2023-02-18T08:00:00,1178A,117.1918,34.2384,徐州市,淮塔,细颗粒物(PM2.5),128,145,110,97,71,106,0,37,15,47,36,11,9,1.1,0.9
2023-02-18T08:00:00,1180A,117.256,34.2153,徐州市,新城区,细颗粒物(PM2.5),143,129,95,109,83,106,3,33,16,47,32,13,10,1.1,0.9
2023-02-18T08:00:00,1181A,117.244,34.2911,徐州市,桃园路,细颗粒物(PM2.5),125,136,110,95,76,98,5,30,15,44,32,9,9,1.0,0.9
2023-02-18T08:00:00,1182A,117.2933,34.2778,徐州市,农科院,细颗粒物(PM2.5),107,127,98,80,69,103,6,30,12,37,30,9,10,0.9,0.8
2023-02-18T08:00:00,1186A,119.389,32.3761,扬州市,邗江监测站,细颗粒物(PM2.5),108,136,112,81,77,35,2,3,2,95,83,11,9,1.3,0.9
2023-02-18T08:00:00,1188A,120.269,31.4867,无锡市,雪浪,颗粒物(PM10),71,92,80,41,43,92,0,0,0,80,64,12,10,0.8,0.5
2023-02-18T08:00:00,1189A,120.275,31.6219,无锡市,黄巷,颗粒物(PM10),83,116,101,41,44,58,6,10,8,94,82,9,7,1.0,0.8
2023-02-18T08:00:00,1190A,120.294,31.56,无锡市,曹张,颗粒物(PM10),66,81,83,39,45,80,2,2,1,84,72,9,7,0.8,0.7
2023-02-18T08:00:00,1191A,120.242,31.5031,无锡市,漆塘,颗粒物(PM10),67,83,77,41,46,93,4,4,4,78,60,13,10,1.0,0.8
2023-02-18T08:00:00,1192A,120.3489,31.5863,无锡市,东亭,颗粒物(PM10),69,88,84,46,46,72,2,22,14,87,73,11,10,1.2,1
2023-02-18T08:00:00,1193A,120.354,31.5475,无锡市,旺庄,颗粒物(PM10),64,78,79,41,44,78,0,0,0,88,77,8,6,0.9,0.7
2023-02-18T08:00:00,1194A,120.245,31.5631,无锡市,荣巷,颗粒物(PM10),63,75,76,36,42,90,5,5,4,69,59,13,12,0.8,0.7
2023-02-18T08:00:00,1195A,120.299,31.6817,无锡市,堰桥,颗粒物(PM10),70,90,83,44,43,40,27,9,9,74,64,8,8,1.1,0.9
2023-02-18T08:00:00,1196A,119.9633,31.762,常州市,市监测站,细颗粒物(PM2.5),82,97,104,60,66,75,5,4,4,92,78,13,8,1.4,0.8
2023-02-18T08:00:00,1200A,119.9468,31.7069,常州市,武进监测站,细颗粒物(PM2.5),69,85,100,50,61,77,5,4,4,86,67,11,11,0.9,0.9
2023-02-18T08:00:00,1201A,119.9255,31.9087,常州市,安家,细颗粒物(PM2.5),80,92,101,59,65,57,4,3,3,94,73,11,10,1.1,0.9
2023-02-18T08:00:00,1203A,119.6707,32.1875,镇江市,新区办事处,细颗粒物(PM2.5),98,117,117,73,74,39,5,6,5,79,76,7,6,1.4,1
2023-02-18T08:00:00,1204A,119.4974,32.1968,镇江市,职教中心,细颗粒物(PM2.5),93,103,104,69,75,41,3,2,2,94,82,15,11,1.0,0.9
2023-02-18T08:00:00,1205A,119.4303,32.1328,镇江市,丹徒区监测站,细颗粒物(PM2.5),107,122,121,80,81,55,2,1,1,90,72,7,7,1.0,0.8
2023-02-18T08:00:00,1206A,119.905,32.4878,泰州市,公园路,细颗粒物(PM2.5),85,100,89,63,63,42,3,8,3,57,52,9,9,1.4,1.1
2023-02-18T08:00:00,1207A,119.9189,32.4625,泰州市,莲花,细颗粒物(PM2.5),92,103,91,68,67,41,1,7,2,60,54,11,10,1.3,1.1
2023-02-18T08:00:00,1209A,119.888,32.4639,泰州市,留学生创业园,细颗粒物(PM2.5),78,103,106,57,60,41,1,3,1,67,59,11,10,1.3,1
2023-02-18T08:00:00,1210A,119.036,33.5981,淮安市,钵池山,细颗粒物(PM2.5),99,58,71,74,72,79,4,29,17,39,30,5,6,0.6,0.8
2023-02-18T08:00:00,1211A,119.007,33.575,淮安市,北京南路,细颗粒物(PM2.5),84,70,75,62,62,70,0,30,12,43,37,7,9,0.7,0.9
2023-02-18T08:00:00,1212A,118.989,33.6067,淮安市,市监测站,细颗粒物(PM2.5),73,75,82,53,63,78,6,38,18,43,38,6,8,0.8,1
2023-02-18T08:00:00,1213A,119.135,33.5039,淮安市,楚州区监测站,细颗粒物(PM2.5),82,63,74,60,62,68,1,10,5,37,36,6,7,0.7,0.8
2023-02-18T08:00:00,1214A,119.0186,33.6297,淮安市,淮阴区监测站,细颗粒物(PM2.5),113,71,87,85,76,79,4,35,15,42,35,9,10,0.6,0.8
2023-02-18T08:00:00,1215A,120.118,33.4022,盐城市,盐城电厂,颗粒物(PM10),62,73,53,30,30,100,9,59,33,44,25,8,8,0.7,0.6
2023-02-18T08:00:00,1216A,120.156,33.3942,盐城市,市监测站,颗粒物(PM10),62,73,49,32,31,91,8,56,30,45,24,9,8,0.6,0.4
2023-02-18T08:00:00,1218A,120.2144,33.38,盐城市,开发区管委会,"颗粒物(PM10),细颗粒物(PM2.5)",70,90,60,51,34,91,4,50,31,40,24,5,4,0.7,0.6
2023-02-18T08:00:00,1220A,118.293,33.9528,宿迁市,宿迁学院,颗粒物(PM10),73,95,113,52,81,95,10,27,16,40,38,7,9,0.5,0.8
2023-02-18T08:00:00,1221A,118.2442,33.9592,宿迁市,宿迁中学,"颗粒物(PM10),细颗粒物(PM2.5)",70,90,115,51,76,103,12,31,18,40,36,8,10,0.4,0.7
2023-02-18T08:00:00,1223A,120.2072,30.2111,杭州市,滨江,颗粒物(PM10),63,75,87,37,45,64,6,3,3,58,81,8,9,1.1,0.9
2023-02-18T08:00:00,1224A,120.0633,30.2747,杭州市,西溪,细颗粒物(PM2.5),78,92,96,57,59,72,4,4,4,35,48,5,6,0.8,0.7
2023-02-18T08:00:00,1226A,120.3461,30.3153,杭州市,下沙,细颗粒物(PM2.5),105,119,115,79,72,79,8,4,4,70,84,7,8,1.0,0.7
2023-02-18T08:00:00,1227A,120.1269,30.2456,杭州市,卧龙桥,细颗粒物(PM2.5),89,85,79,66,56,77,4,5,3,33,48,5,6,0.7,0.7
2023-02-18T08:00:00,1228A,120.1903,30.2692,杭州市,浙江农大,细颗粒物(PM2.5),89,103,109,66,70,69,5,4,3,63,78,6,7,1.0,0.8
2023-02-18T08:00:00,1230A,120.1197,30.3119,杭州市,和睦小学,细颗粒物(PM2.5),115,128,112,87,75,63,12,12,11,66,75,6,6,1.0,0.8
2023-02-18T08:00:00,1231A,120.3019,30.4183,杭州市,临平镇,细颗粒物(PM2.5),93,132,108,69,62,67,5,14,6,68,64,9,8,1.1,0.7
2023-02-18T08:00:00,1232A,120.2697,30.1819,杭州市,城厢镇,"颗粒物(PM10),细颗粒物(PM2.5)",67,84,107,48,62,58,8,6,4,51,62,8,9,0.9,0.7
2023-02-18T08:00:00,1233A,120.0883,30.1808,杭州市,云栖,颗粒物(PM10),66,81,85,42,48,71,5,20,10,30,50,6,6,0.8,0.7
2023-02-18T08:00:00,1234A,121.8358,29.911,宁波市,区环保大楼,,,48,32,31,20,96,1,74,24,53,36,7,5,1.2,0.6
2023-02-18T08:00:00,1235A,121.56,29.82,宁波市,万里学院,,49,43,46,34,30,95,36,48,43,38,35,7,6,0.6,0.5
2023-02-18T08:00:00,1236A,121.713,29.9572,宁波市,龙赛医院,,47,47,50,27,25,76,9,12,10,60,49,7,7,0.6,0.5
2023-02-18T08:00:00,1239A,121.633,29.7733,宁波市,钱湖水厂,,33,27,27,23,17,106,44,64,58,17,12,5,5,0.7,0.6
2023-02-18T08:00:00,1240A,121.5856,29.8635,宁波市,太古小学,细颗粒物(PM2.5),54,39,44,38,30,85,23,42,37,46,33,10,9,0.6,0.5
2023-02-18T08:00:00,1241A,121.524,29.8674,宁波市,市环境监测中心,,43,43,43,22,20,88,5,22,13,59,48,6,6,0.6,0.5
2023-02-18T08:00:00,1242A,120.634,28.0089,温州市,瓯海,"颗粒物(PM10),细颗粒物(PM2.5)",99,148,102,74,52,69,3,4,3,63,62,9,9,0.6,0.7
2023-02-18T08:00:00,1243A,120.6748,27.9939,温州市,南浦,细颗粒物(PM2.5),78,95,90,57,50,55,5,4,4,62,66,7,7,0.6,0.6
2023-02-18T08:00:00,1244A,120.76,27.9747,温州市,龙湾,颗粒物(PM10),79,108,104,51,45,54,5,7,5,72,78,9,10,0.6,0.6
2023-02-18T08:00:00,1245A,120.6709,28.0167,温州市,市站,细颗粒物(PM2.5),97,134,103,72,50,53,7,3,3,71,79,8,8,0.6,0.6
2023-02-18T08:00:00,1247A,120.6053,29.9928,绍兴市,城东开发委,细颗粒物(PM2.5),75,87,82,55,45,100,5,4,3,43,56,5,5,0.9,0.6
2023-02-18T08:00:00,1250A,120.0751,30.8669,湖州市,城西水厂,细颗粒物(PM2.5),100,87,79,75,77,55,7,15,11,79,73,12,12,0.7,0.6
2023-02-18T08:00:00,1252A,120.7436,30.778,嘉兴市,清河小学,细颗粒物(PM2.5),69,66,74,50,49,68,4,11,5,52,57,6,6,1.0,0.7
2023-02-18T08:00:00,1253A,120.726,30.7478,嘉兴市,嘉兴学院,细颗粒物(PM2.5),70,72,71,51,47,72,5,9,5,59,64,5,6,0.6,0.6
2023-02-18T08:00:00,1255A,121.273,28.6459,台州市,黄岩环保大楼,颗粒物(PM10),54,58,67,30,40,105,12,17,13,38,50,9,9,0.5,0.6
2023-02-18T08:00:00,1256A,121.419,28.6542,台州市,台州环保大楼,颗粒物(PM10),58,66,57,38,34,105,11,44,29,48,37,10,9,0.6,0.5
2023-02-18T08:00:00,1257A,121.377,28.5773,台州市,路桥田洋王,细颗粒物(PM2.5),72,76,64,52,40,94,6,48,22,49,44,14,15,0.5,0.5
2023-02-18T08:00:00,1258A,122.122,30.0203,舟山市,定海檀枫,,35,35,32,15,14,89,25,52,45,42,33,5,5,0.4,0.3
2023-02-18T08:00:00,1259A,122.3094,29.9558,舟山市,普陀东港,,28,24,29,19,17,91,56,55,55,22,23,5,5,0.5,0.4
2023-02-18T08:00:00,1260A,122.19,29.9944,舟山市,临城新区,,25,22,28,17,16,92,55,66,61,36,38,5,6,0.4,0.4
2023-02-18T08:00:00,1262A,119.647,29.077,金华市,十五中,细颗粒物(PM2.5),62,59,79,44,47,101,8,6,6,45,59,10,10,0.8,0.6
2023-02-18T08:00:00,1263A,119.686,29.1029,金华市,监测站,细颗粒物(PM2.5),60,58,73,43,44,106,4,2,2,47,56,10,7,0.8,0.6
2023-02-18T08:00:00,1264A,118.8692,28.9398,衢州市,环保大楼,细颗粒物(PM2.5),53,51,74,37,49,86,5,4,3,42,50,5,5,0.9,0.9
2023-02-18T08:00:00,1265A,118.8709,28.9666,衢州市,实验学校,,50,50,67,34,43,98,4,3,3,34,46,3,7,0.8,0.7
2023-02-18T08:00:00,1266A,118.8621,28.9808,衢州市,衢州学院,颗粒物(PM10),59,67,66,41,44,90,2,2,2,34,42,6,8,0.8,0.7
2023-02-18T08:00:00,1267A,119.914,28.4514,丽水市,监测站大楼,,25,20,48,17,28,94,6,44,12,24,30,13,9,0.5,0.5
2023-02-18T08:00:00,1268A,119.93,28.4586,丽水市,莲都小学,颗粒物(PM10),56,61,45,18,19,106,5,5,4,28,36,8,7,0.5,0.4
2023-02-18T08:00:00,1269A,119.879,28.4231,丽水市,余庄前,细颗粒物(PM2.5),54,48,42,38,27,101,5,17,6,13,23,8,9,0.4,0.3
2023-02-18T08:00:00,1270A,117.1959,31.7848,合肥市,明珠广场,细颗粒物(PM2.5),79,97,104,58,60,66,4,20,12,64,52,14,11,1.2,1
2023-02-18T08:00:00,1271A,117.3072,31.8764,合肥市,三里街,细颗粒物(PM2.5),105,97,109,79,77,69,1,4,3,65,58,8,8,1.1,0.8
2023-02-18T08:00:00,1272A,117.2588,31.8707,合肥市,琥珀山庄,细颗粒物(PM2.5),77,90,102,56,58,80,6,13,9,59,57,5,6,1.2,0.9
2023-02-18T08:00:00,1273A,117.1604,31.9052,合肥市,董铺水库,颗粒物(PM10),75,100,107,51,61,72,7,20,13,53,46,7,6,0.8,0.7
2023-02-18T08:00:00,1274A,117.25,31.8571,合肥市,长江中路,细颗粒物(PM2.5),94,92,105,70,81,71,3,10,9,61,50,14,13,1.3,1.1
2023-02-18T08:00:00,1275A,117.266,31.9436,合肥市,庐阳区,"颗粒物(PM10),细颗粒物(PM2.5)",85,119,114,63,64,71,5,5,5,60,58,11,10,1.1,0.8
2023-02-18T08:00:00,1276A,117.336,31.8586,合肥市,瑶海区,细颗粒物(PM2.5),102,141,117,76,75,75,6,5,4,63,53,12,9,1.5,1
2023-02-18T08:00:00,1277A,117.3027,31.7964,合肥市,包河区,细颗粒物(PM2.5),98,107,105,73,70,76,3,13,6,55,46,15,11,1.1,0.9
2023-02-18T08:00:00,1278A,117.2776,31.7385,合肥市,滨湖新区,细颗粒物(PM2.5),77,102,99,56,59,77,2,27,22,61,39,10,11,0.8,0.7
2023-02-18T08:00:00,1279A,117.1318,31.8403,合肥市,高新区,细颗粒物(PM2.5),89,92,98,66,65,73,4,28,22,66,50,12,9,1.2,0.9
2023-02-18T08:00:00,1280A,119.3903,26.0543,福州市,鼓山,,,,,,,,,,,,,,,,
2023-02-18T08:00:00,1282A,119.2681,26.0504,福州市,师大,,40,40,42,24,22,105,16,30,17,30,28,4,5,0.5,0.5
2023-02-18T08:00:00,1283A,119.2984,26.1028,福州市,五四北路,,41,41,42,24,23,103,14,22,16,30,30,2,3,0.5,0.4
2023-02-18T08:00:00,1284A,119.2648,26.0768,福州市,杨桥西路,,37,37,40,22,20,105,15,21,12,27,24,3,4,0.6,0.5
2023-02-18T08:00:00,1285A,119.317,26.0746,福州市,紫阳,,37,37,44,23,22,102,16,22,18,28,30,3,4,0.6,0.6
2023-02-18T08:00:00,1286A,118.1608,24.8169,厦门市,溪东,,,,,,,,,,,,,,,,
2023-02-18T08:00:00,1287A,118.1514,24.4767,厦门市,洪文,细颗粒物(PM2.5),70,62,56,51,33,112,6,56,29,51,35,2,3,0.3,0.1
2023-02-18T08:00:00,1288A,118.0661,24.4444,厦门市,鼓浪屿,细颗粒物(PM2.5),58,61,47,41,28,120,16,64,42,64,36,6,6,0.4,0.3
2023-02-18T08:00:00,1290A,115.8931,28.6843,南昌市,省外办,细颗粒物(PM2.5),92,90,120,68,68,87,7,5,5,64,63,9,10,0.8,0.9
2023-02-18T08:00:00,1291A,115.8886,28.7003,南昌市,省林业公司,细颗粒物(PM2.5),85,78,108,63,65,84,6,1,1,84,77,11,11,0.8,1
2023-02-18T08:00:00,1292A,115.8126,28.7442,南昌市,林科所,,49,41,75,34,46,77,60,45,45,17,38,9,9,0.7,0.8
2023-02-18T08:00:00,1294A,115.8518,28.687,南昌市,建工学校,细颗粒物(PM2.5),83,93,104,61,54,79,4,3,3,61,59,5,6,0.9,0.9
2023-02-18T08:00:00,1295A,115.8921,28.6424,南昌市,象湖,细颗粒物(PM2.5),93,84,93,69,68,86,2,3,2,66,66,8,8,1.3,1.2
2023-02-18T08:00:00,1296A,115.7423,28.7996,南昌市,武术学校,,33,30,37,23,31,92,2,9,5,6,12,6,7,0.3,0.3
2023-02-18T08:00:00,1298A,115.9314,28.6842,南昌市,省站,细颗粒物(PM2.5),88,100,121,65,69,86,5,4,4,59,53,9,7,1.2,0.9
2023-02-18T08:00:00,1299A,116.9862,36.6114,济南市,科干所,细颗粒物(PM2.5),98,127,98,73,60,115,19,72,49,60,33,12,12,0.9,0.8
2023-02-18T08:00:00,1300A,116.9376,36.665,济南市,农科所,细颗粒物(PM2.5),95,132,102,71,59,107,4,32,12,86,61,11,10,1.0,0.8
2023-02-18T08:00:00,1301A,117.1265,36.6734,济南市,开发区,细颗粒物(PM2.5),110,127,94,83,63,114,12,45,32,60,40,13,14,0.7,0.6
2023-02-18T08:00:00,1303A,117.0624,36.6868,济南市,省种子仓库,细颗粒物(PM2.5),113,114,102,85,71,118,29,39,36,48,36,13,14,0.6,0.6
2023-02-18T08:00:00,1304A,116.9489,36.6447,济南市,机床二厂,细颗粒物(PM2.5),123,142,102,93,67,112,10,31,23,70,42,22,15,1.1,0.8
2023-02-18T08:00:00,1305A,117.0495,36.663,济南市,市监测站,细颗粒物(PM2.5),98,107,91,73,67,114,30,77,53,66,46,11,11,0.8,0.7
2023-02-18T08:00:00,1306A,116.7675,36.5484,济南市,长清党校,细颗粒物(PM2.5),110,127,101,83,66,119,16,46,39,75,52,14,14,1.0,0.8
2023-02-18T08:00:00,1307A,120.6659,36.2403,青岛市,仰口,,,,,,,,,,,,,,,,
2023-02-18T08:00:00,1310A,120.4134,36.0658,青岛市,市南区东部子站,,32,29,27,22,17,105,59,77,70,26,23,10,8,0.5,0.5
2023-02-18T08:00:00,1311A,120.3664,36.1032,青岛市,四方区子站,,36,36,35,24,20,90,45,69,63,39,25,6,6,0.4,0.4
2023-02-18T08:00:00,1312A,120.2994,36.054,青岛市,市南区西部子站,,22,22,24,12,12,105,57,80,75,30,22,7,8,0.3,0.4
2023-02-18T08:00:00,1313A,120.4581,36.0858,青岛市,崂山区子站,,25,22,23,17,14,107,68,83,75,19,16,7,7,0.4,0.4
2023-02-18T08:00:00,1314A,120.1983,35.9608,青岛市,黄岛区子站,,48,48,33,32,20,109,44,89,71,41,18,6,5,0.5,0.5
2023-02-18T08:00:00,1315A,120.3999,36.3083,青岛市,城阳区子站,颗粒物(PM10),51,51,45,32,24,116,35,77,61,36,24,6,6,0.4,0.4
2023-02-18T08:00:00,1316A,113.69031,34.76122,郑州市,烟厂,细颗粒物(PM2.5),129,117,89,98,84,105,10,9,9,55,51,8,7,0.6,0.6
2023-02-18T08:00:00,1317A,113.65724,34.77134,郑州市,郑纺机,细颗粒物(PM2.5),135,105,88,103,83,102,5,20,12,70,52,6,5,0.9,0.8
2023-02-18T08:00:00,1318A,113.67526,34.80246,郑州市,银行学校,细颗粒物(PM2.5),134,116,87,102,84,106,12,11,10,48,48,9,7,1.0,0.9
2023-02-18T08:00:00,1319A,113.56746,34.81334,郑州市,供水公司,细颗粒物(PM2.5),133,137,96,101,84,99,4,4,3,61,56,6,6,0.9,0.9
2023-02-18T08:00:00,1320A,113.7329,34.7178,郑州市,经开区管委,细颗粒物(PM2.5),137,124,94,104,90,101,5,3,3,61,54,8,8,0.8,0.9
2023-02-18T08:00:00,1321A,113.73961,34.77172,郑州市,四十七中,细颗粒物(PM2.5),137,118,94,104,86,95,10,6,6,48,46,5,5,0.8,0.8
2023-02-18T08:00:00,1322A,113.60532,34.74838,郑州市,市监测站,细颗粒物(PM2.5),150,150,115,115,87,100,3,4,2,59,47,7,8,1.0,1
2023-02-18T08:00:00,1323A,113.64164,34.7525,郑州市,河医大,细颗粒物(PM2.5),133,129,95,101,82,100,2,2,2,63,51,6,6,1.0,0.9
2023-02-18T08:00:00,1324A,113.51488,34.91089,郑州市,岗李水库,,,,,,,,,,,,,,,,
2023-02-18T08:00:00,1325A,114.3677,30.5584,武汉市,东湖梨园,细颗粒物(PM2.5),85,83,88,63,75,86,12,13,12,56,54,10,13,0.9,1.3
2023-02-18T08:00:00,1326A,114.2529,30.558,武汉市,汉阳月湖,细颗粒物(PM2.5),107,103,95,80,80,72,7,8,7,65,58,10,12,1.7,1.4
2023-02-18T08:00:00,1327A,114.282,30.6189,武汉市,汉口花桥,细颗粒物(PM2.5),80,88,94,59,64,69,3,4,3,66,57,9,11,1.2,1.3
2023-02-18T08:00:00,1328A,114.3025,30.5332,武汉市,武昌紫阳,细颗粒物(PM2.5),99,87,93,74,83,65,4,4,3,70,59,16,17,2.1,1.8
2023-02-18T08:00:00,1329A,114.3646,30.6217,武汉市,青山钢花,细颗粒物(PM2.5),89,75,101,66,77,81,6,6,6,66,62,12,18,1.1,1.4
2023-02-18T08:00:00,1330A,114.1566,30.4825,武汉市,沌口新区,细颗粒物(PM2.5),82,99,90,60,67,67,4,9,5,75,60,16,19,1.7,1.3
2023-02-18T08:00:00,1331A,114.3014,30.5944,武汉市,汉口江滩,细颗粒物(PM2.5),70,75,95,51,67,70,16,19,19,58,57,8,13,0.8,1.2
2023-02-18T08:00:00,1333A,114.135,30.6319,武汉市,吴家山,细颗粒物(PM2.5),98,102,96,73,65,72,8,8,8,73,69,10,10,1.1,1.1
2023-02-18T08:00:00,1334A,113.8454,30.2917,武汉市,沉湖七壕,细颗粒物(PM2.5),72,91,70,52,44,71,4,10,5,60,40,13,11,1.5,1.1
2023-02-18T08:00:00,1335A,113.0833,28.2325,长沙市,经开区环保局,细颗粒物(PM2.5),90,76,90,67,67,56,1,6,2,51,53,5,10,1.2,1
2023-02-18T08:00:00,1336A,112.8872,28.2189,长沙市,高开区环保局,细颗粒物(PM2.5),90,110,119,67,67,53,8,9,9,68,67,10,10,1.2,1.2
2023-02-18T08:00:00,1337A,113.0792,28.2053,长沙市,马坡岭,细颗粒物(PM2.5),107,107,108,80,77,60,1,1,1,52,50,8,10,0.9,0.9
2023-02-18T08:00:00,1338A,112.9394,28.19,长沙市,湖南师范大学,细颗粒物(PM2.5),90,86,91,67,66,33,0,4,3,54,59,5,6,1.2,1.1
2023-02-18T08:00:00,1339A,113.0178,28.1322,长沙市,雨花区环保局,细颗粒物(PM2.5),80,71,94,59,66,48,14,9,9,50,60,7,6,0.7,0.8
2023-02-18T08:00:00,1340A,112.9792,28.2597,长沙市,伍家岭,细颗粒物(PM2.5),85,97,117,63,66,37,4,6,5,39,58,7,8,1.3,1.2
2023-02-18T08:00:00,1341A,113.0014,28.1944,长沙市,火车新站,细颗粒物(PM2.5),119,114,122,90,92,34,4,5,4,69,73,8,9,2.0,1.6
2023-02-18T08:00:00,1342A,112.9844,28.1178,长沙市,天心区环保局,,,,103,,62,13,,13,,,66,,6,,0.9
2023-02-18T08:00:00,1343A,112.8908,28.1308,长沙市,湖南中医药大学,细颗粒物(PM2.5),88,90,110,65,71,44,0,0,0,48,57,5,6,1.4,1.3
2023-02-18T08:00:00,1344A,112.9581,28.3611,长沙市,沙坪,细颗粒物(PM2.5),65,74,71,47,51,47,25,37,22,31,40,9,12,0.9,0.9
2023-02-18T08:00:00,1345A,113.2347,23.1423,广州市,广雅中学,细颗粒物(PM2.5),94,136,105,70,56,127,4,4,4,108,89,5,6,1.3,1
2023-02-18T08:00:00,1346A,113.2612,23.105,广州市,市五中,细颗粒物(PM2.5),94,107,98,70,65,146,6,7,6,108,85,7,7,1.5,1.2
2023-02-18T08:00:00,1348A,113.3478,23.0916,广州市,广东商学院,颗粒物(PM10),89,128,107,64,52,140,3,5,4,89,83,6,6,1.2,1.1
2023-02-18T08:00:00,1349A,113.4332,23.1047,广州市,市八十六中,,,,113,,52,137,4,4,3,91,80,5,5,1.2,1
2023-02-18T08:00:00,1350A,113.3505,22.9483,广州市,番禺中学,细颗粒物(PM2.5),90,101,88,67,54,161,4,8,5,97,70,8,7,1.3,1.2
2023-02-18T08:00:00,1351A,113.2146,23.3916,广州市,花都师范,细颗粒物(PM2.5),70,81,82,51,51,183,7,49,17,80,55,6,7,0.9,0.8
2023-02-18T08:00:00,1352A,113.2597,23.1331,广州市,市监测站,细颗粒物(PM2.5),80,107,92,59,51,137,4,4,3,115,92,8,8,1.2,1
2023-02-18T08:00:00,1353A,113.5618,23.312,广州市,九龙镇镇龙,"颗粒物(PM10),细颗粒物(PM2.5)",62,74,70,44,37,122,1,0,0,39,47,5,5,0.7,0.7
2023-02-18T08:00:00,1354A,113.2765,23.1544,广州市,麓湖,"颗粒物(PM10),细颗粒物(PM2.5)",68,85,74,49,44,147,4,5,4,89,67,4,5,1.1,0.8
2023-02-18T08:00:00,1355A,113.443,23.3035,广州市,帽峰山森林公园,,26,9,46,13,33,154,81,114,96,17,19,5,6,0.9,0.9
2023-02-18T08:00:00,1356A,114.1063,22.5545,深圳市,通心岭子站,,50,50,45,32,24,121,8,71,30,54,27,2,3,0.8,0.7
2023-02-18T08:00:00,1357A,114.117,22.5625,深圳市,洪湖,颗粒物(PM10),61,71,56,30,26,157,6,58,23,69,38,7,8,0.7,0.5
2023-02-18T08:00:00,1358A,113.987,22.5417,深圳市,华侨城,,42,42,70,25,38,190,10,67,44,62,50,6,7,0.7,0.7
2023-02-18T08:00:00,1359A,113.9181,22.5171,深圳市,南海子站,颗粒物(PM10),52,53,77,34,38,176,35,61,51,33,47,4,5,0.8,0.8
2023-02-18T08:00:00,1360A,114.2458,22.5689,深圳市,盐田,,29,29,37,18,21,122,75,78,77,13,32,5,8,0.6,0.6
2023-02-18T08:00:00,1361A,114.2283,22.7244,深圳市,龙岗,颗粒物(PM10),68,85,62,48,33,156,29,70,31,58,35,4,4,0.6,0.6
2023-02-18T08:00:00,1363A,114.494,22.5422,深圳市,南澳,,35,35,39,19,19,161,40,71,56,14,15,6,6,0.5,0.5
2023-02-18T08:00:00,1364A,114.41,22.6342,深圳市,葵涌,,42,42,44,22,22,142,35,50,46,28,20,5,5,0.5,0.5
2023-02-18T08:00:00,1365A,114.297,22.5978,深圳市,梅沙,,34,34,44,17,21,152,91,114,99,11,13,5,4,0.8,0.8
2023-02-18T08:00:00,1366A,114.0678,22.738,深圳市,观澜,颗粒物(PM10),81,111,85,59,41,178,11,24,12,59,54,8,8,1.0,0.8
2023-02-18T08:00:00,1367A,113.5814,22.2618,珠海市,吉大,,49,49,52,33,30,170,37,79,48,48,28,5,4,0.6,0.5
2023-02-18T08:00:00,1368A,113.4881,22.2335,珠海市,前山,颗粒物(PM10),66,82,62,39,27,146,3,15,5,63,52,4,4,0.8,0.6
2023-02-18T08:00:00,1369A,113.628,22.4251,珠海市,唐家,颗粒物(PM10),53,56,52,34,32,224,22,59,30,31,28,6,7,0.5,0.4
2023-02-18T08:00:00,1370A,113.299,22.2281,珠海市,斗门,细颗粒物(PM2.5),60,65,55,43,32,162,14,62,45,46,29,4,4,0.5,0.4
2023-02-18T08:00:00,1371A,113.1294,23.0067,佛山市,湾梁,颗粒物(PM10),90,129,111,63,52,126,6,10,6,92,82,10,10,1.4,1.1
2023-02-18T08:00:00,1372A,113.1083,23.0478,佛山市,华材职中,细颗粒物(PM2.5),114,144,115,86,64,133,5,4,4,104,88,12,10,1.3,0.8
2023-02-18T08:00:00,1373A,113.144,23.0453,佛山市,南海气象局,细颗粒物(PM2.5),99,102,93,74,56,115,4,6,4,99,90,10,9,1.3,0.9
2023-02-18T08:00:00,1374A,113.2881,22.8094,佛山市,顺德苏岗,细颗粒物(PM2.5),70,72,53,51,38,189,1,14,3,74,60,8,8,0.8,0.7
2023-02-18T08:00:00,1376A,112.8383,22.8678,佛山市,高明孔堂,细颗粒物(PM2.5),97,106,86,72,57,182,18,45,20,51,49,11,10,0.9,0.7
2023-02-18T08:00:00,1377A,112.8836,23.1588,佛山市,三水监测站,细颗粒物(PM2.5),104,146,104,78,63,165,18,21,20,90,69,13,9,1.1,0.9
2023-02-18T08:00:00,1378A,112.867,23.185,佛山市,三水云东海,细颗粒物(PM2.5),104,111,89,78,62,180,2,5,2,60,55,7,8,0.9,0.8
2023-02-18T08:00:00,1379A,113.3769,22.5211,中山市,华柏园,,43,42,54,30,30,149,13,27,24,49,39,6,7,0.6,0.5
2023-02-18T08:00:00,1380A,113.3881,22.5497,中山市,张溪,颗粒物(PM10),53,56,67,36,32,157,8,26,10,44,48,4,5,0.7,0.6
2023-02-18T08:00:00,1381A,113.4075,22.5111,中山市,紫马岭,,35,24,44,24,23,163,22,44,39,35,31,4,5,0.6,0.5
2023-02-18T08:00:00,1382A,113.4411,22.4853,中山市,长江旅游区,,25,13,30,17,22,136,26,44,35,10,16,10,10,0.4,0.4
2023-02-18T08:00:00,1383A,113.1064,22.6058,江门市,北街,细颗粒物(PM2.5),62,63,73,44,45,190,11,70,29,64,60,7,10,1.2,0.9
2023-02-18T08:00:00,1384A,113.0731,22.5835,江门市,西区,细颗粒物(PM2.5),70,83,85,51,51,202,5,41,17,68,68,6,8,1.1,0.9
2023-02-18T08:00:00,1385A,113.0219,22.5311,江门市,圭峰西,细颗粒物(PM2.5),63,39,64,45,47,204,45,52,48,28,48,5,7,0.9,0.9
2023-02-18T08:00:00,1386A,113.0828,22.5947,江门市,东湖,颗粒物(PM10),65,80,82,37,45,200,7,38,18,56,61,5,8,1.0,1
2023-02-18T08:00:00,1389A,113.7547,23.0494,东莞市,莞城梨川,细颗粒物(PM2.5),62,72,62,44,35,165,20,27,10,56,51,15,11,0.7,0.7
2023-02-18T08:00:00,1390A,113.7944,23.0128,东莞市,东城石井,细颗粒物(PM2.5),68,77,54,49,30,167,5,48,11,53,41,9,8,0.9,0.7
2023-02-18T08:00:00,1391A,113.7383,22.9658,东莞市,南城西平,颗粒物(PM10),76,102,75,48,34,160,5,5,4,79,59,10,8,0.8,0.6
2023-02-18T08:00:00,1392A,114.4183,23.0528,惠州市,河南岸金山湖子站,细颗粒物(PM2.5),52,44,58,36,32,112,26,35,33,32,32,5,5,0.6,0.6
2023-02-18T08:00:00,1393A,114.4053,23.0822,惠州市,下埔横江三路子站,细颗粒物(PM2.5),60,59,56,43,33,128,40,66,51,37,34,5,6,0.7,0.8
2023-02-18T08:00:00,1394A,114.4103,23.1142,惠州市,江北云山西路子站,细颗粒物(PM2.5),68,52,53,49,41,129,26,60,46,39,31,6,6,0.7,0.6
2023-02-18T08:00:00,1395A,114.4645,22.7833,惠州市,惠阳区承修路船湖子站,细颗粒物(PM2.5),54,54,54,38,32,131,36,94,52,31,22,8,6,0.9,0.8
2023-02-18T08:00:00,1396A,114.5317,22.7422,惠州市,大亚湾管委会子站,细颗粒物(PM2.5),53,53,58,37,30,115,2,26,15,64,48,5,5,0.7,0.6
2023-02-18T08:00:00,1397A,112.4267,23.0706,肇庆市,睦岗子站,"颗粒物(PM10),细颗粒物(PM2.5)",59,68,66,42,38,156,7,24,9,64,56,9,11,0.7,0.6
2023-02-18T08:00:00,1398A,112.4645,23.0475,肇庆市,城中子站,细颗粒物(PM2.5),70,75,73,51,47,152,11,12,8,65,64,8,10,0.7,0.8
2023-02-18T08:00:00,1399A,112.5544,23.1522,肇庆市,坑口子站,细颗粒物(PM2.5),67,56,60,48,44,169,40,78,56,36,33,8,9,0.7,0.6
2023-02-18T08:00:00,1400A,112.4753,23.1,肇庆市,七星岩子站,细颗粒物(PM2.5),62,66,60,44,38,163,52,80,73,37,28,17,17,0.6,0.6
2023-02-18T08:00:00,1401A,108.3103,22.7881,南宁市,二十一中,,46,46,56,32,35,128,75,82,79,20,22,8,9,0.8,0.9
2023-02-18T08:00:00,1402A,108.3141,22.8528,南宁市,北湖,,49,49,56,28,38,120,27,84,70,44,22,8,9,0.8,0.8
2023-02-18T08:00:00,1403A,108.3206,22.8225,南宁市,市监测站,,43,30,56,30,38,116,80,85,83,28,38,9,9,0.6,0.8
2023-02-18T08:00:00,1404A,108.3829,22.8037,南宁市,大自然花园,,42,39,53,29,39,119,86,84,80,14,20,7,7,0.6,0.8
2023-02-18T08:00:00,1405A,108.4394,22.7904,南宁市,仙葫,,49,49,59,28,42,115,73,88,65,18,24,8,8,0.6,0.7
2023-02-18T08:00:00,1406A,108.2397,22.8467,南宁市,区农职院,,50,48,54,35,33,118,30,82,64,54,32,9,9,0.8,0.8
2023-02-18T08:00:00,1407A,108.3275,22.735,南宁市,英华嘉园,细颗粒物(PM2.5),53,50,57,37,42,112,51,64,55,29,32,6,7,0.7,0.8
2023-02-18T08:00:00,1408A,108.2257,22.7757,南宁市,沙井镇街道办,颗粒物(PM10),75,100,78,37,38,113,9,24,20,78,49,8,9,0.7,0.8
2023-02-18T08:00:00,1409A,110.576,19.9507,海口市,东寨港,,,27,26,11,13,66,13,28,19,,,7,6,0.6,0.6
2023-02-18T08:00:00,1410A,110.3232,20.0574,海口市,海南大学,,48,48,35,20,20,97,44,76,60,23,10,5,5,0.6,0.6
2023-02-18T08:00:00,1411A,110.283,20.0053,海口市,秀英海南医院,,39,39,38,23,16,100,11,59,40,58,21,4,4,0.8,0.6
2023-02-18T08:00:00,1412A,110.338,19.9969,海口市,海南师范大学,,35,35,38,17,17,104,35,74,57,31,12,3,3,0.8,0.7
2023-02-18T08:00:00,1413A,110.33,20.0356,海口市,龙华路环保局宿舍,,41,41,39,18,19,103,39,75,59,31,14,6,6,0.8,0.7
2023-02-18T08:00:00,1414A,106.3787,29.8279,重庆市,缙云山,,43,43,41,29,26,80,64,67,61,20,22,7,7,0.7,0.7
2023-02-18T08:00:00,1416A,106.4213,29.8253,重庆市,天生,颗粒物(PM10),59,67,57,40,36,78,11,32,24,38,32,9,8,0.9,0.9
2023-02-18T08:00:00,1417A,106.6263,29.7228,重庆市,两路,细颗粒物(PM2.5),54,47,47,38,38,52,5,38,31,64,35,5,4,1.3,0.9
2023-02-18T08:00:00,1418A,106.2953,29.5983,重庆市,虎溪,细颗粒物(PM2.5),52,51,51,36,40,65,10,45,26,45,33,12,6,0.7,0.7
2023-02-18T08:00:00,1419A,106.5777,29.5102,重庆市,南坪,颗粒物(PM10),51,52,56,33,42,52,40,46,46,17,26,5,9,0.8,0.9
2023-02-18T08:00:00,1420A,106.6556,29.6277,重庆市,唐家沱,细颗粒物(PM2.5),62,53,52,44,44,66,20,53,40,50,31,7,9,1.0,1.1
2023-02-18T08:00:00,1421A,106.6349,29.4906,重庆市,茶园,颗粒物(PM10),62,74,67,38,43,60,20,48,44,47,37,5,9,0.9,1
2023-02-18T08:00:00,1422A,106.3754,29.4572,重庆市,白市驿,细颗粒物(PM2.5),62,48,58,44,38,60,29,52,48,35,38,9,8,0.7,0.8
2023-02-18T08:00:00,1425A,106.6205,29.7166,重庆市,空港,细颗粒物(PM2.5),53,51,49,37,39,71,6,47,41,67,33,6,6,1.1,1
2023-02-18T08:00:00,1426A,106.4782,29.4875,重庆市,新山村,细颗粒物(PM2.5),58,60,64,41,41,54,20,44,40,52,45,5,8,0.6,0.7
2023-02-18T08:00:00,1427A,106.5616,29.6453,重庆市,礼嘉,细颗粒物(PM2.5),62,62,60,44,37,61,13,51,35,59,38,6,8,0.7,0.8
2023-02-18T08:00:00,1428A,106.4522,29.7091,重庆市,蔡家,颗粒物(PM10),60,70,54,42,36,79,10,38,20,41,34,5,6,0.9,0.8
2023-02-18T08:00:00,1429A,106.5093,29.3917,重庆市,鱼新街,细颗粒物(PM2.5),69,74,62,50,45,54,25,47,44,34,30,8,12,1.0,1.1
2023-02-18T08:00:00,1431A,103.9728,30.7236,成都市,金泉两河,细颗粒物(PM2.5),70,71,94,51,74,61,8,14,14,27,36,1,2,0.7,0.8
2023-02-18T08:00:00,1432A,104.176,30.6872,成都市,十里店,细颗粒物(PM2.5),82,59,87,60,74,62,11,9,9,28,32,1,2,1.0,1
2023-02-18T08:00:00,1433A,104.079,30.5706,成都市,三瓦窑,细颗粒物(PM2.5),60,60,84,43,67,70,15,17,17,34,29,2,3,0.7,0.8
2023-02-18T08:00:00,1434A,104.1114,30.63,成都市,沙河铺,细颗粒物(PM2.5),65,69,84,47,69,69,26,16,16,24,38,3,3,0.8,0.9
2023-02-18T08:00:00,1437A,104.0786,30.6531,成都市,君平街,细颗粒物(PM2.5),74,69,92,54,83,69,24,19,19,32,42,2,3,0.8,0.8
2023-02-18T08:00:00,1438A,103.613,31.0283,成都市,灵岩寺,,26,14,54,18,44,55,29,47,28,8,14,4,4,0.7,0.8
2023-02-18T08:00:00,1439A,106.6899,26.5998,贵阳市,马鞍山,,35,29,38,24,33,66,57,66,61,11,18,5,5,0.8,0.9
2023-02-18T08:00:00,1440A,106.6971,26.5694,贵阳市,市环保站,,,,44,,39,31,,29,,,37,,5,,0.7
2023-02-18T08:00:00,1441A,106.6243,26.6266,贵阳市,鉴湖路,,27,27,42,17,28,73,62,73,66,9,14,3,4,0.6,0.6
2023-02-18T08:00:00,1442A,106.7487,26.6343,贵阳市,燕子冲,,45,31,46,31,44,62,51,62,57,15,22,4,7,0.6,0.8
2023-02-18T08:00:00,1443A,106.6555,26.4365,贵阳市,碧云窝,,29,29,46,17,33,75,62,73,68,8,12,5,5,0.6,0.6
2023-02-18T08:00:00,1444A,106.694,26.5161,贵阳市,中院村,,39,39,48,27,34,67,46,65,58,20,21,9,11,0.7,0.7
2023-02-18T08:00:00,1445A,106.7109,26.6027,贵阳市,红边门,,45,31,46,31,42,65,45,61,55,26,32,6,9,0.8,0.9
2023-02-18T08:00:00,1446A,106.7164,26.5699,贵阳市,新华路,,35,29,45,24,36,65,43,63,58,19,19,3,8,0.7,0.7
2023-02-18T08:00:00,1447A,106.674,26.5424,贵阳市,太慈桥,,34,34,49,19,30,68,58,68,61,12,17,3,4,0.6,0.7
2023-02-18T08:00:00,1450A,102.8204,24.8886,昆明市,呈贡新区,,49,49,42,34,32,114,67,68,66,15,16,7,7,0.7,0.6
2023-02-18T08:00:00,1451A,102.6251,24.9608,昆明市,西山森林公园,,40,40,37,23,27,114,84,96,86,10,12,6,7,0.7,0.8
2023-02-18T08:00:00,1452A,102.7252,25.0902,昆明市,龙泉镇,颗粒物(PM10),60,70,53,38,28,103,4,24,14,67,36,7,8,0.9,0.7
2023-02-18T08:00:00,1453A,102.7266,25.0375,昆明市,东风东路,细颗粒物(PM2.5),54,49,42,38,30,102,56,71,64,28,21,13,9,0.8,0.7
2023-02-18T08:00:00,1454A,102.6742,25.0669,昆明市,金鼎山,,49,43,42,34,32,107,62,72,70,26,18,7,7,0.7,0.7
2023-02-18T08:00:00,1455A,102.6644,25.0401,昆明市,碧鸡广场,细颗粒物(PM2.5),63,54,39,45,33,106,54,62,61,29,25,10,7,0.6,0.6
2023-02-18T08:00:00,1456A,91.1319,29.6514,拉萨市,八廓街,,28,28,34,5,16,90,35,22,21,20,27,12,10,0.4,0.8
2023-02-18T08:00:00,1457A,91.1221,29.6747,拉萨市,市环保局,,35,35,41,18,24,91,14,16,14,41,38,6,7,1.3,1.2
2023-02-18T08:00:00,1458A,91.0874,29.6475,拉萨市,区监测站,,38,38,32,24,18,92,11,14,13,26,24,7,7,1.5,1
2023-02-18T08:00:00,1459A,91.1774,29.6541,拉萨市,西藏大学,,23,23,26,5,14,91,48,46,46,16,26,3,5,0.3,0.6
2023-02-18T08:00:00,1460A,90.9798,29.6588,拉萨市,区辐射站,,17,17,32,7,18,86,27,40,37,30,36,6,8,0.6,0.8
2023-02-18T08:00:00,1461A,91.0834,29.6292,拉萨市,拉萨火车站,,33,33,30,15,13,89,12,54,28,46,33,8,8,1.0,0.7
2023-02-18T08:00:00,1462A,108.882,34.2749,西安市,高压开关厂,细颗粒物(PM2.5),160,155,162,122,128,53,9,25,20,50,53,13,10,1.2,1.1
2023-02-18T08:00:00,1463A,108.993,34.2629,西安市,兴庆小区,细颗粒物(PM2.5),155,99,128,118,132,49,13,28,21,48,56,8,7,1.3,1.6
2023-02-18T08:00:00,1464A,109.06,34.2572,西安市,纺织城,细颗粒物(PM2.5),152,164,162,116,138,31,5,7,5,61,66,10,10,1.3,1.3
2023-02-18T08:00:00,1465A,108.9356,34.2173,西安市,小寨,细颗粒物(PM2.5),150,147,158,115,125,44,16,21,20,43,53,10,9,1.0,1.2
2023-02-18T08:00:00,1466A,108.954,34.2713,西安市,市人民体育场,细颗粒物(PM2.5),160,133,133,122,131,45,5,27,22,47,48,10,9,1.1,1.1
2023-02-18T08:00:00,1467A,108.8922,34.2322,西安市,高新西区,细颗粒物(PM2.5),152,119,135,116,125,52,15,26,24,47,53,10,8,1.3,1.2
2023-02-18T08:00:00,1468A,108.935,34.3474,西安市,经开区,细颗粒物(PM2.5),169,136,133,128,133,73,16,26,22,42,51,10,9,1.0,1.1
2023-02-18T08:00:00,1469A,108.906,34.1546,西安市,长安区,细颗粒物(PM2.5),149,139,165,114,131,46,19,16,11,38,55,6,6,1.1,1.3
2023-02-18T08:00:00,1471A,109.2186,34.3731,西安市,临潼区,细颗粒物(PM2.5),140,118,146,107,127,63,36,56,51,19,37,11,10,1.0,1.3
2023-02-18T08:00:00,1472A,108.869,34.378,西安市,草滩,细颗粒物(PM2.5),104,141,150,78,81,68,10,9,9,42,50,14,9,0.6,0.3
2023-02-18T08:00:00,1473A,108.985,34.1978,西安市,曲江文化产业集团,细颗粒物(PM2.5),144,135,158,110,121,44,15,23,22,44,54,6,6,1.3,1.4
2023-02-18T08:00:00,1474A,109.051,34.3213,西安市,广运潭,细颗粒物(PM2.5),159,132,158,121,135,56,6,7,7,42,53,9,9,1.2,1.3
2023-02-18T08:00:00,1476A,103.631,36.1031,兰州市,兰炼宾馆,,44,44,102,28,76,87,84,74,74,16,43,8,25,0.3,1.1
2023-02-18T08:00:00,1477A,104.1373,35.9454,兰州市,榆中兰大校区,,,,,,,,,,,,,,,,
2023-02-18T08:00:00,1478A,103.8412,36.0726,兰州市,生物制品所,,38,36,88,26,66,85,76,61,61,26,55,5,14,0.5,1.2
2023-02-18T08:00:00,1479A,103.831,36.0464,兰州市,铁路设计院,,48,43,109,33,86,86,75,62,62,28,63,5,18,0.6,1.6
2023-02-18T08:00:00,1483A,101.524,36.6867,西宁市,第五水厂,,,,,,,,,,,,,,,,
2023-02-18T08:00:00,1484A,105.9512,38.6016,银川市,贺兰山马莲口,,45,45,58,11,36,112,101,111,109,15,23,8,23,0.3,0.9
2023-02-18T08:00:00,1488A,106.2328,38.4975,银川市,贺兰山东路,颗粒物(PM10),58,66,113,26,70,109,98,99,98,13,37,2,12,0.4,1.2
2023-02-18T08:00:00,1489A,106.1358,38.5036,银川市,学院路,颗粒物(PM10),82,113,112,14,58,100,88,94,93,11,33,3,14,0.6,1.3
2023-02-18T08:00:00,1490A,87.5801,43.8303,乌鲁木齐市,监测站,细颗粒物(PM2.5),123,120,109,93,72,92,22,15,15,81,85,2,4,1.3,1.4
2023-02-18T08:00:00,1491A,87.6046,43.768,乌鲁木齐市,收费所,细颗粒物(PM2.5),134,150,144,102,84,82,11,6,5,87,83,3,5,1.2,1.1
2023-02-18T08:00:00,1492A,87.4754,43.9469,乌鲁木齐市,新疆农科院农场,细颗粒物(PM2.5),254,180,112,204,140,116,55,77,64,50,57,7,12,2.0,1.7
2023-02-18T08:00:00,1493A,87.5525,43.8711,乌鲁木齐市,铁路局,细颗粒物(PM2.5),147,130,103,112,84,103,60,46,46,60,84,3,4,1.2,1.3
2023-02-18T08:00:00,1494A,87.6432,43.831,乌鲁木齐市,三十一中学,细颗粒物(PM2.5),148,135,112,113,81,85,45,21,18,46,61,5,7,1.1,1
2023-02-18T08:00:00,1496A,87.7216,44.1747,乌鲁木齐市,米东区环保局,细颗粒物(PM2.5),263,235,160,213,135,129,65,85,73,45,36,22,14,1.8,1.3
2023-02-18T08:00:00,1508A,112.9433,27.8614,湘潭市,板塘,细颗粒物(PM2.5),89,98,87,66,62,70,0,0,0,61,58,17,10,0.9,0.8
2023-02-18T08:00:00,1511A,112.9118,27.8403,湘潭市,市监测站,细颗粒物(PM2.5),80,83,96,59,66,38,8,11,10,56,57,15,12,0.8,1
2023-02-18T08:00:00,1512A,112.8937,27.8728,湘潭市,江麓,细颗粒物(PM2.5),95,91,100,71,72,54,4,4,3,42,50,63,30,1.1,1.1
2023-02-18T08:00:00,1513A,112.9227,27.8159,湘潭市,岳塘,细颗粒物(PM2.5),83,82,94,61,66,79,18,12,12,48,54,10,5,1.3,1.4
2023-02-18T08:00:00,1514A,112.9074,27.9119,湘潭市,科大,,,86,98,69,65,56,0,0,0,60,66,,12,0.6,0.6
2023-02-18T08:00:00,1515A,113.135,27.8244,株洲市,天台山庄,细颗粒物(PM2.5),88,78,98,65,70,87,12,9,9,40,44,16,10,1.2,2
2023-02-18T08:00:00,1518A,113.095,27.8867,株洲市,株冶医院,细颗粒物(PM2.5),80,90,89,59,50,82,2,3,2,60,55,12,10,1.1,1
2023-02-18T08:00:00,1519A,113.167,27.8667,株洲市,市四中,细颗粒物(PM2.5),89,75,81,66,63,77,2,7,5,42,45,16,13,1.4,1.3
2023-02-18T08:00:00,1520A,113.143,27.8381,株洲市,火车站,细颗粒物(PM2.5),97,92,93,72,65,83,7,6,6,43,44,13,9,1.5,1.6
2023-02-18T08:00:00,1524A,113.13,27.8528,株洲市,市监测站,细颗粒物(PM2.5),94,90,99,70,73,88,11,10,10,45,50,18,15,1.1,1.4
2023-02-18T08:00:00,1552A,106.805,26.3003,贵阳市,桐木岭,,,,,,,,,,,,,,,,
2023-02-18T08:00:00,1559A,113.251,27.8336,株洲市,大京风景区,细颗粒物(PM2.5),68,39,52,49,37,82,5,10,6,11,14,4,8,0.9,0.8
2023-02-18T08:00:00,1562A,113.0048,27.9153,湘潭市,昭山,细颗粒物(PM2.5),78,83,80,57,55,65,0,3,2,61,57,8,7,0.7,0.7
2023-02-18T08:00:00,1564A,112.4876,27.9164,湘潭市,韶山,,46,46,61,31,42,51,0,2,1,17,23,5,9,1.0,1.1
2023-02-18T08:00:00,1585A,109.8756,40.6532,包头市,市环境监测站,,36,36,71,21,49,97,73,49,49,10,47,9,26,0.5,1.1
2023-02-18T08:00:00,1587A,109.9991,40.5842,包头市,包头八中,颗粒物(PM10),57,63,103,15,75,101,79,52,52,12,44,12,37,0.6,1.2
2023-02-18T08:00:00,1588A,109.8538,40.6821,包头市,青山宾馆,,48,48,77,13,59,98,68,49,49,14,52,6,18,0.5,1.1
2023-02-18T08:00:00,1589A,109.8642,40.6288,包头市,惠龙物流,颗粒物(PM10),60,69,85,41,58,101,79,48,48,16,52,6,26,0.8,1.4
2023-02-18T08:00:00,1590A,110.0377,40.5546,包头市,东河鸿龙湾,颗粒物(PM10),51,52,94,20,58,96,72,50,50,12,36,7,16,0.7,1
2023-02-18T08:00:00,1591A,110.0023,39.8129,鄂尔多斯市,综合楼,颗粒物(PM10),262,393,97,58,50,96,92,89,89,10,42,6,12,0.3,0.8
2023-02-18T08:00:00,1592A,109.9486,39.8261,鄂尔多斯市,巴音孟克林场办事处,颗粒物(PM10),159,268,96,46,47,96,93,92,91,10,36,6,10,0.6,1
2023-02-18T08:00:00,1593A,109.7736,39.5986,鄂尔多斯市,康泽苑,颗粒物(PM10),152,254,111,44,57,88,88,85,85,12,40,4,8,0.7,1.2
2023-02-18T08:00:00,1594A,109.8119,39.5989,鄂尔多斯市,华泰汽车城,颗粒物(PM10),147,244,109,53,60,95,94,92,91,8,40,7,11,0.4,0.9
2023-02-18T08:00:00,1595A,109.9734,39.7884,鄂尔多斯市,奥林花园,颗粒物(PM10),162,273,107,46,53,95,92,85,85,11,43,6,9,0.6,1.1
2023-02-18T08:00:00,1597A,122.2703,40.7094,营口市,大庆路,细颗粒物(PM2.5),269,178,139,219,135,95,34,44,40,44,44,13,13,2.1,1.4
2023-02-18T08:00:00,1598A,122.2150,40.6511,营口市,镜湖西路,细颗粒物(PM2.5),125,131,148,95,110,98,43,58,56,32,32,10,12,1.0,1.1
2023-02-18T08:00:00,1599A,122.1658,40.6789,营口市,西炮台,细颗粒物(PM2.5),125,117,131,95,106,89,34,48,44,47,41,11,11,1.0,1.1
2023-02-18T08:00:00,1600A,124.3303,40.0625,丹东市,江湾东路,细颗粒物(PM2.5),89,88,77,66,55,91,57,86,71,28,16,24,15,1.0,1
2023-02-18T08:00:00,1601A,124.4256,40.1503,丹东市,临江后街,细颗粒物(PM2.5),89,92,78,66,53,94,35,82,63,52,27,27,19,1.1,1
2023-02-18T08:00:00,1602A,124.3933,40.1461,丹东市,元宝山,细颗粒物(PM2.5),79,86,75,58,52,85,46,85,65,30,22,21,17,0.9,0.9
2023-02-18T08:00:00,1603A,124.3633,40.1092,丹东市,民主桥,细颗粒物(PM2.5),75,80,77,55,50,84,26,78,65,69,25,22,18,1.0,1.3
2023-02-18T08:00:00,1604A,122.0303,41.1489,盘锦市,开发区,细颗粒物(PM2.5),189,160,113,142,104,77,39,74,55,32,39,9,10,1.1,1
2023-02-18T08:00:00,1605A,122.0485,41.0883,盘锦市,兴隆台,细颗粒物(PM2.5),238,155,122,188,113,76,24,74,54,43,42,13,12,1.2,1.2
2023-02-18T08:00:00,1606A,121.8297,41.1028,盘锦市,新生街道,细颗粒物(PM2.5),210,132,102,160,107,57,33,51,35,38,43,11,9,1.2,1.1
2023-02-18T08:00:00,1607A,120.9092,40.7136,葫芦岛市,龙港区,细颗粒物(PM2.5),165,186,139,125,130,67,33,62,47,38,33,106,23,1.8,1.4
2023-02-18T08:00:00,1608A,120.8392,40.7514,葫芦岛市,化工街,细颗粒物(PM2.5),206,207,174,156,135,54,43,24,23,38,56,27,20,1.0,1.2
2023-02-18T08:00:00,1609A,120.8341,40.7073,葫芦岛市,新区,细颗粒物(PM2.5),183,180,140,138,135,54,34,42,34,40,46,30,23,1.5,1.5
2023-02-18T08:00:00,1610A,120.8695,40.7677,葫芦岛市,东城区,细颗粒物(PM2.5),147,154,159,112,145,68,39,17,17,31,57,28,23,1.1,1.6
2023-02-18T08:00:00,1611A,118.5819,24.9117,泉州市,涂山街,细颗粒物(PM2.5),75,84,53,55,31,125,15,67,30,36,26,10,10,0.7,0.6
2023-02-18T08:00:00,1612A,118.5972,24.8978,泉州市,津头埔,细颗粒物(PM2.5),85,83,51,63,33,122,13,64,33,38,30,10,9,0.7,0.5
2023-02-18T08:00:00,1613A,118.6663,24.9424,泉州市,万安,细颗粒物(PM2.5),59,58,47,42,30,133,13,64,25,35,25,12,9,0.7,0.5
2023-02-18T08:00:00,1614A,118.6117,24.9604,泉州市,清源山,,,,,,,,,,,,,,,,
2023-02-18T08:00:00,1616A,117.6795,36.229,济南市,技术学院,细颗粒物(PM2.5),110,119,100,83,71,122,20,58,43,60,43,10,11,0.9,0.7
2023-02-18T08:00:00,1618A,118.3429,35.0532,临沂市,沂河小区,细颗粒物(PM2.5),94,85,73,70,60,94,15,49,34,46,27,14,12,1.5,0.8
2023-02-18T08:00:00,1619A,118.295,35.0583,临沂市,鲁南制药厂,细颗粒物(PM2.5),72,78,70,52,52,100,19,47,37,54,37,21,20,1.1,0.6
2023-02-18T08:00:00,1620A,118.2794,34.9976,临沂市,新光毛纺厂,细颗粒物(PM2.5),74,80,75,54,55,96,21,42,34,39,29,9,12,1.2,0.8
2023-02-18T08:00:00,1621A,118.3956,35.0888,临沂市,河东保险公司,细颗粒物(PM2.5),84,92,71,62,54,100,10,50,28,59,36,19,13,2.1,1
2023-02-18T08:00:00,1622A,116.3032,37.4674,德州市,儿童乐园,细颗粒物(PM2.5),132,151,109,100,80,105,4,12,6,81,54,15,11,1.3,0.8
2023-02-18T08:00:00,1624A,116.2991,37.4451,德州市,监理站,细颗粒物(PM2.5),149,160,117,114,90,101,7,55,24,87,50,22,13,1.2,0.9
2023-02-18T08:00:00,1625A,115.9848,36.4372,聊城市,区政府,细颗粒物(PM2.5),120,133,103,91,69,117,26,60,48,51,30,13,12,0.8,0.6
2023-02-18T08:00:00,1628A,118.0062,37.3803,滨州市,市环保局,细颗粒物(PM2.5),144,158,150,110,103,120,2,17,5,67,58,21,20,1.2,1
2023-02-18T08:00:00,1629A,118.0018,37.3617,滨州市,第二水厂,细颗粒物(PM2.5),119,151,142,90,93,124,4,20,8,65,60,18,18,1.3,1.1
2023-02-18T08:00:00,1630A,117.9776,37.393,滨州市,北中新校,细颗粒物(PM2.5),119,150,145,90,92,126,2,13,4,67,60,17,19,1.2,1
2023-02-18T08:00:00,1631A,118.0414,36.8103,淄博市,人民公园,细颗粒物(PM2.5),133,122,122,101,94,117,23,22,22,47,57,17,18,0.9,0.9
2023-02-18T08:00:00,1633A,117.8525,36.4847,淄博市,双山,细颗粒物(PM2.5),127,128,97,96,72,116,17,72,51,56,35,18,13,1.3,0.8
2023-02-18T08:00:00,1634A,117.9592,36.6331,淄博市,气象站,细颗粒物(PM2.5),107,127,107,80,69,116,34,55,47,46,40,21,21,1.1,0.9
2023-02-18T08:00:00,1635A,118.3092,36.8194,淄博市,莆田园,细颗粒物(PM2.5),134,156,112,102,76,125,14,54,28,55,43,28,16,4.2,1.3
2023-02-18T08:00:00,1637A,117.558,34.8438,枣庄市,市中区政府,颗粒物(PM10),90,129,114,66,71,118,5,32,23,62,44,20,23,0.9,0.7
2023-02-18T08:00:00,1638A,117.2852,34.7837,枣庄市,薛城环保局,细颗粒物(PM2.5),89,98,97,66,70,113,14,33,19,48,40,19,17,0.8,0.7
2023-02-18T08:00:00,1639A,117.5852,34.7745,枣庄市,峄城区政府,颗粒物(PM10),78,105,102,53,58,118,13,42,28,55,42,14,16,0.6,0.6
2023-02-18T08:00:00,1640A,117.7276,34.5578,枣庄市,台儿庄区环保局,细颗粒物(PM2.5),67,66,96,48,67,107,19,43,26,40,43,13,13,0.8,0.9
2023-02-18T08:00:00,1641A,117.4518,35.0992,枣庄市,山亭区环保局,细颗粒物(PM2.5),85,88,85,63,57,130,38,56,46,42,38,14,15,1.0,0.9
2023-02-18T08:00:00,1642A,121.2514,37.5639,烟台市,开发区,细颗粒物(PM2.5),55,36,47,39,37,91,24,63,50,52,31,11,11,0.7,0.6
2023-02-18T08:00:00,1643A,121.3719,37.5433,烟台市,轴承厂,细颗粒物(PM2.5),59,41,45,42,35,114,33,97,72,49,16,5,5,0.7,0.5
2023-02-18T08:00:00,1644A,121.3181,37.5436,烟台市,西郊化工站,颗粒物(PM10),53,56,50,35,34,110,4,97,63,77,22,8,7,1.2,0.9
2023-02-18T08:00:00,1645A,121.4478,37.4822,烟台市,莱山环保局,,48,41,50,33,35,107,52,80,68,26,18,9,10,0.9,0.9
2023-02-18T08:00:00,1646A,121.2611,37.4967,烟台市,福山环保局,颗粒物(PM10),60,70,67,41,40,98,15,55,34,60,35,8,9,1.0,0.7
2023-02-18T08:00:00,1650A,119.1437,36.7023,潍坊市,环保局,颗粒物(PM10),60,70,82,38,59,110,16,62,43,59,37,3,4,0.8,0.8
2023-02-18T08:00:00,1653A,116.6251,35.4302,济宁市,火炬城,细颗粒物(PM2.5),119,89,75,90,70,118,25,52,39,41,30,16,14,0.8,0.7
2023-02-18T08:00:00,1655A,116.5491,35.4042,济宁市,电化厂,细颗粒物(PM2.5),132,141,86,100,71,115,19,53,38,49,31,22,12,0.9,0.7
2023-02-18T08:00:00,1656A,117.1437,36.1937,泰安市,监测站,细颗粒物(PM2.5),124,114,100,94,87,118,23,54,41,44,31,9,13,1.0,0.8
2023-02-18T08:00:00,1657A,117.0885,36.2017,泰安市,人口学校,细颗粒物(PM2.5),114,122,98,86,72,131,30,59,51,42,30,15,19,1.0,0.9
2023-02-18T08:00:00,1658A,117.1089,36.1758,泰安市,电力学校,细颗粒物(PM2.5),123,114,98,93,77,122,12,43,35,54,40,12,18,1.1,0.9
2023-02-18T08:00:00,1659A,119.471,35.4209,日照市,监测站,,48,48,47,27,27,91,31,68,50,38,27,8,10,0.4,0.7
2023-02-18T08:00:00,1660A,119.523,35.4216,日照市,市政府广场,,44,44,46,22,25,92,43,71,63,23,15,4,6,0.5,0.7
2023-02-18T08:00:00,1661A,119.5587,35.4044,日照市,港务局,,39,39,36,19,22,96,41,69,54,35,21,6,7,0.5,0.6
2023-02-18T08:00:00,1662A,122.1214,37.4236,威海市,华夏技校,,35,34,36,24,28,106,43,76,68,33,18,1,2,0.4,0.3
2023-02-18T08:00:00,1663A,122.0508,37.5236,威海市,山大分校,,35,32,37,24,20,113,38,88,72,46,16,3,3,0.6,0.5
2023-02-18T08:00:00,1664A,122.1067,37.5072,威海市,市监测站,,39,39,38,27,23,112,35,77,61,40,23,6,6,0.5,0.4
2023-02-18T08:00:00,1666A,118.6614,37.4309,东营市,市环保局,细颗粒物(PM2.5),89,102,109,66,77,104,15,65,44,51,37,14,17,1.1,1.1
2023-02-18T08:00:00,1669A,113.5824,24.7733,韶关市,市八中,细颗粒物(PM2.5),69,67,68,50,44,131,8,16,7,28,37,9,19,1.0,1
2023-02-18T08:00:00,1671A,113.5917,24.7972,韶关市,园林处,细颗粒物(PM2.5),59,59,60,42,41,138,5,7,6,23,33,10,18,1.1,1
2023-02-18T08:00:00,1672A,113.6735,24.7791,韶关市,韶关学院,细颗粒物(PM2.5),64,48,60,46,47,100,4,4,4,16,31,9,19,1.0,1.2
2023-02-18T08:00:00,1673A,113.5971,24.6863,韶关市,曲江监测站,颗粒物(PM10),54,57,59,35,42,117,8,8,8,26,37,10,19,0.7,0.8
2023-02-18T08:00:00,1674A,116.6794,23.3667,汕头市,金平子站,,49,36,41,34,26,125,48,74,66,30,22,14,14,0.7,0.6
2023-02-18T08:00:00,1675A,116.7244,23.3633,汕头市,龙湖子站,,42,35,40,29,24,122,53,80,71,28,21,14,13,0.6,0.5
2023-02-18T08:00:00,1676A,116.7258,23.2775,汕头市,濠江子站,,40,31,40,28,25,121,51,81,65,26,18,12,11,0.6,0.5
2023-02-18T08:00:00,1677A,116.7519,23.4714,汕头市,澄海子站,细颗粒物(PM2.5),55,36,45,39,31,131,55,83,68,26,25,7,8,0.6,0.6
2023-02-18T08:00:00,1678A,116.6092,23.2539,汕头市,潮阳子站,,38,32,45,26,24,123,54,81,68,24,20,8,9,0.8,0.8
2023-02-18T08:00:00,1680A,110.3539,21.2706,湛江市,湛江影剧院,,47,47,44,26,24,131,84,119,108,22,15,9,9,0.6,0.5
2023-02-18T08:00:00,1681A,110.3928,21.2228,湛江市,市环境监测站,,39,34,42,27,24,132,89,119,102,21,14,8,9,0.6,0.6
2023-02-18T08:00:00,1682A,110.4019,21.1997,湛江市,环保局宿舍,,39,38,40,27,26,131,95,114,104,16,13,6,7,0.5,0.5
2023-02-18T08:00:00,1683A,110.4111,21.2028,湛江市,霞山游泳场,,41,41,40,25,26,137,93,112,102,16,12,7,8,0.6,0.6
2023-02-18T08:00:00,1684A,110.3316,21.2679,湛江市,麻章区环保局,,40,40,44,27,27,134,74,121,106,29,14,9,9,0.6,0.6
2023-02-18T08:00:00,1685A,110.4558,21.2567,湛江市,坡头区环保局,,43,38,40,30,27,130,91,108,98,13,12,8,9,0.6,0.6
2023-02-18T08:00:00,1686A,111.0286,21.4688,茂名市,电白南海,颗粒物(PM10),51,51,54,29,26,150,56,108,95,24,18,8,7,0.6,0.5
2023-02-18T08:00:00,1687A,110.9294,21.6533,茂名市,茂石化七小,,42,36,53,29,33,151,88,119,102,14,13,7,8,0.5,0.5
2023-02-18T08:00:00,1688A,110.9107,21.6687,茂名市,健康路,,41,41,51,28,27,143,71,119,97,20,15,25,18,0.6,0.6
2023-02-18T08:00:00,1689A,110.8592,21.6828,茂名市,高岭,颗粒物(PM10),56,61,56,34,35,149,40,122,94,30,20,25,19,0.9,0.5
2023-02-18T08:00:00,1690A,116.1231,24.3284,梅州市,梅江月梅,,49,49,50,31,30,125,13,7,7,35,31,9,9,0.7,0.6
2023-02-18T08:00:00,1691A,116.0797,24.2719,梅州市,梅县新城,颗粒物(PM10),51,51,55,32,36,127,12,20,19,44,36,12,8,0.7,0.7
2023-02-18T08:00:00,1692A,116.1248,24.2654,梅州市,环境监控中心,,44,44,53,30,34,134,37,16,16,24,37,24,11,0.6,0.7
2023-02-18T08:00:00,1693A,115.3653,22.775,汕尾市,市环保局,细颗粒物(PM2.5),74,59,44,54,28,128,53,87,72,18,12,10,9,0.8,0.6
2023-02-18T08:00:00,1694A,115.3706,22.7898,汕尾市,市政府,细颗粒物(PM2.5),57,51,41,40,29,131,51,89,68,25,20,10,10,0.7,0.5
2023-02-18T08:00:00,1695A,115.3622,22.7925,汕尾市,新城中学,细颗粒物(PM2.5),75,56,50,55,28,123,59,78,65,16,15,8,7,0.6,0.5
2023-02-18T08:00:00,1696A,114.6778,23.7569,河源市,源西,,34,34,43,20,23,126,16,8,8,42,43,6,6,0.8,0.8
2023-02-18T08:00:00,1697A,114.6944,23.7586,河源市,东埔,,35,32,47,24,25,120,24,13,8,31,35,13,5,0.7,0.9
2023-02-18T08:00:00,1698A,114.6892,23.7233,河源市,老城,,38,38,51,25,24,120,12,10,10,28,28,10,5,0.8,0.7
2023-02-18T08:00:00,1699A,111.9797,21.8593,阳江市,鸳鸯湖,细颗粒物(PM2.5),72,51,49,52,35,148,21,120,58,49,20,8,8,0.9,0.7
2023-02-18T08:00:00,1701A,111.9491,21.8658,阳江市,马南垌,颗粒物(PM10),55,59,64,36,31,151,6,75,36,64,27,6,7,1.0,0.6
2023-02-18T08:00:00,1702A,113.0426,23.691,清远市,环保大楼,细颗粒物(PM2.5),67,50,59,48,50,176,12,52,42,50,47,4,5,0.6,0.7
2023-02-18T08:00:00,1703A,113.0208,23.7106,清远市,凤城街办,颗粒物(PM10),59,67,67,40,40,138,16,44,34,41,38,4,7,0.7,0.8
2023-02-18T08:00:00,1705A,116.6367,23.6719,潮州市,西园路,细颗粒物(PM2.5),77,56,55,56,42,131,19,32,28,20,16,5,5,0.7,0.6
2023-02-18T08:00:00,1706A,116.6447,23.6706,潮州市,档案局,细颗粒物(PM2.5),69,54,54,50,43,136,18,33,27,32,26,9,9,0.6,0.6
2023-02-18T08:00:00,1708A,116.3701,23.5345,揭阳市,新兴,细颗粒物(PM2.5),95,64,60,71,42,144,32,61,49,31,22,20,13,0.7,0.7
2023-02-18T08:00:00,1709A,116.3264,23.5443,揭阳市,西马,细颗粒物(PM2.5),87,48,64,64,41,137,41,59,49,28,22,19,13,0.6,0.7
2023-02-18T08:00:00,1710A,116.3611,23.5626,揭阳市,东兴,细颗粒物(PM2.5),90,61,66,67,42,161,36,51,47,41,30,24,12,0.7,0.7
2023-02-18T08:00:00,1711A,116.4151,23.5294,揭阳市,渔湖,细颗粒物(PM2.5),67,52,60,48,36,132,40,61,46,29,25,16,13,0.6,0.6
2023-02-18T08:00:00,1712A,112.0392,22.9169,云浮市,新市府,细颗粒物(PM2.5),63,43,46,45,38,144,22,52,37,15,18,2,4,0.7,0.8
2023-02-18T08:00:00,1714A,112.0539,22.9539,云浮市,牧羊,颗粒物(PM10),81,112,82,56,45,140,6,10,8,44,44,14,13,0.6,0.6
2023-02-18T08:00:00,1715A,102.575,24.3711,玉溪市,东风水库,,39,36,38,27,26,103,27,57,44,12,13,5,6,0.9,1
2023-02-18T08:00:00,1718A,115.4208,35.2464,菏泽市,气象局,细颗粒物(PM2.5),142,144,92,108,65,114,23,56,47,74,44,20,10,0.8,0.6
2023-02-18T08:00:00,1719A,115.4747,35.2375,菏泽市,市政协,细颗粒物(PM2.5),133,152,101,101,67,114,98,44,44,54,36,13,10,0.8,0.6
2023-02-18T08:00:00,1721A,113.3819,40.1097,大同市,果树场,,,,,,,,,,,,,,,,
2023-02-18T08:00:00,1723A,113.2994,40.0758,大同市,云冈宾馆,细颗粒物(PM2.5),88,96,90,65,51,92,16,20,20,58,52,12,16,0.8,1
2023-02-18T08:00:00,1724A,113.3444,40.0917,大同市,大同大学,细颗粒物(PM2.5),74,90,83,54,46,91,26,25,19,47,51,10,15,0.7,0.8
2023-02-18T08:00:00,1725A,113.2661,40.1269,大同市,安家小村,细颗粒物(PM2.5),68,83,102,49,55,90,23,23,23,43,44,11,18,0.8,1.1
2023-02-18T08:00:00,1726A,113.2711,40.0844,大同市,教育学院,细颗粒物(PM2.5),69,79,104,50,54,77,23,14,14,46,57,11,17,0.5,1
2023-02-18T08:00:00,1727A,113.1147,36.1547,长治市,清华站,细颗粒物(PM2.5),104,79,85,78,78,68,57,56,55,17,26,6,8,1.3,1.4
2023-02-18T08:00:00,1728A,113.1031,36.1989,长治市,监测站,细颗粒物(PM2.5),107,72,83,80,82,66,54,54,54,21,27,4,6,1.2,1.6
2023-02-18T08:00:00,1730A,113.0886,36.2125,长治市,审计局,细颗粒物(PM2.5),113,73,86,85,89,71,53,55,54,20,25,7,9,0.9,1.4
2023-02-18T08:00:00,1731A,113.0844,36.1856,长治市,长治八中,细颗粒物(PM2.5),85,95,94,63,69,77,62,62,60,18,24,4,6,0.9,1.3
2023-02-18T08:00:00,1733A,111.5531,36.0783,临汾市,临钢医院,细颗粒物(PM2.5),129,138,120,98,86,63,4,8,5,52,42,9,4,1.6,1.4
2023-02-18T08:00:00,1734A,111.5028,36.0714,临汾市,技工学校,细颗粒物(PM2.5),133,152,119,101,90,56,4,4,3,51,40,20,9,1.2,1
2023-02-18T08:00:00,1736A,111.5018,36.0855,临汾市,市委,细颗粒物(PM2.5),132,143,127,100,89,65,6,6,6,49,42,8,2,1.4,1.3
2023-02-18T08:00:00,1738A,113.5758,37.8572,阳泉市,市中心,细颗粒物(PM2.5),257,274,217,207,161,80,8,51,23,64,50,31,21,2.1,1.7
2023-02-18T08:00:00,1739A,113.4894,37.8731,阳泉市,赛鱼,细颗粒物(PM2.5),249,232,200,199,160,87,12,51,21,65,54,23,17,1.7,1.6
2023-02-18T08:00:00,1740A,113.5819,37.8486,阳泉市,南庄,细颗粒物(PM2.5),213,244,222,163,151,80,9,54,27,63,49,17,21,2.0,1.8
2023-02-18T08:00:00,1742A,113.5614,37.8703,阳泉市,平坦,细颗粒物(PM2.5),252,270,221,202,168,85,14,64,32,68,52,20,19,1.9,1.7
2023-02-18T08:00:00,1743A,113.5158,37.8392,阳泉市,大阳泉,细颗粒物(PM2.5),223,205,197,173,144,87,18,67,54,63,41,12,13,1.6,1.5
2023-02-18T08:00:00,1744A,118.9233,42.2816,赤峰市,松山一中,,36,36,94,14,47,65,41,48,43,36,44,17,23,0.7,1.1
2023-02-18T08:00:00,1745A,118.9576,42.2728,赤峰市,哈达街,,36,36,92,14,52,76,28,36,35,49,47,49,40,0.7,1.1
2023-02-18T08:00:00,1746A,118.8788,42.2554,赤峰市,天义路,,38,38,72,20,38,89,44,58,52,30,37,32,19,0.6,0.9
2023-02-18T08:00:00,1748A,123.044,41.1196,鞍山市,深沟寺,细颗粒物(PM2.5),202,173,131,152,104,91,25,89,71,50,30,11,14,1.5,1.1
2023-02-18T08:00:00,1749A,123.011,41.0931,鞍山市,太阳城,细颗粒物(PM2.5),190,174,144,143,109,109,28,101,84,46,32,15,15,1.4,1.2
2023-02-18T08:00:00,1750A,123.0485,41.1442,鞍山市,太平,细颗粒物(PM2.5),213,195,144,163,111,87,19,84,65,59,40,15,18,1.9,1.4
2023-02-18T08:00:00,1751A,122.9642,41.0971,鞍山市,铁西三道街,细颗粒物(PM2.5),225,235,166,175,119,78,7,73,55,68,47,41,22,5.1,1.6
2023-02-18T08:00:00,1752A,122.9341,41.0833,鞍山市,铁西工业园区,细颗粒物(PM2.5),218,214,162,168,123,98,9,83,62,66,42,40,19,3.8,1.6
2023-02-18T08:00:00,1753A,123.022,41.0821,鞍山市,明达新区,细颗粒物(PM2.5),182,166,134,137,105,110,27,101,82,54,33,12,14,1.9,1.4
2023-02-18T08:00:00,1754A,123.1289,41.0228,鞍山市,千山,,,,,,,,,,,,,,,,
2023-02-18T08:00:00,1755A,123.7977,41.8491,抚顺市,望花区,细颗粒物(PM2.5),218,180,134,168,112,76,12,71,54,54,35,17,20,1.6,1.3
2023-02-18T08:00:00,1756A,123.9161,41.8822,抚顺市,顺城区,细颗粒物(PM2.5),175,156,134,132,100,81,26,19,19,57,57,10,15,1.2,1.2
2023-02-18T08:00:00,1757A,124.0436,41.8611,抚顺市,东洲区,细颗粒物(PM2.5),163,165,125,124,98,94,31,88,59,50,32,14,14,1.4,1.1
2023-02-18T08:00:00,1758A,123.9247,41.8642,抚顺市,新抚区,细颗粒物(PM2.5),221,174,144,171,125,74,22,54,43,57,44,10,12,1.3,1.2
2023-02-18T08:00:00,1759A,124.0972,41.8961,抚顺市,大伙房水库,细颗粒物(PM2.5),156,138,118,119,98,99,23,91,65,63,31,8,9,1.3,1
2023-02-18T08:00:00,1760A,123.7086,41.8391,抚顺市,沈抚新城,细颗粒物(PM2.5),247,250,143,197,112,87,12,68,39,69,51,13,20,1.8,1.4
2023-02-18T08:00:00,1761A,123.8275,41.3064,本溪市,大峪,细颗粒物(PM2.5),99,99,105,74,82,97,60,78,74,62,50,12,12,0.9,1
2023-02-18T08:00:00,1762A,123.7567,41.3325,本溪市,溪湖,细颗粒物(PM2.5),120,119,111,91,88,87,52,87,69,49,33,24,22,2.0,1.4
2023-02-18T08:00:00,1763A,123.7169,41.3094,本溪市,彩屯,细颗粒物(PM2.5),132,133,147,100,106,76,37,53,51,52,57,16,50,1.1,3
2023-02-18T08:00:00,1764A,123.7669,41.2864,本溪市,东明,细颗粒物(PM2.5),92,61,75,68,79,86,75,81,72,40,42,77,54,0.8,0.9
2023-02-18T08:00:00,1765A,123.7992,41.2664,本溪市,新立屯,细颗粒物(PM2.5),93,81,92,69,82,100,88,100,95,30,26,7,9,0.5,0.6
2023-02-18T08:00:00,1766A,123.8142,41.3472,本溪市,威宁,细颗粒物(PM2.5),133,123,117,101,90,76,14,52,36,79,43,6,9,1.2,0.9
2023-02-18T08:00:00,1767A,121.1115,41.0879,锦州市,南山,细颗粒物(PM2.5),209,119,124,159,163,68,24,27,14,54,72,24,25,1.2,1.4
2023-02-18T08:00:00,1768A,121.0533,40.8434,锦州市,开发区,细颗粒物(PM2.5),221,135,119,171,141,35,24,34,24,45,62,23,21,1.4,1.2
2023-02-18T08:00:00,1769A,121.1836,41.1119,锦州市,百股街道,细颗粒物(PM2.5),226,185,184,176,150,55,27,35,18,48,68,42,32,1.7,1.7
2023-02-18T08:00:00,1770A,121.1178,41.1222,锦州市,天安街道,细颗粒物(PM2.5),186,140,158,140,165,59,38,13,13,37,68,25,32,1.3,1.7
2023-02-18T08:00:00,1771A,121.1303,41.1386,锦州市,北湖公园,细颗粒物(PM2.5),180,122,139,136,169,60,40,16,16,36,69,24,32,1.3,1.7
2023-02-18T08:00:00,1772A,126.54,43.8622,吉林市,哈达湾,,34,34,78,19,57,86,62,64,64,18,26,9,11,0.5,0.8
2023-02-18T08:00:00,1773A,126.5844,43.8358,吉林市,东局子,,39,39,91,24,66,78,48,58,57,26,29,10,12,0.6,0.9
2023-02-18T08:00:00,1774A,126.5052,43.8245,吉林市,电力学院,,42,39,104,29,82,86,59,53,53,18,29,11,15,0.6,1.1
2023-02-18T08:00:00,1775A,126.6133,43.8972,吉林市,江北,,42,41,95,29,71,85,55,48,48,26,36,17,14,0.6,1
2023-02-18T08:00:00,1776A,126.555,43.8306,吉林市,江南公园,,38,35,88,26,72,80,49,63,61,29,28,8,10,0.6,0.8
2023-02-18T08:00:00,1778A,126.7061,43.7133,吉林市,丰满,,,,,,,,,,,,,,,,
2023-02-18T08:00:00,1779A,123.9305,47.3636,齐齐哈尔市,安居小区,,25,19,33,15,28,94,77,83,82,9,12,5,6,0.4,0.3
2023-02-18T08:00:00,1780A,123.9488,47.3386,齐齐哈尔市,中心广场,,22,13,32,3,14,86,70,80,78,10,14,4,6,0.4,0.4
2023-02-18T08:00:00,1781A,123.9483,47.3227,齐齐哈尔市,农牧车辆厂,,22,22,33,11,21,79,59,70,67,19,15,9,5,0.3,0.4
2023-02-18T08:00:00,1783A,123.945,47.2988,齐齐哈尔市,市环境监测站,,23,23,36,10,31,92,63,82,76,24,18,10,10,0.7,0.5
2023-02-18T08:00:00,1784A,129.61,44.561,牡丹江市,环保大楼,细颗粒物(PM2.5),72,63,67,52,48,91,28,20,20,38,36,8,8,0.8,0.8
2023-02-18T08:00:00,1785A,129.6115,44.5782,牡丹江市,文化广场,细颗粒物(PM2.5),73,80,79,53,53,84,19,20,19,49,43,11,11,1.1,1
2023-02-18T08:00:00,1786A,129.5904,44.5963,牡丹江市,第一医院,细颗粒物(PM2.5),84,95,72,62,56,93,18,37,20,52,35,7,6,1.3,1.1
2023-02-18T08:00:00,1787A,129.6364,44.6075,牡丹江市,机车工厂,细颗粒物(PM2.5),120,126,84,91,52,89,16,13,13,45,36,2,7,1.4,1
2023-02-18T08:00:00,1788A,129.6386,44.5462,牡丹江市,第一中学,细颗粒物(PM2.5),74,64,63,54,45,92,24,46,40,42,31,6,5,0.9,0.9
2023-02-18T08:00:00,1789A,124.81117,46.03138,大庆市,大同区,,30,30,54,20,41,88,48,60,57,17,19,5,9,0.6,0.7
2023-02-18T08:00:00,1790A,125.129,46.533,大庆市,龙凤区,,16,16,45,7,31,74,51,58,57,26,25,16,14,0.5,0.7
2023-02-18T08:00:00,1791A,124.902,46.408,大庆市,红岗区,,28,28,37,14,28,93,56,71,68,25,20,7,9,0.4,0.4
2023-02-18T08:00:00,1792A,125.153,46.586,大庆市,萨尔图区,,18,13,43,12,37,75,54,66,64,24,23,11,12,0.3,0.3
2023-02-18T08:00:00,1793A,124.9042,46.6215,大庆市,让胡路区,,36,25,43,25,28,98,62,79,76,22,20,8,8,0.4,0.3
2023-02-18T08:00:00,1794A,118.3606,31.3519,芜湖市,监测站,细颗粒物(PM2.5),145,140,107,111,87,51,5,10,7,81,64,11,9,1.0,0.8
2023-02-18T08:00:00,1795A,118.3714,31.4134,芜湖市,科创中心,细颗粒物(PM2.5),156,159,114,119,87,48,3,14,9,68,56,10,8,0.9,0.7
2023-02-18T08:00:00,1796A,118.3673,31.3131,芜湖市,四水厂,细颗粒物(PM2.5),152,154,117,116,83,54,5,11,9,67,51,11,10,0.7,0.6
2023-02-18T08:00:00,1798A,118.5092,31.6837,马鞍山市,湖东路四小,细颗粒物(PM2.5),144,88,70,110,74,60,4,17,12,69,52,11,9,1.2,0.9
2023-02-18T08:00:00,1799A,118.5024,31.6449,马鞍山市,开发区,细颗粒物(PM2.5),144,92,80,110,80,60,5,9,6,64,52,11,10,1.4,1.2
2023-02-18T08:00:00,1800A,118.5228,31.7231,马鞍山市,慈湖,,,141,84,120,79,53,6,29,15,71,51,13,12,1.4,1
2023-02-18T08:00:00,1802A,118.6245,31.7241,马鞍山市,濮塘,细颗粒物(PM2.5),97,115,87,72,52,70,7,26,20,44,35,5,6,1.0,0.9
2023-02-18T08:00:00,1803A,115.9872,29.6815,九江市,十里,细颗粒物(PM2.5),79,80,86,58,55,57,5,24,10,52,59,11,12,1.2,1.2
2023-02-18T08:00:00,1804A,115.9584,29.7046,九江市,茅山头,细颗粒物(PM2.5),75,82,82,55,55,64,5,6,4,58,61,17,14,1.6,1.3
2023-02-18T08:00:00,1805A,115.9877,29.7295,九江市,西园,细颗粒物(PM2.5),102,95,83,76,64,40,8,25,15,68,63,15,14,1.1,1
2023-02-18T08:00:00,1806A,116.0172,29.6547,九江市,五七二七厂,细颗粒物(PM2.5),77,68,69,56,50,67,39,40,39,23,40,8,9,1.0,1.2
2023-02-18T08:00:00,1808A,115.9114,29.6038,九江市,综合工业园,细颗粒物(PM2.5),83,88,79,61,61,65,41,9,9,29,61,10,11,1.4,1.2
2023-02-18T08:00:00,1809A,116.0721,29.7535,九江市,石化总厂,细颗粒物(PM2.5),82,87,80,60,50,79,4,20,9,75,55,21,15,1.3,1
2023-02-18T08:00:00,1810A,115.9773,29.5698,九江市,庐山气象台,,35,21,25,24,20,95,90,90,90,7,12,6,7,0.2,0.2
2023-02-18T08:00:00,1812A,112.3931,34.6516,洛阳市,市委党校,细颗粒物(PM2.5),110,128,126,83,84,93,23,31,20,42,44,9,10,0.9,0.8
2023-02-18T08:00:00,1814A,112.4657,34.6871,洛阳市,豫西宾馆,细颗粒物(PM2.5),119,127,120,90,91,87,15,33,19,46,39,6,8,0.9,0.9
2023-02-18T08:00:00,1815A,112.494,34.6886,洛阳市,河南林校,细颗粒物(PM2.5),115,117,114,87,90,91,15,37,20,52,45,5,7,1.0,0.9
2023-02-18T08:00:00,1816A,112.3844,34.623,洛阳市,开发区管委会,细颗粒物(PM2.5),123,119,115,93,89,105,24,28,28,43,40,8,8,0.7,0.6
2023-02-18T08:00:00,1817A,112.4267,34.6258,洛阳市,市委新办公区,,,,118,,109,55,,48,,,44,,8,,0.8
2023-02-18T08:00:00,1818A,114.4839,36.0621,安阳市,棉研所,,,,,,,,,,,,,,,,
2023-02-18T08:00:00,1819A,114.3551,36.1017,安阳市,红庙街,细颗粒物(PM2.5),290,282,150,240,134,94,10,30,22,69,48,11,11,2.0,1.2
2023-02-18T08:00:00,1820A,114.361,36.0681,安阳市,银杏小区,细颗粒物(PM2.5),302,250,128,252,132,97,10,32,23,60,37,11,11,1.7,1.1
2023-02-18T08:00:00,1824A,114.3389,34.7781,开封市,肿瘤医院,细颗粒物(PM2.5),120,127,116,91,79,106,4,4,4,40,39,10,6,0.8,0.7
2023-02-18T08:00:00,1826A,114.2885,34.7965,开封市,世纪星幼儿园,细颗粒物(PM2.5),147,120,90,112,82,106,4,6,6,48,46,14,8,1.0,0.8
2023-02-18T08:00:00,1828A,113.227,35.2125,焦作市,市环保局,细颗粒物(PM2.5),122,131,121,92,84,86,17,54,44,56,34,19,13,1.3,1.1
2023-02-18T08:00:00,1830A,113.1992,35.2590,焦作市,影视城,,,,,,,,,,,,,,,,
2023-02-18T08:00:00,1832A,113.3257,33.742,平顶山市,新华旅馆,细颗粒物(PM2.5),168,164,128,127,92,101,23,28,12,45,42,17,10,1.0,0.9
2023-02-18T08:00:00,1833A,113.2919,33.737,平顶山市,规划设计院,细颗粒物(PM2.5),163,166,131,124,101,108,15,8,8,53,52,18,6,1.1,1.1
2023-02-18T08:00:00,1834A,113.182,33.774,平顶山市,平顶山工学院,细颗粒物(PM2.5),168,175,138,127,97,99,14,37,24,43,29,49,15,0.8,0.8
2023-02-18T08:00:00,1835A,111.1922,34.7752,三门峡市,市政府,细颗粒物(PM2.5),186,112,97,140,116,78,8,55,23,58,38,12,13,1.0,0.8
2023-02-18T08:00:00,1836A,111.1587,34.7942,三门峡市,开发区,细颗粒物(PM2.5),173,166,147,131,113,81,6,53,29,58,33,11,15,1.0,0.9
2023-02-18T08:00:00,1838A,111.143,34.7955,三门峡市,风景区,,,,,,,,,,,,,,,,
2023-02-18T08:00:00,1840A,111.2992,30.6981,宜昌市,白龙岗,细颗粒物(PM2.5),128,112,134,97,115,59,10,16,15,49,44,8,6,1.0,1
2023-02-18T08:00:00,1841A,111.3549,30.6465,宜昌市,伍家岗,细颗粒物(PM2.5),138,133,138,105,117,69,9,13,13,44,42,13,10,1.0,0.9
2023-02-18T08:00:00,1842A,111.2628,30.6961,宜昌市,点军区,细颗粒物(PM2.5),153,134,135,117,117,60,1,7,5,31,39,4,5,0.9,1
2023-02-18T08:00:00,1843A,111.3275,30.7819,宜昌市,夷陵区,细颗粒物(PM2.5),138,103,103,105,116,49,7,20,11,38,43,6,7,1.0,0.9
2023-02-18T08:00:00,1844A,112.2494,30.3197,荆州市,市图书馆,细颗粒物(PM2.5),118,83,94,89,92,83,18,14,14,32,34,5,9,0.9,0.9
2023-02-18T08:00:00,1845A,112.2008,30.3544,荆州市,市委党校,细颗粒物(PM2.5),115,82,88,87,88,81,11,11,11,31,31,6,8,0.8,0.8
2023-02-18T08:00:00,1847A,113.1094,29.3578,岳阳市,南湖风景区,细颗粒物(PM2.5),85,71,71,63,58,61,11,10,7,42,40,17,11,1.1,1.3
2023-02-18T08:00:00,1848A,113.1493,29.4251,岳阳市,城陵矶,细颗粒物(PM2.5),67,79,82,48,50,66,8,7,7,51,57,6,10,0.8,0.8
2023-02-18T08:00:00,1849A,113.1497,29.3575,岳阳市,开发区,细颗粒物(PM2.5),90,75,82,67,68,66,7,3,3,44,42,13,11,1.0,1.1
2023-02-18T08:00:00,1850A,113.2621,29.4758,岳阳市,云溪区,细颗粒物(PM2.5),60,65,60,43,41,68,10,29,18,35,25,9,9,1.1,0.9
2023-02-18T08:00:00,1851A,112.9943,29.4402,岳阳市,君山区,细颗粒物(PM2.5),88,74,72,65,61,66,9,4,4,32,46,7,9,0.8,0.8
2023-02-18T08:00:00,1852A,113.2117,29.355,岳阳市,金凤水库,颗粒物(PM10),57,63,58,38,43,65,8,38,22,39,29,30,13,0.8,0.8
2023-02-18T08:00:00,1854A,111.6975,28.9703,常德市,市二中,细颗粒物(PM2.5),109,129,99,82,76,65,11,30,13,50,33,6,7,1.5,1.2
2023-02-18T08:00:00,1857A,111.7158,29.1456,常德市,白鹤山,细颗粒物(PM2.5),70,80,86,51,51,68,30,44,39,17,17,9,7,0.8,0.8
2023-02-18T08:00:00,1858A,110.5319,29.1217,张家界市,永定新区,细颗粒物(PM2.5),84,87,94,62,60,63,4,8,6,29,32,5,4,0.9,0.8
2023-02-18T08:00:00,1859A,110.4697,29.1242,张家界市,电业局,细颗粒物(PM2.5),79,79,90,58,60,61,4,5,4,31,39,5,5,1.1,1
2023-02-18T08:00:00,1860A,110.5594,29.3547,张家界市,未央路,细颗粒物(PM2.5),59,52,58,42,37,71,12,16,16,19,19,5,5,0.9,0.9
2023-02-18T08:00:00,1861A,110.4417,29.315,张家界市,袁家界,细颗粒物(PM2.5),53,41,41,37,35,76,65,73,56,7,9,7,7,1.0,0.9
2023-02-18T08:00:00,1862A,110.4144,25.3167,桂林市,电子科大尧山校区,细颗粒物(PM2.5),74,68,61,54,45,91,21,35,26,15,17,5,5,0.8,0.8
2023-02-18T08:00:00,1863A,110.2819,25.2697,桂林市,监测站,细颗粒物(PM2.5),134,130,113,102,82,63,4,6,4,47,47,6,9,1.7,1.3
2023-02-18T08:00:00,1864A,110.3089,25.2708,桂林市,龙隐路小学,细颗粒物(PM2.5),127,101,90,96,78,74,5,9,7,48,41,7,9,1.1,0.9
2023-02-18T08:00:00,1865A,110.2869,25.2178,桂林市,八中,细颗粒物(PM2.5),122,115,93,92,76,57,2,4,2,46,49,6,9,1.2,0.9
2023-02-18T08:00:00,1866A,109.2262,21.588,北海市,牛尾岭水库,细颗粒物(PM2.5),63,57,54,45,45,173,58,65,60,23,18,17,20,0.7,0.8
2023-02-18T08:00:00,1867A,109.1436,21.4086,北海市,海滩公园,,42,42,49,22,27,149,92,114,99,9,15,8,7,0.5,0.7
2023-02-18T08:00:00,1868A,109.0981,21.4661,北海市,新市环保局,,43,43,46,24,30,121,78,110,96,18,18,5,5,0.5,0.6
2023-02-18T08:00:00,1869A,109.1778,21.5233,北海市,北海工业园,颗粒物(PM10),54,57,62,37,40,132,43,92,70,27,16,10,8,0.7,0.7
2023-02-18T08:00:00,1870A,109.4856,24.3895,柳州市,柳东小学,细颗粒物(PM2.5),124,72,80,94,83,106,36,45,43,26,30,6,7,1.0,1
2023-02-18T08:00:00,1871A,109.4157,24.3277,柳州市,环保监测站,细颗粒物(PM2.5),85,88,88,63,66,115,17,48,37,46,43,6,6,1.1,1.2
2023-02-18T08:00:00,1872A,109.389,24.341,柳州市,河西水厂,细颗粒物(PM2.5),80,86,108,59,79,114,10,30,26,46,41,7,7,1.3,1.4
2023-02-18T08:00:00,1873A,109.4311,24.2921,柳州市,市四中,细颗粒物(PM2.5),78,77,97,57,65,120,24,49,43,38,43,10,10,1.4,1.5
2023-02-18T08:00:00,1874A,109.4006,24.3631,柳州市,市九中,细颗粒物(PM2.5),93,85,111,69,73,111,23,14,14,41,50,7,10,0.8,1
2023-02-18T08:00:00,1875A,109.4958,24.3134,柳州市,古亭山,细颗粒物(PM2.5),87,71,78,64,64,108,12,40,25,38,32,8,9,0.9,0.8
2023-02-18T08:00:00,1876A,109.5078,18.2489,三亚市,河东子站,,28,28,17,10,8,102,76,84,80,6,6,2,2,0.4,0.4
2023-02-18T08:00:00,1877A,109.4964,18.2681,三亚市,河西子站,,25,24,16,8,7,109,80,85,82,5,4,2,2,0.4,0.4
2023-02-18T08:00:00,1878A,104.7778,31.4741,绵阳市,富乐山,细颗粒物(PM2.5),77,66,75,56,65,55,8,31,23,29,20,3,4,1.0,0.9
2023-02-18T08:00:00,1879A,104.7563,31.4535,绵阳市,市人大,细颗粒物(PM2.5),84,67,80,62,66,41,4,24,18,45,30,7,7,0.9,0.9
2023-02-18T08:00:00,1880A,104.6697,31.4668,绵阳市,高新区自来水公司,细颗粒物(PM2.5),83,78,78,61,72,47,3,22,17,43,34,5,6,0.9,0.9
2023-02-18T08:00:00,1881A,104.7287,31.5075,绵阳市,三水厂,细颗粒物(PM2.5),87,80,90,64,70,48,3,13,10,37,31,3,3,1.1,0.9
2023-02-18T08:00:00,1882A,104.563,28.793,宜宾市,石马中学,细颗粒物(PM2.5),115,97,94,87,84,73,34,44,35,20,25,6,8,1.0,1.1
2023-02-18T08:00:00,1883A,104.6201,28.7728,宜宾市,市委,细颗粒物(PM2.5),108,108,110,81,85,80,29,32,24,33,36,10,10,1.1,1.1
2023-02-18T08:00:00,1884A,104.6055,28.793,宜宾市,宜宾四中,细颗粒物(PM2.5),117,106,114,88,94,79,30,41,28,34,37,8,8,1.0,1
2023-02-18T08:00:00,1885A,104.639,28.7562,宜宾市,市政府,细颗粒物(PM2.5),113,101,105,85,88,85,35,39,28,29,38,10,10,0.8,0.8
2023-02-18T08:00:00,1886A,104.5742,28.7199,宜宾市,黄金嘴,细颗粒物(PM2.5),117,107,100,88,83,73,38,44,41,30,34,9,10,1.0,1
2023-02-18T08:00:00,1888A,101.6891,26.571,攀枝花市,弄弄坪,细颗粒物(PM2.5),109,145,74,82,41,102,1,25,7,59,44,38,38,4.5,2.8
2023-02-18T08:00:00,1889A,101.5769,26.5928,攀枝花市,河门口,颗粒物(PM10),58,65,46,31,22,104,9,33,26,37,27,10,12,1.1,0.7
2023-02-18T08:00:00,1890A,101.7169,26.585,攀枝花市,炳草岗,细颗粒物(PM2.5),195,203,97,146,47,98,4,3,3,63,63,36,28,2.2,1.9
2023-02-18T08:00:00,1891A,101.7369,26.5008,攀枝花市,仁和,,48,48,49,27,28,113,24,46,38,32,28,10,21,0.9,1.5
2023-02-18T08:00:00,1893A,105.4324,28.9634,泸州市,九狮山,颗粒物(PM10),58,65,65,40,44,83,4,28,22,25,24,8,11,0.7,0.6
2023-02-18T08:00:00,1894A,105.4427,28.9063,泸州市,小市上码头,细颗粒物(PM2.5),90,112,93,67,60,84,9,46,32,42,30,10,12,1.3,1.1
2023-02-18T08:00:00,1895A,105.4241,28.8573,泸州市,兰田宪桥,细颗粒物(PM2.5),112,114,91,84,65,83,16,39,28,32,33,9,10,1.1,0.9
2023-02-18T08:00:00,1896A,105.4379,28.8833,泸州市,市环监站,细颗粒物(PM2.5),92,114,88,68,57,84,9,44,30,36,27,8,10,1.0,0.9
2023-02-18T08:00:00,1901A,104.4239,31.1208,德阳市,东山公园,细颗粒物(PM2.5),87,73,85,64,73,59,5,24,20,47,29,2,2,1.1,1
2023-02-18T08:00:00,1902A,104.3826,31.1317,德阳市,西小区,细颗粒物(PM2.5),99,83,90,74,80,49,4,22,18,44,39,5,4,1.1,1
2023-02-18T08:00:00,1904A,104.3553,31.1091,德阳市,耐火材料厂,细颗粒物(PM2.5),107,93,91,80,83,39,3,22,17,37,34,3,3,1.0,0.9
2023-02-18T08:00:00,1905A,106.056,30.8064,南充市,西山风景区,,,,,,,,,,,,,,,,
2023-02-18T08:00:00,1906A,106.0789,30.8023,南充市,南充市委,,,63,56,38,34,83,,35,32,30,28,8,10,0.8,0.8
2023-02-18T08:00:00,1907A,106.1031,30.8217,南充市,南充炼油厂,细颗粒物(PM2.5),53,43,50,37,32,89,21,48,37,31,23,8,9,0.9,0.8
2023-02-18T08:00:00,1908A,106.1064,30.7856,南充市,高坪区监测站,细颗粒物(PM2.5),58,51,50,41,39,81,20,46,35,37,30,9,10,0.9,0.8
2023-02-18T08:00:00,1909A,106.0642,30.7636,南充市,嘉陵区环保局,细颗粒物(PM2.5),58,53,51,41,39,83,3,41,33,49,32,10,10,1.0,0.9
2023-02-18T08:00:00,1910A,106.1087,30.8388,南充市,市环境监测站,细颗粒物(PM2.5),62,56,59,44,40,89,22,44,37,33,24,11,8,0.8,0.8
2023-02-18T08:00:00,1911A,106.9222,27.6869,遵义市,丁字口,,43,43,44,29,37,48,11,11,11,25,29,28,22,1.2,1
2023-02-18T08:00:00,1912A,106.9242,27.7019,遵义市,凤凰山,,23,23,40,13,25,45,23,25,24,18,21,4,5,0.9,0.9
2023-02-18T08:00:00,1913A,106.8906,27.6486,遵义市,忠庄,颗粒物(PM10),54,57,56,34,36,44,3,5,4,27,23,17,6,1.4,0.9
2023-02-18T08:00:00,1914A,106.9231,27.6506,遵义市,舟水桥,细颗粒物(PM2.5),65,60,52,47,38,52,8,10,9,26,19,34,26,1.4,0.9
2023-02-18T08:00:00,1915A,106.9178,27.72,遵义市,干田坝,,31,31,41,18,32,42,7,20,17,29,27,11,9,1.0,0.9
2023-02-18T08:00:00,1916A,103.7897,25.5035,曲靖市,环境监测站,细颗粒物(PM2.5),59,56,38,42,24,110,67,80,73,9,10,7,7,0.6,0.6
2023-02-18T08:00:00,1917A,103.8,25.5364,曲靖市,烟厂办公区,,45,45,40,26,21,116,65,87,79,14,9,3,5,0.7,0.6
2023-02-18T08:00:00,1918A,108.7197,34.3956,咸阳市,气象站,细颗粒物(PM2.5),165,118,134,125,141,72,6,10,6,44,51,9,10,1.6,1.7
2023-02-18T08:00:00,1919A,108.673,34.3155,咸阳市,实验中学,细颗粒物(PM2.5),182,157,163,137,144,60,9,9,8,47,52,9,7,1.2,1.2
2023-02-18T08:00:00,1920A,108.7233,34.3617,咸阳市,师范学院,细颗粒物(PM2.5),150,146,152,115,135,73,10,15,12,37,40,7,7,1.2,1.2
2023-02-18T08:00:00,1922A,109.0656,35.0994,铜川市,党校,细颗粒物(PM2.5),90,128,113,67,58,84,3,8,4,53,45,13,14,1.4,1.3
2023-02-18T08:00:00,1923A,109.0697,35.0697,铜川市,王益区政府,细颗粒物(PM2.5),159,144,115,121,100,86,4,27,13,50,40,6,7,1.6,1.3
2023-02-18T08:00:00,1924A,108.9344,34.9058,铜川市,新区管委会,细颗粒物(PM2.5),88,78,126,65,106,92,36,30,25,24,38,9,14,1.0,1.3
2023-02-18T08:00:00,1926A,109.4131,36.6275,延安市,枣园,细颗粒物(PM2.5),73,46,71,53,76,83,4,4,4,33,40,5,6,0.8,1
2023-02-18T08:00:00,1927A,109.4761,36.6028,延安市,延大医附院,细颗粒物(PM2.5),74,52,79,54,74,65,4,4,3,36,43,6,7,1.8,1.4
2023-02-18T08:00:00,1929A,109.5056,36.6106,延安市,百米大道,细颗粒物(PM2.5),80,60,86,59,81,66,7,8,8,42,45,9,10,1.7,1.4
2023-02-18T08:00:00,1930A,107.185,34.3063,宝鸡市,庙沟村,细颗粒物(PM2.5),83,55,110,61,107,58,34,28,28,24,31,4,4,0.7,1
2023-02-18T08:00:00,1931A,107.0708,34.3017,宝鸡市,竹园沟,细颗粒物(PM2.5),92,57,116,68,112,60,19,24,19,25,32,6,6,1.0,1.1
2023-02-18T08:00:00,1932A,107.1906,34.3672,宝鸡市,三陆医院,细颗粒物(PM2.5),166,135,134,126,118,66,6,15,11,41,39,12,8,1.5,1.2
2023-02-18T08:00:00,1933A,107.1431,34.3547,宝鸡市,监测站,细颗粒物(PM2.5),148,107,123,113,113,64,10,34,17,38,39,8,6,1.2,1.1
2023-02-18T08:00:00,1934A,107.1186,34.3739,宝鸡市,技工学校,细颗粒物(PM2.5),158,118,114,120,117,63,10,36,21,35,36,8,6,1.1,1
2023-02-18T08:00:00,1935A,107.3906,34.3528,宝鸡市,陈仓区环保局家属楼,细颗粒物(PM2.5),172,142,139,130,131,57,11,24,20,42,42,7,7,1.4,1.3
2023-02-18T08:00:00,1936A,107.2058,34.3497,宝鸡市,文理学院,细颗粒物(PM2.5),148,134,136,113,115,65,4,29,16,44,36,11,11,1.4,1.3
2023-02-18T08:00:00,1937A,107.2386,34.3622,宝鸡市,三迪小学,细颗粒物(PM2.5),147,135,136,112,115,58,6,20,15,45,40,11,11,1.2,1.2
2023-02-18T08:00:00,1938A,109.5293,34.5101,渭南市,农科所,细颗粒物(PM2.5),134,124,153,102,121,93,27,27,27,33,42,7,11,1.0,1.1
2023-02-18T08:00:00,1939A,109.4974,34.4877,渭南市,日报社,细颗粒物(PM2.5),158,129,153,120,131,90,23,23,23,42,44,10,13,1.2,1.5
2023-02-18T08:00:00,1940A,109.4636,34.493,渭南市,体育馆,细颗粒物(PM2.5),153,127,147,117,128,103,25,33,32,40,42,6,10,0.9,1.1
2023-02-18T08:00:00,1941A,109.4259,34.5023,渭南市,高新一小,细颗粒物(PM2.5),152,108,145,116,130,92,22,31,30,35,42,11,13,1.1,1.3
2023-02-18T08:00:00,1943A,102.1725,38.5339,金昌市,新川苑,颗粒物(PM10),64,78,76,5,15,102,91,101,99,10,12,6,10,0.6,0.7
2023-02-18T08:00:00,1944A,102.1692,38.5167,金昌市,天庆家园,颗粒物(PM10),52,54,59,11,23,100,87,99,96,8,12,5,13,0.6,0.7
2023-02-18T08:00:00,1945A,98.2908,39.7711,嘉峪关市,气象局,颗粒物(PM10),57,63,58,29,21,102,65,101,91,28,12,10,5,0.8,0.2
2023-02-18T08:00:00,1947A,106.3394,38.817,石嘴山市,沙湖旅游区,颗粒物(PM10),85,119,149,34,73,106,89,80,79,16,38,8,19,0.2,0.9
2023-02-18T08:00:00,1948A,106.3668,39.0145,石嘴山市,大武口朝阳西街,颗粒物(PM10),72,94,69,16,37,106,90,99,98,2,16,3,16,0.1,0.5
2023-02-18T08:00:00,1949A,106.7704,39.2282,石嘴山市,惠农南大街,颗粒物(PM10),93,136,110,17,41,98,86,90,89,12,31,17,24,0.3,0.8
2023-02-18T08:00:00,1950A,106.7099,39.1325,石嘴山市,红果子镇惠新街,颗粒物(PM10),77,104,88,17,49,100,85,92,90,8,17,23,26,0.3,0.4
2023-02-18T08:00:00,1951A,84.895,45.6094,克拉玛依市,长征新村,,49,49,53,21,32,98,61,90,76,23,28,6,6,0.5,0.6
2023-02-18T08:00:00,1952A,84.8988,45.5893,克拉玛依市,南林小区,"颗粒物(PM10),细颗粒物(PM2.5)",52,53,58,36,42,97,71,80,73,19,30,2,3,0.5,0.6
2023-02-18T08:00:00,1954A,84.905,44.3396,克拉玛依市,独山子区,细颗粒物(PM2.5),108,109,117,81,76,124,108,107,102,13,32,5,5,0.8,1
2023-02-18T08:00:00,1955A,85.6979,46.098,克拉玛依市,乌尔禾区商贸楼,细颗粒物(PM2.5),59,50,58,42,46,101,25,50,29,38,36,3,2,0.6,1.1
2023-02-18T08:00:00,1956A,86.1472,41.7538,巴音郭楞州,孔雀公园,颗粒物(PM10),84,118,188,19,36,95,94,51,51,6,34,5,5,0.4,0.5
2023-02-18T08:00:00,1957A,86.1972,41.7166,巴音郭楞州,棉纺厂,颗粒物(PM10),79,107,228,23,43,92,73,66,49,26,36,3,3,0.1,0.4
2023-02-18T08:00:00,1958A,86.2357,41.7173,巴音郭楞州,经济开发区,颗粒物(PM10),63,76,167,16,32,93,90,79,79,7,11,7,5,0.4,0.6
2023-02-18T08:00:00,1961A,117.532,36.6868,济南市,东山小学,细颗粒物(PM2.5),104,137,102,78,64,120,16,49,41,66,42,4,5,0.8,0.7
2023-02-18T08:00:00,1966A,120.0405,35.8735,青岛市,黄岛区4号,,20,19,24,14,16,97,52,81,71,27,17,5,5,0.6,0.6
2023-02-18T08:00:00,1982A,122.0693,37.2174,威海市,文登开发区,,45,41,43,31,30,104,41,63,58,42,23,4,4,0.8,0.4
2023-02-18T08:00:00,2031A,113.1817,27.9958,株洲市,云田中学,细颗粒物(PM2.5),75,70,73,55,56,76,12,43,34,44,29,12,10,1.0,1
2023-02-18T08:00:00,2054A,114.1099,32.1059,信阳市,平桥分局,细颗粒物(PM2.5),102,118,90,76,63,98,13,43,18,51,38,9,10,1.0,0.9
2023-02-18T08:00:00,2064A,113.9956,32.1271,信阳市,南湾水厂,细颗粒物(PM2.5),100,105,84,75,59,105,70,69,61,15,18,8,9,0.8,0.8
2023-02-18T08:00:00,2065A,114.0775,32.1195,信阳市,市酿酒公司,细颗粒物(PM2.5),104,99,74,78,65,106,37,30,21,40,40,9,10,1.0,0.9
2023-02-18T08:00:00,2066A,114.0609,32.1399,信阳市,审计局,细颗粒物(PM2.5),118,90,79,89,63,101,32,41,20,39,39,8,9,0.8,0.8
2023-02-18T08:00:00,2067A,114.6613,33.6128,周口市,市环境监测站,细颗粒物(PM2.5),156,129,86,119,76,95,5,23,14,49,30,18,12,1.3,0.7
2023-02-18T08:00:00,2068A,114.6758,33.6347,周口市,周口师范,细颗粒物(PM2.5),150,123,84,115,77,104,8,41,17,47,30,21,12,0.6,0.5
2023-02-18T08:00:00,2069A,114.6546,33.5979,周口市,市运管处,细颗粒物(PM2.5),153,132,89,117,77,104,10,37,21,55,36,26,16,0.8,0.5
2023-02-18T08:00:00,2070A,114.6369,33.6406,周口市,川汇区环保局,细颗粒物(PM2.5),152,129,82,116,78,99,2,41,16,45,26,15,10,0.8,0.6
2023-02-18T08:00:00,2075A,117.6336,24.4674,漳州市,九湖,,,,,,,,,,,,,,,,
2023-02-18T08:00:00,2160A,112.85,35.5051,晋城市,自来水公司,细颗粒物(PM2.5),98,118,86,73,60,99,72,96,86,24,22,10,10,0.8,0.8
2023-02-18T08:00:00,2161A,112.8318,35.4936,晋城市,白云商贸,细颗粒物(PM2.5),89,114,87,66,56,93,64,89,81,20,19,9,8,1.0,1.1
2023-02-18T08:00:00,2162A,112.8508,35.4887,晋城市,市环保局,细颗粒物(PM2.5),100,105,89,75,61,100,74,96,88,28,26,12,10,0.9,0.9
2023-02-18T08:00:00,2163A,112.8676,35.4897,晋城市,技术学院,细颗粒物(PM2.5),104,114,92,78,66,95,66,89,81,30,24,8,7,1.1,1.1
2023-02-18T08:00:00,2165A,112.8453,35.546,晋城市,白马寺 ,,,,,,,,,,,,,,,,
2023-02-18T08:00:00,2166A,112.4397,39.3522,朔州市,平朔,细颗粒物(PM2.5),75,53,105,55,72,79,37,12,12,34,48,15,19,0.9,0.9
2023-02-18T08:00:00,2167A,112.4575,39.3617,朔州市,朔唯,细颗粒物(PM2.5),75,63,126,55,70,84,34,7,7,47,56,23,23,0.9,0.9
2023-02-18T08:00:00,2168A,112.4258,39.3197,朔州市,区政府,细颗粒物(PM2.5),73,72,101,53,65,83,60,38,24,20,43,9,17,0.9,0.9
2023-02-18T08:00:00,2169A,112.4072,39.3278,朔州市,市环保局,细颗粒物(PM2.5),77,81,104,56,69,80,53,23,14,24,46,13,21,0.9,0.9
2023-02-18T08:00:00,2170A,112.4272,39.3681,朔州市,市二中,"颗粒物(PM10),细颗粒物(PM2.5)",73,95,120,53,66,80,32,10,10,44,46,13,17,1.0,0.9
2023-02-18T08:00:00,2171A,112.7532,37.6945,晋中市,锦纶小区,细颗粒物(PM2.5),247,264,157,197,139,90,5,58,38,64,40,61,14,2.0,1.4
2023-02-18T08:00:00,2173A,112.7249,37.7067,晋中市,南都小区,细颗粒物(PM2.5),234,244,205,184,128,86,9,54,40,62,43,53,15,1.8,1.3
2023-02-18T08:00:00,2174A,112.6991,37.6982,晋中市,榆次区政府,细颗粒物(PM2.5),236,249,184,186,120,81,6,54,37,64,46,22,12,1.9,1.5
2023-02-18T08:00:00,2175A,110.9956,35.0147,运城市,运城中学,细颗粒物(PM2.5),175,167,115,132,90,89,19,62,29,42,26,11,12,1.2,1.1
2023-02-18T08:00:00,2178A,110.9686,35.0303,运城市,地区技校,细颗粒物(PM2.5),176,158,117,133,88,93,16,38,23,39,27,8,9,1.3,1.2
2023-02-18T08:00:00,2179A,111.0414,35.1147,运城市,空港新区,细颗粒物(PM2.5),186,161,122,140,95,107,11,39,21,44,32,7,14,1.3,1.2
2023-02-18T08:00:00,2181A,112.7383,38.4519,忻州市,开发区,细颗粒物(PM2.5),226,203,238,176,199,111,14,12,12,64,74,6,8,1.6,1.6
2023-02-18T08:00:00,2182A,112.7003,38.4928,忻州市,会展中心,细颗粒物(PM2.5),224,206,232,174,189,90,10,10,10,72,82,10,18,1.3,1.2
2023-02-18T08:00:00,2183A,111.1406,37.5211,吕梁市,环保局,颗粒物(PM10),101,152,107,49,46,77,3,2,2,66,59,16,14,1.5,0.9
2023-02-18T08:00:00,2185A,111.1297,37.5136,吕梁市,自来水公司,颗粒物(PM10),100,150,105,54,46,89,3,3,3,58,51,16,15,1.6,1.2
2023-02-18T08:00:00,2187A,106.8174,39.6973,乌海市,市林业局,颗粒物(PM10),106,161,108,34,51,102,91,91,91,9,27,8,23,0.5,1.1
2023-02-18T08:00:00,2188A,106.7907,39.6667,乌海市,中海勃湾学校,颗粒物(PM10),110,170,112,33,55,105,96,99,98,14,28,8,26,0.3,1
2023-02-18T08:00:00,2191A,122.2532,43.6801,通辽市,艺术职业学校,,41,41,51,24,24,82,65,69,68,16,29,6,9,0.4,0.6
2023-02-18T08:00:00,2192A,119.7594,49.2261,呼伦贝尔市,区环保局,,35,23,30,24,23,82,46,75,69,30,11,5,5,0.5,0.4
2023-02-18T08:00:00,2195A,107.4212,40.761,巴彦淖尔市,附二中,颗粒物(PM10),144,237,180,49,62,121,76,87,85,12,26,4,10,0.5,0.8
2023-02-18T08:00:00,2196A,107.37,40.7372,巴彦淖尔市,市环保大楼,颗粒物(PM10),128,206,158,46,64,132,79,89,87,12,27,6,13,0.5,0.8
2023-02-18T08:00:00,2197A,113.1306,40.9923,乌兰察布市,集宁新区,颗粒物(PM10),59,67,69,26,42,104,49,61,50,19,28,16,16,0.7,0.6
2023-02-18T08:00:00,2200A,122.0392,46.0656,兴安盟,胜华新制药厂,,33,32,25,23,14,81,58,76,69,21,11,6,5,0.6,0.4
2023-02-18T08:00:00,2201A,121.9504,46.0741,兴安盟,科右前旗环保局,,43,38,23,30,17,84,42,71,65,31,11,6,4,0.6,0.4
2023-02-18T08:00:00,2202A,116.1042,43.9317,锡林郭勒盟,市环保监测站,,22,22,21,3,8,78,40,64,58,23,10,12,10,0.3,0.3
2023-02-18T08:00:00,2203A,116.0781,43.9311,锡林郭勒盟,市政府,,16,13,22,2,6,78,49,67,56,20,12,7,9,0.3,0.2
2023-02-18T08:00:00,2204A,105.6467,38.8363,阿拉善盟,西城区西花园,颗粒物(PM10),72,93,75,22,39,104,92,95,94,11,16,8,11,0.7,0.8
2023-02-18T08:00:00,2205A,105.6985,38.8411,阿拉善盟,蒙二幼,颗粒物(PM10),63,75,60,31,43,109,96,101,100,10,14,8,11,0.4,0.6
2023-02-18T08:00:00,2206A,105.724,38.8516,阿拉善盟,环保局新楼,颗粒物(PM10),59,67,53,29,38,110,98,104,102,6,11,7,9,0.5,0.6
2023-02-18T08:00:00,2207A,121.6094,41.998,阜新市,工业园区,,43,43,215,11,132,76,50,18,18,22,46,12,26,0.9,1.8
2023-02-18T08:00:00,2208A,121.6697,42.0279,阜新市,长青街,,46,46,162,26,111,88,67,29,29,17,45,33,30,0.7,1.4
2023-02-18T08:00:00,2209A,121.6673,42.0705,阜新市,农业园区,,26,26,119,15,113,81,61,40,40,12,25,14,38,0.6,1
2023-02-18T08:00:00,2210A,121.6717,42.0224,阜新市,东苑,,43,43,173,16,124,78,59,25,25,15,43,59,38,0.7,1.4
2023-02-18T08:00:00,2211A,121.6506,42.0498,阜新市,玉龙新城,,31,31,135,20,103,88,65,30,30,19,44,16,33,0.9,1.2
2023-02-18T08:00:00,2212A,123.2,41.1953,辽阳市,宏伟区,细颗粒物(PM2.5),180,158,84,136,80,90,19,90,72,53,24,17,12,1.7,1
2023-02-18T08:00:00,2213A,123.1683,41.2495,辽阳市,新华园,细颗粒物(PM2.5),200,165,100,150,92,97,21,94,71,57,34,11,13,1.5,1.1
2023-02-18T08:00:00,2214A,123.2354,41.2639,辽阳市,滨河路,细颗粒物(PM2.5),247,158,78,197,104,84,10,82,61,60,30,6,7,1.9,1
2023-02-18T08:00:00,2215A,123.149,41.2991,辽阳市,铁西工业园,细颗粒物(PM2.5),241,182,123,191,119,84,12,82,54,50,37,8,13,1.5,1.1
2023-02-18T08:00:00,2216A,123.8139,42.3022,铁岭市,汇工街西,细颗粒物(PM2.5),54,42,194,38,182,70,49,20,20,24,55,16,37,0.4,1.3
2023-02-18T08:00:00,2217A,123.8649,42.2923,铁岭市,水上乐园,细颗粒物(PM2.5),60,47,167,43,155,66,46,46,26,40,75,12,17,0.6,1.5
2023-02-18T08:00:00,2218A,123.8486,42.2867,铁岭市,银州路东段,细颗粒物(PM2.5),53,50,189,37,153,60,49,38,27,36,62,7,12,0.7,1.5
2023-02-18T08:00:00,2219A,123.7153,42.2217,铁岭市,金沙江路北,细颗粒物(PM2.5),67,57,165,48,161,60,46,42,24,31,62,7,16,0.5,1.3
2023-02-18T08:00:00,2220A,120.4318,41.5881,朝阳市,西梁,,26,26,188,18,150,104,64,28,28,23,53,13,21,0.6,1.7
2023-02-18T08:00:00,2221A,120.4521,41.5646,朝阳市,河畔小区,,41,41,180,15,152,121,66,35,35,22,62,12,19,0.7,1.6
2023-02-18T08:00:00,2222A,120.4176,41.5648,朝阳市,八里堡,,45,45,185,15,156,115,64,29,29,22,51,12,21,0.7,1.6
2023-02-18T08:00:00,2223A,120.3806,41.5969,朝阳市,农业园区,,21,21,169,8,149,105,65,30,30,22,50,9,20,0.6,1.5
2023-02-18T08:00:00,2225A,124.4002,43.1713,四平市,一商场,,44,44,98,28,53,83,52,32,32,23,39,7,11,0.3,0.7
2023-02-18T08:00:00,2226A,124.388,43.193,四平市,境园,,50,50,86,24,52,85,63,32,32,13,39,2,4,0.3,0.7
2023-02-18T08:00:00,2227A,125.1358,42.8845,辽源市,环保局,,43,33,101,30,86,95,50,40,40,28,39,14,15,0.4,1.1
2023-02-18T08:00:00,2229A,125.9358,41.7173,通化市,光明,细颗粒物(PM2.5),55,52,52,39,36,109,102,105,105,18,17,10,13,0.4,0.5
2023-02-18T08:00:00,2230A,125.9446,41.7325,通化市,铁路,颗粒物(PM10),57,63,54,36,38,113,105,108,108,21,20,8,10,0.3,0.4
2023-02-18T08:00:00,2231A,126.4219,41.9171,白山市,喜丰,细颗粒物(PM2.5),78,102,93,57,55,93,88,76,76,24,25,24,17,1.1,1.2
2023-02-18T08:00:00,2232A,126.4077,41.9419,白山市,环保局,细颗粒物(PM2.5),108,102,100,81,66,85,42,46,40,63,30,14,15,1.4,1.3
2023-02-18T08:00:00,2233A,124.8006,45.1214,松原市,江南,细颗粒物(PM2.5),97,45,42,72,32,80,20,51,45,43,24,11,8,0.8,0.4
2023-02-18T08:00:00,2234A,124.7965,45.1722,松原市,江北,,21,21,37,12,23,74,29,49,46,29,20,2,4,0.4,0.4
2023-02-18T08:00:00,2235A,122.7911,45.6077,白城市,洮北区环保局,,25,25,39,17,20,97,61,76,72,20,14,5,7,0.4,0.4
2023-02-18T08:00:00,2236A,122.8738,45.5725,白城市,市环保局,,44,44,39,25,12,93,36,65,49,34,21,8,5,0.4,0.2
2023-02-18T08:00:00,2237A,129.47,42.8883,延边朝鲜族自治州,妇幼医院,细颗粒物(PM2.5),145,98,79,111,73,93,9,49,26,53,40,36,30,1.3,0.9
2023-02-18T08:00:00,2238A,129.5055,42.9108,延边朝鲜族自治州,延边医院,细颗粒物(PM2.5),114,87,85,86,82,99,12,38,33,52,41,14,24,1.2,1.1
2023-02-18T08:00:00,2239A,129.3964,42.8881,延边朝鲜族自治州,朝阳川镇医院,细颗粒物(PM2.5),193,118,78,145,73,100,19,34,24,49,32,21,14,1.4,0.9
2023-02-18T08:00:00,2240A,130.9762,45.3001,鸡西市,环保局,细颗粒物(PM2.5),69,60,55,50,40,91,19,76,49,72,27,14,8,1.1,0.5
2023-02-18T08:00:00,2243A,130.9429,45.3039,鸡西市,第一中学,颗粒物(PM10),58,65,44,39,29,93,40,80,64,42,12,11,6,0.5,0.5
2023-02-18T08:00:00,2244A,130.2537,47.3416,鹤岗市,哈啤分公司,颗粒物(PM10),59,67,72,38,44,100,70,96,83,22,30,10,18,0.6,0.6
2023-02-18T08:00:00,2245A,130.2684,47.3086,鹤岗市,斯达机电,颗粒物(PM10),67,84,77,43,48,98,45,96,78,48,28,12,12,0.6,0.5
2023-02-18T08:00:00,2246A,130.3114,47.3388,鹤岗市,东山纸板厂,颗粒物(PM10),154,257,107,90,51,91,17,89,51,58,26,31,17,3.3,1
2023-02-18T08:00:00,2247A,130.1097,47.3382,鹤岗市,五号水库,,49,49,54,28,40,101,66,101,79,11,10,6,9,0.5,0.6
2023-02-18T08:00:00,2248A,131.1511,46.6937,双鸭山市,双合村,细颗粒物(PM2.5),63,60,96,45,63,107,74,88,82,22,21,17,15,0.8,1
2023-02-18T08:00:00,2249A,131.1652,46.6191,双鸭山市,南小市,细颗粒物(PM2.5),70,88,88,51,57,112,76,102,92,22,15,10,10,0.9,0.9
2023-02-18T08:00:00,2250A,131.1524,46.6554,双鸭山市,环保局,细颗粒物(PM2.5),64,49,80,46,63,116,98,98,98,16,22,4,8,0.6,0.9
2023-02-18T08:00:00,2251A,131.12,46.5656,双鸭山市,苗圃,细颗粒物(PM2.5),74,55,64,54,63,114,83,100,94,16,13,5,7,0.2,0.4
2023-02-18T08:00:00,2252A,128.5159,47.4311,伊春市,环保局,细颗粒物(PM2.5),94,63,73,70,66,108,47,91,79,44,26,7,8,0.8,0.9
2023-02-18T08:00:00,2253A,128.9102,47.7412,伊春市,电力嘉园,颗粒物(PM10),72,94,85,42,54,127,54,93,73,39,26,9,10,0.9,0.9
2023-02-18T08:00:00,2254A,129.5029,48.471,伊春市,汤旺河国家公园,,47,47,68,30,47,88,57,76,63,5,7,4,7,0.1,0.3
2023-02-18T08:00:00,2255A,130.2751,46.8028,佳木斯市,佳纺,细颗粒物(PM2.5),72,60,89,52,69,99,87,82,60,14,32,8,12,0.5,0.7
2023-02-18T08:00:00,2256A,130.3995,46.8307,佳木斯市,发电厂,细颗粒物(PM2.5),70,52,67,51,61,100,76,78,62,25,29,10,8,0.5,0.6
2023-02-18T08:00:00,2257A,130.3258,46.7975,佳木斯市,环保局,细颗粒物(PM2.5),60,49,77,43,66,94,79,68,68,18,33,8,10,0.5,0.7
2023-02-18T08:00:00,2258A,130.3648,46.8032,佳木斯市,十一中,细颗粒物(PM2.5),67,52,81,48,72,95,80,63,63,21,37,7,9,0.6,0.8
2023-02-18T08:00:00,2259A,130.3794,46.7588,佳木斯市,四丰,"细颗粒物(PM2.5),臭氧1小时",53,44,72,37,61,188,162,170,167,8,22,1,2,0.6,0.9
2023-02-18T08:00:00,2262A,131.0518,45.8751,七台河市,新一中,细颗粒物(PM2.5),57,52,55,40,43,117,65,96,87,32,20,6,9,0.6,0.6
2023-02-18T08:00:00,2263A,127.4833,50.2524,黑河市,交通局,,35,30,36,24,30,90,54,72,64,22,17,7,9,0.6,0.6
2023-02-18T08:00:00,2264A,127.5144,50.2341,黑河市,环保局,颗粒物(PM10),52,54,59,27,36,89,46,76,55,27,18,10,8,0.8,0.5
2023-02-18T08:00:00,2265A,127.5291,50.2472,黑河市,大黑河岛,,35,20,29,24,31,90,62,77,66,3,6,3,6,0.4,0.4
2023-02-18T08:00:00,2266A,126.9785,46.6365,绥化市,人和东街,细颗粒物(PM2.5),59,50,90,42,71,130,45,49,47,33,30,5,7,0.8,1
2023-02-18T08:00:00,2267A,126.964,46.6528,绥化市,党政办公中心,细颗粒物(PM2.5),79,64,92,58,79,140,55,61,55,28,27,6,6,0.7,0.8
2023-02-18T08:00:00,2269A,124.1069,50.4097,大兴安岭地区,科技局,,26,10,31,18,27,82,54,66,59,6,11,3,7,0.4,0.4
2023-02-18T08:00:00,2270A,117.396,32.939,蚌埠市,工人疗养院,细颗粒物(PM2.5),108,121,96,81,70,57,3,10,6,62,58,12,12,0.9,0.8
2023-02-18T08:00:00,2271A,117.3605,32.9427,蚌埠市,百货大楼,细颗粒物(PM2.5),112,126,110,84,77,60,2,9,5,53,53,4,5,0.8,0.7
2023-02-18T08:00:00,2273A,117.4185,32.8911,蚌埠市,蚌埠学院,细颗粒物(PM2.5),100,102,92,75,63,64,2,16,7,55,50,7,8,0.8,0.8
2023-02-18T08:00:00,2274A,117.3533,32.9673,蚌埠市,淮上区政府,细颗粒物(PM2.5),104,134,108,78,68,59,4,7,4,49,48,10,11,0.9,0.8
2023-02-18T08:00:00,2275A,117.3145,32.8977,蚌埠市,高新区,细颗粒物(PM2.5),113,124,95,85,69,68,2,17,9,52,48,12,11,0.9,0.8
2023-02-18T08:00:00,2277A,116.8305,32.7727,淮南市,潘集区政府,细颗粒物(PM2.5),117,121,118,88,89,56,0,5,1,44,38,6,8,0.8,0.7
2023-02-18T08:00:00,2278A,117.0067,32.6524,淮南市,师范学院,细颗粒物(PM2.5),127,153,120,96,78,69,0,10,4,51,43,14,13,1.2,0.8
2023-02-18T08:00:00,2279A,116.8569,32.5951,淮南市,谢家集区政府,细颗粒物(PM2.5),114,119,108,86,80,70,3,18,6,52,45,14,15,0.9,0.7
2023-02-18T08:00:00,2280A,116.8281,32.633,淮南市,八公山区政府,细颗粒物(PM2.5),140,116,109,107,91,68,0,26,10,39,31,9,11,0.9,0.7
2023-02-18T08:00:00,2281A,116.6325,32.6201,淮南市,焦岗湖风景区管理处,细颗粒物(PM2.5),114,106,104,86,79,66,,2,1,50,42,6,6,0.9,0.8
2023-02-18T08:00:00,2282A,116.8004,33.975,淮北市,监测站,细颗粒物(PM2.5),139,149,100,106,74,103,5,35,20,45,30,6,7,1.1,0.8
2023-02-18T08:00:00,2283A,116.8091,33.9007,淮北市,烈山区政府,细颗粒物(PM2.5),137,128,97,104,74,106,5,25,15,53,42,5,7,0.8,0.7
2023-02-18T08:00:00,2284A,116.7856,33.9477,淮北市,职业技术学院,细颗粒物(PM2.5),144,143,104,110,79,104,6,34,19,48,36,6,8,1.0,0.8
2023-02-18T08:00:00,2285A,117.8177,30.9412,铜陵市,市第四中学,细颗粒物(PM2.5),80,81,90,59,59,52,6,5,5,42,61,6,9,1.1,0.9
2023-02-18T08:00:00,2286A,117.8059,30.9273,铜陵市,市公路局,细颗粒物(PM2.5),109,91,86,82,64,54,3,3,3,45,53,8,8,1.6,1.2
2023-02-18T08:00:00,2287A,117.7807,30.9413,铜陵市,市新民污水厂,颗粒物(PM10),72,93,102,48,52,41,4,3,3,54,61,8,11,0.8,1.1
2023-02-18T08:00:00,2288A,117.7439,30.8792,铜陵市,市第九中学,颗粒物(PM10),80,109,127,55,64,42,4,4,4,63,68,12,12,1.0,1
2023-02-18T08:00:00,2289A,117.846,30.9413,铜陵市,车站新区,颗粒物(PM10),69,88,91,40,52,36,5,5,5,44,56,10,12,0.9,0.9
2023-02-18T08:00:00,2290A,117.8483,30.97,铜陵市,市职教基地,颗粒物(PM10),65,80,85,45,50,29,5,6,5,35,43,5,6,0.4,0.5
2023-02-18T08:00:00,2291A,117.0809,30.5177,安庆市,环科院,细颗粒物(PM2.5),98,97,97,73,74,58,3,1,1,62,64,10,11,1.1,0.8
2023-02-18T08:00:00,2292A,117.0331,30.5119,安庆市,马山宾馆,细颗粒物(PM2.5),87,100,100,64,67,72,5,3,3,62,63,12,11,1.0,0.8
2023-02-18T08:00:00,2294A,116.9896,30.6145,安庆市,安庆大学,细颗粒物(PM2.5),77,88,98,56,59,77,2,1,1,62,61,8,10,0.8,0.8
2023-02-18T08:00:00,2295A,118.2903,29.6963,黄山市,延安路89号,,,30,43,,5,102,4,14,8,11,20,6,6,0.4,0.5
2023-02-18T08:00:00,2296A,118.327,29.7178,黄山市,黄山东路89号,,42,39,51,29,34,100,2,12,4,13,25,5,6,0.7,0.7
2023-02-18T08:00:00,2297A,118.1371,30.2756,黄山市,黄山区政府5号楼,细颗粒物(PM2.5),58,48,55,41,35,83,7,26,14,16,20,6,7,0.7,0.6
2023-02-18T08:00:00,2298A,118.3093,32.3153,滁州市,老年大学,细颗粒物(PM2.5),128,123,105,97,83,52,4,4,4,68,68,8,8,1.1,1
2023-02-18T08:00:00,2299A,118.3244,32.2786,滁州市,人大宾馆,细颗粒物(PM2.5),129,130,115,98,80,51,4,4,4,82,78,8,9,1.1,0.9
2023-02-18T08:00:00,2301A,115.8277,32.8929,阜阳市,市监测站,细颗粒物(PM2.5),143,133,111,109,91,76,3,25,11,46,36,7,7,1.0,0.7
2023-02-18T08:00:00,2303A,115.8554,32.8605,阜阳市,开发区,细颗粒物(PM2.5),137,172,139,104,87,78,3,22,8,44,38,8,9,1.0,0.8
2023-02-18T08:00:00,2307A,116.5079,31.737,六安市,监测大楼,细颗粒物(PM2.5),119,118,95,90,78,84,5,22,15,46,34,6,6,0.8,0.6
2023-02-18T08:00:00,2308A,116.4738,31.7643,六安市,皖西学院,细颗粒物(PM2.5),93,122,106,69,70,79,4,14,7,48,40,4,5,0.7,0.6
2023-02-18T08:00:00,2309A,116.4996,31.7905,六安市,朝阳厂,细颗粒物(PM2.5),109,101,91,82,76,79,16,12,12,52,43,6,7,1.0,0.8
2023-02-18T08:00:00,2310A,116.5567,31.7886,六安市,开发区,细颗粒物(PM2.5),103,133,113,77,72,89,2,23,12,44,29,8,8,0.8,0.6
2023-02-18T08:00:00,2311A,115.8072,33.8399,亳州市,污水处理厂,细颗粒物(PM2.5),120,115,82,91,64,95,6,28,14,35,23,8,8,0.9,0.7
2023-02-18T08:00:00,2312A,115.7789,33.8518,亳州市,三国揽胜宫,细颗粒物(PM2.5),107,142,99,80,57,107,3,33,17,38,26,8,7,0.8,0.5
2023-02-18T08:00:00,2314A,117.47,30.6618,池州市,池州学院,细颗粒物(PM2.5),74,90,95,54,66,65,3,11,3,39,43,6,9,1.2,1
2023-02-18T08:00:00,2316A,118.7581,30.9454,宣城市,鳌峰子站,细颗粒物(PM2.5),127,122,106,96,77,57,15,26,19,62,46,7,8,0.9,0.7
2023-02-18T08:00:00,2317A,118.7385,30.9743,宣城市,敬亭山子站,细颗粒物(PM2.5),100,107,102,75,74,59,20,59,23,44,45,12,10,0.7,0.6
2023-02-18T08:00:00,2318A,118.7173,30.9427,宣城市,开发区子站,细颗粒物(PM2.5),123,124,104,93,75,52,19,27,18,66,50,8,6,0.8,0.7
2023-02-18T08:00:00,2319A,119.0141,25.4325,莆田市,荔城区仓后路,,43,40,49,30,28,111,24,30,23,22,21,8,8,0.8,0.7
2023-02-18T08:00:00,2320A,119.0015,25.4553,莆田市,莆田市监测站,,39,31,38,27,22,114,22,38,25,12,17,6,7,0.6,0.6
2023-02-18T08:00:00,2321A,119.1119,25.4561,莆田市,涵江区六中,细颗粒物(PM2.5),59,58,53,42,32,108,6,14,7,38,32,7,7,1.2,0.9
2023-02-18T08:00:00,2322A,119.1013,25.3215,莆田市,秀屿区政府,细颗粒物(PM2.5),55,39,44,39,29,106,20,41,27,31,24,6,6,0.7,0.6
2023-02-18T08:00:00,2323A,118.981,25.4792,莆田市,东圳水库,,,,,,,,,,,,,,,,
2023-02-18T08:00:00,2324A,117.6211,26.2625,三明市,三钢,,48,36,42,33,27,115,8,12,12,35,34,7,10,1.3,1.1
2023-02-18T08:00:00,2325A,117.635,26.2714,三明市,三明二中,,32,28,41,22,24,111,9,16,14,36,35,4,7,0.7,0.8
2023-02-18T08:00:00,2326A,117.6028,26.2378,三明市,三元区政府,细颗粒物(PM2.5),58,59,65,41,32,105,5,13,8,32,41,3,10,1.3,1.3
2023-02-18T08:00:00,2327A,117.7275,26.3108,三明市,洋溪,,,,,,,,,,,,,,,,
2023-02-18T08:00:00,2331A,118.0966,26.6761,南平市,茫荡山,,,,,,,,,,,,,,,,
2023-02-18T08:00:00,2332A,118.1681,26.6369,南平市,南平市监测站,,34,34,36,19,27,103,12,22,17,21,22,4,4,0.6,0.7
2023-02-18T08:00:00,2333A,118.1825,26.6489,南平市,南平铝业有限公司,,36,34,36,25,23,93,6,8,6,27,28,11,10,0.6,0.6
2023-02-18T08:00:00,2334A,118.1756,26.6272,南平市,南平七中,,32,32,38,22,24,107,11,21,17,19,24,4,4,0.6,0.7
2023-02-18T08:00:00,2335A,117.0189,25.1181,龙岩市,龙岩师专,,,,,,,,,,,,,,,,
2023-02-18T08:00:00,2336A,117.0217,25.1033,龙岩市,龙岩市监测站,细颗粒物(PM2.5),77,66,55,56,34,144,16,35,19,42,37,9,8,1.0,0.8
2023-02-18T08:00:00,2337A,117.0258,25.0661,龙岩市,闽西职业技术学院,颗粒物(PM10),57,64,57,29,26,137,9,36,20,42,34,24,21,0.6,0.6
2023-02-18T08:00:00,2338A,117.0196,25.0306,龙岩市,龙岩学院,,48,48,42,31,23,130,21,60,42,28,19,9,6,0.5,0.5
2023-02-18T08:00:00,2339A,119.5001,26.6946,宁德市,金涵水库,,,,,,,,,,,,,,,,
2023-02-18T08:00:00,2341A,119.5388,26.6612,宁德市,宁德市监测站,细颗粒物(PM2.5),53,26,46,37,30,83,7,25,17,26,26,3,5,0.9,0.8
2023-02-18T08:00:00,2342A,117.3102,29.3867,景德镇市,王港中学,,33,32,43,23,26,56,0,0,0,8,10,4,4,0.5,0.4
2023-02-18T08:00:00,2343A,117.2117,29.2933,景德镇市,老干部活动中心,颗粒物(PM10),59,67,92,36,36,74,5,3,3,27,32,7,11,0.7,0.7
2023-02-18T08:00:00,2344A,117.1894,29.2789,景德镇市,兽医站,细颗粒物(PM2.5),59,43,64,42,39,94,5,8,5,25,37,7,12,0.7,0.8
2023-02-18T08:00:00,2345A,117.1547,29.2617,景德镇市,台达陶瓷,,34,34,66,17,37,86,5,34,13,32,43,10,30,0.9,1
2023-02-18T08:00:00,2346A,117.2461,29.2956,景德镇市,陶研所,,50,50,64,30,27,83,5,3,3,17,28,3,7,0.7,0.8
2023-02-18T08:00:00,2347A,114.0997,27.5002,萍乡市,武功山,,30,20,30,21,27,76,4,19,10,9,13,15,13,0.7,0.8
2023-02-18T08:00:00,2348A,113.8385,27.6434,萍乡市,中医院,,,112,109,,65,74,12,24,21,36,37,135,53,1.1,1.4
2023-02-18T08:00:00,2349A,113.8493,27.6253,萍乡市,市政府车库,细颗粒物(PM2.5),83,87,102,61,63,78,1,2,1,29,37,27,28,2.7,2.2
2023-02-18T08:00:00,2350A,113.8676,27.6435,萍乡市,市环保局,细颗粒物(PM2.5),90,99,87,67,56,74,12,33,20,41,39,163,70,1.0,1
2023-02-18T08:00:00,2351A,113.866,27.6198,萍乡市,安源区政府,细颗粒物(PM2.5),75,88,91,55,56,78,3,34,16,40,39,26,26,1.6,1.3
2023-02-18T08:00:00,2352A,115.0861,27.9317,新余市,北岗,细颗粒物(PM2.5),80,76,52,59,41,87,12,29,14,46,31,53,27,0.9,0.7
2023-02-18T08:00:00,2353A,114.9886,27.8431,新余市,飞宇,颗粒物(PM10),72,94,72,47,38,77,3,43,14,48,26,28,26,0.4,0.3
2023-02-18T08:00:00,2354A,114.9231,27.8246,新余市,第二水厂,细颗粒物(PM2.5),75,89,92,55,54,72,2,27,14,41,40,22,24,1.0,1
2023-02-18T08:00:00,2355A,114.9308,27.8036,新余市,市气象局,细颗粒物(PM2.5),75,88,96,55,51,94,6,35,21,28,32,17,17,1.5,0.8
2023-02-18T08:00:00,2357A,116.9822,28.1136,鹰潭市,龙虎山,,32,32,37,20,29,104,8,39,17,2,2,2,5,0.5,0.7
2023-02-18T08:00:00,2358A,117.0564,28.2642,鹰潭市,新监测站,细颗粒物(PM2.5),67,69,61,48,38,111,0,36,13,38,34,57,30,0.8,0.7
2023-02-18T08:00:00,2359A,117.0311,28.2475,鹰潭市,财苑宾馆,颗粒物(PM10),59,68,65,40,37,124,0,66,36,40,36,44,29,0.7,0.8
2023-02-18T08:00:00,2360A,117.0222,28.2264,鹰潭市,体育馆,"颗粒物(PM10),细颗粒物(PM2.5)",59,68,50,42,32,104,76,32,30,29,25,46,17,0.8,0.3
2023-02-18T08:00:00,2361A,117.0017,28.2131,鹰潭市,三川水表,颗粒物(PM10),52,53,60,31,34,97,18,30,20,17,28,9,7,0.8,0.5
2023-02-18T08:00:00,2362A,114.9017,25.9149,赣州市,通天岩,,38,36,57,26,31,148,20,42,29,5,15,5,9,1.0,1
2023-02-18T08:00:00,2363A,114.9367,25.8664,赣州市,地委,颗粒物(PM10),55,60,77,38,33,130,8,6,6,28,41,9,15,1.0,1.1
2023-02-18T08:00:00,2364A,114.9461,25.8481,赣州市,气象台,,45,42,69,31,39,120,10,6,6,31,43,26,12,0.9,1.1
2023-02-18T08:00:00,2365A,114.9322,25.8333,赣州市,市图书馆,,47,47,77,30,37,122,5,3,2,38,51,14,9,1.1,1.4
2023-02-18T08:00:00,2366A,114.8905,25.8471,赣州市,华坚鞋城,颗粒物(PM10),58,66,103,39,47,106,0,8,1,30,43,7,10,1.1,1.2
2023-02-18T08:00:00,2367A,114.9754,27.0803,吉安市,红声器材厂,颗粒物(PM10),55,59,67,33,37,101,11,6,6,35,38,5,9,0.9,0.7
2023-02-18T08:00:00,2368A,114.9658,27.0999,吉安市,市森林工业局,细颗粒物(PM2.5),57,55,68,40,43,104,17,12,12,28,43,6,9,0.6,0.7
2023-02-18T08:00:00,2369A,114.99,27.1312,吉安市,市环境监测站,颗粒物(PM10),52,53,62,34,37,105,13,14,14,33,35,7,15,0.7,0.7
2023-02-18T08:00:00,2370A,115.0093,27.0968,吉安市,青原区法院,细颗粒物(PM2.5),58,58,64,41,40,107,4,8,7,38,38,10,13,0.6,0.6
2023-02-18T08:00:00,2371A,114.3408,27.8064,宜春市,槟榔水业,颗粒物(PM10),55,59,64,38,38,73,9,7,6,18,23,12,14,0.7,0.7
2023-02-18T08:00:00,2373A,114.3956,27.7844,宜春市,市石油公司,细颗粒物(PM2.5),55,55,74,39,45,98,0,39,18,20,29,2,7,0.8,0.8
2023-02-18T08:00:00,2374A,114.3703,27.7914,宜春市,市气象局,细颗粒物(PM2.5),57,57,73,40,43,93,9,18,16,26,34,5,12,0.6,0.8
2023-02-18T08:00:00,2375A,114.4013,27.8074,宜春市,市广电局,细颗粒物(PM2.5),63,66,71,45,48,101,9,63,36,30,31,9,15,1.2,1
2023-02-18T08:00:00,2376A,116.2127,28.0814,抚州市,桐源党溪,细颗粒物(PM2.5),63,56,53,45,36,94,6,26,21,4,3,1,30,1.0,0.8
2023-02-18T08:00:00,2377A,116.3544,27.9831,抚州市,市站,细颗粒物(PM2.5),74,75,60,54,41,92,8,42,14,39,29,8,6,0.9,0.7
2023-02-18T08:00:00,2378A,116.3565,27.963,抚州市,血防站,细颗粒物(PM2.5),65,71,62,47,39,89,5,28,10,34,31,11,9,1.0,0.8
2023-02-18T08:00:00,2379A,116.3564,28.0007,抚州市,采茶剧团,细颗粒物(PM2.5),64,68,59,46,40,89,9,53,16,36,27,6,6,1.0,0.9
2023-02-18T08:00:00,2380A,116.385,27.9647,抚州市,医学分院,颗粒物(PM10),57,64,58,34,33,88,8,27,7,34,28,19,9,1.1,0.9
2023-02-18T08:00:00,2381A,118.005,28.4572,上饶市,百草园,,,,,,,,,,,,,,,,
