timepoint,stationcode,longitude,latitude,area,positionname,primarypollutant,aqi,pm10,pm10_24h,pm2_5,pm2_5_24h,o3,o3_24h,o3_8h,o3_8h_24h,no2,no2_24h,so2,so2_24h,co,co_24h
2022-08-27T17:00:00,1001A,116.3621,39.8784,北京市,万寿西宫,,29,16,14,5,4,90,90,69,69,12,18,3,3,0.2,0.1
2022-08-27T17:00:00,1002A,116.2202,40.2915,北京市,定陵(对照点),,24,15,11,5,3,83,76,67,67,7,6,1,2,0.2,0.2
2022-08-27T17:00:00,1003A,116.4174,39.9289,北京市,东四,,28,20,18,5,5,89,89,70,70,14,20,7,3,0.1,0.2
2022-08-27T17:00:00,1004A,116.4072,39.8863,北京市,天坛,,26,20,17,6,5,90,83,67,67,15,19,3,3,0.2,0.2
2022-08-27T17:00:00,1005A,116.462,39.9365,北京市,农展馆,,24,17,15,4,4,76,76,58,58,14,20,1,2,0.2,0.2
2022-08-27T17:00:00,1006A,116.3392,39.9295,北京市,官园,,26,14,16,3,4,86,81,61,61,8,18,4,3,0.2,0.2
2022-08-27T17:00:00,1007A,116.2878,39.9611,北京市,海淀万柳,,26,16,18,4,4,83,83,60,60,15,25,3,2,0.2,0.1
2022-08-27T17:00:00,1008A,116.6636,40.135,北京市,顺义新城,,23,18,18,4,4,71,71,58,58,11,17,3,3,0.1,0.1
2022-08-27T17:00:00,1009A,116.6275,40.3275,北京市,怀柔镇,,24,13,12,3,3,75,74,58,58,10,9,3,3,0.2,0.2
2022-08-27T17:00:00,1010A,116.2296,40.217,北京市,昌平镇,,23,15,12,3,3,71,71,58,58,11,10,1,2,0.2,0.2
2022-08-27T17:00:00,1011A,116.3966,39.9821,北京市,奥体中心,,22,19,15,4,4,69,69,53,53,18,24,3,3,0.1,0.1
2022-08-27T17:00:00,1012A,116.184,39.9136,北京市,古城,,35,35,17,6,4,94,94,69,69,10,13,3,3,0.1,0.1
2022-08-27T17:00:00,1015A,117.1444,39.1661,天津市,勤俭道,,31,10,18,2,5,97,97,74,74,13,28,3,4,0.3,0.4
2022-08-27T17:00:00,1017A,117.237,39.1082,天津市,大直沽八号路,,32,12,16,2,4,102,102,71,71,12,27,5,5,0.2,0.3
2022-08-27T17:00:00,1018A,117.202,39.0927,天津市,前进道,,32,13,14,3,3,101,101,76,76,12,21,6,6,0.3,0.4
2022-08-27T17:00:00,1019A,117.1837,39.2133,天津市,淮河道,,,,,,,,,,,,,,,,
2022-08-27T17:00:00,1021A,117.307,39.0877,天津市,跃进路,,33,17,23,2,5,104,104,69,69,16,30,5,6,0.2,0.3
2022-08-27T17:00:00,1023A,117.707,39.0343,天津市,第四大街,,22,14,18,3,5,72,68,55,55,24,37,6,7,0.4,0.4
2022-08-27T17:00:00,1024A,117.457,38.8394,天津市,永明路,,27,14,20,3,7,84,84,64,64,21,37,6,7,0.4,0.5
2022-08-27T17:00:00,1026A,117.764,39.1587,天津市,汉北路,,27,9,22,2,5,86,86,63,63,8,28,6,9,0.3,0.4
2022-08-27T17:00:00,1027A,117.157,38.9194,天津市,团泊洼(对照点),,32,8,13,2,4,100,100,74,74,6,27,5,5,0.4,0.6
2022-08-27T17:00:00,1029A,114.4422,38.0444,石家庄市,职工医院,,26,25,30,14,17,114,83,70,70,9,22,3,3,0.1,0.1
2022-08-27T17:00:00,1030A,114.6063,38.0266,石家庄市,高新区,,,37,44,11,21,113,90,76,76,,25,3,4,0.2,0.2
2022-08-27T17:00:00,1031A,114.4898,38.1328,石家庄市,西北水源,,32,32,48,14,9,120,74,74,74,17,23,2,2,0.3,0.3
2022-08-27T17:00:00,1032A,114.4586,38.0058,石家庄市,西南高教,,34,34,38,15,15,109,79,65,65,20,33,1,2,0.2,0.2
2022-08-27T17:00:00,1033A,114.5331,38.0178,石家庄市,世纪公园,,35,35,40,12,16,106,85,72,72,10,20,5,6,0.2,0.2
2022-08-27T17:00:00,1034A,114.509,38.0457,石家庄市,人民会堂,,,26,37,11,18,116,89,79,79,,20,6,6,0.4,0.5
2022-08-27T17:00:00,1035A,114.3524,37.8911,石家庄市,封龙山(对照点),,30,20,28,21,17,110,85,67,64,6,9,14,11,0.4,0.3
2022-08-27T17:00:00,1037A,118.131,39.6363,唐山市,雷达站,,22,16,42,0,10,74,70,62,62,11,30,2,3,0.2,0.4
2022-08-27T17:00:00,1038A,118.1725,39.6334,唐山市,物资局,,23,14,31,3,15,72,71,65,65,7,25,3,5,0.4,0.5
2022-08-27T17:00:00,1040A,118.1705,39.6506,唐山市,十二中,,22,13,29,4,12,69,68,59,59,4,28,1,3,0.1,0.3
2022-08-27T17:00:00,1041A,118.1869,39.622,唐山市,小山,,22,9,25,1,4,73,70,62,62,12,27,2,4,0.2,0.3
2022-08-27T17:00:00,1042A,119.5134,39.8207,秦皇岛市,北戴河环保局,,,3,18,6,10,88,82,72,72,,24,4,5,0.3,0.2
2022-08-27T17:00:00,1043A,119.7493,40.0116,秦皇岛市,第一关,,26,12,23,2,2,85,81,67,67,2,26,4,5,0.2,0.3
2022-08-27T17:00:00,1044A,119.5897,39.9499,秦皇岛市,监测站,,22,20,28,4,10,76,70,60,60,8,19,1,2,0.6,0.5
2022-08-27T17:00:00,1046A,119.5251,39.9041,秦皇岛市,建设大厦,,26,15,36,10,10,88,83,69,69,2,19,2,4,0.3,0.3
2022-08-27T17:00:00,1047A,114.5129,36.61763,邯郸市,环保局,,,,,,,,,,,,,,,,
2022-08-27T17:00:00,1048A,114.5302,36.6116,邯郸市,东污水处理厂,,34,22,35,2,10,153,108,83,83,11,14,4,4,0.6,0.7
2022-08-27T17:00:00,1049A,114.4918,36.5713,邯郸市,矿院,,33,32,38,3,5,143,103,78,78,17,17,7,8,0.2,0.4
2022-08-27T17:00:00,1050A,114.484,36.6133,邯郸市,丛台公园,,33,15,26,5,9,164,105,80,80,11,14,8,8,0.2,0.3
2022-08-27T17:00:00,1051A,115.493,38.8632,保定市,游泳馆,,27,16,27,1,2,87,84,75,75,13,20,3,3,0.1,0.1
2022-08-27T17:00:00,1052A,115.5213,38.8959,保定市,华电二区,,25,25,38,16,14,82,79,69,69,8,25,4,4,0.3,0.3
2022-08-27T17:00:00,1053A,115.4713,38.9108,保定市,接待中心,,29,29,42,14,13,84,79,71,71,14,30,5,6,0.3,0.3
2022-08-27T17:00:00,1054A,115.4612,38.8416,保定市,地表水厂,,24,24,53,6,14,88,60,66,66,26,29,4,5,0,0
2022-08-27T17:00:00,1055A,115.4323,38.8697,保定市,胶片厂,,30,30,42,0,4,85,66,70,70,20,28,6,6,0.3,0.3
2022-08-27T17:00:00,1056A,115.5086,38.8639,保定市,监测站,,36,36,37,7,10,89,86,76,76,7,15,3,2,0.1,0.1
2022-08-27T17:00:00,1057A,114.8883,40.8336,张家口市,人民公园,,29,2,11,1,2,93,92,73,73,12,9,6,5,0.2,0.2
2022-08-27T17:00:00,1059A,114.8687,40.8042,张家口市,五金库,,27,12,10,2,3,88,86,66,66,13,10,8,8,0.3,0.2
2022-08-27T17:00:00,1060A,114.8902,40.762,张家口市,世纪豪园,,28,10,14,3,3,91,87,70,70,9,12,4,4,0,0
2022-08-27T17:00:00,1061A,114.8916,40.8661,张家口市,北泵房(对照点),,,18,15,11,7,94,93,74,74,7,6,6,6,,
2022-08-27T17:00:00,1062A,117.9531,40.9081,承德市,铁路,,24,17,14,8,10,76,76,54,54,10,14,21,6,0.5,0.2
2022-08-27T17:00:00,1063A,117.9392,40.9763,承德市,中国银行,,23,9,6,2,5,76,71,58,58,6,11,19,9,0.6,0.3
2022-08-27T17:00:00,1064A,117.9503,40.928,承德市,开发区,,25,20,23,5,11,80,80,60,60,5,14,16,4,0.4,0.2
2022-08-27T17:00:00,1065A,117.8051,40.9655,承德市,文化中心,,23,5,23,1,8,73,73,59,59,2,18,8,10,0.2,0.2
2022-08-27T17:00:00,1066A,117.9268,41.0026,承德市,离宫(对照点),,20,12,14,5,9,69,63,50,50,1,10,7,4,0.3,0.2
2022-08-27T17:00:00,1067A,116.6708,39.5111,廊坊市,药材公司,,27,12,19,4,7,86,86,65,65,12,31,7,7,0.2,0.3
2022-08-27T17:00:00,1068A,116.7214,39.5589,廊坊市,开发区,,30,9,20,5,7,93,93,68,68,8,28,4,4,0.2,0.2
2022-08-27T17:00:00,1070A,116.7244,39.5269,廊坊市,北华航天学院,,30,9,29,6,8,94,94,69,69,7,28,5,5,0.2,0.2
2022-08-27T17:00:00,1071A,116.8842,38.2991,沧州市,沧县城建局,,32,32,44,7,12,90,84,72,72,20,31,4,6,0,0
2022-08-27T17:00:00,1072A,116.8584,38.3254,沧州市,电视转播站,,29,18,29,0,4,91,91,76,76,14,27,4,8,0.2,0.2
2022-08-27T17:00:00,1073A,116.8709,38.3228,沧州市,市环保局,,29,21,39,11,14,91,91,75,75,10,32,6,6,0,0
2022-08-27T17:00:00,1074A,115.6838,37.7541,衡水市,电机北厂,,29,19,32,2,5,146,91,86,86,13,25,4,10,0.5,0.4
2022-08-27T17:00:00,1075A,115.6303,37.7316,衡水市,市监测站,,38,38,31,6,7,133,89,81,81,13,23,8,9,0.4,0.4
2022-08-27T17:00:00,1077A,114.4704,37.0886,邢台市,达活泉,,37,37,40,9,12,154,107,78,78,14,15,5,4,0.4,0.3
2022-08-27T17:00:00,1078A,114.5062,37.0349,邢台市,邢师高专,,48,48,34,7,8,149,102,78,78,18,17,6,6,0.5,0.4
2022-08-27T17:00:00,1079A,114.5237,37.0851,邢台市,路桥公司,,35,35,31,8,9,148,106,81,81,11,15,8,8,0.4,0.4
2022-08-27T17:00:00,1080A,114.4725,37.0719,邢台市,市环保局,,33,22,26,5,9,150,103,76,76,17,17,8,7,0.5,0.4
2022-08-27T17:00:00,1081A,112.5139,37.8873,太原市,尖草坪,,34,34,28,10,9,86,43,54,54,30,26,8,9,0.2,0.5
2022-08-27T17:00:00,1083A,112.434,38.0108,太原市,上兰(对照点),,,,,,,,,,,,,,,,
2022-08-27T17:00:00,1084A,112.469,37.7124,太原市,晋源,,27,27,26,12,14,73,39,57,51,26,27,6,7,0.4,0.5
2022-08-27T17:00:00,1085A,112.5583,37.7394,太原市,小店,,22,22,22,7,8,84,43,57,52,33,32,11,11,0.3,0.3
2022-08-27T17:00:00,1086A,112.5369,37.8692,太原市,桃园,,33,33,27,10,8,81,45,57,57,34,30,8,10,0.5,0.6
2022-08-27T17:00:00,1087A,112.57,37.8195,太原市,坞城,,26,26,20,8,5,76,47,58,55,27,23,6,6,0.3,0.4
2022-08-27T17:00:00,1088A,112.549,37.9854,太原市,南寨,,37,37,36,10,8,80,29,54,45,41,32,6,5,0.5,0.4
2022-08-27T17:00:00,1089A,112.4701,37.782,太原市,金胜,,,,,,,,,,,,,,,,
2022-08-27T17:00:00,1090A,111.6507,40.7517,呼和浩特市,呼市一监,,,,14,3,4,81,65,66,66,8,22,3,5,0.3,0.4
2022-08-27T17:00:00,1091A,111.6572,40.8033,呼和浩特市,小召,,,,11,5,4,79,68,67,67,19,25,4,2,0.3,0.3
2022-08-27T17:00:00,1094A,111.7516,40.8369,呼和浩特市,如意水处理厂,,25,16,19,3,4,83,80,69,69,10,24,2,3,0.4,0.4
2022-08-27T17:00:00,1095A,111.7276,40.8062,呼和浩特市,二十九中,,25,18,18,5,5,84,78,68,68,14,21,3,3,0.3,0.3
2022-08-27T17:00:00,1096A,111.5512,40.7866,呼和浩特市,工大金川校区,,29,29,19,11,4,75,72,63,63,19,24,10,5,0.5,0.4
2022-08-27T17:00:00,1097A,111.717,40.7612,呼和浩特市,化肥厂生活区,,30,30,19,7,4,79,65,66,66,29,20,6,6,0.4,0.4
2022-08-27T17:00:00,1098A,123.6836,41.9339,沈阳市,森林路(对照点),,,,,,,,,,,,,,,,
2022-08-27T17:00:00,1099A,123.505,41.7406,沈阳市,浑南东路,,20,12,18,10,9,68,64,57,57,7,18,11,12,0.4,0.4
2022-08-27T17:00:00,1100A,123.4231,41.6989,沈阳市,新秀街,,20,14,19,6,8,70,62,58,58,12,27,10,12,0.5,0.6
2022-08-27T17:00:00,1102A,123.5903,41.8411,沈阳市,东陵路,,19,13,16,5,6,64,58,51,51,9,20,8,8,0.3,0.3
2022-08-27T17:00:00,1103A,123.4264,41.8467,沈阳市,陵东街,,21,8,12,3,3,70,67,58,58,4,11,6,6,0.5,0.5
2022-08-27T17:00:00,1104A,123.4114,41.7653,沈阳市,文化路,,21,11,17,7,7,70,65,59,59,5,18,6,11,0.3,0.4
2022-08-27T17:00:00,1105A,123.4678,41.7867,沈阳市,小河沿,,20,16,14,4,5,67,64,56,56,8,16,6,6,0.3,0.4
2022-08-27T17:00:00,1106A,123.4017,41.7972,沈阳市,太原街,,18,12,21,7,8,65,55,54,54,16,22,4,4,0.4,0.4
2022-08-27T17:00:00,1108A,123.3783,41.9228,沈阳市,京沈街,,21,10,15,5,5,70,66,59,59,5,13,9,9,0.3,0.3
2022-08-27T17:00:00,1109A,121.612,38.9741,大连市,甘井子,,21,8,11,5,7,70,67,63,63,8,13,4,5,0.3,0.3
2022-08-27T17:00:00,1110A,121.565,38.9511,大连市,周水子,,21,14,17,4,7,71,65,63,63,14,19,4,4,0.6,0.4
2022-08-27T17:00:00,1111A,121.5637,38.8845,大连市,星海三站,,28,11,16,4,3,94,87,83,83,17,24,9,8,0.4,0.4
2022-08-27T17:00:00,1112A,121.6302,38.9117,大连市,青泥洼桥,,20,10,11,3,2,70,62,62,62,24,29,9,10,0.2,0.3
2022-08-27T17:00:00,1113A,121.6251,38.8638,大连市,傅家庄,,21,14,18,3,6,70,66,64,64,8,12,6,3,0.3,0.3
2022-08-27T17:00:00,1114A,121.5213,38.8661,大连市,七贤岭,,31,12,13,4,4,99,99,87,87,5,9,5,5,0.4,0.5
2022-08-27T17:00:00,1115A,121.2529,38.8061,大连市,旅顺,,26,12,15,6,7,83,83,68,68,7,9,7,6,0.7,0.6
2022-08-27T17:00:00,1116A,121.7485,39.1311,大连市,金州,,21,20,11,5,7,72,66,65,65,17,15,4,7,0.2,0.3
2022-08-27T17:00:00,1117A,121.7811,39.0496,大连市,开发区,,25,13,19,3,5,90,77,72,72,18,23,4,9,0.5,0.6
2022-08-27T17:00:00,1118A,121.9762,39.0631,大连市,双D港,,22,8,7,6,4,74,69,67,67,6,8,6,6,0.1,0.2
2022-08-27T17:00:00,1119A,125.3325,43.9166,长春市,食品厂,,19,19,19,6,7,47,47,43,43,15,19,2,3,0.2,0.3
2022-08-27T17:00:00,1120A,125.2863,43.9027,长春市,客车厂,,26,26,21,5,6,50,48,44,44,16,18,4,4,0.2,0.3
2022-08-27T17:00:00,1121A,125.2841,43.8463,长春市,邮电学院,,18,8,15,4,5,57,57,50,50,5,19,4,4,0.3,0.3
2022-08-27T17:00:00,1122A,125.3716,43.8772,长春市,劳动公园,,17,14,16,7,5,54,54,49,49,8,18,3,3,0.3,0.3
2022-08-27T17:00:00,1123A,125.3297,43.8805,长春市,园林处,,17,12,16,6,6,53,53,49,49,11,19,4,4,0.2,0.3
2022-08-27T17:00:00,1124A,125.4605,43.79,长春市,净月潭,,25,25,16,4,4,59,59,52,52,8,15,4,4,0.2,0.3
2022-08-27T17:00:00,1125A,125.7194,43.515,长春市,甩湾子(对照点),,,,,,,,,,,,,,,,
2022-08-27T17:00:00,1126A,125.3863,43.8447,长春市,经开区环卫处,,,,15,,5,56,,49,49,,19,,5,,0.3
2022-08-27T17:00:00,1127A,125.245,43.7783,长春市,高新区管委会,,18,10,15,11,8,57,56,51,51,11,18,4,4,0.2,0.2
2022-08-27T17:00:00,1128A,125.1761,43.8325,长春市,岱山公园,,19,9,14,1,3,60,60,52,52,7,16,5,5,0.2,0.2
2022-08-27T17:00:00,1129A,126.5422,45.755,哈尔滨市,岭北(对照点),,19,11,18,5,7,60,60,55,55,4,9,6,7,0.2,0.3
2022-08-27T17:00:00,1130A,126.561,45.8167,哈尔滨市,松北商大,,17,8,13,8,4,59,54,51,51,9,13,6,6,0.2,0.2
2022-08-27T17:00:00,1131A,126.979,45.5419,哈尔滨市,阿城会宁,,27,27,14,4,9,54,52,44,44,12,11,10,11,0.3,0.4
2022-08-27T17:00:00,1132A,126.599,45.7222,哈尔滨市,南岗学府路,,16,5,10,5,6,50,50,44,44,4,11,4,4,0.2,0.2
2022-08-27T17:00:00,1133A,126.689,45.7733,哈尔滨市,太平宏伟公园,,18,13,16,8,7,58,57,51,51,7,14,8,9,0.5,0.4
2022-08-27T17:00:00,1134A,126.635,45.7667,哈尔滨市,道外承德广场,,17,13,19,2,6,57,54,50,50,11,17,5,5,0.3,0.4
2022-08-27T17:00:00,1135A,126.685,45.7319,哈尔滨市,香坊红旗大街,,18,18,17,7,5,51,50,45,45,6,15,8,9,0.3,0.4
2022-08-27T17:00:00,1136A,126.6411,45.7258,哈尔滨市,动力和平路,,18,14,17,12,8,58,54,51,51,11,18,8,8,0.5,0.5
2022-08-27T17:00:00,1137A,126.593,45.7478,哈尔滨市,道里建国路,,17,16,16,7,7,55,53,49,49,15,21,9,10,0.3,0.4
2022-08-27T17:00:00,1138A,126.615,45.61,哈尔滨市,平房东轻厂,,17,11,14,6,4,54,52,48,48,13,20,5,4,0.3,0.4
2022-08-27T17:00:00,1139A,126.595,45.9855,哈尔滨市,呼兰师专,,30,30,15,15,6,58,58,52,52,8,12,7,6,0.4,0.5
2022-08-27T17:00:00,1140A,126.6206,45.6842,哈尔滨市,省农科院,,19,5,15,7,6,58,58,52,52,3,15,11,12,0.3,0.5
2022-08-27T17:00:00,1141A,121.4,31.238,上海市,普陀,,32,22,27,8,16,129,100,108,108,20,28,5,4,0.5,0.6
2022-08-27T17:00:00,1142A,121.478,31.2036,上海市,十五厂,,30,28,25,14,19,119,94,100,100,19,26,3,3,0.5,0.5
2022-08-27T17:00:00,1143A,121.467,31.3008,上海市,虹口,,31,31,26,15,11,118,88,98,98,19,25,5,5,0.5,0.5
2022-08-27T17:00:00,1144A,121.412,31.1654,上海市,徐汇上师大,,29,25,30,11,15,108,91,95,95,9,15,3,3,0.8,0.8
2022-08-27T17:00:00,1145A,121.536,31.2659,上海市,杨浦四漂,,,,37,10,13,125,90,102,102,23,21,3,3,0.4,0.7
2022-08-27T17:00:00,1146A,120.978,31.0935,上海市,青浦淀山湖(对照点),,,,,,,,,,,,,,,,
2022-08-27T17:00:00,1147A,121.425,31.2261,上海市,静安监测站,,28,26,31,8,15,104,87,91,91,19,25,3,3,0.7,0.4
2022-08-27T17:00:00,1148A,121.703,31.1907,上海市,浦东川沙,,32,28,29,11,14,113,100,104,104,10,20,6,6,0.7,0.8
2022-08-27T17:00:00,1149A,121.533,31.2284,上海市,浦东新区监测站,,33,22,24,13,16,128,103,108,108,15,22,5,5,0.5,0.5
2022-08-27T17:00:00,1150A,121.577,31.2071,上海市,浦东张江,,29,8,15,14,16,102,92,92,92,14,21,4,4,0.6,0.7
2022-08-27T17:00:00,1151A,118.8086,32.1065,南京市,迈皋桥,,48,48,40,31,25,114,98,90,90,26,23,2,4,0.6,0.5
2022-08-27T17:00:00,1152A,118.7538,32.0551,南京市,草场门,细颗粒物(PM2.5),62,58,40,44,26,103,98,86,84,24,25,8,11,0.7,0.5
2022-08-27T17:00:00,1153A,118.7794,32.0745,南京市,山西路,细颗粒物(PM2.5),67,63,47,48,35,123,116,114,99,16,17,3,6,0.6,0.5
2022-08-27T17:00:00,1154A,118.7752,32.0023,南京市,中华门,颗粒物(PM10),54,58,42,34,22,116,108,100,100,16,19,4,6,0.5,0.4
2022-08-27T17:00:00,1155A,118.8109,32.0309,南京市,瑞金路,细颗粒物(PM2.5),62,61,39,44,29,124,118,106,106,11,14,5,6,0.7,0.6
2022-08-27T17:00:00,1156A,118.7997,32.0754,南京市,玄武湖,细颗粒物(PM2.5),87,53,39,64,40,114,109,95,95,18,18,4,5,0.8,0.8
2022-08-27T17:00:00,1157A,118.6414,32.0931,南京市,浦口,,,50,32,34,20,122,112,95,92,12,15,3,4,,0.5
2022-08-27T17:00:00,1158A,118.7356,31.9996,南京市,奥体中心,细颗粒物(PM2.5),62,68,46,44,32,122,120,104,104,18,22,3,5,0.7,0.6
2022-08-27T17:00:00,1159A,118.9125,32.1028,南京市,仙林大学城,细颗粒物(PM2.5),58,58,38,41,29,123,110,100,100,15,19,2,2,0.7,0.6
2022-08-27T17:00:00,1160A,120.561,31.2472,苏州市,上方山(对照点),,39,39,42,18,21,131,93,85,85,19,20,6,6,0.4,0.5
2022-08-27T17:00:00,1161A,120.628,31.2864,苏州市,南门,,,,,,,,,,,,,,,,
2022-08-27T17:00:00,1162A,120.591,31.3019,苏州市,彩香,,,23,26,19,16,133,100,89,89,11,16,6,6,,0.8
2022-08-27T17:00:00,1163A,120.596,31.3264,苏州市,轧钢厂,,29,27,32,11,11,122,91,82,82,17,19,3,4,0.7,0.7
2022-08-27T17:00:00,1164A,120.613,31.2703,苏州市,吴中区,一氧化碳,62,28,32,15,15,118,97,90,90,22,23,5,5,6.2,0.8
2022-08-27T17:00:00,1165A,120.543,31.2994,苏州市,苏州新区,,32,20,26,19,21,132,102,88,88,15,19,5,5,0.8,0.8
2022-08-27T17:00:00,1166A,120.669,31.3097,苏州市,苏州工业园区,,30,22,23,15,15,117,94,86,86,18,21,4,4,0.7,0.7
2022-08-27T17:00:00,1167A,120.641,31.3708,苏州市,相城区,,28,22,27,16,22,116,89,86,86,15,19,4,4,0.6,0.6
2022-08-27T17:00:00,1168A,120.9098,31.9663,南通市,狼山街道,,36,16,25,7,10,115,115,88,88,8,19,5,6,0.4,0.4
2022-08-27T17:00:00,1169A,120.86,32.0005,南通市,虹桥,,33,32,25,20,22,104,104,82,82,7,11,8,8,0.7,0.7
2022-08-27T17:00:00,1170A,120.87,32.02,南通市,城中,,34,27,24,12,18,107,107,82,82,9,16,7,8,0.3,0.3
2022-08-27T17:00:00,1171A,120.94,31.93,南通市,星湖花园,,34,27,24,12,12,106,106,84,84,8,16,4,4,0.7,0.7
2022-08-27T17:00:00,1172A,120.81,32.0417,南通市,紫琅学院,,35,28,29,7,11,109,109,78,78,10,21,4,4,0.6,0.6
2022-08-27T17:00:00,1173A,119.176,34.5885,连云港市,市环境监测站,,27,27,49,5,22,152,78,78,74,9,14,3,6,0.2,0.4
2022-08-27T17:00:00,1177A,117.179,34.2761,徐州市,黄河新村,,36,36,56,11,27,141,102,98,98,18,21,7,8,0.6,0.8
2022-08-27T17:00:00,1178A,117.1918,34.2384,徐州市,淮塔,,49,49,60,14,33,151,100,95,95,14,18,9,9,0.7,0.9
2022-08-27T17:00:00,1180A,117.256,34.2153,徐州市,新城区,颗粒物(PM10),51,51,63,9,30,141,90,91,91,19,23,8,8,0.4,0.7
2022-08-27T17:00:00,1181A,117.244,34.2911,徐州市,桃园路,颗粒物(PM10),51,51,69,5,22,149,98,99,99,18,23,6,7,0.6,0.8
2022-08-27T17:00:00,1182A,117.2933,34.2778,徐州市,农科院,,39,39,57,2,20,142,86,77,77,19,27,7,7,0.6,0.8
2022-08-27T17:00:00,1186A,119.389,32.3761,扬州市,邗江监测站,,39,39,45,20,25,117,91,98,98,12,14,4,5,0.7,0.8
2022-08-27T17:00:00,1188A,120.269,31.4867,无锡市,雪浪,,29,29,32,17,22,148,68,69,69,22,21,5,5,0.7,0.8
2022-08-27T17:00:00,1189A,120.275,31.6219,无锡市,黄巷,,26,23,38,14,23,127,81,68,68,23,33,6,7,0.6,0.8
2022-08-27T17:00:00,1190A,120.294,31.56,无锡市,曹张,,35,25,34,24,24,122,76,68,68,26,30,7,7,0.6,0.9
2022-08-27T17:00:00,1191A,120.242,31.5031,无锡市,漆塘,,25,19,32,7,20,156,78,75,75,17,22,7,7,0.6,0.8
2022-08-27T17:00:00,1192A,120.3489,31.5863,无锡市,东亭,,35,22,30,24,20,106,74,66,66,23,26,7,8,0.8,0.9
2022-08-27T17:00:00,1193A,120.354,31.5475,无锡市,旺庄,,,19,29,14,20,132,79,70,70,24,29,,7,0.7,0.9
2022-08-27T17:00:00,1194A,120.245,31.5631,无锡市,荣巷,,25,17,32,9,25,140,78,76,76,22,24,7,8,0.8,0.9
2022-08-27T17:00:00,1195A,120.299,31.6817,无锡市,堰桥,,,22,35,9,21,132,91,76,76,14,26,,7,0.9,0.8
2022-08-27T17:00:00,1196A,119.9633,31.762,常州市,市监测站,,28,15,45,19,27,99,82,73,73,20,29,3,3,0.6,0.7
2022-08-27T17:00:00,1200A,119.9468,31.7069,常州市,武进监测站,,33,18,37,23,28,119,94,80,80,18,25,6,6,0.9,0.8
2022-08-27T17:00:00,1201A,119.9255,31.9087,常州市,安家,,29,20,49,20,32,102,78,85,85,21,20,5,7,0.6,0.6
2022-08-27T17:00:00,1203A,119.6707,32.1875,镇江市,新区办事处,,41,41,37,20,28,113,92,91,91,19,24,7,10,0.5,0.5
2022-08-27T17:00:00,1204A,119.4974,32.1968,镇江市,职教中心,,38,35,40,26,27,111,89,87,87,18,18,3,4,0.7,0.5
2022-08-27T17:00:00,1205A,119.4303,32.1328,镇江市,丹徒区监测站,细颗粒物(PM2.5),54,41,39,38,36,128,96,98,98,17,16,2,4,0.9,0.8
2022-08-27T17:00:00,1206A,119.905,32.4878,泰州市,公园路,,41,41,46,22,32,107,82,81,81,9,13,5,13,0.6,0.7
2022-08-27T17:00:00,1207A,119.9189,32.4625,泰州市,莲花,,35,27,31,24,34,108,92,90,90,9,14,7,16,0.7,0.8
2022-08-27T17:00:00,1209A,119.888,32.4639,泰州市,留学生创业园,,30,25,45,12,35,121,96,98,98,8,13,4,14,0.6,0.7
2022-08-27T17:00:00,1210A,119.036,33.5981,淮安市,钵池山,,24,24,44,11,23,118,71,80,78,9,14,5,6,0.5,0.8
2022-08-27T17:00:00,1211A,119.007,33.575,淮安市,北京南路,,27,27,46,15,29,102,72,82,80,11,18,8,9,0.3,0.5
2022-08-27T17:00:00,1212A,118.989,33.6067,淮安市,市监测站,,25,24,49,4,23,111,77,85,83,8,19,6,6,0.6,0.8
2022-08-27T17:00:00,1213A,119.135,33.5039,淮安市,楚州区监测站,,22,22,48,2,24,93,65,77,74,9,19,5,5,0.4,0.6
2022-08-27T17:00:00,1214A,119.0186,33.6297,淮安市,淮阴区监测站,,31,31,51,9,26,105,68,80,76,15,17,6,10,0.4,0.7
2022-08-27T17:00:00,1215A,120.118,33.4022,盐城市,盐城电厂,,25,24,43,15,24,127,79,100,97,11,19,5,6,0.3,0.5
2022-08-27T17:00:00,1216A,120.156,33.3942,盐城市,市监测站,,25,21,36,11,23,120,78,95,93,10,11,4,6,0.1,0.2
2022-08-27T17:00:00,1218A,120.2144,33.38,盐城市,开发区管委会,,31,31,35,3,22,139,87,106,104,8,10,9,9,0.2,0.4
2022-08-27T17:00:00,1220A,118.293,33.9528,宿迁市,宿迁学院,,24,18,39,16,25,124,75,81,81,15,17,6,6,0.3,0.5
2022-08-27T17:00:00,1221A,118.2442,33.9592,宿迁市,宿迁中学,,22,18,37,5,19,122,68,74,74,10,14,4,6,0.5,0.7
2022-08-27T17:00:00,1223A,120.2072,30.2111,杭州市,滨江,,40,28,25,28,17,125,95,80,80,24,20,6,5,0.6,0.6
2022-08-27T17:00:00,1224A,120.0633,30.2747,杭州市,西溪,,26,26,29,15,13,69,68,58,58,18,16,8,8,0.8,0.7
2022-08-27T17:00:00,1225A,119.026,29.635,杭州市,千岛湖(对照点),,,,,,,,,,,,,,,,
2022-08-27T17:00:00,1226A,120.3461,30.3153,杭州市,下沙,,34,34,25,16,15,113,74,75,75,47,27,6,6,0.7,0.6
2022-08-27T17:00:00,1227A,120.1269,30.2456,杭州市,卧龙桥,,35,27,22,24,18,90,88,72,72,25,18,5,4,0.6,0.6
2022-08-27T17:00:00,1228A,120.1903,30.2692,杭州市,浙江农大,,30,25,23,16,16,131,93,74,74,24,19,4,4,0.4,0.4
2022-08-27T17:00:00,1229A,120.157,30.2897,杭州市,朝晖五区,,,,,,,,,,,,,,,,
2022-08-27T17:00:00,1230A,120.1197,30.3119,杭州市,和睦小学,,31,31,28,15,16,94,82,70,70,35,29,2,2,0.8,0.8
2022-08-27T17:00:00,1231A,120.3019,30.4183,杭州市,临平镇,,30,27,31,12,14,129,95,82,82,20,21,5,5,0.4,0.4
2022-08-27T17:00:00,1232A,120.2697,30.1819,杭州市,城厢镇,,34,34,26,16,15,116,90,81,81,25,20,7,6,0.6,0.7
2022-08-27T17:00:00,1233A,120.0883,30.1808,杭州市,云栖,,26,26,24,13,12,91,73,75,75,14,13,7,7,0.6,0.5
2022-08-27T17:00:00,1234A,121.8358,29.911,宁波市,区环保大楼,,27,17,18,11,12,110,85,80,80,26,26,6,6,0.7,0.7
2022-08-27T17:00:00,1235A,121.56,29.82,宁波市,万里学院,细颗粒物(PM2.5),52,30,15,36,12,87,67,83,58,44,22,5,6,1.0,0.8
2022-08-27T17:00:00,1236A,121.713,29.9572,宁波市,龙赛医院,,30,19,23,10,12,109,95,79,79,16,29,6,8,0.5,0.6
2022-08-27T17:00:00,1239A,121.633,29.7733,宁波市,钱湖水厂,,,19,16,15,11,81,63,59,52,,18,4,4,0.9,0.8
2022-08-27T17:00:00,1240A,121.5856,29.8635,宁波市,太古小学,,30,22,18,19,15,100,93,83,67,25,24,7,8,0.6,0.6
2022-08-27T17:00:00,1241A,121.524,29.8674,宁波市,市环境监测中心,,27,22,21,8,8,90,86,73,70,21,25,5,8,0.5,0.5
2022-08-27T17:00:00,1242A,120.634,28.0089,温州市,瓯海,,35,32,27,24,13,150,97,116,116,21,23,6,6,0.5,0.5
2022-08-27T17:00:00,1243A,120.6748,27.9939,温州市,南浦,,44,44,26,28,14,160,114,122,122,22,15,4,5,0.4,0.4
2022-08-27T17:00:00,1244A,120.76,27.9747,温州市,龙湾,,41,41,28,14,10,152,101,109,109,20,27,5,5,0.5,0.5
2022-08-27T17:00:00,1245A,120.6709,28.0167,温州市,市站,,40,34,27,28,16,163,96,134,123,22,23,5,5,0.5,0.5
2022-08-27T17:00:00,1246A,120.598,30.0911,绍兴市,袍江站,,,,,,,,,,,,,,,,
2022-08-27T17:00:00,1247A,120.6053,29.9928,绍兴市,城东开发委,,28,16,15,15,10,94,87,76,76,10,11,6,6,0.6,0.6
2022-08-27T17:00:00,1250A,120.0751,30.8669,湖州市,城西水厂,,30,24,25,12,10,189,96,82,82,15,23,4,4,0.4,0.5
2022-08-27T17:00:00,1252A,120.7436,30.778,嘉兴市,清河小学,,32,15,22,11,12,120,102,90,90,18,24,6,5,0.7,0.7
2022-08-27T17:00:00,1253A,120.726,30.7478,嘉兴市,嘉兴学院,,,,26,,15,64,,61,,,22,,3,,0.5
2022-08-27T17:00:00,1255A,121.273,28.6459,台州市,黄岩环保大楼,,19,17,22,13,9,140,60,103,103,25,16,4,5,0.4,0.4
2022-08-27T17:00:00,1256A,121.419,28.6542,台州市,台州环保大楼,,31,22,21,15,12,160,99,118,118,14,16,4,5,0.5,0.5
2022-08-27T17:00:00,1257A,121.377,28.5773,台州市,路桥田洋王,,36,26,23,21,13,154,114,118,118,11,16,4,4,0.4,0.4
2022-08-27T17:00:00,1258A,122.122,30.0203,舟山市,定海檀枫,,,14,20,6,10,92,88,84,84,,15,1,2,0.4,0.4
2022-08-27T17:00:00,1259A,122.3094,29.9558,舟山市,普陀东港,,,,23,,12,48,,57,,,30,,3,,0.4
2022-08-27T17:00:00,1260A,122.19,29.9944,舟山市,临城新区,,26,12,23,8,12,99,82,78,78,14,23,3,3,0.4,0.5
2022-08-27T17:00:00,1261A,119.649,29.1131,金华市,四中(停运161031),,,,,,,,,,,,,,,,
2022-08-27T17:00:00,1262A,119.647,29.077,金华市,十五中,,23,2,40,6,31,207,73,127,127,17,23,4,6,0.4,0.5
2022-08-27T17:00:00,1263A,119.686,29.1029,金华市,监测站,,23,16,42,5,25,212,73,130,130,13,23,4,9,0.4,0.6
2022-08-27T17:00:00,1264A,118.8692,28.9398,衢州市,环保大楼,,26,26,38,17,23,163,80,117,116,15,18,4,11,0.4,0.5
2022-08-27T17:00:00,1265A,118.8709,28.9666,衢州市,实验学校,,26,26,30,17,18,166,78,119,119,15,27,4,7,0.4,0.4
2022-08-27T17:00:00,1266A,118.8621,28.9808,衢州市,衢州学院,,28,21,33,19,19,171,80,123,123,11,23,6,6,0.5,0.6
2022-08-27T17:00:00,1267A,119.914,28.4514,丽水市,监测站大楼,,31,31,21,16,10,140,88,92,92,11,12,6,6,0.5,0.4
2022-08-27T17:00:00,1268A,119.93,28.4586,丽水市,莲都小学,,,33,28,12,8,133,98,96,96,7,11,6,6,,0.4
2022-08-27T17:00:00,1269A,119.879,28.4231,丽水市,余庄前,,27,15,22,11,12,160,84,100,100,14,15,5,6,0.5,0.5
2022-08-27T17:00:00,1270A,117.1959,31.7848,合肥市,明珠广场,,30,24,35,7,22,130,95,102,102,19,16,7,7,0.5,0.5
2022-08-27T17:00:00,1271A,117.3072,31.8764,合肥市,三里街,,32,32,32,17,20,103,90,90,90,16,16,6,6,0.8,0.8
2022-08-27T17:00:00,1272A,117.2588,31.8707,合肥市,琥珀山庄,,30,24,32,19,21,107,94,94,94,13,14,5,5,1.0,0.9
2022-08-27T17:00:00,1273A,117.1604,31.9052,合肥市,董铺水库(对照点),,44,44,33,24,19,101,84,88,88,11,9,12,11,1.0,1
2022-08-27T17:00:00,1274A,117.25,31.8571,合肥市,长江中路,,34,34,36,12,18,111,99,100,100,9,9,5,5,0.7,0.6
2022-08-27T17:00:00,1275A,117.266,31.9436,合肥市,庐阳区,,46,46,37,27,27,112,90,98,98,15,14,5,4,0.8,0.7
2022-08-27T17:00:00,1276A,117.336,31.8586,合肥市,瑶海区,,36,36,37,18,20,105,96,98,98,12,11,9,9,0.8,0.8
2022-08-27T17:00:00,1277A,117.3027,31.7964,合肥市,包河区,,27,27,35,7,24,106,76,87,87,37,27,12,12,0.6,0.6
2022-08-27T17:00:00,1278A,117.2776,31.7385,合肥市,滨湖新区,,30,17,34,17,18,125,94,97,96,15,15,13,13,0.6,0.6
2022-08-27T17:00:00,1279A,117.1318,31.8403,合肥市,高新区,,34,34,34,19,22,124,103,105,105,19,17,5,5,0.7,0.6
2022-08-27T17:00:00,1280A,119.3903,26.0543,福州市,鼓山(对照点),,,,,,,,,,,,,,,,
2022-08-27T17:00:00,1282A,119.2681,26.0504,福州市,师大,,43,43,49,18,21,185,134,121,121,13,18,4,6,0.4,0.4
2022-08-27T17:00:00,1283A,119.2984,26.1028,福州市,五四北路,颗粒物(PM10),53,56,53,17,20,155,115,126,126,17,20,4,5,0.6,0.5
2022-08-27T17:00:00,1284A,119.2648,26.0768,福州市,杨桥西路,颗粒物(PM10),54,58,53,15,19,158,124,115,115,14,16,5,6,0.4,0.4
2022-08-27T17:00:00,1285A,119.317,26.0746,福州市,紫阳,,36,34,52,12,17,167,114,126,126,14,16,5,6,0.4,0.3
2022-08-27T17:00:00,1286A,118.1608,24.8169,厦门市,溪东(对照点),,,,,,,,,,,,,,,,
2022-08-27T17:00:00,1287A,118.1514,24.4767,厦门市,洪文,臭氧1小时,136,100,50,49,22,272,272,205,205,12,15,8,5,0.5,0.4
2022-08-27T17:00:00,1288A,118.0661,24.4444,厦门市,鼓浪屿,臭氧1小时,139,76,45,57,26,277,277,198,198,25,22,7,6,0.4,0.4
2022-08-27T17:00:00,1290A,115.8931,28.6843,南昌市,省外办,颗粒物(PM10),62,73,37,21,9,143,139,119,119,16,16,9,14,1.1,0.6
2022-08-27T17:00:00,1291A,115.8886,28.7003,南昌市,省林业公司,颗粒物(PM10),63,75,38,27,6,141,141,122,122,20,25,6,13,1.3,0.7
2022-08-27T17:00:00,1292A,115.8126,28.7442,南昌市,林科所,,41,41,36,17,13,147,126,128,128,9,24,7,15,0.8,0.6
2022-08-27T17:00:00,1294A,115.8518,28.687,南昌市,建工学校,,48,48,41,8,13,139,135,118,118,9,19,8,17,0.9,0.5
2022-08-27T17:00:00,1295A,115.8921,28.6424,南昌市,象湖,,44,34,37,23,6,140,138,114,114,10,14,5,13,1.1,0.6
2022-08-27T17:00:00,1296A,115.7423,28.7996,南昌市,武术学校(对照点),,36,36,17,13,9,124,108,104,104,6,6,3,3,0.8,0.7
2022-08-27T17:00:00,1298A,115.9314,28.6842,南昌市,省站,,42,29,33,17,13,141,132,118,118,8,14,5,12,1.4,0.8
2022-08-27T17:00:00,1299A,116.9862,36.6114,济南市,科干所,,47,44,42,15,12,161,149,104,104,21,24,8,7,0.5,0.6
2022-08-27T17:00:00,1300A,116.9376,36.665,济南市,农科所,,50,39,46,10,8,158,158,105,105,13,25,10,9,0.5,0.4
2022-08-27T17:00:00,1301A,117.1265,36.6734,济南市,开发区,,46,42,48,7,11,154,147,106,106,19,32,9,8,0.5,0.6
2022-08-27T17:00:00,1303A,117.0624,36.6868,济南市,省种子仓库,,48,48,52,20,15,157,146,103,103,18,28,12,8,0.7,0.7
2022-08-27T17:00:00,1304A,116.9489,36.6447,济南市,机床二厂,臭氧1小时,57,59,58,7,9,165,165,111,111,18,27,11,10,0.6,0.5
2022-08-27T17:00:00,1305A,117.0495,36.663,济南市,市监测站,,49,46,48,17,12,159,155,106,106,18,26,13,10,0.7,0.7
2022-08-27T17:00:00,1306A,116.7675,36.5484,济南市,长清党校,臭氧1小时,57,51,54,17,12,165,165,103,103,15,33,9,8,0.4,0.4
2022-08-27T17:00:00,1307A,120.6659,36.2403,青岛市,仰口(对照点),,,,,,,,,,,,,,,,
2022-08-27T17:00:00,1308A,120.3905,36.1851,青岛市,李沧区子站,,,,,,,,,,,,,,,,
2022-08-27T17:00:00,1309A,120.3471,36.0699,青岛市,市北区子站,,,,,,,,,,,,,,,,
2022-08-27T17:00:00,1310A,120.4134,36.0658,青岛市,市南区东部子站,,29,17,24,0,12,204,90,120,72,17,20,6,8,0.2,0.5
2022-08-27T17:00:00,1311A,120.3664,36.1032,青岛市,四方区子站,,26,19,31,0,13,178,81,116,74,26,25,5,6,0.3,0.6
2022-08-27T17:00:00,1312A,120.2994,36.054,青岛市,市南区西部子站,,27,14,32,5,9,193,84,114,75,29,24,6,8,0.4,0.6
2022-08-27T17:00:00,1313A,120.4581,36.0858,青岛市,崂山区子站,,30,14,27,0,10,196,95,130,79,8,15,5,6,0.2,0.4
2022-08-27T17:00:00,1314A,120.1983,35.9608,青岛市,黄岛区子站,,33,12,30,7,16,225,104,92,89,8,24,4,7,0.3,0.5
2022-08-27T17:00:00,1315A,120.3999,36.3083,青岛市,城阳区子站,,35,22,33,6,10,192,112,95,85,13,25,6,6,0.4,0.6
2022-08-27T17:00:00,1316A,113.69031,34.76122,郑州市,烟厂,,31,31,31,9,9,98,38,62,39,31,26,7,6,0.5,0.6
2022-08-27T17:00:00,1317A,113.65724,34.77134,郑州市,郑纺机,颗粒物(PM10),57,63,35,12,7,81,36,54,37,28,23,7,6,0.6,0.5
2022-08-27T17:00:00,1318A,113.67526,34.80246,郑州市,银行学校,,22,22,28,7,8,82,32,52,33,27,24,5,5,0.6,0.6
2022-08-27T17:00:00,1319A,113.56746,34.81334,郑州市,供水公司,,27,27,28,10,8,96,44,55,38,18,20,3,3,0.5,0.5
2022-08-27T17:00:00,1320A,113.7329,34.7178,郑州市,经开区管委,,38,38,32,12,12,104,38,60,37,35,29,4,4,0.4,0.4
2022-08-27T17:00:00,1321A,113.73961,34.77172,郑州市,四十七中,,35,35,30,10,10,96,28,53,35,34,23,5,5,0.5,0.5
2022-08-27T17:00:00,1322A,113.60532,34.74838,郑州市,市监测站,,46,46,39,15,16,82,39,53,31,29,29,7,6,0.4,0.5
2022-08-27T17:00:00,1323A,113.64164,34.7525,郑州市,河医大,,36,36,34,10,11,85,39,55,30,25,25,6,5,0.5,0.6
2022-08-27T17:00:00,1324A,113.51488,34.91089,郑州市,岗李水库(对照点),,,,,,,,,,,,,,,,
2022-08-27T17:00:00,1325A,114.3677,30.5584,武汉市,东湖梨园,,37,21,44,10,22,144,116,121,121,10,18,6,9,0.9,1.3
2022-08-27T17:00:00,1326A,114.2529,30.558,武汉市,汉阳月湖,,37,26,36,14,19,145,117,123,123,16,20,6,6,0.9,0.9
2022-08-27T17:00:00,1327A,114.282,30.6189,武汉市,汉口花桥,,38,27,42,12,23,145,119,121,121,10,14,6,6,0.8,0.8
2022-08-27T17:00:00,1328A,114.3025,30.5332,武汉市,武昌紫阳,,38,30,47,15,24,160,121,128,128,11,22,8,9,0.9,1.4
2022-08-27T17:00:00,1329A,114.3646,30.6217,武汉市,青山钢花,,36,26,45,17,28,129,114,112,112,9,15,6,6,0.6,0.7
2022-08-27T17:00:00,1330A,114.1566,30.4825,武汉市,沌口新区,,40,39,47,26,28,181,128,152,135,18,25,8,10,0.7,1.1
2022-08-27T17:00:00,1331A,114.3014,30.5944,武汉市,汉口江滩,,39,26,37,14,25,140,124,121,121,8,14,8,8,0.9,0.9
2022-08-27T17:00:00,1333A,114.135,30.6319,武汉市,吴家山,,35,22,45,17,25,128,111,112,112,13,14,4,4,0.6,0.7
2022-08-27T17:00:00,1334A,113.8454,30.2917,武汉市,沉湖七壕(对照点),,46,28,38,17,25,198,145,153,153,7,21,9,9,0.7,0.8
2022-08-27T17:00:00,1335A,113.0833,28.2325,长沙市,经开区环保局,,36,17,24,16,15,117,113,106,106,5,15,6,7,0.5,0.3
2022-08-27T17:00:00,1336A,112.8872,28.2189,长沙市,高开区环保局,,,8,17,,10,106,98,96,96,1,8,6,8,0.1,0.2
2022-08-27T17:00:00,1337A,113.0792,28.2053,长沙市,马坡岭,,38,14,32,17,20,129,121,110,110,4,15,6,8,0.6,0.5
2022-08-27T17:00:00,1338A,112.9394,28.19,长沙市,湖南师范大学,,28,16,26,0,6,99,89,90,90,2,10,2,4,0.5,0.5
2022-08-27T17:00:00,1339A,113.0178,28.1322,长沙市,雨花区环保局,,37,8,12,2,7,122,116,105,105,3,10,7,8,0.3,0.3
2022-08-27T17:00:00,1340A,112.9792,28.2597,长沙市,伍家岭,,32,9,18,10,9,118,100,102,102,1,10,4,6,0.2,0.2
2022-08-27T17:00:00,1341A,113.0014,28.1944,长沙市,火车新站,,30,9,14,10,13,107,93,94,94,1,8,6,9,0.4,0.5
2022-08-27T17:00:00,1342A,112.9844,28.1178,长沙市,天心区环保局,,30,11,21,14,12,94,94,89,89,2,13,3,5,0.4,0.4
2022-08-27T17:00:00,1343A,112.8908,28.1308,长沙市,湖南中医药大学,,28,4,20,11,10,100,87,90,90,1,13,3,4,0.5,0.6
2022-08-27T17:00:00,1344A,112.9581,28.3611,长沙市,沙坪(对照点),,38,19,26,8,12,152,120,125,125,4,16,4,4,0.5,0.5
2022-08-27T17:00:00,1345A,113.2347,23.1423,广州市,广雅中学,臭氧1小时,69,39,34,23,21,182,175,143,143,18,29,5,5,0.7,0.7
2022-08-27T17:00:00,1346A,113.2612,23.105,广州市,市五中,臭氧1小时,103,43,30,29,16,210,206,153,153,13,24,5,4,0.6,0.6
2022-08-27T17:00:00,1348A,113.3478,23.0916,广州市,广东商学院,臭氧1小时,94,50,30,34,16,210,195,142,142,19,25,4,3,0.5,0.5
2022-08-27T17:00:00,1349A,113.4332,23.1047,广州市,市八十六中,臭氧1小时,99,50,32,27,14,231,199,149,149,19,27,5,5,0.4,0.4
2022-08-27T17:00:00,1350A,113.3505,22.9483,广州市,番禺中学,臭氧1小时,75,39,17,24,14,180,180,121,121,12,18,3,2,0.5,0.5
2022-08-27T17:00:00,1351A,113.2146,23.3916,广州市,花都师范,,36,22,32,14,20,129,114,99,99,11,28,5,5,0.6,0.8
2022-08-27T17:00:00,1352A,113.2597,23.1331,广州市,市监测站,臭氧1小时,90,44,34,24,18,198,192,153,153,13,25,5,4,0.6,0.7
2022-08-27T17:00:00,1353A,113.5618,23.312,广州市,九龙镇镇龙,颗粒物(PM10),61,71,44,40,21,155,142,106,106,18,25,4,4,0.4,0.5
2022-08-27T17:00:00,1354A,113.2765,23.1544,广州市,麓湖,臭氧1小时,67,42,33,25,21,198,173,146,146,12,24,3,2,0.7,0.8
2022-08-27T17:00:00,1355A,113.443,23.3035,广州市,帽峰山森林公园(对照点),,39,23,25,15,11,164,123,112,112,7,17,5,5,0.5,0.5
2022-08-27T17:00:00,1356A,114.1063,22.5545,深圳市,通心岭子站,臭氧1小时,92,43,22,24,10,197,193,108,108,15,18,3,4,0.6,0.4
2022-08-27T17:00:00,1357A,114.117,22.5625,深圳市,洪湖,臭氧1小时,99,53,26,33,11,199,199,109,109,21,20,5,6,0.7,0.5
2022-08-27T17:00:00,1358A,113.987,22.5417,深圳市,华侨城,,50,46,31,27,16,175,157,94,94,18,22,7,6,0.6,0.6
2022-08-27T17:00:00,1359A,113.9181,22.5171,深圳市,南海子站,颗粒物(PM10),58,66,27,27,12,161,161,97,97,28,16,4,3,0.7,0.6
2022-08-27T17:00:00,1360A,114.2458,22.5689,深圳市,盐田,,49,34,23,34,10,131,131,79,79,18,19,4,4,0.6,0.6
2022-08-27T17:00:00,1361A,114.2283,22.7244,深圳市,龙岗,臭氧1小时,101,69,41,31,15,202,202,141,141,12,27,5,5,0.5,0.5
2022-08-27T17:00:00,1362A,113.8953,22.5861,深圳市,西乡,,,,,,,,,,,,,,,,
2022-08-27T17:00:00,1363A,114.494,22.5422,深圳市,南澳,,39,37,25,27,7,199,123,115,115,17,12,6,7,0.5,0.5
2022-08-27T17:00:00,1364A,114.41,22.6342,深圳市,葵涌,颗粒物(PM10),54,57,36,13,8,129,107,96,96,15,12,5,6,0.6,0.6
2022-08-27T17:00:00,1365A,114.297,22.5978,深圳市,梅沙,,40,28,23,16,8,145,125,93,93,21,16,6,6,0.5,0.5
2022-08-27T17:00:00,1366A,114.0678,22.738,深圳市,观澜,臭氧1小时,103,68,44,26,15,206,206,123,123,17,17,5,5,0.7,0.8
2022-08-27T17:00:00,1367A,113.5814,22.2618,珠海市,吉大,,29,26,24,18,7,100,91,78,78,3,5,5,5,0.4,0.4
2022-08-27T17:00:00,1368A,113.4881,22.2335,珠海市,前山,,27,24,16,14,8,96,86,81,81,26,13,10,9,0.3,0.2
2022-08-27T17:00:00,1369A,113.628,22.4251,珠海市,唐家,,38,17,14,10,6,141,120,107,107,4,6,7,6,0.3,0.3
2022-08-27T17:00:00,1370A,113.299,22.2281,珠海市,斗门,,26,13,14,17,9,83,83,70,70,8,6,6,5,0.4,0.4
2022-08-27T17:00:00,1371A,113.1294,23.0067,佛山市,湾梁,,39,39,23,20,11,119,119,80,80,8,14,6,6,0.3,0.3
2022-08-27T17:00:00,1372A,113.1083,23.0478,佛山市,华材职中,,49,46,25,19,14,156,154,102,102,14,22,6,6,0.4,0.4
2022-08-27T17:00:00,1373A,113.144,23.0453,佛山市,南海气象局,臭氧1小时,53,47,27,22,13,162,162,130,130,12,21,5,5,0.6,0.6
2022-08-27T17:00:00,1374A,113.2881,22.8094,佛山市,顺德苏岗,,42,14,10,12,7,138,134,106,106,9,14,5,4,0.5,0.5
2022-08-27T17:00:00,1375A,113.2544,22.7642,佛山市,容桂街道办,,,,,,,,,,,,,,,,
2022-08-27T17:00:00,1376A,112.8383,22.8678,佛山市,高明孔堂,,29,14,24,15,12,90,90,70,70,8,12,6,6,0.3,0.4
2022-08-27T17:00:00,1377A,112.8836,23.1588,佛山市,三水监测站,,41,29,28,27,14,130,130,88,88,9,37,7,6,0.3,0.5
2022-08-27T17:00:00,1378A,112.867,23.185,佛山市,三水云东海,,38,17,28,16,16,121,121,88,88,8,19,5,5,0.3,0.5
2022-08-27T17:00:00,1379A,113.3769,22.5211,中山市,华柏园,臭氧1小时,65,37,19,22,9,172,172,127,127,14,11,6,6,0.4,0.3
2022-08-27T17:00:00,1380A,113.3881,22.5497,中山市,张溪,臭氧1小时,90,28,30,28,12,192,192,144,144,13,9,3,2,0.4,0.3
2022-08-27T17:00:00,1381A,113.4075,22.5111,中山市,紫马岭,,45,45,25,31,10,170,138,124,124,11,11,3,3,0.5,0.3
2022-08-27T17:00:00,1382A,113.4411,22.4853,中山市,长江旅游区(对照点),颗粒物(PM10),51,51,23,14,10,174,148,120,120,10,7,7,7,0.5,0.4
2022-08-27T17:00:00,1383A,113.1064,22.6058,江门市,北街,,43,22,22,12,7,140,135,102,102,6,9,5,5,0.5,0.5
2022-08-27T17:00:00,1384A,113.0731,22.5835,江门市,西区,,39,26,23,18,11,133,123,93,93,9,12,5,5,0.5,0.5
2022-08-27T17:00:00,1385A,113.0219,22.5311,江门市,圭峰西,,32,28,25,19,9,102,101,84,84,4,10,4,4,0.4,0.5
2022-08-27T17:00:00,1386A,113.0828,22.5947,江门市,东湖,,40,30,25,24,13,141,125,100,100,8,11,7,7,0.4,0.4
2022-08-27T17:00:00,1387A,113.7875,23.0457,东莞市,东城主山,,,,,,,,,,,,,,,,
2022-08-27T17:00:00,1388A,113.7533,23.0202,东莞市,南城元岭,,,,,,,,,,,,,,,,
2022-08-27T17:00:00,1389A,113.7547,23.0494,东莞市,莞城梨川,臭氧1小时,116,36,26,22,11,231,231,132,132,21,20,9,9,0.9,0.9
2022-08-27T17:00:00,1390A,113.7944,23.0128,东莞市,东城石井,臭氧1小时,116,38,27,21,11,232,232,139,139,16,17,10,9,0.6,0.6
2022-08-27T17:00:00,1391A,113.7383,22.9658,东莞市,南城西平,臭氧1小时,117,57,27,70,19,234,234,141,141,19,18,8,6,0.6,0.7
2022-08-27T17:00:00,1392A,114.4183,23.0528,惠州市,河南岸金山湖子站,,44,44,39,8,9,126,126,95,95,11,15,3,3,0.4,0.4
2022-08-27T17:00:00,1393A,114.4053,23.0822,惠州市,下埔横江三路子站,,,35,29,,13,129,126,104,104,8,18,3,3,0.6,0.6
2022-08-27T17:00:00,1394A,114.4103,23.1142,惠州市,江北云山西路子站,,40,33,33,16,14,139,125,110,110,4,17,5,6,0.6,0.6
2022-08-27T17:00:00,1395A,114.4645,22.7833,惠州市,惠阳区承修路船湖子站,臭氧1小时,78,56,30,21,12,190,182,136,136,12,13,5,5,0.6,0.5
2022-08-27T17:00:00,1396A,114.5317,22.7422,惠州市,大亚湾管委会子站,臭氧1小时,77,57,28,22,10,183,181,129,129,14,13,4,3,0.6,0.5
2022-08-27T17:00:00,1397A,112.4267,23.0706,肇庆市,睦岗子站,,33,25,25,16,12,106,105,85,85,9,19,6,8,0.4,0.5
2022-08-27T17:00:00,1398A,112.4645,23.0475,肇庆市,城中子站,,32,23,24,16,12,100,100,80,80,11,20,10,11,0.4,0.5
2022-08-27T17:00:00,1399A,112.5544,23.1522,肇庆市,坑口子站,,,30,23,16,11,120,117,90,90,,19,9,8,0.5,0.4
2022-08-27T17:00:00,1400A,112.4753,23.1,肇庆市,七星岩子站(对照点),,,,,,,,,,,,,,,,
2022-08-27T17:00:00,1401A,108.3103,22.7881,南宁市,二十一中,,21,6,20,10,9,78,66,60,60,8,13,5,5,0.6,0.6
2022-08-27T17:00:00,1402A,108.3141,22.8528,南宁市,北湖,,25,15,21,8,12,83,78,66,66,8,12,4,5,0.6,0.6
2022-08-27T17:00:00,1403A,108.3206,22.8225,南宁市,市监测站,,21,14,20,9,12,78,66,60,60,11,17,6,6,0.5,0.5
2022-08-27T17:00:00,1404A,108.3829,22.8037,南宁市,大自然花园,,20,18,20,9,11,67,62,56,56,5,11,6,6,0.6,0.6
2022-08-27T17:00:00,1405A,108.4394,22.7904,南宁市,仙葫(对照点),,18,15,19,9,8,60,57,51,51,4,9,6,6,0.7,0.7
2022-08-27T17:00:00,1406A,108.2397,22.8467,南宁市,区农职院,,30,24,20,10,11,108,93,77,77,11,22,7,6,0.6,0.6
2022-08-27T17:00:00,1407A,108.3275,22.735,南宁市,英华嘉园,,18,11,23,6,12,58,57,48,48,7,11,5,5,0.5,0.5
2022-08-27T17:00:00,1408A,108.2257,22.7757,南宁市,沙井镇街道办,,23,13,21,9,9,80,72,61,61,7,21,8,8,0.6,0.7
2022-08-27T17:00:00,1409A,110.576,19.9507,海口市,东寨港(对照点),,,23,20,7,8,74,46,58,58,,,5,6,0.2,0.3
2022-08-27T17:00:00,1410A,110.3232,20.0574,海口市,海南大学,,22,21,24,15,12,75,66,63,63,5,6,5,5,0.5,0.6
2022-08-27T17:00:00,1411A,110.283,20.0053,海口市,秀英海南医院,,21,18,22,12,12,79,67,67,67,10,17,5,5,0.4,0.4
2022-08-27T17:00:00,1412A,110.338,19.9969,海口市,海南师范大学,,18,14,26,8,10,95,56,66,66,2,5,4,3,0.4,0.5
2022-08-27T17:00:00,1413A,110.33,20.0356,海口市,龙华路环保局宿舍,,20,16,24,4,10,80,63,66,66,2,5,4,3,0.4,0.5
2022-08-27T17:00:00,1414A,106.3787,29.8279,重庆市,缙云山(对照点),,39,7,8,4,5,124,124,100,100,11,15,5,5,0.3,0.3
2022-08-27T17:00:00,1416A,106.4213,29.8253,重庆市,天生,,44,20,18,10,9,140,140,116,116,6,13,5,5,0.6,0.6
2022-08-27T17:00:00,1417A,106.6263,29.7228,重庆市,两路,,32,8,22,5,10,103,100,90,90,12,22,8,7,1.0,0.8
2022-08-27T17:00:00,1418A,106.2953,29.5983,重庆市,虎溪,,40,7,17,6,9,127,127,102,102,8,14,8,8,0.5,0.5
2022-08-27T17:00:00,1419A,106.5777,29.5102,重庆市,南坪,,34,14,19,12,9,107,107,94,94,5,8,3,3,0.5,0.5
2022-08-27T17:00:00,1420A,106.6556,29.6277,重庆市,唐家沱,,35,15,11,12,8,124,111,104,104,11,14,6,6,0.5,0.5
2022-08-27T17:00:00,1421A,106.6349,29.4906,重庆市,茶园,,35,13,22,6,9,109,109,98,98,19,41,6,6,0.3,0.3
2022-08-27T17:00:00,1422A,106.3754,29.4572,重庆市,白市驿,,39,13,8,10,11,122,122,106,106,7,8,9,8,0.5,0.5
2022-08-27T17:00:00,1425A,106.6205,29.7166,重庆市,空港,,37,14,32,5,10,118,116,102,102,3,14,5,5,0.6,0.6
2022-08-27T17:00:00,1426A,106.4782,29.4875,重庆市,新山村,,32,14,13,7,6,107,102,94,94,11,13,6,6,0.3,0.3
2022-08-27T17:00:00,1427A,106.5616,29.6453,重庆市,礼嘉,,35,4,10,6,5,123,109,102,102,13,31,6,6,0.5,0.5
2022-08-27T17:00:00,1428A,106.4522,29.7091,重庆市,蔡家,,34,8,10,4,6,116,107,93,93,8,14,4,4,0.4,0.4
2022-08-27T17:00:00,1429A,106.5093,29.3917,重庆市,鱼新街,,30,11,13,6,10,96,96,85,85,2,4,5,5,0.8,0.8
2022-08-27T17:00:00,1431A,103.9728,30.7236,成都市,金泉两河,,39,26,34,14,26,195,122,104,104,8,18,2,3,0.5,0.6
2022-08-27T17:00:00,1432A,104.1419,30.6764,成都市,十里店,,45,34,36,24,26,193,142,116,116,8,18,4,5,0.8,0.8
2022-08-27T17:00:00,1433A,104.0594,30.5767,成都市,三瓦窑,,47,37,37,22,24,197,148,129,129,19,26,2,2,0.5,0.5
2022-08-27T17:00:00,1434A,104.1122,30.6306,成都市,沙河铺,,49,38,39,23,23,197,154,125,125,12,20,4,5,0.6,0.6
2022-08-27T17:00:00,1437A,104.0431,30.6556,成都市,君平街,,42,36,36,24,25,206,133,120,120,7,15,3,4,0.5,0.6
2022-08-27T17:00:00,1438A,103.6202,31.0201,成都市,灵岩寺(对照点),,15,12,16,9,12,146,47,108,56,3,3,5,5,0.3,0.3
2022-08-27T17:00:00,1439A,106.6899,26.5998,贵阳市,马鞍山,,20,2,8,0,3,62,61,55,55,6,8,5,5,0.2,0.7
2022-08-27T17:00:00,1440A,106.6971,26.5694,贵阳市,市环保站,,16,14,8,6,5,53,49,47,47,12,11,4,4,0.2,0.2
2022-08-27T17:00:00,1441A,106.6243,26.6266,贵阳市,鉴湖路,,19,9,9,5,4,60,60,55,55,5,5,3,3,0.2,0.2
2022-08-27T17:00:00,1442A,106.7487,26.6343,贵阳市,燕子冲,,17,9,13,9,10,59,52,52,52,6,8,6,6,0.4,0.4
2022-08-27T17:00:00,1443A,106.6555,26.4365,贵阳市,碧云窝,,20,12,17,0,1,63,61,59,59,5,7,4,4,0.4,0.3
2022-08-27T17:00:00,1444A,106.694,26.5161,贵阳市,中院村,,14,12,16,0,3,54,44,48,48,16,12,2,3,0.4,0.4
2022-08-27T17:00:00,1445A,106.7109,26.6027,贵阳市,红边门,,17,17,15,9,9,57,50,49,49,17,15,4,4,0.4,0.4
2022-08-27T17:00:00,1446A,106.7164,26.5699,贵阳市,新华路,,17,7,10,7,7,58,52,52,52,8,8,3,3,0.3,0.4
2022-08-27T17:00:00,1447A,106.674,26.5424,贵阳市,太慈桥,,19,19,16,0,1,62,55,55,55,9,9,3,4,0.3,0.3
2022-08-27T17:00:00,1450A,102.8204,24.8886,昆明市,呈贡新区,,24,16,11,4,5,82,75,68,68,8,10,3,4,0.3,0.3
2022-08-27T17:00:00,1451A,102.6251,24.9608,昆明市,西山森林公园(对照点),,,7,7,,5,68,65,62,62,5,5,7,7,0.6,0.5
2022-08-27T17:00:00,1452A,102.7252,25.0902,昆明市,龙泉镇,,22,8,9,5,5,77,69,65,65,9,10,6,6,0.3,0.3
2022-08-27T17:00:00,1453A,102.7266,25.0375,昆明市,东风东路,,21,18,11,10,5,72,65,59,59,16,14,4,5,0.5,0.4
2022-08-27T17:00:00,1454A,102.6742,25.0669,昆明市,金鼎山,,20,10,11,4,6,71,63,61,61,14,13,1,2,0.4,0.3
2022-08-27T17:00:00,1455A,102.6644,25.0401,昆明市,碧鸡广场,,19,9,8,5,8,71,58,60,60,11,12,5,6,0.7,0.6
2022-08-27T17:00:00,1456A,91.1319,29.6514,拉萨市,八廓街,,,,,,,,,,,,,,,,
2022-08-27T17:00:00,1457A,91.1221,29.6747,拉萨市,市环保局,,32,3,9,1,4,111,102,93,86,6,6,7,7,0.1,0.1
2022-08-27T17:00:00,1458A,91.0874,29.6475,拉萨市,区监测站,,36,9,6,1,0,126,115,99,98,3,4,8,8,0.2,0.2
2022-08-27T17:00:00,1459A,91.1774,29.6541,拉萨市,西藏大学,,33,13,9,3,3,115,105,93,91,6,7,10,10,0.1,0.2
2022-08-27T17:00:00,1460A,90.9798,29.6588,拉萨市,区辐射站,,,,,,,,,,,,,,,,
2022-08-27T17:00:00,1461A,91.0834,29.6292,拉萨市,拉萨火车站,,,,,,,,,,,,,,,,
2022-08-27T17:00:00,1462A,108.882,34.2749,西安市,高压开关厂,,30,30,28,5,14,68,68,64,60,16,20,4,4,0.5,0.7
2022-08-27T17:00:00,1463A,108.993,34.2629,西安市,兴庆小区,,29,29,23,10,16,69,68,65,61,12,12,6,5,0.7,0.7
2022-08-27T17:00:00,1464A,109.06,34.2572,西安市,纺织城,,30,30,29,10,14,67,67,53,53,9,21,6,4,0.6,0.8
2022-08-27T17:00:00,1465A,108.9356,34.2173,西安市,小寨,,22,18,21,5,12,68,68,60,60,16,18,2,2,0.2,0.5
2022-08-27T17:00:00,1466A,108.954,34.2713,西安市,市人民体育场,,31,31,24,9,14,76,76,68,68,9,15,7,6,0.2,0.5
2022-08-27T17:00:00,1467A,108.8922,34.2322,西安市,高新西区,,27,27,22,8,16,69,68,65,60,12,16,7,7,0.4,0.7
2022-08-27T17:00:00,1468A,108.935,34.3474,西安市,经开区,,23,22,24,6,14,72,71,68,68,10,15,4,4,0.1,0.4
2022-08-27T17:00:00,1469A,108.906,34.1546,西安市,长安区,,31,31,25,10,16,41,41,36,36,17,17,5,4,0.3,0.6
2022-08-27T17:00:00,1470A,109.2,34.6575,西安市,阎良区,,,,,,,,,,,,,,,,
2022-08-27T17:00:00,1471A,109.2186,34.3731,西安市,临潼区,,22,17,22,12,14,70,70,64,64,9,16,5,4,0.2,0.5
2022-08-27T17:00:00,1472A,108.869,34.378,西安市,草滩(对照点),,20,18,22,6,13,67,62,62,62,11,15,5,6,0.6,0.9
2022-08-27T17:00:00,1473A,108.985,34.1978,西安市,曲江文化产业集团,,29,29,26,10,16,68,66,58,58,13,16,5,4,0.5,0.8
2022-08-27T17:00:00,1474A,109.051,34.3213,西安市,广运潭,,31,31,26,4,12,68,67,61,61,10,15,6,5,0.5,0.8
2022-08-27T17:00:00,1476A,103.631,36.1031,兰州市,兰炼宾馆,,31,31,29,15,11,74,63,61,56,17,19,4,5,0.4,0.4
2022-08-27T17:00:00,1477A,104.1373,35.9454,兰州市,榆中兰大校区(对照点),,,,,,,,,,,,,,,,
2022-08-27T17:00:00,1478A,103.8412,36.0726,兰州市,生物制品所,,25,13,19,17,14,73,60,63,61,13,16,1,7,0.9,0.8
2022-08-27T17:00:00,1479A,103.831,36.0464,兰州市,铁路设计院,,23,21,26,16,11,72,56,56,56,23,23,6,6,0.6,0.5
2022-08-27T17:00:00,1480A,101.748,36.6428,西宁市,市环境监测站,,,,,,,,,,,,,,,,
2022-08-27T17:00:00,1482A,101.834,36.5819,西宁市,四陆医院,,,,,,,,,,,,,,,,
2022-08-27T17:00:00,1483A,101.524,36.6867,西宁市,第五水厂(对照点),,41,31,25,23,17,129,129,93,93,17,15,14,11,0.9,0.6
2022-08-27T17:00:00,1484A,105.9512,38.6016,银川市,贺兰山马莲口(对照点),,25,23,20,17,13,126,66,102,54,19,16,12,20,0.6,0.6
2022-08-27T17:00:00,1488A,106.2328,38.4975,银川市,贺兰山东路,,27,27,24,13,13,101,60,53,48,25,23,6,9,1.0,0.7
2022-08-27T17:00:00,1489A,106.1358,38.5036,银川市,学院路,,38,35,42,26,21,91,53,44,36,24,26,8,14,0.9,0.9
2022-08-27T17:00:00,1490A,87.5801,43.8303,乌鲁木齐市,监测站,,33,14,20,6,10,105,105,89,89,5,11,5,6,0.4,0.5
2022-08-27T17:00:00,1491A,87.6046,43.768,乌鲁木齐市,收费所,,,15,24,4,9,104,104,89,89,,4,7,7,0.3,0.4
2022-08-27T17:00:00,1492A,87.4754,43.9469,乌鲁木齐市,新疆农科院农场(对照点),,26,15,31,4,6,82,82,70,70,5,24,7,8,0.6,0.7
2022-08-27T17:00:00,1493A,87.5525,43.8711,乌鲁木齐市,铁路局,,34,20,19,2,8,106,106,90,90,3,12,4,4,0.4,0.5
2022-08-27T17:00:00,1494A,87.6432,43.831,乌鲁木齐市,三十一中学,,33,15,24,9,9,104,104,93,93,1,5,5,6,0.2,0.2
2022-08-27T17:00:00,1496A,87.7216,44.1747,乌鲁木齐市,米东区环保局,,34,21,30,2,12,106,106,84,84,2,14,5,6,0.2,0.3
2022-08-27T17:00:00,1508A,112.9433,27.8614,湘潭市,板塘,,27,13,24,8,13,104,84,85,85,5,12,4,7,0.7,0.6
2022-08-27T17:00:00,1511A,112.9118,27.8403,湘潭市,市监测站,,25,7,18,10,13,91,80,75,75,6,16,10,19,0.7,1
2022-08-27T17:00:00,1512A,112.8937,27.8728,湘潭市,江麓,,26,12,25,10,8,90,83,82,82,4,13,10,18,0.4,0.6
2022-08-27T17:00:00,1513A,112.9227,27.8159,湘潭市,岳塘,,,24,25,9,8,103,84,80,80,3,7,,8,0.3,0.4
2022-08-27T17:00:00,1514A,112.9074,27.9119,湘潭市,科大,,29,19,25,19,10,102,92,90,90,3,13,4,12,0.2,0.5
2022-08-27T17:00:00,1515A,113.135,27.8244,株洲市,天台山庄,,34,13,17,19,13,110,107,101,101,5,9,5,6,0.3,0.4
2022-08-27T17:00:00,1518A,113.095,27.8867,株洲市,株冶医院,,37,9,15,19,10,118,118,99,99,5,9,5,7,0.4,0.3
2022-08-27T17:00:00,1519A,113.167,27.8667,株洲市,市四中,,36,9,18,14,12,121,115,112,112,4,9,5,3,0.4,0.4
2022-08-27T17:00:00,1520A,113.143,27.8381,株洲市,火车站,,32,19,18,11,10,104,102,96,96,7,12,5,4,0.2,0.2
2022-08-27T17:00:00,1524A,113.13,27.8528,株洲市,市监测站,,38,14,21,17,15,120,119,110,110,3,8,3,4,0.3,0.4
2022-08-27T17:00:00,1552A,106.805,26.3003,贵阳市,桐木岭(对照点),,,,,,,,,,,,,,,,
2022-08-27T17:00:00,1559A,113.251,27.8336,株洲市,大京风景区(对照点),,33,19,16,12,9,105,104,96,96,2,5,2,2,0.4,0.4
2022-08-27T17:00:00,1562A,113.0048,27.9153,湘潭市,昭山,,28,12,18,12,11,101,87,91,91,4,12,5,6,0.1,0.3
2022-08-27T17:00:00,1564A,112.4876,27.9164,湘潭市,韶山(对照点),,30,18,16,12,9,103,94,95,95,6,8,5,7,0.4,0.4
2022-08-27T17:00:00,1585A,109.8756,40.6532,包头市,市环境监测站,,17,12,29,4,8,67,52,48,48,17,32,7,12,0.5,0.6
2022-08-27T17:00:00,1587A,109.9991,40.5842,包头市,包头八中,,31,31,34,8,12,61,53,50,50,16,25,9,20,0.5,0.5
2022-08-27T17:00:00,1588A,109.8538,40.6821,包头市,青山宾馆,,19,17,26,7,8,64,59,50,50,15,30,10,11,0.5,0.6
2022-08-27T17:00:00,1589A,109.8642,40.6288,包头市,惠龙物流,,19,19,28,13,10,67,50,51,51,21,28,8,16,0.3,0.4
2022-08-27T17:00:00,1590A,110.0377,40.5546,包头市,东河鸿龙湾,,17,11,27,5,7,80,54,53,53,13,21,5,8,0.4,0.4
2022-08-27T17:00:00,1591A,110.0023,39.8129,鄂尔多斯市,综合楼,,21,7,31,0,3,89,66,59,55,30,29,10,12,0.4,0.4
2022-08-27T17:00:00,1592A,109.9486,39.8261,鄂尔多斯市,巴音孟克林场办事处,,19,12,47,5,10,94,60,48,48,38,42,18,14,0.7,0.6
2022-08-27T17:00:00,1593A,109.7736,39.5986,鄂尔多斯市,康泽苑,,26,7,27,2,5,100,82,52,52,13,23,4,7,0.5,0.5
2022-08-27T17:00:00,1594A,109.8119,39.5989,鄂尔多斯市,华泰汽车城,,24,9,31,5,9,97,76,49,49,15,27,5,8,0.5,0.6
2022-08-27T17:00:00,1595A,109.9734,39.7884,鄂尔多斯市,奥林花园,,21,14,28,9,6,97,67,58,58,26,22,8,8,0.6,0.5
2022-08-27T17:00:00,1596A,122.2414,40.6592,营口市,学府南路,,,,,,,,,,,,,,,,
2022-08-27T17:00:00,1597A,122.2703,40.7094,营口市,大庆路,,34,13,19,6,4,106,106,87,87,7,13,5,11,0.2,0.3
2022-08-27T17:00:00,1598A,122.215,40.6511,营口市,镜湖西路,,28,13,20,4,3,89,89,73,73,6,10,3,6,0.3,0.3
2022-08-27T17:00:00,1599A,122.167,40.6655,营口市,西炮台,,30,11,12,6,5,94,94,79,79,6,11,2,11,0.3,0.4
2022-08-27T17:00:00,1600A,124.3303,40.0625,丹东市,江湾东路,,25,11,13,4,6,82,79,67,67,17,16,12,11,0.5,0.6
2022-08-27T17:00:00,1601A,124.4256,40.1503,丹东市,临江后街,,23,14,15,4,7,80,73,63,63,13,17,7,8,0.3,0.4
2022-08-27T17:00:00,1602A,124.3933,40.1461,丹东市,元宝山,,22,11,13,6,7,70,69,58,56,11,14,5,5,0.1,0.4
2022-08-27T17:00:00,1603A,124.3633,40.1092,丹东市,民主桥,,22,11,15,4,7,75,70,61,61,19,20,9,8,0.6,0.6
2022-08-27T17:00:00,1604A,122.0303,41.1489,盘锦市,开发区,,23,14,15,4,5,73,72,63,63,12,22,3,5,0.5,0.5
2022-08-27T17:00:00,1605A,122.0485,41.0883,盘锦市,兴隆台,,24,16,21,3,4,77,75,63,63,14,28,7,10,0.3,0.4
2022-08-27T17:00:00,1606A,121.8297,41.1028,盘锦市,新生街道,,24,10,17,3,6,78,74,67,67,13,24,5,10,0.3,0.3
2022-08-27T17:00:00,1607A,120.9092,40.7136,葫芦岛市,龙港区,,29,26,26,1,10,91,91,69,69,5,20,7,9,0.3,0.3
2022-08-27T17:00:00,1608A,120.8392,40.7514,葫芦岛市,化工街,,30,16,25,0,6,94,94,72,72,12,28,6,7,0.2,0.2
2022-08-27T17:00:00,1609A,120.8341,40.7073,葫芦岛市,新区,,30,26,20,3,9,95,95,74,74,10,23,11,12,0.3,0.4
2022-08-27T17:00:00,1610A,120.8695,40.7677,葫芦岛市,东城区,,27,26,28,6,11,84,84,67,67,16,24,8,16,0.3,0.3
2022-08-27T17:00:00,1611A,118.5819,24.9117,泉州市,涂山街,,46,34,59,20,20,204,147,174,174,9,25,10,15,0.6,0.7
2022-08-27T17:00:00,1612A,118.5972,24.8978,泉州市,津头埔,,46,39,56,24,23,184,145,166,166,13,33,9,14,0.4,0.5
2022-08-27T17:00:00,1613A,118.6663,24.9424,泉州市,万安,臭氧1小时,69,52,58,19,26,191,175,175,175,8,24,8,10,0.6,0.7
2022-08-27T17:00:00,1614A,118.6117,24.9604,泉州市,清源山(对照点),,,,,,,,,,,,,,,,
2022-08-27T17:00:00,1616A,117.6795,36.229,济南市,技术学院,,40,19,35,7,14,146,125,103,103,9,19,5,8,0.4,0.5
2022-08-27T17:00:00,1618A,118.3429,35.0532,临沂市,沂河小区,,36,29,43,6,14,148,114,94,94,12,21,7,8,0.2,0.3
2022-08-27T17:00:00,1619A,118.295,35.0583,临沂市,鲁南制药厂,,37,17,38,5,15,176,118,102,102,11,20,5,10,0.5,0.6
2022-08-27T17:00:00,1620A,118.2794,34.9976,临沂市,新光毛纺厂,,37,24,39,7,18,165,118,95,95,17,24,5,6,0.4,0.5
2022-08-27T17:00:00,1621A,118.3956,35.0888,临沂市,河东保险公司,,33,14,37,4,16,169,104,91,91,15,21,5,7,0.4,0.6
2022-08-27T17:00:00,1622A,116.3032,37.4674,德州市,儿童乐园,,36,34,42,11,12,140,115,105,105,16,30,8,10,0.4,0.4
2022-08-27T17:00:00,1624A,116.2991,37.4451,德州市,监理站,,38,23,34,11,12,151,119,104,104,9,24,11,13,0.4,0.4
2022-08-27T17:00:00,1625A,115.9848,36.4372,聊城市,区政府,,37,31,38,7,9,155,117,87,87,7,15,7,9,0.4,0.5
2022-08-27T17:00:00,1628A,118.0062,37.3803,滨州市,市环保局,,40,25,28,9,10,130,126,110,110,8,21,10,11,0.6,0.5
2022-08-27T17:00:00,1629A,118.0018,37.3617,滨州市,第二水厂,,37,23,34,9,8,127,117,106,106,5,20,7,10,0.5,0.5
2022-08-27T17:00:00,1630A,117.9776,37.393,滨州市,北中新校,,39,25,29,8,7,132,123,107,107,3,22,9,10,0.3,0.3
2022-08-27T17:00:00,1631A,118.0414,36.8103,淄博市,人民公园,,44,29,30,9,14,149,140,111,111,9,19,9,12,0.0,0.1
2022-08-27T17:00:00,1632A,118.0253,36.8406,淄博市,东风化工厂,,,,,,,,,,,,,,,,
2022-08-27T17:00:00,1633A,117.8525,36.4847,淄博市,双山,,45,31,42,6,11,184,142,110,110,10,25,7,8,0.4,0.5
2022-08-27T17:00:00,1634A,117.9592,36.6331,淄博市,气象站,,44,27,38,7,10,173,140,111,111,10,22,12,13,0.1,0.3
2022-08-27T17:00:00,1635A,118.3092,36.8194,淄博市,莆田园,,43,29,22,17,10,147,137,106,106,9,22,6,8,0.3,0.3
2022-08-27T17:00:00,1636A,117.8661,36.805,淄博市,三金集团,,,,,,,,,,,,,,,,
2022-08-27T17:00:00,1637A,117.558,34.8438,枣庄市,市中区政府,,44,39,60,9,23,162,139,123,123,17,20,10,8,0.4,0.4
2022-08-27T17:00:00,1638A,117.2852,34.7837,枣庄市,薛城环保局,颗粒物(PM10),51,51,71,14,30,149,111,114,114,21,24,14,14,0.5,0.6
2022-08-27T17:00:00,1639A,117.5852,34.7745,枣庄市,峄城区政府,,41,41,59,7,28,162,116,118,118,14,21,9,12,0.5,0.6
2022-08-27T17:00:00,1640A,117.7276,34.5578,枣庄市,台儿庄区环保局,,28,22,51,5,23,189,89,93,93,16,23,12,12,0.4,0.7
2022-08-27T17:00:00,1641A,117.4518,35.0992,枣庄市,山亭区环保局,,43,29,46,7,26,177,137,122,122,13,17,10,12,0.4,0.7
2022-08-27T17:00:00,1642A,121.2514,37.5639,烟台市,开发区,,,9,34,,7,190,68,70,70,2,3,4,5,0.3,0.4
2022-08-27T17:00:00,1643A,121.3719,37.5433,烟台市,轴承厂,,21,12,27,2,7,179,66,70,70,3,7,6,8,0.1,0.2
2022-08-27T17:00:00,1644A,121.3181,37.5436,烟台市,西郊化工站,,22,14,25,0,8,184,69,71,71,6,11,6,11,0.3,0.4
2022-08-27T17:00:00,1645A,121.4478,37.4822,烟台市,莱山环保局,,19,12,20,0,8,185,60,70,67,8,4,6,8,0.2,0.2
2022-08-27T17:00:00,1646A,121.2611,37.4967,烟台市,福山环保局,,17,17,36,2,8,173,50,61,61,10,16,5,9,0.1,0.2
2022-08-27T17:00:00,1648A,119.12,36.7019,潍坊市,仲裁委,,,,,,,,,,,,,,,,
2022-08-27T17:00:00,1650A,119.1437,36.7023,潍坊市,环保局,,32,17,27,4,9,201,102,89,89,7,12,4,5,0.1,0.2
2022-08-27T17:00:00,1652A,119.1936,36.7729,潍坊市,寒亭监测站,,,,,,,,,,,,,,,,
2022-08-27T17:00:00,1653A,116.6251,35.4302,济宁市,火炬城,,39,28,39,9,16,182,124,105,105,14,19,8,10,0.3,0.5
2022-08-27T17:00:00,1655A,116.5491,35.4042,济宁市,电化厂,,38,38,40,9,17,168,121,104,104,16,20,8,10,0.4,0.6
2022-08-27T17:00:00,1656A,117.1437,36.1937,泰安市,监测站,,38,22,34,10,11,134,120,104,104,5,10,8,9,0.4,0.5
2022-08-27T17:00:00,1657A,117.0885,36.2017,泰安市,人口学校,,34,29,30,11,11,120,108,95,95,8,10,8,9,0.2,0.2
2022-08-27T17:00:00,1658A,117.1089,36.1758,泰安市,电力学校,,39,24,35,11,16,131,122,105,105,5,9,8,8,0.4,0.5
2022-08-27T17:00:00,1659A,119.471,35.4209,日照市,监测站,,29,14,31,1,13,155,91,87,77,12,23,6,7,0.3,0.5
2022-08-27T17:00:00,1660A,119.523,35.4216,日照市,市政府广场,,30,14,30,1,12,147,94,95,80,10,20,3,5,0.3,0.5
2022-08-27T17:00:00,1661A,119.5587,35.4044,日照市,港务局,,31,14,31,2,11,154,99,100,86,2,14,2,4,0.2,0.4
2022-08-27T17:00:00,1662A,122.1214,37.4236,威海市,华夏技校,,28,24,23,5,12,214,88,74,74,3,4,6,5,0.2,0.3
2022-08-27T17:00:00,1663A,122.0508,37.5236,威海市,山大分校,,29,5,16,2,8,227,91,77,77,6,6,6,6,0.2,0.3
2022-08-27T17:00:00,1664A,122.1067,37.5072,威海市,市监测站,,28,10,22,7,10,206,89,75,75,2,3,5,6,0.1,0.2
2022-08-27T17:00:00,1665A,118.5019,37.4658,东营市,西城阳光环保公司,,,,,,,,,,,,,,,,
2022-08-27T17:00:00,1666A,118.6614,37.4309,东营市,市环保局,,36,19,15,5,3,114,114,98,98,7,15,7,7,0.3,0.2
2022-08-27T17:00:00,1669A,113.5824,24.7733,韶关市,市八中,,33,25,27,17,12,110,104,96,96,5,18,6,10,0.4,0.5
2022-08-27T17:00:00,1670A,113.5556,24.8082,韶关市,碧湖山庄,,,,,,,,,,,,,,,,
2022-08-27T17:00:00,1671A,113.5917,24.7972,韶关市,园林处,,,11,27,3,11,112,107,97,97,,15,10,12,0.5,0.6
2022-08-27T17:00:00,1672A,113.6735,24.7791,韶关市,韶关学院,,37,36,28,7,14,120,116,94,94,15,15,15,12,0.7,0.6
2022-08-27T17:00:00,1673A,113.5971,24.6863,韶关市,曲江监测站,,33,26,28,14,14,110,104,91,91,10,18,9,8,0.5,0.5
2022-08-27T17:00:00,1674A,116.6794,23.3667,汕头市,金平子站,,41,25,29,13,15,150,131,128,128,8,12,2,5,0.4,0.6
2022-08-27T17:00:00,1675A,116.7244,23.3633,汕头市,龙湖子站,,46,46,35,19,12,157,133,131,131,13,16,9,10,0.7,0.8
2022-08-27T17:00:00,1676A,116.7258,23.2775,汕头市,濠江子站,,36,35,28,13,13,134,115,116,116,9,11,10,12,0.6,0.8
2022-08-27T17:00:00,1677A,116.7519,23.4714,汕头市,澄海子站,颗粒物(PM10),53,56,33,18,14,157,157,127,127,14,14,7,8,0.8,0.8
2022-08-27T17:00:00,1678A,116.6092,23.2539,汕头市,潮阳子站,,40,40,36,16,15,125,117,113,113,6,8,10,10,0.6,0.7
2022-08-27T17:00:00,1679A,116.4069,23.2533,汕头市,潮南子站,,,,,,,,,,,,,,,,
2022-08-27T17:00:00,1680A,110.3539,21.2706,湛江市,湛江影剧院,,23,19,28,11,11,92,72,78,78,9,8,5,6,0.5,0.6
2022-08-27T17:00:00,1681A,110.3928,21.2228,湛江市,市环境监测站,,22,8,25,9,11,100,69,80,80,6,7,5,6,0.5,0.6
2022-08-27T17:00:00,1682A,110.4019,21.1997,湛江市,环保局宿舍,,24,24,25,7,11,99,59,76,76,6,9,4,6,0.5,0.6
2022-08-27T17:00:00,1683A,110.4111,21.2028,湛江市,霞山游泳场,,19,18,26,12,12,92,59,73,73,5,8,6,7,0.4,0.6
2022-08-27T17:00:00,1684A,110.3316,21.2679,湛江市,麻章区环保局,,25,24,31,11,13,103,78,85,85,7,9,4,5,0.5,0.6
2022-08-27T17:00:00,1685A,110.4558,21.2567,湛江市,坡头区环保局,,22,22,22,10,10,78,61,66,66,4,4,6,6,0.4,0.5
2022-08-27T17:00:00,1686A,111.0286,21.4688,茂名市,电白南海,,22,22,30,9,9,69,65,62,62,6,5,4,4,0.4,0.4
2022-08-27T17:00:00,1687A,110.9294,21.6533,茂名市,茂石化七小,,,,31,,11,41,,37,,,7,,6,,0.7
2022-08-27T17:00:00,1688A,110.9107,21.6687,茂名市,健康路,,24,24,26,3,6,79,72,70,70,6,5,8,8,0.5,0.5
2022-08-27T17:00:00,1689A,110.8592,21.6828,茂名市,高岭,,36,36,22,22,13,74,58,67,67,8,7,4,4,0.5,0.5
2022-08-27T17:00:00,1690A,116.1231,24.3284,梅州市,梅江月梅,,28,15,20,10,10,102,89,91,91,5,10,4,5,0.3,0.4
2022-08-27T17:00:00,1691A,116.0797,24.2719,梅州市,梅县新城,,25,22,22,12,10,88,79,81,81,5,14,5,9,0.3,0.4
2022-08-27T17:00:00,1692A,116.1248,24.2654,梅州市,环境监控中心,,28,28,20,10,12,94,80,84,84,10,11,5,6,0.3,0.3
2022-08-27T17:00:00,1693A,115.3653,22.775,汕尾市,市环保局,,40,40,26,11,9,157,116,102,102,13,11,6,6,0.6,0.6
2022-08-27T17:00:00,1694A,115.3706,22.7898,汕尾市,市政府,,39,33,22,13,8,160,123,99,99,9,7,6,6,0.5,0.5
2022-08-27T17:00:00,1695A,115.3622,22.7925,汕尾市,新城中学,颗粒物(PM10),52,53,27,11,7,178,123,111,111,8,6,6,6,0.6,0.5
2022-08-27T17:00:00,1696A,114.6778,23.7569,河源市,源西(对照点),,24,20,25,9,11,98,75,76,76,2,10,3,3,0.6,0.6
2022-08-27T17:00:00,1697A,114.6944,23.7586,河源市,东埔,,25,23,27,11,12,83,78,69,69,5,12,4,4,0.8,0.8
2022-08-27T17:00:00,1698A,114.6892,23.7233,河源市,老城,,27,25,34,13,12,110,84,79,79,2,10,2,3,0.5,0.6
2022-08-27T17:00:00,1699A,111.9797,21.8593,阳江市,鸳鸯湖(对照点),,,,,,,,,,,,,,,,
2022-08-27T17:00:00,1700A,111.9508,21.8536,阳江市,南恩路,,,,,,,,,,,,,,,,
2022-08-27T17:00:00,1701A,111.9491,21.8658,阳江市,马南垌,,26,26,24,8,12,82,72,67,67,3,5,6,5,0.5,0.5
2022-08-27T17:00:00,1702A,113.0426,23.691,清远市,环保大楼(对照点),,32,12,26,12,18,124,100,98,98,2,14,4,5,0.6,0.5
2022-08-27T17:00:00,1703A,113.0208,23.7106,清远市,凤城街办,,,15,25,11,15,97,80,80,80,8,17,5,5,,0.7
2022-08-27T17:00:00,1705A,116.6367,23.6719,潮州市,西园路(对照点),,33,33,27,16,14,80,68,59,59,1,8,4,6,0.4,0.6
2022-08-27T17:00:00,1706A,116.6447,23.6706,潮州市,档案局,,28,25,25,10,12,102,87,74,74,6,11,7,10,0.6,0.7
2022-08-27T17:00:00,1708A,116.3701,23.5345,揭阳市,新兴,,49,49,31,14,13,101,101,92,92,1,6,6,6,0.4,0.5
2022-08-27T17:00:00,1709A,116.3264,23.5443,揭阳市,西马,,26,25,28,9,10,84,83,79,79,3,8,5,6,0.5,0.6
2022-08-27T17:00:00,1710A,116.3611,23.5626,揭阳市,东兴,,29,25,34,12,13,91,90,86,86,4,9,4,6,0.6,0.7
2022-08-27T17:00:00,1711A,116.4151,23.5294,揭阳市,渔湖,,41,41,30,18,14,103,103,94,94,5,6,4,5,0.4,0.5
2022-08-27T17:00:00,1712A,112.0392,22.9169,云浮市,新市府(对照点),,,,,,,,,,,,,,,,
2022-08-27T17:00:00,1713A,112.0369,22.9394,云浮市,市监测站,,,,,,,,,,,,,,,,
2022-08-27T17:00:00,1714A,112.0539,22.9539,云浮市,牧羊,,,,31,,15,95,76,66,66,,15,14,12,0.4,0.6
2022-08-27T17:00:00,1715A,102.575,24.3711,玉溪市,东风水库,,,,8,2,4,59,58,54,54,6,6,4,4,0.5,0.6
2022-08-27T17:00:00,1718A,115.4208,35.2464,菏泽市,气象局,颗粒物(PM10),54,58,52,19,24,139,134,97,97,16,20,7,7,0.4,0.5
2022-08-27T17:00:00,1719A,115.4747,35.2375,菏泽市,市政协,,43,41,54,13,17,148,136,103,103,13,18,7,7,0.2,0.3
2022-08-27T17:00:00,1720A,115.455,35.27,菏泽市,菏泽学院,,,,,,,,,,,,,,,,
2022-08-27T17:00:00,1721A,113.3819,40.1097,大同市,果树场(对照点),,,,,,,,,,,,,,,,
2022-08-27T17:00:00,1723A,113.2994,40.0758,大同市,云冈宾馆,,31,31,36,3,7,76,66,63,63,22,22,8,18,0.5,0.8
2022-08-27T17:00:00,1724A,113.3444,40.0917,大同市,大同大学,,23,8,29,1,3,80,73,67,67,8,15,7,21,0.3,0.5
2022-08-27T17:00:00,1725A,113.2661,40.1269,大同市,安家小村,,27,27,37,6,8,86,84,73,73,11,21,22,18,0.3,0.6
2022-08-27T17:00:00,1726A,113.2711,40.0844,大同市,教育学院,,25,25,37,11,15,76,70,62,62,14,23,6,15,0.4,0.8
2022-08-27T17:00:00,1727A,113.1147,36.1547,长治市,清华站,,17,17,33,2,13,168,53,129,52,19,15,9,9,0.7,0.8
2022-08-27T17:00:00,1728A,113.1031,36.1989,长治市,监测站,,21,18,29,0,12,176,65,136,57,13,12,8,9,0.3,0.5
2022-08-27T17:00:00,1730A,113.0886,36.2125,长治市,审计局,,22,9,23,0,12,191,70,145,62,8,8,10,9,0.6,0.8
2022-08-27T17:00:00,1731A,113.0844,36.1856,长治市,长治八中,,21,21,33,4,17,165,66,129,54,13,17,10,11,0.5,0.7
2022-08-27T17:00:00,1733A,111.5531,36.0783,临汾市,临钢医院,,18,18,51,6,41,154,55,61,57,23,24,4,3,0.4,1.3
2022-08-27T17:00:00,1734A,111.5028,36.0714,临汾市,技工学校,,22,2,52,10,37,158,69,72,71,14,22,3,4,0.5,1.3
2022-08-27T17:00:00,1735A,111.5169,36.0822,临汾市,工商学校,,,,,,,,,,,,,,,,
2022-08-27T17:00:00,1736A,111.5018,36.0855,临汾市,市委,,19,14,56,6,50,153,60,70,67,19,19,3,5,0.4,1.2
2022-08-27T17:00:00,1738A,113.5758,37.8572,阳泉市,市中心,,18,12,36,8,12,73,56,69,57,17,22,11,13,0.4,0.6
2022-08-27T17:00:00,1739A,113.4894,37.8731,阳泉市,赛鱼,,21,21,25,6,16,67,53,60,60,22,28,17,13,0.5,0.6
2022-08-27T17:00:00,1740A,113.5819,37.8486,阳泉市,南庄,,20,14,28,10,19,93,64,76,65,14,20,10,14,0.6,0.8
2022-08-27T17:00:00,1741A,113.6292,37.8531,阳泉市,白羊墅,,,,,,,,,,,,,,,,
2022-08-27T17:00:00,1742A,113.5614,37.8703,阳泉市,平坦,,21,16,41,3,7,88,65,88,65,18,24,10,16,0.7,0.7
2022-08-27T17:00:00,1743A,113.5158,37.8392,阳泉市,大阳泉,,23,8,16,16,17,93,58,80,63,11,18,8,13,0.5,0.6
2022-08-27T17:00:00,1744A,118.9233,42.2816,赤峰市,松山一中,,17,4,17,2,5,58,53,56,56,20,17,10,10,0.3,0.2
2022-08-27T17:00:00,1745A,118.9576,42.2728,赤峰市,哈达街,,19,5,9,5,4,64,60,56,56,16,15,9,8,0.2,0.2
2022-08-27T17:00:00,1746A,118.8788,42.2554,赤峰市,天义路,,20,5,11,2,3,63,63,55,55,14,15,10,10,0.3,0.3
2022-08-27T17:00:00,1748A,123.044,41.1196,鞍山市,深沟寺,,22,14,23,7,11,70,70,58,58,4,22,6,22,0.3,1.6
2022-08-27T17:00:00,1749A,123.011,41.0931,鞍山市,太阳城,,20,16,22,6,10,64,64,52,52,9,21,10,18,0.8,1.3
2022-08-27T17:00:00,1750A,123.0485,41.1442,鞍山市,太平,,21,12,27,4,11,66,65,55,55,8,21,6,23,0.4,0.9
2022-08-27T17:00:00,1751A,122.9642,41.0971,鞍山市,铁西三道街,,22,17,31,2,11,69,69,58,58,7,24,9,16,0.5,0.9
2022-08-27T17:00:00,1752A,122.9341,41.0833,鞍山市,铁西工业园区,,22,21,35,4,12,69,69,59,59,8,25,13,17,0.4,0.8
2022-08-27T17:00:00,1753A,123.022,41.0821,鞍山市,明达新区,,20,16,23,7,11,64,64,48,48,8,23,8,16,0.6,1
2022-08-27T17:00:00,1754A,123.1289,41.0228,鞍山市,千山(对照点),,,,,,,,,,,,,,,,
2022-08-27T17:00:00,1755A,123.7977,41.8491,抚顺市,望花区,,21,21,22,4,9,65,64,54,54,6,21,4,9,0.3,0.5
2022-08-27T17:00:00,1756A,123.9161,41.8822,抚顺市,顺城区,,20,16,24,4,12,65,62,55,55,12,20,7,7,0.5,0.6
2022-08-27T17:00:00,1757A,124.0436,41.8611,抚顺市,东洲区,,19,11,33,6,15,65,60,53,53,13,23,7,9,0.5,0.8
2022-08-27T17:00:00,1758A,123.9247,41.8642,抚顺市,新抚区,,26,26,28,4,12,66,64,56,56,12,24,10,9,0.3,0.5
2022-08-27T17:00:00,1759A,124.0972,41.8961,抚顺市,大伙房水库,,19,19,23,3,9,62,60,52,52,8,18,6,7,0.3,0.4
2022-08-27T17:00:00,1760A,123.7086,41.8391,抚顺市,沈抚新城,,20,6,22,3,8,67,63,55,55,5,18,5,6,0.2,0.3
2022-08-27T17:00:00,1761A,123.8275,41.3064,本溪市,大峪,,25,13,23,5,10,82,79,63,63,11,19,7,10,0.5,1.3
2022-08-27T17:00:00,1762A,123.7567,41.3325,本溪市,溪湖,,26,20,31,6,11,84,83,66,66,6,13,9,11,0.5,0.7
2022-08-27T17:00:00,1763A,123.7169,41.3094,本溪市,彩屯,,26,21,37,5,18,81,81,63,63,6,15,8,11,0.4,0.7
2022-08-27T17:00:00,1764A,123.7669,41.2864,本溪市,东明,,26,12,47,12,20,82,82,61,61,6,27,8,28,0.3,1.9
2022-08-27T17:00:00,1765A,123.7992,41.2664,本溪市,新立屯,,22,16,33,11,15,82,70,60,60,10,21,6,15,0.5,1.5
2022-08-27T17:00:00,1766A,123.8142,41.3472,本溪市,威宁,,24,19,23,5,8,79,74,60,60,7,13,7,8,0.4,0.9
2022-08-27T17:00:00,1767A,121.1115,41.0879,锦州市,南山,,21,21,22,1,9,65,65,60,60,4,10,5,10,0.2,0.4
2022-08-27T17:00:00,1768A,121.0533,40.8434,锦州市,开发区,,30,30,46,2,14,77,77,66,66,13,27,8,16,0.4,0.6
2022-08-27T17:00:00,1769A,121.1836,41.1119,锦州市,百股街道,,21,15,27,2,10,70,67,65,65,8,16,5,5,0.2,0.4
2022-08-27T17:00:00,1770A,121.1178,41.1222,锦州市,天安街道,,20,16,20,3,8,67,63,62,62,10,11,6,10,0.7,0.6
2022-08-27T17:00:00,1771A,121.1303,41.1386,锦州市,北湖公园,,36,36,19,5,6,65,64,65,64,8,11,6,11,0.3,0.3
2022-08-27T17:00:00,1772A,126.54,43.8622,吉林市,哈达湾,,18,7,12,2,6,57,57,46,40,7,15,5,7,0.5,0.6
2022-08-27T17:00:00,1773A,126.5844,43.8358,吉林市,东局子,,16,10,13,5,6,54,51,46,36,10,14,6,7,0.5,0.6
2022-08-27T17:00:00,1774A,126.5052,43.8245,吉林市,电力学院,,19,8,12,6,7,59,58,42,42,5,14,7,8,0.4,0.4
2022-08-27T17:00:00,1775A,126.6133,43.8972,吉林市,江北,,,,14,,6,29,,36,,,12,,7,,0.5
2022-08-27T17:00:00,1776A,126.555,43.8306,吉林市,江南公园,,18,10,12,7,7,56,56,42,39,9,16,4,5,0.6,0.6
2022-08-27T17:00:00,1778A,126.7061,43.7133,吉林市,丰满(对照点),,,,,,,,,,,,,,,,
2022-08-27T17:00:00,1779A,123.9305,47.3636,齐齐哈尔市,安居小区,,15,5,14,2,7,45,45,42,42,9,9,5,5,0.4,0.5
2022-08-27T17:00:00,1780A,123.9488,47.3386,齐齐哈尔市,中心广场,,14,8,12,2,3,44,44,42,42,8,8,3,3,0.3,0.3
2022-08-27T17:00:00,1781A,123.9483,47.3227,齐齐哈尔市,农牧车辆厂,,19,19,16,2,4,45,45,42,42,5,7,3,3,0.3,0.3
2022-08-27T17:00:00,1783A,123.945,47.2988,齐齐哈尔市,市环境监测站,,,10,12,2,5,49,48,45,45,6,8,,1,0.3,0.4
2022-08-27T17:00:00,1784A,129.61,44.561,牡丹江市,环保大楼,,18,18,13,5,8,45,42,33,33,8,12,5,5,0.3,0.3
2022-08-27T17:00:00,1785A,129.6115,44.5782,牡丹江市,文化广场,,14,14,18,9,11,43,41,32,29,11,16,2,2,0.3,0.4
2022-08-27T17:00:00,1786A,129.5904,44.5963,牡丹江市,第一医院,,15,11,12,10,8,42,41,31,31,7,11,4,4,0.5,0.5
2022-08-27T17:00:00,1787A,129.6364,44.6075,牡丹江市,机车工厂,,23,23,20,8,8,49,34,30,27,17,14,5,6,0.2,0.3
2022-08-27T17:00:00,1788A,129.6386,44.5462,牡丹江市,第一中学,,17,17,15,9,9,47,47,36,36,6,12,4,4,0.3,0.3
2022-08-27T17:00:00,1789A,124.81117,46.03138,大庆市,大同区,,,10,8,,4,54,48,49,49,1,3,4,4,0.2,0.2
2022-08-27T17:00:00,1790A,125.129,46.533,大庆市,龙凤区,,19,19,14,7,10,60,57,55,55,4,4,2,3,0.3,0.3
2022-08-27T17:00:00,1791A,124.902,46.408,大庆市,红岗区,,19,10,8,4,7,60,59,54,54,2,3,3,3,0.3,0.3
2022-08-27T17:00:00,1792A,125.153,46.586,大庆市,萨尔图区,,16,4,10,4,3,52,51,49,49,3,4,5,5,0.0,0.1
2022-08-27T17:00:00,1793A,124.9042,46.6215,大庆市,让胡路区,,17,8,8,8,7,60,53,50,50,3,3,1,3,0.4,0.5
2022-08-27T17:00:00,1794A,118.3606,31.3519,芜湖市,监测站,,36,33,37,25,30,168,90,97,97,21,22,5,5,0.6,0.8
2022-08-27T17:00:00,1795A,118.3714,31.4134,芜湖市,科创中心,,33,30,38,23,30,172,94,105,104,19,20,6,6,0.7,1
2022-08-27T17:00:00,1796A,118.3673,31.3131,芜湖市,四水厂,,37,37,36,24,29,173,93,106,101,17,17,4,4,0.7,0.8
2022-08-27T17:00:00,1797A,118.4022,31.3839,芜湖市,济民医院(对照点),,,,,,,,,,,,,,,,
2022-08-27T17:00:00,1798A,118.5092,31.6837,马鞍山市,湖东路四小,,42,42,38,28,27,147,95,98,98,20,19,4,5,0.8,0.8
2022-08-27T17:00:00,1799A,118.5024,31.6449,马鞍山市,开发区,细颗粒物(PM2.5),58,53,41,41,37,158,105,105,105,16,17,5,7,0.8,0.8
2022-08-27T17:00:00,1800A,118.5228,31.7231,马鞍山市,慈湖,,,41,46,30,36,138,97,93,93,,23,6,9,0.8,0.8
2022-08-27T17:00:00,1801A,118.48,31.6928,马鞍山市,马钢动力厂,,,,,,,,,,,,,,,,
2022-08-27T17:00:00,1802A,118.6245,31.7241,马鞍山市,濮塘(对照点),细颗粒物(PM2.5),52,51,43,36,28,149,65,82,78,16,15,3,4,0.7,0.7
2022-08-27T17:00:00,1803A,115.9872,29.6815,九江市,十里,,,32,41,21,31,142,128,120,120,,24,8,9,0.8,0.9
2022-08-27T17:00:00,1804A,115.9584,29.7046,九江市,茅山头,,38,36,40,24,29,144,120,110,110,9,14,4,5,1.0,1
2022-08-27T17:00:00,1805A,115.9877,29.7295,九江市,西园,,39,33,45,17,23,129,123,112,112,11,20,10,11,0.9,0.9
2022-08-27T17:00:00,1806A,116.0172,29.6547,九江市,五七二七厂,,42,42,35,24,23,124,123,111,111,8,12,4,5,0.7,0.9
2022-08-27T17:00:00,1808A,115.9114,29.6038,九江市,综合工业园,,39,33,47,22,26,139,124,123,123,7,17,4,5,0.8,0.9
2022-08-27T17:00:00,1809A,116.0721,29.7535,九江市,石化总厂,,40,29,44,9,25,127,127,110,110,12,15,5,7,1.0,1
2022-08-27T17:00:00,1810A,115.9773,29.5698,九江市,庐山气象台(对照点),,35,10,14,12,10,140,110,97,97,6,5,8,10,0.6,0.5
2022-08-27T17:00:00,1811A,112.3628,34.6692,洛阳市,中信二小,,,,,,,,,,,,,,,,
2022-08-27T17:00:00,1812A,112.3931,34.6516,洛阳市,市委党校,,23,23,16,5,6,70,45,66,55,19,10,4,4,0.5,0.6
2022-08-27T17:00:00,1814A,112.4657,34.6871,洛阳市,豫西宾馆,,28,28,18,13,10,62,37,56,45,25,15,6,5,0.2,0.2
2022-08-27T17:00:00,1815A,112.494,34.6886,洛阳市,河南林校,,15,15,13,7,7,56,35,50,44,19,10,3,3,0.3,0.4
2022-08-27T17:00:00,1816A,112.3844,34.623,洛阳市,开发区管委会,,19,19,14,10,9,72,32,65,45,18,10,3,3,0.2,0.3
2022-08-27T17:00:00,1817A,112.4267,34.6258,洛阳市,市委新办公区,,22,22,15,8,8,62,33,58,44,17,10,4,4,0.4,0.5
2022-08-27T17:00:00,1818A,114.4839,36.0621,安阳市,棉研所(对照点),,,,,,,,,,,,,,,,
2022-08-27T17:00:00,1819A,114.3551,36.1017,安阳市,红庙街,,31,26,43,4,12,178,98,81,73,19,23,5,7,0.3,0.6
2022-08-27T17:00:00,1820A,114.361,36.0681,安阳市,银杏小区,,34,34,46,6,7,167,97,81,74,16,22,4,6,0.1,0.4
2022-08-27T17:00:00,1824A,114.3389,34.7781,开封市,肿瘤医院,,42,42,37,13,16,78,53,49,49,21,24,10,6,0.3,0.2
2022-08-27T17:00:00,1826A,114.2885,34.7965,开封市,世纪星幼儿园,,48,48,38,10,12,80,52,46,46,22,24,12,8,0.5,0.5
2022-08-27T17:00:00,1828A,113.227,35.2125,焦作市,市环保局,,35,35,38,9,9,78,31,52,31,20,17,12,6,0.5,0.4
2022-08-27T17:00:00,1829A,113.2464,35.1764,焦作市,高新区政府（停运20220628）,,,,,,,,,,,,,,,,
2022-08-27T17:00:00,1830A,113.1992,35.2590,焦作市,影视城(对照点),,,,,,,,,,,,,,,,
2022-08-27T17:00:00,1832A,113.3257,33.742,平顶山市,新华旅馆,,23,23,23,3,11,90,66,73,63,14,14,3,2,0.3,0.2
2022-08-27T17:00:00,1833A,113.2919,33.737,平顶山市,规划设计院,,25,25,23,5,8,86,61,69,60,8,8,1,2,0.3,0.4
2022-08-27T17:00:00,1834A,113.182,33.774,平顶山市,平顶山工学院,,20,20,20,7,11,89,52,78,57,20,16,4,4,0.2,0.3
2022-08-27T17:00:00,1835A,111.1922,34.7752,三门峡市,市政府,,22,7,19,7,17,83,68,65,62,8,20,4,4,0.3,0.6
2022-08-27T17:00:00,1836A,111.1587,34.7942,三门峡市,开发区,,23,3,22,8,18,88,73,69,66,9,14,2,3,0.2,0.4
2022-08-27T17:00:00,1838A,111.143,34.7955,三门峡市,风景区(对照点),,,,,,,,,,,,,,,,
2022-08-27T17:00:00,1839A,111.3009,30.7157,宜昌市,四零三,,,,,,,,,,,,,,,,
2022-08-27T17:00:00,1840A,111.2992,30.6981,宜昌市,白龙岗,,39,39,37,12,22,168,59,125,77,23,20,3,4,0.9,0.9
2022-08-27T17:00:00,1841A,111.3549,30.6465,宜昌市,伍家岗,,27,27,44,7,25,179,73,121,87,15,15,7,7,0.5,0.5
2022-08-27T17:00:00,1842A,111.2628,30.6961,宜昌市,点军区,,35,35,44,14,21,170,66,120,86,16,18,8,8,0.6,0.6
2022-08-27T17:00:00,1843A,111.3275,30.7819,宜昌市,夷陵区,,19,15,35,12,20,185,58,122,84,16,13,5,5,0.6,0.6
2022-08-27T17:00:00,1844A,112.2494,30.3197,荆州市,市图书馆,,25,17,48,17,29,141,79,74,74,8,13,8,9,0.7,0.8
2022-08-27T17:00:00,1845A,112.2008,30.3544,荆州市,市委党校,,30,30,51,5,28,136,72,68,68,10,14,9,9,0.7,0.9
2022-08-27T17:00:00,1847A,113.1094,29.3578,岳阳市,南湖风景区,,35,8,20,18,18,128,111,111,111,5,14,5,5,0.4,0.4
2022-08-27T17:00:00,1848A,113.1493,29.4251,岳阳市,城陵矶,,35,6,24,7,16,116,112,106,106,12,18,7,7,0.5,0.4
2022-08-27T17:00:00,1849A,113.1497,29.3575,岳阳市,开发区,,34,12,22,15,16,131,108,111,111,6,16,6,9,0.4,0.5
2022-08-27T17:00:00,1850A,113.2621,29.4758,岳阳市,云溪区,,40,14,21,5,12,128,128,114,114,10,10,6,6,0.7,0.6
2022-08-27T17:00:00,1851A,112.9943,29.4402,岳阳市,君山区,,39,10,25,6,15,135,124,116,116,10,19,4,6,0.6,0.6
2022-08-27T17:00:00,1852A,113.2117,29.355,岳阳市,金凤水库(对照点),,33,17,21,6,12,116,104,102,102,5,15,3,5,0.4,0.4
2022-08-27T17:00:00,1854A,111.6975,28.9703,常德市,市二中,,31,8,26,5,15,136,97,85,85,11,12,6,8,0.4,0.5
2022-08-27T17:00:00,1857A,111.7158,29.1456,常德市,白鹤山(对照点),,,,30,5,16,149,108,85,85,3,5,3,8,0.4,0.4
2022-08-27T17:00:00,1858A,110.5319,29.1217,张家界市,永定新区,,23,5,21,4,7,98,73,74,74,2,12,2,2,0.2,0.2
2022-08-27T17:00:00,1859A,110.4697,29.1242,张家界市,电业局,,23,2,16,3,8,102,71,78,78,1,9,4,4,0,0.1
2022-08-27T17:00:00,1860A,110.5594,29.3547,张家界市,未央路,,,6,13,3,8,94,65,67,67,3,10,,3,,0.1
2022-08-27T17:00:00,1861A,110.4417,29.315,张家界市,袁家界(对照点),,26,11,13,11,6,101,82,84,82,8,6,7,8,0.5,0.5
2022-08-27T17:00:00,1862A,110.4144,25.3167,桂林市,电子科大尧山校区(对照点),,27,17,16,12,8,96,84,71,71,4,8,7,8,0.4,0.5
2022-08-27T17:00:00,1863A,110.2819,25.2697,桂林市,监测站,,25,23,15,12,11,86,79,73,73,6,9,6,7,0.3,0.4
2022-08-27T17:00:00,1864A,110.3089,25.2708,桂林市,龙隐路小学,,24,15,15,6,8,86,75,71,71,5,9,6,12,0.5,0.5
2022-08-27T17:00:00,1865A,110.2869,25.2178,桂林市,八中,,34,34,17,7,8,81,70,65,65,5,10,6,6,0.2,0.3
2022-08-27T17:00:00,1866A,109.2262,21.588,北海市,牛尾岭水库(对照点),,21,21,19,9,8,60,60,46,46,4,9,4,6,0.5,0.6
2022-08-27T17:00:00,1867A,109.1436,21.4086,北海市,海滩公园,,30,30,26,7,6,86,83,63,63,3,5,4,4,0.5,0.5
2022-08-27T17:00:00,1868A,109.0981,21.4661,北海市,新市环保局,,21,12,18,5,8,70,66,56,56,4,8,4,4,0.5,0.6
2022-08-27T17:00:00,1869A,109.1778,21.5233,北海市,北海工业园,,22,22,22,7,11,70,68,52,52,6,13,5,6,0.5,0.6
2022-08-27T17:00:00,1870A,109.4856,24.3895,柳州市,柳东小学,,30,19,18,10,14,101,95,74,74,5,10,4,5,0.7,0.7
2022-08-27T17:00:00,1871A,109.4157,24.3277,柳州市,环保监测站,,32,17,18,9,12,102,102,69,69,9,14,5,6,0.7,0.7
2022-08-27T17:00:00,1872A,109.389,24.341,柳州市,河西水厂,,31,20,28,8,16,98,98,65,65,9,18,9,11,0.6,0.9
2022-08-27T17:00:00,1873A,109.4311,24.2921,柳州市,市四中,,28,26,20,5,6,100,88,68,68,5,11,6,6,0.7,0.8
2022-08-27T17:00:00,1874A,109.4006,24.3631,柳州市,市九中,,32,25,25,10,11,100,100,70,70,7,12,6,7,0.6,0.7
2022-08-27T17:00:00,1875A,109.4958,24.3134,柳州市,古亭山,,24,13,17,12,7,90,76,64,64,6,13,5,5,0.6,0.6
2022-08-27T17:00:00,1876A,109.5078,18.2489,三亚市,河东子站,,15,13,16,6,6,68,46,53,53,3,4,1,1,0.4,0.4
2022-08-27T17:00:00,1877A,109.4964,18.2681,三亚市,河西子站,,16,11,15,9,7,71,50,56,56,2,3,1,1,0.4,0.5
2022-08-27T17:00:00,1878A,104.7778,31.4741,绵阳市,富乐山,,45,27,23,22,16,147,144,120,120,9,9,2,2,0.5,0.5
2022-08-27T17:00:00,1879A,104.7563,31.4535,绵阳市,市人大,,,40,28,26,19,141,132,117,117,7,12,5,4,,0.6
2022-08-27T17:00:00,1880A,104.6697,31.4668,绵阳市,高新区自来水公司,,48,47,33,33,21,156,148,119,119,8,13,6,5,0.5,0.6
2022-08-27T17:00:00,1881A,104.7287,31.5075,绵阳市,三水厂,,41,21,20,25,21,136,131,106,106,21,19,2,1,0.5,0.6
2022-08-27T17:00:00,1882A,104.563,28.793,宜宾市,石马中学(对照点),臭氧1小时,55,35,39,24,26,164,164,136,136,8,19,5,7,0.6,0.7
2022-08-27T17:00:00,1883A,104.6201,28.7728,宜宾市,市委,,46,30,37,22,26,147,147,123,123,17,27,8,9,0.6,0.7
2022-08-27T17:00:00,1884A,104.6055,28.793,宜宾市,宜宾四中,臭氧1小时,73,33,39,20,27,178,178,146,146,9,21,9,12,0.5,0.5
2022-08-27T17:00:00,1885A,104.639,28.7562,宜宾市,市政府,臭氧1小时,65,47,42,21,23,172,172,144,144,14,23,10,8,0.6,0.6
2022-08-27T17:00:00,1886A,104.5742,28.7199,宜宾市,黄金嘴,臭氧1小时,64,36,36,22,23,171,171,146,146,10,17,6,8,0.5,0.6
2022-08-27T17:00:00,1888A,101.6891,26.571,攀枝花市,弄弄坪,,32,32,51,10,14,118,85,67,67,12,18,10,10,1.0,1.1
2022-08-27T17:00:00,1889A,101.5769,26.5928,攀枝花市,河门口,,27,20,25,9,15,129,85,62,62,13,17,17,13,1.0,1.2
2022-08-27T17:00:00,1890A,101.7169,26.585,攀枝花市,炳草岗,,28,25,30,8,18,117,88,66,66,8,26,15,14,0.7,0.9
2022-08-27T17:00:00,1891A,101.7369,26.5008,攀枝花市,仁和,,24,12,16,6,11,137,74,66,66,6,9,5,5,1.0,1
2022-08-27T17:00:00,1893A,105.4324,28.9634,泸州市,九狮山(对照点),,37,9,18,7,11,117,117,94,94,17,20,5,6,0.3,0.3
2022-08-27T17:00:00,1894A,105.4427,28.9063,泸州市,小市上码头,,40,13,14,7,7,126,126,98,98,8,11,6,7,0.6,0.6
2022-08-27T17:00:00,1895A,105.4241,28.8573,泸州市,兰田宪桥,,40,13,14,0,5,127,127,101,101,7,10,4,4,0.4,0.5
2022-08-27T17:00:00,1896A,105.4379,28.8833,泸州市,市环监站,,36,8,13,8,8,115,115,89,89,5,6,5,4,0.4,0.3
2022-08-27T17:00:00,1897A,104.7547,29.3628,自贡市,大塘山(对照点),,,,,,,,,,,,,,,,
2022-08-27T17:00:00,1900A,104.7692,29.3411,自贡市,春华路,,,,,,,,,,,,,,,,
2022-08-27T17:00:00,1901A,104.4239,31.1208,德阳市,东山公园,,42,33,30,17,13,162,133,115,115,7,10,4,3,0.6,0.6
2022-08-27T17:00:00,1902A,104.3826,31.1317,德阳市,西小区,,42,42,36,16,12,150,116,106,106,8,14,7,6,0.6,0.6
2022-08-27T17:00:00,1903A,104.4053,31.1167,德阳市,市检察院,,,,,,,,,,,,,,,,
2022-08-27T17:00:00,1904A,104.3553,31.1091,德阳市,耐火材料厂,颗粒物(PM10),52,53,37,16,12,155,115,98,98,8,14,4,4,0.7,0.7
2022-08-27T17:00:00,1905A,106.056,30.8064,南充市,西山风景区(对照点),,33,15,27,14,24,112,105,92,90,6,11,1,2,0.7,0.8
2022-08-27T17:00:00,1906A,106.0789,30.8023,南充市,南充市委,,40,22,34,5,19,128,128,111,111,10,10,3,3,0.3,0.5
2022-08-27T17:00:00,1907A,106.1031,30.8217,南充市,南充炼油厂,,42,12,41,1,25,142,132,107,107,6,10,6,6,0.2,0.4
2022-08-27T17:00:00,1908A,106.1064,30.7856,南充市,高坪区监测站,,37,14,32,4,20,123,117,97,97,8,8,2,2,0.3,0.4
2022-08-27T17:00:00,1909A,106.0642,30.7636,南充市,嘉陵区环保局,,35,18,32,4,22,111,111,95,95,3,4,5,5,0.3,0.4
2022-08-27T17:00:00,1910A,106.1087,30.8388,南充市,市环境监测站,,35,14,37,11,29,125,111,98,98,14,8,5,4,0.2,0.4
2022-08-27T17:00:00,1911A,106.9222,27.6869,遵义市,丁字口,,29,17,17,6,12,95,90,81,81,7,5,6,6,0.5,0.5
2022-08-27T17:00:00,1912A,106.9242,27.7019,遵义市,凤凰山,,29,17,16,7,12,93,92,80,80,7,7,1,3,0.5,0.5
2022-08-27T17:00:00,1913A,106.8906,27.6486,遵义市,忠庄,,27,12,14,5,7,88,85,74,74,8,9,1,2,0.3,0.3
2022-08-27T17:00:00,1914A,106.9231,27.6506,遵义市,舟水桥,,29,16,17,5,8,93,91,80,80,6,7,2,2,0.3,0.3
2022-08-27T17:00:00,1915A,106.9178,27.72,遵义市,干田坝,,29,17,12,6,8,93,90,79,79,7,6,5,5,0.6,0.6
2022-08-27T17:00:00,1916A,103.7897,25.5035,曲靖市,环境监测站,,23,8,18,11,15,73,72,66,66,4,7,2,7,0.5,0.7
2022-08-27T17:00:00,1917A,103.8,25.5364,曲靖市,烟厂办公区,,,,16,,7,48,,53,,,9,,9,,0.7
2022-08-27T17:00:00,1918A,108.7197,34.3956,咸阳市,气象站(对照点),,21,12,43,5,14,72,67,70,69,10,20,5,5,0.8,1
2022-08-27T17:00:00,1919A,108.673,34.3155,咸阳市,实验中学,,20,18,22,7,17,70,64,67,67,14,17,4,4,0.5,0.7
2022-08-27T17:00:00,1920A,108.7233,34.3617,咸阳市,师范学院,,23,23,27,5,15,71,65,67,67,7,14,5,5,0.6,0.8
2022-08-27T17:00:00,1922A,109.0656,35.0994,铜川市,党校(对照点),,18,5,17,6,9,76,56,70,64,16,24,5,4,0.7,0.7
2022-08-27T17:00:00,1923A,109.0697,35.0697,铜川市,王益区政府,,24,1,16,4,10,93,75,87,82,5,11,4,4,0.6,0.7
2022-08-27T17:00:00,1924A,108.9344,34.9058,铜川市,新区管委会,,19,12,23,9,14,85,60,79,75,20,20,4,6,0.5,0.5
2022-08-27T17:00:00,1925A,108.9589,34.8731,铜川市,新区兰芝公司,,,,,,,,,,,,,,,,
2022-08-27T17:00:00,1926A,109.4131,36.6275,延安市,枣园(对照点),,27,13,28,9,12,121,86,71,71,8,22,3,4,0.8,0.6
2022-08-27T17:00:00,1927A,109.4761,36.6028,延安市,延大医附院,,27,11,29,8,15,121,84,76,76,8,25,4,4,0.5,0.4
2022-08-27T17:00:00,1928A,109.4824,36.5767,延安市,市监测站,,,,,,,,,,,,,,,,
2022-08-27T17:00:00,1929A,109.5056,36.6106,延安市,百米大道,,24,11,40,12,15,110,75,76,76,17,28,4,5,0.7,0.6
2022-08-27T17:00:00,1930A,107.185,34.3063,宝鸡市,庙沟村(对照点),,17,17,16,10,10,78,50,73,65,11,7,4,4,0.4,0.4
2022-08-27T17:00:00,1931A,107.0708,34.3017,宝鸡市,竹园沟,,22,21,19,9,10,91,68,83,79,15,12,6,5,0.5,0.5
2022-08-27T17:00:00,1932A,107.1906,34.3672,宝鸡市,三陆医院,,20,16,23,11,14,76,64,70,69,17,15,4,4,0.6,0.6
2022-08-27T17:00:00,1933A,107.1431,34.3547,宝鸡市,监测站,,20,16,21,11,16,80,62,71,70,22,17,6,6,0.6,0.6
2022-08-27T17:00:00,1934A,107.1186,34.3739,宝鸡市,技工学校,,21,17,22,10,16,77,67,72,71,18,17,4,4,0.4,0.5
2022-08-27T17:00:00,1935A,107.3906,34.3528,宝鸡市,陈仓区环保局家属楼,,19,9,24,10,15,74,59,63,63,18,16,5,5,0.5,0.6
2022-08-27T17:00:00,1936A,107.2058,34.3497,宝鸡市,文理学院,,23,23,24,10,14,85,65,75,75,21,16,5,5,0.5,0.5
2022-08-27T17:00:00,1937A,107.2386,34.3622,宝鸡市,三迪小学,,25,25,26,10,15,70,60,64,63,20,18,5,5,0.5,0.5
2022-08-27T17:00:00,1938A,109.5293,34.5101,渭南市,农科所(对照点),,,,,,,,,,,,,,,,
2022-08-27T17:00:00,1939A,109.4974,34.4877,渭南市,日报社,,27,27,20,9,15,94,75,80,79,10,18,9,8,0.3,0.5
2022-08-27T17:00:00,1940A,109.4636,34.493,渭南市,体育馆,,31,31,17,9,15,94,76,80,79,11,14,6,5,0.3,0.5
2022-08-27T17:00:00,1941A,109.4259,34.5023,渭南市,高新一小,,30,30,24,4,14,85,73,75,75,10,11,6,5,0.2,0.4
2022-08-27T17:00:00,1943A,102.1725,38.5339,金昌市,新川苑,,27,27,81,18,27,89,60,79,59,15,18,7,7,0.7,0.7
2022-08-27T17:00:00,1944A,102.1692,38.5167,金昌市,天庆家园,,24,24,72,6,17,102,67,86,68,11,15,5,7,0.7,0.7
2022-08-27T17:00:00,1945A,98.2908,39.7711,嘉峪关市,气象局,颗粒物(PM10),93,136,168,61,42,109,73,91,75,23,16,34,8,0.9,0.7
2022-08-27T17:00:00,1947A,106.3394,38.817,石嘴山市,沙湖旅游区(对照点),,46,46,43,14,11,105,51,41,41,18,30,8,17,0.4,1
2022-08-27T17:00:00,1948A,106.3668,39.0145,石嘴山市,大武口朝阳西街,颗粒物(PM10),60,69,29,12,10,110,35,47,46,42,24,30,19,2.7,1.1
2022-08-27T17:00:00,1949A,106.7704,39.2282,石嘴山市,惠农南大街,,47,47,27,10,9,80,52,55,42,36,24,23,10,0.7,0.2
2022-08-27T17:00:00,1950A,106.7099,39.1325,石嘴山市,红果子镇惠新街,,40,40,28,10,8,96,60,50,50,22,16,18,8,0.6,0.4
2022-08-27T17:00:00,1951A,84.895,45.6094,克拉玛依市,长征新村,,31,21,22,2,3,102,97,93,93,2,6,8,8,0.1,0.2
2022-08-27T17:00:00,1952A,84.8988,45.5893,克拉玛依市,南林小区,,30,9,20,8,9,106,95,92,84,7,14,5,5,0.1,0.1
2022-08-27T17:00:00,1953A,85.1186,45.6886,克拉玛依市,白碱滩区,,,,,,,,,,,,,,,,
2022-08-27T17:00:00,1954A,84.905,44.3396,克拉玛依市,独山子区,,31,23,32,19,16,116,99,101,88,4,12,7,8,0.3,0.3
2022-08-27T17:00:00,1955A,85.6979,46.098,克拉玛依市,乌尔禾区商贸楼,,33,13,34,7,8,106,103,89,89,2,5,5,4,0.2,0.1
2022-08-27T17:00:00,1956A,86.1472,41.7538,巴音郭楞州,孔雀公园,,31,30,45,12,18,98,98,91,85,5,7,3,3,0.2,0.3
2022-08-27T17:00:00,1957A,86.1972,41.7166,巴音郭楞州,棉纺厂,,30,11,49,15,24,95,95,77,76,3,8,4,4,0.2,0.3
2022-08-27T17:00:00,1958A,86.2357,41.7173,巴音郭楞州,经济开发区,,31,11,39,10,23,101,99,84,82,3,5,5,5,0.2,0.2
2022-08-27T17:00:00,1959A,118.746,36.881,寿光市,监测站,,,,,,,,,,,,,,,,
2022-08-27T17:00:00,1960A,118.780,36.864,寿光市,世纪学校,,,,,,,,,,,,,,,,
2022-08-27T17:00:00,1961A,117.532,36.6868,济南市,东山小学,,45,34,50,5,11,156,144,106,106,8,28,6,9,0.3,0.5
2022-08-27T17:00:00,1962A,117.541,36.710,章丘市,明水开发区,,,,,,,,,,,,,,,,
2022-08-27T17:00:00,1963A,120.610,36.440,即墨市,环保局子站,,,,,,,,,,,,,,,,
2022-08-27T17:00:00,1964A,120.470,36.390,即墨市,开发区子站,,,,,,,,,,,,,,,,
2022-08-27T17:00:00,1965A,120.005,35.878,胶南市,JN子站,,,,,,,,,,,,,,,,
2022-08-27T17:00:00,1966A,120.0405,35.8735,青岛市,黄岛区4号,,31,14,38,0,11,204,99,116,82,5,19,5,6,0.4,0.6
2022-08-27T17:00:00,1967A,120.008,36.283,胶州市,胶州环保局,,,,,,,,,,,,,,,,
2022-08-27T17:00:00,1968A,120.014,36.253,胶州市,胶州一中,,,,,,,,,,,,,,,,
2022-08-27T17:00:00,1969A,120.537,36.865,莱西市,环保局子站,,,,,,,,,,,,,,,,
2022-08-27T17:00:00,1970A,120.515,36.885,莱西市,人民广场子站,,,,,,,,,,,,,,,,
2022-08-27T17:00:00,1971A,119.952,36.792,平度市,1号,,,,,,,,,,,,,,,,
2022-08-27T17:00:00,1972A,119.976,36.799,平度市,2号,,,,,,,,,,,,,,,,
2022-08-27T17:00:00,1973A,120.747,37.825,蓬莱市,蓬莱环保局,,,,,,,,,,,,,,,,
2022-08-27T17:00:00,1974A,120.773,37.809,蓬莱市,蓬莱博物馆,,,,,,,,,,,,,,,,
2022-08-27T17:00:00,1975A,120.399,37.374,招远市,招远环保局,,,,,,,,,,,,,,,,
2022-08-27T17:00:00,1976A,120.394,37.364,招远市,招远教育局,,,,,,,,,,,,,,,,
2022-08-27T17:00:00,1977A,119.941,37.177,莱州市,莱州环保局,,,,,,,,,,,,,,,,
2022-08-27T17:00:00,1978A,119.959,37.180,莱州市,莱州外经委,,,,,,,,,,,,,,,,
2022-08-27T17:00:00,1979A,122.471,37.154,荣成市,荣成市环保局办公楼,,,,,,,,,,,,,,,,
2022-08-27T17:00:00,1980A,122.410,37.161,荣成市,山东成山轮胎公司,,,,,,,,,,,,,,,,
2022-08-27T17:00:00,1981A,122.038,37.197,文登市,文登市环保局,,,,,,,,,,,,,,,,
2022-08-27T17:00:00,1982A,122.0693,37.2174,威海市,文登开发区,,23,9,29,0,9,182,71,69,67,8,11,4,5,0.4,0.6
2022-08-27T17:00:00,1983A,121.531,36.913,乳山市,乳山市环保局,,,,,,,,,,,,,,,,
2022-08-27T17:00:00,1984A,121.544,36.907,乳山市,乳山市气象局,,,,,,,,,,,,,,,,
2022-08-27T17:00:00,1985A,120.636,31.155,吴江市,吴江市环保局,,,,,,,,,,,,,,,,
2022-08-27T17:00:00,1986A,120.635,31.170,吴江市,教师进修学校,,,,,,,,,,,,,,,,
2022-08-27T17:00:00,1987A,120.658,31.172,吴江市,吴江开发区,,,,,,,,,,,,,,,,
2022-08-27T17:00:00,1988A,120.953,31.388,昆山市,昆山实验小学,,,,,,,,,,,,,,,,
2022-08-27T17:00:00,1989A,120.999,31.381,昆山市,震川中学,,,,,,,,,,,,,,,,
2022-08-27T17:00:00,1990A,120.758,31.670,常熟市,海虞子站,,,,,,,,,,,,,,,,
2022-08-27T17:00:00,1991A,120.721,31.671,常熟市,兴福子站,,,,,,,,,,,,,,,,
2022-08-27T17:00:00,1992A,120.734,31.656,常熟市,菱塘子站,,,,,,,,,,,,,,,,
2022-08-27T17:00:00,1993A,120.526,31.874,张家港市,张家港市监测站,,,,,,,,,,,,,,,,
2022-08-27T17:00:00,1994A,120.550,31.882,张家港市,城北小学,,,,,,,,,,,,,,,,
2022-08-27T17:00:00,1995A,121.115,31.453,太仓市,太仓市监测站,,,,,,,,,,,,,,,,
2022-08-27T17:00:00,1996A,121.140,31.422,太仓市,科教新城实小,,,,,,,,,,,,,,,,
2022-08-27T17:00:00,1997A,119.146,31.955,句容市,消防指挥中心,,,,,,,,,,,,,,,,
2022-08-27T17:00:00,1998A,119.180,31.955,句容市,房家坝,,,,,,,,,,,,,,,,
2022-08-27T17:00:00,1999A,120.268,31.920,江阴市,虹桥邮政,,,,,,,,,,,,,,,,
2022-08-27T17:00:00,2000A,120.237,31.909,江阴市,五星公园,,,,,,,,,,,,,,,,
2022-08-27T17:00:00,2001A,120.302,31.920,江阴市,第二实验小学,,,,,,,,,,,,,,,,
2022-08-27T17:00:00,2002A,119.818,31.354,宜兴市,宜兴市环保局,,,,,,,,,,,,,,,,
2022-08-27T17:00:00,2003A,119.794,31.371,宜兴市,宜园,,,,,,,,,,,,,,,,
2022-08-27T17:00:00,2004A,119.579,31.751,金坛市,金坛市环境监测站,,,,,,,,,,,,,,,,
2022-08-27T17:00:00,2005A,119.579,31.737,金坛市,金坛市自来水公司,,,,,,,,,,,,,,,,
2022-08-27T17:00:00,2006A,119.460,31.400,溧阳市,溧阳市东门子站,,,,,,,,,,,,,,,,
2022-08-27T17:00:00,2007A,119.438,31.317,溧阳市,燕山子站,,,,,,,,,,,,,,,,
2022-08-27T17:00:00,2008A,121.173,31.896,海门市,海门市监测站,,,,,,,,,,,,,,,,
2022-08-27T17:00:00,2009A,121.1518,31.89708,海门市,社会福利院,,,,,,,,,,,,,,,,
2022-08-27T17:00:00,2010A,119.7183,30.2366,临安市,市政府,,,,,,,,,,,,,,,,
2022-08-27T17:00:00,2011A,119.6942,30.2311,临安市,四中,,,,,,,,,,,,,,,,
2022-08-27T17:00:00,2012A,119.954,30.054,富阳市,监测站,,,,,,,,,,,,,,,,
2022-08-27T17:00:00,2013A,119.946,30.049,富阳市,富春二小,,,,,,,,,,,,,,,,
2022-08-27T17:00:00,2014A,120.091,29.305,义乌市,江东,,,,,,,,,,,,,,,,
2022-08-27T17:00:00,2015A,120.040,29.334,义乌市,北苑,,,,,,,,,,,,,,,,
2022-08-27T17:00:00,2016A,120.251,29.719,诸暨市,图书馆,,,,,,,,,,,,,,,,
2022-08-27T17:00:00,2017A,120.209,29.732,诸暨市,富林印务,,,,,,,,,,,,,,,,
2022-08-27T17:00:00,2018A,121.989,39.625,瓦房店市,抱龙山庄,,,,,,,,,,,,,,,,
2022-08-27T17:00:00,2019A,122.011,39.617,瓦房店市,东山公园,,,,,,,,,,,,,,,,
2022-08-27T17:00:00,2031A,113.1817,27.9958,株洲市,云田中学,,39,12,25,18,16,124,124,108,108,4,9,3,3,0.3,0.5
2022-08-27T17:00:00,2054A,114.1099,32.1059,信阳市,平桥分局,,29,24,43,14,25,121,92,91,90,12,11,7,7,0.8,0.8
2022-08-27T17:00:00,2064A,113.9956,32.1271,信阳市,南湾水厂,,25,24,37,12,24,117,80,81,79,10,10,6,7,0.5,0.6
2022-08-27T17:00:00,2065A,114.0775,32.1195,信阳市,市酿酒公司,,29,18,40,12,21,119,90,90,89,10,9,7,7,0.6,0.7
2022-08-27T17:00:00,2066A,114.0609,32.1399,信阳市,审计局,,28,16,35,17,16,117,89,88,87,6,6,9,9,0.5,0.7
2022-08-27T17:00:00,2067A,114.6613,33.6128,周口市,市环境监测站,,30,30,21,17,15,87,62,82,40,13,11,16,6,0.6,0.5
2022-08-27T17:00:00,2068A,114.6758,33.6347,周口市,周口师范,,32,32,24,15,14,85,60,78,40,15,12,14,5,0.7,0.7
2022-08-27T17:00:00,2069A,114.6546,33.5979,周口市,市运管处,,30,30,23,16,16,91,66,85,43,13,12,14,6,0.9,0.8
2022-08-27T17:00:00,2070A,114.6369,33.6406,周口市,川汇区环保局,,30,30,22,19,14,92,66,84,46,14,11,8,7,0.6,0.5
2022-08-27T17:00:00,2075A,117.6336,24.4674,漳州市,九湖(对照点),,,,,,,,,,,,,,,,
2022-08-27T17:00:00,2160A,112.85,35.5051,晋城市,自来水公司,,19,14,35,0,16,137,58,86,62,15,13,4,5,0.4,0.7
2022-08-27T17:00:00,2161A,112.8318,35.4936,晋城市,白云商贸,,18,13,30,0,15,124,57,71,58,13,15,1,3,0.2,0.3
2022-08-27T17:00:00,2162A,112.8508,35.4887,晋城市,市环保局,,20,15,33,5,22,132,63,65,62,11,13,5,6,0.5,0.6
2022-08-27T17:00:00,2163A,112.8676,35.4897,晋城市,技术学院,,,,27,2,18,,,,,,,,,0,0.5
2022-08-27T17:00:00,2164A,112.8271,35.4828,晋城市,泽州一中,,,,,,,,,,,,,,,,
2022-08-27T17:00:00,2165A,112.8453,35.546,晋城市,白马寺 (对照点),,,,,,,,,,,,,,,,
2022-08-27T17:00:00,2166A,112.4397,39.3522,朔州市,平朔,,44,44,61,21,18,82,62,58,58,22,24,11,12,0.5,0.4
2022-08-27T17:00:00,2167A,112.4575,39.3617,朔州市,朔唯,颗粒物(PM10),54,58,69,18,19,90,67,60,60,21,25,6,9,0.6,0.5
2022-08-27T17:00:00,2168A,112.4258,39.3197,朔州市,区政府,颗粒物(PM10),51,52,53,18,14,91,57,58,58,27,26,8,12,0.5,0.5
2022-08-27T17:00:00,2169A,112.4072,39.3278,朔州市,市环保局,颗粒物(PM10),74,97,59,19,12,84,50,54,54,32,25,7,10,0.5,0.5
2022-08-27T17:00:00,2170A,112.4272,39.3681,朔州市,市二中,颗粒物(PM10),55,59,80,17,20,83,69,55,55,18,29,6,8,0.5,0.5
2022-08-27T17:00:00,2171A,112.7532,37.6945,晋中市,锦纶小区,,19,18,22,5,8,103,58,81,65,19,21,10,10,0.2,0.3
2022-08-27T17:00:00,2173A,112.7249,37.7067,晋中市,南都小区,,18,18,22,5,8,78,56,71,63,18,23,10,11,0.2,0.3
2022-08-27T17:00:00,2174A,112.6991,37.6982,晋中市,榆次区政府,,17,16,23,7,13,75,54,68,60,16,22,10,10,0.3,0.4
2022-08-27T17:00:00,2175A,110.9956,35.0147,运城市,运城中学,,23,8,38,4,23,91,73,79,75,5,8,5,6,0.4,0.9
2022-08-27T17:00:00,2176A,111.0233,35.0611,运城市,禹都开发区,,,,,,,,,,,,,,,,
2022-08-27T17:00:00,2178A,110.9686,35.0303,运城市,地区技校,,26,16,28,3,20,96,83,86,81,5,9,5,6,0.4,0.8
2022-08-27T17:00:00,2179A,111.0414,35.1147,运城市,空港新区,,23,14,48,12,30,113,72,78,74,9,12,7,8,0.6,1
2022-08-27T17:00:00,2181A,112.7383,38.4519,忻州市,开发区,,,32,31,4,9,91,60,62,62,,20,10,11,0.6,0.5
2022-08-27T17:00:00,2182A,112.7003,38.4928,忻州市,会展中心,,29,29,29,15,8,88,66,61,61,14,21,9,12,0.5,0.4
2022-08-27T17:00:00,2183A,111.1406,37.5211,吕梁市,环保局,,33,33,60,16,14,104,69,66,66,28,33,6,7,0.5,0.5
2022-08-27T17:00:00,2185A,111.1297,37.5136,吕梁市,自来水公司,,26,26,56,14,13,100,74,70,70,22,25,8,9,0.5,0.4
2022-08-27T17:00:00,2186A,106.8288,39.6778,乌海市,聚英学校,,,,,,,,,,,,,,,,
2022-08-27T17:00:00,2187A,106.8174,39.6973,乌海市,市林业局,,31,22,38,14,13,97,97,75,52,6,22,5,7,0.5,0.5
2022-08-27T17:00:00,2188A,106.7907,39.6667,乌海市,中海勃湾学校,,29,24,34,6,11,92,92,78,52,15,29,8,12,0.3,0.5
2022-08-27T17:00:00,2191A,122.2532,43.6801,通辽市,艺术职业学校,,19,17,22,1,5,63,60,58,58,7,16,5,5,0.0,0.1
2022-08-27T17:00:00,2192A,119.7594,49.2261,呼伦贝尔市,区环保局,,25,25,27,14,17,64,64,54,54,6,10,5,5,0.3,0.3
2022-08-27T17:00:00,2194A,107.5936,40.916,巴彦淖尔市,秋林养殖基地(对照点),,,,,,,,,,,,,,,,
2022-08-27T17:00:00,2195A,107.4212,40.761,巴彦淖尔市,附二中,,42,42,48,23,21,73,37,32,32,18,22,5,7,0.6,0.5
2022-08-27T17:00:00,2196A,107.37,40.7372,巴彦淖尔市,市环保大楼,,,44,41,17,19,75,41,34,34,14,20,5,7,,0.7
2022-08-27T17:00:00,2197A,113.1306,40.9923,乌兰察布市,集宁新区,,35,35,26,15,11,77,71,67,67,8,12,11,10,0.2,0.3
2022-08-27T17:00:00,2200A,122.0392,46.0656,兴安盟,胜华新制药厂,,16,10,16,9,11,50,50,48,48,1,3,1,2,0.2,0.2
2022-08-27T17:00:00,2201A,121.9504,46.0741,兴安盟,科右前旗环保局,,18,17,8,12,15,53,53,50,50,2,4,4,3,0.1,0.1
2022-08-27T17:00:00,2202A,116.1042,43.9317,锡林郭勒盟,市环保监测站,,20,13,23,4,3,62,62,54,54,7,13,7,7,0.2,0.2
2022-08-27T17:00:00,2203A,116.0781,43.9311,锡林郭勒盟,市政府,,20,12,20,4,4,64,64,55,55,5,14,6,8,0.2,0.2
2022-08-27T17:00:00,2204A,105.6467,38.8363,阿拉善盟,西城区西花园(对照点),颗粒物(PM10),94,137,42,19,15,131,57,114,82,23,11,6,6,0.6,0.5
2022-08-27T17:00:00,2205A,105.6985,38.8411,阿拉善盟,蒙二幼,,45,45,33,19,22,135,74,116,93,15,9,10,10,0.3,0.2
2022-08-27T17:00:00,2206A,105.724,38.8516,阿拉善盟,环保局新楼,,23,22,20,13,13,129,72,112,90,16,11,10,9,0.4,0.3
2022-08-27T17:00:00,2207A,121.6094,41.998,阜新市,工业园区,,21,14,17,2,4,67,67,62,62,9,14,6,7,0.4,0.4
2022-08-27T17:00:00,2208A,121.6697,42.0279,阜新市,长青街,,22,8,12,2,5,70,70,66,66,6,12,7,7,0.1,0.1
2022-08-27T17:00:00,2209A,121.6673,42.0705,阜新市,农业园区,,20,14,11,3,2,65,64,61,61,4,7,5,5,0.3,0.3
2022-08-27T17:00:00,2210A,121.6717,42.0224,阜新市,东苑,,,,,,,,,,,,,,,,
2022-08-27T17:00:00,2211A,121.6506,42.0498,阜新市,玉龙新城,,24,13,17,0,2,74,74,69,69,5,12,7,7,0.2,0.2
2022-08-27T17:00:00,2212A,123.2,41.1953,辽阳市,宏伟区,,21,1,21,4,8,67,65,57,57,1,13,5,11,0.4,0.7
2022-08-27T17:00:00,2213A,123.1683,41.2495,辽阳市,新华园,,21,18,20,5,9,68,67,58,58,5,16,4,10,0.1,0.3
2022-08-27T17:00:00,2214A,123.2354,41.2639,辽阳市,滨河路,,23,9,14,5,12,81,71,64,64,5,13,4,7,0.2,0.3
2022-08-27T17:00:00,2215A,123.149,41.2991,辽阳市,铁西工业园,,22,12,17,4,9,70,68,59,59,8,19,6,7,0.5,0.5
2022-08-27T17:00:00,2216A,123.8139,42.3022,铁岭市,汇工街西,,21,15,15,3,5,65,65,58,58,5,16,4,5,0.4,0.4
2022-08-27T17:00:00,2217A,123.8649,42.2923,铁岭市,水上乐园,,19,5,15,4,6,59,59,50,50,8,19,5,5,0.1,0.2
2022-08-27T17:00:00,2218A,123.8486,42.2867,铁岭市,银州路东段,,17,9,18,2,5,54,52,48,48,8,18,5,5,0.5,0.5
2022-08-27T17:00:00,2219A,123.7153,42.2217,铁岭市,金沙江路北,,20,9,16,4,6,64,64,56,56,7,16,5,7,0.4,0.4
2022-08-27T17:00:00,2220A,120.4318,41.5881,朝阳市,西梁,,18,9,32,3,10,59,57,54,54,6,15,8,6,0.5,0.6
2022-08-27T17:00:00,2221A,120.4521,41.5646,朝阳市,河畔小区,,20,20,21,3,5,60,56,54,54,9,13,8,9,0.4,0.4
2022-08-27T17:00:00,2222A,120.4176,41.5648,朝阳市,八里堡,,22,22,32,7,8,62,61,56,56,5,18,5,6,0.6,0.7
2022-08-27T17:00:00,2223A,120.3806,41.5969,朝阳市,农业园区,,19,15,18,6,8,58,58,53,53,3,12,6,6,0.5,0.5
2022-08-27T17:00:00,2225A,124.4002,43.1713,四平市,一商场,,15,9,19,6,9,49,46,41,41,15,22,1,2,0.2,0.2
2022-08-27T17:00:00,2226A,124.388,43.193,四平市,境园,,19,19,14,9,5,53,52,47,47,10,11,1,1,0.2,0.3
2022-08-27T17:00:00,2227A,125.1358,42.8845,辽源市,环保局,,19,14,17,10,13,64,60,55,55,6,5,15,9,0.4,0.4
2022-08-27T17:00:00,2229A,125.9358,41.7173,通化市,光明,,17,4,12,0,5,55,52,45,45,13,11,10,10,0.2,0.3
2022-08-27T17:00:00,2230A,125.9446,41.7325,通化市,铁路,,15,4,10,1,5,57,45,45,45,11,11,8,8,0.5,0.4
2022-08-27T17:00:00,2231A,126.4219,41.9171,白山市,喜丰,,22,22,25,7,9,49,39,32,32,8,10,14,8,0.7,0.9
2022-08-27T17:00:00,2232A,126.4077,41.9419,白山市,环保局,,31,31,29,9,10,57,28,31,31,20,13,8,8,0.5,0.6
2022-08-27T17:00:00,2233A,124.8006,45.1214,松原市,江南,,19,2,14,5,4,58,58,54,54,4,8,3,3,0.3,0.3
2022-08-27T17:00:00,2234A,124.7965,45.1722,松原市,江北,,19,9,9,6,3,66,58,54,54,6,7,2,2,0.4,0.3
2022-08-27T17:00:00,2235A,122.7911,45.6077,白城市,洮北区环保局,,18,13,16,7,6,57,57,52,52,5,8,3,5,0.2,0.1
2022-08-27T17:00:00,2236A,122.8738,45.5725,白城市,市环保局,,19,9,15,12,12,58,58,53,53,2,4,3,4,0.1,0.1
2022-08-27T17:00:00,2237A,129.47,42.8883,延边朝鲜族自治州,妇幼医院,,17,10,8,5,5,58,52,51,51,9,6,7,7,0.4,0.4
2022-08-27T17:00:00,2238A,129.5055,42.9108,延边朝鲜族自治州,延边医院,,20,20,9,2,1,57,51,53,53,6,8,5,5,0.4,0.3
2022-08-27T17:00:00,2239A,129.3964,42.8881,延边朝鲜族自治州,朝阳川镇医院,,,,3,4,6,58,54,52,52,3,4,5,6,0.3,0.3
2022-08-27T17:00:00,2240A,130.9762,45.3001,鸡西市,环保局,,10,10,10,5,6,51,25,47,30,17,13,3,2,0.4,0.3
2022-08-27T17:00:00,2243A,130.9429,45.3039,鸡西市,第一中学,,,,12,1,5,50,32,46,34,8,6,4,4,0.2,0.2
2022-08-27T17:00:00,2244A,130.2537,47.3416,鹤岗市,哈啤分公司,,12,10,14,8,8,54,31,44,44,15,8,5,7,0.2,0.2
2022-08-27T17:00:00,2245A,130.2684,47.3086,鹤岗市,斯达机电,,15,11,16,10,9,50,31,41,41,11,10,5,6,0.4,0.3
2022-08-27T17:00:00,2246A,130.3114,47.3388,鹤岗市,东山纸板厂,,15,12,38,10,11,52,27,40,40,15,14,7,7,0.5,0.3
2022-08-27T17:00:00,2247A,130.1097,47.3382,鹤岗市,五号水库(对照点),,15,12,11,10,7,53,43,48,48,11,7,5,5,0.3,0.3
2022-08-27T17:00:00,2248A,131.1511,46.6937,双鸭山市,双合村,,12,12,19,7,9,61,22,27,27,6,11,6,7,0.3,0.5
2022-08-27T17:00:00,2249A,131.1652,46.6191,双鸭山市,南小市,,24,24,18,10,8,56,19,32,32,21,9,5,5,0.1,0.1
2022-08-27T17:00:00,2250A,131.1524,46.6554,双鸭山市,环保局,,,9,19,,5,52,27,39,30,12,14,3,5,0.2,0.3
2022-08-27T17:00:00,2251A,131.12,46.5656,双鸭山市,苗圃(对照点),,25,25,22,9,12,55,28,32,32,6,4,4,3,0.4,0.3
2022-08-27T17:00:00,2252A,128.5159,47.4311,伊春市,环保局,,10,9,13,2,4,44,29,30,30,6,6,5,5,0.2,0.2
2022-08-27T17:00:00,2253A,128.9102,47.7412,伊春市,电力嘉园,,11,11,10,7,10,39,26,28,28,11,6,8,6,0.5,0.5
2022-08-27T17:00:00,2254A,129.5029,48.471,伊春市,汤旺河国家公园(对照点),,15,15,12,2,3,34,28,30,30,2,2,5,5,0.2,0.1
2022-08-27T17:00:00,2255A,130.2751,46.8028,佳木斯市,佳纺,,23,23,19,8,7,44,40,38,38,13,11,4,4,0.3,0.3
2022-08-27T17:00:00,2256A,130.3995,46.8307,佳木斯市,发电厂,,32,32,24,11,10,50,34,30,30,13,10,1,1,0.4,0.5
2022-08-27T17:00:00,2257A,130.3258,46.7975,佳木斯市,环保局,,34,34,24,11,9,49,35,27,27,18,17,2,2,0.4,0.4
2022-08-27T17:00:00,2258A,130.3648,46.8032,佳木斯市,十一中,,41,41,24,18,11,106,41,39,39,18,19,4,4,0.4,0.4
2022-08-27T17:00:00,2259A,130.3794,46.7588,佳木斯市,四丰(对照点),,25,25,19,5,10,72,43,47,42,18,12,1,1,0.7,0.7
2022-08-27T17:00:00,2262A,131.0518,45.8751,七台河市,新一中(对照点),,13,4,8,2,6,58,40,38,38,6,7,7,7,0.5,0.5
2022-08-27T17:00:00,2263A,127.4833,50.2524,黑河市,交通局,,20,9,10,14,5,39,38,36,36,5,5,4,5,0.4,0.4
2022-08-27T17:00:00,2264A,127.5144,50.2341,黑河市,环保局,,22,22,12,7,9,45,43,36,36,6,8,6,11,0.3,0.3
2022-08-27T17:00:00,2265A,127.5291,50.2472,黑河市,大黑河岛(对照点),,17,17,12,5,6,42,34,35,35,5,2,19,9,0.2,0.2
2022-08-27T17:00:00,2266A,126.9785,46.6365,绥化市,人和东街,,19,16,18,5,8,63,60,54,54,5,9,5,6,0.4,0.5
2022-08-27T17:00:00,2267A,126.964,46.6528,绥化市,党政办公中心,,20,17,12,8,8,66,62,58,58,5,8,5,5,0.4,0.4
2022-08-27T17:00:00,2269A,124.1069,50.4097,大兴安岭地区,科技局,,18,5,5,3,6,56,56,46,46,3,4,2,3,0.2,0.2
2022-08-27T17:00:00,2270A,117.396,32.939,蚌埠市,工人疗养院,颗粒物(PM10),52,53,40,27,29,116,78,89,68,3,8,8,9,0.4,0.4
2022-08-27T17:00:00,2271A,117.3605,32.9427,蚌埠市,百货大楼,,42,42,39,18,21,116,78,94,68,12,15,8,8,0.2,0.3
2022-08-27T17:00:00,2273A,117.4185,32.8911,蚌埠市,蚌埠学院,,46,46,38,22,26,130,82,85,69,12,18,7,8,0.4,0.4
2022-08-27T17:00:00,2274A,117.3533,32.9673,蚌埠市,淮上区政府,,46,46,40,22,26,113,78,78,68,6,11,8,8,0.3,0.3
2022-08-27T17:00:00,2275A,117.3145,32.8977,蚌埠市,高新区,颗粒物(PM10),51,51,37,31,29,111,86,93,73,17,20,7,7,0.5,0.4
2022-08-27T17:00:00,2277A,116.8305,32.7727,淮南市,潘集区政府,,42,42,39,21,28,109,73,90,83,11,9,9,8,0.4,0.3
2022-08-27T17:00:00,2278A,117.0067,32.6524,淮南市,师范学院,,42,42,52,17,25,111,64,81,74,10,12,6,6,0.3,0.3
2022-08-27T17:00:00,2279A,116.8569,32.5951,淮南市,谢家集区政府,,37,37,29,23,20,113,69,87,82,12,12,8,7,0.4,0.5
2022-08-27T17:00:00,2280A,116.8281,32.633,淮南市,八公山区政府,,21,21,29,13,19,108,63,85,82,13,11,4,4,0.4,0.4
2022-08-27T17:00:00,2281A,116.6325,32.6201,淮南市,焦岗湖风景区管理处(对照点),,29,29,35,13,15,96,56,78,75,19,17,4,5,0.4,0.4
2022-08-27T17:00:00,2282A,116.8004,33.975,淮北市,监测站,,47,47,42,10,24,107,89,95,95,4,8,6,6,0.5,0.7
2022-08-27T17:00:00,2283A,116.8091,33.9007,淮北市,烈山区政府,,35,35,41,17,29,117,98,104,104,5,13,7,8,0.4,0.8
2022-08-27T17:00:00,2284A,116.7856,33.9477,淮北市,职业技术学院,,37,37,40,8,23,107,91,96,96,9,15,7,7,0.6,0.9
2022-08-27T17:00:00,2285A,117.8177,30.9412,铜陵市,市第四中学,,33,33,35,7,19,182,82,101,99,20,17,5,5,0.7,0.7
2022-08-27T17:00:00,2286A,117.8059,30.9273,铜陵市,市公路局,颗粒物(PM10),57,64,39,37,31,181,86,100,99,17,12,6,6,0.6,0.6
2022-08-27T17:00:00,2287A,117.7807,30.9413,铜陵市,市新民污水厂,颗粒物(PM10),58,65,49,33,24,178,79,91,91,18,22,4,4,0.6,0.7
2022-08-27T17:00:00,2288A,117.7439,30.8792,铜陵市,市第九中学,颗粒物(PM10),65,80,54,44,30,173,72,91,90,30,22,8,7,0.8,1.1
2022-08-27T17:00:00,2289A,117.846,30.9413,铜陵市,车站新区,细颗粒物(PM2.5),52,48,46,36,22,171,85,93,93,16,11,5,4,0.6,0.6
2022-08-27T17:00:00,2290A,117.8483,30.97,铜陵市,市职教基地,,50,50,38,28,20,176,81,105,98,17,14,8,9,1.1,1.1
2022-08-27T17:00:00,2291A,117.0809,30.5177,安庆市,环科院,,41,36,39,28,33,148,129,128,119,14,11,7,6,0.8,0.9
2022-08-27T17:00:00,2292A,117.0331,30.5119,安庆市,马山宾馆,,40,31,39,28,30,145,123,125,114,8,7,5,4,0.9,1.1
2022-08-27T17:00:00,2294A,116.9896,30.6145,安庆市,安庆大学,,46,31,35,32,28,147,120,117,112,8,7,5,5,0.8,0.9
2022-08-27T17:00:00,2295A,118.2903,29.6963,黄山市,延安路89号,,,,22,6,7,137,83,105,105,5,10,6,7,0.3,0.3
2022-08-27T17:00:00,2296A,118.327,29.7178,黄山市,黄山东路89号,,26,13,16,6,7,126,82,96,96,5,9,5,6,0.4,0.4
2022-08-27T17:00:00,2297A,118.1371,30.2756,黄山市,黄山区政府5号楼,,38,38,16,24,7,99,91,76,76,6,4,6,6,0.6,0.4
2022-08-27T17:00:00,2298A,118.3093,32.3153,滁州市,老年大学,,50,38,29,35,23,120,98,99,90,17,16,7,7,0.5,0.4
2022-08-27T17:00:00,2299A,118.3244,32.2786,滁州市,人大宾馆,,50,44,30,35,22,116,105,100,100,19,20,5,5,0.6,0.4
2022-08-27T17:00:00,2301A,115.8277,32.8929,阜阳市,市监测站,,36,36,31,23,24,104,79,94,91,18,12,8,7,0.7,0.7
2022-08-27T17:00:00,2303A,115.8554,32.8605,阜阳市,开发区,,48,48,31,16,18,106,75,89,86,20,14,4,4,0.6,0.6
2022-08-27T17:00:00,2306A,116.989,33.6306,宿州市,火车站,,,,,,,,,,,,,,,,
2022-08-27T17:00:00,2307A,116.5079,31.737,六安市,监测大楼,,26,22,30,18,20,103,80,86,82,11,9,6,6,0.3,0.3
2022-08-27T17:00:00,2308A,116.4738,31.7643,六安市,皖西学院,,30,30,37,10,16,113,86,98,95,12,8,10,9,0.4,0.4
2022-08-27T17:00:00,2309A,116.4996,31.7905,六安市,朝阳厂,,25,23,27,9,17,106,80,93,91,10,7,10,9,0.5,0.5
2022-08-27T17:00:00,2310A,116.5567,31.7886,六安市,开发区,,30,6,34,21,21,105,77,88,86,9,8,7,6,0.4,0.4
2022-08-27T17:00:00,2311A,115.8072,33.8399,亳州市,污水处理厂,,37,37,34,17,24,78,61,69,59,7,8,4,4,0.5,0.6
2022-08-27T17:00:00,2312A,115.7789,33.8518,亳州市,三国揽胜宫,,35,35,34,19,25,86,82,80,68,10,8,4,4,0.6,0.7
2022-08-27T17:00:00,2314A,117.47,30.6618,池州市,池州学院,,36,34,36,25,22,170,100,96,96,12,12,7,8,0.8,1
2022-08-27T17:00:00,2315A,117.4974,30.6539,池州市,平天湖(对照点),,,,,,,,,,,,,,,,
2022-08-27T17:00:00,2316A,118.7581,30.9454,宣城市,鳌峰子站,,27,21,25,11,18,97,85,84,84,16,14,6,6,0.4,0.5
2022-08-27T17:00:00,2317A,118.7385,30.9743,宣城市,敬亭山子站,,27,25,27,13,19,105,84,87,87,21,21,7,8,0.4,0.4
2022-08-27T17:00:00,2318A,118.7173,30.9427,宣城市,开发区子站,,31,31,23,11,17,101,86,88,88,14,12,6,5,0.5,0.5
2022-08-27T17:00:00,2319A,119.0141,25.4325,莆田市,荔城区仓后路,颗粒物(PM10),52,54,56,20,25,154,96,133,133,15,21,5,5,0.9,0.9
2022-08-27T17:00:00,2320A,119.0015,25.4553,莆田市,莆田市监测站,颗粒物(PM10),60,69,54,25,26,179,87,146,146,5,13,6,7,0.7,0.8
2022-08-27T17:00:00,2321A,119.1119,25.4561,莆田市,涵江区六中,,31,31,51,16,31,167,76,148,139,13,21,7,7,0.7,0.8
2022-08-27T17:00:00,2322A,119.1013,25.3215,莆田市,秀屿区政府,,46,42,42,25,20,158,145,136,136,4,10,6,9,0.9,0.9
2022-08-27T17:00:00,2323A,118.981,25.4792,莆田市,东圳水库(对照点),,,,,,,,,,,,,,,,
2022-08-27T17:00:00,2324A,117.6211,26.2625,三明市,三钢,,,31,31,13,14,108,91,96,96,11,18,6,10,,0.3
2022-08-27T17:00:00,2325A,117.635,26.2714,三明市,三明二中,,30,23,25,17,14,110,96,96,96,6,17,6,7,0.7,0.6
2022-08-27T17:00:00,2326A,117.6028,26.2378,三明市,三元区政府,,28,22,25,13,13,108,87,91,91,7,16,5,7,0.6,0.5
2022-08-27T17:00:00,2327A,117.7275,26.3108,三明市,洋溪(对照点),,,,,,,,,,,,,,,,
2022-08-27T17:00:00,2331A,118.0966,26.6761,南平市,茫荡山(对照点),,,,,,,,,,,,,,,,
2022-08-27T17:00:00,2332A,118.1681,26.6369,南平市,南平市监测站,,28,17,18,14,11,112,89,101,101,4,15,6,6,0.3,0.5
2022-08-27T17:00:00,2333A,118.1825,26.6489,南平市,南平铝业有限公司,,29,20,20,15,15,110,91,101,101,3,12,5,7,0.4,0.6
2022-08-27T17:00:00,2334A,118.1756,26.6272,南平市,南平七中,,30,23,18,13,11,118,95,106,106,4,12,6,6,0.5,0.5
2022-08-27T17:00:00,2335A,117.0189,25.1181,龙岩市,龙岩师专(对照点),,,,,,,,,,,,,,,,
2022-08-27T17:00:00,2336A,117.0217,25.1033,龙岩市,龙岩市监测站,,,,28,10,10,104,63,82,82,17,20,5,8,0.4,0.6
2022-08-27T17:00:00,2337A,117.0258,25.0661,龙岩市,闽西职业技术学院,颗粒物(PM10),60,70,34,10,13,118,75,86,86,9,21,7,22,0.4,0.5
2022-08-27T17:00:00,2338A,117.0196,25.0306,龙岩市,龙岩学院,,28,28,22,11,13,116,84,90,90,7,13,3,6,0.4,0.5
2022-08-27T17:00:00,2339A,119.5001,26.6946,宁德市,金涵水库(对照点),,,,,,,,,,,,,,,,
2022-08-27T17:00:00,2341A,119.5388,26.6612,宁德市,宁德市监测站,,36,28,32,25,17,137,78,105,105,15,15,8,8,0.7,0.7
2022-08-27T17:00:00,2342A,117.3102,29.3867,景德镇市,王港中学(对照点),,42,30,26,25,13,142,133,138,138,5,10,5,5,0.6,0.6
2022-08-27T17:00:00,2343A,117.2117,29.2933,景德镇市,老干部活动中心,,29,28,47,20,17,126,87,110,110,8,18,6,10,0.4,0.4
2022-08-27T17:00:00,2344A,117.1894,29.2789,景德镇市,兽医站,,36,36,31,14,16,124,89,110,110,8,16,4,10,0.5,0.5
2022-08-27T17:00:00,2345A,117.1547,29.2617,景德镇市,台达陶瓷,,41,41,43,28,18,115,86,105,105,11,20,8,21,0.4,0.4
2022-08-27T17:00:00,2346A,117.2461,29.2956,景德镇市,陶研所,,40,40,35,16,12,132,90,111,111,6,14,5,9,0.4,0.4
2022-08-27T17:00:00,2347A,114.0997,27.5002,萍乡市,武功山(对照点),,17,5,3,3,4,66,53,61,61,5,6,7,9,0.3,0.2
2022-08-27T17:00:00,2348A,113.8385,27.6434,萍乡市,中医院,,26,5,19,2,11,83,81,79,79,6,16,6,11,0.3,0.4
2022-08-27T17:00:00,2349A,113.8493,27.6253,萍乡市,市政府车库,,27,11,17,9,11,90,84,85,85,6,13,6,8,0.1,0.2
2022-08-27T17:00:00,2350A,113.8676,27.6435,萍乡市,市环保局,,25,20,19,3,11,89,80,82,82,6,15,5,8,0.3,0.4
2022-08-27T17:00:00,2351A,113.866,27.6198,萍乡市,安源区政府,,27,20,19,15,12,88,84,84,84,2,8,6,10,0.1,0.2
2022-08-27T17:00:00,2352A,115.0861,27.9317,新余市,北岗(对照点),,40,27,20,16,12,152,127,124,124,3,9,15,13,0.8,0.7
2022-08-27T17:00:00,2353A,114.9886,27.8431,新余市,飞宇,,32,32,39,16,16,120,80,96,96,6,14,6,11,0.4,0.5
2022-08-27T17:00:00,2354A,114.9231,27.8246,新余市,第二水厂,,38,38,43,6,20,136,93,107,107,6,13,10,11,0.1,0.5
2022-08-27T17:00:00,2355A,114.9308,27.8036,新余市,市气象局,,27,26,41,11,21,126,86,98,98,4,14,7,27,0.4,1.2
2022-08-27T17:00:00,2357A,116.9822,28.1136,鹰潭市,龙虎山(对照点),,,,,,,,,,,,,,,,
2022-08-27T17:00:00,2358A,117.0564,28.2642,鹰潭市,新监测站,,34,13,26,12,9,109,107,103,103,2,5,1,2,0.4,0.4
2022-08-27T17:00:00,2359A,117.0311,28.2475,鹰潭市,财苑宾馆,,33,30,39,6,8,110,104,101,101,1,4,2,3,0,0.2
2022-08-27T17:00:00,2360A,117.0222,28.2264,鹰潭市,体育馆,,36,36,26,18,10,114,107,104,104,2,3,1,1,0.6,0.5
2022-08-27T17:00:00,2361A,117.0017,28.2131,鹰潭市,三川水表,,33,29,24,7,5,106,103,98,98,2,2,2,2,0.9,0.6
2022-08-27T17:00:00,2362A,114.9017,25.9149,赣州市,通天岩(对照点),,30,25,28,4,11,126,96,112,112,4,15,5,10,0.4,0.4
2022-08-27T17:00:00,2363A,114.9367,25.8664,赣州市,地委,,31,12,22,3,9,119,98,102,102,6,10,5,6,0.7,0.7
2022-08-27T17:00:00,2364A,114.9461,25.8481,赣州市,气象台,,32,15,21,5,12,119,100,103,103,6,10,6,8,0.4,0.6
2022-08-27T17:00:00,2365A,114.9322,25.8333,赣州市,市图书馆,,31,7,18,7,11,123,99,106,106,13,13,4,7,0.8,0.9
2022-08-27T17:00:00,2366A,114.8905,25.8471,赣州市,华坚鞋城,,35,34,32,10,14,147,112,126,126,7,11,4,6,0.5,0.5
2022-08-27T17:00:00,2367A,114.9754,27.0803,吉安市,红声器材厂,,33,21,32,9,13,108,104,101,101,4,8,3,5,0.4,0.4
2022-08-27T17:00:00,2368A,114.9658,27.0999,吉安市,市森林工业局,,33,29,32,8,12,107,105,100,100,3,7,6,8,0.3,0.4
2022-08-27T17:00:00,2369A,114.99,27.1312,吉安市,市环境监测站,,32,30,46,11,16,116,101,103,103,5,7,5,8,0.4,0.5
2022-08-27T17:00:00,2370A,115.0093,27.0968,吉安市,青原区法院,,32,19,27,12,12,108,102,102,102,2,5,6,12,0.3,0.3
2022-08-27T17:00:00,2371A,114.3408,27.8064,宜春市,槟榔水业(对照点),,,,,,,,,,,,,,,,
2022-08-27T17:00:00,2373A,114.3956,27.7844,宜春市,市石油公司,,32,24,32,10,13,102,102,92,92,10,16,4,7,0.7,0.9
2022-08-27T17:00:00,2374A,114.3703,27.7914,宜春市,市气象局,,34,24,29,8,13,108,108,97,97,10,14,5,8,0.7,0.8
2022-08-27T17:00:00,2375A,114.4013,27.8074,宜春市,市广电局,,34,19,27,8,12,108,106,98,98,4,10,6,8,0.7,0.8
2022-08-27T17:00:00,2376A,116.2127,28.0814,抚州市,桐源党溪(对照点),,35,18,22,6,9,122,112,109,109,3,6,2,2,0.7,0.7
2022-08-27T17:00:00,2377A,116.3544,27.9831,抚州市,市站,,41,30,28,15,13,130,130,114,114,4,7,16,9,0.7,0.7
2022-08-27T17:00:00,2378A,116.3565,27.963,抚州市,血防站,,34,27,31,14,14,116,108,103,103,5,9,4,4,0.5,0.6
2022-08-27T17:00:00,2379A,116.3564,28.0007,抚州市,采茶剧团,,38,29,27,16,13,131,120,110,110,2,6,11,7,0.7,0.6
2022-08-27T17:00:00,2380A,116.385,27.9647,抚州市,医学分院,,40,25,28,14,12,128,126,113,113,4,9,9,8,0.7,0.6
2022-08-27T17:00:00,2381A,118.005,28.4572,上饶市,百草园(对照点),,,,,,,,,,,,,,,,
2022-08-27T17:00:00,2382A,117.9756,28.4436,上饶市,市监测站,,33,29,30,7,13,116,103,103,103,2,7,4,17,0.5,0.5
2022-08-27T17:00:00,2383A,117.9519,28.4628,上饶市,凤凰光学,,30,18,27,8,15,94,94,90,90,4,12,4,17,0.5,0.5
2022-08-27T17:00:00,2385A,114.17,35.9019,鹤壁市,市监测站,,,28,50,15,25,132,65,83,56,21,23,,9,0.9,1
2022-08-27T17:00:00,2386A,114.2956,35.7511,鹤壁市,市交警支队,,39,39,48,2,19,154,64,72,56,29,25,16,10,1.1,0.9
2022-08-27T17:00:00,2387A,114.2878,35.7306,鹤壁市,迎宾馆,,39,39,46,10,21,153,61,73,54,29,22,10,6,1.1,0.8
2022-08-27T17:00:00,2389A,113.836,35.311,新乡市,环保西院,,36,36,41,5,11,113,64,65,52,17,17,11,9,0.5,0.5
2022-08-27T17:00:00,2390A,113.884,35.272,新乡市,开发区,,22,21,38,2,10,106,69,69,57,14,13,10,9,0.9,0.8
2022-08-27T17:00:00,2391A,113.883,35.303,新乡市,环保东院,,30,30,34,10,18,112,65,70,59,21,15,10,9,0.5,0.5
2022-08-27T17:00:00,2392A,115.0312,35.7636,濮阳市,环保局,,39,39,36,12,12,133,108,80,80,15,17,13,12,0.5,0.6
2022-08-27T17:00:00,2394A,115.0574,35.7609,濮阳市,油田运输公司,,44,44,40,11,15,119,106,77,77,16,23,15,13,0.4,0.6
2022-08-27T17:00:00,2395A,115.0866,35.7754,濮阳市,油田物探公司,,41,41,39,14,16,139,109,76,75,14,17,14,11,0.3,0.4
2022-08-27T17:00:00,2396A,113.8276,34.0159,许昌市,监测站,,,46,27,,26,84,22,45,36,39,25,12,9,1.0,0.7
2022-08-27T17:00:00,2398A,113.7906,33.9953,许昌市,开发区,,35,35,24,13,14,63,33,44,42,26,21,11,6,0.8,0.7
2022-08-27T17:00:00,2399A,114.051,33.5699,漯河市,三五一五工厂,,28,24,21,19,15,93,50,69,42,18,14,9,6,0.5,0.6
2022-08-27T17:00:00,2400A,114.0055,33.5698,漯河市,漯河大学,,28,28,19,13,15,96,54,74,47,16,16,7,6,0.4,0.5
