timepoint,stationcode,longitude,latitude,area,positionname,primarypollutant,aqi,pm10,pm10_24h,pm2_5,pm2_5_24h,o3,o3_24h,o3_8h,o3_8h_24h,no2,no2_24h,so2,so2_24h,co,co_24h
2024-03-29T0000,2566A,102.1879,31.914,阿坝藏族羌族自治州,州农科所,,21,21,29,5,8,18,,31,24,4,8,3,3,0.2,0.3
2024-03-29T0000,2568A,102.2502,31.8896,阿坝藏族羌族自治州,马师校,,28,,19,19,12,60,,95,79,9,8,3,4,0.3,0.4
2024-03-29T0000,3994A,102.2165,31.9024,阿坝藏族羌族自治州,马尔康中学西区,,20,17,15,9,7,62,,96,84,8,5,4,5,0.4,0.4
2024-03-29T0000,2695A,80.292,41.1694,阿克苏地区,电视台,颗粒物(PM10),128,205,146,54,40,67,,104,91,15,19,5,7,0.6,0.7
2024-03-29T0000,2696A,80.2613,41.1551,阿克苏地区,艺术中心,颗粒物(PM10),135,219,151,43,42,68,,108,96,20,33,4,6,0.9,1.6
2024-03-29T0000,2204A,105.6467,38.8363,阿拉善盟,西城区西花园,颗粒物(PM10),54,57,43,23,14,101,,116,99,5,8,8,8,0.7,0.6
2024-03-29T0000,2205A,105.6985,38.8411,阿拉善盟,蒙二幼,颗粒物(PM10),59,67,46,24,13,90,,103,87,6,8,7,8,0.3,0.3
2024-03-29T0000,2206A,105.724,38.8516,阿拉善盟,环保局新楼,颗粒物(PM10),59,68,42,22,11,99,,104,94,4,6,6,6,0.3,0.3
2024-03-29T0000,2708A,88.1264,47.8517,阿勒泰地区,市站,,25,25,17,6,15,66,,89,75,7,8,4,4,0.3,0.3
2024-03-29T0000,2630A,80.1161,32.5,阿里地区,阿里监测站,,31,3,10,2,5,99,,106,104,4,8,7,12,0.4,0.5
2024-03-29T0000,3192A,80.0903,32.5028,阿里地区,阿里藏医院,,34,8,10,1,3,106,,112,111,2,5,8,10,0.4,0.6
2024-03-29T0000,2642A,109.0318,32.6537,安康市,香溪洞,,48,48,56,18,23,104,,110,109,10,13,6,8,0.3,0.4
2024-03-29T0000,2643A,109.0281,32.6939,安康市,安康市监测站,颗粒物(PM10),64,78,58,28,24,33,,96,58,26,18,10,10,0.5,0.7
2024-03-29T0000,2644A,109.0072,32.6975,安康市,汉滨区检察院,颗粒物(PM10),64,78,56,30,24,37,,98,70,29,15,11,10,0.4,0.5
2024-03-29T0000,2291A,117.0809,30.5177,安庆市,环科院,颗粒物(PM10),51,52,35,30,27,82,,100,95,28,27,8,7,0.8,0.9
2024-03-29T0000,2292A,117.0331,30.5119,安庆市,马山宾馆,细颗粒物(PM2.5),54,54,33,38,25,68,,107,93,46,30,11,7,0.8,0.7
2024-03-29T0000,2294A,116.9896,30.6145,安庆市,安庆大学,细颗粒物(PM2.5),64,62,34,46,23,80,,111,100,29,23,9,6,0.7,0.5
2024-03-29T0000,3173A,117.0598,30.5351,安庆市,市人大,细颗粒物(PM2.5),60,56,32,43,31,87,,113,107,31,22,10,5,0.7,0.7
2024-03-29T0000,3122A,105.9606,26.2611,安顺市,伍家关,,,,,,,,,,,,,,,,
2024-03-29T0000,3123A,105.9408,26.2431,安顺市,凤凰山,细颗粒物(PM2.5),55,41,18,39,12,80,,126,114,28,11,24,10,0.6,0.5
2024-03-29T0000,3124A,105.9439,26.2564,安顺市,金钟山,,44,44,21,29,10,99,,123,114,15,10,25,8,0.5,0.5
2024-03-29T0000,3125A,105.8983,26.2481,安顺市,娄家坡,,48,48,21,29,15,96,,122,114,13,9,30,10,0.4,0.4
2024-03-29T0000,1818A,114.4839,36.0621,安阳市,棉研所,,,,,,,,,,,,,,,,
2024-03-29T0000,1819A,114.3551,36.1017,安阳市,红庙街,颗粒物(PM10),81,112,269,49,66,42,,98,78,39,28,14,8,0.9,0.8
2024-03-29T0000,1820A,114.361,36.0681,安阳市,银杏小区,颗粒物(PM10),84,117,254,30,59,47,,94,74,38,24,30,11,0.5,0.5
2024-03-29T0000,3141A,114.3922,36.0878,安阳市,信访局,颗粒物(PM10),84,117,259,28,44,53,,95,80,41,22,18,6,0.6,0.7
2024-03-29T0000,3669A,114.4705,36.0637,安阳市,左辅环卫站,颗粒物(PM10),105,160,190,51,42,5,,86,59,98,29,8,6,0.9,0.5
2024-03-29T0000,3703A,114.2917,36.0949,安阳市,安钢职工学校,颗粒物(PM10),71,92,303,24,59,75,,90,78,22,29,6,8,0.6,0.8
2024-03-29T0000,1748A,123.044,41.1196,鞍山市,深沟寺,颗粒物(PM10),452,552,393,99,77,45,,90,52,22,20,7,8,0.8,0.8
2024-03-29T0000,1749A,123.011,41.0931,鞍山市,太阳城,颗粒物(PM10),340,452,320,60,54,49,,90,48,20,21,8,9,1.0,1
2024-03-29T0000,1750A,123.0485,41.1442,鞍山市,太平,颗粒物(PM10),495,595,381,101,72,35,,91,44,39,29,7,8,0.8,1
2024-03-29T0000,1751A,122.9642,41.0971,鞍山市,铁西三道街,颗粒物(PM10),439,539,370,95,76,40,,82,42,37,31,10,7,0.9,0.8
2024-03-29T0000,1752A,122.9341,41.0833,鞍山市,铁西工业园区,颗粒物(PM10),489,589,356,124,95,26,,86,42,50,24,11,7,1.5,0.9
2024-03-29T0000,1753A,123.022,41.0821,鞍山市,明达新区,颗粒物(PM10),417,517,310,80,59,52,,88,49,23,23,10,10,1.0,0.8
2024-03-29T0000,1754A,123.1289,41.0228,鞍山市,千山,,,,,,,,,,,,,,,,
2024-03-29T0000,2195A,107.4212,40.761,巴彦淖尔市,附二中,颗粒物(PM10),84,117,410,31,74,64,,93,77,15,9,3,16,0.4,0.4
2024-03-29T0000,2196A,107.37,40.7372,巴彦淖尔市,市环保大楼,颗粒物(PM10),78,105,415,43,74,65,,93,74,16,9,3,5,0.4,0.4
2024-03-29T0000,1956A,86.1472,41.7538,巴音郭楞蒙古自治州,孔雀公园,颗粒物(PM10),312,429,185,101,40,78,,112,100,12,37,5,7,0.4,0.5
2024-03-29T0000,1957A,86.1972,41.7166,巴音郭楞蒙古自治州,棉纺厂,颗粒物(PM10),500,896,278,97,52,80,,106,98,13,30,3,4,0.3,0.4
2024-03-29T0000,1958A,86.2357,41.7173,巴音郭楞蒙古自治州,经济开发区,颗粒物(PM10),430,530,261,111,49,81,,109,98,15,22,5,6,0.3,0.2
2024-03-29T0000,2914A,106.7677,31.8794,巴中市,苏山坪,,48,48,50,26,23,109,,107,107,6,11,3,6,0.3,0.3
2024-03-29T0000,3182A,106.7656,31.8545,巴中市,丽阳花园,颗粒物(PM10),52,54,49,28,27,19,,97,56,50,29,3,4,0.5,0.5
2024-03-29T0000,3183A,106.7418,31.8654,巴中市,圣泉水务公司,,49,49,52,26,26,4,,98,52,75,34,5,4,0.6,0.5
2024-03-29T0000,3616A,106.7616,31.8344,巴中市,市中心医院,颗粒物(PM10),56,62,47,35,25,22,,102,70,41,24,4,5,0.7,0.6
2024-03-29T0000,2235A,122.7911,45.6077,白城市,洮北区环保局,,29,27,614,7,45,90,,112,100,4,7,5,5,0.2,0.2
2024-03-29T0000,2236A,122.8738,45.5725,白城市,市环保局,,37,37,484,13,62,75,,88,80,8,8,4,4,0.4,0.3
2024-03-29T0000,2231A,126.4219,41.9171,白山市,喜丰,颗粒物(PM10),169,288,80,49,20,49,,100,55,16,11,12,9,1.1,0.8
2024-03-29T0000,2232A,126.4077,41.9419,白山市,环保局,颗粒物(PM10),149,247,87,56,24,38,,94,51,17,11,10,9,1.1,1
2024-03-29T0000,2647A,104.1724,36.5446,白银市,第三小学,颗粒物(PM10),79,108,53,19,22,35,,97,64,53,23,14,19,0.9,0.9
2024-03-29T0000,2648A,104.1465,36.5482,白银市,动力公司,,24,24,43,14,22,42,,100,68,36,23,7,16,0.7,0.7
2024-03-29T0000,2512A,106.6103,23.9011,百色市,市监测站,,50,50,58,29,27,41,,100,69,24,21,11,15,0.7,0.7
2024-03-29T0000,2513A,106.6538,23.8859,百色市,市中心血站,颗粒物(PM10),51,51,50,33,29,40,,106,73,33,26,26,14,0.7,0.6
2024-03-29T0000,3406A,106.6085,23.8798,百色市,祈福高中,,46,39,46,32,31,48,,101,67,19,22,8,13,0.6,0.6
2024-03-29T0000,2270A,117.396,32.939,蚌埠市,工人疗养院,细颗粒物(PM2.5),72,86,86,52,55,85,,95,93,18,16,6,6,0.7,0.7
2024-03-29T0000,2271A,117.3605,32.9427,蚌埠市,百货大楼,细颗粒物(PM2.5),74,85,97,54,61,86,,89,88,16,22,5,3,0.7,0.7
2024-03-29T0000,2273A,117.4185,32.8911,蚌埠市,蚌埠学院,细颗粒物(PM2.5),64,63,65,46,56,97,,95,94,12,16,4,3,0.7,0.6
2024-03-29T0000,2274A,117.3533,32.9673,蚌埠市,淮上区政府,细颗粒物(PM2.5),70,73,78,51,60,89,,87,87,15,20,5,5,0.6,0.6
2024-03-29T0000,2275A,117.3145,32.8977,蚌埠市,高新区,细颗粒物(PM2.5),79,63,59,58,58,70,,93,87,27,19,5,4,0.8,0.7
2024-03-29T0000,3715A,117.3092,32.9314,蚌埠市,蚌埠田家炳中学,细颗粒物(PM2.5),82,90,84,60,59,72,,91,82,20,21,6,5,0.6,0.6
2024-03-29T0000,1585A,109.8756,40.6532,包头市,市环境监测站,颗粒物(PM10),158,265,477,40,76,82,,89,82,5,13,9,12,0.5,0.7
2024-03-29T0000,1587A,109.9991,40.5842,包头市,包头八中,颗粒物(PM10),169,288,462,64,100,78,,92,86,12,15,7,10,0.6,0.8
2024-03-29T0000,1588A,109.8538,40.6821,包头市,青山宾馆,颗粒物(PM10),136,222,458,56,90,80,,89,80,5,13,10,12,0.7,0.9
2024-03-29T0000,1589A,109.8642,40.6288,包头市,惠龙物流,颗粒物(PM10),149,247,460,33,76,82,,89,80,6,15,9,12,0.5,0.8
2024-03-29T0000,1590A,110.0377,40.5546,包头市,东河鸿龙湾,颗粒物(PM10),142,233,442,43,67,80,,95,82,6,11,6,9,0.6,0.7
2024-03-29T0000,3283A,109.9154,40.5685,包头市,滨河大厦,颗粒物(PM10),158,265,408,48,73,84,,97,86,2,9,6,11,0.4,0.6
2024-03-29T0000,3419A,109.9447,40.6261,包头市,包头市委党校,颗粒物(PM10),162,273,455,42,72,76,,92,83,7,13,7,12,0.3,0.4
2024-03-29T0000,3683A,109.8331,40.6576,包头市,昆区政府,颗粒物(PM10),137,224,467,62,98,79,,88,78,8,17,9,12,0.4,0.7
2024-03-29T0000,1930A,107.185,34.3063,宝鸡市,庙沟村,,30,30,64,13,18,66,,92,76,16,10,8,8,0.3,0.3
2024-03-29T0000,1931A,107.0708,34.3017,宝鸡市,竹园沟,,35,35,62,17,20,43,,106,75,31,14,2,3,0.3,0.3
2024-03-29T0000,1932A,107.1906,34.3672,宝鸡市,三陆医院,细颗粒物(PM2.5),63,67,79,45,24,15,,100,44,57,38,21,8,0.5,0.5
2024-03-29T0000,1933A,107.1431,34.3547,宝鸡市,监测站,,49,49,70,26,23,18,,96,49,49,28,3,5,0.5,0.5
2024-03-29T0000,1934A,107.1186,34.3739,宝鸡市,技工学校,,42,42,72,24,21,48,,104,67,25,21,8,4,0.3,0.3
2024-03-29T0000,1935A,107.3906,34.3528,宝鸡市,陈仓区环保局家属楼,细颗粒物(PM2.5),67,73,86,48,27,11,,101,46,55,35,6,26,0.4,0.6
2024-03-29T0000,1936A,107.2058,34.3497,宝鸡市,文理学院,颗粒物(PM10),55,59,74,27,21,18,,99,48,48,26,4,4,0.3,0.3
2024-03-29T0000,1937A,107.2386,34.3622,宝鸡市,三迪小学,细颗粒物(PM2.5),59,65,76,42,22,5,,96,38,79,46,5,4,0.7,0.5
2024-03-29T0000,1051A,115.493,38.8632,保定市,游泳馆,,,,,,,,,,,,,,,,
2024-03-29T0000,1052A,115.5213,38.8959,保定市,华电二区,颗粒物(PM10),108,166,278,51,89,47,,91,64,24,21,5,3,0,0.3
2024-03-29T0000,1053A,115.4713,38.9108,保定市,接待中心,颗粒物(PM10),101,152,289,31,79,46,,89,60,23,19,1,2,0.0,0.2
2024-03-29T0000,1054A,115.4612,38.8416,保定市,地表水厂,颗粒物(PM10),121,191,333,36,81,56,,96,66,21,24,5,4,0.5,0.6
2024-03-29T0000,3581A,115.31981,38.95208,保定市,满城区生态环境分局,颗粒物(PM10),153,256,385,44,81,47,,98,57,26,16,2,3,0.1,0.2
2024-03-29T0000,3582A,115.47694,38.76408,保定市,清苑区第二中学,颗粒物(PM10),177,303,386,47,77,47,,91,64,30,25,7,5,0.4,0.4
2024-03-29T0000,3583A,115.62909,39.02311,保定市,徐水物探局,颗粒物(PM10),120,190,484,31,80,38,,85,58,32,20,7,6,0.1,0.1
2024-03-29T0000,4004A,115.4202,38.8656,保定市,双鹰农机,颗粒物(PM10),168,285,284,41,70,55,,95,63,24,27,6,5,0.4,0.5
2024-03-29T0000,4034A,115.5150,38.8590,保定市,植保所站,颗粒物(PM10),111,171,291,41,82,51,,97,70,23,21,3,3,0.3,0.5
2024-03-29T0000,2594A,99.1678,25.1081,保山市,市环境监测站,,49,49,52,34,32,88,,119,101,6,11,7,7,0.5,0.5
2024-03-29T0000,2595A,99.1711,25.1328,保山市,市环保局,颗粒物(PM10),51,52,54,32,28,98,,114,106,4,7,6,6,0.6,0.3
2024-03-29T0000,1866A,109.2262,21.588,北海市,牛尾岭水库,,,,,,,,,,,,,,,,
2024-03-29T0000,1867A,109.1436,21.4086,北海市,海滩公园,,49,49,34,34,21,51,,67,59,12,9,8,7,0.6,0.5
2024-03-29T0000,1868A,109.0981,21.4661,北海市,新市环保局,细颗粒物(PM2.5),52,45,35,36,25,59,,64,58,12,10,10,6,0.7,0.5
2024-03-29T0000,1869A,109.1778,21.5233,北海市,北海工业园,细颗粒物(PM2.5),59,58,41,42,28,46,,66,58,18,10,18,8,0.7,0.5
2024-03-29T0000,3400A,109.1911,21.4415,北海市,龙潭自来水厂,细颗粒物(PM2.5),54,42,33,38,27,41,,63,52,10,6,11,8,0.5,0.4
2024-03-29T0000,1001A,116.3621,39.8784,北京市,万寿西宫,颗粒物(PM10),83,115,391,20,63,44,,88,64,39,16,3,3,0.3,0.2
2024-03-29T0000,1002A,116.2202,40.2915,北京市,定陵,,,,,,,,,,,,,,,,
2024-03-29T0000,1003A,116.4174,39.9289,北京市,东四,颗粒物(PM10),71,92,395,12,60,50,,84,66,26,12,3,3,0.6,0.6
2024-03-29T0000,1004A,116.4072,39.8863,北京市,天坛,颗粒物(PM10),76,102,367,19,63,39,,90,58,48,17,3,3,0.3,0.3
2024-03-29T0000,1005A,116.462,39.9365,北京市,农展馆,颗粒物(PM10),62,74,361,10,52,49,,88,65,34,17,1,2,0.3,0.3
2024-03-29T0000,1006A,116.3392,39.9295,北京市,官园,颗粒物(PM10),74,98,424,15,61,56,,95,76,30,14,2,2,0.4,0.3
2024-03-29T0000,1007A,116.2878,39.9611,北京市,海淀万柳,颗粒物(PM10),75,100,401,14,62,48,,90,65,36,16,1,1,0.4,0.3
2024-03-29T0000,1008A,116.6636,40.135,北京市,顺义新城,颗粒物(PM10),71,91,285,6,44,72,,87,69,9,13,3,3,0.2,0.2
2024-03-29T0000,1009A,116.6275,40.3275,北京市,怀柔镇,颗粒物(PM10),77,104,264,11,43,72,,92,77,8,10,1,2,0.1,0.2
2024-03-29T0000,1010A,116.2296,40.217,北京市,昌平镇,颗粒物(PM10),80,110,342,28,44,31,,81,62,45,15,3,3,0.3,0.2
2024-03-29T0000,1011A,116.3966,39.9821,北京市,奥体中心,颗粒物(PM10),53,56,370,9,58,45,,76,56,32,17,3,3,0.2,0.2
2024-03-29T0000,1012A,116.184,39.9136,北京市,古城,颗粒物(PM10),103,155,449,25,59,63,,100,77,28,14,3,3,0.3,0.3
2024-03-29T0000,3281A,115.9718,40.4529,北京市,延庆夏都,颗粒物(PM10),202,351,345,76,47,78,,88,69,1,6,3,3,0.2,0.2
2024-03-29T0000,3417A,117.0709,40.1465,北京市,平谷新城,颗粒物(PM10),53,56,214,5,41,66,,94,69,12,14,3,3,0.2,0.3
2024-03-29T0000,3418A,116.8336,40.4095,北京市,密云新城,颗粒物(PM10),89,127,252,10,42,71,,91,82,10,7,3,3,0.3,0.3
2024-03-29T0000,3671A,116.088,39.9726,北京市,门头沟三家店,,,,,,,,,,,,,,,,
2024-03-29T0000,3672A,116.1541,39.8204,北京市,丰台云岗,颗粒物(PM10),153,255,429,39,74,54,,87,66,24,13,3,3,0.2,0.2
2024-03-29T0000,3673A,116.6804,39.9081,北京市,通州东关,颗粒物(PM10),66,82,363,11,55,42,,92,60,37,18,3,3,0.4,0.3
2024-03-29T0000,3674A,115.9577,39.7603,北京市,房山燕山,颗粒物(PM10),181,312,421,62,76,69,,83,62,13,17,3,3,0,0.2
2024-03-29T0000,3675A,116.4672,39.7733,北京市,大兴旧宫,颗粒物(PM10),83,116,355,25,59,6,,88,57,69,18,3,3,0.4,0.3
2024-03-29T0000,3694A,115.986,40.4563,北京市,延庆石河营,颗粒物(PM10),190,330,312,73,48,83,,96,72,4,11,3,3,0.2,0.2
2024-03-29T0000,3695A,116.6151,40.3053,北京市,怀柔新城,颗粒物(PM10),69,88,274,9,44,72,,95,78,6,8,3,3,0.1,0.1
2024-03-29T0000,3696A,116.2545,39.8768,北京市,丰台小屯,颗粒物(PM10),91,132,441,21,66,33,,89,58,52,19,3,3,0.1,0.1
2024-03-29T0000,3697A,116.84,40.3844,北京市,密云镇,颗粒物(PM10),68,86,221,6,40,65,,87,75,12,10,3,2,0.2,0.2
2024-03-29T0000,1761A,123.8275,41.3064,本溪市,大峪,颗粒物(PM10),246,382,276,55,50,16,,94,38,33,18,9,8,1.7,1.1
2024-03-29T0000,1762A,123.7567,41.3325,本溪市,溪湖,颗粒物(PM10),176,302,226,44,46,11,,88,44,40,24,4,8,0.9,1
2024-03-29T0000,1763A,123.7169,41.3094,本溪市,彩屯,颗粒物(PM10),170,290,228,51,49,24,,74,43,28,31,6,12,1.2,1.8
2024-03-29T0000,1764A,123.7669,41.2864,本溪市,东明,颗粒物(PM10),215,360,288,56,50,11,,94,37,48,27,3,4,1.3,1
2024-03-29T0000,1765A,123.7992,41.2664,本溪市,新立屯,颗粒物(PM10),225,367,290,43,31,24,,100,24,32,23,9,10,0.9,0.5
2024-03-29T0000,1766A,123.8142,41.3472,本溪市,威宁,颗粒物(PM10),142,233,255,41,50,17,,71,28,26,25,6,6,0.6,0.7
2024-03-29T0000,2587A,105.2864,27.3125,毕节市,八中,细颗粒物(PM2.5),59,60,18,42,10,57,,114,91,21,12,9,8,0.6,0.5
2024-03-29T0000,2588A,105.31,27.2944,毕节市,师专,,48,48,15,27,9,52,,113,96,36,13,6,5,0.6,0.4
2024-03-29T0000,3537A,105.3631,27.3533,毕节市,长征村,,30,29,15,20,10,95,,116,108,13,10,9,8,0.4,0.4
2024-03-29T0000,1629A,118.0018,37.3617,滨州市,第二水厂,颗粒物(PM10),410,510,340,83,74,23,,96,60,55,28,12,8,0.9,0.7
2024-03-29T0000,1630A,117.9776,37.393,滨州市,北中新校,颗粒物(PM10),388,490,334,180,125,21,,90,57,58,26,16,11,0.9,0.7
2024-03-29T0000,3514A,117.9378,37.3956,滨州市,中海酒店,颗粒物(PM10),358,466,321,88,81,34,,97,69,42,20,18,14,0.9,0.7
2024-03-29T0000,3515A,117.9378,37.3553,滨州市,开发区一中,颗粒物(PM10),398,498,331,90,74,27,,84,56,49,26,21,18,0.7,0.6
2024-03-29T0000,3516A,118.0917,37.694,滨州市,金海六路,颗粒物(PM10),442,542,507,80,87,53,,78,63,24,23,12,9,0.6,0.5
2024-03-29T0000,4028A,117.9956,37.3753,滨州市,滨州市西街道办事处,颗粒物(PM10),427,527,349,95,83,21,,91,58,47,23,17,13,1.0,0.7
2024-03-29T0000,2311A,115.8072,33.8399,亳州市,污水处理厂,颗粒物(PM10),67,84,93,30,27,99,,101,99,11,11,8,8,0.5,0.4
2024-03-29T0000,2312A,115.7789,33.8518,亳州市,三国揽胜宫,颗粒物(PM10),71,91,89,29,27,96,,100,98,10,10,7,7,0.4,0.4
2024-03-29T0000,3332A,115.7633,33.8034,亳州市,亳州学院,颗粒物(PM10),68,85,90,31,34,96,,104,96,9,9,7,7,0.5,0.6
2024-03-29T0000,2693A,82.0485,44.8556,博尔塔拉蒙古自治州,市党校,,50,50,31,23,19,53,,98,87,9,10,8,9,0.4,0.3
2024-03-29T0000,2694A,82.0806,44.8969,博尔塔拉蒙古自治州,市环保局,,,,46,,19,38,,99,82,46,20,11,9,0.7,0.6
2024-03-29T0000,1071A,116.8842,38.2991,沧州市,沧县城建局,颗粒物(PM10),313,430,514,94,112,34,,87,61,40,26,7,5,0.7,0.6
2024-03-29T0000,1072A,116.8584,38.3254,沧州市,电视转播站,颗粒物(PM10),318,434,465,90,94,26,,85,58,40,21,7,7,0.4,0.4
2024-03-29T0000,1073A,116.8709,38.3228,沧州市,市环保局,颗粒物(PM10),304,423,444,101,97,44,,103,72,35,23,6,5,0.4,0.3
2024-03-29T0000,3324A,116.8136,38.3004,沧州市,河北水利电力学院,颗粒物(PM10),427,527,420,90,89,30,,84,58,37,23,12,9,0.4,0.3
2024-03-29T0000,2622A,97.1806,31.1273,昌都市,昌都监测站,,23,23,17,10,9,64,,97,77,14,10,6,6,0.6,0.6
2024-03-29T0000,3719A,97.1714,31.1406,昌都市,昌都会议中心,,,11,11,8,7,80,,108,96,,79,7,7,0.6,0.6
2024-03-29T0000,2690A,88.1236,43.8886,昌吉回族自治州,天山天池,,24,12,11,0,5,74,,110,93,6,7,6,6,0.6,0.6
2024-03-29T0000,2692A,87.2717,44.0297,昌吉回族自治州,新区政务中心,颗粒物(PM10),66,81,44,28,22,2,,115,90,94,32,9,9,1.5,0.7
2024-03-29T0000,3613A,87.3095,44.0142,昌吉回族自治州,亚心广场,颗粒物(PM10),60,70,48,27,23,13,,113,88,97,37,8,8,1.6,0.9
2024-03-29T0000,1119A,125.3325,43.9166,长春市,食品厂,颗粒物(PM10),77,104,382,17,61,52,,89,60,33,18,8,7,0.3,0.4
2024-03-29T0000,1120A,125.2863,43.9027,长春市,客车厂,颗粒物(PM10),78,105,363,19,56,51,,84,64,31,15,6,6,0.6,0.5
2024-03-29T0000,1121A,125.2841,43.8463,长春市,邮电学院,颗粒物(PM10),86,122,428,24,56,59,,82,65,24,18,6,8,0.4,0.4
2024-03-29T0000,1122A,125.3716,43.8772,长春市,劳动公园,颗粒物(PM10),84,117,377,25,51,60,,96,75,25,11,4,5,0.3,0.3
2024-03-29T0000,1123A,125.3297,43.8805,长春市,园林处,颗粒物(PM10),71,91,355,16,43,48,,90,65,36,15,8,8,0.4,0.4
2024-03-29T0000,1124A,125.4605,43.79,长春市,净月潭,颗粒物(PM10),76,101,316,13,39,69,,90,73,7,6,6,7,0.3,0.3
2024-03-29T0000,1125A,125.7194,43.515,长春市,甩湾子,,,,,,,,,,,,,,,,
2024-03-29T0000,1126A,125.3863,43.8447,长春市,经开区环卫处,颗粒物(PM10),81,111,362,21,45,17,,88,62,54,13,4,5,0.4,0.4
2024-03-29T0000,1127A,125.245,43.7783,长春市,高新区管委会,颗粒物(PM10),81,111,388,17,50,56,,90,67,18,11,7,8,0.3,0.5
2024-03-29T0000,1128A,125.1761,43.8325,长春市,岱山公园,颗粒物(PM10),93,136,322,32,53,31,,84,54,50,19,5,6,0.5,0.5
2024-03-29T0000,1335A,113.0833,28.2325,长沙市,经开区环保局,颗粒物(PM10),54,58,35,30,25,74,,137,114,39,15,7,5,0.5,0.4
2024-03-29T0000,1336A,112.8872,28.2189,长沙市,高开区环保局,,45,45,32,24,25,104,,132,123,23,10,13,5,1.0,0.5
2024-03-29T0000,1337A,113.0792,28.2053,长沙市,马坡岭,细颗粒物(PM2.5),59,66,36,42,26,38,,126,91,56,13,7,6,0.6,0.5
2024-03-29T0000,1338A,112.9394,28.19,长沙市,湖南师范大学,颗粒物(PM10),54,58,41,30,28,60,,128,66,50,22,4,2,0.8,0.8
2024-03-29T0000,1339A,113.0178,28.1322,长沙市,雨花区环保局,,43,43,34,23,23,86,,139,118,36,11,7,4,0.8,0.6
2024-03-29T0000,1340A,112.9792,28.2597,长沙市,伍家岭,颗粒物(PM10),74,98,41,48,31,3,,123,59,83,29,5,5,1.2,0.8
2024-03-29T0000,1341A,113.0014,28.1944,长沙市,火车新站,颗粒物(PM10),56,61,39,39,29,51,,125,81,60,20,6,4,0.9,0.7
2024-03-29T0000,1342A,112.9844,28.1178,长沙市,天心区环保局,,46,46,36,21,22,80,,132,110,35,12,5,2,0.7,0.6
2024-03-29T0000,1343A,112.8908,28.1308,长沙市,湖南中医药大学,颗粒物(PM10),57,63,36,27,29,3,,132,80,92,21,6,4,1.2,0.9
2024-03-29T0000,1344A,112.9581,28.3611,长沙市,沙坪,,42,,43,29,18,56,,124,94,32,10,5,5,1.3,1.3
2024-03-29T0000,1727A,113.1147,36.1547,长治市,清华站,颗粒物(PM10),65,79,95,29,20,59,,105,86,39,21,8,7,0.7,0.7
2024-03-29T0000,1728A,113.1031,36.1989,长治市,监测站,颗粒物(PM10),54,58,90,19,23,80,,110,96,26,25,11,10,0.5,0.4
2024-03-29T0000,1730A,113.0886,36.2125,长治市,审计局,颗粒物(PM10),51,51,82,22,19,79,,109,93,30,21,11,11,0.3,0.2
2024-03-29T0000,1731A,113.0844,36.1856,长治市,长治八中,颗粒物(PM10),56,62,101,27,20,63,,110,98,48,26,6,6,0.6,0.6
2024-03-29T0000,2845A,113.1569,36.1911,长治市,德盛苑,颗粒物(PM10),53,56,83,19,22,90,,111,101,26,17,9,9,0.4,0.5
2024-03-29T0000,3568A,113.06,36.0464,长治市,向阳小学,颗粒物(PM10),71,92,114,28,27,89,,114,104,28,20,13,12,0.5,0.4
2024-03-29T0000,3569A,112.8792,36.3144,长治市,屯留一中,颗粒物(PM10),54,57,84,10,17,51,,112,90,34,13,8,7,0.5,0.4
2024-03-29T0000,3570A,113.235,36.3489,长治市,潞城四中,颗粒物(PM10),57,64,130,22,28,78,,110,94,22,26,8,13,0.3,0.3
2024-03-29T0000,1854A,111.6975,28.9703,常德市,市二中,,48,48,33,13,12,62,,115,94,31,12,7,6,0.6,0.6
2024-03-29T0000,1857A,111.7158,29.1456,常德市,白鹤山,颗粒物(PM10),52,53,38,10,17,65,,62,61,4,3,5,6,0.4,0.5
2024-03-29T0000,3138A,111.7153,29.0289,常德市,武陵区永安,颗粒物(PM10),51,52,33,21,13,27,,112,86,70,18,14,7,0.5,0.4
2024-03-29T0000,3139A,111.6892,28.9881,常德市,鼎城区玉霞,颗粒物(PM10),56,61,39,23,14,38,,110,75,49,23,9,8,0.8,0.6
2024-03-29T0000,3140A,111.6625,29.0531,常德市,武陵区长庚,颗粒物(PM10),52,53,36,19,16,71,,108,87,24,17,7,6,0.6,0.7
2024-03-29T0000,1196A,119.9633,31.762,常州市,市监测站,细颗粒物(PM2.5),82,94,77,60,50,23,,83,54,70,36,11,7,0.7,0.6
2024-03-29T0000,1200A,119.9468,31.7069,常州市,武进监测站,颗粒物(PM10),66,81,76,47,38,44,,79,64,43,25,15,10,0.9,0.9
2024-03-29T0000,1201A,119.9255,31.9087,常州市,安家,颗粒物(PM10),86,122,91,52,47,36,,77,46,56,44,8,6,1.1,1
2024-03-29T0000,3002A,119.9805,31.8174,常州市,行政中心,细颗粒物(PM2.5),70,70,69,51,50,64,,79,70,36,33,15,12,0.7,0.6
2024-03-29T0000,3003A,120.0522,31.7748,常州市,经开区,颗粒物(PM10),81,112,88,58,45,39,,80,66,53,38,10,6,0.7,0.5
2024-03-29T0000,3010A,119.9025,31.7964,常州市,钟楼,细颗粒物(PM2.5),72,72,74,52,48,70,,75,65,28,30,17,7,0.9,0.9
2024-03-29T0000,3429A,119.8598,31.7066,常州市,武进经发区,颗粒物(PM10),51,52,49,32,30,47,,83,70,45,25,13,7,1.0,0.9
2024-03-29T0000,3430A,119.5826,31.7245,常州市,金坛城区,,40,31,40,28,28,63,,84,76,29,23,6,6,0.8,0.8
2024-03-29T0000,2220A,120.4318,41.5881,朝阳市,西梁,颗粒物(PM10),80,110,600,30,90,36,,89,67,23,6,5,5,0.7,0.5
2024-03-29T0000,2221A,120.4521,41.5646,朝阳市,河畔小区,颗粒物(PM10),87,123,688,26,84,61,,88,76,18,11,6,6,0.6,0.8
2024-03-29T0000,2222A,120.4176,41.5648,朝阳市,八里堡,颗粒物(PM10),92,133,665,34,80,37,,95,69,40,11,18,9,0.9,0.5
2024-03-29T0000,2223A,120.3806,41.5969,朝阳市,农业园区,颗粒物(PM10),77,104,611,26,81,51,,95,74,24,8,5,6,0.4,0.4
2024-03-29T0000,1705A,116.6367,23.6719,潮州市,西园路,颗粒物(PM10),74,98,93,39,40,16,,98,54,30,27,5,10,0.5,0.6
2024-03-29T0000,3026A,116.6183,23.6608,潮州市,市政府,细颗粒物(PM2.5),78,83,80,57,48,25,,103,50,43,36,12,19,1.5,1.2
2024-03-29T0000,4036A,116.6461,23.6761,潮州市,金山,"颗粒物(PM10),细颗粒物(PM2.5)",53,56,69,37,44,14,,106,50,24,28,6,12,0.8,0.9
2024-03-29T0000,2472A,113.0073,25.9061,郴州市,马头岭,,22,22,23,9,11,32,,94,69,25,14,3,5,0.7,0.7
2024-03-29T0000,2473A,113.0116,25.8226,郴州市,市职中,,32,32,25,21,19,13,,111,66,30,12,4,7,0.6,0.6
2024-03-29T0000,2474A,113.0161,25.8001,郴州市,兴隆步行街,,48,48,26,26,16,7,,110,69,42,14,2,4,0.7,0.6
2024-03-29T0000,2475A,113.0383,25.8071,郴州市,市审计局,,28,28,22,19,16,28,,109,78,26,12,5,6,0.7,0.6
2024-03-29T0000,2476A,113.0348,25.7759,郴州市,市环保局,,38,38,26,22,16,26,,106,71,34,14,3,5,0.7,0.6
2024-03-29T0000,1431A,103.9728,30.7236,成都市,金泉两河,,34,34,36,21,16,0,,99,62,65,27,1,2,0.9,0.6
2024-03-29T0000,1432A,104.176,30.6872,成都市,十里店,颗粒物(PM10),51,51,41,23,19,55,,113,85,54,29,2,1,0.6,0.5
2024-03-29T0000,1433A,104.079,30.5706,成都市,三瓦窑,颗粒物(PM10),58,65,39,23,19,13,,106,61,81,39,3,3,0.5,0.4
2024-03-29T0000,1434A,104.1114,30.63,成都市,沙河铺,颗粒物(PM10),54,58,43,33,26,1,,100,55,73,30,1,2,2.8,0.8
2024-03-29T0000,1437A,104.0786,30.6531,成都市,君平街,颗粒物(PM10),65,79,44,43,22,12,,109,70,91,35,6,5,0.9,0.6
2024-03-29T0000,1438A,103.613,31.0283,成都市,灵岩寺,,30,25,14,14,9,94,,120,117,14,11,22,8,0.6,0.5
2024-03-29T0000,2880A,104.0239,30.65639,成都市,大石西路,颗粒物(PM10),64,78,44,38,23,0,,104,47,82,38,6,5,1.5,0.7
2024-03-29T0000,3136A,104.2725,30.5589,成都市,龙泉驿区区政府,,34,31,30,12,15,107,,120,119,14,15,3,4,0.4,0.5
2024-03-29T0000,3357A,104.0106,30.6931,成都市,金博路,颗粒物(PM10),62,73,42,40,21,0,,104,54,79,29,2,2,1.4,0.7
2024-03-29T0000,3359A,104.0578,30.5225,成都市,华阳,细颗粒物(PM2.5),52,51,40,36,28,0,,110,59,92,29,2,3,1.0,0.7
2024-03-29T0000,3487A,104.2394,30.5319,成都市,车城东七路,,42,42,30,18,18,116,,124,122,11,12,4,4,0.4,0.5
2024-03-29T0000,3488A,104.3853,30.7453,成都市,青白江技师分院,,36,36,24,2,14,112,,119,116,18,20,1,3,0.4,0.5
2024-03-29T0000,3489A,104.0789,30.4072,成都市,科学城,,45,45,32,23,21,7,,121,85,62,22,4,4,0.7,0.6
2024-03-29T0000,4011A,103.8506,30.6947,成都市,光华大道三段,"颗粒物(PM10),细颗粒物(PM2.5)",60,69,37,43,22,0,,113,64,79,30,1,2,1.3,0.6
2024-03-29T0000,1062A,117.9531,40.9081,承德市,铁路,颗粒物(PM10),71,92,493,11,70,78,,94,86,9,7,36,10,0.6,0.3
2024-03-29T0000,1063A,117.9392,40.9763,承德市,中国银行,颗粒物(PM10),61,71,521,2,85,72,,95,86,12,8,24,10,0.3,0.2
2024-03-29T0000,1064A,117.9503,40.928,承德市,开发区,颗粒物(PM10),64,78,426,16,59,76,,91,85,8,8,38,9,0.4,0.2
2024-03-29T0000,1065A,117.8051,40.9655,承德市,文化中心,颗粒物(PM10),64,78,531,7,81,69,,96,84,12,7,9,12,0.3,0.3
2024-03-29T0000,1066A,117.9268,41.0026,承德市,离宫,颗粒物(PM10),54,57,449,14,66,61,,91,78,7,4,7,5,0.3,0.3
2024-03-29T0000,2314A,117.47,30.6618,池州市,池州学院,,38,38,28,23,20,86,,112,103,21,17,4,5,0.7,0.8
2024-03-29T0000,3237A,117.4918,30.6617,池州市,展览馆,,35,35,28,16,17,95,,112,98,18,19,4,4,0.7,0.7
2024-03-29T0000,3333A,117.5627,30.695,池州市,第八中学,,33,31,20,23,16,81,,117,99,16,15,3,4,0.9,0.7
2024-03-29T0000,3334A,117.5038,30.6243,池州市,第十二中学,,37,37,21,23,16,82,,115,90,16,23,5,3,1.3,0.7
2024-03-29T0000,1744A,118.9233,42.2816,赤峰市,松山一中,颗粒物(PM10),118,186,386,26,66,81,,89,80,7,8,6,6,0.5,0.5
2024-03-29T0000,1745A,118.9576,42.2728,赤峰市,哈达街,颗粒物(PM10),109,168,393,62,85,76,,82,72,10,12,7,7,0.6,0.6
2024-03-29T0000,1746A,118.8788,42.2554,赤峰市,天义路,颗粒物(PM10),123,196,369,44,85,78,,86,78,4,7,5,5,0.4,0.4
2024-03-29T0000,3058A,119.2658,42.0353,赤峰市,银河街,颗粒物(PM10),99,147,452,26,127,76,,87,79,11,10,10,10,0.4,0.4
2024-03-29T0000,3286A,118.9359,42.3147,赤峰市,桥北物流园区,细颗粒物(PM2.5),118,184,566,89,107,72,,87,78,9,7,4,4,0.6,0.6
2024-03-29T0000,2521A,107.3476,22.4136,崇左市,市环保局江州分局,,50,50,46,32,31,60,,70,68,14,12,8,9,0.8,0.6
2024-03-29T0000,2522A,107.3702,22.3707,崇左市,城南新区,细颗粒物(PM2.5),52,50,43,36,31,50,,62,62,19,12,7,8,0.8,0.7
2024-03-29T0000,2298A,118.3093,32.3153,滁州市,老年大学,细颗粒物(PM2.5),59,51,56,42,53,94,,104,98,15,17,9,7,0.7,0.7
2024-03-29T0000,2299A,118.3244,32.2786,滁州市,人大宾馆,细颗粒物(PM2.5),70,65,63,51,47,70,,98,85,26,15,7,5,0.8,0.8
2024-03-29T0000,3207A,118.3118,32.3038,滁州市,市政府原办公楼,细颗粒物(PM2.5),75,71,67,55,52,83,,97,91,20,19,7,5,0.8,0.7
2024-03-29T0000,3331A,118.3267,32.2634,滁州市,图书馆,细颗粒物(PM2.5),63,61,56,45,44,84,,102,94,21,18,9,6,0.8,0.8
2024-03-29T0000,2605A,101.5482,25.0441,楚雄彝族自治州,州环境监测站,,33,27,35,23,26,102,,121,106,8,12,8,9,0.5,0.5
2024-03-29T0000,2606A,101.538,25.0492,楚雄彝族自治州,市经济开发区,,39,37,39,27,26,97,,118,102,11,13,8,8,0.6,0.5
2024-03-29T0000,2548A,107.5277,31.2827,达州市,达州职业技术学院,颗粒物(PM10),57,64,55,26,20,12,,78,39,47,33,8,8,0.7,0.8
2024-03-29T0000,2549A,107.5086,31.2186,达州市,市环境监测站,颗粒物(PM10),53,55,49,27,21,8,,90,50,66,37,5,6,0.6,0.7
2024-03-29T0000,2550A,107.4988,31.2132,达州市,凤凰小区,颗粒物(PM10),53,56,46,31,25,11,,96,53,62,32,6,6,0.8,0.9
2024-03-29T0000,2551A,107.5082,31.1986,达州市,达县机关宾馆,颗粒物(PM10),57,63,46,36,25,7,,92,41,70,40,4,4,0.6,0.6
2024-03-29T0000,2552A,107.4644,31.2124,达州市,市政中心,颗粒物(PM10),56,62,52,29,24,8,,90,48,77,40,6,10,0.8,0.9
2024-03-29T0000,2614A,100.1542,25.7054,大理白族自治州,大理市环境监测站,,39,,24,27,25,103,,102,98,8,17,7,7,0.5,0.5
2024-03-29T0000,2615A,100.2171,25.5811,大理白族自治州,大理古城,,33,32,31,23,24,79,,116,98,16,12,7,8,0.6,0.6
2024-03-29T0000,1109A,121.612,38.9741,大连市,甘井子,颗粒物(PM10),135,219,274,49,66,60,,92,72,31,22,6,5,0.8,0.8
2024-03-29T0000,1110A,121.565,38.9511,大连市,周水子,颗粒物(PM10),125,199,253,52,68,59,,89,74,30,22,7,6,1.0,0.8
2024-03-29T0000,1111A,121.5637,38.8845,大连市,星海三站,颗粒物(PM10),126,201,258,37,56,59,,92,75,23,18,3,3,0.4,0.6
2024-03-29T0000,1112A,121.6302,38.9117,大连市,青泥洼桥,颗粒物(PM10),119,188,298,38,61,73,,86,70,20,20,8,9,0.7,0.8
2024-03-29T0000,1113A,121.6251,38.8638,大连市,傅家庄,颗粒物(PM10),128,205,246,38,54,67,,95,81,19,14,9,8,0.5,0.6
2024-03-29T0000,1114A,121.5213,38.8661,大连市,七贤岭,颗粒物(PM10),128,206,274,48,64,56,,104,85,28,18,10,9,0.9,0.8
2024-03-29T0000,1115A,121.2529,38.8061,大连市,旅顺,颗粒物(PM10),114,178,258,34,62,60,,78,64,22,21,8,8,0.6,0.7
2024-03-29T0000,1116A,121.7485,39.1311,大连市,金州,颗粒物(PM10),113,176,236,46,68,62,,84,77,20,19,8,9,0.5,0.6
2024-03-29T0000,1117A,121.7811,39.0496,大连市,开发区,颗粒物(PM10),152,254,249,56,64,29,,81,65,62,25,8,6,0.7,0.7
2024-03-29T0000,1118A,121.9762,39.0631,大连市,双D港,颗粒物(PM10),115,180,360,48,66,41,,92,76,30,19,6,7,0.8,0.8
2024-03-29T0000,1789A,124.81117,46.03138,大庆市,大同区,,41,41,288,13,101,66,,78,73,6,8,7,7,0.4,0.4
2024-03-29T0000,1790A,125.129,46.533,大庆市,龙凤区,,37,37,448,21,63,62,,80,75,11,9,3,4,0.1,0.3
2024-03-29T0000,1791A,124.902,46.408,大庆市,红岗区,,28,28,570,7,62,59,,79,74,13,7,4,4,0.4,0.5
2024-03-29T0000,1792A,125.153,46.586,大庆市,萨尔图区,,25,25,274,8,79,64,,74,71,8,8,7,7,0.4,0.4
2024-03-29T0000,1793A,124.9042,46.6215,大庆市,让胡路区,,28,28,511,11,60,65,,78,74,7,7,6,7,0.4,0.4
2024-03-29T0000,3481A,125.141,46.634,大庆市,萨区政府监测点,,22,15,340,12,82,68,,82,75,6,7,7,7,0.2,0.3
2024-03-29T0000,1721A,113.3819,40.1097,大同市,果树场,,,,,,,,,,,,,,,,
2024-03-29T0000,1723A,113.2994,40.0758,大同市,云冈宾馆,颗粒物(PM10),150,250,449,93,78,84,,99,90,5,9,3,3,0.5,0.5
2024-03-29T0000,1724A,113.3444,40.0917,大同市,大同大学,颗粒物(PM10),500,927,498,48,71,78,,96,89,4,7,8,10,0.5,0.5
2024-03-29T0000,1725A,113.2661,40.1269,大同市,安家小村,颗粒物(PM10),500,915,506,32,71,78,,92,86,3,7,10,10,0.3,0.3
2024-03-29T0000,1726A,113.2711,40.0844,大同市,教育学院,颗粒物(PM10),500,878,499,45,67,80,,93,86,1,6,4,4,0.3,0.4
2024-03-29T0000,3282A,113.3397,40.0597,大同市,大同市卫生学校,颗粒物(PM10),500,650,553,46,68,87,,98,90,4,10,3,3,0.5,0.5
2024-03-29T0000,3565A,113.1367,40.1122,大同市,云冈站,颗粒物(PM10),500,839,467,132,85,77,,99,89,7,5,6,4,0.3,0.3
2024-03-29T0000,3566A,113.1186,40.2556,大同市,图书馆,颗粒物(PM10),500,644,483,106,88,70,,87,79,4,2,7,7,0.6,0.5
2024-03-29T0000,3567A,113.5931,40.0461,大同市,区一中,颗粒物(PM10),500,1142,588,81,64,79,,90,84,4,10,1,2,0.5,0.5
2024-03-29T0000,3676A,113.2802,40.0995,大同市,第二人民医院,颗粒物(PM10),500,806,483,49,71,85,,100,92,4,7,5,5,0.6,0.6
2024-03-29T0000,2269A,124.1069,50.4097,大兴安岭地区,科技局,,23,23,117,15,28,68,,82,69,3,6,7,8,0.3,0.5
2024-03-29T0000,3663A,124.1164,50.4278,大兴安岭地区,红旗社区,,22,12,123,4,17,70,,85,70,4,8,11,13,0.4,0.5
2024-03-29T0000,1600A,124.3303,40.0625,丹东市,江湾东路,颗粒物(PM10),81,111,46,47,29,67,,92,57,14,20,7,10,0.6,0.5
2024-03-29T0000,1601A,124.4256,40.1503,丹东市,临江后街,颗粒物(PM10),91,131,45,43,23,57,,92,64,13,11,10,10,0.8,0.7
2024-03-29T0000,1602A,124.3933,40.1461,丹东市,元宝山,颗粒物(PM10),92,133,43,47,23,56,,83,50,14,16,7,8,0.9,0.6
2024-03-29T0000,1603A,124.3633,40.1092,丹东市,民主桥,颗粒物(PM10),89,128,39,44,21,57,,86,55,16,15,10,9,0.7,0.5
2024-03-29T0000,3541A,109.5726,19.5167,儋州市,第一中学子站,,43,43,31,29,22,59,,73,59,8,5,8,8,0.5,0.4
2024-03-29T0000,3542A,109.5567,19.5187,儋州市,东坡学校子站,,44,44,32,24,20,61,,73,57,6,5,10,9,0.5,0.5
2024-03-29T0000,2616A,98.5842,24.428,德宏傣族景颇族自治州,德宏州监测站,细颗粒物(PM2.5),79,72,74,58,38,79,,130,102,18,23,4,11,0.7,0.7
2024-03-29T0000,3677A,98.5881,24.4368,德宏傣族景颇族自治州,芒市人民政府综合楼,"颗粒物(PM10),细颗粒物(PM2.5)",60,70,69,43,42,87,,135,112,13,16,7,7,0.7,0.7
2024-03-29T0000,1901A,104.4239,31.1208,德阳市,东山公园,,33,,37,19,26,105,,116,114,14,26,3,2,0.5,0.6
2024-03-29T0000,1902A,104.3826,31.1317,德阳市,西小区,颗粒物(PM10),57,64,53,36,35,8,,103,71,88,41,3,3,0.9,0.7
2024-03-29T0000,1904A,104.3553,31.1091,德阳市,耐火材料厂,细颗粒物(PM2.5),68,72,52,49,34,29,,108,76,60,35,4,4,0.6,0.6
2024-03-29T0000,3639A,104.4019,31.1244,德阳市,市教育局,颗粒物(PM10),51,51,48,27,29,19,,108,79,76,33,2,2,0.6,0.5
2024-03-29T0000,1622A,116.3032,37.4674,德州市,儿童乐园,颗粒物(PM10),123,195,288,51,65,64,,96,85,19,14,8,7,0.7,0.7
2024-03-29T0000,1624A,116.2991,37.4451,德州市,监理站,颗粒物(PM10),119,188,278,58,65,66,,98,86,20,16,12,10,0.6,0.5
2024-03-29T0000,3066A,116.2721,37.4379,德州市,九衢泉纯净水厂,颗粒物(PM10),114,178,265,48,59,60,,96,78,23,19,6,5,0.7,0.7
2024-03-29T0000,3371A,116.3728,37.4403,德州市,开发区人民医院,颗粒物(PM10),131,212,287,48,59,67,,96,84,18,13,8,8,0.6,0.5
2024-03-29T0000,3372A,116.3572,37.4094,德州市,太阳城中学,颗粒物(PM10),126,202,288,56,67,59,,95,80,22,15,7,6,0.5,0.5
2024-03-29T0000,3511A,116.5652,37.3319,德州市,陵城艺术中心,颗粒物(PM10),117,183,278,46,60,62,,94,79,18,13,6,6,0.7,0.6
2024-03-29T0000,2621A,99.7056,27.8317,迪庆藏族自治州,迪庆州站,,25,24,16,17,10,71,,107,98,18,9,10,7,0.6,0.4
2024-03-29T0000,3180A,99.7136,27.8094,迪庆藏族自治州,质量技术监督局,,27,27,25,6,8,72,,101,89,16,14,6,6,0.4,0.4
2024-03-29T0000,2663A,104.6241,35.5734,定西市,东关小学,颗粒物(PM10),62,73,63,41,27,7,,72,58,51,26,12,13,0.6,0.5
2024-03-29T0000,2664A,104.6194,35.5934,定西市,供电公司,"颗粒物(PM10),细颗粒物(PM2.5)",68,86,59,49,36,1,,101,49,72,39,16,14,0.6,0.5
2024-03-29T0000,1389A,113.7547,23.0494,东莞市,莞城梨川,颗粒物(PM10),66,81,55,37,25,42,,139,103,49,27,10,8,0.8,0.8
2024-03-29T0000,1390A,113.7944,23.0128,东莞市,东城石井,颗粒物(PM10),59,68,46,35,22,30,,139,103,44,23,8,8,0.8,0.7
2024-03-29T0000,1391A,113.7383,22.9658,东莞市,南城西平,颗粒物(PM10),65,80,53,30,24,29,,129,94,56,35,8,7,0.9,0.8
2024-03-29T0000,3319A,113.7338,23.0381,东莞市,万江金泰,颗粒物(PM10),73,96,56,48,27,17,,134,98,79,29,17,9,1.1,0.9
2024-03-29T0000,3626A,113.7533,23.0202,东莞市,南城元岭,颗粒物(PM10),71,91,50,41,23,13,,134,101,87,28,12,10,1.0,0.7
2024-03-29T0000,3627A,113.7875,23.0457,东莞市,东城主山,颗粒物(PM10),64,77,49,37,23,44,,136,103,46,25,10,9,0.7,0.7
2024-03-29T0000,1666A,118.6614,37.4309,东营市,市环保局,颗粒物(PM10),318,434,375,66,73,64,,94,89,28,23,15,8,0.4,0.4
2024-03-29T0000,3036A,118.6904,37.4338,东营市,开发区管委会,颗粒物(PM10),357,465,382,75,73,58,,88,83,33,27,12,4,0.7,0.6
2024-03-29T0000,3365A,118.5719,37.565,东营市,垦利区民丰路,颗粒物(PM10),262,393,386,51,67,71,,87,83,30,29,11,10,0.8,0.8
2024-03-29T0000,3498A,118.5055,37.8612,东营市,河口城区,颗粒物(PM10),191,332,338,35,65,91,,100,91,8,16,5,5,0.6,0.7
2024-03-29T0000,3646A,118.4978,37.4623,东营市,胜利站,颗粒物(PM10),320,436,325,73,72,54,,84,76,33,27,18,11,0.8,0.7
2024-03-29T0000,3734A,118.35,37.26,东营市,理想之城,颗粒物(PM10),286,410,365,78,78,40,,82,73,43,24,25,10,0.5,0.5
2024-03-29T0000,1591A,110.0023,39.8129,鄂尔多斯市,综合楼,颗粒物(PM10),68,85,523,41,83,73,,91,83,11,18,2,6,0.5,0.5
2024-03-29T0000,1592A,109.9486,39.8261,鄂尔多斯市,巴音孟克林场办事处,颗粒物(PM10),69,88,452,17,70,73,,90,80,10,22,6,8,0.5,0.6
2024-03-29T0000,1593A,109.7736,39.5986,鄂尔多斯市,康泽苑,颗粒物(PM10),97,144,505,27,77,75,,96,86,11,10,5,5,0.4,0.5
2024-03-29T0000,1594A,109.8119,39.5989,鄂尔多斯市,华泰汽车城,颗粒物(PM10),95,139,490,31,100,73,,94,86,10,12,5,6,0.3,0.4
2024-03-29T0000,1595A,109.9734,39.7884,鄂尔多斯市,奥林花园,颗粒物(PM10),70,90,487,12,78,66,,88,82,19,22,6,8,0.4,0.5
2024-03-29T0000,2436A,114.8938,30.3994,鄂州市,市政府,细颗粒物(PM2.5),65,74,59,47,39,54,,100,70,34,31,13,10,1.2,1.1
2024-03-29T0000,2437A,114.8989,30.3714,鄂州市,赵家坝,细颗粒物(PM2.5),70,59,48,51,40,54,,109,92,31,18,11,6,1.1,0.9
2024-03-29T0000,3654A,114.8094,30.4089,鄂州市,精准医疗中心,颗粒物(PM10),84,118,68,45,39,39,,115,86,57,26,8,5,0.6,0.6
2024-03-29T0000,2454A,109.4978,30.2981,恩施土家族苗族自治州,湖北民院,颗粒物(PM10),58,66,42,25,18,38,,86,59,9,17,8,8,0.6,0.8
2024-03-29T0000,2455A,109.4707,30.2798,恩施土家族苗族自治州,州电力总公司,颗粒物(PM10),62,73,37,36,19,9,,86,54,43,20,8,8,1.1,0.9
2024-03-29T0000,3549A,109.5061,30.3772,恩施土家族苗族自治州,龙凤新区,,49,49,29,22,15,49,,86,61,14,15,6,7,0.6,0.6
2024-03-29T0000,2499A,108.3411,21.6158,防城港市,沙万,,38,38,50,21,29,61,,41,41,12,33,3,6,0.5,0.5
2024-03-29T0000,2500A,108.3514,21.7731,防城港市,防城档案局,颗粒物(PM10),64,78,54,25,36,44,,57,45,32,22,7,9,0.5,0.6
2024-03-29T0000,2501A,108.3506,21.6414,防城港市,大海花园,,38,38,46,21,28,54,,49,48,19,24,4,7,0.6,0.6
2024-03-29T0000,1371A,113.1294,23.0067,佛山市,湾梁,颗粒物(PM10),63,75,51,30,19,30,,107,68,53,21,12,9,0.7,0.5
2024-03-29T0000,1372A,113.1083,23.0478,佛山市,华材职中,颗粒物(PM10),76,102,53,50,24,5,,100,52,86,25,9,8,0.8,0.5
2024-03-29T0000,1373A,113.144,23.0453,佛山市,南海气象局,颗粒物(PM10),62,74,50,40,23,23,,100,63,66,24,10,9,0.8,0.6
2024-03-29T0000,1374A,113.2881,22.8094,佛山市,顺德苏岗,颗粒物(PM10),61,72,45,31,23,2,,116,63,77,30,5,5,0.8,0.7
2024-03-29T0000,1376A,112.8383,22.8678,佛山市,高明孔堂,颗粒物(PM10),57,64,38,35,20,27,,84,58,37,16,6,5,0.5,0.4
2024-03-29T0000,1377A,112.8836,23.1588,佛山市,三水监测站,颗粒物(PM10),75,100,58,41,29,2,,81,47,66,39,12,8,0.7,0.7
2024-03-29T0000,1378A,112.867,23.185,佛山市,三水云东海,细颗粒物(PM2.5),62,71,51,44,29,2,,77,38,56,35,7,7,0.7,0.5
2024-03-29T0000,3625A,113.2544,22.7642,佛山市,容桂街道办,颗粒物(PM10),58,66,48,24,20,13,,101,64,64,31,7,7,0.7,0.6
2024-03-29T0000,1280A,119.3903,26.0543,福州市,鼓山,,,,,,,,,,,,,,,,
2024-03-29T0000,1282A,119.2681,26.0504,福州市,师大,,27,27,54,17,32,55,,75,61,27,34,3,4,0.5,0.5
2024-03-29T0000,1283A,119.2984,26.1028,福州市,五四北路,,38,38,47,17,26,21,,76,56,53,37,3,4,0.6,0.5
2024-03-29T0000,1284A,119.2648,26.0768,福州市,杨桥西路,,25,25,45,8,25,65,,88,82,24,26,3,4,0.4,0.4
2024-03-29T0000,1285A,119.317,26.0746,福州市,紫阳,颗粒物(PM10),52,54,58,26,29,10,,64,52,61,38,2,3,1.0,0.7
2024-03-29T0000,3048A,119.5799,26.0936,福州市,九龙,,49,38,41,34,27,61,,70,54,28,30,4,4,0.6,0.5
2024-03-29T0000,3526A,119.5189,25.9664,福州市,吴航,,35,35,44,21,26,11,,63,24,41,32,3,5,0.8,0.7
2024-03-29T0000,1755A,123.7977,41.8491,抚顺市,望花区,颗粒物(PM10),103,155,206,42,46,37,,88,51,30,24,16,11,0.7,0.8
2024-03-29T0000,1756A,123.9161,41.8822,抚顺市,顺城区,颗粒物(PM10),85,120,240,31,44,10,,104,45,48,26,6,6,0.7,0.5
2024-03-29T0000,1757A,124.0436,41.8611,抚顺市,东洲区,颗粒物(PM10),85,120,250,30,56,51,,90,57,9,14,9,8,0.5,0.7
2024-03-29T0000,1758A,123.9247,41.8642,抚顺市,新抚区,颗粒物(PM10),92,134,236,56,51,13,,102,56,43,20,7,8,0.7,0.7
2024-03-29T0000,1759A,124.0972,41.8961,抚顺市,大伙房水库,颗粒物(PM10),75,100,290,29,51,51,,104,71,10,9,5,5,0.5,0.6
2024-03-29T0000,1760A,123.7086,41.8391,抚顺市,沈抚新城,颗粒物(PM10),92,133,208,32,39,45,,86,53,18,18,4,6,0.4,0.5
2024-03-29T0000,2376A,116.2127,28.0814,抚州市,桐源党溪,,24,24,28,13,14,57,,107,84,10,8,5,5,0.4,0.6
2024-03-29T0000,2377A,116.3544,27.9831,抚州市,市站,,35,35,32,17,19,72,,116,84,10,12,1,2,0.6,0.8
2024-03-29T0000,2378A,116.3565,27.963,抚州市,血防站,,44,44,32,17,17,73,,124,98,20,14,1,4,0.7,0.9
2024-03-29T0000,2379A,116.3564,28.0007,抚州市,采茶剧团,,33,33,37,16,19,72,,117,92,25,16,7,8,0.8,0.9
2024-03-29T0000,2380A,116.385,27.9647,抚州市,医学分院,,37,37,32,15,16,56,,120,90,31,19,9,11,0.8,1
2024-03-29T0000,2207A,121.6094,41.998,阜新市,工业园区,颗粒物(PM10),104,158,326,30,36,40,,94,72,34,17,11,11,0.6,0.6
2024-03-29T0000,2208A,121.6697,42.0279,阜新市,长青街,颗粒物(PM10),103,156,354,49,53,45,,96,76,34,13,20,9,0.5,0.5
2024-03-29T0000,2209A,121.6673,42.0705,阜新市,农业园区,颗粒物(PM10),110,170,368,44,66,45,,92,77,31,10,22,8,0.3,0.2
2024-03-29T0000,2210A,121.6717,42.0224,阜新市,东苑,颗粒物(PM10),99,148,355,31,69,50,,90,74,36,16,25,13,1.1,1
2024-03-29T0000,2211A,121.6506,42.0498,阜新市,玉龙新城,颗粒物(PM10),128,205,363,37,34,10,,92,59,62,16,14,8,0.8,0.4
2024-03-29T0000,2301A,115.8277,32.8929,阜阳市,市监测站,颗粒物(PM10),73,96,80,51,40,108,,101,98,12,13,7,7,0.7,0.6
2024-03-29T0000,2303A,115.8554,32.8605,阜阳市,开发区,颗粒物(PM10),80,110,100,41,44,92,,103,96,12,14,6,5,0.7,0.5
2024-03-29T0000,2875A,115.784,32.8892,阜阳市,阜阳职业技术学院,颗粒物(PM10),72,94,88,37,34,102,,110,103,13,14,5,4,0.7,0.6
2024-03-29T0000,3468A,115.7901,32.8613,阜阳市,市规划展馆,颗粒物(PM10),68,86,74,48,34,104,,108,102,16,18,5,5,0.6,0.5
2024-03-29T0000,3469A,115.836,32.9183,阜阳市,枣园社区,颗粒物(PM10),67,83,69,47,31,114,,107,105,12,13,7,6,0.6,0.5
2024-03-29T0000,2669A,102.9099,34.9841,甘南藏族自治州,州政府,颗粒物(PM10),67,83,50,34,21,11,,94,68,52,24,15,11,1.0,0.7
2024-03-29T0000,3380A,102.8914,34.9617,甘南藏族自治州,甘肃民族师范学院,,,32,53,10,17,40,,89,54,39,32,,11,0.7,0.9
2024-03-29T0000,2570A,101.9603,30.0475,甘孜藏族自治州,水桥子,,28,27,19,17,10,21,,110,61,55,25,11,11,0.4,0.3
2024-03-29T0000,3065A,101.9533,29.9972,甘孜藏族自治州,州环保局,,27,13,20,4,5,84,,112,92,5,9,8,8,0.3,0.2
2024-03-29T0000,3414A,115.8347,28.932,赣江新区,桑海产业园,颗粒物(PM10),69,88,32,23,14,23,,107,77,88,25,8,6,0.5,0.4
2024-03-29T0000,2362A,114.9017,25.9149,赣州市,通天岩,,,,,,,,,,,,,,,,
2024-03-29T0000,2363A,114.9367,25.8664,赣州市,地委,,32,32,28,14,20,47,,88,76,18,11,10,10,0.9,1
2024-03-29T0000,2364A,114.9461,25.8481,赣州市,气象台,,33,33,26,19,19,47,,98,79,36,22,32,13,0.6,0.6
2024-03-29T0000,2365A,114.9322,25.8333,赣州市,市图书馆,,37,37,27,12,16,54,,95,82,25,14,52,17,0.8,0.9
2024-03-29T0000,2366A,114.8905,25.8471,赣州市,华坚鞋城,,38,38,31,19,18,52,,88,79,22,12,7,5,0.5,0.5
2024-03-29T0000,3109A,115.0093,25.8613,赣州市,赣县区卫计委,,30,30,23,15,17,40,,94,72,30,13,12,12,0.6,0.5
2024-03-29T0000,2683A,106.2319,36.1417,固原市,马园,,50,50,87,21,20,33,,105,72,39,23,5,4,0.7,0.8
2024-03-29T0000,2684A,106.2792,36.0022,固原市,监测站,,49,49,75,14,18,80,,101,85,31,17,7,6,0.3,0.4
2024-03-29T0000,2685A,106.2375,36.0211,固原市,新区,,33,33,53,11,15,86,,100,90,15,13,8,8,0.2,0.2
2024-03-29T0000,3522A,106.2177,35.9959,固原市,原州区十五小,,33,32,54,10,17,105,,111,105,7,8,6,6,0.0,0.1
2024-03-29T0000,2543A,106.6308,30.5278,广安市,小平旧居,,,,,,,,,,,,,,,,
2024-03-29T0000,2544A,106.6303,30.4576,广安市,市委,颗粒物(PM10),69,87,57,39,30,20,,113,62,60,28,5,6,0.9,0.7
2024-03-29T0000,2545A,106.6271,30.4663,广安市,友谊中学,颗粒物(PM10),60,69,52,36,26,40,,114,80,38,22,5,6,0.8,0.8
2024-03-29T0000,2547A,106.6388,30.4551,广安市,广电花园,颗粒物(PM10),68,86,50,38,27,20,,113,63,50,25,7,7,0.9,0.7
2024-03-29T0000,2902A,106.6351,30.4865,广安市,北辰小学,颗粒物(PM10),59,67,48,40,29,50,,112,83,24,20,8,10,0.7,0.7
2024-03-29T0000,2523A,105.8945,32.4535,广元市,黑石坡,,35,29,31,10,13,110,,118,117,11,14,8,6,0.3,0.3
2024-03-29T0000,2524A,105.821,32.4444,广元市,老城,,42,42,42,17,14,72,,107,100,25,30,4,3,0.6,0.5
2024-03-29T0000,2526A,105.8628,32.4287,广元市,监测站,,39,39,33,11,17,85,,114,108,12,14,5,5,0.5,0.5
2024-03-29T0000,3617A,105.8047,32.4166,广元市,经开区,颗粒物(PM10),51,51,62,35,30,63,,115,108,42,31,6,8,0.6,0.6
2024-03-29T0000,1345A,113.2347,23.1423,广州市,广雅中学,颗粒物(PM10),63,76,54,38,28,7,,97,48,100,43,8,6,1.0,0.8
2024-03-29T0000,1346A,113.2612,23.105,广州市,市五中,颗粒物(PM10),66,81,51,44,27,7,,105,61,98,36,9,7,0.9,0.7
2024-03-29T0000,1348A,113.3478,23.0916,广州市,广东商学院,颗粒物(PM10),78,105,53,49,29,3,,107,53,93,45,7,5,0.9,0.6
2024-03-29T0000,1349A,113.4332,23.1047,广州市,市八十六中,颗粒物(PM10),79,108,58,46,25,4,,116,69,88,40,7,6,0.8,0.6
2024-03-29T0000,1350A,113.3505,22.9483,广州市,番禺中学,颗粒物(PM10),61,71,48,26,22,36,,122,75,60,33,6,7,0.8,0.7
2024-03-29T0000,1351A,113.2146,23.3916,广州市,花都师范,颗粒物(PM10),62,73,54,40,28,23,,96,75,51,29,8,7,0.8,0.6
2024-03-29T0000,1352A,113.2597,23.1331,广州市,市监测站,颗粒物(PM10),73,96,52,48,26,3,,92,48,103,40,8,6,0.7,0.5
2024-03-29T0000,1353A,113.5618,23.312,广州市,九龙镇镇龙,颗粒物(PM10),67,84,55,40,27,1,,94,64,64,34,6,6,0.7,0.6
2024-03-29T0000,1354A,113.2765,23.1544,广州市,麓湖,颗粒物(PM10),66,81,47,46,27,4,,102,54,69,33,6,5,0.9,0.6
2024-03-29T0000,1355A,113.443,23.3035,广州市,帽峰山森林公园,颗粒物(PM10),53,55,41,25,19,62,,106,88,15,18,4,4,0.9,0.9
2024-03-29T0000,2846A,113.3221,23.1322,广州市,体育西,颗粒物(PM10),65,80,54,44,27,19,,105,67,70,34,12,8,0.8,0.7
2024-03-29T0000,3298A,113.5717,23.5491,广州市,从化街口,细颗粒物(PM2.5),69,82,51,50,30,5,,101,51,58,26,7,7,0.8,0.7
2024-03-29T0000,3299A,113.3472,23.3692,广州市,白云竹料,颗粒物(PM10),72,94,64,43,30,5,,100,47,68,37,7,7,0.7,0.8
2024-03-29T0000,3300A,113.2981,23.237,广州市,白云嘉禾,颗粒物(PM10),85,120,63,56,31,4,,103,50,90,47,6,5,1.0,0.8
2024-03-29T0000,3301A,113.4256,23.1716,广州市,黄埔科学城,颗粒物(PM10),64,77,55,36,27,12,,108,68,65,37,5,5,0.9,0.8
2024-03-29T0000,3302A,113.3942,23.0483,广州市,番禺大学城,颗粒物(PM10),67,83,47,43,22,14,,120,72,80,31,7,4,1.1,0.9
2024-03-29T0000,3303A,113.4922,22.8168,广州市,南沙黄阁,颗粒物(PM10),51,52,56,22,24,47,,113,70,42,35,5,5,0.8,0.8
2024-03-29T0000,3304A,113.5342,22.7896,广州市,南沙街,颗粒物(PM10),52,53,47,24,21,28,,97,60,45,31,4,5,0.8,0.7
2024-03-29T0000,3443A,113.2902,23.5544,广州市,花都梯面,,41,41,43,28,23,2,,102,46,35,27,6,6,0.7,0.7
2024-03-29T0000,3445A,113.7858,23.7478,广州市,从化良口,,30,30,22,17,14,36,,100,71,14,14,4,4,0.5,0.4
2024-03-29T0000,3446A,113.8051,23.2614,广州市,增城荔城,颗粒物(PM10),56,61,53,33,28,24,,116,74,34,22,5,6,0.6,0.6
2024-03-29T0000,2505A,109.568,23.1478,贵港市,德智高中,,32,32,37,16,27,61,,97,93,32,16,5,5,0.5,0.4
2024-03-29T0000,2506A,109.6047,23.0666,贵港市,江南子站,颗粒物(PM10),60,70,45,38,30,26,,97,82,44,16,5,6,0.9,0.7
2024-03-29T0000,2507A,109.6014,23.0948,贵港市,贵城子站,,48,48,44,31,28,40,,92,83,37,14,7,7,1.2,0.9
2024-03-29T0000,2508A,109.5669,23.1065,贵港市,荷城子站,颗粒物(PM10),58,66,41,29,21,34,,87,80,40,14,10,10,0.8,0.5
2024-03-29T0000,3405A,109.5886,23.1172,贵港市,新世纪学校,,41,41,43,24,27,65,,95,89,17,12,8,8,0.9,0.7
2024-03-29T0000,1439A,106.6899,26.5998,贵阳市,马鞍山,,41,41,20,24,8,21,,106,69,30,11,7,6,0.7,0.6
2024-03-29T0000,1440A,106.6971,26.5694,贵阳市,市环保站,颗粒物(PM10),71,92,32,43,18,4,,111,65,75,22,6,4,0.9,0.5
2024-03-29T0000,1441A,106.6243,26.6266,贵阳市,鉴湖路,颗粒物(PM10),52,53,30,17,11,72,,110,92,25,12,3,3,0.4,0.4
2024-03-29T0000,1442A,106.7487,26.6343,贵阳市,燕子冲,,48,48,24,19,17,23,,108,80,50,13,9,8,0.5,0.4
2024-03-29T0000,1443A,106.6555,26.4365,贵阳市,碧云窝,,48,48,28,31,13,23,,117,80,24,12,4,4,0.4,0.4
2024-03-29T0000,1444A,106.694,26.5161,贵阳市,中院村,颗粒物(PM10),73,95,33,51,17,0,,104,60,62,21,14,8,0.7,0.5
2024-03-29T0000,1445A,106.7109,26.6027,贵阳市,红边门,颗粒物(PM10),57,63,30,39,20,18,,92,58,59,19,10,14,0.6,0.4
2024-03-29T0000,1446A,106.7164,26.5699,贵阳市,新华路,颗粒物(PM10),63,75,31,29,17,13,,110,72,75,20,7,6,0.5,0.5
2024-03-29T0000,1447A,106.674,26.5424,贵阳市,太慈桥,,39,39,23,27,14,37,,108,66,32,18,6,6,0.3,0.3
2024-03-29T0000,1552A,106.805,26.3003,贵阳市,桐木岭,,,,,,,,,,,,,,,,
2024-03-29T0000,1862A,110.4144,25.3167,桂林市,电子科大尧山校区,,25,25,24,13,16,56,,100,79,5,6,4,6,0.6,0.6
2024-03-29T0000,1863A,110.2819,25.2697,桂林市,监测站,,42,42,37,23,36,24,,90,56,45,22,11,11,1.0,0.8
2024-03-29T0000,1864A,110.3089,25.2708,桂林市,龙隐路小学,,29,29,34,17,33,53,,95,69,16,14,8,8,0.7,0.7
2024-03-29T0000,1865A,110.2869,25.2178,桂林市,八中,,42,42,34,17,25,29,,94,59,34,23,7,7,0.4,0.4
2024-03-29T0000,3403A,110.1764,25.2381,桂林市,创业大厦,,34,34,26,14,20,62,,107,82,18,13,7,13,0.6,0.5
2024-03-29T0000,3531A,110.296,25.1253,桂林市,旅游学院,,25,24,25,17,18,29,,103,69,31,16,7,7,0.6,0.6
2024-03-29T0000,2674A,100.2561,34.4714,果洛藏族自治州,玛沁县大武镇,,33,29,29,23,17,44,,94,78,14,6,12,13,0.5,0.5
2024-03-29T0000,1129A,126.5422,45.755,哈尔滨市,岭北,颗粒物(PM10),60,69,268,10,48,90,,96,83,8,11,9,7,1.1,0.9
2024-03-29T0000,1130A,126.561,45.8167,哈尔滨市,松北商大,颗粒物(PM10),59,67,344,16,45,74,,92,80,11,8,3,4,0.4,0.4
2024-03-29T0000,1131A,126.979,45.5419,哈尔滨市,阿城会宁,颗粒物(PM10),63,76,208,10,29,72,,91,72,8,10,3,4,0.5,0.6
2024-03-29T0000,1132A,126.599,45.7222,哈尔滨市,南岗学府路,颗粒物(PM10),65,80,360,5,44,72,,82,68,6,8,6,6,0.3,0.4
2024-03-29T0000,1133A,126.689,45.7733,哈尔滨市,太平宏伟公园,颗粒物(PM10),65,80,362,17,46,79,,88,,15,13,7,5,0.5,0.5
2024-03-29T0000,1134A,126.635,45.7667,哈尔滨市,道外承德广场,颗粒物(PM10),58,66,266,17,50,69,,89,68,20,19,7,8,0.5,0.4
2024-03-29T0000,1135A,126.685,45.7319,哈尔滨市,香坊红旗大街,颗粒物(PM10),65,80,330,12,43,68,,87,75,17,14,6,6,0.3,0.4
2024-03-29T0000,1136A,126.6411,45.7258,哈尔滨市,动力和平路,颗粒物(PM10),62,74,328,8,36,81,,93,79,8,10,4,5,0.4,0.5
2024-03-29T0000,1137A,126.593,45.7478,哈尔滨市,道里建国路,颗粒物(PM10),58,65,324,28,55,69,,85,73,8,7,4,7,0.1,0.3
2024-03-29T0000,1138A,126.615,45.61,哈尔滨市,平房东轻厂,颗粒物(PM10),60,69,320,19,40,60,,86,62,18,10,5,5,0.2,0.3
2024-03-29T0000,1139A,126.595,45.9855,哈尔滨市,呼兰师专,颗粒物(PM10),69,88,401,19,57,72,,81,74,13,11,6,8,0.5,0.5
2024-03-29T0000,1140A,126.6206,45.6842,哈尔滨市,省农科院,颗粒物(PM10),61,72,333,20,42,63,,92,71,18,9,7,8,0.3,0.4
2024-03-29T0000,2688A,93.5128,42.8172,哈密市,地区监测站,颗粒物(PM10),65,80,59,29,23,84,,118,104,22,30,3,3,0.2,0.3
2024-03-29T0000,2689A,93.4961,42.8328,哈密市,哈密师范学校,颗粒物(PM10),58,65,59,21,21,66,,115,93,28,34,5,6,0.5,0.6
2024-03-29T0000,2671A,100.9048,36.9639,海北藏族自治州,海晏县西海镇,,30,30,30,12,14,78,,94,92,11,4,11,11,0.3,0.3
2024-03-29T0000,3867A,102.0738,36.5056,海东市,平安区公安北苑,,37,37,37,9,18,47,,88,75,22,11,5,6,0.3,0.4
2024-03-29T0000,1409A,110.576,19.9507,海口市,东寨港,,,,,,,,,,,,,,,,
2024-03-29T0000,1410A,110.3232,20.0574,海口市,海南大学,,34,34,33,19,23,36,,75,,13,6,7,7,0.2,0.3
2024-03-29T0000,1411A,110.283,20.0053,海口市,秀英海南医院,,38,36,33,26,25,32,,76,62,20,8,9,9,0.4,0.3
2024-03-29T0000,1412A,110.338,19.9969,海口市,海南师范大学,,44,44,35,27,23,28,,79,59,15,6,8,8,0.5,0.4
2024-03-29T0000,1413A,110.33,20.0356,海口市,龙华路环保局宿舍,,37,37,33,21,22,34,,73,52,13,7,8,8,0.3,0.3
2024-03-29T0000,3539A,110.5111,19.9736,海口市,桂林洋子站,,38,38,32,19,22,30,,74,49,6,6,7,7,0.3,0.3
2024-03-29T0000,2673A,100.6188,36.2866,海南藏族自治州,共和县恰卜恰镇,,30,30,33,8,13,49,,104,84,32,19,11,12,0.5,0.6
2024-03-29T0000,2676A,97.3731,37.3753,海西蒙古族藏族自治州,德令哈市,,33,33,39,19,14,63,,105,89,10,14,9,11,0.6,0.7
2024-03-29T0000,1048A,114.5302,36.6116,邯郸市,东污水处理厂,颗粒物(PM10),108,165,350,53,75,3,,88,65,76,26,5,4,0.7,0.5
2024-03-29T0000,1049A,114.4918,36.5713,邯郸市,矿院,颗粒物(PM10),89,127,232,50,69,22,,85,66,55,25,5,4,0.9,0.6
2024-03-29T0000,1050A,114.484,36.6133,邯郸市,丛台公园,颗粒物(PM10),71,92,247,39,66,39,,90,70,39,22,7,5,0.7,0.5
2024-03-29T0000,3458A,114.7895,36.5593,邯郸市,香泉濮院小区,颗粒物(PM10),99,147,283,40,60,38,,100,85,27,12,6,6,0.3,0.4
2024-03-29T0000,3579A,114.50634,36.77178,邯郸市,永年区实验高中,颗粒物(PM10),97,144,344,41,76,53,,98,82,38,24,12,6,1.0,0.7
2024-03-29T0000,3580A,114.20016,36.44293,邯郸市,峰峰矿区临水派出所,,44,44,338,11,80,99,,101,100,2,9,8,10,0.5,0.8
2024-03-29T0000,2634A,106.9893,33.1842,汉中市,汉川机床厂子校,,32,32,61,15,18,48,,99,72,17,13,4,4,0.7,0.7
2024-03-29T0000,2635A,107.0154,33.0706,汉中市,市监测站,,47,47,62,25,26,70,,97,84,23,23,8,10,0.6,0.7
2024-03-29T0000,2636A,107.0089,33.1138,汉中市,鑫源开发区,,50,50,67,19,21,56,,100,88,41,24,12,11,0.6,0.6
2024-03-29T0000,2637A,107.007,33.0323,汉中市,南郑大河坎水厂,,40,40,57,22,22,74,,104,94,18,15,8,8,0.4,0.5
2024-03-29T0000,1223A,120.2072,30.2111,杭州市,滨江,,38,38,32,15,14,31,,83,64,41,27,4,4,0.8,0.8
2024-03-29T0000,1224A,120.0633,30.2747,杭州市,西溪,,24,24,26,15,17,3,,83,47,40,25,6,6,0.8,0.7
2024-03-29T0000,1226A,120.3461,30.3153,杭州市,下沙,,47,47,41,24,18,33,,80,43,41,35,5,5,0.9,0.8
2024-03-29T0000,1227A,120.1269,30.2456,杭州市,卧龙桥,,25,25,31,12,19,5,,86,37,22,24,3,4,0.8,0.7
2024-03-29T0000,1228A,120.1903,30.2692,杭州市,浙江农大,,37,37,32,20,17,14,,72,48,53,32,5,5,0.9,0.8
2024-03-29T0000,1230A,120.1197,30.3119,杭州市,和睦小学,,40,40,28,27,19,24,,83,57,45,30,6,6,0.9,0.7
2024-03-29T0000,1231A,120.3019,30.4183,杭州市,临平镇,细颗粒物(PM2.5),73,70,42,53,36,3,,75,37,70,30,5,5,1.0,0.7
2024-03-29T0000,1232A,120.2697,30.1819,杭州市,城厢镇,,45,39,31,31,20,39,,81,58,38,32,8,7,0.8,0.8
2024-03-29T0000,1233A,120.0883,30.1808,杭州市,云栖,,30,30,33,15,18,4,,84,40,24,26,7,8,0.8,0.7
2024-03-29T0000,3557A,119.9464,30.0494,杭州市,镇二中,,26,21,26,12,16,9,,84,48,52,34,6,6,1.0,0.8
2024-03-29T0000,3558A,119.7183,30.2367,杭州市,市府大楼,,22,22,24,13,20,48,,96,66,26,28,6,5,0.5,0.6
2024-03-29T0000,3656A,120.1556,30.2864,杭州市,消防大队,,30,30,29,19,20,15,,84,52,55,31,7,7,0.9,0.8
2024-03-29T0000,1270A,117.1959,31.7848,合肥市,明珠广场,细颗粒物(PM2.5),67,66,62,48,48,62,,113,80,28,26,5,5,0.8,0.7
2024-03-29T0000,1271A,117.3072,31.8764,合肥市,三里街,细颗粒物(PM2.5),67,68,72,48,47,47,,85,58,36,33,4,5,0.7,0.6
2024-03-29T0000,1272A,117.2588,31.8707,合肥市,琥珀山庄,颗粒物(PM10),56,61,66,24,31,81,,115,98,26,27,4,3,0.7,0.6
2024-03-29T0000,1273A,117.1604,31.9052,合肥市,董铺水库,颗粒物(PM10),51,51,66,27,36,73,,119,100,27,13,1,1,0.5,0.5
2024-03-29T0000,1274A,117.25,31.8571,合肥市,长江中路,细颗粒物(PM2.5),69,66,63,50,51,77,,110,91,22,21,5,5,0.9,0.9
2024-03-29T0000,1275A,117.266,31.9436,合肥市,庐阳区,颗粒物(PM10),56,61,74,39,49,72,,100,90,26,25,4,4,0.7,0.7
2024-03-29T0000,1276A,117.336,31.8586,合肥市,瑶海区,细颗粒物(PM2.5),67,66,67,48,48,65,,101,84,27,26,6,6,0.8,0.8
2024-03-29T0000,1277A,117.3027,31.7964,合肥市,包河区,细颗粒物(PM2.5),64,68,60,46,37,72,,104,86,32,31,4,6,0.6,0.5
2024-03-29T0000,1278A,117.2776,31.7385,合肥市,滨湖新区,细颗粒物(PM2.5),67,66,56,48,38,100,,106,96,12,24,7,6,0.5,0.4
2024-03-29T0000,1279A,117.1318,31.8403,合肥市,高新区,细颗粒物(PM2.5),63,53,59,45,47,76,,112,93,22,21,6,6,0.8,0.8
2024-03-29T0000,3464A,117.3803,31.9147,合肥市,高教基地,,,65,65,,52,74,,110,93,24,31,4,4,0.6,0.5
2024-03-29T0000,3614A,79.924,37.0877,和田地区,地区环保局,颗粒物(PM10),117,184,151,47,38,60,,105,93,36,14,9,8,0.9,0.8
2024-03-29T0000,3615A,79.9131,37.113,和田地区,市环保局,颗粒物(PM10),79,108,159,30,44,57,,106,94,22,15,7,7,0.6,0.6
2024-03-29T0000,2516A,108.2011,24.715,河池市,东仁乐园,颗粒物(PM10),52,53,49,29,29,16,,59,32,17,11,5,5,0.5,0.5
2024-03-29T0000,2517A,108.0497,24.6947,河池市,市环保站,,39,37,36,27,23,48,,104,86,23,15,8,7,0.7,0.7
2024-03-29T0000,2518A,108.0983,24.6989,河池市,市疾控中心,颗粒物(PM10),58,65,43,39,26,32,,108,75,38,23,7,7,0.7,0.7
2024-03-29T0000,1696A,114.6778,23.7569,河源市,源西,,32,25,40,22,23,56,,92,62,11,15,4,5,0.7,0.8
2024-03-29T0000,1697A,114.6944,23.7586,河源市,东埔,,40,39,49,28,26,65,,100,74,8,12,6,7,0.5,0.6
2024-03-29T0000,1698A,114.6892,23.7233,河源市,老城,,36,36,41,20,22,44,,100,72,16,12,5,6,0.6,0.6
2024-03-29T0000,1718A,115.4208,35.2464,菏泽市,气象局,颗粒物(PM10),91,132,155,27,49,66,,102,88,25,18,4,4,0.3,0.5
2024-03-29T0000,1719A,115.4747,35.2375,菏泽市,市政协,颗粒物(PM10),91,132,158,28,48,64,,103,89,22,17,5,3,0.3,0.5
2024-03-29T0000,3374A,115.5564,35.0891,菏泽市,定陶老年大学,颗粒物(PM10),82,114,133,24,47,67,,101,90,15,13,6,4,0.6,0.7
2024-03-29T0000,3647A,115.4702,35.2706,菏泽市,菏泽医专,颗粒物(PM10),94,138,153,19,41,68,,100,89,21,16,4,3,0.3,0.4
2024-03-29T0000,2514A,111.5264,24.4172,贺州市,环保小区,,32,32,36,15,22,38,,96,76,22,16,6,7,0.7,0.6
2024-03-29T0000,2515A,111.5608,24.4078,贺州市,政协大楼,,31,31,38,16,24,39,,107,78,24,14,6,7,0.6,0.5
2024-03-29T0000,3534A,111.4744,24.4553,贺州市,西湾,,30,30,30,16,20,43,,101,80,24,16,6,6,0.6,0.6
2024-03-29T0000,2385A,114.17,35.9019,鹤壁市,市监测站,颗粒物(PM10),68,85,221,29,67,85,,89,74,17,21,6,9,0.1,0.5
2024-03-29T0000,2386A,114.2956,35.7511,鹤壁市,市交警支队,颗粒物(PM10),83,115,143,35,46,35,,97,61,49,27,12,10,0.4,0.5
2024-03-29T0000,2387A,114.2878,35.7306,鹤壁市,迎宾馆,颗粒物(PM10),88,126,130,45,52,35,,97,63,49,28,12,10,0.5,0.6
2024-03-29T0000,3474A,114.2617,35.6822,鹤壁市,大新区,颗粒物(PM10),101,152,135,36,33,5,,95,42,83,36,9,8,0.7,0.8
2024-03-29T0000,3596A,114.1572,35.9603,鹤壁市,南山宾馆,颗粒物(PM10),67,84,269,28,57,88,,97,82,18,22,10,8,0.4,0.5
2024-03-29T0000,2244A,130.2537,47.3416,鹤岗市,哈啤分公司,颗粒物(PM10),500,1023,578,170,100,42,,59,54,20,14,16,16,0.4,0.4
2024-03-29T0000,2245A,130.2684,47.3086,鹤岗市,斯达机电,颗粒物(PM10),500,1109,554,181,103,56,,71,61,9,12,11,11,0.6,0.6
2024-03-29T0000,2246A,130.3114,47.3388,鹤岗市,东山纸板厂,颗粒物(PM10),500,1155,654,164,105,37,,68,54,16,13,14,14,0.4,0.4
2024-03-29T0000,2247A,130.1097,47.3382,鹤岗市,五号水库,颗粒物(PM10),500,952,576,125,90,36,,86,63,9,10,11,10,0.4,0.3
2024-03-29T0000,2263A,127.4833,50.2524,黑河市,交通局,,40,40,130,18,28,48,,79,53,9,8,10,10,0.2,0.3
2024-03-29T0000,2264A,127.5144,50.2341,黑河市,环保局,,35,35,139,24,33,60,,83,65,6,8,4,3,0.5,0.6
2024-03-29T0000,2265A,127.5291,50.2472,黑河市,大黑河岛,,,,,,,,,,,,,,,,
2024-03-29T0000,1074A,115.6838,37.7541,衡水市,电机北厂,颗粒物(PM10),137,223,271,59,59,59,,94,78,20,11,2,2,0.4,0.3
2024-03-29T0000,1075A,115.6303,37.7316,衡水市,市监测站,颗粒物(PM10),130,210,240,63,60,52,,96,75,26,14,4,3,0.5,0.5
2024-03-29T0000,3188A,115.6683,37.7217,衡水市,市城管局,颗粒物(PM10),129,207,244,55,59,56,,91,74,25,15,8,6,0.5,0.4
2024-03-29T0000,3459A,115.5989,37.5491,衡水市,地表水厂,颗粒物(PM10),117,183,265,52,57,49,,96,69,26,15,3,3,0.5,0.3
2024-03-29T0000,2456A,112.5003,26.9167,衡阳市,原169医院,,48,48,23,26,18,32,,130,94,43,14,9,10,0.6,0.5
2024-03-29T0000,2457A,112.6194,26.9258,衡阳市,衡阳化工总厂,颗粒物(PM10),52,53,28,23,19,32,,128,98,44,13,9,7,0.6,0.6
2024-03-29T0000,2458A,112.6211,26.8956,衡阳市,珠晖区环保局,颗粒物(PM10),59,67,31,31,21,12,,126,87,53,16,7,7,0.9,0.7
2024-03-29T0000,2459A,112.6197,26.8733,衡阳市,市委党校,,49,49,32,30,16,61,,131,105,29,12,9,9,0.7,0.7
2024-03-29T0000,2460A,112.6006,26.8919,衡阳市,市监测站,,47,47,26,30,18,62,,135,104,30,12,8,7,0.9,0.7
2024-03-29T0000,2461A,112.5664,26.9056,衡阳市,真空机电公司,颗粒物(PM10),51,52,27,26,19,57,,128,101,41,14,14,8,0.9,0.7
2024-03-29T0000,3399A,112.6703,26.882,衡阳市,师范学院,,44,44,27,25,19,80,,126,107,12,9,7,7,0.6,0.7
2024-03-29T0000,2608A,103.3772,23.3993,红河哈尼族彝族自治州,污水处理厂,细颗粒物(PM2.5),68,75,70,49,54,95,,126,107,9,11,6,10,0.5,0.7
2024-03-29T0000,2609A,103.3861,23.35,红河哈尼族彝族自治州,监测站,细颗粒物(PM2.5),64,52,63,46,48,94,,118,105,10,10,17,10,0.6,0.6
2024-03-29T0000,3038A,103.3758,23.368,红河哈尼族彝族自治州,州图书馆,颗粒物(PM10),63,76,67,42,47,84,,114,98,14,10,5,8,0.6,0.6
2024-03-29T0000,1090A,111.6507,40.7517,呼和浩特市,呼市一监,颗粒物(PM10),130,210,495,37,86,92,,103,97,2,5,7,8,0.3,0.4
2024-03-29T0000,1091A,111.6572,40.8033,呼和浩特市,小召,颗粒物(PM10),133,215,539,35,81,88,,97,89,6,9,5,6,0.3,0.4
2024-03-29T0000,1094A,111.7516,40.8369,呼和浩特市,如意水处理厂,颗粒物(PM10),144,237,452,32,74,85,,90,84,4,9,6,7,0.2,0.2
2024-03-29T0000,1095A,111.7276,40.8062,呼和浩特市,二十九中,颗粒物(PM10),133,216,509,31,78,90,,95,90,4,8,8,9,0.3,0.4
2024-03-29T0000,1096A,111.5512,40.7866,呼和浩特市,工大金川校区,颗粒物(PM10),134,218,518,33,96,86,,95,88,4,8,4,5,0.0,0.2
2024-03-29T0000,1097A,111.717,40.7612,呼和浩特市,化肥厂生活区,颗粒物(PM10),140,230,453,28,66,87,,94,87,5,8,7,8,0.2,0.3
2024-03-29T0000,3698A,111.5968,40.8178,呼和浩特市,红旗小学,颗粒物(PM10),136,222,612,42,92,80,,95,88,11,9,2,3,0.2,0.3
2024-03-29T0000,3699A,111.6518,40.8389,呼和浩特市,海东办,颗粒物(PM10),130,210,566,37,84,87,,96,90,5,10,4,5,0.1,0.2
2024-03-29T0000,2192A,119.7594,49.2261,呼伦贝尔市,区环保局,,29,25,38,20,19,82,,80,80,6,7,2,2,0.2,0.3
2024-03-29T0000,3061A,119.7512,49.1577,呼伦贝尔市,国华电力东,,28,28,40,12,13,80,,82,81,4,5,4,4,0.2,0.2
2024-03-29T0000,1250A,120.0751,30.8669,湖州市,城西水厂,,48,48,36,27,23,7,,59,32,74,52,5,4,0.9,0.8
2024-03-29T0000,2873A,120.0875,30.8955,湖州市,仁皇山新区,细颗粒物(PM2.5),53,46,31,37,26,2,,70,32,89,41,6,5,0.9,0.8
2024-03-29T0000,2907A,120.1844,30.8596,湖州市,吴兴区站,细颗粒物(PM2.5),58,51,32,41,24,16,,72,50,59,33,8,4,0.8,0.7
2024-03-29T0000,3562A,120.4148,30.8538,湖州市,南浔区站,细颗粒物(PM2.5),62,58,38,44,29,38,,67,49,45,27,8,7,1.0,0.9
2024-03-29T0000,1607A,120.9092,40.7136,葫芦岛市,龙港区,颗粒物(PM10),112,173,313,10,60,82,,89,78,7,13,5,6,0.4,0.6
2024-03-29T0000,1608A,120.8392,40.7514,葫芦岛市,化工街,颗粒物(PM10),145,239,347,7,61,79,,89,68,13,23,1,9,0.5,0.8
2024-03-29T0000,1609A,120.8341,40.7073,葫芦岛市,新区,颗粒物(PM10),77,104,298,8,54,77,,90,66,15,21,6,7,0.5,0.8
2024-03-29T0000,1610A,120.8695,40.7677,葫芦岛市,东城区,颗粒物(PM10),139,227,315,13,58,88,,92,60,11,28,4,5,0.5,0.7
2024-03-29T0000,2482A,109.5981,27.5721,怀化市,林科所,,35,35,19,14,8,73,,121,97,4,4,8,10,0.4,0.5
2024-03-29T0000,2483A,109.9453,27.5444,怀化市,河西地税局,,33,33,22,19,14,24,,108,68,16,12,5,6,0.5,0.5
2024-03-29T0000,2484A,109.9781,27.5342,怀化市,市四医院,,49,49,26,25,15,26,,115,70,39,15,6,6,0.5,0.4
2024-03-29T0000,2485A,109.9972,27.5578,怀化市,监测楼,颗粒物(PM10),66,82,31,42,18,16,,110,66,46,13,8,8,0.8,0.6
2024-03-29T0000,2486A,110.0394,27.583,怀化市,市委党校,,48,48,25,24,14,14,,114,71,36,11,7,8,0.5,0.5
2024-03-29T0000,1210A,119.036,33.5981,淮安市,钵池山,细颗粒物(PM2.5),83,68,61,61,64,69,,102,88,21,20,9,8,0.8,0.8
2024-03-29T0000,1211A,119.007,33.575,淮安市,北京南路,细颗粒物(PM2.5),75,,58,55,66,63,,99,76,28,26,7,7,0.7,1
2024-03-29T0000,1212A,118.989,33.6067,淮安市,市监测站,细颗粒物(PM2.5),67,61,63,48,55,60,,105,83,32,27,13,7,1.8,0.9
2024-03-29T0000,1213A,119.135,33.5039,淮安市,楚州区监测站,细颗粒物(PM2.5),74,,61,54,62,65,,101,79,20,24,6,6,0.6,0.7
2024-03-29T0000,1214A,119.0186,33.6297,淮安市,淮阴区监测站,细颗粒物(PM2.5),79,68,69,58,71,78,,101,86,24,29,6,5,0.6,0.6
2024-03-29T0000,3426A,118.8755,33.2894,淮安市,新华书店,颗粒物(PM10),56,62,66,32,32,57,,101,80,34,32,5,4,0.6,0.7
2024-03-29T0000,2282A,116.8004,33.975,淮北市,监测站,颗粒物(PM10),68,86,63,45,58,75,,92,82,16,16,7,4,0.7,0.7
2024-03-29T0000,2283A,116.8091,33.9007,淮北市,烈山区政府,细颗粒物(PM2.5),94,101,84,70,68,52,,89,74,20,17,6,4,0.6,0.6
2024-03-29T0000,3330A,116.8873,33.9836,淮北市,杜集区检察院,颗粒物(PM10),80,109,78,56,54,72,,99,85,17,17,8,7,0.8,0.8
2024-03-29T0000,4017A,116.7923,33.9535,淮北市,市博物馆,颗粒物(PM10),69,87,58,27,32,70,,90,78,12,10,7,5,0.6,0.6
2024-03-29T0000,2277A,116.8305,32.7727,淮南市,潘集区政府,细颗粒物(PM2.5),63,65,78,45,56,101,,89,89,21,28,2,2,0.4,0.5
2024-03-29T0000,2278A,117.0067,32.6524,淮南市,师范学院,"颗粒物(PM10),细颗粒物(PM2.5)",59,68,80,42,56,91,,94,94,14,21,8,7,0.2,0.4
2024-03-29T0000,2279A,116.8569,32.5951,淮南市,谢家集区政府,,50,50,63,29,39,78,,88,86,14,21,4,4,0.4,0.4
2024-03-29T0000,2280A,116.8281,32.633,淮南市,八公山区政府,细颗粒物(PM2.5),64,70,78,46,56,92,,94,93,12,14,3,3,0.4,0.5
2024-03-29T0000,2281A,116.6325,32.6201,淮南市,焦岗湖风景区管理处,颗粒物(PM10),62,74,66,23,25,80,,77,77,11,14,3,4,0.1,0.1
2024-03-29T0000,2894A,117.0566,32.6531,淮南市,经济技术开发区消防队,颗粒物(PM10),60,69,68,27,45,104,,104,104,17,20,4,4,0.5,0.5
2024-03-29T0000,3329A,117.0108,32.5893,淮南市,山南新区,细颗粒物(PM2.5),54,53,64,38,45,88,,101,98,24,28,4,4,0.6,0.6
2024-03-29T0000,2446A,114.9028,30.4742,黄冈市,职工中心,细颗粒物(PM2.5),77,97,73,56,50,61,,117,83,36,22,13,10,0.5,0.5
2024-03-29T0000,2929A,114.8858,30.4519,黄冈市,红卫路,细颗粒物(PM2.5),79,78,61,58,49,60,,119,87,40,25,9,7,0.5,0.5
2024-03-29T0000,3398A,114.9136,30.4445,黄冈市,市林业局,细颗粒物(PM2.5),72,82,64,52,45,59,,117,91,33,17,9,7,0.6,0.6
2024-03-29T0000,2672A,102.0199,35.5102,黄南藏族自治州,同仁县隆务镇,,30,30,39,8,14,76,,94,84,3,6,17,15,0.7,0.7
2024-03-29T0000,2295A,118.2903,29.6963,黄山市,延安路89号,,37,37,27,21,10,81,,108,103,14,8,8,6,0.7,0.6
2024-03-29T0000,2296A,118.327,29.7178,黄山市,黄山东路89号,,32,32,26,9,10,57,,102,89,14,10,5,5,0.7,0.6
2024-03-29T0000,2297A,118.1371,30.2756,黄山市,黄山区政府5号楼,,24,24,26,15,16,23,,106,58,10,13,4,4,0.6,0.6
2024-03-29T0000,2423A,115.0601,30.2313,黄石市,沈家营,颗粒物(PM10),64,78,59,40,36,4,,113,59,78,30,11,8,0.8,0.6
2024-03-29T0000,2424A,115.0817,30.2006,黄石市,陈家湾,颗粒物(PM10),59,68,67,34,39,49,,114,85,23,19,17,17,0.8,0.7
2024-03-29T0000,2426A,114.8988,30.2019,黄石市,铁山,"颗粒物(PM10),细颗粒物(PM2.5)",57,63,50,40,41,47,,115,74,38,22,9,9,0.7,0.8
2024-03-29T0000,2427A,115.0307,30.2092,黄石市,团城山,颗粒物(PM10),61,71,56,39,31,64,,121,102,36,20,14,7,0.5,0.5
2024-03-29T0000,3149A,115.0235,30.1578,黄石市,笔架山北路,细颗粒物(PM2.5),70,81,55,51,34,60,,129,104,42,21,10,6,0.8,0.7
2024-03-29T0000,1392A,114.4183,23.0528,惠州市,河南岸金山湖子站,颗粒物(PM10),71,91,52,40,28,54,,137,98,38,22,5,6,0.8,0.7
2024-03-29T0000,1393A,114.4053,23.0822,惠州市,下埔横江三路子站,颗粒物(PM10),66,81,50,45,26,35,,160,115,52,20,6,6,0.9,0.7
2024-03-29T0000,1394A,114.4103,23.1142,惠州市,江北云山西路子站,颗粒物(PM10),70,89,50,42,22,37,,152,115,59,18,6,6,0.7,0.6
2024-03-29T0000,1395A,114.4645,22.7833,惠州市,惠阳区承修路船湖子站,颗粒物(PM10),59,67,46,33,21,23,,104,58,40,22,5,6,0.7,0.6
2024-03-29T0000,1396A,114.5317,22.7422,惠州市,大亚湾管委会子站,颗粒物(PM10),56,62,54,27,22,39,,98,59,36,30,8,8,0.9,0.8
2024-03-29T0000,3314A,114.4338,22.8134,惠州市,惠阳秋长,,,68,54,34,22,,,124,77,61,26,9,8,0.9,0.8
2024-03-29T0000,3452A,114.6517,22.775,惠州市,大亚湾霞涌,,24,24,29,15,21,47,,102,72,19,13,7,8,0.6,0.6
2024-03-29T0000,2240A,130.9762,45.3001,鸡西市,环保局,颗粒物(PM10),130,210,86,52,25,63,,79,64,6,11,5,7,0.2,0.3
2024-03-29T0000,2243A,130.9429,45.3039,鸡西市,第一中学,颗粒物(PM10),122,194,99,59,33,74,,97,76,7,9,6,8,0.2,0.2
2024-03-29T0000,3707A,131.0207,45.3073,鸡西市,欧美日汽修厂,颗粒物(PM10),120,190,103,52,32,65,,80,64,13,13,3,2,0.3,0.1
2024-03-29T0000,3709A,130.9967,45.3106,鸡西市,市政设施管理处,颗粒物(PM10),139,227,92,60,35,65,,90,67,17,16,5,5,0.3,0.4
2024-03-29T0000,2367A,114.9754,27.0803,吉安市,红声器材厂,,41,41,37,24,18,61,,106,94,22,17,10,8,0.3,0.5
2024-03-29T0000,2368A,114.9658,27.0999,吉安市,市森林工业局,,42,42,31,26,22,48,,102,77,28,18,12,9,0.3,0.2
2024-03-29T0000,2369A,114.99,27.1312,吉安市,市环境监测站,,46,46,30,20,17,32,,114,87,39,15,15,14,0.9,0.8
2024-03-29T0000,2370A,115.0093,27.0968,吉安市,青原区法院,,39,39,35,19,18,39,,104,74,29,18,13,13,0.5,0.6
2024-03-29T0000,1772A,126.54,43.8622,吉林市,哈达湾,颗粒物(PM10),161,271,748,56,144,60,,102,64,12,8,5,5,0.5,0.5
2024-03-29T0000,1773A,126.5844,43.8358,吉林市,东局子,颗粒物(PM10),320,436,706,98,144,50,,100,56,17,11,4,5,0.6,0.6
2024-03-29T0000,1774A,126.5052,43.8245,吉林市,电力学院,颗粒物(PM10),347,457,690,101,138,53,,106,62,14,9,6,6,0.6,0.6
2024-03-29T0000,1775A,126.6133,43.8972,吉林市,江北,颗粒物(PM10),182,314,632,77,151,49,,103,56,18,13,6,9,0.8,0.7
2024-03-29T0000,1776A,126.555,43.8306,吉林市,江南公园,颗粒物(PM10),279,405,730,96,147,62,,101,65,10,9,4,4,0.5,0.5
2024-03-29T0000,1778A,126.7061,43.7133,吉林市,丰满,,,,,,,,,,,,,,,,
2024-03-29T0000,2868A,126.4739,43.953,吉林市,九站,颗粒物(PM10),95,139,652,22,130,72,,109,70,16,11,5,6,0.5,0.5
2024-03-29T0000,1299A,116.9862,36.6114,济南市,科干所,颗粒物(PM10),98,146,220,39,52,89,,105,102,12,15,7,6,0.7,0.7
2024-03-29T0000,1300A,116.9376,36.665,济南市,农科所,颗粒物(PM10),95,139,209,44,55,75,,97,90,17,20,5,4,0.6,0.6
2024-03-29T0000,1301A,117.1265,36.6734,济南市,开发区,颗粒物(PM10),91,132,205,37,48,95,,104,103,10,16,7,6,0.6,0.6
2024-03-29T0000,1303A,117.0624,36.6868,济南市,省种子仓库,颗粒物(PM10),102,153,219,44,55,92,,102,100,8,15,5,3,0.4,0.4
2024-03-29T0000,1304A,116.9489,36.6447,济南市,机床二厂,颗粒物(PM10),97,144,228,42,56,85,,109,102,11,14,6,5,0.7,0.7
2024-03-29T0000,1305A,117.0495,36.663,济南市,市监测站,颗粒物(PM10),91,132,207,39,49,97,,108,105,16,19,12,10,0.7,0.7
2024-03-29T0000,1306A,116.7675,36.5484,济南市,长清党校,颗粒物(PM10),101,151,223,46,61,87,,106,100,14,14,6,5,0.7,0.7
2024-03-29T0000,1616A,117.6795,36.229,济南市,技术学院,颗粒物(PM10),103,156,208,46,63,85,,106,97,24,23,11,9,0.6,0.7
2024-03-29T0000,1961A,117.532,36.6868,济南市,东山小学,颗粒物(PM10),103,156,227,39,56,96,,103,101,14,22,5,5,0.4,0.4
2024-03-29T0000,3059A,117.7161,36.2049,济南市,泰兴公司,颗粒物(PM10),106,161,208,51,68,70,,101,89,21,19,10,10,0.9,1
2024-03-29T0000,3064A,117.6867,36.2171,济南市,莱芜战役纪念馆,颗粒物(PM10),101,151,197,48,65,83,,106,95,17,20,8,8,0.8,0.9
2024-03-29T0000,3494A,117.1673,36.9782,济南市,济阳区政府,颗粒物(PM10),119,188,240,63,64,82,,97,73,19,26,8,8,0.6,0.6
2024-03-29T0000,3495A,117.1171,36.63,济南市,锦屏中学,颗粒物(PM10),95,139,214,34,48,94,,108,106,8,9,6,5,0.6,0.5
2024-03-29T0000,3682A,116.9814,36.6819,济南市,济南四建,颗粒物(PM10),96,141,209,46,57,83,,100,95,10,15,7,6,0.7,0.6
2024-03-29T0000,1653A,116.6251,35.4302,济宁市,火炬城,颗粒物(PM10),65,79,124,36,51,65,,97,82,11,13,7,5,0.7,0.8
2024-03-29T0000,1655A,116.5491,35.4042,济宁市,电化厂,颗粒物(PM10),85,120,167,27,45,63,,91,74,10,16,8,5,0.9,0.9
2024-03-29T0000,3500A,116.5814,35.3707,济宁市,北湖一中,颗粒物(PM10),68,86,118,34,55,56,,90,78,15,13,24,11,0.8,0.8
2024-03-29T0000,3501A,116.8249,35.5593,济宁市,服务中心,颗粒物(PM10),77,103,159,41,58,55,,91,78,17,15,3,2,0.7,0.7
2024-03-29T0000,3678A,116.5907,35.4054,济宁市,市第七中学,颗粒物(PM10),69,87,126,31,49,62,,95,80,10,11,4,3,0.8,0.8
2024-03-29T0000,2255A,130.2751,46.8028,佳木斯市,佳纺,颗粒物(PM10),500,803,424,160,94,76,,88,73,5,7,6,6,0.4,0.4
2024-03-29T0000,2256A,130.3995,46.8307,佳木斯市,发电厂,颗粒物(PM10),500,695,369,140,81,70,,79,63,10,17,3,5,0.5,0.5
2024-03-29T0000,2257A,130.3258,46.7975,佳木斯市,环保局,颗粒物(PM10),500,749,391,149,86,77,,86,72,6,9,4,4,0.4,0.4
2024-03-29T0000,2258A,130.3648,46.8032,佳木斯市,十一中,颗粒物(PM10),500,729,402,157,106,73,,79,65,6,12,6,6,0.5,0.6
2024-03-29T0000,2259A,130.3794,46.7588,佳木斯市,四丰,颗粒物(PM10),493,593,312,164,94,85,,106,85,2,4,1,3,0.5,0.5
2024-03-29T0000,1252A,120.7436,30.778,嘉兴市,清河小学,颗粒物(PM10),52,53,36,32,20,18,,60,30,44,29,7,7,0.9,0.8
2024-03-29T0000,1253A,120.726,30.7478,嘉兴市,嘉兴学院,颗粒物(PM10),53,55,39,34,26,4,,60,28,57,30,6,5,0.8,0.6
2024-03-29T0000,2872A,120.7846,30.7525,嘉兴市,南湖区残联,细颗粒物(PM2.5),55,56,38,39,28,24,,62,40,49,28,5,6,0.8,0.8
2024-03-29T0000,3407A,120.6916,30.7739,嘉兴市,秀洲住建,,42,42,30,28,20,3,,58,24,63,31,5,5,0.8,0.6
2024-03-29T0000,1945A,98.2908,39.7711,嘉峪关市,气象局,,34,34,45,7,12,36,,98,62,28,17,4,17,0.2,0.3
2024-03-29T0000,2884A,98.2672,39.7978,嘉峪关市,酒钢宾馆,颗粒物(PM10),53,56,64,12,14,53,,102,77,18,14,21,25,0.3,0.4
2024-03-29T0000,3248A,98.2643,39.7724,嘉峪关市,雄关区,,33,33,41,17,14,36,,98,62,26,17,4,6,0.2,0.4
2024-03-29T0000,1383A,113.1064,22.6058,江门市,北街,,45,41,46,31,22,35,,93,68,26,19,7,7,0.5,0.5
2024-03-29T0000,1384A,113.0731,22.5835,江门市,西区,,50,50,44,22,19,47,,94,72,28,20,7,6,0.5,0.5
2024-03-29T0000,1385A,113.0219,22.5311,江门市,圭峰西,,34,34,40,20,18,47,,89,71,22,17,7,7,0.8,0.7
2024-03-29T0000,1386A,113.0828,22.5947,江门市,东湖,颗粒物(PM10),53,56,51,25,20,39,,91,68,29,19,8,8,0.5,0.5
2024-03-29T0000,3311A,113.1075,22.5647,江门市,江海富民,颗粒物(PM10),58,65,59,23,25,36,,92,69,29,19,7,7,0.4,0.4
2024-03-29T0000,3449A,113.05,22.4667,江门市,新会银湖,,36,33,39,25,24,64,,92,71,12,20,4,5,0.6,0.7
2024-03-29T0000,1828A,113.227,35.2125,焦作市,市环保局,颗粒物(PM10),81,112,140,44,47,22,,102,69,61,32,12,8,0.7,0.8
2024-03-29T0000,1830A,113.1992,35.2590,焦作市,影视城,,,,,,,,,,,,,,,,
2024-03-29T0000,3169A,113.2725,35.2067,焦作市,太极体育中心,颗粒物(PM10),82,113,149,33,44,42,,110,83,49,30,7,4,0.2,0.3
2024-03-29T0000,3335A,113.3137,35.2641,焦作市,马村街道办,颗粒物(PM10),88,125,151,40,44,28,,107,68,56,33,13,10,0.6,0.7
2024-03-29T0000,3336A,113.2465,35.2373,焦作市,焦作技师学院,颗粒物(PM10),88,126,149,48,51,15,,102,59,75,40,8,9,0.9,1.1
2024-03-29T0000,3477A,113.1656,35.2539,焦作市,中站许衡医院,颗粒物(PM10),62,74,118,31,30,88,,101,90,16,19,2,5,0.2,0.6
2024-03-29T0000,3981A,113.2449,35.1803,焦作市,原李万街道办,颗粒物(PM10),70,90,121,27,32,27,,98,69,55,25,9,8,0.4,0.5
2024-03-29T0000,1708A,116.3701,23.5345,揭阳市,新兴,细颗粒物(PM2.5),104,149,77,78,50,24,,94,37,57,37,12,12,1.5,1.3
2024-03-29T0000,1709A,116.3264,23.5443,揭阳市,西马,细颗粒物(PM2.5),117,177,94,88,51,6,,90,30,61,35,10,12,2.1,1.2
2024-03-29T0000,1710A,116.3611,23.5626,揭阳市,东兴,细颗粒物(PM2.5),119,148,89,90,52,6,,90,32,56,34,9,12,2.0,1.3
2024-03-29T0000,1711A,116.4151,23.5294,揭阳市,渔湖,颗粒物(PM10),101,152,81,60,32,17,,93,38,76,37,13,10,1.9,1
2024-03-29T0000,3320A,116.403,23.5699,揭阳市,曲溪,细颗粒物(PM2.5),75,85,76,55,41,7,,92,38,48,31,6,8,1.1,0.9
2024-03-29T0000,1944A,102.1692,38.5167,金昌市,天庆家园,颗粒物(PM10),59,68,62,8,8,82,,106,84,12,9,8,8,0.4,0.3
2024-03-29T0000,3170A,102.1864,38.5253,金昌市,市委党校,颗粒物(PM10),76,102,97,24,18,81,,106,84,11,6,6,10,0.5,0.4
2024-03-29T0000,4022A,102.1647,38.5371,金昌市,金川区人防中心,颗粒物(PM10),68,86,115,18,16,74,,112,86,10,3,4,5,0.4,0.3
2024-03-29T0000,1262A,119.647,29.077,金华市,十五中,,33,33,30,20,23,37,,83,72,39,31,5,4,0.7,0.7
2024-03-29T0000,1263A,119.686,29.1029,金华市,监测站,,30,30,32,20,21,43,,78,70,30,31,4,3,0.7,0.7
2024-03-29T0000,3659A,119.656,29.1131,金华市,气象局,,31,31,33,20,19,61,,76,69,27,33,6,4,1.1,0.9
2024-03-29T0000,1767A,121.1115,41.0879,锦州市,南山,颗粒物(PM10),103,156,346,51,90,27,,101,61,50,25,22,11,0.9,0.5
2024-03-29T0000,1768A,121.0533,40.8434,锦州市,开发区,颗粒物(PM10),77,104,362,14,70,36,,82,39,59,40,12,18,0.4,0.5
2024-03-29T0000,1769A,121.1836,41.1119,锦州市,百股街道,颗粒物(PM10),104,157,339,56,85,15,,103,52,63,26,61,16,0.8,0.5
2024-03-29T0000,1770A,121.1178,41.1222,锦州市,天安街道,颗粒物(PM10),90,129,370,43,67,39,,99,65,38,20,18,16,0.7,0.4
2024-03-29T0000,1771A,121.1303,41.1386,锦州市,北湖公园,颗粒物(PM10),76,101,297,44,65,51,,93,69,23,17,13,11,0.5,0.5
2024-03-29T0000,2160A,112.85,35.5051,晋城市,自来水公司,颗粒物(PM10),67,84,107,31,22,28,,115,78,64,27,6,4,0.8,0.5
2024-03-29T0000,2161A,112.8318,35.4936,晋城市,白云商贸,颗粒物(PM10),81,111,116,19,18,13,,114,75,74,26,6,6,0.8,0.5
2024-03-29T0000,2162A,112.8508,35.4887,晋城市,市环保局,颗粒物(PM10),76,102,108,29,23,8,,113,75,86,31,5,4,1.0,0.6
2024-03-29T0000,2163A,112.8676,35.4897,晋城市,技术学院,颗粒物(PM10),82,113,116,31,21,7,,112,71,93,35,3,3,0.9,0.5
2024-03-29T0000,2165A,112.8453,35.546,晋城市,白马寺,,,,,,,,,,,,,,,,
2024-03-29T0000,3620A,112.8271,35.4828,晋城市,泽州一中,颗粒物(PM10),63,75,109,17,15,54,,116,94,43,20,6,5,0.6,0.4
2024-03-29T0000,2171A,112.7532,37.6945,晋中市,锦纶小区,颗粒物(PM10),69,88,200,17,35,69,,102,86,30,28,11,12,0.3,0.4
2024-03-29T0000,2173A,112.7249,37.7067,晋中市,南都小区,颗粒物(PM10),63,76,183,25,35,56,,102,84,40,31,11,11,0.3,0.2
2024-03-29T0000,2174A,112.6991,37.6982,晋中市,榆次区政府,颗粒物(PM10),68,85,190,26,36,64,,107,90,34,27,12,11,0.4,0.4
2024-03-29T0000,2865A,112.7195,37.6828,晋中市,榆次三中,颗粒物(PM10),74,97,210,17,35,63,,104,89,34,23,11,11,0.4,0.5
2024-03-29T0000,2439A,112.2014,31.0481,荆门市,竹园小学,,50,50,100,14,59,102,,117,107,12,20,8,9,0.5,0.7
2024-03-29T0000,2440A,112.1969,30.9891,荆门市,掇刀,,49,49,93,29,67,94,,117,106,11,16,9,9,0.5,0.6
2024-03-29T0000,2441A,112.2213,31.0386,荆门市,石化一小,,50,50,98,22,67,97,,121,110,16,20,18,19,0.5,0.7
2024-03-29T0000,3012A,112.1849,31.0362,荆门市,西山林语,,46,46,90,2,47,98,,120,109,15,17,11,13,0.5,0.6
2024-03-29T0000,3547A,112.1632,31.0138,荆门市,龙泉中学南校,颗粒物(PM10),52,54,82,24,38,87,,117,103,10,13,4,6,0.5,0.7
2024-03-29T0000,1844A,112.2494,30.3197,荆州市,市图书馆,,41,41,45,17,25,106,,102,100,11,18,6,6,0.7,0.8
2024-03-29T0000,1845A,112.2008,30.3544,荆州市,市委党校,,31,30,47,17,27,97,,99,98,15,16,6,6,0.8,0.9
2024-03-29T0000,3194A,112.2747,30.3122,荆州市,管委会,,46,37,44,32,30,110,,106,104,10,15,8,8,0.5,0.7
2024-03-29T0000,3548A,112.1655,30.3364,荆州市,学苑路,,30,23,41,21,35,91,,97,94,14,15,6,7,0.7,0.8
2024-03-29T0000,2342A,117.3102,29.3867,景德镇市,王港中学,,,,,,,,,,,,,,,,
2024-03-29T0000,2343A,117.2117,29.2933,景德镇市,老干部活动中心,,44,44,29,28,20,37,,112,85,29,15,4,4,0.6,0.5
2024-03-29T0000,2344A,117.1894,29.2789,景德镇市,兽医站,,43,43,36,30,19,36,,117,90,27,15,6,6,1.1,1
2024-03-29T0000,2345A,117.1547,29.2617,景德镇市,台达陶瓷,,48,46,32,33,22,20,,112,79,53,27,18,19,1.0,0.8
2024-03-29T0000,2346A,117.2461,29.2956,景德镇市,陶研所,,38,32,23,26,18,54,,103,77,20,16,9,5,0.6,0.6
2024-03-29T0000,1803A,115.9872,29.6815,九江市,十里,"颗粒物(PM10),细颗粒物(PM2.5)",65,79,49,47,36,5,,122,64,67,29,10,10,1.1,1
2024-03-29T0000,1804A,115.9584,29.7046,九江市,茅山头,颗粒物(PM10),56,62,47,38,44,1,,113,58,77,35,11,12,1.2,1
2024-03-29T0000,1805A,115.9877,29.7295,九江市,西园,细颗粒物(PM2.5),82,106,55,60,41,10,,113,66,73,33,12,13,1.6,1
2024-03-29T0000,1806A,116.0172,29.6547,九江市,五七二七厂,颗粒物(PM10),57,63,45,19,32,88,,113,97,11,16,7,8,0.6,0.8
2024-03-29T0000,1808A,115.9114,29.6038,九江市,综合工业园,二氧化氮,60,61,41,36,37,36,,122,73,120,38,14,12,0.9,1
2024-03-29T0000,1809A,116.0721,29.7535,九江市,石化总厂,,48,48,49,28,34,75,,111,92,18,24,12,11,0.8,0.9
2024-03-29T0000,1810A,115.9773,29.5698,九江市,庐山气象台,颗粒物(PM10),51,52,35,17,21,115,,134,122,5,6,7,8,0.6,0.8
2024-03-29T0000,3190A,116.0254,29.6994,九江市,外国语学校,细颗粒物(PM2.5),53,53,45,37,35,21,,112,78,73,30,11,12,0.9,0.9
2024-03-29T0000,2658A,98.5061,39.7443,酒泉市,仓门街子站,颗粒物(PM10),53,56,68,28,18,53,,99,67,14,16,7,11,0.3,0.3
2024-03-29T0000,2659A,98.4989,39.7256,酒泉市,油田生活基地,颗粒物(PM10),52,53,60,24,19,51,,103,68,16,15,8,10,0.2,0.3
2024-03-29T0000,2698A,76.0072,39.4467,喀什地区,巡警大队,颗粒物(PM10),145,239,187,62,40,12,,108,86,106,41,7,4,1.6,0.7
2024-03-29T0000,2699A,75.9755,39.4694,喀什地区,吾办,颗粒物(PM10),161,272,179,96,55,8,,105,80,99,36,8,5,2.7,0.8
2024-03-29T0000,4027A,75.9483,39.4689,喀什地区,老干局,颗粒物(PM10),179,307,173,80,39,14,,117,95,93,26,7,3,1.6,0.7
2024-03-29T0000,1824A,114.3389,34.7781,开封市,肿瘤医院,颗粒物(PM10),80,110,102,29,39,79,,102,90,16,22,5,4,0.4,0.6
2024-03-29T0000,1826A,114.2885,34.7965,开封市,世纪星幼儿园,颗粒物(PM10),71,91,95,23,25,78,,104,91,19,24,2,2,0.4,0.5
2024-03-29T0000,3147A,114.3438,34.8106,开封市,龙亭公园,颗粒物(PM10),81,111,104,26,24,54,,77,62,16,22,3,3,0.3,0.3
2024-03-29T0000,3210A,114.3644,34.7964,开封市,汴京公园,颗粒物(PM10),76,102,102,22,38,75,,96,84,18,24,5,5,0.4,0.5
2024-03-29T0000,3473A,114.2485,34.8306,开封市,技师学院,,,103,98,25,35,,,100,,12,19,6,7,0.4,0.7
2024-03-29T0000,3592A,114.4644,34.7556,开封市,祥符区生态环境局,,,,85,22,30,67,,93,82,25,24,6,5,0.3,0.5
2024-03-29T0000,1951A,84.895,45.6094,克拉玛依市,长征新村,颗粒物(PM10),62,73,32,22,9,41,,101,84,55,19,11,10,0.8,0.4
2024-03-29T0000,1952A,84.8988,45.5893,克拉玛依市,南林小区,颗粒物(PM10),62,74,35,27,17,7,,104,78,96,28,9,7,1.6,0.6
2024-03-29T0000,1954A,84.905,44.3396,克拉玛依市,独山子区,"颗粒物(PM10),细颗粒物(PM2.5)",52,54,54,36,36,86,,132,118,18,18,9,15,0.6,0.7
2024-03-29T0000,1955A,85.6979,46.098,克拉玛依市,乌尔禾区商贸楼,,33,33,21,12,9,59,,102,90,24,17,10,11,0.3,0.3
2024-03-29T0000,3612A,85.1045,45.6899,克拉玛依市,白碱滩区新站,,36,28,24,25,17,69,,108,98,22,14,9,9,0.3,0.3
2024-03-29T0000,2697A,76.1454,39.7142,克孜勒苏柯尔克孜自治州,市人民政府,颗粒物(PM10),117,183,145,50,42,56,,110,92,33,11,6,5,0.2,0.1
2024-03-29T0000,3665A,76.1658,39.7157,克孜勒苏柯尔克孜自治州,克州文化中心,颗粒物(PM10),102,154,134,53,49,42,,111,95,58,12,7,6,0.2,0.2
2024-03-29T0000,1450A,102.8204,24.8886,昆明市,呈贡新区,,38,30,45,26,33,45,,142,101,57,27,4,8,0.5,0.6
2024-03-29T0000,1451A,102.6251,24.9608,昆明市,西山森林公园,,,,,,,,,,,,,,,,
2024-03-29T0000,1452A,102.7252,25.0902,昆明市,龙泉镇,,39,39,48,26,28,23,,146,108,73,33,6,7,0.8,0.7
2024-03-29T0000,1453A,102.7266,25.0375,昆明市,东风东路,,42,42,48,26,33,83,,141,112,21,21,10,9,0.6,0.5
2024-03-29T0000,1454A,102.6742,25.0669,昆明市,金鼎山,,46,,48,32,30,86,,143,114,23,24,3,5,0.5,0.5
2024-03-29T0000,1455A,102.6644,25.0401,昆明市,碧鸡广场,,48,48,48,32,34,71,,141,109,30,25,8,10,0.5,0.5
2024-03-29T0000,3179A,102.7494,25.0119,昆明市,官渡区博物馆,,36,36,48,25,31,70,,141,112,29,21,11,10,0.7,0.7
2024-03-29T0000,3375A,102.8017,24.8336,昆明市,青年创业园,颗粒物(PM10),52,54,48,33,34,29,,150,109,63,32,8,13,0.8,0.8
2024-03-29T0000,3550A,102.7997,24.9786,昆明市,昆明学院,颗粒物(PM10),53,55,53,33,30,38,,136,98,60,29,9,10,0.6,0.7
2024-03-29T0000,3551A,102.5967,24.6736,昆明市,晋宁区生态环境分局,,44,44,50,27,32,89,,142,112,12,15,4,6,0.6,0.6
2024-03-29T0000,3552A,102.6678,24.9856,昆明市,云天化总部,,39,39,47,26,31,83,,151,123,17,34,6,8,0.7,0.7
2024-03-29T0000,1456A,91.1319,29.6514,拉萨市,八廓街,,23,15,21,13,10,71,,106,90,20,23,6,6,0.5,0.5
2024-03-29T0000,1457A,91.1221,29.6747,拉萨市,市环保局,,29,29,22,15,10,48,,103,84,31,17,6,6,0.7,0.4
2024-03-29T0000,1458A,91.0874,29.6475,拉萨市,区监测站,,31,27,17,11,9,30,,102,80,62,23,5,5,0.6,0.5
2024-03-29T0000,1459A,91.1774,29.6541,拉萨市,西藏大学,,26,26,17,13,9,62,,101,84,25,13,4,4,0.4,0.3
2024-03-29T0000,1460A,90.9798,29.6588,拉萨市,区辐射站,,32,32,21,9,9,77,,96,86,17,24,6,6,0.4,0.5
2024-03-29T0000,1461A,91.0834,29.6292,拉萨市,拉萨火车站,,24,24,20,12,10,46,,101,85,42,22,4,4,0.5,0.5
2024-03-29T0000,2520A,109.2203,23.7256,来宾市,来宾技工学校,颗粒物(PM10),51,52,43,23,26,45,,101,67,14,13,8,10,0.8,0.8
2024-03-29T0000,3535A,109.1781,23.7297,来宾市,兴宾区政府,,42,42,30,26,20,41,,101,82,15,12,4,4,0.8,0.7
2024-03-29T0000,4002A,109.2416,23.7461,来宾市,中南小学,颗粒物(PM10),60,70,46,27,25,32,,100,54,26,17,8,9,0.8,0.7
2024-03-29T0000,1476A,103.631,36.1031,兰州市,兰炼宾馆,颗粒物(PM10),61,72,64,36,38,9,,114,52,82,48,10,13,0.8,0.6
2024-03-29T0000,1477A,104.1373,35.9454,兰州市,榆中兰大校区,,,,,,,,,,,,,,,,
2024-03-29T0000,1478A,103.8412,36.0726,兰州市,生物制品所,颗粒物(PM10),69,87,68,43,38,2,,89,44,73,51,10,12,0.6,0.9
2024-03-29T0000,1479A,103.831,36.0464,兰州市,铁路设计院,颗粒物(PM10),65,80,73,43,36,4,,82,38,92,64,12,13,1.5,1.2
2024-03-29T0000,3186A,103.7158,36.1058,兰州市,教育港,"颗粒物(PM10),细颗粒物(PM2.5)",67,83,58,48,36,2,,108,52,81,43,10,9,0.9,0.6
2024-03-29T0000,3241A,103.7439,36.0842,兰州市,百合公园,颗粒物(PM10),67,84,60,45,33,4,,100,46,76,48,10,8,1.2,0.8
2024-03-29T0000,3242A,103.9611,35.998,兰州市,和平,,40,40,59,22,25,61,,105,78,34,31,10,13,0.3,0.8
2024-03-29T0000,3245A,103.6633,36.533,兰州新区,新区管委会,颗粒物(PM10),58,65,49,22,25,37,,93,72,29,18,28,12,0.4,0.4
2024-03-29T0000,3246A,103.6975,36.4789,兰州新区,舟曲中学,,39,39,46,9,22,75,,94,78,11,18,11,12,0.2,0.4
2024-03-29T0000,1067A,116.6708,39.5111,廊坊市,药材公司,颗粒物(PM10),79,107,463,17,78,45,,94,72,33,19,1,2,0.6,0.6
2024-03-29T0000,1068A,116.7214,39.5589,廊坊市,开发区,颗粒物(PM10),66,81,415,18,70,30,,92,63,40,20,1,2,0.4,0.3
2024-03-29T0000,1070A,116.7244,39.5269,廊坊市,北华航天学院,颗粒物(PM10),65,79,425,9,63,37,,95,68,44,20,1,2,0.4,0.3
2024-03-29T0000,2919A,116.7022,39.5453,廊坊市,河北工业大学,颗粒物(PM10),67,84,399,23,71,40,,94,72,38,18,2,2,0.4,0.4
2024-03-29T0000,2535A,103.7723,29.5462,乐山市,花湖湾,颗粒物(PM10),58,66,42,26,22,42,,107,,53,16,4,4,0.7,0.6
2024-03-29T0000,2536A,103.7627,29.5844,乐山市,牛耳桥,,40,40,30,25,23,4,,117,78,77,30,5,5,0.8,0.8
2024-03-29T0000,2537A,103.7508,29.6006,乐山市,市第三水厂,,40,38,30,24,19,4,,118,80,80,31,4,4,0.9,0.8
2024-03-29T0000,2538A,103.7571,29.5664,乐山市,市监测站,,36,36,30,25,24,30,,122,107,68,22,5,6,1.0,0.8
2024-03-29T0000,3361A,103.7311,29.5628,乐山市,理工大学,,40,40,30,26,22,58,,126,104,36,21,7,7,0.6,0.6
2024-03-29T0000,2598A,100.2143,26.8576,丽江市,西南郊,,,,,,,,,,,,,,,,
2024-03-29T0000,2599A,100.2497,26.8802,丽江市,丽江古城,,30,30,29,21,18,85,,103,94,11,13,10,9,0.5,0.5
2024-03-29T0000,2600A,100.2203,26.8906,丽江市,市中心,,29,18,18,14,7,90,,102,92,9,11,12,12,0.5,0.4
2024-03-29T0000,1267A,119.914,28.4514,丽水市,监测站大楼,,24,24,35,16,27,9,,74,56,37,21,4,3,0.7,0.6
2024-03-29T0000,1268A,119.93,28.4586,丽水市,莲都小学,,15,15,33,9,23,20,,78,61,27,18,2,2,0.6,0.5
2024-03-29T0000,1269A,119.879,28.4231,丽水市,余庄前,,17,17,39,9,27,4,,58,37,11,22,4,4,0.6,0.7
2024-03-29T0000,1173A,119.176,34.5885,连云港市,市环境监测站,细颗粒物(PM2.5),79,70,78,58,67,55,,105,87,20,21,7,8,0.4,0.4
2024-03-29T0000,3000A,119.3581,34.6972,连云港市,德源药业,细颗粒物(PM2.5),70,73,78,51,55,84,,115,96,8,21,4,4,0.6,0.7
2024-03-29T0000,3007A,119.178,34.844,连云港市,新城一中,细颗粒物(PM2.5),77,93,104,56,68,54,,124,94,33,35,6,7,0.8,0.9
2024-03-29T0000,3008A,119.3608,34.7519,连云港市,胡沟管理处,颗粒物(PM10),73,95,81,41,58,95,,111,97,6,20,9,9,0.8,0.9
2024-03-29T0000,3009A,119.1478,34.5911,连云港市,矿山设计院,细颗粒物(PM2.5),77,88,84,56,59,84,,101,89,12,21,7,7,0.8,0.8
2024-03-29T0000,3434A,119.2413,34.6539,连云港市,工贸学校,细颗粒物(PM2.5),57,57,62,40,54,83,,118,99,11,15,8,8,0.9,0.9
2024-03-29T0000,3664A,119.4172,34.7341,连云港市,连云街道,颗粒物(PM10),72,93,82,39,53,110,,114,108,11,33,2,4,0.7,0.8
2024-03-29T0000,2571A,102.3431,27.8099,凉山彝族自治州,青龙寺,,37,18,14,2,3,116,,118,114,4,7,5,5,0.8,0.8
2024-03-29T0000,2572A,102.2721,27.8415,凉山彝族自治州,邛海宾馆,,35,15,14,8,8,111,,119,111,6,9,8,8,0.3,0.3
2024-03-29T0000,2573A,102.2625,27.898,凉山彝族自治州,西昌市政府,,32,17,16,11,11,100,,113,105,6,8,6,9,0.5,0.5
2024-03-29T0000,2574A,102.2685,27.8851,凉山彝族自治州,凉山州政府,,32,18,16,8,7,100,,109,103,5,9,6,7,0.6,0.6
2024-03-29T0000,2575A,102.237,27.8914,凉山彝族自治州,长安,,32,20,18,11,11,101,,116,109,7,11,9,9,0.7,0.7
2024-03-29T0000,2212A,123.2,41.1953,辽阳市,宏伟区,颗粒物(PM10),500,624,406,94,60,47,,82,46,17,21,11,11,0.9,1
2024-03-29T0000,2213A,123.1683,41.2495,辽阳市,新华园,颗粒物(PM10),500,701,384,135,68,18,,92,46,55,24,10,9,1.3,0.8
2024-03-29T0000,2214A,123.2354,41.2639,辽阳市,滨河路,颗粒物(PM10),500,674,407,109,66,37,,79,47,33,20,9,8,1.0,0.7
2024-03-29T0000,2215A,123.149,41.2991,辽阳市,铁西工业园,颗粒物(PM10),500,690,402,134,72,1,,82,34,56,22,15,13,1.9,1
2024-03-29T0000,2227A,125.1358,42.8845,辽源市,环保局,颗粒物(PM10),58,66,224,11,53,49,,96,75,14,7,8,8,0.5,0.5
2024-03-29T0000,3239A,125.0764,42.9078,辽源市,银鹰制药,颗粒物(PM10),72,93,284,10,67,63,,86,73,9,5,25,8,0.4,0.5
2024-03-29T0000,1625A,115.9848,36.4372,聊城市,区政府,颗粒物(PM10),97,144,234,42,59,62,,98,84,19,15,8,7,0.6,0.6
2024-03-29T0000,2878A,116.0072,36.4343,聊城市,聊大东校,颗粒物(PM10),94,138,216,46,62,69,,106,92,21,16,7,5,0.7,0.8
2024-03-29T0000,3200A,115.9819,36.4978,聊城市,监控中心,颗粒物(PM10),103,155,259,44,61,63,,101,87,20,14,8,6,0.5,0.6
2024-03-29T0000,3513A,116.0445,36.4361,聊城市,九州社区,颗粒物(PM10),99,148,250,27,47,59,,102,84,17,11,6,5,0.5,0.5
2024-03-29T0000,4018A,116.0567,36.4608,聊城市,星美广场,颗粒物(PM10),99,147,235,36,53,65,,100,88,14,11,6,6,0.6,0.6
2024-03-29T0000,2632A,94.3681,29.6376,林芝市,林芝监测站,,24,7,11,2,3,76,,104,94,3,3,5,5,0.3,0.3
2024-03-29T0000,2633A,94.3616,29.6616,林芝市,林芝人民医院,,25,10,13,8,5,79,,108,98,5,5,6,6,0.4,0.4
2024-03-29T0000,2603A,100.0781,23.8982,临沧市,市环保局,细颗粒物(PM2.5),74,54,49,54,41,86,,124,110,12,12,8,9,0.7,0.6
2024-03-29T0000,2604A,100.0894,23.8822,临沧市,市气象局,细颗粒物(PM2.5),62,58,55,44,40,84,,123,,12,13,7,9,0.4,0.4
2024-03-29T0000,1733A,111.5531,36.0783,临汾市,临钢医院,颗粒物(PM10),88,126,142,36,27,4,,106,62,68,36,9,9,1.0,0.6
2024-03-29T0000,1734A,111.5028,36.0714,临汾市,技工学校,颗粒物(PM10),94,138,135,46,29,9,,111,66,76,35,9,12,0.8,0.6
2024-03-29T0000,1736A,111.5018,36.0855,临汾市,市委,颗粒物(PM10),94,137,126,40,21,13,,107,75,68,34,7,8,0.7,0.5
2024-03-29T0000,3018A,111.505,36.1014,临汾市,唐尧大酒店,颗粒物(PM10),90,129,125,28,23,9,,105,68,67,31,5,7,0.6,0.4
2024-03-29T0000,3668A,111.5036,36.0414,临汾市,城南,颗粒物(PM10),97,143,133,59,34,1,,102,57,74,37,12,11,0.8,0.6
2024-03-29T0000,2667A,103.2069,35.5993,临夏回族自治州,环保局,颗粒物(PM10),68,85,71,45,33,23,,93,44,28,20,4,5,0.7,0.7
2024-03-29T0000,2668A,103.2417,35.6057,临夏回族自治州,建设大厦,颗粒物(PM10),68,86,61,39,30,23,,94,55,28,17,4,4,0.6,0.5
2024-03-29T0000,1618A,118.3429,35.0532,临沂市,沂河小区,细颗粒物(PM2.5),75,90,122,55,77,54,,104,72,20,23,10,7,0.7,0.9
2024-03-29T0000,1619A,118.295,35.0583,临沂市,鲁南制药厂,颗粒物(PM10),67,83,120,45,57,64,,119,76,19,28,7,7,0.7,0.8
2024-03-29T0000,1620A,118.2794,34.9976,临沂市,新光毛纺厂,细颗粒物(PM2.5),73,83,107,53,70,53,,105,72,30,27,6,6,1.0,1.1
2024-03-29T0000,1621A,118.3956,35.0888,临沂市,河东保险公司,细颗粒物(PM2.5),69,78,107,50,74,60,,111,77,22,31,7,6,0.5,0.7
2024-03-29T0000,3370A,118.3564,35.0215,临沂市,十里堡居委,细颗粒物(PM2.5),67,68,102,48,64,58,,112,,23,28,8,5,0.8,1
2024-03-29T0000,3496A,118.3604,35.1084,临沂市,南坊新区,细颗粒物(PM2.5),77,88,115,56,79,61,,113,82,22,25,9,8,0.8,0.9
2024-03-29T0000,3860A,118.3920,35.0300,临沂市,皇山花园小区,细颗粒物(PM2.5),75,75,107,55,76,58,,112,78,26,30,9,9,1.0,1.2
2024-03-29T0000,1870A,109.4856,24.3895,柳州市,柳东小学,,50,36,31,35,22,42,,85,72,24,11,7,7,0.5,0.4
2024-03-29T0000,1871A,109.4157,24.3277,柳州市,环保监测站,细颗粒物(PM2.5),58,54,29,41,18,2,,83,44,51,16,7,7,1.0,0.6
2024-03-29T0000,1872A,109.389,24.341,柳州市,河西水厂,颗粒物(PM10),68,85,46,27,24,13,,82,42,47,22,5,13,0.4,1
2024-03-29T0000,1873A,109.4311,24.2921,柳州市,市四中,细颗粒物(PM2.5),57,56,35,40,23,8,,85,43,55,19,6,7,1.0,0.7
2024-03-29T0000,1874A,109.4006,24.3631,柳州市,市九中,颗粒物(PM10),84,117,45,46,23,7,,86,44,61,25,10,10,1.0,0.8
2024-03-29T0000,1875A,109.4958,24.3134,柳州市,古亭山,,24,20,31,12,21,6,,83,39,47,16,5,5,0.4,0.3
2024-03-29T0000,3402A,109.5422,24.3996,柳州市,市二中,,46,46,29,25,19,2,,82,44,40,16,7,7,0.9,0.8
2024-03-29T0000,2307A,116.5079,31.737,六安市,监测大楼,颗粒物(PM10),65,80,59,34,38,107,,128,117,16,20,4,5,0.6,0.7
2024-03-29T0000,2308A,116.4738,31.7643,六安市,皖西学院,颗粒物(PM10),67,83,70,32,38,117,,133,124,11,16,3,4,0.6,0.6
2024-03-29T0000,2309A,116.4996,31.7905,六安市,朝阳厂,颗粒物(PM10),66,81,61,36,45,107,,122,112,11,18,5,5,0.5,0.5
2024-03-29T0000,2310A,116.5567,31.7886,六安市,开发区,颗粒物(PM10),72,93,73,32,36,108,,121,107,13,19,4,4,0.6,0.7
2024-03-29T0000,2576A,104.8,26.5892,六盘水市,窑上,,,,,,,,,,,,,,,,
2024-03-29T0000,2577A,104.83,26.5917,六盘水市,黄土坡,,34,34,23,22,11,69,,118,96,15,15,6,8,0.7,0.8
2024-03-29T0000,2578A,104.89,26.5939,六盘水市,水钢,,49,49,32,26,17,90,,129,116,22,20,9,16,0.6,1.2
2024-03-29T0000,2579A,104.8475,26.5894,六盘水市,民中,颗粒物(PM10),52,53,22,24,11,63,,116,101,34,16,10,11,1.0,0.9
2024-03-29T0000,2580A,104.9544,26.5506,六盘水市,双水,,41,41,27,21,12,79,,130,112,25,19,8,13,0.5,0.8
2024-03-29T0000,2335A,117.0189,25.1181,龙岩市,龙岩师专,,,,,,,,,,,,,,,,
2024-03-29T0000,2336A,117.0217,25.1033,龙岩市,龙岩市监测站,,43,40,28,30,23,16,,76,63,40,13,4,5,0.6,0.5
2024-03-29T0000,2337A,117.0258,25.0661,龙岩市,闽西职业技术学院,,30,30,28,17,21,39,,75,68,17,10,2,4,0.6,0.5
2024-03-29T0000,2338A,117.0196,25.0306,龙岩市,龙岩学院,,18,16,26,12,19,51,,79,72,10,7,5,5,0.5,0.5
2024-03-29T0000,2665A,105.0822,33.3261,陇南市,汉王镇固水子,,,,,,,,,,,,,,,,
2024-03-29T0000,2885A,104.9339,33.3826,陇南市,滨江中学,颗粒物(PM10),60,69,59,25,18,13,,91,57,45,19,11,12,1.3,0.7
2024-03-29T0000,3247A,104.955,33.371,陇南市,市总工会,颗粒物(PM10),52,53,45,18,11,45,,93,69,23,13,10,9,0.6,0.5
2024-03-29T0000,2487A,111.9589,27.8901,娄底市,电视发射台,,44,44,37,21,16,59,,107,83,16,12,7,6,0.8,0.5
2024-03-29T0000,2488A,111.9975,27.725,娄底市,市监测站,颗粒物(PM10),52,54,32,32,18,27,,129,98,58,18,10,13,1.1,1.1
2024-03-29T0000,2489A,112.0194,27.7314,娄底市,市委党校,颗粒物(PM10),54,57,30,30,19,61,,116,94,22,20,7,9,0.6,0.8
2024-03-29T0000,2490A,111.9561,27.7569,娄底市,涟钢,颗粒物(PM10),75,100,34,42,17,26,,108,80,47,23,10,15,1.4,0.8
2024-03-29T0000,2491A,111.9892,27.7044,娄底市,市政府,,46,46,28,26,18,49,,119,98,25,14,8,9,0.7,0.7
2024-03-29T0000,1893A,105.4324,28.9634,泸州市,九狮山,颗粒物(PM10),53,56,37,29,22,25,,122,72,24,17,5,5,0.5,0.5
2024-03-29T0000,1894A,105.4427,28.9063,泸州市,小市上码头,颗粒物(PM10),54,57,45,33,29,66,,116,96,25,16,11,10,0.4,0.5
2024-03-29T0000,1895A,105.4241,28.8573,泸州市,兰田宪桥,颗粒物(PM10),59,67,48,34,30,16,,116,77,61,19,7,8,0.6,0.4
2024-03-29T0000,1896A,105.4379,28.8833,泸州市,市环监站,颗粒物(PM10),52,54,43,29,30,53,,111,88,40,17,11,10,0.7,0.6
2024-03-29T0000,3490A,105.3617,28.7703,泸州市,纳溪区环保局,颗粒物(PM10),65,80,50,36,28,21,,128,78,48,24,5,5,0.7,0.7
2024-03-29T0000,2183A,111.1406,37.5211,吕梁市,环保局,颗粒物(PM10),97,143,177,32,39,1,,98,59,78,38,7,7,0.5,0.5
2024-03-29T0000,2185A,111.1297,37.5136,吕梁市,自来水公司,颗粒物(PM10),69,87,178,28,41,17,,96,68,63,34,4,6,0.5,0.5
2024-03-29T0000,2867A,111.1283,37.51,吕梁市,马茂庄小学,颗粒物(PM10),102,153,203,28,42,4,,94,49,73,44,11,5,0.3,0.4
2024-03-29T0000,1812A,112.3931,34.6516,洛阳市,市委党校,颗粒物(PM10),56,61,101,27,42,51,,110,87,43,30,1,3,0.3,0.4
2024-03-29T0000,1814A,112.4657,34.6871,洛阳市,豫西宾馆,颗粒物(PM10),68,85,134,32,43,35,,116,79,59,40,5,9,0.5,0.6
2024-03-29T0000,1815A,112.494,34.6886,洛阳市,河南林校,颗粒物(PM10),56,62,106,27,44,51,,111,83,31,35,6,8,0.3,0.5
2024-03-29T0000,1816A,112.3844,34.623,洛阳市,开发区管委会,颗粒物(PM10),66,81,98,23,40,31,,117,76,52,26,3,3,0.3,0.3
2024-03-29T0000,1817A,112.4267,34.6258,洛阳市,市委新办公区,颗粒物(PM10),60,70,93,29,40,55,,115,87,31,21,11,5,0.5,0.7
2024-03-29T0000,3340A,112.6005,34.6326,洛阳市,伊滨,颗粒物(PM10),54,57,91,25,37,77,,115,99,23,20,14,5,0.4,0.5
2024-03-29T0000,3341A,112.4951,34.6332,洛阳市,中移产业园,颗粒物(PM10),70,90,94,28,35,61,,113,93,28,19,12,6,0.4,0.5
2024-03-29T0000,3593A,112.5736,34.8993,洛阳市,吉利监测站,颗粒物(PM10),80,110,102,19,24,7,,107,64,81,37,7,7,0.5,0.6
2024-03-29T0000,3635A,112.3677,34.662,洛阳市,河科大西苑校区,颗粒物(PM10),61,71,107,31,38,14,,109,86,75,23,6,5,0.3,0.3
2024-03-29T0000,3636A,112.4388,34.6781,洛阳市,英才小学,颗粒物(PM10),65,79,123,27,39,36,,111,76,54,36,4,9,0.6,0.7
2024-03-29T0000,2399A,114.051,33.5699,漯河市,三五一五工厂,颗粒物(PM10),89,127,105,24,25,46,,111,83,36,19,7,7,0.5,0.5
2024-03-29T0000,2400A,114.0055,33.5698,漯河市,漯河大学,颗粒物(PM10),87,123,108,39,36,28,,111,77,58,23,8,8,0.4,0.5
2024-03-29T0000,2401A,114.0138,33.5828,漯河市,市水利局,颗粒物(PM10),84,117,104,27,36,64,,112,87,31,21,7,8,0.2,0.4
2024-03-29T0000,2402A,114.0261,33.5698,漯河市,市广电局,颗粒物(PM10),83,115,93,29,29,60,,101,91,31,19,7,4,0.4,0.5
2024-03-29T0000,3478A,113.9749,33.5664,漯河市,市图书馆,颗粒物(PM10),80,109,87,35,36,75,,115,96,22,18,4,8,0.4,0.5
2024-03-29T0000,3479A,114.0967,33.5906,漯河市,召陵区卫健委,颗粒物(PM10),89,127,88,34,28,53,,115,88,29,20,7,5,0.4,0.5
2024-03-29T0000,1798A,118.5092,31.6837,马鞍山市,湖东路四小,颗粒物(PM10),68,86,61,45,31,60,,96,80,47,28,14,10,1.7,1
2024-03-29T0000,1799A,118.5024,31.6449,马鞍山市,开发区,颗粒物(PM10),67,84,58,47,36,48,,100,69,56,31,9,6,1.8,1.1
2024-03-29T0000,1800A,118.5228,31.7231,马鞍山市,慈湖,细颗粒物(PM2.5),77,81,65,56,43,53,,87,69,51,37,14,13,1.8,1.1
2024-03-29T0000,1802A,118.6245,31.7241,马鞍山市,濮塘,颗粒物(PM10),61,72,53,42,30,73,,89,79,27,18,9,5,1.2,0.8
2024-03-29T0000,3633A,118.4918,31.6809,马鞍山市,雨山,颗粒物(PM10),55,60,42,36,28,46,,96,68,58,31,10,7,2.0,1.3
2024-03-29T0000,1686A,111.0286,21.4688,茂名市,电白南海,,21,14,50,7,19,65,,82,,12,7,5,6,0.8,0.6
2024-03-29T0000,1687A,110.9294,21.6533,茂名市,茂石化七小,,46,46,56,27,32,56,,78,57,17,15,8,8,0.7,0.7
2024-03-29T0000,1688A,110.9107,21.6687,茂名市,健康路,,36,36,44,19,25,47,,78,54,11,14,5,8,0.5,0.5
2024-03-29T0000,1689A,110.8592,21.6828,茂名市,高岭,颗粒物(PM10),52,53,58,19,28,36,,78,53,18,12,8,10,0.8,0.8
2024-03-29T0000,3450A,111.01,21.5165,茂名市,电白水东,,27,27,41,12,20,67,,83,65,10,12,5,6,0.6,0.6
2024-03-29T0000,2539A,104.0308,30.0478,眉山市,黑龙滩水库,,26,21,29,18,18,66,,112,92,10,8,2,5,0.4,0.5
2024-03-29T0000,2540A,103.8416,30.0874,眉山市,气象局,颗粒物(PM10),60,69,38,24,15,6,,116,86,85,28,9,10,0.6,0.5
2024-03-29T0000,3137A,103.8578,30.0744,眉山市,市委党校,颗粒物(PM10),51,51,35,29,21,6,,113,78,78,32,9,9,0.5,0.4
2024-03-29T0000,3148A,103.8291,30.0564,眉山市,区人社局,,48,48,35,29,22,0,,113,80,86,32,12,11,0.8,0.6
2024-03-29T0000,1690A,116.1231,24.3284,梅州市,梅江月梅,,30,26,41,21,30,55,,84,61,22,17,10,9,0.4,0.5
2024-03-29T0000,1691A,116.0797,24.2719,梅州市,梅县新城,,36,36,47,24,30,42,,80,48,33,21,7,7,0.7,0.7
2024-03-29T0000,1692A,116.1248,24.2654,梅州市,环境监控中心,颗粒物(PM10),53,56,40,31,26,17,,78,46,44,23,27,7,0.7,0.6
2024-03-29T0000,3315A,116.1233,24.2991,梅州市,梅龙,,30,22,41,21,30,54,,82,56,18,13,10,9,0.6,0.7
2024-03-29T0000,1878A,104.7778,31.4741,绵阳市,富乐山,,44,44,42,23,28,89,,125,116,14,23,10,8,0.4,0.7
2024-03-29T0000,1879A,104.7563,31.4535,绵阳市,市人大,细颗粒物(PM2.5),59,66,54,42,33,3,,117,72,85,40,7,8,1.0,0.7
2024-03-29T0000,1880A,104.6697,31.4668,绵阳市,高新区自来水公司,颗粒物(PM10),101,152,69,36,32,3,,117,67,86,43,13,9,0.7,0.5
2024-03-29T0000,1881A,104.7287,31.5075,绵阳市,三水厂,细颗粒物(PM2.5),75,90,50,55,36,1,,109,64,78,39,6,5,1.0,0.9
2024-03-29T0000,3491A,104.69,31.5322,绵阳市,西科大附属小学,颗粒物(PM10),59,67,43,30,26,3,,111,76,89,39,8,8,0.7,0.8
2024-03-29T0000,3492A,104.5648,31.5343,绵阳市,安州区旅游局,颗粒物(PM10),65,79,50,43,28,14,,109,67,42,31,10,11,0.7,0.6
2024-03-29T0000,1784A,129.61,44.561,牡丹江市,环保大楼,颗粒物(PM10),100,150,158,51,46,77,,93,79,8,9,7,7,0.4,0.4
2024-03-29T0000,1785A,129.6115,44.5782,牡丹江市,文化广场,颗粒物(PM10),112,173,181,64,59,68,,78,66,8,12,9,11,0.5,0.6
2024-03-29T0000,1786A,129.5904,44.5963,牡丹江市,第一医院,颗粒物(PM10),111,171,170,48,49,52,,79,67,20,13,7,9,0.6,0.6
2024-03-29T0000,1787A,129.6364,44.6075,牡丹江市,机车工厂,颗粒物(PM10),117,183,161,54,43,60,,83,70,15,12,6,8,0.4,0.4
2024-03-29T0000,1788A,129.6386,44.5462,牡丹江市,第一中学,颗粒物(PM10),96,141,135,4,11,77,,89,76,5,9,7,9,0.5,0.5
2024-03-29T0000,2531A,105.0703,29.61,内江市,市监测站,颗粒物(PM10),53,55,56,34,35,28,,113,58,55,33,6,8,0.5,0.5
2024-03-29T0000,2532A,105.0717,29.5947,内江市,东兴区政府,颗粒物(PM10),54,58,43,31,24,5,,121,73,64,24,10,10,0.7,0.6
2024-03-29T0000,2533A,105.0653,29.5817,内江市,内江二中,颗粒物(PM10),53,56,40,30,29,18,,118,67,55,28,7,7,0.8,0.7
2024-03-29T0000,2534A,105.0406,29.5822,内江市,内江日报社,颗粒物(PM10),53,56,33,30,27,7,,122,74,88,33,12,11,1.1,0.8
2024-03-29T0000,2628A,92.0657,31.4846,那曲市,那曲监测站,,27,18,31,6,17,84,,102,89,6,9,6,7,0.6,0.6
2024-03-29T0000,3128A,92.0506,31.4797,那曲市,那曲会议中心,,29,29,39,8,17,80,,105,88,8,10,7,8,0.4,0.5
2024-03-29T0000,1290A,115.8931,28.6843,南昌市,省外办,颗粒物(PM10),51,52,36,29,24,70,,124,103,27,16,8,6,0.5,0.5
2024-03-29T0000,1291A,115.8886,28.7003,南昌市,省林业公司,颗粒物(PM10),54,58,28,34,20,63,,118,98,40,24,6,5,0.6,0.5
2024-03-29T0000,1292A,115.8126,28.7442,南昌市,林科所,,39,39,27,19,22,34,,125,67,56,29,10,7,0.7,0.6
2024-03-29T0000,1294A,115.8518,28.687,南昌市,建工学校,颗粒物(PM10),57,64,38,28,22,53,,116,93,48,21,8,5,0.7,0.6
2024-03-29T0000,1295A,115.8921,28.6424,南昌市,象湖,颗粒物(PM10),51,52,30,26,18,69,,126,102,29,20,7,5,0.7,0.7
2024-03-29T0000,1296A,115.7423,28.7996,南昌市,武术学校,,38,26,19,26,22,32,,111,66,7,7,10,9,0.4,0.4
2024-03-29T0000,1298A,115.9314,28.6842,南昌市,省站,颗粒物(PM10),59,67,44,35,24,57,,124,95,33,18,10,8,0.8,0.8
2024-03-29T0000,3046A,115.9084,28.6062,南昌市,机电学校,,44,44,33,24,21,58,,129,100,36,17,8,7,0.7,0.8
2024-03-29T0000,3690A,115.9721,28.7031,南昌市,外国语学校,,47,47,30,29,21,72,,125,101,28,20,5,4,0.5,0.6
2024-03-29T0000,1905A,106.056,30.8064,南充市,西山风景区,细颗粒物(PM2.5),52,47,34,36,31,81,,118,113,34,14,6,6,0.5,0.4
2024-03-29T0000,1906A,106.0789,30.8023,南充市,南充市委,颗粒物(PM10),63,75,48,31,26,4,,107,65,74,28,7,9,0.8,0.6
2024-03-29T0000,1907A,106.1031,30.8217,南充市,南充炼油厂,颗粒物(PM10),69,87,59,46,38,65,,121,101,36,20,6,11,0.4,0.4
2024-03-29T0000,1908A,106.1064,30.7856,南充市,高坪区监测站,颗粒物(PM10),60,70,55,38,32,2,,113,72,82,26,6,15,0.5,0.3
2024-03-29T0000,1909A,106.0642,30.7636,南充市,嘉陵区环保局,颗粒物(PM10),65,80,56,34,32,4,,110,63,86,29,8,12,0.5,0.4
2024-03-29T0000,1910A,106.1087,30.8388,南充市,市环境监测站,颗粒物(PM10),61,72,56,40,36,71,,120,102,36,24,6,9,0.3,0.3
2024-03-29T0000,1151A,118.8086,32.1065,南京市,迈皋桥,细颗粒物(PM2.5),73,72,53,53,42,47,,80,62,34,22,4,4,0.6,0.5
2024-03-29T0000,1152A,118.7538,32.0551,南京市,草场门,细颗粒物(PM2.5),70,63,48,51,43,48,,77,60,39,27,5,2,1.2,0.8
2024-03-29T0000,1153A,118.7794,32.0745,南京市,山西路,细颗粒物(PM2.5),85,75,59,63,56,49,,93,72,38,28,4,4,0.9,0.5
2024-03-29T0000,1154A,118.7752,32.0023,南京市,中华门,细颗粒物(PM2.5),64,68,54,46,40,45,,83,61,46,29,8,7,1.2,0.7
2024-03-29T0000,1155A,118.8109,32.0309,南京市,瑞金路,细颗粒物(PM2.5),67,80,64,48,42,3,,78,45,73,30,10,10,0.9,0.5
2024-03-29T0000,1156A,118.7997,32.0754,南京市,玄武湖,细颗粒物(PM2.5),77,69,55,56,46,44,,87,72,46,24,8,8,0.9,0.6
2024-03-29T0000,1157A,118.6414,32.0931,南京市,浦口,细颗粒物(PM2.5),54,45,35,38,30,53,,85,68,33,19,5,3,0.5,0.5
2024-03-29T0000,1158A,118.7356,31.9996,南京市,奥体中心,颗粒物(PM10),66,81,56,46,35,57,,81,70,41,36,10,7,1.2,0.6
2024-03-29T0000,1159A,118.9125,32.1028,南京市,仙林大学城,细颗粒物(PM2.5),83,66,54,61,47,52,,83,76,39,28,8,7,1.1,0.8
2024-03-29T0000,3422A,118.8436,31.9198,南京市,江宁彩虹桥,细颗粒物(PM2.5),67,50,36,48,39,50,,88,70,32,24,3,3,0.7,0.6
2024-03-29T0000,3423A,119.0138,31.6494,南京市,溧水永阳,,44,44,45,23,22,96,,86,86,9,21,4,4,0.5,0.7
2024-03-29T0000,3424A,118.879,31.3302,南京市,高淳老职中,,42,39,31,29,23,71,,98,90,16,14,5,4,0.8,0.6
2024-03-29T0000,3427A,118.8554,32.3578,南京市,六合雄州,细颗粒物(PM2.5),60,61,49,43,35,18,,91,64,81,33,10,5,1.8,0.7
2024-03-29T0000,1401A,108.3103,22.7881,南宁市,二十一中,颗粒物(PM10),60,70,42,41,31,3,,63,45,67,25,15,5,1.1,1
2024-03-29T0000,1402A,108.3141,22.8528,南宁市,北湖,细颗粒物(PM2.5),74,91,46,54,33,4,,54,38,61,25,16,7,1.0,0.8
2024-03-29T0000,1403A,108.3206,22.8225,南宁市,市监测站,细颗粒物(PM2.5),72,79,45,52,33,2,,54,41,62,27,7,7,1.2,0.9
2024-03-29T0000,1404A,108.3829,22.8037,南宁市,大自然花园,,36,33,34,25,25,22,,74,56,47,20,6,6,0.8,0.7
2024-03-29T0000,1405A,108.4394,22.7904,南宁市,仙葫,,38,38,34,17,25,18,,75,57,58,23,8,8,0.9,0.8
2024-03-29T0000,1406A,108.2397,22.8467,南宁市,区农职院,颗粒物(PM10),71,92,56,48,33,3,,52,32,56,30,19,8,1.1,0.8
2024-03-29T0000,1407A,108.3275,22.735,南宁市,英华嘉园,颗粒物(PM10),51,51,41,26,28,13,,65,48,62,28,7,7,0.7,0.6
2024-03-29T0000,1408A,108.2257,22.7757,南宁市,沙井镇街道办,颗粒物(PM10),67,83,64,45,38,4,,35,13,45,32,14,7,0.8,0.6
2024-03-29T0000,3401A,108.4834,22.7618,南宁市,红星社区,,43,43,34,30,26,7,,79,55,61,21,7,7,1.0,0.9
2024-03-29T0000,2331A,118.0966,26.6761,南平市,茫荡山,,,,,,,,,,,,,,,,
2024-03-29T0000,2332A,118.1681,26.6369,南平市,南平市监测站,,22,22,28,12,23,19,,86,57,32,18,3,4,0.8,0.7
2024-03-29T0000,2333A,118.1825,26.6489,南平市,南平铝业有限公司,,18,18,26,11,22,20,,83,56,34,21,6,7,0.7,0.7
2024-03-29T0000,2334A,118.1756,26.6272,南平市,南平七中,,20,14,25,14,25,28,,86,62,19,15,2,4,0.6,0.6
2024-03-29T0000,1168A,120.9098,31.9663,南通市,狼山街道,细颗粒物(PM2.5),57,52,43,40,38,10,,73,31,51,35,9,8,0.9,0.7
2024-03-29T0000,1169A,120.86,32.0005,南通市,虹桥,细颗粒物(PM2.5),88,75,62,65,51,28,,64,24,48,41,9,5,1.0,0.7
2024-03-29T0000,1170A,120.87,32.02,南通市,城中,细颗粒物(PM2.5),78,77,64,57,46,33,,70,38,47,38,9,5,1.4,0.8
2024-03-29T0000,1171A,120.94,31.93,南通市,星湖花园,细颗粒物(PM2.5),74,72,53,54,44,20,,52,42,59,41,8,7,0.9,0.8
2024-03-29T0000,1172A,120.81,32.0417,南通市,紫琅学院,细颗粒物(PM2.5),65,63,53,47,41,7,,75,45,70,36,9,8,1.0,0.8
2024-03-29T0000,3291A,121.067,32.062,南通市,通州监测站,细颗粒物(PM2.5),85,80,62,63,53,30,,73,42,44,24,8,8,1.0,0.7
2024-03-29T0000,3432A,120.9348,31.9883,南通市,环境教育馆,细颗粒物(PM2.5),67,56,50,48,42,22,,70,35,47,30,9,7,0.8,0.6
2024-03-29T0000,2404A,112.5224,33.0122,南阳市,瓦房庄,颗粒物(PM10),57,64,82,26,40,92,,103,98,13,22,6,6,0.5,0.7
2024-03-29T0000,2405A,112.5003,32.9735,南阳市,汉画馆,颗粒物(PM10),65,79,85,30,39,90,,105,99,18,23,7,7,0.5,0.6
2024-03-29T0000,2406A,112.5573,33.027,南阳市,气象站,颗粒物(PM10),58,65,80,19,40,94,,104,98,17,26,5,6,0.3,0.6
2024-03-29T0000,2407A,112.5481,32.9689,南阳市,理工学院,颗粒物(PM10),57,64,78,27,39,89,,101,96,16,23,4,5,0.6,0.6
2024-03-29T0000,4008A,112.5234,32.9922,南阳市,卧龙区政府,颗粒物(PM10),57,64,82,23,40,87,,96,92,14,23,6,6,0.5,0.6
2024-03-29T0000,1234A,121.8358,29.911,宁波市,区环保大楼,颗粒物(PM10),51,51,36,32,22,2,,69,16,56,41,6,7,1.1,0.9
2024-03-29T0000,1235A,121.56,29.82,宁波市,万里学院,,47,47,28,32,23,0,,70,44,61,32,8,8,0.9,0.7
2024-03-29T0000,1236A,121.713,29.9572,宁波市,龙赛医院,颗粒物(PM10),51,52,31,26,14,3,,76,36,75,36,8,7,0.9,0.7
2024-03-29T0000,1239A,121.633,29.7733,宁波市,钱湖水厂,,50,50,32,20,23,37,,78,57,16,22,7,7,0.8,0.7
2024-03-29T0000,1240A,121.5856,29.8635,宁波市,太古小学,颗粒物(PM10),56,61,36,33,23,2,,70,39,64,31,8,8,1.2,1
2024-03-29T0000,1241A,121.524,29.8674,宁波市,市环境监测中心,,,,38,,16,,,71,50,,33,,6,,0.8
2024-03-29T0000,2871A,121.6147,29.9017,宁波市,万里国际学校,细颗粒物(PM2.5),60,56,34,43,27,2,,76,32,62,36,8,8,1.1,0.7
2024-03-29T0000,3710A,121.5594,29.8975,宁波市,白沙活动中心,颗粒物(PM10),56,62,35,24,17,2,,68,35,57,33,8,7,1.1,0.7
2024-03-29T0000,2339A,119.5001,26.6946,宁德市,金涵水库,,,,,,,,,,,,,,,,
2024-03-29T0000,2341A,119.5388,26.6612,宁德市,宁德市监测站,细颗粒物(PM2.5),54,,55,38,46,36,,59,34,41,33,7,8,0.8,0.9
2024-03-29T0000,3209A,119.5231,26.6562,宁德市,宁德一中,,40,,50,28,36,49,,53,48,28,26,7,7,0.6,0.8
2024-03-29T0000,2618A,98.8601,25.8567,怒江傈僳族自治州,州监测站,,29,27,30,20,22,64,,97,83,4,7,7,7,0.4,0.5
2024-03-29T0000,2619A,98.8546,25.8417,怒江傈僳族自治州,泸水一中,,18,17,31,12,24,54,,83,75,11,18,6,6,0.3,0.3
2024-03-29T0000,1888A,101.6891,26.571,攀枝花市,弄弄坪,,32,32,41,20,26,65,,127,103,27,25,11,17,0.5,0.8
2024-03-29T0000,1889A,101.5769,26.5928,攀枝花市,河门口,颗粒物(PM10),52,54,44,28,27,61,,124,106,30,21,17,13,1.0,0.7
2024-03-29T0000,1890A,101.7169,26.585,攀枝花市,炳草岗,颗粒物(PM10),60,70,48,28,23,14,,135,83,78,39,15,20,0.9,0.8
2024-03-29T0000,1891A,101.7369,26.5008,攀枝花市,仁和,,36,36,33,21,21,64,,137,94,20,16,8,10,0.5,0.5
2024-03-29T0000,2835A,101.7227,26.567,攀枝花市,四十中小,颗粒物(PM10),52,54,38,25,20,17,,139,84,88,33,20,21,1.4,1
2024-03-29T0000,1604A,122.0303,41.1489,盘锦市,开发区,颗粒物(PM10),223,366,312,71,67,19,,79,46,53,25,7,5,0.8,0.7
2024-03-29T0000,1605A,122.0485,41.0883,盘锦市,兴隆台,颗粒物(PM10),219,363,339,66,71,14,,78,33,59,27,8,6,0.7,0.6
2024-03-29T0000,1606A,121.8297,41.1028,盘锦市,新生街道,颗粒物(PM10),175,300,264,45,61,35,,77,43,35,26,7,8,0.6,0.6
2024-03-29T0000,1832A,113.3257,33.742,平顶山市,新华旅馆,颗粒物(PM10),64,77,104,23,36,109,,120,106,12,24,7,9,0.4,0.6
2024-03-29T0000,1833A,113.2919,33.737,平顶山市,规划设计院,颗粒物(PM10),65,79,97,19,40,106,,110,98,7,27,5,6,0.4,0.5
2024-03-29T0000,1834A,113.182,33.774,平顶山市,平顶山工学院,颗粒物(PM10),66,82,96,19,33,93,,112,98,7,16,4,5,0.4,0.5
2024-03-29T0000,3204A,113.3025,33.73,平顶山市,规划局,颗粒物(PM10),65,80,111,29,38,101,,108,98,9,23,7,8,0.1,0.2
2024-03-29T0000,3594A,112.8867,33.9116,平顶山市,石龙区,颗粒物(PM10),66,81,110,27,34,104,,115,107,8,24,7,8,0.3,0.5
2024-03-29T0000,2656A,106.6692,35.5461,平凉市,聚贤嘉苑,,30,30,62,18,20,45,,116,72,46,30,8,8,0.3,0.3
2024-03-29T0000,2657A,106.7021,35.5307,平凉市,博物馆,颗粒物(PM10),52,53,70,30,23,39,,116,76,45,26,10,10,0.4,0.4
2024-03-29T0000,2347A,114.0997,27.5002,萍乡市,武功山,,25,25,22,1,8,57,,101,82,6,7,7,8,0.2,0.3
2024-03-29T0000,2348A,113.8385,27.6434,萍乡市,中医院,,40,40,32,22,20,39,,108,84,36,20,1,4,0.6,0.8
2024-03-29T0000,2349A,113.8493,27.6253,萍乡市,市政府车库,,26,,29,18,22,46,,106,78,20,17,5,9,0.6,0.8
2024-03-29T0000,2350A,113.8676,27.6435,萍乡市,市环保局,,28,26,30,19,20,52,,102,80,23,20,6,9,0.6,0.8
2024-03-29T0000,2351A,113.866,27.6198,萍乡市,安源区政府,,33,33,29,16,17,43,,115,87,22,15,8,9,0.6,0.7
2024-03-29T0000,2319A,119.0141,25.4325,莆田市,荔城区仓后路,细颗粒物(PM2.5),110,131,77,83,50,10,,78,49,61,33,6,6,1.5,1
2024-03-29T0000,2320A,119.0015,25.4553,莆田市,莆田市监测站,,42,38,54,29,32,47,,68,58,9,21,7,8,0.7,0.8
2024-03-29T0000,2321A,119.1119,25.4561,莆田市,涵江区六中,细颗粒物(PM2.5),80,64,65,59,42,51,,90,80,52,42,7,10,0.9,0.8
2024-03-29T0000,2322A,119.1013,25.3215,莆田市,秀屿区政府,细颗粒物(PM2.5),97,72,60,72,49,44,,133,95,49,35,9,15,1.0,0.9
2024-03-29T0000,2323A,118.981,25.4792,莆田市,东圳水库,,,,,,,,,,,,,,,,
2024-03-29T0000,2392A,115.0312,35.7636,濮阳市,环保局,颗粒物(PM10),79,108,159,27,53,71,,106,96,19,14,8,8,0.5,0.6
2024-03-29T0000,2394A,115.0574,35.7609,濮阳市,油田运输公司,颗粒物(PM10),79,108,174,28,54,75,,105,95,20,16,10,9,0.4,0.5
2024-03-29T0000,2395A,115.0866,35.7754,濮阳市,油田物探公司,颗粒物(PM10),80,109,188,31,60,75,,99,90,16,14,7,7,0.3,0.4
2024-03-29T0000,3021A,115,35.7668,濮阳市,濮水河管理处,颗粒物(PM10),80,110,176,33,57,50,,98,82,34,19,8,7,0.2,0.4
2024-03-29T0000,2601A,100.98,22.7633,普洱市,市环保局,细颗粒物(PM2.5),68,68,80,49,52,70,,122,100,16,17,11,9,0.5,0.6
2024-03-29T0000,2602A,100.9817,22.8322,普洱市,普洱第二中学,颗粒物(PM10),59,67,65,39,41,18,,129,94,70,36,9,9,0.6,0.5
2024-03-29T0000,2262A,131.0518,45.8751,七台河市,新一中,颗粒物(PM10),123,196,104,67,37,78,,105,84,14,9,8,9,0.9,0.8
2024-03-29T0000,3345A,131.0577,45.7879,七台河市,中波台,颗粒物(PM10),91,131,77,43,28,82,,92,79,12,16,6,8,0.5,0.5
2024-03-29T0000,3637A,131.0176,45.7761,七台河市,人民广场,颗粒物(PM10),93,135,106,39,42,82,,98,81,10,15,6,8,0.7,0.8
2024-03-29T0000,3684A,130.8781,45.8222,七台河市,新建矿广场,颗粒物(PM10),82,114,103,53,41,76,,93,76,13,17,8,12,0.7,0.8
2024-03-29T0000,1779A,123.9305,47.3636,齐齐哈尔市,安居小区,,22,22,276,7,27,60,,76,67,8,9,11,12,0.2,0.2
2024-03-29T0000,1780A,123.9488,47.3386,齐齐哈尔市,中心广场,,30,30,328,9,27,63,,75,68,4,8,6,6,0.4,0.3
2024-03-29T0000,1781A,123.9483,47.3227,齐齐哈尔市,农牧车辆厂,,20,12,269,11,26,62,,75,68,4,8,7,7,0.3,0.3
2024-03-29T0000,1783A,123.945,47.2988,齐齐哈尔市,市环境监测站,,20,11,302,8,32,63,,77,69,5,6,2,3,0.2,0.2
2024-03-29T0000,3662A,123.6333,47.2075,齐齐哈尔市,富区青少年活动中心,颗粒物(PM10),53,56,352,16,33,54,,70,64,20,14,38,20,2.4,0.8
2024-03-29T0000,2591A,107.9783,26.5747,黔东南苗族侗族自治州,市环境监测站,,32,32,24,20,18,16,,92,51,50,22,2,2,0.6,0.5
2024-03-29T0000,2881A,107.8908,26.5311,黔东南苗族侗族自治州,凯里学院,,37,37,28,17,19,25,,106,57,28,16,4,3,0.5,0.6
2024-03-29T0000,2593A,107.5228,26.2403,黔南布依族苗族自治州,小围寨,,25,24,16,17,7,31,,95,70,26,12,5,5,0.1,0.1
2024-03-29T0000,3538A,107.5175,26.2978,黔南布依族苗族自治州,沙坝,,39,39,26,24,14,33,,109,75,14,8,4,5,0.4,0.4
2024-03-29T0000,2589A,104.9022,25.0925,黔西南布依族苗族自治州,场坝街,,35,20,43,14,24,109,,123,117,6,11,2,4,0.2,0.3
2024-03-29T0000,2590A,104.8811,25.0992,黔西南布依族苗族自治州,坪东大道,,31,26,31,21,22,98,,117,108,8,13,3,6,0.1,0.2
2024-03-29T0000,2502A,108.6236,21.9667,钦州市,市环保站,颗粒物(PM10),56,61,54,24,25,57,,60,51,21,20,9,7,1.1,0.8
2024-03-29T0000,2503A,108.6549,21.9481,钦州市,沙埠小学,,44,44,46,28,31,55,,68,61,28,18,8,6,1.0,0.7
2024-03-29T0000,2504A,108.5989,21.7431,钦州市,港区一小,颗粒物(PM10),59,67,74,26,33,59,,53,50,26,29,8,8,0.8,0.7
2024-03-29T0000,3404A,108.5959,21.9633,钦州市,北职校,颗粒物(PM10),51,52,51,31,33,60,,63,60,15,19,10,9,0.9,0.7
2024-03-29T0000,1042A,119.5134,39.8207,秦皇岛市,北戴河环保局,颗粒物(PM10),65,80,318,23,59,27,,94,67,51,22,9,7,0.6,0.4
2024-03-29T0000,1043A,119.7493,40.0116,秦皇岛市,第一关,颗粒物(PM10),87,123,306,36,64,3,,93,42,70,32,11,8,0.7,0.5
2024-03-29T0000,1044A,119.5897,39.9499,秦皇岛市,监测站,颗粒物(PM10),72,94,300,38,68,5,,97,48,79,28,9,6,0.8,0.6
2024-03-29T0000,1046A,119.5251,39.9041,秦皇岛市,建设大厦,颗粒物(PM10),72,93,332,37,63,26,,95,61,52,24,7,5,0.4,0.5
2024-03-29T0000,3132A,119.610547,39.943889,秦皇岛市,文明里,颗粒物(PM10),71,92,353,26,58,28,,91,56,55,32,6,4,0.7,0.6
2024-03-29T0000,1307A,120.6659,36.2403,青岛市,仰口,细颗粒物(PM2.5),85,114,227,63,52,99,,87,84,13,15,3,3,0.5,0.4
2024-03-29T0000,1310A,120.4134,36.0658,青岛市,市南区东部子站,颗粒物(PM10),75,100,89,53,36,89,,81,81,12,22,8,8,0.7,0.7
2024-03-29T0000,1311A,120.3664,36.1032,青岛市,四方区子站,细颗粒物(PM2.5),89,90,166,66,56,96,,95,94,19,35,4,6,0.9,0.9
2024-03-29T0000,1312A,120.2994,36.054,青岛市,市南区西部子站,细颗粒物(PM2.5),77,85,121,56,43,88,,81,76,24,43,7,7,0.9,0.9
2024-03-29T0000,1313A,120.4581,36.0858,青岛市,崂山区子站,细颗粒物(PM2.5),77,97,160,56,45,98,,92,92,17,23,7,7,0.5,0.5
2024-03-29T0000,1314A,120.1983,35.9608,青岛市,黄岛区子站,细颗粒物(PM2.5),89,95,70,66,44,86,,98,98,23,25,6,6,0.9,0.8
2024-03-29T0000,1315A,120.3999,36.3083,青岛市,城阳区子站,颗粒物(PM10),78,105,163,51,47,88,,86,80,19,30,8,7,0.9,0.8
2024-03-29T0000,1966A,120.0405,35.8735,青岛市,黄岛区4号,颗粒物(PM10),74,97,66,51,39,82,,95,95,24,29,8,7,0.8,0.8
2024-03-29T0000,3362A,120.5014,36.4034,青岛市,即墨2号,细颗粒物(PM2.5),93,128,217,69,64,93,,91,90,18,22,8,5,1.0,0.6
2024-03-29T0000,3642A,120.3503,36.0736,青岛市,市北区南部,颗粒物(PM10),78,106,131,51,42,96,,93,93,24,32,7,7,0.8,0.8
2024-03-29T0000,3643A,120.3948,36.1805,青岛市,李沧区北部,细颗粒物(PM2.5),85,97,192,63,55,96,,94,93,22,35,9,8,0.8,0.7
