timepoint,stationcode,longitude,latitude,area,positionname,primarypollutant,aqi,pm10,pm10_24h,pm2_5,pm2_5_24h,o3,o3_24h,o3_8h,o3_8h_24h,no2,no2_24h,so2,so2_24h,co,co_24h
2024-03-29T1800,2566A,102.1879,31.914,阿坝藏族羌族自治州,州农科所,,27,27,23,6,11,29,,34,34,19,9,3,3,0.2,0.3
2024-03-29T1800,2568A,102.2502,31.8896,阿坝藏族羌族自治州,马师校,,33,13,12,8,12,104,,101,101,7,9,3,3,0.3,0.3
2024-03-29T1800,3994A,102.2165,31.9024,阿坝藏族羌族自治州,马尔康中学西区,,34,13,11,8,7,108,,100,100,4,6,5,5,0.3,0.4
2024-03-29T1800,2695A,80.292,41.1694,阿克苏地区,电视台,颗粒物(PM10),111,172,180,42,42,135,,99,99,9,13,11,5,0.5,0.6
2024-03-29T1800,2696A,80.2613,41.1551,阿克苏地区,艺术中心,,,,183,,44,,,99,99,9,20,8,5,0.5,0.9
2024-03-29T1800,2204A,105.6467,38.8363,阿拉善盟,西城区西花园,颗粒物(PM10),113,176,53,31,18,108,,112,112,5,10,8,8,0.6,0.6
2024-03-29T1800,2205A,105.6985,38.8411,阿拉善盟,蒙二幼,颗粒物(PM10),97,143,56,46,17,95,,100,99,8,9,7,8,0.3,0.3
2024-03-29T1800,2708A,88.1264,47.8517,阿勒泰地区,市站,,25,12,19,5,15,80,,69,69,11,12,5,5,0.2,0.2
2024-03-29T1800,2630A,80.1161,32.5,阿里地区,阿里监测站,,33,24,9,7,3,105,,106,106,2,4,7,8,0.4,0.4
2024-03-29T1800,3192A,80.0903,32.5028,阿里地区,阿里藏医院,,35,28,10,7,3,109,,111,111,2,2,8,8,0.4,0.4
2024-03-29T1800,2642A,109.0318,32.6537,安康市,香溪洞,颗粒物(PM10),54,58,52,23,20,137,,122,122,14,12,7,7,0.3,0.4
2024-03-29T1800,2643A,109.0281,32.6939,安康市,安康市监测站,,42,42,65,18,26,132,,120,120,12,22,10,11,0.6,0.7
2024-03-29T1800,2644A,109.0072,32.6975,安康市,汉滨区检察院,,46,41,66,21,28,145,,120,120,10,20,15,12,0.4,0.5
2024-03-29T1800,2291A,117.0809,30.5177,安庆市,环科院,,44,44,44,9,24,110,,116,116,18,28,8,8,0.4,0.6
2024-03-29T1800,2292A,117.0331,30.5119,安庆市,马山宾馆,,37,37,46,8,25,115,,120,120,20,35,8,9,0.4,0.6
2024-03-29T1800,2294A,116.9896,30.6145,安庆市,安庆大学,,48,48,47,9,24,120,,124,124,16,19,8,9,0.2,0.4
2024-03-29T1800,3173A,117.0598,30.5351,安庆市,市人大,,41,41,46,8,28,112,,122,120,19,22,6,8,0.4,0.6
2024-03-29T1800,3123A,105.9408,26.2431,安顺市,凤凰山,,37,34,29,23,24,118,,103,103,10,18,7,12,0.5,0.5
2024-03-29T1800,3124A,105.9439,26.2564,安顺市,金钟山,细颗粒物(PM2.5),54,,32,38,23,120,,107,107,6,11,5,9,0.5,0.5
2024-03-29T1800,3125A,105.8983,26.2481,安顺市,娄家坡,,39,36,33,27,23,117,,106,106,6,10,6,10,0.4,0.4
2024-03-29T1800,1819A,114.3551,36.1017,安阳市,红庙街,颗粒物(PM10),180,310,202,73,57,117,,97,97,15,30,6,12,0.7,0.8
2024-03-29T1800,1820A,114.361,36.0681,安阳市,银杏小区,颗粒物(PM10),177,304,203,67,50,118,,100,100,10,28,9,19,0.3,0.5
2024-03-29T1800,3141A,114.3922,36.0878,安阳市,信访局,颗粒物(PM10),195,339,206,60,42,115,,98,98,10,24,5,12,0.4,0.6
2024-03-29T1800,3669A,114.4705,36.0637,安阳市,左辅环卫站,颗粒物(PM10),213,359,224,58,49,105,,90,90,14,47,7,9,0.3,0.5
2024-03-29T1800,3703A,114.2917,36.0949,安阳市,安钢职工学校,颗粒物(PM10),187,324,221,73,53,116,,96,96,19,35,7,12,0.7,0.9
2024-03-29T1800,1748A,123.044,41.1196,鞍山市,深沟寺,颗粒物(PM10),52,53,278,11,47,91,,95,95,13,19,7,11,0.5,0.8
2024-03-29T1800,1749A,123.011,41.0931,鞍山市,太阳城,颗粒物(PM10),56,61,256,13,36,93,,100,100,14,19,8,11,0.6,0.9
2024-03-29T1800,1750A,123.0485,41.1442,鞍山市,太平,颗粒物(PM10),57,64,292,17,51,78,,91,90,28,25,15,10,1.1,0.9
2024-03-29T1800,1751A,122.9642,41.0971,鞍山市,铁西三道街,颗粒物(PM10),61,72,308,17,53,90,,100,99,19,27,5,8,0.5,0.7
2024-03-29T1800,1752A,122.9341,41.0833,鞍山市,铁西工业园区,,29,24,323,14,60,91,,99,99,14,23,5,9,0.4,0.8
2024-03-29T1800,1753A,123.022,41.0821,鞍山市,明达新区,颗粒物(PM10),70,89,306,16,45,86,,93,93,17,22,9,12,0.6,0.8
2024-03-29T1800,2195A,107.4212,40.761,巴彦淖尔市,附二中,颗粒物(PM10),106,161,162,45,38,98,,84,84,11,14,4,7,0.5,0.5
2024-03-29T1800,2196A,107.37,40.7372,巴彦淖尔市,市环保大楼,颗粒物(PM10),106,162,168,34,36,95,,82,82,12,13,5,10,0.4,0.5
2024-03-29T1800,1956A,86.1472,41.7538,巴音郭楞蒙古自治州,孔雀公园,颗粒物(PM10),82,114,213,24,48,119,,103,103,6,29,6,6,0.2,0.3
2024-03-29T1800,1957A,86.1972,41.7166,巴音郭楞蒙古自治州,棉纺厂,颗粒物(PM10),98,145,327,33,64,114,,102,102,6,20,3,3,0.3,0.3
2024-03-29T1800,1958A,86.2357,41.7173,巴音郭楞蒙古自治州,经济开发区,颗粒物(PM10),80,109,277,40,61,114,,107,107,4,11,6,6,0.2,0.3
2024-03-29T1800,2914A,106.7677,31.8794,巴中市,苏山坪,,40,34,42,15,20,127,,124,124,6,7,4,4,0.4,0.4
2024-03-29T1800,3182A,106.7656,31.8545,巴中市,丽阳花园,,41,29,47,17,26,129,,120,120,11,30,4,4,0.3,0.5
2024-03-29T1800,3183A,106.7418,31.8654,巴中市,圣泉水务公司,,39,32,43,17,24,123,,117,117,13,34,5,4,0.4,0.5
2024-03-29T1800,3616A,106.7616,31.8344,巴中市,市中心医院,,43,30,46,15,26,135,,125,125,4,26,5,5,0.4,0.6
2024-03-29T1800,2235A,122.7911,45.6077,白城市,洮北区环保局,颗粒物(PM10),57,64,42,30,15,104,,104,104,6,6,5,5,0.2,0.2
2024-03-29T1800,2236A,122.8738,45.5725,白城市,市环保局,颗粒物(PM10),63,75,48,19,16,79,,84,84,8,9,4,4,0.4,0.4
2024-03-29T1800,2231A,126.4219,41.9171,白山市,喜丰,,44,44,182,8,40,87,,86,86,12,14,9,9,0.8,1
2024-03-29T1800,2232A,126.4077,41.9419,白山市,环保局,,44,44,168,8,45,92,,86,86,3,11,8,9,0.7,1
2024-03-29T1800,2647A,104.1724,36.5446,白银市,第三小学,颗粒物(PM10),60,69,85,18,24,106,,94,94,4,29,9,23,0.4,0.8
2024-03-29T1800,2648A,104.1465,36.5482,白银市,动力公司,颗粒物(PM10),58,66,61,15,17,106,,95,95,8,24,6,12,0.2,0.6
2024-03-29T1800,2512A,106.6103,23.9011,百色市,市监测站,颗粒物(PM10),55,60,51,24,26,93,,68,68,29,19,14,9,0.6,0.6
2024-03-29T1800,2513A,106.6538,23.8859,百色市,市中心血站,细颗粒物(PM2.5),52,46,42,36,28,98,,75,75,19,21,15,11,0.7,0.6
2024-03-29T1800,3406A,106.6085,23.8798,百色市,祈福高中,颗粒物(PM10),54,57,36,27,28,99,,67,67,15,19,17,8,0.6,0.6
2024-03-29T1800,2270A,117.396,32.939,蚌埠市,工人疗养院,颗粒物(PM10),58,65,79,20,33,134,,125,125,9,12,7,7,0.5,0.6
2024-03-29T1800,2271A,117.3605,32.9427,蚌埠市,百货大楼,颗粒物(PM10),58,66,80,20,35,127,,124,124,16,17,5,4,0.5,0.6
2024-03-29T1800,2273A,117.4185,32.8911,蚌埠市,蚌埠学院,颗粒物(PM10),58,66,72,24,34,132,,127,127,12,14,6,5,0.4,0.6
2024-03-29T1800,2274A,117.3533,32.9673,蚌埠市,淮上区政府,颗粒物(PM10),58,66,75,24,37,126,,122,122,13,13,6,6,0.4,0.5
2024-03-29T1800,2275A,117.3145,32.8977,蚌埠市,高新区,颗粒物(PM10),56,61,69,28,40,129,,130,130,12,17,6,5,0.5,0.6
2024-03-29T1800,3715A,117.3092,32.9314,蚌埠市,蚌埠田家炳中学,颗粒物(PM10),59,67,80,24,41,125,,124,124,17,16,7,6,0.4,0.6
2024-03-29T1800,1585A,109.8756,40.6532,包头市,市环境监测站,颗粒物(PM10),82,113,169,21,29,91,,91,91,10,16,8,13,0.6,0.7
2024-03-29T1800,1587A,109.9991,40.5842,包头市,包头八中,颗粒物(PM10),88,125,194,16,42,98,,104,104,13,17,6,10,0.5,0.7
2024-03-29T1800,1588A,109.8538,40.6821,包头市,青山宾馆,颗粒物(PM10),72,93,150,19,33,90,,87,87,9,17,9,15,0.7,0.9
2024-03-29T1800,1589A,109.8642,40.6288,包头市,惠龙物流,颗粒物(PM10),72,94,173,28,33,88,,92,92,14,17,7,12,0.6,0.8
2024-03-29T1800,1590A,110.0377,40.5546,包头市,东河鸿龙湾,,,,199,,37,92,,102,102,7,13,7,9,0.5,0.7
2024-03-29T1800,3283A,109.9154,40.5685,包头市,滨河大厦,颗粒物(PM10),89,127,170,25,42,95,,106,106,6,13,8,10,0.6,0.6
2024-03-29T1800,3419A,109.9447,40.6261,包头市,包头市委党校,颗粒物(PM10),72,93,170,11,28,95,,99,99,8,18,7,11,0.4,0.5
2024-03-29T1800,3683A,109.8331,40.6576,包头市,昆区政府,颗粒物(PM10),68,86,147,19,35,92,,88,88,12,20,7,14,0.3,0.7
2024-03-29T1800,1930A,107.185,34.3063,宝鸡市,庙沟村,,40,40,31,22,14,109,,105,105,10,9,10,8,0.5,0.4
2024-03-29T1800,1931A,107.0708,34.3017,宝鸡市,竹园沟,,40,39,34,28,20,125,,121,121,20,19,4,3,0.3,0.3
2024-03-29T1800,1932A,107.1906,34.3672,宝鸡市,三陆医院,,49,49,61,22,26,132,,111,111,26,48,5,9,0.5,0.5
2024-03-29T1800,1933A,107.1431,34.3547,宝鸡市,监测站,,42,41,50,24,22,133,,112,112,19,35,7,6,0.4,0.5
2024-03-29T1800,1934A,107.1186,34.3739,宝鸡市,技工学校,颗粒物(PM10),51,52,55,19,24,128,,115,115,28,32,4,6,0.4,0.4
2024-03-29T1800,1935A,107.3906,34.3528,宝鸡市,陈仓区环保局家属楼,,46,46,59,15,29,129,,117,117,22,39,4,33,0.2,0.5
2024-03-29T1800,1936A,107.2058,34.3497,宝鸡市,文理学院,,47,47,53,28,22,134,,115,115,14,34,5,6,0.3,0.3
2024-03-29T1800,1937A,107.2386,34.3622,宝鸡市,三迪小学,颗粒物(PM10),56,61,60,33,27,120,,106,106,40,55,4,6,0.5,0.6
2024-03-29T1800,1052A,115.5213,38.8959,保定市,华电二区,颗粒物(PM10),90,130,177,29,44,98,,98,98,10,16,4,4,0.3,0.2
2024-03-29T1800,1053A,115.4713,38.9108,保定市,接待中心,颗粒物(PM10),103,156,177,27,34,97,,96,96,6,14,1,2,0.0,0.1
2024-03-29T1800,1054A,115.4612,38.8416,保定市,地表水厂,颗粒物(PM10),125,200,209,50,35,99,,101,101,12,18,4,4,0.6,0.5
2024-03-29T1800,3581A,115.31981,38.95208,保定市,满城区生态环境分局,颗粒物(PM10),123,195,229,34,37,99,,103,103,7,13,2,2,0.1,0.1
2024-03-29T1800,3582A,115.47694,38.76408,保定市,清苑区第二中学,颗粒物(PM10),124,197,235,25,31,102,,99,99,13,22,5,5,0.3,0.3
2024-03-29T1800,3583A,115.62909,39.02311,保定市,徐水物探局,颗粒物(PM10),78,105,282,14,34,102,,98,98,10,16,6,7,0.3,0.2
2024-03-29T1800,4004A,115.4202,38.8656,保定市,双鹰农机,颗粒物(PM10),106,161,217,21,32,97,,98,98,12,21,5,6,0.4,0.4
2024-03-29T1800,4034A,115.5150,38.8590,保定市,植保所站,颗粒物(PM10),94,138,206,24,41,105,,102,102,10,16,1,2,0.3,0.3
2024-03-29T1800,2594A,99.1678,25.1081,保山市,市环境监测站,"颗粒物(PM10),细颗粒物(PM2.5)",62,74,53,44,32,121,,112,112,8,12,9,7,0.6,0.6
2024-03-29T1800,2595A,99.1711,25.1328,保山市,市环保局,颗粒物(PM10),61,72,54,29,30,119,,109,109,5,7,7,6,0.7,0.6
2024-03-29T1800,1867A,109.1436,21.4086,北海市,海滩公园,颗粒物(PM10),58,65,47,24,29,89,,75,75,15,13,8,10,0.8,0.7
2024-03-29T1800,1868A,109.0981,21.4661,北海市,新市环保局,,50,50,45,27,32,105,,82,82,9,14,6,9,0.6,0.7
2024-03-29T1800,1869A,109.1778,21.5233,北海市,北海工业园,颗粒物(PM10),53,55,53,24,36,100,,85,85,8,14,7,12,0.6,0.7
2024-03-29T1800,3400A,109.1911,21.4415,北海市,龙潭自来水厂,,49,49,45,31,36,95,,76,76,6,10,9,11,0.5,0.6
2024-03-29T1800,1001A,116.3621,39.8784,北京市,万寿西宫,颗粒物(PM10),74,97,152,22,29,89,,87,87,13,17,3,3,0.2,0.2
2024-03-29T1800,1003A,116.4174,39.9289,北京市,东四,颗粒物(PM10),67,84,149,18,26,89,,89,89,11,12,3,3,0.3,0.5
2024-03-29T1800,1004A,116.4072,39.8863,北京市,天坛,颗粒物(PM10),66,82,143,21,29,86,,90,90,13,16,3,3,0.2,0.2
2024-03-29T1800,1005A,116.462,39.9365,北京市,农展馆,颗粒物(PM10),59,67,129,19,25,89,,92,92,12,14,1,2,0.2,0.2
2024-03-29T1800,1006A,116.3392,39.9295,北京市,官园,颗粒物(PM10),74,98,157,22,27,95,,96,96,17,14,2,2,0.3,0.3
2024-03-29T1800,1007A,116.2878,39.9611,北京市,海淀万柳,颗粒物(PM10),78,105,143,22,25,89,,92,92,21,17,2,1,0.4,0.3
2024-03-29T1800,1008A,116.6636,40.135,北京市,顺义新城,,31,31,141,5,26,89,,89,89,5,9,3,3,0.2,0.2
2024-03-29T1800,1009A,116.6275,40.3275,北京市,怀柔镇,,29,26,135,4,26,91,,92,92,2,5,3,3,0.2,0.2
2024-03-29T1800,1010A,116.2296,40.217,北京市,昌平镇,,37,37,154,7,32,82,,84,84,11,11,3,3,0.2,0.2
2024-03-29T1800,1011A,116.3966,39.9821,北京市,奥体中心,颗粒物(PM10),62,73,128,17,25,74,,77,77,18,17,3,3,0,0.1
2024-03-29T1800,1012A,116.184,39.9136,北京市,古城,颗粒物(PM10),86,122,164,22,28,97,,98,98,15,14,3,3,0.3,0.3
2024-03-29T1800,3281A,115.9718,40.4529,北京市,延庆夏都,,27,27,167,4,30,86,,86,86,3,4,3,3,0.2,0.2
2024-03-29T1800,3417A,117.0709,40.1465,北京市,平谷新城,,29,27,135,4,24,90,,92,92,5,8,3,3,0.2,0.2
2024-03-29T1800,3418A,116.8336,40.4095,北京市,密云新城,,29,26,129,5,24,90,,90,90,4,5,3,3,0.2,0.2
2024-03-29T1800,3672A,116.1541,39.8204,北京市,丰台云岗,颗粒物(PM10),79,107,171,26,33,89,,86,86,11,9,3,3,0.1,0.1
2024-03-29T1800,3673A,116.6804,39.9081,北京市,通州东关,颗粒物(PM10),74,98,162,21,30,93,,93,93,12,17,3,3,0.4,0.3
2024-03-29T1800,3674A,115.9577,39.7603,北京市,房山燕山,颗粒物(PM10),88,125,157,30,37,80,,82,76,19,14,3,3,0.0,0
2024-03-29T1800,3675A,116.4672,39.7733,北京市,大兴旧宫,颗粒物(PM10),71,91,148,20,27,93,,92,92,9,15,3,3,0.1,0.2
2024-03-29T1800,3694A,115.986,40.4563,北京市,延庆石河营,,29,27,158,4,30,92,,92,92,1,7,3,3,0.2,0.2
2024-03-29T1800,3695A,116.6151,40.3053,北京市,怀柔新城,,30,23,135,3,26,95,,94,94,1,4,3,3,0.0,0
2024-03-29T1800,3696A,116.2545,39.8768,北京市,丰台小屯,颗粒物(PM10),78,106,158,23,28,88,,87,87,13,18,3,3,0.1,0.1
2024-03-29T1800,3697A,116.84,40.3844,北京市,密云镇,,28,28,125,4,22,84,,85,85,6,7,3,3,0.3,0.2
2024-03-29T1800,1761A,123.8275,41.3064,本溪市,大峪,颗粒物(PM10),60,69,219,14,32,83,,90,90,11,15,10,9,0.8,1
2024-03-29T1800,1762A,123.7567,41.3325,本溪市,溪湖,颗粒物(PM10),57,63,179,12,25,94,,99,99,12,20,4,4,0.5,0.7
2024-03-29T1800,1763A,123.7169,41.3094,本溪市,彩屯,,42,42,150,16,30,88,,95,95,17,23,7,7,0.8,1
2024-03-29T1800,1764A,123.7669,41.2864,本溪市,东明,,50,50,222,13,31,87,,93,93,18,25,11,6,0.7,0.9
2024-03-29T1800,1765A,123.7992,41.2664,本溪市,新立屯,,47,47,218,20,33,93,,101,101,13,19,14,11,0.6,0.6
2024-03-29T1800,1766A,123.8142,41.3472,本溪市,威宁,颗粒物(PM10),57,64,187,12,28,82,,90,90,15,19,7,6,0.4,0.5
2024-03-29T1800,2587A,105.2864,27.3125,毕节市,八中,,38,36,39,22,26,119,,118,118,10,17,9,10,0.5,0.6
2024-03-29T1800,2588A,105.31,27.2944,毕节市,师专,,46,41,38,32,24,114,,115,115,13,18,11,7,0.4,0.5
2024-03-29T1800,3537A,105.3631,27.3533,毕节市,长征村,,45,44,38,31,26,126,,125,125,10,13,8,9,0.5,0.5
2024-03-29T1800,1629A,118.0018,37.3617,滨州市,第二水厂,颗粒物(PM10),140,229,382,41,62,120,,101,101,22,30,6,9,0.5,0.6
2024-03-29T1800,1630A,117.9776,37.393,滨州市,北中新校,颗粒物(PM10),142,234,375,51,117,118,,98,98,22,31,8,10,0.5,0.6
2024-03-29T1800,3514A,117.9378,37.3956,滨州市,中海酒店,颗粒物(PM10),142,234,366,44,66,129,,101,101,14,24,10,13,0.5,0.7
2024-03-29T1800,3515A,117.9378,37.3553,滨州市,开发区一中,颗粒物(PM10),139,227,377,39,63,110,,87,87,18,28,14,18,0.5,0.5
2024-03-29T1800,3516A,118.0917,37.694,滨州市,金海六路,颗粒物(PM10),120,190,423,34,62,114,,107,107,11,22,10,10,0.4,0.5
2024-03-29T1800,4028A,117.9956,37.3753,滨州市,滨州市西街道办事处,颗粒物(PM10),146,241,391,36,68,113,,97,97,20,26,11,14,0.6,0.7
2024-03-29T1800,2311A,115.8072,33.8399,亳州市,污水处理厂,颗粒物(PM10),54,58,71,15,22,122,,111,111,12,12,9,9,0.4,0.4
2024-03-29T1800,2312A,115.7789,33.8518,亳州市,三国揽胜宫,颗粒物(PM10),57,64,75,16,24,121,,107,107,7,9,8,8,0.4,0.4
2024-03-29T1800,3332A,115.7633,33.8034,亳州市,亳州学院,颗粒物(PM10),53,56,72,20,28,122,,110,110,6,8,9,8,0.4,0.5
2024-03-29T1800,2693A,82.0485,44.8556,博尔塔拉蒙古自治州,市党校,颗粒物(PM10),63,76,51,12,20,95,,92,92,8,10,11,10,0,0.3
2024-03-29T1800,2694A,82.0806,44.8969,博尔塔拉蒙古自治州,市环保局,颗粒物(PM10),99,148,108,18,19,92,,91,91,8,14,9,9,0.4,0.4
2024-03-29T1800,1071A,116.8842,38.2991,沧州市,沧县城建局,颗粒物(PM10),103,155,268,41,57,100,,97,97,22,28,5,5,0.5,0.6
2024-03-29T1800,1072A,116.8584,38.3254,沧州市,电视转播站,颗粒物(PM10),106,161,252,24,47,97,,90,90,12,25,5,5,0.3,0.3
2024-03-29T1800,1073A,116.8709,38.3228,沧州市,市环保局,颗粒物(PM10),102,153,251,33,53,113,,106,106,14,26,2,3,0.2,0.3
2024-03-29T1800,3324A,116.8136,38.3004,沧州市,河北水利电力学院,颗粒物(PM10),120,190,333,35,54,98,,93,93,14,22,8,9,0.3,0.3
2024-03-29T1800,2622A,97.1806,31.1273,昌都市,昌都监测站,,28,20,17,7,9,87,,82,82,7,12,6,6,0.5,0.6
2024-03-29T1800,3719A,97.1714,31.1406,昌都市,昌都会议中心,,31,16,13,7,7,98,,93,93,4,4,7,7,0.5,0.6
2024-03-29T1800,2690A,88.1236,43.8886,昌吉回族自治州,天山天池,,36,21,10,15,6,115,,109,109,17,8,14,8,1.0,0.7
2024-03-29T1800,2692A,87.2717,44.0297,昌吉回族自治州,新区政务中心,,36,20,51,17,27,113,,104,104,11,32,8,12,0.3,0.7
2024-03-29T1800,3613A,87.3095,44.0142,昌吉回族自治州,亚心广场,,36,19,51,12,24,113,,98,98,10,40,8,10,0.1,0.8
2024-03-29T1800,1119A,125.3325,43.9166,长春市,食品厂,颗粒物(PM10),160,270,132,25,16,78,,84,83,16,18,6,6,0.3,0.3
2024-03-29T1800,1120A,125.2863,43.9027,长春市,客车厂,颗粒物(PM10),157,264,133,22,16,75,,83,83,15,16,8,7,0.3,0.4
2024-03-29T1800,1121A,125.2841,43.8463,长春市,邮电学院,颗粒物(PM10),165,280,148,21,20,77,,82,82,13,18,7,9,0.2,0.3
2024-03-29T1800,1122A,125.3716,43.8772,长春市,劳动公园,颗粒物(PM10),145,239,123,16,18,86,,90,90,9,12,5,5,0.3,0.3
2024-03-29T1800,1123A,125.3297,43.8805,长春市,园林处,颗粒物(PM10),127,204,106,18,12,75,,82,82,15,15,9,8,0.3,0.3
2024-03-29T1800,1124A,125.4605,43.79,长春市,净月潭,颗粒物(PM10),150,250,114,16,12,81,,86,86,7,7,6,6,0.2,0.3
2024-03-29T1800,1126A,125.3863,43.8447,长春市,经开区环卫处,颗粒物(PM10),131,211,116,17,15,80,,83,83,11,15,4,5,1.6,0.4
2024-03-29T1800,1127A,125.245,43.7783,长春市,高新区管委会,颗粒物(PM10),143,236,120,20,16,82,,88,88,10,11,7,7,0.3,0.3
2024-03-29T1800,1128A,125.1761,43.8325,长春市,岱山公园,颗粒物(PM10),143,235,132,20,19,78,,82,82,12,18,5,5,0.4,0.4
2024-03-29T1800,1335A,113.0833,28.2325,长沙市,经开区环保局,,43,37,46,14,23,136,,136,136,13,22,6,7,0.3,0.5
2024-03-29T1800,1336A,112.8872,28.2189,长沙市,高开区环保局,,45,42,43,20,22,144,,133,133,10,15,8,9,0.5,0.6
2024-03-29T1800,1337A,113.0792,28.2053,长沙市,马坡岭,,,38,49,12,27,,,115,,3,23,7,7,0.5,0.6
2024-03-29T1800,1338A,112.9394,28.19,长沙市,湖南师范大学,,43,40,52,18,27,136,,134,134,11,32,5,5,0.7,0.9
2024-03-29T1800,1339A,113.0178,28.1322,长沙市,雨花区环保局,,41,35,42,18,22,131,,132,132,8,20,6,9,0.5,0.8
2024-03-29T1800,1340A,112.9792,28.2597,长沙市,伍家岭,,39,39,65,12,27,119,,130,130,19,39,8,7,0.8,1
2024-03-29T1800,1341A,113.0014,28.1944,长沙市,火车新站,,48,48,55,17,33,122,,126,126,9,41,5,8,0.5,0.9
2024-03-29T1800,1342A,112.9844,28.1178,长沙市,天心区环保局,,40,25,45,15,20,128,,130,130,9,25,4,8,0.3,0.7
2024-03-29T1800,1343A,112.8908,28.1308,长沙市,湖南中医药大学,,49,49,50,24,25,135,,127,127,12,40,8,7,0.7,1
2024-03-29T1800,1344A,112.9581,28.3611,长沙市,沙坪,,46,26,29,18,24,145,,137,137,10,19,9,7,1.2,1.3
2024-03-29T1800,1727A,113.1147,36.1547,长治市,清华站,,41,41,72,7,18,108,,107,107,12,22,6,7,0.6,0.7
2024-03-29T1800,1728A,113.1031,36.1989,长治市,监测站,,45,45,62,12,17,113,,112,112,14,23,10,10,0.2,0.4
2024-03-29T1800,1730A,113.0886,36.2125,长治市,审计局,,39,39,57,7,16,115,,110,110,13,23,10,11,0.2,0.3
2024-03-29T1800,1731A,113.0844,36.1856,长治市,长治八中,,48,48,72,10,16,114,,110,110,16,29,5,6,0.5,0.6
2024-03-29T1800,2845A,113.1569,36.1911,长治市,德盛苑,,36,36,55,12,16,114,,110,110,11,17,7,8,0.3,0.4
2024-03-29T1800,3568A,113.06,36.0464,长治市,向阳小学,颗粒物(PM10),57,63,82,23,28,115,,116,116,14,20,12,13,0.3,0.4
2024-03-29T1800,3569A,112.8792,36.3144,长治市,屯留一中,颗粒物(PM10),54,58,58,9,14,118,,113,113,5,18,8,8,0.4,0.5
2024-03-29T1800,3570A,113.235,36.3489,长治市,潞城四中,颗粒物(PM10),55,60,80,20,25,116,,111,111,12,30,8,9,0.1,0.4
2024-03-29T1800,1854A,111.6975,28.9703,常德市,市二中,,35,32,34,14,13,109,,114,114,14,14,7,7,0.4,0.5
2024-03-29T1800,1857A,111.7158,29.1456,常德市,白鹤山,,42,42,45,9,8,60,,56,53,5,3,6,6,0.3,0.4
2024-03-29T1800,3138A,111.7153,29.0289,常德市,武陵区永安,,33,31,38,12,13,103,,112,112,21,21,6,7,0.3,0.4
2024-03-29T1800,3139A,111.6892,28.9881,常德市,鼎城区玉霞,,37,37,41,17,15,113,,116,116,21,25,9,9,0.3,0.6
2024-03-29T1800,3140A,111.6625,29.0531,常德市,武陵区长庚,,37,27,40,16,17,118,,112,112,14,20,7,7,0.4,0.5
2024-03-29T1800,1196A,119.9633,31.762,常州市,市监测站,,38,35,56,18,36,120,,132,132,22,35,7,11,0.3,0.5
2024-03-29T1800,1200A,119.9468,31.7069,常州市,武进监测站,,39,39,54,17,30,113,,123,123,23,24,10,13,0.7,0.8
2024-03-29T1800,1201A,119.9255,31.9087,常州市,安家,,40,38,65,18,33,127,,132,132,24,38,8,10,0.7,0.9
2024-03-29T1800,3002A,119.9805,31.8174,常州市,行政中心,,36,31,46,22,33,114,,124,124,19,24,8,14,0.3,0.5
2024-03-29T1800,3003A,120.0522,31.7748,常州市,经开区,,40,31,61,18,34,126,,131,131,16,31,6,8,0.3,0.6
2024-03-29T1800,3010A,119.9025,31.7964,常州市,钟楼,,36,32,47,20,33,115,,127,127,19,27,7,10,0.7,0.9
2024-03-29T1800,3429A,119.8598,31.7066,常州市,武进经发区,,39,39,40,10,20,122,,130,130,18,27,7,10,0.6,0.9
2024-03-29T1800,3430A,119.5826,31.7245,常州市,金坛城区,,40,28,31,6,18,128,,133,133,14,25,6,8,0.5,0.7
2024-03-29T1800,2220A,120.4318,41.5881,朝阳市,西梁,颗粒物(PM10),112,174,96,12,19,83,,90,89,8,7,4,4,0.5,0.5
2024-03-29T1800,2221A,120.4521,41.5646,朝阳市,河畔小区,颗粒物(PM10),126,201,111,21,34,80,,88,88,10,10,6,7,0.6,0.6
2024-03-29T1800,2222A,120.4176,41.5648,朝阳市,八里堡,颗粒物(PM10),135,220,111,24,22,,,94,,8,12,7,9,0.6,0.5
2024-03-29T1800,2223A,120.3806,41.5969,朝阳市,农业园区,颗粒物(PM10),121,192,103,17,20,86,,93,92,6,8,5,5,0.4,0.4
2024-03-29T1800,1705A,116.6367,23.6719,潮州市,西园路,细颗粒物(PM2.5),77,82,61,56,32,138,,130,130,19,16,8,5,0.5,0.4
2024-03-29T1800,3026A,116.6183,23.6608,潮州市,市政府,细颗粒物(PM2.5),62,56,57,44,33,145,,142,142,22,24,9,7,0.8,1
2024-03-29T1800,4036A,116.6461,23.6761,潮州市,金山,细颗粒物(PM2.5),70,54,47,51,34,145,,131,131,17,18,10,7,0.8,0.7
2024-03-29T1800,2472A,113.0073,25.9061,郴州市,马头岭,,40,35,27,13,9,128,,115,115,9,18,4,5,0.6,0.7
2024-03-29T1800,2473A,113.0116,25.8226,郴州市,市职中,,40,20,30,14,20,125,,126,126,13,18,9,6,0.4,0.6
2024-03-29T1800,2474A,113.0161,25.8001,郴州市,兴隆步行街,,37,30,36,16,21,117,,125,125,15,22,8,5,0.4,0.6
2024-03-29T1800,2475A,113.0383,25.8071,郴州市,市审计局,,38,24,29,12,18,119,,123,123,12,23,10,19,0.4,0.6
2024-03-29T1800,2476A,113.0348,25.7759,郴州市,市环保局,,34,28,32,12,18,106,,116,116,12,23,7,23,0.4,0.6
2024-03-29T1800,1431A,103.9728,30.7236,成都市,金泉两河,臭氧1小时,93,63,47,44,25,194,,146,146,9,31,3,4,0.4,0.7
2024-03-29T1800,1432A,104.176,30.6872,成都市,十里店,臭氧1小时,95,51,59,21,27,196,,156,156,13,45,3,3,0.4,0.7
2024-03-29T1800,1433A,104.079,30.5706,成都市,三瓦窑,臭氧1小时,80,50,61,31,29,184,,149,149,11,60,3,4,0.2,0.7
2024-03-29T1800,1434A,104.1114,30.63,成都市,沙河铺,臭氧1小时,54,52,52,25,24,163,,142,142,13,42,6,3,0.3,1.1
2024-03-29T1800,1437A,104.0786,30.6531,成都市,君平街,臭氧1小时,100,56,67,31,32,200,,159,159,18,52,6,8,0.3,0.9
2024-03-29T1800,1438A,103.613,31.0283,成都市,灵岩寺,臭氧1小时,59,32,21,20,12,167,,129,129,12,12,6,9,0.6,0.5
2024-03-29T1800,2880A,104.0239,30.65639,成都市,大石西路,臭氧1小时,104,55,64,29,32,207,,162,162,17,48,6,8,0.4,1
2024-03-29T1800,3136A,104.2725,30.5589,成都市,龙泉驿区区政府,,49,36,43,19,20,154,,140,140,8,20,3,4,0.4,0.5
2024-03-29T1800,3357A,104.0106,30.6931,成都市,金博路,臭氧1小时,101,95,67,35,32,201,,150,150,10,45,3,4,0.8,0.9
2024-03-29T1800,3359A,104.0578,30.5225,成都市,华阳,臭氧1小时,57,44,58,19,35,165,,144,144,10,54,3,3,0.5,0.9
2024-03-29T1800,3487A,104.2394,30.5319,成都市,车城东七路,,50,35,56,16,28,158,,145,145,9,31,4,4,0.4,0.6
2024-03-29T1800,3488A,104.3853,30.7453,成都市,青白江技师分院,,50,37,34,12,15,157,,148,148,10,31,2,3,0.3,0.5
2024-03-29T1800,3489A,104.0789,30.4072,成都市,科学城,臭氧1小时,69,38,48,20,25,175,,143,143,7,38,4,4,0.5,0.7
2024-03-29T1800,4011A,103.8506,30.6947,成都市,光华大道三段,臭氧1小时,104,55,47,40,25,207,,162,162,17,39,2,3,0.5,0.7
2024-03-29T1800,1062A,117.9531,40.9081,承德市,铁路,颗粒物(PM10),74,97,114,5,12,90,,91,91,4,6,8,8,0.2,0.2
2024-03-29T1800,1063A,117.9392,40.9763,承德市,中国银行,颗粒物(PM10),79,108,100,4,12,91,,94,94,7,7,8,9,0.3,0.3
2024-03-29T1800,1064A,117.9503,40.928,承德市,开发区,颗粒物(PM10),74,98,108,14,22,89,,89,89,5,6,6,8,0.1,0.2
2024-03-29T1800,1065A,117.8051,40.9655,承德市,文化中心,颗粒物(PM10),72,94,117,4,13,94,,95,95,5,7,4,9,0.2,0.3
2024-03-29T1800,1066A,117.9268,41.0026,承德市,离宫,颗粒物(PM10),61,71,77,8,17,89,,90,90,2,3,5,5,0.2,0.2
2024-03-29T1800,2314A,117.47,30.6618,池州市,池州学院,,36,32,37,13,21,113,,118,118,20,19,8,7,0.4,0.6
2024-03-29T1800,3237A,117.4918,30.6617,池州市,展览馆,,41,41,36,7,13,112,,116,116,26,20,4,5,0.3,0.6
2024-03-29T1800,3333A,117.5627,30.695,池州市,第八中学,,39,39,33,13,18,120,,122,122,13,13,3,4,0.4,0.7
2024-03-29T1800,3334A,117.5038,30.6243,池州市,第十二中学,,48,48,39,16,19,116,,121,121,16,18,4,5,0.3,0.8
2024-03-29T1800,1744A,118.9233,42.2816,赤峰市,松山一中,颗粒物(PM10),96,142,105,6,11,82,,84,84,9,9,6,7,0.4,0.5
2024-03-29T1800,1745A,118.9576,42.2728,赤峰市,哈达街,颗粒物(PM10),91,132,100,9,22,73,,78,78,13,11,7,7,0.6,0.6
2024-03-29T1800,1746A,118.8788,42.2554,赤峰市,天义路,颗粒物(PM10),91,131,90,8,11,74,,79,79,11,6,5,5,0.4,0.4
2024-03-29T1800,3058A,119.2658,42.0353,赤峰市,银河街,颗粒物(PM10),121,192,128,11,24,79,,84,83,11,10,9,10,0.4,0.4
2024-03-29T1800,3286A,118.9359,42.3147,赤峰市,桥北物流园区,颗粒物(PM10),82,114,90,14,18,76,,84,82,17,10,5,4,0.4,0.7
2024-03-29T1800,2521A,107.3476,22.4136,崇左市,市环保局江州分局,,36,36,45,24,29,51,,71,70,8,10,7,8,0.7,0.7
2024-03-29T1800,2522A,107.3702,22.3707,崇左市,城南新区,,32,27,41,22,29,52,,69,69,11,13,6,7,0.6,0.7
2024-03-29T1800,2298A,118.3093,32.3153,滁州市,老年大学,,46,46,51,22,36,137,,132,132,13,13,9,9,0.5,0.6
2024-03-29T1800,2299A,118.3244,32.2786,滁州市,人大宾馆,颗粒物(PM10),54,57,63,18,34,133,,132,132,24,22,6,7,0.6,0.7
2024-03-29T1800,3207A,118.3118,32.3038,滁州市,市政府原办公楼,,48,48,59,27,39,134,,131,131,14,14,7,6,0.6,0.6
2024-03-29T1800,3331A,118.3267,32.2634,滁州市,图书馆,颗粒物(PM10),51,51,57,12,31,135,,131,131,14,18,8,8,0.7,0.8
2024-03-29T1800,2605A,101.5482,25.0441,楚雄彝族自治州,州环境监测站,颗粒物(PM10),51,52,38,27,28,114,,116,116,6,17,7,8,0.5,0.5
2024-03-29T1800,2606A,101.538,25.0492,楚雄彝族自治州,市经济开发区,颗粒物(PM10),56,62,40,29,27,112,,115,115,8,17,6,8,0.5,0.6
2024-03-29T1800,2548A,107.5277,31.2827,达州市,达州职业技术学院,细颗粒物(PM2.5),80,,62,59,27,113,,104,104,23,32,5,7,0.6,0.7
2024-03-29T1800,2549A,107.5086,31.2186,达州市,市环境监测站,颗粒物(PM10),58,65,56,14,21,94,,102,102,42,41,5,6,0.4,0.5
2024-03-29T1800,2550A,107.4988,31.2132,达州市,凤凰小区,,,,53,,26,106,,107,107,21,39,6,7,0.5,0.8
2024-03-29T1800,2551A,107.5082,31.1986,达州市,达县机关宾馆,颗粒物(PM10),67,83,55,19,26,46,,96,96,80,48,5,5,1.0,0.6
2024-03-29T1800,2552A,107.4644,31.2124,达州市,市政中心,,43,43,57,12,24,112,,107,107,25,47,5,7,0.4,0.7
2024-03-29T1800,2614A,100.1542,25.7054,大理白族自治州,大理市环境监测站,,43,38,27,30,24,109,,112,112,9,11,7,7,0.5,0.5
2024-03-29T1800,2615A,100.2171,25.5811,大理白族自治州,大理古城,,42,42,31,22,24,111,,117,117,8,12,8,8,0.7,0.6
2024-03-29T1800,1109A,121.612,38.9741,大连市,甘井子,颗粒物(PM10),74,98,156,21,35,98,,99,99,16,20,6,5,0.8,0.8
2024-03-29T1800,1110A,121.565,38.9511,大连市,周水子,颗粒物(PM10),71,91,144,20,36,92,,96,96,25,22,4,5,0.9,0.9
2024-03-29T1800,1111A,121.5637,38.8845,大连市,星海三站,颗粒物(PM10),96,142,157,33,32,55,,93,90,36,17,5,5,0.6,0.4
2024-03-29T1800,1112A,121.6302,38.9117,大连市,青泥洼桥,颗粒物(PM10),80,110,156,24,35,78,,92,92,27,21,10,9,0.7,0.7
2024-03-29T1800,1113A,121.6251,38.8638,大连市,傅家庄,颗粒物(PM10),112,173,158,33,33,55,,91,88,35,13,9,9,0.7,0.5
2024-03-29T1800,1114A,121.5213,38.8661,大连市,七贤岭,,,124,152,31,36,,,106,106,,15,11,9,1.0,0.8
2024-03-29T1800,1115A,121.2529,38.8061,大连市,旅顺,颗粒物(PM10),99,148,148,33,33,47,,79,75,42,19,8,8,0.9,0.6
2024-03-29T1800,1116A,121.7485,39.1311,大连市,金州,颗粒物(PM10),77,103,151,27,39,95,,95,95,16,18,6,8,0.6,0.5
2024-03-29T1800,1117A,121.7811,39.0496,大连市,开发区,颗粒物(PM10),83,115,177,23,37,80,,87,87,26,24,5,6,0.7,0.6
2024-03-29T1800,1118A,121.9762,39.0631,大连市,双D港,颗粒物(PM10),78,105,168,20,38,88,,96,96,21,17,8,7,0.5,0.7
2024-03-29T1800,1789A,124.81117,46.03138,大庆市,大同区,,48,48,39,26,16,65,,67,67,9,7,6,7,0.4,0.4
2024-03-29T1800,1790A,125.129,46.533,大庆市,龙凤区,,49,43,37,34,18,65,,69,69,18,12,4,3,0.4,0.3
2024-03-29T1800,1791A,124.902,46.408,大庆市,红岗区,,35,35,37,22,14,72,,74,74,10,9,4,4,0.5,0.4
2024-03-29T1800,1792A,125.153,46.586,大庆市,萨尔图区,,42,42,33,16,10,58,,65,65,18,9,7,7,0.6,0.4
2024-03-29T1800,1793A,124.9042,46.6215,大庆市,让胡路区,细颗粒物(PM2.5),53,46,33,37,20,64,,68,68,16,8,6,6,0.5,0.4
2024-03-29T1800,3481A,125.141,46.634,大庆市,萨区政府监测点,,39,28,25,27,12,62,,68,68,15,8,7,7,0.3,0.2
2024-03-29T1800,1723A,113.2994,40.0758,大同市,云冈宾馆,颗粒物(PM10),51,52,163,12,40,99,,96,96,11,11,5,5,0.6,0.6
2024-03-29T1800,1724A,113.3444,40.0917,大同市,大同大学,,42,42,201,15,31,98,,94,94,8,7,12,11,0.5,0.5
2024-03-29T1800,1725A,113.2661,40.1269,大同市,安家小村,,40,40,214,7,28,96,,93,93,4,8,12,11,0.4,0.4
2024-03-29T1800,1726A,113.2711,40.0844,大同市,教育学院,,50,50,191,10,29,92,,90,90,9,7,6,6,0.3,0.3
2024-03-29T1800,3282A,113.3397,40.0597,大同市,大同市卫生学校,,47,47,217,12,33,99,,95,95,12,12,6,5,0.2,0.4
2024-03-29T1800,3565A,113.1367,40.1122,大同市,云冈站,,46,44,175,32,34,101,,100,100,6,8,5,6,0.3,0.3
2024-03-29T1800,3566A,113.1186,40.2556,大同市,图书馆,,35,35,208,8,41,88,,86,86,2,5,8,8,0.6,0.6
2024-03-29T1800,3567A,113.5931,40.0461,大同市,区一中,,50,50,240,10,34,98,,93,93,11,11,5,4,0.3,0.5
2024-03-29T1800,3676A,113.2802,40.0995,大同市,第二人民医院,细颗粒物(PM2.5),54,42,185,38,44,102,,99,99,6,8,8,7,0.6,0.6
2024-03-29T1800,2269A,124.1069,50.4097,大兴安岭地区,科技局,,28,26,25,19,17,74,,73,73,3,5,8,8,0.3,0.3
2024-03-29T1800,3663A,124.1164,50.4278,大兴安岭地区,红旗社区,,42,34,14,29,7,73,,75,75,7,6,12,12,0.5,0.4
2024-03-29T1800,1600A,124.3303,40.0625,丹东市,江湾东路,,47,47,115,10,37,97,,91,91,16,17,8,8,0.5,0.6
2024-03-29T1800,1601A,124.4256,40.1503,丹东市,临江后街,,35,35,119,5,31,94,,90,90,19,14,10,10,0.5,0.8
2024-03-29T1800,1602A,124.3933,40.1461,丹东市,元宝山,,33,33,107,6,30,88,,83,83,8,14,8,8,0.5,0.7
2024-03-29T1800,1603A,124.3633,40.1092,丹东市,民主桥,颗粒物(PM10),54,57,120,6,30,84,,80,80,21,17,11,11,0.5,0.7
2024-03-29T1800,3541A,109.5726,19.5167,儋州市,第一中学子站,,21,17,38,10,25,65,,54,54,3,7,7,8,0.5,0.5
2024-03-29T1800,3542A,109.5567,19.5187,儋州市,东坡学校子站,,39,39,42,13,26,65,,52,52,4,8,8,9,0.6,0.6
2024-03-29T1800,2616A,98.5842,24.428,德宏傣族景颇族自治州,德宏州监测站,细颗粒物(PM2.5),75,90,79,55,43,132,,116,116,21,27,15,7,0.6,0.7
2024-03-29T1800,3677A,98.5881,24.4368,德宏傣族景颇族自治州,芒市人民政府综合楼,颗粒物(PM10),72,94,71,48,44,139,,125,125,20,17,21,9,0.5,0.7
2024-03-29T1800,1901A,104.4239,31.1208,德阳市,东山公园,臭氧1小时,84,45,45,21,24,187,,156,156,15,23,4,4,0.5,0.5
2024-03-29T1800,1902A,104.3826,31.1317,德阳市,西小区,臭氧1小时,74,49,64,26,36,179,,148,148,17,50,4,7,0.6,0.7
2024-03-29T1800,1904A,104.3553,31.1091,德阳市,耐火材料厂,臭氧1小时,90,43,71,25,39,192,,148,148,10,44,4,9,0.4,0.5
2024-03-29T1800,3639A,104.4019,31.1244,德阳市,市教育局,臭氧1小时,69,48,51,30,27,175,,147,147,13,46,4,4,0.5,0.5
2024-03-29T1800,1622A,116.3032,37.4674,德州市,儿童乐园,颗粒物(PM10),126,202,306,29,47,101,,91,91,14,20,8,7,0.5,0.6
2024-03-29T1800,1624A,116.2991,37.4451,德州市,监理站,颗粒物(PM10),123,195,312,24,49,110,,98,98,15,22,11,12,0.4,0.5
2024-03-29T1800,3066A,116.2721,37.4379,德州市,九衢泉纯净水厂,颗粒物(PM10),125,200,302,27,48,106,,96,96,16,24,7,6,0.5,0.6
2024-03-29T1800,3371A,116.3728,37.4403,德州市,开发区人民医院,颗粒物(PM10),126,202,307,24,46,,,93,93,15,19,8,9,0.3,0.5
2024-03-29T1800,3372A,116.3572,37.4094,德州市,太阳城中学,颗粒物(PM10),130,210,306,29,52,101,,92,92,17,21,7,8,0.5,0.5
2024-03-29T1800,3511A,116.5652,37.3319,德州市,陵城艺术中心,颗粒物(PM10),131,212,291,31,45,93,,95,95,23,18,10,7,0.5,0.6
2024-03-29T1800,2621A,99.7056,27.8317,迪庆藏族自治州,迪庆州站,,30,24,17,10,12,96,,98,98,9,9,7,7,0.4,0.4
2024-03-29T1800,3180A,99.7136,27.8094,迪庆藏族自治州,质量技术监督局,,34,34,25,13,7,95,,95,95,10,13,6,6,0.4,0.4
2024-03-29T1800,2663A,104.6241,35.5734,定西市,东关小学,,42,42,60,11,25,108,,98,98,6,25,11,12,0.3,0.5
2024-03-29T1800,2664A,104.6194,35.5934,定西市,供电公司,,33,28,53,21,31,104,,92,92,6,37,10,13,0.2,0.4
2024-03-29T1800,1389A,113.7547,23.0494,东莞市,莞城梨川,臭氧1小时,77,70,73,47,39,181,,179,179,33,42,9,10,0.8,0.8
2024-03-29T1800,1390A,113.7944,23.0128,东莞市,东城石井,臭氧1小时,97,64,60,46,34,197,,185,185,23,36,8,8,0.7,0.8
2024-03-29T1800,1391A,113.7383,22.9658,东莞市,南城西平,臭氧1小时,88,81,71,51,33,190,,170,170,40,42,13,9,0.9,0.9
2024-03-29T1800,3319A,113.7338,23.0381,东莞市,万江金泰,臭氧1小时,70,74,76,48,41,176,,171,171,32,46,10,10,1.0,1
2024-03-29T1800,3626A,113.7533,23.0202,东莞市,南城元岭,臭氧1小时,95,89,73,52,37,196,,176,176,38,46,11,11,0.8,0.8
2024-03-29T1800,3627A,113.7875,23.0457,东莞市,东城主山,臭氧1小时,105,80,70,48,38,209,,181,181,30,41,9,10,0.7,0.8
2024-03-29T1800,1666A,118.6614,37.4309,东营市,市环保局,颗粒物(PM10),135,219,342,41,60,110,,107,107,14,20,8,9,0.3,0.3
2024-03-29T1800,3036A,118.6904,37.4338,东营市,开发区管委会,颗粒物(PM10),148,245,355,48,58,100,,100,100,17,22,3,5,0.5,0.5
2024-03-29T1800,3365A,118.5719,37.565,东营市,垦利区民丰路,颗粒物(PM10),148,246,330,41,47,102,,105,105,24,24,10,11,0.4,0.7
2024-03-29T1800,3498A,118.5055,37.8612,东营市,河口城区,颗粒物(PM10),156,261,311,37,39,110,,108,108,12,12,6,6,0.7,0.6
2024-03-29T1800,3646A,118.4978,37.4623,东营市,胜利站,颗粒物(PM10),134,218,345,41,58,97,,104,104,22,22,9,10,0.4,0.6
2024-03-29T1800,3734A,118.35,37.26,东营市,理想之城,颗粒物(PM10),139,227,348,46,71,98,,98,98,15,21,9,11,0.4,0.4
2024-03-29T1800,1591A,110.0023,39.8129,鄂尔多斯市,综合楼,颗粒物(PM10),73,95,204,9,46,90,,83,83,11,18,3,4,0.3,0.5
2024-03-29T1800,1592A,109.9486,39.8261,鄂尔多斯市,巴音孟克林场办事处,颗粒物(PM10),63,75,189,19,35,91,,84,84,8,16,8,9,0.5,0.5
2024-03-29T1800,1593A,109.7736,39.5986,鄂尔多斯市,康泽苑,,41,41,173,9,32,96,,89,89,7,13,5,5,0.4,0.5
2024-03-29T1800,1594A,109.8119,39.5989,鄂尔多斯市,华泰汽车城,,48,48,169,17,40,93,,86,86,7,16,5,6,0.3,0.3
2024-03-29T1800,1595A,109.9734,39.7884,鄂尔多斯市,奥林花园,颗粒物(PM10),65,80,186,12,34,91,,84,84,10,17,5,6,0.5,0.5
2024-03-29T1800,2436A,114.8938,30.3994,鄂州市,市政府,,37,37,62,12,32,106,,106,106,14,24,19,11,1.6,1.2
2024-03-29T1800,2437A,114.8989,30.3714,鄂州市,赵家坝,,37,37,53,8,33,117,,118,118,6,16,6,8,0.6,0.9
2024-03-29T1800,3654A,114.8094,30.4089,鄂州市,精准医疗中心,,40,37,83,17,38,128,,126,126,6,36,4,10,0.4,1
2024-03-29T1800,2454A,109.4978,30.2981,恩施土家族苗族自治州,湖北民院,,40,40,52,18,25,94,,91,91,36,24,9,9,0.6,0.6
2024-03-29T1800,2455A,109.4707,30.2798,恩施土家族苗族自治州,州电力总公司,,,37,50,16,26,,,87,87,15,25,7,8,0.8,0.9
2024-03-29T1800,3549A,109.5061,30.3772,恩施土家族苗族自治州,龙凤新区,,36,36,41,18,19,100,,96,96,22,16,7,7,0.6,0.5
2024-03-29T1800,2499A,108.3411,21.6158,防城港市,沙万,,30,,43,17,27,93,,83,83,16,21,3,8,0.5,0.6
2024-03-29T1800,2500A,108.3514,21.7731,防城港市,防城档案局,,29,19,67,18,29,90,,85,85,14,26,6,10,0.5,0.7
2024-03-29T1800,2501A,108.3506,21.6414,防城港市,大海花园,,31,,43,17,25,99,,90,90,10,18,4,9,0.6,0.8
2024-03-29T1800,1371A,113.1294,23.0067,佛山市,湾梁,臭氧1小时,89,73,65,33,28,191,,141,141,21,39,10,12,0.6,0.6
2024-03-29T1800,1372A,113.1083,23.0478,佛山市,华材职中,颗粒物(PM10),57,63,71,36,35,164,,126,126,18,52,10,11,0.5,0.6
2024-03-29T1800,1373A,113.144,23.0453,佛山市,南海气象局,"颗粒物(PM10),臭氧1小时",58,66,62,37,33,166,,126,126,22,45,10,11,0.6,0.7
2024-03-29T1800,1374A,113.2881,22.8094,佛山市,顺德苏岗,臭氧1小时,99,120,69,73,39,199,,135,135,51,53,7,6,1.0,0.8
2024-03-29T1800,1376A,112.8383,22.8678,佛山市,高明孔堂,颗粒物(PM10),56,61,57,32,32,134,,116,116,16,35,6,9,0.6,0.6
2024-03-29T1800,1377A,112.8836,23.1588,佛山市,三水监测站,细颗粒物(PM2.5),65,75,64,47,34,145,,125,125,26,39,9,11,0.7,0.7
2024-03-29T1800,1378A,112.867,23.185,佛山市,三水云东海,,50,50,53,33,36,107,,114,114,23,34,6,7,0.6,0.6
2024-03-29T1800,3625A,113.2544,22.7642,佛山市,容桂街道办,细颗粒物(PM2.5),70,88,71,51,38,147,,131,131,36,52,8,8,0.7,0.7
2024-03-29T1800,1282A,119.2681,26.0504,福州市,师大,,45,45,41,22,22,137,,138,138,23,29,10,5,0.6,0.5
2024-03-29T1800,1283A,119.2984,26.1028,福州市,五四北路,,50,50,35,21,16,138,,133,133,26,34,5,4,0.5,0.5
2024-03-29T1800,1284A,119.2648,26.0768,福州市,杨桥西路,,46,43,29,17,10,146,,144,144,22,18,7,4,0.5,0.4
2024-03-29T1800,1285A,119.317,26.0746,福州市,紫阳,,44,43,40,18,19,138,,135,135,24,31,6,4,0.7,0.7
2024-03-29T1800,3048A,119.5799,26.0936,福州市,九龙,,49,25,26,20,19,154,,143,143,14,18,4,4,0.6,0.6
2024-03-29T1800,3526A,119.5189,25.9664,福州市,吴航,,50,29,32,18,20,159,,145,145,10,21,4,4,0.7,0.7
2024-03-29T1800,1755A,123.7977,41.8491,抚顺市,望花区,颗粒物(PM10),102,153,132,16,29,84,,99,98,14,23,6,10,0.2,0.7
2024-03-29T1800,1756A,123.9161,41.8822,抚顺市,顺城区,颗粒物(PM10),91,132,109,11,22,94,,107,106,11,25,4,5,0.3,0.5
2024-03-29T1800,1757A,124.0436,41.8611,抚顺市,东洲区,颗粒物(PM10),86,121,108,15,24,82,,93,92,9,11,5,6,0.5,0.5
2024-03-29T1800,1758A,123.9247,41.8642,抚顺市,新抚区,颗粒物(PM10),90,129,112,14,26,89,,104,102,13,20,6,7,0.4,0.6
2024-03-29T1800,1759A,124.0972,41.8961,抚顺市,大伙房水库,颗粒物(PM10),93,136,104,12,24,98,,108,108,6,10,5,5,0.4,0.5
2024-03-29T1800,1760A,123.7086,41.8391,抚顺市,沈抚新城,颗粒物(PM10),107,164,136,21,23,87,,97,96,6,18,4,5,0.2,0.3
2024-03-29T1800,2376A,116.2127,28.0814,抚州市,桐源党溪,,37,37,31,11,13,108,,118,118,6,8,4,4,0.4,0.5
2024-03-29T1800,2377A,116.3544,27.9831,抚州市,市站,,47,47,38,18,17,115,,118,118,12,11,1,2,0.5,0.6
2024-03-29T1800,2378A,116.3565,27.963,抚州市,血防站,颗粒物(PM10),51,51,38,20,15,126,,124,124,10,14,2,3,0.6,0.7
2024-03-29T1800,2379A,116.3564,28.0007,抚州市,采茶剧团,,48,48,38,14,16,125,,119,119,8,15,7,7,0.7,0.8
2024-03-29T1800,2380A,116.385,27.9647,抚州市,医学分院,颗粒物(PM10),51,51,40,11,14,118,,120,120,22,22,8,10,0.5,0.8
2024-03-29T1800,2207A,121.6094,41.998,阜新市,工业园区,颗粒物(PM10),148,245,166,23,19,86,,94,92,,16,4,9,0.6,0.5
2024-03-29T1800,2208A,121.6697,42.0279,阜新市,长青街,颗粒物(PM10),121,192,154,20,23,86,,92,91,7,12,3,9,0.3,0.3
2024-03-29T1800,2209A,121.6673,42.0705,阜新市,农业园区,颗粒物(PM10),140,230,158,17,19,87,,91,90,6,10,4,7,0.3,0.1
2024-03-29T1800,2210A,121.6717,42.0224,阜新市,东苑,颗粒物(PM10),144,238,155,22,20,82,,88,88,11,15,6,12,0.3,0.8
2024-03-29T1800,2211A,121.6506,42.0498,阜新市,玉龙新城,颗粒物(PM10),130,210,156,24,17,83,,91,90,9,16,4,6,0.4,0.4
2024-03-29T1800,2301A,115.8277,32.8929,阜阳市,市监测站,,50,50,68,17,29,128,,120,120,13,12,8,8,0.5,0.6
2024-03-29T1800,2303A,115.8554,32.8605,阜阳市,开发区,,45,45,84,19,30,125,,120,120,12,11,6,6,0.3,0.5
2024-03-29T1800,2875A,115.784,32.8892,阜阳市,阜阳职业技术学院,颗粒物(PM10),57,63,78,25,30,135,,125,125,15,12,4,5,0.5,0.6
2024-03-29T1800,3468A,115.7901,32.8613,阜阳市,市规划展馆,,43,42,68,16,24,136,,126,126,9,13,6,6,0.6,0.5
2024-03-29T1800,3469A,115.836,32.9183,阜阳市,枣园社区,颗粒物(PM10),51,52,69,18,23,133,,123,123,16,13,8,7,0.4,0.4
2024-03-29T1800,2669A,102.9099,34.9841,甘南藏族自治州,州政府,,33,25,39,11,20,103,,95,95,2,24,10,12,0.5,0.7
2024-03-29T1800,3380A,102.8914,34.9617,甘南藏族自治州,甘肃民族师范学院,,35,33,37,11,13,109,,95,95,2,30,7,12,0.6,0.8
2024-03-29T1800,2570A,101.9603,30.0475,甘孜藏族自治州,水桥子,,35,18,22,5,10,110,,98,98,8,33,12,11,0.3,0.3
2024-03-29T1800,3065A,101.9533,29.9972,甘孜藏族自治州,州环保局,,34,31,25,3,4,108,,108,108,6,11,8,8,0.3,0.3
2024-03-29T1800,3414A,115.8347,28.932,赣江新区,桑海产业园,,46,46,58,13,22,126,,118,118,23,42,10,12,0.3,0.4
2024-03-29T1800,2363A,114.9367,25.8664,赣州市,地委,,38,24,32,19,18,119,,134,134,12,11,7,14,1.0,1
2024-03-29T1800,2364A,114.9461,25.8481,赣州市,气象台,,43,22,32,20,18,137,,154,154,9,23,9,18,0.5,0.6
2024-03-29T1800,2365A,114.9322,25.8333,赣州市,市图书馆,,37,30,34,13,17,117,,136,136,14,19,17,27,0.8,0.8
2024-03-29T1800,2366A,114.8905,25.8471,赣州市,华坚鞋城,,36,31,39,16,21,113,,142,142,25,16,7,10,0.4,0.5
2024-03-29T1800,3109A,115.0093,25.8613,赣州市,赣县区卫计委,,45,45,32,13,19,116,,128,128,16,19,10,15,0.4,0.6
2024-03-29T1800,2683A,106.2319,36.1417,固原市,马园,颗粒物(PM10),67,84,52,12,16,89,,98,98,17,29,4,4,0.5,0.7
2024-03-29T1800,2684A,106.2792,36.0022,固原市,监测站,颗粒物(PM10),74,98,58,14,16,99,,100,100,14,26,6,6,0.3,0.5
2024-03-29T1800,2685A,106.2375,36.0211,固原市,新区,颗粒物(PM10),57,64,41,13,14,99,,98,98,13,21,9,8,0.2,0.3
2024-03-29T1800,3522A,106.2177,35.9959,固原市,原州区十五小,颗粒物(PM10),55,59,41,16,14,108,,110,110,9,13,6,6,0.0,0.1
2024-03-29T1800,2544A,106.6303,30.4576,广安市,市委,颗粒物(PM10),55,60,73,26,33,131,,126,126,25,35,8,6,0.6,0.7
2024-03-29T1800,2545A,106.6271,30.4663,广安市,友谊中学,,45,,59,24,34,144,,129,129,16,27,8,6,0.7,0.8
2024-03-29T1800,2547A,106.6388,30.4551,广安市,广电花园,颗粒物(PM10),56,61,67,25,30,137,,127,127,24,28,10,7,0.6,0.7
2024-03-29T1800,2902A,106.6351,30.4865,广安市,北辰小学,颗粒物(PM10),52,54,73,25,38,148,,129,129,12,21,13,10,0.6,0.7
2024-03-29T1800,2523A,105.8945,32.4535,广元市,黑石坡,,43,15,27,4,12,136,,131,131,8,12,6,7,0.3,0.4
2024-03-29T1800,2524A,105.821,32.4444,广元市,老城,,40,32,44,7,20,128,,120,120,9,24,4,6,0.5,0.7
2024-03-29T1800,2526A,105.8628,32.4287,广元市,监测站,,44,32,33,14,16,138,,129,129,5,15,6,7,0.4,0.6
2024-03-29T1800,3617A,105.8047,32.4166,广元市,经开区,,43,39,60,19,36,136,,125,125,8,22,7,16,0.6,0.8
2024-03-29T1800,1345A,113.2347,23.1423,广州市,广雅中学,,,88,69,66,37,154,,115,115,,64,,8,,0.9
2024-03-29T1800,1346A,113.2612,23.105,广州市,市五中,,,88,68,59,37,197,,125,125,,59,7,8,0.8,0.8
2024-03-29T1800,1348A,113.3478,23.0916,广州市,广东商学院,细颗粒物(PM2.5),83,89,77,61,41,170,,117,117,50,61,6,7,0.7,0.7
2024-03-29T1800,1349A,113.4332,23.1047,广州市,市八十六中,颗粒物(PM10),68,85,81,43,39,164,,126,126,70,61,8,7,0.8,0.7
2024-03-29T1800,1350A,113.3505,22.9483,广州市,番禺中学,臭氧1小时,103,87,71,55,31,205,,132,132,40,60,8,7,0.9,0.9
2024-03-29T1800,1351A,113.2146,23.3916,广州市,花都师范,臭氧1小时,98,71,45,34,24,198,,131,131,31,29,12,9,0.7,0.6
2024-03-29T1800,1352A,113.2597,23.1331,广州市,市监测站,颗粒物(PM10),59,67,69,39,35,162,,108,108,33,58,6,7,0.5,0.6
2024-03-29T1800,1353A,113.5618,23.312,广州市,九龙镇镇龙,颗粒物(PM10),60,70,69,32,32,132,,125,125,32,38,6,6,0.6,0.6
2024-03-29T1800,1354A,113.2765,23.1544,广州市,麓湖,,50,50,60,34,36,139,,112,112,24,46,5,6,0.7,0.7
2024-03-29T1800,1355A,113.443,23.3035,广州市,帽峰山森林公园,,,,41,28,21,123,,124,124,16,14,4,5,0.6,0.8
2024-03-29T1800,2846A,113.3221,23.1322,广州市,体育西,颗粒物(PM10),64,78,68,40,37,150,,114,114,47,49,9,10,0.8,0.8
2024-03-29T1800,3298A,113.5717,23.5491,广州市,从化街口,细颗粒物(PM2.5),52,51,55,36,35,139,,118,118,25,32,6,8,0.7,0.7
2024-03-29T1800,3299A,113.3472,23.3692,广州市,白云竹料,臭氧1小时,89,76,65,37,33,191,,141,141,35,41,6,7,0.7,0.6
2024-03-29T1800,3300A,113.2981,23.237,广州市,白云嘉禾,颗粒物(PM10),60,70,79,34,37,136,,116,116,51,58,5,6,0.8,0.8
2024-03-29T1800,3301A,113.4256,23.1716,广州市,黄埔科学城,细颗粒物(PM2.5),72,83,61,52,34,142,,112,112,56,46,6,6,0.9,0.8
2024-03-29T1800,3302A,113.3942,23.0483,广州市,番禺大学城,"颗粒物(PM10),臭氧1小时",67,84,75,43,39,173,,116,116,47,64,5,6,0.6,1.1
2024-03-29T1800,3303A,113.4922,22.8168,广州市,南沙黄阁,颗粒物(PM10),75,100,73,50,40,165,,136,136,41,52,7,7,0.8,0.8
2024-03-29T1800,3304A,113.5342,22.7896,广州市,南沙街,颗粒物(PM10),69,88,60,45,34,166,,140,140,30,44,6,6,0.7,0.7
2024-03-29T1800,3443A,113.2902,23.5544,广州市,花都梯面,,50,39,31,24,19,158,,141,141,18,28,7,8,0.7,0.7
2024-03-29T1800,3445A,113.7858,23.7478,广州市,从化良口,,37,31,22,24,14,116,,105,105,16,13,5,5,0.5,0.5
2024-03-29T1800,3446A,113.8051,23.2614,广州市,增城荔城,臭氧1小时,89,73,53,43,32,191,,158,158,16,19,7,7,0.7,0.6
2024-03-29T1800,2505A,109.568,23.1478,贵港市,德智高中,细颗粒物(PM2.5),63,70,47,45,28,70,,96,96,35,26,5,6,0.5,0.5
2024-03-29T1800,2506A,109.6047,23.0666,贵港市,江南子站,细颗粒物(PM2.5),57,56,77,40,47,92,,104,104,15,32,6,11,0.8,1
2024-03-29T1800,2507A,109.6014,23.0948,贵港市,贵城子站,细颗粒物(PM2.5),54,54,68,38,43,87,,100,100,18,29,7,11,1.0,1.3
2024-03-29T1800,2508A,109.5669,23.1065,贵港市,荷城子站,颗粒物(PM10),53,56,60,34,31,85,,98,98,17,28,10,13,0.6,0.9
2024-03-29T1800,3405A,109.5886,23.1172,贵港市,新世纪学校,,48,48,54,32,29,92,,110,110,17,21,8,10,0.8,0.9
2024-03-29T1800,1439A,106.6899,26.5998,贵阳市,马鞍山,,41,41,38,17,19,115,,90,90,10,22,8,8,0.6,0.7
2024-03-29T1800,1440A,106.6971,26.5694,贵阳市,市环保站,颗粒物(PM10),58,66,68,25,32,105,,89,89,25,45,5,8,0.5,0.6
2024-03-29T1800,1441A,106.6243,26.6266,贵阳市,鉴湖路,颗粒物(PM10),52,53,45,24,17,113,,97,97,9,17,5,7,0.4,0.4
2024-03-29T1800,1442A,106.7487,26.6343,贵阳市,燕子冲,,41,41,41,22,22,118,,98,98,10,29,6,8,0.4,0.5
2024-03-29T1800,1443A,106.6555,26.4365,贵阳市,碧云窝,,38,34,41,19,22,121,,99,99,7,19,5,6,0.6,0.5
2024-03-29T1800,1444A,106.694,26.5161,贵阳市,中院村,,36,36,57,22,31,104,,83,83,13,36,9,12,0.5,0.6
2024-03-29T1800,1445A,106.7109,26.6027,贵阳市,红边门,,44,44,55,19,31,112,,92,92,15,40,5,9,0.3,0.5
2024-03-29T1800,1446A,106.7164,26.5699,贵阳市,新华路,,41,41,52,24,25,117,,96,96,13,41,8,10,0.6,0.6
2024-03-29T1800,1447A,106.674,26.5424,贵阳市,太慈桥,颗粒物(PM10),52,53,41,19,22,110,,91,91,15,28,8,8,0.4,0.4
2024-03-29T1800,1862A,110.4144,25.3167,桂林市,电子科大尧山校区,,41,41,30,21,17,125,,111,111,5,5,5,12,0.7,0.6
2024-03-29T1800,1863A,110.2819,25.2697,桂林市,监测站,,35,33,37,16,26,110,,105,105,13,22,9,12,0.7,0.8
2024-03-29T1800,1864A,110.3089,25.2708,桂林市,龙隐路小学,,43,43,33,27,20,106,,102,102,14,15,6,11,0.7,0.7
2024-03-29T1800,1865A,110.2869,25.2178,桂林市,八中,,34,30,35,21,19,108,,98,98,8,22,6,9,0.3,0.4
2024-03-29T1800,3403A,110.1764,25.2381,桂林市,创业大厦,,37,29,39,17,24,118,,99,99,5,23,7,17,0.5,0.6
2024-03-29T1800,3531A,110.296,25.1253,桂林市,旅游学院,,34,29,26,17,16,106,,97,97,10,20,6,8,0.5,0.6
2024-03-29T1800,2674A,100.2561,34.4714,果洛藏族自治州,玛沁县大武镇,,,15,19,15,14,112,,108,108,2,6,9,13,,0.5
2024-03-29T1800,1129A,126.5422,45.755,哈尔滨市,岭北,颗粒物(PM10),56,61,71,34,17,77,,80,78,12,11,7,8,0.5,1
2024-03-29T1800,1130A,126.561,45.8167,哈尔滨市,松北商大,颗粒物(PM10),52,53,57,24,16,76,,79,79,16,12,3,4,0.5,0.4
2024-03-29T1800,1131A,126.979,45.5419,哈尔滨市,阿城会宁,细颗粒物(PM2.5),108,132,78,81,18,91,,79,79,17,10,4,4,0.6,0.5
2024-03-29T1800,1132A,126.599,45.7222,哈尔滨市,南岗学府路,颗粒物(PM10),74,98,76,40,11,73,,71,71,12,8,6,6,0.5,0.3
2024-03-29T1800,1133A,126.689,45.7733,哈尔滨市,太平宏伟公园,,,74,77,41,19,83,,79,79,,17,4,6,0.5,0.4
2024-03-29T1800,1134A,126.635,45.7667,哈尔滨市,道外承德广场,颗粒物(PM10),66,82,62,41,19,65,,67,67,32,23,6,6,0.5,0.5
2024-03-29T1800,1135A,126.685,45.7319,哈尔滨市,香坊红旗大街,颗粒物(PM10),69,87,74,46,19,82,,75,75,15,17,5,5,0.5,0.3
2024-03-29T1800,1136A,126.6411,45.7258,哈尔滨市,动力和平路,颗粒物(PM10),68,86,70,32,11,83,,80,80,15,12,6,5,0.5,0.4
2024-03-29T1800,1137A,126.593,45.7478,哈尔滨市,道里建国路,颗粒物(PM10),65,80,64,28,24,72,,71,71,12,7,4,5,0.2,0.1
2024-03-29T1800,1138A,126.615,45.61,哈尔滨市,平房东轻厂,颗粒物(PM10),83,115,66,46,17,75,,75,75,20,11,4,4,0.5,0.2
2024-03-29T1800,1139A,126.595,45.9855,哈尔滨市,呼兰师专,,46,43,62,32,19,73,,78,77,9,11,5,6,0.5,0.5
2024-03-29T1800,1140A,126.6206,45.6842,哈尔滨市,省农科院,颗粒物(PM10),76,101,67,38,20,85,,82,82,15,18,8,7,0.5,0.4
2024-03-29T1800,2688A,93.5128,42.8172,哈密市,地区监测站,,40,25,74,16,23,125,,110,110,5,17,3,4,0.1,0.3
2024-03-29T1800,2689A,93.4961,42.8328,哈密市,哈密师范学校,颗粒物(PM10),51,52,72,13,20,121,,106,106,8,20,5,7,0.4,0.6
2024-03-29T1800,2671A,100.9048,36.9639,海北藏族自治州,海晏县西海镇,,32,,23,14,13,101,,96,96,2,5,10,11,0.3,0.3
2024-03-29T1800,3867A,102.0738,36.5056,海东市,平安区公安北苑,颗粒物(PM10),54,57,34,10,10,88,,90,90,20,18,12,10,0.4,0.5
2024-03-29T1800,1410A,110.3232,20.0574,海口市,海南大学,,23,23,30,16,18,23,,34,34,22,19,7,7,0.4,0.3
2024-03-29T1800,1411A,110.283,20.0053,海口市,秀英海南医院,,47,47,34,23,23,21,,27,27,25,19,8,9,0.5,0.4
2024-03-29T1800,1412A,110.338,19.9969,海口市,海南师范大学,,30,30,37,21,23,32,,44,44,14,11,7,8,0.4,0.4
2024-03-29T1800,1413A,110.33,20.0356,海口市,龙华路环保局宿舍,,31,31,34,18,20,26,,36,36,18,16,8,8,0.4,0.3
2024-03-29T1800,3539A,110.5111,19.9736,海口市,桂林洋子站,,32,32,31,20,18,18,,44,42,17,7,7,7,0.4,0.3
2024-03-29T1800,2673A,100.6188,36.2866,海南藏族自治州,共和县恰卜恰镇,颗粒物(PM10),465,565,49,6,9,109,,104,104,6,17,10,11,0.6,0.5
2024-03-29T1800,2676A,97.3731,37.3753,海西蒙古族藏族自治州,德令哈市,颗粒物(PM10),86,121,41,12,10,99,,101,101,8,10,9,10,0.5,0.6
2024-03-29T1800,1048A,114.5302,36.6116,邯郸市,东污水处理厂,颗粒物(PM10),364,471,301,68,57,91,,81,81,9,28,3,5,0.4,0.5
2024-03-29T1800,1049A,114.4918,36.5713,邯郸市,矿院,颗粒物(PM10),179,307,191,62,55,93,,78,78,8,24,3,4,0.5,0.6
2024-03-29T1800,1050A,114.484,36.6133,邯郸市,丛台公园,颗粒物(PM10),170,289,206,53,45,100,,87,87,8,26,4,5,0.3,0.4
2024-03-29T1800,3458A,114.7895,36.5593,邯郸市,香泉濮院小区,颗粒物(PM10),226,368,290,52,51,96,,92,92,6,19,6,8,0.0,0.4
2024-03-29T1800,3579A,114.50634,36.77178,邯郸市,永年区实验高中,颗粒物(PM10),259,391,290,70,58,98,,91,91,12,28,4,7,0.2,0.5
2024-03-29T1800,3580A,114.20016,36.44293,邯郸市,峰峰矿区临水派出所,颗粒物(PM10),161,272,209,62,47,112,,99,99,6,8,9,10,0.7,0.8
2024-03-29T1800,2634A,106.9893,33.1842,汉中市,汉川机床厂子校,,43,32,36,24,23,135,,126,126,7,15,5,6,0.8,0.8
2024-03-29T1800,2635A,107.0154,33.0706,汉中市,市监测站,,44,43,44,24,23,139,,126,126,10,20,8,8,0.5,0.5
2024-03-29T1800,2636A,107.0089,33.1138,汉中市,鑫源开发区,,45,33,44,23,23,141,,129,129,6,17,9,10,0.5,0.5
2024-03-29T1800,2637A,107.007,33.0323,汉中市,南郑大河坎水厂,,45,31,45,21,25,143,,130,130,9,21,9,8,0.5,0.5
2024-03-29T1800,1223A,120.2072,30.2111,杭州市,滨江,,38,38,33,23,15,118,,130,130,20,26,5,4,0.5,0.7
2024-03-29T1800,1224A,120.0633,30.2747,杭州市,西溪,,37,36,25,13,13,118,,121,121,19,25,7,7,0.5,0.7
2024-03-29T1800,1226A,120.3461,30.3153,杭州市,下沙,,43,43,39,15,18,116,,125,125,15,29,6,6,0.6,0.8
2024-03-29T1800,1227A,120.1269,30.2456,杭州市,卧龙桥,,40,32,25,14,12,127,,132,132,12,18,4,4,0.5,0.7
2024-03-29T1800,1228A,120.1903,30.2692,杭州市,浙江农大,,37,37,28,16,15,108,,118,118,21,31,5,5,0.6,0.7
2024-03-29T1800,1230A,120.1197,30.3119,杭州市,和睦小学,,35,34,28,12,16,110,,116,116,17,30,7,7,0.5,0.7
2024-03-29T1800,1231A,120.3019,30.4183,杭州市,临平镇,,42,42,44,11,26,115,,122,122,19,37,6,5,0.5,0.7
2024-03-29T1800,1232A,120.2697,30.1819,杭州市,城厢镇,,38,32,34,11,21,120,,124,124,19,34,5,7,0.5,0.7
2024-03-29T1800,1233A,120.0883,30.1808,杭州市,云栖,,33,30,25,14,12,105,,124,123,20,20,8,8,0.6,0.7
2024-03-29T1800,3557A,119.9464,30.0494,杭州市,镇二中,,37,37,25,12,14,115,,123,123,21,33,6,6,0.7,0.8
2024-03-29T1800,3558A,119.7183,30.2367,杭州市,市府大楼,,36,32,23,14,14,113,,120,120,22,25,6,6,0.4,0.5
2024-03-29T1800,3656A,120.1556,30.2864,杭州市,消防大队,,38,32,27,14,16,119,,127,127,19,31,7,7,0.6,0.8
2024-03-29T1800,1270A,117.1959,31.7848,合肥市,明珠广场,颗粒物(PM10),52,53,62,29,38,120,,119,119,27,25,6,6,0.6,0.7
2024-03-29T1800,1271A,117.3072,31.8764,合肥市,三里街,颗粒物(PM10),59,68,75,24,40,78,,78,78,34,40,5,5,0.7,0.7
2024-03-29T1800,1272A,117.2588,31.8707,合肥市,琥珀山庄,颗粒物(PM10),58,66,68,19,24,130,,122,122,25,26,5,4,0.6,0.6
2024-03-29T1800,1273A,117.1604,31.9052,合肥市,董铺水库,颗粒物(PM10),51,51,67,14,26,130,,109,109,21,16,2,1,0.5,0.4
2024-03-29T1800,1274A,117.25,31.8571,合肥市,长江中路,颗粒物(PM10),57,63,67,33,39,123,,114,114,26,22,8,6,0.7,0.8
2024-03-29T1800,1275A,117.266,31.9436,合肥市,庐阳区,颗粒物(PM10),62,73,71,27,32,107,,94,94,27,24,6,4,0.6,0.6
2024-03-29T1800,1276A,117.336,31.8586,合肥市,瑶海区,颗粒物(PM10),58,66,72,27,37,112,,106,106,20,24,8,7,0.8,0.8
2024-03-29T1800,1277A,117.3027,31.7964,合肥市,包河区,颗粒物(PM10),57,63,67,19,33,122,,116,116,17,25,7,6,0.4,0.5
2024-03-29T1800,1278A,117.2776,31.7385,合肥市,滨湖新区,颗粒物(PM10),52,53,58,27,32,118,,111,111,15,14,8,7,0.4,0.4
2024-03-29T1800,1279A,117.1318,31.8403,合肥市,高新区,颗粒物(PM10),57,63,61,27,31,117,,98,98,27,21,8,7,0.7,0.7
2024-03-29T1800,3464A,117.3803,31.9147,合肥市,高教基地,颗粒物(PM10),56,62,63,20,29,131,,125,125,18,22,6,5,0.4,0.5
2024-03-29T1800,3614A,79.924,37.0877,和田地区,地区环保局,颗粒物(PM10),110,169,147,44,33,104,,95,95,6,17,7,7,0.5,0.7
2024-03-29T1800,3615A,79.9131,37.113,和田地区,市环保局,颗粒物(PM10),99,148,115,37,33,105,,90,90,1,14,5,6,0.4,0.6
2024-03-29T1800,2516A,108.2011,24.715,河池市,东仁乐园,,49,49,52,24,27,56,,52,52,8,14,5,5,0.5,0.5
2024-03-29T1800,2517A,108.0497,24.6947,河池市,市环保站,,37,37,39,17,27,97,,92,92,9,17,7,10,0.6,0.7
2024-03-29T1800,2518A,108.0983,24.6989,河池市,市疾控中心,,32,28,51,19,34,101,,88,88,12,26,7,8,0.6,0.7
2024-03-29T1800,1696A,114.6778,23.7569,河源市,源西,,36,35,33,17,18,114,,108,108,16,16,5,5,0.8,0.7
2024-03-29T1800,1697A,114.6944,23.7586,河源市,东埔,,,,37,31,22,124,,114,114,10,12,8,7,0.6,0.5
2024-03-29T1800,1698A,114.6892,23.7233,河源市,老城,,41,41,32,20,18,113,,112,112,12,13,6,6,0.6,0.5
2024-03-29T1800,1718A,115.4208,35.2464,菏泽市,气象局,颗粒物(PM10),110,170,151,40,35,154,,118,118,19,26,7,6,0.5,0.4
2024-03-29T1800,1719A,115.4747,35.2375,菏泽市,市政协,颗粒物(PM10),108,166,150,42,34,148,,117,117,17,22,7,5,0.5,0.4
2024-03-29T1800,3374A,115.5564,35.0891,菏泽市,定陶老年大学,颗粒物(PM10),90,129,124,39,29,140,,125,125,16,16,8,8,0.3,0.5
2024-03-29T1800,3647A,115.4702,35.2706,菏泽市,菏泽医专,颗粒物(PM10),110,169,153,33,27,141,,116,116,16,20,8,6,0.3,0.3
2024-03-29T1800,2514A,111.5264,24.4172,贺州市,环保小区,细颗粒物(PM2.5),53,,34,37,19,105,,99,99,14,17,7,7,0.8,0.7
2024-03-29T1800,2515A,111.5608,24.4078,贺州市,政协大楼,,40,38,31,28,15,106,,104,104,12,18,7,6,0.8,0.6
2024-03-29T1800,3534A,111.4744,24.4553,贺州市,西湾,,49,45,35,34,19,108,,103,103,15,17,6,6,0.7,0.6
2024-03-29T1800,2385A,114.17,35.9019,鹤壁市,市监测站,颗粒物(PM10),144,237,160,82,53,113,,100,100,18,17,13,11,0.6,0.5
2024-03-29T1800,2386A,114.2956,35.7511,鹤壁市,市交警支队,颗粒物(PM10),125,200,160,61,44,149,,111,111,17,36,16,14,0.5,0.5
2024-03-29T1800,2387A,114.2878,35.7306,鹤壁市,迎宾馆,颗粒物(PM10),121,192,159,65,50,153,,113,113,16,32,16,13,0.5,0.6
2024-03-29T1800,3474A,114.2617,35.6822,鹤壁市,大新区,颗粒物(PM10),142,233,183,51,38,140,,109,109,22,43,14,12,0.6,0.7
2024-03-29T1800,3596A,114.1572,35.9603,鹤壁市,南山宾馆,颗粒物(PM10),158,266,185,73,44,122,,106,106,14,19,10,9,0.5,0.5
2024-03-29T1800,2244A,130.2537,47.3416,鹤岗市,哈啤分公司,颗粒物(PM10),51,52,434,28,79,65,,71,70,8,10,15,16,0.7,0.5
2024-03-29T1800,2245A,130.2684,47.3086,鹤岗市,斯达机电,颗粒物(PM10),52,54,478,20,85,70,,78,74,12,10,11,12,0.5,0.6
2024-03-29T1800,2246A,130.3114,47.3388,鹤岗市,东山纸板厂,,43,39,541,30,86,67,,74,73,11,11,14,14,0.5,0.5
2024-03-29T1800,2247A,130.1097,47.3382,鹤岗市,五号水库,,38,38,427,18,68,87,,91,89,5,6,11,11,0.3,0.3
2024-03-29T1800,2263A,127.4833,50.2524,黑河市,交通局,,30,30,37,18,15,72,,77,76,11,6,8,9,0.3,0.2
2024-03-29T1800,2264A,127.5144,50.2341,黑河市,环保局,,28,28,33,16,18,74,,79,79,11,7,2,3,0.4,0.5
2024-03-29T1800,2265A,127.5291,50.2472,黑河市,大黑河岛,,,25,39,16,13,,,23,,43,89,1,10,0.4,0.4
2024-03-29T1800,1074A,115.6838,37.7541,衡水市,电机北厂,颗粒物(PM10),128,206,301,46,54,104,,88,88,9,18,2,2,0.3,0.4
2024-03-29T1800,1075A,115.6303,37.7316,衡水市,市监测站,颗粒物(PM10),122,194,279,37,55,102,,86,86,12,18,4,4,0.3,0.4
2024-03-29T1800,3188A,115.6683,37.7217,衡水市,市城管局,颗粒物(PM10),129,208,275,31,52,100,,83,83,13,22,6,7,0.4,0.4
2024-03-29T1800,3459A,115.5989,37.5491,衡水市,地表水厂,颗粒物(PM10),139,228,298,31,51,100,,96,96,8,17,,3,0.3,0.4
2024-03-29T1800,2456A,112.5003,26.9167,衡阳市,原169医院,,41,29,40,18,22,129,,120,120,15,23,16,20,0.4,0.5
2024-03-29T1800,2457A,112.6194,26.9258,衡阳市,衡阳化工总厂,,43,43,44,20,22,131,,133,133,19,22,9,11,0.5,0.6
2024-03-29T1800,2458A,112.6211,26.8956,衡阳市,珠晖区环保局,,41,40,42,21,23,130,,130,130,14,21,10,10,0.5,0.6
2024-03-29T1800,2459A,112.6197,26.8733,衡阳市,市委党校,,44,27,41,16,22,140,,136,136,8,18,12,13,0.5,0.7
2024-03-29T1800,2460A,112.6006,26.8919,衡阳市,市监测站,,40,39,40,20,28,125,,137,137,20,21,13,13,0.6,0.7
2024-03-29T1800,2461A,112.5664,26.9056,衡阳市,真空机电公司,,39,39,50,23,29,124,,124,124,19,27,16,21,0.5,0.8
2024-03-29T1800,3399A,112.6703,26.882,衡阳市,师范学院,,42,29,36,10,24,134,,133,133,11,11,10,9,0.6,0.6
2024-03-29T1800,2608A,103.3772,23.3993,红河哈尼族彝族自治州,污水处理厂,细颗粒物(PM2.5),84,71,53,62,44,113,,111,111,14,10,8,7,0.6,0.5
2024-03-29T1800,2609A,103.3861,23.35,红河哈尼族彝族自治州,监测站,,49,48,48,34,40,109,,96,,10,9,7,12,0.7,0.6
2024-03-29T1800,3038A,103.3758,23.368,红河哈尼族彝族自治州,州图书馆,细颗粒物(PM2.5),59,53,52,42,39,108,,102,102,12,11,6,6,0.7,0.6
2024-03-29T1800,1090A,111.6507,40.7517,呼和浩特市,呼市一监,颗粒物(PM10),90,129,248,35,43,112,,104,104,10,6,12,9,0.5,0.4
2024-03-29T1800,1091A,111.6572,40.8033,呼和浩特市,小召,颗粒物(PM10),92,134,244,36,38,105,,98,98,20,12,9,7,0.5,0.4
2024-03-29T1800,1094A,111.7516,40.8369,呼和浩特市,如意水处理厂,颗粒物(PM10),73,96,220,26,38,96,,94,94,14,12,8,7,0.3,0.3
2024-03-29T1800,1095A,111.7276,40.8062,呼和浩特市,二十九中,颗粒物(PM10),74,98,256,32,39,105,,98,98,16,10,11,9,0.5,0.4
2024-03-29T1800,1096A,111.5512,40.7866,呼和浩特市,工大金川校区,颗粒物(PM10),90,130,218,39,41,106,,96,96,17,14,8,6,0.2,0.1
2024-03-29T1800,1097A,111.717,40.7612,呼和浩特市,化肥厂生活区,颗粒物(PM10),90,129,231,30,38,100,,98,98,19,11,13,8,0.4,0.3
2024-03-29T1800,3698A,111.5968,40.8178,呼和浩特市,红旗小学,颗粒物(PM10),89,127,261,31,40,101,,95,95,19,14,6,4,0.3,0.3
2024-03-29T1800,3699A,111.6518,40.8389,呼和浩特市,海东办,颗粒物(PM10),82,114,248,23,36,101,,96,96,15,12,7,6,0.2,0.2
2024-03-29T1800,2192A,119.7594,49.2261,呼伦贝尔市,区环保局,颗粒物(PM10),63,76,34,19,19,79,,85,83,7,6,5,4,0.3,0.2
2024-03-29T1800,3061A,119.7512,49.1577,呼伦贝尔市,国华电力东,,41,41,45,16,15,81,,83,83,4,5,3,4,0.2,0.2
2024-03-29T1800,1250A,120.0751,30.8669,湖州市,城西水厂,,34,34,37,11,19,85,,103,103,50,59,5,5,0.5,0.7
2024-03-29T1800,2873A,120.0875,30.8955,湖州市,仁皇山新区,,34,34,36,10,23,106,,108,108,33,55,7,6,0.5,0.7
2024-03-29T1800,2907A,120.1844,30.8596,湖州市,吴兴区站,,36,36,35,11,22,114,,125,125,22,38,5,6,0.5,0.6
2024-03-29T1800,3562A,120.4148,30.8538,湖州市,南浔区站,,41,36,37,14,24,130,,134,133,20,33,8,8,0.5,0.8
2024-03-29T1800,1607A,120.9092,40.7136,葫芦岛市,龙港区,颗粒物(PM10),65,80,123,17,17,82,,87,86,13,9,4,5,0.5,0.4
2024-03-29T1800,1608A,120.8392,40.7514,葫芦岛市,化工街,颗粒物(PM10),60,70,139,12,14,81,,89,88,16,15,3,7,0.6,0.5
2024-03-29T1800,1609A,120.8341,40.7073,葫芦岛市,新区,颗粒物(PM10),63,76,108,15,15,82,,89,88,18,16,7,7,0.6,0.6
2024-03-29T1800,1610A,120.8695,40.7677,葫芦岛市,东城区,颗粒物(PM10),61,72,128,37,18,78,,92,90,24,21,6,5,0.7,0.6
2024-03-29T1800,2482A,109.5981,27.5721,怀化市,林科所,,34,21,26,5,12,107,,116,116,4,4,10,11,0.3,0.4
2024-03-29T1800,2483A,109.9453,27.5444,怀化市,河西地税局,,32,32,30,21,17,76,,108,103,32,15,7,6,0.6,0.5
2024-03-29T1800,2484A,109.9781,27.5342,怀化市,市四医院,,37,37,39,16,23,95,,107,107,20,21,7,8,0.5,0.5
2024-03-29T1800,2485A,109.9972,27.5578,怀化市,监测楼,,37,37,42,15,22,89,,103,103,21,19,8,11,0.5,0.6
2024-03-29T1800,2486A,110.0394,27.583,怀化市,市委党校,,39,39,38,17,21,98,,106,106,15,20,8,8,0.5,0.5
2024-03-29T1800,1210A,119.036,33.5981,淮安市,钵池山,颗粒物(PM10),53,56,64,24,43,127,,119,119,12,16,11,11,0.9,0.9
2024-03-29T1800,1211A,119.007,33.575,淮安市,北京南路,颗粒物(PM10),57,63,63,30,45,126,,119,119,14,24,8,11,0.9,1.1
2024-03-29T1800,1212A,118.989,33.6067,淮安市,市监测站,颗粒物(PM10),56,61,64,27,37,126,,123,123,18,20,8,9,0.8,1
2024-03-29T1800,1213A,119.135,33.5039,淮安市,楚州区监测站,颗粒物(PM10),56,61,66,26,45,131,,125,125,13,20,7,7,0.6,0.6
2024-03-29T1800,1214A,119.0186,33.6297,淮安市,淮阴区监测站,颗粒物(PM10),58,66,69,29,44,109,,118,118,37,23,8,7,0.5,0.7
2024-03-29T1800,3426A,118.8755,33.2894,淮安市,新华书店,颗粒物(PM10),59,67,62,24,28,127,,129,129,21,21,8,6,0.6,0.6
2024-03-29T1800,2282A,116.8004,33.975,淮北市,监测站,颗粒物(PM10),63,75,74,23,39,115,,115,115,14,15,6,6,0.5,0.6
2024-03-29T1800,2283A,116.8091,33.9007,淮北市,烈山区政府,颗粒物(PM10),59,67,82,33,49,120,,111,111,7,16,7,7,0.4,0.5
2024-03-29T1800,3330A,116.8873,33.9836,淮北市,杜集区检察院,颗粒物(PM10),58,65,79,22,40,130,,124,124,10,14,9,9,0.7,0.8
2024-03-29T1800,4017A,116.7923,33.9535,淮北市,市博物馆,颗粒物(PM10),60,70,70,16,25,119,,114,114,6,10,6,6,0.4,0.6
2024-03-29T1800,2277A,116.8305,32.7727,淮南市,潘集区政府,颗粒物(PM10),58,65,81,29,36,128,,124,124,14,16,3,2,0.3,0.4
2024-03-29T1800,2278A,117.0067,32.6524,淮南市,师范学院,颗粒物(PM10),57,64,79,30,33,118,,117,117,14,16,8,8,0.2,0.3
2024-03-29T1800,2279A,116.8569,32.5951,淮南市,谢家集区政府,颗粒物(PM10),52,54,66,24,26,127,,124,124,11,14,5,4,0.3,0.3
2024-03-29T1800,2280A,116.8281,32.633,淮南市,八公山区政府,颗粒物(PM10),52,53,75,21,34,135,,127,127,7,9,3,3,0.3,0.4
2024-03-29T1800,2281A,116.6325,32.6201,淮南市,焦岗湖风景区管理处,,42,42,61,11,19,89,,102,102,9,12,4,5,0.0,0.1
2024-03-29T1800,2894A,117.0566,32.6531,淮南市,经济技术开发区消防队,颗粒物(PM10),58,66,73,25,27,131,,128,128,17,17,5,5,0.4,0.4
2024-03-29T1800,3329A,117.0108,32.5893,淮南市,山南新区,颗粒物(PM10),57,64,76,22,32,126,,127,127,20,21,5,5,0.4,0.5
2024-03-29T1800,2929A,114.8858,30.4519,黄冈市,红卫路,,41,40,63,15,42,130,,126,126,3,24,6,11,0.1,0.4
2024-03-29T1800,3398A,114.9136,30.4445,黄冈市,市林业局,,40,36,66,13,39,127,,122,122,1,22,6,9,0.5,0.6
2024-03-29T1800,2672A,102.0199,35.5102,黄南藏族自治州,同仁县隆务镇,,30,30,31,7,11,96,,95,95,12,6,8,13,0.5,0.6
2024-03-29T1800,2295A,118.2903,29.6963,黄山市,延安路89号,,40,38,39,12,16,125,,119,119,5,7,6,6,0.4,0.6
2024-03-29T1800,2296A,118.327,29.7178,黄山市,黄山东路89号,,41,41,38,5,16,117,,115,115,10,11,6,5,0.4,0.6
2024-03-29T1800,2297A,118.1371,30.2756,黄山市,黄山区政府5号楼,,40,35,30,13,15,128,,123,123,9,9,5,4,0.6,0.6
2024-03-29T1800,2423A,115.0601,30.2313,黄石市,沈家营,,42,40,64,22,31,134,,125,125,22,38,20,12,0.6,0.7
2024-03-29T1800,2424A,115.0817,30.2006,黄石市,陈家湾,颗粒物(PM10),55,59,76,26,38,140,,116,116,28,35,16,19,1.0,1
2024-03-29T1800,2426A,114.8988,30.2019,黄石市,铁山,,43,43,57,15,29,120,,125,125,14,23,5,10,0.5,0.7
2024-03-29T1800,2427A,115.0307,30.2092,黄石市,团城山,,47,47,78,17,30,139,,122,122,22,33,14,15,0.7,0.7
2024-03-29T1800,3149A,115.0235,30.1578,黄石市,笔架山北路,,48,27,66,7,35,153,,134,134,12,30,7,8,0.4,0.7
2024-03-29T1800,1392A,114.4183,23.0528,惠州市,河南岸金山湖子站,臭氧1小时,65,68,74,43,40,172,,126,126,18,33,6,7,0.8,0.8
2024-03-29T1800,1393A,114.4053,23.0822,惠州市,下埔横江三路子站,臭氧1小时,99,60,66,37,38,199,,139,139,16,30,6,7,0.7,0.8
2024-03-29T1800,1394A,114.4103,23.1142,惠州市,江北云山西路子站,臭氧1小时,98,59,63,26,31,198,,131,131,14,29,5,6,0.6,0.6
2024-03-29T1800,1395A,114.4645,22.7833,惠州市,惠阳区承修路船湖子站,颗粒物(PM10),56,62,64,32,32,137,,136,136,20,33,4,5,0.7,0.8
2024-03-29T1800,1396A,114.5317,22.7422,惠州市,大亚湾管委会子站,颗粒物(PM10),55,60,64,31,31,148,,152,152,21,42,3,8,0.6,0.9
2024-03-29T1800,3314A,114.4338,22.8134,惠州市,惠阳秋长,颗粒物(PM10),62,73,76,32,36,157,,140,140,32,42,8,9,0.8,0.9
2024-03-29T1800,3452A,114.6517,22.775,惠州市,大亚湾霞涌,,43,43,43,29,29,131,,140,140,18,19,8,8,0.6,0.6
2024-03-29T1800,2240A,130.9762,45.3001,鸡西市,环保局,颗粒物(PM10),73,95,157,19,35,60,,66,66,14,7,5,5,0.3,0.2
2024-03-29T1800,2243A,130.9429,45.3039,鸡西市,第一中学,,45,45,165,17,43,71,,78,78,11,8,6,6,0.1,0.1
2024-03-29T1800,3707A,131.0207,45.3073,鸡西市,欧美日汽修厂,,50,50,169,24,43,65,,69,69,15,13,4,2,0.3,0.3
2024-03-29T1800,3709A,130.9967,45.3106,鸡西市,市政设施管理处,颗粒物(PM10),78,106,169,23,44,61,,72,70,20,18,4,5,0.3,0.3
2024-03-29T1800,2367A,114.9754,27.0803,吉安市,红声器材厂,,50,50,34,8,16,121,,116,116,14,16,10,10,0.3,0.3
2024-03-29T1800,2368A,114.9658,27.0999,吉安市,市森林工业局,,42,42,39,16,22,101,,114,114,27,20,9,10,0.1,0.2
2024-03-29T1800,2369A,114.99,27.1312,吉安市,市环境监测站,,41,38,38,17,19,131,,133,133,9,17,12,15,0.6,0.6
2024-03-29T1800,2370A,115.0093,27.0968,吉安市,青原区法院,,42,42,36,10,17,127,,123,123,17,23,13,13,0.3,0.5
2024-03-29T1800,1772A,126.54,43.8622,吉林市,哈达湾,颗粒物(PM10),135,219,280,22,59,86,,92,91,4,7,5,5,0.4,0.5
2024-03-29T1800,1773A,126.5844,43.8358,吉林市,东局子,颗粒物(PM10),127,203,317,25,68,84,,90,90,9,11,4,4,0.4,0.5
2024-03-29T1800,1774A,126.5052,43.8245,吉林市,电力学院,颗粒物(PM10),136,221,309,28,67,95,,100,100,4,9,6,6,0.5,0.6
2024-03-29T1800,1775A,126.6133,43.8972,吉林市,江北,颗粒物(PM10),122,193,273,22,66,82,,89,89,13,14,6,6,0.6,0.7
2024-03-29T1800,1776A,126.555,43.8306,吉林市,江南公园,颗粒物(PM10),137,224,314,29,72,86,,92,92,7,9,4,4,0.4,0.5
2024-03-29T1800,2868A,126.4739,43.953,吉林市,九站,颗粒物(PM10),153,255,220,27,40,,,95,,5,8,4,5,0.6,0.5
2024-03-29T1800,1299A,116.9862,36.6114,济南市,科干所,颗粒物(PM10),124,197,233,32,41,94,,94,94,28,20,7,7,0.6,0.6
2024-03-29T1800,1300A,116.9376,36.665,济南市,农科所,颗粒物(PM10),134,217,233,42,46,91,,91,91,30,23,7,5,0.7,0.6
2024-03-29T1800,1301A,117.1265,36.6734,济南市,开发区,颗粒物(PM10),131,212,226,29,39,81,,92,92,39,17,9,8,0.6,0.5
2024-03-29T1800,1303A,117.0624,36.6868,济南市,省种子仓库,颗粒物(PM10),147,244,255,34,44,81,,89,89,45,22,6,5,0.5,0.4
2024-03-29T1800,1304A,116.9489,36.6447,济南市,机床二厂,颗粒物(PM10),141,232,254,34,45,99,,103,102,30,19,7,6,0.7,0.7
2024-03-29T1800,1305A,117.0495,36.663,济南市,市监测站,颗粒物(PM10),139,227,233,39,44,94,,99,99,39,24,13,12,0.7,0.6
2024-03-29T1800,1306A,116.7675,36.5484,济南市,长清党校,颗粒物(PM10),135,220,263,32,46,103,,98,98,21,17,5,6,0.5,0.6
2024-03-29T1800,1616A,117.6795,36.229,济南市,技术学院,颗粒物(PM10),165,280,246,56,53,106,,98,98,13,26,13,10,0.7,0.7
2024-03-29T1800,1961A,117.532,36.6868,济南市,东山小学,颗粒物(PM10),144,237,252,37,51,106,,101,101,24,20,7,6,0.3,0.4
2024-03-29T1800,3059A,117.7161,36.2049,济南市,泰兴公司,颗粒物(PM10),155,259,254,44,58,103,,96,96,14,24,9,10,0.8,0.9
2024-03-29T1800,3064A,117.6867,36.2171,济南市,莱芜战役纪念馆,颗粒物(PM10),153,256,244,48,53,110,,102,102,16,23,10,9,0.8,0.8
2024-03-29T1800,3494A,117.1673,36.9782,济南市,济阳区政府,颗粒物(PM10),113,176,250,34,64,106,,102,102,14,25,10,9,0.5,0.6
2024-03-29T1800,3495A,117.1171,36.63,济南市,锦屏中学,颗粒物(PM10),120,190,227,32,39,104,,99,99,18,13,8,7,0.5,0.5
2024-03-29T1800,3682A,116.9814,36.6819,济南市,济南四建,颗粒物(PM10),135,219,239,39,46,77,,84,84,49,24,10,8,0.6,0.6
2024-03-29T1800,1653A,116.6251,35.4302,济宁市,火炬城,颗粒物(PM10),105,159,121,29,29,131,,101,101,12,15,7,7,0.6,0.7
2024-03-29T1800,1655A,116.5491,35.4042,济宁市,电化厂,颗粒物(PM10),107,164,145,24,28,134,,107,107,11,15,6,7,0.7,0.8
2024-03-29T1800,3500A,116.5814,35.3707,济宁市,北湖一中,颗粒物(PM10),95,139,117,19,32,141,,106,106,8,14,3,19,0.8,0.8
2024-03-29T1800,3501A,116.8249,35.5593,济宁市,服务中心,颗粒物(PM10),102,153,141,22,34,116,,102,102,10,18,4,4,0.4,0.6
2024-03-29T1800,3678A,116.5907,35.4054,济宁市,市第七中学,颗粒物(PM10),106,161,128,29,28,137,,105,105,9,13,4,4,0.7,0.7
2024-03-29T1800,2255A,130.2751,46.8028,佳木斯市,佳纺,颗粒物(PM10),62,73,426,19,88,81,,87,87,7,5,7,5,0.4,0.4
2024-03-29T1800,2256A,130.3995,46.8307,佳木斯市,发电厂,颗粒物(PM10),79,107,402,21,78,81,,83,82,8,10,3,4,0.4,0.4
2024-03-29T1800,2257A,130.3258,46.7975,佳木斯市,环保局,颗粒物(PM10),60,70,418,16,85,80,,87,86,8,8,4,4,0.4,0.4
2024-03-29T1800,2258A,130.3648,46.8032,佳木斯市,十一中,颗粒物(PM10),66,81,413,17,94,80,,71,,10,8,6,6,0.4,0.5
2024-03-29T1800,2259A,130.3794,46.7588,佳木斯市,四丰,颗粒物(PM10),52,53,325,11,92,95,,98,98,3,2,1,1,0.4,0.5
2024-03-29T1800,1252A,120.7436,30.778,嘉兴市,清河小学,,41,41,36,12,18,125,,124,124,26,35,7,7,0.2,0.7
2024-03-29T1800,1253A,120.726,30.7478,嘉兴市,嘉兴学院,,41,34,38,9,22,130,,129,129,24,38,6,6,0.4,0.6
2024-03-29T1800,2872A,120.7846,30.7525,嘉兴市,南湖区残联,,43,38,37,10,24,135,,126,126,22,33,6,6,0.5,0.7
2024-03-29T1800,3407A,120.6916,30.7739,嘉兴市,秀洲住建,,47,47,34,16,19,106,,118,118,40,40,6,6,0.4,0.6
2024-03-29T1800,1945A,98.2908,39.7711,嘉峪关市,气象局,颗粒物(PM10),87,124,80,27,16,113,,108,108,5,18,7,13,0.1,0.2
2024-03-29T1800,2884A,98.2672,39.7978,嘉峪关市,酒钢宾馆,颗粒物(PM10),102,153,125,36,20,113,,107,107,5,13,17,19,0.4,0.4
2024-03-29T1800,3248A,98.2643,39.7724,嘉峪关市,雄关区,颗粒物(PM10),69,88,60,25,16,109,,108,108,5,16,3,5,0.4,0.4
2024-03-29T1800,1383A,113.1064,22.6058,江门市,北街,颗粒物(PM10),55,60,61,37,41,133,,155,155,18,36,8,9,0.5,0.6
2024-03-29T1800,1384A,113.0731,22.5835,江门市,西区,颗粒物(PM10),63,76,61,34,32,129,,153,153,24,39,7,9,0.6,0.6
2024-03-29T1800,1385A,113.0219,22.5311,江门市,圭峰西,,44,44,54,23,33,123,,132,132,19,26,8,8,0.8,0.8
2024-03-29T1800,1386A,113.0828,22.5947,江门市,东湖,颗粒物(PM10),54,58,70,34,39,140,,153,153,20,35,9,10,0.6,0.6
2024-03-29T1800,3311A,113.1075,22.5647,江门市,江海富民,颗粒物(PM10),72,93,83,40,38,140,,152,152,20,33,8,9,0.5,0.5
2024-03-29T1800,3449A,113.05,22.4667,江门市,新会银湖,细颗粒物(PM2.5),54,53,56,38,40,129,,129,129,14,24,5,5,0.7,0.8
2024-03-29T1800,1828A,113.227,35.2125,焦作市,市环保局,颗粒物(PM10),117,184,128,59,47,118,,99,99,23,42,11,11,0.8,0.9
2024-03-29T1800,3169A,113.2725,35.2067,焦作市,太极体育中心,颗粒物(PM10),132,213,129,62,45,123,,108,108,24,41,17,8,0.6,0.4
2024-03-29T1800,3335A,113.3137,35.2641,焦作市,马村街道办,颗粒物(PM10),122,193,134,60,46,126,,106,106,24,41,11,13,0.5,0.7
2024-03-29T1800,3336A,113.2465,35.2373,焦作市,焦作技师学院,颗粒物(PM10),120,189,146,51,50,116,,99,99,21,50,9,10,0.4,0.9
2024-03-29T1800,3477A,113.1656,35.2539,焦作市,中站许衡医院,颗粒物(PM10),115,180,107,47,36,116,,102,102,23,24,7,7,0.6,0.6
2024-03-29T1800,3981A,113.2449,35.1803,焦作市,原李万街道办,颗粒物(PM10),113,175,112,51,37,114,,99,99,16,37,13,12,0.6,0.6
2024-03-29T1800,1708A,116.3701,23.5345,揭阳市,新兴,细颗粒物(PM2.5),58,58,100,41,61,144,,132,132,20,43,11,11,0.7,1.4
2024-03-29T1800,1709A,116.3264,23.5443,揭阳市,西马,"颗粒物(PM10),细颗粒物(PM2.5)",64,77,111,46,54,153,,124,124,12,37,11,11,0.7,1.3
2024-03-29T1800,1710A,116.3611,23.5626,揭阳市,东兴,颗粒物(PM10),53,55,107,31,59,143,,75,,13,41,11,10,0.9,1.6
2024-03-29T1800,1711A,116.4151,23.5294,揭阳市,渔湖,,,57,113,,49,,,125,125,19,50,12,13,0.9,1.3
2024-03-29T1800,3320A,116.403,23.5699,揭阳市,曲溪,颗粒物(PM10),64,78,87,37,48,145,,140,140,18,35,9,8,0.9,1
2024-03-29T1800,1944A,102.1692,38.5167,金昌市,天庆家园,颗粒物(PM10),134,218,100,20,17,112,,97,97,6,17,8,21,0.3,0.5
2024-03-29T1800,3170A,102.1864,38.5253,金昌市,市委党校,颗粒物(PM10),123,195,119,38,32,112,,101,101,4,18,6,34,0.4,0.5
2024-03-29T1800,4022A,102.1647,38.5371,金昌市,金川区人防中心,颗粒物(PM10),164,277,135,37,25,118,,106,106,2,9,4,17,0.2,0.3
2024-03-29T1800,1262A,119.647,29.077,金华市,十五中,颗粒物(PM10),52,53,33,18,17,117,,132,132,29,25,7,5,0.5,0.6
2024-03-29T1800,1263A,119.686,29.1029,金华市,监测站,,41,41,31,17,18,114,,124,124,26,23,5,4,0.6,0.7
2024-03-29T1800,3659A,119.656,29.1131,金华市,气象局,颗粒物(PM10),51,51,37,16,19,108,,127,127,39,28,6,6,0.4,0.9
2024-03-29T1800,1767A,121.1115,41.0879,锦州市,南山,颗粒物(PM10),55,59,102,14,25,93,,102,101,15,18,8,12,0.2,0.4
2024-03-29T1800,1768A,121.0533,40.8434,锦州市,开发区,颗粒物(PM10),81,111,148,21,20,64,,85,81,38,35,10,11,0.3,0.3
2024-03-29T1800,1769A,121.1836,41.1119,锦州市,百股街道,颗粒物(PM10),54,57,103,12,23,95,,102,102,16,26,9,15,0.4,0.5
2024-03-29T1800,1770A,121.1178,41.1222,锦州市,天安街道,颗粒物(PM10),58,66,98,11,19,80,,97,94,21,18,8,16,0.4,0.4
2024-03-29T1800,1771A,121.1303,41.1386,锦州市,北湖公园,,50,50,80,14,21,80,,93,91,20,12,9,11,0.3,0.4
2024-03-29T1800,2160A,112.85,35.5051,晋城市,自来水公司,颗粒物(PM10),73,96,94,27,26,125,,111,111,21,42,7,7,0.5,0.8
2024-03-29T1800,2161A,112.8318,35.4936,晋城市,白云商贸,颗粒物(PM10),87,124,102,27,21,128,,112,112,22,44,8,6,0.6,0.8
2024-03-29T1800,2162A,112.8508,35.4887,晋城市,市环保局,颗粒物(PM10),87,123,98,31,27,138,,112,112,25,49,11,6,0.7,0.8
2024-03-29T1800,2163A,112.8676,35.4897,晋城市,技术学院,颗粒物(PM10),92,133,102,31,25,134,,111,111,27,50,9,4,0.6,0.7
2024-03-29T1800,3620A,112.8271,35.4828,晋城市,泽州一中,颗粒物(PM10),75,99,89,36,20,132,,110,110,21,34,6,6,0.7,0.7
2024-03-29T1800,2171A,112.7532,37.6945,晋中市,锦纶小区,颗粒物(PM10),52,53,131,12,28,102,,101,101,12,31,8,13,0.1,0.4
2024-03-29T1800,2173A,112.7249,37.7067,晋中市,南都小区,颗粒物(PM10),54,57,124,13,29,106,,101,101,10,36,8,14,0.2,0.5
2024-03-29T1800,2174A,112.6991,37.6982,晋中市,榆次区政府,,,48,135,12,33,105,,104,104,,34,7,14,0.2,0.5
2024-03-29T1800,2865A,112.7195,37.6828,晋中市,榆次三中,颗粒物(PM10),53,56,137,14,29,106,,103,103,9,30,8,14,0.3,0.6
2024-03-29T1800,2439A,112.2014,31.0481,荆门市,竹园小学,颗粒物(PM10),53,56,61,18,20,134,,116,116,17,17,8,10,0.6,0.6
2024-03-29T1800,2440A,112.1969,30.9891,荆门市,掇刀,,47,47,56,28,29,137,,121,121,15,13,9,10,0.5,0.5
2024-03-29T1800,2441A,112.2213,31.0386,荆门市,石化一小,颗粒物(PM10),53,55,56,22,23,138,,122,122,17,16,19,20,0.5,0.5
2024-03-29T1800,3012A,112.1849,31.0362,荆门市,西山林语,,50,50,54,18,10,139,,120,120,13,14,14,14,0.7,0.5
2024-03-29T1800,3547A,112.1632,31.0138,荆门市,龙泉中学南校,,47,47,57,22,23,135,,117,117,9,10,7,6,0.6,0.6
2024-03-29T1800,1844A,112.2494,30.3197,荆州市,市图书馆,,,,38,,21,111,,113,113,23,18,7,7,0.7,0.7
2024-03-29T1800,1845A,112.2008,30.3544,荆州市,市委党校,,45,31,36,31,23,114,,110,110,17,16,6,7,0.8,0.8
2024-03-29T1800,3194A,112.2747,30.3122,荆州市,管委会,,40,38,36,28,24,115,,118,118,22,15,10,9,0.5,0.6
2024-03-29T1800,3548A,112.1655,30.3364,荆州市,学苑路,,35,20,33,13,22,111,,110,110,10,15,6,7,0.7,0.7
2024-03-29T1800,2343A,117.2117,29.2933,景德镇市,老干部活动中心,,41,41,39,13,24,126,,119,119,10,17,4,6,0.2,0.5
2024-03-29T1800,2344A,117.1894,29.2789,景德镇市,兽医站,,42,42,39,17,23,124,,124,124,13,17,8,9,0.6,0.9
2024-03-29T1800,2345A,117.1547,29.2617,景德镇市,台达陶瓷,颗粒物(PM10),55,59,45,33,26,111,,117,117,36,31,41,21,0.7,0.8
2024-03-29T1800,2346A,117.2461,29.2956,景德镇市,陶研所,,36,36,34,8,20,112,,112,112,16,18,4,8,0.4,0.6
2024-03-29T1800,1803A,115.9872,29.6815,九江市,十里,,46,28,55,11,28,146,,126,126,15,33,13,11,0.7,0.8
2024-03-29T1800,1804A,115.9584,29.7046,九江市,茅山头,,41,31,51,14,32,130,,124,124,23,39,12,12,0.6,0.8
2024-03-29T1800,1805A,115.9877,29.7295,九江市,西园,,45,40,61,19,34,142,,124,124,23,36,14,14,0.7,0.9
2024-03-29T1800,1806A,116.0172,29.6547,九江市,五七二七厂,,45,22,50,20,20,143,,117,117,14,13,11,9,0.5,0.6
2024-03-29T1800,1808A,115.9114,29.6038,九江市,综合工业园,,50,50,49,18,28,139,,130,130,19,42,12,13,0.7,0.8
2024-03-29T1800,1809A,116.0721,29.7535,九江市,石化总厂,,45,43,48,23,29,141,,117,117,19,23,21,16,0.6,0.8
2024-03-29T1800,1810A,115.9773,29.5698,九江市,庐山气象台,,42,32,46,18,18,134,,110,110,6,3,7,7,1.0,0.9
2024-03-29T1800,3190A,116.0254,29.6994,九江市,外国语学校,,,31,50,21,31,,,101,,19,32,13,15,0.6,0.7
2024-03-29T1800,2658A,98.5061,39.7443,酒泉市,仓门街子站,颗粒物(PM10),111,171,171,30,25,105,,99,99,4,14,6,10,0.2,0.3
2024-03-29T1800,2659A,98.4989,39.7256,酒泉市,油田生活基地,颗粒物(PM10),98,146,127,37,24,110,,104,104,4,14,8,10,0.2,0.3
2024-03-29T1800,2698A,76.0072,39.4467,喀什地区,巡警大队,颗粒物(PM10),111,172,216,12,48,111,,79,79,7,49,3,5,0.3,0.8
2024-03-29T1800,2699A,75.9755,39.4694,喀什地区,吾办,颗粒物(PM10),108,165,200,41,64,110,,82,82,12,42,4,6,0.4,0.9
2024-03-29T1800,4027A,75.9483,39.4689,喀什地区,老干局,颗粒物(PM10),116,181,217,35,49,121,,90,90,6,34,3,4,0.5,0.9
2024-03-29T1800,1824A,114.3389,34.7781,开封市,肿瘤医院,颗粒物(PM10),83,116,110,41,33,139,,119,119,16,20,8,7,0.6,0.5
2024-03-29T1800,1826A,114.2885,34.7965,开封市,世纪星幼儿园,颗粒物(PM10),85,119,103,38,30,148,,119,119,16,23,5,4,0.6,0.5
2024-03-29T1800,3147A,114.3438,34.8106,开封市,龙亭公园,颗粒物(PM10),86,121,113,41,33,127,,99,99,14,20,6,5,0.4,0.4
2024-03-29T1800,3210A,114.3644,34.7964,开封市,汴京公园,颗粒物(PM10),82,113,108,37,31,130,,109,109,18,22,8,7,0.6,0.5
2024-03-29T1800,3473A,114.2485,34.8306,开封市,技师学院,颗粒物(PM10),84,117,108,44,37,139,,112,112,15,17,10,10,0.5,0.5
2024-03-29T1800,3592A,114.4644,34.7556,开封市,祥符区生态环境局,颗粒物(PM10),82,114,118,40,32,124,,112,112,18,24,7,7,0.4,0.4
2024-03-29T1800,1951A,84.895,45.6094,克拉玛依市,长征新村,,35,21,32,10,8,110,,99,99,8,16,10,10,0.2,0.3
2024-03-29T1800,1952A,84.8988,45.5893,克拉玛依市,南林小区,,36,26,33,8,14,114,,103,103,9,24,7,7,0.4,0.5
2024-03-29T1800,1954A,84.905,44.3396,克拉玛依市,独山子区,,39,29,54,11,30,122,,112,112,5,12,8,10,0.4,0.6
2024-03-29T1800,1955A,85.6979,46.098,克拉玛依市,乌尔禾区商贸楼,,35,9,24,7,8,110,,108,108,6,11,9,10,0.2,0.3
2024-03-29T1800,3612A,85.1045,45.6899,克拉玛依市,白碱滩区新站,,35,18,26,17,20,110,,105,104,7,10,9,9,0.3,0.3
2024-03-29T1800,2697A,76.1454,39.7142,克孜勒苏柯尔克孜自治州,市人民政府,颗粒物(PM10),91,131,145,36,40,112,,97,97,2,10,6,5,0.1,0.1
2024-03-29T1800,3665A,76.1658,39.7157,克孜勒苏柯尔克孜自治州,克州文化中心,颗粒物(PM10),89,127,146,54,50,112,,96,96,4,13,7,7,0.2,0.2
2024-03-29T1800,1450A,102.8204,24.8886,昆明市,呈贡新区,,33,33,41,21,33,101,,110,110,13,24,5,7,0.5,0.6
2024-03-29T1800,1452A,102.7252,25.0902,昆明市,龙泉镇,,45,45,41,22,27,111,,112,112,11,21,6,7,0.7,0.8
2024-03-29T1800,1453A,102.7266,25.0375,昆明市,东风东路,,,38,48,29,32,102,,108,108,,24,6,8,0.4,0.5
2024-03-29T1800,1454A,102.6742,25.0669,昆明市,金鼎山,细颗粒物(PM2.5),54,38,42,38,34,107,,110,110,15,22,3,4,0.5,0.6
2024-03-29T1800,1455A,102.6644,25.0401,昆明市,碧鸡广场,,34,28,46,21,32,106,,107,107,12,25,7,9,0.4,0.5
2024-03-29T1800,3179A,102.7494,25.0119,昆明市,官渡区博物馆,,34,32,46,20,29,106,,111,111,10,23,8,10,0.5,0.7
2024-03-29T1800,3375A,102.8017,24.8336,昆明市,青年创业园,,37,25,45,20,32,118,,122,122,5,21,8,10,0.8,0.8
2024-03-29T1800,3550A,102.7997,24.9786,昆明市,昆明学院,,34,34,51,19,32,96,,105,105,12,23,7,10,0.6,0.6
2024-03-29T1800,3551A,102.5967,24.6736,昆明市,晋宁区生态环境分局,,39,33,45,27,29,119,,112,112,6,12,2,5,0.5,0.6
2024-03-29T1800,3552A,102.6678,24.9856,昆明市,云天化总部,,38,26,44,18,29,119,,120,120,7,17,6,8,0.7,0.8
2024-03-29T1800,1456A,91.1319,29.6514,拉萨市,八廓街,,34,12,19,8,9,106,,98,98,15,24,8,7,0.4,0.6
2024-03-29T1800,1457A,91.1221,29.6747,拉萨市,市环保局,,,,24,13,12,106,,98,98,12,20,,6,0.3,0.5
2024-03-29T1800,1458A,91.0874,29.6475,拉萨市,区监测站,,33,7,15,6,7,103,,96,96,10,22,5,5,0.4,0.5
2024-03-29T1800,1459A,91.1774,29.6541,拉萨市,西藏大学,,32,11,18,7,9,102,,97,97,11,19,3,4,0.1,0.3
2024-03-29T1800,1460A,90.9798,29.6588,拉萨市,区辐射站,,30,21,18,5,8,95,,91,91,17,16,5,6,0.4,0.4
2024-03-29T1800,1461A,91.0834,29.6292,拉萨市,拉萨火车站,,33,12,17,7,8,104,,94,94,9,15,5,4,0.3,0.4
2024-03-29T1800,2520A,109.2203,23.7256,来宾市,来宾技工学校,,,55,51,38,27,114,,114,114,14,21,8,10,,0.9
2024-03-29T1800,3535A,109.1781,23.7297,来宾市,兴宾区政府,,38,38,37,24,23,114,,121,121,18,14,6,6,0.8,0.8
2024-03-29T1800,4002A,109.2416,23.7461,来宾市,中南小学,,48,40,55,33,28,116,,117,117,15,24,12,11,0.7,0.8
2024-03-29T1800,1476A,103.631,36.1031,兰州市,兰炼宾馆,颗粒物(PM10),56,61,71,31,40,101,,106,106,13,51,14,23,0.5,0.7
2024-03-29T1800,1478A,103.8412,36.0726,兰州市,生物制品所,颗粒物(PM10),56,61,79,23,37,97,,79,79,17,55,13,15,0.2,0.8
2024-03-29T1800,1479A,103.831,36.0464,兰州市,铁路设计院,,45,45,78,18,37,89,,71,71,29,69,11,16,0.3,1.3
2024-03-29T1800,3186A,103.7158,36.1058,兰州市,教育港,,45,45,70,21,36,110,,92,92,9,50,14,17,0.3,0.8
2024-03-29T1800,3241A,103.7439,36.0842,兰州市,百合公园,,37,37,72,25,34,100,,76,76,10,52,13,14,0.4,1
2024-03-29T1800,3242A,103.9611,35.998,兰州市,和平,,48,48,56,15,26,112,,93,93,9,35,11,17,0.1,0.6
2024-03-29T1800,3245A,103.6633,36.533,兰州新区,新区管委会,,34,,49,15,21,106,,91,91,4,18,8,20,0.3,0.4
2024-03-29T1800,3246A,103.6975,36.4789,兰州新区,舟曲中学,颗粒物(PM10),55,59,51,11,15,97,,85,85,8,19,7,21,0.2,0.4
2024-03-29T1800,1067A,116.6708,39.5111,廊坊市,药材公司,颗粒物(PM10),71,92,164,19,28,104,,98,98,8,14,1,2,0.5,0.4
2024-03-29T1800,1068A,116.7214,39.5589,廊坊市,开发区,颗粒物(PM10),64,78,160,18,26,101,,96,96,9,18,1,1,0.3,0.3
2024-03-29T1800,1070A,116.7244,39.5269,廊坊市,北华航天学院,颗粒物(PM10),71,91,152,9,18,102,,98,98,13,21,1,2,0.3,0.3
2024-03-29T1800,2919A,116.7022,39.5453,廊坊市,河北工业大学,颗粒物(PM10),62,74,146,20,26,103,,98,98,7,15,2,2,0.3,0.3
2024-03-29T1800,2535A,103.7723,29.5462,乐山市,花湖湾,臭氧1小时,64,,55,16,28,171,,135,135,5,28,4,6,0.5,0.8
2024-03-29T1800,2536A,103.7627,29.5844,乐山市,牛耳桥,,50,30,38,16,26,160,,141,141,18,38,6,6,0.6,0.7
2024-03-29T1800,2537A,103.7508,29.6006,乐山市,市第三水厂,臭氧1小时,60,32,39,13,24,168,,143,143,12,39,6,6,0.5,0.7
2024-03-29T1800,2538A,103.7571,29.5664,乐山市,市监测站,臭氧1小时,65,30,40,21,26,172,,142,142,10,29,7,7,0.6,0.8
2024-03-29T1800,3361A,103.7311,29.5628,乐山市,理工大学,,,31,44,20,30,180,,137,137,10,33,8,8,,0.6
2024-03-29T1800,2599A,100.2497,26.8802,丽江市,丽江古城,,32,32,32,18,20,98,,101,101,13,13,10,10,0.6,0.6
2024-03-29T1800,2600A,100.2203,26.8906,丽江市,市中心,,32,32,24,12,13,95,,100,100,13,12,6,12,0.5,0.5
2024-03-29T1800,1267A,119.914,28.4514,丽水市,监测站大楼,颗粒物(PM10),52,54,26,9,13,100,,113,113,26,21,4,5,0.4,0.5
2024-03-29T1800,1268A,119.93,28.4586,丽水市,莲都小学,颗粒物(PM10),53,56,26,3,9,102,,116,116,24,19,3,3,0.5,0.5
2024-03-29T1800,1269A,119.879,28.4231,丽水市,余庄前,,28,28,23,9,13,76,,106,102,14,14,4,4,0.3,0.5
2024-03-29T1800,1173A,119.176,34.5885,连云港市,市环境监测站,颗粒物(PM10),213,359,133,58,52,121,,112,112,21,16,8,9,,0.5
2024-03-29T1800,3000A,119.3581,34.6972,连云港市,德源药业,颗粒物(PM10),176,302,133,51,41,120,,113,113,26,13,6,6,0.6,0.6
2024-03-29T1800,3007A,119.178,34.844,连云港市,新城一中,颗粒物(PM10),115,179,105,48,50,121,,119,119,38,27,8,8,0.7,0.8
2024-03-29T1800,3008A,119.3608,34.7519,连云港市,胡沟管理处,颗粒物(PM10),190,329,150,46,44,118,,112,112,30,16,12,11,0.8,0.8
2024-03-29T1800,3009A,119.1478,34.5911,连云港市,矿山设计院,颗粒物(PM10),226,368,137,51,46,116,,110,110,24,16,5,7,0.8,0.8
2024-03-29T1800,3434A,119.2413,34.6539,连云港市,工贸学校,颗粒物(PM10),183,315,98,46,37,143,,127,127,17,14,9,9,0.4,0.8
2024-03-29T1800,3664A,119.4172,34.7341,连云港市,连云街道,颗粒物(PM10),157,263,119,33,36,146,,128,128,13,14,4,4,0.6,0.7
2024-03-29T1800,2571A,102.3431,27.8099,凉山彝族自治州,青龙寺,,35,24,17,5,3,111,,115,115,4,5,5,5,0.8,0.8
2024-03-29T1800,2572A,102.2721,27.8415,凉山彝族自治州,邛海宾馆,,39,32,18,17,10,122,,120,120,5,9,9,9,0.3,0.4
2024-03-29T1800,2573A,102.2625,27.898,凉山彝族自治州,西昌市政府,,35,35,21,21,12,109,,109,109,8,8,8,9,0.6,0.6
2024-03-29T1800,2574A,102.2685,27.8851,凉山彝族自治州,凉山州政府,,35,35,20,18,10,107,,108,108,7,8,8,8,0.7,0.7
2024-03-29T1800,2575A,102.237,27.8914,凉山彝族自治州,长安,,38,38,23,17,11,118,,115,115,10,9,11,10,0.7,0.7
2024-03-29T1800,2212A,123.2,41.1953,辽阳市,宏伟区,颗粒物(PM10),54,57,285,24,54,72,,90,88,27,19,15,13,1.0,0.9
2024-03-29T1800,2213A,123.1683,41.2495,辽阳市,新华园,,45,45,299,22,65,89,,102,101,18,26,13,11,0.6,0.9
2024-03-29T1800,2214A,123.2354,41.2639,辽阳市,滨河路,,48,48,300,22,57,93,,99,99,14,20,10,10,0.5,0.7
2024-03-29T1800,2215A,123.149,41.2991,辽阳市,铁西工业园,颗粒物(PM10),53,55,310,14,62,81,,93,92,20,25,20,15,0.9,1.1
2024-03-29T1800,2227A,125.1358,42.8845,辽源市,环保局,颗粒物(PM10),54,58,54,14,11,89,,93,93,2,6,8,8,0.4,0.4
2024-03-29T1800,3239A,125.0764,42.9078,辽源市,银鹰制药,颗粒物(PM10),68,85,68,14,10,85,,90,90,4,6,8,10,0.4,0.4
2024-03-29T1800,1625A,115.9848,36.4372,聊城市,区政府,颗粒物(PM10),130,210,234,30,40,92,,93,93,18,22,8,9,0.4,0.6
2024-03-29T1800,2878A,116.0072,36.4343,聊城市,聊大东校,颗粒物(PM10),120,189,218,36,44,100,,100,100,18,22,5,7,0.7,0.7
2024-03-29T1800,3200A,115.9819,36.4978,聊城市,监控中心,颗粒物(PM10),134,218,253,27,40,94,,94,94,15,20,6,9,0.2,0.4
2024-03-29T1800,4018A,116.0567,36.4608,聊城市,星美广场,颗粒物(PM10),140,229,253,27,45,88,,92,92,16,17,5,8,0.5,0.6
2024-03-29T1800,2632A,94.3681,29.6376,林芝市,林芝监测站,,27,20,12,7,4,85,,84,84,3,5,5,5,0.4,0.3
2024-03-29T1800,2633A,94.3616,29.6616,林芝市,林芝人民医院,,,,14,,6,94,,88,88,,7,6,6,0.5,0.4
2024-03-29T1800,2603A,100.0781,23.8982,临沧市,市环保局,细颗粒物(PM2.5),82,60,54,60,45,130,,118,118,7,12,7,7,0.4,0.6
2024-03-29T1800,2604A,100.0894,23.8822,临沧市,市气象局,颗粒物(PM10),56,62,59,37,42,126,,116,116,10,13,6,6,0.4,0.4
2024-03-29T1800,1733A,111.5531,36.0783,临汾市,临钢医院,颗粒物(PM10),101,151,116,44,29,141,,115,115,15,37,11,9,0.6,0.7
2024-03-29T1800,1734A,111.5028,36.0714,临汾市,技工学校,颗粒物(PM10),93,136,117,46,35,154,,120,120,14,39,11,9,0.6,0.6
2024-03-29T1800,1736A,111.5018,36.0855,临汾市,市委,颗粒物(PM10),96,142,108,39,25,146,,116,116,19,39,12,9,0.7,0.6
2024-03-29T1800,3018A,111.505,36.1014,临汾市,唐尧大酒店,颗粒物(PM10),96,142,108,35,27,138,,109,109,10,34,10,7,0.7,0.6
2024-03-29T1800,3668A,111.5036,36.0414,临汾市,城南,颗粒物(PM10),84,117,107,30,35,143,,114,114,18,40,13,11,0.6,0.7
2024-03-29T1800,2667A,103.2069,35.5993,临夏回族自治州,环保局,,43,43,77,15,29,99,,89,89,7,27,5,6,0.3,0.8
2024-03-29T1800,2668A,103.2417,35.6057,临夏回族自治州,建设大厦,,33,27,60,23,28,100,,92,92,8,23,6,6,0.2,0.5
2024-03-29T1800,1618A,118.3429,35.0532,临沂市,沂河小区,颗粒物(PM10),163,276,138,46,46,115,,114,114,20,22,8,8,0.7,0.7
2024-03-29T1800,1619A,118.295,35.0583,临沂市,鲁南制药厂,颗粒物(PM10),176,302,138,38,38,128,,127,127,21,22,8,8,0.7,0.7
2024-03-29T1800,1620A,118.2794,34.9976,临沂市,新光毛纺厂,颗粒物(PM10),164,278,129,42,45,117,,126,126,29,28,8,7,0.9,1
2024-03-29T1800,1621A,118.3956,35.0888,临沂市,河东保险公司,颗粒物(PM10),146,241,123,47,51,118,,114,114,26,26,6,6,0.5,0.6
2024-03-29T1800,3370A,118.3564,35.0215,临沂市,十里堡居委,颗粒物(PM10),165,280,126,46,47,122,,122,122,26,29,6,7,0.8,0.8
2024-03-29T1800,3496A,118.3604,35.1084,临沂市,南坊新区,颗粒物(PM10),159,268,134,46,51,122,,119,119,21,21,9,8,0.7,0.7
2024-03-29T1800,3860A,118.3920,35.0300,临沂市,皇山花园小区,颗粒物(PM10),185,320,133,55,57,112,,115,115,26,29,9,10,0.9,1.1
2024-03-29T1800,1870A,109.4856,24.3895,柳州市,柳东小学,,48,42,37,33,28,143,,125,125,11,17,8,10,0.5,0.5
2024-03-29T1800,1871A,109.4157,24.3277,柳州市,环保监测站,,42,26,47,20,34,133,,120,120,12,26,8,11,0.6,0.7
2024-03-29T1800,1872A,109.389,24.341,柳州市,河西水厂,,42,41,73,25,33,134,,119,119,14,31,6,15,0.1,0.3
2024-03-29T1800,1873A,109.4311,24.2921,柳州市,市四中,,41,37,52,25,30,131,,121,121,14,31,7,9,0.7,0.9
2024-03-29T1800,1874A,109.4006,24.3631,柳州市,市九中,颗粒物(PM10),56,61,82,30,37,138,,123,123,18,35,9,12,0.9,0.9
2024-03-29T1800,1875A,109.4958,24.3134,柳州市,古亭山,颗粒物(PM10),61,71,40,43,20,126,,116,116,15,30,7,7,0.6,0.4
2024-03-29T1800,3402A,109.5422,24.3996,柳州市,市二中,,44,44,34,26,22,138,,123,123,15,21,8,8,0.8,0.8
2024-03-29T1800,2307A,116.5079,31.737,六安市,监测大楼,,38,38,60,16,23,116,,112,112,15,18,4,5,0.4,0.5
2024-03-29T1800,2308A,116.4738,31.7643,六安市,皖西学院,,,,70,,22,112,,117,108,11,12,3,4,0.4,0.5
2024-03-29T1800,2309A,116.4996,31.7905,六安市,朝阳厂,,37,37,61,13,24,115,,112,112,10,11,5,5,0.3,0.4
2024-03-29T1800,2310A,116.5567,31.7886,六安市,开发区,,43,43,74,16,25,113,,111,111,29,17,4,4,0.4,0.6
2024-03-29T1800,2577A,104.83,26.5917,六盘水市,黄土坡,,43,38,33,30,21,133,,135,135,11,15,7,7,0.7,0.7
2024-03-29T1800,2578A,104.89,26.5939,六盘水市,水钢,,49,49,41,28,23,141,,136,136,8,14,7,9,0.6,0.6
2024-03-29T1800,2579A,104.8475,26.5894,六盘水市,民中,,47,47,34,31,21,126,,127,127,12,16,7,9,0.8,0.8
2024-03-29T1800,2580A,104.9544,26.5506,六盘水市,双水,细颗粒物(PM2.5),55,53,37,39,20,141,,130,130,11,14,8,8,0.5,0.4
2024-03-29T1800,2336A,117.0217,25.1033,龙岩市,龙岩市监测站,,33,,25,12,19,103,,110,110,12,16,5,7,0.4,0.5
2024-03-29T1800,2337A,117.0258,25.0661,龙岩市,闽西职业技术学院,,33,21,28,7,14,103,,105,105,10,15,4,8,0.4,0.5
2024-03-29T1800,2338A,117.0196,25.0306,龙岩市,龙岩学院,,34,20,25,10,14,107,,109,109,6,12,6,4,0.4,0.5
2024-03-29T1800,2885A,104.9339,33.3826,陇南市,滨江中学,,43,43,59,6,19,118,,101,101,3,21,5,18,0.4,0.6
2024-03-29T1800,3247A,104.955,33.371,陇南市,市总工会,,36,33,51,6,14,113,,100,100,4,18,8,14,0.3,0.6
2024-03-29T1800,2487A,111.9589,27.8901,娄底市,电视发射台,,45,45,42,17,19,117,,120,120,12,14,7,8,0.4,0.6
2024-03-29T1800,2488A,111.9975,27.725,娄底市,市监测站,,36,29,56,19,32,114,,118,118,9,33,8,13,0.7,1.2
2024-03-29T1800,2489A,112.0194,27.7314,娄底市,市委党校,,31,,52,20,30,99,,109,109,17,25,2,8,0.4,0.7
2024-03-29T1800,2490A,111.9561,27.7569,娄底市,涟钢,颗粒物(PM10),60,70,68,33,35,82,,81,81,40,40,36,27,1.5,1.6
2024-03-29T1800,2491A,111.9892,27.7044,娄底市,市政府,,,35,44,19,28,107,,110,110,,17,8,9,0.4,0.6
2024-03-29T1800,1893A,105.4324,28.9634,泸州市,九狮山,臭氧1小时,75,59,54,24,29,180,,132,132,14,21,12,8,0.4,0.4
2024-03-29T1800,1894A,105.4427,28.9063,泸州市,小市上码头,臭氧1小时,54,53,58,30,32,163,,116,116,16,25,14,13,0.4,0.5
2024-03-29T1800,1895A,105.4241,28.8573,泸州市,兰田宪桥,臭氧1小时,60,50,60,32,36,168,,118,118,16,28,12,9,0.4,0.4
2024-03-29T1800,1896A,105.4379,28.8833,泸州市,市环监站,臭氧1小时,54,50,53,26,29,163,,107,107,11,27,13,13,0.4,0.6
2024-03-29T1800,3490A,105.3617,28.7703,泸州市,纳溪区环保局,臭氧1小时,77,60,73,27,37,181,,138,138,13,28,9,9,0.6,0.7
2024-03-29T1800,2183A,111.1406,37.5211,吕梁市,环保局,颗粒物(PM10),51,52,115,17,29,114,,94,94,9,40,6,7,0.4,0.5
2024-03-29T1800,2185A,111.1297,37.5136,吕梁市,自来水公司,,48,48,119,21,32,108,,90,90,12,34,4,7,0.3,0.4
2024-03-29T1800,2867A,111.1283,37.51,吕梁市,马茂庄小学,颗粒物(PM10),56,62,136,19,32,114,,95,95,12,45,3,7,0.2,0.4
2024-03-29T1800,1812A,112.3931,34.6516,洛阳市,市委党校,颗粒物(PM10),64,77,78,27,29,112,,102,102,21,30,3,4,0.2,0.4
2024-03-29T1800,1814A,112.4657,34.6871,洛阳市,豫西宾馆,颗粒物(PM10),72,94,93,28,31,123,,112,112,22,38,7,8,0.2,0.4
2024-03-29T1800,1815A,112.494,34.6886,洛阳市,河南林校,颗粒物(PM10),70,89,77,28,31,119,,107,107,16,28,2,7,0.2,0.4
2024-03-29T1800,1816A,112.3844,34.623,洛阳市,开发区管委会,颗粒物(PM10),61,72,74,24,26,124,,112,112,13,32,4,3,0.1,0.2
2024-03-29T1800,1817A,112.4267,34.6258,洛阳市,市委新办公区,颗粒物(PM10),60,70,71,26,28,109,,108,108,20,22,5,6,0.5,0.5
2024-03-29T1800,3340A,112.6005,34.6326,洛阳市,伊滨,颗粒物(PM10),60,70,84,30,31,124,,111,111,18,27,4,8,0.3,0.4
2024-03-29T1800,3341A,112.4951,34.6332,洛阳市,中移产业园,颗粒物(PM10),62,74,73,25,24,122,,112,112,13,18,5,7,0.3,0.4
2024-03-29T1800,3593A,112.5736,34.8993,洛阳市,吉利监测站,颗粒物(PM10),117,184,100,74,26,120,,114,114,34,38,15,8,0.9,0.5
2024-03-29T1800,3635A,112.3677,34.662,洛阳市,河科大西苑校区,颗粒物(PM10),64,78,84,21,30,116,,103,103,10,28,3,5,0.2,0.3
2024-03-29T1800,3636A,112.4388,34.6781,洛阳市,英才小学,颗粒物(PM10),64,78,86,22,29,119,,106,106,15,38,6,8,0.3,0.6
2024-03-29T1800,2399A,114.051,33.5699,漯河市,三五一五工厂,细颗粒物(PM2.5),53,49,83,37,22,116,,110,110,4,12,7,8,0.4,0.5
2024-03-29T1800,2400A,114.0055,33.5698,漯河市,漯河大学,颗粒物(PM10),53,56,86,27,29,124,,116,116,2,18,5,8,0.3,0.4
2024-03-29T1800,2401A,114.0138,33.5828,漯河市,市水利局,颗粒物(PM10),52,53,78,19,26,125,,115,115,5,14,8,9,0.3,0.3
2024-03-29T1800,2402A,114.0261,33.5698,漯河市,市广电局,颗粒物(PM10),53,56,82,21,26,117,,110,110,1,8,3,5,0.6,0.5
2024-03-29T1800,3478A,113.9749,33.5664,漯河市,市图书馆,颗粒物(PM10),54,57,77,23,27,122,,114,114,6,11,6,5,0.4,0.4
2024-03-29T1800,3479A,114.0967,33.5906,漯河市,召陵区卫健委,颗粒物(PM10),54,57,85,21,28,106,,113,113,16,14,6,6,0.4,0.4
2024-03-29T1800,1798A,118.5092,31.6837,马鞍山市,湖东路四小,颗粒物(PM10),56,62,73,10,26,119,,127,127,18,29,10,11,0.7,1.1
2024-03-29T1800,1799A,118.5024,31.6449,马鞍山市,开发区,颗粒物(PM10),54,58,67,12,29,115,,128,126,28,36,8,8,0.7,1.3
2024-03-29T1800,1800A,118.5228,31.7231,马鞍山市,慈湖,颗粒物(PM10),52,54,64,14,32,116,,123,123,21,32,13,13,0.7,1.1
2024-03-29T1800,1802A,118.6245,31.7241,马鞍山市,濮塘,颗粒物(PM10),54,57,63,23,30,120,,121,121,15,22,7,7,0.6,0.9
2024-03-29T1800,3633A,118.4918,31.6809,马鞍山市,雨山,颗粒物(PM10),55,60,57,10,24,123,,130,130,14,34,7,8,0.6,1.3
2024-03-29T1800,1686A,111.0286,21.4688,茂名市,电白南海,,27,27,30,14,16,41,,47,47,11,11,6,6,0.7,0.8
2024-03-29T1800,1687A,110.9294,21.6533,茂名市,茂石化七小,,42,41,49,29,33,44,,67,67,13,15,8,8,0.7,0.7
2024-03-29T1800,1688A,110.9107,21.6687,茂名市,健康路,,31,31,38,17,25,43,,64,64,3,8,4,5,0.5,0.5
2024-03-29T1800,1689A,110.8592,21.6828,茂名市,高岭,颗粒物(PM10),57,63,59,29,30,40,,62,62,9,11,13,9,0.7,0.8
2024-03-29T1800,3450A,111.01,21.5165,茂名市,电白水东,,24,24,26,9,15,40,,50,49,10,11,5,5,0.6,0.6
2024-03-29T1800,2539A,104.0308,30.0478,眉山市,黑龙滩水库,臭氧1小时,74,32,30,16,17,179,,153,153,3,7,5,3,0.4,0.5
2024-03-29T1800,2540A,103.8416,30.0874,眉山市,气象局,臭氧1小时,58,39,43,9,16,166,,144,144,12,38,10,12,0.3,0.5
2024-03-29T1800,3137A,103.8578,30.0744,眉山市,市委党校,臭氧1小时,53,41,45,12,21,162,,139,139,13,44,9,10,0.3,0.4
2024-03-29T1800,3148A,103.8291,30.0564,眉山市,区人社局,臭氧1小时,54,16,31,12,20,163,,142,142,20,46,11,13,0.4,0.5
2024-03-29T1800,1690A,116.1231,24.3284,梅州市,梅江月梅,颗粒物(PM10),77,103,36,11,15,117,,116,116,10,23,9,12,0.4,0.4
2024-03-29T1800,1691A,116.0797,24.2719,梅州市,梅县新城,,37,25,33,21,18,116,,113,113,12,18,7,7,0.6,0.7
2024-03-29T1800,1692A,116.1248,24.2654,梅州市,环境监控中心,,33,31,39,18,19,103,,106,106,21,26,5,13,0.6,0.6
2024-03-29T1800,3315A,116.1233,24.2991,梅州市,梅龙,,36,27,27,18,18,114,,115,115,10,18,8,11,0.6,0.6
2024-03-29T1800,1878A,104.7778,31.4741,绵阳市,富乐山,臭氧1小时,64,43,47,24,26,171,,153,153,10,25,10,9,0.4,0.5
2024-03-29T1800,1879A,104.7563,31.4535,绵阳市,市人大,颗粒物(PM10),51,51,68,20,29,154,,141,141,19,47,17,9,0.5,0.7
2024-03-29T1800,1880A,104.6697,31.4668,绵阳市,高新区自来水公司,臭氧1小时,58,44,85,20,32,166,,149,149,12,48,10,10,0.3,0.5
2024-03-29T1800,1881A,104.7287,31.5075,绵阳市,三水厂,,50,48,72,19,38,160,,148,148,15,42,7,5,0.7,0.8
2024-03-29T1800,3491A,104.69,31.5322,绵阳市,西科大附属小学,臭氧1小时,60,45,59,21,26,168,,150,150,16,46,9,9,0.5,0.6
2024-03-29T1800,3492A,104.5648,31.5343,绵阳市,安州区旅游局,,49,41,59,22,31,155,,136,136,10,28,8,9,0.5,0.5
2024-03-29T1800,1784A,129.61,44.561,牡丹江市,环保大楼,颗粒物(PM10),51,51,190,26,49,80,,79,79,14,10,7,7,0.5,0.4
2024-03-29T1800,1785A,129.6115,44.5782,牡丹江市,文化广场,细颗粒物(PM2.5),55,54,200,39,59,62,,64,64,25,12,10,10,0.6,0.6
2024-03-29T1800,1786A,129.5904,44.5963,牡丹江市,第一医院,颗粒物(PM10),52,54,191,27,48,71,,70,70,16,13,9,8,0.6,0.6
2024-03-29T1800,1787A,129.6364,44.6075,牡丹江市,机车工厂,,49,49,187,33,50,57,,69,68,24,13,8,7,0.5,0.4
2024-03-29T1800,1788A,129.6386,44.5462,牡丹江市,第一中学,,50,50,184,22,20,79,,76,76,11,8,7,7,0.5,0.5
2024-03-29T1800,2531A,105.0703,29.61,内江市,市监测站,,47,,49,29,35,149,,114,114,25,39,10,9,0.4,0.5
2024-03-29T1800,2532A,105.0717,29.5947,内江市,东兴区政府,,50,47,52,19,28,160,,116,116,12,34,15,12,0.5,0.6
2024-03-29T1800,2533A,105.0653,29.5817,内江市,内江二中,,48,35,49,24,30,152,,115,115,12,38,11,9,0.6,0.8
2024-03-29T1800,2534A,105.0406,29.5822,内江市,内江日报社,,49,37,49,24,29,155,,119,119,23,47,17,15,0.7,0.8
2024-03-29T1800,2628A,92.0657,31.4846,那曲市,那曲监测站,,31,27,35,12,19,98,,92,92,5,8,5,7,0.3,0.6
2024-03-29T1800,3128A,92.0506,31.4797,那曲市,那曲会议中心,,32,31,41,5,12,101,,96,96,2,7,6,8,0.1,0.4
2024-03-29T1800,1290A,115.8931,28.6843,南昌市,省外办,,41,33,52,19,30,129,,121,121,6,21,7,10,0.4,0.5
2024-03-29T1800,1291A,115.8886,28.7003,南昌市,省林业公司,,40,31,50,12,27,126,,122,122,15,34,6,12,0.3,0.5
2024-03-29T1800,1292A,115.8126,28.7442,南昌市,林科所,,45,34,46,12,22,141,,135,135,12,42,11,13,0.6,0.7
2024-03-29T1800,1294A,115.8518,28.687,南昌市,建工学校,,40,38,58,17,25,125,,120,120,16,35,6,15,0.4,0.6
2024-03-29T1800,1295A,115.8921,28.6424,南昌市,象湖,,41,35,44,15,24,130,,130,130,20,24,7,10,0.5,0.7
2024-03-29T1800,1296A,115.7423,28.7996,南昌市,武术学校,,40,23,20,8,18,125,,131,131,8,7,16,11,0.3,0.4
2024-03-29T1800,1298A,115.9314,28.6842,南昌市,省站,,44,44,57,18,30,128,,126,126,11,22,10,13,0.4,0.7
2024-03-29T1800,3046A,115.9084,28.6062,南昌市,机电学校,,41,35,48,12,24,130,,128,128,15,22,10,11,0.5,0.7
2024-03-29T1800,3690A,115.9721,28.7031,南昌市,外国语学校,,40,38,49,15,26,127,,121,121,18,26,4,9,0.4,0.5
2024-03-29T1800,1905A,106.056,30.8064,南充市,西山风景区,,48,44,46,27,30,153,,132,132,11,21,8,8,0.3,0.4
2024-03-29T1800,1906A,106.0789,30.8023,南充市,南充市委,颗粒物(PM10),52,54,64,17,24,143,,123,123,21,42,11,9,0.4,0.6
2024-03-29T1800,1907A,106.1031,30.8217,南充市,南充炼油厂,颗粒物(PM10),61,72,75,27,37,154,,132,132,18,29,8,8,0.4,0.4
2024-03-29T1800,1908A,106.1064,30.7856,南充市,高坪区监测站,,46,43,60,18,32,145,,128,128,19,39,8,8,0.2,0.3
2024-03-29T1800,1909A,106.0642,30.7636,南充市,嘉陵区环保局,颗粒物(PM10),58,65,77,24,35,146,,126,126,17,44,14,14,0.2,0.4
2024-03-29T1800,1910A,106.1087,30.8388,南充市,市环境监测站,颗粒物(PM10),56,62,68,31,35,150,,138,138,28,28,7,7,0.3,0.3
2024-03-29T1800,1151A,118.8086,32.1065,南京市,迈皋桥,颗粒物(PM10),53,55,63,19,34,118,,123,123,21,26,8,7,0.6,0.7
2024-03-29T1800,1152A,118.7538,32.0551,南京市,草场门,颗粒物(PM10),51,51,60,22,36,111,,112,112,25,29,7,8,0.9,1.2
2024-03-29T1800,1153A,118.7794,32.0745,南京市,山西路,颗粒物(PM10),58,66,68,19,40,123,,126,126,30,30,6,7,0.8,1
2024-03-29T1800,1154A,118.7752,32.0023,南京市,中华门,颗粒物(PM10),52,53,61,19,33,119,,121,121,22,27,11,9,0.8,1
2024-03-29T1800,1155A,118.8109,32.0309,南京市,瑞金路,颗粒物(PM10),56,61,68,24,34,112,,120,120,35,34,6,10,0.6,0.7
2024-03-29T1800,1156A,118.7997,32.0754,南京市,玄武湖,颗粒物(PM10),53,56,61,21,35,125,,128,128,26,28,16,12,1.0,1
2024-03-29T1800,1157A,118.6414,32.0931,南京市,浦口,颗粒物(PM10),60,70,53,12,28,117,,116,116,19,23,6,6,0.3,0.5
2024-03-29T1800,1158A,118.7356,31.9996,南京市,奥体中心,颗粒物(PM10),57,63,70,19,34,117,,122,122,25,33,17,15,0.8,1
2024-03-29T1800,1159A,118.9125,32.1028,南京市,仙林大学城,颗粒物(PM10),56,61,59,12,31,126,,124,124,24,25,14,11,0.9,1
2024-03-29T1800,3422A,118.8436,31.9198,南京市,江宁彩虹桥,颗粒物(PM10),51,52,51,17,32,137,,136,136,9,21,4,4,0.3,0.6
2024-03-29T1800,3423A,119.0138,31.6494,南京市,溧水永阳,,48,48,46,20,23,120,,123,123,16,13,4,4,0.4,0.5
2024-03-29T1800,3424A,118.879,31.3302,南京市,高淳老职中,颗粒物(PM10),52,53,43,19,22,113,,121,121,7,10,4,6,0.4,0.5
2024-03-29T1800,3427A,118.8554,32.3578,南京市,六合雄州,,41,39,58,12,29,130,,125,125,15,33,7,10,0.5,1.1
2024-03-29T1800,1401A,108.3103,22.7881,南宁市,二十一中,细颗粒物(PM2.5),57,58,61,40,37,58,,92,92,42,43,17,11,1.0,1
2024-03-29T1800,1402A,108.3141,22.8528,南宁市,北湖,颗粒物(PM10),61,72,67,43,44,63,,94,90,40,40,10,14,1.0,0.9
2024-03-29T1800,1403A,108.3206,22.8225,南宁市,市监测站,颗粒物(PM10),59,67,65,38,39,62,,89,89,42,41,13,12,1.1,1.1
2024-03-29T1800,1404A,108.3829,22.8037,南宁市,大自然花园,细颗粒物(PM2.5),58,57,46,41,31,57,,93,93,32,35,6,8,0.8,0.8
2024-03-29T1800,1405A,108.4394,22.7904,南宁市,仙葫,颗粒物(PM10),51,51,44,30,26,47,,92,92,54,40,8,10,0.9,0.9
2024-03-29T1800,1406A,108.2397,22.8467,南宁市,区农职院,,,,66,,39,56,,85,85,41,36,7,13,0.9,1
2024-03-29T1800,1407A,108.3275,22.735,南宁市,英华嘉园,,46,44,57,32,33,53,,89,85,36,43,7,9,0.8,0.8
2024-03-29T1800,1408A,108.2257,22.7757,南宁市,沙井镇街道办,细颗粒物(PM2.5),54,42,79,38,44,43,,88,87,37,36,6,14,0.9,0.8
2024-03-29T1800,3401A,108.4834,22.7618,南宁市,红星社区,颗粒物(PM10),56,62,46,39,32,48,,97,97,45,36,8,8,1.0,1
2024-03-29T1800,2332A,118.1681,26.6369,南平市,南平市监测站,,38,38,24,23,15,90,,106,106,24,20,5,4,0.8,0.7
2024-03-29T1800,2333A,118.1825,26.6489,南平市,南平铝业有限公司,,32,32,23,18,15,94,,105,105,24,22,7,8,0.7,0.7
2024-03-29T1800,2334A,118.1756,26.6272,南平市,南平七中,,33,33,22,19,17,74,,107,107,38,17,5,4,1.0,0.6
2024-03-29T1800,1168A,120.9098,31.9663,南通市,狼山街道,,50,50,54,18,31,112,,126,126,50,48,10,10,0.6,0.8
2024-03-29T1800,1169A,120.86,32.0005,南通市,虹桥,颗粒物(PM10),56,61,70,26,46,115,,114,114,56,56,7,8,0.5,0.8
2024-03-29T1800,1170A,120.87,32.02,南通市,城中,颗粒物(PM10),62,74,75,21,41,127,,129,129,37,48,7,8,0.6,0.9
2024-03-29T1800,1171A,120.94,31.93,南通市,星湖花园,颗粒物(PM10),53,55,66,26,39,103,,98,98,48,57,10,9,0.7,0.9
2024-03-29T1800,1172A,120.81,32.0417,南通市,紫琅学院,颗粒物(PM10),61,71,64,27,34,84,,120,120,81,52,11,11,0.7,0.9
2024-03-29T1800,3291A,121.067,32.062,南通市,通州监测站,,,68,74,27,48,133,,133,133,28,43,11,10,,0.8
2024-03-29T1800,3432A,120.9348,31.9883,南通市,环境教育馆,颗粒物(PM10),63,75,67,25,39,118,,126,126,43,46,9,9,0.5,0.8
2024-03-29T1800,2404A,112.5224,33.0122,南阳市,瓦房庄,,50,50,65,21,28,102,,100,100,12,16,6,7,0.5,0.5
2024-03-29T1800,2405A,112.5003,32.9735,南阳市,汉画馆,颗粒物(PM10),55,60,70,25,30,107,,106,106,15,18,7,8,0.5,0.5
2024-03-29T1800,2406A,112.5573,33.027,南阳市,气象站,颗粒物(PM10),51,51,64,19,23,110,,108,108,14,17,6,7,0.3,0.3
2024-03-29T1800,2407A,112.5481,32.9689,南阳市,理工学院,,45,45,60,24,25,107,,104,104,11,15,5,6,0.5,0.6
2024-03-29T1800,4008A,112.5234,32.9922,南阳市,卧龙区政府,,50,50,65,19,27,98,,99,99,17,16,6,7,0.5,0.5
2024-03-29T1800,1234A,121.8358,29.911,宁波市,区环保大楼,颗粒物(PM10),62,74,52,30,28,87,,87,87,65,52,6,8,0.9,1
2024-03-29T1800,1235A,121.56,29.82,宁波市,万里学院,颗粒物(PM10),52,53,37,31,24,130,,127,127,28,33,8,8,0.7,0.8
2024-03-29T1800,1236A,121.713,29.9572,宁波市,龙赛医院,颗粒物(PM10),62,73,45,29,20,77,,109,109,82,50,10,8,0.8,0.7
2024-03-29T1800,1239A,121.633,29.7733,宁波市,钱湖水厂,,49,49,35,32,20,145,,126,126,20,16,8,7,0.8,0.8
2024-03-29T1800,1240A,121.5856,29.8635,宁波市,太古小学,,45,45,42,19,21,136,,125,125,17,34,8,8,0.8,0.9
2024-03-29T1800,1241A,121.524,29.8674,宁波市,市环境监测中心,颗粒物(PM10),53,55,53,28,21,125,,125,125,38,38,7,7,0.7,0.8
2024-03-29T1800,2871A,121.6147,29.9017,宁波市,万里国际学校,,49,43,42,25,28,154,,138,138,20,38,9,9,0.7,0.8
2024-03-29T1800,3710A,121.5594,29.8975,宁波市,白沙活动中心,颗粒物(PM10),56,61,42,20,19,136,,128,128,27,41,8,8,0.7,0.8
2024-03-29T1800,2341A,119.5388,26.6612,宁德市,宁德市监测站,,,45,39,26,28,133,,130,130,22,23,,7,0.9,0.8
2024-03-29T1800,3209A,119.5231,26.6562,宁德市,宁德一中,颗粒物(PM10),54,58,35,29,25,127,,125,125,36,21,9,8,0.9,0.7
2024-03-29T1800,2618A,98.8601,25.8567,怒江傈僳族自治州,州监测站,,49,49,31,32,21,90,,88,88,14,7,7,7,0.5,0.4
2024-03-29T1800,2619A,98.8546,25.8417,怒江傈僳族自治州,泸水一中,,42,38,27,29,19,72,,75,75,22,17,7,7,0.5,0.3
2024-03-29T1800,1888A,101.6891,26.571,攀枝花市,弄弄坪,,43,37,48,30,26,120,,122,122,9,33,7,21,0.4,0.8
2024-03-29T1800,1889A,101.5769,26.5928,攀枝花市,河门口,,45,45,52,27,27,127,,122,122,11,24,9,20,0.7,1
2024-03-29T1800,1890A,101.7169,26.585,攀枝花市,炳草岗,,40,35,57,21,25,125,,128,128,12,46,9,28,0.5,0.8
2024-03-29T1800,1891A,101.7369,26.5008,攀枝花市,仁和,,38,34,38,22,22,120,,128,128,12,19,6,11,0.4,0.5
2024-03-29T1800,2835A,101.7227,26.567,攀枝花市,四十中小,,40,40,45,24,23,126,,138,138,12,37,11,40,0.6,1.1
2024-03-29T1800,1604A,122.0303,41.1489,盘锦市,开发区,,41,41,203,11,33,90,,96,96,16,28,5,9,0.5,0.5
2024-03-29T1800,1605A,122.0485,41.0883,盘锦市,兴隆台,,36,36,208,11,33,88,,94,94,16,30,7,10,0.4,0.5
2024-03-29T1800,1606A,121.8297,41.1028,盘锦市,新生街道,,33,33,164,9,24,93,,98,98,15,26,8,11,0.5,0.5
2024-03-29T1800,1832A,113.3257,33.742,平顶山市,新华旅馆,颗粒物(PM10),55,60,77,21,25,128,,119,119,11,12,8,8,0.4,0.5
2024-03-29T1800,1833A,113.2919,33.737,平顶山市,规划设计院,颗粒物(PM10),55,59,67,20,23,114,,110,110,10,10,6,6,0.4,0.4
2024-03-29T1800,1834A,113.182,33.774,平顶山市,平顶山工学院,颗粒物(PM10),55,59,71,17,20,109,,110,110,7,7,5,5,0.4,0.4
2024-03-29T1800,3204A,113.3025,33.73,平顶山市,规划局,颗粒物(PM10),57,63,77,24,27,114,,107,107,10,10,8,8,0.3,0.1
2024-03-29T1800,3594A,112.8867,33.9116,平顶山市,石龙区,颗粒物(PM10),57,64,90,25,29,130,,120,120,7,18,9,11,0.3,0.4
2024-03-29T1800,2656A,106.6692,35.5461,平凉市,聚贤嘉苑,,40,32,40,11,17,125,,114,114,11,31,8,9,0.3,0.3
2024-03-29T1800,2657A,106.7021,35.5307,平凉市,博物馆,,44,44,49,20,19,127,,115,115,1,31,5,11,0.2,0.4
2024-03-29T1800,2347A,114.0997,27.5002,萍乡市,武功山,,30,16,22,7,9,95,,99,99,3,5,8,7,0.1,0.2
2024-03-29T1800,2348A,113.8385,27.6434,萍乡市,中医院,,40,40,37,21,20,107,,108,108,19,27,4,3,0.8,0.7
2024-03-29T1800,2349A,113.8493,27.6253,萍乡市,市政府车库,,34,31,32,22,20,107,,108,108,17,18,7,7,0.8,0.7
2024-03-29T1800,2350A,113.8676,27.6435,萍乡市,市环保局,,41,41,38,22,22,104,,105,105,24,23,10,8,0.9,0.7
2024-03-29T1800,2351A,113.866,27.6198,萍乡市,安源区政府,,36,29,37,12,16,113,,109,109,9,16,7,8,0.6,0.7
2024-03-29T1800,2319A,119.0141,25.4325,莆田市,荔城区仓后路,,47,35,70,23,48,149,,152,152,16,34,6,6,0.8,1.1
2024-03-29T1800,2320A,119.0015,25.4553,莆田市,莆田市监测站,,50,40,45,19,30,158,,157,157,14,16,7,8,0.8,0.9
2024-03-29T1800,2321A,119.1119,25.4561,莆田市,涵江区六中,,49,37,58,17,37,154,,151,151,18,41,6,8,0.8,1
2024-03-29T1800,2322A,119.1013,25.3215,莆田市,秀屿区政府,,39,39,45,14,34,123,,134,134,26,25,9,12,0.9,1
2024-03-29T1800,2392A,115.0312,35.7636,濮阳市,环保局,颗粒物(PM10),134,218,150,54,38,127,,112,112,18,21,11,11,0.7,0.5
2024-03-29T1800,2394A,115.0574,35.7609,濮阳市,油田运输公司,颗粒物(PM10),144,237,169,56,38,126,,113,113,22,22,13,13,0.5,0.5
2024-03-29T1800,2395A,115.0866,35.7754,濮阳市,油田物探公司,,,,171,,43,,,104,104,21,20,9,11,0.5,0.4
2024-03-29T1800,3021A,115,35.7668,濮阳市,濮水河管理处,颗粒物(PM10),135,220,160,52,40,118,,106,106,24,27,11,10,0.3,0.3
2024-03-29T1800,2601A,100.98,22.7633,普洱市,市环保局,细颗粒物(PM2.5),68,72,66,49,49,136,,125,125,10,14,8,9,0.7,0.6
2024-03-29T1800,2602A,100.9817,22.8322,普洱市,普洱第二中学,细颗粒物(PM2.5),82,66,60,60,36,143,,125,125,12,29,8,9,1.0,0.7
2024-03-29T1800,2262A,131.0518,45.8751,七台河市,新一中,颗粒物(PM10),63,75,150,13,43,85,,90,89,7,10,8,8,0.8,0.9
2024-03-29T1800,3345A,131.0577,45.7879,七台河市,中波台,颗粒物(PM10),64,78,113,27,34,61,,81,78,25,15,8,7,0.9,0.7
2024-03-29T1800,3637A,131.0176,45.7761,七台河市,人民广场,颗粒物(PM10),54,57,135,29,42,56,,80,77,28,12,6,7,0.8,0.7
2024-03-29T1800,3684A,130.8781,45.8222,七台河市,新建矿广场,,48,46,130,33,37,72,,80,79,20,15,7,8,0.7,0.7
2024-03-29T1800,1779A,123.9305,47.3636,齐齐哈尔市,安居小区,,39,29,23,27,12,69,,74,74,8,9,11,12,0.3,0.3
2024-03-29T1800,1780A,123.9488,47.3386,齐齐哈尔市,中心广场,,31,31,27,13,11,64,,71,71,15,9,6,6,0.7,0.6
2024-03-29T1800,1781A,123.9483,47.3227,齐齐哈尔市,农牧车辆厂,,24,24,26,8,9,71,,74,74,6,8,7,8,0.3,0.3
2024-03-29T1800,1783A,123.945,47.2988,齐齐哈尔市,市环境监测站,,34,34,27,23,13,69,,73,73,10,8,3,3,0.3,0.3
2024-03-29T1800,3662A,123.6333,47.2075,齐齐哈尔市,富区青少年活动中心,,36,36,40,11,14,66,,74,73,15,14,7,19,0.5,0.9
2024-03-29T1800,2591A,107.9783,26.5747,黔东南苗族侗族自治州,市环境监测站,,35,28,29,16,19,111,,97,97,7,23,3,2,0.4,0.5
2024-03-29T1800,2881A,107.8908,26.5311,黔东南苗族侗族自治州,凯里学院,,38,25,32,18,19,119,,103,103,3,17,4,4,0.4,0.4
2024-03-29T1800,2593A,107.5228,26.2403,黔南布依族苗族自治州,小围寨,,31,22,20,14,12,98,,80,80,5,16,2,4,0.3,0.1
2024-03-29T1800,3538A,107.5175,26.2978,黔南布依族苗族自治州,沙坝,,38,24,29,14,16,120,,104,104,4,11,3,4,0.3,0.3
2024-03-29T1800,2589A,104.9022,25.0925,黔西南布依族苗族自治州,场坝街,,39,39,32,16,18,117,,101,101,8,10,2,4,0.2,0.2
2024-03-29T1800,2590A,104.8811,25.0992,黔西南布依族苗族自治州,坪东大道,,34,20,27,16,17,107,,95,95,7,11,2,4,0.2,0.2
2024-03-29T1800,2502A,108.6236,21.9667,钦州市,市环保站,,31,31,62,19,27,83,,83,83,23,25,5,10,0.9,1.3
2024-03-29T1800,2503A,108.6549,21.9481,钦州市,沙埠小学,,35,,56,24,32,87,,87,87,22,27,5,10,0.9,1.1
2024-03-29T1800,2504A,108.5989,21.7431,钦州市,港区一小,,32,31,81,22,29,98,,79,79,18,34,6,9,0.8,0.9
2024-03-29T1800,3404A,108.5959,21.9633,钦州市,北职校,,42,41,58,29,35,72,,88,88,31,22,7,11,0.8,1.1
2024-03-29T1800,1042A,119.5134,39.8207,秦皇岛市,北戴河环保局,颗粒物(PM10),58,65,108,12,18,92,,96,96,12,22,8,8,0.4,0.4
2024-03-29T1800,1043A,119.7493,40.0116,秦皇岛市,第一关,颗粒物(PM10),57,64,124,20,28,90,,93,93,16,36,7,8,0.4,0.4
2024-03-29T1800,1044A,119.5897,39.9499,秦皇岛市,监测站,颗粒物(PM10),56,61,116,14,27,91,,99,99,14,31,6,7,0.4,0.5
2024-03-29T1800,1046A,119.5251,39.9041,秦皇岛市,建设大厦,颗粒物(PM10),52,54,108,13,26,92,,97,97,12,28,5,6,0.3,0.4
2024-03-29T1800,3132A,119.610547,39.943889,秦皇岛市,文明里,颗粒物(PM10),57,64,130,15,22,86,,93,93,21,32,4,5,0.5,0.5
2024-03-29T1800,1307A,120.6659,36.2403,青岛市,仰口,颗粒物(PM10),90,129,240,27,53,86,,92,92,10,13,3,4,0.2,0.4
2024-03-29T1800,1310A,120.4134,36.0658,青岛市,市南区东部子站,颗粒物(PM10),133,215,184,34,48,89,,89,89,22,20,8,9,0.5,0.7
2024-03-29T1800,1311A,120.3664,36.1032,青岛市,四方区子站,颗粒物(PM10),109,168,172,29,56,74,,94,94,42,28,24,7,0.7,0.9
2024-03-29T1800,1312A,120.2994,36.054,青岛市,市南区西部子站,颗粒物(PM10),112,173,175,29,53,88,,93,93,,31,6,7,0.6,0.9
2024-03-29T1800,1313A,120.4581,36.0858,青岛市,崂山区子站,颗粒物(PM10),135,219,191,31,50,100,,96,96,18,21,7,7,0.4,0.6
2024-03-29T1800,1314A,120.1983,35.9608,青岛市,黄岛区子站,颗粒物(PM10),111,171,184,37,56,66,,90,89,50,27,10,7,0.6,0.8
2024-03-29T1800,1315A,120.3999,36.3083,青岛市,城阳区子站,颗粒物(PM10),98,146,189,22,46,93,,96,96,14,26,8,8,0.6,0.8
2024-03-29T1800,1966A,120.0405,35.8735,青岛市,黄岛区4号,颗粒物(PM10),137,224,180,44,52,80,,100,100,36,25,7,9,0.5,0.7
2024-03-29T1800,3362A,120.5014,36.4034,青岛市,即墨2号,颗粒物(PM10),80,110,189,19,55,92,,95,95,10,19,4,6,0.4,0.7
2024-03-29T1800,3642A,120.3503,36.0736,青岛市,市北区南部,颗粒物(PM10),133,216,172,34,47,80,,92,92,37,30,8,8,0.4,0.7
2024-03-29T1800,3643A,120.3948,36.1805,青岛市,李沧区北部,颗粒物(PM10),109,168,188,31,55,96,,101,101,23,29,8,9,0.6,0.7
2024-03-29T1800,1702A,113.0426,23.691,清远市,环保大楼,,40,40,23,22,17,113,,102,102,18,14,6,5,1.0,0.8
2024-03-29T1800,1703A,113.0208,23.7106,清远市,凤城街办,,46,46,30,27,17,132,,117,117,1,13,8,5,0.6,0.5
2024-03-29T1800,3025A,113.0477,23.6344,清远市,技师学院,颗粒物(PM10),60,70,42,36,21,143,,128,128,20,29,7,6,0.5,0.5
2024-03-29T1800,3318A,112.9903,23.7403,清远市,清新太和,,47,47,29,22,14,96,,107,107,28,21,6,6,0.7,0.6
2024-03-29T1800,3455A,113.076,23.7198,清远市,清城东城,,,44,26,24,15,100,,106,106,30,23,,6,,0.3
2024-03-29T1800,2661A,107.6325,35.7357,庆阳市,庆阳五中,颗粒物(PM10),52,54,75,14,22,113,,116,116,4,12,5,7,0.2,0.3
2024-03-29T1800,2662A,107.6364,35.7067,庆阳市,市环保局,,38,38,65,11,22,113,,116,115,9,11,4,7,0.2,0.2
2024-03-29T1800,1916A,103.7897,25.5035,曲靖市,环境监测站,颗粒物(PM10),52,54,43,25,26,139,,135,135,9,12,6,8,0.4,0.6
2024-03-29T1800,1917A,103.8,25.5364,曲靖市,烟厂办公区,,48,48,38,18,20,140,,132,132,8,10,4,4,0.5,0.5
2024-03-29T1800,3376A,103.7947,25.462,曲靖市,南苑二区,,,37,42,29,26,121,,114,114,,13,,9,0.5,0.6
2024-03-29T1800,3377A,103.7444,25.5261,曲靖市,曲靖师范学院,颗粒物(PM10),53,55,39,26,29,130,,124,124,11,11,6,7,0.5,0.6
2024-03-29T1800,1264A,118.8692,28.9398,衢州市,环保大楼,,39,39,36,14,23,110,,116,116,20,17,6,8,0.4,0.5
2024-03-29T1800,1265A,118.8709,28.9666,衢州市,实验学校,颗粒物(PM10),52,54,41,22,21,108,,113,113,16,17,4,7,0.4,0.5
2024-03-29T1800,1266A,118.8621,28.9808,衢州市,衢州学院,,36,34,34,11,22,115,,117,117,20,23,8,9,0.3,0.4
2024-03-29T1800,1611A,118.5819,24.9117,泉州市,涂山街,,50,50,76,23,47,142,,154,154,26,39,4,6,0.9,0.8
2024-03-29T1800,1612A,118.5972,24.8978,泉州市,津头埔,,46,46,66,26,44,142,,150,150,32,43,5,7,0.8,0.9
2024-03-29T1800,1613A,118.6663,24.9424,泉州市,万安,,48,42,59,14,35,152,,165,165,13,32,4,6,0.7,0.8
2024-03-29T1800,3529A,118.6333,24.9264,泉州市,城华南路,,45,35,63,19,39,142,,161,161,25,40,5,7,0.5,0.6
2024-03-29T1800,2626A,88.8876,29.2718,日喀则市,日喀则监测站,,35,23,26,7,10,109,,96,96,4,8,5,4,0.4,0.4
2024-03-29T1800,3726A,88.8781,29.2426,日喀则市,林业技术推广中心,颗粒物(PM10),51,51,23,4,5,110,,96,96,6,9,5,5,0.4,0.4
2024-03-29T1800,1659A,119.471,35.4209,日照市,监测站,颗粒物(PM10),200,349,188,51,56,109,,104,104,33,32,9,11,0.6,0.8
2024-03-29T1800,1660A,119.523,35.4216,日照市,市政府广场,颗粒物(PM10),168,285,177,48,53,112,,107,107,28,27,8,9,0.6,0.8
2024-03-29T1800,1661A,119.5587,35.4044,日照市,港务局,颗粒物(PM10),164,278,188,44,50,100,,107,107,36,32,6,8,0.9,1.1
2024-03-29T1800,3507A,119.5328,35.4625,日照市,职业技术学院,颗粒物(PM10),178,305,193,46,51,110,,104,104,25,26,8,9,0.6,0.9
2024-03-29T1800,3604A,119.3266,35.1044,日照市,岚山环保分局,颗粒物(PM10),230,371,167,51,52,102,,104,104,45,27,10,11,0.7,1.1
2024-03-29T1800,1835A,111.1922,34.7752,三门峡市,市政府,颗粒物(PM10),62,73,71,24,23,127,,104,104,12,42,9,10,0.3,0.5
2024-03-29T1800,1836A,111.1587,34.7942,三门峡市,开发区,颗粒物(PM10),62,74,76,28,22,124,,103,103,14,31,11,13,0.3,0.6
