timepoint,stationcode,longitude,latitude,area,positionname,primarypollutant,aqi,pm10,pm10_24h,pm2_5,pm2_5_24h,o3,o3_24h,o3_8h,o3_8h_24h,no2,no2_24h,so2,so2_24h,co,co_24h
2023-03-07T19:00:00,1001A,116.3621,39.8784,北京市,万寿西宫,细颗粒物(PM2.5),212,235,231,162,169,171,106,136,136,62,63,4,6,1.4,1.4
2023-03-07T19:00:00,1002A,116.2202,40.2915,北京市,定陵,细颗粒物(PM2.5),228,242,136,178,95,155,131,138,138,41,23,6,5,1.4,0.9
2023-03-07T19:00:00,1003A,116.4174,39.9289,北京市,东四,细颗粒物(PM2.5),219,251,249,169,171,175,140,137,137,63,58,7,8,1.3,1.5
2023-03-07T19:00:00,1004A,116.4072,39.8863,北京市,天坛,细颗粒物(PM2.5),218,228,234,168,173,169,93,124,124,51,59,2,5,1.1,1.4
2023-03-07T19:00:00,1005A,116.462,39.9365,北京市,农展馆,细颗粒物(PM2.5),211,240,248,161,171,169,120,127,127,63,64,4,8,1.1,1.4
2023-03-07T19:00:00,1006A,116.3392,39.9295,北京市,官园,细颗粒物(PM2.5),220,239,235,170,163,169,100,135,135,86,65,7,9,1.3,1.3
2023-03-07T19:00:00,1007A,116.2878,39.9611,北京市,海淀万柳,细颗粒物(PM2.5),226,258,215,176,147,138,77,101,101,86,67,3,4,1.4,1.2
2023-03-07T19:00:00,1008A,116.6636,40.135,北京市,顺义新城,细颗粒物(PM2.5),247,285,227,197,149,162,141,147,147,58,60,10,10,1.4,1.5
2023-03-07T19:00:00,1009A,116.6275,40.3275,北京市,怀柔镇,细颗粒物(PM2.5),247,330,188,197,109,148,86,128,126,96,38,7,6,1.9,1.1
2023-03-07T19:00:00,1010A,116.2296,40.217,北京市,昌平镇,细颗粒物(PM2.5),234,261,155,184,104,155,129,141,141,64,42,4,5,1.5,0.9
2023-03-07T19:00:00,1011A,116.3966,39.9821,北京市,奥体中心,细颗粒物(PM2.5),235,272,234,185,170,150,98,116,116,84,68,8,7,1.3,1.3
2023-03-07T19:00:00,1012A,116.184,39.9136,北京市,古城,细颗粒物(PM2.5),219,257,197,169,126,177,109,142,142,82,62,5,5,1.8,1.4
2023-03-07T19:00:00,1015A,117.1444,39.1661,天津市,勤俭道,细颗粒物(PM2.5),170,222,190,129,120,207,100,171,169,84,80,11,13,1.2,1.2
2023-03-07T19:00:00,1017A,117.237,39.1082,天津市,大直沽八号路,细颗粒物(PM2.5),262,331,224,212,146,198,78,154,151,116,88,14,13,1.7,1.4
2023-03-07T19:00:00,1018A,117.202,39.0927,天津市,前进道,细颗粒物(PM2.5),247,307,195,197,131,201,84,160,157,108,85,11,11,1.7,1.3
2023-03-07T19:00:00,1019A,117.1837,39.2133,天津市,淮河道,细颗粒物(PM2.5),256,383,241,206,127,215,82,173,170,113,93,17,13,2.4,1.4
2023-03-07T19:00:00,1021A,117.307,39.0877,天津市,跃进路,细颗粒物(PM2.5),279,325,243,229,162,206,92,150,150,101,90,15,14,1.3,1.1
2023-03-07T19:00:00,1023A,117.707,39.0343,天津市,第四大街,细颗粒物(PM2.5),281,343,330,231,222,129,129,69,69,91,135,13,15,1.5,1.9
2023-03-07T19:00:00,1024A,117.457,38.8394,天津市,永明路,细颗粒物(PM2.5),302,339,278,252,206,160,69,121,118,126,109,11,12,1.8,1.7
2023-03-07T19:00:00,1026A,117.764,39.1587,天津市,汉北路,细颗粒物(PM2.5),276,286,293,226,229,110,78,83,83,73,107,8,12,1.1,1.8
2023-03-07T19:00:00,1027A,117.157,38.9194,天津市,团泊洼,细颗粒物(PM2.5),246,295,197,196,132,183,81,152,152,85,74,14,11,1.8,1.3
2023-03-07T19:00:00,1029A,114.4422,38.0444,石家庄市,职工医院,细颗粒物(PM2.5),97,136,177,72,115,168,166,160,160,24,63,13,14,0.7,0.8
2023-03-07T19:00:00,1030A,114.6063,38.0266,石家庄市,高新区,细颗粒物(PM2.5),113,120,177,85,99,183,166,167,167,22,62,15,12,0.9,1.1
2023-03-07T19:00:00,1031A,114.4898,38.1328,石家庄市,西北水源,细颗粒物(PM2.5),115,124,175,87,95,167,165,150,150,25,67,10,9,0.8,0.9
2023-03-07T19:00:00,1032A,114.4586,38.0058,石家庄市,西南高教,细颗粒物(PM2.5),98,139,210,73,121,163,154,154,154,30,64,16,15,0.9,1.1
2023-03-07T19:00:00,1033A,114.5331,38.0178,石家庄市,世纪公园,细颗粒物(PM2.5),107,126,175,80,109,165,143,148,148,34,60,14,11,1.0,1.2
2023-03-07T19:00:00,1034A,114.509,38.0457,石家庄市,人民会堂,颗粒物(PM10),90,130,174,53,109,174,165,157,157,26,56,17,15,0.9,1
2023-03-07T19:00:00,1035A,114.3524,37.8911,石家庄市,封龙山,颗粒物(PM10),74,97,128,39,70,178,175,168,154,43,31,19,16,1.0,0.7
2023-03-07T19:00:00,1037A,118.131,39.6363,唐山市,雷达站,细颗粒物(PM2.5),225,252,227,175,161,182,108,151,151,66,54,14,16,1.4,1.6
2023-03-07T19:00:00,1038A,118.1725,39.6334,唐山市,物资局,细颗粒物(PM2.5),200,219,217,150,151,176,94,144,144,85,67,11,17,1.2,1.7
2023-03-07T19:00:00,1040A,118.1705,39.6506,唐山市,十二中,细颗粒物(PM2.5),224,226,228,174,167,184,110,151,151,98,79,13,19,1.2,1.7
2023-03-07T19:00:00,1041A,118.1869,39.622,唐山市,小山,细颗粒物(PM2.5),209,228,239,159,164,194,110,156,156,71,66,11,17,1.2,1.6
2023-03-07T19:00:00,1042A,119.5134,39.8207,秦皇岛市,北戴河环保局,,42,26,113,29,93,121,112,111,111,22,40,1,6,0.5,0.7
2023-03-07T19:00:00,1043A,119.7493,40.0116,秦皇岛市,第一关,细颗粒物(PM2.5),149,131,138,114,101,103,43,89,85,64,64,1,5,0.9,0.8
2023-03-07T19:00:00,1044A,119.5897,39.9499,秦皇岛市,监测站,细颗粒物(PM2.5),102,111,148,76,120,107,53,88,86,77,77,3,6,0.8,1
2023-03-07T19:00:00,1046A,119.5251,39.9041,秦皇岛市,建设大厦,细颗粒物(PM2.5),67,79,158,48,91,105,69,88,88,52,76,2,8,0.7,1
2023-03-07T19:00:00,1048A,114.5302,36.6116,邯郸市,东污水处理厂,细颗粒物(PM2.5),118,116,170,89,109,191,162,161,161,20,72,15,33,0.9,1.9
2023-03-07T19:00:00,1049A,114.4918,36.5713,邯郸市,矿院,细颗粒物(PM2.5),119,146,178,90,108,184,162,163,163,19,63,14,30,1.2,2.2
2023-03-07T19:00:00,1050A,114.484,36.6133,邯郸市,丛台公园,细颗粒物(PM2.5),105,141,161,79,106,190,156,158,158,18,66,18,43,0.8,2.3
2023-03-07T19:00:00,1051A,115.493,38.8632,保定市,游泳馆,颗粒物(PM10),105,160,177,71,127,181,149,141,141,29,75,22,19,0.6,1
2023-03-07T19:00:00,1052A,115.5213,38.8959,保定市,华电二区,细颗粒物(PM2.5),97,139,171,72,124,170,143,133,133,29,72,10,12,0.5,1
2023-03-07T19:00:00,1053A,115.4713,38.9108,保定市,接待中心,,,133,176,57,116,160,,125,125,22,62,12,10,0.5,1.1
2023-03-07T19:00:00,1054A,115.4612,38.8416,保定市,地表水厂,细颗粒物(PM2.5),124,155,210,94,124,158,131,127,127,34,83,15,14,0.8,1.1
2023-03-07T19:00:00,1056A,115.5086,38.8639,保定市,监测站,细颗粒物(PM2.5),107,153,156,80,108,180,150,139,139,30,82,10,8,0.9,0.9
2023-03-07T19:00:00,1057A,114.8883,40.8336,张家口市,人民公园,颗粒物(PM10),83,116,60,15,18,104,89,94,94,6,15,5,8,0.3,0.3
2023-03-07T19:00:00,1059A,114.8687,40.8042,张家口市,五金库,,,124,60,22,25,103,82,89,89,10,24,9,8,,0.3
2023-03-07T19:00:00,1060A,114.8902,40.762,张家口市,世纪豪园,颗粒物(PM10),99,148,70,30,28,103,87,91,91,14,22,7,10,0.6,0.8
2023-03-07T19:00:00,1061A,114.8916,40.8661,张家口市,北泵房,颗粒物(PM10),69,88,57,29,23,116,96,106,106,6,14,7,14,0.1,0.2
2023-03-07T19:00:00,1062A,117.9531,40.9081,承德市,铁路,细颗粒物(PM2.5),112,146,63,84,31,149,117,119,119,48,40,14,11,0.7,0.6
2023-03-07T19:00:00,1063A,117.9392,40.9763,承德市,中国银行,细颗粒物(PM2.5),103,127,74,77,34,143,103,116,116,44,37,14,10,1.0,0.6
2023-03-07T19:00:00,1064A,117.9503,40.928,承德市,开发区,颗粒物(PM10),84,117,78,50,33,153,107,130,130,52,47,20,12,0.8,0.7
2023-03-07T19:00:00,1065A,117.8051,40.9655,承德市,文化中心,细颗粒物(PM2.5),117,152,94,88,42,144,126,125,125,32,43,14,16,0.8,0.8
2023-03-07T19:00:00,1066A,117.9268,41.0026,承德市,离宫,细颗粒物(PM2.5),103,124,58,77,27,158,158,141,141,14,18,15,14,0.6,0.5
2023-03-07T19:00:00,1067A,116.6708,39.5111,廊坊市,药材公司,细颗粒物(PM2.5),169,260,228,128,143,187,59,130,130,134,81,8,9,1.6,1.4
2023-03-07T19:00:00,1068A,116.7214,39.5589,廊坊市,开发区,细颗粒物(PM2.5),185,227,227,139,153,192,108,138,138,76,118,16,16,1.2,1.5
2023-03-07T19:00:00,1070A,116.7244,39.5269,廊坊市,北华航天学院,细颗粒物(PM2.5),210,261,231,160,157,186,72,128,128,113,94,10,10,1.4,1.4
2023-03-07T19:00:00,1071A,116.8842,38.2991,沧州市,沧县城建局,颗粒物(PM10),92,134,195,59,138,212,144,193,187,46,68,11,23,1.0,1.2
2023-03-07T19:00:00,1072A,116.8584,38.3254,沧州市,电视转播站,颗粒物(PM10),80,109,171,57,120,213,164,189,189,33,63,13,22,0.6,1.1
2023-03-07T19:00:00,1073A,116.8709,38.3228,沧州市,市环保局,细颗粒物(PM2.5),94,132,179,70,115,209,149,183,183,45,77,9,16,0.6,1
2023-03-07T19:00:00,1074A,115.6838,37.7541,衡水市,电机北厂,颗粒物(PM10),96,141,176,70,101,207,173,190,188,19,54,7,8,0.4,0.6
2023-03-07T19:00:00,1075A,115.6303,37.7316,衡水市,市监测站,颗粒物(PM10),112,173,194,77,108,206,164,182,182,18,36,10,11,0.7,0.9
2023-03-07T19:00:00,1077A,114.4704,37.0886,邢台市,达活泉,细颗粒物(PM2.5),118,134,167,89,107,188,150,154,154,22,57,15,17,0.9,1.5
2023-03-07T19:00:00,1078A,114.5062,37.0349,邢台市,邢师高专,细颗粒物(PM2.5),89,122,144,66,93,190,147,152,152,22,64,11,16,0.8,1.4
2023-03-07T19:00:00,1079A,114.5237,37.0851,邢台市,路桥公司,细颗粒物(PM2.5),105,146,156,79,102,187,143,155,155,21,58,14,16,0.6,1.2
2023-03-07T19:00:00,1080A,114.4725,37.0719,邢台市,市环保局,细颗粒物(PM2.5),100,148,169,75,95,192,156,156,156,22,52,13,15,0.8,1.2
2023-03-07T19:00:00,1081A,112.522,37.8873,太原市,尖草坪,颗粒物(PM10),56,62,94,24,36,119,85,89,89,34,58,4,17,0.3,0.6
2023-03-07T19:00:00,1083A,112.434,38.0108,太原市,上兰,,,,,,,,,,,,,,,,
2023-03-07T19:00:00,1084A,112.469,37.7124,太原市,晋源,,46,46,90,17,37,117,85,94,94,33,54,5,13,0.3,0.6
2023-03-07T19:00:00,1085A,112.5583,37.7394,太原市,小店,颗粒物(PM10),52,54,114,18,42,119,94,96,96,28,62,4,11,0.3,0.6
2023-03-07T19:00:00,1086A,112.5369,37.8692,太原市,桃园,,48,48,92,22,37,119,95,92,92,23,64,4,19,0.4,0.7
2023-03-07T19:00:00,1087A,112.57,37.8195,太原市,坞城,颗粒物(PM10),51,52,95,18,38,120,88,95,95,33,64,6,17,0.4,0.7
2023-03-07T19:00:00,1088A,112.549,37.9854,太原市,南寨,颗粒物(PM10),52,53,106,21,35,118,96,90,90,24,61,2,13,0.1,0.6
2023-03-07T19:00:00,1090A,111.6507,40.7517,呼和浩特市,呼市一监,颗粒物(PM10),91,132,139,31,74,97,77,76,76,16,49,6,20,0.4,1
2023-03-07T19:00:00,1091A,111.6572,40.8033,呼和浩特市,小召,颗粒物(PM10),106,161,134,,59,110,,82,82,,70,,24,,1
2023-03-07T19:00:00,1094A,111.7516,40.8369,呼和浩特市,如意水处理厂,颗粒物(PM10),74,97,124,29,54,118,86,90,90,16,62,9,19,0.4,0.9
2023-03-07T19:00:00,1095A,111.7276,40.8062,呼和浩特市,二十九中,颗粒物(PM10),97,144,132,30,58,120,86,91,91,15,54,8,15,0.4,0.8
2023-03-07T19:00:00,1096A,111.5512,40.7866,呼和浩特市,工大金川校区,颗粒物(PM10),75,100,118,27,49,112,90,91,91,11,51,6,16,0.4,0.8
2023-03-07T19:00:00,1097A,111.717,40.7612,呼和浩特市,化肥厂生活区,颗粒物(PM10),76,102,146,23,66,108,85,89,89,14,50,8,19,0.3,0.9
2023-03-07T19:00:00,1098A,123.6836,41.9339,沈阳市,森林路,,,,,,,,,,,,,,,,
2023-03-07T19:00:00,1099A,123.505,41.7406,沈阳市,浑南东路,颗粒物(PM10),61,72,116,40,80,116,98,112,110,26,55,25,24,0.6,1.4
2023-03-07T19:00:00,1100A,123.4231,41.6989,沈阳市,新秀街,颗粒物(PM10),62,73,117,35,64,108,91,103,102,20,48,15,33,0.7,1.4
2023-03-07T19:00:00,1102A,123.5903,41.8411,沈阳市,东陵路,细颗粒物(PM2.5),62,71,116,44,81,109,87,103,102,26,46,16,16,0.7,1.3
2023-03-07T19:00:00,1103A,123.4264,41.8467,沈阳市,陵东街,颗粒物(PM10),61,72,124,40,78,122,86,112,107,36,65,16,17,0.8,1.4
2023-03-07T19:00:00,1104A,123.4114,41.7653,沈阳市,文化路,细颗粒物(PM2.5),69,81,116,50,79,121,95,109,108,23,42,14,25,0.6,1.3
2023-03-07T19:00:00,1105A,123.4678,41.7867,沈阳市,小河沿,颗粒物(PM10),60,69,108,40,69,114,94,106,105,25,50,12,19,0.6,1.2
2023-03-07T19:00:00,1106A,123.4017,41.7972,沈阳市,太原街,细颗粒物(PM2.5),74,91,125,54,86,111,70,98,95,45,50,34,28,0.6,1.1
2023-03-07T19:00:00,1108A,123.3783,41.9228,沈阳市,京沈街,细颗粒物(PM2.5),78,104,134,57,98,112,84,106,104,34,57,13,22,0.9,1.3
2023-03-07T19:00:00,1109A,121.612,38.9741,大连市,甘井子,颗粒物(PM10),52,53,90,9,44,123,110,116,112,17,26,4,8,0.4,0.6
2023-03-07T19:00:00,1110A,121.565,38.9511,大连市,周水子,颗粒物(PM10),52,53,114,33,53,110,94,102,100,27,30,1,3,0.5,0.6
2023-03-07T19:00:00,1111A,121.5637,38.8845,大连市,星海三站,,,79,85,56,55,115,62,106,94,47,36,,6,0.9,0.9
2023-03-07T19:00:00,1112A,121.6302,38.9117,大连市,青泥洼桥,细颗粒物(PM2.5),57,57,78,40,51,119,79,113,103,37,31,7,7,0.9,1
2023-03-07T19:00:00,1113A,121.6251,38.8638,大连市,傅家庄,,49,49,87,33,44,123,93,119,110,19,20,14,18,0.7,0.8
2023-03-07T19:00:00,1114A,121.5213,38.8661,大连市,七贤岭,,,52,84,43,59,133,,124,120,17,25,6,8,0.5,0.6
2023-03-07T19:00:00,1115A,121.2529,38.8061,大连市,旅顺,,49,34,78,34,45,120,99,116,110,20,20,7,7,0.6,0.6
2023-03-07T19:00:00,1116A,121.7485,39.1311,大连市,金州,细颗粒物(PM2.5),77,69,68,56,49,140,82,112,109,32,19,8,8,0.8,0.8
2023-03-07T19:00:00,1117A,121.7811,39.0496,大连市,开发区,,46,39,61,32,44,113,106,108,106,18,16,4,5,0.5,0.6
2023-03-07T19:00:00,1118A,121.9762,39.0631,大连市,双D港,,40,37,54,20,38,127,127,122,119,10,11,5,5,0.7,0.6
2023-03-07T19:00:00,1119A,125.3325,43.9166,长春市,食品厂,颗粒物(PM10),174,298,200,87,94,127,78,113,112,31,43,6,10,0.7,0.9
2023-03-07T19:00:00,1120A,125.2863,43.9027,长春市,客车厂,颗粒物(PM10),170,290,205,96,104,120,77,108,107,32,43,10,12,0.8,0.9
2023-03-07T19:00:00,1121A,125.2841,43.8463,长春市,邮电学院,颗粒物(PM10),155,259,199,84,98,138,103,127,127,32,47,12,12,0.9,0.9
2023-03-07T19:00:00,1122A,125.3716,43.8772,长春市,劳动公园,颗粒物(PM10),152,254,173,79,92,140,101,124,124,30,46,15,14,0.9,1
2023-03-07T19:00:00,1123A,125.3297,43.8805,长春市,园林处,颗粒物(PM10),152,254,162,83,98,125,94,119,116,32,46,10,14,0.7,0.9
2023-03-07T19:00:00,1124A,125.4605,43.79,长春市,净月潭,,,,,,,,,,,,,,,,
2023-03-07T19:00:00,1125A,125.7194,43.515,长春市,甩湾子,,,,,,,,,,,,,,,,
2023-03-07T19:00:00,1126A,125.3863,43.8447,长春市,经开区环卫处,颗粒物(PM10),150,250,191,83,95,130,,120,120,36,48,13,11,0.8,0.9
2023-03-07T19:00:00,1127A,125.245,43.7783,长春市,高新区管委会,颗粒物(PM10),134,218,169,93,107,136,108,125,125,23,38,12,11,0.8,0.8
2023-03-07T19:00:00,1128A,125.1761,43.8325,长春市,岱山公园,颗粒物(PM10),142,234,188,77,100,131,84,118,116,33,51,5,6,0.8,0.9
2023-03-07T19:00:00,1129A,126.5422,45.755,哈尔滨市,岭北,,35,35,77,24,55,107,58,82,82,16,36,23,25,0.9,1.2
2023-03-07T19:00:00,1130A,126.561,45.8167,哈尔滨市,松北商大,,38,26,75,26,44,89,49,60,60,24,56,5,9,0.5,0.8
2023-03-07T19:00:00,1131A,126.979,45.5419,哈尔滨市,阿城会宁,颗粒物(PM10),80,110,83,39,58,108,39,92,86,29,27,14,9,1.1,0.8
2023-03-07T19:00:00,1132A,126.599,45.7222,哈尔滨市,南岗学府路,颗粒物(PM10),81,112,98,43,59,98,46,80,80,26,49,14,26,0.4,0.7
2023-03-07T19:00:00,1133A,126.689,45.7733,哈尔滨市,太平宏伟公园,颗粒物(PM10),51,52,93,28,60,105,50,74,74,23,47,5,9,0.5,0.7
2023-03-07T19:00:00,1134A,126.635,45.7667,哈尔滨市,道外承德广场,,,35,70,32,38,89,,74,74,,51,7,12,0.5,0.8
2023-03-07T19:00:00,1135A,126.685,45.7319,哈尔滨市,香坊红旗大街,"颗粒物(PM10),细颗粒物(PM2.5)",52,53,92,36,67,94,47,71,71,25,50,20,26,0.7,1
2023-03-07T19:00:00,1136A,126.6411,45.7258,哈尔滨市,动力和平路,颗粒物(PM10),58,66,85,38,65,96,52,75,75,29,47,17,18,0.5,0.8
2023-03-07T19:00:00,1137A,126.593,45.7478,哈尔滨市,道里建国路,细颗粒物(PM2.5),52,41,82,36,54,97,54,71,71,24,50,13,19,0.5,1
2023-03-07T19:00:00,1138A,126.615,45.61,哈尔滨市,平房东轻厂,颗粒物(PM10),68,86,95,37,65,113,35,91,82,32,44,13,13,1.0,1.1
2023-03-07T19:00:00,1139A,126.595,45.9855,哈尔滨市,呼兰师专,,35,23,69,24,48,80,56,57,57,22,37,13,17,0.4,0.6
2023-03-07T19:00:00,1140A,126.6206,45.6842,哈尔滨市,省农科院,颗粒物(PM10),67,83,111,34,65,100,48,79,79,25,55,9,20,0.6,1.1
2023-03-07T19:00:00,1141A,121.4,31.238,上海市,普陀,颗粒物(PM10),72,93,89,44,42,164,164,138,138,39,52,7,16,0.8,0.8
2023-03-07T19:00:00,1142A,121.478,31.2036,上海市,十五厂,颗粒物(PM10),74,97,85,47,40,137,126,125,125,54,57,8,8,0.6,0.6
2023-03-07T19:00:00,1143A,121.467,31.3008,上海市,虹口,颗粒物(PM10),71,92,85,47,44,147,138,133,133,49,47,7,9,0.9,0.8
2023-03-07T19:00:00,1144A,121.412,31.1654,上海市,徐汇上师大,颗粒物(PM10),78,105,81,38,40,154,128,132,132,59,63,10,18,0.2,0.4
2023-03-07T19:00:00,1145A,121.536,31.2659,上海市,杨浦四漂,颗粒物(PM10),75,100,89,42,41,143,120,128,128,66,59,9,9,0.7,0.7
2023-03-07T19:00:00,1147A,121.425,31.2261,上海市,静安监测站,颗粒物(PM10),73,95,92,40,40,154,152,132,132,47,63,10,15,0.6,0.7
2023-03-07T19:00:00,1148A,121.703,31.1907,上海市,浦东川沙,颗粒物(PM10),97,144,89,40,43,149,61,129,124,73,49,5,5,0.4,0.5
2023-03-07T19:00:00,1149A,121.533,31.2284,上海市,浦东新区监测站,,,92,89,41,40,127,,109,109,36,39,6,7,0.6,0.7
2023-03-07T19:00:00,1150A,121.577,31.2071,上海市,浦东张江,颗粒物(PM10),75,100,78,27,30,162,123,143,143,51,50,5,6,0.8,0.8
2023-03-07T19:00:00,1151A,118.8086,32.1065,南京市,迈皋桥,颗粒物(PM10),56,62,82,24,36,157,112,130,130,32,42,6,8,0.3,0.4
2023-03-07T19:00:00,1152A,118.7538,32.0551,南京市,草场门,颗粒物(PM10),51,51,84,22,38,140,94,113,113,48,72,8,12,0.3,0.5
2023-03-07T19:00:00,1153A,118.7794,32.0745,南京市,山西路,颗粒物(PM10),52,53,82,29,38,155,112,128,128,30,38,4,7,0.4,0.5
2023-03-07T19:00:00,1154A,118.7752,32.0023,南京市,中华门,,48,48,70,19,32,146,94,121,117,43,56,7,10,0.7,0.8
2023-03-07T19:00:00,1155A,118.8109,32.0309,南京市,瑞金路,颗粒物(PM10),58,66,90,29,37,144,88,115,115,41,59,8,10,0.5,0.6
2023-03-07T19:00:00,1156A,118.7997,32.0754,南京市,玄武湖,颗粒物(PM10),51,51,78,22,40,142,106,124,124,28,43,4,5,0.3,0.4
2023-03-07T19:00:00,1157A,118.6414,32.0931,南京市,浦口,颗粒物(PM10),71,91,88,34,36,135,99,110,110,53,51,12,12,0.9,0.7
2023-03-07T19:00:00,1158A,118.7356,31.9996,南京市,奥体中心,颗粒物(PM10),52,53,87,27,39,146,106,124,124,38,67,4,7,0.3,0.5
2023-03-07T19:00:00,1159A,118.9125,32.1028,南京市,仙林大学城,颗粒物(PM10),62,73,77,27,35,146,111,129,129,38,45,7,9,0.5,0.6
2023-03-07T19:00:00,1160A,120.561,31.2472,苏州市,上方山,细颗粒物(PM2.5),79,89,99,58,61,199,117,151,151,47,65,10,10,0.7,0.7
2023-03-07T19:00:00,1162A,120.591,31.3019,苏州市,彩香,颗粒物(PM10),71,91,100,44,54,211,145,166,166,40,55,6,9,0.8,0.6
2023-03-07T19:00:00,1163A,120.596,31.3264,苏州市,轧钢厂,颗粒物(PM10),69,87,103,43,51,192,134,161,161,46,55,8,10,0.7,0.8
2023-03-07T19:00:00,1164A,120.613,31.2703,苏州市,吴中区,颗粒物(PM10),65,80,99,39,54,185,132,155,155,56,67,9,11,0.6,0.6
2023-03-07T19:00:00,1165A,120.543,31.2994,苏州市,苏州新区,细颗粒物(PM2.5),72,80,93,52,55,206,148,169,169,39,54,7,9,0.7,0.7
2023-03-07T19:00:00,1166A,120.669,31.3097,苏州市,苏州工业园区,颗粒物(PM10),67,83,95,39,50,176,129,147,147,54,54,10,11,0.6,0.6
2023-03-07T19:00:00,1167A,120.641,31.3708,苏州市,相城区,颗粒物(PM10),74,97,107,44,55,170,114,144,144,61,63,8,9,0.6,0.7
2023-03-07T19:00:00,1168A,120.9098,31.9663,南通市,狼山街道,颗粒物(PM10),79,107,102,54,58,179,107,154,154,58,74,8,8,0.5,0.5
2023-03-07T19:00:00,1169A,120.86,32.0005,南通市,虹桥,颗粒物(PM10),81,111,102,55,54,174,117,147,147,77,67,9,10,0.6,0.6
2023-03-07T19:00:00,1170A,120.87,32.02,南通市,城中,颗粒物(PM10),80,110,98,52,53,161,114,141,141,67,62,9,10,0.5,0.5
2023-03-07T19:00:00,1171A,120.94,31.93,南通市,星湖花园,颗粒物(PM10),81,112,102,56,52,156,75,131,128,93,80,9,9,0.8,0.7
2023-03-07T19:00:00,1172A,120.81,32.0417,南通市,紫琅学院,颗粒物(PM10),76,101,110,53,53,160,101,134,134,81,89,8,11,0.5,0.5
2023-03-07T19:00:00,1173A,119.176,34.5885,连云港市,市环境监测站,细颗粒物(PM2.5),77,95,108,56,63,167,136,143,143,33,36,12,15,0.4,0.4
2023-03-07T19:00:00,1177A,117.179,34.2761,徐州市,黄河新村,颗粒物(PM10),73,95,112,48,60,159,127,148,148,40,54,17,16,0.9,1
2023-03-07T19:00:00,1178A,117.1918,34.2384,徐州市,淮塔,颗粒物(PM10),67,83,115,41,57,169,136,156,156,32,52,10,12,0.6,0.7
2023-03-07T19:00:00,1180A,117.256,34.2153,徐州市,新城区,颗粒物(PM10),74,98,109,41,55,172,113,147,147,32,43,11,14,0.7,0.8
2023-03-07T19:00:00,1181A,117.244,34.2911,徐州市,桃园路,颗粒物(PM10),67,83,110,39,55,156,113,141,141,23,37,9,12,0.8,0.8
2023-03-07T19:00:00,1182A,117.2933,34.2778,徐州市,农科院,颗粒物(PM10),69,88,107,29,46,170,127,149,149,20,39,8,11,0.8,0.9
2023-03-07T19:00:00,1186A,119.389,32.3761,扬州市,邗江监测站,"颗粒物(PM10),细颗粒物(PM2.5)",84,117,106,62,62,160,111,141,141,63,50,9,8,0.6,0.5
2023-03-07T19:00:00,1188A,120.269,31.4867,无锡市,雪浪,颗粒物(PM10),74,97,87,51,46,188,135,165,165,38,48,8,10,1.0,1
2023-03-07T19:00:00,1189A,120.275,31.6219,无锡市,黄巷,颗粒物(PM10),74,97,102,36,45,175,94,153,153,97,79,8,10,0.7,0.7
2023-03-07T19:00:00,1190A,120.294,31.56,无锡市,曹张,颗粒物(PM10),70,89,99,48,50,178,69,151,148,105,78,8,9,1.1,1
2023-03-07T19:00:00,1191A,120.242,31.5031,无锡市,漆塘,,,,83,,44,175,102,154,153,,47,,11,0.8,0.8
2023-03-07T19:00:00,1192A,120.3489,31.5863,无锡市,东亭,颗粒物(PM10),75,100,95,39,46,162,97,146,146,77,83,9,11,0.8,0.7
2023-03-07T19:00:00,1193A,120.354,31.5475,无锡市,旺庄,颗粒物(PM10),70,90,102,44,52,167,90,144,144,77,79,8,11,0.7,0.8
2023-03-07T19:00:00,1194A,120.245,31.5631,无锡市,荣巷,颗粒物(PM10),68,85,83,41,45,202,116,166,166,40,47,10,12,0.7,0.7
2023-03-07T19:00:00,1195A,120.299,31.6817,无锡市,堰桥,颗粒物(PM10),67,83,94,36,46,162,113,146,146,70,70,9,10,0.9,1
2023-03-07T19:00:00,1196A,119.9633,31.762,常州市,市监测站,细颗粒物(PM2.5),70,76,89,51,52,160,128,144,144,51,50,6,8,0.5,0.4
2023-03-07T19:00:00,1200A,119.9468,31.7069,常州市,武进监测站,细颗粒物(PM2.5),68,82,87,49,51,153,145,147,147,36,36,9,11,0.7,0.7
2023-03-07T19:00:00,1201A,119.9255,31.9087,常州市,安家,颗粒物(PM10),51,51,87,35,56,156,112,137,137,42,50,8,10,0.5,0.6
2023-03-07T19:00:00,1203A,119.6707,32.1875,镇江市,新区办事处,颗粒物(PM10),59,68,100,30,50,179,118,145,145,44,43,2,6,0.7,0.8
2023-03-07T19:00:00,1204A,119.4974,32.1968,镇江市,职教中心,颗粒物(PM10),64,78,99,36,58,180,126,147,147,40,42,8,11,0.5,0.8
2023-03-07T19:00:00,1205A,119.4303,32.1328,镇江市,丹徒区监测站,,,113,120,64,70,179,110,142,142,,45,9,11,0.6,0.6
2023-03-07T19:00:00,1206A,119.905,32.4878,泰州市,公园路,细颗粒物(PM2.5),92,119,103,68,59,174,139,158,158,45,49,11,13,0.9,0.9
2023-03-07T19:00:00,1207A,119.9189,32.4625,泰州市,莲花,细颗粒物(PM2.5),83,103,103,61,61,183,149,164,162,36,60,12,14,0.7,0.9
2023-03-07T19:00:00,1209A,119.888,32.4639,泰州市,留学生创业园,,,112,122,52,57,166,150,152,152,40,65,12,15,,0.7
2023-03-07T19:00:00,1210A,119.036,33.5981,淮安市,钵池山,细颗粒物(PM2.5),58,61,84,41,47,176,146,152,152,28,31,9,13,0.7,0.7
2023-03-07T19:00:00,1211A,119.007,33.575,淮安市,北京南路,细颗粒物(PM2.5),65,73,85,47,53,168,139,144,144,30,39,11,14,0.7,0.7
2023-03-07T19:00:00,1212A,118.989,33.6067,淮安市,市监测站,颗粒物(PM10),63,75,96,41,52,172,145,153,153,32,44,10,20,0.7,1.2
2023-03-07T19:00:00,1213A,119.135,33.5039,淮安市,楚州区监测站,颗粒物(PM10),92,134,98,67,55,178,127,148,148,53,42,11,12,0.8,0.8
2023-03-07T19:00:00,1214A,119.0186,33.6297,淮安市,淮阴区监测站,颗粒物(PM10),71,92,102,40,46,165,137,142,142,31,36,10,14,0.6,0.8
2023-03-07T19:00:00,1215A,120.118,33.4022,盐城市,盐城电厂,颗粒物(PM10),80,110,105,53,51,182,167,171,171,40,48,11,19,0.7,0.8
2023-03-07T19:00:00,1216A,120.156,33.3942,盐城市,市监测站,细颗粒物(PM2.5),78,88,104,57,61,184,162,169,169,29,43,19,21,0.8,0.8
2023-03-07T19:00:00,1218A,120.2144,33.38,盐城市,开发区管委会,,,101,116,56,63,175,,168,168,25,39,9,15,0.7,0.8
2023-03-07T19:00:00,1220A,118.293,33.9528,宿迁市,宿迁学院,颗粒物(PM10),66,81,78,43,49,160,126,148,148,41,45,9,11,0.4,0.5
2023-03-07T19:00:00,1221A,118.2442,33.9592,宿迁市,宿迁中学,颗粒物(PM10),70,89,94,44,54,155,109,140,140,35,28,7,9,0.6,0.5
2023-03-07T19:00:00,1223A,120.2072,30.2111,杭州市,滨江,颗粒物(PM10),95,140,92,68,43,158,117,140,140,68,60,11,9,0.7,0.7
2023-03-07T19:00:00,1224A,120.0633,30.2747,杭州市,西溪,颗粒物(PM10),67,83,60,39,34,162,90,147,139,46,39,7,7,0.7,0.7
2023-03-07T19:00:00,1226A,120.3461,30.3153,杭州市,下沙,"颗粒物(PM10),细颗粒物(PM2.5)",92,134,118,68,57,157,112,144,144,77,66,9,10,0.6,0.6
2023-03-07T19:00:00,1227A,120.1269,30.2456,杭州市,卧龙桥,颗粒物(PM10),56,62,56,30,33,151,43,126,123,80,46,6,7,0.6,0.4
2023-03-07T19:00:00,1228A,120.1903,30.2692,杭州市,浙江农大,颗粒物(PM10),79,107,83,57,48,164,126,149,149,60,60,10,8,0.6,0.9
2023-03-07T19:00:00,1230A,120.1197,30.3119,杭州市,和睦小学,细颗粒物(PM2.5),82,106,91,60,52,155,121,134,134,76,83,8,9,0.4,0.6
2023-03-07T19:00:00,1231A,120.3019,30.4183,杭州市,临平镇,颗粒物(PM10),89,128,109,63,50,166,131,151,151,51,65,10,10,0.7,0.7
2023-03-07T19:00:00,1232A,120.2697,30.1819,杭州市,城厢镇,细颗粒物(PM2.5),110,130,97,83,53,173,108,142,142,97,71,10,8,0.7,0.6
2023-03-07T19:00:00,1233A,120.0883,30.1808,杭州市,云栖,颗粒物(PM10),53,55,61,25,30,156,96,135,135,36,43,5,6,0.6,0.6
2023-03-07T19:00:00,1234A,121.8358,29.911,宁波市,区环保大楼,颗粒物(PM10),53,56,51,23,26,148,89,134,124,51,47,6,6,0.5,0.5
2023-03-07T19:00:00,1235A,121.56,29.82,宁波市,万里学院,,50,50,62,25,30,165,131,154,151,17,32,6,7,0.3,0.4
2023-03-07T19:00:00,1236A,121.713,29.9572,宁波市,龙赛医院,颗粒物(PM10),59,68,69,27,31,152,113,136,135,31,53,7,9,0.4,0.4
2023-03-07T19:00:00,1239A,121.633,29.7733,宁波市,钱湖水厂,,42,40,40,19,23,163,134,146,146,6,10,5,6,0.5,0.5
2023-03-07T19:00:00,1240A,121.5856,29.8635,宁波市,太古小学,颗粒物(PM10),51,51,58,23,28,146,117,136,136,14,21,7,9,0.5,0.6
2023-03-07T19:00:00,1241A,121.524,29.8674,宁波市,市环境监测中心,颗粒物(PM10),52,54,66,22,24,147,113,133,133,29,37,5,7,0.5,0.5
2023-03-07T19:00:00,1242A,120.634,28.0089,温州市,瓯海,颗粒物(PM10),56,61,88,26,42,151,107,127,127,26,59,7,9,0.4,0.6
2023-03-07T19:00:00,1243A,120.6748,27.9939,温州市,南浦,颗粒物(PM10),51,52,80,22,39,148,92,122,122,31,54,6,8,0.5,0.5
2023-03-07T19:00:00,1244A,120.76,27.9747,温州市,龙湾,颗粒物(PM10),62,74,89,28,35,128,86,113,113,56,67,7,9,0.5,0.6
2023-03-07T19:00:00,1245A,120.6709,28.0167,温州市,市站,颗粒物(PM10),65,80,85,31,38,140,89,112,112,48,56,6,7,0.5,0.5
2023-03-07T19:00:00,1247A,120.6053,29.9928,绍兴市,城东开发委,细颗粒物(PM2.5),93,126,73,69,38,168,113,155,152,74,37,10,6,0.8,0.6
2023-03-07T19:00:00,1250A,120.0751,30.8669,湖州市,城西水厂,细颗粒物(PM2.5),70,77,92,51,55,142,104,126,126,59,62,8,10,0.7,0.7
2023-03-07T19:00:00,1252A,120.7436,30.778,嘉兴市,清河小学,颗粒物(PM10),61,72,95,28,43,192,123,157,157,48,58,9,11,0.5,0.6
2023-03-07T19:00:00,1253A,120.726,30.7478,嘉兴市,嘉兴学院,颗粒物(PM10),63,76,86,34,47,218,125,176,176,45,39,10,9,0.6,0.6
2023-03-07T19:00:00,1255A,121.273,28.6459,台州市,黄岩环保大楼,,41,41,70,16,30,145,112,132,132,18,32,10,8,0.4,0.4
2023-03-07T19:00:00,1256A,121.419,28.6542,台州市,台州环保大楼,颗粒物(PM10),65,79,74,39,32,113,89,106,104,21,29,5,5,0.4,0.4
2023-03-07T19:00:00,1257A,121.377,28.5773,台州市,路桥田洋王,细颗粒物(PM2.5),95,128,72,71,32,143,93,132,128,36,30,20,14,0.9,0.5
2023-03-07T19:00:00,1258A,122.122,30.0203,舟山市,定海檀枫,颗粒物(PM10),57,64,46,26,19,115,102,112,111,40,32,6,5,0.6,0.4
2023-03-07T19:00:00,1259A,122.3094,29.9558,舟山市,普陀东港,颗粒物(PM10),55,59,45,32,21,113,113,101,101,25,25,5,5,0.4,0.3
2023-03-07T19:00:00,1260A,122.19,29.9944,舟山市,临城新区,颗粒物(PM10),57,63,40,25,17,134,108,128,128,41,30,5,6,0.5,0.5
2023-03-07T19:00:00,1262A,119.647,29.077,金华市,十五中,细颗粒物(PM2.5),73,82,82,53,44,162,87,147,140,72,49,9,9,1.0,0.7
2023-03-07T19:00:00,1263A,119.686,29.1029,金华市,监测站,颗粒物(PM10),60,70,93,37,48,174,105,155,151,61,71,8,9,0.9,0.7
2023-03-07T19:00:00,1264A,118.8692,28.9398,衢州市,环保大楼,,,,75,36,43,161,84,138,132,58,48,10,14,0.7,0.8
2023-03-07T19:00:00,1265A,118.8709,28.9666,衢州市,实验学校,颗粒物(PM10),65,79,70,40,39,157,78,130,128,70,55,10,14,0.7,0.5
2023-03-07T19:00:00,1266A,118.8621,28.9808,衢州市,衢州学院,颗粒物(PM10),70,90,73,42,39,141,56,115,113,84,65,8,12,0.7,0.5
2023-03-07T19:00:00,1267A,119.914,28.4514,丽水市,监测站大楼,颗粒物(PM10),64,78,62,41,31,145,129,130,130,24,30,9,11,0.5,0.4
2023-03-07T19:00:00,1268A,119.93,28.4586,丽水市,莲都小学,颗粒物(PM10),65,80,69,34,30,149,145,136,136,22,29,8,8,0.4,0.3
2023-03-07T19:00:00,1269A,119.879,28.4231,丽水市,余庄前,颗粒物(PM10),53,56,60,25,31,154,129,137,137,17,25,9,9,0.3,0.3
2023-03-07T19:00:00,1270A,117.1959,31.7848,合肥市,明珠广场,颗粒物(PM10),69,88,85,36,37,133,91,111,111,55,58,7,9,0.8,0.7
2023-03-07T19:00:00,1271A,117.3072,31.8764,合肥市,三里街,颗粒物(PM10),68,85,83,34,32,133,89,113,113,63,56,8,7,1.0,0.9
2023-03-07T19:00:00,1272A,117.2588,31.8707,合肥市,琥珀山庄,颗粒物(PM10),64,78,76,36,35,142,112,120,120,55,54,6,5,0.5,0.5
2023-03-07T19:00:00,1273A,117.1604,31.9052,合肥市,董铺水库,颗粒物(PM10),71,92,79,34,30,127,112,113,113,36,43,6,5,0.5,0.4
2023-03-07T19:00:00,1274A,117.25,31.8571,合肥市,长江中路,颗粒物(PM10),67,83,77,46,38,135,93,113,113,58,47,12,11,1.2,1
2023-03-07T19:00:00,1275A,117.266,31.9436,合肥市,庐阳区,,,85,79,36,32,128,,111,111,39,48,11,10,0.7,0.6
2023-03-07T19:00:00,1276A,117.336,31.8586,合肥市,瑶海区,颗粒物(PM10),68,85,98,35,35,144,82,118,117,62,48,9,9,0.7,0.6
2023-03-07T19:00:00,1277A,117.3027,31.7964,合肥市,包河区,颗粒物(PM10),67,83,72,34,37,152,102,128,128,42,45,10,10,1.0,0.9
2023-03-07T19:00:00,1278A,117.2776,31.7385,合肥市,滨湖新区,颗粒物(PM10),62,73,67,29,31,148,116,127,127,28,22,11,10,0.6,0.6
2023-03-07T19:00:00,1279A,117.1318,31.8403,合肥市,高新区,颗粒物(PM10),67,83,69,31,31,126,106,114,114,44,41,10,9,0.8,0.6
2023-03-07T19:00:00,1280A,119.3903,26.0543,福州市,鼓山,,,,,,,,,,,,,,,,
2023-03-07T19:00:00,1282A,119.2681,26.0504,福州市,师大,,46,46,58,16,24,144,102,125,125,18,25,4,7,0.5,0.5
2023-03-07T19:00:00,1283A,119.2984,26.1028,福州市,五四北路,,43,43,54,17,24,142,99,124,124,20,25,3,4,0.5,0.5
2023-03-07T19:00:00,1284A,119.2648,26.0768,福州市,杨桥西路,,47,47,58,16,25,137,97,120,120,16,23,3,6,0.5,0.5
2023-03-07T19:00:00,1285A,119.317,26.0746,福州市,紫阳,,47,47,57,17,24,134,91,118,118,22,27,3,4,0.5,0.5
2023-03-07T19:00:00,1286A,118.1608,24.8169,厦门市,溪东,,,,,,,,,,,,,,,,
2023-03-07T19:00:00,1287A,118.1514,24.4767,厦门市,洪文,颗粒物(PM10),55,59,54,32,24,135,105,115,115,38,37,3,4,0.4,0.3
2023-03-07T19:00:00,1288A,118.0661,24.4444,厦门市,鼓浪屿,,48,48,65,25,32,142,142,118,118,34,48,5,10,0.4,0.4
2023-03-07T19:00:00,1290A,115.8931,28.6843,南昌市,省外办,颗粒物(PM10),90,129,113,54,56,163,70,120,120,72,74,15,16,0.7,0.8
2023-03-07T19:00:00,1291A,115.8886,28.7003,南昌市,省林业公司,细颗粒物(PM2.5),77,90,116,56,53,166,143,131,131,34,72,16,14,0.4,0.5
2023-03-07T19:00:00,1292A,115.8126,28.7442,南昌市,林科所,颗粒物(PM10),67,83,70,46,39,166,117,140,140,48,65,20,16,0.6,0.5
2023-03-07T19:00:00,1294A,115.8518,28.687,南昌市,建工学校,颗粒物(PM10),70,90,104,39,49,155,142,123,123,28,71,17,13,0.7,1
2023-03-07T19:00:00,1295A,115.8921,28.6424,南昌市,象湖,细颗粒物(PM2.5),65,71,111,47,59,158,70,120,120,86,77,14,12,1.1,1.3
2023-03-07T19:00:00,1296A,115.7423,28.7996,南昌市,武术学校,颗粒物(PM10),58,65,45,33,29,176,132,147,147,9,11,13,9,0.3,0.2
2023-03-07T19:00:00,1298A,115.9314,28.6842,南昌市,省站,颗粒物(PM10),67,84,120,47,56,171,142,142,142,31,69,16,15,0.7,0.9
2023-03-07T19:00:00,1299A,116.9862,36.6114,济南市,科干所,颗粒物(PM10),89,127,118,63,55,179,166,169,169,23,26,14,14,0.9,0.9
2023-03-07T19:00:00,1300A,116.9376,36.665,济南市,农科所,细颗粒物(PM2.5),95,132,163,71,83,169,150,159,159,33,73,12,10,0.7,1
2023-03-07T19:00:00,1301A,117.1265,36.6734,济南市,开发区,颗粒物(PM10),79,107,136,56,72,174,160,160,160,21,59,16,14,0.7,0.8
2023-03-07T19:00:00,1303A,117.0624,36.6868,济南市,省种子仓库,细颗粒物(PM2.5),94,127,165,70,91,183,153,168,168,34,80,16,14,0.7,1
2023-03-07T19:00:00,1304A,116.9489,36.6447,济南市,机床二厂,细颗粒物(PM2.5),98,137,165,73,85,171,144,161,161,37,54,15,13,0.9,1
2023-03-07T19:00:00,1305A,117.0495,36.663,济南市,市监测站,细颗粒物(PM2.5),92,125,148,68,89,180,154,168,168,39,65,15,12,0.8,0.9
2023-03-07T19:00:00,1306A,116.7675,36.5484,济南市,长清党校,细颗粒物(PM2.5),104,139,132,78,69,177,155,169,169,31,40,16,14,0.6,0.6
2023-03-07T19:00:00,1307A,120.6659,36.2403,青岛市,仰口,细颗粒物(PM2.5),89,97,107,66,65,152,58,88,77,25,28,2,3,0.5,0.6
2023-03-07T19:00:00,1310A,120.4134,36.0658,青岛市,市南区东部子站,细颗粒物(PM2.5),107,127,134,80,73,121,104,110,109,58,62,11,11,0.9,0.9
2023-03-07T19:00:00,1311A,120.3664,36.1032,青岛市,四方区子站,细颗粒物(PM2.5),140,166,168,107,94,143,125,130,130,60,84,15,12,1.0,1.2
2023-03-07T19:00:00,1312A,120.2994,36.054,青岛市,市南区西部子站,细颗粒物(PM2.5),95,112,113,71,66,127,127,106,106,41,64,12,10,0.7,0.7
2023-03-07T19:00:00,1313A,120.4581,36.0858,青岛市,崂山区子站,细颗粒物(PM2.5),119,146,130,90,71,124,113,104,103,43,41,11,9,0.6,0.5
2023-03-07T19:00:00,1314A,120.1983,35.9608,青岛市,黄岛区子站,细颗粒物(PM2.5),117,144,146,88,82,127,96,110,108,53,73,7,11,0.7,0.8
2023-03-07T19:00:00,1315A,120.3999,36.3083,青岛市,城阳区子站,颗粒物(PM10),89,127,192,51,89,176,144,150,150,56,83,13,10,0.8,1.4
2023-03-07T19:00:00,1316A,113.69031,34.76122,郑州市,烟厂,细颗粒物(PM2.5),110,127,134,83,80,191,166,168,168,29,55,14,14,0.8,1
2023-03-07T19:00:00,1317A,113.65724,34.77134,郑州市,郑纺机,细颗粒物(PM2.5),107,140,134,80,79,181,151,162,162,34,57,12,12,0.9,1
2023-03-07T19:00:00,1318A,113.67526,34.80246,郑州市,银行学校,细颗粒物(PM2.5),113,141,133,85,86,192,173,172,172,34,52,15,14,0.7,0.8
2023-03-07T19:00:00,1319A,113.56746,34.81334,郑州市,供水公司,细颗粒物(PM2.5),104,126,126,78,77,184,160,166,166,29,42,14,14,0.6,0.8
2023-03-07T19:00:00,1320A,113.7329,34.7178,郑州市,经开区管委,细颗粒物(PM2.5),102,113,134,76,82,186,156,162,162,38,62,15,16,0.7,0.8
2023-03-07T19:00:00,1321A,113.73961,34.77172,郑州市,四十七中,细颗粒物(PM2.5),104,135,134,78,84,169,145,148,148,35,55,11,10,0.7,0.9
2023-03-07T19:00:00,1322A,113.60532,34.74838,郑州市,市监测站,细颗粒物(PM2.5),127,140,147,96,92,188,152,175,172,42,59,17,17,0.8,0.9
2023-03-07T19:00:00,1323A,113.64164,34.7525,郑州市,河医大,细颗粒物(PM2.5),110,132,133,83,79,184,156,162,162,32,50,13,13,0.9,0.9
2023-03-07T19:00:00,1324A,113.51488,34.91089,郑州市,岗李水库,,,,,,,,,,,,,,,,
2023-03-07T19:00:00,1325A,114.3677,30.5584,武汉市,东湖梨园,细颗粒物(PM2.5),89,114,93,66,56,127,69,62,50,72,71,31,16,0.9,0.9
2023-03-07T19:00:00,1326A,114.2529,30.558,武汉市,汉阳月湖,颗粒物(PM10),110,170,118,75,60,48,8,35,22,138,107,16,15,1.8,1.3
2023-03-07T19:00:00,1327A,114.282,30.6189,武汉市,汉口花桥,细颗粒物(PM2.5),102,141,106,76,61,68,26,58,23,137,90,24,17,2.0,1.4
2023-03-07T19:00:00,1328A,114.3025,30.5332,武汉市,武昌紫阳,细颗粒物(PM2.5),105,112,98,79,62,47,34,34,34,106,105,27,22,1.3,1.5
2023-03-07T19:00:00,1329A,114.3646,30.6217,武汉市,青山钢花,细颗粒物(PM2.5),122,181,134,92,75,75,7,58,31,154,85,22,21,2.3,1.5
2023-03-07T19:00:00,1330A,114.1566,30.4825,武汉市,沌口新区,细颗粒物(PM2.5),108,91,112,81,77,123,21,77,70,129,88,22,28,1.3,1
2023-03-07T19:00:00,1331A,114.3014,30.5944,武汉市,汉口江滩,颗粒物(PM10),89,128,109,64,61,70,45,34,34,107,109,20,18,1.3,1.3
2023-03-07T19:00:00,1333A,114.135,30.6319,武汉市,吴家山,颗粒物(PM10),112,174,133,76,65,19,9,19,15,160,121,18,15,2.1,1.5
2023-03-07T19:00:00,1334A,113.8454,30.2917,武汉市,沉湖七壕,,,73,78,46,39,136,88,65,37,,12,13,12,0.9,0.8
2023-03-07T19:00:00,1335A,113.0833,28.2325,长沙市,经开区环保局,细颗粒物(PM2.5),92,87,75,68,53,147,112,118,118,32,34,7,8,0.9,0.6
2023-03-07T19:00:00,1336A,112.8872,28.2189,长沙市,高开区环保局,细颗粒物(PM2.5),83,97,83,61,47,145,126,131,131,19,32,8,12,0.7,0.6
2023-03-07T19:00:00,1337A,113.0792,28.2053,长沙市,马坡岭,细颗粒物(PM2.5),73,81,80,53,48,157,123,127,127,34,46,11,12,0.7,0.6
2023-03-07T19:00:00,1338A,112.9394,28.19,长沙市,湖南师范大学,细颗粒物(PM2.5),104,119,78,78,52,128,78,108,108,33,30,5,8,0.8,0.5
2023-03-07T19:00:00,1339A,113.0178,28.1322,长沙市,雨花区环保局,细颗粒物(PM2.5),84,89,70,62,44,146,109,126,126,39,35,9,11,0.8,0.7
2023-03-07T19:00:00,1340A,112.9792,28.2597,长沙市,伍家岭,细颗粒物(PM2.5),93,90,104,69,60,151,89,126,126,55,64,7,9,1.2,1.1
2023-03-07T19:00:00,1341A,113.0014,28.1944,长沙市,火车新站,细颗粒物(PM2.5),103,108,85,77,56,131,73,109,109,56,57,8,11,1.1,0.9
2023-03-07T19:00:00,1342A,112.9844,28.1178,长沙市,天心区环保局,细颗粒物(PM2.5),88,96,74,65,50,123,102,110,110,35,42,6,7,0.6,0.6
2023-03-07T19:00:00,1343A,112.8908,28.1308,长沙市,湖南中医药大学,细颗粒物(PM2.5),92,86,97,68,57,144,36,108,108,76,60,5,7,1.0,0.9
2023-03-07T19:00:00,1344A,112.9581,28.3611,长沙市,沙坪,细颗粒物(PM2.5),73,74,63,53,55,142,106,124,124,25,28,9,11,1.0,0.8
2023-03-07T19:00:00,1345A,113.2347,23.1423,广州市,广雅中学,颗粒物(PM10),62,73,70,29,29,165,147,142,142,42,53,5,7,0.6,0.6
2023-03-07T19:00:00,1346A,113.2612,23.105,广州市,市五中,颗粒物(PM10),60,69,67,35,31,168,146,148,148,39,49,8,10,0.6,0.6
2023-03-07T19:00:00,1348A,113.3478,23.0916,广州市,广东商学院,颗粒物(PM10),60,70,71,30,30,143,100,130,130,44,70,6,7,0.5,0.6
2023-03-07T19:00:00,1349A,113.4332,23.1047,广州市,市八十六中,颗粒物(PM10),55,60,83,23,33,155,103,131,131,46,73,7,9,0.4,0.5
2023-03-07T19:00:00,1350A,113.3505,22.9483,广州市,番禺中学,颗粒物(PM10),55,59,40,7,17,165,119,134,134,43,54,7,8,0.7,0.6
2023-03-07T19:00:00,1351A,113.2146,23.3916,广州市,花都师范,颗粒物(PM10),59,67,86,27,34,170,135,144,144,42,65,7,9,0.9,0.9
2023-03-07T19:00:00,1352A,113.2597,23.1331,广州市,市监测站,颗粒物(PM10),56,62,65,26,29,155,122,135,135,42,52,6,8,0.5,0.6
2023-03-07T19:00:00,1353A,113.5618,23.312,广州市,九龙镇镇龙,颗粒物(PM10),60,70,91,23,39,194,53,141,138,84,69,5,6,0.5,0.6
2023-03-07T19:00:00,1354A,113.2765,23.1544,广州市,麓湖,颗粒物(PM10),52,53,63,20,28,162,121,143,143,37,58,5,8,0.4,0.6
2023-03-07T19:00:00,1355A,113.443,23.3035,广州市,帽峰山森林公园,,48,48,58,20,23,204,132,152,152,37,38,7,10,0.5,0.5
2023-03-07T19:00:00,1356A,114.1063,22.5545,深圳市,通心岭子站,,,29,37,14,17,115,115,109,109,,17,4,4,0.3,0.6
2023-03-07T19:00:00,1357A,114.117,22.5625,深圳市,洪湖,,,42,64,14,20,145,122,134,134,,38,8,8,0.4,0.5
2023-03-07T19:00:00,1358A,113.987,22.5417,深圳市,华侨城,,,38,40,17,17,133,104,118,118,,23,5,4,0.5,0.5
2023-03-07T19:00:00,1359A,113.9181,22.5171,深圳市,南海子站,颗粒物(PM10),55,60,48,28,20,133,80,118,98,59,28,7,6,0.7,0.6
2023-03-07T19:00:00,1360A,114.2458,22.5689,深圳市,盐田,,35,31,34,15,16,138,109,128,128,41,27,7,8,0.5,0.5
2023-03-07T19:00:00,1361A,114.2283,22.7244,深圳市,龙岗,,36,34,55,12,23,147,114,133,133,19,35,4,5,0.4,0.5
2023-03-07T19:00:00,1363A,114.494,22.5422,深圳市,南澳,,40,36,30,18,14,137,125,131,131,17,14,6,5,0.4,0.3
2023-03-07T19:00:00,1364A,114.41,22.6342,深圳市,葵涌,,45,43,35,20,18,143,143,133,133,16,17,6,6,0.5,0.5
2023-03-07T19:00:00,1365A,114.297,22.5978,深圳市,梅沙,,42,34,37,17,15,153,132,140,140,2,10,5,6,0.5,0.6
2023-03-07T19:00:00,1366A,114.0678,22.738,深圳市,观澜,颗粒物(PM10),52,53,69,16,27,133,82,120,117,46,43,5,6,0.5,0.6
2023-03-07T19:00:00,1367A,113.5814,22.2618,珠海市,吉大,,45,42,46,26,19,151,143,125,125,18,26,6,6,0.3,0.3
2023-03-07T19:00:00,1368A,113.4881,22.2335,珠海市,前山,,44,44,42,19,17,129,112,119,119,39,34,5,5,0.4,0.4
2023-03-07T19:00:00,1369A,113.628,22.4251,珠海市,唐家,,41,39,41,17,20,149,130,128,128,21,24,5,5,0.3,0.3
2023-03-07T19:00:00,1370A,113.299,22.2281,珠海市,斗门,,40,40,43,14,17,137,123,129,128,24,30,5,5,0.3,0.3
2023-03-07T19:00:00,1371A,113.1294,23.0067,佛山市,湾梁,颗粒物(PM10),60,70,68,32,26,208,164,161,161,30,57,4,5,0.6,0.6
2023-03-07T19:00:00,1372A,113.1083,23.0478,佛山市,华材职中,臭氧1小时,78,61,60,27,26,206,182,162,162,26,43,7,7,0.4,0.3
2023-03-07T19:00:00,1373A,113.144,23.0453,佛山市,南海气象局,颗粒物(PM10),57,64,60,31,28,184,148,143,143,34,54,2,3,0.5,0.6
2023-03-07T19:00:00,1374A,113.2881,22.8094,佛山市,顺德苏岗,,49,49,51,14,23,152,100,118,118,36,50,8,9,0.5,0.6
2023-03-07T19:00:00,1376A,112.8383,22.8678,佛山市,高明孔堂,颗粒物(PM10),53,56,56,24,24,161,116,127,127,17,24,5,6,0.5,0.5
2023-03-07T19:00:00,1377A,112.8836,23.1588,佛山市,三水监测站,颗粒物(PM10),65,80,83,31,37,169,139,142,142,59,72,6,9,0.6,0.6
2023-03-07T19:00:00,1378A,112.867,23.185,佛山市,三水云东海,颗粒物(PM10),54,57,69,26,35,173,118,140,140,41,49,6,8,0.6,0.5
2023-03-07T19:00:00,1379A,113.3769,22.5211,中山市,华柏园,颗粒物(PM10),52,53,47,21,21,150,108,116,116,33,26,7,8,0.6,0.5
2023-03-07T19:00:00,1380A,113.3881,22.5497,中山市,张溪,,42,42,57,25,22,138,102,111,111,39,34,5,6,0.4,0.4
2023-03-07T19:00:00,1381A,113.4075,22.5111,中山市,紫马岭,,45,45,44,18,18,133,109,115,115,27,23,6,6,0.4,0.4
2023-03-07T19:00:00,1382A,113.4411,22.4853,中山市,长江旅游区,,40,40,32,20,19,122,112,114,114,20,17,11,11,0.3,0.3
2023-03-07T19:00:00,1383A,113.1064,22.6058,江门市,北街,,39,37,54,21,24,146,122,134,134,17,32,8,9,0.4,0.5
2023-03-07T19:00:00,1384A,113.0731,22.5835,江门市,西区,颗粒物(PM10),54,57,66,29,27,149,123,139,139,24,44,6,7,0.5,0.5
2023-03-07T19:00:00,1385A,113.0219,22.5311,江门市,圭峰西,,50,50,53,29,26,144,117,136,133,28,32,6,6,0.6,0.5
2023-03-07T19:00:00,1386A,113.0828,22.5947,江门市,东湖,,50,50,61,27,23,154,132,146,146,20,34,5,6,0.4,0.5
2023-03-07T19:00:00,1389A,113.7547,23.0494,东莞市,莞城梨川,,45,45,61,16,26,180,109,160,146,36,40,10,12,0.4,0.5
2023-03-07T19:00:00,1390A,113.7944,23.0128,东莞市,东城石井,,41,41,53,16,24,175,118,149,148,22,31,9,10,0.5,0.6
2023-03-07T19:00:00,1391A,113.7383,22.9658,东莞市,南城西平,,47,47,73,15,31,149,111,131,131,30,60,10,10,0.3,0.4
2023-03-07T19:00:00,1392A,114.4183,23.0528,惠州市,河南岸金山湖子站,颗粒物(PM10),62,73,62,27,28,173,120,147,147,27,27,7,7,0.4,0.4
2023-03-07T19:00:00,1393A,114.4053,23.0822,惠州市,下埔横江三路子站,颗粒物(PM10),53,55,64,25,27,182,133,161,161,30,25,6,8,0.5,0.5
2023-03-07T19:00:00,1394A,114.4103,23.1142,惠州市,江北云山西路子站,颗粒物(PM10),53,55,67,27,32,186,139,163,163,29,26,8,9,0.4,0.5
2023-03-07T19:00:00,1395A,114.4645,22.7833,惠州市,惠阳区承修路船湖子站,,,,56,,26,134,105,122,122,38,36,6,7,,0.7
2023-03-07T19:00:00,1396A,114.5317,22.7422,惠州市,大亚湾管委会子站,颗粒物(PM10),63,75,67,26,25,128,109,118,118,37,35,6,6,0.6,0.6
2023-03-07T19:00:00,1397A,112.4267,23.0706,肇庆市,睦岗子站,,47,47,62,20,28,202,123,131,131,20,51,14,15,0.4,0.5
2023-03-07T19:00:00,1398A,112.4645,23.0475,肇庆市,城中子站,,42,42,66,18,30,193,122,128,128,20,47,12,17,0.4,0.5
2023-03-07T19:00:00,1399A,112.5544,23.1522,肇庆市,坑口子站,,39,39,49,18,26,160,110,127,127,23,29,10,12,0.4,0.4
2023-03-07T19:00:00,1400A,112.4753,23.1,肇庆市,七星岩子站,,,,,,,,,,,,,,,,
2023-03-07T19:00:00,1401A,108.3103,22.7881,南宁市,二十一中,,47,47,57,26,28,151,118,127,126,15,14,8,10,0.8,0.8
2023-03-07T19:00:00,1402A,108.3141,22.8528,南宁市,北湖,颗粒物(PM10),59,68,64,30,28,140,113,121,118,15,13,7,10,0.7,0.7
2023-03-07T19:00:00,1403A,108.3206,22.8225,南宁市,市监测站,颗粒物(PM10),54,57,63,25,29,133,105,114,112,31,25,7,10,0.7,0.7
2023-03-07T19:00:00,1404A,108.3829,22.8037,南宁市,大自然花园,,47,47,57,22,29,136,110,113,111,12,14,6,8,0.7,0.8
2023-03-07T19:00:00,1405A,108.4394,22.7904,南宁市,仙葫,颗粒物(PM10),58,65,56,32,31,143,125,126,126,13,13,8,9,0.6,0.7
2023-03-07T19:00:00,1406A,108.2397,22.8467,南宁市,区农职院,颗粒物(PM10),52,54,55,29,27,145,112,123,118,27,23,7,9,0.7,0.7
2023-03-07T19:00:00,1407A,108.3275,22.735,南宁市,英华嘉园,颗粒物(PM10),51,52,60,29,29,122,84,106,104,38,24,7,9,0.7,0.7
2023-03-07T19:00:00,1408A,108.2257,22.7757,南宁市,沙井镇街道办,颗粒物(PM10),56,61,61,35,29,142,116,116,116,19,26,6,8,1.0,0.9
2023-03-07T19:00:00,1409A,110.576,19.9507,海口市,东寨港,,,34,36,16,18,74,51,58,58,,,6,5,0.5,0.7
2023-03-07T19:00:00,1410A,110.3232,20.0574,海口市,海南大学,,40,40,48,14,17,131,88,118,98,6,8,5,6,0.5,0.5
2023-03-07T19:00:00,1411A,110.283,20.0053,海口市,秀英海南医院,,46,46,46,12,16,120,79,110,93,8,10,4,4,0.6,0.6
2023-03-07T19:00:00,1412A,110.338,19.9969,海口市,海南师范大学,,43,43,48,14,17,124,82,110,96,8,10,3,4,0.5,0.5
2023-03-07T19:00:00,1413A,110.33,20.0356,海口市,龙华路环保局宿舍,,39,39,45,16,16,122,80,109,94,6,10,6,6,0.6,0.6
2023-03-07T19:00:00,1414A,106.3787,29.8279,重庆市,缙云山,颗粒物(PM10),68,85,50,48,37,67,45,64,38,36,23,10,6,0.4,0.7
2023-03-07T19:00:00,1416A,106.4213,29.8253,重庆市,天生,细颗粒物(PM2.5),79,101,72,58,56,86,54,55,55,45,33,12,8,1.1,0.9
2023-03-07T19:00:00,1417A,106.6263,29.7228,重庆市,两路,细颗粒物(PM2.5),90,99,68,67,46,69,42,44,44,52,39,9,9,1.2,1
2023-03-07T19:00:00,1418A,106.2953,29.5983,重庆市,虎溪,细颗粒物(PM2.5),73,69,63,53,55,91,82,57,57,35,46,5,5,1.0,1
2023-03-07T19:00:00,1419A,106.5777,29.5102,重庆市,南坪,细颗粒物(PM2.5),89,83,79,66,57,79,79,38,37,36,32,8,9,0.9,0.9
2023-03-07T19:00:00,1420A,106.6556,29.6277,重庆市,唐家沱,细颗粒物(PM2.5),78,84,68,57,49,65,47,32,32,56,47,8,7,1.1,1
2023-03-07T19:00:00,1421A,106.6349,29.4906,重庆市,茶园,细颗粒物(PM2.5),109,106,79,82,56,64,37,32,32,68,46,6,6,0.7,0.7
2023-03-07T19:00:00,1422A,106.3754,29.4572,重庆市,白市驿,细颗粒物(PM2.5),84,81,73,62,54,65,56,41,41,58,55,8,8,1.1,1
2023-03-07T19:00:00,1425A,106.6205,29.7166,重庆市,空港,细颗粒物(PM2.5),77,68,58,56,49,78,62,53,53,42,35,8,9,1.0,0.9
2023-03-07T19:00:00,1426A,106.4782,29.4875,重庆市,新山村,细颗粒物(PM2.5),94,103,87,70,60,47,27,27,27,77,59,8,9,1.0,0.9
2023-03-07T19:00:00,1427A,106.5616,29.6453,重庆市,礼嘉,细颗粒物(PM2.5),84,81,81,62,51,55,45,33,33,68,56,10,11,1.2,1.1
2023-03-07T19:00:00,1428A,106.4522,29.7091,重庆市,蔡家,细颗粒物(PM2.5),107,82,62,80,44,92,70,57,57,33,29,7,6,1.1,0.9
2023-03-07T19:00:00,1429A,106.5093,29.3917,重庆市,鱼新街,细颗粒物(PM2.5),78,88,82,57,62,71,56,36,36,47,43,8,10,0.9,1
2023-03-07T19:00:00,1431A,103.9728,30.7236,成都市,金泉两河,,,92,78,64,53,90,80,72,72,,44,1,1,0.7,0.7
2023-03-07T19:00:00,1432A,104.176,30.6872,成都市,十里店,细颗粒物(PM2.5),89,90,74,66,50,100,78,68,68,26,33,3,3,0.7,0.6
2023-03-07T19:00:00,1433A,104.079,30.5706,成都市,三瓦窑,细颗粒物(PM2.5),94,91,65,70,46,106,70,60,55,35,41,1,1,0.7,0.7
2023-03-07T19:00:00,1434A,104.1114,30.63,成都市,沙河铺,细颗粒物(PM2.5),87,87,65,64,50,96,73,61,61,27,31,4,4,0.7,0.7
2023-03-07T19:00:00,1437A,104.0786,30.6531,成都市,君平街,细颗粒物(PM2.5),102,97,72,76,53,112,86,67,67,35,39,4,4,0.6,0.6
2023-03-07T19:00:00,1438A,103.613,31.0283,成都市,灵岩寺,细颗粒物(PM2.5),85,83,74,63,53,154,85,113,75,24,22,7,8,0.7,0.7
2023-03-07T19:00:00,1439A,106.6899,26.5998,贵阳市,马鞍山,,,,37,,30,45,16,33,33,29,25,6,6,1.1,1.1
2023-03-07T19:00:00,1440A,106.6971,26.5694,贵阳市,市环保站,,,,41,,35,33,,42,,,38,,5,,0.7
2023-03-07T19:00:00,1441A,106.6243,26.6266,贵阳市,鉴湖路,,49,48,47,34,31,79,34,50,49,30,23,5,5,0.6,0.6
2023-03-07T19:00:00,1442A,106.7487,26.6343,贵阳市,燕子冲,,49,44,41,34,38,67,38,44,31,22,26,6,6,0.6,0.7
2023-03-07T19:00:00,1443A,106.6555,26.4365,贵阳市,碧云窝,"颗粒物(PM10),细颗粒物(PM2.5)",52,53,45,36,35,70,29,64,32,31,32,9,7,0.7,0.7
2023-03-07T19:00:00,1444A,106.694,26.5161,贵阳市,中院村,,,,53,,35,54,12,33,19,37,38,15,13,0.9,0.9
2023-03-07T19:00:00,1445A,106.7109,26.6027,贵阳市,红边门,细颗粒物(PM2.5),52,44,40,36,36,56,25,53,32,35,34,10,11,0.9,0.9
2023-03-07T19:00:00,1446A,106.7164,26.5699,贵阳市,新华路,,32,24,41,22,35,46,30,39,27,26,33,4,8,0.8,0.9
2023-03-07T19:00:00,1447A,106.674,26.5424,贵阳市,太慈桥,,36,36,48,17,31,77,23,31,30,40,35,4,4,0.8,0.8
2023-03-07T19:00:00,1450A,102.8204,24.8886,昆明市,呈贡新区,颗粒物(PM10),56,61,69,37,56,143,128,137,137,10,20,4,6,0.6,0.8
2023-03-07T19:00:00,1451A,102.6251,24.9608,昆明市,西山森林公园,,48,48,60,32,47,142,128,136,136,9,9,6,6,0.8,1
2023-03-07T19:00:00,1452A,102.7252,25.0902,昆明市,龙泉镇,颗粒物(PM10),53,56,79,31,54,141,123,134,134,15,43,6,6,0.5,0.9
2023-03-07T19:00:00,1453A,102.7266,25.0375,昆明市,东风东路,细颗粒物(PM2.5),53,52,72,37,56,131,106,125,122,24,25,6,7,0.7,1.1
2023-03-07T19:00:00,1454A,102.6742,25.0669,昆明市,金鼎山,,,57,75,36,53,132,,126,126,17,27,7,5,0.6,0.8
2023-03-07T19:00:00,1455A,102.6644,25.0401,昆明市,碧鸡广场,颗粒物(PM10),52,54,74,31,53,136,112,128,128,22,31,5,6,0.6,0.8
2023-03-07T19:00:00,1456A,91.1319,29.6514,拉萨市,八廓街,,33,33,30,8,12,110,101,106,99,19,17,9,8,0.2,0.2
2023-03-07T19:00:00,1457A,91.1221,29.6747,拉萨市,市环保局,,36,23,25,3,9,119,114,112,112,11,13,6,5,0.3,0.4
2023-03-07T19:00:00,1458A,91.0874,29.6475,拉萨市,区监测站,,35,23,24,2,8,117,112,110,108,11,13,6,6,0.1,0.1
2023-03-07T19:00:00,1459A,91.1774,29.6541,拉萨市,西藏大学,,34,16,17,4,7,116,108,112,106,11,10,5,4,0.4,0.5
2023-03-07T19:00:00,1460A,90.9798,29.6588,拉萨市,区辐射站,,39,39,33,11,13,119,119,107,107,10,16,6,7,0.5,0.6
2023-03-07T19:00:00,1461A,91.0834,29.6292,拉萨市,拉萨火车站,,36,29,26,0,6,117,114,108,108,8,11,6,6,0.2,0.4
2023-03-07T19:00:00,1462A,108.882,34.2749,西安市,高压开关厂,细颗粒物(PM2.5),150,195,229,115,108,130,109,103,103,81,117,15,17,,1.4
2023-03-07T19:00:00,1463A,108.993,34.2629,西安市,兴庆小区,细颗粒物(PM2.5),135,149,122,103,80,98,57,73,73,119,88,9,8,0.9,0.9
2023-03-07T19:00:00,1464A,109.06,34.2572,西安市,纺织城,细颗粒物(PM2.5),162,185,142,123,73,97,66,72,72,102,92,12,7,1.1,1
2023-03-07T19:00:00,1465A,108.9356,34.2173,西安市,小寨,细颗粒物(PM2.5),147,195,143,112,76,134,78,107,107,110,94,11,11,0.7,0.9
2023-03-07T19:00:00,1466A,108.954,34.2713,西安市,市人民体育场,细颗粒物(PM2.5),122,110,154,92,88,120,92,81,81,76,108,9,9,0.7,1.1
2023-03-07T19:00:00,1467A,108.8922,34.2322,西安市,高新西区,细颗粒物(PM2.5),149,183,181,114,102,117,100,100,100,86,101,11,13,0.9,1.5
2023-03-07T19:00:00,1468A,108.935,34.3474,西安市,经开区,细颗粒物(PM2.5),149,131,161,114,94,90,42,65,65,136,116,10,9,0.8,1.1
2023-03-07T19:00:00,1469A,108.906,34.1546,西安市,长安区,细颗粒物(PM2.5),115,154,129,87,68,160,122,125,125,54,65,10,10,0.6,0.6
2023-03-07T19:00:00,1471A,109.2186,34.3731,西安市,临潼区,细颗粒物(PM2.5),122,157,134,92,83,154,122,119,119,58,67,16,16,0.9,0.9
2023-03-07T19:00:00,1472A,108.869,34.378,西安市,草滩,颗粒物(PM10),85,119,146,46,58,105,84,86,86,65,85,11,15,0.4,0.5
2023-03-07T19:00:00,1473A,108.985,34.1978,西安市,曲江文化产业集团,细颗粒物(PM2.5),145,176,124,111,68,152,92,117,117,98,84,8,8,1.0,0.8
2023-03-07T19:00:00,1474A,109.051,34.3213,西安市,广运潭,细颗粒物(PM2.5),152,166,121,116,68,99,80,67,67,75,89,11,8,0.7,0.6
2023-03-07T19:00:00,1476A,103.631,36.1031,兰州市,兰炼宾馆,颗粒物(PM10),82,114,115,47,54,77,52,53,53,74,79,28,46,0.8,1.2
2023-03-07T19:00:00,1477A,104.1373,35.9454,兰州市,榆中兰大校区,,,,,,,,,,,,,,,,
2023-03-07T19:00:00,1478A,103.8412,36.0726,兰州市,生物制品所,颗粒物(PM10),63,75,102,42,48,69,44,46,46,76,76,16,19,0.9,1
2023-03-07T19:00:00,1479A,103.831,36.0464,兰州市,铁路设计院,细颗粒物(PM2.5),68,71,96,49,56,78,58,51,51,63,85,17,27,0.6,1.4
2023-03-07T19:00:00,1483A,101.524,36.6867,西宁市,第五水厂,,,,,,,,,,,,,,,,
2023-03-07T19:00:00,1484A,105.9512,38.6016,银川市,贺兰山马莲口,,50,50,36,14,13,108,108,105,101,8,10,7,9,0.1,0.1
2023-03-07T19:00:00,1488A,106.2328,38.4975,银川市,贺兰山东路,颗粒物(PM10),63,75,80,20,23,100,92,85,85,18,36,2,15,0.3,0.6
2023-03-07T19:00:00,1489A,106.1358,38.5036,银川市,学院路,颗粒物(PM10),63,76,80,12,23,99,94,86,86,18,50,4,17,0.6,0.8
2023-03-07T19:00:00,1490A,87.5801,43.8303,乌鲁木齐市,监测站,颗粒物(PM10),65,79,101,43,55,98,75,88,88,50,62,11,10,1.1,1.4
2023-03-07T19:00:00,1491A,87.6046,43.768,乌鲁木齐市,收费所,,,82,113,31,47,86,72,81,81,,68,6,6,0.5,0.7
2023-03-07T19:00:00,1492A,87.4754,43.9469,乌鲁木齐市,新疆农科院农场,细颗粒物(PM2.5),113,52,107,85,132,102,85,87,87,40,63,17,16,1.2,1.8
2023-03-07T19:00:00,1493A,87.5525,43.8711,乌鲁木齐市,铁路局,细颗粒物(PM2.5),69,76,108,50,67,109,80,93,93,57,63,7,7,0.6,1
2023-03-07T19:00:00,1494A,87.6432,43.831,乌鲁木齐市,三十一中学,颗粒物(PM10),63,76,97,33,53,106,94,100,100,20,37,11,10,0.7,0.8
2023-03-07T19:00:00,1496A,87.7216,44.1747,乌鲁木齐市,米东区环保局,细颗粒物(PM2.5),112,160,189,84,126,205,158,152,128,49,43,14,13,1.2,1.3
2023-03-07T19:00:00,1508A,112.9433,27.8614,湘潭市,板塘,细颗粒物(PM2.5),90,83,95,67,58,142,107,124,124,29,36,14,18,1.0,0.9
2023-03-07T19:00:00,1511A,112.9118,27.8403,湘潭市,市监测站,细颗粒物(PM2.5),85,110,83,63,51,139,67,113,113,89,51,11,17,1.0,0.8
2023-03-07T19:00:00,1512A,112.8937,27.8728,湘潭市,江麓,细颗粒物(PM2.5),87,75,83,64,55,158,137,142,141,24,46,10,18,0.8,0.9
2023-03-07T19:00:00,1513A,112.9227,27.8159,湘潭市,岳塘,细颗粒物(PM2.5),82,83,91,60,55,136,114,125,125,31,38,2,8,0.9,0.8
2023-03-07T19:00:00,1514A,112.9074,27.9119,湘潭市,科大,细颗粒物(PM2.5),74,79,92,54,55,150,132,133,133,18,52,8,10,0.9,1.1
2023-03-07T19:00:00,1515A,113.135,27.8244,株洲市,天台山庄,细颗粒物(PM2.5),115,90,84,87,59,159,62,130,127,89,49,8,13,1.6,1.2
2023-03-07T19:00:00,1518A,113.095,27.8867,株洲市,株冶医院,细颗粒物(PM2.5),97,95,84,72,51,147,110,130,130,38,53,8,12,0.8,0.7
2023-03-07T19:00:00,1519A,113.167,27.8667,株洲市,市四中,细颗粒物(PM2.5),103,118,82,77,55,149,52,122,119,82,47,12,16,1.3,1
2023-03-07T19:00:00,1520A,113.143,27.8381,株洲市,火车站,细颗粒物(PM2.5),115,141,88,87,57,153,71,133,124,64,46,6,14,1.5,1.2
2023-03-07T19:00:00,1524A,113.13,27.8528,株洲市,市监测站,细颗粒物(PM2.5),118,114,88,89,61,150,78,128,128,70,54,8,13,1.4,1.1
2023-03-07T19:00:00,1552A,106.805,26.3003,贵阳市,桐木岭,,,,,,,,,,,,,,,,
2023-03-07T19:00:00,1559A,113.251,27.8336,株洲市,大京风景区,细颗粒物(PM2.5),79,78,55,58,44,162,90,136,134,14,9,7,7,0.8,0.7
2023-03-07T19:00:00,1562A,113.0048,27.9153,湘潭市,昭山,细颗粒物(PM2.5),75,75,77,55,45,141,112,124,124,42,53,6,8,0.4,0.4
2023-03-07T19:00:00,1564A,112.4876,27.9164,湘潭市,韶山,颗粒物(PM10),62,74,67,31,32,141,116,131,131,18,18,9,8,0.7,0.7
2023-03-07T19:00:00,1585A,109.8756,40.6532,包头市,市环境监测站,颗粒物(PM10),100,149,106,28,39,110,98,103,103,19,56,10,22,0.3,1.2
2023-03-07T19:00:00,1587A,109.9991,40.5842,包头市,包头八中,颗粒物(PM10),98,145,114,25,40,111,101,102,102,20,56,4,11,0.5,0.9
2023-03-07T19:00:00,1588A,109.8538,40.6821,包头市,青山宾馆,颗粒物(PM10),95,140,105,32,43,106,93,96,96,21,57,7,17,0.4,1.3
2023-03-07T19:00:00,1589A,109.8642,40.6288,包头市,惠龙物流,,,90,76,21,32,99,89,99,94,,66,9,14,,1.1
2023-03-07T19:00:00,1590A,110.0377,40.5546,包头市,东河鸿龙湾,颗粒物(PM10),97,143,105,14,27,105,96,100,100,14,40,7,12,0.6,0.9
2023-03-07T19:00:00,1591A,110.0023,39.8129,鄂尔多斯市,综合楼,颗粒物(PM10),226,368,96,48,20,97,92,94,94,14,29,5,11,0.4,0.5
2023-03-07T19:00:00,1592A,109.9486,39.8261,鄂尔多斯市,巴音孟克林场办事处,颗粒物(PM10),500,625,109,83,24,86,84,84,84,8,16,6,17,0.3,0.4
2023-03-07T19:00:00,1593A,109.7736,39.5986,鄂尔多斯市,康泽苑,颗粒物(PM10),155,259,82,41,16,100,92,95,95,14,22,9,10,0.4,0.5
2023-03-07T19:00:00,1594A,109.8119,39.5989,鄂尔多斯市,华泰汽车城,颗粒物(PM10),163,276,86,51,24,102,95,97,97,10,35,7,8,0.4,0.6
2023-03-07T19:00:00,1595A,109.9734,39.7884,鄂尔多斯市,奥林花园,颗粒物(PM10),500,630,144,75,26,101,88,97,97,20,50,13,11,0.2,0.4
2023-03-07T19:00:00,1597A,122.2703,40.7094,营口市,大庆路,颗粒物(PM10),63,76,136,44,93,119,104,102,102,30,55,8,9,0.7,1.5
2023-03-07T19:00:00,1598A,122.2150,40.6511,营口市,镜湖西路,颗粒物(PM10),59,68,136,36,83,125,110,112,112,29,52,9,7,0.8,1
2023-03-07T19:00:00,1599A,122.1658,40.6789,营口市,西炮台,"颗粒物(PM10),细颗粒物(PM2.5)",64,78,137,46,82,133,109,120,120,33,49,5,6,0.8,0.9
2023-03-07T19:00:00,1600A,124.3303,40.0625,丹东市,江湾东路,细颗粒物(PM2.5),87,100,82,64,51,139,110,126,125,18,17,19,16,0.7,0.9
2023-03-07T19:00:00,1601A,124.4256,40.1503,丹东市,临江后街,颗粒物(PM10),64,78,78,44,43,138,124,132,132,12,17,9,13,0.7,0.8
2023-03-07T19:00:00,1602A,124.3933,40.1461,丹东市,元宝山,细颗粒物(PM2.5),63,69,73,45,45,132,116,122,122,18,17,11,15,0.8,0.9
2023-03-07T19:00:00,1603A,124.3633,40.1092,丹东市,民主桥,颗粒物(PM10),62,74,77,43,42,133,117,124,124,14,20,10,14,0.7,0.9
2023-03-07T19:00:00,1604A,122.0303,41.1489,盘锦市,开发区,细颗粒物(PM2.5),82,86,113,60,89,136,98,120,120,28,42,6,9,0.7,1
2023-03-07T19:00:00,1605A,122.0485,41.0883,盘锦市,兴隆台,细颗粒物(PM2.5),88,88,115,65,88,130,96,117,117,26,46,7,9,0.6,1
2023-03-07T19:00:00,1606A,121.8297,41.1028,盘锦市,新生街道,细颗粒物(PM2.5),80,59,58,59,61,132,87,119,118,38,46,7,10,0.7,0.8
2023-03-07T19:00:00,1607A,120.9092,40.7136,葫芦岛市,龙港区,细颗粒物(PM2.5),122,95,115,92,104,134,131,108,108,19,33,11,20,0.7,0.8
2023-03-07T19:00:00,1608A,120.8392,40.7514,葫芦岛市,化工街,细颗粒物(PM2.5),132,127,175,100,118,126,105,108,108,34,56,7,14,1.3,1.4
2023-03-07T19:00:00,1609A,120.8341,40.7073,葫芦岛市,新区,细颗粒物(PM2.5),140,101,125,107,104,128,,105,105,31,57,15,18,1.0,1.2
2023-03-07T19:00:00,1610A,120.8695,40.7677,葫芦岛市,东城区,细颗粒物(PM2.5),139,114,155,106,122,124,102,110,110,42,54,10,15,1.1,1.4
2023-03-07T19:00:00,1611A,118.5819,24.9117,泉州市,涂山街,颗粒物(PM10),52,54,58,23,22,146,136,138,138,22,22,9,11,0.6,0.5
2023-03-07T19:00:00,1612A,118.5972,24.8978,泉州市,津头埔,颗粒物(PM10),51,52,56,24,21,147,138,136,136,25,26,8,10,0.5,0.5
2023-03-07T19:00:00,1613A,118.6663,24.9424,泉州市,万安,颗粒物(PM10),57,64,48,37,22,156,145,147,147,22,19,9,10,0.5,0.5
2023-03-07T19:00:00,1614A,118.6117,24.9604,泉州市,清源山,,,,,,,,,,,,,,,,
2023-03-07T19:00:00,1616A,117.6795,36.229,济南市,技术学院,颗粒物(PM10),78,105,155,49,86,182,162,170,170,27,64,13,15,1.0,1.2
2023-03-07T19:00:00,1618A,118.3429,35.0532,临沂市,沂河小区,颗粒物(PM10),68,85,130,45,76,154,130,139,139,24,52,13,16,0.3,0.5
2023-03-07T19:00:00,1619A,118.295,35.0583,临沂市,鲁南制药厂,颗粒物(PM10),67,83,126,35,67,171,142,154,154,29,59,14,20,0.4,0.7
2023-03-07T19:00:00,1620A,118.2794,34.9976,临沂市,新光毛纺厂,颗粒物(PM10),70,90,136,38,76,157,131,144,144,25,57,12,22,0.4,0.6
2023-03-07T19:00:00,1621A,118.3956,35.0888,临沂市,河东保险公司,颗粒物(PM10),69,88,131,36,75,169,146,152,152,32,62,16,18,0.6,0.8
2023-03-07T19:00:00,1622A,116.3032,37.4674,德州市,儿童乐园,细颗粒物(PM2.5),89,124,173,66,106,190,168,173,173,28,64,10,15,0.8,1
2023-03-07T19:00:00,1624A,116.2991,37.4451,德州市,监理站,细颗粒物(PM2.5),100,144,187,75,110,176,155,160,159,23,64,15,18,0.6,0.9
2023-03-07T19:00:00,1625A,115.9848,36.4372,聊城市,区政府,细颗粒物(PM2.5),113,153,182,85,100,179,132,154,154,38,44,13,19,0.6,0.7
2023-03-07T19:00:00,1628A,118.0062,37.3803,滨州市,市环保局,细颗粒物(PM2.5),99,140,214,74,128,183,117,162,161,48,49,11,19,1.0,1.2
2023-03-07T19:00:00,1629A,118.0018,37.3617,滨州市,第二水厂,颗粒物(PM10),96,141,220,68,131,186,134,169,169,43,60,10,16,0.8,1.3
2023-03-07T19:00:00,1630A,117.9776,37.393,滨州市,北中新校,颗粒物(PM10),90,130,195,66,113,185,123,166,164,52,59,5,14,0.8,1.2
2023-03-07T19:00:00,1631A,118.0414,36.8103,淄博市,人民公园,细颗粒物(PM2.5),79,92,210,58,124,178,136,160,160,37,79,16,23,0.7,1.6
2023-03-07T19:00:00,1633A,117.8525,36.4847,淄博市,双山,颗粒物(PM10),67,84,148,46,87,173,152,162,162,25,48,13,22,0.6,1
2023-03-07T19:00:00,1634A,117.9592,36.6331,淄博市,气象站,颗粒物(PM10),86,122,198,58,101,173,135,165,163,40,68,22,26,0.5,0.9
2023-03-07T19:00:00,1635A,118.3092,36.8194,淄博市,莆田园,颗粒物(PM10),81,112,187,53,99,172,150,163,163,33,62,22,23,0.8,2.1
2023-03-07T19:00:00,1637A,117.558,34.8438,枣庄市,市中区政府,颗粒物(PM10),81,112,151,51,72,168,138,146,146,51,78,6,16,1.0,1.1
2023-03-07T19:00:00,1638A,117.2852,34.7837,枣庄市,薛城环保局,"颗粒物(PM10),细颗粒物(PM2.5)",77,103,115,56,63,174,148,156,156,29,43,16,18,0.7,0.8
2023-03-07T19:00:00,1639A,117.5852,34.7745,枣庄市,峄城区政府,颗粒物(PM10),86,122,150,46,68,171,129,147,147,36,54,14,16,0.6,0.7
2023-03-07T19:00:00,1640A,117.7276,34.5578,枣庄市,台儿庄区环保局,颗粒物(PM10),73,95,114,39,59,166,120,136,136,36,70,12,14,0.8,1
2023-03-07T19:00:00,1641A,117.4518,35.0992,枣庄市,山亭区环保局,颗粒物(PM10),67,83,100,44,52,177,153,159,159,32,38,10,11,0.7,0.9
2023-03-07T19:00:00,1642A,121.2514,37.5639,烟台市,开发区,细颗粒物(PM2.5),128,144,151,97,113,150,129,84,84,42,53,20,14,0.7,0.8
2023-03-07T19:00:00,1643A,121.3719,37.5433,烟台市,轴承厂,细颗粒物(PM2.5),139,153,141,106,112,188,158,118,118,38,44,9,7,0.9,0.9
2023-03-07T19:00:00,1644A,121.3181,37.5436,烟台市,西郊化工站,细颗粒物(PM2.5),122,158,176,92,112,183,169,116,116,32,55,12,10,0.8,0.9
2023-03-07T19:00:00,1645A,121.4478,37.4822,烟台市,莱山环保局,细颗粒物(PM2.5),138,175,142,105,96,180,166,120,120,31,48,13,11,1.3,1.3
2023-03-07T19:00:00,1646A,121.2611,37.4967,烟台市,福山环保局,细颗粒物(PM2.5),140,175,171,107,100,178,140,152,152,47,47,13,11,1.2,1.3
2023-03-07T19:00:00,1650A,119.1437,36.7023,潍坊市,环保局,颗粒物(PM10),87,124,190,61,118,183,123,164,162,53,59,13,12,0.8,1.1
2023-03-07T19:00:00,1653A,116.6251,35.4302,济宁市,火炬城,颗粒物(PM10),63,76,101,41,66,174,139,151,151,19,37,9,16,0.8,1
2023-03-07T19:00:00,1655A,116.5491,35.4042,济宁市,电化厂,细颗粒物(PM2.5),94,122,123,70,70,173,122,146,146,30,31,8,16,0.8,0.9
2023-03-07T19:00:00,1656A,117.1437,36.1937,泰安市,监测站,细颗粒物(PM2.5),119,144,140,90,93,172,138,156,156,35,34,8,8,0.9,1.1
2023-03-07T19:00:00,1657A,117.0885,36.2017,泰安市,人口学校,细颗粒物(PM2.5),109,136,127,82,80,194,174,181,181,34,40,14,14,0.6,0.7
2023-03-07T19:00:00,1658A,117.1089,36.1758,泰安市,电力学校,细颗粒物(PM2.5),99,129,151,74,86,179,151,162,162,32,60,18,17,0.7,1.1
2023-03-07T19:00:00,1659A,119.471,35.4209,日照市,监测站,细颗粒物(PM2.5),125,175,169,95,95,86,47,76,71,135,94,14,17,0.9,1.5
2023-03-07T19:00:00,1660A,119.523,35.4216,日照市,市政府广场,细颗粒物(PM2.5),127,166,160,96,88,109,91,87,87,80,62,10,11,1.1,1.1
2023-03-07T19:00:00,1661A,119.5587,35.4044,日照市,港务局,细颗粒物(PM2.5),125,168,159,95,92,110,78,90,87,97,74,11,11,0.9,0.9
2023-03-07T19:00:00,1662A,122.1214,37.4236,威海市,华夏技校,细颗粒物(PM2.5),140,153,110,107,75,171,152,114,114,40,43,7,5,0.8,0.7
2023-03-07T19:00:00,1663A,122.0508,37.5236,威海市,山大分校,细颗粒物(PM2.5),129,166,115,98,67,193,193,131,131,28,32,8,5,0.7,0.5
2023-03-07T19:00:00,1664A,122.1067,37.5072,威海市,市监测站,细颗粒物(PM2.5),110,151,98,83,63,119,119,109,76,67,40,8,5,1.1,0.8
2023-03-07T19:00:00,1666A,118.6614,37.4309,东营市,市环保局,细颗粒物(PM2.5),147,210,214,112,145,234,151,190,190,80,38,18,16,1.3,1.4
2023-03-07T19:00:00,1669A,113.5824,24.7733,韶关市,市八中,,,54,66,29,35,174,,153,153,30,34,20,17,0.6,0.6
2023-03-07T19:00:00,1671A,113.5917,24.7972,韶关市,园林处,,50,50,69,26,40,161,119,138,138,25,34,13,18,0.7,0.8
2023-03-07T19:00:00,1672A,113.6735,24.7791,韶关市,韶关学院,颗粒物(PM10),53,56,66,26,41,188,160,167,167,28,31,16,19,0.7,0.7
2023-03-07T19:00:00,1673A,113.5971,24.6863,韶关市,曲江监测站,颗粒物(PM10),56,61,70,32,39,182,143,159,159,32,44,13,15,0.8,0.7
2023-03-07T19:00:00,1674A,116.6794,23.3667,汕头市,金平子站,,42,41,46,20,25,134,132,125,125,19,28,13,22,0.7,0.7
2023-03-07T19:00:00,1675A,116.7244,23.3633,汕头市,龙湖子站,,46,46,43,26,18,136,123,126,126,23,26,4,8,0.6,0.5
2023-03-07T19:00:00,1676A,116.7258,23.2775,汕头市,濠江子站,颗粒物(PM10),54,58,39,26,19,130,121,121,121,26,21,10,13,0.6,0.6
2023-03-07T19:00:00,1677A,116.7519,23.4714,汕头市,澄海子站,颗粒物(PM10),54,58,43,31,24,138,107,123,123,33,24,5,9,0.7,0.6
2023-03-07T19:00:00,1678A,116.6092,23.2539,汕头市,潮阳子站,颗粒物(PM10),55,59,42,18,16,122,96,103,103,28,21,6,8,0.6,0.6
2023-03-07T19:00:00,1680A,110.3539,21.2706,湛江市,湛江影剧院,,40,40,48,22,18,137,103,136,108,9,10,5,6,0.5,0.5
2023-03-07T19:00:00,1681A,110.3928,21.2228,湛江市,市环境监测站,,48,48,46,25,18,133,108,128,111,8,12,6,7,0.5,0.5
2023-03-07T19:00:00,1682A,110.4019,21.1997,湛江市,环保局宿舍,,45,45,43,25,19,143,113,141,114,8,8,5,5,0.4,0.4
2023-03-07T19:00:00,1683A,110.4111,21.2028,湛江市,霞山游泳场,,47,47,43,25,19,147,120,147,119,9,8,4,4,0.4,0.4
2023-03-07T19:00:00,1684A,110.3316,21.2679,湛江市,麻章区环保局,颗粒物(PM10),53,55,58,24,24,144,103,144,114,12,15,6,7,0.4,0.4
2023-03-07T19:00:00,1685A,110.4558,21.2567,湛江市,坡头区环保局,,45,45,43,26,20,138,126,135,121,8,10,7,7,0.6,0.5
2023-03-07T19:00:00,1686A,111.0286,21.4688,茂名市,电白南海,,46,46,55,22,21,151,114,128,122,15,14,6,6,0.4,0.4
2023-03-07T19:00:00,1687A,110.9294,21.6533,茂名市,茂石化七小,,46,46,56,24,28,137,92,126,106,16,14,7,10,0.5,0.5
2023-03-07T19:00:00,1688A,110.9107,21.6687,茂名市,健康路,,44,44,51,15,19,142,92,136,104,15,14,7,10,0.5,0.5
2023-03-07T19:00:00,1689A,110.8592,21.6828,茂名市,高岭,,,,59,,30,142,,136,107,12,19,8,16,0.5,0.6
2023-03-07T19:00:00,1690A,116.1231,24.3284,梅州市,梅江月梅,颗粒物(PM10),59,68,64,34,33,176,153,161,161,18,32,10,12,0.6,0.6
2023-03-07T19:00:00,1691A,116.0797,24.2719,梅州市,梅县新城,细颗粒物(PM2.5),72,70,66,52,34,172,104,150,150,50,36,9,11,0.8,0.6
2023-03-07T19:00:00,1692A,116.1248,24.2654,梅州市,环境监控中心,"颗粒物(PM10),细颗粒物(PM2.5)",60,69,65,43,33,183,117,160,160,50,46,10,12,0.8,0.6
2023-03-07T19:00:00,1693A,115.3653,22.775,汕尾市,市环保局,,,44,40,20,21,140,115,124,124,,12,9,11,0.4,0.3
2023-03-07T19:00:00,1694A,115.3706,22.7898,汕尾市,市政府,,40,34,42,18,22,145,126,129,129,14,16,10,10,0.4,0.3
2023-03-07T19:00:00,1695A,115.3622,22.7925,汕尾市,新城中学,,44,44,56,23,23,138,115,123,123,18,12,8,8,0.4,0.3
2023-03-07T19:00:00,1696A,114.6778,23.7569,河源市,源西,颗粒物(PM10),65,79,78,31,27,178,100,152,152,52,35,8,9,0.8,0.6
2023-03-07T19:00:00,1697A,114.6944,23.7586,河源市,东埔,,,74,76,34,29,179,120,156,156,,26,6,7,0.7,0.6
2023-03-07T19:00:00,1698A,114.6892,23.7233,河源市,老城,颗粒物(PM10),74,98,87,34,31,178,140,162,162,26,25,6,7,0.7,0.6
2023-03-07T19:00:00,1699A,111.9797,21.8593,阳江市,鸳鸯湖,,36,22,47,16,22,155,113,113,113,5,28,7,8,0.5,0.7
2023-03-07T19:00:00,1701A,111.9491,21.8658,阳江市,马南垌,,50,50,57,15,22,157,109,109,109,7,25,5,6,0.6,0.6
2023-03-07T19:00:00,1702A,113.0426,23.691,清远市,环保大楼,颗粒物(PM10),60,69,84,37,51,205,164,165,165,53,46,7,9,0.8,0.8
2023-03-07T19:00:00,1703A,113.0208,23.7106,清远市,凤城街办,颗粒物(PM10),69,88,91,35,46,158,132,131,131,43,40,10,9,0.7,0.8
2023-03-07T19:00:00,1705A,116.6367,23.6719,潮州市,西园路,细颗粒物(PM2.5),57,55,51,40,32,126,114,113,113,19,20,5,5,0.4,0.4
2023-03-07T19:00:00,1706A,116.6447,23.6706,潮州市,档案局,细颗粒物(PM2.5),67,45,48,48,29,141,112,129,127,16,20,13,11,0.5,0.5
2023-03-07T19:00:00,1708A,116.3701,23.5345,揭阳市,新兴,颗粒物(PM10),52,54,54,27,26,159,95,129,129,25,23,11,12,0.6,0.6
2023-03-07T19:00:00,1709A,116.3264,23.5443,揭阳市,西马,颗粒物(PM10),64,77,57,27,28,161,109,134,134,18,26,11,13,0.5,0.6
2023-03-07T19:00:00,1710A,116.3611,23.5626,揭阳市,东兴,颗粒物(PM10),52,53,54,21,24,182,125,151,151,22,33,6,10,0.6,0.6
2023-03-07T19:00:00,1711A,116.4151,23.5294,揭阳市,渔湖,,42,42,55,17,31,172,101,136,136,23,30,17,13,0.8,0.5
2023-03-07T19:00:00,1712A,112.0392,22.9169,云浮市,新市府,,45,45,39,22,24,128,120,123,122,10,12,5,3,0.6,0.7
2023-03-07T19:00:00,1714A,112.0539,22.9539,云浮市,牧羊,,,39,66,34,28,139,100,104,104,16,36,8,9,,0.7
2023-03-07T19:00:00,1715A,102.575,24.3711,玉溪市,东风水库,细颗粒物(PM2.5),54,48,69,38,54,130,125,124,124,10,13,8,9,0.7,0.9
2023-03-07T19:00:00,1718A,115.4208,35.2464,菏泽市,气象局,细颗粒物(PM2.5),128,188,137,97,74,184,150,159,159,33,35,14,20,0.7,0.7
2023-03-07T19:00:00,1719A,115.4747,35.2375,菏泽市,市政协,细颗粒物(PM2.5),117,179,130,88,70,196,156,161,161,33,36,16,17,0.8,0.7
2023-03-07T19:00:00,1721A,113.3819,40.1097,大同市,果树场,,,,,,,,,,,,,,,,
2023-03-07T19:00:00,1723A,113.2994,40.0758,大同市,云冈宾馆,颗粒物(PM10),85,119,115,32,34,112,102,100,100,21,46,12,19,0.3,0.7
2023-03-07T19:00:00,1724A,113.3444,40.0917,大同市,大同大学,颗粒物(PM10),57,64,96,25,34,108,98,97,97,22,44,10,22,0.4,0.7
2023-03-07T19:00:00,1725A,113.2661,40.1269,大同市,安家小村,颗粒物(PM10),78,106,134,38,49,104,102,96,96,8,36,8,21,0.2,1.4
2023-03-07T19:00:00,1726A,113.2711,40.0844,大同市,教育学院,颗粒物(PM10),82,113,114,27,44,100,87,90,90,26,45,9,22,0.4,0.9
2023-03-07T19:00:00,1727A,113.1147,36.1547,长治市,清华站,,50,50,99,22,48,120,88,103,103,33,54,7,11,0.3,0.6
2023-03-07T19:00:00,1728A,113.1031,36.1989,长治市,监测站,,44,44,97,19,50,109,90,96,96,19,48,5,11,0.3,0.8
2023-03-07T19:00:00,1730A,113.0886,36.2125,长治市,审计局,,47,47,89,24,52,110,90,99,99,23,53,7,13,0.4,0.7
2023-03-07T19:00:00,1731A,113.0844,36.1856,长治市,长治八中,颗粒物(PM10),57,63,117,18,51,106,75,91,91,21,42,4,11,0.3,0.7
2023-03-07T19:00:00,1733A,111.5531,36.0783,临汾市,临钢医院,"颗粒物(PM10),细颗粒物(PM2.5)",104,157,151,78,76,144,112,105,105,43,46,26,15,1.5,1.3
2023-03-07T19:00:00,1734A,111.5028,36.0714,临汾市,技工学校,细颗粒物(PM2.5),112,,187,84,75,146,111,101,101,45,52,28,18,1.3,1.2
2023-03-07T19:00:00,1736A,111.5018,36.0855,临汾市,市委,细颗粒物(PM2.5),102,132,136,76,74,160,121,113,113,42,49,21,14,1.5,1.5
2023-03-07T19:00:00,1738A,113.5758,37.8572,阳泉市,市中心,颗粒物(PM10),59,67,110,15,34,111,89,101,101,33,61,11,22,0.7,0.9
2023-03-07T19:00:00,1739A,113.4894,37.8731,阳泉市,赛鱼,颗粒物(PM10),72,93,88,25,33,110,54,97,97,62,62,11,15,0.7,0.7
2023-03-07T19:00:00,1740A,113.5819,37.8486,阳泉市,南庄,颗粒物(PM10),81,112,114,35,44,114,79,107,103,43,55,12,18,0.7,0.9
2023-03-07T19:00:00,1742A,113.5614,37.8703,阳泉市,平坦,颗粒物(PM10),59,67,105,26,35,114,91,104,104,35,66,11,21,0.8,0.9
2023-03-07T19:00:00,1743A,113.5158,37.8392,阳泉市,大阳泉,颗粒物(PM10),56,62,57,28,28,115,102,110,109,24,29,10,13,0.4,0.5
2023-03-07T19:00:00,1744A,118.9233,42.2816,赤峰市,松山一中,颗粒物(PM10),104,158,120,24,45,120,81,101,101,24,47,8,20,0.3,1
2023-03-07T19:00:00,1745A,118.9576,42.2728,赤峰市,哈达街,颗粒物(PM10),98,145,114,28,45,119,70,98,98,30,51,11,22,0.4,0.9
2023-03-07T19:00:00,1746A,118.8788,42.2554,赤峰市,天义路,颗粒物(PM10),98,146,82,21,27,123,74,109,101,23,41,12,16,0.5,0.9
2023-03-07T19:00:00,1748A,123.044,41.1196,鞍山市,深沟寺,颗粒物(PM10),54,57,69,32,45,114,100,112,110,18,15,8,9,0.5,0.6
2023-03-07T19:00:00,1749A,123.011,41.0931,鞍山市,太阳城,颗粒物(PM10),53,56,82,29,49,110,98,109,108,18,21,8,10,0.7,0.9
2023-03-07T19:00:00,1750A,123.0485,41.1442,鞍山市,太平,颗粒物(PM10),74,97,76,52,46,106,79,103,100,40,24,10,10,0.6,0.5
2023-03-07T19:00:00,1751A,122.9642,41.0971,鞍山市,铁西三道街,颗粒物(PM10),60,69,97,37,57,111,91,106,105,30,43,9,9,1.0,1.2
2023-03-07T19:00:00,1752A,122.9341,41.0833,鞍山市,铁西工业园区,颗粒物(PM10),57,63,102,35,61,113,108,111,110,15,46,9,11,0.7,1.3
2023-03-07T19:00:00,1753A,123.022,41.0821,鞍山市,明达新区,颗粒物(PM10),54,58,78,31,48,116,106,112,112,21,24,5,7,0.5,0.7
2023-03-07T19:00:00,1754A,123.1289,41.0228,鞍山市,千山,,,,,,,,,,,,,,,,
2023-03-07T19:00:00,1755A,123.7977,41.8491,抚顺市,望花区,细颗粒物(PM2.5),77,82,145,56,89,106,86,100,98,26,49,15,15,0.8,1.1
2023-03-07T19:00:00,1756A,123.9161,41.8822,抚顺市,顺城区,颗粒物(PM10),66,81,132,32,77,131,106,119,119,25,49,10,9,0.7,1.1
2023-03-07T19:00:00,1757A,124.0436,41.8611,抚顺市,东洲区,颗粒物(PM10),57,63,109,29,69,121,109,118,117,18,25,5,4,0.5,0.7
2023-03-07T19:00:00,1758A,123.9247,41.8642,抚顺市,新抚区,颗粒物(PM10),67,83,132,39,92,109,88,103,102,29,46,11,10,0.7,1.1
2023-03-07T19:00:00,1759A,124.0972,41.8961,抚顺市,大伙房水库,颗粒物(PM10),62,74,109,29,69,132,122,128,128,16,26,9,7,0.5,0.7
2023-03-07T19:00:00,1760A,123.7086,41.8391,抚顺市,沈抚新城,颗粒物(PM10),67,83,140,43,91,116,86,109,108,27,48,13,14,0.8,1.2
2023-03-07T19:00:00,1761A,123.8275,41.3064,本溪市,大峪,颗粒物(PM10),55,60,88,27,49,109,102,105,105,15,25,4,5,0.5,0.6
2023-03-07T19:00:00,1762A,123.7567,41.3325,本溪市,溪湖,颗粒物(PM10),68,86,98,46,58,113,94,103,102,37,41,27,21,1.3,1.3
2023-03-07T19:00:00,1763A,123.7169,41.3094,本溪市,彩屯,颗粒物(PM10),81,111,129,56,73,101,56,92,84,76,56,59,29,3.5,2.6
2023-03-07T19:00:00,1764A,123.7669,41.2864,本溪市,东明,颗粒物(PM10),59,67,82,41,57,114,113,112,112,19,42,9,9,0.7,0.9
2023-03-07T19:00:00,1765A,123.7992,41.2664,本溪市,新立屯,颗粒物(PM10),64,78,79,37,51,114,112,111,111,18,41,7,7,0.4,0.6
2023-03-07T19:00:00,1766A,123.8142,41.3472,本溪市,威宁,,,80,118,29,60,110,,107,107,10,38,7,7,,1.1
2023-03-07T19:00:00,1767A,121.1115,41.0879,锦州市,南山,细颗粒物(PM2.5),150,119,187,115,145,154,138,133,133,40,60,11,18,0.7,1.4
2023-03-07T19:00:00,1768A,121.0533,40.8434,锦州市,开发区,细颗粒物(PM2.5),124,100,155,94,109,135,132,112,112,40,68,52,32,0.9,1.1
2023-03-07T19:00:00,1769A,121.1836,41.1119,锦州市,百股街道,细颗粒物(PM2.5),144,111,112,110,118,155,140,132,132,34,56,13,20,1.1,1.3
2023-03-07T19:00:00,1770A,121.1178,41.1222,锦州市,天安街道,细颗粒物(PM2.5),158,132,208,120,163,150,,126,126,43,64,12,28,1.0,2
2023-03-07T19:00:00,1771A,121.1303,41.1386,锦州市,北湖公园,细颗粒物(PM2.5),140,112,185,107,152,152,125,126,126,43,61,14,35,1.2,1.8
2023-03-07T19:00:00,1772A,126.54,43.8622,吉林市,哈达湾,颗粒物(PM10),120,189,120,64,71,145,140,129,129,22,25,8,9,0.9,0.9
2023-03-07T19:00:00,1773A,126.5844,43.8358,吉林市,东局子,颗粒物(PM10),110,170,127,69,77,141,138,125,125,22,28,10,10,0.9,0.9
2023-03-07T19:00:00,1774A,126.5052,43.8245,吉林市,电力学院,颗粒物(PM10),115,179,139,70,90,150,146,135,135,18,35,11,11,0.9,1.1
2023-03-07T19:00:00,1775A,126.6133,43.8972,吉林市,江北,颗粒物(PM10),114,178,136,68,87,136,129,122,122,31,27,11,12,0.9,1.1
2023-03-07T19:00:00,1776A,126.555,43.8306,吉林市,江南公园,颗粒物(PM10),110,170,123,74,82,142,137,127,127,23,29,9,9,0.8,0.9
2023-03-07T19:00:00,1778A,126.7061,43.7133,吉林市,丰满,,,,,,,,,,,,,,,,
2023-03-07T19:00:00,1779A,123.9305,47.3636,齐齐哈尔市,安居小区,,30,30,27,13,18,90,69,80,79,12,9,5,5,0.3,0.2
2023-03-07T19:00:00,1780A,123.9488,47.3386,齐齐哈尔市,中心广场,,25,25,27,5,7,84,65,82,72,14,11,5,5,0.2,0.2
2023-03-07T19:00:00,1781A,123.9483,47.3227,齐齐哈尔市,农牧车辆厂,,27,27,30,7,9,81,65,72,70,13,12,5,5,0.3,0.3
2023-03-07T19:00:00,1783A,123.945,47.2988,齐齐哈尔市,市环境监测站,,23,22,30,4,12,86,72,79,75,13,12,7,7,0.4,0.4
2023-03-07T19:00:00,1784A,129.61,44.561,牡丹江市,环保大楼,颗粒物(PM10),61,72,102,40,69,121,84,107,106,29,36,6,7,0.5,0.8
2023-03-07T19:00:00,1785A,129.6115,44.5782,牡丹江市,文化广场,颗粒物(PM10),65,80,113,43,75,109,80,93,93,33,48,6,8,0.6,1
2023-03-07T19:00:00,1786A,129.5904,44.5963,牡丹江市,第一医院,细颗粒物(PM2.5),72,79,105,52,81,117,88,100,100,30,42,5,6,0.6,0.9
2023-03-07T19:00:00,1787A,129.6364,44.6075,牡丹江市,机车工厂,细颗粒物(PM2.5),70,69,115,51,69,115,70,98,97,41,46,1,2,0.7,0.9
2023-03-07T19:00:00,1788A,129.6386,44.5462,牡丹江市,第一中学,"颗粒物(PM10),细颗粒物(PM2.5)",52,53,87,36,56,122,96,111,111,21,33,3,5,0.5,0.7
2023-03-07T19:00:00,1789A,124.81117,46.03138,大庆市,大同区,,45,45,42,20,27,69,47,68,51,20,18,5,8,0.4,0.7
2023-03-07T19:00:00,1790A,125.129,46.533,大庆市,龙凤区,,32,32,31,15,19,72,64,68,60,18,23,4,6,0.6,0.6
2023-03-07T19:00:00,1791A,124.902,46.408,大庆市,红岗区,,41,41,29,12,17,75,51,70,60,37,20,8,10,0.5,0.5
2023-03-07T19:00:00,1792A,125.153,46.586,大庆市,萨尔图区,,22,6,21,15,14,71,61,67,58,16,18,7,7,0.4,0.5
2023-03-07T19:00:00,1793A,124.9042,46.6215,大庆市,让胡路区,,35,29,20,24,14,87,66,78,72,14,16,5,5,0.2,0.3
2023-03-07T19:00:00,1794A,118.3606,31.3519,芜湖市,监测站,颗粒物(PM10),54,57,71,37,39,147,104,124,124,66,66,9,9,0.6,0.6
2023-03-07T19:00:00,1795A,118.3714,31.4134,芜湖市,科创中心,细颗粒物(PM2.5),65,77,86,47,46,124,41,104,100,115,74,8,8,0.7,0.7
2023-03-07T19:00:00,1796A,118.3673,31.3131,芜湖市,四水厂,颗粒物(PM10),62,74,82,37,42,150,102,124,124,58,55,10,9,0.6,0.6
2023-03-07T19:00:00,1798A,118.5092,31.6837,马鞍山市,湖东路四小,颗粒物(PM10),64,78,75,39,44,131,105,120,120,50,42,10,12,1.0,1.1
2023-03-07T19:00:00,1799A,118.5024,31.6449,马鞍山市,开发区,颗粒物(PM10),78,105,113,40,49,134,100,117,117,58,64,13,14,0.7,1.2
2023-03-07T19:00:00,1800A,118.5228,31.7231,马鞍山市,慈湖,颗粒物(PM10),70,90,90,36,45,129,111,118,118,45,45,11,13,1.0,0.8
2023-03-07T19:00:00,1802A,118.6245,31.7241,马鞍山市,濮塘,,49,49,64,32,36,140,129,134,134,15,20,6,9,0.9,1
2023-03-07T19:00:00,1803A,115.9872,29.6815,九江市,十里,颗粒物(PM10),60,69,73,42,35,148,126,123,123,31,57,12,10,0.8,0.8
2023-03-07T19:00:00,1804A,115.9584,29.7046,九江市,茅山头,颗粒物(PM10),66,81,73,35,44,130,124,121,121,35,58,13,11,0.9,0.9
2023-03-07T19:00:00,1805A,115.9877,29.7295,九江市,西园,颗粒物(PM10),55,60,65,36,38,123,112,107,107,44,66,13,10,1.2,0.9
2023-03-07T19:00:00,1806A,116.0172,29.6547,九江市,五七二七厂,颗粒物(PM10),54,57,55,28,28,161,161,138,138,10,22,13,11,0.4,0.5
2023-03-07T19:00:00,1808A,115.9114,29.6038,九江市,综合工业园,细颗粒物(PM2.5),83,87,70,61,41,152,70,113,113,70,58,13,13,0.9,0.8
2023-03-07T19:00:00,1809A,116.0721,29.7535,九江市,石化总厂,颗粒物(PM10),55,60,65,30,29,139,92,118,117,54,46,20,23,0.8,0.7
2023-03-07T19:00:00,1810A,115.9773,29.5698,九江市,庐山气象台,,43,38,31,30,24,129,126,125,125,22,14,11,9,1.0,0.8
2023-03-07T19:00:00,1812A,112.3931,34.6516,洛阳市,市委党校,,,89,119,32,60,165,,132,132,57,53,6,13,0.6,0.9
2023-03-07T19:00:00,1814A,112.4657,34.6871,洛阳市,豫西宾馆,细颗粒物(PM2.5),75,88,129,55,66,175,83,146,146,79,68,5,17,1.1,1.1
2023-03-07T19:00:00,1815A,112.494,34.6886,洛阳市,河南林校,颗粒物(PM10),82,113,115,50,65,178,79,139,139,77,56,7,13,0.9,1
2023-03-07T19:00:00,1816A,112.3844,34.623,洛阳市,开发区管委会,颗粒物(PM10),58,65,93,31,56,168,123,154,149,36,34,6,9,0.4,0.5
2023-03-07T19:00:00,1817A,112.4267,34.6258,洛阳市,市委新办公区,颗粒物(PM10),61,72,90,39,63,164,128,142,142,39,35,7,9,0.4,0.5
2023-03-07T19:00:00,1818A,114.4839,36.0621,安阳市,棉研所,,,,,,,,,,,,,,,,
2023-03-07T19:00:00,1819A,114.3551,36.1017,安阳市,红庙街,细颗粒物(PM2.5),152,171,175,116,117,201,187,179,179,37,71,21,24,0.8,1.9
2023-03-07T19:00:00,1820A,114.361,36.0681,安阳市,银杏小区,细颗粒物(PM2.5),172,169,177,130,123,202,188,182,182,30,66,19,20,0.8,1.7
2023-03-07T19:00:00,1824A,114.3389,34.7781,开封市,肿瘤医院,细颗粒物(PM2.5),137,148,129,104,85,213,149,177,177,39,40,12,9,0.8,0.7
2023-03-07T19:00:00,1826A,114.2885,34.7965,开封市,世纪星幼儿园,细颗粒物(PM2.5),129,147,131,98,92,205,160,176,176,28,36,16,14,0.8,0.7
2023-03-07T19:00:00,1828A,113.227,35.2125,焦作市,市环保局,颗粒物(PM10),88,125,125,54,67,164,115,140,137,42,38,12,11,0.8,1
2023-03-07T19:00:00,1830A,113.1992,35.2590,焦作市,影视城,,,,,,,,,,,,,,,,
2023-03-07T19:00:00,1832A,113.3257,33.742,平顶山市,新华旅馆,颗粒物(PM10),74,98,106,46,57,182,136,148,148,24,39,10,9,0.8,1
2023-03-07T19:00:00,1833A,113.2919,33.737,平顶山市,规划设计院,细颗粒物(PM2.5),78,86,102,57,62,179,130,143,143,14,37,9,8,0.7,0.8
2023-03-07T19:00:00,1834A,113.182,33.774,平顶山市,平顶山工学院,颗粒物(PM10),71,91,106,48,53,181,129,163,163,13,17,7,8,0.6,0.6
2023-03-07T19:00:00,1835A,111.1922,34.7752,三门峡市,市政府,细颗粒物(PM2.5),83,79,109,61,80,155,100,128,128,69,73,13,19,0.9,1
2023-03-07T19:00:00,1836A,111.1587,34.7942,三门峡市,开发区,细颗粒物(PM2.5),83,98,124,61,72,170,151,144,144,26,40,8,13,0.8,0.9
2023-03-07T19:00:00,1838A,111.143,34.7955,三门峡市,风景区,,,,,,,,,,,,,,,,
2023-03-07T19:00:00,1840A,111.2992,30.6981,宜昌市,白龙岗,细颗粒物(PM2.5),58,61,40,41,25,101,62,84,82,50,28,14,12,0.9,0.7
2023-03-07T19:00:00,1841A,111.3549,30.6465,宜昌市,伍家岗,细颗粒物(PM2.5),72,60,44,52,29,118,69,89,89,40,28,11,9,1.0,0.7
2023-03-07T19:00:00,1842A,111.2628,30.6961,宜昌市,点军区,,48,48,41,31,26,101,58,78,75,63,21,8,5,0.8,0.7
2023-03-07T19:00:00,1843A,111.3275,30.7819,宜昌市,夷陵区,细颗粒物(PM2.5),64,53,41,46,26,104,69,87,87,51,20,9,6,0.7,0.5
2023-03-07T19:00:00,1844A,112.2494,30.3197,荆州市,市图书馆,细颗粒物(PM2.5),77,59,63,56,47,134,99,107,107,32,36,12,8,0.9,0.7
2023-03-07T19:00:00,1845A,112.2008,30.3544,荆州市,市委党校,细颗粒物(PM2.5),74,72,63,54,49,128,88,102,102,42,30,8,8,1.0,0.8
2023-03-07T19:00:00,1847A,113.1094,29.3578,岳阳市,南湖风景区,细颗粒物(PM2.5),65,69,72,47,48,140,121,127,127,40,69,10,13,0.6,0.5
2023-03-07T19:00:00,1848A,113.1493,29.4251,岳阳市,城陵矶,颗粒物(PM10),62,74,92,43,48,141,130,125,125,24,72,9,10,0.9,0.8
2023-03-07T19:00:00,1849A,113.1497,29.3575,岳阳市,开发区,细颗粒物(PM2.5),85,71,72,63,53,144,117,130,130,26,46,12,15,0.9,0.7
2023-03-07T19:00:00,1850A,113.2621,29.4758,岳阳市,云溪区,细颗粒物(PM2.5),70,74,75,51,48,152,113,126,126,32,38,7,8,0.8,0.7
2023-03-07T19:00:00,1851A,112.9943,29.4402,岳阳市,君山区,细颗粒物(PM2.5),72,64,67,52,50,141,126,123,123,24,38,8,8,0.8,0.7
2023-03-07T19:00:00,1852A,113.2117,29.355,岳阳市,金凤水库,颗粒物(PM10),77,104,76,46,40,144,121,127,127,25,32,7,8,0.8,0.7
2023-03-07T19:00:00,1854A,111.6975,28.9703,常德市,市二中,细颗粒物(PM2.5),74,68,72,54,56,127,103,114,114,21,28,6,9,0.9,0.8
2023-03-07T19:00:00,1857A,111.7158,29.1456,常德市,白鹤山,细颗粒物(PM2.5),62,58,56,44,43,139,102,124,124,18,14,6,7,0.9,0.8
2023-03-07T19:00:00,1858A,110.5319,29.1217,张家界市,永定新区,细颗粒物(PM2.5),60,50,67,43,41,103,67,91,91,17,26,4,4,0.6,0.5
2023-03-07T19:00:00,1859A,110.4697,29.1242,张家界市,电业局,,49,46,65,34,43,106,54,86,86,34,33,4,5,0.9,0.9
2023-03-07T19:00:00,1860A,110.5594,29.3547,张家界市,未央路,,43,32,42,30,31,118,55,96,96,18,16,6,6,0.6,0.6
2023-03-07T19:00:00,1861A,110.4417,29.315,张家界市,袁家界,,40,29,35,28,31,118,89,104,99,11,12,7,7,0.8,0.7
2023-03-07T19:00:00,1862A,110.4144,25.3167,桂林市,电子科大尧山校区,"颗粒物(PM10),细颗粒物(PM2.5)",62,73,68,44,49,134,113,122,122,17,14,22,7,0.6,0.7
2023-03-07T19:00:00,1863A,110.2819,25.2697,桂林市,监测站,颗粒物(PM10),65,80,109,46,79,118,93,104,104,36,42,11,21,0.8,1
2023-03-07T19:00:00,1864A,110.3089,25.2708,桂林市,龙隐路小学,颗粒物(PM10),59,67,94,40,75,124,95,109,109,34,41,11,12,0.7,0.9
2023-03-07T19:00:00,1865A,110.2869,25.2178,桂林市,八中,细颗粒物(PM2.5),67,73,98,48,75,119,80,99,99,51,45,8,7,0.7,0.7
2023-03-07T19:00:00,1866A,109.2262,21.588,北海市,牛尾岭水库,,40,40,44,17,23,133,109,118,117,9,9,7,13,0.5,0.5
2023-03-07T19:00:00,1867A,109.1436,21.4086,北海市,海滩公园,颗粒物(PM10),51,51,48,17,18,141,126,134,133,11,6,6,7,0.6,0.6
2023-03-07T19:00:00,1868A,109.0981,21.4661,北海市,新市环保局,,36,35,41,17,19,139,114,128,116,12,10,3,4,0.5,0.4
2023-03-07T19:00:00,1869A,109.1778,21.5233,北海市,北海工业园,颗粒物(PM10),51,52,57,22,28,137,110,122,120,9,12,5,10,0.4,0.6
2023-03-07T19:00:00,1870A,109.4856,24.3895,柳州市,柳东小学,,,70,123,,144,139,125,110,110,15,27,8,23,,1.6
2023-03-07T19:00:00,1871A,109.4157,24.3277,柳州市,环保监测站,颗粒物(PM10),66,82,122,43,96,127,101,112,112,39,36,7,17,0.7,1.3
2023-03-07T19:00:00,1872A,109.389,24.341,柳州市,河西水厂,颗粒物(PM10),66,81,126,38,98,129,101,110,110,29,32,8,14,1.0,1.2
2023-03-07T19:00:00,1873A,109.4311,24.2921,柳州市,市四中,颗粒物(PM10),65,80,124,38,81,137,112,121,121,32,32,11,15,0.8,1.1
2023-03-07T19:00:00,1874A,109.4006,24.3631,柳州市,市九中,颗粒物(PM10),71,92,128,42,88,125,98,105,105,34,34,11,18,1.0,1.3
2023-03-07T19:00:00,1875A,109.4958,24.3134,柳州市,古亭山,颗粒物(PM10),63,76,102,23,77,138,102,116,116,26,32,5,7,0.6,0.9
2023-03-07T19:00:00,1876A,109.5078,18.2489,三亚市,河东子站,,30,30,34,13,15,113,82,110,95,9,6,3,3,0.4,0.4
2023-03-07T19:00:00,1877A,109.4964,18.2681,三亚市,河西子站,,27,24,36,13,16,112,85,110,98,5,5,3,3,0.4,0.4
2023-03-07T19:00:00,1878A,104.7778,31.4741,绵阳市,富乐山,,46,33,48,32,36,117,94,101,101,10,10,4,4,0.5,0.6
2023-03-07T19:00:00,1879A,104.7563,31.4535,绵阳市,市人大,,49,37,58,34,45,106,81,90,90,25,19,3,8,0.7,0.6
2023-03-07T19:00:00,1880A,104.6697,31.4668,绵阳市,高新区自来水公司,细颗粒物(PM2.5),54,41,55,38,51,108,96,88,88,20,20,4,5,0.5,0.6
2023-03-07T19:00:00,1881A,104.7287,31.5075,绵阳市,三水厂,,43,34,57,30,43,108,76,87,87,32,20,2,4,0.4,0.5
2023-03-07T19:00:00,1882A,104.563,28.793,宜宾市,石马中学,细颗粒物(PM2.5),92,87,113,68,77,112,98,91,91,31,38,7,13,0.8,0.9
2023-03-07T19:00:00,1883A,104.6201,28.7728,宜宾市,市委,细颗粒物(PM2.5),130,109,129,99,105,124,112,97,97,28,33,10,17,0.9,0.9
2023-03-07T19:00:00,1884A,104.6055,28.793,宜宾市,宜宾四中,细颗粒物(PM2.5),125,110,129,95,107,123,109,100,100,29,36,7,14,0.9,0.9
2023-03-07T19:00:00,1885A,104.639,28.7562,宜宾市,市政府,细颗粒物(PM2.5),124,108,129,94,108,121,111,98,98,35,41,12,18,0.8,0.9
2023-03-07T19:00:00,1886A,104.5742,28.7199,宜宾市,黄金嘴,细颗粒物(PM2.5),114,100,118,86,95,121,114,97,97,29,42,11,14,0.8,0.9
2023-03-07T19:00:00,1888A,101.6891,26.571,攀枝花市,弄弄坪,,50,50,75,33,48,125,96,106,106,27,36,30,21,2.8,1.7
2023-03-07T19:00:00,1889A,101.5769,26.5928,攀枝花市,河门口,,38,36,62,23,39,139,120,125,125,8,25,7,12,0.5,0.9
2023-03-07T19:00:00,1890A,101.7169,26.585,攀枝花市,炳草岗,,48,48,101,20,51,131,102,115,115,21,59,13,16,1.0,1.5
2023-03-07T19:00:00,1891A,101.7369,26.5008,攀枝花市,仁和,,38,38,61,23,42,144,116,129,129,11,22,7,9,0.7,0.8
2023-03-07T19:00:00,1893A,105.4324,28.9634,泸州市,九狮山,细颗粒物(PM2.5),69,81,100,50,72,114,99,80,80,18,39,9,12,0.4,0.5
2023-03-07T19:00:00,1894A,105.4427,28.9063,泸州市,小市上码头,细颗粒物(PM2.5),88,82,131,65,94,110,103,76,76,20,45,10,15,0.9,1
2023-03-07T19:00:00,1895A,105.4241,28.8573,泸州市,兰田宪桥,细颗粒物(PM2.5),82,69,130,60,100,114,98,80,80,27,41,8,13,0.7,0.9
2023-03-07T19:00:00,1896A,105.4379,28.8833,泸州市,市环监站,细颗粒物(PM2.5),79,76,127,58,88,107,91,71,71,26,45,5,9,0.9,0.8
2023-03-07T19:00:00,1901A,104.4239,31.1208,德阳市,东山公园,,,,57,,54,73,,75,,,15,,2,,1.1
2023-03-07T19:00:00,1902A,104.3826,31.1317,德阳市,西小区,细颗粒物(PM2.5),89,64,60,66,55,108,100,91,91,19,14,1,2,0.6,0.7
2023-03-07T19:00:00,1904A,104.3553,31.1091,德阳市,耐火材料厂,细颗粒物(PM2.5),85,62,59,63,54,110,109,92,92,13,16,1,3,0.6,0.6
2023-03-07T19:00:00,1905A,106.056,30.8064,南充市,西山风景区,,,,,,,,,,,,,,,,
2023-03-07T19:00:00,1906A,106.0789,30.8023,南充市,南充市委,细颗粒物(PM2.5),68,84,66,49,43,54,43,46,46,32,25,9,10,0.8,0.7
2023-03-07T19:00:00,1907A,106.1031,30.8217,南充市,南充炼油厂,细颗粒物(PM2.5),64,74,60,46,41,63,52,48,44,17,17,7,10,0.5,0.5
2023-03-07T19:00:00,1908A,106.1064,30.7856,南充市,高坪区监测站,细颗粒物(PM2.5),80,62,61,59,50,56,49,45,45,21,23,7,10,0.7,0.7
2023-03-07T19:00:00,1909A,106.0642,30.7636,南充市,嘉陵区环保局,细颗粒物(PM2.5),77,81,67,56,47,57,39,47,47,37,33,8,11,0.8,0.7
2023-03-07T19:00:00,1910A,106.1087,30.8388,南充市,市环境监测站,细颗粒物(PM2.5),83,69,63,61,46,58,46,48,42,27,22,8,10,0.7,0.7
2023-03-07T19:00:00,1911A,106.9222,27.6869,遵义市,丁字口,细颗粒物(PM2.5),69,73,56,50,47,46,33,37,36,39,35,23,28,0.9,1
2023-03-07T19:00:00,1912A,106.9242,27.7019,遵义市,凤凰山,细颗粒物(PM2.5),72,77,59,52,38,50,41,37,37,31,30,9,8,1.0,1
2023-03-07T19:00:00,1913A,106.8906,27.6486,遵义市,忠庄,颗粒物(PM10),77,103,72,55,50,47,41,36,36,26,31,5,8,1.1,1.2
2023-03-07T19:00:00,1914A,106.9231,27.6506,遵义市,舟水桥,细颗粒物(PM2.5),65,74,67,47,49,49,42,34,34,16,29,33,27,0.9,1.2
2023-03-07T19:00:00,1915A,106.9178,27.72,遵义市,干田坝,细颗粒物(PM2.5),68,76,53,49,44,63,39,42,42,34,31,14,11,1.1,1
2023-03-07T19:00:00,1916A,103.7897,25.5035,曲靖市,环境监测站,颗粒物(PM10),57,64,76,28,52,145,126,134,134,14,16,7,10,0.7,1
2023-03-07T19:00:00,1917A,103.8,25.5364,曲靖市,烟厂办公区,颗粒物(PM10),54,58,80,27,49,153,134,141,141,13,21,4,6,0.6,1
2023-03-07T19:00:00,1918A,108.7197,34.3956,咸阳市,气象站,细颗粒物(PM2.5),162,138,120,123,89,151,89,114,114,88,90,14,13,0.8,0.6
2023-03-07T19:00:00,1919A,108.673,34.3155,咸阳市,实验中学,细颗粒物(PM2.5),148,140,166,113,101,151,101,107,107,81,93,9,9,0.7,0.9
2023-03-07T19:00:00,1920A,108.7233,34.3617,咸阳市,师范学院,细颗粒物(PM2.5),160,140,153,122,100,129,80,100,100,104,86,10,9,1.1,0.9
2023-03-07T19:00:00,1922A,109.0656,35.0994,铜川市,党校,颗粒物(PM10),121,192,125,65,46,154,48,127,123,104,73,26,19,1.3,1
2023-03-07T19:00:00,1923A,109.0697,35.0697,铜川市,王益区政府,细颗粒物(PM2.5),137,168,123,104,73,144,37,116,114,99,58,15,13,1.4,0.9
2023-03-07T19:00:00,1924A,108.9344,34.9058,铜川市,新区管委会,细颗粒物(PM2.5),176,190,111,133,75,169,96,151,143,86,42,21,14,1.1,0.8
2023-03-07T19:00:00,1926A,109.4131,36.6275,延安市,枣园,颗粒物(PM10),63,76,68,12,21,114,84,104,104,26,37,5,5,0.3,0.4
2023-03-07T19:00:00,1927A,109.4761,36.6028,延安市,延大医附院,细颗粒物(PM2.5),67,76,61,48,29,103,49,86,86,55,43,8,7,1.0,1
2023-03-07T19:00:00,1929A,109.5056,36.6106,延安市,百米大道,,,96,78,20,30,103,31,81,79,,52,3,5,0.4,0.8
2023-03-07T19:00:00,1930A,107.185,34.3063,宝鸡市,庙沟村,颗粒物(PM10),65,80,48,44,27,124,76,108,108,51,23,7,5,0.4,0.5
2023-03-07T19:00:00,1931A,107.0708,34.3017,宝鸡市,竹园沟,细颗粒物(PM2.5),102,72,44,76,29,139,70,115,115,44,26,8,7,0.9,0.6
2023-03-07T19:00:00,1932A,107.1906,34.3672,宝鸡市,三陆医院,细颗粒物(PM2.5),158,111,98,120,49,135,89,94,94,63,58,11,15,0.7,0.8
2023-03-07T19:00:00,1933A,107.1431,34.3547,宝鸡市,监测站,细颗粒物(PM2.5),103,110,63,77,39,133,33,99,98,108,44,8,6,1.4,0.5
2023-03-07T19:00:00,1934A,107.1186,34.3739,宝鸡市,技工学校,细颗粒物(PM2.5),85,106,78,63,44,130,79,96,96,76,40,12,9,0.9,0.6
2023-03-07T19:00:00,1935A,107.3906,34.3528,宝鸡市,陈仓区环保局家属楼,细颗粒物(PM2.5),155,217,114,118,64,140,37,106,105,125,58,11,51,1.5,0.9
2023-03-07T19:00:00,1936A,107.2058,34.3497,宝鸡市,文理学院,细颗粒物(PM2.5),90,117,83,67,42,135,19,104,99,125,51,10,11,1.1,0.6
2023-03-07T19:00:00,1937A,107.2386,34.3622,宝鸡市,三迪小学,细颗粒物(PM2.5),108,109,96,81,47,133,66,101,101,94,65,13,14,0.9,0.7
2023-03-07T19:00:00,1938A,109.5293,34.5101,渭南市,农科所,细颗粒物(PM2.5),107,156,153,80,89,141,106,117,117,68,66,19,15,1.4,1
2023-03-07T19:00:00,1939A,109.4974,34.4877,渭南市,日报社,细颗粒物(PM2.5),160,200,151,122,98,142,111,120,120,70,66,18,15,1.3,1.1
2023-03-07T19:00:00,1940A,109.4636,34.493,渭南市,体育馆,细颗粒物(PM2.5),158,180,161,120,107,163,122,134,134,69,80,16,15,1.1,1
2023-03-07T19:00:00,1941A,109.4259,34.5023,渭南市,高新一小,细颗粒物(PM2.5),155,167,179,118,121,157,132,128,128,38,70,16,16,1.0,1
2023-03-07T19:00:00,1943A,102.1725,38.5339,金昌市,新川苑,颗粒物(PM10),54,58,82,16,24,99,86,95,95,16,24,13,37,0.4,0.7
2023-03-07T19:00:00,1944A,102.1692,38.5167,金昌市,天庆家园,,40,40,70,15,25,103,92,98,98,13,29,7,48,0.4,0.7
2023-03-07T19:00:00,1945A,98.2908,39.7711,嘉峪关市,气象局,颗粒物(PM10),54,58,63,19,20,158,106,107,101,12,18,5,7,0.3,0.2
2023-03-07T19:00:00,1947A,106.3394,38.817,石嘴山市,沙湖旅游区,颗粒物(PM10),101,151,102,23,33,108,90,93,93,15,34,9,17,0.3,0.6
2023-03-07T19:00:00,1948A,106.3668,39.0145,石嘴山市,大武口朝阳西街,颗粒物(PM10),67,84,88,18,32,103,99,88,88,6,42,4,17,0.3,0.7
2023-03-07T19:00:00,1949A,106.7704,39.2282,石嘴山市,惠农南大街,颗粒物(PM10),115,179,107,31,31,103,98,90,90,16,44,10,35,0.4,0.7
2023-03-07T19:00:00,1950A,106.7099,39.1325,石嘴山市,红果子镇惠新街,颗粒物(PM10),86,122,119,39,44,103,101,91,91,9,37,9,16,0.5,0.8
2023-03-07T19:00:00,1951A,84.895,45.6094,克拉玛依市,长征新村,颗粒物(PM10),62,73,96,8,50,118,112,98,96,19,29,8,6,0.5,0.7
2023-03-07T19:00:00,1952A,84.8988,45.5893,克拉玛依市,南林小区,颗粒物(PM10),63,75,93,34,56,122,114,98,98,16,27,5,4,0.3,0.5
2023-03-07T19:00:00,1954A,84.905,44.3396,克拉玛依市,独山子区,颗粒物(PM10),66,82,107,43,56,124,119,109,109,17,21,11,8,0.8,0.9
2023-03-07T19:00:00,1955A,85.6979,46.098,克拉玛依市,乌尔禾区商贸楼,细颗粒物(PM2.5),59,57,74,42,51,118,115,109,109,15,16,10,9,0.6,0.7
2023-03-07T19:00:00,1956A,86.1472,41.7538,巴音郭楞州,孔雀公园,颗粒物(PM10),113,176,229,42,60,116,103,92,92,1,51,5,5,0.2,0.7
2023-03-07T19:00:00,1957A,86.1972,41.7166,巴音郭楞州,棉纺厂,颗粒物(PM10),151,251,309,54,63,109,93,88,88,11,45,5,4,0.4,0.7
2023-03-07T19:00:00,1958A,86.2357,41.7173,巴音郭楞州,经济开发区,颗粒物(PM10),140,230,238,39,49,111,99,96,96,12,22,8,6,0.3,0.4
2023-03-07T19:00:00,1961A,117.532,36.6868,济南市,东山小学,颗粒物(PM10),80,110,148,51,74,183,148,169,169,36,49,11,12,0.8,1
2023-03-07T19:00:00,1966A,120.0405,35.8735,青岛市,黄岛区4号,细颗粒物(PM2.5),110,107,125,83,82,128,118,118,118,64,64,11,10,0.8,0.9
2023-03-07T19:00:00,1982A,122.0693,37.2174,威海市,文登开发区,细颗粒物(PM2.5),122,156,131,92,81,186,132,166,166,38,40,6,7,0.8,0.8
2023-03-07T19:00:00,2031A,113.1817,27.9958,株洲市,云田中学,细颗粒物(PM2.5),113,100,71,85,48,155,119,138,138,27,20,11,13,0.9,0.8
2023-03-07T19:00:00,2054A,114.1099,32.1059,信阳市,平桥分局,细颗粒物(PM2.5),68,62,74,49,43,146,132,141,141,16,29,14,13,0.9,0.8
2023-03-07T19:00:00,2064A,113.9956,32.1271,信阳市,南湾水厂,细颗粒物(PM2.5),62,69,82,44,52,156,144,151,151,10,16,12,14,0.7,0.7
2023-03-07T19:00:00,2065A,114.0775,32.1195,信阳市,市酿酒公司,颗粒物(PM10),65,79,65,44,50,152,130,143,143,19,30,14,12,0.7,0.7
2023-03-07T19:00:00,2066A,114.0609,32.1399,信阳市,审计局,细颗粒物(PM2.5),65,53,71,47,56,155,137,147,147,20,27,12,13,0.8,0.8
2023-03-07T19:00:00,2067A,114.6613,33.6128,周口市,市环境监测站,颗粒物(PM10),61,72,98,34,45,151,98,141,140,42,29,9,10,0.8,0.6
2023-03-07T19:00:00,2068A,114.6758,33.6347,周口市,周口师范,颗粒物(PM10),58,65,80,31,42,154,134,148,148,23,29,10,10,0.6,0.5
2023-03-07T19:00:00,2069A,114.6546,33.5979,周口市,市运管处,,,,87,,47,98,,94,,,34,,10,,0.5
2023-03-07T19:00:00,2070A,114.6369,33.6406,周口市,川汇区环保局,颗粒物(PM10),66,82,85,36,47,150,113,139,139,28,26,7,7,0.7,0.7
2023-03-07T19:00:00,2075A,117.6336,24.4674,漳州市,九湖,,,,,,,,,,,,,,,,
2023-03-07T19:00:00,2160A,112.85,35.5051,晋城市,自来水公司,颗粒物(PM10),73,96,100,29,45,141,141,118,118,32,55,17,22,0.8,2
2023-03-07T19:00:00,2161A,112.8318,35.4936,晋城市,白云商贸,颗粒物(PM10),67,84,106,24,43,129,129,118,118,19,37,12,13,0.9,1.8
2023-03-07T19:00:00,2162A,112.8508,35.4887,晋城市,市环保局,颗粒物(PM10),67,83,97,27,48,138,138,119,119,21,48,16,19,0.9,1.7
2023-03-07T19:00:00,2163A,112.8676,35.4897,晋城市,技术学院,颗粒物(PM10),63,75,91,29,48,130,130,113,113,26,48,12,15,0.8,1.6
2023-03-07T19:00:00,2165A,112.8453,35.546,晋城市,白马寺,,,,,,,,,,,,,,,,
2023-03-07T19:00:00,2166A,112.4397,39.3522,朔州市,平朔,颗粒物(PM10),136,222,120,25,35,103,91,97,97,5,36,4,15,0.4,0.5
2023-03-07T19:00:00,2167A,112.4575,39.3617,朔州市,朔唯,颗粒物(PM10),141,232,139,26,46,111,99,105,105,5,46,6,21,0.3,0.6
2023-03-07T19:00:00,2168A,112.4258,39.3197,朔州市,区政府,颗粒物(PM10),90,130,94,21,30,113,101,108,107,9,24,4,7,0.2,0.4
2023-03-07T19:00:00,2169A,112.4072,39.3278,朔州市,市环保局,颗粒物(PM10),108,165,115,29,39,99,89,93,93,10,30,2,10,0.3,0.5
2023-03-07T19:00:00,2170A,112.4272,39.3681,朔州市,市二中,颗粒物(PM10),98,146,133,26,42,102,91,98,98,2,41,4,14,0.2,0.4
2023-03-07T19:00:00,2171A,112.7532,37.6945,晋中市,锦纶小区,颗粒物(PM10),71,92,97,23,39,121,94,100,100,28,39,6,13,0.3,0.4
2023-03-07T19:00:00,2173A,112.7249,37.7067,晋中市,南都小区,颗粒物(PM10),63,75,98,20,36,120,92,99,99,26,43,8,15,0.2,0.5
2023-03-07T19:00:00,2174A,112.6991,37.6982,晋中市,榆次区政府,颗粒物(PM10),59,68,96,27,33,119,92,98,98,22,43,9,14,0.2,0.5
2023-03-07T19:00:00,2175A,110.9956,35.0147,运城市,运城中学,颗粒物(PM10),84,118,153,60,90,177,125,146,146,34,38,24,23,1.0,1.7
2023-03-07T19:00:00,2178A,110.9686,35.0303,运城市,地区技校,细颗粒物(PM2.5),114,121,170,86,100,199,122,154,154,,61,23,21,1.1,1.6
2023-03-07T19:00:00,2179A,111.0414,35.1147,运城市,空港新区,,,135,192,73,128,207,118,164,164,,70,22,57,1.0,2.9
2023-03-07T19:00:00,2181A,112.7383,38.4519,忻州市,开发区,,48,48,72,7,30,114,86,83,83,23,49,4,7,0.5,0.4
2023-03-07T19:00:00,2182A,112.7003,38.4928,忻州市,会展中心,颗粒物(PM10),57,64,85,25,33,104,76,72,72,30,46,4,7,0.4,0.6
2023-03-07T19:00:00,2183A,111.1406,37.5211,吕梁市,环保局,颗粒物(PM10),56,62,104,12,26,107,29,86,86,76,59,10,12,0.7,0.6
2023-03-07T19:00:00,2185A,111.1297,37.5136,吕梁市,自来水公司,颗粒物(PM10),54,58,115,18,27,104,34,84,84,63,47,8,13,1.0,0.6
2023-03-07T19:00:00,2187A,106.8174,39.6973,乌海市,市林业局,颗粒物(PM10),174,298,123,70,37,107,99,104,104,10,33,8,30,0.6,1.2
2023-03-07T19:00:00,2188A,106.7907,39.6667,乌海市,中海勃湾学校,颗粒物(PM10),176,302,132,83,44,113,105,108,107,9,38,9,40,0.3,1.2
2023-03-07T19:00:00,2191A,122.2532,43.6801,通辽市,艺术职业学校,颗粒物(PM10),84,117,103,35,39,108,73,90,83,26,33,9,22,0.5,0.4
2023-03-07T19:00:00,2192A,119.7594,49.2261,呼伦贝尔市,区环保局,,49,39,32,34,19,91,63,85,82,28,9,5,7,0.4,0.3
2023-03-07T19:00:00,2195A,107.4212,40.761,巴彦淖尔市,附二中,颗粒物(PM10),135,219,181,54,34,94,86,91,91,15,14,3,3,0.5,0.5
2023-03-07T19:00:00,2196A,107.37,40.7372,巴彦淖尔市,市环保大楼,颗粒物(PM10),119,188,164,57,39,105,94,101,101,15,14,4,4,0.4,0.4
2023-03-07T19:00:00,2197A,113.1306,40.9923,乌兰察布市,集宁新区,颗粒物(PM10),58,65,68,21,25,105,84,94,94,11,21,7,11,0.5,0.6
2023-03-07T19:00:00,2200A,122.0392,46.0656,兴安盟,胜华新制药厂,细颗粒物(PM2.5),70,73,43,51,33,100,75,90,90,26,17,6,5,0.8,0.7
2023-03-07T19:00:00,2201A,121.9504,46.0741,兴安盟,科右前旗环保局,细颗粒物(PM2.5),73,94,39,53,29,98,77,90,90,30,19,3,4,0.7,0.6
2023-03-07T19:00:00,2202A,116.1042,43.9317,锡林郭勒盟,市环保监测站,颗粒物(PM10),65,80,66,10,12,89,81,83,83,3,4,8,7,0.3,0.2
2023-03-07T19:00:00,2203A,116.0781,43.9311,锡林郭勒盟,市政府,颗粒物(PM10),59,67,76,12,13,88,75,82,82,9,6,9,8,0.2,0.2
2023-03-07T19:00:00,2204A,105.6467,38.8363,阿拉善盟,西城区西花园,颗粒物(PM10),56,62,55,25,19,103,98,100,100,12,12,9,9,0.5,0.5
2023-03-07T19:00:00,2205A,105.6985,38.8411,阿拉善盟,蒙二幼,,,,,,,,,,,,,,,,
2023-03-07T19:00:00,2206A,105.724,38.8516,阿拉善盟,环保局新楼,颗粒物(PM10),54,57,43,28,22,109,101,106,100,9,6,7,10,0.3,0.3
2023-03-07T19:00:00,2207A,121.6094,41.998,阜新市,工业园区,细颗粒物(PM2.5),159,214,263,121,127,137,137,126,126,35,54,17,24,1.1,1.4
2023-03-07T19:00:00,2208A,121.6697,42.0279,阜新市,长青街,细颗粒物(PM2.5),145,206,185,111,112,138,138,126,126,31,48,17,20,1.2,1.4
2023-03-07T19:00:00,2209A,121.6673,42.0705,阜新市,农业园区,细颗粒物(PM2.5),175,210,173,132,132,121,,113,113,24,34,16,28,1.0,1.2
2023-03-07T19:00:00,2210A,121.6717,42.0224,阜新市,东苑,细颗粒物(PM2.5),139,180,201,106,94,131,131,120,120,34,46,16,24,1.0,1.2
2023-03-07T19:00:00,2211A,121.6506,42.0498,阜新市,玉龙新城,细颗粒物(PM2.5),153,170,166,117,106,132,131,122,122,27,42,18,19,0.9,1.1
2023-03-07T19:00:00,2212A,123.2,41.1953,辽阳市,宏伟区,细颗粒物(PM2.5),57,58,59,40,45,184,108,119,107,10,14,9,10,0.6,0.7
2023-03-07T19:00:00,2213A,123.1683,41.2495,辽阳市,新华园,细颗粒物(PM2.5),67,65,77,48,55,119,113,117,116,14,16,6,9,0.6,0.7
2023-03-07T19:00:00,2214A,123.2354,41.2639,辽阳市,滨河路,细颗粒物(PM2.5),70,61,63,51,60,98,98,94,94,19,26,5,6,0.5,0.5
2023-03-07T19:00:00,2215A,123.149,41.2991,辽阳市,铁西工业园,细颗粒物(PM2.5),77,85,89,56,70,100,94,96,95,23,29,8,9,0.6,0.6
2023-03-07T19:00:00,2216A,123.8139,42.3022,铁岭市,汇工街西,颗粒物(PM10),75,100,149,46,99,124,78,113,109,38,39,17,17,0.9,1.1
2023-03-07T19:00:00,2217A,123.8649,42.2923,铁岭市,水上乐园,颗粒物(PM10),59,68,122,38,81,136,98,122,121,27,34,11,11,0.8,1.1
2023-03-07T19:00:00,2218A,123.8486,42.2867,铁岭市,银州路东段,细颗粒物(PM2.5),74,66,99,54,57,136,95,125,119,28,26,10,11,0.5,0.6
2023-03-07T19:00:00,2219A,123.7153,42.2217,铁岭市,金沙江路北,颗粒物(PM10),71,91,127,41,88,127,81,111,109,35,47,7,10,0.9,1.2
2023-03-07T19:00:00,2220A,120.4318,41.5881,朝阳市,西梁,细颗粒物(PM2.5),117,129,145,88,71,147,144,138,138,22,39,15,17,1.1,1.1
2023-03-07T19:00:00,2221A,120.4521,41.5646,朝阳市,河畔小区,细颗粒物(PM2.5),102,131,120,76,64,172,,162,162,28,38,10,12,1.0,0.9
2023-03-07T19:00:00,2222A,120.4176,41.5648,朝阳市,八里堡,细颗粒物(PM2.5),114,139,137,86,66,155,153,148,148,26,43,20,23,1.3,1.5
2023-03-07T19:00:00,2223A,120.3806,41.5969,朝阳市,农业园区,细颗粒物(PM2.5),105,119,133,79,62,160,146,151,151,26,44,14,18,1.2,1.2
2023-03-07T19:00:00,2225A,124.4002,43.1713,四平市,一商场,颗粒物(PM10),135,220,196,76,84,145,128,132,132,30,32,8,10,0.7,0.8
2023-03-07T19:00:00,2226A,124.388,43.193,四平市,境园,颗粒物(PM10),123,196,186,65,78,148,127,135,135,26,39,2,6,0.7,0.9
2023-03-07T19:00:00,2227A,125.1358,42.8845,辽源市,环保局,,49,46,94,34,73,137,114,122,122,13,36,11,11,0.7,1
2023-03-07T19:00:00,2229A,125.9358,41.7173,通化市,光明,,50,50,65,17,34,131,117,123,123,14,34,11,14,0.3,0.5
2023-03-07T19:00:00,2230A,125.9446,41.7325,通化市,铁路,颗粒物(PM10),52,54,68,25,38,135,117,120,120,15,45,8,14,0.2,0.6
2023-03-07T19:00:00,2231A,126.4219,41.9171,白山市,喜丰,颗粒物(PM10),55,60,99,19,43,133,97,109,109,15,31,16,13,0.6,1
2023-03-07T19:00:00,2232A,126.4077,41.9419,白山市,环保局,颗粒物(PM10),52,54,91,28,52,113,100,103,103,9,34,10,16,1.1,1.5
2023-03-07T19:00:00,2233A,124.8006,45.1214,松原市,江南,颗粒物(PM10),75,99,88,34,50,92,47,79,76,18,25,8,12,0.4,0.6
2023-03-07T19:00:00,2234A,124.7965,45.1722,松原市,江北,细颗粒物(PM2.5),77,100,75,56,46,102,48,87,83,22,22,5,7,0.6,0.7
2023-03-07T19:00:00,2235A,122.7911,45.6077,白城市,洮北区环保局,颗粒物(PM10),56,61,51,33,29,100,77,86,86,18,18,5,5,0.2,0.5
2023-03-07T19:00:00,2236A,122.8738,45.5725,白城市,市环保局,颗粒物(PM10),56,62,59,32,24,96,75,87,86,20,17,8,7,0.4,0.4
2023-03-07T19:00:00,2237A,129.47,42.8883,延边朝鲜族自治州,妇幼医院,颗粒物(PM10),80,109,84,48,58,120,69,111,105,52,32,11,11,1.0,0.9
2023-03-07T19:00:00,2238A,129.5055,42.9108,延边朝鲜族自治州,延边医院,颗粒物(PM10),67,84,82,46,65,135,105,116,113,28,34,10,19,0.9,0.9
2023-03-07T19:00:00,2239A,129.3964,42.8881,延边朝鲜族自治州,朝阳川镇医院,细颗粒物(PM2.5),110,114,84,83,61,127,93,112,109,30,27,15,12,0.7,0.7
2023-03-07T19:00:00,2240A,130.9762,45.3001,鸡西市,环保局,细颗粒物(PM2.5),85,98,93,63,65,94,86,88,88,25,32,8,8,0.6,0.7
2023-03-07T19:00:00,2243A,130.9429,45.3039,鸡西市,第一中学,细颗粒物(PM2.5),100,113,105,75,66,103,89,97,93,20,16,7,7,0.6,0.5
2023-03-07T19:00:00,2244A,130.2537,47.3416,鹤岗市,哈啤分公司,,24,24,20,14,14,89,75,81,72,10,10,10,10,0.2,0.2
2023-03-07T19:00:00,2245A,130.2684,47.3086,鹤岗市,斯达机电,,25,25,23,12,12,88,74,78,71,11,11,10,10,0.3,0.2
2023-03-07T19:00:00,2246A,130.3114,47.3388,鹤岗市,东山纸板厂,,23,14,37,10,14,87,73,71,70,4,9,8,11,0.1,0.3
2023-03-07T19:00:00,2247A,130.1097,47.3382,鹤岗市,五号水库,,26,18,17,11,13,91,82,79,79,6,7,7,12,0.2,0.2
2023-03-07T19:00:00,2248A,131.1511,46.6937,双鸭山市,双合村,,22,22,48,12,27,94,69,81,78,9,17,12,18,0.2,0.6
2023-03-07T19:00:00,2249A,131.1652,46.6191,双鸭山市,南小市,,25,22,38,12,17,96,77,85,83,4,12,5,9,0.3,0.4
2023-03-07T19:00:00,2250A,131.1524,46.6554,双鸭山市,环保局,,35,35,44,22,26,100,76,92,85,12,24,12,15,0.2,0.5
2023-03-07T19:00:00,2251A,131.12,46.5656,双鸭山市,苗圃,,42,32,35,29,31,113,83,96,95,12,13,5,5,0.2,0.2
2023-03-07T19:00:00,2252A,128.5159,47.4311,伊春市,环保局,,,14,17,3,7,77,70,68,68,19,21,5,6,,0.6
2023-03-07T19:00:00,2253A,128.9102,47.7412,伊春市,电力嘉园,,35,19,24,24,15,86,48,59,42,2,12,5,5,0.4,0.4
2023-03-07T19:00:00,2254A,129.5029,48.471,伊春市,汤旺河国家公园,,24,21,21,13,13,82,74,79,79,3,3,5,5,0.2,0.1
2023-03-07T19:00:00,2255A,130.2751,46.8028,佳木斯市,佳纺,,33,33,35,12,19,131,68,83,78,10,23,3,5,0.3,0.5
2023-03-07T19:00:00,2256A,130.3995,46.8307,佳木斯市,发电厂,,41,41,30,12,14,82,72,74,71,10,18,4,7,0.4,0.4
2023-03-07T19:00:00,2257A,130.3258,46.7975,佳木斯市,环保局,,23,23,32,8,19,68,61,59,59,15,31,3,6,0.4,0.5
2023-03-07T19:00:00,2258A,130.3648,46.8032,佳木斯市,十一中,,22,22,32,8,19,77,65,65,65,13,29,7,9,0.4,0.5
2023-03-07T19:00:00,2259A,130.3794,46.7588,佳木斯市,四丰,,27,20,18,7,11,115,85,114,96,16,16,1,1,0.3,0.3
2023-03-07T19:00:00,2262A,131.0518,45.8751,七台河市,新一中,,43,40,45,30,32,110,101,98,98,18,18,10,7,0.7,0.6
2023-03-07T19:00:00,2263A,127.4833,50.2524,黑河市,交通局,,48,48,16,25,12,81,43,75,71,43,13,11,9,0.6,0.4
2023-03-07T19:00:00,2264A,127.5144,50.2341,黑河市,环保局,,29,28,15,20,12,84,60,79,78,28,13,6,5,0.5,0.3
2023-03-07T19:00:00,2265A,127.5291,50.2472,黑河市,大黑河岛,,22,22,12,9,6,84,51,80,77,14,4,6,4,0.5,0.3
2023-03-07T19:00:00,2266A,126.9785,46.6365,绥化市,人和东街,,27,27,47,17,24,74,74,62,62,13,25,3,5,0.5,0.6
2023-03-07T19:00:00,2267A,126.964,46.6528,绥化市,党政办公中心,,23,19,34,14,24,89,73,65,65,14,19,3,4,0.2,0.3
2023-03-07T19:00:00,2269A,124.1069,50.4097,大兴安岭地区,科技局,,25,23,16,12,14,86,78,81,81,11,7,8,8,0.3,0.2
2023-03-07T19:00:00,2270A,117.396,32.939,蚌埠市,工人疗养院,颗粒物(PM10),54,57,69,30,37,146,120,135,135,32,32,9,15,0.4,0.6
2023-03-07T19:00:00,2271A,117.3605,32.9427,蚌埠市,百货大楼,颗粒物(PM10),54,58,83,30,35,145,111,131,131,40,29,3,8,0.5,0.6
2023-03-07T19:00:00,2273A,117.4185,32.8911,蚌埠市,蚌埠学院,颗粒物(PM10),60,70,71,29,31,147,114,134,134,33,28,8,8,0.5,0.5
2023-03-07T19:00:00,2274A,117.3533,32.9673,蚌埠市,淮上区政府,颗粒物(PM10),63,75,77,27,32,147,113,133,133,26,20,6,8,0.4,0.5
2023-03-07T19:00:00,2275A,117.3145,32.8977,蚌埠市,高新区,颗粒物(PM10),65,80,88,34,40,137,90,124,124,46,33,6,12,0.5,0.6
2023-03-07T19:00:00,2277A,116.8305,32.7727,淮南市,潘集区政府,颗粒物(PM10),57,64,87,33,49,153,122,132,132,23,31,8,13,0.4,0.5
2023-03-07T19:00:00,2278A,117.0067,32.6524,淮南市,师范学院,颗粒物(PM10),69,87,77,37,38,140,112,126,126,29,22,12,13,0.6,0.4
2023-03-07T19:00:00,2279A,116.8569,32.5951,淮南市,谢家集区政府,,45,45,69,30,37,150,129,133,133,23,21,10,13,0.5,0.5
2023-03-07T19:00:00,2280A,116.8281,32.633,淮南市,八公山区政府,颗粒物(PM10),61,71,70,30,29,147,130,130,130,24,21,8,9,0.3,0.3
2023-03-07T19:00:00,2281A,116.6325,32.6201,淮南市,焦岗湖风景区管理处,,47,47,69,19,37,145,83,121,121,49,41,6,6,0.9,0.7
2023-03-07T19:00:00,2282A,116.8004,33.975,淮北市,监测站,"颗粒物(PM10),细颗粒物(PM2.5)",69,88,101,50,53,177,143,164,164,25,29,10,12,0.6,0.6
2023-03-07T19:00:00,2283A,116.8091,33.9007,淮北市,烈山区政府,颗粒物(PM10),77,104,105,55,54,169,121,149,149,41,43,16,13,0.7,0.6
2023-03-07T19:00:00,2284A,116.7856,33.9477,淮北市,职业技术学院,细颗粒物(PM2.5),80,92,105,59,58,165,137,155,155,27,33,11,14,0.7,0.7
2023-03-07T19:00:00,2285A,117.8177,30.9412,铜陵市,市第四中学,,,69,80,37,38,130,,111,111,48,52,15,17,0.6,0.8
2023-03-07T19:00:00,2286A,117.8059,30.9273,铜陵市,市公路局,细颗粒物(PM2.5),65,56,70,47,38,121,78,105,105,42,37,11,13,0.7,1.1
2023-03-07T19:00:00,2287A,117.7807,30.9413,铜陵市,市新民污水厂,颗粒物(PM10),60,70,81,37,37,133,103,110,110,34,73,16,13,0.5,0.8
2023-03-07T19:00:00,2288A,117.7439,30.8792,铜陵市,市第九中学,颗粒物(PM10),60,70,98,34,38,113,96,95,95,66,78,12,12,0.5,0.9
2023-03-07T19:00:00,2289A,117.846,30.9413,铜陵市,车站新区,颗粒物(PM10),60,70,67,33,33,121,102,108,108,43,51,14,14,0.7,0.7
2023-03-07T19:00:00,2290A,117.8483,30.97,铜陵市,市职教基地,颗粒物(PM10),59,67,72,29,35,140,104,116,116,31,43,10,9,0.2,0.5
2023-03-07T19:00:00,2291A,117.0809,30.5177,安庆市,环科院,细颗粒物(PM2.5),67,75,69,48,45,116,22,90,88,111,65,12,12,0.6,0.6
2023-03-07T19:00:00,2292A,117.0331,30.5119,安庆市,马山宾馆,颗粒物(PM10),65,80,71,45,43,124,59,99,99,80,59,19,12,0.8,0.7
2023-03-07T19:00:00,2294A,116.9896,30.6145,安庆市,安庆大学,颗粒物(PM10),55,59,69,36,37,129,122,123,123,29,50,14,15,0.7,1
2023-03-07T19:00:00,2295A,118.2903,29.6963,黄山市,延安路89号,细颗粒物(PM2.5),54,44,35,38,26,142,96,122,122,23,19,7,6,0.5,0.3
2023-03-07T19:00:00,2296A,118.327,29.7178,黄山市,黄山东路89号,细颗粒物(PM2.5),75,69,46,55,30,137,58,116,113,38,21,8,5,0.9,0.5
2023-03-07T19:00:00,2297A,118.1371,30.2756,黄山市,黄山区政府5号楼,颗粒物(PM10),62,73,63,38,38,136,86,124,119,17,13,7,7,0.6,0.6
2023-03-07T19:00:00,2298A,118.3093,32.3153,滁州市,老年大学,颗粒物(PM10),67,83,88,39,50,154,124,141,141,37,48,18,14,1.0,1
2023-03-07T19:00:00,2299A,118.3244,32.2786,滁州市,人大宾馆,颗粒物(PM10),66,82,101,42,55,151,123,137,137,35,64,13,13,0.6,0.8
2023-03-07T19:00:00,2301A,115.8277,32.8929,阜阳市,市监测站,,49,49,81,34,49,152,128,141,141,26,41,7,7,0.6,0.6
2023-03-07T19:00:00,2303A,115.8554,32.8605,阜阳市,开发区,颗粒物(PM10),77,104,100,43,47,153,128,144,144,24,43,10,10,0.4,0.6
2023-03-07T19:00:00,2307A,116.5079,31.737,六安市,监测大楼,细颗粒物(PM2.5),62,55,50,44,30,127,111,116,116,28,28,8,8,0.4,0.3
2023-03-07T19:00:00,2308A,116.4738,31.7643,六安市,皖西学院,颗粒物(PM10),55,60,55,28,26,134,118,124,124,16,26,6,6,0.5,0.4
2023-03-07T19:00:00,2309A,116.4996,31.7905,六安市,朝阳厂,颗粒物(PM10),65,80,51,34,25,132,124,120,119,23,27,8,8,0.6,0.5
2023-03-07T19:00:00,2310A,116.5567,31.7886,六安市,开发区,颗粒物(PM10),54,58,88,32,46,127,118,121,121,14,26,13,10,0.4,0.4
2023-03-07T19:00:00,2311A,115.8072,33.8399,亳州市,污水处理厂,颗粒物(PM10),73,95,89,37,45,167,104,147,146,43,26,12,19,0.6,0.6
2023-03-07T19:00:00,2312A,115.7789,33.8518,亳州市,三国揽胜宫,颗粒物(PM10),63,75,86,39,50,168,132,154,154,17,13,6,16,0.6,0.6
2023-03-07T19:00:00,2314A,117.47,30.6618,池州市,池州学院,颗粒物(PM10),73,95,63,50,36,125,101,110,110,40,32,10,8,0.7,0.8
2023-03-07T19:00:00,2316A,118.7581,30.9454,宣城市,鳌峰子站,,50,50,62,33,36,116,107,108,108,17,35,6,6,0.5,0.5
2023-03-07T19:00:00,2317A,118.7385,30.9743,宣城市,敬亭山子站,颗粒物(PM10),63,75,64,31,32,127,90,105,105,29,28,11,14,0.4,0.5
2023-03-07T19:00:00,2318A,118.7173,30.9427,宣城市,开发区子站,颗粒物(PM10),56,62,68,36,38,116,99,109,109,26,54,6,9,0.5,0.6
2023-03-07T19:00:00,2319A,119.0141,25.4325,莆田市,荔城区仓后路,,48,48,52,21,20,143,105,127,126,15,18,8,9,0.7,0.7
2023-03-07T19:00:00,2320A,119.0015,25.4553,莆田市,莆田市监测站,,,,39,,18,148,,134,134,16,15,8,7,,0.5
2023-03-07T19:00:00,2321A,119.1119,25.4561,莆田市,涵江区六中,颗粒物(PM10),53,56,44,24,23,138,104,125,124,16,16,6,7,0.5,0.4
2023-03-07T19:00:00,2322A,119.1013,25.3215,莆田市,秀屿区政府,细颗粒物(PM2.5),54,52,47,38,21,139,115,128,128,13,17,3,7,0.5,0.6
2023-03-07T19:00:00,2323A,118.981,25.4792,莆田市,东圳水库,,,,,,,,,,,,,,,,
2023-03-07T19:00:00,2324A,117.6211,26.2625,三明市,三钢,颗粒物(PM10),64,78,52,39,30,175,88,147,147,61,36,9,12,0.9,0.7
2023-03-07T19:00:00,2325A,117.635,26.2714,三明市,三明二中,颗粒物(PM10),53,56,42,30,24,167,124,143,143,31,38,5,6,0.7,0.6
2023-03-07T19:00:00,2326A,117.6028,26.2378,三明市,三元区政府,细颗粒物(PM2.5),95,104,66,71,35,161,27,133,128,113,48,9,15,2.7,1.3
2023-03-07T19:00:00,2327A,117.7275,26.3108,三明市,洋溪,,,,,,,,,,,,,,,,
2023-03-07T19:00:00,2331A,118.0966,26.6761,南平市,茫荡山,,,,,,,,,,,,,,,,
2023-03-07T19:00:00,2332A,118.1681,26.6369,南平市,南平市监测站,颗粒物(PM10),59,68,50,41,29,151,85,136,133,39,23,5,5,1.3,0.7
2023-03-07T19:00:00,2333A,118.1825,26.6489,南平市,南平铝业有限公司,细颗粒物(PM2.5),60,59,48,43,28,151,87,135,132,43,30,11,11,0.9,0.6
2023-03-07T19:00:00,2334A,118.1756,26.6272,南平市,南平七中,颗粒物(PM10),63,75,48,44,26,154,78,132,129,44,21,6,6,1.0,0.6
2023-03-07T19:00:00,2335A,117.0189,25.1181,龙岩市,龙岩师专,,,,,,,,,,,,,,,,
2023-03-07T19:00:00,2336A,117.0217,25.1033,龙岩市,龙岩市监测站,颗粒物(PM10),52,53,61,27,34,180,139,159,159,24,33,11,16,0.5,0.6
2023-03-07T19:00:00,2337A,117.0258,25.0661,龙岩市,闽西职业技术学院,颗粒物(PM10),53,56,69,22,30,167,129,148,148,22,35,15,20,0.4,0.5
2023-03-07T19:00:00,2338A,117.0196,25.0306,龙岩市,龙岩学院,颗粒物(PM10),52,54,50,21,26,170,130,151,151,14,19,7,11,0.3,0.4
2023-03-07T19:00:00,2339A,119.5001,26.6946,宁德市,金涵水库,,,,,,,,,,,,,,,,
2023-03-07T19:00:00,2341A,119.5388,26.6612,宁德市,宁德市监测站,,49,49,49,29,25,138,70,113,111,32,20,3,4,1.0,0.8
2023-03-07T19:00:00,2342A,117.3102,29.3867,景德镇市,王港中学,细颗粒物(PM2.5),62,55,43,44,24,164,95,136,136,6,16,5,4,0.9,0.6
2023-03-07T19:00:00,2343A,117.2117,29.2933,景德镇市,老干部活动中心,颗粒物(PM10),57,64,77,39,38,151,96,127,127,35,34,12,9,0.8,0.6
2023-03-07T19:00:00,2344A,117.1894,29.2789,景德镇市,兽医站,细颗粒物(PM2.5),57,56,60,40,33,161,105,136,136,34,35,15,9,0.7,0.6
2023-03-07T19:00:00,2345A,117.1547,29.2617,景德镇市,台达陶瓷,颗粒物(PM10),65,79,76,36,35,143,63,120,118,70,48,26,14,1.0,0.8
2023-03-07T19:00:00,2346A,117.2461,29.2956,景德镇市,陶研所,颗粒物(PM10),72,93,68,38,29,149,86,136,129,31,31,12,8,0.8,0.8
2023-03-07T19:00:00,2347A,114.0997,27.5002,萍乡市,武功山,细颗粒物(PM2.5),57,49,35,40,28,142,100,128,128,16,13,17,16,0.6,0.5
2023-03-07T19:00:00,2348A,113.8385,27.6434,萍乡市,中医院,细颗粒物(PM2.5),80,97,80,59,43,156,105,134,134,39,47,22,21,1.3,1.1
2023-03-07T19:00:00,2349A,113.8493,27.6253,萍乡市,市政府车库,颗粒物(PM10),81,111,80,54,51,160,94,137,137,42,36,17,18,1.2,1
2023-03-07T19:00:00,2350A,113.8676,27.6435,萍乡市,市环保局,细颗粒物(PM2.5),72,77,82,52,50,147,128,130,130,21,36,24,33,0.8,0.8
2023-03-07T19:00:00,2351A,113.866,27.6198,萍乡市,安源区政府,颗粒物(PM10),71,92,80,40,46,151,115,133,133,28,32,20,23,0.8,0.9
2023-03-07T19:00:00,2352A,115.0861,27.9317,新余市,北岗,,50,45,53,35,37,140,116,123,123,20,23,13,22,0.4,0.6
2023-03-07T19:00:00,2353A,114.9886,27.8431,新余市,飞宇,颗粒物(PM10),57,63,96,32,46,138,122,121,121,20,43,6,29,0.5,1
2023-03-07T19:00:00,2354A,114.9231,27.8246,新余市,第二水厂,颗粒物(PM10),60,70,95,33,42,145,121,130,130,36,51,9,23,0.4,0.7
2023-03-07T19:00:00,2355A,114.9308,27.8036,新余市,市气象局,颗粒物(PM10),58,66,115,36,56,139,117,118,118,32,44,10,29,0.3,1.3
2023-03-07T19:00:00,2357A,116.9822,28.1136,鹰潭市,龙虎山,颗粒物(PM10),52,53,45,32,26,172,147,154,154,1,2,6,5,0.7,0.6
2023-03-07T19:00:00,2358A,117.0564,28.2642,鹰潭市,新监测站,颗粒物(PM10),59,67,71,34,37,188,138,172,146,26,37,18,36,0.4,0.6
2023-03-07T19:00:00,2359A,117.0311,28.2475,鹰潭市,财苑宾馆,颗粒物(PM10),66,82,70,33,33,161,118,144,144,36,37,6,35,0.6,0.5
