timepoint,stationcode,longitude,latitude,area,positionname,primarypollutant,aqi,pm10,pm10_24h,pm2_5,pm2_5_24h,o3,o3_24h,o3_8h,o3_8h_24h,no2,no2_24h,so2,so2_24h,co,co_24h
2025-10-31T1900,2566A,102.1879,31.914,阿坝藏族羌族自治州,州农科所,,,,,,,,,,,,,,,,
2025-10-31T1900,2568A,102.2502,31.8896,阿坝藏族羌族自治州,马师校,,30,,17,21,14,22,,29,29,20,18,7,8,0.7,0.6
2025-10-31T1900,3994A,102.2165,31.9024,阿坝藏族羌族自治州,马尔康中学西区,,19,,11,13,11,34,,41,41,18,17,5,5,0.5,0.5
2025-10-31T1900,2695A,80.292,41.1694,阿克苏地区,电视台,,,122,156,39,45,,,63,63,,43,6,7,0.2,1.1
2025-10-31T1900,2696A,80.2613,41.1551,阿克苏地区,艺术中心,颗粒物(PM10),84,118,139,34,53,83,,75,75,13,39,3,4,0.4,0.8
2025-10-31T1900,2204A,105.6467,38.8363,阿拉善盟,西城区西花园,,,,,,,,,,,,,,,,
2025-10-31T1900,2205A,105.6985,38.8411,阿拉善盟,蒙二幼,,33,33,34,12,12,82,,101,99,21,11,8,8,0.6,0.6
2025-10-31T1900,2206A,105.724,38.8516,阿拉善盟,环保局新楼,,28,28,26,12,11,67,,96,89,19,6,10,8,0.6,0.5
2025-10-31T1900,2708A,88.1264,47.8517,阿勒泰地区,市站,,35,35,58,6,10,36,,56,56,52,28,4,6,0.2,0.3
2025-10-31T1900,2630A,80.1161,32.5,阿里地区,阿里监测站,,31,6,3,3,3,99,,88,88,1,12,7,10,0.2,0.3
2025-10-31T1900,3192A,80.0903,32.5028,阿里地区,阿里藏医院,,33,6,16,3,7,104,,93,93,1,10,8,10,0.3,0.4
2025-10-31T1900,2642A,109.0318,32.6537,安康市,香溪洞,,,,,,,,,,,,,,,,
2025-10-31T1900,2644A,109.0072,32.6975,安康市,汉滨区检察院,,36,36,21,21,11,3,,14,13,30,14,2,2,0.8,0.5
2025-10-31T1900,4054A,109.0325,32.6913,安康市,市邮政管理局,,45,45,24,21,14,3,,12,11,28,16,6,6,1.1,0.6
2025-10-31T1900,2291A,117.0809,30.5177,安庆市,环科院,,45,35,21,31,17,67,,93,93,21,22,3,3,0.4,0.4
2025-10-31T1900,2292A,117.0331,30.5119,安庆市,马山宾馆,,48,42,22,33,18,46,,85,85,48,28,2,3,0.5,0.5
2025-10-31T1900,2294A,116.9896,30.6145,安庆市,安庆大学,,48,43,18,33,15,52,,94,91,32,10,5,5,0.4,0.3
2025-10-31T1900,3173A,117.0598,30.5351,安庆市,市人大,,,46,21,34,16,65,,95,95,30,22,,7,,0.4
2025-10-31T1900,3122A,105.9606,26.2611,安顺市,伍家关,,,,43,13,20,63,,54,54,6,14,7,14,0.2,0.3
2025-10-31T1900,3123A,105.9408,26.2431,安顺市,凤凰山,,18,18,33,9,30,55,,48,48,9,15,11,17,0.4,0.5
2025-10-31T1900,3124A,105.9439,26.2564,安顺市,金钟山,,19,18,27,12,26,59,,52,52,6,13,9,15,0.4,0.8
2025-10-31T1900,3125A,105.8983,26.2481,安顺市,娄家坡,,17,16,34,11,29,54,,46,46,9,14,9,17,0.6,0.7
2025-10-31T1900,1818A,114.4839,36.0621,安阳市,棉研所,,,,,,,,,,,,,,,,
2025-10-31T1900,1819A,114.3551,36.1017,安阳市,红庙街,细颗粒物(PM2.5),213,,171,163,161,45,,63,63,47,31,2,3,1.1,1.2
2025-10-31T1900,1820A,114.361,36.0681,安阳市,银杏小区,细颗粒物(PM2.5),223,,176,173,173,46,,65,65,47,31,3,4,1.1,1.4
2025-10-31T1900,3141A,114.3922,36.0878,安阳市,信访局,细颗粒物(PM2.5),200,170,197,150,164,52,,68,68,44,29,2,3,0.9,1.1
2025-10-31T1900,3669A,114.4705,36.0637,安阳市,左辅环卫站,细颗粒物(PM2.5),189,227,220,142,145,11,,61,59,83,39,2,2,1.1,1.1
2025-10-31T1900,3703A,114.2917,36.0949,安阳市,安钢职工学校,细颗粒物(PM2.5),252,,196,202,180,60,,67,67,35,28,4,5,1.1,1.4
2025-10-31T1900,1748A,123.044,41.1196,鞍山市,深沟寺,,41,41,63,22,32,40,,54,54,40,48,9,21,0.7,0.9
2025-10-31T1900,1749A,123.011,41.0931,鞍山市,太阳城,,42,42,48,22,26,44,,56,56,29,40,12,38,0.4,0.7
2025-10-31T1900,1750A,123.0485,41.1442,鞍山市,太平,颗粒物(PM10),88,126,100,57,47,8,,45,42,80,50,13,29,2.4,1.2
2025-10-31T1900,1751A,122.9642,41.0971,鞍山市,铁西三道街,颗粒物(PM10),101,152,102,64,53,6,,12,,86,57,17,33,2.4,1.8
2025-10-31T1900,1753A,123.022,41.0821,鞍山市,明达新区,,46,46,44,28,23,26,,52,51,31,31,10,27,0.6,0.7
2025-10-31T1900,1754A,123.1289,41.0228,鞍山市,千山,,,,19,,16,,,42,,,24,,6,,0.3
2025-10-31T1900,4201A,122.9446,41.0826,鞍山市,兴盛南路290号,颗粒物(PM10),150,250,95,110,52,5,,50,43,98,60,21,42,1.4,1.9
2025-10-31T1900,2195A,107.4212,40.761,巴彦淖尔市,附二中,颗粒物(PM10),59,68,63,29,30,62,,75,75,18,24,6,7,0.5,0.5
2025-10-31T1900,2196A,107.37,40.7372,巴彦淖尔市,市环保大楼,颗粒物(PM10),62,74,72,14,29,55,,78,78,27,25,8,9,0.5,0.5
2025-10-31T1900,1956A,86.1472,41.7538,巴音郭楞蒙古自治州,孔雀公园,颗粒物(PM10),73,95,98,27,32,92,,90,90,10,27,7,11,0.3,0.7
2025-10-31T1900,1957A,86.1972,41.7166,巴音郭楞蒙古自治州,棉纺厂,颗粒物(PM10),83,115,117,30,29,93,,92,92,9,36,5,8,0.3,0.5
2025-10-31T1900,1958A,86.2357,41.7173,巴音郭楞蒙古自治州,经济开发区,颗粒物(PM10),74,97,100,8,27,84,,92,92,12,18,6,8,0.4,0.5
2025-10-31T1900,2914A,106.7677,31.8794,巴中市,苏山坪,,,,,,,,,,,,,,,,
2025-10-31T1900,3181A,106.7768,31.8526,巴中市,市五中,,,37,31,26,21,11,,15,15,,13,8,8,0.7,0.7
2025-10-31T1900,3183A,106.7418,31.8654,巴中市,圣泉水务公司,,48,48,31,29,22,3,,14,14,28,17,8,8,1.0,0.8
2025-10-31T1900,3616A,106.7616,31.8344,巴中市,市中心医院,,36,34,31,25,21,2,,14,14,24,16,10,10,0.8,0.8
2025-10-31T1900,2235A,122.7911,45.6077,白城市,洮北区环保局,细颗粒物(PM2.5),58,57,28,41,18,32,,61,58,41,16,6,5,0.6,0.3
2025-10-31T1900,2236A,122.8738,45.5725,白城市,市环保局,,41,41,32,19,16,8,,60,54,60,23,8,5,0.3,0.3
2025-10-31T1900,2231A,126.4219,41.9171,白山市,喜丰,颗粒物(PM10),56,61,64,19,17,26,,43,43,46,32,12,15,0.8,0.8
2025-10-31T1900,2232A,126.4077,41.9419,白山市,环保局,,23,22,27,16,18,49,,54,54,16,19,7,9,0.8,0.7
2025-10-31T1900,2647A,104.1724,36.5446,白银市,第三小学,颗粒物(PM10),62,74,60,36,22,36,,82,80,66,23,9,9,0.4,0.3
2025-10-31T1900,2648A,104.1465,36.5482,白银市,动力公司,颗粒物(PM10),59,68,58,36,23,72,,96,95,37,19,10,8,0.5,0.4
2025-10-31T1900,2512A,106.6103,23.9011,百色市,市监测站,,19,19,28,12,16,42,,57,56,9,13,7,8,0.8,0.7
2025-10-31T1900,2513A,106.6538,23.8859,百色市,市中心血站,,27,27,34,12,21,40,,59,58,18,24,5,7,0.8,0.8
2025-10-31T1900,3406A,106.6085,23.8798,百色市,祈福高中,,25,25,36,15,20,40,,55,54,12,14,5,7,0.8,0.2
2025-10-31T1900,2270A,117.396,32.939,蚌埠市,工人疗养院,细颗粒物(PM2.5),159,166,95,121,63,87,,97,97,29,31,5,5,0.8,0.7
2025-10-31T1900,2271A,117.3605,32.9427,蚌埠市,百货大楼,细颗粒物(PM2.5),179,167,89,135,72,70,,94,94,40,39,8,7,0.8,0.6
2025-10-31T1900,2273A,117.4185,32.8911,蚌埠市,蚌埠学院,细颗粒物(PM2.5),162,144,62,123,57,94,,103,103,22,33,5,5,0.8,0.6
2025-10-31T1900,2274A,117.3533,32.9673,蚌埠市,淮上区政府,细颗粒物(PM2.5),165,166,87,125,70,80,,103,103,33,40,6,7,0.8,0.6
2025-10-31T1900,2275A,117.3145,32.8977,蚌埠市,高新区,细颗粒物(PM2.5),165,144,78,125,63,89,,93,93,26,38,6,8,0.8,0.6
2025-10-31T1900,3715A,117.3092,32.9314,蚌埠市,蚌埠田家炳中学,细颗粒物(PM2.5),153,168,87,117,56,70,,93,93,36,40,5,5,0.7,0.5
2025-10-31T1900,1585A,109.8756,40.6532,包头市,市环境监测站,,40,40,33,19,12,50,,77,74,33,17,6,7,0.3,0.3
2025-10-31T1900,1587A,109.9991,40.5842,包头市,包头八中,,38,38,40,10,15,54,,79,76,33,31,5,6,0.4,0.5
2025-10-31T1900,1588A,109.8538,40.6821,包头市,青山宾馆,,30,20,28,13,9,29,,81,75,60,20,8,10,0.5,0.5
2025-10-31T1900,1589A,109.8642,40.6288,包头市,惠龙物流,,32,32,28,3,10,58,,81,78,30,19,6,9,0.6,0.6
2025-10-31T1900,1590A,110.0377,40.5546,包头市,东河鸿龙湾,,40,40,37,3,11,56,,81,78,32,32,9,10,0.4,0.5
2025-10-31T1900,3283A,109.9154,40.5685,包头市,滨河大厦,,34,34,32,17,15,52,,81,78,31,27,16,10,0.4,0.4
2025-10-31T1900,3419A,109.9447,40.6261,包头市,包头市委党校,,18,18,23,6,10,52,,84,80,34,23,6,7,0.5,0.5
2025-10-31T1900,3683A,109.8331,40.6576,包头市,昆区政府,,25,25,26,9,10,54,,78,75,33,16,8,11,0.6,0.6
2025-10-31T1900,1930A,107.185,34.3063,宝鸡市,庙沟村,,,,,,,,,,,,,,,,
2025-10-31T1900,1931A,107.0708,34.3017,宝鸡市,竹园沟,,40,40,44,21,24,55,,61,61,14,23,7,7,0.3,0.3
2025-10-31T1900,1932A,107.1906,34.3672,宝鸡市,三陆医院,颗粒物(PM10),86,121,68,33,41,2,,51,49,85,47,7,8,0.9,0.7
2025-10-31T1900,1933A,107.1431,34.3547,宝鸡市,监测站,颗粒物(PM10),58,65,55,26,30,31,,46,46,36,27,6,6,0.4,0.4
2025-10-31T1900,1934A,107.1186,34.3739,宝鸡市,技工学校,颗粒物(PM10),61,71,56,32,39,33,,63,63,43,23,8,6,0.7,0.6
2025-10-31T1900,1936A,107.2058,34.3497,宝鸡市,文理学院,,,,57,22,28,7,,59,57,63,32,5,6,,0.5
2025-10-31T1900,1937A,107.2386,34.3622,宝鸡市,三迪小学,颗粒物(PM10),83,115,66,29,38,4,,51,49,81,46,6,6,1.0,0.6
2025-10-31T1900,4308A,107.3898,34.3601,宝鸡市,陈仓区北开路21号,颗粒物(PM10),94,137,100,48,42,11,,52,52,85,43,7,13,0.7,0.7
2025-10-31T1900,1051A,115.493,38.8632,保定市,游泳馆,细颗粒物(PM2.5),215,179,141,165,148,22,,52,52,54,33,4,4,1.0,0.8
2025-10-31T1900,1052A,115.5213,38.8959,保定市,华电二区,细颗粒物(PM2.5),202,161,125,152,137,12,,53,52,50,34,3,2,1.4,1
2025-10-31T1900,1053A,115.4713,38.9108,保定市,接待中心,细颗粒物(PM2.5),193,170,142,145,135,21,,53,51,46,31,3,3,0.8,0.6
2025-10-31T1900,1054A,115.4612,38.8416,保定市,地表水厂,细颗粒物(PM2.5),183,189,152,138,130,9,,51,48,67,36,8,8,1.0,0.9
2025-10-31T1900,3581A,115.31981,38.95208,保定市,满城区生态环境分局,细颗粒物(PM2.5),178,175,160,134,137,9,,58,54,59,36,3,2,0.8,0.7
2025-10-31T1900,3582A,115.47694,38.76408,保定市,清苑区第二中学,细颗粒物(PM2.5),150,183,139,115,114,20,,63,61,56,29,1,2,0.9,0.9
2025-10-31T1900,3583A,115.62909,39.02311,保定市,徐水物探局,细颗粒物(PM2.5),189,197,136,142,105,13,,41,40,61,34,7,10,,0.9
2025-10-31T1900,4004A,115.4202,38.8656,保定市,双鹰农机,细颗粒物(PM2.5),183,183,150,138,132,21,,59,56,50,35,5,2,1.1,0.9
2025-10-31T1900,4034A,115.5150,38.8590,保定市,植保所站,细颗粒物(PM2.5),204,180,148,154,132,16,,47,47,60,37,2,4,1.3,1
2025-10-31T1900,2594A,99.1678,25.1081,保山市,市环境监测站,,28,28,20,13,16,54,,63,63,7,8,9,7,0.5,0.5
2025-10-31T1900,2595A,99.1711,25.1328,保山市,市环保局,,22,20,25,15,16,60,,67,67,3,6,6,6,0.5,0.5
2025-10-31T1900,1866A,109.2262,21.588,北海市,牛尾岭水库,,45,,26,31,22,53,,64,64,13,11,2,2,0.6,0.7
2025-10-31T1900,1867A,109.1436,21.4086,北海市,海滩公园,,50,50,35,24,23,69,,79,79,10,10,7,6,1.0,0.9
2025-10-31T1900,1868A,109.0981,21.4661,北海市,新市环保局,细颗粒物(PM2.5),52,38,32,36,26,66,,80,80,11,11,5,4,0.8,0.7
2025-10-31T1900,1869A,109.1778,21.5233,北海市,北海工业园,,,,38,37,27,61,,76,76,,12,4,5,0.8,0.7
2025-10-31T1900,3400A,109.1911,21.4415,北海市,龙潭自来水厂,,48,43,33,33,27,66,,79,79,8,8,1,2,0.7,0.7
2025-10-31T1900,1001A,116.3621,39.8784,北京市,万寿西宫,,49,49,55,30,41,43,,46,46,37,30,2,2,0.7,0.8
2025-10-31T1900,1002A,116.2202,40.2915,北京市,定陵,,,,,,,,,,,,,,,,
2025-10-31T1900,1003A,116.4174,39.9289,北京市,东四,,25,25,54,14,39,56,,53,53,20,24,3,3,0.4,0.7
2025-10-31T1900,1004A,116.4072,39.8863,北京市,天坛,,49,47,44,34,35,26,,42,42,33,26,1,1,0.5,0.5
2025-10-31T1900,1005A,116.462,39.9365,北京市,农展馆,,19,9,48,3,36,59,,54,54,26,31,4,3,0.3,0.7
2025-10-31T1900,1006A,116.3392,39.9295,北京市,官园,,21,12,52,7,41,66,,56,56,17,24,2,2,0.3,0.6
2025-10-31T1900,1007A,116.2878,39.9611,北京市,海淀万柳,,19,6,60,3,46,59,,50,50,19,32,5,4,0.2,0.6
2025-10-31T1900,1008A,116.6636,40.135,北京市,顺义新城,,22,15,69,3,42,35,,52,52,44,22,4,3,0.3,0.6
2025-10-31T1900,1009A,116.6275,40.3275,北京市,怀柔镇,细颗粒物(PM2.5),80,67,61,59,51,11,,45,38,61,26,3,4,1.0,0.8
2025-10-31T1900,1010A,116.2296,40.217,北京市,昌平镇,,17,10,53,3,40,53,,59,59,28,26,5,4,0.3,0.6
2025-10-31T1900,1011A,116.3966,39.9821,北京市,奥体中心,,18,6,48,3,35,55,,49,49,23,31,5,4,0.2,0.6
2025-10-31T1900,3281A,115.9718,40.4529,北京市,延庆夏都,,25,6,68,3,47,78,,69,69,11,25,2,2,0.2,0.7
2025-10-31T1900,3418A,116.8336,40.4095,北京市,密云新城,"颗粒物(PM10),细颗粒物(PM2.5)",59,67,65,42,50,19,,55,53,30,14,1,1,0.8,0.7
2025-10-31T1900,3671A,116.088,39.9726,北京市,门头沟三家店,,21,15,84,6,59,31,,65,64,41,25,3,2,0.4,0.7
2025-10-31T1900,3672A,116.1541,39.8204,北京市,丰台云岗,颗粒物(PM10),168,285,104,106,60,27,,42,41,43,28,3,3,0.8,0.8
2025-10-31T1900,3673A,116.6804,39.9081,北京市,通州东关,,,84,59,56,39,,,38,38,38,29,3,3,0.8,0.7
2025-10-31T1900,3674A,115.9577,39.7603,北京市,房山燕山,细颗粒物(PM2.5),72,63,90,52,72,29,,38,38,27,30,3,3,0.5,0.7
2025-10-31T1900,3675A,116.4672,39.7733,北京市,大兴旧宫,细颗粒物(PM2.5),112,115,53,84,37,35,,46,46,32,23,2,2,0.9,0.7
2025-10-31T1900,3694A,115.986,40.4563,北京市,延庆石河营,,24,6,63,3,40,76,,67,67,6,18,2,2,0.2,0.7
2025-10-31T1900,3695A,116.6151,40.3053,北京市,怀柔新城,细颗粒物(PM2.5),63,62,64,45,49,35,,46,45,34,23,3,3,0.7,0.7
2025-10-31T1900,3696A,116.2545,39.8768,北京市,丰台小屯,细颗粒物(PM2.5),92,96,66,68,48,39,,46,46,30,25,3,3,0.7,0.8
2025-10-31T1900,3697A,116.84,40.3844,北京市,密云镇,颗粒物(PM10),69,88,65,48,52,2,,55,49,63,18,5,5,0.9,0.7
2025-10-31T1900,4182A,116.1942,39.9158,北京市,八角北路9号,,20,8,73,3,48,63,,54,54,21,28,1,2,0.0,0.5
2025-10-31T1900,4194A,117.0790,40.1518,北京市,洳河巡河路,细颗粒物(PM2.5),90,108,77,67,53,12,,51,48,49,19,3,3,0.8,0.7
2025-10-31T1900,1761A,123.8275,41.3064,本溪市,大峪,细颗粒物(PM2.5),68,71,40,49,19,44,,65,65,26,29,9,10,0.7,0.7
2025-10-31T1900,1762A,123.7567,41.3325,本溪市,溪湖,颗粒物(PM10),73,96,65,48,23,11,,63,62,70,40,12,13,0.8,0.9
2025-10-31T1900,1763A,123.7169,41.3094,本溪市,彩屯,颗粒物(PM10),56,61,46,39,25,8,,52,48,56,36,7,11,1.0,0.9
2025-10-31T1900,1764A,123.7669,41.2864,本溪市,东明,细颗粒物(PM2.5),102,115,53,76,21,11,,61,58,75,40,11,12,1.7,1
2025-10-31T1900,1765A,123.7992,41.2664,本溪市,新立屯,,38,38,27,20,15,9,,54,48,69,43,7,8,0.4,0.3
2025-10-31T1900,1766A,123.8142,41.3472,本溪市,威宁,颗粒物(PM10),71,92,57,44,22,6,,60,55,71,34,8,6,0.9,0.6
2025-10-31T1900,2587A,105.2864,27.3125,毕节市,八中,,21,17,26,12,18,67,,55,55,6,9,7,7,0.4,0.7
2025-10-31T1900,2588A,105.31,27.2944,毕节市,师专,,22,15,30,9,20,70,,55,55,6,14,8,8,0.5,0.7
2025-10-31T1900,4263A,105.3688,27.3598,毕节市,工业大道,,23,13,20,10,13,72,,61,61,4,8,9,12,0.5,0.6
2025-10-31T1900,1629A,118.0018,37.3617,滨州市,第二水厂,细颗粒物(PM2.5),72,90,64,52,39,36,,63,61,31,26,5,10,0.6,0.5
2025-10-31T1900,1630A,117.9776,37.393,滨州市,北中新校,细颗粒物(PM2.5),67,78,62,48,37,35,,64,62,35,33,5,6,0.4,0.4
2025-10-31T1900,3514A,117.9378,37.3956,滨州市,中海酒店,细颗粒物(PM2.5),77,80,58,56,40,27,,57,56,65,62,3,4,0.8,0.6
2025-10-31T1900,3515A,117.9378,37.3553,滨州市,开发区一中,细颗粒物(PM2.5),83,102,70,61,42,33,,68,65,45,31,6,12,0.7,0.6
2025-10-31T1900,3516A,118.0917,37.694,滨州市,金海六路,细颗粒物(PM2.5),62,71,49,44,29,23,,72,64,45,24,3,5,0.3,0.2
2025-10-31T1900,4028A,117.9956,37.3753,滨州市,滨州市西街道办事处,细颗粒物(PM2.5),89,80,57,66,46,40,,67,65,30,27,5,9,0.6,0.5
2025-10-31T1900,2311A,115.8072,33.8399,亳州市,污水处理厂,细颗粒物(PM2.5),211,218,156,161,120,60,,77,77,39,40,3,6,1.0,0.9
2025-10-31T1900,2312A,115.7789,33.8518,亳州市,三国揽胜宫,细颗粒物(PM2.5),179,213,139,135,120,71,,83,83,36,33,2,6,1.0,0.9
2025-10-31T1900,3332A,115.7633,33.8034,亳州市,亳州学院,细颗粒物(PM2.5),215,225,169,165,125,78,,89,89,29,29,6,6,1.1,0.8
2025-10-31T1900,2693A,82.0485,44.8556,博尔塔拉蒙古自治州,市党校,,42,32,46,29,35,51,,54,51,13,18,2,3,0.5,0.6
2025-10-31T1900,2694A,82.0806,44.8969,博尔塔拉蒙古自治州,市环保局,颗粒物(PM10),51,52,61,18,18,49,,55,52,17,20,4,4,0.3,0.4
2025-10-31T1900,1071A,116.8842,38.2991,沧州市,沧县城建局,细颗粒物(PM2.5),113,136,64,85,40,4,,28,26,61,28,4,3,1.7,0.7
2025-10-31T1900,1072A,116.8584,38.3254,沧州市,电视转播站,细颗粒物(PM2.5),89,93,59,66,39,5,,24,24,39,29,5,4,1.0,0.7
2025-10-31T1900,1073A,116.8709,38.3228,沧州市,市环保局,细颗粒物(PM2.5),105,109,64,79,48,6,,26,25,56,31,3,4,1.1,0.5
2025-10-31T1900,3324A,116.8136,38.3004,沧州市,河北水利电力学院,,,,53,,32,7,,26,25,56,29,6,6,1.0,0.5
2025-10-31T1900,2622A,97.1806,31.1273,昌都市,昌都监测站,,35,,45,24,21,58,,75,75,34,25,4,4,0.7,0.8
2025-10-31T1900,3719A,97.1714,31.1406,昌都市,昌都会议中心,,25,13,17,9,10,79,,81,81,8,9,4,4,0.3,0.3
2025-10-31T1900,2690A,88.1236,43.8886,昌吉回族自治州,天山天池,,,,,,,,,,,,,,,,
2025-10-31T1900,2692A,87.2717,44.0297,昌吉回族自治州,新区政务中心,颗粒物(PM10),63,76,67,28,23,58,,60,60,26,38,11,5,0.5,0.6
2025-10-31T1900,3613A,87.3095,44.0142,昌吉回族自治州,亚心广场,颗粒物(PM10),71,92,71,27,21,64,,63,63,24,33,12,8,0.6,0.5
2025-10-31T1900,1120A,125.2863,43.9027,长春市,客车厂,细颗粒物(PM2.5),87,92,56,64,40,8,,63,54,103,43,12,10,2.1,0.6
2025-10-31T1900,1121A,125.2841,43.8463,长春市,邮电学院,颗粒物(PM10),54,57,56,36,37,25,,66,63,59,32,7,8,0.7,0.6
2025-10-31T1900,1122A,125.3716,43.8772,长春市,劳动公园,"颗粒物(PM10),细颗粒物(PM2.5)",59,68,50,42,27,11,,64,60,78,38,9,9,1.1,0.7
2025-10-31T1900,1123A,125.3297,43.8805,长春市,园林处,"颗粒物(PM10),细颗粒物(PM2.5)",53,56,49,37,31,18,,64,60,69,36,7,7,0.6,0.3
2025-10-31T1900,1124A,125.4605,43.79,长春市,净月潭,,34,34,31,22,16,62,,70,70,11,15,5,6,0.4,0.4
2025-10-31T1900,1125A,125.7194,43.515,长春市,甩湾子,,,145,40,,24,35,,72,70,68,25,9,5,1.3,0.6
2025-10-31T1900,1126A,125.3863,43.8447,长春市,经开区环卫处,颗粒物(PM10),59,67,48,29,26,1,,61,52,91,42,7,6,0.9,0.6
2025-10-31T1900,1127A,125.245,43.7783,长春市,高新区管委会,细颗粒物(PM2.5),147,119,59,112,43,17,,68,58,75,37,7,7,1.1,0.5
2025-10-31T1900,1128A,125.1761,43.8325,长春市,岱山公园,细颗粒物(PM2.5),169,182,74,128,49,8,,65,54,100,44,12,8,0.8,0.5
2025-10-31T1900,4281A,125.3346,43.9164,长春市,北亚泰大街1068号,"颗粒物(PM10),细颗粒物(PM2.5)",72,94,55,52,36,3,,60,50,97,48,11,8,1.5,0.6
2025-10-31T1900,1335A,113.0833,28.2325,长沙市,经开区环保局,,46,46,56,23,62,63,,71,70,27,18,5,4,0.5,0.6
2025-10-31T1900,1336A,112.8872,28.2189,长沙市,高开区环保局,,49,49,62,25,68,66,,75,75,30,20,6,5,0.4,0.5
2025-10-31T1900,1337A,113.0792,28.2053,长沙市,马坡岭,,42,42,58,19,48,67,,76,75,28,17,5,4,0.6,0.6
2025-10-31T1900,1338A,112.9394,28.19,长沙市,湖南师范大学,,38,38,59,16,47,83,,84,84,23,19,5,5,0.3,0.4
2025-10-31T1900,1339A,113.0178,28.1322,长沙市,雨花区环保局,,41,41,57,22,66,72,,78,78,19,15,6,6,0.6,0.7
2025-10-31T1900,1340A,112.9792,28.2597,长沙市,伍家岭,,40,36,65,28,65,75,,76,76,24,16,4,4,0.3,0.4
2025-10-31T1900,1341A,113.0014,28.1944,长沙市,火车新站,,45,40,59,31,57,81,,82,82,24,18,9,9,0.5,0.6
2025-10-31T1900,1342A,112.9844,28.1178,长沙市,天心区环保局,,36,36,62,19,48,80,,85,85,21,17,5,5,0.5,0.6
2025-10-31T1900,1343A,112.8908,28.1308,长沙市,湖南中医药大学,,30,30,57,17,41,60,,80,78,30,17,5,4,0.6,0.7
2025-10-31T1900,1344A,112.9581,28.3611,长沙市,沙坪,,,,,,,,,,,,,,,,
2025-10-31T1900,1727A,113.1147,36.1547,长治市,清华站,,36,36,64,17,54,57,,91,91,45,25,11,11,0.5,1
2025-10-31T1900,1730A,113.0886,36.2125,长治市,审计局,,32,27,57,22,55,54,,84,84,43,30,8,8,0.5,1.1
2025-10-31T1900,1731A,113.0844,36.1856,长治市,长治八中,颗粒物(PM10),51,51,81,16,60,60,,86,86,30,22,9,8,0.4,1
2025-10-31T1900,2845A,113.1569,36.1911,长治市,德盛苑,,42,42,68,22,60,71,,92,92,28,17,7,6,0.5,1
2025-10-31T1900,3568A,113.06,36.0464,长治市,向阳小学,颗粒物(PM10),57,63,97,37,66,83,,96,96,29,26,7,12,0.5,1.1
2025-10-31T1900,3569A,112.8792,36.3144,长治市,屯留一中,颗粒物(PM10),52,53,62,25,42,64,,87,87,32,20,10,11,0.4,0.8
2025-10-31T1900,4189A,113.1131,36.19948,长治市,英华南巷50号,,41,41,74,22,59,66,,103,97,34,23,7,6,0.5,1.3
2025-10-31T1900,4190A,113.2367,36.3344,长治市,学府街1号,,49,49,79,19,63,24,,81,78,69,28,8,7,0.7,1.5
2025-10-31T1900,1854A,111.6975,28.9703,常德市,市二中,细颗粒物(PM2.5),79,67,40,58,30,105,,88,88,20,15,4,4,0.9,0.8
2025-10-31T1900,1857A,111.7158,29.1456,常德市,白鹤山,,,,,,,,,,,,,,,,
2025-10-31T1900,3138A,111.7153,29.0289,常德市,武陵区永安,细颗粒物(PM2.5),69,73,50,50,34,64,,84,84,27,18,4,4,0.9,0.8
2025-10-31T1900,3139A,111.6892,28.9881,常德市,鼎城区玉霞,颗粒物(PM10),79,108,47,52,33,37,,74,74,45,18,6,5,0.8,0.5
2025-10-31T1900,3140A,111.6625,29.0531,常德市,武陵区长庚,细颗粒物(PM2.5),77,65,51,56,37,52,,73,73,38,25,3,3,0.8,0.6
2025-10-31T1900,1196A,119.9633,31.762,常州市,市监测站,颗粒物(PM10),56,61,40,26,17,55,,82,82,32,21,8,9,0.8,0.6
2025-10-31T1900,1200A,119.9468,31.7069,常州市,武进监测站,,37,37,34,14,11,48,,80,79,36,24,7,9,0.6,0.6
2025-10-31T1900,1201A,119.9255,31.9087,常州市,安家,,40,34,32,28,13,46,,75,74,38,25,9,9,0.8,0.7
2025-10-31T1900,3002A,119.9805,31.8174,常州市,行政中心,,48,48,28,28,17,62,,77,77,36,26,5,6,0.6,0.4
2025-10-31T1900,3003A,120.0522,31.7748,常州市,经开区,,34,34,34,20,13,64,,83,83,28,25,7,8,0.8,0.7
2025-10-31T1900,3010A,119.9025,31.7964,常州市,钟楼,细颗粒物(PM2.5),52,51,37,36,18,54,,78,78,44,26,8,8,0.9,0.7
2025-10-31T1900,3429A,119.8598,31.7066,常州市,武进经发区,,36,36,30,20,17,40,,84,78,44,31,7,7,0.9,0.8
2025-10-31T1900,3430A,119.5826,31.7245,常州市,金坛城区,,37,37,17,18,15,56,,84,81,23,18,5,5,0.6,0.6
2025-10-31T1900,2220A,120.4318,41.5881,朝阳市,西梁,,,108,80,66,40,,,58,58,74,44,12,11,1.3,1
2025-10-31T1900,2221A,120.4521,41.5646,朝阳市,河畔小区,颗粒物(PM10),66,81,59,45,32,26,,63,61,54,37,9,9,1.0,0.8
2025-10-31T1900,2222A,120.4176,41.5648,朝阳市,八里堡,细颗粒物(PM2.5),102,119,76,76,41,6,,54,50,83,44,12,12,1.6,1
2025-10-31T1900,2223A,120.3806,41.5969,朝阳市,农业园区,,39,27,46,27,28,42,,69,67,44,37,15,12,0.6,0.7
2025-10-31T1900,1705A,116.6367,23.6719,潮州市,西园路,,,,,,,,,,,,,,,,
2025-10-31T1900,3026A,116.6183,23.6608,潮州市,市政府,颗粒物(PM10),51,51,31,22,19,74,,96,96,8,6,4,3,0.6,0.5
2025-10-31T1900,4036A,116.6461,23.6761,潮州市,金山,颗粒物(PM10),57,64,31,35,20,72,,95,95,13,9,4,3,0.8,0.5
2025-10-31T1900,2472A,113.0073,25.9061,郴州市,马头岭,,,,,,,,,,,,,,,,
2025-10-31T1900,2473A,113.0116,25.8226,郴州市,市职中,细颗粒物(PM2.5),52,45,49,36,46,45,,61,60,17,11,2,2,0.7,0.7
2025-10-31T1900,2475A,113.0383,25.8071,郴州市,市审计局,,,51,49,39,45,36,,60,58,15,10,,9,0.4,0.5
2025-10-31T1900,2476A,113.0348,25.7759,郴州市,市环保局,细颗粒物(PM2.5),60,57,55,43,43,42,,55,54,21,14,3,2,0.5,0.6
2025-10-31T1900,4252A,113.0138,25.8011,郴州市,好美居路49号,,43,42,44,30,36,54,,69,68,22,15,3,2,0.7,0.7
2025-10-31T1900,1431A,103.9728,30.7236,成都市,金泉两河,,33,,35,23,31,19,,28,28,30,29,2,2,0.6,0.6
2025-10-31T1900,1432A,104.176,30.6872,成都市,十里店,细颗粒物(PM2.5),79,68,57,58,48,30,,44,44,33,26,3,3,0.6,0.5
2025-10-31T1900,1433A,104.079,30.5706,成都市,三瓦窑,细颗粒物(PM2.5),72,56,51,52,47,33,,30,30,29,30,3,3,0.7,0.7
2025-10-31T1900,1434A,104.1114,30.63,成都市,沙河铺,细颗粒物(PM2.5),79,66,56,58,53,19,,27,27,41,33,4,4,0.6,0.5
2025-10-31T1900,1437A,104.0786,30.6531,成都市,君平街,细颗粒物(PM2.5),60,44,46,43,53,30,,32,32,26,24,4,4,0.7,0.6
2025-10-31T1900,1438A,103.613,31.0283,成都市,灵岩寺,,,,,,,,,,,,,,,,
2025-10-31T1900,2880A,104.0239,30.65639,成都市,大石西路,细颗粒物(PM2.5),58,,35,41,37,27,,33,33,33,27,2,2,0.8,0.7
2025-10-31T1900,3136A,104.2725,30.5589,成都市,龙泉驿区区政府,,42,34,22,29,18,27,,45,28,35,24,5,5,0.6,0.5
2025-10-31T1900,3357A,104.0106,30.6931,成都市,金博路,,35,28,39,24,27,26,,30,30,30,27,5,5,0.6,0.6
2025-10-31T1900,3359A,104.0578,30.5225,成都市,华阳,细颗粒物(PM2.5),52,,32,36,31,36,,38,38,34,27,4,4,0.5,0.4
2025-10-31T1900,3488A,104.3880,30.7467,成都市,青石路225号,细颗粒物(PM2.5),73,63,48,53,34,8,,27,26,53,28,5,5,1.0,0.7
2025-10-31T1900,3489A,104.0789,30.4072,成都市,科学城,,35,30,28,24,22,38,,41,41,24,17,5,4,0.6,0.5
2025-10-31T1900,4011A,103.8506,30.6947,成都市,光华大道三段,,48,45,51,33,34,29,,39,39,30,28,1,1,0.8,0.8
2025-10-31T1900,4224A,104.2433,30.5353,成都市,鲸龙路1057号,,46,34,32,32,24,29,,32,32,32,31,5,5,0.7,0.6
2025-10-31T1900,1062A,117.9531,40.9081,承德市,铁路,,41,41,61,24,35,40,,45,45,39,42,6,5,0.5,0.6
2025-10-31T1900,1063A,117.9392,40.9763,承德市,中国银行,,43,43,51,14,29,20,,52,50,43,31,3,4,0.5,0.5
2025-10-31T1900,1064A,117.9503,40.928,承德市,开发区,颗粒物(PM10),68,86,79,27,39,15,,44,43,52,44,6,8,0.2,0.5
2025-10-31T1900,1066A,117.9268,41.0026,承德市,离宫,,,,,,,,,,,,,,,,
2025-10-31T1900,4274A,117.7994,40.9605,承德市,滨河大街98号,,29,29,46,12,33,49,,56,56,18,35,3,8,0.2,0.6
2025-10-31T1900,2314A,117.47,30.6618,池州市,池州学院,细颗粒物(PM2.5),52,43,30,36,24,74,,88,88,22,17,6,5,0.6,0.6
2025-10-31T1900,3237A,117.4918,30.6617,池州市,展览馆,,42,37,29,29,23,55,,84,84,23,18,4,4,0.6,0.6
2025-10-31T1900,3333A,117.5627,30.695,池州市,第八中学,,39,38,30,27,22,61,,82,82,18,18,6,6,0.6,0.6
2025-10-31T1900,3334A,117.5038,30.6243,池州市,第十二中学,,38,37,25,26,21,31,,85,82,52,22,5,5,0.8,0.7
2025-10-31T1900,1744A,118.9233,42.2816,赤峰市,松山一中,,26,26,47,3,21,59,,65,65,23,39,5,12,0.3,0.6
2025-10-31T1900,1745A,118.9576,42.2728,赤峰市,哈达街,,24,24,48,8,25,54,,60,60,22,35,8,18,0.4,0.7
2025-10-31T1900,1746A,118.8788,42.2554,赤峰市,天义路,,23,23,39,13,31,49,,62,62,27,35,11,16,0,0.3
2025-10-31T1900,3058A,119.2658,42.0353,赤峰市,银河街,颗粒物(PM10),54,58,73,27,34,16,,53,50,50,29,14,20,0.6,0.7
2025-10-31T1900,3286A,118.9359,42.3147,赤峰市,桥北物流园区,,47,47,39,17,25,34,,60,57,41,35,10,11,0.5,0.5
2025-10-31T1900,2521A,107.3476,22.4136,崇左市,市环保局江州分局,,28,28,25,13,16,47,,50,50,7,7,4,4,0.8,0.8
2025-10-31T1900,4256A,107.3750,22.3736,崇左市,石景林东路7号,,20,15,20,14,15,48,,52,52,9,7,6,6,0.7,0.8
2025-10-31T1900,2298A,118.3093,32.3153,滁州市,老年大学,细颗粒物(PM2.5),108,81,30,81,30,107,,96,96,9,11,11,11,0.4,0.2
2025-10-31T1900,2299A,118.3244,32.2786,滁州市,人大宾馆,细颗粒物(PM2.5),104,97,29,78,30,104,,96,96,11,13,4,5,0.4,0.3
2025-10-31T1900,3207A,118.3118,32.3038,滁州市,市政府原办公楼,细颗粒物(PM2.5),109,103,35,82,33,112,,102,102,14,15,5,6,0.7,0.5
2025-10-31T1900,3331A,118.3267,32.2634,滁州市,图书馆,细颗粒物(PM2.5),97,86,29,72,24,111,,99,99,10,14,7,7,0.4,0.4
2025-10-31T1900,2605A,101.5482,25.0441,楚雄彝族自治州,州环境监测站,,18,18,17,12,13,37,,40,40,5,4,7,7,0.6,0.6
2025-10-31T1900,2606A,101.538,25.0492,楚雄彝族自治州,市经济开发区,,23,21,22,16,15,36,,40,40,8,6,6,6,0.8,0.7
2025-10-31T1900,2548A,107.5277,31.2827,达州市,达州职业技术学院,,,,,,,,,,,,,,,,
2025-10-31T1900,2549A,107.5086,31.2186,达州市,市环境监测站,,,64,36,34,18,,,2,2,39,27,8,7,0.8,0.5
2025-10-31T1900,2550A,107.4988,31.2132,达州市,凤凰小区,颗粒物(PM10),59,68,36,29,20,3,,15,13,39,27,7,6,0.8,0.4
2025-10-31T1900,2551A,107.5082,31.1986,达州市,达县机关宾馆,颗粒物(PM10),58,66,36,3,4,2,,12,11,32,28,6,6,0.7,0.5
2025-10-31T1900,2552A,107.4644,31.2124,达州市,市政中心,颗粒物(PM10),68,85,48,31,19,3,,11,10,37,29,7,6,0.8,0.5
2025-10-31T1900,2614A,100.1542,25.7054,大理白族自治州,大理市环境监测站,,32,,16,22,12,50,,54,54,10,6,5,5,0.5,0.5
2025-10-31T1900,2615A,100.2171,25.5811,大理白族自治州,大理古城,,26,21,22,18,12,40,,51,50,13,10,6,7,0.5,0.5
2025-10-31T1900,1109A,121.612,38.9741,大连市,甘井子,,31,31,63,12,34,64,,72,72,29,37,9,10,0.2,0.6
2025-10-31T1900,1110A,121.565,38.9511,大连市,周水子,,32,32,58,12,32,58,,73,71,43,37,8,13,0.4,0.7
2025-10-31T1900,1111A,121.5637,38.8845,大连市,星海三站,,28,28,55,6,33,70,,71,71,11,20,8,8,0.3,0.7
2025-10-31T1900,1112A,121.6302,38.9117,大连市,青泥洼桥,,24,24,61,12,33,51,,65,65,38,38,11,12,0.4,0.9
2025-10-31T1900,1113A,121.6251,38.8638,大连市,傅家庄,,24,24,58,9,40,62,,67,67,22,33,10,11,0.3,0.7
2025-10-31T1900,1114A,121.5213,38.8661,大连市,七贤岭,,25,24,58,6,32,78,,79,79,15,26,7,9,0.4,0.8
2025-10-31T1900,1115A,121.2529,38.8061,大连市,旅顺,,26,13,44,7,29,83,,82,82,11,20,7,8,0.2,0.6
2025-10-31T1900,1116A,121.7485,39.1311,大连市,金州,,33,33,50,16,34,50,,68,68,46,37,13,12,0.2,0.6
2025-10-31T1900,1117A,121.7811,39.0496,大连市,开发区,,38,38,61,16,33,34,,57,55,46,31,7,8,0.4,0.6
2025-10-31T1900,1118A,121.9762,39.0631,大连市,双D港,,40,40,43,15,33,55,,74,73,28,20,11,10,0.3,0.6
2025-10-31T1900,1789A,124.81117,46.03138,大庆市,大同区,细颗粒物(PM2.5),105,109,56,79,27,35,,51,50,35,23,12,10,0.8,0.6
2025-10-31T1900,1790A,125.129,46.533,大庆市,龙凤区,颗粒物(PM10),77,104,72,38,31,15,,43,35,58,32,12,14,0.8,0.7
2025-10-31T1900,1791A,124.902,46.408,大庆市,红岗区,细颗粒物(PM2.5),162,145,55,123,37,43,,49,49,56,25,11,7,1.2,0.8
2025-10-31T1900,1792A,125.153,46.586,大庆市,萨尔图区,颗粒物(PM10),65,79,68,35,41,15,,39,37,59,36,15,15,0.6,0.5
2025-10-31T1900,1793A,124.9042,46.6215,大庆市,让胡路区,颗粒物(PM10),65,79,53,35,34,5,,34,28,67,32,12,8,0.8,0.6
2025-10-31T1900,3481A,125.141,46.634,大庆市,萨区政府监测点,颗粒物(PM10),54,58,62,27,30,29,,43,43,27,22,14,12,0.6,0.6
2025-10-31T1900,1721A,113.3819,40.1097,大同市,果树场,,24,17,45,8,22,38,,72,69,48,34,10,11,0.3,0.7
2025-10-31T1900,1723A,113.2994,40.0758,大同市,云冈宾馆,,36,36,39,11,16,60,,76,76,20,29,7,10,0.6,1
2025-10-31T1900,1724A,113.3444,40.0917,大同市,大同大学,,21,21,33,13,15,63,,79,79,27,33,6,15,0.4,0.6
2025-10-31T1900,1725A,113.2661,40.1269,大同市,安家小村,,20,20,49,12,17,60,,76,76,22,28,7,10,0.2,1.1
2025-10-31T1900,1726A,113.2711,40.0844,大同市,教育学院,,42,42,48,15,20,51,,75,74,33,35,7,9,0.5,0.9
2025-10-31T1900,3282A,113.3397,40.0597,大同市,大同市卫生学校,,24,24,36,9,14,55,,74,74,27,31,5,12,0.4,0.7
2025-10-31T1900,3565A,113.1367,40.1122,大同市,云冈站,颗粒物(PM10),51,51,46,8,16,42,,80,76,30,25,5,11,0.3,0.5
2025-10-31T1900,3566A,113.1186,40.2556,大同市,图书馆,,32,32,42,12,16,68,,76,76,13,19,4,6,0.2,0.5
2025-10-31T1900,3567A,113.5931,40.0461,大同市,区一中,,,,34,,13,,,88,88,22,16,6,8,0.4,0.6
2025-10-31T1900,4199A,113.2798,40.0997,大同市,魏都大道141号,,29,29,50,17,21,55,,79,78,32,33,5,9,0.5,0.9
2025-10-31T1900,2269A,124.1069,50.4097,大兴安岭地区,科技局,,26,22,17,18,15,44,,45,45,9,7,6,5,0.3,0.3
2025-10-31T1900,3663A,124.1164,50.4278,大兴安岭地区,红旗社区,,40,,15,28,11,29,,42,41,23,13,10,5,0.5,0.4
2025-10-31T1900,1600A,124.3303,40.0625,丹东市,江湾东路,细颗粒物(PM2.5),57,54,41,40,29,9,,38,26,37,25,12,7,2.0,1.2
2025-10-31T1900,1601A,124.4256,40.1503,丹东市,临江后街,,33,33,37,20,21,4,,26,23,45,27,7,8,1.1,1
2025-10-31T1900,1602A,124.3933,40.1461,丹东市,元宝山,,22,17,33,15,25,20,,30,23,20,20,7,8,0.8,0.9
2025-10-31T1900,1603A,124.3633,40.1092,丹东市,民主桥,,50,50,41,32,26,0,,33,17,46,30,7,6,0.9,0.5
2025-10-31T1900,3541A,109.5726,19.5167,儋州市,第一中学子站,"颗粒物(PM10),细颗粒物(PM2.5)",55,59,29,39,18,62,,75,74,15,5,6,6,0.5,0.2
2025-10-31T1900,3542A,109.5567,19.5187,儋州市,东坡学校子站,,48,45,23,33,13,68,,82,80,20,7,4,4,0.5,0.2
2025-10-31T1900,2616A,98.5842,24.428,德宏傣族景颇族自治州,德宏州监测站,,28,28,31,17,22,60,,77,77,18,18,9,10,0.7,0.7
2025-10-31T1900,3677A,98.5881,24.4368,德宏傣族景颇族自治州,芒市人民政府综合楼,,42,42,38,14,21,54,,75,75,15,14,7,8,0.5,0.6
2025-10-31T1900,1901A,104.4239,31.1208,德阳市,东山公园,,,,32,41,29,25,,30,30,37,20,,1,0.9,0.9
2025-10-31T1900,1902A,104.3826,31.1317,德阳市,西小区,细颗粒物(PM2.5),73,67,55,53,39,20,,36,36,45,25,1,1,1.2,1
2025-10-31T1900,1904A,104.3553,31.1091,德阳市,耐火材料厂,细颗粒物(PM2.5),62,65,50,44,36,16,,35,35,48,28,2,1,0.9,0.8
2025-10-31T1900,3639A,104.4019,31.1244,德阳市,市教育局,细颗粒物(PM2.5),60,57,46,43,33,18,,33,33,45,24,3,3,0.9,0.8
2025-10-31T1900,1622A,116.3032,37.4674,德州市,儿童乐园,细颗粒物(PM2.5),113,134,114,85,75,44,,65,62,43,36,8,9,1.1,0.9
2025-10-31T1900,1624A,116.2991,37.4451,德州市,监理站,细颗粒物(PM2.5),110,117,111,83,82,54,,70,70,53,42,10,11,0.8,0.8
2025-10-31T1900,3066A,116.2721,37.4379,德州市,九衢泉纯净水厂,颗粒物(PM10),87,124,104,63,57,31,,55,55,63,40,11,10,0.9,0.8
2025-10-31T1900,3371A,116.3728,37.4403,德州市,开发区人民医院,细颗粒物(PM2.5),94,114,102,70,62,33,,48,48,54,40,10,11,0.9,0.9
2025-10-31T1900,3511A,116.5652,37.3319,德州市,陵城艺术中心,细颗粒物(PM2.5),138,188,110,105,74,8,,49,46,80,44,7,8,1.3,0.9
2025-10-31T1900,4292A,116.3525,37.4209,德州市,新河东路,细颗粒物(PM2.5),85,117,110,63,61,13,,56,53,94,50,8,8,1.2,0.9
2025-10-31T1900,2621A,99.7056,27.8317,迪庆藏族自治州,迪庆州站,,26,23,16,18,12,40,,54,47,13,8,7,6,0.6,0.4
2025-10-31T1900,3180A,99.7136,27.8094,迪庆藏族自治州,质量技术监督局,,15,11,14,3,6,47,,61,50,8,8,7,7,0.5,0.4
2025-10-31T1900,4257A,104.6092,35.5962,定西市,将台街,颗粒物(PM10),64,78,74,33,34,77,,104,104,32,35,10,10,0.4,0.6
2025-10-31T1900,4309A,104.6159,35.5701,定西市,正龙路62号,颗粒物(PM10),64,77,89,34,39,86,,96,96,10,15,6,7,0.3,0.5
2025-10-31T1900,1389A,113.7547,23.0494,东莞市,莞城梨川,,26,26,27,16,21,54,,68,67,15,17,5,5,0.7,0.6
2025-10-31T1900,1390A,113.7944,23.0128,东莞市,东城石井,,20,17,14,14,14,63,,67,67,11,17,5,6,0.7,0.6
2025-10-31T1900,1391A,113.7383,22.9658,东莞市,南城西平,,28,23,25,19,18,55,,66,65,19,23,5,6,0.7,0.7
2025-10-31T1900,3319A,113.7338,23.0381,东莞市,万江金泰,,29,28,30,20,20,52,,64,63,10,16,4,5,0.7,0.6
2025-10-31T1900,3626A,113.7533,23.0202,东莞市,南城元岭,,,,25,,18,,,56,,,12,,6,,0.6
2025-10-31T1900,3627A,113.7875,23.0457,东莞市,东城主山,,24,24,25,15,18,62,,67,67,14,16,4,4,0.8,0.7
2025-10-31T1900,1666A,118.6614,37.4309,东营市,市环保局,,49,48,41,34,25,60,,83,82,30,22,6,7,0.7,0.6
2025-10-31T1900,3036A,118.6904,37.4338,东营市,开发区管委会,颗粒物(PM10),53,56,43,29,31,70,,88,87,24,19,6,7,0.7,0.6
2025-10-31T1900,3365A,118.5719,37.565,东营市,垦利区民丰路,细颗粒物(PM2.5),58,56,44,41,26,52,,83,81,30,19,7,8,1.1,0.9
2025-10-31T1900,3498A,118.5055,37.8612,东营市,河口城区,细颗粒物(PM2.5),70,68,40,51,24,52,,89,86,34,20,8,8,0.7,0.6
2025-10-31T1900,3646A,118.4978,37.4623,东营市,胜利站,颗粒物(PM10),56,62,41,36,27,54,,82,79,35,26,9,8,1.0,0.8
2025-10-31T1900,3734A,118.35,37.26,东营市,理想之城,颗粒物(PM10),57,63,52,34,31,40,,74,70,45,32,2,3,0.8,0.7
2025-10-31T1900,1591A,110.0023,39.8129,鄂尔多斯市,综合楼,,22,19,31,3,7,70,,77,77,12,17,6,7,0.2,0.2
2025-10-31T1900,1592A,109.9486,39.8261,鄂尔多斯市,巴音孟克林场办事处,,20,19,36,3,12,61,,80,80,23,19,5,7,0.2,0.3
2025-10-31T1900,1593A,109.7736,39.5986,鄂尔多斯市,康泽苑,,22,22,26,3,12,59,,85,84,28,18,7,6,0.4,0.3
2025-10-31T1900,1594A,109.8119,39.5989,鄂尔多斯市,华泰汽车城,,24,24,30,7,12,48,,84,81,28,13,4,4,0.3,0.3
2025-10-31T1900,1595A,109.9734,39.7884,鄂尔多斯市,奥林花园,,29,29,40,3,9,53,,79,79,33,19,7,9,0.4,0.4
2025-10-31T1900,2436A,114.8938,30.3994,鄂州市,市政府,颗粒物(PM10),52,54,40,30,27,51,,69,68,36,24,12,9,0.9,0.7
2025-10-31T1900,2437A,114.8989,30.3714,鄂州市,赵家坝,,43,43,39,29,28,49,,70,69,28,12,9,9,1.0,1
2025-10-31T1900,3654A,114.8094,30.4089,鄂州市,精准医疗中心,,43,43,39,27,26,50,,75,74,32,17,4,5,0.4,0.5
2025-10-31T1900,2454A,109.4978,30.2981,恩施土家族苗族自治州,湖北民院,,38,38,28,26,21,23,,42,42,26,9,7,6,0.9,0.7
2025-10-31T1900,2455A,109.4707,30.2798,恩施土家族苗族自治州,州电力总公司,,49,43,28,34,23,12,,37,37,34,16,6,5,0.6,0.4
2025-10-31T1900,3549A,109.5061,30.3772,恩施土家族苗族自治州,龙凤新区,,29,29,22,18,16,14,,36,35,16,6,6,6,0.6,0.4
2025-10-31T1900,2499A,108.3411,21.6158,防城港市,沙万,,30,,20,21,20,57,,61,61,7,6,4,4,0.5,0.6
2025-10-31T1900,2500A,108.3514,21.7731,防城港市,防城档案局,,27,27,28,17,17,54,,56,56,8,7,6,6,0.6,0.7
2025-10-31T1900,2501A,108.3506,21.6414,防城港市,大海花园,,22,,22,15,17,61,,65,65,7,6,4,4,0.6,0.6
2025-10-31T1900,1371A,113.1294,23.0067,佛山市,湾梁,,35,29,41,24,24,50,,73,73,24,30,7,8,0.9,0.8
2025-10-31T1900,1372A,113.1083,23.0478,佛山市,华材职中,,32,31,41,22,32,52,,79,79,18,24,6,7,0.7,0.7
2025-10-31T1900,1373A,113.144,23.0453,佛山市,南海气象局,,36,28,38,25,28,51,,75,75,18,22,8,8,0.8,0.8
2025-10-31T1900,1374A,113.2881,22.8094,佛山市,顺德苏岗,,43,43,43,14,26,60,,73,73,24,28,7,8,0.7,0.6
2025-10-31T1900,1376A,112.8383,22.8678,佛山市,高明孔堂,,48,48,41,24,27,57,,86,86,25,24,8,7,0.8,0.7
2025-10-31T1900,1377A,112.8836,23.1588,佛山市,三水监测站,,34,34,35,16,26,50,,65,65,20,27,6,8,0.9,0.8
2025-10-31T1900,1378A,112.867,23.185,佛山市,三水云东海,,39,,39,27,29,49,,66,66,16,23,9,8,0.9,0.9
2025-10-31T1900,3625A,113.2544,22.7642,佛山市,容桂街道办,,36,36,40,22,28,54,,70,70,28,30,6,8,0.7,0.7
2025-10-31T1900,1280A,119.3903,26.0543,福州市,鼓山,,33,11,17,10,12,105,,86,86,6,7,1,1,0.4,0.3
2025-10-31T1900,1282A,119.2681,26.0504,福州市,师大,,27,25,27,12,13,85,,87,87,18,20,6,6,0.5,0.4
2025-10-31T1900,1283A,119.2984,26.1028,福州市,五四北路,,26,23,32,10,15,82,,83,83,20,23,4,4,0.4,0.4
2025-10-31T1900,1284A,119.2648,26.0768,福州市,杨桥西路,,31,31,28,11,13,82,,86,86,18,17,4,4,0.4,0.3
2025-10-31T1900,1285A,119.317,26.0746,福州市,紫阳,,28,28,38,11,17,79,,74,74,19,25,7,6,0.5,0.4
2025-10-31T1900,3048A,119.5799,26.0936,福州市,九龙,,38,20,19,11,11,121,,98,98,8,13,4,4,0.4,0.4
2025-10-31T1900,3526A,119.5189,25.9664,福州市,吴航,,34,17,33,9,18,106,,92,92,7,25,5,5,0.5,0.5
2025-10-31T1900,1755A,123.7977,41.8491,抚顺市,望花区,颗粒物(PM10),54,57,45,30,20,17,,60,57,58,35,9,9,0.8,0.6
2025-10-31T1900,1756A,123.9161,41.8822,抚顺市,顺城区,细颗粒物(PM2.5),63,64,46,45,26,10,,63,58,71,38,9,8,0.9,0.7
2025-10-31T1900,1757A,124.0436,41.8611,抚顺市,东洲区,细颗粒物(PM2.5),62,53,30,44,21,37,,72,70,43,24,7,8,0.7,0.6
2025-10-31T1900,1758A,123.9247,41.8642,抚顺市,新抚区,,35,31,41,20,22,7,,58,56,70,35,7,8,0.9,0.7
2025-10-31T1900,1759A,124.0972,41.8961,抚顺市,大伙房水库,颗粒物(PM10),70,90,31,50,20,18,,70,64,71,30,12,12,1.1,0.9
2025-10-31T1900,1760A,123.7086,41.8391,抚顺市,沈抚新城,细颗粒物(PM2.5),65,53,36,47,20,25,,72,65,60,35,10,8,0.8,0.5
2025-10-31T1900,2376A,116.2127,28.0814,抚州市,桐源党溪,,,,,,,,,,,,,,,,
2025-10-31T1900,2377A,116.3544,27.9831,抚州市,市站,,,,51,26,37,63,,74,73,14,10,,7,,1.2
2025-10-31T1900,2378A,116.3565,27.963,抚州市,血防站,,42,42,52,26,37,73,,77,77,14,11,3,4,0.7,0.9
2025-10-31T1900,2379A,116.3564,28.0007,抚州市,采茶剧团,,44,44,53,24,40,66,,76,75,9,8,3,6,0.9,1
2025-10-31T1900,2380A,116.385,27.9647,抚州市,医学分院,,48,48,52,24,34,73,,77,77,16,13,4,6,1.2,1.3
2025-10-31T1900,2207A,121.6094,41.998,阜新市,工业园区,细颗粒物(PM2.5),123,125,84,93,33,11,,68,63,81,36,21,12,1.1,0.8
2025-10-31T1900,2208A,121.6697,42.0279,阜新市,长青街,细颗粒物(PM2.5),57,57,53,40,29,22,,64,62,53,39,13,15,0.6,0.8
2025-10-31T1900,2209A,121.6673,42.0705,阜新市,农业园区,细颗粒物(PM2.5),64,64,45,46,21,58,,76,76,31,15,18,21,0.7,0.6
2025-10-31T1900,2210A,121.6717,42.0224,阜新市,东苑,颗粒物(PM10),75,100,77,44,25,27,,64,62,72,44,33,22,0.9,1
2025-10-31T1900,2211A,121.6506,42.0498,阜新市,玉龙新城,细颗粒物(PM2.5),129,148,76,98,30,11,,72,67,73,36,14,12,1.2,0.9
2025-10-31T1900,2301A,115.8277,32.8929,阜阳市,市监测站,细颗粒物(PM2.5),196,204,149,147,114,75,,92,92,40,43,5,5,0.8,0.8
2025-10-31T1900,2303A,115.8554,32.8605,阜阳市,开发区,细颗粒物(PM2.5),212,216,169,162,119,81,,101,101,36,40,8,8,0.6,0.6
2025-10-31T1900,2875A,115.784,32.8892,阜阳市,阜阳职业技术学院,细颗粒物(PM2.5),225,222,213,175,170,,,,,58,36,6,6,,
2025-10-31T1900,3468A,115.7901,32.8613,阜阳市,市规划展馆,细颗粒物(PM2.5),196,212,157,147,107,81,,104,104,34,35,6,6,0.9,0.8
2025-10-31T1900,3469A,115.836,32.9183,阜阳市,枣园社区,细颗粒物(PM2.5),192,203,141,144,108,83,,95,95,41,47,8,8,0.8,0.8
2025-10-31T1900,2669A,102.9099,34.9841,甘南藏族自治州,州政府,颗粒物(PM10),56,62,51,31,34,76,,87,87,18,10,6,6,0.4,0.4
2025-10-31T1900,3380A,102.8914,34.9617,甘南藏族自治州,甘肃民族师范学院,"颗粒物(PM10),细颗粒物(PM2.5)",52,54,56,36,35,50,,72,71,25,19,4,6,0.5,0.5
2025-10-31T1900,2570A,101.9603,30.0475,甘孜藏族自治州,水桥子,,18,15,12,3,4,56,,55,55,12,15,8,8,0.5,0.3
2025-10-31T1900,3065A,101.9533,29.9972,甘孜藏族自治州,州环保局,,16,8,9,8,5,51,,50,50,15,15,5,5,0.5,0.5
2025-10-31T1900,3414A,115.8347,28.932,赣江新区,桑海产业园,,41,41,41,20,32,66,,72,72,17,14,8,8,0.5,0.7
2025-10-31T1900,2362A,114.9017,25.9149,赣州市,通天岩,,32,31,44,22,28,69,,73,73,8,8,15,15,1.0,1
2025-10-31T1900,2363A,114.9367,25.8664,赣州市,地委,,41,41,47,21,33,66,,64,60,12,12,5,5,0.8,0.8
2025-10-31T1900,2364A,114.9461,25.8481,赣州市,气象台,,48,48,48,19,29,70,,72,65,15,12,6,5,0.8,0.8
2025-10-31T1900,2365A,114.9322,25.8333,赣州市,市图书馆,,37,37,37,24,32,70,,68,65,12,9,4,4,0.7,0.7
2025-10-31T1900,2366A,114.8905,25.8471,赣州市,华坚鞋城,,42,42,43,22,31,64,,60,56,15,13,4,4,0.6,0.7
2025-10-31T1900,3109A,115.0093,25.8613,赣州市,赣县区卫计委,,,,36,20,38,71,,67,67,11,5,7,7,0.7,0.7
2025-10-31T1900,2683A,106.2319,36.1417,固原市,马园,,,,,,,,,,,,,,,,
2025-10-31T1900,2684A,106.2792,36.0022,固原市,监测站,颗粒物(PM10),62,74,71,40,34,55,,96,93,45,25,6,7,0.8,0.8
2025-10-31T1900,2685A,106.2375,36.0211,固原市,新区,颗粒物(PM10),52,53,60,22,19,28,,95,87,65,35,4,4,1.0,0.5
2025-10-31T1900,3522A,106.2177,35.9959,固原市,原州区十五小,颗粒物(PM10),67,84,67,32,28,35,,92,85,59,29,6,6,0.7,0.6
2025-10-31T1900,2543A,106.6308,30.5278,广安市,小平旧居,,,,,,,,,,,,,,,,
2025-10-31T1900,2544A,106.6303,30.4576,广安市,市委,细颗粒物(PM2.5),55,52,35,39,27,12,,27,24,32,16,3,3,0.7,0.6
2025-10-31T1900,2545A,106.6271,30.4663,广安市,友谊中学,细颗粒物(PM2.5),55,45,32,39,24,16,,30,30,32,15,5,5,0.7,0.5
2025-10-31T1900,2547A,106.6388,30.4551,广安市,广电花园,,41,41,27,28,22,11,,26,23,29,15,1,6,0.7,0.5
2025-10-31T1900,2902A,106.6351,30.4865,广安市,北辰小学,颗粒物(PM10),56,62,35,30,22,8,,30,28,33,13,10,10,0.9,0.7
2025-10-31T1900,2523A,105.8945,32.4535,广元市,黑石坡,,,,,,,,,,,,,,,,
2025-10-31T1900,2524A,105.821,32.4444,广元市,老城,颗粒物(PM10),55,60,30,33,21,5,,10,10,37,28,9,11,1.1,0.9
2025-10-31T1900,2526A,105.8628,32.4287,广元市,监测站,细颗粒物(PM2.5),53,41,17,37,17,4,,10,10,35,22,7,6,1.2,0.9
2025-10-31T1900,3617A,105.8047,32.4166,广元市,经开区,,,50,38,26,19,2,,10,10,,26,7,8,1.0,0.8
2025-10-31T1900,1345A,113.2347,23.1423,广州市,广雅中学,,,33,40,20,25,42,,63,63,,34,6,6,,0.8
2025-10-31T1900,1346A,113.2612,23.105,广州市,市五中,,27,27,38,18,25,62,,83,83,22,40,6,7,0.8,0.8
2025-10-31T1900,1348A,113.3478,23.0916,广州市,广东商学院,,34,34,39,18,28,44,,72,72,27,23,5,5,0.4,0.4
2025-10-31T1900,1349A,113.4332,23.1047,广州市,市八十六中,,23,21,31,16,22,57,,66,66,18,22,6,6,0.3,0.2
2025-10-31T1900,1350A,113.3505,22.9483,广州市,番禺中学,,29,29,41,16,27,62,,77,77,16,22,6,6,1.0,1
2025-10-31T1900,1351A,113.2146,23.3916,广州市,花都师范,,32,29,38,22,27,54,,56,56,15,24,5,5,0.9,0.8
2025-10-31T1900,1352A,113.2597,23.1331,广州市,市监测站,,29,29,43,18,24,55,,73,73,19,34,6,7,0.6,0.6
2025-10-31T1900,1353A,113.5618,23.312,广州市,九龙镇镇龙,,25,24,38,17,30,53,,51,51,12,17,6,7,0.7,0.6
2025-10-31T1900,1354A,113.2765,23.1544,广州市,麓湖,,29,29,35,17,25,55,,69,69,15,29,7,8,0.5,0.4
2025-10-31T1900,1355A,113.443,23.3035,广州市,帽峰山森林公园,,,,,,,,,,,,,,,,
2025-10-31T1900,2846A,113.3221,23.1322,广州市,体育西,,32,32,38,22,28,55,,74,74,18,24,7,7,1.0,0.9
2025-10-31T1900,3298A,113.5717,23.5491,广州市,从化街口,,22,18,35,15,29,58,,63,63,10,19,9,11,0.8,0.7
2025-10-31T1900,3299A,113.3472,23.3692,广州市,白云竹料,,23,20,30,16,25,59,,70,70,11,18,7,6,0.8,0.7
2025-10-31T1900,3300A,113.2981,23.237,广州市,白云嘉禾,,31,31,37,19,27,53,,72,71,19,27,6,6,0.7,0.6
2025-10-31T1900,3301A,113.4256,23.1716,广州市,黄埔科学城,,23,23,34,16,26,66,,76,76,10,12,6,7,0.7,0.6
2025-10-31T1900,3302A,113.3942,23.0483,广州市,番禺大学城,,43,43,39,18,32,56,,70,70,17,19,7,7,0.7,0.6
2025-10-31T1900,3303A,113.4922,22.8168,广州市,南沙黄阁,颗粒物(PM10),65,80,45,17,27,43,,61,59,33,33,6,8,0.6,0.5
2025-10-31T1900,3304A,113.5342,22.7896,广州市,南沙街,,41,41,40,17,27,47,,66,65,22,29,6,8,0.7,0.7
2025-10-31T1900,3443A,113.2902,23.5544,广州市,花都梯面,,,19,30,16,24,59,,59,59,,12,,3,0.7,0.6
2025-10-31T1900,3445A,113.7858,23.7478,广州市,从化良口,,29,21,22,20,18,64,,68,68,11,12,7,6,0.8,0.9
2025-10-31T1900,3446A,113.8051,23.2614,广州市,增城荔城,,25,22,19,17,15,56,,63,63,10,8,6,7,0.6,0.5
2025-10-31T1900,2505A,109.568,23.1478,贵港市,德智高中,,,,,,,,,,,,,,,,
2025-10-31T1900,2506A,109.6047,23.0666,贵港市,江南子站,细颗粒物(PM2.5),54,,31,38,34,48,,54,54,15,10,4,4,1.0,0.9
2025-10-31T1900,2508A,109.5669,23.1065,贵港市,荷城子站,,32,31,31,22,25,52,,46,46,14,11,3,2,0.9,0.8
2025-10-31T1900,3405A,109.5886,23.1172,贵港市,新世纪学校,,45,34,34,31,30,56,,52,52,12,8,2,2,0.8,0.7
2025-10-31T1900,4260A,109.5933,23.0951,贵港市,中山路155-3号,,43,43,39,28,31,60,,56,56,13,9,2,3,1.1,1
2025-10-31T1900,1439A,106.6899,26.5998,贵阳市,马鞍山,,12,7,16,3,6,38,,38,38,10,12,2,3,0.3,0.5
2025-10-31T1900,1441A,106.6243,26.6266,贵阳市,鉴湖路,,19,19,28,3,8,45,,39,39,11,13,4,4,0.4,0.5
2025-10-31T1900,1442A,106.7487,26.6343,贵阳市,燕子冲,,16,,18,9,18,49,,39,39,9,13,4,4,0.5,0.6
2025-10-31T1900,1443A,106.6555,26.4365,贵阳市,碧云窝,,29,29,36,7,15,38,,41,41,19,19,5,6,0.3,0.3
2025-10-31T1900,1445A,106.7109,26.6027,贵阳市,红边门,,14,12,21,3,11,44,,36,36,15,18,4,4,0.6,0.7
2025-10-31T1900,1446A,106.7164,26.5699,贵阳市,新华路,,16,14,22,9,20,50,,45,45,13,14,7,6,0.4,0.6
2025-10-31T1900,1447A,106.674,26.5424,贵阳市,太慈桥,,12,9,19,3,10,37,,37,37,20,18,1,2,0.6,0.7
2025-10-31T1900,1552A,106.805,26.3003,贵阳市,桐木岭,,19,19,30,12,19,55,,53,53,2,3,25,27,0.7,0.7
2025-10-31T1900,4230A,106.6882,26.5695,贵阳市,花果园大街66号,,15,,16,6,17,47,,42,42,15,14,3,2,0.4,0.5
2025-10-31T1900,4231A,106.6873,26.5169,贵阳市,漓江路57号,,,,17,,14,43,,40,40,13,13,7,9,0.4,0.5
2025-10-31T1900,1862A,110.4144,25.3167,桂林市,电子科大尧山校区,,,,,,,,,,,,,,,,
2025-10-31T1900,1864A,110.3089,25.2708,桂林市,龙隐路小学,,49,46,52,34,45,74,,68,68,10,10,6,6,0.6,0.7
2025-10-31T1900,1865A,110.2869,25.2178,桂林市,八中,,49,45,53,34,46,76,,68,68,11,13,9,8,0.5,0.7
2025-10-31T1900,3531A,110.296,25.1253,桂林市,旅游学院,,49,36,45,34,42,83,,77,77,7,10,4,5,0.3,0.8
2025-10-31T1900,4222A,110.1835,25.2444,桂林市,环湖路276号,细颗粒物(PM2.5),52,41,44,36,39,72,,64,64,11,11,6,6,0.4,0.5
2025-10-31T1900,4301A,110.2803,25.2773,桂林市,信义路13号,细颗粒物(PM2.5),58,,54,41,42,73,,68,68,11,12,6,8,0.6,0.8
2025-10-31T1900,2674A,100.2561,34.4714,果洛藏族自治州,玛沁县大武镇,颗粒物(PM10),51,52,36,11,14,90,,100,100,10,5,11,15,0.4,0.3
2025-10-31T1900,1129A,126.5422,45.755,哈尔滨市,岭北,,,,,,,,,,,,,,,,
2025-10-31T1900,1130A,126.561,45.8167,哈尔滨市,松北商大,细颗粒物(PM2.5),137,,65,104,67,22,,65,61,71,27,9,8,0.8,0.6
2025-10-31T1900,1131A,126.979,45.5419,哈尔滨市,阿城会宁,细颗粒物(PM2.5),127,118,81,96,59,7,,68,56,68,31,4,9,0.9,0.6
2025-10-31T1900,1132A,126.599,45.7222,哈尔滨市,南岗学府路,细颗粒物(PM2.5),98,124,85,73,55,8,,74,65,93,37,16,12,0.9,0.6
2025-10-31T1900,1133A,126.689,45.7733,哈尔滨市,太平宏伟公园,细颗粒物(PM2.5),87,86,78,64,55,38,,70,67,53,38,12,14,0.6,0.6
2025-10-31T1900,1134A,126.635,45.7667,哈尔滨市,道外承德广场,细颗粒物(PM2.5),87,110,95,64,58,23,,71,67,78,46,17,13,0.8,0.7
2025-10-31T1900,1135A,126.685,45.7319,哈尔滨市,香坊红旗大街,细颗粒物(PM2.5),97,102,90,72,55,30,,65,62,64,44,9,10,0.9,0.7
2025-10-31T1900,1136A,126.6411,45.7258,哈尔滨市,动力和平路,细颗粒物(PM2.5),88,91,78,65,55,38,,67,64,56,37,7,6,0.6,0.5
2025-10-31T1900,1137A,126.593,45.7478,哈尔滨市,道里建国路,细颗粒物(PM2.5),109,127,87,82,66,4,,67,61,99,44,12,9,2.0,0.7
2025-10-31T1900,1138A,126.615,45.61,哈尔滨市,平房东轻厂,细颗粒物(PM2.5),93,100,67,69,50,26,,65,63,69,40,12,13,0.8,0.6
2025-10-31T1900,1139A,126.595,45.9855,哈尔滨市,呼兰师专,细颗粒物(PM2.5),143,141,110,109,101,23,,82,79,77,32,13,13,0.8,0.7
2025-10-31T1900,1140A,126.6206,45.6842,哈尔滨市,省农科院,细颗粒物(PM2.5),148,175,98,113,59,11,,54,48,90,50,14,12,1.1,0.6
2025-10-31T1900,2688A,93.5128,42.8172,哈密市,地区监测站,颗粒物(PM10),76,101,91,22,30,67,,76,76,25,40,10,9,0.2,0.4
2025-10-31T1900,2689A,93.4961,42.8328,哈密市,哈密师范学校,颗粒物(PM10),55,60,69,19,24,62,,74,74,27,37,10,6,0.5,0.6
2025-10-31T1900,2671A,100.9048,36.9639,海北藏族自治州,海晏县西海镇,,26,17,39,12,23,83,,101,100,6,8,10,14,0.3,0.4
2025-10-31T1900,3867A,102.0738,36.5056,海东市,平安区公安北苑,颗粒物(PM10),65,79,61,26,31,65,,94,94,34,14,22,12,1.0,0.8
2025-10-31T1900,1409A,110.576,19.9507,海口市,东寨港,,,,,,,,,,,,,,,,
2025-10-31T1900,1410A,110.3232,20.0574,海口市,海南大学,,37,32,47,23,26,117,,128,126,9,8,5,6,0.4,0.4
2025-10-31T1900,1411A,110.283,20.0053,海口市,秀英海南医院,,37,37,43,20,26,109,,117,117,11,9,6,7,0.4,0.3
2025-10-31T1900,1412A,110.338,19.9969,海口市,海南师范大学,,35,33,42,23,25,112,,124,124,10,9,6,5,0.5,0.5
2025-10-31T1900,1413A,110.33,20.0356,海口市,龙华路环保局宿舍,,36,36,42,25,25,113,,124,124,11,10,7,7,0.4,0.4
2025-10-31T1900,3539A,110.5111,19.9736,海口市,桂林洋子站,,39,39,47,26,23,110,,122,122,8,7,6,6,0.3,0.3
2025-10-31T1900,2673A,100.6188,36.2866,海南藏族自治州,共和县恰卜恰镇,,33,32,40,18,22,103,,113,113,10,20,13,12,0.5,0.5
2025-10-31T1900,2676A,97.3731,37.3753,海西蒙古族藏族自治州,德令哈市,,35,35,20,12,10,94,,96,96,9,4,14,15,0.5,0.5
2025-10-31T1900,1048A,114.5302,36.6116,邯郸市,东污水处理厂,细颗粒物(PM2.5),258,,167,208,194,31,,52,52,54,31,3,3,1.3,1.1
2025-10-31T1900,1049A,114.4918,36.5713,邯郸市,矿院,细颗粒物(PM2.5),252,208,176,202,183,41,,58,58,48,33,5,5,1.2,1.1
2025-10-31T1900,1050A,114.484,36.6133,邯郸市,丛台公园,细颗粒物(PM2.5),243,220,196,193,174,53,,64,64,41,30,7,6,1.2,1
2025-10-31T1900,3458A,114.7895,36.5593,邯郸市,香泉濮院小区,细颗粒物(PM2.5),217,215,173,167,137,36,,60,59,51,36,6,6,1.3,1.1
2025-10-31T1900,3579A,114.50634,36.77178,邯郸市,永年区实验高中,细颗粒物(PM2.5),199,205,162,149,118,48,,62,62,51,36,4,4,1.3,1.1
2025-10-31T1900,3580A,114.20016,36.44293,邯郸市,峰峰矿区临水派出所,细颗粒物(PM2.5),245,,145,195,181,66,,66,66,38,35,7,8,1.5,1.5
2025-10-31T1900,2634A,106.9893,33.1842,汉中市,汉川机床厂子校,,,,,,,,,,,,,,,,
2025-10-31T1900,2635A,107.0154,33.0706,汉中市,市监测站,细颗粒物(PM2.5),57,57,60,40,38,23,,26,26,29,25,7,6,1.0,0.9
2025-10-31T1900,2636A,107.0089,33.1138,汉中市,鑫源开发区,,46,46,48,28,30,13,,25,25,32,26,6,6,0.8,0.6
2025-10-31T1900,2637A,107.007,33.0323,汉中市,南郑大河坎水厂,颗粒物(PM10),58,65,49,35,30,11,,21,21,34,20,6,6,0.9,0.7
2025-10-31T1900,1223A,120.2072,30.2111,杭州市,滨江,,,24,20,12,12,54,,57,57,,24,,9,0.6,0.5
2025-10-31T1900,1224A,120.0633,30.2747,杭州市,西溪,,15,15,21,10,11,19,,48,46,18,19,7,7,0.6,0.5
2025-10-31T1900,1226A,120.3417,30.3150,杭州市,下沙,,18,18,18,7,14,33,,52,51,36,30,4,4,0.3,0.2
2025-10-31T1900,1227A,120.1269,30.2456,杭州市,卧龙桥,,13,13,16,9,12,3,,41,34,26,17,9,8,0.5,0.4
2025-10-31T1900,1228A,120.1903,30.2692,杭州市,浙江农大,,21,20,14,14,13,30,,48,48,41,31,6,6,0.7,0.6
2025-10-31T1900,1230A,120.1197,30.3119,杭州市,和睦小学,,19,18,17,11,14,59,,61,61,20,22,7,7,0.7,0.6
2025-10-31T1900,1231A,120.3019,30.4183,杭州市,临平镇,,36,36,24,23,20,40,,60,59,31,20,6,6,0.5,0.3
2025-10-31T1900,1232A,120.2753,30.1839,杭州市,城厢镇,,29,22,23,20,17,42,,58,56,37,28,6,6,0.6,0.4
2025-10-31T1900,1233A,120.0883,30.1808,杭州市,云栖,,13,13,16,7,11,16,,46,44,17,14,6,6,0.6,0.5
2025-10-31T1900,3557A,119.9464,30.0494,杭州市,镇二中,,20,20,19,9,16,35,,45,45,28,18,4,4,0.7,0.5
2025-10-31T1900,3558A,119.7183,30.2367,杭州市,市府大楼,,31,31,25,15,16,10,,49,44,40,17,9,8,0.6,0.4
2025-10-31T1900,3656A,120.1556,30.2864,杭州市,消防大队,,25,21,24,17,17,44,,58,58,35,26,7,8,0.6,0.4
2025-10-31T1900,1270A,117.1959,31.7848,合肥市,明珠广场,,,95,69,53,52,11,,65,55,,33,6,5,0.8,0.6
2025-10-31T1900,1271A,117.3072,31.8764,合肥市,三里街,,,90,68,46,38,30,,76,73,55,25,,5,,0.7
2025-10-31T1900,1272A,117.2588,31.8707,合肥市,琥珀山庄,颗粒物(PM10),65,80,55,40,42,48,,88,85,40,21,4,5,0.7,0.6
2025-10-31T1900,1273A,117.1604,31.9052,合肥市,董铺水库,,,,,,,,,,,,,,,,
2025-10-31T1900,1274A,117.25,31.8571,合肥市,长江中路,细颗粒物(PM2.5),75,88,68,55,50,50,,86,83,39,21,5,5,0.7,0.6
2025-10-31T1900,1275A,117.266,31.9436,合肥市,庐阳区,颗粒物(PM10),59,68,66,34,43,70,,91,90,21,21,6,6,0.7,0.7
2025-10-31T1900,1276A,117.3453,31.8616,合肥市,瑶海区,细颗粒物(PM2.5),77,83,67,56,49,59,,87,87,36,25,8,8,0.7,0.6
2025-10-31T1900,1277A,117.3027,31.7964,合肥市,包河区,颗粒物(PM10),67,83,65,44,47,39,,85,81,53,32,7,7,0.7,0.7
2025-10-31T1900,1278A,117.2776,31.7385,合肥市,滨湖新区,细颗粒物(PM2.5),85,90,64,63,55,17,,86,79,80,33,5,5,0.8,0.7
2025-10-31T1900,1279A,117.1318,31.8403,合肥市,高新区,细颗粒物(PM2.5),73,70,68,53,55,66,,88,86,30,21,4,4,0.7,0.7
2025-10-31T1900,3464A,117.3803,31.9147,合肥市,高教基地,颗粒物(PM10),67,83,65,32,31,38,,76,73,37,22,7,7,0.5,0.5
2025-10-31T1900,3614A,79.924,37.0877,和田地区,地区环保局,颗粒物(PM10),98,146,197,45,73,94,,93,93,7,23,4,11,0.2,0.6
2025-10-31T1900,3615A,79.9131,37.113,和田地区,市环保局,,,116,213,42,58,,,92,92,11,39,3,13,0.1,0.6
2025-10-31T1900,2516A,108.2011,24.715,河池市,东仁乐园,,,,,,,,,,,,,,,,
2025-10-31T1900,2517A,108.0497,24.6947,河池市,市环保站,,24,24,28,14,17,54,,66,66,8,14,8,7,0.6,0.7
2025-10-31T1900,2518A,108.0983,24.6989,河池市,市疾控中心,,17,17,27,10,19,53,,65,65,6,17,4,4,0.6,0.8
2025-10-31T1900,1696A,114.6778,23.7569,河源市,源西,,,,,,,,,,,,,,,,
2025-10-31T1900,1697A,114.6944,23.7586,河源市,东埔,,42,30,25,29,24,68,,78,78,11,13,4,5,0.7,0.6
2025-10-31T1900,1698A,114.6892,23.7233,河源市,老城,,35,35,30,13,19,70,,80,79,7,11,5,5,0.8,0.7
2025-10-31T1900,1718A,115.4208,35.2464,菏泽市,气象局,细颗粒物(PM2.5),206,206,223,156,175,60,,64,64,33,38,1,4,1.0,0.8
2025-10-31T1900,3374A,115.5564,35.0891,菏泽市,定陶老年大学,细颗粒物(PM2.5),178,185,205,134,158,35,,63,62,44,40,6,8,0.9,0.9
2025-10-31T1900,4184A,115.4797,35.24401,菏泽市,永昌路1号,细颗粒物(PM2.5),180,,204,136,155,39,,60,60,48,35,2,5,1.0,0.8
2025-10-31T1900,4193A,115.4715,35.2800,菏泽市,长城路999号,细颗粒物(PM2.5),203,193,206,153,163,54,,58,58,40,41,9,13,1.1,1
2025-10-31T1900,2514A,111.5264,24.4172,贺州市,环保小区,,32,32,42,21,33,66,,65,65,13,13,5,6,0.7,0.7
2025-10-31T1900,2515A,111.5608,24.4078,贺州市,政协大楼,,,39,40,29,32,55,,54,54,12,11,4,4,,0.9
2025-10-31T1900,3534A,111.4744,24.4553,贺州市,西湾,,30,28,36,21,30,59,,60,60,11,9,5,4,0.8,0.8
2025-10-31T1900,2385A,114.17,35.9019,鹤壁市,市监测站,细颗粒物(PM2.5),228,215,180,178,144,37,,64,64,54,29,1,5,1.4,1.5
2025-10-31T1900,2386A,114.2956,35.7511,鹤壁市,市交警支队,细颗粒物(PM2.5),222,241,192,172,151,22,,61,56,69,31,5,3,,1.2
2025-10-31T1900,2387A,114.2878,35.7306,鹤壁市,迎宾馆,细颗粒物(PM2.5),225,248,216,175,160,32,,65,64,60,32,3,4,1.2,1.4
2025-10-31T1900,3474A,114.2617,35.6822,鹤壁市,大新区,细颗粒物(PM2.5),211,194,170,161,159,10,,59,55,68,26,4,5,1.3,1.4
2025-10-31T1900,3596A,114.1572,35.9603,鹤壁市,南山宾馆,细颗粒物(PM2.5),229,225,194,179,160,45,,71,71,48,29,3,4,1.0,1.3
2025-10-31T1900,2244A,130.2537,47.3416,鹤岗市,哈啤分公司,细颗粒物(PM2.5),55,46,42,39,35,51,,76,73,24,19,14,13,0.7,0.6
2025-10-31T1900,2245A,130.2684,47.3086,鹤岗市,斯达机电,细颗粒物(PM2.5),130,138,42,99,28,39,,74,70,44,18,16,13,1.2,0.7
2025-10-31T1900,2246A,130.3114,47.3388,鹤岗市,东山纸板厂,,,,54,44,30,10,,69,58,51,26,15,14,1.2,0.7
2025-10-31T1900,2247A,130.1097,47.3382,鹤岗市,五号水库,,,,,,,,,,,,,,,,
2025-10-31T1900,2263A,127.4833,50.2524,黑河市,交通局,,30,30,19,19,13,24,,40,39,35,19,4,5,0.5,0.3
2025-10-31T1900,2264A,127.5144,50.2341,黑河市,环保局,,22,16,16,15,13,40,,42,42,15,13,8,8,0.3,0.3
2025-10-31T1900,2265A,127.5291,50.2472,黑河市,大黑河岛,,,,,,,,,,,,,,,,
2025-10-31T1900,1074A,115.6838,37.7541,衡水市,电机北厂,细颗粒物(PM2.5),176,138,136,133,115,39,,59,58,40,33,6,8,0.8,0.7
2025-10-31T1900,1075A,115.6303,37.7316,衡水市,市监测站,细颗粒物(PM2.5),140,118,126,107,115,18,,56,52,51,38,6,6,1.0,0.8
2025-10-31T1900,3188A,115.6683,37.7217,衡水市,市城管局,细颗粒物(PM2.5),148,127,126,113,110,38,,63,61,46,39,9,8,0.9,0.9
2025-10-31T1900,3459A,115.5989,37.5491,衡水市,地表水厂,细颗粒物(PM2.5),160,155,153,122,126,13,,59,50,67,42,6,6,0.7,0.8
2025-10-31T1900,2456A,112.5003,26.9167,衡阳市,原169医院,,,,,,,,,,,,,,,,
2025-10-31T1900,2457A,112.6194,26.9258,衡阳市,衡阳化工总厂,,46,46,54,31,50,59,,75,72,23,14,7,7,0.7,0.9
2025-10-31T1900,2458A,112.6211,26.8956,衡阳市,珠晖区环保局,,50,50,48,34,41,57,,73,68,22,18,8,8,1.1,1.3
2025-10-31T1900,2459A,112.6197,26.8733,衡阳市,市委党校,,48,42,48,33,39,56,,78,73,15,10,1,2,0.8,0.9
2025-10-31T1900,2460A,112.6006,26.8919,衡阳市,市监测站,,47,47,51,30,37,68,,78,76,17,13,4,5,0.9,1.1
2025-10-31T1900,2461A,112.5664,26.9056,衡阳市,真空机电公司,,48,48,43,23,39,74,,79,79,10,10,6,6,0.9,1
2025-10-31T1900,3399A,112.6703,26.882,衡阳市,师范学院,细颗粒物(PM2.5),68,68,52,49,41,51,,79,73,20,14,7,8,1.0,1
2025-10-31T1900,2608A,103.3772,23.3993,红河哈尼族彝族自治州,污水处理厂,,30,28,36,21,22,40,,53,51,9,12,5,10,0.4,0.4
2025-10-31T1900,2609A,103.3861,23.35,红河哈尼族彝族自治州,监测站,,33,31,31,23,21,42,,50,46,7,7,8,11,0.4,0.4
2025-10-31T1900,3038A,103.3758,23.368,红河哈尼族彝族自治州,州图书馆,,39,,29,27,28,46,,55,52,7,8,3,8,0.4,0.4
2025-10-31T1900,1090A,111.6507,40.7517,呼和浩特市,呼市一监,,39,39,27,12,9,60,,83,81,20,24,5,4,0.4,0.4
2025-10-31T1900,1091A,111.6572,40.8033,呼和浩特市,小召,,36,36,28,14,9,67,,82,80,25,31,7,6,0.5,0.4
2025-10-31T1900,1094A,111.7516,40.8369,呼和浩特市,如意水处理厂,,,,17,,5,,,61,,,28,,8,,0.2
2025-10-31T1900,1095A,111.7276,40.8062,呼和浩特市,二十九中,,34,34,22,8,5,65,,82,81,24,25,9,8,0.5,0.4
2025-10-31T1900,1096A,111.5512,40.7866,呼和浩特市,工大金川校区,,50,50,26,13,6,38,,82,74,47,28,8,6,0.3,0.2
2025-10-31T1900,1097A,111.717,40.7612,呼和浩特市,化肥厂生活区,,35,35,24,11,8,61,,85,83,29,30,4,4,0.3,0.3
2025-10-31T1900,3698A,111.5968,40.8178,呼和浩特市,红旗小学,颗粒物(PM10),56,61,17,11,4,37,,85,77,49,21,4,3,0.4,0.2
2025-10-31T1900,3699A,111.6518,40.8389,呼和浩特市,海东办,颗粒物(PM10),51,51,18,10,5,46,,87,82,45,28,8,5,0.3,0.1
2025-10-31T1900,3061A,119.7512,49.1577,呼伦贝尔市,国华电力东,,22,22,18,11,10,40,,48,48,15,9,7,7,0.3,0.2
2025-10-31T1900,4279A,119.7569,49.2222,呼伦贝尔市,伊敏大街东7号,,33,,22,23,14,39,,47,47,12,6,6,6,0.2,0.1
2025-10-31T1900,1250A,120.0751,30.8669,湖州市,城西水厂,,29,25,20,20,15,51,,72,60,40,24,8,7,0.6,0.3
2025-10-31T1900,2873A,120.0830,30.8929,湖州市,仁皇山新区,,32,29,20,22,16,34,,65,52,42,20,7,6,0.7,0.3
2025-10-31T1900,2907A,120.1844,30.8596,湖州市,吴兴区站,,30,24,21,21,14,35,,56,50,29,21,6,6,0.8,0.5
2025-10-31T1900,3562A,120.4148,30.8538,湖州市,南浔区站,,40,40,27,17,12,56,,89,83,30,24,8,8,0.5,0.4
2025-10-31T1900,1607A,120.9049,40.7211,葫芦岛市,龙港区,,39,38,71,27,37,60,,74,74,29,42,11,30,0.8,1.2
2025-10-31T1900,1608A,120.8392,40.7514,葫芦岛市,化工街,,39,39,73,22,34,45,,66,64,40,43,11,38,0.5,0.6
2025-10-31T1900,1609A,120.8341,40.7073,葫芦岛市,新区,,22,22,51,12,25,49,,70,69,39,45,6,10,0.7,0.8
2025-10-31T1900,1610A,120.8695,40.7677,葫芦岛市,东城区,细颗粒物(PM2.5),54,,71,38,35,29,,63,61,61,43,9,18,1.1,1
2025-10-31T1900,2482A,109.5981,27.5721,怀化市,林科所,,,,,,,,,,,,,,,,
2025-10-31T1900,2483A,109.9453,27.5444,怀化市,河西地税局,,40,30,32,28,24,4,,34,30,26,17,3,3,0.6,0.5
2025-10-31T1900,2484A,109.9781,27.5342,怀化市,市四医院,细颗粒物(PM2.5),54,49,42,38,28,23,,42,40,21,14,9,8,0.5,0.4
2025-10-31T1900,2485A,109.9972,27.5578,怀化市,监测楼,细颗粒物(PM2.5),53,45,37,37,25,20,,44,42,21,12,3,3,0.5,0.3
2025-10-31T1900,2486A,110.0394,27.583,怀化市,市委党校,细颗粒物(PM2.5),54,41,34,38,25,13,,36,34,22,14,9,10,0.4,0.3
2025-10-31T1900,1210A,119.036,33.5981,淮安市,钵池山,细颗粒物(PM2.5),119,124,32,90,24,85,,90,90,28,20,7,7,0.7,0.4
2025-10-31T1900,1211A,119.007,33.575,淮安市,北京南路,细颗粒物(PM2.5),150,117,36,115,29,78,,82,82,26,19,7,7,0.9,0.6
2025-10-31T1900,1212A,118.989,33.6067,淮安市,市监测站,细颗粒物(PM2.5),147,117,31,112,29,75,,87,87,39,23,6,5,1.1,0.9
2025-10-31T1900,1213A,119.135,33.5039,淮安市,楚州区监测站,细颗粒物(PM2.5),135,122,27,103,27,36,,83,78,57,24,8,8,0.6,0.3
2025-10-31T1900,3426A,118.8755,33.2894,淮安市,新华书店,细颗粒物(PM2.5),87,112,32,64,20,93,,84,84,25,17,7,7,0.9,0.5
2025-10-31T1900,4206A,119.0288,33.6319,淮安市,承德北路606号,细颗粒物(PM2.5),133,136,35,101,26,73,,84,84,34,21,7,6,0.6,0.3
2025-10-31T1900,2282A,116.8004,33.975,淮北市,监测站,细颗粒物(PM2.5),156,152,87,119,59,60,,79,79,39,36,9,9,1.0,0.6
2025-10-31T1900,2283A,116.8091,33.9007,淮北市,烈山区政府,细颗粒物(PM2.5),200,164,112,150,94,76,,82,82,32,44,8,9,0.9,0.8
2025-10-31T1900,3330A,116.8873,33.9836,淮北市,杜集区检察院,细颗粒物(PM2.5),212,175,116,162,101,64,,82,82,34,36,4,4,0.9,0.6
2025-10-31T1900,4017A,116.7923,33.9535,淮北市,市博物馆,细颗粒物(PM2.5),129,170,97,98,72,64,,82,82,37,46,7,6,0.8,0.8
2025-10-31T1900,2277A,116.8305,32.7727,淮南市,潘集区政府,细颗粒物(PM2.5),192,224,97,144,63,86,,107,107,27,28,5,5,0.8,0.6
2025-10-31T1900,2279A,116.8569,32.5951,淮南市,谢家集区政府,细颗粒物(PM2.5),129,157,74,98,50,103,,102,102,22,25,7,8,0.6,0.6
2025-10-31T1900,2280A,116.8281,32.633,淮南市,八公山区政府,细颗粒物(PM2.5),153,155,78,117,55,96,,110,110,19,19,5,6,0.6,0.5
2025-10-31T1900,2281A,116.6325,32.6201,淮南市,焦岗湖风景区管理处,,,,,,,,,,,,,,,,
2025-10-31T1900,2894A,117.0566,32.6531,淮南市,经济技术开发区消防队,细颗粒物(PM2.5),155,159,71,118,53,76,,100,100,36,28,12,10,0.5,0.4
2025-10-31T1900,3329A,117.0108,32.5893,淮南市,山南新区,细颗粒物(PM2.5),159,184,84,121,54,82,,96,96,48,32,4,4,0.5,0.4
2025-10-31T1900,4209A,117.0031,32.6445,淮南市,国庆中路369号,细颗粒物(PM2.5),150,198,94,115,55,84,,104,104,34,30,12,11,0.6,0.5
2025-10-31T1900,2446A,114.9028,30.4742,黄冈市,职工中心,,41,41,38,23,27,61,,73,72,27,16,6,5,0.7,0.6
2025-10-31T1900,2929A,114.8858,30.4519,黄冈市,红卫路,,39,35,34,27,25,59,,73,72,30,17,5,4,0.6,0.5
2025-10-31T1900,3398A,114.9136,30.4445,黄冈市,市林业局,,37,37,35,21,24,61,,74,74,27,16,5,3,0.6,0.6
2025-10-31T1900,2672A,102.0199,35.5102,黄南藏族自治州,同仁县隆务镇,颗粒物(PM10),52,54,62,26,27,82,,98,98,5,6,11,12,0.2,0.4
2025-10-31T1900,2295A,118.2903,29.6963,黄山市,延安路89号,,32,32,23,22,9,43,,56,56,11,9,4,3,0.5,0.5
2025-10-31T1900,2297A,118.1371,30.2756,黄山市,黄山区政府5号楼,,50,48,24,35,16,48,,67,67,12,9,5,5,0.6,0.5
2025-10-31T1900,4210A,118.3354,29.7203,黄山市,滨江东路7-2号,,50,50,26,33,17,16,,50,48,25,11,4,3,0.6,0.5
2025-10-31T1900,2423A,115.0601,30.2313,黄石市,沈家营,,26,26,45,16,23,61,,66,66,9,9,8,8,0.4,0.4
2025-10-31T1900,2426A,114.8988,30.2019,黄石市,铁山,,40,40,45,19,28,47,,69,68,32,22,6,5,0.4,0.5
2025-10-31T1900,2427A,115.0307,30.2092,黄石市,团城山,,33,33,40,13,22,63,,73,73,12,11,7,8,0.5,0.6
2025-10-31T1900,3149A,115.0235,30.1578,黄石市,笔架山北路,,49,49,58,15,24,52,,72,71,15,19,6,7,0.5,0.5
2025-10-31T1900,4185A,115.0780,30.21118,黄石市,磁湖东路29号,,,52,50,22,32,51,,68,68,,12,,9,,0.8
2025-10-31T1900,1392A,114.4183,23.0528,惠州市,河南岸金山湖子站,,,34,30,24,21,63,,72,72,21,20,,9,0.7,0.7
2025-10-31T1900,1393A,114.4053,23.0822,惠州市,下埔横江三路子站,,35,35,32,22,21,76,,88,88,9,9,5,6,0.7,0.6
2025-10-31T1900,1394A,114.4103,23.1142,惠州市,江北云山西路子站,,33,33,28,23,20,78,,91,91,13,13,5,6,0.6,0.5
2025-10-31T1900,1395A,114.4645,22.7833,惠州市,惠阳区承修路船湖子站,,33,33,28,23,19,79,,85,85,16,15,9,9,0.9,0.7
2025-10-31T1900,1396A,114.5317,22.7422,惠州市,大亚湾管委会子站,,33,28,24,23,16,76,,78,78,10,10,10,10,0.6,0.5
2025-10-31T1900,3314A,114.4338,22.8134,惠州市,惠阳秋长,,39,39,26,23,18,89,,92,92,11,11,12,12,0.5,0.4
2025-10-31T1900,3452A,114.6517,22.775,惠州市,大亚湾霞涌,,35,,22,24,16,67,,69,69,12,10,8,7,0.7,0.5
2025-10-31T1900,2240A,130.9762,45.3001,鸡西市,环保局,颗粒物(PM10),60,69,50,31,31,12,,59,49,62,29,14,8,1.1,0.9
2025-10-31T1900,2243A,130.9429,45.3039,鸡西市,第一中学,细颗粒物(PM2.5),84,81,32,62,22,16,,62,52,60,14,11,10,1.1,0.6
2025-10-31T1900,3707A,131.0207,45.3073,鸡西市,欧美日汽修厂,细颗粒物(PM2.5),142,200,86,108,46,23,,58,52,47,32,15,16,0.8,0.8
2025-10-31T1900,3709A,130.9967,45.3106,鸡西市,市政设施管理处,细颗粒物(PM2.5),132,,72,100,38,21,,67,54,54,35,21,11,0.8,0.7
2025-10-31T1900,2367A,114.9754,27.0803,吉安市,红声器材厂,,46,46,53,27,37,72,,81,80,19,17,9,9,0.8,0.9
2025-10-31T1900,2368A,114.9658,27.0999,吉安市,市森林工业局,,49,49,54,32,42,69,,78,78,18,18,9,10,0.6,0.7
2025-10-31T1900,2369A,114.99,27.1312,吉安市,市环境监测站,,47,47,50,30,50,60,,74,73,17,16,9,10,0.6,0.8
2025-10-31T1900,2370A,115.0093,27.0968,吉安市,青原区法院,,46,45,52,32,43,63,,75,74,20,17,9,9,0.8,0.9
2025-10-31T1900,1772A,126.54,43.8622,吉林市,哈达湾,颗粒物(PM10),53,56,33,33,21,10,,70,64,82,26,10,8,1.2,0.7
2025-10-31T1900,1773A,126.5844,43.8358,吉林市,东局子,细颗粒物(PM2.5),70,62,33,51,20,10,,59,54,60,26,8,8,1.0,0.6
2025-10-31T1900,1774A,126.5052,43.8245,吉林市,电力学院,细颗粒物(PM2.5),188,228,47,141,39,9,,62,55,72,30,13,9,2.0,0.8
2025-10-31T1900,1775A,126.6133,43.8972,吉林市,江北,细颗粒物(PM2.5),122,107,46,92,32,14,,56,50,70,29,6,5,1.0,0.5
2025-10-31T1900,1776A,126.555,43.8306,吉林市,江南公园,细颗粒物(PM2.5),75,97,34,55,24,5,,56,52,73,29,9,7,1.1,0.7
2025-10-31T1900,1778A,126.7061,43.7133,吉林市,丰满,,38,,14,26,15,73,,95,94,8,5,7,7,0.6,0.6
2025-10-31T1900,2868A,126.4739,43.953,吉林市,九站,颗粒物(PM10),115,180,53,84,30,13,,61,56,80,37,10,8,1.0,0.5
2025-10-31T1900,1299A,116.9862,36.6114,济南市,科干所,细颗粒物(PM2.5),113,132,113,85,66,44,,57,57,35,53,7,8,0.6,0.7
2025-10-31T1900,1300A,116.9376,36.665,济南市,农科所,细颗粒物(PM2.5),102,144,114,76,64,15,,47,45,66,57,7,8,1.0,0.9
2025-10-31T1900,1301A,117.1265,36.6734,济南市,开发区,细颗粒物(PM2.5),125,134,105,95,75,29,,60,60,53,53,3,4,1.0,0.8
2025-10-31T1900,1303A,117.0624,36.6868,济南市,省种子仓库,细颗粒物(PM2.5),144,158,117,110,81,34,,63,63,57,52,6,7,0.9,0.8
2025-10-31T1900,1304A,116.9489,36.6447,济南市,机床二厂,细颗粒物(PM2.5),160,168,123,122,93,6,,53,46,78,59,8,8,0.7,0.5
2025-10-31T1900,1305A,117.0495,36.663,济南市,市监测站,细颗粒物(PM2.5),140,154,114,107,87,18,,60,58,67,57,3,4,1.1,1
2025-10-31T1900,1306A,116.7675,36.5484,济南市,长清党校,细颗粒物(PM2.5),108,151,133,81,68,42,,53,53,38,51,5,6,0.7,0.7
2025-10-31T1900,1616A,117.6795,36.229,济南市,技术学院,细颗粒物(PM2.5),94,95,87,70,68,79,,87,87,26,38,10,11,0.7,0.7
2025-10-31T1900,1961A,117.532,36.6868,济南市,东山小学,细颗粒物(PM2.5),104,127,119,78,84,11,,57,56,58,49,7,8,0.7,0.7
2025-10-31T1900,3059A,117.7161,36.2049,济南市,泰兴公司,细颗粒物(PM2.5),98,102,89,73,61,60,,81,80,40,40,10,12,0.7,0.7
2025-10-31T1900,3064A,117.6867,36.2171,济南市,莱芜战役纪念馆,细颗粒物(PM2.5),105,100,88,79,72,80,,84,84,30,42,13,15,0.4,0.5
2025-10-31T1900,3494A,117.1673,36.9782,济南市,济阳区政府,细颗粒物(PM2.5),104,122,85,78,57,33,,60,60,54,43,7,7,0.8,0.6
2025-10-31T1900,3495A,117.1171,36.63,济南市,锦屏中学,细颗粒物(PM2.5),108,120,90,81,59,33,,62,61,34,44,4,5,0.9,0.9
2025-10-31T1900,3682A,116.9814,36.6819,济南市,济南四建,细颗粒物(PM2.5),135,144,106,103,76,31,,61,61,48,47,5,6,1.1,0.9
2025-10-31T1900,1653A,116.6251,35.4302,济宁市,火炬城,细颗粒物(PM2.5),175,156,162,132,146,10,,34,32,68,47,4,5,0.9,0.7
2025-10-31T1900,1655A,116.5491,35.4042,济宁市,电化厂,细颗粒物(PM2.5),149,174,183,114,125,7,,29,28,71,56,2,3,0.7,0.7
2025-10-31T1900,3500A,116.5814,35.3707,济宁市,北湖一中,细颗粒物(PM2.5),212,,135,162,132,18,,32,32,49,46,5,5,0.7,0.7
2025-10-31T1900,3501A,116.8249,35.5593,济宁市,服务中心,细颗粒物(PM2.5),137,119,109,104,97,18,,21,21,42,40,6,7,0.9,0.8
2025-10-31T1900,3678A,116.5907,35.4054,济宁市,市第七中学,细颗粒物(PM2.5),160,149,146,122,123,21,,39,38,56,47,,7,0.9,0.7
2025-10-31T1900,2255A,130.2751,46.8028,佳木斯市,佳纺,细颗粒物(PM2.5),87,99,66,64,44,9,,64,52,97,24,8,5,0.7,0.5
2025-10-31T1900,2256A,130.3995,46.8307,佳木斯市,发电厂,细颗粒物(PM2.5),80,86,51,59,39,13,,64,55,59,25,9,8,0.7,0.4
2025-10-31T1900,2257A,130.3258,46.7975,佳木斯市,环保局,细颗粒物(PM2.5),72,61,50,52,41,50,,63,62,22,17,6,5,0.6,0.5
2025-10-31T1900,2258A,130.3648,46.8032,佳木斯市,十一中,细颗粒物(PM2.5),82,72,48,60,40,28,,58,52,48,20,10,9,0.9,0.5
2025-10-31T1900,2259A,130.3794,46.7588,佳木斯市,四丰,,,,,,,,,,,,,,,,
2025-10-31T1900,1252A,120.7436,30.778,嘉兴市,清河小学,,41,41,22,23,13,47,,68,67,32,25,8,8,0.9,0.7
2025-10-31T1900,1253A,120.726,30.7478,嘉兴市,嘉兴学院,,36,28,20,25,14,63,,80,80,26,22,5,5,0.6,0.4
2025-10-31T1900,2872A,120.7846,30.7525,嘉兴市,南湖区残联,,50,50,23,33,14,66,,87,87,28,19,6,6,0.7,0.5
2025-10-31T1900,3407A,120.6916,30.7739,嘉兴市,秀洲住建,,38,37,21,26,14,63,,88,86,25,22,8,8,0.5,0.5
2025-10-31T1900,1945A,98.2908,39.7711,嘉峪关市,气象局,颗粒物(PM10),85,119,105,34,32,93,,106,106,26,32,8,11,0.8,0.9
2025-10-31T1900,2884A,98.2672,39.7978,嘉峪关市,酒钢宾馆,,,,110,,35,,,109,109,20,19,23,19,,0.7
2025-10-31T1900,3248A,98.2643,39.7724,嘉峪关市,雄关区,颗粒物(PM10),74,98,97,35,34,88,,102,102,31,39,12,12,0.5,0.4
2025-10-31T1900,1383A,113.1064,22.6058,江门市,北街,,41,41,46,22,34,71,,104,104,29,30,6,7,0.8,0.6
2025-10-31T1900,1384A,113.0731,22.5835,江门市,西区,,42,42,44,22,29,68,,105,105,33,29,6,7,0.6,0.5
2025-10-31T1900,1385A,113.0219,22.5311,江门市,圭峰西,,38,34,44,26,35,80,,111,111,27,23,6,6,0.6,0.6
2025-10-31T1900,1386A,113.0828,22.5947,江门市,东湖,,43,36,44,30,34,70,,100,100,27,26,6,7,0.6,0.5
2025-10-31T1900,3311A,113.1075,22.5647,江门市,江海富民,颗粒物(PM10),52,53,58,20,28,78,,107,107,31,31,9,10,0.7,0.6
2025-10-31T1900,3449A,113.05,22.4667,江门市,新会银湖,,46,46,48,26,39,82,,108,108,26,25,6,6,0.9,0.8
2025-10-31T1900,1830A,113.1992,35.2590,焦作市,影视城,,,,134,,96,,,49,,,26,,12,,1.1
2025-10-31T1900,3335A,113.3137,35.2641,焦作市,马村街道办,细颗粒物(PM2.5),204,233,181,154,138,50,,63,63,46,33,6,7,1.2,1
2025-10-31T1900,3336A,113.2465,35.2373,焦作市,焦作技师学院,细颗粒物(PM2.5),213,233,192,163,150,51,,74,69,58,41,6,6,1.4,1.5
2025-10-31T1900,3477A,113.1656,35.2539,焦作市,中站许衡医院,细颗粒物(PM2.5),218,214,154,168,111,46,,86,85,55,31,7,8,1.1,1.1
2025-10-31T1900,3981A,113.2449,35.1803,焦作市,原李万街道办,细颗粒物(PM2.5),228,225,165,178,130,61,,81,81,41,28,10,11,1.3,1.3
2025-10-31T1900,4264A,113.2340,35.2190,焦作市,新安路1731号,细颗粒物(PM2.5),235,249,197,185,152,62,,78,74,40,32,7,7,1.4,1.4
2025-10-31T1900,4295A,113.2722,35.2121,焦作市,人民路3066号,细颗粒物(PM2.5),215,224,180,165,132,52,,69,69,55,40,8,8,1.2,1.3
2025-10-31T1900,1708A,116.3701,23.5345,揭阳市,新兴,颗粒物(PM10),68,85,42,39,26,77,,96,96,28,19,8,8,1.1,0.7
2025-10-31T1900,1709A,116.3264,23.5443,揭阳市,西马,,38,38,39,26,25,52,,83,80,12,17,4,5,0.8,0.6
2025-10-31T1900,1710A,116.3611,23.5626,揭阳市,东兴,颗粒物(PM10),58,66,46,31,23,60,,84,82,21,22,6,7,0.8,0.6
2025-10-31T1900,1711A,116.4151,23.5294,揭阳市,渔湖,颗粒物(PM10),69,88,43,29,18,83,,100,100,29,23,5,7,0.8,0.7
2025-10-31T1900,3320A,116.403,23.5699,揭阳市,曲溪,颗粒物(PM10),58,66,40,40,23,82,,98,97,24,23,6,3,0.8,0.7
2025-10-31T1900,1944A,102.1692,38.5167,金昌市,天庆家园,颗粒物(PM10),80,110,104,29,37,75,,92,92,25,28,5,11,0.6,0.8
2025-10-31T1900,4022A,102.1647,38.5371,金昌市,金川区人防中心,颗粒物(PM10),74,97,88,45,46,69,,88,88,30,21,5,10,0.8,0.9
2025-10-31T1900,4239A,102.1930,38.5319,金昌市,长春路96号,颗粒物(PM10),85,120,93,41,35,72,,94,94,30,23,6,13,0.5,0.7
2025-10-31T1900,1262A,119.647,29.077,金华市,十五中,,50,45,42,35,38,15,,36,36,46,36,5,6,0.9,0.7
2025-10-31T1900,1263A,119.686,29.1029,金华市,监测站,,31,31,37,15,22,2,,32,30,56,35,2,3,0.5,0.5
2025-10-31T1900,3659A,119.656,29.1131,金华市,气象局,,34,34,33,22,36,0,,34,28,68,39,4,4,1.1,0.7
2025-10-31T1900,1767A,121.1115,41.0879,锦州市,南山,细颗粒物(PM2.5),54,39,57,38,42,25,,75,68,64,40,13,11,0.7,0.9
2025-10-31T1900,1768A,121.0604,40.8428,锦州市,开发区,颗粒物(PM10),76,101,72,18,39,14,,64,57,77,43,16,40,0.5,0.8
2025-10-31T1900,1769A,121.1836,41.1119,锦州市,百股街道,,45,37,54,31,36,28,,70,67,54,36,11,20,0.7,0.8
2025-10-31T1900,1770A,121.1178,41.1222,锦州市,天安街道,细颗粒物(PM2.5),62,54,56,44,33,33,,76,71,52,41,15,14,1.1,0.9
2025-10-31T1900,1771A,121.1303,41.1386,锦州市,北湖公园,细颗粒物(PM2.5),54,43,56,38,27,41,,71,70,48,35,14,12,0.8,0.7
2025-10-31T1900,2160A,112.85,35.5051,晋城市,自来水公司,颗粒物(PM10),69,88,128,34,85,71,,85,85,32,22,6,5,0.7,0.9
2025-10-31T1900,2161A,112.8318,35.4936,晋城市,白云商贸,,,85,131,27,73,,,90,90,24,19,3,2,0.6,0.6
2025-10-31T1900,2162A,112.8508,35.4887,晋城市,市环保局,颗粒物(PM10),65,80,123,29,74,79,,91,91,20,11,4,4,1.1,1.2
2025-10-31T1900,2163A,112.8676,35.4897,晋城市,技术学院,,,47,120,31,77,69,,82,82,,20,6,4,0.8,1
2025-10-31T1900,2165A,112.8453,35.546,晋城市,白马寺,,42,38,92,29,73,87,,104,104,21,13,7,7,0.7,1.1
2025-10-31T1900,3620A,112.8271,35.4828,晋城市,泽州一中,细颗粒物(PM2.5),153,,148,117,139,92,,96,95,19,18,4,2,1.0,0.9
2025-10-31T1900,2173A,112.7249,37.7067,晋中市,南都小区,,50,50,105,19,62,56,,83,79,39,36,8,7,0.4,0.8
2025-10-31T1900,2174A,112.6991,37.6982,晋中市,榆次区政府,,46,46,104,18,79,66,,78,78,30,37,10,8,0.5,0.9
2025-10-31T1900,2865A,112.7195,37.6828,晋中市,榆次三中,,48,48,110,12,71,69,,81,81,23,30,10,10,0.0,0.6
2025-10-31T1900,4200A,112.7478,37.6954,晋中市,迎宾街26号,,48,48,109,17,73,64,,81,81,30,31,8,7,0.5,0.8
2025-10-31T1900,2439A,112.2014,31.0481,荆门市,竹园小学,细颗粒物(PM2.5),90,82,94,67,67,24,,31,31,42,31,3,2,0.9,0.7
2025-10-31T1900,2440A,112.1969,30.9891,荆门市,掇刀,细颗粒物(PM2.5),93,88,104,69,81,25,,47,44,38,32,9,2,0.6,0.7
2025-10-31T1900,2441A,112.2213,31.0386,荆门市,石化一小,细颗粒物(PM2.5),79,95,104,58,80,16,,28,27,39,35,6,7,0.4,0.4
2025-10-31T1900,3012A,112.1849,31.0362,荆门市,西山林语,细颗粒物(PM2.5),68,65,81,49,57,32,,26,26,23,20,5,4,0.5,0.6
2025-10-31T1900,3547A,112.1632,31.0138,荆门市,龙泉中学南校,颗粒物(PM10),55,59,56,37,40,32,,43,35,31,26,7,5,0.5,0.4
2025-10-31T1900,1844A,112.2494,30.3197,荆州市,市图书馆,细颗粒物(PM2.5),64,68,66,46,51,61,,79,79,28,40,6,6,1.0,1
2025-10-31T1900,1845A,112.2008,30.3544,荆州市,市委党校,颗粒物(PM10),60,70,74,41,50,51,,68,68,32,36,8,8,1.1,1
2025-10-31T1900,3194A,112.2747,30.3122,荆州市,管委会,"颗粒物(PM10),细颗粒物(PM2.5)",63,75,75,45,54,50,,71,70,31,42,6,6,1.1,1.1
2025-10-31T1900,4268A,112.1722,30.3366,荆州市,学苑路85号,,,,59,,66,72,,85,85,,27,5,5,0.5,0.6
2025-10-31T1900,2342A,117.3102,29.3867,景德镇市,王港中学,,,,,,,,,,,,,,,,
2025-10-31T1900,2343A,117.2117,29.2933,景德镇市,老干部活动中心,,35,29,21,24,21,63,,69,69,7,5,3,4,0.5,0.6
2025-10-31T1900,2344A,117.1894,29.2789,景德镇市,兽医站,,31,31,29,11,17,65,,73,73,13,11,6,6,0.5,0.6
2025-10-31T1900,2346A,117.2461,29.2956,景德镇市,陶研所,,23,19,22,16,24,73,,73,73,6,7,6,7,0.7,0.8
2025-10-31T1900,4289A,117.1542,29.2566,景德镇市,青少年活动中心,,39,36,27,27,21,69,,71,71,14,11,4,4,0.4,0.6
2025-10-31T1900,1803A,115.9872,29.6815,九江市,十里,,46,43,57,32,45,60,,73,73,34,25,6,5,0.7,0.9
2025-10-31T1900,1804A,115.9584,29.7046,九江市,茅山头,,38,,51,26,41,58,,62,62,25,23,6,7,0.6,0.8
2025-10-31T1900,1805A,115.9877,29.7295,九江市,西园,,42,39,51,29,37,48,,68,68,55,37,16,13,0.6,0.8
2025-10-31T1900,1808A,115.9114,29.6038,九江市,综合工业园,,46,46,58,27,46,40,,70,68,38,30,3,3,0.7,0.8
2025-10-31T1900,1809A,116.0721,29.7535,九江市,石化总厂,,38,38,56,23,39,55,,70,70,34,27,4,5,0.5,0.7
2025-10-31T1900,1810A,115.9773,29.5698,九江市,庐山气象台,,,,,,,,,,,,,,,,
2025-10-31T1900,3190A,116.0254,29.6994,九江市,外国语学校,,35,26,49,24,42,62,,68,68,36,33,9,7,0.7,0.9
2025-10-31T1900,4253A,116.0102,29.6594,九江市,莲花大道8号,,42,42,59,13,57,41,,63,62,21,17,6,7,0.6,0.7
2025-10-31T1900,4240A,98.4958,39.7339,酒泉市,玉门东路5号,颗粒物(PM10),102,153,122,37,36,85,,93,93,21,25,13,16,0.9,0.6
2025-10-31T1900,4241A,98.5099,39.7506,酒泉市,北大街108号,颗粒物(PM10),87,124,122,30,39,88,,93,93,16,24,10,14,0.6,0.6
2025-10-31T1900,2698A,76.0072,39.4467,喀什地区,巡警大队,颗粒物(PM10),81,112,211,35,65,105,,71,71,9,52,4,6,0.2,1
2025-10-31T1900,2699A,75.9755,39.4694,喀什地区,吾办,,,,200,,77,95,,70,70,14,53,4,5,0.3,1.1
2025-10-31T1900,4027A,75.9483,39.4689,喀什地区,老干局,颗粒物(PM10),86,121,200,27,58,104,,79,79,11,50,2,3,0.3,1.1
2025-10-31T1900,1824A,114.3389,34.7781,开封市,肿瘤医院,细颗粒物(PM2.5),206,216,199,156,145,57,,82,82,50,36,9,8,1.3,1.2
2025-10-31T1900,1826A,114.2885,34.7965,开封市,世纪星幼儿园,细颗粒物(PM2.5),241,,186,191,173,62,,78,78,42,35,8,8,1.3,1.2
2025-10-31T1900,3147A,114.3438,34.8106,开封市,龙亭公园,细颗粒物(PM2.5),224,223,204,174,163,52,,73,73,44,35,8,9,1.4,1.3
2025-10-31T1900,3210A,114.3644,34.7964,开封市,汴京公园,细颗粒物(PM2.5),221,222,221,171,156,48,,71,68,49,36,8,9,1.3,1.1
2025-10-31T1900,3473A,114.2485,34.8306,开封市,技师学院,细颗粒物(PM2.5),229,,203,179,170,71,,78,78,35,36,10,10,1.3,1.2
2025-10-31T1900,3592A,114.4644,34.7556,开封市,祥符区生态环境局,颗粒物(PM10),135,219,208,98,119,41,,79,77,71,42,6,7,1.2,1.1
2025-10-31T1900,1951A,84.895,45.6094,克拉玛依市,长征新村,颗粒物(PM10),51,52,38,12,16,61,,56,56,18,22,3,3,0.3,0.3
2025-10-31T1900,1952A,84.8988,45.5893,克拉玛依市,南林小区,颗粒物(PM10),58,66,52,12,15,55,,53,53,21,23,2,3,0.2,0.6
2025-10-31T1900,1954A,84.905,44.3396,克拉玛依市,独山子区,颗粒物(PM10),58,65,99,25,42,66,,68,68,16,27,6,6,0.4,0.6
2025-10-31T1900,1955A,85.6979,46.098,克拉玛依市,乌尔禾区商贸楼,颗粒物(PM10),55,59,42,18,18,73,,71,71,21,23,6,5,0.3,0.3
2025-10-31T1900,3612A,85.1045,45.6899,克拉玛依市,白碱滩区新站,颗粒物(PM10),62,74,52,23,16,70,,63,63,15,9,6,5,0.3,0.2
2025-10-31T1900,2697A,76.1454,39.7142,克孜勒苏柯尔克孜自治州,市人民政府,颗粒物(PM10),81,111,121,40,47,101,,93,93,5,15,6,7,0.2,0.2
2025-10-31T1900,3665A,76.1658,39.7157,克孜勒苏柯尔克孜自治州,克州文化中心,细颗粒物(PM2.5),89,123,126,66,48,96,,89,89,6,16,8,8,0.2,0.3
2025-10-31T1900,1450A,102.8204,24.8886,昆明市,呈贡新区,,46,39,37,32,42,47,,66,65,19,22,6,5,0.8,0.9
2025-10-31T1900,1451A,102.6251,24.9608,昆明市,西山森林公园,,,,,,,,,,,,,,,,
2025-10-31T1900,1452A,102.7252,25.0902,昆明市,龙泉镇,,31,31,31,12,18,42,,60,60,16,16,4,3,0.5,0.5
2025-10-31T1900,1453A,102.7266,25.0375,昆明市,东风东路,,32,32,41,20,23,44,,63,63,16,18,6,3,0.7,0.5
2025-10-31T1900,1454A,102.6742,25.0669,昆明市,金鼎山,,36,36,35,15,20,44,,60,60,14,15,4,2,0.4,0.4
2025-10-31T1900,1455A,102.6644,25.0401,昆明市,碧鸡广场,,28,28,39,16,22,39,,57,56,20,23,12,9,0.7,0.5
2025-10-31T1900,3179A,102.7494,25.0119,昆明市,官渡区博物馆,,31,31,37,16,20,38,,62,61,26,26,5,3,0.6,0.6
2025-10-31T1900,3375A,102.8017,24.8336,昆明市,青年创业园,,,,37,,27,,,42,,,14,,2,,0.6
2025-10-31T1900,3550A,102.7997,24.9786,昆明市,昆明学院,,50,50,51,29,26,41,,67,63,23,25,11,9,0.5,0.7
2025-10-31T1900,3551A,102.5967,24.6736,昆明市,晋宁区生态环境分局,,26,26,34,17,22,62,,68,68,9,13,2,2,0.5,0.5
2025-10-31T1900,3552A,102.6678,24.9856,昆明市,云天化总部,,30,30,38,19,24,36,,61,59,27,24,11,6,0.7,0.6
2025-10-31T1900,1456A,91.1319,29.6514,拉萨市,八廓街,,26,11,8,7,7,81,,90,90,20,9,5,5,0.3,0.3
2025-10-31T1900,1457A,91.1221,29.6747,拉萨市,市环保局,,25,8,8,7,6,80,,85,85,14,11,7,7,0.2,0.2
2025-10-31T1900,1458A,91.0874,29.6475,拉萨市,区监测站,,25,8,7,6,6,79,,88,88,24,15,4,4,0.2,0.2
2025-10-31T1900,1459A,91.1774,29.6541,拉萨市,西藏大学,,25,7,7,7,6,79,,89,89,22,11,5,4,0.2,0.2
2025-10-31T1900,1460A,90.9798,29.6588,拉萨市,区辐射站,,21,18,10,11,7,67,,69,69,28,17,5,4,0.4,0.3
2025-10-31T1900,1461A,91.0834,29.6292,拉萨市,拉萨火车站,,28,15,10,7,6,88,,89,89,13,10,5,5,0.3,0.3
2025-10-31T1900,2520A,109.2203,23.7256,来宾市,来宾技工学校,,38,36,38,26,27,76,,79,79,10,8,9,9,0.6,0.6
2025-10-31T1900,3535A,109.1781,23.7297,来宾市,兴宾区政府,,45,36,40,31,31,64,,71,71,14,8,9,8,0.6,0.7
2025-10-31T1900,4002A,109.2416,23.7461,来宾市,中南小学,,42,42,38,17,28,70,,75,75,12,10,7,7,0.8,0.8
2025-10-31T1900,1477A,104.1373,35.9454,兰州市,榆中兰大校区,,,,,,,,,,,,,,,,
2025-10-31T1900,1479A,103.831,36.0464,兰州市,铁路设计院,,,,,,,,,,,,,,,,
2025-10-31T1900,3241A,103.7439,36.0842,兰州市,百合公园,颗粒物(PM10),83,116,78,34,35,12,,63,62,94,54,7,6,1.2,0.9
2025-10-31T1900,3242A,103.9611,35.998,兰州市,和平,颗粒物(PM10),74,98,79,36,34,52,,88,88,37,28,8,9,0.8,0.6
2025-10-31T1900,4236A,103.6293,36.0938,兰州市,庄浪东路808号,颗粒物(PM10),68,86,80,42,39,26,,85,82,89,55,9,10,0.8,0.7
2025-10-31T1900,4237A,103.7251,36.1043,兰州市,安宁西路88号,颗粒物(PM10),76,102,89,44,41,66,,82,82,47,52,5,5,0.7,0.6
2025-10-31T1900,4238A,103.8470,36.0676,兰州市,北滨河东路1号,颗粒物(PM10),73,96,82,38,32,25,,80,80,87,57,10,12,0.9,0.8
2025-10-31T1900,3245A,103.6633,36.533,兰州新区,新区管委会,颗粒物(PM10),59,68,55,35,31,72,,109,108,31,13,9,15,0.4,0.3
2025-10-31T1900,3246A,103.6975,36.4789,兰州新区,舟曲中学,颗粒物(PM10),66,81,67,33,26,108,,113,113,15,16,7,8,0.4,0.4
2025-10-31T1900,1067A,116.6708,39.5111,廊坊市,药材公司,细颗粒物(PM2.5),143,126,54,109,42,38,,48,48,42,31,2,2,0.8,0.7
2025-10-31T1900,1068A,116.7214,39.5589,廊坊市,开发区,细颗粒物(PM2.5),138,126,54,105,43,43,,50,50,40,31,1,1,0.7,0.5
2025-10-31T1900,1070A,116.7244,39.5269,廊坊市,北华航天学院,细颗粒物(PM2.5),132,123,83,100,42,46,,52,52,37,32,3,3,0.7,0.5
2025-10-31T1900,2919A,116.7022,39.5453,廊坊市,河北工业大学,细颗粒物(PM2.5),129,107,50,98,45,43,,50,50,32,26,2,2,0.7,0.5
2025-10-31T1900,2535A,103.7723,29.5462,乐山市,花湖湾,,,,,,,,,,,,,,,,
2025-10-31T1900,2536A,103.7627,29.5844,乐山市,牛耳桥,,32,25,24,22,21,23,,45,36,37,24,7,6,0.8,0.7
2025-10-31T1900,2537A,103.7508,29.6006,乐山市,市第三水厂,,29,23,25,20,19,20,,45,38,37,19,5,5,0.8,0.7
2025-10-31T1900,2538A,103.7571,29.5664,乐山市,市监测站,,26,25,21,18,18,22,,46,33,34,17,6,6,0.8,0.7
2025-10-31T1900,3361A,103.7311,29.5628,乐山市,理工大学,,28,22,21,19,18,25,,44,33,33,19,4,7,0.7,0.6
2025-10-31T1900,2598A,100.2143,26.8576,丽江市,西南郊,,14,6,16,3,9,44,,54,54,9,8,6,6,0.9,0.9
2025-10-31T1900,2599A,100.2497,26.8802,丽江市,丽江古城,,23,23,21,6,11,43,,51,51,16,13,9,9,0.6,0.6
2025-10-31T1900,2600A,100.2203,26.8906,丽江市,市中心,,23,22,17,16,19,44,,52,52,17,15,11,11,0.5,0.4
2025-10-31T1900,1267A,119.914,28.4514,丽水市,监测站大楼,,38,38,15,13,8,37,,44,44,24,18,5,5,0.6,0.4
2025-10-31T1900,1268A,119.93,28.4586,丽水市,莲都小学,,33,33,18,14,7,37,,46,46,25,17,4,4,0.5,0.4
2025-10-31T1900,1269A,119.879,28.4231,丽水市,余庄前,,17,17,19,9,11,15,,36,35,13,19,2,2,0.5,0.4
2025-10-31T1900,1173A,119.176,34.5885,连云港市,市环境监测站,颗粒物(PM10),56,61,28,39,23,70,,86,86,29,19,7,7,0.8,0.5
2025-10-31T1900,3000A,119.3581,34.6972,连云港市,德源药业,"颗粒物(PM10),细颗粒物(PM2.5)",58,66,26,41,16,42,,79,77,42,26,5,5,0.8,0.4
2025-10-31T1900,3007A,119.178,34.844,连云港市,新城一中,,43,40,35,30,19,29,,86,79,73,35,6,6,0.8,0.6
2025-10-31T1900,3008A,119.3608,34.7519,连云港市,胡沟管理处,细颗粒物(PM2.5),64,56,17,46,13,73,,91,91,34,24,12,10,0.7,0.3
2025-10-31T1900,3009A,119.1478,34.5911,连云港市,矿山设计院,细颗粒物(PM2.5),73,78,31,53,25,62,,84,84,29,18,5,4,0.9,0.6
2025-10-31T1900,3434A,119.2413,34.6539,连云港市,工贸学校,颗粒物(PM10),66,82,29,46,18,78,,96,96,17,13,9,8,0.9,0.6
2025-10-31T1900,3664A,119.4172,34.7341,连云港市,连云街道,细颗粒物(PM2.5),78,78,24,57,15,76,,82,82,18,18,5,5,0.7,0.4
2025-10-31T1900,2571A,102.3431,27.8099,凉山彝族自治州,青龙寺,,,,,,,,,,,,,,,,
2025-10-31T1900,2572A,102.2721,27.8415,凉山彝族自治州,邛海宾馆,,15,,16,3,9,46,,36,36,4,12,10,15,0.8,0.8
2025-10-31T1900,2573A,102.2625,27.898,凉山彝族自治州,西昌市政府,,24,24,24,8,21,36,,26,23,8,17,5,8,0.6,0.7
2025-10-31T1900,2574A,102.2685,27.8851,凉山彝族自治州,凉山州政府,,35,,28,24,38,36,,28,25,9,16,8,10,0.9,0.8
2025-10-31T1900,4229A,102.2342,27.8859,凉山彝族自治州,凯乐南路30号,,15,12,31,6,16,46,,29,29,10,28,8,11,0.9,1
2025-10-31T1900,2212A,123.2,41.1953,辽阳市,宏伟区,颗粒物(PM10),89,128,78,64,32,11,,45,44,73,42,9,16,1.1,0.9
2025-10-31T1900,2213A,123.1683,41.2495,辽阳市,新华园,细颗粒物(PM2.5),199,,74,149,39,17,,50,49,82,42,12,16,2.3,1
2025-10-31T1900,2214A,123.2354,41.2639,辽阳市,滨河路,颗粒物(PM10),68,86,92,45,42,9,,54,43,61,43,7,15,0.6,1
2025-10-31T1900,2215A,123.149,41.2991,辽阳市,铁西工业园,颗粒物(PM10),101,152,82,48,49,0,,42,38,85,49,7,12,1.0,1
2025-10-31T1900,2227A,125.1358,42.8845,辽源市,环保局,颗粒物(PM10),66,82,78,43,26,10,,62,54,51,26,7,5,1.2,0.4
2025-10-31T1900,3239A,125.0764,42.9078,辽源市,银鹰制药,颗粒物(PM10),75,99,49,37,29,13,,71,63,82,34,8,7,0.9,0.6
2025-10-31T1900,1625A,115.9848,36.4372,聊城市,区政府,细颗粒物(PM2.5),142,157,172,108,109,43,,50,50,43,51,8,8,0.9,1
2025-10-31T1900,2878A,116.0072,36.4343,聊城市,聊大东校,细颗粒物(PM2.5),130,153,168,99,113,39,,52,52,48,49,5,7,0.9,0.9
2025-10-31T1900,3200A,115.9819,36.4978,聊城市,监控中心,细颗粒物(PM2.5),163,153,165,124,118,27,,52,52,56,44,8,9,1.0,1
2025-10-31T1900,3513A,116.0445,36.4361,聊城市,九州社区,细颗粒物(PM2.5),133,151,157,101,96,45,,53,53,35,39,1,2,0.7,0.8
2025-10-31T1900,4018A,116.0567,36.4608,聊城市,星美广场,细颗粒物(PM2.5),128,153,168,97,97,48,,53,53,35,47,2,3,0.8,0.9
2025-10-31T1900,2632A,94.3681,29.6376,林芝市,林芝监测站,,10,,7,6,5,30,,38,33,14,8,5,5,0.5,0.4
2025-10-31T1900,2633A,94.3616,29.6616,林芝市,林芝人民医院,,11,9,8,6,6,34,,37,34,11,7,5,5,0.5,0.5
2025-10-31T1900,2603A,100.0781,23.8982,临沧市,市环保局,,49,,23,34,26,37,,47,47,8,6,7,5,0.7,0.7
2025-10-31T1900,2604A,100.0894,23.8822,临沧市,市气象局,,30,,23,21,22,44,,48,48,5,8,6,7,0.6,0.7
2025-10-31T1900,1733A,111.5531,36.0783,临汾市,临钢医院,,40,40,129,13,68,74,,80,80,24,26,6,7,0.5,1.3
2025-10-31T1900,1734A,111.5028,36.0714,临汾市,技工学校,,36,36,126,20,81,68,,79,79,28,32,5,7,0.3,1
2025-10-31T1900,1736A,111.5018,36.0855,临汾市,市委,,35,35,135,3,80,86,,84,84,17,29,4,5,0.3,1.2
2025-10-31T1900,3018A,111.505,36.1014,临汾市,唐尧大酒店,,41,41,125,8,74,84,,86,86,18,25,4,4,0.5,1.2
2025-10-31T1900,4244A,111.4879,36.0530,临汾市,启星学校,,45,45,84,21,67,85,,87,87,26,31,7,7,0.3,1.2
2025-10-31T1900,4271A,103.2464,35.6123,临夏回族自治州,滨河东路1号,颗粒物(PM10),69,88,124,44,60,59,,72,72,28,32,8,8,0.6,0.9
2025-10-31T1900,4310A,103.2093,35.5995,临夏回族自治州,新华街21号,,,109,107,45,49,,,86,86,30,27,11,10,0.6,0.7
2025-10-31T1900,1618A,118.3429,35.0532,临沂市,沂河小区,细颗粒物(PM2.5),149,139,73,114,51,47,,91,88,46,34,9,9,0.8,0.5
2025-10-31T1900,1619A,118.295,35.0583,临沂市,鲁南制药厂,细颗粒物(PM2.5),113,158,78,85,55,30,,100,90,65,37,13,11,1.1,0.8
2025-10-31T1900,1620A,118.2794,34.9976,临沂市,新光毛纺厂,细颗粒物(PM2.5),117,134,78,88,58,39,,95,90,60,42,9,12,0.8,0.5
2025-10-31T1900,1621A,118.3956,35.0888,临沂市,河东保险公司,细颗粒物(PM2.5),139,139,78,106,52,48,,95,91,40,44,8,7,1.0,0.7
2025-10-31T1900,3370A,118.3564,35.0215,临沂市,十里堡居委,细颗粒物(PM2.5),125,117,63,95,46,51,,100,96,50,35,12,10,0.9,0.6
2025-10-31T1900,3496A,118.3604,35.1084,临沂市,南坊新区,细颗粒物(PM2.5),147,119,68,112,55,44,,95,91,46,35,10,10,1.0,0.7
2025-10-31T1900,3860A,118.3920,35.0300,临沂市,皇山花园小区,细颗粒物(PM2.5),113,114,63,85,42,63,,102,99,35,30,10,11,0.9,0.7
2025-10-31T1900,1870A,109.4856,24.3895,柳州市,柳东小学,,40,36,33,28,28,49,,72,71,6,8,5,6,0.6,0.6
2025-10-31T1900,1871A,109.4157,24.3277,柳州市,环保监测站,,44,44,36,25,18,41,,67,66,7,10,7,10,0.8,0.8
2025-10-31T1900,1872A,109.389,24.341,柳州市,河西水厂,,50,50,41,32,28,41,,70,68,10,13,5,10,0.5,0.7
2025-10-31T1900,1873A,109.4311,24.2921,柳州市,市四中,,36,32,34,25,24,49,,65,65,12,13,8,9,0.8,0.7
2025-10-31T1900,1874A,109.4006,24.3631,柳州市,市九中,,43,43,31,29,24,38,,65,63,10,12,2,6,0.6,0.7
2025-10-31T1900,1875A,109.4958,24.3134,柳州市,古亭山,,30,28,35,21,22,64,,74,74,8,7,10,8,0.7,0.7
2025-10-31T1900,3402A,109.5422,24.3996,柳州市,市二中,,33,28,31,23,24,52,,74,74,10,11,7,7,0.7,0.6
2025-10-31T1900,2307A,116.5079,31.737,六安市,监测大楼,,48,34,45,33,53,74,,85,85,17,16,4,3,0.4,0.4
2025-10-31T1900,2308A,116.4738,31.7643,六安市,皖西学院,细颗粒物(PM2.5),53,50,55,37,51,58,,85,84,24,15,2,2,0.4,0.4
2025-10-31T1900,2309A,116.4996,31.7905,六安市,朝阳厂,,47,47,45,31,47,64,,76,76,25,21,4,4,0.4,0.4
2025-10-31T1900,2310A,116.5567,31.7886,六安市,开发区,颗粒物(PM10),54,57,57,31,44,46,,76,74,40,19,2,2,0.5,0.5
2025-10-31T1900,2576A,104.8,26.5892,六盘水市,窑上,,26,26,26,3,14,50,,41,41,7,8,2,2,0.5,0.6
2025-10-31T1900,2577A,104.83,26.5917,六盘水市,黄土坡,,19,19,17,9,11,44,,42,42,13,17,5,5,0.7,0.8
2025-10-31T1900,2578A,104.89,26.5939,六盘水市,水钢,,17,17,24,11,11,47,,45,45,12,10,7,6,1.1,0.8
2025-10-31T1900,2579A,104.8475,26.5894,六盘水市,民中,,14,11,16,7,9,44,,38,36,11,14,3,3,0.7,0.7
2025-10-31T1900,2580A,104.9544,26.5506,六盘水市,双水,,15,12,17,3,8,46,,43,40,10,11,4,3,0.4,0.5
2025-10-31T1900,2335A,117.0189,25.1181,龙岩市,龙岩师专,,,,,,,,,,,,,,,,
2025-10-31T1900,2336A,117.0217,25.1033,龙岩市,龙岩市监测站,,19,,20,11,16,60,,71,70,12,18,12,9,0.5,0.5
2025-10-31T1900,2337A,117.0258,25.0661,龙岩市,闽西职业技术学院,,21,16,25,11,16,66,,72,72,5,16,5,7,0.5,0.5
2025-10-31T1900,2338A,117.0196,25.0306,龙岩市,龙岩学院,,21,12,19,10,14,65,,68,68,5,13,5,6,0.4,0.4
2025-10-31T1900,2665A,105.0822,33.3261,陇南市,汉王镇固水子,,,,,,,,,,,,,,,,
2025-10-31T1900,2885A,104.9339,33.3826,陇南市,滨江中学,颗粒物(PM10),66,81,60,34,27,31,,33,33,27,24,9,8,1.0,0.8
2025-10-31T1900,3247A,104.955,33.371,陇南市,市总工会,,,,55,,25,,,32,32,17,20,8,9,0.5,0.5
2025-10-31T1900,2487A,111.9589,27.8901,娄底市,电视发射台,,,,,,,,,,,,,,,,
2025-10-31T1900,2488A,111.9975,27.725,娄底市,市监测站,,45,44,45,31,30,84,,89,89,20,21,9,10,0.4,0.5
2025-10-31T1900,2489A,112.0194,27.7314,娄底市,市委党校,,46,45,40,32,32,72,,81,81,21,17,4,5,0.7,0.8
2025-10-31T1900,2490A,111.9561,27.7569,娄底市,涟钢,颗粒物(PM10),52,54,41,34,31,60,,73,73,24,14,8,8,0.8,0.4
2025-10-31T1900,2491A,111.9892,27.7044,娄底市,市政府,细颗粒物(PM2.5),55,45,39,39,32,68,,82,82,23,12,8,8,0.9,0.8
2025-10-31T1900,1893A,105.4324,28.9634,泸州市,九狮山,,,,,,,,,,,,,,,,
2025-10-31T1900,1894A,105.4427,28.9063,泸州市,小市上码头,,46,46,39,27,28,12,,21,18,23,17,8,8,0.6,0.5
2025-10-31T1900,1895A,105.4241,28.8573,泸州市,兰田宪桥,,49,49,44,31,22,18,,19,19,14,16,6,6,0.5,0.5
2025-10-31T1900,1896A,105.4379,28.8833,泸州市,市环监站,,46,45,42,32,27,8,,20,16,34,23,9,9,0.6,0.5
2025-10-31T1900,4272A,105.3689,28.7783,泸州市,纳溪中医医院,,43,35,35,30,27,32,,34,34,16,18,6,6,0.6,0.6
2025-10-31T1900,2183A,111.1406,37.5211,吕梁市,环保局,,,62,83,31,29,26,,72,72,67,43,3,5,,0.5
2025-10-31T1900,2185A,111.1297,37.5136,吕梁市,自来水公司,,46,46,98,17,28,43,,72,72,41,32,2,4,0.6,0.5
2025-10-31T1900,2867A,111.1283,37.51,吕梁市,马茂庄小学,颗粒物(PM10),62,74,89,33,27,20,,74,74,66,39,4,4,0.5,0.5
2025-10-31T1900,1812A,112.3931,34.6516,洛阳市,市委党校,颗粒物(PM10),56,61,141,36,103,79,,84,84,32,29,8,7,0.6,0.9
2025-10-31T1900,1815A,112.494,34.6886,洛阳市,河南林校,颗粒物(PM10),63,76,143,40,119,54,,76,76,49,31,10,9,0.8,0.9
2025-10-31T1900,1816A,112.3844,34.623,洛阳市,开发区管委会,颗粒物(PM10),57,63,151,36,113,72,,90,90,30,24,6,7,0.6,0.9
2025-10-31T1900,1817A,112.4267,34.6258,洛阳市,市委新办公区,颗粒物(PM10),60,69,152,32,96,72,,90,90,31,27,8,7,0.4,0.8
2025-10-31T1900,3340A,112.6005,34.6326,洛阳市,伊滨,颗粒物(PM10),56,61,124,31,111,77,,84,84,36,30,8,7,0.3,0.8
2025-10-31T1900,3341A,112.4951,34.6332,洛阳市,中移产业园,颗粒物(PM10),54,58,162,28,109,88,,90,90,28,29,8,7,0.5,0.9
2025-10-31T1900,3593A,112.5736,34.8993,洛阳市,吉利监测站,,,,136,23,114,70,,79,79,33,28,8,8,0.6,1
2025-10-31T1900,3635A,112.3677,34.662,洛阳市,河科大西苑校区,颗粒物(PM10),56,62,152,33,108,86,,89,89,28,30,9,8,0.6,1
2025-10-31T1900,3636A,112.4388,34.6781,洛阳市,英才小学,,,72,187,38,73,,,77,77,40,36,,7,,1.1
2025-10-31T1900,4214A,112.4600,34.6949,洛阳市,春都路1号院,颗粒物(PM10),67,84,128,32,95,58,,70,70,36,28,10,8,0.8,1.2
2025-10-31T1900,2399A,114.051,33.5699,漯河市,三五一五工厂,颗粒物(PM10),103,156,197,62,119,70,,95,95,,29,7,7,1.0,1.1
2025-10-31T1900,2400A,114.0055,33.5698,漯河市,漯河大学,颗粒物(PM10),128,205,195,95,137,65,,94,94,39,32,6,6,0.8,0.8
2025-10-31T1900,2401A,114.0138,33.5828,漯河市,市水利局,颗粒物(PM10),139,227,209,90,138,63,,94,94,34,30,7,7,0.9,0.9
2025-10-31T1900,2402A,114.0261,33.5698,漯河市,市广电局,颗粒物(PM10),127,203,212,80,126,64,,96,96,34,29,5,6,0.9,0.9
2025-10-31T1900,3478A,113.9749,33.5664,漯河市,市图书馆,颗粒物(PM10),124,198,222,85,134,75,,93,90,22,29,5,4,0.7,0.9
2025-10-31T1900,4250A,114.0892,33.5882,漯河市,韶山路11号,细颗粒物(PM2.5),113,173,216,85,144,31,,90,87,64,35,8,8,1.0,0.9
2025-10-31T1900,1798A,118.5092,31.6837,马鞍山市,湖东路四小,细颗粒物(PM2.5),75,63,23,55,18,106,,88,88,24,17,8,7,0.8,0.6
2025-10-31T1900,1799A,118.5024,31.6449,马鞍山市,开发区,细颗粒物(PM2.5),62,64,23,44,17,80,,82,82,39,19,6,7,0.5,0.5
2025-10-31T1900,1802A,118.6245,31.7241,马鞍山市,濮塘,,,,,,,,,,,,,,,,
2025-10-31T1900,3633A,118.4918,31.6809,马鞍山市,雨山,细颗粒物(PM2.5),59,56,21,42,16,105,,88,88,22,18,6,7,0.9,0.7
2025-10-31T1900,4191A,118.5274,31.72227,马鞍山市,慈湖高新区,细颗粒物(PM2.5),93,88,31,69,21,92,,86,86,33,18,4,4,0.7,0.5
2025-10-31T1900,1686A,111.0286,21.4688,茂名市,电白南海,细颗粒物(PM2.5),62,66,71,44,48,126,,119,119,23,20,8,11,0.6,0.5
2025-10-31T1900,1687A,110.9294,21.6533,茂名市,茂石化七小,细颗粒物(PM2.5),64,73,67,46,43,96,,102,102,24,19,10,16,1.0,0.8
2025-10-31T1900,1688A,110.9107,21.6687,茂名市,健康路,颗粒物(PM10),56,61,56,34,38,104,,116,116,22,18,10,23,0.8,0.8
2025-10-31T1900,1689A,110.8592,21.6828,茂名市,高岭,细颗粒物(PM2.5),79,100,68,58,37,88,,102,102,28,18,7,16,0.7,0.7
2025-10-31T1900,3450A,111.01,21.5165,茂名市,电白水东,,,48,58,36,40,121,,111,111,16,18,,12,0.7,0.8
2025-10-31T1900,2539A,104.0308,30.0478,眉山市,黑龙滩水库,,,,,,,,,,,,,,,,
2025-10-31T1900,2540A,103.8416,30.0874,眉山市,气象局,,34,34,36,17,19,28,,53,51,38,18,8,8,0.5,0.4
2025-10-31T1900,3137A,103.8578,30.0744,眉山市,市委党校,,29,29,22,14,14,29,,47,46,35,18,5,5,0.7,0.6
2025-10-31T1900,3148A,103.8291,30.0564,眉山市,区人社局,,,38,36,12,15,28,,47,46,,12,3,4,1.0,0.8
2025-10-31T1900,1690A,116.1231,24.3284,梅州市,梅江月梅,,23,22,26,16,22,62,,68,68,12,17,4,5,0.7,0.6
2025-10-31T1900,1691A,116.0797,24.2719,梅州市,梅县新城,,,,26,24,23,65,,69,69,15,15,7,7,0.7,0.6
2025-10-31T1900,1692A,116.1248,24.2654,梅州市,环境监控中心,,22,22,24,13,19,65,,70,70,10,16,4,5,0.6,0.5
2025-10-31T1900,3315A,116.1233,24.2991,梅州市,梅龙,,26,24,24,18,17,61,,65,65,8,14,6,7,0.7,0.7
2025-10-31T1900,1878A,104.7778,31.4741,绵阳市,富乐山,细颗粒物(PM2.5),67,71,44,48,29,9,,12,12,31,18,9,9,0.7,0.6
2025-10-31T1900,1880A,104.6697,31.4668,绵阳市,高新区自来水公司,细颗粒物(PM2.5),77,62,54,56,43,6,,17,17,38,31,9,9,0.7,0.7
2025-10-31T1900,1881A,104.7287,31.5075,绵阳市,三水厂,细颗粒物(PM2.5),97,82,62,72,52,8,,14,14,42,28,7,7,0.8,0.7
2025-10-31T1900,3491A,104.69,31.5322,绵阳市,西科大附属小学,细颗粒物(PM2.5),59,61,51,42,34,10,,21,21,44,30,11,10,0.9,0.8
2025-10-31T1900,3492A,104.5648,31.5343,绵阳市,安州区旅游局,细颗粒物(PM2.5),64,48,38,46,41,12,,23,23,38,23,8,8,0.9,0.8
2025-10-31T1900,4226A,104.7651,31.4531,绵阳市,绵阳市气象局,细颗粒物(PM2.5),92,86,56,68,43,8,,15,12,34,22,10,9,0.8,0.8
2025-10-31T1900,1784A,129.61,44.561,牡丹江市,环保大楼,颗粒物(PM10),53,55,31,23,22,15,,50,46,47,27,8,7,0.6,0.5
2025-10-31T1900,1785A,129.6115,44.5782,牡丹江市,文化广场,细颗粒物(PM2.5),97,123,44,72,27,5,,47,40,64,33,16,9,1.2,0.6
2025-10-31T1900,1786A,129.5904,44.5963,牡丹江市,第一医院,颗粒物(PM10),73,96,47,47,33,15,,50,44,47,28,5,4,0.9,0.5
2025-10-31T1900,1787A,129.6364,44.6075,牡丹江市,机车工厂,颗粒物(PM10),64,78,47,30,28,11,,51,44,42,27,15,14,0.5,0.5
2025-10-31T1900,1788A,129.6386,44.5462,牡丹江市,第一中学,,35,35,26,14,14,13,,,,48,32,3,4,0.5,0.4
2025-10-31T1900,2531A,105.0703,29.61,内江市,市监测站,,46,38,38,32,25,34,,42,41,23,12,4,4,0.2,0.4
2025-10-31T1900,2532A,105.0717,29.5947,内江市,东兴区政府,,36,36,30,12,22,35,,34,34,20,15,5,8,0.4,0.3
2025-10-31T1900,2533A,105.0653,29.5817,内江市,内江二中,,32,30,37,22,22,31,,32,32,26,17,4,4,0.7,0.6
2025-10-31T1900,2534A,105.0406,29.5822,内江市,内江日报社,,33,32,32,23,27,43,,37,37,17,16,4,4,0.5,0.5
2025-10-31T1900,2628A,92.0657,31.4846,那曲市,那曲监测站,,32,32,16,22,11,71,,88,87,39,19,11,7,0.8,0.4
2025-10-31T1900,4243A,92.0515,31.4787,那曲市,那曲市委宣传部,,29,10,6,6,4,91,,98,98,13,11,6,6,0.2,0.4
2025-10-31T1900,1290A,115.8931,28.6843,南昌市,省外办,,49,49,49,34,38,50,,64,64,24,18,4,4,0.9,1
2025-10-31T1900,1291A,115.8886,28.7003,南昌市,省林业公司,,45,44,37,31,34,56,,68,68,28,16,2,3,1.1,1.1
2025-10-31T1900,1292A,115.8126,28.7442,南昌市,林科所,,20,17,26,14,24,44,,71,67,32,14,5,5,0.6,0.7
2025-10-31T1900,1294A,115.8518,28.687,南昌市,建工学校,,46,46,47,31,34,51,,69,68,36,17,9,10,0.8,0.7
2025-10-31T1900,1295A,115.8921,28.6424,南昌市,象湖,,33,33,45,22,33,39,,71,68,52,16,7,7,0.9,0.8
2025-10-31T1900,1296A,115.7423,28.7996,南昌市,武术学校,,,,,,,,,,,,,,,,
2025-10-31T1900,3046A,115.9084,28.6062,南昌市,机电学校,,46,46,49,27,37,56,,77,76,33,16,6,6,0.6,0.7
2025-10-31T1900,3690A,115.9721,28.7031,南昌市,外国语学校,,49,42,49,34,43,53,,75,75,47,25,7,7,0.5,0.6
2025-10-31T1900,4192A,115.9316,28.68677,南昌市,南京东路235号,颗粒物(PM10),52,54,54,35,42,61,,77,77,37,25,5,6,0.8,0.8
2025-10-31T1900,1905A,106.056,30.8064,南充市,西山风景区,,,,,,,,,,,,,,,,
2025-10-31T1900,1906A,106.0789,30.8023,南充市,南充市委,,49,46,39,34,28,6,,17,16,39,23,5,4,0.7,0.5
2025-10-31T1900,1907A,106.1031,30.8217,南充市,南充炼油厂,颗粒物(PM10),59,68,43,39,27,2,,15,14,38,16,7,6,1.0,0.6
2025-10-31T1900,4227A,106.1083,30.7884,南充市,梨树横街98号,,44,44,35,28,22,5,,18,16,36,17,6,4,0.5,0.4
2025-10-31T1900,4304A,106.1172,30.843,南充市,清泉寺北路188号,,49,49,32,28,24,4,,19,18,37,14,6,6,0.6,0.4
2025-10-31T1900,4305A,106.067,30.7616,南充市,同庆路1号,,48,48,35,29,25,7,,18,18,36,24,7,6,0.7,0.5
2025-10-31T1900,1151A,118.8086,32.1065,南京市,迈皋桥,细颗粒物(PM2.5),55,51,18,39,13,72,,81,81,15,12,3,4,0.7,0.6
2025-10-31T1900,1152A,118.7538,32.0551,南京市,草场门,细颗粒物(PM2.5),58,58,18,41,13,81,,78,78,27,22,8,8,0.5,0.4
2025-10-31T1900,1153A,118.7794,32.0745,南京市,山西路,,,70,23,44,11,87,,90,90,,14,4,4,0.7,0.6
2025-10-31T1900,1154A,118.7752,32.0023,南京市,中华门,细颗粒物(PM2.5),62,66,18,44,12,92,,93,93,25,19,4,4,0.5,0.4
2025-10-31T1900,1155A,118.8109,32.0309,南京市,瑞金路,细颗粒物(PM2.5),58,58,20,41,13,84,,92,92,20,17,4,4,0.6,0.5
2025-10-31T1900,1156A,118.7997,32.0754,南京市,玄武湖,细颗粒物(PM2.5),53,53,19,37,10,84,,82,82,16,14,4,4,0.1,0.2
2025-10-31T1900,1157A,118.6414,32.0931,南京市,浦口,细颗粒物(PM2.5),77,65,22,56,14,106,,91,91,16,17,6,6,0.5,0.4
2025-10-31T1900,1158A,118.7356,31.9996,南京市,奥体中心,细颗粒物(PM2.5),62,65,21,44,12,91,,90,90,27,18,4,4,0.5,0.4
2025-10-31T1900,1159A,118.9125,32.1028,南京市,仙林大学城,细颗粒物(PM2.5),62,61,27,44,13,63,,75,75,33,22,8,8,0.6,0.6
2025-10-31T1900,3422A,118.8436,31.9198,南京市,江宁彩虹桥,,49,37,18,34,12,86,,87,87,19,10,4,5,0.4,0.4
2025-10-31T1900,3427A,118.8554,32.3578,南京市,六合雄州,颗粒物(PM10),63,75,27,43,12,85,,90,90,12,13,6,6,0.6,0.5
2025-10-31T1900,4249A,118.8708,31.3402,南京市,汶溪路181号,,42,41,18,29,12,88,,78,78,22,16,4,6,0.7,0.6
2025-10-31T1900,4312A,119.019,31.6512,南京市,中山西路1号,,29,29,15,16,11,63,,67,67,15,13,3,4,0.7,0.7
2025-10-31T1900,1401A,108.3103,22.7881,南宁市,二十一中,,38,38,26,18,21,46,,57,56,14,15,3,3,0.7,0.7
2025-10-31T1900,1402A,108.3141,22.8528,南宁市,北湖,,31,31,26,18,22,47,,60,58,13,15,5,8,0.7,0.7
2025-10-31T1900,1403A,108.3206,22.8225,南宁市,市监测站,,33,32,24,23,25,42,,54,51,19,19,5,6,0.7,0.7
2025-10-31T1900,1404A,108.3829,22.8037,南宁市,大自然花园,,29,27,27,20,21,42,,58,56,14,12,5,5,0.7,0.7
2025-10-31T1900,1405A,108.4394,22.7904,南宁市,仙葫,,,,,,,,,,,,,,,,
2025-10-31T1900,1406A,108.2397,22.8467,南宁市,区农职院,,,25,24,14,17,50,,56,56,,14,,3,0.5,0.6
2025-10-31T1900,1407A,108.3275,22.735,南宁市,英华嘉园,,40,,24,28,22,38,,59,55,17,13,2,2,0.6,0.7
2025-10-31T1900,3401A,108.4834,22.7618,南宁市,红星社区,,28,24,23,19,21,67,,67,67,7,8,4,4,0.5,0.5
2025-10-31T1900,4221A,108.2177,22.7774,南宁市,乐贤路16号,,30,30,28,14,21,42,,55,54,17,20,2,3,0.5,0.5
2025-10-31T1900,2331A,118.0966,26.6761,南平市,茫荡山,,,18,11,,,93,,90,90,,,2,1,,
2025-10-31T1900,2332A,118.1681,26.6369,南平市,南平市监测站,,22,22,24,15,15,61,,65,65,13,10,3,3,0.6,0.5
2025-10-31T1900,2333A,118.1825,26.6489,南平市,南平铝业有限公司,,,20,22,13,14,59,,63,63,,10,,3,0.6,0.5
2025-10-31T1900,2334A,118.1756,26.6272,南平市,南平七中,,29,,24,20,18,51,,61,61,14,10,6,6,0.6,0.4
2025-10-31T1900,1168A,120.9098,31.9663,南通市,狼山街道,,29,26,17,20,10,43,,70,66,42,20,4,3,0.5,0.5
2025-10-31T1900,1169A,120.86,32.0005,南通市,虹桥,,35,35,19,18,10,62,,72,68,27,22,5,4,0.8,0.7
2025-10-31T1900,1170A,120.87,32.02,南通市,城中,,36,36,25,18,10,59,,72,72,26,22,4,4,0.6,0.6
2025-10-31T1900,1171A,120.94,31.93,南通市,星湖花园,,46,32,21,15,12,11,,73,60,92,26,4,4,0.5,0.5
2025-10-31T1900,1172A,120.81,32.0417,南通市,紫琅学院,,41,41,26,21,9,60,,82,82,26,19,6,6,0.5,0.5
2025-10-31T1900,3291A,121.067,32.062,南通市,通州监测站,,35,31,11,24,9,72,,96,92,22,12,2,2,0.5,0.4
2025-10-31T1900,3432A,120.9348,31.9883,南通市,环境教育馆,,31,31,21,16,11,57,,81,76,31,19,4,4,0.5,0.3
2025-10-31T1900,2404A,112.5224,33.0122,南阳市,瓦房庄,颗粒物(PM10),67,83,108,32,76,22,,66,58,32,26,5,6,0.8,0.8
2025-10-31T1900,2405A,112.5003,32.9735,南阳市,汉画馆,颗粒物(PM10),65,80,96,29,62,7,,53,47,43,32,6,6,0.8,0.9
2025-10-31T1900,2406A,112.5573,33.027,南阳市,气象站,颗粒物(PM10),80,109,134,39,71,21,,65,59,41,31,4,8,0.8,0.8
2025-10-31T1900,2407A,112.5481,32.9689,南阳市,理工学院,颗粒物(PM10),75,99,125,29,72,11,,63,52,50,31,7,7,0.8,0.9
2025-10-31T1900,4008A,112.5234,32.9922,南阳市,卧龙区政府,颗粒物(PM10),55,60,115,38,58,16,,61,53,40,29,8,8,0.8,0.8
2025-10-31T1900,1234A,121.8358,29.911,宁波市,区环保大楼,,,50,23,25,15,50,,76,73,40,37,,7,0.6,0.5
2025-10-31T1900,1235A,121.56,29.82,宁波市,万里学院,,46,34,23,32,16,50,,76,74,34,21,7,7,0.6,0.5
2025-10-31T1900,1236A,121.713,29.9572,宁波市,龙赛医院,,42,42,22,20,11,51,,71,70,33,26,5,5,0.5,0.4
2025-10-31T1900,1239A,121.633,29.7733,宁波市,钱湖水厂,,32,32,20,22,14,44,,72,70,36,22,6,6,0.6,0.5
2025-10-31T1900,1240A,121.5856,29.8635,宁波市,太古小学,,46,46,22,20,13,45,,76,73,38,23,4,3,0.6,0.6
2025-10-31T1900,1241A,121.524,29.8674,宁波市,市环境监测中心,,41,41,24,20,12,39,,75,69,45,25,8,8,0.7,0.6
2025-10-31T1900,2871A,121.6147,29.9017,宁波市,万里国际学校,,33,33,19,14,10,48,,72,70,33,26,4,4,0.5,0.4
2025-10-31T1900,3710A,121.5594,29.8975,宁波市,白沙活动中心,,26,26,20,18,11,40,,75,71,36,20,5,5,0.5,0.4
2025-10-31T1900,2339A,119.5001,26.6946,宁德市,金涵水库,,21,14,16,6,9,67,,64,64,8,10,2,3,0.4,0.4
2025-10-31T1900,2341A,119.5388,26.6612,宁德市,宁德市监测站,,30,,29,14,20,94,,94,94,15,22,5,5,0.5,0.6
2025-10-31T1900,3209A,119.5231,26.6562,宁德市,宁德一中,,29,18,28,13,23,92,,97,97,11,14,5,5,0.5,0.5
2025-10-31T1900,2618A,98.8601,25.8567,怒江傈僳族自治州,州监测站,细颗粒物(PM2.5),72,70,39,52,30,53,,58,58,19,12,7,8,0.7,0.5
2025-10-31T1900,2619A,98.8546,25.8417,怒江傈僳族自治州,泸水一中,颗粒物(PM10),63,76,35,34,26,11,,26,24,38,17,6,6,0.8,0.7
2025-10-31T1900,1888A,101.6891,26.571,攀枝花市,弄弄坪,颗粒物(PM10),54,58,48,18,23,52,,64,64,23,27,2,5,0.8,0.9
2025-10-31T1900,1889A,101.5769,26.5928,攀枝花市,河门口,颗粒物(PM10),75,100,49,28,26,56,,69,69,7,24,10,36,0.7,1.8
2025-10-31T1900,1890A,101.7169,26.585,攀枝花市,炳草岗,颗粒物(PM10),60,70,51,16,24,44,,64,64,26,27,14,37,0.8,0.9
2025-10-31T1900,1891A,101.7369,26.5008,攀枝花市,仁和,,39,39,49,20,31,36,,43,43,15,19,7,13,0.8,1
2025-10-31T1900,2835A,101.7227,26.567,攀枝花市,四十中小,,36,36,33,21,18,59,,72,72,14,16,15,56,0.9,1
2025-10-31T1900,1604A,122.0303,41.1489,盘锦市,开发区,,,115,56,,39,7,,78,62,84,39,11,5,1.7,1.2
2025-10-31T1900,1605A,122.0485,41.0883,盘锦市,兴隆台,细颗粒物(PM2.5),77,71,44,56,28,6,,62,52,86,42,8,12,0.7,0.4
2025-10-31T1900,1606A,121.8297,41.1028,盘锦市,新生街道,,32,30,37,17,24,22,,64,60,64,42,8,9,0.4,0.5
2025-10-31T1900,1832A,113.3257,33.742,平顶山市,新华旅馆,颗粒物(PM10),57,63,167,22,67,82,,95,95,22,24,7,7,0.4,0.7
2025-10-31T1900,1833A,113.2919,33.737,平顶山市,规划设计院,颗粒物(PM10),68,85,181,31,115,72,,93,93,26,26,5,5,0.6,0.9
2025-10-31T1900,1834A,113.182,33.774,平顶山市,平顶山工学院,,42,42,151,17,110,93,,100,100,16,22,7,6,0.3,0.7
2025-10-31T1900,3204A,113.3025,33.73,平顶山市,规划局,颗粒物(PM10),58,66,168,25,116,85,,96,96,19,22,6,7,0.6,0.9
2025-10-31T1900,3594A,112.8867,33.9116,平顶山市,石龙区,,49,49,136,16,92,101,,100,100,20,26,6,6,0.4,0.9
2025-10-31T1900,2656A,106.6692,35.5461,平凉市,聚贤嘉苑,,45,45,51,18,26,68,,92,92,29,27,6,7,0.5,0.5
2025-10-31T1900,2657A,106.7021,35.5307,平凉市,博物馆,颗粒物(PM10),64,77,85,26,27,52,,90,90,36,25,12,10,0.9,0.6
2025-10-31T1900,2347A,114.0997,27.5002,萍乡市,武功山,,,,,,,,,,,,,,,,
2025-10-31T1900,2348A,113.8385,27.6434,萍乡市,中医院,颗粒物(PM10),54,58,54,31,41,38,,72,70,29,23,4,5,0.9,1
2025-10-31T1900,2349A,113.8493,27.6253,萍乡市,市政府车库,颗粒物(PM10),55,59,51,38,39,35,,72,69,34,24,9,9,0.9,0.9
2025-10-31T1900,2350A,113.8676,27.6435,萍乡市,市环保局,,42,40,44,29,35,38,,74,71,30,18,4,6,0.8,0.8
2025-10-31T1900,2351A,113.866,27.6198,萍乡市,安源区政府,细颗粒物(PM2.5),77,,47,56,51,38,,68,66,26,19,14,11,0.8,0.8
2025-10-31T1900,2319A,119.0141,25.4325,莆田市,荔城区仓后路,,36,36,37,12,19,73,,80,80,20,24,6,5,0.8,0.7
2025-10-31T1900,2320A,119.0015,25.4553,莆田市,莆田市监测站,,25,14,16,14,6,78,,81,81,18,9,6,5,0.7,0.5
2025-10-31T1900,2321A,119.1119,25.4561,莆田市,涵江区六中,,27,23,30,9,16,86,,85,85,14,30,5,6,0.7,0.6
2025-10-31T1900,2322A,119.1013,25.3215,莆田市,秀屿区政府,,29,15,26,6,17,90,,91,91,12,16,9,8,0.7,0.7
2025-10-31T1900,2323A,118.981,25.4792,莆田市,东圳水库,,29,29,12,15,14,75,,84,81,18,8,7,6,1.3,1
2025-10-31T1900,2392A,115.0312,35.7636,濮阳市,环保局,细颗粒物(PM2.5),183,,130,138,146,33,,56,56,56,46,8,8,1.6,1.3
2025-10-31T1900,2394A,115.0574,35.7609,濮阳市,油田运输公司,细颗粒物(PM2.5),192,204,210,144,152,36,,61,61,64,44,9,9,1.7,1.3
2025-10-31T1900,3021A,115,35.7668,濮阳市,濮水河管理处,细颗粒物(PM2.5),132,168,170,100,101,4,,50,46,38,35,8,9,,0.8
2025-10-31T1900,4216A,115.0924,35.7686,濮阳市,任丘路479号,细颗粒物(PM2.5),206,192,202,156,150,41,,57,57,51,42,8,8,1.5,1.3
2025-10-31T1900,2601A,100.98,22.7633,普洱市,市环保局,,31,31,29,3,17,36,,48,47,8,6,5,5,0.4,0.4
2025-10-31T1900,2602A,100.9817,22.8322,普洱市,普洱第二中学,,37,37,29,24,16,32,,49,48,16,11,5,5,0.5,0.3
2025-10-31T1900,2262A,131.0518,45.8751,七台河市,新一中,,,,,,,,,,,,,,,,
2025-10-31T1900,3345A,131.0577,45.7879,七台河市,中波台,颗粒物(PM10),56,61,35,24,19,24,,57,52,47,17,8,7,0.7,0.5
2025-10-31T1900,3637A,131.0176,45.7761,七台河市,人民广场,颗粒物(PM10),61,72,38,42,23,14,,65,54,62,21,8,7,0.9,0.6
2025-10-31T1900,3684A,130.8781,45.8222,七台河市,新建矿广场,颗粒物(PM10),78,105,48,37,28,16,,51,42,43,22,9,7,0.6,0.4
2025-10-31T1900,1779A,123.9305,47.3636,齐齐哈尔市,安居小区,颗粒物(PM10),55,59,56,29,33,23,,36,35,40,30,9,8,1.0,0.7
2025-10-31T1900,1780A,123.9488,47.3386,齐齐哈尔市,中心广场,,47,47,66,27,39,34,,40,40,31,31,9,9,0.5,0.7
2025-10-31T1900,1781A,123.9483,47.3227,齐齐哈尔市,农牧车辆厂,颗粒物(PM10),53,56,105,28,54,22,,37,37,40,37,9,10,0.7,0.9
2025-10-31T1900,1783A,123.945,47.2988,齐齐哈尔市,市环境监测站,颗粒物(PM10),59,68,108,40,62,32,,35,35,31,38,10,10,0.7,0.9
2025-10-31T1900,3662A,123.6333,47.2075,齐齐哈尔市,富区青少年活动中心,细颗粒物(PM2.5),192,196,126,144,76,28,,44,44,42,35,9,10,1.0,0.8
2025-10-31T1900,2591A,107.9783,26.5747,黔东南苗族侗族自治州,市环境监测站,,19,15,29,12,23,58,,49,49,9,13,4,4,0.5,0.6
2025-10-31T1900,2881A,107.8908,26.5311,黔东南苗族侗族自治州,凯里学院,,22,,19,15,23,59,,51,51,12,14,3,4,0.3,0.4
2025-10-31T1900,2593A,107.5228,26.2403,黔南布依族苗族自治州,小围寨,,17,17,14,7,10,48,,43,43,5,7,5,4,0.4,0.5
2025-10-31T1900,3538A,107.5175,26.2978,黔南布依族苗族自治州,沙坝,,25,,20,17,16,44,,40,40,10,10,3,4,0.6,0.7
2025-10-31T1900,2589A,104.9022,25.0925,黔西南布依族苗族自治州,场坝街,细颗粒物(PM2.5),53,46,28,37,15,37,,47,46,12,12,5,5,0.6,0.6
2025-10-31T1900,2590A,104.8811,25.0992,黔西南布依族苗族自治州,坪东大道,细颗粒物(PM2.5),60,51,27,43,19,33,,46,46,12,11,2,2,0.5,0.6
2025-10-31T1900,2502A,108.6236,21.9667,钦州市,市环保站,,39,34,28,27,22,46,,58,57,12,11,3,2,1.0,0.8
2025-10-31T1900,2503A,108.6549,21.9481,钦州市,沙埠小学,,40,40,34,25,24,46,,61,60,15,11,3,3,0.8,1
2025-10-31T1900,2504A,108.5989,21.7431,钦州市,港区一小,,40,38,37,28,29,39,,51,51,20,21,3,5,0.7,0.7
2025-10-31T1900,3404A,108.5959,21.9633,钦州市,北职校,,32,28,28,22,24,45,,54,53,7,7,4,4,0.6,0.7
2025-10-31T1900,1043A,119.7493,40.0116,秦皇岛市,第一关,细颗粒物(PM2.5),93,89,31,69,21,10,,67,56,80,41,8,7,1.4,0.5
2025-10-31T1900,1044A,119.5897,39.9499,秦皇岛市,监测站,细颗粒物(PM2.5),65,75,44,47,18,46,,64,64,44,37,8,8,0.9,0.5
2025-10-31T1900,1046A,119.5251,39.9041,秦皇岛市,建设大厦,细颗粒物(PM2.5),72,72,42,52,21,41,,67,63,42,35,5,5,0.8,0.4
2025-10-31T1900,3132A,119.610547,39.943889,秦皇岛市,文明里,颗粒物(PM10),59,68,40,38,14,41,,57,57,43,35,8,9,0.8,0.4
2025-10-31T1900,4198A,119.5090,39.8253,秦皇岛市,北戴河轮滑馆,细颗粒物(PM2.5),60,61,37,43,15,55,,63,62,26,32,3,4,0.8,0.4
2025-10-31T1900,1307A,120.6659,36.2403,青岛市,仰口,,,,,,,,,,,,,,,,
2025-10-31T1900,1310A,120.4134,36.0658,青岛市,市南区东部子站,,48,48,27,27,16,86,,92,92,15,10,7,7,0.5,0.3
2025-10-31T1900,1311A,120.3664,36.1032,青岛市,四方区子站,,42,41,22,29,19,85,,93,93,14,15,3,3,0.3,0.3
2025-10-31T1900,1312A,120.2994,36.054,青岛市,市南区西部子站,,39,39,26,17,15,86,,86,86,19,20,7,7,0.5,0.5
2025-10-31T1900,1313A,120.4581,36.0858,青岛市,崂山区子站,颗粒物(PM10),51,51,22,24,12,84,,92,92,22,16,8,8,0.5,0.4
2025-10-31T1900,1315A,120.3999,36.3083,青岛市,城阳区子站,,48,48,30,22,16,82,,98,98,21,22,4,4,0.5,0.5
2025-10-31T1900,3362A,120.5014,36.4034,青岛市,即墨2号,,46,46,23,27,16,73,,86,86,27,20,5,4,0.5,0.4
2025-10-31T1900,3642A,120.3503,36.0736,青岛市,市北区南部,,43,43,25,27,15,71,,83,83,30,21,6,5,0.4,0.3
2025-10-31T1900,3643A,120.3948,36.1805,青岛市,李沧区北部,颗粒物(PM10),54,58,26,34,21,66,,90,87,34,20,6,6,0.5,0.4
2025-10-31T1900,4290A,120.1969,35.9546,青岛市,珠江路669号,颗粒物(PM10),52,53,26,29,21,69,,92,92,38,24,8,8,0.4,0.4
2025-10-31T1900,4291A,120.0424,35.8656,青岛市,黄岛区人民政府广场,颗粒物(PM10),51,51,34,27,21,83,,91,91,24,28,6,5,0.8,0.8
2025-10-31T1900,1702A,113.0426,23.691,清远市,环保大楼,,,,,,,,,,,,,,,,
2025-10-31T1900,1703A,113.0208,23.7106,清远市,凤城街办,,25,25,31,16,24,48,,52,52,19,20,7,6,0.9,0.9
2025-10-31T1900,3025A,113.0477,23.6344,清远市,技师学院,,22,22,30,15,21,53,,62,62,17,22,5,4,0.7,0.5
2025-10-31T1900,3318A,112.9903,23.7403,清远市,清新太和,,23,20,28,16,23,65,,62,62,8,15,7,6,0.8,0.8
2025-10-31T1900,3455A,113.076,23.7198,清远市,清城东城,,20,18,26,14,20,58,,63,63,13,12,8,6,1.0,0.8
2025-10-31T1900,2661A,107.6325,35.7357,庆阳市,庆阳五中,颗粒物(PM10),67,83,55,31,21,31,,83,78,58,17,2,2,0.9,0.5
2025-10-31T1900,2662A,107.6364,35.7067,庆阳市,市环保局,颗粒物(PM10),61,72,55,39,20,44,,95,90,43,16,3,4,0.6,0.3
2025-10-31T1900,1916A,103.7897,25.5035,曲靖市,环境监测站,颗粒物(PM10),54,58,30,24,16,11,,48,47,18,15,8,4,0.8,0.6
2025-10-31T1900,1917A,103.8,25.5364,曲靖市,烟厂办公区,,50,50,32,26,18,13,,46,45,20,16,10,5,0.6,0.5
2025-10-31T1900,3376A,103.7947,25.462,曲靖市,南苑二区,,38,38,29,17,17,15,,59,57,18,12,5,4,0.9,0.7
2025-10-31T1900,3377A,103.7444,25.5261,曲靖市,曲靖师范学院,,49,49,29,25,22,12,,60,56,17,12,5,3,0.7,0.4
2025-10-31T1900,1264A,118.8692,28.9398,衢州市,环保大楼,,20,20,34,10,22,31,,42,42,31,22,4,5,0.6,0.5
2025-10-31T1900,1265A,118.8709,28.9666,衢州市,实验学校,,16,16,27,10,22,33,,44,44,29,25,3,4,0.6,0.4
2025-10-31T1900,1266A,118.8621,28.9808,衢州市,衢州学院,,17,17,28,10,19,24,,43,43,32,22,5,5,0.5,0.4
2025-10-31T1900,1611A,118.5819,24.9117,泉州市,涂山街,,34,34,36,15,22,89,,91,91,12,17,4,4,0.5,0.4
2025-10-31T1900,1612A,118.5972,24.8978,泉州市,津头埔,,29,29,34,16,23,84,,90,90,18,24,4,4,0.5,0.5
2025-10-31T1900,1613A,118.6663,24.9424,泉州市,万安,,40,40,43,13,22,86,,97,97,10,21,3,4,0.6,0.6
2025-10-31T1900,1614A,118.6117,24.9604,泉州市,清源山,,34,34,25,23,24,86,,84,84,10,9,2,2,0.7,0.6
2025-10-31T1900,3529A,118.6333,24.9264,泉州市,城华南路,,27,25,35,13,21,84,,86,86,15,19,4,4,0.4,0.4
2025-10-31T1900,2626A,88.8876,29.2718,日喀则市,日喀则监测站,,,10,7,3,2,47,,55,55,12,7,,14,0.4,0.5
2025-10-31T1900,3726A,88.8781,29.2426,日喀则市,林业技术推广中心,,17,14,9,3,2,52,,56,56,6,6,7,6,0.3,0.3
2025-10-31T1900,1659A,119.471,35.4209,日照市,监测站,细颗粒物(PM2.5),82,97,43,60,29,13,,73,69,75,42,7,7,0.9,0.7
2025-10-31T1900,1660A,119.523,35.4216,日照市,市政府广场,细颗粒物(PM2.5),68,73,39,49,25,76,,79,79,31,29,7,7,0.9,0.8
2025-10-31T1900,1661A,119.5587,35.4044,日照市,港务局,细颗粒物(PM2.5),72,73,38,52,34,62,,79,79,30,29,7,8,0.8,0.8
2025-10-31T1900,3507A,119.5328,35.4625,日照市,职业技术学院,细颗粒物(PM2.5),62,68,41,44,27,87,,82,82,24,29,4,5,0.8,0.9
2025-10-31T1900,3604A,119.3266,35.1044,日照市,岚山环保分局,细颗粒物(PM2.5),59,61,36,42,22,53,,88,81,34,36,8,10,1.1,1
2025-10-31T1900,1835A,111.1922,34.7752,三门峡市,市政府,颗粒物(PM10),62,73,93,37,55,24,,63,63,78,36,8,7,0.8,0.7
2025-10-31T1900,1836A,111.1587,34.7942,三门峡市,开发区,细颗粒物(PM2.5),68,69,110,49,83,69,,70,70,38,35,6,5,0.4,0.6
2025-10-31T1900,1838A,111.143,34.7955,三门峡市,风景区,,,38,75,22,45,77,,71,71,,24,,6,0.6,0.9
2025-10-31T1900,3039A,111.1911,34.7829,三门峡市,三门峡市第一小学,颗粒物(PM10),63,76,102,32,54,46,,71,71,60,33,9,9,0.8,0.8
2025-10-31T1900,3598A,111.1,34.7167,三门峡市,富达温泉假日酒店,细颗粒物(PM2.5),107,101,113,80,81,74,,68,68,31,29,10,10,0.5,0.6
2025-10-31T1900,2324A,117.6211,26.2625,三明市,三钢,,43,36,28,30,28,41,,68,64,24,13,1,5,0.8,0.6
2025-10-31T1900,2325A,117.635,26.2714,三明市,三明二中,,,28,26,25,22,32,,65,62,,9,2,5,,0.5
2025-10-31T1900,2326A,117.6028,26.2378,三明市,三元区政府,,39,39,25,24,17,36,,68,64,24,13,4,7,1.0,1.1
2025-10-31T1900,2327A,117.7275,26.3108,三明市,洋溪,,45,,21,31,23,40,,67,66,13,11,9,11,1.4,1.2
2025-10-31T1900,1876A,109.5078,18.2489,三亚市,河东子站,,33,33,14,16,9,84,,78,78,9,6,4,3,0.4,0.4
2025-10-31T1900,1877A,109.4964,18.2681,三亚市,河西子站,,28,27,17,15,7,87,,81,81,6,5,7,7,0.4,0.4
2025-10-31T1900,3540A,109.7348,18.3443,三亚市,君悦子站,,39,37,19,27,9,89,,86,86,7,5,4,5,0.6,0.5
