timepoint,stationcode,longitude,latitude,area,positionname,primarypollutant,aqi,pm10,pm10_24h,pm2_5,pm2_5_24h,o3,o3_24h,o3_8h,o3_8h_24h,no2,no2_24h,so2,so2_24h,co,co_24h
2025-10-31T1600,2566A,102.1879,31.914,阿坝藏族羌族自治州,州农科所,,,,,,,,,,,,,,,,
2025-10-31T1600,2568A,102.2502,31.8896,阿坝藏族羌族自治州,马师校,,16,13,17,9,14,50,,22,22,9,19,8,8,0.6,0.6
2025-10-31T1600,3994A,102.2165,31.9024,阿坝藏族羌族自治州,马尔康中学西区,,25,,13,17,11,59,,32,32,6,16,5,5,0.5,0.5
2025-10-31T1600,2695A,80.292,41.1694,阿克苏地区,电视台,,,103,152,22,43,85,,45,45,,40,6,7,0.2,1.1
2025-10-31T1600,2696A,80.2613,41.1551,阿克苏地区,艺术中心,颗粒物(PM10),86,121,145,32,55,95,,53,53,7,38,4,4,0.4,0.8
2025-10-31T1600,2204A,105.6467,38.8363,阿拉善盟,西城区西花园,,,,,,,,,,,,,,,,
2025-10-31T1600,2205A,105.6985,38.8411,阿拉善盟,蒙二幼,,32,22,36,8,12,102,,94,94,7,11,8,8,0.5,0.6
2025-10-31T1600,2206A,105.724,38.8516,阿拉善盟,环保局新楼,,29,19,28,8,12,91,,96,93,4,6,8,8,0.4,0.5
2025-10-31T1600,2708A,88.1264,47.8517,阿勒泰地区,市站,,24,24,60,3,11,71,,50,50,17,27,6,6,0.1,0.3
2025-10-31T1600,2630A,80.1161,32.5,阿里地区,阿里监测站,,30,6,3,3,3,94,,76,76,2,12,7,10,0.2,0.3
2025-10-31T1600,3192A,80.0903,32.5028,阿里地区,阿里藏医院,,32,,16,3,7,102,,75,75,1,10,8,10,0.3,0.4
2025-10-31T1600,2642A,109.0318,32.6537,安康市,香溪洞,,,,,,,,,,,,,,,,
2025-10-31T1600,2644A,109.0072,32.6975,安康市,汉滨区检察院,,29,29,19,18,10,20,,12,12,16,13,2,2,0.6,0.5
2025-10-31T1600,4054A,109.0325,32.6913,安康市,市邮政管理局,,30,30,22,15,14,15,,11,11,18,16,7,6,0.6,0.6
2025-10-31T1600,2291A,117.0809,30.5177,安庆市,环科院,,33,18,19,16,15,104,,80,80,4,22,3,3,0.3,0.5
2025-10-31T1600,2292A,117.0331,30.5119,安庆市,马山宾馆,,33,18,20,15,17,104,,72,72,7,27,2,3,0.3,0.5
2025-10-31T1600,2294A,116.9896,30.6145,安庆市,安庆大学,,32,23,16,18,12,102,,84,84,6,9,5,5,0.2,0.3
2025-10-31T1600,3173A,117.0598,30.5351,安庆市,市人大,,34,20,20,15,14,106,,81,81,9,23,6,7,0.3,0.4
2025-10-31T1600,3122A,105.9606,26.2611,安顺市,伍家关,,,,39,15,20,58,,48,48,7,14,8,14,0.3,0.4
2025-10-31T1600,3123A,105.9408,26.2431,安顺市,凤凰山,,19,19,33,10,31,50,,42,42,10,15,14,18,0.5,0.5
2025-10-31T1600,3124A,105.9439,26.2564,安顺市,金钟山,,22,22,27,12,26,54,,45,45,6,13,10,15,0.5,0.8
2025-10-31T1600,3125A,105.8983,26.2481,安顺市,娄家坡,,15,15,34,9,30,48,,41,41,9,14,7,17,0.6,0.7
2025-10-31T1600,1818A,114.4839,36.0621,安阳市,棉研所,,,,,,,,,,,,,,,,
2025-10-31T1600,1819A,114.3551,36.1017,安阳市,红庙街,细颗粒物(PM2.5),209,166,173,159,162,78,,46,46,29,31,4,3,1.2,1.3
2025-10-31T1600,1820A,114.361,36.0681,安阳市,银杏小区,细颗粒物(PM2.5),232,,180,182,173,81,,49,49,30,31,4,4,1.3,1.4
2025-10-31T1600,3141A,114.3922,36.0878,安阳市,信访局,细颗粒物(PM2.5),216,180,199,166,164,81,,49,49,32,28,4,3,1.1,1.1
2025-10-31T1600,3669A,114.4705,36.0637,安阳市,左辅环卫站,细颗粒物(PM2.5),186,210,226,140,148,82,,52,52,35,37,3,2,1.3,1.1
2025-10-31T1600,3703A,114.2917,36.0949,安阳市,安钢职工学校,细颗粒物(PM2.5),249,,197,199,176,82,,48,48,23,28,5,5,1.3,1.4
2025-10-31T1600,1748A,123.044,41.1196,鞍山市,深沟寺,,40,40,63,20,32,61,,44,44,29,49,10,21,0.6,0.9
2025-10-31T1600,1749A,123.011,41.0931,鞍山市,太阳城,,38,38,47,18,26,62,,45,45,27,40,15,39,0.5,0.7
2025-10-31T1600,1750A,123.0485,41.1442,鞍山市,太平,,44,44,96,19,45,61,,41,41,31,48,11,29,0.6,1.1
2025-10-31T1600,1751A,122.9642,41.0971,鞍山市,铁西三道街,,,,93,,49,,,11,,,54,,33,,1.7
2025-10-31T1600,1753A,123.022,41.0821,鞍山市,明达新区,,35,35,43,18,22,60,,45,45,21,31,12,28,0.4,0.7
2025-10-31T1600,1754A,123.1289,41.0228,鞍山市,千山,,,,19,,15,,,44,,,23,,6,,0.3
2025-10-31T1600,4201A,122.9446,41.0826,鞍山市,兴盛南路290号,,40,40,80,19,45,60,,45,45,40,55,19,43,0.7,1.9
2025-10-31T1600,2195A,107.4212,40.761,巴彦淖尔市,附二中,,44,44,66,10,33,83,,61,61,5,24,5,8,0.3,0.5
2025-10-31T1600,2196A,107.37,40.7372,巴彦淖尔市,市环保大楼,,38,38,76,11,32,88,,66,66,6,25,7,9,0.4,0.5
2025-10-31T1600,1956A,86.1472,41.7538,巴音郭楞蒙古自治州,孔雀公园,,,,96,,31,105,,80,66,,27,,11,,0.7
2025-10-31T1600,1957A,86.1972,41.7166,巴音郭楞蒙古自治州,棉纺厂,颗粒物(PM10),90,130,115,23,28,106,,68,68,11,36,8,8,0.4,0.5
2025-10-31T1600,1958A,86.2357,41.7173,巴音郭楞蒙古自治州,经济开发区,颗粒物(PM10),84,117,97,18,27,100,,82,81,11,18,10,9,0.5,0.5
2025-10-31T1600,2914A,106.7677,31.8794,巴中市,苏山坪,,,,,,,,,,,,,,,,
2025-10-31T1600,3181A,106.7768,31.8526,巴中市,市五中,,32,31,30,22,21,21,,10,10,12,13,8,8,0.7,0.7
2025-10-31T1600,3183A,106.7418,31.8654,巴中市,圣泉水务公司,,32,31,29,22,21,24,,11,11,10,15,8,8,0.7,0.8
2025-10-31T1600,3616A,106.7616,31.8344,巴中市,市中心医院,,38,29,30,26,20,24,,11,11,11,14,10,10,0.7,0.7
2025-10-31T1600,2235A,122.7911,45.6077,白城市,洮北区环保局,,22,18,27,3,17,70,,57,57,6,15,3,5,0.2,0.3
2025-10-31T1600,2236A,122.8738,45.5725,白城市,市环保局,,22,14,32,6,16,68,,56,56,7,22,4,5,0.2,0.3
2025-10-31T1600,2231A,126.4219,41.9171,白山市,喜丰,,43,43,62,18,16,59,,34,34,20,31,10,15,0.7,0.7
2025-10-31T1600,2232A,126.4077,41.9419,白山市,环保局,,24,24,27,15,18,61,,40,40,17,21,8,8,0.7,0.6
2025-10-31T1600,2647A,104.1724,36.5446,白银市,第三小学,颗粒物(PM10),53,56,60,26,21,92,,67,67,10,21,10,9,0.2,0.3
2025-10-31T1600,2648A,104.1465,36.5482,白银市,动力公司,颗粒物(PM10),55,60,58,28,21,105,,84,84,9,18,8,8,0.4,0.4
2025-10-31T1600,2512A,106.6103,23.9011,百色市,市监测站,,20,17,32,8,19,64,,53,53,6,14,7,8,0.7,0.8
2025-10-31T1600,2513A,106.6538,23.8859,百色市,市中心血站,,22,22,38,11,25,69,,54,54,11,25,5,7,0.7,0.8
2025-10-31T1600,3406A,106.6085,23.8798,百色市,祈福高中,,21,21,39,11,23,63,,52,52,8,15,5,7,0.1,0.2
2025-10-31T1600,2270A,117.396,32.939,蚌埠市,工人疗养院,细颗粒物(PM2.5),139,161,84,106,54,124,,67,67,23,32,5,5,0.7,0.7
2025-10-31T1600,2271A,117.3605,32.9427,蚌埠市,百货大楼,细颗粒物(PM2.5),147,147,74,112,59,120,,67,67,25,39,8,7,0.5,0.6
2025-10-31T1600,2273A,117.4185,32.8911,蚌埠市,蚌埠学院,细颗粒物(PM2.5),134,119,49,102,45,131,,70,70,16,33,6,5,0.6,0.6
2025-10-31T1600,2274A,117.3533,32.9673,蚌埠市,淮上区政府,细颗粒物(PM2.5),148,139,75,113,60,131,,74,74,23,40,7,7,0.6,0.5
2025-10-31T1600,2275A,117.3145,32.8977,蚌埠市,高新区,细颗粒物(PM2.5),149,139,64,114,51,117,,66,66,28,38,7,8,0.6,0.6
2025-10-31T1600,3715A,117.3092,32.9314,蚌埠市,蚌埠田家炳中学,细颗粒物(PM2.5),142,150,73,108,44,120,,64,64,24,40,5,5,0.5,0.5
2025-10-31T1600,1585A,109.8756,40.6532,包头市,市环境监测站,,,23,35,,12,77,,75,75,11,18,6,8,0.2,0.3
2025-10-31T1600,1587A,109.9991,40.5842,包头市,包头八中,,26,20,40,6,17,81,,78,78,11,32,7,6,0.4,0.5
2025-10-31T1600,1588A,109.8538,40.6821,包头市,青山宾馆,,34,34,29,3,10,83,,79,79,8,20,8,10,0.4,0.5
2025-10-31T1600,1589A,109.8642,40.6288,包头市,惠龙物流,,26,24,29,9,11,82,,80,80,12,19,13,9,0.7,0.6
2025-10-31T1600,1590A,110.0377,40.5546,包头市,东河鸿龙湾,,26,17,37,3,12,83,,79,79,13,33,12,10,0.5,0.5
2025-10-31T1600,3283A,109.9154,40.5685,包头市,滨河大厦,,28,20,32,8,15,87,,80,80,12,27,15,10,0.4,0.4
2025-10-31T1600,3419A,109.9447,40.6261,包头市,包头市委党校,,27,8,23,3,10,85,,82,82,9,23,8,7,0.4,0.5
2025-10-31T1600,3683A,109.8331,40.6576,包头市,昆区政府,,24,12,28,9,11,76,,77,77,19,15,18,11,0.8,0.6
2025-10-31T1600,1930A,107.185,34.3063,宝鸡市,庙沟村,,,,,,,,,,,,,,,,
2025-10-31T1600,1931A,107.0708,34.3017,宝鸡市,竹园沟,,50,50,46,16,24,77,,43,43,45,24,9,8,0.3,0.3
2025-10-31T1600,1932A,107.1906,34.3672,宝鸡市,三陆医院,,50,50,66,17,43,82,,42,42,32,44,8,8,0.5,0.6
2025-10-31T1600,1933A,107.1431,34.3547,宝鸡市,监测站,颗粒物(PM10),54,58,56,18,32,75,,41,41,23,26,9,6,0.4,0.4
2025-10-31T1600,1934A,107.1186,34.3739,宝鸡市,技工学校,,48,48,57,20,41,97,,53,53,14,23,7,6,0.4,0.6
2025-10-31T1600,1936A,107.2058,34.3497,宝鸡市,文理学院,,49,49,59,16,29,86,,47,47,23,31,8,6,0.4,0.5
2025-10-31T1600,1937A,107.2386,34.3622,宝鸡市,三迪小学,颗粒物(PM10),53,55,65,16,41,90,,43,43,24,43,8,7,0.5,0.6
2025-10-31T1600,4308A,107.3898,34.3601,宝鸡市,陈仓区北开路21号,颗粒物(PM10),69,87,98,15,45,86,,39,39,25,40,8,13,0.6,0.7
2025-10-31T1600,1051A,115.493,38.8632,保定市,游泳馆,细颗粒物(PM2.5),173,134,140,131,153,63,,,,25,29,4,4,0.8,0.8
2025-10-31T1600,1052A,115.5213,38.8959,保定市,华电二区,细颗粒物(PM2.5),183,,125,138,138,66,,42,42,25,34,3,2,0.9,1
2025-10-31T1600,1053A,115.4713,38.9108,保定市,接待中心,细颗粒物(PM2.5),182,147,143,137,136,63,,46,46,22,30,4,3,0.5,0.6
2025-10-31T1600,1054A,115.4612,38.8416,保定市,地表水厂,细颗粒物(PM2.5),175,152,153,132,132,62,,44,44,29,34,8,8,0.8,0.9
2025-10-31T1600,3581A,115.31981,38.95208,保定市,满城区生态环境分局,细颗粒物(PM2.5),175,153,156,132,135,65,,51,51,24,36,3,2,0.6,0.6
2025-10-31T1600,3582A,115.47694,38.76408,保定市,清苑区第二中学,细颗粒物(PM2.5),137,124,142,104,116,78,,50,50,13,29,3,2,0.7,0.9
2025-10-31T1600,3583A,115.62909,39.02311,保定市,徐水物探局,细颗粒物(PM2.5),168,157,140,127,109,67,,32,32,26,34,10,10,0.7,0.9
2025-10-31T1600,4004A,115.4202,38.8656,保定市,双鹰农机,细颗粒物(PM2.5),180,155,150,136,136,66,,52,52,28,33,1,2,0.9,0.9
2025-10-31T1600,4034A,115.5150,38.8590,保定市,植保所站,细颗粒物(PM2.5),193,160,149,145,134,60,,41,41,25,36,4,4,0.8,1
2025-10-31T1600,2594A,99.1678,25.1081,保山市,市环境监测站,,21,14,20,14,16,66,,52,52,4,8,8,7,0.4,0.5
2025-10-31T1600,2595A,99.1711,25.1328,保山市,市环保局,,22,20,25,12,16,69,,56,56,4,6,7,6,0.5,0.5
2025-10-31T1600,1866A,109.2262,21.588,北海市,牛尾岭水库,,43,35,26,30,22,70,,52,52,11,12,2,2,0.7,0.7
2025-10-31T1600,1867A,109.1436,21.4086,北海市,海滩公园,,48,48,35,29,25,90,,66,66,10,11,6,6,1.0,0.9
2025-10-31T1600,1868A,109.0981,21.4661,北海市,新市环保局,,45,45,32,31,26,92,,67,67,10,11,4,4,0.7,0.7
2025-10-31T1600,1869A,109.1778,21.5233,北海市,北海工业园,颗粒物(PM10),53,56,38,34,27,85,,62,62,11,13,4,5,0.8,0.7
2025-10-31T1600,3400A,109.1911,21.4415,北海市,龙潭自来水厂,细颗粒物(PM2.5),55,43,34,39,28,88,,65,65,6,8,1,2,0.7,0.7
2025-10-31T1600,1001A,116.3621,39.8784,北京市,万寿西宫,细颗粒物(PM2.5),55,54,67,39,52,56,,31,31,25,30,2,2,0.6,0.9
2025-10-31T1600,1002A,116.2202,40.2915,北京市,定陵,,,,,,,,,,,,,,,,
2025-10-31T1600,1003A,116.4174,39.9289,北京市,东四,,47,47,70,30,52,61,,36,36,17,27,3,3,0.5,0.9
2025-10-31T1600,1004A,116.4072,39.8863,北京市,天坛,细颗粒物(PM2.5),52,48,57,36,47,50,,28,28,24,28,1,1,0.4,0.7
2025-10-31T1600,1005A,116.462,39.9365,北京市,农展馆,细颗粒物(PM2.5),52,49,61,36,47,60,,34,34,27,33,4,3,0.5,0.9
2025-10-31T1600,1006A,116.3392,39.9295,北京市,官园,,26,25,70,18,56,67,,38,38,16,26,3,2,0.3,0.8
2025-10-31T1600,1007A,116.2878,39.9611,北京市,海淀万柳,,21,6,78,3,62,66,,35,35,11,33,4,4,0.1,0.8
2025-10-31T1600,1008A,116.6636,40.135,北京市,顺义新城,,23,23,78,8,50,66,,40,40,15,21,3,3,0.3,0.7
2025-10-31T1600,1009A,116.6275,40.3275,北京市,怀柔镇,细颗粒物(PM2.5),73,59,66,53,56,47,,43,43,36,23,5,4,0.8,0.8
2025-10-31T1600,1010A,116.2296,40.217,北京市,昌平镇,,21,9,69,3,54,65,,44,44,23,27,5,4,0.2,0.7
2025-10-31T1600,1011A,116.3966,39.9821,北京市,奥体中心,,21,21,61,14,45,58,,37,37,19,33,4,4,0.2,0.8
2025-10-31T1600,3281A,115.9718,40.4529,北京市,延庆夏都,,25,6,78,3,55,79,,47,47,10,27,2,2,0.2,0.8
2025-10-31T1600,3418A,116.8336,40.4095,北京市,密云新城,细颗粒物(PM2.5),59,55,73,42,57,61,,53,53,18,14,2,1,0.7,0.8
2025-10-31T1600,3671A,116.088,39.9726,北京市,门头沟三家店,,25,6,103,3,73,77,,53,53,9,29,3,2,0.2,0.8
2025-10-31T1600,3672A,116.1541,39.8204,北京市,丰台云岗,颗粒物(PM10),138,225,91,77,64,53,,33,33,26,27,3,3,0.7,0.8
2025-10-31T1600,3673A,116.6804,39.9081,北京市,通州东关,细颗粒物(PM2.5),67,71,58,48,39,51,,26,26,26,27,4,3,0.6,0.7
2025-10-31T1600,3674A,115.9577,39.7603,北京市,房山燕山,细颗粒物(PM2.5),107,88,96,80,78,48,,32,32,20,33,3,3,0.6,0.7
2025-10-31T1600,3675A,116.4672,39.7733,北京市,大兴旧宫,细颗粒物(PM2.5),79,79,56,58,41,54,,34,34,22,24,2,2,0.7,0.8
2025-10-31T1600,3694A,115.986,40.4563,北京市,延庆石河营,,25,6,73,3,47,77,,44,44,5,21,2,2,0.2,0.8
2025-10-31T1600,3695A,116.6151,40.3053,北京市,怀柔新城,细颗粒物(PM2.5),57,55,69,40,55,52,,42,42,29,22,4,3,0.6,0.7
2025-10-31T1600,3696A,116.2545,39.8768,北京市,丰台小屯,,21,21,80,14,59,66,,35,35,13,24,3,3,0.4,0.9
2025-10-31T1600,3697A,116.84,40.3844,北京市,密云镇,细颗粒物(PM2.5),65,62,71,47,59,61,,52,52,2,17,6,5,0.6,0.8
2025-10-31T1600,4182A,116.1942,39.9158,北京市,八角北路9号,,23,8,100,3,64,71,,39,39,13,30,1,2,0,0.7
2025-10-31T1600,4194A,117.0790,40.1518,北京市,洳河巡河路,细颗粒物(PM2.5),75,77,76,55,54,56,,48,48,21,17,4,3,0.7,0.7
2025-10-31T1600,1761A,123.8275,41.3064,本溪市,大峪,,27,17,35,9,16,84,,50,50,12,29,10,10,0.5,0.7
2025-10-31T1600,1762A,123.7567,41.3325,本溪市,溪湖,,41,41,61,10,21,88,,54,54,13,38,13,13,0.5,0.9
2025-10-31T1600,1763A,123.7169,41.3094,本溪市,彩屯,,26,26,44,11,24,76,,48,48,19,35,8,11,0.7,0.9
2025-10-31T1600,1764A,123.7669,41.2864,本溪市,东明,,36,36,50,3,16,90,,53,53,13,39,10,11,0.7,0.9
2025-10-31T1600,1765A,123.7992,41.2664,本溪市,新立屯,,28,28,27,12,13,81,,52,52,18,42,7,8,0.2,0.3
2025-10-31T1600,1766A,123.8142,41.3472,本溪市,威宁,,27,20,55,8,20,84,,53,53,11,33,6,6,0.4,0.6
2025-10-31T1600,2587A,105.2864,27.3125,毕节市,八中,,18,9,26,3,19,55,,42,42,4,10,6,7,0.5,0.7
2025-10-31T1600,2588A,105.31,27.2944,毕节市,师专,,17,6,31,3,21,54,,40,40,6,16,7,9,0.6,0.7
2025-10-31T1600,4263A,105.3688,27.3598,毕节市,工业大道,,19,6,21,3,14,58,,46,46,5,9,8,12,0.5,0.6
2025-10-31T1600,1629A,118.0018,37.3617,滨州市,第二水厂,细颗粒物(PM2.5),64,73,65,46,38,68,,60,60,17,30,5,11,0.5,0.5
2025-10-31T1600,1630A,117.9776,37.393,滨州市,北中新校,细颗粒物(PM2.5),67,66,63,48,36,71,,58,58,17,36,4,6,0.3,0.4
2025-10-31T1600,3514A,117.9378,37.3956,滨州市,中海酒店,细颗粒物(PM2.5),73,73,58,53,39,67,,49,49,52,64,4,5,0.6,0.6
2025-10-31T1600,3515A,117.9378,37.3553,滨州市,开发区一中,细颗粒物(PM2.5),73,83,70,53,41,73,,65,65,24,32,6,13,0.5,0.6
2025-10-31T1600,3516A,118.0917,37.694,滨州市,金海六路,,46,46,53,31,32,67,,70,70,19,23,5,6,0.4,0.2
2025-10-31T1600,4028A,117.9956,37.3753,滨州市,滨州市西街道办事处,细颗粒物(PM2.5),70,68,57,51,44,75,,65,65,18,29,5,10,0.4,0.5
2025-10-31T1600,2311A,115.8072,33.8399,亳州市,污水处理厂,细颗粒物(PM2.5),186,183,141,140,107,91,,59,59,26,39,2,6,1.0,0.8
2025-10-31T1600,2312A,115.7789,33.8518,亳州市,三国揽胜宫,细颗粒物(PM2.5),147,161,124,112,111,94,,75,75,25,31,2,7,0.9,0.8
2025-10-31T1600,3332A,115.7633,33.8034,亳州市,亳州学院,细颗粒物(PM2.5),173,174,152,131,111,101,,64,64,18,28,6,6,1.0,0.8
2025-10-31T1600,2693A,82.0485,44.8556,博尔塔拉蒙古自治州,市党校,,34,34,49,22,35,54,,54,48,11,19,3,4,0.5,0.6
2025-10-31T1600,2694A,82.0806,44.8969,博尔塔拉蒙古自治州,市环保局,颗粒物(PM10),51,52,63,14,19,55,,55,52,15,19,6,4,0.2,0.4
2025-10-31T1600,1071A,116.8842,38.2991,沧州市,沧县城建局,细颗粒物(PM2.5),65,62,67,47,47,41,,23,23,23,27,3,3,0.6,0.7
2025-10-31T1600,1072A,116.8584,38.3254,沧州市,电视转播站,细颗粒物(PM2.5),83,61,63,61,44,43,,19,19,23,31,5,3,0.6,0.7
2025-10-31T1600,1073A,116.8709,38.3228,沧州市,市环保局,细颗粒物(PM2.5),79,60,68,58,54,46,,21,21,25,32,3,4,0.5,0.6
2025-10-31T1600,3324A,116.8136,38.3004,沧州市,河北水利电力学院,细颗粒物(PM2.5),63,68,57,45,38,37,,23,23,26,29,5,6,0.6,0.6
2025-10-31T1600,2622A,97.1806,31.1273,昌都市,昌都监测站,,,10,46,3,22,87,,56,56,,28,3,4,0.2,0.8
2025-10-31T1600,3719A,97.1714,31.1406,昌都市,昌都会议中心,,29,6,17,3,10,92,,60,60,2,8,3,4,0.1,0.3
2025-10-31T1600,2690A,88.1236,43.8886,昌吉回族自治州,天山天池,,,,,,,,,,,,,,,,
2025-10-31T1600,2692A,87.2717,44.0297,昌吉回族自治州,新区政务中心,颗粒物(PM10),55,60,65,15,23,68,,38,38,17,38,9,5,0.4,0.6
2025-10-31T1600,3613A,87.3095,44.0142,昌吉回族自治州,亚心广场,颗粒物(PM10),57,63,68,24,20,69,,42,42,16,32,11,8,0.4,0.5
2025-10-31T1600,1120A,125.2863,43.9027,长春市,客车厂,细颗粒物(PM2.5),52,38,50,36,36,77,,60,60,21,37,7,10,0.3,0.5
2025-10-31T1600,1121A,125.2841,43.8463,长春市,邮电学院,,32,32,56,16,36,76,,62,62,15,30,7,8,0.3,0.6
2025-10-31T1600,1122A,125.3716,43.8772,长春市,劳动公园,,29,29,48,14,25,77,,60,60,16,36,9,10,0.4,0.7
2025-10-31T1600,1123A,125.3297,43.8805,长春市,园林处,,37,37,47,19,29,73,,56,56,17,36,5,7,0.1,0.3
2025-10-31T1600,1124A,125.4605,43.79,长春市,净月潭,,24,24,30,9,15,74,,65,65,10,16,6,6,0.3,0.4
2025-10-31T1600,1125A,125.7194,43.515,长春市,甩湾子,,26,17,37,8,24,82,,64,64,9,25,4,5,0.2,0.5
2025-10-31T1600,1126A,125.3863,43.8447,长春市,经开区环卫处,,27,27,46,14,25,70,,54,54,18,38,7,6,0.3,0.6
2025-10-31T1600,1127A,125.245,43.7783,长春市,高新区管委会,,34,34,55,17,38,78,,63,63,16,34,7,7,0.3,0.5
2025-10-31T1600,1128A,125.1761,43.8325,长春市,岱山公园,,28,24,68,19,44,74,,60,60,10,41,6,8,0.2,0.5
2025-10-31T1600,4281A,125.3346,43.9164,长春市,北亚泰大街1068号,,40,35,51,28,33,70,,56,56,26,45,7,8,0.4,0.6
2025-10-31T1600,1335A,113.0833,28.2325,长沙市,经开区环保局,,28,28,58,16,68,80,,68,68,11,18,4,4,0.4,0.6
2025-10-31T1600,1336A,112.8872,28.2189,长沙市,高开区环保局,,36,35,64,25,75,84,,71,71,16,19,5,5,0.4,0.5
2025-10-31T1600,1337A,113.0792,28.2053,长沙市,马坡岭,,42,42,60,22,52,80,,71,71,15,16,5,4,0.5,0.7
2025-10-31T1600,1338A,112.9394,28.19,长沙市,湖南师范大学,,38,38,62,19,51,86,,81,81,16,19,5,5,0.3,0.5
2025-10-31T1600,1339A,113.0178,28.1322,长沙市,雨花区环保局,,45,38,58,31,70,81,,77,77,12,15,6,6,0.5,0.7
2025-10-31T1600,1340A,112.9792,28.2597,长沙市,伍家岭,,46,37,68,32,71,80,,73,73,15,16,4,4,0.3,0.4
2025-10-31T1600,1341A,113.0014,28.1944,长沙市,火车新站,,49,49,62,34,61,86,,81,81,16,18,9,9,0.5,0.6
2025-10-31T1600,1342A,112.9844,28.1178,长沙市,天心区环保局,,39,39,64,27,52,89,,84,84,16,17,5,5,0.5,0.6
2025-10-31T1600,1343A,112.8908,28.1308,长沙市,湖南中医药大学,,44,44,59,22,44,83,,76,76,15,17,4,4,0.5,0.7
2025-10-31T1600,1344A,112.9581,28.3611,长沙市,沙坪,,,,,,,,,,,,,,,,
2025-10-31T1600,1727A,113.1147,36.1547,长治市,清华站,,34,24,71,7,62,108,,72,72,14,26,10,10,0.3,1.1
2025-10-31T1600,1730A,113.0886,36.2125,长治市,审计局,,31,23,66,9,65,97,,65,65,14,33,8,9,0.3,1.3
2025-10-31T1600,1731A,113.0844,36.1856,长治市,长治八中,,35,35,88,14,69,101,,66,66,6,25,8,9,0.3,1.1
2025-10-31T1600,2845A,113.1569,36.1911,长治市,德盛苑,,34,29,74,9,68,106,,73,73,11,18,7,6,0.4,1.1
2025-10-31T1600,3568A,113.06,36.0464,长治市,向阳小学,,43,43,106,23,72,109,,76,76,14,29,7,14,0.4,1.2
2025-10-31T1600,3569A,112.8792,36.3144,长治市,屯留一中,,32,24,68,14,49,100,,68,68,8,22,11,12,0.3,0.9
2025-10-31T1600,4189A,113.1131,36.19948,长治市,英华南巷50号,,35,31,84,14,70,109,,22,,15,28,8,7,0.3,1.5
2025-10-31T1600,4190A,113.2367,36.3344,长治市,学府街1号,,49,49,87,10,73,94,,65,65,14,27,6,7,0.4,1.6
2025-10-31T1600,1854A,111.6975,28.9703,常德市,市二中,细颗粒物(PM2.5),68,52,37,49,28,94,,60,60,9,14,5,4,0.8,0.8
2025-10-31T1600,1857A,111.7158,29.1456,常德市,白鹤山,,,,,,,,,,,,,,,,
2025-10-31T1600,3138A,111.7153,29.0289,常德市,武陵区永安,细颗粒物(PM2.5),59,54,47,42,33,100,,63,63,7,18,4,4,0.7,0.8
2025-10-31T1600,3139A,111.6892,28.9881,常德市,鼎城区玉霞,细颗粒物(PM2.5),72,65,40,52,31,100,,60,60,8,16,5,5,0.5,0.5
2025-10-31T1600,3140A,111.6625,29.0531,常德市,武陵区长庚,细颗粒物(PM2.5),67,52,49,48,35,94,,54,54,11,23,3,3,0.5,0.5
2025-10-31T1600,1196A,119.9633,31.762,常州市,市监测站,,32,32,40,17,16,96,,71,71,13,23,8,9,0.5,0.6
2025-10-31T1600,1200A,119.9468,31.7069,常州市,武进监测站,,30,23,35,11,10,93,,76,76,13,26,8,10,0.4,0.6
2025-10-31T1600,1201A,119.9255,31.9087,常州市,安家,,30,26,33,12,13,94,,67,67,11,25,9,8,0.7,0.6
2025-10-31T1600,3002A,119.9805,31.8174,常州市,行政中心,,29,23,26,13,16,90,,63,63,19,28,5,6,0.4,0.4
2025-10-31T1600,3003A,120.0522,31.7748,常州市,经开区,,30,25,35,11,13,95,,68,68,15,29,6,8,0.7,0.7
2025-10-31T1600,3010A,119.9025,31.7964,常州市,钟楼,,33,33,37,17,17,90,,68,68,19,27,8,8,0.6,0.7
2025-10-31T1600,3429A,119.8598,31.7066,常州市,武进经发区,,28,20,30,14,17,88,,77,77,19,33,7,7,0.7,0.8
2025-10-31T1600,3430A,119.5826,31.7245,常州市,金坛城区,,28,23,16,13,15,89,,78,78,13,19,5,5,0.6,0.6
2025-10-31T1600,2220A,120.4318,41.5881,朝阳市,西梁,,,44,75,20,38,71,,48,48,,41,13,11,0.7,1
2025-10-31T1600,2221A,120.4521,41.5646,朝阳市,河畔小区,,32,32,55,22,28,77,,57,57,18,33,10,8,0.5,0.7
2025-10-31T1600,2222A,120.4176,41.5648,朝阳市,八里堡,,40,40,73,24,39,69,,50,50,24,40,15,12,0.6,1
2025-10-31T1600,2223A,120.3806,41.5969,朝阳市,农业园区,,39,34,50,27,28,75,,61,61,23,40,16,12,0.8,0.7
2025-10-31T1600,1705A,116.6367,23.6719,潮州市,西园路,,,,,,,,,,,,,,,,
2025-10-31T1600,3026A,116.6183,23.6608,潮州市,市政府,"颗粒物(PM10),细颗粒物(PM2.5)",53,56,26,37,16,102,,81,81,16,5,5,3,0.4,0.4
2025-10-31T1600,4036A,116.6461,23.6761,潮州市,金山,,36,36,26,23,18,110,,77,77,12,8,4,2,0.6,0.5
2025-10-31T1600,2472A,113.0073,25.9061,郴州市,马头岭,,,,,,,,,,,,,,,,
2025-10-31T1600,2473A,113.0116,25.8226,郴州市,市职中,细颗粒物(PM2.5),53,54,52,37,50,62,,56,56,13,11,2,2,0.7,0.7
2025-10-31T1600,2475A,113.0383,25.8071,郴州市,市审计局,细颗粒物(PM2.5),52,45,53,36,49,61,,58,58,11,10,10,8,0.3,0.5
2025-10-31T1600,2476A,113.0348,25.7759,郴州市,市环保局,细颗粒物(PM2.5),60,54,57,43,45,59,,52,52,16,14,3,2,0.5,0.6
2025-10-31T1600,4252A,113.0138,25.8011,郴州市,好美居路49号,,50,45,46,35,39,68,,64,64,18,15,2,2,0.6,0.8
2025-10-31T1600,1431A,103.9728,30.7236,成都市,金泉两河,,48,,37,33,32,25,,24,24,25,29,2,2,0.6,0.6
2025-10-31T1600,1432A,104.176,30.6872,成都市,十里店,细颗粒物(PM2.5),80,67,57,59,48,50,,33,33,22,26,2,3,0.5,0.5
2025-10-31T1600,1433A,104.079,30.5706,成都市,三瓦窑,细颗粒物(PM2.5),64,48,52,46,47,43,,30,23,28,29,3,3,0.7,0.6
2025-10-31T1600,1434A,104.1114,30.63,成都市,沙河铺,细颗粒物(PM2.5),93,71,57,69,53,33,,21,19,37,33,4,4,0.5,0.5
2025-10-31T1600,1437A,104.0786,30.6531,成都市,君平街,细颗粒物(PM2.5),73,,48,53,55,32,,24,24,23,24,4,4,0.6,0.6
2025-10-31T1600,1438A,103.613,31.0283,成都市,灵岩寺,,,,,,,,,,,,,,,,
2025-10-31T1600,2880A,104.0239,30.65639,成都市,大石西路,细颗粒物(PM2.5),54,40,36,38,36,34,,24,24,30,27,3,2,0.7,0.7
2025-10-31T1600,3136A,104.2725,30.5589,成都市,龙泉驿区区政府,,39,,21,27,17,29,,45,26,34,23,5,5,0.6,0.5
2025-10-31T1600,3357A,104.0106,30.6931,成都市,金博路,,38,38,41,19,28,34,,22,22,25,28,5,5,0.6,0.6
2025-10-31T1600,3359A,104.0578,30.5225,成都市,华阳,,49,,33,34,31,51,,34,34,26,26,4,4,0.4,0.4
2025-10-31T1600,3488A,104.3880,30.7467,成都市,青石路225号,细颗粒物(PM2.5),75,61,45,55,33,45,,21,21,30,25,5,5,0.7,0.7
2025-10-31T1600,3489A,104.0789,30.4072,成都市,科学城,,36,31,28,25,22,51,,38,36,18,16,4,4,0.5,0.5
2025-10-31T1600,4011A,103.8506,30.6947,成都市,光华大道三段,,46,43,54,32,36,43,,33,33,20,29,1,1,0.7,0.8
2025-10-31T1600,4224A,104.2433,30.5353,成都市,鲸龙路1057号,,45,40,31,31,24,35,,24,24,32,29,5,5,0.6,0.6
2025-10-31T1600,1062A,117.9531,40.9081,承德市,铁路,,40,40,64,20,37,60,,39,39,31,44,13,5,0.8,0.6
2025-10-31T1600,1063A,117.9392,40.9763,承德市,中国银行,,29,29,53,7,31,68,,43,43,19,32,12,4,0.6,0.5
2025-10-31T1600,1064A,117.9503,40.928,承德市,开发区,颗粒物(PM10),60,69,80,41,39,57,,37,37,32,46,18,7,1.0,0.5
2025-10-31T1600,1066A,117.9268,41.0026,承德市,离宫,,,,,,,,,,,,,,,,
2025-10-31T1600,4274A,117.7994,40.9605,承德市,滨河大街98号,,38,37,48,26,36,70,,42,42,19,37,24,7,0.4,0.6
2025-10-31T1600,2314A,117.47,30.6618,池州市,池州学院,,33,29,28,23,22,92,,72,72,12,19,5,5,0.5,0.6
2025-10-31T1600,3237A,117.4918,30.6617,池州市,展览馆,,35,26,27,24,21,94,,70,70,13,20,4,4,0.5,0.6
2025-10-31T1600,3333A,117.5627,30.695,池州市,第八中学,,30,25,29,21,21,93,,68,68,11,20,6,6,0.5,0.7
2025-10-31T1600,3334A,117.5038,30.6243,池州市,第十二中学,,30,24,23,18,20,93,,72,72,16,23,5,5,0.6,0.8
2025-10-31T1600,1744A,118.9233,42.2816,赤峰市,松山一中,,24,8,50,3,23,76,,52,52,16,43,6,17,0.3,0.7
2025-10-31T1600,1745A,118.9576,42.2728,赤峰市,哈达街,,22,6,51,3,26,68,,50,50,16,39,8,23,0.4,0.7
2025-10-31T1600,1746A,118.8788,42.2554,赤峰市,天义路,,23,13,40,11,32,72,,54,54,14,38,6,18,0.6,0.3
2025-10-31T1600,3058A,119.2658,42.0353,赤峰市,银河街,,24,24,73,3,35,64,,46,46,4,28,6,19,0.2,0.7
2025-10-31T1600,3286A,118.9359,42.3147,赤峰市,桥北物流园区,,23,14,35,6,26,73,,59,59,11,35,7,11,0.3,0.6
2025-10-31T1600,2521A,107.3476,22.4136,崇左市,市环保局江州分局,,23,22,24,16,16,53,,49,49,9,7,4,3,0.8,0.8
2025-10-31T1600,4256A,107.3750,22.3736,崇左市,石景林东路7号,,24,24,20,16,15,54,,52,51,7,7,6,6,0.7,0.8
2025-10-31T1600,2298A,118.3093,32.3153,滁州市,老年大学,细颗粒物(PM2.5),53,48,27,37,26,102,,76,76,5,15,10,11,0.3,0.2
2025-10-31T1600,2299A,118.3244,32.2786,滁州市,人大宾馆,细颗粒物(PM2.5),58,43,24,41,26,101,,77,77,6,18,4,5,0.2,0.3
2025-10-31T1600,3207A,118.3118,32.3038,滁州市,市政府原办公楼,细颗粒物(PM2.5),60,51,30,43,29,106,,81,81,8,20,5,6,0.5,0.5
2025-10-31T1600,3331A,118.3267,32.2634,滁州市,图书馆,,50,35,25,35,20,103,,78,78,6,19,6,7,0.3,0.4
2025-10-31T1600,2605A,101.5482,25.0441,楚雄彝族自治州,州环境监测站,,16,14,17,11,13,40,,39,39,2,4,7,7,0.6,0.6
2025-10-31T1600,2606A,101.538,25.0492,楚雄彝族自治州,市经济开发区,,18,16,22,12,15,40,,39,39,5,5,6,6,0.6,0.7
2025-10-31T1600,2548A,107.5277,31.2827,达州市,达州职业技术学院,,,,,,,,,,,,,,,,
2025-10-31T1600,2549A,107.5086,31.2186,达州市,市环境监测站,,34,34,33,14,17,2,,2,2,27,26,8,6,0.5,0.5
2025-10-31T1600,2550A,107.4988,31.2132,达州市,凤凰小区,,31,31,33,17,18,18,,14,14,22,25,7,5,0.4,0.4
2025-10-31T1600,2551A,107.5082,31.1986,达州市,达县机关宾馆,,39,39,34,3,5,14,,12,12,26,27,7,6,0.4,0.5
2025-10-31T1600,2552A,107.4644,31.2124,达州市,市政中心,,42,42,45,22,18,12,,10,10,27,28,8,6,0.5,0.5
2025-10-31T1600,2614A,100.1542,25.7054,大理白族自治州,大理市环境监测站,,19,11,17,8,11,60,,50,50,5,7,5,5,0.4,0.5
2025-10-31T1600,2615A,100.2171,25.5811,大理白族自治州,大理古城,,18,17,25,3,13,57,,47,47,4,11,7,7,0.4,0.5
2025-10-31T1600,1109A,121.612,38.9741,大连市,甘井子,,28,28,73,9,41,78,,59,59,20,41,9,10,0.2,0.7
2025-10-31T1600,1110A,121.565,38.9511,大连市,周水子,,29,29,64,7,38,82,,60,60,19,41,8,14,0.3,0.8
2025-10-31T1600,1111A,121.5637,38.8845,大连市,星海三站,,28,28,62,6,39,74,,59,59,11,21,8,8,0.3,0.8
2025-10-31T1600,1112A,121.6302,38.9117,大连市,青泥洼桥,,23,16,72,8,40,71,,59,59,22,41,11,12,0.3,1.1
2025-10-31T1600,1113A,121.6251,38.8638,大连市,傅家庄,,22,22,66,6,48,70,,56,56,19,35,10,11,0.3,0.8
2025-10-31T1600,1114A,121.5213,38.8661,大连市,七贤岭,,26,24,68,3,39,83,,69,69,14,29,7,9,0.4,0.8
2025-10-31T1600,1115A,121.2529,38.8061,大连市,旅顺,,26,15,54,6,35,83,,71,71,15,22,8,8,0.2,0.7
2025-10-31T1600,1116A,121.7485,39.1311,大连市,金州,,26,17,59,12,40,81,,60,60,23,39,10,12,0.2,0.6
2025-10-31T1600,1117A,121.7811,39.0496,大连市,开发区,,33,33,69,10,40,65,,50,50,23,34,8,8,0.4,0.6
2025-10-31T1600,1118A,121.9762,39.0631,大连市,双D港,,26,19,48,6,38,82,,70,70,12,21,11,11,0.3,0.6
2025-10-31T1600,1789A,124.81117,46.03138,大庆市,大同区,细颗粒物(PM2.5),68,82,52,49,26,72,,44,44,21,21,9,9,0.6,0.5
2025-10-31T1600,1790A,125.129,46.533,大庆市,龙凤区,,45,45,69,15,31,40,,42,42,26,31,7,14,0.4,0.8
2025-10-31T1600,1791A,124.902,46.408,大庆市,红岗区,,39,27,48,27,30,63,,44,44,15,22,7,7,0.8,0.8
2025-10-31T1600,1792A,125.153,46.586,大庆市,萨尔图区,,30,30,68,10,42,46,,38,38,27,35,14,15,0.3,0.5
2025-10-31T1600,1793A,124.9042,46.6215,大庆市,让胡路区,,31,31,53,18,35,39,,34,34,27,30,9,8,0.4,0.6
2025-10-31T1600,3481A,125.141,46.634,大庆市,萨区政府监测点,,26,26,63,7,31,53,,38,38,14,22,11,12,0.4,0.6
2025-10-31T1600,1721A,113.3819,40.1097,大同市,果树场,,25,8,50,7,24,78,,65,65,9,36,7,12,0.3,0.8
2025-10-31T1600,1723A,113.2994,40.0758,大同市,云冈宾馆,,26,,41,12,17,83,,64,64,3,32,4,11,0.4,1.1
2025-10-31T1600,1724A,113.3444,40.0917,大同市,大同大学,,28,13,35,3,16,87,,66,66,8,34,4,15,0.3,0.7
2025-10-31T1600,1725A,113.2661,40.1269,大同市,安家小村,,26,6,54,3,18,83,,64,64,5,30,4,10,0.2,1.1
2025-10-31T1600,1726A,113.2711,40.0844,大同市,教育学院,,26,12,49,3,20,82,,64,64,9,36,3,9,0.4,0.9
2025-10-31T1600,3282A,113.3397,40.0597,大同市,大同市卫生学校,,26,6,38,3,16,82,,62,62,8,34,3,12,0.2,0.7
2025-10-31T1600,3565A,113.1367,40.1122,大同市,云冈站,,27,14,48,3,17,85,,71,71,1,27,4,12,0.2,0.5
2025-10-31T1600,3566A,113.1186,40.2556,大同市,图书馆,,25,21,42,3,17,80,,68,68,13,21,2,6,0.2,0.5
2025-10-31T1600,3567A,113.5931,40.0461,大同市,区一中,,29,10,35,3,16,91,,72,72,8,18,6,8,0.5,0.6
2025-10-31T1600,4199A,113.2798,40.0997,大同市,魏都大道141号,,27,19,52,11,21,85,,65,65,9,35,3,9,0.3,0.9
2025-10-31T1600,2269A,124.1069,50.4097,大兴安岭地区,科技局,,20,,17,14,16,48,,38,38,5,7,4,5,0.3,0.2
2025-10-31T1600,3663A,124.1164,50.4278,大兴安岭地区,红旗社区,,15,6,17,3,10,46,,36,36,9,12,5,5,0.3,0.3
2025-10-31T1600,1600A,124.3303,40.0625,丹东市,江湾东路,,23,23,44,14,33,30,,38,28,24,28,8,6,0.9,1.1
2025-10-31T1600,1601A,124.4256,40.1503,丹东市,临江后街,,15,15,41,7,24,32,,26,20,19,28,5,8,0.7,1.1
2025-10-31T1600,1602A,124.3933,40.1461,丹东市,元宝山,,19,16,37,13,29,27,,30,20,20,20,8,8,0.8,1
2025-10-31T1600,1603A,124.3633,40.1092,丹东市,民主桥,,24,24,45,11,30,23,,33,18,30,32,7,6,0.3,0.5
2025-10-31T1600,3541A,109.5726,19.5167,儋州市,第一中学子站,,39,38,23,27,14,74,,75,75,6,4,6,6,0.3,0.2
2025-10-31T1600,3542A,109.5567,19.5187,儋州市,东坡学校子站,,33,33,19,20,9,83,,82,82,7,5,3,4,0.3,0.2
2025-10-31T1600,2616A,98.5842,24.428,德宏傣族景颇族自治州,德宏州监测站,,28,,31,16,22,89,,57,57,8,19,11,10,0.6,0.7
2025-10-31T1600,3677A,98.5881,24.4368,德宏傣族景颇族自治州,芒市人民政府综合楼,,,34,38,17,21,86,,59,59,9,14,10,8,,0.6
2025-10-31T1600,1901A,104.4239,31.1208,德阳市,东山公园,,,,32,,28,40,,21,21,27,17,1,1,0.9,0.8
2025-10-31T1600,1902A,104.3826,31.1317,德阳市,西小区,,,,53,,37,,,27,,,23,,1,,0.9
2025-10-31T1600,1904A,104.3553,31.1091,德阳市,耐火材料厂,细颗粒物(PM2.5),65,55,50,47,36,48,,27,27,21,26,2,1,0.8,0.8
2025-10-31T1600,3639A,104.4019,31.1244,德阳市,市教育局,细颗粒物(PM2.5),68,64,46,49,33,44,,23,23,22,22,3,2,0.8,0.8
2025-10-31T1600,1622A,116.3032,37.4674,德州市,儿童乐园,细颗粒物(PM2.5),107,107,117,80,76,81,,57,57,,40,15,9,0.8,0.9
2025-10-31T1600,1624A,116.2991,37.4451,德州市,监理站,细颗粒物(PM2.5),100,92,113,75,83,91,,59,59,28,46,12,11,0.7,0.8
2025-10-31T1600,3066A,116.2721,37.4379,德州市,九衢泉纯净水厂,细颗粒物(PM2.5),83,100,107,61,58,80,,47,47,26,41,12,10,0.7,0.8
2025-10-31T1600,3371A,116.3728,37.4403,德州市,开发区人民医院,,,102,104,70,63,61,,20,,24,42,13,12,,0.9
2025-10-31T1600,3511A,116.5652,37.3319,德州市,陵城艺术中心,细颗粒物(PM2.5),107,105,110,80,72,53,,41,41,34,47,8,9,0.7,0.9
2025-10-31T1600,4292A,116.3525,37.4209,德州市,新河东路,细颗粒物(PM2.5),83,92,113,61,62,78,,50,50,32,51,8,8,0.7,0.8
2025-10-31T1600,2621A,99.7056,27.8317,迪庆藏族自治州,迪庆州站,,20,17,16,14,12,48,,54,47,7,7,7,6,0.4,0.4
2025-10-31T1600,3180A,99.7136,27.8094,迪庆藏族自治州,质量技术监督局,,19,19,16,6,7,48,,61,51,10,8,7,7,0.5,0.4
2025-10-31T1600,4257A,104.6092,35.5962,定西市,将台街,颗粒物(PM10),53,55,74,17,34,116,,72,72,8,34,8,10,0.3,0.6
2025-10-31T1600,4309A,104.6159,35.5701,定西市,正龙路62号,颗粒物(PM10),60,69,92,21,40,107,,69,69,6,16,7,8,0.2,0.5
2025-10-31T1600,1389A,113.7547,23.0494,东莞市,莞城梨川,,23,21,27,16,22,72,,62,62,9,17,5,6,0.6,0.5
2025-10-31T1600,1390A,113.7944,23.0128,东莞市,东城石井,,23,16,17,14,15,72,,59,59,10,17,6,6,0.6,0.6
2025-10-31T1600,1391A,113.7383,22.9658,东莞市,南城西平,,28,22,26,19,18,75,,60,60,14,24,5,6,0.7,0.7
2025-10-31T1600,3319A,113.7338,23.0381,东莞市,万江金泰,,28,26,30,19,20,68,,58,58,9,16,4,5,0.6,0.6
2025-10-31T1600,3626A,113.7533,23.0202,东莞市,南城元岭,,25,21,26,15,18,77,,65,65,6,12,5,6,0.5,0.5
2025-10-31T1600,3627A,113.7875,23.0457,东莞市,东城主山,,23,22,26,14,18,73,,62,62,10,17,3,4,0.7,0.7
2025-10-31T1600,1666A,118.6614,37.4309,东营市,市环保局,,46,46,44,31,24,90,,78,78,19,24,6,8,0.6,0.6
2025-10-31T1600,3036A,118.6904,37.4338,东营市,开发区管委会,,,,45,29,32,95,,82,82,15,22,6,8,0.6,0.6
2025-10-31T1600,3365A,118.5719,37.565,东营市,垦利区民丰路,,49,46,46,34,25,93,,77,77,14,20,7,8,0.9,0.9
2025-10-31T1600,3498A,118.5055,37.8612,东营市,河口城区,,41,41,43,27,25,95,,86,86,18,21,8,8,0.7,0.6
2025-10-31T1600,3646A,118.4978,37.4623,东营市,胜利站,颗粒物(PM10),51,52,43,31,27,91,,77,77,22,28,8,9,0.8,0.8
2025-10-31T1600,3734A,118.35,37.26,东营市,理想之城,颗粒物(PM10),56,61,53,34,30,83,,68,68,26,33,3,4,0.7,0.7
2025-10-31T1600,1591A,110.0023,39.8129,鄂尔多斯市,综合楼,,27,17,35,3,9,86,,69,64,6,20,4,8,0.1,0.3
2025-10-31T1600,1592A,109.9486,39.8261,鄂尔多斯市,巴音孟克林场办事处,,28,17,40,3,13,89,,68,68,6,20,4,7,0.2,0.3
2025-10-31T1600,1593A,109.7736,39.5986,鄂尔多斯市,康泽苑,,28,12,29,7,13,89,,74,74,6,17,5,6,0.2,0.3
2025-10-31T1600,1594A,109.8119,39.5989,鄂尔多斯市,华泰汽车城,,28,17,34,9,13,89,,78,78,4,13,3,4,0.2,0.3
2025-10-31T1600,1595A,109.9734,39.7884,鄂尔多斯市,奥林花园,,29,19,45,3,10,91,,69,69,6,20,7,9,0.2,0.4
2025-10-31T1600,2436A,114.8938,30.3994,鄂州市,市政府,,36,36,40,16,27,74,,64,64,20,23,10,9,0.6,0.7
2025-10-31T1600,2437A,114.8989,30.3714,鄂州市,赵家坝,,39,,40,27,29,77,,65,65,9,10,9,9,0.9,1.1
2025-10-31T1600,3654A,114.8094,30.4089,鄂州市,精准医疗中心,,32,30,39,22,26,82,,70,70,10,16,4,5,0.4,0.5
2025-10-31T1600,2454A,109.4978,30.2981,恩施土家族苗族自治州,湖北民院,,25,25,28,13,20,53,,34,34,11,6,6,6,0.7,0.6
2025-10-31T1600,2455A,109.4707,30.2798,恩施土家族苗族自治州,州电力总公司,,25,20,28,17,21,53,,32,32,12,14,5,5,0.4,0.4
2025-10-31T1600,3549A,109.5061,30.3772,恩施土家族苗族自治州,龙凤新区,,20,20,22,11,16,45,,32,32,8,5,7,6,0.4,0.4
2025-10-31T1600,2499A,108.3411,21.6158,防城港市,沙万,,34,34,19,20,20,61,,59,59,5,6,4,4,0.5,0.6
2025-10-31T1600,2500A,108.3514,21.7731,防城港市,防城档案局,,23,22,26,16,16,55,,55,55,5,7,6,6,0.6,0.7
2025-10-31T1600,2501A,108.3506,21.6414,防城港市,大海花园,,29,29,22,16,18,64,,63,63,5,6,4,4,0.5,0.7
2025-10-31T1600,1371A,113.1294,23.0067,佛山市,湾梁,,40,39,43,28,24,82,,62,62,23,32,7,8,0.9,0.8
2025-10-31T1600,1372A,113.1083,23.0478,佛山市,华材职中,,40,34,42,28,33,90,,69,69,13,26,7,7,0.7,0.6
2025-10-31T1600,1373A,113.144,23.0453,佛山市,南海气象局,,38,32,40,26,29,84,,65,65,16,24,8,8,0.8,0.8
2025-10-31T1600,1374A,113.2881,22.8094,佛山市,顺德苏岗,,35,27,44,24,28,68,,59,59,22,30,7,8,0.6,0.6
2025-10-31T1600,1376A,112.8383,22.8678,佛山市,高明孔堂,,39,38,43,27,29,103,,71,71,15,26,5,7,0.7,0.6
2025-10-31T1600,1377A,112.8836,23.1588,佛山市,三水监测站,,36,36,34,20,28,74,,58,58,13,27,8,7,0.9,0.8
2025-10-31T1600,1378A,112.867,23.185,佛山市,三水云东海,,41,41,39,23,29,73,,59,59,10,23,8,8,0.9,0.8
2025-10-31T1600,3625A,113.2544,22.7642,佛山市,容桂街道办,,41,41,43,22,30,63,,58,58,23,32,5,8,0.7,0.7
2025-10-31T1600,1280A,119.3903,26.0543,福州市,鼓山,,28,16,19,13,12,88,,69,69,7,9,1,1,0.4,0.3
2025-10-31T1600,1282A,119.2681,26.0504,福州市,师大,,28,27,30,13,14,89,,79,79,18,21,7,6,0.5,0.4
2025-10-31T1600,1283A,119.2984,26.1028,福州市,五四北路,,35,35,34,12,16,84,,74,74,16,24,5,4,0.5,0.4
2025-10-31T1600,1284A,119.2648,26.0768,福州市,杨桥西路,,34,34,29,12,14,88,,78,78,15,18,5,4,0.4,0.3
2025-10-31T1600,1285A,119.317,26.0746,福州市,紫阳,颗粒物(PM10),55,60,40,16,19,73,,68,68,21,26,7,7,0.4,0.4
2025-10-31T1600,3048A,119.5799,26.0936,福州市,九龙,,33,16,20,3,12,104,,72,72,6,13,4,4,0.4,0.4
2025-10-31T1600,3526A,119.5189,25.9664,福州市,吴航,,32,14,36,7,19,102,,68,68,4,27,5,5,0.5,0.5
2025-10-31T1600,1755A,123.7977,41.8491,抚顺市,望花区,,24,20,44,7,19,75,,53,53,11,33,7,9,0.4,0.6
2025-10-31T1600,1756A,123.9161,41.8822,抚顺市,顺城区,,26,15,45,8,26,83,,58,58,12,36,6,8,0.4,0.7
2025-10-31T1600,1757A,124.0436,41.8611,抚顺市,东洲区,,26,15,28,8,18,82,,63,63,7,24,5,8,0.4,0.5
2025-10-31T1600,1758A,123.9247,41.8642,抚顺市,新抚区,,25,19,40,8,22,77,,51,51,13,33,7,8,0.5,0.7
2025-10-31T1600,1759A,124.0972,41.8961,抚顺市,大伙房水库,,26,17,27,9,18,82,,65,65,12,26,10,12,0.7,0.9
2025-10-31T1600,1760A,123.7086,41.8391,抚顺市,沈抚新城,,25,18,34,10,18,80,,68,68,11,33,5,8,0.3,0.5
2025-10-31T1600,2376A,116.2127,28.0814,抚州市,桐源党溪,,,,,,,,,,,,,,,,
2025-10-31T1600,2377A,116.3544,27.9831,抚州市,市站,,,38,53,25,40,76,,70,70,,11,5,7,1.2,1.2
2025-10-31T1600,2378A,116.3565,27.963,抚州市,血防站,,40,40,56,25,41,81,,73,73,11,13,3,4,0.8,0.9
2025-10-31T1600,2379A,116.3564,28.0007,抚州市,采茶剧团,,37,37,55,21,43,78,,71,71,5,8,2,6,0.9,1
2025-10-31T1600,2380A,116.385,27.9647,抚州市,医学分院,,39,39,54,23,37,79,,73,73,11,13,3,6,1.2,1.3
2025-10-31T1600,2207A,121.6094,41.998,阜新市,工业园区,,40,40,77,21,29,81,,62,62,17,34,15,11,0.5,0.7
2025-10-31T1600,2208A,121.6697,42.0279,阜新市,长青街,,28,27,50,19,27,76,,54,54,17,38,11,15,0.4,0.8
2025-10-31T1600,2209A,121.6673,42.0705,阜新市,农业园区,颗粒物(PM10),51,51,42,19,18,90,,68,68,9,15,8,21,0.5,0.6
2025-10-31T1600,2210A,121.6717,42.0224,阜新市,东苑,,38,38,73,24,22,76,,56,56,22,41,10,20,0.5,0.9
2025-10-31T1600,2211A,121.6506,42.0498,阜新市,玉龙新城,,48,48,73,23,24,94,,64,64,9,36,11,12,0.4,0.9
2025-10-31T1600,2301A,115.8277,32.8929,阜阳市,市监测站,细颗粒物(PM2.5),189,179,140,142,107,114,,75,75,23,46,5,5,0.6,0.7
2025-10-31T1600,2303A,115.8554,32.8605,阜阳市,开发区,细颗粒物(PM2.5),190,194,158,143,112,118,,80,80,22,41,8,8,0.4,0.6
2025-10-31T1600,2875A,115.784,32.8892,阜阳市,阜阳职业技术学院,细颗粒物(PM2.5),176,207,207,133,133,116,,,,21,21,6,6,,
2025-10-31T1600,3468A,115.7901,32.8613,阜阳市,市规划展馆,细颗粒物(PM2.5),178,184,146,134,100,123,,76,76,20,36,6,5,0.8,0.8
2025-10-31T1600,3469A,115.836,32.9183,阜阳市,枣园社区,细颗粒物(PM2.5),182,168,131,137,101,116,,74,74,27,47,8,8,0.7,0.8
2025-10-31T1600,2669A,102.9099,34.9841,甘南藏族自治州,州政府,,41,41,50,28,33,98,,80,80,6,10,5,6,0.3,0.4
2025-10-31T1600,3380A,102.8914,34.9617,甘南藏族自治州,甘肃民族师范学院,,39,39,55,23,35,81,,66,66,11,19,5,6,0.5,0.5
2025-10-31T1600,2570A,101.9603,30.0475,甘孜藏族自治州,水桥子,,18,6,12,3,4,57,,46,46,10,15,7,8,0.4,0.3
2025-10-31T1600,3065A,101.9533,29.9972,甘孜藏族自治州,州环保局,,17,9,9,8,5,53,,42,42,12,14,5,5,0.4,0.5
2025-10-31T1600,3414A,115.8347,28.932,赣江新区,桑海产业园,,27,27,44,18,36,77,,65,65,11,15,8,8,0.5,0.7
2025-10-31T1600,2362A,114.9017,25.9149,赣州市,通天岩,,29,29,46,20,30,76,,70,70,6,8,15,15,1.0,1
2025-10-31T1600,2363A,114.9367,25.8664,赣州市,地委,,38,38,49,24,35,64,,64,53,14,12,5,5,0.8,0.8
2025-10-31T1600,2364A,114.9461,25.8481,赣州市,气象台,,29,29,51,20,31,68,,72,60,15,12,6,5,0.8,0.8
2025-10-31T1600,2365A,114.9322,25.8333,赣州市,市图书馆,,30,30,41,18,34,69,,68,58,8,9,4,4,0.7,0.7
2025-10-31T1600,2366A,114.8905,25.8471,赣州市,华坚鞋城,,36,36,47,18,34,61,,60,49,12,13,4,4,0.6,0.7
2025-10-31T1600,3109A,115.0093,25.8613,赣州市,赣县区卫计委,,,,38,30,42,70,,66,64,4,5,7,7,,0.7
2025-10-31T1600,2683A,106.2319,36.1417,固原市,马园,,,,,,,,,,,,,,,,
2025-10-31T1600,2684A,106.2792,36.0022,固原市,监测站,,35,35,73,23,32,102,,79,79,8,24,6,7,0.4,0.8
2025-10-31T1600,2685A,106.2375,36.0211,固原市,新区,,32,30,60,11,20,101,,81,81,8,32,4,4,0.2,0.5
2025-10-31T1600,3522A,106.2177,35.9959,固原市,原州区十五小,,39,39,68,14,28,97,,82,82,12,29,5,6,0.5,0.6
2025-10-31T1600,2543A,106.6308,30.5278,广安市,小平旧居,,,,,,,,,,,,,,,,
2025-10-31T1600,2544A,106.6303,30.4576,广安市,市委,,40,40,33,24,25,40,,27,24,16,13,5,3,0.6,0.5
2025-10-31T1600,2545A,106.6271,30.4663,广安市,友谊中学,,35,35,31,24,23,45,,30,29,15,13,6,5,0.6,0.6
2025-10-31T1600,2547A,106.6388,30.4551,广安市,广电花园,,46,46,24,20,21,33,,24,24,19,13,2,7,0.5,0.5
2025-10-31T1600,2902A,106.6351,30.4865,广安市,北辰小学,,38,34,31,26,20,43,,27,26,10,10,12,10,0.6,0.6
2025-10-31T1600,2523A,105.8945,32.4535,广元市,黑石坡,,,,,,,,,,,,,,,,
2025-10-31T1600,2524A,105.821,32.4444,广元市,老城,,,38,25,29,18,17,,9,9,,26,20,10,,0.9
2025-10-31T1600,2526A,105.8628,32.4287,广元市,监测站,,20,,15,14,15,15,,8,8,33,20,11,6,1.1,0.8
2025-10-31T1600,3617A,105.8047,32.4166,广元市,经开区,颗粒物(PM10),51,52,34,28,18,14,,8,8,33,25,20,7,1.0,0.7
2025-10-31T1600,1345A,113.2347,23.1423,广州市,广雅中学,,27,27,41,18,26,70,,56,56,22,36,6,6,0.9,0.8
2025-10-31T1600,1346A,113.2612,23.105,广州市,市五中,,30,20,40,14,26,95,,73,73,16,42,6,7,0.7,0.8
2025-10-31T1600,1348A,113.3478,23.0916,广州市,广东商学院,,27,21,40,13,29,84,,63,63,14,23,4,5,0.3,0.3
2025-10-31T1600,1349A,113.4332,23.1047,广州市,市八十六中,,25,19,33,13,23,80,,56,56,17,22,5,6,0.2,0.2
2025-10-31T1600,1350A,113.3505,22.9483,广州市,番禺中学,,30,28,44,18,29,95,,66,66,11,23,6,6,0.9,1
2025-10-31T1600,1351A,113.2146,23.3916,广州市,花都师范,,32,27,38,22,26,60,,50,50,18,24,5,5,0.8,0.8
2025-10-31T1600,1352A,113.2597,23.1331,广州市,市监测站,,27,21,44,12,25,84,,65,65,14,35,6,7,0.5,0.5
2025-10-31T1600,1353A,113.5618,23.312,广州市,九龙镇镇龙,,22,19,41,15,33,56,,41,41,9,19,5,7,0.6,0.6
2025-10-31T1600,1354A,113.2765,23.1544,广州市,麓湖,,25,22,36,12,26,77,,60,60,12,30,8,8,0.4,0.4
2025-10-31T1600,1355A,113.443,23.3035,广州市,帽峰山森林公园,,,,,,,,,,,,,,,,
2025-10-31T1600,2846A,113.3221,23.1322,广州市,体育西,,26,21,39,13,28,83,,63,63,10,25,7,7,0.9,0.9
2025-10-31T1600,3298A,113.5717,23.5491,广州市,从化街口,,22,11,38,10,32,69,,56,56,7,20,8,11,0.6,0.7
2025-10-31T1600,3299A,113.3472,23.3692,广州市,白云竹料,,25,14,32,10,25,78,,64,64,9,18,6,5,0.7,0.7
2025-10-31T1600,3300A,113.2981,23.237,广州市,白云嘉禾,,25,18,37,10,27,80,,64,64,12,27,5,6,0.6,0.6
2025-10-31T1600,3301A,113.4256,23.1716,广州市,黄埔科学城,,28,16,36,12,28,88,,66,66,8,12,6,7,0.6,0.6
2025-10-31T1600,3302A,113.3942,23.0483,广州市,番禺大学城,,34,34,40,15,32,89,,61,61,8,20,6,7,0.6,0.6
2025-10-31T1600,3303A,113.4922,22.8168,广州市,南沙黄阁,,48,48,44,24,28,62,,54,54,22,34,8,8,0.5,0.5
2025-10-31T1600,3304A,113.5342,22.7896,广州市,南沙街,,41,41,42,24,27,64,,58,58,17,30,6,8,0.7,0.7
2025-10-31T1600,3443A,113.2902,23.5544,广州市,花都梯面,,20,15,31,12,25,64,,54,54,8,13,4,3,0.7,0.6
2025-10-31T1600,3445A,113.7858,23.7478,广州市,从化良口,,24,14,21,14,17,74,,63,63,9,12,6,6,0.8,0.9
2025-10-31T1600,3446A,113.8051,23.2614,广州市,增城荔城,,23,20,18,16,15,62,,56,56,7,8,7,7,0.5,0.4
2025-10-31T1600,2505A,109.568,23.1478,贵港市,德智高中,,,,,,,,,,,,,,,,
2025-10-31T1600,2506A,109.6047,23.0666,贵港市,江南子站,,39,,31,27,35,58,,48,48,8,11,4,4,0.9,0.8
2025-10-31T1600,2508A,109.5669,23.1065,贵港市,荷城子站,,25,19,30,17,24,49,,42,42,10,12,3,2,0.8,0.7
2025-10-31T1600,3405A,109.5886,23.1172,贵港市,新世纪学校,,22,,33,15,30,54,,46,46,9,9,3,2,0.7,0.7
2025-10-31T1600,4260A,109.5933,23.0951,贵港市,中山路155-3号,,39,39,38,22,31,59,,49,49,8,10,3,3,1.0,0.9
2025-10-31T1600,1439A,106.6899,26.5998,贵阳市,马鞍山,,14,7,17,3,7,42,,31,31,9,12,3,3,0.4,0.5
2025-10-31T1600,1441A,106.6243,26.6266,贵阳市,鉴湖路,,24,24,29,3,8,42,,36,36,10,13,4,4,0.5,0.4
2025-10-31T1600,1442A,106.7487,26.6343,贵阳市,燕子冲,,18,,19,12,19,45,,32,32,11,14,4,4,0.5,0.6
2025-10-31T1600,1443A,106.6555,26.4365,贵阳市,碧云窝,,29,29,36,7,15,37,,33,33,19,20,6,7,0.3,0.4
2025-10-31T1600,1445A,106.7109,26.6027,贵阳市,红边门,,12,12,21,3,11,30,,30,30,23,18,4,5,0.6,0.7
2025-10-31T1600,1446A,106.7164,26.5699,贵阳市,新华路,,20,14,22,14,22,47,,36,36,11,14,7,6,0.5,0.6
2025-10-31T1600,1447A,106.674,26.5424,贵阳市,太慈桥,,11,6,20,3,10,34,,33,33,19,19,1,2,0.6,0.7
2025-10-31T1600,1552A,106.805,26.3003,贵阳市,桐木岭,,27,27,31,12,20,43,,49,49,6,3,24,27,0.7,0.7
2025-10-31T1600,4230A,106.6882,26.5695,贵阳市,花果园大街66号,,13,,17,9,17,39,,38,38,16,15,3,2,0.5,0.5
2025-10-31T1600,4231A,106.6873,26.5169,贵阳市,漓江路57号,,,,18,9,14,36,,33,33,12,14,6,9,0.4,0.5
2025-10-31T1600,1862A,110.4144,25.3167,桂林市,电子科大尧山校区,,,,,,,,,,,,,,,,
2025-10-31T1600,1864A,110.3089,25.2708,桂林市,龙隐路小学,,38,33,54,26,47,69,,60,60,8,10,5,6,0.6,0.7
2025-10-31T1600,1865A,110.2869,25.2178,桂林市,八中,,38,32,55,26,48,70,,60,60,10,14,7,8,0.6,0.7
2025-10-31T1600,3531A,110.296,25.1253,桂林市,旅游学院,,32,,46,22,43,80,,70,70,8,11,4,5,0.3,0.8
2025-10-31T1600,4222A,110.1835,25.2444,桂林市,环湖路276号,,35,29,45,24,41,65,,59,59,11,12,5,6,0.4,0.5
2025-10-31T1600,4301A,110.2803,25.2773,桂林市,信义路13号,,40,34,56,28,42,71,,62,59,9,13,6,8,0.6,0.8
2025-10-31T1600,2674A,100.2561,34.4714,果洛藏族自治州,玛沁县大武镇,,33,28,36,17,14,105,,90,90,2,5,10,15,0.3,0.3
2025-10-31T1600,1129A,126.5422,45.755,哈尔滨市,岭北,,,,,,,,,,,,,,,,
2025-10-31T1600,1130A,126.561,45.8167,哈尔滨市,松北商大,细颗粒物(PM2.5),60,45,66,43,64,69,,62,62,18,26,7,8,0.5,0.6
2025-10-31T1600,1131A,126.979,45.5419,哈尔滨市,阿城会宁,,40,40,77,24,54,66,,64,64,20,29,6,9,0.4,0.6
2025-10-31T1600,1132A,126.599,45.7222,哈尔滨市,南岗学府路,细颗粒物(PM2.5),230,,71,180,50,115,,69,69,35,31,15,12,0.9,0.5
2025-10-31T1600,1133A,126.689,45.7733,哈尔滨市,太平宏伟公园,细颗粒物(PM2.5),135,138,70,103,50,96,,64,64,30,35,15,14,0.6,0.6
2025-10-31T1600,1134A,126.635,45.7667,哈尔滨市,道外承德广场,颗粒物(PM10),93,136,90,54,53,79,,65,65,30,42,10,13,0.3,0.7
2025-10-31T1600,1135A,126.685,45.7319,哈尔滨市,香坊红旗大街,细颗粒物(PM2.5),179,197,86,135,52,112,,64,64,33,41,13,9,1.0,0.7
2025-10-31T1600,1136A,126.6411,45.7258,哈尔滨市,动力和平路,细颗粒物(PM2.5),230,,69,180,50,107,,64,64,42,33,9,6,0.9,0.5
2025-10-31T1600,1137A,126.593,45.7478,哈尔滨市,道里建国路,细颗粒物(PM2.5),149,,75,114,59,88,,62,62,40,39,10,9,0.6,0.6
2025-10-31T1600,1138A,126.615,45.61,哈尔滨市,平房东轻厂,细颗粒物(PM2.5),77,57,64,56,48,72,,61,61,29,41,12,15,0.5,0.6
2025-10-31T1600,1139A,126.595,45.9855,哈尔滨市,呼兰师专,细颗粒物(PM2.5),236,190,96,186,92,116,,74,74,29,29,16,12,0.8,0.7
2025-10-31T1600,1140A,126.6206,45.6842,哈尔滨市,省农科院,细颗粒物(PM2.5),200,189,88,150,54,81,,54,54,58,46,12,12,0.8,0.6
2025-10-31T1600,2688A,93.5128,42.8172,哈密市,地区监测站,,38,38,88,15,30,92,,56,56,12,40,9,9,0.1,0.4
2025-10-31T1600,2689A,93.4961,42.8328,哈密市,哈密师范学校,,28,23,69,16,25,89,,52,52,10,38,8,6,0.3,0.6
2025-10-31T1600,2671A,100.9048,36.9639,海北藏族自治州,海晏县西海镇,,34,33,39,21,23,106,,90,90,3,8,15,14,0.4,0.4
2025-10-31T1600,3867A,102.0738,36.5056,海东市,平安区公安北苑,,39,39,61,19,30,109,,72,72,6,13,9,11,0.6,0.8
2025-10-31T1600,1409A,110.576,19.9507,海口市,东寨港,,,,,,,,,,,,,,,,
2025-10-31T1600,1410A,110.3232,20.0574,海口市,海南大学,,42,31,47,23,24,132,,120,120,7,8,6,6,0.4,0.4
2025-10-31T1600,1411A,110.283,20.0053,海口市,秀英海南医院,颗粒物(PM10),51,52,43,21,25,120,,110,110,9,8,7,6,0.4,0.3
2025-10-31T1600,1412A,110.338,19.9969,海口市,海南师范大学,,41,37,42,23,24,130,,118,118,9,8,6,5,0.5,0.5
2025-10-31T1600,1413A,110.33,20.0356,海口市,龙华路环保局宿舍,,47,47,42,23,24,132,,117,117,9,9,7,7,0.4,0.4
2025-10-31T1600,3539A,110.5111,19.9736,海口市,桂林洋子站,,41,34,47,21,22,131,,118,118,8,7,6,6,0.3,0.3
2025-10-31T1600,2673A,100.6188,36.2866,海南藏族自治州,共和县恰卜恰镇,,43,,40,30,21,118,,88,88,3,20,12,12,0.5,0.5
2025-10-31T1600,2676A,97.3731,37.3753,海西蒙古族藏族自治州,德令哈市,,32,23,20,6,10,102,,87,87,1,4,14,15,0.3,0.5
2025-10-31T1600,1048A,114.5302,36.6116,邯郸市,东污水处理厂,细颗粒物(PM2.5),248,,167,198,193,71,,46,46,33,28,6,3,1.2,1.1
2025-10-31T1600,1049A,114.4918,36.5713,邯郸市,矿院,细颗粒物(PM2.5),252,,174,202,182,78,,49,49,36,31,10,5,1.2,1
2025-10-31T1600,1050A,114.484,36.6133,邯郸市,丛台公园,细颗粒物(PM2.5),235,198,194,185,173,78,,53,53,33,29,10,6,1.1,1
2025-10-31T1600,3458A,114.7895,36.5593,邯郸市,香泉濮院小区,细颗粒物(PM2.5),190,158,175,143,138,74,,55,55,28,34,5,6,0.9,1
2025-10-31T1600,3579A,114.50634,36.77178,邯郸市,永年区实验高中,细颗粒物(PM2.5),182,189,160,137,117,68,,54,54,38,36,6,3,1.3,1.1
2025-10-31T1600,3580A,114.20016,36.44293,邯郸市,峰峰矿区临水派出所,细颗粒物(PM2.5),245,,142,195,177,80,,48,48,34,34,9,8,1.8,1.5
2025-10-31T1600,2634A,106.9893,33.1842,汉中市,汉川机床厂子校,,,,,,,,,,,,,,,,
2025-10-31T1600,2635A,107.0154,33.0706,汉中市,市监测站,"颗粒物(PM10),细颗粒物(PM2.5)",54,57,59,38,37,33,,20,20,21,24,6,6,1.0,0.9
2025-10-31T1600,2636A,107.0089,33.1138,汉中市,鑫源开发区,,42,35,46,29,30,40,,19,19,22,26,7,6,1.0,0.6
2025-10-31T1600,2637A,107.007,33.0323,汉中市,南郑大河坎水厂,颗粒物(PM10),55,59,46,34,30,29,,16,16,23,19,7,6,0.8,0.7
2025-10-31T1600,1223A,120.2072,30.2111,杭州市,滨江,,,14,21,7,13,61,,52,52,21,25,9,9,,0.5
2025-10-31T1600,1224A,120.0633,30.2747,杭州市,西溪,,20,14,23,6,12,61,,41,41,14,20,7,7,0.5,0.5
2025-10-31T1600,1226A,120.3417,30.3150,杭州市,下沙,,20,10,19,3,16,61,,51,51,21,30,4,4,0.2,0.2
2025-10-31T1600,1227A,120.1269,30.2456,杭州市,卧龙桥,,15,11,18,6,12,46,,41,41,18,17,9,8,0.5,0.4
2025-10-31T1600,1228A,120.1903,30.2692,杭州市,浙江农大,,18,11,14,8,13,56,,44,44,26,31,6,6,0.5,0.5
2025-10-31T1600,1230A,120.1197,30.3119,杭州市,和睦小学,,23,11,18,11,16,71,,52,52,14,24,7,7,0.5,0.5
2025-10-31T1600,1231A,120.3019,30.4183,杭州市,临平镇,,28,22,23,19,19,60,,57,57,19,20,6,6,0.3,0.3
2025-10-31T1600,1232A,120.2753,30.1839,杭州市,城厢镇,,23,18,26,16,18,55,,58,58,31,28,5,6,0.4,0.4
2025-10-31T1600,1233A,120.0883,30.1808,杭州市,云栖,,17,11,17,6,12,53,,43,43,15,16,6,6,0.6,0.5
2025-10-31T1600,3557A,119.9464,30.0494,杭州市,镇二中,,18,6,19,3,17,56,,40,40,14,18,4,4,0.5,0.5
2025-10-31T1600,3558A,119.7183,30.2367,杭州市,市府大楼,,18,16,26,9,16,55,,47,47,16,16,9,8,0.4,0.4
2025-10-31T1600,3656A,120.1556,30.2864,杭州市,消防大队,,21,15,26,8,18,67,,53,53,15,27,7,8,0.4,0.4
2025-10-31T1600,1270A,117.1959,31.7848,合肥市,明珠广场,细颗粒物(PM2.5),83,85,63,61,50,63,,63,63,47,31,5,5,0.7,0.7
2025-10-31T1600,1271A,117.3072,31.8764,合肥市,三里街,颗粒物(PM10),71,92,62,51,35,85,,67,67,23,24,5,5,0.8,0.7
2025-10-31T1600,1272A,117.2588,31.8707,合肥市,琥珀山庄,颗粒物(PM10),63,75,50,44,41,97,,79,79,16,22,5,5,0.7,0.6
2025-10-31T1600,1273A,117.1604,31.9052,合肥市,董铺水库,,,,,,,,,,,,,,,,
2025-10-31T1600,1274A,117.25,31.8571,合肥市,长江中路,细颗粒物(PM2.5),82,95,62,60,47,95,,77,77,16,21,5,5,0.7,0.6
2025-10-31T1600,1275A,117.266,31.9436,合肥市,庐阳区,细颗粒物(PM2.5),77,90,62,56,41,95,,79,79,17,23,6,6,0.8,0.8
2025-10-31T1600,1276A,117.3453,31.8616,合肥市,瑶海区,细颗粒物(PM2.5),89,97,62,66,45,97,,74,74,19,26,8,8,0.7,0.6
2025-10-31T1600,1277A,117.3027,31.7964,合肥市,包河区,细颗粒物(PM2.5),92,95,59,68,44,93,,76,76,22,34,7,7,0.8,0.7
2025-10-31T1600,1278A,117.2776,31.7385,合肥市,滨湖新区,细颗粒物(PM2.5),104,100,59,78,52,95,,79,79,24,31,4,5,0.8,0.7
2025-10-31T1600,1279A,117.1318,31.8403,合肥市,高新区,细颗粒物(PM2.5),70,68,62,51,53,94,,80,80,14,22,4,4,0.6,0.7
2025-10-31T1600,3464A,117.3803,31.9147,合肥市,高教基地,颗粒物(PM10),82,114,58,44,30,65,,68,68,41,20,8,7,0.6,0.5
2025-10-31T1600,3614A,79.924,37.0877,和田地区,地区环保局,颗粒物(PM10),106,161,202,46,76,98,,80,80,4,24,3,11,0.2,0.6
2025-10-31T1600,3615A,79.9131,37.113,和田地区,市环保局,颗粒物(PM10),101,152,218,42,58,100,,69,69,10,39,2,13,0.1,0.6
2025-10-31T1600,2516A,108.2011,24.715,河池市,东仁乐园,,,,,,,,,,,,,,,,
2025-10-31T1600,2517A,108.0497,24.6947,河池市,市环保站,,23,23,30,6,19,72,,55,55,7,15,7,7,0.6,0.7
2025-10-31T1600,2518A,108.0983,24.6989,河池市,市疾控中心,,22,14,28,11,20,69,,52,52,8,18,3,4,0.7,0.8
2025-10-31T1600,1696A,114.6778,23.7569,河源市,源西,,,,,,,,,,,,,,,,
2025-10-31T1600,1697A,114.6944,23.7586,河源市,东埔,,35,,24,24,23,84,,74,74,7,14,4,5,0.6,0.6
2025-10-31T1600,1698A,114.6892,23.7233,河源市,老城,,30,30,29,13,20,85,,74,74,4,11,5,5,0.7,0.7
2025-10-31T1600,1718A,115.4208,35.2464,菏泽市,气象局,细颗粒物(PM2.5),205,192,220,155,169,76,,46,46,24,39,1,5,0.8,0.8
2025-10-31T1600,3374A,115.5564,35.0891,菏泽市,定陶老年大学,细颗粒物(PM2.5),203,183,196,153,149,78,,52,52,27,39,6,9,0.8,0.8
2025-10-31T1600,4184A,115.4797,35.24401,菏泽市,永昌路1号,细颗粒物(PM2.5),178,163,199,134,150,78,,47,47,23,34,3,5,0.7,0.8
2025-10-31T1600,4193A,115.4715,35.2800,菏泽市,长城路999号,细颗粒物(PM2.5),192,166,203,144,157,75,,40,40,26,42,10,13,0.9,1
2025-10-31T1600,2514A,111.5264,24.4172,贺州市,环保小区,,28,26,43,19,34,68,,61,61,13,13,6,6,0.7,0.7
2025-10-31T1600,2515A,111.5608,24.4078,贺州市,政协大楼,,,35,41,17,33,57,,51,51,14,11,,4,0.9,0.9
2025-10-31T1600,3534A,111.4744,24.4553,贺州市,西湾,,29,29,36,18,31,64,,56,56,11,9,4,4,0.8,0.8
2025-10-31T1600,2385A,114.17,35.9019,鹤壁市,市监测站,细颗粒物(PM2.5),208,176,178,158,142,88,,50,50,25,29,4,6,1.2,1.6
2025-10-31T1600,2386A,114.2956,35.7511,鹤壁市,市交警支队,细颗粒物(PM2.5),215,198,191,165,150,81,,47,47,25,31,3,3,0.6,1.2
2025-10-31T1600,2387A,114.2878,35.7306,鹤壁市,迎宾馆,细颗粒物(PM2.5),208,215,215,158,159,85,,52,52,28,32,7,4,1.1,1.3
2025-10-31T1600,3474A,114.2617,35.6822,鹤壁市,大新区,细颗粒物(PM2.5),221,181,169,171,159,78,,53,53,27,24,5,5,1.2,1.3
2025-10-31T1600,3596A,114.1572,35.9603,鹤壁市,南山宾馆,细颗粒物(PM2.5),200,171,192,150,158,94,,56,56,26,29,4,4,0.9,1.3
2025-10-31T1600,2244A,130.2537,47.3416,鹤岗市,哈啤分公司,,39,32,40,27,34,80,,69,69,10,18,13,13,0.5,0.5
2025-10-31T1600,2245A,130.2684,47.3086,鹤岗市,斯达机电,,25,25,39,17,25,80,,69,69,9,17,12,14,0.6,0.6
2025-10-31T1600,2246A,130.3114,47.3388,鹤岗市,东山纸板厂,,43,43,48,18,28,79,,67,67,13,22,12,14,0.6,0.6
2025-10-31T1600,2247A,130.1097,47.3382,鹤岗市,五号水库,,,,,,,,,,,,,,,,
2025-10-31T1600,2263A,127.4833,50.2524,黑河市,交通局,,23,23,17,12,12,43,,39,39,15,18,5,5,0.3,0.3
2025-10-31T1600,2264A,127.5144,50.2341,黑河市,环保局,,24,24,15,15,14,43,,42,42,11,15,6,11,0.3,0.3
2025-10-31T1600,2265A,127.5291,50.2472,黑河市,大黑河岛,,,,,,,,,,,,,,,,
2025-10-31T1600,1074A,115.6838,37.7541,衡水市,电机北厂,细颗粒物(PM2.5),162,,141,123,120,67,,51,51,28,35,7,9,0.7,0.8
2025-10-31T1600,1075A,115.6303,37.7316,衡水市,市监测站,细颗粒物(PM2.5),156,,133,119,122,65,,52,52,30,40,7,6,0.9,0.8
2025-10-31T1600,3188A,115.6683,37.7217,衡水市,市城管局,细颗粒物(PM2.5),148,,132,113,114,70,,57,57,31,42,9,9,0.9,0.9
2025-10-31T1600,3459A,115.5989,37.5491,衡水市,地表水厂,细颗粒物(PM2.5),144,,158,110,130,63,,54,54,36,43,8,6,0.7,0.9
2025-10-31T1600,2456A,112.5003,26.9167,衡阳市,原169医院,,,,,,,,,,,,,,,,
2025-10-31T1600,2457A,112.6194,26.9258,衡阳市,衡阳化工总厂,细颗粒物(PM2.5),85,,55,63,53,72,,75,75,16,14,6,7,0.9,1
2025-10-31T1600,2458A,112.6211,26.8956,衡阳市,珠晖区环保局,细颗粒物(PM2.5),67,54,50,48,43,72,,73,73,15,18,8,8,1.3,1.3
2025-10-31T1600,2459A,112.6197,26.8733,衡阳市,市委党校,细颗粒物(PM2.5),63,59,49,45,39,75,,78,78,9,9,3,3,0.9,0.9
2025-10-31T1600,2460A,112.6006,26.8919,衡阳市,市监测站,细颗粒物(PM2.5),63,58,53,45,39,75,,78,78,14,14,5,5,1.0,1.1
2025-10-31T1600,2461A,112.5664,26.9056,衡阳市,真空机电公司,细颗粒物(PM2.5),59,52,43,42,39,78,,79,79,9,11,5,6,0.9,1.1
2025-10-31T1600,3399A,112.6703,26.882,衡阳市,师范学院,细颗粒物(PM2.5),67,67,49,48,39,78,,79,79,14,14,8,8,1.0,1
2025-10-31T1600,2608A,103.3772,23.3993,红河哈尼族彝族自治州,污水处理厂,,28,28,37,13,22,46,,49,49,5,12,4,10,0.3,0.4
2025-10-31T1600,2609A,103.3861,23.35,红河哈尼族彝族自治州,监测站,,20,20,31,10,22,46,,49,49,3,7,7,10,0.2,0.4
2025-10-31T1600,3038A,103.3758,23.368,红河哈尼族彝族自治州,州图书馆,,23,,29,16,28,48,,53,53,4,8,3,8,0.3,0.4
2025-10-31T1600,1090A,111.6507,40.7517,呼和浩特市,呼市一监,,28,12,29,6,10,89,,80,80,5,26,4,4,0.4,0.4
2025-10-31T1600,1091A,111.6572,40.8033,呼和浩特市,小召,,26,24,29,10,11,81,,81,81,18,32,7,6,0.3,0.4
2025-10-31T1600,1094A,111.7516,40.8369,呼和浩特市,如意水处理厂,,26,11,18,3,6,83,,79,79,5,28,9,8,0.2,0.2
2025-10-31T1600,1095A,111.7276,40.8062,呼和浩特市,二十九中,,27,10,22,3,6,85,,80,80,9,26,8,8,0.3,0.4
2025-10-31T1600,1096A,111.5512,40.7866,呼和浩特市,工大金川校区,,35,35,27,11,7,78,,82,82,18,29,6,6,0.2,0.2
2025-10-31T1600,1097A,111.717,40.7612,呼和浩特市,化肥厂生活区,,28,18,25,6,9,89,,83,83,10,32,4,4,0.2,0.3
2025-10-31T1600,3698A,111.5968,40.8178,呼和浩特市,红旗小学,,29,29,16,7,5,86,,84,84,9,21,4,3,0.2,0.2
2025-10-31T1600,3699A,111.6518,40.8389,呼和浩特市,海东办,,29,19,18,3,5,90,,85,85,9,28,6,4,0.2,0.1
2025-10-31T1600,3061A,119.7512,49.1577,呼伦贝尔市,国华电力东,,24,24,18,10,10,53,,46,46,10,9,8,7,0.1,0.2
2025-10-31T1600,4279A,119.7569,49.2222,呼伦贝尔市,伊敏大街东7号,,21,21,21,14,14,53,,45,43,4,6,6,6,0.1,0.1
2025-10-31T1600,1250A,120.0751,30.8669,湖州市,城西水厂,,23,22,20,16,14,48,,72,55,42,23,8,7,0.3,0.3
2025-10-31T1600,2873A,120.0830,30.8929,湖州市,仁皇山新区,,26,24,20,18,16,53,,65,53,24,19,7,6,0.4,0.3
2025-10-31T1600,2907A,120.1844,30.8596,湖州市,吴兴区站,,33,24,21,23,15,58,,56,52,21,20,6,6,0.6,0.5
2025-10-31T1600,3562A,120.4148,30.8538,湖州市,南浔区站,,47,47,24,16,11,95,,85,85,19,23,8,8,0.5,0.4
2025-10-31T1600,1607A,120.9049,40.7211,葫芦岛市,龙港区,,25,21,75,9,37,80,,61,61,17,45,10,30,0.4,1.2
2025-10-31T1600,1608A,120.8392,40.7514,葫芦岛市,化工街,,27,27,80,12,37,74,,57,57,15,45,11,38,0.3,0.7
2025-10-31T1600,1609A,120.8341,40.7073,葫芦岛市,新区,,25,23,53,6,26,79,,58,58,12,47,6,10,0.4,0.8
2025-10-31T1600,1610A,120.8695,40.7677,葫芦岛市,东城区,,40,40,75,13,36,73,,54,54,22,45,11,18,0.7,1
2025-10-31T1600,2482A,109.5981,27.5721,怀化市,林科所,,,,,,,,,,,,,,,,
2025-10-31T1600,2483A,109.9453,27.5444,怀化市,河西地税局,,35,35,32,23,24,35,,33,33,18,17,2,3,0.6,0.5
2025-10-31T1600,2484A,109.9781,27.5342,怀化市,市四医院,,30,29,40,21,29,42,,39,39,8,13,7,8,0.4,0.4
2025-10-31T1600,2485A,109.9972,27.5578,怀化市,监测楼,,32,30,35,22,23,47,,42,42,6,12,2,3,0.3,0.3
2025-10-31T1600,2486A,110.0394,27.583,怀化市,市委党校,,27,27,35,18,25,36,,35,35,11,13,8,10,0.3,0.3
2025-10-31T1600,1210A,119.036,33.5981,淮安市,钵池山,颗粒物(PM10),58,66,23,40,17,102,,75,75,20,20,7,7,0.5,0.4
2025-10-31T1600,1211A,119.007,33.575,淮安市,北京南路,细颗粒物(PM2.5),82,78,27,60,19,96,,66,66,19,18,7,7,0.7,0.5
2025-10-31T1600,1212A,118.989,33.6067,淮安市,市监测站,细颗粒物(PM2.5),94,78,22,70,20,104,,75,75,23,21,5,5,0.9,0.8
2025-10-31T1600,1213A,119.135,33.5039,淮安市,楚州区监测站,细颗粒物(PM2.5),78,63,19,57,19,104,,76,76,21,22,8,8,0.4,0.3
2025-10-31T1600,3426A,118.8755,33.2894,淮安市,新华书店,颗粒物(PM10),65,80,24,45,16,102,,70,70,18,18,8,7,0.8,0.5
2025-10-31T1600,4206A,119.0288,33.6319,淮安市,承德北路606号,细颗粒物(PM2.5),65,75,27,47,19,99,,70,70,22,23,7,6,0.4,0.3
2025-10-31T1600,2282A,116.8004,33.975,淮北市,监测站,细颗粒物(PM2.5),112,118,76,84,50,105,,60,60,25,36,9,9,0.9,0.5
2025-10-31T1600,2283A,116.8091,33.9007,淮北市,烈山区政府,细颗粒物(PM2.5),152,118,103,116,82,106,,54,54,24,44,9,9,0.8,0.7
2025-10-31T1600,3330A,116.8873,33.9836,淮北市,杜集区检察院,细颗粒物(PM2.5),172,,106,130,89,110,,57,57,25,36,4,4,0.7,0.6
2025-10-31T1600,4017A,116.7923,33.9535,淮北市,市博物馆,细颗粒物(PM2.5),98,131,86,73,68,108,,57,57,25,47,6,7,0.6,0.7
2025-10-31T1600,2277A,116.8305,32.7727,淮南市,潘集区政府,细颗粒物(PM2.5),123,163,80,93,52,123,,83,83,18,27,5,5,0.6,0.6
2025-10-31T1600,2279A,116.8569,32.5951,淮南市,谢家集区政府,颗粒物(PM10),72,94,60,48,44,106,,71,71,23,25,7,8,0.5,0.6
2025-10-31T1600,2280A,116.8281,32.633,淮南市,八公山区政府,细颗粒物(PM2.5),97,136,64,72,46,121,,87,87,17,19,5,6,0.5,0.5
2025-10-31T1600,2281A,116.6325,32.6201,淮南市,焦岗湖风景区管理处,,,,,,,,,,,,,,,,
2025-10-31T1600,2894A,117.0566,32.6531,淮南市,经济技术开发区消防队,细颗粒物(PM2.5),103,125,56,77,43,117,,82,82,20,27,10,10,0.4,0.4
2025-10-31T1600,3329A,117.0108,32.5893,淮南市,山南新区,细颗粒物(PM2.5),97,139,66,72,44,108,,76,76,32,29,4,4,0.4,0.4
2025-10-31T1600,4209A,117.0031,32.6445,淮南市,国庆中路369号,颗粒物(PM10),97,143,79,68,48,120,,78,78,23,29,12,11,0.5,0.5
2025-10-31T1600,2446A,114.9028,30.4742,黄冈市,职工中心,,39,35,38,27,28,77,,66,66,15,15,6,5,0.6,0.6
2025-10-31T1600,2929A,114.8858,30.4519,黄冈市,红卫路,,32,30,35,22,26,79,,67,67,14,15,5,4,0.5,0.5
2025-10-31T1600,3398A,114.9136,30.4445,黄冈市,市林业局,,32,32,35,21,25,80,,66,66,13,14,3,3,0.6,0.6
2025-10-31T1600,2672A,102.0199,35.5102,黄南藏族自治州,同仁县隆务镇,颗粒物(PM10),56,62,59,32,25,107,,89,89,6,5,12,12,0.3,0.4
2025-10-31T1600,2295A,118.2903,29.6963,黄山市,延安路89号,,28,,23,19,9,60,,47,47,8,10,4,3,0.5,0.5
2025-10-31T1600,2297A,118.1371,30.2756,黄山市,黄山区政府5号楼,,36,36,22,10,14,86,,52,52,7,9,5,5,0.5,0.5
2025-10-31T1600,4210A,118.3354,29.7203,黄山市,滨江东路7-2号,,28,28,25,18,17,55,,45,45,10,10,4,3,0.5,0.5
2025-10-31T1600,2423A,115.0601,30.2313,黄石市,沈家营,,27,27,49,7,25,71,,56,56,4,9,8,7,0.4,0.4
2025-10-31T1600,2426A,114.8988,30.2019,黄石市,铁山,,35,35,47,13,30,77,,66,66,8,21,6,5,0.6,0.5
2025-10-31T1600,2427A,115.0307,30.2092,黄石市,团城山,,29,29,42,14,24,81,,67,67,10,10,7,8,0.8,0.5
2025-10-31T1600,3149A,115.0235,30.1578,黄石市,笔架山北路,,34,34,59,17,25,82,,66,66,6,19,6,7,0.4,0.5
2025-10-31T1600,4185A,115.0780,30.21118,黄石市,磁湖东路29号,,35,35,52,17,33,74,,60,60,10,12,9,8,0.8,0.8
2025-10-31T1600,1392A,114.4183,23.0528,惠州市,河南岸金山湖子站,,30,25,30,21,21,74,,64,64,21,20,9,9,0.6,0.7
2025-10-31T1600,1393A,114.4053,23.0822,惠州市,下埔横江三路子站,,29,23,31,14,20,91,,78,78,7,9,4,6,0.6,0.5
2025-10-31T1600,1394A,114.4103,23.1142,惠州市,江北云山西路子站,,30,23,27,15,19,94,,82,82,10,13,5,6,0.5,0.5
2025-10-31T1600,1395A,114.4645,22.7833,惠州市,惠阳区承修路船湖子站,,28,23,28,18,19,89,,72,72,11,16,8,9,0.8,0.7
2025-10-31T1600,1396A,114.5317,22.7422,惠州市,大亚湾管委会子站,,28,25,26,19,17,83,,67,67,7,11,10,10,0.6,0.5
2025-10-31T1600,3314A,114.4338,22.8134,惠州市,惠阳秋长,,34,34,26,18,19,98,,80,80,7,11,11,12,0.5,0.4
2025-10-31T1600,3452A,114.6517,22.775,惠州市,大亚湾霞涌,,40,40,23,27,15,73,,62,62,8,10,7,7,0.5,0.5
2025-10-31T1600,2240A,130.9762,45.3001,鸡西市,环保局,,20,20,49,7,31,64,,59,59,13,25,6,7,0.5,0.9
2025-10-31T1600,2243A,130.9429,45.3039,鸡西市,第一中学,,24,24,31,6,20,69,,58,58,6,10,6,9,0.5,0.6
2025-10-31T1600,3707A,131.0207,45.3073,鸡西市,欧美日汽修厂,,26,26,76,14,41,64,,56,56,15,29,8,15,0.4,0.7
2025-10-31T1600,3709A,130.9967,45.3106,鸡西市,市政设施管理处,,29,29,68,6,34,70,,65,65,14,32,8,10,0.2,0.6
2025-10-31T1600,2367A,114.9754,27.0803,吉安市,红声器材厂,,33,33,57,19,40,78,,80,80,15,18,9,10,0.8,1
2025-10-31T1600,2368A,114.9658,27.0999,吉安市,市森林工业局,,32,32,58,20,46,78,,76,76,14,20,8,10,0.6,0.8
2025-10-31T1600,2369A,114.99,27.1312,吉安市,市环境监测站,,43,43,53,26,52,73,,73,73,14,17,9,10,0.7,0.9
2025-10-31T1600,2370A,115.0093,27.0968,吉安市,青原区法院,,32,31,57,22,47,75,,74,74,14,18,8,10,0.7,0.9
2025-10-31T1600,1772A,126.54,43.8622,吉林市,哈达湾,,25,20,32,15,20,78,,62,62,9,23,7,8,0.5,0.6
2025-10-31T1600,1773A,126.5844,43.8358,吉林市,东局子,,23,16,32,10,18,72,,55,55,13,26,8,8,0.4,0.6
2025-10-31T1600,1774A,126.5052,43.8245,吉林市,电力学院,,25,16,39,14,34,77,,57,57,8,29,6,9,0.4,0.8
2025-10-31T1600,1775A,126.6133,43.8972,吉林市,江北,,26,26,46,11,32,70,,53,53,14,26,5,5,0.0,0.6
2025-10-31T1600,1776A,126.555,43.8306,吉林市,江南公园,,26,18,31,18,23,72,,51,51,9,27,7,6,0.3,0.6
2025-10-31T1600,1778A,126.7061,43.7133,吉林市,丰满,,33,,13,21,13,104,,89,89,6,5,8,7,0.3,0.6
2025-10-31T1600,2868A,126.4739,43.953,吉林市,九站,,26,26,44,18,26,79,,57,57,14,34,2,8,0.4,0.5
2025-10-31T1600,1299A,116.9862,36.6114,济南市,科干所,细颗粒物(PM2.5),113,129,107,85,60,67,,44,44,34,55,8,8,0.6,0.7
2025-10-31T1600,1300A,116.9376,36.665,济南市,农科所,细颗粒物(PM2.5),102,122,108,76,58,55,,42,42,35,56,7,8,0.8,0.9
2025-10-31T1600,1301A,117.1265,36.6734,济南市,开发区,细颗粒物(PM2.5),89,100,100,66,70,79,,48,48,30,54,3,4,0.7,0.8
2025-10-31T1600,1303A,117.0624,36.6868,济南市,省种子仓库,细颗粒物(PM2.5),94,110,111,70,74,79,,50,50,31,54,6,7,0.7,0.8
2025-10-31T1600,1304A,116.9489,36.6447,济南市,机床二厂,细颗粒物(PM2.5),138,127,117,105,84,61,,44,44,33,59,7,9,0.4,0.4
2025-10-31T1600,1305A,117.0495,36.663,济南市,市监测站,细颗粒物(PM2.5),110,107,109,83,79,77,,51,51,30,57,3,4,0.9,1
2025-10-31T1600,1306A,116.7675,36.5484,济南市,长清党校,细颗粒物(PM2.5),108,142,127,81,63,69,,37,37,27,56,6,7,0.6,0.7
2025-10-31T1600,1616A,117.6795,36.229,济南市,技术学院,细颗粒物(PM2.5),92,88,81,68,63,95,,70,70,22,39,8,11,0.7,0.7
2025-10-31T1600,1961A,117.532,36.6868,济南市,东山小学,细颗粒物(PM2.5),104,112,120,78,83,78,,46,46,27,55,7,8,0.5,0.7
2025-10-31T1600,3059A,117.7161,36.2049,济南市,泰兴公司,细颗粒物(PM2.5),92,102,82,68,55,87,,69,69,31,43,11,12,0.6,0.7
2025-10-31T1600,3064A,117.6867,36.2171,济南市,莱芜战役纪念馆,细颗粒物(PM2.5),99,102,83,74,66,79,,69,69,42,43,15,15,0.3,0.5
2025-10-31T1600,3494A,117.1673,36.9782,济南市,济阳区政府,细颗粒物(PM2.5),89,93,82,66,52,74,,51,51,22,45,7,7,0.6,0.6
2025-10-31T1600,3495A,117.1171,36.63,济南市,锦屏中学,细颗粒物(PM2.5),80,83,85,59,54,82,,51,51,28,45,5,5,0.8,0.9
2025-10-31T1600,3682A,116.9814,36.6819,济南市,济南四建,细颗粒物(PM2.5),98,95,101,73,70,71,,51,51,25,50,5,6,0.8,0.9
2025-10-31T1600,1653A,116.6251,35.4302,济宁市,火炬城,细颗粒物(PM2.5),175,142,155,132,138,38,,27,27,44,43,4,6,0.8,0.6
2025-10-31T1600,1655A,116.5491,35.4042,济宁市,电化厂,细颗粒物(PM2.5),178,181,171,134,115,31,,26,26,48,53,2,3,0.7,0.6
2025-10-31T1600,3500A,116.5814,35.3707,济宁市,北湖一中,细颗粒物(PM2.5),180,,124,136,119,38,,26,26,38,43,5,6,0.7,0.6
2025-10-31T1600,3501A,116.8249,35.5593,济宁市,服务中心,细颗粒物(PM2.5),138,125,101,105,88,20,,19,19,39,37,6,8,0.8,0.7
2025-10-31T1600,3678A,116.5907,35.4054,济宁市,市第七中学,细颗粒物(PM2.5),168,,139,127,113,38,,34,34,41,43,6,8,,0.6
2025-10-31T1600,2255A,130.2751,46.8028,佳木斯市,佳纺,细颗粒物(PM2.5),97,92,59,72,38,51,,64,64,34,23,7,6,0.5,0.5
2025-10-31T1600,2256A,130.3995,46.8307,佳木斯市,发电厂,细颗粒物(PM2.5),82,81,44,60,34,60,,64,64,28,23,8,8,0.5,0.4
2025-10-31T1600,2257A,130.3258,46.7975,佳木斯市,环保局,细颗粒物(PM2.5),89,76,45,66,36,56,,62,62,22,19,6,6,0.5,0.5
2025-10-31T1600,2258A,130.3648,46.8032,佳木斯市,十一中,细颗粒物(PM2.5),87,66,45,64,35,53,,58,58,24,18,9,9,0.6,0.5
2025-10-31T1600,2259A,130.3794,46.7588,佳木斯市,四丰,,,,,,,,,,,,,,,,
2025-10-31T1600,1252A,120.7436,30.778,嘉兴市,清河小学,,23,14,19,10,12,73,,59,59,17,25,8,8,0.8,0.7
2025-10-31T1600,1253A,120.726,30.7478,嘉兴市,嘉兴学院,,28,12,19,6,13,87,,66,66,14,23,6,5,0.5,0.4
2025-10-31T1600,2872A,120.7846,30.7525,嘉兴市,南湖区残联,,29,22,20,9,12,92,,77,77,14,20,7,6,0.5,0.5
2025-10-31T1600,3407A,120.6916,30.7739,嘉兴市,秀洲住建,,29,14,19,11,12,92,,79,79,12,23,9,8,0.4,0.5
2025-10-31T1600,1945A,98.2908,39.7711,嘉峪关市,气象局,颗粒物(PM10),86,122,103,29,32,117,,82,82,10,31,6,12,0.8,0.9
2025-10-31T1600,2884A,98.2672,39.7978,嘉峪关市,酒钢宾馆,颗粒物(PM10),86,122,108,31,35,114,,90,90,8,19,15,23,0.6,0.8
2025-10-31T1600,3248A,98.2643,39.7724,嘉峪关市,雄关区,颗粒物(PM10),71,92,96,32,35,113,,80,80,15,38,13,12,0.4,0.4
2025-10-31T1600,1383A,113.1064,22.6058,江门市,北街,颗粒物(PM10),53,55,49,31,38,128,,83,83,21,31,6,7,0.7,0.6
2025-10-31T1600,1384A,113.0731,22.5835,江门市,西区,,41,39,46,28,32,130,,84,84,21,30,5,7,0.5,0.5
2025-10-31T1600,1385A,113.0219,22.5311,江门市,圭峰西,细颗粒物(PM2.5),64,61,46,46,37,137,,90,90,20,24,6,6,0.6,0.6
2025-10-31T1600,1386A,113.0828,22.5947,江门市,东湖,细颗粒物(PM2.5),53,54,49,37,34,121,,80,80,21,27,6,7,0.5,0.5
2025-10-31T1600,3311A,113.1075,22.5647,江门市,江海富民,颗粒物(PM10),54,57,60,27,30,136,,85,85,25,32,9,10,0.7,0.6
2025-10-31T1600,3449A,113.05,22.4667,江门市,新会银湖,细颗粒物(PM2.5),57,47,50,40,41,132,,86,86,21,26,5,7,0.8,0.7
2025-10-31T1600,1830A,113.1992,35.2590,焦作市,影视城,,,,145,,107,,,52,,,28,,12,,1.2
2025-10-31T1600,3335A,113.3137,35.2641,焦作市,马村街道办,细颗粒物(PM2.5),204,204,176,154,136,79,,50,50,37,31,9,7,1.0,1
2025-10-31T1600,3336A,113.2465,35.2373,焦作市,焦作技师学院,细颗粒物(PM2.5),195,201,188,146,150,77,,63,63,47,38,8,6,1.3,1.5
2025-10-31T1600,3477A,113.1656,35.2539,焦作市,中站许衡医院,,42,42,159,19,115,104,,71,71,13,31,4,8,0.2,1.2
2025-10-31T1600,3981A,113.2449,35.1803,焦作市,原李万街道办,细颗粒物(PM2.5),70,73,162,51,128,103,,68,68,15,26,11,11,0.9,1.3
2025-10-31T1600,4264A,113.2340,35.2190,焦作市,新安路1731号,细颗粒物(PM2.5),207,189,193,157,150,80,,8,,30,30,11,7,1.4,1.4
2025-10-31T1600,4295A,113.2722,35.2121,焦作市,人民路3066号,细颗粒物(PM2.5),203,212,178,153,131,74,,58,58,44,37,12,8,1.4,1.3
2025-10-31T1600,1708A,116.3701,23.5345,揭阳市,新兴,,43,43,39,29,25,98,,85,85,19,18,10,7,0.7,0.7
2025-10-31T1600,1709A,116.3264,23.5443,揭阳市,西马,,25,24,39,17,24,72,,73,73,14,17,3,5,0.6,0.6
2025-10-31T1600,1710A,116.3611,23.5626,揭阳市,东兴,,40,40,43,22,22,87,,72,72,16,21,7,6,0.7,0.6
2025-10-31T1600,1711A,116.4151,23.5294,揭阳市,渔湖,颗粒物(PM10),54,58,39,18,18,119,,88,88,17,23,8,7,1.2,0.7
2025-10-31T1600,3320A,116.403,23.5699,揭阳市,曲溪,颗粒物(PM10),51,52,38,20,22,117,,85,85,16,22,7,2,1.2,0.6
2025-10-31T1600,1944A,102.1692,38.5167,金昌市,天庆家园,颗粒物(PM10),71,92,101,28,36,101,,72,72,11,28,8,11,0.5,0.8
2025-10-31T1600,4022A,102.1647,38.5371,金昌市,金川区人防中心,颗粒物(PM10),67,84,86,35,49,98,,70,70,10,22,6,10,0.7,0.9
2025-10-31T1600,4239A,102.1930,38.5319,金昌市,长春路96号,颗粒物(PM10),65,79,89,27,34,103,,73,73,6,23,8,12,0.4,0.7
2025-10-31T1600,1262A,119.647,29.077,金华市,十五中,,33,25,41,23,37,43,,31,31,22,40,6,5,0.6,0.7
2025-10-31T1600,1263A,119.686,29.1029,金华市,监测站,,20,20,36,8,22,38,,29,29,20,37,3,3,0.4,0.5
2025-10-31T1600,3659A,119.656,29.1131,金华市,气象局,,18,13,33,12,37,36,,31,31,20,40,4,4,0.5,0.7
2025-10-31T1600,1767A,121.1115,41.0879,锦州市,南山,,40,40,56,24,40,69,,70,70,29,38,12,11,0.5,0.9
2025-10-31T1600,1768A,121.0604,40.8428,锦州市,开发区,,23,16,69,16,39,68,,62,62,26,40,15,39,0.4,0.8
2025-10-31T1600,1769A,121.1836,41.1119,锦州市,百股街道,颗粒物(PM10),51,51,54,22,35,72,,64,64,24,35,14,20,0.6,0.8
2025-10-31T1600,1770A,121.1178,41.1222,锦州市,天安街道,,44,44,55,24,32,81,,68,68,20,40,18,13,0.8,0.9
2025-10-31T1600,1771A,121.1303,41.1386,锦州市,北湖公园,颗粒物(PM10),51,52,56,23,28,81,,64,64,21,35,16,11,0.6,0.7
2025-10-31T1600,2160A,112.85,35.5051,晋城市,自来水公司,颗粒物(PM10),58,66,142,9,100,92,,71,71,17,21,5,5,0.3,1
2025-10-31T1600,2161A,112.8318,35.4936,晋城市,白云商贸,颗粒物(PM10),64,78,144,3,89,97,,76,76,11,20,2,2,0.1,0.7
2025-10-31T1600,2162A,112.8508,35.4887,晋城市,市环保局,,36,36,138,7,86,100,,77,77,5,10,5,4,0.6,1.2
2025-10-31T1600,2163A,112.8676,35.4897,晋城市,技术学院,,33,33,136,7,90,90,,70,70,10,20,5,4,0.4,1.1
2025-10-31T1600,2165A,112.8453,35.546,晋城市,白马寺,,36,24,108,9,86,113,,90,90,6,13,7,7,0.5,1.2
2025-10-31T1600,3620A,112.8271,35.4828,晋城市,泽州一中,,,54,169,,142,103,,43,,,19,3,2,0.3,1
2025-10-31T1600,2173A,112.7249,37.7067,晋中市,南都小区,,46,46,117,8,72,95,,69,69,12,37,5,7,0.2,0.9
2025-10-31T1600,2174A,112.6991,37.6982,晋中市,榆次区政府,,44,44,116,14,92,94,,55,55,15,39,7,8,0.3,1
2025-10-31T1600,2865A,112.7195,37.6828,晋中市,榆次三中,,41,41,123,3,82,96,,59,59,5,32,8,10,0,0.7
2025-10-31T1600,4200A,112.7478,37.6954,晋中市,迎宾街26号,颗粒物(PM10),52,53,118,9,83,95,,58,58,11,32,6,7,0.3,0.8
2025-10-31T1600,2439A,112.2014,31.0481,荆门市,竹园小学,细颗粒物(PM2.5),77,76,97,56,70,28,,28,28,33,29,1,2,0.6,0.7
2025-10-31T1600,2440A,112.1969,30.9891,荆门市,掇刀,细颗粒物(PM2.5),74,63,107,54,83,43,,45,45,19,32,4,2,0.5,0.7
2025-10-31T1600,2441A,112.2213,31.0386,荆门市,石化一小,细颗粒物(PM2.5),79,86,103,58,83,26,,25,25,33,35,18,6,0.1,0.4
2025-10-31T1600,3012A,112.1849,31.0362,荆门市,西山林语,细颗粒物(PM2.5),59,61,85,42,61,26,,26,24,27,19,4,3,0.6,0.6
2025-10-31T1600,3547A,112.1632,31.0138,荆门市,龙泉中学南校,,45,45,56,29,43,33,,43,33,27,24,6,5,0.5,0.4
2025-10-31T1600,1844A,112.2494,30.3197,荆州市,市图书馆,细颗粒物(PM2.5),53,49,67,37,52,85,,63,63,20,42,6,6,0.7,0.9
2025-10-31T1600,1845A,112.2008,30.3544,荆州市,市委党校,细颗粒物(PM2.5),53,49,75,37,52,79,,52,52,20,36,8,8,0.8,1
2025-10-31T1600,3194A,112.2747,30.3122,荆州市,管委会,细颗粒物(PM2.5),60,43,75,43,55,72,,54,54,20,44,5,6,0.7,1.1
2025-10-31T1600,4268A,112.1722,30.3366,荆州市,学苑路85号,细颗粒物(PM2.5),64,,61,46,67,94,,66,66,17,27,6,5,0.5,0.6
2025-10-31T1600,2342A,117.3102,29.3867,景德镇市,王港中学,,,,,,,,,,,,,,,,
2025-10-31T1600,2343A,117.2117,29.2933,景德镇市,老干部活动中心,,23,,20,13,20,72,,59,59,6,5,3,4,0.5,0.6
2025-10-31T1600,2344A,117.1894,29.2789,景德镇市,兽医站,,25,16,28,7,17,80,,60,60,7,12,6,6,0.5,0.5
2025-10-31T1600,2346A,117.2461,29.2956,景德镇市,陶研所,,25,,22,12,23,80,,60,60,3,8,6,7,0.8,0.8
2025-10-31T1600,4289A,117.1542,29.2566,景德镇市,青少年活动中心,,25,,25,11,20,78,,58,58,6,12,3,4,0.4,0.7
2025-10-31T1600,1803A,115.9872,29.6815,九江市,十里,,33,,64,23,51,95,,60,60,13,26,4,5,0.7,1
2025-10-31T1600,1804A,115.9584,29.7046,九江市,茅山头,,29,28,58,20,46,77,,50,50,16,23,5,7,0.6,0.8
2025-10-31T1600,1805A,115.9877,29.7295,九江市,西园,,29,23,56,12,42,92,,56,56,24,37,6,13,0.7,0.8
2025-10-31T1600,1808A,115.9114,29.6038,九江市,综合工业园,,39,,65,27,53,88,,65,65,19,31,2,3,0.6,0.8
2025-10-31T1600,1809A,116.0721,29.7535,九江市,石化总厂,,36,36,61,22,44,83,,58,58,16,28,6,5,0.5,0.7
2025-10-31T1600,1810A,115.9773,29.5698,九江市,庐山气象台,,,,,,,,,,,,,,,,
2025-10-31T1600,3190A,116.0254,29.6994,九江市,外国语学校,,28,23,56,19,49,82,,56,56,23,34,6,7,0.7,0.9
2025-10-31T1600,4253A,116.0102,29.6594,九江市,莲花大道8号,,26,25,66,9,69,83,,53,53,9,18,7,7,0.5,0.8
2025-10-31T1600,4240A,98.4958,39.7339,酒泉市,玉门东路5号,颗粒物(PM10),79,107,120,19,36,102,,70,70,9,24,13,16,0.4,0.6
2025-10-31T1600,4241A,98.5099,39.7506,酒泉市,北大街108号,颗粒物(PM10),75,100,123,20,40,102,,70,70,7,24,11,14,0.4,0.6
2025-10-31T1600,2698A,76.0072,39.4467,喀什地区,巡警大队,颗粒物(PM10),87,123,208,43,64,91,,36,36,10,52,5,6,0.2,1
2025-10-31T1600,2699A,75.9755,39.4694,喀什地区,吾办,颗粒物(PM10),89,128,193,60,73,86,,36,36,10,49,4,5,0.2,1.1
2025-10-31T1600,4027A,75.9483,39.4689,喀什地区,老干局,颗粒物(PM10),95,140,204,34,59,88,,46,46,15,56,3,3,0.2,1.1
2025-10-31T1600,1824A,114.3389,34.7781,开封市,肿瘤医院,细颗粒物(PM2.5),160,160,195,122,140,106,,68,68,30,36,10,8,1.2,1.2
2025-10-31T1600,1826A,114.2885,34.7965,开封市,世纪星幼儿园,细颗粒物(PM2.5),221,,185,171,166,102,,60,60,29,35,9,8,1.2,1.1
2025-10-31T1600,3147A,114.3438,34.8106,开封市,龙亭公园,细颗粒物(PM2.5),216,176,199,166,160,96,,58,58,27,36,10,9,1.3,1.2
2025-10-31T1600,3210A,114.3644,34.7964,开封市,汴京公园,细颗粒物(PM2.5),210,218,214,160,149,89,,58,58,29,36,9,9,1.2,1.1
2025-10-31T1600,3473A,114.2485,34.8306,开封市,技师学院,细颗粒物(PM2.5),210,192,200,160,166,95,,57,57,31,36,10,10,1.2,1.2
2025-10-31T1600,3592A,114.4644,34.7556,开封市,祥符区生态环境局,细颗粒物(PM2.5),127,197,201,96,116,108,,69,69,33,40,8,7,1.2,1.1
2025-10-31T1600,1951A,84.895,45.6094,克拉玛依市,长征新村,,43,43,35,19,15,60,,39,39,16,21,3,2,0.2,0.3
2025-10-31T1600,1952A,84.8988,45.5893,克拉玛依市,南林小区,,42,42,49,13,15,56,,34,34,20,22,3,3,0.1,0.6
2025-10-31T1600,1954A,84.905,44.3396,克拉玛依市,独山子区,颗粒物(PM10),55,59,107,38,45,74,,45,45,11,28,9,6,0.4,0.6
2025-10-31T1600,1955A,85.6979,46.098,克拉玛依市,乌尔禾区商贸楼,颗粒物(PM10),52,54,39,21,17,84,,48,48,11,23,6,5,0.2,0.3
2025-10-31T1600,3612A,85.1045,45.6899,克拉玛依市,白碱滩区新站,颗粒物(PM10),52,53,48,15,15,67,,52,47,14,8,6,5,0.2,0.2
2025-10-31T1600,2697A,76.1454,39.7142,克孜勒苏柯尔克孜自治州,市人民政府,颗粒物(PM10),78,106,120,38,48,100,,77,77,3,15,6,7,0.3,0.2
2025-10-31T1600,3665A,76.1658,39.7157,克孜勒苏柯尔克孜自治州,克州文化中心,细颗粒物(PM2.5),94,98,125,70,45,97,,78,78,3,16,7,8,0.2,0.3
2025-10-31T1600,1450A,102.8204,24.8886,昆明市,呈贡新区,,24,18,38,15,46,74,,59,59,8,22,1,5,0.7,0.9
2025-10-31T1600,1451A,102.6251,24.9608,昆明市,西山森林公园,,,,,,,,,,,,,,,,
2025-10-31T1600,1452A,102.7252,25.0902,昆明市,龙泉镇,,22,18,34,10,20,69,,56,56,12,17,3,3,0.4,0.5
2025-10-31T1600,1453A,102.7266,25.0375,昆明市,东风东路,,25,21,46,17,24,72,,59,59,11,20,2,2,0.4,0.6
2025-10-31T1600,1454A,102.6742,25.0669,昆明市,金鼎山,,35,35,36,14,21,64,,56,56,17,16,1,2,0.3,0.4
2025-10-31T1600,1455A,102.6644,25.0401,昆明市,碧鸡广场,,20,18,41,11,23,64,,51,51,12,24,8,9,0.4,0.5
2025-10-31T1600,3179A,102.7494,25.0119,昆明市,官渡区博物馆,,25,24,41,17,21,71,,59,59,10,28,2,3,0.3,0.6
2025-10-31T1600,3375A,102.8017,24.8336,昆明市,青年创业园,,24,14,37,12,27,74,,57,57,2,13,2,2,0.4,0.6
2025-10-31T1600,3550A,102.7997,24.9786,昆明市,昆明学院,,,21,56,10,29,70,,58,58,,28,8,9,,0.7
2025-10-31T1600,3551A,102.5967,24.6736,昆明市,晋宁区生态环境分局,,24,,35,12,22,76,,61,61,5,14,2,2,0.4,0.4
2025-10-31T1600,3552A,102.6678,24.9856,昆明市,云天化总部,,22,16,40,11,25,68,,58,58,9,25,4,5,0.5,0.6
2025-10-31T1600,1456A,91.1319,29.6514,拉萨市,八廓街,,32,,8,6,7,102,,79,79,6,9,5,5,0.2,0.3
2025-10-31T1600,1457A,91.1221,29.6747,拉萨市,市环保局,,30,6,9,6,7,95,,67,67,10,11,7,7,0.1,0.2
2025-10-31T1600,1458A,91.0874,29.6475,拉萨市,区监测站,,31,6,7,3,6,97,,75,75,11,15,4,4,0.1,0.2
2025-10-31T1600,1459A,91.1774,29.6541,拉萨市,西藏大学,,31,6,8,3,6,99,,80,80,8,11,4,4,0.1,0.2
2025-10-31T1600,1460A,90.9798,29.6588,拉萨市,区辐射站,,27,,9,6,7,86,,56,56,9,16,5,4,0.3,0.3
2025-10-31T1600,1461A,91.0834,29.6292,拉萨市,拉萨火车站,,30,9,10,3,6,96,,78,78,9,10,5,5,0.3,0.3
2025-10-31T1600,2520A,109.2203,23.7256,来宾市,来宾技工学校,,39,39,39,24,29,93,,65,65,7,8,9,8,0.6,0.6
2025-10-31T1600,3535A,109.1781,23.7297,来宾市,兴宾区政府,,43,36,43,30,33,86,,62,62,9,8,10,8,0.8,0.7
2025-10-31T1600,4002A,109.2416,23.7461,来宾市,中南小学,,35,35,40,20,31,88,,63,63,9,11,8,7,0.8,0.9
2025-10-31T1600,1477A,104.1373,35.9454,兰州市,榆中兰大校区,,,,,,,,,,,,,,,,
2025-10-31T1600,1479A,103.831,36.0464,兰州市,铁路设计院,,,,,,,,,,,,,,,,
2025-10-31T1600,3241A,103.7439,36.0842,兰州市,百合公园,颗粒物(PM10),54,58,76,29,36,88,,43,43,20,53,9,6,0.7,0.9
2025-10-31T1600,3242A,103.9611,35.998,兰州市,和平,颗粒物(PM10),59,67,79,28,34,108,,68,68,12,28,9,9,0.5,0.6
2025-10-31T1600,4236A,103.6293,36.0938,兰州市,庄浪东路808号,颗粒物(PM10),68,86,81,40,40,84,,69,69,48,56,12,11,0.6,0.7
2025-10-31T1600,4237A,103.7251,36.1043,兰州市,安宁西路88号,颗粒物(PM10),63,75,89,37,41,101,,57,57,28,51,7,5,0.6,0.6
2025-10-31T1600,4238A,103.8470,36.0676,兰州市,北滨河东路1号,颗粒物(PM10),60,69,82,27,32,101,,56,56,24,55,11,12,0.6,0.8
2025-10-31T1600,3245A,103.6633,36.533,兰州新区,新区管委会,,46,46,56,18,31,120,,85,85,7,12,7,15,0.3,0.3
2025-10-31T1600,3246A,103.6975,36.4789,兰州新区,舟曲中学,颗粒物(PM10),57,64,66,29,25,122,,85,85,6,16,6,8,0.4,0.4
2025-10-31T1600,1067A,116.6708,39.5111,廊坊市,药材公司,细颗粒物(PM2.5),109,82,51,82,40,55,,34,34,30,32,2,2,0.7,0.7
2025-10-31T1600,1068A,116.7214,39.5589,廊坊市,开发区,细颗粒物(PM2.5),97,86,51,72,40,56,,36,36,29,32,1,1,0.6,0.5
2025-10-31T1600,1070A,116.7244,39.5269,廊坊市,北华航天学院,细颗粒物(PM2.5),97,100,86,72,40,56,,38,38,28,33,4,3,0.6,0.6
2025-10-31T1600,2919A,116.7022,39.5453,廊坊市,河北工业大学,细颗粒物(PM2.5),95,89,44,71,42,56,,36,36,20,27,2,2,0.6,0.5
2025-10-31T1600,2535A,103.7723,29.5462,乐山市,花湖湾,,,,,,,,,,,,,,,,
2025-10-31T1600,2536A,103.7627,29.5844,乐山市,牛耳桥,,32,24,24,22,21,41,,45,39,27,24,6,6,0.6,0.7
2025-10-31T1600,2537A,103.7508,29.6006,乐山市,市第三水厂,,29,25,25,20,19,43,,45,42,18,18,5,5,0.6,0.7
2025-10-31T1600,2538A,103.7571,29.5664,乐山市,市监测站,,29,24,21,20,18,34,,46,38,22,16,6,6,0.7,0.7
2025-10-31T1600,3361A,103.7311,29.5628,乐山市,理工大学,,28,21,21,19,18,36,,44,36,25,17,7,7,0.5,0.6
2025-10-31T1600,2598A,100.2143,26.8576,丽江市,西南郊,,17,6,17,3,9,54,,48,48,2,8,7,6,0.8,0.8
2025-10-31T1600,2599A,100.2497,26.8802,丽江市,丽江古城,,16,12,20,8,11,50,,48,48,10,13,9,9,0.6,0.6
2025-10-31T1600,2600A,100.2203,26.8906,丽江市,市中心,,17,13,17,11,15,54,,46,46,9,15,10,10,0.4,0.5
2025-10-31T1600,1267A,119.914,28.4514,丽水市,监测站大楼,,17,17,13,7,8,49,,35,35,15,19,5,4,0.5,0.4
2025-10-31T1600,1268A,119.93,28.4586,丽水市,莲都小学,,23,23,16,8,6,58,,37,37,13,18,4,4,0.4,0.4
2025-10-31T1600,1269A,119.879,28.4231,丽水市,余庄前,,14,14,18,8,11,42,,31,31,21,19,2,2,0.5,0.4
2025-10-31T1600,1173A,119.176,34.5885,连云港市,市环境监测站,,33,24,25,19,20,104,,64,64,12,19,7,6,0.5,0.5
2025-10-31T1600,3000A,119.3581,34.6972,连云港市,德源药业,,29,29,21,17,14,90,,70,70,23,25,5,5,0.4,0.4
2025-10-31T1600,3007A,119.178,34.844,连云港市,新城一中,,33,32,34,14,18,103,,76,76,22,36,6,6,0.7,0.6
2025-10-31T1600,3008A,119.3608,34.7519,连云港市,胡沟管理处,,33,14,15,9,10,105,,77,77,17,22,10,10,0.5,0.3
2025-10-31T1600,3009A,119.1478,34.5911,连云港市,矿山设计院,,34,29,28,22,23,108,,60,60,11,18,4,4,0.5,0.6
2025-10-31T1600,3434A,119.2413,34.6539,连云港市,工贸学校,,41,41,24,21,15,113,,78,78,13,12,8,8,0.7,0.6
2025-10-31T1600,3664A,119.4172,34.7341,连云港市,连云街道,,29,23,19,15,12,92,,82,82,34,17,7,4,0.6,0.4
2025-10-31T1600,2571A,102.3431,27.8099,凉山彝族自治州,青龙寺,,,,,,,,,,,,,,,,
2025-10-31T1600,2572A,102.2721,27.8415,凉山彝族自治州,邛海宾馆,,12,9,18,6,11,38,,28,28,3,14,10,15,0.8,0.8
2025-10-31T1600,2573A,102.2625,27.898,凉山彝族自治州,西昌市政府,,29,29,24,9,22,25,,26,16,11,17,6,9,0.6,0.7
2025-10-31T1600,2574A,102.2685,27.8851,凉山彝族自治州,凉山州政府,,,16,29,,34,28,,28,18,10,16,8,11,0.8,0.8
2025-10-31T1600,4229A,102.2342,27.8859,凉山彝族自治州,凯乐南路30号,,12,12,34,3,19,36,,16,16,14,30,8,12,0.9,1
2025-10-31T1600,2212A,123.2,41.1953,辽阳市,宏伟区,,33,33,76,20,29,57,,40,40,25,38,12,16,0.4,0.9
2025-10-31T1600,2213A,123.1683,41.2495,辽阳市,新华园,,33,33,71,14,33,61,,42,42,24,40,7,17,0.3,0.9
2025-10-31T1600,2214A,123.2354,41.2639,辽阳市,滨河路,,35,35,90,19,40,60,,46,46,24,42,8,16,0.4,1
2025-10-31T1600,2215A,123.149,41.2991,辽阳市,铁西工业园,,34,34,77,18,48,57,,38,38,27,46,7,13,0.5,1
2025-10-31T1600,2227A,125.1358,42.8845,辽源市,环保局,,,59,78,8,25,76,,58,58,,24,3,5,0,0.4
2025-10-31T1600,3239A,125.0764,42.9078,辽源市,银鹰制药,,29,11,47,7,28,90,,67,67,4,32,2,7,0.3,0.6
2025-10-31T1600,1625A,115.9848,36.4372,聊城市,区政府,细颗粒物(PM2.5),127,136,179,96,112,59,,36,36,38,54,8,8,0.8,1
2025-10-31T1600,2878A,116.0072,36.4343,聊城市,聊大东校,细颗粒物(PM2.5),132,141,174,100,115,66,,37,37,32,51,7,7,0.8,0.9
2025-10-31T1600,3200A,115.9819,36.4978,聊城市,监控中心,细颗粒物(PM2.5),140,121,173,107,121,74,,42,42,24,45,8,9,0.8,1
2025-10-31T1600,3513A,116.0445,36.4361,聊城市,九州社区,细颗粒物(PM2.5),122,132,161,92,97,65,,38,38,24,40,1,2,0.6,0.8
2025-10-31T1600,4018A,116.0567,36.4608,聊城市,星美广场,细颗粒物(PM2.5),117,143,173,88,98,62,,38,38,25,49,2,3,0.7,0.9
2025-10-31T1600,2632A,94.3681,29.6376,林芝市,林芝监测站,,13,8,7,3,5,41,,38,30,4,7,5,4,0.4,0.4
2025-10-31T1600,2633A,94.3616,29.6616,林芝市,林芝人民医院,,12,6,9,3,6,37,,37,,5,7,5,5,0.4,0.5
2025-10-31T1600,2603A,100.0781,23.8982,临沧市,市环保局,,23,20,23,16,26,48,,39,39,3,6,7,5,0.5,0.7
2025-10-31T1600,2604A,100.0894,23.8822,临沧市,市气象局,,19,14,24,13,23,50,,39,39,4,8,7,7,0.5,0.7
2025-10-31T1600,1733A,111.5531,36.0783,临汾市,临钢医院,,43,43,148,7,82,92,,62,62,8,27,6,7,0.5,1.5
2025-10-31T1600,1734A,111.5028,36.0714,临汾市,技工学校,,29,19,142,12,93,92,,54,54,8,34,5,7,0.1,1.1
2025-10-31T1600,1736A,111.5018,36.0855,临汾市,市委,,30,16,150,3,94,96,,56,56,6,31,4,6,0.2,1.3
2025-10-31T1600,3018A,111.505,36.1014,临汾市,唐尧大酒店,,33,33,138,6,87,99,,58,58,5,27,3,4,0.4,1.4
2025-10-31T1600,4244A,111.4879,36.0530,临汾市,启星学校,,31,31,98,9,78,98,,57,57,12,33,6,7,0.3,1.4
2025-10-31T1600,4271A,103.2464,35.6123,临夏回族自治州,滨河东路1号,颗粒物(PM10),65,80,123,35,60,83,,54,54,13,34,10,8,0.4,0.9
2025-10-31T1600,4310A,103.2093,35.5995,临夏回族自治州,新华街21号,颗粒物(PM10),102,153,103,24,49,91,,69,69,14,26,,11,,0.7
2025-10-31T1600,1618A,118.3429,35.0532,临沂市,沂河小区,细颗粒物(PM2.5),63,70,67,45,44,103,,84,84,24,34,8,9,0.5,0.5
2025-10-31T1600,1619A,118.295,35.0583,临沂市,鲁南制药厂,细颗粒物(PM2.5),54,51,69,38,49,110,,93,93,21,35,9,10,0.6,0.7
2025-10-31T1600,1620A,118.2794,34.9976,临沂市,新光毛纺厂,细颗粒物(PM2.5),55,48,71,39,53,107,,84,84,22,41,8,12,0.4,0.5
2025-10-31T1600,1621A,118.3956,35.0888,临沂市,河东保险公司,细颗粒物(PM2.5),80,68,73,59,46,103,,88,88,22,45,8,7,0.6,0.7
2025-10-31T1600,3370A,118.3564,35.0215,临沂市,十里堡居委,,44,44,59,29,42,112,,90,90,20,34,9,10,0.5,0.6
2025-10-31T1600,3496A,118.3604,35.1084,临沂市,南坊新区,细颗粒物(PM2.5),62,53,62,44,48,110,,90,90,25,34,9,10,0.6,0.7
2025-10-31T1600,3860A,118.3920,35.0300,临沂市,皇山花园小区,细颗粒物(PM2.5),60,63,60,43,38,112,,92,92,20,31,10,11,0.6,0.7
2025-10-31T1600,1870A,109.4856,24.3895,柳州市,柳东小学,,39,35,35,27,29,76,,63,63,5,8,6,6,0.7,0.6
2025-10-31T1600,1871A,109.4157,24.3277,柳州市,环保监测站,,35,34,40,24,18,70,,61,61,5,11,7,10,0.8,0.8
2025-10-31T1600,1872A,109.389,24.341,柳州市,河西水厂,,36,36,43,23,30,75,,65,65,7,14,5,11,0.5,0.7
2025-10-31T1600,1873A,109.4311,24.2921,柳州市,市四中,,38,36,38,26,26,66,,59,59,9,14,8,9,0.7,0.7
2025-10-31T1600,1874A,109.4006,24.3631,柳州市,市九中,,42,42,32,26,26,70,,61,61,7,13,3,6,0.6,0.7
2025-10-31T1600,1875A,109.4958,24.3134,柳州市,古亭山,,45,45,37,30,23,77,,64,64,5,7,7,7,0.7,0.7
2025-10-31T1600,3402A,109.5422,24.3996,柳州市,市二中,,40,35,33,28,26,90,,66,66,9,11,8,7,0.8,0.6
2025-10-31T1600,2307A,116.5079,31.737,六安市,监测大楼,细颗粒物(PM2.5),69,,46,50,55,101,,73,73,15,17,3,3,0.5,0.5
2025-10-31T1600,2308A,116.4738,31.7643,六安市,皖西学院,细颗粒物(PM2.5),59,56,56,42,55,103,,77,77,10,15,2,2,0.5,0.4
2025-10-31T1600,2309A,116.4996,31.7905,六安市,朝阳厂,细颗粒物(PM2.5),57,43,47,40,50,87,,66,66,16,20,4,4,0.4,0.4
2025-10-31T1600,2310A,116.5567,31.7886,六安市,开发区,颗粒物(PM10),52,54,56,35,46,84,,70,70,21,18,2,2,0.6,0.5
2025-10-31T1600,2576A,104.8,26.5892,六盘水市,窑上,,22,22,26,9,14,42,,34,32,8,8,2,2,0.5,0.6
2025-10-31T1600,2577A,104.83,26.5917,六盘水市,黄土坡,,16,,20,3,13,50,,37,30,11,18,4,6,0.6,0.9
2025-10-31T1600,2578A,104.89,26.5939,六盘水市,水钢,,25,25,25,17,11,48,,42,37,16,10,8,6,1.5,0.7
2025-10-31T1600,2579A,104.8475,26.5894,六盘水市,民中,,13,6,21,3,11,40,,38,28,15,16,3,4,0.6,0.8
2025-10-31T1600,2580A,104.9544,26.5506,六盘水市,双水,,15,9,20,7,10,45,,43,33,12,11,3,4,0.4,0.5
2025-10-31T1600,2335A,117.0189,25.1181,龙岩市,龙岩师专,,,,,,,,,,,,,,,,
2025-10-31T1600,2336A,117.0217,25.1033,龙岩市,龙岩市监测站,,24,16,21,12,17,74,,67,67,8,19,7,9,0.5,0.5
2025-10-31T1600,2337A,117.0258,25.0661,龙岩市,闽西职业技术学院,,24,16,26,12,17,76,,69,69,7,17,7,7,0.5,0.5
2025-10-31T1600,2338A,117.0196,25.0306,龙岩市,龙岩学院,,22,20,20,13,15,70,,64,64,11,13,7,6,0.4,0.4
2025-10-31T1600,2665A,105.0822,33.3261,陇南市,汉王镇固水子,,,,,,,,,,,,,,,,
2025-10-31T1600,2885A,104.9339,33.3826,陇南市,滨江中学,颗粒物(PM10),62,74,60,27,27,40,,25,25,22,25,9,8,0.6,0.8
2025-10-31T1600,3247A,104.955,33.371,陇南市,市总工会,颗粒物(PM10),57,64,51,29,24,41,,25,25,21,18,10,8,0.5,0.4
2025-10-31T1600,2487A,111.9589,27.8901,娄底市,电视发射台,,,,,,,,,,,,,,,,
2025-10-31T1600,2488A,111.9975,27.725,娄底市,市监测站,,44,44,44,30,30,92,,67,67,12,22,7,10,0.3,0.6
2025-10-31T1600,2489A,112.0194,27.7314,娄底市,市委党校,,45,42,40,31,32,86,,61,61,12,16,3,5,0.6,0.8
2025-10-31T1600,2490A,111.9561,27.7569,娄底市,涟钢,,42,41,40,29,31,76,,62,62,14,14,8,8,0.3,0.4
2025-10-31T1600,2491A,111.9892,27.7044,娄底市,市政府,,45,36,39,31,32,89,,71,71,8,11,8,8,0.7,0.9
2025-10-31T1600,1893A,105.4324,28.9634,泸州市,九狮山,,,,,,,,,,,,,,,,
2025-10-31T1600,1894A,105.4427,28.9063,泸州市,小市上码头,,40,40,36,27,26,20,,21,16,14,16,8,8,0.4,0.5
2025-10-31T1600,1895A,105.4241,28.8573,泸州市,兰田宪桥,,41,41,42,3,24,20,,16,16,14,16,6,6,0.4,0.5
2025-10-31T1600,1896A,105.4379,28.8833,泸州市,市环监站,,40,40,40,28,25,22,,20,15,21,21,9,9,0.5,0.5
2025-10-31T1600,4272A,105.3689,28.7783,泸州市,纳溪中医医院,,36,33,34,25,25,40,,31,31,12,18,5,6,0.5,0.6
2025-10-31T1600,2183A,111.1406,37.5211,吕梁市,环保局,,,51,85,37,30,94,,53,53,,43,7,5,0.3,0.5
2025-10-31T1600,2185A,111.1297,37.5136,吕梁市,自来水公司,,36,36,100,3,29,92,,53,53,10,32,4,4,0.3,0.6
2025-10-31T1600,2867A,111.1283,37.51,吕梁市,马茂庄小学,,48,48,91,12,28,95,,54,54,11,40,5,4,0.2,0.5
2025-10-31T1600,1812A,112.3931,34.6516,洛阳市,市委党校,颗粒物(PM10),55,59,150,32,110,103,,63,63,17,30,9,7,0.5,1
2025-10-31T1600,1815A,112.494,34.6886,洛阳市,河南林校,颗粒物(PM10),61,71,152,34,130,101,,55,55,21,31,11,9,0.5,0.9
2025-10-31T1600,1816A,112.3844,34.623,洛阳市,开发区管委会,颗粒物(PM10),55,59,162,33,123,108,,69,69,16,25,8,7,0.5,1
2025-10-31T1600,1817A,112.4267,34.6258,洛阳市,市委新办公区,,46,45,164,32,104,109,,69,69,16,28,8,7,0.3,0.8
2025-10-31T1600,3340A,112.6005,34.6326,洛阳市,伊滨,颗粒物(PM10),58,65,130,32,125,104,,61,61,26,31,9,7,0.3,0.8
2025-10-31T1600,3341A,112.4951,34.6332,洛阳市,中移产业园,颗粒物(PM10),56,62,178,30,120,109,,67,67,16,31,7,7,0.4,1
2025-10-31T1600,3593A,112.5736,34.8993,洛阳市,吉利监测站,,43,43,152,17,130,100,,54,54,13,31,7,7,0.4,1
2025-10-31T1600,3635A,112.3677,34.662,洛阳市,河科大西苑校区,颗粒物(PM10),58,65,163,35,117,106,,64,64,19,32,8,8,0.6,1
2025-10-31T1600,3636A,112.4388,34.6781,洛阳市,英才小学,颗粒物(PM10),61,71,206,43,79,97,,51,51,20,36,9,7,0.6,1.2
2025-10-31T1600,4214A,112.4600,34.6949,洛阳市,春都路1号院,颗粒物(PM10),75,99,136,33,104,91,,47,47,15,30,11,8,0.8,1.2
2025-10-31T1600,2399A,114.051,33.5699,漯河市,三五一五工厂,颗粒物(PM10),102,154,194,74,119,109,,80,80,13,29,9,7,0.9,1
2025-10-31T1600,2400A,114.0055,33.5698,漯河市,漯河大学,颗粒物(PM10),94,137,188,68,136,111,,76,76,16,31,8,6,0.6,0.8
2025-10-31T1600,2401A,114.0138,33.5828,漯河市,市水利局,细颗粒物(PM2.5),92,132,201,68,138,110,,76,76,15,30,9,7,0.7,1
2025-10-31T1600,2402A,114.0261,33.5698,漯河市,市广电局,颗粒物(PM10),91,132,207,66,125,113,,78,78,12,29,7,6,0.7,0.9
2025-10-31T1600,3478A,113.9749,33.5664,漯河市,市图书馆,,,144,216,51,134,101,,69,69,15,29,6,5,,0.9
2025-10-31T1600,4250A,114.0892,33.5882,漯河市,韶山路11号,细颗粒物(PM2.5),166,196,216,126,144,104,,74,74,19,36,10,8,0.8,0.9
2025-10-31T1600,1798A,118.5092,31.6837,马鞍山市,湖东路四小,,30,30,19,19,15,88,,65,65,15,17,7,7,0.7,0.6
2025-10-31T1600,1799A,118.5024,31.6449,马鞍山市,开发区,,28,27,19,19,13,85,,68,68,21,18,5,7,0.4,0.4
2025-10-31T1600,1802A,118.6245,31.7241,马鞍山市,濮塘,,,,,,,,,,,,,,,,
2025-10-31T1600,3633A,118.4918,31.6809,马鞍山市,雨山,,30,23,18,20,13,94,,67,67,15,18,4,7,0.7,0.7
2025-10-31T1600,4191A,118.5274,31.72227,马鞍山市,慈湖高新区,,45,32,26,31,15,87,,63,63,17,18,3,4,0.4,0.5
2025-10-31T1600,1686A,111.0286,21.4688,茂名市,电白南海,颗粒物(PM10),51,51,76,22,52,126,,89,89,14,21,8,11,0.5,0.5
2025-10-31T1600,1687A,110.9294,21.6533,茂名市,茂石化七小,,,63,67,36,43,111,,81,81,12,18,11,16,,0.8
2025-10-31T1600,1688A,110.9107,21.6687,茂名市,健康路,细颗粒物(PM2.5),58,51,55,41,38,134,,91,91,11,17,14,22,0.7,0.8
2025-10-31T1600,1689A,110.8592,21.6828,茂名市,高岭,颗粒物(PM10),56,61,66,39,35,124,,82,82,17,18,13,16,0.7,0.7
2025-10-31T1600,3450A,111.01,21.5165,茂名市,电白水东,,39,39,61,24,40,118,,85,85,10,18,9,12,0.6,0.8
2025-10-31T1600,2539A,104.0308,30.0478,眉山市,黑龙滩水库,,,,,,,,,,,,,,,,
2025-10-31T1600,2540A,103.8416,30.0874,眉山市,气象局,,28,28,39,17,20,62,,45,45,14,17,9,8,0.3,0.4
2025-10-31T1600,3137A,103.8578,30.0744,眉山市,市委党校,,17,17,24,7,15,52,,43,43,18,16,6,5,0.5,0.6
2025-10-31T1600,3148A,103.8291,30.0564,眉山市,区人社局,,28,28,39,9,16,64,,45,45,8,12,3,4,0.7,0.8
2025-10-31T1600,1690A,116.1231,24.3284,梅州市,梅江月梅,,23,17,28,16,23,64,,62,62,12,17,4,5,0.7,0.6
2025-10-31T1600,1691A,116.0797,24.2719,梅州市,梅县新城,,,,26,20,24,70,,66,66,9,16,6,7,0.6,0.5
2025-10-31T1600,1692A,116.1248,24.2654,梅州市,环境监控中心,,21,21,26,10,20,67,,63,63,7,17,4,6,0.6,0.5
2025-10-31T1600,3315A,116.1233,24.2991,梅州市,梅龙,,20,19,24,14,17,62,,62,62,5,15,6,7,0.7,0.6
2025-10-31T1600,1878A,104.7778,31.4741,绵阳市,富乐山,细颗粒物(PM2.5),57,62,42,40,28,17,,9,9,33,16,12,8,0.8,0.6
2025-10-31T1600,1880A,104.6697,31.4668,绵阳市,高新区自来水公司,细颗粒物(PM2.5),70,63,54,51,42,26,,13,13,27,31,10,9,0.7,0.7
2025-10-31T1600,1881A,104.7287,31.5075,绵阳市,三水厂,细颗粒物(PM2.5),88,74,61,65,50,21,,10,10,27,27,7,7,0.7,0.7
2025-10-31T1600,3491A,104.69,31.5322,绵阳市,西科大附属小学,细颗粒物(PM2.5),59,59,51,42,34,25,,17,17,28,30,12,10,0.8,0.8
2025-10-31T1600,3492A,104.5648,31.5343,绵阳市,安州区旅游局,细颗粒物(PM2.5),67,,36,48,41,30,,19,19,21,23,12,8,0.8,0.8
2025-10-31T1600,4226A,104.7651,31.4531,绵阳市,绵阳市气象局,细颗粒物(PM2.5),83,63,52,61,39,15,,15,9,31,21,13,8,0.9,0.7
2025-10-31T1600,1784A,129.61,44.561,牡丹江市,环保大楼,,20,12,30,11,22,61,,48,48,14,25,6,7,0.3,0.4
2025-10-31T1600,1785A,129.6115,44.5782,牡丹江市,文化广场,,38,26,38,26,25,54,,46,46,20,28,7,8,0.3,0.5
2025-10-31T1600,1786A,129.5904,44.5963,牡丹江市,第一医院,,42,35,41,29,31,58,,49,49,20,25,3,4,0.3,0.5
2025-10-31T1600,1787A,129.6364,44.6075,牡丹江市,机车工厂,,30,30,48,8,29,58,,48,48,19,24,5,14,0.2,0.5
2025-10-31T1600,1788A,129.6386,44.5462,牡丹江市,第一中学,,17,6,28,3,17,53,,,,23,29,4,4,0.4,0.4
2025-10-31T1600,2531A,105.0703,29.61,内江市,市监测站,,35,35,36,20,25,47,,36,36,14,11,5,4,0.2,0.4
2025-10-31T1600,2532A,105.0717,29.5947,内江市,东兴区政府,,31,31,28,18,22,36,,29,27,19,14,5,8,0.3,0.2
2025-10-31T1600,2533A,105.0653,29.5817,内江市,内江二中,,36,36,36,22,21,37,,29,26,20,16,4,4,0.6,0.6
2025-10-31T1600,2534A,105.0406,29.5822,内江市,内江日报社,,39,29,32,27,26,42,,31,28,19,16,4,4,0.5,0.4
2025-10-31T1600,2628A,92.0657,31.4846,那曲市,那曲监测站,,28,17,16,9,10,89,,86,85,18,17,11,7,0.3,0.4
2025-10-31T1600,4243A,92.0515,31.4787,那曲市,那曲市委宣传部,,,6,6,3,4,,,93,93,,11,6,6,0.3,0.4
2025-10-31T1600,1290A,115.8931,28.6843,南昌市,省外办,,28,28,52,19,42,69,,61,61,14,19,4,4,0.8,1
2025-10-31T1600,1291A,115.8886,28.7003,南昌市,省林业公司,,28,19,39,19,38,72,,63,63,10,16,2,3,1.0,1.2
2025-10-31T1600,1292A,115.8126,28.7442,南昌市,林科所,,,,28,5,27,70,,69,69,11,14,5,4,0.6,0.7
2025-10-31T1600,1294A,115.8518,28.687,南昌市,建工学校,,22,22,51,15,37,69,,65,65,12,17,10,10,0.6,0.7
2025-10-31T1600,1295A,115.8921,28.6424,南昌市,象湖,,30,30,48,14,36,73,,66,66,12,15,7,7,0.7,0.8
2025-10-31T1600,1296A,115.7423,28.7996,南昌市,武术学校,,,,,,,,,,,,,,,,
2025-10-31T1600,3046A,115.9084,28.6062,南昌市,机电学校,,35,35,50,19,39,77,,70,70,13,16,7,6,0.5,0.7
2025-10-31T1600,3690A,115.9721,28.7031,南昌市,外国语学校,,32,27,51,22,46,82,,66,66,23,25,6,7,0.5,0.7
2025-10-31T1600,4192A,115.9316,28.68677,南昌市,南京东路235号,,36,36,56,17,45,85,,70,70,19,25,5,6,0.7,0.9
2025-10-31T1600,1905A,106.056,30.8064,南充市,西山风景区,,,,,,,,,,,,,,,,
2025-10-31T1600,1906A,106.0789,30.8023,南充市,南充市委,,40,37,38,28,28,25,,16,16,15,21,4,4,0.4,0.5
2025-10-31T1600,1907A,106.1031,30.8217,南充市,南充炼油厂,,43,43,41,3,26,20,,15,15,17,15,6,6,0.6,0.5
2025-10-31T1600,4227A,106.1083,30.7884,南充市,梨树横街98号,,38,38,34,24,22,23,,18,18,21,16,4,4,0.4,0.4
2025-10-31T1600,4304A,106.1172,30.843,南充市,清泉寺北路188号,,35,33,32,24,24,19,,16,16,18,12,6,6,0.4,0.4
2025-10-31T1600,4305A,106.067,30.7616,南充市,同庆路1号,,37,37,33,22,24,20,,16,16,20,24,6,6,0.5,0.5
2025-10-31T1600,1151A,118.8086,32.1065,南京市,迈皋桥,,27,13,17,9,12,85,,62,62,1,14,3,4,0.5,0.6
2025-10-31T1600,1152A,118.7538,32.0551,南京市,草场门,,25,22,16,14,11,80,,63,63,16,23,8,8,0.3,0.4
2025-10-31T1600,1153A,118.7794,32.0745,南京市,山西路,,29,27,18,12,7,92,,69,69,2,15,3,4,0.5,0.6
2025-10-31T1600,1154A,118.7752,32.0023,南京市,中华门,,30,22,15,14,10,93,,80,80,13,19,3,4,0.3,0.4
2025-10-31T1600,1155A,118.8109,32.0309,南京市,瑞金路,,30,19,17,9,10,95,,72,72,13,18,4,4,0.4,0.4
2025-10-31T1600,1156A,118.7997,32.0754,南京市,玄武湖,,26,19,17,9,7,82,,60,60,15,13,4,4,0,0.3
2025-10-31T1600,1157A,118.6414,32.0931,南京市,浦口,颗粒物(PM10),58,65,20,14,10,86,,74,74,12,20,6,6,0.4,0.3
2025-10-31T1600,1158A,118.7356,31.9996,南京市,奥体中心,,28,28,19,19,10,87,,76,76,18,19,4,4,0.4,0.4
2025-10-31T1600,1159A,118.9125,32.1028,南京市,仙林大学城,,27,24,25,9,10,84,,59,59,12,23,7,8,0.4,0.6
2025-10-31T1600,3422A,118.8436,31.9198,南京市,江宁彩虹桥,,28,26,16,17,10,89,,75,75,12,9,4,5,0.3,0.4
2025-10-31T1600,3427A,118.8554,32.3578,南京市,六合雄州,,42,42,21,22,9,95,,76,76,11,15,4,5,0.5,0.5
2025-10-31T1600,4249A,118.8708,31.3402,南京市,汶溪路181号,,40,40,16,17,11,94,,66,66,15,16,5,6,0.6,0.6
2025-10-31T1600,4312A,119.019,31.6512,南京市,中山西路1号,,27,27,14,15,10,85,,58,58,9,14,4,4,0.7,0.6
2025-10-31T1600,1401A,108.3103,22.7881,南宁市,二十一中,,36,36,24,19,21,62,,55,55,17,15,4,3,0.7,0.7
2025-10-31T1600,1402A,108.3141,22.8528,南宁市,北湖,,36,36,25,22,23,61,,59,59,15,17,9,8,0.7,0.7
2025-10-31T1600,1403A,108.3206,22.8225,南宁市,市监测站,,37,37,23,24,26,55,,52,52,22,20,8,6,0.8,0.7
2025-10-31T1600,1404A,108.3829,22.8037,南宁市,大自然花园,,28,28,26,19,22,62,,57,57,11,12,5,5,0.7,0.7
2025-10-31T1600,1405A,108.4394,22.7904,南宁市,仙葫,,,,,,,,,,,,,,,,
2025-10-31T1600,1406A,108.2397,22.8467,南宁市,区农职院,,33,33,25,18,18,59,,54,54,11,15,3,3,0.6,0.6
2025-10-31T1600,1407A,108.3275,22.735,南宁市,英华嘉园,,35,33,22,24,21,63,,59,59,12,12,2,2,0.6,0.7
2025-10-31T1600,3401A,108.4834,22.7618,南宁市,红星社区,,29,22,23,20,21,72,,62,62,7,9,4,4,0.5,0.6
2025-10-31T1600,4221A,108.2177,22.7774,南宁市,乐贤路16号,,32,31,27,22,22,61,,55,55,12,20,4,3,0.6,0.6
2025-10-31T1600,2331A,118.0966,26.6761,南平市,茫荡山,,,14,11,,,91,,85,85,,,1,1,,
2025-10-31T1600,2332A,118.1681,26.6369,南平市,南平市监测站,,21,17,24,12,16,67,,56,56,6,10,3,3,0.5,0.5
2025-10-31T1600,2333A,118.1825,26.6489,南平市,南平铝业有限公司,,21,19,23,12,15,65,,55,55,7,10,3,3,0.6,0.4
2025-10-31T1600,2334A,118.1756,26.6272,南平市,南平七中,,26,,25,18,18,67,,57,57,7,10,4,7,0.4,0.4
2025-10-31T1600,1168A,120.9098,31.9663,南通市,狼山街道,,25,22,15,17,9,69,,70,70,29,17,3,2,0.4,0.5
2025-10-31T1600,1169A,120.86,32.0005,南通市,虹桥,,27,27,17,13,9,60,,72,72,43,18,4,4,0.6,0.7
2025-10-31T1600,1170A,120.87,32.02,南通市,城中,,25,22,23,9,9,78,,71,71,16,20,3,4,0.5,0.6
2025-10-31T1600,1171A,120.94,31.93,南通市,星湖花园,,25,24,20,16,11,80,,73,73,22,19,4,3,0.5,0.5
2025-10-31T1600,1172A,120.81,32.0417,南通市,紫琅学院,,29,22,25,7,8,91,,76,76,8,19,4,6,0.4,0.5
2025-10-31T1600,3291A,121.067,32.062,南通市,通州监测站,,32,12,9,7,8,101,,92,92,12,11,2,2,0.4,0.5
2025-10-31T1600,3432A,120.9348,31.9883,南通市,环境教育馆,,29,24,20,11,10,92,,79,79,9,17,4,4,0.3,0.3
2025-10-31T1600,2404A,112.5224,33.0122,南阳市,瓦房庄,颗粒物(PM10),58,66,108,39,78,65,,62,62,16,25,7,6,0.9,0.8
2025-10-31T1600,2405A,112.5003,32.9735,南阳市,汉画馆,颗粒物(PM10),57,64,95,34,63,65,,50,50,21,31,7,6,0.8,0.9
2025-10-31T1600,2406A,112.5573,33.027,南阳市,气象站,颗粒物(PM10),66,82,133,36,71,64,,65,65,22,30,7,8,0.9,0.8
2025-10-31T1600,2407A,112.5481,32.9689,南阳市,理工学院,颗粒物(PM10),61,71,125,33,74,69,,60,60,19,31,8,7,0.9,0.9
2025-10-31T1600,4008A,112.5234,32.9922,南阳市,卧龙区政府,细颗粒物(PM2.5),52,51,116,36,58,66,,58,58,16,28,9,8,0.8,0.8
2025-10-31T1600,1234A,121.8358,29.911,宁波市,区环保大楼,,30,29,19,21,13,80,,75,75,24,38,10,7,0.5,0.4
2025-10-31T1600,1235A,121.56,29.82,宁波市,万里学院,,27,20,25,13,16,86,,73,73,15,23,7,7,0.5,0.5
2025-10-31T1600,1236A,121.713,29.9572,宁波市,龙赛医院,,34,34,18,16,9,72,,70,70,32,24,6,5,0.5,0.4
2025-10-31T1600,1239A,121.633,29.7733,宁波市,钱湖水厂,,25,14,24,9,16,79,,67,67,16,27,6,6,0.5,0.5
2025-10-31T1600,1240A,121.5856,29.8635,宁波市,太古小学,,27,15,21,11,12,84,,70,70,17,23,4,3,0.5,0.6
2025-10-31T1600,1241A,121.524,29.8674,宁波市,市环境监测中心,,,19,25,6,13,82,,75,75,19,25,8,8,,0.6
2025-10-31T1600,2871A,121.6147,29.9017,宁波市,万里国际学校,,26,15,18,7,10,83,,69,69,23,26,4,4,0.4,0.4
2025-10-31T1600,3710A,121.5594,29.8975,宁波市,白沙活动中心,,27,17,20,10,10,85,,71,71,15,20,6,5,0.5,0.4
2025-10-31T1600,2339A,119.5001,26.6946,宁德市,金涵水库,,31,31,22,14,14,68,,51,51,8,12,2,3,0.4,0.4
2025-10-31T1600,2341A,119.5388,26.6612,宁德市,宁德市监测站,,33,16,34,13,21,104,,77,77,12,26,6,5,0.5,0.6
2025-10-31T1600,3209A,119.5231,26.6562,宁德市,宁德一中,,33,25,32,18,25,103,,81,81,9,16,6,5,0.5,0.5
2025-10-31T1600,2618A,98.8601,25.8567,怒江傈僳族自治州,州监测站,,50,46,37,35,27,79,,38,38,11,12,8,8,0.6,0.5
2025-10-31T1600,2619A,98.8546,25.8417,怒江傈僳族自治州,泸水一中,,,38,32,32,25,38,,20,20,,16,6,6,,0.8
2025-10-31T1600,1888A,101.6891,26.571,攀枝花市,弄弄坪,,45,45,46,24,22,83,,47,47,22,27,3,5,0.9,0.9
2025-10-31T1600,1889A,101.5769,26.5928,攀枝花市,河门口,,42,42,46,24,26,90,,52,52,12,26,28,37,1.3,1.8
2025-10-31T1600,1890A,101.7169,26.585,攀枝花市,炳草岗,,46,46,49,17,23,83,,48,48,12,28,22,36,0.8,0.9
2025-10-31T1600,1891A,101.7369,26.5008,攀枝花市,仁和,,22,22,49,14,31,44,,35,35,8,20,7,13,0.6,1
2025-10-31T1600,2835A,101.7227,26.567,攀枝花市,四十中小,,35,35,32,23,17,87,,57,57,8,16,29,54,0.9,1
2025-10-31T1600,1604A,122.0303,41.1489,盘锦市,开发区,,,44,52,16,36,73,,71,71,18,35,5,4,,1.2
2025-10-31T1600,1605A,122.0485,41.0883,盘锦市,兴隆台,,23,17,41,14,25,71,,57,57,19,36,7,12,0.2,0.4
2025-10-31T1600,1606A,121.8297,41.1028,盘锦市,新生街道,,23,14,38,3,24,72,,54,54,14,42,7,10,0.3,0.5
2025-10-31T1600,1832A,113.3257,33.742,平顶山市,新华旅馆,颗粒物(PM10),62,73,174,40,69,105,,72,72,10,26,6,7,0.3,0.8
2025-10-31T1600,1833A,113.2919,33.737,平顶山市,规划设计院,,45,45,187,20,121,103,,73,73,9,27,5,5,0.3,0.9
2025-10-31T1600,1834A,113.182,33.774,平顶山市,平顶山工学院,,34,27,162,12,117,106,,78,78,7,24,6,6,0.2,0.7
2025-10-31T1600,3204A,113.3025,33.73,平顶山市,规划局,细颗粒物(PM2.5),84,68,175,62,121,106,,74,74,9,23,7,7,0.5,0.9
2025-10-31T1600,3594A,112.8867,33.9116,平顶山市,石龙区,颗粒物(PM10),59,68,143,11,98,108,,76,76,12,26,6,6,0.4,0.9
2025-10-31T1600,2656A,106.6692,35.5461,平凉市,聚贤嘉苑,,37,37,54,11,28,103,,75,75,5,28,7,8,0.4,0.5
2025-10-31T1600,2657A,106.7021,35.5307,平凉市,博物馆,,34,33,90,11,29,106,,76,76,6,27,9,10,0.4,0.6
2025-10-31T1600,2347A,114.0997,27.5002,萍乡市,武功山,,,,,,,,,,,,,,,,
2025-10-31T1600,2348A,113.8385,27.6434,萍乡市,中医院,,26,24,55,18,42,76,,68,68,14,23,4,5,0.7,1
2025-10-31T1600,2349A,113.8493,27.6253,萍乡市,市政府车库,,31,31,51,17,41,72,,68,68,18,24,6,9,0.7,0.9
2025-10-31T1600,2350A,113.8676,27.6435,萍乡市,市环保局,,38,31,45,26,36,71,,73,73,16,18,5,6,0.6,0.8
2025-10-31T1600,2351A,113.866,27.6198,萍乡市,安源区政府,,38,26,49,26,52,71,,64,64,15,19,8,11,0.6,0.8
2025-10-31T1600,2319A,119.0141,25.4325,莆田市,荔城区仓后路,,28,28,39,9,20,88,,74,74,13,25,6,5,0.6,0.7
2025-10-31T1600,2320A,119.0015,25.4553,莆田市,莆田市监测站,,28,27,16,10,5,89,,77,77,14,7,6,5,0.5,0.4
2025-10-31T1600,2321A,119.1119,25.4561,莆田市,涵江区六中,,29,22,30,10,18,90,,74,74,13,31,5,6,0.7,0.6
2025-10-31T1600,2322A,119.1013,25.3215,莆田市,秀屿区政府,,30,20,28,10,18,95,,79,79,14,16,8,8,0.9,0.7
2025-10-31T1600,2323A,118.981,25.4792,莆田市,东圳水库,,26,26,11,11,16,75,,84,84,25,6,6,6,1.2,0.9
2025-10-31T1600,2392A,115.0312,35.7636,濮阳市,环保局,细颗粒物(PM2.5),201,,133,151,147,76,,45,45,37,46,10,8,1.4,1.2
2025-10-31T1600,2394A,115.0574,35.7609,濮阳市,油田运输公司,细颗粒物(PM2.5),206,204,212,156,152,88,,50,50,37,44,11,9,1.4,1.3
2025-10-31T1600,3021A,115,35.7668,濮阳市,濮水河管理处,细颗粒物(PM2.5),169,185,177,128,103,77,,45,45,31,36,10,9,,0.8
2025-10-31T1600,4216A,115.0924,35.7686,濮阳市,任丘路479号,细颗粒物(PM2.5),213,184,206,163,150,77,,43,43,29,42,9,8,1.4,1.3
2025-10-31T1600,2601A,100.98,22.7633,普洱市,市环保局,,27,27,31,7,19,54,,40,40,3,6,5,5,0.3,0.4
2025-10-31T1600,2602A,100.9817,22.8322,普洱市,普洱第二中学,,20,20,30,14,16,50,,42,42,6,10,5,5,0.3,0.3
2025-10-31T1600,2262A,131.0518,45.8751,七台河市,新一中,,,,,,,,,,,,,,,,
2025-10-31T1600,3345A,131.0577,45.7879,七台河市,中波台,,29,29,36,7,19,59,,55,55,11,16,6,7,0.4,0.5
2025-10-31T1600,3637A,131.0176,45.7761,七台河市,人民广场,,26,26,40,14,26,63,,65,65,16,20,7,7,0.6,0.6
2025-10-31T1600,3684A,130.8781,45.8222,七台河市,新建矿广场,,,,47,28,25,40,,36,,36,19,9,6,,0.4
2025-10-31T1600,1779A,123.9305,47.3636,齐齐哈尔市,安居小区,,40,40,53,25,31,45,,36,36,23,27,8,8,0.6,0.7
2025-10-31T1600,1780A,123.9488,47.3386,齐齐哈尔市,中心广场,颗粒物(PM10),54,58,69,22,40,46,,33,33,21,31,8,9,0.4,0.7
2025-10-31T1600,1781A,123.9483,47.3227,齐齐哈尔市,农牧车辆厂,颗粒物(PM10),52,53,103,14,53,46,,29,29,20,36,4,10,0.6,1
2025-10-31T1600,1783A,123.945,47.2988,齐齐哈尔市,市环境监测站,,43,43,108,22,64,44,,27,27,19,37,8,10,0.6,0.9
2025-10-31T1600,3662A,123.6333,47.2075,齐齐哈尔市,富区青少年活动中心,颗粒物(PM10),62,74,121,34,71,52,,34,34,19,36,7,10,0.4,0.8
2025-10-31T1600,2591A,107.9783,26.5747,黔东南苗族侗族自治州,市环境监测站,,40,36,29,28,23,45,,35,35,13,13,4,4,0.5,0.6
2025-10-31T1600,2881A,107.8908,26.5311,黔东南苗族侗族自治州,凯里学院,,35,,19,24,23,57,,41,41,12,15,3,4,0.3,0.4
2025-10-31T1600,2593A,107.5228,26.2403,黔南布依族苗族自治州,小围寨,,14,7,15,7,12,43,,30,30,7,8,5,4,0.4,0.5
2025-10-31T1600,3538A,107.5175,26.2978,黔南布依族苗族自治州,沙坝,,18,12,22,12,17,43,,30,30,9,11,3,4,0.6,0.7
2025-10-31T1600,2589A,104.9022,25.0925,黔西南布依族苗族自治州,场坝街,,25,25,26,15,13,53,,43,43,10,13,6,5,0.6,0.6
2025-10-31T1600,2590A,104.8811,25.0992,黔西南布依族苗族自治州,坪东大道,,28,28,25,17,16,54,,41,41,8,11,2,2,0.6,0.6
2025-10-31T1600,2502A,108.6236,21.9667,钦州市,市环保站,,34,34,27,12,22,59,,58,58,9,13,3,2,0.9,0.8
2025-10-31T1600,2503A,108.6549,21.9481,钦州市,沙埠小学,,43,43,33,27,24,63,,59,59,8,11,3,3,0.8,1
2025-10-31T1600,2504A,108.5989,21.7431,钦州市,港区一小,,45,45,35,30,30,51,,49,49,21,22,5,5,0.6,0.7
2025-10-31T1600,3404A,108.5959,21.9633,钦州市,北职校,,,29,27,21,23,55,,54,54,5,7,,4,0.6,0.7
2025-10-31T1600,1043A,119.7493,40.0116,秦皇岛市,第一关,,43,42,28,30,15,71,,62,62,22,41,8,6,0.5,0.3
2025-10-31T1600,1044A,119.5897,39.9499,秦皇岛市,监测站,颗粒物(PM10),60,70,42,35,14,76,,54,54,33,39,14,8,1.8,0.4
2025-10-31T1600,1046A,119.5251,39.9041,秦皇岛市,建设大厦,,,59,38,20,17,68,,57,57,,36,,5,1.4,0.4
2025-10-31T1600,3132A,119.610547,39.943889,秦皇岛市,文明里,颗粒物(PM10),51,52,39,23,12,68,,49,49,32,36,14,10,1.4,0.3
2025-10-31T1600,4198A,119.5090,39.8253,秦皇岛市,北戴河轮滑馆,颗粒物(PM10),52,53,34,23,12,67,,54,54,30,32,7,4,0.9,0.3
2025-10-31T1600,1307A,120.6659,36.2403,青岛市,仰口,,,,,,,,,,,,,,,,
2025-10-31T1600,1310A,120.4134,36.0658,青岛市,市南区东部子站,,34,34,25,19,14,103,,83,78,10,14,8,7,0.4,0.3
2025-10-31T1600,1311A,120.3664,36.1032,青岛市,四方区子站,,34,27,23,22,18,106,,80,78,6,21,4,3,0.3,0.3
2025-10-31T1600,1312A,120.2994,36.054,青岛市,市南区西部子站,,30,29,25,17,14,94,,73,72,22,22,8,7,0.6,0.5
2025-10-31T1600,1313A,120.4581,36.0858,青岛市,崂山区子站,,33,29,19,17,10,105,,84,79,12,19,9,8,0.6,0.4
2025-10-31T1600,1315A,120.3999,36.3083,青岛市,城阳区子站,,41,41,28,17,15,106,,84,84,13,25,4,4,0.5,0.5
2025-10-31T1600,3362A,120.5014,36.4034,青岛市,即墨2号,,36,36,22,20,16,89,,76,76,25,21,4,4,0.5,0.4
2025-10-31T1600,3642A,120.3503,36.0736,青岛市,市北区南部,,31,30,23,17,13,97,,75,70,16,23,6,5,0.3,0.3
2025-10-31T1600,3643A,120.3948,36.1805,青岛市,李沧区北部,,32,29,22,19,19,100,,77,77,13,24,7,6,0.5,0.4
2025-10-31T1600,4290A,120.1969,35.9546,青岛市,珠江路669号,,35,31,22,24,19,109,,80,80,15,24,8,8,0.5,0.4
2025-10-31T1600,4291A,120.0424,35.8656,青岛市,黄岛区人民政府广场,,39,39,31,22,19,102,,75,75,16,29,5,5,0.7,0.8
2025-10-31T1600,1702A,113.0426,23.691,清远市,环保大楼,,,,,,,,,,,,,,,,
2025-10-31T1600,1703A,113.0208,23.7106,清远市,凤城街办,,32,28,31,22,25,57,,48,48,13,21,6,6,0.9,0.8
2025-10-31T1600,3025A,113.0477,23.6344,清远市,技师学院,,23,23,31,16,22,68,,54,54,15,23,4,4,0.6,0.5
2025-10-31T1600,3318A,112.9903,23.7403,清远市,清新太和,,30,25,30,21,24,60,,55,55,8,17,6,6,0.8,0.8
2025-10-31T1600,3455A,113.076,23.7198,清远市,清城东城,,29,24,28,20,21,73,,56,56,9,12,7,6,0.9,0.8
2025-10-31T1600,2661A,107.6325,35.7357,庆阳市,庆阳五中,,33,33,56,11,21,88,,77,77,7,16,1,2,0.2,0.5
2025-10-31T1600,2662A,107.6364,35.7067,庆阳市,市环保局,,32,32,56,11,20,98,,85,85,6,16,3,5,0.2,0.3
2025-10-31T1600,1916A,103.7897,25.5035,曲靖市,环境监测站,,25,25,31,14,16,68,,39,39,9,15,3,4,0.4,0.6
2025-10-31T1600,1917A,103.8,25.5364,曲靖市,烟厂办公区,,30,27,31,21,18,63,,40,40,9,16,4,5,0.2,0.5
2025-10-31T1600,3376A,103.7947,25.462,曲靖市,南苑二区,,25,17,31,11,18,80,,48,48,5,13,3,4,0.4,0.7
2025-10-31T1600,3377A,103.7444,25.5261,曲靖市,曲靖师范学院,,25,17,29,14,24,77,,52,52,8,13,3,3,0.2,0.4
2025-10-31T1600,1264A,118.8692,28.9398,衢州市,环保大楼,,16,6,37,3,23,50,,35,35,12,22,4,5,0.4,0.5
2025-10-31T1600,1265A,118.8709,28.9666,衢州市,实验学校,,16,6,29,3,23,50,,34,34,13,25,3,4,0.4,0.4
2025-10-31T1600,1266A,118.8621,28.9808,衢州市,衢州学院,,17,6,30,3,20,52,,34,34,7,22,5,5,0.4,0.4
2025-10-31T1600,1611A,118.5819,24.9117,泉州市,涂山街,,39,39,36,13,22,96,,77,77,15,16,4,4,0.5,0.4
2025-10-31T1600,1612A,118.5972,24.8978,泉州市,津头埔,,30,30,36,10,23,94,,76,76,18,25,3,4,0.4,0.5
2025-10-31T1600,1613A,118.6663,24.9424,泉州市,万安,,42,42,42,14,23,106,,83,83,7,21,4,4,0.6,0.6
2025-10-31T1600,1614A,118.6117,24.9604,泉州市,清源山,,38,,24,26,24,100,,71,71,9,8,2,2,0.6,0.5
2025-10-31T1600,3529A,118.6333,24.9264,泉州市,城华南路,,29,24,37,13,22,92,,72,72,18,18,4,4,0.5,0.4
2025-10-31T1600,2626A,88.8876,29.2718,日喀则市,日喀则监测站,,19,12,6,3,1,58,,49,47,6,7,17,14,0.5,0.5
2025-10-31T1600,3726A,88.8781,29.2426,日喀则市,林业技术推广中心,,20,9,9,3,2,62,,45,45,3,6,6,6,0.3,0.3
2025-10-31T1600,1659A,119.471,35.4209,日照市,监测站,细颗粒物(PM2.5),68,66,35,49,24,100,,60,60,21,40,7,7,0.6,0.7
2025-10-31T1600,1660A,119.523,35.4216,日照市,市政府广场,细颗粒物(PM2.5),59,63,33,42,20,96,,57,57,14,27,7,7,0.8,0.8
2025-10-31T1600,1661A,119.5587,35.4044,日照市,港务局,细颗粒物(PM2.5),72,63,32,52,29,97,,59,59,14,28,7,8,0.7,0.8
2025-10-31T1600,3507A,119.5328,35.4625,日照市,职业技术学院,细颗粒物(PM2.5),64,70,34,46,22,99,,64,64,21,27,5,5,0.8,0.8
2025-10-31T1600,3604A,119.3266,35.1044,日照市,岚山环保分局,颗粒物(PM10),58,66,30,40,18,98,,76,76,20,35,9,10,0.9,0.9
2025-10-31T1600,1835A,111.1922,34.7752,三门峡市,市政府,颗粒物(PM10),55,59,97,38,58,103,,40,40,16,33,7,6,0.4,0.8
2025-10-31T1600,1836A,111.1587,34.7942,三门峡市,开发区,细颗粒物(PM2.5),98,88,115,73,89,96,,41,41,19,35,6,5,0.4,0.7
2025-10-31T1600,1838A,111.143,34.7955,三门峡市,风景区,细颗粒物(PM2.5),90,83,79,67,47,96,,40,40,14,23,8,6,0.7,0.9
2025-10-31T1600,3039A,111.1911,34.7829,三门峡市,三门峡市第一小学,颗粒物(PM10),55,59,106,36,58,106,,44,44,16,32,9,9,0.5,0.9
2025-10-31T1600,3598A,111.1,34.7167,三门峡市,富达温泉假日酒店,细颗粒物(PM2.5),92,88,117,68,85,96,,41,41,24,30,11,11,0.4,0.7
2025-10-31T1600,2324A,117.6211,26.2625,三明市,三钢,,23,19,28,16,27,72,,62,62,8,12,1,6,0.7,0.5
2025-10-31T1600,2325A,117.635,26.2714,三明市,三明二中,,,,26,22,22,69,,59,59,5,9,,5,0.6,0.5
2025-10-31T1600,2326A,117.6028,26.2378,三明市,三元区政府,,23,19,25,16,17,73,,65,65,9,12,3,7,0.9,1.1
2025-10-31T1600,2327A,117.7275,26.3108,三明市,洋溪,,48,,20,33,21,76,,59,59,6,11,9,11,1.2,1.2
2025-10-31T1600,1876A,109.5078,18.2489,三亚市,河东子站,,25,13,12,9,8,80,,62,62,5,7,4,3,0.4,0.4
2025-10-31T1600,1877A,109.4964,18.2681,三亚市,河西子站,,27,27,16,10,6,82,,66,66,5,4,7,7,0.4,0.4
2025-10-31T1600,3540A,109.7348,18.3443,三亚市,君悦子站,,35,35,18,15,8,95,,69,69,4,5,4,5,0.5,0.5
2025-10-31T1600,2624A,91.7608,29.2313,山南市,山南监测站,,7,,10,3,8,20,,37,27,10,12,5,4,0.5,0.5
2025-10-31T1600,2625A,91.7706,29.2436,山南市,山南人民医院,,13,6,10,3,7,41,,37,30,8,10,4,4,0.3,0.3
2025-10-31T1600,1674A,116.6794,23.3667,汕头市,金平子站,细颗粒物(PM2.5),54,40,32,38,23,149,,113,113,16,19,4,5,0.8,0.7
2025-10-31T1600,1675A,116.7244,23.3633,汕头市,龙湖子站,,45,40,34,29,21,142,,99,99,10,14,9,9,0.7,0.6
2025-10-31T1600,1676A,116.7258,23.2775,汕头市,濠江子站,,45,45,31,30,22,141,,99,99,7,10,7,7,0.7,0.7
2025-10-31T1600,1677A,116.7519,23.4714,汕头市,澄海子站,,49,49,39,34,28,146,,100,100,12,19,6,7,0.8,0.8
2025-10-31T1600,1678A,116.6092,23.2539,汕头市,潮阳子站,,45,43,36,25,23,144,,104,104,8,13,6,6,0.6,0.6
2025-10-31T1600,3444A,116.454,23.2684,汕头市,潮南峡山,细颗粒物(PM2.5),53,52,42,37,26,122,,94,94,8,12,9,9,0.9,0.7
2025-10-31T1600,3624A,116.4069,23.2533,汕头市,潮南子站,颗粒物(PM10),57,64,52,34,27,116,,91,91,16,16,10,7,1.4,0.7
2025-10-31T1600,1693A,115.3653,22.775,汕尾市,市环保局,,30,,27,21,17,89,,73,73,5,8,5,5,0.8,0.8
2025-10-31T1600,1694A,115.3706,22.7898,汕尾市,市政府,,32,,31,22,21,83,,73,73,9,10,7,8,0.5,0.5
2025-10-31T1600,1695A,115.3622,22.7925,汕尾市,新城中学,,29,21,27,16,16,91,,75,75,6,8,7,7,0.5,0.5
2025-10-31T1600,2645A,109.9154,33.8715,商洛市,监测站,,33,32,29,21,17,104,,70,70,13,19,4,4,0.4,0.5
2025-10-31T1600,3045A,109.9643,33.8471,商洛市,商州区中学,,39,39,35,15,20,107,,60,60,10,24,6,5,0.4,0.4
2025-10-31T1600,2408A,115.6702,34.4285,商丘市,环境监测站,细颗粒物(PM2.5),179,186,181,135,135,82,,60,60,17,41,2,3,1.0,0.9
2025-10-31T1600,2409A,115.6458,34.4045,商丘市,粮食局,细颗粒物(PM2.5),172,159,176,130,121,82,,57,57,15,37,3,4,1.1,1
2025-10-31T1600,2410A,115.6293,34.3948,商丘市,睢阳区环保局,细颗粒物(PM2.5),201,181,175,151,143,81,,56,56,17,39,2,3,1.0,0.8
2025-10-31T1600,3171A,115.6071,34.4465,商丘市,梁园区档案局,细颗粒物(PM2.5),205,162,162,155,145,80,,54,54,15,36,2,3,1.0,0.9
