timepoint,stationcode,longitude,latitude,area,positionname,primarypollutant,aqi,pm10,pm10_24h,pm2_5,pm2_5_24h,o3,o3_24h,o3_8h,o3_8h_24h,no2,no2_24h,so2,so2_24h,co,co_24h
2025-10-31T0100,2566A,102.1879,31.914,阿坝藏族羌族自治州,州农科所,,,,,,,,,,,,,,,,
2025-10-31T0100,2568A,102.2502,31.8896,阿坝藏族羌族自治州,马师校,,22,21,15,15,11,9,,,,22,15,7,8,0.6,0.6
2025-10-31T0100,3994A,102.2165,31.9024,阿坝藏族羌族自治州,马尔康中学西区,,15,13,15,10,10,16,,,,23,12,5,5,0.5,0.5
2025-10-31T0100,2695A,80.292,41.1694,阿克苏地区,电视台,颗粒物(PM10),143,235,142,71,41,5,,,,71,34,9,7,2.1,1.1
2025-10-31T0100,2696A,80.2613,41.1551,阿克苏地区,艺术中心,颗粒物(PM10),147,243,134,100,49,6,,,,85,36,6,5,1.9,0.6
2025-10-31T0100,2204A,105.6467,38.8363,阿拉善盟,西城区西花园,,,,,,,,,,,,,,,,
2025-10-31T0100,2205A,105.6985,38.8411,阿拉善盟,蒙二幼,,28,28,45,13,16,86,,,,8,11,8,8,0.6,0.6
2025-10-31T0100,2206A,105.724,38.8516,阿拉善盟,环保局新楼,,30,24,37,10,14,95,,,,5,7,8,8,0.5,0.5
2025-10-31T0100,2708A,88.1264,47.8517,阿勒泰地区,市站,颗粒物(PM10),57,63,57,8,18,15,,,,23,32,3,5,0.3,0.6
2025-10-31T0100,2630A,80.1161,32.5,阿里地区,阿里监测站,,,,3,3,3,44,,,,,18,13,13,,0.4
2025-10-31T0100,3192A,80.0903,32.5028,阿里地区,阿里藏医院,,22,22,18,9,8,55,,,,20,14,10,10,0.6,0.5
2025-10-31T0100,2642A,109.0318,32.6537,安康市,香溪洞,,,,,,,,,,,,,,,,
2025-10-31T0100,2644A,109.0072,32.6975,安康市,汉滨区检察院,,15,15,28,7,19,4,,,,12,15,2,2,0.4,0.6
2025-10-31T0100,4054A,109.0325,32.6913,安康市,市邮政管理局,,22,20,29,15,21,2,,,,17,18,6,6,0.5,0.7
2025-10-31T0100,2291A,117.0809,30.5177,安庆市,环科院,,26,26,50,16,40,0,,,,44,18,3,4,0.5,0.6
2025-10-31T0100,2292A,117.0331,30.5119,安庆市,马山宾馆,,26,18,48,18,44,20,,,,26,26,2,3,0.5,0.6
2025-10-31T0100,2294A,116.9896,30.6145,安庆市,安庆大学,,13,9,54,9,43,34,,,,14,14,5,5,0.3,0.5
2025-10-31T0100,3173A,117.0598,30.5351,安庆市,市人大,,23,,50,16,41,13,,,,38,24,8,7,0.5,0.5
2025-10-31T0100,3122A,105.9606,26.2611,安顺市,伍家关,颗粒物(PM10),51,51,35,20,12,21,,,,23,12,19,10,0.4,0.4
2025-10-31T0100,3123A,105.9408,26.2431,安顺市,凤凰山,细颗粒物(PM2.5),60,,20,43,16,25,,,,22,13,22,13,0.6,0.5
2025-10-31T0100,3124A,105.9439,26.2564,安顺市,金钟山,,49,,17,34,14,20,,,,24,11,22,11,0.9,0.9
2025-10-31T0100,3125A,105.8983,26.2481,安顺市,娄家坡,细颗粒物(PM2.5),82,,20,60,17,21,,,,22,13,52,16,0.7,0.7
2025-10-31T0100,1818A,114.4839,36.0621,安阳市,棉研所,,,,,,,,,,,,,,,,
2025-10-31T0100,1819A,114.3551,36.1017,安阳市,红庙街,细颗粒物(PM2.5),221,195,160,171,149,23,,,,27,34,2,3,1.1,1.1
2025-10-31T0100,1820A,114.361,36.0681,安阳市,银杏小区,细颗粒物(PM2.5),228,,159,178,152,12,,,,31,34,3,4,1.4,1.2
2025-10-31T0100,3141A,114.3922,36.0878,安阳市,信访局,细颗粒物(PM2.5),211,200,175,161,126,28,,,,18,32,2,2,1.0,0.9
2025-10-31T0100,3669A,114.4705,36.0637,安阳市,左辅环卫站,细颗粒物(PM2.5),200,207,221,150,137,6,,,,39,38,1,2,1.1,0.9
2025-10-31T0100,3703A,114.2917,36.0949,安阳市,安钢职工学校,细颗粒物(PM2.5),227,205,174,177,151,10,,,,30,33,5,6,1.4,1.3
2025-10-31T0100,1748A,123.044,41.1196,鞍山市,深沟寺,,45,45,54,20,33,10,,,,53,32,13,14,0.8,0.8
2025-10-31T0100,1749A,123.011,41.0931,鞍山市,太阳城,,38,38,48,20,28,15,,,,47,27,32,21,0.6,0.5
2025-10-31T0100,1750A,123.0485,41.1442,鞍山市,太平,颗粒物(PM10),75,99,73,49,37,8,,,,56,34,29,24,1.0,0.9
2025-10-31T0100,1751A,122.9642,41.0971,鞍山市,铁西三道街,,50,50,52,27,29,18,,,,46,34,19,21,0.7,0.9
2025-10-31T0100,1753A,123.022,41.0821,鞍山市,明达新区,,34,34,47,16,27,18,,,,33,21,42,22,0.6,0.5
2025-10-31T0100,1754A,123.1289,41.0228,鞍山市,千山,,,,38,,30,,,53,,,19,,7,,0.4
2025-10-31T0100,4201A,122.9446,41.0826,鞍山市,兴盛南路290号,,49,49,55,24,29,21,,,,51,39,27,27,0.9,1.2
2025-10-31T0100,2195A,107.4212,40.761,巴彦淖尔市,附二中,颗粒物(PM10),59,67,68,41,36,40,,,,30,27,8,10,0.6,0.5
2025-10-31T0100,2196A,107.37,40.7372,巴彦淖尔市,市环保大楼,细颗粒物(PM2.5),68,73,80,49,33,53,,,,25,35,11,10,0.6,0.6
2025-10-31T0100,1956A,86.1472,41.7538,巴音郭楞蒙古自治州,孔雀公园,颗粒物(PM10),63,75,91,34,28,75,,,,31,21,8,10,0.7,0.7
2025-10-31T0100,1957A,86.1972,41.7166,巴音郭楞蒙古自治州,棉纺厂,颗粒物(PM10),74,98,102,23,24,49,,,,54,26,6,8,0.4,0.6
2025-10-31T0100,1958A,86.2357,41.7173,巴音郭楞蒙古自治州,经济开发区,颗粒物(PM10),62,74,80,34,22,70,,,,20,14,10,8,0.5,0.5
2025-10-31T0100,2914A,106.7677,31.8794,巴中市,苏山坪,,,,,,,,,,,,,,,,
2025-10-31T0100,3181A,106.7768,31.8526,巴中市,市五中,,32,31,26,22,19,13,,,,11,11,8,8,0.6,0.6
2025-10-31T0100,3183A,106.7418,31.8654,巴中市,圣泉水务公司,,29,27,25,20,19,0,,,,20,13,8,8,0.8,0.8
2025-10-31T0100,3616A,106.7616,31.8344,巴中市,市中心医院,,32,32,25,20,20,5,,,,16,13,10,10,0.7,0.7
2025-10-31T0100,2235A,122.7911,45.6077,白城市,洮北区环保局,,28,28,26,13,16,35,,,,12,12,4,5,0.3,0.3
2025-10-31T0100,2236A,122.8738,45.5725,白城市,市环保局,,27,27,25,15,14,22,,,,22,16,5,5,0.3,0.2
2025-10-31T0100,2231A,126.4219,41.9171,白山市,喜丰,颗粒物(PM10),52,54,46,9,17,15,,,,28,19,12,8,0.7,0.7
2025-10-31T0100,2232A,126.4077,41.9419,白山市,环保局,,20,16,26,14,20,30,,,,10,13,7,7,0.5,0.7
2025-10-31T0100,2647A,104.1724,36.5446,白银市,第三小学,颗粒物(PM10),58,65,75,18,28,67,,,,17,23,9,15,0.2,0.4
2025-10-31T0100,2648A,104.1465,36.5482,白银市,动力公司,颗粒物(PM10),60,69,74,20,26,63,,,,22,24,7,12,0.4,0.5
2025-10-31T0100,2512A,106.6103,23.9011,百色市,市监测站,,38,38,57,26,45,5,,,,25,18,9,12,0.8,0.8
2025-10-31T0100,2513A,106.6538,23.8859,百色市,市中心血站,,40,35,68,28,49,9,,,,33,28,6,12,0.8,0.9
2025-10-31T0100,3406A,106.6085,23.8798,百色市,祈福高中,颗粒物(PM10),55,60,70,33,48,7,,,,22,24,9,10,0.3,0.4
2025-10-31T0100,2270A,117.396,32.939,蚌埠市,工人疗养院,颗粒物(PM10),67,83,60,42,34,27,,,,33,35,4,5,0.6,0.6
2025-10-31T0100,2271A,117.3605,32.9427,蚌埠市,百货大楼,细颗粒物(PM2.5),69,64,51,50,38,10,,,,47,41,6,7,0.6,0.5
2025-10-31T0100,2273A,117.4185,32.8911,蚌埠市,蚌埠学院,细颗粒物(PM2.5),62,48,45,44,35,2,,,,54,35,5,5,0.8,0.5
2025-10-31T0100,2274A,117.3533,32.9673,蚌埠市,淮上区政府,细颗粒物(PM2.5),67,66,56,48,38,15,,,,46,39,6,7,0.5,0.5
2025-10-31T0100,2275A,117.3145,32.8977,蚌埠市,高新区,细颗粒物(PM2.5),65,61,51,47,36,0,,,,48,41,9,8,0.7,0.6
2025-10-31T0100,3715A,117.3092,32.9314,蚌埠市,蚌埠田家炳中学,细颗粒物(PM2.5),65,66,59,47,33,1,,,,56,41,5,5,0.5,0.5
2025-10-31T0100,1585A,109.8756,40.6532,包头市,市环境监测站,,37,37,41,14,14,60,,,,20,26,9,14,0.4,0.5
2025-10-31T0100,1587A,109.9991,40.5842,包头市,包头八中,颗粒物(PM10),55,60,60,30,29,4,,,,72,49,8,11,0.7,0.9
2025-10-31T0100,1588A,109.8538,40.6821,包头市,青山宾馆,,45,45,33,18,14,40,,,,38,28,11,16,0.6,0.8
2025-10-31T0100,1589A,109.8642,40.6288,包头市,惠龙物流,,42,42,33,18,14,46,,,,33,25,9,13,0.6,0.8
2025-10-31T0100,1590A,110.0377,40.5546,包头市,东河鸿龙湾,,,,45,,18,,,45,,,49,,14,,0.9
2025-10-31T0100,3283A,109.9154,40.5685,包头市,滨河大厦,颗粒物(PM10),61,72,35,35,14,4,,,,60,33,15,12,0.6,0.5
2025-10-31T0100,3419A,109.9447,40.6261,包头市,包头市委党校,颗粒物(PM10),51,52,35,24,14,12,,,,68,38,8,11,0.8,0.6
2025-10-31T0100,3683A,109.8331,40.6576,包头市,昆区政府,,,,32,,15,,,65,,,21,,17,,0.8
2025-10-31T0100,1930A,107.185,34.3063,宝鸡市,庙沟村,,,,,,,,,,,,,,,,
2025-10-31T0100,1931A,107.0708,34.3017,宝鸡市,竹园沟,,38,38,39,25,22,29,,,,24,19,7,8,0.3,0.4
2025-10-31T0100,1932A,107.1906,34.3672,宝鸡市,三陆医院,细颗粒物(PM2.5),78,81,67,57,48,4,,,,49,38,8,7,0.7,0.6
2025-10-31T0100,1933A,107.1431,34.3547,宝鸡市,监测站,细颗粒物(PM2.5),52,44,52,36,30,16,,,,30,23,6,6,0.4,0.4
2025-10-31T0100,1934A,107.1186,34.3739,宝鸡市,技工学校,细颗粒物(PM2.5),72,63,56,52,44,16,,,,23,22,6,6,0.6,0.6
2025-10-31T0100,1936A,107.2058,34.3497,宝鸡市,文理学院,颗粒物(PM10),59,67,55,38,29,20,,,,35,28,6,6,0.5,0.5
2025-10-31T0100,1937A,107.2386,34.3622,宝鸡市,三迪小学,细颗粒物(PM2.5),64,59,63,46,46,10,,,,51,38,5,6,0.6,0.6
2025-10-31T0100,4308A,107.3898,34.3601,宝鸡市,陈仓区北开路21号,颗粒物(PM10),69,88,90,43,51,5,,,,53,35,6,7,0.6,0.7
2025-10-31T0100,1051A,115.493,38.8632,保定市,游泳馆,细颗粒物(PM2.5),202,,165,152,163,18,,,,33,31,3,5,0.8,0.7
2025-10-31T0100,1052A,115.5213,38.8959,保定市,华电二区,细颗粒物(PM2.5),195,,154,146,171,9,,,,36,36,3,2,1.1,1
2025-10-31T0100,1053A,115.4713,38.9108,保定市,接待中心,细颗粒物(PM2.5),179,135,166,135,159,18,,,,31,31,3,4,0.7,0.7
2025-10-31T0100,1054A,115.4612,38.8416,保定市,地表水厂,细颗粒物(PM2.5),186,155,178,140,155,21,,,,30,33,8,8,0.9,0.8
2025-10-31T0100,3581A,115.31981,38.95208,保定市,满城区生态环境分局,细颗粒物(PM2.5),185,151,167,139,144,20,,,,36,34,1,2,0.8,0.6
2025-10-31T0100,3582A,115.47694,38.76408,保定市,清苑区第二中学,细颗粒物(PM2.5),165,148,179,125,143,13,,,,32,32,1,2,1.0,0.9
2025-10-31T0100,3583A,115.62909,39.02311,保定市,徐水物探局,细颗粒物(PM2.5),186,181,196,140,155,1,,,,43,37,11,10,1.1,1
2025-10-31T0100,4004A,115.4202,38.8656,保定市,双鹰农机,细颗粒物(PM2.5),182,140,180,137,158,21,,,,38,33,3,3,1.0,0.9
2025-10-31T0100,4034A,115.5150,38.8590,保定市,植保所站,细颗粒物(PM2.5),205,,179,155,168,12,,,,39,38,4,3,1.1,1
2025-10-31T0100,2594A,99.1678,25.1081,保山市,市环境监测站,,26,19,20,18,16,31,,,,6,8,6,7,0.4,0.5
2025-10-31T0100,2595A,99.1711,25.1328,保山市,市环保局,,23,23,22,12,13,40,,,,4,5,6,6,0.5,0.5
2025-10-31T0100,1866A,109.2262,21.588,北海市,牛尾岭水库,,16,,39,6,35,49,,,,8,10,2,3,0.7,0.7
2025-10-31T0100,1867A,109.1436,21.4086,北海市,海滩公园,,17,14,53,7,37,53,,,,10,13,6,9,0.8,0.9
2025-10-31T0100,1868A,109.0981,21.4661,北海市,新市环保局,,22,20,48,12,40,68,,,,10,13,4,4,0.7,0.7
2025-10-31T0100,1869A,109.1778,21.5233,北海市,北海工业园,,19,19,56,7,40,56,,,,11,14,4,6,0.7,0.8
2025-10-31T0100,3400A,109.1911,21.4415,北海市,龙潭自来水厂,,16,11,53,3,44,51,,,,8,10,3,4,0.6,0.7
2025-10-31T0100,1001A,116.3621,39.8784,北京市,万寿西宫,,28,23,135,19,108,30,,,,19,37,2,2,0.6,1.1
2025-10-31T0100,1002A,116.2202,40.2915,北京市,定陵,,,,,,,,,,,,,,,,
2025-10-31T0100,1003A,116.4174,39.9289,北京市,东四,,30,29,122,21,107,27,,,,22,32,3,3,0.6,1.1
2025-10-31T0100,1004A,116.4072,39.8863,北京市,天坛,,28,23,117,19,97,33,,,,20,31,1,1,0.4,0.9
2025-10-31T0100,1005A,116.462,39.9365,北京市,农展馆,,38,33,120,26,96,20,,,,31,33,3,4,0.7,1
2025-10-31T0100,1006A,116.3392,39.9295,北京市,官园,,30,25,129,21,104,31,,,,17,34,1,2,0.5,1
2025-10-31T0100,1007A,116.2878,39.9611,北京市,海淀万柳,细颗粒物(PM2.5),57,50,129,40,99,15,,,,30,36,3,4,0.7,0.9
2025-10-31T0100,1008A,116.6636,40.135,北京市,顺义新城,细颗粒物(PM2.5),55,56,118,39,82,38,,,,16,24,3,3,0.7,0.9
2025-10-31T0100,1009A,116.6275,40.3275,北京市,怀柔镇,细颗粒物(PM2.5),64,55,106,46,91,40,,,,15,23,3,4,0.7,0.8
2025-10-31T0100,1010A,116.2296,40.217,北京市,昌平镇,细颗粒物(PM2.5),54,50,114,38,87,40,,,,17,26,4,4,0.6,0.8
2025-10-31T0100,1011A,116.3966,39.9821,北京市,奥体中心,,30,29,119,21,91,26,,,,26,39,4,4,0.6,0.9
2025-10-31T0100,3281A,115.9718,40.4529,北京市,延庆夏都,细颗粒物(PM2.5),97,110,117,72,79,22,,,,23,28,2,2,0.9,1
2025-10-31T0100,3418A,116.8336,40.4095,北京市,密云新城,细颗粒物(PM2.5),73,69,97,53,69,31,,,,11,14,1,2,0.8,0.8
2025-10-31T0100,3671A,116.088,39.9726,北京市,门头沟三家店,细颗粒物(PM2.5),69,82,141,50,105,7,,,,32,34,3,1,0.8,0.9
2025-10-31T0100,3672A,116.1541,39.8204,北京市,丰台云岗,,43,38,150,30,116,17,,,,20,35,2,3,0.6,0.9
2025-10-31T0100,3673A,116.6804,39.9081,北京市,通州东关,,42,38,139,29,104,14,,,,27,35,3,4,0.7,0.9
2025-10-31T0100,3674A,115.9577,39.7603,北京市,房山燕山,,48,45,143,33,125,3,,,,32,35,3,3,0.6,0.9
2025-10-31T0100,3675A,116.4672,39.7733,北京市,大兴旧宫,,26,24,139,18,98,31,,,,17,34,2,2,0.6,1.1
2025-10-31T0100,3694A,115.986,40.4563,北京市,延庆石河营,细颗粒物(PM2.5),83,105,113,61,68,10,,,,20,21,2,2,0.9,0.7
2025-10-31T0100,3695A,116.6151,40.3053,北京市,怀柔新城,细颗粒物(PM2.5),65,55,112,47,99,38,,,,18,21,2,3,0.6,0.8
2025-10-31T0100,3696A,116.2545,39.8768,北京市,丰台小屯,,45,38,129,31,81,15,,,,21,28,3,3,0.8,1
2025-10-31T0100,3697A,116.84,40.3844,北京市,密云镇,细颗粒物(PM2.5),72,64,98,52,75,30,,,,15,19,4,6,0.7,0.8
2025-10-31T0100,4182A,116.1942,39.9158,北京市,八角北路9号,颗粒物(PM10),61,71,157,40,109,13,,,,28,35,3,2,0.6,0.9
2025-10-31T0100,4194A,117.0790,40.1518,北京市,洳河巡河路,细颗粒物(PM2.5),68,68,139,49,100,24,,,,19,20,3,3,0.7,1
2025-10-31T0100,1761A,123.8275,41.3064,本溪市,大峪,,35,35,36,14,21,1,,,,47,22,8,10,0.7,0.6
2025-10-31T0100,1762A,123.7567,41.3325,本溪市,溪湖,颗粒物(PM10),65,80,61,24,31,5,,,,52,28,12,12,1.4,0.8
2025-10-31T0100,1763A,123.7169,41.3094,本溪市,彩屯,,41,41,58,20,35,20,,,,26,32,7,14,0.7,1
2025-10-31T0100,1764A,123.7669,41.2864,本溪市,东明,,42,42,44,14,22,6,,,,47,29,9,11,0.8,0.9
2025-10-31T0100,1765A,123.7992,41.2664,本溪市,新立屯,,21,17,34,8,22,12,,,,41,29,6,8,0.2,0.4
2025-10-31T0100,1766A,123.8142,41.3472,本溪市,威宁,颗粒物(PM10),52,53,55,19,26,3,,,,37,27,4,6,0.6,0.6
2025-10-31T0100,2587A,105.2864,27.3125,毕节市,八中,,45,43,21,31,16,5,,,,12,10,7,7,0.8,0.7
2025-10-31T0100,2588A,105.31,27.2944,毕节市,师专,"颗粒物(PM10),细颗粒物(PM2.5)",54,58,26,38,18,1,,,,22,16,8,8,0.8,0.7
2025-10-31T0100,4263A,105.3688,27.3598,毕节市,工业大道,,31,31,15,19,8,17,,,,10,9,10,9,0.6,0.6
2025-10-31T0100,1629A,118.0018,37.3617,滨州市,第二水厂,细颗粒物(PM2.5),62,68,81,44,45,20,,,,47,48,7,12,0.6,0.6
2025-10-31T0100,1630A,117.9776,37.393,滨州市,北中新校,"颗粒物(PM10),细颗粒物(PM2.5)",62,73,75,44,41,0,,,,52,50,4,8,0.5,0.6
2025-10-31T0100,3514A,117.9378,37.3956,滨州市,中海酒店,细颗粒物(PM2.5),55,58,72,39,45,8,,,,71,69,4,6,0.7,0.8
2025-10-31T0100,3515A,117.9378,37.3553,滨州市,开发区一中,细颗粒物(PM2.5),67,78,87,48,47,42,,,,35,47,8,13,0.7,0.8
2025-10-31T0100,3516A,118.0917,37.694,滨州市,金海六路,颗粒物(PM10),52,54,76,31,44,26,,,,25,39,4,7,0.1,0.6
2025-10-31T0100,4028A,117.9956,37.3753,滨州市,滨州市西街道办事处,,,61,77,56,49,,,,,46,42,6,12,0.7,0.7
2025-10-31T0100,2311A,115.8072,33.8399,亳州市,污水处理厂,细颗粒物(PM2.5),102,89,84,76,59,1,,,,62,32,14,11,0.8,0.6
2025-10-31T0100,2312A,115.7789,33.8518,亳州市,三国揽胜宫,细颗粒物(PM2.5),104,,75,78,62,17,,,,31,24,22,9,0.8,0.7
2025-10-31T0100,3332A,115.7633,33.8034,亳州市,亳州学院,细颗粒物(PM2.5),118,112,87,89,61,37,,,,25,23,6,8,0.7,0.6
2025-10-31T0100,2693A,82.0485,44.8556,博尔塔拉蒙古自治州,市党校,颗粒物(PM10),60,70,69,39,43,40,,,,28,21,6,6,0.8,0.7
2025-10-31T0100,2694A,82.0806,44.8969,博尔塔拉蒙古自治州,市环保局,,,,102,,24,44,,,,26,24,4,5,0.4,0.6
2025-10-31T0100,1071A,116.8842,38.2991,沧州市,沧县城建局,,49,49,113,23,91,28,,,,17,46,3,5,0.4,0.9
2025-10-31T0100,1072A,116.8584,38.3254,沧州市,电视转播站,,48,48,107,22,82,25,,,,20,44,2,3,0.4,1
2025-10-31T0100,1073A,116.8709,38.3228,沧州市,市环保局,,46,46,119,31,99,28,,,,22,49,4,6,0.3,0.8
2025-10-31T0100,3324A,116.8136,38.3004,沧州市,河北水利电力学院,,48,48,104,24,74,31,,,,18,48,5,9,0.2,0.8
2025-10-31T0100,2622A,97.1806,31.1273,昌都市,昌都监测站,,50,50,36,24,18,11,,,,31,22,4,4,0.8,0.7
2025-10-31T0100,3719A,97.1714,31.1406,昌都市,昌都会议中心,,20,20,14,11,8,38,,,,9,5,4,4,0.2,0.3
2025-10-31T0100,2690A,88.1236,43.8886,昌吉回族自治州,天山天池,,,,,,,,,,,,,,,,
2025-10-31T0100,2692A,87.2717,44.0297,昌吉回族自治州,新区政务中心,颗粒物(PM10),65,80,67,23,28,2,,,,64,36,4,9,0.6,0.5
2025-10-31T0100,3613A,87.3095,44.0142,昌吉回族自治州,亚心广场,颗粒物(PM10),67,83,84,22,28,16,,,,49,29,7,9,0.5,0.5
2025-10-31T0100,1120A,125.2863,43.9027,长春市,客车厂,细颗粒物(PM2.5),84,70,38,62,27,13,,,,49,28,17,7,0.5,0.4
2025-10-31T0100,1121A,125.2841,43.8463,长春市,邮电学院,细颗粒物(PM2.5),77,71,50,56,31,12,,,,43,26,6,7,0.7,0.5
2025-10-31T0100,1122A,125.3716,43.8772,长春市,劳动公园,颗粒物(PM10),66,81,42,47,18,6,,,,50,29,9,10,0.9,0.6
2025-10-31T0100,1123A,125.3297,43.8805,长春市,园林处,细颗粒物(PM2.5),60,64,62,43,24,16,,,,42,29,5,8,0.3,0.2
2025-10-31T0100,1124A,125.4605,43.79,长春市,净月潭,,48,44,30,33,9,32,,,,18,19,6,6,0.6,0.4
2025-10-31T0100,1125A,125.7194,43.515,长春市,甩湾子,,45,45,35,31,23,8,,,,33,23,4,4,0.6,0.4
2025-10-31T0100,1126A,125.3863,43.8447,长春市,经开区环卫处,细颗粒物(PM2.5),60,68,39,43,19,3,,,,49,30,6,7,0.7,0.5
2025-10-31T0100,1127A,125.245,43.7783,长春市,高新区管委会,细颗粒物(PM2.5),85,93,42,63,29,10,,,,46,27,6,7,0.6,0.4
2025-10-31T0100,1128A,125.1761,43.8325,长春市,岱山公园,颗粒物(PM10),70,89,50,41,33,14,,,,42,33,8,7,0.4,0.4
2025-10-31T0100,4281A,125.3346,43.9164,长春市,北亚泰大街1068号,细颗粒物(PM2.5),69,74,43,50,25,4,,,,52,38,10,8,0.6,0.5
2025-10-31T0100,1335A,113.0833,28.2325,长沙市,经开区环保局,细颗粒物(PM2.5),110,,79,83,87,41,,,,20,20,5,4,0.6,0.7
2025-10-31T0100,1336A,112.8872,28.2189,长沙市,高开区环保局,细颗粒物(PM2.5),130,,77,99,108,51,,,,21,19,5,4,0.5,0.6
2025-10-31T0100,1337A,113.0792,28.2053,长沙市,马坡岭,细颗粒物(PM2.5),82,61,77,60,69,48,,,,17,18,5,4,0.6,0.8
2025-10-31T0100,1338A,112.9394,28.19,长沙市,湖南师范大学,细颗粒物(PM2.5),84,63,73,62,59,60,,,,25,20,3,4,0.5,0.6
2025-10-31T0100,1339A,113.0178,28.1322,长沙市,雨花区环保局,细颗粒物(PM2.5),118,,69,89,84,53,,,,16,16,6,6,0.7,0.8
2025-10-31T0100,1340A,112.9792,28.2597,长沙市,伍家岭,细颗粒物(PM2.5),125,,82,95,87,62,,,,16,18,6,4,0.4,0.6
2025-10-31T0100,1341A,113.0014,28.1944,长沙市,火车新站,细颗粒物(PM2.5),94,,75,70,72,66,,,,17,20,9,8,0.6,0.7
2025-10-31T0100,1342A,112.9844,28.1178,长沙市,天心区环保局,细颗粒物(PM2.5),80,67,74,59,59,66,,,,17,18,5,5,0.6,0.7
2025-10-31T0100,1343A,112.8908,28.1308,长沙市,湖南中医药大学,细颗粒物(PM2.5),73,63,69,53,53,46,,,,19,16,4,4,0.8,0.8
2025-10-31T0100,1344A,112.9581,28.3611,长沙市,沙坪,,,,,,,,,,,,,,,,
2025-10-31T0100,1727A,113.1147,36.1547,长治市,清华站,细颗粒物(PM2.5),122,103,75,92,72,34,,,,22,31,11,10,1.5,1
2025-10-31T0100,1730A,113.0886,36.2125,长治市,审计局,细颗粒物(PM2.5),119,,71,90,79,19,,,,34,36,7,9,1.5,1.1
2025-10-31T0100,1731A,113.0844,36.1856,长治市,长治八中,细颗粒物(PM2.5),119,127,95,90,77,14,,,,31,29,8,8,1.5,1.1
2025-10-31T0100,2845A,113.1569,36.1911,长治市,德盛苑,细颗粒物(PM2.5),147,,84,112,86,37,,,,19,22,5,6,1.5,1.2
2025-10-31T0100,3568A,113.06,36.0464,长治市,向阳小学,细颗粒物(PM2.5),137,135,108,104,80,31,,,,38,34,8,12,1.3,1.2
2025-10-31T0100,3569A,112.8792,36.3144,长治市,屯留一中,细颗粒物(PM2.5),95,84,73,71,56,22,,,,24,25,8,12,0.9,0.8
2025-10-31T0100,4189A,113.1131,36.19948,长治市,英华南巷50号,细颗粒物(PM2.5),128,116,88,97,76,20,,,,28,32,6,7,1.9,1.5
2025-10-31T0100,4190A,113.2367,36.3344,长治市,学府街1号,细颗粒物(PM2.5),135,,89,103,83,36,,,,26,31,7,9,1.6,1.6
2025-10-31T0100,1854A,111.6975,28.9703,常德市,市二中,,45,45,48,28,38,16,,,,29,13,5,4,0.8,0.8
2025-10-31T0100,1857A,111.7158,29.1456,常德市,白鹤山,,,,,,,,,,,,,,,,
2025-10-31T0100,3138A,111.7153,29.0289,常德市,武陵区永安,细颗粒物(PM2.5),53,48,50,37,38,30,,,,26,16,4,4,0.9,0.7
2025-10-31T0100,3139A,111.6892,28.9881,常德市,鼎城区玉霞,,44,44,58,26,39,0,,,,25,16,5,5,0.5,0.7
2025-10-31T0100,3140A,111.6625,29.0531,常德市,武陵区长庚,颗粒物(PM10),54,57,54,35,39,2,,,,39,20,3,3,0.6,0.5
2025-10-31T0100,1196A,119.9633,31.762,常州市,市监测站,,28,28,46,9,16,63,,,,10,43,8,9,0.6,0.6
2025-10-31T0100,1200A,119.9468,31.7069,常州市,武进监测站,,23,15,37,3,10,72,,,,8,40,9,10,0.4,0.5
2025-10-31T0100,1201A,119.9255,31.9087,常州市,安家,,27,27,38,8,13,44,,,,22,34,8,8,0.9,0.4
2025-10-31T0100,3002A,119.9805,31.8174,常州市,行政中心,,21,12,33,6,16,67,,,,11,42,4,6,0.3,0.6
2025-10-31T0100,3003A,120.0522,31.7748,常州市,经开区,,27,27,46,6,16,56,,,,24,46,7,9,0.7,0.7
2025-10-31T0100,3010A,119.9025,31.7964,常州市,钟楼,,,26,37,12,16,,,,,13,39,7,9,0.6,0.8
2025-10-31T0100,3429A,119.8598,31.7066,常州市,武进经发区,,21,12,31,7,13,65,,,,15,42,6,9,0.6,0.8
2025-10-31T0100,3430A,119.5826,31.7245,常州市,金坛城区,,20,,25,14,13,49,,,,16,27,4,6,0.5,0.5
2025-10-31T0100,2220A,120.4318,41.5881,朝阳市,西梁,颗粒物(PM10),62,74,62,27,31,2,,,,50,33,9,11,0.7,0.8
2025-10-31T0100,2221A,120.4521,41.5646,朝阳市,河畔小区,颗粒物(PM10),59,67,41,39,26,3,,,,47,26,5,9,0.9,0.6
2025-10-31T0100,2222A,120.4176,41.5648,朝阳市,八里堡,颗粒物(PM10),76,101,66,45,38,2,,,,49,34,8,11,1.1,0.9
2025-10-31T0100,2223A,120.3806,41.5969,朝阳市,农业园区,,21,21,37,14,24,20,,,,37,32,6,10,0.5,0.5
2025-10-31T0100,1705A,116.6367,23.6719,潮州市,西园路,,,,,,,,,,,,,,,,
2025-10-31T0100,3026A,116.6183,23.6608,潮州市,市政府,,22,16,30,15,13,48,,,,2,7,3,4,0.5,0.4
2025-10-31T0100,4036A,116.6461,23.6761,潮州市,金山,,36,36,27,16,18,15,,,,11,8,2,2,0.5,0.5
2025-10-31T0100,2472A,113.0073,25.9061,郴州市,马头岭,,,,,,,,,,,,,,,,
2025-10-31T0100,2473A,113.0116,25.8226,郴州市,市职中,,,,77,43,73,30,,,,,20,2,4,0.6,0.7
2025-10-31T0100,2475A,113.0383,25.8071,郴州市,市审计局,细颗粒物(PM2.5),65,52,77,47,74,34,,,,8,18,8,10,0.5,0.5
2025-10-31T0100,2476A,113.0348,25.7759,郴州市,市环保局,细颗粒物(PM2.5),58,56,83,41,69,34,,,,12,22,2,4,0.6,0.6
2025-10-31T0100,4252A,113.0138,25.8011,郴州市,好美居路49号,,46,,71,32,60,43,,,,13,22,3,4,0.8,0.8
2025-10-31T0100,1431A,103.9728,30.7236,成都市,金泉两河,细颗粒物(PM2.5),63,45,41,45,35,5,,,,41,26,3,3,0.6,0.6
2025-10-31T0100,1432A,104.176,30.6872,成都市,十里店,细颗粒物(PM2.5),54,50,63,38,50,25,,,,24,29,3,3,0.4,0.5
2025-10-31T0100,1433A,104.079,30.5706,成都市,三瓦窑,,42,33,62,29,53,43,,,,15,26,3,3,0.5,0.6
2025-10-31T0100,1434A,104.1114,30.63,成都市,沙河铺,细颗粒物(PM2.5),54,56,63,38,56,21,,,,35,32,4,4,0.4,0.5
2025-10-31T0100,1437A,104.0786,30.6531,成都市,君平街,细颗粒物(PM2.5),55,48,57,39,62,23,,,,26,23,3,4,0.5,0.6
2025-10-31T0100,1438A,103.613,31.0283,成都市,灵岩寺,,,,,,,,,,,,,,,,
2025-10-31T0100,2880A,104.0239,30.65639,成都市,大石西路,,49,35,45,34,43,22,,,,30,27,2,3,0.6,0.7
2025-10-31T0100,3136A,104.2725,30.5589,成都市,龙泉驿区区政府,,21,,26,14,20,47,,,,42,19,5,5,0.4,0.5
2025-10-31T0100,3357A,104.0106,30.6931,成都市,金博路,,43,43,49,29,34,20,,,,31,26,5,5,0.5,0.6
2025-10-31T0100,3359A,104.0578,30.5225,成都市,华阳,,36,36,39,24,36,18,,,,38,22,5,4,0.4,0.4
2025-10-31T0100,3488A,104.3880,30.7467,成都市,青石路225号,,49,34,53,34,38,13,,,,33,22,4,5,0.6,0.7
2025-10-31T0100,3489A,104.0789,30.4072,成都市,科学城,,25,22,30,17,24,48,,,,14,14,4,4,0.4,0.5
2025-10-31T0100,4011A,103.8506,30.6947,成都市,光华大道三段,细颗粒物(PM2.5),59,61,61,42,42,8,,,,39,27,1,1,0.8,0.8
2025-10-31T0100,4224A,104.2433,30.5353,成都市,鲸龙路1057号,,26,23,31,18,26,36,,,,26,21,5,5,0.5,0.6
2025-10-31T0100,1062A,117.9531,40.9081,承德市,铁路,细颗粒物(PM2.5),67,68,94,48,66,3,,,,53,43,2,2,0.7,0.7
2025-10-31T0100,1063A,117.9392,40.9763,承德市,中国银行,颗粒物(PM10),53,55,87,35,62,3,,,,38,31,2,2,0.5,0.6
2025-10-31T0100,1064A,117.9503,40.928,承德市,开发区,细颗粒物(PM2.5),63,68,114,45,64,2,,,,54,43,4,5,0.6,0.6
2025-10-31T0100,1066A,117.9268,41.0026,承德市,离宫,,,,,,,,,,,,,,,,
2025-10-31T0100,4274A,117.7994,40.9605,承德市,滨河大街98号,细颗粒物(PM2.5),52,49,67,36,59,5,,,,47,39,1,2,0.5,0.5
2025-10-31T0100,2314A,117.47,30.6618,池州市,池州学院,,23,21,52,16,39,30,,,,20,36,5,6,0.6,0.8
2025-10-31T0100,3237A,117.4918,30.6617,池州市,展览馆,,23,22,47,16,35,26,,,,22,33,4,5,0.6,0.8
2025-10-31T0100,3333A,117.5627,30.695,池州市,第八中学,,29,28,49,20,34,24,,,,21,33,8,7,0.7,0.9
2025-10-31T0100,3334A,117.5038,30.6243,池州市,第十二中学,,23,16,42,16,36,25,,,,23,33,5,5,0.8,1.1
2025-10-31T0100,1744A,118.9233,42.2816,赤峰市,松山一中,颗粒物(PM10),58,65,52,32,21,2,,,,46,47,10,20,0.7,0.8
2025-10-31T0100,1745A,118.9576,42.2728,赤峰市,哈达街,"颗粒物(PM10),细颗粒物(PM2.5)",62,74,63,44,32,9,,,,42,48,18,31,0.7,1
2025-10-31T0100,1746A,118.8788,42.2554,赤峰市,天义路,细颗粒物(PM2.5),59,56,39,42,31,15,,,,36,41,22,14,0.4,0.4
2025-10-31T0100,3058A,119.2658,42.0353,赤峰市,银河街,颗粒物(PM10),61,71,44,24,20,1,,,,40,20,15,14,0.8,0.4
2025-10-31T0100,3286A,118.9359,42.3147,赤峰市,桥北物流园区,,46,36,7,32,20,5,,,,44,39,9,12,0.6,0.6
2025-10-31T0100,2521A,107.3476,22.4136,崇左市,市环保局江州分局,,25,25,34,15,23,47,,,,5,9,3,2,0.8,0.9
2025-10-31T0100,4256A,107.3750,22.3736,崇左市,石景林东路7号,,19,16,26,13,26,50,,,,6,9,5,6,0.8,0.8
2025-10-31T0100,2298A,118.3093,32.3153,滁州市,老年大学,,36,36,36,22,31,39,,,,14,32,11,12,0.2,0.4
2025-10-31T0100,2299A,118.3244,32.2786,滁州市,人大宾馆,,38,27,36,26,31,39,,,,14,33,5,5,0.4,0.4
2025-10-31T0100,3207A,118.3118,32.3038,滁州市,市政府原办公楼,,49,35,37,34,34,39,,,,24,38,6,6,0.5,0.6
2025-10-31T0100,3331A,118.3267,32.2634,滁州市,图书馆,,29,25,37,20,25,42,,,,15,36,7,7,0.5,0.5
2025-10-31T0100,2605A,101.5482,25.0441,楚雄彝族自治州,州环境监测站,,30,24,17,21,13,10,,,,20,6,7,9,0.7,0.6
2025-10-31T0100,2606A,101.538,25.0492,楚雄彝族自治州,市经济开发区,,28,28,20,19,14,24,,,,13,8,7,7,0.7,0.7
2025-10-31T0100,2548A,107.5277,31.2827,达州市,达州职业技术学院,,,,,,,,,,,,,,,,
2025-10-31T0100,2549A,107.5086,31.2186,达州市,市环境监测站,,28,28,28,14,15,2,,,,26,24,5,6,0.4,0.4
2025-10-31T0100,2550A,107.4988,31.2132,达州市,凤凰小区,,32,31,30,22,16,4,,,,29,22,4,4,0.4,0.3
2025-10-31T0100,2551A,107.5082,31.1986,达州市,达县机关宾馆,,34,34,31,8,7,1,,,,29,25,4,4,0.4,0.4
2025-10-31T0100,2552A,107.4644,31.2124,达州市,市政中心,,39,39,38,19,15,2,,,,33,23,5,5,0.5,0.4
2025-10-31T0100,2614A,100.1542,25.7054,大理白族自治州,大理市环境监测站,,20,18,18,14,10,54,,,,6,8,5,5,0.4,0.5
2025-10-31T0100,2615A,100.2171,25.5811,大理白族自治州,大理古城,,25,25,24,8,12,39,,,,9,10,6,6,0.5,0.5
2025-10-31T0100,1109A,121.612,38.9741,大连市,甘井子,细颗粒物(PM2.5),74,95,73,54,38,20,,,,50,39,10,8,0.8,0.6
2025-10-31T0100,1110A,121.565,38.9511,大连市,周水子,细颗粒物(PM2.5),69,84,60,50,34,19,,,,48,37,12,12,0.8,0.6
2025-10-31T0100,1111A,121.5637,38.8845,大连市,星海三站,细颗粒物(PM2.5),70,77,53,51,32,32,,,,22,17,6,6,0.8,0.6
2025-10-31T0100,1112A,121.6302,38.9117,大连市,青泥洼桥,颗粒物(PM10),75,100,65,52,32,3,,,,56,34,11,10,1.3,0.9
2025-10-31T0100,1113A,121.6251,38.8638,大连市,傅家庄,细颗粒物(PM2.5),102,85,54,76,35,17,,,,48,25,11,9,1.0,0.6
2025-10-31T0100,1114A,121.5213,38.8661,大连市,七贤岭,细颗粒物(PM2.5),70,87,60,51,33,28,,,,30,25,8,9,0.9,0.7
2025-10-31T0100,1115A,121.2529,38.8061,大连市,旅顺,细颗粒物(PM2.5),70,75,55,51,32,37,,,,20,18,7,7,0.7,0.5
2025-10-31T0100,1116A,121.7485,39.1311,大连市,金州,细颗粒物(PM2.5),59,65,62,42,35,61,,,,28,35,9,10,0.5,0.5
2025-10-31T0100,1117A,121.7811,39.0496,大连市,开发区,颗粒物(PM10),58,65,57,30,30,73,,,,18,33,8,7,0.5,0.4
2025-10-31T0100,1118A,121.9762,39.0631,大连市,双D港,,49,,46,34,25,91,,,,10,21,9,10,0.6,0.6
2025-10-31T0100,1789A,124.81117,46.03138,大庆市,大同区,,32,32,58,18,36,23,,,,16,20,9,8,0.4,0.5
2025-10-31T0100,1790A,125.129,46.533,大庆市,龙凤区,细颗粒物(PM2.5),64,69,65,46,38,16,,,,31,28,12,8,0.8,0.9
2025-10-31T0100,1791A,124.902,46.408,大庆市,红岗区,细颗粒物(PM2.5),67,68,53,48,34,23,,,,22,23,7,6,0.8,0.7
2025-10-31T0100,1792A,125.153,46.586,大庆市,萨尔图区,细颗粒物(PM2.5),93,89,66,69,42,24,,,,33,29,16,14,0.6,0.5
2025-10-31T0100,1793A,124.9042,46.6215,大庆市,让胡路区,细颗粒物(PM2.5),83,75,52,61,37,22,,,,25,22,8,6,0.6,0.5
2025-10-31T0100,3481A,125.141,46.634,大庆市,萨区政府监测点,细颗粒物(PM2.5),98,106,63,73,32,26,,,,24,17,13,11,0.8,0.5
2025-10-31T0100,1721A,113.3819,40.1097,大同市,果树场,颗粒物(PM10),63,75,42,22,21,5,,,,51,34,11,10,0.9,0.6
2025-10-31T0100,1723A,113.2994,40.0758,大同市,云冈宾馆,,35,35,41,18,17,24,,,,42,38,11,10,1.4,1
2025-10-31T0100,1724A,113.3444,40.0917,大同市,大同大学,,27,27,32,17,16,32,,,,38,32,17,12,0.5,0.6
2025-10-31T0100,1725A,113.2661,40.1269,大同市,安家小村,,42,30,47,29,18,22,,,,38,30,14,8,2.0,0.6
2025-10-31T0100,1726A,113.2711,40.0844,大同市,教育学院,,28,28,48,14,22,17,,,,47,36,8,9,0.9,0.9
2025-10-31T0100,3282A,113.3397,40.0597,大同市,大同市卫生学校,,21,18,35,13,16,30,,,,41,34,10,9,1.0,0.8
2025-10-31T0100,3565A,113.1367,40.1122,大同市,云冈站,颗粒物(PM10),54,58,43,21,21,10,,,,40,25,11,16,0.7,0.7
2025-10-31T0100,3566A,113.1186,40.2556,大同市,图书馆,,41,41,35,26,17,18,,,,21,22,5,10,0.7,0.5
2025-10-31T0100,3567A,113.5931,40.0461,大同市,区一中,,30,30,29,15,15,54,,,,12,18,5,6,0.6,0.6
2025-10-31T0100,4199A,113.2798,40.0997,大同市,魏都大道141号,,40,40,53,10,22,25,,,,37,34,5,8,0.8,0.9
2025-10-31T0100,2269A,124.1069,50.4097,大兴安岭地区,科技局,,28,,24,19,18,32,,,,4,8,5,5,0.3,0.3
2025-10-31T0100,3663A,124.1164,50.4278,大兴安岭地区,红旗社区,,10,7,17,7,12,17,,,,10,11,3,4,0.3,0.3
2025-10-31T0100,1600A,124.3303,40.0625,丹东市,江湾东路,细颗粒物(PM2.5),63,63,47,45,34,42,,,,14,33,5,6,1.0,1
2025-10-31T0100,1601A,124.4256,40.1503,丹东市,临江后街,,49,49,42,28,24,39,,,,14,27,6,8,1.0,1
2025-10-31T0100,1602A,124.3933,40.1461,丹东市,元宝山,,46,42,34,32,25,35,,,,14,19,8,8,0.9,0.9
2025-10-31T0100,1603A,124.3633,40.1092,丹东市,民主桥,,50,50,43,33,29,45,,,,16,34,6,6,0.4,0.5
2025-10-31T0100,3541A,109.5726,19.5167,儋州市,第一中学子站,,18,18,9,11,4,49,,,,2,3,6,3,0.2,0.3
2025-10-31T0100,3542A,109.5567,19.5187,儋州市,东坡学校子站,,18,18,10,3,3,56,,,,3,5,4,5,0.1,0.1
2025-10-31T0100,2616A,98.5842,24.428,德宏傣族景颇族自治州,德宏州监测站,,35,35,28,21,19,19,,,,23,17,8,10,0.7,0.6
2025-10-31T0100,3677A,98.5881,24.4368,德宏傣族景颇族自治州,芒市人民政府综合楼,,38,36,35,26,16,27,,,,12,13,6,7,0.6,0.5
2025-10-31T0100,1901A,104.4239,31.1208,德阳市,东山公园,,33,28,36,23,33,24,,,,11,22,1,2,0.8,0.9
2025-10-31T0100,1902A,104.3826,31.1317,德阳市,西小区,,46,45,61,32,41,22,,,,19,28,1,2,0.9,1
2025-10-31T0100,1904A,104.3553,31.1091,德阳市,耐火材料厂,,50,48,56,35,38,4,,,,36,30,1,2,0.8,0.8
2025-10-31T0100,3639A,104.4019,31.1244,德阳市,市教育局,,43,38,51,30,37,16,,,,22,26,2,3,0.7,0.8
2025-10-31T0100,1622A,116.3032,37.4674,德州市,儿童乐园,细颗粒物(PM2.5),134,158,115,102,72,2,,,,46,42,9,12,1.3,1
2025-10-31T0100,1624A,116.2991,37.4451,德州市,监理站,细颗粒物(PM2.5),128,158,101,97,66,10,,,,54,48,11,15,1.2,0.8
2025-10-31T0100,3066A,116.2721,37.4379,德州市,九衢泉纯净水厂,颗粒物(PM10),92,134,104,66,56,4,,,,53,47,10,14,1.2,0.9
2025-10-31T0100,3371A,116.3728,37.4403,德州市,开发区人民医院,细颗粒物(PM2.5),104,114,99,78,55,0,,,,51,50,11,14,1.2,1
2025-10-31T0100,3511A,116.5652,37.3319,德州市,陵城艺术中心,细颗粒物(PM2.5),125,122,101,95,65,0,,,,54,57,8,14,1.2,0.9
2025-10-31T0100,4292A,116.3525,37.4209,德州市,新河东路,细颗粒物(PM2.5),117,153,106,88,58,4,,,,66,60,8,10,1.2,0.9
2025-10-31T0100,2621A,99.7056,27.8317,迪庆藏族自治州,迪庆州站,,23,23,22,12,15,58,,,,6,10,6,6,0.4,0.5
2025-10-31T0100,3180A,99.7136,27.8094,迪庆藏族自治州,质量技术监督局,,20,13,22,3,9,63,,,,7,11,7,7,0.4,0.5
2025-10-31T0100,4257A,104.6092,35.5962,定西市,将台街,颗粒物(PM10),68,86,68,38,34,4,,,,56,27,11,9,0.6,0.6
2025-10-31T0100,4309A,104.6159,35.5701,定西市,正龙路62号,颗粒物(PM10),74,97,80,47,36,31,,,,18,17,7,7,0.7,0.5
2025-10-31T0100,1389A,113.7547,23.0494,东莞市,莞城梨川,,26,22,32,18,17,26,,,,21,18,5,6,0.6,0.6
2025-10-31T0100,1390A,113.7944,23.0128,东莞市,东城石井,,13,,29,9,20,29,,,,16,20,5,6,0.6,0.6
2025-10-31T0100,1391A,113.7383,22.9658,东莞市,南城西平,,22,22,33,13,22,22,,,,28,31,5,7,0.7,0.7
2025-10-31T0100,3319A,113.7338,23.0381,东莞市,万江金泰,,38,38,32,24,21,17,,,,25,15,5,5,0.8,0.6
2025-10-31T0100,3626A,113.7533,23.0202,东莞市,南城元岭,,26,26,30,17,20,30,,,,16,14,6,6,0.6,0.6
2025-10-31T0100,3627A,113.7875,23.0457,东莞市,东城主山,,26,26,31,18,21,29,,,,19,21,3,5,0.7,0.7
2025-10-31T0100,1666A,118.6614,37.4309,东营市,市环保局,,45,36,53,31,24,42,,,,19,34,6,15,0.6,0.7
2025-10-31T0100,3036A,118.6904,37.4338,东营市,开发区管委会,细颗粒物(PM2.5),67,,56,48,32,49,,,,17,34,6,14,0.6,0.7
2025-10-31T0100,3365A,118.5719,37.565,东营市,垦利区民丰路,,49,44,58,34,27,39,,,,20,30,8,10,0.8,0.9
2025-10-31T0100,3498A,118.5055,37.8612,东营市,河口城区,,48,48,66,24,33,53,,,,20,31,7,10,0.7,0.7
2025-10-31T0100,3646A,118.4978,37.4623,东营市,胜利站,细颗粒物(PM2.5),55,,54,39,26,39,,,,26,40,8,12,0.9,0.9
2025-10-31T0100,3734A,118.35,37.26,东营市,理想之城,颗粒物(PM10),54,58,63,36,30,28,,,,29,44,3,7,0.7,0.7
2025-10-31T0100,1591A,110.0023,39.8129,鄂尔多斯市,综合楼,,29,29,41,7,11,81,,,,13,34,6,10,0.2,0.4
2025-10-31T0100,1592A,109.9486,39.8261,鄂尔多斯市,巴音孟克林场办事处,,34,34,45,14,16,74,,,,15,26,6,9,0.2,0.4
2025-10-31T0100,1593A,109.7736,39.5986,鄂尔多斯市,康泽苑,,22,22,46,12,19,63,,,,12,16,6,8,0.2,0.4
2025-10-31T0100,1594A,109.8119,39.5989,鄂尔多斯市,华泰汽车城,,29,29,51,14,21,58,,,,11,22,4,5,0.3,0.5
2025-10-31T0100,1595A,109.9734,39.7884,鄂尔多斯市,奥林花园,,44,44,50,12,12,86,,,,11,28,8,9,0.3,0.4
2025-10-31T0100,2436A,114.8938,30.3994,鄂州市,市政府,,43,43,79,28,58,40,,,,21,27,7,8,0.5,0.7
2025-10-31T0100,2437A,114.8989,30.3714,鄂州市,赵家坝,,44,44,81,29,63,38,,,,10,15,8,8,0.9,1.1
2025-10-31T0100,3654A,114.8094,30.4089,鄂州市,精准医疗中心,,45,45,69,28,53,39,,,,15,20,10,5,0.5,0.7
2025-10-31T0100,2454A,109.4978,30.2981,恩施土家族苗族自治州,湖北民院,,36,33,31,25,24,14,,,,2,3,6,6,0.7,0.7
2025-10-31T0100,2455A,109.4707,30.2798,恩施土家族苗族自治州,州电力总公司,,34,34,31,22,24,3,,,,18,14,6,5,0.5,0.4
2025-10-31T0100,3549A,109.5061,30.3772,恩施土家族苗族自治州,龙凤新区,,30,27,28,21,22,11,,,,4,8,6,6,0.4,0.5
2025-10-31T0100,2499A,108.3411,21.6158,防城港市,沙万,,25,,30,17,33,59,,,,4,9,4,4,0.6,0.6
2025-10-31T0100,2500A,108.3514,21.7731,防城港市,防城档案局,,36,36,36,10,25,54,,,,7,11,5,6,0.7,0.7
2025-10-31T0100,2501A,108.3506,21.6414,防城港市,大海花园,,20,,33,10,31,64,,,,6,9,4,4,0.7,0.7
2025-10-31T0100,1371A,113.1294,23.0067,佛山市,湾梁,,,,49,,26,,,,,38,34,8,8,0.7,0.8
2025-10-31T0100,1372A,113.1083,23.0478,佛山市,华材职中,,40,34,47,28,37,16,,,,43,35,6,6,0.6,0.6
2025-10-31T0100,1373A,113.144,23.0453,佛山市,南海气象局,,35,24,49,24,35,40,,,,22,34,7,8,0.7,0.8
2025-10-31T0100,1374A,113.2881,22.8094,佛山市,顺德苏岗,,28,23,48,19,27,26,,,,35,42,7,8,0.5,0.6
2025-10-31T0100,1376A,112.8383,22.8678,佛山市,高明孔堂,颗粒物(PM10),51,52,62,25,42,46,,,,21,35,7,8,0.6,0.7
2025-10-31T0100,1377A,112.8836,23.1588,佛山市,三水监测站,,39,,43,27,42,34,,,,28,29,6,7,0.7,0.8
2025-10-31T0100,1378A,112.867,23.185,佛山市,三水云东海,,35,35,43,23,39,38,,,,22,23,6,6,0.8,0.9
2025-10-31T0100,3625A,113.2544,22.7642,佛山市,容桂街道办,,22,22,46,12,30,32,,,,32,39,8,9,0.5,0.7
2025-10-31T0100,1280A,119.3903,26.0543,福州市,鼓山,,22,12,24,12,9,70,,,,4,11,1,1,0.2,0.3
2025-10-31T0100,1282A,119.2681,26.0504,福州市,师大,,34,34,35,17,13,6,,,,30,22,5,6,0.4,0.4
2025-10-31T0100,1283A,119.2984,26.1028,福州市,五四北路,,33,33,35,21,14,8,,,,32,21,4,4,0.4,0.3
2025-10-31T0100,1284A,119.2648,26.0768,福州市,杨桥西路,,30,30,32,18,14,9,,,,29,20,4,4,0.3,0.3
2025-10-31T0100,1285A,119.317,26.0746,福州市,紫阳,,39,39,41,25,17,7,,,,34,25,6,7,0.4,0.4
2025-10-31T0100,3048A,119.5799,26.0936,福州市,九龙,,19,19,22,10,8,5,,,,30,11,3,4,0.3,0.3
2025-10-31T0100,3526A,119.5189,25.9664,福州市,吴航,颗粒物(PM10),52,53,34,28,16,0,,,,44,25,5,5,0.6,0.5
2025-10-31T0100,1755A,123.7977,41.8491,抚顺市,望花区,颗粒物(PM10),63,75,45,30,17,3,,,,48,22,8,8,0.7,0.6
2025-10-31T0100,1756A,123.9161,41.8822,抚顺市,顺城区,颗粒物(PM10),64,77,42,38,24,4,,,,44,26,9,7,0.8,0.6
2025-10-31T0100,1757A,124.0436,41.8611,抚顺市,东洲区,,39,38,32,27,19,5,,,,42,17,4,8,0.6,0.5
2025-10-31T0100,1758A,123.9247,41.8642,抚顺市,新抚区,,50,50,37,28,18,12,,,,31,25,7,7,0.7,0.6
2025-10-31T0100,1759A,124.0972,41.8961,抚顺市,大伙房水库,,46,46,30,24,18,9,,,,49,20,13,10,1.0,0.8
2025-10-31T0100,1760A,123.7086,41.8391,抚顺市,沈抚新城,颗粒物(PM10),54,58,38,24,20,5,,,,55,26,7,7,0.7,0.5
2025-10-31T0100,2376A,116.2127,28.0814,抚州市,桐源党溪,,,,,,,,,,,,,,,,
2025-10-31T0100,2377A,116.3544,27.9831,抚州市,市站,细颗粒物(PM2.5),65,54,80,47,62,50,,,,12,17,7,7,1.4,1.2
2025-10-31T0100,2378A,116.3565,27.963,抚州市,血防站,细颗粒物(PM2.5),62,60,89,44,69,47,,,,13,23,5,4,1.1,1.1
2025-10-31T0100,2379A,116.3564,28.0007,抚州市,采茶剧团,细颗粒物(PM2.5),70,63,79,51,61,42,,,,11,14,4,4,1.1,1
2025-10-31T0100,2380A,116.385,27.9647,抚州市,医学分院,细颗粒物(PM2.5),62,62,87,44,63,49,,,,14,20,8,6,1.4,1.3
2025-10-31T0100,2207A,121.6094,41.998,阜新市,工业园区,颗粒物(PM10),67,83,53,26,20,3,,,,40,28,7,9,1.1,0.6
2025-10-31T0100,2208A,121.6697,42.0279,阜新市,长青街,颗粒物(PM10),55,60,28,22,17,0,,,,48,25,20,10,0.7,0.7
2025-10-31T0100,2209A,121.6673,42.0705,阜新市,农业园区,,32,29,19,22,10,46,,,,15,11,26,10,0.5,0.5
2025-10-31T0100,2210A,121.6717,42.0224,阜新市,东苑,颗粒物(PM10),75,100,43,18,12,3,,,,50,28,26,12,0.7,0.7
2025-10-31T0100,2211A,121.6506,42.0498,阜新市,玉龙新城,颗粒物(PM10),59,67,49,14,14,4,,,,41,33,10,10,1.2,0.7
2025-10-31T0100,2301A,115.8277,32.8929,阜阳市,市监测站,细颗粒物(PM2.5),128,132,108,97,77,2,,,,60,50,4,5,0.8,0.6
2025-10-31T0100,2303A,115.8554,32.8605,阜阳市,开发区,细颗粒物(PM2.5),152,154,123,116,91,1,,,,52,43,8,9,0.7,0.5
2025-10-31T0100,2875A,115.784,32.8892,阜阳市,阜阳职业技术学院,,,,77,,45,,,,,,30,,6,,0.5
2025-10-31T0100,3468A,115.7901,32.8613,阜阳市,市规划展馆,细颗粒物(PM2.5),130,160,112,99,72,,,,,64,35,5,6,0.9,0.7
2025-10-31T0100,3469A,115.836,32.9183,阜阳市,枣园社区,细颗粒物(PM2.5),117,118,98,88,71,1,,,,65,46,8,9,0.9,0.7
2025-10-31T0100,2669A,102.9099,34.9841,甘南藏族自治州,州政府,颗粒物(PM10),53,56,43,35,27,77,,,,14,20,5,6,0.3,0.5
2025-10-31T0100,3380A,102.8914,34.9617,甘南藏族自治州,甘肃民族师范学院,颗粒物(PM10),56,62,50,38,28,61,,,,12,23,5,6,0.6,0.5
2025-10-31T0100,2570A,101.9603,30.0475,甘孜藏族自治州,水桥子,,22,22,10,3,5,6,,,,22,17,7,7,0.3,0.5
2025-10-31T0100,3065A,101.9533,29.9972,甘孜藏族自治州,州环保局,,10,,8,7,5,22,,,,10,14,5,5,0.4,0.5
2025-10-31T0100,3414A,115.8347,28.932,赣江新区,桑海产业园,细颗粒物(PM2.5),59,51,76,42,68,45,,,,15,22,8,8,0.9,0.8
2025-10-31T0100,2362A,114.9017,25.9149,赣州市,通天岩,,46,46,53,30,34,61,,,,6,8,15,15,0.9,0.9
2025-10-31T0100,2363A,114.9367,25.8664,赣州市,地委,细颗粒物(PM2.5),54,47,62,38,47,66,,,,9,15,4,5,0.8,0.8
2025-10-31T0100,2364A,114.9461,25.8481,赣州市,气象台,,50,50,63,30,41,73,,,,6,15,5,6,0.7,0.7
2025-10-31T0100,2365A,114.9322,25.8333,赣州市,市图书馆,,43,38,55,30,46,67,,,,7,13,5,4,0.6,0.7
2025-10-31T0100,2366A,114.8905,25.8471,赣州市,华坚鞋城,,46,38,61,32,41,62,,,,9,16,4,5,0.6,0.7
2025-10-31T0100,3109A,115.0093,25.8613,赣州市,赣县区卫计委,细颗粒物(PM2.5),57,,54,40,56,57,,,,4,8,7,7,0.6,0.7
2025-10-31T0100,2683A,106.2319,36.1417,固原市,马园,,,,,,,,,,,,,,,,
2025-10-31T0100,2684A,106.2792,36.0022,固原市,监测站,细颗粒物(PM2.5),73,94,77,53,24,27,,,,33,24,7,7,1.1,0.7
2025-10-31T0100,2685A,106.2375,36.0211,固原市,新区,颗粒物(PM10),68,85,70,31,24,12,,,,53,36,4,5,0.6,0.6
2025-10-31T0100,3522A,106.2177,35.9959,固原市,原州区十五小,颗粒物(PM10),65,80,74,35,29,51,,,,28,28,8,7,0.8,0.6
2025-10-31T0100,2543A,106.6308,30.5278,广安市,小平旧居,,,,,,,,,,,,,,,,
2025-10-31T0100,2544A,106.6303,30.4576,广安市,市委,,38,31,31,26,24,35,,,,10,10,3,3,0.5,0.6
2025-10-31T0100,2545A,106.6271,30.4663,广安市,友谊中学,,30,25,29,21,22,30,,,,13,10,5,5,0.5,0.8
2025-10-31T0100,2547A,106.6388,30.4551,广安市,广电花园,,29,26,25,20,23,28,,,,13,11,8,8,0.5,0.5
2025-10-31T0100,2902A,106.6351,30.4865,广安市,北辰小学,,26,23,29,18,21,26,,,,9,8,9,9,0.7,0.6
2025-10-31T0100,2523A,105.8945,32.4535,广元市,黑石坡,,,,,,,,,,,,,,,,
2025-10-31T0100,2524A,105.821,32.4444,广元市,老城,,23,,17,16,16,4,,,,29,21,6,8,0.7,0.8
2025-10-31T0100,2526A,105.8628,32.4287,广元市,监测站,,14,14,14,6,11,4,,,,20,16,3,6,0.7,0.8
2025-10-31T0100,3617A,105.8047,32.4166,广元市,经开区,,25,25,24,13,17,1,,,,29,22,3,7,0.6,0.7
2025-10-31T0100,1345A,113.2347,23.1423,广州市,广雅中学,,37,37,41,21,28,15,,,,49,38,5,6,0.7,0.7
2025-10-31T0100,1346A,113.2612,23.105,广州市,市五中,,38,34,41,20,28,11,,,,75,44,6,7,0.7,0.8
2025-10-31T0100,1348A,113.3478,23.0916,广州市,广东商学院,,35,33,40,24,30,25,,,,33,28,4,4,0.3,0.3
2025-10-31T0100,1349A,113.4332,23.1047,广州市,市八十六中,,20,20,34,14,22,34,,,,26,31,5,6,0.2,0.2
2025-10-31T0100,1350A,113.3505,22.9483,广州市,番禺中学,,29,29,50,17,30,31,,,,33,34,5,6,0.9,1
2025-10-31T0100,1351A,113.2146,23.3916,广州市,花都师范,,44,44,35,27,20,20,,,,40,23,4,5,0.8,0.7
2025-10-31T0100,1352A,113.2597,23.1331,广州市,市监测站,,44,44,41,21,26,15,,,,52,33,6,7,0.5,0.5
2025-10-31T0100,1353A,113.5618,23.312,广州市,九龙镇镇龙,,46,40,47,32,35,24,,,,22,22,7,6,0.6,0.6
2025-10-31T0100,1354A,113.2765,23.1544,广州市,麓湖,,29,29,34,20,27,15,,,,43,31,7,7,0.3,0.4
2025-10-31T0100,1355A,113.443,23.3035,广州市,帽峰山森林公园,,,,,,,,,,,,,,,,
2025-10-31T0100,2846A,113.3221,23.1322,广州市,体育西,,33,33,43,22,29,24,,,,40,26,6,6,0.8,0.8
2025-10-31T0100,3298A,113.5717,23.5491,广州市,从化街口,细颗粒物(PM2.5),67,59,48,48,38,7,,,,31,24,15,9,0.7,0.8
2025-10-31T0100,3299A,113.3472,23.3692,广州市,白云竹料,,35,30,38,24,29,14,,,,32,20,4,7,0.7,0.6
2025-10-31T0100,3300A,113.2981,23.237,广州市,白云嘉禾,,36,35,46,25,33,16,,,,46,32,5,6,0.6,0.6
2025-10-31T0100,3301A,113.4256,23.1716,广州市,黄埔科学城,,33,30,39,23,29,47,,,,12,17,7,6,0.5,0.6
2025-10-31T0100,3302A,113.3942,23.0483,广州市,番禺大学城,,,34,49,,26,28,,,,26,30,6,6,0.5,0.6
2025-10-31T0100,3303A,113.4922,22.8168,广州市,南沙黄阁,,24,24,47,16,27,33,,,,32,39,7,8,0.5,0.5
2025-10-31T0100,3304A,113.5342,22.7896,广州市,南沙街,,36,36,46,18,28,11,,,,44,33,9,8,0.6,0.7
2025-10-31T0100,3443A,113.2902,23.5544,广州市,花都梯面,,46,40,34,32,28,45,,,,14,14,3,4,0.6,0.6
2025-10-31T0100,3445A,113.7858,23.7478,广州市,从化良口,,12,12,19,7,16,14,,,,11,14,6,6,0.9,0.9
2025-10-31T0100,3446A,113.8051,23.2614,广州市,增城荔城,,19,16,21,13,17,34,,,,9,9,8,7,0.4,0.5
2025-10-31T0100,2505A,109.568,23.1478,贵港市,德智高中,,,,,,,,,,,,,,,,
2025-10-31T0100,2506A,109.6047,23.0666,贵港市,江南子站,细颗粒物(PM2.5),54,,37,38,44,48,,,,8,15,4,5,0.8,0.9
2025-10-31T0100,2508A,109.5669,23.1065,贵港市,荷城子站,,45,34,34,31,29,42,,,,10,13,2,3,0.7,0.7
2025-10-31T0100,3405A,109.5886,23.1172,贵港市,新世纪学校,细颗粒物(PM2.5),52,36,39,36,32,45,,,,6,9,2,2,0.6,0.6
2025-10-31T0100,4260A,109.5933,23.0951,贵港市,中山路155-3号,,48,41,43,33,36,51,,,,8,11,2,3,0.9,0.9
2025-10-31T0100,1439A,106.6899,26.5998,贵阳市,马鞍山,,14,14,14,7,6,10,,,,10,12,3,3,0.5,0.5
2025-10-31T0100,1441A,106.6243,26.6266,贵阳市,鉴湖路,,27,27,25,12,7,25,,,,11,13,4,4,0.5,0.5
2025-10-31T0100,1442A,106.7487,26.6343,贵阳市,燕子冲,,32,,17,22,17,13,,,,14,14,4,5,0.6,0.6
2025-10-31T0100,1443A,106.6555,26.4365,贵阳市,碧云窝,,36,36,33,22,12,16,,,,14,21,5,7,0.3,0.4
2025-10-31T0100,1445A,106.7109,26.6027,贵阳市,红边门,,29,29,19,9,10,20,,,,15,18,4,6,0.7,0.7
2025-10-31T0100,1446A,106.7164,26.5699,贵阳市,新华路,,32,24,22,22,17,27,,,,10,17,6,9,0.6,0.6
2025-10-31T0100,1447A,106.674,26.5424,贵阳市,太慈桥,,19,19,18,12,9,16,,,,16,19,2,3,0.7,0.7
2025-10-31T0100,1552A,106.805,26.3003,贵阳市,桐木岭,,34,34,27,19,17,26,,,,2,4,29,16,0.8,0.8
2025-10-31T0100,4230A,106.6882,26.5695,贵阳市,花果园大街66号,,32,,15,22,15,34,,,,11,16,1,2,0.5,0.5
2025-10-31T0100,4231A,106.6873,26.5169,贵阳市,漓江路57号,,20,,16,14,12,26,,,,11,17,9,9,0.5,0.6
2025-10-31T0100,1862A,110.4144,25.3167,桂林市,电子科大尧山校区,,,,,,,,,,,,,,,,
2025-10-31T0100,1864A,110.3089,25.2708,桂林市,龙隐路小学,细颗粒物(PM2.5),93,84,64,69,57,51,,,,11,14,6,6,0.7,0.7
2025-10-31T0100,1865A,110.2869,25.2178,桂林市,八中,细颗粒物(PM2.5),98,84,66,73,60,55,,,,11,19,8,9,0.7,0.7
2025-10-31T0100,3531A,110.296,25.1253,桂林市,旅游学院,细颗粒物(PM2.5),98,78,49,73,46,54,,,,12,12,5,5,0.9,0.8
2025-10-31T0100,4222A,110.1835,25.2444,桂林市,环湖路276号,细颗粒物(PM2.5),79,58,61,58,55,54,,,,12,19,6,14,0.6,0.5
2025-10-31T0100,4301A,110.2803,25.2773,桂林市,信义路13号,细颗粒物(PM2.5),87,75,67,64,52,56,,,,11,17,7,7,0.8,0.8
2025-10-31T0100,2674A,100.2561,34.4714,果洛藏族自治州,玛沁县大武镇,,39,39,34,23,12,66,,,,2,4,17,16,0.3,0.3
2025-10-31T0100,1129A,126.5422,45.755,哈尔滨市,岭北,,,,,,,,,,,,,,,,
2025-10-31T0100,1130A,126.561,45.8167,哈尔滨市,松北商大,,34,34,89,20,73,38,,,,14,27,6,7,0.5,0.7
2025-10-31T0100,1131A,126.979,45.5419,哈尔滨市,阿城会宁,细颗粒物(PM2.5),104,99,91,78,71,14,,,,36,31,12,6,0.6,0.6
2025-10-31T0100,1132A,126.599,45.7222,哈尔滨市,南岗学府路,,38,38,83,12,51,46,,,,20,28,10,11,0.4,0.5
2025-10-31T0100,1133A,126.689,45.7733,哈尔滨市,太平宏伟公园,,33,26,81,23,61,34,,,,29,28,13,13,0.4,0.7
2025-10-31T0100,1134A,126.635,45.7667,哈尔滨市,道外承德广场,颗粒物(PM10),51,51,107,23,63,34,,,,31,36,10,10,0.7,0.7
2025-10-31T0100,1135A,126.685,45.7319,哈尔滨市,香坊红旗大街,,46,46,85,23,56,30,,,,37,31,9,8,0.5,0.7
2025-10-31T0100,1136A,126.6411,45.7258,哈尔滨市,动力和平路,,31,31,71,15,46,40,,,,19,27,4,5,0.2,0.4
2025-10-31T0100,1137A,126.593,45.7478,哈尔滨市,道里建国路,,39,34,82,27,66,34,,,,24,34,6,7,0.3,0.6
2025-10-31T0100,1138A,126.615,45.61,哈尔滨市,平房东轻厂,,40,34,93,28,61,17,,,,46,43,13,15,0.5,0.7
2025-10-31T0100,1139A,126.595,45.9855,哈尔滨市,呼兰师专,,43,37,115,30,104,27,,,,21,28,10,9,0.4,0.8
2025-10-31T0100,1140A,126.6206,45.6842,哈尔滨市,省农科院,,43,43,103,25,58,13,,,,48,45,15,11,0.5,0.6
2025-10-31T0100,2688A,93.5128,42.8172,哈密市,地区监测站,颗粒物(PM10),90,130,84,22,26,51,,,,31,37,7,9,0.3,0.4
2025-10-31T0100,2689A,93.4961,42.8328,哈密市,哈密师范学校,,41,41,72,24,26,46,,,,27,34,4,6,0.4,0.6
2025-10-31T0100,2671A,100.9048,36.9639,海北藏族自治州,海晏县西海镇,颗粒物(PM10),54,58,33,27,24,81,,,,10,9,15,10,0.5,0.4
2025-10-31T0100,3867A,102.0738,36.5056,海东市,平安区公安北苑,颗粒物(PM10),70,90,61,29,32,80,,,,9,15,11,12,0.7,0.8
2025-10-31T0100,1409A,110.576,19.9507,海口市,东寨港,,,,,,,,,,,,,,,,
2025-10-31T0100,1410A,110.3232,20.0574,海口市,海南大学,,37,37,29,12,10,106,,,,5,5,5,5,0.3,0.3
2025-10-31T0100,1411A,110.283,20.0053,海口市,秀英海南医院,,41,41,29,12,8,94,,,,4,5,6,6,0.2,0.2
2025-10-31T0100,1412A,110.338,19.9969,海口市,海南师范大学,,38,38,30,12,10,93,,,,4,5,5,5,0.3,0.4
2025-10-31T0100,1413A,110.33,20.0356,海口市,龙华路环保局宿舍,,38,38,30,13,11,103,,,,6,5,6,6,0.1,0.1
2025-10-31T0100,3539A,110.5111,19.9736,海口市,桂林洋子站,,33,33,28,11,10,86,,,,4,3,6,6,0.2,0.2
2025-10-31T0100,2673A,100.6188,36.2866,海南藏族自治州,共和县恰卜恰镇,,32,32,31,12,12,13,,,,55,18,10,11,0.5,0.5
2025-10-31T0100,2676A,97.3731,37.3753,海西蒙古族藏族自治州,德令哈市,,25,16,24,9,11,78,,,,2,5,14,15,0.4,0.5
2025-10-31T0100,1048A,114.5302,36.6116,邯郸市,东污水处理厂,细颗粒物(PM2.5),244,,170,194,184,28,,,,22,32,3,4,1.2,1.1
2025-10-31T0100,1049A,114.4918,36.5713,邯郸市,矿院,细颗粒物(PM2.5),245,,175,195,179,31,,,,27,37,5,6,1.0,1
2025-10-31T0100,1050A,114.484,36.6133,邯郸市,丛台公园,细颗粒物(PM2.5),223,198,193,173,170,33,,,,23,33,6,7,1.1,1
2025-10-31T0100,3458A,114.7895,36.5593,邯郸市,香泉濮院小区,细颗粒物(PM2.5),228,217,185,178,146,5,,,,43,32,6,5,1.2,0.9
2025-10-31T0100,3579A,114.50634,36.77178,邯郸市,永年区实验高中,细颗粒物(PM2.5),149,151,172,114,123,5,,,,37,41,3,3,1.1,1.1
2025-10-31T0100,3580A,114.20016,36.44293,邯郸市,峰峰矿区临水派出所,细颗粒物(PM2.5),230,,137,180,162,29,,,,29,35,9,6,1.7,1.1
2025-10-31T0100,2634A,106.9893,33.1842,汉中市,汉川机床厂子校,,,,,,,,,,,,,,,,
2025-10-31T0100,2635A,107.0154,33.0706,汉中市,市监测站,细颗粒物(PM2.5),70,75,59,51,36,11,,,,33,21,7,5,0.8,0.9
2025-10-31T0100,2636A,107.0089,33.1138,汉中市,鑫源开发区,细颗粒物(PM2.5),69,64,53,50,30,13,,,,30,23,10,10,0.5,0.7
2025-10-31T0100,2637A,107.007,33.0323,汉中市,南郑大河坎水厂,,50,50,37,35,26,4,,,,23,15,6,5,0.7,0.7
2025-10-31T0100,1223A,120.2072,30.2111,杭州市,滨江,,31,31,39,18,20,50,,,,20,39,9,10,0.5,0.5
2025-10-31T0100,1224A,120.0633,30.2747,杭州市,西溪,,27,27,34,15,20,24,,,,18,25,7,7,0.5,0.5
2025-10-31T0100,1226A,120.3417,30.3150,杭州市,下沙,,35,24,31,24,23,20,,,,32,44,4,5,0.3,0.2
2025-10-31T0100,1227A,120.1269,30.2456,杭州市,卧龙桥,,20,20,30,12,18,30,,,,11,23,8,9,0.4,0.5
2025-10-31T0100,1228A,120.1903,30.2692,杭州市,浙江农大,,36,25,31,25,23,9,,,,45,46,6,7,0.6,0.6
2025-10-31T0100,1230A,120.1197,30.3119,杭州市,和睦小学,,31,31,35,21,23,28,,,,27,38,7,8,0.5,0.6
2025-10-31T0100,1231A,120.3019,30.4183,杭州市,临平镇,,32,24,43,22,28,44,,,,14,37,5,7,0.3,0.4
2025-10-31T0100,1232A,120.2753,30.1839,杭州市,城厢镇,,46,,42,32,26,40,,,,26,43,6,6,0.4,0.5
2025-10-31T0100,1233A,120.0883,30.1808,杭州市,云栖,,15,14,26,10,18,38,,,,10,24,6,6,0.5,0.5
2025-10-31T0100,3557A,119.9464,30.0494,杭州市,镇二中,,23,18,32,16,25,42,,,,14,31,4,5,0.5,0.6
2025-10-31T0100,3558A,119.7183,30.2367,杭州市,市府大楼,,33,33,46,20,25,42,,,,13,25,8,8,0.4,0.5
2025-10-31T0100,3656A,120.1556,30.2864,杭州市,消防大队,,49,40,43,34,27,23,,,,35,44,8,9,0.4,0.5
2025-10-31T0100,1270A,117.1959,31.7848,合肥市,明珠广场,,49,34,50,34,39,36,,,,22,46,5,6,0.6,0.7
2025-10-31T0100,1271A,117.3072,31.8764,合肥市,三里街,,46,46,47,22,31,28,,,,22,36,5,5,0.6,0.6
2025-10-31T0100,1272A,117.2588,31.8707,合肥市,琥珀山庄,,50,,43,35,40,39,,,,20,34,5,5,0.5,0.7
2025-10-31T0100,1273A,117.1604,31.9052,合肥市,董铺水库,,,,,,,,,,,,,,,,
2025-10-31T0100,1274A,117.25,31.8571,合肥市,长江中路,,45,39,51,31,40,38,,,,18,32,5,5,0.5,0.6
2025-10-31T0100,1275A,117.266,31.9436,合肥市,庐阳区,,44,44,46,27,31,42,,,,18,37,6,7,0.7,0.8
2025-10-31T0100,1276A,117.3453,31.8616,合肥市,瑶海区,,46,46,47,32,34,30,,,,25,40,8,8,0.6,0.6
2025-10-31T0100,1277A,117.3027,31.7964,合肥市,包河区,细颗粒物(PM2.5),70,,45,51,34,15,,,,38,58,7,7,0.6,0.7
2025-10-31T0100,1278A,117.2776,31.7385,合肥市,滨湖新区,,45,39,42,31,36,17,,,,40,42,5,5,0.7,0.7
2025-10-31T0100,1279A,117.1318,31.8403,合肥市,高新区,,46,44,57,32,49,41,,,,19,40,4,5,0.6,0.7
2025-10-31T0100,3464A,117.3803,31.9147,合肥市,高教基地,,39,39,42,25,26,27,,,,15,22,6,7,0.5,0.5
2025-10-31T0100,3614A,79.924,37.0877,和田地区,地区环保局,颗粒物(PM10),164,278,164,120,60,35,,,,53,22,8,12,1.2,0.8
2025-10-31T0100,3615A,79.9131,37.113,和田地区,市环保局,颗粒物(PM10),167,284,165,87,42,18,,,,69,33,19,11,0.6,0.6
2025-10-31T0100,2516A,108.2011,24.715,河池市,东仁乐园,,,,,,,,,,,,,,,,
2025-10-31T0100,2517A,108.0497,24.6947,河池市,市环保站,,42,42,41,24,34,10,,,,21,14,7,8,0.7,0.7
2025-10-31T0100,2518A,108.0983,24.6989,河池市,市疾控中心,,36,35,35,25,30,1,,,,29,16,4,4,0.8,0.8
2025-10-31T0100,1696A,114.6778,23.7569,河源市,源西,,,,,,,,,,,,,,,,
2025-10-31T0100,1697A,114.6944,23.7586,河源市,东埔,,32,23,24,22,22,33,,,,13,15,4,4,0.5,0.6
2025-10-31T0100,1698A,114.6892,23.7233,河源市,老城,,33,26,26,23,21,27,,,,14,12,5,5,0.6,0.6
2025-10-31T0100,1718A,115.4208,35.2464,菏泽市,气象局,细颗粒物(PM2.5),243,267,142,193,96,11,,,,48,33,16,6,0.8,0.6
2025-10-31T0100,3374A,115.5564,35.0891,菏泽市,定陶老年大学,细颗粒物(PM2.5),208,237,119,158,79,14,,,,46,35,10,9,0.9,0.5
2025-10-31T0100,4184A,115.4797,35.24401,菏泽市,永昌路1号,细颗粒物(PM2.5),225,241,131,175,90,13,,,,45,31,5,6,0.8,0.5
2025-10-31T0100,4193A,115.4715,35.2800,菏泽市,长城路999号,细颗粒物(PM2.5),234,248,130,184,88,8,,,,54,38,13,13,1.0,0.7
2025-10-31T0100,2514A,111.5264,24.4172,贺州市,环保小区,细颗粒物(PM2.5),64,,46,46,38,40,,,,10,14,5,4,0.6,0.8
2025-10-31T0100,2515A,111.5608,24.4078,贺州市,政协大楼,细颗粒物(PM2.5),52,45,46,36,35,33,,,,8,13,5,5,0.9,0.8
2025-10-31T0100,3534A,111.4744,24.4553,贺州市,西湾,,49,34,37,34,36,37,,,,8,10,3,3,0.8,0.7
2025-10-31T0100,2385A,114.17,35.9019,鹤壁市,市监测站,细颗粒物(PM2.5),179,189,172,135,142,20,,,,25,31,6,3,1.6,1.4
2025-10-31T0100,2386A,114.2956,35.7511,鹤壁市,市交警支队,细颗粒物(PM2.5),209,207,197,159,148,20,,,,25,37,3,3,1.5,1.2
2025-10-31T0100,2387A,114.2878,35.7306,鹤壁市,迎宾馆,细颗粒物(PM2.5),217,215,212,167,148,19,,,,27,40,2,5,1.4,1.2
2025-10-31T0100,3474A,114.2617,35.6822,鹤壁市,大新区,细颗粒物(PM2.5),193,162,177,145,155,27,,,,19,35,4,4,1.4,1.3
2025-10-31T0100,3596A,114.1572,35.9603,鹤壁市,南山宾馆,细颗粒物(PM2.5),186,183,179,140,142,,,,,29,32,2,4,1.4,1.2
2025-10-31T0100,2244A,130.2537,47.3416,鹤岗市,哈啤分公司,细颗粒物(PM2.5),89,,68,66,65,12,,,,42,15,15,13,0.7,0.6
2025-10-31T0100,2245A,130.2684,47.3086,鹤岗市,斯达机电,,49,44,72,34,55,56,,,,14,18,13,13,0.7,0.7
2025-10-31T0100,2246A,130.3114,47.3388,鹤岗市,东山纸板厂,颗粒物(PM10),55,60,72,31,63,46,,,,21,19,13,13,0.5,0.8
2025-10-31T0100,2247A,130.1097,47.3382,鹤岗市,五号水库,,,,,,,,,,,,,,,,
2025-10-31T0100,2263A,127.4833,50.2524,黑河市,交通局,,18,14,24,12,19,48,,,,6,17,4,4,0.2,0.3
2025-10-31T0100,2264A,127.5144,50.2341,黑河市,环保局,,15,10,22,10,22,45,,,,6,15,5,9,0.3,0.5
2025-10-31T0100,2265A,127.5291,50.2472,黑河市,大黑河岛,,,,,,,,,,,,,,,,
2025-10-31T0100,1074A,115.6838,37.7541,衡水市,电机北厂,细颗粒物(PM2.5),215,182,150,165,133,0,,,,43,48,9,9,1.0,0.8
2025-10-31T0100,1075A,115.6303,37.7316,衡水市,市监测站,细颗粒物(PM2.5),199,151,132,149,126,0,,,,49,49,7,7,1.0,0.8
2025-10-31T0100,3188A,115.6683,37.7217,衡水市,市城管局,细颗粒物(PM2.5),200,157,138,150,119,2,,,,52,54,9,9,1.1,0.9
2025-10-31T0100,3459A,115.5989,37.5491,衡水市,地表水厂,细颗粒物(PM2.5),201,170,137,151,120,0,,,,49,51,6,6,1.0,0.8
2025-10-31T0100,2456A,112.5003,26.9167,衡阳市,原169医院,,,,,,,,,,,,,,,,
2025-10-31T0100,2457A,112.6194,26.9258,衡阳市,衡阳化工总厂,细颗粒物(PM2.5),52,43,76,36,71,38,,,,17,17,7,7,1.0,1
2025-10-31T0100,2458A,112.6211,26.8956,衡阳市,珠晖区环保局,细颗粒物(PM2.5),53,,71,37,65,35,,,,20,24,8,9,1.3,1.3
2025-10-31T0100,2459A,112.6197,26.8733,衡阳市,市委党校,,46,45,72,32,57,44,,,,11,14,3,3,1.0,1
2025-10-31T0100,2460A,112.6006,26.8919,衡阳市,市监测站,,45,45,75,26,58,52,,,,13,18,5,6,1.1,1.1
2025-10-31T0100,2461A,112.5664,26.9056,衡阳市,真空机电公司,,46,34,67,32,60,53,,,,9,17,5,6,1.1,1.1
2025-10-31T0100,3399A,112.6703,26.882,衡阳市,师范学院,细颗粒物(PM2.5),53,,73,37,55,46,,,,14,17,7,9,1.0,1.1
2025-10-31T0100,2608A,103.3772,23.3993,红河哈尼族彝族自治州,污水处理厂,,33,30,24,23,21,60,,,,7,8,3,7,0.4,0.3
2025-10-31T0100,2609A,103.3861,23.35,红河哈尼族彝族自治州,监测站,,,35,28,26,20,55,,,,8,4,,5,,0.3
2025-10-31T0100,3038A,103.3758,23.368,红河哈尼族彝族自治州,州图书馆,,43,30,24,30,26,61,,,,4,5,3,3,0.4,0.4
2025-10-31T0100,1090A,111.6507,40.7517,呼和浩特市,呼市一监,,46,46,32,18,11,11,,,,54,30,5,5,0.5,0.5
2025-10-31T0100,1091A,111.6572,40.8033,呼和浩特市,小召,,33,24,28,13,12,11,,,,65,36,6,7,0.5,0.5
2025-10-31T0100,1094A,111.7516,40.8369,呼和浩特市,如意水处理厂,,29,29,22,8,8,6,,,,58,38,8,9,0.2,0.3
2025-10-31T0100,1095A,111.7276,40.8062,呼和浩特市,二十九中,,31,31,25,10,7,6,,,,61,29,8,8,0.5,0.5
2025-10-31T0100,1096A,111.5512,40.7866,呼和浩特市,工大金川校区,,26,24,31,3,8,16,,,,52,31,5,6,0.2,0.3
2025-10-31T0100,1097A,111.717,40.7612,呼和浩特市,化肥厂生活区,颗粒物(PM10),52,53,28,22,10,5,,,,67,35,5,5,0.5,0.4
2025-10-31T0100,3698A,111.5968,40.8178,呼和浩特市,红旗小学,,33,22,20,6,6,2,,,,65,23,5,4,0.2,0.3
2025-10-31T0100,3699A,111.6518,40.8389,呼和浩特市,海东办,,33,22,22,9,8,2,,,,66,31,5,5,0.1,0.3
2025-10-31T0100,3061A,119.7512,49.1577,呼伦贝尔市,国华电力东,,22,22,21,12,13,35,,,,9,9,7,8,0.2,0.2
2025-10-31T0100,4279A,119.7569,49.2222,呼伦贝尔市,伊敏大街东7号,,20,15,23,14,19,46,,,,2,5,6,5,0.0,0.3
2025-10-31T0100,1250A,120.0751,30.8669,湖州市,城西水厂,,22,19,33,13,17,69,,,,16,34,7,8,0.2,0.4
2025-10-31T0100,2873A,120.0830,30.8929,湖州市,仁皇山新区,,20,15,30,12,20,64,,,,12,33,6,7,0.3,0.4
2025-10-31T0100,2907A,120.1844,30.8596,湖州市,吴兴区站,,20,20,29,12,19,54,,,,18,32,6,7,0.4,0.5
2025-10-31T0100,3562A,120.4148,30.8538,湖州市,南浔区站,,21,19,37,12,15,66,,,,16,36,8,9,0.4,0.4
2025-10-31T0100,1607A,120.9049,40.7211,葫芦岛市,龙港区,颗粒物(PM10),63,76,67,36,37,8,,,,55,37,18,21,1.2,0.9
2025-10-31T0100,1608A,120.8392,40.7514,葫芦岛市,化工街,颗粒物(PM10),56,61,77,36,37,5,,,,53,40,99,20,0.6,0.7
2025-10-31T0100,1609A,120.8341,40.7073,葫芦岛市,新区,颗粒物(PM10),51,51,56,22,30,2,,,,59,41,9,11,0.7,0.9
2025-10-31T0100,1610A,120.8695,40.7677,葫芦岛市,东城区,颗粒物(PM10),61,72,66,23,42,3,,,,51,37,24,13,0.9,1
2025-10-31T0100,2482A,109.5981,27.5721,怀化市,林科所,,,,,,,,,,,,,,,,
2025-10-31T0100,2483A,109.9453,27.5444,怀化市,河西地税局,,48,48,40,30,33,1,,,,26,18,2,3,0.6,0.6
2025-10-31T0100,2484A,109.9781,27.5342,怀化市,市四医院,,32,31,53,22,37,3,,,,13,13,8,8,0.4,0.5
2025-10-31T0100,2485A,109.9972,27.5578,怀化市,监测楼,,33,33,43,20,32,8,,,,14,11,2,3,0.3,0.3
2025-10-31T0100,2486A,110.0394,27.583,怀化市,市委党校,,30,30,43,9,34,0,,,,14,11,7,13,0.3,0.3
2025-10-31T0100,1210A,119.036,33.5981,淮安市,钵池山,,23,,23,12,16,72,,,,12,23,7,7,0.4,0.4
2025-10-31T0100,1211A,119.007,33.575,淮安市,北京南路,,20,,26,12,16,63,,,,8,16,6,8,0.4,0.5
2025-10-31T0100,1212A,118.989,33.6067,淮安市,市监测站,,25,,19,9,12,78,,,,10,20,5,6,0.6,0.7
2025-10-31T0100,1213A,119.135,33.5039,淮安市,楚州区监测站,,20,,21,11,17,64,,,,15,23,7,8,0.2,0.4
2025-10-31T0100,3426A,118.8755,33.2894,淮安市,新华书店,,19,9,26,3,14,59,,,,13,24,6,8,0.4,0.5
2025-10-31T0100,4206A,119.0288,33.6319,淮安市,承德北路606号,,22,,28,14,18,68,,,,10,26,6,7,0.3,0.3
2025-10-31T0100,2282A,116.8004,33.975,淮北市,监测站,细颗粒物(PM2.5),54,53,51,38,31,23,,,,24,29,8,9,0.3,0.3
2025-10-31T0100,2283A,116.8091,33.9007,淮北市,烈山区政府,细颗粒物(PM2.5),78,73,59,57,36,15,,,,37,28,8,9,0.6,0.5
2025-10-31T0100,3330A,116.8873,33.9836,淮北市,杜集区检察院,细颗粒物(PM2.5),95,102,60,71,46,12,,,,35,27,4,5,0.6,0.4
2025-10-31T0100,4017A,116.7923,33.9535,淮北市,市博物馆,细颗粒物(PM2.5),97,78,57,72,44,5,,,,52,35,6,8,0.8,0.6
2025-10-31T0100,2277A,116.8305,32.7727,淮南市,潘集区政府,细颗粒物(PM2.5),64,71,62,46,44,10,,,,41,26,5,5,0.5,0.5
2025-10-31T0100,2279A,116.8569,32.5951,淮南市,谢家集区政府,细颗粒物(PM2.5),58,47,39,41,31,32,,,,27,24,12,8,0.6,0.5
2025-10-31T0100,2280A,116.8281,32.633,淮南市,八公山区政府,颗粒物(PM10),54,57,51,36,36,40,,,,20,22,7,7,0.4,0.5
2025-10-31T0100,2281A,116.6325,32.6201,淮南市,焦岗湖风景区管理处,,,,,,,,,,,,,,,,
2025-10-31T0100,2894A,117.0566,32.6531,淮南市,经济技术开发区消防队,细颗粒物(PM2.5),68,64,42,49,29,18,,,,32,30,10,9,0.4,0.3
2025-10-31T0100,3329A,117.0108,32.5893,淮南市,山南新区,细颗粒物(PM2.5),57,50,40,40,23,32,,,,28,25,4,4,0.3,0.3
2025-10-31T0100,4209A,117.0031,32.6445,淮南市,国庆中路369号,颗粒物(PM10),64,78,53,42,36,11,,,,35,26,11,11,0.5,0.4
2025-10-31T0100,2446A,114.9028,30.4742,黄冈市,职工中心,,40,37,62,28,50,44,,,,16,16,4,5,0.6,0.7
2025-10-31T0100,2929A,114.8858,30.4519,黄冈市,红卫路,,39,36,57,27,50,46,,,,13,16,4,5,0.5,0.7
2025-10-31T0100,3398A,114.9136,30.4445,黄冈市,市林业局,,39,36,58,27,49,46,,,,12,16,3,3,0.6,0.7
2025-10-31T0100,2672A,102.0199,35.5102,黄南藏族自治州,同仁县隆务镇,颗粒物(PM10),63,75,44,28,20,81,,,,1,5,12,11,0.4,0.4
2025-10-31T0100,2295A,118.2903,29.6963,黄山市,延安路89号,,24,24,30,11,15,40,,,,8,13,3,3,0.4,0.4
2025-10-31T0100,2297A,118.1371,30.2756,黄山市,黄山区政府5号楼,,19,19,27,3,20,26,,,,7,8,6,5,0.4,0.4
2025-10-31T0100,4210A,118.3354,29.7203,黄山市,滨江东路7-2号,,26,26,31,13,19,37,,,,8,14,3,3,0.4,0.4
2025-10-31T0100,2423A,115.0601,30.2313,黄石市,沈家营,颗粒物(PM10),52,53,77,27,50,16,,,,6,11,7,8,0.4,0.5
2025-10-31T0100,2426A,114.8988,30.2019,黄石市,铁山,颗粒物(PM10),55,60,75,36,63,9,,,,38,28,5,6,0.5,0.4
2025-10-31T0100,2427A,115.0307,30.2092,黄石市,团城山,,,,73,,48,,,63,,,12,,7,,0.5
2025-10-31T0100,3149A,115.0235,30.1578,黄石市,笔架山北路,颗粒物(PM10),55,60,88,26,47,32,,,,12,13,8,6,0.6,0.6
2025-10-31T0100,4185A,115.0780,30.21118,黄石市,磁湖东路29号,细颗粒物(PM2.5),55,47,74,39,53,48,,,,8,13,8,8,0.7,0.8
2025-10-31T0100,1392A,114.4183,23.0528,惠州市,河南岸金山湖子站,,30,30,33,18,23,29,,,,22,24,10,9,0.7,0.7
2025-10-31T0100,1393A,114.4053,23.0822,惠州市,下埔横江三路子站,,35,34,36,24,23,36,,,,11,14,5,6,0.5,0.5
2025-10-31T0100,1394A,114.4103,23.1142,惠州市,江北云山西路子站,,30,28,31,21,20,33,,,,19,17,6,7,0.5,0.5
2025-10-31T0100,1395A,114.4645,22.7833,惠州市,惠阳区承修路船湖子站,,18,18,41,11,23,40,,,,17,22,8,9,0.6,0.7
2025-10-31T0100,1396A,114.5317,22.7422,惠州市,大亚湾管委会子站,,17,17,32,10,17,48,,,,8,17,10,11,0.4,0.5
2025-10-31T0100,3314A,114.4338,22.8134,惠州市,惠阳秋长,,16,,37,10,25,49,,,,12,19,14,13,0.3,0.4
2025-10-31T0100,3452A,114.6517,22.775,惠州市,大亚湾霞涌,,13,9,29,8,14,41,,,,11,12,6,7,0.5,0.6
2025-10-31T0100,2240A,130.9762,45.3001,鸡西市,环保局,细颗粒物(PM2.5),74,77,43,54,31,8,,,,37,18,7,7,1.2,0.9
2025-10-31T0100,2243A,130.9429,45.3039,鸡西市,第一中学,,32,,32,22,23,46,,,,11,7,6,6,0.6,0.6
2025-10-31T0100,3707A,131.0207,45.3073,鸡西市,欧美日汽修厂,颗粒物(PM10),74,97,56,47,38,12,,,,37,19,12,10,0.9,0.7
2025-10-31T0100,3709A,130.9967,45.3106,鸡西市,市政设施管理处,细颗粒物(PM2.5),84,101,57,62,31,7,,,,41,20,9,9,0.7,0.5
2025-10-31T0100,2367A,114.9754,27.0803,吉安市,红声器材厂,细颗粒物(PM2.5),78,78,79,57,55,33,,,,25,23,12,10,1.1,1
2025-10-31T0100,2368A,114.9658,27.0999,吉安市,市森林工业局,细颗粒物(PM2.5),87,76,78,64,61,31,,,,24,26,12,10,0.8,0.8
2025-10-31T0100,2369A,114.99,27.1312,吉安市,市环境监测站,细颗粒物(PM2.5),99,,75,74,63,21,,,,25,24,10,10,0.9,0.9
2025-10-31T0100,2370A,115.0093,27.0968,吉安市,青原区法院,细颗粒物(PM2.5),82,73,79,60,63,32,,,,23,25,11,10,1.0,0.9
2025-10-31T0100,1772A,126.54,43.8622,吉林市,哈达湾,,38,38,42,24,29,27,,,,24,20,7,8,0.7,0.7
2025-10-31T0100,1773A,126.5844,43.8358,吉林市,东局子,,30,30,39,14,24,37,,,,14,22,6,9,0.5,0.7
2025-10-31T0100,1774A,126.5052,43.8245,吉林市,电力学院,,48,40,43,33,39,5,,,,32,25,7,8,0.8,0.7
2025-10-31T0100,1775A,126.6133,43.8972,吉林市,江北,,29,29,51,18,38,23,,,,28,26,4,6,0.5,0.9
2025-10-31T0100,1776A,126.555,43.8306,吉林市,江南公园,,31,31,37,21,30,16,,,,30,21,5,6,0.5,0.5
2025-10-31T0100,1778A,126.7061,43.7133,吉林市,丰满,,19,15,21,11,22,59,,,,5,9,7,8,0.7,0.7
2025-10-31T0100,2868A,126.4739,43.953,吉林市,九站,,39,39,36,26,28,28,,,,28,26,7,5,0.5,0.4
2025-10-31T0100,1299A,116.9862,36.6114,济南市,科干所,颗粒物(PM10),73,95,65,51,32,5,,,,79,41,9,9,0.8,0.6
2025-10-31T0100,1300A,116.9376,36.665,济南市,农科所,颗粒物(PM10),67,83,73,42,30,0,,,,71,61,7,8,0.8,0.7
2025-10-31T0100,1301A,117.1265,36.6734,济南市,开发区,细颗粒物(PM2.5),95,90,66,71,36,4,,,,74,45,5,5,1.0,0.7
2025-10-31T0100,1303A,117.0624,36.6868,济南市,省种子仓库,细颗粒物(PM2.5),85,90,82,63,37,8,,,,69,62,8,9,0.8,0.9
2025-10-31T0100,1304A,116.9489,36.6447,济南市,机床二厂,细颗粒物(PM2.5),83,90,83,61,44,0,,,,79,58,8,10,0.4,0.4
2025-10-31T0100,1305A,117.0495,36.663,济南市,市监测站,细颗粒物(PM2.5),95,93,72,71,38,0,,,,77,55,4,4,1.0,0.9
2025-10-31T0100,1306A,116.7675,36.5484,济南市,长清党校,颗粒物(PM10),88,125,78,59,34,2,,,,60,43,6,9,0.6,0.5
2025-10-31T0100,1616A,117.6795,36.229,济南市,技术学院,细颗粒物(PM2.5),64,58,48,46,30,10,,,,59,36,12,13,0.7,0.7
2025-10-31T0100,1961A,117.532,36.6868,济南市,东山小学,细颗粒物(PM2.5),113,125,80,85,42,1,,,,68,48,8,9,0.8,0.7
2025-10-31T0100,3059A,117.7161,36.2049,济南市,泰兴公司,细颗粒物(PM2.5),58,63,58,41,29,1,,,,51,40,12,15,0.7,0.7
2025-10-31T0100,3064A,117.6867,36.2171,济南市,莱芜战役纪念馆,细颗粒物(PM2.5),64,53,54,46,35,0,,,,63,38,15,16,0.4,0.4
2025-10-31T0100,3494A,117.1673,36.9782,济南市,济阳区政府,细颗粒物(PM2.5),59,66,69,42,34,23,,,,52,42,6,8,0.6,0.6
2025-10-31T0100,3495A,117.1171,36.63,济南市,锦屏中学,细颗粒物(PM2.5),68,78,58,49,27,13,,,,34,36,4,5,0.9,0.8
2025-10-31T0100,3682A,116.9814,36.6819,济南市,济南四建,细颗粒物(PM2.5),74,75,74,54,38,7,,,,59,61,6,7,0.8,0.9
2025-10-31T0100,1653A,116.6251,35.4302,济宁市,火炬城,细颗粒物(PM2.5),225,,78,175,60,2,,,,57,27,6,8,0.6,0.3
2025-10-31T0100,1655A,116.5491,35.4042,济宁市,电化厂,细颗粒物(PM2.5),199,226,96,149,55,3,,,,65,37,4,5,0.6,0.5
2025-10-31T0100,3500A,116.5814,35.3707,济宁市,北湖一中,细颗粒物(PM2.5),210,,62,160,54,3,,,,57,27,5,7,0.6,0.4
2025-10-31T0100,3501A,116.8249,35.5593,济宁市,服务中心,细颗粒物(PM2.5),124,,63,94,35,1,,,,49,28,7,9,0.6,0.4
2025-10-31T0100,3678A,116.5907,35.4054,济宁市,市第七中学,细颗粒物(PM2.5),199,184,88,149,52,7,,,,59,29,7,9,0.7,0.5
2025-10-31T0100,2255A,130.2751,46.8028,佳木斯市,佳纺,颗粒物(PM10),58,66,86,34,66,45,,,,9,24,4,6,0.4,0.6
2025-10-31T0100,2256A,130.3995,46.8307,佳木斯市,发电厂,,49,46,67,34,62,31,,,,28,19,6,6,0.3,0.4
2025-10-31T0100,2257A,130.3258,46.7975,佳木斯市,环保局,,40,37,71,28,65,48,,,,10,18,4,5,0.4,0.5
2025-10-31T0100,2258A,130.3648,46.8032,佳木斯市,十一中,,42,41,71,29,62,33,,,,20,18,12,8,0.4,0.6
2025-10-31T0100,2259A,130.3794,46.7588,佳木斯市,四丰,,,,,,,,,,,,,,,,
2025-10-31T0100,1252A,120.7436,30.778,嘉兴市,清河小学,,20,19,30,14,15,38,,,,22,37,7,8,0.7,0.7
2025-10-31T0100,1253A,120.726,30.7478,嘉兴市,嘉兴学院,,18,17,31,12,16,43,,,,19,36,4,5,0.4,0.6
2025-10-31T0100,2872A,120.7846,30.7525,嘉兴市,南湖区残联,,20,20,28,13,17,44,,,,19,35,5,6,0.5,0.5
2025-10-31T0100,3407A,120.6916,30.7739,嘉兴市,秀洲住建,,15,14,28,8,14,46,,,,14,39,8,8,0.5,0.5
2025-10-31T0100,1945A,98.2908,39.7711,嘉峪关市,气象局,颗粒物(PM10),73,95,104,34,32,51,,,,36,24,13,18,0.9,0.9
2025-10-31T0100,2884A,98.2672,39.7978,嘉峪关市,酒钢宾馆,颗粒物(PM10),73,95,111,29,37,48,,,,35,18,24,35,0.6,1
2025-10-31T0100,3248A,98.2643,39.7724,嘉峪关市,雄关区,颗粒物(PM10),73,96,93,38,39,40,,,,47,32,10,12,0.4,0.6
2025-10-31T0100,1383A,113.1064,22.6058,江门市,北街,,28,28,64,18,45,39,,,,30,49,5,8,0.5,0.7
2025-10-31T0100,1384A,113.0731,22.5835,江门市,西区,,35,35,64,19,38,35,,,,30,46,5,7,0.3,0.5
2025-10-31T0100,1385A,113.0219,22.5311,江门市,圭峰西,,30,,60,21,45,39,,,,26,40,5,7,0.5,0.6
2025-10-31T0100,1386A,113.0828,22.5947,江门市,东湖,,32,27,62,22,43,35,,,,28,41,6,7,0.4,0.5
2025-10-31T0100,3311A,113.1075,22.5647,江门市,江海富民,,36,36,83,22,41,41,,,,32,45,8,10,0.4,0.7
2025-10-31T0100,3449A,113.05,22.4667,江门市,新会银湖,,32,32,62,18,49,36,,,,25,39,5,7,0.6,0.8
2025-10-31T0100,1830A,113.1992,35.2590,焦作市,影视城,,,,121,,100,,,64,,,24,,10,,0.9
2025-10-31T0100,3335A,113.3137,35.2641,焦作市,马村街道办,细颗粒物(PM2.5),183,172,167,138,131,10,,,,32,31,5,6,1.1,1
2025-10-31T0100,3336A,113.2465,35.2373,焦作市,焦作技师学院,细颗粒物(PM2.5),208,196,175,158,149,7,,,,43,35,5,6,1.5,1.4
2025-10-31T0100,3477A,113.1656,35.2539,焦作市,中站许衡医院,细颗粒物(PM2.5),186,180,160,140,119,14,,,,35,30,7,6,1.4,1
2025-10-31T0100,3981A,113.2449,35.1803,焦作市,原李万街道办,细颗粒物(PM2.5),201,162,179,151,148,2,,,,39,29,9,11,1.3,1.3
2025-10-31T0100,4264A,113.2340,35.2190,焦作市,新安路1731号,细颗粒物(PM2.5),209,190,188,159,151,11,,,,39,30,6,7,1.4,1.3
2025-10-31T0100,4295A,113.2722,35.2121,焦作市,人民路3066号,细颗粒物(PM2.5),179,162,179,135,132,13,,,,39,39,6,7,1.2,1.2
2025-10-31T0100,1708A,116.3701,23.5345,揭阳市,新兴,,38,34,46,26,27,30,,,,23,23,9,9,0.6,0.7
2025-10-31T0100,1709A,116.3264,23.5443,揭阳市,西马,颗粒物(PM10),52,53,56,31,26,17,,,,28,22,7,6,0.6,0.9
2025-10-31T0100,1710A,116.3611,23.5626,揭阳市,东兴,,29,29,49,19,24,29,,,,22,23,6,7,0.6,0.6
2025-10-31T0100,1711A,116.4151,23.5294,揭阳市,渔湖,,34,34,48,12,20,15,,,,36,25,7,8,0.7,0.6
2025-10-31T0100,3320A,116.403,23.5699,揭阳市,曲溪,颗粒物(PM10),55,60,42,25,21,16,,,,31,22,3,4,0.7,0.5
2025-10-31T0100,1944A,102.1692,38.5167,金昌市,天庆家园,颗粒物(PM10),67,83,89,31,30,28,,,,37,20,10,6,0.9,0.6
2025-10-31T0100,4022A,102.1647,38.5371,金昌市,金川区人防中心,细颗粒物(PM2.5),137,,81,104,70,32,,,,16,16,7,6,1.1,0.6
2025-10-31T0100,4239A,102.1930,38.5319,金昌市,长春路96号,颗粒物(PM10),70,89,78,34,28,52,,,,20,16,9,8,0.6,0.6
2025-10-31T0100,1262A,119.647,29.077,金华市,十五中,,48,41,43,33,26,0,,,,53,56,5,5,0.8,0.7
2025-10-31T0100,1263A,119.686,29.1029,金华市,监测站,,33,33,42,21,22,0,,,,48,52,3,3,0.6,0.5
2025-10-31T0100,3659A,119.656,29.1131,金华市,气象局,,46,32,34,32,26,0,,,,50,52,4,5,0.9,0.6
2025-10-31T0100,1767A,121.1115,41.0879,锦州市,南山,细颗粒物(PM2.5),95,104,49,71,34,3,,,,52,27,8,10,1.6,0.8
2025-10-31T0100,1768A,121.0604,40.8428,锦州市,开发区,细颗粒物(PM2.5),69,86,57,50,36,15,,,,45,36,123,20,1.3,0.8
2025-10-31T0100,1769A,121.1836,41.1119,锦州市,百股街道,,45,44,48,31,30,22,,,,28,26,11,11,0.7,0.8
2025-10-31T0100,1770A,121.1178,41.1222,锦州市,天安街道,细颗粒物(PM2.5),79,100,47,58,29,3,,,,60,26,11,10,1.3,0.9
2025-10-31T0100,1771A,121.1303,41.1386,锦州市,北湖公园,颗粒物(PM10),52,54,44,19,23,30,,,,25,23,10,9,0.6,0.7
2025-10-31T0100,2160A,112.85,35.5051,晋城市,自来水公司,细颗粒物(PM2.5),213,223,154,163,113,45,,,,21,26,4,6,1.2,1.3
2025-10-31T0100,2161A,112.8318,35.4936,晋城市,白云商贸,细颗粒物(PM2.5),199,202,160,149,104,39,,,,20,26,2,4,0.9,1.2
2025-10-31T0100,2162A,112.8508,35.4887,晋城市,市环保局,细颗粒物(PM2.5),180,193,152,136,95,46,,,,11,16,4,5,1.5,1.6
2025-10-31T0100,2163A,112.8676,35.4897,晋城市,技术学院,细颗粒物(PM2.5),192,222,144,144,98,37,,,,25,28,4,6,1.3,1.3
2025-10-31T0100,2165A,112.8453,35.546,晋城市,白马寺,细颗粒物(PM2.5),166,158,126,126,100,51,,,,15,17,7,10,1.3,1.7
2025-10-31T0100,3620A,112.8271,35.4828,晋城市,泽州一中,细颗粒物(PM2.5),216,238,173,166,117,49,,,,19,25,2,4,1.3,1.3
2025-10-31T0100,2173A,112.7249,37.7067,晋中市,南都小区,细颗粒物(PM2.5),93,116,109,69,72,27,,,,48,33,6,8,0.8,1
2025-10-31T0100,2174A,112.6991,37.6982,晋中市,榆次区政府,细颗粒物(PM2.5),129,102,111,98,91,24,,,,49,36,7,8,0.9,1.2
2025-10-31T0100,2865A,112.7195,37.6828,晋中市,榆次三中,细颗粒物(PM2.5),117,119,112,88,76,29,,,,34,32,9,10,0.5,0.6
2025-10-31T0100,4200A,112.7478,37.6954,晋中市,迎宾街26号,细颗粒物(PM2.5),122,117,102,92,78,15,,,,51,27,6,7,0.7,0.8
2025-10-31T0100,2439A,112.2014,31.0481,荆门市,竹园小学,细颗粒物(PM2.5),107,145,114,80,92,25,,,,20,22,2,2,0.8,0.9
2025-10-31T0100,2440A,112.1969,30.9891,荆门市,掇刀,细颗粒物(PM2.5),125,,114,95,97,24,,,,30,24,2,1,0.8,0.7
2025-10-31T0100,2441A,112.2213,31.0386,荆门市,石化一小,细颗粒物(PM2.5),127,106,112,96,97,2,,,,45,28,6,3,0.5,0.7
2025-10-31T0100,3012A,112.1849,31.0362,荆门市,西山林语,细颗粒物(PM2.5),84,85,105,62,85,27,,,,10,15,3,3,0.5,0.7
2025-10-31T0100,3547A,112.1632,31.0138,荆门市,龙泉中学南校,细颗粒物(PM2.5),59,46,68,42,54,60,,,,24,20,4,5,0.2,0.4
2025-10-31T0100,1844A,112.2494,30.3197,荆州市,市图书馆,,,80,76,63,60,,,,,65,30,6,6,1.3,0.8
2025-10-31T0100,1845A,112.2008,30.3544,荆州市,市委党校,,,92,91,63,61,,,,,46,27,7,7,1.1,1
2025-10-31T0100,3194A,112.2747,30.3122,荆州市,管委会,,,85,82,64,63,,,,,59,30,5,5,1.1,1
2025-10-31T0100,4268A,112.1722,30.3366,荆州市,学苑路85号,细颗粒物(PM2.5),104,,76,78,85,,,,,35,25,5,8,0.7,0.6
2025-10-31T0100,2342A,117.3102,29.3867,景德镇市,王港中学,,,,,,,,,,,,,,,,
2025-10-31T0100,2343A,117.2117,29.2933,景德镇市,老干部活动中心,,43,,20,30,19,37,,,,5,8,4,3,0.7,0.5
2025-10-31T0100,2344A,117.1894,29.2789,景德镇市,兽医站,,42,40,29,29,15,38,,,,11,13,5,6,0.5,0.3
2025-10-31T0100,2346A,117.2461,29.2956,景德镇市,陶研所,细颗粒物(PM2.5),55,,20,39,20,34,,,,9,7,6,6,0.9,0.7
2025-10-31T0100,4289A,117.1542,29.2566,景德镇市,青少年活动中心,,40,40,26,25,17,39,,,,10,13,3,3,0.8,0.6
2025-10-31T0100,1803A,115.9872,29.6815,九江市,十里,细颗粒物(PM2.5),83,71,112,61,102,52,,,,21,31,4,4,0.9,1.1
2025-10-31T0100,1804A,115.9584,29.7046,九江市,茅山头,细颗粒物(PM2.5),79,58,106,58,96,46,,,,20,26,6,7,0.7,0.9
2025-10-31T0100,1805A,115.9877,29.7295,九江市,西园,细颗粒物(PM2.5),65,60,102,47,90,59,,,,29,44,21,11,0.7,0.9
2025-10-31T0100,1808A,115.9114,29.6038,九江市,综合工业园,细颗粒物(PM2.5),83,76,106,61,94,25,,,,46,43,2,2,0.9,0.8
2025-10-31T0100,1809A,116.0721,29.7535,九江市,石化总厂,细颗粒物(PM2.5),59,61,112,42,95,42,,,,27,35,5,5,0.7,0.9
2025-10-31T0100,1810A,115.9773,29.5698,九江市,庐山气象台,,,,,,,,,,,,,,,,
2025-10-31T0100,3190A,116.0254,29.6994,九江市,外国语学校,细颗粒物(PM2.5),70,55,103,51,95,54,,,,29,42,6,6,0.8,1
2025-10-31T0100,4253A,116.0102,29.6594,九江市,莲花大道8号,细颗粒物(PM2.5),108,,113,81,117,41,,,,16,22,7,7,0.9,0.9
2025-10-31T0100,4240A,98.4958,39.7339,酒泉市,玉门东路5号,颗粒物(PM10),86,122,123,39,36,47,,,,29,22,12,16,0.5,0.5
2025-10-31T0100,4241A,98.5099,39.7506,酒泉市,北大街108号,颗粒物(PM10),97,144,120,42,39,39,,,,30,22,10,14,0.5,0.6
2025-10-31T0100,2698A,76.0072,39.4467,喀什地区,巡警大队,颗粒物(PM10),213,359,205,124,64,3,,,,89,53,11,7,2.3,1.1
2025-10-31T0100,2699A,75.9755,39.4694,喀什地区,吾办,颗粒物(PM10),173,295,190,125,71,3,,,,78,48,5,3,1.8,1.1
2025-10-31T0100,4027A,75.9483,39.4689,喀什地区,老干局,颗粒物(PM10),209,356,195,123,58,3,,,,85,57,5,3,2.9,1.1
2025-10-31T0100,1824A,114.3389,34.7781,开封市,肿瘤医院,细颗粒物(PM2.5),205,205,140,155,91,24,,,,43,36,7,7,1.1,0.9
2025-10-31T0100,1826A,114.2885,34.7965,开封市,世纪星幼儿园,细颗粒物(PM2.5),227,203,132,177,110,25,,,,37,32,7,8,1.0,0.9
2025-10-31T0100,3147A,114.3438,34.8106,开封市,龙亭公园,细颗粒物(PM2.5),217,217,140,167,107,18,,,,42,33,8,9,1.1,1
2025-10-31T0100,3210A,114.3644,34.7964,开封市,汴京公园,细颗粒物(PM2.5),204,221,146,154,94,20,,,,44,38,8,8,0.9,0.8
2025-10-31T0100,3473A,114.2485,34.8306,开封市,技师学院,细颗粒物(PM2.5),225,204,142,175,117,20,,,,39,29,9,9,1.1,0.9
2025-10-31T0100,3592A,114.4644,34.7556,开封市,祥符区生态环境局,细颗粒物(PM2.5),152,226,136,116,67,22,,,,43,48,7,6,1.0,0.8
2025-10-31T0100,1951A,84.895,45.6094,克拉玛依市,长征新村,,28,28,29,14,13,38,,,,18,15,2,2,0.2,0.3
2025-10-31T0100,1952A,84.8988,45.5893,克拉玛依市,南林小区,颗粒物(PM10),54,58,37,18,12,12,,,,37,13,3,3,0.8,0.5
2025-10-31T0100,1954A,84.905,44.3396,克拉玛依市,独山子区,颗粒物(PM10),58,65,126,36,51,46,,,,15,29,5,7,0.3,0.6
2025-10-31T0100,1955A,85.6979,46.098,克拉玛依市,乌尔禾区商贸楼,,43,43,33,18,14,18,,,,37,24,5,5,0.3,0.3
2025-10-31T0100,3612A,85.1045,45.6899,克拉玛依市,白碱滩区新站,,42,42,38,20,15,64,,,,2,3,5,5,0.2,0.2
2025-10-31T0100,2697A,76.1454,39.7142,克孜勒苏柯尔克孜自治州,市人民政府,颗粒物(PM10),94,137,112,59,42,45,,,,26,17,8,7,0.3,0.2
2025-10-31T0100,3665A,76.1658,39.7157,克孜勒苏柯尔克孜自治州,克州文化中心,颗粒物(PM10),102,153,121,54,42,49,,,,36,20,8,9,0.3,0.4
2025-10-31T0100,1450A,102.8204,24.8886,昆明市,呈贡新区,细颗粒物(PM2.5),78,,29,57,38,10,,,,28,21,6,5,1.0,0.8
2025-10-31T0100,1451A,102.6251,24.9608,昆明市,西山森林公园,,,,,,,,,,,,,,,,
2025-10-31T0100,1452A,102.7252,25.0902,昆明市,龙泉镇,,32,29,33,22,18,18,,,,16,19,2,2,0.6,0.5
2025-10-31T0100,1453A,102.7266,25.0375,昆明市,东风东路,颗粒物(PM10),51,51,38,24,19,7,,,,27,17,2,2,0.6,0.5
2025-10-31T0100,1454A,102.6742,25.0669,昆明市,金鼎山,,33,26,30,23,17,12,,,,21,13,1,2,0.5,0.4
2025-10-31T0100,1455A,102.6644,25.0401,昆明市,碧鸡广场,颗粒物(PM10),51,52,34,30,19,4,,,,34,19,8,8,0.6,0.5
2025-10-31T0100,3179A,102.7494,25.0119,昆明市,官渡区博物馆,,41,41,32,20,14,2,,,,40,24,3,2,0.7,0.5
2025-10-31T0100,3375A,102.8017,24.8336,昆明市,青年创业园,细颗粒物(PM2.5),53,54,31,37,22,1,,,,30,14,2,2,0.8,0.7
2025-10-31T0100,3550A,102.7997,24.9786,昆明市,昆明学院,颗粒物(PM10),56,62,45,32,25,1,,,,35,25,9,9,0.9,0.7
2025-10-31T0100,3551A,102.5967,24.6736,昆明市,晋宁区生态环境分局,颗粒物(PM10),54,58,28,36,17,16,,,,28,13,2,2,0.5,0.4
2025-10-31T0100,3552A,102.6678,24.9856,昆明市,云天化总部,颗粒物(PM10),51,51,30,32,19,2,,,,42,20,5,5,0.7,0.6
2025-10-31T0100,1456A,91.1319,29.6514,拉萨市,八廓街,,19,7,15,3,9,60,,,,9,14,5,5,0.3,0.3
2025-10-31T0100,1457A,91.1221,29.6747,拉萨市,市环保局,,18,6,16,3,8,55,,,,9,14,6,7,0.1,0.2
2025-10-31T0100,1458A,91.0874,29.6475,拉萨市,区监测站,,18,7,13,3,7,55,,,,17,25,3,4,0.2,0.3
2025-10-31T0100,1459A,91.1774,29.6541,拉萨市,西藏大学,,20,,14,6,8,64,,,,10,19,5,5,0.2,0.5
2025-10-31T0100,1460A,90.9798,29.6588,拉萨市,区辐射站,,14,6,20,3,11,44,,,,12,30,5,6,0.3,0.4
2025-10-31T0100,1461A,91.0834,29.6292,拉萨市,拉萨火车站,,14,,17,6,8,42,,,,18,16,5,5,0.4,0.3
2025-10-31T0100,2520A,109.2203,23.7256,来宾市,来宾技工学校,细颗粒物(PM2.5),52,45,53,36,48,50,,,,9,10,9,8,0.5,1
2025-10-31T0100,3535A,109.1781,23.7297,来宾市,兴宾区政府,细颗粒物(PM2.5),53,49,52,37,42,36,,,,8,10,8,8,0.8,0.8
2025-10-31T0100,4002A,109.2416,23.7461,来宾市,中南小学,颗粒物(PM10),55,60,55,33,47,47,,,,11,11,7,6,1.0,0.9
2025-10-31T0100,1477A,104.1373,35.9454,兰州市,榆中兰大校区,,,,,,,,,,,,,,,,
2025-10-31T0100,1479A,103.831,36.0464,兰州市,铁路设计院,,,,,,,,,,,,,,,,
2025-10-31T0100,3241A,103.7439,36.0842,兰州市,百合公园,颗粒物(PM10),59,68,73,39,36,16,,,,56,46,2,7,0.7,0.8
2025-10-31T0100,3242A,103.9611,35.998,兰州市,和平,颗粒物(PM10),61,72,80,32,34,46,,,,28,27,7,11,0.5,0.7
2025-10-31T0100,4236A,103.6293,36.0938,兰州市,庄浪东路808号,"颗粒物(PM10),细颗粒物(PM2.5)",58,66,90,41,43,46,,,,38,55,7,15,0.4,0.7
2025-10-31T0100,4237A,103.7251,36.1043,兰州市,安宁西路88号,颗粒物(PM10),68,86,91,43,44,16,,,,69,46,3,8,0.7,0.6
2025-10-31T0100,4238A,103.8470,36.0676,兰州市,北滨河东路1号,颗粒物(PM10),68,85,85,31,38,4,,,,76,57,7,16,0.6,0.9
2025-10-31T0100,3245A,103.6633,36.533,兰州新区,新区管委会,,49,49,61,31,33,75,,,,11,13,12,10,0.3,0.4
2025-10-31T0100,3246A,103.6975,36.4789,兰州新区,舟曲中学,颗粒物(PM10),52,54,76,17,29,92,,,,9,19,4,9,0.3,0.4
2025-10-31T0100,1067A,116.6708,39.5111,廊坊市,药材公司,,34,34,138,15,119,27,,,,25,42,2,2,0.5,1
2025-10-31T0100,1068A,116.7214,39.5589,廊坊市,开发区,,25,25,130,16,107,23,,,,26,40,1,1,0.4,0.8
2025-10-31T0100,1070A,116.7244,39.5269,廊坊市,北华航天学院,,27,27,167,16,115,22,,,,29,42,3,3,0.4,0.8
2025-10-31T0100,2919A,116.7022,39.5453,廊坊市,河北工业大学,,26,,138,18,109,17,,,,26,36,2,3,0.4,0.8
2025-10-31T0100,2535A,103.7723,29.5462,乐山市,花湖湾,,,,,,,,,,,,,,,,
2025-10-31T0100,2536A,103.7627,29.5844,乐山市,牛耳桥,,42,33,28,29,24,22,,,,24,21,7,7,0.7,0.7
2025-10-31T0100,2537A,103.7508,29.6006,乐山市,市第三水厂,,40,34,29,28,22,23,,,,22,18,5,5,0.8,0.7
2025-10-31T0100,2538A,103.7571,29.5664,乐山市,市监测站,,35,29,27,24,22,25,,,,15,14,6,6,0.7,0.7
2025-10-31T0100,3361A,103.7311,29.5628,乐山市,理工大学,,35,24,28,24,22,30,,,,16,15,7,8,0.5,0.6
2025-10-31T0100,2598A,100.2143,26.8576,丽江市,西南郊,,16,16,15,9,7,47,,,,5,7,5,6,0.8,0.7
2025-10-31T0100,2599A,100.2497,26.8802,丽江市,丽江古城,,18,18,20,10,9,42,,,,10,13,9,9,0.6,0.6
2025-10-31T0100,2600A,100.2203,26.8906,丽江市,市中心,,22,16,16,15,13,38,,,,12,15,11,10,0.4,0.4
2025-10-31T0100,1267A,119.914,28.4514,丽水市,监测站大楼,,15,15,16,9,9,19,,,,16,23,4,4,0.3,0.4
2025-10-31T0100,1268A,119.93,28.4586,丽水市,莲都小学,,25,25,19,11,8,15,,,,21,24,4,4,0.3,0.3
2025-10-31T0100,1269A,119.879,28.4231,丽水市,余庄前,,25,25,18,14,9,4,,,,24,22,2,3,0.4,0.4
2025-10-31T0100,1173A,119.176,34.5885,连云港市,市环境监测站,,20,19,22,14,11,46,,,,13,17,5,6,0.4,0.4
2025-10-31T0100,3000A,119.3581,34.6972,连云港市,德源药业,,24,24,22,12,10,37,,,,24,24,4,5,0.3,0.4
2025-10-31T0100,3007A,119.178,34.844,连云港市,新城一中,,34,34,31,15,11,61,,,,14,46,5,6,0.4,0.5
2025-10-31T0100,3008A,119.3608,34.7519,连云港市,胡沟管理处,,16,9,13,7,5,50,,,,28,22,9,10,0.2,0.3
2025-10-31T0100,3009A,119.1478,34.5911,连云港市,矿山设计院,,19,19,25,12,14,36,,,,13,13,3,4,0.5,0.5
2025-10-31T0100,3434A,119.2413,34.6539,连云港市,工贸学校,,20,14,19,9,10,63,,,,6,9,8,9,0.5,0.6
2025-10-31T0100,3664A,119.4172,34.7341,连云港市,连云街道,,28,6,20,3,9,89,,,,6,13,4,5,0.2,0.4
2025-10-31T0100,2571A,102.3431,27.8099,凉山彝族自治州,青龙寺,,,,,,,,,,,,,,,,
2025-10-31T0100,2572A,102.2721,27.8415,凉山彝族自治州,邛海宾馆,,15,11,20,6,11,45,,,,10,10,15,10,0.7,0.6
2025-10-31T0100,2573A,102.2625,27.898,凉山彝族自治州,西昌市政府,,14,14,15,8,9,38,,,,7,9,6,6,0.5,0.6
2025-10-31T0100,2574A,102.2685,27.8851,凉山彝族自治州,凉山州政府,,,15,14,,13,39,,,,5,5,7,8,0.6,0.6
2025-10-31T0100,4229A,102.2342,27.8859,凉山彝族自治州,凯乐南路30号,,16,15,19,3,10,49,,,,7,19,8,10,0.7,0.7
2025-10-31T0100,2212A,123.2,41.1953,辽阳市,宏伟区,颗粒物(PM10),55,59,51,25,30,12,,,,38,27,10,17,0.7,0.6
2025-10-31T0100,2213A,123.1683,41.2495,辽阳市,新华园,细颗粒物(PM2.5),54,54,46,38,28,11,,,,46,28,14,12,0.7,0.5
2025-10-31T0100,2214A,123.2354,41.2639,辽阳市,滨河路,颗粒物(PM10),73,95,67,46,32,2,,,,49,32,12,14,1.1,0.7
2025-10-31T0100,2215A,123.149,41.2991,辽阳市,铁西工业园,细颗粒物(PM2.5),77,82,63,56,37,0,,,,55,33,12,11,1.0,0.8
2025-10-31T0100,2227A,125.1358,42.8845,辽源市,环保局,颗粒物(PM10),68,86,68,34,20,4,,,,22,18,3,4,0.4,0.3
2025-10-31T0100,3239A,125.0764,42.9078,辽源市,银鹰制药,细颗粒物(PM2.5),64,66,38,46,21,11,,,,36,22,5,6,0.7,0.5
2025-10-31T0100,1625A,115.9848,36.4372,聊城市,区政府,细颗粒物(PM2.5),175,206,129,132,75,6,,,,57,45,9,10,1.0,0.8
2025-10-31T0100,2878A,116.0072,36.4343,聊城市,聊大东校,细颗粒物(PM2.5),172,212,126,130,74,7,,,,57,44,7,9,1.0,0.7
2025-10-31T0100,3200A,115.9819,36.4978,聊城市,监控中心,细颗粒物(PM2.5),188,194,126,141,81,8,,,,47,39,9,10,1.2,0.8
2025-10-31T0100,3513A,116.0445,36.4361,聊城市,九州社区,细颗粒物(PM2.5),149,176,119,114,66,6,,,,45,33,1,3,0.8,0.6
2025-10-31T0100,4018A,116.0567,36.4608,聊城市,星美广场,细颗粒物(PM2.5),155,195,127,118,66,11,,,,68,38,3,5,1.0,0.7
2025-10-31T0100,2632A,94.3681,29.6376,林芝市,林芝监测站,,12,8,7,3,5,37,,,,5,5,5,4,0.4,0.4
2025-10-31T0100,2633A,94.3616,29.6616,林芝市,林芝人民医院,,15,6,11,3,7,45,,,,4,7,5,5,0.5,0.5
2025-10-31T0100,2603A,100.0781,23.8982,临沧市,市环保局,,49,,23,34,26,9,,,,12,7,4,5,0.8,0.7
2025-10-31T0100,2604A,100.0894,23.8822,临沧市,市气象局,,35,27,23,24,23,16,,,,8,8,7,7,0.7,0.6
2025-10-31T0100,1733A,111.5531,36.0783,临汾市,临钢医院,细颗粒物(PM2.5),113,146,154,85,93,3,,,,28,31,7,7,1.7,1.5
2025-10-31T0100,1734A,111.5028,36.0714,临汾市,技工学校,细颗粒物(PM2.5),132,168,160,100,104,0,,,,44,40,8,10,1.3,1.2
2025-10-31T0100,1736A,111.5018,36.0855,临汾市,市委,细颗粒物(PM2.5),129,166,161,98,107,0,,,,37,36,5,8,1.5,1.3
2025-10-31T0100,3018A,111.505,36.1014,临汾市,唐尧大酒店,细颗粒物(PM2.5),133,154,149,101,101,1,,,,37,31,5,5,1.6,1.4
2025-10-31T0100,4244A,111.4879,36.0530,临汾市,启星学校,细颗粒物(PM2.5),113,135,145,85,98,0,,,,36,39,6,8,1.6,1.4
2025-10-31T0100,4271A,103.2464,35.6123,临夏回族自治州,滨河东路1号,细颗粒物(PM2.5),117,164,119,88,64,4,,,,45,33,7,8,1.1,0.8
2025-10-31T0100,4310A,103.2093,35.5995,临夏回族自治州,新华街21号,细颗粒物(PM2.5),129,178,116,98,68,18,,,,43,29,9,10,0.9,0.9
2025-10-31T0100,1618A,118.3429,35.0532,临沂市,沂河小区,,50,48,50,35,29,43,,,,27,29,14,9,0.3,0.4
2025-10-31T0100,1619A,118.295,35.0583,临沂市,鲁南制药厂,细颗粒物(PM2.5),80,73,46,59,30,33,,,,34,29,18,11,0.7,0.6
2025-10-31T0100,1620A,118.2794,34.9976,临沂市,新光毛纺厂,细颗粒物(PM2.5),83,88,46,61,34,23,,,,45,34,21,13,0.5,0.4
2025-10-31T0100,1621A,118.3956,35.0888,临沂市,河东保险公司,颗粒物(PM10),68,85,59,47,29,8,,,,99,41,7,7,0.8,0.6
2025-10-31T0100,3370A,118.3564,35.0215,临沂市,十里堡居委,,46,46,43,27,23,39,,,,27,33,15,10,0.4,0.5
2025-10-31T0100,3496A,118.3604,35.1084,临沂市,南坊新区,细颗粒物(PM2.5),52,51,46,36,25,41,,,,33,34,9,9,0.7,0.7
2025-10-31T0100,3860A,118.3920,35.0300,临沂市,皇山花园小区,,44,44,46,20,23,46,,,,25,28,13,11,0.6,0.6
2025-10-31T0100,1870A,109.4856,24.3895,柳州市,柳东小学,,50,48,49,35,42,60,,,,7,12,5,6,0.6,0.6
2025-10-31T0100,1871A,109.4157,24.3277,柳州市,环保监测站,,50,50,53,26,28,61,,,,5,14,7,9,0.7,0.8
2025-10-31T0100,1872A,109.389,24.341,柳州市,河西水厂,,46,,62,32,43,55,,,,16,16,10,7,1.1,0.6
2025-10-31T0100,1873A,109.4311,24.2921,柳州市,市四中,,35,31,56,24,37,56,,,,8,18,7,9,0.6,0.7
2025-10-31T0100,1874A,109.4006,24.3631,柳州市,市九中,,48,,47,33,44,59,,,,9,16,3,4,0.6,0.6
2025-10-31T0100,1875A,109.4958,24.3134,柳州市,古亭山,,38,38,51,25,36,42,,,,8,16,6,8,0.7,0.7
2025-10-31T0100,3402A,109.5422,24.3996,柳州市,市二中,,35,34,46,24,38,50,,,,11,17,7,7,0.6,0.6
2025-10-31T0100,2307A,116.5079,31.737,六安市,监测大楼,细颗粒物(PM2.5),87,,65,64,75,39,,,,17,25,3,3,0.4,0.5
2025-10-31T0100,2308A,116.4738,31.7643,六安市,皖西学院,细颗粒物(PM2.5),88,65,73,65,76,30,,,,16,24,2,2,0.4,0.5
2025-10-31T0100,2309A,116.4996,31.7905,六安市,朝阳厂,细颗粒物(PM2.5),83,,60,61,66,32,,,,22,31,4,4,0.4,0.5
2025-10-31T0100,2310A,116.5567,31.7886,六安市,开发区,"颗粒物(PM10),细颗粒物(PM2.5)",59,67,67,42,52,33,,,,18,34,1,2,0.5,0.5
2025-10-31T0100,2576A,104.8,26.5892,六盘水市,窑上,,28,20,24,19,12,23,,,,8,6,2,2,0.7,0.6
2025-10-31T0100,2577A,104.83,26.5917,六盘水市,黄土坡,,30,25,19,21,9,38,,,,11,17,2,8,0.8,0.9
2025-10-31T0100,2578A,104.89,26.5939,六盘水市,水钢,,22,22,26,15,11,42,,,,7,17,6,11,0.7,1.1
2025-10-31T0100,2579A,104.8475,26.5894,六盘水市,民中,,25,22,21,17,11,39,,,,9,17,3,7,0.7,0.8
2025-10-31T0100,2580A,104.9544,26.5506,六盘水市,双水,,22,22,23,10,10,48,,,,6,13,3,6,0.5,0.6
2025-10-31T0100,2335A,117.0189,25.1181,龙岩市,龙岩师专,,,,,,,,,,,,,,,,
2025-10-31T0100,2336A,117.0217,25.1033,龙岩市,龙岩市监测站,,35,26,22,24,16,12,,,,33,18,7,10,0.4,0.4
2025-10-31T0100,2337A,117.0258,25.0661,龙岩市,闽西职业技术学院,,44,44,24,20,14,6,,,,29,14,8,8,0.4,0.4
2025-10-31T0100,2338A,117.0196,25.0306,龙岩市,龙岩学院,,23,23,19,15,13,16,,,,19,11,6,6,0.4,0.4
2025-10-31T0100,2665A,105.0822,33.3261,陇南市,汉王镇固水子,,,,,,,,,,,,,,,,
2025-10-31T0100,2885A,104.9339,33.3826,陇南市,滨江中学,颗粒物(PM10),54,58,55,34,29,8,,,,27,21,8,7,0.8,0.8
2025-10-31T0100,3247A,104.955,33.371,陇南市,市总工会,,49,49,45,21,22,13,,,,25,14,7,8,0.5,0.5
2025-10-31T0100,2487A,111.9589,27.8901,娄底市,电视发射台,,,,,,,,,,,,,,,,
2025-10-31T0100,2488A,111.9975,27.725,娄底市,市监测站,,43,43,50,24,37,30,,,,30,19,9,8,0.6,0.5
2025-10-31T0100,2489A,112.0194,27.7314,娄底市,市委党校,,46,40,47,32,41,29,,,,16,14,3,3,0.8,0.8
2025-10-31T0100,2490A,111.9561,27.7569,娄底市,涟钢,,43,30,51,30,40,26,,,,10,19,9,8,0.3,0.8
2025-10-31T0100,2491A,111.9892,27.7044,娄底市,市政府,,45,40,48,31,42,31,,,,11,13,7,7,0.9,0.9
2025-10-31T0100,1893A,105.4324,28.9634,泸州市,九狮山,,,,,,,,,,,,,,,,
2025-10-31T0100,1894A,105.4427,28.9063,泸州市,小市上码头,,41,41,28,28,20,27,,,,13,14,9,8,0.4,0.5
2025-10-31T0100,1895A,105.4241,28.8573,泸州市,兰田宪桥,,,42,31,24,20,,,,,15,12,6,5,0.5,0.5
2025-10-31T0100,1896A,105.4379,28.8833,泸州市,市环监站,,42,42,34,26,20,25,,,,20,18,9,9,0.5,0.5
2025-10-31T0100,4272A,105.3689,28.7783,泸州市,纳溪中医医院,,40,39,28,28,22,24,,,,23,19,6,6,0.6,0.6
2025-10-31T0100,2183A,111.1406,37.5211,吕梁市,环保局,颗粒物(PM10),70,90,84,36,32,2,,,,54,45,4,6,0.5,0.9
2025-10-31T0100,2185A,111.1297,37.5136,吕梁市,自来水公司,颗粒物(PM10),96,141,96,31,31,2,,,,49,35,2,5,0.6,0.8
2025-10-31T0100,2867A,111.1283,37.51,吕梁市,马茂庄小学,颗粒物(PM10),77,103,100,27,32,0,,,,54,45,2,6,0.5,0.9
2025-10-31T0100,1812A,112.3931,34.6516,洛阳市,市委党校,细颗粒物(PM2.5),192,206,143,144,107,24,,,,36,34,7,7,1.2,1.1
2025-10-31T0100,1815A,112.494,34.6886,洛阳市,河南林校,细颗粒物(PM2.5),212,190,142,162,128,20,,,,31,31,8,8,1.1,0.9
2025-10-31T0100,1816A,112.3844,34.623,洛阳市,开发区管委会,细颗粒物(PM2.5),215,233,152,165,114,19,,,,28,27,6,8,1.2,1
2025-10-31T0100,1817A,112.4267,34.6258,洛阳市,市委新办公区,细颗粒物(PM2.5),178,233,157,134,98,25,,,,32,31,7,7,1.1,1
2025-10-31T0100,3340A,112.6005,34.6326,洛阳市,伊滨,细颗粒物(PM2.5),202,181,120,152,125,13,,,,37,34,7,6,1.0,0.8
2025-10-31T0100,3341A,112.4951,34.6332,洛阳市,中移产业园,细颗粒物(PM2.5),204,237,166,154,114,22,,,,36,34,7,7,1.2,1.1
2025-10-31T0100,3593A,112.5736,34.8993,洛阳市,吉利监测站,细颗粒物(PM2.5),196,169,139,147,126,8,,,,39,31,8,8,1.1,1
2025-10-31T0100,3635A,112.3677,34.662,洛阳市,河科大西苑校区,细颗粒物(PM2.5),201,218,148,151,109,23,,,,38,35,7,8,1.2,1.1
2025-10-31T0100,3636A,112.4388,34.6781,洛阳市,英才小学,颗粒物(PM10),153,255,197,87,71,20,,,,35,36,7,7,1.3,1.2
2025-10-31T0100,4214A,112.4600,34.6949,洛阳市,春都路1号院,细颗粒物(PM2.5),170,144,130,129,103,13,,,,26,34,7,7,1.3,1.2
2025-10-31T0100,2399A,114.051,33.5699,漯河市,三五一五工厂,细颗粒物(PM2.5),156,227,138,119,74,30,,,,28,26,6,8,1.0,0.9
2025-10-31T0100,2400A,114.0055,33.5698,漯河市,漯河大学,细颗粒物(PM2.5),225,225,140,175,92,34,,,,28,28,5,7,0.8,0.8
2025-10-31T0100,2401A,114.0138,33.5828,漯河市,市水利局,细颗粒物(PM2.5),211,237,146,161,89,33,,,,26,26,6,8,0.9,0.8
2025-10-31T0100,2402A,114.0261,33.5698,漯河市,市广电局,细颗粒物(PM2.5),178,247,152,134,78,30,,,,29,27,5,6,0.8,0.7
2025-10-31T0100,3478A,113.9749,33.5664,漯河市,市图书馆,细颗粒物(PM2.5),214,260,155,164,85,32,,,,27,23,4,5,0.9,0.8
2025-10-31T0100,4250A,114.0892,33.5882,漯河市,韶山路11号,细颗粒物(PM2.5),188,245,150,141,84,12,,,,42,33,7,8,0.7,0.7
2025-10-31T0100,1798A,118.5092,31.6837,马鞍山市,湖东路四小,,28,,24,19,15,46,,,,13,25,4,6,0.4,0.4
2025-10-31T0100,1799A,118.5024,31.6449,马鞍山市,开发区,,20,,28,14,15,52,,,,12,27,6,8,0.3,0.4
2025-10-31T0100,1802A,118.6245,31.7241,马鞍山市,濮塘,,,,,,,,,,,,,,,,
2025-10-31T0100,3633A,118.4918,31.6809,马鞍山市,雨山,,22,,25,15,14,47,,,,13,25,5,6,0.4,0.5
2025-10-31T0100,4191A,118.5274,31.72227,马鞍山市,慈湖高新区,,33,33,34,19,15,46,,,,11,22,2,3,0.4,0.4
2025-10-31T0100,1686A,111.0286,21.4688,茂名市,电白南海,细颗粒物(PM2.5),94,88,71,70,47,77,,,,19,18,13,9,0.5,0.5
2025-10-31T0100,1687A,110.9294,21.6533,茂名市,茂石化七小,细颗粒物(PM2.5),67,68,62,48,38,42,,,,18,16,22,11,0.7,0.6
2025-10-31T0100,1688A,110.9107,21.6687,茂名市,健康路,细颗粒物(PM2.5),62,63,50,44,32,38,,,,21,17,41,15,1.0,0.7
2025-10-31T0100,1689A,110.8592,21.6828,茂名市,高岭,颗粒物(PM10),56,61,66,39,34,38,,,,15,18,11,12,0.7,0.7
2025-10-31T0100,3450A,111.01,21.5165,茂名市,电白水东,颗粒物(PM10),56,61,55,39,35,67,,,,17,16,12,11,0.9,0.8
2025-10-31T0100,2539A,104.0308,30.0478,眉山市,黑龙滩水库,,,,,,,,,,,,,,,,
2025-10-31T0100,2540A,103.8416,30.0874,眉山市,气象局,,36,36,50,22,29,35,,,,15,19,9,9,0.4,0.5
2025-10-31T0100,3137A,103.8578,30.0744,眉山市,市委党校,,35,29,32,24,22,31,,,,16,16,5,6,0.6,0.6
2025-10-31T0100,3148A,103.8291,30.0564,眉山市,区人社局,,38,38,47,24,26,35,,,,12,11,4,4,0.8,0.9
2025-10-31T0100,1690A,116.1231,24.3284,梅州市,梅江月梅,,43,,28,30,23,12,,,,21,16,4,5,0.6,0.6
2025-10-31T0100,1691A,116.0797,24.2719,梅州市,梅县新城,,50,,27,35,21,6,,,,28,19,7,9,0.5,0.5
2025-10-31T0100,1692A,116.1248,24.2654,梅州市,环境监控中心,,29,23,25,20,19,9,,,,29,16,5,16,0.5,0.4
2025-10-31T0100,3315A,116.1233,24.2991,梅州市,梅龙,,35,31,24,24,14,10,,,,23,13,6,7,0.7,0.6
2025-10-31T0100,1878A,104.7778,31.4741,绵阳市,富乐山,,34,34,37,21,25,10,,,,9,14,8,8,0.5,0.5
2025-10-31T0100,1880A,104.6697,31.4668,绵阳市,高新区自来水公司,细颗粒物(PM2.5),55,45,48,39,36,3,,,,36,29,8,8,0.6,0.6
2025-10-31T0100,1881A,104.7287,31.5075,绵阳市,三水厂,细颗粒物(PM2.5),78,71,50,57,40,0,,,,28,24,7,6,0.7,0.7
2025-10-31T0100,3491A,104.69,31.5322,绵阳市,西科大附属小学,颗粒物(PM10),51,51,46,33,29,2,,,,31,31,10,10,0.8,0.7
2025-10-31T0100,3492A,104.5648,31.5343,绵阳市,安州区旅游局,,35,28,26,24,32,4,,,,16,23,8,7,0.7,0.7
2025-10-31T0100,4226A,104.7651,31.4531,绵阳市,绵阳市气象局,,50,50,46,17,33,29,,,,11,19,8,7,0.6,0.6
2025-10-31T0100,1784A,129.61,44.561,牡丹江市,环保大楼,,38,32,40,26,33,10,,,,30,22,6,6,0.5,0.5
2025-10-31T0100,1785A,129.6115,44.5782,牡丹江市,文化广场,,35,32,51,24,36,5,,,,39,27,7,7,0.6,0.5
2025-10-31T0100,1786A,129.5904,44.5963,牡丹江市,第一医院,,39,38,47,27,44,19,,,,21,23,4,4,0.4,0.4
2025-10-31T0100,1787A,129.6364,44.6075,牡丹江市,机车工厂,颗粒物(PM10),51,52,51,32,34,6,,,,33,24,6,15,0.5,0.5
2025-10-31T0100,1788A,129.6386,44.5462,牡丹江市,第一中学,,30,,38,21,27,1,,,,37,24,3,3,0.4,0.4
2025-10-31T0100,2531A,105.0703,29.61,内江市,市监测站,,42,34,32,29,22,28,,,,18,12,3,4,0.4,0.7
2025-10-31T0100,2532A,105.0717,29.5947,内江市,东兴区政府,,32,28,25,22,19,39,,,,10,13,9,9,0.2,0.2
2025-10-31T0100,2533A,105.0653,29.5817,内江市,内江二中,,35,35,31,22,19,35,,,,11,14,4,4,0.6,0.6
2025-10-31T0100,2534A,105.0406,29.5822,内江市,内江日报社,,38,29,26,26,23,42,,,,13,17,4,3,0.4,0.5
2025-10-31T0100,2628A,92.0657,31.4846,那曲市,那曲监测站,,23,20,43,12,26,71,,,,15,27,7,9,0.6,0.8
2025-10-31T0100,4243A,92.0515,31.4787,那曲市,那曲市委宣传部,,21,11,23,6,14,67,,,,17,21,6,7,0.8,0.8
2025-10-31T0100,1290A,115.8931,28.6843,南昌市,省外办,细颗粒物(PM2.5),73,65,78,53,67,44,,,,21,23,5,5,1.2,1.1
2025-10-31T0100,1291A,115.8886,28.7003,南昌市,省林业公司,细颗粒物(PM2.5),67,56,63,48,62,42,,,,20,21,4,3,1.3,1.2
2025-10-31T0100,1292A,115.8126,28.7442,南昌市,林科所,细颗粒物(PM2.5),52,,48,36,49,51,,,,14,19,5,4,0.8,0.8
2025-10-31T0100,1294A,115.8518,28.687,南昌市,建工学校,细颗粒物(PM2.5),73,70,79,53,63,44,,,,19,23,10,10,0.9,0.8
2025-10-31T0100,1295A,115.8921,28.6424,南昌市,象湖,细颗粒物(PM2.5),70,70,74,51,61,51,,,,17,20,8,8,1.0,0.9
2025-10-31T0100,1296A,115.7423,28.7996,南昌市,武术学校,,,,,,,,,,,,,,,,
2025-10-31T0100,3046A,115.9084,28.6062,南昌市,机电学校,细颗粒物(PM2.5),70,60,77,51,65,59,,,,14,20,6,7,0.8,0.7
2025-10-31T0100,3690A,115.9721,28.7031,南昌市,外国语学校,细颗粒物(PM2.5),80,66,76,59,76,45,,,,24,32,7,8,0.8,0.7
2025-10-31T0100,4192A,115.9316,28.68677,南昌市,南京东路235号,细颗粒物(PM2.5),75,72,87,55,72,49,,,,28,28,5,6,1.1,0.9
2025-10-31T0100,1905A,106.056,30.8064,南充市,西山风景区,,,,,,,,,,,,,,,,
2025-10-31T0100,1906A,106.0789,30.8023,南充市,南充市委,,39,38,34,27,26,5,,,,23,21,4,4,0.4,0.4
2025-10-31T0100,1907A,106.1031,30.8217,南充市,南充炼油厂,,46,43,41,32,28,11,,,,17,14,5,6,0.5,0.5
2025-10-31T0100,4227A,106.1083,30.7884,南充市,梨树横街98号,,43,43,35,23,22,15,,,,17,15,4,4,0.4,0.3
2025-10-31T0100,4304A,106.1172,30.843,南充市,清泉寺北路188号,,33,33,32,23,24,22,,,,9,12,6,6,0.4,0.4
2025-10-31T0100,4305A,106.067,30.7616,南充市,同庆路1号,,39,31,31,27,23,10,,,,26,23,6,7,0.5,0.5
2025-10-31T0100,1151A,118.8086,32.1065,南京市,迈皋桥,,13,13,22,9,12,31,,,,22,20,3,4,0.5,0.5
2025-10-31T0100,1152A,118.7538,32.0551,南京市,草场门,,14,14,22,7,11,41,,,,20,28,8,9,0.3,0.4
2025-10-31T0100,1153A,118.7794,32.0745,南京市,山西路,,19,19,23,9,8,43,,,,14,17,5,4,0.6,0.6
2025-10-31T0100,1154A,118.7752,32.0023,南京市,中华门,,14,14,20,9,11,43,,,,21,24,4,4,0.4,0.4
2025-10-31T0100,1155A,118.8109,32.0309,南京市,瑞金路,,19,19,23,9,12,54,,,,18,22,4,4,0.4,0.4
2025-10-31T0100,1156A,118.7997,32.0754,南京市,玄武湖,,15,12,22,10,7,31,,,,11,11,4,4,0.3,0.6
2025-10-31T0100,1157A,118.6414,32.0931,南京市,浦口,,16,16,23,8,11,41,,,,20,28,6,7,0.3,0.4
2025-10-31T0100,1158A,118.7356,31.9996,南京市,奥体中心,,22,22,26,9,13,53,,,,18,25,4,5,0.4,0.4
2025-10-31T0100,1159A,118.9125,32.1028,南京市,仙林大学城,,17,17,26,7,9,40,,,,22,24,8,8,0.5,0.5
2025-10-31T0100,3422A,118.8436,31.9198,南京市,江宁彩虹桥,,20,20,27,12,12,43,,,,3,13,5,6,0.4,0.4
2025-10-31T0100,3427A,118.8554,32.3578,南京市,六合雄州,,22,11,35,3,16,69,,,,5,27,4,6,0.4,0.6
2025-10-31T0100,4249A,118.8708,31.3402,南京市,汶溪路181号,,15,9,19,3,16,48,,,,17,20,6,7,0.5,0.6
2025-10-31T0100,4312A,119.019,31.6512,南京市,中山西路1号,,23,,19,16,12,41,,,,14,18,4,4,0.5,0.5
2025-10-31T0100,1401A,108.3103,22.7881,南宁市,二十一中,,35,31,36,24,30,26,,,,22,16,3,3,0.8,0.8
2025-10-31T0100,1402A,108.3141,22.8528,南宁市,北湖,,45,40,46,31,34,5,,,,44,21,6,7,0.8,0.8
2025-10-31T0100,1403A,108.3206,22.8225,南宁市,市监测站,,40,,37,28,34,33,,,,20,22,5,6,0.8,0.8
2025-10-31T0100,1404A,108.3829,22.8037,南宁市,大自然花园,,44,44,40,24,34,39,,,,14,13,6,6,0.7,0.7
2025-10-31T0100,1405A,108.4394,22.7904,南宁市,仙葫,,,,,,,,,,,,,,,,
2025-10-31T0100,1406A,108.2397,22.8467,南宁市,区农职院,,35,24,44,24,33,17,,,,27,17,3,4,0.7,0.6
2025-10-31T0100,1407A,108.3275,22.735,南宁市,英华嘉园,,33,24,35,23,31,36,,,,12,12,2,2,0.7,0.7
2025-10-31T0100,3401A,108.4834,22.7618,南宁市,红星社区,,39,32,36,27,29,61,,,,7,12,4,4,0.6,0.6
2025-10-31T0100,4221A,108.2177,22.7774,南宁市,乐贤路16号,,38,38,40,25,32,12,,,,33,25,3,2,0.6,0.6
2025-10-31T0100,2331A,118.0966,26.6761,南平市,茫荡山,,,9,15,,,96,,,,,,2,1,,0.3
2025-10-31T0100,2332A,118.1681,26.6369,南平市,南平市监测站,,25,25,25,16,16,42,,,,12,12,4,5,0.4,0.4
2025-10-31T0100,2333A,118.1825,26.6489,南平市,南平铝业有限公司,,25,23,26,17,15,43,,,,12,14,3,4,0.4,0.4
2025-10-31T0100,2334A,118.1756,26.6272,南平市,南平七中,,32,32,25,21,15,39,,,,13,10,10,7,0.5,0.4
2025-10-31T0100,1168A,120.9098,31.9663,南通市,狼山街道,,15,15,25,6,16,25,,,,18,22,2,3,0.5,0.5
2025-10-31T0100,1169A,120.86,32.0005,南通市,虹桥,,16,14,22,7,13,50,,,,18,18,3,4,0.7,0.7
2025-10-31T0100,1170A,120.87,32.02,南通市,城中,,18,18,32,3,16,45,,,,21,23,3,5,0.6,0.7
2025-10-31T0100,1171A,120.94,31.93,南通市,星湖花园,,12,9,29,3,16,36,,,,16,22,3,4,0.7,0.6
2025-10-31T0100,1172A,120.81,32.0417,南通市,紫琅学院,,15,8,34,3,11,45,,,,19,27,4,4,0.4,0.5
2025-10-31T0100,3291A,121.067,32.062,南通市,通州监测站,,22,6,13,3,9,68,,,,8,14,2,2,0.4,0.5
2025-10-31T0100,3432A,120.9348,31.9883,南通市,环境教育馆,,13,12,27,3,18,27,,,,25,26,3,4,0.3,0.4
2025-10-31T0100,2404A,112.5224,33.0122,南阳市,瓦房庄,细颗粒物(PM2.5),95,102,89,71,62,20,,,,42,25,5,7,0.8,0.8
2025-10-31T0100,2405A,112.5003,32.9735,南阳市,汉画馆,细颗粒物(PM2.5),88,92,82,65,60,7,,,,52,31,5,6,0.8,0.9
2025-10-31T0100,2406A,112.5573,33.027,南阳市,气象站,细颗粒物(PM2.5),89,125,104,66,60,15,,,,54,34,8,9,0.9,0.8
2025-10-31T0100,2407A,112.5481,32.9689,南阳市,理工学院,细颗粒物(PM2.5),107,122,100,80,64,40,,,,34,37,6,8,0.9,0.9
2025-10-31T0100,4008A,112.5234,32.9922,南阳市,卧龙区政府,细颗粒物(PM2.5),90,121,96,67,54,26,,,,38,28,7,8,0.8,0.8
2025-10-31T0100,1234A,121.8358,29.911,宁波市,区环保大楼,,24,12,46,11,19,29,,,,48,61,5,6,0.4,0.5
2025-10-31T0100,1235A,121.56,29.82,宁波市,万里学院,,28,28,51,15,36,53,,,,17,53,7,8,0.5,0.6
2025-10-31T0100,1236A,121.713,29.9572,宁波市,龙赛医院,,24,7,61,3,29,75,,,,12,53,3,4,0.3,0.5
2025-10-31T0100,1239A,121.633,29.7733,宁波市,钱湖水厂,,25,24,51,17,30,33,,,,28,40,6,7,0.5,0.6
2025-10-31T0100,1240A,121.5856,29.8635,宁波市,太古小学,,,20,52,11,29,55,,,,17,53,,4,0.6,0.7
2025-10-31T0100,1241A,121.524,29.8674,宁波市,市环境监测中心,,28,28,52,17,27,42,,,,23,54,7,7,0.6,0.7
2025-10-31T0100,2871A,121.6147,29.9017,宁波市,万里国际学校,,17,17,40,9,26,52,,,,24,48,4,5,0.4,0.5
2025-10-31T0100,3710A,121.5594,29.8975,宁波市,白沙活动中心,,22,22,36,11,21,47,,,,19,45,5,5,0.4,0.6
2025-10-31T0100,2339A,119.5001,26.6946,宁德市,金涵水库,,14,14,35,9,22,8,,,,10,15,3,3,0.4,0.4
2025-10-31T0100,2341A,119.5388,26.6612,宁德市,宁德市监测站,,38,,33,26,19,6,,,,26,30,5,5,0.7,0.6
2025-10-31T0100,3209A,119.5231,26.6562,宁德市,宁德一中,,38,30,36,26,21,16,,,,15,19,5,5,0.4,0.5
2025-10-31T0100,2618A,98.8601,25.8567,怒江傈僳族自治州,州监测站,,43,36,38,30,27,16,,,,15,12,7,8,0.6,0.5
2025-10-31T0100,2619A,98.8546,25.8417,怒江傈僳族自治州,泸水一中,,38,30,30,26,23,3,,,,18,16,6,6,0.8,0.7
2025-10-31T0100,1888A,101.6891,26.571,攀枝花市,弄弄坪,颗粒物(PM10),54,57,42,23,19,24,,,,34,22,5,11,1.0,0.9
2025-10-31T0100,1889A,101.5769,26.5928,攀枝花市,河门口,,40,40,40,22,23,28,,,,26,23,45,25,1.4,1.5
2025-10-31T0100,1890A,101.7169,26.585,攀枝花市,炳草岗,颗粒物(PM10),57,64,45,25,21,23,,,,33,27,56,16,1.0,0.8
2025-10-31T0100,1891A,101.7369,26.5008,攀枝花市,仁和,,39,39,35,24,21,12,,,,20,17,10,8,0.9,0.8
2025-10-31T0100,2835A,101.7227,26.567,攀枝花市,四十中小,,31,31,32,15,18,41,,,,18,13,88,28,1.1,0.8
2025-10-31T0100,1604A,122.0303,41.1489,盘锦市,开发区,细颗粒物(PM2.5),69,56,35,50,23,22,,,,37,22,2,3,1.3,1
2025-10-31T0100,1605A,122.0485,41.0883,盘锦市,兴隆台,颗粒物(PM10),62,73,37,38,27,8,,,,64,25,13,7,0.5,0.3
2025-10-31T0100,1606A,121.8297,41.1028,盘锦市,新生街道,细颗粒物(PM2.5),69,63,35,50,24,6,,,,54,33,8,8,0.7,0.5
2025-10-31T0100,1832A,113.3257,33.742,平顶山市,新华旅馆,颗粒物(PM10),126,202,158,76,56,44,,,,27,31,6,8,0.8,0.8
2025-10-31T0100,1833A,113.2919,33.737,平顶山市,规划设计院,细颗粒物(PM2.5),200,223,154,150,99,43,,,,30,30,4,5,0.9,0.9
2025-10-31T0100,1834A,113.182,33.774,平顶山市,平顶山工学院,细颗粒物(PM2.5),201,199,130,151,93,55,,,,24,27,6,7,0.7,0.7
2025-10-31T0100,3204A,113.3025,33.73,平顶山市,规划局,细颗粒物(PM2.5),188,207,156,141,99,52,,,,24,26,6,8,1.0,0.9
2025-10-31T0100,3594A,112.8867,33.9116,平顶山市,石龙区,细颗粒物(PM2.5),178,187,113,134,80,24,,,,54,30,6,6,1.0,0.9
2025-10-31T0100,2656A,106.6692,35.5461,平凉市,聚贤嘉苑,,46,46,58,31,28,37,,,,33,30,6,5,0.5,0.6
2025-10-31T0100,2657A,106.7021,35.5307,平凉市,博物馆,颗粒物(PM10),75,100,82,29,30,38,,,,28,27,9,15,0.6,0.7
2025-10-31T0100,2347A,114.0997,27.5002,萍乡市,武功山,,,,,,,,,,,,,,,,
2025-10-31T0100,2348A,113.8385,27.6434,萍乡市,中医院,细颗粒物(PM2.5),79,62,79,58,62,36,,,,22,30,4,11,1.0,1.1
2025-10-31T0100,2349A,113.8493,27.6253,萍乡市,市政府车库,细颗粒物(PM2.5),72,66,69,52,59,31,,,,28,28,12,13,1.1,1
2025-10-31T0100,2350A,113.8676,27.6435,萍乡市,市环保局,颗粒物(PM10),58,66,69,37,52,42,,,,17,24,6,13,1.0,0.9
2025-10-31T0100,2351A,113.866,27.6198,萍乡市,安源区政府,细颗粒物(PM2.5),89,,67,66,71,26,,,,23,24,13,14,0.9,0.8
2025-10-31T0100,2319A,119.0141,25.4325,莆田市,荔城区仓后路,,45,45,36,31,15,4,,,,40,16,5,5,0.8,0.6
2025-10-31T0100,2320A,119.0015,25.4553,莆田市,莆田市监测站,,14,14,19,3,4,31,,,,8,6,4,5,0.4,0.4
2025-10-31T0100,2321A,119.1119,25.4561,莆田市,涵江区六中,,26,25,27,16,13,1,,,,52,20,5,6,0.6,0.6
2025-10-31T0100,2322A,119.1013,25.3215,莆田市,秀屿区政府,,30,30,30,16,16,41,,,,15,13,8,6,0.6,0.6
2025-10-31T0100,2323A,118.981,25.4792,莆田市,东圳水库,,25,,13,17,14,37,,,,5,4,6,6,0.8,0.8
2025-10-31T0100,2392A,115.0312,35.7636,濮阳市,环保局,细颗粒物(PM2.5),215,,109,165,111,8,,,,53,45,8,9,1.2,1
2025-10-31T0100,2394A,115.0574,35.7609,濮阳市,油田运输公司,细颗粒物(PM2.5),217,232,161,167,111,4,,,,53,41,9,10,1.3,1
2025-10-31T0100,3021A,115,35.7668,濮阳市,濮水河管理处,细颗粒物(PM2.5),122,181,145,92,85,6,,,,37,35,9,9,0.9,0.6
2025-10-31T0100,4216A,115.0924,35.7686,濮阳市,任丘路479号,细颗粒物(PM2.5),215,220,158,165,115,2,,,,50,40,8,9,1.2,1.1
2025-10-31T0100,2601A,100.98,22.7633,普洱市,市环保局,,30,28,33,21,18,24,,,,5,6,5,5,0.4,0.4
2025-10-31T0100,2602A,100.9817,22.8322,普洱市,普洱第二中学,,38,,32,26,20,15,,,,15,10,5,5,0.3,0.3
2025-10-31T0100,2262A,131.0518,45.8751,七台河市,新一中,,,,,,,,,,,,,,,,
2025-10-31T0100,3345A,131.0577,45.7879,七台河市,中波台,,29,27,48,20,28,43,,,,14,18,6,7,0.4,0.7
2025-10-31T0100,3637A,131.0176,45.7761,七台河市,人民广场,,35,30,50,24,34,57,,,,11,21,7,7,0.6,0.7
2025-10-31T0100,3684A,130.8781,45.8222,七台河市,新建矿广场,,32,22,53,22,30,46,,,,9,16,6,7,0.4,0.5
2025-10-31T0100,1779A,123.9305,47.3636,齐齐哈尔市,安居小区,细颗粒物(PM2.5),59,51,40,42,23,33,,,,20,16,7,6,0.7,0.5
2025-10-31T0100,1780A,123.9488,47.3386,齐齐哈尔市,中心广场,细颗粒物(PM2.5),85,101,54,63,31,34,,,,28,22,9,8,0.8,0.6
2025-10-31T0100,1781A,123.9483,47.3227,齐齐哈尔市,农牧车辆厂,细颗粒物(PM2.5),211,200,72,161,33,18,,,,42,23,15,7,1.4,0.8
2025-10-31T0100,1783A,123.945,47.2988,齐齐哈尔市,市环境监测站,细颗粒物(PM2.5),193,205,80,145,45,21,,,,45,26,11,9,1.2,0.7
2025-10-31T0100,3662A,123.6333,47.2075,齐齐哈尔市,富区青少年活动中心,细颗粒物(PM2.5),299,347,109,249,79,4,,,,53,31,12,16,1.1,0.7
2025-10-31T0100,2591A,107.9783,26.5747,黔东南苗族侗族自治州,市环境监测站,,28,25,27,19,22,3,,,,17,13,4,4,0.6,0.6
2025-10-31T0100,2881A,107.8908,26.5311,黔东南苗族侗族自治州,凯里学院,,28,22,21,19,24,8,,,,14,14,3,3,0.4,0.7
2025-10-31T0100,2593A,107.5228,26.2403,黔南布依族苗族自治州,小围寨,,20,17,17,14,13,17,,,,8,8,4,4,0.5,0.5
2025-10-31T0100,3538A,107.5175,26.2978,黔南布依族苗族自治州,沙坝,,28,24,26,19,19,20,,,,12,11,4,4,0.7,0.7
2025-10-31T0100,2589A,104.9022,25.0925,黔西南布依族苗族自治州,场坝街,,25,25,23,3,11,22,,,,11,11,4,4,0.6,0.6
2025-10-31T0100,2590A,104.8811,25.0992,黔西南布依族苗族自治州,坪东大道,,16,16,17,11,10,19,,,,9,9,2,2,0.6,0.6
2025-10-31T0100,2502A,108.6236,21.9667,钦州市,市环保站,,32,,41,22,35,47,,,,10,17,2,3,0.6,1.2
2025-10-31T0100,2503A,108.6549,21.9481,钦州市,沙埠小学,,28,,44,19,34,48,,,,11,12,2,3,0.9,1.9
2025-10-31T0100,2504A,108.5989,21.7431,钦州市,港区一小,,35,28,50,24,40,43,,,,18,34,3,7,0.7,0.9
2025-10-31T0100,3404A,108.5959,21.9633,钦州市,北职校,,33,,39,23,38,46,,,,8,9,4,4,0.7,0.7
2025-10-31T0100,1043A,119.7493,40.0116,秦皇岛市,第一关,,25,19,62,17,46,19,,,,50,50,5,6,0.3,0.5
2025-10-31T0100,1044A,119.5897,39.9499,秦皇岛市,监测站,,35,35,77,9,45,44,,,,22,54,7,7,0.2,0.6
2025-10-31T0100,1046A,119.5251,39.9041,秦皇岛市,建设大厦,,31,31,71,17,43,16,,,,39,43,5,6,0.3,0.5
2025-10-31T0100,3132A,119.610547,39.943889,秦皇岛市,文明里,,26,26,71,14,38,44,,,,17,49,8,10,0.2,0.3
2025-10-31T0100,4198A,119.5090,39.8253,秦皇岛市,北戴河轮滑馆,,40,40,62,15,43,3,,,,50,28,4,4,0.4,0.5
2025-10-31T0100,1307A,120.6659,36.2403,青岛市,仰口,,,,,,,,,,,,,,,,
2025-10-31T0100,1310A,120.4134,36.0658,青岛市,市南区东部子站,,31,6,18,3,7,97,,,,2,11,6,6,0.2,0.3
2025-10-31T0100,1311A,120.3664,36.1032,青岛市,四方区子站,,29,6,17,3,9,90,,,,3,20,3,3,0.2,0.3
2025-10-31T0100,1312A,120.2994,36.054,青岛市,市南区西部子站,,28,12,16,3,6,89,,,,15,17,7,7,0.4,0.4
2025-10-31T0100,1313A,120.4581,36.0858,青岛市,崂山区子站,,31,14,14,3,3,98,,,,5,14,8,8,0.3,0.3
2025-10-31T0100,1315A,120.3999,36.3083,青岛市,城阳区子站,,23,17,23,3,9,71,,,,15,31,4,4,0.3,0.4
2025-10-31T0100,3362A,120.5014,36.4034,青岛市,即墨2号,,25,7,18,3,8,78,,,,8,23,3,3,0.2,0.3
2025-10-31T0100,3642A,120.3503,36.0736,青岛市,市北区南部,,27,13,19,3,4,85,,,,10,19,4,4,0.2,0.2
2025-10-31T0100,3643A,120.3948,36.1805,青岛市,李沧区北部,,20,14,17,12,11,64,,,,14,27,6,6,0.3,0.3
2025-10-31T0100,4290A,120.1969,35.9546,青岛市,珠江路669号,,30,7,12,7,8,94,,,,8,14,8,8,0.2,0.3
2025-10-31T0100,4291A,120.0424,35.8656,青岛市,黄岛区人民政府广场,细颗粒物(PM2.5),62,66,18,44,5,1,,,,50,20,7,5,1.5,0.6
2025-10-31T0100,1702A,113.0426,23.691,清远市,环保大楼,,,,,,,,,,,,,,,,
2025-10-31T0100,1703A,113.0208,23.7106,清远市,凤城街办,,39,34,48,27,38,12,,,,41,32,6,7,0.8,0.9
2025-10-31T0100,3025A,113.0477,23.6344,清远市,技师学院,,37,37,47,25,34,4,,,,42,27,4,5,0.5,0.6
2025-10-31T0100,3318A,112.9903,23.7403,清远市,清新太和,,49,41,51,34,39,9,,,,35,28,7,7,0.8,0.8
2025-10-31T0100,3455A,113.076,23.7198,清远市,清城东城,,26,26,45,18,32,18,,,,15,17,5,7,0.7,0.9
2025-10-31T0100,2661A,107.6325,35.7357,庆阳市,庆阳五中,颗粒物(PM10),52,53,47,24,22,75,,,,14,18,1,2,0.4,0.6
2025-10-31T0100,2662A,107.6364,35.7067,庆阳市,市环保局,颗粒物(PM10),51,51,40,22,20,83,,,,14,18,4,5,0.3,0.6
2025-10-31T0100,1916A,103.7897,25.5035,曲靖市,环境监测站,,44,44,33,16,16,7,,,,18,15,3,7,0.7,0.5
2025-10-31T0100,1917A,103.8,25.5364,曲靖市,烟厂办公区,,34,34,31,13,17,12,,,,16,16,3,9,0.5,0.7
2025-10-31T0100,3376A,103.7947,25.462,曲靖市,南苑二区,,43,43,31,18,17,11,,,,17,14,4,6,0.8,0.8
2025-10-31T0100,3377A,103.7444,25.5261,曲靖市,曲靖师范学院,,48,36,30,33,22,8,,,,16,15,2,5,0.5,0.5
2025-10-31T0100,1264A,118.8692,28.9398,衢州市,环保大楼,,39,39,41,25,23,8,,,,37,26,4,5,0.4,0.4
2025-10-31T0100,1265A,118.8709,28.9666,衢州市,实验学校,,36,29,31,25,21,7,,,,43,26,4,4,0.3,0.3
2025-10-31T0100,1266A,118.8621,28.9808,衢州市,衢州学院,,36,35,34,25,19,12,,,,35,22,5,6,0.3,0.3
2025-10-31T0100,1611A,118.5819,24.9117,泉州市,涂山街,,35,33,31,24,17,42,,,,14,10,4,3,0.4,0.3
2025-10-31T0100,1612A,118.5972,24.8978,泉州市,津头埔,,38,35,31,26,16,36,,,,21,16,5,3,0.4,0.4
2025-10-31T0100,1613A,118.6663,24.9424,泉州市,万安,,45,45,34,27,17,13,,,,37,12,4,3,0.6,0.5
2025-10-31T0100,1614A,118.6117,24.9604,泉州市,清源山,,23,16,23,16,17,62,,,,2,5,2,1,0.5,0.5
2025-10-31T0100,3529A,118.6333,24.9264,泉州市,城华南路,,40,40,32,26,15,24,,,,23,10,4,3,0.4,0.3
2025-10-31T0100,2626A,88.8876,29.2718,日喀则市,日喀则监测站,,17,6,10,3,2,53,,,,5,8,13,14,0.5,0.5
2025-10-31T0100,3726A,88.8781,29.2426,日喀则市,林业技术推广中心,,14,7,12,3,3,43,,,,6,6,6,6,0.3,0.7
2025-10-31T0100,1659A,119.471,35.4209,日照市,监测站,,32,24,24,22,11,0,,,,49,39,8,8,0.7,0.6
2025-10-31T0100,1660A,119.523,35.4216,日照市,市政府广场,,27,27,23,17,6,5,,,,54,23,7,8,0.8,0.6
2025-10-31T0100,1661A,119.5587,35.4044,日照市,港务局,,41,41,25,16,14,16,,,,59,23,9,8,0.6,0.6
2025-10-31T0100,3507A,119.5328,35.4625,日照市,职业技术学院,,20,17,24,14,9,30,,,,24,22,4,5,0.8,0.7
2025-10-31T0100,3604A,119.3266,35.1044,日照市,岚山环保分局,,29,29,19,14,6,25,,,,51,26,8,9,0.7,0.6
2025-10-31T0100,1835A,111.1922,34.7752,三门峡市,市政府,细颗粒物(PM2.5),79,82,89,58,54,0,,,,34,31,7,7,0.7,0.8
2025-10-31T0100,1836A,111.1587,34.7942,三门峡市,开发区,细颗粒物(PM2.5),117,119,112,88,89,1,,,,41,33,5,5,0.9,0.7
2025-10-31T0100,1838A,111.143,34.7955,三门峡市,风景区,颗粒物(PM10),67,84,76,32,49,0,,,,33,22,6,7,1.0,0.8
2025-10-31T0100,3039A,111.1911,34.7829,三门峡市,三门峡市第一小学,颗粒物(PM10),78,106,96,54,55,8,,,,32,32,8,9,1.0,0.8
2025-10-31T0100,3598A,111.1,34.7167,三门峡市,富达温泉假日酒店,细颗粒物(PM2.5),108,109,106,81,83,3,,,,26,33,9,10,0.7,0.7
2025-10-31T0100,2324A,117.6211,26.2625,三明市,三钢,,43,,24,30,17,41,,,,15,13,9,6,0.5,0.6
2025-10-31T0100,2325A,117.635,26.2714,三明市,三明二中,,39,35,27,27,17,45,,,,10,12,8,6,0.4,0.5
2025-10-31T0100,2326A,117.6028,26.2378,三明市,三元区政府,,28,28,23,15,14,49,,,,11,12,9,7,1.1,1
2025-10-31T0100,2327A,117.7275,26.3108,三明市,洋溪,,26,20,18,18,15,33,,,,18,11,19,12,1.1,1.1
2025-10-31T0100,1876A,109.5078,18.2489,三亚市,河东子站,,15,,11,6,8,46,,,,5,6,3,3,0.4,0.4
2025-10-31T0100,1877A,109.4964,18.2681,三亚市,河西子站,,15,6,13,3,5,47,,,,4,4,6,6,0.3,0.4
2025-10-31T0100,3540A,109.7348,18.3443,三亚市,君悦子站,,15,13,19,3,8,45,,,,5,4,5,4,0.4,0.5
2025-10-31T0100,2624A,91.7608,29.2313,山南市,山南监测站,,16,6,7,3,4,49,,,,7,9,4,4,0.4,0.4
2025-10-31T0100,2625A,91.7706,29.2436,山南市,山南人民医院,,15,6,10,3,5,48,,,,4,8,3,4,0.2,0.3
2025-10-31T0100,1674A,116.6794,23.3667,汕头市,金平子站,,32,31,36,22,19,76,,,,18,21,3,5,0.7,0.7
2025-10-31T0100,1675A,116.7244,23.3633,汕头市,龙湖子站,,37,37,34,20,15,78,,,,14,15,8,9,0.6,0.5
2025-10-31T0100,1676A,116.7258,23.2775,汕头市,濠江子站,,32,29,29,22,14,75,,,,10,9,6,7,0.6,0.6
2025-10-31T0100,1677A,116.7519,23.4714,汕头市,澄海子站,细颗粒物(PM2.5),69,57,40,50,23,30,,,,34,19,6,10,0.9,0.7
2025-10-31T0100,1678A,116.6092,23.2539,汕头市,潮阳子站,,41,41,32,23,14,66,,,,13,11,6,6,0.6,0.5
2025-10-31T0100,3444A,116.454,23.2684,汕头市,潮南峡山,,46,46,37,29,19,33,,,,18,12,8,9,0.7,0.7
2025-10-31T0100,3624A,116.4069,23.2533,汕头市,潮南子站,颗粒物(PM10),51,52,53,26,20,75,,,,15,17,5,7,0.6,0.6
2025-10-31T0100,1693A,115.3653,22.775,汕尾市,市环保局,,26,26,38,14,18,57,,,,9,10,5,5,0.8,0.8
2025-10-31T0100,1694A,115.3706,22.7898,汕尾市,市政府,,28,,41,19,21,50,,,,10,14,7,8,0.4,0.5
2025-10-31T0100,1695A,115.3622,22.7925,汕尾市,新城中学,,38,34,41,26,19,37,,,,12,14,7,8,0.5,0.7
2025-10-31T0100,2645A,109.9154,33.8715,商洛市,监测站,,25,25,33,13,20,11,,,,25,20,4,5,0.4,0.5
2025-10-31T0100,3045A,109.9643,33.8471,商洛市,商州区中学,,25,22,40,17,23,6,,,,29,22,4,4,0.4,0.4
2025-10-31T0100,2408A,115.6702,34.4285,商丘市,环境监测站,细颗粒物(PM2.5),208,178,96,158,69,8,,,,53,44,2,3,0.8,0.7
2025-10-31T0100,2409A,115.6458,34.4045,商丘市,粮食局,细颗粒物(PM2.5),145,181,88,111,56,9,,,,48,37,4,4,0.8,0.7
2025-10-31T0100,2410A,115.6293,34.3948,商丘市,睢阳区环保局,细颗粒物(PM2.5),183,165,90,138,67,5,,,,51,39,2,2,0.7,0.6
2025-10-31T0100,3171A,115.6071,34.4465,商丘市,梁园区档案局,细颗粒物(PM2.5),193,153,72,145,61,3,,,,54,37,4,2,0.8,0.5
2025-10-31T0100,1141A,121.4,31.238,上海市,普陀,,20,16,27,3,9,63,,,,22,40,5,5,0.4,0.5
2025-10-31T0100,1142A,121.478,31.2036,上海市,十五厂,,,,28,,11,,,41,,,41,,7,,0.5
2025-10-31T0100,1143A,121.467,31.3008,上海市,虹口,,16,16,27,7,12,48,,,,25,49,8,8,0.4,0.5
2025-10-31T0100,1147A,121.425,31.2261,上海市,静安监测站,,21,15,24,6,10,66,,,,19,31,4,5,0.4,0.4
2025-10-31T0100,1148A,121.703,31.1907,上海市,浦东川沙,,,,28,,9,,,37,,,42,,9,,0.3
2025-10-31T0100,1149A,121.533,31.2284,上海市,浦东新区监测站,,20,15,25,11,11,62,,,,17,39,6,6,0.5,0.6
2025-10-31T0100,1150A,121.577,31.2071,上海市,浦东张江,,23,15,25,9,9,72,,,,17,38,5,6,0.4,0.5
2025-10-31T0100,3265A,121.4316,31.3322,上海市,宝山庙行,,18,17,30,8,10,41,,,,36,57,8,9,0.3,0.4
2025-10-31T0100,3266A,121.8791,31.4662,上海市,崇明上实东滩,,22,9,13,3,6,70,,,,4,7,3,3,0.3,0.4
2025-10-31T0100,3268A,121.3162,31.2838,上海市,嘉定南翔,,20,14,28,7,11,62,,,,23,52,5,6,0.3,0.3
2025-10-31T0100,3269A,121.3359,30.7456,上海市,金山新城,,19,16,24,9,9,59,,,,14,25,4,5,0.3,0.4
2025-10-31T0100,3270A,121.4996,31.0739,上海市,闵行浦江,,24,13,28,3,11,75,,,,7,39,4,5,0.2,0.4
2025-10-31T0100,3271A,121.2886,31.1663,上海市,青浦徐泾,,20,13,28,7,5,61,,,,22,44,7,7,0.5,0.5
2025-10-31T0100,3272A,121.2186,31.0378,上海市,松江图书馆,,25,10,24,3,7,78,,,,12,47,4,5,0.3,0.4
2025-10-31T0100,3273A,121.3902,31.2059,上海市,长宁仙霞,,18,16,26,3,7,57,,,,18,34,6,6,0.6,0.6
2025-10-31T0100,3274A,121.7965,31.0507,上海市,浦东惠南,,23,12,26,3,10,73,,,,10,36,6,8,0.5,0.5
2025-10-31T0100,3544A,121.4891,30.925,上海市,奉贤南桥新城,,25,10,25,8,15,78,,,,9,34,3,4,0.4,0.4
2025-10-31T0100,4183A,121.4174,31.16637,上海市,冠生园路458号,,19,12,23,6,10,58,,,,16,38,5,6,0.5,0.6
2025-10-31T0100,4205A,121.5419,31.2683,上海市,宁武路151号,,,,40,,17,,,22,,,62,,6,,0.3
2025-10-31T0100,2381A,118.005,28.4572,上饶市,百草园,,,,,,,,,,,,,,,,
2025-10-31T0100,2382A,117.9756,28.4436,上饶市,市监测站,,32,32,38,18,20,18,,,,22,24,4,7,0.3,0.4
2025-10-31T0100,2383A,117.9519,28.4628,上饶市,凤凰光学,,36,34,42,25,22,20,,,,25,29,12,11,0.4,0.4
2025-10-31T0100,3685A,117.897,28.4315,上饶市,双创科技城,,40,40,38,25,25,9,,,,46,35,10,9,0.4,0.4
2025-10-31T0100,4211A,118.1904,28.4448,上饶市,裕丰大道,,39,34,44,27,24,28,,,,17,24,6,4,0.4,0.5
2025-10-31T0100,1669A,113.5824,24.7733,韶关市,市八中,细颗粒物(PM2.5),65,58,64,47,50,44,,,,12,17,6,7,0.8,0.7
2025-10-31T0100,1671A,113.5917,24.7972,韶关市,园林处,细颗粒物(PM2.5),70,,50,51,53,50,,,,11,18,7,8,0.9,0.8
2025-10-31T0100,1673A,113.5971,24.6863,韶关市,曲江监测站,,49,42,63,34,51,50,,,,15,22,14,12,0.8,0.9
2025-10-31T0100,2809A,113.6668,24.7756,韶关市,大学路288号,,,51,58,44,49,,,,,17,16,8,13,0.7,0.7
2025-10-31T0100,3622A,113.5556,24.8082,韶关市,碧湖山庄,细颗粒物(PM2.5),69,60,64,50,49,45,,,,10,13,9,9,0.9,0.8
2025-10-31T0100,2462A,111.5239,27.3033,邵阳市,市水土所,,,,,,,,,,,,,,,,
2025-10-31T0100,2464A,111.5283,27.2442,邵阳市,市化工厂,,49,49,65,34,54,41,,,,18,25,10,10,0.8,0.9
2025-10-31T0100,2466A,111.4328,27.2272,邵阳市,市环保局,,50,41,63,35,60,36,,,,21,22,4,6,1.3,1.4
