timepoint,stationcode,longitude,latitude,area,positionname,primarypollutant,aqi,pm10,pm10_24h,pm2_5,pm2_5_24h,o3,o3_24h,o3_8h,o3_8h_24h,no2,no2_24h,so2,so2_24h,co,co_24h
2024-12-01T0000,2566A,102.1879,31.914,阿坝藏族羌族自治州,州农科所,,26,26,48,12,13,46,,69,55,8,14,8,11,0.4,0.4
2024-12-01T0000,2568A,102.2502,31.8896,阿坝藏族羌族自治州,马师校,,40,31,20,28,13,35,,71,40,17,19,3,4,0.4,0.4
2024-12-01T0000,3994A,102.2165,31.9024,阿坝藏族羌族自治州,马尔康中学西区,,25,25,28,16,13,41,,71,47,15,16,5,5,0.4,0.4
2024-12-01T0000,2695A,80.292,41.1694,阿克苏地区,电视台,细颗粒物(PM2.5),259,309,134,209,70,7,,68,36,107,49,8,4,4.4,1.8
2024-12-01T0000,2696A,80.2613,41.1551,阿克苏地区,艺术中心,颗粒物(PM10),126,201,107,92,55,10,,69,42,118,47,4,4,2.8,1.3
2024-12-01T0000,2204A,105.6467,38.8363,阿拉善盟,西城区西花园,,44,44,35,27,20,82,,90,69,18,21,10,10,0.7,0.7
2024-12-01T0000,2205A,105.6985,38.8411,阿拉善盟,蒙二幼,,25,22,33,7,10,77,,85,65,14,17,6,7,0.5,0.6
2024-12-01T0000,2206A,105.724,38.8516,阿拉善盟,环保局新楼,,29,14,22,3,8,92,,84,83,6,8,8,8,0.4,0.4
2024-12-01T0000,2708A,88.1264,47.8517,阿勒泰地区,市站,,34,34,24,18,9,12,,65,31,44,25,8,10,0.4,0.2
2024-12-01T0000,2630A,80.1161,32.5,阿里地区,阿里监测站,,,6,9,3,4,,,84,84,8,7,10,8,0.6,0.6
2024-12-01T0000,3192A,80.0903,32.5028,阿里地区,阿里藏医院,,25,13,14,3,7,80,,84,84,2,10,5,11,0.6,0.7
2024-12-01T0000,2642A,109.0318,32.6537,安康市,香溪洞,,46,46,47,29,28,44,,66,60,20,19,10,11,0.5,0.4
2024-12-01T0000,2644A,109.0072,32.6975,安康市,汉滨区检察院,颗粒物(PM10),54,58,53,32,33,16,,48,24,31,31,6,8,0.5,0.5
2024-12-01T0000,4054A,109.0325,32.6913,安康市,市邮政管理局,颗粒物(PM10),59,67,63,40,40,5,,40,12,45,35,18,12,0.8,0.8
2024-12-01T0000,2291A,117.0809,30.5177,安庆市,环科院,细颗粒物(PM2.5),54,56,53,38,28,31,,83,44,53,47,7,7,0.5,0.4
2024-12-01T0000,2292A,117.0331,30.5119,安庆市,马山宾馆,颗粒物(PM10),61,72,57,36,32,50,,81,42,32,46,9,9,0.4,0.4
2024-12-01T0000,2294A,116.9896,30.6145,安庆市,安庆大学,,49,49,54,19,25,78,,88,75,29,33,12,14,0.5,0.5
2024-12-01T0000,3173A,117.0598,30.5351,安庆市,市人大,颗粒物(PM10),62,74,52,36,26,60,,86,62,25,42,7,8,0.6,0.4
2024-12-01T0000,3122A,105.9606,26.2611,安顺市,伍家关,,36,36,40,21,22,70,,96,85,13,11,19,26,0.7,0.7
2024-12-01T0000,3123A,105.9408,26.2431,安顺市,凤凰山,,42,36,32,29,25,49,,83,66,22,15,29,30,0.5,0.4
2024-12-01T0000,3124A,105.9439,26.2564,安顺市,金钟山,,35,29,30,24,25,70,,86,78,11,10,22,31,0.4,0.4
2024-12-01T0000,3125A,105.8983,26.2481,安顺市,娄家坡,,32,31,35,22,26,72,,85,77,8,12,12,25,0.4,0.5
2024-12-01T0000,1818A,114.4839,36.0621,安阳市,棉研所,细颗粒物(PM2.5),130,124,99,99,64,4,,33,10,60,48,13,11,0.9,0.7
2024-12-01T0000,1819A,114.3551,36.1017,安阳市,红庙街,细颗粒物(PM2.5),98,102,89,73,52,4,,36,10,54,49,7,9,1.0,0.9
2024-12-01T0000,1820A,114.361,36.0681,安阳市,银杏小区,细颗粒物(PM2.5),109,124,89,82,51,5,,31,9,53,47,4,6,1.2,0.9
2024-12-01T0000,3141A,114.3922,36.0878,安阳市,信访局,细颗粒物(PM2.5),102,131,94,76,53,5,,31,10,58,49,8,8,1.1,0.8
2024-12-01T0000,3669A,114.4705,36.0637,安阳市,左辅环卫站,细颗粒物(PM2.5),120,131,99,91,64,9,,34,14,53,44,9,8,1.0,0.8
2024-12-01T0000,3703A,114.2917,36.0949,安阳市,安钢职工学校,细颗粒物(PM2.5),115,144,98,87,57,5,,32,11,54,48,8,10,1.2,0.9
2024-12-01T0000,1748A,123.044,41.1196,鞍山市,深沟寺,,35,35,51,21,28,34,,33,18,24,37,8,16,0.7,1.1
2024-12-01T0000,1749A,123.011,41.0931,鞍山市,太阳城,,28,28,46,14,27,46,,37,20,17,36,10,18,0.5,1.1
2024-12-01T0000,1750A,123.0485,41.1442,鞍山市,太平,,32,32,58,16,31,36,,25,15,24,46,9,18,0.7,1.3
2024-12-01T0000,1751A,122.9642,41.0971,鞍山市,铁西三道街,颗粒物(PM10),51,51,72,30,42,6,,25,8,53,50,8,20,0.9,1.3
2024-12-01T0000,1752A,122.9341,41.0833,鞍山市,铁西工业园区,,50,50,73,27,39,6,,29,10,61,52,10,22,0.8,1.4
2024-12-01T0000,1753A,123.022,41.0821,鞍山市,明达新区,,37,37,51,25,32,26,,36,14,27,29,8,15,0.8,1.1
2024-12-01T0000,1754A,123.1289,41.0228,鞍山市,千山,,,,32,,17,,,35,15,,17,,7,,0.7
2024-12-01T0000,2195A,107.4212,40.761,巴彦淖尔市,附二中,,50,50,59,19,19,75,,76,72,10,13,4,4,0.4,0.4
2024-12-01T0000,2196A,107.37,40.7372,巴彦淖尔市,市环保大楼,,49,49,55,21,15,73,,75,68,8,11,3,3,0.3,0.3
2024-12-01T0000,1956A,86.1472,41.7538,巴音郭楞蒙古自治州,孔雀公园,颗粒物(PM10),87,124,126,30,29,10,,60,40,69,52,4,4,0.7,0.6
2024-12-01T0000,1957A,86.1972,41.7166,巴音郭楞蒙古自治州,棉纺厂,颗粒物(PM10),113,176,140,29,20,1,,65,37,78,34,3,3,1.0,0.5
2024-12-01T0000,1958A,86.2357,41.7173,巴音郭楞蒙古自治州,经济开发区,颗粒物(PM10),93,135,119,18,24,31,,66,38,34,28,3,3,0.4,0.3
2024-12-01T0000,2914A,106.7677,31.8794,巴中市,苏山坪,细颗粒物(PM2.5),68,69,67,49,46,84,,97,93,16,18,6,5,0.4,0.5
2024-12-01T0000,3182A,106.7656,31.8545,巴中市,丽阳花园,细颗粒物(PM2.5),73,72,71,53,51,5,,62,24,42,39,3,4,0.7,0.7
2024-12-01T0000,3183A,106.7418,31.8654,巴中市,圣泉水务公司,细颗粒物(PM2.5),85,85,68,63,49,4,,58,20,48,37,2,2,0.5,0.4
2024-12-01T0000,3616A,106.7616,31.8344,巴中市,市中心医院,颗粒物(PM10),76,101,75,14,55,3,,85,23,42,37,2,2,0.7,0.6
2024-12-01T0000,2235A,122.7911,45.6077,白城市,洮北区环保局,细颗粒物(PM2.5),75,,26,55,30,16,,67,39,51,22,5,6,0.9,0.5
2024-12-01T0000,2236A,122.8738,45.5725,白城市,市环保局,,45,36,21,31,21,17,,58,20,53,29,4,4,0.7,0.5
2024-12-01T0000,2231A,126.4219,41.9171,白山市,喜丰,,46,46,52,29,33,12,,38,17,45,38,23,21,0.9,1
2024-12-01T0000,2232A,126.4077,41.9419,白山市,环保局,颗粒物(PM10),59,68,70,39,39,24,,27,16,19,30,6,14,0.7,1
2024-12-01T0000,2647A,104.1724,36.5446,白银市,第三小学,细颗粒物(PM2.5),72,91,66,52,56,5,,57,22,57,50,20,39,1.5,1.6
2024-12-01T0000,2648A,104.1465,36.5482,白银市,动力公司,细颗粒物(PM2.5),64,57,63,46,56,16,,60,27,38,43,7,34,1.4,1.5
2024-12-01T0000,2512A,106.6103,23.9011,百色市,市监测站,,48,48,41,31,24,15,,88,65,51,22,7,11,0.7,0.6
2024-12-01T0000,2513A,106.6538,23.8859,百色市,市中心血站,细颗粒物(PM2.5),104,131,70,78,39,9,,87,46,63,36,21,15,1.2,0.7
2024-12-01T0000,3406A,106.6085,23.8798,百色市,祈福高中,颗粒物(PM10),67,83,61,42,23,8,,79,42,45,29,10,11,0.9,0.8
2024-12-01T0000,2270A,117.396,32.939,蚌埠市,工人疗养院,颗粒物(PM10),59,68,74,39,40,80,,83,68,23,39,7,8,0.4,0.5
2024-12-01T0000,2271A,117.3605,32.9427,蚌埠市,百货大楼,颗粒物(PM10),63,75,78,44,44,74,,78,58,28,42,8,8,0.5,0.6
2024-12-01T0000,2273A,117.4185,32.8911,蚌埠市,蚌埠学院,"颗粒物(PM10),细颗粒物(PM2.5)",57,63,74,40,45,69,,92,64,36,39,8,12,0.4,0.4
2024-12-01T0000,2274A,117.3533,32.9673,蚌埠市,淮上区政府,细颗粒物(PM2.5),65,75,80,47,47,70,,79,56,30,40,10,10,0.4,0.4
2024-12-01T0000,2275A,117.3145,32.8977,蚌埠市,高新区,细颗粒物(PM2.5),78,88,89,57,56,45,,81,57,39,43,11,11,0.5,0.5
2024-12-01T0000,3715A,117.3092,32.9314,蚌埠市,蚌埠田家炳中学,细颗粒物(PM2.5),84,95,92,62,47,50,,81,63,44,45,36,22,0.5,0.5
2024-12-01T0000,1585A,109.8756,40.6532,包头市,市环境监测站,颗粒物(PM10),71,91,74,34,30,9,,54,22,68,56,12,20,1.0,1.3
2024-12-01T0000,1587A,109.9991,40.5842,包头市,包头八中,颗粒物(PM10),78,106,83,39,29,12,,55,23,50,50,7,13,0.4,0.9
2024-12-01T0000,1588A,109.8538,40.6821,包头市,青山宾馆,颗粒物(PM10),64,77,63,30,32,6,,44,19,61,54,14,20,2.6,1.1
2024-12-01T0000,1589A,109.8642,40.6288,包头市,惠龙物流,颗粒物(PM10),79,107,81,46,34,5,,57,22,69,57,11,21,1.3,1.6
2024-12-01T0000,1590A,110.0377,40.5546,包头市,东河鸿龙湾,颗粒物(PM10),68,86,63,22,22,7,,67,26,50,34,9,11,1.2,1.2
2024-12-01T0000,3283A,109.9154,40.5685,包头市,滨河大厦,,48,48,60,10,21,23,,69,40,45,37,10,15,0.7,0.8
2024-12-01T0000,3419A,109.9447,40.6261,包头市,包头市委党校,颗粒物(PM10),72,94,83,25,28,7,,59,26,73,57,9,19,1.4,1.4
2024-12-01T0000,3683A,109.8331,40.6576,包头市,昆区政府,颗粒物(PM10),81,112,70,48,34,5,,50,23,73,51,16,20,1.6,1.2
2024-12-01T0000,1930A,107.185,34.3063,宝鸡市,庙沟村,细颗粒物(PM2.5),99,,30,74,40,62,,91,75,21,18,6,7,0.3,0.3
2024-12-01T0000,1931A,107.0708,34.3017,宝鸡市,竹园沟,,28,28,28,14,18,39,,86,61,29,17,6,6,0.3,0.3
2024-12-01T0000,1932A,107.1906,34.3672,宝鸡市,三陆医院,细颗粒物(PM2.5),72,56,50,52,31,15,,72,27,38,34,4,5,0.8,0.7
2024-12-01T0000,1933A,107.1431,34.3547,宝鸡市,监测站,,44,44,49,29,24,16,,76,40,35,24,6,7,0.7,0.7
2024-12-01T0000,1934A,107.1186,34.3739,宝鸡市,技工学校,颗粒物(PM10),54,58,53,32,27,39,,88,52,17,18,6,8,0.5,0.5
2024-12-01T0000,1935A,107.3906,34.3528,宝鸡市,陈仓区环保局家属楼,细颗粒物(PM2.5),99,111,71,74,41,4,,56,14,54,41,9,38,0.9,0.9
2024-12-01T0000,1936A,107.2058,34.3497,宝鸡市,文理学院,细颗粒物(PM2.5),64,57,46,46,25,21,,81,42,41,30,6,7,0.5,0.4
2024-12-01T0000,1937A,107.2386,34.3622,宝鸡市,三迪小学,细颗粒物(PM2.5),94,77,53,70,33,6,,70,28,66,44,6,6,0.8,0.7
2024-12-01T0000,1051A,115.493,38.8632,保定市,游泳馆,细颗粒物(PM2.5),99,120,87,74,44,7,,21,10,60,93,17,8,0.9,0.7
2024-12-01T0000,1052A,115.5213,38.8959,保定市,华电二区,细颗粒物(PM2.5),87,93,75,64,44,2,,14,5,68,56,10,5,1.0,0.8
2024-12-01T0000,1053A,115.4713,38.9108,保定市,接待中心,细颗粒物(PM2.5),100,107,82,75,50,4,,15,8,64,54,11,3,0.6,0.6
2024-12-01T0000,1054A,115.4612,38.8416,保定市,地表水厂,细颗粒物(PM2.5),104,112,96,78,44,6,,23,9,67,50,18,7,0.7,0.5
2024-12-01T0000,3581A,115.31981,38.95208,保定市,满城区生态环境分局,细颗粒物(PM2.5),79,100,80,58,41,4,,12,7,62,57,3,2,0.9,0.8
2024-12-01T0000,3582A,115.47694,38.76408,保定市,清苑区第二中学,细颗粒物(PM2.5),89,113,73,66,35,8,,30,12,65,47,18,9,0.8,0.5
2024-12-01T0000,3583A,115.62909,39.02311,保定市,徐水物探局,颗粒物(PM10),87,124,96,51,54,2,,24,5,57,46,12,10,0.6,0.6
2024-12-01T0000,4004A,115.4202,38.8656,保定市,双鹰农机,细颗粒物(PM2.5),100,113,79,75,45,10,,30,12,66,49,13,5,0.9,0.6
2024-12-01T0000,4034A,115.5150,38.8590,保定市,植保所站,细颗粒物(PM2.5),103,115,94,77,49,4,,17,7,74,58,10,7,1.0,0.7
2024-12-01T0000,2594A,99.1678,25.1081,保山市,市环境监测站,,25,25,27,13,11,46,,72,54,6,9,4,5,0.2,0.2
2024-12-01T0000,2595A,99.1711,25.1328,保山市,市环保局,,,,19,,13,,,46,,,4,,4,,0.4
2024-12-01T0000,1866A,109.2262,21.588,北海市,牛尾岭水库,细颗粒物(PM2.5),63,47,43,45,33,76,,130,101,11,10,11,8,0.6,0.6
2024-12-01T0000,1867A,109.1436,21.4086,北海市,海滩公园,,48,48,49,27,28,118,,154,136,20,22,11,14,0.7,0.6
2024-12-01T0000,1868A,109.0981,21.4661,北海市,新市环保局,细颗粒物(PM2.5),83,65,50,61,33,62,,150,124,54,26,8,12,0.9,0.6
2024-12-01T0000,1869A,109.1778,21.5233,北海市,北海工业园,细颗粒物(PM2.5),80,85,62,59,42,46,,149,107,46,27,9,18,0.8,0.6
2024-12-01T0000,3400A,109.1911,21.4415,北海市,龙潭自来水厂,细颗粒物(PM2.5),88,75,57,65,42,54,,141,90,20,24,10,15,0.9,0.7
2024-12-01T0000,1001A,116.3621,39.8784,北京市,万寿西宫,细颗粒物(PM2.5),72,91,64,52,31,0,,29,5,75,75,4,4,0.6,0.6
2024-12-01T0000,1002A,116.2202,40.2915,北京市,定陵,,31,31,25,15,12,4,,38,7,24,20,4,4,0.4,0.4
2024-12-01T0000,1003A,116.4174,39.9289,北京市,东四,颗粒物(PM10),70,89,52,45,25,1,,37,12,73,59,5,3,0.7,0.8
2024-12-01T0000,1004A,116.4072,39.8863,北京市,天坛,颗粒物(PM10),58,66,47,37,24,3,,36,11,51,47,3,3,0.6,0.5
2024-12-01T0000,1005A,116.462,39.9365,北京市,农展馆,颗粒物(PM10),66,81,50,33,22,5,,44,17,71,58,6,6,1.1,0.7
2024-12-01T0000,1006A,116.3392,39.9295,北京市,官园,颗粒物(PM10),63,76,53,38,25,0,,34,12,75,61,4,3,1.3,0.9
2024-12-01T0000,1007A,116.2878,39.9611,北京市,海淀万柳,颗粒物(PM10),65,80,61,28,22,7,,33,13,47,46,3,4,0.9,0.8
2024-12-01T0000,1008A,116.6636,40.135,北京市,顺义新城,颗粒物(PM10),65,80,45,39,21,2,,38,7,56,49,3,2,0.6,0.5
2024-12-01T0000,1009A,116.6275,40.3275,北京市,怀柔镇,,36,36,27,22,15,19,,37,17,22,35,3,3,0.4,0.4
2024-12-01T0000,1010A,116.2296,40.217,北京市,昌平镇,,39,39,32,17,13,20,,40,18,25,27,5,6,0.4,0.4
2024-12-01T0000,1011A,116.3966,39.9821,北京市,奥体中心,颗粒物(PM10),63,75,48,34,20,2,,34,13,75,59,4,3,1.4,0.9
2024-12-01T0000,1012A,116.184,39.9136,北京市,古城,颗粒物(PM10),66,82,66,29,26,2,,33,7,51,47,5,5,0.9,0.8
2024-12-01T0000,3281A,115.9718,40.4529,北京市,延庆夏都,,46,46,35,21,17,0,,52,13,35,24,1,2,0.4,0.4
2024-12-01T0000,3417A,117.0709,40.1465,北京市,平谷新城,颗粒物(PM10),55,60,37,32,19,3,,31,7,28,26,3,2,0.7,0.4
2024-12-01T0000,3418A,116.8336,40.4095,北京市,密云新城,,31,31,23,12,10,13,,48,20,22,20,3,2,0.3,0.2
2024-12-01T0000,3671A,116.088,39.9726,北京市,门头沟三家店,颗粒物(PM10),55,59,51,19,15,4,,31,7,44,48,8,9,0.3,0.4
2024-12-01T0000,3672A,116.1541,39.8204,北京市,丰台云岗,颗粒物(PM10),55,60,47,24,22,0,,32,8,59,44,3,3,0.4,0.3
2024-12-01T0000,3673A,116.6804,39.9081,北京市,通州东关,细颗粒物(PM2.5),85,118,66,63,31,0,,35,8,76,57,5,4,0.7,0.5
2024-12-01T0000,3674A,115.9577,39.7603,北京市,房山燕山,颗粒物(PM10),51,51,35,32,18,10,,40,19,31,24,1,2,0.4,0.3
2024-12-01T0000,3675A,116.4672,39.7733,北京市,大兴旧宫,颗粒物(PM10),69,87,49,46,23,2,,40,14,71,46,2,1,0.6,0.4
2024-12-01T0000,3694A,115.986,40.4563,北京市,延庆石河营,,44,44,34,23,16,2,,50,11,37,26,3,2,0.5,0.5
2024-12-01T0000,3695A,116.6151,40.3053,北京市,怀柔新城,,36,36,25,20,13,23,,33,23,20,25,3,3,0.3,0.3
2024-12-01T0000,3696A,116.2545,39.8768,北京市,丰台小屯,颗粒物(PM10),77,103,73,36,26,2,,31,4,83,68,4,4,0.8,0.6
2024-12-01T0000,3697A,116.84,40.3844,北京市,密云镇,,43,43,38,17,15,0,,39,4,44,39,4,3,0.4,0.4
2024-12-01T0000,1761A,123.8275,41.3064,本溪市,大峪,,35,32,58,24,39,7,,36,20,51,41,10,15,1.4,2.5
2024-12-01T0000,1762A,123.7567,41.3325,本溪市,溪湖,细颗粒物(PM2.5),69,78,73,50,47,6,,33,10,43,42,8,13,2.0,2
2024-12-01T0000,1763A,123.7169,41.3094,本溪市,彩屯,细颗粒物(PM2.5),85,84,83,63,62,6,,33,7,45,43,9,17,2.4,2.6
2024-12-01T0000,1764A,123.7669,41.2864,本溪市,东明,细颗粒物(PM2.5),52,49,70,36,49,6,,35,10,50,48,9,15,1.4,2
2024-12-01T0000,1765A,123.7992,41.2664,本溪市,新立屯,,21,,44,14,19,16,,37,14,41,45,5,11,0.6,1.4
2024-12-01T0000,1766A,123.8142,41.3472,本溪市,威宁,颗粒物(PM10),61,71,78,34,41,7,,28,8,40,41,8,11,1.3,1.4
2024-12-01T0000,2587A,105.2864,27.3125,毕节市,八中,细颗粒物(PM2.5),148,144,82,113,61,30,,74,46,17,17,7,8,0.9,0.6
2024-12-01T0000,2588A,105.31,27.2944,毕节市,师专,细颗粒物(PM2.5),172,149,69,130,58,10,,74,41,36,19,6,7,1.3,0.8
2024-12-01T0000,3537A,105.3631,27.3533,毕节市,长征村,细颗粒物(PM2.5),108,87,56,81,52,57,,82,68,11,10,10,9,0.7,0.5
2024-12-01T0000,1629A,118.0018,37.3617,滨州市,第二水厂,细颗粒物(PM2.5),89,124,80,66,37,2,,54,15,94,59,22,14,0.9,0.7
2024-12-01T0000,1630A,117.9776,37.393,滨州市,北中新校,细颗粒物(PM2.5),85,110,91,63,41,6,,44,11,92,61,17,27,1.0,1.1
2024-12-01T0000,3514A,117.9378,37.3956,滨州市,中海酒店,细颗粒物(PM2.5),92,102,79,68,43,6,,53,14,81,52,20,15,0.8,0.7
2024-12-01T0000,3515A,117.9378,37.3553,滨州市,开发区一中,细颗粒物(PM2.5),89,124,82,66,35,7,,58,20,95,63,27,16,1.0,0.8
2024-12-01T0000,3516A,118.0917,37.694,滨州市,金海六路,颗粒物(PM10),74,98,86,46,38,7,,61,14,73,50,18,11,1.0,0.8
2024-12-01T0000,4028A,117.9956,37.3753,滨州市,滨州市西街道办事处,细颗粒物(PM2.5),94,107,84,70,45,4,,51,8,80,53,19,13,1.1,0.9
2024-12-01T0000,2311A,115.8072,33.8399,亳州市,污水处理厂,颗粒物(PM10),63,76,75,38,33,68,,67,57,20,39,11,9,0.5,0.5
2024-12-01T0000,2312A,115.7789,33.8518,亳州市,三国揽胜宫,颗粒物(PM10),63,75,75,43,39,73,,77,71,22,35,14,9,0.5,0.5
2024-12-01T0000,3332A,115.7633,33.8034,亳州市,亳州学院,细颗粒物(PM2.5),75,92,76,55,38,71,,81,75,18,27,6,10,0.5,0.4
2024-12-01T0000,2693A,82.0485,44.8556,博尔塔拉蒙古自治州,市党校,颗粒物(PM10),60,69,67,39,47,2,,11,4,21,20,4,5,0.5,0.6
2024-12-01T0000,2694A,82.0806,44.8969,博尔塔拉蒙古自治州,市环保局,颗粒物(PM10),68,86,98,33,46,2,,8,3,27,26,5,4,0.5,0.5
2024-12-01T0000,1071A,116.8842,38.2991,沧州市,沧县城建局,细颗粒物(PM2.5),89,92,84,66,50,20,,39,25,51,53,8,8,0.8,0.8
2024-12-01T0000,1072A,116.8584,38.3254,沧州市,电视转播站,细颗粒物(PM2.5),89,89,80,66,44,29,,48,29,45,51,9,7,0.6,0.6
2024-12-01T0000,1073A,116.8709,38.3228,沧州市,市环保局,细颗粒物(PM2.5),98,110,82,73,50,20,,41,20,50,53,15,13,0.7,0.6
2024-12-01T0000,3324A,116.8136,38.3004,沧州市,河北水利电力学院,细颗粒物(PM2.5),94,124,92,70,49,9,,45,22,61,48,17,13,0.7,0.5
2024-12-01T0000,2622A,97.1806,31.1273,昌都市,昌都监测站,,50,50,35,18,15,20,,68,31,42,28,6,7,1.0,0.9
2024-12-01T0000,3719A,97.1714,31.1406,昌都市,昌都会议中心,,19,17,15,13,9,39,,70,50,18,11,5,5,0.6,0.5
2024-12-01T0000,2690A,88.1236,43.8886,昌吉回族自治州,天山天池,,22,,1,3,1,69,,75,67,1,1,9,9,0.4,0.4
2024-12-01T0000,2692A,87.2717,44.0297,昌吉回族自治州,新区政务中心,细颗粒物(PM2.5),114,151,124,86,80,2,,22,10,46,40,4,4,1.5,1.5
2024-12-01T0000,3613A,87.3095,44.0142,昌吉回族自治州,亚心广场,细颗粒物(PM2.5),156,166,137,119,101,6,,22,11,49,47,7,8,1.3,1.3
2024-12-01T0000,1119A,125.3325,43.9166,长春市,食品厂,细颗粒物(PM2.5),113,87,50,85,50,5,,36,11,68,52,12,13,1.1,0.8
2024-12-01T0000,1120A,125.2863,43.9027,长春市,客车厂,细颗粒物(PM2.5),134,,52,102,55,8,,42,12,74,52,10,16,1.1,0.7
2024-12-01T0000,1121A,125.2841,43.8463,长春市,邮电学院,细颗粒物(PM2.5),128,99,54,97,54,6,,49,12,66,53,10,18,1.0,0.8
2024-12-01T0000,1122A,125.3716,43.8772,长春市,劳动公园,细颗粒物(PM2.5),132,105,48,100,44,12,,56,24,80,51,10,17,1.5,0.9
2024-12-01T0000,1123A,125.3297,43.8805,长春市,园林处,细颗粒物(PM2.5),117,,49,88,48,10,,44,18,68,49,15,18,1.1,0.8
2024-12-01T0000,1124A,125.4605,43.79,长春市,净月潭,细颗粒物(PM2.5),69,62,41,50,35,33,,48,32,19,27,7,9,0.6,0.6
2024-12-01T0000,1125A,125.7194,43.515,长春市,甩湾子,,,,,,,,,,,,,,,,
2024-12-01T0000,1126A,125.3863,43.8447,长春市,经开区环卫处,细颗粒物(PM2.5),104,82,51,78,41,5,,40,11,68,55,14,20,1.1,0.8
2024-12-01T0000,1127A,125.245,43.7783,长春市,高新区管委会,,,,52,,53,,,51,19,,50,,9,,0.8
2024-12-01T0000,1128A,125.1761,43.8325,长春市,岱山公园,细颗粒物(PM2.5),92,82,56,68,58,5,,56,19,72,44,8,9,1.0,0.8
2024-12-01T0000,1335A,113.0833,28.2325,长沙市,经开区环保局,颗粒物(PM10),64,77,68,40,33,25,,92,66,62,41,7,5,0.6,0.5
2024-12-01T0000,1336A,112.8872,28.2189,长沙市,高开区环保局,颗粒物(PM10),51,52,78,25,36,64,,92,81,24,37,9,8,0.6,0.9
2024-12-01T0000,1337A,113.0792,28.2053,长沙市,马坡岭,细颗粒物(PM2.5),73,84,68,53,37,11,,90,49,59,32,7,5,0.9,0.7
2024-12-01T0000,1338A,112.9394,28.19,长沙市,湖南师范大学,颗粒物(PM10),53,56,72,23,34,53,,86,62,30,42,8,9,0.4,0.7
2024-12-01T0000,1339A,113.0178,28.1322,长沙市,雨花区环保局,颗粒物(PM10),55,60,60,38,33,10,,92,64,84,36,7,7,0.5,0.4
2024-12-01T0000,1340A,112.9792,28.2597,长沙市,伍家岭,颗粒物(PM10),85,120,81,61,36,1,,78,40,64,41,4,5,1.0,0.8
2024-12-01T0000,1341A,113.0014,28.1944,长沙市,火车新站,细颗粒物(PM2.5),73,82,70,53,38,8,,80,51,94,48,6,4,0.9,0.6
2024-12-01T0000,1342A,112.9844,28.1178,长沙市,天心区环保局,颗粒物(PM10),51,52,71,30,35,52,,91,73,39,37,6,6,0.6,0.8
2024-12-01T0000,1343A,112.8908,28.1308,长沙市,湖南中医药大学,颗粒物(PM10),59,68,74,36,36,3,,92,46,82,47,7,9,0.6,0.8
2024-12-01T0000,1344A,112.9581,28.3611,长沙市,沙坪,细颗粒物(PM2.5),60,47,42,43,32,41,,85,62,39,26,10,8,0.7,0.6
2024-12-01T0000,1727A,113.1147,36.1547,长治市,清华站,颗粒物(PM10),58,65,58,36,25,10,,48,21,56,42,13,12,0.8,0.6
2024-12-01T0000,1728A,113.1031,36.1989,长治市,监测站,颗粒物(PM10),54,57,51,34,25,10,,44,19,42,35,17,15,0.9,0.8
2024-12-01T0000,1730A,113.0886,36.2125,长治市,审计局,颗粒物(PM10),53,55,55,36,27,14,,36,28,56,42,13,11,0.8,0.7
2024-12-01T0000,1731A,113.0844,36.1856,长治市,长治八中,细颗粒物(PM2.5),73,71,75,53,35,12,,44,18,53,49,15,12,0.8,0.6
2024-12-01T0000,2845A,113.1569,36.1911,长治市,德盛苑,,39,39,32,27,17,49,,53,48,19,20,10,8,0.9,0.8
2024-12-01T0000,3568A,113.06,36.0464,长治市,向阳小学,颗粒物(PM10),57,63,61,39,26,37,,57,46,27,28,15,11,0.8,0.7
2024-12-01T0000,3569A,112.8792,36.3144,长治市,屯留一中,,48,44,35,33,23,41,,56,49,43,32,14,11,1.2,0.8
2024-12-01T0000,3570A,113.235,36.3489,长治市,潞城四中,细颗粒物(PM2.5),64,66,64,46,34,12,,49,31,51,34,19,21,1.1,1
2024-12-01T0000,1854A,111.6975,28.9703,常德市,市二中,细颗粒物(PM2.5),94,102,62,70,43,8,,76,60,53,27,5,6,0.7,0.6
2024-12-01T0000,1857A,111.7158,29.1456,常德市,白鹤山,,,,,,,,,,,,,,,,
2024-12-01T0000,3138A,111.7153,29.0289,常德市,武陵区永安,细颗粒物(PM2.5),85,91,68,63,44,37,,86,76,41,23,8,9,0.9,0.6
2024-12-01T0000,3139A,111.6892,28.9881,常德市,鼎城区玉霞,细颗粒物(PM2.5),93,112,71,69,43,3,,82,64,50,25,3,5,0.8,0.6
2024-12-01T0000,3140A,111.6625,29.0531,常德市,武陵区长庚,细颗粒物(PM2.5),89,99,68,66,42,10,,85,68,59,23,4,7,0.7,0.5
2024-12-01T0000,1196A,119.9633,31.762,常州市,市监测站,细颗粒物(PM2.5),98,131,87,73,44,9,,76,29,94,56,11,12,1.1,0.8
2024-12-01T0000,1200A,119.9468,31.7069,常州市,武进监测站,细颗粒物(PM2.5),69,77,68,50,40,49,,81,51,48,49,8,11,0.6,0.7
2024-12-01T0000,1201A,119.9255,31.9087,常州市,安家,细颗粒物(PM2.5),88,104,84,65,47,6,,72,17,92,65,10,14,1.0,0.8
2024-12-01T0000,3002A,119.9805,31.8174,常州市,行政中心,细颗粒物(PM2.5),64,71,60,46,36,55,,72,54,51,48,14,13,1.0,0.7
2024-12-01T0000,3003A,120.0522,31.7748,常州市,经开区,细颗粒物(PM2.5),95,110,74,71,36,9,,82,35,98,58,13,14,1.2,0.9
2024-12-01T0000,3010A,119.9025,31.7964,常州市,钟楼,细颗粒物(PM2.5),82,105,74,60,40,14,,80,29,90,60,10,11,1.1,0.9
2024-12-01T0000,3429A,119.8598,31.7066,常州市,武进经发区,细颗粒物(PM2.5),95,115,80,71,41,32,,82,45,67,46,18,13,0.7,0.7
2024-12-01T0000,3430A,119.5826,31.7245,常州市,金坛城区,"颗粒物(PM10),细颗粒物(PM2.5)",62,73,71,44,40,52,,85,64,45,33,12,12,0.7,0.7
2024-12-01T0000,2220A,120.4318,41.5881,朝阳市,西梁,颗粒物(PM10),69,87,63,22,32,4,,50,13,43,38,11,13,0.9,1.2
2024-12-01T0000,2221A,120.4521,41.5646,朝阳市,河畔小区,颗粒物(PM10),68,86,37,47,22,5,,57,22,39,24,13,11,1.7,1.2
2024-12-01T0000,2222A,120.4176,41.5648,朝阳市,八里堡,细颗粒物(PM2.5),79,101,69,58,37,6,,53,14,46,40,14,13,1.7,1.2
2024-12-01T0000,2223A,120.3806,41.5969,朝阳市,农业园区,,28,,39,19,28,26,,57,25,28,33,9,11,0.9,1
2024-12-01T0000,1705A,116.6367,23.6719,潮州市,西园路,细颗粒物(PM2.5),53,52,45,37,25,58,,109,82,19,18,5,6,0.5,0.4
2024-12-01T0000,3026A,116.6183,23.6608,潮州市,市政府,细颗粒物(PM2.5),60,61,45,43,22,64,,110,84,24,18,9,8,0.8,0.6
2024-12-01T0000,4036A,116.6461,23.6761,潮州市,金山,颗粒物(PM10),51,52,42,33,23,58,,116,84,18,13,6,7,0.7,0.6
2024-12-01T0000,2472A,113.0073,25.9061,郴州市,马头岭,颗粒物(PM10),57,64,57,32,23,14,,44,24,43,32,17,17,0.8,0.7
2024-12-01T0000,2473A,113.0116,25.8226,郴州市,市职中,颗粒物(PM10),72,93,75,50,43,1,,30,,27,36,5,20,0.9,0.9
2024-12-01T0000,2474A,113.0161,25.8001,郴州市,兴隆步行街,细颗粒物(PM2.5),79,103,90,58,46,2,,14,6,29,39,7,17,1.1,0.8
2024-12-01T0000,2475A,113.0383,25.8071,郴州市,市审计局,细颗粒物(PM2.5),67,81,69,48,39,2,,16,5,40,38,7,13,0.9,1
2024-12-01T0000,2476A,113.0348,25.7759,郴州市,市环保局,细颗粒物(PM2.5),80,102,81,59,47,7,,16,9,41,42,5,12,0.8,0.8
2024-12-01T0000,1431A,103.9728,30.7236,成都市,金泉两河,颗粒物(PM10),59,67,64,40,40,1,,77,34,68,43,2,2,1.4,1
2024-12-01T0000,1432A,104.176,30.6872,成都市,十里店,,43,43,60,29,40,51,,92,61,47,47,3,3,0.4,0.5
2024-12-01T0000,1433A,104.079,30.5706,成都市,三瓦窑,颗粒物(PM10),62,73,72,39,44,4,,88,43,85,47,2,3,0.7,0.6
2024-12-01T0000,1434A,104.1114,30.63,成都市,沙河铺,颗粒物(PM10),59,68,67,41,46,13,,86,46,65,41,3,4,0.8,0.6
2024-12-01T0000,1437A,104.0786,30.6531,成都市,君平街,细颗粒物(PM2.5),72,68,66,52,49,16,,90,59,78,50,3,4,0.8,0.7
2024-12-01T0000,1438A,103.613,31.0283,成都市,灵岩寺,,,,,,,,,,,,,,,,
2024-12-01T0000,2880A,104.0239,30.65639,成都市,大石西路,细颗粒物(PM2.5),77,57,69,56,46,1,,88,50,76,44,4,5,0.8,0.6
2024-12-01T0000,3136A,104.2725,30.5589,成都市,龙泉驿区区政府,,48,48,55,31,40,93,,95,91,12,20,5,4,0.3,0.5
2024-12-01T0000,3357A,104.0106,30.6931,成都市,金博路,细颗粒物(PM2.5),55,58,62,39,43,3,,80,41,78,45,2,2,0.9,0.6
2024-12-01T0000,3359A,104.0578,30.5225,成都市,华阳,颗粒物(PM10),57,63,67,39,41,32,,84,46,47,35,2,2,0.8,0.8
2024-12-01T0000,3487A,104.2394,30.5319,成都市,车城东七路,,40,40,60,26,39,88,,97,90,19,25,6,4,0.2,0.4
2024-12-01T0000,3488A,104.3853,30.7453,成都市,青白江技师分院,颗粒物(PM10),52,53,53,35,36,38,,95,69,56,35,6,7,0.6,0.6
2024-12-01T0000,3489A,104.0789,30.4072,成都市,科学城,细颗粒物(PM2.5),55,53,55,39,44,12,,94,65,46,24,4,5,0.6,0.6
2024-12-01T0000,4011A,103.8506,30.6947,成都市,光华大道三段,细颗粒物(PM2.5),80,100,79,59,54,4,,76,30,81,50,2,2,0.8,0.8
2024-12-01T0000,1062A,117.9531,40.9081,承德市,铁路,颗粒物(PM10),51,52,43,19,22,2,,30,4,34,36,6,8,1.0,0.7
2024-12-01T0000,1063A,117.9392,40.9763,承德市,中国银行,颗粒物(PM10),59,68,44,39,22,2,,35,4,30,26,2,4,0.9,0.7
2024-12-01T0000,1064A,117.9503,40.928,承德市,开发区,颗粒物(PM10),57,64,60,28,24,4,,33,4,33,34,7,8,0.9,0.6
2024-12-01T0000,1065A,117.8051,40.9655,承德市,文化中心,颗粒物(PM10),51,52,50,34,21,3,,42,5,39,37,4,9,0.8,0.7
2024-12-01T0000,1066A,117.9268,41.0026,承德市,离宫,颗粒物(PM10),63,76,33,37,24,2,,40,15,40,23,3,4,0.4,0.4
2024-12-01T0000,2314A,117.47,30.6618,池州市,池州学院,颗粒物(PM10),51,51,52,32,26,51,,97,76,28,22,8,9,0.5,0.6
2024-12-01T0000,3237A,117.4918,30.6617,池州市,展览馆,,50,50,52,24,21,41,,92,53,33,28,6,6,0.6,0.6
2024-12-01T0000,3333A,117.5627,30.695,池州市,第八中学,颗粒物(PM10),52,53,54,28,26,40,,95,73,40,23,6,8,0.4,0.5
2024-12-01T0000,3334A,117.5038,30.6243,池州市,第十二中学,,42,42,52,22,26,57,,90,58,21,26,7,6,0.7,0.8
2024-12-01T0000,1744A,118.9233,42.2816,赤峰市,松山一中,颗粒物(PM10),74,98,40,38,14,7,,58,14,46,32,19,27,1.2,0.7
2024-12-01T0000,1745A,118.9576,42.2728,赤峰市,哈达街,细颗粒物(PM2.5),77,73,31,56,14,12,,65,23,37,27,17,26,1.1,0.7
2024-12-01T0000,1746A,118.8788,42.2554,赤峰市,天义路,颗粒物(PM10),54,58,24,31,11,4,,60,15,45,27,8,10,0.8,0.4
2024-12-01T0000,3058A,119.2658,42.0353,赤峰市,银河街,颗粒物(PM10),57,64,32,28,19,10,,61,26,48,28,24,17,1.4,0.9
2024-12-01T0000,3286A,118.9359,42.3147,赤峰市,桥北物流园区,细颗粒物(PM2.5),58,63,25,41,16,4,,68,13,41,29,12,12,1.2,0.9
2024-12-01T0000,2521A,107.3476,22.4136,崇左市,市环保局江州分局,颗粒物(PM10),80,110,73,47,31,15,,136,68,49,27,4,7,0.8,0.7
2024-12-01T0000,2522A,107.3702,22.3707,崇左市,城南新区,细颗粒物(PM2.5),59,63,51,42,32,22,,137,87,57,30,6,8,0.8,0.6
2024-12-01T0000,2298A,118.3093,32.3153,滁州市,老年大学,颗粒物(PM10),67,83,63,46,33,42,,95,66,53,38,16,14,0.6,0.5
2024-12-01T0000,2299A,118.3244,32.2786,滁州市,人大宾馆,细颗粒物(PM2.5),70,85,64,51,40,36,,88,38,70,53,10,9,0.7,0.6
2024-12-01T0000,3207A,118.3118,32.3038,滁州市,市政府原办公楼,细颗粒物(PM2.5),69,74,53,50,35,41,,89,56,55,42,8,6,0.8,0.7
2024-12-01T0000,3331A,118.3267,32.2634,滁州市,图书馆,颗粒物(PM10),67,83,61,44,32,39,,95,66,56,36,9,7,0.5,0.4
2024-12-01T0000,2605A,101.5482,25.0441,楚雄彝族自治州,州环境监测站,,26,22,9,18,6,9,,56,41,34,7,8,8,0.6,0.5
2024-12-01T0000,2606A,101.538,25.0492,楚雄彝族自治州,市经济开发区,,41,41,13,26,8,9,,56,41,34,8,6,5,0.8,0.5
2024-12-01T0000,2548A,107.5277,31.2827,达州市,达州职业技术学院,细颗粒物(PM2.5),100,102,92,75,65,5,,45,14,41,40,8,9,1.2,1.2
2024-12-01T0000,2549A,107.5086,31.2186,达州市,市环境监测站,细颗粒物(PM2.5),83,94,92,61,53,4,,53,20,55,50,5,8,0.9,1.1
2024-12-01T0000,2550A,107.4988,31.2132,达州市,凤凰小区,细颗粒物(PM2.5),79,88,92,58,58,5,,53,18,56,49,7,11,0.8,1.1
2024-12-01T0000,2551A,107.5082,31.1986,达州市,达县机关宾馆,细颗粒物(PM2.5),93,92,96,69,65,3,,45,9,56,54,6,8,0.9,1
2024-12-01T0000,2552A,107.4644,31.2124,达州市,市政中心,细颗粒物(PM2.5),79,85,94,58,55,4,,50,17,63,56,6,12,1.0,1.3
2024-12-01T0000,2614A,100.1542,25.7054,大理白族自治州,大理市环境监测站,,22,22,24,13,16,61,,75,71,13,8,6,6,0.5,0.5
2024-12-01T0000,2615A,100.2171,25.5811,大理白族自治州,大理古城,,31,31,21,14,10,44,,88,49,24,16,5,5,0.4,0.5
2024-12-01T0000,1109A,121.612,38.9741,大连市,甘井子,细颗粒物(PM2.5),54,51,31,38,14,7,,67,27,42,28,8,8,0.8,0.5
2024-12-01T0000,1110A,121.565,38.9511,大连市,周水子,,49,45,28,34,17,4,,58,9,62,38,21,13,1.2,0.7
2024-12-01T0000,1111A,121.5637,38.8845,大连市,星海三站,,34,34,24,22,11,4,,71,26,51,26,9,9,1.0,0.6
2024-12-01T0000,1112A,121.6302,38.9117,大连市,青泥洼桥,,42,42,29,25,15,7,,52,12,41,25,11,11,0.7,0.6
2024-12-01T0000,1113A,121.6251,38.8638,大连市,傅家庄,,23,23,21,15,9,28,,69,44,43,22,17,19,0.7,0.7
2024-12-01T0000,1114A,121.5213,38.8661,大连市,七贤岭,,21,21,18,9,8,26,,78,35,21,16,5,8,0.6,0.6
2024-12-01T0000,1115A,121.2529,38.8061,大连市,旅顺,,21,21,21,12,11,46,,68,46,21,17,11,10,0.8,0.7
2024-12-01T0000,1116A,121.7485,39.1311,大连市,金州,,37,37,35,23,16,17,,59,24,33,28,9,10,0.9,0.7
2024-12-01T0000,1117A,121.7811,39.0496,大连市,开发区,,43,43,42,23,21,32,,51,19,39,43,12,12,0.7,0.7
2024-12-01T0000,1118A,121.9762,39.0631,大连市,双D港,,38,26,23,26,11,54,,71,58,16,20,9,9,0.6,0.6
2024-12-01T0000,1789A,124.81117,46.03138,大庆市,大同区,细颗粒物(PM2.5),72,58,44,52,40,40,,54,40,24,23,12,7,0.7,0.6
2024-12-01T0000,1790A,125.129,46.533,大庆市,龙凤区,,40,40,35,23,24,12,,46,18,61,41,9,9,0.8,0.7
2024-12-01T0000,1791A,124.902,46.408,大庆市,红岗区,,35,24,27,24,22,49,,48,35,15,22,9,7,0.4,0.5
2024-12-01T0000,1792A,125.153,46.586,大庆市,萨尔图区,细颗粒物(PM2.5),53,,35,37,25,39,,44,19,33,42,7,7,0.6,0.6
2024-12-01T0000,1793A,124.9042,46.6215,大庆市,让胡路区,,45,,31,31,31,28,,47,19,34,31,5,7,0.3,0.5
2024-12-01T0000,3481A,125.141,46.634,大庆市,萨区政府监测点,,13,13,21,7,15,40,,46,21,24,32,7,7,0.4,0.6
2024-12-01T0000,1721A,113.3819,40.1097,大同市,果树场,,45,42,58,31,31,6,,38,16,57,47,11,13,1.4,1.4
2024-12-01T0000,1723A,113.2994,40.0758,大同市,云冈宾馆,颗粒物(PM10),53,55,53,30,24,10,,42,31,50,39,12,15,1.1,1.2
2024-12-01T0000,1724A,113.3444,40.0917,大同市,大同大学,,47,47,52,22,20,9,,42,25,53,42,18,20,0.7,0.7
2024-12-01T0000,1725A,113.2661,40.1269,大同市,安家小村,,44,44,54,15,16,36,,50,44,28,31,17,22,0.5,1.2
2024-12-01T0000,1726A,113.2711,40.0844,大同市,教育学院,颗粒物(PM10),51,51,68,15,27,12,,37,22,54,47,16,16,0.7,1.3
2024-12-01T0000,3282A,113.3397,40.0597,大同市,大同市卫生学校,颗粒物(PM10),53,55,67,27,27,6,,33,15,64,53,11,17,0.9,0.9
2024-12-01T0000,3565A,113.1367,40.1122,大同市,云冈站,颗粒物(PM10),55,59,40,22,14,6,,62,32,45,27,26,18,0.5,0.4
2024-12-01T0000,3566A,113.1186,40.2556,大同市,图书馆,,23,23,27,16,20,20,,56,37,18,14,10,16,0.4,0.5
2024-12-01T0000,3567A,113.5931,40.0461,大同市,区一中,颗粒物(PM10),62,73,76,25,20,3,,42,10,70,50,25,37,1.1,0.9
2024-12-01T0000,3676A,113.2802,40.0995,大同市,第二人民医院,,42,42,60,20,22,22,,48,43,50,39,18,19,0.6,1.1
2024-12-01T0000,2269A,124.1069,50.4097,大兴安岭地区,科技局,,23,,17,16,14,53,,64,57,7,8,6,6,0.4,0.4
2024-12-01T0000,3663A,124.1164,50.4278,大兴安岭地区,红旗社区,,38,34,12,26,9,34,,61,46,17,11,6,3,0.7,0.5
2024-12-01T0000,1600A,124.3303,40.0625,丹东市,江湾东路,细颗粒物(PM2.5),149,162,112,114,82,5,,27,8,49,41,35,29,3.2,2.3
2024-12-01T0000,1601A,124.4256,40.1503,丹东市,临江后街,细颗粒物(PM2.5),133,123,86,101,71,4,,25,6,43,38,9,12,2.3,1.6
2024-12-01T0000,1602A,124.3933,40.1461,丹东市,元宝山,细颗粒物(PM2.5),70,66,72,51,52,10,,28,17,37,32,10,10,1.2,1.3
2024-12-01T0000,1603A,124.3633,40.1092,丹东市,民主桥,颗粒物(PM10),67,84,82,45,52,4,,22,6,39,41,9,12,1.4,1.4
2024-12-01T0000,3541A,109.5726,19.5167,儋州市,第一中学子站,颗粒物(PM10),51,52,41,31,19,124,,142,140,13,11,6,6,0.5,0.4
2024-12-01T0000,3542A,109.5567,19.5187,儋州市,东坡学校子站,,49,49,37,30,20,137,,153,152,13,10,7,7,0.6,0.5
2024-12-01T0000,2616A,98.5842,24.428,德宏傣族景颇族自治州,德宏州监测站,,27,27,38,17,24,40,,71,54,17,21,5,9,0.6,0.6
2024-12-01T0000,3677A,98.5881,24.4368,德宏傣族景颇族自治州,芒市人民政府综合楼,,33,33,41,17,23,36,,68,52,11,15,6,8,0.4,0.5
2024-12-01T0000,1901A,104.4239,31.1208,德阳市,东山公园,细颗粒物(PM2.5),85,93,95,63,54,89,,112,102,21,30,2,3,0.5,0.6
2024-12-01T0000,1902A,104.3826,31.1317,德阳市,西小区,细颗粒物(PM2.5),119,100,83,90,65,2,,90,59,78,46,3,4,0.9,0.8
2024-12-01T0000,1904A,104.3553,31.1091,德阳市,耐火材料厂,细颗粒物(PM2.5),104,106,84,78,63,4,,98,64,65,41,4,6,0.8,0.7
2024-12-01T0000,3639A,104.4019,31.1244,德阳市,市教育局,细颗粒物(PM2.5),93,81,73,69,58,3,,96,64,83,41,3,4,0.9,0.7
2024-12-01T0000,1622A,116.3032,37.4674,德州市,儿童乐园,细颗粒物(PM2.5),77,97,101,56,50,42,,52,44,43,53,15,13,0.8,0.7
2024-12-01T0000,1624A,116.2991,37.4451,德州市,监理站,细颗粒物(PM2.5),79,85,91,58,50,46,,54,46,43,54,16,12,0.8,0.7
2024-12-01T0000,3066A,116.2721,37.4379,德州市,九衢泉纯净水厂,,,,103,,53,,,47,34,,54,,15,,0.8
2024-12-01T0000,3371A,116.3728,37.4403,德州市,开发区人民医院,细颗粒物(PM2.5),92,110,99,68,51,12,,53,25,72,57,14,13,0.9,0.7
2024-12-01T0000,3372A,116.3572,37.4094,德州市,太阳城中学,细颗粒物(PM2.5),94,114,103,70,58,18,,55,26,75,64,12,13,0.9,0.7
2024-12-01T0000,3511A,116.5652,37.3319,德州市,陵城艺术中心,颗粒物(PM10),76,102,95,51,47,28,,66,42,46,42,16,21,0.6,0.8
2024-12-01T0000,2621A,99.7056,27.8317,迪庆藏族自治州,迪庆州站,,43,37,26,30,16,43,,83,66,22,14,6,6,0.8,0.5
2024-12-01T0000,3180A,99.7136,27.8094,迪庆藏族自治州,质量技术监督局,,50,42,27,35,16,42,,79,63,20,14,8,8,0.9,0.6
2024-12-01T0000,2663A,104.6241,35.5734,定西市,东关小学,细颗粒物(PM2.5),68,82,79,49,45,6,,68,24,40,33,11,15,1.0,1.2
2024-12-01T0000,2664A,104.6194,35.5934,定西市,供电公司,细颗粒物(PM2.5),79,83,78,58,52,4,,69,26,51,41,13,15,1.2,1.5
2024-12-01T0000,1389A,113.7547,23.0494,东莞市,莞城梨川,细颗粒物(PM2.5),109,157,61,82,31,5,,99,48,93,41,12,9,1.1,0.7
2024-12-01T0000,1390A,113.7944,23.0128,东莞市,东城石井,颗粒物(PM10),66,82,48,40,23,8,,112,72,93,36,6,7,0.8,0.5
2024-12-01T0000,1391A,113.7383,22.9658,东莞市,南城西平,颗粒物(PM10),80,110,62,46,25,6,,106,54,120,59,9,8,0.8,0.6
2024-12-01T0000,3319A,113.7338,23.0381,东莞市,万江金泰,颗粒物(PM10),85,119,54,59,26,2,,88,43,97,41,10,7,1.0,0.5
2024-12-01T0000,3626A,113.7533,23.0202,东莞市,南城元岭,,,,57,,25,,,92,46,,39,,10,,0.6
2024-12-01T0000,3627A,113.7875,23.0457,东莞市,东城主山,细颗粒物(PM2.5),107,150,64,80,31,3,,92,44,97,53,14,11,1.1,0.7
2024-12-01T0000,1666A,118.6614,37.4309,东营市,市环保局,颗粒物(PM10),75,100,70,53,38,37,,63,42,54,62,23,27,0.8,0.7
2024-12-01T0000,3036A,118.6904,37.4338,东营市,开发区管委会,细颗粒物(PM2.5),79,101,79,58,40,38,,64,46,51,60,21,25,1.1,1
2024-12-01T0000,3365A,118.5719,37.565,东营市,垦利区民丰路,颗粒物(PM10),71,92,86,48,36,15,,65,25,80,56,34,18,0.7,0.7
2024-12-01T0000,3498A,118.5055,37.8612,东营市,河口城区,"颗粒物(PM10),细颗粒物(PM2.5)",68,85,81,49,41,56,,64,48,28,44,7,9,0.9,0.9
2024-12-01T0000,3646A,118.4978,37.4623,东营市,胜利站,细颗粒物(PM2.5),79,97,78,58,36,35,,56,29,55,62,25,14,1.1,1
2024-12-01T0000,3734A,118.35,37.26,东营市,理想之城,细颗粒物(PM2.5),83,95,88,61,43,38,,68,40,52,56,21,15,0.9,0.8
2024-12-01T0000,1591A,110.0023,39.8129,鄂尔多斯市,综合楼,,39,39,37,9,8,88,,87,78,12,18,6,8,0.4,0.4
2024-12-01T0000,1592A,109.9486,39.8261,鄂尔多斯市,巴音孟克林场办事处,,46,46,35,14,12,77,,78,71,9,13,6,8,0.4,0.3
2024-12-01T0000,1593A,109.7736,39.5986,鄂尔多斯市,康泽苑,,41,41,32,17,12,39,,77,54,26,19,5,5,0.6,0.5
2024-12-01T0000,1594A,109.8119,39.5989,鄂尔多斯市,华泰汽车城,颗粒物(PM10),51,51,38,27,15,20,,73,36,43,29,5,5,0.6,0.5
2024-12-01T0000,1595A,109.9734,39.7884,鄂尔多斯市,奥林花园,颗粒物(PM10),51,51,42,12,12,39,,66,30,40,37,18,11,0.9,0.6
2024-12-01T0000,2436A,114.8938,30.3994,鄂州市,市政府,细颗粒物(PM2.5),68,79,99,49,46,24,,59,24,53,63,11,24,1.0,1
2024-12-01T0000,2437A,114.8989,30.3714,鄂州市,赵家坝,颗粒物(PM10),66,81,75,47,41,27,,68,37,52,50,10,12,0.6,0.6
2024-12-01T0000,3654A,114.8094,30.4089,鄂州市,精准医疗中心,颗粒物(PM10),81,112,92,55,48,19,,91,50,65,48,16,16,1.4,1
2024-12-01T0000,2454A,109.4978,30.2981,恩施土家族苗族自治州,湖北民院,细颗粒物(PM2.5),103,95,62,77,48,11,,77,38,33,22,6,7,0.7,0.6
2024-12-01T0000,2455A,109.4707,30.2798,恩施土家族苗族自治州,州电力总公司,细颗粒物(PM2.5),103,100,72,77,49,8,,71,24,43,35,8,8,1.1,0.8
2024-12-01T0000,3549A,109.5061,30.3772,恩施土家族苗族自治州,龙凤新区,细颗粒物(PM2.5),100,101,57,75,41,20,,74,35,15,16,6,6,0.5,0.4
2024-12-01T0000,2499A,108.3411,21.6158,防城港市,沙万,,48,44,56,33,32,97,,125,109,20,34,10,14,0.9,1
2024-12-01T0000,2500A,108.3514,21.7731,防城港市,防城档案局,颗粒物(PM10),71,92,108,46,47,62,,145,108,28,34,7,13,0.6,0.8
2024-12-01T0000,2501A,108.3506,21.6414,防城港市,大海花园,,47,47,61,30,30,124,,142,125,16,27,7,14,0.8,0.9
2024-12-01T0000,1371A,113.1294,23.0067,佛山市,湾梁,颗粒物(PM10),64,78,55,30,25,6,,91,56,97,59,8,8,1.0,0.5
2024-12-01T0000,1372A,113.1083,23.0478,佛山市,华材职中,颗粒物(PM10),124,197,73,54,32,5,,108,51,124,67,11,9,1.4,0.6
2024-12-01T0000,1373A,113.144,23.0453,佛山市,南海气象局,颗粒物(PM10),65,79,55,36,26,4,,89,55,103,59,8,8,1.0,0.5
2024-12-01T0000,1374A,113.2881,22.8094,佛山市,顺德苏岗,颗粒物(PM10),57,63,50,27,20,10,,78,29,65,54,8,10,0.6,0.4
2024-12-01T0000,1376A,112.8383,22.8678,佛山市,高明孔堂,,45,45,55,27,30,46,,89,68,26,43,7,12,0.5,0.6
2024-12-01T0000,1377A,112.8836,23.1588,佛山市,三水监测站,颗粒物(PM10),89,127,72,53,37,2,,88,31,102,64,14,15,0.9,0.7
2024-12-01T0000,1378A,112.867,23.185,佛山市,三水云东海,颗粒物(PM10),74,98,61,45,35,0,,87,42,89,53,14,15,0.8,0.6
2024-12-01T0000,3625A,113.2544,22.7642,佛山市,容桂街道办,颗粒物(PM10),89,127,57,53,24,2,,83,36,114,64,11,10,0.9,0.6
2024-12-01T0000,1280A,119.3903,26.0543,福州市,鼓山,,,,32,,11,,,117,117,,11,,2,,0.3
2024-12-01T0000,1282A,119.2681,26.0504,福州市,师大,,41,41,44,19,20,60,,101,83,22,19,3,4,0.3,0.3
2024-12-01T0000,1283A,119.2984,26.1028,福州市,五四北路,,44,44,40,19,17,45,,97,80,37,19,1,2,0.3,0.3
2024-12-01T0000,1284A,119.2648,26.0768,福州市,杨桥西路,,50,50,42,23,18,42,,100,78,33,19,1,2,0.3,0.3
2024-12-01T0000,1285A,119.317,26.0746,福州市,紫阳,,46,46,44,22,18,61,,90,76,31,23,2,2,0.4,0.4
2024-12-01T0000,3048A,119.5799,26.0936,福州市,九龙,,29,29,32,18,12,60,,112,90,10,8,1,2,0.2,0.3
2024-12-01T0000,3526A,119.5189,25.9664,福州市,吴航,,31,31,41,15,19,61,,114,94,18,25,3,4,0.2,0.2
2024-12-01T0000,1755A,123.7977,41.8491,抚顺市,望花区,细颗粒物(PM2.5),85,107,92,63,55,6,,39,10,48,45,8,11,1.2,1.3
2024-12-01T0000,1756A,123.9161,41.8822,抚顺市,顺城区,细颗粒物(PM2.5),99,144,79,74,53,7,,39,11,43,43,8,10,1.2,1.1
2024-12-01T0000,1757A,124.0436,41.8611,抚顺市,东洲区,细颗粒物(PM2.5),59,49,58,42,42,4,,34,9,39,36,5,7,0.9,0.9
2024-12-01T0000,1758A,123.9247,41.8642,抚顺市,新抚区,细颗粒物(PM2.5),67,68,75,48,49,5,,34,9,40,41,6,8,0.6,0.8
2024-12-01T0000,1759A,124.0972,41.8961,抚顺市,大伙房水库,,49,38,45,34,34,20,,49,28,32,28,10,9,0.8,0.9
2024-12-01T0000,1760A,123.7086,41.8391,抚顺市,沈抚新城,细颗粒物(PM2.5),87,92,83,64,84,9,,40,17,49,48,11,13,1.6,1.4
2024-12-01T0000,2376A,116.2127,28.0814,抚州市,桐源党溪,,41,41,44,23,16,16,,81,40,19,14,5,5,0.5,0.6
2024-12-01T0000,2377A,116.3544,27.9831,抚州市,市站,颗粒物(PM10),71,91,64,48,26,12,,74,32,60,32,2,3,1.1,1.1
2024-12-01T0000,2378A,116.3565,27.963,抚州市,血防站,颗粒物(PM10),62,74,51,38,19,29,,84,51,40,30,14,11,0.9,0.9
2024-12-01T0000,2379A,116.3564,28.0007,抚州市,采茶剧团,细颗粒物(PM2.5),79,97,54,58,26,5,,86,40,57,29,5,5,1.0,0.8
2024-12-01T0000,2380A,116.385,27.9647,抚州市,医学分院,颗粒物(PM10),68,85,54,39,24,5,,83,38,63,33,6,6,1.2,1
2024-12-01T0000,2207A,121.6094,41.998,阜新市,工业园区,细颗粒物(PM2.5),202,,112,152,78,5,,32,8,38,40,17,28,2.3,1.6
2024-12-01T0000,2208A,121.6697,42.0279,阜新市,长青街,细颗粒物(PM2.5),202,,79,152,62,6,,33,10,33,34,11,19,2.5,1.6
2024-12-01T0000,2209A,121.6673,42.0705,阜新市,农业园区,细颗粒物(PM2.5),85,78,53,63,38,12,,48,34,49,35,38,40,1.2,1.1
2024-12-01T0000,2210A,121.6717,42.0224,阜新市,东苑,细颗粒物(PM2.5),182,,75,137,66,7,,28,10,38,42,41,38,3.3,1.8
2024-12-01T0000,2211A,121.6506,42.0498,阜新市,玉龙新城,细颗粒物(PM2.5),88,97,74,65,56,8,,37,14,37,38,10,16,1.0,0.8
2024-12-01T0000,2301A,115.8277,32.8929,阜阳市,市监测站,细颗粒物(PM2.5),77,69,66,56,48,70,,81,49,23,36,8,7,0.7,0.6
2024-12-01T0000,2303A,115.8554,32.8605,阜阳市,开发区,细颗粒物(PM2.5),114,144,99,86,53,50,,89,51,33,35,10,9,0.7,0.5
2024-12-01T0000,2875A,115.784,32.8892,阜阳市,阜阳职业技术学院,细颗粒物(PM2.5),77,72,66,56,42,68,,95,71,27,29,10,8,0.6,0.5
2024-12-01T0000,3468A,115.7901,32.8613,阜阳市,市规划展馆,细颗粒物(PM2.5),65,75,65,47,45,77,,102,82,23,25,9,7,0.5,0.4
2024-12-01T0000,3469A,115.836,32.9183,阜阳市,枣园社区,颗粒物(PM10),64,78,70,45,45,81,,93,41,21,43,8,7,0.6,0.5
2024-12-01T0000,2669A,102.9099,34.9841,甘南藏族自治州,州政府,颗粒物(PM10),57,63,51,19,19,3,,79,28,62,36,9,9,1.2,1.3
2024-12-01T0000,3380A,102.8914,34.9617,甘南藏族自治州,甘肃民族师范学院,,32,29,27,12,14,2,,77,26,64,40,7,8,0.7,0.6
2024-12-01T0000,2570A,101.9603,30.0475,甘孜藏族自治州,水桥子,,22,22,28,6,12,8,,45,23,44,31,7,8,0.4,0.4
2024-12-01T0000,3065A,101.9533,29.9972,甘孜藏族自治州,州环保局,,24,24,22,8,8,50,,69,44,12,16,4,4,0.3,0.2
2024-12-01T0000,3414A,115.8347,28.932,赣江新区,桑海产业园,颗粒物(PM10),59,68,63,30,23,0,,55,30,76,48,16,16,0.5,0.4
2024-12-01T0000,2362A,114.9017,25.9149,赣州市,通天岩,,24,24,41,14,22,50,,122,67,5,12,4,5,0.2,0.2
2024-12-01T0000,2363A,114.9367,25.8664,赣州市,地委,颗粒物(PM10),66,81,49,37,21,12,,94,45,49,34,14,7,1.0,0.8
2024-12-01T0000,2364A,114.9461,25.8481,赣州市,气象台,颗粒物(PM10),71,91,62,32,18,7,,104,49,71,49,18,13,0.8,0.7
2024-12-01T0000,2365A,114.9322,25.8333,赣州市,市图书馆,颗粒物(PM10),61,72,55,32,22,12,,106,57,93,59,5,6,0.9,0.7
2024-12-01T0000,2366A,114.8905,25.8471,赣州市,华坚鞋城,颗粒物(PM10),77,104,62,49,29,28,,110,65,43,31,10,10,0.5,0.3
2024-12-01T0000,3109A,115.0093,25.8613,赣州市,赣县区卫计委,颗粒物(PM10),51,51,46,31,22,8,,69,38,55,31,6,6,0.7,0.5
2024-12-01T0000,2683A,106.2319,36.1417,固原市,马园,颗粒物(PM10),66,82,54,41,18,9,,80,34,56,24,13,11,1.1,0.6
2024-12-01T0000,2684A,106.2792,36.0022,固原市,监测站,,,52,35,30,21,6,,82,42,68,32,8,8,,0.7
2024-12-01T0000,2685A,106.2375,36.0211,固原市,新区,,24,,31,9,14,74,,84,60,13,24,3,4,0.5,0.5
2024-12-01T0000,3522A,106.2177,35.9959,固原市,原州区十五小,,23,22,29,12,14,72,,87,73,17,16,4,5,0.5,0.5
2024-12-01T0000,2543A,106.6308,30.5278,广安市,小平旧居,,,,,,,,,,,,,,,,
2024-12-01T0000,2544A,106.6303,30.4576,广安市,市委,细颗粒物(PM2.5),94,91,102,70,75,24,,74,47,35,34,3,4,0.7,0.7
2024-12-01T0000,2545A,106.6271,30.4663,广安市,友谊中学,细颗粒物(PM2.5),89,83,92,66,72,25,,82,57,32,31,3,4,0.7,0.7
2024-12-01T0000,2547A,106.6388,30.4551,广安市,广电花园,细颗粒物(PM2.5),90,83,92,67,73,32,,78,45,28,35,2,3,0.7,0.9
2024-12-01T0000,2902A,106.6351,30.4865,广安市,北辰小学,细颗粒物(PM2.5),99,93,88,74,68,33,,90,69,28,26,6,6,0.8,0.8
2024-12-01T0000,2523A,105.8945,32.4535,广元市,黑石坡,,48,47,43,33,28,46,,64,58,17,24,16,16,0.5,0.6
2024-12-01T0000,2524A,105.821,32.4444,广元市,老城,颗粒物(PM10),56,62,62,22,28,2,,50,17,57,46,2,6,0.7,0.8
2024-12-01T0000,2526A,105.8628,32.4287,广元市,监测站,细颗粒物(PM2.5),63,53,51,45,34,22,,55,37,38,39,6,10,0.7,0.8
2024-12-01T0000,3617A,105.8047,32.4166,广元市,经开区,细颗粒物(PM2.5),63,66,70,45,44,4,,42,15,56,31,6,15,0.9,0.9
2024-12-01T0000,1345A,113.2347,23.1423,广州市,广雅中学,颗粒物(PM10),80,109,70,46,28,4,,76,27,96,67,8,8,0.9,0.5
2024-12-01T0000,1346A,113.2612,23.105,广州市,市五中,细颗粒物(PM2.5),90,107,56,67,30,6,,84,29,78,46,7,6,1.6,0.8
2024-12-01T0000,1348A,113.3478,23.0916,广州市,广东商学院,颗粒物(PM10),72,94,53,43,23,4,,89,34,90,51,5,5,0.8,0.4
2024-12-01T0000,1349A,113.4332,23.1047,广州市,市八十六中,颗粒物(PM10),73,95,67,44,27,4,,85,37,85,56,7,7,1.1,0.7
2024-12-01T0000,1350A,113.3505,22.9483,广州市,番禺中学,细颗粒物(PM2.5),120,171,72,91,34,10,,92,46,77,58,8,7,1.5,0.6
2024-12-01T0000,1351A,113.2146,23.3916,广州市,花都师范,颗粒物(PM10),75,99,50,50,24,14,,96,47,71,39,7,8,0.8,0.5
2024-12-01T0000,1352A,113.2597,23.1331,广州市,市监测站,颗粒物(PM10),56,62,54,30,24,8,,80,32,84,56,6,6,0.5,0.4
2024-12-01T0000,1353A,113.5618,23.312,广州市,九龙镇镇龙,颗粒物(PM10),80,110,60,50,25,3,,74,27,52,41,6,6,0.8,0.6
2024-12-01T0000,1354A,113.2765,23.1544,广州市,麓湖,颗粒物(PM10),51,52,46,28,22,4,,83,28,82,52,6,6,0.6,0.5
2024-12-01T0000,1355A,113.443,23.3035,广州市,帽峰山森林公园,,27,20,21,14,15,86,,99,92,10,13,5,6,0.3,0.3
2024-12-01T0000,2846A,113.3221,23.1322,广州市,体育西,"颗粒物(PM10),细颗粒物(PM2.5)",73,95,53,53,27,4,,86,38,70,37,4,5,1.1,0.7
2024-12-01T0000,3298A,113.5717,23.5491,广州市,从化街口,颗粒物(PM10),62,73,47,37,24,3,,79,32,51,36,7,7,0.9,0.6
2024-12-01T0000,3299A,113.3472,23.3692,广州市,白云竹料,颗粒物(PM10),75,100,60,47,29,4,,95,37,64,45,7,8,0.8,0.6
2024-12-01T0000,3300A,113.2981,23.237,广州市,白云嘉禾,颗粒物(PM10),58,65,65,25,26,20,,78,32,68,59,6,8,0.6,0.5
2024-12-01T0000,3301A,113.4256,23.1716,广州市,黄埔科学城,,47,47,38,23,17,4,,93,38,57,28,7,8,0.6,0.5
2024-12-01T0000,3302A,113.3942,23.0483,广州市,番禺大学城,,,,40,,21,4,,90,39,,58,6,6,0.8,0.3
2024-12-01T0000,3303A,113.4922,22.8168,广州市,南沙黄阁,颗粒物(PM10),61,71,65,36,25,51,,85,54,70,61,6,10,0.8,0.6
2024-12-01T0000,3304A,113.5342,22.7896,广州市,南沙街,颗粒物(PM10),65,79,56,33,25,58,,93,83,56,44,4,7,0.6,0.6
2024-12-01T0000,3443A,113.2902,23.5544,广州市,花都梯面,,26,26,31,15,16,2,,94,32,47,30,7,10,0.4,0.4
2024-12-01T0000,3445A,113.7858,23.7478,广州市,从化良口,,26,26,25,14,13,51,,83,62,14,16,6,6,0.4,0.4
2024-12-01T0000,3446A,113.8051,23.2614,广州市,增城荔城,,38,38,35,18,18,50,,101,51,20,17,11,11,0.6,0.6
2024-12-01T0000,2505A,109.568,23.1478,贵港市,德智高中,,,,,,,,,,,,,,,,
2024-12-01T0000,2506A,109.6047,23.0666,贵港市,江南子站,细颗粒物(PM2.5),90,105,95,67,49,48,,132,90,54,40,14,15,1.3,0.9
2024-12-01T0000,2507A,109.6014,23.0948,贵港市,贵城子站,细颗粒物(PM2.5),88,89,75,65,49,72,,125,101,38,35,17,16,1.1,1.1
2024-12-01T0000,2508A,109.5669,23.1065,贵港市,荷城子站,细颗粒物(PM2.5),67,73,74,48,35,63,,123,87,41,35,15,17,0.8,0.7
2024-12-01T0000,3405A,109.5886,23.1172,贵港市,新世纪学校,"颗粒物(PM10),细颗粒物(PM2.5)",63,75,79,45,37,50,,124,84,46,35,11,14,0.8,0.7
2024-12-01T0000,1439A,106.6899,26.5998,贵阳市,马鞍山,细颗粒物(PM2.5),58,61,45,41,23,7,,67,41,44,36,8,18,0.8,0.6
2024-12-01T0000,1440A,106.6971,26.5694,贵阳市,市环保站,细颗粒物(PM2.5),74,85,60,54,36,5,,64,32,64,48,29,24,1.5,0.9
2024-12-01T0000,1441A,106.6243,26.6266,贵阳市,鉴湖路,颗粒物(PM10),52,53,43,27,25,48,,69,60,27,29,14,17,0.6,0.5
2024-12-01T0000,1442A,106.7487,26.6343,贵阳市,燕子冲,细颗粒物(PM2.5),52,44,39,36,28,16,,74,53,40,31,10,20,0.8,0.6
2024-12-01T0000,1443A,106.6555,26.4365,贵阳市,碧云窝,颗粒物(PM10),52,53,49,34,24,14,,81,56,28,30,13,23,0.7,0.6
2024-12-01T0000,1444A,106.694,26.5161,贵阳市,中院村,颗粒物(PM10),75,100,57,51,35,7,,67,32,52,46,56,35,1.2,0.9
2024-12-01T0000,1445A,106.7109,26.6027,贵阳市,红边门,颗粒物(PM10),56,61,58,39,34,2,,66,31,63,48,65,40,1.2,0.7
2024-12-01T0000,1446A,106.7164,26.5699,贵阳市,新华路,颗粒物(PM10),56,61,52,31,26,5,,70,34,57,38,23,23,0.9,0.6
2024-12-01T0000,1447A,106.674,26.5424,贵阳市,太慈桥,颗粒物(PM10),53,56,46,34,21,12,,63,41,30,36,5,15,0.5,0.5
2024-12-01T0000,1552A,106.805,26.3003,贵阳市,桐木岭,,39,39,37,22,18,89,,81,71,1,4,9,14,0.5,0.3
2024-12-01T0000,1862A,110.4144,25.3167,桂林市,电子科大尧山校区,细颗粒物(PM2.5),59,65,49,42,41,10,,71,41,27,14,5,9,0.5,0.4
2024-12-01T0000,1863A,110.2819,25.2697,桂林市,监测站,颗粒物(PM10),63,76,63,42,32,8,,60,26,47,34,22,20,0.9,0.8
2024-12-01T0000,1864A,110.3089,25.2708,桂林市,龙隐路小学,细颗粒物(PM2.5),59,51,51,42,39,29,,74,48,36,27,34,22,0.8,0.8
2024-12-01T0000,1865A,110.2869,25.2178,桂林市,八中,细颗粒物(PM2.5),79,76,61,58,42,7,,65,25,46,32,21,19,0.8,0.6
2024-12-01T0000,3403A,110.1764,25.2381,桂林市,创业大厦,颗粒物(PM10),53,56,67,36,43,4,,67,46,46,32,20,50,0.7,0.7
2024-12-01T0000,3531A,110.296,25.1253,桂林市,旅游学院,细颗粒物(PM2.5),83,90,65,61,42,6,,83,33,59,40,19,18,0.9,0.7
2024-12-01T0000,2674A,100.2561,34.4714,果洛藏族自治州,玛沁县大武镇,,39,39,40,19,15,30,,93,56,22,10,12,11,0.5,0.6
2024-12-01T0000,1129A,126.5422,45.755,哈尔滨市,岭北,细颗粒物(PM2.5),105,80,41,79,38,20,,69,39,65,30,4,3,,
2024-12-01T0000,1130A,126.561,45.8167,哈尔滨市,松北商大,细颗粒物(PM2.5),68,60,34,49,26,11,,49,22,55,30,8,9,1.0,0.6
2024-12-01T0000,1131A,126.979,45.5419,哈尔滨市,阿城会宁,细颗粒物(PM2.5),82,102,76,60,61,3,,47,7,49,34,10,8,1.2,1
2024-12-01T0000,1132A,126.599,45.7222,哈尔滨市,南岗学府路,细颗粒物(PM2.5),100,86,50,75,31,7,,48,26,63,33,10,12,1.3,0.7
2024-12-01T0000,1133A,126.689,45.7733,哈尔滨市,太平宏伟公园,细颗粒物(PM2.5),137,116,35,104,31,5,,50,36,63,27,10,11,2.2,0.7
2024-12-01T0000,1134A,126.635,45.7667,哈尔滨市,道外承德广场,细颗粒物(PM2.5),92,70,37,68,28,8,,53,33,67,33,7,6,1.1,0.5
2024-12-01T0000,1135A,126.685,45.7319,哈尔滨市,香坊红旗大街,细颗粒物(PM2.5),102,92,40,76,30,8,,55,37,67,32,6,9,1.1,0.6
2024-12-01T0000,1136A,126.6411,45.7258,哈尔滨市,动力和平路,细颗粒物(PM2.5),124,,38,94,33,4,,50,30,70,35,11,12,1.3,0.5
2024-12-01T0000,1137A,126.593,45.7478,哈尔滨市,道里建国路,细颗粒物(PM2.5),132,100,37,100,37,6,,48,25,64,32,13,12,1.3,0.7
2024-12-01T0000,1138A,126.615,45.61,哈尔滨市,平房东轻厂,细颗粒物(PM2.5),87,68,51,64,42,6,,46,8,61,41,9,13,1.0,0.7
2024-12-01T0000,1139A,126.595,45.9855,哈尔滨市,呼兰师专,细颗粒物(PM2.5),92,69,51,68,52,15,,55,21,58,35,8,7,1.0,0.8
2024-12-01T0000,1140A,126.6206,45.6842,哈尔滨市,省农科院,细颗粒物(PM2.5),97,93,64,72,53,6,,52,22,64,40,16,14,1.3,1
2024-12-01T0000,2688A,93.5128,42.8172,哈密市,地区监测站,颗粒物(PM10),99,147,114,51,38,11,,53,28,66,42,5,6,1.4,0.7
2024-12-01T0000,2689A,93.4961,42.8328,哈密市,哈密师范学校,颗粒物(PM10),76,101,99,42,35,20,,49,31,48,40,4,7,1.1,0.9
2024-12-01T0000,2671A,100.9048,36.9639,海北藏族自治州,海晏县西海镇,,23,,14,10,9,72,,89,78,3,4,11,10,0.2,0.3
2024-12-01T0000,3867A,102.0738,36.5056,海东市,平安区公安北苑,细颗粒物(PM2.5),52,47,71,36,51,44,,72,47,19,30,8,14,0.8,1.1
2024-12-01T0000,1409A,110.576,19.9507,海口市,东寨港,,49,44,42,34,28,96,,142,133,5,11,11,11,0.7,0.7
2024-12-01T0000,1410A,110.3232,20.0574,海口市,海南大学,臭氧1小时,52,51,45,25,19,161,,168,168,14,14,5,5,0.4,0.3
2024-12-01T0000,1411A,110.283,20.0053,海口市,秀英海南医院,臭氧1小时,53,52,49,30,21,162,,170,169,17,29,4,4,0.4,0.4
2024-12-01T0000,1412A,110.338,19.9969,海口市,海南师范大学,,49,46,46,28,21,156,,170,167,17,25,6,7,0.4,0.4
2024-12-01T0000,1413A,110.33,20.0356,海口市,龙华路环保局宿舍,,49,49,42,27,18,155,,165,165,15,15,6,6,0.5,0.4
2024-12-01T0000,3539A,110.5111,19.9736,海口市,桂林洋子站,颗粒物(PM10),54,57,52,31,27,144,,169,162,23,26,7,7,0.4,0.4
2024-12-01T0000,2673A,100.6188,36.2866,海南藏族自治州,共和县恰卜恰镇,,36,26,29,25,15,47,,86,46,27,20,9,9,0.5,0.6
2024-12-01T0000,2676A,97.3731,37.3753,海西蒙古族藏族自治州,德令哈市,,35,35,32,13,10,66,,93,72,11,8,18,16,0.5,0.5
2024-12-01T0000,1048A,114.5302,36.6116,邯郸市,东污水处理厂,细颗粒物(PM2.5),100,112,89,75,55,3,,23,14,64,55,9,13,0.9,1.1
2024-12-01T0000,1049A,114.4918,36.5713,邯郸市,矿院,细颗粒物(PM2.5),92,116,88,68,52,1,,25,11,57,51,2,7,0.6,0.8
2024-12-01T0000,1050A,114.484,36.6133,邯郸市,丛台公园,细颗粒物(PM2.5),110,112,89,83,58,4,,21,14,58,56,4,9,0.9,1.2
2024-12-01T0000,3458A,114.7895,36.5593,邯郸市,香泉濮院小区,细颗粒物(PM2.5),110,131,96,83,52,7,,41,23,45,38,9,10,0.9,0.9
2024-12-01T0000,3579A,114.50634,36.77178,邯郸市,永年区实验高中,细颗粒物(PM2.5),134,169,122,102,54,4,,21,9,69,55,10,12,1.6,1.4
2024-12-01T0000,3580A,114.20016,36.44293,邯郸市,峰峰矿区临水派出所,细颗粒物(PM2.5),84,99,63,62,29,6,,38,22,57,33,23,18,1.5,0.9
2024-12-01T0000,2634A,106.9893,33.1842,汉中市,汉川机床厂子校,,50,44,51,35,39,38,,75,55,18,17,7,7,1.0,1
2024-12-01T0000,2635A,107.0154,33.0706,汉中市,市监测站,细颗粒物(PM2.5),214,,87,164,70,19,,61,32,54,44,7,9,2.1,1.4
2024-12-01T0000,2636A,107.0089,33.1138,汉中市,鑫源开发区,细颗粒物(PM2.5),162,151,90,123,75,18,,66,34,60,42,8,10,2.0,1.3
2024-12-01T0000,2637A,107.007,33.0323,汉中市,南郑大河坎水厂,细颗粒物(PM2.5),155,134,86,118,62,13,,68,32,46,34,6,7,1.3,1
2024-12-01T0000,1223A,120.2072,30.2111,杭州市,滨江,细颗粒物(PM2.5),92,125,62,68,31,3,,70,24,76,50,8,8,0.9,0.5
2024-12-01T0000,1224A,120.0633,30.2747,杭州市,西溪,,50,50,41,35,23,3,,63,19,42,35,6,7,0.7,0.6
2024-12-01T0000,1226A,120.3461,30.3153,杭州市,下沙,细颗粒物(PM2.5),93,128,81,69,35,3,,63,10,112,65,11,10,0.8,0.7
2024-12-01T0000,1227A,120.1269,30.2456,杭州市,卧龙桥,颗粒物(PM10),55,59,49,24,18,7,,59,17,37,29,7,7,0.5,0.5
2024-12-01T0000,1228A,120.1903,30.2692,杭州市,浙江农大,细颗粒物(PM2.5),89,124,70,66,38,4,,59,14,89,54,8,6,1.2,0.7
2024-12-01T0000,1230A,120.1197,30.3119,杭州市,和睦小学,颗粒物(PM10),76,102,58,53,30,4,,65,21,75,49,7,7,1.2,0.8
2024-12-01T0000,1231A,120.3019,30.4183,杭州市,临平镇,颗粒物(PM10),80,110,72,57,32,4,,62,22,93,60,7,7,0.7,0.6
2024-12-01T0000,1232A,120.2697,30.1819,杭州市,城厢镇,颗粒物(PM10),69,87,66,39,30,3,,72,24,78,49,7,7,0.8,0.6
2024-12-01T0000,1233A,120.0883,30.1808,杭州市,云栖,,36,36,36,20,18,5,,61,19,50,38,6,6,0.5,0.4
2024-12-01T0000,3557A,119.9464,30.0494,杭州市,镇二中,颗粒物(PM10),53,55,56,34,29,4,,65,20,48,38,6,7,0.7,0.7
2024-12-01T0000,3558A,119.7183,30.2367,杭州市,市府大楼,颗粒物(PM10),59,68,57,38,29,16,,83,33,44,37,7,8,0.7,0.6
2024-12-01T0000,3656A,120.1556,30.2864,杭州市,消防大队,颗粒物(PM10),68,86,62,46,30,5,,64,22,71,51,8,8,0.7,0.4
2024-12-01T0000,1270A,117.1959,31.7848,合肥市,明珠广场,细颗粒物(PM2.5),62,66,66,44,32,46,,72,62,45,51,8,9,0.6,0.6
2024-12-01T0000,1271A,117.3072,31.8764,合肥市,三里街,颗粒物(PM10),65,80,82,39,36,27,,54,32,64,61,8,9,0.6,0.8
2024-12-01T0000,1272A,117.2588,31.8707,合肥市,琥珀山庄,颗粒物(PM10),56,61,68,39,39,28,,71,44,62,51,10,11,0.8,1
2024-12-01T0000,1273A,117.1604,31.9052,合肥市,董铺水库,颗粒物(PM10),64,78,63,31,22,42,,71,56,48,43,5,5,0.4,0.4
2024-12-01T0000,1274A,117.25,31.8571,合肥市,长江中路,颗粒物(PM10),62,73,72,41,41,44,,72,58,50,52,7,8,0.7,1
2024-12-01T0000,1275A,117.266,31.9436,合肥市,庐阳区,颗粒物(PM10),64,78,69,36,29,49,,80,62,50,54,6,7,0.6,0.7
2024-12-01T0000,1276A,117.336,31.8586,合肥市,瑶海区,颗粒物(PM10),59,68,68,39,28,43,,65,47,53,59,4,5,0.5,0.4
2024-12-01T0000,1277A,117.3027,31.7964,合肥市,包河区,颗粒物(PM10),57,63,67,36,29,62,,72,62,30,52,5,5,0.5,0.5
2024-12-01T0000,1278A,117.2776,31.7385,合肥市,滨湖新区,颗粒物(PM10),57,63,63,29,25,64,,85,75,24,39,7,8,0.5,0.5
2024-12-01T0000,1279A,117.1318,31.8403,合肥市,高新区,细颗粒物(PM2.5),60,68,56,43,27,61,,74,66,32,46,4,3,0.6,0.6
2024-12-01T0000,3464A,117.3803,31.9147,合肥市,高教基地,颗粒物(PM10),57,64,62,36,31,69,,84,67,24,41,9,8,0.5,0.5
2024-12-01T0000,3614A,79.924,37.0877,和田地区,地区环保局,颗粒物(PM10),108,165,129,70,43,44,,81,68,42,29,20,15,1.0,0.9
2024-12-01T0000,3615A,79.9131,37.113,和田地区,市环保局,颗粒物(PM10),60,70,100,37,42,52,,82,70,42,44,11,12,1.0,1.7
2024-12-01T0000,2516A,108.2011,24.715,河池市,东仁乐园,颗粒物(PM10),67,84,67,42,38,6,,83,38,57,36,1,6,0.8,0.8
2024-12-01T0000,2517A,108.0497,24.6947,河池市,市环保站,细颗粒物(PM2.5),69,63,45,50,29,16,,93,56,56,35,13,17,0.8,0.6
2024-12-01T0000,2518A,108.0983,24.6989,河池市,市疾控中心,颗粒物(PM10),76,101,61,38,33,5,,83,39,60,43,11,16,0.5,0.5
2024-12-01T0000,1696A,114.6778,23.7569,河源市,源西,,49,49,38,31,21,21,,81,33,40,32,5,6,0.7,0.6
2024-12-01T0000,1697A,114.6944,23.7586,河源市,东埔,颗粒物(PM10),54,58,48,27,26,2,,84,27,59,36,4,6,0.7,0.6
2024-12-01T0000,1698A,114.6892,23.7233,河源市,老城,,45,45,35,21,17,17,,85,45,38,25,3,4,0.5,0.4
2024-12-01T0000,1718A,115.4208,35.2464,菏泽市,气象局,细颗粒物(PM2.5),85,99,95,63,51,48,,66,51,35,34,8,6,0.5,0.5
2024-12-01T0000,1719A,115.4747,35.2375,菏泽市,市政协,细颗粒物(PM2.5),72,89,89,52,50,59,,64,54,24,30,9,8,0.5,0.6
2024-12-01T0000,3374A,115.5564,35.0891,菏泽市,定陶老年大学,颗粒物(PM10),71,92,89,51,48,25,,51,40,60,57,8,9,0.5,0.5
2024-12-01T0000,3647A,115.4702,35.2706,菏泽市,菏泽医专,颗粒物(PM10),67,83,85,39,37,59,,66,53,38,39,12,11,0.6,0.6
2024-12-01T0000,2514A,111.5264,24.4172,贺州市,环保小区,细颗粒物(PM2.5),95,,68,71,42,28,,80,57,34,34,5,7,0.8,0.6
2024-12-01T0000,2515A,111.5608,24.4078,贺州市,政协大楼,颗粒物(PM10),80,109,72,56,39,3,,87,50,66,42,9,13,0.8,0.6
2024-12-01T0000,3534A,111.4744,24.4553,贺州市,西湾,细颗粒物(PM2.5),84,101,63,62,38,17,,96,55,40,34,6,8,0.8,0.6
2024-12-01T0000,2385A,114.17,35.9019,鹤壁市,市监测站,颗粒物(PM10),83,115,84,52,38,0,,34,4,41,41,2,5,1.0,0.8
2024-12-01T0000,2386A,114.2956,35.7511,鹤壁市,市交警支队,颗粒物(PM10),83,116,90,58,44,0,,25,0,42,42,3,4,0.5,0.7
2024-12-01T0000,2387A,114.2878,35.7306,鹤壁市,迎宾馆,颗粒物(PM10),80,110,97,42,41,0,,23,3,35,36,3,5,0.7,0.5
2024-12-01T0000,3474A,114.2617,35.6822,鹤壁市,大新区,细颗粒物(PM2.5),99,134,96,74,54,0,,26,3,42,46,3,5,0.7,0.5
2024-12-01T0000,3596A,114.1572,35.9603,鹤壁市,南山宾馆,细颗粒物(PM2.5),88,97,66,65,46,11,,44,15,41,27,23,15,0.7,0.4
2024-12-01T0000,2244A,130.2537,47.3416,鹤岗市,哈啤分公司,,30,,14,21,16,49,,53,50,5,3,15,16,0.5,0.5
2024-12-01T0000,2245A,130.2684,47.3086,鹤岗市,斯达机电,,28,,14,19,15,54,,57,52,12,12,14,14,0.2,0.3
2024-12-01T0000,2246A,130.3114,47.3388,鹤岗市,东山纸板厂,,29,,18,20,13,52,,56,52,10,8,12,12,0.5,0.3
2024-12-01T0000,2247A,130.1097,47.3382,鹤岗市,五号水库,,22,22,17,10,10,68,,72,70,4,3,8,15,0.1,0.3
2024-12-01T0000,2263A,127.4833,50.2524,黑河市,交通局,,37,30,18,24,17,12,,46,26,74,26,8,6,0.4,0.4
2024-12-01T0000,2264A,127.5144,50.2341,黑河市,环保局,,28,22,16,19,14,54,,52,50,9,10,4,4,0.3,0.3
2024-12-01T0000,2265A,127.5291,50.2472,黑河市,大黑河岛,,18,,11,11,10,55,,54,52,6,6,2,2,0.6,0.6
2024-12-01T0000,1074A,115.6838,37.7541,衡水市,电机北厂,细颗粒物(PM2.5),107,112,90,80,50,22,,44,33,49,43,10,10,0.6,0.6
2024-12-01T0000,1075A,115.6303,37.7316,衡水市,市监测站,细颗粒物(PM2.5),100,124,87,75,46,14,,36,22,64,55,12,11,0.7,0.7
2024-12-01T0000,3188A,115.6683,37.7217,衡水市,市城管局,细颗粒物(PM2.5),98,112,92,73,48,13,,40,25,65,53,8,9,0.6,0.6
2024-12-01T0000,3459A,115.5989,37.5491,衡水市,地表水厂,细颗粒物(PM2.5),117,130,105,88,60,3,,37,9,75,60,10,11,0.8,0.7
2024-12-01T0000,2456A,112.5003,26.9167,衡阳市,原169医院,细颗粒物(PM2.5),58,58,64,41,39,28,,50,28,29,36,15,16,0.6,0.7
2024-12-01T0000,2457A,112.6194,26.9258,衡阳市,衡阳化工总厂,细颗粒物(PM2.5),74,77,68,54,44,7,,72,45,45,29,13,11,0.8,0.6
2024-12-01T0000,2458A,112.6211,26.8956,衡阳市,珠晖区环保局,细颗粒物(PM2.5),73,72,72,53,47,15,,74,40,52,37,11,15,0.8,0.8
2024-12-01T0000,2459A,112.6197,26.8733,衡阳市,市委党校,细颗粒物(PM2.5),73,72,66,53,44,26,,77,56,39,32,18,20,0.8,0.8
2024-12-01T0000,2460A,112.6006,26.8919,衡阳市,市监测站,细颗粒物(PM2.5),83,85,75,61,51,6,,76,37,56,35,11,16,1.0,0.9
2024-12-01T0000,2461A,112.5664,26.9056,衡阳市,真空机电公司,细颗粒物(PM2.5),82,80,70,60,45,4,,66,33,60,40,8,15,1.6,1.5
2024-12-01T0000,3399A,112.6703,26.882,衡阳市,师范学院,细颗粒物(PM2.5),74,81,68,54,40,11,,69,45,40,26,11,12,0.9,0.7
2024-12-01T0000,2608A,103.3772,23.3993,红河哈尼族彝族自治州,污水处理厂,,49,,51,34,48,54,,67,55,10,15,8,39,0.6,0.7
2024-12-01T0000,2609A,103.3861,23.35,红河哈尼族彝族自治州,监测站,,42,33,58,29,48,69,,67,64,7,16,10,49,0.5,0.8
2024-12-01T0000,3038A,103.3758,23.368,红河哈尼族彝族自治州,州图书馆,细颗粒物(PM2.5),55,,56,39,45,62,,60,58,9,17,6,53,0.5,0.8
2024-12-01T0000,1090A,111.6507,40.7517,呼和浩特市,呼市一监,颗粒物(PM10),74,97,64,51,30,3,,52,12,54,39,9,12,1.1,0.9
2024-12-01T0000,1091A,111.6572,40.8033,呼和浩特市,小召,颗粒物(PM10),63,75,62,40,27,7,,49,15,64,48,14,13,1.1,1
2024-12-01T0000,1094A,111.7516,40.8369,呼和浩特市,如意水处理厂,颗粒物(PM10),63,76,54,35,22,5,,49,16,56,45,8,11,0.7,0.6
2024-12-01T0000,1095A,111.7276,40.8062,呼和浩特市,二十九中,颗粒物(PM10),69,87,61,36,24,5,,51,16,63,48,12,11,0.9,0.6
2024-12-01T0000,1096A,111.5512,40.7866,呼和浩特市,工大金川校区,颗粒物(PM10),67,84,61,36,27,3,,42,9,59,48,9,10,0.8,0.6
2024-12-01T0000,1097A,111.717,40.7612,呼和浩特市,化肥厂生活区,颗粒物(PM10),75,99,70,48,29,4,,47,13,60,44,10,11,1.2,0.8
2024-12-01T0000,3698A,111.5968,40.8178,呼和浩特市,红旗小学,颗粒物(PM10),64,78,59,38,24,3,,43,7,60,50,9,10,0.9,0.7
2024-12-01T0000,3699A,111.6518,40.8389,呼和浩特市,海东办,颗粒物(PM10),57,63,55,35,25,4,,48,12,54,45,11,13,0.9,0.8
2024-12-01T0000,2192A,119.7594,49.2261,呼伦贝尔市,区环保局,,27,27,23,17,19,57,,61,48,16,18,6,6,0.4,0.5
2024-12-01T0000,3061A,119.7512,49.1577,呼伦贝尔市,国华电力东,,30,30,29,15,15,67,,67,60,6,8,4,4,0.3,0.3
2024-12-01T0000,1250A,120.0751,30.8669,湖州市,城西水厂,细颗粒物(PM2.5),120,139,71,91,38,8,,70,29,105,63,10,10,0.7,0.5
2024-12-01T0000,2873A,120.0875,30.8955,湖州市,仁皇山新区,颗粒物(PM10),61,72,61,41,30,9,,74,33,73,56,7,10,0.6,0.5
2024-12-01T0000,2907A,120.1844,30.8596,湖州市,吴兴区站,颗粒物(PM10),80,110,68,57,31,6,,65,24,100,64,14,10,0.6,0.4
2024-12-01T0000,3562A,120.4148,30.8538,湖州市,南浔区站,颗粒物(PM10),57,64,67,34,40,35,,77,44,64,56,8,8,0.5,0.5
2024-12-01T0000,1607A,120.9092,40.7136,葫芦岛市,龙港区,细颗粒物(PM2.5),82,88,43,60,29,10,,65,26,62,40,15,18,1.3,0.7
2024-12-01T0000,1608A,120.8392,40.7514,葫芦岛市,化工街,细颗粒物(PM2.5),70,85,69,51,38,6,,60,18,49,40,37,32,1.3,1.2
2024-12-01T0000,1609A,120.8341,40.7073,葫芦岛市,新区,细颗粒物(PM2.5),92,90,42,68,30,6,,67,22,61,42,15,16,2.0,0.9
2024-12-01T0000,1610A,120.8695,40.7677,葫芦岛市,东城区,颗粒物(PM10),71,91,60,51,34,9,,60,13,47,36,20,49,1.8,1
2024-12-01T0000,2482A,109.5981,27.5721,怀化市,林科所,颗粒物(PM10),54,58,34,34,21,19,,81,49,41,24,6,8,0.4,0.3
2024-12-01T0000,2483A,109.9453,27.5444,怀化市,河西地税局,,47,47,46,28,28,10,,72,31,25,24,6,10,0.4,0.4
2024-12-01T0000,2484A,109.9781,27.5342,怀化市,市四医院,颗粒物(PM10),65,79,59,42,32,0,,80,28,52,35,9,10,0.8,0.6
2024-12-01T0000,2485A,109.9972,27.5578,怀化市,监测楼,颗粒物(PM10),64,77,56,44,31,2,,79,26,35,31,1,4,0.8,0.6
2024-12-01T0000,2486A,110.0394,27.583,怀化市,市委党校,颗粒物(PM10),68,85,60,42,31,0,,78,27,36,25,4,6,0.4,0.4
2024-12-01T0000,1210A,119.036,33.5981,淮安市,钵池山,"颗粒物(PM10),细颗粒物(PM2.5)",70,90,71,51,43,11,,83,50,94,45,10,8,1.1,1
2024-12-01T0000,1211A,119.007,33.575,淮安市,北京南路,颗粒物(PM10),65,80,77,44,41,21,,70,41,76,48,9,9,0.3,0.4
2024-12-01T0000,1212A,118.989,33.6067,淮安市,市监测站,细颗粒物(PM2.5),70,80,71,51,43,36,,78,56,62,44,9,7,1.0,1
2024-12-01T0000,1213A,119.135,33.5039,淮安市,楚州区监测站,颗粒物(PM10),75,100,90,53,42,0,,66,13,103,63,9,8,0.6,0.5
2024-12-01T0000,1214A,119.0186,33.6297,淮安市,淮阴区监测站,颗粒物(PM10),71,92,81,49,43,20,,78,43,89,56,9,10,0.9,0.9
2024-12-01T0000,3426A,118.8755,33.2894,淮安市,新华书店,细颗粒物(PM2.5),83,94,78,61,45,42,,75,53,50,47,10,8,0.7,0.7
2024-12-01T0000,2282A,116.8004,33.975,淮北市,监测站,细颗粒物(PM2.5),113,115,84,85,53,34,,62,39,44,37,6,7,0.7,0.6
2024-12-01T0000,2283A,116.8091,33.9007,淮北市,烈山区政府,细颗粒物(PM2.5),123,137,99,93,58,34,,70,54,62,51,8,9,0.5,0.5
2024-12-01T0000,3330A,116.8873,33.9836,淮北市,杜集区检察院,细颗粒物(PM2.5),100,118,94,75,53,58,,71,63,35,37,7,6,0.5,0.5
2024-12-01T0000,4017A,116.7923,33.9535,淮北市,市博物馆,细颗粒物(PM2.5),130,129,96,99,60,34,,64,46,57,51,10,11,0.9,0.9
2024-12-01T0000,2277A,116.8305,32.7727,淮南市,潘集区政府,细颗粒物(PM2.5),83,102,92,61,57,32,,70,46,56,46,8,9,0.5,0.5
2024-12-01T0000,2278A,117.0067,32.6524,淮南市,师范学院,"颗粒物(PM10),细颗粒物(PM2.5)",64,78,67,46,51,68,,87,74,31,28,20,17,0.5,0.5
2024-12-01T0000,2279A,116.8569,32.5951,淮南市,谢家集区政府,颗粒物(PM10),70,90,74,48,40,44,,88,58,40,34,11,10,0.5,0.4
2024-12-01T0000,2280A,116.8281,32.633,淮南市,八公山区政府,颗粒物(PM10),66,81,68,41,38,55,,89,69,36,27,8,8,0.5,0.5
2024-12-01T0000,2281A,116.6325,32.6201,淮南市,焦岗湖风景区管理处,细颗粒物(PM2.5),74,88,57,54,39,31,,60,51,44,34,4,4,0.4,0.3
2024-12-01T0000,2894A,117.0566,32.6531,淮南市,经济技术开发区消防队,颗粒物(PM10),70,90,77,28,38,61,,91,66,39,41,8,8,0.4,0.4
2024-12-01T0000,3329A,117.0108,32.5893,淮南市,山南新区,颗粒物(PM10),74,98,75,46,40,52,,96,71,39,26,8,6,0.6,0.5
2024-12-01T0000,2446A,114.9028,30.4742,黄冈市,职工中心,细颗粒物(PM2.5),79,101,81,58,46,24,,79,50,57,40,17,14,0.7,0.8
2024-12-01T0000,2929A,114.8858,30.4519,黄冈市,红卫路,细颗粒物(PM2.5),72,84,76,52,44,41,,80,55,40,40,11,11,0.6,0.7
2024-12-01T0000,3398A,114.9136,30.4445,黄冈市,市林业局,颗粒物(PM10),76,101,94,51,44,39,,88,58,50,44,14,14,0.7,0.8
2024-12-01T0000,2672A,102.0199,35.5102,黄南藏族自治州,同仁县隆务镇,,32,32,37,16,17,71,,85,69,1,6,2,3,0.5,0.6
2024-12-01T0000,2295A,118.2903,29.6963,黄山市,延安路89号,,25,23,40,17,26,16,,87,46,22,16,6,7,0.3,0.3
2024-12-01T0000,2296A,118.327,29.7178,黄山市,黄山东路89号,颗粒物(PM10),52,54,59,24,27,20,,80,30,20,21,6,7,0.3,0.4
2024-12-01T0000,2297A,118.1371,30.2756,黄山市,黄山区政府5号楼,细颗粒物(PM2.5),64,58,45,46,27,24,,85,40,12,12,7,8,0.4,0.3
2024-12-01T0000,2423A,115.0601,30.2313,黄石市,沈家营,细颗粒物(PM2.5),70,78,79,51,39,10,,69,24,72,58,12,15,0.9,0.9
2024-12-01T0000,2424A,115.0817,30.2006,黄石市,陈家湾,颗粒物(PM10),54,57,66,24,40,28,,64,44,35,41,15,15,0.6,0.8
2024-12-01T0000,2426A,114.8988,30.2019,黄石市,铁山,颗粒物(PM10),51,52,64,24,33,44,,89,51,28,32,12,14,0.3,0.7
2024-12-01T0000,2427A,115.0307,30.2092,黄石市,团城山,细颗粒物(PM2.5),63,62,71,45,37,15,,75,51,66,49,12,16,0.8,0.9
2024-12-01T0000,3149A,115.0235,30.1578,黄石市,笔架山北路,颗粒物(PM10),57,63,55,36,30,23,,94,62,58,40,13,13,1.1,0.8
2024-12-01T0000,1392A,114.4183,23.0528,惠州市,河南岸金山湖子站,颗粒物(PM10),61,72,48,34,23,9,,85,35,54,29,6,7,0.7,0.6
2024-12-01T0000,1393A,114.4053,23.0822,惠州市,下埔横江三路子站,颗粒物(PM10),63,76,47,38,23,6,,89,39,65,27,6,8,0.6,0.4
2024-12-01T0000,1394A,114.4103,23.1142,惠州市,江北云山西路子站,颗粒物(PM10),81,111,54,50,23,3,,93,38,70,31,8,10,0.8,0.5
2024-12-01T0000,1395A,114.4645,22.7833,惠州市,惠阳区承修路船湖子站,颗粒物(PM10),79,107,52,46,20,5,,98,80,69,26,8,9,0.8,0.4
2024-12-01T0000,1396A,114.5317,22.7422,惠州市,大亚湾管委会子站,,48,48,49,19,20,44,,121,72,49,39,8,8,0.5,0.4
2024-12-01T0000,3314A,114.4338,22.8134,惠州市,惠阳秋长,颗粒物(PM10),58,66,49,36,27,27,,97,40,51,34,8,10,0.7,0.5
2024-12-01T0000,3452A,114.6517,22.775,惠州市,大亚湾霞涌,,43,43,41,21,19,73,,109,83,17,18,7,8,0.2,0.3
2024-12-01T0000,2240A,130.9762,45.3001,鸡西市,环保局,,,,16,,14,,,55,,,3,,6,,0.3
2024-12-01T0000,2243A,130.9429,45.3039,鸡西市,第一中学,,19,11,13,10,12,59,,62,58,3,5,5,5,0.1,0.1
2024-12-01T0000,3707A,131.0207,45.3073,鸡西市,欧美日汽修厂,,26,,20,18,18,56,,58,55,10,12,22,18,0.7,0.6
2024-12-01T0000,3709A,130.9967,45.3106,鸡西市,市政设施管理处,,18,15,18,11,12,55,,58,54,7,8,2,3,0.6,0.6
2024-12-01T0000,2367A,114.9754,27.0803,吉安市,红声器材厂,颗粒物(PM10),59,68,54,32,22,4,,80,39,57,28,12,12,0.6,0.5
2024-12-01T0000,2368A,114.9658,27.0999,吉安市,市森林工业局,颗粒物(PM10),60,70,53,35,25,10,,82,39,57,33,12,14,0.5,0.8
2024-12-01T0000,2369A,114.99,27.1312,吉安市,市环境监测站,颗粒物(PM10),62,74,54,18,13,7,,89,32,59,41,11,13,0.6,0.4
2024-12-01T0000,2370A,115.0093,27.0968,吉安市,青原区法院,,44,44,44,13,18,5,,82,38,60,33,9,11,0.5,0.4
2024-12-01T0000,1772A,126.54,43.8622,吉林市,哈达湾,细颗粒物(PM2.5),67,48,27,48,26,21,,59,45,47,24,7,7,1.0,0.7
2024-12-01T0000,1773A,126.5844,43.8358,吉林市,东局子,细颗粒物(PM2.5),68,60,34,49,27,16,,58,29,46,26,6,6,1.0,0.7
2024-12-01T0000,1774A,126.5052,43.8245,吉林市,电力学院,细颗粒物(PM2.5),82,66,44,60,36,10,,60,28,46,25,8,8,1.4,0.9
2024-12-01T0000,1775A,126.6133,43.8972,吉林市,江北,细颗粒物(PM2.5),75,64,50,55,38,18,,54,23,43,36,10,24,1.3,0.8
2024-12-01T0000,1776A,126.555,43.8306,吉林市,江南公园,细颗粒物(PM2.5),89,76,37,66,32,7,,59,32,59,25,9,9,1.2,0.8
2024-12-01T0000,1778A,126.7061,43.7133,吉林市,丰满,,,,,,,,,,,,,,,,
2024-12-01T0000,2868A,126.4739,43.953,吉林市,九站,细颗粒物(PM2.5),92,80,44,68,37,6,,54,19,55,35,5,7,1.3,0.9
2024-12-01T0000,1299A,116.9862,36.6114,济南市,科干所,颗粒物(PM10),58,66,46,29,17,83,,84,73,22,21,9,8,0.8,0.8
2024-12-01T0000,1300A,116.9376,36.665,济南市,农科所,颗粒物(PM10),58,66,59,27,19,47,,68,43,40,42,9,9,0.7,0.7
2024-12-01T0000,1301A,117.1265,36.6734,济南市,开发区,,49,44,41,34,21,57,,78,60,26,18,7,7,0.6,0.4
2024-12-01T0000,1303A,117.0624,36.6868,济南市,省种子仓库,颗粒物(PM10),84,117,59,36,21,10,,77,34,83,44,9,7,0.8,0.5
2024-12-01T0000,1304A,116.9489,36.6447,济南市,机床二厂,颗粒物(PM10),58,66,73,32,23,70,,72,52,21,34,13,12,0.7,0.7
2024-12-01T0000,1305A,117.0495,36.663,济南市,市监测站,颗粒物(PM10),56,61,47,32,17,28,,81,42,73,33,8,8,0.6,0.4
2024-12-01T0000,1306A,116.7675,36.5484,济南市,长清党校,颗粒物(PM10),63,76,58,44,30,77,,87,79,26,30,10,10,0.5,0.5
2024-12-01T0000,1616A,117.6795,36.229,济南市,技术学院,细颗粒物(PM2.5),73,85,87,53,51,5,,63,25,79,52,13,14,0.9,1.2
2024-12-01T0000,1961A,117.532,36.6868,济南市,东山小学,颗粒物(PM10),67,83,47,42,20,59,,71,60,22,27,10,8,0.5,0.5
2024-12-01T0000,3059A,117.7161,36.2049,济南市,泰兴公司,细颗粒物(PM2.5),79,95,98,58,55,7,,53,14,69,55,13,16,0.9,1.1
2024-12-01T0000,3064A,117.6867,36.2171,济南市,莱芜战役纪念馆,颗粒物(PM10),79,107,103,56,51,9,,55,21,75,52,13,12,0.9,1.1
2024-12-01T0000,3494A,117.1673,36.9782,济南市,济阳区政府,细颗粒物(PM2.5),102,117,71,76,27,16,,54,26,73,53,14,12,0.7,0.6
2024-12-01T0000,3495A,117.1171,36.63,济南市,锦屏中学,,49,49,34,29,17,84,,88,72,21,20,8,7,0.4,0.3
2024-12-01T0000,3682A,116.9814,36.6819,济南市,济南四建,颗粒物(PM10),69,88,52,42,24,5,,72,36,85,40,10,8,1.1,0.5
2024-12-01T0000,1653A,116.6251,35.4302,济宁市,火炬城,细颗粒物(PM2.5),104,109,83,78,61,30,,77,46,47,43,12,8,0.7,0.7
2024-12-01T0000,1655A,116.5491,35.4042,济宁市,电化厂,细颗粒物(PM2.5),85,113,100,63,53,46,,64,49,37,46,15,14,0.8,0.9
2024-12-01T0000,3500A,116.5814,35.3707,济宁市,北湖一中,细颗粒物(PM2.5),94,89,84,70,61,41,,72,52,45,48,12,10,0.9,0.8
2024-12-01T0000,3501A,116.8249,35.5593,济宁市,服务中心,细颗粒物(PM2.5),90,112,100,67,50,32,,67,38,48,46,11,12,0.8,0.8
2024-12-01T0000,3678A,116.5907,35.4054,济宁市,市第七中学,细颗粒物(PM2.5),85,83,94,63,60,40,,72,49,47,48,9,9,0.9,0.9
2024-12-01T0000,2255A,130.2751,46.8028,佳木斯市,佳纺,,23,18,23,16,19,59,,56,50,2,11,8,11,0.5,0.5
2024-12-01T0000,2256A,130.3995,46.8307,佳木斯市,发电厂,,20,17,17,14,16,55,,54,48,6,12,5,6,0.4,0.4
2024-12-01T0000,2257A,130.3258,46.7975,佳木斯市,环保局,,20,18,18,14,14,55,,50,39,6,18,9,11,0.4,0.5
2024-12-01T0000,2258A,130.3648,46.8032,佳木斯市,十一中,,19,14,15,11,14,60,,56,49,7,14,2,4,0.4,0.5
2024-12-01T0000,2259A,130.3794,46.7588,佳木斯市,四丰,,19,10,11,7,8,60,,60,59,1,3,1,1,0.2,0.2
2024-12-01T0000,1252A,120.7436,30.778,嘉兴市,清河小学,细颗粒物(PM2.5),84,88,68,62,40,9,,68,25,87,56,11,12,0.5,0.8
2024-12-01T0000,1253A,120.726,30.7478,嘉兴市,嘉兴学院,颗粒物(PM10),58,65,73,33,36,43,,64,43,50,61,7,7,0.6,0.7
2024-12-01T0000,2872A,120.7846,30.7525,嘉兴市,南湖区残联,颗粒物(PM10),58,66,65,32,33,26,,78,57,82,52,9,9,0.6,0.6
2024-12-01T0000,3407A,120.6916,30.7739,嘉兴市,秀洲住建,细颗粒物(PM2.5),62,61,64,44,34,14,,71,16,78,45,11,11,0.6,0.4
2024-12-01T0000,1945A,98.2908,39.7711,嘉峪关市,气象局,,34,34,50,14,21,56,,77,56,23,29,21,24,0.1,0.4
2024-12-01T0000,2884A,98.2672,39.7978,嘉峪关市,酒钢宾馆,颗粒物(PM10),53,56,66,17,21,47,,84,60,39,28,29,36,0.4,0.7
2024-12-01T0000,3248A,98.2643,39.7724,嘉峪关市,雄关区,,31,31,42,17,21,42,,80,57,44,34,18,19,0.2,0.4
2024-12-01T0000,1383A,113.1064,22.6058,江门市,北街,颗粒物(PM10),67,83,63,45,32,6,,91,46,104,70,8,8,1.0,0.6
2024-12-01T0000,1384A,113.0731,22.5835,江门市,西区,颗粒物(PM10),83,116,82,40,35,4,,89,32,90,71,9,10,1.0,0.7
2024-12-01T0000,1385A,113.0219,22.5311,江门市,圭峰西,颗粒物(PM10),54,58,55,33,28,58,,88,63,38,52,4,5,0.3,0.3
2024-12-01T0000,1386A,113.0828,22.5947,江门市,东湖,颗粒物(PM10),71,91,69,45,37,4,,89,36,87,63,7,8,1.1,0.7
2024-12-01T0000,3311A,113.1075,22.5647,江门市,江海富民,颗粒物(PM10),73,96,71,38,28,35,,93,46,78,77,10,10,0.6,0.6
2024-12-01T0000,3449A,113.05,22.4667,江门市,新会银湖,细颗粒物(PM2.5),58,57,58,41,34,8,,87,36,56,49,5,6,0.6,0.6
2024-12-01T0000,1828A,113.227,35.2125,焦作市,市环保局,细颗粒物(PM2.5),72,90,65,52,38,13,,51,25,59,38,9,9,0.9,0.8
2024-12-01T0000,1830A,113.1992,35.2590,焦作市,影视城,,,,49,,24,,,62,57,,20,,14,,0.5
2024-12-01T0000,3169A,113.2725,35.2067,焦作市,太极体育中心,颗粒物(PM10),73,96,68,42,31,16,,52,30,51,30,13,12,0.4,0.3
2024-12-01T0000,3335A,113.3137,35.2641,焦作市,马村街道办,颗粒物(PM10),68,86,76,45,39,8,,44,19,59,38,11,11,0.9,0.9
2024-12-01T0000,3336A,113.2465,35.2373,焦作市,焦作技师学院,颗粒物(PM10),70,89,72,46,35,10,,48,20,49,30,14,13,0.8,0.8
2024-12-01T0000,3477A,113.1656,35.2539,焦作市,中站许衡医院,颗粒物(PM10),73,95,54,36,28,30,,49,32,52,34,17,13,2.0,0.7
2024-12-01T0000,3981A,113.2449,35.1803,焦作市,原李万街道办,细颗粒物(PM2.5),83,106,65,61,36,2,,51,24,64,40,14,10,0.7,0.5
2024-12-01T0000,1708A,116.3701,23.5345,揭阳市,新兴,颗粒物(PM10),59,67,60,37,33,71,,127,95,36,34,11,10,0.6,0.5
2024-12-01T0000,1709A,116.3264,23.5443,揭阳市,西马,细颗粒物(PM2.5),79,87,58,58,31,57,,132,98,39,29,12,10,0.8,0.6
2024-12-01T0000,1710A,116.3611,23.5626,揭阳市,东兴,颗粒物(PM10),56,61,64,34,30,65,,131,98,36,34,15,11,0.7,0.6
2024-12-01T0000,1711A,116.4151,23.5294,揭阳市,渔湖,细颗粒物(PM2.5),69,83,66,50,38,46,,136,92,58,39,16,16,0.6,0.5
2024-12-01T0000,3320A,116.403,23.5699,揭阳市,曲溪,细颗粒物(PM2.5),72,62,64,52,37,62,,135,90,40,38,11,9,0.7,0.7
2024-12-01T0000,1944A,102.1692,38.5167,金昌市,天庆家园,,46,46,31,22,20,40,,81,54,25,21,42,23,0.8,0.8
2024-12-01T0000,3170A,102.1864,38.5253,金昌市,市委党校,颗粒物(PM10),66,82,34,41,15,32,,81,56,41,21,84,27,1.2,0.8
2024-12-01T0000,4022A,102.1647,38.5371,金昌市,金川区人防中心,"颗粒物(PM10),细颗粒物(PM2.5)",63,75,40,45,18,40,,81,59,31,15,48,18,1.1,0.8
2024-12-01T0000,1262A,119.647,29.077,金华市,十五中,颗粒物(PM10),70,89,57,50,28,22,,74,24,43,39,3,5,0.8,0.7
2024-12-01T0000,1263A,119.686,29.1029,金华市,监测站,颗粒物(PM10),57,63,55,29,26,31,,78,32,42,38,4,5,0.5,0.4
2024-12-01T0000,3659A,119.656,29.1131,金华市,气象局,颗粒物(PM10),63,76,65,30,28,7,,69,16,60,46,4,6,0.8,0.7
2024-12-01T0000,1767A,121.1115,41.0879,锦州市,南山,细颗粒物(PM2.5),165,,62,125,55,14,,55,24,54,38,20,28,2.5,1.3
2024-12-01T0000,1768A,121.0533,40.8434,锦州市,开发区,细颗粒物(PM2.5),89,100,97,66,44,7,,55,20,73,60,16,22,1.4,1.1
2024-12-01T0000,1769A,121.1836,41.1119,锦州市,百股街道,细颗粒物(PM2.5),89,97,67,66,45,5,,51,12,49,43,12,30,1.8,1.4
2024-12-01T0000,1770A,121.1178,41.1222,锦州市,天安街道,细颗粒物(PM2.5),130,184,63,99,36,8,,53,15,63,42,17,25,2.0,1.1
2024-12-01T0000,1771A,121.1303,41.1386,锦州市,北湖公园,细颗粒物(PM2.5),107,92,63,80,43,6,,49,12,51,40,16,23,2.4,1.3
2024-12-01T0000,2160A,112.85,35.5051,晋城市,自来水公司,,47,47,44,29,22,65,,67,63,27,34,11,13,0.9,1.1
2024-12-01T0000,2161A,112.8318,35.4936,晋城市,白云商贸,颗粒物(PM10),60,69,50,31,17,59,,66,59,30,35,10,11,1.1,1.3
2024-12-01T0000,2162A,112.8508,35.4887,晋城市,市环保局,细颗粒物(PM2.5),52,41,47,36,24,65,,69,64,29,37,10,10,0.9,1.1
2024-12-01T0000,2163A,112.8676,35.4897,晋城市,技术学院,颗粒物(PM10),57,63,51,36,22,64,,71,66,33,40,10,11,0.9,1
2024-12-01T0000,2165A,112.8453,35.546,晋城市,白马寺,,50,46,37,35,19,69,,78,76,22,24,14,19,0.8,1.2
2024-12-01T0000,3620A,112.8271,35.4828,晋城市,泽州一中,细颗粒物(PM2.5),52,50,41,36,22,64,,71,66,29,33,11,11,0.9,1.2
2024-12-01T0000,2171A,112.7532,37.6945,晋中市,锦纶小区,颗粒物(PM10),79,107,79,56,39,4,,48,16,54,47,12,19,1.0,0.9
2024-12-01T0000,2173A,112.7249,37.7067,晋中市,南都小区,细颗粒物(PM2.5),87,117,78,64,42,5,,48,19,63,49,14,22,1.0,0.8
2024-12-01T0000,2174A,112.6991,37.6982,晋中市,榆次区政府,颗粒物(PM10),74,97,91,49,40,4,,40,15,54,45,12,18,0.9,0.8
2024-12-01T0000,2865A,112.7195,37.6828,晋中市,榆次三中,颗粒物(PM10),75,100,86,51,38,3,,49,9,54,46,15,22,1.0,0.9
2024-12-01T0000,2439A,112.2014,31.0481,荆门市,竹园小学,细颗粒物(PM2.5),110,120,96,83,63,58,,83,64,35,43,13,14,0.7,0.7
2024-12-01T0000,2440A,112.1969,30.9891,荆门市,掇刀,细颗粒物(PM2.5),123,121,92,93,62,16,,83,54,76,44,9,9,0.8,0.7
2024-12-01T0000,2441A,112.2213,31.0386,荆门市,石化一小,细颗粒物(PM2.5),102,125,117,76,67,53,,86,63,42,57,10,16,0.6,0.6
2024-12-01T0000,3012A,112.1849,31.0362,荆门市,西山林语,细颗粒物(PM2.5),98,89,74,73,58,69,,87,68,18,27,6,8,0.4,0.5
2024-12-01T0000,3547A,112.1632,31.0138,荆门市,龙泉中学南校,细颗粒物(PM2.5),112,109,82,84,58,68,,84,68,27,32,10,10,0.5,0.5
2024-12-01T0000,1844A,112.2494,30.3197,荆州市,市图书馆,细颗粒物(PM2.5),104,85,73,78,63,47,,77,52,48,41,11,7,0.9,0.8
2024-12-01T0000,1845A,112.2008,30.3544,荆州市,市委党校,细颗粒物(PM2.5),104,98,75,78,61,30,,73,45,61,43,8,7,1.0,0.8
2024-12-01T0000,3194A,112.2747,30.3122,荆州市,管委会,细颗粒物(PM2.5),107,97,75,80,66,60,,81,54,42,42,20,10,0.8,0.7
2024-12-01T0000,3548A,112.1655,30.3364,荆州市,学苑路,细颗粒物(PM2.5),108,96,83,81,59,36,,85,72,66,37,14,11,0.8,0.8
2024-12-01T0000,2342A,117.3102,29.3867,景德镇市,王港中学,,,,,,,,,,,,,,,,
2024-12-01T0000,2343A,117.2117,29.2933,景德镇市,老干部活动中心,颗粒物(PM10),60,69,51,37,25,2,,82,36,45,28,8,9,0.6,0.5
2024-12-01T0000,2344A,117.1894,29.2789,景德镇市,兽医站,颗粒物(PM10),62,74,52,31,18,12,,82,46,39,21,8,10,0.4,0.2
2024-12-01T0000,2345A,117.1547,29.2617,景德镇市,台达陶瓷,颗粒物(PM10),63,76,58,31,24,4,,65,21,48,34,2,13,0.8,0.9
2024-12-01T0000,2346A,117.2461,29.2956,景德镇市,陶研所,,50,50,44,31,18,2,,67,22,36,29,6,7,0.5,0.5
2024-12-01T0000,1803A,115.9872,29.6815,九江市,十里,细颗粒物(PM2.5),73,86,55,53,30,11,,63,27,56,42,6,7,0.9,0.6
2024-12-01T0000,1804A,115.9584,29.7046,九江市,茅山头,颗粒物(PM10),57,63,51,37,21,7,,64,22,71,48,14,13,0.9,0.6
2024-12-01T0000,1805A,115.9877,29.7295,九江市,西园,细颗粒物(PM2.5),57,57,53,40,27,23,,44,38,61,52,7,7,0.6,0.6
2024-12-01T0000,1806A,116.0172,29.6547,九江市,五七二七厂,,30,30,36,15,19,65,,72,67,12,16,5,7,0.5,0.5
2024-12-01T0000,1808A,115.9114,29.6038,九江市,综合工业园,颗粒物(PM10),52,54,53,29,32,47,,66,40,46,47,16,17,0.5,0.5
2024-12-01T0000,1809A,116.0721,29.7535,九江市,石化总厂,,48,48,49,28,32,41,,67,50,31,27,15,15,0.6,0.6
2024-12-01T0000,1810A,115.9773,29.5698,九江市,庐山气象台,,28,15,22,13,14,88,,90,89,1,2,11,8,0.8,1
2024-12-01T0000,3190A,116.0254,29.6994,九江市,外国语学校,颗粒物(PM10),51,51,53,33,24,40,,70,59,28,33,14,14,0.6,0.5
2024-12-01T0000,2658A,98.5061,39.7443,酒泉市,仓门街子站,细颗粒物(PM2.5),59,63,65,42,25,19,,69,41,42,28,28,28,0.9,0.7
2024-12-01T0000,2659A,98.4989,39.7256,酒泉市,油田生活基地,细颗粒物(PM2.5),62,61,61,44,30,24,,83,45,41,29,17,18,0.8,0.8
2024-12-01T0000,2698A,76.0072,39.4467,喀什地区,巡警大队,细颗粒物(PM2.5),188,252,153,141,55,10,,66,50,102,59,10,4,4.5,1.7
2024-12-01T0000,2699A,75.9755,39.4694,喀什地区,吾办,细颗粒物(PM2.5),204,276,156,154,67,11,,69,48,108,62,2,2,3.9,1.9
2024-12-01T0000,4027A,75.9483,39.4689,喀什地区,老干局,颗粒物(PM10),193,336,170,137,60,9,,70,46,106,59,7,4,5.2,2.2
2024-12-01T0000,1824A,114.3389,34.7781,开封市,肿瘤医院,细颗粒物(PM2.5),88,96,90,65,51,4,,46,21,69,54,9,11,0.2,0.5
2024-12-01T0000,1826A,114.2885,34.7965,开封市,世纪星幼儿园,细颗粒物(PM2.5),98,102,82,73,50,2,,49,29,76,56,6,8,0.4,0.4
2024-12-01T0000,3147A,114.3438,34.8106,开封市,龙亭公园,细颗粒物(PM2.5),88,88,85,65,51,11,,48,22,70,57,5,7,0.4,0.5
2024-12-01T0000,3210A,114.3644,34.7964,开封市,汴京公园,细颗粒物(PM2.5),85,106,100,63,54,7,,47,20,61,53,6,7,0.2,0.3
2024-12-01T0000,3473A,114.2485,34.8306,开封市,技师学院,颗粒物(PM10),77,104,78,55,39,13,,51,39,67,52,6,9,0.5,0.4
2024-12-01T0000,3592A,114.4644,34.7556,开封市,祥符区生态环境局,细颗粒物(PM2.5),93,101,91,69,56,22,,46,18,46,50,5,6,0.3,0.4
2024-12-01T0000,1951A,84.895,45.6094,克拉玛依市,长征新村,,42,42,49,26,32,35,,27,27,18,22,6,5,0.4,0.5
2024-12-01T0000,1952A,84.8988,45.5893,克拉玛依市,南林小区,细颗粒物(PM2.5),55,,44,39,30,41,,34,34,16,19,1,1,0.4,0.8
2024-12-01T0000,1954A,84.905,44.3396,克拉玛依市,独山子区,细颗粒物(PM2.5),84,86,110,62,94,22,,36,25,30,42,4,6,0.9,1.3
2024-12-01T0000,1955A,85.6979,46.098,克拉玛依市,乌尔禾区商贸楼,,32,25,28,22,23,39,,38,37,15,25,4,4,0.6,0.7
2024-12-01T0000,3612A,85.1045,45.6899,克拉玛依市,白碱滩区新站,,48,48,43,27,25,42,,40,40,17,29,8,8,0.6,0.5
2024-12-01T0000,2697A,76.1454,39.7142,克孜勒苏柯尔克孜自治州,市人民政府,颗粒物(PM10),94,137,107,54,44,53,,86,74,24,16,6,6,1.2,0.9
2024-12-01T0000,3665A,76.1658,39.7157,克孜勒苏柯尔克孜自治州,克州文化中心,颗粒物(PM10),93,135,102,56,44,34,,85,70,64,26,10,16,1.2,0.8
2024-12-01T0000,1450A,102.8204,24.8886,昆明市,呈贡新区,,21,21,17,12,10,30,,74,50,30,14,14,7,0.8,0.5
2024-12-01T0000,1451A,102.6251,24.9608,昆明市,西山森林公园,,,,,,,,,,,,,,,,
2024-12-01T0000,1452A,102.7252,25.0902,昆明市,龙泉镇,,47,47,21,26,10,2,,69,28,43,22,8,7,1.2,0.7
2024-12-01T0000,1453A,102.7266,25.0375,昆明市,东风东路,,32,32,21,18,14,15,,62,36,33,19,9,10,0.5,0.5
2024-12-01T0000,1454A,102.6742,25.0669,昆明市,金鼎山,,32,27,23,22,12,30,,70,43,27,20,19,18,0.6,0.6
2024-12-01T0000,1455A,102.6644,25.0401,昆明市,碧鸡广场,,32,32,20,17,12,16,,64,38,30,20,8,9,0.7,0.7
2024-12-01T0000,3179A,102.7494,25.0119,昆明市,官渡区博物馆,,36,36,24,18,13,12,,69,38,36,20,7,8,0.6,0.5
2024-12-01T0000,3375A,102.8017,24.8336,昆明市,青年创业园,,29,29,13,15,9,14,,79,46,29,12,7,7,0.6,0.5
2024-12-01T0000,3550A,102.7997,24.9786,昆明市,昆明学院,,26,26,18,14,11,25,,74,51,30,16,8,8,0.4,0.4
2024-12-01T0000,3551A,102.5967,24.6736,昆明市,晋宁区生态环境分局,,32,32,16,12,12,39,,72,53,21,13,2,2,0.7,0.4
2024-12-01T0000,3552A,102.6678,24.9856,昆明市,云天化总部,,31,31,17,18,11,7,,75,54,41,10,8,7,0.4,0.4
2024-12-01T0000,1456A,91.1319,29.6514,拉萨市,八廓街,,36,36,24,18,13,44,,80,48,42,26,7,7,0.7,0.4
2024-12-01T0000,1457A,91.1221,29.6747,拉萨市,市环保局,细颗粒物(PM2.5),70,78,36,51,20,23,,46,27,51,28,11,7,1.9,0.7
2024-12-01T0000,1458A,91.0874,29.6475,拉萨市,区监测站,,38,38,21,26,12,23,,85,46,67,32,6,5,1.0,0.6
2024-12-01T0000,1459A,91.1774,29.6541,拉萨市,西藏大学,,34,34,27,11,10,60,,89,67,25,18,4,4,0.5,0.4
2024-12-01T0000,1460A,90.9798,29.6588,拉萨市,区辐射站,,43,43,40,27,22,32,,72,43,52,44,10,10,0.9,0.7
2024-12-01T0000,1461A,91.0834,29.6292,拉萨市,拉萨火车站,,49,49,23,33,13,10,,87,53,79,34,7,5,1.7,0.9
2024-12-01T0000,2520A,109.2203,23.7256,来宾市,来宾技工学校,细颗粒物(PM2.5),114,138,81,86,45,34,,125,82,45,33,8,16,1.1,0.8
2024-12-01T0000,3535A,109.1781,23.7297,来宾市,兴宾区政府,细颗粒物(PM2.5),144,153,72,110,47,58,,128,96,29,22,10,11,1.0,0.7
2024-12-01T0000,4002A,109.2416,23.7461,来宾市,中南小学,颗粒物(PM10),85,119,79,62,43,9,,120,65,62,44,8,17,1.0,0.8
2024-12-01T0000,1476A,103.631,36.1031,兰州市,兰炼宾馆,颗粒物(PM10),64,78,80,40,54,9,,66,24,74,58,18,18,1.1,1
2024-12-01T0000,1477A,104.1373,35.9454,兰州市,榆中兰大校区,,,,,,,,,,,,,,,,
2024-12-01T0000,1478A,103.8412,36.0726,兰州市,生物制品所,细颗粒物(PM2.5),75,85,104,55,64,3,,43,14,72,74,14,18,1.1,1.8
2024-12-01T0000,1479A,103.831,36.0464,兰州市,铁路设计院,细颗粒物(PM2.5),90,100,113,67,72,4,,45,11,89,85,26,25,2.3,2.2
2024-12-01T0000,3186A,103.7158,36.1058,兰州市,教育港,细颗粒物(PM2.5),84,77,92,62,58,2,,72,19,80,73,15,18,1.5,1.5
2024-12-01T0000,3241A,103.7439,36.0842,兰州市,百合公园,细颗粒物(PM2.5),85,96,82,63,51,6,,60,19,71,72,16,15,1.9,1.7
2024-12-01T0000,3242A,103.9611,35.998,兰州市,和平,,46,46,82,25,52,25,,57,40,64,64,17,17,1.0,1.2
2024-12-01T0000,3245A,103.6633,36.533,兰州新区,新区管委会,细颗粒物(PM2.5),84,90,69,62,49,5,,74,32,47,40,20,36,1.0,0.7
2024-12-01T0000,3246A,103.6975,36.4789,兰州新区,舟曲中学,细颗粒物(PM2.5),98,137,66,73,46,6,,74,38,72,41,20,25,1.3,0.6
2024-12-01T0000,1067A,116.6708,39.5111,廊坊市,药材公司,细颗粒物(PM2.5),135,153,76,103,51,4,,49,9,82,64,16,7,1.0,0.8
2024-12-01T0000,1068A,116.7214,39.5589,廊坊市,开发区,细颗粒物(PM2.5),97,121,79,72,44,1,,42,12,74,58,8,6,0.8,0.6
2024-12-01T0000,1070A,116.7244,39.5269,廊坊市,北华航天学院,细颗粒物(PM2.5),105,141,78,79,40,2,,43,12,81,62,16,8,0.9,0.7
2024-12-01T0000,2919A,116.7022,39.5453,廊坊市,河北工业大学,细颗粒物(PM2.5),135,189,86,103,45,3,,44,16,79,60,19,9,0.9,0.6
2024-12-01T0000,2535A,103.7723,29.5462,乐山市,花湖湾,细颗粒物(PM2.5),87,95,63,64,54,60,,90,85,18,16,3,3,0.6,0.5
2024-12-01T0000,2536A,103.7627,29.5844,乐山市,牛耳桥,细颗粒物(PM2.5),89,79,65,66,54,33,,66,44,37,30,6,6,0.9,0.8
2024-12-01T0000,2537A,103.7508,29.6006,乐山市,市第三水厂,细颗粒物(PM2.5),84,77,62,62,51,50,,75,43,35,36,5,5,0.6,0.6
2024-12-01T0000,2538A,103.7571,29.5664,乐山市,市监测站,细颗粒物(PM2.5),73,71,65,53,48,51,,74,62,27,21,6,5,0.7,0.6
2024-12-01T0000,3361A,103.7311,29.5628,乐山市,理工大学,细颗粒物(PM2.5),69,63,58,50,47,40,,84,65,32,22,6,6,0.7,0.7
2024-12-01T0000,2598A,100.2143,26.8576,丽江市,西南郊,,24,,23,13,12,74,,87,76,4,5,4,4,0.7,0.6
2024-12-01T0000,2599A,100.2497,26.8802,丽江市,丽江古城,,22,20,20,8,11,69,,82,70,9,11,9,9,0.6,0.6
2024-12-01T0000,2600A,100.2203,26.8906,丽江市,市中心,,22,9,10,3,7,68,,77,67,9,15,6,6,0.6,0.5
2024-12-01T0000,1267A,119.914,28.4514,丽水市,监测站大楼,,32,32,37,19,21,6,,71,22,46,34,10,5,0.6,0.6
2024-12-01T0000,1268A,119.93,28.4586,丽水市,莲都小学,颗粒物(PM10),55,60,40,30,18,5,,72,30,48,28,6,6,0.5,0.4
2024-12-01T0000,1269A,119.879,28.4231,丽水市,余庄前,,42,42,33,25,19,4,,72,23,26,22,5,5,0.4,0.3
2024-12-01T0000,1173A,119.176,34.5885,连云港市,市环境监测站,细颗粒物(PM2.5),104,129,100,78,54,31,,77,40,48,51,13,21,0.5,0.7
2024-12-01T0000,3000A,119.3581,34.6972,连云港市,德源药业,细颗粒物(PM2.5),94,110,88,70,43,38,,71,48,47,48,6,6,0.5,0.5
2024-12-01T0000,3007A,119.178,34.844,连云港市,新城一中,细颗粒物(PM2.5),73,92,99,53,58,15,,58,16,81,66,11,17,0.5,0.6
2024-12-01T0000,3008A,119.3608,34.7519,连云港市,胡沟管理处,颗粒物(PM10),65,80,79,41,37,68,,61,60,17,25,6,11,0.1,0.2
2024-12-01T0000,3009A,119.1478,34.5911,连云港市,矿山设计院,细颗粒物(PM2.5),98,129,99,73,53,17,,80,41,61,46,10,15,0.8,0.9
2024-12-01T0000,3434A,119.2413,34.6539,连云港市,工贸学校,细颗粒物(PM2.5),74,90,78,54,42,76,,86,78,22,24,11,16,0.5,0.6
2024-12-01T0000,3664A,119.4172,34.7341,连云港市,连云街道,颗粒物(PM10),71,92,70,45,33,77,,67,67,22,29,9,12,0.4,0.4
2024-12-01T0000,2571A,102.3431,27.8099,凉山彝族自治州,青龙寺,,23,23,30,9,12,36,,78,61,16,11,4,6,0.7,0.8
2024-12-01T0000,2572A,102.2721,27.8415,凉山彝族自治州,邛海宾馆,,30,30,38,19,26,42,,68,53,19,20,7,9,0.6,0.8
2024-12-01T0000,2573A,102.2625,27.898,凉山彝族自治州,西昌市政府,,27,27,40,16,26,50,,75,64,12,20,6,8,0.7,0.9
2024-12-01T0000,2574A,102.2685,27.8851,凉山彝族自治州,凉山州政府,,29,29,43,17,28,38,,71,51,21,24,8,10,0.8,0.9
2024-12-01T0000,2575A,102.237,27.8914,凉山彝族自治州,长安,,26,26,49,15,26,50,,76,65,12,25,9,11,0.7,0.9
2024-12-01T0000,2212A,123.2,41.1953,辽阳市,宏伟区,,38,,51,26,33,34,,28,18,13,35,9,16,0.8,1.3
2024-12-01T0000,2213A,123.1683,41.2495,辽阳市,新华园,细颗粒物(PM2.5),74,67,81,54,66,6,,18,7,51,55,12,16,1.3,1.9
2024-12-01T0000,2214A,123.2354,41.2639,辽阳市,滨河路,,45,31,53,31,35,24,,28,12,32,41,13,18,0.8,1.1
2024-12-01T0000,2215A,123.149,41.2991,辽阳市,铁西工业园,细颗粒物(PM2.5),120,92,92,91,69,2,,16,2,40,46,9,20,1.5,1.4
2024-12-01T0000,2227A,125.1358,42.8845,辽源市,环保局,细颗粒物(PM2.5),79,85,52,58,38,7,,52,16,34,33,6,9,1.4,1.2
2024-12-01T0000,3239A,125.0764,42.9078,辽源市,银鹰制药,细颗粒物(PM2.5),88,78,48,65,40,7,,48,11,42,39,13,17,1.7,1.1
2024-12-01T0000,1625A,115.9848,36.4372,聊城市,区政府,细颗粒物(PM2.5),77,100,91,56,47,39,,60,52,50,49,14,13,0.8,0.7
2024-12-01T0000,2878A,116.0072,36.4343,聊城市,聊大东校,细颗粒物(PM2.5),84,105,102,62,54,34,,62,50,51,47,14,14,0.9,0.8
2024-12-01T0000,3200A,115.9819,36.4978,聊城市,监控中心,细颗粒物(PM2.5),77,102,87,56,46,46,,64,59,44,45,15,13,0.7,0.6
2024-12-01T0000,3513A,116.0445,36.4361,聊城市,九州社区,颗粒物(PM10),71,91,87,48,44,23,,58,42,52,41,14,15,0.6,0.6
2024-12-01T0000,4018A,116.0567,36.4608,聊城市,星美广场,细颗粒物(PM2.5),73,91,91,53,46,31,,59,39,48,38,17,17,0.8,0.7
2024-12-01T0000,2632A,94.3681,29.6376,林芝市,林芝监测站,,20,8,11,3,6,64,,86,78,3,5,6,6,0.2,0.1
2024-12-01T0000,2633A,94.3616,29.6616,林芝市,林芝人民医院,,18,12,10,7,5,56,,79,70,5,5,6,6,0.2,0.2
2024-12-01T0000,2603A,100.0781,23.8982,临沧市,市环保局,,23,23,18,14,16,24,,57,40,11,10,8,8,0.6,0.6
2024-12-01T0000,2604A,100.0894,23.8822,临沧市,市气象局,,39,27,18,27,14,19,,59,39,17,11,8,8,0.5,0.4
2024-12-01T0000,1733A,111.5531,36.0783,临汾市,临钢医院,颗粒物(PM10),70,90,80,48,42,8,,41,16,41,46,8,15,1.1,1.2
2024-12-01T0000,1734A,111.5028,36.0714,临汾市,技工学校,细颗粒物(PM2.5),113,131,92,85,52,3,,43,14,72,59,7,14,1.8,1.4
2024-12-01T0000,1736A,111.5018,36.0855,临汾市,市委,颗粒物(PM10),90,130,95,66,47,3,,39,13,56,50,8,14,1.5,1.3
2024-12-01T0000,3018A,111.505,36.1014,临汾市,唐尧大酒店,细颗粒物(PM2.5),79,100,86,58,48,6,,42,18,47,45,10,15,1.4,1.3
2024-12-01T0000,3668A,111.5036,36.0414,临汾市,城南,细颗粒物(PM2.5),84,113,93,62,47,2,,42,10,45,49,5,16,1.2,1.2
2024-12-01T0000,2667A,103.2069,35.5993,临夏回族自治州,环保局,颗粒物(PM10),67,84,73,24,17,21,,68,38,38,34,9,9,1.6,1.2
2024-12-01T0000,2668A,103.2417,35.6057,临夏回族自治州,建设大厦,,49,49,54,15,18,34,,73,34,27,26,8,8,0.9,0.9
2024-12-01T0000,1618A,118.3429,35.0532,临沂市,沂河小区,细颗粒物(PM2.5),89,95,102,66,62,52,,69,59,46,57,19,19,0.5,1
2024-12-01T0000,1619A,118.295,35.0583,临沂市,鲁南制药厂,细颗粒物(PM2.5),87,97,108,64,60,52,,68,54,33,48,14,18,0.4,0.8
2024-12-01T0000,1620A,118.2794,34.9976,临沂市,新光毛纺厂,细颗粒物(PM2.5),99,112,104,74,61,29,,71,42,67,57,13,17,0.7,0.9
2024-12-01T0000,1621A,118.3956,35.0888,临沂市,河东保险公司,细颗粒物(PM2.5),92,105,107,68,60,5,,66,24,126,65,14,13,0.4,0.6
2024-12-01T0000,3370A,118.3564,35.0215,临沂市,十里堡居委,细颗粒物(PM2.5),79,105,100,58,57,51,,76,59,44,46,21,19,0.5,0.9
2024-12-01T0000,3496A,118.3604,35.1084,临沂市,南坊新区,细颗粒物(PM2.5),73,88,100,53,54,56,,76,64,43,55,12,13,0.5,0.8
2024-12-01T0000,3860A,118.3920,35.0300,临沂市,皇山花园小区,颗粒物(PM10),68,85,97,47,52,48,,70,54,48,60,7,12,0.5,0.8
2024-12-01T0000,1870A,109.4856,24.3895,柳州市,柳东小学,细颗粒物(PM2.5),65,76,53,47,33,40,,111,84,44,25,13,18,0.7,0.6
2024-12-01T0000,1871A,109.4157,24.3277,柳州市,环保监测站,颗粒物(PM10),66,81,79,44,42,32,,105,65,47,38,15,19,1.0,0.8
2024-12-01T0000,1872A,109.389,24.341,柳州市,河西水厂,颗粒物(PM10),97,143,97,69,47,2,,105,61,92,44,19,25,1.3,1
2024-12-01T0000,1873A,109.4311,24.2921,柳州市,市四中,颗粒物(PM10),92,134,79,58,40,9,,108,58,83,47,10,15,1.1,0.9
2024-12-01T0000,1874A,109.4006,24.3631,柳州市,市九中,"颗粒物(PM10),细颗粒物(PM2.5)",73,96,86,53,45,22,,103,65,54,40,10,15,0.7,0.7
2024-12-01T0000,1875A,109.4958,24.3134,柳州市,古亭山,,47,47,46,31,28,11,,100,58,94,53,26,24,0.7,0.7
2024-12-01T0000,3402A,109.5422,24.3996,柳州市,市二中,颗粒物(PM10),68,85,63,38,33,4,,93,40,83,49,10,11,0.4,0.4
2024-12-01T0000,2307A,116.5079,31.737,六安市,监测大楼,细颗粒物(PM2.5),59,65,49,42,27,30,,91,65,58,28,6,6,0.6,0.5
2024-12-01T0000,2308A,116.4738,31.7643,六安市,皖西学院,细颗粒物(PM2.5),69,68,54,50,28,31,,88,52,43,35,5,5,0.6,0.6
2024-12-01T0000,2309A,116.4996,31.7905,六安市,朝阳厂,细颗粒物(PM2.5),53,51,44,37,27,52,,81,61,26,29,3,2,0.6,0.6
2024-12-01T0000,2310A,116.5567,31.7886,六安市,开发区,细颗粒物(PM2.5),70,87,79,51,36,28,,90,51,44,36,4,5,0.7,0.9
2024-12-01T0000,2576A,104.8,26.5892,六盘水市,窑上,颗粒物(PM10),54,57,49,36,38,25,,79,53,7,11,8,11,0.6,0.6
2024-12-01T0000,2577A,104.83,26.5917,六盘水市,黄土坡,,45,45,49,30,35,81,,87,81,13,17,13,15,0.4,0.5
2024-12-01T0000,2578A,104.89,26.5939,六盘水市,水钢,细颗粒物(PM2.5),73,69,62,53,44,86,,92,87,13,20,9,14,0.5,0.6
2024-12-01T0000,2579A,104.8475,26.5894,六盘水市,民中,细颗粒物(PM2.5),64,59,49,46,36,66,,86,76,22,23,13,14,0.8,0.7
2024-12-01T0000,2580A,104.9544,26.5506,六盘水市,双水,细颗粒物(PM2.5),57,53,50,40,34,86,,88,85,11,15,10,12,0.5,0.5
2024-12-01T0000,2335A,117.0189,25.1181,龙岩市,龙岩师专,,,,,,,,,,,,,,,,
2024-12-01T0000,2336A,117.0217,25.1033,龙岩市,龙岩市监测站,,38,32,40,26,26,21,,90,41,38,29,4,7,0.6,0.6
2024-12-01T0000,2337A,117.0258,25.0661,龙岩市,闽西职业技术学院,颗粒物(PM10),51,52,52,26,20,14,,84,34,43,33,25,14,0.4,0.5
2024-12-01T0000,2338A,117.0196,25.0306,龙岩市,龙岩学院,,26,20,34,18,18,46,,86,64,13,22,3,4,0.4,0.5
2024-12-01T0000,2665A,105.0822,33.3261,陇南市,汉王镇固水子,,,,,,,,,,,,,,,,
2024-12-01T0000,2885A,104.9339,33.3826,陇南市,滨江中学,颗粒物(PM10),80,110,92,58,43,6,,49,13,62,47,23,27,3.8,1.8
2024-12-01T0000,3247A,104.955,33.371,陇南市,市总工会,颗粒物(PM10),59,67,76,38,35,14,,58,25,44,34,3,8,0.6,0.6
2024-12-01T0000,2487A,111.9589,27.8901,娄底市,电视发射台,,46,46,39,30,24,54,,96,74,15,14,7,10,1.2,1.1
2024-12-01T0000,2488A,111.9975,27.725,娄底市,市监测站,细颗粒物(PM2.5),77,84,76,56,49,8,,108,69,75,36,11,12,1.1,1.1
2024-12-01T0000,2489A,112.0194,27.7314,娄底市,市委党校,细颗粒物(PM2.5),69,84,79,50,48,43,,92,62,27,31,7,7,0.3,0.4
2024-12-01T0000,2490A,111.9561,27.7569,娄底市,涟钢,细颗粒物(PM2.5),100,114,79,75,50,22,,98,68,33,28,9,19,1.0,1.3
2024-12-01T0000,2491A,111.9892,27.7044,娄底市,市政府,细颗粒物(PM2.5),70,77,68,51,43,44,,102,73,35,21,12,11,0.7,0.6
2024-12-01T0000,1893A,105.4324,28.9634,泸州市,九狮山,,,,,,,,,,,,,,,,
2024-12-01T0000,1894A,105.4427,28.9063,泸州市,小市上码头,细颗粒物(PM2.5),155,147,83,118,64,34,,104,78,55,31,4,4,0.7,0.5
2024-12-01T0000,1895A,105.4241,28.8573,泸州市,兰田宪桥,细颗粒物(PM2.5),124,109,85,94,64,25,,90,63,45,27,3,4,0.8,0.7
2024-12-01T0000,1896A,105.4379,28.8833,泸州市,市环监站,细颗粒物(PM2.5),135,132,81,103,62,25,,92,64,59,30,6,6,0.8,0.6
2024-12-01T0000,3490A,105.3617,28.7703,泸州市,纳溪区环保局,细颗粒物(PM2.5),94,109,78,70,55,4,,88,46,57,35,5,6,0.6,0.6
2024-12-01T0000,2183A,111.1406,37.5211,吕梁市,环保局,颗粒物(PM10),72,94,95,25,28,2,,16,6,44,42,3,8,0.6,0.6
2024-12-01T0000,2185A,111.1297,37.5136,吕梁市,自来水公司,颗粒物(PM10),99,148,118,37,30,4,,17,9,46,41,9,16,0.5,0.6
2024-12-01T0000,2867A,111.1283,37.51,吕梁市,马茂庄小学,颗粒物(PM10),76,101,106,28,26,3,,17,6,51,49,4,13,0.6,0.6
2024-12-01T0000,1812A,112.3931,34.6516,洛阳市,市委党校,细颗粒物(PM2.5),65,74,52,47,24,18,,76,52,54,28,8,5,0.7,0.5
2024-12-01T0000,1814A,112.4657,34.6871,洛阳市,豫西宾馆,细颗粒物(PM2.5),85,108,68,63,33,9,,73,41,70,41,17,9,0.8,0.7
2024-12-01T0000,1815A,112.494,34.6886,洛阳市,河南林校,细颗粒物(PM2.5),95,84,59,71,38,7,,68,39,67,44,6,7,0.6,0.5
2024-12-01T0000,1816A,112.3844,34.623,洛阳市,开发区管委会,细颗粒物(PM2.5),99,89,48,74,31,17,,79,56,51,28,9,10,0.5,0.3
2024-12-01T0000,1817A,112.4267,34.6258,洛阳市,市委新办公区,细颗粒物(PM2.5),103,103,50,77,33,24,,80,57,36,17,6,5,0.5,0.3
2024-12-01T0000,3340A,112.6005,34.6326,洛阳市,伊滨,细颗粒物(PM2.5),68,81,55,49,24,33,,73,53,41,33,8,6,0.4,0.3
2024-12-01T0000,3341A,112.4951,34.6332,洛阳市,中移产业园,细颗粒物(PM2.5),79,77,45,58,24,28,,79,58,45,29,7,6,0.3,0.2
2024-12-01T0000,3593A,112.5736,34.8993,洛阳市,吉利监测站,,48,48,37,24,19,4,,68,42,75,34,3,3,0.3,0.3
2024-12-01T0000,3635A,112.3677,34.662,洛阳市,河科大西苑校区,细颗粒物(PM2.5),78,81,49,57,30,20,,78,51,50,29,12,8,0.6,0.5
2024-12-01T0000,3636A,112.4388,34.6781,洛阳市,英才小学,细颗粒物(PM2.5),95,96,52,71,33,4,,71,41,68,35,14,8,0.5,0.4
2024-12-01T0000,2399A,114.051,33.5699,漯河市,三五一五工厂,细颗粒物(PM2.5),70,63,70,51,48,62,,82,53,20,29,7,7,0.7,0.5
2024-12-01T0000,2400A,114.0055,33.5698,漯河市,漯河大学,细颗粒物(PM2.5),83,83,78,61,48,42,,84,50,40,35,7,6,0.7,0.5
2024-12-01T0000,2401A,114.0138,33.5828,漯河市,市水利局,,,,69,39,42,60,,83,61,22,27,8,7,0.8,0.7
2024-12-01T0000,2402A,114.0261,33.5698,漯河市,市广电局,细颗粒物(PM2.5),73,68,65,53,46,60,,84,60,21,25,8,7,0.6,0.5
2024-12-01T0000,3478A,113.9749,33.5664,漯河市,市图书馆,细颗粒物(PM2.5),70,78,69,51,44,52,,82,61,30,30,6,6,0.7,0.5
2024-12-01T0000,3479A,114.0967,33.5906,漯河市,召陵区卫健委,颗粒物(PM10),64,77,67,38,41,70,,85,65,20,23,11,10,0.7,0.6
2024-12-01T0000,1798A,118.5092,31.6837,马鞍山市,湖东路四小,颗粒物(PM10),62,73,77,40,37,55,,76,39,39,55,5,7,1.3,0.9
2024-12-01T0000,1799A,118.5024,31.6449,马鞍山市,开发区,细颗粒物(PM2.5),77,93,84,56,46,35,,73,26,60,65,7,10,1.3,0.9
2024-12-01T0000,1800A,118.5228,31.7231,马鞍山市,慈湖,细颗粒物(PM2.5),59,58,67,42,45,70,,71,56,33,51,7,9,0.8,0.9
2024-12-01T0000,1802A,118.6245,31.7241,马鞍山市,濮塘,细颗粒物(PM2.5),70,74,67,51,40,77,,87,82,19,34,13,14,0.8,0.8
2024-12-01T0000,3633A,118.4918,31.6809,马鞍山市,雨山,颗粒物(PM10),60,70,75,39,39,54,,81,47,42,54,8,11,1.1,0.9
2024-12-01T0000,1686A,111.0286,21.4688,茂名市,电白南海,颗粒物(PM10),58,66,50,27,19,89,,140,124,28,20,22,11,0.5,0.5
2024-12-01T0000,1687A,110.9294,21.6533,茂名市,茂石化七小,颗粒物(PM10),59,68,54,31,28,98,,136,117,23,17,18,14,0.6,0.6
2024-12-01T0000,1688A,110.9107,21.6687,茂名市,健康路,颗粒物(PM10),53,56,49,27,26,104,,146,130,28,21,21,21,0.6,0.6
2024-12-01T0000,1689A,110.8592,21.6828,茂名市,高岭,颗粒物(PM10),75,100,66,34,30,53,,127,104,56,27,14,23,0.7,0.7
2024-12-01T0000,3450A,111.01,21.5165,茂名市,电白水东,颗粒物(PM10),53,56,43,31,23,101,,130,119,17,14,14,14,0.7,0.7
2024-12-01T0000,2539A,104.0308,30.0478,眉山市,黑龙滩水库,颗粒物(PM10),56,62,71,33,40,84,,100,90,6,7,4,4,0.2,0.3
2024-12-01T0000,2540A,103.8416,30.0874,眉山市,气象局,细颗粒物(PM2.5),117,,73,88,57,6,,90,51,49,31,4,6,0.9,0.7
2024-12-01T0000,3137A,103.8578,30.0744,眉山市,市委党校,细颗粒物(PM2.5),73,68,63,53,48,9,,89,53,63,35,6,7,0.7,0.6
2024-12-01T0000,3148A,103.8291,30.0564,眉山市,区人社局,细颗粒物(PM2.5),58,,54,41,48,48,,89,54,48,38,8,7,0.6,0.6
2024-12-01T0000,1690A,116.1231,24.3284,梅州市,梅江月梅,颗粒物(PM10),68,86,45,26,21,5,,92,36,42,26,10,9,0.7,0.6
2024-12-01T0000,1691A,116.0797,24.2719,梅州市,梅县新城,,42,42,48,28,25,7,,81,29,42,35,4,6,0.6,0.5
2024-12-01T0000,1692A,116.1248,24.2654,梅州市,环境监控中心,颗粒物(PM10),54,57,42,28,20,4,,82,32,60,33,6,7,0.6,0.5
2024-12-01T0000,3315A,116.1233,24.2991,梅州市,梅龙,,44,44,38,27,19,20,,79,41,34,26,6,7,0.7,0.6
2024-12-01T0000,1878A,104.7778,31.4741,绵阳市,富乐山,细颗粒物(PM2.5),74,70,75,54,53,3,,94,69,66,39,3,4,0.8,0.7
2024-12-01T0000,1879A,104.7563,31.4535,绵阳市,市人大,细颗粒物(PM2.5),108,120,99,81,64,3,,71,30,69,53,3,3,0.8,0.8
2024-12-01T0000,1880A,104.6697,31.4668,绵阳市,高新区自来水公司,细颗粒物(PM2.5),110,117,99,83,62,2,,81,35,56,44,5,6,1.1,0.8
2024-12-01T0000,1881A,104.7287,31.5075,绵阳市,三水厂,细颗粒物(PM2.5),114,117,95,86,66,3,,70,29,56,47,7,8,0.8,0.7
2024-12-01T0000,3491A,104.69,31.5322,绵阳市,西科大附属小学,细颗粒物(PM2.5),130,127,102,99,64,14,,72,36,51,43,8,6,1.0,0.9
2024-12-01T0000,3492A,104.5648,31.5343,绵阳市,安州区旅游局,细颗粒物(PM2.5),128,117,89,97,76,9,,83,42,35,38,5,8,1.0,0.9
2024-12-01T0000,1784A,129.61,44.561,牡丹江市,环保大楼,,36,36,28,22,22,52,,53,46,15,17,12,9,0.4,0.4
2024-12-01T0000,1785A,129.6115,44.5782,牡丹江市,文化广场,,20,14,30,14,27,50,,51,44,26,22,11,13,0.5,0.6
2024-12-01T0000,1786A,129.5904,44.5963,牡丹江市,第一医院,细颗粒物(PM2.5),68,,33,49,36,65,,59,51,8,19,5,7,0.4,0.5
2024-12-01T0000,1787A,129.6364,44.6075,牡丹江市,机车工厂,,27,27,35,11,24,51,,50,38,15,20,6,10,0.4,0.5
2024-12-01T0000,1788A,129.6386,44.5462,牡丹江市,第一中学,,39,,27,27,24,50,,56,36,17,18,11,6,0.4,0.4
2024-12-01T0000,2531A,105.0703,29.61,内江市,市监测站,细颗粒物(PM2.5),70,52,57,51,50,25,,82,51,44,33,6,7,0.6,0.7
2024-12-01T0000,2532A,105.0717,29.5947,内江市,东兴区政府,细颗粒物(PM2.5),64,59,52,46,43,64,,90,65,33,34,7,7,0.6,0.7
2024-12-01T0000,2533A,105.0653,29.5817,内江市,内江二中,,,,66,,52,,,41,,,30,,8,,0.6
2024-12-01T0000,2534A,105.0406,29.5822,内江市,内江日报社,细颗粒物(PM2.5),65,62,61,47,42,44,,82,55,49,38,13,13,0.7,0.7
2024-12-01T0000,2628A,92.0657,31.4846,那曲市,那曲监测站,细颗粒物(PM2.5),165,175,67,125,39,4,,79,41,58,26,7,10,4.7,1.7
2024-12-01T0000,3128A,92.0506,31.4797,那曲市,那曲会议中心,颗粒物(PM10),63,75,52,43,19,27,,86,63,32,15,8,5,2.3,1.4
2024-12-01T0000,1290A,115.8931,28.6843,南昌市,省外办,细颗粒物(PM2.5),98,121,91,73,48,9,,66,28,85,61,7,11,1.3,0.8
2024-12-01T0000,1291A,115.8886,28.7003,南昌市,省林业公司,颗粒物(PM10),75,100,81,53,35,3,,69,29,82,54,10,12,1.0,0.6
2024-12-01T0000,1292A,115.8126,28.7442,南昌市,林科所,颗粒物(PM10),56,61,53,24,23,4,,72,33,88,50,13,10,0.6,0.6
2024-12-01T0000,1294A,115.8518,28.687,南昌市,建工学校,细颗粒物(PM2.5),73,73,81,53,32,10,,71,32,71,52,15,13,0.7,0.6
2024-12-01T0000,1295A,115.8921,28.6424,南昌市,象湖,颗粒物(PM10),77,104,80,47,38,3,,69,22,80,59,8,10,1.2,1
2024-12-01T0000,1296A,115.7423,28.7996,南昌市,武术学校,,25,,27,17,14,14,,55,31,7,10,3,3,0.5,0.4
2024-12-01T0000,1298A,115.9314,28.6842,南昌市,省站,颗粒物(PM10),119,188,127,72,48,8,,69,30,80,52,14,14,1.1,0.7
2024-12-01T0000,3046A,115.9084,28.6062,南昌市,机电学校,颗粒物(PM10),81,112,90,56,38,5,,77,36,80,48,12,14,0.4,0.5
2024-12-01T0000,3690A,115.9721,28.7031,南昌市,外国语学校,颗粒物(PM10),66,82,78,45,32,18,,72,37,63,47,8,11,0.8,0.7
2024-12-01T0000,1905A,106.056,30.8064,南充市,西山风景区,细颗粒物(PM2.5),59,56,55,42,49,77,,101,94,14,14,3,4,0.7,0.7
2024-12-01T0000,1906A,106.0789,30.8023,南充市,南充市委,"颗粒物(PM10),细颗粒物(PM2.5)",55,60,77,39,58,7,,73,30,55,36,3,5,0.5,0.5
2024-12-01T0000,1907A,106.1031,30.8217,南充市,南充炼油厂,细颗粒物(PM2.5),88,102,84,65,61,3,,79,34,60,38,4,6,0.8,0.7
2024-12-01T0000,1908A,106.1064,30.7856,南充市,高坪区监测站,细颗粒物(PM2.5),90,99,87,67,66,1,,66,27,62,40,3,4,0.9,0.7
2024-12-01T0000,1909A,106.0642,30.7636,南充市,嘉陵区环保局,细颗粒物(PM2.5),70,69,82,51,52,2,,64,22,77,48,4,9,1.0,0.9
2024-12-01T0000,1910A,106.1087,30.8388,南充市,市环境监测站,细颗粒物(PM2.5),88,102,86,65,55,13,,75,42,54,41,5,7,0.5,0.5
2024-12-01T0000,1151A,118.8086,32.1065,南京市,迈皋桥,颗粒物(PM10),56,61,54,34,29,52,,70,34,38,56,4,6,0.5,0.7
2024-12-01T0000,1152A,118.7538,32.0551,南京市,草场门,颗粒物(PM10),69,88,72,48,35,5,,69,22,101,70,6,10,1.0,1
2024-12-01T0000,1153A,118.7794,32.0745,南京市,山西路,细颗粒物(PM2.5),67,75,68,48,34,40,,81,51,77,62,5,6,0.5,0.7
2024-12-01T0000,1154A,118.7752,32.0023,南京市,中华门,颗粒物(PM10),68,85,68,46,34,7,,66,27,96,66,3,11,0.8,1
2024-12-01T0000,1155A,118.8109,32.0309,南京市,瑞金路,细颗粒物(PM2.5),70,78,72,51,35,6,,50,15,92,64,6,10,0.6,0.5
2024-12-01T0000,1156A,118.7997,32.0754,南京市,玄武湖,颗粒物(PM10),63,76,65,40,27,42,,51,33,59,75,7,7,0.8,1.1
2024-12-01T0000,1157A,118.6414,32.0931,南京市,浦口,颗粒物(PM10),64,78,59,36,28,35,,79,57,47,32,8,9,0.7,0.6
2024-12-01T0000,1158A,118.7356,31.9996,南京市,奥体中心,颗粒物(PM10),65,80,71,44,35,16,,66,33,88,63,8,14,0.7,0.9
2024-12-01T0000,1159A,118.9125,32.1028,南京市,仙林大学城,颗粒物(PM10),62,73,65,41,31,19,,58,20,71,60,8,12,0.8,1
2024-12-01T0000,3422A,118.8436,31.9198,南京市,江宁彩虹桥,颗粒物(PM10),68,86,71,44,31,5,,68,30,94,59,7,9,0.4,0.5
2024-12-01T0000,3423A,119.0138,31.6494,南京市,溧水永阳,细颗粒物(PM2.5),67,63,56,48,34,18,,83,31,56,39,4,5,0.4,0.4
2024-12-01T0000,3424A,118.879,31.3302,南京市,高淳老职中,细颗粒物(PM2.5),72,74,50,52,33,53,,95,70,28,21,9,8,0.7,0.5
2024-12-01T0000,3427A,118.8554,32.3578,南京市,六合雄州,颗粒物(PM10),64,78,68,43,30,4,,74,31,76,50,8,10,1.0,0.9
2024-12-01T0000,1401A,108.3103,22.7881,南宁市,二十一中,细颗粒物(PM2.5),78,73,70,57,46,67,,139,86,53,50,9,7,0.8,0.8
2024-12-01T0000,1402A,108.3141,22.8528,南宁市,北湖,细颗粒物(PM2.5),138,146,79,105,51,6,,130,54,107,64,16,15,1.2,0.8
2024-12-01T0000,1403A,108.3206,22.8225,南宁市,市监测站,颗粒物(PM10),83,115,72,60,40,15,,132,64,96,54,18,18,1.0,0.7
2024-12-01T0000,1404A,108.3829,22.8037,南宁市,大自然花园,细颗粒物(PM2.5),75,78,53,55,37,78,,131,84,43,37,11,9,0.8,0.7
2024-12-01T0000,1405A,108.4394,22.7904,南宁市,仙葫,细颗粒物(PM2.5),97,105,72,72,46,10,,124,45,81,47,10,12,1.2,1
2024-12-01T0000,1406A,108.2397,22.8467,南宁市,区农职院,细颗粒物(PM2.5),69,82,58,50,35,30,,126,68,60,36,26,17,0.7,0.6
2024-12-01T0000,1407A,108.3275,22.735,南宁市,英华嘉园,细颗粒物(PM2.5),88,78,78,65,48,62,,115,46,52,64,18,10,0.8,0.7
2024-12-01T0000,1408A,108.2257,22.7757,南宁市,沙井镇街道办,颗粒物(PM10),101,152,105,56,49,14,,116,47,110,60,12,13,0.9,0.8
2024-12-01T0000,3401A,108.4834,22.7618,南宁市,红星社区,细颗粒物(PM2.5),75,93,70,55,42,24,,139,75,67,45,9,10,0.9,0.7
2024-12-01T0000,2331A,118.0966,26.6761,南平市,茫荡山,,,,,,,,,,,,,,,,
2024-12-01T0000,2332A,118.1681,26.6369,南平市,南平市监测站,,37,37,38,25,22,10,,77,36,40,26,3,5,0.6,0.6
2024-12-01T0000,2333A,118.1825,26.6489,南平市,南平铝业有限公司,,48,41,42,33,29,2,,62,21,52,37,4,6,0.5,0.5
2024-12-01T0000,2334A,118.1756,26.6272,南平市,南平七中,,33,29,35,23,20,20,,82,43,26,17,3,4,0.5,0.5
2024-12-01T0000,1168A,120.9098,31.9663,南通市,狼山街道,细颗粒物(PM2.5),89,98,70,66,44,3,,69,18,71,55,7,11,1.0,1.1
2024-12-01T0000,1169A,120.86,32.0005,南通市,虹桥,细颗粒物(PM2.5),88,89,80,65,51,2,,58,12,84,75,6,12,0.8,0.9
2024-12-01T0000,1170A,120.87,32.02,南通市,城中,细颗粒物(PM2.5),87,109,91,64,42,6,,60,17,88,75,8,14,1.0,1.1
2024-12-01T0000,1171A,120.94,31.93,南通市,星湖花园,细颗粒物(PM2.5),68,74,70,49,41,1,,64,12,77,62,5,10,0.8,1.1
2024-12-01T0000,1172A,120.81,32.0417,南通市,紫琅学院,细颗粒物(PM2.5),85,102,86,63,46,2,,60,15,89,71,5,10,1.1,1.1
2024-12-01T0000,3291A,121.067,32.062,南通市,通州监测站,细颗粒物(PM2.5),89,105,88,66,52,32,,67,39,51,54,5,8,0.7,0.9
2024-12-01T0000,3432A,120.9348,31.9883,南通市,环境教育馆,细颗粒物(PM2.5),107,112,86,80,45,4,,64,17,70,64,6,10,1.2,1.3
2024-12-01T0000,2404A,112.5224,33.0122,南阳市,瓦房庄,细颗粒物(PM2.5),83,79,65,61,44,6,,56,32,64,44,7,7,0.7,0.5
2024-12-01T0000,2405A,112.5003,32.9735,南阳市,汉画馆,细颗粒物(PM2.5),67,76,74,48,39,19,,64,42,48,39,6,6,0.7,0.7
2024-12-01T0000,2406A,112.5573,33.027,南阳市,气象站,细颗粒物(PM2.5),73,86,65,53,34,28,,64,45,62,46,6,5,0.8,0.7
2024-12-01T0000,2407A,112.5481,32.9689,南阳市,理工学院,细颗粒物(PM2.5),89,83,71,66,47,44,,60,48,37,39,6,6,0.7,0.7
2024-12-01T0000,4008A,112.5234,32.9922,南阳市,卧龙区政府,细颗粒物(PM2.5),78,83,71,57,41,9,,59,38,65,44,5,5,0.9,0.7
2024-12-01T0000,1234A,121.8358,29.911,宁波市,区环保大楼,,29,27,45,10,21,91,,84,84,14,35,7,9,0.4,0.5
2024-12-01T0000,1235A,121.56,29.82,宁波市,万里学院,颗粒物(PM10),52,54,53,25,26,55,,88,61,34,40,6,6,0.5,0.5
2024-12-01T0000,1236A,121.713,29.9572,宁波市,龙赛医院,,,54,61,18,22,,,81,60,43,45,8,10,0.5,0.5
2024-12-01T0000,1239A,121.633,29.7733,宁波市,钱湖水厂,,28,26,43,14,24,87,,92,87,9,18,6,6,0.6,0.6
2024-12-01T0000,1240A,121.5856,29.8635,宁波市,太古小学,颗粒物(PM10),52,54,59,25,30,36,,83,62,56,45,8,8,0.6,0.5
2024-12-01T0000,1241A,121.524,29.8674,宁波市,市环境监测中心,颗粒物(PM10),55,59,49,32,24,40,,87,55,48,45,9,8,0.9,0.7
2024-12-01T0000,2871A,121.6147,29.9017,宁波市,万里国际学校,,41,41,50,19,26,71,,85,74,27,42,8,8,0.4,0.5
2024-12-01T0000,3710A,121.5594,29.8975,宁波市,白沙活动中心,颗粒物(PM10),52,54,53,24,25,26,,80,47,66,47,10,11,0.6,0.6
2024-12-01T0000,2339A,119.5001,26.6946,宁德市,金涵水库,,,,,,,,,,,,,,,,
2024-12-01T0000,2341A,119.5388,26.6612,宁德市,宁德市监测站,,30,30,36,20,21,55,,85,67,16,19,3,3,0.6,0.7
2024-12-01T0000,3209A,119.5231,26.6562,宁德市,宁德一中,,,,36,,20,,,87,67,,13,,2,,0.9
2024-12-01T0000,2618A,98.8601,25.8567,怒江傈僳族自治州,州监测站,,29,29,25,16,11,48,,72,57,9,11,5,4,0.4,0.4
2024-12-01T0000,2619A,98.8546,25.8417,怒江傈僳族自治州,泸水一中,,22,22,21,8,12,24,,57,32,18,18,6,6,0.5,0.4
2024-12-01T0000,1888A,101.6891,26.571,攀枝花市,弄弄坪,,42,37,36,29,19,19,,72,50,34,25,10,17,0.9,1.3
2024-12-01T0000,1889A,101.5769,26.5928,攀枝花市,河门口,,49,49,35,28,19,14,,80,51,37,24,9,12,1.1,1.1
2024-12-01T0000,1890A,101.7169,26.585,攀枝花市,炳草岗,细颗粒物(PM2.5),63,70,46,45,22,6,,75,33,58,33,14,19,0.9,1.1
2024-12-01T0000,1891A,101.7369,26.5008,攀枝花市,仁和,,30,30,29,20,18,24,,73,43,21,19,6,13,0.4,0.7
2024-12-01T0000,2835A,101.7227,26.567,攀枝花市,四十中小,颗粒物(PM10),54,58,48,29,21,7,,80,33,57,34,8,15,1.3,1.3
2024-12-01T0000,1604A,122.0303,41.1489,盘锦市,开发区,细颗粒物(PM2.5),80,76,43,59,26,9,,43,26,56,36,14,16,1.7,0.9
2024-12-01T0000,1605A,122.0485,41.0883,盘锦市,兴隆台,细颗粒物(PM2.5),95,,41,71,29,8,,38,16,59,44,23,22,1.7,1
2024-12-01T0000,1606A,121.8297,41.1028,盘锦市,新生街道,细颗粒物(PM2.5),59,66,36,42,21,8,,51,17,49,36,11,15,1.0,0.7
2024-12-01T0000,1832A,113.3257,33.742,平顶山市,新华旅馆,细颗粒物(PM2.5),62,72,74,44,38,23,,73,43,45,35,8,8,0.6,0.5
2024-12-01T0000,1833A,113.2919,33.737,平顶山市,规划设计院,颗粒物(PM10),81,111,76,50,38,6,,73,30,67,43,6,6,0.9,0.6
2024-12-01T0000,1834A,113.182,33.774,平顶山市,平顶山工学院,颗粒物(PM10),60,70,56,34,31,39,,72,50,23,23,7,8,0.7,0.6
2024-12-01T0000,3204A,113.3025,33.73,平顶山市,规划局,细颗粒物(PM2.5),72,75,68,52,39,8,,67,41,62,38,8,7,0.8,0.6
2024-12-01T0000,3594A,112.8867,33.9116,平顶山市,石龙区,颗粒物(PM10),91,132,64,42,26,1,,67,21,82,46,12,12,0.8,0.7
2024-12-01T0000,2656A,106.6692,35.5461,平凉市,聚贤嘉苑,,37,34,36,21,18,13,,84,37,74,46,12,12,0.4,0.4
2024-12-01T0000,2657A,106.7021,35.5307,平凉市,博物馆,颗粒物(PM10),53,55,45,33,21,19,,91,50,53,38,11,14,0.4,0.5
2024-12-01T0000,2347A,114.0997,27.5002,萍乡市,武功山,,23,23,24,10,10,40,,77,51,8,8,9,9,0.1,0.1
2024-12-01T0000,2348A,113.8385,27.6434,萍乡市,中医院,颗粒物(PM10),64,77,72,39,33,7,,82,38,58,35,9,13,0.9,1
2024-12-01T0000,2349A,113.8493,27.6253,萍乡市,市政府车库,细颗粒物(PM2.5),67,48,60,48,40,21,,80,40,34,31,9,15,0.6,1.3
2024-12-01T0000,2350A,113.8676,27.6435,萍乡市,市环保局,细颗粒物(PM2.5),78,93,63,57,36,7,,83,40,50,35,13,17,1.1,1
2024-12-01T0000,2351A,113.866,27.6198,萍乡市,安源区政府,颗粒物(PM10),56,62,62,37,33,13,,88,48,31,24,16,23,0.8,1.6
2024-12-01T0000,2319A,119.0141,25.4325,莆田市,荔城区仓后路,,32,32,39,18,19,65,,106,86,20,17,2,3,0.5,0.5
2024-12-01T0000,2320A,119.0015,25.4553,莆田市,莆田市监测站,,26,26,34,8,8,76,,107,85,8,10,3,3,0.5,0.5
2024-12-01T0000,2321A,119.1119,25.4561,莆田市,涵江区六中,,36,36,36,17,15,69,,107,94,21,16,2,2,0.3,0.3
2024-12-01T0000,2322A,119.1013,25.3215,莆田市,秀屿区政府,颗粒物(PM10),55,59,37,21,19,68,,108,86,22,16,4,5,0.5,0.4
2024-12-01T0000,2323A,118.981,25.4792,莆田市,东圳水库,,,,,,,,,,,,,,,,
2024-12-01T0000,2392A,115.0312,35.7636,濮阳市,环保局,细颗粒物(PM2.5),84,103,65,62,42,4,,45,13,71,51,4,5,0.9,0.6
2024-12-01T0000,2394A,115.0574,35.7609,濮阳市,油田运输公司,细颗粒物(PM2.5),102,115,81,76,47,3,,44,10,60,46,4,4,0.8,0.7
2024-12-01T0000,2395A,115.0866,35.7754,濮阳市,油田物探公司,细颗粒物(PM2.5),100,113,87,75,52,15,,47,14,52,46,6,5,0.6,0.5
2024-12-01T0000,3021A,115,35.7668,濮阳市,濮水河管理处,细颗粒物(PM2.5),87,105,84,64,43,2,,43,9,59,43,3,5,0.8,0.6
2024-12-01T0000,2601A,100.98,22.7633,普洱市,市环保局,,20,20,26,12,17,35,,48,39,4,8,4,4,0.3,0.4
2024-12-01T0000,2602A,100.9817,22.8322,普洱市,普洱第二中学,,26,26,24,8,13,31,,47,34,6,8,6,6,0.4,0.4
2024-12-01T0000,2262A,131.0518,45.8751,七台河市,新一中,,21,,20,7,14,66,,71,68,10,8,10,10,1.3,1.4
2024-12-01T0000,3345A,131.0577,45.7879,七台河市,中波台,,29,25,23,20,15,37,,54,46,29,20,11,10,0.9,0.7
2024-12-01T0000,3637A,131.0176,45.7761,七台河市,人民广场,,39,36,22,27,21,45,,55,43,26,25,8,8,0.5,0.5
2024-12-01T0000,3684A,130.8781,45.8222,七台河市,新建矿广场,,50,,11,35,23,50,,58,51,18,16,5,5,0.5,0.4
2024-12-01T0000,1779A,123.9305,47.3636,齐齐哈尔市,安居小区,,42,30,25,29,18,25,,58,34,36,22,2,3,0.6,0.5
2024-12-01T0000,1780A,123.9488,47.3386,齐齐哈尔市,中心广场,,39,,18,27,13,24,,50,30,37,24,4,5,0.5,0.5
2024-12-01T0000,1781A,123.9483,47.3227,齐齐哈尔市,农牧车辆厂,,39,39,22,26,15,10,,52,22,53,32,6,8,0.6,0.4
2024-12-01T0000,1783A,123.945,47.2988,齐齐哈尔市,市环境监测站,细颗粒物(PM2.5),55,45,37,39,26,26,,57,20,37,31,4,4,0.6,0.5
2024-12-01T0000,3662A,123.6333,47.2075,齐齐哈尔市,富区青少年活动中心,,,,34,69,23,13,,50,25,48,29,44,13,1.3,0.6
2024-12-01T0000,2591A,107.9783,26.5747,黔东南苗族侗族自治州,市环境监测站,,36,36,38,24,24,10,,59,33,55,35,7,8,0.5,0.5
2024-12-01T0000,2881A,107.8908,26.5311,黔东南苗族侗族自治州,凯里学院,,41,41,30,26,19,1,,73,42,40,23,4,6,0.6,0.5
2024-12-01T0000,2593A,107.5228,26.2403,黔南布依族苗族自治州,小围寨,,42,36,27,29,18,10,,74,52,30,18,8,9,0.7,0.5
2024-12-01T0000,3538A,107.5175,26.2978,黔南布依族苗族自治州,沙坝,细颗粒物(PM2.5),52,51,37,36,22,1,,64,36,32,22,5,7,0.7,0.7
2024-12-01T0000,2589A,104.9022,25.0925,黔西南布依族苗族自治州,场坝街,细颗粒物(PM2.5),65,55,39,47,29,16,,72,45,31,16,3,6,0.7,0.4
2024-12-01T0000,2590A,104.8811,25.0992,黔西南布依族苗族自治州,坪东大道,,43,43,36,22,30,9,,70,30,41,24,3,6,0.6,0.5
2024-12-01T0000,2502A,108.6236,21.9667,钦州市,市环保站,颗粒物(PM10),65,80,99,44,40,102,,136,120,28,43,10,10,1.2,1.2
2024-12-01T0000,2503A,108.6549,21.9481,钦州市,沙埠小学,细颗粒物(PM2.5),117,127,108,88,56,6,,146,85,91,55,9,12,1.1,0.9
2024-12-01T0000,2504A,108.5989,21.7431,钦州市,港区一小,颗粒物(PM10),57,63,95,35,43,91,,136,118,34,44,12,12,1.1,0.9
2024-12-01T0000,3404A,108.5959,21.9633,钦州市,北职校,颗粒物(PM10),71,92,80,48,47,30,,138,106,54,29,12,14,0.9,0.9
2024-12-01T0000,1042A,119.5134,39.8207,秦皇岛市,北戴河环保局,颗粒物(PM10),60,69,30,32,21,4,,66,34,68,35,2,3,0.8,0.7
2024-12-01T0000,1043A,119.7493,40.0116,秦皇岛市,第一关,,40,36,27,28,25,0,,64,4,63,45,4,6,0.4,0.4
2024-12-01T0000,1044A,119.5897,39.9499,秦皇岛市,监测站,颗粒物(PM10),55,60,43,38,23,1,,53,8,56,48,6,7,0.7,0.6
2024-12-01T0000,1046A,119.5251,39.9041,秦皇岛市,建设大厦,,46,46,46,29,24,3,,56,12,47,44,3,6,0.6,0.6
2024-12-01T0000,3132A,119.610547,39.943889,秦皇岛市,文明里,细颗粒物(PM2.5),52,51,53,36,29,2,,52,10,63,51,4,6,0.7,0.7
2024-12-01T0000,1307A,120.6659,36.2403,青岛市,仰口,,31,31,36,20,21,77,,77,76,9,12,9,10,1.1,0.8
2024-12-01T0000,1310A,120.4134,36.0658,青岛市,市南区东部子站,颗粒物(PM10),58,66,65,27,24,80,,71,71,18,48,13,16,0.6,0.9
2024-12-01T0000,1311A,120.3664,36.1032,青岛市,四方区子站,颗粒物(PM10),58,66,64,36,31,75,,53,51,26,58,12,17,0.6,0.9
2024-12-01T0000,1312A,120.2994,36.054,青岛市,市南区西部子站,颗粒物(PM10),60,70,69,32,25,50,,59,55,47,59,13,16,0.7,0.9
2024-12-01T0000,1313A,120.4581,36.0858,青岛市,崂山区子站,颗粒物(PM10),52,53,50,24,19,79,,52,51,22,48,12,14,0.8,0.9
