timepoint,stationcode,longitude,latitude,area,positionname,primarypollutant,aqi,pm10,pm10_24h,pm2_5,pm2_5_24h,o3,o3_24h,o3_8h,o3_8h_24h,no2,no2_24h,so2,so2_24h,co,co_24h
2025-11-22T1500,2566A,102.1879,31.914,阿坝藏族羌族自治州,州农科所,,,,,,,,,,,,,,,,
2025-11-22T1500,2568A,102.2502,31.8896,阿坝藏族羌族自治州,马师校,,26,,17,18,16,58,58,45,45,6,17,6,6,0.4,0.5
2025-11-22T1500,3994A,102.2165,31.9024,阿坝藏族羌族自治州,马尔康中学西区,,20,7,14,6,12,61,61,49,49,6,13,6,6,0.4,0.4
2025-11-22T1500,2695A,80.292,41.1694,阿克苏地区,电视台,颗粒物(PM10),154,257,295,79,99,68,68,34,34,35,49,23,10,0.7,1.6
2025-11-22T1500,2696A,80.2613,41.1551,阿克苏地区,艺术中心,颗粒物(PM10),139,227,242,82,85,74,74,44,44,27,54,31,9,0.7,1.1
2025-11-22T1500,2204A,105.6467,38.8363,阿拉善盟,西城区西花园,,,,,,,,,,,,,,,,
2025-11-22T1500,2205A,105.6985,38.8411,阿拉善盟,蒙二幼,颗粒物(PM10),60,69,60,24,21,94,94,82,82,5,10,8,8,0.7,0.8
2025-11-22T1500,2206A,105.724,38.8516,阿拉善盟,环保局新楼,颗粒物(PM10),59,68,49,27,22,92,92,87,85,4,5,9,9,0.7,0.7
2025-11-22T1500,2708A,88.1264,47.8517,阿勒泰地区,市站,,23,23,24,9,9,55,55,62,51,20,42,4,5,0.3,0.3
2025-11-22T1500,2630A,80.1161,32.5,阿里地区,阿里监测站,,29,6,3,3,3,91,91,70,70,1,12,6,8,0.2,0.3
2025-11-22T1500,3192A,80.0903,32.5028,阿里地区,阿里藏医院,,30,6,17,3,5,94,94,79,71,1,5,8,8,0.4,0.4
2025-11-22T1500,2642A,109.0318,32.6537,安康市,香溪洞,,,,,,,,,,,,,,,,
2025-11-22T1500,2644A,109.0072,32.6975,安康市,汉滨区检察院,颗粒物(PM10),52,54,41,34,24,27,27,13,13,29,26,5,3,0.6,0.5
2025-11-22T1500,4054A,109.0325,32.6913,安康市,市邮政管理局,,49,49,45,30,28,29,29,15,15,29,33,5,4,0.8,0.8
2025-11-22T1500,2291A,117.0809,30.5177,安庆市,环科院,,48,40,77,33,62,140,140,72,72,6,48,8,7,0.5,0.8
2025-11-22T1500,2292A,117.0331,30.5119,安庆市,马山宾馆,,,,85,32,61,136,136,72,72,,60,6,6,0.3,0.8
2025-11-22T1500,2294A,116.9896,30.6145,安庆市,安庆大学,细颗粒物(PM2.5),53,45,74,37,55,113,113,79,79,48,41,10,9,0.4,0.3
2025-11-22T1500,3173A,117.0598,30.5351,安庆市,市人大,,44,44,95,24,70,140,140,77,77,9,56,8,8,0.3,0.7
2025-11-22T1500,3122A,105.9606,26.2611,安顺市,伍家关,,,,57,25,30,98,98,85,85,5,21,13,42,0.8,0.9
2025-11-22T1500,3123A,105.9408,26.2431,安顺市,凤凰山,,28,24,47,12,39,89,89,76,76,7,30,8,47,0.3,0.6
2025-11-22T1500,3124A,105.9439,26.2564,安顺市,金钟山,,30,28,38,14,31,94,94,81,81,5,15,12,36,0.4,0.6
2025-11-22T1500,3125A,105.8983,26.2481,安顺市,娄家坡,,26,23,41,15,33,82,82,71,71,8,22,8,30,0.4,0.6
2025-11-22T1500,1818A,114.4839,36.0621,安阳市,棉研所,,,,,,,,,,,,,,,,
2025-11-22T1500,1819A,114.3551,36.1017,安阳市,红庙街,颗粒物(PM10),55,60,73,38,45,71,71,43,43,32,45,9,7,0.8,0.7
2025-11-22T1500,1820A,114.361,36.0681,安阳市,银杏小区,颗粒物(PM10),56,62,76,38,51,73,73,39,39,30,40,8,6,0.7,0.6
2025-11-22T1500,3141A,114.3922,36.0878,安阳市,信访局,细颗粒物(PM2.5),68,66,75,49,49,77,77,46,46,30,39,9,7,0.6,0.6
2025-11-22T1500,3669A,114.4705,36.0637,安阳市,左辅环卫站,颗粒物(PM10),79,107,128,45,67,75,75,40,40,28,44,9,7,0.8,0.8
2025-11-22T1500,3703A,114.2917,36.0949,安阳市,安钢职工学校,颗粒物(PM10),64,77,86,42,49,67,67,43,43,28,38,7,7,0.8,0.7
2025-11-22T1500,1748A,123.044,41.1196,鞍山市,深沟寺,颗粒物(PM10),62,73,53,39,35,67,67,66,66,32,28,14,11,1.0,1
2025-11-22T1500,1749A,123.011,41.0931,鞍山市,太阳城,颗粒物(PM10),61,71,48,39,29,66,66,65,65,30,21,17,16,0.9,0.9
2025-11-22T1500,1750A,123.0485,41.1442,鞍山市,太平,颗粒物(PM10),69,88,67,44,35,74,74,68,68,34,34,14,13,1.0,1.1
2025-11-22T1500,1751A,122.9642,41.0971,鞍山市,铁西三道街,颗粒物(PM10),74,97,88,44,42,67,67,58,58,33,47,14,22,1.0,1.4
2025-11-22T1500,1753A,123.022,41.0821,鞍山市,明达新区,颗粒物(PM10),64,77,53,43,32,70,70,69,69,28,22,22,15,0.8,0.8
2025-11-22T1500,1754A,123.1289,41.0228,鞍山市,千山,,,,,,,,,,,,,,,,
2025-11-22T1500,4201A,122.9446,41.0826,鞍山市,兴盛南路290号,颗粒物(PM10),74,97,92,43,44,70,70,60,60,34,52,13,17,0.8,1.2
2025-11-22T1500,2195A,107.4212,40.761,巴彦淖尔市,附二中,颗粒物(PM10),128,206,86,46,29,80,80,70,70,5,9,5,4,0.3,0.3
2025-11-22T1500,2196A,107.37,40.7372,巴彦淖尔市,市环保大楼,颗粒物(PM10),120,189,89,44,28,87,87,77,77,4,10,8,8,0.3,0.3
2025-11-22T1500,1956A,86.1472,41.7538,巴音郭楞蒙古自治州,孔雀公园,颗粒物(PM10),145,240,218,55,59,60,60,25,25,13,54,8,9,0.4,0.9
2025-11-22T1500,1957A,86.1972,41.7166,巴音郭楞蒙古自治州,棉纺厂,颗粒物(PM10),160,269,246,57,50,71,71,40,40,14,38,8,8,0.6,0.7
2025-11-22T1500,1958A,86.2357,41.7173,巴音郭楞蒙古自治州,经济开发区,颗粒物(PM10),152,253,190,36,37,62,62,41,41,12,29,8,8,0.4,0.5
2025-11-22T1500,2914A,106.7677,31.8794,巴中市,苏山坪,,,,,,,,,,,,,,,,
2025-11-22T1500,3181A,106.7768,31.8526,巴中市,市五中,细颗粒物(PM2.5),89,88,81,66,60,6,6,5,5,26,25,8,8,0.9,0.8
2025-11-22T1500,3183A,106.7418,31.8654,巴中市,圣泉水务公司,细颗粒物(PM2.5),77,69,66,56,50,5,5,6,5,26,30,10,9,1.0,0.8
2025-11-22T1500,3616A,106.7616,31.8344,巴中市,市中心医院,细颗粒物(PM2.5),80,80,74,59,52,6,6,4,4,24,29,5,5,1.1,1
2025-11-22T1500,2235A,122.7911,45.6077,白城市,洮北区环保局,,36,36,27,10,8,65,65,60,60,7,6,6,4,0.3,0.3
2025-11-22T1500,2236A,122.8738,45.5725,白城市,市环保局,,,29,31,7,12,67,67,58,58,,10,5,4,0.4,0.2
2025-11-22T1500,2231A,126.4219,41.9171,白山市,喜丰,,33,33,96,14,33,78,78,44,44,9,32,9,11,0.5,0.8
2025-11-22T1500,2232A,126.4077,41.9419,白山市,环保局,,28,28,48,18,34,81,81,42,42,8,23,11,11,0.6,0.8
2025-11-22T1500,2647A,104.1724,36.5446,白银市,第三小学,颗粒物(PM10),51,52,54,30,30,76,76,45,45,25,34,24,20,0,0.1
2025-11-22T1500,2648A,104.1465,36.5482,白银市,动力公司,颗粒物(PM10),53,55,46,29,28,83,83,50,50,16,23,18,16,0.3,0.4
2025-11-22T1500,2512A,106.6103,23.9011,百色市,市监测站,,30,20,29,13,17,94,94,50,50,8,17,7,6,0.3,0.4
2025-11-22T1500,2513A,106.6538,23.8859,百色市,市中心血站,,29,25,44,12,27,92,92,50,50,10,30,9,7,0.4,0.5
2025-11-22T1500,3406A,106.6085,23.8798,百色市,祈福高中,,39,39,44,14,20,79,79,40,40,11,19,10,6,0.3,0.4
2025-11-22T1500,2270A,117.396,32.939,蚌埠市,工人疗养院,颗粒物(PM10),70,90,137,43,84,116,116,87,87,26,49,8,9,0.3,0.6
2025-11-22T1500,2271A,117.3605,32.9427,蚌埠市,百货大楼,颗粒物(PM10),60,70,134,42,90,119,119,88,88,26,63,13,12,0.5,0.9
2025-11-22T1500,2273A,117.4185,32.8911,蚌埠市,蚌埠学院,细颗粒物(PM2.5),62,66,137,44,97,123,123,85,85,21,51,9,14,0.4,0.8
2025-11-22T1500,2274A,117.3533,32.9673,蚌埠市,淮上区政府,颗粒物(PM10),62,73,135,41,89,127,127,91,91,21,50,10,11,0.3,0.5
2025-11-22T1500,2275A,117.3145,32.8977,蚌埠市,高新区,"颗粒物(PM10),细颗粒物(PM2.5)",63,75,144,45,94,116,116,78,78,23,59,11,10,0.4,0.6
2025-11-22T1500,3715A,117.3092,32.9314,蚌埠市,蚌埠田家炳中学,颗粒物(PM10),63,76,159,40,100,125,125,83,83,23,63,7,36,0.4,0.6
2025-11-22T1500,1585A,109.8756,40.6532,包头市,市环境监测站,颗粒物(PM10),135,220,131,62,64,81,81,38,38,17,73,13,32,0.5,2.3
2025-11-22T1500,1587A,109.9991,40.5842,包头市,包头八中,颗粒物(PM10),137,223,122,48,65,89,89,42,42,9,47,4,25,0.4,1.7
2025-11-22T1500,1588A,109.8538,40.6821,包头市,青山宾馆,颗粒物(PM10),114,178,118,54,77,80,80,39,39,15,74,11,29,1.0,2.8
2025-11-22T1500,1589A,109.8642,40.6288,包头市,惠龙物流,颗粒物(PM10),138,225,125,60,67,90,90,46,46,12,74,7,32,0.4,2.6
2025-11-22T1500,1590A,110.0377,40.5546,包头市,东河鸿龙湾,细颗粒物(PM2.5),117,173,99,88,58,91,91,42,42,5,66,4,14,0.5,2
2025-11-22T1500,3283A,109.9154,40.5685,包头市,滨河大厦,颗粒物(PM10),120,190,90,32,48,90,90,43,43,8,63,6,21,0.4,1.8
2025-11-22T1500,3419A,109.9447,40.6261,包头市,包头市委党校,颗粒物(PM10),142,233,104,43,52,93,93,47,47,10,68,12,30,0.4,1.8
2025-11-22T1500,3683A,109.8331,40.6576,包头市,昆区政府,颗粒物(PM10),125,200,121,53,74,77,77,37,37,20,81,17,33,0.7,2.6
2025-11-22T1500,1930A,107.185,34.3063,宝鸡市,庙沟村,,,,,,,,,,,,,,,,
2025-11-22T1500,1931A,107.0708,34.3017,宝鸡市,竹园沟,,31,31,43,14,27,85,85,41,41,8,19,8,6,0.1,0.2
2025-11-22T1500,1932A,107.1906,34.3672,宝鸡市,三陆医院,颗粒物(PM10),54,58,70,16,45,57,57,31,31,35,46,6,7,0.4,0.5
2025-11-22T1500,1933A,107.1431,34.3547,宝鸡市,监测站,颗粒物(PM10),52,53,56,24,38,46,46,34,34,35,32,5,4,0.6,0.6
2025-11-22T1500,1934A,107.1186,34.3739,宝鸡市,技工学校,,44,44,61,18,34,76,76,48,48,14,27,5,6,0.3,0.5
2025-11-22T1500,1936A,107.2058,34.3497,宝鸡市,文理学院,,47,47,63,18,42,68,68,35,35,22,35,6,6,0.3,0.5
2025-11-22T1500,1937A,107.2386,34.3622,宝鸡市,三迪小学,颗粒物(PM10),51,52,70,20,42,62,62,29,29,32,51,5,6,0.3,0.4
2025-11-22T1500,4308A,107.3898,34.3601,宝鸡市,陈仓区北开路21号,颗粒物(PM10),54,57,93,23,63,57,57,49,46,33,42,7,37,0.2,0.5
2025-11-22T1500,1051A,115.493,38.8632,保定市,游泳馆,颗粒物(PM10),58,66,90,37,58,56,56,26,26,28,54,9,11,0.5,0.7
2025-11-22T1500,1052A,115.5213,38.8959,保定市,华电二区,细颗粒物(PM2.5),62,62,72,44,50,53,53,26,26,45,62,5,5,0.5,0.6
2025-11-22T1500,1053A,115.4713,38.9108,保定市,接待中心,细颗粒物(PM2.5),58,62,80,41,53,51,51,26,26,33,48,5,4,0.4,0.5
2025-11-22T1500,1054A,115.4612,38.8416,保定市,地表水厂,颗粒物(PM10),51,51,97,30,52,68,68,27,27,27,58,7,12,0.4,0.5
2025-11-22T1500,3581A,115.31981,38.95208,保定市,满城区生态环境分局,颗粒物(PM10),65,80,86,34,43,60,60,37,37,35,49,7,6,0.2,0.5
2025-11-22T1500,3582A,115.47694,38.76408,保定市,清苑区第二中学,颗粒物(PM10),53,56,104,17,47,68,68,25,25,15,44,10,16,0.4,0.5
2025-11-22T1500,3583A,115.62909,39.02311,保定市,徐水物探局,颗粒物(PM10),88,126,109,62,58,41,41,26,26,47,43,13,11,0.6,0.7
2025-11-22T1500,4004A,115.4202,38.8656,保定市,双鹰农机,颗粒物(PM10),72,93,95,42,44,63,63,31,31,33,51,9,10,0.6,0.5
2025-11-22T1500,4034A,115.5150,38.8590,保定市,植保所站,颗粒物(PM10),56,61,93,34,54,48,48,18,18,37,65,6,8,0.3,0.5
2025-11-22T1500,2594A,99.1678,25.1081,保山市,市环境监测站,,21,7,14,3,10,67,67,47,47,5,8,7,7,0.3,0.4
2025-11-22T1500,2595A,99.1711,25.1328,保山市,市环保局,,22,14,15,13,15,70,70,50,50,3,5,6,6,0.3,0.3
2025-11-22T1500,1866A,109.2262,21.588,北海市,牛尾岭水库,,33,22,38,8,26,105,105,76,76,6,10,6,5,0,0
2025-11-22T1500,1867A,109.1436,21.4086,北海市,海滩公园,,47,47,44,24,25,119,119,87,87,18,15,11,9,0.8,0.4
2025-11-22T1500,1868A,109.0981,21.4661,北海市,新市环保局,,44,44,50,19,34,128,128,92,92,11,15,8,8,0.5,0.6
2025-11-22T1500,1869A,109.1778,21.5233,北海市,北海工业园,,37,26,49,12,32,116,116,85,85,8,19,8,9,0.2,0.4
2025-11-22T1500,3400A,109.1911,21.4415,北海市,龙潭自来水厂,,37,33,49,22,35,116,116,83,83,16,16,9,6,0.5,0.5
2025-11-22T1500,1001A,116.3621,39.8784,北京市,万寿西宫,颗粒物(PM10),63,75,72,42,42,44,44,19,19,48,71,5,4,0.5,0.7
2025-11-22T1500,1002A,116.2202,40.2915,北京市,定陵,,,,,,,,,,,,,,,,
2025-11-22T1500,1003A,116.4174,39.9289,北京市,东四,颗粒物(PM10),61,71,67,37,36,42,42,24,24,44,54,6,5,0.6,0.8
2025-11-22T1500,1004A,116.4072,39.8863,北京市,天坛,颗粒物(PM10),62,74,57,39,35,36,36,16,16,53,52,5,2,0.5,0.7
2025-11-22T1500,1005A,116.462,39.9365,北京市,农展馆,颗粒物(PM10),59,67,60,36,34,45,45,24,24,41,51,7,4,0.6,0.7
2025-11-22T1500,1006A,116.3392,39.9295,北京市,官园,颗粒物(PM10),63,75,67,44,38,45,45,23,23,44,64,6,5,0.3,0.6
2025-11-22T1500,1007A,116.2878,39.9611,北京市,海淀万柳,颗粒物(PM10),64,78,80,44,40,49,49,22,22,37,62,7,5,0.5,0.9
2025-11-22T1500,1008A,116.6636,40.135,北京市,顺义新城,颗粒物(PM10),55,60,46,34,23,41,41,30,30,46,41,10,7,0.5,0.4
2025-11-22T1500,1009A,116.6275,40.3275,北京市,怀柔镇,,49,49,38,26,22,42,42,30,30,39,30,9,6,0.5,0.5
2025-11-22T1500,1010A,116.2296,40.217,北京市,昌平镇,颗粒物(PM10),61,72,50,35,28,52,52,29,29,35,41,9,8,0.4,0.6
2025-11-22T1500,1011A,116.3966,39.9821,北京市,奥体中心,颗粒物(PM10),57,64,57,36,33,41,41,20,20,46,66,8,6,0.5,0.7
2025-11-22T1500,3281A,115.9718,40.4529,北京市,延庆夏都,,42,42,54,21,32,71,71,36,36,16,27,8,6,0.5,0.6
2025-11-22T1500,3418A,116.8336,40.4095,北京市,密云新城,,48,48,39,21,16,47,47,36,36,22,27,5,3,0.4,0.4
2025-11-22T1500,3671A,116.088,39.9726,北京市,门头沟三家店,颗粒物(PM10),64,78,53,42,27,52,52,40,40,35,32,4,3,0.4,0.4
2025-11-22T1500,3672A,116.1541,39.8204,北京市,丰台云岗,细颗粒物(PM2.5),67,78,66,48,35,56,56,34,34,33,45,6,4,0.4,0.4
2025-11-22T1500,3673A,116.6804,39.9081,北京市,通州东关,颗粒物(PM10),65,79,75,42,37,30,30,16,16,60,60,7,6,0.4,0.5
2025-11-22T1500,3674A,115.9577,39.7603,北京市,房山燕山,颗粒物(PM10),64,77,55,43,31,58,58,39,39,30,32,7,5,0.4,0.4
2025-11-22T1500,3675A,116.4672,39.7733,北京市,大兴旧宫,颗粒物(PM10),65,80,81,43,40,42,42,18,18,45,55,7,4,0.5,0.6
2025-11-22T1500,3694A,115.986,40.4563,北京市,延庆石河营,,41,41,50,20,30,66,66,31,31,14,26,7,5,0.4,0.6
2025-11-22T1500,3695A,116.6151,40.3053,北京市,怀柔新城,,50,50,36,22,22,45,45,30,30,34,19,7,5,0.5,0.4
2025-11-22T1500,3696A,116.2545,39.8768,北京市,丰台小屯,颗粒物(PM10),63,75,87,42,40,48,48,21,21,35,66,7,5,0.5,0.7
2025-11-22T1500,3697A,116.84,40.3844,北京市,密云镇,,39,39,46,19,21,48,48,30,30,24,39,5,3,0.4,0.5
2025-11-22T1500,4182A,116.1942,39.9158,北京市,八角北路9号,颗粒物(PM10),66,81,77,41,35,45,45,24,24,37,56,6,2,0.4,0.6
2025-11-22T1500,4194A,117.0790,40.1518,北京市,洳河巡河路,,40,40,54,20,31,49,49,28,28,24,27,8,5,0.5,0.6
2025-11-22T1500,1761A,123.8275,41.3064,本溪市,大峪,颗粒物(PM10),51,51,69,27,39,83,83,55,55,15,38,12,11,0.9,1.1
2025-11-22T1500,1762A,123.7567,41.3325,本溪市,溪湖,颗粒物(PM10),64,78,119,35,64,71,71,47,47,28,50,19,16,0.8,1.5
2025-11-22T1500,1763A,123.7169,41.3094,本溪市,彩屯,细颗粒物(PM2.5),62,64,114,44,79,56,56,41,41,36,51,22,18,3.0,2.7
2025-11-22T1500,1764A,123.7669,41.2864,本溪市,东明,颗粒物(PM10),54,58,86,36,51,71,71,52,52,18,44,13,14,0.8,1.2
2025-11-22T1500,1765A,123.7992,41.2664,本溪市,新立屯,颗粒物(PM10),55,59,46,36,27,80,80,72,72,24,43,10,9,0.3,0.5
2025-11-22T1500,1766A,123.8142,41.3472,本溪市,威宁,颗粒物(PM10),52,53,102,30,52,79,79,50,50,10,35,10,8,0.9,1.2
2025-11-22T1500,2587A,105.2864,27.3125,毕节市,八中,细颗粒物(PM2.5),88,85,71,65,55,63,63,62,62,8,12,8,10,0.5,0.6
2025-11-22T1500,2588A,105.31,27.2944,毕节市,师专,细颗粒物(PM2.5),90,83,66,67,48,68,68,66,66,10,18,9,11,0.7,0.7
2025-11-22T1500,4263A,105.3688,27.3598,毕节市,工业大道,细颗粒物(PM2.5),80,80,60,59,42,71,71,65,65,9,12,10,13,0.6,0.6
2025-11-22T1500,1629A,118.0018,37.3617,滨州市,第二水厂,"颗粒物(PM10),细颗粒物(PM2.5)",58,66,105,41,68,86,86,45,45,26,56,14,18,0.4,0.6
2025-11-22T1500,1630A,117.9776,37.393,滨州市,北中新校,颗粒物(PM10),59,68,92,39,61,100,100,49,49,36,64,11,15,0.2,0.5
2025-11-22T1500,3514A,117.9378,37.3956,滨州市,中海酒店,"颗粒物(PM10),细颗粒物(PM2.5)",67,83,97,48,67,101,101,59,59,27,54,21,17,0.7,0.9
2025-11-22T1500,3515A,117.9378,37.3553,滨州市,开发区一中,细颗粒物(PM2.5),73,75,115,53,73,101,101,54,54,24,62,17,19,0.6,0.7
2025-11-22T1500,3516A,118.0917,37.694,滨州市,金海六路,颗粒物(PM10),65,80,109,39,57,96,96,55,55,28,65,12,19,0.5,0.7
2025-11-22T1500,4028A,117.9956,37.3753,滨州市,滨州市西街道办事处,细颗粒物(PM2.5),67,70,105,48,70,96,96,50,50,16,43,12,15,0.5,0.8
2025-11-22T1500,2311A,115.8072,33.8399,亳州市,污水处理厂,颗粒物(PM10),57,63,94,25,57,98,98,71,71,20,50,5,14,0.5,0.8
2025-11-22T1500,2312A,115.7789,33.8518,亳州市,三国揽胜宫,颗粒物(PM10),58,65,103,33,66,103,103,47,,16,42,5,10,0.3,0.7
2025-11-22T1500,3332A,115.7633,33.8034,亳州市,亳州学院,,46,46,89,29,64,107,107,74,74,19,48,4,16,0.3,0.5
2025-11-22T1500,2693A,82.0485,44.8556,博尔塔拉蒙古自治州,市党校,,48,48,75,16,18,69,69,40,40,14,22,6,5,0.3,0.5
2025-11-22T1500,2694A,82.0806,44.8969,博尔塔拉蒙古自治州,市环保局,颗粒物(PM10),54,57,100,14,27,55,55,29,29,28,31,16,12,0.5,0.8
2025-11-22T1500,1071A,116.8842,38.2991,沧州市,沧县城建局,细颗粒物(PM2.5),77,86,104,56,73,73,73,43,43,31,61,12,12,0.6,0.7
2025-11-22T1500,1072A,116.8584,38.3254,沧州市,电视转播站,细颗粒物(PM2.5),92,79,97,68,73,71,71,42,42,32,58,8,9,0.8,0.8
2025-11-22T1500,1073A,116.8709,38.3228,沧州市,市环保局,细颗粒物(PM2.5),80,92,102,59,73,68,68,43,43,26,50,9,9,0.7,0.7
2025-11-22T1500,3324A,116.8136,38.3004,沧州市,河北水利电力学院,颗粒物(PM10),76,102,112,47,61,67,67,36,36,28,58,14,13,0.6,0.7
2025-11-22T1500,2622A,97.1806,31.1273,昌都市,昌都监测站,,22,6,24,3,14,70,70,44,44,5,15,5,5,0.3,0.5
2025-11-22T1500,3719A,97.1714,31.1406,昌都市,昌都会议中心,,,,16,,8,,,76,,,4,,3,,0.2
2025-11-22T1500,2690A,88.1236,43.8886,昌吉回族自治州,天山天池,,,,,,,,,,,,,,,,
2025-11-22T1500,2692A,87.2717,44.0297,昌吉回族自治州,新区政务中心,,49,49,116,23,50,39,39,16,16,31,53,8,6,0.5,1.2
2025-11-22T1500,3613A,87.3095,44.0142,昌吉回族自治州,亚心广场,颗粒物(PM10),53,56,118,24,49,39,39,16,16,32,52,10,11,0.3,1
2025-11-22T1500,1120A,125.2863,43.9027,长春市,客车厂,颗粒物(PM10),72,94,80,47,62,92,92,66,66,20,32,10,12,0.6,0.6
2025-11-22T1500,1121A,125.2841,43.8463,长春市,邮电学院,颗粒物(PM10),89,128,92,57,59,97,97,66,66,20,26,12,13,0.6,0.6
2025-11-22T1500,1122A,125.3716,43.8772,长春市,劳动公园,细颗粒物(PM2.5),79,89,91,58,60,102,102,69,69,16,26,12,13,0.3,0.5
2025-11-22T1500,1123A,125.3297,43.8805,长春市,园林处,细颗粒物(PM2.5),88,84,79,65,55,96,96,66,66,18,23,11,12,0.6,0.7
2025-11-22T1500,1124A,125.4605,43.79,长春市,净月潭,细颗粒物(PM2.5),60,66,75,43,57,99,99,80,80,15,15,8,8,0.6,0.5
2025-11-22T1500,1125A,125.7194,43.515,长春市,甩湾子,细颗粒物(PM2.5),103,106,92,77,114,95,95,75,75,20,22,10,8,0.6,0.7
2025-11-22T1500,1126A,125.3863,43.8447,长春市,经开区环卫处,,,99,93,61,62,95,95,56,56,,32,,9,0.5,0.6
2025-11-22T1500,1127A,125.245,43.7783,长春市,高新区管委会,细颗粒物(PM2.5),113,107,105,85,84,104,104,70,70,17,30,10,10,0.6,0.6
2025-11-22T1500,1128A,125.1761,43.8325,长春市,岱山公园,颗粒物(PM10),69,88,94,41,66,82,82,60,60,19,40,10,13,0.5,0.6
2025-11-22T1500,4281A,125.3346,43.9164,长春市,北亚泰大街1068号,细颗粒物(PM2.5),72,91,81,52,63,84,84,56,56,23,34,11,13,0.6,0.6
2025-11-22T1500,1335A,113.0833,28.2325,长沙市,经开区环保局,,43,43,59,24,43,115,115,56,56,18,39,6,10,0.4,0.6
2025-11-22T1500,1336A,112.8872,28.2189,长沙市,高开区环保局,细颗粒物(PM2.5),64,50,67,46,57,120,120,65,65,17,39,8,8,0.5,0.6
2025-11-22T1500,1337A,113.0792,28.2053,长沙市,马坡岭,细颗粒物(PM2.5),63,50,64,45,42,116,116,61,61,24,36,8,8,0.6,0.6
2025-11-22T1500,1338A,112.9394,28.19,长沙市,湖南师范大学,,49,49,58,31,38,116,116,64,64,24,39,7,7,0.7,0.7
2025-11-22T1500,1339A,113.0178,28.1322,长沙市,雨花区环保局,,45,45,56,20,34,115,115,63,63,17,38,10,10,0.3,0.5
2025-11-22T1500,1340A,112.9792,28.2597,长沙市,伍家岭,,,46,70,34,42,116,116,58,58,18,39,,6,0.3,0.4
2025-11-22T1500,1341A,113.0014,28.1944,长沙市,火车新站,细颗粒物(PM2.5),55,46,65,39,46,115,115,59,59,26,48,8,8,0.4,0.5
2025-11-22T1500,1342A,112.9844,28.1178,长沙市,天心区环保局,,40,36,57,27,38,125,125,67,67,18,40,7,8,0.3,0.4
2025-11-22T1500,1343A,112.8908,28.1308,长沙市,湖南中医药大学,细颗粒物(PM2.5),58,52,70,41,50,111,111,57,57,22,42,8,7,0.9,0.9
2025-11-22T1500,1344A,112.9581,28.3611,长沙市,沙坪,,,,,,,,,,,,,,,,
2025-11-22T1500,1727A,113.1147,36.1547,长治市,清华站,,29,27,56,14,26,92,92,49,49,17,42,12,11,0.5,0.8
2025-11-22T1500,1730A,113.0886,36.2125,长治市,审计局,,26,24,56,14,31,81,81,45,45,24,44,13,15,0.3,0.7
2025-11-22T1500,1731A,113.0844,36.1856,长治市,长治八中,,39,39,75,25,39,77,77,44,44,21,39,14,16,0.4,0.8
2025-11-22T1500,2845A,113.1569,36.1911,长治市,德盛苑,,29,27,36,17,25,92,92,65,65,19,25,13,14,0.3,0.7
2025-11-22T1500,3568A,113.06,36.0464,长治市,向阳小学,,47,47,65,13,27,98,98,64,64,19,34,18,29,0.5,0.7
2025-11-22T1500,3569A,112.8792,36.3144,长治市,屯留一中,,43,43,53,12,33,84,84,51,51,22,39,15,16,1.1,1.4
2025-11-22T1500,4189A,113.1131,36.19948,长治市,英华南巷50号,,29,29,59,19,31,89,89,53,53,20,39,12,14,0.3,0.9
2025-11-22T1500,4190A,113.2367,36.3344,长治市,学府街1号,,43,43,63,20,33,86,86,49,49,21,41,22,21,1.0,1.3
2025-11-22T1500,1854A,111.6975,28.9703,常德市,市二中,细颗粒物(PM2.5),52,38,50,36,40,106,106,54,54,17,31,9,7,0.4,0.5
2025-11-22T1500,1857A,111.7158,29.1456,常德市,白鹤山,,,,,,,,,,,,,,,,
2025-11-22T1500,3138A,111.7153,29.0289,常德市,武陵区永安,,46,42,59,32,46,118,118,66,66,6,23,8,9,0.3,0.5
2025-11-22T1500,3139A,111.6892,28.9881,常德市,鼎城区玉霞,细颗粒物(PM2.5),53,41,51,37,40,111,111,57,57,13,22,9,7,0.5,0.6
2025-11-22T1500,3140A,111.6625,29.0531,常德市,武陵区长庚,,50,50,67,35,49,116,116,63,63,12,29,6,6,0.1,0.4
2025-11-22T1500,1196A,119.9633,31.762,常州市,市监测站,,,119,134,73,94,128,128,86,86,,76,12,7,0.6,1.4
2025-11-22T1500,1200A,119.9468,31.7069,常州市,武进监测站,细颗粒物(PM2.5),109,118,136,82,90,140,140,77,77,29,63,19,11,0.6,1
2025-11-22T1500,1201A,119.9255,31.9087,常州市,安家,细颗粒物(PM2.5),68,84,147,49,98,139,139,69,69,21,79,17,25,0.5,1
2025-11-22T1500,3002A,119.9805,31.8174,常州市,行政中心,细颗粒物(PM2.5),93,91,114,69,80,135,135,68,68,26,73,13,12,0.6,1
2025-11-22T1500,3003A,120.0522,31.7748,常州市,经开区,细颗粒物(PM2.5),107,122,151,80,91,135,135,69,69,26,62,21,17,1.0,1.1
2025-11-22T1500,3010A,119.9025,31.7964,常州市,钟楼,"颗粒物(PM10),细颗粒物(PM2.5)",68,85,122,49,86,137,137,70,70,23,68,15,17,0.5,1
2025-11-22T1500,3429A,119.8598,31.7066,常州市,武进经发区,细颗粒物(PM2.5),100,99,124,75,93,140,140,82,82,26,64,16,16,0.2,0.8
2025-11-22T1500,3430A,119.5826,31.7245,常州市,金坛城区,细颗粒物(PM2.5),92,88,119,68,88,142,142,78,78,16,43,13,14,0.8,1.1
2025-11-22T1500,2220A,120.4318,41.5881,朝阳市,西梁,,47,47,83,7,45,79,79,51,51,11,40,5,12,0.5,1.3
2025-11-22T1500,2221A,120.4521,41.5646,朝阳市,河畔小区,,40,40,58,10,33,77,77,54,54,15,33,8,10,0.5,0.9
2025-11-22T1500,2222A,120.4176,41.5648,朝阳市,八里堡,,36,36,73,11,41,74,74,48,48,18,43,8,12,0.2,0.9
2025-11-22T1500,2223A,120.3806,41.5969,朝阳市,农业园区,,41,41,54,16,36,81,81,57,57,11,40,8,9,0.5,0.8
2025-11-22T1500,1705A,116.6367,23.6719,潮州市,西园路,,,,,,,,,,,,,,,,
2025-11-22T1500,3026A,116.6183,23.6608,潮州市,市政府,颗粒物(PM10),53,55,46,20,24,121,121,80,80,7,13,8,6,0.3,0.4
2025-11-22T1500,4036A,116.6461,23.6761,潮州市,金山,,41,41,35,21,30,119,119,80,80,9,14,6,3,0.4,0.4
2025-11-22T1500,2472A,113.0073,25.9061,郴州市,马头岭,,,,,,,,,,,,,,,,
2025-11-22T1500,2473A,113.0116,25.8226,郴州市,市职中,,35,31,42,24,33,108,108,60,60,10,24,7,6,0.3,0.5
2025-11-22T1500,2475A,113.0383,25.8071,郴州市,市审计局,,35,26,46,24,34,111,111,64,64,11,31,10,9,0.3,0.7
2025-11-22T1500,2476A,113.0348,25.7759,郴州市,市环保局,,35,34,56,22,35,109,109,65,65,10,34,15,12,0.4,0.5
2025-11-22T1500,4252A,113.0138,25.8011,郴州市,好美居路49号,,37,33,45,24,35,117,117,69,69,10,34,9,9,0.3,0.5
2025-11-22T1500,1431A,103.9728,30.7236,成都市,金泉两河,细颗粒物(PM2.5),99,117,118,74,89,77,77,26,26,34,52,6,5,0.7,0.9
2025-11-22T1500,1432A,104.176,30.6872,成都市,十里店,细颗粒物(PM2.5),127,127,116,96,83,60,60,22,22,47,60,4,4,0.8,0.8
2025-11-22T1500,1433A,104.079,30.5706,成都市,三瓦窑,细颗粒物(PM2.5),114,107,85,86,50,48,48,,,53,58,5,5,0.7,0.6
2025-11-22T1500,1434A,104.1114,30.63,成都市,沙河铺,细颗粒物(PM2.5),123,121,97,93,76,42,42,12,12,66,64,3,3,1.0,0.9
2025-11-22T1500,1437A,104.0786,30.6531,成都市,君平街,细颗粒物(PM2.5),130,114,115,99,88,29,29,14,14,68,64,5,5,0.8,0.8
2025-11-22T1500,1438A,103.613,31.0283,成都市,灵岩寺,,,,,,,,,,,,,,,,
2025-11-22T1500,2880A,104.0239,30.65639,成都市,大石西路,细颗粒物(PM2.5),124,101,93,94,80,40,40,19,19,69,62,4,4,1.0,0.9
2025-11-22T1500,3136A,104.2725,30.5589,成都市,龙泉驿区区政府,细颗粒物(PM2.5),83,80,65,61,49,66,66,41,41,29,22,6,6,0.6,0.6
2025-11-22T1500,3357A,104.0106,30.6931,成都市,金博路,细颗粒物(PM2.5),132,137,116,100,82,54,54,19,19,57,63,8,6,1.0,0.9
2025-11-22T1500,3359A,104.0578,30.5225,成都市,华阳,细颗粒物(PM2.5),92,114,81,68,54,48,48,16,16,50,57,6,6,0.7,0.7
2025-11-22T1500,3488A,104.3880,30.7467,成都市,青石路225号,细颗粒物(PM2.5),110,98,100,83,73,66,66,22,22,36,43,8,6,0.7,0.7
2025-11-22T1500,3489A,104.0789,30.4072,成都市,科学城,细颗粒物(PM2.5),117,109,83,88,62,67,67,25,25,24,36,8,6,0.5,0.6
2025-11-22T1500,4011A,103.8506,30.6947,成都市,光华大道三段,细颗粒物(PM2.5),115,120,123,87,95,67,67,26,26,42,55,3,3,0.7,0.8
2025-11-22T1500,4224A,104.2433,30.5353,成都市,鲸龙路1057号,细颗粒物(PM2.5),97,87,75,72,55,63,63,33,33,31,40,7,7,0.8,0.7
2025-11-22T1500,1062A,117.9531,40.9081,承德市,铁路,,29,29,42,10,19,43,43,22,22,27,31,23,11,0.8,0.9
2025-11-22T1500,1063A,117.9392,40.9763,承德市,中国银行,,33,33,44,7,17,39,39,23,23,28,33,21,7,0.9,0.6
2025-11-22T1500,1064A,117.9503,40.928,承德市,开发区,,,52,53,25,25,40,40,28,28,30,35,25,10,,0.7
2025-11-22T1500,1066A,117.9268,41.0026,承德市,离宫,,,,,,,,,,,,,,,,
2025-11-22T1500,4274A,117.7994,40.9605,承德市,滨河大街98号,颗粒物(PM10),56,62,44,31,21,38,38,22,22,40,31,131,21,2.7,0.8
2025-11-22T1500,2314A,117.47,30.6618,池州市,池州学院,,48,48,80,33,61,116,116,66,66,25,39,9,8,0.4,1.1
2025-11-22T1500,3237A,117.4918,30.6617,池州市,展览馆,,46,39,73,32,53,117,117,63,63,28,39,10,8,0.4,0.8
2025-11-22T1500,3333A,117.5627,30.695,池州市,第八中学,,40,40,81,26,57,121,121,68,68,30,42,11,10,0.5,0.8
2025-11-22T1500,3334A,117.5038,30.6243,池州市,第十二中学,细颗粒物(PM2.5),57,58,87,40,58,116,116,64,64,39,54,12,9,0.6,1.2
2025-11-22T1500,1744A,118.9233,42.2816,赤峰市,松山一中,,28,28,27,11,14,82,82,57,57,14,24,6,10,0.4,0.6
2025-11-22T1500,1745A,118.9576,42.2728,赤峰市,哈达街,,39,39,24,11,9,74,74,56,56,16,19,8,11,0.4,0.5
2025-11-22T1500,1746A,118.8788,42.2554,赤峰市,天义路,,25,25,17,14,11,73,73,50,50,14,27,6,6,0.6,0.6
2025-11-22T1500,3058A,119.2658,42.0353,赤峰市,银河街,,50,50,79,10,46,84,84,48,48,9,35,6,8,0.4,1.1
2025-11-22T1500,3286A,118.9359,42.3147,赤峰市,桥北物流园区,,30,30,28,16,13,75,75,48,48,14,29,9,14,0.3,0.4
2025-11-22T1500,2521A,107.3476,22.4136,崇左市,市环保局江州分局,,39,39,37,19,18,110,110,58,58,10,18,8,6,0.5,0.5
2025-11-22T1500,4256A,107.3750,22.3736,崇左市,石景林东路7号,,36,36,31,21,20,111,111,64,64,8,16,10,8,0.5,0.5
2025-11-22T1500,2298A,118.3093,32.3153,滁州市,老年大学,细颗粒物(PM2.5),83,77,87,61,70,128,128,65,65,18,32,10,10,0.5,0.6
2025-11-22T1500,2299A,118.3244,32.2786,滁州市,人大宾馆,细颗粒物(PM2.5),83,80,96,61,75,129,129,79,79,18,38,10,7,0.4,0.6
2025-11-22T1500,3207A,118.3118,32.3038,滁州市,市政府原办公楼,细颗粒物(PM2.5),80,85,98,59,70,130,130,72,72,19,42,9,6,0.6,0.8
2025-11-22T1500,3331A,118.3267,32.2634,滁州市,图书馆,颗粒物(PM10),62,74,92,43,65,132,132,83,83,20,36,11,10,0.4,0.6
2025-11-22T1500,2605A,101.5482,25.0441,楚雄彝族自治州,州环境监测站,,16,16,17,8,13,32,32,38,33,3,4,5,5,0.6,0.7
2025-11-22T1500,2606A,101.538,25.0492,楚雄彝族自治州,市经济开发区,,,10,20,8,17,52,52,48,48,,8,6,6,0.4,0.5
2025-11-22T1500,2548A,107.5277,31.2827,达州市,达州职业技术学院,,,,,,,,,,,,,,,,
2025-11-22T1500,2549A,107.5086,31.2186,达州市,市环境监测站,细颗粒物(PM2.5),98,91,81,73,58,3,3,3,3,41,41,8,6,0.9,0.9
2025-11-22T1500,2550A,107.4988,31.2132,达州市,凤凰小区,细颗粒物(PM2.5),104,97,88,78,62,5,5,4,4,40,41,7,6,0.9,0.8
2025-11-22T1500,2551A,107.5082,31.1986,达州市,达县机关宾馆,细颗粒物(PM2.5),108,92,88,81,61,5,5,4,4,39,44,6,5,0.9,0.9
2025-11-22T1500,2552A,107.4644,31.2124,达州市,市政中心,细颗粒物(PM2.5),107,137,105,80,61,4,4,3,3,46,47,9,10,1.0,0.9
2025-11-22T1500,2614A,100.1542,25.7054,大理白族自治州,大理市环境监测站,,20,,9,14,17,48,48,40,40,7,9,6,6,0.6,0.6
2025-11-22T1500,2615A,100.2171,25.5811,大理白族自治州,大理古城,,16,7,11,7,9,50,50,42,42,7,9,7,7,0.5,0.5
2025-11-22T1500,1109A,121.612,38.9741,大连市,甘井子,细颗粒物(PM2.5),88,84,52,65,37,83,83,57,57,40,43,15,14,0.4,0.4
2025-11-22T1500,1110A,121.565,38.9511,大连市,周水子,细颗粒物(PM2.5),97,90,54,72,38,83,83,56,56,38,51,16,13,0.7,0.7
2025-11-22T1500,1111A,121.5637,38.8845,大连市,星海三站,细颗粒物(PM2.5),114,94,44,86,38,81,81,58,58,33,31,12,13,0.8,0.6
2025-11-22T1500,1112A,121.6302,38.9117,大连市,青泥洼桥,细颗粒物(PM2.5),135,140,60,103,37,84,84,62,62,39,33,,14,0.9,0.7
2025-11-22T1500,1113A,121.6251,38.8638,大连市,傅家庄,细颗粒物(PM2.5),119,117,51,90,37,82,82,61,61,36,26,15,14,1.2,0.9
2025-11-22T1500,1114A,121.5213,38.8661,大连市,七贤岭,细颗粒物(PM2.5),109,107,50,82,33,86,86,59,59,40,31,14,8,0.9,0.8
2025-11-22T1500,1115A,121.2529,38.8061,大连市,旅顺,细颗粒物(PM2.5),104,110,57,78,42,86,86,54,54,31,33,13,11,0.7,0.6
2025-11-22T1500,1116A,121.7485,39.1311,大连市,金州,细颗粒物(PM2.5),85,90,57,63,36,71,71,53,53,50,43,14,10,0.6,0.5
2025-11-22T1500,1117A,121.7811,39.0496,大连市,开发区,细颗粒物(PM2.5),78,80,52,57,37,66,66,46,46,39,52,18,16,0.6,0.7
2025-11-22T1500,1118A,121.9762,39.0631,大连市,双D港,细颗粒物(PM2.5),92,101,50,68,30,80,80,63,63,34,24,17,13,1.0,0.7
2025-11-22T1500,1789A,124.81117,46.03138,大庆市,大同区,细颗粒物(PM2.5),188,154,66,141,28,87,87,62,62,19,16,9,8,0.7,0.5
2025-11-22T1500,1790A,125.129,46.533,大庆市,龙凤区,细颗粒物(PM2.5),175,182,84,132,61,104,104,54,54,24,26,10,8,0.9,0.8
2025-11-22T1500,1791A,124.902,46.408,大庆市,红岗区,细颗粒物(PM2.5),133,130,44,101,24,89,89,55,55,16,16,7,6,0.8,0.5
2025-11-22T1500,1792A,125.153,46.586,大庆市,萨尔图区,细颗粒物(PM2.5),135,203,74,103,36,83,83,43,43,24,26,11,10,0.7,0.6
2025-11-22T1500,1793A,124.9042,46.6215,大庆市,让胡路区,颗粒物(PM10),88,126,44,46,25,90,90,54,54,15,15,9,8,0.5,0.4
2025-11-22T1500,3481A,125.141,46.634,大庆市,萨区政府监测点,颗粒物(PM10),82,113,58,48,25,81,81,46,46,15,15,11,11,0.5,0.4
2025-11-22T1500,1721A,113.3819,40.1097,大同市,果树场,颗粒物(PM10),61,72,88,17,41,84,84,47,47,18,44,11,16,0.5,1.4
2025-11-22T1500,1723A,113.2994,40.0758,大同市,云冈宾馆,颗粒物(PM10),66,82,86,24,25,74,74,37,37,16,42,7,9,0.6,1.1
2025-11-22T1500,1724A,113.3444,40.0917,大同市,大同大学,颗粒物(PM10),56,61,68,25,26,83,83,44,44,16,46,4,9,0.5,0.9
2025-11-22T1500,1725A,113.2661,40.1269,大同市,安家小村,,,64,77,,28,81,81,48,48,12,40,8,16,0.4,1.4
2025-11-22T1500,1726A,113.2711,40.0844,大同市,教育学院,颗粒物(PM10),61,72,83,29,31,76,76,40,40,18,45,6,13,0.2,1.1
2025-11-22T1500,3282A,113.3397,40.0597,大同市,大同市卫生学校,颗粒物(PM10),58,66,72,20,27,79,79,37,37,20,50,6,10,0.3,0.9
2025-11-22T1500,3565A,113.1367,40.1122,大同市,云冈站,颗粒物(PM10),62,73,61,23,21,80,80,51,51,12,33,6,13,0.3,0.5
2025-11-22T1500,3566A,113.1186,40.2556,大同市,图书馆,颗粒物(PM10),59,67,62,22,25,77,77,55,55,17,26,6,7,0.4,0.5
2025-11-22T1500,3567A,113.5931,40.0461,大同市,区一中,,,94,89,20,38,89,89,54,54,16,42,,34,0.5,0.9
2025-11-22T1500,4199A,113.2798,40.0997,大同市,魏都大道141号,颗粒物(PM10),65,79,95,25,35,80,80,44,44,16,46,5,11,0.5,1.7
2025-11-22T1500,2269A,124.1069,50.4097,大兴安岭地区,科技局,,27,27,21,17,14,42,42,46,46,17,6,16,5,0.3,0.3
2025-11-22T1500,3663A,124.1164,50.4278,大兴安岭地区,红旗社区,,20,19,22,14,15,43,43,34,30,25,18,10,7,0.4,0.4
2025-11-22T1500,1600A,124.3303,40.0625,丹东市,江湾东路,,50,50,86,30,55,76,76,50,50,18,42,10,22,0.8,1.6
2025-11-22T1500,1601A,124.4256,40.1503,丹东市,临江后街,,50,50,106,19,48,70,70,43,43,18,46,12,20,0.9,1.6
2025-11-22T1500,1602A,124.3933,40.1461,丹东市,元宝山,,44,44,82,24,49,73,73,41,41,18,40,13,17,1.0,1.5
2025-11-22T1500,1603A,124.3633,40.1092,丹东市,民主桥,颗粒物(PM10),52,53,86,24,51,82,82,55,55,15,47,9,12,0.6,1.5
2025-11-22T1500,3541A,109.5726,19.5167,儋州市,第一中学子站,,45,45,41,23,22,106,106,84,84,7,10,7,9,0.4,0.5
2025-11-22T1500,3542A,109.5567,19.5187,儋州市,东坡学校子站,,38,36,38,23,20,119,119,92,92,11,12,2,3,0.4,0.4
2025-11-22T1500,2616A,98.5842,24.428,德宏傣族景颇族自治州,德宏州监测站,,25,,26,16,21,78,78,40,40,6,16,9,8,0.5,0.7
2025-11-22T1500,3677A,98.5881,24.4368,德宏傣族景颇族自治州,芒市人民政府综合楼,,29,29,26,9,14,70,70,36,36,7,12,8,7,0.6,0.7
2025-11-22T1500,1901A,104.4239,31.1208,德阳市,东山公园,细颗粒物(PM2.5),109,,60,82,80,67,67,32,32,39,33,7,4,0.9,0.9
2025-11-22T1500,1902A,104.3826,31.1317,德阳市,西小区,细颗粒物(PM2.5),103,153,139,77,89,70,70,18,18,33,43,10,6,0.6,0.7
2025-11-22T1500,1904A,104.3553,31.1091,德阳市,耐火材料厂,细颗粒物(PM2.5),123,118,124,93,98,68,68,19,19,40,48,12,7,0.9,1
2025-11-22T1500,3639A,104.4019,31.1244,德阳市,市教育局,细颗粒物(PM2.5),105,116,101,79,82,65,65,20,20,36,48,6,3,0.7,0.8
2025-11-22T1500,1622A,116.3032,37.4674,德州市,儿童乐园,细颗粒物(PM2.5),89,117,135,66,79,80,80,51,51,40,57,18,17,1.0,1
2025-11-22T1500,1624A,116.2991,37.4451,德州市,监理站,细颗粒物(PM2.5),94,107,124,70,80,85,85,57,57,43,61,19,18,0.7,0.7
2025-11-22T1500,3066A,116.2721,37.4379,德州市,九衢泉纯净水厂,颗粒物(PM10),81,112,134,56,79,76,76,46,46,57,80,21,19,1.1,1.1
2025-11-22T1500,3371A,116.3728,37.4403,德州市,开发区人民医院,颗粒物(PM10),84,117,135,51,77,81,81,53,53,43,61,22,22,1.0,1
2025-11-22T1500,3511A,116.5652,37.3319,德州市,陵城艺术中心,细颗粒物(PM2.5),94,100,125,70,78,74,74,46,46,49,62,17,24,0.8,1
2025-11-22T1500,4292A,116.3525,37.4209,德州市,新河东路,颗粒物(PM10),81,112,136,56,82,76,76,44,44,55,83,19,19,1.0,1
2025-11-22T1500,2621A,99.7056,27.8317,迪庆藏族自治州,迪庆州站,,25,21,28,13,19,79,79,66,61,6,10,6,6,0.6,0.7
2025-11-22T1500,3180A,99.7136,27.8094,迪庆藏族自治州,质量技术监督局,,27,24,20,16,12,84,84,75,62,6,11,7,7,0.7,0.7
2025-11-22T1500,4257A,104.6092,35.5962,定西市,将台街,,39,32,67,27,41,89,89,49,49,10,33,13,13,0.4,0.8
2025-11-22T1500,4309A,104.6159,35.5701,定西市,正龙路62号,,26,26,77,11,53,72,72,47,47,12,24,7,9,0.7,0.9
2025-11-22T1500,1389A,113.7547,23.0494,东莞市,莞城梨川,臭氧1小时,67,51,40,31,23,173,173,109,109,21,30,7,6,0.5,0.5
2025-11-22T1500,1390A,113.7944,23.0128,东莞市,东城石井,,42,34,30,18,19,134,134,99,99,16,27,10,9,0.6,0.6
2025-11-22T1500,1391A,113.7383,22.9658,东莞市,南城西平,,46,35,42,27,23,147,147,100,100,16,53,10,10,0.6,0.6
2025-11-22T1500,3319A,113.7338,23.0381,东莞市,万江金泰,臭氧1小时,59,61,38,38,20,167,167,102,102,19,26,7,6,0.7,0.6
2025-11-22T1500,3626A,113.7533,23.0202,东莞市,南城元岭,,,41,41,28,24,163,163,112,112,,25,9,9,0.4,0.5
2025-11-22T1500,3627A,113.7875,23.0457,东莞市,东城主山,,50,40,45,22,27,157,157,111,111,14,39,8,9,0.4,0.4
2025-11-22T1500,1666A,118.6614,37.4309,东营市,市环保局,颗粒物(PM10),64,78,110,39,66,97,97,52,52,30,62,15,31,0.7,1
2025-11-22T1500,3036A,118.6904,37.4338,东营市,开发区管委会,颗粒物(PM10),65,80,119,41,70,97,97,51,51,27,66,18,32,0.3,0.7
2025-11-22T1500,3365A,118.5719,37.565,东营市,垦利区民丰路,颗粒物(PM10),59,68,118,29,67,115,115,64,64,27,63,7,15,0.7,1
2025-11-22T1500,3498A,118.5055,37.8612,东营市,河口城区,颗粒物(PM10),71,92,114,42,62,92,92,51,51,32,52,16,17,0.6,0.7
2025-11-22T1500,3646A,118.4978,37.4623,东营市,胜利站,颗粒物(PM10),59,67,113,36,73,100,100,50,50,41,75,16,33,0.8,1.2
2025-11-22T1500,3734A,118.35,37.26,东营市,理想之城,颗粒物(PM10),57,63,127,39,72,86,86,42,42,37,71,12,20,0.7,1.1
2025-11-22T1500,1591A,110.0023,39.8129,鄂尔多斯市,综合楼,颗粒物(PM10),69,88,40,14,12,94,94,65,65,7,20,7,10,0.3,0.4
2025-11-22T1500,1592A,109.9486,39.8261,鄂尔多斯市,巴音孟克林场办事处,颗粒物(PM10),81,112,48,22,16,100,100,85,85,7,16,6,8,0.3,0.4
2025-11-22T1500,1593A,109.7736,39.5986,鄂尔多斯市,康泽苑,颗粒物(PM10),64,78,44,22,20,103,103,68,68,8,23,9,7,0.3,0.5
2025-11-22T1500,1594A,109.8119,39.5989,鄂尔多斯市,华泰汽车城,颗粒物(PM10),73,95,50,27,20,102,102,57,57,7,35,9,8,0.2,0.4
2025-11-22T1500,1595A,109.9734,39.7884,鄂尔多斯市,奥林花园,颗粒物(PM10),81,112,54,17,13,98,98,61,61,10,32,10,10,0.2,0.3
2025-11-22T1500,2436A,114.8938,30.3994,鄂州市,市政府,细颗粒物(PM2.5),72,66,90,52,68,114,114,56,56,26,52,14,13,0.6,0.7
2025-11-22T1500,2437A,114.8989,30.3714,鄂州市,赵家坝,细颗粒物(PM2.5),73,83,79,53,58,117,117,57,57,16,38,12,13,0.7,0.7
2025-11-22T1500,3654A,114.8094,30.4089,鄂州市,精准医疗中心,细颗粒物(PM2.5),89,82,92,66,71,114,114,66,66,20,51,12,8,1.4,1
2025-11-22T1500,2454A,109.4978,30.2981,恩施土家族苗族自治州,湖北民院,细颗粒物(PM2.5),52,47,51,36,45,49,49,26,26,20,17,7,7,0.5,0.5
2025-11-22T1500,2455A,109.4707,30.2798,恩施土家族苗族自治州,州电力总公司,细颗粒物(PM2.5),58,50,57,41,46,31,31,15,15,23,26,7,7,0.5,0.6
2025-11-22T1500,3549A,109.5061,30.3772,恩施土家族苗族自治州,龙凤新区,细颗粒物(PM2.5),57,62,51,40,34,24,24,17,17,34,18,6,7,0.3,0.3
2025-11-22T1500,2499A,108.3411,21.6158,防城港市,沙万,,48,48,32,24,19,120,120,86,86,13,12,9,7,0.4,0.2
2025-11-22T1500,2500A,108.3514,21.7731,防城港市,防城档案局,,43,43,48,28,20,102,102,76,76,11,16,10,9,0.4,0.4
2025-11-22T1500,2501A,108.3506,21.6414,防城港市,大海花园,,42,42,30,19,18,130,130,94,94,12,12,9,7,0.6,0.4
2025-11-22T1500,1371A,113.1294,23.0067,佛山市,湾梁,,39,39,31,26,19,116,116,84,84,26,29,8,8,0.4,0.4
2025-11-22T1500,1372A,113.1083,23.0478,佛山市,华材职中,颗粒物(PM10),54,58,42,32,21,112,112,73,73,24,39,7,7,0.7,0.7
2025-11-22T1500,1373A,113.144,23.0453,佛山市,南海气象局,,46,46,33,23,18,125,125,90,90,25,27,8,8,0.5,0.5
2025-11-22T1500,1374A,113.2881,22.8094,佛山市,顺德苏岗,,40,40,29,24,17,120,120,84,84,26,36,9,9,0.4,0.3
2025-11-22T1500,1376A,112.8383,22.8678,佛山市,高明孔堂,,48,46,35,33,22,138,138,88,88,18,22,9,8,0.3,0.3
2025-11-22T1500,1377A,112.8836,23.1588,佛山市,三水监测站,,44,44,37,27,21,106,106,76,76,16,31,7,8,0.5,0.5
2025-11-22T1500,1378A,112.867,23.185,佛山市,三水云东海,,49,49,33,27,21,117,117,84,84,17,28,8,7,0.5,0.5
2025-11-22T1500,3625A,113.2544,22.7642,佛山市,容桂街道办,,44,44,35,19,19,107,107,75,75,30,41,7,7,0.5,0.5
2025-11-22T1500,1280A,119.3903,26.0543,福州市,鼓山,,,,31,,17,,,101,,,10,,3,,0.5
2025-11-22T1500,1282A,119.2681,26.0504,福州市,师大,颗粒物(PM10),52,53,42,28,24,138,138,100,100,12,20,7,7,0.5,0.5
2025-11-22T1500,1283A,119.2984,26.1028,福州市,五四北路,,46,46,36,23,22,121,121,99,99,15,18,5,5,0.5,0.5
2025-11-22T1500,1284A,119.2648,26.0768,福州市,杨桥西路,,48,48,38,24,20,128,128,98,98,10,16,5,5,0.4,0.4
2025-11-22T1500,1285A,119.317,26.0746,福州市,紫阳,颗粒物(PM10),61,72,43,24,22,117,117,88,88,17,22,7,8,0.4,0.4
2025-11-22T1500,3048A,119.5799,26.0936,福州市,九龙,,43,43,35,23,21,134,134,112,112,12,13,6,6,0.4,0.4
2025-11-22T1500,3526A,119.5189,25.9664,福州市,吴航,,42,37,38,21,22,132,132,106,106,13,19,8,8,0.5,0.5
2025-11-22T1500,1755A,123.7977,41.8491,抚顺市,望花区,颗粒物(PM10),88,125,126,51,85,74,74,49,49,32,48,16,11,1.0,1
2025-11-22T1500,1756A,123.9161,41.8822,抚顺市,顺城区,颗粒物(PM10),77,104,141,42,96,87,87,53,53,26,47,13,12,0.9,1.2
2025-11-22T1500,1757A,124.0436,41.8611,抚顺市,东洲区,颗粒物(PM10),66,81,82,34,72,84,84,52,52,18,39,11,11,0.9,1
2025-11-22T1500,1758A,123.9247,41.8642,抚顺市,新抚区,颗粒物(PM10),81,111,110,49,78,88,88,49,49,24,44,12,9,1.1,1.2
2025-11-22T1500,1759A,124.0972,41.8961,抚顺市,大伙房水库,颗粒物(PM10),64,78,73,35,55,94,94,71,71,15,27,13,13,1.0,1
2025-11-22T1500,1760A,123.7086,41.8391,抚顺市,沈抚新城,颗粒物(PM10),84,117,129,54,93,77,77,55,55,24,40,17,16,0.9,1.5
2025-11-22T1500,2376A,116.2127,28.0814,抚州市,桐源党溪,,,,,,,,,,,,,,,,
2025-11-22T1500,2377A,116.3544,27.9831,抚州市,市站,,47,47,60,26,38,134,134,75,75,12,24,7,9,0.7,0.6
2025-11-22T1500,2378A,116.3565,27.963,抚州市,血防站,,47,47,59,28,37,136,136,72,72,14,30,5,7,0.7,0.7
2025-11-22T1500,2379A,116.3564,28.0007,抚州市,采茶剧团,,47,47,62,25,41,126,126,79,79,7,18,5,7,0.6,0.7
2025-11-22T1500,2380A,116.385,27.9647,抚州市,医学分院,,42,31,66,21,38,134,134,83,83,9,25,6,8,0.6,0.7
2025-11-22T1500,2207A,121.6094,41.998,阜新市,工业园区,颗粒物(PM10),68,86,130,39,72,91,91,55,55,20,45,16,27,0.6,0.9
2025-11-22T1500,2208A,121.6697,42.0279,阜新市,长青街,颗粒物(PM10),57,63,89,26,62,82,82,44,44,22,45,20,23,0.5,0.9
2025-11-22T1500,2209A,121.6673,42.0705,阜新市,农业园区,颗粒物(PM10),66,81,85,36,45,82,82,57,57,18,36,23,38,0.5,0.7
2025-11-22T1500,2210A,121.6717,42.0224,阜新市,东苑,颗粒物(PM10),66,82,91,32,53,81,81,43,43,24,49,19,33,0.6,1
2025-11-22T1500,2211A,121.6506,42.0498,阜新市,玉龙新城,颗粒物(PM10),61,71,116,26,60,87,87,49,49,20,45,21,25,0.6,1
2025-11-22T1500,2301A,115.8277,32.8929,阜阳市,市监测站,,49,47,94,34,68,115,115,77,77,13,41,6,7,0.3,0.7
2025-11-22T1500,2303A,115.8554,32.8605,阜阳市,开发区,颗粒物(PM10),54,57,114,28,64,119,119,79,79,13,41,6,7,0.3,0.5
2025-11-22T1500,2875A,115.784,32.8892,阜阳市,阜阳职业技术学院,,39,32,65,21,47,123,123,95,95,9,37,8,9,0.4,0.7
2025-11-22T1500,3468A,115.7901,32.8613,阜阳市,市规划展馆,,45,43,84,31,62,126,126,90,90,12,30,6,8,0.2,0.4
2025-11-22T1500,3469A,115.836,32.9183,阜阳市,枣园社区,,49,38,100,34,64,120,120,74,74,15,62,4,6,0.2,0.5
2025-11-22T1500,2669A,102.9099,34.9841,甘南藏族自治州,州政府,,43,35,50,30,35,75,75,43,43,10,31,6,5,0.4,0.7
2025-11-22T1500,3380A,102.8914,34.9617,甘南藏族自治州,甘肃民族师范学院,,35,35,64,14,27,68,68,34,34,10,30,7,8,0.5,0.7
2025-11-22T1500,2570A,101.9603,30.0475,甘孜藏族自治州,水桥子,,22,,9,6,6,68,68,57,54,6,13,8,8,0.3,0.3
2025-11-22T1500,3065A,101.9533,29.9972,甘孜藏族自治州,州环保局,,20,12,15,3,5,63,63,58,53,10,13,5,5,0.3,0.5
2025-11-22T1500,3414A,115.8347,28.932,赣江新区,桑海产业园,,44,44,57,28,32,125,125,73,73,12,46,10,11,0.7,0.8
2025-11-22T1500,2362A,114.9017,25.9149,赣州市,通天岩,,,,35,,19,,,97,,,6,,42,,0.9
2025-11-22T1500,2363A,114.9367,25.8664,赣州市,地委,,46,46,47,30,25,123,123,81,81,16,24,9,9,0.7,0.7
2025-11-22T1500,2364A,114.9461,25.8481,赣州市,气象台,,48,48,54,23,22,116,116,77,77,18,32,9,9,0.6,0.7
2025-11-22T1500,2365A,114.9322,25.8333,赣州市,市图书馆,,43,43,44,22,27,122,122,75,75,16,31,7,6,0.6,0.6
2025-11-22T1500,2366A,114.8905,25.8471,赣州市,华坚鞋城,,44,44,52,23,27,115,115,68,68,16,28,7,6,0.5,0.5
2025-11-22T1500,3109A,115.0093,25.8613,赣州市,赣县区卫计委,,40,38,44,28,32,122,122,70,70,6,25,8,7,0.4,0.5
2025-11-22T1500,2683A,106.2319,36.1417,固原市,马园,,,,,,,,,,,,,,,,
2025-11-22T1500,2684A,106.2792,36.0022,固原市,监测站,颗粒物(PM10),51,51,57,17,29,89,89,60,60,12,30,6,9,0.3,0.9
2025-11-22T1500,2685A,106.2375,36.0211,固原市,新区,,,43,57,14,22,86,86,50,50,12,42,,7,0.0,0.4
2025-11-22T1500,3522A,106.2177,35.9959,固原市,原州区十五小,,36,36,46,16,23,86,86,66,66,12,24,5,8,0.2,0.5
2025-11-22T1500,2543A,106.6308,30.5278,广安市,小平旧居,,,,,,,,,,,,,,,,
2025-11-22T1500,2544A,106.6303,30.4576,广安市,市委,细颗粒物(PM2.5),98,75,75,73,58,21,21,39,19,41,28,3,3,0.7,0.7
2025-11-22T1500,2545A,106.6271,30.4663,广安市,友谊中学,细颗粒物(PM2.5),89,85,73,66,55,29,29,47,23,32,22,7,7,0.8,0.7
2025-11-22T1500,2547A,106.6388,30.4551,广安市,广电花园,,,,61,67,59,28,28,32,18,30,26,,2,0.7,0.7
2025-11-22T1500,2902A,106.6351,30.4865,广安市,北辰小学,细颗粒物(PM2.5),85,84,69,63,56,40,40,40,24,20,17,10,11,0.7,0.7
2025-11-22T1500,2523A,105.8945,32.4535,广元市,黑石坡,,,,,,,,,,,,,,,,
2025-11-22T1500,2524A,105.821,32.4444,广元市,老城,细颗粒物(PM2.5),74,88,69,54,52,24,24,13,13,54,54,12,9,1.0,1
2025-11-22T1500,2526A,105.8628,32.4287,广元市,监测站,细颗粒物(PM2.5),64,53,54,46,49,30,30,12,12,44,38,6,6,1.0,1
2025-11-22T1500,3617A,105.8047,32.4166,广元市,经开区,细颗粒物(PM2.5),89,95,87,66,57,15,15,7,7,58,52,19,9,1.2,1
2025-11-22T1500,1345A,113.2347,23.1423,广州市,广雅中学,颗粒物(PM10),51,52,43,32,25,122,122,87,87,26,36,9,9,0.7,0.5
2025-11-22T1500,1346A,113.2612,23.105,广州市,市五中,,47,47,34,29,21,142,142,106,106,25,30,10,11,0.5,0.5
2025-11-22T1500,1348A,113.3478,23.0916,广州市,广东商学院,,39,39,35,25,19,123,123,92,92,16,22,6,7,0.2,0.2
2025-11-22T1500,1349A,113.4332,23.1047,广州市,市八十六中,,37,33,30,15,19,118,118,87,87,11,27,8,8,0.1,0.2
2025-11-22T1500,1350A,113.3505,22.9483,广州市,番禺中学,,41,41,34,26,20,116,116,87,87,21,29,5,6,0.2,0.2
2025-11-22T1500,1351A,113.2146,23.3916,广州市,花都师范,,39,34,34,20,19,122,122,98,98,15,18,6,8,0.3,0.3
2025-11-22T1500,1352A,113.2597,23.1331,广州市,市监测站,,48,48,40,29,21,139,139,98,98,21,29,8,9,0.4,0.3
2025-11-22T1500,1353A,113.5618,23.312,广州市,九龙镇镇龙,,34,34,36,21,20,100,100,76,76,10,22,6,6,0.3,0.5
2025-11-22T1500,1354A,113.2765,23.1544,广州市,麓湖,,43,43,31,27,20,127,127,89,89,17,26,8,9,0.5,0.5
2025-11-22T1500,1355A,113.443,23.3035,广州市,帽峰山森林公园,,,,,,,,,,,,,,,,
2025-11-22T1500,2846A,113.3221,23.1322,广州市,体育西,,42,42,35,24,21,126,126,93,93,20,28,9,10,0.6,0.6
2025-11-22T1500,3298A,113.5717,23.5491,广州市,从化街口,,38,34,31,26,20,114,114,97,97,10,15,8,7,0.5,0.5
2025-11-22T1500,3299A,113.3472,23.3692,广州市,白云竹料,,42,38,37,21,22,134,134,100,100,11,21,6,7,0.5,0.5
2025-11-22T1500,3300A,113.2981,23.237,广州市,白云嘉禾,颗粒物(PM10),51,52,49,26,24,144,144,94,94,20,43,8,9,0.5,0.6
2025-11-22T1500,3301A,113.4256,23.1716,广州市,黄埔科学城,,40,33,32,20,19,126,126,93,93,11,17,6,7,0.4,0.5
2025-11-22T1500,3302A,113.3942,23.0483,广州市,番禺大学城,,40,36,31,21,18,128,128,93,93,14,26,10,9,0.4,0.3
2025-11-22T1500,3303A,113.4922,22.8168,广州市,南沙黄阁,颗粒物(PM10),51,51,45,35,22,159,159,105,105,25,40,13,13,0.6,0.6
2025-11-22T1500,3304A,113.5342,22.7896,广州市,南沙街,臭氧1小时,59,52,43,33,25,167,167,100,100,24,36,9,9,0.5,0.5
2025-11-22T1500,3443A,113.2902,23.5544,广州市,花都梯面,,39,30,29,17,17,122,122,104,104,9,10,9,9,0.4,0.3
2025-11-22T1500,3445A,113.7858,23.7478,广州市,从化良口,,35,25,21,24,16,107,107,91,91,9,11,8,8,0.5,0.4
2025-11-22T1500,3446A,113.8051,23.2614,广州市,增城荔城,,38,27,27,19,18,120,120,98,98,9,14,11,11,0.5,0.5
2025-11-22T1500,2505A,109.568,23.1478,贵港市,德智高中,,,,,,,,,,,,,,,,
2025-11-22T1500,2506A,109.6047,23.0666,贵港市,江南子站,,40,39,52,22,36,128,128,78,78,10,24,8,9,0.5,0.5
2025-11-22T1500,2508A,109.5669,23.1065,贵港市,荷城子站,,40,36,37,14,19,125,125,79,79,10,17,7,7,0.5,0.5
2025-11-22T1500,3405A,109.5886,23.1172,贵港市,新世纪学校,,41,36,41,24,23,130,130,83,83,6,13,8,7,0.2,0.3
2025-11-22T1500,4260A,109.5933,23.0951,贵港市,中山路155-3号,,41,32,39,25,24,131,131,85,85,9,18,7,8,0.3,0.3
2025-11-22T1500,1439A,106.6899,26.5998,贵阳市,马鞍山,,35,34,38,24,25,50,50,28,28,26,27,14,6,0.4,0.4
2025-11-22T1500,1441A,106.6243,26.6266,贵阳市,鉴湖路,颗粒物(PM10),52,53,46,17,18,57,57,48,40,35,32,13,7,0.5,0.5
2025-11-22T1500,1442A,106.7487,26.6343,贵阳市,燕子冲,细颗粒物(PM2.5),52,39,38,36,36,70,70,36,36,19,23,11,10,0.3,0.4
2025-11-22T1500,1443A,106.6555,26.4365,贵阳市,碧云窝,颗粒物(PM10),57,63,71,24,39,42,42,24,24,31,31,14,11,0.4,0.6
2025-11-22T1500,1445A,106.7109,26.6027,贵阳市,红边门,,42,36,43,29,27,58,58,51,51,21,29,15,20,0.6,0.7
2025-11-22T1500,1446A,106.7164,26.5699,贵阳市,新华路,,44,44,55,24,29,58,58,54,54,24,33,25,19,0.4,0.3
2025-11-22T1500,1447A,106.674,26.5424,贵阳市,太慈桥,,41,41,46,17,30,50,50,32,32,34,33,13,6,0.4,0.4
2025-11-22T1500,1552A,106.805,26.3003,贵阳市,桐木岭,,36,36,40,17,24,87,87,80,80,4,6,3,17,0.7,0.8
2025-11-22T1500,4230A,106.6882,26.5695,贵阳市,花果园大街66号,,44,44,43,28,34,46,46,44,44,31,37,8,9,0.4,0.5
2025-11-22T1500,4231A,106.6873,26.5169,贵阳市,漓江路57号,,42,34,48,29,35,40,40,20,20,31,44,21,26,0.5,0.8
2025-11-22T1500,1862A,110.4144,25.3167,桂林市,电子科大尧山校区,,,,,,,,,,,,,,,,
2025-11-22T1500,1864A,110.3089,25.2708,桂林市,龙隐路小学,,45,44,29,31,26,124,124,95,95,14,14,9,8,0.4,0.4
2025-11-22T1500,1865A,110.2869,25.2178,桂林市,八中,,39,39,32,26,24,120,120,91,91,13,17,10,10,0.1,0.2
2025-11-22T1500,3531A,110.296,25.1253,桂林市,旅游学院,,39,22,26,14,19,122,122,88,88,7,14,7,7,0.1,0.2
2025-11-22T1500,4222A,110.1835,25.2444,桂林市,环湖路276号,,37,29,34,24,26,118,118,82,82,10,13,8,19,0.3,0.4
2025-11-22T1500,4301A,110.2803,25.2773,桂林市,信义路13号,,42,42,32,25,16,122,122,96,96,11,13,8,9,0.3,0.3
2025-11-22T1500,2674A,100.2561,34.4714,果洛藏族自治州,玛沁县大武镇,,27,7,27,3,6,84,84,84,84,1,2,16,16,0.4,0.3
2025-11-22T1500,1129A,126.5422,45.755,哈尔滨市,岭北,,,,,,,,,,,,,,,,
2025-11-22T1500,1130A,126.561,45.8167,哈尔滨市,松北商大,"颗粒物(PM10),细颗粒物(PM2.5)",500,1232,187,974,171,140,140,83,83,78,32,27,10,3.0,0.9
2025-11-22T1500,1131A,126.979,45.5419,哈尔滨市,阿城会宁,细颗粒物(PM2.5),281,249,167,231,135,114,114,78,78,35,34,20,11,1.2,1.1
2025-11-22T1500,1132A,126.599,45.7222,哈尔滨市,南岗学府路,颗粒物(PM10),500,708,194,454,164,106,106,64,64,37,30,17,12,1.8,0.9
2025-11-22T1500,1133A,126.689,45.7733,哈尔滨市,太平宏伟公园,颗粒物(PM10),500,642,177,466,157,124,124,75,75,46,31,17,12,1.6,0.8
2025-11-22T1500,1134A,126.635,45.7667,哈尔滨市,道外承德广场,"颗粒物(PM10),细颗粒物(PM2.5)",500,844,210,613,182,116,116,74,74,50,39,17,14,2.0,0.9
2025-11-22T1500,1135A,126.685,45.7319,哈尔滨市,香坊红旗大街,颗粒物(PM10),471,571,218,370,149,136,136,80,80,46,39,31,17,1.8,1
2025-11-22T1500,1136A,126.6411,45.7258,哈尔滨市,动力和平路,颗粒物(PM10),500,693,189,469,198,124,124,74,74,40,32,15,9,1.7,0.9
2025-11-22T1500,1137A,126.593,45.7478,哈尔滨市,道里建国路,"颗粒物(PM10),细颗粒物(PM2.5)",500,924,188,713,199,132,132,79,79,56,36,28,18,2.2,1.1
2025-11-22T1500,1138A,126.615,45.61,哈尔滨市,平房东轻厂,细颗粒物(PM2.5),407,,177,360,186,116,116,73,73,38,39,18,13,1.7,1.1
2025-11-22T1500,1139A,126.595,45.9855,哈尔滨市,呼兰师专,颗粒物(PM10),500,1349,174,,110,182,182,79,79,78,26,31,14,3.9,0.9
2025-11-22T1500,1140A,126.6206,45.6842,哈尔滨市,省农科院,颗粒物(PM10),475,575,221,426,201,128,128,82,82,46,44,18,11,1.7,1
2025-11-22T1500,2688A,93.5128,42.8172,哈密市,地区监测站,颗粒物(PM10),104,158,149,56,63,57,57,40,40,10,36,3,6,0.0,0.3
2025-11-22T1500,2689A,93.4961,42.8328,哈密市,哈密师范学校,颗粒物(PM10),63,75,87,42,52,52,52,34,34,14,38,18,20,0.2,0.7
2025-11-22T1500,2671A,100.9048,36.9639,海北藏族自治州,海晏县西海镇,,30,18,23,16,20,93,93,62,62,2,8,9,11,0.3,0.5
2025-11-22T1500,3867A,102.0738,36.5056,海东市,平安区公安北苑,,,53,68,,66,77,77,34,33,21,27,25,20,0.9,1
2025-11-22T1500,1409A,110.576,19.9507,海口市,东寨港,,,,,,,,,,,,,,,,
2025-11-22T1500,1410A,110.3232,20.0574,海口市,海南大学,,46,43,34,24,19,146,146,112,112,9,10,8,8,0.3,0.2
2025-11-22T1500,1411A,110.283,20.0053,海口市,秀英海南医院,,45,45,37,23,18,139,139,107,107,10,11,9,10,0.3,0.2
2025-11-22T1500,1412A,110.338,19.9969,海口市,海南师范大学,,47,42,34,24,19,148,148,113,113,10,11,7,8,0.4,0.3
2025-11-22T1500,1413A,110.33,20.0356,海口市,龙华路环保局宿舍,,46,41,35,22,18,146,146,112,112,11,12,9,10,0.6,0.5
2025-11-22T1500,3539A,110.5111,19.9736,海口市,桂林洋子站,,45,41,39,22,21,144,144,110,110,10,11,8,9,0.3,0.3
2025-11-22T1500,2673A,100.6188,36.2866,海南藏族自治州,共和县恰卜恰镇,颗粒物(PM10),53,56,35,30,16,102,102,60,60,4,18,7,10,0.4,0.4
2025-11-22T1500,2676A,97.3731,37.3753,海西蒙古族藏族自治州,德令哈市,,31,20,20,15,13,98,98,71,71,3,9,14,13,0.4,0.5
2025-11-22T1500,1048A,114.5302,36.6116,邯郸市,东污水处理厂,细颗粒物(PM2.5),55,41,76,39,62,84,84,38,38,24,48,16,14,0.9,1
2025-11-22T1500,1049A,114.4918,36.5713,邯郸市,矿院,,39,29,67,27,61,92,92,46,46,17,47,12,12,0.7,1
2025-11-22T1500,1050A,114.484,36.6133,邯郸市,丛台公园,,,,65,,50,83,83,16,,18,40,,8,0.6,0.9
2025-11-22T1500,3458A,114.7895,36.5593,邯郸市,香泉濮院小区,,45,41,101,31,67,89,89,46,46,21,38,17,15,1.0,1
2025-11-22T1500,3579A,114.50634,36.77178,邯郸市,永年区实验高中,,37,37,70,16,35,78,78,44,44,27,44,16,14,0.9,1.1
2025-11-22T1500,3580A,114.20016,36.44293,邯郸市,峰峰矿区临水派出所,,34,,34,17,32,106,106,81,81,13,24,9,15,0.5,0.7
2025-11-22T1500,2634A,106.9893,33.1842,汉中市,汉川机床厂子校,,,,,,,,,,,,,,,,
2025-11-22T1500,2635A,107.0154,33.0706,汉中市,市监测站,细颗粒物(PM2.5),89,88,92,66,76,57,57,32,32,33,38,18,9,1.3,1.2
2025-11-22T1500,2636A,107.0089,33.1138,汉中市,鑫源开发区,细颗粒物(PM2.5),94,88,91,70,59,55,55,42,42,44,42,26,14,1.7,1.3
2025-11-22T1500,2637A,107.007,33.0323,汉中市,南郑大河坎水厂,细颗粒物(PM2.5),94,96,86,70,70,44,44,24,24,35,31,20,12,1.2,1
2025-11-22T1500,1223A,120.2072,30.2111,杭州市,滨江,细颗粒物(PM2.5),80,91,86,59,52,119,119,66,66,36,62,11,9,0.6,0.8
2025-11-22T1500,1224A,120.0633,30.2747,杭州市,西溪,细颗粒物(PM2.5),69,72,55,50,38,130,130,74,74,24,36,12,9,0.7,0.6
2025-11-22T1500,1226A,120.3417,30.3150,杭州市,下沙,细颗粒物(PM2.5),102,103,90,76,59,120,120,70,70,42,76,13,9,0.6,0.7
2025-11-22T1500,1227A,120.1269,30.2456,杭州市,卧龙桥,细颗粒物(PM2.5),73,74,57,53,41,121,121,68,68,25,31,10,6,0.3,0.4
2025-11-22T1500,1228A,120.1903,30.2692,杭州市,浙江农大,细颗粒物(PM2.5),97,92,93,72,62,119,119,68,68,36,57,12,10,0.6,0.8
2025-11-22T1500,1230A,120.1197,30.3119,杭州市,和睦小学,细颗粒物(PM2.5),74,80,89,54,54,122,122,74,74,27,56,12,10,0.8,1
2025-11-22T1500,1231A,120.3019,30.4183,杭州市,临平镇,细颗粒物(PM2.5),79,89,99,58,63,117,117,67,67,33,60,11,9,0.5,0.8
2025-11-22T1500,1232A,120.2753,30.1839,杭州市,城厢镇,细颗粒物(PM2.5),79,89,81,58,53,154,154,77,77,32,64,13,9,0.4,0.5
2025-11-22T1500,1233A,120.0883,30.1808,杭州市,云栖,颗粒物(PM10),130,210,85,52,51,122,122,69,69,27,34,8,5,0.5,0.6
2025-11-22T1500,3557A,119.9464,30.0494,杭州市,镇二中,细颗粒物(PM2.5),74,82,64,54,50,123,123,68,68,27,47,9,7,0.8,0.9
2025-11-22T1500,3558A,119.7183,30.2367,杭州市,市府大楼,细颗粒物(PM2.5),65,78,67,47,43,129,129,78,78,22,33,12,11,0.8,0.9
2025-11-22T1500,3656A,120.1556,30.2864,杭州市,消防大队,细颗粒物(PM2.5),82,79,78,60,55,117,117,74,74,30,55,12,10,0.6,0.7
2025-11-22T1500,1270A,117.1959,31.7848,合肥市,明珠广场,颗粒物(PM10),54,58,88,29,55,104,104,66,66,26,66,10,10,0.5,0.8
2025-11-22T1500,1271A,117.3072,31.8764,合肥市,三里街,"颗粒物(PM10),细颗粒物(PM2.5)",64,78,119,46,79,106,106,50,50,33,79,8,10,0.6,1.4
2025-11-22T1500,1272A,117.2588,31.8707,合肥市,琥珀山庄,细颗粒物(PM2.5),69,63,105,50,69,112,112,56,56,81,70,8,8,0.4,1.2
2025-11-22T1500,1273A,117.1604,31.9052,合肥市,董铺水库,,,,,,,,,,,,,,,,
2025-11-22T1500,1274A,117.25,31.8571,合肥市,长江中路,细颗粒物(PM2.5),54,56,103,38,73,114,114,59,59,22,54,9,9,0.4,1.2
2025-11-22T1500,1275A,117.266,31.9436,合肥市,庐阳区,颗粒物(PM10),52,53,92,31,56,114,114,58,58,30,64,8,7,0.5,0.9
2025-11-22T1500,1276A,117.3453,31.8616,合肥市,瑶海区,颗粒物(PM10),54,58,106,32,62,120,120,65,65,24,75,6,8,0.3,0.9
2025-11-22T1500,1277A,117.3027,31.7964,合肥市,包河区,颗粒物(PM10),57,63,99,39,68,120,120,72,72,21,94,9,11,0.6,1
2025-11-22T1500,1278A,117.2776,31.7385,合肥市,滨湖新区,细颗粒物(PM2.5),62,63,108,44,71,119,119,72,72,22,84,8,10,0.6,0.9
2025-11-22T1500,1279A,117.1318,31.8403,合肥市,高新区,,46,46,79,21,50,115,115,80,80,23,57,7,7,0.6,0.8
2025-11-22T1500,3464A,117.3803,31.9147,合肥市,高教基地,细颗粒物(PM2.5),64,70,97,46,61,130,130,70,70,28,52,9,8,0.5,0.7
2025-11-22T1500,3614A,79.924,37.0877,和田地区,地区环保局,颗粒物(PM10),130,210,241,68,95,77,77,64,64,12,30,7,10,0.8,1.3
2025-11-22T1500,3615A,79.9131,37.113,和田地区,市环保局,颗粒物(PM10),132,213,270,83,115,83,83,40,40,18,55,3,5,0.9,2.1
2025-11-22T1500,2516A,108.2011,24.715,河池市,东仁乐园,,,,,,,,,,,,,,,,
2025-11-22T1500,2517A,108.0497,24.6947,河池市,市环保站,,36,36,29,17,16,98,98,49,49,10,23,9,4,0.4,0.5
2025-11-22T1500,2518A,108.0983,24.6989,河池市,市疾控中心,,32,26,37,17,21,100,100,46,46,9,28,19,6,0.4,0.5
2025-11-22T1500,1696A,114.6778,23.7569,河源市,源西,,,,,,,,,,,,,,,,
2025-11-22T1500,1697A,114.6944,23.7586,河源市,东埔,,38,34,33,22,21,119,119,86,86,12,17,8,8,0.3,0.3
2025-11-22T1500,1698A,114.6892,23.7233,河源市,老城,,42,42,34,24,18,120,120,89,89,8,13,8,8,0.5,0.5
2025-11-22T1500,1718A,115.4208,35.2464,菏泽市,气象局,颗粒物(PM10),70,90,149,46,92,81,81,54,54,27,54,7,9,0.4,0.6
2025-11-22T1500,3374A,115.5564,35.0891,菏泽市,定陶老年大学,颗粒物(PM10),64,78,133,34,88,98,98,58,58,29,55,6,8,0.1,0.4
2025-11-22T1500,4184A,115.4797,35.24401,菏泽市,永昌路1号,颗粒物(PM10),71,91,130,41,86,65,65,46,46,32,52,9,9,0.5,0.6
2025-11-22T1500,4193A,115.4715,35.2800,菏泽市,长城路999号,颗粒物(PM10),67,84,125,39,73,71,71,50,50,30,48,11,12,0.7,0.8
2025-11-22T1500,2514A,111.5264,24.4172,贺州市,环保小区,,39,24,37,22,27,122,122,91,91,10,18,8,7,0.5,0.5
2025-11-22T1500,2515A,111.5608,24.4078,贺州市,政协大楼,,35,28,37,19,27,112,112,83,83,8,18,8,8,0.6,0.6
2025-11-22T1500,3534A,111.4744,24.4553,贺州市,西湾,,34,31,38,20,26,108,108,78,78,8,19,7,7,0.4,0.5
2025-11-22T1500,2385A,114.17,35.9019,鹤壁市,市监测站,,,69,60,44,39,66,66,30,,30,25,,7,0.6,0.6
2025-11-22T1500,2386A,114.2956,35.7511,鹤壁市,市交警支队,颗粒物(PM10),66,82,88,45,48,63,63,29,29,34,54,6,6,0.8,0.9
2025-11-22T1500,2387A,114.2878,35.7306,鹤壁市,迎宾馆,细颗粒物(PM2.5),73,88,100,53,49,66,66,30,30,32,51,9,7,0.8,0.8
2025-11-22T1500,3474A,114.2617,35.6822,鹤壁市,大新区,颗粒物(PM10),73,95,98,41,50,69,69,31,31,26,53,9,8,0.9,0.8
2025-11-22T1500,3596A,114.1572,35.9603,鹤壁市,南山宾馆,颗粒物(PM10),60,69,59,30,36,76,76,68,68,28,23,7,14,0.6,0.5
2025-11-22T1500,2244A,130.2537,47.3416,鹤岗市,哈啤分公司,细颗粒物(PM2.5),98,92,58,73,60,39,39,45,43,43,17,28,16,0.7,0.7
2025-11-22T1500,2245A,130.2684,47.3086,鹤岗市,斯达机电,细颗粒物(PM2.5),85,107,72,63,47,69,69,57,57,19,16,15,15,0.9,0.8
2025-11-22T1500,2246A,130.3114,47.3388,鹤岗市,东山纸板厂,细颗粒物(PM2.5),110,102,73,83,44,62,62,56,56,26,18,17,16,1.1,1
2025-11-22T1500,2247A,130.1097,47.3382,鹤岗市,五号水库,,,,,,,,,,,,,,,,
2025-11-22T1500,2263A,127.4833,50.2524,黑河市,交通局,,41,41,36,24,21,59,59,40,40,17,21,4,4,0.6,0.5
2025-11-22T1500,2264A,127.5144,50.2341,黑河市,环保局,,40,40,25,23,19,56,56,40,38,16,19,8,6,0.5,0.5
2025-11-22T1500,2265A,127.5291,50.2472,黑河市,大黑河岛,,,,,,,,,,,,,,,,
2025-11-22T1500,1074A,115.6838,37.7541,衡水市,电机北厂,颗粒物(PM10),52,53,100,23,59,70,70,33,33,24,43,15,11,0.5,0.7
2025-11-22T1500,1075A,115.6303,37.7316,衡水市,市监测站,细颗粒物(PM2.5),52,49,89,36,58,79,79,38,38,24,51,18,15,0.6,0.6
2025-11-22T1500,3188A,115.6683,37.7217,衡水市,市城管局,颗粒物(PM10),53,56,100,32,58,75,75,34,34,25,52,12,10,0.5,0.7
2025-11-22T1500,3459A,115.5989,37.5491,衡水市,地表水厂,细颗粒物(PM2.5),55,57,106,39,74,89,89,47,47,22,60,16,15,0.5,0.7
2025-11-22T1500,2456A,112.5003,26.9167,衡阳市,原169医院,,,,,,,,,,,,,,,,
2025-11-22T1500,2457A,112.6194,26.9258,衡阳市,衡阳化工总厂,细颗粒物(PM2.5),60,61,56,43,44,123,123,70,70,21,32,43,23,0.8,0.9
2025-11-22T1500,2458A,112.6211,26.8956,衡阳市,珠晖区环保局,细颗粒物(PM2.5),59,59,54,42,41,123,123,68,68,14,41,43,18,0.9,1
2025-11-22T1500,2459A,112.6197,26.8733,衡阳市,市委党校,细颗粒物(PM2.5),59,53,56,42,46,122,122,73,73,14,25,31,20,0.8,1.1
2025-11-22T1500,2460A,112.6006,26.8919,衡阳市,市监测站,细颗粒物(PM2.5),67,72,72,48,51,125,125,76,76,19,34,28,17,0.9,1
2025-11-22T1500,2461A,112.5664,26.9056,衡阳市,真空机电公司,细颗粒物(PM2.5),54,55,60,38,42,122,122,72,72,12,30,17,16,0.7,0.8
2025-11-22T1500,3399A,112.6703,26.882,衡阳市,师范学院,,,47,56,21,36,,,57,57,13,27,12,18,0.7,0.9
2025-11-22T1500,2608A,103.3772,23.3993,红河哈尼族彝族自治州,污水处理厂,,30,29,56,21,44,67,67,45,45,6,14,4,12,0.3,0.4
2025-11-22T1500,2609A,103.3861,23.35,红河哈尼族彝族自治州,监测站,,29,25,59,20,47,72,72,48,48,3,14,7,23,0.3,0.5
2025-11-22T1500,3038A,103.3758,23.368,红河哈尼族彝族自治州,州图书馆,,22,18,52,13,37,68,68,44,44,4,11,4,22,0.3,0.4
2025-11-22T1500,1090A,111.6507,40.7517,呼和浩特市,呼市一监,颗粒物(PM10),82,114,100,56,71,55,55,30,30,28,45,21,10,0.9,1
2025-11-22T1500,1091A,111.6572,40.8033,呼和浩特市,小召,颗粒物(PM10),82,114,92,58,55,46,46,27,27,46,59,18,12,0.9,0.9
2025-11-22T1500,1094A,111.7516,40.8369,呼和浩特市,如意水处理厂,颗粒物(PM10),71,92,85,50,51,51,51,27,27,35,56,21,13,0.9,0.9
2025-11-22T1500,1095A,111.7276,40.8062,呼和浩特市,二十九中,细颗粒物(PM2.5),72,86,87,52,56,56,56,30,30,35,54,22,14,0.7,0.7
2025-11-22T1500,1096A,111.5512,40.7866,呼和浩特市,工大金川校区,细颗粒物(PM2.5),84,109,95,62,51,48,48,26,26,40,53,18,14,0.8,0.6
2025-11-22T1500,1097A,111.717,40.7612,呼和浩特市,化肥厂生活区,细颗粒物(PM2.5),77,84,80,56,59,61,61,32,32,37,57,17,10,0.7,0.9
2025-11-22T1500,3698A,111.5968,40.8178,呼和浩特市,红旗小学,颗粒物(PM10),81,112,88,58,53,42,42,22,22,54,65,21,16,0.7,0.7
2025-11-22T1500,3699A,111.6518,40.8389,呼和浩特市,海东办,颗粒物(PM10),78,105,88,55,52,43,43,26,26,44,50,21,11,0.8,0.8
2025-11-22T1500,3061A,119.7512,49.1577,呼伦贝尔市,国华电力东,,19,17,19,13,13,57,57,64,57,8,7,8,9,0.4,0.4
2025-11-22T1500,4279A,119.7569,49.2222,呼伦贝尔市,伊敏大街东7号,,22,22,22,11,17,57,57,65,56,2,3,7,7,0.4,0.4
2025-11-22T1500,1250A,120.0751,30.8669,湖州市,城西水厂,细颗粒物(PM2.5),67,63,88,48,62,132,132,68,68,22,63,13,12,0.4,0.6
2025-11-22T1500,2873A,120.0830,30.8929,湖州市,仁皇山新区,细颗粒物(PM2.5),70,67,92,51,68,136,136,73,73,27,58,14,11,0.4,0.7
2025-11-22T1500,2907A,120.1844,30.8596,湖州市,吴兴区站,细颗粒物(PM2.5),97,85,83,72,62,138,138,76,76,23,56,11,10,1.1,1
2025-11-22T1500,3562A,120.4148,30.8538,湖州市,南浔区站,,,80,98,61,72,141,141,84,84,,64,10,9,0.6,0.8
2025-11-22T1500,1607A,120.9049,40.7211,葫芦岛市,龙港区,颗粒物(PM10),74,98,56,51,27,49,49,37,37,52,50,17,12,1.3,0.8
2025-11-22T1500,1608A,120.8392,40.7514,葫芦岛市,化工街,颗粒物(PM10),75,100,95,48,45,42,42,32,32,49,50,22,25,1.0,0.9
2025-11-22T1500,1609A,120.8341,40.7073,葫芦岛市,新区,细颗粒物(PM2.5),78,94,40,57,27,43,43,35,35,57,52,14,10,1.5,0.8
2025-11-22T1500,1610A,120.8695,40.7677,葫芦岛市,东城区,细颗粒物(PM2.5),78,78,102,57,48,41,41,31,31,58,53,18,55,1.4,1.1
2025-11-22T1500,2482A,109.5981,27.5721,怀化市,林科所,,,,,,,,,,,,,,,,
2025-11-22T1500,2483A,109.9453,27.5444,怀化市,河西地税局,,34,34,33,22,23,100,100,50,50,9,18,7,6,0.2,0.3
2025-11-22T1500,2484A,109.9781,27.5342,怀化市,市四医院,,34,30,44,21,26,107,107,58,58,9,24,11,11,0.4,0.5
2025-11-22T1500,2485A,109.9972,27.5578,怀化市,监测楼,,33,29,40,20,23,103,103,57,57,8,22,4,5,0.0,0.1
2025-11-22T1500,2486A,110.0394,27.583,怀化市,市委党校,,35,28,44,17,28,110,110,66,66,3,22,12,16,0.2,0.3
2025-11-22T1500,1210A,119.036,33.5981,淮安市,钵池山,细颗粒物(PM2.5),99,,141,74,119,124,124,71,71,14,61,15,14,0.8,1.2
2025-11-22T1500,1211A,119.007,33.575,淮安市,北京南路,细颗粒物(PM2.5),92,75,140,68,115,116,116,62,62,20,63,16,12,0.9,1.1
2025-11-22T1500,1212A,118.989,33.6067,淮安市,市监测站,细颗粒物(PM2.5),89,90,142,66,103,129,129,71,71,20,61,12,13,0.5,1.3
2025-11-22T1500,1213A,119.135,33.5039,淮安市,楚州区监测站,细颗粒物(PM2.5),94,90,157,70,117,124,124,65,65,17,72,14,15,0.7,1
2025-11-22T1500,3426A,118.8755,33.2894,淮安市,新华书店,细颗粒物(PM2.5),117,109,142,88,110,110,110,77,77,26,52,14,15,0.7,0.8
2025-11-22T1500,4206A,119.0288,33.6319,淮安市,承德北路606号,细颗粒物(PM2.5),104,97,160,78,115,115,115,66,66,24,68,12,16,0.7,1.8
2025-11-22T1500,2282A,116.8004,33.975,淮北市,监测站,颗粒物(PM10),73,95,143,46,96,117,117,78,78,23,51,9,10,0.3,0.8
2025-11-22T1500,2283A,116.8091,33.9007,淮北市,烈山区政府,"颗粒物(PM10),细颗粒物(PM2.5)",54,57,162,38,123,114,114,69,69,26,68,11,15,0.3,0.8
2025-11-22T1500,3330A,116.8873,33.9836,淮北市,杜集区检察院,细颗粒物(PM2.5),65,67,159,47,125,126,126,83,83,14,48,7,11,0.3,0.8
2025-11-22T1500,4017A,116.7923,33.9535,淮北市,市博物馆,细颗粒物(PM2.5),63,65,184,45,130,116,116,74,74,19,69,12,14,0.2,0.9
2025-11-22T1500,2277A,116.8305,32.7727,淮南市,潘集区政府,细颗粒物(PM2.5),62,63,125,44,83,120,120,74,74,16,37,8,9,0.5,0.7
2025-11-22T1500,2279A,116.8569,32.5951,淮南市,谢家集区政府,,41,41,99,26,60,121,121,70,70,17,38,8,10,0.5,0.7
2025-11-22T1500,2280A,116.8281,32.633,淮南市,八公山区政府,,42,42,82,23,54,120,120,85,85,15,20,5,8,0.4,0.6
2025-11-22T1500,2281A,116.6325,32.6201,淮南市,焦岗湖风景区管理处,,,,,,,,,,,,,,,,
2025-11-22T1500,2894A,117.0566,32.6531,淮南市,经济技术开发区消防队,颗粒物(PM10),53,56,120,28,79,120,120,70,70,20,56,13,14,0.4,0.6
2025-11-22T1500,3329A,117.0108,32.5893,淮南市,山南新区,颗粒物(PM10),54,57,108,31,74,120,120,82,82,25,43,5,7,0.4,0.5
2025-11-22T1500,4209A,117.0031,32.6445,淮南市,国庆中路369号,细颗粒物(PM2.5),55,54,89,39,64,112,112,82,82,22,40,4,9,0.4,0.6
2025-11-22T1500,2446A,114.9028,30.4742,黄冈市,职工中心,细颗粒物(PM2.5),58,60,69,41,52,131,131,79,79,21,34,8,7,0.6,0.6
2025-11-22T1500,2929A,114.8858,30.4519,黄冈市,红卫路,细颗粒物(PM2.5),62,60,65,44,58,124,124,75,75,21,35,10,8,0.4,0.5
2025-11-22T1500,3398A,114.9136,30.4445,黄冈市,市林业局,细颗粒物(PM2.5),62,64,72,44,54,138,138,77,77,18,31,4,4,0.8,0.8
2025-11-22T1500,2672A,102.0199,35.5102,黄南藏族自治州,同仁县隆务镇,细颗粒物(PM2.5),63,50,40,45,20,59,59,56,48,13,7,12,10,0.4,0.4
2025-11-22T1500,2295A,118.2903,29.6963,黄山市,延安路89号,,39,27,34,3,27,124,124,69,69,10,18,5,4,0.4,0.4
2025-11-22T1500,2297A,118.1371,30.2756,黄山市,黄山区政府5号楼,,34,20,46,18,32,107,107,70,70,6,10,6,6,0.5,0.6
2025-11-22T1500,4210A,118.3354,29.7203,黄山市,滨江东路7-2号,,36,36,56,24,43,110,110,66,66,9,15,5,4,0.2,0.4
2025-11-22T1500,2423A,115.0601,30.2313,黄石市,沈家营,颗粒物(PM10),69,88,82,42,52,123,123,67,67,28,38,12,12,1.1,1.1
2025-11-22T1500,2426A,114.8988,30.2019,黄石市,铁山,,50,50,62,30,40,121,121,71,71,18,45,14,11,0.2,0.3
2025-11-22T1500,2427A,115.0307,30.2092,黄石市,团城山,细颗粒物(PM2.5),67,70,77,48,55,117,117,63,63,23,40,7,13,0.5,0.7
2025-11-22T1500,3149A,115.0235,30.1578,黄石市,笔架山北路,颗粒物(PM10),63,76,100,31,53,127,127,70,70,5,38,12,13,0.6,1
2025-11-22T1500,4185A,115.0780,30.21118,黄石市,磁湖东路29号,细颗粒物(PM2.5),84,81,82,62,57,107,107,57,57,30,42,18,14,0.9,0.8
2025-11-22T1500,1392A,114.4183,23.0528,惠州市,河南岸金山湖子站,,46,36,38,32,23,112,112,89,89,16,28,7,9,0.4,0.5
2025-11-22T1500,1393A,114.4053,23.0822,惠州市,下埔横江三路子站,,39,33,37,19,21,124,124,100,100,7,12,8,8,0.4,0.4
2025-11-22T1500,1394A,114.4103,23.1142,惠州市,江北云山西路子站,,41,30,34,17,20,131,131,106,106,12,16,8,8,0.4,0.5
2025-11-22T1500,1395A,114.4645,22.7833,惠州市,惠阳区承修路船湖子站,,40,35,41,21,22,128,128,97,97,11,20,7,7,0.4,0.4
2025-11-22T1500,1396A,114.5317,22.7422,惠州市,大亚湾管委会子站,,39,36,33,22,19,124,124,95,95,13,15,7,7,0.4,0.4
2025-11-22T1500,3314A,114.4338,22.8134,惠州市,惠阳秋长,,41,34,37,24,23,130,130,103,103,10,15,16,14,0.3,0.3
2025-11-22T1500,3452A,114.6517,22.775,惠州市,大亚湾霞涌,,38,36,32,20,19,121,121,98,98,8,11,8,8,0.6,0.5
2025-11-22T1500,2240A,130.9762,45.3001,鸡西市,环保局,,44,44,92,20,81,72,72,63,63,12,16,7,6,0.6,0.8
2025-11-22T1500,2243A,130.9429,45.3039,鸡西市,第一中学,,35,35,88,23,77,75,75,68,68,8,11,7,6,0.6,0.7
2025-11-22T1500,3707A,131.0207,45.3073,鸡西市,欧美日汽修厂,,46,46,112,24,98,71,71,61,61,10,22,8,10,0.6,0.9
2025-11-22T1500,3709A,130.9967,45.3106,鸡西市,市政设施管理处,颗粒物(PM10),76,101,126,20,95,87,87,71,71,10,28,10,10,0.6,0.8
2025-11-22T1500,2367A,114.9754,27.0803,吉安市,红声器材厂,,42,42,53,22,28,129,129,69,69,17,28,11,10,0.6,0.6
2025-11-22T1500,2368A,114.9658,27.0999,吉安市,市森林工业局,,42,42,50,23,29,115,115,65,65,18,26,9,9,0.4,0.5
2025-11-22T1500,2369A,114.99,27.1312,吉安市,市环境监测站,,44,44,46,24,28,119,119,68,68,17,26,16,14,0.5,0.5
2025-11-22T1500,2370A,115.0093,27.0968,吉安市,青原区法院,,43,43,57,26,36,120,120,64,64,17,40,12,11,0.6,0.7
2025-11-22T1500,1772A,126.54,43.8622,吉林市,哈达湾,,46,46,54,31,38,91,91,76,76,12,14,10,10,0.7,0.7
2025-11-22T1500,1773A,126.5844,43.8358,吉林市,东局子,,43,41,48,30,36,77,77,63,63,12,16,10,10,0.7,0.8
2025-11-22T1500,1774A,126.5052,43.8245,吉林市,电力学院,,45,44,61,31,48,87,87,71,71,12,20,10,10,0.7,0.7
2025-11-22T1500,1775A,126.6133,43.8972,吉林市,江北,颗粒物(PM10),52,53,54,32,39,81,81,67,67,14,16,6,6,0.3,0.5
2025-11-22T1500,1776A,126.555,43.8306,吉林市,江南公园,,,48,57,37,42,86,86,67,67,10,19,,9,0.5,0.5
2025-11-22T1500,1778A,126.7061,43.7133,吉林市,丰满,细颗粒物(PM2.5),58,,35,41,40,72,72,60,60,8,7,11,11,0.3,0.4
2025-11-22T1500,2868A,126.4739,43.953,吉林市,九站,颗粒物(PM10),61,72,57,35,38,92,92,77,77,19,19,6,4,0.7,0.6
2025-11-22T1500,1299A,116.9862,36.6114,济南市,科干所,颗粒物(PM10),62,73,87,34,46,96,96,82,82,26,29,15,15,0.7,0.7
2025-11-22T1500,1300A,116.9376,36.665,济南市,农科所,颗粒物(PM10),67,83,110,34,58,88,88,69,69,33,53,14,14,0.6,0.7
2025-11-22T1500,1301A,117.1265,36.6734,济南市,开发区,颗粒物(PM10),51,51,78,27,51,106,106,85,85,16,31,9,9,0.7,0.8
2025-11-22T1500,1303A,117.0624,36.6868,济南市,省种子仓库,颗粒物(PM10),60,70,102,34,58,99,99,67,67,22,48,13,13,0.6,0.8
2025-11-22T1500,1304A,116.9489,36.6447,济南市,机床二厂,颗粒物(PM10),73,95,128,51,75,84,84,71,71,35,55,16,22,0.5,0.7
2025-11-22T1500,1305A,117.0495,36.663,济南市,市监测站,颗粒物(PM10),59,68,91,39,56,99,99,78,78,19,38,9,8,0.4,0.6
2025-11-22T1500,1306A,116.7675,36.5484,济南市,长清党校,细颗粒物(PM2.5),83,105,113,61,67,88,88,75,75,34,46,16,15,0.8,0.8
2025-11-22T1500,1616A,117.6795,36.229,济南市,技术学院,细颗粒物(PM2.5),77,100,128,56,82,102,102,53,53,28,66,17,20,0.7,1.3
2025-11-22T1500,1961A,117.532,36.6868,济南市,东山小学,颗粒物(PM10),69,88,90,49,48,107,107,82,82,19,44,14,12,0.7,0.7
2025-11-22T1500,3059A,117.7161,36.2049,济南市,泰兴公司,颗粒物(PM10),109,168,136,75,93,108,108,55,55,25,56,14,14,0.4,1
2025-11-22T1500,3064A,117.6867,36.2171,济南市,莱芜战役纪念馆,细颗粒物(PM2.5),93,102,130,69,92,104,104,52,52,28,58,26,26,0.9,1.5
2025-11-22T1500,3494A,117.1673,36.9782,济南市,济阳区政府,颗粒物(PM10),64,78,111,37,59,93,93,53,53,19,56,16,16,0.6,0.7
2025-11-22T1500,3495A,117.1171,36.63,济南市,锦屏中学,,42,42,72,22,42,105,105,85,85,20,28,9,9,0.5,0.6
2025-11-22T1500,3682A,116.9814,36.6819,济南市,济南四建,颗粒物(PM10),60,70,102,39,64,89,89,73,73,23,43,12,14,0.8,1
2025-11-22T1500,1653A,116.6251,35.4302,济宁市,火炬城,细颗粒物(PM2.5),110,125,125,83,106,107,107,60,60,28,49,10,12,0.2,0.4
2025-11-22T1500,1655A,116.5491,35.4042,济宁市,电化厂,颗粒物(PM10),90,130,165,66,101,105,105,59,59,33,70,10,12,0.2,0.4
2025-11-22T1500,3500A,116.5814,35.3707,济宁市,北湖一中,细颗粒物(PM2.5),100,102,113,75,98,101,101,55,55,31,51,9,10,0.5,0.7
2025-11-22T1500,3501A,116.8249,35.5593,济宁市,服务中心,颗粒物(PM10),93,136,145,53,85,98,98,52,52,26,56,8,9,0.2,0.6
2025-11-22T1500,3678A,116.5907,35.4054,济宁市,市第七中学,细颗粒物(PM2.5),92,98,121,68,92,109,109,61,61,31,64,10,13,0.4,0.7
2025-11-22T1500,2255A,130.2751,46.8028,佳木斯市,佳纺,细颗粒物(PM2.5),74,87,76,54,61,84,84,64,64,14,14,8,6,0.6,0.5
2025-11-22T1500,2256A,130.3995,46.8307,佳木斯市,发电厂,细颗粒物(PM2.5),82,80,59,60,52,82,82,51,,19,14,6,5,0.4,0.5
2025-11-22T1500,2257A,130.3258,46.7975,佳木斯市,环保局,细颗粒物(PM2.5),87,79,68,64,61,86,86,65,65,14,14,6,5,0.5,0.5
2025-11-22T1500,2258A,130.3648,46.8032,佳木斯市,十一中,细颗粒物(PM2.5),107,92,73,80,64,81,81,65,65,20,18,10,8,0.7,0.6
2025-11-22T1500,2259A,130.3794,46.7588,佳木斯市,四丰,,,,,,,,,,,,,,,,
2025-11-22T1500,1252A,120.7436,30.778,嘉兴市,清河小学,细颗粒物(PM2.5),88,88,113,65,76,134,134,72,72,22,71,9,12,0.7,1.2
2025-11-22T1500,1253A,120.726,30.7478,嘉兴市,嘉兴学院,细颗粒物(PM2.5),90,103,116,67,75,133,133,74,74,33,74,11,9,0.5,0.6
2025-11-22T1500,2872A,120.7846,30.7525,嘉兴市,南湖区残联,细颗粒物(PM2.5),90,91,112,67,76,143,143,82,82,37,64,12,11,0.3,0.5
2025-11-22T1500,3407A,120.6916,30.7739,嘉兴市,秀洲住建,细颗粒物(PM2.5),98,96,107,73,81,138,138,82,82,31,60,11,9,0.5,0.7
2025-11-22T1500,1945A,98.2908,39.7711,嘉峪关市,气象局,颗粒物(PM10),84,117,85,19,23,101,101,83,83,1,10,3,6,0.4,0.4
2025-11-22T1500,2884A,98.2672,39.7978,嘉峪关市,酒钢宾馆,颗粒物(PM10),113,175,105,22,26,97,97,78,75,2,11,12,16,0.3,0.4
2025-11-22T1500,3248A,98.2643,39.7724,嘉峪关市,雄关区,颗粒物(PM10),63,76,73,16,24,96,96,81,81,8,18,11,15,0.3,0.5
2025-11-22T1500,1383A,113.1064,22.6058,江门市,北街,,42,36,39,29,25,129,129,89,89,23,36,8,8,0.4,0.4
2025-11-22T1500,1384A,113.0731,22.5835,江门市,西区,颗粒物(PM10),54,57,44,32,23,128,128,87,87,26,35,8,8,0.4,0.5
2025-11-22T1500,1385A,113.0219,22.5311,江门市,圭峰西,,,,36,34,21,119,119,93,93,27,30,7,7,0.5,0.4
2025-11-22T1500,1386A,113.0828,22.5947,江门市,东湖,颗粒物(PM10),53,55,40,26,21,127,127,89,89,25,32,10,10,0.4,0.4
2025-11-22T1500,3311A,113.1075,22.5647,江门市,江海富民,,43,43,40,30,19,134,134,92,92,28,38,12,12,0.3,0.3
2025-11-22T1500,3449A,113.05,22.4667,江门市,新会银湖,,50,44,42,35,25,124,124,79,79,24,39,8,8,0.3,0.3
2025-11-22T1500,1830A,113.1992,35.2590,焦作市,影视城,,,,36,,20,,,66,,,24,,17,,0.4
2025-11-22T1500,3335A,113.3137,35.2641,焦作市,马村街道办,颗粒物(PM10),61,72,64,35,32,73,73,61,61,19,22,10,12,0.3,0.5
2025-11-22T1500,3336A,113.2465,35.2373,焦作市,焦作技师学院,,47,47,62,24,30,71,71,58,58,27,38,9,13,0.5,0.8
2025-11-22T1500,3477A,113.1656,35.2539,焦作市,中站许衡医院,,46,45,57,32,35,72,72,66,66,30,24,17,17,0.6,0.7
2025-11-22T1500,3981A,113.2449,35.1803,焦作市,原李万街道办,颗粒物(PM10),55,59,74,22,28,68,68,47,47,16,28,8,11,0.4,0.6
2025-11-22T1500,4264A,113.2340,35.2190,焦作市,新安路1731号,颗粒物(PM10),56,62,69,28,35,71,71,60,60,24,32,9,15,0.7,1
2025-11-22T1500,4295A,113.2722,35.2121,焦作市,人民路3066号,,48,48,62,24,26,65,65,54,54,27,36,8,12,0.4,0.6
2025-11-22T1500,1708A,116.3701,23.5345,揭阳市,新兴,,41,41,56,24,34,128,128,79,79,12,33,12,13,0.4,0.6
2025-11-22T1500,1709A,116.3264,23.5443,揭阳市,西马,,44,44,56,17,33,127,127,73,73,14,33,8,7,0.6,0.8
2025-11-22T1500,1710A,116.3611,23.5626,揭阳市,东兴,颗粒物(PM10),55,59,59,22,29,133,133,76,76,13,40,12,10,0.4,0.7
2025-11-22T1500,1711A,116.4151,23.5294,揭阳市,渔湖,,40,38,60,16,36,125,125,78,78,12,37,9,10,0.5,0.7
2025-11-22T1500,3320A,116.403,23.5699,揭阳市,曲溪,,47,47,60,27,36,140,140,80,80,10,36,7,8,0.4,0.6
2025-11-22T1500,1944A,102.1692,38.5167,金昌市,天庆家园,,,31,71,10,27,77,77,55,55,,25,3,18,0.5,0.7
2025-11-22T1500,4022A,102.1647,38.5371,金昌市,金川区人防中心,,38,38,58,12,29,80,80,62,62,8,18,3,29,0.5,0.8
2025-11-22T1500,4239A,102.1930,38.5319,金昌市,长春路96号,,27,27,60,11,24,83,83,62,62,4,21,5,54,0.4,0.7
2025-11-22T1500,1262A,119.647,29.077,金华市,十五中,细颗粒物(PM2.5),88,91,94,65,61,161,161,86,86,26,52,5,4,0.5,0.6
2025-11-22T1500,1263A,119.686,29.1029,金华市,监测站,细颗粒物(PM2.5),75,90,96,55,57,133,133,73,73,37,68,5,4,0.3,0.4
2025-11-22T1500,3659A,119.656,29.1131,金华市,气象局,细颗粒物(PM2.5),73,80,92,53,62,126,126,71,71,34,68,6,5,0.3,0.5
2025-11-22T1500,1767A,121.1115,41.0879,锦州市,南山,颗粒物(PM10),55,60,66,31,53,51,51,43,43,43,56,15,13,0.8,1.1
2025-11-22T1500,1768A,121.0604,40.8428,锦州市,开发区,颗粒物(PM10),126,202,130,68,45,37,37,22,22,63,71,,33,1.2,1.1
2025-11-22T1500,1769A,121.1836,41.1119,锦州市,百股街道,颗粒物(PM10),60,70,63,22,44,48,48,36,36,39,48,11,14,0.8,1.1
2025-11-22T1500,1770A,121.1178,41.1222,锦州市,天安街道,,47,47,66,24,51,64,64,47,47,28,46,14,16,0.8,1.2
2025-11-22T1500,1771A,121.1303,41.1386,锦州市,北湖公园,,48,48,70,16,46,67,67,42,42,28,51,13,16,0.7,1.1
2025-11-22T1500,2160A,112.85,35.5051,晋城市,自来水公司,,44,44,81,17,32,91,91,59,59,20,44,9,17,0.5,1.3
2025-11-22T1500,2161A,112.8318,35.4936,晋城市,白云商贸,,33,33,80,9,30,85,85,51,51,20,38,6,10,0.4,1.1
2025-11-22T1500,2162A,112.8508,35.4887,晋城市,市环保局,,43,43,81,14,35,96,96,59,59,11,38,7,12,0.5,1.2
2025-11-22T1500,2163A,112.8676,35.4897,晋城市,技术学院,,45,45,74,14,31,80,80,50,50,16,45,9,14,0.6,1.1
2025-11-22T1500,2165A,112.8453,35.546,晋城市,白马寺,,32,26,47,14,27,102,102,77,77,10,17,10,15,0.4,0.8
2025-11-22T1500,3620A,112.8271,35.4828,晋城市,泽州一中,,30,28,73,19,37,95,95,62,62,13,34,7,11,0.4,1
2025-11-22T1500,2173A,112.7249,37.7067,晋中市,南都小区,颗粒物(PM10),60,69,90,36,45,90,90,42,42,31,56,20,22,0.6,1.1
2025-11-22T1500,2174A,112.6991,37.6982,晋中市,榆次区政府,细颗粒物(PM2.5),62,68,88,44,48,91,91,40,40,30,56,21,21,0.9,1.2
2025-11-22T1500,2865A,112.7195,37.6828,晋中市,榆次三中,颗粒物(PM10),59,68,89,24,40,91,91,39,39,25,52,19,20,0.7,1.1
2025-11-22T1500,4200A,112.7478,37.6954,晋中市,迎宾街26号,颗粒物(PM10),57,63,81,34,42,92,92,43,43,24,47,20,22,0.6,0.8
2025-11-22T1500,2439A,112.2014,31.0481,荆门市,竹园小学,细颗粒物(PM2.5),69,65,88,50,50,95,95,47,47,24,47,6,7,0,0.5
2025-11-22T1500,2440A,112.1969,30.9891,荆门市,掇刀,细颗粒物(PM2.5),68,72,73,49,40,109,109,66,66,20,45,2,1,0.3,0.5
2025-11-22T1500,2441A,112.2213,31.0386,荆门市,石化一小,细颗粒物(PM2.5),72,,99,52,50,101,101,47,47,23,53,10,11,0.2,1
2025-11-22T1500,3012A,112.1849,31.0362,荆门市,西山林语,颗粒物(PM10),56,61,65,39,36,102,102,52,52,16,25,7,6,0.6,0.7
2025-11-22T1500,3547A,112.1632,31.0138,荆门市,龙泉中学南校,颗粒物(PM10),63,75,75,44,45,96,96,57,57,21,31,9,8,0.2,0.4
2025-11-22T1500,1844A,112.2494,30.3197,荆州市,市图书馆,细颗粒物(PM2.5),82,,69,60,59,104,104,49,49,22,51,8,8,0.7,1
2025-11-22T1500,1845A,112.2008,30.3544,荆州市,市委党校,细颗粒物(PM2.5),73,,70,53,52,93,93,46,46,22,52,6,8,0.5,0.8
2025-11-22T1500,3194A,112.2747,30.3122,荆州市,管委会,细颗粒物(PM2.5),77,58,77,56,65,103,103,44,44,22,52,11,9,0.6,1
2025-11-22T1500,4268A,112.1722,30.3366,荆州市,学苑路85号,细颗粒物(PM2.5),53,49,68,37,49,122,122,57,57,13,33,1,4,0.5,0.7
2025-11-22T1500,2342A,117.3102,29.3867,景德镇市,王港中学,,,,,,,,,,,,,,,,
2025-11-22T1500,2343A,117.2117,29.2933,景德镇市,老干部活动中心,,32,25,42,19,30,102,102,60,60,4,20,5,6,0.6,0.8
2025-11-22T1500,2344A,117.1894,29.2789,景德镇市,兽医站,,38,34,48,15,24,120,120,75,75,8,30,7,9,0.4,0.5
2025-11-22T1500,2346A,117.2461,29.2956,景德镇市,陶研所,,35,22,48,18,30,112,112,60,60,2,22,5,4,0.5,0.4
2025-11-22T1500,4289A,117.1542,29.2566,景德镇市,青少年活动中心,,,29,53,19,30,113,113,77,77,11,35,,15,0.7,0.8
2025-11-22T1500,1803A,115.9872,29.6815,九江市,十里,,,62,72,16,53,107,107,60,60,35,56,8,6,,1.2
2025-11-22T1500,1804A,115.9584,29.7046,九江市,茅山头,颗粒物(PM10),53,55,59,34,44,84,84,43,43,32,51,6,5,0.7,0.9
2025-11-22T1500,1805A,115.9877,29.7295,九江市,西园,细颗粒物(PM2.5),58,63,69,41,48,135,135,74,74,35,66,9,9,0.6,0.9
2025-11-22T1500,1808A,115.9114,29.6038,九江市,综合工业园,细颗粒物(PM2.5),89,,66,66,61,99,99,62,62,43,48,6,5,0.6,0.7
2025-11-22T1500,1809A,116.0721,29.7535,九江市,石化总厂,细颗粒物(PM2.5),64,75,79,46,61,121,121,75,75,27,55,7,6,0.7,1.1
2025-11-22T1500,1810A,115.9773,29.5698,九江市,庐山气象台,,,,,,,,,,,,,,,,
2025-11-22T1500,3190A,116.0254,29.6994,九江市,外国语学校,细颗粒物(PM2.5),60,56,68,43,45,113,113,64,64,32,68,7,6,0.7,0.9
2025-11-22T1500,4253A,116.0102,29.6594,九江市,莲花大道8号,细颗粒物(PM2.5),72,60,69,52,57,100,100,68,68,32,26,8,7,0.5,0.6
2025-11-22T1500,4240A,98.4958,39.7339,酒泉市,玉门东路5号,颗粒物(PM10),124,197,123,24,34,87,87,64,58,10,22,10,12,0.4,0.5
2025-11-22T1500,4241A,98.5099,39.7506,酒泉市,北大街108号,颗粒物(PM10),148,246,128,34,36,85,85,54,54,7,18,10,12,0.4,0.5
2025-11-22T1500,2698A,76.0072,39.4467,喀什地区,巡警大队,颗粒物(PM10),173,296,367,107,126,71,71,23,23,43,67,9,10,1.0,1.9
2025-11-22T1500,2699A,75.9755,39.4694,喀什地区,吾办,颗粒物(PM10),158,266,319,104,128,83,83,22,22,24,64,8,10,0.7,1.9
2025-11-22T1500,4027A,75.9483,39.4689,喀什地区,老干局,颗粒物(PM10),167,283,359,74,115,86,86,28,28,20,63,7,7,0.7,2.6
2025-11-22T1500,1824A,114.3389,34.7781,开封市,肿瘤医院,颗粒物(PM10),52,53,86,15,47,97,97,52,52,18,55,15,18,0.4,0.6
2025-11-22T1500,1826A,114.2885,34.7965,开封市,世纪星幼儿园,,41,41,77,18,50,91,91,50,50,18,53,12,13,0.6,0.8
2025-11-22T1500,3147A,114.3438,34.8106,开封市,龙亭公园,,48,48,81,13,48,94,94,54,54,18,55,14,14,0.7,1
2025-11-22T1500,3210A,114.3644,34.7964,开封市,汴京公园,,36,36,96,16,50,88,88,44,44,25,63,12,13,0.3,0.6
2025-11-22T1500,3473A,114.2485,34.8306,开封市,技师学院,,49,49,62,14,32,87,87,54,54,25,50,12,12,0.6,0.7
2025-11-22T1500,3592A,114.4644,34.7556,开封市,祥符区生态环境局,,36,36,98,18,56,92,92,51,51,27,68,9,12,0.4,0.5
2025-11-22T1500,1951A,84.895,45.6094,克拉玛依市,长征新村,颗粒物(PM10),91,131,180,25,27,14,14,28,9,55,44,8,9,0.5,0.5
2025-11-22T1500,1952A,84.8988,45.5893,克拉玛依市,南林小区,颗粒物(PM10),94,138,179,19,33,19,19,31,10,38,34,2,4,0.3,0.4
2025-11-22T1500,1954A,84.905,44.3396,克拉玛依市,独山子区,颗粒物(PM10),61,71,111,20,45,69,69,53,46,15,40,8,8,0.3,0.6
2025-11-22T1500,1955A,85.6979,46.098,克拉玛依市,乌尔禾区商贸楼,颗粒物(PM10),104,158,189,24,34,32,32,13,13,24,44,14,10,0.4,0.6
2025-11-22T1500,3612A,85.1045,45.6899,克拉玛依市,白碱滩区新站,颗粒物(PM10),82,113,160,28,39,21,21,26,25,41,34,7,8,0.4,0.4
2025-11-22T1500,2697A,76.1454,39.7142,克孜勒苏柯尔克孜自治州,市人民政府,颗粒物(PM10),162,273,279,108,95,103,103,63,63,13,24,11,12,0.4,0.5
2025-11-22T1500,3665A,76.1658,39.7157,克孜勒苏柯尔克孜自治州,克州文化中心,颗粒物(PM10),171,292,285,112,99,100,100,63,63,17,26,13,14,0.8,0.8
2025-11-22T1500,1450A,102.8204,24.8886,昆明市,呈贡新区,,26,,28,18,34,82,82,61,61,6,22,7,5,0.3,0.5
2025-11-22T1500,1451A,102.6251,24.9608,昆明市,西山森林公园,,,,,,,,,,,,,,,,
2025-11-22T1500,1452A,102.7252,25.0902,昆明市,龙泉镇,,25,,31,10,19,79,79,55,55,10,24,3,3,0.3,0.5
2025-11-22T1500,1453A,102.7266,25.0375,昆明市,东风东路,,26,21,34,18,29,83,83,59,59,12,21,3,3,0.4,0.5
2025-11-22T1500,1454A,102.6742,25.0669,昆明市,金鼎山,,28,28,30,12,18,79,79,56,56,11,16,2,2,0.4,0.5
2025-11-22T1500,1455A,102.6644,25.0401,昆明市,碧鸡广场,,24,15,27,15,21,76,76,52,52,10,19,3,3,0.4,0.4
2025-11-22T1500,3179A,102.7494,25.0119,昆明市,官渡区博物馆,,26,22,31,17,25,82,82,62,62,11,23,3,3,0.2,0.3
2025-11-22T1500,3375A,102.8017,24.8336,昆明市,青年创业园,,25,15,30,13,24,78,78,60,60,4,16,3,5,0.3,0.5
2025-11-22T1500,3550A,102.7997,24.9786,昆明市,昆明学院,,27,18,34,12,25,84,84,63,63,9,24,1,2,0.3,0.4
2025-11-22T1500,3551A,102.5967,24.6736,昆明市,晋宁区生态环境分局,,25,,41,14,30,80,80,58,58,8,18,2,3,0.5,0.6
2025-11-22T1500,3552A,102.6678,24.9856,昆明市,云天化总部,,26,15,23,10,17,83,83,62,62,8,11,5,5,0.5,0.6
2025-11-22T1500,1456A,91.1319,29.6514,拉萨市,八廓街,,40,40,28,12,14,103,103,70,70,10,28,7,8,0.3,0.5
2025-11-22T1500,1457A,91.1221,29.6747,拉萨市,市环保局,,35,35,37,9,19,89,89,53,53,13,25,7,8,0.7,0.8
2025-11-22T1500,1458A,91.0874,29.6475,拉萨市,区监测站,,30,28,25,9,13,96,96,59,59,12,43,5,6,0.4,0.7
2025-11-22T1500,1459A,91.1774,29.6541,拉萨市,西藏大学,,33,33,24,8,10,97,97,66,66,14,21,5,6,0.2,0.2
2025-11-22T1500,1460A,90.9798,29.6588,拉萨市,区辐射站,,35,35,33,9,15,82,82,60,53,15,32,5,7,0.3,0.5
2025-11-22T1500,1461A,91.0834,29.6292,拉萨市,拉萨火车站,,35,35,32,8,13,88,88,55,55,13,34,7,6,0.6,0.9
2025-11-22T1500,2520A,109.2203,23.7256,来宾市,来宾技工学校,,35,29,37,18,27,110,110,85,85,8,19,6,8,0.3,0.5
2025-11-22T1500,3535A,109.1781,23.7297,来宾市,兴宾区政府,,37,31,33,21,21,117,117,80,80,6,10,6,6,0.3,0.4
2025-11-22T1500,4002A,109.2416,23.7461,来宾市,中南小学,,36,24,40,16,24,114,114,84,84,6,21,5,8,0.4,0.5
2025-11-22T1500,1477A,104.1373,35.9454,兰州市,榆中兰大校区,,,,,,,,,,,,,,,,
2025-11-22T1500,1479A,103.831,36.0464,兰州市,铁路设计院,,,,,,,,,,,,,,,,
2025-11-22T1500,3241A,103.7439,36.0842,兰州市,百合公园,细颗粒物(PM2.5),102,92,88,76,58,64,64,31,31,64,66,50,30,1.1,0.9
2025-11-22T1500,3242A,103.9611,35.998,兰州市,和平,细颗粒物(PM2.5),95,104,97,71,62,45,45,41,28,46,39,19,13,0.9,0.9
2025-11-22T1500,4236A,103.6293,36.0938,兰州市,庄浪东路808号,细颗粒物(PM2.5),99,97,86,74,52,51,51,30,30,54,68,52,26,0.9,0.9
2025-11-22T1500,4237A,103.7251,36.1043,兰州市,安宁西路88号,细颗粒物(PM2.5),85,105,102,63,62,73,73,39,39,56,78,56,27,1.0,1
2025-11-22T1500,4238A,103.8470,36.0676,兰州市,北滨河东路1号,颗粒物(PM10),78,106,100,56,55,20,20,12,12,98,81,31,19,1.7,1.4
2025-11-22T1500,3245A,103.6633,36.533,兰州新区,新区管委会,颗粒物(PM10),57,64,64,38,40,75,75,43,43,15,19,40,24,0.7,0.8
2025-11-22T1500,3246A,103.6975,36.4789,兰州新区,舟曲中学,颗粒物(PM10),51,51,68,27,34,90,90,49,49,18,31,28,18,0.2,0.5
2025-11-22T1500,1067A,116.6708,39.5111,廊坊市,药材公司,颗粒物(PM10),61,72,95,43,60,51,51,23,23,41,59,10,10,0.6,0.8
2025-11-22T1500,1068A,116.7214,39.5589,廊坊市,开发区,颗粒物(PM10),71,92,82,49,50,50,50,27,27,48,59,9,6,0.5,0.6
2025-11-22T1500,1070A,116.7244,39.5269,廊坊市,北华航天学院,细颗粒物(PM2.5),73,84,89,53,55,52,52,27,27,41,59,12,10,0.5,0.7
2025-11-22T1500,2919A,116.7022,39.5453,廊坊市,河北工业大学,颗粒物(PM10),71,92,86,48,52,50,50,27,27,43,53,10,8,0.5,0.6
2025-11-22T1500,2535A,103.7723,29.5462,乐山市,花湖湾,,,,,,,,,,,,,,,,
2025-11-22T1500,2536A,103.7627,29.5844,乐山市,牛耳桥,细颗粒物(PM2.5),97,96,77,72,62,52,52,14,14,29,37,9,7,0.8,0.8
2025-11-22T1500,2537A,103.7508,29.6006,乐山市,市第三水厂,细颗粒物(PM2.5),84,96,78,62,54,56,56,14,14,29,36,10,8,0.9,0.9
2025-11-22T1500,2538A,103.7571,29.5664,乐山市,市监测站,细颗粒物(PM2.5),94,96,74,70,57,43,43,16,16,34,33,8,8,0.9,0.8
2025-11-22T1500,3361A,103.7311,29.5628,乐山市,理工大学,细颗粒物(PM2.5),97,98,69,72,54,28,28,12,12,41,31,9,8,0.8,0.7
2025-11-22T1500,2598A,100.2143,26.8576,丽江市,西南郊,,22,6,14,3,6,69,69,54,54,1,8,6,6,0.6,0.8
2025-11-22T1500,2599A,100.2497,26.8802,丽江市,丽江古城,,21,21,23,10,11,59,59,52,52,13,14,8,10,0.5,0.5
2025-11-22T1500,2600A,100.2203,26.8906,丽江市,市中心,,24,,12,7,8,76,76,60,60,8,15,8,8,0.4,0.4
2025-11-22T1500,1267A,119.914,28.4514,丽水市,监测站大楼,,38,38,45,22,33,117,117,65,65,15,30,5,6,0.4,0.5
2025-11-22T1500,1268A,119.93,28.4586,丽水市,莲都小学,,38,32,50,19,27,119,119,67,67,14,32,5,5,0.3,0.4
2025-11-22T1500,1269A,119.879,28.4231,丽水市,余庄前,,40,35,44,28,34,108,108,59,59,22,23,4,4,0.3,0.3
2025-11-22T1500,1173A,119.176,34.5885,连云港市,市环境监测站,细颗粒物(PM2.5),83,110,141,61,100,89,89,49,49,26,67,12,13,0.9,1.4
2025-11-22T1500,3000A,119.3581,34.6972,连云港市,德源药业,细颗粒物(PM2.5),85,107,129,63,70,86,86,48,48,31,58,9,7,0.5,0.8
2025-11-22T1500,3007A,119.178,34.844,连云港市,新城一中,细颗粒物(PM2.5),103,123,156,77,122,86,86,49,49,32,68,14,17,0.7,1
2025-11-22T1500,3008A,119.3608,34.7519,连云港市,胡沟管理处,细颗粒物(PM2.5),79,102,117,58,72,76,76,65,65,37,46,13,16,0.7,0.8
2025-11-22T1500,3009A,119.1478,34.5911,连云港市,矿山设计院,颗粒物(PM10),84,117,148,58,98,96,96,54,54,14,31,9,9,0.5,0.8
2025-11-22T1500,3434A,119.2413,34.6539,连云港市,工贸学校,细颗粒物(PM2.5),92,88,121,68,89,99,99,74,74,21,26,14,16,0.8,1
2025-11-22T1500,3664A,119.4172,34.7341,连云港市,连云街道,细颗粒物(PM2.5),87,112,111,64,70,99,99,60,56,31,37,10,12,0.6,0.7
2025-11-22T1500,2571A,102.3431,27.8099,凉山彝族自治州,青龙寺,,,,,,,,,,,,,,,,
2025-11-22T1500,2572A,102.2721,27.8415,凉山彝族自治州,邛海宾馆,,36,36,31,24,24,54,54,37,37,15,13,8,8,0.8,0.8
2025-11-22T1500,2573A,102.2625,27.898,凉山彝族自治州,西昌市政府,细颗粒物(PM2.5),73,60,39,53,38,49,49,33,33,18,19,10,8,1.1,0.9
2025-11-22T1500,2574A,102.2685,27.8851,凉山彝族自治州,凉山州政府,颗粒物(PM10),51,52,39,33,27,52,52,36,36,14,15,11,9,0.9,0.9
2025-11-22T1500,4229A,102.2342,27.8859,凉山彝族自治州,凯乐南路30号,,,39,40,29,28,46,46,39,39,19,25,7,7,,0.8
2025-11-22T1500,2212A,123.2,41.1953,辽阳市,宏伟区,颗粒物(PM10),73,96,71,37,45,73,73,66,66,19,17,14,10,0.8,0.8
2025-11-22T1500,2213A,123.1683,41.2495,辽阳市,新华园,颗粒物(PM10),67,84,80,24,39,64,64,54,54,24,33,5,8,0.4,0.7
2025-11-22T1500,2214A,123.2354,41.2639,辽阳市,滨河路,颗粒物(PM10),65,80,67,27,34,72,72,62,62,17,22,11,10,0.6,0.7
2025-11-22T1500,2215A,123.149,41.2991,辽阳市,铁西工业园,颗粒物(PM10),72,93,85,36,47,66,66,55,55,27,36,13,12,1.2,1.1
2025-11-22T1500,2227A,125.1358,42.8845,辽源市,环保局,颗粒物(PM10),90,130,122,51,52,103,103,66,66,16,36,5,4,0.7,0.9
2025-11-22T1500,3239A,125.0764,42.9078,辽源市,银鹰制药,,,79,68,62,50,102,102,74,74,17,39,7,6,,0.7
2025-11-22T1500,1625A,115.9848,36.4372,聊城市,区政府,细颗粒物(PM2.5),98,127,144,73,96,76,76,53,53,46,56,17,17,0.9,0.9
2025-11-22T1500,2878A,116.0072,36.4343,聊城市,聊大东校,细颗粒物(PM2.5),113,144,150,85,104,76,76,49,49,48,60,18,16,1.1,1
2025-11-22T1500,3200A,115.9819,36.4978,聊城市,监控中心,细颗粒物(PM2.5),119,133,136,90,92,83,83,60,60,44,55,18,17,1.1,1.1
2025-11-22T1500,3513A,116.0445,36.4361,聊城市,九州社区,细颗粒物(PM2.5),107,132,149,80,98,93,93,62,62,34,50,9,13,0.9,0.9
2025-11-22T1500,4018A,116.0567,36.4608,聊城市,星美广场,细颗粒物(PM2.5),103,144,154,77,95,87,87,59,59,37,47,5,10,0.7,0.7
2025-11-22T1500,2632A,94.3681,29.6376,林芝市,林芝监测站,,28,7,7,3,4,87,87,83,78,2,2,4,3,0.2,0.2
2025-11-22T1500,2633A,94.3616,29.6616,林芝市,林芝人民医院,,26,7,10,3,4,81,81,76,72,2,2,3,2,0.2,0.2
2025-11-22T1500,2603A,100.0781,23.8982,临沧市,市环保局,,19,,15,13,23,60,60,44,44,3,7,6,6,0.5,0.6
2025-11-22T1500,2604A,100.0894,23.8822,临沧市,市气象局,,22,13,17,3,8,70,70,48,48,4,9,9,9,0.4,0.5
2025-11-22T1500,1733A,111.5531,36.0783,临汾市,临钢医院,细颗粒物(PM2.5),103,134,113,77,57,64,64,30,30,37,39,33,13,2.3,1.3
2025-11-22T1500,1734A,111.5028,36.0714,临汾市,技工学校,细颗粒物(PM2.5),99,106,113,74,64,60,60,30,30,42,50,39,21,2.4,1.4
2025-11-22T1500,1736A,111.5018,36.0855,临汾市,市委,颗粒物(PM10),96,142,122,70,57,64,64,32,32,38,44,41,24,2.5,1.6
2025-11-22T1500,3018A,111.505,36.1014,临汾市,唐尧大酒店,细颗粒物(PM2.5),92,126,122,68,58,69,69,33,33,40,45,32,15,2.3,1.3
2025-11-22T1500,4244A,111.4879,36.0530,临汾市,启星学校,"颗粒物(PM10),细颗粒物(PM2.5)",90,130,121,67,66,60,60,28,28,54,59,41,18,2.4,1.3
2025-11-22T1500,4271A,103.2464,35.6123,临夏回族自治州,滨河东路1号,细颗粒物(PM2.5),72,92,150,52,88,48,48,24,24,13,20,8,5,0.8,1.4
2025-11-22T1500,4310A,103.2093,35.5995,临夏回族自治州,新华街21号,细颗粒物(PM2.5),85,96,147,63,102,48,48,23,23,24,35,12,9,0.7,1.6
2025-11-22T1500,1618A,118.3429,35.0532,临沂市,沂河小区,,,,144,,104,,,56,,,72,,22,,1.1
2025-11-22T1500,1619A,118.295,35.0583,临沂市,鲁南制药厂,,,,176,,125,,,37,,,85,,23,,1.1
2025-11-22T1500,1620A,118.2794,34.9976,临沂市,新光毛纺厂,细颗粒物(PM2.5),118,124,168,89,118,100,100,50,50,37,74,16,28,0.7,1.2
2025-11-22T1500,1621A,118.3956,35.0888,临沂市,河东保险公司,细颗粒物(PM2.5),110,127,163,83,108,115,115,57,57,37,70,14,15,0.5,1.1
2025-11-22T1500,3370A,118.3564,35.0215,临沂市,十里堡居委,颗粒物(PM10),84,117,202,58,126,102,102,50,50,41,79,19,37,0.7,1.3
2025-11-22T1500,3496A,118.3604,35.1084,临沂市,南坊新区,细颗粒物(PM2.5),110,114,142,83,98,113,113,52,52,36,72,16,18,0.7,1.2
2025-11-22T1500,3860A,118.3920,35.0300,临沂市,皇山花园小区,细颗粒物(PM2.5),94,124,190,70,118,109,109,58,58,33,77,20,33,0.6,1.1
2025-11-22T1500,1870A,109.4856,24.3895,柳州市,柳东小学,,38,25,29,17,21,121,121,98,98,6,9,10,11,0.3,0.3
2025-11-22T1500,1871A,109.4157,24.3277,柳州市,环保监测站,,36,,34,23,26,114,114,83,83,5,12,10,11,0.3,0.4
2025-11-22T1500,1872A,109.389,24.341,柳州市,河西水厂,,38,23,55,13,33,121,121,71,71,12,28,10,14,0.5,0.3
2025-11-22T1500,1873A,109.4311,24.2921,柳州市,市四中,,40,27,33,21,16,125,125,95,95,10,17,11,12,0.4,0.4
2025-11-22T1500,1874A,109.4006,24.3631,柳州市,市九中,,45,32,43,31,26,117,117,76,76,10,22,11,11,0.5,0.4
2025-11-22T1500,1875A,109.4958,24.3134,柳州市,古亭山,,38,33,29,20,16,121,121,97,97,6,10,12,13,0.4,0.4
2025-11-22T1500,3402A,109.5422,24.3996,柳州市,市二中,颗粒物(PM10),53,56,27,17,19,122,122,98,98,9,17,10,11,0.3,0.3
2025-11-22T1500,2307A,116.5079,31.737,六安市,监测大楼,,45,36,55,31,38,115,115,80,80,17,36,5,6,0.3,0.5
2025-11-22T1500,2308A,116.4738,31.7643,六安市,皖西学院,,40,40,65,21,40,123,123,78,78,11,35,4,4,0.4,0.5
2025-11-22T1500,2309A,116.4996,31.7905,六安市,朝阳厂,,39,39,57,12,38,115,115,74,74,15,40,5,6,0.3,0.5
2025-11-22T1500,2310A,116.5567,31.7886,六安市,开发区,,47,47,74,29,44,125,125,73,73,19,48,4,4,0.3,0.5
2025-11-22T1500,2576A,104.8,26.5892,六盘水市,窑上,颗粒物(PM10),55,60,41,36,28,82,82,70,65,12,10,10,8,0.5,0.5
2025-11-22T1500,2577A,104.83,26.5917,六盘水市,黄土坡,颗粒物(PM10),51,52,38,28,25,79,79,69,64,16,16,10,8,0.5,0.5
2025-11-22T1500,2578A,104.89,26.5939,六盘水市,水钢,,48,48,41,29,27,86,86,74,68,9,11,6,6,0.3,0.4
2025-11-22T1500,2579A,104.8475,26.5894,六盘水市,民中,,45,37,34,31,23,80,80,73,65,14,13,8,5,0.5,0.4
2025-11-22T1500,2580A,104.9544,26.5506,六盘水市,双水,,48,48,36,31,24,89,89,81,78,10,10,5,5,0.4,0.4
2025-11-22T1500,2335A,117.0189,25.1181,龙岩市,龙岩师专,,,,,,,,,,,,,,,,
2025-11-22T1500,2336A,117.0217,25.1033,龙岩市,龙岩市监测站,,35,32,23,20,16,111,111,83,83,9,15,8,13,0.2,0.3
2025-11-22T1500,2337A,117.0258,25.0661,龙岩市,闽西职业技术学院,,37,26,33,17,19,117,117,78,78,8,28,8,13,0.3,0.4
2025-11-22T1500,2338A,117.0196,25.0306,龙岩市,龙岩学院,,37,27,24,14,16,117,117,82,82,9,15,7,7,0.3,0.4
2025-11-22T1500,2665A,105.0822,33.3261,陇南市,汉王镇固水子,,,,,,,,,,,,,,,,
2025-11-22T1500,2885A,104.9339,33.3826,陇南市,滨江中学,颗粒物(PM10),51,51,82,29,42,59,59,21,21,19,46,7,15,0.8,1.8
2025-11-22T1500,3247A,104.955,33.371,陇南市,市总工会,,,,80,,38,63,63,26,26,18,36,5,8,0.6,0.9
2025-11-22T1500,2487A,111.9589,27.8901,娄底市,电视发射台,,,,,,,,,,,,,,,,
2025-11-22T1500,2488A,111.9975,27.725,娄底市,市监测站,,43,40,65,30,47,131,131,74,74,8,35,12,25,0.4,1.2
2025-11-22T1500,2489A,112.0194,27.7314,娄底市,市委党校,,46,,56,32,40,114,114,68,68,11,28,10,11,0.5,0.8
2025-11-22T1500,2490A,111.9561,27.7569,娄底市,涟钢,,36,29,61,13,36,114,114,75,75,11,22,11,9,0.7,1.1
2025-11-22T1500,2491A,111.9892,27.7044,娄底市,市政府,,39,33,59,27,42,119,119,64,64,10,23,13,12,0.7,0.9
2025-11-22T1500,1893A,105.4324,28.9634,泸州市,九狮山,,,,,,,,,,,,,,,,
2025-11-22T1500,1894A,105.4427,28.9063,泸州市,小市上码头,细颗粒物(PM2.5),118,103,94,89,72,9,9,10,4,33,25,11,10,0.7,0.6
2025-11-22T1500,1895A,105.4241,28.8573,泸州市,兰田宪桥,细颗粒物(PM2.5),127,107,93,96,75,20,20,20,9,36,23,8,8,0.7,0.6
2025-11-22T1500,1896A,105.4379,28.8833,泸州市,市环监站,细颗粒物(PM2.5),108,105,90,81,65,16,16,30,9,44,29,8,7,0.7,0.6
2025-11-22T1500,4272A,105.3689,28.7783,泸州市,纳溪中医医院,细颗粒物(PM2.5),123,122,86,93,66,20,20,8,4,36,32,12,8,0.8,0.7
2025-11-22T1500,2183A,111.1406,37.5211,吕梁市,环保局,,44,44,73,12,27,83,83,33,33,21,46,11,6,0.5,0.6
2025-11-22T1500,2185A,111.1297,37.5136,吕梁市,自来水公司,,44,44,108,14,33,79,79,32,32,24,41,12,11,0.5,0.6
2025-11-22T1500,2867A,111.1283,37.51,吕梁市,马茂庄小学,颗粒物(PM10),51,51,89,18,29,78,78,32,32,22,44,14,10,0.4,0.5
2025-11-22T1500,1812A,112.3931,34.6516,洛阳市,市委党校,颗粒物(PM10),61,72,59,31,34,90,90,58,58,29,40,11,10,0.4,0.5
2025-11-22T1500,1815A,112.494,34.6886,洛阳市,河南林校,颗粒物(PM10),68,85,71,34,36,90,90,50,50,25,44,13,13,0.7,0.8
2025-11-22T1500,1816A,112.3844,34.623,洛阳市,开发区管委会,,,65,55,35,32,99,99,68,68,20,31,12,11,,0.5
2025-11-22T1500,1817A,112.4267,34.6258,洛阳市,市委新办公区,颗粒物(PM10),60,69,55,28,29,100,100,64,64,20,28,11,12,0.5,0.5
2025-11-22T1500,3340A,112.6005,34.6326,洛阳市,伊滨,颗粒物(PM10),63,76,59,34,28,95,95,61,61,15,25,11,10,0.4,0.4
2025-11-22T1500,3341A,112.4951,34.6332,洛阳市,中移产业园,颗粒物(PM10),62,73,57,38,33,94,94,55,55,19,34,10,11,0.4,0.4
2025-11-22T1500,3593A,112.5736,34.8993,洛阳市,吉利监测站,颗粒物(PM10),56,62,47,28,25,85,85,57,57,27,34,10,9,0.5,0.5
2025-11-22T1500,3635A,112.3677,34.662,洛阳市,河科大西苑校区,颗粒物(PM10),62,74,62,33,34,93,93,55,55,19,33,11,11,0.5,0.6
2025-11-22T1500,3636A,112.4388,34.6781,洛阳市,英才小学,颗粒物(PM10),67,83,85,44,52,85,85,41,41,29,54,13,16,0.6,0.9
2025-11-22T1500,4214A,112.4600,34.6949,洛阳市,春都路1号院,颗粒物(PM10),75,99,91,30,33,78,78,39,39,23,44,14,17,0.5,0.7
2025-11-22T1500,2399A,114.051,33.5699,漯河市,三五一五工厂,颗粒物(PM10),61,71,94,34,52,100,100,66,66,12,47,7,9,0.2,0.5
2025-11-22T1500,2400A,114.0055,33.5698,漯河市,漯河大学,颗粒物(PM10),57,63,86,31,52,105,105,70,70,17,42,6,8,0.3,0.5
2025-11-22T1500,2401A,114.0138,33.5828,漯河市,市水利局,颗粒物(PM10),52,53,74,27,46,101,101,68,68,16,36,8,9,0.2,0.4
2025-11-22T1500,2402A,114.0261,33.5698,漯河市,市广电局,颗粒物(PM10),52,54,83,24,47,104,104,70,70,10,37,7,9,0.3,0.6
2025-11-22T1500,3478A,113.9749,33.5664,漯河市,市图书馆,颗粒物(PM10),58,65,86,22,50,88,88,62,62,17,33,5,8,0.2,0.4
2025-11-22T1500,4250A,114.0892,33.5882,漯河市,韶山路11号,颗粒物(PM10),56,62,81,29,46,98,98,66,66,15,41,8,10,0.3,0.5
2025-11-22T1500,1798A,118.5092,31.6837,马鞍山市,湖东路四小,细颗粒物(PM2.5),87,102,125,64,72,132,132,67,67,26,58,11,9,1.2,1.1
2025-11-22T1500,1799A,118.5024,31.6449,马鞍山市,开发区,细颗粒物(PM2.5),94,98,130,70,89,138,138,68,68,22,61,10,6,1.2,1
2025-11-22T1500,1802A,118.6245,31.7241,马鞍山市,濮塘,,,,,,,,,,,,,,,,
2025-11-22T1500,3633A,118.4918,31.6809,马鞍山市,雨山,细颗粒物(PM2.5),99,112,128,74,85,131,131,64,64,27,64,12,10,0.8,1.1
2025-11-22T1500,4191A,118.5274,31.72227,马鞍山市,慈湖高新区,细颗粒物(PM2.5),110,118,151,83,105,126,126,65,65,,64,12,9,,0.9
2025-11-22T1500,1686A,111.0286,21.4688,茂名市,电白南海,颗粒物(PM10),51,51,54,17,20,127,127,91,91,13,25,10,16,0.7,0.6
2025-11-22T1500,1687A,110.9294,21.6533,茂名市,茂石化七小,,,31,46,,24,122,122,93,93,10,25,11,14,0.4,0.5
2025-11-22T1500,1688A,110.9107,21.6687,茂名市,健康路,,42,31,49,17,26,132,132,99,99,10,26,12,29,0.8,0.9
2025-11-22T1500,1689A,110.8592,21.6828,茂名市,高岭,,46,46,64,19,26,126,126,89,89,12,26,10,21,0.6,0.7
2025-11-22T1500,3450A,111.01,21.5165,茂名市,电白水东,,38,31,37,14,21,119,119,92,92,12,17,7,13,0.4,0.5
2025-11-22T1500,2539A,104.0308,30.0478,眉山市,黑龙滩水库,,,,,,,,,,,,,,,,
2025-11-22T1500,2540A,103.8416,30.0874,眉山市,气象局,细颗粒物(PM2.5),134,138,97,102,74,50,50,22,22,36,38,18,13,0.9,0.8
2025-11-22T1500,3137A,103.8578,30.0744,眉山市,市委党校,细颗粒物(PM2.5),128,117,85,97,65,39,39,17,17,42,39,13,9,0.9,0.8
2025-11-22T1500,3148A,103.8291,30.0564,眉山市,区人社局,细颗粒物(PM2.5),140,130,91,107,67,39,39,15,15,44,38,16,10,1.3,1.1
2025-11-22T1500,1690A,116.1231,24.3284,梅州市,梅江月梅,,33,,30,19,19,105,105,61,61,9,24,5,6,0.4,0.4
2025-11-22T1500,1691A,116.0797,24.2719,梅州市,梅县新城,,35,29,40,18,24,110,110,61,61,13,31,8,8,0.4,0.4
2025-11-22T1500,1692A,116.1248,24.2654,梅州市,环境监控中心,,34,26,44,20,29,107,107,60,60,11,37,6,23,0.6,0.6
2025-11-22T1500,3315A,116.1233,24.2991,梅州市,梅龙,,32,27,39,16,23,100,100,55,55,9,24,8,13,0.4,0.5
2025-11-22T1500,1878A,104.7778,31.4741,绵阳市,富乐山,细颗粒物(PM2.5),77,81,92,56,70,52,52,18,18,29,31,10,10,0.4,0.6
2025-11-22T1500,1880A,104.6697,31.4668,绵阳市,高新区自来水公司,细颗粒物(PM2.5),77,93,104,56,70,41,41,15,15,36,47,11,10,0.8,0.9
2025-11-22T1500,1881A,104.7287,31.5075,绵阳市,三水厂,细颗粒物(PM2.5),70,74,99,51,76,40,40,16,16,41,44,13,12,0.6,0.8
2025-11-22T1500,3491A,104.69,31.5322,绵阳市,西科大附属小学,细颗粒物(PM2.5),74,82,104,54,70,57,57,20,20,28,41,8,8,0.2,0.5
2025-11-22T1500,3492A,104.5648,31.5343,绵阳市,安州区旅游局,细颗粒物(PM2.5),62,54,74,44,64,54,54,26,26,30,33,12,10,0.6,0.7
2025-11-22T1500,4226A,104.7651,31.4531,绵阳市,绵阳市气象局,颗粒物(PM10),57,63,98,34,62,51,51,16,16,27,41,8,5,0.5,0.7
2025-11-22T1500,1784A,129.61,44.561,牡丹江市,环保大楼,,34,34,81,23,62,76,76,55,55,14,25,9,9,0.4,0.6
2025-11-22T1500,1785A,129.6115,44.5782,牡丹江市,文化广场,,44,44,87,26,63,73,73,51,51,21,32,9,9,0.6,0.7
2025-11-22T1500,1786A,129.5904,44.5963,牡丹江市,第一医院,,50,49,92,35,71,70,70,50,50,16,27,5,4,0.2,0.5
2025-11-22T1500,1787A,129.6364,44.6075,牡丹江市,机车工厂,,50,50,94,25,71,67,67,52,52,21,32,6,10,0.4,0.6
2025-11-22T1500,1788A,129.6386,44.5462,牡丹江市,第一中学,,38,38,64,18,51,70,70,58,58,14,23,4,4,0.4,0.5
2025-11-22T1500,2531A,105.0703,29.61,内江市,市监测站,细颗粒物(PM2.5),85,79,68,63,54,25,25,40,21,32,29,3,3,0.8,0.7
2025-11-22T1500,2532A,105.0717,29.5947,内江市,东兴区政府,细颗粒物(PM2.5),77,63,60,56,48,17,17,38,9,42,32,3,4,0.6,0.5
2025-11-22T1500,2533A,105.0653,29.5817,内江市,内江二中,细颗粒物(PM2.5),84,79,71,62,52,24,24,33,12,44,33,5,5,0.8,0.7
2025-11-22T1500,2534A,105.0406,29.5822,内江市,内江日报社,细颗粒物(PM2.5),82,77,63,60,49,20,20,32,15,45,37,4,4,0.6,0.5
2025-11-22T1500,2628A,92.0657,31.4846,那曲市,那曲监测站,,49,49,56,12,30,105,105,56,56,7,31,8,12,0.7,1.4
2025-11-22T1500,4243A,92.0515,31.4787,那曲市,那曲市委宣传部,,28,24,38,3,17,88,88,46,46,2,21,4,6,0.4,1
2025-11-22T1500,1290A,115.8931,28.6843,南昌市,省外办,细颗粒物(PM2.5),64,50,63,46,49,118,118,78,78,21,34,5,4,0.7,0.8
2025-11-22T1500,1291A,115.8886,28.7003,南昌市,省林业公司,细颗粒物(PM2.5),55,51,58,39,40,124,124,81,81,17,34,8,7,0.8,0.8
2025-11-22T1500,1292A,115.8126,28.7442,南昌市,林科所,,38,34,53,22,34,120,120,82,82,15,26,6,7,0.7,0.9
2025-11-22T1500,1294A,115.8518,28.687,南昌市,建工学校,颗粒物(PM10),56,62,64,35,42,122,122,83,83,22,35,13,13,0.6,0.7
2025-11-22T1500,1295A,115.8921,28.6424,南昌市,象湖,颗粒物(PM10),52,54,57,34,42,134,134,88,88,16,35,16,14,0.8,0.8
2025-11-22T1500,1296A,115.7423,28.7996,南昌市,武术学校,,,,,,,,,,,,,,,,
2025-11-22T1500,3046A,115.9084,28.6062,南昌市,机电学校,细颗粒物(PM2.5),67,77,76,48,49,134,134,89,89,26,50,22,12,1.3,0.8
2025-11-22T1500,3690A,115.9721,28.7031,南昌市,外国语学校,颗粒物(PM10),53,55,64,33,39,133,133,87,87,19,49,12,12,0.5,0.6
2025-11-22T1500,4192A,115.9316,28.68677,南昌市,南京东路235号,"颗粒物(PM10),细颗粒物(PM2.5)",58,65,70,41,42,141,141,90,90,26,39,10,10,0.6,0.8
2025-11-22T1500,1905A,106.056,30.8064,南充市,西山风景区,,,,,,,,,,,,,,,,
2025-11-22T1500,1906A,106.0789,30.8023,南充市,南充市委,细颗粒物(PM2.5),93,97,70,69,50,39,39,24,20,32,35,6,5,0.6,0.6
2025-11-22T1500,1907A,106.1031,30.8217,南充市,南充炼油厂,细颗粒物(PM2.5),112,109,81,84,58,20,20,23,19,36,31,7,7,0.6,0.5
2025-11-22T1500,4227A,106.1083,30.7884,南充市,梨树横街98号,细颗粒物(PM2.5),82,82,69,60,49,41,41,23,23,26,35,7,6,0.5,0.6
2025-11-22T1500,4304A,106.1172,30.843,南充市,清泉寺北路188号,细颗粒物(PM2.5),87,90,62,64,47,19,19,32,22,30,22,5,6,0.6,0.5
2025-11-22T1500,4305A,106.067,30.7616,南充市,同庆路1号,细颗粒物(PM2.5),83,107,69,61,47,35,35,21,19,32,33,8,8,0.6,0.6
2025-11-22T1500,1151A,118.8086,32.1065,南京市,迈皋桥,细颗粒物(PM2.5),92,112,91,68,59,100,100,59,59,45,48,14,7,1.1,0.6
2025-11-22T1500,1152A,118.7538,32.0551,南京市,草场门,细颗粒物(PM2.5),92,112,107,68,66,89,89,47,47,60,76,18,10,1.3,1.2
2025-11-22T1500,1153A,118.7794,32.0745,南京市,山西路,细颗粒物(PM2.5),104,117,104,78,61,101,101,57,57,69,66,15,7,1.5,1.1
2025-11-22T1500,1154A,118.7752,32.0023,南京市,中华门,细颗粒物(PM2.5),89,95,93,66,65,106,106,55,55,39,62,4,4,1.0,1
2025-11-22T1500,1155A,118.8109,32.0309,南京市,瑞金路,细颗粒物(PM2.5),89,102,95,66,64,118,118,51,51,36,81,4,4,0.5,0.3
2025-11-22T1500,1156A,118.7997,32.0754,南京市,玄武湖,细颗粒物(PM2.5),103,96,85,77,60,92,92,53,53,50,62,4,4,1.5,1
2025-11-22T1500,1157A,118.6414,32.0931,南京市,浦口,细颗粒物(PM2.5),88,99,108,65,67,110,110,69,69,42,38,17,12,0.9,0.6
2025-11-22T1500,1158A,118.7356,31.9996,南京市,奥体中心,细颗粒物(PM2.5),92,108,105,68,69,98,98,55,55,71,75,19,11,1.3,1.1
2025-11-22T1500,1159A,118.9125,32.1028,南京市,仙林大学城,细颗粒物(PM2.5),94,102,92,70,61,96,96,49,49,39,58,11,9,1.0,1.1
2025-11-22T1500,3422A,118.8436,31.9198,南京市,江宁彩虹桥,颗粒物(PM10),73,96,92,36,56,149,149,65,65,11,66,7,6,0.5,0.8
2025-11-22T1500,3427A,118.8554,32.3578,南京市,六合雄州,细颗粒物(PM2.5),99,113,120,74,80,112,112,63,63,36,47,17,13,0.7,0.7
2025-11-22T1500,4249A,118.8708,31.3402,南京市,汶溪路181号,细颗粒物(PM2.5),63,48,87,45,86,136,136,78,78,106,95,8,6,0.4,0.7
2025-11-22T1500,4312A,119.019,31.6512,南京市,中山西路1号,细颗粒物(PM2.5),64,48,81,46,71,123,123,81,81,13,40,4,4,0.5,0.9
2025-11-22T1500,1401A,108.3103,22.7881,南宁市,二十一中,细颗粒物(PM2.5),55,,46,39,34,111,111,64,64,9,28,7,8,0.3,0.4
2025-11-22T1500,1402A,108.3141,22.8528,南宁市,北湖,,40,24,51,19,39,125,125,69,69,12,44,10,14,0.5,0.6
2025-11-22T1500,1403A,108.3206,22.8225,南宁市,市监测站,,39,27,39,27,23,108,108,63,63,13,39,10,12,0.4,0.5
2025-11-22T1500,1404A,108.3829,22.8037,南宁市,大自然花园,,37,30,31,21,20,118,118,82,82,9,19,8,8,0.3,0.4
2025-11-22T1500,1405A,108.4394,22.7904,南宁市,仙葫,,,,,,,,,,,,,,,,
2025-11-22T1500,1406A,108.2397,22.8467,南宁市,区农职院,,37,32,31,23,23,116,116,62,62,11,23,9,9,0.6,0.6
2025-11-22T1500,1407A,108.3275,22.735,南宁市,英华嘉园,,36,36,41,15,32,114,114,72,72,9,29,5,5,0.7,0.7
2025-11-22T1500,3401A,108.4834,22.7618,南宁市,红星社区,,39,18,28,18,18,123,123,91,91,9,22,8,9,0.4,0.4
2025-11-22T1500,4221A,108.2177,22.7774,南宁市,乐贤路16号,,38,30,60,26,31,121,121,55,55,13,35,6,7,0.3,0.4
2025-11-22T1500,2331A,118.0966,26.6761,南平市,茫荡山,,,,21,,12,,,114,,,,,2,,0.3
2025-11-22T1500,2332A,118.1681,26.6369,南平市,南平市监测站,,34,20,32,14,24,106,106,57,57,8,28,6,6,0.4,0.5
2025-11-22T1500,2333A,118.1825,26.6489,南平市,南平铝业有限公司,,34,23,33,12,28,108,108,53,53,7,30,5,9,0.3,0.6
2025-11-22T1500,2334A,118.1756,26.6272,南平市,南平七中,,42,42,28,16,23,107,107,60,60,8,19,8,6,0.4,0.5
2025-11-22T1500,1168A,120.9098,31.9663,南通市,狼山街道,细颗粒物(PM2.5),115,124,119,87,88,130,130,71,71,42,57,16,7,1.4,0.9
2025-11-22T1500,1169A,120.86,32.0005,南通市,虹桥,细颗粒物(PM2.5),128,115,130,97,107,136,136,80,80,37,60,16,12,1.6,1.3
2025-11-22T1500,1170A,120.87,32.02,南通市,城中,细颗粒物(PM2.5),114,124,145,86,103,134,134,74,74,41,70,16,12,1.4,1.1
2025-11-22T1500,1171A,120.94,31.93,南通市,星湖花园,细颗粒物(PM2.5),115,123,124,87,91,140,140,80,80,39,67,15,8,1.0,1
2025-11-22T1500,1172A,120.81,32.0417,南通市,紫琅学院,细颗粒物(PM2.5),124,131,155,94,113,130,130,66,66,41,67,15,12,1.3,1.3
2025-11-22T1500,3291A,121.067,32.062,南通市,通州监测站,细颗粒物(PM2.5),107,100,109,80,94,133,133,86,86,39,53,14,6,1.0,0.9
2025-11-22T1500,3432A,120.9348,31.9883,南通市,环境教育馆,细颗粒物(PM2.5),127,102,120,96,101,140,140,75,75,41,67,18,9,1.2,0.7
2025-11-22T1500,2404A,112.5224,33.0122,南阳市,瓦房庄,细颗粒物(PM2.5),79,96,103,58,66,82,82,43,43,25,47,10,8,0.6,0.7
2025-11-22T1500,2405A,112.5003,32.9735,南阳市,汉画馆,颗粒物(PM10),71,91,97,51,58,85,85,44,44,25,46,10,7,0.6,0.7
2025-11-22T1500,2406A,112.5573,33.027,南阳市,气象站,细颗粒物(PM2.5),83,112,113,61,57,79,79,40,40,33,49,12,9,0.6,0.7
2025-11-22T1500,2407A,112.5481,32.9689,南阳市,理工学院,颗粒物(PM10),73,96,104,44,54,78,78,39,39,28,52,10,8,0.6,0.8
2025-11-22T1500,4008A,112.5234,32.9922,南阳市,卧龙区政府,颗粒物(PM10),75,99,107,53,62,78,78,43,43,24,50,10,8,0.6,0.7
2025-11-22T1500,1234A,121.8358,29.911,宁波市,区环保大楼,细颗粒物(PM2.5),125,134,112,95,79,164,164,94,94,72,73,14,10,1.0,1
2025-11-22T1500,1235A,121.56,29.82,宁波市,万里学院,细颗粒物(PM2.5),94,103,111,70,77,172,172,88,88,38,67,11,9,0.6,0.7
2025-11-22T1500,1236A,121.713,29.9572,宁波市,龙赛医院,细颗粒物(PM2.5),162,156,135,123,87,182,182,93,93,51,77,10,8,1.0,1
2025-11-22T1500,1239A,121.633,29.7733,宁波市,钱湖水厂,细颗粒物(PM2.5),108,104,97,81,71,166,166,88,88,36,43,12,9,0.9,0.9
2025-11-22T1500,1240A,121.5856,29.8635,宁波市,太古小学,细颗粒物(PM2.5),115,118,117,87,79,223,223,109,109,40,58,9,7,0.8,1
2025-11-22T1500,1241A,121.524,29.8674,宁波市,市环境监测中心,细颗粒物(PM2.5),105,112,103,79,75,201,201,96,96,38,58,12,10,0.8,0.9
2025-11-22T1500,2871A,121.6147,29.9017,宁波市,万里国际学校,臭氧1小时,140,127,110,105,81,280,280,124,124,54,66,12,8,1.0,1.1
2025-11-22T1500,3710A,121.5594,29.8975,宁波市,白沙活动中心,细颗粒物(PM2.5),140,126,100,107,79,256,256,113,113,58,69,14,8,1.0,0.9
2025-11-22T1500,2339A,119.5001,26.6946,宁德市,金涵水库,,,,27,,18,,,50,,,13,,3,,0.5
2025-11-22T1500,2341A,119.5388,26.6612,宁德市,宁德市监测站,颗粒物(PM10),51,52,33,21,21,130,130,85,85,18,17,16,8,0.7,0.6
2025-11-22T1500,3209A,119.5231,26.6562,宁德市,宁德一中,细颗粒物(PM2.5),52,,37,36,20,131,131,76,76,14,14,15,8,1.2,0.6
2025-11-22T1500,2618A,98.8601,25.8567,怒江傈僳族自治州,州监测站,,30,24,28,21,23,33,33,22,22,10,14,6,7,0.4,0.4
2025-11-22T1500,2619A,98.8546,25.8417,怒江傈僳族自治州,泸水一中,,26,21,24,18,18,21,21,10,10,12,18,6,7,0.4,0.5
2025-11-22T1500,1888A,101.6891,26.571,攀枝花市,弄弄坪,,41,41,49,18,27,52,52,19,19,13,26,28,46,0.7,0.9
2025-11-22T1500,1889A,101.5769,26.5928,攀枝花市,河门口,,47,47,46,27,27,43,43,18,18,23,21,38,26,1.7,1.5
2025-11-22T1500,1890A,101.7169,26.585,攀枝花市,炳草岗,,31,31,50,14,30,50,50,19,19,16,29,23,57,0.7,0.9
2025-11-22T1500,1891A,101.7369,26.5008,攀枝花市,仁和,,39,39,45,26,30,50,50,25,25,17,18,32,15,0.8,1
2025-11-22T1500,2835A,101.7227,26.567,攀枝花市,四十中小,,42,42,36,24,21,48,48,27,27,15,23,25,65,0.9,1
2025-11-22T1500,1604A,122.0303,41.1489,盘锦市,开发区,颗粒物(PM10),65,79,41,42,32,60,60,41,41,35,37,9,8,1.1,0.7
2025-11-22T1500,1605A,122.0485,41.0883,盘锦市,兴隆台,颗粒物(PM10),61,71,46,35,33,55,55,38,38,38,49,12,14,1.1,0.9
2025-11-22T1500,1606A,121.8297,41.1028,盘锦市,新生街道,"颗粒物(PM10),细颗粒物(PM2.5)",55,60,26,39,20,63,63,40,40,40,38,13,8,1.0,0.4
2025-11-22T1500,1832A,113.3257,33.742,平顶山市,新华旅馆,颗粒物(PM10),58,65,97,35,52,91,91,62,62,23,42,9,9,0.5,0.6
2025-11-22T1500,1833A,113.2919,33.737,平顶山市,规划设计院,颗粒物(PM10),67,83,111,39,63,91,91,56,56,22,48,7,7,0.4,0.7
2025-11-22T1500,1834A,113.182,33.774,平顶山市,平顶山工学院,颗粒物(PM10),60,69,88,41,57,94,94,57,57,28,37,8,9,0.5,0.6
2025-11-22T1500,3204A,113.3025,33.73,平顶山市,规划局,颗粒物(PM10),60,70,99,36,58,89,89,57,57,26,54,8,9,0.5,0.7
2025-11-22T1500,3594A,112.8867,33.9116,平顶山市,石龙区,颗粒物(PM10),78,106,85,40,44,75,75,61,61,36,50,11,9,0.4,0.3
2025-11-22T1500,2656A,106.6692,35.5461,平凉市,聚贤嘉苑,,40,40,51,10,28,97,97,59,59,6,33,4,7,0.5,0.7
2025-11-22T1500,2657A,106.7021,35.5307,平凉市,博物馆,,34,34,57,20,34,96,96,54,54,6,33,9,8,0.4,0.8
2025-11-22T1500,2347A,114.0997,27.5002,萍乡市,武功山,,,,,,,,,,,,,,,,
2025-11-22T1500,2348A,113.8385,27.6434,萍乡市,中医院,,39,39,51,15,26,120,120,69,69,16,37,7,7,0.7,0.8
2025-11-22T1500,2349A,113.8493,27.6253,萍乡市,市政府车库,,38,34,44,26,33,121,121,71,71,18,30,11,11,0.8,0.9
2025-11-22T1500,2350A,113.8676,27.6435,萍乡市,市环保局,,48,48,46,21,31,127,127,74,74,12,31,14,15,0.7,0.6
2025-11-22T1500,2351A,113.866,27.6198,萍乡市,安源区政府,细颗粒物(PM2.5),53,,41,37,32,121,121,66,66,17,25,14,11,1.2,1
2025-11-22T1500,2319A,119.0141,25.4325,莆田市,荔城区仓后路,,41,41,33,23,20,127,127,109,109,10,12,4,4,0.5,0.4
2025-11-22T1500,2320A,119.0015,25.4553,莆田市,莆田市监测站,,44,44,26,21,17,131,131,115,115,15,12,4,4,0.5,0.4
2025-11-22T1500,2321A,119.1119,25.4561,莆田市,涵江区六中,,,34,30,24,19,130,130,113,113,,14,4,4,0.5,0.4
2025-11-22T1500,2322A,119.1013,25.3215,莆田市,秀屿区政府,,50,50,35,33,20,137,137,114,114,14,14,5,5,0.3,0.3
2025-11-22T1500,2323A,118.981,25.4792,莆田市,东圳水库,,,,24,,18,,,108,,,9,,5,,0.7
2025-11-22T1500,2392A,115.0312,35.7636,濮阳市,环保局,细颗粒物(PM2.5),67,72,90,48,67,67,67,45,45,35,51,16,14,0.9,1
2025-11-22T1500,2394A,115.0574,35.7609,濮阳市,油田运输公司,"颗粒物(PM10),细颗粒物(PM2.5)",65,79,111,47,69,76,76,46,46,38,61,17,15,0.6,0.8
2025-11-22T1500,3021A,115,35.7668,濮阳市,濮水河管理处,细颗粒物(PM2.5),68,82,106,49,78,74,74,46,46,25,43,16,12,0.4,0.4
2025-11-22T1500,4216A,115.0924,35.7686,濮阳市,任丘路479号,细颗粒物(PM2.5),68,83,128,49,81,74,74,42,42,31,56,15,13,0.7,0.8
2025-11-22T1500,2601A,100.98,22.7633,普洱市,市环保局,,35,35,29,3,11,53,53,40,40,5,6,4,4,0.3,0.3
2025-11-22T1500,2602A,100.9817,22.8322,普洱市,普洱第二中学,,22,20,28,15,13,57,57,6,,7,12,4,4,0.2,0.3
2025-11-22T1500,2262A,131.0518,45.8751,七台河市,新一中,,,,,,,,,,,,,,,,
2025-11-22T1500,3345A,131.0577,45.7879,七台河市,中波台,,37,37,64,24,51,61,61,61,61,17,14,10,8,0.4,0.4
2025-11-22T1500,3637A,131.0176,45.7761,七台河市,人民广场,,49,45,78,34,61,59,59,62,60,18,17,8,7,0.4,0.5
2025-11-22T1500,3684A,130.8781,45.8222,七台河市,新建矿广场,颗粒物(PM10),51,51,75,19,57,58,58,59,59,20,13,6,7,0.5,0.5
2025-11-22T1500,1779A,123.9305,47.3636,齐齐哈尔市,安居小区,颗粒物(PM10),55,59,46,17,14,55,55,48,48,16,13,10,10,0.3,0.3
2025-11-22T1500,1780A,123.9488,47.3386,齐齐哈尔市,中心广场,,45,45,39,14,16,61,61,56,56,16,14,8,7,0.3,0.3
2025-11-22T1500,1781A,123.9483,47.3227,齐齐哈尔市,农牧车辆厂,颗粒物(PM10),60,70,45,16,16,50,50,47,47,18,10,5,5,0.4,0.4
2025-11-22T1500,1783A,123.945,47.2988,齐齐哈尔市,市环境监测站,颗粒物(PM10),61,71,48,26,19,64,64,56,56,11,11,7,7,0.5,0.5
2025-11-22T1500,3662A,123.6333,47.2075,齐齐哈尔市,富区青少年活动中心,颗粒物(PM10),58,65,66,19,24,58,58,45,45,16,21,7,15,0.7,1.6
2025-11-22T1500,2591A,107.9783,26.5747,黔东南苗族侗族自治州,市环境监测站,,28,21,27,15,21,89,89,46,46,7,23,6,6,0.4,0.5
2025-11-22T1500,2881A,107.8908,26.5311,黔东南苗族侗族自治州,凯里学院,,28,19,22,17,17,87,87,49,49,12,18,5,4,0.4,0.3
2025-11-22T1500,2593A,107.5228,26.2403,黔南布依族苗族自治州,小围寨,,28,14,18,9,12,88,88,58,58,4,9,6,8,0.5,0.6
2025-11-22T1500,3538A,107.5175,26.2978,黔南布依族苗族自治州,沙坝,,27,22,27,9,18,85,85,50,50,9,16,5,6,0.4,0.5
2025-11-22T1500,2589A,104.9022,25.0925,黔西南布依族苗族自治州,场坝街,,28,,46,19,36,77,77,45,45,8,18,3,16,0.4,0.5
2025-11-22T1500,2590A,104.8811,25.0992,黔西南布依族苗族自治州,坪东大道,,24,15,41,8,32,75,75,45,45,7,22,4,7,0.4,0.5
2025-11-22T1500,2502A,108.6236,21.9667,钦州市,市环保站,颗粒物(PM10),54,58,58,17,25,121,121,83,83,13,23,5,6,0.5,0.9
2025-11-22T1500,2503A,108.6549,21.9481,钦州市,沙埠小学,颗粒物(PM10),66,82,53,36,29,131,131,88,88,12,21,7,10,0.5,0.6
2025-11-22T1500,2504A,108.5989,21.7431,钦州市,港区一小,颗粒物(PM10),52,54,48,29,25,115,115,81,81,20,29,8,9,0.6,0.7
2025-11-22T1500,3404A,108.5959,21.9633,钦州市,北职校,,48,48,44,24,26,123,123,86,86,9,15,9,10,0.6,1.2
2025-11-22T1500,1043A,119.7493,40.0116,秦皇岛市,第一关,细颗粒物(PM2.5),90,107,50,67,32,50,50,36,36,56,55,15,11,1.0,0.7
2025-11-22T1500,1044A,119.5897,39.9499,秦皇岛市,监测站,颗粒物(PM10),75,99,75,46,31,47,47,38,38,66,63,16,15,1.2,1.1
2025-11-22T1500,1046A,119.5251,39.9041,秦皇岛市,建设大厦,颗粒物(PM10),69,88,67,35,34,55,55,44,44,55,53,15,17,1.1,0.9
2025-11-22T1500,3132A,119.610547,39.943889,秦皇岛市,文明里,颗粒物(PM10),74,98,74,47,27,40,40,33,33,52,55,16,17,0.8,0.9
2025-11-22T1500,4198A,119.5090,39.8253,秦皇岛市,北戴河轮滑馆,颗粒物(PM10),77,103,72,53,31,48,48,32,32,49,44,10,14,0.9,1
2025-11-22T1500,1307A,120.6659,36.2403,青岛市,仰口,,,,,,,,,,,,,,,,
2025-11-22T1500,1310A,120.4134,36.0658,青岛市,市南区东部子站,细颗粒物(PM2.5),100,139,85,75,47,119,119,56,56,32,60,21,15,1.2,0.9
2025-11-22T1500,1311A,120.3664,36.1032,青岛市,四方区子站,细颗粒物(PM2.5),113,132,86,85,52,119,119,59,59,26,58,15,10,0.9,0.8
