timepoint,stationcode,longitude,latitude,area,positionname,primarypollutant,aqi,pm10,pm10_24h,pm2_5,pm2_5_24h,o3,o3_24h,o3_8h,o3_8h_24h,no2,no2_24h,so2,so2_24h,co,co_24h
2026-05-13T1300,2568A,102.2503,31.8896,阿坝藏族羌族自治州,马师校,,37,15,20,10,7,116,116,62,62,4,5,7,6,0.3,0.3
2026-05-13T1300,3994A,102.2174,31.9016,阿坝藏族羌族自治州,马尔康中学西区,,33,NA,16,10,7,105,105,54,54,5,6,5,5,0.2,0.3
2026-05-13T1300,2695A,80.2899,41.1684,阿克苏地区,电视台,NA,NA,NA,76,NA,35,NA,NA,129,NA,NA,8,NA,3,NA,0.5
2026-05-13T1300,2696A,80.2592,41.1541,阿克苏地区,艺术中心,颗粒物(PM10),269,398,153,178,69,113,113,96,95,5,8,3,4,0.3,0.4
2026-05-13T1300,2205A,105.699,38.8409,阿拉善盟,蒙二幼,,40,34,72,8,22,128,128,122,120,6,7,11,11,0.4,0.4
2026-05-13T1300,2206A,105.7198,38.8508,阿拉善盟,环保局新楼,,39,36,62,15,17,124,124,118,116,5,5,9,9,0.4,0.4
2026-05-13T1300,2708A,88.1266,47.8515,阿勒泰地区,市站,,32,32,42,3,7,82,82,68,66,6,4,6,6,0.3,0.3
2026-05-13T1300,4166A,88.1198,47.7931,阿勒泰地区,阿勒泰路33号,,27,23,61,3,12,85,85,77,71,4,3,5,5,0.2,0.1
2026-05-13T1300,2630A,80.1171,32.4999,阿里地区,阿里监测站,,37,14,22,3,3,118,118,102,102,2,3,7,7,0.3,0.3
2026-05-13T1300,3192A,80.0906,32.5029,阿里地区,阿里藏医院,,38,10,18,3,3,121,121,107,107,1,1,5,5,0.3,0.2
2026-05-13T1300,2644A,109.0088,32.6974,安康市,汉滨区检察院,细颗粒物(PM2.5),60,57,58,40,35,71,71,25,25,10,12,11,8,0.4,0.4
2026-05-13T1300,4054A,109.0324,32.6913,安康市,市邮政管理局,细颗粒物(PM2.5),60,49,59,40,40,78,78,37,37,7,11,12,8,0.5,0.5
2026-05-13T1300,2291A,117.0806,30.5181,安庆市,环科院,细颗粒物(PM2.5),54,49,75,37,64,127,127,68,68,6,34,8,9,0.6,0.7
2026-05-13T1300,2292A,117.0331,30.5118,安庆市,马山宾馆,,50,50,77,35,66,125,125,64,64,3,46,6,7,0.6,0.9
2026-05-13T1300,2294A,116.9897,30.6146,安庆市,安庆大学,,38,38,70,23,57,121,121,69,69,5,23,5,7,0.5,0.7
2026-05-13T1300,3173A,117.0598,30.5351,安庆市,市人大,颗粒物(PM10),56,58,82,34,64,128,128,71,71,5,26,7,10,0.5,0.7
2026-05-13T1300,3123A,105.9408,26.2431,安顺市,凤凰山,,30,14,17,3,12,94,94,67,67,5,7,6,5,0.4,0.6
2026-05-13T1300,3124A,105.9443,26.2567,安顺市,金钟山,,26,NA,17,16,15,83,83,61,61,5,5,6,6,0.5,0.6
2026-05-13T1300,3125A,105.8983,26.248,安顺市,娄家坡,NA,NA,NA,19,NA,13,NA,NA,60,NA,NA,3,NA,5,NA,0.6
2026-05-13T1300,1819A,114.3552,36.1017,安阳市,红庙街,细颗粒物(PM2.5),92,86,72,56,46,156,156,88,88,10,12,8,6,0.6,0.7
2026-05-13T1300,1820A,114.361,36.0681,安阳市,银杏小区,细颗粒物(PM2.5),72,79,68,46,39,156,156,88,88,10,13,7,7,0.5,0.5
2026-05-13T1300,3141A,114.3921,36.0879,安阳市,信访局,细颗粒物(PM2.5),82,74,67,51,50,158,158,96,96,1,9,3,3,0.4,0.7
2026-05-13T1300,3669A,114.4706,36.0634,安阳市,左辅环卫站,颗粒物(PM10),79,90,77,47,43,138,138,84,84,8,11,2,2,0.5,0.6
2026-05-13T1300,4117A,114.2918,36.0769,安阳市,钢三路198号,细颗粒物(PM2.5),90,87,68,55,45,146,146,81,81,7,9,4,2,0.6,0.6
2026-05-13T1300,1748A,123.0441,41.1201,鞍山市,深沟寺,,38,24,32,12,15,120,120,116,115,7,9,7,8,0.6,0.6
2026-05-13T1300,1749A,123.011,41.0931,鞍山市,太阳城,,42,42,29,21,16,134,134,126,124,8,7,9,8,0.7,0.7
2026-05-13T1300,1750A,123.0483,41.1445,鞍山市,太平,,38,38,43,15,17,117,117,113,109,10,10,8,8,0.5,0.5
2026-05-13T1300,1751A,122.964,41.0968,鞍山市,铁西三道街,颗粒物(PM10),54,55,43,26,18,140,140,119,118,11,14,7,7,0.7,0.7
2026-05-13T1300,1753A,123.0219,41.0822,鞍山市,明达新区,,41,32,28,19,14,129,129,125,123,9,10,8,8,0.6,0.5
2026-05-13T1300,4201A,122.944647,41.082639,鞍山市,兴盛南路290号,颗粒物(PM10),59,62,42,26,17,140,140,124,124,14,15,10,10,0.5,0.6
2026-05-13T1300,2195A,107.4206,40.7609,巴彦淖尔市,附二中,颗粒物(PM10),64,69,232,28,75,135,135,112,112,7,11,9,12,0.5,0.5
2026-05-13T1300,2196A,107.37,40.7372,巴彦淖尔市,市环保大楼,颗粒物(PM10),69,76,220,29,73,135,135,111,111,6,11,7,9,0.3,0.5
2026-05-13T1300,1956A,86.1476,41.7529,巴音郭楞蒙古自治州,孔雀公园,,27,15,37,3,10,84,84,107,93,8,6,3,4,0.3,0.2
2026-05-13T1300,1957A,86.1971,41.7166,巴音郭楞蒙古自治州,棉纺厂,,25,15,48,3,21,79,79,97,89,9,8,/,/,/,/
2026-05-13T1300,1958A,86.236,41.7172,巴音郭楞蒙古自治州,经济开发区,,27,6,34,3,14,85,85,97,89,4,2,8,9,0.2,0.1
2026-05-13T1300,3181A,106.776805,31.852614,巴中市,市五中,,32,20,42,11,28,100,100,65,65,6,11,5,5,0.4,0.6
2026-05-13T1300,3183A,106.7419,31.8654,巴中市,圣泉水务公司,,32,13,28,10,25,101,101,56,56,4,10,6,6,0.5,0.7
2026-05-13T1300,3616A,106.7617,31.8343,巴中市,市中心医院,,35,16,34,9,27,110,110,71,71,5,11,6,6,0.4,0.5
2026-05-13T1300,2235A,122.7909,45.608,白城市,洮北区环保局,颗粒物(PM10),80,92,88,41,38,166,166,114,114,9,9,6,4,0.5,0.4
2026-05-13T1300,2236A,122.8741,45.5725,白城市,市环保局,颗粒物(PM10),75,85,114,39,38,145,145,100,100,14,14,4,4,0.4,0.4
2026-05-13T1300,2231A,126.4219,41.9172,白山市,喜丰,颗粒物(PM10),55,56,57,12,19,112,112,61,61,12,26,10,14,0.7,0.8
2026-05-13T1300,2232A,126.4082,41.9416,白山市,环保局,,36,32,38,11,19,113,113,66,66,10,16,13,12,0.7,0.8
2026-05-13T1300,2647A,104.1727,36.5448,白银市,第三小学,NA,NA,45,38,20,16,90,90,73,73,NA,13,NA,19,0.4,0.5
2026-05-13T1300,2648A,104.1467,36.5482,白银市,动力公司,颗粒物(PM10),54,55,36,23,16,95,95,73,73,8,11,12,12,0.4,0.5
2026-05-13T1300,2512A,106.6102,23.901,百色市,市监测站,颗粒物(PM10),78,88,66,48,47,60,60,22,22,23,16,21,14,1.1,1.1
2026-05-13T1300,2513A,106.6524,23.8842,百色市,市中心血站,细颗粒物(PM2.5),88,87,74,54,61,65,65,21,21,19,23,21,13,0.9,1.1
2026-05-13T1300,4133A,106.6273,23.8798,百色市,龙景西路,细颗粒物(PM2.5),86,57,98,53,58,54,54,15,15,24,20,22,15,0.8,0.8
2026-05-13T1300,2270A,117.396,32.9389,蚌埠市,工人疗养院,臭氧1小时(O3_1h),77,62,65,26,36,181,181,115,115,10,19,6,7,0.5,0.5
2026-05-13T1300,2271A,117.3606,32.9428,蚌埠市,百货大楼,臭氧1小时(O3_1h),74,58,57,20,34,179,179,116,116,9,17,8,8,0.6,0.6
2026-05-13T1300,2273A,117.4183,32.8909,蚌埠市,蚌埠学院,臭氧1小时(O3_1h),85,61,57,17,37,188,188,116,116,5,13,7,7,0.6,0.6
2026-05-13T1300,2274A,117.3534,32.9672,蚌埠市,淮上区政府,臭氧1小时(O3_1h),85,56,60,22,34,188,188,117,117,10,19,7,7,0.6,0.6
2026-05-13T1300,2275A,117.3143,32.8977,蚌埠市,高新区,臭氧1小时(O3_1h),67,53,58,21,39,173,173,112,112,8,20,9,9,0.5,0.8
2026-05-13T1300,3715A,117.3091,32.9314,蚌埠市,蚌埠田家炳中学,臭氧1小时(O3_1h),75,61,60,20,37,180,180,114,114,6,13,8,8,0.5,0.5
2026-05-13T1300,1585A,109.8761,40.6533,包头市,市环境监测站,颗粒物(PM10),65,71,85,20,32,158,158,114,114,13,26,18,16,0.6,0.6
2026-05-13T1300,1587A,109.9992,40.5843,包头市,包头八中,颗粒物(PM10),53,53,79,17,37,133,133,93,93,8,23,9,13,0.4,0.5
2026-05-13T1300,1589A,109.8641,40.6288,包头市,惠龙物流,颗粒物(PM10),55,57,74,24,31,140,140,106,106,11,18,15,24,0.5,0.5
2026-05-13T1300,1590A,110.0376,40.5546,包头市,东河鸿龙湾,细颗粒物(PM2.5),76,NA,73,48,30,138,138,97,97,3,18,13,16,0.4,0.4
2026-05-13T1300,3283A,109.9154,40.5684,包头市,滨河大厦,,50,50,73,22,32,138,138,103,103,6,20,6,9,0.4,0.4
2026-05-13T1300,3419A,109.9449,40.6259,包头市,包头市委党校,颗粒物(PM10),53,54,66,23,32,145,145,105,105,9,19,18,17,0.5,0.8
2026-05-13T1300,3683A,109.8332,40.6577,包头市,昆区政府,NA,NA,73,82,20,32,142,142,81,NA,NA,26,12,16,NA,0.9
2026-05-13T1300,1931A,107.0802,34.3129,宝鸡市,竹园沟,,24,24,26,16,13,59,59,NA,NA,5,6,8,8,0.4,0.3
2026-05-13T1300,1933A,107.1429,34.3549,宝鸡市,监测站,,32,32,28,21,19,46,46,25,25,8,9,6,6,0.2,0.2
2026-05-13T1300,1934A,107.1172,34.3759,宝鸡市,技工学校,,30,30,22,19,16,50,50,32,30,5,6,4,4,0.5,0.5
2026-05-13T1300,1936A,107.2025,34.3518,宝鸡市,文理学院,,33,33,32,19,17,49,49,28,28,13,13,6,6,0.5,0.4
2026-05-13T1300,1937A,107.2396,34.3626,宝鸡市,三迪小学,NA,NA,NA,33,NA,16,55,55,31,31,13,14,6,6,0.4,0.5
2026-05-13T1300,4155A,107.1721,34.3558,宝鸡市,滨河北路,,28,28,29,18,17,50,50,28,28,6,9,8,8,0.4,0.5
2026-05-13T1300,4308A,107.3898,34.3601,宝鸡市,陈仓区北开路21号,,26,26,38,18,19,54,54,33,33,5,12,12,17,0.5,0.5
2026-05-13T1300,1051A,115.4803,38.8568,保定市,游泳馆,细颗粒物(PM2.5),105,69,62,65,47,184,184,110,110,12,13,12,10,0.6,0.4
2026-05-13T1300,1052A,115.509,38.8895,保定市,华电二区,细颗粒物(PM2.5),107,77,69,67,47,182,182,146,NA,11,15,8,5,0.9,0.7
2026-05-13T1300,1053A,115.4588,38.9037,保定市,接待中心,细颗粒物(PM2.5),110,99,69,71,49,175,175,98,98,12,9,3,2,0.8,0.5
2026-05-13T1300,1054A,115.4484,38.8344,保定市,地表水厂,臭氧1小时(O3_1h),85,83,85,50,46,188,188,114,114,9,13,8,4,0.9,0.6
2026-05-13T1300,3581A,115.3136,38.9511,保定市,满城区生态环境分局,臭氧1小时(O3_1h),100,70,53,28,42,200,200,121,121,11,13,6,5,0.2,0.2
2026-05-13T1300,3582A,115.4709,38.7628,保定市,清苑区第二中学,颗粒物(PM10),93,109,93,39,39,139,139,86,86,10,16,13,11,0.7,0.5
2026-05-13T1300,3583A,115.6231,39.0223,保定市,徐水物探局,细颗粒物(PM2.5),106,122,91,66,46,169,169,88,88,10,13,4,3,0.6,0.4
2026-05-13T1300,4004A,115.4199,38.8665,保定市,双鹰农机,"颗粒物(PM10),细颗粒物(PM2.5)",98,117,74,59,50,190,190,113,113,7,11,3,2,0.8,0.5
2026-05-13T1300,4034A,115.515,38.8589,保定市,植保所站,细颗粒物(PM2.5),101,95,109,61,48,192,192,116,116,12,14,7,5,0.6,0.3
2026-05-13T1300,2594A,99.1589,25.1137,保山市,市环境监测站,,31,20,19,7,10,97,97,72,72,5,7,6,6,0.4,0.4
2026-05-13T1300,2595A,99.1616,25.1381,保山市,市环保局,,31,24,19,10,14,99,99,75,75,4,5,7,6,0.3,0.2
2026-05-13T1300,1867A,109.1435,21.4085,北海市,海滩公园,,29,29,21,17,17,64,64,56,56,3,4,6,6,0.7,0.7
2026-05-13T1300,1868A,109.0983,21.466,北海市,新市环保局,,20,20,17,3,12,64,64,54,54,4,5,2,2,0.4,0.3
2026-05-13T1300,1869A,109.1775,21.5232,北海市,北海工业园,,37,37,22,6,10,56,56,44,44,2,4,1,5,0.4,0.6
2026-05-13T1300,3400A,109.1844,21.4396,北海市,龙潭自来水厂,,19,19,46,6,5,60,60,47,47,2,3,1,2,0.5,0.6
2026-05-13T1300,1001A,116.3611,39.8786,北京市,万寿西宫,臭氧1小时(O3_1h),123,76,75,61,41,246,246,124,124,18,20,6,5,0.7,0.5
2026-05-13T1300,1003A,116.4174,39.9289,北京市,东四,臭氧1小时(O3_1h),122,84,87,54,48,243,243,122,122,17,24,6,5,0.8,0.7
2026-05-13T1300,1004A,116.4073,39.8858,北京市,天坛,臭氧1小时(O3_1h),116,94,78,45,40,231,231,113,113,19,23,2,2,0.8,0.7
2026-05-13T1300,1005A,116.4622,39.9364,北京市,农展馆,臭氧1小时(O3_1h),113,78,77,50,42,225,225,108,108,16,26,7,5,0.8,0.7
2026-05-13T1300,1006A,116.3399,39.9293,北京市,官园,臭氧1小时(O3_1h),111,91,82,46,38,222,222,120,120,20,20,2,2,0.7,0.6
2026-05-13T1300,1007A,116.2879,39.9613,北京市,海淀万柳,NA,NA,NA,83,NA,42,NA,NA,167,95,NA,24,NA,6,NA,0.6
2026-05-13T1300,1008A,116.6635,40.1349,北京市,顺义新城,臭氧1小时(O3_1h),100,76,79,47,40,200,200,123,123,11,19,6,4,0.7,0.7
2026-05-13T1300,1009A,116.6275,40.327,北京市,怀柔镇,臭氧1小时(O3_1h),92,74,71,40,43,193,193,128,128,8,12,4,4,0.6,0.7
2026-05-13T1300,1010A,116.2295,40.217,北京市,昌平镇,臭氧1小时(O3_1h),104,78,67,40,36,208,208,132,132,14,19,6,5,0.7,0.3
2026-05-13T1300,1011A,116.3968,39.982,北京市,奥体中心,臭氧1小时(O3_1h),105,87,81,44,41,209,209,109,109,20,28,6,5,0.7,0.6
2026-05-13T1300,3418A,116.8336,40.4095,北京市,密云新城,臭氧1小时(O3_1h),89,67,72,37,37,191,191,124,124,8,16,3,3,0.6,0.6
2026-05-13T1300,3671A,116.0879,39.9725,北京市,门头沟三家店,臭氧1小时(O3_1h),108,90,87,39,43,216,216,123,123,16,23,5,4,0.7,0.6
2026-05-13T1300,3672A,116.1507,39.8246,北京市,丰台云岗,臭氧1小时(O3_1h),118,88,92,59,43,236,236,130,130,16,23,4,3,0.7,0.6
2026-05-13T1300,3674A,115.9578,39.7602,北京市,房山燕山,臭氧1小时(O3_1h),109,97,83,56,43,218,218,120,120,15,16,5,5,0.6,0.5
2026-05-13T1300,3675A,116.4669,39.7734,北京市,大兴旧宫,颗粒物(PM10),126,187,85,57,42,222,222,100,100,17,20,3,2,0.8,0.6
2026-05-13T1300,3694A,115.9859,40.4562,北京市,延庆石河营,臭氧1小时(O3_1h),104,51,69,30,45,207,207,112,112,13,20,3,2,0.7,0.6
2026-05-13T1300,3695A,116.6151,40.3052,北京市,怀柔新城,臭氧1小时(O3_1h),88,70,69,31,40,190,190,124,124,11,14,6,6,0.8,0.8
2026-05-13T1300,3696A,116.2542,39.8764,北京市,丰台小屯,臭氧1小时(O3_1h),112,92,87,44,41,224,224,125,125,15,17,5,4,0.7,0.5
2026-05-13T1300,3697A,116.8399,40.3843,北京市,密云镇,臭氧1小时(O3_1h),100,68,73,37,40,200,200,118,118,9,21,5,5,0.6,0.6
2026-05-13T1300,4057A,115.9423,40.4431,北京市,延庆百泉,臭氧1小时(O3_1h),105,62,77,32,41,210,210,103,103,11,16,4,2,0.7,0.7
2026-05-13T1300,4058A,116.6598,39.9164,北京市,通州新华,细颗粒物(PM2.5),90,77,85,55,47,188,188,105,105,11,16,6,5,0.9,0.8
2026-05-13T1300,4182A,116.1942,39.9158,北京市,石景山八角,臭氧1小时(O3_1h),112,73,76,46,42,223,223,124,124,17,30,11,6,0.7,0.6
2026-05-13T1300,4194A,117.078628,40.151726,北京市,平谷新城,细颗粒物(PM2.5),107,102,77,67,46,199,199,128,128,12,12,8,5,1.2,0.9
2026-05-13T1300,1761A,123.8274146,41.31234549,本溪市,大峪,,35,29,34,12,15,110,110,112,112,9,9,6,6,0.4,0.4
2026-05-13T1300,1763A,123.7169,41.3094,本溪市,彩屯,,34,34,40,16,21,103,103,100,98,20,23,16,14,2.4,2.7
2026-05-13T1300,1764A,123.7672166,41.28649327,本溪市,东明,,42,42,43,10,14,123,123,130,119,8,10,7,6,0.6,0.6
2026-05-13T1300,1765A,123.799345,41.266614,本溪市,新立屯,,39,30,36,9,15,124,124,138,126,6,6,8,8,0.5,0.4
2026-05-13T1300,1766A,123.829144,41.336777,本溪市,威宁,,36,36,37,13,16,110,110,107,107,9,10,8,7,0.6,0.6
2026-05-13T1300,2587A,105.287,27.3133,毕节市,八中,,39,39,48,27,27,96,96,63,63,8,8,9,9,0.6,0.6
2026-05-13T1300,2588A,105.3079,27.2987,毕节市,师专,NA,NA,46,50,30,28,60,60,57,47,NA,7,12,12,0.4,0.6
2026-05-13T1300,4263A,105.3688,27.3598,毕节市,工业大道,,50,NA,44,35,30,95,95,69,69,5,7,10,13,/,/
2026-05-13T1300,1629A,117.9961,37.3604,滨州市,第二水厂,颗粒物(PM10),91,107,65,27,21,162,162,119,119,6,25,7,9,0.9,0.8
2026-05-13T1300,1630A,117.9789,37.3931,滨州市,北中新校,臭氧1小时(O3_1h),72,61,56,27,23,177,177,135,135,10,29,14,14,0.3,0.3
2026-05-13T1300,3514A,117.9379,37.3959,滨州市,中海酒店,臭氧1小时(O3_1h),73,63,47,24,20,178,178,143,143,12,24,10,11,0.4,0.4
2026-05-13T1300,3515A,117.9381509,37.35547456,滨州市,开发区一中,臭氧1小时(O3_1h),68,61,63,28,22,174,174,129,129,10,32,9,9,0.5,0.5
2026-05-13T1300,3516A,118.0914,37.6938,滨州市,金海六路,颗粒物(PM10),70,78,64,21,28,154,154,118,118,7,29,10,10,0.3,0.5
2026-05-13T1300,4028A,117.9955,37.3752,滨州市,滨州市西街道办事处,臭氧1小时(O3_1h),70,68,56,22,32,176,176,137,137,7,26,7,7,0.6,0.5
2026-05-13T1300,2311A,115.8071,33.8399,亳州市,污水处理厂,NA,NA,NA,39,NA,35,NA,NA,90,NA,NA,8,NA,6,NA,0.2
2026-05-13T1300,2312A,115.7789,33.8519,亳州市,三国揽胜宫,颗粒物(PM10),53,53,61,14,30,144,144,101,101,4,9,7,7,0.3,0.3
2026-05-13T1300,3332A,115.7631,33.803,亳州市,亳州学院,,45,33,49,17,33,143,143,104,104,4,9,5,5,0.3,0.3
2026-05-13T1300,2693A,82.0482,44.8553,博尔塔拉蒙古自治州,市党校,,27,19,39,3,12,84,84,79,78,3,3,2,2,0.4,0.4
2026-05-13T1300,2694A,82.0805,44.8966,博尔塔拉蒙古自治州,市环保局,,25,22,36,3,7,78,78,78,74,9,6,2,2,0.4,0.5
2026-05-13T1300,1071A,116.8733,38.2922,沧州市,沧县城建局,细颗粒物(PM2.5),88,79,58,54,39,139,139,106,106,8,14,4,6,0.5,0.4
2026-05-13T1300,1072A,116.8462,38.3189,沧州市,电视转播站,细颗粒物(PM2.5),56,56,58,38,36,134,134,108,108,8,13,7,9,0.4,0.4
2026-05-13T1300,1073A,116.8588,38.3161,沧州市,市环保局,"颗粒物(PM10),细颗粒物(PM2.5)",64,69,62,42,37,149,149,114,114,6,12,8,9,0.5,0.4
2026-05-13T1300,3324A,116.8011,38.294,沧州市,河北水利电力学院,细颗粒物(PM2.5),84,68,55,52,38,142,142,111,111,6,13,11,12,0.4,0.4
2026-05-13T1300,2622A,97.1813,31.1289,昌都市,昌都监测站,,35,15,19,3,5,109,109,69,69,8,12,9,9,0.6,0.6
2026-05-13T1300,3719A,97.1707,31.1428,昌都市,昌都会议中心,,37,7,14,3,5,118,118,76,76,4,5,8,8,0.4,0.4
2026-05-13T1300,2692A,87.2722,44.0298,昌吉回族自治州,新区政务中心,,29,11,13,3,8,91,91,68,68,6,8,6,5,0.4,0.4
2026-05-13T1300,3613A,87.3069,44.0093,昌吉回族自治州,亚心广场,,30,14,18,3,6,96,96,74,74,2,5,5,5,0.3,0.3
2026-05-13T1300,4164A,87.2057,43.9289,昌吉回族自治州,财政所,,28,13,17,3,4,89,89,77,77,7,4,7,7,0.2,0.2
2026-05-13T1300,1120A,125.2874,43.9024,长春市,客车厂,,50,39,43,26,20,160,160,116,116,11,14,8,7,0.5,0.4
2026-05-13T1300,1121A,125.2943,43.8508,长春市,邮电学院,,50,42,57,24,19,158,158,120,120,8,10,8,7,0.4,0.5
2026-05-13T1300,1122A,125.3648,43.8745,长春市,劳动公园,,50,38,35,22,16,159,159,119,119,8,10,8,7,0.5,0.4
2026-05-13T1300,1123A,125.3233,43.8781,长春市,园林处,NA,NA,NA,36,26,17,157,157,120,120,9,10,7,10,NA,0.4
2026-05-13T1300,1124A,125.4604,43.7904,长春市,净月潭,,50,28,27,19,15,157,157,117,117,7,9,6,6,0.5,0.4
2026-05-13T1300,1126A,125.38,43.8422,长春市,经开区环卫处,,50,36,35,22,18,158,158,119,119,9,12,6,6,0.5,0.5
2026-05-13T1300,1127A,125.234,43.7761,长春市,高新区管委会,臭氧1小时(O3_1h),62,39,32,21,16,169,169,114,114,6,10,8,6,0.5,0.4
2026-05-13T1300,1128A,125.1695,43.83,长春市,岱山公园,臭氧1小时(O3_1h),72,37,40,24,18,177,177,122,122,9,18,6,5,0.5,0.4
2026-05-13T1300,4281A,125.334645,43.916281,长春市,北亚泰大街1068号,,49,36,38,29,19,156,156,118,118,11,15,7,6,0.5,0.5
2026-05-13T1300,1335A,113.082,28.2421,长沙市,经开区环保局,,26,26,34,12,23,70,70,65,64,9,15,3,4,0.6,0.6
2026-05-13T1300,1336A,112.8873,28.2202,长沙市,高开区环保局,,26,26,32,13,22,66,66,72,72,6,8,6,7,0.4,0.5
2026-05-13T1300,1337A,113.0785,28.2012,长沙市,马坡岭,,26,26,33,13,24,69,69,68,67,5,9,5,6,0.7,0.7
2026-05-13T1300,1338A,112.9448,28.1894,长沙市,湖南师范大学,,26,26,33,15,22,70,70,75,74,8,12,5,6,0.6,0.6
2026-05-13T1300,1339A,113.0177,28.1322,长沙市,雨花区环保局,,22,21,30,14,23,70,70,73,73,2,5,3,4,0.6,0.7
2026-05-13T1300,1340A,112.9795,28.2593,长沙市,伍家岭,,26,26,35,14,24,65,65,65,64,8,11,4,5,0.5,0.6
2026-05-13T1300,1341A,113.002,28.1944,长沙市,火车新站,,29,29,34,15,26,65,65,66,65,6,11,4,5,0.5,0.5
2026-05-13T1300,1342A,112.9846,28.1177,长沙市,天心区环保局,,24,24,32,15,25,70,70,75,75,11,13,5,6,0.6,0.6
2026-05-13T1300,1343A,112.8906,28.1307,长沙市,湖南中医药大学,,24,24,33,16,24,58,58,70,70,10,11,6,7,0.6,0.6
2026-05-13T1300,1727A,113.1146,36.1547,长治市,清华站,细颗粒物(PM2.5),66,56,62,43,42,153,153,121,121,8,11,9,10,0.5,0.6
2026-05-13T1300,1730A,113.0887,36.2126,长治市,审计局,"颗粒物(PM10),细颗粒物(PM2.5)",58,61,65,39,46,153,153,117,117,3,8,8,11,0.5,0.6
2026-05-13T1300,1731A,113.0845,36.1856,长治市,长治八中,颗粒物(PM10),67,73,80,40,45,155,155,117,117,7,12,11,14,0.5,0.6
2026-05-13T1300,2845A,113.1561,36.1912,长治市,德盛苑,细颗粒物(PM2.5),54,54,60,37,44,155,155,128,128,7,9,9,10,0.6,0.7
2026-05-13T1300,3568A,113.0603,36.0464,长治市,向阳小学,颗粒物(PM10),83,95,101,48,45,148,148,108,108,12,14,11,10,1.0,0.9
2026-05-13T1300,3569A,112.8788,36.315,长治市,屯留一中,颗粒物(PM10),60,64,64,38,46,148,148,99,99,8,15,10,11,0.6,0.9
2026-05-13T1300,4189A,113.113092,36.199482,长治市,英华南巷50号,颗粒物(PM10),71,79,75,35,44,159,159,122,122,5,8,8,9,0.7,0.8
2026-05-13T1300,4190A,113.23666,36.33435,长治市,学府街1号,颗粒物(PM10),80,91,99,38,42,161,161,120,120,5,9,7,9,0.6,0.7
2026-05-13T1300,1854A,111.696,28.9725,常德市,市二中,NA,NA,NA,30,6,22,81,81,78,72,2,5,8,9,0.9,0.9
2026-05-13T1300,3138A,111.7152,29.0288,常德市,武陵区永安,,27,14,29,3,18,84,84,84,76,2,4,5,6,0.6,0.6
2026-05-13T1300,3139A,111.6891,28.9881,常德市,鼎城区玉霞,,26,13,29,6,22,81,81,74,70,2,4,9,10,0.8,0.8
2026-05-13T1300,3140A,111.6651,29.0526,常德市,武陵区长庚,NA,NA,NA,32,NA,24,80,80,85,76,3,5,8,8,0.7,0.8
2026-05-13T1300,1196A,119.9524,31.7586,常州市,市监测站,细颗粒物(PM2.5),88,96,83,54,45,178,178,81,81,32,26,16,12,1.5,1.1
2026-05-13T1300,1200A,119.9351,31.703,常州市,武进监测站,"颗粒物(PM10),臭氧1小时(O3_1h)",89,104,119,49,46,191,191,91,91,19,26,3,8,0.8,1
2026-05-13T1300,3002A,119.9701,31.813,常州市,行政中心,颗粒物(PM10),80,91,55,48,41,182,182,90,90,28,26,9,9,0.6,0.5
2026-05-13T1300,3003A,120.0434,31.7726,常州市,经开区,颗粒物(PM10),80,91,90,45,42,179,179,88,88,33,28,5,5,0.9,1
2026-05-13T1300,3010A,119.8919,31.7892,常州市,钟楼,臭氧1小时(O3_1h),84,74,67,38,39,187,187,93,93,32,28,10,11,0.7,0.8
2026-05-13T1300,3429A,119.8595,31.706,常州市,武进经发区,臭氧1小时(O3_1h),79,83,78,30,33,183,183,90,90,20,30,10,10,1.1,1.2
2026-05-13T1300,3430A,119.5812,31.7256,常州市,金坛城区,臭氧1小时(O3_1h),89,45,50,30,36,191,191,99,99,10,17,12,10,0.8,0.9
2026-05-13T1300,4089A,119.9551,31.863,常州市,崇义南街5-H号,臭氧1小时(O3_1h),80,74,63,36,36,184,184,90,90,12,19,9,11,0.8,0.9
2026-05-13T1300,2220A,120.4318,41.588,朝阳市,西梁,"颗粒物(PM10),臭氧1小时(O3_1h)",53,53,49,18,24,162,162,125,125,12,15,13,12,0.8,0.8
2026-05-13T1300,2221A,120.452,41.565,朝阳市,河畔小区,颗粒物(PM10),66,72,49,16,21,164,164,124,124,10,12,9,8,0.5,0.5
2026-05-13T1300,2222A,120.4176,41.5648,朝阳市,八里堡,颗粒物(PM10),82,94,61,18,23,165,165,130,130,12,16,8,7,0.8,0.8
2026-05-13T1300,3026A,116.6179,23.6608,潮州市,市政府,颗粒物(PM10),59,62,56,36,47,153,153,102,102,8,8,3,3,0.8,0.7
2026-05-13T1300,4036A,116.646,23.676,潮州市,金山,颗粒物(PM10),51,51,48,30,46,151,151,89,89,8,8,3,3,0.7,0.6
2026-05-13T1300,2473A,113.0116,25.8228,郴州市,市职中,,34,34,27,23,23,62,62,42,42,7,10,8,8,0.5,0.5
2026-05-13T1300,2475A,113.0381,25.8074,郴州市,市审计局,,32,NA,26,22,23,61,61,37,37,9,12,3,4,/,/
2026-05-13T1300,2476A,113.0348,25.7757,郴州市,市环保局,,35,NA,30,24,26,64,64,42,42,8,15,5,10,0.5,0.5
2026-05-13T1300,4252A,113.0138,25.8011,郴州市,好美居路49号,,30,30,27,21,16,58,58,35,35,10,12,8,8,/,/
2026-05-13T1300,1431A,103.9727,30.7242,成都市,金泉两河,,45,39,63,26,39,142,142,86,86,10,17,6,6,0.4,0.4
2026-05-13T1300,1432A,104.1423,30.6765,成都市,十里店,颗粒物(PM10),78,88,57,35,38,144,144,95,95,7,13,5,6,0.7,0.8
2026-05-13T1300,1433A,104.0594,30.5765,成都市,三瓦窑,,48,35,55,32,39,152,152,106,106,9,14,3,4,0.4,0.5
2026-05-13T1300,1434A,104.1122,30.6306,成都市,沙河铺,,46,44,54,32,38,134,134,92,92,13,21,4,4,0.2,0.4
2026-05-13T1300,2880A,104.0219,30.6561,成都市,大石西路,细颗粒物(PM2.5),78,79,58,49,41,138,138,94,94,18,20,6,5,0.9,0.7
2026-05-13T1300,3136A,104.2724,30.559,成都市,龙泉驿区区政府,,43,29,45,26,37,135,135,108,108,6,10,7,8,0.4,0.5
2026-05-13T1300,3357A,104.0028,30.6891,成都市,金博路,细颗粒物(PM2.5),54,NA,54,37,38,142,142,88,88,14,20,6,6,0.6,0.6
2026-05-13T1300,3359A,104.056,30.5228,成都市,华阳,,49,46,50,31,36,156,156,107,107,8,13,2,3,0.4,0.5
2026-05-13T1300,3488A,104.387954,30.746684,成都市,青石路225号,,40,26,46,25,36,126,126,83,83,3,16,4,5,0.4,0.5
2026-05-13T1300,3489A,104.0788,30.4054,成都市,科学城,,46,27,44,20,30,147,147,104,104,6,11,6,6,0.4,0.5
2026-05-13T1300,4011A,103.8505,30.6946,成都市,光华大道三段,,46,34,63,27,39,146,146,86,86,3,12,5,6,0.4,0.5
2026-05-13T1300,4144A,104.3257,30.6406,成都市,八角井街185号,,40,39,53,23,38,126,126,80,80,8,16,6,6,0.6,0.7
2026-05-13T1300,4224A,104.2433276,30.53529463,成都市,鲸龙路1057号,,44,37,53,16,34,139,139,113,113,8,14,8,8,0.4,0.4
2026-05-13T1300,1062A,117.9531,40.908,承德市,铁路,臭氧1小时(O3_1h),87,61,64,40,35,189,189,131,131,12,17,6,5,0.4,0.5
2026-05-13T1300,1063A,117.9397,40.9763,承德市,中国银行,臭氧1小时(O3_1h),78,54,52,35,33,182,182,118,118,8,13,3,3,0.5,0.5
2026-05-13T1300,4073A,117.9462,40.95,承德市,杏林街1号,臭氧1小时(O3_1h),98,70,70,46,48,198,198,149,149,8,11,4,3,0.4,0.5
2026-05-13T1300,4274A,117.7994,40.9605,承德市,滨河大街98号,臭氧1小时(O3_1h),106,105,65,39,35,212,212,138,138,11,13,24,14,0.8,0.5
2026-05-13T1300,2314A,117.4698,30.6617,池州市,池州学院,细颗粒物(PM2.5),66,58,64,43,49,144,144,98,98,13,17,7,7,0.7,0.8
2026-05-13T1300,3237A,117.4918,30.6617,池州市,展览馆,细颗粒物(PM2.5),68,58,66,44,44,154,154,102,102,8,15,6,6,0.6,0.8
2026-05-13T1300,3333A,117.5626,30.695,池州市,第八中学,颗粒物(PM10),59,62,66,28,38,144,144,95,95,9,16,6,6,0.6,0.9
2026-05-13T1300,3334A,117.5037,30.6242,池州市,第十二中学,细颗粒物(PM2.5),82,74,61,51,43,147,147,93,93,8,22,8,7,1.3,1.6
2026-05-13T1300,1744A,118.9229,42.2816,赤峰市,松山一中,颗粒物(PM10),59,62,51,9,30,148,148,160,126,12,17,8,8,0.6,0.7
2026-05-13T1300,1745A,118.9588,42.2733,赤峰市,哈达街,颗粒物(PM10),59,62,58,14,26,137,137,149,120,13,18,12,11,0.6,0.6
2026-05-13T1300,1746A,118.8792,42.2551,赤峰市,天义路,,45,45,37,12,28,130,130,139,108,11,17,6,5,0.4,0.4
2026-05-13T1300,3058A,119.2656,42.0356,赤峰市,银河街,颗粒物(PM10),80,91,78,17,30,146,146,118,113,9,14,8,12,0.5,0.7
2026-05-13T1300,3286A,118.9359,42.3146,赤峰市,桥北物流园区,,39,37,49,8,26,122,122,123,102,7,16,3,3,0.6,0.8
2026-05-13T1300,2521A,107.3473,22.4137,崇左市,市环保局江州分局,,42,42,36,15,20,80,80,44,44,9,10,2,3,0.6,0.5
2026-05-13T1300,4256A,107.375,22.3736,崇左市,石景林东路7号,,28,22,28,16,20,87,87,50,50,6,9,3,3,0.6,0.6
2026-05-13T1300,3207A,118.31131,32.3033,滁州市,市政府原办公楼,"细颗粒物(PM2.5),臭氧1小时(O3_1h)",72,57,46,46,40,177,177,98,98,14,22,12,9,1.0,0.8
2026-05-13T1300,3331A,118.3268,32.2633,滁州市,图书馆,"颗粒物(PM10),臭氧1小时(O3_1h)",69,76,60,24,34,175,175,99,99,12,18,14,12,1.1,0.8
2026-05-13T1300,4101A,118.3196,32.3335,滁州市,银山路666号,臭氧1小时(O3_1h),87,71,53,40,32,189,189,102,102,19,23,18,13,0.7,0.6
2026-05-13T1300,4102A,118.3426,32.2979,滁州市,黄山路555号,臭氧1小时(O3_1h),97,77,66,44,37,197,197,104,104,13,24,14,10,1.2,0.9
2026-05-13T1300,2606A,101.5379,25.0492,楚雄彝族自治州,市经济开发区,,28,7,11,3,10,89,89,62,62,3,6,1,1,0.4,0.5
2026-05-13T1300,4153A,101.5536,25.0343,楚雄彝族自治州,团结路562号,,29,19,10,3,7,92,92,74,74,2,3,2,2,0.3,0.2
2026-05-13T1300,2549A,107.5087,31.2186,达州市,市环境监测站,,32,32,71,12,51,100,100,50,50,12,27,6,7,0.1,0.4
2026-05-13T1300,2550A,107.4988,31.2132,达州市,凤凰小区,,33,31,72,11,55,104,104,56,56,10,25,5,7,0.3,0.6
2026-05-13T1300,2551A,107.5081,31.1987,达州市,达县机关宾馆,,32,31,75,7,54,101,101,49,49,15,35,4,6,0.3,0.5
2026-05-13T1300,2552A,107.4644,31.2124,达州市,市政中心,NA,NA,NA,72,11,47,111,111,57,57,10,23,5,6,0.3,0.5
2026-05-13T1300,2614A,100.2168,25.5818,大理白族自治州,大理市环境监测站,,29,12,13,6,8,90,90,83,83,7,7,4,4,0.4,0.4
2026-05-13T1300,2615A,100.1542,25.7055,大理白族自治州,大理古城,,32,12,17,3,10,101,101,80,80,4,7,6,6,0.5,0.5
2026-05-13T1300,1109A,121.6119,38.974,大连市,甘井子,,40,NA,29,28,17,123,123,106,106,6,9,10,9,0.5,0.5
2026-05-13T1300,1110A,121.565,38.9509,大连市,周水子,,39,35,30,22,21,123,123,94,94,13,17,4,5,0.6,0.6
2026-05-13T1300,1111A,121.5637,38.8849,大连市,星海三站,,44,31,25,23,16,140,140,108,108,13,14,4,4,0.5,0.5
2026-05-13T1300,1112A,121.6301,38.9117,大连市,青泥洼桥,,41,28,27,22,20,130,130,107,107,8,9,5,4,0.5,0.5
2026-05-13T1300,1113A,121.6248,38.8643,大连市,傅家庄,,40,24,23,22,16,127,127,104,104,4,6,4,7,0.4,0.4
2026-05-13T1300,1114A,121.5117,38.8636,大连市,七贤岭,,39,NA,25,25,15,123,123,89,89,13,15,6,5,0.6,0.5
2026-05-13T1300,1116A,121.7507,39.1339,大连市,金州,,40,25,35,16,23,125,125,103,103,12,16,11,10,0.3,0.4
2026-05-13T1300,1117A,121.7811,39.0495,大连市,开发区,,39,24,24,21,18,123,123,109,108,15,17,5,6,0.5,0.5
2026-05-13T1300,1118A,121.9762,39.0631,大连市,双D港,,37,NA,11,25,12,116,116,107,105,3,3,5,4,0.5,0.5
2026-05-13T1300,4082A,121.2548,38.8188,大连市,旅顺,,40,28,26,21,18,127,127,102,102,10,8,7,6,0.5,0.5
2026-05-13T1300,1789A,124.8085,46.0381,大庆市,大同区,"颗粒物(PM10),臭氧1小时(O3_1h)",57,59,119,29,32,165,165,120,120,12,13,4,4,0.5,0.5
2026-05-13T1300,1790A,125.1166,46.5255,大庆市,龙凤区,,46,45,64,32,24,146,146,94,94,11,10,4,6,0.3,0.2
2026-05-13T1300,1791A,124.8894,46.4007,大庆市,红岗区,颗粒物(PM10),56,58,74,26,29,157,157,108,108,10,10,7,8,0.5,0.5
2026-05-13T1300,1792A,125.1391,46.578,大庆市,萨尔图区,臭氧1小时(O3_1h),55,51,58,29,19,164,164,113,113,13,12,9,8,0.5,0.4
2026-05-13T1300,1793A,124.9026,46.6217,大庆市,让胡路区,臭氧1小时(O3_1h),55,48,67,30,24,164,164,111,111,10,9,6,5,0.5,0.4
2026-05-13T1300,3481A,125.127,46.6277,大庆市,萨区政府监测点,NA,NA,NA,60,NA,19,162,162,109,109,6,5,10,10,0.5,0.4
2026-05-13T1300,1723A,113.2926,40.0759,大同市,云冈宾馆,臭氧1小时(O3_1h),103,106,128,47,46,205,205,102,102,16,39,12,12,0.5,0.6
2026-05-13T1300,1724A,113.3437,40.0921,大同市,大同大学,臭氧1小时(O3_1h),93,105,113,37,35,194,194,111,111,15,34,9,10,0.3,0.6
2026-05-13T1300,1725A,113.2637,40.129,大同市,安家小村,NA,NA,98,122,28,31,196,196,118,118,22,27,NA,29,0.4,0.9
2026-05-13T1300,3282A,113.3399,40.0586,大同市,大同市卫生学校,臭氧1小时(O3_1h),107,94,100,21,34,213,213,113,113,15,27,12,12,0.5,0.6
2026-05-13T1300,3565A,113.1371,40.1122,大同市,云冈站,颗粒物(PM10),80,91,98,38,36,165,165,95,95,8,20,8,11,0.5,0.6
2026-05-13T1300,3566A,113.1186,40.2556,大同市,图书馆,颗粒物(PM10),70,78,84,28,27,156,156,96,96,7,15,7,8,0.4,0.5
2026-05-13T1300,3567A,113.5931,40.0459,大同市,区一中,颗粒物(PM10),94,111,93,23,31,177,177,117,117,12,21,8,10,0.5,0.6
2026-05-13T1300,4199A,113.2798248,40.09972476,大同市,魏都大道141号,颗粒物(PM10),94,111,116,32,40,189,189,94,94,14,31,10,10,0.5,0.9
2026-05-13T1300,2269A,124.1068,50.4091,大兴安岭地区,科技局,,34,27,45,18,25,106,106,82,82,2,6,7,7,0.4,0.4
2026-05-13T1300,3663A,124.117,50.4279,大兴安岭地区,红旗社区,,37,27,38,25,26,116,116,83,83,6,11,4,6,0.2,0.4
2026-05-13T1300,1600A,124.33,40.0625,丹东市,江湾东路,,37,15,28,10,17,116,116,118,118,8,8,3,4,0.4,0.4
2026-05-13T1300,1601A,124.4242,40.1513,丹东市,临江后街,,36,12,30,6,18,115,115,109,109,5,7,6,6,0.4,0.5
2026-05-13T1300,1602A,124.3935,40.1461,丹东市,元宝山,,35,16,29,6,18,112,112,111,108,8,9,5,5,0.4,0.5
2026-05-13T1300,1603A,124.3634,40.1093,丹东市,民主桥,,36,18,33,7,18,113,113,112,112,5,7,5,5,0.3,0.3
2026-05-13T1300,3541A,109.5726195,19.51688767,儋州市,第一中学子站,,14,9,28,3,13,44,44,33,33,3,7,5,5,0.2,0.2
2026-05-13T1300,3542A,109.5567,19.5187,儋州市,东坡学校子站,,23,23,26,3,9,47,47,33,33,1,5,5,5,0.3,0.4
2026-05-13T1300,2616A,98.5611,24.4273,德宏傣族景颇族自治州,德宏州监测站,,29,NA,15,20,15,88,88,46,46,4,8,3,3,0.0,0.3
2026-05-13T1300,3677A,98.5887,24.4366,德宏傣族景颇族自治州,芒市人民政府综合楼,NA,NA,38,39,21,15,90,90,49,49,8,10,4,4,NA,0.6
2026-05-13T1300,1901A,104.424,31.1209,德阳市,东山公园,,36,27,42,25,37,97,97,73,73,5,10,3,3,0.5,0.5
2026-05-13T1300,1902A,104.3827,31.1318,德阳市,西小区,,42,37,51,29,34,96,96,75,75,7,14,5,5,0.5,0.6
2026-05-13T1300,1904A,104.3553,31.1091,德阳市,耐火材料厂,,42,38,55,29,38,107,107,78,78,8,19,2,3,0.4,0.5
2026-05-13T1300,4145A,104.4144,31.1495,德阳市,市林业局,,37,37,47,25,36,108,108,77,77,5,16,4,5,0.4,0.5
2026-05-13T1300,1622A,116.3034,37.4675,德州市,儿童乐园,颗粒物(PM10),67,73,78,22,34,155,155,123,123,6,12,9,10,0.7,0.8
2026-05-13T1300,1624A,116.2992,37.4449,德州市,监理站,颗粒物(PM10),58,61,71,21,33,152,152,124,124,4,11,14,15,0.5,0.5
2026-05-13T1300,3066A,116.2722,37.438,德州市,九衢泉纯净水厂,颗粒物(PM10),60,63,69,21,35,147,147,114,114,9,18,9,9,0.8,0.9
2026-05-13T1300,3371A,116.3693,37.44,德州市,开发区人民医院,颗粒物(PM10),62,66,68,22,34,148,148,114,114,7,13,11,13,0.8,0.8
2026-05-13T1300,3511A,116.5687,37.3331,德州市,陵城艺术中心,颗粒物(PM10),60,63,62,20,35,152,152,112,112,10,15,13,12,0.7,0.8
2026-05-13T1300,4292A,116.352738,37.420875,德州市,新河东路,颗粒物(PM10),51,51,54,22,33,144,144,121,121,9,13,10,11,0.9,0.9
2026-05-13T1300,2621A,99.7054,27.8319,迪庆藏族自治州,迪庆州站,,32,12,16,6,8,102,102,62,62,7,10,8,8,0.0,0.2
2026-05-13T1300,3180A,99.7122,27.8129,迪庆藏族自治州,质量技术监督局,,36,17,16,3,6,113,113,68,68,7,9,9,8,0.4,0.4
2026-05-13T1300,4257A,104.6092,35.5962,定西市,将台街,,33,27,37,6,11,105,105,104,97,4,5,4,3,0.2,0.2
2026-05-13T1300,4309A,104.6159,35.5701,定西市,正龙路62号,,32,13,31,3,8,102,102,98,93,7,7,4,3,0.2,0.2
2026-05-13T1300,4071A,114.9883,38.5232,定州市,交通局,颗粒物(PM10),102,125,109,52,44,193,193,112,112,11,15,10,7,0.8,0.6
2026-05-13T1300,4072A,115.0045,38.5136,定州市,第五中学,颗粒物(PM10),103,126,104,52,48,174,174,101,101,10,15,8,5,0.7,0.5
2026-05-13T1300,1390A,113.7943,23.0132,东莞市,东城石井,,42,14,27,8,17,134,134,77,77,11,21,5,5,0.6,0.7
2026-05-13T1300,1391A,113.7384,22.9659,东莞市,南城西平,,38,13,19,3,10,120,120,78,78,9,15,4,5,0.5,0.5
2026-05-13T1300,3319A,113.7283,23.041,东莞市,万江金泰,,40,18,21,10,17,127,127,77,77,11,19,7,7,0.4,0.6
2026-05-13T1300,4129A,113.8666,23.1062,东莞市,裕兴路,,42,17,35,3,18,134,134,69,69,10,24,7,7,0.7,0.8
2026-05-13T1300,4130A,114.0076,22.9739,东莞市,教育路1号,,39,14,40,3,21,124,124,67,67,9,29,5,5,0.6,0.8
2026-05-13T1300,4131A,113.7981,22.8124,东莞市,长怡路1号,,35,14,27,3,13,111,111,76,76,5,17,4,4,0.6,0.7
2026-05-13T1300,1666A,118.6612,37.4313,东营市,市环保局,臭氧1小时(O3_1h),104,66,50,32,25,208,208,129,129,15,26,14,16,0.5,0.6
2026-05-13T1300,3036A,118.6903,37.4337,东营市,开发区管委会,臭氧1小时(O3_1h),105,71,57,17,18,209,209,131,131,18,27,10,13,0.8,0.8
2026-05-13T1300,3365A,118.5721,37.5654,东营市,垦利区民丰路,臭氧1小时(O3_1h),103,68,50,23,18,206,206,141,141,11,21,20,21,0.7,0.7
2026-05-13T1300,3498A,118.5063,37.8606,东营市,河口城区,臭氧1小时(O3_1h),88,68,58,24,28,190,190,143,143,6,14,11,8,0.9,0.8
2026-05-13T1300,3646A,118.4979,37.4623,东营市,胜利站,臭氧1小时(O3_1h),85,40,34,33,24,188,188,123,123,12,21,9,8,0.9,0.8
2026-05-13T1300,3734A,118.5753,37.4405,东营市,理想之城,臭氧1小时(O3_1h),105,68,46,22,19,210,210,126,126,18,29,16,12,0.8,0.7
2026-05-13T1300,1591A,110.0024,39.8127,鄂尔多斯市,综合楼,颗粒物(PM10),67,73,82,22,27,130,130,108,108,7,15,6,7,0.5,0.5
2026-05-13T1300,1592A,109.9485,39.8259,鄂尔多斯市,巴音孟克林场办事处,颗粒物(PM10),72,80,71,28,27,136,136,112,112,5,9,5,6,0.2,0.2
2026-05-13T1300,1593A,109.7734,39.5987,鄂尔多斯市,康泽苑,颗粒物(PM10),67,73,71,22,26,139,139,105,105,7,9,7,8,0.3,0.3
2026-05-13T1300,1594A,109.8121,39.5987,鄂尔多斯市,华泰汽车城,NA,NA,NA,65,NA,28,NA,NA,146,NA,NA,10,NA,10,NA,0.4
2026-05-13T1300,1595A,109.9734,39.7884,鄂尔多斯市,奥林花园,颗粒物(PM10),51,51,53,22,21,129,129,96,96,6,13,4,6,0.3,0.3
2026-05-13T1300,2436A,114.894,30.3989,鄂州市,市政府,,34,34,104,16,69,106,106,68,68,8,23,11,13,0.5,0.8
2026-05-13T1300,2437A,114.8986,30.3714,鄂州市,赵家坝,,42,42,93,16,67,106,106,63,63,2,12,21,23,0.5,0.8
2026-05-13T1300,3654A,114.8093,30.4091,鄂州市,精准医疗中心,,38,35,86,26,69,96,96,64,64,14,26,4,8,0.9,1
2026-05-13T1300,2454A,109.4978,30.2979,恩施土家族苗族自治州,湖北民院,,32,22,32,8,21,102,102,53,53,3,6,8,8,0.4,0.4
2026-05-13T1300,3549A,109.5061,30.3771,恩施土家族苗族自治州,龙凤新区,,29,19,31,13,19,91,91,38,38,7,9,7,6,0.3,0.3
2026-05-13T1300,2499A,108.3411,21.6159,防城港市,沙万,,21,21,24,8,9,45,45,42,42,2,5,8,8,0.5,0.5
2026-05-13T1300,2500A,108.3515,21.7733,防城港市,防城档案局,,16,16,23,7,6,50,50,44,44,1,4,6,6,0.5,0.5
2026-05-13T1300,2501A,108.3506,21.6414,防城港市,大海花园,,32,32,20,10,8,52,52,47,47,2,5,7,7,0.4,0.5
2026-05-13T1300,1371A,113.1293,23.0065,佛山市,湾梁,,31,22,29,9,18,97,97,64,64,8,17,/,/,/,/
2026-05-13T1300,1372A,113.1082,23.0477,佛山市,华材职中,NA,NA,22,35,NA,21,91,91,63,63,4,14,4,5,0.3,0.5
2026-05-13T1300,1373A,113.1439,23.045,佛山市,南海气象局,,36,36,35,9,21,98,98,64,64,5,20,/,/,/,/
2026-05-13T1300,1374A,113.2879,22.8094,佛山市,顺德苏岗,,27,NA,19,6,17,85,85,62,62,2,13,/,/,0.4,0.5
2026-05-13T1300,1376A,112.8384,22.8678,佛山市,高明孔堂,,22,19,25,9,14,70,70,56,56,5,8,/,/,/,/
2026-05-13T1300,1377A,112.8835,23.1584,佛山市,三水监测站,,25,14,36,10,30,80,80,41,41,11,31,2,3,0.5,0.6
2026-05-13T1300,1378A,112.8668,23.185,佛山市,三水云东海,,30,20,49,14,27,95,95,52,52,11,25,/,/,/,/
2026-05-13T1300,3625A,113.2568,22.7629,佛山市,容桂街道办,,27,9,23,7,16,85,85,58,58,8,18,/,/,/,/
2026-05-13T1300,1282A,119.2681,26.0506,福州市,师大,,38,31,33,26,20,57,57,65,56,24,18,4,6,0.6,0.5
2026-05-13T1300,1283A,119.2983,26.1028,福州市,五四北路,,35,NA,32,24,22,59,59,57,44,21,22,4,5,0.5,0.4
2026-05-13T1300,1284A,119.2648,26.0769,福州市,杨桥西路,,35,24,32,24,21,64,64,69,55,20,20,4,6,/,/
2026-05-13T1300,3048A,119.5799,26.0937,福州市,九龙,,21,16,20,10,15,67,67,50,50,10,11,5,5,0.2,0.2
2026-05-13T1300,3526A,119.5188,25.9666,福州市,吴航,,25,24,22,17,14,66,66,53,53,18,15,6,6,0.6,0.5
2026-05-13T1300,4104A,119.3106,26.0648,福州市,路通桥巷6号,,46,38,33,32,23,51,51,57,43,26,21,/,/,/,/
2026-05-13T1300,1755A,123.7974,41.8494,抚顺市,望花区,,46,39,41,23,17,146,146,129,129,13,18,7,7,0.6,0.6
2026-05-13T1300,1756A,123.9161,41.8827,抚顺市,顺城区,,47,37,32,18,13,148,148,124,124,11,14,12,10,0.6,0.6
2026-05-13T1300,1757A,124.0437,41.8615,抚顺市,东洲区,NA,NA,NA,68,18,17,136,136,131,131,7,10,11,13,0.6,0.6
2026-05-13T1300,1758A,123.9246,41.8638,抚顺市,新抚区,,47,37,39,18,17,149,149,124,124,9,12,9,8,0.7,0.6
2026-05-13T1300,1759A,124.0972,41.8961,抚顺市,大伙房水库,,41,29,38,16,14,130,130,126,126,6,7,9,9,0.4,0.4
2026-05-13T1300,1760A,123.708,41.8386,抚顺市,沈抚新城,,48,42,41,22,15,153,153,131,131,15,18,11,10,0.8,0.7
2026-05-13T1300,2377A,116.3544,27.9833,抚州市,市站,,25,22,41,13,29,78,78,65,65,4,13,3,6,1.0,1.1
2026-05-13T1300,2378A,116.3562,27.9631,抚州市,血防站,,28,28,42,10,29,78,78,66,66,6,14,6,6,0.4,0.5
2026-05-13T1300,2379A,116.3561,28.0007,抚州市,采茶剧团,,25,17,44,8,31,80,80,65,65,2,13,11,12,0.6,0.7
2026-05-13T1300,2380A,116.3854,27.9648,抚州市,医学分院,,26,15,46,8,28,83,83,68,68,4,11,6,8,0.9,1.1
2026-05-13T1300,2207A,121.6095,41.9978,阜新市,工业园区,臭氧1小时(O3_1h),72,59,68,19,14,177,177,132,132,15,11,18,11,0.8,0.5
2026-05-13T1300,2208A,121.6567,42.0188,阜新市,长青街,臭氧1小时(O3_1h),67,56,58,14,15,173,173,132,132,14,13,17,11,0.7,0.5
2026-05-13T1300,2209A,121.6672,42.07,阜新市,农业园区,臭氧1小时(O3_1h),70,71,61,20,15,176,176,133,133,16,12,16,8,0.7,0.5
2026-05-13T1300,2211A,121.6343,42.0455,阜新市,玉龙新城,臭氧1小时(O3_1h),70,66,60,18,15,176,176,134,134,14,11,18,10,0.7,0.4
2026-05-13T1300,2301A,115.8276,32.8929,阜阳市,市监测站,颗粒物(PM10),51,51,64,35,38,138,138,100,100,7,16,9,8,1.2,0.9
2026-05-13T1300,2303A,115.8551,32.8606,阜阳市,开发区,颗粒物(PM10),53,54,68,31,44,133,133,92,92,7,18,6,6,0.6,0.6
2026-05-13T1300,2875A,115.783962,32.889217,阜阳市,阜阳职业技术学院,颗粒物(PM10),55,56,54,36,36,143,143,111,111,3,10,8,8,0.5,0.6
2026-05-13T1300,3468A,115.79,32.8614,阜阳市,市规划展馆,颗粒物(PM10),60,63,55,29,37,139,139,108,108,2,8,9,9,0.8,0.8
2026-05-13T1300,3469A,115.835101,32.918568,阜阳市,枣园社区,颗粒物(PM10),52,52,60,26,36,149,149,90,90,8,30,8,8,0.6,0.6
2026-05-13T1300,2669A,102.9097,34.9841,甘南藏族自治州,州政府,细颗粒物(PM2.5),108,NA,56,68,34,119,119,70,70,2,21,8,8,0.2,0.4
2026-05-13T1300,3380A,102.8915,34.9618,甘南藏族自治州,甘肃民族师范学院,,50,50,75,14,25,138,138,77,77,4,29,2,3,0.1,0.2
2026-05-13T1300,2570A,101.96,30.048,甘孜藏族自治州,水桥子,NA,NA,9,17,3,7,116,116,11,NA,2,22,NA,7,0.2,0.3
2026-05-13T1300,3065A,101.9534,29.9976,甘孜藏族自治州,州环保局,,42,9,14,3,6,133,133,76,76,6,19,8,7,0.6,0.6
2026-05-13T1300,2363A,114.9368,25.8663,赣州市,地委,,35,35,34,16,18,68,68,38,38,6,6,1,2,1.1,1
2026-05-13T1300,2364A,114.946,25.8483,赣州市,气象台,,35,25,33,24,24,64,64,38,36,10,12,2,4,0.6,0.5
2026-05-13T1300,2365A,114.932,25.8332,赣州市,市图书馆,,28,28,29,19,21,69,69,48,47,13,10,4,5,0.6,0.6
2026-05-13T1300,2366A,114.8905,25.8472,赣州市,华坚鞋城,,41,41,36,20,21,68,68,44,38,17,15,8,7,0.5,0.4
2026-05-13T1300,3109A,115.0094,25.8614,赣州市,赣县区卫计委,NA,NA,52,28,12,19,61,61,41,41,6,10,NA,4,0.6,0.6
2026-05-13T1300,2684A,106.2753,36.0057,固原市,监测站,,38,36,32,26,19,120,120,110,110,4,8,7,7,0.3,0.4
2026-05-13T1300,2685A,106.2384,36.0189,固原市,新区,,44,44,31,16,12,115,115,107,107,6,7,5,5,0.4,0.4
2026-05-13T1300,2544A,106.6307,30.4577,广安市,市委,,37,28,46,18,38,118,118,79,79,5,10,8,8,0.4,0.5
2026-05-13T1300,2545A,106.6266,30.4662,广安市,友谊中学,,35,29,49,15,35,112,112,62,NA,6,9,8,8,0.4,0.7
2026-05-13T1300,2547A,106.6386,30.4551,广安市,广电花园,,35,26,48,21,43,110,110,70,70,7,12,7,7,0.5,0.6
2026-05-13T1300,2902A,106.6347,30.4868,广安市,北辰小学,,34,33,50,21,41,106,106,73,73,6,10,6,7,0.4,0.5
2026-05-13T1300,2524A,105.8211,32.4444,广元市,老城,,36,12,31,10,17,114,114,NA,NA,8,16,1,2,1.0,0.7
2026-05-13T1300,2526A,105.8629,32.429,广元市,监测站,,35,28,46,11,21,109,109,61,61,10,16,3,5,0.5,0.5
2026-05-13T1300,3617A,105.8047,32.4167,广元市,经开区,,36,20,34,14,26,113,113,54,54,9,22,3,5,0.6,0.6
2026-05-13T1300,1345A,113.2346,23.1423,广州市,广雅中学,,28,20,33,8,20,88,88,50,50,1,16,2,2,0.7,0.8
2026-05-13T1300,1346A,113.2611,23.105,广州市,市五中,,34,17,33,9,22,107,107,57,57,8,27,3,4,/,/
2026-05-13T1300,1348A,113.3477,23.0916,广州市,广东商学院,,28,15,30,7,21,87,87,56,56,14,36,4,4,0.7,0.8
2026-05-13T1300,1349A,113.4332,23.105,广州市,市八十六中,,35,15,26,8,15,110,110,54,54,10,40,5,6,/,/
2026-05-13T1300,1350A,113.3506,22.9488,广州市,番禺中学,,30,16,27,8,18,96,96,60,60,2,21,4,5,0.6,0.8
2026-05-13T1300,1351A,113.2147,23.3918,广州市,花都师范,,38,23,39,12,25,121,121,58,58,12,30,7,7,0.8,1
2026-05-13T1300,1352A,113.2599,23.1329,广州市,市监测站,,30,19,32,10,20,94,94,51,51,3,20,2,3,/,/
2026-05-13T1300,1353A,113.5618,23.3119,广州市,九龙镇镇龙,,35,16,43,8,28,110,110,47,47,12,31,6,6,0.4,0.6
2026-05-13T1300,1354A,113.2764,23.1544,广州市,麓湖,,33,17,32,8,21,104,104,55,55,6,26,6,6,0.5,0.7
2026-05-13T1300,2846A,113.3209,23.1323,广州市,体育西,,34,21,34,9,19,106,106,53,53,9,32,5,6,0.6,0.8
2026-05-13T1300,3298A,113.5718,23.5493,广州市,从化街口,,35,14,51,8,38,110,110,53,53,8,20,5,5,0.6,0.9
2026-05-13T1300,3299A,113.3463,23.369,广州市,白云竹料,,36,19,42,9,26,114,114,54,54,12,27,3,4,0.6,0.8
2026-05-13T1300,3300A,113.2981,23.2365,广州市,白云嘉禾,,35,21,45,10,23,111,111,53,53,12,40,7,7,/,/
2026-05-13T1300,3301A,113.4256,23.1716,广州市,黄埔科学城,,23,14,30,8,20,72,72,38,38,7,23,6,5,0.6,0.8
2026-05-13T1300,3302A,113.3942,23.0485,广州市,番禺大学城,,35,24,34,3,15,112,112,70,70,10,31,6,7,0.5,0.7
2026-05-13T1300,3303A,113.4923,22.8169,广州市,南沙黄阁,,34,28,31,9,14,108,108,68,68,10,20,6,7,/,/
2026-05-13T1300,3304A,113.534,22.7893,广州市,南沙街,,32,15,27,6,11,101,101,66,66,8,17,7,7,0.4,0.5
2026-05-13T1300,3443A,113.2905,23.5541,广州市,花都梯面,,29,24,44,12,28,90,90,42,42,12,23,9,9,/,/
2026-05-13T1300,3445A,113.786,23.7479,广州市,从化良口,,31,19,38,13,30,99,99,49,49,8,13,4,4,/,/
2026-05-13T1300,3446A,113.805,23.2614,广州市,增城荔城,,46,20,42,13,29,146,146,63,63,9,22,8,7,0.5,0.7
2026-05-13T1300,2506A,109.604387,23.066791,贵港市,江南子站,,20,19,23,11,12,63,63,29,29,4,13,8,8,0.6,0.6
2026-05-13T1300,2508A,109.5669,23.1065,贵港市,荷城子站,,20,19,21,8,11,61,61,30,30,9,14,5,4,0.6,0.6
2026-05-13T1300,3405A,109.5886,23.1172,贵港市,新世纪学校,,24,24,21,11,12,64,64,31,31,9,15,/,/,0.5,0.5
2026-05-13T1300,4260A,109.5933,23.095,贵港市,中山路155-3号,,30,30,27,21,12,72,72,34,34,5,13,/,/,0.4,0.4
2026-05-13T1300,1439A,106.6863,26.6035,贵阳市,马鞍山,,25,24,20,13,12,79,79,39,39,8,12,7,4,/,/
2026-05-13T1300,1441A,106.6241,26.6266,贵阳市,鉴湖路,,30,29,32,13,12,94,94,49,49,7,11,11,8,0.6,0.7
2026-05-13T1300,1442A,106.7468,26.6344,贵阳市,燕子冲,,29,29,34,16,18,88,88,32,32,8,14,20,9,0.6,0.8
2026-05-13T1300,1443A,106.6556,26.4362,贵阳市,碧云窝,,31,31,30,12,14,81,81,56,56,5,8,7,9,/,/
2026-05-13T1300,1445A,106.6963,26.6063,贵阳市,红边门,,26,24,26,18,16,82,82,39,39,11,19,7,6,/,/
2026-05-13T1300,1446A,106.7162383,26.56964667,贵阳市,新华路,NA,NA,NA,31,NA,15,102,102,60,60,9,16,82,15,0.2,0.5
2026-05-13T1300,1447A,106.6742,26.542,贵阳市,太慈桥,,27,27,22,13,14,78,78,46,46,7,10,6,5,/,/
2026-05-13T1300,4230A,106.688212,26.56952,贵阳市,花果园大街66号,,26,19,12,13,15,83,83,46,46,6,11,3,3,/,/
2026-05-13T1300,4231A,106.687268,26.516892,贵阳市,漓江路57号,,22,17,18,14,14,70,70,40,40,8,12,6,7,0.6,0.6
2026-05-13T1300,1864A,110.3091,25.2705,桂林市,龙隐路小学,,40,40,52,19,35,54,54,20,20,9,22,4,5,0.5,0.8
2026-05-13T1300,1865A,110.2849361,25.22909545,桂林市,八中,,36,36,55,8,25,54,54,24,24,10,26,4,5,0.6,0.9
2026-05-13T1300,3531A,110.296,25.1254,桂林市,旅游学院,,23,23,48,12,44,54,54,25,25,2,18,7,9,0.3,0.5
2026-05-13T1300,4222A,110.1835,25.2444,桂林市,环湖路276号,,22,22,46,11,38,42,42,17,17,6,20,6,8,0.3,0.6
2026-05-13T1300,4301A,110.2803,25.2773,桂林市,信义路13号,,37,37,49,14,37,52,52,20,20,5,22,4,6,0.7,0.9
2026-05-13T1300,2674A,100.2262,34.4854,果洛藏族自治州,玛沁县大武镇,,39,23,28,9,8,123,123,92,92,2,2,21,20,0.4,0.4
2026-05-13T1300,1130A,126.5557,45.8109,哈尔滨市,松北商大,,48,24,39,16,25,153,153,118,118,7,19,6,7,0.4,0.5
2026-05-13T1300,1132A,126.6162,45.719,哈尔滨市,南岗学府路,,49,31,46,13,18,154,154,119,119,8,18,3,7,0.4,0.3
2026-05-13T1300,1133A,126.6894,45.7733,哈尔滨市,太平宏伟公园,,46,37,42,10,17,145,145,111,111,11,19,7,8,0.3,0.3
2026-05-13T1300,1134A,126.6361,45.7672,哈尔滨市,道外承德广场,,44,40,57,6,14,138,138,106,106,15,21,2,2,1.0,0.4
2026-05-13T1300,1136A,126.644,45.7261,哈尔滨市,动力和平路,,45,22,41,11,20,141,141,110,110,8,16,6,7,0.4,0.5
2026-05-13T1300,1137A,126.5933,45.7479,哈尔滨市,道里建国路,颗粒物(PM10),53,53,40,17,23,149,149,115,115,11,21,6,6,0.7,0.9
2026-05-13T1300,1138A,126.6127,45.6119,哈尔滨市,平房东轻厂,,50,17,31,3,20,158,158,127,127,9,14,5,9,0.5,0.7
2026-05-13T1300,1139A,126.5875,45.9827,哈尔滨市,呼兰师专,,48,48,46,17,20,139,139,109,109,12,17,14,13,0.2,0.3
2026-05-13T1300,1140A,126.6299,45.6799,哈尔滨市,省农科院,颗粒物(PM10),60,63,71,20,23,128,128,98,98,13,23,6,7,0.6,0.6
2026-05-13T1300,4282A,126.6769,45.7379,哈尔滨市,华山路1号,,47,17,42,13,18,150,150,120,120,8,15,7,7,0.2,0.3
2026-05-13T1300,4283A,126.9717,45.5356,哈尔滨市,解放大街52号,,48,23,37,3,7,153,153,129,129,7,14,3,4,0.4,0.5
2026-05-13T1300,2688A,93.5124,42.8176,哈密市,地区监测站,,41,41,112,16,28,97,97,92,86,4,4,3,5,0.1,0.1
2026-05-13T1300,2689A,93.5014,42.8312,哈密市,哈密师范学校,颗粒物(PM10),69,76,140,19,27,102,102,95,90,5,5,1,2,0.1,0.1
2026-05-13T1300,2671A,100.9016,36.9464,海北藏族自治州,海晏县西海镇,,44,37,34,17,17,138,138,100,100,1,3,7,7,0.3,0.4
2026-05-13T1300,3867A,102.074,36.5056,海东市,平安区公安局北苑,NA,NA,63,60,28,30,126,126,79,79,10,11,NA,11,NA,0.5
2026-05-13T1300,4163A,102.0984,36.5119,海东市,滨河路,颗粒物(PM10),66,72,58,20,22,101,101,52,52,16,35,35,13,0.7,0.6
2026-05-13T1300,1410A,110.3189,20.0596,海口市,海南大学,,26,23,20,14,10,82,82,53,53,15,5,5,5,0.4,0.4
2026-05-13T1300,1411A,110.2827,20.0051,海口市,秀英海南医院,,22,17,18,11,11,70,70,50,50,8,11,6,6,0.3,0.3
2026-05-13T1300,1412A,110.3391,19.9979,海口市,海南师范大学,,22,16,22,8,10,70,70,45,45,3,5,3,3,0.3,0.4
2026-05-13T1300,1413A,110.3303,20.0359,海口市,龙华路环保局宿舍,,26,22,23,12,10,83,83,54,54,9,5,/,/,0.4,0.3
2026-05-13T1300,3539A,110.5111,19.9737,海口市,桂林洋子站,,20,12,23,8,10,62,62,42,42,4,6,/,/,/,/
2026-05-13T1300,4134A,110.1952,20.0451,海口市,长滨二路9号,,32,26,18,14,10,100,100,53,53,10,6,/,/,/,/
2026-05-13T1300,2673A,100.6158,36.2985,海南藏族自治州,共和县恰卜恰镇,,45,34,37,18,20,143,143,98,98,2,8,10,10,0.3,0.3
2026-05-13T1300,2676A,97.373,37.376,海西蒙古族藏族自治州,德令哈市,,46,46,30,10,9,135,135,125,125,1,2,15,16,0.3,0.3
2026-05-13T1300,1049A,114.492,36.5712,邯郸市,矿院,颗粒物(PM10),63,68,65,36,44,146,146,108,108,2,5,3,3,0.5,0.5
2026-05-13T1300,1050A,114.4839,36.6136,邯郸市,丛台公园,细颗粒物(PM2.5),64,44,61,42,44,142,142,100,100,1,5,7,7,0.5,0.5
2026-05-13T1300,3458A,114.7893,36.5592,邯郸市,香泉濮院小区,细颗粒物(PM2.5),68,69,72,44,45,123,123,86,86,8,10,3,2,0.4,0.4
2026-05-13T1300,3580A,114.1998,36.4439,邯郸市,峰峰矿区临水派出所,颗粒物(PM10),69,76,67,41,44,165,165,132,132,1,3,2,3,0.6,0.6
2026-05-13T1300,4068A,114.5209,36.7697,邯郸市,建安街268号,颗粒物(PM10),61,65,66,35,35,156,156,117,117,9,12,1,2,0.4,0.4
2026-05-13T1300,4069A,114.5488,36.6177,邯郸市,丛台东路558号,NA,NA,55,72,46,43,138,138,103,103,NA,9,4,4,0.4,0.6
2026-05-13T1300,2635A,107.0155,33.0707,汉中市,市监测站,细颗粒物(PM2.5),62,47,43,41,36,64,64,39,39,13,14,5,6,0.8,0.7
2026-05-13T1300,2636A,107.0083,33.114,汉中市,鑫源开发区,"颗粒物(PM10),细颗粒物(PM2.5)",56,58,47,38,40,74,74,40,40,14,18,12,10,1.2,0.8
2026-05-13T1300,2637A,107.0072,33.0323,汉中市,南郑大河坎水厂,,50,50,47,35,34,66,66,33,33,12,14,5,5,0.7,0.6
2026-05-13T1300,1223A,120.2073,30.2111,杭州市,滨江,臭氧1小时(O3_1h),80,49,67,26,39,184,184,88,88,16,27,10,9,0.7,0.8
2026-05-13T1300,1224A,120.0625,30.2737,杭州市,西溪,臭氧1小时(O3_1h),92,59,59,29,40,193,193,89,89,16,22,6,5,1.2,1.1
2026-05-13T1300,1226A,120.3417,30.315,杭州市,下沙,臭氧1小时(O3_1h),68,69,77,29,38,174,174,68,68,17,33,8,7,0.8,0.7
2026-05-13T1300,1227A,120.1252,30.2465,杭州市,卧龙桥,臭氧1小时(O3_1h),78,42,49,27,34,182,182,96,96,14,25,10,8,0.5,0.3
2026-05-13T1300,1228A,120.1902,30.2691,杭州市,浙江农大,臭氧1小时(O3_1h),70,36,61,23,40,176,176,88,88,11,31,8,7,0.4,0.4
2026-05-13T1300,1230A,120.1195,30.3121,杭州市,和睦小学,臭氧1小时(O3_1h),94,44,54,24,38,195,195,102,102,12,22,9,9,0.6,0.5
2026-05-13T1300,1231A,120.3076,30.4146,杭州市,临平镇,臭氧1小时(O3_1h),106,64,63,43,39,212,212,86,86,23,26,9,8,0.6,0.6
2026-05-13T1300,1232A,120.2753,30.1839,杭州市,城厢镇,臭氧1小时(O3_1h),70,56,66,32,40,176,176,83,83,17,26,9,8,0.8,0.7
2026-05-13T1300,1233A,120.0883,30.1808,杭州市,云栖,臭氧1小时(O3_1h),63,55,53,38,37,170,170,10,NA,25,35,10,7,0.8,0.7
2026-05-13T1300,3557A,119.9463,30.0496,杭州市,镇二中,,42,37,41,28,28,134,134,59,59,16,37,7,6,0.7,0.7
2026-05-13T1300,3558A,119.7184,30.2367,杭州市,市府大楼,,46,39,45,30,35,146,146,87,87,11,18,10,8,0.6,0.5
2026-05-13T1300,3656A,120.1554,30.2863,杭州市,消防大队,臭氧1小时(O3_1h),55,47,75,19,39,164,164,93,93,6,20,8,7,0.5,0.6
2026-05-13T1300,1270A,117.1957,31.7845,合肥市,明珠广场,细颗粒物(PM2.5),92,83,75,56,55,156,156,96,96,8,24,9,8,0.8,0.8
2026-05-13T1300,1271A,117.307,31.8765,合肥市,三里街,颗粒物(PM10),62,66,69,38,48,145,145,96,96,11,26,8,8,0.7,0.7
2026-05-13T1300,1272A,117.2587,31.8703,合肥市,琥珀山庄,细颗粒物(PM2.5),68,68,69,44,45,153,153,105,105,7,19,7,8,0.7,0.8
2026-05-13T1300,1275A,117.2593,31.9376,合肥市,庐阳区,细颗粒物(PM2.5),72,78,70,46,44,151,151,100,100,8,26,10,9,0.9,0.8
2026-05-13T1300,1276A,117.345251,31.861615,合肥市,瑶海区,细颗粒物(PM2.5),84,70,70,52,46,162,162,105,105,10,25,9,8,0.8,0.7
2026-05-13T1300,1277A,117.3033,31.7967,合肥市,包河区,细颗粒物(PM2.5),86,92,72,53,43,163,163,104,104,10,35,11,10,0.8,0.8
2026-05-13T1300,1278A,117.278,31.7392,合肥市,滨湖新区,细颗粒物(PM2.5),84,75,67,52,44,163,163,84,NA,5,10,10,8,0.8,0.7
2026-05-13T1300,1279A,117.1324,31.8395,合肥市,高新区,细颗粒物(PM2.5),70,63,71,45,46,156,156,96,96,6,20,8,7,0.6,0.6
2026-05-13T1300,3464A,117.3802,31.9148,合肥市,高教基地,细颗粒物(PM2.5),66,70,70,43,44,151,151,90,90,11,21,11,10,0.9,0.7
2026-05-13T1300,4098A,117.2518,31.8404,合肥市,中国科学技术大学,细颗粒物(PM2.5),76,75,76,48,46,167,167,108,108,5,20,10,9,0.8,0.8
2026-05-13T1300,3614A,79.9241,37.0878,和田地区,地区环保局,颗粒物(PM10),144,232,225,50,52,118,118,100,100,3,6,1,2,0.3,0.4
2026-05-13T1300,3615A,79.9132,37.1137,和田地区,市环保局,颗粒物(PM10),143,231,214,55,51,128,128,106,106,3,8,1,3,NA,0.5
2026-05-13T1300,2517A,108.0496,24.6957,河池市,市环保站,颗粒物(PM10),52,52,51,29,32,56,56,15,15,9,15,7,6,0.8,0.9
2026-05-13T1300,4302A,108.0901,24.6945,河池市,上任中路54号,颗粒物(PM10),53,53,57,22,29,52,52,14,14,10,21,7,7,0.8,1
2026-05-13T1300,1697A,114.6962,23.7538,河源市,东埔,,40,23,47,19,34,128,128,78,78,11,15,3,4,0.6,0.7
2026-05-13T1300,1698A,114.6895,23.7232,河源市,老城,,40,40,51,19,33,126,126,75,75,8,16,2,6,0.5,0.6
2026-05-13T1300,3374A,115.5562,35.089,菏泽市,定陶老年大学,,39,34,38,24,33,123,123,109,109,8,12,6,6,0.4,0.5
2026-05-13T1300,4114A,115.4239,35.2593,菏泽市,黄河路600号,颗粒物(PM10),51,51,52,35,38,120,120,100,100,6,9,2,2,0.4,0.4
2026-05-13T1300,4115A,115.5025,35.2727,菏泽市,菏泽市人社局,颗粒物(PM10),55,56,58,30,35,108,108,96,96,9,13,8,7,0.5,0.6
2026-05-13T1300,4184A,115.479691,35.244011,菏泽市,永昌路1号,,48,NA,33,33,34,124,124,114,114,5,9,7,7,0.6,0.6
2026-05-13T1300,4193A,115.471542,35.280012,菏泽市,长城路999号,,45,41,48,31,35,115,115,101,101,5,9,4,4,0.4,0.5
2026-05-13T1300,2514A,111.5264,24.4178,贺州市,环保小区,颗粒物(PM10),53,54,55,35,42,40,40,20,20,28,32,9,9,0.6,0.7
2026-05-13T1300,2515A,111.561,24.4074,贺州市,政协大楼,,45,35,41,31,43,62,62,41,41,17,21,12,14,0.7,0.8
2026-05-13T1300,3534A,111.4744,24.455,贺州市,西湾,,48,42,74,33,41,48,48,21,21,18,21,11,11,0.7,0.8
2026-05-13T1300,2385A,114.17,35.9019,鹤壁市,市监测站,细颗粒物(PM2.5),123,92,70,85,62,146,146,90,90,14,13,7,6,0.9,0.7
2026-05-13T1300,2386A,114.2953,35.7512,鹤壁市,市交警支队,细颗粒物(PM2.5),115,103,83,76,52,140,140,74,74,14,15,11,6,0.8,0.8
2026-05-13T1300,2387A,114.2877,35.7302,鹤壁市,迎宾馆,细颗粒物(PM2.5),116,110,90,77,55,154,154,81,81,9,12,9,6,0.8,0.7
2026-05-13T1300,3474A,114.2616,35.6824,鹤壁市,大新区,细颗粒物(PM2.5),109,113,84,69,57,158,158,82,82,13,17,4,4,0.9,0.8
2026-05-13T1300,3596A,114.1573,35.9607,鹤壁市,南山宾馆,细颗粒物(PM2.5),127,100,86,89,67,150,150,87,86,9,10,11,9,1.0,0.9
2026-05-13T1300,2244A,130.2537,47.3416,鹤岗市,哈啤分公司,,33,33,157,8,162,85,85,89,74,9,20,8,12,0.2,0.7
2026-05-13T1300,2245A,130.2683,47.3087,鹤岗市,斯达机电,,30,30,183,10,176,93,93,91,80,9,21,7,12,0.2,0.7
2026-05-13T1300,2246A,130.3114,47.3388,鹤岗市,东山纸板厂,,41,41,220,16,188,89,89,87,79,7,24,7,14,0.2,0.8
2026-05-13T1300,2263A,127.4832,50.2524,黑河市,交通局,细颗粒物(PM2.5),124,106,81,86,62,134,134,101,101,14,18,8,8,0.5,0.6
2026-05-13T1300,2264A,127.5146,50.2339,黑河市,环保局,细颗粒物(PM2.5),116,96,75,77,61,134,134,103,103,13,18,8,8,0.5,0.5
2026-05-13T1300,1074A,115.6839,37.754,衡水市,电机北厂,颗粒物(PM10),85,98,79,36,39,157,157,126,126,7,10,3,5,0.5,0.5
2026-05-13T1300,1075A,115.6303,37.7318,衡水市,市监测站,颗粒物(PM10),78,89,75,34,33,154,154,120,120,7,12,10,8,0.2,0.7
2026-05-13T1300,3188A,115.6684,37.7216,衡水市,市城管局,颗粒物(PM10),65,70,71,34,37,157,157,123,123,7,10,4,4,0.4,0.4
2026-05-13T1300,3459A,115.599,37.5491,衡水市,地表水厂,颗粒物(PM10),68,75,75,19,25,155,155,119,119,2,8,7,6,0.3,0.4
2026-05-13T1300,2457A,112.6209,26.9268,衡阳市,衡阳化工总厂,,23,20,27,16,18,50,50,44,44,4,7,5,7,0.7,0.7
2026-05-13T1300,2458A,112.621,26.8957,衡阳市,珠晖区环保局,,30,28,28,21,18,46,46,38,38,12,15,6,7,0.6,0.5
2026-05-13T1300,2459A,112.628,26.8654,衡阳市,市委党校,,29,27,25,20,20,50,50,44,41,2,5,8,8,0.8,0.7
2026-05-13T1300,2460A,112.6007,26.8977,衡阳市,市监测站,,24,24,26,14,18,49,49,43,39,9,12,6,8,0.8,0.7
2026-05-13T1300,2461A,112.5658,26.9013,衡阳市,真空机电公司,,38,26,26,26,24,48,48,46,43,12,12,7,7,1.0,0.8
2026-05-13T1300,3399A,112.6703,26.8817,衡阳市,师范学院,,24,24,30,10,20,57,57,44,42,2,4,6,7,0.6,0.6
2026-05-13T1300,3038A,103.3757,23.3679,红河哈尼族彝族自治州,州图书馆,,32,10,11,7,8,101,101,78,78,4,5,3,3,0.2,0.2
2026-05-13T1300,4154A,103.401,23.3561,红河哈尼族彝族自治州,蒙自市朝阳路,,30,13,13,3,8,96,96,79,79,2,2,7,7,0.5,0.3
2026-05-13T1300,1090A,111.6506,40.7517,呼和浩特市,呼市一监,颗粒物(PM10),95,112,97,36,33,151,151,82,82,12,22,15,14,0.3,0.4
2026-05-13T1300,1094A,111.7516,40.8369,呼和浩特市,如意水处理厂,颗粒物(PM10),94,111,99,44,42,166,166,98,98,11,37,15,11,0.5,0.5
2026-05-13T1300,1095A,111.727798,40.806187,呼和浩特市,二十九中,颗粒物(PM10),99,118,100,31,36,142,142,79,79,13,26,16,13,0.5,0.5
2026-05-13T1300,1097A,111.717,40.7617,呼和浩特市,化肥厂生活区,颗粒物(PM10),93,109,104,31,55,157,157,91,91,12,29,13,12,0.4,0.5
2026-05-13T1300,3699A,111.6519,40.8389,呼和浩特市,海东办,细颗粒物(PM2.5),106,129,96,66,45,146,146,79,79,16,30,16,10,0.4,0.4
2026-05-13T1300,4275A,111.591512,40.827312,呼和浩特市,成吉思汗西街8号,颗粒物(PM10),101,122,103,35,38,144,144,75,75,25,38,19,10,0.4,0.4
2026-05-13T1300,4276A,111.6597,40.8077,呼和浩特市,公园东路75号,颗粒物(PM10),98,117,101,30,36,148,148,90,90,14,24,13,12,0.6,0.6
2026-05-13T1300,4277A,111.5427,40.7846,呼和浩特市,金海路35号,颗粒物(PM10),100,119,107,56,50,130,130,76,76,21,27,21,11,0.5,0.5
2026-05-13T1300,3061A,119.7511,49.1576,呼伦贝尔市,国华电力东,,37,29,40,9,19,116,116,95,95,5,8,4,5,0.4,0.4
2026-05-13T1300,4279A,119.7569,49.2222,呼伦贝尔市,伊敏大街东7号,,38,38,41,12,19,113,113,89,89,7,10,6,8,0.5,0.5
2026-05-13T1300,1250A,120.075,30.867,湖州市,城西水厂,臭氧1小时(O3_1h),112,85,50,70,37,224,224,100,100,21,19,10,8,0.6,0.6
2026-05-13T1300,2873A,120.083,30.8929,湖州市,仁皇山新区,臭氧1小时(O3_1h),104,92,53,60,40,207,207,90,90,29,23,10,8,0.7,0.6
2026-05-13T1300,2907A,120.1846,30.8592,湖州市,吴兴区站,臭氧1小时(O3_1h),106,86,48,65,38,211,211,91,91,22,17,9,8,0.6,0.5
2026-05-13T1300,3562A,120.4146,30.8538,湖州市,南浔区站,臭氧1小时(O3_1h),65,42,43,34,36,172,172,85,85,15,15,8,8,0.7,0.7
2026-05-13T1300,1607A,120.904878,40.721091,葫芦岛市,龙港区,,41,36,27,24,17,130,130,121,116,15,10,10,9,0.5,0.4
2026-05-13T1300,1608A,120.8382,40.7521,葫芦岛市,化工街,,48,48,34,23,20,122,122,110,107,17,14,10,13,0.4,0.5
2026-05-13T1300,1609A,120.8339,40.7078,葫芦岛市,新区,颗粒物(PM10),52,52,33,23,19,123,123,117,109,13,10,9,9,0.6,0.5
2026-05-13T1300,1610A,120.8697,40.7679,葫芦岛市,东城区,,49,49,33,23,21,134,134,118,113,15,13,11,9,0.6,0.5
2026-05-13T1300,2483A,109.9297,27.5383,怀化市,河西地税局,,20,9,21,7,20,64,64,63,54,5,8,6,6,/,/
2026-05-13T1300,2484A,109.9783,27.5342,怀化市,市四医院,,16,16,25,10,20,50,50,51,46,6,6,5,5,0.4,0.4
2026-05-13T1300,2485A,109.9971,27.5579,怀化市,监测楼,,19,19,21,11,15,49,49,49,44,4,5,5,4,0.3,0.3
2026-05-13T1300,1210A,119.0566,33.5991,淮安市,钵池山,臭氧1小时(O3_1h),58,39,40,20,28,166,166,120,120,9,15,10,11,0.4,0.5
2026-05-13T1300,1211A,119.0083,33.578,淮安市,北京南路,臭氧1小时(O3_1h),54,51,45,23,29,163,163,123,123,8,15,7,9,0.4,0.4
2026-05-13T1300,1212A,118.9938,33.6083,淮安市,市监测站,臭氧1小时(O3_1h),65,41,36,26,28,172,172,137,137,9,14,8,8,0.5,0.5
2026-05-13T1300,1213A,119.135,33.5038,淮安市,楚州区监测站,臭氧1小时(O3_1h),55,39,42,17,32,164,164,106,106,8,17,7,7,0.5,0.5
2026-05-13T1300,3426A,118.8757,33.2897,淮安市,新华书店,臭氧1小时(O3_1h),54,48,46,29,25,163,163,112,112,5,11,9,9,1.1,1
2026-05-13T1300,4092A,119.119691,33.550006,淮安市,枚皋中路89号,臭氧1小时(O3_1h),54,42,42,17,31,163,163,115,115,4,9,8,8,0.7,0.7
2026-05-13T1300,4206A,119.028838,33.631911,淮安市,承德北路606号,臭氧1小时(O3_1h),53,48,49,21,30,162,162,117,117,7,15,7,8,0.4,0.5
2026-05-13T1300,2282A,116.8005,33.9749,淮北市,监测站,颗粒物(PM10),59,62,57,26,39,160,160,125,125,8,9,9,9,0.4,0.4
2026-05-13T1300,2283A,116.8094,33.9008,淮北市,烈山区政府,颗粒物(PM10),63,68,68,28,33,163,163,118,118,12,11,12,10,0.3,0.3
2026-05-13T1300,4017A,116.7926,33.9534,淮北市,市博物馆,颗粒物(PM10),60,64,58,38,34,166,166,124,124,10,11,8,8,0.7,0.7
2026-05-13T1300,4100A,116.8322,33.9884,淮北市,杜集区第一实验学校,颗粒物(PM10),67,73,64,24,32,164,164,125,124,11,8,8,7,0.7,0.7
2026-05-13T1300,2277A,116.8304,32.7726,淮南市,潘集区政府,颗粒物(PM10),61,65,65,23,44,151,151,101,101,9,17,9,9,0.7,0.7
2026-05-13T1300,2279A,116.8569,32.5949,淮南市,谢家集区政府,,48,40,60,31,41,151,151,108,108,14,21,10,11,0.5,0.4
2026-05-13T1300,2280A,116.8279,32.6333,淮南市,八公山区政府,颗粒物(PM10),57,59,69,31,45,148,148,105,105,7,10,8,8,0.4,0.5
2026-05-13T1300,2894A,117.0561,32.6536,淮南市,经济技术开发区消防队,,41,39,52,18,41,129,129,90,90,7,16,9,9,0.5,0.6
2026-05-13T1300,3329A,117.011,32.5891,淮南市,山南新区,,50,50,65,20,39,130,130,100,92,7,14,10,10,0.4,0.5
2026-05-13T1300,4209A,117.003137,32.644456,淮南市,国庆中路369号,,40,39,68,17,41,127,127,98,97,3,10,9,10,0.2,0.3
2026-05-13T1300,2446A,114.9021,30.474,黄冈市,职工中心,,32,24,85,14,76,100,100,71,71,4,14,5,8,0.7,1
2026-05-13T1300,2929A,114.8858,30.4519,黄冈市,红卫路,,33,26,80,22,75,103,103,76,76,4,16,6,11,0.4,0.7
2026-05-13T1300,3398A,114.9134,30.4446,黄冈市,市林业局,,32,31,96,22,86,100,100,76,76,5,19,4,11,0.4,0.9
2026-05-13T1300,2672A,102.02,35.5101,黄南藏族自治州,同仁县隆务镇,,45,36,39,9,20,142,142,107,107,2,2,8,8,0.1,0.4
2026-05-13T1300,2295A,118.2905,29.6965,黄山市,延安路89号,,50,38,29,35,24,106,106,57,57,5,10,7,6,0.4,0.3
2026-05-13T1300,2297A,118.1369,30.2755,黄山市,黄山区政府5号楼,,32,28,35,16,31,101,101,52,52,3,6,4,3,0.4,0.4
2026-05-13T1300,4210A,118.335445,29.720283,黄山市,滨江东路7-2号,,42,42,41,24,25,117,117,54,54,6,10,/,/,/,/
2026-05-13T1300,2423A,115.0547,30.2332,黄石市,沈家营,,40,40,100,12,69,93,93,61,61,4,25,4,5,0.3,0.6
2026-05-13T1300,2426A,114.899,30.211,黄石市,铁山,,29,22,69,16,52,90,90,71,71,2,17,7,11,0.6,1.1
2026-05-13T1300,2427A,115.0259,30.2108,黄石市,团城山,,35,35,80,20,62,106,106,78,78,2,16,4,6,0.5,0.8
2026-05-13T1300,3149A,115.0174,30.1591,黄石市,笔架山北路,,32,32,106,15,65,96,96,67,67,2,13,4,6,0.2,0.5
2026-05-13T1300,4185A,115.078022,30.21118,黄石市,磁湖东路29号,,36,34,98,10,68,114,114,89,89,4,25,4,7,0.1,0.5
2026-05-13T1300,1392A,114.4181,23.0528,惠州市,河南岸金山湖子站,,38,11,41,7,27,120,120,69,69,12,18,7,6,0.5,0.7
2026-05-13T1300,1393A,114.4055,23.0824,惠州市,下埔横江三路子站,,39,12,53,6,30,122,122,72,72,7,17,6,6,0.6,0.8
2026-05-13T1300,1395A,114.4645,22.7832,惠州市,惠阳区承修路船湖子站,,33,10,31,6,19,105,105,61,61,10,19,6,6,0.4,0.6
2026-05-13T1300,1396A,114.5316,22.7423,惠州市,大亚湾管委会子站,,31,11,32,6,16,99,99,63,63,7,19,4,4,0.5,0.6
2026-05-13T1300,3314A,114.4334,22.8134,惠州市,惠阳秋长,,36,27,54,3,27,114,114,58,58,12,29,/,/,/,/
2026-05-13T1300,3452A,114.6521,22.7755,惠州市,大亚湾霞涌,,30,30,19,3,12,86,86,65,65,7,11,/,/,/,/
2026-05-13T1300,4300A,114.4089,23.1147,惠州市,文华一路1号,,40,9,44,3,28,128,128,78,78,7,19,/,/,/,/
2026-05-13T1300,2240A,130.9618,45.2926,鸡西市,环保局,颗粒物(PM10),63,68,62,31,27,137,137,104,104,12,23,11,11,0.4,0.5
2026-05-13T1300,2243A,130.9294,45.2959,鸡西市,第一中学,颗粒物(PM10),53,53,46,32,28,129,129,103,103,7,13,9,8,0.1,0.2
2026-05-13T1300,3707A,131.0069,45.2988,鸡西市,欧美日汽修厂,,50,50,33,28,31,124,124,89,89,11,20,7,8,0.2,0.3
2026-05-13T1300,2367A,114.9753,27.0803,吉安市,红声器材厂,,48,48,39,17,19,51,51,60,50,12,9,6,7,0.5,0.4
2026-05-13T1300,2369A,114.9903,27.1313,吉安市,市环境监测站,NA,NA,29,34,14,20,52,52,62,52,NA,8,11,13,/,/
2026-05-13T1300,2370A,115.009527,27.096792,吉安市,青原区法院,,30,30,37,21,19,44,44,50,42,14,12,6,6,0.4,0.4
2026-05-13T1300,1772A,126.54,43.8622,吉林市,哈达湾,颗粒物(PM10),53,53,41,16,17,125,125,NA,NA,6,11,6,6,0.7,0.6
2026-05-13T1300,1773A,126.5843,43.8358,吉林市,东局子,,41,26,34,16,19,131,131,110,110,3,11,5,5,0.8,0.8
2026-05-13T1300,1774A,126.5051,43.8243,吉林市,电力学院,,49,24,33,16,18,156,156,128,128,6,14,5,5,0.7,0.7
2026-05-13T1300,1775A,126.6133,43.8971,吉林市,江北,,42,25,34,15,17,134,134,109,109,7,13,11,11,0.7,0.7
2026-05-13T1300,1776A,126.5549,43.8304,吉林市,江南公园,,39,27,34,15,17,123,123,105,105,6,12,7,7,0.4,0.5
2026-05-13T1300,2868A,126.4737,43.953,吉林市,九站,,48,31,35,20,20,151,151,124,124,4,11,8,8,0.4,0.4
2026-05-13T1300,1299A,116.9866,36.6118,济南市,科干所,臭氧1小时(O3_1h),55,48,39,20,27,164,164,151,150,10,11,7,7,0.4,0.9
2026-05-13T1300,1300A,116.9379,36.6652,济南市,农科所,颗粒物(PM10),51,51,52,17,27,155,155,141,141,9,13,4,4,0.3,0.3
2026-05-13T1300,1301A,117.1265,36.6736,济南市,开发区,颗粒物(PM10),51,51,53,18,25,148,148,134,132,6,9,6,7,0.5,0.5
2026-05-13T1300,1303A,117.0616,36.6865,济南市,省种子仓库,臭氧1小时(O3_1h),54,51,60,17,29,163,163,145,144,11,14,6,6,0.3,0.4
2026-05-13T1300,1304A,116.9495185,36.644937,济南市,机床二厂,颗粒物(PM10),53,54,58,18,29,157,157,139,139,10,13,7,7,0.5,0.5
2026-05-13T1300,1305A,117.0496,36.6629,济南市,市监测站,NA,NA,NA,54,NA,25,156,156,139,137,NA,11,4,5,0.4,0.4
2026-05-13T1300,1306A,116.7674,36.5458,济南市,长清党校,颗粒物(PM10),73,81,48,7,31,148,148,128,128,4,9,5,6,0.7,0.7
2026-05-13T1300,1961A,117.5323,36.6865,济南市,东山小学,NA,NA,59,53,22,26,169,169,147,147,NA,12,NA,7,0.4,0.4
2026-05-13T1300,3059A,117.7181,36.205,济南市,泰兴公司,臭氧1小时(O3_1h),72,51,49,21,18,177,177,118,118,8,30,15,15,0.6,0.6
2026-05-13T1300,3064A,117.6861,36.2172,济南市,莱芜战役纪念馆,臭氧1小时(O3_1h),80,61,52,20,19,184,184,131,131,8,23,15,14,0.4,0.5
2026-05-13T1300,3494A,117.1673,36.9782,济南市,济阳区政府,颗粒物(PM10),70,78,64,19,27,162,162,131,131,17,23,8,7,0.6,0.6
2026-05-13T1300,3495A,117.1168,36.6299,济南市,锦屏中学,,44,44,46,19,27,140,140,117,117,6,8,7,7,0.3,0.3
2026-05-13T1300,4108A,117.7107,36.2385,济南市,山财大街5号,臭氧1小时(O3_1h),75,56,47,24,26,180,180,129,129,7,24,9,12,0.5,0.6
2026-05-13T1300,4109A,116.9744,36.6889,济南市,无影山路12号,,48,46,50,19,28,153,153,139,139,13,15,6,6,0.7,0.7
2026-05-13T1300,1653A,116.6229,35.4288,济宁市,火炬城,颗粒物(PM10),59,62,57,21,32,152,152,107,107,7,10,5,4,0.8,0.8
2026-05-13T1300,3500A,116.5808,35.3703,济宁市,北湖一中,颗粒物(PM10),65,71,55,36,38,167,167,120,120,9,11,6,10,0.5,0.6
2026-05-13T1300,3501A,116.8251,35.5592,济宁市,服务中心,,47,45,47,16,32,149,149,110,110,4,10,2,2,0.6,0.6
2026-05-13T1300,3678A,116.5907,35.4054,济宁市,市第七中学,颗粒物(PM10),67,73,54,25,34,169,169,117,117,8,12,9,9,0.5,0.5
2026-05-13T1300,4111A,116.6075,35.4566,济宁市,任和路,臭氧1小时(O3_1h),68,57,68,23,33,174,174,127,127,5,9,4,4,0.7,0.6
2026-05-13T1300,4112A,116.5648,35.3921,济宁市,文体南路1号,臭氧1小时(O3_1h),53,52,57,15,35,162,162,117,117,3,5,8,7,0.7,0.7
2026-05-13T1300,4122A,112.6071,35.1015,济源市,市委党校,颗粒物(PM10),91,107,129,30,25,130,130,80,80,1,2,14,12,0.7,0.7
2026-05-13T1300,4123A,112.596,35.0702,济源市,沁园中路1号,细颗粒物(PM2.5),96,89,83,58,58,140,140,88,88,13,20,10,6,1.2,1
2026-05-13T1300,2255A,130.2749,46.8028,佳木斯市,佳纺,颗粒物(PM10),73,82,214,19,170,94,94,81,81,8,18,2,5,0.3,0.8
2026-05-13T1300,2257A,130.3258,46.7975,佳木斯市,环保局,颗粒物(PM10),59,62,175,19,18,92,92,82,78,7,17,5,7,0.4,0.9
2026-05-13T1300,4285A,130.363,46.806,佳木斯市,顺和街,,50,50,170,20,172,92,92,85,82,9,18,3,4,0.4,0.8
2026-05-13T1300,4286A,130.3952,46.8268,佳木斯市,长安路196号,颗粒物(PM10),73,81,207,18,170,94,94,82,82,6,17,4,6,0.2,0.8
2026-05-13T1300,1252A,120.7439,30.778,嘉兴市,清河小学,,48,29,39,10,26,152,152,71,71,17,21,10,9,0.4,0.3
2026-05-13T1300,1253A,120.7261,30.7477,嘉兴市,嘉兴学院,臭氧1小时(O3_1h),55,32,48,15,25,164,164,75,75,17,21,9,8,0.5,0.5
2026-05-13T1300,2872A,120.7845,30.7524,嘉兴市,南湖区残联,臭氧1小时(O3_1h),59,24,36,14,26,167,167,80,80,10,18,9,8,0.5,0.4
2026-05-13T1300,3407A,120.6915,30.7741,嘉兴市,秀洲住建,臭氧1小时(O3_1h),75,33,35,14,24,180,180,81,81,14,19,9,9,0.6,0.6
2026-05-13T1300,1945A,98.291,39.7705,嘉峪关市,气象局,颗粒物(PM10),123,178,302,58,69,104,104,91,91,11,16,32,31,1.0,1.3
2026-05-13T1300,2884A,98.2672,39.7978,嘉峪关市,酒钢宾馆,颗粒物(PM10),127,188,323,51,79,112,112,91,86,3,14,24,55,0.3,1.2
2026-05-13T1300,3248A,98.2644,39.7723,嘉峪关市,雄关区,细颗粒物(PM2.5),102,116,218,62,71,105,105,89,83,9,15,19,33,0.3,0.8
2026-05-13T1300,1383A,113.1063,22.6058,江门市,北街,,25,25,27,3,13,66,66,48,48,6,14,/,/,/,/
2026-05-13T1300,1384A,113.073,22.5835,江门市,西区,,22,12,25,3,12,70,70,58,58,8,15,/,/,/,/
2026-05-13T1300,1385A,113.0218,22.531,江门市,圭峰西,,21,19,24,6,12,65,65,56,56,5,10,/,/,/,/
2026-05-13T1300,1386A,113.0826,22.5947,江门市,东湖,,22,10,20,3,11,70,70,56,56,5,11,7,7,0.3,0.4
2026-05-13T1300,3311A,113.1077,22.5647,江门市,江海富民,,24,24,36,3,15,74,74,52,52,6,16,/,/,0.2,0.3
2026-05-13T1300,3449A,113.0496,22.4669,江门市,新会银湖,,23,20,27,3,13,73,73,43,43,8,20,6,7,0.4,0.5
2026-05-13T1300,3335A,113.3137,35.2643,焦作市,马村街道办,细颗粒物(PM2.5),80,54,82,50,52,143,143,89,89,7,11,15,11,0.6,0.8
2026-05-13T1300,3336A,113.2464,35.2374,焦作市,焦作技师学院,颗粒物(PM10),68,75,93,42,56,141,141,96,96,10,15,11,7,0.9,0.9
2026-05-13T1300,3477A,113.1656,35.2536,焦作市,中站许衡医院,颗粒物(PM10),62,66,72,38,58,133,133,95,95,8,10,16,12,0.8,0.8
2026-05-13T1300,3981A,113.2456,35.18,焦作市,原李万街道办,细颗粒物(PM2.5),60,49,77,40,56,138,138,80,80,6,13,8,8,0.5,0.6
2026-05-13T1300,4264A,113.234,35.219,焦作市,新安路1731号,颗粒物(PM10),57,59,78,35,37,145,145,96,96,11,16,13,10,0.6,0.7
2026-05-13T1300,4295A,113.2722,35.2121,焦作市,人民路3066号,颗粒物(PM10),76,86,82,41,53,135,135,92,92,10,16,7,7,0.5,0.7
2026-05-13T1300,1708A,116.3701,23.5345,揭阳市,新兴,,37,24,69,14,47,116,116,101,98,10,14,6,7,0.7,1
2026-05-13T1300,1709A,116.3261,23.5442,揭阳市,西马,,35,16,69,16,49,112,112,104,102,9,13,5,6,0.7,1
2026-05-13T1300,1710A,116.361,23.5627,揭阳市,东兴,,41,41,59,18,48,123,123,95,92,8,13,3,8,/,/
2026-05-13T1300,1711A,116.4151,23.5295,揭阳市,渔湖,,38,22,68,17,45,121,121,100,97,11,15,3,3,/,/
2026-05-13T1300,3320A,116.4028,23.5699,揭阳市,曲溪,,42,38,49,18,45,132,132,104,98,8,12,3,4,0.7,0.8
2026-05-13T1300,1944A,102.1691,38.5166,金昌市,天庆家园,颗粒物(PM10),157,263,256,59,75,110,110,106,106,3,9,6,16,0.8,0.8
2026-05-13T1300,4022A,102.1648,38.5369,金昌市,金川区人防中心,颗粒物(PM10),172,293,212,NA,73,108,108,105,105,2,8,5,6,0.3,0.3
2026-05-13T1300,4239A,102.193042,38.531887,金昌市,长春路96号,细颗粒物(PM2.5),169,282,199,128,72,102,102,99,99,1,5,7,15,0.3,0.4
2026-05-13T1300,1262A,119.6478,29.0773,金华市,十五中,细颗粒物(PM2.5),90,99,54,55,32,138,138,64,64,32,27,4,3,0.8,0.7
2026-05-13T1300,1263A,119.6859,29.1032,金华市,监测站,细颗粒物(PM2.5),76,71,50,48,29,150,150,57,57,20,23,6,5,0.7,0.6
2026-05-13T1300,3659A,119.656,29.1132,金华市,气象局,细颗粒物(PM2.5),86,85,57,53,33,126,126,53,53,29,33,6,5,0.8,0.7
2026-05-13T1300,1767A,121.1114,41.0879,锦州市,南山,颗粒物(PM10),60,64,37,25,21,144,144,123,121,18,13,6,10,0.5,0.6
2026-05-13T1300,1768A,121.060361,40.842794,锦州市,开发区,颗粒物(PM10),59,62,63,26,21,141,141,127,121,15,16,7,6,0.6,0.5
2026-05-13T1300,1769A,121.1836,41.1118,锦州市,百股街道,颗粒物(PM10),63,67,39,30,22,150,150,126,122,15,12,8,10,0.6,0.6
2026-05-13T1300,1770A,121.1176,41.1224,锦州市,天安街道,颗粒物(PM10),58,61,45,27,22,149,149,123,121,16,13,6,8,0.4,0.4
2026-05-13T1300,1771A,121.1303,41.1385,锦州市,北湖公园,颗粒物(PM10),58,60,42,27,23,147,147,121,118,13,14,8,11,0.5,0.5
2026-05-13T1300,2160A,112.8496,35.5051,晋城市,自来水公司,颗粒物(PM10),63,68,89,35,46,146,146,118,118,6,11,1,2,0.4,0.6
2026-05-13T1300,2162A,112.8509,35.4886,晋城市,市环保局,,47,47,84,32,62,136,136,100,100,6,17,4,4,0.4,0.6
2026-05-13T1300,3620A,112.8258,35.4804,晋城市,泽州一中,颗粒物(PM10),65,70,91,39,57,133,133,96,96,7,17,4,4,0.7,0.8
2026-05-13T1300,4078A,112.8246,35.5152,晋城市,前书院路,颗粒物(PM10),56,58,82,28,53,140,140,104,104,6,16,2,2,0.4,0.6
2026-05-13T1300,4079A,112.8864,35.4773,晋城市,祥云街666号,颗粒物(PM10),93,110,75,37,56,132,132,100,100,5,13,4,5,0.5,0.6
2026-05-13T1300,2174A,112.6992,37.6984,晋中市,榆次区政府,细颗粒物(PM2.5),94,102,101,57,54,187,187,118,118,9,15,10,9,0.9,1.1
2026-05-13T1300,2865A,112.7195,37.683,晋中市,榆次三中,臭氧1小时(O3_1h),99,102,105,42,37,199,199,128,128,7,14,10,9,0.7,0.8
2026-05-13T1300,4080A,112.7375,37.7215,晋中市,广安街188号,颗粒物(PM10),87,101,101,51,55,165,165,97,97,10,17,10,10,0.6,0.5
2026-05-13T1300,4200A,112.7478,37.6954,晋中市,迎宾街26号,臭氧1小时(O3_1h),97,110,105,56,52,197,197,122,122,10,17,10,10,0.6,0.6
2026-05-13T1300,2439A,112.2012,31.048,荆门市,竹园小学,细颗粒物(PM2.5),54,43,74,37,58,84,84,82,81,14,14,7,8,0.5,0.5
2026-05-13T1300,2440A,112.1968,30.9892,荆门市,掇刀,,49,NA,66,34,57,91,91,84,82,8,14,8,11,0.5,0.7
2026-05-13T1300,3012A,112.1849,31.0361,荆门市,西山林语,,40,32,75,28,54,79,79,72,72,8,10,8,8,0.6,0.8
2026-05-13T1300,3547A,112.1631,31.0134,荆门市,龙泉中学南校,,29,23,58,18,49,91,91,84,84,8,10,5,7,0.6,0.7
2026-05-13T1300,4124A,112.2213,31.0654,荆门市,新台西路6号,,35,29,64,24,57,94,94,83,82,6,11,9,11,0.7,0.9
2026-05-13T1300,1844A,112.2493,30.3198,荆州市,市图书馆,,31,NA,54,18,46,97,97,82,82,6,12,6,8,0.4,0.5
2026-05-13T1300,1845A,112.2009,30.3543,荆州市,市委党校,,28,26,54,19,45,76,76,67,67,10,14,7,8,0.4,0.6
2026-05-13T1300,3194A,112.2749,30.3124,荆州市,管委会,,34,34,57,20,50,90,90,75,75,7,13,8,11,0.3,0.5
2026-05-13T1300,4268A,112.1722,30.3366,荆州市,学苑路85号,,31,24,49,15,47,97,97,82,82,2,10,1,3,0.1,0.5
2026-05-13T1300,2343A,117.2114,29.2931,景德镇市,老干部活动中心,细颗粒物(PM2.5),76,NA,44,48,40,89,89,35,35,6,17,8,11,0.8,0.8
2026-05-13T1300,2344A,117.1893,29.2789,景德镇市,兽医站,细颗粒物(PM2.5),72,50,53,46,41,100,100,41,41,10,23,4,5,0.8,0.8
2026-05-13T1300,2346A,117.246,29.2958,景德镇市,陶研所,细颗粒物(PM2.5),74,50,46,47,40,92,92,33,33,10,21,6,8,1.2,1.1
2026-05-13T1300,4289A,117.154766,29.256967,景德镇市,青少年活动中心,细颗粒物(PM2.5),56,53,53,38,42,82,82,35,35,9,26,8,18,/,/
2026-05-13T1300,1803A,115.9873,29.6816,九江市,十里,,30,30,65,12,42,78,78,53,53,12,23,7,8,0.7,0.9
2026-05-13T1300,1804A,115.9583,29.7047,九江市,茅山头,,32,18,50,17,46,100,100,84,84,16,22,3,4,0.5,0.7
2026-05-13T1300,1805A,115.9877,29.7295,九江市,西园,,29,29,55,20,43,91,91,81,81,29,34,6,7,0.5,0.8
2026-05-13T1300,1808A,115.9112,29.6038,九江市,综合工业园,,25,10,56,3,41,80,80,74,74,24,29,8,9,0.5,0.7
2026-05-13T1300,3190A,116.0254,29.6995,九江市,外国语学校,,30,18,62,3,49,95,95,73,73,5,21,8,11,0.4,0.7
2026-05-13T1300,4253A,116.010205,29.659402,九江市,莲花大道8号,NA,NA,26,44,17,33,92,92,64,64,NA,15,6,5,0.5,0.6
2026-05-13T1300,4240A,98.495752,39.733935,酒泉市,玉门东路5号,颗粒物(PM10),131,200,256,45,74,92,92,86,85,2,3,4,4,0.1,0.1
2026-05-13T1300,4241A,98.5099,39.7506,酒泉市,北大街108号,颗粒物(PM10),136,212,302,64,73,88,88,82,82,2,3,7,8,0.1,0.2
2026-05-13T1300,2698A,76.0071,39.466,喀什地区,巡警大队,细颗粒物(PM2.5),115,94,46,76,9,116,116,122,118,5,9,4,4,0.1,0.1
2026-05-13T1300,2699A,75.9756,39.4693,喀什地区,吾办,颗粒物(PM10),100,119,36,56,8,109,109,120,115,6,4,4,5,0.3,0.3
2026-05-13T1300,4027A,75.9485,39.4688,喀什地区,老干局,颗粒物(PM10),70,77,33,16,4,112,112,118,115,2,3,3,3,0.2,0.2
2026-05-13T1300,1824A,114.3389,34.778,开封市,肿瘤医院,细颗粒物(PM2.5),100,102,78,60,50,161,161,101,101,13,17,7,7,0.8,0.8
2026-05-13T1300,1826A,114.2884,34.7966,开封市,世纪星幼儿园,细颗粒物(PM2.5),86,80,68,53,47,159,159,104,104,16,21,8,7,0.7,0.6
2026-05-13T1300,3147A,114.3434,34.8101,开封市,龙亭公园,细颗粒物(PM2.5),80,86,69,50,46,166,166,105,105,16,17,9,9,0.6,0.6
2026-05-13T1300,3210A,114.3645,34.7955,开封市,汴京公园,颗粒物(PM10),90,106,81,54,48,169,169,104,104,7,9,5,5,0.7,0.7
2026-05-13T1300,3473A,114.2485,34.8306,开封市,技师学院,颗粒物(PM10),83,95,75,31,35,161,161,109,109,7,8,7,7,1.0,1
2026-05-13T1300,3592A,114.4518,34.7503,开封市,祥符区生态环境局,细颗粒物(PM2.5),92,69,65,56,54,152,152,100,100,14,21,10,10,0.7,0.8
2026-05-13T1300,1951A,84.886,45.6029,克拉玛依市,长征新村,,29,8,11,3,4,92,92,90,87,2,2,5,5,0.3,0.3
2026-05-13T1300,1952A,84.8894,45.5827,克拉玛依市,南林小区,,28,17,11,3,0,89,89,90,85,3,2,4,4,0.1,0.1
2026-05-13T1300,1954A,84.896,44.3328,克拉玛依市,独山子区,,29,14,20,3,4,92,92,81,81,4,5,6,6,0.3,0.4
2026-05-13T1300,1955A,85.6888,46.0909,克拉玛依市,乌尔禾区商贸楼,,30,12,19,3,7,93,93,75,74,4,5,3,4,0.1,0.1
2026-05-13T1300,3612A,85.1045,45.6895,克拉玛依市,白碱滩区新站,,28,12,12,3,2,88,88,93,85,5,3,7,7,0.2,0.2
2026-05-13T1300,2697A,76.1457,39.7143,克孜勒苏柯尔克孜自治州,市人民政府,颗粒物(PM10),140,223,38,57,17,107,107,112,107,1,3,5,6,0.2,0.1
2026-05-13T1300,3665A,76.1654,39.7157,克孜勒苏柯尔克孜自治州,克州文化中心,颗粒物(PM10),156,262,49,79,29,108,108,114,109,1,2,4,5,0.2,0.2
2026-05-13T1300,1450A,102.8203,24.889,昆明市,呈贡新区,,34,10,12,6,7,106,106,76,76,3,6,2,4,0.3,0.4
2026-05-13T1300,1452A,102.7253,25.0904,昆明市,龙泉镇,NA,NA,NA,14,2,8,89,89,62,62,3,8,5,4,0.3,0.4
2026-05-13T1300,1453A,102.7267,25.0378,昆明市,东风东路,,30,9,11,3,8,95,95,73,73,11,14,1,2,0.3,0.4
2026-05-13T1300,1454A,102.6744,25.0671,昆明市,金鼎山,,30,9,17,3,8,93,93,65,65,7,11,4,4,0.4,0.4
2026-05-13T1300,1455A,102.6643,25.0401,昆明市,碧鸡广场,,27,8,12,3,8,86,86,58,58,7,13,4,5,0.4,0.4
2026-05-13T1300,3179A,102.7491,25.012,昆明市,官渡区博物馆,,29,21,15,6,8,92,92,67,67,9,13,4,4,0.3,0.5
2026-05-13T1300,3375A,102.8016,24.8336,昆明市,青年创业园,,32,11,12,9,9,101,101,75,75,2,5,5,5,0.4,0.5
2026-05-13T1300,3550A,102.8,24.9787,昆明市,昆明学院,,31,9,11,3,6,97,97,70,70,7,9,5,5,0.4,0.5
2026-05-13T1300,3551A,102.5969,24.6738,昆明市,晋宁区生态环境分局,,30,14,12,3,8,94,94,72,72,2,5,1,1,0.4,0.4
2026-05-13T1300,3552A,102.6673,24.9861,昆明市,云天化总部,,31,6,7,6,3,97,97,71,71,6,8,5,4,0.3,0.4
2026-05-13T1300,1456A,91.132,29.6515,拉萨市,八廓街,,39,11,17,6,7,122,122,103,103,4,8,5,5,0.3,0.3
2026-05-13T1300,1457A,91.1221,29.6748,拉萨市,市环保局,,37,12,19,9,10,117,117,100,100,6,11,4,4,0.4,0.4
2026-05-13T1300,1458A,91.0874,29.6476,拉萨市,区监测站,,37,10,12,3,6,116,116,105,105,6,11,5,5,0.1,0.1
2026-05-13T1300,1459A,91.1774,29.6541,拉萨市,西藏大学,NA,NA,10,17,7,9,120,120,98,98,8,12,NA,5,0.2,0.4
2026-05-13T1300,1460A,90.9798,29.6586,拉萨市,区辐射站,,34,12,16,3,7,106,106,101,98,9,13,5,5,0.3,0.3
2026-05-13T1300,1461A,91.0831,29.6292,拉萨市,拉萨火车站,,38,14,14,6,10,119,119,111,111,6,7,2,4,0.4,0.4
2026-05-13T1300,2520A,109.2203,23.7252,来宾市,来宾技工学校,,25,22,35,11,12,77,77,46,46,2,4,6,7,0.7,0.7
2026-05-13T1300,3535A,109.1781,23.7293,来宾市,兴宾区政府,,24,23,40,9,11,75,75,42,42,4,9,8,9,0.5,0.6
2026-05-13T1300,4002A,109.2312,23.7428,来宾市,中南小学,,33,33,34,8,14,81,81,44,44,4,12,5,6,0.5,0.5
2026-05-13T1300,1479A,103.8309,36.0467,兰州市,铁路设计院,NA,NA,NA,52,NA,19,NA,NA,111,61,NA,19,NA,4,NA,0.6
2026-05-13T1300,3241A,103.7439,36.0841,兰州市,百合公园,,38,38,49,15,19,91,91,51,51,14,21,6,6,0.0,0.3
2026-05-13T1300,3242A,103.9613,35.9985,兰州市,和平,,37,32,46,19,17,118,118,85,85,7,7,10,8,0.6,0.5
2026-05-13T1300,4236A,103.629272,36.093822,兰州市,庄浪东路808号,颗粒物(PM10),56,58,61,18,18,116,116,83,83,9,14,8,8,0.3,0.4
2026-05-13T1300,4237A,103.7251,36.104344,兰州市,安宁西路88号,,46,46,61,16,20,118,118,72,72,12,15,9,8,0.3,0.2
2026-05-13T1300,4238A,103.846982,36.067567,兰州市,北滨河东路1号,,33,28,52,16,20,103,103,65,65,14,17,10,9,0.6,0.5
2026-05-13T1300,1067A,116.6712,39.5109,廊坊市,药材公司,细颗粒物(PM2.5),92,93,83,56,50,162,162,109,109,6,11,3,4,0.5,0.5
2026-05-13T1300,1068A,116.7215,39.5592,廊坊市,开发区,颗粒物(PM10),103,126,93,59,46,192,192,132,132,NA,16,1,3,0.5,0.4
2026-05-13T1300,1070A,116.7246,39.5273,廊坊市,北华航天学院,细颗粒物(PM2.5),78,87,81,49,42,181,181,131,131,5,11,3,4,0.5,0.5
2026-05-13T1300,2919A,116.7022,39.5454,廊坊市,河北工业大学,细颗粒物(PM2.5),82,80,77,51,42,184,184,127,127,6,11,4,5,0.5,0.4
2026-05-13T1300,2536A,103.7629,29.5844,乐山市,牛耳桥,细颗粒物(PM2.5),58,59,60,39,37,144,144,88,88,11,22,7,8,0.6,0.7
2026-05-13T1300,2537A,103.7501,29.6002,乐山市,市第三水厂,颗粒物(PM10),52,52,62,34,37,134,134,83,83,9,21,6,7,0.7,0.7
2026-05-13T1300,2538A,103.7571,29.5664,乐山市,市监测站,颗粒物(PM10),55,57,58,32,34,135,135,91,91,8,17,5,7,0.7,0.7
2026-05-13T1300,3361A,103.7313,29.563,乐山市,理工大学,颗粒物(PM10),51,51,57,32,36,150,150,92,92,9,18,12,11,0.5,0.6
2026-05-13T1300,2599A,100.2497,26.8802,丽江市,丽江古城,,30,22,17,3,6,93,93,88,85,8,8,5,6,0.4,0.4
2026-05-13T1300,2600A,100.2203,26.8906,丽江市,市中心,,30,17,10,3,5,94,94,86,85,6,7,5,5,0.4,0.4
2026-05-13T1300,1267A,119.9141,28.4513,丽水市,监测站大楼,颗粒物(PM10),53,53,35,28,19,111,111,59,59,17,19,5,5,0.5,0.5
2026-05-13T1300,1268A,119.93,28.4589,丽水市,莲都小学,颗粒物(PM10),57,59,37,30,19,114,114,67,67,18,19,/,/,/,/
2026-05-13T1300,1269A,119.8794,28.4232,丽水市,余庄前,颗粒物(PM10),59,62,34,37,18,105,105,44,44,23,17,6,4,0.6,0.5
2026-05-13T1300,1173A,119.1759,34.5885,连云港市,市环境监测站,,49,34,41,27,30,156,156,128,128,9,13,8,10,0.5,0.6
2026-05-13T1300,3000A,119.3577,34.6971,连云港市,德源药业,颗粒物(PM10),56,58,47,27,27,141,141,132,132,17,19,7,6,0.5,0.5
2026-05-13T1300,3007A,119.178,34.8442,连云港市,新城一中,,49,49,59,19,24,156,156,110,110,8,25,6,5,0.6,0.5
2026-05-13T1300,3008A,119.3607,34.7519,连云港市,胡沟管理处,NA,NA,36,27,24,20,116,116,117,117,29,30,10,11,NA,0.9
2026-05-13T1300,3009A,119.1478,34.5913,连云港市,矿山设计院,,49,34,47,24,27,156,156,127,127,6,10,4,6,0.6,0.7
2026-05-13T1300,3434A,119.2414,34.6539,连云港市,工贸学校,臭氧1小时(O3_1h),57,39,35,27,24,165,165,145,145,7,11,4,5,0.5,0.5
2026-05-13T1300,3664A,119.4171,34.734,连云港市,连云街道,颗粒物(PM10),60,63,61,29,23,115,115,83,83,32,39,13,13,0.6,0.6
2026-05-13T1300,2573A,102.2629,27.8981,凉山彝族自治州,西昌市政府,,36,28,21,23,17,114,114,55,55,8,9,9,11,0.7,0.5
2026-05-13T1300,2574A,102.2686,27.885,凉山彝族自治州,凉山州政府,,35,29,23,24,18,94,94,52,52,7,10,8,5,0.8,0.7
2026-05-13T1300,4229A,102.2342,27.8859,凉山彝族自治州,凯乐南路30号,,38,32,26,26,19,98,98,42,42,12,19,10,5,1.0,0.7
2026-05-13T1300,2212A,123.1978,41.2036,辽阳市,宏伟区,,44,44,33,10,14,129,129,126,125,6,8,6,6,0.5,0.5
2026-05-13T1300,2213A,123.1684,41.2497,辽阳市,新华园,,42,42,40,12,20,133,133,126,126,7,9,4,3,0.5,0.5
2026-05-13T1300,2214A,123.2355,41.2663,辽阳市,滨河路,,38,29,35,12,13,119,119,117,112,10,10,6,6,0.3,0.3
2026-05-13T1300,4083A,123.153,41.2874,辽阳市,铁西路150号,,46,46,43,16,21,130,130,121,121,7,8,6,7,0.6,0.6
2026-05-13T1300,2227A,125.1359,42.8845,辽源市,环保局,臭氧1小时(O3_1h),67,26,29,17,11,173,173,124,124,8,12,9,8,0.3,0.4
2026-05-13T1300,4085A,125.0998,42.9134,辽源市,安宁大街333号,,50,40,36,17,11,157,157,127,127,6,11,6,7,0.4,0.4
2026-05-13T1300,1625A,115.9789,36.4372,聊城市,区政府,颗粒物(PM10),63,67,65,20,28,140,140,114,114,9,14,10,9,0.6,0.7
2026-05-13T1300,3200A,115.9772,36.4986,聊城市,监控中心,颗粒物(PM10),60,63,64,20,30,147,147,125,125,4,9,10,10,0.3,0.4
2026-05-13T1300,3513A,116.0443,36.436,聊城市,九州社区,颗粒物(PM10),57,59,72,18,34,138,138,116,116,6,15,6,6,0.4,0.5
2026-05-13T1300,4018A,116.0564,36.4609,聊城市,星美广场,颗粒物(PM10),54,55,64,16,31,137,137,114,114,5,10,7,7,0.4,0.5
2026-05-13T1300,4113A,116.0091,36.4495,聊城市,利民路,,45,45,52,21,35,144,144,121,121,7,14,9,9,0.5,0.4
2026-05-13T1300,2632A,94.3683,29.6373,林芝市,林芝监测站,,30,9,10,3,6,94,94,74,73,4,4,4,4,0.4,0.4
2026-05-13T1300,2633A,94.3616,29.6634,林芝市,林芝人民医院,,30,10,14,3,7,95,95,70,70,5,5,3,3,0.4,0.4
2026-05-13T1300,2603A,100.0779,23.8981,临沧市,市环保局,,29,27,22,3,10,92,92,47,47,3,5,8,5,0.3,0.5
2026-05-13T1300,2604A,100.0894,23.882,临沧市,市气象局,,30,18,18,6,10,96,96,45,45,5,7,6,6,0.4,0.7
2026-05-13T1300,1733A,111.5552,36.0791,临汾市,临钢医院,颗粒物(PM10),104,130,103,63,48,136,136,83,83,15,20,10,9,1.7,0.9
2026-05-13T1300,1734A,111.4984,36.0734,临汾市,技工学校,细颗粒物(PM2.5),105,126,105,65,64,154,154,101,101,14,15,12,10,1.7,1.1
2026-05-13T1300,1736A,111.5017,36.0857,临汾市,市委,颗粒物(PM10),109,141,112,66,52,156,156,98,98,14,19,12,8,1.6,1
2026-05-13T1300,3018A,111.5048,36.1015,临汾市,唐尧大酒店,颗粒物(PM10),106,135,120,58,48,143,143,89,89,9,15,11,10,1.7,1
2026-05-13T1300,4244A,111.4879,36.053,临汾市,启星学校,细颗粒物(PM2.5),106,116,104,66,57,141,141,78,78,13,21,9,7,1.9,1.2
2026-05-13T1300,4271A,103.2464,35.6123,临夏回族自治州,滨河东路1号,,50,50,56,21,20,110,110,58,58,7,10,13,11,0.3,0.3
2026-05-13T1300,4310A,103.207136,35.599807,临夏回族自治州,新华街21号,,48,48,49,21,24,98,98,57,57,5,5,10,8,0.2,0.2
2026-05-13T1300,1618A,118.3429,35.0532,临沂市,沂河小区,臭氧1小时(O3_1h),88,58,56,17,27,190,190,119,119,10,17,13,19,0.3,0.4
2026-05-13T1300,1619A,118.2962,35.0568,临沂市,鲁南制药厂,臭氧1小时(O3_1h),100,56,54,16,31,200,200,129,129,14,18,14,20,0.3,0.4
2026-05-13T1300,1620A,118.2793,34.9976,临沂市,新光毛纺厂,臭氧1小时(O3_1h),102,39,46,16,36,203,203,122,122,13,21,14,19,0.3,0.4
2026-05-13T1300,1621A,118.3955,35.0889,临沂市,河东保险公司,臭氧1小时(O3_1h),89,56,51,14,31,191,191,120,120,8,22,14,16,0.2,0.3
2026-05-13T1300,3370A,118.3563,35.0215,临沂市,十里堡居委,臭氧1小时(O3_1h),93,53,47,15,32,194,194,122,122,9,17,12,19,0.5,0.6
2026-05-13T1300,3496A,118.359,35.1067,临沂市,南坊新区,NA,NA,NA,56,NA,31,184,184,119,119,11,18,NA,17,0.3,0.4
2026-05-13T1300,3860A,118.3915,35.0297,临沂市,皇山花园小区,臭氧1小时(O3_1h),90,48,55,16,33,192,192,123,123,9,21,14,20,0.6,0.7
2026-05-13T1300,1870A,109.4854,24.3898,柳州市,柳东小学,,25,25,37,12,24,55,55,35,35,6,12,4,9,0.5,0.6
2026-05-13T1300,1871A,109.4109,24.3304,柳州市,环保监测站,,33,33,40,13,25,54,54,31,31,10,20,5,6,0.7,0.9
2026-05-13T1300,1872A,109.3886,24.3408,柳州市,河西水厂,,35,35,46,13,26,49,49,28,28,9,21,8,9,0.7,0.8
2026-05-13T1300,1873A,109.4263,24.2951,柳州市,市四中,NA,NA,NA,48,11,25,52,52,30,30,8,20,6,6,0.5,0.7
2026-05-13T1300,1874A,109.396,24.3658,柳州市,市九中,,47,47,45,13,25,51,51,30,30,10,16,5,6,0.7,0.9
2026-05-13T1300,1875A,109.4912,24.3164,柳州市,古亭山,,26,26,38,12,20,55,55,36,36,7,15,4,5,0.7,0.8
2026-05-13T1300,3402A,109.5422,24.3994,柳州市,市二中,,30,30,40,12,26,50,50,34,34,8,15,8,20,0.6,0.7
2026-05-13T1300,2307A,116.5078,31.7369,六安市,监测大楼,,46,37,46,32,46,146,146,93,93,7,14,6,5,0.5,0.5
2026-05-13T1300,2308A,116.4738,31.7642,六安市,皖西学院,NA,NA,50,54,32,39,153,153,87,87,NA,11,7,7,0.5,0.5
2026-05-13T1300,2309A,116.4997,31.7904,六安市,朝阳厂,细颗粒物(PM2.5),58,45,49,39,43,142,142,86,86,11,16,9,7,0.5,0.4
2026-05-13T1300,2310A,116.5566,31.7885,六安市,开发区,,50,40,55,24,49,160,160,93,93,7,22,8,8,0.5,0.6
2026-05-13T1300,2577A,104.8293,26.592,六盘水市,黄土坡,,32,15,27,10,18,101,101,47,47,5,13,7,7,0.2,0.4
2026-05-13T1300,2579A,104.8481,26.5898,六盘水市,民中,,30,15,22,6,20,95,95,46,46,6,14,2,2,0.4,0.5
2026-05-13T1300,2580A,104.9541,26.5506,六盘水市,双水,,27,19,21,14,16,84,84,55,55,5,7,5,4,0.2,0.3
2026-05-13T1300,4151A,104.8899,26.5685,六盘水市,钟山大道中段564号,,31,31,27,14,17,88,88,51,51,6,8,3,3,0.8,0.8
2026-05-13T1300,2336A,117.022,25.1031,龙岩市,龙岩市监测站,,35,32,22,24,19,26,26,21,20,22,13,6,6,0.9,0.5
2026-05-13T1300,2337A,117.0257,25.0662,龙岩市,闽西职业技术学院,,39,28,26,27,18,19,19,24,17,22,9,6,5,0.8,0.6
2026-05-13T1300,2338A,117.0195,25.0306,龙岩市,龙岩学院,,36,34,27,25,15,36,36,24,24,13,7,6,4,/,/
2026-05-13T1300,2885A,104.9344,33.3827,陇南市,滨江中学,,35,35,40,7,12,104,104,84,84,5,5,6,5,0.6,0.6
2026-05-13T1300,3247A,104.9551,33.3709,陇南市,市总工会,,32,27,31,9,11,102,102,82,82,4,5,5,5,0.5,0.5
2026-05-13T1300,2488A,111.9984,27.7346,娄底市,市监测站,,43,43,34,26,28,51,51,48,46,14,12,8,8,0.5,0.5
2026-05-13T1300,2491A,111.9888,27.7035,娄底市,市政府,NA,NA,46,29,35,21,47,47,50,50,15,7,NA,5,1.0,0.4
2026-05-13T1300,4127A,111.9812,27.7591,娄底市,涟钢职大,,24,24,27,3,22,57,57,53,53,7,9,3,4,0.6,0.6
2026-05-13T1300,4128A,112.0303,27.7457,娄底市,娄底体校,,48,43,36,33,27,51,51,51,51,10,10,4,4,0.2,0.3
2026-05-13T1300,1894A,105.4427,28.9063,泸州市,小市上码头,,40,32,36,22,24,126,126,68,68,10,15,7,8,0.6,0.6
2026-05-13T1300,1895A,105.4241,28.8573,泸州市,兰田宪桥,,45,40,48,25,29,141,141,70,70,10,17,9,12,0.6,0.6
2026-05-13T1300,1896A,105.4378,28.8833,泸州市,市环监站,,41,29,34,14,19,129,129,66,66,13,18,10,14,0.8,0.8
2026-05-13T1300,4272A,105.3689,28.7783,泸州市,纳溪中医医院,,46,37,41,21,25,146,146,60,60,11,18,8,7,0.6,0.6
2026-05-13T1300,2183A,111.1447,37.5212,吕梁市,环保局,颗粒物(PM10),81,93,99,40,35,144,144,83,83,14,24,10,10,0.7,0.4
2026-05-13T1300,2185A,111.1285,37.5338,吕梁市,自来水公司,颗粒物(PM10),85,98,86,43,37,142,142,78,78,18,24,7,7,0.9,0.6
2026-05-13T1300,2867A,111.1225,37.5093,吕梁市,马茂庄小学,颗粒物(PM10),98,117,100,42,42,152,152,92,92,13,29,8,7,0.8,0.5
2026-05-13T1300,1812A,112.3934,34.6517,洛阳市,市委党校,细颗粒物(PM2.5),94,78,73,57,55,144,144,82,79,16,15,12,10,0.8,0.8
2026-05-13T1300,1815A,112.494,34.6883,洛阳市,河南林校,颗粒物(PM10),70,78,81,42,53,142,142,90,90,16,21,14,13,0.8,0.7
2026-05-13T1300,1816A,112.3843,34.623,洛阳市,开发区管委会,细颗粒物(PM2.5),72,64,68,46,53,148,148,84,84,10,13,14,14,0.6,0.6
2026-05-13T1300,1817A,112.4263,34.6249,洛阳市,市委新办公区,细颗粒物(PM2.5),66,45,66,43,53,139,139,86,83,11,14,11,12,0.4,0.4
2026-05-13T1300,3340A,112.6005,34.6323,洛阳市,伊滨,颗粒物(PM10),58,60,73,34,51,118,118,73,73,12,14,12,9,0.4,0.5
2026-05-13T1300,3341A,112.495,34.6338,洛阳市,中移产业园,细颗粒物(PM2.5),92,67,66,56,53,137,137,88,85,16,17,12,12,0.8,0.8
2026-05-13T1300,3593A,112.5736,34.8993,洛阳市,吉利监测站,细颗粒物(PM2.5),86,83,82,53,54,112,112,77,77,11,16,14,10,0.6,0.6
2026-05-13T1300,3635A,112.3678,34.6623,洛阳市,河科大西苑校区,细颗粒物(PM2.5),94,79,78,57,58,148,148,90,86,18,16,16,12,0.7,0.6
2026-05-13T1300,3636A,112.4387,34.678,洛阳市,英才小学,细颗粒物(PM2.5),92,88,98,56,57,134,134,86,85,13,13,10,10,0.9,0.8
2026-05-13T1300,4214A,112.460027,34.694929,洛阳市,春都路1号院,细颗粒物(PM2.5),102,85,82,62,57,143,143,87,87,13,16,11,11,0.5,0.4
2026-05-13T1300,2399A,114.051,33.5721,漯河市,三五一五工厂,颗粒物(PM10),55,56,68,25,37,120,120,97,97,9,17,6,8,0.4,0.5
2026-05-13T1300,2400A,114.0055,33.5698,漯河市,漯河大学,细颗粒物(PM2.5),56,51,51,38,44,120,120,94,94,10,16,7,8,0.4,0.5
2026-05-13T1300,2401A,114.0134,33.5826,漯河市,市水利局,NA,NA,NA,60,NA,48,117,117,96,96,9,12,5,7,0.6,0.7
2026-05-13T1300,2402A,114.0261,33.5697,漯河市,市广电局,颗粒物(PM10),51,51,55,29,35,120,120,96,96,9,15,6,7,0.4,0.5
2026-05-13T1300,3478A,113.9691,33.568,漯河市,市图书馆,细颗粒物(PM2.5),52,45,64,36,44,109,109,86,85,4,11,6,11,0.6,0.8
2026-05-13T1300,4250A,114.089259,33.588274,漯河市,韶山路11号,颗粒物(PM10),60,64,69,32,45,118,118,96,96,7,15,8,8,0.6,0.7
2026-05-13T1300,1798A,118.5084,31.6838,马鞍山市,湖东路四小,臭氧1小时(O3_1h),85,76,77,43,51,188,188,103,103,9,21,8,10,0.7,0.8
2026-05-13T1300,1799A,118.5019,31.6449,马鞍山市,开发区,臭氧1小时(O3_1h),82,62,79,35,52,185,185,90,90,11,31,8,9,0.8,0.9
2026-05-13T1300,3633A,118.4914,31.681,马鞍山市,雨山,臭氧1小时(O3_1h),80,67,67,44,38,184,184,103,103,10,21,7,9,0.8,1
2026-05-13T1300,4191A,118.527362,31.722269,马鞍山市,慈湖高新区,臭氧1小时(O3_1h),89,77,84,40,52,191,191,98,98,14,22,8,9,0.8,0.8
2026-05-13T1300,1686A,111.0285,21.469,茂名市,电白南海,,22,22,17,8,7,64,64,55,55,4,5,6,5,0.7,0.7
2026-05-13T1300,1687A,110.9294,21.6533,茂名市,茂石化七小,,29,29,23,11,10,62,62,44,44,6,8,7,11,0.4,0.5
2026-05-13T1300,1688A,110.9108,21.6688,茂名市,健康路,,27,27,15,10,9,64,64,45,45,6,8,6,8,0.7,0.6
2026-05-13T1300,1689A,110.8592,21.6826,茂名市,高岭,,24,24,23,11,10,65,65,45,45,3,7,4,6,/,/
2026-05-13T1300,3450A,111.0101,21.5165,茂名市,电白水东,,18,14,10,8,8,57,57,46,46,4,6,3,3,/,/
2026-05-13T1300,2540A,103.8414,30.0871,眉山市,气象局,,50,42,59,28,32,158,158,94,94,15,27,3,4,0.4,0.5
2026-05-13T1300,3148A,103.829,30.0563,眉山市,区人社局,颗粒物(PM10),100,119,74,28,34,155,155,89,89,14,26,6,7,0.4,0.6
2026-05-13T1300,4148A,103.8836,30.0695,眉山市,眉职院,,50,50,57,22,26,146,146,94,94,9,17,8,8,0.7,0.7
2026-05-13T1300,1690A,116.1248,24.3307,梅州市,梅江月梅,,36,36,26,18,15,98,98,53,53,8,9,/,/,/,/
2026-05-13T1300,1691A,116.0798,24.2719,梅州市,梅县新城,,40,40,26,20,17,101,101,52,52,8,11,8,8,0.5,0.5
2026-05-13T1300,3315A,116.1234,24.2994,梅州市,梅龙,,37,24,22,23,19,118,118,NA,NA,7,7,6,6,0.7,0.6
2026-05-13T1300,1878A,104.7775,31.4741,绵阳市,富乐山,,34,30,42,22,25,107,107,77,77,6,9,8,8,0.7,0.7
2026-05-13T1300,1880A,104.6698,31.4668,绵阳市,高新区自来水公司,,34,34,40,20,27,103,103,69,69,8,15,7,7,0.6,0.6
2026-05-13T1300,3491A,104.6899,31.5324,绵阳市,西科大附属小学,,38,38,48,24,30,107,107,52,52,8,20,5,5,0.5,0.6
2026-05-13T1300,3492A,104.5647,31.5343,绵阳市,安州区旅游局,,38,38,46,23,25,108,108,61,61,8,10,6,7,0.6,0.7
2026-05-13T1300,4146A,104.7092,31.4972,绵阳市,科技城新区公安局,,42,42,52,20,28,99,99,53,53,6,16,5,6,0.7,0.7
2026-05-13T1300,4226A,104.765114,31.453094,绵阳市,绵阳市气象局,,33,NA,39,23,26,91,91,71,66,11,15,9,9,0.5,0.5
2026-05-13T1300,1784A,129.61,44.561,牡丹江市,环保大楼,,46,19,34,11,15,146,146,84,84,6,18,4,4,0.2,0.3
2026-05-13T1300,1787A,129.6364,44.6075,牡丹江市,机车工厂,,47,38,52,16,27,148,148,82,82,10,23,9,11,0.3,0.4
2026-05-13T1300,1788A,129.6386,44.5462,牡丹江市,第一中学,,45,25,28,15,15,141,141,86,86,5,15,4,4,0.4,0.4
2026-05-13T1300,4287A,129.5992,44.5964,牡丹江市,东晓云街98号,,47,29,42,8,18,149,149,84,84,8,18,5,5,0.2,0.3
2026-05-13T1300,2531A,105.0703,29.61,内江市,市监测站,,42,36,42,22,30,133,133,95,95,9,11,12,12,0.3,0.3
2026-05-13T1300,2533A,105.0657,29.5807,内江市,内江二中,,43,39,38,21,29,137,137,96,96,10,11,8,8,0.3,0.4
2026-05-13T1300,2534A,105.0407,29.5828,内江市,内江日报社,,46,NA,42,25,29,147,147,104,104,10,11,14,13,0.4,0.4
2026-05-13T1300,4147A,105.0433,29.6105,内江市,玉峰路西段888号,,43,27,39,17,28,136,136,97,97,8,10,10,10,0.4,0.5
2026-05-13T1300,2628A,92.0653,31.4846,那曲市,那曲监测站,,32,19,56,12,24,101,101,74,74,14,23,10,13,0.6,0.9
2026-05-13T1300,4243A,92.0515,31.4787,那曲市,那曲市委宣传部,,32,11,28,11,17,100,100,73,73,9,16,6,6,0.5,0.7
2026-05-13T1300,1291A,115.8887,28.7006,南昌市,省林业公司,,28,22,46,18,36,88,88,81,81,4,21,3,3,0.5,0.7
2026-05-13T1300,1292A,115.813,28.7443,南昌市,林科所,,27,27,38,14,34,86,86,76,76,2,21,6,8,0.4,0.5
2026-05-13T1300,1294A,115.8518,28.687,南昌市,建工学校,,27,16,50,15,33,86,86,81,81,3,16,6,8,0.7,0.8
2026-05-13T1300,1295A,115.8926,28.6425,南昌市,象湖,,28,13,36,12,38,88,88,80,80,8,24,8,9,0.5,0.8
2026-05-13T1300,3046A,115.9084,28.6062,南昌市,机电学校,NA,NA,NA,55,NA,42,95,95,82,82,4,24,6,6,0.4,0.7
2026-05-13T1300,3690A,115.9718,28.7032,南昌市,外国语学校,,26,24,51,16,42,82,82,80,80,5,21,8,10,0.6,0.8
2026-05-13T1300,4106A,115.7923,28.6873,南昌市,工业二路,,28,27,54,19,40,85,85,78,77,4,17,5,6,0.5,0.7
2026-05-13T1300,4192A,115.931587,28.686774,南昌市,南京东路235号,,29,NA,50,16,43,90,90,86,86,8,25,6,8,0.6,1
2026-05-13T1300,1906A,106.0791,30.8022,南充市,南充市委,,40,40,56,27,44,106,106,55,55,7,12,6,6,0.4,0.5
2026-05-13T1300,1907A,106.1038,30.8215,南充市,南充炼油厂,,48,48,61,28,47,101,101,59,59,6,10,6,6,0.3,0.4
2026-05-13T1300,4227A,106.108336,30.788436,南充市,梨树横街98号,,40,34,55,28,44,110,110,60,60,7,11,7,7,0.5,0.6
2026-05-13T1300,4304A,106.1172,30.843,南充市,清泉寺北路188号,,36,36,55,24,45,98,98,53,53,6,8,8,8,0.3,0.4
2026-05-13T1300,4305A,106.067,30.7616,南充市,同庆路1号,,40,40,58,26,42,116,116,61,61,8,14,7,7,0.4,0.5
2026-05-13T1300,1151A,118.8033,32.1085,南京市,迈皋桥,臭氧1小时(O3_1h),107,61,53,37,30,214,214,132,132,15,15,6,5,0.5,0.5
2026-05-13T1300,1152A,118.7487,32.057,南京市,草场门,臭氧1小时(O3_1h),101,63,53,31,31,202,202,121,121,14,20,7,7,0.6,0.7
2026-05-13T1300,1154A,118.770105,32.004342,南京市,中华门,臭氧1小时(O3_1h),101,78,59,35,33,201,201,112,112,13,15,7,6,0.6,0.7
2026-05-13T1300,1155A,118.8059,32.0329,南京市,瑞金路,臭氧1小时(O3_1h),90,73,61,38,30,192,192,111,111,18,21,14,15,1.0,1
2026-05-13T1300,1156A,118.7946,32.0774,南京市,玄武湖,臭氧1小时(O3_1h),75,55,54,24,27,180,180,110,110,8,14,7,7,0.5,0.6
2026-05-13T1300,1157A,118.6415,32.0964,南京市,浦口,臭氧1小时(O3_1h),89,64,54,34,29,191,191,103,103,19,27,7,7,0.6,0.6
2026-05-13T1300,1158A,118.730129,32.000956,南京市,奥体中心,臭氧1小时(O3_1h),89,68,63,28,27,191,191,120,120,16,23,13,12,0.6,0.7
2026-05-13T1300,1159A,118.9072,32.1047,南京市,仙林大学城,臭氧1小时(O3_1h),103,70,62,30,29,206,206,126,126,12,19,13,13,0.9,0.9
2026-05-13T1300,3422A,118.8443,31.919,南京市,江宁彩虹桥,颗粒物(PM10),67,73,56,36,27,167,167,106,106,14,19,5,6,0.7,0.8
2026-05-13T1300,3427A,118.8497,32.3599,南京市,六合雄州,臭氧1小时(O3_1h),103,55,50,27,25,205,205,114,114,17,22,4,4,1.1,1
2026-05-13T1300,4086A,118.7641,32.0841,南京市,新模范马路66号,臭氧1小时(O3_1h),104,85,58,24,25,208,208,131,131,13,25,5,4,0.6,0.7
2026-05-13T1300,4249A,118.8707617,31.34017673,南京市,汶溪路181号,臭氧1小时(O3_1h),78,50,49,20,42,182,182,112,112,10,21,9,9,0.4,0.5
2026-05-13T1300,4312A,119.019,31.6512,南京市,中山西路1号,颗粒物(PM10),60,63,50,29,38,154,154,80,80,16,22,4,4,0.8,0.8
2026-05-13T1300,1401A,108.3098,22.788,南宁市,二十一中,,35,35,26,14,10,74,74,29,29,7,11,2,2,0.4,0.5
2026-05-13T1300,1402A,108.3135,22.8529,南宁市,北湖,,32,24,26,22,11,76,76,32,32,7,7,4,4,0.4,0.4
2026-05-13T1300,1403A,108.3205,22.8222,南宁市,市监测站,颗粒物(PM10),60,63,25,15,8,79,79,36,36,8,7,2,2,0.6,0.5
2026-05-13T1300,1404A,108.3828,22.8038,南宁市,大自然花园,,24,22,22,9,7,75,75,34,34,7,8,6,4,0.5,0.5
2026-05-13T1300,1406A,108.2397,22.8462,南宁市,区农职院,,30,24,27,21,12,73,73,28,28,5,8,3,2,0.6,0.6
2026-05-13T1300,1407A,108.3285,22.7356,南宁市,英华嘉园,,27,27,25,13,8,78,78,34,34,9,13,4,4,0.5,0.5
2026-05-13T1300,3401A,108.4829,22.762,南宁市,红星社区,,29,29,22,7,7,69,69,39,39,4,8,5,5,0.6,0.7
2026-05-13T1300,4132A,108.2927,23.1477,南宁市,起凤路9号,,33,33,28,20,16,79,79,NA,NA,12,14,7,6,0.6,0.6
2026-05-13T1300,4221A,108.2177,22.7774,南宁市,乐贤路16号,,27,27,27,15,11,77,77,28,28,7,15,6,5,0.4,0.5
2026-05-13T1300,2332A,118.1682,26.6371,南平市,南平市监测站,,22,22,26,11,17,68,68,45,45,8,15,3,4,0.4,0.5
2026-05-13T1300,2334A,118.1757,26.6276,南平市,南平七中,,19,19,23,10,17,56,56,36,36,6,13,3,4,0.4,0.5
2026-05-13T1300,1168A,120.9056,31.9669,南通市,狼山街道,,46,32,35,3,25,145,145,120,120,7,11,5,5,0.6,0.6
2026-05-13T1300,1170A,120.8635,32.0231,南通市,城中,颗粒物(PM10),55,57,46,3,24,124,124,115,115,26,10,5,5,0.5,0.6
2026-05-13T1300,1171A,120.9376,31.9301,南通市,星湖花园,,41,22,32,6,24,131,131,110,110,4,8,4,4,0.4,0.5
2026-05-13T1300,1172A,120.8053,32.046,南通市,紫琅学院,,36,36,35,11,26,98,98,88,88,42,19,6,6,0.8,0.8
2026-05-13T1300,3291A,121.0631,32.0644,南通市,通州监测站,,48,34,38,7,26,152,152,119,119,4,4,5,4,0.7,0.7
2026-05-13T1300,3432A,120.9348,31.9874,南通市,环境教育馆,,45,31,42,8,26,141,141,118,118,14,18,5,5,0.5,0.6
2026-05-13T1300,4091A,120.8692,31.9885,南通市,洪江路,,47,39,37,14,26,33,33,95,86,93,21,6,6,0.9,0.9
2026-05-13T1300,2404A,112.5338,33.0086,南阳市,瓦房庄,,33,29,55,22,42,105,105,83,83,4,9,4,6,0.2,0.4
2026-05-13T1300,2405A,112.5002,32.9734,南阳市,汉画馆,,35,35,67,13,45,106,106,95,81,6,13,5,7,0.3,0.5
2026-05-13T1300,2406A,112.5778,33.0144,南阳市,气象站,,34,24,57,19,41,106,106,84,84,4,7,6,8,0.1,0.3
2026-05-13T1300,2407A,112.548,32.9687,南阳市,理工学院,,34,26,57,9,47,108,108,85,85,5,20,6,8,0.2,0.4
2026-05-13T1300,4008A,112.5233,32.9921,南阳市,卧龙区政府,,35,24,64,17,47,109,109,85,85,4,11,7,8,0.3,0.5
2026-05-13T1300,1234A,121.8352,29.9111,宁波市,区环保大楼,,31,16,30,3,11,97,97,59,59,11,33,6,7,0.3,0.3
2026-05-13T1300,1235A,121.5595,29.8208,宁波市,万里学院,,40,22,26,6,16,127,127,75,75,6,12,6,4,0.6,0.5
2026-05-13T1300,1236A,121.713,29.9564,宁波市,龙赛医院,,41,20,48,7,20,130,130,61,61,6,29,8,8,0.4,0.5
2026-05-13T1300,1240A,121.5855,29.8635,宁波市,太古小学,,37,21,32,9,16,118,118,75,75,7,12,5,5,0.8,0.7
2026-05-13T1300,1241A,121.5239,29.8673,宁波市,市环境监测中心,,40,28,29,11,18,125,125,72,72,12,23,10,10,0.5,0.5
2026-05-13T1300,2871A,121.6156,29.9015,宁波市,万里国际学校,,41,27,27,9,15,131,131,88,88,7,13,7,7,0.5,0.4
2026-05-13T1300,3710A,121.5593,29.8976,宁波市,白沙活动中心,,41,20,24,13,18,131,131,81,81,8,16,8,8,0.4,0.3
2026-05-13T1300,4095A,121.8962,29.7529,宁波市,中科路88号,,27,10,7,6,4,85,85,79,79,6,5,7,7,0.3,0.4
2026-05-13T1300,2341A,119.5387,26.6611,宁德市,宁德市监测站,细颗粒物(PM2.5),60,42,30,40,27,66,66,54,47,31,23,10,9,1.2,0.6
2026-05-13T1300,3209A,119.5231,26.6562,宁德市,宁德一中,细颗粒物(PM2.5),72,NA,28,46,31,75,75,54,54,20,15,8,8,1.0,0.6
2026-05-13T1300,2618A,98.859,25.8541,怒江傈僳族自治州,州监测站,,28,19,24,17,16,89,89,51,51,5,9,6,6,0.3,0.4
2026-05-13T1300,2619A,98.8607,25.8168,怒江傈僳族自治州,泸水一中,,26,20,24,17,18,82,82,41,41,8,18,4,4,0.5,0.5
2026-05-13T1300,1888A,101.6891,26.571,攀枝花市,弄弄坪,,37,24,48,7,15,118,118,63,63,19,23,23,16,2.2,1
2026-05-13T1300,1889A,101.577,26.5914,攀枝花市,河门口,,39,14,28,8,14,123,123,57,57,8,16,12,24,0.9,1.2
2026-05-13T1300,1891A,101.7365,26.4986,攀枝花市,仁和,,32,14,18,8,11,101,101,59,59,5,10,8,8,0.3,0.4
2026-05-13T1300,2835A,101.7222,26.567,攀枝花市,四十中小,,35,35,33,7,18,112,112,54,54,8,21,13,13,0.8,0.9
2026-05-13T1300,1604A,122.0303,41.1489,盘锦市,开发区,臭氧1小时(O3_1h),53,44,31,22,19,162,162,132,132,12,10,9,8,0.5,0.5
2026-05-13T1300,1605A,122.0486,41.0883,盘锦市,兴隆台,细颗粒物(PM2.5),68,NA,37,44,35,155,155,123,123,10,10,9,8,0.6,0.6
2026-05-13T1300,1606A,121.8297,41.1026,盘锦市,新生街道,细颗粒物(PM2.5),66,NA,27,43,37,125,125,110,110,36,16,6,4,0.5,0.4
2026-05-13T1300,1832A,113.3257,33.7423,平顶山市,新华旅馆,细颗粒物(PM2.5),66,60,76,43,57,107,107,88,88,8,14,4,5,0.6,0.8
2026-05-13T1300,1833A,113.2917,33.737,平顶山市,规划设计院,细颗粒物(PM2.5),84,59,82,52,59,106,106,84,84,6,11,9,10,0.6,0.7
2026-05-13T1300,1834A,113.182,33.7738,平顶山市,平顶山工学院,细颗粒物(PM2.5),60,44,65,40,57,103,103,83,83,5,8,6,7,0.5,0.6
2026-05-13T1300,3594A,112.8736,33.9068,平顶山市,石龙区,细颗粒物(PM2.5),54,51,62,37,48,96,96,82,82,6,11,8,9,0.5,0.5
2026-05-13T1300,4116A,113.284,33.7139,平顶山市,姚电大道23号,细颗粒物(PM2.5),80,68,96,50,60,108,108,79,79,7,16,7,7,0.5,0.6
2026-05-13T1300,2656A,106.6633,35.5338,平凉市,聚贤嘉苑,颗粒物(PM10),51,51,50,29,18,92,92,57,57,13,16,11,8,0.6,0.6
2026-05-13T1300,2657A,106.7021,35.5307,平凉市,博物馆,,47,47,47,22,19,94,94,53,53,10,15,11,13,0.5,0.7
2026-05-13T1300,2348A,113.8384,27.6436,萍乡市,中医院,,21,NA,27,3,27,65,65,56,56,10,12,4,6,0.5,0.7
2026-05-13T1300,2350A,113.8677,27.6438,萍乡市,市环保局,,21,11,28,9,31,65,65,53,53,10,12,12,11,0.4,0.7
2026-05-13T1300,2351A,113.8663,27.6202,萍乡市,安源区政府,,22,18,37,8,33,70,70,55,55,10,13,6,7,0.3,0.6
2026-05-13T1300,4107A,113.8686,27.6668,萍乡市,联洪村委会,,21,9,36,6,26,67,67,56,56,7,9,4,6,0.3,0.5
2026-05-13T1300,2319A,119.0142,25.4324,莆田市,荔城区仓后路,,28,26,31,19,15,76,76,65,65,18,18,/,/,/,/
2026-05-13T1300,2320A,119.0016,25.4553,莆田市,莆田市监测站,,28,28,27,14,2,71,71,56,56,13,12,3,4,0.7,0.6
2026-05-13T1300,2321A,119.112,25.4561,莆田市,涵江区六中,,26,23,26,11,16,82,82,55,55,15,23,/,/,0.7,0.6
2026-05-13T1300,2322A,119.1014,25.3215,莆田市,秀屿区政府,,27,21,25,14,16,84,84,72,72,9,10,5,5,0.6,0.5
2026-05-13T1300,2392A,115.0312,35.7636,濮阳市,环保局,颗粒物(PM10),63,67,60,40,37,122,122,93,93,8,11,5,5,0.6,0.6
2026-05-13T1300,3021A,115,35.7667,濮阳市,濮水河管理处,细颗粒物(PM2.5),56,57,65,38,36,116,116,92,92,6,10,4,5,0.7,0.7
2026-05-13T1300,4118A,115.0552,35.7816,濮阳市,中原东路68号,颗粒物(PM10),63,68,69,39,34,131,131,102,102,6,8,5,5,0.4,0.6
2026-05-13T1300,4216A,115.0923632,35.76857718,濮阳市,任丘路479号,NA,NA,68,61,41,38,123,123,70,NA,NA,16,3,4,0.7,0.8
2026-05-13T1300,2601A,100.9801,22.7634,普洱市,市环保局,,28,28,24,14,11,84,84,54,54,6,4,5,4,0.6,0.7
2026-05-13T1300,2602A,100.9763,22.8237,普洱市,普洱第二中学,,28,26,24,7,9,88,88,64,64,3,4,5,5,0.7,0.7
2026-05-13T1300,3345A,131.0413,45.7795,七台河市,中波台,,50,43,146,35,81,111,111,97,97,6,16,3,5,0.5,0.6
2026-05-13T1300,3637A,131.0136,45.7688,七台河市,人民广场,,49,49,95,30,66,112,112,102,102,7,18,9,10,0.5,0.6
2026-05-13T1300,3684A,130.8639,45.8144,七台河市,新建矿广场,,41,41,90,27,70,108,108,98,98,10,17,9,9,0.7,0.7
2026-05-13T1300,1779A,123.9307,47.3641,齐齐哈尔市,安居小区,NA,NA,NA,79,NA,34,151,151,104,104,10,10,9,8,0.7,0.6
2026-05-13T1300,1780A,123.9497,47.3389,齐齐哈尔市,中心广场,颗粒物(PM10),54,55,97,30,39,148,148,100,100,7,10,12,11,0.4,0.4
2026-05-13T1300,1781A,123.9483,47.3229,齐齐哈尔市,农牧车辆厂,颗粒物(PM10),58,61,79,18,34,163,163,110,110,8,11,7,6,0.1,0.2
2026-05-13T1300,1783A,123.9442,47.2994,齐齐哈尔市,市环境监测站,,48,40,81,22,38,152,152,104,104,9,11,5,4,0.6,0.5
2026-05-13T1300,3662A,123.6341,47.2079,齐齐哈尔市,富区青少年活动中心,NA,NA,NA,108,NA,40,NA,NA,130,NA,NA,8,NA,4,NA,0.5
2026-05-13T1300,2591A,107.9765,26.5724,黔东南苗族侗族自治州,市环境监测站,,26,23,30,18,25,53,53,34,34,2,4,2,2,0.6,0.6
2026-05-13T1300,2881A,107.8909,26.531,黔东南苗族侗族自治州,凯里学院,,34,34,31,13,23,70,70,44,44,6,7,1,2,0.5,0.6
2026-05-13T1300,2593A,107.5223,26.2371,黔南布依族苗族自治州,小围寨,,20,12,14,10,14,64,64,47,47,4,6,5,6,0.4,0.6
2026-05-13T1300,3538A,107.5175,26.2977,黔南布依族苗族自治州,沙坝,,25,NA,18,17,12,66,66,35,35,3,5,4,4,0.5,0.7
2026-05-13T1300,2589A,104.9022,25.0943,黔西南布依族苗族自治州,场坝街,,31,15,17,6,10,99,99,78,78,6,5,6,6,0.3,0.4
2026-05-13T1300,2590A,104.8812,25.0994,黔西南布依族苗族自治州,坪东大道,,30,14,20,8,10,96,96,63,63,4,9,4,4,0.2,0.4
2026-05-13T1300,2502A,108.6238,21.9667,钦州市,市环保站,,29,29,23,8,6,60,60,46,46,3,8,1,3,0.4,0.5
2026-05-13T1300,2503A,108.655,21.9481,钦州市,沙埠小学,,25,25,25,10,12,64,64,51,51,2,8,2,4,0.5,0.5
2026-05-13T1300,2504A,108.5989,21.7435,钦州市,港区一小,,36,36,34,13,13,54,54,47,47,3,7,2,2,0.5,0.5
2026-05-13T1300,3404A,108.5959,21.9634,钦州市,北职校,,31,31,25,10,9,60,60,47,47,2,6,2,3,0.5,0.5
2026-05-13T1300,1046A,119.5247,39.9346,秦皇岛市,建设大厦,颗粒物(PM10),73,81,46,26,22,140,140,96,96,18,13,9,6,0.7,0.3
2026-05-13T1300,3132A,119.5979,39.938,秦皇岛市,文明里,颗粒物(PM10),87,101,47,40,21,135,135,92,92,25,18,13,9,0.6,0.3
2026-05-13T1300,4066A,119.7458,39.9952,秦皇岛市,南园路157号,颗粒物(PM10),63,67,43,37,23,134,134,92,92,21,21,10,8,0.6,0.3
2026-05-13T1300,4067A,119.5131,39.8858,秦皇岛市,翠岛大街1号,颗粒物(PM10),54,55,37,36,21,162,162,108,108,22,15,15,10,0.7,0.4
2026-05-13T1300,4198A,119.509013,39.825305,秦皇岛市,北戴河轮滑馆,颗粒物(PM10),59,62,35,33,19,128,128,91,91,26,15,9,8,0.6,0.3
2026-05-13T1300,1310A,120.404,36.0625,青岛市,市南区东部子站,,37,7,13,3,7,118,118,122,120,4,6,5,5,0.3,0.3
2026-05-13T1300,1311A,120.362344,36.10282,青岛市,四方区子站,,45,12,20,6,12,142,142,137,137,7,12,6,6,0.5,0.5
2026-05-13T1300,1312A,120.294373,36.054183,青岛市,市南区西部子站,,36,12,11,3,4,114,114,121,115,19,12,4,4,0.4,0.5
2026-05-13T1300,1313A,120.4581,36.0858,青岛市,崂山区子站,,42,7,7,3,7,132,132,134,131,4,4,8,8,0.3,0.3
2026-05-13T1300,1315A,120.3945,36.3083,青岛市,城阳区子站,,44,27,40,3,16,140,140,126,126,11,18,6,7,0.6,0.7
2026-05-13T1300,3642A,120.3454,36.0735,青岛市,市北区南部,,43,10,16,3,6,137,137,137,137,2,2,2,2,0.6,0.6
2026-05-13T1300,3643A,120.3897,36.18,青岛市,李沧区北部,,39,24,28,6,13,124,124,119,118,11,18,9,9,0.5,0.6
2026-05-13T1300,4110A,120.5222,36.4089,青岛市,盟旺路653号,,47,34,27,3,13,150,150,121,121,8,9,4,4,0.5,0.6
2026-05-13T1300,4290A,120.196923,35.954556,青岛市,珠江路669号,,44,17,15,7,8,138,138,136,130,9,12,4,4,0.5,0.6
2026-05-13T1300,4291A,120.0424,35.8656,青岛市,黄岛区人民政府广场,,42,17,19,3,11,133,133,131,131,11,12,8,8,0.6,0.6
2026-05-13T1300,1703A,113.0218,23.7086,清远市,凤城街办,,34,34,60,22,43,99,99,47,47,15,23,/,/,/,/
2026-05-13T1300,3025A,113.0479,23.6343,清远市,技师学院,,35,22,58,14,40,109,109,53,53,8,30,6,6,0.2,0.5
2026-05-13T1300,3318A,112.9898,23.7403,清远市,清新太和,,44,44,58,27,40,113,113,54,54,14,19,11,9,0.5,0.6
2026-05-13T1300,3455A,113.076,23.72,清远市,清城东城,,34,33,67,22,45,107,107,52,52,11,24,/,/,/,/
2026-05-13T1300,2661A,107.6325,35.7357,庆阳市,庆阳五中,,37,37,42,15,16,99,99,82,82,7,8,4,3,0.3,0.3
2026-05-13T1300,2662A,107.6361,35.7067,庆阳市,市环保局,,35,34,39,18,16,109,109,93,93,9,10,5,2,0.4,0.3
2026-05-13T1300,1916A,103.7897,25.5036,曲靖市,环境监测站,,32,23,14,3,7,101,101,72,72,5,6,5,4,0.5,0.5
2026-05-13T1300,1917A,103.8013,25.5357,曲靖市,烟厂办公区,,30,15,12,3,6,96,96,71,71,4,6,5,5,0.4,0.4
2026-05-13T1300,3376A,103.7926,25.4651,曲靖市,南苑二区,,30,11,7,7,5,94,94,70,70,7,7,4,4,0.2,0.3
2026-05-13T1300,3377A,103.7442,25.5259,曲靖市,曲靖师范学院,,31,7,13,3,10,99,99,70,70,6,10,3,3,0.3,0.3
2026-05-13T1300,1264A,118.8694,28.94,衢州市,环保大楼,细颗粒物(PM2.5),74,66,65,47,45,107,107,44,44,11,28,/,/,/,/
2026-05-13T1300,1266A,118.8622,28.9809,衢州市,衢州学院,细颗粒物(PM2.5),88,79,51,54,34,78,78,27,27,26,40,11,8,0.7,0.6
2026-05-13T1300,4097A,118.9646,28.9832,衢州市,衢州三中,细颗粒物(PM2.5),78,67,61,49,39,108,108,32,32,13,32,15,12,0.8,0.7
2026-05-13T1300,1611A,118.5818,24.9116,泉州市,涂山街,,33,33,34,21,23,66,66,51,51,21,23,5,4,0.5,0.6
2026-05-13T1300,1612A,118.597,24.8976,泉州市,津头埔,,34,34,34,21,21,71,71,54,54,18,21,5,4,0.5,0.5
2026-05-13T1300,1613A,118.6669,24.9422,泉州市,万安,,27,27,31,15,19,73,73,50,50,14,16,4,4,0.3,0.4
2026-05-13T1300,4105A,118.6355,24.9148,泉州市,霞新路6号,,35,35,29,18,20,68,68,47,47,19,25,/,/,0.5,0.6
2026-05-13T1300,2626A,88.8873,29.2723,日喀则市,日喀则监测站,,35,9,13,3,5,111,111,93,93,4,5,9,8,0.4,0.4
2026-05-13T1300,3726A,88.8775,29.2425,日喀则市,林业技术推广中心,,36,8,13,3,2,114,114,99,99,4,4,9,8,0.3,0.3
2026-05-13T1300,1659A,119.4711,35.421,日照市,监测站,,45,39,42,14,25,142,142,114,114,25,32,12,10,0.9,0.6
2026-05-13T1300,1660A,119.523,35.4216,日照市,市政府广场,,46,17,39,10,23,145,145,122,122,11,20,5,6,0.8,0.7
2026-05-13T1300,1661A,119.5511,35.4113,日照市,港务局,,48,22,29,11,19,152,152,139,139,7,12,4,5,0.7,0.7
2026-05-13T1300,3507A,119.5326,35.4627,日照市,职业技术学院,,47,22,34,10,20,150,150,134,134,14,17,7,7,0.7,0.6
2026-05-13T1300,3604A,119.3267,35.1043,日照市,岚山环保分局,,45,39,50,16,25,144,144,106,106,16,20,10,10,0.6,0.7
2026-05-13T1300,1835A,111.1922,34.7752,三门峡市,市政府,细颗粒物(PM2.5),76,69,77,48,52,127,127,89,89,8,13,12,11,0.6,0.7
2026-05-13T1300,1836A,111.1588,34.794,三门峡市,开发区,细颗粒物(PM2.5),86,70,86,53,54,136,136,94,94,12,15,14,13,0.6,0.7
2026-05-13T1300,3039A,111.1911,34.7829,三门峡市,三门峡市第一小学,"颗粒物(PM10),细颗粒物(PM2.5)",80,92,83,50,53,125,125,91,91,8,14,12,11,0.5,0.6
2026-05-13T1300,3598A,111.1031,34.719,三门峡市,富达温泉假日酒店,颗粒物(PM10),81,93,86,47,53,133,133,84,84,14,12,19,12,0.8,0.8
2026-05-13T1300,2324A,117.621,26.2626,三明市,三钢,,24,24,29,11,20,73,73,41,41,9,15,5,6,0.4,0.5
2026-05-13T1300,2325A,117.6352,26.2714,三明市,三明二中,,22,20,32,14,23,68,68,39,39,9,13,2,3,0.4,0.6
2026-05-13T1300,2326A,117.6028,26.2377,三明市,三元区政府,,30,30,33,14,23,66,66,38,38,10,13,5,6,0.7,0.8
2026-05-13T1300,1877A,109.4962,18.2682,三亚市,河西子站,,17,14,17,7,9,52,52,42,42,2,5,4,4,0.3,0.3
2026-05-13T1300,3540A,109.7348,18.3443,三亚市,君悦子站,,17,7,15,6,7,54,54,40,40,3,8,3,3,0.4,0.4
2026-05-13T1300,4135A,109.1714,18.3739,三亚市,城东小学站,,19,19,23,7,11,53,53,38,38,3,7,/,/,/,/
2026-05-13T1300,2624A,91.7592,29.234,山南市,山南监测站,,36,10,12,8,6,115,115,104,95,3,4,8,7,0.2,0.2
2026-05-13T1300,2625A,91.7701,29.2436,山南市,山南人民医院,,36,8,16,3,6,114,114,99,94,1,3,6,7,0.2,0.2
2026-05-13T1300,1674A,116.6795,23.3666,汕头市,金平子站,,40,28,38,9,33,128,128,141,121,9,9,5,5,0.7,0.7
2026-05-13T1300,1675A,116.7248,23.3632,汕头市,龙湖子站,,37,20,37,9,33,118,118,126,110,4,4,6,6,/,/
2026-05-13T1300,1676A,116.7257,23.2774,汕头市,濠江子站,,34,18,43,7,32,108,108,104,96,11,12,8,8,/,/
2026-05-13T1300,1677A,116.7518,23.4712,汕头市,澄海子站,,39,NA,43,11,35,122,122,126,123,9,9,7,7,0.8,0.8
2026-05-13T1300,1678A,116.6088,23.2539,汕头市,潮阳子站,,33,24,38,7,33,105,105,125,103,3,7,6,7,0.5,0.8
2026-05-13T1300,3444A,116.4539,23.2684,汕头市,潮南峡山,,32,7,58,3,44,101,101,122,97,2,5,7,7,0.7,0.9
2026-05-13T1300,3624A,116.4069,23.2533,汕头市,潮南子站,,30,7,57,3,44,94,94,114,89,5,10,5,6,/,/
2026-05-13T1300,1693A,115.3653,22.7751,汕尾市,市环保局,,31,19,22,3,8,99,99,81,81,4,5,5,5,0.5,0.6
2026-05-13T1300,1695A,115.362,22.7926,汕尾市,新城中学,,32,21,18,3,9,101,101,87,87,3,5,6,6,0.4,0.5
2026-05-13T1300,2645A,109.9155,33.8714,商洛市,监测站,,50,50,67,35,47,114,114,104,102,6,11,7,7,0.7,0.8
2026-05-13T1300,3045A,109.9647,33.8486,商洛市,商州区中学,颗粒物(PM10),53,54,65,35,46,117,117,100,100,5,12,7,8,0.6,0.7
2026-05-13T1300,2408A,115.6701,34.4283,商丘市,环境监测站,颗粒物(PM10),54,55,61,31,33,134,134,116,116,2,4,4,5,0.4,0.5
2026-05-13T1300,2409A,115.6458,34.4047,商丘市,粮食局,颗粒物(PM10),67,73,62,26,34,126,126,110,110,6,8,7,7,0.4,0.5
2026-05-13T1300,3171A,115.6069,34.4465,商丘市,梁园区档案局,颗粒物(PM10),53,54,57,30,35,126,126,106,106,2,5,3,3,0.4,0.4
2026-05-13T1300,4119A,115.6701,34.3767,商丘市,北海东路185号,,39,28,59,25,36,122,122,104,104,2,6,4,4,0.4,0.5
2026-05-13T1300,4120A,115.6172,34.3704,商丘市,中山大街3号,细颗粒物(PM2.5),64,NA,66,42,36,120,120,100,100,4,9,6,6,0.4,0.5
2026-05-13T1300,1141A,121.401,31.2382,上海市,普陀,,31,18,41,8,29,97,97,78,78,24,24,6,6,0.4,0.5
2026-05-13T1300,1142A,121.4774,31.2043,上海市,十五厂,,27,19,36,10,25,85,85,76,76,22,23,6,6,0.6,0.6
2026-05-13T1300,1143A,121.4673,31.3011,上海市,虹口,,34,10,39,8,30,107,107,74,74,12,28,5,5,0.8,0.8
2026-05-13T1300,1147A,121.4253,31.226,上海市,静安监测站,,30,16,37,10,27,95,95,79,79,25,28,8,9,0.7,0.7
2026-05-13T1300,1148A,121.7029,31.1905,上海市,浦东川沙,,23,12,23,9,16,72,72,80,80,29,22,9,9,0.6,0.6
2026-05-13T1300,1149A,121.5339,31.229,上海市,浦东新区监测站,,26,11,32,8,23,83,83,71,71,19,21,6,6,0.4,0.5
2026-05-13T1300,1150A,121.5776,31.2038,上海市,浦东张江,,28,12,32,8,22,87,87,77,77,20,21,7,6,0.0,0.2
2026-05-13T1300,3265A,121.4242,31.3303,上海市,宝山庙行,,32,13,54,6,28,102,102,68,68,11,35,7,8,0.2,0.3
2026-05-13T1300,3266A,121.8789,31.4662,上海市,崇明上实东滩,,27,8,22,7,14,85,85,91,85,10,8,4,4,0.2,0.3
2026-05-13T1300,3268A,121.316,31.2839,上海市,嘉定南翔,,40,15,44,10,31,128,128,72,72,21,31,5,5,0.5,0.5
2026-05-13T1300,3269A,121.3357,30.7455,上海市,金山新城,,31,9,19,7,15,97,97,68,68,8,14,4,5,0.6,0.7
