timepoint,stationcode,longitude,latitude,area,positionname,primarypollutant,aqi,pm10,pm10_24h,pm2_5,pm2_5_24h,o3,o3_24h,o3_8h,o3_8h_24h,no2,no2_24h,so2,so2_24h,co,co_24h
2026-05-13T2100,2568A,102.2503,31.8896,阿坝藏族羌族自治州,马师校,,31,31,22,13,9,80,80,125,121,12,5,6,6,0.3,0.3
2026-05-13T2100,3994A,102.2174,31.9016,阿坝藏族羌族自治州,马尔康中学西区,,27,24,16,12,9,84,84,116,114,10,6,4,4,0.3,0.2
2026-05-13T2100,2695A,80.2899,41.1684,阿克苏地区,电视台,颗粒物(PM10),500,756,964,277,287,0,0,NA,NA,5,8,3,4,0.5,0.6
2026-05-13T2100,2696A,80.2592,41.1541,阿克苏地区,艺术中心,颗粒物(PM10),500,617,509,316,215,100,100,107,106,7,8,4,4,0.4,0.4
2026-05-13T2100,2205A,105.699,38.8409,阿拉善盟,蒙二幼,颗粒物(PM10),68,74,49,20,17,116,116,136,135,10,7,11,11,0.4,0.4
2026-05-13T2100,2206A,105.7198,38.8508,阿拉善盟,环保局新楼,颗粒物(PM10),65,70,47,21,14,115,115,134,132,7,5,9,9,0.5,0.4
2026-05-13T2100,2708A,88.1266,47.8515,阿勒泰地区,市站,,25,19,34,3,5,78,78,84,83,8,5,5,6,0.3,0.2
2026-05-13T2100,4166A,88.1198,47.7931,阿勒泰地区,阿勒泰路33号,,27,21,32,3,7,85,85,87,87,4,4,5,5,0.2,0.1
2026-05-13T2100,2630A,80.1171,32.4999,阿里地区,阿里监测站,,35,16,14,3,2,109,109,120,118,1,3,7,7,0.3,0.3
2026-05-13T2100,3192A,80.0906,32.5029,阿里地区,阿里藏医院,,35,16,12,3,2,112,112,124,122,1,1,4,5,0.2,0.2
2026-05-13T2100,2644A,109.0088,32.6974,安康市,汉滨区检察院,NA,NA,NA,52,NA,31,NA,NA,78,78,15,10,5,9,0.4,0.4
2026-05-13T2100,4054A,109.0324,32.6913,安康市,市邮政管理局,,37,37,48,24,35,43,43,79,75,14,9,5,8,0.5,0.5
2026-05-13T2100,2291A,117.0806,30.5181,安庆市,环科院,细颗粒物(PM2.5),134,105,75,97,67,NA,NA,112,94,38,36,11,9,0.8,0.7
2026-05-13T2100,2292A,117.0331,30.5118,安庆市,马山宾馆,细颗粒物(PM2.5),141,133,78,105,67,11,11,112,81,70,42,9,7,1.0,0.8
2026-05-13T2100,2294A,116.9897,30.6146,安庆市,安庆大学,细颗粒物(PM2.5),72,71,66,46,54,73,73,110,97,11,19,9,6,0.5,0.7
2026-05-13T2100,3173A,117.0598,30.5351,安庆市,市人大,细颗粒物(PM2.5),120,102,82,82,64,44,44,116,98,36,26,11,10,0.7,0.7
2026-05-13T2100,3123A,105.9408,26.2431,安顺市,凤凰山,细颗粒物(PM2.5),109,124,22,69,16,62,62,105,101,28,7,11,5,1.0,0.6
2026-05-13T2100,3124A,105.9443,26.2567,安顺市,金钟山,细颗粒物(PM2.5),78,72,20,49,18,73,73,94,93,14,5,10,6,0.7,0.6
2026-05-13T2100,3125A,105.8983,26.248,安顺市,娄家坡,,42,30,19,29,15,66,66,92,92,17,4,7,6,0.7,0.6
2026-05-13T2100,1819A,114.3552,36.1017,安阳市,红庙街,细颗粒物(PM2.5),104,86,78,64,52,121,121,145,140,14,13,4,6,0.6,0.7
2026-05-13T2100,1820A,114.361,36.0681,安阳市,银杏小区,细颗粒物(PM2.5),104,98,76,64,43,127,127,146,142,29,15,11,8,0.6,0.5
2026-05-13T2100,3141A,114.3921,36.0879,安阳市,信访局,细颗粒物(PM2.5),104,74,76,64,55,NA,NA,151,150,11,10,3,3,0.7,0.7
2026-05-13T2100,3669A,114.4706,36.0634,安阳市,左辅环卫站,细颗粒物(PM2.5),90,91,82,55,48,78,78,130,119,15,12,3,2,0.5,0.6
2026-05-13T2100,4117A,114.2918,36.0769,安阳市,钢三路198号,细颗粒物(PM2.5),103,94,76,63,50,114,114,137,133,11,10,2,3,0.6,0.6
2026-05-13T2100,1748A,123.0441,41.1201,鞍山市,深沟寺,,37,28,27,19,15,118,118,120,117,8,7,8,7,0.6,0.6
2026-05-13T2100,1749A,123.011,41.0931,鞍山市,太阳城,,36,36,30,22,17,106,106,126,114,7,6,7,8,0.6,0.6
2026-05-13T2100,1750A,123.0483,41.1445,鞍山市,太平,,48,48,41,22,17,109,109,113,111,14,10,7,7,0.5,0.5
2026-05-13T2100,1751A,122.964,41.0968,鞍山市,铁西三道街,,50,50,44,27,20,116,116,125,118,10,12,6,6,0.7,0.7
2026-05-13T2100,1753A,123.0219,41.0822,鞍山市,明达新区,,35,29,27,19,16,111,111,125,115,8,9,7,7,0.5,0.5
2026-05-13T2100,4201A,122.944647,41.082639,鞍山市,兴盛南路290号,颗粒物(PM10),56,58,47,26,19,118,118,128,121,11,13,8,9,0.5,0.5
2026-05-13T2100,2195A,107.4206,40.7609,巴彦淖尔市,附二中,NA,NA,106,236,40,77,NA,NA,143,143,NA,10,NA,10,NA,0.5
2026-05-13T2100,2196A,107.37,40.7372,巴彦淖尔市,市环保大楼,颗粒物(PM10),67,73,208,32,68,106,106,140,136,15,9,8,8,0.5,0.4
2026-05-13T2100,1956A,86.1476,41.7529,巴音郭楞蒙古自治州,孔雀公园,,31,13,24,3,8,99,99,107,94,5,6,3,3,0.3,0.3
2026-05-13T2100,1957A,86.1971,41.7166,巴音郭楞蒙古自治州,棉纺厂,,31,14,27,3,13,99,99,97,96,8,7,/,/,/,/
2026-05-13T2100,1958A,86.236,41.7172,巴音郭楞蒙古自治州,经济开发区,,29,18,19,3,12,92,92,97,91,7,3,8,8,0.2,0.2
2026-05-13T2100,3181A,106.776805,31.852614,巴中市,市五中,NA,NA,NA,26,NA,14,NA,NA,91,90,NA,9,NA,5,NA,0.5
2026-05-13T2100,3183A,106.7419,31.8654,巴中市,圣泉水务公司,,33,33,18,19,14,22,22,91,76,38,10,7,6,0.6,0.6
2026-05-13T2100,3616A,106.7617,31.8343,巴中市,市中心医院,,41,41,28,21,13,37,37,105,NA,32,10,6,6,0.7,0.5
2026-05-13T2100,2235A,122.7909,45.608,白城市,洮北区环保局,颗粒物(PM10),77,87,66,42,38,156,156,181,180,15,9,4,4,0.5,0.4
2026-05-13T2100,2236A,122.8741,45.5725,白城市,市环保局,颗粒物(PM10),72,80,76,34,33,103,103,157,152,34,15,3,4,0.5,0.4
2026-05-13T2100,2231A,126.4219,41.9172,白山市,喜丰,细颗粒物(PM2.5),62,57,59,41,21,75,75,126,120,28,26,10,12,0.8,0.8
2026-05-13T2100,2232A,126.4082,41.9416,白山市,环保局,,41,41,38,18,18,67,67,126,116,21,16,12,12,0.9,0.8
2026-05-13T2100,2647A,104.1727,36.5448,白银市,第三小学,,37,37,38,12,18,86,86,102,102,13,12,21,21,0.4,0.5
2026-05-13T2100,2648A,104.1467,36.5482,白银市,动力公司,,41,41,35,20,18,90,90,102,102,12,12,14,14,0.4,0.5
2026-05-13T2100,2512A,106.6102,23.901,百色市,市监测站,,44,44,55,23,35,38,38,86,83,16,13,8,12,0.8,0.9
2026-05-13T2100,2513A,106.6524,23.8842,百色市,市中心血站,,35,35,60,17,44,68,68,90,90,19,19,11,11,0.6,1
2026-05-13T2100,4133A,106.6273,23.8798,百色市,龙景西路,,26,26,80,18,40,74,74,92,92,18,18,13,13,0.4,0.7
2026-05-13T2100,2270A,117.396,32.9389,蚌埠市,工人疗养院,细颗粒物(PM2.5),92,74,66,56,38,140,140,184,176,21,19,6,7,0.7,0.6
2026-05-13T2100,2271A,117.3606,32.9428,蚌埠市,百货大楼,细颗粒物(PM2.5),84,76,59,52,36,138,138,183,176,20,17,7,8,0.7,0.6
2026-05-13T2100,2273A,117.4183,32.8909,蚌埠市,蚌埠学院,NA,NA,80,60,55,38,NA,NA,189,186,18,11,6,6,0.7,0.6
2026-05-13T2100,2274A,117.3534,32.9672,蚌埠市,淮上区政府,细颗粒物(PM2.5),103,75,61,63,38,148,148,190,182,19,20,7,7,0.8,0.6
2026-05-13T2100,2275A,117.3143,32.8977,蚌埠市,高新区,颗粒物(PM10),65,70,60,34,38,132,132,171,164,22,15,9,8,0.6,0.7
2026-05-13T2100,3715A,117.3091,32.9314,蚌埠市,蚌埠田家炳中学,细颗粒物(PM2.5),106,74,60,66,39,137,137,182,174,15,11,6,7,0.7,0.6
2026-05-13T2100,1585A,109.8761,40.6533,包头市,市环境监测站,颗粒物(PM10),62,66,85,35,33,75,75,157,138,70,26,10,18,0.7,0.7
2026-05-13T2100,1587A,109.9992,40.5843,包头市,包头八中,颗粒物(PM10),65,71,78,37,37,36,36,138,122,96,23,10,12,0.8,0.5
2026-05-13T2100,1589A,109.8641,40.6288,包头市,惠龙物流,细颗粒物(PM2.5),64,68,74,42,33,90,90,146,136,46,19,12,25,0.6,0.6
2026-05-13T2100,1590A,110.0376,40.5546,包头市,东河鸿龙湾,颗粒物(PM10),56,58,69,35,31,98,98,143,137,30,15,12,14,0.4,0.4
2026-05-13T2100,3283A,109.9154,40.5684,包头市,滨河大厦,,49,49,69,32,32,93,93,143,136,53,19,6,8,0.4,0.4
2026-05-13T2100,3419A,109.9449,40.6259,包头市,包头市委党校,颗粒物(PM10),53,54,63,24,31,80,80,152,142,51,18,8,17,0.5,0.7
2026-05-13T2100,3683A,109.8332,40.6577,包头市,昆区政府,颗粒物(PM10),58,61,84,32,32,74,74,143,133,62,29,5,17,0.8,1
2026-05-13T2100,1931A,107.0802,34.3129,宝鸡市,竹园沟,,32,32,26,14,15,53,53,78,76,4,6,8,8,0.4,0.4
2026-05-13T2100,1933A,107.1429,34.3549,宝鸡市,监测站,,38,38,27,26,19,62,62,80,80,15,9,6,6,0.4,0.2
2026-05-13T2100,1934A,107.1172,34.3759,宝鸡市,技工学校,,32,29,26,22,17,66,66,32,NA,9,6,4,4,0.6,0.6
2026-05-13T2100,1936A,107.2025,34.3518,宝鸡市,文理学院,,36,36,29,21,18,80,80,86,86,19,13,6,6,0.5,0.4
2026-05-13T2100,1937A,107.2396,34.3626,宝鸡市,三迪小学,,36,36,32,21,17,78,78,86,86,21,15,6,6,0.5,0.5
2026-05-13T2100,4155A,107.1721,34.3558,宝鸡市,滨河北路,,33,33,28,20,17,67,67,77,77,12,9,8,8,0.5,0.5
2026-05-13T2100,4308A,107.3898,34.3601,宝鸡市,陈仓区北开路21号,,36,36,32,22,18,49,49,63,62,12,13,9,17,0.5,0.5
2026-05-13T2100,1051A,115.4803,38.8568,保定市,游泳馆,颗粒物(PM10),63,67,68,34,51,114,114,178,160,12,14,9,10,0.2,0.4
2026-05-13T2100,1052A,115.509,38.8895,保定市,华电二区,颗粒物(PM10),65,71,70,36,51,112,112,179,166,9,9,5,6,0.5,0.7
2026-05-13T2100,1053A,115.4588,38.9037,保定市,接待中心,颗粒物(PM10),60,64,75,37,52,113,113,167,156,11,10,1,2,0.4,0.6
2026-05-13T2100,1054A,115.4484,38.8344,保定市,地表水厂,颗粒物(PM10),115,158,89,30,48,100,100,157,NA,21,15,2,4,0.4,0.7
2026-05-13T2100,3581A,115.3136,38.9511,保定市,满城区生态环境分局,,45,44,54,31,44,110,110,195,177,12,14,4,5,0.0,0.2
2026-05-13T2100,3582A,115.4709,38.7628,保定市,清苑区第二中学,颗粒物(PM10),77,87,96,26,39,96,96,146,137,22,16,10,11,0.3,0.5
2026-05-13T2100,3583A,115.6231,39.0223,保定市,徐水物探局,细颗粒物(PM2.5),92,91,99,56,53,105,105,176,161,19,14,4,4,0.4,0.5
2026-05-13T2100,4004A,115.4199,38.8665,保定市,双鹰农机,NA,NA,73,80,38,54,NA,NA,185,173,13,11,2,2,0.3,0.5
2026-05-13T2100,4034A,115.515,38.8589,保定市,植保所站,颗粒物(PM10),96,114,114,32,52,115,115,191,174,18,15,6,6,0.1,0.4
2026-05-13T2100,2594A,99.1589,25.1137,保山市,市环境监测站,,26,26,20,16,10,77,77,96,93,7,7,7,7,0.4,0.4
2026-05-13T2100,2595A,99.1616,25.1381,保山市,市环保局,,35,27,21,24,13,84,84,97,94,4,5,6,6,0.2,0.2
2026-05-13T2100,1867A,109.1435,21.4085,北海市,海滩公园,,33,33,23,14,17,68,68,67,64,5,5,6,6,0.6,0.7
2026-05-13T2100,1868A,109.0983,21.466,北海市,新市环保局,,30,NA,17,21,13,76,76,70,70,6,5,2,2,0.4,0.4
2026-05-13T2100,1869A,109.1775,21.5232,北海市,北海工业园,,20,19,20,8,10,64,64,64,64,4,4,2,4,0.5,0.5
2026-05-13T2100,3400A,109.1844,21.4396,北海市,龙潭自来水厂,,22,15,42,11,6,70,70,68,68,2,3,3,2,0.6,0.6
2026-05-13T2100,1001A,116.3611,39.8786,北京市,万寿西宫,细颗粒物(PM2.5),120,147,88,81,52,187,187,238,230,16,22,4,5,0.8,0.6
2026-05-13T2100,1003A,116.4174,39.9289,北京市,东四,细颗粒物(PM2.5),118,148,98,79,57,191,191,244,237,21,26,3,5,0.8,0.7
2026-05-13T2100,1004A,116.4073,39.8858,北京市,天坛,细颗粒物(PM2.5),123,133,89,85,49,195,195,231,225,20,25,1,2,0.9,0.8
2026-05-13T2100,1005A,116.4622,39.9364,北京市,农展馆,细颗粒物(PM2.5),119,137,91,80,53,195,195,236,232,15,28,4,5,0.9,0.7
2026-05-13T2100,1006A,116.3399,39.9293,北京市,官园,颗粒物(PM10),114,156,96,NA,54,183,183,229,224,21,24,3,2,0.8,0.6
2026-05-13T2100,1007A,116.2879,39.9613,北京市,海淀万柳,细颗粒物(PM2.5),110,125,94,70,51,146,146,211,199,23,26,4,6,0.9,0.7
2026-05-13T2100,1008A,116.6635,40.1349,北京市,顺义新城,细颗粒物(PM2.5),121,130,94,83,56,180,180,228,225,21,19,3,4,0.8,0.8
2026-05-13T2100,1009A,116.6275,40.327,北京市,怀柔镇,细颗粒物(PM2.5),119,122,84,80,52,175,175,220,218,14,12,3,4,0.8,0.6
2026-05-13T2100,1010A,116.2295,40.217,北京市,昌平镇,臭氧1小时(O3_1h),105,109,80,63,45,209,209,252,252,15,21,4,5,0.8,0.5
2026-05-13T2100,1011A,116.3968,39.982,北京市,奥体中心,细颗粒物(PM2.5),125,157,95,87,51,196,196,222,220,19,30,4,5,0.9,0.7
2026-05-13T2100,3418A,116.8336,40.4095,北京市,密云新城,细颗粒物(PM2.5),104,112,83,64,44,133,133,211,204,14,16,2,2,0.8,0.6
2026-05-13T2100,3671A,116.0879,39.9725,北京市,门头沟三家店,颗粒物(PM10),105,133,93,48,45,124,124,240,224,36,26,3,4,0.8,0.6
2026-05-13T2100,3672A,116.1507,39.8246,北京市,丰台云岗,细颗粒物(PM2.5),112,129,99,73,53,178,178,237,229,23,24,2,3,0.8,0.7
2026-05-13T2100,3674A,115.9578,39.7602,北京市,房山燕山,颗粒物(PM10),99,118,93,59,50,171,171,218,210,10,17,5,5,0.6,0.5
2026-05-13T2100,3675A,116.4669,39.7734,北京市,大兴旧宫,细颗粒物(PM2.5),127,176,118,89,53,183,183,220,214,21,22,1,2,0.9,0.7
2026-05-13T2100,3694A,115.9859,40.4562,北京市,延庆石河营,细颗粒物(PM2.5),120,125,86,82,54,223,223,243,243,34,22,2,2,0.8,0.6
2026-05-13T2100,3695A,116.6151,40.3052,北京市,怀柔新城,细颗粒物(PM2.5),132,126,85,95,51,172,172,218,216,16,15,4,6,1.0,0.9
2026-05-13T2100,3696A,116.2542,39.8764,北京市,丰台小屯,细颗粒物(PM2.5),120,119,93,81,50,171,171,220,213,17,18,3,4,0.7,0.6
2026-05-13T2100,3697A,116.8399,40.3843,北京市,密云镇,细颗粒物(PM2.5),104,115,81,64,45,140,140,218,211,43,21,4,4,0.9,0.7
2026-05-13T2100,4057A,115.9423,40.4431,北京市,延庆百泉,臭氧1小时(O3_1h),118,125,89,72,50,236,236,252,252,13,17,1,2,0.9,0.7
2026-05-13T2100,4058A,116.6598,39.9164,北京市,通州新华,"颗粒物(PM10),细颗粒物(PM2.5)",110,144,104,71,59,178,178,203,202,14,18,4,5,0.8,0.8
2026-05-13T2100,4182A,116.1942,39.9158,北京市,石景山八角,细颗粒物(PM2.5),100,111,82,60,49,172,172,232,226,25,31,7,7,0.9,0.7
2026-05-13T2100,4194A,117.078628,40.151726,北京市,平谷新城,细颗粒物(PM2.5),112,130,86,73,51,176,176,193,190,18,11,4,5,1.0,0.9
2026-05-13T2100,1761A,123.8274146,41.31234549,本溪市,大峪,,40,40,35,19,16,103,103,120,116,9,10,6,6,0.5,0.4
2026-05-13T2100,1763A,123.7169,41.3094,本溪市,彩屯,,37,37,39,21,22,90,90,107,103,31,24,32,15,2.1,2.6
2026-05-13T2100,1764A,123.7672166,41.28649327,本溪市,东明,,40,24,42,18,14,126,126,130,121,7,9,7,7,0.6,0.6
2026-05-13T2100,1765A,123.799345,41.266614,本溪市,新立屯,,32,27,33,17,14,102,102,138,120,15,6,8,8,0.5,0.4
2026-05-13T2100,1766A,123.829144,41.336777,本溪市,威宁,,43,43,37,20,17,105,105,118,116,10,11,7,7,0.6,0.6
2026-05-13T2100,2587A,105.287,27.3133,毕节市,八中,,46,39,46,32,30,82,82,98,96,8,7,11,9,0.6,0.6
2026-05-13T2100,2588A,105.3079,27.2987,毕节市,师专,,39,35,50,27,31,47,47,57,54,7,7,11,11,0.5,0.5
2026-05-13T2100,4263A,105.3688,27.3598,毕节市,工业大道,,46,39,43,32,29,88,88,98,97,8,7,12,13,/,/
2026-05-13T2100,1629A,117.9961,37.3604,滨州市,第二水厂,颗粒物(PM10),67,73,72,30,26,116,116,164,156,23,23,6,9,1.0,0.9
2026-05-13T2100,1630A,117.9789,37.3931,滨州市,北中新校,颗粒物(PM10),56,58,60,30,26,150,150,184,181,27,27,14,16,0.4,0.4
2026-05-13T2100,3514A,117.9379,37.3959,滨州市,中海酒店,颗粒物(PM10),60,63,56,32,25,111,111,185,175,44,25,9,11,0.5,0.4
2026-05-13T2100,3515A,117.9381509,37.35547456,滨州市,开发区一中,颗粒物(PM10),67,73,71,30,27,123,123,176,168,28,30,7,10,0.5,0.5
2026-05-13T2100,3516A,118.0914,37.6938,滨州市,金海六路,颗粒物(PM10),83,95,71,32,30,82,82,168,160,56,30,8,10,0.7,0.5
2026-05-13T2100,4028A,117.9955,37.3752,滨州市,滨州市西街道办事处,颗粒物(PM10),70,78,66,36,29,101,101,179,168,29,24,4,7,0.8,0.6
2026-05-13T2100,2311A,115.8071,33.8399,亳州市,污水处理厂,颗粒物(PM10),52,52,40,34,37,119,119,150,144,15,10,6,6,0.2,0.1
2026-05-13T2100,2312A,115.7789,33.8519,亳州市,三国揽胜宫,颗粒物(PM10),64,69,60,40,34,116,116,145,142,13,9,7,7,0.4,0.3
2026-05-13T2100,3332A,115.7631,33.803,亳州市,亳州学院,颗粒物(PM10),53,54,51,36,35,138,138,148,148,10,9,5,5,0.5,0.4
2026-05-13T2100,2693A,82.0482,44.8553,博尔塔拉蒙古自治州,市党校,,43,43,34,11,9,101,101,99,99,5,3,2,2,0.4,0.4
2026-05-13T2100,2694A,82.0805,44.8966,博尔塔拉蒙古自治州,市环保局,,47,47,32,9,6,94,94,96,96,10,6,3,2,0.3,0.4
2026-05-13T2100,1071A,116.8733,38.2922,沧州市,沧县城建局,颗粒物(PM10),69,76,64,40,43,119,119,145,141,19,14,8,6,0.5,0.5
2026-05-13T2100,1072A,116.8462,38.3189,沧州市,电视转播站,"颗粒物(PM10),细颗粒物(PM2.5)",66,72,62,43,40,116,116,146,144,16,13,11,9,0.4,0.4
2026-05-13T2100,1073A,116.8588,38.3161,沧州市,市环保局,颗粒物(PM10),70,78,69,41,41,130,130,159,156,14,12,9,9,0.5,0.5
2026-05-13T2100,3324A,116.8011,38.294,沧州市,河北水利电力学院,"颗粒物(PM10),细颗粒物(PM2.5)",60,63,61,40,42,115,115,143,138,17,13,12,13,0.4,0.4
2026-05-13T2100,2622A,97.1813,31.1289,昌都市,昌都监测站,NA,NA,8,18,3,7,NA,NA,118,118,NA,11,NA,9,NA,0.6
2026-05-13T2100,3719A,97.1707,31.1428,昌都市,昌都会议中心,,39,8,11,3,5,124,124,124,124,3,5,8,8,0.4,0.4
2026-05-13T2100,2692A,87.2722,44.0298,昌吉回族自治州,新区政务中心,,30,15,13,11,8,96,96,100,100,8,8,6,6,0.4,0.4
2026-05-13T2100,3613A,87.3069,44.0093,昌吉回族自治州,亚心广场,NA,NA,NA,17,NA,6,NA,NA,106,106,4,5,5,5,0.3,0.3
2026-05-13T2100,4164A,87.2057,43.9289,昌吉回族自治州,财政所,,32,29,19,8,5,102,102,101,101,11,6,7,7,0.2,0.2
2026-05-13T2100,1120A,125.2874,43.9024,长春市,客车厂,细颗粒物(PM2.5),54,50,43,37,25,119,119,166,159,22,14,7,8,0.5,0.5
2026-05-13T2100,1121A,125.2943,43.8508,长春市,邮电学院,,43,40,49,30,24,129,129,167,164,13,11,7,8,0.5,0.5
2026-05-13T2100,1122A,125.3648,43.8745,长春市,劳动公园,颗粒物(PM10),53,54,38,34,21,117,117,169,163,22,12,7,8,0.6,0.5
2026-05-13T2100,1123A,125.3233,43.8781,长春市,园林处,,50,50,39,32,23,126,126,170,165,19,12,6,8,0.6,0.5
2026-05-13T2100,1124A,125.4604,43.7904,长春市,净月潭,,35,31,29,23,19,110,110,161,150,11,9,5,6,0.5,0.5
2026-05-13T2100,1126A,125.38,43.8422,长春市,经开区环卫处,,42,42,36,28,21,125,125,168,164,18,13,6,6,0.5,0.5
2026-05-13T2100,1127A,125.234,43.7761,长春市,高新区管委会,,46,46,36,27,20,119,119,173,165,15,11,6,7,0.4,0.5
2026-05-13T2100,1128A,125.1695,43.83,长春市,岱山公园,,47,47,41,30,22,122,122,187,177,27,18,5,5,0.5,0.5
2026-05-13T2100,4281A,125.334645,43.916281,长春市,北亚泰大街1068号,,47,47,40,30,24,113,113,168,162,23,15,7,7,0.6,0.5
2026-05-13T2100,1335A,113.082,28.2421,长沙市,经开区环保局,,19,19,24,9,16,53,53,65,57,15,15,8,4,0.6,0.6
2026-05-13T2100,1336A,112.8873,28.2202,长沙市,高开区环保局,,28,28,22,17,15,42,42,72,60,18,10,6,6,0.6,0.5
2026-05-13T2100,1337A,113.0785,28.2012,长沙市,马坡岭,,20,18,24,14,18,34,34,68,55,23,11,5,5,0.8,0.7
2026-05-13T2100,1338A,112.9448,28.1894,长沙市,湖南师范大学,,23,23,24,14,15,42,42,75,62,15,12,4,5,0.7,0.6
2026-05-13T2100,1339A,113.0177,28.1322,长沙市,雨花区环保局,,22,22,23,10,17,52,52,73,55,9,6,4,4,0.6,0.6
2026-05-13T2100,1340A,112.9795,28.2593,长沙市,伍家岭,,19,19,25,8,16,47,47,65,58,13,11,3,4,0.5,0.6
2026-05-13T2100,1341A,113.002,28.1944,长沙市,火车新站,,28,24,25,19,18,39,39,66,54,20,12,4,4,0.6,0.5
2026-05-13T2100,1342A,112.9846,28.1177,长沙市,天心区环保局,,24,24,25,10,18,57,57,75,60,15,13,5,5,0.6,0.6
2026-05-13T2100,1343A,112.8906,28.1307,长沙市,湖南中医药大学,,26,26,24,16,16,35,35,70,57,24,11,6,6,0.8,0.6
2026-05-13T2100,1727A,113.1146,36.1547,长治市,清华站,,49,49,59,33,40,124,124,148,138,8,11,11,10,0.5,0.6
2026-05-13T2100,1730A,113.0887,36.2126,长治市,审计局,颗粒物(PM10),63,68,65,39,43,121,121,148,138,6,8,11,10,0.6,0.6
2026-05-13T2100,1731A,113.0845,36.1856,长治市,长治八中,NA,NA,104,78,37,44,NA,NA,150,142,11,12,12,14,0.5,0.6
2026-05-13T2100,2845A,113.1561,36.1912,长治市,德盛苑,细颗粒物(PM2.5),58,50,58,39,42,126,126,149,139,8,8,10,10,0.6,0.7
2026-05-13T2100,3568A,113.0603,36.0464,长治市,向阳小学,NA,NA,NA,100,NA,44,124,124,151,143,10,13,11,10,0.7,0.9
2026-05-13T2100,3569A,112.8788,36.315,长治市,屯留一中,颗粒物(PM10),53,54,62,32,44,106,106,140,130,15,16,12,11,0.6,0.8
2026-05-13T2100,4189A,113.113092,36.199482,长治市,英华南巷50号,颗粒物(PM10),59,62,72,32,43,124,124,150,138,5,8,9,8,0.7,0.8
2026-05-13T2100,4190A,113.23666,36.33435,长治市,学府街1号,颗粒物(PM10),55,57,81,37,40,112,112,143,128,6,10,6,8,0.6,0.7
2026-05-13T2100,1854A,111.696,28.9725,常德市,市二中,,25,25,15,16,9,69,69,78,74,3,4,8,8,0.9,0.8
2026-05-13T2100,3138A,111.7152,29.0288,常德市,武陵区永安,,24,22,13,12,6,74,74,84,78,2,2,5,5,0.6,0.6
2026-05-13T2100,3139A,111.6891,28.9881,常德市,鼎城区玉霞,,26,19,13,18,9,65,65,75,73,2,3,9,9,0.9,0.8
2026-05-13T2100,3140A,111.6651,29.0526,常德市,武陵区长庚,,23,20,13,16,8,66,66,85,75,5,3,7,8,0.7,0.7
2026-05-13T2100,1196A,119.9524,31.7586,常州市,市监测站,,43,43,81,13,44,105,105,207,198,33,27,13,13,1.0,1.1
2026-05-13T2100,1200A,119.9351,31.703,常州市,武进监测站,颗粒物(PM10),51,51,108,16,42,111,111,211,201,38,26,8,8,1.5,1
2026-05-13T2100,3002A,119.9701,31.813,常州市,行政中心,颗粒物(PM10),53,54,59,13,42,110,110,201,192,30,26,11,9,0.6,0.6
2026-05-13T2100,3003A,120.0434,31.7726,常州市,经开区,,36,36,92,11,42,101,101,200,189,34,31,7,5,1.1,1
2026-05-13T2100,3010A,119.8919,31.7892,常州市,钟楼,,43,37,69,12,39,137,137,221,215,29,29,11,11,0.7,0.7
2026-05-13T2100,3429A,119.8595,31.706,常州市,武进经发区,,50,50,73,27,32,120,120,206,198,39,31,12,11,1.6,1.2
2026-05-13T2100,3430A,119.5812,31.7256,常州市,金坛城区,NA,NA,NA,51,NA,33,160,160,205,202,22,20,9,10,NA,0.9
2026-05-13T2100,4089A,119.9551,31.863,常州市,崇义南街5-H号,NA,NA,63,67,15,37,117,117,202,193,NA,21,NA,10,1.0,1
2026-05-13T2100,2220A,120.4318,41.588,朝阳市,西梁,颗粒物(PM10),63,68,51,36,29,162,162,174,174,18,16,10,12,0.7,0.8
2026-05-13T2100,2221A,120.452,41.565,朝阳市,河畔小区,臭氧1小时(O3_1h),59,56,51,37,26,167,167,176,176,15,13,10,9,0.6,0.5
2026-05-13T2100,2222A,120.4176,41.5648,朝阳市,八里堡,细颗粒物(PM2.5),78,64,62,49,28,166,166,178,178,17,16,11,8,1.0,0.8
2026-05-13T2100,3026A,116.6179,23.6608,潮州市,市政府,,24,14,44,7,35,74,74,129,111,6,7,3,3,0.6,0.7
2026-05-13T2100,4036A,116.646,23.676,潮州市,金山,,24,19,38,3,32,75,75,133,110,8,8,3,3,0.5,0.6
2026-05-13T2100,2473A,113.0116,25.8228,郴州市,市职中,,38,30,29,26,24,16,16,56,41,16,11,5,7,0.6,0.5
2026-05-13T2100,2475A,113.0381,25.8074,郴州市,市审计局,,39,39,26,21,23,26,26,58,43,15,13,2,4,/,/
2026-05-13T2100,2476A,113.0348,25.7757,郴州市,市环保局,,28,28,28,19,25,45,45,63,48,8,14,6,9,0.5,0.5
2026-05-13T2100,4252A,113.0138,25.8011,郴州市,好美居路49号,,28,28,28,15,16,49,49,51,42,8,14,9,8,/,/
2026-05-13T2100,1431A,103.9727,30.7242,成都市,金泉两河,颗粒物(PM10),55,57,61,36,38,110,110,149,145,19,17,6,6,0.4,0.4
2026-05-13T2100,1432A,104.1423,30.6765,成都市,十里店,细颗粒物(PM2.5),52,47,54,36,36,118,118,142,138,11,12,5,5,0.4,0.8
2026-05-13T2100,1433A,104.0594,30.5765,成都市,三瓦窑,,42,40,48,29,37,126,126,148,144,12,12,2,3,0.4,0.4
2026-05-13T2100,1434A,104.1122,30.6306,成都市,沙河铺,颗粒物(PM10),53,54,50,29,36,108,108,133,129,20,19,3,4,0.3,0.4
2026-05-13T2100,2880A,104.0219,30.6561,成都市,大石西路,颗粒物(PM10),55,56,55,30,38,116,116,141,138,18,18,4,5,0.5,0.8
2026-05-13T2100,3136A,104.2724,30.559,成都市,龙泉驿区区政府,细颗粒物(PM2.5),58,44,42,39,36,102,102,131,125,13,9,8,7,0.5,0.5
2026-05-13T2100,3357A,104.0028,30.6891,成都市,金博路,,48,48,47,32,36,109,109,145,141,19,20,6,6,0.6,0.6
2026-05-13T2100,3359A,104.056,30.5228,成都市,华阳,,46,46,47,29,35,114,114,148,140,18,12,2,2,0.5,0.5
2026-05-13T2100,3488A,104.387954,30.746684,成都市,青石路225号,颗粒物(PM10),60,63,40,37,33,54,54,131,120,50,16,4,5,0.7,0.5
2026-05-13T2100,3489A,104.0788,30.4054,成都市,科学城,,44,44,47,23,29,116,116,144,139,17,10,6,6,0.4,0.5
2026-05-13T2100,4011A,103.8505,30.6946,成都市,光华大道三段,颗粒物(PM10),63,68,59,34,39,100,100,156,150,12,11,6,6,0.4,0.4
2026-05-13T2100,4144A,104.3257,30.6406,成都市,八角井街185号,颗粒物(PM10),56,58,48,31,35,79,79,125,119,18,15,5,6,0.7,0.7
2026-05-13T2100,4224A,104.2433276,30.53529463,成都市,鲸龙路1057号,细颗粒物(PM2.5),58,51,49,39,30,95,95,135,128,32,13,8,8,0.5,0.4
2026-05-13T2100,1062A,117.9531,40.908,承德市,铁路,颗粒物(PM10),92,108,70,52,42,166,166,184,181,28,18,6,5,1.0,0.5
2026-05-13T2100,1063A,117.9397,40.9763,承德市,中国银行,细颗粒物(PM2.5),96,98,57,58,41,153,153,182,178,20,13,4,2,1.1,0.5
2026-05-13T2100,4073A,117.9462,40.95,承德市,杏林街1号,臭氧1小时(O3_1h),108,88,74,57,47,216,216,203,203,9,11,7,4,0.9,0.5
2026-05-13T2100,4274A,117.7994,40.9605,承德市,滨河大街98号,细颗粒物(PM2.5),88,74,64,54,39,146,146,198,187,9,11,5,5,0.8,0.5
2026-05-13T2100,2314A,117.4698,30.6617,池州市,池州学院,细颗粒物(PM2.5),107,83,66,67,52,75,75,143,126,22,17,9,7,0.8,0.8
2026-05-13T2100,3237A,117.4918,30.6617,池州市,展览馆,细颗粒物(PM2.5),111,86,68,72,49,80,80,154,138,20,15,8,6,0.8,0.8
2026-05-13T2100,3333A,117.5626,30.695,池州市,第八中学,细颗粒物(PM2.5),84,85,70,52,40,69,69,142,127,28,17,6,6,0.6,0.9
2026-05-13T2100,3334A,117.5037,30.6242,池州市,第十二中学,细颗粒物(PM2.5),117,103,68,78,47,60,60,144,122,28,21,7,6,1.3,1.7
2026-05-13T2100,1744A,118.9229,42.2816,赤峰市,松山一中,,50,50,53,31,29,72,72,160,131,47,21,9,10,0.9,0.7
2026-05-13T2100,1745A,118.9588,42.2733,赤峰市,哈达街,颗粒物(PM10),62,66,60,38,26,94,94,149,119,38,24,31,17,0.9,0.6
2026-05-13T2100,1746A,118.8792,42.2551,赤峰市,天义路,细颗粒物(PM2.5),60,50,40,40,27,11,11,139,109,91,23,6,10,1.0,0.5
2026-05-13T2100,3058A,119.2656,42.0356,赤峰市,银河街,颗粒物(PM10),68,74,76,37,30,138,138,144,138,21,15,10,10,0.7,0.6
2026-05-13T2100,3286A,118.9359,42.3146,赤峰市,桥北物流园区,颗粒物(PM10),55,57,50,30,26,64,64,124,109,54,19,4,3,0.7,0.7
2026-05-13T2100,2521A,107.3473,22.4137,崇左市,市环保局江州分局,NA,NA,NA,36,NA,18,NA,NA,88,NA,NA,10,NA,3,NA,0.5
2026-05-13T2100,4256A,107.375,22.3736,崇左市,石景林东路7号,NA,NA,NA,27,NA,17,NA,NA,94,NA,NA,9,NA,3,NA,0.6
2026-05-13T2100,3207A,118.31131,32.3033,滁州市,市政府原办公楼,细颗粒物(PM2.5),103,72,49,63,46,163,163,187,185,18,23,6,9,0.8,0.8
2026-05-13T2100,3331A,118.3268,32.2633,滁州市,图书馆,细颗粒物(PM2.5),86,76,61,53,35,163,163,186,185,19,19,12,13,0.8,0.9
2026-05-13T2100,4101A,118.3196,32.3335,滁州市,银山路666号,NA,NA,NA,56,NA,34,NA,NA,201,201,22,25,8,13,0.5,0.6
2026-05-13T2100,4102A,118.3426,32.2979,滁州市,黄山路555号,细颗粒物(PM2.5),88,92,68,54,39,175,175,205,202,30,25,7,11,0.9,1
2026-05-13T2100,2606A,101.5379,25.0492,楚雄彝族自治州,市经济开发区,,30,20,12,18,10,93,93,91,91,9,6,2,1,0.5,0.5
2026-05-13T2100,4153A,101.5536,25.0343,楚雄彝族自治州,团结路562号,,32,18,11,16,7,102,102,97,97,5,3,2,2,0.3,0.3
2026-05-13T2100,2549A,107.5087,31.2186,达州市,市环境监测站,,50,50,44,22,23,36,36,104,90,40,21,6,6,0.4,0.2
2026-05-13T2100,2550A,107.4988,31.2132,达州市,凤凰小区,颗粒物(PM10),55,56,44,26,24,30,30,108,96,51,18,5,6,0.7,0.4
2026-05-13T2100,2551A,107.5081,31.1987,达州市,达县机关宾馆,NA,NA,63,46,NA,26,19,19,107,91,59,29,4,5,0.5,0.4
2026-05-13T2100,2552A,107.4644,31.2124,达州市,市政中心,颗粒物(PM10),58,60,50,23,24,36,36,113,102,45,16,4,5,0.4,0.4
2026-05-13T2100,2614A,100.2168,25.5818,大理白族自治州,大理市环境监测站,,30,18,14,14,8,94,94,99,99,8,7,4,4,0.4,0.4
2026-05-13T2100,2615A,100.1542,25.7055,大理白族自治州,大理古城,,30,27,18,17,10,96,96,101,100,6,7,6,6,0.5,0.5
2026-05-13T2100,1109A,121.6119,38.974,大连市,甘井子,,36,30,33,17,20,115,115,114,113,7,9,9,9,0.4,0.5
2026-05-13T2100,1110A,121.565,38.9509,大连市,周水子,NA,NA,44,36,32,25,NA,NA,113,110,16,16,7,5,0.5,0.6
2026-05-13T2100,1111A,121.5637,38.8849,大连市,星海三站,,37,32,30,21,20,116,116,129,123,9,13,3,3,0.5,0.5
2026-05-13T2100,1112A,121.6301,38.9117,大连市,青泥洼桥,,39,28,29,15,22,124,124,124,123,8,9,4,4,0.5,0.5
2026-05-13T2100,1113A,121.6248,38.8643,大连市,傅家庄,,36,23,28,13,19,115,115,123,120,3,5,3,6,0.4,0.4
2026-05-13T2100,1114A,121.5117,38.8636,大连市,七贤岭,,32,32,29,20,19,99,99,115,111,16,14,5,5,0.8,0.5
2026-05-13T2100,1116A,121.7507,39.1339,大连市,金州,,42,42,38,22,24,118,118,121,120,6,13,10,10,0.3,0.4
2026-05-13T2100,1117A,121.7811,39.0495,大连市,开发区,,39,28,25,17,19,123,123,119,119,10,14,4,6,0.4,0.5
2026-05-13T2100,1118A,121.9762,39.0631,大连市,双D港,,37,17,16,15,16,116,116,113,113,2,3,4,4,0.5,0.5
2026-05-13T2100,4082A,121.2548,38.8188,大连市,旅顺,,39,24,28,17,20,123,123,131,130,7,9,6,6,0.4,0.5
2026-05-13T2100,1789A,124.8085,46.0381,大庆市,大同区,颗粒物(PM10),58,61,78,28,28,126,126,163,156,19,14,3,4,0.5,0.5
2026-05-13T2100,1790A,125.1166,46.5255,大庆市,龙凤区,颗粒物(PM10),53,54,43,29,23,113,113,147,139,16,11,6,5,0.2,0.2
2026-05-13T2100,1791A,124.8894,46.4007,大庆市,红岗区,颗粒物(PM10),55,56,55,25,24,127,127,163,157,10,11,6,8,0.5,0.5
2026-05-13T2100,1792A,125.1391,46.578,大庆市,萨尔图区,,39,38,39,22,21,124,124,160,152,18,12,8,8,0.6,0.5
2026-05-13T2100,1793A,124.9026,46.6217,大庆市,让胡路区,,45,45,41,26,23,131,131,165,159,10,9,6,6,0.4,0.4
2026-05-13T2100,3481A,125.127,46.6277,大庆市,萨区政府监测点,颗粒物(PM10),63,67,44,22,21,126,126,161,155,11,6,9,9,0.5,0.5
2026-05-13T2100,1723A,113.2926,40.0759,大同市,云冈宾馆,,42,41,126,22,46,132,132,188,176,13,37,5,11,0.2,0.6
2026-05-13T2100,1724A,113.3437,40.0921,大同市,大同大学,,44,44,115,19,36,123,123,194,179,19,33,3,9,0.3,0.5
2026-05-13T2100,1725A,113.2637,40.129,大同市,安家小村,,50,NA,131,35,40,138,138,190,178,11,24,10,27,0.4,0.9
2026-05-13T2100,3282A,113.3399,40.0586,大同市,大同市卫生学校,,49,49,109,18,34,140,140,208,187,12,25,5,11,0.5,0.6
2026-05-13T2100,3565A,113.1371,40.1122,大同市,云冈站,,46,46,119,23,40,102,102,169,158,14,20,7,10,0.5,0.6
2026-05-13T2100,3566A,113.1186,40.2556,大同市,图书馆,颗粒物(PM10),106,135,100,21,32,132,132,170,167,7,14,4,8,0.4,0.5
2026-05-13T2100,3567A,113.5931,40.0459,大同市,区一中,,38,27,90,22,34,119,119,165,154,14,20,3,9,0.5,0.6
2026-05-13T2100,4199A,113.2798248,40.09972476,大同市,魏都大道141号,,37,35,123,14,41,117,117,179,166,14,30,4,10,0.4,0.9
2026-05-13T2100,2269A,124.1068,50.4091,大兴安岭地区,科技局,颗粒物(PM10),63,67,45,28,23,110,110,114,114,8,5,7,7,0.5,0.4
2026-05-13T2100,3663A,124.117,50.4279,大兴安岭地区,红旗社区,颗粒物(PM10),58,61,47,24,27,120,120,127,127,13,12,7,6,0.3,0.4
2026-05-13T2100,1600A,124.33,40.0625,丹东市,江湾东路,,30,13,20,9,12,96,96,118,99,7,8,3,3,0.4,0.4
2026-05-13T2100,1601A,124.4242,40.1513,丹东市,临江后街,,29,23,20,12,12,91,91,110,97,5,6,5,6,0.4,0.4
2026-05-13T2100,1602A,124.3935,40.1461,丹东市,元宝山,,29,22,23,11,13,91,91,111,95,9,9,8,6,0.7,0.5
2026-05-13T2100,1603A,124.3634,40.1093,丹东市,民主桥,,29,23,25,12,13,90,90,112,95,8,7,6,5,0.4,0.3
2026-05-13T2100,3541A,109.5726195,19.51688767,儋州市,第一中学子站,NA,NA,43,28,17,13,NA,NA,66,66,10,7,9,6,0.4,0.2
2026-05-13T2100,3542A,109.5567,19.5187,儋州市,东坡学校子站,,28,22,23,15,7,89,89,72,72,6,5,6,6,0.5,0.4
2026-05-13T2100,2616A,98.5611,24.4273,德宏傣族景颇族自治州,德宏州监测站,细颗粒物(PM2.5),64,44,18,42,18,68,68,91,88,19,8,5,3,0.3,0.1
2026-05-13T2100,3677A,98.5887,24.4366,德宏傣族景颇族自治州,芒市人民政府综合楼,颗粒物(PM10),57,59,41,26,18,73,73,91,89,14,10,6,4,0.4,0.5
2026-05-13T2100,1901A,104.424,31.1209,德阳市,东山公园,,43,37,35,30,34,120,120,116,116,5,8,3,3,0.5,0.5
2026-05-13T2100,1902A,104.3827,31.1318,德阳市,西小区,,46,46,43,29,31,74,74,114,111,40,13,4,4,0.5,0.5
2026-05-13T2100,1904A,104.3553,31.1091,德阳市,耐火材料厂,颗粒物(PM10),61,65,50,38,35,83,83,123,120,36,19,2,2,0.5,0.5
2026-05-13T2100,4145A,104.4144,31.1495,德阳市,市林业局,,49,43,41,34,33,50,50,126,119,63,16,4,4,0.6,0.5
2026-05-13T2100,1622A,116.3034,37.4675,德州市,儿童乐园,颗粒物(PM10),56,58,74,30,35,129,129,156,152,12,10,8,9,0.7,0.8
2026-05-13T2100,1624A,116.2992,37.4449,德州市,监理站,颗粒物(PM10),65,70,75,32,33,130,130,154,152,14,10,12,14,0.4,0.5
2026-05-13T2100,3066A,116.2722,37.438,德州市,九衢泉纯净水厂,颗粒物(PM10),58,61,64,32,34,110,110,142,134,23,17,9,9,0.8,0.9
2026-05-13T2100,3371A,116.3693,37.44,德州市,开发区人民医院,颗粒物(PM10),60,63,67,28,35,122,122,152,148,14,12,11,12,0.8,0.8
2026-05-13T2100,3511A,116.5687,37.3331,德州市,陵城艺术中心,颗粒物(PM10),67,73,69,38,40,112,112,154,146,20,16,7,12,0.7,0.9
2026-05-13T2100,4292A,116.352738,37.420875,德州市,新河东路,颗粒物(PM10),53,53,56,31,35,119,119,147,142,19,15,9,10,0.8,0.9
2026-05-13T2100,2621A,99.7054,27.8319,迪庆藏族自治州,迪庆州站,,27,20,16,15,10,86,86,100,96,9,10,8,8,0.5,0.2
2026-05-13T2100,3180A,99.7122,27.8129,迪庆藏族自治州,质量技术监督局,,29,NA,16,13,6,92,92,109,104,9,9,8,8,0.4,0.4
2026-05-13T2100,4257A,104.6092,35.5962,定西市,将台街,,34,34,32,20,9,101,101,107,107,10,5,4,4,0.2,0.2
2026-05-13T2100,4309A,104.6159,35.5701,定西市,正龙路62号,,31,29,25,11,7,99,99,104,103,9,7,3,3,0.2,0.2
2026-05-13T2100,4071A,114.9883,38.5232,定州市,交通局,颗粒物(PM10),84,97,116,36,47,112,112,186,167,20,14,6,8,0.4,0.7
2026-05-13T2100,4072A,115.0045,38.5136,定州市,第五中学,颗粒物(PM10),85,98,110,34,50,111,111,171,156,15,15,4,6,0.3,0.6
2026-05-13T2100,1390A,113.7943,23.0132,东莞市,东城石井,,20,20,19,8,11,40,40,116,93,19,17,5,5,0.5,0.6
2026-05-13T2100,1391A,113.7384,22.9659,东莞市,南城西平,,16,16,14,3,5,47,47,106,85,10,12,4,4,0.4,0.5
2026-05-13T2100,3319A,113.7283,23.041,东莞市,万江金泰,,18,18,15,8,10,40,40,113,89,15,15,6,7,0.5,0.5
2026-05-13T2100,4129A,113.8666,23.1062,东莞市,裕兴路,NA,NA,25,24,6,10,31,31,114,92,NA,22,7,7,NA,0.7
2026-05-13T2100,4130A,114.0076,22.9739,东莞市,教育路1号,NA,NA,22,29,3,14,34,34,115,95,20,24,NA,5,0.5,0.7
2026-05-13T2100,4131A,113.7981,22.8124,东莞市,长怡路1号,,19,19,19,3,8,35,35,99,75,19,13,4,4,0.6,0.6
2026-05-13T2100,1666A,118.6612,37.4313,东营市,市环保局,NA,NA,70,57,52,30,NA,NA,212,209,24,26,10,17,NA,0.6
2026-05-13T2100,3036A,118.6903,37.4337,东营市,开发区管委会,细颗粒物(PM2.5),76,66,60,48,21,170,170,210,202,22,26,14,13,0.9,0.8
2026-05-13T2100,3365A,118.5721,37.5654,东营市,垦利区民丰路,颗粒物(PM10),75,85,56,46,22,135,135,210,196,35,20,20,20,0.9,0.8
2026-05-13T2100,3498A,118.5063,37.8606,东营市,河口城区,颗粒物(PM10),63,68,61,28,26,156,156,191,185,14,14,11,8,0.9,0.8
2026-05-13T2100,3646A,118.4979,37.4623,东营市,胜利站,细颗粒物(PM2.5),88,58,39,54,33,128,128,195,185,36,22,6,9,1.2,0.9
2026-05-13T2100,3734A,118.5753,37.4405,东营市,理想之城,颗粒物(PM10),65,70,52,41,22,134,134,213,198,36,28,12,13,1.0,0.8
2026-05-13T2100,1591A,110.0024,39.8127,鄂尔多斯市,综合楼,颗粒物(PM10),95,112,76,26,27,127,127,137,137,19,14,6,6,0.6,0.5
2026-05-13T2100,1592A,109.9485,39.8259,鄂尔多斯市,巴音孟克林场办事处,颗粒物(PM10),72,80,67,23,26,128,128,146,145,21,10,4,5,0.3,0.2
2026-05-13T2100,1593A,109.7734,39.5987,鄂尔多斯市,康泽苑,颗粒物(PM10),80,92,67,24,24,137,137,146,145,10,9,8,7,0.3,0.3
2026-05-13T2100,1594A,109.8121,39.5987,鄂尔多斯市,华泰汽车城,颗粒物(PM10),63,68,61,22,24,128,128,134,129,9,11,7,9,0.4,0.4
2026-05-13T2100,1595A,109.9734,39.7884,鄂尔多斯市,奥林花园,颗粒物(PM10),65,70,48,26,23,96,96,134,124,36,16,4,5,0.4,0.3
2026-05-13T2100,2436A,114.894,30.3989,鄂州市,市政府,,28,28,87,17,57,77,77,98,90,9,19,9,12,0.4,0.7
2026-05-13T2100,2437A,114.8986,30.3714,鄂州市,赵家坝,,27,27,82,11,54,69,69,94,85,7,11,20,22,0.5,0.7
2026-05-13T2100,3654A,114.8093,30.4091,鄂州市,精准医疗中心,NA,NA,32,77,19,58,NA,NA,92,85,12,24,8,8,0.7,1.1
2026-05-13T2100,2454A,109.4978,30.2979,恩施土家族苗族自治州,湖北民院,NA,NA,49,25,24,17,NA,NA,111,111,NA,4,NA,8,NA,0.4
2026-05-13T2100,3549A,109.5061,30.3771,恩施土家族苗族自治州,龙凤新区,,26,26,21,14,15,45,45,97,91,8,6,7,7,0.4,0.3
2026-05-13T2100,2499A,108.3411,21.6159,防城港市,沙万,,38,38,26,17,11,46,46,44,42,8,6,10,8,0.6,0.5
2026-05-13T2100,2500A,108.3515,21.7733,防城港市,防城档案局,,36,36,20,14,8,54,54,54,54,5,4,7,6,0.6,0.5
2026-05-13T2100,2501A,108.3506,21.6414,防城港市,大海花园,NA,NA,NA,20,NA,8,NA,NA,54,NA,NA,4,NA,7,NA,0.5
2026-05-13T2100,1371A,113.1293,23.0065,佛山市,湾梁,,22,22,22,10,12,32,32,85,70,15,15,/,/,/,/
2026-05-13T2100,1372A,113.1082,23.0477,佛山市,华材职中,,22,22,25,8,13,35,35,82,68,10,12,5,5,0.4,0.4
2026-05-13T2100,1373A,113.1439,23.045,佛山市,南海气象局,,37,37,26,13,14,29,29,89,71,15,15,/,/,/,/
2026-05-13T2100,1374A,113.2879,22.8094,佛山市,顺德苏岗,,13,NA,12,7,11,39,39,87,72,6,10,/,/,0.4,0.5
2026-05-13T2100,1376A,112.8384,22.8678,佛山市,高明孔堂,,19,19,18,8,9,38,38,64,54,7,7,/,/,/,/
2026-05-13T2100,1377A,112.8835,23.1584,佛山市,三水监测站,,22,22,28,10,23,24,24,67,51,27,30,2,2,0.5,0.6
2026-05-13T2100,1378A,112.8668,23.185,佛山市,三水云东海,,48,48,47,23,22,24,24,80,61,40,27,/,/,/,/
2026-05-13T2100,3625A,113.2568,22.7629,佛山市,容桂街道办,,14,14,18,6,11,35,35,81,64,12,16,/,/,/,/
2026-05-13T2100,1282A,119.2681,26.0506,福州市,师大,,22,16,25,6,17,68,68,71,71,12,17,4,5,0.4,0.4
2026-05-13T2100,1283A,119.2983,26.1028,福州市,五四北路,,24,24,24,9,18,58,58,67,67,17,21,4,4,0.3,0.4
2026-05-13T2100,1284A,119.2648,26.0769,福州市,杨桥西路,,22,13,24,3,18,68,68,74,74,12,18,3,4,/,/
2026-05-13T2100,3048A,119.5799,26.0937,福州市,九龙,,20,20,23,8,18,54,54,60,48,13,17,5,5,0.3,0.3
2026-05-13T2100,3526A,119.5188,25.9666,福州市,吴航,,29,27,24,20,17,42,42,58,51,24,20,6,6,0.6,0.5
2026-05-13T2100,4104A,119.3106,26.0648,福州市,路通桥巷6号,,21,14,29,11,22,65,65,67,67,14,21,/,/,/,/
2026-05-13T2100,1755A,123.7974,41.8494,抚顺市,望花区,颗粒物(PM10),51,51,41,25,20,113,113,153,144,18,17,5,8,0.4,0.6
2026-05-13T2100,1756A,123.9161,41.8827,抚顺市,顺城区,,43,43,34,21,18,115,115,149,140,16,14,11,11,0.6,0.6
2026-05-13T2100,1757A,124.0437,41.8615,抚顺市,东洲区,,38,38,57,17,18,108,108,146,138,11,9,12,13,0.6,0.6
2026-05-13T2100,1758A,123.9246,41.8638,抚顺市,新抚区,颗粒物(PM10),61,65,41,28,21,106,106,151,139,20,14,9,8,0.7,0.6
2026-05-13T2100,1759A,124.0972,41.8961,抚顺市,大伙房水库,,35,26,41,15,17,110,110,147,144,9,7,8,9,0.4,0.4
2026-05-13T2100,1760A,123.708,41.8386,抚顺市,沈抚新城,颗粒物(PM10),51,51,41,24,18,102,102,154,141,25,18,11,11,1.0,0.8
2026-05-13T2100,2377A,116.3544,27.9833,抚州市,市站,NA,NA,15,33,9,23,62,62,75,69,6,10,7,5,NA,1.1
2026-05-13T2100,2378A,116.3562,27.9631,抚州市,血防站,,20,19,35,3,22,63,63,76,69,7,11,5,6,0.5,0.5
2026-05-13T2100,2379A,116.3561,28.0007,抚州市,采茶剧团,,20,16,35,8,24,63,63,75,69,5,9,11,12,0.6,0.7
2026-05-13T2100,2380A,116.3854,27.9648,抚州市,医学分院,,22,16,36,3,20,70,70,80,74,4,8,6,7,1.1,1
2026-05-13T2100,2207A,121.6095,41.9978,阜新市,工业园区,,49,40,48,34,20,133,133,176,169,14,12,14,13,0.6,0.5
2026-05-13T2100,2208A,121.6567,42.0188,阜新市,长青街,细颗粒物(PM2.5),58,50,45,39,19,135,135,175,169,19,15,16,12,0.6,0.6
2026-05-13T2100,2209A,121.6672,42.07,阜新市,农业园区,颗粒物(PM10),58,61,54,37,21,140,140,179,174,16,14,10,10,0.6,0.5
2026-05-13T2100,2211A,121.6343,42.0455,阜新市,玉龙新城,颗粒物(PM10),52,52,48,34,19,134,134,178,172,16,13,12,12,0.6,0.5
2026-05-13T2100,2301A,115.8276,32.8929,阜阳市,市监测站,细颗粒物(PM2.5),62,63,67,41,42,130,130,155,154,18,18,7,8,0.4,1
2026-05-13T2100,2303A,115.8551,32.8606,阜阳市,开发区,细颗粒物(PM2.5),72,57,72,46,49,134,134,155,155,15,18,5,6,0.6,0.6
2026-05-13T2100,2875A,115.783962,32.889217,阜阳市,阜阳职业技术学院,颗粒物(PM10),55,57,57,37,41,148,148,159,159,9,10,6,8,0.5,0.6
2026-05-13T2100,3468A,115.79,32.8614,阜阳市,市规划展馆,细颗粒物(PM2.5),52,45,58,36,42,152,152,165,165,8,8,8,9,0.8,0.8
2026-05-13T2100,3469A,115.835101,32.918568,阜阳市,枣园社区,NA,NA,86,63,53,41,128,128,159,156,NA,28,NA,8,0.7,0.6
2026-05-13T2100,2669A,102.9097,34.9841,甘南藏族自治州,州政府,颗粒物(PM10),65,70,63,37,36,100,100,117,112,6,20,7,8,0.3,0.3
2026-05-13T2100,3380A,102.8915,34.9618,甘南藏族自治州,甘肃民族师范学院,颗粒物(PM10),82,94,85,30,26,125,125,134,131,9,28,2,3,0.2,0.2
2026-05-13T2100,2570A,101.96,30.048,甘孜藏族自治州,水桥子,,30,30,18,19,8,66,66,103,94,20,19,7,7,0.4,0.3
2026-05-13T2100,3065A,101.9534,29.9976,甘孜藏族自治州,州环保局,,28,28,15,18,5,84,84,119,108,14,18,7,7,0.7,0.6
2026-05-13T2100,2363A,114.9368,25.8663,赣州市,地委,,27,27,34,11,18,29,29,62,51,10,7,1,2,1.2,1
2026-05-13T2100,2364A,114.946,25.8483,赣州市,气象台,,25,23,34,17,24,25,25,63,54,20,13,3,4,0.5,0.5
2026-05-13T2100,2365A,114.932,25.8332,赣州市,市图书馆,,35,29,31,24,24,34,34,72,64,16,12,5,5,0.8,0.6
2026-05-13T2100,2366A,114.8905,25.8472,赣州市,华坚鞋城,,33,33,42,22,24,27,27,66,56,22,17,7,7,0.6,0.4
2026-05-13T2100,3109A,115.0094,25.8614,赣州市,赣县区卫计委,,19,NA,27,13,18,36,36,61,56,8,10,2,4,0.7,0.7
2026-05-13T2100,2684A,106.2753,36.0057,固原市,监测站,NA,NA,52,27,22,18,90,90,118,110,14,8,NA,7,NA,0.4
2026-05-13T2100,2685A,106.2384,36.0189,固原市,新区,,33,33,30,17,13,93,93,114,108,15,8,5,5,0.5,0.4
2026-05-13T2100,2544A,106.6307,30.4577,广安市,市委,细颗粒物(PM2.5),68,45,35,44,30,58,58,123,115,42,9,8,8,0.7,0.4
2026-05-13T2100,2545A,106.6266,30.4662,广安市,友谊中学,,38,37,35,26,24,79,79,117,112,19,8,8,8,0.6,0.6
2026-05-13T2100,2547A,106.6386,30.4551,广安市,广电花园,,45,38,36,31,30,81,81,113,110,18,10,6,6,0.6,0.5
2026-05-13T2100,2902A,106.6347,30.4868,广安市,北辰小学,颗粒物(PM10),55,56,39,36,30,77,77,112,106,20,10,6,7,0.5,0.4
2026-05-13T2100,2524A,105.8211,32.4444,广元市,老城,,29,26,24,20,12,67,67,118,110,23,13,2,2,0.5,0.6
2026-05-13T2100,2526A,105.8629,32.429,广元市,监测站,,29,27,39,11,15,91,91,113,110,8,12,3,4,0.4,0.5
2026-05-13T2100,3617A,105.8047,32.4167,广元市,经开区,,35,28,31,24,25,68,68,114,106,20,19,3,5,0.6,0.6
2026-05-13T2100,1345A,113.2346,23.1423,广州市,广雅中学,,27,27,27,12,14,24,24,80,64,17,15,1,2,0.7,0.8
2026-05-13T2100,1346A,113.2611,23.105,广州市,市五中,,28,28,27,12,15,31,31,102,79,24,26,3,4,/,/
2026-05-13T2100,1348A,113.3477,23.0916,广州市,广东商学院,,23,23,23,13,14,26,26,86,70,26,36,5,5,0.7,0.8
2026-05-13T2100,1349A,113.4332,23.105,广州市,市八十六中,,16,16,22,7,10,27,27,101,78,32,38,6,6,/,/
2026-05-13T2100,1350A,113.3506,22.9488,广州市,番禺中学,,16,16,22,9,13,40,40,97,79,8,19,4,5,0.6,0.7
2026-05-13T2100,1351A,113.2147,23.3918,广州市,花都师范,,21,21,31,10,18,48,48,103,89,34,30,6,6,1.0,0.9
2026-05-13T2100,1352A,113.2599,23.1329,广州市,市监测站,,29,29,25,11,14,26,26,89,72,25,19,3,3,/,/
2026-05-13T2100,1353A,113.5618,23.3119,广州市,九龙镇镇龙,,25,25,34,9,20,33,33,106,90,26,31,6,6,0.5,0.6
2026-05-13T2100,1354A,113.2764,23.1544,广州市,麓湖,,27,27,25,12,14,34,34,98,81,21,25,6,6,0.6,0.7
2026-05-13T2100,2846A,113.3209,23.1323,广州市,体育西,NA,NA,31,29,11,14,NA,NA,95,83,29,32,6,5,0.6,0.7
2026-05-13T2100,3298A,113.5718,23.5493,广州市,从化街口,,34,34,39,19,27,46,46,112,101,23,20,6,5,0.8,0.8
2026-05-13T2100,3299A,113.3463,23.369,广州市,白云竹料,NA,NA,29,32,13,19,NA,NA,104,99,32,27,3,4,0.7,0.7
2026-05-13T2100,3300A,113.2981,23.2365,广州市,白云嘉禾,,34,34,31,12,16,24,24,98,79,39,36,6,6,/,/
2026-05-13T2100,3301A,113.4256,23.1716,广州市,黄埔科学城,,27,27,27,8,14,14,14,73,57,29,25,7,6,0.6,0.8
2026-05-13T2100,3302A,113.3942,23.0485,广州市,番禺大学城,,25,25,29,6,10,39,39,107,86,27,30,6,7,0.5,0.6
2026-05-13T2100,3303A,113.4923,22.8169,广州市,南沙黄阁,,28,28,25,7,9,38,38,98,77,18,18,6,6,/,/
2026-05-13T2100,3304A,113.534,22.7893,广州市,南沙街,,26,26,24,6,8,39,39,86,66,14,16,6,7,0.4,0.5
2026-05-13T2100,3443A,113.2905,23.5541,广州市,花都梯面,,29,29,39,12,22,49,49,76,70,18,25,8,9,/,/
2026-05-13T2100,3445A,113.786,23.7479,广州市,从化良口,,22,16,32,9,24,70,70,108,104,17,13,4,4,/,/
2026-05-13T2100,3446A,113.805,23.2614,广州市,增城荔城,,19,19,33,8,22,42,42,128,106,21,21,6,7,0.5,0.6
2026-05-13T2100,2506A,109.604387,23.066791,贵港市,江南子站,NA,NA,22,22,8,10,NA,NA,62,62,7,12,2,7,0.5,0.5
2026-05-13T2100,2508A,109.5669,23.1065,贵港市,荷城子站,,24,24,22,3,10,46,46,60,58,10,14,5,5,0.5,0.5
2026-05-13T2100,3405A,109.5886,23.1172,贵港市,新世纪学校,,22,22,21,3,11,47,47,62,60,11,14,/,/,0.4,0.4
2026-05-13T2100,4260A,109.5933,23.095,贵港市,中山路155-3号,NA,NA,NA,26,NA,13,NA,NA,75,NA,NA,13,NA,NA,NA,0.4
2026-05-13T2100,1439A,106.6863,26.6035,贵阳市,马鞍山,细颗粒物(PM2.5),54,41,22,37,14,53,53,80,76,18,12,9,6,/,/
2026-05-13T2100,1441A,106.6241,26.6266,贵阳市,鉴湖路,,48,44,34,33,13,73,73,100,97,11,10,7,8,0.6,0.6
2026-05-13T2100,1442A,106.7468,26.6344,贵阳市,燕子冲,NA,NA,46,37,32,20,NA,NA,87,86,11,13,6,11,0.6,0.7
2026-05-13T2100,1443A,106.6556,26.4362,贵阳市,碧云窝,颗粒物(PM10),51,51,31,16,13,52,52,87,84,24,7,7,8,/,/
2026-05-13T2100,1445A,106.6963,26.6063,贵阳市,红边门,细颗粒物(PM2.5),52,46,29,36,16,58,58,87,84,15,16,5,6,/,/
2026-05-13T2100,1446A,106.7162383,26.56964667,贵阳市,新华路,,48,48,36,28,16,71,71,95,91,10,14,22,45,0.0,0.4
2026-05-13T2100,1447A,106.6742,26.542,贵阳市,太慈桥,,50,44,24,35,14,62,62,82,80,13,9,5,5,/,/
2026-05-13T2100,4230A,106.688212,26.56952,贵阳市,花果园大街66号,,49,36,13,34,15,68,68,92,90,11,10,3,3,/,/
2026-05-13T2100,4231A,106.687268,26.516892,贵阳市,漓江路57号,,44,44,20,28,14,53,53,76,74,13,11,5,6,0.7,0.6
2026-05-13T2100,1864A,110.3091,25.2705,桂林市,龙隐路小学,,33,33,44,13,27,54,54,60,60,10,17,3,4,0.5,0.7
2026-05-13T2100,1865A,110.2849361,25.22909545,桂林市,八中,NA,NA,27,47,3,16,NA,NA,65,65,9,20,3,4,0.6,0.8
2026-05-13T2100,3531A,110.296,25.1254,桂林市,旅游学院,,23,23,39,3,32,67,67,60,60,2,13,6,8,0.2,0.4
2026-05-13T2100,4222A,110.1835,25.2444,桂林市,环湖路276号,,19,17,36,13,28,56,56,62,62,5,14,4,7,0.3,0.5
2026-05-13T2100,4301A,110.2803,25.2773,桂林市,信义路13号,,25,25,40,8,25,61,61,62,62,5,16,4,4,0.6,0.8
2026-05-13T2100,2674A,100.2262,34.4854,果洛藏族自治州,玛沁县大武镇,NA,NA,36,28,19,8,NA,NA,123,123,10,3,21,21,0.5,0.4
2026-05-13T2100,1130A,126.5557,45.8109,哈尔滨市,松北商大,细颗粒物(PM2.5),102,65,36,62,26,106,106,149,136,20,17,6,6,0.5,0.5
2026-05-13T2100,1132A,126.6162,45.719,哈尔滨市,南岗学府路,NA,NA,NA,39,NA,18,NA,NA,146,NA,NA,17,NA,6,NA,0.4
2026-05-13T2100,1133A,126.6894,45.7733,哈尔滨市,太平宏伟公园,细颗粒物(PM2.5),78,58,41,49,19,98,98,142,130,18,18,6,8,0.5,0.3
2026-05-13T2100,1134A,126.6361,45.7672,哈尔滨市,道外承德广场,细颗粒物(PM2.5),94,106,55,57,20,93,93,134,124,30,23,1,2,0.8,0.7
2026-05-13T2100,1136A,126.644,45.7261,哈尔滨市,动力和平路,细颗粒物(PM2.5),78,72,38,49,23,101,101,138,128,20,16,6,7,0.6,0.5
2026-05-13T2100,1137A,126.5933,45.7479,哈尔滨市,道里建国路,细颗粒物(PM2.5),96,62,39,58,25,107,107,144,133,27,22,4,6,0.8,1.1
2026-05-13T2100,1138A,126.6127,45.6119,哈尔滨市,平房东轻厂,细颗粒物(PM2.5),100,116,39,60,22,104,104,152,144,31,16,4,8,0.8,0.7
2026-05-13T2100,1139A,126.5875,45.9827,哈尔滨市,呼兰师专,NA,NA,NA,49,NA,27,NA,NA,138,134,NA,18,NA,13,NA,0.4
2026-05-13T2100,1140A,126.6299,45.6799,哈尔滨市,省农科院,NA,NA,81,66,58,28,NA,NA,123,117,26,25,7,7,0.6,0.6
2026-05-13T2100,4282A,126.6769,45.7379,哈尔滨市,华山路1号,细颗粒物(PM2.5),86,80,36,53,24,110,110,148,138,16,15,8,7,0.4,0.3
2026-05-13T2100,4283A,126.9717,45.5356,哈尔滨市,解放大街52号,颗粒物(PM10),64,69,44,39,13,115,115,154,140,20,15,4,4,0.6,0.5
2026-05-13T2100,2688A,93.5124,42.8176,哈密市,地区监测站,,31,20,73,12,24,98,98,103,103,7,3,3,4,0.2,0.1
2026-05-13T2100,2689A,93.5014,42.8312,哈密市,哈密师范学校,,33,16,90,8,19,104,104,107,107,8,5,1,1,0.2,0.1
2026-05-13T2100,2671A,100.9016,36.9464,海北藏族自治州,海晏县西海镇,颗粒物(PM10),83,96,42,40,20,130,130,144,142,2,3,12,8,0.5,0.4
2026-05-13T2100,3867A,102.074,36.5056,海东市,平安区公安局北苑,细颗粒物(PM2.5),110,131,72,70,35,NA,NA,136,136,5,10,9,12,0.5,0.6
2026-05-13T2100,4163A,102.0984,36.5119,海东市,滨河路,颗粒物(PM10),117,162,77,49,26,90,90,107,106,23,31,6,13,0.6,0.6
2026-05-13T2100,1410A,110.3189,20.0596,海口市,海南大学,,29,29,20,18,10,54,54,93,89,7,6,5,5,0.4,0.4
2026-05-13T2100,1411A,110.2827,20.0051,海口市,秀英海南医院,,32,28,20,22,12,27,27,86,79,32,13,6,6,0.3,0.3
2026-05-13T2100,1412A,110.3391,19.9979,海口市,海南师范大学,,27,27,21,16,9,40,40,78,73,8,6,3,3,0.4,0.4
2026-05-13T2100,1413A,110.3303,20.0359,海口市,龙华路环保局宿舍,,39,39,22,17,11,51,51,93,88,7,6,/,/,0.4,0.3
2026-05-13T2100,3539A,110.5111,19.9737,海口市,桂林洋子站,,24,24,22,15,10,31,31,61,54,11,7,/,/,/,/
2026-05-13T2100,4134A,110.1952,20.0451,海口市,长滨二路9号,,24,24,19,14,10,54,54,91,83,8,7,/,/,/,/
2026-05-13T2100,2673A,100.6158,36.2985,海南藏族自治州,共和县恰卜恰镇,NA,NA,114,42,55,26,NA,NA,147,147,8,8,11,10,0.4,0.3
2026-05-13T2100,2676A,97.373,37.376,海西蒙古族藏族自治州,德令哈市,细颗粒物(PM2.5),100,86,140,60,42,115,115,132,126,2,2,14,16,0.4,0.3
2026-05-13T2100,1049A,114.492,36.5712,邯郸市,矿院,细颗粒物(PM2.5),100,74,66,60,46,119,119,150,146,4,4,2,3,0.5,0.5
2026-05-13T2100,1050A,114.4839,36.6136,邯郸市,丛台公园,细颗粒物(PM2.5),86,72,66,53,45,116,116,142,138,6,5,8,7,0.5,0.6
2026-05-13T2100,3458A,114.7893,36.5592,邯郸市,香泉濮院小区,细颗粒物(PM2.5),100,92,71,60,46,113,113,125,124,12,10,1,2,0.5,0.5
2026-05-13T2100,3580A,114.1998,36.4439,邯郸市,峰峰矿区临水派出所,细颗粒物(PM2.5),96,81,71,58,49,120,120,161,151,5,3,1,2,0.5,0.7
2026-05-13T2100,4068A,114.5209,36.7697,邯郸市,建安街268号,颗粒物(PM10),68,74,67,32,36,130,130,154,148,12,12,3,2,0.4,0.4
2026-05-13T2100,4069A,114.5488,36.6177,邯郸市,丛台东路558号,细颗粒物(PM2.5),98,72,82,59,46,112,112,142,138,13,9,3,4,0.5,0.6
2026-05-13T2100,2635A,107.0155,33.0707,汉中市,市监测站,,46,46,42,24,34,58,58,88,88,16,13,4,6,0.6,0.7
2026-05-13T2100,2636A,107.0083,33.114,汉中市,鑫源开发区,,46,35,49,32,39,70,70,94,93,16,17,6,11,0.6,0.9
2026-05-13T2100,2637A,107.0072,33.0323,汉中市,南郑大河坎水厂,,38,38,41,25,30,52,52,86,84,13,12,5,5,0.5,0.6
2026-05-13T2100,1223A,120.2073,30.2111,杭州市,滨江,,48,48,66,21,38,120,120,182,172,30,28,9,10,0.6,0.8
2026-05-13T2100,1224A,120.0625,30.2737,杭州市,西溪,,47,37,58,24,39,150,150,175,170,20,23,5,5,1.1,1.1
2026-05-13T2100,1226A,120.3417,30.315,杭州市,下沙,,37,37,80,17,38,76,76,178,162,26,31,5,7,0.6,0.8
2026-05-13T2100,1227A,120.1252,30.2465,杭州市,卧龙桥,,44,37,49,26,35,140,140,183,178,22,23,9,8,0.5,0.4
2026-05-13T2100,1228A,120.1902,30.2691,杭州市,浙江农大,,40,40,59,21,38,119,119,176,168,27,30,7,7,0.3,0.4
2026-05-13T2100,1230A,120.1195,30.3121,杭州市,和睦小学,,38,36,53,22,38,120,120,179,167,22,23,9,9,0.5,0.5
2026-05-13T2100,1231A,120.3076,30.4146,杭州市,临平镇,,40,40,65,17,39,98,98,216,198,24,27,8,8,0.5,0.6
2026-05-13T2100,1232A,120.2753,30.1839,杭州市,城厢镇,,49,49,64,32,38,104,104,165,155,29,27,10,9,0.8,0.7
2026-05-13T2100,1233A,120.0883,30.1808,杭州市,云栖,颗粒物(PM10),66,72,61,38,42,116,116,174,160,48,36,10,8,0.8,0.7
2026-05-13T2100,3557A,119.9463,30.0496,杭州市,镇二中,细颗粒物(PM2.5),98,91,48,59,35,82,82,139,130,30,37,8,6,1.0,0.8
2026-05-13T2100,3558A,119.7184,30.2367,杭州市,市府大楼,细颗粒物(PM2.5),54,38,41,37,34,80,80,136,118,24,19,8,8,0.5,0.5
2026-05-13T2100,3656A,120.1554,30.2863,杭州市,消防大队,颗粒物(PM10),54,55,77,23,37,113,113,164,156,21,21,6,7,0.6,0.6
2026-05-13T2100,1270A,117.1957,31.7845,合肥市,明珠广场,颗粒物(PM10),56,58,73,24,54,95,95,155,144,24,23,7,8,0.6,0.8
2026-05-13T2100,1271A,117.307,31.8765,合肥市,三里街,颗粒物(PM10),55,56,68,28,48,90,90,140,130,28,25,8,8,0.6,0.7
2026-05-13T2100,1272A,117.2587,31.8703,合肥市,琥珀山庄,颗粒物(PM10),53,53,69,23,45,90,90,152,140,21,18,5,7,0.6,0.7
2026-05-13T2100,1275A,117.2593,31.9376,合肥市,庐阳区,颗粒物(PM10),68,75,70,30,45,63,63,150,133,57,28,9,9,0.7,0.8
2026-05-13T2100,1276A,117.345251,31.861615,合肥市,瑶海区,颗粒物(PM10),84,97,69,28,43,76,76,152,138,47,23,8,8,0.6,0.7
2026-05-13T2100,1277A,117.3033,31.7967,合肥市,包河区,颗粒物(PM10),70,78,72,22,44,38,38,153,131,103,38,11,10,0.7,0.8
2026-05-13T2100,1278A,117.278,31.7392,合肥市,滨湖新区,颗粒物(PM10),58,61,66,22,46,95,95,84,NA,13,10,7,8,0.6,0.7
2026-05-13T2100,1279A,117.1324,31.8395,合肥市,高新区,,48,48,69,20,47,101,101,156,145,20,20,6,7,0.3,0.6
2026-05-13T2100,3464A,117.3802,31.9148,合肥市,高教基地,颗粒物(PM10),62,66,68,27,44,82,82,147,134,28,21,10,10,0.6,0.7
2026-05-13T2100,4098A,117.2518,31.8404,合肥市,中国科学技术大学,颗粒物(PM10),55,56,73,22,46,99,99,163,152,25,19,8,9,0.6,0.7
2026-05-13T2100,3614A,79.9241,37.0878,和田地区,地区环保局,颗粒物(PM10),318,434,216,58,43,118,118,121,121,3,6,1,3,0.4,0.4
2026-05-13T2100,3615A,79.9132,37.1137,和田地区,市环保局,颗粒物(PM10),139,220,176,53,46,108,108,130,128,19,8,1,3,NA,0.5
2026-05-13T2100,2517A,108.0496,24.6957,河池市,市环保站,,32,23,49,22,30,40,40,64,62,8,13,5,5,0.6,0.8
2026-05-13T2100,4302A,108.0901,24.6945,河池市,上任中路54号,,27,27,51,14,26,40,40,69,67,27,17,6,7,0.7,0.9
2026-05-13T2100,1697A,114.6962,23.7538,河源市,东埔,,29,18,39,10,29,92,92,130,NA,19,15,3,3,0.6,0.7
2026-05-13T2100,1698A,114.6895,23.7232,河源市,老城,,35,35,46,6,27,93,93,126,121,19,18,2,5,0.6,0.6
2026-05-13T2100,3374A,115.5562,35.089,菏泽市,定陶老年大学,NA,NA,58,40,44,37,83,83,124,116,NA,13,6,6,0.7,0.5
2026-05-13T2100,4114A,115.4239,35.2593,菏泽市,黄河路600号,细颗粒物(PM2.5),66,58,55,43,42,87,87,123,113,13,9,2,2,0.4,0.4
2026-05-13T2100,4115A,115.5025,35.2727,菏泽市,菏泽市人社局,颗粒物(PM10),59,62,56,39,37,91,91,113,109,14,12,7,7,0.6,0.6
2026-05-13T2100,4184A,115.479691,35.244011,菏泽市,永昌路1号,NA,NA,NA,35,50,38,94,94,126,118,NA,10,6,7,0.4,0.6
2026-05-13T2100,4193A,115.471542,35.280012,菏泽市,长城路999号,细颗粒物(PM2.5),80,56,47,50,38,75,75,121,114,14,8,4,4,0.5,0.5
2026-05-13T2100,2514A,111.5264,24.4178,贺州市,环保小区,,27,27,52,12,36,60,60,67,67,12,28,8,9,0.4,0.6
2026-05-13T2100,2515A,111.561,24.4074,贺州市,政协大楼,,22,15,36,15,37,65,65,77,77,14,21,11,14,0.5,0.7
2026-05-13T2100,3534A,111.4744,24.455,贺州市,西湾,颗粒物(PM10),58,61,73,12,37,42,42,60,59,17,21,5,10,0.6,0.8
2026-05-13T2100,2385A,114.17,35.9019,鹤壁市,市监测站,细颗粒物(PM2.5),120,97,78,81,68,128,128,140,137,16,14,5,6,1.0,0.8
2026-05-13T2100,2386A,114.2953,35.7512,鹤壁市,市交警支队,细颗粒物(PM2.5),108,106,92,68,60,89,89,126,117,21,17,4,7,0.8,0.8
2026-05-13T2100,2387A,114.2877,35.7302,鹤壁市,迎宾馆,细颗粒物(PM2.5),105,108,98,65,62,99,99,136,126,14,12,6,7,0.8,0.8
2026-05-13T2100,3474A,114.2616,35.6824,鹤壁市,大新区,细颗粒物(PM2.5),101,99,93,61,63,82,82,137,122,20,18,3,4,0.8,0.8
2026-05-13T2100,3596A,114.1573,35.9607,鹤壁市,南山宾馆,细颗粒物(PM2.5),121,107,95,83,74,124,124,140,137,14,11,8,10,1.1,1
2026-05-13T2100,2244A,130.2537,47.3416,鹤岗市,哈啤分公司,颗粒物(PM10),53,54,142,24,148,68,68,92,90,15,19,9,11,0.3,0.6
2026-05-13T2100,2245A,130.2683,47.3087,鹤岗市,斯达机电,,35,35,157,12,157,85,85,99,98,10,20,8,11,0.2,0.6
2026-05-13T2100,2246A,130.3114,47.3388,鹤岗市,东山纸板厂,颗粒物(PM10),147,240,208,56,173,50,50,91,83,22,23,10,12,0.6,0.7
2026-05-13T2100,2263A,127.4832,50.2524,黑河市,交通局,细颗粒物(PM2.5),80,78,76,50,61,70,70,136,113,14,15,7,8,0.5,0.6
2026-05-13T2100,2264A,127.5146,50.2339,黑河市,环保局,细颗粒物(PM2.5),80,74,70,50,58,75,75,132,112,12,14,8,8,0.4,0.5
2026-05-13T2100,1074A,115.6839,37.754,衡水市,电机北厂,颗粒物(PM10),72,80,75,27,37,121,121,154,147,11,9,5,4,0.4,0.4
2026-05-13T2100,1075A,115.6303,37.7318,衡水市,市监测站,颗粒物(PM10),88,103,77,35,33,107,107,147,138,15,12,7,8,0.7,0.4
2026-05-13T2100,3188A,115.6684,37.7216,衡水市,市城管局,颗粒物(PM10),60,64,71,32,35,108,108,151,142,15,10,5,5,0.3,0.4
2026-05-13T2100,3459A,115.599,37.5491,衡水市,地表水厂,颗粒物(PM10),69,76,71,24,23,86,86,145,130,23,7,7,7,0.3,0.4
2026-05-13T2100,2457A,112.6209,26.9268,衡阳市,衡阳化工总厂,,49,35,23,34,16,38,38,58,56,8,6,8,7,0.9,0.7
2026-05-13T2100,2458A,112.621,26.8957,衡阳市,珠晖区环保局,,36,29,26,25,16,36,36,58,56,12,14,10,7,0.7,0.5
2026-05-13T2100,2459A,112.628,26.8654,衡阳市,市委党校,,48,NA,20,33,18,36,36,61,59,5,4,10,8,0.9,0.7
2026-05-13T2100,2460A,112.6007,26.8977,衡阳市,市监测站,,49,NA,23,34,17,37,37,56,55,12,11,10,7,0.9,0.7
2026-05-13T2100,2461A,112.5658,26.9013,衡阳市,真空机电公司,细颗粒物(PM2.5),54,NA,23,37,22,36,36,59,58,12,11,9,7,1.0,0.8
2026-05-13T2100,3399A,112.6703,26.8817,衡阳市,师范学院,,30,26,23,21,15,39,39,64,61,6,4,10,7,0.8,0.6
2026-05-13T2100,3038A,103.3757,23.3679,红河哈尼族彝族自治州,州图书馆,,25,18,13,12,9,77,77,96,89,5,4,3,3,0.2,0.2
2026-05-13T2100,4154A,103.401,23.3561,红河哈尼族彝族自治州,蒙自市朝阳路,,24,16,13,12,9,75,75,93,87,6,2,8,7,0.4,0.4
2026-05-13T2100,1090A,111.6506,40.7517,呼和浩特市,呼市一监,颗粒物(PM10),102,124,98,45,31,85,85,153,142,33,23,10,14,0.3,0.4
2026-05-13T2100,1094A,111.7516,40.8369,呼和浩特市,如意水处理厂,颗粒物(PM10),86,100,98,40,41,124,124,170,165,22,34,12,11,0.4,0.5
2026-05-13T2100,1095A,111.727798,40.806187,呼和浩特市,二十九中,颗粒物(PM10),80,92,101,43,37,106,106,148,143,25,24,14,13,0.5,0.5
2026-05-13T2100,1097A,111.717,40.7617,呼和浩特市,化肥厂生活区,颗粒物(PM10),95,112,106,48,44,96,96,161,152,35,26,9,12,0.4,0.4
2026-05-13T2100,3699A,111.6519,40.8389,呼和浩特市,海东办,颗粒物(PM10),88,102,99,52,49,91,91,154,148,43,30,6,10,0.2,0.3
2026-05-13T2100,4275A,111.591512,40.827312,呼和浩特市,成吉思汗西街8号,颗粒物(PM10),80,92,107,37,38,87,87,154,144,51,37,6,10,0.4,0.4
2026-05-13T2100,4276A,111.6597,40.8077,呼和浩特市,公园东路75号,颗粒物(PM10),93,110,103,56,37,111,111,157,152,28,23,12,12,0.6,0.6
2026-05-13T2100,4277A,111.5427,40.7846,呼和浩特市,金海路35号,颗粒物(PM10),85,99,112,44,48,83,83,145,137,40,26,6,11,0.4,0.5
2026-05-13T2100,3061A,119.7511,49.1576,呼伦贝尔市,国华电力东,,49,49,41,20,19,100,100,117,114,8,8,4,4,0.4,0.4
2026-05-13T2100,4279A,119.7569,49.2222,呼伦贝尔市,伊敏大街东7号,,47,47,40,24,18,98,98,113,111,13,11,6,8,0.6,0.5
2026-05-13T2100,1250A,120.075,30.867,湖州市,城西水厂,,48,33,55,22,41,153,153,234,226,17,20,8,8,0.5,0.6
2026-05-13T2100,2873A,120.083,30.8929,湖州市,仁皇山新区,,44,35,57,23,43,139,139,220,212,24,27,7,8,0.5,0.6
2026-05-13T2100,2907A,120.1846,30.8592,湖州市,吴兴区站,NA,NA,29,54,22,41,NA,NA,227,227,19,19,8,8,0.5,0.5
2026-05-13T2100,3562A,120.4146,30.8538,湖州市,南浔区站,,35,35,43,19,35,112,112,185,177,18,17,10,8,0.6,0.7
2026-05-13T2100,1607A,120.904878,40.721091,葫芦岛市,龙港区,,45,NA,33,31,23,97,97,145,140,24,13,9,9,0.5,0.4
2026-05-13T2100,1608A,120.8382,40.7521,葫芦岛市,化工街,,46,46,39,29,22,97,97,141,138,24,16,9,12,0.4,0.5
2026-05-13T2100,1609A,120.8339,40.7078,葫芦岛市,新区,,36,27,38,25,23,105,105,138,136,17,12,9,9,0.5,0.6
2026-05-13T2100,1610A,120.8697,40.7679,葫芦岛市,东城区,,38,27,36,26,25,114,114,149,146,20,15,9,10,0.6,0.6
2026-05-13T2100,2483A,109.9297,27.5383,怀化市,河西地税局,NA,NA,35,18,11,13,NA,NA,63,53,17,8,6,6,/,/
2026-05-13T2100,2484A,109.9783,27.5342,怀化市,市四医院,,23,23,18,16,13,38,38,51,48,8,6,7,5,0.4,0.4
2026-05-13T2100,2485A,109.9971,27.5579,怀化市,监测楼,,23,18,17,16,11,31,31,49,42,6,4,5,4,0.4,0.3
2026-05-13T2100,1210A,119.0566,33.5991,淮安市,钵池山,NA,NA,41,40,30,28,NA,NA,170,170,16,15,11,11,0.4,0.4
2026-05-13T2100,1211A,119.0083,33.578,淮安市,北京南路,,44,44,47,28,29,109,109,165,158,13,14,7,8,0.4,0.4
2026-05-13T2100,1212A,118.9938,33.6083,淮安市,市监测站,,46,34,37,32,29,126,126,175,169,14,14,6,8,0.5,0.5
2026-05-13T2100,1213A,119.135,33.5038,淮安市,楚州区监测站,NA,NA,115,46,28,32,NA,NA,164,162,20,17,6,7,0.5,0.5
2026-05-13T2100,3426A,118.8757,33.2897,淮安市,新华书店,颗粒物(PM10),55,57,48,34,29,118,118,171,165,14,11,8,9,0.9,1
2026-05-13T2100,4092A,119.119691,33.550006,淮安市,枚皋中路89号,,47,47,42,32,31,101,101,166,158,12,9,8,8,0.7,0.7
2026-05-13T2100,4206A,119.028838,33.631911,淮安市,承德北路606号,,48,48,51,31,30,105,105,163,156,16,15,9,8,0.4,0.4
2026-05-13T2100,2282A,116.8005,33.9749,淮北市,监测站,颗粒物(PM10),111,148,65,29,38,136,136,170,164,7,8,8,9,0.5,0.4
2026-05-13T2100,2283A,116.8094,33.9008,淮北市,烈山区政府,NA,NA,NA,67,NA,36,129,129,166,160,NA,11,8,10,0.8,0.3
2026-05-13T2100,4017A,116.7926,33.9534,淮北市,市博物馆,细颗粒物(PM2.5),74,78,59,47,38,136,136,173,168,9,11,5,8,0.8,0.8
2026-05-13T2100,4100A,116.8322,33.9884,淮北市,杜集区第一实验学校,颗粒物(PM10),70,78,67,35,33,137,137,169,163,8,9,7,8,0.9,0.8
2026-05-13T2100,2277A,116.8304,32.7726,淮南市,潘集区政府,颗粒物(PM10),67,73,67,43,44,133,133,150,147,15,17,14,10,0.8,0.7
2026-05-13T2100,2279A,116.8569,32.5949,淮南市,谢家集区政府,细颗粒物(PM2.5),66,57,58,43,41,125,125,159,155,24,20,12,10,0.5,0.5
2026-05-13T2100,2280A,116.8279,32.6333,淮南市,八公山区政府,颗粒物(PM10),83,96,69,40,46,120,120,163,160,15,10,9,7,0.5,0.5
2026-05-13T2100,2894A,117.0561,32.6536,淮南市,经济技术开发区消防队,细颗粒物(PM2.5),60,53,49,40,40,133,133,150,150,20,16,8,9,0.6,0.6
2026-05-13T2100,3329A,117.011,32.5891,淮南市,山南新区,NA,NA,86,61,60,43,130,130,154,154,NA,12,10,10,0.6,0.5
2026-05-13T2100,4209A,117.003137,32.644456,淮南市,国庆中路369号,细颗粒物(PM2.5),76,79,67,48,42,132,132,150,150,11,9,10,10,0.4,0.3
2026-05-13T2100,2446A,114.9021,30.474,黄冈市,职工中心,,28,24,71,19,62,74,74,95,88,6,11,6,7,0.7,0.9
2026-05-13T2100,2929A,114.8858,30.4519,黄冈市,红卫路,NA,NA,27,72,NA,69,72,72,101,92,10,13,6,9,0.3,0.6
2026-05-13T2100,3398A,114.9134,30.4446,黄冈市,市林业局,,38,32,77,26,71,71,71,98,90,10,16,7,10,0.4,0.7
2026-05-13T2100,2672A,102.02,35.5101,黄南藏族自治州,同仁县隆务镇,细颗粒物(PM2.5),74,NA,35,47,21,132,132,139,138,6,2,9,8,0.2,0.3
2026-05-13T2100,2295A,118.2905,29.6965,黄山市,延安路89号,细颗粒物(PM2.5),68,47,31,44,28,54,54,104,90,12,10,7,6,0.5,0.4
2026-05-13T2100,2297A,118.1369,30.2755,黄山市,黄山区政府5号楼,细颗粒物(PM2.5),108,NA,38,68,31,40,40,99,87,11,6,3,3,0.6,0.4
2026-05-13T2100,4210A,118.335445,29.720283,黄山市,滨江东路7-2号,细颗粒物(PM2.5),66,56,43,43,28,45,45,113,99,18,11,/,/,/,/
2026-05-13T2100,2423A,115.0547,30.2332,黄石市,沈家营,,31,31,87,20,57,42,42,81,70,16,22,4,5,0.6,0.5
2026-05-13T2100,2426A,114.899,30.211,黄石市,铁山,,32,32,59,13,42,62,62,84,75,9,15,8,10,0.9,0.9
2026-05-13T2100,2427A,115.0259,30.2108,黄石市,团城山,,31,31,68,13,49,80,80,97,90,4,14,4,6,0.6,0.8
2026-05-13T2100,3149A,115.0174,30.1591,黄石市,笔架山北路,,42,42,91,15,52,51,51,88,74,12,13,5,5,0.4,0.5
2026-05-13T2100,4185A,115.078022,30.21118,黄石市,磁湖东路29号,,36,36,80,17,54,90,90,103,95,8,23,4,7,0.1,0.4
2026-05-13T2100,1392A,114.4181,23.0528,惠州市,河南岸金山湖子站,,16,13,31,6,18,50,50,109,96,15,17,6,6,0.5,0.7
2026-05-13T2100,1393A,114.4055,23.0824,惠州市,下埔横江三路子站,,16,16,40,7,22,51,51,112,97,14,15,5,6,0.6,0.7
2026-05-13T2100,1395A,114.4645,22.7832,惠州市,惠阳区承修路船湖子站,NA,NA,10,24,6,14,NA,NA,98,92,13,17,5,6,0.5,0.5
2026-05-13T2100,1396A,114.5316,22.7423,惠州市,大亚湾管委会子站,,15,12,24,3,12,46,46,93,81,5,15,4,4,0.4,0.5
2026-05-13T2100,3314A,114.4334,22.8134,惠州市,惠阳秋长,,22,22,45,3,22,46,46,113,99,12,26,/,/,/,/
2026-05-13T2100,3452A,114.6521,22.7755,惠州市,大亚湾霞涌,,13,NA,17,6,10,41,41,78,67,14,9,/,/,/,/
2026-05-13T2100,4300A,114.4089,23.1147,惠州市,文华一路1号,,17,15,33,10,20,54,54,121,101,17,16,/,/,/,/
2026-05-13T2100,2240A,130.9618,45.2926,鸡西市,环保局,,45,45,63,24,31,101,101,132,121,14,23,10,11,0.5,0.5
2026-05-13T2100,2243A,130.9294,45.2959,鸡西市,第一中学,,37,37,51,19,32,98,98,124,115,8,15,9,8,0.1,0.2
2026-05-13T2100,3707A,131.0069,45.2988,鸡西市,欧美日汽修厂,,38,28,36,26,33,87,87,123,113,11,20,7,8,0.2,0.3
2026-05-13T2100,2367A,114.9753,27.0803,吉安市,红声器材厂,,30,30,32,16,15,38,38,60,46,12,11,5,6,0.5,0.4
2026-05-13T2100,2369A,114.9903,27.1313,吉安市,市环境监测站,,28,28,27,13,16,41,41,62,47,9,8,9,11,/,/
2026-05-13T2100,2370A,115.009527,27.096792,吉安市,青原区法院,,26,26,30,16,14,38,38,50,44,9,12,6,6,0.4,0.3
2026-05-13T2100,1772A,126.54,43.8622,吉林市,哈达湾,,49,49,47,29,20,118,118,132,131,14,10,6,6,0.7,0.6
2026-05-13T2100,1773A,126.5843,43.8358,吉林市,东局子,,48,38,34,33,21,106,106,136,133,29,10,4,5,0.9,0.8
2026-05-13T2100,1774A,126.5051,43.8243,吉林市,电力学院,颗粒物(PM10),107,137,44,57,22,73,73,149,136,NA,12,NA,5,1.1,0.7
2026-05-13T2100,1775A,126.6133,43.8971,吉林市,江北,颗粒物(PM10),51,51,35,30,19,64,64,130,115,27,14,11,11,0.9,0.7
2026-05-13T2100,1776A,126.5549,43.8304,吉林市,江南公园,,40,40,35,26,20,112,112,126,124,13,12,7,7,0.5,0.5
2026-05-13T2100,2868A,126.4737,43.953,吉林市,九站,细颗粒物(PM2.5),64,51,37,42,24,57,57,148,127,56,14,18,9,0.5,0.4
2026-05-13T2100,1299A,116.9866,36.6118,济南市,科干所,臭氧1小时(O3_1h),65,48,43,33,27,172,172,170,170,11,10,6,7,0.3,0.7
2026-05-13T2100,1300A,116.9379,36.6652,济南市,农科所,颗粒物(PM10),53,54,55,31,28,151,151,162,162,18,13,3,4,0.3,0.3
2026-05-13T2100,1301A,117.1265,36.6736,济南市,开发区,颗粒物(PM10),53,54,52,27,25,150,150,156,156,9,7,6,6,0.5,0.5
2026-05-13T2100,1303A,117.0616,36.6865,济南市,省种子仓库,颗粒物(PM10),60,63,58,31,26,162,162,168,167,20,14,5,6,0.4,0.4
2026-05-13T2100,1304A,116.9495185,36.644937,济南市,机床二厂,颗粒物(PM10),55,56,62,28,29,157,157,167,167,15,12,6,7,0.5,0.5
2026-05-13T2100,1305A,117.0496,36.6629,济南市,市监测站,颗粒物(PM10),57,59,56,32,26,160,160,162,162,11,9,4,4,0.6,0.5
2026-05-13T2100,1306A,116.7674,36.5458,济南市,长清党校,细颗粒物(PM2.5),60,61,55,40,31,157,157,163,163,12,9,4,6,0.8,0.8
2026-05-13T2100,1961A,117.5323,36.6865,济南市,东山小学,颗粒物(PM10),57,59,58,22,27,156,156,174,170,15,11,5,7,0.3,0.4
2026-05-13T2100,3059A,117.7181,36.205,济南市,泰兴公司,颗粒物(PM10),70,78,53,34,21,109,109,178,167,38,28,20,15,1.5,0.7
2026-05-13T2100,3064A,117.6861,36.2172,济南市,莱芜战役纪念馆,颗粒物(PM10),67,73,54,40,22,139,139,181,172,24,22,34,15,2.1,0.6
2026-05-13T2100,3494A,117.1673,36.9782,济南市,济阳区政府,颗粒物(PM10),74,83,64,44,30,130,130,164,158,27,23,7,7,0.8,0.6
2026-05-13T2100,3495A,117.1168,36.6299,济南市,锦屏中学,,49,49,49,27,27,139,139,150,150,8,6,7,7,0.3,0.3
2026-05-13T2100,4108A,117.7107,36.2385,济南市,山财大街5号,颗粒物(PM10),65,70,50,39,28,119,119,182,171,32,22,8,10,0.7,0.6
2026-05-13T2100,4109A,116.9744,36.6889,济南市,无影山路12号,颗粒物(PM10),51,51,51,27,27,148,148,161,161,19,15,5,6,0.7,0.7
2026-05-13T2100,1653A,116.6229,35.4288,济宁市,火炬城,颗粒物(PM10),58,61,62,38,35,136,136,158,156,11,10,3,4,0.8,0.8
2026-05-13T2100,3500A,116.5808,35.3703,济宁市,北湖一中,颗粒物(PM10),60,63,60,33,40,126,126,173,168,15,12,4,9,0.5,0.6
2026-05-13T2100,3501A,116.8251,35.5592,济宁市,服务中心,NA,NA,72,51,29,33,NA,NA,150,147,16,10,3,2,0.6,0.6
2026-05-13T2100,3678A,116.5907,35.4054,济宁市,市第七中学,颗粒物(PM10),55,57,60,26,35,138,138,173,169,10,12,8,9,0.5,0.5
2026-05-13T2100,4111A,116.6075,35.4566,济宁市,任和路,颗粒物(PM10),63,68,69,26,35,156,156,181,179,7,8,3,4,0.7,0.7
2026-05-13T2100,4112A,116.5648,35.3921,济宁市,文体南路1号,颗粒物(PM10),60,63,60,33,36,115,115,166,160,9,5,5,7,0.8,0.8
2026-05-13T2100,4122A,112.6071,35.1015,济源市,市委党校,NA,NA,61,120,17,24,92,92,130,120,NA,1,7,12,0.3,0.7
2026-05-13T2100,4123A,112.596,35.0702,济源市,沁园中路1号,,32,31,76,22,53,95,95,133,120,9,20,4,6,0.5,1
2026-05-13T2100,2255A,130.2749,46.8028,佳木斯市,佳纺,,42,42,191,19,156,60,60,95,89,23,19,2,4,0.3,0.8
2026-05-13T2100,2257A,130.3258,46.7975,佳木斯市,环保局,,41,41,170,21,17,60,60,94,88,18,18,6,7,0.5,0.9
2026-05-13T2100,4285A,130.363,46.806,佳木斯市,顺和街,NA,NA,NA,173,NA,176,NA,NA,97,95,19,17,3,4,0.4,0.8
2026-05-13T2100,4286A,130.3952,46.8268,佳木斯市,长安路196号,,44,44,204,12,153,64,64,97,92,10,16,7,7,0.3,0.7
2026-05-13T2100,1252A,120.7439,30.778,嘉兴市,清河小学,,26,23,35,3,20,82,82,168,160,24,22,9,9,0.1,0.3
2026-05-13T2100,1253A,120.7261,30.7477,嘉兴市,嘉兴学院,,27,27,43,15,22,78,78,175,162,31,24,12,8,0.4,0.4
2026-05-13T2100,2872A,120.7845,30.7524,嘉兴市,南湖区残联,NA,NA,18,30,13,21,NA,NA,187,187,17,18,8,8,0.4,0.4
2026-05-13T2100,3407A,120.6915,30.7741,嘉兴市,秀洲住建,,29,22,33,9,21,92,92,194,183,22,21,9,9,0.5,0.6
2026-05-13T2100,1945A,98.291,39.7705,嘉峪关市,气象局,颗粒物(PM10),117,163,319,44,69,99,99,109,109,6,15,14,28,0.3,1.2
2026-05-13T2100,2884A,98.2672,39.7978,嘉峪关市,酒钢宾馆,颗粒物(PM10),119,168,334,59,80,98,98,112,110,6,12,14,50,0.2,1
2026-05-13T2100,3248A,98.2644,39.7723,嘉峪关市,雄关区,颗粒物(PM10),104,128,226,46,81,97,97,108,107,7,13,4,30,0.0,0.7
2026-05-13T2100,1383A,113.1063,22.6058,江门市,北街,,12,NA,23,6,9,36,36,64,54,8,12,/,/,/,/
2026-05-13T2100,1384A,113.073,22.5835,江门市,西区,,20,20,22,6,9,38,38,67,56,11,13,/,/,/,/
2026-05-13T2100,1385A,113.0218,22.531,江门市,圭峰西,,12,10,21,8,10,37,37,61,50,10,10,/,/,/,/
2026-05-13T2100,1386A,113.0826,22.5947,江门市,东湖,,20,20,15,7,7,38,38,68,57,9,9,7,7,0.3,0.4
2026-05-13T2100,3311A,113.1077,22.5647,江门市,江海富民,,32,32,32,6,11,38,38,70,57,10,14,/,/,0.3,0.3
2026-05-13T2100,3449A,113.0496,22.4669,江门市,新会银湖,,21,21,26,3,10,37,37,64,53,12,19,6,7,0.4,0.4
2026-05-13T2100,3335A,113.3137,35.2643,焦作市,马村街道办,颗粒物(PM10),79,90,76,49,51,98,98,137,131,16,11,12,11,0.7,0.8
2026-05-13T2100,3336A,113.2464,35.2374,焦作市,焦作技师学院,细颗粒物(PM2.5),82,88,102,51,52,90,90,138,131,21,13,7,7,1.0,0.9
2026-05-13T2100,3477A,113.1656,35.2536,焦作市,中站许衡医院,细颗粒物(PM2.5),60,61,72,40,57,100,100,135,127,24,13,12,13,0.8,0.8
2026-05-13T2100,3981A,113.2456,35.18,焦作市,原李万街道办,颗粒物(PM10),70,78,71,33,53,78,78,133,124,30,14,7,8,0.4,0.5
2026-05-13T2100,4264A,113.234,35.219,焦作市,新安路1731号,颗粒物(PM10),63,68,76,41,41,102,102,137,130,22,16,10,10,0.6,0.7
2026-05-13T2100,4295A,113.2722,35.2121,焦作市,人民路3066号,颗粒物(PM10),70,78,78,33,50,94,94,130,123,27,17,5,7,0.4,0.6
2026-05-13T2100,1708A,116.3701,23.5345,揭阳市,新兴,,19,17,53,6,32,58,58,101,80,11,12,5,6,0.6,0.7
2026-05-13T2100,1709A,116.3261,23.5442,揭阳市,西马,NA,NA,30,54,3,35,NA,NA,104,83,12,11,4,5,0.5,0.8
2026-05-13T2100,1710A,116.361,23.5627,揭阳市,东兴,,20,11,48,3,33,62,62,102,85,6,11,3,7,/,/
2026-05-13T2100,1711A,116.4151,23.5295,揭阳市,渔湖,,20,18,54,3,32,63,63,107,90,13,13,2,2,/,/
2026-05-13T2100,3320A,116.4028,23.5699,揭阳市,曲溪,,26,26,41,3,33,58,58,114,96,12,11,2,3,0.6,0.7
2026-05-13T2100,1944A,102.1691,38.5166,金昌市,天庆家园,颗粒物(PM10),140,224,310,50,83,112,112,112,112,2,6,6,15,0.4,0.8
2026-05-13T2100,4022A,102.1648,38.5369,金昌市,金川区人防中心,颗粒物(PM10),140,224,305,50,90,108,108,108,108,3,5,4,6,0.2,0.3
2026-05-13T2100,4239A,102.193042,38.531887,金昌市,长春路96号,颗粒物(PM10),146,238,295,79,95,103,103,103,103,1,4,6,14,0.3,0.4
2026-05-13T2100,1262A,119.6478,29.0773,金华市,十五中,,47,47,61,24,36,76,76,152,142,19,26,2,3,0.7,0.8
2026-05-13T2100,1263A,119.6859,29.1032,金华市,监测站,,47,47,57,25,33,83,83,156,146,12,20,5,5,0.6,0.7
2026-05-13T2100,3659A,119.656,29.1132,金华市,气象局,,44,44,64,26,39,77,77,140,134,16,32,4,6,0.6,0.8
2026-05-13T2100,1767A,121.1114,41.0879,锦州市,南山,,37,NA,37,20,24,118,118,158,151,13,14,5,9,0.4,0.5
2026-05-13T2100,1768A,121.060361,40.842794,锦州市,开发区,,37,37,59,22,23,102,102,147,141,32,18,7,6,0.5,0.5
2026-05-13T2100,1769A,121.1836,41.1118,锦州市,百股街道,,36,NA,39,21,26,113,113,163,NA,14,13,6,10,0.6,0.6
2026-05-13T2100,1770A,121.1176,41.1224,锦州市,天安街道,NA,NA,NA,44,NA,25,NA,NA,164,NA,NA,15,NA,8,NA,0.5
2026-05-13T2100,1771A,121.1303,41.1385,锦州市,北湖公园,,37,22,40,20,26,116,116,150,NA,12,14,6,10,0.4,0.5
2026-05-13T2100,2160A,112.8496,35.5051,晋城市,自来水公司,颗粒物(PM10),61,65,85,24,40,135,135,145,144,13,11,2,2,0.3,0.5
2026-05-13T2100,2162A,112.8509,35.4886,晋城市,市环保局,颗粒物(PM10),53,54,82,21,57,110,110,136,133,27,18,5,4,0.4,0.5
2026-05-13T2100,3620A,112.8258,35.4804,晋城市,泽州一中,颗粒物(PM10),55,57,84,28,50,124,124,135,134,14,16,4,4,0.7,0.8
2026-05-13T2100,4078A,112.8246,35.5152,晋城市,前书院路,颗粒物(PM10),61,65,76,35,48,116,116,136,132,23,16,3,2,0.4,0.5
2026-05-13T2100,4079A,112.8864,35.4773,晋城市,祥云街666号,颗粒物(PM10),51,51,74,30,53,132,132,131,131,9,14,6,5,0.4,0.6
2026-05-13T2100,2174A,112.6992,37.6984,晋中市,榆次区政府,颗粒物(PM10),96,114,98,53,52,116,116,174,161,18,15,9,9,1.1,1.2
2026-05-13T2100,2865A,112.7195,37.683,晋中市,榆次三中,颗粒物(PM10),108,139,102,64,40,NA,NA,182,171,18,15,7,9,1.1,0.8
2026-05-13T2100,4080A,112.7375,37.7215,晋中市,广安街188号,颗粒物(PM10),101,121,98,49,50,117,117,154,145,18,17,7,9,0.6,0.5
2026-05-13T2100,4200A,112.7478,37.6954,晋中市,迎宾街26号,颗粒物(PM10),107,136,100,54,52,134,134,179,166,19,16,8,9,0.7,0.6
2026-05-13T2100,2439A,112.2012,31.048,荆门市,竹园小学,颗粒物(PM10),55,57,51,31,37,37,37,83,64,26,13,4,5,0.5,0.5
2026-05-13T2100,2440A,112.1968,30.9892,荆门市,掇刀,NA,NA,NA,42,NA,36,NA,NA,85,77,19,12,15,10,NA,0.6
2026-05-13T2100,3012A,112.1849,31.0361,荆门市,西山林语,,36,34,48,25,34,31,31,73,48,16,9,6,7,0.7,0.7
2026-05-13T2100,3547A,112.1631,31.0134,荆门市,龙泉中学南校,,26,NA,35,18,27,32,32,84,65,14,9,4,5,0.7,0.6
2026-05-13T2100,4124A,112.2213,31.0654,荆门市,新台西路6号,细颗粒物(PM2.5),84,66,44,52,39,28,28,85,64,29,12,8,10,0.9,0.8
2026-05-13T2100,1844A,112.2493,30.3198,荆州市,市图书馆,细颗粒物(PM2.5),54,40,41,37,34,69,69,88,80,16,12,6,7,0.4,0.5
2026-05-13T2100,1845A,112.2009,30.3543,荆州市,市委党校,NA,NA,62,43,42,36,NA,NA,71,68,NA,13,NA,8,NA,0.5
2026-05-13T2100,3194A,112.2749,30.3124,荆州市,管委会,细颗粒物(PM2.5),56,54,46,38,38,56,56,78,70,23,14,11,10,0.4,0.4
2026-05-13T2100,4268A,112.1722,30.3366,荆州市,学苑路85号,细颗粒物(PM2.5),54,39,35,37,33,62,62,88,79,12,8,3,3,0.0,0.2
2026-05-13T2100,2343A,117.2114,29.2931,景德镇市,老干部活动中心,,39,33,42,27,41,52,52,90,85,14,15,5,8,0.7,0.8
2026-05-13T2100,2344A,117.1893,29.2789,景德镇市,兽医站,,33,30,53,23,40,64,64,94,88,16,21,4,5,0.6,0.8
2026-05-13T2100,2346A,117.246,29.2958,景德镇市,陶研所,,39,35,47,27,42,47,47,93,NA,9,19,3,5,1.0,1.1
2026-05-13T2100,4289A,117.154766,29.256967,景德镇市,青少年活动中心,,40,40,52,28,42,37,37,81,75,29,25,26,17,/,/
2026-05-13T2100,1803A,115.9873,29.6816,九江市,十里,NA,NA,NA,58,NA,35,NA,NA,64,NA,NA,21,NA,7,NA,0.9
2026-05-13T2100,1804A,115.9583,29.7047,九江市,茅山头,NA,NA,28,43,11,35,NA,NA,89,78,NA,23,3,3,0.5,0.6
2026-05-13T2100,1805A,115.9877,29.7295,九江市,西园,NA,NA,NA,48,NA,34,NA,NA,93,82,NA,30,NA,6,NA,0.7
2026-05-13T2100,1808A,115.9112,29.6038,九江市,综合工业园,,27,27,40,10,23,38,38,79,58,42,31,13,9,0.5,0.6
2026-05-13T2100,3190A,116.0254,29.6995,九江市,外国语学校,,23,18,50,16,34,46,46,85,76,29,19,9,10,0.5,0.6
2026-05-13T2100,4253A,116.010205,29.659402,九江市,莲花大道8号,,22,16,37,15,25,47,47,76,66,19,15,5,5,0.5,0.6
2026-05-13T2100,4240A,98.495752,39.733935,酒泉市,玉门东路5号,颗粒物(PM10),142,227,294,69,78,NA,NA,96,96,4,3,4,4,0.1,0.1
2026-05-13T2100,4241A,98.5099,39.7506,酒泉市,北大街108号,颗粒物(PM10),155,259,341,77,81,80,80,91,90,3,3,7,8,0.1,0.1
2026-05-13T2100,2698A,76.0071,39.466,喀什地区,巡警大队,颗粒物(PM10),265,395,232,122,70,118,118,122,117,10,8,4,4,0.1,0.1
2026-05-13T2100,2699A,75.9756,39.4693,喀什地区,吾办,颗粒物(PM10),276,403,207,134,69,114,114,120,113,7,4,4,4,0.4,0.3
2026-05-13T2100,4027A,75.9485,39.4688,喀什地区,老干局,颗粒物(PM10),181,312,188,88,47,96,96,118,110,4,3,3,3,0.2,0.2
2026-05-13T2100,1824A,114.3389,34.778,开封市,肿瘤医院,细颗粒物(PM2.5),90,88,82,55,52,71,71,132,111,29,18,7,7,0.8,0.8
2026-05-13T2100,1826A,114.2884,34.7966,开封市,世纪星幼儿园,细颗粒物(PM2.5),76,68,67,48,50,75,75,132,113,25,17,8,8,0.8,0.6
2026-05-13T2100,3147A,114.3434,34.8101,开封市,龙亭公园,细颗粒物(PM2.5),78,74,72,49,50,79,79,141,NA,26,19,8,9,0.7,0.6
2026-05-13T2100,3210A,114.3645,34.7955,开封市,汴京公园,细颗粒物(PM2.5),98,101,83,59,51,68,68,135,113,20,10,4,4,0.8,0.7
2026-05-13T2100,3473A,114.2485,34.8306,开封市,技师学院,颗粒物(PM10),63,67,79,21,36,100,100,138,123,13,10,6,8,0.8,1
2026-05-13T2100,3592A,114.4518,34.7503,开封市,祥符区生态环境局,细颗粒物(PM2.5),106,67,66,66,56,31,31,126,94,62,23,9,9,0.8,0.8
2026-05-13T2100,1951A,84.886,45.6029,克拉玛依市,长征新村,NA,NA,NA,9,NA,4,NA,NA,99,99,3,2,6,5,0.4,0.3
2026-05-13T2100,1952A,84.8894,45.5827,克拉玛依市,南林小区,,32,12,11,3,0,100,100,96,96,16,4,3,4,0.1,0.1
2026-05-13T2100,1954A,84.896,44.3328,克拉玛依市,独山子区,NA,NA,31,21,3,4,NA,NA,105,105,9,5,8,6,0.4,0.3
2026-05-13T2100,1955A,85.6888,46.0909,克拉玛依市,乌尔禾区商贸楼,,31,14,14,11,7,98,98,103,103,8,5,4,3,0.1,0.1
2026-05-13T2100,3612A,85.1045,45.6895,克拉玛依市,白碱滩区新站,,33,20,12,6,2,105,105,106,106,4,4,8,7,0.2,0.2
2026-05-13T2100,2697A,76.1457,39.7143,克孜勒苏柯尔克孜自治州,市人民政府,颗粒物(PM10),500,601,161,100,49,113,113,117,117,5,3,5,6,0.2,0.1
2026-05-13T2100,3665A,76.1654,39.7157,克孜勒苏柯尔克孜自治州,克州文化中心,颗粒物(PM10),200,350,179,91,59,117,117,115,115,1,2,4,5,0.2,0.2
2026-05-13T2100,1450A,102.8203,24.889,昆明市,呈贡新区,,29,19,13,10,7,92,92,103,101,10,7,6,4,0.2,0.4
2026-05-13T2100,1452A,102.7253,25.0904,昆明市,龙泉镇,NA,NA,35,18,18,9,NA,NA,91,89,25,10,5,5,0.4,0.4
2026-05-13T2100,1453A,102.7267,25.0378,昆明市,东风东路,,27,17,12,14,8,84,84,100,97,13,13,2,2,0.4,0.4
2026-05-13T2100,1454A,102.6744,25.0671,昆明市,金鼎山,,30,30,18,18,8,73,73,95,92,19,11,4,4,0.4,0.4
2026-05-13T2100,1455A,102.6643,25.0401,昆明市,碧鸡广场,,30,30,14,15,8,59,59,89,85,32,14,5,5,0.5,0.4
2026-05-13T2100,3179A,102.7491,25.012,昆明市,官渡区博物馆,,26,18,16,9,8,82,82,97,95,14,13,4,4,0.4,0.5
2026-05-13T2100,3375A,102.8016,24.8336,昆明市,青年创业园,,29,20,13,11,10,90,90,100,98,6,5,5,5,0.4,0.5
2026-05-13T2100,3550A,102.8,24.9787,昆明市,昆明学院,,28,16,12,15,6,88,88,97,95,9,9,5,5,0.4,0.5
2026-05-13T2100,3551A,102.5969,24.6738,昆明市,晋宁区生态环境分局,,29,29,13,19,9,87,87,98,97,6,5,2,1,0.4,0.4
2026-05-13T2100,3552A,102.6673,24.9861,昆明市,云天化总部,,28,13,8,11,4,89,89,100,98,10,8,4,5,0.3,0.4
2026-05-13T2100,1456A,91.132,29.6515,拉萨市,八廓街,,38,38,17,7,7,108,108,122,120,8,7,6,5,0.7,0.3
2026-05-13T2100,1457A,91.1221,29.6748,拉萨市,市环保局,,32,15,18,10,10,102,102,117,114,12,10,5,4,0.5,0.4
2026-05-13T2100,1458A,91.0874,29.6476,拉萨市,区监测站,,35,29,11,10,6,111,111,117,116,10,10,5,5,0.2,0.1
2026-05-13T2100,1459A,91.1774,29.6541,拉萨市,西藏大学,,33,29,17,13,9,105,105,116,114,10,11,6,5,0.3,0.3
2026-05-13T2100,1460A,90.9798,29.6586,拉萨市,区辐射站,,48,48,16,14,8,102,102,105,105,15,12,5,5,0.4,0.3
2026-05-13T2100,1461A,91.0831,29.6292,拉萨市,拉萨火车站,NA,NA,35,13,11,9,NA,NA,121,121,5,6,5,4,0.4,0.4
2026-05-13T2100,2520A,109.2203,23.7252,来宾市,来宾技工学校,,42,42,29,11,9,59,59,79,77,5,3,6,7,0.7,0.7
2026-05-13T2100,3535A,109.1781,23.7293,来宾市,兴宾区政府,,36,36,34,14,8,56,56,80,77,13,8,7,7,0.6,0.5
2026-05-13T2100,4002A,109.2312,23.7428,来宾市,中南小学,颗粒物(PM10),101,122,31,14,10,52,52,83,79,12,9,5,6,0.6,0.5
2026-05-13T2100,1479A,103.8309,36.0467,兰州市,铁路设计院,颗粒物(PM10),59,62,47,30,20,100,100,64,NA,20,20,4,5,0.7,0.7
2026-05-13T2100,3241A,103.7439,36.0841,兰州市,百合公园,NA,NA,47,44,26,22,NA,NA,115,115,9,21,9,7,0.7,0.4
2026-05-13T2100,3242A,103.9613,35.9985,兰州市,和平,NA,NA,NA,37,NA,18,NA,NA,124,NA,NA,8,NA,9,NA,0.5
2026-05-13T2100,4236A,103.629272,36.093822,兰州市,庄浪东路808号,颗粒物(PM10),68,74,57,22,21,105,105,123,122,17,14,8,8,0.3,0.3
2026-05-13T2100,4237A,103.7251,36.104344,兰州市,安宁西路88号,颗粒物(PM10),57,59,55,22,20,126,126,130,130,5,15,8,8,0.2,0.3
2026-05-13T2100,4238A,103.846982,36.067567,兰州市,北滨河东路1号,,47,47,42,22,19,109,109,117,117,14,17,8,9,0.5,0.6
2026-05-13T2100,1067A,116.6712,39.5109,廊坊市,药材公司,细颗粒物(PM2.5),116,129,94,77,58,182,182,186,186,19,11,3,4,1.2,0.6
2026-05-13T2100,1068A,116.7215,39.5592,廊坊市,开发区,细颗粒物(PM2.5),110,121,108,71,55,199,199,205,205,22,18,3,3,1.1,0.5
2026-05-13T2100,1070A,116.7246,39.5273,廊坊市,北华航天学院,细颗粒物(PM2.5),126,104,86,88,54,197,197,204,204,15,12,3,4,1.2,0.6
2026-05-13T2100,2919A,116.7022,39.5454,廊坊市,河北工业大学,细颗粒物(PM2.5),107,122,85,67,50,209,209,210,210,18,12,4,5,1.1,0.5
2026-05-13T2100,2536A,103.7629,29.5844,乐山市,牛耳桥,细颗粒物(PM2.5),98,79,65,59,43,134,134,144,143,20,22,6,7,0.7,0.7
2026-05-13T2100,2537A,103.7501,29.6002,乐山市,市第三水厂,细颗粒物(PM2.5),104,84,64,64,43,122,122,134,133,21,21,5,7,0.8,0.7
2026-05-13T2100,2538A,103.7571,29.5664,乐山市,市监测站,细颗粒物(PM2.5),101,87,64,61,39,117,117,136,134,22,17,4,5,0.9,0.8
2026-05-13T2100,3361A,103.7313,29.563,乐山市,理工大学,细颗粒物(PM2.5),103,74,60,63,42,127,127,149,146,20,18,7,11,0.7,0.6
2026-05-13T2100,2599A,100.2497,26.8802,丽江市,丽江古城,,31,19,16,15,5,99,99,100,100,8,8,7,6,0.4,0.4
2026-05-13T2100,2600A,100.2203,26.8906,丽江市,市中心,NA,NA,13,11,11,6,NA,NA,101,101,10,7,5,9,0.4,0.4
2026-05-13T2100,1267A,119.9141,28.4513,丽水市,监测站大楼,颗粒物(PM10),52,52,42,30,24,92,92,106,104,17,19,5,5,0.6,0.5
2026-05-13T2100,1268A,119.93,28.4589,丽水市,莲都小学,颗粒物(PM10),60,64,46,39,25,91,91,120,117,22,20,/,/,/,/
2026-05-13T2100,1269A,119.8794,28.4232,丽水市,余庄前,,44,44,41,28,25,45,45,89,73,16,19,4,5,0.5,0.5
2026-05-13T2100,1173A,119.1759,34.5885,连云港市,市环境监测站,NA,NA,39,38,24,29,NA,NA,153,147,22,12,9,9,0.7,0.6
2026-05-13T2100,3000A,119.3577,34.6971,连云港市,德源药业,颗粒物(PM10),51,51,48,19,26,75,75,138,116,27,21,6,6,0.4,0.5
2026-05-13T2100,3007A,119.178,34.8442,连云港市,新城一中,,38,38,54,10,18,97,97,133,119,16,20,4,5,0.4,0.5
2026-05-13T2100,3008A,119.3607,34.7519,连云港市,胡沟管理处,,28,27,24,19,18,46,46,118,72,56,35,12,11,0.9,0.6
2026-05-13T2100,3009A,119.1478,34.5913,连云港市,矿山设计院,细颗粒物(PM2.5),110,NA,44,70,27,87,87,154,140,18,9,4,5,0.8,0.7
2026-05-13T2100,3434A,119.2414,34.6539,连云港市,工贸学校,,40,35,36,28,26,100,100,163,149,14,11,4,4,0.6,0.5
2026-05-13T2100,3664A,119.4171,34.734,连云港市,连云街道,,38,38,61,17,24,89,89,148,145,22,33,10,13,0.6,0.6
2026-05-13T2100,2573A,102.2629,27.8981,凉山彝族自治州,西昌市政府,,25,24,20,12,14,80,80,125,121,12,9,6,11,0.4,0.5
2026-05-13T2100,2574A,102.2686,27.885,凉山彝族自治州,凉山州政府,,27,27,22,12,15,72,72,106,104,11,9,6,6,0.6,0.6
2026-05-13T2100,4229A,102.2342,27.8859,凉山彝族自治州,凯乐南路30号,,30,20,24,8,17,95,95,110,109,9,17,13,6,0.7,0.7
2026-05-13T2100,2212A,123.1978,41.2036,辽阳市,宏伟区,,41,NA,27,16,14,129,129,128,127,7,7,6,6,0.4,0.5
2026-05-13T2100,2213A,123.1684,41.2497,辽阳市,新华园,,39,23,30,18,18,123,123,131,127,9,8,3,3,0.5,0.5
2026-05-13T2100,2214A,123.2355,41.2663,辽阳市,滨河路,,34,19,28,15,15,106,106,117,113,9,9,6,6,0.3,0.3
2026-05-13T2100,4083A,123.153,41.2874,辽阳市,铁西路150号,,37,25,36,23,20,118,118,128,124,8,7,6,6,0.5,0.5
2026-05-13T2100,2227A,125.1359,42.8845,辽源市,环保局,,43,43,31,22,15,93,93,174,155,23,12,8,8,0.5,0.4
2026-05-13T2100,4085A,125.0998,42.9134,辽源市,安宁大街333号,,43,43,37,28,17,98,98,162,151,18,10,5,6,0.6,0.4
2026-05-13T2100,1625A,115.9789,36.4372,聊城市,区政府,颗粒物(PM10),57,59,63,21,29,105,105,140,130,17,13,8,9,0.6,0.6
2026-05-13T2100,3200A,115.9772,36.4986,聊城市,监控中心,颗粒物(PM10),52,52,62,23,30,118,118,149,141,10,8,8,10,0.3,0.4
2026-05-13T2100,3513A,116.0443,36.436,聊城市,九州社区,颗粒物(PM10),65,71,70,31,33,90,90,141,128,26,15,6,6,0.4,0.5
2026-05-13T2100,4018A,116.0564,36.4609,聊城市,星美广场,颗粒物(PM10),59,62,62,27,31,98,98,141,131,17,10,8,7,0.4,0.5
2026-05-13T2100,4113A,116.0091,36.4495,聊城市,利民路,颗粒物(PM10),104,129,57,27,35,103,103,148,137,20,13,8,9,0.3,0.4
2026-05-13T2100,2632A,94.3683,29.6373,林芝市,林芝监测站,,27,10,10,3,5,84,84,88,86,4,4,3,4,0.5,0.4
2026-05-13T2100,2633A,94.3616,29.6634,林芝市,林芝人民医院,,27,12,13,10,6,86,86,90,89,4,5,3,3,0.4,0.4
2026-05-13T2100,2603A,100.0779,23.8981,临沧市,市环保局,颗粒物(PM10),57,59,22,30,12,74,74,94,91,11,5,14,6,0.5,0.4
2026-05-13T2100,2604A,100.0894,23.882,临沧市,市气象局,,30,NA,21,21,13,75,75,96,93,8,7,6,6,0.6,0.6
2026-05-13T2100,1733A,111.5552,36.0791,临汾市,临钢医院,颗粒物(PM10),58,60,107,18,45,84,84,126,115,18,18,10,9,0.9,0.9
2026-05-13T2100,1734A,111.4984,36.0734,临汾市,技工学校,,46,46,106,31,60,81,81,139,124,20,16,10,10,1.0,1
2026-05-13T2100,1736A,111.5017,36.0857,临汾市,市委,颗粒物(PM10),69,76,114,21,50,84,84,142,127,21,18,8,8,0.9,1
2026-05-13T2100,3018A,111.5048,36.1015,临汾市,唐尧大酒店,颗粒物(PM10),75,85,120,25,47,82,82,132,120,14,14,9,10,1.0,1
2026-05-13T2100,4244A,111.4879,36.053,临汾市,启星学校,颗粒物(PM10),57,59,103,31,52,75,75,130,116,19,20,7,7,1.1,1.1
2026-05-13T2100,4271A,103.2464,35.6123,临夏回族自治州,滨河东路1号,颗粒物(PM10),85,99,63,38,26,85,85,110,107,19,10,12,12,0.3,0.3
2026-05-13T2100,4310A,103.207136,35.599807,临夏回族自治州,新华街21号,颗粒物(PM10),93,110,70,39,28,83,83,101,99,10,5,8,8,0.2,0.2
2026-05-13T2100,1618A,118.3429,35.0532,临沂市,沂河小区,颗粒物(PM10),58,61,60,28,31,126,126,191,179,21,16,20,20,0.4,0.4
2026-05-13T2100,1619A,118.2962,35.0568,临沂市,鲁南制药厂,,48,48,59,21,32,136,136,198,186,19,18,24,21,0.3,0.4
2026-05-13T2100,1620A,118.2793,34.9976,临沂市,新光毛纺厂,,42,41,49,29,37,124,124,197,181,25,22,18,21,0.4,0.4
2026-05-13T2100,1621A,118.3955,35.0889,临沂市,河东保险公司,颗粒物(PM10),60,63,57,33,35,113,113,193,178,31,22,11,17,0.2,0.3
2026-05-13T2100,3370A,118.3563,35.0215,临沂市,十里堡居委,颗粒物(PM10),53,53,51,30,34,122,122,194,180,21,17,17,20,0.6,0.6
2026-05-13T2100,3496A,118.359,35.1067,临沂市,南坊新区,颗粒物(PM10),63,68,59,29,36,115,115,183,171,27,18,13,18,0.3,0.4
2026-05-13T2100,3860A,118.3915,35.0297,临沂市,皇山花园小区,颗粒物(PM10),55,56,58,35,37,119,119,192,178,26,21,12,21,0.7,0.8
2026-05-13T2100,1870A,109.4854,24.3898,柳州市,柳东小学,,23,23,32,10,17,71,71,89,89,8,10,5,8,0.6,0.6
2026-05-13T2100,1871A,109.4109,24.3304,柳州市,环保监测站,,19,NA,36,12,19,60,60,83,83,13,18,5,5,0.8,0.8
2026-05-13T2100,1872A,109.3886,24.3408,柳州市,河西水厂,,25,25,37,10,19,62,62,83,83,11,18,8,8,0.7,0.7
2026-05-13T2100,1873A,109.4263,24.2951,柳州市,市四中,NA,NA,42,42,16,18,NA,NA,85,85,14,19,6,6,0.6,0.6
2026-05-13T2100,1874A,109.396,24.3658,柳州市,市九中,,33,33,34,9,19,63,63,82,82,10,15,5,6,0.6,0.7
2026-05-13T2100,1875A,109.4912,24.3164,柳州市,古亭山,,31,31,33,11,15,67,67,84,84,10,13,4,4,0.6,0.7
2026-05-13T2100,3402A,109.5422,24.3994,柳州市,市二中,,22,9,32,8,18,70,70,89,89,9,13,7,17,0.6,0.7
2026-05-13T2100,2307A,116.5078,31.7369,六安市,监测大楼,细颗粒物(PM2.5),66,45,47,43,48,74,74,142,126,14,13,6,5,0.4,0.5
2026-05-13T2100,2308A,116.4738,31.7642,六安市,皖西学院,,47,47,53,31,40,86,86,152,137,10,11,7,7,0.3,0.5
2026-05-13T2100,2309A,116.4997,31.7904,六安市,朝阳厂,细颗粒物(PM2.5),54,42,50,37,46,77,77,137,124,14,16,7,7,0.3,0.4
2026-05-13T2100,2310A,116.5566,31.7885,六安市,开发区,,46,33,52,32,47,83,83,151,134,14,21,7,8,0.4,0.5
2026-05-13T2100,2577A,104.8293,26.592,六盘水市,黄土坡,,35,35,26,24,18,74,74,104,101,26,12,11,7,0.8,0.4
2026-05-13T2100,2579A,104.8481,26.5898,六盘水市,民中,NA,NA,36,21,27,20,NA,NA,100,100,31,14,11,2,0.9,0.5
2026-05-13T2100,2580A,104.9541,26.5506,六盘水市,双水,,30,24,20,12,14,93,93,98,98,10,7,5,4,0.2,0.2
2026-05-13T2100,4151A,104.8899,26.5685,六盘水市,钟山大道中段564号,,37,37,26,22,16,84,84,102,101,12,8,5,3,0.8,0.8
2026-05-13T2100,2336A,117.022,25.1031,龙岩市,龙岩市监测站,,33,26,28,23,22,42,42,43,43,18,18,6,6,0.7,0.6
2026-05-13T2100,2337A,117.0257,25.0662,龙岩市,闽西职业技术学院,,19,19,30,13,20,51,51,44,44,9,12,6,5,0.7,0.7
2026-05-13T2100,2338A,117.0195,25.0306,龙岩市,龙岩学院,,27,27,32,14,18,38,38,46,46,6,10,4,4,/,/
2026-05-13T2100,2885A,104.9344,33.3827,陇南市,滨江中学,NA,NA,NA,40,NA,12,NA,NA,96,92,7,5,5,5,0.6,0.6
2026-05-13T2100,3247A,104.9551,33.3709,陇南市,市总工会,,35,35,31,11,12,89,89,96,93,5,5,4,4,0.5,0.5
2026-05-13T2100,2488A,111.9984,27.7346,娄底市,市监测站,,30,30,31,18,24,36,36,56,54,12,14,6,8,0.5,0.6
2026-05-13T2100,2491A,111.9888,27.7035,娄底市,市政府,NA,NA,26,27,NA,22,NA,NA,63,63,7,8,5,4,0.5,0.5
2026-05-13T2100,4127A,111.9812,27.7591,娄底市,涟钢职大,,15,13,23,10,15,35,35,65,61,10,9,3,3,0.7,0.7
2026-05-13T2100,4128A,112.0303,27.7457,娄底市,娄底体校,,24,24,30,12,22,38,38,60,57,7,9,4,4,0.3,0.3
2026-05-13T2100,1894A,105.4427,28.9063,泸州市,小市上码头,,44,39,37,30,26,138,138,140,140,12,15,7,8,0.6,0.6
2026-05-13T2100,1895A,105.4241,28.8573,泸州市,兰田宪桥,NA,NA,46,48,28,30,NA,NA,152,152,17,17,8,12,0.4,0.6
2026-05-13T2100,1896A,105.4378,28.8833,泸州市,市环监站,,41,37,35,21,19,129,129,142,142,20,19,8,13,0.8,0.8
2026-05-13T2100,4272A,105.3689,28.7783,泸州市,纳溪中医医院,颗粒物(PM10),57,59,44,33,26,99,99,155,149,21,18,6,7,0.7,0.6
2026-05-13T2100,2183A,111.1447,37.5212,吕梁市,环保局,颗粒物(PM10),96,114,97,43,36,43,43,141,121,51,27,7,10,0.6,0.5
2026-05-13T2100,2185A,111.1285,37.5338,吕梁市,自来水公司,颗粒物(PM10),68,75,86,39,38,82,82,139,127,28,26,6,7,0.7,0.7
2026-05-13T2100,2867A,111.1225,37.5093,吕梁市,马茂庄小学,颗粒物(PM10),83,95,104,34,42,63,63,148,130,38,29,8,7,0.7,0.6
2026-05-13T2100,1812A,112.3934,34.6517,洛阳市,市委党校,,36,36,64,16,47,110,110,125,121,12,15,7,12,0.4,0.7
2026-05-13T2100,1815A,112.494,34.6883,洛阳市,河南林校,,42,42,71,16,46,120,120,131,128,12,20,9,13,0.4,0.7
2026-05-13T2100,1816A,112.3843,34.623,洛阳市,开发区管委会,,37,37,61,14,46,112,112,131,126,10,13,11,16,0.3,0.6
2026-05-13T2100,1817A,112.4263,34.6249,洛阳市,市委新办公区,,44,44,59,11,44,103,103,124,120,17,15,8,14,0.1,0.4
2026-05-13T2100,3340A,112.6005,34.6323,洛阳市,伊滨,,46,46,63,26,43,93,93,117,114,14,14,8,9,0.3,0.4
2026-05-13T2100,3341A,112.495,34.6338,洛阳市,中移产业园,NA,NA,43,59,21,44,NA,NA,126,124,14,16,7,12,0.4,0.7
2026-05-13T2100,3593A,112.5736,34.8993,洛阳市,吉利监测站,颗粒物(PM10),58,60,75,6,46,79,79,119,113,16,16,7,10,0.3,0.5
2026-05-13T2100,3635A,112.3678,34.6623,洛阳市,河科大西苑校区,,38,38,68,18,49,116,116,132,128,15,17,8,14,0.4,0.6
2026-05-13T2100,3636A,112.4387,34.678,洛阳市,英才小学,,40,40,79,17,47,111,111,120,118,9,13,6,11,0.5,0.8
2026-05-13T2100,4214A,112.460027,34.694929,洛阳市,春都路1号院,,38,36,73,26,50,115,115,129,126,11,16,6,11,0.2,0.4
2026-05-13T2100,2399A,114.051,33.5721,漯河市,三五一五工厂,细颗粒物(PM2.5),74,79,60,47,37,94,94,127,123,21,17,8,7,0.5,0.5
2026-05-13T2100,2400A,114.0055,33.5698,漯河市,漯河大学,细颗粒物(PM2.5),76,62,50,48,43,104,104,128,126,19,16,10,8,0.5,0.5
2026-05-13T2100,2401A,114.0134,33.5826,漯河市,市水利局,细颗粒物(PM2.5),90,83,58,55,47,94,94,122,118,19,13,14,7,0.7,0.6
2026-05-13T2100,2402A,114.0261,33.5697,漯河市,市广电局,颗粒物(PM10),69,76,53,38,34,100,100,125,123,18,15,8,7,0.5,0.5
2026-05-13T2100,3478A,113.9691,33.568,漯河市,市图书馆,细颗粒物(PM2.5),86,86,61,53,43,100,100,118,116,13,11,15,9,0.8,0.7
2026-05-13T2100,4250A,114.089259,33.588274,漯河市,韶山路11号,细颗粒物(PM2.5),96,NA,66,58,45,66,66,121,110,31,16,8,8,0.7,0.7
2026-05-13T2100,1798A,118.5084,31.6838,马鞍山市,湖东路四小,颗粒物(PM10),69,76,74,39,49,165,165,184,180,18,19,7,8,0.6,0.8
2026-05-13T2100,1799A,118.5019,31.6449,马鞍山市,开发区,细颗粒物(PM2.5),84,87,78,52,51,120,120,180,171,36,29,6,8,0.7,0.9
2026-05-13T2100,3633A,118.4914,31.681,马鞍山市,雨山,颗粒物(PM10),69,76,66,32,36,157,157,182,178,22,19,6,7,0.7,0.9
2026-05-13T2100,4191A,118.527362,31.722269,马鞍山市,慈湖高新区,细颗粒物(PM2.5),78,77,80,49,48,156,156,179,171,22,22,6,8,0.6,0.7
2026-05-13T2100,1686A,111.0285,21.469,茂名市,电白南海,,22,22,19,8,7,50,50,61,56,6,5,6,6,0.7,0.7
2026-05-13T2100,1687A,110.9294,21.6533,茂名市,茂石化七小,,24,24,25,9,10,43,43,64,60,9,8,6,10,0.5,0.4
2026-05-13T2100,1688A,110.9108,21.6688,茂名市,健康路,,29,29,17,10,10,43,43,68,64,8,7,4,7,0.6,0.6
2026-05-13T2100,1689A,110.8592,21.6826,茂名市,高岭,,24,24,25,3,10,42,42,67,63,6,7,3,5,/,/
2026-05-13T2100,3450A,111.0101,21.5165,茂名市,电白水东,,15,14,11,8,7,45,45,55,52,4,5,3,3,/,/
2026-05-13T2100,2540A,103.8414,30.0871,眉山市,气象局,颗粒物(PM10),76,86,58,26,34,115,115,152,142,23,27,3,4,0.4,0.5
2026-05-13T2100,3148A,103.829,30.0563,眉山市,区人社局,颗粒物(PM10),61,65,72,26,35,121,121,143,138,19,24,6,7,0.4,0.5
2026-05-13T2100,4148A,103.8836,30.0695,眉山市,眉职院,颗粒物(PM10),55,56,57,26,27,102,102,139,131,25,17,8,8,0.8,0.7
2026-05-13T2100,1690A,116.1248,24.3307,梅州市,梅江月梅,,32,22,26,22,16,76,76,95,86,9,10,/,/,/,/
2026-05-13T2100,1691A,116.0798,24.2719,梅州市,梅县新城,,30,30,26,19,16,48,48,94,82,23,12,9,8,0.5,0.5
2026-05-13T2100,3315A,116.1234,24.2994,梅州市,梅龙,,34,34,23,23,18,69,69,112,98,16,9,6,6,0.7,0.6
2026-05-13T2100,1878A,104.7775,31.4741,绵阳市,富乐山,,39,38,35,27,23,99,99,116,115,8,8,8,8,0.7,0.7
2026-05-13T2100,1880A,104.6698,31.4668,绵阳市,高新区自来水公司,细颗粒物(PM2.5),52,49,39,36,25,79,79,120,117,38,14,7,7,0.6,0.6
2026-05-13T2100,3491A,104.6899,31.5324,绵阳市,西科大附属小学,颗粒物(PM10),55,57,50,35,31,54,54,116,NA,48,20,5,5,0.6,0.5
2026-05-13T2100,3492A,104.5647,31.5343,绵阳市,安州区旅游局,颗粒物(PM10),59,62,45,30,27,84,84,127,124,25,10,5,7,0.8,0.7
2026-05-13T2100,4146A,104.7092,31.4972,绵阳市,科技城新区公安局,,42,42,47,29,27,91,91,111,110,25,15,6,6,0.7,0.7
2026-05-13T2100,4226A,104.765114,31.453094,绵阳市,绵阳市气象局,,46,46,34,28,24,92,92,99,99,26,16,8,8,0.5,0.5
2026-05-13T2100,1784A,129.61,44.561,牡丹江市,环保大楼,,36,33,36,19,17,115,115,137,130,8,18,4,4,0.2,0.3
2026-05-13T2100,1787A,129.6364,44.6075,牡丹江市,机车工厂,,49,49,55,25,30,91,91,133,123,13,19,9,11,0.3,0.4
2026-05-13T2100,1788A,129.6386,44.5462,牡丹江市,第一中学,,42,NA,30,29,18,100,100,131,122,11,15,4,4,0.4,0.4
2026-05-13T2100,4287A,129.5992,44.5964,牡丹江市,东晓云街98号,细颗粒物(PM2.5),62,45,43,41,20,95,95,135,125,14,16,6,6,0.3,0.2
2026-05-13T2100,2531A,105.0703,29.61,内江市,市监测站,颗粒物(PM10),51,51,41,30,33,125,125,140,139,10,11,11,12,0.3,0.3
2026-05-13T2100,2533A,105.0657,29.5807,内江市,内江二中,NA,NA,NA,42,NA,33,NA,NA,140,NA,NA,12,NA,8,NA,0.4
2026-05-13T2100,2534A,105.0407,29.5828,内江市,内江日报社,NA,NA,42,41,NA,33,NA,NA,148,147,12,11,16,13,0.4,0.4
2026-05-13T2100,4147A,105.0433,29.6105,内江市,玉峰路西段888号,,41,41,42,27,30,120,120,140,138,10,10,10,10,0.5,0.5
2026-05-13T2100,2628A,92.0653,31.4846,那曲市,那曲监测站,NA,NA,NA,65,14,26,100,100,104,103,10,22,11,14,0.5,0.9
2026-05-13T2100,4243A,92.0515,31.4787,那曲市,那曲市委宣传部,,31,16,26,11,16,99,99,104,103,7,16,7,7,0.4,0.7
2026-05-13T2100,1291A,115.8887,28.7006,南昌市,省林业公司,,20,NA,32,6,27,62,62,84,72,6,18,3,3,0.5,0.6
2026-05-13T2100,1292A,115.813,28.7443,南昌市,林科所,,16,NA,25,8,24,50,50,79,69,6,14,6,7,0.4,0.4
2026-05-13T2100,1294A,115.8518,28.687,南昌市,建工学校,,16,NA,36,8,24,50,50,81,68,12,13,6,7,0.9,0.8
2026-05-13T2100,1295A,115.8926,28.6425,南昌市,象湖,,18,NA,26,8,31,57,57,81,66,13,21,8,8,0.7,0.7
2026-05-13T2100,3046A,115.9084,28.6062,南昌市,机电学校,,19,14,42,9,34,60,60,83,67,13,20,5,5,0.5,0.6
2026-05-13T2100,3690A,115.9718,28.7032,南昌市,外国语学校,,20,8,37,8,33,62,62,81,72,9,17,9,9,0.6,0.7
2026-05-13T2100,4106A,115.7923,28.6873,南昌市,工业二路,,17,16,38,11,30,53,53,79,70,7,14,5,5,0.6,0.6
2026-05-13T2100,4192A,115.931587,28.686774,南昌市,南京东路235号,,20,14,34,7,32,64,64,87,73,10,20,6,7,0.5,0.8
2026-05-13T2100,1906A,106.0791,30.8022,南充市,南充市委,颗粒物(PM10),53,54,42,32,30,59,59,110,104,34,12,6,6,0.6,0.5
2026-05-13T2100,1907A,106.1038,30.8215,南充市,南充炼油厂,颗粒物(PM10),52,52,47,30,31,71,71,111,107,37,10,6,6,0.5,0.3
2026-05-13T2100,4227A,106.108336,30.788436,南充市,梨树横街98号,,44,44,40,28,31,91,91,116,113,22,11,7,7,0.6,0.5
2026-05-13T2100,4304A,106.1172,30.843,南充市,清泉寺北路188号,,48,48,43,27,30,100,100,116,116,21,9,8,8,0.4,0.3
2026-05-13T2100,4305A,106.067,30.7616,南充市,同庆路1号,,46,46,42,31,31,64,64,117,111,41,14,7,7,0.6,0.5
2026-05-13T2100,1151A,118.8033,32.1085,南京市,迈皋桥,细颗粒物(PM2.5),100,80,53,60,34,197,197,215,213,35,16,5,5,0.8,0.5
2026-05-13T2100,1152A,118.7487,32.057,南京市,草场门,臭氧1小时(O3_1h),92,70,54,47,32,193,193,204,202,20,19,4,7,0.6,0.7
2026-05-13T2100,1154A,118.770105,32.004342,南京市,中华门,细颗粒物(PM2.5),72,63,59,46,35,175,175,203,200,15,14,6,6,0.6,0.6
2026-05-13T2100,1155A,118.8059,32.0329,南京市,瑞金路,细颗粒物(PM2.5),76,73,62,48,33,165,165,189,185,28,22,10,14,1.0,1
2026-05-13T2100,1156A,118.7946,32.0774,南京市,玄武湖,细颗粒物(PM2.5),72,63,55,46,28,168,168,178,176,22,11,6,6,0.6,0.5
2026-05-13T2100,1157A,118.6415,32.0964,南京市,浦口,细颗粒物(PM2.5),78,69,54,49,31,138,138,181,174,45,28,5,6,0.6,0.6
2026-05-13T2100,1158A,118.730129,32.000956,南京市,奥体中心,颗粒物(PM10),65,71,63,36,29,166,166,197,194,25,22,10,12,0.6,0.6
2026-05-13T2100,1159A,118.9072,32.1047,南京市,仙林大学城,臭氧1小时(O3_1h),100,90,64,59,33,200,200,214,213,29,19,14,13,1.1,0.9
2026-05-13T2100,3422A,118.8443,31.919,南京市,江宁彩虹桥,颗粒物(PM10),67,73,59,40,30,163,163,187,186,20,17,4,5,0.8,0.7
2026-05-13T2100,3427A,118.8497,32.3599,南京市,六合雄州,颗粒物(PM10),73,81,54,45,29,159,159,200,194,29,24,4,4,1.2,1
2026-05-13T2100,4086A,118.7641,32.0841,南京市,新模范马路66号,臭氧1小时(O3_1h),89,88,60,43,27,191,191,210,208,33,22,4,4,0.8,0.7
2026-05-13T2100,4249A,118.8707617,31.34017673,南京市,汶溪路181号,臭氧1小时(O3_1h),90,67,53,47,43,192,192,195,195,17,20,11,9,0.4,0.5
2026-05-13T2100,4312A,119.019,31.6512,南京市,中山西路1号,,48,48,54,28,37,148,148,167,166,16,22,4,4,0.6,0.8
2026-05-13T2100,1401A,108.3098,22.788,南宁市,二十一中,,21,21,27,14,11,48,48,59,56,9,11,1,2,0.5,0.5
2026-05-13T2100,1402A,108.3135,22.8529,南宁市,北湖,,26,26,24,16,12,53,53,70,67,4,6,4,4,0.4,0.4
2026-05-13T2100,1403A,108.3205,22.8222,南宁市,市监测站,NA,NA,NA,26,NA,9,NA,NA,73,NA,NA,7,NA,2,NA,0.5
2026-05-13T2100,1404A,108.3828,22.8038,南宁市,大自然花园,,26,26,21,12,8,55,55,66,64,6,8,4,4,0.5,0.5
2026-05-13T2100,1406A,108.2397,22.8462,南宁市,区农职院,,32,32,27,16,13,46,46,65,62,6,8,2,2,0.6,0.6
2026-05-13T2100,1407A,108.3285,22.7356,南宁市,英华嘉园,,30,30,26,16,10,49,49,63,58,14,13,3,4,0.6,0.6
2026-05-13T2100,3401A,108.4829,22.762,南宁市,红星社区,NA,NA,38,23,13,8,57,57,65,64,NA,8,5,5,0.7,0.6
2026-05-13T2100,4132A,108.2927,23.1477,南宁市,起凤路9号,,24,24,27,12,15,54,54,86,83,10,12,4,6,0.6,0.6
2026-05-13T2100,4221A,108.2177,22.7774,南宁市,乐贤路16号,,29,29,27,10,11,46,46,63,59,11,14,5,5,0.5,0.5
2026-05-13T2100,2332A,118.1682,26.6371,南平市,南平市监测站,,23,9,22,3,14,72,72,75,75,6,13,3,4,0.4,0.5
2026-05-13T2100,2334A,118.1757,26.6276,南平市,南平七中,,21,8,19,3,14,66,66,65,65,4,12,2,2,0.4,0.5
2026-05-13T2100,1168A,120.9056,31.9669,南通市,狼山街道,,26,21,32,10,23,81,81,140,124,14,11,5,5,0.5,0.6
2026-05-13T2100,1170A,120.8635,32.0231,南通市,城中,,32,32,44,12,24,81,81,133,119,12,13,5,5,0.4,0.6
2026-05-13T2100,1171A,120.9376,31.9301,南通市,星湖花园,NA,NA,22,29,10,22,76,76,126,112,NA,8,4,4,0.4,0.4
2026-05-13T2100,1172A,120.8053,32.046,南通市,紫琅学院,NA,NA,30,36,11,26,NA,NA,118,118,15,24,6,6,0.6,0.8
2026-05-13T2100,3291A,121.0631,32.0644,南通市,通州监测站,,31,31,37,16,25,74,74,140,122,8,5,4,4,0.6,0.7
2026-05-13T2100,3432A,120.9348,31.9874,南通市,环境教育馆,,34,34,42,14,24,74,74,138,118,22,19,6,5,0.4,0.5
2026-05-13T2100,4091A,120.8692,31.9885,南通市,洪江路,,27,24,34,11,24,84,84,113,113,13,23,5,5,0.7,0.8
2026-05-13T2100,2404A,112.5338,33.0086,南阳市,瓦房庄,,33,33,48,14,35,88,88,105,99,6,9,4,5,0.2,0.3
2026-05-13T2100,2405A,112.5002,32.9734,南阳市,汉画馆,,33,33,58,17,37,83,83,101,94,8,13,4,6,0.4,0.5
2026-05-13T2100,2406A,112.5778,33.0144,南阳市,气象站,,32,32,47,21,35,79,79,105,98,5,8,5,7,0.2,0.2
2026-05-13T2100,2407A,112.548,32.9687,南阳市,理工学院,,34,34,49,20,39,88,88,108,101,9,18,5,7,0.3,0.3
2026-05-13T2100,4008A,112.5233,32.9921,南阳市,卧龙区政府,,38,38,56,25,40,88,88,107,101,8,10,6,7,0.4,0.4
2026-05-13T2100,1234A,121.8352,29.9111,宁波市,区环保大楼,,19,19,25,3,10,58,58,88,80,25,29,6,7,0.2,0.3
2026-05-13T2100,1235A,121.5595,29.8208,宁波市,万里学院,,23,23,24,8,13,73,73,111,102,9,10,5,4,0.4,0.5
2026-05-13T2100,1236A,121.713,29.9564,宁波市,龙赛医院,,34,34,35,15,16,70,70,106,96,14,23,7,7,0.3,0.4
2026-05-13T2100,1240A,121.5855,29.8635,宁波市,太古小学,,23,14,25,3,13,72,72,104,95,8,10,4,4,0.6,0.6
2026-05-13T2100,1241A,121.5239,29.8673,宁波市,市环境监测中心,NA,NA,22,27,7,14,NA,NA,108,101,NA,21,8,10,0.4,0.4
2026-05-13T2100,2871A,121.6156,29.9015,宁波市,万里国际学校,,24,17,19,8,11,74,74,116,103,12,9,5,6,0.3,0.4
2026-05-13T2100,3710A,121.5593,29.8976,宁波市,白沙活动中心,,25,19,21,6,14,77,77,117,106,10,13,6,7,0.2,0.3
2026-05-13T2100,4095A,121.8962,29.7529,宁波市,中科路88号,,28,6,7,3,3,88,88,94,94,6,7,7,7,0.3,0.3
2026-05-13T2100,2341A,119.5387,26.6611,宁德市,宁德市监测站,,14,12,32,7,27,44,44,60,55,28,27,6,8,0.5,0.8
2026-05-13T2100,3209A,119.5231,26.6562,宁德市,宁德一中,,20,11,25,8,30,61,61,73,69,8,16,6,7,0.5,0.6
2026-05-13T2100,2618A,98.859,25.8541,怒江傈僳族自治州,州监测站,,46,46,28,31,19,61,61,94,90,20,11,6,6,0.6,0.4
2026-05-13T2100,2619A,98.8607,25.8168,怒江傈僳族自治州,泸水一中,细颗粒物(PM2.5),52,42,27,36,19,42,42,76,68,32,18,5,4,0.9,0.6
2026-05-13T2100,1888A,101.6891,26.571,攀枝花市,弄弄坪,,39,39,44,10,14,72,72,113,106,27,24,4,14,0.5,1.1
2026-05-13T2100,1889A,101.577,26.5914,攀枝花市,河门口,,28,27,27,12,13,87,87,121,116,21,16,17,21,1.3,1.1
2026-05-13T2100,1891A,101.7365,26.4986,攀枝花市,仁和,,27,27,19,14,10,61,61,99,91,14,10,6,7,0.4,0.3
2026-05-13T2100,2835A,101.7222,26.567,攀枝花市,四十中小,细颗粒物(PM2.5),56,NA,33,38,16,52,52,108,97,35,21,8,11,1.2,0.8
2026-05-13T2100,1604A,122.0303,41.1489,盘锦市,开发区,,44,44,33,25,20,97,97,170,157,16,11,10,9,0.7,0.5
2026-05-13T2100,1605A,122.0486,41.0883,盘锦市,兴隆台,细颗粒物(PM2.5),60,NA,36,40,37,87,87,157,140,21,12,9,9,0.9,0.6
2026-05-13T2100,1606A,121.8297,41.1026,盘锦市,新生街道,NA,NA,NA,29,38,38,NA,NA,127,122,20,20,9,5,0.6,0.5
2026-05-13T2100,1832A,113.3257,33.7423,平顶山市,新华旅馆,细颗粒物(PM2.5),96,62,72,58,53,73,73,104,95,27,16,6,5,0.7,0.7
2026-05-13T2100,1833A,113.2917,33.737,平顶山市,规划设计院,细颗粒物(PM2.5),98,71,73,59,54,78,78,104,99,8,11,10,9,0.7,0.7
2026-05-13T2100,1834A,113.182,33.7738,平顶山市,平顶山工学院,细颗粒物(PM2.5),94,65,59,57,52,74,74,103,95,11,9,6,7,0.5,0.6
2026-05-13T2100,3594A,112.8736,33.9068,平顶山市,石龙区,NA,NA,76,56,55,45,NA,NA,100,99,33,12,8,9,0.6,0.5
2026-05-13T2100,4116A,113.284,33.7139,平顶山市,姚电大道23号,细颗粒物(PM2.5),98,80,83,59,55,78,78,104,99,24,17,7,7,0.6,0.5
2026-05-13T2100,2656A,106.6633,35.5338,平凉市,聚贤嘉苑,颗粒物(PM10),58,61,46,24,20,82,82,109,108,22,18,10,9,0.5,0.6
2026-05-13T2100,2657A,106.7021,35.5307,平凉市,博物馆,颗粒物(PM10),58,61,44,27,20,78,78,117,115,25,16,10,13,0.6,0.6
2026-05-13T2100,2348A,113.8384,27.6436,萍乡市,中医院,,16,13,20,8,19,51,51,62,58,11,11,4,5,0.5,0.6
2026-05-13T2100,2350A,113.8677,27.6438,萍乡市,市环保局,,16,12,22,10,23,49,49,59,56,13,11,11,11,0.5,0.5
2026-05-13T2100,2351A,113.8663,27.6202,萍乡市,安源区政府,NA,NA,19,27,10,24,NA,NA,64,63,16,13,8,6,1.2,0.6
2026-05-13T2100,4107A,113.8686,27.6668,萍乡市,联洪村委会,,17,16,27,3,18,52,52,63,60,10,9,5,5,0.3,0.4
2026-05-13T2100,2319A,119.0142,25.4324,莆田市,荔城区仓后路,,22,22,24,10,13,66,66,76,72,16,17,/,/,/,/
2026-05-13T2100,2320A,119.0016,25.4553,莆田市,莆田市监测站,,19,17,18,3,2,60,60,74,73,5,9,2,3,0.5,0.6
2026-05-13T2100,2321A,119.112,25.4561,莆田市,涵江区六中,,22,13,22,9,14,70,70,80,78,14,23,/,/,0.7,0.6
2026-05-13T2100,2322A,119.1014,25.3215,莆田市,秀屿区政府,,26,16,21,3,12,83,83,88,88,6,9,4,5,0.8,0.6
2026-05-13T2100,2392A,115.0312,35.7636,濮阳市,环保局,,50,50,59,31,37,98,98,119,115,10,10,4,5,0.6,0.6
2026-05-13T2100,3021A,115,35.7667,濮阳市,濮水河管理处,颗粒物(PM10),52,52,63,32,38,91,91,118,112,12,10,3,4,0.7,0.7
2026-05-13T2100,4118A,115.0552,35.7816,濮阳市,中原东路68号,NA,NA,NA,69,NA,35,NA,NA,134,133,10,8,4,5,0.4,0.5
2026-05-13T2100,4216A,115.0923632,35.76857718,濮阳市,任丘路479号,颗粒物(PM10),60,64,63,37,39,89,89,124,118,11,14,2,3,0.7,0.8
2026-05-13T2100,2601A,100.9801,22.7634,普洱市,市环保局,,43,43,30,24,13,68,68,90,88,12,5,5,4,0.7,0.7
2026-05-13T2100,2602A,100.9763,22.8237,普洱市,普洱第二中学,,45,45,26,30,11,66,66,95,92,16,5,6,6,0.8,0.7
2026-05-13T2100,3345A,131.0413,45.7795,七台河市,中波台,颗粒物(PM10),65,71,92,27,74,83,83,108,101,14,13,4,4,0.3,0.6
2026-05-13T2100,3637A,131.0136,45.7688,七台河市,人民广场,,46,46,94,17,67,75,75,111,103,24,15,17,10,0.5,0.6
2026-05-13T2100,3684A,130.8639,45.8144,七台河市,新建矿广场,NA,NA,36,81,28,66,68,68,107,97,NA,16,6,8,0.5,0.7
2026-05-13T2100,1779A,123.9307,47.3641,齐齐哈尔市,安居小区,颗粒物(PM10),55,57,63,28,38,144,144,162,161,16,11,8,8,0.8,0.7
2026-05-13T2100,1780A,123.9497,47.3389,齐齐哈尔市,中心广场,颗粒物(PM10),67,73,71,35,43,140,140,160,159,9,9,12,11,0.5,0.4
2026-05-13T2100,1781A,123.9483,47.3229,齐齐哈尔市,农牧车辆厂,颗粒物(PM10),62,66,65,34,37,149,149,174,172,14,11,8,7,0.2,0.2
2026-05-13T2100,1783A,123.9442,47.2994,齐齐哈尔市,市环境监测站,,49,49,60,26,38,150,150,166,166,11,11,5,4,0.5,0.5
2026-05-13T2100,3662A,123.6341,47.2079,齐齐哈尔市,富区青少年活动中心,颗粒物(PM10),66,72,69,38,50,148,148,68,NA,13,10,4,14,0.6,0.6
2026-05-13T2100,2591A,107.9765,26.5724,黔东南苗族侗族自治州,市环境监测站,,25,21,26,17,22,37,37,50,47,2,3,2,2,0.6,0.6
2026-05-13T2100,2881A,107.8909,26.531,黔东南苗族侗族自治州,凯里学院,,29,24,28,20,21,42,42,68,65,6,5,2,2,0.6,0.5
2026-05-13T2100,2593A,107.5223,26.2371,黔南布依族苗族自治州,小围寨,,38,27,15,26,13,43,43,72,68,8,6,7,5,0.5,0.5
2026-05-13T2100,3538A,107.5175,26.2977,黔南布依族苗族自治州,沙坝,,49,41,19,34,13,48,48,68,66,8,5,4,4,0.7,0.6
2026-05-13T2100,2589A,104.9022,25.0943,黔西南布依族苗族自治州,场坝街,,34,34,17,18,10,87,87,100,98,10,5,6,6,0.4,0.3
2026-05-13T2100,2590A,104.8812,25.0994,黔西南布依族苗族自治州,坪东大道,,30,30,19,16,10,54,54,99,93,22,10,5,4,0.7,0.4
2026-05-13T2100,2502A,108.6238,21.9667,钦州市,市环保站,,24,24,25,13,7,55,55,58,57,5,7,1,2,0.4,0.5
2026-05-13T2100,2503A,108.655,21.9481,钦州市,沙埠小学,,31,31,26,20,12,57,57,63,59,6,7,3,3,0.5,0.5
2026-05-13T2100,2504A,108.5989,21.7435,钦州市,港区一小,,37,37,33,19,13,51,51,52,51,9,6,2,2,0.5,0.5
2026-05-13T2100,3404A,108.5959,21.9634,钦州市,北职校,NA,NA,29,25,12,9,NA,NA,59,58,5,5,2,3,0.5,0.5
2026-05-13T2100,1046A,119.5247,39.9346,秦皇岛市,建设大厦,颗粒物(PM10),70,77,63,41,30,144,144,164,164,10,16,6,7,0.4,0.5
2026-05-13T2100,3132A,119.5979,39.938,秦皇岛市,文明里,颗粒物(PM10),65,70,67,40,30,135,135,161,161,19,21,9,10,0.3,0.4
2026-05-13T2100,4066A,119.7458,39.9952,秦皇岛市,南园路157号,颗粒物(PM10),72,80,59,36,30,109,109,149,145,36,26,8,9,0.4,0.4
2026-05-13T2100,4067A,119.5131,39.8858,秦皇岛市,翠岛大街1号,颗粒物(PM10),55,56,48,25,26,144,144,168,166,16,17,10,11,0.3,0.4
2026-05-13T2100,4198A,119.509013,39.825305,秦皇岛市,北戴河轮滑馆,颗粒物(PM10),53,54,49,28,25,140,140,163,163,14,18,8,8,0.3,0.4
2026-05-13T2100,1310A,120.404,36.0625,青岛市,市南区东部子站,NA,NA,NA,12,20,7,NA,NA,122,110,4,6,5,5,0.5,0.3
2026-05-13T2100,1311A,120.362344,36.10282,青岛市,四方区子站,,39,22,16,16,10,124,124,137,128,9,10,6,6,0.5,0.5
2026-05-13T2100,1312A,120.294373,36.054183,青岛市,市南区西部子站,NA,NA,NA,11,NA,5,NA,NA,121,NA,NA,13,NA,4,NA,0.4
2026-05-13T2100,1313A,120.4581,36.0858,青岛市,崂山区子站,,39,NA,6,14,6,124,124,134,122,3,5,8,8,0.3,0.3
2026-05-13T2100,1315A,120.3945,36.3083,青岛市,城阳区子站,,34,27,33,16,14,108,108,139,129,18,17,6,6,0.7,0.7
2026-05-13T2100,3642A,120.3454,36.0735,青岛市,市北区南部,,39,16,12,14,5,123,123,137,125,2,3,2,2,0.6,0.6
2026-05-13T2100,3643A,120.3897,36.18,青岛市,李沧区北部,NA,NA,NA,22,NA,9,NA,NA,126,NA,NA,14,NA,9,NA,0.6
2026-05-13T2100,4110A,120.5222,36.4089,青岛市,盟旺路653号,,39,30,27,20,13,122,122,147,135,4,8,4,4,0.5,0.6
2026-05-13T2100,4290A,120.196923,35.954556,青岛市,珠江路669号,,39,22,14,20,9,124,124,136,123,6,12,4,4,0.6,0.6
2026-05-13T2100,4291A,120.0424,35.8656,青岛市,黄岛区人民政府广场,,36,22,17,18,10,113,113,131,124,14,13,8,8,0.6,0.5
2026-05-13T2100,1703A,113.0218,23.7086,清远市,凤城街办,,21,21,47,12,31,43,43,89,70,27,25,/,/,/,/
2026-05-13T2100,3025A,113.0479,23.6343,清远市,技师学院,,28,28,47,16,32,44,44,97,83,22,30,6,6,0.4,0.4
2026-05-13T2100,3318A,112.9898,23.7403,清远市,清新太和,,27,27,46,17,31,41,41,96,82,16,18,9,9,0.5,0.6
2026-05-13T2100,3455A,113.076,23.72,清远市,清城东城,,39,39,55,21,36,21,21,95,67,46,24,/,/,/,/
2026-05-13T2100,2661A,107.6325,35.7357,庆阳市,庆阳五中,颗粒物(PM10),51,51,37,20,17,80,80,98,94,14,8,3,3,0.4,0.3
2026-05-13T2100,2662A,107.6361,35.7067,庆阳市,市环保局,颗粒物(PM10),55,56,37,28,18,85,85,111,107,14,10,2,2,0.4,0.4
2026-05-13T2100,1916A,103.7897,25.5036,曲靖市,环境监测站,NA,NA,36,18,15,7,94,94,109,108,NA,6,NA,4,NA,0.5
2026-05-13T2100,1917A,103.8013,25.5357,曲靖市,烟厂办公区,,32,32,14,10,6,100,100,106,106,9,6,6,5,0.4,0.4
2026-05-13T2100,3376A,103.7926,25.4651,曲靖市,南苑二区,,30,14,9,12,6,94,94,104,104,12,7,4,4,0.2,0.3
2026-05-13T2100,3377A,103.7442,25.5259,曲靖市,曲靖师范学院,,32,28,15,14,11,102,102,106,106,8,10,3,3,0.3,0.3
2026-05-13T2100,1264A,118.8694,28.94,衢州市,环保大楼,,50,50,67,34,48,80,80,117,114,15,25,/,/,/,/
2026-05-13T2100,1266A,118.8622,28.9809,衢州市,衢州学院,,47,47,55,30,39,59,59,111,108,28,38,8,9,0.6,0.6
2026-05-13T2100,4097A,118.9646,28.9832,衢州市,衢州三中,NA,NA,51,67,39,42,NA,NA,119,119,19,31,10,13,0.7,0.7
2026-05-13T2100,1611A,118.5818,24.9116,泉州市,涂山街,,20,8,22,7,16,62,62,68,67,13,20,3,3,0.6,0.5
2026-05-13T2100,1612A,118.597,24.8976,泉州市,津头埔,NA,NA,NA,23,NA,16,NA,NA,72,71,14,19,3,3,0.5,0.5
2026-05-13T2100,1613A,118.6669,24.9422,泉州市,万安,,20,12,23,10,15,64,64,67,65,11,16,3,4,0.4,0.4
2026-05-13T2100,4105A,118.6355,24.9148,泉州市,霞新路6号,,20,14,23,11,15,62,62,65,62,18,23,/,/,0.6,0.6
2026-05-13T2100,2626A,88.8873,29.2723,日喀则市,日喀则监测站,,33,18,13,3,4,105,105,110,109,5,5,8,8,0.4,0.4
2026-05-13T2100,3726A,88.8775,29.2425,日喀则市,林业技术推广中心,,36,24,13,3,2,115,115,113,113,2,4,9,8,0.3,0.3
2026-05-13T2100,1659A,119.4711,35.421,日照市,监测站,,33,17,36,14,22,103,103,136,127,16,27,6,8,0.5,0.5
2026-05-13T2100,1660A,119.523,35.4216,日照市,市政府广场,,32,24,30,14,19,100,100,135,125,11,19,4,5,0.7,0.7
2026-05-13T2100,1661A,119.5511,35.4113,日照市,港务局,,35,24,23,10,14,112,112,146,132,7,11,4,4,0.6,0.6
2026-05-13T2100,3507A,119.5326,35.4627,日照市,职业技术学院,,33,24,27,16,16,105,105,145,134,14,16,6,6,0.5,0.6
2026-05-13T2100,3604A,119.3267,35.1043,日照市,岚山环保分局,,37,36,42,9,20,118,118,143,140,14,18,10,9,0.6,0.7
2026-05-13T2100,1835A,111.1922,34.7752,三门峡市,市政府,,39,39,65,23,42,77,77,109,95,23,14,8,11,0.4,0.6
2026-05-13T2100,1836A,111.1588,34.794,三门峡市,开发区,,30,28,66,18,41,96,96,112,100,18,16,7,13,0.3,0.6
2026-05-13T2100,3039A,111.1911,34.7829,三门峡市,三门峡市第一小学,NA,NA,41,72,16,43,NA,NA,109,98,20,15,8,11,0.3,0.5
2026-05-13T2100,3598A,111.1031,34.719,三门峡市,富达温泉假日酒店,颗粒物(PM10),54,55,77,26,44,84,84,108,99,15,13,8,12,0.6,0.7
2026-05-13T2100,2324A,117.621,26.2626,三明市,三钢,,24,24,23,3,15,62,62,72,70,12,14,4,5,0.5,0.5
2026-05-13T2100,2325A,117.6352,26.2714,三明市,三明二中,,19,6,23,6,17,60,60,68,67,9,13,3,2,0.4,0.5
2026-05-13T2100,2326A,117.6028,26.2377,三明市,三元区政府,,20,7,24,3,17,62,62,69,68,9,13,4,5,0.8,0.8
2026-05-13T2100,1877A,109.4962,18.2682,三亚市,河西子站,NA,NA,13,17,10,9,43,43,51,46,NA,5,4,4,NA,0.3
2026-05-13T2100,3540A,109.7348,18.3443,三亚市,君悦子站,,24,24,16,7,8,46,46,53,49,4,8,3,3,0.4,0.4
2026-05-13T2100,4135A,109.1714,18.3739,三亚市,城东小学站,,24,24,21,8,11,39,39,50,46,5,7,/,/,/,/
2026-05-13T2100,2624A,91.7592,29.234,山南市,山南监测站,,39,15,14,3,6,124,124,120,120,2,4,8,8,0.2,0.2
2026-05-13T2100,2625A,91.7701,29.2436,山南市,山南人民医院,,40,18,18,3,6,125,125,120,120,1,2,7,7,0.2,0.2
2026-05-13T2100,1674A,116.6795,23.3666,汕头市,金平子站,,27,9,29,3,22,85,85,141,102,6,8,4,4,0.6,0.7
2026-05-13T2100,1675A,116.7248,23.3632,汕头市,龙湖子站,,26,12,29,6,22,81,81,126,91,4,5,6,6,/,/
2026-05-13T2100,1676A,116.7257,23.2774,汕头市,濠江子站,,22,12,30,3,20,69,69,104,89,18,12,8,8,/,/
2026-05-13T2100,1677A,116.7518,23.4712,汕头市,澄海子站,NA,NA,22,36,6,24,NA,NA,126,99,12,10,7,7,0.8,0.8
2026-05-13T2100,1678A,116.6088,23.2539,汕头市,潮阳子站,,24,18,26,7,20,76,76,125,90,3,3,6,6,0.4,0.6
2026-05-13T2100,3444A,116.4539,23.2684,汕头市,潮南峡山,,24,6,36,3,27,74,74,122,90,2,3,6,7,0.6,0.8
2026-05-13T2100,3624A,116.4069,23.2533,汕头市,潮南子站,,22,7,34,3,26,68,68,114,82,6,8,6,5,/,/
2026-05-13T2100,1693A,115.3653,22.7751,汕尾市,市环保局,,18,13,16,3,5,56,56,89,72,4,5,5,5,0.5,0.5
2026-05-13T2100,1695A,115.362,22.7926,汕尾市,新城中学,,18,NA,14,3,6,57,57,91,77,4,4,6,6,0.4,0.5
2026-05-13T2100,2645A,109.9155,33.8714,商洛市,监测站,,27,14,53,7,37,84,84,110,96,10,11,5,7,0.6,0.7
2026-05-13T2100,3045A,109.9647,33.8486,商洛市,商州区中学,,26,19,53,7,38,82,82,113,91,13,12,5,8,0.4,0.6
2026-05-13T2100,2408A,115.6701,34.4283,商丘市,环境监测站,颗粒物(PM10),68,75,61,40,35,104,104,147,143,19,5,4,4,0.5,0.5
2026-05-13T2100,2409A,115.6458,34.4047,商丘市,粮食局,颗粒物(PM10),61,65,62,37,35,121,121,140,139,17,9,10,7,0.5,0.5
2026-05-13T2100,3171A,115.6069,34.4465,商丘市,梁园区档案局,NA,NA,NA,56,NA,35,NA,NA,138,138,12,5,2,3,NA,0.4
2026-05-13T2100,4119A,115.6701,34.3767,商丘市,北海东路185号,颗粒物(PM10),62,66,59,38,36,94,94,139,134,26,7,4,4,0.6,0.5
2026-05-13T2100,4120A,115.6172,34.3704,商丘市,中山大街3号,颗粒物(PM10),68,74,66,36,36,126,126,139,139,14,10,5,5,0.5,0.5
2026-05-13T2100,1141A,121.401,31.2382,上海市,普陀,,27,27,31,11,21,71,71,123,119,22,21,6,6,0.4,0.4
2026-05-13T2100,1142A,121.4774,31.2043,上海市,十五厂,,30,30,28,14,20,62,62,112,109,26,22,6,6,0.5,0.6
2026-05-13T2100,1143A,121.4673,31.3011,上海市,虹口,,29,29,29,15,23,48,48,107,88,37,24,5,5,0.8,0.8
2026-05-13T2100,1147A,121.4253,31.226,上海市,静安监测站,,23,23,28,14,20,71,71,120,NA,26,25,8,8,0.7,0.7
2026-05-13T2100,1148A,121.7029,31.1905,上海市,浦东川沙,,29,29,21,14,14,70,70,87,83,28,25,9,9,0.6,0.6
2026-05-13T2100,1149A,121.5339,31.229,上海市,浦东新区监测站,,24,24,23,13,18,63,63,96,86,23,20,6,6,0.4,0.5
2026-05-13T2100,1150A,121.5776,31.2038,上海市,浦东张江,,28,28,24,16,17,69,69,106,102,22,21,6,6,0,0.1
2026-05-13T2100,3265A,121.4242,31.3303,上海市,宝山庙行,,40,40,41,16,22,42,42,105,87,40,29,7,7,0.2,0.2
2026-05-13T2100,3266A,121.8789,31.4662,上海市,崇明上实东滩,,28,11,15,7,11,89,89,95,95,11,9,5,4,0.2,0.2
2026-05-13T2100,3268A,121.316,31.2839,上海市,嘉定南翔,,24,24,32,12,23,71,71,126,111,23,27,5,5,0.4,0.4
2026-05-13T2100,3269A,121.3357,30.7455,上海市,金山新城,NA,NA,15,13,8,10,NA,NA,91,88,24,13,5,4,0.5,0.6
