timepoint,stationcode,longitude,latitude,area,positionname,primarypollutant,aqi,pm10,pm10_24h,pm2_5,pm2_5_24h,o3,o3_24h,o3_8h,o3_8h_24h,no2,no2_24h,so2,so2_24h,co,co_24h
2026-05-13T1400,2568A,102.2503,31.8896,阿坝藏族羌族自治州,马师校,,41,18,20,13,7,131,131,76,76,4,5,7,6,0.3,0.3
2026-05-13T1400,3994A,102.2174,31.9016,阿坝藏族羌族自治州,马尔康中学西区,,39,20,16,14,7,122,122,66,66,5,6,5,5,0.2,0.3
2026-05-13T1400,2695A,80.2899,41.1684,阿克苏地区,电视台,NA,NA,NA,74,NA,33,NA,NA,129,NA,NA,8,NA,3,NA,0.5
2026-05-13T1400,2696A,80.2592,41.1541,阿克苏地区,艺术中心,颗粒物(PM10),500,845,185,333,81,116,116,98,98,4,8,4,4,0.4,0.4
2026-05-13T1400,2205A,105.699,38.8409,阿拉善盟,蒙二幼,,42,38,69,3,22,134,134,122,122,5,7,11,11,0.4,0.4
2026-05-13T1400,2206A,105.7198,38.8508,阿拉善盟,环保局新楼,,40,40,60,10,17,128,128,118,118,4,5,9,9,0.4,0.4
2026-05-13T1400,2708A,88.1266,47.8515,阿勒泰地区,市站,,29,29,43,3,7,85,85,70,70,6,4,6,6,0.2,0.3
2026-05-13T1400,4166A,88.1198,47.7931,阿勒泰地区,阿勒泰路33号,,28,19,60,3,12,88,88,77,74,3,3,5,5,0.2,0.1
2026-05-13T1400,2630A,80.1171,32.4999,阿里地区,阿里监测站,,39,10,22,3,3,122,122,105,105,2,3,6,7,0.3,0.3
2026-05-13T1400,3192A,80.0906,32.5029,阿里地区,阿里藏医院,,39,8,18,3,3,124,124,111,111,1,1,5,5,0.3,0.2
2026-05-13T1400,2644A,109.0088,32.6974,安康市,汉滨区检察院,颗粒物(PM10),51,51,58,35,35,92,92,34,34,6,12,17,9,0.3,0.4
2026-05-13T1400,4054A,109.0324,32.6913,安康市,市邮政管理局,,50,43,58,35,40,93,93,46,46,4,10,14,8,0.4,0.5
2026-05-13T1400,2291A,117.0806,30.5181,安庆市,环科院,,49,49,75,22,64,123,123,83,83,2,34,7,9,0.5,0.7
2026-05-13T1400,2292A,117.0331,30.5118,安庆市,马山宾馆,,40,40,77,22,66,123,123,79,79,1,45,5,7,0.5,0.9
2026-05-13T1400,2294A,116.9897,30.6146,安庆市,安庆大学,,39,39,69,19,57,122,122,81,81,6,23,6,7,0.4,0.7
2026-05-13T1400,3173A,117.0598,30.5351,安庆市,市人大,,48,48,82,24,64,125,125,86,86,3,26,5,10,0.4,0.7
2026-05-13T1400,3123A,105.9408,26.2431,安顺市,凤凰山,,32,14,17,3,12,102,102,74,74,5,6,5,5,0.4,0.6
2026-05-13T1400,3124A,105.9443,26.2567,安顺市,金钟山,,29,NA,17,16,15,90,90,66,66,4,5,6,6,0.5,0.6
2026-05-13T1400,3125A,105.8983,26.248,安顺市,娄家坡,NA,NA,NA,19,NA,13,NA,NA,60,NA,NA,3,NA,5,NA,0.6
2026-05-13T1400,1819A,114.3552,36.1017,安阳市,红庙街,细颗粒物(PM2.5),96,93,73,58,46,161,161,102,102,10,12,8,6,0.6,0.7
2026-05-13T1400,1820A,114.361,36.0681,安阳市,银杏小区,颗粒物(PM10),72,80,69,40,39,157,157,101,101,11,13,6,7,0.4,0.5
2026-05-13T1400,3141A,114.3921,36.0879,安阳市,信访局,细颗粒物(PM2.5),96,86,68,58,50,166,166,111,111,2,9,3,3,0.4,0.7
2026-05-13T1400,3669A,114.4706,36.0634,安阳市,左辅环卫站,颗粒物(PM10),85,99,77,51,43,140,140,97,97,8,11,2,2,0.5,0.6
2026-05-13T1400,4117A,114.2918,36.0769,安阳市,钢三路198号,细颗粒物(PM2.5),101,94,69,61,45,158,158,95,95,8,9,5,2,0.8,0.6
2026-05-13T1400,1748A,123.0441,41.1201,鞍山市,深沟寺,,38,24,31,12,15,119,119,116,116,8,9,7,8,0.6,0.6
2026-05-13T1400,1749A,123.011,41.0931,鞍山市,太阳城,,39,34,30,18,16,123,123,126,124,7,7,8,8,0.6,0.7
2026-05-13T1400,1750A,123.0483,41.1445,鞍山市,太平,,40,40,42,15,17,115,115,113,110,11,10,8,8,0.5,0.5
2026-05-13T1400,1751A,122.964,41.0968,鞍山市,铁西三道街,,44,44,44,21,19,126,126,120,120,10,14,6,7,0.7,0.7
2026-05-13T1400,1753A,123.0219,41.0822,鞍山市,明达新区,,39,30,28,19,15,122,122,125,123,9,10,7,8,0.5,0.5
2026-05-13T1400,4201A,122.944647,41.082639,鞍山市,兴盛南路290号,颗粒物(PM10),55,56,43,22,17,130,130,126,126,13,15,9,10,0.5,0.6
2026-05-13T1400,2195A,107.4206,40.7609,巴彦淖尔市,附二中,颗粒物(PM10),58,60,232,26,75,138,138,116,116,6,11,9,12,0.5,0.5
2026-05-13T1400,2196A,107.37,40.7372,巴彦淖尔市,市环保大楼,颗粒物(PM10),62,66,220,24,73,135,135,115,115,6,11,7,9,0.3,0.4
2026-05-13T1400,1956A,86.1476,41.7529,巴音郭楞蒙古自治州,孔雀公园,,26,9,35,3,10,83,83,107,90,8,6,3,4,0.3,0.2
2026-05-13T1400,1957A,86.1971,41.7166,巴音郭楞蒙古自治州,棉纺厂,,28,16,42,3,19,87,87,97,88,9,8,/,/,/,/
2026-05-13T1400,1958A,86.236,41.7172,巴音郭楞蒙古自治州,经济开发区,,27,8,32,3,14,84,84,97,87,7,3,8,9,0.2,0.1
2026-05-13T1400,3181A,106.776805,31.852614,巴中市,市五中,,31,20,38,10,24,97,97,72,72,6,10,5,5,0.4,0.6
2026-05-13T1400,3183A,106.7419,31.8654,巴中市,圣泉水务公司,,30,14,25,10,22,94,94,61,61,5,9,6,6,0.5,0.6
2026-05-13T1400,3616A,106.7617,31.8343,巴中市,市中心医院,,36,16,33,8,23,113,113,77,77,5,11,6,6,0.4,0.5
2026-05-13T1400,2235A,122.7909,45.608,白城市,洮北区环保局,细颗粒物(PM2.5),78,84,87,49,40,174,174,127,127,9,9,6,4,0.4,0.4
2026-05-13T1400,2236A,122.8741,45.5725,白城市,市环保局,颗粒物(PM10),70,78,113,31,37,152,152,111,111,14,14,4,4,0.4,0.4
2026-05-13T1400,2231A,126.4219,41.9172,白山市,喜丰,,41,33,57,10,19,131,131,78,78,7,26,9,14,0.7,0.8
2026-05-13T1400,2232A,126.4082,41.9416,白山市,环保局,,40,28,38,9,19,127,127,78,78,9,16,12,12,0.7,0.8
2026-05-13T1400,2647A,104.1727,36.5448,白银市,第三小学,NA,NA,106,40,23,16,103,103,77,77,3,12,NA,20,0.3,0.5
2026-05-13T1400,2648A,104.1467,36.5482,白银市,动力公司,颗粒物(PM10),85,99,37,37,17,102,102,78,78,4,11,8,12,0.3,0.5
2026-05-13T1400,2512A,106.6102,23.901,百色市,市监测站,颗粒物(PM10),68,74,67,41,47,91,91,33,33,12,15,16,14,0.8,1.1
2026-05-13T1400,2513A,106.6524,23.8842,百色市,市中心血站,颗粒物(PM10),53,54,74,19,60,93,93,32,32,7,22,15,13,0.6,1.1
2026-05-13T1400,4133A,106.6273,23.8798,百色市,龙景西路,颗粒物(PM10),60,63,98,21,57,90,90,26,26,13,20,17,15,0.6,0.8
2026-05-13T1400,2270A,117.396,32.9389,蚌埠市,工人疗养院,臭氧1小时(O3_1h),84,54,64,23,36,187,187,129,129,10,19,6,7,0.5,0.5
2026-05-13T1400,2271A,117.3606,32.9428,蚌埠市,百货大楼,臭氧1小时(O3_1h),79,57,57,17,34,183,183,129,129,9,17,8,8,0.5,0.6
2026-05-13T1400,2273A,117.4183,32.8909,蚌埠市,蚌埠学院,臭氧1小时(O3_1h),90,56,57,18,37,192,192,131,131,6,13,7,7,0.6,0.6
2026-05-13T1400,2274A,117.3534,32.9672,蚌埠市,淮上区政府,臭氧1小时(O3_1h),85,53,60,19,34,188,188,131,131,10,19,6,7,0.5,0.6
2026-05-13T1400,2275A,117.3143,32.8977,蚌埠市,高新区,NA,NA,NA,58,NA,39,171,171,126,126,8,19,9,9,0.6,0.8
2026-05-13T1400,3715A,117.3091,32.9314,蚌埠市,蚌埠田家炳中学,臭氧1小时(O3_1h),78,55,59,20,36,182,182,128,128,6,12,7,7,0.5,0.5
2026-05-13T1400,1585A,109.8761,40.6533,包头市,市环境监测站,臭氧1小时(O3_1h),69,68,85,23,32,175,175,125,125,14,26,15,16,0.6,0.6
2026-05-13T1400,1587A,109.9992,40.5843,包头市,包头八中,细颗粒物(PM2.5),54,51,79,37,37,140,140,102,102,7,22,13,13,0.5,0.5
2026-05-13T1400,1589A,109.8641,40.6288,包头市,惠龙物流,颗粒物(PM10),58,61,74,23,31,157,157,117,117,10,18,16,24,0.5,0.5
2026-05-13T1400,1590A,110.0376,40.5546,包头市,东河鸿龙湾,,49,43,73,34,31,140,140,107,107,3,17,12,16,0.4,0.4
2026-05-13T1400,3283A,109.9154,40.5684,包头市,滨河大厦,颗粒物(PM10),54,55,72,23,32,143,143,112,112,7,19,8,9,0.4,0.4
2026-05-13T1400,3419A,109.9449,40.6259,包头市,包头市委党校,,50,45,65,28,31,160,160,119,119,9,18,14,17,0.5,0.8
2026-05-13T1400,3683A,109.8332,40.6577,包头市,昆区政府,NA,NA,69,82,26,32,151,151,81,NA,13,26,11,16,NA,0.9
2026-05-13T1400,1931A,107.0802,34.3129,宝鸡市,竹园沟,,26,23,22,14,13,82,82,NA,NA,2,6,8,8,0.4,0.3
2026-05-13T1400,1933A,107.1429,34.3549,宝鸡市,监测站,,34,34,26,20,19,63,63,30,30,5,8,6,6,0.2,0.2
2026-05-13T1400,1934A,107.1172,34.3759,宝鸡市,技工学校,NA,NA,NA,22,NA,16,NA,NA,93,31,NA,6,NA,4,NA,0.5
2026-05-13T1400,1936A,107.2025,34.3518,宝鸡市,文理学院,,29,29,30,19,17,65,65,33,33,10,13,6,6,0.4,0.4
2026-05-13T1400,1937A,107.2396,34.3626,宝鸡市,三迪小学,NA,NA,NA,31,18,15,67,67,36,36,10,13,6,6,NA,0.4
2026-05-13T1400,4155A,107.1721,34.3558,宝鸡市,滨河北路,,29,29,28,18,17,60,60,32,32,8,8,8,8,0.4,0.5
2026-05-13T1400,4308A,107.3898,34.3601,宝鸡市,陈仓区北开路21号,,30,30,36,20,18,58,58,37,37,7,12,24,17,0.5,0.5
2026-05-13T1400,1051A,115.4803,38.8568,保定市,游泳馆,细颗粒物(PM2.5),101,74,63,61,47,182,182,126,126,10,13,11,10,0.6,0.4
2026-05-13T1400,1052A,115.509,38.8895,保定市,华电二区,细颗粒物(PM2.5),102,71,70,62,48,186,186,162,162,7,15,9,5,0.9,0.7
2026-05-13T1400,1053A,115.4588,38.9037,保定市,接待中心,细颗粒物(PM2.5),100,85,71,60,50,178,178,113,113,6,10,1,2,0.8,0.6
2026-05-13T1400,1054A,115.4484,38.8344,保定市,地表水厂,NA,NA,NA,85,52,46,198,198,131,131,NA,13,8,4,0.9,0.6
2026-05-13T1400,3581A,115.3136,38.9511,保定市,满城区生态环境分局,臭氧1小时(O3_1h),103,61,54,29,42,206,206,148,148,9,13,7,5,0.2,0.2
2026-05-13T1400,3582A,115.4709,38.7628,保定市,清苑区第二中学,颗粒物(PM10),91,107,94,38,39,157,157,101,101,10,16,12,11,0.6,0.5
2026-05-13T1400,3583A,115.6231,39.0223,保定市,徐水物探局,细颗粒物(PM2.5),109,131,92,69,47,189,189,106,106,11,13,4,3,0.7,0.4
2026-05-13T1400,4004A,115.4199,38.8665,保定市,双鹰农机,细颗粒物(PM2.5),92,101,75,56,51,188,188,129,129,5,11,2,2,0.8,0.5
2026-05-13T1400,4034A,115.515,38.8589,保定市,植保所站,臭氧1小时(O3_1h),98,102,110,50,48,198,198,133,133,11,14,6,5,0.5,0.4
2026-05-13T1400,2594A,99.1589,25.1137,保山市,市环境监测站,,31,18,19,6,10,98,98,78,78,5,7,6,6,0.4,0.4
2026-05-13T1400,2595A,99.1616,25.1381,保山市,市环保局,,31,21,19,7,13,98,98,81,81,4,5,6,6,0.2,0.2
2026-05-13T1400,1867A,109.1435,21.4085,北海市,海滩公园,NA,NA,27,22,18,17,NA,NA,58,58,4,4,5,6,0.7,0.7
2026-05-13T1400,1868A,109.0983,21.466,北海市,新市环保局,,23,23,17,12,12,61,61,56,56,6,5,2,2,0.4,0.3
2026-05-13T1400,1869A,109.1775,21.5232,北海市,北海工业园,,31,31,22,6,10,59,59,47,47,2,4,1,5,0.4,0.6
2026-05-13T1400,3400A,109.1844,21.4396,北海市,龙潭自来水厂,,20,20,44,6,5,63,63,50,50,3,3,3,2,0.5,0.6
2026-05-13T1400,1001A,116.3611,39.8786,北京市,万寿西宫,臭氧1小时(O3_1h),122,65,77,48,43,243,243,148,148,14,21,5,5,0.6,0.6
2026-05-13T1400,1003A,116.4174,39.9289,北京市,东四,臭氧1小时(O3_1h),129,76,89,47,49,257,257,149,149,15,25,5,5,0.7,0.7
2026-05-13T1400,1004A,116.4073,39.8858,北京市,天坛,臭氧1小时(O3_1h),121,81,79,39,41,241,241,140,140,16,23,2,2,0.8,0.7
2026-05-13T1400,1005A,116.4622,39.9364,北京市,农展馆,臭氧1小时(O3_1h),123,74,79,47,44,245,245,138,138,15,27,6,5,0.7,0.7
2026-05-13T1400,1006A,116.3399,39.9293,北京市,官园,臭氧1小时(O3_1h),125,93,85,57,40,250,250,145,145,22,21,2,2,0.6,0.6
2026-05-13T1400,1007A,116.2879,39.9613,北京市,海淀万柳,臭氧1小时(O3_1h),119,97,85,55,44,237,237,123,123,21,25,6,6,0.8,0.6
2026-05-13T1400,1008A,116.6635,40.1349,北京市,顺义新城,臭氧1小时(O3_1h),111,76,80,53,41,222,222,144,144,12,19,5,4,0.7,0.7
2026-05-13T1400,1009A,116.6275,40.327,北京市,怀柔镇,臭氧1小时(O3_1h),102,72,71,38,43,204,204,143,143,8,12,4,4,0.6,0.7
2026-05-13T1400,1010A,116.2295,40.217,北京市,昌平镇,臭氧1小时(O3_1h),114,78,68,40,36,227,227,150,150,13,19,5,5,0.7,0.3
2026-05-13T1400,1011A,116.3968,39.982,北京市,奥体中心,臭氧1小时(O3_1h),115,83,83,45,42,229,229,137,137,19,29,6,5,0.7,0.6
2026-05-13T1400,3418A,116.8336,40.4095,北京市,密云新城,臭氧1小时(O3_1h),102,84,72,44,37,204,204,144,144,9,16,3,3,0.6,0.6
2026-05-13T1400,3671A,116.0879,39.9725,北京市,门头沟三家店,臭氧1小时(O3_1h),120,86,89,38,44,240,240,147,147,18,23,4,4,0.7,0.6
2026-05-13T1400,3672A,116.1507,39.8246,北京市,丰台云岗,臭氧1小时(O3_1h),129,89,93,60,45,258,258,156,156,17,23,4,3,0.7,0.6
2026-05-13T1400,3674A,115.9578,39.7602,北京市,房山燕山,臭氧1小时(O3_1h),111,91,85,51,44,222,222,141,141,14,16,5,5,0.6,0.5
2026-05-13T1400,3675A,116.4669,39.7734,北京市,大兴旧宫,颗粒物(PM10),118,165,91,52,43,227,227,125,125,14,20,3,2,0.7,0.6
2026-05-13T1400,3694A,115.9859,40.4562,北京市,延庆石河营,臭氧1小时(O3_1h),102,50,68,27,44,204,204,135,135,18,20,4,2,0.6,0.6
2026-05-13T1400,3695A,116.6151,40.3052,北京市,怀柔新城,臭氧1小时(O3_1h),100,71,70,29,40,200,200,139,139,11,14,7,6,0.8,0.8
2026-05-13T1400,3696A,116.2542,39.8764,北京市,丰台小屯,臭氧1小时(O3_1h),122,83,89,43,42,243,243,148,148,14,17,5,4,0.6,0.5
2026-05-13T1400,3697A,116.8399,40.3843,北京市,密云镇,臭氧1小时(O3_1h),104,69,73,42,40,207,207,140,140,10,21,5,4,0.6,0.6
2026-05-13T1400,4057A,115.9423,40.4431,北京市,延庆百泉,臭氧1小时(O3_1h),104,53,76,25,40,207,207,127,127,11,15,4,2,0.7,0.7
2026-05-13T1400,4058A,116.6598,39.9164,北京市,通州新华,臭氧1小时(O3_1h),95,71,87,44,49,196,196,125,125,10,17,5,5,0.9,0.8
2026-05-13T1400,4182A,116.1942,39.9158,北京市,石景山八角,臭氧1小时(O3_1h),122,66,77,42,43,244,244,148,148,17,30,12,7,0.8,0.6
2026-05-13T1400,4194A,117.078628,40.151726,北京市,平谷新城,臭氧1小时(O3_1h),93,87,77,55,45,194,194,140,140,10,12,6,5,1.0,0.9
2026-05-13T1400,1761A,123.8274146,41.31234549,本溪市,大峪,,38,28,34,14,15,120,120,114,114,6,9,6,6,0.5,0.4
2026-05-13T1400,1763A,123.7169,41.3094,本溪市,彩屯,,35,32,40,13,22,109,109,100,100,16,23,16,14,1.9,2.7
2026-05-13T1400,1764A,123.7672166,41.28649327,本溪市,东明,颗粒物(PM10),51,51,44,10,14,123,123,130,119,9,10,7,6,0.6,0.6
2026-05-13T1400,1765A,123.799345,41.266614,本溪市,新立屯,,40,28,35,9,14,126,126,138,126,4,6,8,8,0.5,0.5
2026-05-13T1400,1766A,123.829144,41.336777,本溪市,威宁,,35,35,37,12,16,111,111,110,110,10,10,7,7,0.6,0.6
2026-05-13T1400,2587A,105.287,27.3133,毕节市,八中,,50,46,48,35,28,104,104,69,69,8,7,10,9,0.6,0.6
2026-05-13T1400,2588A,105.3079,27.2987,毕节市,师专,NA,NA,64,51,46,29,74,74,57,49,NA,7,15,11,0.4,0.5
2026-05-13T1400,4263A,105.3688,27.3598,毕节市,工业大道,,31,29,44,17,29,98,98,74,74,4,7,10,13,/,/
2026-05-13T1400,1629A,117.9961,37.3604,滨州市,第二水厂,颗粒物(PM10),72,80,66,24,22,165,165,129,129,6,25,7,9,0.9,0.8
2026-05-13T1400,1630A,117.9789,37.3931,滨州市,北中新校,臭氧1小时(O3_1h),75,56,57,23,23,180,180,144,144,9,29,15,15,0.3,0.4
2026-05-13T1400,3514A,117.9379,37.3959,滨州市,中海酒店,臭氧1小时(O3_1h),75,56,48,18,21,180,180,153,153,11,24,10,11,0.4,0.4
2026-05-13T1400,3515A,117.9381509,37.35547456,滨州市,开发区一中,臭氧1小时(O3_1h),68,66,64,22,23,174,174,139,139,10,32,8,9,0.5,0.5
2026-05-13T1400,3516A,118.0914,37.6938,滨州市,金海六路,颗粒物(PM10),67,73,65,17,28,164,164,132,132,6,29,9,10,0.4,0.5
2026-05-13T1400,4028A,117.9955,37.3752,滨州市,滨州市西街道办事处,臭氧1小时(O3_1h),74,80,58,19,32,179,179,149,149,6,26,6,7,0.5,0.6
2026-05-13T1400,2311A,115.8071,33.8399,亳州市,污水处理厂,NA,NA,NA,38,19,35,157,157,90,NA,6,9,7,6,NA,0.2
2026-05-13T1400,2312A,115.7789,33.8519,亳州市,三国揽胜宫,颗粒物(PM10),51,51,60,16,30,158,158,112,112,4,9,6,7,0.3,0.3
2026-05-13T1400,3332A,115.7631,33.803,亳州市,亳州学院,,49,34,49,20,33,154,154,113,113,4,9,5,5,0.3,0.4
2026-05-13T1400,2693A,82.0482,44.8553,博尔塔拉蒙古自治州,市党校,,28,17,37,11,11,88,88,80,80,3,3,2,2,0.4,0.4
2026-05-13T1400,2694A,82.0805,44.8966,博尔塔拉蒙古自治州,市环保局,,28,26,36,3,7,87,87,78,74,6,6,2,2,0.4,0.4
2026-05-13T1400,1071A,116.8733,38.2922,沧州市,沧县城建局,颗粒物(PM10),73,82,59,43,40,142,142,113,113,8,14,4,6,0.5,0.4
2026-05-13T1400,1072A,116.8462,38.3189,沧州市,电视转播站,颗粒物(PM10),53,54,59,36,37,143,143,116,116,8,13,6,9,0.4,0.4
2026-05-13T1400,1073A,116.8588,38.3161,沧州市,市环保局,颗粒物(PM10),62,66,63,36,37,158,158,124,124,6,12,7,9,0.4,0.4
2026-05-13T1400,3324A,116.8011,38.294,沧州市,河北水利电力学院,颗粒物(PM10),67,73,56,41,38,146,146,119,119,6,13,12,13,0.4,0.4
2026-05-13T1400,2622A,97.1813,31.1289,昌都市,昌都监测站,,36,15,19,3,5,114,114,75,75,8,12,8,9,0.6,0.6
2026-05-13T1400,3719A,97.1707,31.1428,昌都市,昌都会议中心,,40,8,13,3,5,126,126,83,83,4,5,9,8,0.3,0.4
2026-05-13T1400,2692A,87.2722,44.0298,昌吉回族自治州,新区政务中心,,30,9,13,3,8,94,94,72,72,7,8,6,5,0.4,0.4
2026-05-13T1400,3613A,87.3069,44.0093,昌吉回族自治州,亚心广场,,31,12,18,3,6,98,98,78,78,3,5,5,5,0.3,0.3
2026-05-13T1400,4164A,87.2057,43.9289,昌吉回族自治州,财政所,,29,14,17,3,4,91,91,80,80,9,5,8,7,0.3,0.2
2026-05-13T1400,1120A,125.2874,43.9024,长春市,客车厂,臭氧1小时(O3_1h),62,45,43,25,20,169,169,126,126,12,14,8,7,0.5,0.5
2026-05-13T1400,1121A,125.2943,43.8508,长春市,邮电学院,臭氧1小时(O3_1h),60,38,55,24,20,168,168,132,132,8,10,8,7,0.5,0.5
2026-05-13T1400,1122A,125.3648,43.8745,长春市,劳动公园,臭氧1小时(O3_1h),64,54,36,22,17,171,171,129,129,8,10,8,7,0.5,0.5
2026-05-13T1400,1123A,125.3233,43.8781,长春市,园林处,NA,NA,NA,35,25,18,168,168,131,131,NA,10,7,9,0.5,0.4
2026-05-13T1400,1124A,125.4604,43.7904,长春市,净月潭,臭氧1小时(O3_1h),58,32,27,23,15,166,166,127,127,7,9,6,6,0.5,0.4
2026-05-13T1400,1126A,125.38,43.8422,长春市,经开区环卫处,臭氧1小时(O3_1h),63,38,35,22,18,170,170,129,129,9,12,6,6,0.5,0.5
2026-05-13T1400,1127A,125.234,43.7761,长春市,高新区管委会,臭氧1小时(O3_1h),70,39,33,20,17,176,176,127,127,6,10,8,7,0.5,0.4
2026-05-13T1400,1128A,125.1695,43.83,长春市,岱山公园,臭氧1小时(O3_1h),83,43,40,25,19,186,186,136,136,12,18,6,5,0.5,0.4
2026-05-13T1400,4281A,125.334645,43.916281,长春市,北亚泰大街1068号,臭氧1小时(O3_1h),63,45,38,25,20,170,170,128,128,11,15,7,6,0.5,0.5
2026-05-13T1400,1335A,113.082,28.2421,长沙市,经开区环保局,,20,19,32,11,22,64,64,65,62,12,15,3,4,0.5,0.6
2026-05-13T1400,1336A,112.8873,28.2202,长沙市,高开区环保局,,20,20,31,11,21,60,60,72,69,8,8,5,7,0.4,0.5
2026-05-13T1400,1337A,113.0785,28.2012,长沙市,马坡岭,,23,23,32,14,24,64,64,68,64,8,9,5,6,0.7,0.7
2026-05-13T1400,1338A,112.9448,28.1894,长沙市,湖南师范大学,,23,23,31,14,22,68,68,75,72,9,12,4,5,0.7,0.6
2026-05-13T1400,1339A,113.0177,28.1322,长沙市,雨花区环保局,,24,24,29,16,23,66,66,73,71,4,5,4,4,0.6,0.7
2026-05-13T1400,1340A,112.9795,28.2593,长沙市,伍家岭,,24,24,33,11,23,61,61,65,63,10,11,4,5,0.5,0.6
2026-05-13T1400,1341A,113.002,28.1944,长沙市,火车新站,,24,24,32,14,25,63,63,66,64,6,11,4,4,0.5,0.5
2026-05-13T1400,1342A,112.9846,28.1177,长沙市,天心区环保局,,28,28,31,15,24,68,68,75,73,11,13,5,6,0.6,0.6
2026-05-13T1400,1343A,112.8906,28.1307,长沙市,湖南中医药大学,,25,25,32,13,22,61,61,70,69,8,11,6,6,0.6,0.6
2026-05-13T1400,1727A,113.1146,36.1547,长治市,清华站,颗粒物(PM10),54,55,61,25,42,146,146,130,130,6,11,9,10,0.5,0.6
2026-05-13T1400,1730A,113.0887,36.2126,长治市,审计局,颗粒物(PM10),60,64,65,28,45,145,145,124,124,2,8,9,11,0.4,0.6
2026-05-13T1400,1731A,113.0845,36.1856,长治市,长治八中,颗粒物(PM10),68,75,80,34,45,147,147,125,125,6,12,11,14,0.4,0.6
2026-05-13T1400,2845A,113.1561,36.1912,长治市,德盛苑,颗粒物(PM10),53,54,59,33,44,148,148,133,133,7,9,9,10,0.6,0.7
2026-05-13T1400,3568A,113.0603,36.0464,长治市,向阳小学,颗粒物(PM10),85,99,101,52,46,155,155,120,120,11,14,10,10,1.3,0.9
2026-05-13T1400,3569A,112.8788,36.315,长治市,屯留一中,颗粒物(PM10),55,56,64,27,46,144,144,112,112,10,15,10,11,0.5,0.9
2026-05-13T1400,4189A,113.113092,36.199482,长治市,英华南巷50号,颗粒物(PM10),73,81,75,29,44,148,148,129,129,4,8,8,9,0.7,0.8
2026-05-13T1400,4190A,113.23666,36.33435,长治市,学府街1号,颗粒物(PM10),63,67,98,28,42,151,151,128,128,5,9,4,9,0.5,0.7
2026-05-13T1400,1854A,111.696,28.9725,常德市,市二中,,26,NA,27,3,20,83,83,78,73,1,5,8,9,0.9,0.9
2026-05-13T1400,3138A,111.7152,29.0288,常德市,武陵区永安,,27,11,27,3,17,86,86,84,76,2,3,6,6,0.6,0.6
2026-05-13T1400,3139A,111.6891,28.9881,常德市,鼎城区玉霞,,26,8,27,3,20,83,83,74,71,2,4,8,10,0.8,0.8
2026-05-13T1400,3140A,111.6651,29.0526,常德市,武陵区长庚,,25,8,30,3,22,79,79,85,75,2,4,7,8,0.7,0.8
2026-05-13T1400,1196A,119.9524,31.7586,常州市,市监测站,臭氧1小时(O3_1h),105,84,85,38,46,210,210,102,102,22,26,12,12,1.0,1.1
2026-05-13T1400,1200A,119.9351,31.703,常州市,武进监测站,臭氧1小时(O3_1h),113,84,121,36,46,226,226,114,114,16,26,3,8,0.7,1
2026-05-13T1400,3002A,119.9701,31.813,常州市,行政中心,臭氧1小时(O3_1h),103,76,56,32,42,205,205,109,109,22,27,9,9,0.5,0.5
2026-05-13T1400,3003A,120.0434,31.7726,常州市,经开区,臭氧1小时(O3_1h),104,81,91,35,43,207,207,108,108,28,29,5,5,0.9,1
2026-05-13T1400,3010A,119.8919,31.7892,常州市,钟楼,臭氧1小时(O3_1h),111,67,68,29,40,222,222,114,114,22,29,9,11,0.5,0.8
2026-05-13T1400,3429A,119.8595,31.706,常州市,武进经发区,臭氧1小时(O3_1h),107,56,79,27,33,214,214,112,112,17,30,12,11,1.0,1.2
2026-05-13T1400,3430A,119.5812,31.7256,常州市,金坛城区,NA,NA,36,50,24,35,198,198,117,117,7,17,NA,10,0.7,0.9
2026-05-13T1400,4089A,119.9551,31.863,常州市,崇义南街5-H号,臭氧1小时(O3_1h),106,79,64,35,36,212,212,113,113,12,19,9,10,0.8,0.9
2026-05-13T1400,2220A,120.4318,41.588,朝阳市,西梁,臭氧1小时(O3_1h),60,58,48,25,24,168,168,135,135,11,15,14,12,0.8,0.8
2026-05-13T1400,2221A,120.452,41.565,朝阳市,河畔小区,臭氧1小时(O3_1h),62,60,49,32,22,169,169,133,133,10,12,10,8,0.5,0.5
2026-05-13T1400,2222A,120.4176,41.5648,朝阳市,八里堡,颗粒物(PM10),74,83,61,21,24,174,174,138,138,10,16,9,7,0.8,0.8
2026-05-13T1400,3026A,116.6179,23.6608,潮州市,市政府,颗粒物(PM10),53,53,56,26,47,144,144,109,109,6,8,3,3,0.6,0.7
2026-05-13T1400,4036A,116.646,23.676,潮州市,金山,,45,39,47,24,45,144,144,101,101,6,8,3,3,0.6,0.6
2026-05-13T1400,2473A,113.0116,25.8228,郴州市,市职中,,29,27,27,20,23,62,62,45,45,6,10,7,7,0.5,0.5
2026-05-13T1400,2475A,113.0381,25.8074,郴州市,市审计局,,26,NA,25,18,23,60,60,40,40,8,12,2,4,/,/
2026-05-13T1400,2476A,113.0348,25.7757,郴州市,市环保局,,39,NA,30,27,26,62,62,49,49,14,15,4,10,0.5,0.5
2026-05-13T1400,4252A,113.0138,25.8011,郴州市,好美居路49号,,29,28,27,20,16,58,58,40,40,8,12,6,8,/,/
2026-05-13T1400,1431A,103.9727,30.7242,成都市,金泉两河,臭氧1小时(O3_1h),53,41,64,34,40,162,162,102,102,11,17,6,6,0.4,0.4
2026-05-13T1400,1432A,104.1423,30.6765,成都市,十里店,,49,43,58,32,39,155,155,105,105,5,13,5,6,0.7,0.8
2026-05-13T1400,1433A,104.0594,30.5765,成都市,三瓦窑,,50,48,56,33,39,160,160,117,117,8,14,2,4,0.4,0.5
2026-05-13T1400,1434A,104.1122,30.6306,成都市,沙河铺,,45,37,55,30,38,143,143,101,101,10,21,4,4,0.2,0.4
2026-05-13T1400,2880A,104.0219,30.6561,成都市,大石西路,细颗粒物(PM2.5),70,53,60,45,42,154,154,105,105,15,20,5,5,0.9,0.8
2026-05-13T1400,3136A,104.2724,30.559,成都市,龙泉驿区区政府,,42,34,46,27,37,134,134,112,112,5,10,6,8,0.4,0.5
2026-05-13T1400,3357A,104.0028,30.6891,成都市,金博路,细颗粒物(PM2.5),56,48,54,38,39,163,163,102,102,14,20,6,6,0.6,0.6
2026-05-13T1400,3359A,104.056,30.5228,成都市,华阳,臭氧1小时(O3_1h),58,51,52,33,37,166,166,117,117,8,13,2,3,0.4,0.5
2026-05-13T1400,3488A,104.387954,30.746684,成都市,青石路225号,,41,29,46,27,36,129,129,95,95,4,16,4,5,0.4,0.5
2026-05-13T1400,3489A,104.0788,30.4054,成都市,科学城,,46,28,45,20,31,145,145,110,110,5,11,6,6,0.5,0.5
2026-05-13T1400,4011A,103.8505,30.6946,成都市,光华大道三段,颗粒物(PM10),51,51,64,26,39,154,154,98,98,2,12,4,6,0.4,0.5
2026-05-13T1400,4144A,104.3257,30.6406,成都市,八角井街185号,,42,42,53,25,38,122,122,89,89,10,16,6,6,0.6,0.7
2026-05-13T1400,4224A,104.2433276,30.53529463,成都市,鲸龙路1057号,,43,37,54,19,34,137,137,118,118,7,14,7,8,0.4,0.4
2026-05-13T1400,1062A,117.9531,40.908,承德市,铁路,臭氧1小时(O3_1h),79,62,65,30,36,183,183,147,147,13,17,6,5,0.4,0.5
2026-05-13T1400,1063A,117.9397,40.9763,承德市,中国银行,臭氧1小时(O3_1h),79,41,54,40,35,183,183,136,136,6,13,3,3,0.5,0.5
2026-05-13T1400,4073A,117.9462,40.95,承德市,杏林街1号,臭氧1小时(O3_1h),101,71,71,38,48,202,202,156,156,8,11,4,3,0.5,0.5
2026-05-13T1400,4274A,117.7994,40.9605,承德市,滨河大街98号,臭氧1小时(O3_1h),101,NA,64,19,36,202,202,157,157,6,14,4,13,0.3,0.5
2026-05-13T1400,2314A,117.4698,30.6617,池州市,池州学院,细颗粒物(PM2.5),60,52,65,40,49,151,151,109,109,11,17,6,7,0.7,0.8
2026-05-13T1400,3237A,117.4918,30.6617,池州市,展览馆,细颗粒物(PM2.5),56,54,67,38,45,160,160,115,115,7,15,6,6,0.6,0.8
2026-05-13T1400,3333A,117.5626,30.695,池州市,第八中学,颗粒物(PM10),60,63,66,29,38,151,151,108,108,10,16,7,6,0.6,0.9
2026-05-13T1400,3334A,117.5037,30.6242,池州市,第十二中学,细颗粒物(PM2.5),64,64,62,42,44,149,149,109,109,7,22,7,7,1.3,1.6
2026-05-13T1400,1744A,118.9229,42.2816,赤峰市,松山一中,颗粒物(PM10),53,54,52,12,30,148,148,160,131,14,17,9,8,0.6,0.7
2026-05-13T1400,1745A,118.9588,42.2733,赤峰市,哈达街,颗粒物(PM10),55,57,58,10,26,137,137,149,123,16,18,14,11,0.6,0.6
2026-05-13T1400,1746A,118.8792,42.2551,赤峰市,天义路,,45,43,38,19,28,141,141,139,115,12,17,9,6,0.5,0.4
2026-05-13T1400,3058A,119.2656,42.0356,赤峰市,银河街,颗粒物(PM10),70,77,79,14,30,145,145,119,119,8,14,7,12,0.5,0.7
2026-05-13T1400,3286A,118.9359,42.3146,赤峰市,桥北物流园区,,40,40,49,12,26,124,124,123,104,9,16,4,3,0.6,0.8
2026-05-13T1400,2521A,107.3473,22.4137,崇左市,市环保局江州分局,,36,36,36,16,20,85,85,51,51,8,10,2,3,0.6,0.5
2026-05-13T1400,4256A,107.375,22.3736,崇左市,石景林东路7号,,29,29,28,20,20,90,90,58,58,5,9,3,3,0.6,0.6
2026-05-13T1400,3207A,118.31131,32.3033,滁州市,市政府原办公楼,臭氧1小时(O3_1h),87,56,46,40,41,189,189,115,115,13,22,12,9,1.0,0.8
2026-05-13T1400,3331A,118.3268,32.2633,滁州市,图书馆,臭氧1小时(O3_1h),88,70,60,20,34,190,190,116,116,9,18,14,13,1.0,0.9
2026-05-13T1400,4101A,118.3196,32.3335,滁州市,银山路666号,臭氧1小时(O3_1h),100,61,54,37,33,200,200,120,120,19,23,19,13,0.7,0.6
2026-05-13T1400,4102A,118.3426,32.2979,滁州市,黄山路555号,臭氧1小时(O3_1h),104,76,66,34,38,208,208,124,124,11,24,14,11,1.1,1
2026-05-13T1400,2606A,101.5379,25.0492,楚雄彝族自治州,市经济开发区,,29,7,11,3,10,90,90,68,68,3,6,1,1,0.4,0.5
2026-05-13T1400,4153A,101.5536,25.0343,楚雄彝族自治州,团结路562号,,30,7,10,3,7,93,93,78,78,2,3,2,2,0.3,0.2
2026-05-13T1400,2549A,107.5087,31.2186,达州市,市环境监测站,,30,28,67,10,47,96,96,59,59,19,26,5,7,0.1,0.4
2026-05-13T1400,2550A,107.4988,31.2132,达州市,凤凰小区,,35,27,68,11,50,110,110,66,66,9,24,5,7,0.3,0.6
2026-05-13T1400,2551A,107.5081,31.1987,达州市,达县机关宾馆,,33,19,70,6,50,103,103,60,60,16,34,4,6,0.3,0.5
2026-05-13T1400,2552A,107.4644,31.2124,达州市,市政中心,,38,34,67,11,43,120,120,71,71,9,22,4,6,0.3,0.4
2026-05-13T1400,2614A,100.2168,25.5818,大理白族自治州,大理市环境监测站,,30,11,13,6,8,94,94,85,85,6,7,4,4,0.3,0.4
2026-05-13T1400,2615A,100.1542,25.7055,大理白族自治州,大理古城,,32,9,16,3,10,101,101,85,85,4,7,7,6,0.5,0.5
2026-05-13T1400,1109A,121.6119,38.974,大连市,甘井子,,45,33,30,31,18,115,115,108,108,8,9,10,9,0.5,0.5
2026-05-13T1400,1110A,121.565,38.9509,大连市,周水子,,39,38,30,26,21,123,123,100,100,14,17,4,5,0.5,0.6
2026-05-13T1400,1111A,121.5637,38.8849,大连市,星海三站,,45,32,26,21,16,143,143,116,116,14,14,4,4,0.5,0.5
2026-05-13T1400,1112A,121.6301,38.9117,大连市,青泥洼桥,,42,31,27,24,20,132,132,114,114,8,9,5,4,0.5,0.5
2026-05-13T1400,1113A,121.6248,38.8643,大连市,傅家庄,,40,28,24,24,17,125,125,111,111,5,6,4,7,0.4,0.4
2026-05-13T1400,1114A,121.5117,38.8636,大连市,七贤岭,,39,26,26,26,15,124,124,96,96,14,15,6,5,0.5,0.5
2026-05-13T1400,1116A,121.7507,39.1339,大连市,金州,,40,31,35,24,23,127,127,106,106,10,17,10,10,0.3,0.4
2026-05-13T1400,1117A,121.7811,39.0495,大连市,开发区,,40,25,24,22,19,125,125,110,110,13,16,5,6,0.5,0.5
2026-05-13T1400,1118A,121.9762,39.0631,大连市,双D港,,37,23,12,21,12,117,117,107,106,3,3,5,4,0.4,0.5
2026-05-13T1400,4082A,121.2548,38.8188,大连市,旅顺,,43,28,26,20,18,137,137,109,109,9,8,7,6,0.5,0.5
2026-05-13T1400,1789A,124.8085,46.0381,大庆市,大同区,臭氧1小时(O3_1h),60,41,114,24,32,168,168,134,134,12,13,4,4,0.5,0.5
2026-05-13T1400,1790A,125.1166,46.5255,大庆市,龙凤区,,46,40,59,32,24,147,147,105,105,12,10,5,6,0.3,0.2
2026-05-13T1400,1791A,124.8894,46.4007,大庆市,红岗区,颗粒物(PM10),65,71,72,26,29,165,165,120,120,9,11,7,8,0.5,0.5
2026-05-13T1400,1792A,125.1391,46.578,大庆市,萨尔图区,臭氧1小时(O3_1h),58,46,55,28,20,166,166,123,123,12,12,8,8,0.5,0.4
2026-05-13T1400,1793A,124.9026,46.6217,大庆市,让胡路区,臭氧1小时(O3_1h),60,45,63,32,25,168,168,123,123,9,9,6,5,0.5,0.4
2026-05-13T1400,3481A,125.127,46.6277,大庆市,萨区政府监测点,颗粒物(PM10),67,73,57,43,20,169,169,123,123,6,5,9,10,0.5,0.4
2026-05-13T1400,1723A,113.2926,40.0759,大同市,云冈宾馆,臭氧1小时(O3_1h),109,97,130,38,46,218,218,129,129,15,39,12,12,0.4,0.6
2026-05-13T1400,1724A,113.3437,40.0921,大同市,大同大学,臭氧1小时(O3_1h),109,102,113,34,35,218,218,134,134,13,34,9,10,0.3,0.6
2026-05-13T1400,1725A,113.2637,40.129,大同市,安家小村,细颗粒物(PM2.5),117,NA,124,78,34,214,214,133,133,12,27,NA,30,0.3,0.9
2026-05-13T1400,3282A,113.3399,40.0586,大同市,大同市卫生学校,臭氧1小时(O3_1h),112,101,102,23,34,223,223,141,141,13,27,10,12,0.5,0.6
2026-05-13T1400,3565A,113.1371,40.1122,大同市,云冈站,臭氧1小时(O3_1h),100,94,98,53,37,200,200,115,115,12,20,11,11,0.6,0.6
2026-05-13T1400,3566A,113.1186,40.2556,大同市,图书馆,颗粒物(PM10),69,76,83,28,27,173,173,111,111,7,15,8,8,0.4,0.5
2026-05-13T1400,3567A,113.5931,40.0459,大同市,区一中,颗粒物(PM10),89,104,90,36,32,183,183,132,132,12,21,8,10,0.5,0.6
2026-05-13T1400,4199A,113.2798248,40.09972476,大同市,魏都大道141号,臭氧1小时(O3_1h),103,120,118,36,41,205,205,116,116,13,31,10,10,0.4,0.9
2026-05-13T1400,2269A,124.1068,50.4091,大兴安岭地区,科技局,,33,25,45,15,24,104,104,88,88,2,6,7,7,0.4,0.4
2026-05-13T1400,3663A,124.117,50.4279,大兴安岭地区,红旗社区,,37,27,38,14,26,117,117,95,95,6,11,5,6,0.2,0.4
2026-05-13T1400,1600A,124.33,40.0625,丹东市,江湾东路,,35,15,27,10,17,111,111,118,117,9,8,4,4,0.4,0.4
2026-05-13T1400,1601A,124.4242,40.1513,丹东市,临江后街,,35,13,29,7,18,110,110,110,110,6,7,6,6,0.3,0.5
2026-05-13T1400,1602A,124.3935,40.1461,丹东市,元宝山,,33,17,29,8,18,104,104,111,108,9,9,5,5,0.4,0.5
2026-05-13T1400,1603A,124.3634,40.1093,丹东市,民主桥,,33,21,33,10,18,105,105,112,111,10,7,5,5,0.3,0.3
2026-05-13T1400,3541A,109.5726195,19.51688767,儋州市,第一中学子站,,15,8,27,3,12,45,45,36,36,3,7,5,5,0.2,0.2
2026-05-13T1400,3542A,109.5567,19.5187,儋州市,东坡学校子站,,15,14,26,3,8,48,48,36,36,1,5,5,5,0.3,0.4
2026-05-13T1400,2616A,98.5611,24.4273,德宏傣族景颇族自治州,德宏州监测站,,28,NA,15,13,15,88,88,54,54,4,8,3,3,0.0,0.3
2026-05-13T1400,3677A,98.5887,24.4366,德宏傣族景颇族自治州,芒市人民政府综合楼,,30,30,40,16,15,88,88,57,57,8,10,4,4,0.2,0.6
2026-05-13T1400,1901A,104.424,31.1209,德阳市,东山公园,,35,24,40,18,35,110,110,80,80,4,10,3,3,0.4,0.5
2026-05-13T1400,1902A,104.3827,31.1318,德阳市,西小区,,36,36,48,19,33,111,111,81,81,6,14,4,5,0.4,0.6
2026-05-13T1400,1904A,104.3553,31.1091,德阳市,耐火材料厂,,37,32,54,18,36,118,118,84,84,8,18,2,2,0.4,0.4
2026-05-13T1400,4145A,104.4144,31.1495,德阳市,市林业局,,39,33,45,17,34,124,124,85,85,4,16,4,4,0.4,0.5
2026-05-13T1400,1622A,116.3034,37.4675,德州市,儿童乐园,颗粒物(PM10),74,83,78,23,34,163,163,130,130,6,12,9,10,0.8,0.8
2026-05-13T1400,1624A,116.2992,37.4449,德州市,监理站,颗粒物(PM10),67,73,71,20,33,160,160,131,131,4,10,14,15,0.5,0.5
2026-05-13T1400,3066A,116.2722,37.438,德州市,九衢泉纯净水厂,颗粒物(PM10),62,66,69,22,35,153,153,121,121,9,17,10,9,0.9,0.9
2026-05-13T1400,3371A,116.3693,37.44,德州市,开发区人民医院,颗粒物(PM10),60,63,68,22,34,156,156,122,122,7,13,11,13,0.9,0.8
2026-05-13T1400,3511A,116.5687,37.3331,德州市,陵城艺术中心,颗粒物(PM10),68,75,64,25,36,166,166,123,123,10,15,14,13,0.8,0.8
2026-05-13T1400,4292A,116.352738,37.420875,德州市,新河东路,颗粒物(PM10),53,53,54,22,33,151,151,130,130,10,13,10,11,0.9,0.9
2026-05-13T1400,2621A,99.7054,27.8319,迪庆藏族自治州,迪庆州站,,33,10,16,8,9,105,105,71,71,7,10,8,8,0,0.2
2026-05-13T1400,3180A,99.7122,27.8129,迪庆藏族自治州,质量技术监督局,,38,13,16,6,6,119,119,77,77,6,9,9,8,0.4,0.4
2026-05-13T1400,4257A,104.6092,35.5962,定西市,将台街,,34,31,36,3,11,106,106,104,98,3,5,4,3,0.2,0.2
2026-05-13T1400,4309A,104.6159,35.5701,定西市,正龙路62号,,33,15,29,3,8,105,105,98,94,6,7,4,3,0.2,0.2
2026-05-13T1400,4071A,114.9883,38.5232,定州市,交通局,颗粒物(PM10),103,127,110,50,45,200,200,130,130,8,15,10,8,0.8,0.6
2026-05-13T1400,4072A,115.0045,38.5136,定州市,第五中学,颗粒物(PM10),98,117,105,51,48,185,185,118,118,8,15,8,5,0.7,0.5
2026-05-13T1400,1390A,113.7943,23.0132,东莞市,东城石井,,42,12,25,6,16,133,133,87,87,9,21,5,5,0.5,0.7
2026-05-13T1400,1391A,113.7384,22.9659,东莞市,南城西平,,37,11,18,3,9,118,118,85,85,7,14,4,5,0.4,0.5
2026-05-13T1400,3319A,113.7283,23.041,东莞市,万江金泰,,40,16,20,10,17,127,127,87,87,10,18,7,7,0.4,0.5
2026-05-13T1400,4129A,113.8666,23.1062,东莞市,裕兴路,,43,16,34,3,17,137,137,84,84,9,24,7,7,0.6,0.8
2026-05-13T1400,4130A,114.0076,22.9739,东莞市,教育路1号,,43,15,39,3,20,136,136,81,81,10,29,5,5,0.6,0.8
2026-05-13T1400,4131A,113.7981,22.8124,东莞市,长怡路1号,,35,12,25,3,12,111,111,83,83,4,17,4,4,0.6,0.7
2026-05-13T1400,1666A,118.6612,37.4313,东营市,市环保局,臭氧1小时(O3_1h),103,63,50,23,25,205,205,145,145,14,26,14,16,0.4,0.6
2026-05-13T1400,3036A,118.6903,37.4337,东营市,开发区管委会,臭氧1小时(O3_1h),104,71,58,13,18,207,207,146,146,14,27,10,13,0.7,0.8
2026-05-13T1400,3365A,118.5721,37.5654,东营市,垦利区民丰路,臭氧1小时(O3_1h),103,66,50,21,18,206,206,155,155,11,21,20,21,0.6,0.7
2026-05-13T1400,3498A,118.5063,37.8606,东营市,河口城区,臭氧1小时(O3_1h),90,68,58,20,28,192,192,157,157,6,14,12,8,0.9,0.8
2026-05-13T1400,3646A,118.4979,37.4623,东营市,胜利站,臭氧1小时(O3_1h),102,37,35,35,25,203,203,140,140,12,21,10,8,0.9,0.8
2026-05-13T1400,3734A,118.5753,37.4405,东营市,理想之城,臭氧1小时(O3_1h),108,58,47,24,18,216,216,145,145,19,29,14,12,0.8,0.7
2026-05-13T1400,1591A,110.0024,39.8127,鄂尔多斯市,综合楼,颗粒物(PM10),67,73,81,24,26,132,132,114,114,8,15,6,7,0.5,0.5
2026-05-13T1400,1592A,109.9485,39.8259,鄂尔多斯市,巴音孟克林场办事处,颗粒物(PM10),60,63,70,26,27,142,142,118,118,4,9,5,6,0.1,0.2
2026-05-13T1400,1593A,109.7734,39.5987,鄂尔多斯市,康泽苑,颗粒物(PM10),62,66,70,24,26,143,143,114,114,6,9,7,8,0.2,0.3
2026-05-13T1400,1594A,109.8121,39.5987,鄂尔多斯市,华泰汽车城,颗粒物(PM10),67,73,65,18,28,132,132,84,NA,5,10,10,10,0.3,0.4
2026-05-13T1400,1595A,109.9734,39.7884,鄂尔多斯市,奥林花园,细颗粒物(PM2.5),68,48,52,44,22,131,131,106,106,6,13,4,5,0.3,0.3
2026-05-13T1400,2436A,114.894,30.3989,鄂州市,市政府,,37,37,104,19,69,105,105,75,75,7,23,10,13,0.4,0.8
2026-05-13T1400,2437A,114.8986,30.3714,鄂州市,赵家坝,,34,33,92,7,66,107,107,72,72,7,12,21,23,0.5,0.8
2026-05-13T1400,3654A,114.8093,30.4091,鄂州市,精准医疗中心,,32,32,86,18,68,101,101,70,70,16,27,9,9,1.0,1
2026-05-13T1400,2454A,109.4978,30.2979,恩施土家族苗族自治州,湖北民院,,35,21,31,3,20,109,109,64,64,2,6,8,8,0.4,0.4
2026-05-13T1400,3549A,109.5061,30.3771,恩施土家族苗族自治州,龙凤新区,,32,19,30,19,18,101,101,49,49,5,9,6,6,0.3,0.3
2026-05-13T1400,2499A,108.3411,21.6159,防城港市,沙万,,29,29,24,9,9,45,45,42,42,3,5,8,8,0.5,0.5
2026-05-13T1400,2500A,108.3515,21.7733,防城港市,防城档案局,,20,20,23,7,7,51,51,45,45,1,4,6,6,0.5,0.5
2026-05-13T1400,2501A,108.3506,21.6414,防城港市,大海花园,,29,29,20,12,8,54,54,49,49,2,5,7,7,0.4,0.5
2026-05-13T1400,1371A,113.1293,23.0065,佛山市,湾梁,,32,17,28,8,18,100,100,70,70,8,17,/,/,/,/
2026-05-13T1400,1372A,113.1082,23.0477,佛山市,华材职中,NA,NA,22,34,NA,21,93,93,67,67,4,14,4,5,0.3,0.5
2026-05-13T1400,1373A,113.1439,23.045,佛山市,南海气象局,,34,34,35,10,21,104,104,73,73,4,19,/,/,/,/
2026-05-13T1400,1374A,113.2879,22.8094,佛山市,顺德苏岗,,30,13,18,7,16,94,94,68,68,3,13,/,/,0.4,0.5
2026-05-13T1400,1376A,112.8384,22.8678,佛山市,高明孔堂,,21,15,24,7,14,67,67,59,59,4,8,/,/,/,/
2026-05-13T1400,1377A,112.8835,23.1584,佛山市,三水监测站,,24,9,35,9,29,76,76,50,50,14,31,1,3,0.5,0.6
2026-05-13T1400,1378A,112.8668,23.185,佛山市,三水云东海,,29,22,49,12,26,92,92,63,63,12,25,/,/,/,/
2026-05-13T1400,3625A,113.2568,22.7629,佛山市,容桂街道办,,27,22,23,10,16,84,84,65,65,9,18,/,/,/,/
2026-05-13T1400,1282A,119.2681,26.0506,福州市,师大,,33,25,32,23,21,66,66,65,58,18,18,4,6,0.6,0.5
2026-05-13T1400,1283A,119.2983,26.1028,福州市,五四北路,,32,NA,31,22,22,59,59,57,44,21,22,4,5,0.5,0.4
2026-05-13T1400,1284A,119.2648,26.0769,福州市,杨桥西路,,32,27,31,22,21,67,67,69,55,18,20,4,6,/,/
2026-05-13T1400,3048A,119.5799,26.0937,福州市,九龙,,22,18,20,11,16,69,69,54,54,10,11,5,5,0.3,0.2
2026-05-13T1400,3526A,119.5188,25.9666,福州市,吴航,,26,25,22,18,15,64,64,56,56,17,15,6,6,0.6,0.5
2026-05-13T1400,4104A,119.3106,26.0648,福州市,路通桥巷6号,,43,37,33,30,23,56,56,57,45,23,21,/,/,/,/
2026-05-13T1400,1755A,123.7974,41.8494,抚顺市,望花区,,45,37,41,22,18,144,144,134,134,15,18,6,7,0.6,0.6
2026-05-13T1400,1756A,123.9161,41.8827,抚顺市,顺城区,,47,29,32,17,14,148,148,133,133,11,14,11,10,0.6,0.6
2026-05-13T1400,1757A,124.0437,41.8615,抚顺市,东洲区,,49,49,65,17,17,143,143,134,134,8,10,12,13,0.6,0.6
2026-05-13T1400,1758A,123.9246,41.8638,抚顺市,新抚区,,48,34,38,19,17,152,152,133,133,8,12,8,8,0.6,0.6
2026-05-13T1400,1759A,124.0972,41.8961,抚顺市,大伙房水库,,44,32,37,23,14,139,139,131,131,6,7,9,9,0.4,0.4
2026-05-13T1400,1760A,123.708,41.8386,抚顺市,沈抚新城,,49,40,41,22,16,155,155,137,137,16,18,11,10,0.7,0.7
2026-05-13T1400,2377A,116.3544,27.9833,抚州市,市站,,25,21,40,15,29,78,78,67,67,4,12,4,6,1.0,1.1
2026-05-13T1400,2378A,116.3562,27.9631,抚州市,血防站,,25,22,42,10,29,78,78,69,69,6,14,5,6,0.4,0.5
2026-05-13T1400,2379A,116.3561,28.0007,抚州市,采茶剧团,,24,18,43,15,31,76,76,68,68,4,13,11,12,0.6,0.7
2026-05-13T1400,2380A,116.3854,27.9648,抚州市,医学分院,,26,18,45,14,28,81,81,72,72,4,11,6,8,1.0,1.1
2026-05-13T1400,2207A,121.6095,41.9978,阜新市,工业园区,臭氧1小时(O3_1h),83,78,66,17,15,186,186,140,140,13,11,14,11,0.7,0.5
2026-05-13T1400,2208A,121.6567,42.0188,阜新市,长青街,臭氧1小时(O3_1h),78,52,54,13,15,182,182,140,140,12,13,13,11,0.7,0.5
2026-05-13T1400,2209A,121.6672,42.07,阜新市,农业园区,臭氧1小时(O3_1h),78,70,60,17,16,182,182,141,141,14,12,13,9,0.6,0.5
2026-05-13T1400,2211A,121.6343,42.0455,阜新市,玉龙新城,臭氧1小时(O3_1h),82,71,58,16,15,185,185,146,146,12,12,16,10,0.7,0.5
2026-05-13T1400,2301A,115.8276,32.8929,阜阳市,市监测站,颗粒物(PM10),54,55,64,28,38,148,148,111,111,6,16,7,8,1.1,0.9
2026-05-13T1400,2303A,115.8551,32.8606,阜阳市,开发区,颗粒物(PM10),55,56,68,32,45,145,145,106,106,7,18,6,6,0.6,0.6
2026-05-13T1400,2875A,115.783962,32.889217,阜阳市,阜阳职业技术学院,,47,41,54,27,37,150,150,116,116,2,10,8,8,0.5,0.6
2026-05-13T1400,3468A,115.79,32.8614,阜阳市,市规划展馆,,50,50,56,22,38,146,146,116,116,1,8,9,9,0.8,0.8
2026-05-13T1400,3469A,115.835101,32.918568,阜阳市,枣园社区,,49,49,60,26,36,153,153,102,102,9,30,8,8,0.5,0.6
2026-05-13T1400,2669A,102.9097,34.9841,甘南藏族自治州,州政府,,46,42,56,32,35,119,119,86,86,2,21,9,8,0.2,0.4
2026-05-13T1400,3380A,102.8915,34.9618,甘南藏族自治州,甘肃民族师范学院,颗粒物(PM10),53,54,76,19,25,138,138,91,91,6,29,3,3,0.1,0.2
2026-05-13T1400,2570A,101.96,30.048,甘孜藏族自治州,水桥子,,35,16,17,3,7,110,110,68,68,6,22,7,7,0.2,0.3
2026-05-13T1400,3065A,101.9534,29.9976,甘孜藏族自治州,州环保局,,41,6,14,3,6,130,130,85,85,5,19,8,7,0.5,0.6
2026-05-13T1400,2363A,114.9368,25.8663,赣州市,地委,,35,35,34,21,18,78,78,46,46,7,6,1,2,1.1,1
2026-05-13T1400,2364A,114.946,25.8483,赣州市,气象台,,32,25,33,22,23,74,74,43,43,11,12,2,4,0.5,0.5
2026-05-13T1400,2365A,114.932,25.8332,赣州市,市图书馆,,42,34,28,29,21,80,80,53,53,10,10,4,5,0.7,0.6
2026-05-13T1400,2366A,114.8905,25.8472,赣州市,华坚鞋城,颗粒物(PM10),55,56,36,26,20,82,82,44,44,16,15,7,7,0.5,0.4
2026-05-13T1400,3109A,115.0094,25.8614,赣州市,赣县区卫计委,NA,NA,46,28,NA,18,60,60,46,46,7,10,NA,4,NA,0.6
2026-05-13T1400,2684A,106.2753,36.0057,固原市,监测站,,37,35,31,20,19,118,118,112,112,5,8,7,7,0.4,0.4
2026-05-13T1400,2685A,106.2384,36.0189,固原市,新区,,44,44,31,13,12,116,116,109,109,5,7,5,5,0.4,0.4
2026-05-13T1400,2544A,106.6307,30.4577,广安市,市委,,38,28,43,18,35,120,120,87,87,5,9,8,7,0.4,0.5
2026-05-13T1400,2545A,106.6266,30.4662,广安市,友谊中学,,36,25,45,14,32,115,115,89,89,5,8,8,8,0.4,0.7
2026-05-13T1400,2547A,106.6386,30.4551,广安市,广电花园,,35,29,45,19,39,112,112,77,77,7,11,7,7,0.4,0.5
2026-05-13T1400,2902A,106.6347,30.4868,广安市,北辰小学,,35,33,46,21,37,112,112,81,81,5,9,6,7,0.4,0.5
2026-05-13T1400,2524A,105.8211,32.4444,广元市,老城,,39,13,29,7,16,124,124,NA,NA,6,16,1,2,0.5,0.6
2026-05-13T1400,2526A,105.8629,32.429,广元市,监测站,,37,29,45,11,20,118,118,68,68,8,15,3,5,0.4,0.5
2026-05-13T1400,3617A,105.8047,32.4167,广元市,经开区,,38,20,33,13,25,120,120,68,68,8,21,3,5,0.5,0.6
2026-05-13T1400,1345A,113.2346,23.1423,广州市,广雅中学,,30,20,32,8,19,93,93,58,58,1,15,2,2,0.7,0.8
2026-05-13T1400,1346A,113.2611,23.105,广州市,市五中,,36,18,32,9,22,114,114,72,72,8,27,3,4,/,/
2026-05-13T1400,1348A,113.3477,23.0916,广州市,广东商学院,,29,14,29,8,21,91,91,61,61,15,36,4,4,0.7,0.8
2026-05-13T1400,1349A,113.4332,23.105,广州市,市八十六中,,34,15,26,8,14,108,108,66,66,11,40,5,6,/,/
2026-05-13T1400,1350A,113.3506,22.9488,广州市,番禺中学,,32,18,26,9,18,101,101,71,71,2,21,4,5,0.5,0.7
2026-05-13T1400,1351A,113.2147,23.3918,广州市,花都师范,,35,20,38,12,24,111,111,71,71,9,30,6,7,0.8,1
2026-05-13T1400,1352A,113.2599,23.1329,广州市,市监测站,,32,18,31,10,19,100,100,62,62,2,19,2,3,/,/
2026-05-13T1400,1353A,113.5618,23.3119,广州市,九龙镇镇龙,,35,16,41,7,27,110,110,61,61,11,30,6,6,0.4,0.6
2026-05-13T1400,1354A,113.2764,23.1544,广州市,麓湖,,34,18,31,9,20,108,108,67,67,6,25,6,6,0.5,0.7
2026-05-13T1400,2846A,113.3209,23.1323,广州市,体育西,,33,18,34,8,18,104,104,66,66,7,32,4,5,0.5,0.7
2026-05-13T1400,3298A,113.5718,23.5493,广州市,从化街口,,36,14,49,8,37,113,113,64,64,8,20,5,5,0.6,0.9
2026-05-13T1400,3299A,113.3463,23.369,广州市,白云竹料,,37,20,41,9,26,116,116,67,67,11,26,3,4,0.6,0.8
2026-05-13T1400,3300A,113.2981,23.2365,广州市,白云嘉禾,,35,16,43,8,23,110,110,67,67,10,40,5,7,/,/
2026-05-13T1400,3301A,113.4256,23.1716,广州市,黄埔科学城,,25,14,30,8,19,79,79,48,48,6,22,6,5,0.6,0.8
2026-05-13T1400,3302A,113.3942,23.0485,广州市,番禺大学城,,35,21,33,3,15,112,112,75,75,9,31,6,7,0.5,0.7
2026-05-13T1400,3303A,113.4923,22.8169,广州市,南沙黄阁,,35,20,29,8,13,112,112,74,74,9,19,6,6,/,/
2026-05-13T1400,3304A,113.534,22.7893,广州市,南沙街,,30,23,26,3,10,95,95,69,69,8,17,7,7,0.4,0.5
2026-05-13T1400,3443A,113.2905,23.5541,广州市,花都梯面,,30,22,43,10,27,96,96,52,52,12,23,9,9,/,/
2026-05-13T1400,3445A,113.786,23.7479,广州市,从化良口,,34,17,38,12,29,108,108,60,60,7,13,4,4,/,/
2026-05-13T1400,3446A,113.805,23.2614,广州市,增城荔城,,49,17,40,10,28,154,154,81,81,8,22,8,7,0.5,0.7
2026-05-13T1400,2506A,109.604387,23.066791,贵港市,江南子站,,22,22,23,9,12,67,67,36,36,5,13,8,8,0.6,0.6
2026-05-13T1400,2508A,109.5669,23.1065,贵港市,荷城子站,,22,22,21,8,11,68,68,36,36,8,14,5,4,0.5,0.6
2026-05-13T1400,3405A,109.5886,23.1172,贵港市,新世纪学校,,22,22,20,8,11,70,70,37,37,9,15,/,/,0.4,0.5
2026-05-13T1400,4260A,109.5933,23.095,贵港市,中山路155-3号,,48,37,27,33,13,78,78,41,41,6,13,/,/,0.3,0.4
2026-05-13T1400,1439A,106.6863,26.6035,贵阳市,马鞍山,,28,22,19,13,11,89,89,47,47,9,12,9,4,/,/
2026-05-13T1400,1441A,106.6241,26.6266,贵阳市,鉴湖路,,31,31,32,10,12,99,99,56,56,8,11,8,8,0.6,0.7
2026-05-13T1400,1442A,106.7468,26.6344,贵阳市,燕子冲,,30,29,34,16,17,95,95,42,42,8,14,27,10,0.5,0.8
2026-05-13T1400,1443A,106.6556,26.4362,贵阳市,碧云窝,,29,29,30,18,13,87,87,61,61,4,8,7,9,/,/
2026-05-13T1400,1445A,106.6963,26.6063,贵阳市,红边门,,29,29,26,15,15,91,91,49,49,9,18,7,6,/,/
2026-05-13T1400,1446A,106.7162383,26.56964667,贵阳市,新华路,,44,36,31,14,14,104,104,68,68,8,15,130,20,0.3,0.5
2026-05-13T1400,1447A,106.6742,26.542,贵阳市,太慈桥,,26,22,21,11,13,83,83,52,52,7,9,6,5,/,/
2026-05-13T1400,4230A,106.688212,26.56952,贵阳市,花果园大街66号,,28,NA,10,11,14,88,88,52,52,6,10,3,3,/,/
2026-05-13T1400,4231A,106.687268,26.516892,贵阳市,漓江路57号,,24,14,18,12,13,76,76,47,47,7,11,6,7,0.5,0.6
2026-05-13T1400,1864A,110.3091,25.2705,桂林市,龙隐路小学,,32,32,50,18,34,61,61,27,27,7,21,4,5,0.5,0.7
2026-05-13T1400,1865A,110.2849361,25.22909545,桂林市,八中,,28,28,55,6,24,60,60,31,31,9,25,3,5,0.6,0.9
2026-05-13T1400,3531A,110.296,25.1254,桂林市,旅游学院,,24,24,48,14,43,54,54,31,31,2,18,7,9,0.3,0.4
2026-05-13T1400,4222A,110.1835,25.2444,桂林市,环湖路276号,,28,24,45,19,37,52,52,24,24,4,19,5,8,0.3,0.6
2026-05-13T1400,4301A,110.2803,25.2773,桂林市,信义路13号,,34,34,48,10,35,56,56,27,27,4,21,4,6,0.7,0.9
2026-05-13T1400,2674A,100.2262,34.4854,果洛藏族自治州,玛沁县大武镇,NA,NA,26,28,6,8,124,124,98,98,1,2,NA,20,0.3,0.4
2026-05-13T1400,1130A,126.5557,45.8109,哈尔滨市,松北商大,,48,22,38,9,24,153,153,130,130,6,18,6,7,0.4,0.5
2026-05-13T1400,1132A,126.6162,45.719,哈尔滨市,南岗学府路,,47,27,45,10,17,150,150,128,128,7,18,2,7,0.5,0.4
2026-05-13T1400,1133A,126.6894,45.7733,哈尔滨市,太平宏伟公园,NA,NA,47,40,3,17,144,144,122,122,10,19,NA,8,0.3,0.3
2026-05-13T1400,1134A,126.6361,45.7672,哈尔滨市,道外承德广场,,43,36,56,6,14,135,135,115,115,21,21,2,2,1.2,0.4
2026-05-13T1400,1136A,126.644,45.7261,哈尔滨市,动力和平路,,44,16,40,3,19,140,140,119,119,8,16,6,7,0.4,0.5
2026-05-13T1400,1137A,126.5933,45.7479,哈尔滨市,道里建国路,,47,40,39,14,23,148,148,124,124,13,21,6,6,0.7,0.9
2026-05-13T1400,1138A,126.6127,45.6119,哈尔滨市,平房东轻厂,,49,14,31,3,19,156,156,137,137,12,14,4,9,0.4,0.7
2026-05-13T1400,1139A,126.5875,45.9827,哈尔滨市,呼兰师专,,44,43,45,7,20,138,138,116,116,15,17,15,13,0.2,0.3
2026-05-13T1400,1140A,126.6299,45.6799,哈尔滨市,省农科院,颗粒物(PM10),55,57,69,18,23,126,126,107,107,13,23,7,7,0.5,0.6
2026-05-13T1400,4282A,126.6769,45.7379,哈尔滨市,华山路1号,,47,22,40,8,18,150,150,129,129,8,15,6,7,0.2,0.3
2026-05-13T1400,4283A,126.9717,45.5356,哈尔滨市,解放大街52号,,48,28,37,3,7,151,151,139,139,8,14,3,4,0.4,0.5
2026-05-13T1400,2688A,93.5124,42.8176,哈密市,地区监测站,,32,26,109,11,27,100,100,92,88,3,4,3,5,0.1,0.1
2026-05-13T1400,2689A,93.5014,42.8312,哈密市,哈密师范学校,,33,26,137,9,26,104,104,95,92,4,5,1,2,0.1,0.1
2026-05-13T1400,2671A,100.9016,36.9464,海北藏族自治州,海晏县西海镇,,45,36,35,14,17,142,142,109,109,1,3,7,7,0.3,0.4
2026-05-13T1400,3867A,102.074,36.5056,海东市,平安区公安局北苑,NA,NA,NA,61,NA,29,138,138,89,89,8,11,25,12,0.5,0.5
2026-05-13T1400,4163A,102.0984,36.5119,海东市,滨河路,颗粒物(PM10),71,79,59,18,22,110,110,62,62,15,35,24,14,0.7,0.6
2026-05-13T1400,1410A,110.3189,20.0596,海口市,海南大学,,33,23,20,13,10,104,104,61,61,10,5,6,5,0.4,0.4
2026-05-13T1400,1411A,110.2827,20.0051,海口市,秀英海南医院,,27,18,18,13,11,84,84,57,57,15,11,6,6,0.3,0.3
2026-05-13T1400,1412A,110.3391,19.9979,海口市,海南师范大学,,24,17,22,7,9,76,76,51,51,3,5,4,3,0.3,0.4
2026-05-13T1400,1413A,110.3303,20.0359,海口市,龙华路环保局宿舍,,32,21,22,13,10,101,101,63,63,9,6,/,/,0.4,0.3
2026-05-13T1400,3539A,110.5111,19.9737,海口市,桂林洋子站,,20,11,22,8,9,62,62,47,47,5,6,/,/,/,/
2026-05-13T1400,4134A,110.1952,20.0451,海口市,长滨二路9号,,29,23,18,14,10,92,92,60,60,10,6,/,/,/,/
2026-05-13T1400,2673A,100.6158,36.2985,海南藏族自治州,共和县恰卜恰镇,,48,37,37,18,20,151,151,108,108,1,8,10,10,0.2,0.3
2026-05-13T1400,2676A,97.373,37.376,海西蒙古族藏族自治州,德令哈市,,45,30,30,8,9,142,142,128,128,1,2,14,16,0.4,0.3
2026-05-13T1400,1049A,114.492,36.5712,邯郸市,矿院,,47,44,64,27,44,149,149,123,123,2,5,4,3,0.4,0.5
2026-05-13T1400,1050A,114.4839,36.6136,邯郸市,丛台公园,颗粒物(PM10),63,68,62,34,43,144,144,110,110,2,5,6,7,0.4,0.5
2026-05-13T1400,3458A,114.7893,36.5592,邯郸市,香泉濮院小区,细颗粒物(PM2.5),60,58,71,40,45,125,125,93,93,8,10,3,3,0.3,0.4
2026-05-13T1400,3580A,114.1998,36.4439,邯郸市,峰峰矿区临水派出所,颗粒物(PM10),68,74,67,42,44,170,170,138,138,2,3,3,3,0.7,0.6
2026-05-13T1400,4068A,114.5209,36.7697,邯郸市,建安街268号,颗粒物(PM10),56,58,65,29,35,152,152,126,126,7,12,2,2,0.3,0.4
2026-05-13T1400,4069A,114.5488,36.6177,邯郸市,丛台东路558号,颗粒物(PM10),55,56,71,28,42,141,141,119,119,2,9,3,4,0.3,0.6
2026-05-13T1400,2635A,107.0155,33.0707,汉中市,市监测站,细颗粒物(PM2.5),56,51,42,38,35,78,78,45,45,13,13,5,5,0.8,0.7
2026-05-13T1400,2636A,107.0083,33.114,汉中市,鑫源开发区,颗粒物(PM10),54,55,46,34,40,88,88,47,47,12,18,11,10,1.3,0.8
2026-05-13T1400,2637A,107.0072,33.0323,汉中市,南郑大河坎水厂,,38,38,45,24,33,87,87,43,43,8,14,5,5,0.6,0.6
2026-05-13T1400,1223A,120.2073,30.2111,杭州市,滨江,NA,NA,NA,69,17,39,184,184,110,110,14,27,10,9,0.6,0.8
2026-05-13T1400,1224A,120.0625,30.2737,杭州市,西溪,臭氧1小时(O3_1h),68,33,59,13,40,174,174,110,110,9,22,6,5,1.0,1.1
2026-05-13T1400,1226A,120.3417,30.315,杭州市,下沙,臭氧1小时(O3_1h),73,39,77,18,38,178,178,89,89,10,33,7,7,0.7,0.7
2026-05-13T1400,1227A,120.1252,30.2465,杭州市,卧龙桥,臭氧1小时(O3_1h),73,34,49,20,34,178,178,120,120,10,25,9,8,0.4,0.3
2026-05-13T1400,1228A,120.1902,30.2691,杭州市,浙江农大,臭氧1小时(O3_1h),64,26,61,16,39,171,171,106,106,6,31,7,7,0.3,0.4
2026-05-13T1400,1230A,120.1195,30.3121,杭州市,和睦小学,臭氧1小时(O3_1h),87,34,54,18,39,189,189,120,120,8,22,9,9,0.5,0.5
2026-05-13T1400,1231A,120.3076,30.4146,杭州市,临平镇,臭氧1小时(O3_1h),114,46,63,25,39,228,228,112,112,15,27,9,8,0.6,0.6
2026-05-13T1400,1232A,120.2753,30.1839,杭州市,城厢镇,臭氧1小时(O3_1h),97,53,67,30,40,197,197,104,104,11,26,9,8,0.7,0.7
2026-05-13T1400,1233A,120.0883,30.1808,杭州市,云栖,臭氧1小时(O3_1h),74,54,54,29,38,179,179,10,NA,18,35,9,7,0.7,0.7
2026-05-13T1400,3557A,119.9463,30.0496,杭州市,镇二中,,43,37,42,27,29,137,137,72,72,19,38,7,6,0.8,0.7
2026-05-13T1400,3558A,119.7184,30.2367,杭州市,市府大楼,,42,27,45,16,35,132,132,98,98,9,18,9,8,0.4,0.5
2026-05-13T1400,3656A,120.1554,30.2863,杭州市,消防大队,臭氧1小时(O3_1h),57,40,75,16,39,165,165,109,109,5,20,7,7,0.5,0.6
2026-05-13T1400,1270A,117.1957,31.7845,合肥市,明珠广场,细颗粒物(PM2.5),70,68,76,45,56,175,175,113,113,8,24,9,8,0.8,0.8
2026-05-13T1400,1271A,117.307,31.8765,合肥市,三里街,颗粒物(PM10),56,58,69,31,48,149,149,106,106,12,26,8,8,0.7,0.7
2026-05-13T1400,1272A,117.2587,31.8703,合肥市,琥珀山庄,"颗粒物(PM10),臭氧1小时(O3_1h)",55,56,69,33,46,164,164,118,118,6,18,8,8,0.7,0.8
2026-05-13T1400,1275A,117.2593,31.9376,合肥市,庐阳区,颗粒物(PM10),55,56,70,33,45,158,158,114,114,9,26,10,9,0.8,0.8
2026-05-13T1400,1276A,117.345251,31.861615,合肥市,瑶海区,颗粒物(PM10),63,68,71,37,47,169,169,118,118,9,25,9,8,0.7,0.7
2026-05-13T1400,1277A,117.3033,31.7967,合肥市,包河区,细颗粒物(PM2.5),72,70,72,46,44,175,175,121,121,10,35,11,10,0.8,0.8
2026-05-13T1400,1278A,117.278,31.7392,合肥市,滨湖新区,NA,NA,NA,67,NA,45,NA,NA,185,NA,NA,10,NA,8,NA,0.7
2026-05-13T1400,1279A,117.1324,31.8395,合肥市,高新区,细颗粒物(PM2.5),60,61,71,40,47,166,166,111,111,6,20,8,7,0.5,0.6
2026-05-13T1400,3464A,117.3802,31.9148,合肥市,高教基地,颗粒物(PM10),56,58,70,31,45,161,161,105,105,9,22,11,10,0.8,0.7
2026-05-13T1400,4098A,117.2518,31.8404,合肥市,中国科学技术大学,臭氧1小时(O3_1h),78,66,76,35,47,182,182,122,122,4,20,9,9,0.8,0.8
2026-05-13T1400,3614A,79.9241,37.0878,和田地区,地区环保局,颗粒物(PM10),147,241,182,46,44,119,119,104,104,3,6,3,3,0.4,0.4
2026-05-13T1400,3615A,79.9132,37.1137,和田地区,市环保局,颗粒物(PM10),130,197,184,43,46,131,131,110,110,3,8,1,3,NA,0.5
2026-05-13T1400,2517A,108.0496,24.6957,河池市,市环保站,,38,38,51,22,32,66,66,23,23,5,15,6,6,0.7,0.9
2026-05-13T1400,4302A,108.0901,24.6945,河池市,上任中路54号,,36,36,57,16,29,68,68,22,22,6,21,7,7,0.8,1
2026-05-13T1400,1697A,114.6962,23.7538,河源市,东埔,,40,14,46,12,33,127,127,90,90,9,15,3,4,0.5,0.7
2026-05-13T1400,1698A,114.6895,23.7232,河源市,老城,NA,NA,41,51,16,32,131,131,88,88,8,16,1,6,NA,0.6
2026-05-13T1400,3374A,115.5562,35.089,菏泽市,定陶老年大学,,43,34,38,27,34,135,135,114,114,8,12,6,6,0.4,0.5
2026-05-13T1400,4114A,115.4239,35.2593,菏泽市,黄河路600号,,49,49,52,27,39,126,126,107,107,4,9,2,2,0.4,0.4
2026-05-13T1400,4115A,115.5025,35.2727,菏泽市,菏泽市人社局,,45,45,57,22,35,112,112,100,100,8,13,7,7,0.5,0.6
2026-05-13T1400,4184A,115.479691,35.244011,菏泽市,永昌路1号,,40,31,33,22,35,128,128,119,119,4,9,7,7,0.6,0.6
2026-05-13T1400,4193A,115.471542,35.280012,菏泽市,长城路999号,,40,40,48,23,35,119,119,104,104,4,9,4,4,0.4,0.5
2026-05-13T1400,2514A,111.5264,24.4178,贺州市,环保小区,,44,44,55,26,42,63,63,26,26,13,31,8,9,0.5,0.6
2026-05-13T1400,2515A,111.561,24.4074,贺州市,政协大楼,,35,31,41,24,43,76,76,46,46,14,21,12,14,0.6,0.8
2026-05-13T1400,3534A,111.4744,24.455,贺州市,西湾,,46,46,74,26,41,61,61,28,28,15,21,10,11,0.7,0.8
2026-05-13T1400,2385A,114.17,35.9019,鹤壁市,市监测站,细颗粒物(PM2.5),122,96,71,84,64,152,152,105,105,11,13,6,6,0.8,0.7
2026-05-13T1400,2386A,114.2953,35.7512,鹤壁市,市交警支队,细颗粒物(PM2.5),114,112,85,75,54,142,142,87,87,13,16,11,7,0.8,0.8
2026-05-13T1400,2387A,114.2877,35.7302,鹤壁市,迎宾馆,细颗粒物(PM2.5),117,125,91,78,57,158,158,96,96,8,12,12,7,0.9,0.7
2026-05-13T1400,3474A,114.2616,35.6824,鹤壁市,大新区,细颗粒物(PM2.5),107,111,85,67,58,155,155,97,97,12,17,4,4,0.9,0.8
2026-05-13T1400,3596A,114.1573,35.9607,鹤壁市,南山宾馆,细颗粒物(PM2.5),123,103,87,85,68,151,151,97,97,10,10,10,9,1.0,0.9
2026-05-13T1400,2244A,130.2537,47.3416,鹤岗市,哈啤分公司,,31,31,156,11,162,90,90,89,76,9,20,8,12,0.2,0.7
2026-05-13T1400,2245A,130.2683,47.3087,鹤岗市,斯达机电,,30,25,181,9,174,95,95,91,82,9,21,7,11,0.2,0.7
2026-05-13T1400,2246A,130.3114,47.3388,鹤岗市,东山纸板厂,,34,34,215,21,188,90,90,87,81,9,23,7,14,0.2,0.7
2026-05-13T1400,2263A,127.4832,50.2524,黑河市,交通局,细颗粒物(PM2.5),96,69,79,58,62,128,128,112,112,13,18,8,8,0.4,0.6
2026-05-13T1400,2264A,127.5146,50.2339,黑河市,环保局,细颗粒物(PM2.5),98,60,74,59,61,126,126,113,113,11,18,7,8,0.4,0.5
2026-05-13T1400,1074A,115.6839,37.754,衡水市,电机北厂,颗粒物(PM10),71,79,78,19,38,164,164,133,133,7,10,4,5,0.5,0.5
2026-05-13T1400,1075A,115.6303,37.7318,衡水市,市监测站,颗粒物(PM10),72,80,76,23,32,162,162,129,129,7,11,9,8,0.2,0.7
2026-05-13T1400,3188A,115.6684,37.7216,衡水市,市城管局,颗粒物(PM10),72,80,71,23,36,165,165,131,131,6,10,5,5,0.4,0.4
2026-05-13T1400,3459A,115.599,37.5491,衡水市,地表水厂,颗粒物(PM10),70,78,75,18,24,156,156,126,126,2,8,6,6,0.3,0.4
2026-05-13T1400,2457A,112.6209,26.9268,衡阳市,衡阳化工总厂,,42,42,26,18,18,54,54,46,46,4,7,6,7,0.7,0.7
2026-05-13T1400,2458A,112.621,26.8957,衡阳市,珠晖区环保局,,31,31,28,20,18,55,55,40,40,9,15,6,7,0.6,0.5
2026-05-13T1400,2459A,112.628,26.8654,衡阳市,市委党校,,33,33,24,20,19,54,54,44,42,2,5,8,8,0.8,0.7
2026-05-13T1400,2460A,112.6007,26.8977,衡阳市,市监测站,,33,33,25,22,18,50,50,43,41,10,12,7,7,0.8,0.7
2026-05-13T1400,2461A,112.5658,26.9013,衡阳市,真空机电公司,,38,33,25,26,23,51,51,46,44,12,12,7,7,1.1,0.8
2026-05-13T1400,3399A,112.6703,26.8817,衡阳市,师范学院,,20,20,28,9,20,57,57,44,44,1,4,6,7,0.6,0.6
2026-05-13T1400,3038A,103.3757,23.3679,红河哈尼族彝族自治州,州图书馆,,31,9,11,6,8,99,99,82,82,3,5,3,3,0.2,0.2
2026-05-13T1400,4154A,103.401,23.3561,红河哈尼族彝族自治州,蒙自市朝阳路,,31,11,12,3,8,97,97,84,84,2,2,7,7,0.4,0.3
2026-05-13T1400,1090A,111.6506,40.7517,呼和浩特市,呼市一监,颗粒物(PM10),80,92,98,39,33,156,156,96,96,11,22,14,14,0.3,0.4
2026-05-13T1400,1094A,111.7516,40.8369,呼和浩特市,如意水处理厂,颗粒物(PM10),87,101,100,32,42,174,174,112,112,8,37,13,11,0.4,0.5
2026-05-13T1400,1095A,111.727798,40.806187,呼和浩特市,二十九中,颗粒物(PM10),93,109,101,33,36,147,147,92,92,10,26,13,13,0.4,0.5
2026-05-13T1400,1097A,111.717,40.7617,呼和浩特市,化肥厂生活区,颗粒物(PM10),86,100,105,41,53,160,160,109,109,9,29,11,12,0.4,0.5
2026-05-13T1400,3699A,111.6519,40.8389,呼和浩特市,海东办,细颗粒物(PM2.5),115,124,97,76,46,163,163,94,94,14,30,14,10,0.3,0.4
2026-05-13T1400,4275A,111.591512,40.827312,呼和浩特市,成吉思汗西街8号,颗粒物(PM10),96,114,104,34,38,156,156,89,89,21,38,16,10,0.3,0.4
2026-05-13T1400,4276A,111.6597,40.8077,呼和浩特市,公园东路75号,颗粒物(PM10),100,119,102,33,36,156,156,102,102,13,24,12,12,0.5,0.6
2026-05-13T1400,4277A,111.5427,40.7846,呼和浩特市,金海路35号,颗粒物(PM10),104,128,109,52,51,145,145,91,91,16,27,NA,11,NA,0.5
2026-05-13T1400,3061A,119.7511,49.1576,呼伦贝尔市,国华电力东,,37,26,39,11,19,118,118,101,101,5,8,4,5,0.4,0.4
2026-05-13T1400,4279A,119.7569,49.2222,呼伦贝尔市,伊敏大街东7号,,37,24,41,12,20,116,116,96,96,6,10,6,8,0.5,0.5
2026-05-13T1400,1250A,120.075,30.867,湖州市,城西水厂,臭氧1小时(O3_1h),120,60,51,49,38,239,239,123,123,17,20,9,8,0.6,0.6
2026-05-13T1400,2873A,120.083,30.8929,湖州市,仁皇山新区,臭氧1小时(O3_1h),115,70,54,46,41,230,230,113,113,22,24,10,8,0.6,0.6
2026-05-13T1400,2907A,120.1846,30.8592,湖州市,吴兴区站,臭氧1小时(O3_1h),116,66,48,NA,38,232,232,115,115,16,18,8,7,0.5,0.5
2026-05-13T1400,3562A,120.4146,30.8538,湖州市,南浔区站,臭氧1小时(O3_1h),102,42,42,30,35,204,204,110,110,12,15,9,8,0.7,0.7
2026-05-13T1400,1607A,120.904878,40.721091,葫芦岛市,龙港区,,50,50,29,29,18,139,139,121,119,15,10,10,9,0.5,0.4
2026-05-13T1400,1608A,120.8382,40.7521,葫芦岛市,化工街,,46,46,35,26,21,133,133,111,111,16,14,10,13,0.4,0.5
2026-05-13T1400,1609A,120.8339,40.7078,葫芦岛市,新区,颗粒物(PM10),52,52,34,25,20,128,128,117,111,15,11,10,9,0.6,0.5
2026-05-13T1400,1610A,120.8697,40.7679,葫芦岛市,东城区,,46,46,34,30,22,142,142,118,117,15,14,10,9,0.6,0.5
2026-05-13T1400,2483A,109.9297,27.5383,怀化市,河西地税局,,21,13,20,6,19,66,66,63,55,5,8,6,6,/,/
2026-05-13T1400,2484A,109.9783,27.5342,怀化市,市四医院,,18,15,24,12,19,54,54,51,46,6,6,5,5,0.4,0.4
2026-05-13T1400,2485A,109.9971,27.5579,怀化市,监测楼,,19,19,20,10,14,49,49,49,44,3,4,5,4,0.3,0.3
2026-05-13T1400,1210A,119.0566,33.5991,淮安市,钵池山,臭氧1小时(O3_1h),60,36,39,20,28,168,168,130,130,9,15,10,11,0.4,0.5
2026-05-13T1400,1211A,119.0083,33.578,淮安市,北京南路,臭氧1小时(O3_1h),62,51,45,23,29,169,169,132,132,8,15,7,9,0.4,0.4
2026-05-13T1400,1212A,118.9938,33.6083,淮安市,市监测站,臭氧1小时(O3_1h),74,39,36,28,28,179,179,145,145,9,14,7,8,0.6,0.5
2026-05-13T1400,1213A,119.135,33.5038,淮安市,楚州区监测站,臭氧1小时(O3_1h),53,39,42,17,32,162,162,117,117,7,17,7,7,0.4,0.5
2026-05-13T1400,3426A,118.8757,33.2897,淮安市,新华书店,臭氧1小时(O3_1h),72,52,46,28,25,177,177,125,125,4,11,9,9,1.1,1
2026-05-13T1400,4092A,119.119691,33.550006,淮安市,枚皋中路89号,臭氧1小时(O3_1h),60,41,42,17,30,168,168,125,125,3,9,7,8,0.7,0.7
2026-05-13T1400,4206A,119.028838,33.631911,淮安市,承德北路606号,臭氧1小时(O3_1h),58,46,49,22,29,166,166,129,129,8,15,7,8,0.4,0.5
2026-05-13T1400,2282A,116.8005,33.9749,淮北市,监测站,臭氧1小时(O3_1h),82,59,57,24,39,185,185,136,136,4,9,8,9,0.3,0.4
2026-05-13T1400,2283A,116.8094,33.9008,淮北市,烈山区政府,臭氧1小时(O3_1h),75,72,68,26,34,180,180,128,128,10,11,12,10,0.3,0.3
2026-05-13T1400,4017A,116.7926,33.9534,淮北市,市博物馆,臭氧1小时(O3_1h),84,58,58,34,34,187,187,135,135,8,11,8,8,0.7,0.7
2026-05-13T1400,4100A,116.8322,33.9884,淮北市,杜集区第一实验学校,NA,NA,64,64,19,32,180,180,135,135,8,8,NA,7,0.7,0.7
2026-05-13T1400,2277A,116.8304,32.7726,淮南市,潘集区政府,,49,43,65,18,44,155,155,111,111,7,17,8,9,0.6,0.7
2026-05-13T1400,2279A,116.8569,32.5949,淮南市,谢家集区政府,臭氧1小时(O3_1h),70,61,61,34,41,176,176,118,118,17,21,10,10,0.5,0.5
2026-05-13T1400,2280A,116.8279,32.6333,淮南市,八公山区政府,臭氧1小时(O3_1h),69,69,69,34,45,175,175,116,116,6,10,7,8,0.5,0.5
2026-05-13T1400,2894A,117.0561,32.6536,淮南市,经济技术开发区消防队,,45,44,52,20,41,144,144,99,99,8,16,8,9,0.5,0.6
2026-05-13T1400,3329A,117.011,32.5891,淮南市,山南新区,,46,45,64,21,39,146,146,101,101,6,14,10,10,0.4,0.5
2026-05-13T1400,4209A,117.003137,32.644456,淮南市,国庆中路369号,,46,46,68,17,41,144,144,103,103,2,10,9,10,0.2,0.3
2026-05-13T1400,2446A,114.9021,30.474,黄冈市,职工中心,,31,22,84,14,75,99,99,77,77,5,14,4,8,0.7,1
2026-05-13T1400,2929A,114.8858,30.4519,黄冈市,红卫路,,33,20,79,13,73,104,104,84,84,4,16,6,10,0.3,0.7
2026-05-13T1400,3398A,114.9134,30.4446,黄冈市,市林业局,,32,28,95,16,85,102,102,82,82,3,18,4,11,0.4,0.9
2026-05-13T1400,2672A,102.02,35.5101,黄南藏族自治州,同仁县隆务镇,,44,27,38,9,19,140,140,112,112,1,2,8,8,0.1,0.3
2026-05-13T1400,2295A,118.2905,29.6965,黄山市,延安路89号,,45,36,30,31,25,112,112,71,71,4,10,7,6,0.4,0.3
2026-05-13T1400,2297A,118.1369,30.2755,黄山市,黄山区政府5号楼,,34,25,35,12,31,107,107,64,64,2,6,4,3,0.3,0.4
2026-05-13T1400,4210A,118.335445,29.720283,黄山市,滨江东路7-2号,,40,40,41,22,26,122,122,66,66,4,10,/,/,/,/
2026-05-13T1400,2423A,115.0547,30.2332,黄石市,沈家营,,37,37,98,13,67,89,89,70,70,5,25,4,5,0.2,0.6
2026-05-13T1400,2426A,114.899,30.211,黄石市,铁山,,28,19,68,8,51,89,89,78,78,3,17,7,11,0.7,1.1
2026-05-13T1400,2427A,115.0259,30.2108,黄石市,团城山,,33,29,78,14,61,103,103,85,85,2,16,4,6,0.5,0.8
2026-05-13T1400,3149A,115.0174,30.1591,黄石市,笔架山北路,,30,27,105,8,64,96,96,75,75,2,13,4,6,0.2,0.5
2026-05-13T1400,4185A,115.078022,30.21118,黄石市,磁湖东路29号,,35,32,96,14,67,110,110,93,93,5,25,3,7,0.1,0.5
2026-05-13T1400,1392A,114.4181,23.0528,惠州市,河南岸金山湖子站,,37,10,40,7,26,117,117,79,79,11,18,6,6,0.5,0.7
2026-05-13T1400,1393A,114.4055,23.0824,惠州市,下埔横江三路子站,,38,10,52,3,30,121,121,82,82,6,17,5,6,0.6,0.8
2026-05-13T1400,1395A,114.4645,22.7832,惠州市,惠阳区承修路船湖子站,,35,8,30,3,19,112,112,71,71,8,19,6,6,0.4,0.6
2026-05-13T1400,1396A,114.5316,22.7423,惠州市,大亚湾管委会子站,,33,11,30,3,16,104,104,72,72,11,19,5,5,0.5,0.6
2026-05-13T1400,3314A,114.4334,22.8134,惠州市,惠阳秋长,,39,19,53,3,27,124,124,72,72,10,29,/,/,/,/
2026-05-13T1400,3452A,114.6521,22.7755,惠州市,大亚湾霞涌,,26,26,18,6,12,81,81,67,67,8,10,/,/,/,/
2026-05-13T1400,4300A,114.4089,23.1147,惠州市,文华一路1号,,41,9,43,3,27,129,129,88,88,6,19,/,/,/,/
2026-05-13T1400,2240A,130.9618,45.2926,鸡西市,环保局,颗粒物(PM10),58,61,63,29,28,141,141,118,118,12,23,11,11,0.4,0.5
2026-05-13T1400,2243A,130.9294,45.2959,鸡西市,第一中学,,44,44,47,28,29,131,131,113,113,9,13,9,8,0.1,0.2
2026-05-13T1400,3707A,131.0069,45.2988,鸡西市,欧美日汽修厂,,45,NA,33,31,31,128,128,105,105,11,21,8,8,0.2,0.3
2026-05-13T1400,2367A,114.9753,27.0803,吉安市,红声器材厂,颗粒物(PM10),53,53,38,17,19,49,49,60,49,12,9,6,6,0.5,0.4
2026-05-13T1400,2369A,114.9903,27.1313,吉安市,市环境监测站,,30,28,33,21,20,58,58,62,53,7,8,9,12,/,/
2026-05-13T1400,2370A,115.009527,27.096792,吉安市,青原区法院,,27,27,36,15,18,53,53,50,44,9,12,7,6,0.3,0.4
2026-05-13T1400,1772A,126.54,43.8622,吉林市,哈达湾,颗粒物(PM10),52,52,42,16,17,131,131,NA,NA,4,11,6,6,0.7,0.6
2026-05-13T1400,1773A,126.5843,43.8358,吉林市,东局子,,42,26,34,16,19,133,133,115,115,4,11,5,5,0.8,0.8
2026-05-13T1400,1774A,126.5051,43.8243,吉林市,电力学院,,45,20,33,14,18,144,144,134,134,7,14,5,5,0.7,0.7
2026-05-13T1400,1775A,126.6133,43.8971,吉林市,江北,,43,26,34,14,17,135,135,117,117,6,13,10,11,0.7,0.7
2026-05-13T1400,1776A,126.5549,43.8304,吉林市,江南公园,,40,28,34,16,18,127,127,109,109,6,12,7,7,0.4,0.4
2026-05-13T1400,2868A,126.4737,43.953,吉林市,九站,,50,33,35,20,20,157,157,134,134,4,11,8,8,0.4,0.4
2026-05-13T1400,1299A,116.9866,36.6118,济南市,科干所,臭氧1小时(O3_1h),58,48,40,17,27,166,166,153,153,9,11,7,7,0.3,0.8
2026-05-13T1400,1300A,116.9379,36.6652,济南市,农科所,臭氧1小时(O3_1h),53,51,53,17,28,162,162,145,145,10,13,4,4,0.3,0.3
2026-05-13T1400,1301A,117.1265,36.6736,济南市,开发区,,48,46,53,19,25,152,152,135,135,7,9,6,7,0.5,0.5
2026-05-13T1400,1303A,117.0616,36.6865,济南市,省种子仓库,臭氧1小时(O3_1h),59,46,59,18,28,167,167,148,148,14,14,6,6,0.3,0.4
2026-05-13T1400,1304A,116.9495185,36.644937,济南市,机床二厂,颗粒物(PM10),65,71,59,17,29,165,165,144,144,11,13,7,7,0.5,0.5
2026-05-13T1400,1305A,117.0496,36.6629,济南市,市监测站,NA,NA,59,54,22,25,161,161,142,142,NA,11,6,5,NA,0.4
2026-05-13T1400,1306A,116.7674,36.5458,济南市,长清党校,颗粒物(PM10),57,59,49,7,31,153,153,134,134,4,9,4,6,0.7,0.8
2026-05-13T1400,1961A,117.5323,36.6865,济南市,东山小学,NA,NA,63,55,22,27,179,179,155,155,NA,12,6,7,0.4,0.4
2026-05-13T1400,3059A,117.7181,36.205,济南市,泰兴公司,臭氧1小时(O3_1h),74,48,49,19,19,179,179,135,135,10,30,15,15,0.6,0.6
2026-05-13T1400,3064A,117.6861,36.2172,济南市,莱芜战役纪念馆,臭氧1小时(O3_1h),80,51,52,18,19,184,184,145,145,9,22,16,13,0.4,0.5
2026-05-13T1400,3494A,117.1673,36.9782,济南市,济阳区政府,颗粒物(PM10),60,63,64,18,27,166,166,137,137,20,23,7,7,0.6,0.6
2026-05-13T1400,3495A,117.1168,36.6299,济南市,锦屏中学,,49,49,47,20,27,147,147,122,122,6,8,7,7,0.3,0.3
2026-05-13T1400,4108A,117.7107,36.2385,济南市,山财大街5号,臭氧1小时(O3_1h),83,46,47,26,26,186,186,142,142,6,24,8,11,0.5,0.6
2026-05-13T1400,4109A,116.9744,36.6889,济南市,无影山路12号,,50,46,50,18,27,160,160,143,143,13,15,6,6,0.8,0.7
2026-05-13T1400,1653A,116.6229,35.4288,济宁市,火炬城,颗粒物(PM10),66,72,58,22,32,155,155,118,118,7,10,5,4,0.8,0.8
2026-05-13T1400,3500A,116.5808,35.3703,济宁市,北湖一中,颗粒物(PM10),68,74,56,31,39,172,172,132,132,9,11,6,10,0.5,0.6
2026-05-13T1400,3501A,116.8251,35.5592,济宁市,服务中心,,45,43,47,9,32,144,144,118,118,2,10,2,2,0.4,0.6
2026-05-13T1400,3678A,116.5907,35.4054,济宁市,市第七中学,臭氧1小时(O3_1h),64,67,54,23,34,171,171,131,131,8,12,9,9,0.5,0.5
2026-05-13T1400,4111A,116.6075,35.4566,济宁市,任和路,臭氧1小时(O3_1h),73,56,68,25,33,178,178,138,138,5,9,4,4,0.7,0.7
2026-05-13T1400,4112A,116.5648,35.3921,济宁市,文体南路1号,臭氧1小时(O3_1h),57,56,57,14,35,165,165,127,127,2,5,7,7,0.7,0.7
2026-05-13T1400,4122A,112.6071,35.1015,济源市,市委党校,颗粒物(PM10),95,112,130,30,26,125,125,90,90,1,2,10,12,0.7,0.8
2026-05-13T1400,4123A,112.596,35.0702,济源市,沁园中路1号,颗粒物(PM10),69,76,84,44,58,119,119,97,97,13,20,6,6,0.8,1
2026-05-13T1400,2255A,130.2749,46.8028,佳木斯市,佳纺,颗粒物(PM10),56,58,213,18,170,98,98,84,84,8,19,2,4,0.3,0.8
2026-05-13T1400,2257A,130.3258,46.7975,佳木斯市,环保局,颗粒物(PM10),53,54,175,17,18,95,95,82,80,8,17,5,7,0.4,0.9
2026-05-13T1400,4285A,130.363,46.806,佳木斯市,顺和街,,40,40,169,17,171,97,97,85,82,9,18,4,4,0.4,0.8
2026-05-13T1400,4286A,130.3952,46.8268,佳木斯市,长安路196号,颗粒物(PM10),60,64,207,11,169,99,99,83,83,6,17,4,6,0.2,0.8
2026-05-13T1400,1252A,120.7439,30.778,嘉兴市,清河小学,臭氧1小时(O3_1h),89,32,38,11,25,191,191,91,91,17,21,10,9,0.3,0.3
2026-05-13T1400,1253A,120.7261,30.7477,嘉兴市,嘉兴学院,臭氧1小时(O3_1h),103,36,47,17,25,205,205,97,97,18,22,9,8,0.5,0.5
2026-05-13T1400,2872A,120.7845,30.7524,嘉兴市,南湖区残联,臭氧1小时(O3_1h),108,30,35,17,25,216,216,103,103,11,18,9,8,0.4,0.4
2026-05-13T1400,3407A,120.6915,30.7741,嘉兴市,秀洲住建,臭氧1小时(O3_1h),114,38,34,16,23,228,228,106,106,15,19,10,9,0.6,0.6
2026-05-13T1400,1945A,98.291,39.7705,嘉峪关市,气象局,颗粒物(PM10),110,146,304,38,69,112,112,96,96,8,16,16,30,0.8,1.3
2026-05-13T1400,2884A,98.2672,39.7978,嘉峪关市,酒钢宾馆,颗粒物(PM10),109,141,326,44,80,115,115,91,88,1,14,37,54,0.4,1.2
2026-05-13T1400,3248A,98.2644,39.7723,嘉峪关市,雄关区,细颗粒物(PM2.5),94,91,219,57,72,108,108,89,85,8,15,19,33,0.3,0.8
2026-05-13T1400,1383A,113.1063,22.6058,江门市,北街,颗粒物(PM10),52,52,27,3,13,70,70,54,54,6,14,/,/,/,/
2026-05-13T1400,1384A,113.073,22.5835,江门市,西区,,23,8,24,6,12,72,72,61,61,9,15,/,/,/,/
2026-05-13T1400,1385A,113.0218,22.531,江门市,圭峰西,,20,16,23,3,12,63,63,58,58,6,10,/,/,/,/
2026-05-13T1400,1386A,113.0826,22.5947,江门市,东湖,,24,12,19,3,10,74,74,59,59,6,11,7,7,0.3,0.4
2026-05-13T1400,3311A,113.1077,22.5647,江门市,江海富民,,24,22,36,3,14,76,76,59,59,6,16,/,/,0.2,0.3
2026-05-13T1400,3449A,113.0496,22.4669,江门市,新会银湖,,23,14,27,3,13,71,71,51,51,8,20,7,7,0.4,0.5
2026-05-13T1400,3335A,113.3137,35.2643,焦作市,马村街道办,颗粒物(PM10),78,88,82,37,52,130,130,98,98,8,11,12,11,0.5,0.8
2026-05-13T1400,3336A,113.2464,35.2374,焦作市,焦作技师学院,细颗粒物(PM2.5),92,96,94,56,56,133,133,105,105,8,14,9,7,0.8,0.9
2026-05-13T1400,3477A,113.1656,35.2536,焦作市,中站许衡医院,细颗粒物(PM2.5),92,101,73,56,58,128,128,100,100,10,11,14,12,0.7,0.8
2026-05-13T1400,3981A,113.2456,35.18,焦作市,原李万街道办,颗粒物(PM10),75,84,77,45,56,130,130,91,91,8,13,9,8,0.5,0.6
2026-05-13T1400,4264A,113.234,35.219,焦作市,新安路1731号,颗粒物(PM10),81,93,79,50,38,133,133,104,104,12,16,11,10,0.6,0.7
2026-05-13T1400,4295A,113.2722,35.2121,焦作市,人民路3066号,颗粒物(PM10),74,83,82,45,52,128,128,96,96,12,17,6,7,0.5,0.7
2026-05-13T1400,1708A,116.3701,23.5345,揭阳市,新兴,,33,23,67,8,46,104,104,101,99,7,14,6,7,0.6,0.9
2026-05-13T1400,1709A,116.3261,23.5442,揭阳市,西马,,30,NA,67,6,48,96,96,104,101,7,13,5,6,0.6,1
2026-05-13T1400,1710A,116.361,23.5627,揭阳市,东兴,,38,38,58,7,47,109,109,95,95,4,13,2,8,/,/
2026-05-13T1400,1711A,116.4151,23.5295,揭阳市,渔湖,,36,10,65,9,44,114,114,100,100,8,15,2,3,/,/
2026-05-13T1400,3320A,116.4028,23.5699,揭阳市,曲溪,,45,32,49,14,45,141,141,104,103,8,12,4,4,0.7,0.8
2026-05-13T1400,1944A,102.1691,38.5166,金昌市,天庆家园,颗粒物(PM10),322,437,265,96,76,110,110,107,107,3,8,7,16,0.8,0.8
2026-05-13T1400,4022A,102.1648,38.5369,金昌市,金川区人防中心,颗粒物(PM10),265,395,227,NA,76,107,107,105,105,3,7,5,6,0.3,0.3
2026-05-13T1400,4239A,102.193042,38.531887,金昌市,长春路96号,颗粒物(PM10),239,377,213,126,76,102,102,99,99,1,5,7,15,0.3,0.4
2026-05-13T1400,1262A,119.6478,29.0773,金华市,十五中,细颗粒物(PM2.5),82,89,57,51,33,154,154,79,79,26,28,5,3,0.8,0.7
2026-05-13T1400,1263A,119.6859,29.1032,金华市,监测站,细颗粒物(PM2.5),84,72,52,52,31,163,163,77,77,18,23,7,5,0.7,0.6
2026-05-13T1400,3659A,119.656,29.1132,金华市,气象局,细颗粒物(PM2.5),80,82,60,50,35,146,146,70,70,20,34,7,6,0.9,0.7
2026-05-13T1400,1767A,121.1114,41.0879,锦州市,南山,颗粒物(PM10),67,73,37,25,22,155,155,128,128,19,14,6,10,0.5,0.6
2026-05-13T1400,1768A,121.060361,40.842794,锦州市,开发区,颗粒物(PM10),57,59,63,26,22,152,152,127,125,17,17,7,6,0.6,0.5
2026-05-13T1400,1769A,121.1836,41.1118,锦州市,百股街道,颗粒物(PM10),62,66,40,28,23,158,158,128,128,14,12,9,10,0.7,0.6
2026-05-13T1400,1770A,121.1176,41.1224,锦州市,天安街道,颗粒物(PM10),59,62,44,24,22,157,157,127,127,15,14,6,8,0.5,0.4
2026-05-13T1400,1771A,121.1303,41.1385,锦州市,北湖公园,颗粒物(PM10),55,57,42,26,24,157,157,123,123,14,14,8,11,0.5,0.5
2026-05-13T1400,2160A,112.8496,35.5051,晋城市,自来水公司,颗粒物(PM10),58,61,89,28,45,145,145,126,126,6,11,1,2,0.3,0.6
2026-05-13T1400,2162A,112.8509,35.4886,晋城市,市环保局,颗粒物(PM10),65,70,84,40,62,137,137,112,112,7,17,3,4,0.4,0.6
2026-05-13T1400,3620A,112.8258,35.4804,晋城市,泽州一中,颗粒物(PM10),58,60,91,34,56,136,136,108,108,7,17,3,4,0.6,0.8
2026-05-13T1400,4078A,112.8246,35.5152,晋城市,前书院路,颗粒物(PM10),63,68,81,14,52,135,135,115,115,6,16,2,2,0.6,0.6
2026-05-13T1400,4079A,112.8864,35.4773,晋城市,祥云街666号,NA,NA,NA,74,NA,56,124,124,104,104,7,13,4,5,0.5,0.6
2026-05-13T1400,2174A,112.6992,37.6984,晋中市,榆次区政府,臭氧1小时(O3_1h),93,90,101,40,54,194,194,132,132,7,15,9,9,0.8,1.1
2026-05-13T1400,2865A,112.7195,37.683,晋中市,榆次三中,臭氧1小时(O3_1h),97,90,105,28,37,197,197,141,141,5,14,8,9,0.6,0.7
2026-05-13T1400,4080A,112.7375,37.7215,晋中市,广安街188号,颗粒物(PM10),78,88,101,36,54,165,165,116,116,10,17,10,10,0.5,0.5
2026-05-13T1400,4200A,112.7478,37.6954,晋中市,迎宾街26号,臭氧1小时(O3_1h),100,95,105,48,52,200,200,137,137,9,17,8,10,0.6,0.6
2026-05-13T1400,2439A,112.2012,31.048,荆门市,竹园小学,,47,47,70,32,55,88,88,82,82,11,13,4,8,0.4,0.5
2026-05-13T1400,2440A,112.1968,30.9892,荆门市,掇刀,,43,33,62,30,55,84,84,84,82,11,14,8,11,0.5,0.7
2026-05-13T1400,3012A,112.1849,31.0361,荆门市,西山林语,,36,36,70,20,51,72,72,73,73,6,10,7,8,0.6,0.8
2026-05-13T1400,3547A,112.1631,31.0134,荆门市,龙泉中学南校,,25,20,54,9,45,77,77,84,84,8,10,4,6,0.6,0.7
2026-05-13T1400,4124A,112.2213,31.0654,荆门市,新台西路6号,,48,37,61,33,54,92,92,83,83,10,11,11,11,0.9,0.9
2026-05-13T1400,1844A,112.2493,30.3198,荆州市,市图书馆,,30,24,52,20,44,94,94,84,84,9,12,6,8,0.4,0.5
2026-05-13T1400,1845A,112.2009,30.3543,荆州市,市委党校,,36,28,52,25,43,71,71,68,68,13,14,10,8,0.4,0.6
2026-05-13T1400,3194A,112.2749,30.3124,荆州市,管委会,,29,24,55,20,48,83,83,77,77,10,12,8,11,0.3,0.5
2026-05-13T1400,4268A,112.1722,30.3366,荆州市,学苑路85号,,31,20,47,12,44,97,97,84,84,3,10,1,3,0.1,0.4
2026-05-13T1400,2343A,117.2114,29.2931,景德镇市,老干部活动中心,,49,NA,43,34,40,102,102,46,46,3,17,5,10,0.7,0.8
2026-05-13T1400,2344A,117.1893,29.2789,景德镇市,兽医站,颗粒物(PM10),54,55,54,34,42,108,108,53,53,5,23,4,5,0.7,0.8
2026-05-13T1400,2346A,117.246,29.2958,景德镇市,陶研所,细颗粒物(PM2.5),52,36,46,36,40,107,107,46,46,5,21,5,8,1.1,1.1
2026-05-13T1400,4289A,117.154766,29.256967,景德镇市,青少年活动中心,,49,42,53,34,43,96,96,46,46,8,25,11,18,/,/
2026-05-13T1400,1803A,115.9873,29.6816,九江市,十里,,25,25,64,6,41,68,68,56,56,10,23,7,8,0.6,0.9
2026-05-13T1400,1804A,115.9583,29.7047,九江市,茅山头,,30,21,49,7,45,96,96,87,87,8,22,4,4,0.4,0.7
2026-05-13T1400,1805A,115.9877,29.7295,九江市,西园,,30,27,55,10,43,96,96,83,83,20,34,5,7,0.5,0.8
2026-05-13T1400,1808A,115.9112,29.6038,九江市,综合工业园,,26,13,55,3,40,83,83,77,77,23,29,8,9,0.4,0.7
2026-05-13T1400,3190A,116.0254,29.6995,九江市,外国语学校,,31,20,61,3,48,97,97,77,77,6,20,7,11,0.4,0.7
2026-05-13T1400,4253A,116.010205,29.659402,九江市,莲花大道8号,,26,24,42,10,32,83,83,69,69,14,15,5,5,0.5,0.6
2026-05-13T1400,4240A,98.495752,39.733935,酒泉市,玉门东路5号,颗粒物(PM10),121,173,260,42,75,98,98,87,87,1,3,4,4,0.1,0.1
2026-05-13T1400,4241A,98.5099,39.7506,酒泉市,北大街108号,颗粒物(PM10),130,197,306,65,74,95,95,83,83,2,3,8,8,0.1,0.1
2026-05-13T1400,2698A,76.0071,39.466,喀什地区,巡警大队,颗粒物(PM10),310,428,59,218,18,114,114,122,116,5,9,4,4,0.1,0.1
2026-05-13T1400,2699A,75.9756,39.4693,喀什地区,吾办,颗粒物(PM10),286,410,50,208,17,108,108,120,113,4,4,4,5,0.3,0.3
2026-05-13T1400,4027A,75.9485,39.4688,喀什地区,老干局,颗粒物(PM10),226,368,45,174,11,108,108,118,113,2,3,3,3,0.2,0.2
2026-05-13T1400,1824A,114.3389,34.778,开封市,肿瘤医院,细颗粒物(PM2.5),102,112,80,62,51,134,134,111,111,14,17,7,7,0.8,0.8
2026-05-13T1400,1826A,114.2884,34.7966,开封市,世纪星幼儿园,细颗粒物(PM2.5),94,82,69,57,48,132,132,116,116,14,20,8,7,0.7,0.6
2026-05-13T1400,3147A,114.3434,34.8101,开封市,龙亭公园,细颗粒物(PM2.5),92,101,70,56,47,142,142,116,116,16,18,9,9,0.7,0.6
2026-05-13T1400,3210A,114.3645,34.7955,开封市,汴京公园,细颗粒物(PM2.5),86,97,83,53,48,139,139,114,114,6,9,5,5,0.7,0.7
2026-05-13T1400,3473A,114.2485,34.8306,开封市,技师学院,颗粒物(PM10),93,109,77,44,35,140,140,120,120,6,8,8,8,1.0,1
2026-05-13T1400,3592A,114.4518,34.7503,开封市,祥符区生态环境局,细颗粒物(PM2.5),103,73,66,63,55,132,132,110,110,15,21,10,10,0.7,0.8
2026-05-13T1400,1951A,84.886,45.6029,克拉玛依市,长征新村,,30,10,10,3,4,95,95,90,87,2,2,5,5,0.3,0.3
2026-05-13T1400,1952A,84.8894,45.5827,克拉玛依市,南林小区,,30,16,11,3,0,93,93,90,86,2,2,4,4,0.1,0.1
2026-05-13T1400,1954A,84.896,44.3328,克拉玛依市,独山子区,,30,11,19,3,4,96,96,83,83,3,5,6,6,0.3,0.4
2026-05-13T1400,1955A,85.6888,46.0909,克拉玛依市,乌尔禾区商贸楼,,30,20,19,8,7,94,94,77,77,5,5,4,4,0.1,0.1
2026-05-13T1400,3612A,85.1045,45.6895,克拉玛依市,白碱滩区新站,,30,6,12,3,2,93,93,93,85,5,3,7,7,0.2,0.2
2026-05-13T1400,2697A,76.1457,39.7143,克孜勒苏柯尔克孜自治州,市人民政府,颗粒物(PM10),147,241,47,60,19,112,112,112,107,2,3,5,6,0.1,0.1
2026-05-13T1400,3665A,76.1654,39.7157,克孜勒苏柯尔克孜自治州,克州文化中心,颗粒物(PM10),174,298,59,82,32,110,110,114,108,1,2,3,5,0.2,0.2
2026-05-13T1400,1450A,102.8203,24.889,昆明市,呈贡新区,,34,10,12,3,7,108,108,83,83,3,6,2,4,0.3,0.4
2026-05-13T1400,1452A,102.7253,25.0904,昆明市,龙泉镇,NA,NA,NA,15,2,8,90,90,68,68,2,7,5,4,0.3,0.4
2026-05-13T1400,1453A,102.7267,25.0378,昆明市,东风东路,,31,8,11,3,8,98,98,78,78,10,14,2,2,0.3,0.4
2026-05-13T1400,1454A,102.6744,25.0671,昆明市,金鼎山,,30,28,18,3,7,93,93,70,70,6,10,3,4,0.4,0.4
2026-05-13T1400,1455A,102.6643,25.0401,昆明市,碧鸡广场,,28,6,12,3,7,87,87,64,64,6,13,4,5,0.4,0.4
2026-05-13T1400,3179A,102.7491,25.012,昆明市,官渡区博物馆,,31,14,16,3,8,98,98,74,74,8,13,4,4,0.4,0.5
2026-05-13T1400,3375A,102.8016,24.8336,昆明市,青年创业园,,32,9,12,6,9,100,100,82,82,2,5,5,5,0.4,0.5
2026-05-13T1400,3550A,102.8,24.9787,昆明市,昆明学院,,31,9,11,3,6,99,99,76,76,7,9,5,5,0.4,0.5
2026-05-13T1400,3551A,102.5969,24.6738,昆明市,晋宁区生态环境分局,,30,11,12,3,8,94,94,78,78,2,5,1,1,0.3,0.4
2026-05-13T1400,3552A,102.6673,24.9861,昆明市,云天化总部,,32,6,7,3,3,101,101,79,79,7,8,6,4,0.4,0.4
2026-05-13T1400,1456A,91.132,29.6515,拉萨市,八廓街,,38,12,17,6,7,120,120,106,106,3,7,5,5,0.3,0.3
2026-05-13T1400,1457A,91.1221,29.6748,拉萨市,市环保局,,37,13,19,3,10,116,116,102,102,5,11,4,4,0.4,0.4
2026-05-13T1400,1458A,91.0874,29.6476,拉萨市,区监测站,,37,7,11,3,6,116,116,106,106,6,11,5,5,0.1,0.1
2026-05-13T1400,1459A,91.1774,29.6541,拉萨市,西藏大学,NA,NA,8,16,6,9,118,118,101,101,7,12,NA,5,0.2,0.4
2026-05-13T1400,1460A,90.9798,29.6586,拉萨市,区辐射站,,35,12,16,3,8,109,109,101,99,7,12,5,5,0.3,0.3
2026-05-13T1400,1461A,91.0831,29.6292,拉萨市,拉萨火车站,,38,7,13,3,10,120,120,112,112,5,7,3,4,0.4,0.4
2026-05-13T1400,2520A,109.2203,23.7252,来宾市,来宾技工学校,,29,26,35,13,13,90,90,53,53,2,5,8,7,0.7,0.7
2026-05-13T1400,3535A,109.1781,23.7293,来宾市,兴宾区政府,,27,27,39,9,11,83,83,49,49,5,9,8,9,0.5,0.6
2026-05-13T1400,4002A,109.2312,23.7428,来宾市,中南小学,,30,24,33,10,14,96,96,54,54,4,11,5,6,0.5,0.5
2026-05-13T1400,1479A,103.8309,36.0467,兰州市,铁路设计院,NA,NA,NA,50,NA,18,NA,NA,111,61,NA,20,NA,4,NA,0.6
2026-05-13T1400,3241A,103.7439,36.0841,兰州市,百合公园,,36,36,48,22,19,98,98,61,61,12,21,8,6,0.1,0.3
2026-05-13T1400,3242A,103.9613,35.9985,兰州市,和平,,42,41,43,29,17,128,128,94,94,4,7,11,8,0.6,0.5
2026-05-13T1400,4236A,103.629272,36.093822,兰州市,庄浪东路808号,颗粒物(PM10),64,69,60,19,18,119,119,91,91,9,14,9,8,0.3,0.4
2026-05-13T1400,4237A,103.7251,36.104344,兰州市,安宁西路88号,颗粒物(PM10),61,65,61,24,20,124,124,81,81,11,15,9,8,0.3,0.2
2026-05-13T1400,4238A,103.846982,36.067567,兰州市,北滨河东路1号,,36,35,49,21,20,114,114,73,73,11,17,10,9,0.6,0.5
2026-05-13T1400,1067A,116.6712,39.5109,廊坊市,药材公司,细颗粒物(PM2.5),90,96,83,55,51,174,174,122,122,5,11,3,4,0.5,0.5
2026-05-13T1400,1068A,116.7215,39.5592,廊坊市,开发区,细颗粒物(PM2.5),101,118,94,61,48,197,197,152,152,NA,16,2,3,0.5,0.4
2026-05-13T1400,1070A,116.7246,39.5273,廊坊市,北华航天学院,臭氧1小时(O3_1h),95,86,81,45,44,196,196,139,139,4,11,3,4,0.5,0.5
2026-05-13T1400,2919A,116.7022,39.5454,廊坊市,河北工业大学,臭氧1小时(O3_1h),93,83,78,50,43,194,194,140,140,6,11,3,5,0.5,0.5
2026-05-13T1400,2536A,103.7629,29.5844,乐山市,牛耳桥,细颗粒物(PM2.5),62,60,61,41,37,142,142,103,103,10,22,7,8,0.6,0.7
2026-05-13T1400,2537A,103.7501,29.6002,乐山市,市第三水厂,细颗粒物(PM2.5),56,56,62,38,37,134,134,94,94,10,21,6,7,0.7,0.7
2026-05-13T1400,2538A,103.7571,29.5664,乐山市,市监测站,颗粒物(PM10),55,57,59,35,34,136,136,102,102,8,17,5,6,0.7,0.7
2026-05-13T1400,3361A,103.7313,29.563,乐山市,理工大学,颗粒物(PM10),54,55,57,32,36,152,152,105,105,8,18,10,11,0.5,0.6
2026-05-13T1400,2599A,100.2497,26.8802,丽江市,丽江古城,,30,19,17,3,6,94,94,88,86,6,8,6,6,0.4,0.4
2026-05-13T1400,2600A,100.2203,26.8906,丽江市,市中心,,30,8,10,3,5,94,94,86,86,5,7,4,5,0.4,0.4
2026-05-13T1400,1267A,119.9141,28.4513,丽水市,监测站大楼,,43,42,36,30,20,126,126,72,72,17,19,6,5,0.6,0.5
2026-05-13T1400,1268A,119.93,28.4589,丽水市,莲都小学,颗粒物(PM10),55,57,38,28,20,134,134,79,79,14,20,/,/,/,/
2026-05-13T1400,1269A,119.8794,28.4232,丽水市,余庄前,颗粒物(PM10),60,63,36,37,19,108,108,59,59,29,18,7,4,0.6,0.5
2026-05-13T1400,1173A,119.1759,34.5885,连云港市,市环境监测站,,50,31,40,24,30,160,160,132,132,8,13,9,10,0.5,0.6
2026-05-13T1400,3000A,119.3577,34.6971,连云港市,德源药业,颗粒物(PM10),53,53,47,29,27,148,148,138,138,17,19,7,6,0.6,0.5
2026-05-13T1400,3007A,119.178,34.8442,连云港市,新城一中,,48,48,58,17,23,148,148,118,118,6,25,6,5,0.5,0.5
2026-05-13T1400,3008A,119.3607,34.7519,连云港市,胡沟管理处,,34,27,27,14,19,107,107,118,118,37,31,11,11,0.6,0.9
2026-05-13T1400,3009A,119.1478,34.5913,连云港市,矿山设计院,,50,36,47,22,27,157,157,132,132,4,10,4,6,0.6,0.7
2026-05-13T1400,3434A,119.2414,34.6539,连云港市,工贸学校,臭氧1小时(O3_1h),57,44,35,31,24,165,165,148,148,8,11,4,5,0.5,0.5
2026-05-13T1400,3664A,119.4171,34.734,连云港市,连云街道,颗粒物(PM10),55,56,61,26,23,153,153,97,97,18,38,12,13,0.7,0.6
2026-05-13T1400,2573A,102.2629,27.8981,凉山彝族自治州,西昌市政府,,39,26,21,17,16,123,123,66,66,6,9,10,11,0.6,0.5
2026-05-13T1400,2574A,102.2686,27.885,凉山彝族自治州,凉山州政府,,32,25,23,16,17,102,102,62,62,5,10,11,5,0.6,0.7
2026-05-13T1400,4229A,102.2342,27.8859,凉山彝族自治州,凯乐南路30号,,35,28,26,21,19,110,110,53,53,10,19,10,5,0.9,0.7
2026-05-13T1400,2212A,123.1978,41.2036,辽阳市,宏伟区,,40,25,32,11,14,125,125,126,125,8,8,6,6,0.5,0.5
2026-05-13T1400,2213A,123.1684,41.2497,辽阳市,新华园,,40,33,39,13,19,128,128,126,126,8,9,4,3,0.5,0.5
2026-05-13T1400,2214A,123.2355,41.2663,辽阳市,滨河路,,37,33,34,12,13,117,117,117,113,10,10,6,6,0.3,0.3
2026-05-13T1400,4083A,123.153,41.2874,辽阳市,铁西路150号,,41,41,42,16,21,123,123,122,122,8,8,7,7,0.6,0.6
2026-05-13T1400,2227A,125.1359,42.8845,辽源市,环保局,臭氧1小时(O3_1h),72,30,29,19,12,177,177,136,136,8,12,8,8,0.3,0.4
2026-05-13T1400,4085A,125.0998,42.9134,辽源市,安宁大街333号,臭氧1小时(O3_1h),54,42,36,23,11,163,163,136,136,7,10,3,7,0.4,0.4
2026-05-13T1400,1625A,115.9789,36.4372,聊城市,区政府,颗粒物(PM10),57,59,66,20,28,146,146,121,121,9,14,8,9,0.6,0.7
2026-05-13T1400,3200A,115.9772,36.4986,聊城市,监控中心,颗粒物(PM10),55,56,65,19,30,153,153,131,131,4,9,9,10,0.3,0.4
2026-05-13T1400,3513A,116.0443,36.436,聊城市,九州社区,颗粒物(PM10),58,60,72,16,34,142,142,123,123,6,15,5,6,0.4,0.5
2026-05-13T1400,4018A,116.0564,36.4609,聊城市,星美广场,颗粒物(PM10),52,52,63,16,31,142,142,121,121,7,10,5,7,0.4,0.5
2026-05-13T1400,4113A,116.0091,36.4495,聊城市,利民路,,47,38,52,21,35,150,150,128,128,8,14,8,9,0.5,0.4
2026-05-13T1400,2632A,94.3683,29.6373,林芝市,林芝监测站,,30,11,10,3,6,93,93,76,76,4,4,5,4,0.4,0.4
2026-05-13T1400,2633A,94.3616,29.6634,林芝市,林芝人民医院,,30,6,14,3,7,95,95,75,75,4,5,3,3,0.4,0.4
2026-05-13T1400,2603A,100.0779,23.8981,临沧市,市环保局,,30,27,22,6,11,95,95,57,57,3,5,8,6,0.3,0.4
2026-05-13T1400,2604A,100.0894,23.882,临沧市,市气象局,,31,22,19,9,11,97,97,56,56,5,7,7,6,0.4,0.7
2026-05-13T1400,1733A,111.5552,36.0791,临汾市,临钢医院,颗粒物(PM10),91,107,104,52,48,131,131,92,92,13,20,10,9,1.0,0.9
2026-05-13T1400,1734A,111.4984,36.0734,临汾市,技工学校,细颗粒物(PM2.5),100,104,106,60,64,141,141,112,112,11,15,9,10,0.9,1.1
2026-05-13T1400,1736A,111.5017,36.0857,临汾市,市委,颗粒物(PM10),94,111,113,51,53,144,144,108,108,12,19,9,8,0.9,1
2026-05-13T1400,3018A,111.5048,36.1015,临汾市,唐尧大酒店,颗粒物(PM10),102,123,121,42,48,137,137,98,98,6,15,10,10,1.0,1.1
2026-05-13T1400,4244A,111.4879,36.053,临汾市,启星学校,颗粒物(PM10),75,85,103,44,56,128,128,88,88,11,21,9,7,1.0,1.2
2026-05-13T1400,4271A,103.2464,35.6123,临夏回族自治州,滨河东路1号,颗粒物(PM10),55,57,56,28,20,114,114,69,69,4,10,14,11,0.3,0.3
2026-05-13T1400,4310A,103.207136,35.599807,临夏回族自治州,新华街21号,颗粒物(PM10),111,148,52,27,23,102,102,65,65,4,5,10,8,0.2,0.2
2026-05-13T1400,1618A,118.3429,35.0532,临沂市,沂河小区,臭氧1小时(O3_1h),97,51,56,17,28,197,197,135,135,11,17,13,19,0.3,0.4
2026-05-13T1400,1619A,118.2962,35.0568,临沂市,鲁南制药厂,臭氧1小时(O3_1h),103,53,55,14,31,205,205,145,145,13,18,14,20,0.3,0.4
2026-05-13T1400,1620A,118.2793,34.9976,临沂市,新光毛纺厂,臭氧1小时(O3_1h),101,46,47,14,36,202,202,141,141,12,21,13,20,0.3,0.4
2026-05-13T1400,1621A,118.3955,35.0889,临沂市,河东保险公司,臭氧1小时(O3_1h),100,44,52,13,31,200,200,138,138,8,22,13,16,0.2,0.3
2026-05-13T1400,3370A,118.3563,35.0215,临沂市,十里堡居委,臭氧1小时(O3_1h),100,46,48,19,32,200,200,139,139,8,17,12,19,0.5,0.6
2026-05-13T1400,3496A,118.359,35.1067,临沂市,南坊新区,NA,NA,NA,55,NA,32,188,188,136,136,10,18,12,17,0.3,0.4
2026-05-13T1400,3860A,118.3915,35.0297,临沂市,皇山花园小区,臭氧1小时(O3_1h),100,63,56,18,33,200,200,139,139,10,21,14,20,0.6,0.7
2026-05-13T1400,1870A,109.4854,24.3898,柳州市,柳东小学,,25,25,36,12,23,74,74,41,41,5,12,4,9,0.5,0.6
2026-05-13T1400,1871A,109.4109,24.3304,柳州市,环保监测站,,23,22,39,12,24,72,72,38,38,8,20,5,6,0.7,0.9
2026-05-13T1400,1872A,109.3886,24.3408,柳州市,河西水厂,,35,35,45,12,25,68,68,34,34,7,20,8,8,0.6,0.8
2026-05-13T1400,1873A,109.4263,24.2951,柳州市,市四中,NA,NA,NA,47,10,24,67,67,36,36,7,20,6,6,0.5,0.6
2026-05-13T1400,1874A,109.396,24.3658,柳州市,市九中,,23,18,43,12,24,73,73,36,36,6,16,5,6,0.6,0.8
2026-05-13T1400,1875A,109.4912,24.3164,柳州市,古亭山,,32,32,37,11,20,73,73,42,42,5,14,4,5,0.7,0.8
2026-05-13T1400,3402A,109.5422,24.3994,柳州市,市二中,,27,27,39,12,25,73,73,40,40,6,15,8,20,0.6,0.7
2026-05-13T1400,2307A,116.5078,31.7369,六安市,监测大楼,,50,41,47,32,47,158,158,110,110,7,14,6,5,0.4,0.5
2026-05-13T1400,2308A,116.4738,31.7642,六安市,皖西学院,臭氧1小时(O3_1h),55,51,54,29,40,164,164,103,103,6,11,7,7,0.5,0.5
2026-05-13T1400,2309A,116.4997,31.7904,六安市,朝阳厂,细颗粒物(PM2.5),52,40,49,36,43,149,149,99,99,9,16,8,7,0.4,0.4
2026-05-13T1400,2310A,116.5566,31.7885,六安市,开发区,臭氧1小时(O3_1h),65,44,55,28,50,172,172,110,110,8,22,8,9,0.5,0.6
2026-05-13T1400,2577A,104.8293,26.592,六盘水市,黄土坡,,31,19,27,13,18,99,99,59,59,9,12,7,7,0.2,0.4
2026-05-13T1400,2579A,104.8481,26.5898,六盘水市,民中,,30,17,22,17,20,93,93,56,56,11,14,2,2,0.4,0.5
2026-05-13T1400,2580A,104.9541,26.5506,六盘水市,双水,,29,22,21,13,16,90,90,61,61,6,7,5,4,0.2,0.3
2026-05-13T1400,4151A,104.8899,26.5685,六盘水市,钟山大道中段564号,,30,19,27,11,17,96,96,60,60,5,8,3,3,0.7,0.8
2026-05-13T1400,2336A,117.022,25.1031,龙岩市,龙岩市监测站,,38,36,23,26,19,38,38,24,24,18,14,6,6,0.8,0.5
2026-05-13T1400,2337A,117.0257,25.0662,龙岩市,闽西职业技术学院,,40,36,26,28,18,32,32,24,18,16,9,6,5,0.8,0.6
2026-05-13T1400,2338A,117.0195,25.0306,龙岩市,龙岩学院,,39,39,27,25,16,42,42,28,28,13,7,8,4,/,/
2026-05-13T1400,2885A,104.9344,33.3827,陇南市,滨江中学,,33,33,40,11,12,97,97,87,87,4,5,5,5,0.6,0.6
2026-05-13T1400,3247A,104.9551,33.3709,陇南市,市总工会,,30,22,31,12,11,96,96,85,85,4,5,4,4,0.5,0.5
2026-05-13T1400,2488A,111.9984,27.7346,娄底市,市监测站,,40,35,33,28,27,57,57,48,48,13,13,8,8,0.8,0.5
2026-05-13T1400,2491A,111.9888,27.7035,娄底市,市政府,NA,NA,38,28,31,21,59,59,51,51,12,7,NA,4,1.0,0.4
2026-05-13T1400,4127A,111.9812,27.7591,娄底市,涟钢职大,,21,18,26,12,21,65,65,55,55,11,9,5,3,1.0,0.6
2026-05-13T1400,4128A,112.0303,27.7457,娄底市,娄底体校,,26,26,35,15,26,56,56,52,52,8,10,5,4,0.3,0.3
2026-05-13T1400,1894A,105.4427,28.9063,泸州市,小市上码头,,43,30,37,20,25,136,136,80,80,9,15,7,8,0.5,0.6
2026-05-13T1400,1895A,105.4241,28.8573,泸州市,兰田宪桥,,47,38,48,25,29,150,150,85,85,10,17,8,12,0.6,0.6
2026-05-13T1400,1896A,105.4378,28.8833,泸州市,市环监站,,45,27,34,13,19,141,141,78,78,12,18,9,14,0.8,0.8
2026-05-13T1400,4272A,105.3689,28.7783,泸州市,纳溪中医医院,,50,27,41,17,25,158,158,78,78,10,18,7,7,0.5,0.6
2026-05-13T1400,2183A,111.1447,37.5212,吕梁市,环保局,颗粒物(PM10),78,88,100,33,35,153,153,97,97,11,24,9,10,0.6,0.5
2026-05-13T1400,2185A,111.1285,37.5338,吕梁市,自来水公司,颗粒物(PM10),80,91,87,40,38,150,150,93,93,13,24,6,7,0.8,0.6
2026-05-13T1400,2867A,111.1225,37.5093,吕梁市,马茂庄小学,颗粒物(PM10),90,106,101,38,43,159,159,101,101,10,29,7,7,0.7,0.5
2026-05-13T1400,1812A,112.3934,34.6517,洛阳市,市委党校,颗粒物(PM10),58,60,72,37,54,146,146,90,90,11,15,14,10,0.7,0.8
2026-05-13T1400,1815A,112.494,34.6883,洛阳市,河南林校,细颗粒物(PM2.5),68,69,80,44,53,151,151,99,99,12,21,14,13,0.7,0.7
2026-05-13T1400,1816A,112.3843,34.623,洛阳市,开发区管委会,细颗粒物(PM2.5),66,64,68,43,53,156,156,96,96,10,13,21,14,0.6,0.6
2026-05-13T1400,1817A,112.4263,34.6249,洛阳市,市委新办公区,细颗粒物(PM2.5),64,50,65,42,52,147,147,93,93,11,14,19,12,0.3,0.4
2026-05-13T1400,3340A,112.6005,34.6323,洛阳市,伊滨,颗粒物(PM10),63,68,71,41,50,132,132,84,84,13,14,12,9,0.4,0.5
2026-05-13T1400,3341A,112.495,34.6338,洛阳市,中移产业园,细颗粒物(PM2.5),74,59,65,47,52,144,144,92,92,12,17,12,12,0.7,0.8
2026-05-13T1400,3593A,112.5736,34.8993,洛阳市,吉利监测站,颗粒物(PM10),75,84,82,47,54,132,132,87,87,11,16,13,10,0.5,0.6
2026-05-13T1400,3635A,112.3678,34.6623,洛阳市,河科大西苑校区,细颗粒物(PM2.5),66,60,77,43,57,154,154,97,97,13,16,14,13,0.5,0.6
2026-05-13T1400,3636A,112.4387,34.678,洛阳市,英才小学,"颗粒物(PM10),细颗粒物(PM2.5)",68,75,96,44,56,142,142,96,96,9,13,10,10,0.7,0.8
2026-05-13T1400,4214A,112.460027,34.694929,洛阳市,春都路1号院,细颗粒物(PM2.5),78,70,81,49,56,151,151,96,96,11,16,11,11,0.4,0.4
2026-05-13T1400,2399A,114.051,33.5721,漯河市,三五一五工厂,颗粒物(PM10),55,56,67,32,37,131,131,101,101,9,17,6,7,0.4,0.5
2026-05-13T1400,2400A,114.0055,33.5698,漯河市,漯河大学,细颗粒物(PM2.5),52,50,51,36,44,130,130,99,99,10,16,7,8,0.4,0.5
2026-05-13T1400,2401A,114.0134,33.5826,漯河市,市水利局,细颗粒物(PM2.5),64,56,58,42,47,128,128,102,102,9,12,6,7,0.5,0.7
2026-05-13T1400,2402A,114.0261,33.5697,漯河市,市广电局,颗粒物(PM10),53,54,55,28,35,128,128,100,100,10,15,6,7,0.4,0.5
2026-05-13T1400,3478A,113.9691,33.568,漯河市,市图书馆,,38,37,63,19,43,119,119,90,90,4,11,6,10,0.6,0.8
2026-05-13T1400,4250A,114.089259,33.588274,漯河市,韶山路11号,细颗粒物(PM2.5),80,75,69,50,46,130,130,102,102,10,15,8,8,0.6,0.7
2026-05-13T1400,1798A,118.5084,31.6838,马鞍山市,湖东路四小,臭氧1小时(O3_1h),101,62,76,33,51,202,202,122,122,8,21,8,9,0.7,0.8
2026-05-13T1400,1799A,118.5019,31.6449,马鞍山市,开发区,臭氧1小时(O3_1h),100,55,79,24,52,200,200,110,110,10,30,8,9,0.7,0.9
2026-05-13T1400,3633A,118.4914,31.681,马鞍山市,雨山,臭氧1小时(O3_1h),99,54,68,30,38,199,199,121,121,8,20,6,9,0.8,0.9
2026-05-13T1400,4191A,118.527362,31.722269,马鞍山市,慈湖高新区,臭氧1小时(O3_1h),102,60,84,32,51,203,203,121,121,12,22,8,8,0.7,0.8
2026-05-13T1400,1686A,111.0285,21.469,茂名市,电白南海,,22,22,18,8,7,65,65,55,54,4,5,6,6,0.7,0.7
2026-05-13T1400,1687A,110.9294,21.6533,茂名市,茂石化七小,,27,27,24,9,10,68,68,48,48,5,8,6,11,0.4,0.5
2026-05-13T1400,1688A,110.9108,21.6688,茂名市,健康路,,22,17,15,10,9,69,69,49,49,5,8,5,8,0.6,0.6
2026-05-13T1400,1689A,110.8592,21.6826,茂名市,高岭,,29,29,24,11,10,71,71,48,48,3,7,4,6,/,/
2026-05-13T1400,3450A,111.0101,21.5165,茂名市,电白水东,,19,12,10,7,8,58,58,48,48,4,6,3,3,/,/
2026-05-13T1400,2540A,103.8414,30.0871,眉山市,气象局,,50,46,60,24,33,158,158,108,108,16,27,2,4,0.4,0.5
2026-05-13T1400,3148A,103.829,30.0563,眉山市,区人社局,,48,45,74,22,35,153,153,98,98,13,26,6,7,0.4,0.6
2026-05-13T1400,4148A,103.8836,30.0695,眉山市,眉职院,,45,45,57,19,26,144,144,102,102,8,17,8,8,0.7,0.7
2026-05-13T1400,1690A,116.1248,24.3307,梅州市,梅江月梅,NA,NA,40,26,27,15,90,90,65,65,NA,9,/,/,/,/
2026-05-13T1400,1691A,116.0798,24.2719,梅州市,梅县新城,,33,30,25,23,17,93,93,62,62,8,11,8,8,0.5,0.5
2026-05-13T1400,3315A,116.1234,24.2994,梅州市,梅龙,,40,24,21,24,19,127,127,NA,NA,6,7,6,6,0.7,0.6
2026-05-13T1400,1878A,104.7775,31.4741,绵阳市,富乐山,,35,30,40,21,24,112,112,83,83,5,9,8,8,0.6,0.7
2026-05-13T1400,1880A,104.6698,31.4668,绵阳市,高新区自来水公司,,36,32,38,20,25,114,114,77,77,6,14,7,7,0.6,0.6
2026-05-13T1400,3491A,104.6899,31.5324,绵阳市,西科大附属小学,,37,33,47,21,29,116,116,63,63,6,20,5,5,0.5,0.5
2026-05-13T1400,3492A,104.5647,31.5343,绵阳市,安州区旅游局,,39,37,45,21,25,124,124,70,70,4,10,6,7,0.6,0.7
2026-05-13T1400,4146A,104.7092,31.4972,绵阳市,科技城新区公安局,,39,39,50,19,26,107,107,63,63,6,16,5,6,0.6,0.7
2026-05-13T1400,4226A,104.765114,31.453094,绵阳市,绵阳市气象局,,30,28,37,20,25,94,94,71,70,14,15,8,9,0.5,0.5
2026-05-13T1400,1784A,129.61,44.561,牡丹江市,环保大楼,,46,31,34,17,15,147,147,98,98,8,18,2,4,0.2,0.3
2026-05-13T1400,1787A,129.6364,44.6075,牡丹江市,机车工厂,,47,40,51,31,27,148,148,98,98,9,23,9,11,0.3,0.4
2026-05-13T1400,1788A,129.6386,44.5462,牡丹江市,第一中学,,45,NA,28,30,16,141,141,102,102,7,15,5,4,0.4,0.4
2026-05-13T1400,4287A,129.5992,44.5964,牡丹江市,东晓云街98号,,47,32,42,23,18,149,149,98,98,7,18,4,5,0.2,0.3
2026-05-13T1400,2531A,105.0703,29.61,内江市,市监测站,,45,33,42,21,30,144,144,103,103,8,11,11,12,0.3,0.3
2026-05-13T1400,2533A,105.0657,29.5807,内江市,内江二中,,45,38,38,18,29,143,143,104,104,8,11,8,8,0.3,0.4
2026-05-13T1400,2534A,105.0407,29.5828,内江市,内江日报社,,47,22,42,21,29,150,150,112,112,9,11,14,13,0.4,0.4
2026-05-13T1400,4147A,105.0433,29.6105,内江市,玉峰路西段888号,,45,23,38,15,28,144,144,104,104,8,10,10,10,0.4,0.5
2026-05-13T1400,2628A,92.0653,31.4846,那曲市,那曲监测站,,32,20,56,15,24,101,101,79,79,13,23,11,13,0.6,0.9
2026-05-13T1400,4243A,92.0515,31.4787,那曲市,那曲市委宣传部,,33,6,28,3,17,105,105,79,79,6,16,6,6,0.5,0.7
2026-05-13T1400,1291A,115.8887,28.7006,南昌市,省林业公司,,27,22,44,16,35,86,86,82,82,5,21,3,3,0.7,0.7
2026-05-13T1400,1292A,115.813,28.7443,南昌市,林科所,,29,17,37,14,33,90,90,77,77,5,22,7,8,0.4,0.5
2026-05-13T1400,1294A,115.8518,28.687,南昌市,建工学校,,27,20,49,13,33,86,86,81,81,4,16,6,8,0.7,0.8
2026-05-13T1400,1295A,115.8926,28.6425,南昌市,象湖,,27,NA,35,12,38,85,85,81,81,8,24,7,9,0.5,0.8
2026-05-13T1400,3046A,115.9084,28.6062,南昌市,机电学校,,28,22,54,16,41,88,88,83,83,9,24,6,6,0.5,0.7
2026-05-13T1400,3690A,115.9718,28.7032,南昌市,外国语学校,,26,21,49,11,41,83,83,80,80,5,21,8,10,0.5,0.8
2026-05-13T1400,4106A,115.7923,28.6873,南昌市,工业二路,,28,24,53,15,39,89,89,78,78,4,17,5,6,0.5,0.7
2026-05-13T1400,4192A,115.931587,28.686774,南昌市,南京东路235号,,27,NA,48,15,42,86,86,86,86,8,25,7,8,0.6,1
2026-05-13T1400,1906A,106.0791,30.8022,南充市,南充市委,,35,34,54,23,43,110,110,64,64,6,12,6,6,0.4,0.5
2026-05-13T1400,1907A,106.1038,30.8215,南充市,南充炼油厂,,35,35,58,24,45,108,108,68,68,6,10,5,6,0.3,0.4
2026-05-13T1400,4227A,106.108336,30.788436,南充市,梨树横街98号,,35,30,53,23,43,112,112,68,68,6,11,7,7,0.5,0.5
2026-05-13T1400,4304A,106.1172,30.843,南充市,清泉寺北路188号,,41,41,53,21,42,109,109,61,61,6,8,8,8,0.3,0.4
2026-05-13T1400,4305A,106.067,30.7616,南充市,同庆路1号,,38,36,56,25,41,120,120,70,70,8,13,7,7,0.4,0.5
2026-05-13T1400,1151A,118.8033,32.1085,南京市,迈皋桥,臭氧1小时(O3_1h),105,44,53,24,31,209,209,152,152,12,16,4,5,0.4,0.5
2026-05-13T1400,1152A,118.7487,32.057,南京市,草场门,臭氧1小时(O3_1h),97,51,53,17,31,197,197,137,137,10,20,6,7,0.5,0.7
2026-05-13T1400,1154A,118.770105,32.004342,南京市,中华门,臭氧1小时(O3_1h),102,68,59,21,33,203,203,130,130,8,15,6,6,0.5,0.6
2026-05-13T1400,1155A,118.8059,32.0329,南京市,瑞金路,臭氧1小时(O3_1h),88,58,61,22,30,190,190,126,126,8,20,14,15,1.0,0.9
2026-05-13T1400,1156A,118.7946,32.0774,南京市,玄武湖,臭氧1小时(O3_1h),75,61,53,13,27,180,180,124,124,2,14,5,7,0.4,0.5
2026-05-13T1400,1157A,118.6415,32.0964,南京市,浦口,臭氧1小时(O3_1h),89,60,54,21,29,191,191,114,114,15,27,6,7,0.6,0.6
2026-05-13T1400,1158A,118.730129,32.000956,南京市,奥体中心,臭氧1小时(O3_1h),97,64,63,19,27,197,197,131,131,12,23,12,12,0.5,0.7
2026-05-13T1400,1159A,118.9072,32.1047,南京市,仙林大学城,臭氧1小时(O3_1h),102,75,62,28,30,203,203,142,142,10,19,12,13,0.8,0.9
2026-05-13T1400,3422A,118.8443,31.919,南京市,江宁彩虹桥,臭氧1小时(O3_1h),93,71,57,26,28,194,194,121,121,9,19,4,5,0.7,0.8
2026-05-13T1400,3427A,118.8497,32.3599,南京市,六合雄州,臭氧1小时(O3_1h),104,50,50,23,25,208,208,131,131,18,22,4,4,1.1,1
2026-05-13T1400,4086A,118.7641,32.0841,南京市,新模范马路66号,臭氧1小时(O3_1h),101,51,58,12,25,201,201,147,147,9,25,4,4,0.5,0.7
2026-05-13T1400,4249A,118.8707617,31.34017673,南京市,汶溪路181号,臭氧1小时(O3_1h),93,56,49,23,43,194,194,130,130,11,21,8,9,0.5,0.5
2026-05-13T1400,4312A,119.019,31.6512,南京市,中山西路1号,臭氧1小时(O3_1h),75,66,51,24,38,180,180,106,106,14,22,6,4,0.7,0.8
2026-05-13T1400,1401A,108.3098,22.788,南宁市,二十一中,,45,45,26,13,10,66,66,34,34,9,11,2,2,0.5,0.5
2026-05-13T1400,1402A,108.3135,22.8529,南宁市,北湖,,44,44,27,19,12,84,84,39,39,3,7,4,4,0.4,0.4
2026-05-13T1400,1403A,108.3205,22.8222,南宁市,市监测站,颗粒物(PM10),55,56,27,14,8,81,81,44,44,6,7,2,2,0.6,0.5
2026-05-13T1400,1404A,108.3828,22.8038,南宁市,大自然花园,,29,29,22,8,7,70,70,39,39,6,8,4,4,0.5,0.5
2026-05-13T1400,1406A,108.2397,22.8462,南宁市,区农职院,,36,36,27,20,12,80,80,36,36,6,8,2,2,0.6,0.6
2026-05-13T1400,1407A,108.3285,22.7356,南宁市,英华嘉园,,33,33,26,11,9,62,62,39,39,14,13,4,4,0.6,0.6
2026-05-13T1400,3401A,108.4829,22.762,南宁市,红星社区,,25,25,22,3,7,67,67,44,44,4,8,5,5,0.6,0.7
2026-05-13T1400,4132A,108.2927,23.1477,南宁市,起凤路9号,,36,36,28,22,16,94,94,NA,NA,11,14,6,6,0.6,0.6
2026-05-13T1400,4221A,108.2177,22.7774,南宁市,乐贤路16号,,39,39,28,16,11,82,82,36,36,9,15,6,6,0.5,0.5
2026-05-13T1400,2332A,118.1682,26.6371,南平市,南平市监测站,,23,23,26,12,17,64,64,52,52,8,15,3,4,0.4,0.5
2026-05-13T1400,2334A,118.1757,26.6276,南平市,南平七中,,19,19,23,13,17,51,51,42,42,8,14,2,4,0.5,0.5
2026-05-13T1400,1168A,120.9056,31.9669,南通市,狼山街道,,44,25,34,6,25,139,139,124,124,8,11,5,5,0.6,0.6
2026-05-13T1400,1170A,120.8635,32.0231,南通市,城中,颗粒物(PM10),54,55,46,3,24,101,101,116,116,46,12,5,5,0.5,0.6
2026-05-13T1400,1171A,120.9376,31.9301,南通市,星湖花园,,40,25,31,8,23,126,126,113,113,6,8,4,4,0.4,0.5
2026-05-13T1400,1172A,120.8053,32.046,南通市,紫琅学院,,31,31,35,11,27,93,93,89,89,50,21,6,6,0.8,0.8
2026-05-13T1400,3291A,121.0631,32.0644,南通市,通州监测站,,48,41,37,10,26,152,152,124,124,5,4,5,4,0.7,0.7
2026-05-13T1400,3432A,120.9348,31.9874,南通市,环境教育馆,,44,36,42,8,26,138,138,122,122,13,18,5,5,0.5,0.6
2026-05-13T1400,4091A,120.8692,31.9885,南通市,洪江路,,43,43,37,11,26,57,57,95,80,76,24,6,6,0.9,0.9
2026-05-13T1400,2404A,112.5338,33.0086,南阳市,瓦房庄,,35,30,53,12,41,109,109,88,88,5,9,4,6,0.2,0.4
2026-05-13T1400,2405A,112.5002,32.9734,南阳市,汉画馆,,33,33,66,12,43,105,105,95,88,6,13,5,6,0.3,0.5
2026-05-13T1400,2406A,112.5778,33.0144,南阳市,气象站,,34,21,55,17,40,107,107,90,90,5,7,6,8,0.1,0.3
2026-05-13T1400,2407A,112.548,32.9687,南阳市,理工学院,,35,26,56,20,46,112,112,92,92,5,20,5,7,0.2,0.4
2026-05-13T1400,4008A,112.5233,32.9921,南阳市,卧龙区政府,,34,26,63,18,46,108,108,90,90,6,11,7,8,0.3,0.5
2026-05-13T1400,1234A,121.8352,29.9111,宁波市,区环保大楼,,29,14,29,3,11,90,90,69,69,12,33,6,7,0.2,0.3
2026-05-13T1400,1235A,121.5595,29.8208,宁波市,万里学院,,39,24,26,6,15,122,122,86,86,6,12,4,4,0.5,0.5
2026-05-13T1400,1236A,121.713,29.9564,宁波市,龙赛医院,,42,21,46,7,19,132,132,76,76,6,28,8,8,0.3,0.5
2026-05-13T1400,1240A,121.5855,29.8635,宁波市,太古小学,,37,18,31,7,16,116,116,83,83,5,12,5,5,0.7,0.7
2026-05-13T1400,1241A,121.5239,29.8673,宁波市,市环境监测中心,,40,28,29,10,18,126,126,83,83,11,23,10,10,0.4,0.5
2026-05-13T1400,2871A,121.6156,29.9015,宁波市,万里国际学校,,41,22,26,8,14,130,130,97,97,6,13,6,7,0.4,0.4
2026-05-13T1400,3710A,121.5593,29.8976,宁波市,白沙活动中心,,42,21,24,13,18,134,134,92,92,9,16,8,8,0.3,0.3
2026-05-13T1400,4095A,121.8962,29.7529,宁波市,中科路88号,,27,6,7,3,4,84,84,80,80,8,5,7,7,0.3,0.4
2026-05-13T1400,2341A,119.5387,26.6611,宁德市,宁德市监测站,细颗粒物(PM2.5),60,40,30,40,27,71,71,54,51,31,23,9,8,1.5,0.7
2026-05-13T1400,3209A,119.5231,26.6562,宁德市,宁德一中,细颗粒物(PM2.5),70,NA,28,45,32,80,80,60,60,19,16,7,8,1.2,0.6
2026-05-13T1400,2618A,98.859,25.8541,怒江傈僳族自治州,州监测站,,30,21,24,13,17,94,94,61,61,6,9,6,6,0.3,0.4
2026-05-13T1400,2619A,98.8607,25.8168,怒江傈僳族自治州,泸水一中,,28,22,25,16,18,87,87,49,49,7,18,5,4,0.5,0.6
2026-05-13T1400,1888A,101.6891,26.571,攀枝花市,弄弄坪,,40,27,47,6,15,128,128,72,72,16,24,24,16,2.0,1.1
2026-05-13T1400,1889A,101.577,26.5914,攀枝花市,河门口,,39,12,28,6,14,122,122,70,70,7,16,9,23,0.8,1.2
2026-05-13T1400,1891A,101.7365,26.4986,攀枝花市,仁和,,32,10,17,6,10,101,101,68,68,5,10,7,7,0.3,0.3
2026-05-13T1400,2835A,101.7222,26.567,攀枝花市,四十中小,,36,31,34,3,18,113,113,65,65,7,21,11,12,0.8,0.9
2026-05-13T1400,1604A,122.0303,41.1489,盘锦市,开发区,臭氧1小时(O3_1h),67,47,31,21,19,173,173,141,141,13,10,9,8,0.5,0.5
2026-05-13T1400,1605A,122.0486,41.0883,盘锦市,兴隆台,细颗粒物(PM2.5),68,46,38,44,35,161,161,132,132,10,10,10,8,0.6,0.6
2026-05-13T1400,1606A,121.8297,41.1026,盘锦市,新生街道,细颗粒物(PM2.5),58,NA,27,39,36,124,124,114,114,41,17,5,4,0.4,0.4
2026-05-13T1400,1832A,113.3257,33.7423,平顶山市,新华旅馆,颗粒物(PM10),65,71,76,30,57,119,119,93,93,7,14,4,5,0.5,0.8
2026-05-13T1400,1833A,113.2917,33.737,平顶山市,规划设计院,,46,32,81,32,59,117,117,89,89,3,11,9,10,0.6,0.7
2026-05-13T1400,1834A,113.182,33.7738,平顶山市,平顶山工学院,,43,35,64,30,56,114,114,88,88,4,8,6,7,0.5,0.6
2026-05-13T1400,3594A,112.8736,33.9068,平顶山市,石龙区,,39,39,61,26,48,105,105,86,86,5,11,8,9,0.4,0.5
2026-05-13T1400,4116A,113.284,33.7139,平顶山市,姚电大道23号,,49,47,95,34,60,119,119,85,85,6,16,7,7,0.4,0.6
2026-05-13T1400,2656A,106.6633,35.5338,平凉市,聚贤嘉苑,颗粒物(PM10),51,51,48,20,17,110,110,70,70,9,16,11,9,0.5,0.6
2026-05-13T1400,2657A,106.7021,35.5307,平凉市,博物馆,,50,50,46,22,18,116,116,63,63,8,15,10,14,0.5,0.6
2026-05-13T1400,2348A,113.8384,27.6436,萍乡市,中医院,,36,36,26,6,26,66,66,57,57,10,12,5,6,0.5,0.7
2026-05-13T1400,2350A,113.8677,27.6438,萍乡市,市环保局,,20,11,27,11,30,63,63,54,54,11,12,12,11,0.5,0.7
2026-05-13T1400,2351A,113.8663,27.6202,萍乡市,安源区政府,,21,17,36,12,31,67,67,57,57,12,13,5,6,0.4,0.6
2026-05-13T1400,4107A,113.8686,27.6668,萍乡市,联洪村委会,,22,19,35,15,25,66,66,58,58,7,9,5,6,0.3,0.5
2026-05-13T1400,2319A,119.0142,25.4324,莆田市,荔城区仓后路,,25,14,30,7,15,78,78,70,70,11,18,/,/,/,/
2026-05-13T1400,2320A,119.0016,25.4553,莆田市,莆田市监测站,,26,8,25,3,2,83,83,62,62,6,11,3,4,0.5,0.6
2026-05-13T1400,2321A,119.112,25.4561,莆田市,涵江区六中,,27,11,25,3,15,84,84,61,61,10,23,/,/,0.7,0.6
2026-05-13T1400,2322A,119.1014,25.3215,莆田市,秀屿区政府,,27,13,24,9,15,85,85,76,76,9,10,4,5,0.7,0.5
2026-05-13T1400,2392A,115.0312,35.7636,濮阳市,环保局,颗粒物(PM10),52,52,61,28,37,129,129,100,100,6,11,5,5,0.6,0.6
2026-05-13T1400,3021A,115,35.7667,濮阳市,濮水河管理处,细颗粒物(PM2.5),60,59,65,40,36,125,125,97,97,6,10,4,5,0.7,0.7
2026-05-13T1400,4118A,115.0552,35.7816,濮阳市,中原东路68号,颗粒物(PM10),59,62,69,30,34,140,140,108,108,5,8,5,5,0.4,0.6
2026-05-13T1400,4216A,115.0923632,35.76857718,濮阳市,任丘路479号,NA,NA,55,61,29,38,131,131,98,98,NA,16,3,4,0.7,0.8
2026-05-13T1400,2601A,100.9801,22.7634,普洱市,市环保局,,27,26,24,14,11,86,86,60,60,5,4,4,4,0.6,0.7
2026-05-13T1400,2602A,100.9763,22.8237,普洱市,普洱第二中学,,29,28,24,9,9,90,90,69,69,3,4,6,5,0.6,0.7
2026-05-13T1400,3345A,131.0413,45.7795,七台河市,中波台,,38,38,142,25,81,111,111,100,100,6,16,3,5,0.4,0.6
2026-05-13T1400,3637A,131.0136,45.7688,七台河市,人民广场,,46,46,96,26,66,114,114,104,104,7,18,8,10,0.5,0.6
2026-05-13T1400,3684A,130.8639,45.8144,七台河市,新建矿广场,,48,48,90,24,70,111,111,101,101,10,17,8,9,0.7,0.7
2026-05-13T1400,1779A,123.9307,47.3641,齐齐哈尔市,安居小区,细颗粒物(PM2.5),70,59,78,45,36,160,160,118,118,8,10,10,8,0.7,0.7
2026-05-13T1400,1780A,123.9497,47.3389,齐齐哈尔市,中心广场,颗粒物(PM10),53,54,94,35,40,156,156,110,110,6,9,11,11,0.4,0.4
2026-05-13T1400,1781A,123.9483,47.3229,齐齐哈尔市,农牧车辆厂,臭氧1小时(O3_1h),64,48,77,20,34,171,171,123,123,8,11,7,6,0.1,0.2
2026-05-13T1400,1783A,123.9442,47.2994,齐齐哈尔市,市环境监测站,,50,37,78,22,38,159,159,115,115,9,11,5,4,0.5,0.5
2026-05-13T1400,3662A,123.6341,47.2079,齐齐哈尔市,富区青少年活动中心,NA,NA,NA,107,NA,41,NA,NA,130,NA,NA,8,NA,4,NA,0.5
2026-05-13T1400,2591A,107.9765,26.5724,黔东南苗族侗族自治州,市环境监测站,,29,22,30,20,25,55,55,37,37,2,4,2,2,0.5,0.6
2026-05-13T1400,2881A,107.8909,26.531,黔东南苗族侗族自治州,凯里学院,,26,24,31,18,23,80,80,49,49,4,7,1,2,0.5,0.6
2026-05-13T1400,2593A,107.5223,26.2371,黔南布依族苗族自治州,小围寨,,22,NA,13,11,13,70,70,51,51,3,6,4,6,0.4,0.6
2026-05-13T1400,3538A,107.5175,26.2977,黔南布依族苗族自治州,沙坝,,23,14,17,10,12,73,73,41,41,2,5,3,4,0.5,0.7
2026-05-13T1400,2589A,104.9022,25.0943,黔西南布依族苗族自治州,场坝街,,29,9,16,8,10,90,90,84,84,5,5,6,6,0.3,0.4
2026-05-13T1400,2590A,104.8812,25.0994,黔西南布依族苗族自治州,坪东大道,,31,15,20,3,10,99,99,73,73,4,9,4,4,0.2,0.4
2026-05-13T1400,2502A,108.6238,21.9667,钦州市,市环保站,,29,29,23,3,6,60,60,49,49,4,8,1,3,0.4,0.5
2026-05-13T1400,2503A,108.655,21.9481,钦州市,沙埠小学,,22,22,25,3,11,67,67,54,54,2,8,2,4,0.5,0.5
2026-05-13T1400,2504A,108.5989,21.7435,钦州市,港区一小,,47,47,34,14,13,52,52,48,48,5,7,2,2,0.5,0.5
2026-05-13T1400,3404A,108.5959,21.9634,钦州市,北职校,,30,30,26,8,9,61,61,49,49,2,6,2,3,0.5,0.5
2026-05-13T1400,1046A,119.5247,39.9346,秦皇岛市,建设大厦,颗粒物(PM10),73,81,49,34,24,157,157,103,103,17,14,9,6,0.7,0.4
2026-05-13T1400,3132A,119.5979,39.938,秦皇岛市,文明里,颗粒物(PM10),82,94,50,35,23,154,154,105,105,25,19,13,9,0.6,0.3
2026-05-13T1400,4066A,119.7458,39.9952,秦皇岛市,南园路157号,细颗粒物(PM2.5),70,59,45,45,24,157,157,101,101,19,22,11,8,0.6,0.3
2026-05-13T1400,4067A,119.5131,39.8858,秦皇岛市,翠岛大街1号,臭氧1小时(O3_1h),80,59,38,28,22,184,184,119,119,20,16,15,10,0.8,0.4
2026-05-13T1400,4198A,119.509013,39.825305,秦皇岛市,北戴河轮滑馆,颗粒物(PM10),66,72,37,33,20,156,156,104,104,23,16,10,8,0.6,0.3
2026-05-13T1400,1310A,120.404,36.0625,青岛市,市南区东部子站,,36,17,13,6,7,115,115,122,118,5,6,5,5,0.3,0.3
2026-05-13T1400,1311A,120.362344,36.10282,青岛市,四方区子站,,43,14,19,7,11,136,136,137,137,9,11,6,6,0.5,0.5
2026-05-13T1400,1312A,120.294373,36.054183,青岛市,市南区西部子站,,35,17,11,7,4,110,110,121,113,20,13,5,4,0.4,0.4
2026-05-13T1400,1313A,120.4581,36.0858,青岛市,崂山区子站,,41,6,7,3,6,130,130,134,131,4,4,8,8,0.3,0.3
2026-05-13T1400,1315A,120.3945,36.3083,青岛市,城阳区子站,,45,29,40,3,16,141,141,129,129,10,18,6,7,0.6,0.7
2026-05-13T1400,3642A,120.3454,36.0735,青岛市,市北区南部,,43,13,14,7,5,135,135,137,136,2,2,2,2,0.6,0.6
2026-05-13T1400,3643A,120.3897,36.18,青岛市,李沧区北部,,40,22,27,7,12,126,126,119,118,11,17,9,9,0.5,0.6
2026-05-13T1400,4110A,120.5222,36.4089,青岛市,盟旺路653号,,49,29,27,6,13,154,154,126,126,7,9,4,4,0.5,0.6
2026-05-13T1400,4290A,120.196923,35.954556,青岛市,珠江路669号,,40,17,14,9,8,126,126,136,128,22,12,4,4,0.5,0.6
2026-05-13T1400,4291A,120.0424,35.8656,青岛市,黄岛区人民政府广场,,43,14,17,3,9,136,136,131,131,13,12,8,8,0.6,0.5
2026-05-13T1400,1703A,113.0218,23.7086,清远市,凤城街办,,33,26,58,15,41,104,104,57,57,11,23,/,/,/,/
2026-05-13T1400,3025A,113.0479,23.6343,清远市,技师学院,,35,20,57,12,39,112,112,64,64,10,30,6,6,0.2,0.5
2026-05-13T1400,3318A,112.9898,23.7403,清远市,清新太和,,35,32,56,21,39,111,111,62,62,14,19,12,9,0.5,0.6
2026-05-13T1400,3455A,113.076,23.72,清远市,清城东城,,36,32,65,22,43,114,114,64,64,11,24,/,/,/,/
2026-05-13T1400,2661A,107.6325,35.7357,庆阳市,庆阳五中,,37,37,40,16,16,102,102,84,84,5,8,4,3,0.3,0.3
2026-05-13T1400,2662A,107.6361,35.7067,庆阳市,市环保局,,36,32,37,16,16,114,114,95,95,7,10,4,2,0.3,0.3
2026-05-13T1400,1916A,103.7897,25.5036,曲靖市,环境监测站,,33,30,15,3,6,104,104,80,80,4,6,5,4,0.5,0.5
2026-05-13T1400,1917A,103.8013,25.5357,曲靖市,烟厂办公区,,31,9,12,3,6,99,99,77,77,5,6,6,5,0.4,0.4
2026-05-13T1400,3376A,103.7926,25.4651,曲靖市,南苑二区,,30,9,7,9,6,96,96,76,76,6,7,4,4,0.2,0.3
2026-05-13T1400,3377A,103.7442,25.5259,曲靖市,曲靖师范学院,,32,7,14,6,10,100,100,76,76,6,10,2,3,0.3,0.3
2026-05-13T1400,1264A,118.8694,28.94,衢州市,环保大楼,细颗粒物(PM2.5),82,71,67,51,46,105,105,56,56,14,28,/,/,/,/
2026-05-13T1400,1266A,118.8622,28.9809,衢州市,衢州学院,细颗粒物(PM2.5),90,73,53,55,36,101,101,39,39,19,40,13,8,0.7,0.6
2026-05-13T1400,4097A,118.9646,28.9832,衢州市,衢州三中,,45,43,62,31,40,114,114,46,46,8,32,12,13,0.7,0.7
2026-05-13T1400,1611A,118.5818,24.9116,泉州市,涂山街,,24,23,34,9,22,76,76,56,56,13,23,3,4,0.5,0.6
2026-05-13T1400,1612A,118.597,24.8976,泉州市,津头埔,,30,30,33,9,20,84,84,60,60,10,21,3,4,0.4,0.5
2026-05-13T1400,1613A,118.6669,24.9422,泉州市,万安,,25,20,30,7,18,79,79,54,54,8,16,4,4,0.3,0.4
2026-05-13T1400,4105A,118.6355,24.9148,泉州市,霞新路6号,,25,15,28,6,19,77,77,52,52,12,25,/,/,0.5,0.6
2026-05-13T1400,2626A,88.8873,29.2723,日喀则市,日喀则监测站,,35,10,13,3,5,110,110,96,96,4,5,9,8,0.4,0.4
2026-05-13T1400,3726A,88.8775,29.2425,日喀则市,林业技术推广中心,,35,6,13,3,2,112,112,102,102,2,4,8,8,0.3,0.3
2026-05-13T1400,1659A,119.4711,35.421,日照市,监测站,,47,22,41,10,25,148,148,122,122,16,32,8,9,0.5,0.6
2026-05-13T1400,1660A,119.523,35.4216,日照市,市政府广场,,45,17,38,7,22,144,144,126,126,9,20,5,5,0.7,0.7
2026-05-13T1400,1661A,119.5511,35.4113,日照市,港务局,,47,22,28,7,18,150,150,141,141,6,12,4,5,0.6,0.7
2026-05-13T1400,3507A,119.5326,35.4627,日照市,职业技术学院,,48,24,33,10,19,153,153,137,137,13,17,7,7,0.6,0.6
2026-05-13T1400,3604A,119.3267,35.1043,日照市,岚山环保分局,,48,39,49,12,24,151,151,118,118,18,20,10,10,0.6,0.7
2026-05-13T1400,1835A,111.1922,34.7752,三门峡市,市政府,细颗粒物(PM2.5),62,64,75,41,52,123,123,94,94,8,13,11,11,0.5,0.7
2026-05-13T1400,1836A,111.1588,34.794,三门峡市,开发区,细颗粒物(PM2.5),70,58,84,45,54,134,134,101,101,11,15,11,13,0.6,0.6
2026-05-13T1400,3039A,111.1911,34.7829,三门峡市,三门峡市第一小学,颗粒物(PM10),68,74,82,43,53,127,127,96,96,8,14,11,11,0.5,0.6
2026-05-13T1400,3598A,111.1031,34.719,三门峡市,富达温泉假日酒店,颗粒物(PM10),80,92,87,36,53,135,135,90,90,10,13,17,13,0.8,0.8
2026-05-13T1400,2324A,117.621,26.2626,三明市,三钢,,24,20,28,6,20,76,76,52,52,9,15,5,6,0.4,0.5
2026-05-13T1400,2325A,117.6352,26.2714,三明市,三明二中,,23,11,31,10,22,73,73,46,46,8,13,2,2,0.4,0.6
2026-05-13T1400,2326A,117.6028,26.2377,三明市,三元区政府,,24,20,32,10,23,74,74,46,46,9,13,5,6,0.7,0.8
2026-05-13T1400,1877A,109.4962,18.2682,三亚市,河西子站,,17,17,17,7,9,51,51,45,45,2,5,4,4,0.3,0.3
2026-05-13T1400,3540A,109.7348,18.3443,三亚市,君悦子站,,17,NA,15,7,7,53,53,44,44,3,8,3,3,0.4,0.4
2026-05-13T1400,4135A,109.1714,18.3739,三亚市,城东小学站,,17,14,23,7,11,53,53,42,42,3,7,/,/,/,/
2026-05-13T1400,2624A,91.7592,29.234,山南市,山南监测站,,38,9,12,7,6,119,119,104,97,3,4,8,7,0.2,0.2
2026-05-13T1400,2625A,91.7701,29.2436,山南市,山南人民医院,,38,9,16,3,6,120,120,99,98,1,3,6,7,0.2,0.2
2026-05-13T1400,1674A,116.6795,23.3666,汕头市,金平子站,,40,23,36,7,32,126,126,141,118,8,9,4,5,0.6,0.7
2026-05-13T1400,1675A,116.7248,23.3632,汕头市,龙湖子站,,36,22,35,6,32,114,114,126,110,2,4,6,6,/,/
2026-05-13T1400,1676A,116.7257,23.2774,汕头市,濠江子站,,33,18,41,3,31,103,103,104,97,9,12,7,8,/,/
2026-05-13T1400,1677A,116.7518,23.4712,汕头市,澄海子站,,40,25,42,9,33,128,128,126,124,9,9,7,7,0.8,0.8
2026-05-13T1400,1678A,116.6088,23.2539,汕头市,潮阳子站,,32,14,35,6,32,102,102,125,100,1,6,6,7,0.5,0.8
2026-05-13T1400,3444A,116.4539,23.2684,汕头市,潮南峡山,,32,6,54,3,42,102,102,122,96,2,4,7,7,0.7,0.8
2026-05-13T1400,3624A,116.4069,23.2533,汕头市,潮南子站,,30,6,54,3,42,94,94,114,88,5,9,5,6,/,/
2026-05-13T1400,1693A,115.3653,22.7751,汕尾市,市环保局,,29,10,19,3,7,92,92,84,84,3,5,5,5,0.5,0.6
2026-05-13T1400,1695A,115.362,22.7926,汕尾市,新城中学,,29,20,17,3,8,91,91,87,87,2,5,6,6,0.4,0.5
2026-05-13T1400,2645A,109.9155,33.8714,商洛市,监测站,,38,29,66,18,46,121,121,106,106,4,11,6,7,0.6,0.8
2026-05-13T1400,3045A,109.9647,33.8486,商洛市,商州区中学,,46,46,64,19,46,122,122,105,105,4,11,8,8,0.5,0.7
2026-05-13T1400,2408A,115.6701,34.4283,商丘市,环境监测站,颗粒物(PM10),53,54,61,24,33,128,128,119,119,2,4,4,5,0.4,0.5
2026-05-13T1400,2409A,115.6458,34.4047,商丘市,粮食局,颗粒物(PM10),55,56,61,26,34,124,124,113,113,5,8,6,7,0.4,0.5
2026-05-13T1400,3171A,115.6069,34.4465,商丘市,梁园区档案局,,46,46,57,27,35,123,123,110,110,2,5,3,3,0.4,0.4
2026-05-13T1400,4119A,115.6701,34.3767,商丘市,北海东路185号,,39,32,59,22,36,122,122,107,107,2,6,4,4,0.5,0.5
2026-05-13T1400,4120A,115.6172,34.3704,商丘市,中山大街3号,,38,37,66,23,35,121,121,104,104,5,9,5,6,0.4,0.5
2026-05-13T1400,1141A,121.401,31.2382,上海市,普陀,,35,21,40,9,28,111,111,86,86,20,24,6,6,0.4,0.5
2026-05-13T1400,1142A,121.4774,31.2043,上海市,十五厂,,34,18,35,9,25,108,108,80,80,17,22,6,6,0.5,0.6
2026-05-13T1400,1143A,121.4673,31.3011,上海市,虹口,,35,12,38,9,28,109,109,81,81,16,27,4,5,0.8,0.8
2026-05-13T1400,1147A,121.4253,31.226,上海市,静安监测站,,35,18,36,10,26,112,112,86,86,20,27,8,8,0.7,0.7
2026-05-13T1400,1148A,121.7029,31.1905,上海市,浦东川沙,,27,17,23,10,16,86,86,80,80,28,23,9,9,0.6,0.6
2026-05-13T1400,1149A,121.5339,31.229,上海市,浦东新区监测站,,30,11,31,8,23,96,96,76,76,17,20,6,6,0.4,0.5
2026-05-13T1400,1150A,121.5776,31.2038,上海市,浦东张江,,33,13,31,9,22,104,104,82,82,19,20,7,6,0,0.2
2026-05-13T1400,3265A,121.4242,31.3303,上海市,宝山庙行,,39,18,52,8,27,123,123,78,78,13,34,7,8,0.3,0.3
2026-05-13T1400,3266A,121.8789,31.4662,上海市,崇明上实东滩,,28,8,21,7,14,89,89,91,86,12,8,4,4,0.2,0.3
2026-05-13T1400,3268A,121.316,31.2839,上海市,嘉定南翔,,37,15,43,9,30,116,116,82,82,20,31,5,5,0.4,0.5
2026-05-13T1400,3269A,121.3357,30.7455,上海市,金山新城,,31,10,18,8,14,97,97,73,73,10,14,4,4,0.6,0.6
2026-05-13T1400,3270A,121.4996,31.0741,上海市,闵行浦江,,34,12,38,8,24,106,106,82,82,19,23,7,6,0.3,0.3
