timepoint,stationcode,longitude,latitude,area,positionname,primarypollutant,aqi,pm10,pm10_24h,pm2_5,pm2_5_24h,o3,o3_24h,o3_8h,o3_8h_24h,no2,no2_24h,so2,so2_24h,co,co_24h
2026-04-10T2200,2568A,102.2503,31.8896,阿坝藏族羌族自治州,马师校,,37,17,18,3,6,116,116,124,124,4,6,6,5,0.4,0.4
2026-04-10T2200,3994A,102.2174,31.9016,阿坝藏族羌族自治州,马尔康中学西区,,35,13,11,3,6,109,109,114,114,6,6,3,4,0.3,0.3
2026-04-10T2200,2695A,80.2899,41.1684,阿克苏地区,电视台,颗粒物(PM10),146,238,176,96,62,92,92,118,115,18,25,4,5,0.5,0.6
2026-04-10T2200,2696A,80.2592,41.1541,阿克苏地区,艺术中心,细颗粒物(PM2.5),139,201,177,102,72,89,89,122,119,20,38,3,6,0.4,0.5
2026-04-10T2200,2205A,105.699,38.8409,阿拉善盟,蒙二幼,,50,50,43,10,8,135,135,127,127,7,5,12,9,0.6,0.5
2026-04-10T2200,2206A,105.7198,38.8508,阿拉善盟,环保局新楼,,42,35,38,6,7,133,133,118,118,6,5,11,9,0.6,0.6
2026-04-10T2200,2708A,88.1266,47.8515,阿勒泰地区,市站,,26,16,17,3,2,81,81,105,90,3,6,6,5,0.2,0.2
2026-04-10T2200,4166A,88.1198,47.7931,阿勒泰地区,阿勒泰路33号,,25,20,21,3,2,80,80,99,87,3,5,6,6,0.2,0.2
2026-04-10T2200,2630A,80.1171,32.4999,阿里地区,阿里监测站,臭氧1小时(O3_1h),54,17,13,3,4,163,163,168,168,1,4,6,6,0.4,0.4
2026-04-10T2200,3192A,80.0906,32.5029,阿里地区,阿里藏医院,臭氧1小时(O3_1h),59,18,11,6,3,167,167,174,174,1,2,6,7,0.4,0.4
2026-04-10T2200,2644A,109.0088,32.6974,安康市,汉滨区检察院,,34,34,39,13,20,80,80,56,46,12,16,5,8,0.3,0.5
2026-04-10T2200,4054A,109.0324,32.6913,安康市,市邮政管理局,,42,42,48,17,23,66,66,60,44,18,18,6,14,0.6,0.7
2026-04-10T2200,2291A,117.0806,30.5181,安庆市,环科院,,38,38,23,22,18,62,62,111,99,21,21,6,6,0.5,0.4
2026-04-10T2200,2292A,117.0331,30.5118,安庆市,马山宾馆,,38,38,21,23,19,56,56,97,88,18,18,5,5,0.7,0.6
2026-04-10T2200,2294A,116.9897,30.6146,安庆市,安庆大学,颗粒物(PM10),58,60,27,14,18,60,60,105,94,20,10,3,3,0.5,0.4
2026-04-10T2200,3173A,117.0598,30.5351,安庆市,市人大,,38,37,28,26,21,50,50,111,90,26,23,7,8,0.5,0.5
2026-04-10T2200,3123A,105.9408,26.2431,安顺市,凤凰山,,40,40,28,24,19,117,117,141,136,11,10,7,7,0.5,0.4
2026-04-10T2200,3124A,105.9443,26.2567,安顺市,金钟山,,36,36,26,25,20,109,109,129,124,8,8,6,7,0.4,0.5
2026-04-10T2200,3125A,105.8983,26.248,安顺市,娄家坡,,39,34,26,27,18,110,110,130,126,7,7,11,11,0.5,0.4
2026-04-10T2200,1819A,114.3552,36.1017,安阳市,红庙街,颗粒物(PM10),59,62,54,28,40,85,85,114,108,19,16,5,4,0.3,0.4
2026-04-10T2200,1820A,114.361,36.0681,安阳市,银杏小区,颗粒物(PM10),64,69,56,31,41,80,80,114,106,18,11,6,4,0.2,0.3
2026-04-10T2200,3141A,114.3921,36.0879,安阳市,信访局,颗粒物(PM10),60,64,52,25,42,98,98,118,114,11,12,6,3,0.7,0.6
2026-04-10T2200,3669A,114.4706,36.0634,安阳市,左辅环卫站,颗粒物(PM10),60,64,66,33,42,77,77,110,99,16,14,3,3,0.3,0.5
2026-04-10T2200,4117A,114.2918,36.0769,安阳市,钢三路198号,,47,47,45,18,41,81,81,114,105,17,12,4,3,0.4,0.6
2026-04-10T2200,1748A,123.0441,41.1201,鞍山市,深沟寺,,43,40,69,30,47,80,80,84,84,19,29,12,11,0.9,1.2
2026-04-10T2200,1749A,123.011,41.0931,鞍山市,太阳城,,45,42,68,31,48,70,70,80,80,24,26,14,9,2.8,1.1
2026-04-10T2200,1750A,123.0483,41.1445,鞍山市,太平,,39,39,76,25,48,84,84,85,85,17,30,9,14,0.7,1.5
2026-04-10T2200,1751A,122.964,41.0968,鞍山市,铁西三道街,,46,43,69,32,51,82,82,83,83,19,30,18,9,1.7,1
2026-04-10T2200,1753A,123.0219,41.0822,鞍山市,明达新区,,40,36,63,28,45,74,74,82,82,23,27,13,9,2.1,1
2026-04-10T2200,4201A,122.944647,41.082639,鞍山市,兴盛南路290号,,49,44,74,34,52,81,81,86,86,22,30,9,9,1.0,1
2026-04-10T2200,2195A,107.4206,40.7609,巴彦淖尔市,附二中,颗粒物(PM10),62,66,65,21,19,75,75,113,105,26,10,9,10,0.4,0.3
2026-04-10T2200,2196A,107.37,40.7372,巴彦淖尔市,市环保大楼,颗粒物(PM10),52,52,61,10,16,84,84,113,106,17,10,6,6,0.3,0.3
2026-04-10T2200,1956A,86.1476,41.7529,巴音郭楞蒙古自治州,孔雀公园,颗粒物(PM10),134,208,84,78,26,93,93,118,113,12,7,10,12,0.3,0.3
2026-04-10T2200,1957A,86.1971,41.7166,巴音郭楞蒙古自治州,棉纺厂,颗粒物(PM10),151,252,83,76,21,96,96,126,121,14,9,/,/,/,/
2026-04-10T2200,1958A,86.236,41.7172,巴音郭楞蒙古自治州,经济开发区,细颗粒物(PM2.5),144,217,72,108,21,83,83,112,108,17,5,8,9,0.4,0.3
2026-04-10T2200,3181A,106.776805,31.852614,巴中市,市五中,,35,35,36,18,21,36,36,34,34,8,16,8,8,0.6,0.8
2026-04-10T2200,3183A,106.7419,31.8654,巴中市,圣泉水务公司,,33,33,31,18,18,32,32,43,40,14,16,8,8,0.6,0.7
2026-04-10T2200,3616A,106.7617,31.8343,巴中市,市中心医院,,46,46,37,22,20,21,21,43,40,19,17,8,8,0.6,0.7
2026-04-10T2200,2235A,122.7909,45.608,白城市,洮北区环保局,,34,34,39,11,21,76,76,94,88,8,15,5,7,0.1,0.2
2026-04-10T2200,2236A,122.8741,45.5725,白城市,市环保局,,23,9,34,9,21,72,72,89,81,14,18,4,6,0.0,0.1
2026-04-10T2200,2231A,126.4219,41.9172,白山市,喜丰,,29,26,44,20,32,68,68,70,68,13,18,6,7,0.8,1
2026-04-10T2200,2232A,126.4082,41.9416,白山市,环保局,,26,25,37,12,33,81,81,72,72,11,18,10,10,0.8,1
2026-04-10T2200,2647A,104.1727,36.5448,白银市,第三小学,颗粒物(PM10),63,67,60,24,18,73,73,102,96,26,16,5,21,0.4,0.4
2026-04-10T2200,2648A,104.1467,36.5482,白银市,动力公司,颗粒物(PM10),57,59,55,18,14,87,87,106,101,17,14,5,11,0.3,0.3
2026-04-10T2200,2512A,106.6102,23.901,百色市,市监测站,细颗粒物(PM2.5),68,57,57,44,37,57,57,128,100,28,20,10,12,0.6,0.5
2026-04-10T2200,2513A,106.6524,23.8842,百色市,市中心血站,细颗粒物(PM2.5),62,42,64,41,47,94,94,130,110,16,25,9,12,0.6,0.8
2026-04-10T2200,4133A,106.6273,23.8798,百色市,龙景西路,细颗粒物(PM2.5),60,50,58,40,45,102,102,143,125,16,21,12,14,0.6,0.6
2026-04-10T2200,2270A,117.396,32.9389,蚌埠市,工人疗养院,颗粒物(PM10),72,80,68,20,32,68,68,122,105,44,21,5,5,0.6,0.6
2026-04-10T2200,2271A,117.3606,32.9428,蚌埠市,百货大楼,颗粒物(PM10),66,72,55,22,25,54,54,118,102,46,17,6,6,0.7,0.7
2026-04-10T2200,2273A,117.4183,32.8909,蚌埠市,蚌埠学院,颗粒物(PM10),68,75,60,20,26,60,60,129,100,35,19,5,6,0.6,0.6
2026-04-10T2200,2274A,117.3534,32.9672,蚌埠市,淮上区政府,颗粒物(PM10),70,78,55,24,27,76,76,121,111,34,18,5,5,0.5,0.5
2026-04-10T2200,2275A,117.3143,32.8977,蚌埠市,高新区,颗粒物(PM10),74,83,53,25,26,45,45,111,98,41,18,8,8,0.6,0.7
2026-04-10T2200,3715A,117.3091,32.9314,蚌埠市,蚌埠田家炳中学,颗粒物(PM10),78,88,63,28,27,65,65,121,109,33,19,5,9,0.6,0.6
2026-04-10T2200,1585A,109.8761,40.6533,包头市,市环境监测站,颗粒物(PM10),62,66,54,30,18,19,19,121,97,91,35,7,10,0.8,0.6
2026-04-10T2200,1587A,109.9992,40.5843,包头市,包头八中,颗粒物(PM10),74,83,54,37,20,11,11,115,90,88,35,9,14,0.7,0.6
2026-04-10T2200,1589A,109.8641,40.6288,包头市,惠龙物流,细颗粒物(PM2.5),64,64,46,42,20,37,37,114,96,68,33,19,11,0.9,0.6
2026-04-10T2200,1590A,110.0376,40.5546,包头市,东河鸿龙湾,细颗粒物(PM2.5),80,79,60,50,24,26,26,117,99,95,39,14,16,0.8,0.6
2026-04-10T2200,3283A,109.9154,40.5684,包头市,滨河大厦,颗粒物(PM10),59,62,47,25,19,62,62,117,104,37,33,8,14,0.5,0.6
2026-04-10T2200,3419A,109.9449,40.6259,包头市,包头市委党校,,49,49,38,19,14,38,38,118,103,66,32,7,9,0.4,0.4
2026-04-10T2200,3683A,109.8332,40.6577,包头市,昆区政府,"颗粒物(PM10),细颗粒物(PM2.5)",60,64,44,40,18,7,7,121,98,109,36,6,9,1.1,0.8
2026-04-10T2200,1931A,107.0802,34.3129,宝鸡市,竹园沟,,50,50,64,24,29,68,68,112,102,19,18,7,8,0.4,0.4
2026-04-10T2200,1933A,107.1429,34.3549,宝鸡市,监测站,颗粒物(PM10),72,80,72,41,30,56,56,105,96,26,21,6,7,0.4,0.3
2026-04-10T2200,1934A,107.1172,34.3759,宝鸡市,技工学校,颗粒物(PM10),70,77,74,33,34,61,61,106,98,22,16,6,6,0.6,0.5
2026-04-10T2200,1936A,107.2025,34.3518,宝鸡市,文理学院,颗粒物(PM10),75,84,73,35,33,52,52,105,92,30,20,5,7,0.5,0.5
2026-04-10T2200,1937A,107.2396,34.3626,宝鸡市,三迪小学,颗粒物(PM10),72,80,78,30,32,37,37,101,94,50,23,5,7,0.6,0.5
2026-04-10T2200,4155A,107.1721,34.3558,宝鸡市,滨河北路,,45,45,42,30,32,53,53,99,90,30,20,6,8,0.6,0.5
2026-04-10T2200,4308A,107.3898,34.3601,宝鸡市,陈仓区北开路21号,颗粒物(PM10),79,90,88,34,36,37,37,102,95,48,22,8,20,0.6,0.6
2026-04-10T2200,1051A,115.4803,38.8568,保定市,游泳馆,颗粒物(PM10),55,56,49,24,28,86,86,113,108,19,18,2,2,0.3,0.3
2026-04-10T2200,1052A,115.509,38.8895,保定市,华电二区,颗粒物(PM10),51,51,46,17,27,91,91,116,112,16,14,3,2,0.2,0.3
2026-04-10T2200,1053A,115.4588,38.9037,保定市,接待中心,颗粒物(PM10),56,58,52,26,28,90,90,114,109,12,11,1,3,0.1,0.2
2026-04-10T2200,1054A,115.4484,38.8344,保定市,地表水厂,颗粒物(PM10),65,70,57,19,27,69,69,115,103,33,20,4,3,0.2,0.3
2026-04-10T2200,3581A,115.3136,38.9511,保定市,满城区生态环境分局,颗粒物(PM10),60,63,48,17,21,88,88,120,115,18,14,3,2,0.2,0.3
2026-04-10T2200,3582A,115.4709,38.7628,保定市,清苑区第二中学,颗粒物(PM10),64,69,54,22,19,79,79,112,105,21,11,4,4,0.3,0.3
2026-04-10T2200,3583A,115.6231,39.0223,保定市,徐水物探局,颗粒物(PM10),60,64,63,19,30,87,87,110,106,16,19,3,2,0.1,0.3
2026-04-10T2200,4004A,115.4199,38.8665,保定市,双鹰农机,颗粒物(PM10),65,70,54,26,32,90,90,115,110,18,18,8,4,0.2,0.3
2026-04-10T2200,4034A,115.515,38.8589,保定市,植保所站,颗粒物(PM10),58,60,71,17,31,84,84,108,104,20,20,3,3,0.4,0.4
2026-04-10T2200,2594A,99.1589,25.1137,保山市,市环境监测站,,39,39,26,9,16,94,94,107,104,6,7,5,5,0.2,0.2
2026-04-10T2200,2595A,99.1616,25.1381,保山市,市环保局,,34,34,27,14,19,93,93,108,105,4,5,6,6,0.3,0.3
2026-04-10T2200,1867A,109.1435,21.4085,北海市,海滩公园,颗粒物(PM10),55,57,49,28,18,90,90,75,75,6,8,6,6,0.5,0.5
2026-04-10T2200,1868A,109.0983,21.466,北海市,新市环保局,,41,41,39,22,21,80,80,76,76,10,8,9,9,0.5,0.5
2026-04-10T2200,1869A,109.1775,21.5232,北海市,北海工业园,颗粒物(PM10),55,56,52,29,24,63,63,70,70,18,13,6,8,0.7,0.6
2026-04-10T2200,3400A,109.1844,21.4396,北海市,龙潭自来水厂,,43,43,42,26,20,84,84,77,77,5,9,6,6,0.8,0.8
2026-04-10T2200,1001A,116.3611,39.8786,北京市,万寿西宫,,33,33,41,19,32,55,55,106,97,48,22,3,2,0.5,0.5
2026-04-10T2200,1003A,116.4174,39.9289,北京市,东四,颗粒物(PM10),51,51,42,20,33,62,62,120,112,50,20,2,6,0.6,0.5
2026-04-10T2200,1004A,116.4073,39.8858,北京市,天坛,,38,38,38,18,32,38,38,94,85,25,16,3,3,0.7,0.7
2026-04-10T2200,1005A,116.4622,39.9364,北京市,农展馆,,48,48,44,21,34,54,54,116,107,41,19,2,2,0.8,0.7
2026-04-10T2200,1006A,116.3399,39.9293,北京市,官园,,27,27,41,11,35,68,68,99,95,31,21,2,2,0.4,0.6
2026-04-10T2200,1007A,116.2879,39.9613,北京市,海淀万柳,,23,23,36,6,29,40,40,88,79,46,23,3,3,0.4,0.5
2026-04-10T2200,1008A,116.6635,40.1349,北京市,顺义新城,,18,14,36,8,31,50,50,103,93,36,19,4,4,0.4,0.6
2026-04-10T2200,1009A,116.6275,40.327,北京市,怀柔镇,,24,7,36,3,28,76,76,98,94,12,16,4,4,0.4,0.7
2026-04-10T2200,1010A,116.2295,40.217,北京市,昌平镇,,39,27,35,12,28,24,24,96,87,77,24,3,2,0.3,0.3
2026-04-10T2200,1011A,116.3968,39.982,北京市,奥体中心,,35,35,40,12,28,52,52,104,93,47,24,3,3,0.8,0.7
2026-04-10T2200,3418A,116.8336,40.4095,北京市,密云新城,,17,15,33,3,24,54,54,102,96,30,9,3,3,0.2,0.5
2026-04-10T2200,3671A,116.0879,39.9725,北京市,门头沟三家店,,21,12,28,3,21,67,67,102,94,24,20,2,2,0.2,0.5
2026-04-10T2200,3672A,116.1507,39.8246,北京市,丰台云岗,,39,39,43,14,34,67,67,109,102,36,19,3,2,0.4,0.6
2026-04-10T2200,3674A,115.9578,39.7602,北京市,房山燕山,,24,23,34,11,31,75,75,95,93,12,16,4,3,0.4,0.6
2026-04-10T2200,3675A,116.4669,39.7734,北京市,大兴旧宫,,40,40,44,14,32,79,79,114,111,24,17,4,3,0.4,0.5
2026-04-10T2200,3694A,115.9859,40.4562,北京市,延庆石河营,,26,10,14,3,11,81,81,104,100,12,12,1,1,0.2,0.4
2026-04-10T2200,3695A,116.6151,40.3052,北京市,怀柔新城,,25,6,27,3,17,78,78,94,93,7,13,3,3,0.3,0.6
2026-04-10T2200,3696A,116.2542,39.8764,北京市,丰台小屯,,38,38,43,13,28,40,40,104,92,63,26,2,2,0.3,0.5
2026-04-10T2200,3697A,116.8399,40.3843,北京市,密云镇,,18,10,37,3,32,56,56,102,95,29,13,4,4,0.3,0.5
2026-04-10T2200,4057A,115.9423,40.4431,北京市,延庆百泉,,29,7,13,3,10,91,91,102,100,7,9,3,2,0.2,0.4
2026-04-10T2200,4058A,116.6598,39.9164,北京市,通州新华,,49,49,47,16,35,72,72,100,97,34,24,3,2,0.4,0.5
2026-04-10T2200,4182A,116.1942,39.9158,北京市,石景山八角,,25,25,46,7,30,77,77,95,93,21,23,5,4,0.3,0.6
2026-04-10T2200,4194A,117.078628,40.151726,北京市,平谷新城,,18,17,40,9,37,56,56,116,107,34,17,3,3,0.4,0.6
2026-04-10T2200,1761A,123.8274146,41.31234549,本溪市,大峪,颗粒物(PM10),55,56,73,26,39,60,60,71,64,21,24,7,7,1.0,1
2026-04-10T2200,1763A,123.7169,41.3094,本溪市,彩屯,,48,47,66,33,48,71,71,87,69,20,22,10,10,0.8,0.7
2026-04-10T2200,1764A,123.7672166,41.28649327,本溪市,东明,,49,44,61,34,47,49,49,73,67,30,34,11,11,1.2,1.3
2026-04-10T2200,1765A,123.799345,41.266614,本溪市,新立屯,,43,36,58,30,45,50,50,78,60,25,30,8,9,0.9,1
2026-04-10T2200,1766A,123.829144,41.336777,本溪市,威宁,,49,49,62,22,40,56,56,74,60,27,31,7,7,0.9,0.7
2026-04-10T2200,2587A,105.287,27.3133,毕节市,八中,颗粒物(PM10),57,59,41,30,22,58,58,82,75,9,11,10,11,0.6,0.6
2026-04-10T2200,2588A,105.3079,27.2987,毕节市,师专,颗粒物(PM10),53,54,38,28,21,75,75,98,89,7,8,9,10,0.6,0.5
2026-04-10T2200,4263A,105.3688,27.3598,毕节市,工业大道,,48,48,45,29,24,82,82,110,102,13,11,10,11,/,/
2026-04-10T2200,1629A,117.9961,37.3604,滨州市,第二水厂,颗粒物(PM10),63,68,83,38,61,87,87,110,107,23,17,11,10,0.6,0.7
2026-04-10T2200,1630A,117.9789,37.3931,滨州市,北中新校,颗粒物(PM10),58,61,78,33,51,102,102,112,112,20,18,12,9,0.5,0.5
2026-04-10T2200,3514A,117.9379,37.3959,滨州市,中海酒店,颗粒物(PM10),65,70,69,31,47,95,95,116,114,29,22,15,10,0.6,0.6
2026-04-10T2200,3515A,117.9381509,37.35547456,滨州市,开发区一中,细颗粒物(PM2.5),68,70,86,44,62,79,79,104,101,29,22,12,11,0.8,0.8
2026-04-10T2200,3516A,118.0914,37.6938,滨州市,金海六路,颗粒物(PM10),67,73,59,42,47,80,80,116,107,32,17,8,7,0.6,0.5
2026-04-10T2200,4028A,117.9955,37.3752,滨州市,滨州市西街道办事处,颗粒物(PM10),65,70,77,33,55,95,95,113,111,16,13,11,10,0.7,0.6
2026-04-10T2200,2311A,115.8071,33.8399,亳州市,污水处理厂,颗粒物(PM10),58,60,49,19,20,72,72,114,104,25,18,8,5,0.1,0.2
2026-04-10T2200,2312A,115.7789,33.8519,亳州市,三国揽胜宫,颗粒物(PM10),65,70,45,23,21,59,59,108,96,28,13,8,6,0.2,0.3
2026-04-10T2200,3332A,115.7631,33.803,亳州市,亳州学院,颗粒物(PM10),61,65,50,18,22,75,75,114,104,19,10,6,6,0.3,0.3
2026-04-10T2200,2693A,82.0482,44.8553,博尔塔拉蒙古自治州,市党校,颗粒物(PM10),69,76,269,8,27,69,69,84,75,9,4,3,3,0.2,0.3
2026-04-10T2200,2694A,82.0805,44.8966,博尔塔拉蒙古自治州,市环保局,颗粒物(PM10),63,68,291,15,34,60,60,72,66,19,11,3,3,0.3,0.2
2026-04-10T2200,1071A,116.8733,38.2922,沧州市,沧县城建局,颗粒物(PM10),60,64,59,31,44,89,89,113,104,24,22,5,2,0.4,0.3
2026-04-10T2200,1072A,116.8462,38.3189,沧州市,电视转播站,颗粒物(PM10),55,56,57,27,36,102,102,118,116,16,18,6,7,0.4,0.4
2026-04-10T2200,1073A,116.8588,38.3161,沧州市,市环保局,颗粒物(PM10),57,59,61,23,37,104,104,122,117,16,16,11,11,0.3,0.4
2026-04-10T2200,3324A,116.8011,38.294,沧州市,河北水利电力学院,颗粒物(PM10),55,56,53,34,38,89,89,109,101,20,18,6,6,0.2,0.2
2026-04-10T2200,2622A,97.1813,31.1289,昌都市,昌都监测站,,48,6,11,3,3,152,152,157,157,4,9,6,7,0.1,0.1
2026-04-10T2200,3719A,97.1707,31.1428,昌都市,昌都会议中心,,49,7,10,3,4,154,154,160,160,4,6,4,5,0.1,0.2
2026-04-10T2200,2692A,87.2722,44.0298,昌吉回族自治州,新区政务中心,颗粒物(PM10),140,222,226,38,40,69,69,100,96,10,13,6,6,0.1,0.2
2026-04-10T2200,3613A,87.3069,44.0093,昌吉回族自治州,亚心广场,颗粒物(PM10),153,256,304,42,43,71,71,102,97,9,13,7,7,0.2,0.3
2026-04-10T2200,4164A,87.2057,43.9289,昌吉回族自治州,财政所,颗粒物(PM10),122,177,278,33,32,72,72,101,97,1,6,7,7,0.1,0.2
2026-04-10T2200,1120A,125.2874,43.9024,长春市,客车厂,,26,22,38,10,44,82,82,73,71,9,26,6,7,0.3,0.5
2026-04-10T2200,1121A,125.2943,43.8508,长春市,邮电学院,,27,25,43,11,47,84,84,79,76,6,19,6,8,0.1,0.4
2026-04-10T2200,1122A,125.3648,43.8745,长春市,劳动公园,NA,NA,NA,54,17,50,76,76,73,69,9,22,6,8,0.4,0.8
2026-04-10T2200,1123A,125.3233,43.8781,长春市,园林处,,30,30,41,12,43,85,85,82,80,9,19,6,7,0.2,0.4
2026-04-10T2200,1124A,125.4604,43.7904,长春市,净月潭,,28,27,37,19,39,72,72,79,74,11,16,10,8,0.4,0.5
2026-04-10T2200,1126A,125.38,43.8422,长春市,经开区环卫处,,29,29,47,14,47,82,82,81,78,8,22,6,7,0.3,0.6
2026-04-10T2200,1127A,125.234,43.7761,长春市,高新区管委会,,29,29,44,9,45,82,82,79,75,4,22,6,8,0.5,0.8
2026-04-10T2200,1128A,125.1695,43.83,长春市,岱山公园,,28,21,43,6,49,88,88,86,79,7,31,4,6,0.3,0.5
2026-04-10T2200,4281A,125.334645,43.916281,长春市,北亚泰大街1068号,,31,31,42,12,46,83,83,74,70,11,24,7,8,0.3,0.5
2026-04-10T2200,1335A,113.082,28.2421,长沙市,经开区环保局,,40,40,33,27,21,31,31,90,68,19,11,4,4,0.7,0.6
2026-04-10T2200,1336A,112.8873,28.2202,长沙市,高开区环保局,,42,40,34,29,26,38,38,77,63,12,9,6,6,0.8,0.6
2026-04-10T2200,1337A,113.0785,28.2012,长沙市,马坡岭,,46,46,36,30,26,27,27,90,67,15,7,4,4,1.0,0.8
2026-04-10T2200,1338A,112.9448,28.1894,长沙市,湖南师范大学,,40,38,42,28,27,41,41,78,67,16,12,4,4,0.9,0.8
2026-04-10T2200,1339A,113.0177,28.1322,长沙市,雨花区环保局,,40,39,32,28,25,36,36,79,66,14,10,3,3,1.0,0.8
2026-04-10T2200,1340A,112.9795,28.2593,长沙市,伍家岭,,44,44,44,30,26,28,28,72,57,22,14,3,3,0.6,0.4
2026-04-10T2200,1341A,113.002,28.1944,长沙市,火车新站,,42,42,35,27,27,34,34,78,64,16,11,3,3,0.8,0.6
2026-04-10T2200,1342A,112.9846,28.1177,长沙市,天心区环保局,,50,40,36,35,30,38,38,83,71,19,13,5,5,0.8,0.7
2026-04-10T2200,1343A,112.8906,28.1307,长沙市,湖南中医药大学,,36,34,36,25,24,37,37,76,69,18,13,5,5,0.9,0.7
2026-04-10T2200,1727A,113.1146,36.1547,长治市,清华站,,48,48,50,17,21,119,119,122,121,1,7,10,11,0.5,0.5
2026-04-10T2200,1730A,113.0887,36.2126,长治市,审计局,,48,48,47,25,25,116,116,122,122,12,14,10,10,0.6,0.6
2026-04-10T2200,1731A,113.0845,36.1856,长治市,长治八中,颗粒物(PM10),63,68,62,27,24,113,113,121,120,18,20,12,10,0.7,0.6
2026-04-10T2200,2845A,113.1561,36.1912,长治市,德盛苑,,48,48,50,21,21,117,117,128,126,14,11,10,12,0.5,0.6
2026-04-10T2200,3568A,113.0603,36.0464,长治市,向阳小学,颗粒物(PM10),82,94,77,22,23,107,107,127,125,27,26,10,9,0.7,0.7
2026-04-10T2200,3569A,112.8788,36.315,长治市,屯留一中,,41,41,49,19,21,92,92,124,116,21,16,10,11,0.4,0.6
2026-04-10T2200,4189A,113.113092,36.199482,长治市,英华南巷50号,颗粒物(PM10),61,65,59,22,24,119,119,124,123,8,13,9,11,0.7,0.8
2026-04-10T2200,4190A,113.23666,36.33435,长治市,学府街1号,颗粒物(PM10),53,53,60,18,24,106,106,110,108,11,19,5,6,0.6,0.7
2026-04-10T2200,1854A,111.696,28.9725,常德市,市二中,细颗粒物(PM2.5),76,NA,36,48,31,38,38,68,60,11,9,8,8,1.3,1.2
2026-04-10T2200,3138A,111.7152,29.0288,常德市,武陵区永安,细颗粒物(PM2.5),78,NA,36,49,30,51,51,69,62,13,10,6,6,1.0,0.9
2026-04-10T2200,3139A,111.6891,28.9881,常德市,鼎城区玉霞,细颗粒物(PM2.5),76,NA,35,48,31,32,32,72,62,17,10,8,8,0.9,0.9
2026-04-10T2200,3140A,111.6651,29.0526,常德市,武陵区长庚,细颗粒物(PM2.5),82,NA,33,51,29,44,44,70,62,12,8,8,10,1.0,0.9
2026-04-10T2200,1196A,119.9524,31.7586,常州市,市监测站,颗粒物(PM10),95,113,84,41,33,90,90,164,148,33,23,10,9,1.0,0.9
2026-04-10T2200,1200A,119.9351,31.703,常州市,武进监测站,颗粒物(PM10),79,90,68,37,33,93,93,156,142,29,25,10,7,0.7,0.5
2026-04-10T2200,3002A,119.9701,31.813,常州市,行政中心,颗粒物(PM10),72,80,67,45,39,71,71,153,133,36,23,7,7,0.7,0.6
2026-04-10T2200,3003A,120.0434,31.7726,常州市,经开区,颗粒物(PM10),95,113,76,43,34,68,68,155,130,42,20,6,4,1.1,1
2026-04-10T2200,3010A,119.8919,31.7892,常州市,钟楼,细颗粒物(PM2.5),66,59,51,43,38,90,90,163,151,32,24,8,8,0.7,0.5
2026-04-10T2200,3429A,119.8595,31.706,常州市,武进经发区,颗粒物(PM10),65,71,54,34,31,84,84,150,136,38,23,6,6,1.0,0.8
2026-04-10T2200,3430A,119.5812,31.7256,常州市,金坛城区,颗粒物(PM10),54,55,41,34,31,87,87,153,141,23,10,9,9,0.9,0.8
2026-04-10T2200,4089A,119.9551,31.863,常州市,崇义南街5-H号,颗粒物(PM10),81,93,66,44,36,52,52,156,133,56,26,6,7,0.8,0.7
2026-04-10T2200,2220A,120.4318,41.588,朝阳市,西梁,,38,38,25,8,14,82,82,103,97,12,15,10,10,0.3,0.4
2026-04-10T2200,2221A,120.452,41.565,朝阳市,河畔小区,,37,37,25,9,12,87,87,107,102,12,13,7,7,0.4,0.5
2026-04-10T2200,2222A,120.4176,41.5648,朝阳市,八里堡,,48,48,25,27,14,83,83,106,100,13,14,10,8,0.4,0.5
2026-04-10T2200,3026A,116.6179,23.6608,潮州市,市政府,,28,28,37,16,20,30,30,83,58,19,13,3,4,0.5,0.5
2026-04-10T2200,4036A,116.646,23.676,潮州市,金山,,36,36,35,16,19,38,38,86,65,9,13,3,3,0.5,0.5
2026-04-10T2200,2473A,113.0116,25.8228,郴州市,市职中,颗粒物(PM10),65,70,45,41,35,94,94,101,98,10,9,8,11,0.5,0.5
2026-04-10T2200,2475A,113.0381,25.8074,郴州市,市审计局,细颗粒物(PM2.5),60,45,42,40,35,103,103,109,106,2,5,8,8,/,/
2026-04-10T2200,2476A,113.0348,25.7757,郴州市,市环保局,细颗粒物(PM2.5),62,57,45,41,35,106,106,111,109,9,7,19,11,0.4,0.4
2026-04-10T2200,4252A,113.0138,25.8011,郴州市,好美居路49号,,46,46,40,29,30,92,92,100,97,8,8,9,12,/,/
2026-04-10T2200,1431A,103.9727,30.7242,成都市,金泉两河,,25,17,43,16,22,79,79,69,64,12,20,2,3,0.3,0.4
2026-04-10T2200,1432A,104.1423,30.6765,成都市,十里店,,30,30,46,14,23,84,84,79,79,9,24,4,5,0.6,0.7
2026-04-10T2200,1433A,104.0594,30.5765,成都市,三瓦窑,,29,26,47,13,24,90,90,79,79,2,26,3,3,0.5,0.7
2026-04-10T2200,1434A,104.1122,30.6306,成都市,沙河铺,NA,NA,29,41,15,25,NA,NA,52,NA,15,34,2,3,NA,0.6
2026-04-10T2200,2880A,104.0219,30.6561,成都市,大石西路,,32,32,45,15,24,84,84,66,66,10,24,4,4,0.4,0.6
2026-04-10T2200,3136A,104.2724,30.559,成都市,龙泉驿区区政府,,31,17,37,12,24,97,97,92,92,3,17,7,7,0.3,0.5
2026-04-10T2200,3357A,104.0028,30.6891,成都市,金博路,,26,NA,32,14,21,83,83,66,66,15,30,6,6,0.5,0.6
2026-04-10T2200,3359A,104.056,30.5228,成都市,华阳,,30,19,41,11,23,94,94,79,79,12,29,4,4,0.1,0.3
2026-04-10T2200,3488A,104.387954,30.746684,成都市,青石路225号,,32,27,49,12,28,102,102,90,90,3,29,6,7,0.4,0.6
2026-04-10T2200,3489A,104.0788,30.4054,成都市,科学城,,31,18,31,9,18,97,97,83,83,6,22,7,7,0.7,0.9
2026-04-10T2200,4011A,103.8505,30.6946,成都市,光华大道三段,,32,32,37,13,18,87,87,79,70,16,21,3,3,0.3,0.4
2026-04-10T2200,4144A,104.3257,30.6406,成都市,八角井街185号,,31,31,48,11,26,83,83,76,76,12,20,5,4,0.3,0.5
2026-04-10T2200,4224A,104.2433276,30.53529463,成都市,鲸龙路1057号,,32,23,58,10,25,101,101,91,91,7,31,6,6,0.4,0.6
2026-04-10T2200,1062A,117.9531,40.908,承德市,铁路,,40,40,18,8,6,48,48,101,92,20,13,3,5,0.2,0.2
2026-04-10T2200,1063A,117.9397,40.9763,承德市,中国银行,,42,42,22,14,6,44,44,100,88,15,9,2,2,0.1,0.2
2026-04-10T2200,4073A,117.9462,40.95,承德市,杏林街1号,,28,28,19,9,10,53,53,103,93,22,8,1,2,0.1,0.2
2026-04-10T2200,4274A,117.7994,40.9605,承德市,滨河大街98号,,31,31,16,8,7,63,63,106,98,6,7,10,7,0.1,0.3
2026-04-10T2200,2314A,117.4698,30.6617,池州市,池州学院,,47,47,28,30,21,84,84,114,98,23,24,5,4,1.1,0.8
2026-04-10T2200,3237A,117.4918,30.6617,池州市,展览馆,,46,46,31,24,18,71,71,124,101,23,20,4,3,0.7,0.6
2026-04-10T2200,3333A,117.5626,30.695,池州市,第八中学,颗粒物(PM10),52,52,34,31,21,76,76,99,88,19,24,4,5,1.0,0.7
2026-04-10T2200,3334A,117.5037,30.6242,池州市,第十二中学,,40,40,25,23,18,54,54,110,90,26,18,4,3,1.0,0.8
2026-04-10T2200,1744A,118.9229,42.2816,赤峰市,松山一中,颗粒物(PM10),58,60,20,7,7,77,77,97,90,11,12,5,6,0.4,0.5
2026-04-10T2200,1745A,118.9588,42.2733,赤峰市,哈达街,颗粒物(PM10),57,59,23,9,7,84,84,103,97,11,11,8,9,0.4,0.5
2026-04-10T2200,1746A,118.8792,42.2551,赤峰市,天义路,颗粒物(PM10),68,74,16,15,8,71,71,96,89,10,9,5,4,0.2,0.2
2026-04-10T2200,3058A,119.2656,42.0356,赤峰市,银河街,颗粒物(PM10),55,57,26,3,9,69,69,106,97,12,8,7,9,0.3,0.5
2026-04-10T2200,3286A,118.9359,42.3146,赤峰市,桥北物流园区,,36,36,30,9,8,76,76,97,90,4,6,4,4,0.3,0.4
2026-04-10T2200,2521A,107.3473,22.4137,崇左市,市环保局江州分局,细颗粒物(PM2.5),117,106,96,78,69,144,144,177,177,11,12,4,6,1.0,0.8
2026-04-10T2200,4256A,107.375,22.3736,崇左市,石景林东路7号,细颗粒物(PM2.5),130,95,78,92,63,148,148,181,181,16,12,6,5,1.2,1
2026-04-10T2200,3207A,118.31131,32.3033,滁州市,市政府原办公楼,细颗粒物(PM2.5),78,70,41,49,33,73,73,117,108,31,11,5,5,0.7,0.6
2026-04-10T2200,3331A,118.3268,32.2633,滁州市,图书馆,颗粒物(PM10),65,70,48,38,26,81,81,124,116,22,11,10,10,0.5,0.5
2026-04-10T2200,4101A,118.3196,32.3335,滁州市,银山路666号,颗粒物(PM10),72,80,48,45,26,69,69,119,110,33,12,8,7,0.7,0.6
2026-04-10T2200,4102A,118.3426,32.2979,滁州市,黄山路555号,颗粒物(PM10),83,95,60,44,31,83,83,124,115,27,11,8,6,0.7,0.7
2026-04-10T2200,2606A,101.5379,25.0492,楚雄彝族自治州,市经济开发区,,34,24,23,20,15,106,106,115,114,10,7,2,2,0.4,0.3
2026-04-10T2200,4153A,101.5536,25.0343,楚雄彝族自治州,团结路562号,NA,NA,NA,36,11,16,118,118,122,122,NA,4,2,2,0.3,0.3
2026-04-10T2200,2549A,107.5087,31.2186,达州市,市环境监测站,,30,30,39,6,12,59,59,52,52,14,25,6,8,0.1,0.2
2026-04-10T2200,2550A,107.4988,31.2132,达州市,凤凰小区,,24,24,38,6,16,71,71,58,58,9,24,5,7,0.1,0.3
2026-04-10T2200,2551A,107.5081,31.1987,达州市,达县机关宾馆,,27,27,38,13,24,54,54,52,52,20,31,4,6,0.2,0.4
2026-04-10T2200,2552A,107.4644,31.2124,达州市,市政中心,,35,35,44,7,15,61,61,58,58,17,30,5,7,0.2,0.4
2026-04-10T2200,2614A,100.2168,25.5818,大理白族自治州,大理市环境监测站,,31,22,18,12,14,98,98,96,96,9,10,4,4,0.2,0.2
2026-04-10T2200,2615A,100.1542,25.7055,大理白族自治州,大理古城,,35,20,15,14,11,112,112,102,101,4,7,2,2,0.5,0.6
2026-04-10T2200,1109A,121.6119,38.974,大连市,甘井子,细颗粒物(PM2.5),114,118,50,75,34,105,105,102,102,26,17,7,7,0.6,0.5
2026-04-10T2200,1110A,121.565,38.9509,大连市,周水子,NA,NA,NA,62,67,35,91,91,94,94,30,21,3,4,0.8,0.6
2026-04-10T2200,1111A,121.5637,38.8849,大连市,星海三站,细颗粒物(PM2.5),86,73,36,53,29,105,105,99,99,20,15,4,4,0.6,0.5
2026-04-10T2200,1112A,121.6301,38.9117,大连市,青泥洼桥,细颗粒物(PM2.5),105,93,48,65,33,117,117,104,104,17,14,4,4,0.8,0.7
2026-04-10T2200,1113A,121.6248,38.8643,大连市,傅家庄,颗粒物(PM10),113,153,69,63,30,115,115,104,104,14,11,6,6,0.6,0.6
2026-04-10T2200,1114A,121.5117,38.8636,大连市,七贤岭,细颗粒物(PM2.5),84,83,41,52,29,131,131,99,99,13,14,6,5,0.6,0.6
2026-04-10T2200,1116A,121.7507,39.1339,大连市,金州,细颗粒物(PM2.5),80,64,51,50,37,114,114,94,94,20,19,8,6,0.8,0.6
2026-04-10T2200,1117A,121.7811,39.0495,大连市,开发区,细颗粒物(PM2.5),110,84,52,71,37,100,100,89,89,22,22,6,7,0.5,0.7
2026-04-10T2200,1118A,121.9762,39.0631,大连市,双D港,细颗粒物(PM2.5),76,58,41,48,32,59,59,91,84,22,16,5,5,0.8,0.4
2026-04-10T2200,4082A,121.2548,38.8188,大连市,旅顺,细颗粒物(PM2.5),72,60,43,46,38,120,120,108,108,12,14,6,5,0.5,0.5
2026-04-10T2200,1789A,124.8085,46.0381,大庆市,大同区,,45,31,36,31,21,74,74,94,86,18,13,4,5,0.4,0.4
2026-04-10T2200,1790A,125.1166,46.5255,大庆市,龙凤区,,38,27,33,26,16,76,76,80,74,13,14,3,4,0.2,0.2
2026-04-10T2200,1791A,124.8894,46.4007,大庆市,红岗区,,38,38,29,21,17,76,76,87,78,6,6,12,12,0.3,0.3
2026-04-10T2200,1792A,125.1391,46.578,大庆市,萨尔图区,,39,39,28,22,11,74,74,89,84,12,9,7,7,0.4,0.2
2026-04-10T2200,1793A,124.9026,46.6217,大庆市,让胡路区,,36,36,37,22,16,78,78,74,70,8,14,4,5,0.4,0.4
2026-04-10T2200,3481A,125.127,46.6277,大庆市,萨区政府监测点,,39,31,27,27,13,60,60,74,68,4,3,9,9,0.3,0.3
2026-04-10T2200,1723A,113.2926,40.0759,大同市,云冈宾馆,,42,42,34,10,6,56,56,110,96,32,16,11,6,0.6,0.3
2026-04-10T2200,1724A,113.3437,40.0921,大同市,大同大学,颗粒物(PM10),52,52,35,3,9,64,64,116,102,28,19,6,4,0.5,0.5
2026-04-10T2200,1725A,113.2637,40.129,大同市,安家小村,,33,33,30,13,9,50,50,106,94,38,15,11,12,0.5,0.5
2026-04-10T2200,3282A,113.3399,40.0586,大同市,大同市卫生学校,,46,46,33,16,9,75,75,126,113,22,13,8,6,0.9,0.4
2026-04-10T2200,3565A,113.1371,40.1122,大同市,云冈站,,44,44,31,10,9,10,10,115,85,65,15,13,6,0.5,0.4
2026-04-10T2200,3566A,113.1186,40.2556,大同市,图书馆,,48,48,34,16,10,57,57,111,93,11,11,6,6,0.4,0.4
2026-04-10T2200,3567A,113.5931,40.0459,大同市,区一中,,26,26,38,10,11,74,74,123,110,9,13,6,12,0.4,0.6
2026-04-10T2200,4199A,113.2798248,40.09972476,大同市,魏都大道141号,NA,NA,22,35,NA,9,55,55,112,98,30,15,12,10,0.6,0.5
2026-04-10T2200,2269A,124.1068,50.4091,大兴安岭地区,科技局,细颗粒物(PM2.5),64,62,30,42,12,90,90,83,83,8,6,8,8,0.3,0.3
2026-04-10T2200,3663A,124.117,50.4279,大兴安岭地区,红旗社区,细颗粒物(PM2.5),58,44,23,39,13,96,96,97,97,12,10,15,8,0.4,0.3
2026-04-10T2200,1600A,124.33,40.0625,丹东市,江湾东路,细颗粒物(PM2.5),64,63,36,42,24,58,58,103,77,20,16,8,6,0.9,0.6
2026-04-10T2200,1601A,124.4242,40.1513,丹东市,临江后街,细颗粒物(PM2.5),78,60,32,49,26,37,37,93,74,37,16,10,5,1.1,0.6
2026-04-10T2200,1602A,124.3935,40.1461,丹东市,元宝山,,46,34,28,32,22,45,45,92,76,27,13,6,5,0.7,0.5
2026-04-10T2200,1603A,124.3634,40.1093,丹东市,民主桥,细颗粒物(PM2.5),66,62,37,43,26,33,33,95,70,44,20,6,5,0.9,0.5
2026-04-10T2200,3541A,109.5726195,19.51688767,儋州市,第一中学子站,颗粒物(PM10),64,69,46,39,27,94,94,124,118,13,6,10,9,0.5,0.3
2026-04-10T2200,3542A,109.5567,19.5187,儋州市,东坡学校子站,细颗粒物(PM2.5),68,68,43,44,28,93,93,122,117,12,6,7,6,0.7,0.5
2026-04-10T2200,2616A,98.5611,24.4273,德宏傣族景颇族自治州,德宏州监测站,,49,NA,27,34,30,65,65,102,89,17,11,5,4,0.1,0.1
2026-04-10T2200,3677A,98.5887,24.4366,德宏傣族景颇族自治州,芒市人民政府综合楼,颗粒物(PM10),65,71,50,22,26,61,61,92,81,15,11,7,7,0.5,0.4
2026-04-10T2200,1901A,104.424,31.1209,德阳市,东山公园,,27,19,45,14,31,84,84,87,87,2,23,3,5,0.3,0.5
2026-04-10T2200,1902A,104.3827,31.1318,德阳市,西小区,,30,30,59,15,30,81,81,86,86,7,25,3,11,0.4,0.6
2026-04-10T2200,1904A,104.3553,31.1091,德阳市,耐火材料厂,,27,27,55,16,32,81,81,92,92,15,24,1,12,0.3,0.5
2026-04-10T2200,4145A,104.4144,31.1495,德阳市,市林业局,,27,23,47,13,31,85,85,92,92,4,29,4,6,0.4,0.6
2026-04-10T2200,1622A,116.3034,37.4675,德州市,儿童乐园,颗粒物(PM10),63,68,67,26,37,85,85,118,112,24,21,7,7,0.6,0.7
2026-04-10T2200,1624A,116.2992,37.4449,德州市,监理站,颗粒物(PM10),63,68,60,24,33,83,83,121,114,30,25,9,9,0.5,0.6
2026-04-10T2200,3066A,116.2722,37.438,德州市,九衢泉纯净水厂,颗粒物(PM10),60,63,54,25,26,43,43,111,90,48,26,3,4,0.6,0.7
2026-04-10T2200,3371A,116.3693,37.44,德州市,开发区人民医院,颗粒物(PM10),72,80,63,23,33,93,93,118,113,22,20,9,8,0.6,0.7
2026-04-10T2200,3511A,116.5687,37.3331,德州市,陵城艺术中心,颗粒物(PM10),63,68,55,31,38,74,74,109,102,22,19,6,7,0.8,0.8
2026-04-10T2200,4292A,116.352738,37.420875,德州市,新河东路,颗粒物(PM10),60,63,59,26,31,72,72,113,102,31,23,8,8,0.7,0.8
2026-04-10T2200,2621A,99.7054,27.8319,迪庆藏族自治州,迪庆州站,,31,18,16,9,7,99,99,122,109,7,6,8,8,0.4,0.4
2026-04-10T2200,3180A,99.7122,27.8129,迪庆藏族自治州,质量技术监督局,,34,10,14,10,7,106,106,129,116,7,7,6,6,0.3,0.4
2026-04-10T2200,4257A,104.6092,35.5962,定西市,将台街,颗粒物(PM10),68,74,63,32,23,61,61,116,104,32,23,9,8,0.3,0.2
2026-04-10T2200,4309A,104.6159,35.5701,定西市,正龙路62号,颗粒物(PM10),69,76,67,27,20,63,63,114,104,22,12,8,8,0.3,0.3
2026-04-10T2200,4071A,114.9883,38.5232,定州市,交通局,颗粒物(PM10),56,58,60,8,29,88,88,114,110,21,21,6,6,0.4,0.4
2026-04-10T2200,4072A,115.0045,38.5136,定州市,第五中学,颗粒物(PM10),61,65,68,19,29,84,84,112,107,15,12,3,3,0.3,0.4
2026-04-10T2200,1390A,113.7943,23.0132,东莞市,东城石井,,29,29,28,13,14,37,37,66,55,12,10,2,2,0.5,0.5
2026-04-10T2200,1391A,113.7384,22.9659,东莞市,南城西平,,28,28,24,12,11,36,36,60,52,10,8,3,3,0.5,0.5
2026-04-10T2200,3319A,113.7283,23.041,东莞市,万江金泰,,30,30,27,16,16,32,32,64,52,13,11,6,6,0.6,0.6
2026-04-10T2200,4129A,113.8666,23.1062,东莞市,裕兴路,,33,33,32,13,13,32,32,60,49,14,15,5,5,0.6,0.6
2026-04-10T2200,4130A,114.0076,22.9739,东莞市,教育路1号,,29,29,29,12,12,36,36,62,53,15,14,6,6,0.5,0.5
2026-04-10T2200,4131A,113.7981,22.8124,东莞市,长怡路1号,,30,30,30,12,17,29,29,54,44,15,13,5,5,0.6,0.7
2026-04-10T2200,1666A,118.6612,37.4313,东营市,市环保局,颗粒物(PM10),63,68,52,38,43,74,74,117,106,33,17,11,9,0.4,0.3
2026-04-10T2200,3036A,118.6903,37.4337,东营市,开发区管委会,颗粒物(PM10),63,67,55,40,46,77,77,125,117,39,20,8,8,0.7,0.5
2026-04-10T2200,3365A,118.5721,37.5654,东营市,垦利区民丰路,颗粒物(PM10),58,61,46,37,40,96,96,126,121,27,15,7,5,0.7,0.7
2026-04-10T2200,3498A,118.5063,37.8606,东营市,河口城区,颗粒物(PM10),70,78,46,37,30,82,82,118,NA,25,14,9,9,0.8,0.7
2026-04-10T2200,3646A,118.4979,37.4623,东营市,胜利站,细颗粒物(PM2.5),68,70,64,44,42,74,74,106,100,32,18,15,9,0.9,0.8
2026-04-10T2200,3734A,118.5753,37.4405,东营市,理想之城,颗粒物(PM10),75,85,63,37,39,55,55,125,110,51,26,8,6,0.7,0.5
2026-04-10T2200,1591A,110.0024,39.8127,鄂尔多斯市,综合楼,颗粒物(PM10),68,75,51,42,22,74,74,114,106,39,16,9,6,0.5,0.2
2026-04-10T2200,1592A,109.9485,39.8259,鄂尔多斯市,巴音孟克林场办事处,颗粒物(PM10),74,83,48,14,9,32,32,114,94,66,15,5,4,0.6,0.3
2026-04-10T2200,1593A,109.7734,39.5987,鄂尔多斯市,康泽苑,,36,36,44,13,10,45,45,116,100,35,10,6,7,0.4,0.3
2026-04-10T2200,1594A,109.8121,39.5987,鄂尔多斯市,华泰汽车城,,44,44,46,10,10,36,36,105,86,55,18,6,6,0.4,0.3
2026-04-10T2200,1595A,109.9734,39.7884,鄂尔多斯市,奥林花园,颗粒物(PM10),75,85,54,27,9,36,36,113,96,66,25,5,4,0.5,0.3
2026-04-10T2200,2436A,114.894,30.3989,鄂州市,市政府,颗粒物(PM10),65,70,37,34,17,51,51,90,82,27,15,12,11,1.0,0.3
2026-04-10T2200,2437A,114.8986,30.3714,鄂州市,赵家坝,颗粒物(PM10),62,66,31,35,17,50,50,87,79,23,8,15,10,0.9,0.4
2026-04-10T2200,3654A,114.8093,30.4091,鄂州市,精准医疗中心,颗粒物(PM10),58,61,36,33,20,54,54,102,90,29,15,6,4,1.5,0.7
2026-04-10T2200,2454A,109.4978,30.2979,恩施土家族苗族自治州,湖北民院,,33,33,38,11,22,75,75,66,66,10,13,7,7,0.5,0.6
2026-04-10T2200,3549A,109.5061,30.3771,恩施土家族苗族自治州,龙凤新区,,40,40,32,17,18,78,78,64,64,2,4,6,7,0.3,0.4
2026-04-10T2200,2499A,108.3411,21.6159,防城港市,沙万,,47,47,45,29,23,70,70,73,73,11,7,6,6,0.7,0.7
2026-04-10T2200,2500A,108.3515,21.7733,防城港市,防城档案局,,40,40,44,24,26,69,69,80,80,3,3,7,7,0.7,0.6
2026-04-10T2200,2501A,108.3506,21.6414,防城港市,大海花园,,40,40,40,26,27,80,80,84,84,15,12,7,7,0.5,0.5
2026-04-10T2200,1371A,113.1293,23.0065,佛山市,湾梁,,26,24,29,18,18,28,28,70,55,16,18,/,/,/,/
2026-04-10T2200,1372A,113.1082,23.0477,佛山市,华材职中,,26,24,28,18,18,31,31,76,62,17,18,4,4,0.3,0.3
2026-04-10T2200,1373A,113.1439,23.045,佛山市,南海气象局,,29,26,33,20,19,29,29,71,58,18,21,/,/,/,/
2026-04-10T2200,1374A,113.2879,22.8094,佛山市,顺德苏岗,NA,NA,37,30,15,16,40,40,66,54,NA,7,/,/,0.5,0.6
2026-04-10T2200,1376A,112.8384,22.8678,佛山市,高明孔堂,,30,30,24,15,13,44,44,64,55,7,7,/,/,/,/
2026-04-10T2200,1377A,112.8835,23.1584,佛山市,三水监测站,,24,24,25,16,17,31,31,64,54,17,22,4,5,0.3,0.3
2026-04-10T2200,1378A,112.8668,23.185,佛山市,三水云东海,,34,34,41,16,18,31,31,70,59,17,21,/,/,/,/
2026-04-10T2200,3625A,113.2568,22.7629,佛山市,容桂街道办,,24,24,21,16,16,34,34,59,49,14,13,/,/,/,/
2026-04-10T2200,1282A,119.2681,26.0506,福州市,师大,细颗粒物(PM2.5),62,56,47,41,28,54,54,129,104,23,19,4,4,0.3,0.3
2026-04-10T2200,1283A,119.2983,26.1028,福州市,五四北路,"颗粒物(PM10),细颗粒物(PM2.5)",52,52,51,36,32,61,61,134,111,22,24,5,4,0.3,0.3
2026-04-10T2200,1284A,119.2648,26.0769,福州市,杨桥西路,细颗粒物(PM2.5),70,51,46,45,29,59,59,142,111,22,20,4,4,/,/
2026-04-10T2200,3048A,119.5799,26.0937,福州市,九龙,,43,39,38,30,28,36,36,125,93,16,14,5,6,0.3,0.3
2026-04-10T2200,3526A,119.5188,25.9666,福州市,吴航,,48,48,42,31,25,53,53,114,94,15,14,6,6,0.4,0.5
2026-04-10T2200,4104A,119.3106,26.0648,福州市,路通桥巷6号,细颗粒物(PM2.5),66,48,46,43,32,57,57,132,105,17,16,/,/,/,/
2026-04-10T2200,1755A,123.7974,41.8494,抚顺市,望花区,,29,18,71,9,52,92,92,83,82,11,27,11,13,0.7,0.8
2026-04-10T2200,1756A,123.9161,41.8827,抚顺市,顺城区,,26,14,60,7,51,83,83,72,72,11,33,10,10,0.4,0.7
2026-04-10T2200,1757A,124.0437,41.8615,抚顺市,东洲区,,26,NA,75,10,54,82,82,71,70,13,32,8,9,0.5,0.7
2026-04-10T2200,1758A,123.9246,41.8638,抚顺市,新抚区,,28,16,65,10,54,87,87,74,74,10,32,7,9,0.5,0.9
2026-04-10T2200,1759A,124.0972,41.8961,抚顺市,大伙房水库,,31,12,51,6,45,99,99,85,85,6,22,8,9,0.3,0.6
2026-04-10T2200,1760A,123.708,41.8386,抚顺市,沈抚新城,,28,22,72,7,50,88,88,82,82,13,30,8,9,0.5,0.8
2026-04-10T2200,2377A,116.3544,27.9833,抚州市,市站,,33,28,22,19,13,105,105,133,119,8,6,4,3,0.9,0.9
2026-04-10T2200,2378A,116.3562,27.9631,抚州市,血防站,,33,31,23,23,14,88,88,121,102,9,6,7,7,0.8,0.7
2026-04-10T2200,2379A,116.3561,28.0007,抚州市,采茶剧团,,36,36,27,20,11,92,92,121,105,3,2,6,11,0.7,0.6
2026-04-10T2200,2380A,116.3854,27.9648,抚州市,医学分院,,29,28,33,19,9,91,91,118,104,7,5,6,6,1.0,1.1
2026-04-10T2200,2207A,121.6095,41.9978,阜新市,工业园区,颗粒物(PM10),51,51,32,3,19,81,81,102,95,13,14,9,9,0.3,0.5
2026-04-10T2200,2208A,121.6567,42.0188,阜新市,长青街,,38,38,28,3,22,91,91,105,100,9,13,5,6,0.3,0.5
2026-04-10T2200,2209A,121.6672,42.07,阜新市,农业园区,,48,48,33,3,17,88,88,101,98,10,12,3,4,0.3,0.5
2026-04-10T2200,2211A,121.6343,42.0455,阜新市,玉龙新城,,45,45,31,3,18,86,86,104,98,12,15,5,6,0.3,0.5
2026-04-10T2200,2301A,115.8276,32.8929,阜阳市,市监测站,颗粒物(PM10),65,70,47,20,22,24,24,99,89,63,20,6,6,0.4,0.4
2026-04-10T2200,2303A,115.8551,32.8606,阜阳市,开发区,颗粒物(PM10),88,102,50,34,19,50,50,98,92,17,16,5,5,0.6,0.6
2026-04-10T2200,2875A,115.783962,32.889217,阜阳市,阜阳职业技术学院,颗粒物(PM10),69,76,45,14,12,70,70,108,102,19,11,6,7,0.7,0.6
2026-04-10T2200,3468A,115.79,32.8614,阜阳市,市规划展馆,颗粒物(PM10),66,72,41,27,21,69,69,116,108,26,15,8,7,0.6,0.6
2026-04-10T2200,3469A,115.835101,32.918568,阜阳市,枣园社区,颗粒物(PM10),73,81,48,22,24,39,39,96,86,46,19,7,7,0.6,0.5
2026-04-10T2200,2669A,102.9097,34.9841,甘南藏族自治州,州政府,,29,23,41,7,20,90,90,92,92,6,23,1,2,0.2,0.4
2026-04-10T2200,3380A,102.8915,34.9618,甘南藏族自治州,甘肃民族师范学院,,32,32,49,8,20,98,98,105,105,8,22,1,1,0.3,0.2
2026-04-10T2200,2570A,101.96,30.048,甘孜藏族自治州,水桥子,,31,6,9,3,4,98,98,100,98,3,7,6,6,0.2,0.2
2026-04-10T2200,3065A,101.9534,29.9976,甘孜藏族自治州,州环保局,,33,7,9,6,6,103,103,108,103,12,10,4,5,0.3,0.2
2026-04-10T2200,2363A,114.9368,25.8663,赣州市,地委,,48,48,37,30,25,80,80,106,99,8,6,3,3,0.8,0.8
2026-04-10T2200,2364A,114.946,25.8483,赣州市,气象台,,41,41,40,28,28,82,82,107,100,8,7,6,6,0.4,0.5
2026-04-10T2200,2365A,114.932,25.8332,赣州市,市图书馆,,43,31,34,30,26,78,78,100,94,7,6,4,4,0.7,0.6
2026-04-10T2200,2366A,114.8905,25.8472,赣州市,华坚鞋城,,46,43,39,32,28,76,76,97,92,10,7,10,7,0.6,0.7
2026-04-10T2200,3109A,115.0094,25.8614,赣州市,赣县区卫计委,,38,NA,33,26,25,68,68,94,86,5,13,3,2,0.5,0.8
2026-04-10T2200,2684A,106.2753,36.0057,固原市,监测站,颗粒物(PM10),65,71,65,19,19,87,87,112,108,23,17,6,6,0.4,0.4
2026-04-10T2200,2685A,106.2384,36.0189,固原市,新区,颗粒物(PM10),66,72,71,24,19,83,83,108,103,27,26,5,5,0.4,0.4
2026-04-10T2200,2544A,106.6307,30.4577,广安市,市委,,28,24,36,13,24,89,89,93,91,6,9,6,7,0.3,0.4
2026-04-10T2200,2545A,106.6266,30.4662,广安市,友谊中学,,27,23,33,13,21,85,85,88,88,6,9,6,8,0.4,0.5
2026-04-10T2200,2547A,106.6386,30.4551,广安市,广电花园,,34,34,47,14,26,77,77,84,82,8,12,5,6,0.3,0.5
2026-04-10T2200,2902A,106.6347,30.4868,广安市,北辰小学,,27,26,41,14,25,86,86,91,89,6,9,10,9,0.3,0.5
2026-04-10T2200,2524A,105.8211,32.4444,广元市,老城,,42,42,45,16,21,24,24,67,56,23,22,2,3,0.5,0.6
2026-04-10T2200,2526A,105.8629,32.429,广元市,监测站,,32,32,47,12,18,21,21,63,53,18,17,3,4,0.4,0.5
2026-04-10T2200,3617A,105.8047,32.4167,广元市,经开区,,37,37,45,19,22,21,21,67,57,25,22,3,6,0.4,0.5
2026-04-10T2200,1345A,113.2346,23.1423,广州市,广雅中学,NA,NA,34,33,18,17,26,26,60,48,14,17,NA,2,0.8,0.7
2026-04-10T2200,1346A,113.2611,23.105,广州市,市五中,,31,31,29,18,16,35,35,70,55,17,21,2,3,/,/
2026-04-10T2200,1348A,113.3477,23.0916,广州市,广东商学院,,33,33,31,20,19,33,33,51,43,15,24,4,4,0.2,0.3
2026-04-10T2200,1349A,113.4332,23.105,广州市,市八十六中,,23,23,26,12,14,10,10,45,36,34,30,6,6,/,/
2026-04-10T2200,1350A,113.3506,22.9488,广州市,番禺中学,,25,25,29,15,16,41,41,75,63,11,14,5,5,0.5,0.5
2026-04-10T2200,1351A,113.2147,23.3918,广州市,花都师范,,41,41,35,21,19,23,23,75,63,31,26,6,6,0.7,0.7
2026-04-10T2200,1352A,113.2599,23.1329,广州市,市监测站,,35,35,33,17,18,32,32,61,50,9,13,2,2,/,/
2026-04-10T2200,1353A,113.5618,23.3119,广州市,九龙镇镇龙,,37,37,36,18,16,20,20,62,50,24,23,6,6,0.4,0.4
2026-04-10T2200,1354A,113.2764,23.1544,广州市,麓湖,,31,31,30,16,15,36,36,59,50,13,18,4,4,0.5,0.5
2026-04-10T2200,2846A,113.3209,23.1323,广州市,体育西,,35,35,34,16,17,27,27,51,38,20,24,5,5,0.6,0.5
2026-04-10T2200,3298A,113.5718,23.5493,广州市,从化街口,,30,30,33,16,19,34,34,77,68,14,13,7,7,0.5,0.5
2026-04-10T2200,3299A,113.3463,23.369,广州市,白云竹料,NA,NA,NA,38,NA,19,NA,NA,66,59,NA,23,NA,3,NA,0.5
2026-04-10T2200,3300A,113.2981,23.2365,广州市,白云嘉禾,,44,44,38,19,17,17,17,61,46,33,29,10,10,/,/
2026-04-10T2200,3301A,113.4256,23.1716,广州市,黄埔科学城,,34,34,35,14,18,5,5,53,39,41,30,6,7,0.4,0.5
2026-04-10T2200,3302A,113.3942,23.0485,广州市,番禺大学城,,28,28,34,13,13,40,40,56,49,19,24,5,4,0.5,0.6
2026-04-10T2200,3303A,113.4923,22.8169,广州市,南沙黄阁,,34,34,30,14,15,30,30,56,47,17,13,5,6,/,/
2026-04-10T2200,3304A,113.534,22.7893,广州市,南沙街,,26,26,27,13,14,30,30,52,45,14,13,4,4,0.4,0.4
2026-04-10T2200,3443A,113.2905,23.5541,广州市,花都梯面,,23,23,24,11,14,26,26,68,63,21,18,7,7,/,/
2026-04-10T2200,3445A,113.786,23.7479,广州市,从化良口,,22,22,32,13,22,50,50,97,88,17,13,4,4,/,/
2026-04-10T2200,3446A,113.805,23.2614,广州市,增城荔城,,32,32,34,14,17,31,31,70,59,17,16,5,5,0.4,0.4
2026-04-10T2200,2506A,109.604387,23.066791,贵港市,江南子站,颗粒物(PM10),60,63,66,39,37,90,90,111,108,19,14,8,9,0.8,0.8
2026-04-10T2200,2508A,109.5669,23.1065,贵港市,荷城子站,细颗粒物(PM2.5),56,56,55,38,34,88,88,100,96,12,14,10,10,0.9,0.8
2026-04-10T2200,3405A,109.5886,23.1172,贵港市,新世纪学校,颗粒物(PM10),51,51,56,35,36,95,95,108,104,13,16,/,/,0.8,0.7
2026-04-10T2200,4260A,109.5933,23.095,贵港市,中山路155-3号,颗粒物(PM10),70,78,65,33,39,97,97,112,109,14,14,/,/,0.9,0.8
2026-04-10T2200,1439A,106.6863,26.6035,贵阳市,马鞍山,,48,48,36,32,24,67,67,125,112,21,15,4,5,/,/
2026-04-10T2200,1441A,106.6241,26.6266,贵阳市,鉴湖路,颗粒物(PM10),60,63,51,35,20,134,134,140,138,13,11,10,12,0.8,0.7
2026-04-10T2200,1442A,106.7468,26.6344,贵阳市,燕子冲,颗粒物(PM10),58,61,47,36,21,113,113,122,117,11,16,5,7,0.9,0.8
2026-04-10T2200,1443A,106.6556,26.4362,贵阳市,碧云窝,,48,48,42,20,23,118,118,134,130,6,8,6,10,/,/
2026-04-10T2200,1445A,106.6963,26.6063,贵阳市,红边门,颗粒物(PM10),68,75,53,39,27,99,99,122,114,25,29,13,11,/,/
2026-04-10T2200,1446A,106.7162383,26.56964667,贵阳市,新华路,颗粒物(PM10),67,73,56,36,25,85,85,127,118,33,29,16,34,0.2,0.4
2026-04-10T2200,1447A,106.6742,26.542,贵阳市,太慈桥,颗粒物(PM10),55,56,44,32,24,68,68,120,111,32,16,5,6,/,/
2026-04-10T2200,4230A,106.688212,26.56952,贵阳市,花果园大街66号,颗粒物(PM10),55,56,33,35,24,102,102,108,108,22,18,9,6,/,/
2026-04-10T2200,4231A,106.687268,26.516892,贵阳市,漓江路57号,,38,34,35,26,24,92,92,133,122,18,18,10,10,0.6,0.7
2026-04-10T2200,1864A,110.3091,25.2705,桂林市,龙隐路小学,细颗粒物(PM2.5),88,71,62,54,44,105,105,118,115,11,11,4,4,0.9,0.8
2026-04-10T2200,1865A,110.2849361,25.22909545,桂林市,八中,颗粒物(PM10),66,72,59,38,30,95,95,107,103,13,14,4,4,0.7,0.6
2026-04-10T2200,3531A,110.296,25.1254,桂林市,旅游学院,细颗粒物(PM2.5),96,61,51,58,43,113,113,120,120,6,8,7,7,0.7,0.7
2026-04-10T2200,4222A,110.1835,25.2444,桂林市,环湖路276号,细颗粒物(PM2.5),90,58,53,55,45,115,115,126,126,6,11,11,12,0.5,0.6
2026-04-10T2200,4301A,110.2803,25.2773,桂林市,信义路13号,细颗粒物(PM2.5),106,68,63,66,39,111,111,118,117,11,10,5,5,0.7,0.7
2026-04-10T2200,2674A,100.2262,34.4854,果洛藏族自治州,玛沁县大武镇,,28,28,23,10,10,86,86,109,96,4,2,18,16,0.6,0.4
2026-04-10T2200,1130A,126.5557,45.8109,哈尔滨市,松北商大,,35,NA,35,24,28,57,57,66,50,11,14,10,11,0.5,0.5
2026-04-10T2200,1132A,126.6162,45.719,哈尔滨市,南岗学府路,,33,30,41,23,21,54,54,63,47,15,17,5,5,0.6,0.4
2026-04-10T2200,1133A,126.6894,45.7733,哈尔滨市,太平宏伟公园,,35,26,39,24,25,53,53,60,50,17,21,9,7,0.3,0.4
2026-04-10T2200,1134A,126.6361,45.7672,哈尔滨市,道外承德广场,,44,44,67,17,22,55,55,55,46,13,25,8,13,1.0,0.6
2026-04-10T2200,1136A,126.644,45.7261,哈尔滨市,动力和平路,,33,26,37,23,19,55,55,60,46,15,18,3,4,0.6,0.6
2026-04-10T2200,1137A,126.5933,45.7479,哈尔滨市,道里建国路,,33,NA,35,23,22,57,57,62,50,19,26,3,7,0.7,0.7
2026-04-10T2200,1138A,126.6127,45.6119,哈尔滨市,平房东轻厂,,34,34,51,17,31,43,43,49,28,68,89,7,7,0.6,0.6
2026-04-10T2200,1139A,126.5875,45.9827,哈尔滨市,呼兰师专,,32,25,48,22,29,43,43,58,48,17,21,8,9,0.2,0.2
2026-04-10T2200,1140A,126.6299,45.6799,哈尔滨市,省农科院,,31,31,54,19,26,60,60,62,44,9,21,6,8,0.6,0.5
2026-04-10T2200,4282A,126.6769,45.7379,哈尔滨市,华山路1号,,26,NA,38,18,23,59,59,69,48,16,17,3,8,0.2,0.4
2026-04-10T2200,4283A,126.9717,45.5356,哈尔滨市,解放大街52号,,47,47,52,26,19,48,48,76,46,21,19,9,8,0.6,0.4
2026-04-10T2200,2688A,93.5124,42.8176,哈密市,地区监测站,细颗粒物(PM2.5),117,NA,37,78,21,NA,NA,119,119,25,16,16,11,0.7,0.1
2026-04-10T2200,2689A,93.5014,42.8312,哈密市,哈密师范学校,,39,38,48,27,12,72,72,120,110,21,23,8,8,0.2,0.2
2026-04-10T2200,2671A,100.9016,36.9464,海北藏族自治州,海晏县西海镇,颗粒物(PM10),53,53,44,21,17,113,113,134,130,3,2,9,9,0.5,0.4
2026-04-10T2200,3867A,102.074,36.5056,海东市,平安区公安局北苑,颗粒物(PM10),63,67,63,25,24,109,109,127,125,11,12,12,19,0.5,0.5
2026-04-10T2200,4163A,102.0984,36.5119,海东市,滨河路,颗粒物(PM10),72,80,64,32,21,29,29,106,94,84,26,11,16,0.7,0.5
2026-04-10T2200,1410A,110.3189,20.0596,海口市,海南大学,颗粒物(PM10),52,52,32,27,17,44,44,89,80,8,10,6,6,0.4,0.4
2026-04-10T2200,1411A,110.2827,20.0051,海口市,秀英海南医院,,43,43,29,29,20,24,24,92,75,23,14,8,8,0.5,0.4
2026-04-10T2200,1412A,110.3391,19.9979,海口市,海南师范大学,,45,45,33,21,20,38,38,111,90,8,9,6,6,0.4,0.4
2026-04-10T2200,1413A,110.3303,20.0359,海口市,龙华路环保局宿舍,颗粒物(PM10),51,51,33,25,20,44,44,109,92,10,11,/,/,0.5,0.4
2026-04-10T2200,3539A,110.5111,19.9737,海口市,桂林洋子站,,36,36,29,19,16,34,34,81,57,9,8,/,/,/,/
2026-04-10T2200,4134A,110.1952,20.0451,海口市,长滨二路9号,,46,46,35,27,20,48,48,107,98,12,10,/,/,/,/
2026-04-10T2200,2673A,100.6158,36.2985,海南藏族自治州,共和县恰卜恰镇,颗粒物(PM10),56,58,46,25,20,111,111,132,127,5,7,13,12,0.3,0.4
2026-04-10T2200,2676A,97.373,37.376,海西蒙古族藏族自治州,德令哈市,,47,31,33,21,13,148,148,150,150,1,2,13,13,0.3,0.3
2026-04-10T2200,1049A,114.492,36.5712,邯郸市,矿院,,46,46,52,24,32,92,92,123,117,13,14,4,4,0.4,0.5
2026-04-10T2200,1050A,114.4839,36.6136,邯郸市,丛台公园,,50,50,53,22,39,94,94,119,115,14,15,8,8,0.4,0.6
2026-04-10T2200,3458A,114.7893,36.5592,邯郸市,香泉濮院小区,颗粒物(PM10),62,66,53,32,35,88,88,119,110,15,12,3,3,0.3,0.5
2026-04-10T2200,3580A,114.1998,36.4439,邯郸市,峰峰矿区临水派出所,细颗粒物(PM2.5),62,59,57,41,42,100,100,133,127,18,10,18,7,0.8,0.6
2026-04-10T2200,4068A,114.5209,36.7697,邯郸市,建安街268号,颗粒物(PM10),55,56,57,30,43,96,96,122,119,15,16,3,2,0.4,0.7
2026-04-10T2200,4069A,114.5488,36.6177,邯郸市,丛台东路558号,细颗粒物(PM2.5),64,62,56,42,37,70,70,117,105,25,23,3,3,0.3,0.5
2026-04-10T2200,2635A,107.0155,33.0707,汉中市,市监测站,颗粒物(PM10),83,96,63,46,31,22,22,60,57,29,21,5,6,1.0,0.8
2026-04-10T2200,2636A,107.0083,33.114,汉中市,鑫源开发区,颗粒物(PM10),68,74,53,38,28,7,7,60,52,46,25,6,8,1.0,1
2026-04-10T2200,2637A,107.0072,33.0323,汉中市,南郑大河坎水厂,细颗粒物(PM2.5),74,78,57,47,31,4,4,52,46,42,22,4,6,0.9,0.7
2026-04-10T2200,1223A,120.2073,30.2111,杭州市,滨江,颗粒物(PM10),68,74,35,39,19,90,90,131,127,33,17,8,7,1.0,0.7
2026-04-10T2200,1224A,120.0625,30.2737,杭州市,西溪,细颗粒物(PM2.5),64,52,31,42,18,80,80,123,119,14,11,8,8,1.3,0.9
2026-04-10T2200,1226A,120.3417,30.315,杭州市,下沙,颗粒物(PM10),95,112,57,44,27,34,34,110,100,92,23,8,7,1.0,0.7
2026-04-10T2200,1227A,120.1252,30.2465,杭州市,卧龙桥,,43,43,28,25,16,39,39,130,116,32,15,7,7,0.8,0.5
2026-04-10T2200,1228A,120.1902,30.2691,杭州市,浙江农大,"颗粒物(PM10),细颗粒物(PM2.5)",58,61,28,39,22,83,83,118,114,40,20,8,7,0.6,0.3
2026-04-10T2200,1230A,120.1195,30.3121,杭州市,和睦小学,颗粒物(PM10),80,92,51,42,23,101,101,128,126,25,12,7,7,0.9,0.7
2026-04-10T2200,1231A,120.3076,30.4146,杭州市,临平镇,细颗粒物(PM2.5),68,72,41,44,26,85,85,136,132,43,18,9,6,0.9,0.7
2026-04-10T2200,1232A,120.2753,30.1839,杭州市,城厢镇,颗粒物(PM10),67,73,44,39,23,85,85,117,114,32,18,6,5,0.9,0.7
2026-04-10T2200,1233A,120.0883,30.1808,杭州市,云栖,,49,47,28,34,15,45,45,120,105,23,16,6,6,1.0,0.7
2026-04-10T2200,3557A,119.9463,30.0496,杭州市,镇二中,细颗粒物(PM2.5),72,77,26,46,16,114,114,130,128,18,12,5,4,0.9,0.7
2026-04-10T2200,3558A,119.7184,30.2367,杭州市,市府大楼,细颗粒物(PM2.5),76,66,25,48,17,108,108,122,121,16,9,7,6,0.8,0.6
2026-04-10T2200,3656A,120.1554,30.2863,杭州市,消防大队,颗粒物(PM10),71,79,46,40,22,98,98,119,117,31,16,6,4,1.0,0.8
2026-04-10T2200,1270A,117.1957,31.7845,合肥市,明珠广场,颗粒物(PM10),58,61,35,23,15,25,25,118,92,45,26,6,4,0.8,0.6
2026-04-10T2200,1271A,117.307,31.8765,合肥市,三里街,颗粒物(PM10),84,97,44,45,18,29,29,107,86,69,33,6,6,0.9,0.7
2026-04-10T2200,1272A,117.2587,31.8703,合肥市,琥珀山庄,颗粒物(PM10),74,83,37,37,16,23,23,110,91,47,24,6,6,1.6,0.8
2026-04-10T2200,1275A,117.2593,31.9376,合肥市,庐阳区,颗粒物(PM10),72,80,39,28,15,40,40,110,94,49,24,7,6,0.9,0.7
2026-04-10T2200,1276A,117.345251,31.861615,合肥市,瑶海区,颗粒物(PM10),86,100,52,40,19,38,38,121,102,75,34,6,7,1.0,0.9
2026-04-10T2200,1277A,117.3033,31.7967,合肥市,包河区,颗粒物(PM10),83,95,46,34,17,7,7,110,94,111,35,11,10,1.2,0.9
2026-04-10T2200,1278A,117.278,31.7392,合肥市,滨湖新区,颗粒物(PM10),72,80,43,35,19,72,72,115,112,28,22,6,6,0.8,0.6
2026-04-10T2200,1279A,117.1324,31.8395,合肥市,高新区,颗粒物(PM10),51,51,33,19,11,61,61,102,93,16,12,5,5,0.7,0.6
2026-04-10T2200,3464A,117.3802,31.9148,合肥市,高教基地,NA,NA,73,36,36,13,NA,NA,120,112,36,22,8,8,0.7,0.6
2026-04-10T2200,4098A,117.2518,31.8404,合肥市,中国科学技术大学,颗粒物(PM10),65,70,35,20,14,54,54,119,105,28,17,6,6,0.9,0.7
2026-04-10T2200,3614A,79.9241,37.0878,和田地区,地区环保局,颗粒物(PM10),309,427,545,101,138,104,104,108,108,1,5,3,6,0.3,0.3
2026-04-10T2200,3615A,79.9132,37.1137,和田地区,市环保局,颗粒物(PM10),193,335,507,99,115,83,83,94,92,14,12,3,7,0.4,0.3
2026-04-10T2200,2517A,108.0496,24.6957,河池市,市环保站,细颗粒物(PM2.5),107,81,67,67,48,151,151,146,146,6,7,7,8,0.9,0.8
2026-04-10T2200,4302A,108.0901,24.6945,河池市,上任中路54号,细颗粒物(PM2.5),98,80,67,59,47,158,158,142,142,7,14,7,9,1.0,0.8
2026-04-10T2200,1697A,114.6962,23.7538,河源市,东埔,,29,29,30,17,21,43,43,82,76,12,12,6,6,0.5,0.5
2026-04-10T2200,1698A,114.6895,23.7232,河源市,老城,,35,35,33,17,21,44,44,81,76,10,13,6,7,0.4,0.5
2026-04-10T2200,3374A,115.5562,35.089,菏泽市,定陶老年大学,颗粒物(PM10),101,122,77,59,41,91,91,136,124,25,21,6,6,0.6,0.6
2026-04-10T2200,4114A,115.4239,35.2593,菏泽市,黄河路600号,颗粒物(PM10),93,110,79,37,41,102,102,128,123,21,18,9,4,0.6,0.6
2026-04-10T2200,4115A,115.5025,35.2727,菏泽市,菏泽市人社局,颗粒物(PM10),80,92,68,37,38,110,110,114,110,12,16,10,7,0.4,0.5
2026-04-10T2200,4184A,115.479691,35.244011,菏泽市,永昌路1号,颗粒物(PM10),79,90,74,39,39,114,114,136,128,22,24,7,4,0.4,0.2
2026-04-10T2200,4193A,115.471542,35.280012,菏泽市,长城路999号,颗粒物(PM10),83,95,69,38,37,116,116,131,128,20,18,16,5,0.5,0.5
2026-04-10T2200,2514A,111.5264,24.4178,贺州市,环保小区,颗粒物(PM10),59,62,46,33,30,94,94,107,106,12,12,7,7,0.4,0.4
2026-04-10T2200,2515A,111.561,24.4074,贺州市,政协大楼,颗粒物(PM10),52,52,36,35,32,99,99,113,111,12,11,8,9,0.7,0.7
2026-04-10T2200,3534A,111.4744,24.455,贺州市,西湾,颗粒物(PM10),78,88,54,39,32,82,82,104,102,16,12,9,8,0.6,0.6
2026-04-10T2200,2385A,114.17,35.9019,鹤壁市,市监测站,颗粒物(PM10),60,63,67,37,51,103,103,128,124,16,14,9,8,1.1,0.7
2026-04-10T2200,2386A,114.2953,35.7512,鹤壁市,市交警支队,颗粒物(PM10),70,78,74,30,52,86,86,112,107,21,19,10,7,0.6,0.8
2026-04-10T2200,2387A,114.2877,35.7302,鹤壁市,迎宾馆,颗粒物(PM10),75,85,87,37,54,86,86,114,109,15,13,7,6,0.6,0.8
2026-04-10T2200,3474A,114.2616,35.6824,鹤壁市,大新区,颗粒物(PM10),65,70,66,36,56,80,80,111,104,17,13,9,8,0.7,0.9
2026-04-10T2200,3596A,114.1573,35.9607,鹤壁市,南山宾馆,颗粒物(PM10),72,80,82,30,46,100,100,126,121,18,16,15,10,0.7,0.7
2026-04-10T2200,2244A,130.2537,47.3416,鹤岗市,哈啤分公司,,31,31,25,15,13,76,76,83,80,10,9,10,11,0.1,0.2
2026-04-10T2200,2245A,130.2683,47.3087,鹤岗市,斯达机电,,28,28,32,11,16,77,77,82,80,6,9,11,11,0.2,0.2
2026-04-10T2200,2246A,130.3114,47.3388,鹤岗市,东山纸板厂,,38,38,83,3,18,80,80,89,86,10,14,10,10,0.3,0.3
2026-04-10T2200,2263A,127.4832,50.2524,黑河市,交通局,颗粒物(PM10),69,76,29,28,17,56,56,83,76,26,9,8,6,0.5,0.3
2026-04-10T2200,2264A,127.5146,50.2339,黑河市,环保局,细颗粒物(PM2.5),74,81,35,47,18,36,36,82,72,57,19,15,7,0.8,0.5
2026-04-10T2200,1074A,115.6839,37.754,衡水市,电机北厂,颗粒物(PM10),59,62,58,16,34,83,83,116,108,27,20,3,3,0.2,0.4
2026-04-10T2200,1075A,115.6303,37.7318,衡水市,市监测站,颗粒物(PM10),52,52,58,16,30,77,77,114,106,23,17,6,5,0.2,0.5
2026-04-10T2200,3188A,115.6684,37.7216,衡水市,市城管局,颗粒物(PM10),55,57,55,22,36,86,86,118,111,20,18,3,2,0.2,0.4
2026-04-10T2200,3459A,115.599,37.5491,衡水市,地表水厂,颗粒物(PM10),59,62,60,19,29,42,42,117,95,44,23,4,4,0.3,0.4
2026-04-10T2200,2457A,112.6209,26.9268,衡阳市,衡阳化工总厂,,32,26,44,22,27,79,79,111,103,6,6,4,5,0.6,0.7
2026-04-10T2200,2458A,112.621,26.8957,衡阳市,珠晖区环保局,,29,22,40,20,26,75,75,107,98,8,10,7,7,0.8,0.9
2026-04-10T2200,2459A,112.628,26.8654,衡阳市,市委党校,,33,NA,38,23,25,80,80,114,106,5,4,7,8,0.9,0.9
2026-04-10T2200,2460A,112.6007,26.8977,衡阳市,市监测站,,27,27,42,3,24,74,74,106,99,13,18,6,7,0.7,0.8
2026-04-10T2200,2461A,112.5658,26.9013,衡阳市,真空机电公司,,27,22,42,18,31,85,85,113,103,10,10,5,6,1.0,1.1
2026-04-10T2200,3399A,112.6703,26.8817,衡阳市,师范学院,,25,23,41,15,26,80,80,118,110,6,4,6,7,0.8,0.8
2026-04-10T2200,3038A,103.3757,23.3679,红河哈尼族彝族自治州,州图书馆,细颗粒物(PM2.5),64,46,42,42,32,92,92,110,96,7,9,5,5,0.3,0.3
2026-04-10T2200,4154A,103.401,23.3561,红河哈尼族彝族自治州,蒙自市朝阳路,细颗粒物(PM2.5),56,57,34,38,30,85,85,111,98,11,11,5,4,0.4,0.5
2026-04-10T2200,1090A,111.6506,40.7517,呼和浩特市,呼市一监,,25,17,35,16,16,80,80,106,101,14,16,5,7,0.3,0.4
2026-04-10T2200,1094A,111.7516,40.8369,呼和浩特市,如意水处理厂,,22,22,24,12,13,54,54,106,95,37,20,6,7,0.3,0.3
2026-04-10T2200,1095A,111.727798,40.806187,呼和浩特市,二十九中,,23,18,32,3,14,71,71,99,96,20,12,7,9,0.3,0.4
2026-04-10T2200,1097A,111.717,40.7617,呼和浩特市,化肥厂生活区,,38,NA,30,26,22,84,84,104,100,14,18,5,7,0.3,0.4
2026-04-10T2200,3699A,111.6519,40.8389,呼和浩特市,海东办,颗粒物(PM10),108,139,45,3,10,47,47,100,88,38,20,4,6,0.3,0.4
2026-04-10T2200,4275A,111.591512,40.827312,呼和浩特市,成吉思汗西街8号,,27,27,36,3,9,48,48,96,84,34,28,4,6,0.3,0.4
2026-04-10T2200,4276A,111.6597,40.8077,呼和浩特市,公园东路75号,,24,24,35,6,12,65,65,95,90,27,16,4,5,0.3,0.3
2026-04-10T2200,4277A,111.5427,40.7846,呼和浩特市,金海路35号,,23,23,40,6,13,64,64,101,90,28,22,4,8,0.3,0.3
2026-04-10T2200,3061A,119.7511,49.1576,呼伦贝尔市,国华电力东,,23,23,22,7,9,62,62,77,70,6,8,4,4,0.2,0.2
2026-04-10T2200,4279A,119.7569,49.2222,呼伦贝尔市,伊敏大街东7号,,26,26,19,8,8,67,67,85,77,6,7,6,6,0.3,0.3
2026-04-10T2200,1250A,120.075,30.867,湖州市,城西水厂,颗粒物(PM10),53,54,42,36,32,107,107,155,153,39,26,6,6,0.9,0.7
2026-04-10T2200,2873A,120.083,30.8929,湖州市,仁皇山新区,,47,47,45,31,35,96,96,154,150,27,20,5,6,1.0,0.9
2026-04-10T2200,2907A,120.1846,30.8592,湖州市,吴兴区站,细颗粒物(PM2.5),62,56,43,41,33,128,128,155,154,33,20,7,7,0.7,0.7
2026-04-10T2200,3562A,120.4146,30.8538,湖州市,南浔区站,细颗粒物(PM2.5),111,87,39,72,34,102,102,152,147,28,12,6,6,1.0,0.8
2026-04-10T2200,1607A,120.904878,40.721091,葫芦岛市,龙港区,颗粒物(PM10),63,67,32,3,23,68,68,110,98,25,23,16,9,0.7,0.7
2026-04-10T2200,1608A,120.8382,40.7521,葫芦岛市,化工街,颗粒物(PM10),70,78,33,3,26,79,79,101,87,12,31,13,13,0.3,0.6
2026-04-10T2200,1609A,120.8339,40.7078,葫芦岛市,新区,颗粒物(PM10),56,58,26,6,24,78,78,104,93,17,23,11,9,0.5,0.7
2026-04-10T2200,1610A,120.8697,40.7679,葫芦岛市,东城区,颗粒物(PM10),58,61,28,7,27,79,79,106,91,15,32,12,10,0.5,0.7
2026-04-10T2200,2483A,109.9297,27.5383,怀化市,河西地税局,,26,NA,45,18,32,55,55,74,70,6,8,3,4,/,/
2026-04-10T2200,2484A,109.9783,27.5342,怀化市,市四医院,,39,32,48,27,33,62,62,79,76,5,6,2,4,0.5,0.5
2026-04-10T2200,2485A,109.9971,27.5579,怀化市,监测楼,NA,NA,NA,46,NA,31,NA,NA,87,NA,NA,6,NA,4,NA,0.5
2026-04-10T2200,1210A,119.0566,33.5991,淮安市,钵池山,颗粒物(PM10),88,102,56,50,31,56,56,122,113,50,15,8,8,1.1,0.7
2026-04-10T2200,1211A,119.0083,33.578,淮安市,北京南路,颗粒物(PM10),86,100,54,50,35,0,0,109,80,97,22,7,7,1.0,0.6
2026-04-10T2200,1212A,118.9938,33.6083,淮安市,市监测站,颗粒物(PM10),83,95,45,42,32,28,28,125,110,48,15,5,6,1.2,0.7
2026-04-10T2200,1213A,119.135,33.5038,淮安市,楚州区监测站,细颗粒物(PM2.5),98,93,54,59,35,23,23,116,93,59,16,5,5,0.6,0.5
2026-04-10T2200,3426A,118.8757,33.2897,淮安市,新华书店,颗粒物(PM10),71,79,53,30,22,58,58,113,98,40,10,6,6,0.7,0.6
2026-04-10T2200,4092A,119.119691,33.550006,淮安市,枚皋中路89号,颗粒物(PM10),63,67,51,34,26,26,26,119,100,24,12,10,10,1.0,0.8
2026-04-10T2200,4206A,119.028838,33.631911,淮安市,承德北路606号,颗粒物(PM10),105,132,63,55,33,26,26,115,96,69,17,8,9,0.9,0.4
2026-04-10T2200,2282A,116.8005,33.9749,淮北市,监测站,颗粒物(PM10),52,52,42,25,31,79,79,113,106,22,16,6,6,0.6,0.6
2026-04-10T2200,2283A,116.8094,33.9008,淮北市,烈山区政府,颗粒物(PM10),58,60,52,16,22,73,73,119,111,14,18,6,6,0.5,0.5
2026-04-10T2200,4017A,116.7926,33.9534,淮北市,市博物馆,颗粒物(PM10),89,104,47,31,22,46,46,115,99,44,20,5,5,1.4,0.8
2026-04-10T2200,4100A,116.8322,33.9884,淮北市,杜集区第一实验学校,颗粒物(PM10),75,84,63,25,24,48,48,105,93,29,16,7,6,0.5,0.5
2026-04-10T2200,2277A,116.8304,32.7726,淮南市,潘集区政府,颗粒物(PM10),63,68,36,21,20,58,58,84,80,32,22,6,6,0.5,0.6
2026-04-10T2200,2279A,116.8569,32.5949,淮南市,谢家集区政府,颗粒物(PM10),67,73,29,41,19,61,61,95,90,27,17,11,8,0.6,0.5
2026-04-10T2200,2280A,116.8279,32.6333,淮南市,八公山区政府,细颗粒物(PM2.5),72,59,36,46,22,72,72,87,84,12,12,7,7,0.6,0.6
2026-04-10T2200,2894A,117.0561,32.6536,淮南市,经济技术开发区消防队,颗粒物(PM10),59,62,34,32,22,40,40,102,90,44,20,8,7,0.6,0.6
2026-04-10T2200,3329A,117.011,32.5891,淮南市,山南新区,颗粒物(PM10),67,73,35,32,20,55,55,118,104,23,14,8,7,0.7,0.6
2026-04-10T2200,4209A,117.003137,32.644456,淮南市,国庆中路369号,颗粒物(PM10),89,104,49,51,27,17,17,96,77,56,17,6,5,1.0,0.3
2026-04-10T2200,2446A,114.9021,30.474,黄冈市,职工中心,颗粒物(PM10),57,59,28,38,16,74,74,103,97,15,8,12,6,0.6,0.4
2026-04-10T2200,2929A,114.8858,30.4519,黄冈市,红卫路,细颗粒物(PM2.5),60,54,29,40,22,61,61,105,94,20,7,11,5,0.8,0.4
2026-04-10T2200,3398A,114.9134,30.4446,黄冈市,市林业局,颗粒物(PM10),63,68,31,34,19,70,70,94,89,13,6,4,4,0.5,0.3
2026-04-10T2200,2672A,102.02,35.5101,黄南藏族自治州,同仁县隆务镇,,34,31,40,12,18,107,107,120,118,1,4,10,11,0.1,0.2
2026-04-10T2200,2295A,118.2905,29.6965,黄山市,延安路89号,,36,36,20,23,13,52,52,99,82,11,7,5,5,0.7,0.6
2026-04-10T2200,2297A,118.1369,30.2755,黄山市,黄山区政府5号楼,,38,38,17,24,8,31,31,89,76,12,6,2,2,0.7,0.5
2026-04-10T2200,4210A,118.335445,29.720283,黄山市,滨江东路7-2号,,48,48,32,15,10,60,60,99,76,8,6,/,/,/,/
2026-04-10T2200,2423A,115.0547,30.2332,黄石市,沈家营,颗粒物(PM10),78,88,57,39,29,19,19,61,50,26,13,6,9,0.6,0.6
2026-04-10T2200,2426A,114.899,30.211,黄石市,铁山,颗粒物(PM10),55,57,43,30,27,78,78,74,70,5,17,10,10,0.9,1.1
2026-04-10T2200,2427A,115.0259,30.2108,黄石市,团城山,细颗粒物(PM2.5),72,74,48,46,31,22,22,54,44,26,11,7,9,1.1,0.8
2026-04-10T2200,3149A,115.0174,30.1591,黄石市,笔架山北路,颗粒物(PM10),76,86,77,29,36,72,72,71,71,7,11,11,9,0.7,0.9
2026-04-10T2200,4185A,115.078022,30.21118,黄石市,磁湖东路29号,颗粒物(PM10),90,106,65,52,31,33,33,67,58,47,20,4,6,1.2,1
2026-04-10T2200,1392A,114.4181,23.0528,惠州市,河南岸金山湖子站,,35,35,31,17,19,26,26,71,54,15,13,6,6,0.6,0.5
2026-04-10T2200,1393A,114.4055,23.0824,惠州市,下埔横江三路子站,,40,40,34,18,17,30,30,72,58,15,12,4,4,0.6,0.6
2026-04-10T2200,1395A,114.4645,22.7832,惠州市,惠阳区承修路船湖子站,,33,33,32,17,17,32,32,58,48,9,10,5,5,0.4,0.4
2026-04-10T2200,1396A,114.5316,22.7423,惠州市,大亚湾管委会子站,,26,26,32,11,14,39,39,53,48,2,9,4,4,0.5,0.5
2026-04-10T2200,3314A,114.4334,22.8134,惠州市,惠阳秋长,,19,19,29,11,16,37,37,62,53,10,13,/,/,/,/
2026-04-10T2200,3452A,114.6521,22.7755,惠州市,大亚湾霞涌,,15,15,21,10,11,40,40,53,51,10,10,/,/,/,/
2026-04-10T2200,4300A,114.4089,23.1147,惠州市,文华一路1号,,34,34,32,18,17,32,32,76,61,13,13,/,/,/,/
2026-04-10T2200,2240A,130.9618,45.2926,鸡西市,环保局,,22,13,50,7,26,69,69,92,80,6,10,6,8,0.2,0.3
2026-04-10T2200,2243A,130.9294,45.2959,鸡西市,第一中学,,20,9,43,9,27,64,64,88,77,8,12,4,5,0.1,0.2
2026-04-10T2200,3707A,131.0069,45.2988,鸡西市,欧美日汽修厂,,21,NA,54,9,27,65,65,89,77,5,9,2,3,0.3,0.4
2026-04-10T2200,2367A,114.9753,27.0803,吉安市,红声器材厂,,34,24,41,6,22,106,106,104,102,9,11,6,6,0.8,0.8
2026-04-10T2200,2369A,114.9903,27.1313,吉安市,市环境监测站,,33,29,31,10,22,105,105,106,104,6,7,11,9,/,/
2026-04-10T2200,2370A,115.009527,27.096792,吉安市,青原区法院,,35,20,37,6,22,109,109,106,105,8,8,7,7,0.7,0.8
2026-04-10T2200,1772A,126.54,43.8622,吉林市,哈达湾,,45,40,53,31,37,72,72,81,81,12,17,5,7,0.4,0.6
2026-04-10T2200,1773A,126.5843,43.8358,吉林市,东局子,细颗粒物(PM2.5),54,NA,52,37,45,71,71,75,75,13,20,4,5,0.9,0.9
2026-04-10T2200,1774A,126.5051,43.8243,吉林市,电力学院,,43,37,56,30,41,75,75,89,88,15,20,5,7,0.7,0.9
2026-04-10T2200,1775A,126.6133,43.8971,吉林市,江北,细颗粒物(PM2.5),66,46,57,43,43,58,58,63,63,14,14,9,10,0.6,0.6
2026-04-10T2200,1776A,126.5549,43.8304,吉林市,江南公园,,45,36,57,31,40,73,73,80,78,11,23,6,7,0.6,0.7
2026-04-10T2200,2868A,126.4737,43.953,吉林市,九站,,46,37,53,32,39,69,69,73,73,13,17,7,10,0.6,0.7
2026-04-10T2200,1299A,116.9866,36.6118,济南市,科干所,,48,48,59,14,42,103,103,115,114,14,16,8,6,0.5,0.7
2026-04-10T2200,1300A,116.9379,36.6652,济南市,农科所,颗粒物(PM10),51,51,62,16,38,69,69,104,94,39,27,7,6,0.3,0.4
2026-04-10T2200,1301A,117.1265,36.6736,济南市,开发区,,34,34,53,3,29,95,95,114,106,17,18,4,5,0.3,0.6
2026-04-10T2200,1303A,117.0616,36.6865,济南市,省种子仓库,颗粒物(PM10),60,63,67,15,34,85,85,116,106,30,20,8,7,0.6,0.7
2026-04-10T2200,1304A,116.9495185,36.644937,济南市,机床二厂,颗粒物(PM10),60,63,65,16,42,90,90,113,105,22,26,6,5,0.5,0.7
2026-04-10T2200,1305A,117.0496,36.6629,济南市,市监测站,,46,46,58,12,33,83,83,110,101,25,19,4,4,0.6,0.7
2026-04-10T2200,1306A,116.7674,36.5458,济南市,长清党校,,49,49,65,18,34,92,92,112,106,17,21,7,4,0.5,0.7
2026-04-10T2200,1961A,117.5323,36.6865,济南市,东山小学,,37,37,56,3,22,90,90,117,94,15,19,2,3,0.3,0.4
2026-04-10T2200,3059A,117.7181,36.205,济南市,泰兴公司,NA,NA,70,66,22,32,27,27,128,110,NA,18,8,9,0.6,0.8
2026-04-10T2200,3064A,117.6861,36.2172,济南市,莱芜战役纪念馆,颗粒物(PM10),58,61,62,19,29,108,108,124,117,17,16,6,6,0.5,0.9
2026-04-10T2200,3494A,117.1673,36.9782,济南市,济阳区政府,颗粒物(PM10),63,68,70,20,51,65,65,104,100,43,27,9,9,0.8,0.7
2026-04-10T2200,3495A,117.1168,36.6299,济南市,锦屏中学,,44,44,42,8,26,101,101,113,105,14,15,5,5,0.2,0.3
2026-04-10T2200,4108A,117.7107,36.2385,济南市,山财大街5号,颗粒物(PM10),53,53,59,22,34,100,100,128,120,25,20,5,5,0.7,0.7
2026-04-10T2200,4109A,116.9744,36.6889,济南市,无影山路12号,颗粒物(PM10),51,51,53,16,44,85,85,106,99,22,24,5,4,0.6,0.8
2026-04-10T2200,1653A,116.6229,35.4288,济宁市,火炬城,颗粒物(PM10),55,57,45,25,31,80,80,116,108,18,13,6,7,0.7,0.7
2026-04-10T2200,3500A,116.5808,35.3703,济宁市,北湖一中,颗粒物(PM10),52,52,48,18,26,78,78,126,115,52,21,6,6,0.3,0.5
2026-04-10T2200,3501A,116.8251,35.5592,济宁市,服务中心,颗粒物(PM10),53,53,42,23,34,64,64,120,105,32,14,2,1,0.7,0.7
2026-04-10T2200,3678A,116.5907,35.4054,济宁市,市第七中学,颗粒物(PM10),60,64,53,20,29,94,94,133,123,29,18,3,2,0.7,0.7
2026-04-10T2200,4111A,116.6075,35.4566,济宁市,任和路,颗粒物(PM10),67,73,61,20,25,77,77,126,112,22,14,5,5,0.6,0.5
2026-04-10T2200,4112A,116.5648,35.3921,济宁市,文体南路1号,颗粒物(PM10),68,74,63,28,27,84,84,123,107,37,20,4,4,0.6,0.6
2026-04-10T2200,4122A,112.6071,35.1015,济源市,市委党校,颗粒物(PM10),96,114,101,42,42,42,42,124,105,45,21,9,8,0.4,0.6
2026-04-10T2200,4123A,112.596,35.0702,济源市,沁园中路1号,颗粒物(PM10),80,91,90,43,42,46,46,123,104,43,25,6,5,1.0,1
2026-04-10T2200,2255A,130.2749,46.8028,佳木斯市,佳纺,,38,38,33,11,14,81,81,81,74,9,13,5,6,0.3,0.3
2026-04-10T2200,2257A,130.3258,46.7975,佳木斯市,环保局,,35,35,32,9,14,64,64,71,62,8,12,4,5,0.3,0.3
2026-04-10T2200,4285A,130.363,46.806,佳木斯市,顺和街,,32,32,29,15,16,76,76,70,70,10,10,2,4,0.4,0.2
2026-04-10T2200,4286A,130.3952,46.8268,佳木斯市,长安路196号,,33,33,35,18,15,79,79,78,72,10,8,6,8,0.4,0.3
2026-04-10T2200,1252A,120.7439,30.778,嘉兴市,清河小学,细颗粒物(PM2.5),107,91,40,67,28,86,86,142,130,25,17,8,7,0.7,0.6
2026-04-10T2200,1253A,120.7261,30.7477,嘉兴市,嘉兴学院,细颗粒物(PM2.5),110,113,44,71,29,82,82,136,124,29,21,8,6,0.8,0.7
2026-04-10T2200,2872A,120.7845,30.7524,嘉兴市,南湖区残联,细颗粒物(PM2.5),108,93,40,68,28,85,85,142,129,26,17,4,4,0.9,0.8
2026-04-10T2200,3407A,120.6915,30.7741,嘉兴市,秀洲住建,细颗粒物(PM2.5),105,NA,31,65,26,86,86,142,118,25,19,7,6,0.7,0.6
2026-04-10T2200,1945A,98.291,39.7705,嘉峪关市,气象局,颗粒物(PM10),53,53,67,21,19,113,113,120,119,8,20,8,8,0.5,0.6
2026-04-10T2200,2884A,98.2672,39.7978,嘉峪关市,酒钢宾馆,颗粒物(PM10),74,83,76,27,19,77,77,114,107,42,18,99,24,3.1,0.9
2026-04-10T2200,3248A,98.2644,39.7723,嘉峪关市,雄关区,颗粒物(PM10),63,68,66,20,17,101,101,119,116,20,24,32,9,1.1,0.5
2026-04-10T2200,1383A,113.1063,22.6058,江门市,北街,,19,14,27,13,13,36,36,58,48,10,11,/,/,/,/
2026-04-10T2200,1384A,113.073,22.5835,江门市,西区,,30,30,28,14,14,37,37,60,48,14,14,/,/,/,/
2026-04-10T2200,1385A,113.0218,22.531,江门市,圭峰西,,34,34,30,16,14,29,29,58,45,21,14,/,/,/,/
2026-04-10T2200,1386A,113.0826,22.5947,江门市,东湖,,27,27,29,17,13,36,36,59,48,12,11,6,6,0.3,0.4
2026-04-10T2200,3311A,113.1077,22.5647,江门市,江海富民,,27,27,37,14,14,39,39,60,50,10,11,/,/,0.3,0.3
2026-04-10T2200,3449A,113.0496,22.4669,江门市,新会银湖,,23,23,25,14,12,34,34,53,44,13,13,6,6,0.3,0.3
2026-04-10T2200,3335A,113.3137,35.2643,焦作市,马村街道办,颗粒物(PM10),58,60,75,16,45,89,89,109,102,13,14,10,9,0.4,0.7
2026-04-10T2200,3336A,113.2464,35.2374,焦作市,焦作技师学院,颗粒物(PM10),63,68,85,23,51,76,76,116,102,17,18,10,8,0.8,1.1
2026-04-10T2200,3477A,113.1656,35.2536,焦作市,中站许衡医院,颗粒物(PM10),57,59,78,21,52,92,92,120,112,17,17,12,13,0.5,0.8
2026-04-10T2200,3981A,113.2456,35.18,焦作市,原李万街道办,,47,47,72,27,52,79,79,109,101,20,16,9,9,0.6,0.6
2026-04-10T2200,4264A,113.234,35.219,焦作市,新安路1731号,颗粒物(PM10),58,60,88,27,58,78,78,125,113,28,21,12,10,1.0,1
2026-04-10T2200,4295A,113.2722,35.2121,焦作市,人民路3066号,颗粒物(PM10),58,61,87,20,52,80,80,118,108,15,13,7,5,0.9,0.8
2026-04-10T2200,1708A,116.3701,23.5345,揭阳市,新兴,,27,27,39,18,20,30,30,64,49,16,16,7,9,0.5,0.6
2026-04-10T2200,1709A,116.3261,23.5442,揭阳市,西马,,36,36,42,16,19,31,31,61,46,15,17,4,7,0.5,0.6
2026-04-10T2200,1710A,116.361,23.5627,揭阳市,东兴,,19,19,36,12,17,38,38,71,54,9,16,2,5,/,/
2026-04-10T2200,1711A,116.4151,23.5295,揭阳市,渔湖,,22,17,42,15,21,43,43,79,62,12,17,14,5,/,/
2026-04-10T2200,3320A,116.4028,23.5699,揭阳市,曲溪,,44,44,40,15,19,38,38,82,60,9,17,8,13,0.5,0.5
2026-04-10T2200,1944A,102.1691,38.5166,金昌市,天庆家园,颗粒物(PM10),74,83,80,31,25,101,101,120,115,11,13,22,31,1.4,0.7
2026-04-10T2200,4022A,102.1648,38.5369,金昌市,金川区人防中心,颗粒物(PM10),80,92,90,34,24,87,87,118,111,21,13,6,9,0.4,0.4
2026-04-10T2200,4239A,102.193042,38.531887,金昌市,长春路96号,颗粒物(PM10),78,89,80,26,28,95,95,116,111,8,12,9,24,0.4,0.5
2026-04-10T2200,1262A,119.6478,29.0773,金华市,十五中,颗粒物(PM10),58,61,30,30,16,64,64,128,110,28,15,4,3,0.7,0.7
2026-04-10T2200,1263A,119.6859,29.1032,金华市,监测站,,46,46,28,25,15,54,54,125,100,36,17,4,4,0.6,0.6
2026-04-10T2200,3659A,119.656,29.1132,金华市,气象局,颗粒物(PM10),58,60,29,32,14,13,13,117,82,75,23,3,3,0.7,0.6
2026-04-10T2200,1767A,121.1114,41.0879,锦州市,南山,颗粒物(PM10),55,57,30,12,25,84,84,109,103,16,16,9,9,0.5,0.6
2026-04-10T2200,1768A,121.060361,40.842794,锦州市,开发区,颗粒物(PM10),67,73,38,24,32,78,78,102,89,20,31,9,7,0.6,0.6
2026-04-10T2200,1769A,121.1836,41.1118,锦州市,百股街道,,43,38,27,30,28,79,79,109,98,19,15,5,7,0.6,0.5
2026-04-10T2200,1770A,121.1176,41.1224,锦州市,天安街道,颗粒物(PM10),58,61,29,14,22,76,76,103,97,17,15,5,7,0.6,0.7
2026-04-10T2200,1771A,121.1303,41.1385,锦州市,北湖公园,颗粒物(PM10),55,57,27,19,25,76,76,106,98,16,12,7,9,0.4,0.4
2026-04-10T2200,2160A,112.8496,35.5051,晋城市,自来水公司,颗粒物(PM10),65,70,79,18,21,110,110,126,125,17,12,5,5,0.6,0.6
2026-04-10T2200,2162A,112.8509,35.4886,晋城市,市环保局,颗粒物(PM10),62,66,72,24,23,90,90,127,123,25,12,6,6,0.5,0.5
2026-04-10T2200,3620A,112.8258,35.4804,晋城市,泽州一中,NA,NA,56,68,22,21,102,102,124,122,NA,25,4,4,0.5,0.5
2026-04-10T2200,4078A,112.8246,35.5152,晋城市,前书院路,颗粒物(PM10),70,78,70,25,24,61,61,114,108,30,16,6,6,0.3,0.4
2026-04-10T2200,4079A,112.8864,35.4773,晋城市,祥云街666号,,43,43,68,15,25,109,109,124,123,12,9,8,7,0.4,0.7
2026-04-10T2200,2174A,112.6992,37.6984,晋中市,榆次区政府,颗粒物(PM10),74,83,69,27,18,41,41,115,103,61,26,7,5,0.5,0.6
2026-04-10T2200,2865A,112.7195,37.683,晋中市,榆次三中,颗粒物(PM10),79,90,69,33,16,59,59,120,110,40,20,8,6,0.4,0.4
2026-04-10T2200,4080A,112.7375,37.7215,晋中市,广安街188号,颗粒物(PM10),68,74,58,23,13,12,12,114,97,82,24,5,4,0.3,0.3
2026-04-10T2200,4200A,112.7478,37.6954,晋中市,迎宾街26号,颗粒物(PM10),63,68,65,21,16,67,67,122,113,33,19,5,5,0.4,0.4
2026-04-10T2200,2439A,112.2012,31.048,荆门市,竹园小学,NA,NA,87,58,45,32,NA,NA,76,76,17,17,3,4,0.6,0.4
2026-04-10T2200,2440A,112.1968,30.9892,荆门市,掇刀,颗粒物(PM10),72,80,64,45,38,87,87,80,80,15,17,7,8,1.0,0.8
2026-04-10T2200,3012A,112.1849,31.0361,荆门市,西山林语,颗粒物(PM10),69,76,55,41,28,92,92,75,75,10,14,7,5,0.9,0.6
2026-04-10T2200,3547A,112.1631,31.0134,荆门市,龙泉中学南校,颗粒物(PM10),74,83,58,33,26,96,96,84,84,11,14,6,4,1.0,1
2026-04-10T2200,4124A,112.2213,31.0654,荆门市,新台西路6号,细颗粒物(PM2.5),78,76,53,49,36,46,46,75,72,28,14,7,6,0.7,0.6
2026-04-10T2200,1844A,112.2493,30.3198,荆州市,市图书馆,细颗粒物(PM2.5),62,49,37,41,37,4,4,66,46,54,30,5,5,0.8,0.8
2026-04-10T2200,1845A,112.2009,30.3543,荆州市,市委党校,颗粒物(PM10),55,56,43,35,33,28,28,56,44,22,23,6,6,0.9,0.9
2026-04-10T2200,3194A,112.2749,30.3124,荆州市,管委会,细颗粒物(PM2.5),78,75,44,49,36,5,5,57,42,54,28,6,6,1.0,0.8
2026-04-10T2200,4268A,112.1722,30.3366,荆州市,学苑路85号,细颗粒物(PM2.5),56,54,33,38,30,36,36,75,59,11,15,3,2,0.5,0.8
2026-04-10T2200,2343A,117.2114,29.2931,景德镇市,老干部活动中心,,34,34,28,21,19,26,26,117,81,25,10,5,5,0.7,0.6
2026-04-10T2200,2344A,117.1893,29.2789,景德镇市,兽医站,,45,33,27,31,17,36,36,108,86,17,11,3,4,0.8,0.7
2026-04-10T2200,2346A,117.246,29.2958,景德镇市,陶研所,,35,33,19,24,15,19,19,107,73,14,11,3,4,0.6,0.5
2026-04-10T2200,4289A,117.154766,29.256967,景德镇市,青少年活动中心,,43,33,23,30,19,39,39,100,82,15,16,5,12,/,/
2026-04-10T2200,1803A,115.9873,29.6816,九江市,十里,颗粒物(PM10),52,52,44,26,28,77,77,80,80,20,27,8,8,0.9,0.9
2026-04-10T2200,1804A,115.9583,29.7047,九江市,茅山头,NA,NA,54,36,NA,35,81,81,90,86,20,23,4,4,0.7,0.6
2026-04-10T2200,1805A,115.9877,29.7295,九江市,西园,,50,50,37,24,28,80,80,89,84,29,41,5,4,0.6,0.6
2026-04-10T2200,1808A,115.9112,29.6038,九江市,综合工业园,,48,48,37,15,25,92,92,73,67,25,32,12,9,0.8,0.5
2026-04-10T2200,3190A,116.0254,29.6995,九江市,外国语学校,,49,49,31,25,29,69,69,71,67,23,29,8,8,0.8,0.8
2026-04-10T2200,4253A,116.010205,29.659402,九江市,莲花大道8号,,49,49,30,20,22,72,72,73,72,24,16,7,5,0.8,0.7
2026-04-10T2200,4240A,98.495752,39.733935,酒泉市,玉门东路5号,颗粒物(PM10),60,63,77,22,22,89,89,104,102,8,16,6,7,0.2,0.3
2026-04-10T2200,4241A,98.5099,39.7506,酒泉市,北大街108号,颗粒物(PM10),55,56,73,22,28,78,78,96,92,9,17,8,9,0.2,0.3
2026-04-10T2200,2698A,76.0071,39.466,喀什地区,巡警大队,颗粒物(PM10),53,53,211,20,58,109,109,115,115,6,7,3,4,0.3,0.2
2026-04-10T2200,2699A,75.9756,39.4693,喀什地区,吾办,颗粒物(PM10),57,59,208,15,52,111,111,113,113,2,4,2,3,0.2,0.3
2026-04-10T2200,4027A,75.9485,39.4688,喀什地区,老干局,颗粒物(PM10),85,98,222,19,63,113,113,116,116,5,4,2,2,0.1,0.1
2026-04-10T2200,1824A,114.3389,34.778,开封市,肿瘤医院,颗粒物(PM10),75,85,63,39,47,65,65,129,108,45,21,7,7,0.7,0.8
2026-04-10T2200,1826A,114.2884,34.7966,开封市,世纪星幼儿园,颗粒物(PM10),68,75,61,33,45,80,80,122,108,31,21,7,7,0.5,0.7
2026-04-10T2200,3147A,114.3434,34.8101,开封市,龙亭公园,颗粒物(PM10),76,86,67,36,46,83,83,127,112,33,21,8,8,0.7,1
2026-04-10T2200,3210A,114.3645,34.7955,开封市,汴京公园,颗粒物(PM10),75,85,76,34,47,72,72,122,103,31,20,6,5,1.0,1.1
2026-04-10T2200,3473A,114.2485,34.8306,开封市,技师学院,颗粒物(PM10),57,59,49,24,42,102,102,121,115,19,19,9,10,0.5,0.7
2026-04-10T2200,3592A,114.4518,34.7503,开封市,祥符区生态环境局,"颗粒物(PM10),细颗粒物(PM2.5)",60,64,58,40,54,45,45,116,95,61,28,7,9,0.7,0.8
2026-04-10T2200,1951A,84.886,45.6029,克拉玛依市,长征新村,,26,18,30,7,10,81,81,92,87,8,2,6,6,0.2,0.3
2026-04-10T2200,1952A,84.8894,45.5827,克拉玛依市,南林小区,,29,16,28,6,7,92,92,98,94,1,2,3,3,0.6,0.4
2026-04-10T2200,1954A,84.896,44.3328,克拉玛依市,独山子区,颗粒物(PM10),78,88,255,10,35,84,84,90,83,5,4,5,5,0.3,0.4
2026-04-10T2200,1955A,85.6888,46.0909,克拉玛依市,乌尔禾区商贸楼,,35,35,66,3,16,79,79,79,79,6,6,2,3,0.3,0.3
2026-04-10T2200,3612A,85.1045,45.6895,克拉玛依市,白碱滩区新站,,32,22,52,9,9,100,100,100,99,2,2,6,7,0.1,0.1
2026-04-10T2200,2697A,76.1457,39.7143,克孜勒苏柯尔克孜自治州,市人民政府,,38,32,154,24,28,121,121,117,117,5,5,4,5,0.1,0.1
2026-04-10T2200,3665A,76.1654,39.7157,克孜勒苏柯尔克孜自治州,克州文化中心,,37,35,176,14,30,118,118,133,117,2,4,8,9,0.2,0.1
2026-04-10T2200,1450A,102.8203,24.889,昆明市,呈贡新区,,37,17,28,16,17,117,117,117,115,8,9,2,4,0.5,0.6
2026-04-10T2200,1452A,102.7253,25.0904,昆明市,龙泉镇,,35,35,28,16,15,100,100,103,102,11,11,6,5,0.5,0.4
2026-04-10T2200,1453A,102.7267,25.0378,昆明市,东风东路,,34,24,27,15,17,107,107,111,110,16,13,3,5,0.4,0.5
2026-04-10T2200,1454A,102.6744,25.0671,昆明市,金鼎山,,35,29,28,14,15,110,110,108,108,10,10,4,3,0.5,0.5
2026-04-10T2200,1455A,102.6643,25.0401,昆明市,碧鸡广场,,35,27,29,14,17,109,109,107,107,10,12,7,7,0.4,0.4
2026-04-10T2200,3179A,102.7491,25.012,昆明市,官渡区博物馆,,36,20,27,18,17,113,113,110,110,10,10,3,5,0.4,0.5
2026-04-10T2200,3375A,102.8016,24.8336,昆明市,青年创业园,,36,18,28,16,16,115,115,116,116,4,5,5,5,0.4,0.4
2026-04-10T2200,3550A,102.8,24.9787,昆明市,昆明学院,,37,21,29,16,15,118,118,109,109,7,8,5,6,0.5,0.5
2026-04-10T2200,3551A,102.5969,24.6738,昆明市,晋宁区生态环境分局,,35,24,22,16,20,112,112,114,114,6,5,2,2,0.4,0.4
2026-04-10T2200,3552A,102.6673,24.9861,昆明市,云天化总部,,38,21,29,12,14,121,121,116,116,7,10,4,6,0.4,0.4
2026-04-10T2200,1456A,91.132,29.6515,拉萨市,八廓街,臭氧1小时(O3_1h),68,19,12,10,6,174,174,190,190,8,5,4,4,0.3,0.2
2026-04-10T2200,1457A,91.1221,29.6748,拉萨市,市环保局,臭氧1小时(O3_1h),55,9,10,6,6,164,164,181,181,11,8,4,5,0.2,0.3
2026-04-10T2200,1458A,91.0874,29.6476,拉萨市,区监测站,臭氧1小时(O3_1h),65,13,8,3,6,172,172,181,181,10,10,5,5,0.2,0.2
2026-04-10T2200,1459A,91.1774,29.6541,拉萨市,西藏大学,臭氧1小时(O3_1h),65,15,10,7,6,172,172,183,183,10,10,4,4,0.2,0.2
2026-04-10T2200,1460A,90.9798,29.6586,拉萨市,区辐射站,臭氧1小时(O3_1h),55,22,12,7,6,164,164,171,171,15,10,4,4,0.3,0.3
2026-04-10T2200,1461A,91.0831,29.6292,拉萨市,拉萨火车站,臭氧1小时(O3_1h),72,NA,8,11,5,177,177,188,188,7,6,4,4,0.3,0.2
2026-04-10T2200,2520A,109.2203,23.7252,来宾市,来宾技工学校,细颗粒物(PM2.5),82,73,60,51,40,97,97,132,127,7,3,8,6,0.8,0.7
2026-04-10T2200,3535A,109.1781,23.7293,来宾市,兴宾区政府,细颗粒物(PM2.5),86,73,63,53,38,91,91,150,136,23,8,8,8,0.8,0.8
2026-04-10T2200,4002A,109.2312,23.7428,来宾市,中南小学,细颗粒物(PM2.5),76,72,62,48,40,107,107,146,136,10,9,6,7,0.7,0.7
2026-04-10T2200,1479A,103.8309,36.0467,兰州市,铁路设计院,颗粒物(PM10),73,81,76,37,30,29,29,96,84,77,46,4,10,0.6,0.8
2026-04-10T2200,3241A,103.7439,36.0841,兰州市,百合公园,颗粒物(PM10),69,76,81,30,25,40,40,108,95,65,39,5,7,0.8,1
2026-04-10T2200,3242A,103.9613,35.9985,兰州市,和平,颗粒物(PM10),65,71,63,25,19,88,88,115,109,14,16,6,8,0.4,0.5
2026-04-10T2200,4236A,103.629272,36.093822,兰州市,庄浪东路808号,颗粒物(PM10),90,105,75,34,22,44,44,110,93,59,25,8,10,0.5,0.4
2026-04-10T2200,4237A,103.7251,36.104344,兰州市,安宁西路88号,颗粒物(PM10),70,77,74,27,21,83,83,123,115,28,24,8,11,0.4,0.4
2026-04-10T2200,4238A,103.846982,36.067567,兰州市,北滨河东路1号,颗粒物(PM10),61,65,65,32,25,73,73,108,100,34,38,8,12,0.5,0.7
2026-04-10T2200,1067A,116.6712,39.5109,廊坊市,药材公司,颗粒物(PM10),58,60,54,18,38,72,72,105,100,24,15,2,1,0.4,0.5
2026-04-10T2200,1068A,116.7215,39.5592,廊坊市,开发区,,47,47,55,21,41,83,83,113,108,19,11,1,2,0.2,0.3
2026-04-10T2200,1070A,116.7246,39.5273,廊坊市,北华航天学院,,50,50,48,13,34,88,88,114,111,19,14,3,2,0.3,0.4
2026-04-10T2200,2919A,116.7022,39.5454,廊坊市,河北工业大学,,49,49,41,15,38,88,88,114,111,17,12,3,2,0.3,0.4
2026-04-10T2200,2536A,103.7629,29.5844,乐山市,牛耳桥,,42,42,35,21,17,60,60,102,79,25,25,8,8,0.4,0.4
2026-04-10T2200,2537A,103.7501,29.6002,乐山市,市第三水厂,,37,37,33,22,15,59,59,97,79,24,23,5,5,0.4,0.4
2026-04-10T2200,2538A,103.7571,29.5664,乐山市,市监测站,,42,42,34,20,15,58,58,101,82,26,21,4,5,0.5,0.5
2026-04-10T2200,3361A,103.7313,29.563,乐山市,理工大学,,42,42,35,22,16,53,53,107,88,29,20,3,5,0.5,0.5
2026-04-10T2200,2599A,100.2497,26.8802,丽江市,丽江古城,,32,18,22,9,11,100,100,117,110,7,8,9,8,0.4,0.4
2026-04-10T2200,2600A,100.2203,26.8906,丽江市,市中心,,32,NA,14,10,11,100,100,118,110,8,10,8,8,0.4,0.4
2026-04-10T2200,1267A,119.9141,28.4513,丽水市,监测站大楼,,39,39,32,23,16,58,58,135,120,24,14,5,5,0.6,0.6
2026-04-10T2200,1268A,119.93,28.4589,丽水市,莲都小学,,30,30,25,18,13,78,78,132,121,21,14,/,/,/,/
2026-04-10T2200,1269A,119.8794,28.4232,丽水市,余庄前,,28,28,25,16,14,38,38,111,83,11,14,5,5,0.6,0.6
2026-04-10T2200,1173A,119.1759,34.5885,连云港市,市环境监测站,细颗粒物(PM2.5),86,85,63,53,46,58,58,140,122,48,28,9,11,0.8,0.7
2026-04-10T2200,3000A,119.3577,34.6971,连云港市,德源药业,细颗粒物(PM2.5),108,127,71,68,44,50,50,138,110,70,31,6,8,0.5,0.5
2026-04-10T2200,3007A,119.178,34.8442,连云港市,新城一中,"颗粒物(PM10),细颗粒物(PM2.5)",66,72,66,43,42,70,70,140,124,59,21,6,6,0.6,0.7
2026-04-10T2200,3008A,119.3607,34.7519,连云港市,胡沟管理处,颗粒物(PM10),67,73,57,29,39,117,117,140,130,27,22,12,14,0.4,0.6
2026-04-10T2200,3009A,119.1478,34.5913,连云港市,矿山设计院,颗粒物(PM10),72,80,65,36,41,86,86,136,123,28,26,9,11,0.8,0.7
2026-04-10T2200,3434A,119.2414,34.6539,连云港市,工贸学校,颗粒物(PM10),55,56,57,29,43,115,115,151,146,15,17,10,13,0.5,0.6
2026-04-10T2200,3664A,119.4171,34.734,连云港市,连云街道,颗粒物(PM10),55,56,54,30,34,142,142,137,137,9,17,4,5,0.4,0.5
2026-04-10T2200,2573A,102.2629,27.8981,凉山彝族自治州,西昌市政府,,37,22,22,9,12,117,117,125,122,6,7,7,8,0.4,0.6
2026-04-10T2200,2574A,102.2686,27.885,凉山彝族自治州,凉山州政府,,32,16,27,7,9,100,100,109,107,4,6,6,8,0.6,0.3
2026-04-10T2200,4229A,102.2342,27.8859,凉山彝族自治州,凯乐南路30号,,33,23,26,7,9,104,104,114,111,12,10,13,9,0.7,0.6
2026-04-10T2200,2212A,123.1978,41.2036,辽阳市,宏伟区,,32,32,52,9,46,85,85,88,88,7,19,5,6,0.5,1
2026-04-10T2200,2213A,123.1684,41.2497,辽阳市,新华园,,31,31,53,11,46,82,82,86,85,11,24,5,8,0.4,0.7
2026-04-10T2200,2214A,123.2355,41.2663,辽阳市,滨河路,,30,30,48,14,49,82,82,86,82,12,24,6,7,0.5,0.8
2026-04-10T2200,4083A,123.153,41.2874,辽阳市,铁西路150号,,26,26,48,13,43,75,75,82,82,10,22,7,7,0.4,0.7
2026-04-10T2200,2227A,125.1359,42.8845,辽源市,环保局,,27,27,44,13,38,79,79,87,83,9,13,5,6,0.0,0.4
2026-04-10T2200,4085A,125.0998,42.9134,辽源市,安宁大街333号,,27,24,50,13,39,86,86,94,89,8,11,4,5,0.4,0.5
2026-04-10T2200,1625A,115.9789,36.4372,聊城市,区政府,颗粒物(PM10),65,70,53,19,26,94,94,120,114,18,13,8,6,0.8,0.8
2026-04-10T2200,3200A,115.9772,36.4986,聊城市,监控中心,颗粒物(PM10),68,74,61,20,26,111,111,126,124,19,21,10,8,0.5,0.6
2026-04-10T2200,3513A,116.0443,36.436,聊城市,九州社区,颗粒物(PM10),68,74,63,22,24,99,99,127,121,22,16,7,6,0.5,0.6
2026-04-10T2200,4018A,116.0564,36.4609,聊城市,星美广场,颗粒物(PM10),64,69,62,24,29,93,93,113,110,19,15,8,6,0.6,0.7
2026-04-10T2200,4113A,116.0091,36.4495,聊城市,利民路,颗粒物(PM10),57,59,47,21,27,107,107,126,123,16,16,8,7,0.6,0.6
2026-04-10T2200,2632A,94.3683,29.6373,林芝市,林芝监测站,,35,6,6,3,4,110,110,118,116,6,4,3,5,0.4,0.4
2026-04-10T2200,2633A,94.3616,29.6634,林芝市,林芝人民医院,NA,NA,NA,8,26,6,NA,NA,129,128,2,3,4,5,0.4,0.4
2026-04-10T2200,2603A,100.0779,23.8981,临沧市,市环保局,,33,NA,31,23,25,83,83,108,106,12,8,9,10,0.5,0.5
2026-04-10T2200,2604A,100.0894,23.882,临沧市,市气象局,,38,NA,31,26,30,90,90,110,110,9,8,10,10,0.5,0.4
2026-04-10T2200,1733A,111.5552,36.0791,临汾市,临钢医院,颗粒物(PM10),84,97,91,35,37,91,91,124,118,28,19,10,8,1.1,1
2026-04-10T2200,1734A,111.4984,36.0734,临汾市,技工学校,颗粒物(PM10),93,110,91,45,50,62,62,119,109,38,22,11,10,0.7,0.8
2026-04-10T2200,1736A,111.5017,36.0857,临汾市,市委,颗粒物(PM10),92,108,98,33,40,75,75,122,114,32,20,11,9,0.9,1
2026-04-10T2200,3018A,111.5048,36.1015,临汾市,唐尧大酒店,颗粒物(PM10),95,112,106,34,40,84,84,122,116,29,22,11,10,0.8,0.8
2026-04-10T2200,4244A,111.4879,36.053,临汾市,启星学校,颗粒物(PM10),98,117,88,39,42,48,48,114,101,54,28,10,9,0.8,1
2026-04-10T2200,4271A,103.2464,35.6123,临夏回族自治州,滨河东路1号,颗粒物(PM10),62,66,101,13,34,89,89,97,92,10,28,10,11,0.3,0.4
2026-04-10T2200,4310A,103.207136,35.599807,临夏回族自治州,新华街21号,NA,NA,57,77,15,28,NA,NA,89,88,8,13,7,8,0.5,0.3
2026-04-10T2200,1618A,118.3429,35.0532,临沂市,沂河小区,颗粒物(PM10),84,97,62,37,28,38,38,127,104,75,23,10,10,0.7,0.5
2026-04-10T2200,1619A,118.2962,35.0568,临沂市,鲁南制药厂,颗粒物(PM10),104,129,63,29,29,11,11,130,96,109,34,12,12,0.6,0.4
2026-04-10T2200,1620A,118.2793,34.9976,临沂市,新光毛纺厂,颗粒物(PM10),70,78,54,37,29,42,42,124,103,67,24,11,10,0.6,0.4
2026-04-10T2200,1621A,118.3955,35.0889,临沂市,河东保险公司,颗粒物(PM10),102,124,57,58,31,39,39,137,115,61,21,11,12,1.0,0.5
2026-04-10T2200,3370A,118.3563,35.0215,临沂市,十里堡居委,颗粒物(PM10),83,95,54,43,30,46,46,137,109,68,28,10,9,0.9,0.6
2026-04-10T2200,3496A,118.359,35.1067,临沂市,南坊新区,颗粒物(PM10),86,100,66,35,36,35,35,130,109,77,26,15,13,0.9,0.5
2026-04-10T2200,3860A,118.3915,35.0297,临沂市,皇山花园小区,颗粒物(PM10),72,80,53,34,28,60,60,137,116,57,26,9,9,0.7,0.6
2026-04-10T2200,1870A,109.4854,24.3898,柳州市,柳东小学,细颗粒物(PM2.5),72,69,59,46,42,112,112,150,144,9,8,4,5,0.9,0.8
2026-04-10T2200,1871A,109.4109,24.3304,柳州市,环保监测站,细颗粒物(PM2.5),76,62,66,48,43,103,103,140,133,15,14,5,6,0.8,0.8
2026-04-10T2200,1872A,109.3886,24.3408,柳州市,河西水厂,细颗粒物(PM2.5),84,80,70,52,43,103,103,155,142,12,10,7,7,0.9,0.9
2026-04-10T2200,1873A,109.4263,24.2951,柳州市,市四中,细颗粒物(PM2.5),80,77,71,50,46,101,101,141,133,11,10,7,7,0.7,0.8
2026-04-10T2200,1874A,109.396,24.3658,柳州市,市九中,细颗粒物(PM2.5),78,85,77,49,43,97,97,138,130,9,8,8,8,0.8,0.7
2026-04-10T2200,1875A,109.4912,24.3164,柳州市,古亭山,细颗粒物(PM2.5),76,74,63,48,42,115,115,150,144,8,10,5,5,0.7,0.7
2026-04-10T2200,3402A,109.5422,24.3994,柳州市,市二中,细颗粒物(PM2.5),72,66,63,46,41,99,99,135,129,9,8,10,8,0.9,0.8
2026-04-10T2200,2307A,116.5078,31.7369,六安市,监测大楼,,43,34,17,30,13,66,66,93,88,12,9,4,4,0.4,0.4
2026-04-10T2200,2308A,116.4738,31.7642,六安市,皖西学院,,40,40,19,25,13,59,59,93,88,16,7,5,4,0.5,0.4
2026-04-10T2200,2309A,116.4997,31.7904,六安市,朝阳厂,,41,41,12,28,13,40,40,88,80,31,12,6,6,0.6,0.4
2026-04-10T2200,2310A,116.5566,31.7885,六安市,开发区,,43,37,10,30,15,51,51,93,87,33,17,5,5,0.5,0.5
2026-04-10T2200,2577A,104.8293,26.592,六盘水市,黄土坡,,39,39,27,26,12,94,94,122,116,12,12,7,6,0.4,0.3
2026-04-10T2200,2579A,104.8481,26.5898,六盘水市,民中,,38,38,25,22,12,89,89,115,109,7,11,4,5,0.4,0.3
2026-04-10T2200,2580A,104.9541,26.5506,六盘水市,双水,,41,41,21,22,11,96,96,118,113,8,9,4,4,0.3,0.3
2026-04-10T2200,4151A,104.8899,26.5685,六盘水市,钟山大道中段564号,,49,49,34,25,14,90,90,114,109,7,7,2,2,0.5,0.3
2026-04-10T2200,2336A,117.022,25.1031,龙岩市,龙岩市监测站,细颗粒物(PM2.5),54,NA,29,37,21,31,31,83,72,25,6,19,6,0.8,0.4
2026-04-10T2200,2337A,117.0257,25.0662,龙岩市,闽西职业技术学院,,40,40,28,24,19,29,29,80,66,19,4,9,5,0.6,0.5
2026-04-10T2200,2338A,117.0195,25.0306,龙岩市,龙岩学院,,38,NA,28,26,18,38,38,82,72,11,4,3,3,/,/
2026-04-10T2200,2885A,104.9344,33.3827,陇南市,滨江中学,颗粒物(PM10),68,74,64,20,27,47,47,69,69,16,23,8,9,0.6,0.7
2026-04-10T2200,3247A,104.9551,33.3709,陇南市,市总工会,颗粒物(PM10),54,55,54,19,21,51,51,70,70,14,15,8,8,0.5,0.5
2026-04-10T2200,2488A,111.9984,27.7346,娄底市,市监测站,,18,18,27,8,22,41,41,69,64,9,8,3,3,0.8,0.7
2026-04-10T2200,2491A,111.9888,27.7035,娄底市,市政府,,15,13,24,10,24,46,46,77,72,7,5,2,3,0.5,0.5
2026-04-10T2200,4127A,111.9812,27.7591,娄底市,涟钢职大,,17,15,26,7,20,53,53,82,78,6,9,1,3,0.5,0.5
2026-04-10T2200,4128A,112.0303,27.7457,娄底市,娄底体校,,20,20,29,7,22,36,36,70,64,7,2,3,3,0.8,0.7
2026-04-10T2200,1894A,105.4427,28.9063,泸州市,小市上码头,,28,22,39,19,32,71,71,123,104,6,25,8,8,0.7,0.8
2026-04-10T2200,1895A,105.4241,28.8573,泸州市,兰田宪桥,,29,29,44,15,27,69,69,124,104,9,18,6,7,0.8,0.9
2026-04-10T2200,1896A,105.4378,28.8833,泸州市,市环监站,,34,34,52,18,33,65,65,127,100,14,16,7,9,0.6,0.8
2026-04-10T2200,4272A,105.3689,28.7783,泸州市,纳溪中医医院,,34,34,47,19,30,75,75,133,110,8,17,8,9,0.6,0.8
2026-04-10T2200,2183A,111.1447,37.5212,吕梁市,环保局,颗粒物(PM10),68,75,75,21,15,23,23,116,87,69,28,8,8,0.3,0.2
2026-04-10T2200,2185A,111.1285,37.5338,吕梁市,自来水公司,颗粒物(PM10),58,61,85,19,17,42,42,114,97,45,29,7,8,0.4,0.4
2026-04-10T2200,2867A,111.1225,37.5093,吕梁市,马茂庄小学,颗粒物(PM10),80,92,79,28,13,8,8,113,85,78,27,5,5,0.5,0.3
2026-04-10T2200,1812A,112.3934,34.6517,洛阳市,市委党校,颗粒物(PM10),72,80,80,42,41,114,114,122,112,22,22,26,9,0.8,0.8
2026-04-10T2200,1815A,112.494,34.6883,洛阳市,河南林校,颗粒物(PM10),73,82,88,28,40,112,112,123,108,24,32,12,11,0.6,0.8
2026-04-10T2200,1816A,112.3843,34.623,洛阳市,开发区管委会,颗粒物(PM10),71,79,75,44,35,114,114,122,114,23,21,28,14,0.8,0.7
2026-04-10T2200,1817A,112.4263,34.6249,洛阳市,市委新办公区,颗粒物(PM10),68,74,73,31,39,123,123,125,118,20,22,12,9,0.6,0.6
2026-04-10T2200,3340A,112.6005,34.6323,洛阳市,伊滨,颗粒物(PM10),85,99,65,38,31,32,32,115,88,50,24,8,9,0.7,0.7
2026-04-10T2200,3341A,112.495,34.6338,洛阳市,中移产业园,颗粒物(PM10),69,76,78,35,35,123,123,120,114,20,25,11,11,0.7,0.7
2026-04-10T2200,3593A,112.5736,34.8993,洛阳市,吉利监测站,颗粒物(PM10),66,72,67,16,34,27,27,119,86,53,26,9,10,0.4,0.4
2026-04-10T2200,3635A,112.3678,34.6623,洛阳市,河科大西苑校区,颗粒物(PM10),74,83,81,33,37,124,124,128,120,21,26,27,11,0.7,0.7
2026-04-10T2200,3636A,112.4387,34.678,洛阳市,英才小学,颗粒物(PM10),76,86,95,36,43,110,110,122,111,31,44,15,13,0.7,0.9
2026-04-10T2200,4214A,112.460027,34.694929,洛阳市,春都路1号院,颗粒物(PM10),75,84,93,38,40,124,124,137,124,23,33,11,10,0.8,0.9
2026-04-10T2200,2399A,114.051,33.5721,漯河市,三五一五工厂,颗粒物(PM10),84,97,64,29,41,86,86,124,113,29,17,5,5,0.4,0.5
2026-04-10T2200,2400A,114.0055,33.5698,漯河市,漯河大学,颗粒物(PM10),90,105,68,46,48,80,80,131,116,32,19,7,6,0.6,0.6
2026-04-10T2200,2401A,114.0134,33.5826,漯河市,市水利局,颗粒物(PM10),79,90,67,44,42,88,88,124,116,24,14,4,4,0.6,0.7
2026-04-10T2200,2402A,114.0261,33.5697,漯河市,市广电局,颗粒物(PM10),85,98,71,42,42,91,91,129,120,25,13,6,5,0.6,0.7
2026-04-10T2200,3478A,113.9691,33.568,漯河市,市图书馆,颗粒物(PM10),88,102,69,44,39,69,69,124,113,37,16,6,6,0.4,0.5
2026-04-10T2200,4250A,114.089259,33.588274,漯河市,韶山路11号,颗粒物(PM10),80,91,70,38,40,69,69,116,105,38,17,6,6,0.7,0.7
2026-04-10T2200,1798A,118.5084,31.6838,马鞍山市,湖东路四小,颗粒物(PM10),64,69,54,22,34,30,30,106,86,52,32,8,18,0.7,1.4
2026-04-10T2200,1799A,118.5019,31.6449,马鞍山市,开发区,颗粒物(PM10),80,91,48,24,25,17,17,117,93,72,31,6,8,0.7,0.8
2026-04-10T2200,3633A,118.4914,31.681,马鞍山市,雨山,颗粒物(PM10),59,62,48,16,19,47,47,107,95,44,32,7,18,0.8,1.5
2026-04-10T2200,4191A,118.527362,31.722269,马鞍山市,慈湖高新区,,50,50,48,22,31,76,76,115,97,24,28,8,13,0.5,0.8
2026-04-10T2200,1686A,111.0285,21.469,茂名市,电白南海,,34,34,31,12,13,38,38,48,44,5,5,4,5,0.9,0.9
2026-04-10T2200,1687A,110.9294,21.6533,茂名市,茂石化七小,,31,31,34,15,15,36,36,56,47,9,9,5,6,0.6,0.6
2026-04-10T2200,1688A,110.9108,21.6688,茂名市,健康路,,27,27,26,15,15,38,38,58,49,8,7,3,4,0.6,0.6
2026-04-10T2200,1689A,110.8592,21.6826,茂名市,高岭,,29,29,38,15,15,41,41,64,53,6,8,3,4,/,/
2026-04-10T2200,3450A,111.0101,21.5165,茂名市,电白水东,,22,22,23,12,14,39,39,47,44,6,7,2,2,/,/
2026-04-10T2200,2540A,103.8414,30.0871,眉山市,气象局,颗粒物(PM10),56,58,47,22,20,61,61,77,68,21,26,8,10,0.6,0.7
2026-04-10T2200,3148A,103.829,30.0563,眉山市,区人社局,颗粒物(PM10),51,51,48,25,18,53,53,75,64,29,32,7,9,0.6,0.5
2026-04-10T2200,4148A,103.8836,30.0695,眉山市,眉职院,,36,36,41,11,15,58,58,77,67,18,25,7,11,0.7,0.8
2026-04-10T2200,1690A,116.1248,24.3307,梅州市,梅江月梅,,49,NA,27,34,18,52,52,73,69,10,8,/,/,/,/
2026-04-10T2200,1691A,116.0798,24.2719,梅州市,梅县新城,,33,28,27,23,18,56,56,74,70,7,6,9,8,0.4,0.4
2026-04-10T2200,3315A,116.1234,24.2994,梅州市,梅龙,,34,34,26,22,17,53,53,79,71,10,10,6,6,0.5,0.5
2026-04-10T2200,1878A,104.7775,31.4741,绵阳市,富乐山,,33,32,40,23,22,65,65,80,75,9,18,6,6,0.6,0.7
2026-04-10T2200,1880A,104.6698,31.4668,绵阳市,高新区自来水公司,,36,36,53,17,22,68,68,83,80,15,27,5,6,0.6,0.7
2026-04-10T2200,3491A,104.6899,31.5324,绵阳市,西科大附属小学,,32,29,35,22,22,61,61,84,81,20,26,6,6,0.4,0.5
2026-04-10T2200,3492A,104.5647,31.5343,绵阳市,安州区旅游局,,36,36,49,16,19,76,76,82,82,9,14,6,5,0.4,0.5
2026-04-10T2200,4146A,104.7092,31.4972,绵阳市,科技城新区公安局,,40,40,58,17,22,66,66,78,76,12,27,6,6,0.5,0.6
2026-04-10T2200,4226A,104.765114,31.453094,绵阳市,绵阳市气象局,,28,28,52,16,23,65,65,70,70,12,34,8,9,0.4,0.6
2026-04-10T2200,1784A,129.61,44.561,牡丹江市,环保大楼,,45,39,48,31,30,54,54,70,62,18,19,3,5,0.5,0.5
2026-04-10T2200,1787A,129.6364,44.6075,牡丹江市,机车工厂,,50,41,60,35,34,50,50,59,59,16,21,9,16,0.6,0.6
2026-04-10T2200,1788A,129.6386,44.5462,牡丹江市,第一中学,细颗粒物(PM2.5),56,41,44,38,29,56,56,69,60,16,14,4,4,0.5,0.5
2026-04-10T2200,4287A,129.5992,44.5964,牡丹江市,东晓云街98号,,43,40,57,30,28,57,57,67,64,12,13,2,5,0.6,0.6
2026-04-10T2200,2531A,105.0703,29.61,内江市,市监测站,,34,34,37,16,21,92,92,87,87,6,16,8,9,0.3,0.4
2026-04-10T2200,2533A,105.0657,29.5807,内江市,内江二中,颗粒物(PM10),110,146,57,16,22,97,97,99,93,7,23,7,8,0.2,0.4
2026-04-10T2200,2534A,105.0407,29.5828,内江市,内江日报社,,31,31,35,16,21,99,99,110,102,7,21,7,9,0.3,0.4
2026-04-10T2200,4147A,105.0433,29.6105,内江市,玉峰路西段888号,NA,NA,35,31,21,23,NA,NA,107,NA,9,18,5,7,0.2,0.3
2026-04-10T2200,2628A,92.0653,31.4846,那曲市,那曲监测站,,43,40,26,30,21,122,122,157,153,34,19,7,5,0.9,0.9
2026-04-10T2200,4243A,92.0515,31.4787,那曲市,那曲市委宣传部,,42,24,11,13,10,134,134,159,157,19,8,10,10,0.8,0.5
2026-04-10T2200,1291A,115.8887,28.7006,南昌市,省林业公司,,33,NA,15,23,18,48,48,107,76,14,9,3,4,0.4,0.4
2026-04-10T2200,1292A,115.813,28.7443,南昌市,林科所,NA,NA,NA,15,17,16,62,62,96,68,15,12,7,7,0.8,0.7
2026-04-10T2200,1294A,115.8518,28.687,南昌市,建工学校,,30,28,17,21,18,61,61,110,82,14,11,9,9,0.8,0.8
2026-04-10T2200,1295A,115.8926,28.6425,南昌市,象湖,,38,NA,12,26,20,70,70,122,93,7,6,7,8,0.8,0.8
2026-04-10T2200,3046A,115.9084,28.6062,南昌市,机电学校,,36,30,25,25,20,74,74,129,95,8,6,4,5,0.6,0.6
2026-04-10T2200,3690A,115.9718,28.7032,南昌市,外国语学校,,29,22,19,20,19,62,62,107,84,10,10,8,8,0.6,0.5
2026-04-10T2200,4106A,115.7923,28.6873,南昌市,工业二路,,32,28,23,22,18,64,64,114,83,12,11,4,5,0.7,0.6
2026-04-10T2200,4192A,115.931587,28.686774,南昌市,南京东路235号,,30,NA,15,21,18,65,65,117,87,5,5,5,5,0.3,0.4
2026-04-10T2200,1906A,106.0791,30.8022,南充市,南充市委,,26,26,37,13,21,74,74,77,77,14,21,6,7,0.3,0.4
2026-04-10T2200,1907A,106.1038,30.8215,南充市,南充炼油厂,,24,21,39,14,21,74,74,76,76,11,13,4,5,0.1,0.3
2026-04-10T2200,4227A,106.108336,30.788436,南充市,梨树横街98号,,27,24,35,13,22,85,85,79,79,7,16,5,6,0.0,0.3
2026-04-10T2200,4304A,106.1172,30.843,南充市,清泉寺北路188号,,33,33,40,14,21,83,83,82,82,6,10,6,6,0.2,0.3
2026-04-10T2200,4305A,106.067,30.7616,南充市,同庆路1号,,30,30,40,14,20,81,81,80,80,13,21,6,6,0.2,0.4
2026-04-10T2200,1151A,118.8033,32.1085,南京市,迈皋桥,细颗粒物(PM2.5),64,62,51,42,31,65,65,138,119,44,28,6,8,1.2,1.4
2026-04-10T2200,1152A,118.7487,32.057,南京市,草场门,细颗粒物(PM2.5),64,68,52,42,28,70,70,141,125,43,31,9,9,0.6,0.6
2026-04-10T2200,1154A,118.770105,32.004342,南京市,中华门,颗粒物(PM10),63,68,52,36,26,72,72,144,125,28,23,9,6,0.8,0.8
2026-04-10T2200,1155A,118.8059,32.0329,南京市,瑞金路,颗粒物(PM10),68,75,62,26,27,73,73,148,128,23,12,4,6,0.7,1
2026-04-10T2200,1156A,118.7946,32.0774,南京市,玄武湖,颗粒物(PM10),62,66,51,36,27,62,62,133,113,32,16,3,5,0.6,0.7
2026-04-10T2200,1157A,118.6415,32.0964,南京市,浦口,细颗粒物(PM2.5),58,52,41,39,22,84,84,129,118,16,10,4,4,0.7,0.6
2026-04-10T2200,1158A,118.730129,32.000956,南京市,奥体中心,颗粒物(PM10),65,70,51,36,21,60,60,122,107,38,24,7,7,0.5,0.5
2026-04-10T2200,1159A,118.9072,32.1047,南京市,仙林大学城,颗粒物(PM10),63,68,71,38,36,85,85,157,126,25,30,9,12,0.8,1
2026-04-10T2200,3422A,118.8443,31.919,南京市,江宁彩虹桥,颗粒物(PM10),73,82,47,40,23,87,87,153,134,47,28,4,4,0.8,0.8
2026-04-10T2200,3427A,118.8497,32.3599,南京市,六合雄州,颗粒物(PM10),60,64,45,33,27,64,64,112,98,33,25,4,4,0.9,0.9
2026-04-10T2200,4086A,118.7641,32.0841,南京市,新模范马路66号,颗粒物(PM10),63,68,59,36,25,75,75,143,126,33,22,4,4,0.5,0.6
2026-04-10T2200,4249A,118.8707617,31.34017673,南京市,汶溪路181号,细颗粒物(PM2.5),62,50,29,41,24,85,85,138,126,30,18,6,5,0.8,0.6
2026-04-10T2200,4312A,119.019,31.6512,南京市,中山西路1号,颗粒物(PM10),63,68,38,33,28,99,99,130,122,24,19,4,4,0.7,0.8
2026-04-10T2200,1401A,108.3098,22.788,南宁市,二十一中,NA,NA,NA,50,NA,43,71,71,112,95,10,10,2,2,0.7,0.8
2026-04-10T2200,1402A,108.3135,22.8529,南宁市,北湖,细颗粒物(PM2.5),76,52,58,48,47,78,78,118,101,8,9,2,4,0.7,0.7
2026-04-10T2200,1403A,108.3205,22.8222,南宁市,市监测站,颗粒物(PM10),55,57,59,37,41,82,82,118,103,6,7,2,4,0.5,0.5
2026-04-10T2200,1404A,108.3828,22.8038,南宁市,大自然花园,细颗粒物(PM2.5),76,53,57,48,40,81,81,101,92,7,8,5,6,0.5,0.5
2026-04-10T2200,1406A,108.2397,22.8462,南宁市,区农职院,细颗粒物(PM2.5),56,57,61,38,41,71,71,122,97,12,11,5,5,0.6,0.5
2026-04-10T2200,1407A,108.3285,22.7356,南宁市,英华嘉园,细颗粒物(PM2.5),64,65,66,42,41,77,77,114,100,14,14,12,6,0.6,0.6
2026-04-10T2200,3401A,108.4829,22.762,南宁市,红星社区,细颗粒物(PM2.5),60,58,56,40,35,86,86,108,100,8,7,5,6,0.7,0.7
2026-04-10T2200,4132A,108.2927,23.1477,南宁市,起凤路9号,细颗粒物(PM2.5),70,66,69,45,50,81,81,140,118,8,8,4,5,0.6,0.7
2026-04-10T2200,4221A,108.2177,22.7774,南宁市,乐贤路16号,细颗粒物(PM2.5),54,53,61,37,41,65,65,114,93,15,14,4,6,0.5,0.5
2026-04-10T2200,2332A,118.1682,26.6371,南平市,南平市监测站,颗粒物(PM10),61,65,44,36,30,34,34,107,72,26,19,4,5,0.8,0.7
2026-04-10T2200,2334A,118.1757,26.6276,南平市,南平七中,,46,43,37,32,26,36,36,106,80,22,18,3,2,0.6,0.5
2026-04-10T2200,1168A,120.9056,31.9669,南通市,狼山街道,细颗粒物(PM2.5),52,48,45,36,32,74,74,122,111,26,19,5,4,0.8,0.6
2026-04-10T2200,1170A,120.8635,32.0231,南通市,城中,细颗粒物(PM2.5),68,62,59,44,34,83,83,114,107,18,16,4,5,0.6,0.6
2026-04-10T2200,1171A,120.9376,31.9301,南通市,星湖花园,细颗粒物(PM2.5),60,57,51,40,36,72,72,117,105,25,28,7,5,1.0,0.7
2026-04-10T2200,1172A,120.8053,32.046,南通市,紫琅学院,,50,47,43,35,30,81,81,125,118,26,19,5,6,0.8,0.8
2026-04-10T2200,3291A,121.0631,32.0644,南通市,通州监测站,细颗粒物(PM2.5),60,56,44,40,35,88,88,122,116,12,10,3,4,0.8,0.7
2026-04-10T2200,3432A,120.9348,31.9874,南通市,环境教育馆,细颗粒物(PM2.5),56,53,48,38,31,64,64,125,110,34,19,5,5,0.9,0.7
2026-04-10T2200,4091A,120.8692,31.9885,南通市,洪江路,颗粒物(PM10),53,53,52,32,33,75,75,108,100,31,27,4,5,1.1,1
2026-04-10T2200,2404A,112.5338,33.0086,南阳市,瓦房庄,颗粒物(PM10),83,95,58,31,27,101,101,112,110,18,18,5,5,0.6,0.7
2026-04-10T2200,2405A,112.5002,32.9734,南阳市,汉画馆,颗粒物(PM10),84,97,65,34,27,95,95,108,107,15,22,6,6,0.7,0.7
2026-04-10T2200,2406A,112.5778,33.0144,南阳市,气象站,颗粒物(PM10),95,112,62,28,25,98,98,118,115,21,20,7,6,0.6,0.6
2026-04-10T2200,2407A,112.548,32.9687,南阳市,理工学院,颗粒物(PM10),85,98,61,33,29,94,94,113,110,15,21,6,6,0.6,0.6
2026-04-10T2200,4008A,112.5233,32.9921,南阳市,卧龙区政府,颗粒物(PM10),75,85,50,30,28,96,96,115,112,18,17,7,7,0.7,0.7
2026-04-10T2200,1234A,121.8352,29.9111,宁波市,区环保大楼,细颗粒物(PM2.5),92,94,55,56,27,45,45,116,101,54,41,7,7,0.7,0.7
2026-04-10T2200,1235A,121.5595,29.8208,宁波市,万里学院,细颗粒物(PM2.5),108,70,34,68,25,83,83,147,140,34,15,8,7,0.9,0.6
2026-04-10T2200,1236A,121.713,29.9564,宁波市,龙赛医院,细颗粒物(PM2.5),90,90,46,55,27,39,39,122,104,61,28,11,7,0.7,0.5
2026-04-10T2200,1240A,121.5855,29.8635,宁波市,太古小学,细颗粒物(PM2.5),120,111,43,81,28,69,69,140,130,34,17,6,4,0.9,0.7
2026-04-10T2200,1241A,121.5239,29.8673,宁波市,市环境监测中心,细颗粒物(PM2.5),120,NA,38,82,29,78,78,144,135,32,18,9,7,0.8,0.6
2026-04-10T2200,2871A,121.6156,29.9015,宁波市,万里国际学校,细颗粒物(PM2.5),112,82,39,73,31,48,48,134,119,56,26,7,6,0.9,0.7
2026-04-10T2200,3710A,121.5593,29.8976,宁波市,白沙活动中心,细颗粒物(PM2.5),103,NA,29,63,27,72,72,140,129,33,17,7,6,0.7,0.5
2026-04-10T2200,4095A,121.8962,29.7529,宁波市,中科路88号,细颗粒物(PM2.5),64,51,37,42,28,68,68,106,97,21,19,7,7,0.5,0.5
2026-04-10T2200,2341A,119.5387,26.6611,宁德市,宁德市监测站,,48,NA,52,33,31,83,83,142,128,20,29,4,5,0.6,0.9
2026-04-10T2200,3209A,119.5231,26.6562,宁德市,宁德一中,,46,46,48,32,32,81,81,140,126,10,20,5,6,0.3,0.7
2026-04-10T2200,2618A,98.859,25.8541,怒江傈僳族自治州,州监测站,,35,35,30,14,20,67,67,95,84,16,16,9,9,0.2,0.1
2026-04-10T2200,2619A,98.8607,25.8168,怒江傈僳族自治州,泸水一中,,26,21,24,18,21,62,62,84,75,12,16,5,5,0.4,0.4
2026-04-10T2200,1888A,101.6891,26.571,攀枝花市,弄弄坪,,35,35,27,10,12,104,104,113,112,9,13,2,7,0.5,0.8
2026-04-10T2200,1889A,101.577,26.5914,攀枝花市,河门口,,35,18,31,14,16,110,110,118,117,5,11,6,7,0.5,0.5
2026-04-10T2200,1891A,101.7365,26.4986,攀枝花市,仁和,,35,23,24,12,14,109,109,117,117,6,8,5,6,0.5,0.5
2026-04-10T2200,2835A,101.7222,26.567,攀枝花市,四十中小,,36,21,22,11,11,114,114,119,119,7,12,5,7,0.5,0.6
2026-04-10T2200,1604A,122.0303,41.1489,盘锦市,开发区,,49,NA,27,34,36,99,99,114,112,12,14,6,6,0.5,0.4
2026-04-10T2200,1605A,122.0486,41.0883,盘锦市,兴隆台,,43,NA,27,30,34,92,92,99,96,13,21,10,9,0.6,0.6
2026-04-10T2200,1606A,121.8297,41.1026,盘锦市,新生街道,,43,NA,26,30,28,56,56,106,95,36,26,4,5,0.6,0.5
2026-04-10T2200,1832A,113.3257,33.7423,平顶山市,新华旅馆,颗粒物(PM10),80,91,86,35,43,82,82,129,120,18,17,7,6,0.6,0.7
2026-04-10T2200,1833A,113.2917,33.737,平顶山市,规划设计院,颗粒物(PM10),87,101,85,44,47,79,79,125,118,19,19,7,6,0.8,0.8
2026-04-10T2200,1834A,113.182,33.7738,平顶山市,平顶山工学院,颗粒物(PM10),76,86,68,44,39,86,86,132,126,19,16,8,8,0.5,0.5
2026-04-10T2200,3594A,112.8736,33.9068,平顶山市,石龙区,颗粒物(PM10),74,83,77,42,32,96,96,118,114,13,22,7,8,0.6,0.7
2026-04-10T2200,4116A,113.284,33.7139,平顶山市,姚电大道23号,颗粒物(PM10),98,116,81,52,48,72,72,131,120,32,22,8,7,0.6,0.6
2026-04-10T2200,2656A,106.6633,35.5338,平凉市,聚贤嘉苑,颗粒物(PM10),69,76,72,27,22,105,105,114,109,12,17,11,7,0.2,0.2
2026-04-10T2200,2657A,106.7021,35.5307,平凉市,博物馆,颗粒物(PM10),91,107,74,32,21,69,69,115,104,34,17,14,10,1.2,0.4
2026-04-10T2200,2348A,113.8384,27.6436,萍乡市,中医院,NA,NA,NA,26,16,15,94,94,116,109,8,9,3,5,0.7,0.8
2026-04-10T2200,2350A,113.8677,27.6438,萍乡市,市环保局,,28,22,22,10,14,88,88,109,101,10,11,10,11,0.8,0.8
2026-04-10T2200,2351A,113.8663,27.6202,萍乡市,安源区政府,,26,20,24,3,13,82,82,95,87,8,8,5,6,0.3,0.5
2026-04-10T2200,4107A,113.8686,27.6668,萍乡市,联洪村委会,,25,24,22,13,13,80,80,94,87,1,3,2,2,0.4,0.4
2026-04-10T2200,2319A,119.0142,25.4324,莆田市,荔城区仓后路,,46,46,46,31,31,34,34,94,71,20,18,/,/,/,/
2026-04-10T2200,2320A,119.0016,25.4553,莆田市,莆田市监测站,,49,40,40,34,27,34,34,104,78,13,12,3,3,0.4,0.4
2026-04-10T2200,2321A,119.112,25.4561,莆田市,涵江区六中,,34,34,40,19,28,24,24,98,61,24,19,/,/,0.5,0.6
2026-04-10T2200,2322A,119.1014,25.3215,莆田市,秀屿区政府,,28,21,34,19,26,33,33,82,58,13,9,5,5,0.4,0.3
2026-04-10T2200,2392A,115.0312,35.7636,濮阳市,环保局,,49,49,53,26,37,100,100,117,113,17,17,3,4,0.5,0.7
2026-04-10T2200,3021A,115,35.7667,濮阳市,濮水河管理处,颗粒物(PM10),58,60,63,19,42,96,96,131,120,5,7,4,4,0.7,0.9
2026-04-10T2200,4118A,115.0552,35.7816,濮阳市,中原东路68号,颗粒物(PM10),58,61,70,22,33,104,104,126,119,13,15,2,3,0.4,0.6
2026-04-10T2200,4216A,115.0923632,35.76857718,濮阳市,任丘路479号,颗粒物(PM10),59,62,69,31,36,99,99,129,122,21,22,3,4,0.6,0.8
2026-04-10T2200,2601A,100.9801,22.7634,普洱市,市环保局,颗粒物(PM10),68,75,67,32,33,81,81,116,107,10,11,4,4,0.8,0.8
2026-04-10T2200,2602A,100.9763,22.8237,普洱市,普洱第二中学,颗粒物(PM10),63,68,66,37,37,75,75,110,102,20,23,6,6,0.8,0.7
2026-04-10T2200,3345A,131.0413,45.7795,七台河市,中波台,,22,9,54,8,22,70,70,87,70,9,12,4,5,0.2,0.6
2026-04-10T2200,3637A,131.0136,45.7688,七台河市,人民广场,,26,11,46,9,19,81,81,102,89,7,13,8,10,0.5,0.5
2026-04-10T2200,3684A,130.8639,45.8144,七台河市,新建矿广场,,20,9,34,8,17,63,63,90,75,12,13,9,10,0.2,0.2
2026-04-10T2200,1779A,123.9307,47.3641,齐齐哈尔市,安居小区,,25,12,32,3,16,80,80,93,86,4,9,6,6,0.2,0.3
2026-04-10T2200,1780A,123.9497,47.3389,齐齐哈尔市,中心广场,NA,NA,10,34,NA,20,81,81,90,85,2,7,3,6,0.4,0.4
2026-04-10T2200,1781A,123.9483,47.3229,齐齐哈尔市,农牧车辆厂,,27,17,35,3,19,84,84,92,87,4,9,7,8,0.0,0.1
2026-04-10T2200,1783A,123.9442,47.2994,齐齐哈尔市,市环境监测站,,26,12,33,3,20,82,82,93,88,6,10,2,3,0.2,0.3
2026-04-10T2200,3662A,123.6341,47.2079,齐齐哈尔市,富区青少年活动中心,,24,18,32,3,16,74,74,92,86,4,8,3,4,0.2,0.2
2026-04-10T2200,2591A,107.9765,26.5724,黔东南苗族侗族自治州,市环境监测站,细颗粒物(PM2.5),58,42,45,39,40,118,118,116,116,5,7,3,3,0.4,0.5
2026-04-10T2200,2881A,107.8909,26.531,黔东南苗族侗族自治州,凯里学院,细颗粒物(PM2.5),54,39,60,37,38,123,123,121,121,2,4,3,3,0.5,0.5
2026-04-10T2200,2593A,107.5223,26.2371,黔南布依族苗族自治州,小围寨,,36,36,32,24,26,60,60,114,103,18,11,4,4,0.7,0.7
2026-04-10T2200,3538A,107.5175,26.2977,黔南布依族苗族自治州,沙坝,,35,34,37,24,26,64,64,92,88,9,9,4,4,0.8,0.8
2026-04-10T2200,2589A,104.9022,25.0943,黔西南布依族苗族自治州,场坝街,,36,26,22,25,17,108,108,124,119,5,4,6,5,0.3,0.3
2026-04-10T2200,2590A,104.8812,25.0994,黔西南布依族苗族自治州,坪东大道,,32,32,47,21,18,101,101,122,117,6,5,3,3,0.3,0.3
2026-04-10T2200,2502A,108.6238,21.9667,钦州市,市环保站,颗粒物(PM10),55,56,50,34,24,71,71,92,89,14,8,10,7,1.0,0.8
2026-04-10T2200,2503A,108.655,21.9481,钦州市,沙埠小学,颗粒物(PM10),51,51,53,32,29,73,73,89,88,11,8,7,6,0.5,0.7
2026-04-10T2200,2504A,108.5989,21.7435,钦州市,港区一小,颗粒物(PM10),60,63,60,32,27,83,83,88,88,11,8,2,6,0.5,0.5
2026-04-10T2200,3404A,108.5959,21.9634,钦州市,北职校,细颗粒物(PM2.5),82,62,49,51,28,70,70,88,86,10,6,4,5,0.9,0.6
2026-04-10T2200,1046A,119.5247,39.9346,秦皇岛市,建设大厦,细颗粒物(PM2.5),101,92,44,61,28,79,79,107,103,30,11,8,5,0.5,0.5
2026-04-10T2200,3132A,119.5979,39.938,秦皇岛市,文明里,细颗粒物(PM2.5),110,108,48,70,28,58,58,104,96,48,19,10,9,0.7,0.5
2026-04-10T2200,4066A,119.7458,39.9952,秦皇岛市,南园路157号,细颗粒物(PM2.5),147,122,48,111,36,85,85,101,100,27,25,8,8,0.5,0.5
2026-04-10T2200,4067A,119.5131,39.8858,秦皇岛市,翠岛大街1号,细颗粒物(PM2.5),102,96,42,62,29,70,70,105,100,37,18,10,8,0.5,0.4
2026-04-10T2200,4198A,119.509013,39.825305,秦皇岛市,北戴河轮滑馆,细颗粒物(PM2.5),115,93,45,76,33,84,84,113,111,26,15,8,8,0.5,0.4
2026-04-10T2200,1310A,120.404,36.0625,青岛市,市南区东部子站,细颗粒物(PM2.5),114,100,72,75,51,110,110,127,120,29,23,7,7,0.7,0.6
2026-04-10T2200,1311A,120.362344,36.10282,青岛市,四方区子站,细颗粒物(PM2.5),108,107,68,68,50,89,89,130,111,44,20,7,7,1.1,0.8
2026-04-10T2200,1312A,120.294373,36.054183,青岛市,市南区西部子站,细颗粒物(PM2.5),114,105,67,75,74,85,85,115,105,64,32,8,4,0.9,0.7
2026-04-10T2200,1313A,120.4581,36.0858,青岛市,崂山区子站,细颗粒物(PM2.5),112,132,71,73,44,92,92,128,111,30,19,9,8,0.9,0.7
2026-04-10T2200,1315A,120.3945,36.3083,青岛市,城阳区子站,颗粒物(PM10),79,90,65,39,33,45,45,126,98,73,26,7,6,1.0,0.7
2026-04-10T2200,3642A,120.3454,36.0735,青岛市,市北区南部,细颗粒物(PM2.5),92,72,49,56,44,118,118,131,126,24,20,4,3,0.8,0.7
2026-04-10T2200,3643A,120.3897,36.18,青岛市,李沧区北部,颗粒物(PM10),88,102,65,44,40,36,36,119,97,79,25,9,9,1.0,0.6
2026-04-10T2200,4110A,120.5222,36.4089,青岛市,盟旺路653号,颗粒物(PM10),74,83,47,42,30,73,73,123,112,44,11,5,4,0.9,0.8
2026-04-10T2200,4290A,120.196923,35.954556,青岛市,珠江路669号,细颗粒物(PM2.5),117,117,72,78,51,118,118,133,132,18,17,5,5,0.9,0.8
2026-04-10T2200,4291A,120.0424,35.8656,青岛市,黄岛区人民政府广场,细颗粒物(PM2.5),104,112,63,64,40,63,63,126,114,39,22,8,8,1.0,0.7
2026-04-10T2200,1703A,113.0218,23.7086,清远市,凤城街办,,35,35,36,16,20,28,28,89,80,26,19,/,/,/,/
2026-04-10T2200,3025A,113.0479,23.6343,清远市,技师学院,,41,41,41,19,22,28,28,90,79,26,20,5,5,0.4,0.4
2026-04-10T2200,3318A,112.9898,23.7403,清远市,清新太和,,41,41,37,20,20,33,33,97,87,28,19,6,7,0.5,0.5
2026-04-10T2200,3455A,113.076,23.72,清远市,清城东城,,44,44,40,20,19,27,27,92,82,29,20,/,/,/,/
2026-04-10T2200,2661A,107.6325,35.7357,庆阳市,庆阳五中,颗粒物(PM10),67,73,63,25,17,100,100,120,117,16,11,4,6,0.3,0.3
2026-04-10T2200,2662A,107.6361,35.7067,庆阳市,市环保局,颗粒物(PM10),71,79,63,37,17,102,102,119,115,18,13,4,6,0.3,0.1
2026-04-10T2200,1916A,103.7897,25.5036,曲靖市,环境监测站,,36,29,28,17,15,115,115,123,122,8,8,6,6,0.4,0.5
2026-04-10T2200,1917A,103.8013,25.5357,曲靖市,烟厂办公区,,34,25,30,7,14,106,106,114,113,6,7,4,5,0.4,0.4
2026-04-10T2200,3376A,103.7926,25.4651,曲靖市,南苑二区,,36,20,26,11,13,113,113,119,118,7,7,4,4,0.3,0.3
2026-04-10T2200,3377A,103.7442,25.5259,曲靖市,曲靖师范学院,,50,50,34,20,20,107,107,122,118,12,11,5,6,0.2,0.3
2026-04-10T2200,1264A,118.8694,28.94,衢州市,环保大楼,,47,47,25,28,15,44,44,120,96,30,13,/,/,/,/
2026-04-10T2200,1266A,118.8622,28.9809,衢州市,衢州学院,,33,33,20,22,13,34,34,118,91,35,16,5,5,0.5,0.4
2026-04-10T2200,4097A,118.9646,28.9832,衢州市,衢州三中,,42,42,21,23,13,25,25,118,89,45,18,7,7,0.6,0.6
2026-04-10T2200,1611A,118.5818,24.9116,泉州市,涂山街,,37,37,35,23,22,25,25,65,46,24,17,4,5,0.6,0.6
2026-04-10T2200,1612A,118.597,24.8976,泉州市,津头埔,,39,39,33,26,23,24,24,65,47,22,17,3,3,0.5,0.5
2026-04-10T2200,1613A,118.6669,24.9422,泉州市,万安,,38,38,34,20,21,24,24,63,46,18,15,4,4,0.4,0.5
2026-04-10T2200,4105A,118.6355,24.9148,泉州市,霞新路6号,,35,31,29,24,22,15,15,61,43,29,17,/,/,0.4,0.4
2026-04-10T2200,2626A,88.8873,29.2723,日喀则市,日喀则监测站,颗粒物(PM10),51,51,27,16,7,124,124,194,187,60,7,10,9,0.7,0.4
2026-04-10T2200,3726A,88.8775,29.2425,日喀则市,林业技术推广中心,臭氧1小时(O3_1h),55,33,24,10,4,164,164,193,190,5,4,8,8,0.3,0.3
2026-04-10T2200,1659A,119.4711,35.421,日照市,监测站,"颗粒物(PM10),细颗粒物(PM2.5)",114,156,80,75,44,1,1,115,75,107,42,10,9,1.4,0.9
2026-04-10T2200,1660A,119.523,35.4216,日照市,市政府广场,颗粒物(PM10),93,110,78,54,48,52,52,128,113,69,31,11,8,1.1,0.9
2026-04-10T2200,1661A,119.5511,35.4113,日照市,港务局,颗粒物(PM10),109,141,91,56,50,39,39,110,96,65,37,5,6,1.0,1
2026-04-10T2200,3507A,119.5326,35.4627,日照市,职业技术学院,细颗粒物(PM2.5),80,85,73,50,47,81,81,131,124,39,29,8,8,1.1,0.9
2026-04-10T2200,3604A,119.3267,35.1043,日照市,岚山环保分局,颗粒物(PM10),84,97,75,43,43,52,52,135,117,82,31,21,14,1.9,1.1
2026-04-10T2200,1835A,111.1922,34.7752,三门峡市,市政府,颗粒物(PM10),52,52,67,20,33,49,49,112,91,37,31,9,13,0.5,0.6
2026-04-10T2200,1836A,111.1588,34.794,三门峡市,开发区,,37,37,61,23,38,58,58,108,94,32,26,15,13,0.5,0.6
2026-04-10T2200,3039A,111.1911,34.7829,三门峡市,三门峡市第一小学,颗粒物(PM10),55,56,75,20,34,61,61,111,98,34,30,14,18,0.5,0.6
2026-04-10T2200,3598A,111.1031,34.719,三门峡市,富达温泉假日酒店,颗粒物(PM10),88,103,87,22,36,39,39,108,94,45,26,15,19,0.6,0.6
2026-04-10T2200,2324A,117.621,26.2626,三明市,三钢,NA,NA,55,45,44,34,32,32,98,80,NA,19,5,13,0.8,1.1
2026-04-10T2200,2325A,117.6352,26.2714,三明市,三明二中,细颗粒物(PM2.5),74,52,44,47,34,31,31,93,74,26,15,4,7,1.0,1
2026-04-10T2200,2326A,117.6028,26.2377,三明市,三元区政府,细颗粒物(PM2.5),78,58,46,49,37,34,34,94,80,29,18,5,7,0.7,0.7
2026-04-10T2200,1877A,109.4962,18.2682,三亚市,河西子站,,38,38,24,22,14,66,66,61,61,6,5,4,4,0.4,0.4
2026-04-10T2200,3540A,109.7348,18.3443,三亚市,君悦子站,,31,31,27,14,11,65,65,56,56,3,8,3,4,0.5,0.5
2026-04-10T2200,4135A,109.1714,18.3739,三亚市,城东小学站,,32,32,28,20,16,60,60,62,61,5,5,/,/,/,/
2026-04-10T2200,2624A,91.7592,29.234,山南市,山南监测站,臭氧1小时(O3_1h),78,9,8,3,2,182,182,177,177,6,4,8,9,0.2,0.2
2026-04-10T2200,2625A,91.7701,29.2436,山南市,山南人民医院,臭氧1小时(O3_1h),70,38,12,12,3,176,176,178,178,6,3,10,9,0.3,0.2
2026-04-10T2200,1674A,116.6795,23.3666,汕头市,金平子站,,28,28,27,11,15,43,43,66,56,10,12,4,4,0.5,0.6
2026-04-10T2200,1675A,116.7248,23.3632,汕头市,龙湖子站,,25,25,24,13,15,41,41,52,49,9,12,6,6,/,/
2026-04-10T2200,1676A,116.7257,23.2774,汕头市,濠江子站,,28,28,27,13,13,40,40,48,47,10,15,8,8,/,/
2026-04-10T2200,1677A,116.7518,23.4712,汕头市,澄海子站,,30,30,35,13,18,40,40,66,52,7,10,6,6,0.6,0.7
2026-04-10T2200,1678A,116.6088,23.2539,汕头市,潮阳子站,,20,20,23,13,13,47,47,56,53,5,7,6,6,0.5,0.5
2026-04-10T2200,3444A,116.4539,23.2684,汕头市,潮南峡山,,25,25,19,13,11,44,44,60,52,2,2,6,6,0.5,0.5
2026-04-10T2200,3624A,116.4069,23.2533,汕头市,潮南子站,,41,41,28,27,14,40,40,56,48,4,2,6,5,/,/
2026-04-10T2200,1693A,115.3653,22.7751,汕尾市,市环保局,,22,22,24,14,12,46,46,53,52,2,3,5,5,0.4,0.4
2026-04-10T2200,1695A,115.362,22.7926,汕尾市,新城中学,,22,20,23,15,13,48,48,58,55,5,6,6,6,0.3,0.3
2026-04-10T2200,2645A,109.9155,33.8714,商洛市,监测站,颗粒物(PM10),66,72,53,22,18,30,30,104,81,41,19,7,7,0.7,0.5
2026-04-10T2200,3045A,109.9647,33.8486,商洛市,商州区中学,颗粒物(PM10),58,60,61,20,18,12,12,108,82,61,28,6,5,0.5,0.5
2026-04-10T2200,2408A,115.6701,34.4283,商丘市,环境监测站,细颗粒物(PM2.5),109,134,59,69,40,52,52,120,106,38,16,4,3,0.6,0.5
2026-04-10T2200,2409A,115.6458,34.4047,商丘市,粮食局,细颗粒物(PM2.5),74,71,55,47,40,74,74,119,109,23,13,4,4,0.7,0.5
2026-04-10T2200,3171A,115.6069,34.4465,商丘市,梁园区档案局,颗粒物(PM10),79,90,54,46,41,70,70,124,112,29,17,4,3,0.7,0.5
2026-04-10T2200,4119A,115.6701,34.3767,商丘市,北海东路185号,NA,NA,NA,52,NA,36,52,52,125,107,24,18,4,5,NA,0.4
2026-04-10T2200,4120A,115.6172,34.3704,商丘市,中山大街3号,细颗粒物(PM2.5),80,89,56,50,39,46,46,116,100,36,18,4,4,0.6,0.5
2026-04-10T2200,1141A,121.401,31.2382,上海市,普陀,细颗粒物(PM2.5),66,51,57,43,41,86,86,156,142,28,29,6,7,0.6,0.8
2026-04-10T2200,1142A,121.4774,31.2043,上海市,十五厂,,50,46,54,35,40,86,86,143,131,26,28,6,6,0.8,1
2026-04-10T2200,1143A,121.4673,31.3011,上海市,虹口,NA,NA,93,57,48,46,NA,NA,128,121,30,36,13,12,0.7,0.9
2026-04-10T2200,1147A,121.4253,31.226,上海市,静安监测站,,50,45,52,35,39,84,84,150,138,34,35,8,9,0.8,1
2026-04-10T2200,1148A,121.7029,31.1905,上海市,浦东川沙,,46,43,58,32,41,77,77,106,105,34,42,8,9,0.6,0.8
2026-04-10T2200,1149A,121.5339,31.229,上海市,浦东新区监测站,,46,42,55,32,40,81,81,120,108,21,31,6,7,0.6,0.8
2026-04-10T2200,1150A,121.5776,31.2038,上海市,浦东张江,,42,40,54,29,41,91,91,130,118,28,34,6,7,0.3,0.5
2026-04-10T2200,3265A,121.4242,31.3303,上海市,宝山庙行,颗粒物(PM10),55,57,69,34,41,73,73,135,123,35,36,8,7,0.6,0.8
2026-04-10T2200,3266A,121.8789,31.4662,上海市,崇明上实东滩,,43,35,44,30,36,93,93,124,112,8,12,8,8,0.3,0.4
