timepoint,stationcode,longitude,latitude,area,positionname,primarypollutant,aqi,pm10,pm10_24h,pm2_5,pm2_5_24h,o3,o3_24h,o3_8h,o3_8h_24h,no2,no2_24h,so2,so2_24h,co,co_24h
2026-04-10T2000,2568A,102.2503,31.8896,阿坝藏族羌族自治州,马师校,,43,12,19,9,6,137,137,122,122,5,6,6,5,0.4,0.4
2026-04-10T2000,3994A,102.2174,31.9016,阿坝藏族羌族自治州,马尔康中学西区,,40,14,11,3,6,126,126,113,113,6,6,3,4,0.3,0.3
2026-04-10T2000,2695A,80.2899,41.1684,阿克苏地区,电视台,颗粒物(PM10),135,209,169,71,60,120,120,117,117,8,25,4,5,0.4,0.6
2026-04-10T2000,2696A,80.2592,41.1541,阿克苏地区,艺术中心,细颗粒物(PM2.5),129,185,173,91,74,124,124,122,122,8,39,4,6,0.3,0.5
2026-04-10T2000,2205A,105.699,38.8409,阿拉善盟,蒙二幼,颗粒物(PM10),52,52,45,19,8,128,128,120,120,14,5,13,9,0.6,0.5
2026-04-10T2000,2206A,105.7198,38.8508,阿拉善盟,环保局新楼,,47,47,40,19,8,124,124,112,112,11,4,12,9,0.6,0.6
2026-04-10T2000,2708A,88.1266,47.8515,阿勒泰地区,市站,,28,20,18,3,3,88,88,105,96,4,6,5,5,0.2,0.2
2026-04-10T2000,4166A,88.1198,47.7931,阿勒泰地区,阿勒泰路33号,,25,23,21,3,2,79,79,99,90,5,5,6,6,0.2,0.2
2026-04-10T2000,2630A,80.1171,32.4999,阿里地区,阿里监测站,臭氧1小时(O3_1h),58,16,12,7,4,166,166,168,168,2,4,5,6,0.4,0.4
2026-04-10T2000,3192A,80.0906,32.5029,阿里地区,阿里藏医院,NA,NA,NA,11,NA,3,171,171,173,173,1,2,6,7,0.4,0.4
2026-04-10T2000,2644A,109.0088,32.6974,安康市,汉滨区检察院,颗粒物(PM10),78,88,37,34,19,14,14,56,51,41,15,12,8,0.9,0.5
2026-04-10T2000,4054A,109.0324,32.6913,安康市,市邮政管理局,颗粒物(PM10),78,89,46,40,22,12,12,60,53,40,17,16,14,1.1,0.7
2026-04-10T2000,2291A,117.0806,30.5181,安庆市,环科院,,43,30,20,30,17,90,90,111,110,10,21,6,6,0.6,0.4
2026-04-10T2000,2292A,117.0331,30.5118,安庆市,马山宾馆,,39,32,19,27,17,76,76,97,96,13,17,4,5,0.7,0.6
2026-04-10T2000,2294A,116.9897,30.6146,安庆市,安庆大学,,30,22,24,8,18,93,93,105,105,2,9,2,3,0.4,0.4
2026-04-10T2000,3173A,117.0598,30.5351,安庆市,市人大,,42,42,26,29,20,70,70,111,108,24,22,7,8,0.5,0.5
2026-04-10T2000,3123A,105.9408,26.2431,安顺市,凤凰山,,41,29,27,22,19,130,130,141,141,8,10,6,7,0.4,0.4
2026-04-10T2000,3124A,105.9443,26.2567,安顺市,金钟山,,38,27,25,23,19,120,120,129,128,6,8,6,7,0.4,0.5
2026-04-10T2000,3125A,105.8983,26.248,安顺市,娄家坡,,38,28,25,18,18,120,120,130,130,7,7,10,11,0.5,0.4
2026-04-10T2000,1819A,114.3552,36.1017,安阳市,红庙街,颗粒物(PM10),70,77,54,28,42,103,103,114,114,15,16,4,4,0.3,0.4
2026-04-10T2000,1820A,114.361,36.0681,安阳市,银杏小区,颗粒物(PM10),62,66,54,26,44,101,101,114,114,11,11,4,4,0.1,0.3
2026-04-10T2000,3141A,114.3921,36.0879,安阳市,信访局,颗粒物(PM10),55,57,52,32,45,106,106,118,118,12,13,2,2,0.4,0.6
2026-04-10T2000,3669A,114.4706,36.0634,安阳市,左辅环卫站,颗粒物(PM10),58,60,67,24,44,86,86,110,109,17,15,1,3,0.4,0.5
2026-04-10T2000,4117A,114.2918,36.0769,安阳市,钢三路198号,,40,40,46,21,45,94,94,114,113,15,13,4,3,0.6,0.6
2026-04-10T2000,1748A,123.0441,41.1201,鞍山市,深沟寺,,43,41,73,30,48,77,77,82,81,26,31,11,11,1.0,1.2
2026-04-10T2000,1749A,123.011,41.0931,鞍山市,太阳城,,49,46,70,34,49,73,73,79,78,22,26,9,9,0.9,0.9
2026-04-10T2000,1750A,123.0483,41.1445,鞍山市,太平,,44,44,82,28,51,81,81,79,79,23,32,11,14,0.9,1.6
2026-04-10T2000,1751A,122.964,41.0968,鞍山市,铁西三道街,,46,40,73,32,53,80,80,77,77,27,33,8,12,0.8,1
2026-04-10T2000,1753A,123.0219,41.0822,鞍山市,明达新区,,46,43,65,32,46,74,74,79,78,25,28,11,9,1.2,0.9
2026-04-10T2000,4201A,122.944647,41.082639,鞍山市,兴盛南路290号,,42,39,82,29,54,84,84,82,82,25,33,9,11,0.8,1
2026-04-10T2000,2195A,107.4206,40.7609,巴彦淖尔市,附二中,,50,50,66,25,18,99,99,113,112,15,9,9,10,0.3,0.3
2026-04-10T2000,2196A,107.37,40.7372,巴彦淖尔市,市环保大楼,颗粒物(PM10),59,62,61,20,17,95,95,113,112,11,10,6,6,0.3,0.3
2026-04-10T2000,1956A,86.1476,41.7529,巴音郭楞蒙古自治州,孔雀公园,颗粒物(PM10),137,214,70,74,18,110,110,118,117,5,8,10,12,0.3,0.3
2026-04-10T2000,1957A,86.1971,41.7166,巴音郭楞蒙古自治州,棉纺厂,颗粒物(PM10),135,211,65,78,16,116,116,126,126,6,9,/,/,/,/
2026-04-10T2000,1958A,86.236,41.7172,巴音郭楞蒙古自治州,经济开发区,颗粒物(PM10),144,234,58,89,14,102,102,112,112,8,4,8,9,0.3,0.3
2026-04-10T2000,3181A,106.776805,31.852614,巴中市,市五中,,41,41,36,22,21,43,43,34,34,14,17,8,8,0.6,0.8
2026-04-10T2000,3183A,106.7419,31.8654,巴中市,圣泉水务公司,,39,39,32,23,19,36,36,43,42,24,18,8,8,0.7,0.7
2026-04-10T2000,3616A,106.7617,31.8343,巴中市,市中心医院,NA,NA,45,37,20,20,NA,NA,42,42,20,18,8,8,0.6,0.7
2026-04-10T2000,2235A,122.7909,45.608,白城市,洮北区环保局,,45,45,39,20,21,84,84,94,94,9,16,6,7,0.1,0.2
2026-04-10T2000,2236A,122.8741,45.5725,白城市,市环保局,,26,19,36,18,22,77,77,89,86,12,20,4,6,0.0,0.1
2026-04-10T2000,2231A,126.4219,41.9172,白山市,喜丰,,41,41,46,27,33,70,70,70,69,14,18,8,8,1.0,1
2026-04-10T2000,2232A,126.4082,41.9416,白山市,环保局,,34,34,37,22,35,77,77,70,70,14,18,9,10,1.0,1
2026-04-10T2000,2647A,104.1727,36.5448,白银市,第三小学,颗粒物(PM10),52,52,60,23,17,91,91,102,101,16,15,7,20,0.4,0.4
2026-04-10T2000,2648A,104.1467,36.5482,白银市,动力公司,颗粒物(PM10),53,54,53,15,14,96,96,106,105,15,12,6,11,0.2,0.3
2026-04-10T2000,2512A,106.6102,23.901,百色市,市监测站,颗粒物(PM10),55,57,57,37,37,78,78,128,118,22,20,10,12,0.6,0.5
2026-04-10T2000,2513A,106.6524,23.8842,百色市,市中心血站,NA,NA,87,63,60,46,NA,NA,130,129,20,24,8,13,0.5,0.8
2026-04-10T2000,4133A,106.6273,23.8798,百色市,龙景西路,细颗粒物(PM2.5),68,49,58,44,44,109,109,143,137,15,21,13,15,0.6,0.6
2026-04-10T2000,2270A,117.396,32.9389,蚌埠市,工人疗养院,颗粒物(PM10),68,75,65,16,32,100,100,122,118,28,19,4,5,0.4,0.6
2026-04-10T2000,2271A,117.3606,32.9428,蚌埠市,百货大楼,颗粒物(PM10),66,72,52,14,26,95,95,118,116,23,15,5,6,0.6,0.7
2026-04-10T2000,2273A,117.4183,32.8909,蚌埠市,蚌埠学院,颗粒物(PM10),72,80,56,15,26,68,68,129,122,48,16,8,5,0.5,0.6
2026-04-10T2000,2274A,117.3534,32.9672,蚌埠市,淮上区政府,颗粒物(PM10),65,70,51,14,27,97,97,121,120,23,17,5,5,0.5,0.5
2026-04-10T2000,2275A,117.3143,32.8977,蚌埠市,高新区,颗粒物(PM10),68,75,49,12,26,90,90,111,110,20,17,6,8,0.6,0.7
2026-04-10T2000,3715A,117.3091,32.9314,蚌埠市,蚌埠田家炳中学,颗粒物(PM10),72,80,59,13,27,105,105,121,120,17,18,5,9,0.4,0.5
2026-04-10T2000,1585A,109.8761,40.6533,包头市,市环境监测站,颗粒物(PM10),53,54,51,13,17,92,92,121,119,31,30,6,10,0.5,0.6
2026-04-10T2000,1587A,109.9992,40.5843,包头市,包头八中,颗粒物(PM10),53,54,50,20,19,72,72,115,110,43,32,10,14,0.5,0.6
2026-04-10T2000,1589A,109.8641,40.6288,包头市,惠龙物流,,47,47,43,23,18,89,89,114,111,25,30,11,10,0.5,0.6
2026-04-10T2000,1590A,110.0376,40.5546,包头市,东河鸿龙湾,,48,48,54,23,22,94,94,117,116,28,36,10,16,0.4,0.6
2026-04-10T2000,3283A,109.9154,40.5684,包头市,滨河大厦,,41,41,44,15,19,98,98,117,115,17,32,9,14,0.4,0.6
2026-04-10T2000,3419A,109.9449,40.6259,包头市,包头市委党校,,35,35,36,8,13,96,96,118,116,24,30,7,9,0.3,0.4
2026-04-10T2000,3683A,109.8332,40.6577,包头市,昆区政府,,43,43,41,15,16,89,89,121,118,38,31,4,9,0.7,0.8
2026-04-10T2000,1931A,107.0802,34.3129,宝鸡市,竹园沟,颗粒物(PM10),60,63,65,22,29,80,80,112,111,17,18,8,8,0.4,0.4
2026-04-10T2000,1933A,107.1429,34.3549,宝鸡市,监测站,颗粒物(PM10),74,83,72,29,29,74,74,105,105,28,21,6,7,0.4,0.3
2026-04-10T2000,1934A,107.1172,34.3759,宝鸡市,技工学校,颗粒物(PM10),68,74,74,26,33,89,89,106,106,22,16,4,6,0.5,0.5
2026-04-10T2000,1936A,107.2025,34.3518,宝鸡市,文理学院,NA,NA,NA,74,NA,32,NA,NA,105,105,23,20,6,7,0.5,0.5
2026-04-10T2000,1937A,107.2396,34.3626,宝鸡市,三迪小学,NA,NA,NA,78,28,32,87,87,101,101,17,23,6,7,0.5,0.5
2026-04-10T2000,4155A,107.1721,34.3558,宝鸡市,滨河北路,,45,45,41,28,33,68,68,99,99,50,20,8,8,0.6,0.5
2026-04-10T2000,4308A,107.3898,34.3601,宝鸡市,陈仓区北开路21号,颗粒物(PM10),73,82,89,27,37,90,90,101,101,14,22,8,20,0.5,0.6
2026-04-10T2000,1051A,115.4803,38.8568,保定市,游泳馆,颗粒物(PM10),55,57,48,28,29,93,93,113,113,19,18,2,2,0.3,0.3
2026-04-10T2000,1052A,115.509,38.8895,保定市,华电二区,颗粒物(PM10),53,53,48,20,29,99,99,116,116,15,14,2,2,0.2,0.3
2026-04-10T2000,1053A,115.4588,38.9037,保定市,接待中心,颗粒物(PM10),53,54,52,17,29,97,97,114,114,12,11,3,3,0.0,0.2
2026-04-10T2000,1054A,115.4484,38.8344,保定市,地表水厂,颗粒物(PM10),63,68,55,24,29,85,85,115,114,25,19,3,3,0.1,0.3
2026-04-10T2000,3581A,115.3136,38.9511,保定市,满城区生态环境分局,颗粒物(PM10),58,61,46,14,22,102,102,120,119,14,14,4,2,0.3,0.3
2026-04-10T2000,3582A,115.4709,38.7628,保定市,清苑区第二中学,颗粒物(PM10),64,69,51,23,18,90,90,112,112,14,10,4,4,0.2,0.3
2026-04-10T2000,3583A,115.6231,39.0223,保定市,徐水物探局,颗粒物(PM10),64,69,63,19,32,96,96,110,110,16,19,2,2,0.0,0.4
2026-04-10T2000,4004A,115.4199,38.8665,保定市,双鹰农机,颗粒物(PM10),58,60,50,23,33,93,93,115,115,23,19,6,3,0.2,0.3
2026-04-10T2000,4034A,115.515,38.8589,保定市,植保所站,颗粒物(PM10),68,75,71,17,33,94,94,108,108,17,21,2,3,0.3,0.4
2026-04-10T2000,2594A,99.1589,25.1137,保山市,市环境监测站,NA,NA,37,25,22,16,NA,NA,107,107,6,7,5,5,0.2,0.2
2026-04-10T2000,2595A,99.1616,25.1381,保山市,市环保局,,42,42,27,25,19,107,107,108,108,5,5,6,6,0.3,0.3
2026-04-10T2000,1867A,109.1435,21.4085,北海市,海滩公园,颗粒物(PM10),60,63,50,23,17,64,64,74,73,11,7,6,6,0.4,0.5
2026-04-10T2000,1868A,109.0983,21.466,北海市,新市环保局,,39,39,39,21,21,76,76,74,74,8,8,10,9,0.4,0.5
2026-04-10T2000,1869A,109.1775,21.5232,北海市,北海工业园,,38,38,51,22,24,69,69,70,70,8,12,5,8,0.6,0.6
2026-04-10T2000,3400A,109.1844,21.4396,北海市,龙潭自来水厂,,48,48,42,18,20,68,68,75,75,8,9,5,6,0.8,0.8
2026-04-10T2000,1001A,116.3611,39.8786,北京市,万寿西宫,,28,25,42,13,33,88,88,106,106,32,20,3,2,0.4,0.6
2026-04-10T2000,1003A,116.4174,39.9289,北京市,东四,,33,33,42,14,34,104,104,120,120,23,18,7,6,0.4,0.5
2026-04-10T2000,1004A,116.4073,39.8858,北京市,天坛,,21,19,38,9,33,66,66,94,94,15,15,3,3,0.5,0.7
2026-04-10T2000,1005A,116.4622,39.9364,北京市,农展馆,,33,30,44,14,35,103,103,116,116,23,18,3,2,0.6,0.7
2026-04-10T2000,1006A,116.3399,39.9293,北京市,官园,,33,33,41,19,37,87,87,99,99,30,20,2,2,0.5,0.6
2026-04-10T2000,1007A,116.2879,39.9613,北京市,海淀万柳,,23,23,38,8,31,62,62,88,88,34,21,3,3,0.4,0.6
2026-04-10T2000,1008A,116.6635,40.1349,北京市,顺义新城,,28,7,39,3,34,88,88,103,103,15,18,3,4,0.3,0.6
2026-04-10T2000,1009A,116.6275,40.327,北京市,怀柔镇,,26,7,40,3,31,82,82,98,98,17,16,4,4,0.5,0.7
2026-04-10T2000,1010A,116.2295,40.217,北京市,昌平镇,,30,8,38,3,31,94,94,96,96,15,21,2,2,0.0,0.4
2026-04-10T2000,1011A,116.3968,39.982,北京市,奥体中心,,26,26,41,10,30,75,75,104,104,39,22,4,3,0.6,0.7
2026-04-10T2000,3418A,116.8336,40.4095,北京市,密云新城,,28,6,36,3,27,89,89,102,102,11,8,3,3,0.2,0.5
2026-04-10T2000,3671A,116.0879,39.9725,北京市,门头沟三家店,,28,9,31,3,23,89,89,102,102,12,20,2,2,0.2,0.5
2026-04-10T2000,3672A,116.1507,39.8246,北京市,丰台云岗,,33,33,43,17,37,98,98,109,109,26,17,3,2,0.4,0.7
2026-04-10T2000,3674A,115.9578,39.7602,北京市,房山燕山,,26,21,35,10,33,82,82,95,95,15,17,3,3,0.4,0.6
2026-04-10T2000,3675A,116.4669,39.7734,北京市,大兴旧宫,,35,31,45,13,35,112,112,114,114,16,16,4,3,0.4,0.6
2026-04-10T2000,3694A,115.9859,40.4562,北京市,延庆石河营,,30,9,15,3,13,96,96,104,104,10,12,3,1,0.2,0.4
2026-04-10T2000,3695A,116.6151,40.3052,北京市,怀柔新城,NA,NA,6,31,3,20,NA,NA,94,94,10,14,3,3,0.2,0.7
2026-04-10T2000,3696A,116.2542,39.8764,北京市,丰台小屯,,28,28,44,12,30,79,79,104,104,35,23,2,2,0.4,0.5
2026-04-10T2000,3697A,116.8399,40.3843,北京市,密云镇,,27,7,40,3,35,85,85,102,102,17,12,4,4,0.2,0.6
2026-04-10T2000,4057A,115.9423,40.4431,北京市,延庆百泉,,31,9,14,3,12,97,97,102,102,6,10,1,2,0.2,0.5
2026-04-10T2000,4058A,116.6598,39.9164,北京市,通州新华,,31,29,47,10,37,99,99,100,100,23,23,3,2,0.4,0.6
2026-04-10T2000,4182A,116.1942,39.9158,北京市,石景山八角,,43,43,47,15,32,81,81,95,95,39,23,7,3,0.5,0.6
2026-04-10T2000,4194A,117.078628,40.151726,北京市,平谷新城,,36,34,42,25,39,101,101,116,116,26,15,4,3,0.4,0.6
2026-04-10T2000,1761A,123.8274146,41.31234549,本溪市,大峪,,41,41,72,18,39,62,62,71,70,11,23,6,7,0.7,1
2026-04-10T2000,1763A,123.7169,41.3094,本溪市,彩屯,细颗粒物(PM2.5),68,55,67,44,49,33,33,87,78,34,22,9,10,0.8,0.7
2026-04-10T2000,1764A,123.7672166,41.28649327,本溪市,东明,,47,47,62,24,47,73,73,73,71,19,36,11,11,0.9,1.3
2026-04-10T2000,1765A,123.799345,41.266614,本溪市,新立屯,,32,29,59,22,44,30,30,78,68,40,33,8,8,1.0,1
2026-04-10T2000,1766A,123.829144,41.336777,本溪市,威宁,,38,38,63,21,41,41,41,74,70,30,33,6,7,0.6,0.7
2026-04-10T2000,2587A,105.287,27.3133,毕节市,八中,,49,49,38,31,21,73,73,82,82,8,12,10,11,0.6,0.5
2026-04-10T2000,2588A,105.3079,27.2987,毕节市,师专,,50,50,36,27,20,82,82,98,97,6,8,9,10,0.5,0.5
2026-04-10T2000,4263A,105.3688,27.3598,毕节市,工业大道,,45,45,44,29,24,97,97,110,109,6,10,10,12,/,/
2026-04-10T2000,1629A,117.9961,37.3604,滨州市,第二水厂,细颗粒物(PM2.5),68,70,86,44,64,96,96,110,110,20,17,10,9,0.7,0.7
2026-04-10T2000,1630A,117.9789,37.3931,滨州市,北中新校,颗粒物(PM10),63,68,81,37,58,106,106,111,111,18,18,9,9,0.5,0.5
2026-04-10T2000,3514A,117.9379,37.3959,滨州市,中海酒店,颗粒物(PM10),63,68,70,33,51,106,106,116,116,26,22,11,10,0.5,0.6
2026-04-10T2000,3515A,117.9381509,37.35547456,滨州市,开发区一中,NA,NA,78,89,47,65,NA,NA,102,102,25,23,10,11,0.8,0.8
2026-04-10T2000,3516A,118.0914,37.6938,滨州市,金海六路,颗粒物(PM10),58,61,54,32,46,90,90,116,116,25,15,8,7,0.5,0.4
2026-04-10T2000,4028A,117.9955,37.3752,滨州市,滨州市西街道办事处,颗粒物(PM10),63,68,79,38,58,104,104,113,113,15,14,10,9,0.7,0.6
2026-04-10T2000,2311A,115.8071,33.8399,亳州市,污水处理厂,颗粒物(PM10),55,57,48,8,20,88,88,114,113,21,19,6,5,0.1,0.2
2026-04-10T2000,2312A,115.7789,33.8519,亳州市,三国揽胜宫,颗粒物(PM10),51,51,42,14,20,78,78,108,106,23,12,6,6,0.2,0.4
2026-04-10T2000,3332A,115.7631,33.803,亳州市,亳州学院,颗粒物(PM10),58,61,48,11,22,90,90,114,114,14,9,6,6,0.4,0.3
2026-04-10T2000,2693A,82.0482,44.8553,博尔塔拉蒙古自治州,市党校,,38,38,275,3,29,80,80,84,75,5,4,4,3,0.3,0.3
2026-04-10T2000,2694A,82.0805,44.8966,博尔塔拉蒙古自治州,市环保局,,48,33,299,33,36,76,76,72,66,13,11,3,3,0.2,0.2
2026-04-10T2000,1071A,116.8733,38.2922,沧州市,沧县城建局,颗粒物(PM10),65,70,57,24,44,79,79,113,111,28,20,3,1,0.3,0.3
2026-04-10T2000,1072A,116.8462,38.3189,沧州市,电视转播站,,45,45,57,22,36,96,96,118,118,21,17,6,7,0.3,0.3
2026-04-10T2000,1073A,116.8588,38.3161,沧州市,市环保局,,49,49,61,19,36,94,94,122,121,23,16,11,11,0.2,0.4
2026-04-10T2000,3324A,116.8011,38.294,沧州市,河北水利电力学院,颗粒物(PM10),53,53,51,28,38,79,79,109,108,31,17,6,6,0.1,0.2
2026-04-10T2000,2622A,97.1813,31.1289,昌都市,昌都监测站,臭氧1小时(O3_1h),65,9,11,9,3,172,172,152,152,5,9,6,7,0.0,0.2
2026-04-10T2000,3719A,97.1707,31.1428,昌都市,昌都会议中心,臭氧1小时(O3_1h),64,7,10,7,4,171,171,156,156,5,6,5,5,0.1,0.2
2026-04-10T2000,2692A,87.2722,44.0298,昌吉回族自治州,新区政务中心,颗粒物(PM10),123,179,219,37,40,99,99,100,100,10,13,6,6,0.1,0.2
2026-04-10T2000,3613A,87.3069,44.0093,昌吉回族自治州,亚心广场,颗粒物(PM10),155,259,281,34,41,98,98,102,102,12,13,7,7,0.2,0.3
2026-04-10T2000,4164A,87.2057,43.9289,昌吉回族自治州,财政所,颗粒物(PM10),182,314,262,39,32,97,97,101,101,6,9,9,7,0.2,0.2
2026-04-10T2000,1120A,125.2874,43.9024,长春市,客车厂,,50,NA,43,35,49,60,60,73,72,26,29,6,7,0.5,0.6
2026-04-10T2000,1121A,125.2943,43.8508,长春市,邮电学院,细颗粒物(PM2.5),52,NA,48,36,52,66,66,79,78,20,22,7,8,0.3,0.5
2026-04-10T2000,1122A,125.3648,43.8745,长春市,劳动公园,NA,NA,NA,60,45,54,65,65,73,73,16,26,6,8,0.5,0.8
2026-04-10T2000,1123A,125.3233,43.8781,长春市,园林处,,49,NA,46,34,48,70,70,82,82,17,22,6,7,0.4,0.5
2026-04-10T2000,1124A,125.4604,43.7904,长春市,净月潭,,43,NA,40,30,41,51,51,79,78,15,17,10,8,0.4,0.5
2026-04-10T2000,1126A,125.38,43.8422,长春市,经开区环卫处,,48,39,52,33,52,71,71,81,81,17,26,6,7,0.5,0.6
2026-04-10T2000,1127A,125.234,43.7761,长春市,高新区管委会,,50,39,49,35,50,56,56,79,78,20,28,6,9,0.7,0.8
2026-04-10T2000,1128A,125.1695,43.83,长春市,岱山公园,细颗粒物(PM2.5),56,NA,48,38,54,66,66,86,81,22,38,5,6,0.5,0.5
2026-04-10T2000,4281A,125.334645,43.916281,长春市,北亚泰大街1068号,,50,36,48,35,52,64,64,74,71,25,27,7,8,0.4,0.5
2026-04-10T2000,1335A,113.082,28.2421,长沙市,经开区环保局,,46,46,32,27,20,47,47,90,86,14,10,4,4,0.7,0.6
2026-04-10T2000,1336A,112.8873,28.2202,长沙市,高开区环保局,,37,37,33,21,25,52,52,77,71,9,8,5,6,0.8,0.6
2026-04-10T2000,1337A,113.0785,28.2012,长沙市,马坡岭,,45,42,34,31,24,49,49,90,86,7,6,4,4,0.9,0.8
2026-04-10T2000,1338A,112.9448,28.1894,长沙市,湖南师范大学,,45,45,40,21,25,50,50,78,78,16,11,4,4,0.9,0.8
2026-04-10T2000,1339A,113.0177,28.1322,长沙市,雨花区环保局,,45,45,30,28,23,49,49,79,79,13,9,3,3,0.9,0.8
2026-04-10T2000,1340A,112.9795,28.2593,长沙市,伍家岭,,35,35,42,19,24,46,46,72,72,14,13,3,3,0.5,0.4
2026-04-10T2000,1341A,113.002,28.1944,长沙市,火车新站,,43,43,33,26,26,48,48,78,78,11,10,3,3,0.7,0.6
2026-04-10T2000,1342A,112.9846,28.1177,长沙市,天心区环保局,细颗粒物(PM2.5),58,55,33,39,28,51,51,83,83,15,12,5,5,0.8,0.7
2026-04-10T2000,1343A,112.8906,28.1307,长沙市,湖南中医药大学,,38,38,34,20,23,53,53,76,76,13,12,5,5,0.8,0.7
2026-04-10T2000,1727A,113.1146,36.1547,长治市,清华站,,35,28,53,14,21,109,109,122,122,6,7,8,11,0.4,0.5
2026-04-10T2000,1730A,113.0887,36.2126,长治市,审计局,NA,NA,NA,49,NA,26,112,112,122,122,NA,14,9,10,NA,0.6
2026-04-10T2000,1731A,113.0845,36.1856,长治市,长治八中,颗粒物(PM10),53,54,64,14,26,115,115,121,121,20,21,10,10,0.5,0.6
2026-04-10T2000,2845A,113.1561,36.1912,长治市,德盛苑,,38,28,52,12,22,121,121,128,128,13,11,8,12,0.5,0.6
2026-04-10T2000,3568A,113.0603,36.0464,长治市,向阳小学,颗粒物(PM10),69,76,79,21,24,124,124,127,127,22,26,9,9,0.6,0.7
2026-04-10T2000,3569A,112.8788,36.315,长治市,屯留一中,,35,35,52,15,23,102,102,124,123,25,18,10,11,0.4,0.6
2026-04-10T2000,4189A,113.113092,36.199482,长治市,英华南巷50号,NA,NA,NA,60,NA,25,114,114,124,122,15,14,7,11,NA,0.8
2026-04-10T2000,4190A,113.23666,36.33435,长治市,学府街1号,,34,34,63,13,25,84,84,110,108,24,20,5,6,0.5,0.7
2026-04-10T2000,1854A,111.696,28.9725,常德市,市二中,NA,NA,NA,34,49,28,58,58,68,68,7,9,8,8,NA,1.2
2026-04-10T2000,3138A,111.7152,29.0288,常德市,武陵区永安,细颗粒物(PM2.5),70,NA,34,45,27,54,54,69,69,12,10,6,6,0.9,0.9
2026-04-10T2000,3139A,111.6891,28.9881,常德市,鼎城区玉霞,细颗粒物(PM2.5),76,NA,34,48,28,62,62,72,72,8,10,8,8,0.9,0.9
2026-04-10T2000,3140A,111.6651,29.0526,常德市,武陵区长庚,细颗粒物(PM2.5),70,NA,31,45,26,62,62,70,70,8,8,8,10,0.9,0.9
2026-04-10T2000,1196A,119.9524,31.7586,常州市,市监测站,颗粒物(PM10),82,94,78,31,31,126,126,164,164,28,22,10,9,0.9,0.8
2026-04-10T2000,1200A,119.9351,31.703,常州市,武进监测站,颗粒物(PM10),69,76,64,33,32,138,138,156,156,30,24,12,7,0.6,0.4
2026-04-10T2000,3002A,119.9701,31.813,常州市,行政中心,颗粒物(PM10),60,64,62,31,37,106,106,153,151,21,21,6,7,0.6,0.6
2026-04-10T2000,3003A,120.0434,31.7726,常州市,经开区,颗粒物(PM10),73,81,70,30,32,97,97,155,152,30,17,4,4,1.0,0.9
2026-04-10T2000,3010A,119.8919,31.7892,常州市,钟楼,颗粒物(PM10),53,53,49,32,36,132,132,163,163,23,23,8,8,0.5,0.5
2026-04-10T2000,3429A,119.8595,31.706,常州市,武进经发区,颗粒物(PM10),61,65,51,36,30,109,109,150,150,58,22,7,6,0.9,0.8
2026-04-10T2000,3430A,119.5812,31.7256,常州市,金坛城区,颗粒物(PM10),54,55,38,31,30,135,135,153,153,15,9,9,9,0.9,0.8
2026-04-10T2000,4089A,119.9551,31.863,常州市,崇义南街5-H号,颗粒物(PM10),65,71,61,27,34,103,103,156,155,23,24,6,7,0.8,0.7
2026-04-10T2000,2220A,120.4318,41.588,朝阳市,西梁,颗粒物(PM10),68,74,23,23,17,90,90,103,102,11,16,9,10,0.3,0.5
2026-04-10T2000,2221A,120.452,41.565,朝阳市,河畔小区,颗粒物(PM10),68,74,22,17,14,96,96,107,107,11,14,7,7,0.4,0.6
2026-04-10T2000,2222A,120.4176,41.5648,朝阳市,八里堡,颗粒物(PM10),71,79,21,31,16,93,93,106,105,11,14,8,7,0.4,0.5
2026-04-10T2000,3026A,116.6179,23.6608,潮州市,市政府,,28,27,37,19,19,36,36,83,76,21,12,4,4,0.5,0.5
2026-04-10T2000,4036A,116.646,23.676,潮州市,金山,,36,36,35,21,19,47,47,86,81,10,13,2,3,0.5,0.5
2026-04-10T2000,2473A,113.0116,25.8228,郴州市,市职中,细颗粒物(PM2.5),56,46,44,38,35,93,93,101,101,10,9,10,11,0.5,0.5
2026-04-10T2000,2475A,113.0381,25.8074,郴州市,市审计局,细颗粒物(PM2.5),56,44,42,38,35,99,99,109,109,2,6,6,8,/,/
2026-04-10T2000,2476A,113.0348,25.7757,郴州市,市环保局,细颗粒物(PM2.5),58,52,45,39,35,104,104,111,111,9,7,14,10,0.4,0.4
2026-04-10T2000,4252A,113.0138,25.8011,郴州市,好美居路49号,细颗粒物(PM2.5),52,40,40,36,30,92,92,100,100,8,8,12,11,/,/
2026-04-10T2000,1431A,103.9727,30.7242,成都市,金泉两河,颗粒物(PM10),56,58,46,25,22,51,51,69,56,29,21,2,3,0.4,0.4
2026-04-10T2000,1432A,104.1423,30.6765,成都市,十里店,,31,31,48,17,24,84,84,75,75,12,26,4,5,0.6,0.7
2026-04-10T2000,1433A,104.0594,30.5765,成都市,三瓦窑,颗粒物(PM10),64,69,48,20,24,74,74,73,73,15,29,2,3,0.6,0.7
2026-04-10T2000,1434A,104.1122,30.6306,成都市,沙河铺,NA,NA,NA,44,NA,26,NA,NA,52,NA,NA,37,NA,3,NA,0.6
2026-04-10T2000,2880A,104.0219,30.6561,成都市,大石西路,颗粒物(PM10),52,52,47,25,25,55,55,64,59,23,27,4,4,0.5,0.7
2026-04-10T2000,3136A,104.2724,30.559,成都市,龙泉驿区区政府,,29,22,39,11,24,92,92,77,77,4,18,7,7,0.3,0.5
2026-04-10T2000,3357A,104.0028,30.6891,成都市,金博路,,43,43,35,23,22,57,57,62,58,32,33,6,6,0.7,0.6
2026-04-10T2000,3359A,104.056,30.5228,成都市,华阳,,46,46,43,22,24,70,70,75,74,26,31,4,4,0.3,0.3
2026-04-10T2000,3488A,104.387954,30.746684,成都市,青石路225号,,34,34,51,12,29,106,106,75,75,3,32,6,7,0.4,0.6
2026-04-10T2000,3489A,104.0788,30.4054,成都市,科学城,,46,46,31,26,18,72,72,74,74,21,23,7,7,0.9,0.9
2026-04-10T2000,4011A,103.8505,30.6946,成都市,光华大道三段,颗粒物(PM10),61,65,41,22,20,33,33,79,66,41,25,3,3,0.6,0.4
2026-04-10T2000,4144A,104.3257,30.6406,成都市,八角井街185号,,34,34,51,9,26,86,86,63,63,10,21,6,4,0.4,0.5
2026-04-10T2000,4224A,104.2433276,30.53529463,成都市,鲸龙路1057号,,30,28,59,11,25,95,95,77,77,8,32,6,6,0.4,0.6
2026-04-10T2000,1062A,117.9531,40.908,承德市,铁路,,45,45,16,8,5,92,92,101,101,9,14,3,5,0.2,0.3
2026-04-10T2000,1063A,117.9397,40.9763,承德市,中国银行,,47,47,19,18,6,88,88,100,99,7,9,2,2,0.1,0.2
2026-04-10T2000,4073A,117.9462,40.95,承德市,杏林街1号,,36,36,17,10,11,97,97,103,103,3,8,2,2,0,0.2
2026-04-10T2000,4274A,117.7994,40.9605,承德市,滨河大街98号,,31,31,14,3,7,97,97,106,106,3,7,4,7,0.1,0.3
2026-04-10T2000,2314A,117.4698,30.6617,池州市,池州学院,,26,22,26,17,19,82,82,114,110,25,23,6,4,0.7,0.8
2026-04-10T2000,3237A,117.4918,30.6617,池州市,展览馆,,27,25,30,12,17,86,86,124,115,17,19,4,2,0.4,0.5
2026-04-10T2000,3333A,117.5626,30.695,池州市,第八中学,,27,27,32,14,20,65,65,99,98,27,23,8,5,0.6,0.7
2026-04-10T2000,3334A,117.5037,30.6242,池州市,第十二中学,,27,27,23,17,16,73,73,110,107,23,16,6,3,0.8,0.8
2026-04-10T2000,1744A,118.9229,42.2816,赤峰市,松山一中,颗粒物(PM10),55,56,16,12,6,85,85,97,96,12,12,6,6,0.4,0.5
2026-04-10T2000,1745A,118.9588,42.2733,赤峰市,哈达街,颗粒物(PM10),51,51,19,10,7,88,88,103,102,12,11,9,9,0.4,0.5
2026-04-10T2000,1746A,118.8792,42.2551,赤峰市,天义路,NA,NA,80,10,33,8,83,83,96,95,11,9,NA,4,NA,0.2
2026-04-10T2000,3058A,119.2656,42.0356,赤峰市,银河街,颗粒物(PM10),73,81,22,15,10,84,84,106,105,5,8,6,9,0.3,0.5
2026-04-10T2000,3286A,118.9359,42.3146,赤峰市,桥北物流园区,颗粒物(PM10),52,52,27,7,7,82,82,97,95,4,6,3,4,0.3,0.5
2026-04-10T2000,2521A,107.3473,22.4137,崇左市,市环保局江州分局,细颗粒物(PM2.5),139,120,94,102,68,194,194,172,172,11,12,5,6,1.1,0.8
2026-04-10T2000,4256A,107.375,22.3736,崇左市,石景林东路7号,细颗粒物(PM2.5),129,112,76,91,62,167,167,179,179,16,12,5,5,1.3,1
2026-04-10T2000,3207A,118.31131,32.3033,滁州市,市政府原办公楼,颗粒物(PM10),57,59,38,36,34,97,97,117,116,21,10,5,5,0.6,0.6
2026-04-10T2000,3331A,118.3268,32.2633,滁州市,图书馆,颗粒物(PM10),60,64,47,27,29,96,96,124,122,18,10,10,9,0.5,0.5
2026-04-10T2000,4101A,118.3196,32.3335,滁州市,银山路666号,颗粒物(PM10),68,74,46,26,26,100,100,119,119,22,10,8,7,0.7,0.6
2026-04-10T2000,4102A,118.3426,32.2979,滁州市,黄山路555号,颗粒物(PM10),75,85,58,31,32,98,98,124,122,26,9,6,6,0.7,0.7
2026-04-10T2000,2606A,101.5379,25.0492,楚雄彝族自治州,市经济开发区,,36,24,23,20,15,114,114,115,115,9,6,2,2,0.3,0.3
2026-04-10T2000,4153A,101.5536,25.0343,楚雄彝族自治州,团结路562号,NA,NA,NA,33,12,17,123,123,120,120,2,4,2,2,0.2,0.3
2026-04-10T2000,2549A,107.5087,31.2186,达州市,市环境监测站,,41,41,41,9,13,44,44,46,46,25,27,6,8,0.1,0.3
2026-04-10T2000,2550A,107.4988,31.2132,达州市,凤凰小区,,39,39,41,12,18,48,48,49,49,23,28,5,7,0.1,0.3
2026-04-10T2000,2551A,107.5081,31.1987,达州市,达县机关宾馆,,27,27,41,16,26,48,48,45,45,28,34,4,6,0.2,0.4
2026-04-10T2000,2552A,107.4644,31.2124,达州市,市政中心,,37,37,46,12,17,54,54,51,51,26,33,5,7,0.3,0.4
2026-04-10T2000,2614A,100.2168,25.5818,大理白族自治州,大理市环境监测站,,30,NA,18,19,15,94,94,94,94,10,10,4,4,0.2,0.2
2026-04-10T2000,2615A,100.1542,25.7055,大理白族自治州,大理古城,,30,NA,15,18,12,96,96,102,102,10,7,2,2,0.6,0.6
2026-04-10T2000,1109A,121.6119,38.974,大连市,甘井子,细颗粒物(PM2.5),76,72,44,48,31,79,79,99,99,42,16,8,7,0.7,0.5
2026-04-10T2000,1110A,121.565,38.9509,大连市,周水子,颗粒物(PM10),139,221,51,52,31,70,70,91,91,46,20,6,4,1.0,0.6
2026-04-10T2000,1111A,121.5637,38.8849,大连市,星海三站,颗粒物(PM10),54,55,31,36,27,93,93,94,94,27,14,3,4,0.6,0.5
2026-04-10T2000,1112A,121.6301,38.9117,大连市,青泥洼桥,细颗粒物(PM2.5),66,56,43,43,30,101,101,97,97,19,14,4,4,0.8,0.7
2026-04-10T2000,1113A,121.6248,38.8643,大连市,傅家庄,颗粒物(PM10),114,154,56,33,28,96,96,102,102,22,10,6,6,0.7,0.6
2026-04-10T2000,1114A,121.5117,38.8636,大连市,七贤岭,细颗粒物(PM2.5),88,85,36,54,26,63,63,92,92,43,14,6,5,0.9,0.6
2026-04-10T2000,1116A,121.7507,39.1339,大连市,金州,细颗粒物(PM2.5),86,70,49,53,35,82,82,84,84,36,18,7,5,0.8,0.6
2026-04-10T2000,1117A,121.7811,39.0495,大连市,开发区,细颗粒物(PM2.5),70,66,47,45,34,66,66,83,83,41,21,6,8,0.7,0.7
2026-04-10T2000,1118A,121.9762,39.0631,大连市,双D港,细颗粒物(PM2.5),84,62,38,52,30,55,55,91,89,26,15,5,5,0.8,0.3
2026-04-10T2000,4082A,121.2548,38.8188,大连市,旅顺,细颗粒物(PM2.5),106,81,37,66,35,100,100,98,98,20,14,6,4,0.6,0.5
2026-04-10T2000,1789A,124.8085,46.0381,大庆市,大同区,颗粒物(PM10),53,53,36,36,20,78,78,94,93,17,13,5,5,0.5,0.4
2026-04-10T2000,1790A,125.1166,46.5255,大庆市,龙凤区,,46,37,35,32,16,65,65,80,78,19,14,3,4,0.2,0.2
2026-04-10T2000,1791A,124.8894,46.4007,大庆市,红岗区,,43,43,29,24,17,67,67,87,86,11,7,12,12,0.3,0.3
2026-04-10T2000,1792A,125.1391,46.578,大庆市,萨尔图区,,38,38,28,18,11,84,84,89,88,8,9,8,7,0.3,0.1
2026-04-10T2000,1793A,124.9026,46.6217,大庆市,让胡路区,,42,42,37,24,15,49,49,74,73,33,15,4,5,0.6,0.4
2026-04-10T2000,3481A,125.127,46.6277,大庆市,萨区政府监测点,,36,36,26,19,12,64,64,74,74,1,3,9,9,0.3,0.3
2026-04-10T2000,1723A,113.2926,40.0759,大同市,云冈宾馆,,36,36,32,6,6,91,91,110,108,18,14,6,6,0.3,0.3
2026-04-10T2000,1724A,113.3437,40.0921,大同市,大同大学,,32,28,34,15,9,102,102,116,115,12,17,1,4,0.4,0.5
2026-04-10T2000,1725A,113.2637,40.129,大同市,安家小村,,31,31,30,8,9,92,92,106,105,15,14,10,11,0.3,0.5
2026-04-10T2000,3282A,113.3399,40.0586,大同市,大同市卫生学校,,50,50,32,17,8,107,107,126,124,16,12,4,6,0.4,0.4
2026-04-10T2000,3565A,113.1371,40.1122,大同市,云冈站,,34,34,30,10,10,61,61,115,109,34,11,5,6,0.3,0.4
2026-04-10T2000,3566A,113.1186,40.2556,大同市,图书馆,,37,37,33,15,9,78,78,111,107,23,10,5,6,0.6,0.4
2026-04-10T2000,3567A,113.5931,40.0459,大同市,区一中,,38,38,38,16,10,99,99,123,121,13,13,11,12,0.5,0.6
2026-04-10T2000,4199A,113.2798248,40.09972476,大同市,魏都大道141号,,30,26,35,12,9,94,94,112,110,14,13,7,10,0.3,0.5
2026-04-10T2000,2269A,124.1068,50.4091,大兴安岭地区,科技局,细颗粒物(PM2.5),68,72,27,44,10,98,98,79,79,9,6,8,8,0.4,0.3
2026-04-10T2000,3663A,124.117,50.4279,大兴安岭地区,红旗社区,细颗粒物(PM2.5),78,58,22,49,11,115,115,94,94,14,10,11,8,0.4,0.3
2026-04-10T2000,1600A,124.33,40.0625,丹东市,江湾东路,细颗粒物(PM2.5),90,84,32,55,22,33,33,103,92,50,15,23,6,1.1,0.6
2026-04-10T2000,1601A,124.4242,40.1513,丹东市,临江后街,,48,40,29,33,23,57,57,93,89,29,13,3,5,0.8,0.6
2026-04-10T2000,1602A,124.3935,40.1461,丹东市,元宝山,,30,24,28,21,22,77,77,92,89,13,12,5,5,0.6,0.5
2026-04-10T2000,1603A,124.3634,40.1093,丹东市,民主桥,细颗粒物(PM2.5),60,57,34,40,24,47,47,95,88,46,17,5,5,0.9,0.5
2026-04-10T2000,3541A,109.5726195,19.51688767,儋州市,第一中学子站,颗粒物(PM10),65,71,45,36,26,117,117,124,124,11,6,9,9,0.5,0.3
2026-04-10T2000,3542A,109.5567,19.5187,儋州市,东坡学校子站,细颗粒物(PM2.5),64,52,41,42,27,112,112,122,122,12,5,7,6,0.7,0.5
2026-04-10T2000,2616A,98.5611,24.4273,德宏傣族景颇族自治州,德宏州监测站,细颗粒物(PM2.5),54,39,27,37,30,80,80,102,100,16,12,5,5,0.3,0.1
2026-04-10T2000,3677A,98.5887,24.4366,德宏傣族景颇族自治州,芒市人民政府综合楼,颗粒物(PM10),56,58,49,24,27,67,67,92,90,16,12,8,7,0.5,0.4
2026-04-10T2000,1901A,104.424,31.1209,德阳市,东山公园,,31,31,47,13,31,96,96,78,78,1,25,3,6,0.3,0.5
2026-04-10T2000,1902A,104.3827,31.1318,德阳市,西小区,,39,39,60,12,32,93,93,77,77,6,28,2,11,0.4,0.6
2026-04-10T2000,1904A,104.3553,31.1091,德阳市,耐火材料厂,,39,39,58,12,33,100,100,83,83,7,26,2,13,0.2,0.5
2026-04-10T2000,4145A,104.4144,31.1495,德阳市,市林业局,,33,33,49,10,33,101,101,83,83,2,33,4,7,0.4,0.6
2026-04-10T2000,1622A,116.3034,37.4675,德州市,儿童乐园,颗粒物(PM10),58,61,65,22,37,102,102,118,118,18,20,7,7,0.6,0.7
2026-04-10T2000,1624A,116.2992,37.4449,德州市,监理站,颗粒物(PM10),63,68,59,21,34,104,104,121,121,22,25,9,9,0.5,0.7
2026-04-10T2000,3066A,116.2722,37.438,德州市,九衢泉纯净水厂,颗粒物(PM10),53,53,52,21,26,66,66,111,108,37,24,3,4,0.6,0.7
2026-04-10T2000,3371A,116.3693,37.44,德州市,开发区人民医院,颗粒物(PM10),63,68,61,21,34,102,102,118,118,22,19,9,8,0.7,0.7
2026-04-10T2000,3511A,116.5687,37.3331,德州市,陵城艺术中心,颗粒物(PM10),65,70,54,32,39,86,86,109,109,22,18,8,7,0.8,0.8
2026-04-10T2000,4292A,116.352738,37.420875,德州市,新河东路,颗粒物(PM10),70,78,57,27,32,78,78,113,112,35,21,8,8,0.8,0.8
2026-04-10T2000,2621A,99.7054,27.8319,迪庆藏族自治州,迪庆州站,,33,18,16,7,7,104,104,122,115,7,6,8,8,0.4,0.3
2026-04-10T2000,3180A,99.7122,27.8129,迪庆藏族自治州,质量技术监督局,,35,12,14,6,7,109,109,129,123,10,7,6,6,0.4,0.4
2026-04-10T2000,4257A,104.6092,35.5962,定西市,将台街,颗粒物(PM10),61,65,63,32,22,97,97,116,114,16,22,8,7,0.2,0.2
2026-04-10T2000,4309A,104.6159,35.5701,定西市,正龙路62号,颗粒物(PM10),61,65,67,24,20,99,99,114,114,7,11,8,8,0.2,0.3
2026-04-10T2000,4071A,114.9883,38.5232,定州市,交通局,颗粒物(PM10),68,75,60,13,31,103,103,114,114,20,22,6,5,0.3,0.4
2026-04-10T2000,4072A,115.0045,38.5136,定州市,第五中学,颗粒物(PM10),64,69,67,18,31,99,99,112,112,13,13,3,2,0.3,0.4
2026-04-10T2000,1390A,113.7943,23.0132,东莞市,东城石井,,29,29,27,14,14,43,43,66,64,12,10,2,2,0.5,0.5
2026-04-10T2000,1391A,113.7384,22.9659,东莞市,南城西平,,26,26,23,10,10,42,42,60,58,9,8,3,3,0.5,0.5
2026-04-10T2000,3319A,113.7283,23.041,东莞市,万江金泰,,34,34,26,18,16,40,40,64,62,12,11,6,6,0.6,0.6
2026-04-10T2000,4129A,113.8666,23.1062,东莞市,裕兴路,,34,34,31,13,13,33,33,60,58,19,15,5,5,0.6,0.6
2026-04-10T2000,4130A,114.0076,22.9739,东莞市,教育路1号,,31,31,29,13,12,42,42,62,60,14,15,6,6,0.5,0.5
2026-04-10T2000,4131A,113.7981,22.8124,东莞市,长怡路1号,,31,31,30,13,19,34,34,54,51,15,13,5,5,0.6,0.7
2026-04-10T2000,1666A,118.6612,37.4313,东营市,市环保局,颗粒物(PM10),56,58,48,36,41,92,92,117,115,27,15,9,8,0.3,0.3
2026-04-10T2000,3036A,118.6903,37.4337,东营市,开发区管委会,NA,NA,61,51,38,44,NA,NA,125,125,34,18,7,7,0.6,0.5
2026-04-10T2000,3365A,118.5721,37.5654,东营市,垦利区民丰路,颗粒物(PM10),51,51,42,32,38,110,110,126,126,22,14,5,5,0.7,0.6
2026-04-10T2000,3498A,118.5063,37.8606,东营市,河口城区,颗粒物(PM10),63,68,40,27,28,104,104,118,NA,21,12,22,8,0.8,0.6
2026-04-10T2000,3646A,118.4979,37.4623,东营市,胜利站,颗粒物(PM10),58,61,62,37,40,90,90,106,105,27,16,9,8,0.9,0.8
2026-04-10T2000,3734A,118.5753,37.4405,东营市,理想之城,颗粒物(PM10),70,78,59,30,38,98,98,125,123,36,25,6,6,0.5,0.5
2026-04-10T2000,1591A,110.0024,39.8127,鄂尔多斯市,综合楼,颗粒物(PM10),63,68,50,17,21,100,100,114,113,21,15,6,7,0.2,0.2
2026-04-10T2000,1592A,109.9485,39.8259,鄂尔多斯市,巴音孟克林场办事处,,48,48,45,14,8,91,91,114,111,25,12,4,4,0.4,0.3
2026-04-10T2000,1593A,109.7734,39.5987,鄂尔多斯市,康泽苑,,32,19,46,18,10,101,101,116,115,11,8,6,7,0.3,0.2
2026-04-10T2000,1594A,109.8121,39.5987,鄂尔多斯市,华泰汽车城,,34,34,47,14,10,72,72,105,101,32,16,5,6,0.3,0.3
2026-04-10T2000,1595A,109.9734,39.7884,鄂尔多斯市,奥林花园,,48,48,52,18,9,99,99,113,111,19,23,4,4,0.3,0.3
2026-04-10T2000,2436A,114.894,30.3989,鄂州市,市政府,NA,NA,71,32,31,15,NA,NA,90,90,37,15,11,11,0.6,0.3
2026-04-10T2000,2437A,114.8986,30.3714,鄂州市,赵家坝,,46,46,28,27,15,62,62,87,85,23,8,12,9,0.7,0.4
2026-04-10T2000,3654A,114.8093,30.4091,鄂州市,精准医疗中心,,49,49,37,23,19,73,73,102,100,26,14,4,5,0.8,0.7
2026-04-10T2000,2454A,109.4978,30.2979,恩施土家族苗族自治州,湖北民院,,46,43,38,32,23,71,71,58,58,13,14,7,7,0.5,0.6
2026-04-10T2000,3549A,109.5061,30.3771,恩施土家族苗族自治州,龙凤新区,,39,39,32,16,19,71,71,54,54,2,5,7,7,0.3,0.4
2026-04-10T2000,2499A,108.3411,21.6159,防城港市,沙万,颗粒物(PM10),55,56,46,28,23,79,79,70,70,9,7,6,6,0.7,0.7
2026-04-10T2000,2500A,108.3515,21.7733,防城港市,防城档案局,,50,50,45,30,26,77,77,80,80,3,3,7,7,0.7,0.6
2026-04-10T2000,2501A,108.3506,21.6414,防城港市,大海花园,,45,33,39,31,27,89,89,81,81,14,12,7,7,0.5,0.5
2026-04-10T2000,1371A,113.1293,23.0065,佛山市,湾梁,,27,27,28,16,18,36,36,70,69,14,18,/,/,/,/
2026-04-10T2000,1372A,113.1082,23.0477,佛山市,华材职中,,31,31,28,18,18,41,41,76,75,15,18,4,4,0.3,0.3
2026-04-10T2000,1373A,113.1439,23.045,佛山市,南海气象局,,33,33,33,22,19,39,39,71,71,15,21,/,/,/,/
2026-04-10T2000,1374A,113.2879,22.8094,佛山市,顺德苏岗,,29,29,29,17,16,42,42,66,63,6,7,/,/,0.5,0.6
2026-04-10T2000,1376A,112.8384,22.8678,佛山市,高明孔堂,,22,22,23,14,13,45,45,64,63,7,7,/,/,/,/
2026-04-10T2000,1377A,112.8835,23.1584,佛山市,三水监测站,,25,24,25,17,17,36,36,64,64,16,23,4,5,0.3,0.3
2026-04-10T2000,1378A,112.8668,23.185,佛山市,三水云东海,颗粒物(PM10),51,51,42,16,17,39,39,70,70,16,21,/,/,/,/
2026-04-10T2000,3625A,113.2568,22.7629,佛山市,容桂街道办,,27,27,21,16,15,40,40,59,58,10,13,/,/,/,/
2026-04-10T2000,1282A,119.2681,26.0506,福州市,师大,颗粒物(PM10),54,55,46,36,26,76,76,129,123,19,19,5,4,0.3,0.3
2026-04-10T2000,1283A,119.2983,26.1028,福州市,五四北路,颗粒物(PM10),56,58,49,35,30,83,83,134,129,19,24,5,4,0.3,0.3
2026-04-10T2000,1284A,119.2648,26.0769,福州市,杨桥西路,细颗粒物(PM2.5),56,49,45,38,26,82,82,142,128,18,20,5,4,/,/
2026-04-10T2000,3048A,119.5799,26.0937,福州市,九龙,,50,40,37,35,27,67,67,125,116,17,13,5,6,0.3,0.3
2026-04-10T2000,3526A,119.5188,25.9666,福州市,吴航,,44,44,40,28,23,77,77,114,110,16,14,6,6,0.4,0.5
2026-04-10T2000,4104A,119.3106,26.0648,福州市,路通桥巷6号,细颗粒物(PM2.5),56,43,45,38,30,73,73,132,125,18,16,/,/,/,/
2026-04-10T2000,1755A,123.7974,41.8494,抚顺市,望花区,,44,44,73,22,54,75,75,83,83,24,28,13,13,0.7,0.8
2026-04-10T2000,1756A,123.9161,41.8827,抚顺市,顺城区,,36,36,62,21,53,63,63,72,72,27,34,10,10,0.7,0.7
2026-04-10T2000,1757A,124.0437,41.8615,抚顺市,东洲区,,36,36,81,20,58,62,62,68,68,26,34,9,10,0.7,0.8
2026-04-10T2000,1758A,123.9246,41.8638,抚顺市,新抚区,,39,39,68,23,56,66,66,74,74,26,32,9,9,0.9,0.9
2026-04-10T2000,1759A,124.0972,41.8961,抚顺市,大伙房水库,,26,26,53,17,47,82,82,82,82,15,22,8,9,0.5,0.6
2026-04-10T2000,1760A,123.708,41.8386,抚顺市,沈抚新城,,42,42,74,23,53,75,75,82,82,22,31,9,9,0.7,0.8
2026-04-10T2000,2377A,116.3544,27.9833,抚州市,市站,,32,26,24,21,14,102,102,133,126,8,5,3,3,0.9,0.8
2026-04-10T2000,2378A,116.3562,27.9631,抚州市,血防站,,38,27,24,26,14,81,81,121,111,11,6,6,7,0.8,0.7
2026-04-10T2000,2379A,116.3561,28.0007,抚州市,采茶剧团,,39,39,27,22,12,89,89,121,113,2,2,6,12,0.7,0.5
2026-04-10T2000,2380A,116.3854,27.9648,抚州市,医学分院,,29,28,36,14,10,92,92,118,111,6,5,6,6,1.1,1.1
2026-04-10T2000,2207A,121.6095,41.9978,阜新市,工业园区,颗粒物(PM10),65,70,33,3,23,88,88,102,100,8,15,8,10,0.3,0.5
2026-04-10T2000,2208A,121.6567,42.0188,阜新市,长青街,,33,33,30,3,27,94,94,105,104,8,15,5,6,0.3,0.5
2026-04-10T2000,2209A,121.6672,42.07,阜新市,农业园区,颗粒物(PM10),61,65,34,3,22,91,91,101,101,9,13,3,4,0.3,0.6
2026-04-10T2000,2211A,121.6343,42.0455,阜新市,玉龙新城,颗粒物(PM10),63,68,32,3,21,91,91,104,102,9,17,5,6,0.3,0.5
2026-04-10T2000,2301A,115.8276,32.8929,阜阳市,市监测站,颗粒物(PM10),63,67,45,12,22,82,82,98,98,26,19,6,5,0.4,0.4
2026-04-10T2000,2303A,115.8551,32.8606,阜阳市,开发区,颗粒物(PM10),78,89,46,17,20,74,74,98,98,14,16,5,5,0.6,0.6
2026-04-10T2000,2875A,115.783962,32.889217,阜阳市,阜阳职业技术学院,颗粒物(PM10),60,64,42,7,12,90,90,108,108,13,11,7,7,0.5,0.6
2026-04-10T2000,3468A,115.79,32.8614,阜阳市,市规划展馆,,46,46,40,11,21,100,100,116,116,14,14,8,7,0.5,0.6
2026-04-10T2000,3469A,115.835101,32.918568,阜阳市,枣园社区,颗粒物(PM10),68,75,45,15,25,57,57,96,95,37,18,8,7,0.5,0.5
2026-04-10T2000,2669A,102.9097,34.9841,甘南藏族自治州,州政府,,31,30,41,12,20,98,98,91,91,5,23,1,2,0.2,0.4
2026-04-10T2000,3380A,102.8915,34.9618,甘南藏族自治州,甘肃民族师范学院,,36,22,51,11,21,114,114,105,105,3,24,1,1,0.3,0.2
2026-04-10T2000,2570A,101.96,30.048,甘孜藏族自治州,水桥子,,30,11,11,8,5,95,95,100,100,4,7,6,6,0.2,0.2
2026-04-10T2000,3065A,101.9534,29.9976,甘孜藏族自治州,州环保局,,32,9,11,7,7,100,100,108,107,10,10,5,5,0.3,0.2
2026-04-10T2000,2363A,114.9368,25.8663,赣州市,地委,,48,48,36,29,25,89,89,106,106,9,6,6,3,0.8,0.8
2026-04-10T2000,2364A,114.946,25.8483,赣州市,气象台,颗粒物(PM10),51,51,40,32,28,86,86,107,106,9,6,7,6,0.3,0.5
2026-04-10T2000,2365A,114.932,25.8332,赣州市,市图书馆,,46,46,34,32,26,84,84,100,99,8,6,6,4,0.8,0.6
2026-04-10T2000,2366A,114.8905,25.8472,赣州市,华坚鞋城,细颗粒物(PM2.5),58,51,39,39,27,91,91,97,97,10,7,7,7,0.6,0.7
2026-04-10T2000,3109A,115.0094,25.8614,赣州市,赣县区卫计委,,29,22,34,20,25,72,72,94,92,8,14,4,2,0.6,0.8
2026-04-10T2000,2684A,106.2753,36.0057,固原市,监测站,颗粒物(PM10),58,60,69,16,20,104,104,112,112,14,18,5,6,0.4,0.4
2026-04-10T2000,2685A,106.2384,36.0189,固原市,新区,颗粒物(PM10),62,66,74,22,20,100,100,108,108,20,28,5,5,0.3,0.4
2026-04-10T2000,2544A,106.6307,30.4577,广安市,市委,,29,28,39,16,26,92,92,93,93,6,11,6,7,0.3,0.4
2026-04-10T2000,2545A,106.6266,30.4662,广安市,友谊中学,,29,25,34,16,22,91,91,88,88,7,11,5,8,0.4,0.5
2026-04-10T2000,2547A,106.6386,30.4551,广安市,广电花园,,33,33,51,16,27,82,82,84,84,9,15,5,6,0.3,0.6
2026-04-10T2000,2902A,106.6347,30.4868,广安市,北辰小学,,30,30,43,17,26,89,89,90,90,7,10,10,9,0.3,0.5
2026-04-10T2000,2524A,105.8211,32.4444,广元市,老城,,47,47,46,17,22,60,60,67,66,15,25,2,3,0.5,0.6
2026-04-10T2000,2526A,105.8629,32.429,广元市,监测站,颗粒物(PM10),54,55,48,15,18,50,50,63,63,19,17,3,4,0.4,0.5
2026-04-10T2000,3617A,105.8047,32.4167,广元市,经开区,,37,37,47,18,23,65,65,67,67,12,24,4,6,0.4,0.5
2026-04-10T2000,1345A,113.2346,23.1423,广州市,广雅中学,,35,35,33,18,16,35,35,60,60,14,17,2,2,0.8,0.7
2026-04-10T2000,1346A,113.2611,23.105,广州市,市五中,,35,35,29,22,16,41,41,70,69,20,21,3,3,/,/
2026-04-10T2000,1348A,113.3477,23.0916,广州市,广东商学院,,39,39,31,24,19,35,35,51,50,16,25,5,4,0.3,0.4
2026-04-10T2000,1349A,113.4332,23.105,广州市,市八十六中,,25,25,26,11,14,25,25,45,45,26,30,5,6,/,/
2026-04-10T2000,1350A,113.3506,22.9488,广州市,番禺中学,,28,28,29,17,16,45,45,75,74,12,15,5,5,0.5,0.5
2026-04-10T2000,1351A,113.2147,23.3918,广州市,花都师范,,41,41,35,22,19,36,36,75,75,31,26,6,6,0.7,0.7
2026-04-10T2000,1352A,113.2599,23.1329,广州市,市监测站,NA,NA,NA,32,23,18,37,37,61,61,13,13,2,2,/,/
2026-04-10T2000,1353A,113.5618,23.3119,广州市,九龙镇镇龙,,39,39,35,20,16,32,32,62,60,22,23,6,6,0.4,0.4
2026-04-10T2000,1354A,113.2764,23.1544,广州市,麓湖,,34,34,30,16,15,41,41,59,59,16,18,4,4,0.5,0.5
2026-04-10T2000,2846A,113.3209,23.1323,广州市,体育西,,46,46,34,21,18,16,16,51,48,36,24,5,5,0.6,0.5
2026-04-10T2000,3298A,113.5718,23.5493,广州市,从化街口,,35,35,33,20,19,49,49,77,77,14,13,7,7,0.5,0.5
2026-04-10T2000,3299A,113.3463,23.369,广州市,白云竹料,,48,48,37,20,18,27,27,66,64,32,23,4,3,0.6,0.6
2026-04-10T2000,3300A,113.2981,23.2365,广州市,白云嘉禾,,45,45,38,17,18,26,26,61,60,30,29,10,10,/,/
2026-04-10T2000,3301A,113.4256,23.1716,广州市,黄埔科学城,,37,37,35,15,18,22,22,53,50,32,30,8,7,0.4,0.5
2026-04-10T2000,3302A,113.3942,23.0485,广州市,番禺大学城,,38,38,34,13,13,38,38,56,54,23,24,5,3,0.5,0.6
2026-04-10T2000,3303A,113.4923,22.8169,广州市,南沙黄阁,,30,30,29,17,15,33,33,56,54,17,12,5,6,/,/
2026-04-10T2000,3304A,113.534,22.7893,广州市,南沙街,,34,34,27,13,14,36,36,52,52,13,14,4,4,0.4,0.4
2026-04-10T2000,3443A,113.2905,23.5541,广州市,花都梯面,,22,22,25,11,14,44,44,68,68,19,18,7,7,/,/
2026-04-10T2000,3445A,113.786,23.7479,广州市,从化良口,,29,29,32,19,22,73,73,97,97,13,13,4,4,/,/
2026-04-10T2000,3446A,113.805,23.2614,广州市,增城荔城,,32,32,33,13,17,44,44,70,69,13,15,5,5,0.4,0.4
2026-04-10T2000,2506A,109.604387,23.066791,贵港市,江南子站,颗粒物(PM10),62,66,66,39,37,106,106,111,111,9,14,8,9,0.8,0.8
2026-04-10T2000,2508A,109.5669,23.1065,贵港市,荷城子站,细颗粒物(PM2.5),60,61,55,40,35,82,82,100,99,20,14,10,10,0.9,0.8
2026-04-10T2000,3405A,109.5886,23.1172,贵港市,新世纪学校,"颗粒物(PM10),细颗粒物(PM2.5)",58,61,56,39,37,95,95,108,107,15,16,/,/,0.7,0.7
2026-04-10T2000,4260A,109.5933,23.095,贵港市,中山路155-3号,颗粒物(PM10),55,57,64,23,38,105,105,112,112,10,14,/,/,0.8,0.8
2026-04-10T2000,1439A,106.6863,26.6035,贵阳市,马鞍山,,36,36,35,19,24,112,112,125,124,14,15,6,5,/,/
2026-04-10T2000,1441A,106.6241,26.6266,贵阳市,鉴湖路,颗粒物(PM10),56,58,50,22,20,126,126,140,139,12,11,6,12,0.5,0.7
2026-04-10T2000,1442A,106.7468,26.6344,贵阳市,燕子冲,,46,46,46,21,21,107,107,122,121,14,16,3,8,0.7,0.8
2026-04-10T2000,1443A,106.6556,26.4362,贵阳市,碧云窝,,48,48,42,26,23,122,122,134,134,9,9,8,11,/,/
2026-04-10T2000,1445A,106.6963,26.6063,贵阳市,红边门,颗粒物(PM10),53,53,53,27,27,101,101,122,121,26,32,4,10,/,/
2026-04-10T2000,1446A,106.7162383,26.56964667,贵阳市,新华路,NA,NA,NA,55,20,25,106,106,127,126,23,31,29,34,0.1,0.4
2026-04-10T2000,1447A,106.6742,26.542,贵阳市,太慈桥,,41,41,43,27,23,109,109,120,120,11,17,5,6,/,/
2026-04-10T2000,4230A,106.688212,26.56952,贵阳市,花果园大街66号,,34,34,33,21,23,101,101,107,107,18,19,3,6,/,/
2026-04-10T2000,4231A,106.687268,26.516892,贵阳市,漓江路57号,,36,34,34,25,25,109,109,133,130,21,17,8,10,0.5,0.7
2026-04-10T2000,1864A,110.3091,25.2705,桂林市,龙隐路小学,细颗粒物(PM2.5),72,70,63,46,44,105,105,118,118,12,11,4,4,0.9,0.8
2026-04-10T2000,1865A,110.2849361,25.22909545,桂林市,八中,颗粒物(PM10),53,53,59,33,29,90,90,107,106,17,15,3,4,0.7,0.6
2026-04-10T2000,3531A,110.296,25.1254,桂林市,旅游学院,细颗粒物(PM2.5),72,54,51,46,43,115,115,120,120,6,8,6,8,0.7,0.7
2026-04-10T2000,4222A,110.1835,25.2444,桂林市,环湖路276号,NA,NA,61,52,45,44,NA,NA,126,126,6,11,14,12,0.5,0.7
2026-04-10T2000,4301A,110.2803,25.2773,桂林市,信义路13号,细颗粒物(PM2.5),106,70,63,66,39,101,101,118,118,14,11,4,5,0.8,0.7
2026-04-10T2000,2674A,100.2262,34.4854,果洛藏族自治州,玛沁县大武镇,,29,27,22,14,10,90,90,109,102,4,2,15,16,0.5,0.6
2026-04-10T2000,1130A,126.5557,45.8109,哈尔滨市,松北商大,,46,NA,36,32,27,51,51,66,51,14,14,10,11,0.6,0.4
2026-04-10T2000,1132A,126.6162,45.719,哈尔滨市,南岗学府路,,38,30,42,26,22,53,53,63,51,14,18,4,5,0.6,0.4
2026-04-10T2000,1133A,126.6894,45.7733,哈尔滨市,太平宏伟公园,,36,NA,44,25,26,54,54,60,51,14,24,5,7,0.3,0.4
2026-04-10T2000,1134A,126.6361,45.7672,哈尔滨市,道外承德广场,颗粒物(PM10),52,52,70,19,24,49,49,55,46,15,27,7,14,0.9,0.6
2026-04-10T2000,1136A,126.644,45.7261,哈尔滨市,动力和平路,,29,NA,40,20,20,50,50,60,48,17,19,3,4,0.6,0.6
2026-04-10T2000,1137A,126.5933,45.7479,哈尔滨市,道里建国路,,29,NA,36,20,24,53,53,62,51,20,27,2,8,0.7,0.7
2026-04-10T2000,1138A,126.6127,45.6119,哈尔滨市,平房东轻厂,,45,45,56,22,35,21,21,49,32,89,95,8,7,0.7,0.6
2026-04-10T2000,1139A,126.5875,45.9827,哈尔滨市,呼兰师专,,39,NA,52,27,32,48,48,58,51,17,23,8,9,0.3,0.3
2026-04-10T2000,1140A,126.6299,45.6799,哈尔滨市,省农科院,,40,33,56,28,27,48,48,62,45,18,23,7,8,0.6,0.4
2026-04-10T2000,4282A,126.6769,45.7379,哈尔滨市,华山路1号,NA,NA,NA,44,NA,25,NA,NA,69,50,NA,18,NA,9,NA,0.4
2026-04-10T2000,4283A,126.9717,45.5356,哈尔滨市,解放大街52号,NA,NA,66,54,30,20,30,30,76,55,31,20,NA,8,NA,0.4
2026-04-10T2000,2688A,93.5124,42.8176,哈密市,地区监测站,,36,21,37,21,19,115,115,119,119,9,16,17,11,0.2,0.1
2026-04-10T2000,2689A,93.5014,42.8312,哈密市,哈密师范学校,,40,40,52,13,12,112,112,120,119,9,24,8,8,0.1,0.2
2026-04-10T2000,2671A,100.9016,36.9464,海北藏族自治州,海晏县西海镇,,40,32,43,23,16,126,126,134,133,2,2,11,9,0.4,0.4
2026-04-10T2000,3867A,102.074,36.5056,海东市,平安区公安局北苑,颗粒物(PM10),65,70,62,29,24,128,128,127,127,15,12,16,19,0.5,0.5
2026-04-10T2000,4163A,102.0984,36.5119,海东市,滨河路,颗粒物(PM10),67,73,62,27,21,102,102,106,106,25,24,17,16,0.6,0.5
2026-04-10T2000,1410A,110.3189,20.0596,海口市,海南大学,,46,46,31,28,16,91,91,89,89,22,10,5,6,0.4,0.4
2026-04-10T2000,1411A,110.2827,20.0051,海口市,秀英海南医院,,49,34,28,34,19,112,112,92,92,14,13,8,8,0.6,0.3
2026-04-10T2000,1412A,110.3391,19.9979,海口市,海南师范大学,,44,44,32,26,19,90,90,111,109,11,9,7,6,0.5,0.4
2026-04-10T2000,1413A,110.3303,20.0359,海口市,龙华路环保局宿舍,细颗粒物(PM2.5),54,46,32,37,19,125,125,109,109,15,10,/,/,0.6,0.4
2026-04-10T2000,3539A,110.5111,19.9737,海口市,桂林洋子站,,39,39,28,19,15,40,40,81,72,11,8,/,/,/,/
2026-04-10T2000,4134A,110.1952,20.0451,海口市,长滨二路9号,NA,NA,62,34,38,19,NA,NA,105,105,11,9,/,/,/,/
2026-04-10T2000,2673A,100.6158,36.2985,海南藏族自治州,共和县恰卜恰镇,颗粒物(PM10),52,52,45,19,20,127,127,132,132,3,8,14,11,0.4,0.4
2026-04-10T2000,2676A,97.373,37.376,海西蒙古族藏族自治州,德令哈市,,47,35,33,13,13,150,150,150,150,1,2,12,13,0.4,0.3
2026-04-10T2000,1049A,114.492,36.5712,邯郸市,矿院,,48,48,52,32,33,110,110,123,123,9,14,4,4,0.3,0.5
2026-04-10T2000,1050A,114.4839,36.6136,邯郸市,丛台公园,颗粒物(PM10),59,62,53,28,40,111,111,119,119,11,15,8,7,0.4,0.6
2026-04-10T2000,3458A,114.7893,36.5592,邯郸市,香泉濮院小区,颗粒物(PM10),66,72,52,32,36,104,104,119,119,14,12,1,3,0.3,0.5
2026-04-10T2000,3580A,114.1998,36.4439,邯郸市,峰峰矿区临水派出所,颗粒物(PM10),58,60,56,38,43,135,135,133,133,12,10,12,6,0.5,0.6
2026-04-10T2000,4068A,114.5209,36.7697,邯郸市,建安街268号,,47,47,57,18,44,116,116,120,120,9,18,3,2,0.3,0.7
2026-04-10T2000,4069A,114.5488,36.6177,邯郸市,丛台东路558号,细颗粒物(PM2.5),62,65,56,41,37,91,91,117,116,22,23,3,3,0.3,0.5
2026-04-10T2000,2635A,107.0155,33.0707,汉中市,市监测站,颗粒物(PM10),64,69,61,32,30,49,49,60,60,18,20,6,6,0.9,0.8
2026-04-10T2000,2636A,107.0083,33.114,汉中市,鑫源开发区,颗粒物(PM10),60,63,50,30,27,52,52,60,60,22,23,8,8,0.9,0.9
2026-04-10T2000,2637A,107.0072,33.0323,汉中市,南郑大河坎水厂,颗粒物(PM10),63,68,56,39,29,40,40,52,52,25,23,6,6,0.9,0.7
2026-04-10T2000,1223A,120.2073,30.2111,杭州市,滨江,颗粒物(PM10),59,62,31,31,17,120,120,130,130,20,16,8,7,1.0,0.7
2026-04-10T2000,1224A,120.0625,30.2737,杭州市,西溪,细颗粒物(PM2.5),86,53,29,53,15,122,122,123,123,19,11,9,8,1.2,0.9
2026-04-10T2000,1226A,120.3417,30.315,杭州市,下沙,颗粒物(PM10),88,102,49,39,24,87,87,110,110,40,19,8,7,1.0,0.7
2026-04-10T2000,1227A,120.1252,30.2465,杭州市,卧龙桥,颗粒物(PM10),53,53,26,29,14,119,119,130,130,24,13,8,7,0.7,0.5
2026-04-10T2000,1228A,120.1902,30.2691,杭州市,浙江农大,颗粒物(PM10),57,59,25,34,20,103,103,118,118,33,18,8,7,0.6,0.3
2026-04-10T2000,1230A,120.1195,30.3121,杭州市,和睦小学,颗粒物(PM10),85,98,45,41,21,125,125,127,127,17,11,8,6,0.9,0.6
2026-04-10T2000,1231A,120.3076,30.4146,杭州市,临平镇,颗粒物(PM10),53,54,38,34,24,125,125,135,135,25,16,8,6,0.9,0.7
2026-04-10T2000,1232A,120.2753,30.1839,杭州市,城厢镇,颗粒物(PM10),62,66,41,33,21,101,101,117,115,27,17,6,5,0.8,0.6
2026-04-10T2000,1233A,120.0883,30.1808,杭州市,云栖,颗粒物(PM10),59,62,26,34,13,97,97,120,120,23,15,7,6,0.9,0.7
2026-04-10T2000,3557A,119.9463,30.0496,杭州市,镇二中,颗粒物(PM10),58,60,21,34,13,119,119,130,130,23,12,5,4,0.7,0.7
2026-04-10T2000,3558A,119.7184,30.2367,杭州市,市府大楼,细颗粒物(PM2.5),70,66,21,45,14,121,121,120,120,15,9,7,6,0.8,0.5
2026-04-10T2000,3656A,120.1554,30.2863,杭州市,消防大队,颗粒物(PM10),80,91,41,40,20,112,112,118,118,23,15,5,4,1.0,0.7
2026-04-10T2000,1270A,117.1957,31.7845,合肥市,明珠广场,颗粒物(PM10),60,63,33,12,15,52,52,118,113,35,25,6,4,0.7,0.6
2026-04-10T2000,1271A,117.307,31.8765,合肥市,三里街,颗粒物(PM10),51,51,39,12,17,75,75,107,107,29,29,6,6,0.7,0.6
2026-04-10T2000,1272A,117.2587,31.8703,合肥市,琥珀山庄,颗粒物(PM10),53,53,32,15,15,77,77,110,110,22,23,6,6,1.0,0.7
2026-04-10T2000,1275A,117.2593,31.9376,合肥市,庐阳区,,48,48,36,15,15,92,92,110,110,17,23,6,6,0.8,0.7
2026-04-10T2000,1276A,117.345251,31.861615,合肥市,瑶海区,颗粒物(PM10),96,114,46,30,18,85,85,121,121,48,30,7,7,0.9,0.8
2026-04-10T2000,1277A,117.3033,31.7967,合肥市,包河区,颗粒物(PM10),74,83,40,21,16,56,56,110,110,60,31,9,10,1.0,0.8
2026-04-10T2000,1278A,117.278,31.7392,合肥市,滨湖新区,颗粒物(PM10),65,70,39,22,18,91,91,113,113,21,24,6,6,0.7,0.5
2026-04-10T2000,1279A,117.1324,31.8395,合肥市,高新区,,48,48,32,10,11,82,82,102,102,13,11,5,5,0.7,0.6
2026-04-10T2000,3464A,117.3802,31.9148,合肥市,高教基地,颗粒物(PM10),55,56,34,14,12,72,72,120,118,23,21,8,8,0.7,0.6
2026-04-10T2000,4098A,117.2518,31.8404,合肥市,中国科学技术大学,,46,46,32,9,15,91,91,119,119,15,17,6,6,0.8,0.7
2026-04-10T2000,3614A,79.9241,37.0878,和田地区,地区环保局,颗粒物(PM10),258,390,527,87,134,106,106,107,107,2,5,1,8,0.2,0.3
2026-04-10T2000,3615A,79.9132,37.1137,和田地区,市环保局,颗粒物(PM10),185,319,496,78,109,90,90,94,94,8,12,1,7,0.3,0.3
2026-04-10T2000,2517A,108.0496,24.6957,河池市,市环保站,细颗粒物(PM2.5),101,81,66,61,47,164,164,140,140,6,7,7,8,0.9,0.8
2026-04-10T2000,4302A,108.0901,24.6945,河池市,上任中路54号,细颗粒物(PM2.5),84,64,67,52,47,162,162,134,134,6,15,6,9,0.9,0.8
2026-04-10T2000,1697A,114.6962,23.7538,河源市,东埔,,33,33,29,20,21,63,63,82,82,9,12,6,6,0.5,0.5
2026-04-10T2000,1698A,114.6895,23.7232,河源市,老城,,36,36,33,20,21,64,64,81,81,7,13,6,7,0.4,0.5
2026-04-10T2000,3374A,115.5562,35.089,菏泽市,定陶老年大学,颗粒物(PM10),95,112,70,50,38,105,105,136,136,35,20,6,6,0.6,0.6
2026-04-10T2000,4114A,115.4239,35.2593,菏泽市,黄河路600号,颗粒物(PM10),78,89,76,27,41,104,104,128,128,19,18,4,3,0.5,0.6
2026-04-10T2000,4115A,115.5025,35.2727,菏泽市,菏泽市人社局,颗粒物(PM10),74,83,65,25,38,100,100,114,113,19,17,7,7,0.4,0.5
2026-04-10T2000,4184A,115.479691,35.244011,菏泽市,永昌路1号,颗粒物(PM10),67,73,72,27,39,108,108,136,135,26,24,2,3,0.4,0.2
2026-04-10T2000,4193A,115.471542,35.280012,菏泽市,长城路999号,颗粒物(PM10),73,81,66,24,37,124,124,131,131,16,18,5,4,0.4,0.5
2026-04-10T2000,2514A,111.5264,24.4178,贺州市,环保小区,细颗粒物(PM2.5),62,52,44,41,29,100,100,105,105,13,12,7,7,0.5,0.4
2026-04-10T2000,2515A,111.561,24.4074,贺州市,政协大楼,细颗粒物(PM2.5),70,NA,35,45,31,107,107,113,113,14,11,8,9,0.8,0.7
2026-04-10T2000,3534A,111.4744,24.455,贺州市,西湾,细颗粒物(PM2.5),86,83,52,53,31,84,84,104,104,20,12,9,8,0.8,0.6
2026-04-10T2000,2385A,114.17,35.9019,鹤壁市,市监测站,细颗粒物(PM2.5),58,54,68,39,53,106,106,128,128,15,15,12,8,0.6,0.7
2026-04-10T2000,2386A,114.2953,35.7512,鹤壁市,市交警支队,颗粒物(PM10),59,62,74,24,54,88,88,112,112,19,19,6,8,0.6,0.8
2026-04-10T2000,2387A,114.2877,35.7302,鹤壁市,迎宾馆,颗粒物(PM10),60,63,88,27,56,89,89,114,114,11,14,5,6,0.5,0.8
2026-04-10T2000,3474A,114.2616,35.6824,鹤壁市,大新区,,49,47,66,34,59,74,74,111,111,18,13,7,8,0.7,0.9
2026-04-10T2000,3596A,114.1573,35.9607,鹤壁市,南山宾馆,颗粒物(PM10),73,82,82,35,48,105,105,126,126,17,17,17,9,0.5,0.8
2026-04-10T2000,2244A,130.2537,47.3416,鹤岗市,哈啤分公司,,33,33,25,14,12,75,75,83,81,10,9,11,11,0.2,0.3
2026-04-10T2000,2245A,130.2683,47.3087,鹤岗市,斯达机电,,33,33,32,16,16,79,79,82,81,6,9,11,11,0.2,0.2
2026-04-10T2000,2246A,130.3114,47.3388,鹤岗市,东山纸板厂,,32,32,82,13,19,84,84,89,88,8,14,9,10,0.3,0.3
2026-04-10T2000,2263A,127.4832,50.2524,黑河市,交通局,,31,31,27,19,17,82,82,83,83,11,8,5,6,0.3,0.3
2026-04-10T2000,2264A,127.5146,50.2339,黑河市,环保局,,30,30,36,18,18,84,84,82,82,13,18,7,7,0.4,0.5
2026-04-10T2000,1074A,115.6839,37.754,衡水市,电机北厂,颗粒物(PM10),63,67,57,20,36,100,100,116,115,27,20,3,3,0.3,0.5
2026-04-10T2000,1075A,115.6303,37.7318,衡水市,市监测站,颗粒物(PM10),56,58,58,12,32,101,101,114,114,18,17,6,5,0.2,0.5
2026-04-10T2000,3188A,115.6684,37.7216,衡水市,市城管局,颗粒物(PM10),65,70,54,31,38,107,107,118,118,16,18,3,2,0.3,0.4
2026-04-10T2000,3459A,115.599,37.5491,衡水市,地表水厂,颗粒物(PM10),61,65,59,22,29,75,75,117,111,28,22,3,3,0.3,0.4
2026-04-10T2000,2457A,112.6209,26.9268,衡阳市,衡阳化工总厂,NA,NA,NA,47,17,30,101,101,111,111,3,6,4,5,0.6,0.7
2026-04-10T2000,2458A,112.621,26.8957,衡阳市,珠晖区环保局,,29,NA,43,18,28,90,90,107,107,8,9,7,7,0.8,0.9
2026-04-10T2000,2459A,112.628,26.8654,衡阳市,市委党校,,30,NA,41,17,28,96,96,114,113,2,4,8,8,0.9,0.9
2026-04-10T2000,2460A,112.6007,26.8977,衡阳市,市监测站,,36,36,46,6,27,91,91,106,106,14,18,7,8,0.8,0.8
2026-04-10T2000,2461A,112.5658,26.9013,衡阳市,真空机电公司,,30,23,46,21,33,86,86,113,111,11,10,5,6,1.1,1.2
2026-04-10T2000,3399A,112.6703,26.8817,衡阳市,师范学院,,34,16,45,8,28,106,106,118,118,2,5,6,7,0.8,0.8
2026-04-10T2000,3038A,103.3757,23.3679,红河哈尼族彝族自治州,州图书馆,细颗粒物(PM2.5),64,52,41,42,31,92,92,110,103,9,9,5,5,0.4,0.3
2026-04-10T2000,4154A,103.401,23.3561,红河哈尼族彝族自治州,蒙自市朝阳路,细颗粒物(PM2.5),56,50,32,38,30,94,94,111,106,10,12,5,5,0.4,0.5
2026-04-10T2000,1090A,111.6506,40.7517,呼和浩特市,呼市一监,,31,17,34,11,15,99,99,106,106,8,15,5,7,0.3,0.4
2026-04-10T2000,1094A,111.7516,40.8369,呼和浩特市,如意水处理厂,,30,14,22,3,13,93,93,106,106,12,18,5,7,0.2,0.3
2026-04-10T2000,1095A,111.727798,40.806187,呼和浩特市,二十九中,,30,19,32,3,14,95,95,99,99,7,12,8,9,0.3,0.4
2026-04-10T2000,1097A,111.717,40.7617,呼和浩特市,化肥厂生活区,,30,NA,30,14,21,93,93,104,104,14,17,5,7,0.3,0.4
2026-04-10T2000,3699A,111.6519,40.8389,呼和浩特市,海东办,,28,14,40,3,10,88,88,100,100,13,18,2,6,0.2,0.4
2026-04-10T2000,4275A,111.591512,40.827312,呼和浩特市,成吉思汗西街8号,,24,24,35,3,9,67,67,96,95,34,27,4,6,0.3,0.4
2026-04-10T2000,4276A,111.6597,40.8077,呼和浩特市,公园东路75号,,29,17,34,3,12,90,90,95,95,14,15,3,5,0.2,0.3
2026-04-10T2000,4277A,111.5427,40.7846,呼和浩特市,金海路35号,,28,27,39,3,13,89,89,101,101,20,20,4,8,0.2,0.3
2026-04-10T2000,3061A,119.7511,49.1576,呼伦贝尔市,国华电力东,,32,32,22,6,9,66,66,77,74,7,9,4,4,0.2,0.2
2026-04-10T2000,4279A,119.7569,49.2222,呼伦贝尔市,伊敏大街东7号,,23,23,19,9,8,73,73,85,82,6,8,6,6,0.4,0.3
2026-04-10T2000,1250A,120.075,30.867,湖州市,城西水厂,,48,48,40,33,30,153,153,154,154,22,26,6,6,0.8,0.7
2026-04-10T2000,2873A,120.083,30.8929,湖州市,仁皇山新区,,49,43,42,33,34,156,156,152,152,14,20,6,6,0.9,0.9
2026-04-10T2000,2907A,120.1846,30.8592,湖州市,吴兴区站,颗粒物(PM10),52,52,41,32,31,149,149,152,152,31,19,6,7,0.9,0.7
2026-04-10T2000,3562A,120.4146,30.8538,湖州市,南浔区站,细颗粒物(PM2.5),76,66,34,48,30,147,147,152,152,20,11,6,6,0.9,0.8
2026-04-10T2000,1607A,120.904878,40.721091,葫芦岛市,龙港区,细颗粒物(PM2.5),96,69,28,58,22,86,86,110,108,27,23,10,9,0.9,0.6
2026-04-10T2000,1608A,120.8382,40.7521,葫芦岛市,化工街,细颗粒物(PM2.5),128,105,26,90,25,62,62,101,98,43,29,16,13,0.9,0.6
2026-04-10T2000,1609A,120.8339,40.7078,葫芦岛市,新区,细颗粒物(PM2.5),114,NA,23,75,22,78,78,104,102,29,22,8,8,1.0,0.7
2026-04-10T2000,1610A,120.8697,40.7679,葫芦岛市,东城区,细颗粒物(PM2.5),112,NA,23,73,27,73,73,106,104,44,30,11,10,1.1,0.7
2026-04-10T2000,2483A,109.9297,27.5383,怀化市,河西地税局,,35,26,51,24,35,62,62,74,73,6,11,4,4,/,/
2026-04-10T2000,2484A,109.9783,27.5342,怀化市,市四医院,,43,43,53,24,38,66,66,79,79,5,8,3,4,0.4,0.5
2026-04-10T2000,2485A,109.9971,27.5579,怀化市,监测楼,NA,NA,NA,50,NA,35,NA,NA,87,87,NA,7,NA,4,NA,0.5
2026-04-10T2000,1210A,119.0566,33.5991,淮安市,钵池山,颗粒物(PM10),75,85,52,32,31,113,113,122,122,27,13,10,8,0.8,0.7
2026-04-10T2000,1211A,119.0083,33.578,淮安市,北京南路,颗粒物(PM10),88,102,50,42,35,48,48,109,105,49,16,7,7,0.9,0.6
2026-04-10T2000,1212A,118.9938,33.6083,淮安市,市监测站,NA,NA,NA,40,NA,32,85,85,125,123,34,14,6,6,0.9,0.7
2026-04-10T2000,1213A,119.135,33.5038,淮安市,楚州区监测站,颗粒物(PM10),74,83,51,45,34,68,68,116,113,37,13,5,5,0.5,0.5
2026-04-10T2000,3426A,118.8757,33.2897,淮安市,新华书店,颗粒物(PM10),76,86,50,27,21,84,84,113,112,27,7,6,6,0.8,0.6
2026-04-10T2000,4092A,119.119691,33.550006,淮安市,枚皋中路89号,颗粒物(PM10),58,60,50,20,27,88,88,119,118,14,11,10,10,0.8,0.8
2026-04-10T2000,4206A,119.028838,33.631911,淮安市,承德北路606号,颗粒物(PM10),91,107,57,37,32,75,75,115,113,38,14,9,9,0.8,0.4
2026-04-10T2000,2282A,116.8005,33.9749,淮北市,监测站,颗粒物(PM10),54,55,40,25,31,86,86,113,112,16,16,6,6,0.5,0.6
2026-04-10T2000,2283A,116.8094,33.9008,淮北市,烈山区政府,颗粒物(PM10),56,58,50,11,23,110,110,119,119,8,19,6,6,0.4,0.6
2026-04-10T2000,4017A,116.7926,33.9534,淮北市,市博物馆,颗粒物(PM10),57,59,42,19,22,90,90,115,114,30,19,6,5,1.8,0.8
2026-04-10T2000,4100A,116.8322,33.9884,淮北市,杜集区第一实验学校,颗粒物(PM10),68,75,61,19,24,78,78,105,104,19,15,6,6,0.5,0.5
2026-04-10T2000,2277A,116.8304,32.7726,淮南市,潘集区政府,颗粒物(PM10),55,56,33,14,21,84,84,82,82,24,22,6,6,0.4,0.6
2026-04-10T2000,2279A,116.8569,32.5949,淮南市,谢家集区政府,颗粒物(PM10),66,72,25,36,17,80,80,95,95,18,17,12,8,0.7,0.5
2026-04-10T2000,2280A,116.8279,32.6333,淮南市,八公山区政府,颗粒物(PM10),60,63,33,39,20,82,82,87,87,12,12,8,7,0.6,0.6
2026-04-10T2000,2894A,117.0561,32.6536,淮南市,经济技术开发区消防队,颗粒物(PM10),52,52,32,28,21,86,86,102,102,14,19,7,7,0.6,0.6
2026-04-10T2000,3329A,117.011,32.5891,淮南市,山南新区,颗粒物(PM10),59,62,31,26,19,91,91,118,118,16,14,8,7,0.7,0.6
2026-04-10T2000,4209A,117.003137,32.644456,淮南市,国庆中路369号,颗粒物(PM10),72,80,45,34,25,68,68,96,93,23,14,5,5,0.3,0.3
2026-04-10T2000,2446A,114.9021,30.474,黄冈市,职工中心,细颗粒物(PM2.5),54,47,26,37,14,78,78,103,102,18,8,8,6,0.6,0.3
2026-04-10T2000,2929A,114.8858,30.4519,黄冈市,红卫路,细颗粒物(PM2.5),68,52,26,44,20,64,64,105,102,18,6,6,4,0.5,0.4
2026-04-10T2000,3398A,114.9134,30.4446,黄冈市,市林业局,颗粒物(PM10),52,52,27,32,18,72,72,94,93,19,6,4,4,0.4,0.2
2026-04-10T2000,2672A,102.02,35.5101,黄南藏族自治州,同仁县隆务镇,,38,25,40,17,18,119,119,120,120,2,4,10,11,0.1,0.2
2026-04-10T2000,2295A,118.2905,29.6965,黄山市,延安路89号,,48,48,18,32,11,47,47,99,93,16,7,5,4,0.9,0.5
2026-04-10T2000,2297A,118.1369,30.2755,黄山市,黄山区政府5号楼,,25,NA,15,17,7,75,75,89,89,7,6,2,2,0.6,0.4
2026-04-10T2000,4210A,118.335445,29.720283,黄山市,滨江东路7-2号,颗粒物(PM10),63,67,30,22,9,30,30,99,87,15,6,/,/,/,/
2026-04-10T2000,2423A,115.0547,30.2332,黄石市,沈家营,颗粒物(PM10),70,78,53,43,27,48,48,61,59,19,12,8,9,0.8,0.5
2026-04-10T2000,2426A,114.899,30.211,黄石市,铁山,颗粒物(PM10),55,56,40,37,25,49,49,74,71,15,18,9,10,1.2,1
2026-04-10T2000,2427A,115.0259,30.2108,黄石市,团城山,细颗粒物(PM2.5),70,68,45,45,28,36,36,54,50,23,11,10,9,1.1,0.7
2026-04-10T2000,3149A,115.0174,30.1591,黄石市,笔架山北路,颗粒物(PM10),83,96,72,45,35,54,54,68,68,17,11,12,9,1.2,0.9
2026-04-10T2000,4185A,115.078022,30.21118,黄石市,磁湖东路29号,颗粒物(PM10),85,98,59,51,28,42,42,67,64,41,18,7,7,1.5,1
2026-04-10T2000,1392A,114.4181,23.0528,惠州市,河南岸金山湖子站,,32,32,31,20,19,38,38,71,66,11,13,6,6,0.5,0.5
2026-04-10T2000,1393A,114.4055,23.0824,惠州市,下埔横江三路子站,,34,34,34,15,17,42,42,72,68,12,13,5,4,0.6,0.6
2026-04-10T2000,1395A,114.4645,22.7832,惠州市,惠阳区承修路船湖子站,,32,32,31,19,17,37,37,58,56,10,10,5,5,0.4,0.4
2026-04-10T2000,1396A,114.5316,22.7423,惠州市,大亚湾管委会子站,,27,27,31,12,14,42,42,53,53,2,9,4,4,0.5,0.5
2026-04-10T2000,3314A,114.4334,22.8134,惠州市,惠阳秋长,,22,22,29,11,16,42,42,62,60,9,13,/,/,/,/
2026-04-10T2000,3452A,114.6521,22.7755,惠州市,大亚湾霞涌,,19,19,20,12,10,48,48,53,53,10,10,/,/,/,/
2026-04-10T2000,4300A,114.4089,23.1147,惠州市,文华一路1号,,41,41,31,23,17,45,45,76,72,12,13,/,/,/,/
2026-04-10T2000,2240A,130.9618,45.2926,鸡西市,环保局,,26,26,53,3,28,75,75,92,87,7,12,7,8,0.2,0.3
2026-04-10T2000,2243A,130.9294,45.2959,鸡西市,第一中学,,23,18,46,8,29,71,71,88,84,10,13,4,5,0.1,0.2
2026-04-10T2000,3707A,131.0069,45.2988,鸡西市,欧美日汽修厂,,23,12,62,6,30,72,72,89,84,4,10,2,4,0.3,0.4
2026-04-10T2000,2367A,114.9753,27.0803,吉安市,红声器材厂,,48,48,44,12,23,108,108,104,97,9,12,5,6,0.8,0.8
2026-04-10T2000,2369A,114.9903,27.1313,吉安市,市环境监测站,,34,10,34,8,24,107,107,106,101,7,7,9,9,/,/
2026-04-10T2000,2370A,115.009527,27.096792,吉安市,青原区法院,,34,30,40,20,24,108,108,106,101,7,8,7,7,0.7,0.8
2026-04-10T2000,1772A,126.54,43.8622,吉林市,哈达湾,,46,42,58,32,40,75,75,80,80,11,21,5,7,0.4,0.6
2026-04-10T2000,1773A,126.5843,43.8358,吉林市,东局子,细颗粒物(PM2.5),62,41,64,41,50,73,73,73,73,12,24,4,5,0.9,0.9
2026-04-10T2000,1774A,126.5051,43.8243,吉林市,电力学院,,49,40,64,34,46,82,82,89,89,11,22,5,7,0.7,0.9
2026-04-10T2000,1775A,126.6133,43.8971,吉林市,江北,细颗粒物(PM2.5),66,47,63,43,45,63,63,61,58,12,14,10,10,0.5,0.6
2026-04-10T2000,1776A,126.5549,43.8304,吉林市,江南公园,,50,41,64,35,44,72,72,80,79,13,28,6,7,0.6,0.7
2026-04-10T2000,2868A,126.4737,43.953,吉林市,九站,细颗粒物(PM2.5),52,42,60,36,42,69,69,66,66,14,18,7,11,0.6,0.7
2026-04-10T2000,1299A,116.9866,36.6118,济南市,科干所,,35,34,61,10,45,111,111,115,115,12,16,7,6,0.5,0.7
2026-04-10T2000,1300A,116.9379,36.6652,济南市,农科所,颗粒物(PM10),58,61,63,16,41,69,69,104,103,34,26,5,6,0.5,0.4
2026-04-10T2000,1301A,117.1265,36.6736,济南市,开发区,,49,49,54,11,32,99,99,114,113,21,17,4,5,0.5,0.6
2026-04-10T2000,1303A,117.0616,36.6865,济南市,省种子仓库,颗粒物(PM10),55,56,68,13,36,91,91,116,114,28,19,7,7,0.6,0.7
2026-04-10T2000,1304A,116.9495185,36.644937,济南市,机床二厂,颗粒物(PM10),58,61,65,16,46,79,79,113,112,43,26,6,5,0.6,0.7
2026-04-10T2000,1305A,117.0496,36.6629,济南市,市监测站,,46,46,59,13,35,81,81,110,108,33,19,4,4,0.7,0.7
2026-04-10T2000,1306A,116.7674,36.5458,济南市,长清党校,,44,44,68,9,37,90,90,112,112,23,22,5,3,0.5,0.7
2026-04-10T2000,1961A,117.5323,36.6865,济南市,东山小学,,39,39,58,3,27,64,64,117,106,31,19,2,3,0.3,0.4
2026-04-10T2000,3059A,117.7181,36.205,济南市,泰兴公司,,48,48,66,12,33,100,100,128,126,26,17,8,9,0.5,0.8
2026-04-10T2000,3064A,117.6861,36.2172,济南市,莱芜战役纪念馆,,48,48,61,9,30,109,109,124,123,16,15,4,6,0.5,0.9
2026-04-10T2000,3494A,117.1673,36.9782,济南市,济阳区政府,颗粒物(PM10),63,68,69,23,53,99,99,104,104,24,27,9,9,0.7,0.7
2026-04-10T2000,3495A,117.1168,36.6299,济南市,锦屏中学,,44,44,42,12,28,86,86,113,110,20,14,4,5,0.3,0.3
2026-04-10T2000,4108A,117.7107,36.2385,济南市,山财大街5号,,46,46,58,12,35,118,118,128,128,16,19,5,5,0.6,0.7
2026-04-10T2000,4109A,116.9744,36.6889,济南市,无影山路12号,颗粒物(PM10),53,53,53,20,47,80,80,106,105,32,24,5,4,0.8,0.8
2026-04-10T2000,1653A,116.6229,35.4288,济宁市,火炬城,,50,50,44,20,32,108,108,116,116,11,12,7,7,0.6,0.7
2026-04-10T2000,3500A,116.5808,35.3703,济宁市,北湖一中,,46,46,46,12,27,103,103,126,126,23,18,6,6,0.4,0.5
2026-04-10T2000,3501A,116.8251,35.5592,济宁市,服务中心,,44,44,40,21,35,94,94,120,118,20,12,1,1,0.6,0.7
2026-04-10T2000,3678A,116.5907,35.4054,济宁市,市第七中学,,50,50,51,16,29,109,109,133,132,25,16,2,2,0.7,0.7
2026-04-10T2000,4111A,116.6075,35.4566,济宁市,任和路,颗粒物(PM10),65,71,60,15,26,101,101,126,125,17,14,5,5,0.5,0.5
2026-04-10T2000,4112A,116.5648,35.3921,济宁市,文体南路1号,颗粒物(PM10),74,83,62,17,27,78,78,123,120,34,18,2,4,0.6,0.6
2026-04-10T2000,4122A,112.6071,35.1015,济源市,市委党校,细颗粒物(PM2.5),123,141,100,85,42,87,87,124,122,25,21,7,8,0.3,0.7
2026-04-10T2000,4123A,112.596,35.0702,济源市,沁园中路1号,颗粒物(PM10),66,72,90,30,42,86,86,123,122,27,24,3,5,0.5,1
2026-04-10T2000,2255A,130.2749,46.8028,佳木斯市,佳纺,,39,39,35,27,14,62,62,81,76,20,13,6,6,0.3,0.3
2026-04-10T2000,2257A,130.3258,46.7975,佳木斯市,环保局,,44,44,31,23,14,52,52,71,66,18,12,5,5,0.4,0.3
2026-04-10T2000,4285A,130.363,46.806,佳木斯市,顺和街,,36,36,28,21,15,61,61,70,70,12,10,2,4,0.4,0.2
2026-04-10T2000,4286A,130.3952,46.8268,佳木斯市,长安路196号,,43,43,34,22,14,65,65,78,75,11,8,7,8,0.4,0.3
2026-04-10T2000,1252A,120.7439,30.778,嘉兴市,清河小学,,46,46,35,17,24,117,117,142,142,29,16,8,7,0.7,0.6
2026-04-10T2000,1253A,120.7261,30.7477,嘉兴市,嘉兴学院,颗粒物(PM10),56,58,38,33,26,105,105,136,136,35,20,6,6,0.8,0.6
2026-04-10T2000,2872A,120.7845,30.7524,嘉兴市,南湖区残联,,45,45,34,25,24,117,117,142,142,30,15,4,4,0.9,0.7
2026-04-10T2000,3407A,120.6915,30.7741,嘉兴市,秀洲住建,,50,50,30,23,23,64,64,142,138,57,14,6,6,0.7,0.5
2026-04-10T2000,1945A,98.291,39.7705,嘉峪关市,气象局,颗粒物(PM10),86,100,67,28,19,111,111,120,120,12,22,7,8,0.6,0.6
2026-04-10T2000,2884A,98.2672,39.7978,嘉峪关市,酒钢宾馆,颗粒物(PM10),86,100,74,26,19,96,96,114,113,26,17,46,19,2.5,0.8
2026-04-10T2000,3248A,98.2644,39.7723,嘉峪关市,雄关区,颗粒物(PM10),88,102,65,22,17,110,110,119,119,12,25,8,8,0.4,0.5
2026-04-10T2000,1383A,113.1063,22.6058,江门市,北街,,22,NA,27,15,13,39,39,58,55,9,11,/,/,/,/
2026-04-10T2000,1384A,113.073,22.5835,江门市,西区,,43,43,28,16,14,38,38,60,57,14,14,/,/,/,/
2026-04-10T2000,1385A,113.0218,22.531,江门市,圭峰西,,25,24,29,17,14,38,38,58,54,13,15,/,/,/,/
2026-04-10T2000,1386A,113.0826,22.5947,江门市,东湖,,33,33,29,18,13,38,38,59,56,11,11,5,6,0.4,0.4
2026-04-10T2000,3311A,113.1077,22.5647,江门市,江海富民,,35,35,37,14,14,40,40,60,57,10,11,/,/,0.3,0.3
2026-04-10T2000,3449A,113.0496,22.4669,江门市,新会银湖,,21,21,25,13,12,40,40,53,50,11,13,6,6,0.3,0.3
2026-04-10T2000,3335A,113.3137,35.2643,焦作市,马村街道办,颗粒物(PM10),70,77,76,25,46,75,75,109,108,24,15,10,9,1.4,0.8
2026-04-10T2000,3336A,113.2464,35.2374,焦作市,焦作技师学院,颗粒物(PM10),58,60,85,29,55,76,76,116,114,26,18,9,8,0.7,1.2
2026-04-10T2000,3477A,113.1656,35.2536,焦作市,中站许衡医院,颗粒物(PM10),78,88,80,29,55,84,84,120,118,32,16,9,13,0.5,0.9
2026-04-10T2000,3981A,113.2456,35.18,焦作市,原李万街道办,颗粒物(PM10),64,69,74,23,54,83,83,109,108,21,16,7,9,0.4,0.6
2026-04-10T2000,4264A,113.234,35.219,焦作市,新安路1731号,颗粒物(PM10),66,72,91,26,62,93,93,125,124,23,22,10,10,0.7,1
2026-04-10T2000,4295A,113.2722,35.2121,焦作市,人民路3066号,颗粒物(PM10),55,56,89,28,54,87,87,118,118,16,13,5,6,0.5,0.8
2026-04-10T2000,1708A,116.3701,23.5345,揭阳市,新兴,,30,30,38,18,19,42,42,64,61,9,16,6,9,0.5,0.6
2026-04-10T2000,1709A,116.3261,23.5442,揭阳市,西马,,49,49,42,21,18,35,35,61,57,18,17,4,7,0.5,0.6
2026-04-10T2000,1710A,116.361,23.5627,揭阳市,东兴,,32,32,37,18,17,43,43,71,66,11,16,2,5,/,/
2026-04-10T2000,1711A,116.4151,23.5295,揭阳市,渔湖,,34,34,42,16,21,52,52,79,75,9,17,7,4,/,/
2026-04-10T2000,3320A,116.4028,23.5699,揭阳市,曲溪,NA,NA,47,39,15,19,NA,NA,82,82,10,16,8,13,0.4,0.5
2026-04-10T2000,1944A,102.1691,38.5166,金昌市,天庆家园,颗粒物(PM10),65,70,76,31,24,111,111,120,120,9,13,21,30,1.3,0.6
2026-04-10T2000,4022A,102.1648,38.5369,金昌市,金川区人防中心,颗粒物(PM10),78,89,86,24,22,107,107,118,118,13,12,5,9,0.4,0.4
2026-04-10T2000,4239A,102.193042,38.531887,金昌市,长春路96号,颗粒物(PM10),72,80,75,34,27,108,108,116,116,6,12,8,24,0.4,0.5
2026-04-10T2000,1262A,119.6478,29.0773,金华市,十五中,颗粒物(PM10),57,59,34,27,18,84,84,128,127,29,17,4,3,0.8,0.7
2026-04-10T2000,1263A,119.6859,29.1032,金华市,监测站,,35,35,31,20,17,60,60,125,121,42,20,4,4,0.7,0.6
2026-04-10T2000,3659A,119.656,29.1132,金华市,气象局,,35,35,32,17,15,32,32,117,107,62,23,3,3,0.6,0.6
2026-04-10T2000,1767A,121.1114,41.0879,锦州市,南山,细颗粒物(PM2.5),94,NA,27,57,26,99,99,109,109,30,15,15,9,1.0,0.6
2026-04-10T2000,1768A,121.060361,40.842794,锦州市,开发区,细颗粒物(PM2.5),118,81,34,79,31,71,71,102,98,47,31,7,7,0.8,0.6
2026-04-10T2000,1769A,121.1836,41.1118,锦州市,百股街道,细颗粒物(PM2.5),96,NA,27,58,27,80,80,109,106,36,15,6,7,0.8,0.5
2026-04-10T2000,1770A,121.1176,41.1224,锦州市,天安街道,细颗粒物(PM2.5),96,NA,26,58,23,97,97,103,103,27,14,9,7,1.1,0.7
2026-04-10T2000,1771A,121.1303,41.1385,锦州市,北湖公园,细颗粒物(PM2.5),84,NA,24,52,25,93,93,106,105,26,12,9,9,0.7,0.4
2026-04-10T2000,2160A,112.8496,35.5051,晋城市,自来水公司,颗粒物(PM10),90,105,82,26,23,127,127,124,124,13,13,6,5,0.6,0.7
2026-04-10T2000,2162A,112.8509,35.4886,晋城市,市环保局,颗粒物(PM10),72,80,75,20,24,124,124,127,127,13,12,7,6,0.4,0.5
2026-04-10T2000,3620A,112.8258,35.4804,晋城市,泽州一中,颗粒物(PM10),68,75,70,16,22,123,123,122,122,30,25,5,4,0.5,0.5
2026-04-10T2000,4078A,112.8246,35.5152,晋城市,前书院路,颗粒物(PM10),60,64,72,21,24,114,114,113,113,15,18,8,6,0.4,0.4
2026-04-10T2000,4079A,112.8864,35.4773,晋城市,祥云街666号,颗粒物(PM10),55,56,71,20,27,126,126,123,123,10,10,8,7,0.5,0.7
2026-04-10T2000,2174A,112.6992,37.6984,晋中市,榆次区政府,NA,NA,53,78,17,19,99,99,115,115,NA,23,5,5,0.3,0.6
2026-04-10T2000,2865A,112.7195,37.683,晋中市,榆次三中,颗粒物(PM10),63,68,80,25,15,105,105,120,120,20,18,6,5,0.4,0.4
2026-04-10T2000,4080A,112.7375,37.7215,晋中市,广安街188号,,50,50,67,14,14,97,97,114,114,24,19,4,4,0.2,0.3
2026-04-10T2000,4200A,112.7478,37.6954,晋中市,迎宾街26号,颗粒物(PM10),56,58,75,16,17,106,106,122,122,19,18,5,4,0.5,0.4
2026-04-10T2000,2439A,112.2012,31.048,荆门市,竹园小学,NA,NA,93,53,50,30,74,74,75,75,23,16,1,4,NA,0.4
2026-04-10T2000,2440A,112.1968,30.9892,荆门市,掇刀,NA,NA,86,61,53,36,NA,NA,77,77,16,17,17,8,0.9,0.8
2026-04-10T2000,3012A,112.1849,31.0361,荆门市,西山林语,颗粒物(PM10),73,81,52,42,27,57,57,70,70,22,13,6,5,0.6,0.6
2026-04-10T2000,3547A,112.1631,31.0134,荆门市,龙泉中学南校,颗粒物(PM10),75,84,55,45,24,77,77,81,81,19,14,5,4,1.0,1
2026-04-10T2000,4124A,112.2213,31.0654,荆门市,新台西路6号,细颗粒物(PM2.5),94,97,49,57,34,74,74,75,75,18,13,8,6,0.6,0.6
2026-04-10T2000,1844A,112.2493,30.3198,荆州市,市图书馆,细颗粒物(PM2.5),76,59,37,48,36,37,37,66,64,40,28,6,5,0.9,0.8
2026-04-10T2000,1845A,112.2009,30.3543,荆州市,市委党校,细颗粒物(PM2.5),88,72,41,54,31,30,30,56,55,32,22,6,6,1.0,0.9
2026-04-10T2000,3194A,112.2749,30.3124,荆州市,管委会,细颗粒物(PM2.5),84,54,40,52,34,37,37,57,56,35,26,6,6,0.9,0.8
2026-04-10T2000,4268A,112.1722,30.3366,荆州市,学苑路85号,细颗粒物(PM2.5),74,54,32,47,29,39,39,75,73,22,15,3,2,0.8,0.8
2026-04-10T2000,2343A,117.2114,29.2931,景德镇市,老干部活动中心,细颗粒物(PM2.5),58,NA,27,39,19,62,62,117,104,12,8,4,5,0.6,0.6
2026-04-10T2000,2344A,117.1893,29.2789,景德镇市,兽医站,,43,42,26,30,16,64,64,108,105,14,10,4,4,0.8,0.7
2026-04-10T2000,2346A,117.246,29.2958,景德镇市,陶研所,,41,41,16,28,13,44,44,107,99,18,10,3,4,0.6,0.5
2026-04-10T2000,4289A,117.154766,29.256967,景德镇市,青少年活动中心,,47,47,21,32,17,57,57,100,97,16,16,5,12,/,/
2026-04-10T2000,1803A,115.9873,29.6816,九江市,十里,"颗粒物(PM10),细颗粒物(PM2.5)",52,52,41,36,27,84,84,78,78,21,28,9,8,1.2,0.9
2026-04-10T2000,1804A,115.9583,29.7047,九江市,茅山头,NA,NA,56,32,NA,32,87,87,90,90,18,23,3,4,1.0,0.6
2026-04-10T2000,1805A,115.9877,29.7295,九江市,西园,,47,47,34,29,26,86,86,89,89,28,40,5,4,0.9,0.6
2026-04-10T2000,1808A,115.9112,29.6038,九江市,综合工业园,,44,44,35,25,24,47,47,73,69,37,36,9,8,0.6,0.4
2026-04-10T2000,3190A,116.0254,29.6995,九江市,外国语学校,,50,37,29,35,28,66,66,71,71,30,30,8,8,1.1,0.8
2026-04-10T2000,4253A,116.010205,29.659402,九江市,莲花大道8号,,42,36,27,29,20,83,83,71,71,10,15,7,5,1.1,0.6
2026-04-10T2000,4240A,98.495752,39.733935,酒泉市,玉门东路5号,颗粒物(PM10),96,114,77,34,22,95,95,104,104,9,18,7,7,0.3,0.3
2026-04-10T2000,4241A,98.5099,39.7506,酒泉市,北大街108号,颗粒物(PM10),100,119,72,45,28,85,85,96,96,13,18,9,9,0.3,0.3
2026-04-10T2000,2698A,76.0071,39.466,喀什地区,巡警大队,颗粒物(PM10),102,124,223,23,63,114,114,114,114,4,8,3,3,0.2,0.2
2026-04-10T2000,2699A,75.9756,39.4693,喀什地区,吾办,颗粒物(PM10),80,91,218,24,56,108,108,112,112,3,5,2,4,0.2,0.3
2026-04-10T2000,4027A,75.9485,39.4688,喀什地区,老干局,颗粒物(PM10),83,96,230,13,68,112,112,116,116,4,4,2,2,0.1,0.1
2026-04-10T2000,1824A,114.3389,34.778,开封市,肿瘤医院,颗粒物(PM10),60,64,61,32,48,96,96,129,125,31,20,6,7,0.6,0.8
2026-04-10T2000,1826A,114.2884,34.7966,开封市,世纪星幼儿园,颗粒物(PM10),60,63,60,27,48,98,98,122,119,28,21,7,7,0.5,0.7
2026-04-10T2000,3147A,114.3434,34.8101,开封市,龙亭公园,颗粒物(PM10),61,65,66,31,48,99,99,127,124,29,21,9,8,0.8,1.1
2026-04-10T2000,3210A,114.3645,34.7955,开封市,汴京公园,颗粒物(PM10),71,79,73,33,49,82,82,122,117,35,19,6,5,1.0,1.1
2026-04-10T2000,3473A,114.2485,34.8306,开封市,技师学院,,43,43,49,26,43,109,109,121,121,19,19,9,10,0.4,0.7
2026-04-10T2000,3592A,114.4518,34.7503,开封市,祥符区生态环境局,细颗粒物(PM2.5),64,51,56,42,56,68,68,116,114,51,27,7,9,0.7,0.8
2026-04-10T2000,1951A,84.886,45.6029,克拉玛依市,长征新村,,28,17,32,3,11,89,89,92,89,1,2,7,6,0.3,0.3
2026-04-10T2000,1952A,84.8894,45.5827,克拉玛依市,南林小区,,30,16,31,3,8,95,95,98,95,1,2,3,3,0.6,0.4
2026-04-10T2000,1954A,84.896,44.3328,克拉玛依市,独山子区,颗粒物(PM10),300,420,253,31,37,82,82,90,86,6,6,5,5,0.3,0.4
2026-04-10T2000,1955A,85.6888,46.0909,克拉玛依市,乌尔禾区商贸楼,,37,37,75,7,19,83,83,77,77,7,7,2,3,0.3,0.3
2026-04-10T2000,3612A,85.1045,45.6895,克拉玛依市,白碱滩区新站,,32,20,56,3,10,100,100,100,100,2,2,7,8,0.1,0.1
2026-04-10T2000,2697A,76.1457,39.7143,克孜勒苏柯尔克孜自治州,市人民政府,颗粒物(PM10),73,81,168,14,32,121,121,116,116,3,6,4,5,0.1,0.1
2026-04-10T2000,3665A,76.1654,39.7157,克孜勒苏柯尔克孜自治州,克州文化中心,颗粒物(PM10),65,71,190,23,35,119,119,133,116,2,5,8,9,0.2,0.2
2026-04-10T2000,1450A,102.8203,24.889,昆明市,呈贡新区,,38,25,29,11,17,120,120,117,117,7,9,3,4,0.5,0.6
2026-04-10T2000,1452A,102.7253,25.0904,昆明市,龙泉镇,,32,32,28,12,15,97,97,103,102,28,11,5,5,0.4,0.4
2026-04-10T2000,1453A,102.7267,25.0378,昆明市,东风东路,,35,21,28,14,17,110,110,111,111,14,13,2,5,0.4,0.5
2026-04-10T2000,1454A,102.6744,25.0671,昆明市,金鼎山,,34,27,28,15,15,106,106,107,107,14,10,2,4,0.4,0.5
2026-04-10T2000,1455A,102.6643,25.0401,昆明市,碧鸡广场,,35,19,29,14,18,112,112,106,106,8,13,4,7,0.4,0.5
2026-04-10T2000,3179A,102.7491,25.012,昆明市,官渡区博物馆,,36,23,28,13,17,113,113,110,110,9,10,3,5,0.4,0.5
2026-04-10T2000,3375A,102.8016,24.8336,昆明市,青年创业园,,38,14,28,10,16,121,121,116,116,3,5,4,5,0.4,0.4
2026-04-10T2000,3550A,102.8,24.9787,昆明市,昆明学院,,36,21,29,10,15,115,115,107,107,7,8,4,6,0.5,0.5
2026-04-10T2000,3551A,102.5969,24.6738,昆明市,晋宁区生态环境分局,,37,20,23,18,20,118,118,113,113,4,5,4,2,0.4,0.4
2026-04-10T2000,3552A,102.6673,24.9861,昆明市,云天化总部,,38,19,30,12,15,120,120,116,116,8,10,4,6,0.4,0.4
2026-04-10T2000,1456A,91.132,29.6515,拉萨市,八廓街,臭氧1小时(O3_1h),100,11,12,6,6,200,200,186,186,9,5,5,4,0.2,0.2
2026-04-10T2000,1457A,91.1221,29.6748,拉萨市,市环保局,臭氧1小时(O3_1h),95,6,11,6,6,196,196,180,180,6,8,5,5,0.3,0.3
2026-04-10T2000,1458A,91.0874,29.6476,拉萨市,区监测站,臭氧1小时(O3_1h),78,7,8,7,7,182,182,178,178,14,9,5,5,0.2,0.2
2026-04-10T2000,1459A,91.1774,29.6541,拉萨市,西藏大学,臭氧1小时(O3_1h),92,13,10,6,6,193,193,179,179,10,10,4,4,0.2,0.2
2026-04-10T2000,1460A,90.9798,29.6586,拉萨市,区辐射站,臭氧1小时(O3_1h),74,9,13,7,6,179,179,166,166,14,10,5,4,0.3,0.3
2026-04-10T2000,1461A,91.0831,29.6292,拉萨市,拉萨火车站,臭氧1小时(O3_1h),90,9,9,6,5,192,192,183,183,13,6,4,4,0.2,0.2
2026-04-10T2000,2520A,109.2203,23.7252,来宾市,来宾技工学校,细颗粒物(PM2.5),70,72,60,45,38,113,113,132,132,5,3,5,7,0.8,0.7
2026-04-10T2000,3535A,109.1781,23.7293,来宾市,兴宾区政府,细颗粒物(PM2.5),68,72,62,44,36,123,123,150,149,11,8,8,8,0.7,0.8
2026-04-10T2000,4002A,109.2312,23.7428,来宾市,中南小学,颗粒物(PM10),73,82,61,45,39,119,119,146,145,12,8,7,7,0.8,0.7
2026-04-10T2000,1479A,103.8309,36.0467,兰州市,铁路设计院,颗粒物(PM10),68,75,77,33,29,86,86,96,96,30,42,3,10,0.3,0.7
2026-04-10T2000,3241A,103.7439,36.0841,兰州市,百合公园,颗粒物(PM10),72,80,82,25,25,94,94,108,108,23,36,5,7,0.8,1
2026-04-10T2000,3242A,103.9613,35.9985,兰州市,和平,颗粒物(PM10),73,81,66,25,19,100,100,115,115,15,16,5,8,0.3,0.5
2026-04-10T2000,4236A,103.629272,36.093822,兰州市,庄浪东路808号,颗粒物(PM10),89,104,75,27,22,84,84,110,109,34,21,6,11,0.5,0.4
2026-04-10T2000,4237A,103.7251,36.104344,兰州市,安宁西路88号,颗粒物(PM10),76,86,75,27,20,114,114,123,123,12,23,8,12,0.3,0.4
2026-04-10T2000,4238A,103.846982,36.067567,兰州市,北滨河东路1号,颗粒物(PM10),72,80,66,30,25,94,94,108,108,26,36,8,12,0.5,0.7
2026-04-10T2000,1067A,116.6712,39.5109,廊坊市,药材公司,颗粒物(PM10),61,65,53,21,40,88,88,105,105,23,15,2,1,0.4,0.5
2026-04-10T2000,1068A,116.7215,39.5592,廊坊市,开发区,,50,50,55,22,43,95,95,113,113,22,10,1,2,0.2,0.4
2026-04-10T2000,1070A,116.7246,39.5273,廊坊市,北华航天学院,,49,49,47,14,37,103,103,114,114,19,14,4,2,0.3,0.4
2026-04-10T2000,2919A,116.7022,39.5454,廊坊市,河北工业大学,颗粒物(PM10),51,51,40,23,41,103,103,114,114,18,11,3,2,0.3,0.4
2026-04-10T2000,2536A,103.7629,29.5844,乐山市,牛耳桥,颗粒物(PM10),52,52,35,26,17,54,54,102,91,38,25,7,8,0.5,0.4
2026-04-10T2000,2537A,103.7501,29.6002,乐山市,市第三水厂,,40,40,32,19,14,63,63,97,89,30,23,4,5,0.5,0.4
2026-04-10T2000,2538A,103.7571,29.5664,乐山市,市监测站,,46,46,33,21,14,53,53,101,95,38,19,4,5,0.6,0.5
2026-04-10T2000,3361A,103.7313,29.563,乐山市,理工大学,,49,49,35,23,16,69,69,107,100,28,19,4,5,0.5,0.5
2026-04-10T2000,2599A,100.2497,26.8802,丽江市,丽江古城,,33,28,23,16,12,104,104,117,114,8,8,8,8,0.5,0.4
2026-04-10T2000,2600A,100.2203,26.8906,丽江市,市中心,,32,17,14,14,11,102,102,118,114,10,10,7,8,0.4,0.4
2026-04-10T2000,1267A,119.9141,28.4513,丽水市,监测站大楼,,40,33,35,17,17,126,126,135,135,12,15,5,5,0.6,0.6
2026-04-10T2000,1268A,119.93,28.4589,丽水市,莲都小学,,40,26,30,14,15,128,128,132,132,12,17,/,/,/,/
2026-04-10T2000,1269A,119.8794,28.4232,丽水市,余庄前,,26,26,27,14,16,49,49,111,104,10,15,5,5,0.6,0.6
2026-04-10T2000,1173A,119.1759,34.5885,连云港市,市环境监测站,颗粒物(PM10),62,66,59,34,45,102,102,140,140,34,28,10,11,0.7,0.7
2026-04-10T2000,3000A,119.3577,34.6971,连云港市,德源药业,颗粒物(PM10),90,105,64,44,42,62,62,138,133,57,26,6,8,0.4,0.5
2026-04-10T2000,3007A,119.178,34.8442,连云港市,新城一中,颗粒物(PM10),65,70,64,38,42,108,108,140,139,26,19,6,6,0.6,0.7
2026-04-10T2000,3008A,119.3607,34.7519,连云港市,胡沟管理处,颗粒物(PM10),60,63,56,29,40,71,71,140,135,74,22,11,14,0.4,0.7
2026-04-10T2000,3009A,119.1478,34.5913,连云港市,矿山设计院,颗粒物(PM10),63,68,63,31,41,95,95,136,135,34,26,9,11,0.7,0.7
2026-04-10T2000,3434A,119.2414,34.6539,连云港市,工贸学校,,50,50,54,27,44,124,124,151,151,14,17,10,14,0.5,0.6
2026-04-10T2000,3664A,119.4171,34.734,连云港市,连云街道,,50,50,54,26,34,140,140,133,133,9,18,4,5,0.5,0.6
2026-04-10T2000,2573A,102.2629,27.8981,凉山彝族自治州,西昌市政府,,37,23,22,9,12,117,117,125,125,7,7,6,8,0.5,0.5
2026-04-10T2000,2574A,102.2686,27.885,凉山彝族自治州,凉山州政府,,33,18,27,7,9,103,103,109,109,8,6,6,8,0.6,0.3
2026-04-10T2000,4229A,102.2342,27.8859,凉山彝族自治州,凯乐南路30号,,34,21,27,3,9,106,106,114,114,9,10,1,9,0.3,0.6
2026-04-10T2000,2212A,123.1978,41.2036,辽阳市,宏伟区,,37,37,55,18,50,82,82,86,86,14,21,6,6,0.7,1
2026-04-10T2000,2213A,123.1684,41.2497,辽阳市,新华园,细颗粒物(PM2.5),52,49,56,36,49,63,63,86,83,34,27,7,9,0.7,0.8
2026-04-10T2000,2214A,123.2355,41.2663,辽阳市,滨河路,,39,38,53,27,53,60,60,86,81,31,26,6,7,0.8,0.8
2026-04-10T2000,4083A,123.153,41.2874,辽阳市,铁西路150号,,43,40,52,30,46,70,70,80,80,26,24,7,8,0.7,0.7
2026-04-10T2000,2227A,125.1359,42.8845,辽源市,环保局,,30,28,46,21,40,78,78,87,84,9,13,6,7,0.1,0.5
2026-04-10T2000,4085A,125.0998,42.9134,辽源市,安宁大街333号,,35,35,53,20,41,86,86,94,92,10,11,4,5,0.4,0.5
2026-04-10T2000,1625A,115.9789,36.4372,聊城市,区政府,颗粒物(PM10),57,59,52,16,27,106,106,120,120,13,13,7,6,0.7,0.8
2026-04-10T2000,3200A,115.9772,36.4986,聊城市,监控中心,颗粒物(PM10),60,64,60,19,27,115,115,126,126,17,22,7,7,0.5,0.6
2026-04-10T2000,3513A,116.0443,36.436,聊城市,九州社区,颗粒物(PM10),66,72,62,18,26,107,107,127,127,21,17,7,6,0.5,0.6
2026-04-10T2000,4018A,116.0564,36.4609,聊城市,星美广场,颗粒物(PM10),62,66,63,18,30,102,102,113,113,17,17,8,6,0.6,0.8
2026-04-10T2000,4113A,116.0091,36.4495,聊城市,利民路,颗粒物(PM10),53,53,46,19,30,115,115,126,126,16,17,7,7,0.6,0.6
2026-04-10T2000,2632A,94.3683,29.6373,林芝市,林芝监测站,,35,12,7,3,4,112,112,118,118,6,4,4,5,0.4,0.4
2026-04-10T2000,2633A,94.3616,29.6634,林芝市,林芝人民医院,NA,NA,2,8,NA,4,125,125,129,129,1,3,5,5,0.3,0.4
2026-04-10T2000,2603A,100.0779,23.8981,临沧市,市环保局,,40,40,31,23,26,98,98,107,107,7,8,10,10,0.4,0.5
2026-04-10T2000,2604A,100.0894,23.882,临沧市,市气象局,,35,24,32,20,30,111,111,108,108,5,8,9,10,0.3,0.4
2026-04-10T2000,1733A,111.5552,36.0791,临汾市,临钢医院,颗粒物(PM10),100,120,90,33,39,102,102,124,124,29,18,10,8,1.0,1.1
2026-04-10T2000,1734A,111.4984,36.0734,临汾市,技工学校,颗粒物(PM10),90,105,90,40,54,92,92,119,119,28,21,12,10,0.7,0.9
2026-04-10T2000,1736A,111.5017,36.0857,临汾市,市委,颗粒物(PM10),90,106,98,28,43,96,96,122,122,28,20,11,9,0.8,1
2026-04-10T2000,3018A,111.5048,36.1015,临汾市,唐尧大酒店,颗粒物(PM10),91,107,107,29,43,100,100,122,122,26,21,11,10,0.6,0.9
2026-04-10T2000,4244A,111.4879,36.053,临汾市,启星学校,颗粒物(PM10),88,102,87,36,45,89,89,114,114,31,26,12,9,0.7,1
2026-04-10T2000,4271A,103.2464,35.6123,临夏回族自治州,滨河东路1号,颗粒物(PM10),63,68,101,28,36,78,78,97,97,17,31,11,11,0.3,0.5
2026-04-10T2000,4310A,103.207136,35.599807,临夏回族自治州,新华街21号,NA,NA,67,77,26,30,81,81,89,89,10,14,8,8,NA,0.2
2026-04-10T2000,1618A,118.3429,35.0532,临沂市,沂河小区,颗粒物(PM10),67,73,59,22,28,86,86,127,124,40,20,10,10,0.6,0.5
2026-04-10T2000,1619A,118.2962,35.0568,临沂市,鲁南制药厂,颗粒物(PM10),86,100,56,20,29,67,67,130,123,65,26,12,12,0.4,0.4
2026-04-10T2000,1620A,118.2793,34.9976,临沂市,新光毛纺厂,颗粒物(PM10),58,61,50,20,28,92,92,124,120,31,21,10,9,0.4,0.4
2026-04-10T2000,1621A,118.3955,35.0889,临沂市,河东保险公司,颗粒物(PM10),55,56,52,22,30,105,105,137,136,31,17,12,12,0.5,0.4
2026-04-10T2000,3370A,118.3563,35.0215,临沂市,十里堡居委,颗粒物(PM10),84,97,49,46,29,77,77,137,130,55,25,10,9,0.8,0.6
2026-04-10T2000,3496A,118.359,35.1067,临沂市,南坊新区,颗粒物(PM10),67,73,62,25,36,96,96,130,128,34,23,17,12,0.6,0.5
2026-04-10T2000,3860A,118.3915,35.0297,临沂市,皇山花园小区,颗粒物(PM10),55,56,50,18,29,98,98,137,134,41,24,8,9,0.5,0.6
2026-04-10T2000,1870A,109.4854,24.3898,柳州市,柳东小学,细颗粒物(PM2.5),78,75,59,49,41,132,132,150,150,9,8,5,5,0.9,0.8
2026-04-10T2000,1871A,109.4109,24.3304,柳州市,环保监测站,细颗粒物(PM2.5),96,81,66,58,42,125,125,140,140,17,14,6,6,0.8,0.8
2026-04-10T2000,1872A,109.3886,24.3408,柳州市,河西水厂,细颗粒物(PM2.5),96,97,70,58,43,132,132,155,152,10,10,7,7,0.9,0.9
2026-04-10T2000,1873A,109.4263,24.2951,柳州市,市四中,细颗粒物(PM2.5),103,83,70,63,45,123,123,141,141,12,10,8,7,0.8,0.8
2026-04-10T2000,1874A,109.396,24.3658,柳州市,市九中,细颗粒物(PM2.5),90,95,76,55,42,120,120,138,138,9,8,9,8,0.8,0.7
2026-04-10T2000,1875A,109.4912,24.3164,柳州市,古亭山,细颗粒物(PM2.5),82,79,62,51,41,131,131,150,150,10,10,6,5,0.7,0.7
2026-04-10T2000,3402A,109.5422,24.3994,柳州市,市二中,细颗粒物(PM2.5),74,71,61,47,40,116,116,135,135,10,8,9,8,0.9,0.8
2026-04-10T2000,2307A,116.5078,31.7369,六安市,监测大楼,,38,38,14,26,13,75,75,93,93,13,9,4,4,0.4,0.4
2026-04-10T2000,2308A,116.4738,31.7642,六安市,皖西学院,,38,38,17,21,12,83,83,93,93,9,7,5,4,0.4,0.4
2026-04-10T2000,2309A,116.4997,31.7904,六安市,朝阳厂,,35,35,10,22,12,75,75,88,88,13,11,6,6,0.4,0.4
2026-04-10T2000,2310A,116.5566,31.7885,六安市,开发区,,38,NA,7,26,14,86,86,93,93,15,16,5,5,0.5,0.5
2026-04-10T2000,2577A,104.8293,26.592,六盘水市,黄土坡,,38,27,26,10,12,121,121,122,122,7,12,7,6,0.2,0.3
2026-04-10T2000,2579A,104.8481,26.5898,六盘水市,民中,,36,23,23,11,11,114,114,115,115,6,11,4,5,0.3,0.3
2026-04-10T2000,2580A,104.9541,26.5506,六盘水市,双水,,37,12,20,11,11,118,118,118,118,7,9,4,4,0.3,0.3
2026-04-10T2000,4151A,104.8899,26.5685,六盘水市,钟山大道中段564号,,36,27,32,12,13,113,113,114,114,5,7,2,2,0.4,0.3
2026-04-10T2000,2336A,117.022,25.1031,龙岩市,龙岩市监测站,,35,NA,28,24,21,70,70,83,82,11,4,7,6,0.6,0.4
2026-04-10T2000,2337A,117.0257,25.0662,龙岩市,闽西职业技术学院,,36,36,27,23,19,48,48,80,77,17,3,5,5,0.7,0.5
2026-04-10T2000,2338A,117.0195,25.0306,龙岩市,龙岩学院,,29,NA,29,20,18,66,66,82,81,4,3,3,3,/,/
2026-04-10T2000,2885A,104.9344,33.3827,陇南市,滨江中学,颗粒物(PM10),53,54,68,18,29,65,65,64,64,18,26,8,9,0.6,0.7
2026-04-10T2000,3247A,104.9551,33.3709,陇南市,市总工会,颗粒物(PM10),53,53,55,19,22,60,60,65,65,14,15,8,8,0.6,0.5
2026-04-10T2000,2488A,111.9984,27.7346,娄底市,市监测站,,33,26,28,23,23,58,58,69,69,8,8,3,3,0.7,0.7
2026-04-10T2000,2491A,111.9888,27.7035,娄底市,市政府,,42,NA,26,29,25,67,67,77,77,6,5,2,3,0.4,0.5
2026-04-10T2000,4127A,111.9812,27.7591,娄底市,涟钢职大,,33,23,28,23,22,71,71,82,82,9,9,3,3,0.5,0.5
2026-04-10T2000,4128A,112.0303,27.7457,娄底市,娄底体校,,33,28,31,23,23,60,60,70,70,2,2,3,3,0.6,0.7
2026-04-10T2000,1894A,105.4427,28.9063,泸州市,小市上码头,,29,16,39,13,32,92,92,123,119,7,25,8,8,0.6,0.8
2026-04-10T2000,1895A,105.4241,28.8573,泸州市,兰田宪桥,,29,18,45,9,27,90,90,124,120,10,18,6,7,0.8,0.9
2026-04-10T2000,1896A,105.4378,28.8833,泸州市,市环监站,,27,22,52,11,33,84,84,127,116,15,16,7,9,0.6,0.8
2026-04-10T2000,4272A,105.3689,28.7783,泸州市,纳溪中医医院,,31,31,48,9,31,94,94,133,129,8,19,7,9,0.6,0.8
2026-04-10T2000,2183A,111.1447,37.5212,吕梁市,环保局,,44,44,79,16,16,47,47,116,110,66,24,8,8,0.3,0.2
2026-04-10T2000,2185A,111.1285,37.5338,吕梁市,自来水公司,,41,41,90,17,19,76,76,114,113,36,27,7,8,0.5,0.4
2026-04-10T2000,2867A,111.1225,37.5093,吕梁市,马茂庄小学,颗粒物(PM10),59,62,82,16,12,47,47,113,109,64,23,8,5,0.4,0.3
2026-04-10T2000,1812A,112.3934,34.6517,洛阳市,市委党校,颗粒物(PM10),71,79,83,45,43,59,59,122,116,53,23,8,8,1.0,0.8
2026-04-10T2000,1815A,112.494,34.6883,洛阳市,河南林校,颗粒物(PM10),63,67,89,28,42,64,64,123,117,38,33,10,11,0.6,0.8
2026-04-10T2000,1816A,112.3843,34.623,洛阳市,开发区管委会,颗粒物(PM10),67,73,76,34,36,87,87,122,118,28,21,12,12,0.7,0.7
2026-04-10T2000,1817A,112.4263,34.6249,洛阳市,市委新办公区,颗粒物(PM10),65,71,76,35,42,76,76,125,120,35,23,10,9,0.6,0.6
2026-04-10T2000,3340A,112.6005,34.6323,洛阳市,伊滨,颗粒物(PM10),58,60,62,32,32,57,57,115,108,44,22,8,9,0.6,0.7
2026-04-10T2000,3341A,112.495,34.6338,洛阳市,中移产业园,颗粒物(PM10),63,68,78,24,36,71,71,120,115,43,26,10,11,0.6,0.7
2026-04-10T2000,3593A,112.5736,34.8993,洛阳市,吉利监测站,颗粒物(PM10),55,57,68,36,36,38,38,119,111,59,23,8,10,0.7,0.4
2026-04-10T2000,3635A,112.3678,34.6623,洛阳市,河科大西苑校区,颗粒物(PM10),71,79,84,34,39,74,74,128,122,48,28,8,10,0.7,0.7
2026-04-10T2000,3636A,112.4387,34.678,洛阳市,英才小学,颗粒物(PM10),62,66,98,24,45,53,53,122,116,70,48,10,12,0.9,0.9
2026-04-10T2000,4214A,112.460027,34.694929,洛阳市,春都路1号院,颗粒物(PM10),65,70,94,30,41,77,77,137,131,31,33,7,10,0.8,0.9
2026-04-10T2000,2399A,114.051,33.5721,漯河市,三五一五工厂,颗粒物(PM10),80,92,59,40,41,97,97,124,124,25,17,5,5,0.4,0.5
2026-04-10T2000,2400A,114.0055,33.5698,漯河市,漯河大学,NA,NA,90,62,43,48,NA,NA,131,131,25,18,6,6,0.6,0.6
2026-04-10T2000,2401A,114.0134,33.5826,漯河市,市水利局,颗粒物(PM10),78,88,62,39,43,107,107,124,124,17,14,4,4,0.6,0.7
2026-04-10T2000,2402A,114.0261,33.5697,漯河市,市广电局,颗粒物(PM10),73,81,66,32,42,111,111,129,129,16,12,5,5,0.6,0.7
2026-04-10T2000,3478A,113.9691,33.568,漯河市,市图书馆,颗粒物(PM10),79,90,64,37,38,104,104,124,124,21,15,6,6,0.4,0.5
2026-04-10T2000,4250A,114.089259,33.588274,漯河市,韶山路11号,颗粒物(PM10),78,89,68,29,40,89,89,116,115,28,15,6,6,0.8,0.7
2026-04-10T2000,1798A,118.5084,31.6838,马鞍山市,湖东路四小,颗粒物(PM10),51,51,52,18,34,63,63,106,104,39,30,9,18,0.7,1.4
2026-04-10T2000,1799A,118.5019,31.6449,马鞍山市,开发区,颗粒物(PM10),55,56,43,11,26,79,79,117,117,34,28,7,8,0.7,0.8
2026-04-10T2000,3633A,118.4914,31.681,马鞍山市,雨山,颗粒物(PM10),58,60,46,14,19,77,77,107,107,31,32,9,19,0.8,1.6
2026-04-10T2000,4191A,118.527362,31.722269,马鞍山市,慈湖高新区,,32,32,48,14,33,77,77,115,112,32,28,8,14,0.5,0.8
2026-04-10T2000,1686A,111.0285,21.469,茂名市,电白南海,,31,31,31,12,13,38,38,48,47,5,5,5,5,0.9,0.9
2026-04-10T2000,1687A,110.9294,21.6533,茂名市,茂石化七小,,36,36,34,18,15,40,40,56,54,8,9,5,6,0.6,0.6
2026-04-10T2000,1688A,110.9108,21.6688,茂名市,健康路,,29,29,26,16,14,42,42,58,56,7,7,4,4,0.6,0.6
2026-04-10T2000,1689A,110.8592,21.6826,茂名市,高岭,,36,36,39,16,15,46,46,64,62,7,8,3,4,/,/
2026-04-10T2000,3450A,111.0101,21.5165,茂名市,电白水东,,19,19,23,12,14,40,40,47,46,6,7,2,2,/,/
2026-04-10T2000,2540A,103.8414,30.0871,眉山市,气象局,颗粒物(PM10),64,69,46,23,20,47,47,77,73,34,26,9,10,0.8,0.7
2026-04-10T2000,3148A,103.829,30.0563,眉山市,区人社局,,50,50,48,23,17,49,49,75,69,40,31,7,9,0.6,0.5
2026-04-10T2000,4148A,103.8836,30.0695,眉山市,眉职院,,44,44,40,15,15,42,42,77,71,33,26,8,11,0.8,0.8
2026-04-10T2000,1690A,116.1248,24.3307,梅州市,梅江月梅,,46,35,27,32,17,62,62,73,73,9,8,/,/,/,/
2026-04-10T2000,1691A,116.0798,24.2719,梅州市,梅县新城,,38,31,26,26,18,62,62,74,74,8,6,8,8,0.4,0.4
2026-04-10T2000,3315A,116.1234,24.2994,梅州市,梅龙,,34,34,26,23,17,64,64,79,78,11,9,7,6,0.5,0.5
2026-04-10T2000,1878A,104.7775,31.4741,绵阳市,富乐山,,40,40,41,21,22,80,80,80,80,6,18,6,6,0.6,0.7
2026-04-10T2000,1880A,104.6698,31.4668,绵阳市,高新区自来水公司,,35,35,56,15,23,86,86,83,83,8,33,5,6,0.6,0.7
2026-04-10T2000,3491A,104.6899,31.5324,绵阳市,西科大附属小学,,26,NA,39,17,23,81,81,83,83,12,30,6,6,0.4,0.6
2026-04-10T2000,3492A,104.5647,31.5343,绵阳市,安州区旅游局,颗粒物(PM10),55,56,51,17,20,79,79,82,82,10,16,7,5,0.4,0.5
2026-04-10T2000,4146A,104.7092,31.4972,绵阳市,科技城新区公安局,,48,48,59,14,23,79,79,77,77,9,29,6,6,0.5,0.7
2026-04-10T2000,4226A,104.765114,31.453094,绵阳市,绵阳市气象局,,37,37,54,14,24,74,74,69,69,10,36,8,9,0.4,0.7
2026-04-10T2000,1784A,129.61,44.561,牡丹江市,环保大楼,细颗粒物(PM2.5),54,49,53,37,32,54,54,70,65,25,21,4,5,0.5,0.5
2026-04-10T2000,1787A,129.6364,44.6075,牡丹江市,机车工厂,,46,46,65,27,37,57,57,59,59,13,23,11,27,0.6,0.6
2026-04-10T2000,1788A,129.6386,44.5462,牡丹江市,第一中学,细颗粒物(PM2.5),60,NA,46,40,30,43,43,69,62,29,16,6,4,0.6,0.5
2026-04-10T2000,4287A,129.5992,44.5964,牡丹江市,东晓云街98号,,50,45,61,35,30,61,61,67,66,13,14,3,5,0.6,0.6
2026-04-10T2000,2531A,105.0703,29.61,内江市,市监测站,,40,40,37,19,22,86,86,86,86,8,18,8,9,0.4,0.5
2026-04-10T2000,2533A,105.0657,29.5807,内江市,内江二中,颗粒物(PM10),75,85,56,16,22,91,91,99,98,8,26,8,8,0.2,0.4
2026-04-10T2000,2534A,105.0407,29.5828,内江市,内江日报社,,49,49,36,18,21,98,98,110,108,7,25,8,9,0.3,0.4
2026-04-10T2000,4147A,105.0433,29.6105,内江市,玉峰路西段888号,NA,NA,36,36,19,22,NA,NA,107,107,10,21,7,8,0.3,0.4
2026-04-10T2000,2628A,92.0653,31.4846,那曲市,那曲监测站,,50,27,28,20,22,159,159,157,157,19,20,6,5,0.7,0.9
2026-04-10T2000,4243A,92.0515,31.4787,那曲市,那曲市委宣传部,臭氧1小时(O3_1h),59,12,12,8,11,167,167,158,158,6,8,9,10,0.4,0.6
2026-04-10T2000,1291A,115.8887,28.7006,南昌市,省林业公司,,30,24,14,21,16,58,58,107,95,14,9,4,4,0.4,0.3
2026-04-10T2000,1292A,115.813,28.7443,南昌市,林科所,NA,NA,NA,15,16,15,72,72,96,83,12,10,7,7,0.8,0.7
2026-04-10T2000,1294A,115.8518,28.687,南昌市,建工学校,,38,38,17,21,16,69,69,110,98,12,10,9,9,0.8,0.8
2026-04-10T2000,1295A,115.8926,28.6425,南昌市,象湖,NA,NA,NA,12,NA,18,NA,NA,122,114,10,5,8,8,0.8,0.8
2026-04-10T2000,3046A,115.9084,28.6062,南昌市,机电学校,,45,NA,23,31,18,81,81,129,112,9,5,4,5,0.7,0.6
2026-04-10T2000,3690A,115.9718,28.7032,南昌市,外国语学校,,32,24,17,22,17,72,72,107,99,12,9,8,8,0.6,0.5
2026-04-10T2000,4106A,115.7923,28.6873,南昌市,工业二路,,36,31,23,25,17,71,71,114,98,13,11,5,5,0.7,0.6
2026-04-10T2000,4192A,115.931587,28.686774,南昌市,南京东路235号,,33,NA,16,23,17,71,71,117,105,7,5,5,5,0.3,0.4
2026-04-10T2000,1906A,106.0791,30.8022,南充市,南充市委,,28,28,39,15,22,88,88,63,63,13,24,7,7,0.3,0.4
2026-04-10T2000,1907A,106.1038,30.8215,南充市,南充炼油厂,,29,23,41,13,21,91,91,64,64,9,16,5,5,0.2,0.3
2026-04-10T2000,4227A,106.108336,30.788436,南充市,梨树横街98号,,30,24,36,12,23,96,96,65,65,9,19,6,6,0.2,0.3
2026-04-10T2000,4304A,106.1172,30.843,南充市,清泉寺北路188号,,31,21,42,12,21,99,99,67,67,6,11,7,6,0.2,0.3
2026-04-10T2000,4305A,106.067,30.7616,南充市,同庆路1号,,30,30,41,14,21,92,92,65,65,14,26,6,6,0.3,0.4
2026-04-10T2000,1151A,118.8033,32.1085,南京市,迈皋桥,颗粒物(PM10),58,60,48,27,30,86,86,138,136,32,27,6,8,1.2,1.4
2026-04-10T2000,1152A,118.7487,32.057,南京市,草场门,颗粒物(PM10),75,85,49,28,27,116,116,141,140,32,30,11,9,0.7,0.6
2026-04-10T2000,1154A,118.770105,32.004342,南京市,中华门,颗粒物(PM10),74,83,48,26,25,103,103,144,141,33,23,6,5,1.1,0.8
2026-04-10T2000,1155A,118.8059,32.0329,南京市,瑞金路,颗粒物(PM10),70,78,58,19,28,107,107,148,147,22,10,7,6,0.9,1
2026-04-10T2000,1156A,118.7946,32.0774,南京市,玄武湖,颗粒物(PM10),62,66,47,22,27,87,87,133,131,38,14,5,5,0.6,0.7
2026-04-10T2000,1157A,118.6415,32.0964,南京市,浦口,颗粒物(PM10),59,62,38,25,21,93,93,129,127,22,10,5,4,0.7,0.6
2026-04-10T2000,1158A,118.730129,32.000956,南京市,奥体中心,颗粒物(PM10),79,90,47,21,20,88,88,122,120,39,24,8,7,0.8,0.4
2026-04-10T2000,1159A,118.9072,32.1047,南京市,仙林大学城,颗粒物(PM10),65,70,68,24,36,88,88,157,150,37,31,10,12,0.7,1
2026-04-10T2000,3422A,118.8443,31.919,南京市,江宁彩虹桥,颗粒物(PM10),67,73,42,27,22,116,116,153,147,47,27,3,4,0.9,0.7
2026-04-10T2000,3427A,118.8497,32.3599,南京市,六合雄州,颗粒物(PM10),56,58,45,26,28,81,81,112,110,31,23,4,4,1.0,0.9
2026-04-10T2000,4086A,118.7641,32.0841,南京市,新模范马路66号,颗粒物(PM10),67,73,56,21,24,108,108,143,142,26,21,4,4,0.6,0.6
2026-04-10T2000,4249A,118.8707617,31.34017673,南京市,汶溪路181号,细颗粒物(PM2.5),58,39,28,39,23,107,107,138,138,37,17,7,5,1.0,0.6
2026-04-10T2000,4312A,119.019,31.6512,南京市,中山西路1号,细颗粒物(PM2.5),56,56,34,38,27,103,103,130,129,23,19,4,4,1.2,0.8
2026-04-10T2000,1401A,108.3098,22.788,南宁市,二十一中,NA,NA,NA,48,NA,42,77,77,112,108,10,10,2,2,0.7,0.8
2026-04-10T2000,1402A,108.3135,22.8529,南宁市,北湖,细颗粒物(PM2.5),76,50,58,48,47,83,83,118,114,8,9,2,4,0.7,0.7
2026-04-10T2000,1403A,108.3205,22.8222,南宁市,市监测站,颗粒物(PM10),60,64,58,39,41,87,87,118,115,6,7,2,4,0.5,0.5
2026-04-10T2000,1404A,108.3828,22.8038,南宁市,大自然花园,细颗粒物(PM2.5),68,58,57,44,40,87,87,101,100,6,8,5,6,0.5,0.5
2026-04-10T2000,1406A,108.2397,22.8462,南宁市,区农职院,颗粒物(PM10),65,70,62,38,40,80,80,122,111,10,11,5,5,0.5,0.5
2026-04-10T2000,1407A,108.3285,22.7356,南宁市,英华嘉园,颗粒物(PM10),63,68,66,41,40,87,87,114,110,12,14,7,6,0.6,0.6
2026-04-10T2000,3401A,108.4829,22.762,南宁市,红星社区,颗粒物(PM10),58,61,57,38,35,95,95,108,106,7,7,5,6,0.6,0.7
2026-04-10T2000,4132A,108.2927,23.1477,南宁市,起凤路9号,细颗粒物(PM2.5),72,67,69,46,50,88,88,140,136,6,8,4,5,0.6,0.7
2026-04-10T2000,4221A,108.2177,22.7774,南宁市,乐贤路16号,颗粒物(PM10),61,65,61,38,41,77,77,114,107,12,14,4,6,0.5,0.5
2026-04-10T2000,2332A,118.1682,26.6371,南平市,南平市监测站,"颗粒物(PM10),细颗粒物(PM2.5)",74,83,41,47,29,35,35,107,89,33,18,4,5,1.5,0.6
2026-04-10T2000,2334A,118.1757,26.6276,南平市,南平七中,,46,46,35,31,24,50,50,106,96,21,16,2,2,0.8,0.5
2026-04-10T2000,1168A,120.9056,31.9669,南通市,狼山街道,,45,45,44,31,31,92,92,122,121,18,22,4,4,0.6,0.6
2026-04-10T2000,1170A,120.8635,32.0231,南通市,城中,颗粒物(PM10),58,60,57,37,34,86,86,114,114,16,16,4,5,0.6,0.6
2026-04-10T2000,1171A,120.9376,31.9301,南通市,星湖花园,,48,48,50,30,36,89,89,117,117,17,33,4,5,0.7,0.7
2026-04-10T2000,1172A,120.8053,32.046,南通市,紫琅学院,,43,37,41,30,31,88,88,125,125,19,18,5,6,0.8,0.8
2026-04-10T2000,3291A,121.0631,32.0644,南通市,通州监测站,细颗粒物(PM2.5),56,48,42,38,34,99,99,122,122,9,11,4,4,0.7,0.7
2026-04-10T2000,3432A,120.9348,31.9874,南通市,环境教育馆,颗粒物(PM10),51,51,47,32,30,84,84,125,123,22,19,5,5,0.6,0.6
2026-04-10T2000,4091A,120.8692,31.9885,南通市,洪江路,,50,50,50,29,33,83,83,108,108,26,28,4,5,1.1,1
2026-04-10T2000,2404A,112.5338,33.0086,南阳市,瓦房庄,颗粒物(PM10),72,80,54,30,27,100,100,111,111,17,18,5,5,0.7,0.7
2026-04-10T2000,2405A,112.5002,32.9734,南阳市,汉画馆,颗粒物(PM10),73,82,62,35,27,91,91,108,108,17,24,6,6,0.7,0.7
2026-04-10T2000,2406A,112.5778,33.0144,南阳市,气象站,颗粒物(PM10),82,94,56,29,25,106,106,117,117,17,19,7,6,0.6,0.6
2026-04-10T2000,2407A,112.548,32.9687,南阳市,理工学院,颗粒物(PM10),71,79,56,32,28,95,95,113,113,17,22,7,6,0.6,0.6
2026-04-10T2000,4008A,112.5233,32.9921,南阳市,卧龙区政府,颗粒物(PM10),70,78,48,29,28,101,101,114,114,16,17,8,7,0.7,0.7
2026-04-10T2000,1234A,121.8352,29.9111,宁波市,区环保大楼,颗粒物(PM10),80,91,56,48,26,76,76,116,116,72,46,9,8,0.8,0.7
2026-04-10T2000,1235A,121.5595,29.8208,宁波市,万里学院,细颗粒物(PM2.5),70,51,32,45,22,129,129,147,147,25,15,8,7,0.7,0.6
2026-04-10T2000,1236A,121.713,29.9564,宁波市,龙赛医院,细颗粒物(PM2.5),82,86,43,51,24,70,70,122,122,63,27,8,7,0.6,0.5
2026-04-10T2000,1240A,121.5855,29.8635,宁波市,太古小学,细颗粒物(PM2.5),92,78,39,56,24,120,120,140,140,29,16,5,4,0.8,0.7
2026-04-10T2000,1241A,121.5239,29.8673,宁波市,市环境监测中心,NA,NA,NA,36,NA,24,NA,NA,147,147,NA,18,NA,6,NA,0.6
2026-04-10T2000,2871A,121.6156,29.9015,宁波市,万里国际学校,细颗粒物(PM2.5),90,68,36,55,29,113,113,134,134,41,24,7,5,0.9,0.7
2026-04-10T2000,3710A,121.5593,29.8976,宁波市,白沙活动中心,细颗粒物(PM2.5),90,NA,28,55,24,108,108,140,140,34,17,7,6,0.9,0.5
2026-04-10T2000,4095A,121.8962,29.7529,宁波市,中科路88号,细颗粒物(PM2.5),76,53,36,48,26,73,73,106,106,29,19,8,7,0.6,0.5
2026-04-10T2000,2341A,119.5387,26.6611,宁德市,宁德市监测站,,49,NA,53,34,31,109,109,142,142,17,30,5,6,0.5,1
2026-04-10T2000,3209A,119.5231,26.6562,宁德市,宁德一中,细颗粒物(PM2.5),52,50,48,36,32,105,105,140,140,14,21,5,6,0.4,0.8
2026-04-10T2000,2618A,98.859,25.8541,怒江傈僳族自治州,州监测站,,32,32,31,20,21,68,68,95,92,17,16,9,9,0.2,0.2
2026-04-10T2000,2619A,98.8607,25.8168,怒江傈僳族自治州,泸水一中,,35,30,25,24,22,70,70,84,83,16,18,5,5,0.5,0.4
2026-04-10T2000,1888A,101.6891,26.571,攀枝花市,弄弄坪,,36,36,27,11,13,106,106,113,113,16,14,9,12,0.9,1
2026-04-10T2000,1889A,101.577,26.5914,攀枝花市,河门口,,37,15,32,10,16,118,118,118,118,5,11,6,7,0.5,0.5
2026-04-10T2000,1891A,101.7365,26.4986,攀枝花市,仁和,,37,18,24,10,14,116,116,117,117,5,9,5,6,0.4,0.5
2026-04-10T2000,2835A,101.7222,26.567,攀枝花市,四十中小,NA,NA,21,21,9,11,NA,NA,118,118,9,12,5,7,0.5,0.6
2026-04-10T2000,1604A,122.0303,41.1489,盘锦市,开发区,,43,NA,30,30,36,110,110,114,114,13,14,6,6,0.4,0.4
2026-04-10T2000,1605A,122.0486,41.0883,盘锦市,兴隆台,,36,NA,29,25,35,98,98,99,99,17,21,10,8,0.6,0.6
2026-04-10T2000,1606A,121.8297,41.1026,盘锦市,新生街道,,35,NA,28,24,28,89,89,106,105,20,27,5,6,0.6,0.5
2026-04-10T2000,1832A,113.3257,33.7423,平顶山市,新华旅馆,颗粒物(PM10),89,104,84,37,43,110,110,129,129,15,17,8,5,0.6,0.7
2026-04-10T2000,1833A,113.2917,33.737,平顶山市,规划设计院,细颗粒物(PM2.5),86,96,82,53,46,108,108,125,125,14,18,7,6,0.8,0.8
2026-04-10T2000,1834A,113.182,33.7738,平顶山市,平顶山工学院,颗粒物(PM10),71,79,66,34,38,119,119,132,132,14,15,8,8,0.4,0.5
2026-04-10T2000,3594A,112.8736,33.9068,平顶山市,石龙区,颗粒物(PM10),78,89,74,47,32,97,97,118,117,18,22,7,8,0.6,0.7
2026-04-10T2000,4116A,113.284,33.7139,平顶山市,姚电大道23号,颗粒物(PM10),81,93,77,44,48,108,108,131,131,22,22,9,7,0.6,0.6
2026-04-10T2000,2656A,106.6633,35.5338,平凉市,聚贤嘉苑,颗粒物(PM10),69,76,74,21,22,97,97,114,113,22,21,5,7,0.6,0.2
2026-04-10T2000,2657A,106.7021,35.5307,平凉市,博物馆,颗粒物(PM10),68,75,75,23,21,96,96,115,114,25,16,9,9,0.3,0.2
2026-04-10T2000,2348A,113.8384,27.6436,萍乡市,中医院,NA,NA,23,25,7,17,106,106,116,115,NA,9,3,5,NA,0.8
2026-04-10T2000,2350A,113.8677,27.6438,萍乡市,市环保局,,31,NA,25,13,16,98,98,109,108,10,11,10,12,0.7,0.8
2026-04-10T2000,2351A,113.8663,27.6202,萍乡市,安源区政府,,26,24,27,6,16,83,83,95,93,11,8,10,6,1.3,0.5
2026-04-10T2000,4107A,113.8686,27.6668,萍乡市,联洪村委会,,27,11,26,10,16,85,85,94,92,1,4,2,3,0.3,0.4
2026-04-10T2000,2319A,119.0142,25.4324,莆田市,荔城区仓后路,,45,45,47,26,30,60,60,94,88,14,18,/,/,/,/
2026-04-10T2000,2320A,119.0016,25.4553,莆田市,莆田市监测站,,33,32,39,23,25,64,64,104,98,11,12,2,3,0.3,0.4
2026-04-10T2000,2321A,119.112,25.4561,莆田市,涵江区六中,,41,41,39,24,27,40,40,98,84,24,19,/,/,0.5,0.6
2026-04-10T2000,2322A,119.1014,25.3215,莆田市,秀屿区政府,,38,27,33,26,26,43,43,82,74,12,9,5,5,0.3,0.4
2026-04-10T2000,2392A,115.0312,35.7636,濮阳市,环保局,,43,43,53,27,39,101,101,117,117,16,18,4,4,0.6,0.8
2026-04-10T2000,3021A,115,35.7667,濮阳市,濮水河管理处,细颗粒物(PM2.5),54,NA,63,37,44,94,94,131,129,6,7,4,4,0.8,0.9
2026-04-10T2000,4118A,115.0552,35.7816,濮阳市,中原东路68号,颗粒物(PM10),59,62,71,22,35,104,104,126,125,13,15,3,3,0.5,0.6
2026-04-10T2000,4216A,115.0923632,35.76857718,濮阳市,任丘路479号,NA,NA,70,68,31,37,NA,NA,129,129,28,22,4,4,0.6,0.8
2026-04-10T2000,2601A,100.9801,22.7634,普洱市,市环保局,颗粒物(PM10),60,64,66,37,33,104,104,116,116,13,12,5,4,0.8,0.8
2026-04-10T2000,2602A,100.9763,22.8237,普洱市,普洱第二中学,颗粒物(PM10),59,62,66,38,37,105,105,110,110,10,23,6,6,0.6,0.7
2026-04-10T2000,3345A,131.0413,45.7795,七台河市,中波台,NA,NA,27,58,13,25,NA,NA,87,75,8,14,3,5,0.3,0.7
2026-04-10T2000,3637A,131.0136,45.7688,七台河市,人民广场,,28,28,51,17,19,81,81,102,96,13,16,9,10,0.6,0.5
2026-04-10T2000,3684A,130.8639,45.8144,七台河市,新建矿广场,,25,NA,38,17,19,66,66,90,82,14,14,9,10,0.2,0.2
2026-04-10T2000,1779A,123.9307,47.3641,齐齐哈尔市,安居小区,,21,20,38,10,20,67,67,93,90,6,11,7,7,0.3,0.3
2026-04-10T2000,1780A,123.9497,47.3389,齐齐哈尔市,中心广场,,29,29,38,10,22,66,66,90,88,6,8,4,6,0.4,0.4
2026-04-10T2000,1781A,123.9483,47.3229,齐齐哈尔市,农牧车辆厂,,22,17,39,8,22,69,69,92,88,6,10,7,8,0.0,0.1
2026-04-10T2000,1783A,123.9442,47.2994,齐齐哈尔市,市环境监测站,,22,16,38,11,23,68,68,93,91,8,12,2,3,0.3,0.3
2026-04-10T2000,3662A,123.6341,47.2079,齐齐哈尔市,富区青少年活动中心,,26,NA,37,3,20,83,83,92,91,4,8,3,4,0.2,0.2
2026-04-10T2000,2591A,107.9765,26.5724,黔东南苗族侗族自治州,市环境监测站,,46,NA,45,32,40,113,113,114,114,7,7,3,3,0.4,0.5
2026-04-10T2000,2881A,107.8909,26.531,黔东南苗族侗族自治州,凯里学院,,40,36,60,28,37,119,119,118,118,3,4,3,3,0.4,0.5
2026-04-10T2000,2593A,107.5223,26.2371,黔南布依族苗族自治州,小围寨,,33,24,32,22,27,104,104,114,114,4,10,4,5,0.6,0.6
2026-04-10T2000,3538A,107.5175,26.2977,黔南布依族苗族自治州,沙坝,,30,29,40,21,26,89,89,92,92,4,10,4,4,0.7,0.8
2026-04-10T2000,2589A,104.9022,25.0943,黔西南布依族苗族自治州,场坝街,,37,NA,21,24,17,116,116,124,123,5,4,5,5,0.4,0.3
2026-04-10T2000,2590A,104.8812,25.0994,黔西南布依族苗族自治州,坪东大道,,38,28,47,26,17,115,115,122,122,5,6,3,3,0.3,0.3
2026-04-10T2000,2502A,108.6238,21.9667,钦州市,市环保站,,48,48,49,27,22,82,82,92,92,13,8,10,7,1.0,0.7
2026-04-10T2000,2503A,108.655,21.9481,钦州市,沙埠小学,颗粒物(PM10),54,55,52,34,29,88,88,88,88,7,8,7,6,0.6,0.7
2026-04-10T2000,2504A,108.5989,21.7435,钦州市,港区一小,颗粒物(PM10),58,61,60,32,27,95,95,85,85,6,8,2,6,0.5,0.5
2026-04-10T2000,3404A,108.5959,21.9634,钦州市,北职校,颗粒物(PM10),58,60,48,33,26,81,81,88,88,12,6,6,5,0.9,0.6
2026-04-10T2000,1046A,119.5247,39.9346,秦皇岛市,建设大厦,颗粒物(PM10),71,79,38,43,24,81,81,107,107,30,9,6,5,0.5,0.4
2026-04-10T2000,3132A,119.5979,39.938,秦皇岛市,文明里,细颗粒物(PM2.5),114,107,40,75,23,86,86,104,104,42,17,9,9,0.6,0.4
2026-04-10T2000,4066A,119.7458,39.9952,秦皇岛市,南园路157号,细颗粒物(PM2.5),128,101,39,90,28,114,114,99,99,25,25,8,8,0.5,0.5
2026-04-10T2000,4067A,119.5131,39.8858,秦皇岛市,翠岛大街1号,细颗粒物(PM2.5),125,94,36,87,25,106,106,105,105,25,17,9,8,0.5,0.4
2026-04-10T2000,4198A,119.509013,39.825305,秦皇岛市,北戴河轮滑馆,细颗粒物(PM2.5),135,98,39,98,26,112,112,113,113,26,14,8,8,0.4,0.4
2026-04-10T2000,1310A,120.404,36.0625,青岛市,市南区东部子站,细颗粒物(PM2.5),94,95,68,57,48,100,100,127,126,50,22,8,7,0.8,0.5
2026-04-10T2000,1311A,120.362344,36.10282,青岛市,四方区子站,细颗粒物(PM2.5),84,90,64,52,48,81,81,130,126,51,17,6,7,1.1,0.8
2026-04-10T2000,1312A,120.294373,36.054183,青岛市,市南区西部子站,细颗粒物(PM2.5),110,90,64,71,72,82,82,115,112,66,31,6,4,0.9,0.7
2026-04-10T2000,1313A,120.4581,36.0858,青岛市,崂山区子站,颗粒物(PM10),102,124,64,56,40,60,60,128,122,60,18,8,8,0.9,0.6
2026-04-10T2000,1315A,120.3945,36.3083,青岛市,城阳区子站,颗粒物(PM10),72,80,61,30,32,59,59,126,121,71,20,7,6,0.9,0.7
2026-04-10T2000,3642A,120.3454,36.0735,青岛市,市北区南部,细颗粒物(PM2.5),66,52,46,43,42,111,111,131,131,34,20,4,3,0.8,0.7
2026-04-10T2000,3643A,120.3897,36.18,青岛市,李沧区北部,颗粒物(PM10),60,63,60,28,40,88,88,119,118,45,20,10,9,0.7,0.6
2026-04-10T2000,4110A,120.5222,36.4089,青岛市,盟旺路653号,,49,49,43,25,28,117,117,123,122,17,8,5,4,0.7,0.8
2026-04-10T2000,4290A,120.196923,35.954556,青岛市,珠江路669号,细颗粒物(PM2.5),100,107,68,60,49,125,125,132,132,27,17,5,5,0.9,0.8
2026-04-10T2000,4291A,120.0424,35.8656,青岛市,黄岛区人民政府广场,"颗粒物(PM10),细颗粒物(PM2.5)",90,105,58,55,38,113,113,126,126,29,21,7,8,0.9,0.7
2026-04-10T2000,1703A,113.0218,23.7086,清远市,凤城街办,,41,41,35,20,20,52,52,89,89,27,18,/,/,/,/
2026-04-10T2000,3025A,113.0479,23.6343,清远市,技师学院,,47,47,40,22,21,44,44,90,89,34,19,5,5,0.5,0.4
2026-04-10T2000,3318A,112.9898,23.7403,清远市,清新太和,颗粒物(PM10),52,52,36,28,20,65,65,97,97,28,18,7,7,0.5,0.5
2026-04-10T2000,3455A,113.076,23.72,清远市,清城东城,,48,48,39,23,20,57,57,92,92,25,20,/,/,/,/
2026-04-10T2000,2661A,107.6325,35.7357,庆阳市,庆阳五中,颗粒物(PM10),62,66,64,20,17,112,112,120,120,19,10,5,7,0.3,0.3
2026-04-10T2000,2662A,107.6361,35.7067,庆阳市,市环保局,颗粒物(PM10),63,67,63,22,16,100,100,119,118,27,12,6,6,0.2,0.1
2026-04-10T2000,1916A,103.7897,25.5036,曲靖市,环境监测站,,37,34,28,16,15,117,117,123,123,7,8,6,6,0.4,0.5
2026-04-10T2000,1917A,103.8013,25.5357,曲靖市,烟厂办公区,,35,30,31,13,15,109,109,114,114,6,7,4,5,0.3,0.4
2026-04-10T2000,3376A,103.7926,25.4651,曲靖市,南苑二区,,36,19,27,12,13,114,114,119,119,7,7,4,4,0.3,0.3
2026-04-10T2000,3377A,103.7442,25.5259,曲靖市,曲靖师范学院,,36,34,35,20,19,114,114,122,122,8,11,4,6,0.2,0.3
2026-04-10T2000,1264A,118.8694,28.94,衢州市,环保大楼,,42,42,24,25,15,66,66,120,114,27,12,/,/,/,/
2026-04-10T2000,1266A,118.8622,28.9809,衢州市,衢州学院,NA,NA,33,22,24,14,NA,NA,118,117,30,15,4,5,0.5,0.4
2026-04-10T2000,4097A,118.9646,28.9832,衢州市,衢州三中,,30,30,22,17,13,65,65,118,112,33,16,7,7,0.6,0.6
2026-04-10T2000,1611A,118.5818,24.9116,泉州市,涂山街,,37,37,34,17,21,32,32,65,58,19,18,4,5,0.5,0.6
2026-04-10T2000,1612A,118.597,24.8976,泉州市,津头埔,,37,37,32,18,22,33,33,65,59,18,17,3,3,0.5,0.5
2026-04-10T2000,1613A,118.6669,24.9422,泉州市,万安,,33,33,33,14,20,35,35,63,57,11,15,3,4,0.4,0.5
2026-04-10T2000,4105A,118.6355,24.9148,泉州市,霞新路6号,NA,NA,25,29,14,21,NA,NA,61,57,20,16,/,/,0.4,0.4
2026-04-10T2000,2626A,88.8873,29.2723,日喀则市,日喀则监测站,臭氧1小时(O3_1h),101,15,30,6,7,202,202,192,192,4,5,8,9,0.3,0.4
2026-04-10T2000,3726A,88.8775,29.2425,日喀则市,林业技术推广中心,臭氧1小时(O3_1h),97,25,28,3,4,197,197,192,192,4,4,8,9,0.3,0.3
2026-04-10T2000,1659A,119.4711,35.421,日照市,监测站,颗粒物(PM10),104,129,74,52,43,40,40,115,104,100,35,14,9,1.1,0.8
2026-04-10T2000,1660A,119.523,35.4216,日照市,市政府广场,颗粒物(PM10),79,90,74,43,48,94,94,128,127,58,27,13,8,1.0,0.9
2026-04-10T2000,1661A,119.5511,35.4113,日照市,港务局,颗粒物(PM10),96,114,86,42,49,71,71,110,109,79,33,8,6,1.0,0.9
2026-04-10T2000,3507A,119.5326,35.4627,日照市,职业技术学院,颗粒物(PM10),78,88,72,44,47,128,128,131,131,31,28,10,8,1.1,0.8
2026-04-10T2000,3604A,119.3267,35.1043,日照市,岚山环保分局,颗粒物(PM10),68,75,72,37,43,104,104,135,133,37,28,11,14,0.8,1
2026-04-10T2000,1835A,111.1922,34.7752,三门峡市,市政府,NA,NA,69,68,39,36,NA,NA,112,112,NA,33,9,13,0.9,0.6
2026-04-10T2000,1836A,111.1588,34.794,三门峡市,开发区,,50,50,64,21,43,90,90,108,108,28,26,15,13,0.6,0.6
2026-04-10T2000,3039A,111.1911,34.7829,三门峡市,三门峡市第一小学,颗粒物(PM10),58,60,79,29,37,90,90,111,110,32,31,15,18,0.8,0.6
2026-04-10T2000,3598A,111.1031,34.719,三门峡市,富达温泉假日酒店,颗粒物(PM10),56,58,88,13,39,87,87,108,107,23,27,16,19,0.5,0.6
2026-04-10T2000,2324A,117.621,26.2626,三明市,三钢,细颗粒物(PM2.5),70,64,44,45,32,53,53,98,96,28,18,5,14,0.7,1.1
2026-04-10T2000,2325A,117.6352,26.2714,三明市,三明二中,细颗粒物(PM2.5),74,78,41,47,32,46,46,93,90,27,14,2,7,1.0,1
2026-04-10T2000,2326A,117.6028,26.2377,三明市,三元区政府,细颗粒物(PM2.5),78,72,45,49,35,53,53,94,93,22,17,6,8,0.8,0.6
2026-04-10T2000,1877A,109.4962,18.2682,三亚市,河西子站,,32,32,23,19,13,57,57,60,60,6,4,4,4,0.4,0.4
2026-04-10T2000,3540A,109.7348,18.3443,三亚市,君悦子站,,36,36,27,13,10,58,58,54,54,4,8,3,4,0.5,0.5
2026-04-10T2000,4135A,109.1714,18.3739,三亚市,城东小学站,,38,36,27,26,15,56,56,62,62,5,5,/,/,/,/
2026-04-10T2000,2624A,91.7592,29.234,山南市,山南监测站,臭氧1小时(O3_1h),83,22,8,3,2,186,186,169,169,8,4,8,9,0.1,0.2
2026-04-10T2000,2625A,91.7701,29.2436,山南市,山南人民医院,臭氧1小时(O3_1h),89,25,11,8,2,191,191,171,171,3,3,9,9,0.3,0.2
2026-04-10T2000,1674A,116.6795,23.3666,汕头市,金平子站,,28,28,26,13,15,49,49,66,63,8,12,4,4,0.6,0.6
2026-04-10T2000,1675A,116.7248,23.3632,汕头市,龙湖子站,NA,NA,23,24,14,15,39,39,52,51,NA,12,5,6,/,/
2026-04-10T2000,1676A,116.7257,23.2774,汕头市,濠江子站,,26,26,27,14,14,42,42,48,48,13,15,8,8,/,/
2026-04-10T2000,1677A,116.7518,23.4712,汕头市,澄海子站,,32,32,35,15,18,41,41,66,59,10,11,6,6,0.6,0.7
2026-04-10T2000,1678A,116.6088,23.2539,汕头市,潮阳子站,,27,27,23,15,14,48,48,56,55,6,7,6,6,0.5,0.5
2026-04-10T2000,3444A,116.4539,23.2684,汕头市,潮南峡山,,25,25,19,13,11,45,45,60,58,3,3,6,6,0.5,0.5
2026-04-10T2000,3624A,116.4069,23.2533,汕头市,潮南子站,,32,32,26,17,13,43,43,56,53,2,2,5,5,/,/
2026-04-10T2000,1693A,115.3653,22.7751,汕尾市,市环保局,,25,25,23,14,12,53,53,53,53,3,3,5,5,0.4,0.4
2026-04-10T2000,1695A,115.362,22.7926,汕尾市,新城中学,,27,27,22,13,12,54,54,58,58,7,6,6,6,0.3,0.4
2026-04-10T2000,2645A,109.9155,33.8714,商洛市,监测站,颗粒物(PM10),66,72,51,25,18,46,46,104,100,38,18,9,8,0.7,0.5
2026-04-10T2000,3045A,109.9647,33.8486,商洛市,商州区中学,颗粒物(PM10),54,55,61,16,18,49,49,108,104,40,27,4,5,0.5,0.5
2026-04-10T2000,2408A,115.6701,34.4283,商丘市,环境监测站,颗粒物(PM10),62,66,55,38,38,92,92,120,120,22,16,3,3,0.5,0.5
2026-04-10T2000,2409A,115.6458,34.4047,商丘市,粮食局,颗粒物(PM10),54,55,52,35,40,96,96,119,119,17,12,4,4,0.6,0.5
2026-04-10T2000,3171A,115.6069,34.4465,商丘市,梁园区档案局,颗粒物(PM10),60,63,49,35,41,100,100,124,124,20,16,3,3,0.6,0.5
2026-04-10T2000,4119A,115.6701,34.3767,商丘市,北海东路185号,NA,NA,66,49,35,35,NA,NA,125,125,21,18,5,4,0.3,0.4
2026-04-10T2000,4120A,115.6172,34.3704,商丘市,中山大街3号,细颗粒物(PM2.5),70,60,51,45,38,79,79,116,115,23,16,4,4,0.5,0.5
2026-04-10T2000,1141A,121.401,31.2382,上海市,普陀,细颗粒物(PM2.5),64,65,56,42,40,93,93,156,156,35,29,7,7,0.7,0.8
2026-04-10T2000,1142A,121.4774,31.2043,上海市,十五厂,颗粒物(PM10),53,53,54,36,39,91,91,143,143,31,29,6,6,0.9,1
2026-04-10T2000,1143A,121.4673,31.3011,上海市,虹口,细颗粒物(PM2.5),54,49,55,37,44,78,78,128,128,41,37,13,12,0.7,0.9
2026-04-10T2000,1147A,121.4253,31.226,上海市,静安监测站,细颗粒物(PM2.5),62,53,50,41,38,89,89,150,150,45,35,9,9,1.0,1
2026-04-10T2000,1148A,121.7029,31.1905,上海市,浦东川沙,,40,39,59,28,41,88,88,104,104,30,43,8,9,0.6,0.8
2026-04-10T2000,1149A,121.5339,31.229,上海市,浦东新区监测站,,46,46,54,32,39,83,83,120,120,25,32,6,7,0.6,0.8
2026-04-10T2000,1150A,121.5776,31.2038,上海市,浦东张江,,45,40,53,31,40,99,99,130,130,27,35,7,7,0.4,0.5
2026-04-10T2000,3265A,121.4242,31.3303,上海市,宝山庙行,颗粒物(PM10),54,55,69,30,40,83,83,135,135,34,37,7,7,0.6,0.7
