timepoint,stationcode,longitude,latitude,area,positionname,primarypollutant,aqi,pm10,pm10_24h,pm2_5,pm2_5_24h,o3,o3_24h,o3_8h,o3_8h_24h,no2,no2_24h,so2,so2_24h,co,co_24h
2026-01-29T1100,2568A,102.2503,31.8896,阿坝藏族羌族自治州,马师校,,20,,19,14,13,42,,38,37,11,14,4,4,0.5,0.5
2026-01-29T1100,3994A,102.2174,31.9016,阿坝藏族羌族自治州,马尔康中学西区,,,12,13,12,11,,,31,31,8,10,6,6,0.7,0.8
2026-01-29T1100,2695A,80.2899,41.1684,阿克苏地区,电视台,颗粒物(PM10),148,246,270,66,76,14,,19,19,29,30,9,11,1.4,1.4
2026-01-29T1100,2696A,80.2592,41.1541,阿克苏地区,艺术中心,颗粒物(PM10),134,218,252,65,87,18,,29,29,29,30,5,7,1.0,1.1
2026-01-29T1100,2205A,105.699,38.8409,阿拉善盟,蒙二幼,,,,71,,22,60,,83,74,,16,13,12,1.0,0.7
2026-01-29T1100,2206A,105.7198,38.8508,阿拉善盟,环保局新楼,颗粒物(PM10),54,58,56,20,17,62,,79,76,21,9,10,10,0.5,0.4
2026-01-29T1100,2708A,88.1266,47.8515,阿勒泰地区,市站,,40,40,36,27,22,20,,28,27,55,50,3,4,0.9,0.8
2026-01-29T1100,4166A,88.1198,47.7931,阿勒泰地区,阿勒泰路33号,,45,45,36,24,22,14,,49,40,64,32,5,6,1.0,0.6
2026-01-29T1100,2630A,80.1171,32.4999,阿里地区,阿里监测站,,24,6,3,3,3,75,,76,76,5,4,6,8,0.6,0.6
2026-01-29T1100,3192A,80.0906,32.5029,阿里地区,阿里藏医院,,39,39,10,20,3,49,,86,75,27,4,13,8,1.4,0.6
2026-01-29T1100,2644A,109.0088,32.6974,安康市,汉滨区检察院,,26,26,114,14,50,61,,67,67,11,9,6,6,1.1,0.9
2026-01-29T1100,4054A,109.0324,32.6913,安康市,市邮政管理局,,37,37,130,19,50,52,,61,60,18,15,3,4,1.0,0.8
2026-01-29T1100,2291A,117.0806,30.5181,安庆市,环科院,细颗粒物(PM2.5),108,118,115,81,78,20,,31,26,32,23,9,7,0.8,0.8
2026-01-29T1100,2292A,117.0331,30.5118,安庆市,马山宾馆,细颗粒物(PM2.5),114,116,117,86,83,26,,33,28,34,29,9,6,0.9,0.8
2026-01-29T1100,2294A,116.9897,30.6146,安庆市,安庆大学,细颗粒物(PM2.5),97,104,98,72,62,37,,30,30,28,36,4,3,0.8,0.8
2026-01-29T1100,3173A,117.0598,30.5351,安庆市,市人大,细颗粒物(PM2.5),114,122,117,86,82,26,,33,27,31,27,9,7,0.8,0.7
2026-01-29T1100,3123A,105.9408,26.2431,安顺市,凤凰山,,39,34,27,27,17,59,,57,57,9,9,12,9,0.5,0.6
2026-01-29T1100,3124A,105.9443,26.2567,安顺市,金钟山,,45,32,27,31,22,59,,54,54,9,9,11,11,0.5,0.7
2026-01-29T1100,3125A,105.8983,26.248,安顺市,娄家坡,,40,29,26,28,20,62,,56,56,8,11,10,11,0.3,0.5
2026-01-29T1100,1819A,114.3552,36.1017,安阳市,红庙街,细颗粒物(PM2.5),145,125,231,111,176,10,,5,5,43,59,2,5,1.0,1.4
2026-01-29T1100,1820A,114.361,36.0681,安阳市,银杏小区,细颗粒物(PM2.5),159,142,234,121,195,10,,5,5,42,55,4,6,1.0,1.3
2026-01-29T1100,3141A,114.3921,36.0879,安阳市,信访局,细颗粒物(PM2.5),143,146,236,109,182,10,,6,6,40,51,4,7,0.9,1.2
2026-01-29T1100,3669A,114.4706,36.0634,安阳市,左辅环卫站,细颗粒物(PM2.5),124,147,236,94,189,16,,7,7,31,53,3,4,0.6,1.1
2026-01-29T1100,4117A,114.2918,36.0769,安阳市,钢三路198号,细颗粒物(PM2.5),166,183,274,126,195,14,,8,8,39,59,5,9,1.0,1.4
2026-01-29T1100,1748A,123.0441,41.1201,鞍山市,深沟寺,颗粒物(PM10),52,54,53,34,35,59,,24,24,24,34,9,10,0.7,1
2026-01-29T1100,1749A,123.011,41.0931,鞍山市,太阳城,,50,50,50,33,39,56,,22,22,27,34,26,17,1.5,1
2026-01-29T1100,1750A,123.0483,41.1445,鞍山市,太平,颗粒物(PM10),53,55,61,31,33,50,,20,20,26,33,13,11,0.5,0.8
2026-01-29T1100,1751A,122.964,41.0968,鞍山市,铁西三道街,,,54,88,34,52,58,,19,19,,46,16,15,,1.2
2026-01-29T1100,1753A,123.0219,41.0822,鞍山市,明达新区,,46,44,45,32,32,62,,30,30,26,31,21,15,1.4,1
2026-01-29T1100,4201A,122.944647,41.082639,鞍山市,兴盛南路290号,颗粒物(PM10),54,57,99,25,47,51,,14,14,31,48,15,14,1.0,1.4
2026-01-29T1100,2195A,107.4206,40.7609,巴彦淖尔市,附二中,颗粒物(PM10),62,73,95,36,37,45,,38,33,22,20,16,12,0.5,0.4
2026-01-29T1100,2196A,107.37,40.7372,巴彦淖尔市,市环保大楼,颗粒物(PM10),68,86,95,34,34,46,,47,43,26,19,13,9,0.7,0.6
2026-01-29T1100,1956A,86.1476,41.7529,巴音郭楞蒙古自治州,孔雀公园,颗粒物(PM10),90,130,202,32,52,43,,40,40,14,27,7,10,0.6,0.8
2026-01-29T1100,1957A,86.1971,41.7166,巴音郭楞蒙古自治州,棉纺厂,颗粒物(PM10),93,136,234,29,47,33,,34,28,22,28,/,/,/,/
2026-01-29T1100,1958A,86.236,41.7172,巴音郭楞蒙古自治州,经济开发区,颗粒物(PM10),84,118,181,28,40,40,,47,45,9,21,5,6,0.6,0.7
2026-01-29T1100,3181A,106.776805,31.852614,巴中市,市五中,细颗粒物(PM2.5),72,82,92,52,55,6,,2,2,40,33,6,6,1.2,1.1
2026-01-29T1100,3183A,106.7419,31.8654,巴中市,圣泉水务公司,,,79,90,50,54,,,23,23,33,36,17,8,,1
2026-01-29T1100,3616A,106.7617,31.8343,巴中市,市中心医院,细颗粒物(PM2.5),77,73,95,56,67,12,,2,2,33,33,5,5,1.1,1.1
2026-01-29T1100,2235A,122.7909,45.608,白城市,洮北区环保局,,50,,40,35,29,67,,48,48,8,24,7,4,0.2,0.4
2026-01-29T1100,2236A,122.8741,45.5725,白城市,市环保局,,22,19,33,3,16,69,,62,62,6,22,4,5,0.2,0.3
2026-01-29T1100,2231A,126.4219,41.9172,白山市,喜丰,细颗粒物(PM2.5),84,94,69,62,44,41,,30,30,37,32,24,17,1.2,1
2026-01-29T1100,2232A,126.4082,41.9416,白山市,环保局,,,70,51,52,33,40,,33,30,31,23,,14,1.1,0.8
2026-01-29T1100,2647A,104.1727,36.5448,白银市,第三小学,颗粒物(PM10),130,209,243,56,84,56,,65,64,,51,6,41,0.6,0.9
2026-01-29T1100,2648A,104.1467,36.5482,白银市,动力公司,颗粒物(PM10),128,206,236,55,87,62,,65,65,14,35,5,24,0.8,1.1
2026-01-29T1100,2512A,106.6102,23.901,百色市,市监测站,,,86,54,66,39,,,39,39,22,24,25,18,1.1,0.9
2026-01-29T1100,2513A,106.6524,23.8842,百色市,市中心血站,细颗粒物(PM2.5),93,86,55,69,50,96,,72,72,15,17,22,20,1.1,1.1
2026-01-29T1100,4133A,106.6273,23.8798,百色市,龙景西路,细颗粒物(PM2.5),94,120,66,70,45,84,,45,45,22,25,27,19,0.9,0.9
2026-01-29T1100,2270A,117.396,32.9389,蚌埠市,工人疗养院,细颗粒物(PM2.5),72,90,100,52,63,30,,20,18,33,35,6,4,0.5,0.6
2026-01-29T1100,2271A,117.3606,32.9428,蚌埠市,百货大楼,细颗粒物(PM2.5),79,93,104,58,68,28,,23,17,32,32,7,6,0.6,0.7
2026-01-29T1100,2273A,117.4183,32.8909,蚌埠市,蚌埠学院,细颗粒物(PM2.5),80,66,100,59,73,32,,7,7,38,48,6,6,0.6,0.7
2026-01-29T1100,2274A,117.3534,32.9672,蚌埠市,淮上区政府,,,85,100,64,71,,,26,18,31,36,,2,0.6,0.6
2026-01-29T1100,2275A,117.3143,32.8977,蚌埠市,高新区,细颗粒物(PM2.5),85,95,102,63,83,21,,20,13,44,37,8,6,0.6,0.6
2026-01-29T1100,3715A,117.3091,32.9314,蚌埠市,蚌埠田家炳中学,细颗粒物(PM2.5),85,96,110,63,72,27,,27,19,34,35,6,4,0.5,0.6
2026-01-29T1100,1585A,109.8761,40.6533,包头市,市环境监测站,颗粒物(PM10),79,107,102,52,43,23,,28,13,58,48,19,15,1.8,1.3
2026-01-29T1100,1587A,109.9992,40.5843,包头市,包头八中,,,,140,,69,15,,9,9,,60,15,15,,1.7
2026-01-29T1100,1589A,109.8641,40.6288,包头市,惠龙物流,颗粒物(PM10),97,143,101,66,42,17,,27,12,62,47,19,21,1.6,1.4
2026-01-29T1100,1590A,110.0376,40.5546,包头市,东河鸿龙湾,,,,138,,57,25,,12,12,,73,,17,0.9,1.5
2026-01-29T1100,3283A,109.9154,40.5684,包头市,滨河大厦,细颗粒物(PM2.5),94,112,108,70,52,23,,9,9,50,62,11,13,1.1,1.1
2026-01-29T1100,3419A,109.9449,40.6259,包头市,包头市委党校,颗粒物(PM10),86,122,107,63,47,15,,6,6,62,62,16,18,1.5,1.4
2026-01-29T1100,3683A,109.8332,40.6577,包头市,昆区政府,细颗粒物(PM2.5),88,92,96,65,46,25,,46,35,60,45,18,21,1.6,1.6
2026-01-29T1100,1931A,107.0802,34.3129,宝鸡市,竹园沟,颗粒物(PM10),144,238,222,109,93,34,,23,22,34,29,6,7,1.1,0.8
2026-01-29T1100,1933A,107.1429,34.3549,宝鸡市,监测站,细颗粒物(PM2.5),183,242,257,138,127,39,,29,29,28,35,5,6,1.0,0.8
2026-01-29T1100,1934A,107.1172,34.3759,宝鸡市,技工学校,细颗粒物(PM2.5),168,235,255,127,114,41,,42,38,30,31,4,7,1.2,0.9
2026-01-29T1100,1936A,107.2025,34.3518,宝鸡市,文理学院,细颗粒物(PM2.5),165,224,256,125,121,40,,30,30,28,35,4,6,1.0,0.9
2026-01-29T1100,1937A,107.2396,34.3626,宝鸡市,三迪小学,细颗粒物(PM2.5),189,225,271,142,141,34,,25,24,37,46,4,6,1.2,1.1
2026-01-29T1100,4155A,107.1721,34.3558,宝鸡市,滨河北路,细颗粒物(PM2.5),162,252,267,123,117,39,,38,36,20,25,5,6,1.2,1
2026-01-29T1100,4308A,107.3898,34.3601,宝鸡市,陈仓区北开路21号,细颗粒物(PM2.5),153,220,301,117,137,34,,18,18,39,47,7,10,1.0,0.8
2026-01-29T1100,1051A,115.4803,38.8568,保定市,游泳馆,颗粒物(PM10),65,80,94,44,65,18,,19,16,38,43,5,6,0.8,0.7
2026-01-29T1100,1052A,115.509,38.8895,保定市,华电二区,,,67,83,49,58,,,10,7,,42,7,5,0.7,0.7
2026-01-29T1100,1053A,115.4588,38.9037,保定市,接待中心,,,96,94,51,63,17,,15,13,25,39,,4,0.8,0.7
2026-01-29T1100,1054A,115.4484,38.8344,保定市,地表水厂,颗粒物(PM10),70,90,109,42,56,21,,20,18,36,41,7,7,0.6,0.6
2026-01-29T1100,3581A,115.3136,38.9511,保定市,满城区生态环境分局,"颗粒物(PM10),细颗粒物(PM2.5)",70,90,112,51,60,18,,11,11,31,42,6,6,0.7,0.7
2026-01-29T1100,3582A,115.4709,38.7628,保定市,清苑区第二中学,颗粒物(PM10),68,86,112,42,60,18,,20,17,37,41,7,8,0.7,0.7
2026-01-29T1100,3583A,115.6231,39.0223,保定市,徐水物探局,颗粒物(PM10),64,78,111,42,60,38,,24,24,25,38,5,7,0.8,0.8
2026-01-29T1100,4004A,115.4199,38.8665,保定市,双鹰农机,颗粒物(PM10),68,86,115,46,60,27,,25,23,27,37,7,8,0.7,0.7
2026-01-29T1100,4034A,115.515,38.8589,保定市,植保所站,颗粒物(PM10),65,80,100,45,60,15,,14,10,36,42,3,4,0.7,0.8
2026-01-29T1100,2594A,99.1589,25.1137,保山市,市环境监测站,颗粒物(PM10),51,52,29,22,18,47,,63,53,26,10,6,6,0.6,0.3
2026-01-29T1100,2595A,99.1616,25.1381,保山市,市环保局,,,,34,,19,,,94,62,,5,,3,,0.4
2026-01-29T1100,1867A,109.1435,21.4085,北海市,海滩公园,,,,59,,33,104,,118,103,,14,,8,0.8,1
2026-01-29T1100,1868A,109.0983,21.466,北海市,新市环保局,,47,47,52,24,36,105,,118,101,13,19,7,7,0.7,0.8
2026-01-29T1100,1869A,109.1775,21.5232,北海市,北海工业园,,44,44,74,24,46,103,,90,80,11,22,6,7,0.5,0.6
2026-01-29T1100,3400A,109.1844,21.4396,北海市,龙潭自来水厂,颗粒物(PM10),51,51,56,32,48,101,,106,90,11,12,3,3,0.8,0.8
2026-01-29T1100,1001A,116.3611,39.8786,北京市,万寿西宫,颗粒物(PM10),61,71,80,42,44,41,,32,32,27,32,5,5,0.8,0.8
2026-01-29T1100,1003A,116.4174,39.9289,北京市,东四,"颗粒物(PM10),细颗粒物(PM2.5)",65,80,77,47,42,33,,24,24,26,31,7,8,0.7,0.7
2026-01-29T1100,1004A,116.4073,39.8858,北京市,天坛,"颗粒物(PM10),细颗粒物(PM2.5)",58,65,75,41,43,48,,33,33,23,32,6,4,0.8,0.8
2026-01-29T1100,1005A,116.4622,39.9364,北京市,农展馆,颗粒物(PM10),58,65,72,39,41,41,,27,27,23,26,8,6,1.1,1
2026-01-29T1100,1006A,116.3399,39.9293,北京市,官园,细颗粒物(PM2.5),70,77,78,51,45,31,,25,25,32,34,4,6,0.7,0.7
2026-01-29T1100,1007A,116.2879,39.9613,北京市,海淀万柳,细颗粒物(PM2.5),62,68,81,44,46,21,,7,7,41,41,4,5,0.7,0.7
2026-01-29T1100,1008A,116.6635,40.1349,北京市,顺义新城,颗粒物(PM10),59,67,76,39,38,51,,39,39,18,26,10,9,0.8,0.8
2026-01-29T1100,1009A,116.6275,40.327,北京市,怀柔镇,颗粒物(PM10),60,70,68,40,35,45,,38,38,21,30,7,7,0.8,0.8
2026-01-29T1100,1010A,116.2295,40.217,北京市,昌平镇,细颗粒物(PM2.5),68,77,79,49,42,36,,27,27,28,37,4,6,0.7,0.8
2026-01-29T1100,1011A,116.3968,39.982,北京市,奥体中心,"颗粒物(PM10),细颗粒物(PM2.5)",60,69,79,43,44,32,,19,19,41,44,5,6,1.0,0.9
2026-01-29T1100,3418A,116.8336,40.4095,北京市,密云新城,细颗粒物(PM2.5),67,79,73,48,37,46,,32,31,11,22,4,6,0.7,0.7
2026-01-29T1100,3671A,116.0879,39.9725,北京市,门头沟三家店,颗粒物(PM10),71,91,84,50,45,20,,8,8,34,40,4,5,0.8,0.8
2026-01-29T1100,3672A,116.1507,39.8246,北京市,丰台云岗,颗粒物(PM10),60,70,78,40,45,30,,24,24,36,35,6,6,0.8,0.8
2026-01-29T1100,3674A,115.9578,39.7602,北京市,房山燕山,,,78,85,,41,,,11,11,40,42,5,7,0.7,0.7
2026-01-29T1100,3675A,116.4669,39.7734,北京市,大兴旧宫,颗粒物(PM10),56,61,77,34,39,45,,38,38,22,28,7,5,0.9,0.7
2026-01-29T1100,3694A,115.9859,40.4562,北京市,延庆石河营,细颗粒物(PM2.5),110,118,86,83,54,19,,12,11,49,39,5,5,1.1,1
2026-01-29T1100,3695A,116.6151,40.3052,北京市,怀柔新城,细颗粒物(PM2.5),69,69,71,50,38,40,,37,37,21,26,7,7,0.7,0.7
2026-01-29T1100,3696A,116.2542,39.8764,北京市,丰台小屯,细颗粒物(PM2.5),73,85,81,53,45,19,,13,13,40,38,4,6,0.8,0.8
2026-01-29T1100,3697A,116.8399,40.3843,北京市,密云镇,"颗粒物(PM10),细颗粒物(PM2.5)",64,78,68,46,35,41,,31,30,19,25,4,6,0.6,0.7
2026-01-29T1100,4057A,115.9423,40.4431,北京市,延庆百泉,细颗粒物(PM2.5),103,111,85,77,54,14,,10,5,46,41,3,4,1.1,0.9
2026-01-29T1100,4058A,116.6598,39.9164,北京市,通州新华,颗粒物(PM10),60,69,74,37,42,38,,33,33,26,27,7,5,0.9,0.7
2026-01-29T1100,4182A,116.1942,39.9158,北京市,石景山八角,颗粒物(PM10),69,87,85,44,42,25,,10,10,37,44,8,8,0.6,0.6
2026-01-29T1100,4194A,117.078628,40.151726,北京市,平谷新城,细颗粒物(PM2.5),68,74,75,49,42,43,,28,28,20,28,6,7,0.8,0.9
2026-01-29T1100,1761A,123.8274146,41.31234549,本溪市,大峪,细颗粒物(PM2.5),170,182,66,129,43,25,,17,17,53,37,10,9,4.2,1.3
2026-01-29T1100,1763A,123.7169,41.3094,本溪市,彩屯,细颗粒物(PM2.5),110,114,77,83,47,40,,21,16,39,38,14,9,1.9,1.1
2026-01-29T1100,1764A,123.7672166,41.28649327,本溪市,东明,颗粒物(PM10),146,242,64,101,56,34,,14,14,57,47,15,9,3.6,1.4
2026-01-29T1100,1765A,123.799345,41.266614,本溪市,新立屯,,,130,47,,25,,,18,,,44,,11,,0.9
2026-01-29T1100,1766A,123.829144,41.336777,本溪市,威宁,细颗粒物(PM2.5),127,143,82,96,50,24,,10,10,39,44,10,7,2.0,1.3
2026-01-29T1100,2587A,105.287,27.3133,毕节市,八中,颗粒物(PM10),53,55,36,33,27,17,,9,8,18,15,10,8,1.0,1
2026-01-29T1100,2588A,105.3079,27.2987,毕节市,师专,,45,45,38,25,24,16,,11,10,20,16,8,8,0.9,0.8
2026-01-29T1100,4263A,105.3688,27.3598,毕节市,工业大道,细颗粒物(PM2.5),54,38,29,38,25,20,,12,12,18,16,11,10,/,/
2026-01-29T1100,1629A,117.9961,37.3604,滨州市,第二水厂,颗粒物(PM10),53,56,106,29,65,50,,42,42,15,33,9,10,0.9,1.1
2026-01-29T1100,1630A,117.9789,37.3931,滨州市,北中新校,颗粒物(PM10),52,53,101,24,64,58,,48,48,16,31,6,7,0.4,0.7
2026-01-29T1100,3514A,117.9379,37.3959,滨州市,中海酒店,,44,44,102,27,71,52,,44,44,16,33,9,10,0.5,0.8
2026-01-29T1100,3515A,117.9381509,37.35547456,滨州市,开发区一中,颗粒物(PM10),54,58,115,31,73,52,,47,47,14,28,9,12,0.6,0.8
2026-01-29T1100,3516A,118.0914,37.6938,滨州市,金海六路,,37,37,88,17,53,67,,54,54,21,40,7,8,0.5,0.7
2026-01-29T1100,4028A,117.9955,37.3752,滨州市,滨州市西街道办事处,颗粒物(PM10),51,51,103,29,70,58,,48,48,14,28,10,10,0.6,0.9
2026-01-29T1100,2311A,115.8071,33.8399,亳州市,污水处理厂,细颗粒物(PM2.5),67,75,81,48,51,71,,42,42,14,24,6,5,0.5,0.6
2026-01-29T1100,2312A,115.7789,33.8519,亳州市,三国揽胜宫,颗粒物(PM10),72,94,96,47,53,68,,43,43,16,25,6,4,0.5,0.5
2026-01-29T1100,3332A,115.7631,33.803,亳州市,亳州学院,,,73,80,51,52,,,55,55,12,15,6,3,0.8,0.6
2026-01-29T1100,2693A,82.0482,44.8553,博尔塔拉蒙古自治州,市党校,颗粒物(PM10),197,343,130,72,64,63,,56,53,24,30,3,6,1.0,1
2026-01-29T1100,2694A,82.0805,44.8966,博尔塔拉蒙古自治州,市环保局,细颗粒物(PM2.5),90,125,125,67,62,62,,55,55,26,32,6,8,0.9,0.8
2026-01-29T1100,1071A,116.8733,38.2922,沧州市,沧县城建局,细颗粒物(PM2.5),55,57,75,39,48,36,,46,40,28,33,6,6,0.5,0.4
2026-01-29T1100,1072A,116.8462,38.3189,沧州市,电视转播站,细颗粒物(PM2.5),60,62,71,43,50,33,,43,36,33,32,6,4,0.7,0.6
2026-01-29T1100,1073A,116.8588,38.3161,沧州市,市环保局,细颗粒物(PM2.5),65,59,71,47,45,28,,36,30,29,31,8,8,0.7,0.6
2026-01-29T1100,3324A,116.8011,38.294,沧州市,河北水利电力学院,细颗粒物(PM2.5),58,56,76,41,56,31,,42,36,27,31,5,6,0.6,0.5
2026-01-29T1100,2622A,97.1813,31.1289,昌都市,昌都监测站,颗粒物(PM10),52,54,26,30,10,37,,70,45,40,16,5,4,1.0,0.6
2026-01-29T1100,3719A,97.1707,31.1428,昌都市,昌都会议中心,,,23,13,13,7,,,76,65,7,4,4,5,0.3,0.3
2026-01-29T1100,2692A,87.2722,44.0298,昌吉回族自治州,新区政务中心,细颗粒物(PM2.5),119,114,172,90,122,5,,6,6,92,58,12,8,1.8,1.7
2026-01-29T1100,3613A,87.3069,44.0093,昌吉回族自治州,亚心广场,细颗粒物(PM2.5),89,102,186,66,132,20,,9,9,68,56,10,8,1.5,1.5
2026-01-29T1100,4164A,87.2057,43.9289,昌吉回族自治州,财政所,细颗粒物(PM2.5),122,123,157,92,108,19,,12,12,48,52,7,6,1.7,1.4
2026-01-29T1100,1120A,125.2874,43.9024,长春市,客车厂,细颗粒物(PM2.5),77,59,62,56,50,48,,33,33,35,42,18,11,0.6,0.8
2026-01-29T1100,1121A,125.2943,43.8508,长春市,邮电学院,,29,,59,20,47,58,,31,31,20,40,15,12,0.4,0.6
2026-01-29T1100,1122A,125.3648,43.8745,长春市,劳动公园,细颗粒物(PM2.5),54,53,67,38,45,57,,26,26,25,35,10,6,1.0,1.1
2026-01-29T1100,1123A,125.3233,43.8781,长春市,园林处,,45,43,63,31,52,54,,30,30,24,34,14,12,0.5,0.7
2026-01-29T1100,1124A,125.4604,43.7904,长春市,净月潭,细颗粒物(PM2.5),109,104,82,82,66,30,,17,17,48,42,9,6,1.0,0.7
2026-01-29T1100,1126A,125.38,43.8422,长春市,经开区环卫处,细颗粒物(PM2.5),95,114,86,71,65,23,,8,8,58,51,8,7,1.2,0.9
2026-01-29T1100,1127A,125.234,43.7761,长春市,高新区管委会,细颗粒物(PM2.5),79,102,96,58,76,42,,19,19,48,58,10,7,0.8,1
2026-01-29T1100,1128A,125.1695,43.83,长春市,岱山公园,细颗粒物(PM2.5),118,114,93,89,89,30,,11,11,50,45,8,6,1.0,0.9
2026-01-29T1100,4281A,125.334645,43.916281,长春市,北亚泰大街1068号,,,,64,54,51,,,16,16,30,42,11,9,0.8,0.9
2026-01-29T1100,1335A,113.082,28.2421,长沙市,经开区环保局,,,80,92,45,54,,,28,28,27,31,3,4,0.6,0.7
2026-01-29T1100,1336A,112.8873,28.2202,长沙市,高开区环保局,颗粒物(PM10),67,83,107,38,54,26,,30,27,32,33,5,4,0.8,1
2026-01-29T1100,1337A,113.0785,28.2012,长沙市,马坡岭,颗粒物(PM10),66,82,99,40,47,20,,30,29,30,29,4,4,0.8,0.9
2026-01-29T1100,1338A,112.9448,28.1894,长沙市,湖南师范大学,颗粒物(PM10),62,73,100,34,44,36,,42,38,30,28,4,4,0.8,0.9
2026-01-29T1100,1339A,113.0177,28.1322,长沙市,雨花区环保局,颗粒物(PM10),65,80,94,35,44,19,,29,22,30,28,7,7,0.7,0.8
2026-01-29T1100,1340A,112.9795,28.2593,长沙市,伍家岭,颗粒物(PM10),74,97,123,39,61,16,,11,11,29,42,4,5,0.8,1
2026-01-29T1100,1341A,113.002,28.1944,长沙市,火车新站,颗粒物(PM10),67,84,104,36,55,27,,34,29,33,34,2,2,1.0,1.1
2026-01-29T1100,1342A,112.9846,28.1177,长沙市,天心区环保局,细颗粒物(PM2.5),63,72,89,45,33,35,,40,36,31,31,5,5,0.7,0.8
2026-01-29T1100,1343A,112.8906,28.1307,长沙市,湖南中医药大学,颗粒物(PM10),64,78,102,32,48,42,,38,38,26,39,6,6,0.8,1
2026-01-29T1100,1727A,113.1146,36.1547,长治市,清华站,细颗粒物(PM2.5),223,180,164,173,131,38,,44,35,35,36,10,13,1.6,1.4
2026-01-29T1100,1730A,113.0887,36.2126,长治市,审计局,细颗粒物(PM2.5),221,187,165,171,128,39,,44,38,38,40,7,10,1.3,1.1
2026-01-29T1100,1731A,113.0845,36.1856,长治市,长治八中,细颗粒物(PM2.5),241,203,188,191,137,36,,42,36,27,28,8,11,1.5,1.4
2026-01-29T1100,2845A,113.1561,36.1912,长治市,德盛苑,细颗粒物(PM2.5),240,190,156,190,131,40,,39,36,30,28,7,9,1.6,1.4
2026-01-29T1100,3568A,113.0603,36.0464,长治市,向阳小学,细颗粒物(PM2.5),242,241,190,192,124,36,,46,43,50,40,12,13,2.1,1.6
2026-01-29T1100,3569A,112.8788,36.315,长治市,屯留一中,细颗粒物(PM2.5),245,211,174,195,135,35,,38,32,43,39,12,10,2.8,1.9
2026-01-29T1100,4189A,113.113092,36.199482,长治市,英华南巷50号,细颗粒物(PM2.5),232,190,174,182,133,38,,41,37,34,33,6,10,1.7,1.5
2026-01-29T1100,4190A,113.23666,36.33435,长治市,学府街1号,细颗粒物(PM2.5),220,181,180,170,136,35,,23,23,42,52,9,13,1.8,1.6
2026-01-29T1100,1854A,111.696,28.9725,常德市,市二中,细颗粒物(PM2.5),107,108,159,80,76,27,,54,47,24,19,5,5,1.2,1.1
2026-01-29T1100,3138A,111.7152,29.0288,常德市,武陵区永安,细颗粒物(PM2.5),98,117,166,73,77,27,,59,48,26,20,4,5,1.2,1.1
2026-01-29T1100,3139A,111.6891,28.9881,常德市,鼎城区玉霞,细颗粒物(PM2.5),99,106,156,74,79,32,,62,53,28,23,6,7,1.0,0.9
2026-01-29T1100,3140A,111.6651,29.0526,常德市,武陵区长庚,细颗粒物(PM2.5),94,107,158,70,75,37,,63,53,18,18,4,4,0.9,0.8
2026-01-29T1100,1196A,119.9524,31.7586,常州市,市监测站,,34,34,58,19,36,49,,28,28,35,46,7,6,0.3,0.4
2026-01-29T1100,1200A,119.9351,31.703,常州市,武进监测站,,44,44,56,27,37,39,,20,20,41,43,19,12,1.1,0.9
2026-01-29T1100,3002A,119.9701,31.813,常州市,行政中心,,50,50,59,16,34,57,,36,36,28,44,7,5,0.5,0.6
2026-01-29T1100,3003A,120.0434,31.7726,常州市,经开区,,40,40,64,13,29,52,,28,28,31,43,13,12,0.5,0.5
2026-01-29T1100,3010A,119.8919,31.7892,常州市,钟楼,,38,38,59,14,30,52,,36,36,30,37,9,7,0.5,0.6
2026-01-29T1100,3429A,119.8595,31.706,常州市,武进经发区,,46,46,64,26,43,43,,20,20,40,49,10,6,1.1,0.8
2026-01-29T1100,3430A,119.5812,31.7256,常州市,金坛城区,,32,32,71,17,46,55,,20,20,26,37,7,6,0.4,0.6
2026-01-29T1100,4089A,119.9551,31.863,常州市,崇义南街5-H号,,40,40,55,11,30,53,,30,30,30,42,8,5,0.6,0.6
2026-01-29T1100,2220A,120.4318,41.588,朝阳市,西梁,细颗粒物(PM2.5),102,102,74,76,42,26,,10,10,41,36,36,13,2.6,1
2026-01-29T1100,2221A,120.452,41.565,朝阳市,河畔小区,颗粒物(PM10),70,89,44,45,27,36,,12,12,25,31,20,10,1.4,0.9
2026-01-29T1100,2222A,120.4176,41.5648,朝阳市,八里堡,细颗粒物(PM2.5),114,,50,86,41,29,,10,10,,34,22,10,1.7,0.9
2026-01-29T1100,3026A,116.6179,23.6608,潮州市,市政府,,40,34,48,28,32,60,,55,49,8,12,4,6,0.6,0.6
2026-01-29T1100,4036A,116.646,23.676,潮州市,金山,,46,46,43,21,26,38,,38,30,15,18,4,5,0.6,0.7
2026-01-29T1100,2473A,113.0116,25.8228,郴州市,市职中,细颗粒物(PM2.5),69,66,46,50,40,5,,2,2,27,25,12,6,0.9,0.9
2026-01-29T1100,2475A,113.0381,25.8074,郴州市,市审计局,细颗粒物(PM2.5),62,56,52,44,43,3,,1,1,25,22,10,4,/,/
2026-01-29T1100,2476A,113.0348,25.7757,郴州市,市环保局,细颗粒物(PM2.5),84,92,64,62,50,6,,2,2,27,26,12,6,1.1,1
2026-01-29T1100,4252A,113.0138,25.8011,郴州市,好美居路49号,细颗粒物(PM2.5),75,57,53,55,42,16,,8,8,24,23,12,6,/,/
2026-01-29T1100,1431A,103.9727,30.7242,成都市,金泉两河,颗粒物(PM10),117,184,193,58,74,51,,47,47,30,42,2,2,0.7,0.8
2026-01-29T1100,1432A,104.1423,30.6765,成都市,十里店,颗粒物(PM10),122,193,192,80,80,,,29,24,46,42,4,4,0.9,0.8
2026-01-29T1100,1433A,104.0594,30.5765,成都市,三瓦窑,颗粒物(PM10),117,184,186,83,79,23,,36,24,40,45,4,4,1.0,0.9
2026-01-29T1100,1434A,104.1122,30.6306,成都市,沙河铺,细颗粒物(PM2.5),118,181,186,89,83,21,,27,22,50,53,5,4,0.8,0.8
2026-01-29T1100,2880A,104.0219,30.6561,成都市,大石西路,颗粒物(PM10),122,193,197,63,78,43,,37,37,30,44,5,5,0.8,0.9
2026-01-29T1100,3136A,104.2724,30.559,成都市,龙泉驿区区政府,颗粒物(PM10),114,178,163,75,59,19,,22,12,39,31,7,7,0.8,0.6
2026-01-29T1100,3357A,104.0028,30.6891,成都市,金博路,颗粒物(PM10),106,162,179,54,76,47,,37,37,33,49,4,5,0.7,0.8
2026-01-29T1100,3359A,104.056,30.5228,成都市,华阳,颗粒物(PM10),113,175,166,73,66,19,,29,18,46,47,4,3,0.8,0.8
2026-01-29T1100,3488A,104.387954,30.746684,成都市,青石路225号,"颗粒物(PM10),细颗粒物(PM2.5)",112,173,170,84,70,5,,2,2,47,44,6,5,1.0,0.9
2026-01-29T1100,3489A,104.0788,30.4054,成都市,科学城,颗粒物(PM10),119,187,171,85,66,14,,19,12,35,25,7,6,0.8,0.8
2026-01-29T1100,4011A,103.8505,30.6946,成都市,光华大道三段,颗粒物(PM10),107,164,189,63,75,38,,41,40,34,40,2,3,0.8,0.8
2026-01-29T1100,4144A,104.3257,30.6406,成都市,八角井街185号,颗粒物(PM10),128,205,180,83,68,5,,11,5,50,40,4,4,0.9,0.8
2026-01-29T1100,4224A,104.2433276,30.53529463,成都市,鲸龙路1057号,颗粒物(PM10),107,164,178,72,68,28,,24,12,32,32,6,5,0.8,0.7
2026-01-29T1100,1062A,117.9531,40.908,承德市,铁路,颗粒物(PM10),54,58,67,26,40,25,,15,15,30,33,4,6,0.8,1
2026-01-29T1100,1063A,117.9397,40.9763,承德市,中国银行,,34,34,66,18,38,38,,16,16,16,31,4,5,0.6,0.9
2026-01-29T1100,4073A,117.9462,40.95,承德市,杏林街1号,,42,42,60,20,36,40,,14,14,14,29,5,7,0.6,0.9
2026-01-29T1100,4274A,117.7994,40.9605,承德市,滨河大街98号,,,304,81,,40,17,,12,12,51,37,75,17,,1.2
2026-01-29T1100,2314A,117.4698,30.6617,池州市,池州学院,细颗粒物(PM2.5),90,87,114,67,83,31,,37,29,24,33,4,5,1.3,1.2
2026-01-29T1100,3237A,117.4918,30.6617,池州市,展览馆,,,97,115,65,79,30,,35,27,17,29,3,3,,1
2026-01-29T1100,3333A,117.5626,30.695,池州市,第八中学,细颗粒物(PM2.5),84,87,111,62,80,36,,31,25,17,31,4,4,0.8,0.9
2026-01-29T1100,3334A,117.5037,30.6242,池州市,第十二中学,细颗粒物(PM2.5),87,90,108,64,79,28,,23,20,27,36,2,3,1.4,1.2
2026-01-29T1100,1744A,118.9229,42.2816,赤峰市,松山一中,颗粒物(PM10),65,80,51,38,27,26,,10,10,41,42,20,17,1.4,1
2026-01-29T1100,1745A,118.9588,42.2733,赤峰市,哈达街,颗粒物(PM10),59,68,46,31,25,30,,16,16,30,31,16,24,1.1,0.9
2026-01-29T1100,1746A,118.8792,42.2551,赤峰市,天义路,颗粒物(PM10),53,56,35,18,23,33,,14,14,24,29,18,16,1.0,0.9
2026-01-29T1100,3058A,119.2656,42.0356,赤峰市,银河街,细颗粒物(PM2.5),130,142,69,99,41,30,,13,13,32,23,27,18,2.2,1.3
2026-01-29T1100,3286A,118.9359,42.3146,赤峰市,桥北物流园区,细颗粒物(PM2.5),60,61,40,43,26,39,,20,20,25,27,13,9,0.9,0.8
2026-01-29T1100,2521A,107.3473,22.4137,崇左市,市环保局江州分局,细颗粒物(PM2.5),112,98,67,84,46,94,,27,27,19,24,7,5,1.1,1
2026-01-29T1100,4256A,107.375,22.3736,崇左市,石景林东路7号,细颗粒物(PM2.5),107,91,57,80,49,79,,33,33,33,24,10,8,0.9,0.7
2026-01-29T1100,3207A,118.31131,32.3033,滁州市,市政府原办公楼,细颗粒物(PM2.5),68,72,92,49,67,27,,11,11,46,47,6,5,0.7,0.7
2026-01-29T1100,3331A,118.3268,32.2633,滁州市,图书馆,颗粒物(PM10),57,63,90,35,57,27,,8,8,40,45,8,7,0.8,0.7
2026-01-29T1100,4101A,118.3196,32.3335,滁州市,银山路666号,细颗粒物(PM2.5),70,55,81,51,73,32,,11,11,31,40,7,7,0.6,0.6
2026-01-29T1100,4102A,118.3426,32.2979,滁州市,黄山路555号,细颗粒物(PM2.5),69,78,103,50,72,28,,9,9,41,47,16,14,0.9,1
2026-01-29T1100,2606A,101.5379,25.0492,楚雄彝族自治州,市经济开发区,,49,36,29,34,19,48,,22,22,18,16,3,2,0.7,0.6
2026-01-29T1100,4153A,101.5536,25.0343,楚雄彝族自治州,团结路562号,,34,34,25,16,16,63,,30,21,9,11,4,4,0.5,0.4
2026-01-29T1100,2549A,107.5087,31.2186,达州市,市环境监测站,颗粒物(PM10),59,68,85,19,45,6,,11,11,41,41,7,7,0.8,0.9
2026-01-29T1100,2550A,107.4988,31.2132,达州市,凤凰小区,颗粒物(PM10),53,56,84,34,45,5,,13,13,42,40,4,5,0.5,0.7
2026-01-29T1100,2551A,107.5081,31.1987,达州市,达县机关宾馆,颗粒物(PM10),56,61,94,33,48,5,,11,11,44,46,2,4,1.0,1.2
2026-01-29T1100,2552A,107.4644,31.2124,达州市,市政中心,,,,94,,47,,,54,,,45,,6,,0.8
2026-01-29T1100,2614A,100.2168,25.5818,大理白族自治州,大理市环境监测站,,28,25,30,19,25,66,,70,68,11,9,7,7,0.6,0.5
2026-01-29T1100,2615A,100.1542,25.7055,大理白族自治州,大理古城,,27,27,33,3,12,82,,83,83,1,4,7,8,0.4,0.5
2026-01-29T1100,1109A,121.6119,38.974,大连市,甘井子,,33,33,41,18,24,74,,70,67,16,24,6,10,0,0.2
2026-01-29T1100,1110A,121.565,38.9509,大连市,周水子,,35,35,43,17,27,64,,39,37,17,35,6,10,0.4,0.5
2026-01-29T1100,1111A,121.5637,38.8849,大连市,星海三站,,25,25,33,14,22,62,,59,58,18,22,11,11,0.6,0.6
2026-01-29T1100,1112A,121.6301,38.9117,大连市,青泥洼桥,,30,30,38,18,23,63,,63,62,19,20,13,12,0.4,0.4
2026-01-29T1100,1113A,121.6248,38.8643,大连市,傅家庄,,25,25,35,15,21,60,,58,55,15,18,10,9,0.6,0.7
2026-01-29T1100,1114A,121.5117,38.8636,大连市,七贤岭,,28,28,42,12,25,66,,58,58,13,22,8,11,0.5,0.7
2026-01-29T1100,1116A,121.7507,39.1339,大连市,金州,,35,35,35,23,24,69,,65,65,19,21,11,12,0.4,0.4
2026-01-29T1100,1117A,121.7811,39.0495,大连市,开发区,,25,20,31,15,17,78,,76,74,9,12,7,7,0.5,0.4
2026-01-29T1100,1118A,121.9762,39.0631,大连市,双D港,,31,31,36,14,23,78,,70,70,10,14,7,10,0.5,0.6
2026-01-29T1100,4082A,121.2548,38.8188,大连市,旅顺,,22,20,29,14,19,69,,63,63,9,14,8,9,0.4,0.5
2026-01-29T1100,1789A,124.8085,46.0381,大庆市,大同区,,31,31,40,14,27,60,,47,47,6,18,7,5,0.5,0.6
2026-01-29T1100,1790A,125.1166,46.5255,大庆市,龙凤区,,25,25,37,11,21,54,,40,40,20,32,8,9,0.4,0.6
2026-01-29T1100,1791A,124.8894,46.4007,大庆市,红岗区,,,24,33,14,20,50,,40,40,10,20,8,5,,1.3
2026-01-29T1100,1792A,125.1391,46.578,大庆市,萨尔图区,,29,29,33,16,18,50,,43,43,22,25,9,7,0.6,0.6
2026-01-29T1100,1793A,124.9026,46.6217,大庆市,让胡路区,,23,22,31,8,20,71,,63,63,9,17,7,7,0.4,0.4
2026-01-29T1100,3481A,125.127,46.6277,大庆市,萨区政府监测点,,25,22,38,17,20,62,,41,41,10,23,9,8,0.4,0.6
2026-01-29T1100,1723A,113.2926,40.0759,大同市,云冈宾馆,颗粒物(PM10),73,96,105,43,41,30,,30,26,36,42,17,17,1.5,1.1
2026-01-29T1100,1724A,113.3437,40.0921,大同市,大同大学,颗粒物(PM10),66,82,99,38,35,39,,40,37,27,32,24,18,1.5,1
2026-01-29T1100,1725A,113.2637,40.129,大同市,安家小村,颗粒物(PM10),79,107,116,46,46,33,,16,16,32,42,21,17,1.4,1.3
2026-01-29T1100,3282A,113.3399,40.0586,大同市,大同市卫生学校,颗粒物(PM10),71,92,100,39,37,39,,43,37,34,38,17,15,1.4,0.9
2026-01-29T1100,3565A,113.1371,40.1122,大同市,云冈站,颗粒物(PM10),70,89,102,42,37,34,,8,8,29,47,25,16,1.1,1
2026-01-29T1100,3566A,113.1186,40.2556,大同市,图书馆,,,90,85,28,36,,,17,15,21,21,16,10,1.2,1.2
2026-01-29T1100,3567A,113.5931,40.0459,大同市,区一中,颗粒物(PM10),83,116,131,32,61,58,,40,40,16,29,15,24,0.5,0.9
2026-01-29T1100,4199A,113.2798248,40.09972476,大同市,魏都大道141号,颗粒物(PM10),86,122,127,34,48,36,,22,21,38,51,17,14,1.5,1.3
2026-01-29T1100,2269A,124.1068,50.4091,大兴安岭地区,科技局,,20,9,18,3,9,63,,63,63,4,4,3,3,0.1,0.2
2026-01-29T1100,3663A,124.117,50.4279,大兴安岭地区,红旗社区,,23,6,17,3,17,72,,72,72,2,13,4,7,0.2,0.2
2026-01-29T1100,1600A,124.33,40.0625,丹东市,江湾东路,,28,28,28,18,15,67,,56,56,12,17,8,7,0.5,0.5
2026-01-29T1100,1601A,124.4242,40.1513,丹东市,临江后街,,22,22,26,11,14,70,,59,59,8,13,8,9,0.3,0.4
2026-01-29T1100,1602A,124.3935,40.1461,丹东市,元宝山,,22,22,24,10,15,70,,50,50,6,12,8,11,0.4,0.5
2026-01-29T1100,1603A,124.3634,40.1093,丹东市,民主桥,,23,23,28,13,15,66,,53,53,13,17,9,9,0.5,0.6
2026-01-29T1100,3541A,109.5726195,19.51688767,儋州市,第一中学子站,,,22,30,10,15,,,76,72,3,5,4,4,0.5,0.5
2026-01-29T1100,3542A,109.5567,19.5187,儋州市,东坡学校子站,,27,27,30,9,13,86,,92,88,2,4,4,4,0.5,0.5
2026-01-29T1100,2616A,98.5611,24.4273,德宏傣族景颇族自治州,德宏州监测站,细颗粒物(PM2.5),74,80,61,54,42,29,,16,12,29,26,8,8,0.9,0.7
2026-01-29T1100,3677A,98.5887,24.4366,德宏傣族景颇族自治州,芒市人民政府综合楼,,,71,54,51,34,,,21,12,,14,,5,,0.7
2026-01-29T1100,1901A,104.424,31.1209,德阳市,东山公园,细颗粒物(PM2.5),124,171,165,94,84,21,,25,25,28,29,2,2,0.8,0.8
2026-01-29T1100,1902A,104.3827,31.1318,德阳市,西小区,细颗粒物(PM2.5),133,195,187,101,85,14,,30,22,46,34,5,6,1.0,0.8
2026-01-29T1100,1904A,104.3553,31.1091,德阳市,耐火材料厂,颗粒物(PM10),115,179,180,81,78,13,,30,24,47,30,3,4,1.0,0.8
2026-01-29T1100,4145A,104.4144,31.1495,德阳市,市林业局,细颗粒物(PM2.5),127,168,164,96,83,15,,21,14,40,40,4,4,1.0,0.9
2026-01-29T1100,1622A,116.3034,37.4675,德州市,儿童乐园,颗粒物(PM10),64,78,168,44,113,41,,32,32,25,47,12,16,0.9,1.3
2026-01-29T1100,1624A,116.2992,37.4449,德州市,监理站,,,85,171,,143,48,,40,40,22,48,,15,0.7,1.1
2026-01-29T1100,3066A,116.2722,37.438,德州市,九衢泉纯净水厂,颗粒物(PM10),67,83,165,38,121,41,,33,33,26,44,6,10,1.0,1.5
2026-01-29T1100,3371A,116.3693,37.44,德州市,开发区人民医院,颗粒物(PM10),64,78,165,29,102,50,,43,43,28,49,11,14,0.5,1
2026-01-29T1100,3511A,116.5687,37.3331,德州市,陵城艺术中心,颗粒物(PM10),85,119,160,61,116,36,,28,28,27,42,13,17,0.6,1
2026-01-29T1100,4292A,116.352738,37.420875,德州市,新河东路,,,73,149,34,105,43,,36,36,,44,,13,0.4,1.1
2026-01-29T1100,2621A,99.7054,27.8319,迪庆藏族自治州,迪庆州站,,42,32,30,29,21,74,,58,55,12,11,4,4,0.5,0.5
2026-01-29T1100,3180A,99.7122,27.8129,迪庆藏族自治州,质量技术监督局,颗粒物(PM10),53,56,31,36,23,80,,57,53,12,13,5,5,0.5,0.5
2026-01-29T1100,4257A,104.6092,35.5962,定西市,将台街,颗粒物(PM10),51,52,143,35,52,69,,86,78,8,9,9,12,0.6,0.5
2026-01-29T1100,4309A,104.6159,35.5701,定西市,正龙路62号,细颗粒物(PM2.5),58,49,154,41,49,56,,82,72,15,11,5,9,0.7,0.6
2026-01-29T1100,1390A,113.7943,23.0132,东莞市,东城石井,颗粒物(PM10),51,51,61,32,39,87,,53,52,22,32,6,7,0.7,0.8
2026-01-29T1100,1391A,113.7384,22.9659,东莞市,南城西平,,49,46,62,34,41,79,,34,34,29,46,6,6,0.7,0.9
2026-01-29T1100,3319A,113.7283,23.041,东莞市,万江金泰,,50,50,57,31,36,82,,61,56,25,26,5,5,0.9,1
2026-01-29T1100,4129A,113.8666,23.1062,东莞市,裕兴路,,,53,64,,32,70,,47,47,19,28,7,8,0.9,1
2026-01-29T1100,4130A,114.0076,22.9739,东莞市,教育路1号,,48,48,60,26,35,73,,65,65,26,32,5,5,0.8,0.9
2026-01-29T1100,4131A,113.7981,22.8124,东莞市,长怡路1号,,47,47,63,26,35,88,,64,64,23,35,6,6,0.8,1
2026-01-29T1100,1666A,118.6612,37.4313,东营市,市环保局,,34,34,78,14,49,70,,63,63,20,28,7,9,0.5,0.7
2026-01-29T1100,3036A,118.6903,37.4337,东营市,开发区管委会,,,32,83,14,57,,,63,,8,23,7,8,0.4,0.7
2026-01-29T1100,3365A,118.5721,37.5654,东营市,垦利区民丰路,,34,34,79,17,49,72,,62,62,14,26,7,9,0.5,0.7
2026-01-29T1100,3498A,118.5063,37.8606,东营市,河口城区,,36,36,71,12,43,69,,63,63,21,30,4,5,0.6,0.7
2026-01-29T1100,3646A,118.4979,37.4623,东营市,胜利站,,34,34,86,14,51,66,,56,56,16,29,7,8,0.6,0.8
2026-01-29T1100,3734A,118.5753,37.4405,东营市,理想之城,,34,34,85,12,53,67,,58,58,20,32,4,6,0.4,0.8
2026-01-29T1100,1591A,110.0024,39.8127,鄂尔多斯市,综合楼,,,136,128,31,36,,,24,18,,50,16,14,0.8,0.8
2026-01-29T1100,1592A,109.9485,39.8259,鄂尔多斯市,巴音孟克林场办事处,颗粒物(PM10),101,151,111,36,33,22,,12,12,62,47,16,13,0.8,0.6
2026-01-29T1100,1593A,109.7734,39.5987,鄂尔多斯市,康泽苑,颗粒物(PM10),85,119,88,36,30,34,,16,16,42,35,8,3,0.9,0.5
2026-01-29T1100,1594A,109.8121,39.5987,鄂尔多斯市,华泰汽车城,颗粒物(PM10),87,124,87,39,27,14,,4,4,40,41,7,6,0.9,0.6
2026-01-29T1100,1595A,109.9734,39.7884,鄂尔多斯市,奥林花园,颗粒物(PM10),75,100,102,24,31,49,,37,37,37,43,11,14,0.6,0.6
2026-01-29T1100,2436A,114.894,30.3989,鄂州市,市政府,细颗粒物(PM2.5),70,65,56,51,30,21,,38,33,41,24,8,6,0.6,0.5
2026-01-29T1100,2437A,114.8986,30.3714,鄂州市,赵家坝,细颗粒物(PM2.5),63,57,58,45,34,22,,40,33,34,17,9,8,1.0,0.9
2026-01-29T1100,3654A,114.8093,30.4091,鄂州市,精准医疗中心,细颗粒物(PM2.5),58,61,61,41,39,40,,38,36,28,27,36,20,0.6,0.8
2026-01-29T1100,2454A,109.4978,30.2979,恩施土家族苗族自治州,湖北民院,,49,46,90,34,47,13,,11,11,15,18,6,6,1.0,1
2026-01-29T1100,3549A,109.5061,30.3771,恩施土家族苗族自治州,龙凤新区,,46,44,75,32,35,7,,15,15,16,11,7,7,0.8,0.7
2026-01-29T1100,2499A,108.3411,21.6159,防城港市,沙万,颗粒物(PM10),62,73,97,34,67,78,,87,86,25,39,9,9,0.9,1.2
2026-01-29T1100,2500A,108.3515,21.7733,防城港市,防城档案局,,,49,85,32,59,,,60,60,15,23,5,6,0.7,1
2026-01-29T1100,2501A,108.3506,21.6414,防城港市,大海花园,细颗粒物(PM2.5),59,55,70,42,51,96,,96,96,14,23,7,14,0.7,1
2026-01-29T1100,1371A,113.1293,23.0065,佛山市,湾梁,颗粒物(PM10),56,61,62,26,35,72,,44,44,29,38,/,/,/,/
2026-01-29T1100,1372A,113.1082,23.0477,佛山市,华材职中,细颗粒物(PM2.5),69,70,73,50,53,70,,50,50,32,43,8,7,0.8,0.9
2026-01-29T1100,1373A,113.1439,23.045,佛山市,南海气象局,颗粒物(PM10),57,64,58,31,45,65,,40,40,36,45,/,/,/,/
2026-01-29T1100,1374A,113.2879,22.8094,佛山市,顺德苏岗,,46,46,61,28,41,81,,46,46,30,40,/,/,1.0,1.2
2026-01-29T1100,1376A,112.8384,22.8678,佛山市,高明孔堂,颗粒物(PM10),54,58,67,37,48,79,,46,45,33,30,/,/,/,/
2026-01-29T1100,1377A,112.8835,23.1584,佛山市,三水监测站,颗粒物(PM10),64,78,72,45,42,56,,17,17,47,47,7,5,1.1,1.2
2026-01-29T1100,1378A,112.8668,23.185,佛山市,三水云东海,,,67,58,57,38,,,12,12,63,45,/,/,/,/
2026-01-29T1100,3625A,113.2568,22.7629,佛山市,容桂街道办,颗粒物(PM10),52,53,65,24,39,83,,56,56,25,34,/,/,/,/
2026-01-29T1100,1282A,119.2681,26.0506,福州市,师大,,42,42,36,17,20,73,,65,59,16,22,4,3,0.6,0.6
2026-01-29T1100,1283A,119.2983,26.1028,福州市,五四北路,,45,45,34,17,23,75,,69,63,14,18,6,5,0.9,0.8
2026-01-29T1100,1284A,119.2648,26.0769,福州市,杨桥西路,,,,33,,19,,,67,57,,18,,4,/,/
2026-01-29T1100,3048A,119.5799,26.0937,福州市,九龙,颗粒物(PM10),51,52,36,28,18,67,,66,64,23,16,9,5,0.9,0.6
2026-01-29T1100,3526A,119.5188,25.9666,福州市,吴航,,,42,36,22,19,,,73,67,17,16,,5,0.6,0.6
2026-01-29T1100,4104A,119.3106,26.0648,福州市,路通桥巷6号,,40,40,34,19,24,71,,74,66,15,17,/,/,/,/
2026-01-29T1100,1755A,123.7974,41.8494,抚顺市,望花区,细颗粒物(PM2.5),193,,111,145,73,27,,12,12,54,48,15,9,2.2,1.2
2026-01-29T1100,1756A,123.9161,41.8827,抚顺市,顺城区,细颗粒物(PM2.5),127,103,79,96,62,35,,17,17,49,48,12,11,1.5,1.1
2026-01-29T1100,1757A,124.0437,41.8615,抚顺市,东洲区,细颗粒物(PM2.5),123,,79,93,54,42,,26,26,32,36,24,10,1.1,1
2026-01-29T1100,1758A,123.9246,41.8638,抚顺市,新抚区,细颗粒物(PM2.5),132,113,83,100,59,32,,14,14,48,46,13,7,1.2,0.9
2026-01-29T1100,1759A,124.0972,41.8961,抚顺市,大伙房水库,细颗粒物(PM2.5),80,63,64,59,44,42,,16,16,31,36,18,11,0.9,0.9
2026-01-29T1100,1760A,123.708,41.8386,抚顺市,沈抚新城,细颗粒物(PM2.5),153,154,84,117,60,28,,14,14,53,53,6,7,1.6,1
2026-01-29T1100,2377A,116.3544,27.9833,抚州市,市站,颗粒物(PM10),52,54,47,31,31,11,,10,10,24,23,8,7,1.1,1
2026-01-29T1100,2378A,116.3562,27.9631,抚州市,血防站,颗粒物(PM10),56,62,49,37,30,8,,5,5,41,36,7,5,1.7,1.5
2026-01-29T1100,2379A,116.3561,28.0007,抚州市,采茶剧团,颗粒物(PM10),51,51,47,24,27,6,,4,4,25,18,6,5,1.1,1
2026-01-29T1100,2380A,116.3854,27.9648,抚州市,医学分院,颗粒物(PM10),54,57,49,26,26,16,,10,10,24,23,4,5,1.2,1.1
2026-01-29T1100,2207A,121.6095,41.9978,阜新市,工业园区,,37,37,61,8,25,66,,38,38,10,25,9,12,0.4,0.6
2026-01-29T1100,2208A,121.6567,42.0188,阜新市,长青街,,,17,33,8,27,71,,28,28,6,27,8,11,,0.7
2026-01-29T1100,2209A,121.6672,42.07,阜新市,农业园区,,30,30,21,7,8,66,,64,64,6,8,6,7,0.3,0.3
2026-01-29T1100,2211A,121.6343,42.0455,阜新市,玉龙新城,,36,36,50,6,26,66,,19,19,8,38,7,8,0.4,0.8
2026-01-29T1100,2301A,115.8276,32.8929,阜阳市,市监测站,细颗粒物(PM2.5),92,99,94,68,60,30,,38,36,34,26,4,4,0.6,0.7
2026-01-29T1100,2303A,115.8551,32.8606,阜阳市,开发区,,,89,88,64,56,,,30,30,29,32,5,4,0.4,0.5
2026-01-29T1100,2875A,115.783962,32.889217,阜阳市,阜阳职业技术学院,细颗粒物(PM2.5),84,79,86,62,56,44,,48,47,22,19,7,7,0.5,0.6
2026-01-29T1100,3468A,115.79,32.8614,阜阳市,市规划展馆,细颗粒物(PM2.5),92,94,89,68,59,45,,48,47,25,21,6,6,0.7,0.7
2026-01-29T1100,3469A,115.835101,32.918568,阜阳市,枣园社区,细颗粒物(PM2.5),92,101,98,68,61,36,,36,36,24,22,6,5,0.6,0.7
2026-01-29T1100,2669A,102.9097,34.9841,甘南藏族自治州,州政府,细颗粒物(PM2.5),140,209,159,107,85,68,,48,43,18,25,11,11,0.9,0.8
2026-01-29T1100,3380A,102.8915,34.9618,甘南藏族自治州,甘肃民族师范学院,颗粒物(PM10),144,238,174,82,61,71,,39,39,28,37,12,11,0.7,0.6
2026-01-29T1100,2570A,101.96,30.048,甘孜藏族自治州,水桥子,颗粒物(PM10),51,52,39,33,15,27,,20,18,32,30,7,7,1.0,0.9
2026-01-29T1100,3065A,101.9534,29.9976,甘孜藏族自治州,州环保局,,31,31,31,8,9,42,,37,31,39,25,7,6,0.8,0.7
2026-01-29T1100,2363A,114.9368,25.8663,赣州市,地委,,40,40,34,25,23,42,,38,29,23,15,12,9,0.9,0.8
2026-01-29T1100,2364A,114.946,25.8483,赣州市,气象台,颗粒物(PM10),52,54,51,35,27,36,,30,22,32,22,12,11,0.6,0.6
2026-01-29T1100,2365A,114.932,25.8332,赣州市,市图书馆,,47,47,43,31,26,28,,31,24,34,21,8,6,1.0,0.9
2026-01-29T1100,2366A,114.8905,25.8472,赣州市,华坚鞋城,,,60,46,20,21,,,37,26,,17,9,6,1.0,0.7
2026-01-29T1100,3109A,115.0094,25.8614,赣州市,赣县区卫计委,,48,48,38,28,29,42,,33,31,19,13,8,8,0.8,0.8
2026-01-29T1100,2684A,106.2753,36.0057,固原市,监测站,颗粒物(PM10),125,199,201,70,68,85,,92,91,15,13,6,8,0.8,0.7
2026-01-29T1100,2685A,106.2384,36.0189,固原市,新区,颗粒物(PM10),131,211,199,73,60,82,,96,94,16,14,,8,,0.7
2026-01-29T1100,2544A,106.6307,30.4577,广安市,市委,细颗粒物(PM2.5),113,105,116,85,85,15,,6,6,31,42,7,7,1.1,1.3
2026-01-29T1100,2545A,106.6266,30.4662,广安市,友谊中学,细颗粒物(PM2.5),105,99,98,79,74,,,10,9,25,33,7,7,,1.3
2026-01-29T1100,2547A,106.6386,30.4551,广安市,广电花园,细颗粒物(PM2.5),123,102,114,93,80,10,,5,5,28,34,6,6,1.0,1.1
2026-01-29T1100,2902A,106.6347,30.4868,广安市,北辰小学,细颗粒物(PM2.5),122,108,105,92,90,16,,13,12,18,22,7,7,1.0,1.1
2026-01-29T1100,2524A,105.8211,32.4444,广元市,老城,细颗粒物(PM2.5),115,115,170,87,82,6,,4,4,47,52,,12,1.7,1.4
2026-01-29T1100,2526A,105.8629,32.429,广元市,监测站,细颗粒物(PM2.5),117,105,155,88,87,0,,0,0,49,47,8,12,1.9,1.7
2026-01-29T1100,3617A,105.8047,32.4167,广元市,经开区,细颗粒物(PM2.5),125,145,209,95,108,2,,0,0,44,49,6,22,1.7,2
2026-01-29T1100,1345A,113.2346,23.1423,广州市,广雅中学,颗粒物(PM10),52,54,66,29,40,72,,31,31,24,46,4,3,0.7,0.8
2026-01-29T1100,1346A,113.2611,23.105,广州市,市五中,,44,44,58,27,38,82,,48,48,24,41,10,8,/,/
2026-01-29T1100,1348A,113.3477,23.0916,广州市,广东商学院,,48,47,57,33,40,71,,36,36,30,46,10,6,0.9,1
2026-01-29T1100,1349A,113.4332,23.105,广州市,市八十六中,,44,44,56,26,32,81,,41,41,27,51,10,8,/,/
2026-01-29T1100,1350A,113.3506,22.9488,广州市,番禺中学,颗粒物(PM10),56,62,79,28,38,88,,52,52,26,39,4,4,0.8,1
2026-01-29T1100,1351A,113.2147,23.3918,广州市,花都师范,,,,46,,29,,,34,34,43,41,,9,0.8,1
2026-01-29T1100,1352A,113.2599,23.1329,广州市,市监测站,,,52,61,28,37,75,,35,35,25,42,,4,/,/
2026-01-29T1100,1353A,113.5618,23.3119,广州市,九龙镇镇龙,,47,47,44,28,27,78,,54,54,14,27,6,6,0.7,0.8
2026-01-29T1100,1354A,113.2764,23.1544,广州市,麓湖,,45,45,49,27,34,76,,33,33,26,46,9,9,0.7,0.8
2026-01-29T1100,2846A,113.3209,23.1323,广州市,体育西,,50,50,69,28,39,73,,37,37,26,44,7,7,0.8,1.1
2026-01-29T1100,3298A,113.5718,23.5493,广州市,从化街口,,47,47,40,32,26,64,,26,26,17,34,9,10,0.7,0.8
2026-01-29T1100,3299A,113.3463,23.369,广州市,白云竹料,,44,44,47,26,33,75,,32,32,22,37,4,4,0.6,0.8
2026-01-29T1100,3300A,113.2981,23.2365,广州市,白云嘉禾,,41,41,60,24,35,80,,52,52,28,48,6,6,/,/
2026-01-29T1100,3301A,113.4256,23.1716,广州市,黄埔科学城,,43,41,51,30,36,84,,47,47,26,41,3,3,0.6,0.7
2026-01-29T1100,3302A,113.3942,23.0485,广州市,番禺大学城,颗粒物(PM10),55,60,72,30,37,77,,42,42,31,44,12,9,0.7,0.8
2026-01-29T1100,3303A,113.4923,22.8169,广州市,南沙黄阁,,46,46,62,32,40,90,,60,57,29,38,5,6,/,/
2026-01-29T1100,3304A,113.534,22.7893,广州市,南沙街,颗粒物(PM10),52,54,61,30,38,95,,67,67,29,35,5,6,0.8,1
2026-01-29T1100,3443A,113.2905,23.5541,广州市,花都梯面,,38,38,37,25,25,63,,25,25,18,30,5,7,/,/
2026-01-29T1100,3445A,113.786,23.7479,广州市,从化良口,,28,23,20,19,15,60,,27,27,11,18,8,8,/,/
2026-01-29T1100,3446A,113.805,23.2614,广州市,增城荔城,,,,33,30,25,81,,56,56,16,18,6,7,0.8,0.9
2026-01-29T1100,2506A,109.604387,23.066791,贵港市,江南子站,细颗粒物(PM2.5),77,88,82,56,52,80,,42,41,20,28,8,8,0.9,1.1
2026-01-29T1100,2508A,109.5669,23.1065,贵港市,荷城子站,颗粒物(PM10),76,102,71,50,44,57,,47,46,29,30,10,8,1.1,1.1
2026-01-29T1100,3405A,109.5886,23.1172,贵港市,新世纪学校,细颗粒物(PM2.5),92,102,76,68,54,67,,48,48,22,29,/,/,0.9,0.8
2026-01-29T1100,4260A,109.5933,23.095,贵港市,中山路155-3号,细颗粒物(PM2.5),100,97,69,75,54,81,,46,45,26,30,/,/,1.0,0.9
2026-01-29T1100,1439A,106.6863,26.6035,贵阳市,马鞍山,,48,36,29,33,22,58,,47,47,12,17,6,6,/,/
2026-01-29T1100,1441A,106.6241,26.6266,贵阳市,鉴湖路,,46,46,36,27,24,54,,49,49,11,16,4,3,0.5,0.6
2026-01-29T1100,1442A,106.7468,26.6344,贵阳市,燕子冲,细颗粒物(PM2.5),52,44,38,36,30,60,,44,44,14,20,10,11,0.5,0.7
2026-01-29T1100,1443A,106.6556,26.4362,贵阳市,碧云窝,,48,48,37,31,21,68,,58,58,8,11,10,8,/,/
2026-01-29T1100,1445A,106.6963,26.6063,贵阳市,红边门,,44,44,37,29,24,53,,41,41,22,27,9,12,/,/
2026-01-29T1100,1446A,106.7162383,26.56964667,贵阳市,新华路,细颗粒物(PM2.5),52,51,41,36,22,57,,44,44,21,28,8,8,0.5,0.7
2026-01-29T1100,1447A,106.6742,26.542,贵阳市,太慈桥,,45,44,33,31,23,52,,43,43,14,17,2,5,/,/
2026-01-29T1100,4230A,106.688212,26.56952,贵阳市,花果园大街66号,,43,36,29,30,23,52,,42,42,16,23,2,3,/,/
2026-01-29T1100,4231A,106.687268,26.516892,贵阳市,漓江路57号,细颗粒物(PM2.5),52,51,38,36,26,60,,50,50,17,21,9,9,0.6,0.7
2026-01-29T1100,1864A,110.3091,25.2705,桂林市,龙隐路小学,细颗粒物(PM2.5),73,54,55,53,53,44,,56,53,22,15,7,7,0.6,0.6
2026-01-29T1100,1865A,110.2849361,25.22909545,桂林市,八中,颗粒物(PM10),54,58,59,27,36,39,,50,47,27,18,4,5,0.8,0.7
2026-01-29T1100,3531A,110.296,25.1254,桂林市,旅游学院,细颗粒物(PM2.5),70,72,59,51,41,48,,49,45,22,15,6,6,0.7,0.6
2026-01-29T1100,4222A,110.1835,25.2444,桂林市,环湖路276号,,,73,66,53,48,,,54,52,22,12,13,8,1.0,0.9
2026-01-29T1100,4301A,110.2803,25.2773,桂林市,信义路13号,细颗粒物(PM2.5),60,56,53,43,43,45,,59,55,24,16,6,5,1.0,1
2026-01-29T1100,2674A,100.2262,34.4854,果洛藏族自治州,玛沁县大武镇,颗粒物(PM10),51,52,51,13,12,72,,33,33,5,11,28,16,0.7,0.5
2026-01-29T1100,1130A,126.5557,45.8109,哈尔滨市,松北商大,细颗粒物(PM2.5),99,82,50,74,44,45,,33,33,35,32,48,9,0.9,0.7
2026-01-29T1100,1132A,126.6162,45.719,哈尔滨市,南岗学府路,颗粒物(PM10),55,60,45,35,31,62,,44,43,19,21,13,21,0.7,0.7
2026-01-29T1100,1133A,126.6894,45.7733,哈尔滨市,太平宏伟公园,颗粒物(PM10),54,58,37,33,29,61,,58,,20,19,22,17,0.6,0.6
2026-01-29T1100,1134A,126.6361,45.7672,哈尔滨市,道外承德广场,细颗粒物(PM2.5),63,69,56,45,30,54,,54,50,28,23,22,11,0.9,0.7
2026-01-29T1100,1136A,126.644,45.7261,哈尔滨市,动力和平路,颗粒物(PM10),53,55,43,36,31,60,,51,49,20,23,13,16,1.0,0.9
2026-01-29T1100,1137A,126.5933,45.7479,哈尔滨市,道里建国路,细颗粒物(PM2.5),73,63,44,53,37,54,,48,46,27,31,8,11,1.3,1.2
2026-01-29T1100,1138A,126.6127,45.6119,哈尔滨市,平房东轻厂,细颗粒物(PM2.5),89,84,82,66,74,44,,23,23,27,56,10,14,0.9,1.1
2026-01-29T1100,1139A,126.5875,45.9827,哈尔滨市,呼兰师专,细颗粒物(PM2.5),118,114,67,89,57,52,,38,38,22,32,11,11,1.0,0.9
2026-01-29T1100,1140A,126.6299,45.6799,哈尔滨市,省农科院,细颗粒物(PM2.5),105,99,56,79,48,50,,20,20,29,34,14,13,0.9,0.9
2026-01-29T1100,4282A,126.6769,45.7379,哈尔滨市,华山路1号,颗粒物(PM10),54,58,38,30,25,49,,54,50,30,22,45,18,0.6,0.5
2026-01-29T1100,4283A,126.9717,45.5356,哈尔滨市,解放大街52号,细颗粒物(PM2.5),182,144,98,137,79,47,,27,27,34,43,12,8,1.5,1.2
2026-01-29T1100,2688A,93.5124,42.8176,哈密市,地区监测站,细颗粒物(PM2.5),85,112,128,63,53,31,,43,38,30,18,14,11,0.6,0.3
2026-01-29T1100,2689A,93.5014,42.8312,哈密市,哈密师范学校,,,,131,,42,,,54,39,,24,,9,,0.6
2026-01-29T1100,2671A,100.9016,36.9464,海北藏族自治州,海晏县西海镇,颗粒物(PM10),97,143,125,63,41,79,,85,85,10,12,12,17,0.8,0.7
2026-01-29T1100,3867A,102.074,36.5056,海东市,平安区公安局北苑,,,,167,,68,43,,41,36,24,23,18,27,1.0,1.1
2026-01-29T1100,4163A,102.0984,36.5119,海东市,滨河路,颗粒物(PM10),118,185,180,68,88,50,,15,15,31,52,21,32,0.9,1
2026-01-29T1100,1410A,110.3189,20.0596,海口市,海南大学,,29,22,36,11,23,90,,94,88,9,11,6,6,0.4,0.5
2026-01-29T1100,1411A,110.2827,20.0051,海口市,秀英海南医院,,33,33,43,10,20,87,,84,80,10,13,7,8,0.3,0.4
2026-01-29T1100,1412A,110.3391,19.9979,海口市,海南师范大学,,38,38,42,11,21,91,,88,83,9,16,6,6,0.4,0.5
2026-01-29T1100,1413A,110.3303,20.0359,海口市,龙华路环保局宿舍,,,31,48,10,22,,,96,91,10,13,/,/,0.4,0.6
2026-01-29T1100,3539A,110.5111,19.9737,海口市,桂林洋子站,,29,27,32,11,20,92,,86,84,6,9,/,/,/,/
2026-01-29T1100,4134A,110.1952,20.0451,海口市,长滨二路9号,,27,21,37,10,26,84,,84,80,9,12,/,/,/,/
2026-01-29T1100,2673A,100.6158,36.2985,海南藏族自治州,共和县恰卜恰镇,细颗粒物(PM2.5),109,150,92,82,63,85,,53,53,12,24,14,13,0.7,0.7
2026-01-29T1100,2676A,97.373,37.376,海西蒙古族藏族自治州,德令哈市,颗粒物(PM10),108,165,253,36,39,91,,83,83,4,8,19,14,0.4,0.6
2026-01-29T1100,1049A,114.492,36.5712,邯郸市,矿院,细颗粒物(PM2.5),112,117,168,84,143,21,,6,6,21,46,1,6,0.7,1.1
2026-01-29T1100,1050A,114.4839,36.6136,邯郸市,丛台公园,,,,184,84,139,22,,11,11,27,54,2,6,0.6,1.1
2026-01-29T1100,3458A,114.7893,36.5592,邯郸市,香泉濮院小区,细颗粒物(PM2.5),80,98,211,59,134,22,,9,9,23,55,2,7,0.5,1.2
2026-01-29T1100,3580A,114.1998,36.4439,邯郸市,峰峰矿区临水派出所,细颗粒物(PM2.5),125,120,157,95,126,33,,24,24,25,36,3,9,0.9,1.1
2026-01-29T1100,4068A,114.5209,36.7697,邯郸市,建安街268号,细颗粒物(PM2.5),107,95,159,80,124,16,,5,5,,68,2,6,0.4,0.9
2026-01-29T1100,4069A,114.5488,36.6177,邯郸市,丛台东路558号,细颗粒物(PM2.5),117,109,175,88,152,21,,5,5,18,50,2,6,0.6,1.2
2026-01-29T1100,2635A,107.0155,33.0707,汉中市,市监测站,,,,168,,58,51,,55,55,14,26,,6,0.8,1
2026-01-29T1100,2636A,107.0083,33.114,汉中市,鑫源开发区,颗粒物(PM10),79,107,153,54,54,58,,62,62,13,23,4,5,0.6,0.7
2026-01-29T1100,2637A,107.0072,33.0323,汉中市,南郑大河坎水厂,颗粒物(PM10),89,127,180,54,79,51,,47,47,14,28,5,6,0.8,1.1
2026-01-29T1100,1223A,120.2073,30.2111,杭州市,滨江,颗粒物(PM10),59,67,72,36,45,30,,24,19,48,45,9,7,0.6,0.5
2026-01-29T1100,1224A,120.0625,30.2737,杭州市,西溪,细颗粒物(PM2.5),59,62,72,42,39,36,,18,14,46,39,10,9,1.0,0.9
2026-01-29T1100,1226A,120.3417,30.315,杭州市,下沙,,45,45,61,19,34,52,,18,18,28,44,10,8,0.7,0.8
2026-01-29T1100,1227A,120.1252,30.2465,杭州市,卧龙桥,颗粒物(PM10),53,55,64,32,38,34,,15,15,42,33,12,10,0.3,0.3
2026-01-29T1100,1228A,120.1902,30.2691,杭州市,浙江农大,颗粒物(PM10),56,61,63,35,36,36,,26,19,54,49,8,6,0.7,0.7
2026-01-29T1100,1230A,120.1195,30.3121,杭州市,和睦小学,,,66,69,37,43,35,,23,19,42,39,8,6,,0.7
2026-01-29T1100,1231A,120.3076,30.4146,杭州市,临平镇,,31,31,57,17,33,62,,24,24,13,32,7,7,0.5,0.6
2026-01-29T1100,1232A,120.2753,30.1839,杭州市,城厢镇,颗粒物(PM10),60,70,79,30,40,24,,17,11,55,51,12,9,0.6,0.5
2026-01-29T1100,1233A,120.0883,30.1808,杭州市,云栖,颗粒物(PM10),56,61,67,36,36,31,,13,13,50,37,7,4,0.8,0.7
2026-01-29T1100,3557A,119.9463,30.0496,杭州市,镇二中,,49,44,66,34,54,34,,15,15,38,41,5,5,0.8,0.8
2026-01-29T1100,3558A,119.7184,30.2367,杭州市,市府大楼,细颗粒物(PM2.5),60,51,79,43,61,26,,15,15,36,34,11,10,0.5,0.8
2026-01-29T1100,3656A,120.1554,30.2863,杭州市,消防大队,颗粒物(PM10),58,66,69,38,45,32,,23,15,44,41,8,6,0.5,0.3
2026-01-29T1100,1270A,117.1957,31.7845,合肥市,明珠广场,细颗粒物(PM2.5),94,117,110,70,71,24,,24,22,44,43,8,6,0.9,0.9
2026-01-29T1100,1271A,117.307,31.8765,合肥市,三里街,细颗粒物(PM2.5),94,107,110,70,71,21,,22,20,49,52,7,6,1.0,0.9
2026-01-29T1100,1272A,117.2587,31.8703,合肥市,琥珀山庄,细颗粒物(PM2.5),102,129,113,76,78,30,,36,33,43,38,9,7,1.0,0.9
2026-01-29T1100,1275A,117.2593,31.9376,合肥市,庐阳区,细颗粒物(PM2.5),90,107,121,67,75,31,,28,28,52,59,6,5,1.0,1
2026-01-29T1100,1276A,117.345251,31.861615,合肥市,瑶海区,细颗粒物(PM2.5),80,102,115,59,72,29,,30,29,50,52,6,5,0.8,0.8
2026-01-29T1100,1277A,117.3033,31.7967,合肥市,包河区,细颗粒物(PM2.5),84,114,113,62,72,29,,9,9,50,66,8,7,1.0,0.9
2026-01-29T1100,1278A,117.278,31.7392,合肥市,滨湖新区,细颗粒物(PM2.5),104,105,109,78,78,34,,29,23,33,35,3,3,1.0,0.9
2026-01-29T1100,1279A,117.1324,31.8395,合肥市,高新区,细颗粒物(PM2.5),99,119,107,74,71,30,,35,31,48,43,5,4,0.9,0.8
2026-01-29T1100,3464A,117.3802,31.9148,合肥市,高教基地,细颗粒物(PM2.5),77,95,103,56,66,36,,31,31,43,39,10,8,0.8,0.8
2026-01-29T1100,4098A,117.2518,31.8404,合肥市,中国科学技术大学,细颗粒物(PM2.5),89,107,106,66,70,31,,36,34,37,34,10,9,1.0,1
2026-01-29T1100,3614A,79.9241,37.0878,和田地区,地区环保局,颗粒物(PM10),164,278,310,102,100,20,,51,48,55,28,16,6,2.0,1.4
2026-01-29T1100,3615A,79.9132,37.1137,和田地区,市环保局,颗粒物(PM10),194,338,328,80,80,6,,32,22,81,30,10,4,6.6,1.4
2026-01-29T1100,2517A,108.0496,24.6957,河池市,市环保站,细颗粒物(PM2.5),93,80,52,69,26,18,,5,5,35,27,4,3,1.2,1
2026-01-29T1100,4302A,108.0901,24.6945,河池市,上任中路54号,细颗粒物(PM2.5),82,98,53,60,38,14,,4,4,39,22,6,6,1.1,1
2026-01-29T1100,1697A,114.6962,23.7538,河源市,东埔,,40,40,27,27,22,35,,36,32,27,22,6,6,0.7,0.7
2026-01-29T1100,1698A,114.6895,23.7232,河源市,老城,,38,36,31,26,22,34,,37,34,21,18,7,6,1.0,0.9
2026-01-29T1100,3374A,115.5562,35.089,菏泽市,定陶老年大学,细颗粒物(PM2.5),149,158,120,114,77,43,,31,25,33,24,8,5,1.4,1.1
2026-01-29T1100,4114A,115.4239,35.2593,菏泽市,黄河路600号,细颗粒物(PM2.5),243,248,159,193,105,32,,18,15,43,34,4,3,1.3,0.8
2026-01-29T1100,4115A,115.5025,35.2727,菏泽市,菏泽市人社局,细颗粒物(PM2.5),235,241,148,185,100,27,,12,11,38,32,10,8,1.3,0.9
2026-01-29T1100,4184A,115.479691,35.244011,菏泽市,永昌路1号,细颗粒物(PM2.5),233,257,147,183,98,29,,22,16,37,31,6,4,0.9,0.5
2026-01-29T1100,4193A,115.471542,35.280012,菏泽市,长城路999号,细颗粒物(PM2.5),228,239,149,178,97,26,,14,11,44,34,19,18,1.4,1
2026-01-29T1100,2514A,111.5264,24.4178,贺州市,环保小区,细颗粒物(PM2.5),65,56,52,47,44,25,,33,24,25,20,4,4,0.9,0.8
2026-01-29T1100,2515A,111.561,24.4074,贺州市,政协大楼,细颗粒物(PM2.5),73,59,51,53,46,27,,33,25,32,33,17,11,1.0,0.9
2026-01-29T1100,3534A,111.4744,24.455,贺州市,西湾,细颗粒物(PM2.5),58,56,56,41,45,30,,30,25,26,20,9,8,1.0,0.9
2026-01-29T1100,2385A,114.17,35.9019,鹤壁市,市监测站,细颗粒物(PM2.5),175,171,252,132,202,15,,10,10,39,48,5,7,1.0,1.5
2026-01-29T1100,2386A,114.2953,35.7512,鹤壁市,市交警支队,细颗粒物(PM2.5),179,176,267,135,207,16,,13,12,38,51,6,7,1.0,1.4
2026-01-29T1100,2387A,114.2877,35.7302,鹤壁市,迎宾馆,细颗粒物(PM2.5),163,179,262,124,194,17,,15,14,37,47,7,7,1.2,1.5
2026-01-29T1100,3474A,114.2616,35.6824,鹤壁市,大新区,细颗粒物(PM2.5),159,166,266,121,197,22,,18,17,35,46,6,9,1.1,1.5
2026-01-29T1100,3596A,114.1573,35.9607,鹤壁市,南山宾馆,细颗粒物(PM2.5),188,178,261,141,194,22,,17,16,43,53,4,8,1.0,1.4
2026-01-29T1100,2244A,130.2537,47.3416,鹤岗市,哈啤分公司,,25,24,24,3,14,78,,82,80,3,7,6,6,0.4,0.2
2026-01-29T1100,2245A,130.2683,47.3087,鹤岗市,斯达机电,,23,20,29,3,10,71,,72,71,6,10,4,5,0.5,0.5
2026-01-29T1100,2246A,130.3114,47.3388,鹤岗市,东山纸板厂,,24,24,28,3,10,75,,75,74,4,11,5,6,0.3,0.4
2026-01-29T1100,2263A,127.4832,50.2524,黑河市,交通局,,30,15,16,9,14,94,,97,95,7,9,4,4,0.3,0.3
2026-01-29T1100,2264A,127.5146,50.2339,黑河市,环保局,,,,14,8,8,,,69,69,8,11,4,5,0.5,0.5
2026-01-29T1100,1074A,115.6839,37.754,衡水市,电机北厂,细颗粒物(PM2.5),74,71,161,54,112,14,,18,18,33,47,5,8,0.6,0.8
2026-01-29T1100,1075A,115.6303,37.7318,衡水市,市监测站,颗粒物(PM10),57,64,146,32,109,16,,22,22,32,44,6,7,0.6,0.8
2026-01-29T1100,3188A,115.6684,37.7216,衡水市,市城管局,细颗粒物(PM2.5),65,62,155,47,105,20,,24,24,30,45,7,8,0.6,0.9
2026-01-29T1100,3459A,115.599,37.5491,衡水市,地表水厂,颗粒物(PM10),55,60,156,36,136,24,,25,25,22,42,3,6,0.4,0.9
2026-01-29T1100,2457A,112.6209,26.9268,衡阳市,衡阳化工总厂,"颗粒物(PM10),细颗粒物(PM2.5)",62,73,66,44,40,19,,23,22,17,21,16,8,1.1,1.1
2026-01-29T1100,2458A,112.621,26.8957,衡阳市,珠晖区环保局,颗粒物(PM10),69,87,67,38,40,13,,13,13,29,30,8,4,1.2,1.2
2026-01-29T1100,2459A,112.628,26.8654,衡阳市,市委党校,,,53,62,33,41,,,17,17,19,19,11,9,1.3,1.3
2026-01-29T1100,2460A,112.6007,26.8977,衡阳市,市监测站,颗粒物(PM10),64,77,84,40,39,13,,19,19,27,27,13,6,1.3,1.2
2026-01-29T1100,2461A,112.5658,26.9013,衡阳市,真空机电公司,细颗粒物(PM2.5),60,59,77,43,44,18,,18,18,24,31,16,7,1.3,1.3
2026-01-29T1100,3399A,112.6703,26.8817,衡阳市,师范学院,,,52,67,,40,22,,16,16,21,26,4,3,1.0,1
2026-01-29T1100,3038A,103.3757,23.3679,红河哈尼族彝族自治州,州图书馆,,48,,35,33,27,78,,71,71,5,5,6,6,0.5,0.5
2026-01-29T1100,4154A,103.401,23.3561,红河哈尼族彝族自治州,蒙自市朝阳路,,38,28,23,26,25,80,,73,73,4,4,6,6,0.3,0.3
2026-01-29T1100,1090A,111.6506,40.7517,呼和浩特市,呼市一监,,41,41,78,10,34,59,,47,47,18,34,6,10,0.5,0.7
2026-01-29T1100,1094A,111.7516,40.8369,呼和浩特市,如意水处理厂,,,41,83,17,35,52,,29,25,,47,,12,0.8,0.8
2026-01-29T1100,1095A,111.727798,40.806187,呼和浩特市,二十九中,,45,45,84,26,36,50,,37,36,23,36,10,13,0.5,0.6
2026-01-29T1100,1097A,111.717,40.7617,呼和浩特市,化肥厂生活区,,33,33,85,10,37,67,,57,57,15,36,5,7,0.3,0.6
2026-01-29T1100,3699A,111.6519,40.8389,呼和浩特市,海东办,,,31,76,13,29,46,,33,33,32,35,,8,0.6,0.6
2026-01-29T1100,4275A,111.591512,40.827312,呼和浩特市,成吉思汗西街8号,,48,48,83,17,30,41,,49,37,36,30,6,9,0.7,0.6
2026-01-29T1100,4276A,111.6597,40.8077,呼和浩特市,公园东路75号,,36,36,82,16,32,49,,41,41,35,38,6,9,0.7,0.8
2026-01-29T1100,4277A,111.5427,40.7846,呼和浩特市,金海路35号,,46,46,82,16,33,44,,40,33,36,39,8,8,0.6,0.6
2026-01-29T1100,3061A,119.7511,49.1576,呼伦贝尔市,国华电力东,,42,37,35,29,27,54,,47,46,22,23,6,6,0.3,0.4
2026-01-29T1100,4279A,119.7569,49.2222,呼伦贝尔市,伊敏大街东7号,,40,40,39,22,28,42,,27,27,26,33,6,7,0.7,0.4
2026-01-29T1100,1250A,120.075,30.867,湖州市,城西水厂,,31,31,54,16,33,60,,38,32,35,39,6,6,0.2,0.4
2026-01-29T1100,2873A,120.083,30.8929,湖州市,仁皇山新区,,32,32,56,17,36,54,,28,26,44,46,6,6,0.5,0.6
2026-01-29T1100,2907A,120.1846,30.8592,湖州市,吴兴区站,,36,36,57,14,30,54,,38,35,28,36,5,5,0.3,0.4
2026-01-29T1100,3562A,120.4146,30.8538,湖州市,南浔区站,,,26,45,14,27,55,,36,35,28,32,,6,0.5,0.5
2026-01-29T1100,1607A,120.904878,40.721091,葫芦岛市,龙港区,颗粒物(PM10),69,88,89,30,62,69,,22,22,27,44,51,32,0.9,1.3
2026-01-29T1100,1608A,120.8382,40.7521,葫芦岛市,化工街,,44,44,82,30,51,56,,17,17,25,48,16,42,0.5,0.8
2026-01-29T1100,1609A,120.8339,40.7078,葫芦岛市,新区,,,72,58,32,43,,,8,8,38,50,19,18,,0.9
2026-01-29T1100,1610A,120.8697,40.7679,葫芦岛市,东城区,颗粒物(PM10),56,61,69,39,53,54,,17,17,31,43,30,37,0.9,1.1
2026-01-29T1100,2483A,109.9297,27.5383,怀化市,河西地税局,细颗粒物(PM2.5),97,142,119,72,71,47,,44,44,22,27,7,4,/,/
2026-01-29T1100,2484A,109.9783,27.5342,怀化市,市四医院,颗粒物(PM10),90,130,123,64,72,44,,28,28,14,18,4,7,0.8,0.9
2026-01-29T1100,2485A,109.9971,27.5579,怀化市,监测楼,颗粒物(PM10),93,135,114,67,69,42,,28,28,22,25,4,7,0.5,0.6
2026-01-29T1100,1210A,119.0566,33.5991,淮安市,钵池山,,39,39,47,19,31,61,,42,42,15,26,8,7,0.3,0.3
2026-01-29T1100,1211A,119.0083,33.578,淮安市,北京南路,颗粒物(PM10),51,51,52,17,27,59,,45,42,16,25,8,7,0.4,0.5
2026-01-29T1100,1212A,118.9938,33.6083,淮安市,市监测站,,34,34,36,18,29,62,,51,47,17,22,9,9,0.6,0.6
2026-01-29T1100,1213A,119.135,33.5038,淮安市,楚州区监测站,,39,39,48,23,24,59,,36,36,13,27,9,8,0.5,0.4
2026-01-29T1100,3426A,118.8757,33.2897,淮安市,新华书店,,,33,50,19,32,,,31,29,12,28,8,8,0.8,0.9
2026-01-29T1100,4092A,119.119691,33.550006,淮安市,枚皋中路89号,颗粒物(PM10),52,54,50,21,31,65,,49,47,14,20,9,9,0.8,0.8
2026-01-29T1100,4206A,119.028838,33.631911,淮安市,承德北路606号,颗粒物(PM10),51,51,62,19,32,59,,32,31,13,27,7,6,0.5,0.5
2026-01-29T1100,2282A,116.8005,33.9749,淮北市,监测站,颗粒物(PM10),73,95,111,52,66,49,,42,36,23,24,5,5,0.5,0.6
2026-01-29T1100,2283A,116.8094,33.9008,淮北市,烈山区政府,,,81,95,53,64,,,47,38,22,27,5,4,0.4,0.5
2026-01-29T1100,4017A,116.7926,33.9534,淮北市,市博物馆,细颗粒物(PM2.5),73,79,107,53,64,49,,53,47,20,18,4,4,0.7,0.6
2026-01-29T1100,4100A,116.8322,33.9884,淮北市,杜集区第一实验学校,细颗粒物(PM2.5),70,83,112,51,71,155,,46,46,23,26,6,4,0.4,0.6
2026-01-29T1100,2277A,116.8304,32.7726,淮南市,潘集区政府,细颗粒物(PM2.5),98,107,113,73,81,32,,18,18,32,32,6,5,0.6,0.6
2026-01-29T1100,2279A,116.8569,32.5949,淮南市,谢家集区政府,细颗粒物(PM2.5),105,97,97,79,65,46,,22,22,27,31,9,8,0.9,0.8
2026-01-29T1100,2280A,116.8279,32.6333,淮南市,八公山区政府,细颗粒物(PM2.5),105,108,102,79,72,44,,21,21,27,29,8,7,0.8,0.8
2026-01-29T1100,2894A,117.0561,32.6536,淮南市,经济技术开发区消防队,细颗粒物(PM2.5),87,106,109,64,65,37,,29,25,36,38,6,5,0.8,0.9
2026-01-29T1100,3329A,117.011,32.5891,淮南市,山南新区,细颗粒物(PM2.5),95,98,99,71,71,45,,58,54,35,26,8,7,0.7,0.6
2026-01-29T1100,4209A,117.003137,32.644456,淮南市,国庆中路369号,,,78,104,70,75,31,,30,26,34,33,10,9,,0.7
2026-01-29T1100,2446A,114.9021,30.474,黄冈市,职工中心,,48,48,55,32,35,34,,43,38,23,19,7,7,0.8,0.7
2026-01-29T1100,2929A,114.8858,30.4519,黄冈市,红卫路,,48,42,46,33,36,38,,44,39,21,17,8,8,0.2,0.3
2026-01-29T1100,3398A,114.9134,30.4446,黄冈市,市林业局,细颗粒物(PM2.5),60,55,55,43,33,28,,37,31,24,19,5,4,0.5,0.5
2026-01-29T1100,2672A,102.02,35.5101,黄南藏族自治州,同仁县隆务镇,细颗粒物(PM2.5),158,215,145,120,70,57,,74,72,29,7,18,11,1.3,0.6
2026-01-29T1100,2295A,118.2905,29.6965,黄山市,延安路89号,细颗粒物(PM2.5),72,59,42,52,35,38,,20,20,17,14,4,4,0.8,0.8
2026-01-29T1100,2297A,118.1369,30.2755,黄山市,黄山区政府5号楼,颗粒物(PM10),55,60,46,32,30,41,,16,16,13,15,2,2,0.7,0.7
2026-01-29T1100,4210A,118.335445,29.720283,黄山市,滨江东路7-2号,细颗粒物(PM2.5),73,85,64,53,37,42,,31,31,13,13,/,/,/,/
2026-01-29T1100,2423A,115.0547,30.2332,黄石市,沈家营,细颗粒物(PM2.5),75,75,54,55,27,27,,36,31,36,20,12,8,1.0,0.9
2026-01-29T1100,2426A,114.899,30.211,黄石市,铁山,细颗粒物(PM2.5),77,,54,56,46,45,,51,44,18,14,7,7,0.8,0.8
2026-01-29T1100,2427A,115.0259,30.2108,黄石市,团城山,细颗粒物(PM2.5),77,57,56,56,36,36,,37,30,26,18,8,7,0.9,0.8
2026-01-29T1100,3149A,115.0174,30.1591,黄石市,笔架山北路,细颗粒物(PM2.5),84,111,77,62,40,32,,42,35,25,18,11,8,0.9,0.7
2026-01-29T1100,4185A,115.078022,30.21118,黄石市,磁湖东路29号,,,68,51,51,35,,,25,15,29,29,7,7,1.3,1.2
2026-01-29T1100,1392A,114.4181,23.0528,惠州市,河南岸金山湖子站,,47,47,40,28,25,39,,67,52,30,19,7,5,0.9,0.9
2026-01-29T1100,1393A,114.4055,23.0824,惠州市,下埔横江三路子站,,46,46,44,28,27,50,,70,54,21,17,9,8,0.8,0.8
2026-01-29T1100,1395A,114.4645,22.7832,惠州市,惠阳区承修路船湖子站,,42,35,45,29,31,83,,84,81,15,16,6,6,0.7,0.8
2026-01-29T1100,1396A,114.5316,22.7423,惠州市,大亚湾管委会子站,,35,34,45,24,28,79,,80,74,22,16,7,6,0.6,0.7
2026-01-29T1100,3314A,114.4334,22.8134,惠州市,惠阳秋长,,,,45,,27,91,,93,87,,20,/,/,/,/
2026-01-29T1100,3452A,114.6521,22.7755,惠州市,大亚湾霞涌,,36,30,42,25,27,91,,93,89,15,14,/,/,/,/
2026-01-29T1100,4300A,114.4089,23.1147,惠州市,文华一路1号,,39,39,43,25,26,48,,67,54,25,20,/,/,/,/
2026-01-29T1100,2240A,130.9618,45.2926,鸡西市,环保局,,22,17,26,11,17,70,,72,70,8,8,6,6,0.2,0.3
2026-01-29T1100,2243A,130.9294,45.2959,鸡西市,第一中学,,23,15,22,8,16,72,,72,72,5,8,3,2,0.3,0.3
2026-01-29T1100,3707A,131.0069,45.2988,鸡西市,欧美日汽修厂,,,22,29,9,18,,,69,67,11,8,9,7,0.3,0.3
2026-01-29T1100,2367A,114.9753,27.0803,吉安市,红声器材厂,颗粒物(PM10),56,62,52,37,25,18,,7,7,32,29,8,7,0.9,0.8
2026-01-29T1100,2369A,114.9903,27.1313,吉安市,市环境监测站,颗粒物(PM10),55,60,50,33,29,23,,34,24,34,24,8,7,/,/
2026-01-29T1100,2370A,115.009527,27.096792,吉安市,青原区法院,颗粒物(PM10),55,60,50,34,26,12,,13,13,32,29,11,10,1.0,0.9
2026-01-29T1100,1772A,126.54,43.8622,吉林市,哈达湾,细颗粒物(PM2.5),83,68,59,61,52,59,,45,45,23,27,10,9,1.1,1
2026-01-29T1100,1773A,126.5843,43.8358,吉林市,东局子,细颗粒物(PM2.5),95,81,63,71,53,32,,25,17,37,31,19,7,1.2,1.1
2026-01-29T1100,1774A,126.5051,43.8243,吉林市,电力学院,细颗粒物(PM2.5),107,86,82,80,70,53,,35,35,31,34,10,9,1.2,1.1
2026-01-29T1100,1775A,126.6133,43.8971,吉林市,江北,细颗粒物(PM2.5),94,77,91,70,77,42,,29,29,18,19,11,9,1.1,1.3
2026-01-29T1100,1776A,126.5549,43.8304,吉林市,江南公园,细颗粒物(PM2.5),95,74,66,71,57,48,,32,30,26,32,23,11,0.7,0.7
2026-01-29T1100,2868A,126.4737,43.953,吉林市,九站,细颗粒物(PM2.5),90,72,67,67,58,54,,33,33,25,36,9,7,1.0,0.9
2026-01-29T1100,1299A,116.9866,36.6118,济南市,科干所,细颗粒物(PM2.5),153,180,148,117,87,17,,20,13,56,39,16,11,1.3,0.9
2026-01-29T1100,1300A,116.9379,36.6652,济南市,农科所,细颗粒物(PM2.5),172,181,170,130,112,12,,5,5,54,49,19,10,1.3,1.1
2026-01-29T1100,1301A,117.1265,36.6736,济南市,开发区,细颗粒物(PM2.5),182,183,154,137,105,20,,6,6,58,53,13,7,1.4,1.2
2026-01-29T1100,1303A,117.0616,36.6865,济南市,省种子仓库,细颗粒物(PM2.5),173,202,170,131,113,17,,9,9,55,50,16,11,1.2,1
2026-01-29T1100,1304A,116.9495185,36.644937,济南市,机床二厂,细颗粒物(PM2.5),170,183,173,129,118,13,,3,3,52,50,18,15,1.3,1.1
2026-01-29T1100,1305A,117.0496,36.6629,济南市,市监测站,细颗粒物(PM2.5),192,190,168,144,114,18,,4,4,54,50,15,9,1.3,1.1
2026-01-29T1100,1306A,116.7674,36.5458,济南市,长清党校,细颗粒物(PM2.5),165,190,162,125,97,16,,6,6,51,48,17,9,1.3,1
2026-01-29T1100,1961A,117.5323,36.6865,济南市,东山小学,细颗粒物(PM2.5),170,186,139,129,86,29,,13,13,41,42,7,7,0.8,0.6
2026-01-29T1100,3059A,117.7181,36.205,济南市,泰兴公司,细颗粒物(PM2.5),140,163,137,107,98,40,,12,12,47,55,10,8,1.1,1.1
2026-01-29T1100,3064A,117.6861,36.2172,济南市,莱芜战役纪念馆,细颗粒物(PM2.5),147,166,130,112,87,38,,8,8,47,51,12,9,1.0,1
2026-01-29T1100,3494A,117.1673,36.9782,济南市,济阳区政府,细颗粒物(PM2.5),88,90,149,65,98,45,,30,30,22,37,8,6,0.7,1
2026-01-29T1100,3495A,117.1168,36.6299,济南市,锦屏中学,细颗粒物(PM2.5),189,198,128,142,83,23,,37,24,59,32,10,4,1.0,0.6
2026-01-29T1100,4108A,117.7107,36.2385,济南市,山财大街5号,细颗粒物(PM2.5),129,144,115,98,73,52,,15,15,50,63,11,10,1.1,1
2026-01-29T1100,4109A,116.9744,36.6889,济南市,无影山路12号,细颗粒物(PM2.5),170,183,166,129,109,16,,9,9,56,52,20,13,1.4,1.2
2026-01-29T1100,1653A,116.6229,35.4288,济宁市,火炬城,细颗粒物(PM2.5),107,98,116,80,88,,,8,0,54,38,,3,0.6,0.7
2026-01-29T1100,3500A,116.5808,35.3703,济宁市,北湖一中,细颗粒物(PM2.5),65,75,110,47,78,61,,26,26,33,38,6,4,0.6,0.7
2026-01-29T1100,3501A,116.8251,35.5592,济宁市,服务中心,细颗粒物(PM2.5),137,178,144,104,94,16,,4,4,50,34,6,4,0.9,0.8
2026-01-29T1100,3678A,116.5907,35.4054,济宁市,市第七中学,细颗粒物(PM2.5),73,86,116,53,85,68,,30,30,32,36,7,7,0.5,0.7
2026-01-29T1100,4111A,116.6075,35.4566,济宁市,任和路,细颗粒物(PM2.5),94,131,144,70,86,34,,6,6,51,47,6,5,0.7,0.8
2026-01-29T1100,4112A,116.5648,35.3921,济宁市,文体南路1号,,,108,131,44,81,70,,21,21,34,41,,4,0.5,0.7
2026-01-29T1100,2255A,130.2749,46.8028,佳木斯市,佳纺,,40,40,50,19,38,64,,59,59,10,18,4,7,0.6,0.7
2026-01-29T1100,2257A,130.3258,46.7975,佳木斯市,环保局,,46,46,48,24,31,63,,58,58,14,23,6,7,0.5,0.7
2026-01-29T1100,4285A,130.363,46.806,佳木斯市,顺和街,,39,39,41,16,27,58,,56,55,16,20,8,9,0.4,0.5
2026-01-29T1100,4286A,130.3952,46.8268,佳木斯市,长安路196号,,34,34,43,14,30,71,,66,66,11,19,4,6,0.6,0.6
2026-01-29T1100,1252A,120.7439,30.778,嘉兴市,清河小学,,35,35,40,16,23,58,,36,36,27,32,6,5,0.3,0.3
2026-01-29T1100,1253A,120.7261,30.7477,嘉兴市,嘉兴学院,,38,38,40,14,20,58,,30,30,25,33,6,5,1.3,1.3
2026-01-29T1100,2872A,120.7845,30.7524,嘉兴市,南湖区残联,,27,27,37,15,22,61,,29,29,28,38,5,4,0.3,0.4
2026-01-29T1100,3407A,120.6915,30.7741,嘉兴市,秀洲住建,,34,34,40,15,22,60,,35,35,27,37,7,6,0.3,0.3
2026-01-29T1100,1945A,98.291,39.7705,嘉峪关市,气象局,颗粒物(PM10),328,442,301,92,67,40,,56,53,30,19,29,14,0.8,0.6
2026-01-29T1100,2884A,98.2672,39.7978,嘉峪关市,酒钢宾馆,颗粒物(PM10),355,464,316,97,72,36,,58,52,29,19,23,19,0.7,0.6
2026-01-29T1100,3248A,98.2644,39.7723,嘉峪关市,雄关区,颗粒物(PM10),246,382,281,84,65,39,,51,49,30,24,15,19,0.5,0.5
2026-01-29T1100,1383A,113.1063,22.6058,江门市,北街,颗粒物(PM10),55,59,60,33,46,77,,66,66,35,37,/,/,/,/
2026-01-29T1100,1384A,113.073,22.5835,江门市,西区,颗粒物(PM10),52,54,70,34,48,76,,67,67,34,37,/,/,/,/
2026-01-29T1100,1385A,113.0218,22.531,江门市,圭峰西,颗粒物(PM10),52,53,59,30,43,82,,70,69,25,28,/,/,/,/
2026-01-29T1100,1386A,113.0826,22.5947,江门市,东湖,,47,47,68,32,44,80,,68,68,30,30,7,8,0.6,0.8
2026-01-29T1100,3311A,113.1077,22.5647,江门市,江海富民,,,84,83,,44,74,,68,67,,40,/,/,0.6,0.9
2026-01-29T1100,3449A,113.0496,22.4669,江门市,新会银湖,,44,44,62,26,47,80,,47,47,19,33,7,8,0.6,0.7
2026-01-29T1100,3335A,113.3137,35.2643,焦作市,马村街道办,细颗粒物(PM2.5),231,224,246,181,193,39,,24,24,32,38,2,5,1.2,1.3
2026-01-29T1100,3336A,113.2464,35.2374,焦作市,焦作技师学院,细颗粒物(PM2.5),221,230,257,171,182,38,,24,24,32,38,6,7,1.5,1.6
2026-01-29T1100,3477A,113.1656,35.2536,焦作市,中站许衡医院,细颗粒物(PM2.5),216,219,244,166,179,33,,36,28,37,34,5,6,1.4,1.4
2026-01-29T1100,3981A,113.2456,35.18,焦作市,原李万街道办,细颗粒物(PM2.5),225,219,233,175,182,32,,28,23,32,32,4,6,1.2,1.2
2026-01-29T1100,4264A,113.234,35.219,焦作市,新安路1731号,细颗粒物(PM2.5),228,233,263,178,196,44,,28,27,31,36,11,8,1.5,1.4
2026-01-29T1100,4295A,113.2722,35.2121,焦作市,人民路3066号,细颗粒物(PM2.5),218,219,261,168,175,38,,23,23,34,38,4,8,1.3,1.4
2026-01-29T1100,1708A,116.3701,23.5345,揭阳市,新兴,颗粒物(PM10),51,51,40,32,28,63,,59,53,24,22,18,11,0.8,0.7
2026-01-29T1100,1709A,116.3261,23.5442,揭阳市,西马,,40,40,47,28,29,68,,59,54,15,17,8,7,0.7,0.7
2026-01-29T1100,1710A,116.361,23.5627,揭阳市,东兴,,,55,42,,28,69,,62,56,,21,,11,/,/
2026-01-29T1100,1711A,116.4151,23.5295,揭阳市,渔湖,,48,48,41,30,26,67,,61,53,22,19,14,13,/,/
2026-01-29T1100,3320A,116.4028,23.5699,揭阳市,曲溪,,48,48,46,32,28,67,,77,56,21,17,22,11,0.7,0.8
2026-01-29T1100,1944A,102.1691,38.5166,金昌市,天庆家园,颗粒物(PM10),112,173,187,48,60,59,,64,63,10,13,8,20,0.8,0.9
2026-01-29T1100,4022A,102.1648,38.5369,金昌市,金川区人防中心,颗粒物(PM10),117,184,184,52,64,68,,65,65,8,9,8,12,0.5,0.6
2026-01-29T1100,4239A,102.193042,38.531887,金昌市,长春路96号,颗粒物(PM10),105,160,168,41,51,,,61,59,,11,,12,,0.8
2026-01-29T1100,1262A,119.6478,29.0773,金华市,十五中,颗粒物(PM10),61,72,114,41,70,48,,32,32,37,47,4,4,0.4,0.5
2026-01-29T1100,1263A,119.6859,29.1032,金华市,监测站,颗粒物(PM10),64,78,119,41,70,36,,16,16,39,56,3,3,0.3,0.4
2026-01-29T1100,3659A,119.656,29.1132,金华市,气象局,颗粒物(PM10),57,64,114,33,64,44,,24,24,39,54,4,4,0.7,0.7
2026-01-29T1100,1767A,121.1114,41.0879,锦州市,南山,细颗粒物(PM2.5),64,55,60,46,51,54,,22,22,29,38,26,43,0.9,1.1
2026-01-29T1100,1768A,121.060361,40.842794,锦州市,开发区,颗粒物(PM10),73,95,85,52,59,59,,25,25,26,45,22,38,1.0,1
2026-01-29T1100,1769A,121.1836,41.1118,锦州市,百股街道,,,65,58,38,50,70,,26,26,16,35,,34,0.6,0.9
2026-01-29T1100,1770A,121.1176,41.1224,锦州市,天安街道,细颗粒物(PM2.5),57,,54,40,42,60,,34,34,25,28,13,15,0.9,0.9
2026-01-29T1100,1771A,121.1303,41.1385,锦州市,北湖公园,细颗粒物(PM2.5),59,45,54,42,40,63,,38,38,17,22,14,15,0.7,0.8
2026-01-29T1100,2160A,112.8496,35.5051,晋城市,自来水公司,细颗粒物(PM2.5),137,147,181,104,94,69,,79,76,17,26,4,5,0.9,1
2026-01-29T1100,2162A,112.8509,35.4886,晋城市,市环保局,细颗粒物(PM2.5),159,158,187,121,116,57,,79,74,22,20,4,4,1.1,1
2026-01-29T1100,3620A,112.8258,35.4804,晋城市,泽州一中,,,,195,,98,66,,88,84,,21,3,4,1.0,1
2026-01-29T1100,4078A,112.8246,35.5152,晋城市,前书院路,细颗粒物(PM2.5),112,162,196,84,87,65,,77,74,17,20,4,6,0.8,0.9
2026-01-29T1100,4079A,112.8864,35.4773,晋城市,祥云街666号,细颗粒物(PM2.5),138,158,186,105,113,62,,84,80,22,22,4,6,0.8,0.8
2026-01-29T1100,2174A,112.6992,37.6984,晋中市,榆次区政府,细颗粒物(PM2.5),205,219,195,155,111,38,,28,24,35,47,10,14,1.1,1.1
2026-01-29T1100,2865A,112.7195,37.683,晋中市,榆次三中,细颗粒物(PM2.5),202,222,195,152,109,42,,35,31,35,38,8,14,1.2,1.2
2026-01-29T1100,4080A,112.7375,37.7215,晋中市,广安街188号,细颗粒物(PM2.5),223,223,203,173,123,38,,27,23,44,56,10,16,0.9,0.9
2026-01-29T1100,4200A,112.7478,37.6954,晋中市,迎宾街26号,细颗粒物(PM2.5),210,219,192,160,114,43,,35,32,34,41,9,15,1.1,1.1
2026-01-29T1100,2439A,112.2012,31.048,荆门市,竹园小学,细颗粒物(PM2.5),105,150,168,79,86,27,,47,37,38,31,2,3,1.1,1
2026-01-29T1100,2440A,112.1968,30.9892,荆门市,掇刀,细颗粒物(PM2.5),88,115,167,65,84,46,,59,53,25,23,5,6,0.8,0.8
2026-01-29T1100,3012A,112.1849,31.0361,荆门市,西山林语,细颗粒物(PM2.5),102,136,157,76,85,38,,54,47,26,26,2,2,1.0,1
2026-01-29T1100,3547A,112.1631,31.0134,荆门市,龙泉中学南校,细颗粒物(PM2.5),102,137,170,76,90,48,,60,52,18,19,4,6,0.6,0.6
2026-01-29T1100,4124A,112.2213,31.0654,荆门市,新台西路6号,细颗粒物(PM2.5),113,128,160,85,94,23,,42,31,35,29,8,10,1.0,1
2026-01-29T1100,1844A,112.2493,30.3198,荆州市,市图书馆,细颗粒物(PM2.5),99,,122,74,83,33,,43,37,23,23,7,8,1.1,1
2026-01-29T1100,1845A,112.2009,30.3543,荆州市,市委党校,细颗粒物(PM2.5),92,77,141,68,87,30,,39,34,26,29,7,8,1.0,1
2026-01-29T1100,3194A,112.2749,30.3124,荆州市,管委会,细颗粒物(PM2.5),89,72,122,66,80,30,,34,30,23,30,6,8,1.2,1.1
2026-01-29T1100,4268A,112.1722,30.3366,荆州市,学苑路85号,细颗粒物(PM2.5),72,71,126,52,75,38,,47,42,20,20,8,9,1.2,1.1
2026-01-29T1100,2343A,117.2114,29.2931,景德镇市,老干部活动中心,,35,29,24,24,20,25,,8,8,14,20,4,4,0.6,0.7
2026-01-29T1100,2344A,117.1893,29.2789,景德镇市,兽医站,,30,30,30,11,15,34,,16,16,14,21,3,3,0.6,0.7
2026-01-29T1100,2346A,117.246,29.2958,景德镇市,陶研所,,28,28,19,18,20,30,,10,10,10,16,3,3,0.7,0.8
2026-01-29T1100,4289A,117.154766,29.256967,景德镇市,青少年活动中心,,32,32,26,14,17,37,,16,16,14,21,3,5,/,/
2026-01-29T1100,1803A,115.9873,29.6816,九江市,十里,细颗粒物(PM2.5),88,102,66,65,46,28,,15,15,41,43,11,6,1.6,1
2026-01-29T1100,1804A,115.9583,29.7047,九江市,茅山头,"颗粒物(PM10),细颗粒物(PM2.5)",77,104,63,56,39,25,,19,19,39,38,8,5,1.3,0.8
2026-01-29T1100,1805A,115.9877,29.7295,九江市,西园,细颗粒物(PM2.5),114,106,76,86,60,29,,30,30,41,43,6,4,1.1,0.8
2026-01-29T1100,1808A,115.9112,29.6038,九江市,综合工业园,细颗粒物(PM2.5),115,97,51,87,46,10,,10,10,50,44,5,2,1.0,0.7
2026-01-29T1100,3190A,116.0254,29.6995,九江市,外国语学校,,,99,66,75,48,,,14,14,39,38,7,5,1.3,0.8
2026-01-29T1100,4253A,116.010205,29.659402,九江市,莲花大道8号,细颗粒物(PM2.5),115,106,74,87,55,19,,22,15,34,20,9,5,1.2,0.8
2026-01-29T1100,4240A,98.495752,39.733935,酒泉市,玉门东路5号,颗粒物(PM10),425,525,307,85,55,26,,55,52,30,14,20,15,0.6,0.5
2026-01-29T1100,4241A,98.5099,39.7506,酒泉市,北大街108号,颗粒物(PM10),412,512,295,94,56,22,,47,42,36,15,19,17,0.8,0.5
2026-01-29T1100,2698A,76.0071,39.466,喀什地区,巡警大队,颗粒物(PM10),230,371,353,150,125,1,,2,1,53,52,8,7,4.1,2.1
2026-01-29T1100,2699A,75.9756,39.4693,喀什地区,吾办,颗粒物(PM10),194,338,340,128,114,4,,3,3,61,51,12,14,3.5,2.1
2026-01-29T1100,4027A,75.9485,39.4688,喀什地区,老干局,颗粒物(PM10),246,382,365,163,122,2,,1,0,48,44,6,6,4.3,2.2
2026-01-29T1100,1824A,114.3389,34.778,开封市,肿瘤医院,细颗粒物(PM2.5),234,244,160,184,120,27,,26,24,46,37,10,9,1.5,1.2
2026-01-29T1100,1826A,114.2884,34.7966,开封市,世纪星幼儿园,细颗粒物(PM2.5),244,224,158,194,132,24,,26,22,49,37,6,5,1.2,1
2026-01-29T1100,3147A,114.3434,34.8101,开封市,龙亭公园,细颗粒物(PM2.5),238,218,158,188,135,27,,24,24,46,40,7,7,1.5,1.2
2026-01-29T1100,3210A,114.3645,34.7955,开封市,汴京公园,细颗粒物(PM2.5),239,235,164,189,123,24,,21,21,44,40,4,4,1.3,0.9
2026-01-29T1100,3473A,114.2485,34.8306,开封市,技师学院,细颗粒物(PM2.5),210,212,154,160,125,25,,22,22,,38,8,6,,1.1
2026-01-29T1100,3592A,114.4518,34.7503,开封市,祥符区生态环境局,细颗粒物(PM2.5),239,256,189,189,113,22,,15,15,44,43,5,4,1.3,0.9
2026-01-29T1100,1951A,84.886,45.6029,克拉玛依市,长征新村,细颗粒物(PM2.5),125,134,123,95,79,37,,43,39,36,33,7,6,1.0,0.9
2026-01-29T1100,1952A,84.8894,45.5827,克拉玛依市,南林小区,细颗粒物(PM2.5),132,150,124,100,85,40,,35,35,26,31,3,4,1.2,1
2026-01-29T1100,1954A,84.896,44.3328,克拉玛依市,独山子区,细颗粒物(PM2.5),114,112,152,86,85,61,,79,74,51,49,2,2,0.8,0.8
2026-01-29T1100,1955A,85.6888,46.0909,克拉玛依市,乌尔禾区商贸楼,细颗粒物(PM2.5),109,112,105,82,67,30,,30,30,45,41,6,7,0.9,0.8
2026-01-29T1100,3612A,85.1045,45.6895,克拉玛依市,白碱滩区新站,细颗粒物(PM2.5),128,134,136,97,86,23,,35,28,42,35,8,9,1.4,1
2026-01-29T1100,2697A,76.1457,39.7143,克孜勒苏柯尔克孜自治州,市人民政府,颗粒物(PM10),160,269,294,82,94,30,,37,35,16,18,3,4,0.4,0.4
2026-01-29T1100,3665A,76.1654,39.7157,克孜勒苏柯尔克孜自治州,克州文化中心,颗粒物(PM10),171,291,308,87,90,28,,37,34,25,20,4,5,0.9,0.9
2026-01-29T1100,1450A,102.8203,24.889,昆明市,呈贡新区,,39,39,34,17,18,75,,67,66,15,14,4,4,0.3,0.3
2026-01-29T1100,1452A,102.7253,25.0904,昆明市,龙泉镇,,32,30,43,22,24,70,,19,19,16,30,6,4,0.5,0.5
2026-01-29T1100,1453A,102.7267,25.0378,昆明市,东风东路,,33,33,34,22,19,74,,73,69,16,15,8,6,0.4,0.3
2026-01-29T1100,1454A,102.6744,25.0671,昆明市,金鼎山,,36,36,40,22,21,70,,56,56,13,17,6,5,0.5,0.4
2026-01-29T1100,1455A,102.6643,25.0401,昆明市,碧鸡广场,,38,38,38,22,22,67,,52,52,19,22,6,5,0.5,0.4
2026-01-29T1100,3179A,102.7491,25.012,昆明市,官渡区博物馆,,37,37,34,23,18,76,,64,62,14,15,5,4,0.7,0.6
2026-01-29T1100,3375A,102.8016,24.8336,昆明市,青年创业园,,35,35,28,21,18,82,,69,69,6,9,7,6,0.5,0.4
2026-01-29T1100,3550A,102.8,24.9787,昆明市,昆明学院,,30,30,34,18,19,81,,61,61,8,14,4,4,0.5,0.5
2026-01-29T1100,3551A,102.5969,24.6738,昆明市,晋宁区生态环境分局,,39,28,30,27,19,77,,68,66,7,8,3,3,0.7,0.7
2026-01-29T1100,3552A,102.6673,24.9861,昆明市,云天化总部,,,32,30,22,20,,,80,75,13,11,7,6,0.4,0.4
2026-01-29T1100,1456A,91.132,29.6515,拉萨市,八廓街,,25,11,29,9,11,78,,92,81,16,10,7,7,0.7,0.5
2026-01-29T1100,1457A,91.1221,29.6748,拉萨市,市环保局,,38,38,33,6,13,70,,81,71,20,12,8,8,0.8,0.7
2026-01-29T1100,1458A,91.0874,29.6476,拉萨市,区监测站,,23,15,18,8,10,72,,89,80,19,10,4,4,0.9,0.7
2026-01-29T1100,1459A,91.1774,29.6541,拉萨市,西藏大学,,20,20,23,9,8,64,,88,77,33,13,6,5,0.8,0.5
2026-01-29T1100,1460A,90.9798,29.6586,拉萨市,区辐射站,,37,37,32,20,13,64,,84,67,31,15,5,3,0.7,0.5
2026-01-29T1100,1461A,91.0831,29.6292,拉萨市,拉萨火车站,,22,12,24,3,9,70,,94,86,20,8,4,4,0.5,0.3
2026-01-29T1100,2520A,109.2203,23.7252,来宾市,来宾技工学校,细颗粒物(PM2.5),105,109,83,79,61,64,,31,31,28,26,13,10,0.9,0.9
2026-01-29T1100,3535A,109.1781,23.7293,来宾市,兴宾区政府,细颗粒物(PM2.5),112,122,84,84,53,87,,36,36,20,25,10,7,0.9,0.9
2026-01-29T1100,4002A,109.2312,23.7428,来宾市,中南小学,细颗粒物(PM2.5),112,130,87,84,60,48,,32,25,39,27,9,7,1.1,1.1
2026-01-29T1100,1479A,103.8309,36.0467,兰州市,铁路设计院,,,,,,,,,,,,,,,,
2026-01-29T1100,3241A,103.7439,36.0841,兰州市,百合公园,颗粒物(PM10),114,177,233,63,76,8,,2,2,57,78,8,24,1.0,1.4
2026-01-29T1100,3242A,103.9613,35.9985,兰州市,和平,颗粒物(PM10),92,133,240,63,85,47,,33,29,22,39,7,17,1.0,1.2
2026-01-29T1100,4236A,103.629272,36.093822,兰州市,庄浪东路808号,颗粒物(PM10),111,171,232,66,92,27,,24,23,42,60,19,22,0.9,1.1
2026-01-29T1100,4237A,103.7251,36.104344,兰州市,安宁西路88号,颗粒物(PM10),119,188,270,53,74,32,,7,7,43,74,12,28,0.8,1.2
2026-01-29T1100,4238A,103.846982,36.067567,兰州市,北滨河东路1号,颗粒物(PM10),101,151,245,56,78,44,,9,9,30,74,7,16,0.8,1.4
2026-01-29T1100,1067A,116.6712,39.5109,廊坊市,药材公司,细颗粒物(PM2.5),59,64,64,42,36,41,,41,40,28,26,7,4,0.8,0.6
2026-01-29T1100,1068A,116.7215,39.5592,廊坊市,开发区,颗粒物(PM10),59,67,64,40,35,46,,36,34,20,27,7,3,0.8,0.6
2026-01-29T1100,1070A,116.7246,39.5273,廊坊市,北华航天学院,细颗粒物(PM2.5),60,63,61,43,35,46,,39,37,21,24,6,4,0.8,0.6
2026-01-29T1100,2919A,116.7022,39.5454,廊坊市,河北工业大学,颗粒物(PM10),59,68,63,39,34,46,,34,33,17,23,5,3,0.8,0.6
2026-01-29T1100,2536A,103.7629,29.5844,乐山市,牛耳桥,细颗粒物(PM2.5),102,123,158,76,73,12,,21,20,42,37,15,8,1.1,1
2026-01-29T1100,2537A,103.7501,29.6002,乐山市,市第三水厂,细颗粒物(PM2.5),97,118,166,72,75,23,,29,23,41,38,16,9,1.1,1.1
2026-01-29T1100,2538A,103.7571,29.5664,乐山市,市监测站,,,124,158,72,73,,,26,26,29,29,,7,1.1,1
2026-01-29T1100,3361A,103.7313,29.563,乐山市,理工大学,,,,170,,80,,,76,,,28,,7,,1.0
2026-01-29T1100,2599A,100.2497,26.8802,丽江市,丽江古城,,28,28,23,12,10,82,,80,80,9,10,10,10,0.5,0.4
2026-01-29T1100,2600A,100.2203,26.8906,丽江市,市中心,,29,23,13,6,9,90,,89,85,10,10,6,6,0.3,0.3
2026-01-29T1100,1267A,119.9141,28.4513,丽水市,监测站大楼,,,47,54,24,43,,,19,16,,24,,4,,0.6
2026-01-29T1100,1268A,119.93,28.4589,丽水市,莲都小学,,44,44,71,25,46,52,,23,23,19,29,/,/,/,/
2026-01-29T1100,1269A,119.8794,28.4232,丽水市,余庄前,,41,41,60,25,41,46,,13,13,21,26,4,4,0.4,0.6
2026-01-29T1100,1173A,119.1759,34.5885,连云港市,市环境监测站,,32,31,46,22,31,79,,62,62,6,18,10,10,0.3,0.4
2026-01-29T1100,3000A,119.3577,34.6971,连云港市,德源药业,,46,46,59,27,28,76,,48,47,21,34,6,6,0.6,0.5
2026-01-29T1100,3007A,119.178,34.8442,连云港市,新城一中,,,67,69,47,42,,,24,14,,55,,11,0.8,0.7
2026-01-29T1100,3008A,119.3607,34.7519,连云港市,胡沟管理处,细颗粒物(PM2.5),62,61,51,44,29,50,,78,63,31,28,9,9,0.9,0.8
2026-01-29T1100,3009A,119.1478,34.5913,连云港市,矿山设计院,,31,31,49,14,26,81,,57,57,8,21,7,7,0.6,0.7
2026-01-29T1100,3434A,119.2414,34.6539,连云港市,工贸学校,,42,42,46,24,27,81,,81,76,19,18,11,11,0.3,0.4
2026-01-29T1100,3664A,119.4171,34.734,连云港市,连云街道,"颗粒物(PM10),细颗粒物(PM2.5)",60,69,56,43,32,27,,76,51,58,25,9,6,0.8,0.7
2026-01-29T1100,2573A,102.2629,27.8981,凉山彝族自治州,西昌市政府,,34,34,48,22,30,76,,76,70,17,16,12,13,0.5,0.7
2026-01-29T1100,2574A,102.2686,27.885,凉山彝族自治州,凉山州政府,,33,33,48,20,33,67,,60,60,14,18,12,13,0.6,0.8
2026-01-29T1100,4229A,102.2342,27.8859,凉山彝族自治州,凯乐南路30号,,,45,49,23,28,62,,70,70,12,12,,13,,0.7
2026-01-29T1100,2212A,123.1978,41.2036,辽阳市,宏伟区,细颗粒物(PM2.5),72,74,64,52,43,47,,18,18,21,25,10,18,0.8,0.9
2026-01-29T1100,2213A,123.1684,41.2497,辽阳市,新华园,颗粒物(PM10),61,72,61,42,42,54,,22,22,22,36,6,12,0.7,0.9
2026-01-29T1100,2214A,123.2355,41.2663,辽阳市,滨河路,,,87,56,49,36,,,9,9,25,38,7,7,0.8,0.8
2026-01-29T1100,4083A,123.153,41.2874,辽阳市,铁西路150号,颗粒物(PM10),52,53,80,28,59,54,,12,12,20,39,10,13,0.9,1.7
2026-01-29T1100,2227A,125.1359,42.8845,辽源市,环保局,细颗粒物(PM2.5),112,118,70,84,51,38,,17,17,41,37,8,6,1.4,1.2
2026-01-29T1100,4085A,125.0998,42.9134,辽源市,安宁大街333号,细颗粒物(PM2.5),122,126,75,92,60,38,,13,13,34,32,10,7,1.2,1.1
2026-01-29T1100,1625A,115.9789,36.4372,聊城市,区政府,细颗粒物(PM2.5),109,121,183,82,125,25,,10,10,30,36,16,13,1.0,1.1
2026-01-29T1100,3200A,115.9772,36.4986,聊城市,监控中心,细颗粒物(PM2.5),104,97,188,78,139,34,,13,13,28,42,9,8,0.7,1.1
2026-01-29T1100,3513A,116.0443,36.436,聊城市,九州社区,细颗粒物(PM2.5),112,122,178,84,121,33,,18,18,20,25,9,5,0.9,1
2026-01-29T1100,4018A,116.0564,36.4609,聊城市,星美广场,细颗粒物(PM2.5),103,118,183,77,118,31,,15,15,19,26,5,4,0.9,1.1
2026-01-29T1100,4113A,116.0091,36.4495,聊城市,利民路,细颗粒物(PM2.5),104,114,184,78,125,25,,10,10,27,37,13,9,0.9,1.1
2026-01-29T1100,2632A,94.3683,29.6373,林芝市,林芝监测站,,,17,17,11,8,,,88,88,,2,,3,,0.4
2026-01-29T1100,2633A,94.3616,29.6634,林芝市,林芝人民医院,,30,18,21,11,8,93,,92,92,2,2,6,7,0.3,0.2
2026-01-29T1100,2603A,100.0779,23.8981,临沧市,市环保局,,50,50,36,35,39,39,,34,29,14,10,7,7,0.7,0.6
2026-01-29T1100,2604A,100.0894,23.882,临沧市,市气象局,颗粒物(PM10),59,67,53,35,30,38,,36,29,18,12,10,11,0.5,0.4
2026-01-29T1100,1733A,111.5552,36.0791,临汾市,临钢医院,细颗粒物(PM2.5),132,188,244,100,111,60,,46,46,21,36,5,7,1.1,1.5
2026-01-29T1100,1734A,111.4984,36.0734,临汾市,技工学校,细颗粒物(PM2.5),147,177,230,112,130,60,,48,48,30,42,3,7,1.0,1.5
2026-01-29T1100,1736A,111.5017,36.0857,临汾市,市委,细颗粒物(PM2.5),137,192,257,104,116,62,,50,50,23,43,7,10,0.9,1.4
2026-01-29T1100,3018A,111.5048,36.1015,临汾市,唐尧大酒店,细颗粒物(PM2.5),128,188,229,97,109,62,,48,48,23,44,2,5,1.3,1.7
2026-01-29T1100,4244A,111.4879,36.053,临汾市,启星学校,细颗粒物(PM2.5),120,157,216,91,99,63,,51,51,28,52,6,7,0.9,1.4
2026-01-29T1100,4271A,103.2464,35.6123,临夏回族自治州,滨河东路1号,颗粒物(PM10),179,308,327,103,128,11,,15,14,40,38,9,13,1.7,1.8
2026-01-29T1100,4310A,103.207136,35.599807,临夏回族自治州,新华街21号,颗粒物(PM10),162,274,312,120,118,27,,24,24,24,29,12,15,1.1,1.5
2026-01-29T1100,1618A,118.3429,35.0532,临沂市,沂河小区,细颗粒物(PM2.5),104,122,100,78,64,30,,8,8,52,47,14,13,1.1,0.9
2026-01-29T1100,1619A,118.2962,35.0568,临沂市,鲁南制药厂,细颗粒物(PM2.5),79,75,91,58,66,46,,14,14,44,47,17,17,0.9,1
2026-01-29T1100,1620A,118.2793,34.9976,临沂市,新光毛纺厂,细颗粒物(PM2.5),73,73,96,53,67,52,,13,13,30,53,15,18,0.7,0.8
2026-01-29T1100,1621A,118.3955,35.0889,临沂市,河东保险公司,细颗粒物(PM2.5),102,114,109,76,73,32,,8,8,58,59,16,12,1.0,1.1
2026-01-29T1100,3370A,118.3563,35.0215,临沂市,十里堡居委,,,114,94,73,58,29,,8,8,56,48,15,14,,1
2026-01-29T1100,3496A,118.359,35.1067,临沂市,南坊新区,细颗粒物(PM2.5),98,112,101,73,69,39,,12,12,50,56,13,12,0.9,0.9
2026-01-29T1100,3860A,118.3915,35.0297,临沂市,皇山花园小区,细颗粒物(PM2.5),107,134,108,80,68,28,,10,10,65,61,18,17,1.2,1.2
2026-01-29T1100,1870A,109.4854,24.3898,柳州市,柳东小学,细颗粒物(PM2.5),82,77,61,60,47,53,,40,34,25,20,21,13,1.0,0.9
2026-01-29T1100,1871A,109.4109,24.3304,柳州市,环保监测站,细颗粒物(PM2.5),87,70,56,64,44,37,,45,34,47,28,7,8,1.2,0.9
2026-01-29T1100,1872A,109.3886,24.3408,柳州市,河西水厂,颗粒物(PM10),79,108,66,49,37,55,,52,39,39,21,8,7,1.0,0.7
2026-01-29T1100,1873A,109.4263,24.2951,柳州市,市四中,细颗粒物(PM2.5),109,112,67,82,45,62,,35,28,41,31,10,11,0.9,0.8
2026-01-29T1100,1874A,109.396,24.3658,柳州市,市九中,,,104,61,59,40,,,44,33,40,23,12,11,1.1,0.9
2026-01-29T1100,1875A,109.4912,24.3164,柳州市,古亭山,细颗粒物(PM2.5),98,,58,73,45,44,,40,31,38,28,8,9,0.8,0.6
2026-01-29T1100,3402A,109.5422,24.3994,柳州市,市二中,细颗粒物(PM2.5),90,69,58,67,45,44,,35,29,36,28,23,16,1.0,0.9
2026-01-29T1100,2307A,116.5078,31.7369,六安市,监测大楼,细颗粒物(PM2.5),112,119,91,84,59,22,,33,22,47,28,3,3,0.7,0.6
2026-01-29T1100,2308A,116.4738,31.7642,六安市,皖西学院,细颗粒物(PM2.5),109,124,97,82,63,17,,22,15,48,33,5,4,0.7,0.6
2026-01-29T1100,2309A,116.4997,31.7904,六安市,朝阳厂,细颗粒物(PM2.5),104,109,90,78,61,27,,16,15,42,34,7,5,0.8,0.7
2026-01-29T1100,2310A,116.5566,31.7885,六安市,开发区,细颗粒物(PM2.5),112,117,93,84,64,23,,14,14,44,32,4,4,0.8,0.7
2026-01-29T1100,2577A,104.8293,26.592,六盘水市,黄土坡,,48,44,42,33,32,48,,33,27,29,18,16,9,1.0,0.8
2026-01-29T1100,2579A,104.8481,26.5898,六盘水市,民中,,42,38,40,29,31,52,,39,36,21,15,10,6,0.7,0.8
2026-01-29T1100,2580A,104.9541,26.5506,六盘水市,双水,,,,37,,26,,,44,44,10,11,,4,0.3,0.4
2026-01-29T1100,4151A,104.8899,26.5685,六盘水市,钟山大道中段564号,,39,39,40,22,27,55,,45,45,10,9,7,5,0.8,0.9
2026-01-29T1100,2336A,117.022,25.1031,龙岩市,龙岩市监测站,细颗粒物(PM2.5),52,39,32,36,33,48,,27,27,13,19,9,13,0.7,0.8
2026-01-29T1100,2337A,117.0257,25.0662,龙岩市,闽西职业技术学院,,43,43,38,26,34,47,,28,28,12,19,6,10,0.8,0.8
2026-01-29T1100,2338A,117.0195,25.0306,龙岩市,龙岩学院,,50,50,39,12,25,35,,26,26,20,17,6,7,/,/
2026-01-29T1100,2885A,104.9344,33.3827,陇南市,滨江中学,,,69,123,23,36,70,,77,76,16,11,,4,,1
2026-01-29T1100,3247A,104.9551,33.3709,陇南市,市总工会,颗粒物(PM10),56,61,115,26,44,65,,75,73,17,11,8,8,1.0,0.9
2026-01-29T1100,2488A,111.9984,27.7346,娄底市,市监测站,细颗粒物(PM2.5),74,89,117,54,63,30,,42,37,26,20,9,8,0.9,1
2026-01-29T1100,2491A,111.9888,27.7035,娄底市,市政府,,,,146,,63,,,94,,,15,,84,,1.5
2026-01-29T1100,4127A,111.9812,27.7591,娄底市,涟钢职大,颗粒物(PM10),69,87,116,35,62,31,,33,31,21,24,5,7,0.9,1.1
2026-01-29T1100,4128A,112.0303,27.7457,娄底市,娄底体校,,,87,106,52,62,,,34,34,17,19,2,3,0.4,0.5
2026-01-29T1100,1894A,105.4427,28.9063,泸州市,小市上码头,细颗粒物(PM2.5),152,149,166,116,113,,,11,6,31,37,,6,1.3,1.3
2026-01-29T1100,1895A,105.4241,28.8573,泸州市,兰田宪桥,细颗粒物(PM2.5),158,179,159,120,105,18,,21,20,23,26,8,9,1.1,1.1
2026-01-29T1100,1896A,105.4378,28.8833,泸州市,市环监站,细颗粒物(PM2.5),147,161,157,112,105,10,,19,16,35,32,10,10,1.3,1.3
2026-01-29T1100,4272A,105.3689,28.7783,泸州市,纳溪中医医院,细颗粒物(PM2.5),143,132,148,109,126,8,,14,11,30,24,8,9,1.1,1.1
2026-01-29T1100,2183A,111.1447,37.5212,吕梁市,环保局,颗粒物(PM10),87,123,147,32,47,18,,3,3,40,50,18,6,0.7,0.6
2026-01-29T1100,2185A,111.1285,37.5338,吕梁市,自来水公司,颗粒物(PM10),94,138,164,39,50,12,,3,3,38,44,19,9,0.9,0.8
2026-01-29T1100,2867A,111.1225,37.5093,吕梁市,马茂庄小学,颗粒物(PM10),101,152,152,38,49,19,,6,6,40,49,21,10,1.1,1
2026-01-29T1100,1812A,112.3934,34.6517,洛阳市,市委党校,细颗粒物(PM2.5),223,232,199,173,132,26,,32,31,47,38,8,9,1.3,1.2
2026-01-29T1100,1815A,112.494,34.6883,洛阳市,河南林校,细颗粒物(PM2.5),250,233,204,200,145,25,,29,29,39,39,7,9,1.3,1.1
2026-01-29T1100,1816A,112.3843,34.623,洛阳市,开发区管委会,细颗粒物(PM2.5),249,272,236,199,147,30,,30,30,41,33,9,9,1.3,1.1
2026-01-29T1100,1817A,112.4263,34.6249,洛阳市,市委新办公区,细颗粒物(PM2.5),254,268,233,204,157,25,,24,24,46,39,8,9,1.1,1
2026-01-29T1100,3340A,112.6005,34.6323,洛阳市,伊滨,细颗粒物(PM2.5),227,265,246,177,146,26,,22,22,45,40,8,8,1.2,1.1
2026-01-29T1100,3341A,112.495,34.6338,洛阳市,中移产业园,细颗粒物(PM2.5),233,231,201,183,139,17,,16,16,49,41,9,9,1.3,1.2
2026-01-29T1100,3593A,112.5736,34.8993,洛阳市,吉利监测站,细颗粒物(PM2.5),264,271,218,214,158,30,,36,28,40,37,8,10,1.3,1.2
2026-01-29T1100,3635A,112.3678,34.6623,洛阳市,河科大西苑校区,细颗粒物(PM2.5),210,245,218,160,125,28,,36,33,45,37,8,9,1.2,1.1
2026-01-29T1100,3636A,112.4387,34.678,洛阳市,英才小学,细颗粒物(PM2.5),234,237,213,184,140,19,,34,33,40,40,,10,1.4,1.2
2026-01-29T1100,4214A,112.460027,34.694929,洛阳市,春都路1号院,细颗粒物(PM2.5),212,268,235,162,123,25,,28,26,39,35,7,8,1.2,1
2026-01-29T1100,2399A,114.051,33.5721,漯河市,三五一五工厂,细颗粒物(PM2.5),99,127,129,74,72,41,,30,30,19,26,5,5,0.7,0.8
2026-01-29T1100,2400A,114.0055,33.5698,漯河市,漯河大学,细颗粒物(PM2.5),92,107,112,68,73,41,,35,35,21,24,5,5,0.7,0.7
2026-01-29T1100,2401A,114.0134,33.5826,漯河市,市水利局,细颗粒物(PM2.5),104,107,116,78,76,31,,29,29,23,23,4,4,0.9,1
2026-01-29T1100,2402A,114.0261,33.5697,漯河市,市广电局,细颗粒物(PM2.5),94,110,114,70,71,40,,33,33,15,19,6,6,0.5,0.7
2026-01-29T1100,3478A,113.9691,33.568,漯河市,市图书馆,细颗粒物(PM2.5),105,112,124,79,69,39,,38,37,18,20,6,6,0.9,0.9
2026-01-29T1100,4250A,114.089259,33.588274,漯河市,韶山路11号,细颗粒物(PM2.5),105,111,124,79,76,33,,19,19,24,32,7,7,0.7,0.7
2026-01-29T1100,1798A,118.5084,31.6838,马鞍山市,湖东路四小,颗粒物(PM10),54,58,92,31,64,51,,30,30,24,36,4,4,0.4,0.6
2026-01-29T1100,1799A,118.5019,31.6449,马鞍山市,开发区,,,56,98,30,68,,,27,23,21,34,4,5,0.4,0.6
2026-01-29T1100,3633A,118.4914,31.681,马鞍山市,雨山,颗粒物(PM10),57,64,98,29,60,53,,33,33,24,35,4,4,0.7,0.9
2026-01-29T1100,4191A,118.527362,31.722269,马鞍山市,慈湖高新区,,41,41,93,28,61,54,,38,37,27,34,5,5,0.4,0.8
2026-01-29T1100,1686A,111.0285,21.469,茂名市,电白南海,,,,65,19,38,,,89,82,13,19,8,9,,1.3
2026-01-29T1100,1687A,110.9294,21.6533,茂名市,茂石化七小,颗粒物(PM10),53,56,70,24,44,88,,90,84,14,16,7,8,0.6,0.7
2026-01-29T1100,1688A,110.9108,21.6688,茂名市,健康路,颗粒物(PM10),51,51,64,23,40,100,,104,97,14,18,9,10,0.9,0.9
2026-01-29T1100,1689A,110.8592,21.6826,茂名市,高岭,颗粒物(PM10),64,78,85,28,49,87,,94,87,23,22,12,12,/,/
2026-01-29T1100,3450A,111.0101,21.5165,茂名市,电白水东,颗粒物(PM10),56,61,60,29,39,84,,85,80,11,14,8,9,/,/
2026-01-29T1100,2540A,103.8414,30.0871,眉山市,气象局,细颗粒物(PM2.5),128,170,161,97,68,14,,9,8,42,43,17,15,0.8,0.8
2026-01-29T1100,3148A,103.829,30.0563,眉山市,区人社局,颗粒物(PM10),107,164,160,78,70,17,,17,9,40,41,12,11,1.0,0.9
2026-01-29T1100,4148A,103.8836,30.0695,眉山市,眉职院,颗粒物(PM10),98,145,164,68,63,15,,22,13,34,28,2,2,0.9,0.9
2026-01-29T1100,1690A,116.1248,24.3307,梅州市,梅江月梅,颗粒物(PM10),59,68,36,32,19,41,,13,13,25,28,/,/,/,/
2026-01-29T1100,1691A,116.0798,24.2719,梅州市,梅县新城,细颗粒物(PM2.5),62,53,32,44,22,45,,30,30,26,23,10,7,0.7,0.6
2026-01-29T1100,3315A,116.1234,24.2994,梅州市,梅龙,细颗粒物(PM2.5),53,48,34,37,21,46,,20,20,18,24,10,9,0.7,0.7
2026-01-29T1100,1878A,104.7775,31.4741,绵阳市,富乐山,颗粒物(PM10),103,155,153,76,69,14,,19,12,28,24,8,8,0.7,0.7
2026-01-29T1100,1880A,104.6698,31.4668,绵阳市,高新区自来水公司,颗粒物(PM10),111,171,189,71,78,13,,5,5,40,46,8,8,1.0,1
2026-01-29T1100,3491A,104.6899,31.5324,绵阳市,西科大附属小学,颗粒物(PM10),100,149,188,62,79,18,,4,4,36,48,7,8,0.6,0.7
2026-01-29T1100,3492A,104.5647,31.5343,绵阳市,安州区旅游局,颗粒物(PM10),109,168,176,60,72,26,,16,16,28,33,9,12,1.2,1.2
2026-01-29T1100,4146A,104.7092,31.4972,绵阳市,科技城新区公安局,颗粒物(PM10),125,199,192,66,75,12,,3,3,44,51,7,7,1.0,0.9
2026-01-29T1100,4226A,104.765114,31.453094,绵阳市,绵阳市气象局,颗粒物(PM10),101,152,167,67,71,17,,9,9,28,36,7,9,0.8,0.9
2026-01-29T1100,1784A,129.61,44.561,牡丹江市,环保大楼,,40,40,37,20,26,66,,44,44,14,19,4,5,0.3,0.4
2026-01-29T1100,1787A,129.6364,44.6075,牡丹江市,机车工厂,,40,40,56,21,36,65,,27,27,14,26,7,7,0.4,0.5
2026-01-29T1100,1788A,129.6386,44.5462,牡丹江市,第一中学,,45,42,32,31,28,68,,43,43,12,23,4,5,0.3,0.4
2026-01-29T1100,4287A,129.5992,44.5964,牡丹江市,东晓云街98号,,,39,40,23,27,75,,36,36,,20,,4,0.2,0.6
2026-01-29T1100,2531A,105.0703,29.61,内江市,市监测站,细颗粒物(PM2.5),74,55,90,54,72,37,,34,34,20,21,6,6,0.8,0.8
2026-01-29T1100,2533A,105.0657,29.5807,内江市,内江二中,细颗粒物(PM2.5),70,71,100,51,70,26,,23,23,27,24,7,8,0.7,0.7
2026-01-29T1100,2534A,105.0407,29.5828,内江市,内江日报社,细颗粒物(PM2.5),74,,82,54,70,33,,27,27,24,27,8,7,0.9,0.9
2026-01-29T1100,4147A,105.0433,29.6105,内江市,玉峰路西段888号,细颗粒物(PM2.5),77,,86,56,71,31,,23,23,21,24,6,6,0.8,0.8
2026-01-29T1100,2628A,92.0653,31.4846,那曲市,那曲监测站,,,58,48,,26,,,99,99,26,10,10,7,0.9,0.6
2026-01-29T1100,4243A,92.0515,31.4787,那曲市,那曲市委宣传部,,31,22,39,12,9,98,,106,104,19,6,5,4,0.6,0.4
2026-01-29T1100,1291A,115.8887,28.7006,南昌市,省林业公司,细颗粒物(PM2.5),65,,59,47,45,9,,6,4,32,32,4,4,0.5,0.4
2026-01-29T1100,1292A,115.813,28.7443,南昌市,林科所,细颗粒物(PM2.5),57,58,50,40,28,13,,25,17,29,24,4,3,0.8,0.7
2026-01-29T1100,1294A,115.8518,28.687,南昌市,建工学校,细颗粒物(PM2.5),68,,59,49,37,10,,14,11,33,28,8,7,0.9,0.9
2026-01-29T1100,1295A,115.8926,28.6425,南昌市,象湖,细颗粒物(PM2.5),68,53,51,49,42,8,,7,4,25,27,9,8,0.9,0.8
2026-01-29T1100,3046A,115.9084,28.6062,南昌市,机电学校,细颗粒物(PM2.5),70,81,66,51,40,11,,6,6,32,37,5,4,0.8,0.6
2026-01-29T1100,3690A,115.9718,28.7032,南昌市,外国语学校,,,52,59,40,38,12,,14,10,20,25,,12,0.6,0.6
2026-01-29T1100,4106A,115.7923,28.6873,南昌市,工业二路,细颗粒物(PM2.5),65,72,71,47,38,15,,20,18,25,23,4,3,0.8,0.7
2026-01-29T1100,4192A,115.931587,28.686774,南昌市,南京东路235号,细颗粒物(PM2.5),63,58,60,45,43,11,,8,5,20,23,6,6,0.6,0.5
2026-01-29T1100,1906A,106.0791,30.8022,南充市,南充市委,,,119,125,,78,74,,13,13,30,37,,4,1.0,0.9
2026-01-29T1100,1907A,106.1038,30.8215,南充市,南充炼油厂,细颗粒物(PM2.5),117,133,123,88,77,5,,4,4,28,33,6,6,1.0,0.9
2026-01-29T1100,4227A,106.108336,30.788436,南充市,梨树横街98号,细颗粒物(PM2.5),112,128,132,84,73,9,,4,4,32,37,5,6,1.0,1
2026-01-29T1100,4304A,106.1172,30.843,南充市,清泉寺北路188号,细颗粒物(PM2.5),107,111,107,80,74,7,,9,9,24,22,6,7,0.7,0.7
2026-01-29T1100,4305A,106.067,30.7616,南充市,同庆路1号,细颗粒物(PM2.5),108,119,116,81,77,5,,5,5,38,46,6,8,1.0,1
2026-01-29T1100,1151A,118.8033,32.1085,南京市,迈皋桥,,30,30,68,17,45,57,,24,24,25,39,7,6,0.3,0.5
2026-01-29T1100,1152A,118.7487,32.057,南京市,草场门,,39,39,64,17,39,31,,21,18,31,40,2,2,0.6,0.8
2026-01-29T1100,1154A,118.770105,32.004342,南京市,中华门,,41,41,73,13,45,57,,26,26,22,27,4,4,0.6,0.6
2026-01-29T1100,1155A,118.8059,32.0329,南京市,瑞金路,,44,44,74,17,43,60,,24,24,15,26,4,4,0.6,0.7
2026-01-29T1100,1156A,118.7946,32.0774,南京市,玄武湖,,38,38,72,16,46,56,,27,27,35,44,4,4,0.4,0.6
2026-01-29T1100,1157A,118.6415,32.0964,南京市,浦口,颗粒物(PM10),52,53,89,19,55,48,,18,18,31,43,6,5,0.3,0.5
2026-01-29T1100,1158A,118.730129,32.000956,南京市,奥体中心,颗粒物(PM10),51,51,79,18,50,58,,34,31,22,32,6,5,0.3,0.5
2026-01-29T1100,1159A,118.9072,32.1047,南京市,仙林大学城,,36,36,75,10,44,63,,30,30,21,31,6,6,0.4,0.6
2026-01-29T1100,3422A,118.8443,31.919,南京市,江宁彩虹桥,颗粒物(PM10),55,60,83,27,46,57,,24,20,42,45,5,4,0.6,0.8
2026-01-29T1100,3427A,118.8497,32.3599,南京市,六合雄州,颗粒物(PM10),52,53,75,31,44,32,,18,18,42,40,10,10,0.8,0.7
2026-01-29T1100,4086A,118.7641,32.0841,南京市,新模范马路66号,,,36,73,3,41,,,35,32,12,19,4,4,0.4,0.4
2026-01-29T1100,4249A,118.8707617,31.34017673,南京市,汶溪路181号,颗粒物(PM10),51,51,92,16,49,55,,38,38,24,27,8,6,0.6,0.8
2026-01-29T1100,4312A,119.019,31.6512,南京市,中山西路1号,,44,44,61,13,42,48,,36,35,26,26,2,2,0.6,0.8
2026-01-29T1100,1401A,108.3098,22.788,南宁市,二十一中,细颗粒物(PM2.5),69,52,60,50,50,52,,78,76,34,22,3,4,0.7,0.7
2026-01-29T1100,1402A,108.3135,22.8529,南宁市,北湖,,,82,71,59,49,38,,44,44,,41,3,4,1.0,1.1
2026-01-29T1100,1403A,108.3205,22.8222,南宁市,市监测站,细颗粒物(PM2.5),65,66,64,47,50,57,,46,46,32,39,6,6,0.8,1
2026-01-29T1100,1404A,108.3828,22.8038,南宁市,大自然花园,细颗粒物(PM2.5),63,67,66,45,52,73,,80,80,17,23,5,6,0.7,0.8
2026-01-29T1100,1406A,108.2397,22.8462,南宁市,区农职院,细颗粒物(PM2.5),77,71,70,56,46,31,,47,47,56,44,8,8,0.9,0.9
2026-01-29T1100,1407A,108.3285,22.7356,南宁市,英华嘉园,颗粒物(PM10),54,58,70,31,51,59,,66,63,32,37,4,4,0.5,0.7
2026-01-29T1100,3401A,108.4829,22.762,南宁市,红星社区,细颗粒物(PM2.5),52,51,62,36,51,83,,78,78,15,27,5,5,0.8,1
2026-01-29T1100,4132A,108.2927,23.1477,南宁市,起凤路9号,,49,42,59,34,46,97,,108,108,10,17,2,3,0.4,0.6
2026-01-29T1100,4221A,108.2177,22.7774,南宁市,乐贤路16号,,43,43,62,28,46,74,,73,73,17,35,3,3,0.8,0.9
2026-01-29T1100,2332A,118.1682,26.6371,南平市,南平市监测站,,23,18,19,12,15,72,,51,51,7,12,3,4,0.5,0.7
2026-01-29T1100,2334A,118.1757,26.6276,南平市,南平七中,,28,28,20,13,16,73,,50,50,10,15,2,4,0.5,0.7
2026-01-29T1100,1168A,120.9056,31.9669,南通市,狼山街道,,47,47,34,22,14,69,,54,54,14,18,3,3,0.4,0.4
2026-01-29T1100,1170A,120.8635,32.0231,南通市,城中,,47,47,37,18,17,69,,58,58,19,22,4,4,0.5,0.5
2026-01-29T1100,1171A,120.9376,31.9301,南通市,星湖花园,颗粒物(PM10),51,52,34,23,16,69,,57,57,18,22,4,3,0.5,0.4
2026-01-29T1100,1172A,120.8053,32.046,南通市,紫琅学院,颗粒物(PM10),54,58,36,15,14,63,,54,52,24,23,3,3,0.4,0.4
2026-01-29T1100,3291A,121.0631,32.0644,南通市,通州监测站,,41,41,25,19,14,80,,70,70,19,19,2,3,0.3,0.3
2026-01-29T1100,3432A,120.9348,31.9874,南通市,环境教育馆,,,48,35,21,20,68,,44,44,15,26,4,4,,0.5
2026-01-29T1100,4091A,120.8692,31.9885,南通市,洪江路,,36,36,28,17,15,66,,54,54,17,22,4,4,0.4,0.4
2026-01-29T1100,2404A,112.5338,33.0086,南阳市,瓦房庄,,,118,156,,96,41,,46,44,,20,3,6,0.9,1
2026-01-29T1100,2405A,112.5002,32.9734,南阳市,汉画馆,细颗粒物(PM2.5),108,105,163,81,98,40,,48,47,24,27,6,6,0.9,1
2026-01-29T1100,2406A,112.5778,33.0144,南阳市,气象站,细颗粒物(PM2.5),98,115,188,73,93,39,,42,41,22,24,4,4,0.9,1
2026-01-29T1100,2407A,112.548,32.9687,南阳市,理工学院,细颗粒物(PM2.5),92,100,162,68,81,34,,41,39,20,25,4,4,1.0,1.1
2026-01-29T1100,4008A,112.5233,32.9921,南阳市,卧龙区政府,颗粒物(PM10),91,131,179,62,87,39,,45,43,23,25,5,5,0.9,1
2026-01-29T1100,1234A,121.8352,29.9111,宁波市,区环保大楼,,31,31,34,15,17,41,,7,7,41,45,6,6,0.4,0.3
2026-01-29T1100,1235A,121.5595,29.8208,宁波市,万里学院,颗粒物(PM10),59,67,46,38,24,7,,4,4,67,51,5,4,0.8,0.6
2026-01-29T1100,1236A,121.713,29.9564,宁波市,龙赛医院,,31,31,40,10,14,51,,9,9,36,44,6,4,0.4,0.5
2026-01-29T1100,1240A,121.5855,29.8635,宁波市,太古小学,,,,46,,23,,,3,3,58,47,,4,1.0,0.7
2026-01-29T1100,1241A,121.5239,29.8673,宁波市,市环境监测中心,颗粒物(PM10),56,61,67,35,21,15,,3,3,53,44,7,7,0.7,0.5
2026-01-29T1100,2871A,121.6156,29.9015,宁波市,万里国际学校,颗粒物(PM10),51,52,43,34,22,9,,4,4,60,44,5,4,0.4,0.3
2026-01-29T1100,3710A,121.5593,29.8976,宁波市,白沙活动中心,,46,46,41,28,22,13,,4,4,54,44,5,5,0.4,0.4
2026-01-29T1100,4095A,121.8962,29.7529,宁波市,中科路88号,,22,20,25,3,9,70,,38,38,19,36,5,5,0.2,0.3
2026-01-29T1100,2341A,119.5387,26.6611,宁德市,宁德市监测站,,44,44,32,28,19,42,,51,42,25,22,4,3,0.6,0.6
2026-01-29T1100,3209A,119.5231,26.6562,宁德市,宁德一中,,45,45,31,29,22,56,,47,42,15,15,5,3,0.6,0.6
2026-01-29T1100,2618A,98.859,25.8541,怒江傈僳族自治州,州监测站,,35,35,38,18,23,44,,35,35,12,14,5,5,0.4,0.4
2026-01-29T1100,2619A,98.8607,25.8168,怒江傈僳族自治州,泸水一中,,,38,36,,25,33,,25,25,,20,96,8,0.8,0.8
2026-01-29T1100,1888A,101.6891,26.571,攀枝花市,弄弄坪,细颗粒物(PM2.5),117,152,87,88,54,27,,6,6,73,45,84,34,3.8,2
2026-01-29T1100,1889A,101.577,26.5914,攀枝花市,河门口,,,,66,,44,40,,27,25,,26,,21,1.6,1.4
2026-01-29T1100,1891A,101.7365,26.4986,攀枝花市,仁和,细颗粒物(PM2.5),112,106,67,84,51,42,,27,21,61,28,54,19,6.1,1.7
2026-01-29T1100,2835A,101.7222,26.567,攀枝花市,四十中小,细颗粒物(PM2.5),153,149,99,117,68,16,,6,6,81,61,46,25,3.4,2.2
2026-01-29T1100,1604A,122.0303,41.1489,盘锦市,开发区,,22,14,50,13,42,69,,42,42,12,26,4,7,0.8,1.1
2026-01-29T1100,1605A,122.0486,41.0883,盘锦市,兴隆台,,21,14,51,11,41,67,,40,40,13,34,6,8,0.3,0.7
2026-01-29T1100,1606A,121.8297,41.1026,盘锦市,新生街道,,36,36,60,16,49,55,,22,22,31,39,8,8,0.4,0.7
2026-01-29T1100,1832A,113.3257,33.7423,平顶山市,新华旅馆,细颗粒物(PM2.5),185,196,149,139,88,21,,37,27,34,29,6,6,1.1,0.9
2026-01-29T1100,1833A,113.2917,33.737,平顶山市,规划设计院,细颗粒物(PM2.5),183,195,164,138,91,27,,40,30,26,23,6,6,0.9,0.8
2026-01-29T1100,1834A,113.182,33.7738,平顶山市,平顶山工学院,细颗粒物(PM2.5),216,202,152,166,98,,,34,29,24,23,6,7,1.0,0.8
2026-01-29T1100,3594A,112.8736,33.9068,平顶山市,石龙区,细颗粒物(PM2.5),201,197,175,151,115,35,,43,39,20,23,5,5,1.1,1.1
2026-01-29T1100,4116A,113.284,33.7139,平顶山市,姚电大道23号,细颗粒物(PM2.5),180,204,156,136,97,26,,39,32,33,28,6,7,0.8,0.7
2026-01-29T1100,2656A,106.6633,35.5338,平凉市,聚贤嘉苑,颗粒物(PM10),132,214,205,91,65,63,,67,64,28,24,8,12,1.0,0.9
2026-01-29T1100,2657A,106.7021,35.5307,平凉市,博物馆,颗粒物(PM10),133,216,204,82,65,59,,63,61,33,33,12,16,1.2,1.1
2026-01-29T1100,2348A,113.8384,27.6436,萍乡市,中医院,颗粒物(PM10),66,82,82,42,37,42,,47,46,21,20,6,5,0.8,0.8
2026-01-29T1100,2350A,113.8677,27.6438,萍乡市,市环保局,细颗粒物(PM2.5),62,63,67,44,35,38,,44,44,18,16,12,11,0.9,0.7
2026-01-29T1100,2351A,113.8663,27.6202,萍乡市,安源区政府,颗粒物(PM10),61,72,78,43,43,25,,26,26,29,30,11,10,1.1,1.2
2026-01-29T1100,4107A,113.8686,27.6668,萍乡市,联洪村委会,颗粒物(PM10),60,69,68,41,36,46,,49,49,18,15,5,3,0.6,0.6
2026-01-29T1100,2319A,119.0142,25.4324,莆田市,荔城区仓后路,,,43,30,12,14,85,,74,71,,14,/,/,/,/
2026-01-29T1100,2320A,119.0016,25.4553,莆田市,莆田市监测站,,37,37,24,12,15,87,,78,77,8,11,3,2,0.4,0.5
2026-01-29T1100,2321A,119.112,25.4561,莆田市,涵江区六中,,44,44,30,12,14,84,,76,73,9,12,/,/,0.6,0.6
2026-01-29T1100,2322A,119.1014,25.3215,莆田市,秀屿区政府,颗粒物(PM10),56,62,37,18,19,84,,78,75,10,12,2,2,0.6,0.6
2026-01-29T1100,2392A,115.0312,35.7636,濮阳市,环保局,细颗粒物(PM2.5),140,134,160,107,128,19,,15,11,41,41,7,6,1.2,1.5
2026-01-29T1100,3021A,115,35.7667,濮阳市,濮水河管理处,细颗粒物(PM2.5),150,152,195,115,135,16,,9,8,33,37,7,5,1.1,1.2
2026-01-29T1100,4118A,115.0552,35.7816,濮阳市,中原东路68号,细颗粒物(PM2.5),147,164,208,112,138,16,,9,7,39,43,6,5,1.3,1.3
2026-01-29T1100,4216A,115.0923632,35.76857718,濮阳市,任丘路479号,细颗粒物(PM2.5),156,162,187,119,136,16,,9,6,41,42,8,5,1.2,1.2
2026-01-29T1100,2601A,100.9801,22.7634,普洱市,市环保局,颗粒物(PM10),59,67,54,40,21,43,,26,23,26,12,4,4,0.6,0.5
2026-01-29T1100,2602A,100.9763,22.8237,普洱市,普洱第二中学,颗粒物(PM10),63,75,49,25,24,38,,12,12,26,23,5,5,0.6,0.4
2026-01-29T1100,3345A,131.0413,45.7795,七台河市,中波台,,47,47,41,24,32,64,,58,58,8,12,13,7,0.4,0.5
2026-01-29T1100,3637A,131.0136,45.7688,七台河市,人民广场,,49,49,50,20,33,67,,49,49,17,27,9,8,0.5,0.6
2026-01-29T1100,3684A,130.8639,45.8144,七台河市,新建矿广场,,46,46,57,12,36,62,,41,41,9,17,11,8,0.3,0.4
2026-01-29T1100,1779A,123.9307,47.3641,齐齐哈尔市,安居小区,,28,28,30,3,16,66,,54,54,9,20,5,7,0.3,0.4
2026-01-29T1100,1780A,123.9497,47.3389,齐齐哈尔市,中心广场,,19,16,22,12,15,60,,56,56,11,16,5,5,0.4,0.5
2026-01-29T1100,1781A,123.9483,47.3229,齐齐哈尔市,农牧车辆厂,,29,29,25,14,14,61,,56,56,8,14,5,6,0.3,0.3
2026-01-29T1100,1783A,123.9442,47.2994,齐齐哈尔市,市环境监测站,,31,31,28,6,13,62,,61,60,10,17,4,5,0.6,0.6
2026-01-29T1100,3662A,123.6341,47.2079,齐齐哈尔市,富区青少年活动中心,,43,43,37,7,17,69,,62,62,6,13,4,5,0.4,0.5
2026-01-29T1100,2591A,107.9765,26.5724,黔东南苗族侗族自治州,市环境监测站,细颗粒物(PM2.5),73,85,70,53,38,23,,29,26,18,12,7,5,1.0,0.9
2026-01-29T1100,2881A,107.8909,26.531,黔东南苗族侗族自治州,凯里学院,细颗粒物(PM2.5),59,56,67,42,38,85,,48,48,10,13,3,3,0.7,0.8
2026-01-29T1100,2593A,107.5223,26.2371,黔南布依族苗族自治州,小围寨,,,,41,,32,58,,47,47,7,11,,6,,1
2026-01-29T1100,3538A,107.5175,26.2977,黔南布依族苗族自治州,沙坝,细颗粒物(PM2.5),58,61,47,41,30,58,,37,37,9,14,4,4,0.8,1
2026-01-29T1100,2589A,104.9022,25.0943,黔西南布依族苗族自治州,场坝街,,32,24,23,22,20,45,,36,36,9,8,3,3,0.6,0.7
2026-01-29T1100,2590A,104.8812,25.0994,黔西南布依族苗族自治州,坪东大道,,,33,32,22,26,,,35,35,9,8,6,5,0.8,0.9
2026-01-29T1100,2502A,108.6238,21.9667,钦州市,市环保站,细颗粒物(PM2.5),64,58,85,46,49,80,,99,86,18,22,5,4,0.6,0.8
2026-01-29T1100,2503A,108.655,21.9481,钦州市,沙埠小学,颗粒物(PM10),55,60,85,32,49,89,,81,75,16,33,6,5,0.4,0.6
2026-01-29T1100,2504A,108.5989,21.7435,钦州市,港区一小,,,,85,,45,,,102,89,16,33,2,4,0.6,0.8
2026-01-29T1100,3404A,108.5959,21.9634,钦州市,北职校,颗粒物(PM10),54,57,68,33,44,86,,100,90,16,22,5,4,0.8,0.9
2026-01-29T1100,1046A,119.5247,39.9346,秦皇岛市,建设大厦,颗粒物(PM10),65,79,48,40,22,25,,13,13,45,30,14,9,0.9,0.6
2026-01-29T1100,3132A,119.5979,39.938,秦皇岛市,文明里,细颗粒物(PM2.5),55,58,46,39,23,37,,24,20,46,29,23,13,0.5,0.3
2026-01-29T1100,4066A,119.7458,39.9952,秦皇岛市,南园路157号,颗粒物(PM10),60,70,42,33,24,56,,23,23,27,37,20,13,0.5,0.5
2026-01-29T1100,4067A,119.5131,39.8858,秦皇岛市,翠岛大街1号,颗粒物(PM10),51,51,44,27,17,47,,33,29,42,28,19,12,0.5,0.4
2026-01-29T1100,4198A,119.509013,39.825305,秦皇岛市,北戴河轮滑馆,,,58,41,23,18,53,,27,18,,24,17,8,,0.4
2026-01-29T1100,1310A,120.404,36.0625,青岛市,市南区东部子站,颗粒物(PM10),57,63,67,39,36,66,,57,46,14,27,8,10,0.5,0.6
2026-01-29T1100,1311A,120.362344,36.10282,青岛市,四方区子站,细颗粒物(PM2.5),93,90,71,69,47,40,,47,32,47,30,6,6,1.2,1
2026-01-29T1100,1312A,120.294373,36.054183,青岛市,市南区西部子站,细颗粒物(PM2.5),105,88,72,79,51,26,,31,22,58,43,6,6,1.0,0.8
2026-01-29T1100,1313A,120.4581,36.0858,青岛市,崂山区子站,,,56,60,27,31,,,52,40,18,29,9,10,0.5,0.6
2026-01-29T1100,1315A,120.3945,36.3083,青岛市,城阳区子站,,,85,88,,46,53,,52,44,24,40,7,9,0.7,0.9
2026-01-29T1100,3642A,120.3454,36.0735,青岛市,市北区南部,细颗粒物(PM2.5),79,85,74,58,45,43,,45,29,38,33,6,5,0.8,0.7
2026-01-29T1100,3643A,120.3897,36.18,青岛市,李沧区北部,细颗粒物(PM2.5),89,80,74,66,52,44,,52,35,41,35,10,10,0.8,0.8
2026-01-29T1100,4110A,120.5222,36.4089,青岛市,盟旺路653号,细颗粒物(PM2.5),77,67,90,56,54,55,,61,50,22,30,2,5,0.9,1
2026-01-29T1100,4290A,120.196923,35.954556,青岛市,珠江路669号,细颗粒物(PM2.5),70,68,64,51,44,46,,68,43,42,26,7,7,0.6,0.6
2026-01-29T1100,4291A,120.0424,35.8656,青岛市,黄岛区人民政府广场,细颗粒物(PM2.5),77,90,88,56,52,26,,35,26,64,44,12,10,1.3,1.1
2026-01-29T1100,1703A,113.0218,23.7086,清远市,凤城街办,,43,38,33,30,25,70,,52,52,20,22,/,/,/,/
2026-01-29T1100,3025A,113.0479,23.6343,清远市,技师学院,细颗粒物(PM2.5),55,56,40,39,20,67,,41,41,30,32,8,8,0.9,1.1
2026-01-29T1100,3318A,112.9898,23.7403,清远市,清新太和,,42,42,35,29,24,70,,50,48,26,24,11,11,0.8,0.9
2026-01-29T1100,3455A,113.076,23.72,清远市,清城东城,,37,37,34,23,20,70,,48,48,20,25,/,/,/,/
2026-01-29T1100,2661A,107.6325,35.7357,庆阳市,庆阳五中,颗粒物(PM10),131,211,198,96,79,78,,78,76,24,25,8,9,0.9,0.8
2026-01-29T1100,2662A,107.6361,35.7067,庆阳市,市环保局,,,,194,,82,77,,85,79,,19,9,9,0.8,0.9
2026-01-29T1100,1916A,103.7897,25.5036,曲靖市,环境监测站,,27,23,30,17,16,85,,66,66,8,11,3,4,0.4,0.5
2026-01-29T1100,1917A,103.8013,25.5357,曲靖市,烟厂办公区,,33,33,31,9,13,78,,70,68,8,9,4,4,0.4,0.3
2026-01-29T1100,3376A,103.7926,25.4651,曲靖市,南苑二区,,27,27,24,16,14,77,,68,66,4,6,4,4,0.4,0.3
2026-01-29T1100,3377A,103.7442,25.5259,曲靖市,曲靖师范学院,,32,32,31,12,16,81,,68,68,8,10,3,3,0.3,0.3
2026-01-29T1100,1264A,118.8694,28.94,衢州市,环保大楼,细颗粒物(PM2.5),84,93,107,62,79,43,,34,34,26,30,/,/,/,/
2026-01-29T1100,1266A,118.8622,28.9809,衢州市,衢州学院,细颗粒物(PM2.5),79,82,105,58,78,46,,30,30,18,27,5,4,0.5,0.7
2026-01-29T1100,4097A,118.9646,28.9832,衢州市,衢州三中,细颗粒物(PM2.5),84,94,116,62,79,39,,24,24,25,33,5,5,0.8,0.8
2026-01-29T1100,1611A,118.5818,24.9116,泉州市,涂山街,,46,46,31,16,17,72,,72,68,16,15,3,3,0.5,0.6
2026-01-29T1100,1612A,118.597,24.8976,泉州市,津头埔,,36,36,29,16,19,78,,72,70,13,16,3,3,0.5,0.5
2026-01-29T1100,1613A,118.6669,24.9422,泉州市,万安,,43,43,33,14,17,74,,67,67,13,16,3,3,0.7,0.7
2026-01-29T1100,4105A,118.6355,24.9148,泉州市,霞新路6号,,32,32,30,16,19,78,,64,64,12,20,/,/,0.6,0.7
2026-01-29T1100,2626A,88.8873,29.2723,日喀则市,日喀则监测站,,42,42,45,22,11,57,,82,72,14,6,10,8,0.5,0.4
2026-01-29T1100,3726A,88.8775,29.2425,日喀则市,林业技术推广中心,,44,44,48,13,9,59,,82,67,15,6,11,9,0.7,0.4
2026-01-29T1100,1659A,119.4711,35.421,日照市,监测站,细颗粒物(PM2.5),102,117,96,76,64,19,,4,4,70,51,18,13,1.5,1.3
2026-01-29T1100,1660A,119.523,35.4216,日照市,市政府广场,细颗粒物(PM2.5),80,85,76,59,46,35,,18,9,56,47,17,11,1.2,0.8
2026-01-29T1100,1661A,119.5511,35.4113,日照市,港务局,细颗粒物(PM2.5),94,92,86,70,46,31,,16,7,52,48,13,11,1.4,1
2026-01-29T1100,3507A,119.5326,35.4627,日照市,职业技术学院,细颗粒物(PM2.5),87,107,73,64,44,34,,26,17,54,38,14,9,1.4,1.1
2026-01-29T1100,3604A,119.3267,35.1043,日照市,岚山环保分局,,,,68,,38,,,49,41,38,33,29,13,1.4,1
2026-01-29T1100,1835A,111.1922,34.7752,三门峡市,市政府,细颗粒物(PM2.5),196,,183,147,126,44,,63,58,27,22,6,8,1.0,0.8
2026-01-29T1100,1836A,111.1588,34.794,三门峡市,开发区,细颗粒物(PM2.5),190,214,243,143,124,43,,60,55,27,23,5,8,0.9,0.8
2026-01-29T1100,3039A,111.1911,34.7829,三门峡市,三门峡市第一小学,细颗粒物(PM2.5),189,170,205,142,116,42,,60,55,28,24,6,8,0.9,0.8
2026-01-29T1100,3598A,111.1031,34.719,三门峡市,富达温泉假日酒店,细颗粒物(PM2.5),193,188,198,145,109,37,,61,54,34,26,5,7,1.1,0.9
2026-01-29T1100,2324A,117.621,26.2626,三明市,三钢,,35,30,26,24,27,42,,18,18,12,16,9,9,0.7,0.9
2026-01-29T1100,2325A,117.6352,26.2714,三明市,三明二中,,38,29,42,26,24,38,,18,18,16,18,8,7,0.9,0.9
2026-01-29T1100,2326A,117.6028,26.2377,三明市,三元区政府,,36,25,24,25,23,47,,21,20,13,17,7,7,0.8,0.9
2026-01-29T1100,1877A,109.4962,18.2682,三亚市,河西子站,,34,34,35,17,17,96,,97,96,6,5,3,2,0.4,0.3
2026-01-29T1100,3540A,109.7348,18.3443,三亚市,君悦子站,,44,44,40,16,18,93,,86,81,6,7,4,15,0.5,0.4
2026-01-29T1100,4135A,109.1714,18.3739,三亚市,城东小学站,,,,30,,16,,,63,62,,9,,,,
2026-01-29T1100,2624A,91.7592,29.234,山南市,山南监测站,,36,36,19,12,4,64,,87,75,13,4,6,5,0.7,0.5
2026-01-29T1100,2625A,91.7701,29.2436,山南市,山南人民医院,,31,31,24,20,9,60,,85,73,15,4,9,7,0.7,0.5
2026-01-29T1100,1674A,116.6795,23.3666,汕头市,金平子站,,35,35,28,21,19,75,,70,63,15,12,6,5,0.8,0.8
2026-01-29T1100,1675A,116.7248,23.3632,汕头市,龙湖子站,,31,31,28,18,20,74,,68,62,13,13,11,10,/,/
2026-01-29T1100,1676A,116.7257,23.2774,汕头市,濠江子站,,27,27,26,16,16,78,,72,68,15,14,8,8,/,/
2026-01-29T1100,1677A,116.7518,23.4712,汕头市,澄海子站,,37,37,32,23,22,69,,61,56,15,14,8,8,0.7,0.7
2026-01-29T1100,1678A,116.6088,23.2539,汕头市,潮阳子站,,29,22,25,20,18,75,,74,69,12,10,7,6,0.6,0.6
2026-01-29T1100,3444A,116.4539,23.2684,汕头市,潮南峡山,,27,27,31,18,20,79,,69,65,16,12,7,6,0.8,0.8
2026-01-29T1100,3624A,116.4069,23.2533,汕头市,潮南子站,,33,33,38,18,19,65,,63,56,24,19,8,7,/,/
2026-01-29T1100,1693A,115.3653,22.7751,汕尾市,市环保局,,39,31,43,27,25,69,,80,73,16,12,8,7,0.8,0.8
2026-01-29T1100,1695A,115.362,22.7926,汕尾市,新城中学,,36,33,37,25,26,70,,77,70,15,12,6,5,0.7,0.7
2026-01-29T1100,2645A,109.9155,33.8714,商洛市,监测站,,,116,149,63,60,65,,75,75,,24,14,10,1.0,0.7
2026-01-29T1100,3045A,109.9647,33.8486,商洛市,商州区中学,细颗粒物(PM2.5),92,75,134,68,60,81,,68,68,21,22,30,9,1.2,0.8
2026-01-29T1100,2408A,115.6701,34.4283,商丘市,环境监测站,细颗粒物(PM2.5),94,100,94,70,72,62,,35,35,17,25,3,2,0.8,0.8
2026-01-29T1100,2409A,115.6458,34.4047,商丘市,粮食局,细颗粒物(PM2.5),85,89,92,63,72,58,,43,43,20,21,4,3,0.7,0.6
2026-01-29T1100,3171A,115.6069,34.4465,商丘市,梁园区档案局,细颗粒物(PM2.5),70,81,85,51,63,67,,39,39,17,23,2,2,0.8,0.8
2026-01-29T1100,4119A,115.6701,34.3767,商丘市,北海东路185号,细颗粒物(PM2.5),84,90,103,62,65,68,,42,42,16,24,3,2,0.6,0.6
2026-01-29T1100,4120A,115.6172,34.3704,商丘市,中山大街3号,细颗粒物(PM2.5),75,94,106,55,66,72,,55,55,18,21,7,5,0.5,0.5
2026-01-29T1100,1141A,121.401,31.2382,上海市,普陀,,40,40,28,16,15,65,,59,59,28,30,6,5,0.4,0.4
2026-01-29T1100,1142A,121.4774,31.2043,上海市,十五厂,,40,40,28,13,13,68,,56,56,35,41,7,7,0.6,0.6
2026-01-29T1100,1143A,121.4673,31.3011,上海市,虹口,,44,44,31,15,14,62,,45,45,22,41,7,7,0.1,0.2
2026-01-29T1100,1147A,121.4253,31.226,上海市,静安监测站,,36,36,27,11,14,74,,66,66,24,29,7,6,0.1,0.1
2026-01-29T1100,1148A,121.7029,31.1905,上海市,浦东川沙,,47,47,27,16,12,67,,56,56,18,25,8,7,0.6,0.5
2026-01-29T1100,1149A,121.5339,31.229,上海市,浦东新区监测站,,39,39,25,18,17,72,,55,55,10,17,6,5,0.5,0.5
2026-01-29T1100,1150A,121.5776,31.2038,上海市,浦东张江,,42,42,28,19,14,79,,68,68,17,26,6,6,0.4,0.3
2026-01-29T1100,3265A,121.4242,31.3303,上海市,宝山庙行,,36,36,32,15,15,66,,32,32,18,41,7,8,0.3,0.4
2026-01-29T1100,3266A,121.8789,31.4662,上海市,崇明上实东滩,,39,39,19,18,10,93,,81,81,4,5,4,4,0,0
2026-01-29T1100,3268A,121.316,31.2839,上海市,嘉定南翔,,35,35,30,9,15,67,,32,32,23,45,3,3,0.4,0.4
2026-01-29T1100,3269A,121.3357,30.7455,上海市,金山新城,,30,30,19,17,14,76,,62,62,20,22,8,8,0.6,0.5
2026-01-29T1100,3270A,121.4996,31.0741,上海市,闵行浦江,,35,35,30,17,16,69,,38,38,18,36,6,6,0.4,0.4
2026-01-29T1100,3271A,121.2886,31.1663,上海市,青浦徐泾,,37,37,27,16,14,74,,58,58,24,34,4,4,0.3,0.4
2026-01-29T1100,3272A,121.2193,31.0382,上海市,松江图书馆,,38,38,33,16,16,64,,29,29,28,45,6,6,0.3,0.4
2026-01-29T1100,3273A,121.3904,31.206,上海市,长宁仙霞,,35,35,26,10,12,70,,62,62,16,20,6,6,0,0
2026-01-29T1100,3274A,121.7964,31.0507,上海市,浦东惠南,,48,48,29,19,12,76,,66,66,21,23,4,3,0.5,0.4
2026-01-29T1100,3544A,121.4891,30.925,上海市,奉贤南桥新城,,39,39,32,18,18,73,,42,42,17,28,1,2,0.5,0.4
2026-01-29T1100,4183A,121.417401,31.16637,上海市,冠生园路458号,,34,34,24,17,14,69,,60,60,28,33,5,4,0.3,0.3
2026-01-29T1100,4205A,121.541914,31.268301,上海市,宁武路151号,颗粒物(PM10),54,58,33,19,15,58,,36,36,36,51,6,5,0.4,0.5
2026-01-29T1100,2382A,117.9758,28.4439,上饶市,市监测站,颗粒物(PM10),78,105,82,50,44,60,,39,39,21,27,8,6,/,/
2026-01-29T1100,2383A,117.9521,28.4637,上饶市,凤凰光学,细颗粒物(PM2.5),104,102,84,78,60,44,,21,21,32,32,9,10,1.0,1
2026-01-29T1100,3685A,117.897,28.4316,上饶市,双创科技城,细颗粒物(PM2.5),98,96,73,73,60,54,,35,34,35,35,5,6,1.0,1
2026-01-29T1100,4211A,118.190438,28.444845,上饶市,裕丰大道,细颗粒物(PM2.5),105,114,95,79,65,50,,29,29,36,36,14,11,1.1,0.9
2026-01-29T1100,1669A,113.5821,24.7733,韶关市,市八中,,38,38,30,26,20,54,,31,31,19,22,8,9,0.8,0.9
2026-01-29T1100,1671A,113.5916,24.7973,韶关市,园林处,,33,27,25,23,20,57,,28,27,16,21,7,7,/,/
2026-01-29T1100,1673A,113.5971,24.6864,韶关市,曲江监测站,,48,48,32,32,21,41,,22,22,24,26,19,15,0.9,0.9
2026-01-29T1100,2809A,113.6668,24.7756,韶关市,大学路288号,,43,41,26,30,20,48,,16,16,18,22,8,4,/,/
2026-01-29T1100,3622A,113.5556,24.8082,韶关市,碧湖山庄,,41,41,29,28,21,55,,35,35,18,18,8,7,0.8,0.8
