timepoint,stationcode,longitude,latitude,area,positionname,primarypollutant,aqi,pm10,pm10_24h,pm2_5,pm2_5_24h,o3,o3_24h,o3_8h,o3_8h_24h,no2,no2_24h,so2,so2_24h,co,co_24h
2025-06-29T2000,2566A,102.1879,31.914,阿坝藏族羌族自治州,州农科所,,22,22,37,3,10,41,,54,54,6,12,13,13,0.5,0.6
2025-06-29T2000,2568A,102.2502,31.8896,阿坝藏族羌族自治州,马师校,,39,,20,27,17,53,,76,76,4,14,6,6,0.5,0.5
2025-06-29T2000,3994A,102.2165,31.9024,阿坝藏族羌族自治州,马尔康中学西区,,36,,21,25,18,60,,84,84,3,8,6,6,0.6,0.6
2025-06-29T2000,2695A,80.292,41.1694,阿克苏地区,电视台,,,92,68,16,18,153,,143,143,,23,15,5,0.2,0.8
2025-06-29T2000,2696A,80.2613,41.1551,阿克苏地区,艺术中心,颗粒物(PM10),75,100,90,35,32,154,,151,151,1,22,4,3,0.3,0.5
2025-06-29T2000,2204A,105.6467,38.8363,阿拉善盟,西城区西花园,,41,23,30,16,18,129,,156,141,9,9,6,6,0.7,0.7
2025-06-29T2000,2205A,105.6985,38.8411,阿拉善盟,蒙二幼,,37,28,48,11,18,116,,146,129,8,8,7,8,0.5,0.6
2025-06-29T2000,2206A,105.724,38.8516,阿拉善盟,环保局新楼,,35,31,37,9,17,112,,153,129,6,5,9,9,0.6,0.6
2025-06-29T2000,2708A,88.1264,47.8517,阿勒泰地区,市站,,35,10,15,3,5,109,,107,107,5,8,1,1,0.2,0.3
2025-06-29T2000,2630A,80.1161,32.5,阿里地区,阿里监测站,,42,33,10,7,3,133,,117,117,5,5,2,3,0.3,0.3
2025-06-29T2000,3192A,80.0903,32.5028,阿里地区,阿里藏医院,,,50,18,11,8,136,,122,122,,2,7,8,,0.4
2025-06-29T2000,2642A,109.0318,32.6537,安康市,香溪洞,,33,19,15,18,17,104,,88,,3,4,5,5,1.0,0.6
2025-06-29T2000,2644A,109.0072,32.6975,安康市,汉滨区检察院,,29,28,16,11,7,92,,116,115,15,6,6,8,0.4,0.4
2025-06-29T2000,4054A,109.0325,32.6913,安康市,市邮政管理局,,31,23,18,8,9,97,,122,121,11,6,6,8,0.6,0.5
2025-06-29T2000,2291A,117.0809,30.5177,安庆市,环科院,,22,22,14,12,8,60,,63,63,10,15,3,3,0.5,0.5
2025-06-29T2000,2292A,117.0331,30.5119,安庆市,马山宾馆,,23,23,14,14,5,51,,60,57,18,17,4,4,0.5,0.4
2025-06-29T2000,2294A,116.9896,30.6145,安庆市,安庆大学,,31,31,17,18,8,57,,78,77,12,12,3,4,0.5,0.4
2025-06-29T2000,3173A,117.0598,30.5351,安庆市,市人大,,20,20,14,13,8,64,,71,71,15,12,2,5,0.4,0.4
2025-06-29T2000,3122A,105.9606,26.2611,安顺市,伍家关,,,8,8,,7,48,,52,48,4,2,3,3,0.4,0.4
2025-06-29T2000,3123A,105.9408,26.2431,安顺市,凤凰山,,19,13,10,13,9,49,,58,52,7,4,3,2,0.4,0.4
2025-06-29T2000,3124A,105.9439,26.2564,安顺市,金钟山,,16,10,9,9,6,50,,57,51,6,3,4,4,0.5,0.5
2025-06-29T2000,3125A,105.8983,26.2481,安顺市,娄家坡,,16,10,6,8,5,49,,54,48,3,2,4,4,0.6,0.5
2025-06-29T2000,1818A,114.4839,36.0621,安阳市,棉研所,,,,,,,,,,,,,,,,
2025-06-29T2000,1819A,114.3551,36.1017,安阳市,红庙街,,26,20,26,9,17,81,,114,105,2,2,1,2,0.4,0.5
2025-06-29T2000,1820A,114.361,36.0681,安阳市,银杏小区,,27,23,31,9,27,85,,120,108,1,2,2,2,0.3,0.4
2025-06-29T2000,3141A,114.3922,36.0878,安阳市,信访局,,29,23,28,14,15,91,,122,114,2,3,1,2,0.5,0.6
2025-06-29T2000,3669A,114.4705,36.0637,安阳市,左辅环卫站,,25,24,24,10,19,80,,108,102,4,3,4,5,0.5,0.5
2025-06-29T2000,3703A,114.2917,36.0949,安阳市,安钢职工学校,,25,21,33,8,22,77,,114,103,2,6,2,4,0.4,0.6
2025-06-29T2000,1748A,123.044,41.1196,鞍山市,深沟寺,,20,14,30,7,21,62,,90,71,6,7,5,5,0.8,0.9
2025-06-29T2000,1749A,123.011,41.0931,鞍山市,太阳城,,21,6,30,3,22,67,,96,75,8,8,6,6,0.7,0.8
2025-06-29T2000,1750A,123.0485,41.1442,鞍山市,太平,,21,20,52,10,32,67,,110,74,8,7,5,5,0.8,0.9
2025-06-29T2000,1751A,122.9642,41.0971,鞍山市,铁西三道街,,41,41,59,6,35,71,,116,74,8,11,5,6,0.8,0.9
2025-06-29T2000,1753A,123.022,41.0821,鞍山市,明达新区,,22,9,25,3,20,68,,110,71,5,6,6,6,0.7,0.9
2025-06-29T2000,1754A,123.1289,41.0228,鞍山市,千山,,,,,,,,,,,,,,,,
2025-06-29T2000,4201A,122.9446,41.0826,鞍山市,兴盛南路290号,,22,14,36,7,23,68,,107,76,13,15,3,4,0.5,0.8
2025-06-29T2000,2195A,107.4212,40.761,巴彦淖尔市,附二中,颗粒物(PM10),185,319,38,85,18,127,,169,167,15,10,7,9,0.6,0.6
2025-06-29T2000,2196A,107.37,40.7372,巴彦淖尔市,市环保大楼,颗粒物(PM10),312,429,52,103,20,122,,174,171,18,12,8,8,0.5,0.5
2025-06-29T2000,1956A,86.1472,41.7538,巴音郭楞蒙古自治州,孔雀公园,颗粒物(PM10),54,58,78,23,28,122,,116,116,7,27,2,3,0.2,0.3
2025-06-29T2000,1957A,86.1972,41.7166,巴音郭楞蒙古自治州,棉纺厂,颗粒物(PM10),65,80,107,8,22,120,,115,115,8,20,3,4,0.2,0.3
2025-06-29T2000,1958A,86.2357,41.7173,巴音郭楞蒙古自治州,经济开发区,颗粒物(PM10),53,55,77,9,18,121,,118,118,5,8,2,3,0.2,0.2
2025-06-29T2000,2914A,106.7677,31.8794,巴中市,苏山坪,,26,15,17,10,12,81,,87,86,8,7,5,5,0.3,0.4
2025-06-29T2000,3181A,106.7768,31.8526,巴中市,市五中,,21,21,24,13,16,62,,93,90,20,15,8,8,0.5,0.6
2025-06-29T2000,3183A,106.7418,31.8654,巴中市,圣泉水务公司,,23,16,20,12,14,72,,94,91,16,15,6,6,0.6,0.6
2025-06-29T2000,3616A,106.7616,31.8344,巴中市,市中心医院,,24,14,22,3,13,76,,86,85,10,17,7,7,0.4,0.5
2025-06-29T2000,2235A,122.7911,45.6077,白城市,洮北区环保局,,42,32,24,29,22,101,,105,105,9,9,7,6,0.4,0.3
2025-06-29T2000,2236A,122.8738,45.5725,白城市,市环保局,,29,27,23,20,17,92,,101,101,8,6,6,6,0.6,0.5
2025-06-29T2000,2231A,126.4219,41.9171,白山市,喜丰,,24,24,33,11,14,72,,115,102,5,14,6,6,0.8,0.9
2025-06-29T2000,2232A,126.4077,41.9419,白山市,环保局,,34,34,32,15,14,66,,119,104,9,10,3,3,0.7,0.7
2025-06-29T2000,2647A,104.1724,36.5446,白银市,第三小学,,37,8,87,7,26,116,,115,115,4,10,5,57,0.5,0.7
2025-06-29T2000,2648A,104.1465,36.5482,白银市,动力公司,,30,,80,15,29,94,,106,102,4,11,6,21,0.4,0.5
2025-06-29T2000,2512A,106.6103,23.9011,百色市,市监测站,,32,32,28,15,14,49,,76,74,17,13,9,12,0.5,0.5
2025-06-29T2000,2513A,106.6538,23.8859,百色市,市中心血站,,34,34,27,16,16,48,,70,67,17,12,7,9,0.7,0.7
2025-06-29T2000,3406A,106.6085,23.8798,百色市,祈福高中,,25,25,34,14,16,53,,70,70,15,17,8,10,0.4,0.5
2025-06-29T2000,2270A,117.396,32.939,蚌埠市,工人疗养院,,23,16,12,3,2,72,,91,84,2,3,3,4,0.3,0.3
2025-06-29T2000,2271A,117.3605,32.9427,蚌埠市,百货大楼,,22,16,16,3,2,69,,84,80,6,7,5,5,0.3,0.3
2025-06-29T2000,2273A,117.4185,32.8911,蚌埠市,蚌埠学院,,21,7,8,3,3,66,,86,79,3,4,5,6,0.3,0.4
2025-06-29T2000,2274A,117.3533,32.9673,蚌埠市,淮上区政府,,23,14,11,3,3,73,,89,85,5,5,5,6,0.4,0.4
2025-06-29T2000,2275A,117.3145,32.8977,蚌埠市,高新区,,20,14,12,3,3,64,,82,78,9,7,6,5,0.4,0.4
2025-06-29T2000,3715A,117.3092,32.9314,蚌埠市,蚌埠田家炳中学,,21,19,17,8,5,65,,80,76,5,6,6,8,0.2,0.2
2025-06-29T2000,1585A,109.8756,40.6532,包头市,市环境监测站,,45,25,35,18,25,142,,180,176,34,22,15,10,0.5,0.5
2025-06-29T2000,1587A,109.9991,40.5842,包头市,包头八中,臭氧1小时,58,27,48,8,26,166,,175,175,20,24,17,11,0.9,0.9
2025-06-29T2000,1588A,109.8538,40.6821,包头市,青山宾馆,,49,18,33,8,26,154,,176,174,15,21,14,9,0.5,0.6
2025-06-29T2000,1589A,109.8642,40.6288,包头市,惠龙物流,臭氧1小时,52,17,38,14,24,161,,178,178,18,19,8,8,0.6,0.8
2025-06-29T2000,1590A,110.0377,40.5546,包头市,东河鸿龙湾,,50,36,34,17,24,160,,188,187,24,23,12,9,0.6,0.6
2025-06-29T2000,3283A,109.9154,40.5685,包头市,滨河大厦,臭氧1小时,70,24,30,12,23,176,,185,185,17,23,9,9,0.6,0.7
2025-06-29T2000,3419A,109.9447,40.6261,包头市,包头市委党校,臭氧1小时,55,15,35,11,25,164,,179,178,20,21,22,13,0.7,0.8
2025-06-29T2000,3683A,109.8331,40.6576,包头市,昆区政府,,48,22,47,8,31,153,,173,171,20,20,10,8,0.7,0.8
2025-06-29T2000,1930A,107.185,34.3063,宝鸡市,庙沟村,,28,20,22,11,12,88,,146,131,10,9,5,5,0.4,0.3
2025-06-29T2000,1931A,107.0708,34.3017,宝鸡市,竹园沟,,23,18,24,9,14,71,,146,124,7,11,6,6,0.4,0.4
2025-06-29T2000,1932A,107.1906,34.3672,宝鸡市,三陆医院,,32,15,37,12,20,102,,155,140,16,23,6,8,0.5,0.6
2025-06-29T2000,1933A,107.1431,34.3547,宝鸡市,监测站,,28,17,35,12,17,87,,144,128,11,15,7,8,0.3,0.3
2025-06-29T2000,1934A,107.1186,34.3739,宝鸡市,技工学校,,31,,31,14,19,99,,154,138,6,9,8,9,0.5,0.5
2025-06-29T2000,1935A,107.3906,34.3528,宝鸡市,陈仓区环保局家属楼,,35,35,36,18,20,105,,160,151,12,19,6,9,0.4,0.4
2025-06-29T2000,1936A,107.2058,34.3497,宝鸡市,文理学院,,33,28,32,12,16,104,,158,144,12,14,6,7,0.5,0.5
2025-06-29T2000,1937A,107.2386,34.3622,宝鸡市,三迪小学,,34,31,35,16,19,107,,155,142,12,19,7,8,0.5,0.5
2025-06-29T2000,1051A,115.493,38.8632,保定市,游泳馆,,45,37,38,18,30,143,,159,159,8,7,5,4,0.3,0.3
2025-06-29T2000,1052A,115.5213,38.8959,保定市,华电二区,,50,25,41,25,29,159,,174,174,8,10,3,2,0.6,0.7
2025-06-29T2000,1053A,115.4713,38.9108,保定市,接待中心,臭氧1小时,60,47,44,21,29,168,,172,172,4,4,3,3,0.3,0.4
2025-06-29T2000,1054A,115.4612,38.8416,保定市,地表水厂,臭氧1小时,52,46,59,16,23,161,,178,177,13,11,3,3,0.6,0.7
2025-06-29T2000,3581A,115.31981,38.95208,保定市,满城区生态环境分局,,45,36,36,19,24,142,,162,162,7,7,2,2,0.3,0.3
2025-06-29T2000,3582A,115.47694,38.76408,保定市,清苑区第二中学,颗粒物(PM10),55,59,58,29,38,153,,172,171,4,8,3,3,0.6,0.6
2025-06-29T2000,3583A,115.62909,39.02311,保定市,徐水物探局,,42,,43,12,29,132,,164,162,3,5,3,4,0.4,0.4
2025-06-29T2000,4004A,115.4202,38.8656,保定市,双鹰农机,臭氧1小时,55,27,29,24,25,164,,174,174,10,8,2,2,0.3,0.4
2025-06-29T2000,4034A,115.5150,38.8590,保定市,植保所站,臭氧1小时,54,45,44,34,29,163,,178,178,12,13,5,4,0.4,0.4
2025-06-29T2000,2594A,99.1678,25.1081,保山市,市环境监测站,,16,11,12,11,15,40,,45,44,4,6,8,8,0.3,0.3
2025-06-29T2000,2595A,99.1711,25.1328,保山市,市环保局,,15,9,14,7,8,45,,53,52,4,5,6,6,0.3,0.4
2025-06-29T2000,1866A,109.2262,21.588,北海市,牛尾岭水库,,20,9,11,6,9,62,,72,72,4,4,11,5,0.5,0.4
2025-06-29T2000,1867A,109.1436,21.4086,北海市,海滩公园,,32,32,20,3,3,65,,66,66,7,5,2,2,0.8,0.6
2025-06-29T2000,1868A,109.0981,21.4661,北海市,新市环保局,,24,13,12,3,8,75,,74,74,3,3,2,2,0.4,0.4
2025-06-29T2000,1869A,109.1778,21.5233,北海市,北海工业园,颗粒物(PM10),62,74,19,39,10,69,,70,70,6,6,2,2,0.6,0.6
2025-06-29T2000,3400A,109.1911,21.4415,北海市,龙潭自来水厂,,24,10,12,6,8,76,,73,73,5,4,2,3,0.4,0.4
2025-06-29T2000,1001A,116.3621,39.8784,北京市,万寿西宫,,43,35,52,30,46,136,,175,171,12,11,3,3,0.6,0.7
2025-06-29T2000,1002A,116.2202,40.2915,北京市,定陵,臭氧1小时,57,32,39,31,36,165,,187,187,6,3,4,4,0.6,0.6
2025-06-29T2000,1003A,116.4174,39.9289,北京市,东四,臭氧1小时,52,24,45,16,35,161,,182,180,13,14,2,2,0.5,0.6
2025-06-29T2000,1004A,116.4072,39.8863,北京市,天坛,,39,31,52,24,45,123,,163,159,10,11,2,3,0.7,0.8
2025-06-29T2000,1005A,116.462,39.9365,北京市,农展馆,,44,23,58,20,53,139,,158,158,14,14,4,4,1.1,1.1
2025-06-29T2000,1006A,116.3392,39.9295,北京市,官园,,46,,52,25,45,146,,171,169,11,13,3,3,0.5,0.6
2025-06-29T2000,1007A,116.2878,39.9611,北京市,海淀万柳,,48,19,52,17,47,153,,165,164,11,14,3,3,0.6,0.7
2025-06-29T2000,1008A,116.6636,40.135,北京市,顺义新城,,,,,,,96,,,,4,4,5,5,0.3,0.3
2025-06-29T2000,1009A,116.6275,40.3275,北京市,怀柔镇,,44,23,47,17,40,138,,166,162,9,11,3,2,0.5,0.6
2025-06-29T2000,1010A,116.2296,40.217,北京市,昌平镇,,49,39,47,26,31,156,,179,177,13,11,5,4,0.8,0.8
2025-06-29T2000,1011A,116.3966,39.9821,北京市,奥体中心,,45,22,42,18,32,141,,158,157,7,8,3,3,0.6,0.7
2025-06-29T2000,3281A,115.9718,40.4529,北京市,延庆夏都,臭氧1小时,55,40,38,36,32,164,,158,158,7,7,4,4,0.8,0.7
2025-06-29T2000,3418A,116.8336,40.4095,北京市,密云新城,,36,15,57,11,43,114,,155,149,3,7,1,2,0.5,0.7
2025-06-29T2000,3671A,116.088,39.9726,北京市,门头沟三家店,,47,35,56,28,41,149,,163,163,9,13,3,3,0.8,0.8
2025-06-29T2000,3672A,116.1541,39.8204,北京市,丰台云岗,,43,22,58,19,47,135,,169,166,9,9,2,2,0.5,0.5
2025-06-29T2000,3673A,116.6804,39.9081,北京市,通州东关,,48,41,67,33,58,134,,158,158,12,9,2,2,0.9,1
2025-06-29T2000,3674A,115.9577,39.7603,北京市,房山燕山,,40,29,44,21,39,128,,165,160,16,10,1,1,0.6,0.6
2025-06-29T2000,3675A,116.4672,39.7733,北京市,大兴旧宫,,45,25,55,19,40,144,,160,160,15,12,2,2,0.7,0.9
2025-06-29T2000,3694A,115.986,40.4563,北京市,延庆石河营,"细颗粒物(PM2.5),臭氧1小时",58,52,37,41,29,166,,156,156,8,7,2,2,0.7,0.6
2025-06-29T2000,3695A,116.6151,40.3053,北京市,怀柔新城,,39,,44,22,36,124,,151,147,7,6,1,1,0.9,1
2025-06-29T2000,3696A,116.2545,39.8768,北京市,丰台小屯,,36,31,54,25,46,112,,156,152,5,6,1,2,0.7,0.7
2025-06-29T2000,3697A,116.84,40.3844,北京市,密云镇,,34,28,57,18,52,107,,148,142,7,10,3,3,0.6,0.7
2025-06-29T2000,4182A,116.1942,39.9158,北京市,八角北路9号,,47,35,56,24,44,148,,164,164,15,15,1,1,0.6,0.6
2025-06-29T2000,4194A,117.0790,40.1518,北京市,洳河巡河路,,,,152,18,97,115,,143,142,2,5,2,2,0.6,0.8
2025-06-29T2000,1761A,123.8275,41.3064,本溪市,大峪,,21,,28,3,16,65,,113,74,2,6,6,6,0.3,0.4
2025-06-29T2000,1762A,123.7567,41.3325,本溪市,溪湖,,19,17,31,6,19,60,,110,75,10,9,8,7,0.8,0.9
2025-06-29T2000,1763A,123.7169,41.3094,本溪市,彩屯,,22,20,36,11,25,43,,93,63,26,25,11,10,2.2,2.2
2025-06-29T2000,1764A,123.7669,41.2864,本溪市,东明,,21,13,32,9,18,66,,129,77,5,8,5,5,0.6,0.8
2025-06-29T2000,1765A,123.7992,41.2664,本溪市,新立屯,,23,6,30,3,19,72,,135,81,4,7,4,4,0.5,0.7
2025-06-29T2000,1766A,123.8142,41.3472,本溪市,威宁,,24,24,52,3,25,49,,99,76,12,9,6,6,0.4,0.5
2025-06-29T2000,2587A,105.2864,27.3125,毕节市,八中,,25,24,21,17,14,48,,62,60,9,13,6,6,0.5,0.5
2025-06-29T2000,2588A,105.31,27.2944,毕节市,师专,,36,36,24,20,15,32,,62,59,28,17,4,6,0.5,0.4
2025-06-29T2000,4263A,105.3688,27.3598,毕节市,工业大道,,26,26,17,14,10,48,,70,68,15,13,7,7,0.6,0.6
2025-06-29T2000,1629A,118.0018,37.3617,滨州市,第二水厂,,35,34,34,24,22,109,,154,151,10,14,2,2,0.6,0.7
2025-06-29T2000,1630A,117.9776,37.393,滨州市,北中新校,,37,31,32,22,21,117,,158,156,9,16,6,7,0.6,0.7
2025-06-29T2000,3514A,117.9378,37.3956,滨州市,中海酒店,,39,34,26,17,23,123,,157,156,16,19,8,9,0.7,0.8
2025-06-29T2000,3515A,117.9378,37.3553,滨州市,开发区一中,,36,36,31,22,22,102,,137,136,15,19,10,10,0.4,0.6
2025-06-29T2000,3516A,118.0917,37.694,滨州市,金海六路,,35,34,25,24,15,103,,145,137,18,16,8,10,0.4,0.3
2025-06-29T2000,4028A,117.9956,37.3753,滨州市,滨州市西街道办事处,,39,27,27,22,22,123,,165,162,8,11,4,4,0.5,0.6
2025-06-29T2000,2311A,115.8072,33.8399,亳州市,污水处理厂,,21,,4,3,6,66,,71,71,6,7,4,4,0.2,0.6
2025-06-29T2000,2312A,115.7789,33.8518,亳州市,三国揽胜宫,,,,15,7,5,74,,72,72,6,8,3,3,0.3,0.4
2025-06-29T2000,3332A,115.7633,33.8034,亳州市,亳州学院,,24,8,5,3,7,74,,76,76,6,8,2,2,0.3,0.4
2025-06-29T2000,2693A,82.0485,44.8556,博尔塔拉蒙古自治州,市党校,,38,,22,21,13,121,,112,112,11,13,3,3,0.1,0.1
2025-06-29T2000,2694A,82.0806,44.8969,博尔塔拉蒙古自治州,市环保局,,36,21,27,7,10,115,,106,106,8,10,3,2,0,0.2
2025-06-29T2000,1071A,116.8842,38.2991,沧州市,沧县城建局,,35,30,48,18,47,111,,143,141,23,15,3,2,0.4,0.6
2025-06-29T2000,1072A,116.8584,38.3254,沧州市,电视转播站,,38,37,57,14,45,120,,130,130,14,14,6,6,0.3,0.5
2025-06-29T2000,1073A,116.8709,38.3228,沧州市,市环保局,,41,41,65,25,47,115,,135,135,14,13,3,3,0.4,0.6
2025-06-29T2000,3324A,116.8136,38.3004,沧州市,河北水利电力学院,,43,27,53,21,43,136,,160,160,16,12,3,3,0.2,0.5
2025-06-29T2000,2622A,97.1806,31.1273,昌都市,昌都监测站,,35,33,15,23,13,112,,108,108,8,5,6,6,0.2,0.2
2025-06-29T2000,3719A,97.1714,31.1406,昌都市,昌都会议中心,,40,36,21,28,15,128,,117,117,2,4,6,6,0.2,0.2
2025-06-29T2000,2690A,88.1236,43.8886,昌吉回族自治州,天山天池,,40,21,8,11,2,127,,128,128,7,6,6,4,0.6,0.6
2025-06-29T2000,2692A,87.2717,44.0297,昌吉回族自治州,新区政务中心,,44,23,25,3,11,140,,157,157,5,19,3,3,0.3,0.5
2025-06-29T2000,3613A,87.3095,44.0142,昌吉回族自治州,亚心广场,,42,19,35,3,7,132,,145,145,6,23,6,7,0.2,0.5
2025-06-29T2000,1120A,125.2863,43.9027,长春市,客车厂,细颗粒物(PM2.5),60,54,33,43,22,156,,162,162,22,16,4,4,0.6,0.5
2025-06-29T2000,1121A,125.2841,43.8463,长春市,邮电学院,颗粒物(PM10),52,54,30,26,17,127,,147,146,14,13,5,5,0.8,0.7
2025-06-29T2000,1122A,125.3716,43.8772,长春市,劳动公园,颗粒物(PM10),57,64,38,29,18,141,,148,148,16,16,5,5,0.7,0.6
2025-06-29T2000,1123A,125.3297,43.8805,长春市,园林处,颗粒物(PM10),53,55,33,26,18,148,,156,156,15,12,4,4,0.8,0.7
2025-06-29T2000,1124A,125.4605,43.79,长春市,净月潭,,38,38,31,20,13,99,,133,130,8,11,5,6,0.6,0.5
2025-06-29T2000,1125A,125.7194,43.515,长春市,甩湾子,,36,36,23,19,10,64,,120,108,36,13,1,1,0.8,0.7
2025-06-29T2000,1126A,125.3863,43.8447,长春市,经开区环卫处,,,108,41,,14,122,,140,138,18,13,6,6,1.0,0.6
2025-06-29T2000,1127A,125.245,43.7783,长春市,高新区管委会,颗粒物(PM10),51,51,30,29,18,112,,154,149,23,16,3,2,0.7,0.6
2025-06-29T2000,1128A,125.1761,43.8325,长春市,岱山公园,,49,49,34,30,21,136,,159,157,27,22,3,3,0.6,0.6
2025-06-29T2000,4281A,125.3346,43.9164,长春市,北亚泰大街1068号,颗粒物(PM10),56,61,37,35,22,150,,157,157,20,16,3,3,0.9,0.8
2025-06-29T2000,1335A,113.0833,28.2325,长沙市,经开区环保局,,20,18,16,13,8,61,,82,82,10,9,5,4,0.3,0.3
2025-06-29T2000,1336A,112.8872,28.2189,长沙市,高开区环保局,,24,24,21,12,7,74,,92,92,5,6,3,3,0.5,0.5
2025-06-29T2000,1337A,113.0792,28.2053,长沙市,马坡岭,,24,24,18,12,7,62,,81,81,6,6,5,4,0.5,0.5
2025-06-29T2000,1338A,112.9394,28.19,长沙市,湖南师范大学,,20,20,18,13,8,64,,81,81,6,8,2,3,0.4,0.4
2025-06-29T2000,1339A,113.0178,28.1322,长沙市,雨花区环保局,,22,17,18,12,6,70,,82,82,5,6,6,5,0.1,0.1
2025-06-29T2000,1340A,112.9792,28.2597,长沙市,伍家岭,,23,22,19,16,7,67,,85,85,6,8,3,3,0.4,0.4
2025-06-29T2000,1341A,113.0014,28.1944,长沙市,火车新站,,23,23,17,12,5,60,,79,79,9,8,7,7,0.5,0.5
2025-06-29T2000,1342A,112.9844,28.1178,长沙市,天心区环保局,,23,13,16,9,7,72,,90,90,8,9,1,2,0.0,0.1
2025-06-29T2000,1343A,112.8908,28.1308,长沙市,湖南中医药大学,,22,19,19,12,8,69,,89,89,4,6,3,3,0.4,0.5
2025-06-29T2000,1344A,112.9581,28.3611,长沙市,沙坪,,22,21,16,9,5,68,,88,88,13,9,4,4,0.4,0.5
2025-06-29T2000,1727A,113.1147,36.1547,长治市,清华站,,29,19,30,17,19,90,,145,139,18,11,6,6,0.8,0.9
2025-06-29T2000,1730A,113.0886,36.2125,长治市,审计局,,35,18,26,7,21,109,,148,145,14,11,8,8,1.0,0.9
2025-06-29T2000,1731A,113.0844,36.1856,长治市,长治八中,,33,23,30,19,28,105,,153,148,14,10,10,11,0.9,0.8
2025-06-29T2000,2845A,113.1569,36.1911,长治市,德盛苑,,31,17,29,12,19,99,,146,142,11,10,8,7,0.9,1
2025-06-29T2000,3568A,113.06,36.0464,长治市,向阳小学,颗粒物(PM10),56,62,65,36,30,93,,144,138,19,31,10,21,1.0,1.4
2025-06-29T2000,3569A,112.8792,36.3144,长治市,屯留一中,,36,29,58,25,46,98,,147,140,16,15,7,11,0.2,0.8
2025-06-29T2000,4189A,113.1131,36.19948,长治市,英华南巷50号,,31,21,32,12,22,99,,143,139,19,12,7,6,1.1,0.9
2025-06-29T2000,4190A,113.2367,36.3344,长治市,学府街1号,,,,,,,,,,,,,,,,
2025-06-29T2000,1854A,111.6975,28.9703,常德市,市二中,,26,,12,18,9,40,,67,64,32,11,5,4,0.8,0.7
2025-06-29T2000,1857A,111.7158,29.1456,常德市,白鹤山,,,,,,,,,,,,,,,,
2025-06-29T2000,3138A,111.7153,29.0289,常德市,武陵区永安,,23,21,15,16,7,66,,74,74,4,5,4,4,0.3,0.2
2025-06-29T2000,3139A,111.6892,28.9881,常德市,鼎城区玉霞,,28,22,15,19,8,37,,70,68,35,8,6,3,0.5,0.4
2025-06-29T2000,3140A,111.6625,29.0531,常德市,武陵区长庚,,28,,11,19,10,61,,73,72,9,6,3,3,0.5,0.5
2025-06-29T2000,1196A,119.9633,31.762,常州市,市监测站,,22,11,16,8,11,70,,117,114,22,20,8,9,0.4,0.4
2025-06-29T2000,1200A,119.9468,31.7069,常州市,武进监测站,,32,32,21,7,7,68,,119,114,19,15,10,11,0.6,0.6
2025-06-29T2000,1201A,119.9255,31.9087,常州市,安家,,25,25,19,8,9,75,,126,119,11,12,7,8,0.5,0.6
2025-06-29T2000,3002A,119.9805,31.8174,常州市,行政中心,,19,17,15,8,10,58,,111,107,13,10,11,12,0.2,0.3
2025-06-29T2000,3003A,120.0522,31.7748,常州市,经开区,,28,26,25,7,9,87,,126,121,12,11,6,7,0.2,0.5
2025-06-29T2000,3010A,119.9025,31.7964,常州市,钟楼,,17,17,17,7,8,50,,116,110,22,13,5,7,0.4,0.4
2025-06-29T2000,3429A,119.8598,31.7066,常州市,武进经发区,,20,15,21,8,11,63,,130,119,5,9,5,8,0.7,0.7
2025-06-29T2000,3430A,119.5826,31.7245,常州市,金坛城区,,22,8,14,3,10,68,,104,93,9,12,6,8,0.2,0.3
2025-06-29T2000,2220A,120.4318,41.5881,朝阳市,西梁,,39,32,33,27,24,78,,107,92,9,8,7,8,0.7,0.8
2025-06-29T2000,2221A,120.4521,41.5646,朝阳市,河畔小区,,28,,26,19,19,89,,118,102,7,7,6,6,0.3,0.4
2025-06-29T2000,2222A,120.4176,41.5648,朝阳市,八里堡,,34,34,37,22,22,81,,121,101,10,11,2,4,0.5,0.6
2025-06-29T2000,2223A,120.3806,41.5969,朝阳市,农业园区,,27,24,31,18,25,85,,113,100,10,11,2,3,0.5,0.6
2025-06-29T2000,1705A,116.6367,23.6719,潮州市,西园路,,16,,16,11,5,42,,53,53,12,10,4,4,0.5,0.5
2025-06-29T2000,3026A,116.6183,23.6608,潮州市,市政府,,18,18,13,8,6,35,,53,52,12,7,2,3,0.7,0.7
2025-06-29T2000,4036A,116.6461,23.6761,潮州市,金山,,18,18,17,10,11,40,,47,47,8,7,5,5,0.5,0.5
2025-06-29T2000,2472A,113.0073,25.9061,郴州市,马头岭,,16,16,13,3,6,49,,56,56,11,7,7,8,0.4,0.4
2025-06-29T2000,2473A,113.0116,25.8226,郴州市,市职中,,18,17,9,10,6,56,,58,58,7,9,5,6,0.6,0.5
2025-06-29T2000,2475A,113.0383,25.8071,郴州市,市审计局,,19,17,12,13,6,54,,60,60,5,5,9,16,0.4,0.3
2025-06-29T2000,2476A,113.0348,25.7759,郴州市,市环保局,,19,18,12,11,2,58,,60,60,7,6,6,16,0.3,0.2
2025-06-29T2000,4252A,113.0138,25.8011,郴州市,好美居路49号,,18,10,10,8,6,57,,63,63,11,5,5,6,0.3,0.2
2025-06-29T2000,1431A,103.9728,30.7236,成都市,金泉两河,,28,6,30,3,21,88,,97,95,14,18,2,3,0.4,0.5
2025-06-29T2000,1432A,104.176,30.6872,成都市,十里店,,26,12,36,3,24,83,,96,92,12,17,3,4,0.5,0.6
2025-06-29T2000,1433A,104.079,30.5706,成都市,三瓦窑,,27,,34,18,23,85,,98,90,16,29,3,4,0.6,0.6
2025-06-29T2000,1434A,104.1114,30.63,成都市,沙河铺,,24,22,35,8,21,74,,83,73,13,19,4,4,0.5,0.6
2025-06-29T2000,1437A,104.0786,30.6531,成都市,君平街,,23,23,36,13,24,61,,76,69,14,16,4,4,0.7,0.7
2025-06-29T2000,1438A,103.613,31.0283,成都市,灵岩寺,,,,,,,,,,,,,,,,
2025-06-29T2000,2880A,104.0239,30.65639,成都市,大石西路,,26,12,38,11,26,82,,90,84,12,17,4,5,0.7,0.8
2025-06-29T2000,3136A,104.2725,30.5589,成都市,龙泉驿区区政府,,21,7,15,7,10,65,,94,84,19,27,4,4,0.7,0.7
2025-06-29T2000,3357A,104.0106,30.6931,成都市,金博路,,25,16,29,3,21,78,,85,79,14,20,3,3,0.7,0.8
2025-06-29T2000,3359A,104.0578,30.5225,成都市,华阳,,20,,25,14,22,62,,78,68,21,25,6,6,0.6,0.7
2025-06-29T2000,3488A,104.3853,30.7453,成都市,青白江技师分院,,25,18,28,14,13,78,,101,84,15,32,5,10,0.7,0.7
2025-06-29T2000,3489A,104.0789,30.4072,成都市,科学城,,24,6,25,3,17,75,,101,91,9,14,3,3,0.4,0.5
2025-06-29T2000,4011A,103.8506,30.6947,成都市,光华大道三段,,32,17,31,16,23,101,,102,102,10,13,3,4,0.6,0.7
2025-06-29T2000,4224A,104.2433,30.5353,成都市,鲸龙路1057号,,23,22,28,16,18,60,,91,82,25,27,7,7,0.6,0.6
2025-06-29T2000,1062A,117.9531,40.9081,承德市,铁路,,46,46,47,26,28,117,,129,125,11,16,2,2,0.6,0.6
2025-06-29T2000,1063A,117.9392,40.9763,承德市,中国银行,,48,48,45,32,34,127,,141,136,10,8,3,3,0.6,0.5
2025-06-29T2000,1064A,117.9503,40.928,承德市,开发区,,47,47,45,26,29,126,,140,137,11,13,4,5,0.6,0.6
2025-06-29T2000,1065A,117.8051,40.9655,承德市,文化中心,,44,44,55,29,32,140,,136,135,6,11,1,4,0.5,0.5
2025-06-29T2000,1066A,117.9268,41.0026,承德市,离宫,,43,43,40,20,26,124,,137,134,8,7,1,2,0.6,0.5
2025-06-29T2000,2314A,117.47,30.6618,池州市,池州学院,,19,18,18,11,9,58,,71,68,4,8,5,6,0.2,0.3
2025-06-29T2000,3237A,117.4918,30.6617,池州市,展览馆,,19,19,18,9,8,39,,64,59,7,9,4,5,0.5,0.5
2025-06-29T2000,3333A,117.5627,30.695,池州市,第八中学,,19,19,21,9,8,52,,79,75,7,9,4,6,0.2,0.3
2025-06-29T2000,3334A,117.5038,30.6243,池州市,第十二中学,,21,21,20,11,8,30,,68,61,18,9,3,5,0.7,0.7
2025-06-29T2000,1744A,118.9233,42.2816,赤峰市,松山一中,,36,28,29,11,19,114,,146,135,19,12,7,8,0.6,0.7
2025-06-29T2000,1745A,118.9576,42.2728,赤峰市,哈达街,,36,33,33,9,17,114,,142,133,21,15,12,13,0.7,0.8
2025-06-29T2000,1746A,118.8788,42.2554,赤峰市,天义路,,35,25,23,15,23,111,,151,140,17,11,7,8,0.3,0.4
2025-06-29T2000,3058A,119.2658,42.0353,赤峰市,银河街,颗粒物(PM10),51,51,38,33,28,108,,139,131,10,9,7,11,0.8,0.8
2025-06-29T2000,3286A,118.9359,42.3147,赤峰市,桥北物流园区,,36,36,33,14,24,115,,140,131,9,6,8,8,0.5,0.8
2025-06-29T2000,2521A,107.3476,22.4136,崇左市,市环保局江州分局,,28,28,23,8,9,41,,66,63,8,9,5,6,0.7,0.7
2025-06-29T2000,4256A,107.3750,22.3736,崇左市,石景林东路7号,,15,10,27,3,10,46,,68,65,8,14,4,6,0.5,0.6
2025-06-29T2000,2298A,118.3093,32.3153,滁州市,老年大学,,20,16,20,6,5,62,,82,75,4,10,8,9,0.1,0.2
2025-06-29T2000,2299A,118.3244,32.2786,滁州市,人大宾馆,,22,,7,10,7,70,,97,90,2,8,4,5,0.1,0.2
2025-06-29T2000,3207A,118.3118,32.3038,滁州市,市政府原办公楼,,19,13,16,11,13,60,,85,78,4,8,4,5,0.3,0.4
2025-06-29T2000,3331A,118.3267,32.2634,滁州市,图书馆,,20,,9,11,8,61,,86,80,1,7,8,10,0.2,0.3
2025-06-29T2000,2605A,101.5482,25.0441,楚雄彝族自治州,州环境监测站,,15,10,8,3,4,48,,52,51,4,4,7,7,0.4,0.3
2025-06-29T2000,2606A,101.538,25.0492,楚雄彝族自治州,市经济开发区,,18,18,13,3,5,44,,50,49,6,5,6,6,0.5,0.4
2025-06-29T2000,2548A,107.5277,31.2827,达州市,达州职业技术学院,,36,36,24,3,3,32,,77,71,40,21,7,7,0.5,0.5
2025-06-29T2000,2549A,107.5086,31.2186,达州市,市环境监测站,,37,37,22,3,2,56,,75,73,36,25,5,5,0.4,0.3
2025-06-29T2000,2550A,107.4988,31.2132,达州市,凤凰小区,,24,24,20,7,5,66,,83,82,23,18,4,4,0.2,0.2
2025-06-29T2000,2551A,107.5082,31.1986,达州市,达县机关宾馆,,22,22,20,3,5,57,,84,82,27,22,5,6,0.2,0.3
2025-06-29T2000,2552A,107.4644,31.2124,达州市,市政中心,,23,23,26,3,2,67,,80,79,16,16,3,3,0.5,0.5
2025-06-29T2000,2614A,100.1542,25.7054,大理白族自治州,大理市环境监测站,,,,10,,13,51,,52,50,9,6,5,5,,0.5
2025-06-29T2000,2615A,100.2171,25.5811,大理白族自治州,大理古城,,26,,16,18,9,50,,72,70,14,7,4,4,0.8,0.7
2025-06-29T2000,1109A,121.612,38.9741,大连市,甘井子,,23,21,29,16,25,69,,91,88,34,19,7,6,0.6,0.6
2025-06-29T2000,1110A,121.565,38.9511,大连市,周水子,,23,19,28,13,27,72,,86,82,22,15,6,6,0.4,0.4
2025-06-29T2000,1111A,121.5637,38.8845,大连市,星海三站,,29,24,52,11,26,90,,94,92,10,8,4,5,0.2,0.3
2025-06-29T2000,1112A,121.6302,38.9117,大连市,青泥洼桥,,25,22,52,17,34,80,,93,90,16,12,6,6,0.7,0.7
2025-06-29T2000,1113A,121.6251,38.8638,大连市,傅家庄,,27,13,20,11,24,86,,88,88,18,14,12,12,0.2,0.3
2025-06-29T2000,1114A,121.5213,38.8661,大连市,七贤岭,,28,20,27,17,31,88,,93,92,19,13,10,9,0.6,0.7
2025-06-29T2000,1115A,121.2529,38.8061,大连市,旅顺,,20,12,23,7,19,63,,74,66,16,13,3,3,0.2,0.3
2025-06-29T2000,1116A,121.7485,39.1311,大连市,金州,,26,7,37,6,22,83,,95,92,10,11,6,6,0.2,0.4
2025-06-29T2000,1117A,121.7811,39.0496,大连市,开发区,,31,26,30,20,28,98,,93,93,19,22,11,11,0.2,0.3
2025-06-29T2000,1118A,121.9762,39.0631,大连市,双D港,,31,8,18,3,14,98,,98,98,6,6,9,9,0.3,0.4
2025-06-29T2000,1789A,124.81117,46.03138,大庆市,大同区,,28,28,35,9,17,81,,98,96,10,13,7,7,0.7,0.6
2025-06-29T2000,1790A,125.129,46.533,大庆市,龙凤区,,29,29,28,19,16,92,,122,112,12,13,5,6,0.6,0.5
2025-06-29T2000,1791A,124.902,46.408,大庆市,红岗区,,40,,30,28,26,109,,133,127,9,11,8,9,0.7,0.8
2025-06-29T2000,1792A,125.153,46.586,大庆市,萨尔图区,,47,47,40,18,20,88,,118,105,14,12,8,9,0.6,0.6
2025-06-29T2000,1793A,124.9042,46.6215,大庆市,让胡路区,,33,29,29,22,21,104,,122,118,10,10,4,4,0.4,0.4
2025-06-29T2000,3481A,125.141,46.634,大庆市,萨区政府监测点,,43,43,44,9,16,104,,133,126,11,11,6,6,0.5,0.5
2025-06-29T2000,1721A,113.3819,40.1097,大同市,果树场,,,,,,,,,,,,,,,,
2025-06-29T2000,1723A,113.2994,40.0758,大同市,云冈宾馆,,44,17,41,10,31,138,,152,152,14,16,5,6,0.6,0.7
2025-06-29T2000,1724A,113.3444,40.0917,大同市,大同大学,,48,22,28,12,22,152,,163,163,12,17,12,10,0.4,0.4
2025-06-29T2000,1725A,113.2661,40.1269,大同市,安家小村,,46,30,42,7,28,145,,160,160,15,19,4,5,0.5,0.8
2025-06-29T2000,1726A,113.2711,40.0844,大同市,教育学院,,48,20,42,8,25,151,,161,161,12,19,7,9,0.4,0.5
2025-06-29T2000,3282A,113.3397,40.0597,大同市,大同市卫生学校,,,,34,,22,142,,150,150,10,15,6,7,0.7,0.8
2025-06-29T2000,3565A,113.1367,40.1122,大同市,云冈站,颗粒物(PM10),54,57,49,21,22,141,,159,159,12,17,4,4,0.5,0.6
2025-06-29T2000,3566A,113.1186,40.2556,大同市,图书馆,,42,29,45,20,22,132,,73,,14,15,7,7,0.7,0.9
2025-06-29T2000,3567A,113.5931,40.0461,大同市,区一中,,45,,25,9,17,143,,153,153,10,10,12,14,0.5,0.5
2025-06-29T2000,4199A,113.2798,40.0997,大同市,魏都大道141号,,47,,51,15,24,150,,163,163,10,18,6,8,0.6,0.8
2025-06-29T2000,2269A,124.1069,50.4097,大兴安岭地区,科技局,,33,33,36,17,16,84,,101,94,4,8,5,6,0.4,0.3
2025-06-29T2000,3663A,124.1164,50.4278,大兴安岭地区,红旗社区,,28,,18,8,12,89,,107,100,2,8,6,6,0.3,0.3
2025-06-29T2000,1600A,124.3303,40.0625,丹东市,江湾东路,,19,14,20,3,16,60,,94,71,7,8,6,4,0.5,0.7
2025-06-29T2000,1601A,124.4256,40.1503,丹东市,临江后街,,19,8,22,3,12,60,,93,71,9,9,6,7,0.7,0.9
2025-06-29T2000,1602A,124.3933,40.1461,丹东市,元宝山,,19,,21,3,16,59,,96,66,8,8,5,6,0.6,0.7
2025-06-29T2000,1603A,124.3633,40.1092,丹东市,民主桥,,19,10,16,9,13,58,,92,69,4,6,6,7,0.5,0.7
2025-06-29T2000,3541A,109.5726,19.5167,儋州市,第一中学子站,,18,15,13,12,9,28,,38,35,7,4,6,7,0.6,0.6
2025-06-29T2000,3542A,109.5567,19.5187,儋州市,东坡学校子站,,10,9,10,7,10,32,,41,39,6,4,6,7,0.5,0.5
2025-06-29T2000,2616A,98.5842,24.428,德宏傣族景颇族自治州,德宏州监测站,,12,12,16,3,7,35,,37,36,7,8,8,9,0.7,0.7
2025-06-29T2000,3677A,98.5881,24.4368,德宏傣族景颇族自治州,芒市人民政府综合楼,,21,21,25,7,8,37,,37,37,6,8,6,11,0.5,0.5
2025-06-29T2000,1901A,104.4239,31.1208,德阳市,东山公园,,29,,26,8,19,91,,109,94,6,12,4,6,0.6,0.8
2025-06-29T2000,1902A,104.3826,31.1317,德阳市,西小区,,27,13,34,9,23,85,,100,92,15,20,5,6,0.5,0.7
2025-06-29T2000,1904A,104.3553,31.1091,德阳市,耐火材料厂,,25,9,33,7,22,79,,105,96,19,20,1,2,0.4,0.5
2025-06-29T2000,3639A,104.4019,31.1244,德阳市,市教育局,,28,11,28,3,21,88,,109,99,9,14,8,15,0.6,0.7
2025-06-29T2000,1622A,116.3032,37.4674,德州市,儿童乐园,,37,22,42,19,32,118,,150,147,7,8,7,7,0.5,0.6
2025-06-29T2000,1624A,116.2991,37.4451,德州市,监理站,,35,17,32,12,25,111,,142,138,5,7,8,9,0.3,0.4
2025-06-29T2000,3066A,116.2721,37.4379,德州市,九衢泉纯净水厂,,33,24,34,14,28,104,,145,138,19,15,4,5,0.7,0.8
2025-06-29T2000,3371A,116.3728,37.4403,德州市,开发区人民医院,,37,22,28,17,21,117,,144,139,12,15,5,5,0.6,0.7
2025-06-29T2000,3372A,116.3572,37.4094,德州市,太阳城中学,,,,,,,,,,,,,,,,
2025-06-29T2000,3511A,116.5652,37.3319,德州市,陵城艺术中心,,32,24,19,14,10,100,,126,123,10,10,5,4,1.0,0.9
2025-06-29T2000,2621A,99.7056,27.8317,迪庆藏族自治州,迪庆州站,,20,20,20,7,12,62,,71,69,5,7,7,7,0.3,0.4
2025-06-29T2000,3180A,99.7136,27.8094,迪庆藏族自治州,质量技术监督局,,20,19,22,6,7,62,,71,70,9,10,6,6,0.4,0.4
2025-06-29T2000,4257A,104.6092,35.5962,定西市,将台街,,36,36,45,22,21,112,,114,114,7,12,4,5,0.1,0.1
2025-06-29T2000,4309A,104.6159,35.5701,定西市,正龙路62号,,37,29,35,25,20,118,,118,118,5,6,3,4,0.2,0.3
2025-06-29T2000,1389A,113.7547,23.0494,东莞市,莞城梨川,,18,18,16,10,10,44,,85,72,17,13,6,6,0.4,0.4
2025-06-29T2000,1390A,113.7944,23.0128,东莞市,东城石井,,16,16,17,7,8,32,,71,60,22,16,3,3,0.5,0.5
2025-06-29T2000,1391A,113.7383,22.9658,东莞市,南城西平,,17,17,16,9,8,41,,72,61,18,17,3,3,0.5,0.5
2025-06-29T2000,3319A,113.7338,23.0381,东莞市,万江金泰,,,,50,10,11,39,,74,63,17,13,2,2,0.8,0.7
2025-06-29T2000,3626A,113.7533,23.0202,东莞市,南城元岭,,21,21,15,9,8,41,,76,65,20,16,4,4,0.5,0.5
2025-06-29T2000,3627A,113.7875,23.0457,东莞市,东城主山,,21,21,17,8,8,43,,82,70,14,13,6,6,0.7,0.8
2025-06-29T2000,1666A,118.6614,37.4309,东营市,市环保局,,30,27,21,19,16,95,,97,95,22,18,6,8,0.5,0.5
2025-06-29T2000,3036A,118.6904,37.4338,东营市,开发区管委会,颗粒物(PM10),53,55,30,17,14,86,,98,95,24,17,4,4,0.4,0.4
2025-06-29T2000,3365A,118.5719,37.565,东营市,垦利区民丰路,,,34,25,19,15,66,,108,94,,21,4,5,0.8,0.8
2025-06-29T2000,3498A,118.5055,37.8612,东营市,河口城区,,32,22,22,12,14,102,,125,118,13,18,4,5,1.2,1.2
2025-06-29T2000,3646A,118.4978,37.4623,东营市,胜利站,,42,42,26,9,13,105,,108,104,24,20,7,7,1.1,1.2
2025-06-29T2000,3734A,118.35,37.26,东营市,理想之城,,27,27,22,17,18,72,,77,66,23,20,5,6,0.8,0.8
2025-06-29T2000,1591A,110.0023,39.8129,鄂尔多斯市,综合楼,,48,19,33,3,21,151,,153,152,13,20,5,8,0.5,0.6
2025-06-29T2000,1592A,109.9486,39.8261,鄂尔多斯市,巴音孟克林场办事处,臭氧1小时,55,31,41,9,20,164,,168,167,14,16,3,5,0.4,0.5
2025-06-29T2000,1593A,109.7736,39.5986,鄂尔多斯市,康泽苑,臭氧1小时,74,24,36,7,16,179,,188,188,11,14,13,12,0.4,0.5
2025-06-29T2000,1594A,109.8119,39.5989,鄂尔多斯市,华泰汽车城,臭氧1小时,53,31,36,7,19,162,,175,175,10,18,6,6,0.5,0.6
2025-06-29T2000,1595A,109.9734,39.7884,鄂尔多斯市,奥林花园,,48,27,43,17,25,153,,162,160,13,24,6,7,0.4,0.6
2025-06-29T2000,2436A,114.8938,30.3994,鄂州市,市政府,,,,18,,5,64,,63,63,,3,,5,0.4,0.4
2025-06-29T2000,2437A,114.8989,30.3714,鄂州市,赵家坝,,20,13,13,3,1,61,,62,62,9,8,10,10,0.5,0.5
2025-06-29T2000,3654A,114.8094,30.4089,鄂州市,精准医疗中心,,22,22,14,11,2,46,,57,57,32,15,18,7,2.2,0.8
2025-06-29T2000,2454A,109.4978,30.2981,恩施土家族苗族自治州,湖北民院,,21,21,21,3,8,55,,73,73,7,8,7,5,0.5,0.4
2025-06-29T2000,2455A,109.4707,30.2798,恩施土家族苗族自治州,州电力总公司,,15,6,16,3,7,47,,65,64,5,9,7,6,0.5,0.7
2025-06-29T2000,3549A,109.5061,30.3772,恩施土家族苗族自治州,龙凤新区,,15,11,14,10,7,39,,81,78,8,7,3,2,0.3,0.3
2025-06-29T2000,2499A,108.3411,21.6158,防城港市,沙万,颗粒物(PM10),53,55,21,17,10,23,,46,38,30,19,6,3,0.7,0.7
2025-06-29T2000,2500A,108.3514,21.7731,防城港市,防城档案局,,34,34,21,12,9,18,,42,36,25,13,5,3,1.0,0.7
2025-06-29T2000,2501A,108.3506,21.6414,防城港市,大海花园,细颗粒物(PM2.5),74,,21,54,46,37,,56,50,18,12,6,5,0.8,0.9
2025-06-29T2000,1371A,113.1294,23.0067,佛山市,湾梁,,36,36,16,8,6,46,,73,67,14,20,8,8,0.4,0.4
2025-06-29T2000,1372A,113.1083,23.0478,佛山市,华材职中,,16,14,11,9,6,50,,84,78,8,12,6,6,0.5,0.4
2025-06-29T2000,1373A,113.144,23.0453,佛山市,南海气象局,,17,17,16,9,7,42,,69,63,12,17,2,2,0.7,0.6
2025-06-29T2000,1374A,113.2881,22.8094,佛山市,顺德苏岗,,15,14,14,3,4,48,,62,60,8,15,6,6,0.6,0.6
2025-06-29T2000,1376A,112.8383,22.8678,佛山市,高明孔堂,,18,17,15,3,7,55,,75,71,6,10,5,5,0.5,0.5
2025-06-29T2000,1377A,112.8836,23.1588,佛山市,三水监测站,,24,24,15,11,11,20,,75,67,34,22,4,3,0.6,0.6
2025-06-29T2000,1378A,112.867,23.185,佛山市,三水云东海,,40,40,30,9,12,39,,85,77,29,26,2,2,0.5,0.5
2025-06-29T2000,3625A,113.2544,22.7642,佛山市,容桂街道办,,15,9,7,3,3,47,,60,59,10,14,5,6,0.7,0.7
2025-06-29T2000,1280A,119.3903,26.0543,福州市,鼓山,,,,,,,,,,,,,,,,
2025-06-29T2000,1282A,119.2681,26.0504,福州市,师大,,38,38,29,3,9,54,,122,107,9,9,5,4,0.2,0.2
2025-06-29T2000,1283A,119.2984,26.1028,福州市,五四北路,,16,15,30,3,11,50,,119,106,10,15,4,4,0.3,0.3
2025-06-29T2000,1284A,119.2648,26.0768,福州市,杨桥西路,,21,21,27,3,13,61,,123,110,8,12,4,4,0.2,0.2
2025-06-29T2000,1285A,119.317,26.0746,福州市,紫阳,,40,40,38,3,15,54,,112,100,7,18,4,4,0.2,0.3
2025-06-29T2000,3048A,119.5799,26.0936,福州市,九龙,,17,15,16,3,5,52,,84,73,5,5,3,4,0.2,0.2
2025-06-29T2000,3526A,119.5189,25.9664,福州市,吴航,,17,10,22,6,10,54,,90,80,3,5,5,5,0.3,0.3
2025-06-29T2000,1755A,123.7977,41.8491,抚顺市,望花区,,22,22,33,6,22,68,,137,107,16,16,2,6,0.5,0.7
2025-06-29T2000,1756A,123.9161,41.8822,抚顺市,顺城区,,25,19,29,6,19,77,,133,107,11,16,5,6,0.7,0.9
2025-06-29T2000,1757A,124.0436,41.8611,抚顺市,东洲区,,23,,24,6,22,72,,128,98,7,9,5,8,0.6,0.8
2025-06-29T2000,1758A,123.9247,41.8642,抚顺市,新抚区,,25,25,33,8,17,64,,122,97,10,13,5,5,0.5,0.8
2025-06-29T2000,1759A,124.0972,41.8961,抚顺市,大伙房水库,,22,15,23,6,19,70,,120,92,7,10,7,7,0.4,0.6
2025-06-29T2000,1760A,123.7086,41.8391,抚顺市,沈抚新城,,23,23,32,3,23,57,,136,104,21,15,6,6,1.1,1
2025-06-29T2000,2376A,116.2127,28.0814,抚州市,桐源党溪,,32,32,24,15,12,41,,61,59,3,3,8,9,0.3,0.3
2025-06-29T2000,2377A,116.3544,27.9831,抚州市,市站,,24,24,19,14,8,52,,72,72,4,5,2,2,0.7,0.7
2025-06-29T2000,2378A,116.3565,27.963,抚州市,血防站,,24,24,19,11,9,45,,67,66,6,6,2,2,0.7,0.7
2025-06-29T2000,2379A,116.3564,28.0007,抚州市,采茶剧团,,24,24,18,8,6,49,,71,70,2,3,4,4,0.4,0.4
2025-06-29T2000,2380A,116.385,27.9647,抚州市,医学分院,,23,23,17,13,6,48,,72,71,2,2,4,4,0.6,0.6
2025-06-29T2000,2207A,121.6094,41.998,阜新市,工业园区,,30,19,39,12,27,94,,144,113,12,9,7,7,0.5,0.6
2025-06-29T2000,2208A,121.6697,42.0279,阜新市,长青街,,27,27,43,16,23,86,,135,102,9,8,6,7,0.5,0.6
2025-06-29T2000,2209A,121.6673,42.0705,阜新市,农业园区,,29,25,45,17,32,90,,138,106,10,8,5,4,0.8,0.8
2025-06-29T2000,2210A,121.6717,42.0224,阜新市,东苑,,27,21,40,14,25,86,,141,106,10,9,6,7,0.5,0.7
2025-06-29T2000,2211A,121.6506,42.0498,阜新市,玉龙新城,,26,22,41,14,21,81,,118,94,9,8,5,4,0.7,0.8
2025-06-29T2000,2301A,115.8277,32.8929,阜阳市,市监测站,,19,7,13,6,6,60,,70,69,5,5,2,3,0.3,0.3
2025-06-29T2000,2303A,115.8554,32.8605,阜阳市,开发区,,18,6,8,3,7,56,,74,72,13,7,4,5,0.1,0.1
2025-06-29T2000,2875A,115.784,32.8892,阜阳市,阜阳职业技术学院,,20,6,6,3,4,63,,74,74,5,5,3,3,0.1,0.2
2025-06-29T2000,3468A,115.7901,32.8613,阜阳市,市规划展馆,,,,15,6,6,56,,70,69,6,5,2,2,0.4,0.3
2025-06-29T2000,3469A,115.836,32.9183,阜阳市,枣园社区,,20,,11,3,4,62,,70,70,3,4,3,3,0.4,0.4
2025-06-29T2000,2669A,102.9099,34.9841,甘南藏族自治州,州政府,,34,15,40,12,20,106,,100,100,5,23,6,6,0.2,0.2
2025-06-29T2000,3380A,102.8914,34.9617,甘南藏族自治州,甘肃民族师范学院,,35,12,51,3,16,110,,106,106,9,29,8,9,0.3,0.4
2025-06-29T2000,2570A,101.9603,30.0475,甘孜藏族自治州,水桥子,,20,,17,14,11,57,,72,72,28,25,5,6,0.6,0.4
2025-06-29T2000,3065A,101.9533,29.9972,甘孜藏族自治州,州环保局,,19,19,25,6,7,34,,72,71,37,24,2,2,0.4,0.3
2025-06-29T2000,3414A,115.8347,28.932,赣江新区,桑海产业园,,16,7,12,3,5,51,,65,61,15,14,7,6,0.3,0.2
2025-06-29T2000,2362A,114.9017,25.9149,赣州市,通天岩,,22,22,16,3,4,24,,63,51,3,4,15,14,0.2,0.3
2025-06-29T2000,2363A,114.9367,25.8664,赣州市,地委,,20,20,15,8,8,41,,68,64,14,10,3,4,0.7,0.7
2025-06-29T2000,2364A,114.9461,25.8481,赣州市,气象台,,23,23,18,6,5,40,,66,62,11,7,7,7,0.4,0.4
2025-06-29T2000,2365A,114.9322,25.8333,赣州市,市图书馆,,13,12,13,8,8,40,,67,63,14,8,4,4,0.6,0.5
2025-06-29T2000,2366A,114.8905,25.8471,赣州市,华坚鞋城,,18,18,20,11,7,29,,67,61,20,11,3,5,0.5,0.4
2025-06-29T2000,3109A,115.0093,25.8613,赣州市,赣县区卫计委,,20,14,15,14,9,28,,61,57,19,11,2,2,0.2,0.1
2025-06-29T2000,2683A,106.2319,36.1417,固原市,马园,颗粒物(PM10),62,74,38,6,8,110,,125,117,8,27,6,13,0.5,0.6
2025-06-29T2000,2684A,106.2792,36.0022,固原市,监测站,颗粒物(PM10),71,91,33,11,9,107,,124,120,6,14,4,4,0.1,0.2
2025-06-29T2000,2685A,106.2375,36.0211,固原市,新区,颗粒物(PM10),64,78,29,11,12,107,,123,115,4,10,6,6,0.3,0.6
2025-06-29T2000,3522A,106.2177,35.9959,固原市,原州区十五小,,34,28,28,11,16,106,,124,118,5,10,11,11,0.3,0.4
2025-06-29T2000,2543A,106.6308,30.5278,广安市,小平旧居,,,,,,,,,,,,,,,,
2025-06-29T2000,2544A,106.6303,30.4576,广安市,市委,,28,20,18,19,14,82,,102,100,15,14,4,5,0.5,0.5
2025-06-29T2000,2545A,106.6271,30.4663,广安市,友谊中学,,31,25,19,14,11,99,,114,112,14,14,2,2,0.6,0.6
2025-06-29T2000,2547A,106.6388,30.4551,广安市,广电花园,,,21,22,,11,82,,104,101,11,12,4,4,0.5,0.5
2025-06-29T2000,2902A,106.6351,30.4865,广安市,北辰小学,,28,21,21,13,10,89,,108,105,12,11,4,5,0.5,0.5
2025-06-29T2000,2523A,105.8945,32.4535,广元市,黑石坡,,39,29,29,27,16,43,,72,60,6,9,9,9,0.4,0.5
2025-06-29T2000,2524A,105.821,32.4444,广元市,老城,,35,35,24,15,12,77,,92,89,22,29,6,6,0.9,0.9
2025-06-29T2000,2526A,105.8628,32.4287,广元市,监测站,,26,26,23,10,13,58,,86,79,14,19,8,10,0.8,0.8
2025-06-29T2000,3617A,105.8047,32.4166,广元市,经开区,,,20,33,14,25,79,,87,87,14,21,5,9,,0.7
2025-06-29T2000,1345A,113.2347,23.1423,广州市,广雅中学,,20,20,19,8,9,56,,91,83,11,22,2,3,0.3,0.3
2025-06-29T2000,1346A,113.2612,23.105,广州市,市五中,,29,29,18,14,8,53,,81,73,15,22,3,4,0.4,0.4
2025-06-29T2000,1348A,113.3478,23.0916,广州市,广东商学院,,21,21,23,14,11,53,,91,81,16,26,3,4,0.5,0.6
2025-06-29T2000,1349A,113.4332,23.1047,广州市,市八十六中,,,,19,,11,39,,78,69,28,29,4,4,0.4,0.5
2025-06-29T2000,1350A,113.3505,22.9483,广州市,番禺中学,,18,18,16,10,8,55,,76,72,14,22,7,7,0.4,0.4
2025-06-29T2000,1351A,113.2146,23.3916,广州市,花都师范,,38,38,22,17,11,43,,103,96,48,31,4,4,0.6,0.5
2025-06-29T2000,1352A,113.2597,23.1331,广州市,市监测站,,22,22,20,11,9,56,,92,83,13,20,5,6,0.3,0.4
2025-06-29T2000,1353A,113.5618,23.312,广州市,九龙镇镇龙,,28,28,18,14,8,31,,81,72,38,16,6,6,0.5,0.4
2025-06-29T2000,1354A,113.2765,23.1544,广州市,麓湖,,20,20,21,10,10,55,,88,81,13,24,2,2,0.5,0.6
2025-06-29T2000,1355A,113.443,23.3035,广州市,帽峰山森林公园,,19,10,11,7,6,58,,93,89,15,14,6,6,0.4,0.4
2025-06-29T2000,2846A,113.3221,23.1322,广州市,体育西,,22,22,22,10,12,53,,98,87,20,31,4,5,0.5,0.5
2025-06-29T2000,3298A,113.5717,23.5491,广州市,从化街口,,38,38,15,18,8,65,,82,82,21,12,5,5,0.8,0.6
2025-06-29T2000,3299A,113.3472,23.3692,广州市,白云竹料,,29,29,21,15,11,52,,88,85,29,17,4,3,0.5,0.3
2025-06-29T2000,3300A,113.2981,23.237,广州市,白云嘉禾,,25,25,22,14,12,54,,106,97,28,26,6,6,0.2,0.3
2025-06-29T2000,3301A,113.4256,23.1716,广州市,黄埔科学城,,22,22,22,9,10,43,,80,74,22,18,5,4,0.5,0.6
2025-06-29T2000,3302A,113.3942,23.0483,广州市,番禺大学城,,20,20,20,9,9,50,,94,82,20,27,5,6,0.6,0.6
2025-06-29T2000,3303A,113.4922,22.8168,广州市,南沙黄阁,,21,21,18,7,8,48,,72,68,13,18,6,6,0.5,0.5
2025-06-29T2000,3304A,113.5342,22.7896,广州市,南沙街,,22,22,15,7,8,44,,71,66,18,20,4,4,0.3,0.4
2025-06-29T2000,3443A,113.2902,23.5544,广州市,花都梯面,,19,16,16,6,7,58,,88,86,19,13,5,4,0.6,0.5
2025-06-29T2000,3445A,113.7858,23.7478,广州市,从化良口,,22,22,15,12,6,21,,51,48,11,8,6,6,0.6,0.5
2025-06-29T2000,3446A,113.8051,23.2614,广州市,增城荔城,,18,17,17,7,8,56,,82,78,10,10,6,7,0.3,0.3
2025-06-29T2000,2505A,109.568,23.1478,贵港市,德智高中,,,,,,,,,,,,,,,,
2025-06-29T2000,2506A,109.6047,23.0666,贵港市,江南子站,,35,,29,24,16,36,,58,49,11,14,7,7,0.5,0.6
2025-06-29T2000,2508A,109.5669,23.1065,贵港市,荷城子站,,16,16,22,3,8,33,,52,43,17,15,8,7,0.6,0.4
2025-06-29T2000,3405A,109.5886,23.1172,贵港市,新世纪学校,,14,9,19,7,11,42,,58,52,10,12,4,5,0.3,0.4
2025-06-29T2000,4260A,109.5933,23.0951,贵港市,中山路155-3号,,28,28,26,11,14,33,,59,49,18,15,6,5,1.2,0.8
2025-06-29T2000,1439A,106.6899,26.5998,贵阳市,马鞍山,,,14,10,,1,47,,47,47,8,6,4,4,0.4,0.4
2025-06-29T2000,1441A,106.6243,26.6266,贵阳市,鉴湖路,,27,27,19,3,1,49,,48,48,7,6,9,8,0.3,0.3
2025-06-29T2000,1442A,106.7487,26.6343,贵阳市,燕子冲,,18,12,16,12,15,52,,53,53,10,9,4,4,0.0,0.7
2025-06-29T2000,1443A,106.6555,26.4365,贵阳市,碧云窝,,22,22,21,3,3,50,,51,51,6,6,4,4,0.4,0.3
2025-06-29T2000,1445A,106.7109,26.6027,贵阳市,红边门,,15,12,15,3,3,47,,49,49,7,4,4,4,0.1,0.1
2025-06-29T2000,1446A,106.7164,26.5699,贵阳市,新华路,,14,14,15,3,9,38,,41,41,15,11,7,6,0.2,0.4
2025-06-29T2000,1447A,106.674,26.5424,贵阳市,太慈桥,,16,9,12,7,3,50,,46,46,9,10,6,6,0.3,0.2
2025-06-29T2000,1552A,106.805,26.3003,贵阳市,桐木岭,,24,24,23,10,12,57,,58,55,6,5,16,16,0.9,0.9
2025-06-29T2000,4230A,106.6882,26.5695,贵阳市,花果园大街66号,,17,9,8,7,7,54,,53,53,7,6,3,3,0.1,0.1
2025-06-29T2000,4231A,106.6873,26.5169,贵阳市,漓江路57号,,17,17,11,3,2,53,,54,54,7,6,6,6,0.3,0.3
2025-06-29T2000,1862A,110.4144,25.3167,桂林市,电子科大尧山校区,,,,,,,,,,,,,,,,
2025-06-29T2000,1864A,110.3089,25.2708,桂林市,龙隐路小学,,14,14,16,6,8,34,,62,57,9,6,8,9,0.4,0.4
2025-06-29T2000,1865A,110.2869,25.2178,桂林市,八中,,,,18,8,6,43,,62,58,14,10,6,7,0.5,0.4
2025-06-29T2000,3531A,110.296,25.1253,桂林市,旅游学院,,11,9,6,7,4,34,,63,58,10,5,2,2,0.3,0.3
2025-06-29T2000,4222A,110.1835,25.2444,桂林市,环湖路276号,,15,9,16,3,9,48,,60,58,7,8,5,7,0.3,0.3
2025-06-29T2000,4301A,110.2803,25.2773,桂林市,信义路13号,,14,10,17,3,6,44,,65,60,13,8,3,4,0.5,0.5
2025-06-29T2000,2674A,100.2561,34.4714,果洛藏族自治州,玛沁县大武镇,,44,39,28,14,15,140,,133,133,2,2,20,20,0.4,0.4
2025-06-29T2000,1129A,126.5422,45.755,哈尔滨市,岭北,,46,41,35,32,30,135,,138,138,16,18,5,3,1.1,1
2025-06-29T2000,1130A,126.561,45.8167,哈尔滨市,松北商大,颗粒物(PM10),51,51,41,25,17,102,,114,114,13,12,5,6,0.9,0.7
2025-06-29T2000,1131A,126.979,45.5419,哈尔滨市,阿城会宁,细颗粒物(PM2.5),52,44,32,36,26,104,,126,126,32,19,7,7,0.7,0.6
2025-06-29T2000,1132A,126.599,45.7222,哈尔滨市,南岗学府路,颗粒物(PM10),51,51,41,27,18,121,,129,129,16,18,6,6,1.0,0.7
2025-06-29T2000,1133A,126.689,45.7733,哈尔滨市,太平宏伟公园,颗粒物(PM10),55,60,52,27,23,120,,116,116,12,16,5,6,0.8,0.7
2025-06-29T2000,1134A,126.635,45.7667,哈尔滨市,道外承德广场,颗粒物(PM10),56,62,64,26,18,100,,107,107,23,17,6,6,1.0,0.9
2025-06-29T2000,1135A,126.685,45.7319,哈尔滨市,香坊红旗大街,细颗粒物(PM2.5),65,48,49,47,27,115,,111,111,22,26,4,3,1.0,0.8
2025-06-29T2000,1136A,126.6411,45.7258,哈尔滨市,动力和平路,,,65,56,,,117,,128,128,14,18,6,7,0.7,0.6
2025-06-29T2000,1137A,126.593,45.7478,哈尔滨市,道里建国路,颗粒物(PM10),56,61,53,36,22,122,,125,125,16,18,7,6,1.0,1
2025-06-29T2000,1138A,126.615,45.61,哈尔滨市,平房东轻厂,颗粒物(PM10),66,81,54,26,14,110,,124,124,21,23,9,9,0.6,0.5
2025-06-29T2000,1139A,126.595,45.9855,哈尔滨市,呼兰师专,,45,,34,31,14,77,,89,89,24,13,8,7,0.7,0.6
2025-06-29T2000,1140A,126.6206,45.6842,哈尔滨市,省农科院,颗粒物(PM10),54,58,53,33,20,86,,101,101,55,32,4,5,1.0,0.9
2025-06-29T2000,2688A,93.5128,42.8172,哈密市,地区监测站,,43,29,27,3,14,137,,138,138,11,8,7,6,0.1,0.1
2025-06-29T2000,2689A,93.4961,42.8328,哈密市,哈密师范学校,,38,14,24,6,8,119,,124,124,12,13,13,10,0.1,0.3
2025-06-29T2000,2671A,100.9048,36.9639,海北藏族自治州,海晏县西海镇,,38,16,17,15,12,121,,143,140,2,2,7,8,0.4,0.4
2025-06-29T2000,3867A,102.0738,36.5056,海东市,平安区公安北苑,,32,27,21,10,12,101,,116,116,14,6,7,8,0.8,0.6
2025-06-29T2000,1409A,110.576,19.9507,海口市,东寨港,,14,,12,7,8,43,,50,49,4,3,6,6,0.4,0.4
2025-06-29T2000,1410A,110.3232,20.0574,海口市,海南大学,,16,15,14,8,8,51,,72,67,4,4,2,2,0.4,0.4
2025-06-29T2000,1411A,110.283,20.0053,海口市,秀英海南医院,,16,16,18,7,10,51,,66,63,9,10,5,5,0.3,0.3
2025-06-29T2000,1412A,110.338,19.9969,海口市,海南师范大学,,17,16,17,7,11,53,,72,69,4,5,4,4,0.7,0.7
2025-06-29T2000,1413A,110.33,20.0356,海口市,龙华路环保局宿舍,,18,18,15,11,9,50,,69,65,6,5,5,5,0.2,0.2
2025-06-29T2000,3539A,110.5111,19.9736,海口市,桂林洋子站,,16,16,20,9,9,43,,55,52,8,7,4,4,0.2,0.2
2025-06-29T2000,2673A,100.6188,36.2866,海南藏族自治州,共和县恰卜恰镇,,49,28,28,7,9,156,,136,136,4,3,13,15,0.6,0.6
2025-06-29T2000,2676A,97.3731,37.3753,海西蒙古族藏族自治州,德令哈市,,50,45,59,17,28,160,,161,161,2,2,14,16,0.4,0.5
2025-06-29T2000,1048A,114.5302,36.6116,邯郸市,东污水处理厂,,26,21,22,3,3,81,,112,107,9,9,1,2,0.3,0.3
2025-06-29T2000,1049A,114.4918,36.5713,邯郸市,矿院,,29,19,20,7,7,92,,126,119,5,5,4,4,0.3,0.3
2025-06-29T2000,1050A,114.484,36.6133,邯郸市,丛台公园,,33,33,23,8,8,84,,120,112,9,8,7,7,0.3,0.3
2025-06-29T2000,3458A,114.7895,36.5593,邯郸市,香泉濮院小区,,45,45,30,3,2,87,,114,109,10,9,4,4,0.1,0.2
2025-06-29T2000,3579A,114.50634,36.77178,邯郸市,永年区实验高中,,49,49,33,16,19,90,,124,118,10,17,2,3,0.2,0.3
2025-06-29T2000,3580A,114.20016,36.44293,邯郸市,峰峰矿区临水派出所,,42,42,41,6,8,86,,135,122,6,7,5,9,0.1,0.3
2025-06-29T2000,2634A,106.9893,33.1842,汉中市,汉川机床厂子校,,43,43,23,20,15,101,,120,118,22,13,5,4,0.7,0.5
2025-06-29T2000,2635A,107.0154,33.0706,汉中市,市监测站,,38,31,24,17,13,119,,122,122,14,11,7,6,0.6,0.5
2025-06-29T2000,2636A,107.0089,33.1138,汉中市,鑫源开发区,,35,35,27,16,16,97,,122,120,28,16,7,6,0.6,0.5
2025-06-29T2000,2637A,107.007,33.0323,汉中市,南郑大河坎水厂,,41,41,24,20,16,99,,113,109,16,14,5,4,0.6,0.5
2025-06-29T2000,1223A,120.2072,30.2111,杭州市,滨江,,25,22,22,13,9,77,,115,100,22,20,6,6,0.5,0.4
2025-06-29T2000,1224A,120.0633,30.2747,杭州市,西溪,,20,,12,14,8,50,,96,87,12,7,4,4,0.3,0.3
2025-06-29T2000,1226A,120.3417,30.3150,杭州市,下沙,,34,25,16,14,10,106,,138,131,27,12,6,5,0.5,0.3
2025-06-29T2000,1227A,120.1269,30.2456,杭州市,卧龙桥,,19,17,17,13,8,37,,107,93,10,7,7,7,0.5,0.4
2025-06-29T2000,1228A,120.1903,30.2692,杭州市,浙江农大,,44,44,15,19,9,59,,104,94,31,16,4,4,0.2,0.1
2025-06-29T2000,1230A,120.1197,30.3119,杭州市,和睦小学,,21,21,15,11,9,64,,104,96,21,6,8,8,0.4,0.4
2025-06-29T2000,1231A,120.3019,30.4183,杭州市,临平镇,,37,36,22,13,10,118,,124,123,21,16,6,5,0.5,0.4
2025-06-29T2000,1232A,120.2753,30.1839,杭州市,城厢镇,,24,24,20,12,10,65,,133,118,28,11,7,7,0.4,0.5
2025-06-29T2000,1233A,120.0883,30.1808,杭州市,云栖,,18,18,17,3,6,46,,98,83,6,8,6,7,0.4,0.5
2025-06-29T2000,3557A,119.9464,30.0494,杭州市,镇二中,,25,25,16,14,12,52,,94,85,34,15,3,3,0.4,0.4
2025-06-29T2000,3558A,119.7183,30.2367,杭州市,市府大楼,,20,20,13,10,7,41,,74,66,17,9,7,7,0.4,0.3
2025-06-29T2000,3656A,120.1556,30.2864,杭州市,消防大队,,27,20,16,13,9,86,,110,105,11,9,6,6,0.7,0.6
2025-06-29T2000,1270A,117.1959,31.7848,合肥市,明珠广场,,23,,9,14,6,71,,67,67,11,11,4,4,0.5,0.5
2025-06-29T2000,1271A,117.3072,31.8764,合肥市,三里街,,21,19,12,9,6,65,,66,66,14,11,6,6,0.4,0.4
2025-06-29T2000,1272A,117.2588,31.8707,合肥市,琥珀山庄,,23,,12,16,9,66,,71,71,12,9,6,6,0.7,0.6
2025-06-29T2000,1273A,117.1604,31.9052,合肥市,董铺水库,,20,14,11,7,7,63,,63,63,7,6,4,4,0.2,0.2
2025-06-29T2000,1274A,117.25,31.8571,合肥市,长江中路,,22,22,14,15,9,68,,72,72,12,9,5,5,0.5,0.4
2025-06-29T2000,1275A,117.266,31.9436,合肥市,庐阳区,,22,12,12,7,6,70,,70,70,8,6,10,9,0.5,0.4
2025-06-29T2000,1276A,117.3453,31.8616,合肥市,瑶海区,,20,12,10,3,4,61,,68,68,19,9,7,6,0.5,0.4
2025-06-29T2000,1277A,117.3027,31.7964,合肥市,包河区,,26,14,8,3,3,82,,75,75,8,6,4,4,0.6,0.6
2025-06-29T2000,1278A,117.2776,31.7385,合肥市,滨湖新区,,25,14,11,12,10,79,,74,74,8,6,9,9,0.4,0.4
2025-06-29T2000,1279A,117.1318,31.8403,合肥市,高新区,,22,,12,10,6,68,,63,63,12,10,7,7,0.4,0.4
2025-06-29T2000,3464A,117.3803,31.9147,合肥市,高教基地,,24,24,11,16,8,68,,70,70,9,7,3,3,0.4,0.3
2025-06-29T2000,3614A,79.924,37.0877,和田地区,地区环保局,颗粒物(PM10),187,324,648,98,195,103,,108,108,12,12,3,2,0.6,0.5
2025-06-29T2000,3615A,79.9131,37.113,和田地区,市环保局,颗粒物(PM10),164,278,550,82,159,94,,101,100,5,8,1,1,0.3,0.2
2025-06-29T2000,2516A,108.2011,24.715,河池市,东仁乐园,,,,,,,,,,,,,,,,
2025-06-29T2000,2517A,108.0497,24.6947,河池市,市环保站,,28,,18,19,9,53,,58,58,4,7,3,3,0.5,0.5
2025-06-29T2000,2518A,108.0983,24.6989,河池市,市疾控中心,,14,9,22,9,11,44,,58,57,14,13,2,4,0.6,0.6
2025-06-29T2000,1696A,114.6778,23.7569,河源市,源西,,21,20,18,8,10,66,,79,77,4,6,3,4,0.6,0.6
2025-06-29T2000,1697A,114.6944,23.7586,河源市,东埔,,14,14,14,3,8,44,,54,53,10,10,4,5,0.5,0.4
2025-06-29T2000,1698A,114.6892,23.7233,河源市,老城,,17,17,17,6,7,41,,53,52,10,8,4,6,0.4,0.5
2025-06-29T2000,1718A,115.4208,35.2464,菏泽市,气象局,,29,12,11,7,6,92,,103,101,9,9,2,2,0.3,0.3
2025-06-29T2000,3374A,115.5564,35.0891,菏泽市,定陶老年大学,,25,14,7,3,1,78,,,,13,12,3,3,0.1,0.1
2025-06-29T2000,4184A,115.4797,35.24401,菏泽市,永昌路1号,,28,13,6,3,4,87,,98,97,12,12,2,2,0.1,0.1
2025-06-29T2000,4193A,115.4715,35.2800,菏泽市,长城路999号,,30,12,8,7,3,96,,106,106,11,11,3,3,0.1,0.1
2025-06-29T2000,2514A,111.5264,24.4172,贺州市,环保小区,,20,14,16,3,11,64,,67,67,3,7,8,10,0.6,0.6
2025-06-29T2000,2515A,111.5608,24.4078,贺州市,政协大楼,,20,18,14,10,9,62,,68,67,7,8,12,13,0.6,0.6
2025-06-29T2000,3534A,111.4744,24.4553,贺州市,西湾,,19,15,13,9,9,59,,66,66,5,8,14,13,0.8,0.6
2025-06-29T2000,2385A,114.17,35.9019,鹤壁市,市监测站,,38,38,38,23,33,73,,119,105,9,10,6,6,0.8,1.1
2025-06-29T2000,2386A,114.2956,35.7511,鹤壁市,市交警支队,,29,29,32,9,25,73,,110,94,15,15,3,6,0.7,0.9
2025-06-29T2000,2387A,114.2878,35.7306,鹤壁市,迎宾馆,,26,,42,18,32,80,,111,96,9,11,3,4,0.4,0.6
2025-06-29T2000,3474A,114.2617,35.6822,鹤壁市,大新区,,22,18,37,6,18,70,,106,89,8,8,5,6,0.7,0.9
2025-06-29T2000,3596A,114.1572,35.9603,鹤壁市,南山宾馆,,40,33,46,28,35,70,,118,103,9,11,3,4,0.4,0.6
2025-06-29T2000,2244A,130.2537,47.3416,鹤岗市,哈啤分公司,,18,17,18,12,17,54,,117,102,12,9,12,12,0.5,0.4
2025-06-29T2000,2245A,130.2684,47.3086,鹤岗市,斯达机电,,30,27,36,21,20,58,,91,82,10,10,15,14,0.5,0.4
2025-06-29T2000,2246A,130.3114,47.3388,鹤岗市,东山纸板厂,,29,29,39,19,20,48,,91,73,12,16,9,8,0.8,0.6
2025-06-29T2000,2247A,130.1097,47.3382,鹤岗市,五号水库,,14,14,13,3,6,42,,97,76,11,10,15,16,0.6,0.6
2025-06-29T2000,2263A,127.4833,50.2524,黑河市,交通局,,38,38,32,13,13,77,,112,102,12,11,6,7,0.6,0.5
2025-06-29T2000,2264A,127.5144,50.2341,黑河市,环保局,,40,40,36,19,14,92,,121,110,7,10,6,6,0.5,0.4
2025-06-29T2000,2265A,127.5291,50.2472,黑河市,大黑河岛,,,,7,12,14,75,,89,80,,,35,35,0.5,0.5
2025-06-29T2000,1074A,115.6838,37.7541,衡水市,电机北厂,,39,31,32,24,27,123,,150,148,6,10,4,4,0.2,0.3
2025-06-29T2000,1075A,115.6303,37.7316,衡水市,市监测站,,38,33,38,18,20,121,,151,149,5,9,5,5,0.3,0.4
2025-06-29T2000,3188A,115.6683,37.7217,衡水市,市城管局,,40,31,35,22,28,127,,157,154,5,8,3,3,0.2,0.3
2025-06-29T2000,3459A,115.5989,37.5491,衡水市,地表水厂,,41,41,37,3,11,114,,152,144,8,12,5,6,0.2,0.3
2025-06-29T2000,2456A,112.5003,26.9167,衡阳市,原169医院,,,15,19,7,6,81,,88,85,,10,4,5,0.4,0.4
2025-06-29T2000,2457A,112.6194,26.9258,衡阳市,衡阳化工总厂,,24,13,19,7,8,74,,79,78,7,8,4,6,0.4,0.4
2025-06-29T2000,2458A,112.6211,26.8956,衡阳市,珠晖区环保局,,,19,15,,,83,,90,88,6,6,5,8,0.5,0.5
2025-06-29T2000,2459A,112.6197,26.8733,衡阳市,市委党校,,24,16,15,12,9,74,,79,78,8,7,7,7,0.4,0.4
2025-06-29T2000,2460A,112.6006,26.8919,衡阳市,市监测站,,23,,17,7,8,72,,78,76,8,8,5,7,0.3,0.3
2025-06-29T2000,2461A,112.5664,26.9056,衡阳市,真空机电公司,,23,,19,12,9,71,,78,76,8,8,5,8,0.4,0.5
2025-06-29T2000,3399A,112.6703,26.882,衡阳市,师范学院,,,,22,37,18,73,,79,79,,7,5,6,0.5,0.5
2025-06-29T2000,2608A,103.3772,23.3993,红河哈尼族彝族自治州,污水处理厂,,13,10,9,9,7,36,,41,41,2,3,7,7,0.1,0.1
2025-06-29T2000,2609A,103.3861,23.35,红河哈尼族彝族自治州,监测站,,29,29,21,19,13,34,,40,39,2,4,6,7,0.3,0.3
2025-06-29T2000,3038A,103.3758,23.368,红河哈尼族彝族自治州,州图书馆,,12,9,7,8,8,38,,42,42,3,3,1,1,0.2,0.2
2025-06-29T2000,1090A,111.6507,40.7517,呼和浩特市,呼市一监,,39,39,28,10,18,117,,161,156,23,18,9,10,0.5,0.7
2025-06-29T2000,1091A,111.6572,40.8033,呼和浩特市,小召,,44,19,30,8,21,139,,165,164,16,20,6,7,0.4,0.6
2025-06-29T2000,1094A,111.7516,40.8369,呼和浩特市,如意水处理厂,,40,21,33,8,19,128,,163,158,21,20,4,5,0.4,0.5
2025-06-29T2000,1095A,111.7276,40.8062,呼和浩特市,二十九中,,42,21,33,9,23,134,,165,163,15,18,5,6,0.5,0.7
2025-06-29T2000,1096A,111.5512,40.7866,呼和浩特市,工大金川校区,,41,36,39,10,24,131,,167,166,20,26,6,8,0.2,0.3
2025-06-29T2000,1097A,111.717,40.7612,呼和浩特市,化肥厂生活区,,43,25,32,10,21,136,,170,167,19,21,6,8,0.3,0.5
2025-06-29T2000,3698A,111.5968,40.8178,呼和浩特市,红旗小学,,44,27,38,7,21,140,,176,174,20,24,4,6,0.3,0.5
2025-06-29T2000,3699A,111.6518,40.8389,呼和浩特市,海东办,,43,19,32,10,21,136,,165,163,19,26,5,6,0.4,0.6
2025-06-29T2000,2192A,119.7594,49.2261,呼伦贝尔市,区环保局,颗粒物(PM10),63,75,34,38,19,96,,144,137,16,14,7,8,0.7,0.6
2025-06-29T2000,3061A,119.7512,49.1577,呼伦贝尔市,国华电力东,,50,50,24,35,14,132,,188,181,8,9,4,4,0.5,0.5
2025-06-29T2000,1250A,120.0751,30.8669,湖州市,城西水厂,,22,22,16,13,10,40,,120,104,40,14,6,6,0.4,0.4
2025-06-29T2000,2873A,120.0830,30.8929,湖州市,仁皇山新区,,19,14,14,10,9,59,,117,100,23,14,5,4,0.5,0.5
2025-06-29T2000,2907A,120.1844,30.8596,湖州市,吴兴区站,,24,16,17,9,9,76,,126,119,14,11,6,6,0.4,0.3
2025-06-29T2000,3562A,120.4148,30.8538,湖州市,南浔区站,,41,31,23,23,15,130,,148,148,13,12,5,4,0.5,0.4
2025-06-29T2000,1607A,120.9049,40.7211,葫芦岛市,龙港区,细颗粒物(PM2.5),73,,70,53,77,106,,120,107,7,6,4,4,0.6,0.7
2025-06-29T2000,1608A,120.8392,40.7514,葫芦岛市,化工街,,39,29,43,27,35,108,,117,115,13,10,5,6,0.6,0.7
2025-06-29T2000,1609A,120.8341,40.7073,葫芦岛市,新区,细颗粒物(PM2.5),72,,44,52,73,120,,125,121,8,5,2,2,0.8,0.9
2025-06-29T2000,1610A,120.8695,40.7677,葫芦岛市,东城区,细颗粒物(PM2.5),78,,37,57,79,101,,109,105,14,10,2,2,0.7,0.8
2025-06-29T2000,2482A,109.5981,27.5721,怀化市,林科所,,17,17,16,3,3,45,,52,51,11,10,4,4,0.3,0.3
2025-06-29T2000,2483A,109.9453,27.5444,怀化市,河西地税局,,15,15,12,8,8,44,,54,53,11,5,6,6,0.2,0.2
2025-06-29T2000,2484A,109.9781,27.5342,怀化市,市四医院,,30,30,20,11,11,36,,52,50,16,6,3,3,0.6,0.5
2025-06-29T2000,2485A,109.9972,27.5578,怀化市,监测楼,,20,20,19,8,9,36,,49,46,12,6,3,3,0.1,0
2025-06-29T2000,2486A,110.0394,27.583,怀化市,市委党校,,20,20,18,8,12,45,,59,56,14,13,4,4,0.1,0.2
2025-06-29T2000,1210A,119.036,33.5981,淮安市,钵池山,,19,17,14,13,12,59,,95,87,15,12,8,8,0.5,0.4
2025-06-29T2000,1211A,119.007,33.575,淮安市,北京南路,,23,,15,12,11,71,,82,79,9,11,8,8,1.0,0.8
2025-06-29T2000,1212A,118.989,33.6067,淮安市,市监测站,,18,17,17,9,10,57,,87,81,16,11,8,10,0.7,0.8
2025-06-29T2000,1213A,119.135,33.5039,淮安市,楚州区监测站,,27,27,24,11,11,62,,95,90,13,10,8,8,0.9,0.4
2025-06-29T2000,3426A,118.8755,33.2894,淮安市,新华书店,,13,9,16,8,7,33,,84,74,25,11,7,8,0.3,0.4
2025-06-29T2000,4206A,119.0288,33.6319,淮安市,承德北路606号,,19,19,18,9,11,53,,85,79,15,10,5,7,0.4,0.5
2025-06-29T2000,2282A,116.8004,33.975,淮北市,监测站,,22,12,14,3,8,70,,76,75,4,4,6,6,0.4,0.4
2025-06-29T2000,2283A,116.8091,33.9007,淮北市,烈山区政府,,23,8,20,3,3,71,,84,83,4,5,6,6,0.5,0.5
2025-06-29T2000,3330A,116.8873,33.9836,淮北市,杜集区检察院,,24,13,17,3,9,74,,75,75,8,10,7,7,0.7,0.8
2025-06-29T2000,4017A,116.7923,33.9535,淮北市,市博物馆,,24,10,15,3,8,74,,80,80,2,4,6,7,0.7,0.7
2025-06-29T2000,2277A,116.8305,32.7727,淮南市,潘集区政府,,18,10,15,7,9,55,,66,64,10,8,2,3,0.3,0.3
2025-06-29T2000,2279A,116.8569,32.5951,淮南市,谢家集区政府,,15,7,13,3,3,47,,68,63,10,5,5,5,0.1,0.1
2025-06-29T2000,2280A,116.8281,32.633,淮南市,八公山区政府,,15,11,9,3,4,48,,68,63,9,7,2,2,0.2,0.2
2025-06-29T2000,2281A,116.6325,32.6201,淮南市,焦岗湖风景区管理处,,,,,,,,,,,,,,,,
2025-06-29T2000,2894A,117.0566,32.6531,淮南市,经济技术开发区消防队,,20,6,11,3,5,64,,75,72,8,5,7,7,0.3,0.2
2025-06-29T2000,3329A,117.0108,32.5893,淮南市,山南新区,,19,,9,6,7,60,,73,70,4,3,7,7,0.3,0.3
2025-06-29T2000,4209A,117.0031,32.6445,淮南市,国庆中路369号,,20,,8,12,5,63,,74,71,7,5,7,7,0.1,0.1
2025-06-29T2000,2446A,114.9028,30.4742,黄冈市,职工中心,,25,19,18,8,6,79,,70,70,2,3,10,10,0.4,0.4
2025-06-29T2000,2929A,114.8858,30.4519,黄冈市,红卫路,,23,19,15,11,8,72,,70,70,6,4,8,6,0.3,0.3
2025-06-29T2000,3398A,114.9136,30.4445,黄冈市,市林业局,,25,19,15,17,13,67,,62,62,6,5,10,7,0.3,0.3
2025-06-29T2000,2672A,102.0199,35.5102,黄南藏族自治州,同仁县隆务镇,,33,33,26,3,10,70,,64,64,13,11,9,9,0.2,0.2
2025-06-29T2000,2295A,118.2903,29.6963,黄山市,延安路89号,,17,17,13,3,7,29,,64,54,7,4,7,6,0.5,0.4
2025-06-29T2000,2297A,118.1371,30.2756,黄山市,黄山区政府5号楼,,22,22,15,3,7,35,,52,46,5,3,4,4,0.7,0.6
2025-06-29T2000,4210A,118.3354,29.7203,黄山市,滨江东路7-2号,,23,23,19,16,7,29,,62,54,5,4,4,5,0.4,0.3
2025-06-29T2000,2423A,115.0601,30.2313,黄石市,沈家营,,27,27,23,6,4,43,,56,54,22,12,8,7,0.5,0.3
2025-06-29T2000,2426A,114.8988,30.2019,黄石市,铁山,,18,18,20,3,4,56,,68,68,9,8,4,4,0.4,0.5
2025-06-29T2000,2427A,115.0307,30.2092,黄石市,团城山,,19,13,17,3,1,58,,71,71,10,7,8,7,0.5,0.4
2025-06-29T2000,3149A,115.0235,30.1578,黄石市,笔架山北路,,17,17,14,3,0,54,,68,67,11,7,7,5,0.4,0.4
2025-06-29T2000,4185A,115.0780,30.21118,黄石市,磁湖东路29号,,33,33,24,10,6,47,,63,63,17,11,8,7,0.8,1
2025-06-29T2000,1392A,114.4183,23.0528,惠州市,河南岸金山湖子站,,14,12,11,7,6,43,,53,52,7,8,6,7,0.3,0.3
2025-06-29T2000,1393A,114.4053,23.0822,惠州市,下埔横江三路子站,,15,14,11,6,5,48,,59,57,6,7,4,5,0.2,0.3
2025-06-29T2000,1394A,114.4103,23.1142,惠州市,江北云山西路子站,,18,10,12,3,4,56,,62,60,1,6,6,7,0.4,0.4
2025-06-29T2000,1395A,114.4645,22.7833,惠州市,惠阳区承修路船湖子站,,17,9,13,3,7,54,,60,58,7,11,7,7,0.4,0.4
2025-06-29T2000,1396A,114.5317,22.7422,惠州市,大亚湾管委会子站,,17,9,12,3,6,53,,55,55,8,12,9,9,0.4,0.4
2025-06-29T2000,3314A,114.4338,22.8134,惠州市,惠阳秋长,,20,7,10,7,7,61,,68,65,6,10,11,12,0.4,0.4
2025-06-29T2000,3452A,114.6517,22.775,惠州市,大亚湾霞涌,,,,15,,3,,,41,,,9,,5,,0.5
2025-06-29T2000,2240A,130.9762,45.3001,鸡西市,环保局,,22,22,33,9,18,63,,98,89,17,19,5,6,0.5,0.5
2025-06-29T2000,2243A,130.9429,45.3039,鸡西市,第一中学,,20,17,31,3,14,63,,92,84,17,23,9,10,0.5,0.5
2025-06-29T2000,3707A,131.0207,45.3073,鸡西市,欧美日汽修厂,,24,24,41,13,20,70,,94,86,13,26,8,9,0.6,0.6
2025-06-29T2000,3709A,130.9967,45.3106,鸡西市,市政设施管理处,,31,31,40,10,19,62,,91,82,16,25,5,5,0.8,0.7
2025-06-29T2000,2367A,114.9754,27.0803,吉安市,红声器材厂,,18,18,17,9,7,55,,65,65,8,6,8,9,0.2,0.2
2025-06-29T2000,2368A,114.9658,27.0999,吉安市,市森林工业局,,20,18,16,6,6,61,,73,72,4,5,7,9,0.3,0.3
2025-06-29T2000,2369A,114.99,27.1312,吉安市,市环境监测站,,20,18,17,10,11,63,,73,73,3,3,11,13,0.3,0.3
2025-06-29T2000,2370A,115.0093,27.0968,吉安市,青原区法院,,17,16,17,7,6,54,,64,64,10,8,6,8,0.4,0.3
2025-06-29T2000,1772A,126.54,43.8622,吉林市,哈达湾,颗粒物(PM10),52,53,39,25,18,129,,133,133,14,11,6,6,0.7,0.6
2025-06-29T2000,1773A,126.5844,43.8358,吉林市,东局子,,45,45,35,25,21,107,,130,130,11,13,5,5,1.0,0.9
2025-06-29T2000,1774A,126.5052,43.8245,吉林市,电力学院,细颗粒物(PM2.5),53,54,32,37,20,112,,128,128,21,16,5,5,1.0,0.9
2025-06-29T2000,1775A,126.6133,43.8972,吉林市,江北,,35,33,29,24,18,68,,97,97,11,11,7,8,0.9,0.7
2025-06-29T2000,1776A,126.555,43.8306,吉林市,江南公园,,42,42,33,28,28,87,,133,130,30,13,4,4,0.8,0.6
2025-06-29T2000,1778A,126.7061,43.7133,吉林市,丰满,,,,,,,,,,,,,,,,
2025-06-29T2000,2868A,126.4739,43.953,吉林市,九站,,50,50,29,27,22,124,,132,132,19,12,4,4,0.6,0.5
2025-06-29T2000,1299A,116.9862,36.6114,济南市,科干所,,29,,10,10,13,92,,94,92,8,13,4,4,0.5,0.6
2025-06-29T2000,1300A,116.9376,36.665,济南市,农科所,,28,15,15,3,5,88,,92,91,12,18,6,7,0.2,0.2
2025-06-29T2000,1301A,117.1265,36.6734,济南市,开发区,,31,10,14,10,10,97,,95,92,11,21,6,6,0.4,0.5
2025-06-29T2000,1303A,117.0624,36.6868,济南市,省种子仓库,,32,17,21,3,8,101,,107,103,10,25,4,5,0.4,0.5
2025-06-29T2000,1304A,116.9489,36.6447,济南市,机床二厂,,27,12,17,3,6,85,,92,87,18,23,4,4,0.4,0.4
2025-06-29T2000,1305A,117.0495,36.663,济南市,市监测站,,27,10,16,10,11,84,,90,88,15,28,8,8,0.4,0.5
2025-06-29T2000,1306A,116.7675,36.5484,济南市,长清党校,,33,,9,7,12,105,,95,95,13,15,4,4,0.3,0.3
2025-06-29T2000,1616A,117.6795,36.229,济南市,技术学院,,27,14,16,14,13,84,,92,92,26,30,8,8,0.7,0.9
2025-06-29T2000,1961A,117.532,36.6868,济南市,东山小学,,27,20,22,15,12,84,,90,90,15,16,6,6,0.3,0.3
2025-06-29T2000,3059A,117.7161,36.2049,济南市,泰兴公司,,22,22,23,12,14,66,,74,74,18,17,8,7,0.2,0.3
2025-06-29T2000,3064A,117.6867,36.2171,济南市,莱芜战役纪念馆,,24,24,25,13,15,73,,75,75,11,12,7,7,1.0,1.2
2025-06-29T2000,3494A,117.1673,36.9782,济南市,济阳区政府,,28,22,24,3,10,89,,128,120,16,17,4,5,0.3,0.4
2025-06-29T2000,3495A,117.1171,36.63,济南市,锦屏中学,,26,15,14,3,5,83,,85,83,9,13,5,5,0.5,0.5
2025-06-29T2000,3682A,116.9814,36.6819,济南市,济南四建,,29,12,15,10,15,91,,98,92,13,24,4,4,0.4,0.4
2025-06-29T2000,1653A,116.6251,35.4302,济宁市,火炬城,,27,17,12,3,3,85,,90,90,8,4,5,5,0.4,0.4
2025-06-29T2000,1655A,116.5491,35.4042,济宁市,电化厂,,29,22,14,9,5,90,,104,98,16,9,3,3,0.8,0.7
2025-06-29T2000,3500A,116.5814,35.3707,济宁市,北湖一中,,28,12,10,8,6,89,,100,99,11,5,4,4,0.4,0.3
2025-06-29T2000,3501A,116.8249,35.5593,济宁市,服务中心,,29,14,13,3,1,92,,97,97,12,11,1,1,0.2,0.2
2025-06-29T2000,3678A,116.5907,35.4054,济宁市,市第七中学,,25,23,11,3,0,78,,92,92,9,3,10,10,0.4,0.3
2025-06-29T2000,2255A,130.2751,46.8028,佳木斯市,佳纺,,25,25,34,15,19,57,,90,74,15,16,4,5,0.5,0.5
2025-06-29T2000,2256A,130.3995,46.8307,佳木斯市,发电厂,,35,35,30,12,17,67,,97,86,13,15,4,4,0.5,0.5
2025-06-29T2000,2257A,130.3258,46.7975,佳木斯市,环保局,,34,34,35,17,21,60,,103,84,15,15,5,5,0.5,0.5
2025-06-29T2000,2258A,130.3648,46.8032,佳木斯市,十一中,,,26,32,,41,78,,98,94,11,14,4,4,0.7,0.6
2025-06-29T2000,2259A,130.3794,46.7588,佳木斯市,四丰,,,24,24,,,,,,,7,11,,19,0.6,0.6
2025-06-29T2000,1252A,120.7436,30.778,嘉兴市,清河小学,,36,26,29,12,16,113,,158,154,19,17,8,7,0.5,0.6
2025-06-29T2000,1253A,120.726,30.7478,嘉兴市,嘉兴学院,,37,27,27,12,18,118,,168,164,18,18,7,5,0.5,0.4
2025-06-29T2000,2872A,120.7846,30.7525,嘉兴市,南湖区残联,,36,23,28,12,18,113,,160,156,15,14,5,5,0.2,0.2
2025-06-29T2000,3407A,120.6916,30.7739,嘉兴市,秀洲住建,,42,25,25,11,15,132,,172,169,17,18,7,6,0.7,0.7
2025-06-29T2000,1945A,98.2908,39.7711,嘉峪关市,气象局,,49,41,25,19,12,156,,153,153,9,7,8,11,0.7,0.7
2025-06-29T2000,2884A,98.2672,39.7978,嘉峪关市,酒钢宾馆,,47,41,29,12,14,149,,145,145,7,5,19,21,0.7,0.5
2025-06-29T2000,3248A,98.2643,39.7724,嘉峪关市,雄关区,,47,38,27,14,9,150,,145,145,14,13,12,11,0.1,0.4
2025-06-29T2000,1383A,113.1064,22.6058,江门市,北街,,15,,14,3,7,47,,62,57,9,11,3,3,0.4,0.4
2025-06-29T2000,1384A,113.0731,22.5835,江门市,西区,,22,22,14,8,6,41,,66,57,14,9,8,8,0.5,0.4
2025-06-29T2000,1385A,113.0219,22.5311,江门市,圭峰西,,29,29,18,11,8,30,,61,52,11,8,3,3,0.7,0.6
2025-06-29T2000,1386A,113.0828,22.5947,江门市,东湖,,16,16,15,8,7,44,,61,55,12,11,6,6,0.5,0.5
2025-06-29T2000,3311A,113.1075,22.5647,江门市,江海富民,,21,21,19,12,9,45,,66,58,12,11,10,10,0.6,0.5
2025-06-29T2000,3449A,113.05,22.4667,江门市,新会银湖,,16,16,17,10,9,24,,51,42,8,10,2,2,0.4,0.4
2025-06-29T2000,1830A,113.1992,35.2590,焦作市,影视城,,,,33,,19,,,,,,9,,14,,0.6
2025-06-29T2000,3169A,113.2725,35.2067,焦作市,太极体育中心,,30,30,43,11,35,92,,132,120,8,8,3,4,0.4,0.6
2025-06-29T2000,3335A,113.3137,35.2641,焦作市,马村街道办,,34,34,41,6,29,88,,124,112,10,11,9,10,0.5,0.7
2025-06-29T2000,3336A,113.2465,35.2373,焦作市,焦作技师学院,,35,35,47,7,17,86,,128,114,11,11,4,4,0.7,0.9
2025-06-29T2000,3477A,113.1656,35.2539,焦作市,中站许衡医院,,38,35,36,26,23,76,,130,116,16,11,6,7,0.5,0.7
2025-06-29T2000,3981A,113.2449,35.1803,焦作市,原李万街道办,,37,37,42,3,16,90,,130,118,11,12,12,13,0.1,0.2
2025-06-29T2000,4264A,113.2340,35.2190,焦作市,新安路1731号,,,22,40,,23,74,,134,113,11,6,6,4,0.4,0.5
2025-06-29T2000,1708A,116.3701,23.5345,揭阳市,新兴,,32,,18,22,10,45,,67,65,10,12,4,7,0.5,0.5
2025-06-29T2000,1709A,116.3264,23.5443,揭阳市,西马,,28,22,25,19,11,41,,68,62,7,10,1,3,0.7,0.7
2025-06-29T2000,1710A,116.3611,23.5626,揭阳市,东兴,,23,,20,16,9,51,,78,76,10,14,3,6,0.6,0.6
2025-06-29T2000,1711A,116.4151,23.5294,揭阳市,渔湖,,15,11,22,7,9,47,,63,63,6,12,7,7,0.3,0.4
2025-06-29T2000,3320A,116.403,23.5699,揭阳市,曲溪,,17,17,22,3,12,51,,76,74,4,13,3,10,0.5,0.5
2025-06-29T2000,1944A,102.1692,38.5167,金昌市,天庆家园,,34,29,101,19,27,108,,117,110,12,7,25,12,1.1,0.7
2025-06-29T2000,4022A,102.1647,38.5371,金昌市,金川区人防中心,,41,41,116,23,28,121,,122,117,10,7,15,12,0.5,0.5
2025-06-29T2000,4239A,102.1930,38.5319,金昌市,长春路96号,,38,30,106,16,32,120,,121,117,7,5,42,21,0.4,0.7
2025-06-29T2000,1262A,119.647,29.077,金华市,十五中,,29,29,25,14,12,46,,119,94,25,13,4,4,0.5,0.4
2025-06-29T2000,1263A,119.686,29.1029,金华市,监测站,,26,26,26,14,14,33,,111,89,27,11,2,3,0.7,0.6
2025-06-29T2000,3659A,119.656,29.1131,金华市,气象局,,32,32,24,15,11,45,,113,92,30,16,3,4,0.5,0.4
2025-06-29T2000,1767A,121.1115,41.0879,锦州市,南山,,32,24,37,22,41,77,,97,93,14,11,5,7,0.7,0.8
2025-06-29T2000,1768A,121.0604,40.8428,锦州市,开发区,,32,32,45,19,34,77,,115,96,30,17,5,5,0.7,0.8
2025-06-29T2000,1769A,121.1836,41.1119,锦州市,百股街道,,27,20,36,17,33,86,,111,101,8,8,1,4,0.6,0.7
2025-06-29T2000,1770A,121.1178,41.1222,锦州市,天安街道,,35,,40,24,40,84,,108,100,16,13,2,4,0.7,0.9
2025-06-29T2000,1771A,121.1303,41.1386,锦州市,北湖公园,,32,32,50,21,37,78,,102,92,12,9,2,3,0.7,0.8
2025-06-29T2000,2160A,112.85,35.5051,晋城市,自来水公司,颗粒物(PM10),59,68,50,17,21,118,,139,138,6,10,1,2,0.5,0.9
2025-06-29T2000,2161A,112.8318,35.4936,晋城市,白云商贸,,43,43,39,7,9,111,,131,130,10,13,4,4,0.5,0.8
2025-06-29T2000,2162A,112.8508,35.4887,晋城市,市环保局,,50,50,50,19,20,108,,131,130,8,11,6,7,0,0.3
2025-06-29T2000,2163A,112.8676,35.4897,晋城市,技术学院,,40,40,33,17,17,105,,124,124,8,10,6,6,0.5,0.8
2025-06-29T2000,2165A,112.8453,35.546,晋城市,白马寺,,,,26,,24,,,120,,,8,,5,,0.8
2025-06-29T2000,3620A,112.8271,35.4828,晋城市,泽州一中,,37,30,32,14,15,117,,140,140,9,12,4,4,0.6,0.8
2025-06-29T2000,2173A,112.7249,37.7067,晋中市,南都小区,,45,35,24,27,16,142,,166,166,4,10,3,2,0.7,0.7
2025-06-29T2000,2174A,112.6991,37.6982,晋中市,榆次区政府,,45,27,23,23,13,142,,166,166,4,13,5,6,0.8,0.9
2025-06-29T2000,2865A,112.7195,37.6828,晋中市,榆次三中,,47,34,21,17,10,150,,173,172,5,10,5,6,0.4,0.4
2025-06-29T2000,4200A,112.7478,37.6954,晋中市,迎宾街26号,,47,34,19,17,11,149,,174,174,7,12,6,6,0.4,0.5
2025-06-29T2000,2439A,112.2014,31.0481,荆门市,竹园小学,,25,25,20,14,10,66,,69,69,10,8,10,6,0.6,0.5
2025-06-29T2000,2440A,112.1969,30.9891,荆门市,掇刀,,29,29,18,12,11,70,,70,70,10,8,9,8,0.6,0.5
2025-06-29T2000,2441A,112.2213,31.0386,荆门市,石化一小,,22,16,22,9,10,68,,71,71,10,10,12,12,0.6,0.3
2025-06-29T2000,3012A,112.1849,31.0362,荆门市,西山林语,,22,17,17,12,9,69,,68,68,3,3,11,10,0.5,0.4
2025-06-29T2000,3547A,112.1632,31.0138,荆门市,龙泉中学南校,,25,19,15,17,9,72,,72,72,2,5,6,5,0.4,0.3
2025-06-29T2000,1844A,112.2494,30.3197,荆州市,市图书馆,,31,21,10,14,9,98,,88,88,6,6,3,3,0.5,0.4
2025-06-29T2000,1845A,112.2008,30.3544,荆州市,市委党校,,27,27,13,14,8,80,,72,72,10,9,6,6,0.5,0.5
2025-06-29T2000,3194A,112.2747,30.3122,荆州市,管委会,,28,27,14,17,10,88,,82,82,6,8,15,9,0.7,0.6
2025-06-29T2000,4268A,112.1722,30.3366,荆州市,学苑路85号,,26,24,14,18,10,82,,75,75,6,8,3,3,0.4,0.4
2025-06-29T2000,2342A,117.3102,29.3867,景德镇市,王港中学,,,,,,,,,,,,,,,,
2025-06-29T2000,2343A,117.2117,29.2933,景德镇市,老干部活动中心,,20,14,13,14,6,47,,66,65,14,8,13,7,0.6,0.4
2025-06-29T2000,2344A,117.1894,29.2789,景德镇市,兽医站,,26,26,21,6,7,61,,64,64,7,6,5,4,0.5,0.4
2025-06-29T2000,2345A,117.1547,29.2617,景德镇市,台达陶瓷,,38,38,21,13,9,52,,64,63,19,14,19,23,0.7,0.6
2025-06-29T2000,2346A,117.2461,29.2956,景德镇市,陶研所,,,30,15,14,7,,,39,,8,4,7,7,0.4,0.3
2025-06-29T2000,1803A,115.9872,29.6815,九江市,十里,,26,19,12,18,11,52,,60,60,22,12,3,3,0.5,0.5
2025-06-29T2000,1804A,115.9584,29.7046,九江市,茅山头,,27,27,14,12,8,49,,57,57,14,14,4,4,0.4,0.3
2025-06-29T2000,1805A,115.9877,29.7295,九江市,西园,,32,25,14,18,8,26,,54,50,64,25,6,6,0.7,0.6
2025-06-29T2000,1808A,115.9114,29.6038,九江市,综合工业园,,12,7,13,3,5,38,,59,58,22,15,3,3,0.9,0.7
2025-06-29T2000,1809A,116.0721,29.7535,九江市,石化总厂,,43,,17,30,20,68,,69,69,6,6,10,8,0.4,0.4
2025-06-29T2000,1810A,115.9773,29.5698,九江市,庐山气象台,,20,6,9,3,4,62,,60,60,3,3,6,7,1.0,0.8
2025-06-29T2000,3190A,116.0254,29.6994,九江市,外国语学校,,22,16,11,15,8,55,,58,58,10,8,7,5,0.6,0.6
2025-06-29T2000,4253A,116.0102,29.6594,九江市,莲花大道8号,,19,19,9,7,8,36,,47,47,2,4,4,4,0.5,0.5
2025-06-29T2000,4240A,98.4958,39.7339,酒泉市,玉门东路5号,,46,39,30,32,23,147,,142,142,6,6,15,11,0.2,0.2
2025-06-29T2000,4241A,98.5099,39.7506,酒泉市,北大街108号,,49,34,30,18,17,155,,151,151,6,5,21,24,0.2,0.3
2025-06-29T2000,2698A,76.0072,39.4467,喀什地区,巡警大队,颗粒物(PM10),93,135,149,50,39,132,,132,132,8,16,3,3,0.3,0.3
2025-06-29T2000,2699A,75.9755,39.4694,喀什地区,吾办,颗粒物(PM10),100,149,160,69,78,130,,133,133,13,16,7,6,0.5,0.5
2025-06-29T2000,4027A,75.9483,39.4689,喀什地区,老干局,颗粒物(PM10),93,135,149,56,50,128,,130,130,7,11,6,5,0.3,0.3
2025-06-29T2000,1824A,114.3389,34.7781,开封市,肿瘤医院,,26,18,18,3,9,83,,92,89,21,14,4,4,0.3,0.3
2025-06-29T2000,1826A,114.2885,34.7965,开封市,世纪星幼儿园,,25,20,23,3,10,79,,94,91,26,14,1,2,0.5,0.5
2025-06-29T2000,3147A,114.3438,34.8106,开封市,龙亭公园,,27,14,15,8,9,85,,91,89,21,9,4,2,0.2,0.2
2025-06-29T2000,3210A,114.3644,34.7964,开封市,汴京公园,,25,15,20,3,9,80,,96,91,23,14,5,4,0.4,0.4
2025-06-29T2000,3473A,114.2485,34.8306,开封市,技师学院,,21,21,16,8,9,66,,97,94,31,10,6,4,0.6,0.6
2025-06-29T2000,3592A,114.4644,34.7556,开封市,祥符区生态环境局,,22,22,15,6,7,59,,85,80,27,16,4,4,0.6,0.5
2025-06-29T2000,1951A,84.895,45.6094,克拉玛依市,长征新村,,37,19,18,3,5,118,,114,114,8,8,6,5,0.3,0.2
2025-06-29T2000,1952A,84.8988,45.5893,克拉玛依市,南林小区,,38,21,20,8,7,119,,117,117,8,12,4,3,0.2,0.1
2025-06-29T2000,1954A,84.905,44.3396,克拉玛依市,独山子区,,44,27,26,6,10,138,,124,124,10,11,11,8,0.4,0.3
2025-06-29T2000,1955A,85.6979,46.098,克拉玛依市,乌尔禾区商贸楼,,38,,15,26,7,98,,107,107,6,4,4,4,0.4,0.4
2025-06-29T2000,3612A,85.1045,45.6899,克拉玛依市,白碱滩区新站,,42,14,10,8,9,133,,125,125,8,8,8,8,0.1,0.3
2025-06-29T2000,2697A,76.1454,39.7142,克孜勒苏柯尔克孜自治州,市人民政府,细颗粒物(PM2.5),87,122,130,64,55,149,,149,149,2,7,3,5,0.0,0.1
2025-06-29T2000,3665A,76.1658,39.7157,克孜勒苏柯尔克孜自治州,克州文化中心,颗粒物(PM10),88,126,134,62,55,144,,146,146,5,6,4,5,0.2,0.2
2025-06-29T2000,1450A,102.8204,24.8886,昆明市,呈贡新区,,21,,10,13,12,66,,74,74,10,11,3,7,0.3,0.3
2025-06-29T2000,1451A,102.6251,24.9608,昆明市,西山森林公园,,,,,,,,,,,,,,,,
2025-06-29T2000,1452A,102.7252,25.0902,昆明市,龙泉镇,,25,25,18,9,7,67,,75,75,9,10,1,2,0.4,0.4
2025-06-29T2000,1453A,102.7266,25.0375,昆明市,东风东路,,21,13,14,7,8,66,,75,75,12,12,4,6,0.3,0.3
2025-06-29T2000,1454A,102.6742,25.0669,昆明市,金鼎山,,26,26,24,3,6,57,,70,70,9,10,1,2,0.3,0.3
2025-06-29T2000,1455A,102.6644,25.0401,昆明市,碧鸡广场,,17,12,16,8,6,52,,66,66,14,15,5,6,0.4,0.4
2025-06-29T2000,3179A,102.7494,25.0119,昆明市,官渡区博物馆,,21,13,12,8,5,67,,75,75,10,8,7,7,0.3,0.3
2025-06-29T2000,3375A,102.8017,24.8336,昆明市,青年创业园,,22,8,9,8,6,69,,73,73,7,9,3,4,0.4,0.4
2025-06-29T2000,3550A,102.7997,24.9786,昆明市,昆明学院,,22,12,12,3,6,68,,76,76,8,9,5,6,0.3,0.3
2025-06-29T2000,3551A,102.5967,24.6736,昆明市,晋宁区生态环境分局,,19,16,14,9,8,59,,63,63,8,10,4,3,0.2,0.2
2025-06-29T2000,3552A,102.6678,24.9856,昆明市,云天化总部,,19,9,10,3,5,58,,67,67,8,10,5,5,0.5,0.6
2025-06-29T2000,1456A,91.1319,29.6514,拉萨市,八廓街,,45,12,12,6,7,141,,138,138,9,8,7,7,0.2,0.2
2025-06-29T2000,1457A,91.1221,29.6747,拉萨市,市环保局,,46,22,15,8,6,146,,139,139,11,11,9,7,0.4,0.3
2025-06-29T2000,1458A,91.0874,29.6475,拉萨市,区监测站,,44,10,11,7,6,138,,136,136,12,11,7,7,0.2,0.2
2025-06-29T2000,1459A,91.1774,29.6541,拉萨市,西藏大学,,43,14,9,6,6,137,,133,133,9,9,6,6,0.3,0.3
2025-06-29T2000,1460A,90.9798,29.6588,拉萨市,区辐射站,,38,25,14,10,8,119,,128,128,23,12,6,6,0.3,0.2
2025-06-29T2000,1461A,91.0834,29.6292,拉萨市,拉萨火车站,,44,7,11,3,6,140,,137,137,7,6,5,4,0.1,0.1
2025-06-29T2000,2520A,109.2203,23.7256,来宾市,来宾技工学校,,22,22,23,12,12,59,,67,66,5,11,6,13,0.6,0.6
2025-06-29T2000,3535A,109.1781,23.7297,来宾市,兴宾区政府,,20,20,21,7,13,54,,68,66,7,11,21,12,0.6,0.6
2025-06-29T2000,4002A,109.2416,23.7461,来宾市,中南小学,,19,18,23,11,12,60,,70,69,6,10,10,12,0.5,0.5
2025-06-29T2000,1477A,104.1373,35.9454,兰州市,榆中兰大校区,,,,,,,,,,,,,,,,
2025-06-29T2000,1479A,103.831,36.0464,兰州市,铁路设计院,,33,32,66,23,30,91,,92,88,23,30,6,8,0.4,0.5
2025-06-29T2000,3241A,103.7439,36.0842,兰州市,百合公园,,26,23,60,18,32,76,,85,82,14,27,5,4,0.4,0.4
2025-06-29T2000,3242A,103.9611,35.998,兰州市,和平,,35,10,58,3,25,112,,109,109,7,12,9,9,0.6,0.5
2025-06-29T2000,4236A,103.6293,36.0938,兰州市,庄浪东路808号,,33,27,65,23,33,80,,91,87,34,42,8,12,0.2,0.3
2025-06-29T2000,4237A,103.7251,36.1043,兰州市,安宁西路88号,,30,,68,19,30,94,,106,100,10,19,4,7,0.3,0.4
2025-06-29T2000,4238A,103.8470,36.0676,兰州市,北滨河东路1号,,32,,62,22,32,102,,101,98,16,25,6,10,0.5,0.7
2025-06-29T2000,3245A,103.6633,36.533,兰州新区,新区管委会,,34,23,46,14,27,107,,119,117,7,8,5,11,0.3,0.3
2025-06-29T2000,3246A,103.6975,36.4789,兰州新区,舟曲中学,,33,9,58,3,20,104,,111,106,6,14,7,10,0.4,0.4
2025-06-29T2000,1067A,116.6708,39.5111,廊坊市,药材公司,颗粒物(PM10),58,65,49,39,31,163,,154,154,16,11,3,3,0.6,0.5
2025-06-29T2000,1068A,116.7214,39.5589,廊坊市,开发区,细颗粒物(PM2.5),65,48,53,47,38,156,,157,157,13,11,1,1,0.6,0.5
2025-06-29T2000,1070A,116.7244,39.5269,廊坊市,北华航天学院,细颗粒物(PM2.5),87,69,65,64,64,150,,148,148,7,4,1,1,0.7,0.5
2025-06-29T2000,2919A,116.7022,39.5453,廊坊市,河北工业大学,颗粒物(PM10),60,70,59,38,33,162,,158,158,13,11,3,3,0.6,0.5
2025-06-29T2000,2535A,103.7723,29.5462,乐山市,花湖湾,,23,14,16,9,12,71,,83,81,10,12,2,2,0.5,0.5
2025-06-29T2000,2536A,103.7627,29.5844,乐山市,牛耳桥,,22,12,18,9,15,70,,94,86,18,17,6,6,0.8,0.8
2025-06-29T2000,2537A,103.7508,29.6006,乐山市,市第三水厂,,24,15,18,7,13,76,,90,84,15,16,3,4,0.7,0.7
2025-06-29T2000,2538A,103.7571,29.5664,乐山市,市监测站,,22,13,18,10,12,69,,84,77,8,7,6,7,0.7,0.8
2025-06-29T2000,3361A,103.7311,29.5628,乐山市,理工大学,,,,23,,16,,,91,,,14,,6,,0.6
2025-06-29T2000,2598A,100.2143,26.8576,丽江市,西南郊,,21,9,15,3,8,65,,80,74,4,11,6,12,0.5,1
2025-06-29T2000,2599A,100.2497,26.8802,丽江市,丽江古城,,18,16,19,6,8,57,,68,67,9,12,10,9,0.4,0.5
2025-06-29T2000,2600A,100.2203,26.8906,丽江市,市中心,,19,12,11,7,9,60,,72,71,11,13,7,7,0.6,0.7
2025-06-29T2000,1267A,119.914,28.4514,丽水市,监测站大楼,,33,33,22,11,6,68,,96,90,16,13,3,3,0.5,0.4
2025-06-29T2000,1268A,119.93,28.4586,丽水市,莲都小学,,29,22,22,9,9,92,,90,89,9,11,4,3,0.4,0.4
2025-06-29T2000,1269A,119.879,28.4231,丽水市,余庄前,,33,33,26,20,13,36,,103,83,10,8,3,3,0.5,0.5
2025-06-29T2000,1173A,119.176,34.5885,连云港市,市环境监测站,,19,7,15,3,12,60,,72,72,15,15,4,4,0.4,0.3
2025-06-29T2000,3000A,119.3581,34.6972,连云港市,德源药业,,18,9,16,3,6,55,,59,59,16,16,8,9,0.8,0.6
2025-06-29T2000,3007A,119.178,34.844,连云港市,新城一中,,15,14,19,3,9,46,,66,64,25,19,5,6,0.8,0.9
2025-06-29T2000,3008A,119.3608,34.7519,连云港市,胡沟管理处,,17,12,13,3,8,36,,63,58,33,16,5,6,0.9,0.9
2025-06-29T2000,3009A,119.1478,34.5911,连云港市,矿山设计院,,18,9,18,7,11,55,,68,67,10,11,5,4,0.6,0.6
2025-06-29T2000,3434A,119.2413,34.6539,连云港市,工贸学校,,27,6,11,3,8,84,,76,76,2,3,6,7,0.6,0.7
2025-06-29T2000,3664A,119.4172,34.7341,连云港市,连云街道,,20,8,15,3,9,62,,67,60,12,11,6,7,0.7,0.6
2025-06-29T2000,2571A,102.3431,27.8099,凉山彝族自治州,青龙寺,,19,10,20,7,6,58,,101,95,5,6,5,5,0.5,0.5
2025-06-29T2000,2572A,102.2721,27.8415,凉山彝族自治州,邛海宾馆,,21,15,19,7,10,65,,97,93,10,11,9,8,0.4,0.4
2025-06-29T2000,2573A,102.2625,27.898,凉山彝族自治州,西昌市政府,,27,27,32,11,13,62,,101,94,12,8,16,13,0.6,0.5
2025-06-29T2000,2574A,102.2685,27.8851,凉山彝族自治州,凉山州政府,,25,22,19,17,13,67,,101,94,14,13,10,9,0.8,0.9
2025-06-29T2000,4229A,102.2342,27.8859,凉山彝族自治州,凯乐南路30号,,21,21,23,11,10,63,,99,93,17,14,22,12,0.9,0.8
2025-06-29T2000,2212A,123.2,41.1953,辽阳市,宏伟区,,24,14,30,3,14,74,,132,79,3,3,3,3,0.7,0.8
2025-06-29T2000,2213A,123.1683,41.2495,辽阳市,新华园,,24,14,32,6,22,74,,135,84,4,2,7,4,0.3,0.4
2025-06-29T2000,2214A,123.2354,41.2639,辽阳市,滨河路,,22,11,29,9,19,68,,118,73,6,7,7,7,0.5,0.5
2025-06-29T2000,2215A,123.149,41.2991,辽阳市,铁西工业园,,21,13,48,3,19,66,,108,70,4,5,2,2,0.7,0.8
2025-06-29T2000,2227A,125.1358,42.8845,辽源市,环保局,,42,42,32,15,14,80,,146,131,17,9,2,2,0.5,0.4
2025-06-29T2000,3239A,125.0764,42.9078,辽源市,银鹰制药,,31,31,23,21,17,92,,149,133,21,14,1,2,0.6,0.6
2025-06-29T2000,1625A,115.9848,36.4372,聊城市,区政府,,29,12,9,8,8,92,,101,98,9,9,8,8,0.5,0.6
2025-06-29T2000,2878A,116.0072,36.4343,聊城市,聊大东校,,30,17,11,13,12,96,,105,102,7,7,6,6,0.3,0.3
2025-06-29T2000,3200A,115.9819,36.4978,聊城市,监控中心,,31,6,5,3,4,98,,109,105,6,8,7,7,0.5,0.5
2025-06-29T2000,3513A,116.0445,36.4361,聊城市,九州社区,,30,16,15,7,8,96,,105,104,11,11,4,4,0.2,0.3
2025-06-29T2000,4018A,116.0567,36.4608,聊城市,星美广场,,33,19,20,6,7,103,,112,111,7,10,10,10,0.5,0.6
2025-06-29T2000,2632A,94.3681,29.6376,林芝市,林芝监测站,,25,,10,8,6,79,,81,81,3,4,4,3,0.4,0.4
2025-06-29T2000,2633A,94.3616,29.6616,林芝市,林芝人民医院,,26,13,7,7,4,81,,86,86,1,2,5,5,0.2,0.3
2025-06-29T2000,2603A,100.0781,23.8982,临沧市,市环保局,,19,14,16,13,14,32,,41,40,7,8,6,6,0.7,0.6
2025-06-29T2000,2604A,100.0894,23.8822,临沧市,市气象局,,16,15,18,11,13,41,,42,42,9,10,7,7,0.5,0.5
2025-06-29T2000,1733A,111.5531,36.0783,临汾市,临钢医院,颗粒物(PM10),53,56,48,16,17,120,,170,164,26,15,4,6,0.5,0.8
2025-06-29T2000,1734A,111.5028,36.0714,临汾市,技工学校,颗粒物(PM10),54,58,48,27,28,124,,160,155,20,13,3,5,0.5,0.8
2025-06-29T2000,1736A,111.5018,36.0855,临汾市,市委,颗粒物(PM10),53,55,58,9,18,134,,168,163,21,17,3,4,0.6,0.9
2025-06-29T2000,3018A,111.505,36.1014,临汾市,唐尧大酒店,颗粒物(PM10),53,55,63,6,19,126,,160,156,16,14,3,4,0.5,0.8
2025-06-29T2000,4244A,111.4879,36.0530,临汾市,启星学校,,42,42,43,25,31,122,,163,157,21,13,6,7,0.5,0.7
2025-06-29T2000,4271A,103.2464,35.6123,临夏回族自治州,滨河东路1号,,22,13,43,12,19,70,,79,78,1,10,3,4,0.3,0.3
2025-06-29T2000,4310A,103.2093,35.5995,临夏回族自治州,新华街21号,,29,22,37,12,22,91,,97,96,4,9,4,6,0.3,0.3
2025-06-29T2000,1618A,118.3429,35.0532,临沂市,沂河小区,,19,,14,8,8,58,,76,76,19,14,6,7,0.4,0.3
2025-06-29T2000,1619A,118.295,35.0583,临沂市,鲁南制药厂,,24,,9,10,11,74,,82,82,15,15,7,8,0.4,0.4
2025-06-29T2000,1620A,118.2794,34.9976,临沂市,新光毛纺厂,,24,,6,7,10,76,,92,92,14,15,8,8,0.5,0.4
2025-06-29T2000,1621A,118.3956,35.0888,临沂市,河东保险公司,,18,6,12,3,3,56,,81,80,10,14,4,5,0.5,0.5
2025-06-29T2000,3370A,118.3564,35.0215,临沂市,十里堡居委,,,0,6,,7,62,,82,81,21,17,8,8,0.5,0.5
2025-06-29T2000,3496A,118.3604,35.1084,临沂市,南坊新区,,18,6,11,3,4,55,,86,85,14,14,7,8,0.4,0.3
2025-06-29T2000,3860A,118.3920,35.0300,临沂市,皇山花园小区,,19,,8,8,13,60,,78,77,10,12,8,10,0.6,0.6
2025-06-29T2000,1870A,109.4856,24.3895,柳州市,柳东小学,,20,14,20,10,11,61,,77,76,8,8,4,4,0.4,0.4
2025-06-29T2000,1871A,109.4157,24.3277,柳州市,环保监测站,,19,18,20,7,12,60,,76,75,7,10,7,7,0.5,0.5
2025-06-29T2000,1872A,109.389,24.341,柳州市,河西水厂,,20,16,21,9,11,64,,76,75,9,10,4,4,0.4,0.4
2025-06-29T2000,1873A,109.4311,24.2921,柳州市,市四中,,21,21,20,13,13,60,,79,77,11,13,6,6,0.4,0.4
2025-06-29T2000,1874A,109.4006,24.3631,柳州市,市九中,,20,15,21,14,13,63,,77,76,8,10,2,3,0.6,0.6
2025-06-29T2000,1875A,109.4958,24.3134,柳州市,古亭山,,18,13,21,10,11,56,,77,75,7,9,4,4,0.4,0.5
2025-06-29T2000,3402A,109.5422,24.3996,柳州市,市二中,,21,,19,13,20,65,,84,82,9,10,5,6,0.4,0.4
2025-06-29T2000,2307A,116.5079,31.737,六安市,监测大楼,,12,,7,6,7,38,,50,49,6,5,4,5,0.3,0.1
2025-06-29T2000,2308A,116.4738,31.7643,六安市,皖西学院,,14,10,6,6,8,43,,59,56,6,3,3,3,0.2,0.1
2025-06-29T2000,2309A,116.4996,31.7905,六安市,朝阳厂,,12,,6,8,7,37,,49,46,9,7,6,6,0.3,0.2
2025-06-29T2000,2310A,116.5567,31.7886,六安市,开发区,,13,,6,9,6,34,,55,50,2,4,3,3,0.3,0.3
2025-06-29T2000,2576A,104.8,26.5892,六盘水市,窑上,,43,43,28,7,3,47,,54,54,6,5,4,3,0.3,0.3
2025-06-29T2000,2577A,104.83,26.5917,六盘水市,黄土坡,,17,17,12,7,8,47,,58,58,12,8,9,8,0.4,0.4
2025-06-29T2000,2578A,104.89,26.5939,六盘水市,水钢,,50,,29,35,20,53,,59,59,7,8,10,12,0.4,0.4
2025-06-29T2000,2579A,104.8475,26.5894,六盘水市,民中,,18,18,14,7,6,52,,61,60,7,6,8,8,0.4,0.4
2025-06-29T2000,2580A,104.9544,26.5506,六盘水市,双水,,16,14,7,3,7,49,,57,57,7,6,10,10,0.3,0.3
2025-06-29T2000,2335A,117.0189,25.1181,龙岩市,龙岩师专,,,,,,,,,,,,,,,,
2025-06-29T2000,2336A,117.0217,25.1033,龙岩市,龙岩市监测站,,15,15,20,8,10,37,,71,64,15,17,3,7,0.6,0.4
2025-06-29T2000,2337A,117.0258,25.0661,龙岩市,闽西职业技术学院,,21,21,25,9,10,23,,62,54,13,11,3,14,0.5,0.5
2025-06-29T2000,2338A,117.0196,25.0306,龙岩市,龙岩学院,,19,,19,13,9,24,,58,50,8,6,5,5,0.7,0.7
2025-06-29T2000,2665A,105.0822,33.3261,陇南市,汉王镇固水子,,,,,,,,,,,,,,,,
2025-06-29T2000,2885A,104.9339,33.3826,陇南市,滨江中学,,36,36,40,14,16,87,,102,101,16,8,4,5,0.4,0.4
2025-06-29T2000,3247A,104.955,33.371,陇南市,市总工会,颗粒物(PM10),58,66,48,10,12,96,,112,111,15,7,7,7,0.5,0.7
2025-06-29T2000,2487A,111.9589,27.8901,娄底市,电视发射台,颗粒物(PM10),55,60,27,10,9,15,,46,42,6,8,5,6,0.4,0.6
2025-06-29T2000,2488A,111.9975,27.725,娄底市,市监测站,,33,,19,23,24,58,,60,60,7,14,9,9,0.3,0.5
2025-06-29T2000,2489A,112.0194,27.7314,娄底市,市委党校,,21,20,17,12,12,65,,68,68,6,8,8,7,0.4,0.4
2025-06-29T2000,2490A,111.9561,27.7569,娄底市,涟钢,,22,22,26,6,14,55,,56,56,12,18,9,7,1.1,1.1
2025-06-29T2000,2491A,111.9892,27.7044,娄底市,市政府,,20,12,15,7,9,64,,66,66,2,4,6,6,0.4,0.4
2025-06-29T2000,1893A,105.4324,28.9634,泸州市,九狮山,,50,44,38,35,31,86,,88,88,12,18,5,5,0.3,0.3
2025-06-29T2000,1894A,105.4427,28.9063,泸州市,小市上码头,,40,40,31,25,17,86,,88,88,13,13,3,3,0.4,0.3
2025-06-29T2000,1895A,105.4241,28.8573,泸州市,兰田宪桥,颗粒物(PM10),51,51,35,25,19,75,,86,86,17,22,7,7,0.8,0.7
2025-06-29T2000,1896A,105.4379,28.8833,泸州市,市环监站,,45,45,30,26,20,55,,68,68,22,21,3,4,0.7,0.6
2025-06-29T2000,4272A,105.3689,28.7783,泸州市,纳溪中医医院,,46,41,41,32,32,67,,84,84,34,29,4,4,0.5,0.6
2025-06-29T2000,2183A,111.1406,37.5211,吕梁市,环保局,臭氧1小时,80,,43,30,17,184,,176,176,14,22,6,6,0.6,0.5
2025-06-29T2000,2185A,111.1297,37.5136,吕梁市,自来水公司,臭氧1小时,64,,38,22,15,171,,163,163,11,16,3,4,0.6,0.5
2025-06-29T2000,2867A,111.1283,37.51,吕梁市,马茂庄小学,臭氧1小时,58,34,47,29,20,166,,166,166,23,24,4,5,0.7,0.5
2025-06-29T2000,1812A,112.3931,34.6516,洛阳市,市委党校,,35,32,37,12,21,112,,130,130,8,10,5,5,0.4,0.6
2025-06-29T2000,1815A,112.494,34.6886,洛阳市,河南林校,,40,31,40,16,20,128,,150,150,11,11,6,6,0.5,0.6
2025-06-29T2000,1816A,112.3844,34.623,洛阳市,开发区管委会,,35,21,31,12,22,109,,145,145,9,10,9,10,0.5,0.6
2025-06-29T2000,1817A,112.4267,34.6258,洛阳市,市委新办公区,,35,25,32,14,23,111,,136,136,11,12,7,9,0.4,0.5
2025-06-29T2000,3340A,112.6005,34.6326,洛阳市,伊滨,,33,29,40,15,22,105,,137,136,12,11,4,5,0.4,0.5
2025-06-29T2000,3341A,112.4951,34.6332,洛阳市,中移产业园,,38,27,35,15,26,119,,141,141,8,9,6,6,0.8,0.9
2025-06-29T2000,3593A,112.5736,34.8993,洛阳市,吉利监测站,,37,34,41,9,26,118,,136,136,12,8,6,7,0.5,0.6
2025-06-29T2000,3635A,112.3677,34.662,洛阳市,河科大西苑校区,,37,32,34,13,25,118,,145,145,8,8,6,7,0.5,0.6
2025-06-29T2000,3636A,112.4388,34.6781,洛阳市,英才小学,,35,34,40,17,24,110,,128,128,8,9,7,8,0.7,0.8
2025-06-29T2000,4214A,112.4600,34.6949,洛阳市,春都路1号院,,36,26,34,13,19,115,,136,136,8,8,1,2,0.6,0.6
2025-06-29T2000,2399A,114.051,33.5699,漯河市,三五一五工厂,,26,,18,14,11,81,,93,93,12,16,4,5,0.4,0.5
2025-06-29T2000,2400A,114.0055,33.5698,漯河市,漯河大学,,25,23,21,3,6,79,,93,92,14,18,3,4,0.3,0.3
2025-06-29T2000,2401A,114.0138,33.5828,漯河市,市水利局,,25,9,11,3,8,78,,90,90,10,13,3,4,0.5,0.5
2025-06-29T2000,2402A,114.0261,33.5698,漯河市,市广电局,,25,10,14,8,12,79,,92,91,11,14,2,2,0.4,0.5
2025-06-29T2000,3478A,113.9749,33.5664,漯河市,市图书馆,,24,20,24,3,12,76,,88,88,11,15,2,3,0.3,0.3
2025-06-29T2000,4250A,114.0892,33.5882,漯河市,韶山路11号,,,,19,3,10,77,,92,91,13,14,1,2,0.5,0.5
2025-06-29T2000,1798A,118.5092,31.6837,马鞍山市,湖东路四小,,22,,17,12,7,68,,92,81,8,7,7,7,0.5,0.5
2025-06-29T2000,1799A,118.5024,31.6449,马鞍山市,开发区,,27,27,18,8,7,52,,94,78,16,11,6,7,0.8,0.7
2025-06-29T2000,1802A,118.6245,31.7241,马鞍山市,濮塘,,15,12,14,10,8,45,,98,78,1,3,8,9,0.7,0.7
2025-06-29T2000,3633A,118.4918,31.6809,马鞍山市,雨山,,20,18,15,10,6,63,,88,79,10,7,5,6,0.6,0.6
2025-06-29T2000,4191A,118.5274,31.72227,马鞍山市,慈湖高新区,,24,24,16,11,8,54,,86,72,21,15,8,7,0.3,0.4
2025-06-29T2000,1686A,111.0286,21.4688,茂名市,电白南海,,,,18,39,12,33,,45,43,12,8,2,2,,0.4
2025-06-29T2000,1687A,110.9294,21.6533,茂名市,茂石化七小,,19,19,18,12,6,37,,48,47,7,7,3,4,0.5,0.4
2025-06-29T2000,1688A,110.9107,21.6687,茂名市,健康路,,17,17,14,9,6,43,,55,53,9,8,3,3,0.5,0.4
2025-06-29T2000,1689A,110.8592,21.6828,茂名市,高岭,,24,24,22,9,4,42,,48,45,8,11,5,4,0.4,0.4
2025-06-29T2000,3450A,111.01,21.5165,茂名市,电白水东,,17,17,12,7,6,45,,55,53,7,6,6,4,0.3,0.3
2025-06-29T2000,2539A,104.0308,30.0478,眉山市,黑龙滩水库,,33,,17,23,28,64,,76,73,5,10,2,2,0.5,0.6
2025-06-29T2000,2540A,103.8416,30.0874,眉山市,气象局,,22,9,30,3,16,68,,97,92,13,20,3,3,0.4,0.5
2025-06-29T2000,3137A,103.8578,30.0744,眉山市,市委党校,,23,6,21,3,14,71,,89,86,10,17,5,6,0.4,0.5
2025-06-29T2000,3148A,103.8291,30.0564,眉山市,区人社局,,,32,39,,20,70,,97,92,20,20,9,11,0.6,0.7
2025-06-29T2000,1690A,116.1231,24.3284,梅州市,梅江月梅,,22,,18,15,11,61,,56,55,5,9,6,8,0.4,0.5
2025-06-29T2000,1691A,116.0797,24.2719,梅州市,梅县新城,,19,18,19,8,9,60,,66,64,7,10,6,7,0.5,0.5
2025-06-29T2000,1692A,116.1248,24.2654,梅州市,环境监控中心,,20,20,18,14,12,56,,61,59,12,15,3,6,0.5,0.5
2025-06-29T2000,3315A,116.1233,24.2991,梅州市,梅龙,,19,14,16,6,8,60,,58,57,5,8,6,7,0.5,0.5
2025-06-29T2000,1878A,104.7778,31.4741,绵阳市,富乐山,,29,12,31,9,20,90,,90,90,11,15,8,8,0.4,0.6
2025-06-29T2000,1880A,104.6697,31.4668,绵阳市,高新区自来水公司,,25,10,36,7,18,80,,92,88,16,22,8,8,0.4,0.5
2025-06-29T2000,1881A,104.7287,31.5075,绵阳市,三水厂,,24,10,37,7,24,76,,95,91,23,27,8,9,0.5,0.6
2025-06-29T2000,3491A,104.69,31.5322,绵阳市,西科大附属小学,,25,9,38,3,21,80,,88,87,18,31,7,8,0.0,0.1
2025-06-29T2000,3492A,104.5648,31.5343,绵阳市,安州区旅游局,,33,6,30,3,15,104,,98,98,5,14,4,6,0.3,0.5
2025-06-29T2000,4226A,104.7651,31.4531,绵阳市,绵阳市气象局,,27,11,32,6,21,85,,88,87,12,17,6,7,0.4,0.5
2025-06-29T2000,1784A,129.61,44.561,牡丹江市,环保大楼,,21,,20,12,10,66,,85,80,17,19,2,1,0.5,0.4
2025-06-29T2000,1785A,129.6115,44.5782,牡丹江市,文化广场,,26,26,21,16,16,68,,84,80,18,19,3,3,0.6,0.5
2025-06-29T2000,1786A,129.5904,44.5963,牡丹江市,第一医院,,22,16,16,3,11,70,,88,83,15,18,5,5,0.5,0.4
2025-06-29T2000,1787A,129.6364,44.6075,牡丹江市,机车工厂,,20,20,24,3,7,64,,83,78,13,15,4,4,0.5,0.5
2025-06-29T2000,1788A,129.6386,44.5462,牡丹江市,第一中学,,22,18,18,15,12,52,,73,68,19,19,4,4,0.6,0.5
2025-06-29T2000,2531A,105.0703,29.61,内江市,市监测站,,25,16,24,10,22,77,,73,64,7,19,6,7,0.5,0.7
2025-06-29T2000,2532A,105.0717,29.5947,内江市,东兴区政府,,,15,20,,15,68,,72,56,8,16,3,3,0.4,0.5
2025-06-29T2000,2533A,105.0653,29.5817,内江市,内江二中,,21,8,21,3,21,66,,69,58,10,17,6,8,0.5,0.5
2025-06-29T2000,2534A,105.0406,29.5822,内江市,内江日报社,,21,9,27,3,20,65,,60,53,11,25,5,13,0.3,0.5
2025-06-29T2000,2628A,92.0657,31.4846,那曲市,那曲监测站,,43,43,26,21,14,136,,136,136,12,13,7,12,0.3,0.4
2025-06-29T2000,4243A,92.0515,31.4787,那曲市,那曲市委宣传部,,,,10,18,9,148,,143,143,7,12,8,8,0.3,0.3
2025-06-29T2000,1290A,115.8931,28.6843,南昌市,省外办,,28,,16,19,12,28,,58,53,25,16,3,3,0.6,0.5
2025-06-29T2000,1291A,115.8886,28.7003,南昌市,省林业公司,,13,12,14,9,7,36,,66,62,23,15,8,9,0.7,0.6
2025-06-29T2000,1292A,115.8126,28.7442,南昌市,林科所,,16,7,10,3,4,6,,50,41,31,15,5,5,0.2,0.2
2025-06-29T2000,1294A,115.8518,28.687,南昌市,建工学校,,23,23,17,3,8,39,,60,56,18,13,6,7,0.5,0.4
2025-06-29T2000,1295A,115.8921,28.6424,南昌市,象湖,,18,13,15,12,7,37,,61,56,20,14,6,7,0.6,0.5
2025-06-29T2000,1296A,115.7423,28.7996,南昌市,武术学校,,19,19,19,9,12,15,,43,37,2,3,8,9,0.5,0.5
2025-06-29T2000,3046A,115.9084,28.6062,南昌市,机电学校,,18,17,21,12,8,42,,57,53,14,15,3,4,0.6,0.6
2025-06-29T2000,3690A,115.9721,28.7031,南昌市,外国语学校,,24,24,16,8,7,35,,58,55,26,11,10,11,1.0,0.7
2025-06-29T2000,4192A,115.9316,28.68677,南昌市,南京东路235号,,34,34,25,18,7,41,,64,61,27,14,3,4,0.7,0.5
2025-06-29T2000,1905A,106.056,30.8064,南充市,西山风景区,,,,,,,,,,,,,,,,
2025-06-29T2000,1906A,106.0789,30.8023,南充市,南充市委,,27,27,36,18,23,73,,88,88,14,20,4,5,0.4,0.5
2025-06-29T2000,1907A,106.1031,30.8217,南充市,南充炼油厂,,31,31,31,17,20,64,,85,84,23,14,5,6,0.4,0.4
2025-06-29T2000,4227A,106.1083,30.7884,南充市,梨树横街98号,,39,39,33,20,18,73,,85,85,18,14,3,3,0.4,0.4
2025-06-29T2000,4304A,106.1172,30.843,南充市,清泉寺北路188号,,35,35,37,24,21,60,,68,68,15,14,2,2,0.4,0.3
2025-06-29T2000,4305A,106.067,30.7616,南充市,同庆路1号,,32,32,30,17,19,79,,88,88,14,17,3,4,0.3,0.3
2025-06-29T2000,1151A,118.8086,32.1065,南京市,迈皋桥,,17,10,11,7,6,52,,80,72,13,6,4,4,1.1,1
2025-06-29T2000,1152A,118.7538,32.0551,南京市,草场门,,14,14,11,3,6,44,,91,78,21,10,6,8,0.0,0.1
2025-06-29T2000,1153A,118.7794,32.0745,南京市,山西路,,19,9,12,3,2,58,,98,86,3,6,4,6,0.2,0.2
2025-06-29T2000,1154A,118.7752,32.0023,南京市,中华门,,19,19,9,7,4,42,,86,72,16,9,9,9,0.3,0.4
2025-06-29T2000,1155A,118.8109,32.0309,南京市,瑞金路,,19,19,9,3,4,46,,95,82,8,7,7,6,0.4,0.4
2025-06-29T2000,1156A,118.7997,32.0754,南京市,玄武湖,,,8,15,,2,52,,87,78,11,10,3,4,0.5,0.5
2025-06-29T2000,1157A,118.6414,32.0931,南京市,浦口,,25,25,15,3,5,46,,78,70,25,13,3,5,0.2,0.2
2025-06-29T2000,1158A,118.7356,31.9996,南京市,奥体中心,,18,12,13,3,5,57,,92,81,17,12,4,6,0.2,0.3
2025-06-29T2000,1159A,118.9125,32.1028,南京市,仙林大学城,,17,12,18,3,2,53,,99,87,11,8,6,8,0.5,0.5
2025-06-29T2000,3422A,118.8436,31.9198,南京市,江宁彩虹桥,,14,11,13,3,6,42,,98,81,16,10,4,4,0.5,0.5
2025-06-29T2000,3427A,118.8554,32.3578,南京市,六合雄州,,21,21,15,12,6,52,,96,86,19,19,3,5,0.6,0.7
2025-06-29T2000,4249A,118.8708,31.3402,南京市,汶溪路181号,,21,13,12,7,7,65,,91,85,10,10,4,5,0.3,0.3
2025-06-29T2000,4312A,119.019,31.6512,南京市,中山西路1号,,15,,6,8,6,46,,80,73,12,5,4,4,0.5,0.5
2025-06-29T2000,1401A,108.3103,22.7881,南宁市,二十一中,,18,17,16,9,9,56,,57,57,1,5,4,5,0.7,0.7
2025-06-29T2000,1402A,108.3141,22.8528,南宁市,北湖,,18,17,20,10,12,55,,61,61,9,12,4,5,0.5,0.5
2025-06-29T2000,1403A,108.3206,22.8225,南宁市,市监测站,,17,13,17,10,10,54,,57,57,6,9,6,7,0.5,0.5
2025-06-29T2000,1404A,108.3829,22.8037,南宁市,大自然花园,,21,15,16,9,11,67,,66,66,4,6,4,4,0.4,0.4
2025-06-29T2000,1405A,108.4394,22.7904,南宁市,仙葫,,22,19,18,3,11,68,,66,66,7,9,9,9,0.5,0.5
2025-06-29T2000,1406A,108.2397,22.8467,南宁市,区农职院,,18,18,22,8,7,49,,63,63,16,16,2,3,0.5,0.5
2025-06-29T2000,1407A,108.3275,22.735,南宁市,英华嘉园,,20,11,18,8,9,62,,66,66,6,10,6,7,0.4,0.4
2025-06-29T2000,3401A,108.4834,22.7618,南宁市,红星社区,,20,13,18,3,11,61,,61,61,2,6,2,2,0.4,0.4
2025-06-29T2000,4221A,108.2177,22.7774,南宁市,乐贤路16号,,16,11,23,9,10,50,,62,62,12,19,6,6,0.6,0.6
2025-06-29T2000,2331A,118.0966,26.6761,南平市,茫荡山,,,,,,,,,,,,,,,,
2025-06-29T2000,2332A,118.1681,26.6369,南平市,南平市监测站,,29,29,17,16,9,52,,83,79,14,10,6,5,0.6,0.4
2025-06-29T2000,2333A,118.1825,26.6489,南平市,南平铝业有限公司,,28,28,19,17,11,46,,78,74,15,11,5,5,0.6,0.5
2025-06-29T2000,2334A,118.1756,26.6272,南平市,南平七中,,21,21,19,12,8,51,,82,78,10,9,4,5,0.6,0.5
2025-06-29T2000,1168A,120.9098,31.9663,南通市,狼山街道,臭氧1小时,70,36,23,21,13,176,,174,174,20,17,6,5,0.7,0.7
2025-06-29T2000,1169A,120.86,32.0005,南通市,虹桥,臭氧1小时,69,36,23,30,19,175,,175,175,25,22,4,4,0.8,0.9
2025-06-29T2000,1170A,120.87,32.02,南通市,城中,臭氧1小时,55,37,28,17,14,164,,153,153,18,14,6,5,0.5,0.6
2025-06-29T2000,1171A,120.94,31.93,南通市,星湖花园,,49,34,23,25,19,156,,171,170,26,21,5,4,0.6,0.6
2025-06-29T2000,1172A,120.81,32.0417,南通市,紫琅学院,,50,36,26,14,10,159,,148,148,22,25,7,6,0.5,0.7
2025-06-29T2000,3291A,121.067,32.062,南通市,通州监测站,臭氧1小时,57,31,23,19,15,165,,180,180,10,13,7,7,0.7,0.7
2025-06-29T2000,3432A,120.9348,31.9883,南通市,环境教育馆,臭氧1小时,101,34,29,16,12,201,,188,188,15,15,5,4,0.3,0.3
2025-06-29T2000,2404A,112.5224,33.0122,南阳市,瓦房庄,,23,23,24,9,7,66,,86,86,11,9,5,6,0.4,0.3
2025-06-29T2000,2405A,112.5003,32.9735,南阳市,汉画馆,,21,20,19,3,5,65,,91,87,13,11,5,5,0.4,0.4
2025-06-29T2000,2406A,112.5573,33.027,南阳市,气象站,,21,12,10,7,6,66,,89,89,11,9,6,6,0.3,0.4
2025-06-29T2000,2407A,112.5481,32.9689,南阳市,理工学院,,20,13,17,7,10,64,,83,83,10,11,5,6,0.3,0.3
2025-06-29T2000,4008A,112.5234,32.9922,南阳市,卧龙区政府,,22,12,17,8,10,69,,88,88,8,8,4,5,0.5,0.5
2025-06-29T2000,1234A,121.8358,29.911,宁波市,区环保大楼,,17,10,18,9,11,52,,73,68,7,10,3,4,0.4,0.4
2025-06-29T2000,1235A,121.56,29.82,宁波市,万里学院,,22,21,20,8,13,69,,92,90,8,10,3,3,0.3,0.3
2025-06-29T2000,1236A,121.713,29.9572,宁波市,龙赛医院,,22,22,21,10,8,59,,84,81,12,14,2,3,0.3,0.4
2025-06-29T2000,1239A,121.633,29.7733,宁波市,钱湖水厂,,22,15,15,8,10,69,,82,82,3,3,4,4,0.2,0.2
2025-06-29T2000,1240A,121.5856,29.8635,宁波市,太古小学,,20,19,21,14,10,64,,88,85,7,8,4,4,0.2,0.2
2025-06-29T2000,1241A,121.524,29.8674,宁波市,市环境监测中心,,20,20,18,13,10,63,,86,84,14,13,4,4,0.4,0.4
2025-06-29T2000,2871A,121.6147,29.9017,宁波市,万里国际学校,,21,16,17,10,10,66,,88,86,6,8,3,3,0.4,0.5
2025-06-29T2000,3710A,121.5594,29.8975,宁波市,白沙活动中心,,22,20,21,8,7,69,,93,91,8,9,3,4,0.3,0.3
2025-06-29T2000,2339A,119.5001,26.6946,宁德市,金涵水库,,,,,,,,,,,,,,,,
2025-06-29T2000,2341A,119.5388,26.6612,宁德市,宁德市监测站,,15,,18,9,12,46,,99,88,8,7,4,4,0.5,0.6
2025-06-29T2000,3209A,119.5231,26.6562,宁德市,宁德一中,,17,17,18,3,11,52,,106,95,4,4,4,4,0.1,0.2
2025-06-29T2000,2618A,98.8601,25.8567,怒江傈僳族自治州,州监测站,,16,13,15,11,11,48,,59,58,7,7,8,8,0.4,0.4
2025-06-29T2000,2619A,98.8546,25.8417,怒江傈僳族自治州,泸水一中,,19,19,14,3,6,26,,44,42,13,10,5,6,0.4,0.3
2025-06-29T2000,1888A,101.6891,26.571,攀枝花市,弄弄坪,,34,34,37,11,13,65,,90,89,14,19,12,14,0.7,0.8
2025-06-29T2000,1889A,101.5769,26.5928,攀枝花市,河门口,,22,21,24,12,13,68,,98,97,11,12,7,8,0.6,0.8
2025-06-29T2000,1890A,101.7169,26.585,攀枝花市,炳草岗,,31,31,34,15,16,60,,88,87,16,22,12,17,0.6,0.8
2025-06-29T2000,1891A,101.7369,26.5008,攀枝花市,仁和,,18,14,15,8,12,57,,90,86,12,11,9,12,0.5,0.7
2025-06-29T2000,2835A,101.7227,26.567,攀枝花市,四十中小,,23,23,33,16,16,70,,100,97,7,17,9,25,0.6,0.9
2025-06-29T2000,1604A,122.0303,41.1489,盘锦市,开发区,,24,16,31,11,43,76,,115,93,16,14,6,6,0.6,0.7
2025-06-29T2000,1605A,122.0485,41.0883,盘锦市,兴隆台,,21,11,32,7,21,66,,121,89,20,17,4,3,0.4,0.5
2025-06-29T2000,1606A,121.8297,41.1028,盘锦市,新生街道,,27,15,25,10,24,85,,118,100,12,11,6,8,0.6,0.6
2025-06-29T2000,1832A,113.3257,33.742,平顶山市,新华旅馆,,28,,16,19,16,77,,93,92,10,10,4,4,0.3,0.3
2025-06-29T2000,1833A,113.2919,33.737,平顶山市,规划设计院,,23,23,21,8,10,70,,90,89,14,11,5,4,0.7,0.7
2025-06-29T2000,1834A,113.182,33.774,平顶山市,平顶山工学院,,27,21,17,3,7,84,,97,96,10,9,6,5,0.5,0.4
2025-06-29T2000,3204A,113.3025,33.73,平顶山市,规划局,,26,14,16,3,7,83,,95,95,8,11,4,3,0.3,0.3
2025-06-29T2000,3594A,112.8867,33.9116,平顶山市,石龙区,,30,20,24,8,13,94,,98,98,10,16,6,7,0.5,0.5
2025-06-29T2000,2656A,106.6692,35.5461,平凉市,聚贤嘉苑,,39,39,41,14,12,90,,107,101,17,24,10,11,0.8,0.8
2025-06-29T2000,2657A,106.7021,35.5307,平凉市,博物馆,,42,42,43,18,10,96,,122,115,19,21,9,9,0.8,0.9
2025-06-29T2000,2347A,114.0997,27.5002,萍乡市,武功山,,15,,4,10,3,29,,50,47,4,3,13,13,0.4,0.3
2025-06-29T2000,2348A,113.8385,27.6434,萍乡市,中医院,,30,30,23,20,11,42,,71,66,5,6,25,15,0.6,0.8
2025-06-29T2000,2349A,113.8493,27.6253,萍乡市,市政府车库,,44,20,22,18,15,31,,59,54,10,9,10,12,4.4,2.5
2025-06-29T2000,2350A,113.8676,27.6435,萍乡市,市环保局,,22,22,21,3,12,37,,64,59,4,7,10,14,0.5,0.9
2025-06-29T2000,2351A,113.866,27.6198,萍乡市,安源区政府,,15,14,24,8,11,45,,64,60,6,10,8,10,0.5,1.2
2025-06-29T2000,2319A,119.0141,25.4325,莆田市,荔城区仓后路,,29,29,30,6,12,85,,118,115,9,10,4,5,0.7,0.6
2025-06-29T2000,2320A,119.0015,25.4553,莆田市,莆田市监测站,,38,38,29,3,11,92,,125,122,11,10,4,4,0.5,0.4
2025-06-29T2000,2321A,119.1119,25.4561,莆田市,涵江区六中,,27,13,24,3,10,84,,113,110,7,12,3,4,0.2,0.3
2025-06-29T2000,2322A,119.1013,25.3215,莆田市,秀屿区政府,,31,15,25,10,10,98,,124,122,8,11,4,6,0.4,0.4
2025-06-29T2000,2323A,118.981,25.4792,莆田市,东圳水库,,,,,,,,,,,,,,,,
2025-06-29T2000,2392A,115.0312,35.7636,濮阳市,环保局,,29,15,11,9,9,92,,112,103,11,9,3,4,0.1,0.2
2025-06-29T2000,2394A,115.0574,35.7609,濮阳市,油田运输公司,,27,20,17,6,8,86,,107,98,12,10,4,5,0.5,0.5
2025-06-29T2000,3021A,115,35.7668,濮阳市,濮水河管理处,,22,10,12,10,13,68,,95,88,16,14,3,3,0.3,0.3
2025-06-29T2000,4216A,115.0924,35.7686,濮阳市,任丘路479号,,27,16,20,3,10,85,,102,96,8,7,5,6,0.4,0.4
2025-06-29T2000,2601A,100.98,22.7633,普洱市,市环保局,,42,,22,29,11,40,,39,39,4,3,5,4,0.5,0.6
2025-06-29T2000,2602A,100.9817,22.8322,普洱市,普洱第二中学,,24,24,21,13,11,34,,41,41,7,5,6,6,0.5,0.4
2025-06-29T2000,2262A,131.0518,45.8751,七台河市,新一中,,25,17,33,17,29,63,,80,73,9,21,10,10,1.0,0.9
2025-06-29T2000,3345A,131.0577,45.7879,七台河市,中波台,,15,,23,7,6,48,,66,63,22,29,9,8,0.3,0.3
2025-06-29T2000,3637A,131.0176,45.7761,七台河市,人民广场,,25,25,39,16,22,41,,69,63,19,24,14,12,0.7,0.7
2025-06-29T2000,3684A,130.8781,45.8222,七台河市,新建矿广场,,,,33,6,14,49,,69,59,11,29,10,10,0.6,0.6
2025-06-29T2000,1779A,123.9305,47.3636,齐齐哈尔市,安居小区,,46,46,29,13,15,100,,117,112,19,17,3,15,0.8,0.7
2025-06-29T2000,1780A,123.9488,47.3386,齐齐哈尔市,中心广场,,38,34,29,19,12,121,,129,126,9,11,7,7,0.7,0.6
2025-06-29T2000,1781A,123.9483,47.3227,齐齐哈尔市,农牧车辆厂,,44,44,32,21,17,112,,120,117,10,11,6,6,0.2,0.2
2025-06-29T2000,1783A,123.945,47.2988,齐齐哈尔市,市环境监测站,,39,24,23,12,15,123,,130,128,8,11,4,4,0.4,0.4
2025-06-29T2000,3662A,123.6333,47.2075,齐齐哈尔市,富区青少年活动中心,,36,26,34,22,23,115,,122,121,8,15,4,6,0.6,0.6
2025-06-29T2000,2591A,107.9783,26.5747,黔东南苗族侗族自治州,市环境监测站,,14,9,8,6,5,42,,52,49,7,3,3,3,0.4,0.4
2025-06-29T2000,2881A,107.8908,26.5311,黔东南苗族侗族自治州,凯里学院,,19,,6,6,6,58,,62,61,5,6,3,4,0.2,0.2
2025-06-29T2000,2593A,107.5228,26.2403,黔南布依族苗族自治州,小围寨,,8,6,6,3,3,22,,43,39,3,3,3,3,0.4,0.4
2025-06-29T2000,3538A,107.5175,26.2978,黔南布依族苗族自治州,沙坝,,14,14,10,3,3,23,,40,32,5,4,4,4,0.7,0.5
2025-06-29T2000,2589A,104.9022,25.0925,黔西南布依族苗族自治州,场坝街,,17,12,12,10,6,53,,51,51,4,4,5,4,0.3,0.3
2025-06-29T2000,2590A,104.8811,25.0992,黔西南布依族苗族自治州,坪东大道,,15,14,14,10,8,43,,44,44,8,7,2,1,0.1,0.1
2025-06-29T2000,2502A,108.6236,21.9667,钦州市,市环保站,,17,17,14,3,5,42,,59,55,14,12,2,2,0.5,0.4
2025-06-29T2000,2503A,108.6549,21.9481,钦州市,沙埠小学,,19,19,20,8,10,43,,60,56,12,14,1,3,0.4,0.4
2025-06-29T2000,2504A,108.5989,21.7431,钦州市,港区一小,,23,23,20,8,9,47,,48,47,14,18,2,3,0.5,0.5
2025-06-29T2000,3404A,108.5959,21.9633,钦州市,北职校,,17,17,17,8,9,39,,57,52,12,11,3,3,0.5,0.4
2025-06-29T2000,1043A,119.7493,40.0116,秦皇岛市,第一关,"颗粒物(PM10),细颗粒物(PM2.5)",54,57,56,38,42,86,,96,96,11,21,4,4,0.3,0.4
2025-06-29T2000,1044A,119.5897,39.9499,秦皇岛市,监测站,颗粒物(PM10),62,73,67,27,28,88,,94,94,12,13,3,3,0.4,0.5
2025-06-29T2000,1046A,119.5251,39.9041,秦皇岛市,建设大厦,颗粒物(PM10),55,60,54,26,25,87,,99,99,15,18,4,4,0.5,0.5
2025-06-29T2000,3132A,119.610547,39.943889,秦皇岛市,文明里,颗粒物(PM10),54,57,68,33,48,102,,117,108,3,6,4,4,0.2,0.3
2025-06-29T2000,4198A,119.5090,39.8253,秦皇岛市,北戴河轮滑馆,,,67,69,,66,93,,129,106,8,8,2,2,0.3,0.4
2025-06-29T2000,1307A,120.6659,36.2403,青岛市,仰口,,22,22,17,12,11,54,,54,,10,7,7,7,0.7,0.6
2025-06-29T2000,1310A,120.4134,36.0658,青岛市,市南区东部子站,,21,9,10,9,9,44,,98,69,42,8,11,9,0.3,0.3
2025-06-29T2000,1311A,120.3664,36.1032,青岛市,四方区子站,,24,19,15,12,13,75,,106,83,23,9,6,5,0.2,0.2
2025-06-29T2000,1312A,120.2994,36.054,青岛市,市南区西部子站,,30,12,16,3,9,36,,94,60,60,18,8,8,0.6,0.6
2025-06-29T2000,1313A,120.4581,36.0858,青岛市,崂山区子站,,20,,10,9,9,62,,95,82,25,11,7,6,0.3,0.3
2025-06-29T2000,1315A,120.3999,36.3083,青岛市,城阳区子站,,25,9,12,7,9,78,,96,86,13,12,5,5,0.3,0.4
2025-06-29T2000,1966A,120.0405,35.8735,青岛市,黄岛区4号,,29,9,10,3,3,92,,86,86,11,11,9,9,0.6,0.6
2025-06-29T2000,3362A,120.5014,36.4034,青岛市,即墨2号,,24,13,15,8,7,74,,93,89,9,9,2,2,0.2,0.2
2025-06-29T2000,3642A,120.3503,36.0736,青岛市,市北区南部,,28,13,14,3,8,87,,96,76,14,13,7,7,0.3,0.4
2025-06-29T2000,3643A,120.3948,36.1805,青岛市,李沧区北部,,20,12,11,9,12,62,,77,67,11,7,4,4,0.6,0.5
2025-06-29T2000,4290A,120.1969,35.9546,青岛市,珠江路669号,,30,12,10,3,5,94,,84,84,5,8,6,6,0.4,0.4
2025-06-29T2000,1702A,113.0426,23.691,清远市,环保大楼,,47,47,37,9,9,77,,94,94,19,15,5,6,0.6,0.6
2025-06-29T2000,1703A,113.0208,23.7106,清远市,凤城街办,,28,28,19,16,11,57,,84,84,31,18,7,8,0.5,0.4
2025-06-29T2000,3025A,113.0477,23.6344,清远市,技师学院,,23,23,22,13,12,61,,82,82,22,20,6,9,0.6,0.5
2025-06-29T2000,3318A,112.9903,23.7403,清远市,清新太和,,23,23,19,12,10,66,,89,89,16,12,8,9,0.5,0.5
2025-06-29T2000,3455A,113.076,23.7198,清远市,清城东城,,21,18,18,10,10,66,,88,88,15,8,8,9,0.6,0.5
2025-06-29T2000,2661A,107.6325,35.7357,庆阳市,庆阳五中,,39,23,31,8,16,124,,137,132,5,11,5,6,0.4,0.4
2025-06-29T2000,2662A,107.6364,35.7067,庆阳市,市环保局,,40,24,31,7,12,128,,142,136,6,8,7,10,0.4,0.5
2025-06-29T2000,1916A,103.7897,25.5035,曲靖市,环境监测站,,20,20,22,14,10,48,,60,60,10,9,4,6,0.5,0.5
2025-06-29T2000,1917A,103.8,25.5364,曲靖市,烟厂办公区,,30,30,18,13,9,52,,62,62,5,6,4,6,0.5,0.6
2025-06-29T2000,3376A,103.7947,25.462,曲靖市,南苑二区,,17,13,16,6,8,52,,63,63,8,7,4,6,0.6,0.7
2025-06-29T2000,3377A,103.7444,25.5261,曲靖市,曲靖师范学院,,28,28,13,9,8,47,,62,61,9,6,9,6,0.3,0.3
2025-06-29T2000,1264A,118.8692,28.9398,衢州市,环保大楼,,25,25,24,14,13,68,,103,100,29,15,4,4,0.5,0.4
2025-06-29T2000,1265A,118.8709,28.9666,衢州市,实验学校,,35,35,27,15,13,86,,107,107,16,14,4,2,0.4,0.3
2025-06-29T2000,1266A,118.8621,28.9808,衢州市,衢州学院,,31,31,24,16,12,90,,108,107,15,16,4,4,0.5,0.3
2025-06-29T2000,1611A,118.5819,24.9117,泉州市,涂山街,,23,23,38,9,16,38,,99,84,14,25,2,9,0.5,0.6
2025-06-29T2000,1612A,118.5972,24.8978,泉州市,津头埔,,21,21,33,10,15,41,,99,84,14,23,2,6,0.5,0.5
2025-06-29T2000,1613A,118.6663,24.9424,泉州市,万安,,25,25,32,9,13,40,,98,80,13,18,2,4,0.5,0.5
2025-06-29T2000,1614A,118.6117,24.9604,泉州市,清源山,,,,,,,,,,,,,,,,
2025-06-29T2000,3529A,118.6333,24.9264,泉州市,城华南路,,16,16,29,8,14,40,,91,74,12,19,4,6,0.4,0.4
2025-06-29T2000,2626A,88.8876,29.2718,日喀则市,日喀则监测站,,36,16,7,3,2,113,,120,119,7,5,15,14,0.3,0.3
2025-06-29T2000,3726A,88.8781,29.2426,日喀则市,林业技术推广中心,,37,14,11,3,2,118,,119,119,3,3,9,9,0.3,0.4
2025-06-29T2000,1659A,119.471,35.4209,日照市,监测站,,20,6,16,3,11,61,,73,73,22,33,5,7,0.5,0.7
2025-06-29T2000,1660A,119.523,35.4216,日照市,市政府广场,,18,6,17,3,6,38,,59,59,36,22,7,7,0.5,0.7
2025-06-29T2000,1661A,119.5587,35.4044,日照市,港务局,,19,14,13,13,12,44,,63,63,35,19,7,5,0.6,0.7
2025-06-29T2000,3507A,119.5328,35.4625,日照市,职业技术学院,,16,9,15,7,6,49,,66,66,27,16,5,5,0.5,0.6
2025-06-29T2000,3604A,119.3266,35.1044,日照市,岚山环保分局,,16,9,16,3,8,51,,71,70,25,20,7,9,0.5,0.9
2025-06-29T2000,1835A,111.1922,34.7752,三门峡市,市政府,颗粒物(PM10),59,68,42,26,23,138,,146,146,8,10,4,5,0.5,0.4
2025-06-29T2000,1836A,111.1587,34.7942,三门峡市,开发区,,47,24,39,18,26,150,,152,152,9,12,4,5,0.4,0.5
2025-06-29T2000,1838A,111.143,34.7955,三门峡市,风景区,,50,30,32,14,21,158,,157,157,5,7,5,5,0.3,0.3
2025-06-29T2000,3039A,111.1911,34.7829,三门峡市,三门峡市第一小学,颗粒物(PM10),58,65,38,34,21,143,,148,148,13,12,6,6,0.5,0.5
2025-06-29T2000,3598A,111.1,34.7167,三门峡市,富达温泉假日酒店,,40,21,29,14,23,127,,144,144,8,11,5,8,0.4,0.4
2025-06-29T2000,2324A,117.6211,26.2625,三明市,三钢,,36,36,24,19,17,54,,113,111,18,13,4,8,0.7,1
2025-06-29T2000,2325A,117.635,26.2714,三明市,三明二中,,,,22,,12,55,,103,102,,13,3,5,,0.9
2025-06-29T2000,2326A,117.6028,26.2378,三明市,三元区政府,,,34,25,,11,52,,110,109,20,16,4,8,1.1,1.2
2025-06-29T2000,2327A,117.7275,26.3108,三明市,洋溪,,,,,,,,,,,,,,,,
2025-06-29T2000,1876A,109.5078,18.2489,三亚市,河东子站,,18,14,15,6,6,56,,48,48,3,10,2,2,0.5,0.5
2025-06-29T2000,1877A,109.4964,18.2681,三亚市,河西子站,,17,13,13,7,7,54,,47,46,3,11,3,2,0.4,0.4
2025-06-29T2000,3540A,109.7348,18.3443,三亚市,君悦子站,,,20,24,3,5,55,,48,47,6,11,2,2,,0.1
2025-06-29T2000,2624A,91.7608,29.2313,山南市,山南监测站,,36,10,7,3,3,113,,114,114,3,5,3,3,0.3,0.3
2025-06-29T2000,2625A,91.7706,29.2436,山南市,山南人民医院,,37,12,9,7,4,116,,120,120,3,6,6,7,0.1,0.1
2025-06-29T2000,1674A,116.6794,23.3667,汕头市,金平子站,,20,,8,3,4,63,,61,61,1,3,4,4,0.6,0.5
2025-06-29T2000,1675A,116.7244,23.3633,汕头市,龙湖子站,,18,10,9,3,2,55,,58,57,6,5,5,5,0.5,0.4
2025-06-29T2000,1676A,116.7258,23.2775,汕头市,濠江子站,,16,,12,3,5,49,,58,57,5,7,4,4,0.5,0.5
2025-06-29T2000,1677A,116.7519,23.4714,汕头市,澄海子站,,16,7,12,3,5,49,,56,55,8,6,2,2,0.5,0.5
2025-06-29T2000,1678A,116.6092,23.2539,汕头市,潮阳子站,,19,15,12,3,4,60,,61,61,4,5,4,4,0.5,0.4
2025-06-29T2000,3444A,116.454,23.2684,汕头市,潮南峡山,,19,9,10,9,3,59,,59,58,3,5,4,5,0.5,0.4
2025-06-29T2000,3624A,116.4069,23.2533,汕头市,潮南子站,,20,15,14,8,5,62,,62,61,4,6,4,4,0.4,0.4
2025-06-29T2000,1693A,115.3653,22.775,汕尾市,市环保局,,18,,10,3,3,57,,60,60,6,8,2,2,0.5,0.5
2025-06-29T2000,1694A,115.3706,22.7898,汕尾市,市政府,,20,14,15,3,5,63,,63,63,6,7,3,3,0.5,0.5
2025-06-29T2000,1695A,115.3622,22.7925,汕尾市,新城中学,,19,7,10,3,4,60,,60,60,5,6,3,3,0.4,0.4
2025-06-29T2000,2645A,109.9154,33.8715,商洛市,监测站,,32,32,26,21,14,87,,121,110,11,21,13,10,0.5,0.4
2025-06-29T2000,3045A,109.9643,33.8471,商洛市,商州区中学,,38,38,28,14,9,83,,114,103,14,15,15,10,0.6,0.5
2025-06-29T2000,2408A,115.6702,34.4285,商丘市,环境监测站,,19,9,18,8,9,59,,97,69,7,6,2,2,0.4,0.3
2025-06-29T2000,2409A,115.6458,34.4045,商丘市,粮食局,,,,15,9,11,66,,105,78,5,5,2,2,0.3,0.3
2025-06-29T2000,2410A,115.6293,34.3948,商丘市,睢阳区环保局,,,,28,7,9,66,,97,76,,13,3,3,0.2,0.2
2025-06-29T2000,3171A,115.6071,34.4465,商丘市,梁园区档案局,,30,30,15,6,9,66,,98,73,6,7,1,1,0.3,0.4
2025-06-29T2000,1141A,121.4,31.238,上海市,普陀,,38,27,26,15,17,121,,158,154,16,16,6,6,0.2,0.2
2025-06-29T2000,1142A,121.478,31.2036,上海市,十五厂,,34,24,25,17,19,106,,160,152,11,12,8,8,0.5,0.6
2025-06-29T2000,1143A,121.467,31.3008,上海市,虹口,,35,30,28,13,16,111,,150,144,17,15,9,9,0.8,0.5
2025-06-29T2000,1147A,121.425,31.2261,上海市,静安监测站,,33,25,24,15,18,103,,140,137,17,17,5,5,0.5,0.6
2025-06-29T2000,1148A,121.703,31.1907,上海市,浦东川沙,,28,28,26,13,16,63,,130,122,23,14,8,8,0.7,0.7
2025-06-29T2000,1149A,121.533,31.2284,上海市,浦东新区监测站,,33,20,22,13,15,104,,150,145,14,12,8,8,0.6,0.7
2025-06-29T2000,1150A,121.577,31.2071,上海市,浦东张江,,30,21,30,14,17,93,,147,141,18,15,6,6,0.7,0.7
2025-06-29T2000,3265A,121.4316,31.3322,上海市,宝山庙行,,40,17,17,15,16,128,,158,155,15,15,4,4,0.2,0.2
2025-06-29T2000,3266A,121.8791,31.4662,上海市,崇明上实东滩,,15,,17,3,12,46,,142,116,16,18,2,3,0.5,0.6
2025-06-29T2000,3268A,121.3162,31.2838,上海市,嘉定南翔,,35,30,27,17,17,109,,138,136,20,15,9,7,0.4,0.3
2025-06-29T2000,3269A,121.3359,30.7456,上海市,金山新城,,26,26,20,10,14,75,,153,143,19,14,3,3,0.5,0.6
2025-06-29T2000,3270A,121.4996,31.0739,上海市,闵行浦江,,25,21,24,10,15,79,,138,132,10,12,4,4,0.5,0.5
2025-06-29T2000,3271A,121.2886,31.1663,上海市,青浦徐泾,,36,22,24,16,18,113,,146,145,14,15,6,6,0.4,0.5
2025-06-29T2000,3272A,121.2186,31.0378,上海市,松江图书馆,,34,17,18,14,16,107,,150,148,12,7,7,7,0.3,0.4
2025-06-29T2000,3273A,121.3902,31.2059,上海市,长宁仙霞,,33,22,23,15,15,103,,143,139,14,15,7,7,0.4,0.4
2025-06-29T2000,3274A,121.7965,31.0507,上海市,浦东惠南,,24,24,25,12,16,46,,138,121,26,21,9,10,0.5,0.6
2025-06-29T2000,3544A,121.4891,30.925,上海市,奉贤南桥新城,,24,18,22,15,16,74,,137,131,10,10,7,7,0.8,0.9
2025-06-29T2000,4183A,121.4174,31.16637,上海市,冠生园路458号,,31,21,23,14,20,98,,139,136,13,14,4,4,0.4,0.4
2025-06-29T2000,4205A,121.5419,31.2683,上海市,宁武路151号,,32,32,33,18,19,93,,147,141,28,22,7,7,0.4,0.4
2025-06-29T2000,2381A,118.005,28.4572,上饶市,百草园,,,,,,,,,,,,,,,,
2025-06-29T2000,2382A,117.9756,28.4436,上饶市,市监测站,,45,45,35,22,14,85,,94,94,8,13,6,12,0.4,0.5
2025-06-29T2000,2383A,117.9519,28.4628,上饶市,凤凰光学,,29,22,18,20,14,63,,86,86,14,17,5,12,0.8,0.8
2025-06-29T2000,3685A,117.897,28.4315,上饶市,双创科技城,,38,38,26,17,13,69,,89,89,15,16,5,11,0.8,0.8
2025-06-29T2000,4211A,118.1904,28.4448,上饶市,裕丰大道,,35,35,27,15,11,48,,63,63,12,9,4,4,0.7,0.6
2025-06-29T2000,1669A,113.5824,24.7733,韶关市,市八中,,24,24,29,13,14,50,,96,94,12,11,6,10,0.8,0.9
2025-06-29T2000,1671A,113.5917,24.7972,韶关市,园林处,,17,12,19,8,12,53,,91,89,7,8,6,9,0.6,0.7
2025-06-29T2000,1673A,113.5971,24.6863,韶关市,曲江监测站,,16,12,25,3,13,51,,88,87,10,16,6,11,0.7,0.9
2025-06-29T2000,2809A,113.6668,24.7756,韶关市,大学路288号,,15,15,22,6,12,47,,90,87,10,10,5,7,0.4,0.6
2025-06-29T2000,3622A,113.5556,24.8082,韶关市,碧湖山庄,,17,16,29,11,17,54,,94,92,8,10,8,10,0.5,0.6
2025-06-29T2000,2462A,111.5239,27.3033,邵阳市,市水土所,,,,,,,,,,,,,,,,
2025-06-29T2000,2464A,111.5283,27.2442,邵阳市,市化工厂,,19,16,23,12,14,58,,72,69,6,9,3,2,0.4,0.4
