timepoint,stationcode,longitude,latitude,area,positionname,primarypollutant,aqi,pm10,pm10_24h,pm2_5,pm2_5_24h,o3,o3_24h,o3_8h,o3_8h_24h,no2,no2_24h,so2,so2_24h,co,co_24h
2023-12-07T2300,2566A,102.1879,31.914,阿坝藏族羌族自治州,州农科所,,,,,,,10,,22,15,17,15,5,10,0.8,0.6
2023-12-07T2300,2568A,102.2502,31.8896,阿坝藏族羌族自治州,马师校,,25,25,20,16,15,14,,58,28,40,25,3,4,0.8,0.7
2023-12-07T2300,3994A,102.2165,31.9024,阿坝藏族羌族自治州,马尔康中学西区,,20,20,21,14,11,22,,83,43,34,18,5,4,0.6,0.5
2023-12-07T2300,2695A,80.292,41.1694,阿克苏地区,电视台,细颗粒物(PM2.5),229,330,199,179,102,5,,75,51,114,67,13,10,4.5,3.1
2023-12-07T2300,2696A,80.2613,41.1551,阿克苏地区,艺术中心,细颗粒物(PM2.5),189,297,151,142,74,16,,67,53,127,71,18,11,4.6,1.9
2023-12-07T2300,2204A,105.6467,38.8363,阿拉善盟,西城区西花园,,47,47,75,30,26,51,,81,42,22,15,10,9,0.8,0.6
2023-12-07T2300,2205A,105.6985,38.8411,阿拉善盟,蒙二幼,颗粒物(PM10),55,59,102,16,29,64,,82,62,18,16,4,5,0.5,0.6
2023-12-07T2300,2206A,105.724,38.8516,阿拉善盟,环保局新楼,,42,42,66,13,26,88,,87,79,5,8,7,8,0.5,0.6
2023-12-07T2300,2708A,88.1264,47.8517,阿勒泰地区,市站,,18,,10,12,7,28,,56,44,29,19,4,4,0.5,0.4
2023-12-07T2300,2630A,80.1161,32.5,阿里地区,阿里监测站,,36,36,10,19,6,24,,88,72,58,22,14,10,0.8,0.5
2023-12-07T2300,3192A,80.0903,32.5028,阿里地区,阿里藏医院,,22,22,12,5,6,46,,90,82,36,37,12,12,0.8,0.6
2023-12-07T2300,2642A,109.0318,32.6537,安康市,香溪洞,颗粒物(PM10),66,81,91,41,36,59,,79,78,16,14,6,8,0.7,0.7
2023-12-07T2300,2643A,109.0281,32.6939,安康市,安康市监测站,颗粒物(PM10),86,121,127,56,46,8,,46,23,45,35,10,12,0.9,0.9
2023-12-07T2300,2644A,109.0072,32.6975,安康市,汉滨区检察院,颗粒物(PM10),73,96,99,45,43,11,,52,34,39,28,7,10,0.6,0.7
2023-12-07T2300,2291A,117.0809,30.5177,安庆市,环科院,细颗粒物(PM2.5),79,82,83,58,49,65,,92,78,30,38,9,9,0.7,0.6
2023-12-07T2300,2292A,117.0331,30.5119,安庆市,马山宾馆,细颗粒物(PM2.5),80,83,84,59,50,71,,100,83,26,41,7,6,0.8,0.8
2023-12-07T2300,2294A,116.9896,30.6145,安庆市,安庆大学,颗粒物(PM10),61,71,92,39,52,92,,101,98,31,35,10,9,0.8,0.9
2023-12-07T2300,3173A,117.0598,30.5351,安庆市,市人大,细颗粒物(PM2.5),82,93,90,60,50,74,,103,92,28,39,7,8,0.9,0.8
2023-12-07T2300,3123A,105.9408,26.2431,安顺市,凤凰山,,28,28,55,16,42,81,,97,90,12,29,15,49,0.3,0.9
2023-12-07T2300,3124A,105.9439,26.2564,安顺市,金钟山,,25,22,51,14,37,80,,97,90,11,22,18,39,0.4,0.7
2023-12-07T2300,3125A,105.8983,26.2481,安顺市,娄家坡,,27,27,49,18,40,82,,96,92,6,14,9,17,0.3,0.5
2023-12-07T2300,1819A,114.3551,36.1017,安阳市,红庙街,颗粒物(PM10),89,127,163,48,50,18,,53,38,54,49,13,14,0.9,0.5
2023-12-07T2300,1820A,114.361,36.0681,安阳市,银杏小区,颗粒物(PM10),83,115,160,42,46,17,,51,41,57,49,15,15,0.9,0.8
2023-12-07T2300,3141A,114.3922,36.0878,安阳市,信访局,颗粒物(PM10),78,106,166,36,43,27,,58,52,44,41,13,11,0.8,0.8
2023-12-07T2300,3669A,114.4705,36.0637,安阳市,左辅环卫站,颗粒物(PM10),94,137,175,63,58,6,,47,29,77,48,11,10,0.7,0.6
2023-12-07T2300,3703A,114.2917,36.0949,安阳市,安钢职工学校,细颗粒物(PM2.5),119,153,185,90,63,16,,51,32,76,52,12,10,1.1,1
2023-12-07T2300,1748A,123.044,41.1196,鞍山市,深沟寺,颗粒物(PM10),88,125,71,42,26,66,,56,56,12,21,7,11,0.6,0.8
2023-12-07T2300,1749A,123.011,41.0931,鞍山市,太阳城,颗粒物(PM10),81,112,66,24,16,73,,62,62,16,22,13,14,0.6,0.8
2023-12-07T2300,1750A,123.0485,41.1442,鞍山市,太平,颗粒物(PM10),97,144,95,40,30,66,,53,53,15,32,10,16,0.7,1
2023-12-07T2300,1751A,122.9642,41.0971,鞍山市,铁西三道街,颗粒物(PM10),98,145,95,43,30,42,,32,31,46,42,50,26,0.6,0.9
2023-12-07T2300,1752A,122.9341,41.0833,鞍山市,铁西工业园区,颗粒物(PM10),90,130,99,38,34,65,,52,52,23,39,10,15,0.7,1.1
2023-12-07T2300,1753A,123.022,41.0821,鞍山市,明达新区,颗粒物(PM10),80,110,66,31,22,71,,60,60,14,25,8,12,0.5,0.8
2023-12-07T2300,2195A,107.4212,40.761,巴彦淖尔市,附二中,颗粒物(PM10),120,189,191,56,39,60,,82,76,12,5,3,3,0.4,0.4
2023-12-07T2300,2196A,107.37,40.7372,巴彦淖尔市,市环保大楼,颗粒物(PM10),107,163,202,35,41,54,,84,74,13,6,3,3,0.4,0.3
2023-12-07T2300,1956A,86.1472,41.7538,巴音郭楞州,孔雀公园,颗粒物(PM10),131,211,128,69,44,2,,69,52,111,44,7,5,2.1,0.9
2023-12-07T2300,1957A,86.1972,41.7166,巴音郭楞州,棉纺厂,颗粒物(PM10),133,216,145,53,43,2,,70,52,84,31,3,4,1.1,0.7
2023-12-07T2300,1958A,86.2357,41.7173,巴音郭楞州,经济开发区,,,130,123,,34,1,,76,65,89,39,5,5,0.5,0.5
2023-12-07T2300,2914A,106.7677,31.8794,巴中市,苏山坪,,43,41,54,30,35,87,,90,90,13,15,3,4,0.3,0.5
2023-12-07T2300,3182A,106.7656,31.8545,巴中市,丽阳花园,细颗粒物(PM2.5),113,124,84,85,47,5,,52,30,39,36,4,4,0.9,0.8
2023-12-07T2300,3183A,106.7418,31.8654,巴中市,圣泉水务公司,细颗粒物(PM2.5),92,100,77,68,42,3,,60,27,51,34,4,3,0.7,0.6
2023-12-07T2300,3616A,106.7616,31.8344,巴中市,市中心医院,细颗粒物(PM2.5),92,103,82,68,46,4,,42,22,43,33,5,5,0.8,0.7
2023-12-07T2300,2235A,122.7911,45.6077,白城市,洮北区环保局,,33,24,22,23,14,46,,48,47,11,10,2,3,0.7,0.6
2023-12-07T2300,2236A,122.8738,45.5725,白城市,市环保局,,35,35,32,24,14,52,,59,50,14,13,5,6,0.6,0.6
2023-12-07T2300,2231A,126.4219,41.9171,白山市,喜丰,颗粒物(PM10),63,75,46,23,17,12,,52,28,45,25,17,13,0.8,0.6
2023-12-07T2300,2232A,126.4077,41.9419,白山市,环保局,颗粒物(PM10),58,65,58,27,18,17,,40,24,41,30,12,15,1.1,0.9
2023-12-07T2300,2647A,104.1724,36.5446,白银市,第三小学,颗粒物(PM10),92,134,184,34,50,22,,58,31,55,70,34,117,1.0,1.6
2023-12-07T2300,2648A,104.1465,36.5482,白银市,动力公司,颗粒物(PM10),82,114,142,46,46,19,,59,39,42,51,20,40,0.7,1
2023-12-07T2300,2512A,106.6103,23.9011,百色市,市监测站,颗粒物(PM10),54,58,45,36,27,23,,68,46,46,24,13,12,0.9,0.8
2023-12-07T2300,2513A,106.6538,23.8859,百色市,市中心血站,颗粒物(PM10),74,97,51,38,28,19,,83,55,51,33,13,12,1.0,0.8
2023-12-07T2300,3406A,106.6085,23.8798,百色市,祈福高中,颗粒物(PM10),58,65,52,33,26,5,,77,48,54,26,9,10,0.8,0.7
2023-12-07T2300,2270A,117.396,32.939,蚌埠市,工人疗养院,颗粒物(PM10),69,88,128,44,42,55,,91,75,37,30,12,11,0.8,0.7
2023-12-07T2300,2271A,117.3605,32.9427,蚌埠市,百货大楼,颗粒物(PM10),71,92,127,43,42,51,,86,69,37,28,6,7,0.7,0.6
2023-12-07T2300,2273A,117.4185,32.8911,蚌埠市,蚌埠学院,颗粒物(PM10),68,85,133,42,44,60,,96,80,32,28,9,12,0.7,0.6
2023-12-07T2300,2274A,117.3533,32.9673,蚌埠市,淮上区政府,颗粒物(PM10),75,100,135,54,46,57,,90,73,35,30,8,9,0.8,0.7
2023-12-07T2300,2275A,117.3145,32.8977,蚌埠市,高新区,细颗粒物(PM2.5),112,127,154,84,52,31,,86,59,58,49,6,7,1.0,0.7
2023-12-07T2300,3715A,117.3092,32.9314,蚌埠市,蚌埠田家炳中学,细颗粒物(PM2.5),80,103,152,59,51,40,,84,62,44,46,6,13,0.8,0.6
2023-12-07T2300,1585A,109.8756,40.6532,包头市,市环境监测站,颗粒物(PM10),238,376,264,76,62,4,,44,23,74,60,16,25,1.2,1.6
2023-12-07T2300,1587A,109.9991,40.5842,包头市,包头八中,颗粒物(PM10),352,461,332,134,102,3,,42,20,65,56,20,39,1.4,1.6
2023-12-07T2300,1588A,109.8538,40.6821,包头市,青山宾馆,颗粒物(PM10),203,352,250,86,79,4,,36,18,70,63,15,18,1.0,1.5
2023-12-07T2300,1589A,109.8642,40.6288,包头市,惠龙物流,颗粒物(PM10),333,446,290,101,81,2,,51,28,72,60,21,37,0.9,1.5
2023-12-07T2300,1590A,110.0377,40.5546,包头市,东河鸿龙湾,颗粒物(PM10),403,503,324,121,77,9,,58,40,67,47,21,28,1.8,1.5
2023-12-07T2300,3283A,109.9154,40.5685,包头市,滨河大厦,颗粒物(PM10),190,330,283,125,88,37,,59,51,29,42,12,27,0.6,1.1
2023-12-07T2300,3419A,109.9447,40.6261,包头市,包头市委党校,颗粒物(PM10),220,364,252,121,89,7,,56,32,70,57,17,29,1.2,1.8
2023-12-07T2300,3683A,109.8331,40.6576,包头市,昆区政府,颗粒物(PM10),280,406,283,101,86,2,,32,16,76,69,16,28,1.1,1.8
2023-12-07T2300,1930A,107.185,34.3063,宝鸡市,庙沟村,,34,34,90,22,31,44,,68,55,18,8,7,7,0.2,0.2
2023-12-07T2300,1931A,107.0708,34.3017,宝鸡市,竹园沟,颗粒物(PM10),63,76,107,27,31,78,,86,82,12,11,3,5,0.3,0.4
2023-12-07T2300,1932A,107.1906,34.3672,宝鸡市,三陆医院,细颗粒物(PM2.5),180,136,150,136,57,8,,74,28,66,48,9,6,1.2,0.7
2023-12-07T2300,1933A,107.1431,34.3547,宝鸡市,监测站,颗粒物(PM10),70,90,134,43,52,6,,74,32,56,28,5,5,0.7,0.6
2023-12-07T2300,1934A,107.1186,34.3739,宝鸡市,技工学校,颗粒物(PM10),68,85,140,48,53,14,,79,36,51,26,7,7,0.6,0.5
2023-12-07T2300,1935A,107.3906,34.3528,宝鸡市,陈仓区环保局家属楼,细颗粒物(PM2.5),150,176,165,115,70,15,,63,28,69,52,13,12,1.7,1
2023-12-07T2300,1936A,107.2058,34.3497,宝鸡市,文理学院,,,,146,26,47,7,,78,23,63,42,6,6,0.4,0.6
2023-12-07T2300,1937A,107.2386,34.3622,宝鸡市,三迪小学,颗粒物(PM10),78,105,153,55,58,7,,76,,67,43,7,7,1.0,0.8
2023-12-07T2300,1051A,115.493,38.8632,保定市,游泳馆,细颗粒物(PM2.5),143,219,215,109,95,5,,24,8,91,64,16,16,0.0,0.4
2023-12-07T2300,1052A,115.5213,38.8959,保定市,华电二区,颗粒物(PM10),133,215,217,59,88,4,,20,7,99,69,9,12,0.8,0.7
2023-12-07T2300,1053A,115.4713,38.9108,保定市,接待中心,颗粒物(PM10),148,245,236,99,83,0,,22,4,103,68,10,11,0.9,0.9
2023-12-07T2300,1054A,115.4612,38.8416,保定市,地表水厂,颗粒物(PM10),159,268,247,113,108,3,,16,5,94,72,11,12,0.6,0.7
2023-12-07T2300,1056A,115.5086,38.8639,保定市,监测站,细颗粒物(PM2.5),163,254,227,124,93,2,,18,5,93,69,13,12,1.0,1
2023-12-07T2300,3581A,115.31981,38.95208,保定市,满城区生态环境分局,颗粒物(PM10),189,328,285,103,92,2,,27,7,100,66,7,5,0.9,0.8
2023-12-07T2300,3582A,115.47694,38.76408,保定市,清苑区第二中学,颗粒物(PM10),161,271,238,88,72,5,,21,9,82,62,14,15,0.8,0.8
2023-12-07T2300,3583A,115.62909,39.02311,保定市,徐水物探局,颗粒物(PM10),195,339,306,92,76,3,,22,7,81,63,13,12,1.2,0.9
2023-12-07T2300,4004A,115.4202,38.8656,保定市,双鹰农机,颗粒物(PM10),145,240,229,96,81,2,,21,5,90,65,8,13,0.7,0.9
2023-12-07T2300,2594A,99.1678,25.1081,保山市,市环境监测站,,23,22,25,16,14,42,,49,44,14,15,2,2,0.8,0.7
2023-12-07T2300,2595A,99.1711,25.1328,保山市,市环保局,,24,24,28,13,16,43,,52,46,10,10,4,4,0.6,0.6
2023-12-07T2300,1867A,109.1436,21.4086,北海市,海滩公园,,33,22,44,12,28,103,,112,108,9,18,7,11,0.5,0.7
2023-12-07T2300,1868A,109.0981,21.4661,北海市,新市环保局,颗粒物(PM10),52,54,49,24,36,91,,106,98,23,21,9,11,0.5,0.6
2023-12-07T2300,1869A,109.1778,21.5233,北海市,北海工业园,颗粒物(PM10),73,96,58,46,39,76,,100,82,19,22,8,11,0.8,0.7
2023-12-07T2300,3400A,109.1911,21.4415,北海市,龙潭自来水厂,颗粒物(PM10),55,59,46,37,33,75,,102,62,20,22,7,8,0.6,0.6
2023-12-07T2300,1001A,116.3621,39.8784,北京市,万寿西宫,颗粒物(PM10),171,292,347,114,115,0,,11,2,104,80,7,4,1.3,0.8
2023-12-07T2300,1002A,116.2202,40.2915,北京市,定陵,颗粒物(PM10),154,258,251,104,92,9,,24,9,43,37,3,3,0.6,0.5
2023-12-07T2300,1003A,116.4174,39.9289,北京市,东四,颗粒物(PM10),188,325,365,114,103,2,,13,4,99,74,14,7,1.7,1.2
2023-12-07T2300,1004A,116.4072,39.8863,北京市,天坛,颗粒物(PM10),169,287,298,114,92,6,,16,8,76,64,5,6,1.3,0.9
2023-12-07T2300,1005A,116.462,39.9365,北京市,农展馆,颗粒物(PM10),169,288,349,115,103,3,,14,5,96,76,5,6,1.4,1
2023-12-07T2300,1006A,116.3392,39.9295,北京市,官园,颗粒物(PM10),182,314,360,114,110,0,,15,2,85,72,8,8,1.0,0.9
2023-12-07T2300,1007A,116.2878,39.9611,北京市,海淀万柳,颗粒物(PM10),179,307,315,91,86,8,,18,8,86,72,1,2,1.2,1.1
2023-12-07T2300,1008A,116.6636,40.135,北京市,顺义新城,颗粒物(PM10),187,324,302,120,94,4,,23,7,81,63,5,6,1.1,0.7
2023-12-07T2300,1009A,116.6275,40.3275,北京市,怀柔镇,颗粒物(PM10),145,239,276,91,92,15,,28,15,46,32,3,4,0.8,0.6
2023-12-07T2300,1010A,116.2296,40.217,北京市,昌平镇,颗粒物(PM10),155,260,279,86,80,11,,21,8,45,49,2,3,0.5,0.6
2023-12-07T2300,1011A,116.3966,39.9821,北京市,奥体中心,颗粒物(PM10),175,300,320,120,98,2,,13,4,95,70,8,5,1.3,0.7
2023-12-07T2300,1012A,116.184,39.9136,北京市,古城,颗粒物(PM10),180,309,315,94,90,1,,14,5,72,64,3,3,1.1,0.9
2023-12-07T2300,3281A,115.9718,40.4529,北京市,延庆夏都,颗粒物(PM10),156,262,172,84,50,4,,38,12,51,28,4,3,0.8,0.5
2023-12-07T2300,3417A,117.0709,40.1465,北京市,平谷新城,颗粒物(PM10),150,250,266,95,81,2,,23,6,63,50,3,4,1.4,0.9
2023-12-07T2300,3418A,116.8336,40.4095,北京市,密云新城,颗粒物(PM10),164,278,280,90,80,3,,31,13,69,48,3,3,1.0,0.5
2023-12-07T2300,3672A,116.1541,39.8204,北京市,丰台云岗,颗粒物(PM10),177,304,322,91,95,1,,15,4,72,62,4,5,0.8,0.8
2023-12-07T2300,3673A,116.6804,39.9081,北京市,通州东关,颗粒物(PM10),187,323,386,114,109,3,,15,4,112,83,6,5,1.4,0.9
2023-12-07T2300,3674A,115.9577,39.7603,北京市,房山燕山,颗粒物(PM10),157,263,253,97,77,2,,27,5,62,39,9,5,0.6,0.3
2023-12-07T2300,3675A,116.4672,39.7733,北京市,大兴旧宫,颗粒物(PM10),164,277,336,101,92,3,,14,4,92,72,1,3,1.3,0.8
2023-12-07T2300,3694A,115.986,40.4563,北京市,延庆石河营,颗粒物(PM10),157,263,175,82,50,2,,36,10,48,30,2,2,0.9,0.5
2023-12-07T2300,3695A,116.6151,40.3053,北京市,怀柔新城,颗粒物(PM10),148,245,266,94,86,14,,32,19,46,31,1,3,0.6,0.4
2023-12-07T2300,3696A,116.2545,39.8768,北京市,丰台小屯,颗粒物(PM10),180,309,323,99,92,1,,14,3,103,81,2,2,1.1,1
2023-12-07T2300,3697A,116.84,40.3844,北京市,密云镇,颗粒物(PM10),160,269,281,91,81,3,,25,9,68,53,3,3,1.0,0.7
2023-12-07T2300,1761A,123.8275,41.3064,本溪市,大峪,颗粒物(PM10),106,161,63,38,19,66,,43,43,19,32,8,9,0.8,1.1
2023-12-07T2300,1762A,123.7567,41.3325,本溪市,溪湖,颗粒物(PM10),107,163,74,47,24,60,,54,54,24,33,16,14,1.1,1.2
2023-12-07T2300,1763A,123.7169,41.3094,本溪市,彩屯,颗粒物(PM10),101,152,84,48,36,33,,29,22,54,54,43,33,2.4,2.5
2023-12-07T2300,1764A,123.7669,41.2864,本溪市,东明,颗粒物(PM10),113,175,84,42,20,69,,60,60,21,34,11,11,0.5,0.6
2023-12-07T2300,1765A,123.7992,41.2664,本溪市,新立屯,颗粒物(PM10),99,148,62,20,14,76,,67,67,16,25,10,10,0.5,0.5
2023-12-07T2300,1766A,123.8142,41.3472,本溪市,威宁,颗粒物(PM10),120,190,90,38,23,59,,47,47,20,33,8,8,0.5,0.7
2023-12-07T2300,2587A,105.2864,27.3125,毕节市,八中,细颗粒物(PM2.5),82,111,67,60,42,9,,77,40,54,28,13,10,1.4,0.8
2023-12-07T2300,2588A,105.31,27.2944,毕节市,师专,细颗粒物(PM2.5),60,64,76,43,57,41,,85,68,40,26,13,9,0.9,0.7
2023-12-07T2300,3537A,105.3631,27.3533,毕节市,长征村,细颗粒物(PM2.5),57,57,92,40,67,79,,107,98,14,16,14,10,0.4,0.7
2023-12-07T2300,1629A,118.0018,37.3617,滨州市,第二水厂,颗粒物(PM10),112,173,239,62,63,41,,66,45,31,34,15,15,1.0,0.9
2023-12-07T2300,1630A,117.9776,37.393,滨州市,北中新校,颗粒物(PM10),111,171,238,56,66,25,,57,25,58,61,15,15,0.9,0.8
2023-12-07T2300,3514A,117.9378,37.3956,滨州市,中海酒店,颗粒物(PM10),103,156,211,64,61,36,,68,36,57,50,18,20,1.0,0.9
2023-12-07T2300,3515A,117.9378,37.3553,滨州市,开发区一中,颗粒物(PM10),114,178,241,63,60,25,,58,28,54,52,22,20,0.7,0.7
2023-12-07T2300,3516A,118.0917,37.694,滨州市,金海六路,颗粒物(PM10),132,214,279,80,74,3,,57,24,91,66,28,20,1.0,0.9
2023-12-07T2300,4028A,117.9956,37.3753,滨州市,滨州市西街道办事处,颗粒物(PM10),109,168,234,63,64,36,,62,33,43,48,16,16,0.8,0.7
2023-12-07T2300,2311A,115.8072,33.8399,亳州市,污水处理厂,颗粒物(PM10),71,92,126,30,30,72,,81,75,19,23,6,9,0.4,0.4
2023-12-07T2300,2312A,115.7789,33.8518,亳州市,三国揽胜宫,颗粒物(PM10),72,94,125,29,30,65,,84,75,21,21,8,12,0.6,0.5
2023-12-07T2300,3332A,115.7633,33.8034,亳州市,亳州学院,颗粒物(PM10),68,85,125,36,35,65,,87,73,20,21,6,12,0.6,0.6
2023-12-07T2300,2693A,82.0485,44.8556,博尔塔拉蒙古自治州,市党校,,22,22,36,12,17,36,,42,34,5,9,8,8,0.3,0.4
2023-12-07T2300,2694A,82.0806,44.8969,博尔塔拉蒙古自治州,市环保局,,,,43,,18,30,,40,35,,17,8,9,0.3,0.5
2023-12-07T2300,1071A,116.8842,38.2991,沧州市,沧县城建局,细颗粒物(PM2.5),128,200,205,97,74,8,,55,29,79,51,10,11,1.4,1.1
2023-12-07T2300,1072A,116.8584,38.3254,沧州市,电视转播站,细颗粒物(PM2.5),119,165,203,90,66,12,,52,28,70,49,16,16,1.1,0.9
2023-12-07T2300,1073A,116.8709,38.3228,沧州市,市环保局,细颗粒物(PM2.5),144,189,195,110,78,13,,52,30,65,44,10,9,0.8,0.7
2023-12-07T2300,3324A,116.8136,38.3004,沧州市,河北水利电力学院,颗粒物(PM10),129,207,240,81,66,7,,46,27,74,50,20,17,0.7,0.6
2023-12-07T2300,2622A,97.1806,31.1273,昌都市,昌都监测站,颗粒物(PM10),78,106,28,47,15,6,,59,33,66,25,11,10,1.6,0.8
2023-12-07T2300,3719A,97.1714,31.1406,昌都市,昌都会议中心,,,25,13,20,9,,,69,60,27,12,6,5,0.6,0.2
2023-12-07T2300,2690A,88.1236,43.8886,昌吉州,天山天池,,,,6,0,2,56,,71,68,5,5,6,6,0.5,0.5
2023-12-07T2300,2692A,87.2717,44.0297,昌吉州,新区政务中心,,21,18,61,12,40,65,,56,56,11,37,4,5,0.3,0.8
2023-12-07T2300,3613A,87.3095,44.0142,昌吉州,亚心广场,,19,9,57,0,35,60,,54,54,15,26,6,10,0.5,0.8
2023-12-07T2300,1119A,125.3325,43.9166,长春市,食品厂,,44,44,37,26,17,45,,49,36,23,35,10,11,0.4,0.5
2023-12-07T2300,1120A,125.2863,43.9027,长春市,客车厂,,34,34,31,17,17,44,,48,34,21,35,10,9,0.5,0.6
2023-12-07T2300,1121A,125.2841,43.8463,长春市,邮电学院,,38,38,28,18,14,45,,56,40,19,30,18,12,0.5,0.3
2023-12-07T2300,1122A,125.3716,43.8772,长春市,劳动公园,,42,42,27,18,12,48,,55,42,16,28,11,12,0.5,0.4
2023-12-07T2300,1123A,125.3297,43.8805,长春市,园林处,,38,38,25,17,12,44,,55,38,26,34,10,11,0.5,0.4
2023-12-07T2300,1124A,125.4605,43.79,长春市,净月潭,,31,31,23,15,10,54,,59,56,6,11,6,5,0.4,0.3
2023-12-07T2300,1125A,125.7194,43.515,长春市,甩湾子,,39,39,31,14,16,57,,64,57,4,5,8,6,0.6,0.5
2023-12-07T2300,1126A,125.3863,43.8447,长春市,经开区环卫处,,42,42,32,17,12,48,,52,40,18,35,10,9,0.6,0.6
2023-12-07T2300,1127A,125.245,43.7783,长春市,高新区管委会,,38,36,33,26,21,47,,52,46,13,32,10,9,0.6,0.6
2023-12-07T2300,1128A,125.1761,43.8325,长春市,岱山公园,,42,42,34,17,14,44,,55,40,25,35,6,5,0.5,0.4
2023-12-07T2300,1335A,113.0833,28.2325,长沙市,经开区环保局,颗粒物(PM10),72,93,97,44,52,40,,84,69,56,52,8,11,0.6,0.8
2023-12-07T2300,1336A,112.8872,28.2189,长沙市,高开区环保局,颗粒物(PM10),64,78,87,35,45,62,,96,88,36,40,9,11,0.7,0.9
2023-12-07T2300,1337A,113.0792,28.2053,长沙市,马坡岭,颗粒物(PM10),83,116,101,60,55,10,,84,56,76,48,8,10,0.6,0.7
2023-12-07T2300,1338A,112.9394,28.19,长沙市,湖南师范大学,颗粒物(PM10),64,77,88,37,50,47,,83,69,45,43,6,10,0.7,0.9
2023-12-07T2300,1339A,113.0178,28.1322,长沙市,雨花区环保局,颗粒物(PM10),60,70,86,32,46,70,,93,84,38,50,4,8,0.7,0.9
2023-12-07T2300,1340A,112.9792,28.2597,长沙市,伍家岭,颗粒物(PM10),75,100,99,48,45,2,,76,46,82,46,6,8,1.0,0.9
2023-12-07T2300,1341A,113.0014,28.1944,长沙市,火车新站,细颗粒物(PM2.5),92,112,109,68,62,2,,78,49,105,58,5,7,1.3,1.1
2023-12-07T2300,1342A,112.9844,28.1178,长沙市,天心区环保局,颗粒物(PM10),56,62,89,31,46,68,,94,84,41,50,6,9,0.2,0.5
2023-12-07T2300,1343A,112.8908,28.1308,长沙市,湖南中医药大学,颗粒物(PM10),75,99,95,47,47,2,,88,48,77,44,5,6,0.9,0.7
2023-12-07T2300,1344A,112.9581,28.3611,长沙市,沙坪,"颗粒物(PM10),细颗粒物(PM2.5)",54,57,63,38,42,49,,94,78,36,36,7,8,0.6,0.7
2023-12-07T2300,1727A,113.1147,36.1547,长治市,清华站,颗粒物(PM10),73,95,98,31,27,38,,77,54,39,25,11,11,0.4,0.4
2023-12-07T2300,1728A,113.1031,36.1989,长治市,监测站,颗粒物(PM10),70,89,86,39,28,17,,69,46,57,30,16,11,0.6,0.6
2023-12-07T2300,1730A,113.0886,36.2125,长治市,审计局,颗粒物(PM10),72,94,92,36,27,29,,75,54,52,27,15,12,0.6,0.4
2023-12-07T2300,1731A,113.0844,36.1856,长治市,长治八中,颗粒物(PM10),80,109,105,38,24,10,,75,50,67,31,24,15,0.7,0.3
2023-12-07T2300,2845A,113.1569,36.1911,长治市,德盛苑,颗粒物(PM10),64,77,90,31,23,62,,81,68,24,15,18,12,0.4,0.5
2023-12-07T2300,3568A,113.06,36.0464,长治市,向阳小学,颗粒物(PM10),70,89,120,36,37,66,,92,76,34,26,20,17,0.4,0.4
2023-12-07T2300,3569A,112.8792,36.3144,长治市,屯留一中,颗粒物(PM10),68,86,106,41,30,47,,80,64,41,33,16,16,0.7,0.7
2023-12-07T2300,3570A,113.235,36.3489,长治市,潞城四中,颗粒物(PM10),90,129,142,49,44,45,,83,61,33,33,9,10,0.8,0.8
2023-12-07T2300,1854A,111.6975,28.9703,常德市,市二中,颗粒物(PM10),68,85,59,45,33,41,,95,80,43,19,14,8,0.5,0.4
2023-12-07T2300,1857A,111.7158,29.1456,常德市,白鹤山,颗粒物(PM10),56,62,64,23,22,85,,90,86,8,7,7,8,0.1,0.2
2023-12-07T2300,3138A,111.7153,29.0289,常德市,武陵区永安,细颗粒物(PM2.5),74,81,61,54,27,32,,86,73,47,20,9,7,0.7,0.5
2023-12-07T2300,3139A,111.6892,28.9881,常德市,鼎城区玉霞,细颗粒物(PM2.5),95,109,75,71,42,8,,83,49,52,31,9,8,1.0,0.8
2023-12-07T2300,3140A,111.6625,29.0531,常德市,武陵区长庚,,,,67,50,32,43,,86,75,40,25,8,6,0.7,0.6
2023-12-07T2300,1196A,119.9633,31.762,常州市,市监测站,颗粒物(PM10),88,126,133,59,51,16,,78,46,74,52,15,12,0.8,0.8
2023-12-07T2300,1200A,119.9468,31.7069,常州市,武进监测站,颗粒物(PM10),86,122,142,51,46,30,,78,51,62,51,22,16,0.8,0.8
2023-12-07T2300,1201A,119.9255,31.9087,常州市,安家,颗粒物(PM10),88,125,147,53,56,12,,75,36,86,65,10,14,1.0,1
2023-12-07T2300,3002A,119.9805,31.8174,常州市,行政中心,颗粒物(PM10),84,117,122,50,47,31,,81,50,61,54,22,16,0.7,0.8
2023-12-07T2300,3003A,120.0522,31.7748,常州市,经开区,颗粒物(PM10),92,133,178,52,50,28,,79,46,76,66,9,14,0.8,1
2023-12-07T2300,3010A,119.9025,31.7964,常州市,钟楼,颗粒物(PM10),81,112,134,49,52,33,,83,52,68,60,12,15,0.8,0.9
2023-12-07T2300,3429A,119.8598,31.7066,常州市,武进经发区,颗粒物(PM10),89,127,175,59,56,24,,71,42,71,55,12,11,1.0,1.1
2023-12-07T2300,3430A,119.5826,31.7245,常州市,金坛城区,细颗粒物(PM2.5),87,118,159,64,56,15,,86,52,80,48,17,14,1.2,1
2023-12-07T2300,2220A,120.4318,41.5881,朝阳市,西梁,细颗粒物(PM2.5),123,189,138,93,63,6,,25,12,54,49,24,26,2.0,1.6
2023-12-07T2300,2221A,120.4521,41.5646,朝阳市,河畔小区,细颗粒物(PM2.5),158,227,111,120,55,6,,26,14,57,43,27,21,2.0,1.4
2023-12-07T2300,2222A,120.4176,41.5648,朝阳市,八里堡,颗粒物(PM10),127,204,124,84,46,5,,24,12,57,52,,24,2.0,1.4
2023-12-07T2300,2223A,120.3806,41.5969,朝阳市,农业园区,颗粒物(PM10),115,179,115,79,50,9,,24,12,60,48,21,26,1.5,1.3
2023-12-07T2300,1705A,116.6367,23.6719,潮州市,西园路,"颗粒物(PM10),细颗粒物(PM2.5)",55,59,33,39,21,53,,106,94,20,14,5,6,0.5,0.4
2023-12-07T2300,1706A,116.6447,23.6706,潮州市,档案局,颗粒物(PM10),51,52,32,26,19,51,,104,90,23,15,4,5,0.7,0.6
2023-12-07T2300,3026A,116.6183,23.6608,潮州市,市政府,颗粒物(PM10),75,99,36,53,18,30,,108,90,60,22,30,8,0.9,0.6
2023-12-07T2300,2472A,113.0073,25.9061,郴州市,马头岭,,49,49,46,23,17,15,,91,64,59,28,5,8,1.0,1.1
2023-12-07T2300,2473A,113.0116,25.8226,郴州市,市职中,颗粒物(PM10),56,62,53,32,32,4,,99,40,44,29,4,6,0.6,0.8
2023-12-07T2300,2474A,113.0161,25.8001,郴州市,兴隆步行街,颗粒物(PM10),63,75,61,42,36,12,,82,32,49,36,6,6,0.9,0.8
2023-12-07T2300,2475A,113.0383,25.8071,郴州市,市审计局,细颗粒物(PM2.5),59,66,54,42,34,4,,80,30,52,39,6,6,1.2,0.9
2023-12-07T2300,2476A,113.0348,25.7759,郴州市,市环保局,颗粒物(PM10),54,57,57,18,31,8,,64,29,52,40,5,3,0.6,0.7
2023-12-07T2300,1431A,103.9728,30.7236,成都市,金泉两河,细颗粒物(PM2.5),110,116,110,83,77,0,,58,24,53,41,1,3,1.4,0.9
2023-12-07T2300,1432A,104.176,30.6872,成都市,十里店,细颗粒物(PM2.5),133,116,108,101,76,6,,58,44,66,54,3,3,1.2,1
2023-12-07T2300,1433A,104.079,30.5706,成都市,三瓦窑,颗粒物(PM10),100,149,139,74,64,0,,46,34,44,38,3,4,1.2,1.2
2023-12-07T2300,1434A,104.1114,30.63,成都市,沙河铺,细颗粒物(PM2.5),119,126,120,90,79,0,,46,27,51,48,3,4,1.3,1.1
2023-12-07T2300,1437A,104.0786,30.6531,成都市,君平街,细颗粒物(PM2.5),124,129,129,94,82,3,,51,31,75,60,4,7,1.6,1.3
2023-12-07T2300,1438A,103.613,31.0283,成都市,灵岩寺,细颗粒物(PM2.5),123,130,88,93,50,61,,90,82,20,20,9,15,1.1,1
2023-12-07T2300,2880A,104.0239,30.65639,成都市,大石西路,细颗粒物(PM2.5),122,124,118,92,82,0,,52,29,65,54,3,4,1.5,1.1
2023-12-07T2300,3136A,104.2725,30.5589,成都市,龙泉驿区区政府,细颗粒物(PM2.5),79,75,91,58,71,54,,74,69,13,25,3,3,0.6,0.7
2023-12-07T2300,3357A,104.0106,30.6931,成都市,金博路,细颗粒物(PM2.5),137,134,123,104,85,1,,52,23,61,52,3,3,1.6,1
2023-12-07T2300,3359A,104.0578,30.5225,成都市,华阳,细颗粒物(PM2.5),119,117,115,90,82,0,,48,32,45,51,3,2,1.3,1.1
2023-12-07T2300,3487A,104.2394,30.5319,成都市,车城东七路,细颗粒物(PM2.5),103,97,115,77,84,19,,62,54,54,48,1,3,0.8,0.8
2023-12-07T2300,3488A,104.3853,30.7453,成都市,青白江技师分院,细颗粒物(PM2.5),85,79,72,63,62,5,,53,36,53,40,5,5,0.8,0.9
2023-12-07T2300,3489A,104.0789,30.4072,成都市,科学城,细颗粒物(PM2.5),135,120,105,103,85,4,,62,50,47,28,3,2,0.9,0.9
2023-12-07T2300,4011A,103.8506,30.6947,成都市,光华大道三段,细颗粒物(PM2.5),125,124,101,95,70,0,,68,30,62,40,3,4,1.4,1.1
2023-12-07T2300,1062A,117.9531,40.9081,承德市,铁路,细颗粒物(PM2.5),110,168,166,83,65,4,,13,5,57,53,16,14,1.5,1.2
2023-12-07T2300,1063A,117.9392,40.9763,承德市,中国银行,颗粒物(PM10),102,153,147,62,50,9,,32,12,49,42,8,8,1.1,0.9
2023-12-07T2300,1064A,117.9503,40.928,承德市,开发区,颗粒物(PM10),97,143,135,54,42,5,,21,5,55,49,12,11,1.4,1
2023-12-07T2300,1065A,117.8051,40.9655,承德市,文化中心,颗粒物(PM10),117,184,211,63,73,7,,25,12,55,46,12,11,1.3,0.9
2023-12-07T2300,1066A,117.9268,41.0026,承德市,离宫,颗粒物(PM10),96,142,118,51,40,2,,34,16,47,33,4,4,0.8,0.6
2023-12-07T2300,2314A,117.47,30.6618,池州市,池州学院,颗粒物(PM10),61,72,93,39,41,74,,94,88,26,22,38,16,0.8,0.6
2023-12-07T2300,3237A,117.4918,30.6617,池州市,展览馆,颗粒物(PM10),62,73,88,39,30,78,,95,89,24,25,28,11,0.7,0.7
2023-12-07T2300,3333A,117.5627,30.695,池州市,第八中学,颗粒物(PM10),62,74,94,35,35,72,,98,90,28,24,15,7,0.6,0.6
2023-12-07T2300,3334A,117.5038,30.6243,池州市,第十二中学,颗粒物(PM10),52,54,88,26,36,54,,93,80,40,25,5,5,0.7,0.7
2023-12-07T2300,1744A,118.9233,42.2816,赤峰市,松山一中,细颗粒物(PM2.5),130,192,117,99,43,12,,28,21,72,57,29,36,3.4,1.9
2023-12-07T2300,1745A,118.9576,42.2728,赤峰市,哈达街,细颗粒物(PM2.5),125,170,120,95,62,12,,27,20,70,59,30,47,2.2,1.6
2023-12-07T2300,1746A,118.8788,42.2554,赤峰市,天义路,颗粒物(PM10),78,106,103,21,29,42,,39,31,32,43,10,14,0.8,1.1
2023-12-07T2300,3058A,119.2658,42.0353,赤峰市,银河街,颗粒物(PM10),102,154,140,51,50,44,,46,45,35,38,55,31,1.2,1.3
2023-12-07T2300,3286A,118.9359,42.3147,赤峰市,桥北物流园区,颗粒物(PM10),92,134,103,66,46,16,,33,20,60,55,36,38,1.2,1
2023-12-07T2300,2521A,107.3476,22.4136,崇左市,市环保局江州分局,细颗粒物(PM2.5),65,76,49,47,30,9,,99,70,47,19,6,6,1.0,0.8
2023-12-07T2300,2522A,107.3702,22.3707,崇左市,城南新区,颗粒物(PM10),53,56,37,32,26,131,,101,101,49,22,5,6,0.8,0.8
2023-12-07T2300,2298A,118.3093,32.3153,滁州市,老年大学,颗粒物(PM10),71,91,121,33,39,98,,104,97,17,30,12,12,0.6,0.6
2023-12-07T2300,2299A,118.3244,32.2786,滁州市,人大宾馆,颗粒物(PM10),66,81,132,45,50,87,,100,85,32,41,11,12,0.5,0.5
2023-12-07T2300,3207A,118.3118,32.3038,滁州市,市政府原办公楼,颗粒物(PM10),59,67,109,33,39,98,,101,93,20,30,9,11,0.5,0.5
2023-12-07T2300,3331A,118.3267,32.2634,滁州市,图书馆,颗粒物(PM10),64,78,119,40,45,85,,99,86,29,35,12,13,0.6,0.6
2023-12-07T2300,2605A,101.5482,25.0441,楚雄州,州环境监测站,,35,25,29,24,22,54,,63,57,7,15,6,12,0.7,0.6
2023-12-07T2300,2606A,101.538,25.0492,楚雄州,市经济开发区,,39,32,32,27,22,46,,58,50,12,19,5,8,0.8,0.6
2023-12-07T2300,2548A,107.5277,31.2827,达州市,达州职业技术学院,细颗粒物(PM2.5),90,85,66,67,53,6,,46,20,31,30,5,4,0.8,0.7
2023-12-07T2300,2549A,107.5086,31.2186,达州市,市环境监测站,细颗粒物(PM2.5),77,86,82,56,49,2,,31,17,47,40,7,6,0.9,0.8
2023-12-07T2300,2550A,107.4988,31.2132,达州市,凤凰小区,细颗粒物(PM2.5),77,88,74,56,51,5,,45,24,47,38,9,8,0.8,0.8
2023-12-07T2300,2551A,107.5082,31.1986,达州市,达县机关宾馆,细颗粒物(PM2.5),93,105,82,69,53,4,,32,11,42,44,8,7,1.0,0.9
2023-12-07T2300,2552A,107.4644,31.2124,达州市,市政中心,细颗粒物(PM2.5),77,89,83,56,52,3,,34,17,55,45,7,6,1.2,1.1
2023-12-07T2300,2614A,100.1542,25.7054,大理州,大理市环境监测站,,,17,28,16,17,,,49,45,12,21,5,6,0.6,0.6
2023-12-07T2300,2615A,100.2171,25.5811,大理州,大理古城,,25,,20,17,18,28,,54,38,18,15,6,7,0.4,0.3
2023-12-07T2300,1109A,121.612,38.9741,大连市,甘井子,颗粒物(PM10),97,144,154,44,41,71,,64,64,35,41,8,10,0.8,0.8
2023-12-07T2300,1110A,121.565,38.9511,大连市,周水子,颗粒物(PM10),100,150,148,49,44,54,,55,55,36,34,36,16,1.4,0.9
2023-12-07T2300,1111A,121.5637,38.8845,大连市,星海三站,颗粒物(PM10),101,152,149,47,41,69,,68,68,25,30,4,10,0.5,0.5
2023-12-07T2300,1112A,121.6302,38.9117,大连市,青泥洼桥,颗粒物(PM10),101,152,160,48,40,69,,58,58,22,31,9,14,0.9,0.8
2023-12-07T2300,1113A,121.6251,38.8638,大连市,傅家庄,颗粒物(PM10),125,199,166,50,39,72,,74,73,22,25,7,10,0.7,0.6
2023-12-07T2300,1114A,121.5213,38.8661,大连市,七贤岭,颗粒物(PM10),103,155,173,44,45,73,,64,64,26,35,9,11,0.7,0.7
2023-12-07T2300,1115A,121.2529,38.8061,大连市,旅顺,颗粒物(PM10),95,139,153,42,42,67,,66,65,26,30,8,10,0.8,0.8
2023-12-07T2300,1116A,121.7485,39.1311,大连市,金州,颗粒物(PM10),89,128,143,41,44,74,,85,83,22,30,9,14,0.7,0.8
2023-12-07T2300,1117A,121.7811,39.0496,大连市,开发区,颗粒物(PM10),101,152,138,43,44,65,,50,47,29,47,6,10,0.5,0.6
2023-12-07T2300,1118A,121.9762,39.0631,大连市,双D港,颗粒物(PM10),81,111,165,41,40,77,,69,69,19,31,8,10,0.8,0.7
2023-12-07T2300,1789A,124.81117,46.03138,大庆市,大同区,细颗粒物(PM2.5),53,48,37,37,22,48,,50,40,19,16,13,8,0.6,0.5
2023-12-07T2300,1790A,125.129,46.533,大庆市,龙凤区,细颗粒物(PM2.5),57,51,32,40,22,48,,49,37,22,23,10,9,0.7,0.5
2023-12-07T2300,1791A,124.902,46.408,大庆市,红岗区,,44,44,22,26,15,60,,58,51,13,11,6,5,0.5,0.3
2023-12-07T2300,1792A,125.153,46.586,大庆市,萨尔图区,细颗粒物(PM2.5),62,51,31,44,17,41,,44,38,25,23,13,8,0.6,0.5
2023-12-07T2300,1793A,124.9042,46.6215,大庆市,让胡路区,颗粒物(PM10),53,56,31,36,20,49,,50,33,23,19,8,4,0.6,0.4
2023-12-07T2300,3481A,125.141,46.634,大庆市,萨区政府监测点,细颗粒物(PM2.5),64,50,23,46,20,44,,50,40,20,18,10,8,0.5,0.5
2023-12-07T2300,1723A,113.2994,40.0758,大同市,云冈宾馆,颗粒物(PM10),191,331,188,75,47,50,,56,34,24,44,14,18,0.6,0.8
2023-12-07T2300,1724A,113.3444,40.0917,大同市,大同大学,颗粒物(PM10),185,319,173,71,42,53,,60,38,26,44,14,17,0.8,0.9
2023-12-07T2300,1725A,113.2661,40.1269,大同市,安家小村,颗粒物(PM10),196,341,191,89,36,53,,65,50,22,29,11,17,0.3,0.5
2023-12-07T2300,1726A,113.2711,40.0844,大同市,教育学院,颗粒物(PM10),179,308,200,60,43,41,,54,32,33,53,9,15,0.5,0.8
2023-12-07T2300,3282A,113.3397,40.0597,大同市,大同市卫生学校,颗粒物(PM10),179,307,152,68,37,46,,54,38,29,46,8,18,0.4,0.6
2023-12-07T2300,3565A,113.1367,40.1122,大同市,云冈站,颗粒物(PM10),126,201,143,46,30,17,,68,38,40,23,24,18,0.4,0.4
2023-12-07T2300,3566A,113.1186,40.2556,大同市,图书馆,颗粒物(PM10),249,384,186,84,40,39,,72,65,33,21,21,17,0.7,0.5
2023-12-07T2300,3567A,113.5931,40.0461,大同市,区一中,颗粒物(PM10),178,305,186,53,37,18,,61,33,58,43,20,20,0.6,0.8
2023-12-07T2300,3676A,113.2802,40.0995,大同市,第二人民医院,颗粒物(PM10),183,316,192,68,41,51,,60,47,25,41,12,18,0.5,0.7
2023-12-07T2300,2269A,124.1069,50.4097,大兴安岭地区,科技局,,26,,22,18,19,33,,42,26,4,10,4,4,0.3,0.5
2023-12-07T2300,3663A,124.1164,50.4278,大兴安岭地区,红旗社区,,18,14,27,12,19,26,,36,16,14,19,13,8,0.4,0.5
2023-12-07T2300,1600A,124.3303,40.0625,丹东市,江湾东路,颗粒物(PM10),85,120,62,40,29,49,,52,37,26,30,14,15,1.2,1.2
2023-12-07T2300,1601A,124.4256,40.1503,丹东市,临江后街,颗粒物(PM10),97,144,70,54,31,14,,49,30,51,26,13,15,1.5,1.1
2023-12-07T2300,1602A,124.3933,40.1461,丹东市,元宝山,颗粒物(PM10),87,124,61,36,28,48,,42,35,23,26,12,15,1.0,1.1
2023-12-07T2300,1603A,124.3633,40.1092,丹东市,民主桥,颗粒物(PM10),99,147,67,54,26,10,,44,21,50,30,13,14,1.8,1.1
2023-12-07T2300,3541A,109.5726,19.5167,儋州市,第一中学子站,,32,32,26,15,18,102,,107,106,11,12,5,6,0.4,0.6
2023-12-07T2300,3542A,109.5567,19.5187,儋州市,东坡学校子站,,31,31,31,17,19,99,,105,104,8,9,5,6,0.6,0.7
2023-12-07T2300,2616A,98.5842,24.428,德宏州,德宏州监测站,,43,36,45,30,36,19,,27,26,28,28,9,17,0.7,0.7
2023-12-07T2300,3677A,98.5881,24.4368,德宏州,芒市人民政府综合楼,,48,48,44,28,28,13,,24,22,33,25,9,14,0.7,0.6
2023-12-07T2300,1901A,104.4239,31.1208,德阳市,东山公园,细颗粒物(PM2.5),133,147,121,101,75,48,,90,84,42,30,2,2,0.8,0.7
2023-12-07T2300,1902A,104.3826,31.1317,德阳市,西小区,细颗粒物(PM2.5),158,127,116,120,83,18,,79,67,53,36,3,2,0.9,0.8
2023-12-07T2300,1904A,104.3553,31.1091,德阳市,耐火材料厂,细颗粒物(PM2.5),156,153,135,119,82,28,,80,68,37,34,1,2,0.8,0.7
2023-12-07T2300,3639A,104.4019,31.1244,德阳市,市教育局,细颗粒物(PM2.5),144,118,99,110,77,12,,82,67,70,40,1,2,0.8,0.8
2023-12-07T2300,1622A,116.3032,37.4674,德州市,儿童乐园,颗粒物(PM10),108,166,211,63,61,24,,56,41,55,46,13,14,0.9,0.9
2023-12-07T2300,1624A,116.2991,37.4451,德州市,监理站,颗粒物(PM10),114,177,218,61,63,25,,53,,58,48,16,17,1.5,1
2023-12-07T2300,3066A,116.2721,37.4379,德州市,九衢泉纯净水厂,颗粒物(PM10),111,172,214,67,64,11,,62,34,73,56,12,12,0.9,1
2023-12-07T2300,3371A,116.3728,37.4403,德州市,开发区人民医院,颗粒物(PM10),113,175,228,61,60,28,,57,34,43,47,10,11,0.9,0.9
2023-12-07T2300,3372A,116.3572,37.4094,德州市,太阳城中学,颗粒物(PM10),113,175,221,72,67,6,,56,32,64,46,12,11,0.9,0.9
2023-12-07T2300,3511A,116.5652,37.3319,德州市,陵城艺术中心,颗粒物(PM10),106,161,225,53,53,37,,59,45,36,36,8,9,0.8,0.8
2023-12-07T2300,2621A,99.7056,27.8317,迪庆州,迪庆州站,,22,18,27,11,17,70,,75,70,10,12,8,9,0.3,0.4
2023-12-07T2300,3180A,99.7136,27.8094,迪庆州,质量技术监督局,,25,14,26,13,14,79,,79,75,4,10,6,6,0.3,0.4
2023-12-07T2300,2663A,104.6241,35.5734,定西市,东关小学,颗粒物(PM10),66,81,99,39,37,7,,63,30,32,24,15,17,0.8,0.8
2023-12-07T2300,2664A,104.6194,35.5934,定西市,供电公司,颗粒物(PM10),63,75,89,44,40,11,,61,32,39,36,12,16,0.7,0.8
2023-12-07T2300,1389A,113.7547,23.0494,东莞市,莞城梨川,"颗粒物(PM10),细颗粒物(PM2.5)",83,116,44,61,24,7,,116,68,95,43,10,9,1.2,0.7
2023-12-07T2300,1390A,113.7944,23.0128,东莞市,东城石井,颗粒物(PM10),53,55,29,30,17,19,,95,67,49,27,10,10,0.8,0.7
2023-12-07T2300,1391A,113.7383,22.9658,东莞市,南城西平,颗粒物(PM10),73,96,40,41,18,0,,96,49,106,54,15,10,1.0,0.7
2023-12-07T2300,3319A,113.7338,23.0381,东莞市,万江金泰,颗粒物(PM10),85,119,44,56,22,2,,101,53,86,42,10,10,1.1,0.8
2023-12-07T2300,3626A,113.7533,23.0202,东莞市,南城元岭,颗粒物(PM10),62,74,37,34,20,5,,113,60,84,40,8,9,0.9,0.7
2023-12-07T2300,3627A,113.7875,23.0457,东莞市,东城主山,颗粒物(PM10),83,115,48,52,22,4,,124,65,98,47,12,10,1.3,0.7
2023-12-07T2300,1666A,118.6614,37.4309,东营市,市环保局,颗粒物(PM10),119,188,236,73,61,22,,68,42,68,53,18,17,0.7,0.7
2023-12-07T2300,3036A,118.6904,37.4338,东营市,开发区管委会,颗粒物(PM10),119,187,250,70,63,28,,75,47,70,59,16,15,0.7,0.7
2023-12-07T2300,3365A,118.5719,37.565,东营市,垦利区民丰路,颗粒物(PM10),124,197,252,80,61,26,,58,30,70,64,28,16,0.9,0.9
2023-12-07T2300,3498A,118.5055,37.8612,东营市,河口城区,颗粒物(PM10),136,222,288,75,69,10,,72,38,66,51,46,25,1.2,1.2
2023-12-07T2300,3646A,118.4978,37.4623,东营市,胜利站,颗粒物(PM10),121,191,248,73,66,31,,62,32,73,71,41,20,0.8,0.8
2023-12-07T2300,3734A,118.35,37.26,东营市,理想之城,颗粒物(PM10),120,190,244,75,70,12,,64,28,82,65,14,14,0.9,0.9
2023-12-07T2300,1591A,110.0023,39.8129,鄂尔多斯市,综合楼,颗粒物(PM10),106,161,220,36,34,59,,76,68,22,24,26,10,0.8,0.5
2023-12-07T2300,1592A,109.9486,39.8261,鄂尔多斯市,巴音孟克林场办事处,颗粒物(PM10),108,166,200,44,36,66,,78,72,12,11,9,9,0.4,0.4
2023-12-07T2300,1593A,109.7736,39.5986,鄂尔多斯市,康泽苑,颗粒物(PM10),98,146,167,45,39,50,,77,66,23,25,6,8,0.5,0.5
2023-12-07T2300,1594A,109.8119,39.5989,鄂尔多斯市,华泰汽车城,颗粒物(PM10),102,153,173,44,34,31,,80,66,51,34,8,9,0.4,0.5
2023-12-07T2300,1595A,109.9734,39.7884,鄂尔多斯市,奥林花园,颗粒物(PM10),96,141,232,31,35,49,,62,55,27,38,7,13,0.4,0.5
2023-12-07T2300,2436A,114.8938,30.3994,鄂州市,市政府,细颗粒物(PM2.5),92,82,116,68,65,29,,59,48,45,53,11,17,0.9,1.2
2023-12-07T2300,2437A,114.8989,30.3714,鄂州市,赵家坝,细颗粒物(PM2.5),83,98,113,61,60,24,,57,41,49,49,10,14,1.3,1.1
2023-12-07T2300,3654A,114.8094,30.4089,鄂州市,精准医疗中心,细颗粒物(PM2.5),122,157,158,92,64,8,,83,48,70,59,49,34,2.8,1.8
2023-12-07T2300,2499A,108.3411,21.6158,防城港市,沙万,颗粒物(PM10),53,55,47,19,20,45,,93,62,22,19,32,8,0.6,0.5
2023-12-07T2300,2500A,108.3514,21.7731,防城港市,防城档案局,颗粒物(PM10),89,128,76,46,33,11,,99,54,47,30,3,7,0.6,0.6
2023-12-07T2300,2501A,108.3506,21.6414,防城港市,大海花园,"颗粒物(PM10),细颗粒物(PM2.5)",53,55,41,37,20,40,,93,70,34,22,30,8,0.6,0.5
2023-12-07T2300,1371A,113.1294,23.0067,佛山市,湾梁,颗粒物(PM10),60,70,48,21,18,4,,81,45,74,46,10,10,1.3,0.7
2023-12-07T2300,1372A,113.1083,23.0478,佛山市,华材职中,颗粒物(PM10),81,112,53,40,26,5,,74,38,95,56,11,10,1.4,0.8
2023-12-07T2300,1373A,113.144,23.0453,佛山市,南海气象局,颗粒物(PM10),71,92,44,21,21,3,,82,44,103,51,6,7,1.2,0.6
2023-12-07T2300,1374A,113.2881,22.8094,佛山市,顺德苏岗,,46,46,36,19,18,29,,83,53,40,45,10,11,0.6,0.6
2023-12-07T2300,1376A,112.8383,22.8678,佛山市,高明孔堂,,48,48,51,21,24,46,,98,76,30,34,7,10,0.5,0.7
2023-12-07T2300,1377A,112.8836,23.1588,佛山市,三水监测站,颗粒物(PM10),59,68,62,40,35,1,,91,46,90,49,5,9,0.7,0.9
2023-12-07T2300,1378A,112.867,23.185,佛山市,三水云东海,颗粒物(PM10),53,56,47,31,28,2,,85,53,78,41,6,7,0.7,0.7
2023-12-07T2300,3625A,113.2544,22.7642,佛山市,容桂街道办,颗粒物(PM10),81,112,52,46,21,4,,87,52,104,54,6,6,1.3,0.6
2023-12-07T2300,1282A,119.2681,26.0504,福州市,师大,颗粒物(PM10),52,54,38,27,18,55,,106,80,31,21,6,6,0.6,0.5
2023-12-07T2300,1283A,119.2984,26.1028,福州市,五四北路,颗粒物(PM10),52,53,32,26,18,54,,100,82,39,28,3,4,0.6,0.5
2023-12-07T2300,1284A,119.2648,26.0768,福州市,杨桥西路,颗粒物(PM10),59,67,38,29,19,39,,105,79,44,21,3,4,0.5,0.4
2023-12-07T2300,1285A,119.317,26.0746,福州市,紫阳,颗粒物(PM10),57,63,41,35,21,43,,99,78,50,31,6,6,0.7,0.6
2023-12-07T2300,3048A,119.5799,26.0936,福州市,九龙,,43,43,38,23,19,46,,125,94,31,18,3,5,0.4,0.4
2023-12-07T2300,3526A,119.5189,25.9664,福州市,吴航,,45,45,49,12,21,52,,120,94,29,31,3,5,0.6,0.6
2023-12-07T2300,1755A,123.7977,41.8491,抚顺市,望花区,颗粒物(PM10),72,93,75,36,34,23,,29,19,50,48,16,18,0.8,0.9
2023-12-07T2300,1756A,123.9161,41.8822,抚顺市,顺城区,颗粒物(PM10),68,86,68,31,38,11,,34,23,53,39,7,10,0.6,0.8
2023-12-07T2300,1757A,124.0436,41.8611,抚顺市,东洲区,颗粒物(PM10),85,120,51,30,23,67,,61,61,12,22,13,10,0.5,0.6
2023-12-07T2300,1758A,123.9247,41.8642,抚顺市,新抚区,颗粒物(PM10),68,85,62,39,37,9,,38,20,54,42,9,11,0.7,0.8
2023-12-07T2300,1759A,124.0972,41.8961,抚顺市,大伙房水库,颗粒物(PM10),91,131,45,28,18,72,,60,60,9,20,9,9,0.5,0.6
2023-12-07T2300,1760A,123.7086,41.8391,抚顺市,沈抚新城,颗粒物(PM10),95,140,82,40,30,55,,30,30,24,46,11,18,0.5,0.9
2023-12-07T2300,2376A,116.2127,28.0814,抚州市,桐源党溪,,39,39,45,22,26,7,,82,42,30,16,3,3,0.7,0.8
2023-12-07T2300,2377A,116.3544,27.9831,抚州市,市站,颗粒物(PM10),61,72,55,35,31,18,,82,50,58,34,9,5,0.8,0.9
2023-12-07T2300,2378A,116.3565,27.963,抚州市,血防站,颗粒物(PM10),62,74,54,36,30,16,,88,60,60,33,15,5,1.1,1
2023-12-07T2300,2379A,116.3564,28.0007,抚州市,采茶剧团,颗粒物(PM10),58,65,54,34,32,15,,85,61,58,30,6,4,1.2,1
2023-12-07T2300,2380A,116.385,27.9647,抚州市,医学分院,颗粒物(PM10),58,65,52,27,25,26,,84,63,47,28,17,7,0.9,0.9
2023-12-07T2300,2207A,121.6094,41.998,阜新市,工业园区,颗粒物(PM10),116,182,125,58,43,0,,32,16,68,48,29,26,1.6,1.2
2023-12-07T2300,2208A,121.6697,42.0279,阜新市,长青街,细颗粒物(PM2.5),103,133,118,77,59,2,,26,12,52,52,31,29,1.9,1.3
2023-12-07T2300,2209A,121.6673,42.0705,阜新市,农业园区,颗粒物(PM10),120,189,80,75,45,8,,39,22,64,40,54,44,1.4,0.9
2023-12-07T2300,2210A,121.6717,42.0224,阜新市,东苑,细颗粒物(PM2.5),98,123,114,73,52,7,,34,16,54,45,34,38,1.7,1.1
2023-12-07T2300,2211A,121.6506,42.0498,阜新市,玉龙新城,颗粒物(PM10),84,117,80,57,34,5,,32,15,54,46,24,22,1.4,1
2023-12-07T2300,2301A,115.8277,32.8929,阜阳市,市监测站,颗粒物(PM10),66,82,101,42,37,84,,94,90,21,19,8,8,0.5,0.4
2023-12-07T2300,2303A,115.8554,32.8605,阜阳市,开发区,颗粒物(PM10),81,111,133,42,38,71,,98,85,31,29,10,9,0.5,0.6
2023-12-07T2300,2875A,115.784,32.8892,阜阳市,阜阳职业技术学院,颗粒物(PM10),70,90,115,37,36,85,,94,82,20,22,6,5,0.6,0.5
2023-12-07T2300,3468A,115.7901,32.8613,阜阳市,市规划展馆,颗粒物(PM10),67,84,107,37,39,82,,99,91,25,21,5,5,0.5,0.4
2023-12-07T2300,3469A,115.836,32.9183,阜阳市,枣园社区,颗粒物(PM10),66,81,100,36,38,86,,98,92,24,21,6,5,0.5,0.4
2023-12-07T2300,2669A,102.9099,34.9841,甘南州,州政府,细颗粒物(PM2.5),104,124,56,78,34,6,,73,44,56,32,39,21,1.8,0.9
2023-12-07T2300,3380A,102.8914,34.9617,甘南州,甘肃民族师范学院,颗粒物(PM10),63,76,51,10,28,12,,72,49,63,35,26,12,0.0,0.4
2023-12-07T2300,2570A,101.9603,30.0475,甘孜藏族自治州,水桥子,,29,29,32,14,11,10,,58,34,44,34,9,9,0.5,0.4
2023-12-07T2300,3065A,101.9533,29.9972,甘孜藏族自治州,州环保局,,17,13,23,11,6,52,,69,54,13,16,8,8,0.3,0.3
2023-12-07T2300,3414A,115.8347,28.932,赣江新区,桑海产业园,颗粒物(PM10),75,100,87,50,48,3,,31,18,96,61,8,8,0.8,0.8
2023-12-07T2300,2363A,114.9367,25.8664,赣州市,地委,颗粒物(PM10),91,131,70,50,31,2,,88,44,55,36,15,13,1.4,1.2
2023-12-07T2300,2364A,114.9461,25.8481,赣州市,气象台,颗粒物(PM10),73,96,62,45,30,2,,92,42,76,47,12,11,1.2,1.1
2023-12-07T2300,2365A,114.9322,25.8333,赣州市,市图书馆,颗粒物(PM10),80,110,70,45,32,3,,82,35,71,50,12,14,1.3,1.1
2023-12-07T2300,2366A,114.8905,25.8471,赣州市,华坚鞋城,颗粒物(PM10),99,147,79,60,42,6,,65,25,78,50,16,42,1.2,1.1
2023-12-07T2300,3109A,115.0093,25.8613,赣州市,赣县区卫计委,颗粒物(PM10),61,71,55,38,29,10,,81,45,45,33,9,9,1.0,1
2023-12-07T2300,2683A,106.2319,36.1417,固原市,马园,颗粒物(PM10),67,83,154,47,55,8,,82,40,64,22,8,6,1.5,1
2023-12-07T2300,2684A,106.2792,36.0022,固原市,监测站,颗粒物(PM10),62,73,120,32,40,30,,76,39,49,21,12,7,1.3,0.7
2023-12-07T2300,2685A,106.2375,36.0211,固原市,新区,颗粒物(PM10),63,76,105,22,34,10,,76,32,59,20,4,5,0.7,0.5
2023-12-07T2300,3522A,106.2177,35.9959,固原市,原州区十五小,,33,33,92,11,27,75,,82,72,14,10,1,2,0.3,0.4
2023-12-07T2300,2544A,106.6303,30.4576,广安市,市委,细颗粒物(PM2.5),115,103,78,87,65,7,,62,42,52,28,9,8,1.3,0.9
2023-12-07T2300,2545A,106.6271,30.4663,广安市,友谊中学,细颗粒物(PM2.5),105,96,72,79,61,5,,60,39,41,26,7,6,1.3,0.9
2023-12-07T2300,2547A,106.6388,30.4551,广安市,广电花园,细颗粒物(PM2.5),120,108,74,91,60,9,,58,40,48,28,10,8,1.6,0.8
2023-12-07T2300,2902A,106.6351,30.4865,广安市,北辰小学,细颗粒物(PM2.5),100,101,76,75,57,4,,54,35,35,26,9,8,1.0,0.8
2023-12-07T2300,2523A,105.8945,32.4535,广元市,黑石坡,细颗粒物(PM2.5),74,,43,54,32,56,,79,74,32,24,12,11,0.8,0.7
2023-12-07T2300,2524A,105.821,32.4444,广元市,老城,细颗粒物(PM2.5),70,79,91,51,37,2,,52,28,64,40,3,3,0.9,0.9
2023-12-07T2300,2526A,105.8628,32.4287,广元市,监测站,颗粒物(PM10),70,89,83,40,43,36,,48,45,25,34,3,9,0.7,0.8
2023-12-07T2300,3617A,105.8047,32.4166,广元市,经开区,细颗粒物(PM2.5),115,124,126,87,65,2,,37,22,61,45,5,13,1.1,0.9
2023-12-07T2300,1345A,113.2347,23.1423,广州市,广雅中学,颗粒物(PM10),71,92,63,42,26,4,,76,39,88,58,5,7,1.3,0.9
2023-12-07T2300,1346A,113.2612,23.105,广州市,市五中,,,93,49,,33,7,,81,41,88,50,8,9,1.6,0.8
2023-12-07T2300,1348A,113.3478,23.0916,广州市,广东商学院,颗粒物(PM10),69,88,38,37,18,4,,83,38,89,46,6,6,0.9,0.5
2023-12-07T2300,1349A,113.4332,23.1047,广州市,市八十六中,颗粒物(PM10),67,83,43,34,20,4,,84,42,84,49,5,5,1.0,0.6
2023-12-07T2300,1350A,113.3505,22.9483,广州市,番禺中学,颗粒物(PM10),93,135,53,64,22,4,,88,42,83,57,6,6,1.2,0.6
2023-12-07T2300,1351A,113.2146,23.3916,广州市,花都师范,颗粒物(PM10),65,80,40,39,20,14,,97,59,76,33,8,9,0.7,0.6
2023-12-07T2300,1352A,113.2597,23.1331,广州市,市监测站,,45,40,49,22,23,8,,83,45,89,54,4,6,0.7,0.6
2023-12-07T2300,1353A,113.5618,23.312,广州市,九龙镇镇龙,颗粒物(PM10),73,96,47,29,20,2,,69,28,52,38,6,6,0.7,0.6
2023-12-07T2300,1354A,113.2765,23.1544,广州市,麓湖,,37,26,34,12,16,2,,80,20,73,44,5,6,0.5,0.5
2023-12-07T2300,1355A,113.443,23.3035,广州市,帽峰山森林公园,,30,13,18,10,11,95,,104,100,5,10,9,9,0.3,0.4
2023-12-07T2300,2846A,113.3221,23.1322,广州市,体育西,颗粒物(PM10),70,89,44,50,24,7,,82,42,87,45,8,8,1.4,0.8
2023-12-07T2300,3298A,113.5717,23.5491,广州市,从化街口,细颗粒物(PM2.5),54,56,46,38,27,2,,92,45,54,41,5,6,1.0,0.7
2023-12-07T2300,3299A,113.3472,23.3692,广州市,白云竹料,颗粒物(PM10),73,96,55,42,29,6,,103,50,66,44,7,7,0.9,0.9
2023-12-07T2300,3300A,113.2981,23.237,广州市,白云嘉禾,颗粒物(PM10),77,103,63,38,27,5,,77,36,87,58,8,9,0.8,0.7
2023-12-07T2300,3301A,113.4256,23.1716,广州市,黄埔科学城,,47,47,27,17,14,5,,80,35,67,36,4,5,0.7,0.7
2023-12-07T2300,3302A,113.3942,23.0483,广州市,番禺大学城,颗粒物(PM10),63,76,34,42,19,7,,96,54,90,54,8,8,0.6,0.5
2023-12-07T2300,3303A,113.4922,22.8168,广州市,南沙黄阁,颗粒物(PM10),73,96,54,23,21,5,,108,58,98,67,7,9,1.2,0.7
2023-12-07T2300,3304A,113.5342,22.7896,广州市,南沙街,颗粒物(PM10),58,65,54,33,25,46,,118,80,57,58,5,9,0.6,0.7
2023-12-07T2300,3443A,113.2902,23.5544,广州市,花都梯面,,29,28,30,20,21,2,,92,39,50,31,5,10,0.6,0.6
2023-12-07T2300,3445A,113.7858,23.7478,广州市,从化良口,,22,22,16,13,10,34,,91,67,33,18,5,6,0.4,0.4
2023-12-07T2300,3446A,113.8051,23.2614,广州市,增城荔城,,34,34,23,22,14,40,,92,50,26,23,7,8,0.5,0.5
2023-12-07T2300,2505A,109.568,23.1478,贵港市,德智高中,,32,32,43,18,24,98,,106,103,19,24,15,8,0.6,0.7
2023-12-07T2300,2506A,109.6047,23.0666,贵港市,江南子站,颗粒物(PM10),87,124,101,58,50,18,,84,59,60,39,10,10,1.3,1.3
2023-12-07T2300,2507A,109.6014,23.0948,贵港市,贵城子站,颗粒物(PM10),56,62,55,39,38,43,,84,71,42,33,11,10,0.9,0.9
2023-12-07T2300,2508A,109.5669,23.1065,贵港市,荷城子站,颗粒物(PM10),58,66,54,39,30,22,,90,60,56,29,11,11,1.0,0.8
2023-12-07T2300,3405A,109.5886,23.1172,贵港市,新世纪学校,颗粒物(PM10),67,83,55,42,32,10,,93,54,60,30,9,9,1.1,0.8
2023-12-07T2300,1439A,106.6899,26.5998,贵阳市,马鞍山,,41,41,58,22,38,35,,87,61,27,25,6,7,0.7,0.7
2023-12-07T2300,1440A,106.6971,26.5694,贵阳市,市环保站,颗粒物(PM10),52,53,79,28,48,22,,55,40,63,45,19,18,0.5,0.6
2023-12-07T2300,1441A,106.6243,26.6266,贵阳市,鉴湖路,,39,39,74,17,38,80,,87,82,14,34,10,11,0.4,0.8
2023-12-07T2300,1442A,106.7487,26.6343,贵阳市,燕子冲,,46,46,70,29,45,28,,88,65,46,30,13,10,0.6,0.7
2023-12-07T2300,1443A,106.6555,26.4365,贵阳市,碧云窝,,,,68,,34,52,,96,87,11,18,10,10,0.4,0.6
2023-12-07T2300,1444A,106.694,26.5161,贵阳市,中院村,细颗粒物(PM2.5),83,110,86,61,50,7,,67,40,85,44,47,25,1.4,0.9
2023-12-07T2300,1445A,106.7109,26.6027,贵阳市,红边门,颗粒物(PM10),63,75,83,31,51,17,,69,43,65,44,17,19,0.9,0.8
2023-12-07T2300,1446A,106.7164,26.5699,贵阳市,新华路,颗粒物(PM10),62,73,80,29,44,21,,76,56,65,41,28,15,0.9,0.8
2023-12-07T2300,1447A,106.674,26.5424,贵阳市,太慈桥,颗粒物(PM10),57,63,63,24,34,21,,74,54,50,35,6,8,0.5,0.7
2023-12-07T2300,1862A,110.4144,25.3167,桂林市,电子科大尧山校区,,49,49,43,19,22,37,,95,70,13,9,6,11,0.5,0.5
2023-12-07T2300,1863A,110.2819,25.2697,桂林市,监测站,颗粒物(PM10),68,86,74,48,36,24,,89,53,39,36,12,11,0.7,0.7
2023-12-07T2300,1864A,110.3089,25.2708,桂林市,龙隐路小学,细颗粒物(PM2.5),59,66,51,42,34,15,,81,47,50,33,10,15,0.7,0.5
2023-12-07T2300,1865A,110.2869,25.2178,桂林市,八中,细颗粒物(PM2.5),88,106,60,65,39,5,,90,50,62,35,10,10,0.8,0.5
2023-12-07T2300,3403A,110.1764,25.2381,桂林市,创业大厦,细颗粒物(PM2.5),77,102,67,56,39,3,,79,45,66,39,43,21,0.6,0.5
2023-12-07T2300,3531A,110.296,25.1253,桂林市,旅游学院,细颗粒物(PM2.5),73,78,48,53,30,9,,96,59,45,27,10,10,0.8,0.6
2023-12-07T2300,2674A,100.2561,34.4714,果洛藏族自治州,玛沁县大武镇,颗粒物(PM10),51,52,34,27,34,43,,84,68,18,15,10,10,0.4,0.5
2023-12-07T2300,1129A,126.5422,45.755,哈尔滨市,岭北,,32,32,29,19,16,52,,64,49,25,18,7,8,1.2,1.1
2023-12-07T2300,1130A,126.561,45.8167,哈尔滨市,松北商大,,30,26,30,21,14,45,,50,30,27,26,9,10,0.6,0.5
2023-12-07T2300,1131A,126.979,45.5419,哈尔滨市,阿城会宁,,23,23,35,13,20,56,,59,47,17,19,8,9,0.3,0.4
2023-12-07T2300,1132A,126.599,45.7222,哈尔滨市,南岗学府路,,36,36,40,16,14,30,,54,34,48,28,43,12,0.5,0.5
2023-12-07T2300,1133A,126.689,45.7733,哈尔滨市,太平宏伟公园,颗粒物(PM10),60,69,25,12,9,24,,52,32,53,21,16,10,0.7,0.4
2023-12-07T2300,1134A,126.635,45.7667,哈尔滨市,道外承德广场,,34,34,28,17,13,53,,52,38,21,22,6,7,0.6,0.6
2023-12-07T2300,1135A,126.685,45.7319,哈尔滨市,香坊红旗大街,,33,33,34,20,22,51,,52,34,30,32,11,10,0.4,0.4
2023-12-07T2300,1136A,126.6411,45.7258,哈尔滨市,动力和平路,,33,33,32,20,19,56,,50,37,23,30,10,12,0.4,0.4
2023-12-07T2300,1137A,126.593,45.7478,哈尔滨市,道里建国路,,36,36,29,25,19,38,,54,33,37,23,27,8,2.9,0.9
2023-12-07T2300,1138A,126.615,45.61,哈尔滨市,平房东轻厂,,22,17,27,15,16,70,,61,61,9,24,3,4,0.5,0.6
2023-12-07T2300,1139A,126.595,45.9855,哈尔滨市,呼兰师专,,48,43,29,33,20,47,,63,49,27,20,6,6,0.7,0.6
2023-12-07T2300,1140A,126.6206,45.6842,哈尔滨市,省农科院,颗粒物(PM10),56,62,39,30,25,29,,49,24,52,36,15,12,0.8,0.7
2023-12-07T2300,2688A,93.5128,42.8172,哈密地区,地区监测站,颗粒物(PM10),113,176,116,49,34,6,,66,33,70,37,6,7,1.0,0.6
2023-12-07T2300,2689A,93.4961,42.8328,哈密地区,哈密师范学校,颗粒物(PM10),112,174,122,47,33,7,,64,31,65,38,8,9,0.9,0.4
2023-12-07T2300,2671A,100.9048,36.9639,海北藏族自治州,海晏县西海镇,,40,40,27,15,12,65,,83,80,6,4,14,14,0.5,0.5
2023-12-07T2300,3867A,102.0738,36.5056,海东地区,平安区公安北苑,,30,30,38,9,14,39,,72,65,8,26,8,15,0.5,0.7
2023-12-07T2300,1410A,110.3232,20.0574,海口市,海南大学,,38,38,29,20,16,106,,112,109,30,14,9,10,0.4,0.5
2023-12-07T2300,1411A,110.283,20.0053,海口市,秀英海南医院,,33,33,29,20,15,99,,118,116,33,17,8,10,0.6,0.6
2023-12-07T2300,1412A,110.338,19.9969,海口市,海南师范大学,,35,35,27,23,15,107,,115,114,22,15,8,8,0.5,0.6
2023-12-07T2300,1413A,110.33,20.0356,海口市,龙华路环保局宿舍,,37,35,28,21,15,116,,117,117,20,13,9,10,0.5,0.5
2023-12-07T2300,3539A,110.5111,19.9736,海口市,桂林洋子站,,36,34,21,20,12,113,,115,115,21,11,6,5,0.4,0.4
2023-12-07T2300,2673A,100.6188,36.2866,海南藏族自治州,共和县恰卜恰镇,,50,50,31,21,11,28,,74,,34,28,9,8,0.9,0.8
2023-12-07T2300,2676A,97.3731,37.3753,海西蒙古族藏族自治州,德令哈市,,32,32,27,6,10,52,,71,56,28,26,11,9,0.3,0.3
2023-12-07T2300,1048A,114.5302,36.6116,邯郸市,东污水处理厂,颗粒物(PM10),114,177,179,58,56,2,,38,14,73,58,9,9,1.0,1
2023-12-07T2300,1049A,114.4918,36.5713,邯郸市,矿院,"颗粒物(PM10),细颗粒物(PM2.5)",110,169,136,83,56,1,,30,12,73,60,9,6,1.1,1.1
2023-12-07T2300,1050A,114.484,36.6133,邯郸市,丛台公园,颗粒物(PM10),96,141,135,62,52,7,,46,24,78,56,10,10,0.9,1
2023-12-07T2300,3458A,114.7895,36.5593,邯郸市,香泉濮院小区,颗粒物(PM10),84,117,176,60,53,29,,57,46,42,30,14,12,0.4,0.3
2023-12-07T2300,3579A,114.50634,36.77178,邯郸市,永年区实验高中,颗粒物(PM10),98,146,152,54,79,4,,46,20,79,53,27,21,1.0,1
2023-12-07T2300,3580A,114.20016,36.44293,邯郸市,峰峰矿区临水派出所,颗粒物(PM10),73,95,112,34,31,75,,72,61,12,16,10,13,0.5,0.6
2023-12-07T2300,2634A,106.9893,33.1842,汉中市,汉川机床厂子校,颗粒物(PM10),62,73,145,41,53,37,,70,61,10,14,3,5,0.7,0.8
2023-12-07T2300,2635A,107.0154,33.0706,汉中市,市监测站,细颗粒物(PM2.5),180,171,179,136,90,12,,54,36,56,41,9,10,1.6,1.3
2023-12-07T2300,2636A,107.0089,33.1138,汉中市,鑫源开发区,细颗粒物(PM2.5),162,171,178,123,87,20,,60,44,66,35,21,11,1.7,1.4
2023-12-07T2300,2637A,107.007,33.0323,汉中市,南郑大河坎水厂,细颗粒物(PM2.5),145,154,165,111,76,18,,52,31,35,32,7,9,1.2,1.1
2023-12-07T2300,1223A,120.2072,30.2111,杭州市,滨江,颗粒物(PM10),63,76,95,37,41,64,,77,74,34,47,9,9,0.7,0.8
2023-12-07T2300,1224A,120.0633,30.2747,杭州市,西溪,颗粒物(PM10),58,66,67,31,30,12,,89,45,37,32,5,6,0.8,0.7
2023-12-07T2300,1226A,120.3461,30.3153,杭州市,下沙,颗粒物(PM10),68,85,114,36,45,56,,73,61,50,57,9,9,0.8,0.8
2023-12-07T2300,1227A,120.1269,30.2456,杭州市,卧龙桥,颗粒物(PM10),60,69,71,33,30,5,,73,31,48,34,5,7,0.8,0.8
2023-12-07T2300,1228A,120.1903,30.2692,杭州市,浙江农大,颗粒物(PM10),68,86,93,44,41,48,,70,58,43,47,9,9,0.5,0.6
2023-12-07T2300,1230A,120.1197,30.3119,杭州市,和睦小学,颗粒物(PM10),73,95,93,49,44,24,,68,38,69,56,5,5,0.9,0.8
2023-12-07T2300,1231A,120.3019,30.4183,杭州市,临平镇,颗粒物(PM10),74,98,127,40,42,33,,56,40,64,56,7,6,0.8,0.8
2023-12-07T2300,1232A,120.2697,30.1819,杭州市,城厢镇,颗粒物(PM10),61,71,94,37,49,51,,69,60,49,57,7,7,0.7,0.8
2023-12-07T2300,1233A,120.0883,30.1808,杭州市,云栖,颗粒物(PM10),79,108,82,36,29,24,,87,52,33,27,6,6,0.7,0.8
2023-12-07T2300,3557A,119.9464,30.0494,杭州市,镇二中,颗粒物(PM10),60,69,71,38,38,68,,81,72,32,40,7,6,0.6,0.6
2023-12-07T2300,3558A,119.7183,30.2367,杭州市,市府大楼,颗粒物(PM10),73,95,101,46,43,41,,93,46,43,41,6,6,0.6,0.6
2023-12-07T2300,3656A,120.1556,30.2864,杭州市,消防大队,颗粒物(PM10),72,93,95,48,40,30,,68,42,72,60,10,10,0.8,0.8
2023-12-07T2300,1270A,117.1959,31.7848,合肥市,明珠广场,颗粒物(PM10),65,80,108,46,48,47,,63,48,48,48,8,8,0.8,0.7
2023-12-07T2300,1271A,117.3072,31.8764,合肥市,三里街,颗粒物(PM10),70,90,126,44,47,38,,61,50,65,60,9,8,0.9,0.9
2023-12-07T2300,1272A,117.2588,31.8707,合肥市,琥珀山庄,颗粒物(PM10),64,78,107,41,41,66,,80,77,33,44,6,6,0.8,0.8
2023-12-07T2300,1273A,117.1604,31.9052,合肥市,董铺水库,颗粒物(PM10),67,83,123,39,38,104,,116,107,24,34,5,5,0.7,0.6
2023-12-07T2300,1274A,117.25,31.8571,合肥市,长江中路,细颗粒物(PM2.5),64,75,108,46,46,59,,68,66,35,39,10,9,0.9,0.8
2023-12-07T2300,1275A,117.266,31.9436,合肥市,庐阳区,颗粒物(PM10),64,78,118,36,41,66,,71,70,35,46,7,6,0.8,0.7
2023-12-07T2300,1276A,117.336,31.8586,合肥市,瑶海区,颗粒物(PM10),69,88,129,48,50,47,,77,62,45,46,4,3,0.8,0.7
2023-12-07T2300,1277A,117.3027,31.7964,合肥市,包河区,颗粒物(PM10),62,73,110,41,46,63,,83,78,40,46,6,6,0.7,0.6
2023-12-07T2300,1278A,117.2776,31.7385,合肥市,滨湖新区,颗粒物(PM10),63,75,114,44,45,68,,86,83,27,29,8,7,0.8,0.7
2023-12-07T2300,1279A,117.1318,31.8403,合肥市,高新区,颗粒物(PM10),63,75,113,38,39,69,,71,68,33,44,11,10,0.9,0.8
2023-12-07T2300,3464A,117.3803,31.9147,合肥市,高教基地,颗粒物(PM10),69,87,115,46,44,66,,85,79,31,36,7,5,0.7,0.6
2023-12-07T2300,3614A,79.924,37.0877,和田地区,地区环保局,,,140,287,,45,20,,75,63,36,30,16,13,1.0,0.8
2023-12-07T2300,3615A,79.9131,37.113,和田地区,市环保局,颗粒物(PM10),180,309,295,99,68,16,,57,44,138,56,25,15,7.9,4.2
2023-12-07T2300,2516A,108.2011,24.715,河池市,东仁乐园,颗粒物(PM10),51,51,44,34,31,13,,67,47,27,15,4,5,0.6,0.6
2023-12-07T2300,2517A,108.0497,24.6947,河池市,市环保站,颗粒物(PM10),67,83,54,47,31,9,,92,61,51,26,6,7,0.9,0.7
2023-12-07T2300,2518A,108.0983,24.6989,河池市,市疾控中心,颗粒物(PM10),70,89,69,38,35,6,,80,45,52,35,6,7,0.7,0.7
2023-12-07T2300,1696A,114.6778,23.7569,河源市,源西,,47,47,41,22,19,5,,79,31,56,33,4,6,0.7,0.6
2023-12-07T2300,1697A,114.6944,23.7586,河源市,东埔,颗粒物(PM10),58,66,45,26,21,3,,82,33,49,33,6,9,0.9,0.7
2023-12-07T2300,1698A,114.6892,23.7233,河源市,老城,,44,44,37,13,21,21,,87,56,36,24,5,6,0.5,0.6
2023-12-07T2300,1718A,115.4208,35.2464,菏泽市,气象局,颗粒物(PM10),77,104,179,30,44,54,,75,66,30,34,2,4,0.2,0.3
2023-12-07T2300,1719A,115.4747,35.2375,菏泽市,市政协,颗粒物(PM10),69,88,163,33,44,53,,72,65,31,34,1,4,0.3,0.4
2023-12-07T2300,3374A,115.5564,35.0891,菏泽市,定陶老年大学,颗粒物(PM10),60,70,135,19,32,54,,73,68,20,23,5,6,0.2,0.3
2023-12-07T2300,3647A,115.4702,35.2706,菏泽市,菏泽医专,颗粒物(PM10),74,97,163,23,33,56,,75,69,29,31,5,7,0.4,0.4
2023-12-07T2300,2514A,111.5264,24.4172,贺州市,环保小区,,,,49,,26,11,,86,59,47,28,,8,0.7,0.7
2023-12-07T2300,2515A,111.5608,24.4078,贺州市,政协大楼,颗粒物(PM10),67,83,62,46,32,19,,77,42,39,32,9,8,0.7,0.7
2023-12-07T2300,3534A,111.4744,24.4553,贺州市,西湾,细颗粒物(PM2.5),68,70,58,49,32,17,,92,51,32,30,7,7,0.7,0.8
2023-12-07T2300,2385A,114.17,35.9019,鹤壁市,市监测站,颗粒物(PM10),60,70,109,34,47,46,,67,56,35,40,4,6,0.6,0.7
2023-12-07T2300,2386A,114.2956,35.7511,鹤壁市,市交警支队,颗粒物(PM10),92,134,145,45,36,2,,70,49,76,47,18,16,0.5,0.4
2023-12-07T2300,2387A,114.2878,35.7306,鹤壁市,迎宾馆,颗粒物(PM10),89,127,150,46,36,1,,71,48,78,49,15,14,0.6,0.6
2023-12-07T2300,3474A,114.2617,35.6822,鹤壁市,大新区,颗粒物(PM10),90,129,158,45,44,4,,69,38,78,56,9,11,0.5,0.5
2023-12-07T2300,3596A,114.1572,35.9603,鹤壁市,南山宾馆,颗粒物(PM10),58,66,119,17,29,68,,75,69,24,27,11,11,0.5,0.5
2023-12-07T2300,2244A,130.2537,47.3416,鹤岗市,哈啤分公司,,39,39,33,19,16,48,,49,46,17,14,11,13,0.4,0.3
2023-12-07T2300,2245A,130.2684,47.3086,鹤岗市,斯达机电,,34,34,41,20,19,37,,45,39,23,21,10,13,0.2,0.2
2023-12-07T2300,2246A,130.3114,47.3388,鹤岗市,东山纸板厂,颗粒物(PM10),66,82,52,32,23,14,,46,35,37,25,17,17,0.7,0.5
2023-12-07T2300,2247A,130.1097,47.3382,鹤岗市,五号水库,,26,25,30,18,17,26,,50,34,21,13,8,10,0.4,0.3
2023-12-07T2300,2263A,127.4833,50.2524,黑河市,交通局,细颗粒物(PM2.5),55,44,26,39,20,28,,52,31,23,11,6,5,0.5,0.4
2023-12-07T2300,2264A,127.5144,50.2341,黑河市,环保局,,45,45,25,25,18,20,,46,37,25,10,6,6,0.5,0.2
2023-12-07T2300,2265A,127.5291,50.2472,黑河市,大黑河岛,细颗粒物(PM2.5),59,65,33,42,20,24,,46,32,23,11,9,7,0.7,0.5
2023-12-07T2300,1074A,115.6838,37.7541,衡水市,电机北厂,细颗粒物(PM2.5),129,192,165,98,57,0,,56,36,70,38,12,11,0.8,0.6
2023-12-07T2300,1075A,115.6303,37.7316,衡水市,市监测站,颗粒物(PM10),137,223,173,90,53,2,,55,32,71,45,7,12,0.8,0.5
2023-12-07T2300,3188A,115.6683,37.7217,衡水市,市城管局,细颗粒物(PM2.5),119,181,175,90,67,6,,53,36,63,43,10,10,0.9,0.6
2023-12-07T2300,3459A,115.5989,37.5491,衡水市,地表水厂,颗粒物(PM10),121,191,188,68,60,3,,55,23,64,43,11,10,0.7,0.6
2023-12-07T2300,2456A,112.5003,26.9167,衡阳市,原169医院,颗粒物(PM10),66,82,64,44,37,23,,81,55,56,34,24,9,0.7,0.6
2023-12-07T2300,2457A,112.6194,26.9258,衡阳市,衡阳化工总厂,细颗粒物(PM2.5),92,100,84,68,54,19,,94,67,55,36,11,15,0.8,0.8
2023-12-07T2300,2458A,112.6211,26.8956,衡阳市,珠晖区环保局,细颗粒物(PM2.5),93,105,84,69,59,16,,94,53,56,38,10,20,0.9,1
2023-12-07T2300,2459A,112.6197,26.8733,衡阳市,市委党校,细颗粒物(PM2.5),100,96,83,75,54,27,,107,70,54,32,8,15,0.9,0.9
2023-12-07T2300,2460A,112.6006,26.8919,衡阳市,市监测站,细颗粒物(PM2.5),117,124,94,88,63,2,,88,45,76,44,10,20,1.4,1.3
2023-12-07T2300,2461A,112.5664,26.9056,衡阳市,真空机电公司,细颗粒物(PM2.5),98,112,91,73,55,6,,84,49,81,48,10,23,1.4,1.4
2023-12-07T2300,3399A,112.6703,26.882,衡阳市,师范学院,细颗粒物(PM2.5),92,104,74,68,49,21,,102,62,40,30,10,15,1.0,0.9
2023-12-07T2300,2608A,103.3772,23.3993,红河州,污水处理厂,,42,32,38,29,29,58,,94,74,10,13,5,12,0.4,0.5
2023-12-07T2300,2609A,103.3861,23.35,红河州,监测站,,33,33,38,23,27,56,,86,69,11,17,8,12,0.5,0.5
2023-12-07T2300,3038A,103.3758,23.368,红河州,州图书馆,,38,32,35,26,22,54,,82,68,10,13,7,14,0.4,0.4
2023-12-07T2300,1090A,111.6507,40.7517,呼和浩特市,呼市一监,颗粒物(PM10),169,288,211,90,60,8,,48,23,58,47,12,9,1.3,0.8
2023-12-07T2300,1091A,111.6572,40.8033,呼和浩特市,小召,颗粒物(PM10),126,202,188,58,53,9,,40,21,72,61,22,23,1.2,1
2023-12-07T2300,1094A,111.7516,40.8369,呼和浩特市,如意水处理厂,颗粒物(PM10),113,176,164,52,51,2,,37,14,64,54,15,15,0.7,0.8
2023-12-07T2300,1095A,111.7276,40.8062,呼和浩特市,二十九中,颗粒物(PM10),132,213,186,64,52,5,,41,19,67,54,17,18,1.1,0.9
2023-12-07T2300,1096A,111.5512,40.7866,呼和浩特市,工大金川校区,颗粒物(PM10),112,174,184,52,50,2,,39,16,72,54,17,18,0.9,0.8
2023-12-07T2300,1097A,111.717,40.7612,呼和浩特市,化肥厂生活区,颗粒物(PM10),164,277,205,102,69,15,,38,23,65,52,20,15,1.5,0.8
2023-12-07T2300,3698A,111.5968,40.8178,呼和浩特市,红旗小学,颗粒物(PM10),115,180,181,56,49,4,,34,12,72,60,21,18,1.0,0.8
2023-12-07T2300,3699A,111.6518,40.8389,呼和浩特市,海东办,颗粒物(PM10),147,244,190,93,52,3,,30,13,79,61,21,17,1.9,1.1
2023-12-07T2300,2192A,119.7594,49.2261,呼伦贝尔市,区环保局,,33,33,25,8,15,66,,55,55,8,15,6,7,0.3,0.3
2023-12-07T2300,3061A,119.7512,49.1577,呼伦贝尔市,国华电力东,,21,17,19,13,15,67,,63,58,6,8,4,4,0.2,0.2
2023-12-07T2300,1250A,120.0751,30.8669,湖州市,城西水厂,颗粒物(PM10),71,92,139,36,40,5,,71,43,111,71,6,8,0.6,0.6
2023-12-07T2300,2873A,120.0875,30.8955,湖州市,仁皇山新区,颗粒物(PM10),76,101,142,46,45,9,,76,44,98,65,7,10,0.8,0.7
2023-12-07T2300,2907A,120.1844,30.8596,湖州市,吴兴区站,颗粒物(PM10),80,110,144,47,48,20,,79,50,85,61,8,8,0.6,0.7
2023-12-07T2300,3562A,120.4148,30.8538,湖州市,南浔区站,颗粒物(PM10),80,110,143,50,50,22,,61,41,78,58,8,9,0.7,0.6
2023-12-07T2300,1607A,120.9092,40.7136,葫芦岛市,龙港区,颗粒物(PM10),102,154,129,45,52,32,,24,24,36,53,13,84,0.7,1
2023-12-07T2300,1608A,120.8392,40.7514,葫芦岛市,化工街,细颗粒物(PM2.5),206,317,172,156,79,7,,22,10,63,57,31,84,3.0,1.7
2023-12-07T2300,1609A,120.8341,40.7073,葫芦岛市,新区,颗粒物(PM10),107,164,116,67,61,6,,25,12,68,62,12,53,1.4,1.4
2023-12-07T2300,1610A,120.8695,40.7677,葫芦岛市,东城区,细颗粒物(PM2.5),231,302,134,181,85,12,,22,13,57,53,20,44,4.1,1.9
2023-12-07T2300,2482A,109.5981,27.5721,怀化市,林科所,,42,42,41,16,23,30,,83,67,4,4,4,4,0.7,0.7
2023-12-07T2300,2483A,109.9453,27.5444,怀化市,河西地税局,,48,48,44,26,25,14,,79,46,25,19,4,5,0.4,0.4
2023-12-07T2300,2484A,109.9781,27.5342,怀化市,市四医院,"颗粒物(PM10),细颗粒物(PM2.5)",79,108,64,58,37,0,,85,37,50,30,9,9,1.2,0.7
2023-12-07T2300,2485A,109.9972,27.5578,怀化市,监测楼,细颗粒物(PM2.5),87,80,52,64,39,10,,80,36,37,30,5,9,0.8,0.7
2023-12-07T2300,2486A,110.0394,27.583,怀化市,市委党校,颗粒物(PM10),51,51,45,35,25,0,,75,37,40,27,9,8,0.7,0.5
2023-12-07T2300,1210A,119.036,33.5981,淮安市,钵池山,颗粒物(PM10),71,92,165,47,51,60,,83,71,30,35,12,11,0.6,0.5
2023-12-07T2300,1211A,119.007,33.575,淮安市,北京南路,颗粒物(PM10),70,90,166,45,53,55,,73,58,36,46,9,10,0.5,0.5
2023-12-07T2300,1212A,118.989,33.6067,淮安市,市监测站,颗粒物(PM10),71,92,172,48,54,49,,83,60,46,49,12,17,1.5,1.4
2023-12-07T2300,1213A,119.135,33.5039,淮安市,楚州区监测站,颗粒物(PM10),70,90,178,47,56,57,,84,74,28,38,8,8,0.6,0.7
2023-12-07T2300,1214A,119.0186,33.6297,淮安市,淮阴区监测站,颗粒物(PM10),71,92,184,42,49,64,,82,69,32,40,8,10,0.5,0.8
2023-12-07T2300,3426A,118.8755,33.2894,淮安市,新华书店,颗粒物(PM10),67,83,156,45,47,46,,83,63,43,45,11,11,0.6,0.6
2023-12-07T2300,2282A,116.8004,33.975,淮北市,监测站,颗粒物(PM10),79,108,158,46,53,73,,91,76,25,35,8,7,0.8,0.8
2023-12-07T2300,2283A,116.8091,33.9007,淮北市,烈山区政府,颗粒物(PM10),76,101,158,40,49,47,,82,63,43,40,7,8,0.5,0.5
2023-12-07T2300,3330A,116.8873,33.9836,淮北市,杜集区检察院,细颗粒物(PM2.5),57,57,142,40,51,63,,89,78,24,27,8,8,0.8,0.7
2023-12-07T2300,4017A,116.7923,33.9535,淮北市,市博物馆,颗粒物(PM10),75,100,152,45,55,69,,88,75,29,37,10,8,0.8,0.6
2023-12-07T2300,2277A,116.8305,32.7727,淮南市,潘集区政府,颗粒物(PM10),73,96,125,43,46,43,,92,75,37,31,8,9,0.6,0.5
2023-12-07T2300,2278A,117.0067,32.6524,淮南市,师范学院,颗粒物(PM10),67,84,117,29,38,65,,90,75,29,24,7,8,0.5,0.5
2023-12-07T2300,2279A,116.8569,32.5951,淮南市,谢家集区政府,颗粒物(PM10),59,68,117,39,35,33,,89,60,42,26,6,6,0.5,0.5
2023-12-07T2300,2280A,116.8281,32.633,淮南市,八公山区政府,颗粒物(PM10),72,94,109,43,32,48,,98,77,29,22,6,6,0.5,0.4
2023-12-07T2300,2281A,116.6325,32.6201,淮南市,焦岗湖风景区管理处,颗粒物(PM10),58,66,100,35,37,22,,84,65,39,22,2,2,0.2,0.2
2023-12-07T2300,2894A,117.0566,32.6531,淮南市,经济技术开发区消防队,颗粒物(PM10),63,75,120,29,39,60,,91,70,22,25,5,5,0.4,0.3
2023-12-07T2300,3329A,117.0108,32.5893,淮南市,山南新区,颗粒物(PM10),73,95,144,43,48,65,,91,72,21,22,6,6,0.5,0.5
2023-12-07T2300,2446A,114.9028,30.4742,黄冈市,职工中心,细颗粒物(PM2.5),87,96,119,64,58,35,,62,43,32,37,12,15,0.9,0.9
2023-12-07T2300,2929A,114.8858,30.4519,黄冈市,红卫路,细颗粒物(PM2.5),85,100,116,63,60,34,,62,48,39,42,8,11,0.9,0.9
2023-12-07T2300,3398A,114.9136,30.4445,黄冈市,市林业局,细颗粒物(PM2.5),83,88,104,61,57,27,,61,43,42,46,6,10,0.8,0.8
2023-12-07T2300,2672A,102.0199,35.5102,黄南藏族自治州,同仁县隆务镇,,36,36,35,13,16,54,,67,,7,12,11,12,0.2,0.4
2023-12-07T2300,2295A,118.2903,29.6963,黄山市,延安路89号,颗粒物(PM10),52,54,64,30,34,19,,85,69,27,16,5,5,0.4,0.5
2023-12-07T2300,2296A,118.327,29.7178,黄山市,黄山东路89号,细颗粒物(PM2.5),65,76,72,47,38,6,,60,36,33,25,4,5,0.6,0.7
2023-12-07T2300,2297A,118.1371,30.2756,黄山市,黄山区政府5号楼,细颗粒物(PM2.5),89,101,71,66,32,33,,106,82,20,13,4,4,0.7,0.4
2023-12-07T2300,2423A,115.0601,30.2313,黄石市,沈家营,细颗粒物(PM2.5),84,112,115,62,61,5,,50,28,65,60,9,19,1.2,1.1
2023-12-07T2300,2424A,115.0817,30.2006,黄石市,陈家湾,细颗粒物(PM2.5),93,93,96,69,61,7,,39,26,68,59,10,15,1.3,1.3
2023-12-07T2300,2426A,114.8988,30.2019,黄石市,铁山,细颗粒物(PM2.5),80,93,87,59,49,16,,82,40,56,40,15,13,1.0,0.9
2023-12-07T2300,2427A,115.0307,30.2092,黄石市,团城山,细颗粒物(PM2.5),93,122,129,69,66,5,,46,27,74,67,17,20,1.4,1.3
2023-12-07T2300,3149A,115.0235,30.1578,黄石市,笔架山北路,细颗粒物(PM2.5),92,95,111,68,64,13,,59,37,62,56,16,17,1.1,1.1
2023-12-07T2300,1392A,114.4183,23.0528,惠州市,河南岸金山湖子站,颗粒物(PM10),56,61,35,28,19,8,,86,42,54,24,5,7,1.0,0.9
2023-12-07T2300,1393A,114.4053,23.0822,惠州市,下埔横江三路子站,颗粒物(PM10),62,74,36,34,20,6,,92,42,68,29,8,10,1.2,0.7
2023-12-07T2300,1394A,114.4103,23.1142,惠州市,江北云山西路子站,颗粒物(PM10),68,86,35,35,17,1,,94,49,76,28,9,9,1.0,0.6
2023-12-07T2300,1395A,114.4645,22.7833,惠州市,惠阳区承修路船湖子站,颗粒物(PM10),74,98,40,40,19,4,,89,64,66,24,8,9,1.1,0.6
2023-12-07T2300,1396A,114.5317,22.7422,惠州市,大亚湾管委会子站,,43,43,32,14,14,11,,90,49,80,33,7,7,0.8,0.7
2023-12-07T2300,3314A,114.4338,22.8134,惠州市,惠阳秋长,颗粒物(PM10),57,63,48,26,22,24,,100,58,50,24,7,7,1.1,0.8
2023-12-07T2300,3452A,114.6517,22.775,惠州市,大亚湾霞涌,,44,44,32,17,12,37,,93,69,48,17,7,7,0.5,0.5
2023-12-07T2300,2240A,130.9762,45.3001,鸡西市,环保局,,17,17,19,10,9,30,,54,44,24,10,4,4,0,0.2
2023-12-07T2300,2243A,130.9429,45.3039,鸡西市,第一中学,,16,12,21,9,7,50,,65,53,10,8,6,6,0.1,0.1
2023-12-07T2300,3707A,131.0207,45.3073,鸡西市,欧美日汽修厂,,20,20,26,13,11,25,,50,40,34,22,40,34,1.3,0.7
2023-12-07T2300,3709A,130.9967,45.3106,鸡西市,市政设施管理处,,23,18,26,16,10,18,,56,43,36,22,2,2,0.4,0.4
2023-12-07T2300,2367A,114.9754,27.0803,吉安市,红声器材厂,颗粒物(PM10),56,61,51,34,29,45,,78,64,31,32,18,18,0.7,0.8
2023-12-07T2300,2368A,114.9658,27.0999,吉安市,市森林工业局,颗粒物(PM10),60,70,53,42,33,13,,72,45,56,35,14,14,0.8,0.6
2023-12-07T2300,2369A,114.99,27.1312,吉安市,市环境监测站,颗粒物(PM10),59,67,56,32,32,43,,82,56,28,33,14,13,0.8,0.8
2023-12-07T2300,2370A,115.0093,27.0968,吉安市,青原区法院,颗粒物(PM10),57,63,52,35,30,13,,78,40,54,35,13,14,0.8,0.8
2023-12-07T2300,1772A,126.54,43.8622,吉林市,哈达湾,,20,19,21,8,9,64,,62,55,7,13,9,9,0.5,0.5
2023-12-07T2300,1773A,126.5844,43.8358,吉林市,东局子,,21,19,23,10,13,66,,58,56,10,21,6,6,0.6,0.6
2023-12-07T2300,1774A,126.5052,43.8245,吉林市,电力学院,细颗粒物(PM2.5),59,64,47,42,24,20,,59,28,45,27,12,11,1.2,0.8
2023-12-07T2300,1775A,126.6133,43.8972,吉林市,江北,,34,34,29,21,16,42,,59,38,22,30,10,11,1.0,0.8
2023-12-07T2300,1776A,126.555,43.8306,吉林市,江南公园,,21,21,21,11,12,62,,60,51,10,20,7,8,0.5,0.5
2023-12-07T2300,1778A,126.7061,43.7133,吉林市,丰满,,22,16,15,9,8,68,,68,67,5,6,9,11,0.5,0.5
2023-12-07T2300,2868A,126.4739,43.953,吉林市,九站,,40,40,29,24,18,20,,59,23,47,30,17,8,0.8,0.7
2023-12-07T2300,1299A,116.9862,36.6114,济南市,科干所,颗粒物(PM10),87,124,159,34,34,80,,88,86,16,14,9,9,0.7,0.6
2023-12-07T2300,1300A,116.9376,36.665,济南市,农科所,颗粒物(PM10),90,129,176,29,34,60,,66,65,33,32,8,8,0.4,0.5
2023-12-07T2300,1301A,117.1265,36.6734,济南市,开发区,颗粒物(PM10),79,107,140,29,31,70,,84,78,22,22,9,8,0.4,0.3
2023-12-07T2300,1303A,117.0624,36.6868,济南市,省种子仓库,颗粒物(PM10),85,119,152,31,29,72,,82,78,20,23,8,8,0.5,0.5
2023-12-07T2300,1304A,116.9489,36.6447,济南市,机床二厂,颗粒物(PM10),91,132,184,32,42,66,,66,66,36,41,10,10,0.7,0.7
2023-12-07T2300,1305A,117.0495,36.663,济南市,市监测站,颗粒物(PM10),81,112,146,32,32,80,,87,84,19,21,12,12,0.5,0.5
2023-12-07T2300,1306A,116.7675,36.5484,济南市,长清党校,颗粒物(PM10),96,142,197,44,47,67,,76,74,30,32,12,12,0.5,0.5
2023-12-07T2300,1616A,117.6795,36.229,济南市,技术学院,颗粒物(PM10),107,163,246,68,72,20,,71,38,84,63,20,17,1.3,0.9
2023-12-07T2300,1961A,117.532,36.6868,济南市,东山小学,颗粒物(PM10),99,147,194,44,43,78,,84,80,28,30,12,12,0.7,0.7
2023-12-07T2300,3059A,117.7161,36.2049,济南市,泰兴公司,颗粒物(PM10),112,173,240,75,72,3,,57,21,96,68,18,14,1.6,1.1
2023-12-07T2300,3064A,117.6867,36.2171,济南市,莱芜战役纪念馆,颗粒物(PM10),123,195,237,88,71,8,,59,30,102,75,19,17,1.4,1
2023-12-07T2300,3494A,117.1673,36.9782,济南市,济阳区政府,颗粒物(PM10),94,137,199,29,44,53,,61,45,39,51,7,7,0.5,0.6
2023-12-07T2300,3495A,117.1171,36.63,济南市,锦屏中学,颗粒物(PM10),83,115,147,29,28,83,,93,89,17,16,10,9,0.4,0.4
2023-12-07T2300,3682A,116.9814,36.6819,济南市,济南四建,颗粒物(PM10),91,132,173,34,45,67,,74,72,26,26,10,10,0.5,0.4
2023-12-07T2300,1653A,116.6251,35.4302,济宁市,火炬城,颗粒物(PM10),76,102,167,31,45,42,,65,60,35,42,7,9,0.6,0.7
2023-12-07T2300,1655A,116.5491,35.4042,济宁市,电化厂,颗粒物(PM10),93,135,187,36,50,30,,63,53,51,38,9,11,0.6,0.6
2023-12-07T2300,3500A,116.5814,35.3707,济宁市,北湖一中,颗粒物(PM10),75,100,167,34,48,48,,67,61,26,33,6,11,0.5,0.2
2023-12-07T2300,3501A,116.8249,35.5593,济宁市,服务中心,颗粒物(PM10),94,138,210,38,54,40,,60,52,35,43,7,8,0.4,0.4
2023-12-07T2300,3678A,116.5907,35.4054,济宁市,市第七中学,颗粒物(PM10),78,106,169,19,46,49,,69,63,28,37,7,9,0.5,0.6
2023-12-07T2300,2255A,130.2751,46.8028,佳木斯市,佳纺,,28,24,30,19,18,44,,56,36,14,14,6,6,0.4,0.4
2023-12-07T2300,2256A,130.3995,46.8307,佳木斯市,发电厂,,19,18,26,13,14,44,,59,44,14,13,3,6,0.4,0.4
2023-12-07T2300,2257A,130.3258,46.7975,佳木斯市,环保局,,29,23,28,20,13,38,,52,31,20,17,5,6,0.3,0.4
2023-12-07T2300,2258A,130.3648,46.8032,佳木斯市,十一中,,21,21,27,11,13,37,,50,34,20,16,5,6,0.4,0.4
2023-12-07T2300,2259A,130.3794,46.7588,佳木斯市,四丰,,17,17,19,10,8,46,,54,46,8,9,1,3,0.5,0.5
2023-12-07T2300,1252A,120.7436,30.778,嘉兴市,清河小学,颗粒物(PM10),78,106,147,46,48,37,,73,55,60,57,9,10,0.5,0.4
2023-12-07T2300,1253A,120.726,30.7478,嘉兴市,嘉兴学院,颗粒物(PM10),83,116,151,52,52,12,,75,50,85,59,8,9,0.7,0.7
2023-12-07T2300,2872A,120.7846,30.7525,嘉兴市,南湖区残联,颗粒物(PM10),79,107,150,45,54,53,,82,65,49,62,8,9,0.7,0.8
2023-12-07T2300,3407A,120.6916,30.7739,嘉兴市,秀洲住建,颗粒物(PM10),82,114,141,56,51,11,,68,46,92,61,10,10,1.0,0.9
2023-12-07T2300,1945A,98.2908,39.7711,嘉峪关市,气象局,,48,48,56,17,14,18,,80,48,72,27,11,12,0.8,0.7
2023-12-07T2300,2884A,98.2672,39.7978,嘉峪关市,酒钢宾馆,颗粒物(PM10),54,58,59,17,14,28,,75,58,49,19,14,15,0.3,0.5
2023-12-07T2300,3248A,98.2643,39.7724,嘉峪关市,雄关区,颗粒物(PM10),52,53,46,23,16,13,,76,45,54,23,7,10,0.3,0.4
2023-12-07T2300,1383A,113.1064,22.6058,江门市,北街,颗粒物(PM10),66,82,48,44,26,5,,88,52,98,59,8,11,2.1,0.8
2023-12-07T2300,1384A,113.0731,22.5835,江门市,西区,颗粒物(PM10),77,103,53,23,19,3,,87,41,93,56,9,11,1.1,0.8
2023-12-07T2300,1385A,113.0219,22.5311,江门市,圭峰西,颗粒物(PM10),55,60,39,34,22,31,,88,68,60,34,5,8,1.0,0.6
2023-12-07T2300,1386A,113.0828,22.5947,江门市,东湖,颗粒物(PM10),69,88,48,23,14,5,,85,45,92,55,6,9,1.4,0.8
2023-12-07T2300,3311A,113.1075,22.5647,江门市,江海富民,颗粒物(PM10),90,130,55,45,23,4,,84,44,112,64,10,12,1.4,0.9
2023-12-07T2300,3449A,113.05,22.4667,江门市,新会银湖,细颗粒物(PM2.5),57,54,47,40,26,15,,88,45,50,49,9,12,0.8,0.7
2023-12-07T2300,1828A,113.227,35.2125,焦作市,市环保局,颗粒物(PM10),111,172,167,81,64,4,,58,22,77,58,36,24,1.2,0.7
2023-12-07T2300,3169A,113.2725,35.2067,焦作市,太极体育中心,颗粒物(PM10),112,173,171,54,47,5,,63,28,81,53,53,25,1.1,0.7
2023-12-07T2300,3335A,113.3137,35.2641,焦作市,马村街道办,颗粒物(PM10),95,139,171,57,78,8,,59,25,65,59,12,14,1.3,0.9
2023-12-07T2300,3336A,113.2465,35.2373,焦作市,焦作技师学院,颗粒物(PM10),82,114,168,46,57,4,,58,20,80,63,16,16,1.1,0.7
2023-12-07T2300,3477A,113.1656,35.2539,焦作市,中站许衡医院,颗粒物(PM10),57,64,130,30,38,35,,60,45,45,40,12,16,0.7,0.8
2023-12-07T2300,3981A,113.2449,35.1803,焦作市,原李万街道办,颗粒物(PM10),106,162,167,58,56,13,,64,28,67,49,52,27,1.0,0.6
2023-12-07T2300,1708A,116.3701,23.5345,揭阳市,新兴,颗粒物(PM10),64,78,44,43,19,80,,100,88,38,26,12,12,0.7,0.6
2023-12-07T2300,1709A,116.3264,23.5443,揭阳市,西马,细颗粒物(PM2.5),98,110,46,73,22,53,,100,87,56,25,14,11,1.0,0.6
2023-12-07T2300,1710A,116.3611,23.5626,揭阳市,东兴,颗粒物(PM10),67,83,49,42,18,72,,101,91,51,28,15,12,0.9,0.7
2023-12-07T2300,1711A,116.4151,23.5294,揭阳市,渔湖,颗粒物(PM10),79,108,58,54,25,48,,106,82,66,33,9,10,0.8,0.6
2023-12-07T2300,3320A,116.403,23.5699,揭阳市,曲溪,,,93,50,45,24,57,,107,94,48,34,,6,0.9,0.7
2023-12-07T2300,1944A,102.1692,38.5167,金昌市,天庆家园,颗粒物(PM10),72,93,60,34,20,44,,83,63,35,28,32,14,1.0,0.7
2023-12-07T2300,3170A,102.1864,38.5253,金昌市,市委党校,颗粒物(PM10),85,119,67,35,26,49,,85,67,30,30,28,27,0.8,0.7
2023-12-07T2300,4022A,102.1647,38.5371,金昌市,金川区人防中心,颗粒物(PM10),86,122,68,32,18,26,,83,66,51,18,41,14,1.1,0.6
2023-12-07T2300,1262A,119.647,29.077,金华市,十五中,颗粒物(PM10),71,91,86,46,46,10,,82,33,68,55,6,10,1.0,1.1
2023-12-07T2300,1263A,119.686,29.1029,金华市,监测站,颗粒物(PM10),67,84,70,37,42,17,,80,35,70,54,7,10,0.6,0.7
2023-12-07T2300,3659A,119.656,29.1131,金华市,气象局,颗粒物(PM10),77,103,87,41,47,5,,81,28,78,56,3,9,1.0,1.1
2023-12-07T2300,1767A,121.1115,41.0879,锦州市,南山,颗粒物(PM10),96,142,111,54,51,6,,28,8,67,52,10,38,0.7,0.9
2023-12-07T2300,1768A,121.0533,40.8434,锦州市,开发区,颗粒物(PM10),119,187,110,51,46,10,,24,7,69,57,19,43,0.8,1.2
2023-12-07T2300,1769A,121.1836,41.1119,锦州市,百股街道,颗粒物(PM10),94,138,113,51,53,25,,27,12,41,50,10,30,0.7,1
2023-12-07T2300,1770A,121.1178,41.1222,锦州市,天安街道,颗粒物(PM10),115,180,120,57,43,5,,24,10,66,54,10,27,1.2,1
2023-12-07T2300,1771A,121.1303,41.1386,锦州市,北湖公园,颗粒物(PM10),108,165,105,71,52,6,,26,9,64,46,8,25,1.4,1
2023-12-07T2300,2160A,112.85,35.5051,晋城市,自来水公司,颗粒物(PM10),75,99,151,39,46,6,,48,21,77,56,17,15,1.1,1.5
2023-12-07T2300,2161A,112.8318,35.4936,晋城市,白云商贸,颗粒物(PM10),85,119,155,44,46,7,,53,24,70,56,9,10,1.8,1.4
2023-12-07T2300,2162A,112.8508,35.4887,晋城市,市环保局,颗粒物(PM10),86,121,160,41,48,6,,51,26,71,57,14,13,1.2,1.5
2023-12-07T2300,2163A,112.8676,35.4897,晋城市,技术学院,颗粒物(PM10),90,129,159,31,42,6,,58,31,81,61,13,13,1.1,1.4
2023-12-07T2300,3620A,112.8271,35.4828,晋城市,泽州一中,颗粒物(PM10),73,95,145,29,40,11,,52,34,79,53,12,12,1.2,1.3
2023-12-07T2300,2171A,112.7532,37.6945,晋中市,锦纶小区,颗粒物(PM10),139,227,193,75,49,16,,63,43,69,50,25,16,1.2,0.8
2023-12-07T2300,2173A,112.7249,37.7067,晋中市,南都小区,颗粒物(PM10),132,214,169,72,42,12,,61,42,75,53,36,22,1.3,0.9
2023-12-07T2300,2174A,112.6991,37.6982,晋中市,榆次区政府,颗粒物(PM10),124,198,160,57,48,14,,61,41,71,53,33,21,1.5,1.1
2023-12-07T2300,2865A,112.7195,37.6828,晋中市,榆次三中,颗粒物(PM10),139,227,200,70,47,14,,60,42,68,51,34,23,1.4,1
2023-12-07T2300,2439A,112.2014,31.0481,荆门市,竹园小学,细颗粒物(PM2.5),72,89,103,52,58,66,,87,82,21,29,8,9,0.6,0.6
2023-12-07T2300,2440A,112.1969,30.9891,荆门市,掇刀,细颗粒物(PM2.5),72,90,99,52,57,62,,92,80,26,26,10,10,0.6,0.6
2023-12-07T2300,2441A,112.2213,31.0386,荆门市,石化一小,细颗粒物(PM2.5),78,100,110,57,60,62,,94,86,28,29,11,12,0.5,0.6
2023-12-07T2300,3012A,112.1849,31.0362,荆门市,西山林语,细颗粒物(PM2.5),69,79,84,50,50,71,,92,86,22,25,8,8,0.6,0.6
2023-12-07T2300,3547A,112.1632,31.0138,荆门市,龙泉中学南校,细颗粒物(PM2.5),80,89,104,59,62,61,,86,76,25,27,9,10,0.6,0.5
2023-12-07T2300,1844A,112.2494,30.3197,荆州市,市图书馆,细颗粒物(PM2.5),77,85,95,56,63,62,,85,75,20,27,8,10,0.6,0.6
2023-12-07T2300,1845A,112.2008,30.3544,荆州市,市委党校,颗粒物(PM10),63,75,91,40,61,54,,89,75,33,29,7,9,0.6,0.7
2023-12-07T2300,3194A,112.2747,30.3122,荆州市,管委会,细颗粒物(PM2.5),82,85,87,60,59,66,,89,76,26,28,11,11,0.8,0.7
2023-12-07T2300,3548A,112.1655,30.3364,荆州市,学苑路,细颗粒物(PM2.5),70,85,105,51,69,48,,86,73,29,24,7,7,0.8,0.9
2023-12-07T2300,2343A,117.2117,29.2933,景德镇市,老干部活动中心,,,76,63,58,29,3,,51,32,54,32,,3,0.7,0.9
2023-12-07T2300,2344A,117.1894,29.2789,景德镇市,兽医站,颗粒物(PM10),77,103,73,47,41,14,,60,38,42,33,7,12,0.9,1
2023-12-07T2300,2345A,117.1547,29.2617,景德镇市,台达陶瓷,颗粒物(PM10),70,89,76,49,44,6,,59,29,52,40,11,18,1.0,1.2
2023-12-07T2300,2346A,117.2461,29.2956,景德镇市,陶研所,细颗粒物(PM2.5),57,60,58,40,35,8,,51,29,37,35,4,11,0.8,1
2023-12-07T2300,1803A,115.9872,29.6815,九江市,十里,细颗粒物(PM2.5),92,109,82,68,49,10,,34,18,53,46,9,9,1.2,1.1
2023-12-07T2300,1804A,115.9584,29.7046,九江市,茅山头,细颗粒物(PM2.5),120,129,76,91,51,7,,44,22,80,52,14,14,2.3,1.3
2023-12-07T2300,1805A,115.9877,29.7295,九江市,西园,细颗粒物(PM2.5),85,93,77,63,51,13,,20,19,67,49,11,10,1.2,1.1
2023-12-07T2300,1806A,116.0172,29.6547,九江市,五七二七厂,颗粒物(PM10),53,55,65,33,45,72,,52,52,20,33,12,11,0.8,1
2023-12-07T2300,1808A,115.9114,29.6038,九江市,综合工业园,细颗粒物(PM2.5),74,77,67,54,55,36,,50,38,54,44,14,13,0.9,1
2023-12-07T2300,1809A,116.0721,29.7535,九江市,石化总厂,细颗粒物(PM2.5),72,76,77,52,46,40,,46,43,41,40,15,16,0.8,0.8
2023-12-07T2300,1810A,115.9773,29.5698,九江市,庐山气象台,,30,26,43,11,18,96,,95,95,1,2,7,7,0.6,0.7
2023-12-07T2300,3190A,116.0254,29.6994,九江市,外国语学校,细颗粒物(PM2.5),70,72,73,51,53,33,,40,39,55,40,17,23,1.3,1.3
2023-12-07T2300,2658A,98.5061,39.7443,酒泉市,仓门街子站,颗粒物(PM10),69,88,100,35,24,14,,78,42,50,30,7,9,0.7,0.7
2023-12-07T2300,2659A,98.4989,39.7256,酒泉市,油田生活基地,颗粒物(PM10),63,75,98,38,30,25,,68,47,40,33,8,10,0.6,0.6
2023-12-07T2300,2698A,76.0072,39.4467,喀什地区,巡警大队,颗粒物(PM10),209,356,209,153,71,15,,54,44,95,63,41,11,6.2,2.2
2023-12-07T2300,2699A,75.9755,39.4694,喀什地区,吾办,细颗粒物(PM2.5),238,362,226,188,102,18,,37,33,97,69,31,9,6.9,2.7
2023-12-07T2300,4027A,75.9483,39.4689,喀什地区,老干局,细颗粒物(PM2.5),287,401,302,237,143,25,,46,44,91,65,32,13,5.4,3.6
2023-12-07T2300,1824A,114.3389,34.7781,开封市,肿瘤医院,颗粒物(PM10),80,110,154,38,47,23,,57,41,42,37,6,5,0.4,0.2
2023-12-07T2300,1826A,114.2885,34.7965,开封市,世纪星幼儿园,颗粒物(PM10),77,103,146,43,50,24,,57,43,51,47,5,5,0.6,0.6
2023-12-07T2300,3147A,114.3438,34.8106,开封市,龙亭公园,颗粒物(PM10),78,106,154,41,51,34,,66,53,32,38,5,4,0.6,0.7
2023-12-07T2300,3210A,114.3644,34.7964,开封市,汴京公园,颗粒物(PM10),77,104,152,39,60,26,,50,41,39,45,5,5,0.4,0.5
2023-12-07T2300,3473A,114.2485,34.8306,开封市,技师学院,颗粒物(PM10),83,116,154,41,48,41,,67,55,30,35,9,9,0.3,0.3
2023-12-07T2300,3592A,114.4644,34.7556,开封市,祥符区生态环境局,颗粒物(PM10),92,133,160,43,48,38,,60,45,42,52,4,4,0.5,0.5
2023-12-07T2300,1951A,84.895,45.6094,克拉玛依市,长征新村,,18,,20,10,9,55,,58,58,5,10,10,10,0.2,0.3
2023-12-07T2300,1952A,84.8988,45.5893,克拉玛依市,南林小区,,15,8,19,7,9,48,,60,58,14,12,2,2,0.4,0.4
2023-12-07T2300,1954A,84.905,44.3396,克拉玛依市,独山子区,,28,21,44,19,28,44,,44,43,11,27,5,5,0.4,0.6
2023-12-07T2300,1955A,85.6979,46.098,克拉玛依市,乌尔禾区商贸楼,,21,21,25,1,9,47,,60,58,9,14,8,9,0.3,0.3
2023-12-07T2300,3612A,85.1045,45.6899,克拉玛依市,白碱滩区新站,,20,,18,6,9,61,,64,64,7,13,9,10,0.2,0.3
2023-12-07T2300,2697A,76.1454,39.7142,克孜勒苏柯尔克孜自治州,市人民政府,颗粒物(PM10),68,85,85,25,37,26,,68,54,25,19,6,4,0.6,0.6
2023-12-07T2300,3665A,76.1658,39.7157,克孜勒苏柯尔克孜自治州,克州文化中心,颗粒物(PM10),63,76,120,19,51,28,,64,44,32,33,9,9,0.6,1
2023-12-07T2300,1450A,102.8204,24.8886,昆明市,呈贡新区,,46,,31,32,26,32,,67,46,34,26,9,7,0.8,0.7
2023-12-07T2300,1452A,102.7252,25.0902,昆明市,龙泉镇,,34,34,28,12,19,20,,60,42,44,28,14,10,1.1,0.8
2023-12-07T2300,1453A,102.7266,25.0375,昆明市,东风东路,颗粒物(PM10),54,57,40,29,20,23,,59,39,42,33,22,12,1.0,0.7
2023-12-07T2300,1454A,102.6742,25.0669,昆明市,金鼎山,颗粒物(PM10),53,56,37,33,18,26,,67,42,44,29,11,6,1.0,0.7
2023-12-07T2300,1455A,102.6644,25.0401,昆明市,碧鸡广场,颗粒物(PM10),54,58,36,34,20,10,,62,37,61,30,20,12,0.9,0.6
2023-12-07T2300,3179A,102.7494,25.0119,昆明市,官渡区博物馆,,48,47,39,33,23,31,,64,41,37,39,13,10,0.7,0.6
2023-12-07T2300,3375A,102.8017,24.8336,昆明市,青年创业园,颗粒物(PM10),51,51,30,32,17,48,,74,60,20,21,13,11,1.1,0.6
2023-12-07T2300,3550A,102.7997,24.9786,昆明市,昆明学院,颗粒物(PM10),51,52,49,32,26,42,,61,47,25,32,15,13,0.7,0.5
2023-12-07T2300,3551A,102.5967,24.6736,昆明市,晋宁区生态环境分局,,46,46,37,31,28,48,,59,53,12,24,2,2,0.9,0.9
2023-12-07T2300,3552A,102.6678,24.9856,昆明市,云天化总部,颗粒物(PM10),51,51,35,31,18,46,,66,46,28,25,16,11,0.9,0.7
2023-12-07T2300,1456A,91.1319,29.6514,拉萨市,八廓街,,48,48,34,26,18,46,,84,65,42,23,4,3,0.9,0.6
2023-12-07T2300,1457A,91.1221,29.6747,拉萨市,市环保局,细颗粒物(PM2.5),70,80,43,51,24,32,,76,51,50,30,10,7,1.6,0.9
2023-12-07T2300,1458A,91.0874,29.6475,拉萨市,区监测站,颗粒物(PM10),51,51,28,31,15,40,,78,58,55,35,7,6,0.7,0.5
2023-12-07T2300,1459A,91.1774,29.6541,拉萨市,西藏大学,,24,22,27,9,13,76,,84,72,10,16,6,6,0.5,0.6
2023-12-07T2300,1460A,90.9798,29.6588,拉萨市,区辐射站,,38,36,36,26,22,73,,68,52,23,34,6,7,0.7,0.7
2023-12-07T2300,1461A,91.0834,29.6292,拉萨市,拉萨火车站,,44,44,30,25,16,49,,78,68,48,33,6,6,0.9,0.9
2023-12-07T2300,2520A,109.2203,23.7256,来宾市,来宾技工学校,颗粒物(PM10),67,83,59,28,30,8,,98,69,56,27,8,12,0.9,0.8
2023-12-07T2300,3535A,109.1781,23.7297,来宾市,兴宾区政府,颗粒物(PM10),60,70,47,37,26,51,,98,81,23,16,9,8,0.7,0.7
2023-12-07T2300,4002A,109.2416,23.7461,来宾市,中南小学,颗粒物(PM10),69,87,71,38,39,7,,93,57,60,34,11,11,0.9,0.9
2023-12-07T2300,1476A,103.631,36.1031,兰州市,兰炼宾馆,颗粒物(PM10),82,114,123,53,52,2,,36,19,73,77,23,17,1.4,1.9
2023-12-07T2300,1478A,103.8412,36.0726,兰州市,生物制品所,颗粒物(PM10),87,124,129,42,45,1,,23,14,67,74,11,14,1.2,1.9
2023-12-07T2300,1479A,103.831,36.0464,兰州市,铁路设计院,细颗粒物(PM2.5),82,107,137,60,57,6,,20,16,90,94,37,28,3.1,3
2023-12-07T2300,3186A,103.7158,36.1058,兰州市,教育港,颗粒物(PM10),68,86,94,39,40,3,,42,26,63,68,15,21,1.5,2.1
2023-12-07T2300,3241A,103.7439,36.0842,兰州市,百合公园,颗粒物(PM10),85,120,141,50,50,5,,24,,76,81,7,13,1.9,2.7
2023-12-07T2300,3242A,103.9611,35.998,兰州市,和平,细颗粒物(PM2.5),52,42,89,36,50,20,,54,46,62,57,8,26,0.7,1.8
2023-12-07T2300,3245A,103.6633,36.533,兰州新区,新区管委会,颗粒物(PM10),63,76,63,40,26,5,,61,46,54,26,17,11,0.8,0.5
2023-12-07T2300,3246A,103.6975,36.4789,兰州新区,舟曲中学,,37,37,72,10,20,57,,76,70,21,28,12,12,0.3,0.5
2023-12-07T2300,1067A,116.6708,39.5111,廊坊市,药材公司,颗粒物(PM10),177,304,277,86,91,2,,18,6,82,67,12,10,1.7,1.1
2023-12-07T2300,1068A,116.7214,39.5589,廊坊市,开发区,颗粒物(PM10),157,263,268,93,84,0,,12,1,88,70,9,8,1.5,0.9
2023-12-07T2300,1070A,116.7244,39.5269,廊坊市,北华航天学院,颗粒物(PM10),165,279,274,89,84,0,,16,2,88,71,17,14,1.6,1
2023-12-07T2300,2919A,116.7022,39.5453,廊坊市,河北工业大学,颗粒物(PM10),166,282,275,95,92,0,,13,1,80,66,15,13,1.5,0.9
2023-12-07T2300,2535A,103.7723,29.5462,乐山市,花湖湾,细颗粒物(PM2.5),142,199,126,108,74,8,,53,48,62,31,2,4,0.9,1.1
2023-12-07T2300,2536A,103.7627,29.5844,乐山市,牛耳桥,细颗粒物(PM2.5),128,115,92,97,72,4,,60,44,63,34,4,4,1.1,0.9
2023-12-07T2300,2537A,103.7508,29.6006,乐山市,市第三水厂,细颗粒物(PM2.5),122,140,102,92,69,4,,66,49,70,35,4,4,1.1,0.9
2023-12-07T2300,2538A,103.7571,29.5664,乐山市,市监测站,细颗粒物(PM2.5),110,120,98,83,69,20,,73,57,54,33,4,4,0.9,1
2023-12-07T2300,3361A,103.7311,29.5628,乐山市,理工大学,细颗粒物(PM2.5),140,147,109,107,83,17,,65,52,49,34,6,6,1.2,1.3
2023-12-07T2300,2598A,100.2143,26.8576,丽江市,西南郊,,25,25,22,12,7,34,,57,41,17,16,4,4,1.2,1.1
2023-12-07T2300,2599A,100.2497,26.8802,丽江市,丽江古城,细颗粒物(PM2.5),53,43,41,37,31,42,,64,47,23,23,8,9,0.7,0.8
2023-12-07T2300,2600A,100.2203,26.8906,丽江市,市中心,,22,22,26,12,13,38,,56,42,16,17,7,9,0.8,0.9
2023-12-07T2300,1267A,119.914,28.4514,丽水市,监测站大楼,,50,50,49,24,22,4,,51,22,45,37,6,6,0.7,0.8
2023-12-07T2300,1268A,119.93,28.4586,丽水市,莲都小学,颗粒物(PM10),52,53,55,15,22,3,,52,27,50,37,6,6,0.4,0.5
2023-12-07T2300,1269A,119.879,28.4231,丽水市,余庄前,,45,45,39,31,27,4,,44,21,20,22,5,5,0.4,0.5
2023-12-07T2300,1173A,119.176,34.5885,连云港市,市环境监测站,颗粒物(PM10),95,139,220,70,74,44,,80,63,36,42,9,10,0.4,0.8
2023-12-07T2300,3000A,119.3581,34.6972,连云港市,德源药业,颗粒物(PM10),81,112,210,39,55,77,,81,72,25,43,8,7,0.7,0.8
2023-12-07T2300,3007A,119.178,34.844,连云港市,新城一中,颗粒物(PM10),88,126,185,58,72,61,,87,77,37,44,9,11,0.6,0.7
2023-12-07T2300,3008A,119.3608,34.7519,连云港市,胡沟管理处,颗粒物(PM10),71,92,175,31,41,82,,92,90,22,26,9,9,0.8,0.7
2023-12-07T2300,3009A,119.1478,34.5911,连云港市,矿山设计院,颗粒物(PM10),84,117,203,39,55,77,,87,83,18,34,5,7,0.5,0.6
2023-12-07T2300,3434A,119.2413,34.6539,连云港市,工贸学校,颗粒物(PM10),93,135,228,58,64,70,,96,88,25,27,10,10,0.7,0.6
2023-12-07T2300,3664A,119.4172,34.7341,连云港市,连云街道,颗粒物(PM10),86,121,195,38,47,90,,102,98,15,16,4,4,0.5,0.4
2023-12-07T2300,2571A,102.3431,27.8099,凉山彝族自治州,青龙寺,,40,34,36,28,33,51,,71,66,12,16,8,11,0.8,0.8
2023-12-07T2300,2572A,102.2721,27.8415,凉山彝族自治州,邛海宾馆,,49,49,38,33,25,32,,70,54,33,26,11,15,0.8,0.8
2023-12-07T2300,2573A,102.2625,27.898,凉山彝族自治州,西昌市政府,,36,36,36,24,22,55,,74,71,12,17,8,12,0.6,0.6
2023-12-07T2300,2574A,102.2685,27.8851,凉山彝族自治州,凉山州政府,颗粒物(PM10),56,61,37,37,20,27,,70,61,36,22,10,11,0.9,0.7
2023-12-07T2300,2575A,102.237,27.8914,凉山彝族自治州,长安,颗粒物(PM10),52,54,50,34,28,43,,72,68,24,27,13,16,0.8,0.7
2023-12-07T2300,2212A,123.2,41.1953,辽阳市,宏伟区,颗粒物(PM10),97,143,80,36,21,65,,57,57,12,21,10,13,0.5,0.6
2023-12-07T2300,2213A,123.1683,41.2495,辽阳市,新华园,颗粒物(PM10),98,146,85,36,25,59,,51,51,12,29,10,19,0.8,1
2023-12-07T2300,2214A,123.2354,41.2639,辽阳市,滨河路,颗粒物(PM10),100,149,79,39,25,61,,52,52,13,22,11,13,0.8,0.9
2023-12-07T2300,2215A,123.149,41.2991,辽阳市,铁西工业园,颗粒物(PM10),107,163,97,43,36,64,,55,55,12,30,12,19,0.6,0.9
2023-12-07T2300,2227A,125.1358,42.8845,辽源市,环保局,,30,28,29,21,19,41,,54,43,21,26,16,17,0.7,0.8
2023-12-07T2300,3239A,125.0764,42.9078,辽源市,银鹰制药,,35,32,31,24,19,40,,56,43,19,24,17,13,0.7,0.7
2023-12-07T2300,1625A,115.9848,36.4372,聊城市,区政府,颗粒物(PM10),102,153,198,52,58,39,,60,48,34,41,7,7,0.5,0.5
2023-12-07T2300,2878A,116.0072,36.4343,聊城市,聊大东校,颗粒物(PM10),105,160,180,53,65,40,,62,52,36,40,6,7,0.6,0.6
2023-12-07T2300,3200A,115.9819,36.4978,聊城市,监控中心,颗粒物(PM10),105,160,203,51,55,37,,62,53,36,36,7,7,0.4,0.4
2023-12-07T2300,3513A,116.0445,36.4361,聊城市,九州社区,颗粒物(PM10),95,140,181,47,55,41,,63,51,38,42,6,6,0.6,0.6
2023-12-07T2300,4018A,116.0567,36.4608,聊城市,星美广场,颗粒物(PM10),100,149,200,57,60,49,,66,56,38,42,7,7,0.5,0.5
2023-12-07T2300,2632A,94.3681,29.6376,林芝市,林芝监测站,,21,9,11,7,6,65,,71,70,5,6,6,7,0.4,0.4
2023-12-07T2300,2633A,94.3616,29.6616,林芝市,林芝人民医院,,18,14,14,8,7,55,,69,67,13,8,7,8,0.5,0.4
2023-12-07T2300,2603A,100.0781,23.8982,临沧市,市环保局,,32,23,26,22,16,13,,31,21,20,18,4,5,0.6,0.5
2023-12-07T2300,2604A,100.0894,23.8822,临沧市,市气象局,,25,,26,17,21,22,,30,27,15,19,2,4,0.5,0.5
2023-12-07T2300,1733A,111.5531,36.0783,临汾市,临钢医院,颗粒物(PM10),153,256,252,92,74,3,,25,14,65,53,11,10,1.6,1.2
2023-12-07T2300,1734A,111.5028,36.0714,临汾市,技工学校,颗粒物(PM10),173,295,247,124,81,6,,28,15,81,63,16,14,1.8,1.3
2023-12-07T2300,1736A,111.5018,36.0855,临汾市,市委,颗粒物(PM10),175,300,254,120,82,7,,32,17,83,61,20,16,1.7,1
2023-12-07T2300,3018A,111.505,36.1014,临汾市,唐尧大酒店,"颗粒物(PM10),细颗粒物(PM2.5)",162,274,228,123,77,5,,27,10,80,59,18,13,1.8,1.2
2023-12-07T2300,3668A,111.5036,36.0414,临汾市,城南,颗粒物(PM10),173,295,259,105,76,2,,32,16,75,58,11,10,1.8,1.1
2023-12-07T2300,2667A,103.2069,35.5993,临夏回族自治州,环保局,细颗粒物(PM2.5),89,96,113,66,69,12,,51,32,49,50,19,20,1.2,1.9
2023-12-07T2300,2668A,103.2417,35.6057,临夏回族自治州,建设大厦,细颗粒物(PM2.5),75,94,64,55,40,20,,74,47,30,23,3,11,0.9,0.9
2023-12-07T2300,1618A,118.3429,35.0532,临沂市,沂河小区,细颗粒物(PM2.5),118,163,238,89,84,27,,66,50,68,64,20,24,0.8,0.7
2023-12-07T2300,1619A,118.295,35.0583,临沂市,鲁南制药厂,"颗粒物(PM10),细颗粒物(PM2.5)",102,153,242,76,81,40,,78,62,52,56,23,29,0.7,0.8
2023-12-07T2300,1620A,118.2794,34.9976,临沂市,新光毛纺厂,颗粒物(PM10),101,151,255,72,75,32,,73,54,59,56,25,31,1.1,1.1
2023-12-07T2300,1621A,118.3956,35.0888,临沂市,河东保险公司,细颗粒物(PM2.5),105,146,218,79,68,31,,68,55,58,55,14,17,0.9,0.9
2023-12-07T2300,3370A,118.3564,35.0215,临沂市,十里堡居委,细颗粒物(PM2.5),117,171,251,88,82,13,,69,48,73,58,12,17,1.2,1
2023-12-07T2300,3496A,118.3604,35.1084,临沂市,南坊新区,细颗粒物(PM2.5),107,161,235,80,68,32,,75,62,60,58,17,23,0.9,0.8
2023-12-07T2300,3860A,118.3920,35.0300,临沂市,皇山花园小区,颗粒物(PM10),109,168,240,80,71,24,,76,56,65,56,17,21,0.8,0.7
2023-12-07T2300,1870A,109.4856,24.3895,柳州市,柳东小学,细颗粒物(PM2.5),70,62,49,51,34,26,,112,93,59,17,37,21,0.4,0.3
2023-12-07T2300,1871A,109.4157,24.3277,柳州市,环保监测站,细颗粒物(PM2.5),93,104,80,69,44,1,,76,44,83,48,8,17,1.3,1.1
2023-12-07T2300,1872A,109.389,24.341,柳州市,河西水厂,细颗粒物(PM2.5),144,211,94,110,48,2,,67,30,77,47,13,18,2.6,1.4
2023-12-07T2300,1873A,109.4311,24.2921,柳州市,市四中,颗粒物(PM10),89,128,82,65,49,5,,78,44,81,51,9,15,2.0,1.5
2023-12-07T2300,1874A,109.4006,24.3631,柳州市,市九中,颗粒物(PM10),72,94,89,45,54,11,,66,35,61,47,6,14,1.0,1.3
2023-12-07T2300,1875A,109.4958,24.3134,柳州市,古亭山,,49,49,46,25,26,4,,85,49,60,34,10,13,0.4,0.5
2023-12-07T2300,3402A,109.5422,24.3996,柳州市,市二中,细颗粒物(PM2.5),69,84,55,50,36,10,,98,55,58,32,27,9,0.7,0.6
2023-12-07T2300,2307A,116.5079,31.737,六安市,监测大楼,,50,50,78,22,30,82,,92,87,20,20,6,5,0.4,0.4
2023-12-07T2300,2308A,116.4738,31.7643,六安市,皖西学院,颗粒物(PM10),56,62,91,24,26,97,,101,99,13,16,5,5,0.3,0.4
2023-12-07T2300,2309A,116.4996,31.7905,六安市,朝阳厂,,,51,73,15,25,80,,99,91,17,16,6,6,,0.5
2023-12-07T2300,2310A,116.5567,31.7886,六安市,开发区,颗粒物(PM10),61,71,112,28,41,55,,98,88,26,24,6,7,0.6,0.6
2023-12-07T2300,2576A,104.8,26.5892,六盘水市,窑上,,49,47,44,34,27,53,,100,78,9,8,3,3,0.6,0.5
2023-12-07T2300,2577A,104.83,26.5917,六盘水市,黄土坡,,49,49,43,31,24,22,,92,62,47,29,19,14,0.9,0.8
2023-12-07T2300,2578A,104.89,26.5939,六盘水市,水钢,,50,44,61,35,34,76,,94,82,22,31,15,16,0.6,1
2023-12-07T2300,2579A,104.8475,26.5894,六盘水市,民中,细颗粒物(PM2.5),55,57,44,39,24,39,,90,73,44,29,24,15,1.1,0.9
2023-12-07T2300,2580A,104.9544,26.5506,六盘水市,双水,,43,41,36,30,20,81,,95,89,13,12,8,8,0.5,0.7
2023-12-07T2300,2336A,117.0217,25.1033,龙岩市,龙岩市监测站,,34,34,28,16,13,7,,71,35,48,26,5,7,0.6,0.5
2023-12-07T2300,2337A,117.0258,25.0661,龙岩市,闽西职业技术学院,,41,41,42,14,16,5,,67,31,48,28,11,10,0.3,0.4
2023-12-07T2300,2338A,117.0196,25.0306,龙岩市,龙岩学院,,25,25,27,15,13,19,,66,43,27,20,4,5,0.3,0.4
2023-12-07T2300,2885A,104.9339,33.3826,陇南市,滨江中学,颗粒物(PM10),101,152,148,69,52,4,,42,17,69,54,48,51,3.7,2.3
2023-12-07T2300,3247A,104.955,33.371,陇南市,市总工会,颗粒物(PM10),87,124,113,56,43,11,,51,27,53,31,20,21,1.2,0.9
2023-12-07T2300,2487A,111.9589,27.8901,娄底市,电视发射台,颗粒物(PM10),62,73,59,39,27,5,,14,7,61,52,5,5,1.0,0.7
2023-12-07T2300,2488A,111.9975,27.725,娄底市,市监测站,细颗粒物(PM2.5),98,124,100,73,58,10,,94,72,86,45,15,14,1.6,1.1
2023-12-07T2300,2489A,112.0194,27.7314,娄底市,市委党校,细颗粒物(PM2.5),84,103,88,62,52,13,,82,62,59,32,6,5,1.0,0.9
2023-12-07T2300,2490A,111.9561,27.7569,娄底市,涟钢,细颗粒物(PM2.5),114,174,107,86,58,4,,66,48,59,42,13,25,1.6,1.7
2023-12-07T2300,2491A,111.9892,27.7044,娄底市,市政府,细颗粒物(PM2.5),109,138,80,82,49,8,,91,58,59,26,14,14,1.2,0.7
2023-12-07T2300,1893A,105.4324,28.9634,泸州市,九狮山,细颗粒物(PM2.5),109,96,71,82,56,1,,69,44,32,24,6,6,0.7,0.6
2023-12-07T2300,1894A,105.4427,28.9063,泸州市,小市上码头,细颗粒物(PM2.5),149,150,117,114,86,8,,34,18,62,43,8,9,1.0,0.9
2023-12-07T2300,1895A,105.4241,28.8573,泸州市,兰田宪桥,细颗粒物(PM2.5),124,124,100,94,78,2,,26,16,40,33,6,6,1.0,0.8
2023-12-07T2300,1896A,105.4379,28.8833,泸州市,市环监站,细颗粒物(PM2.5),149,116,99,114,87,6,,24,16,54,39,6,5,1.2,1
2023-12-07T2300,3490A,105.3617,28.7703,泸州市,纳溪区环保局,细颗粒物(PM2.5),122,122,92,92,70,5,,24,16,28,34,7,6,1.0,0.7
2023-12-07T2300,2183A,111.1406,37.5211,吕梁市,环保局,颗粒物(PM10),115,180,165,40,45,2,,36,14,55,51,8,8,0.7,0.7
2023-12-07T2300,2185A,111.1297,37.5136,吕梁市,自来水公司,颗粒物(PM10),128,205,186,59,50,5,,38,18,48,44,13,10,0.6,0.6
2023-12-07T2300,2867A,111.1283,37.51,吕梁市,马茂庄小学,颗粒物(PM10),108,166,190,38,54,2,,29,15,59,51,3,5,0.5,0.7
2023-12-07T2300,1812A,112.3931,34.6516,洛阳市,市委党校,颗粒物(PM10),81,111,119,55,45,25,,63,49,50,36,8,8,0.7,0.6
2023-12-07T2300,1814A,112.4657,34.6871,洛阳市,豫西宾馆,颗粒物(PM10),95,139,134,57,47,11,,56,40,70,50,7,7,0.7,0.6
2023-12-07T2300,1815A,112.494,34.6886,洛阳市,河南林校,颗粒物(PM10),86,122,109,59,43,29,,61,47,48,44,4,3,0.7,0.6
2023-12-07T2300,1816A,112.3844,34.623,洛阳市,开发区管委会,颗粒物(PM10),78,106,100,56,41,4,,68,44,62,35,5,3,0.8,0.6
2023-12-07T2300,1817A,112.4267,34.6258,洛阳市,市委新办公区,颗粒物(PM10),87,124,110,60,45,10,,71,51,64,39,6,3,0.8,0.6
2023-12-07T2300,3340A,112.6005,34.6326,洛阳市,伊滨,颗粒物(PM10),103,156,152,61,58,38,,60,32,46,49,10,9,0.7,0.6
2023-12-07T2300,3341A,112.4951,34.6332,洛阳市,中移产业园,颗粒物(PM10),95,139,116,69,50,36,,70,59,39,33,8,8,0.8,0.6
2023-12-07T2300,3593A,112.5736,34.8993,洛阳市,吉利监测站,颗粒物(PM10),81,112,136,45,38,14,,63,35,63,47,10,13,0.3,0.3
2023-12-07T2300,3635A,112.3677,34.662,洛阳市,河科大西苑校区,颗粒物(PM10),76,101,140,46,52,10,,66,46,60,38,1,6,0.6,0.6
2023-12-07T2300,3636A,112.4388,34.6781,洛阳市,英才小学,颗粒物(PM10),89,127,126,52,44,13,,64,50,70,45,7,7,0.8,0.6
2023-12-07T2300,2399A,114.051,33.5699,漯河市,三五一五工厂,细颗粒物(PM2.5),79,88,113,58,33,3,,86,42,74,28,22,7,0.8,0.4
2023-12-07T2300,2400A,114.0055,33.5698,漯河市,漯河大学,颗粒物(PM10),70,89,113,44,34,42,,89,61,51,23,7,7,0.6,0.5
2023-12-07T2300,2401A,114.0138,33.5828,漯河市,市水利局,颗粒物(PM10),68,85,109,44,32,50,,84,63,32,15,8,8,0.4,0.4
2023-12-07T2300,2402A,114.0261,33.5698,漯河市,市广电局,颗粒物(PM10),70,90,115,45,34,6,,85,47,78,23,7,4,0.6,0.4
2023-12-07T2300,3478A,113.9749,33.5664,漯河市,市图书馆,颗粒物(PM10),64,77,107,43,35,73,,85,74,17,13,5,4,0.5,0.4
2023-12-07T2300,3479A,114.0967,33.5906,漯河市,召陵区卫健委,颗粒物(PM10),70,89,116,48,34,17,,86,44,58,23,6,5,0.6,0.5
2023-12-07T2300,1798A,118.5092,31.6837,马鞍山市,湖东路四小,,,84,109,40,41,,,88,72,72,53,21,13,1.4,1.1
2023-12-07T2300,1799A,118.5024,31.6449,马鞍山市,开发区,细颗粒物(PM2.5),87,118,117,64,48,2,,94,52,98,58,19,15,1.5,0.8
2023-12-07T2300,1800A,118.5228,31.7231,马鞍山市,慈湖,细颗粒物(PM2.5),63,74,115,45,49,34,,93,69,66,54,16,10,1.2,0.9
2023-12-07T2300,1802A,118.6245,31.7241,马鞍山市,濮塘,颗粒物(PM10),71,91,130,31,45,35,,88,62,54,39,10,10,1.2,1.1
2023-12-07T2300,3633A,118.4918,31.6809,马鞍山市,雨山,颗粒物(PM10),72,93,128,48,47,19,,96,62,75,52,21,13,1.2,1
2023-12-07T2300,1686A,111.0286,21.4688,茂名市,电白南海,颗粒物(PM10),62,73,48,22,18,85,,103,97,26,24,14,15,0.7,0.6
2023-12-07T2300,1687A,110.9294,21.6533,茂名市,茂石化七小,颗粒物(PM10),60,70,45,34,25,60,,91,84,32,19,17,14,0.7,0.7
2023-12-07T2300,1688A,110.9107,21.6687,茂名市,健康路,颗粒物(PM10),56,61,39,31,23,66,,92,82,33,21,13,23,0.6,0.6
2023-12-07T2300,1689A,110.8592,21.6828,茂名市,高岭,颗粒物(PM10),65,80,59,34,23,51,,89,73,56,29,17,23,0.8,0.7
2023-12-07T2300,3450A,111.01,21.5165,茂名市,电白水东,颗粒物(PM10),51,51,39,27,20,105,,102,100,19,22,16,25,0.6,0.6
2023-12-07T2300,2539A,104.0308,30.0478,眉山市,黑龙滩水库,细颗粒物(PM2.5),95,80,68,71,47,68,,98,93,9,8,5,5,0.6,0.6
2023-12-07T2300,2540A,103.8416,30.0874,眉山市,气象局,细颗粒物(PM2.5),128,119,82,97,75,18,,66,53,58,39,6,7,0.9,1
2023-12-07T2300,3137A,103.8578,30.0744,眉山市,市委党校,细颗粒物(PM2.5),125,119,98,95,74,18,,64,52,56,40,8,10,0.7,0.7
2023-12-07T2300,3148A,103.8291,30.0564,眉山市,区人社局,细颗粒物(PM2.5),128,124,85,97,80,8,,72,53,75,45,9,10,0.8,1
2023-12-07T2300,1690A,116.1231,24.3284,梅州市,梅江月梅,,44,44,25,14,13,8,,75,45,43,25,6,7,0.4,0.5
2023-12-07T2300,1691A,116.0797,24.2719,梅州市,梅县新城,,44,44,33,20,20,14,,68,32,38,30,3,6,0.6,0.6
2023-12-07T2300,1692A,116.1248,24.2654,梅州市,环境监控中心,,34,34,35,20,19,4,,63,33,54,32,10,6,0.6,0.6
2023-12-07T2300,3315A,116.1233,24.2991,梅州市,梅龙,,41,41,31,22,17,13,,64,35,34,25,6,6,0.7,0.7
2023-12-07T2300,1878A,104.7778,31.4741,绵阳市,富乐山,细颗粒物(PM2.5),112,104,89,84,55,3,,75,60,66,37,7,7,1.1,0.8
2023-12-07T2300,1879A,104.7563,31.4535,绵阳市,市人大,细颗粒物(PM2.5),137,141,109,104,63,3,,57,37,78,50,10,10,1.2,0.9
2023-12-07T2300,1880A,104.6697,31.4668,绵阳市,高新区自来水公司,"颗粒物(PM10),细颗粒物(PM2.5)",105,160,123,79,57,2,,66,43,68,44,10,8,1.1,0.8
2023-12-07T2300,1881A,104.7287,31.5075,绵阳市,三水厂,细颗粒物(PM2.5),140,148,118,107,65,1,,52,30,64,48,7,7,1.1,0.9
2023-12-07T2300,3491A,104.69,31.5322,绵阳市,西科大附属小学,细颗粒物(PM2.5),118,133,126,89,62,16,,72,55,64,44,5,5,0.9,0.7
2023-12-07T2300,3492A,104.5648,31.5343,绵阳市,安州区旅游局,细颗粒物(PM2.5),134,127,108,102,66,6,,71,49,53,34,10,10,1.1,0.8
2023-12-07T2300,1784A,129.61,44.561,牡丹江市,环保大楼,颗粒物(PM10),51,51,40,21,16,21,,62,35,48,25,8,8,0.6,0.4
2023-12-07T2300,1785A,129.6115,44.5782,牡丹江市,文化广场,颗粒物(PM10),75,99,52,44,27,6,,56,31,58,27,16,12,1.4,0.5
2023-12-07T2300,1786A,129.5904,44.5963,牡丹江市,第一医院,细颗粒物(PM2.5),59,52,44,42,38,37,,57,37,28,26,9,9,0.6,0.6
2023-12-07T2300,1787A,129.6364,44.6075,牡丹江市,机车工厂,细颗粒物(PM2.5),60,49,47,43,33,21,,56,31,34,28,11,12,0.6,0.5
2023-12-07T2300,1788A,129.6386,44.5462,牡丹江市,第一中学,,32,29,34,22,24,48,,62,40,18,22,6,7,0.3,0.4
2023-12-07T2300,2531A,105.0703,29.61,内江市,市监测站,细颗粒物(PM2.5),104,,71,78,74,51,,77,68,33,32,4,5,0.9,0.9
2023-12-07T2300,2532A,105.0717,29.5947,内江市,东兴区政府,细颗粒物(PM2.5),88,85,74,65,64,70,,85,81,23,27,8,9,0.7,0.7
2023-12-07T2300,2533A,105.0653,29.5817,内江市,内江二中,细颗粒物(PM2.5),107,83,76,80,73,44,,87,80,47,33,6,7,0.7,0.7
2023-12-07T2300,2534A,105.0406,29.5822,内江市,内江日报社,细颗粒物(PM2.5),83,90,81,61,61,62,,78,74,32,39,7,8,0.6,0.7
2023-12-07T2300,1290A,115.8931,28.6843,南昌市,省外办,细颗粒物(PM2.5),163,184,130,124,74,9,,31,21,85,62,7,10,2.2,1.4
2023-12-07T2300,1291A,115.8886,28.7003,南昌市,省林业公司,细颗粒物(PM2.5),104,127,91,78,56,4,,41,29,103,55,8,11,1.4,1.1
2023-12-07T2300,1292A,115.8126,28.7442,南昌市,林科所,,44,44,78,24,47,35,,44,28,56,64,11,13,0.7,1
2023-12-07T2300,1294A,115.8518,28.687,南昌市,建工学校,颗粒物(PM10),86,121,100,62,58,3,,52,40,106,62,12,15,1.5,1.1
2023-12-07T2300,1295A,115.8921,28.6424,南昌市,象湖,细颗粒物(PM2.5),112,157,102,84,62,1,,46,24,86,56,8,11,2.4,1.4
2023-12-07T2300,1296A,115.7423,28.7996,南昌市,武术学校,,33,33,31,11,19,24,,60,43,10,15,3,4,0.4,0.5
2023-12-07T2300,1298A,115.9314,28.6842,南昌市,省站,细颗粒物(PM2.5),128,166,117,97,68,8,,51,31,91,47,9,10,1.5,1.2
2023-12-07T2300,3046A,115.9084,28.6062,南昌市,机电学校,细颗粒物(PM2.5),110,137,101,83,62,10,,64,44,84,48,12,11,1.1,1
2023-12-07T2300,3690A,115.9721,28.7031,南昌市,外国语学校,细颗粒物(PM2.5),90,120,98,67,50,3,,54,38,81,48,8,10,1.4,1.2
2023-12-07T2300,1905A,106.056,30.8064,南充市,西山风景区,细颗粒物(PM2.5),63,50,63,45,56,95,,90,90,11,17,4,4,0.5,0.7
2023-12-07T2300,1907A,106.1031,30.8217,南充市,南充炼油厂,细颗粒物(PM2.5),90,106,91,67,65,2,,58,30,64,40,8,5,1.2,0.9
2023-12-07T2300,1908A,106.1064,30.7856,南充市,高坪区监测站,细颗粒物(PM2.5),99,134,95,74,67,4,,60,33,49,35,6,6,1.1,0.7
2023-12-07T2300,1909A,106.0642,30.7636,南充市,嘉陵区环保局,细颗粒物(PM2.5),83,96,93,61,57,1,,53,26,66,42,4,5,0.8,0.6
2023-12-07T2300,1910A,106.1087,30.8388,南充市,市环境监测站,细颗粒物(PM2.5),78,90,89,57,60,34,,64,46,37,30,20,7,0.7,0.7
2023-12-07T2300,1151A,118.8086,32.1065,南京市,迈皋桥,颗粒物(PM10),61,71,126,22,33,67,,90,81,36,54,15,11,1.1,1
2023-12-07T2300,1152A,118.7538,32.0551,南京市,草场门,颗粒物(PM10),65,80,129,27,35,60,,86,76,46,59,17,13,1.3,1
2023-12-07T2300,1153A,118.7794,32.0745,南京市,山西路,颗粒物(PM10),64,78,134,31,43,68,,89,82,32,49,19,14,1.2,1.2
2023-12-07T2300,1154A,118.7752,32.0023,南京市,中华门,颗粒物(PM10),62,73,119,34,38,43,,87,74,49,46,11,8,1.2,1
2023-12-07T2300,1155A,118.8109,32.0309,南京市,瑞金路,颗粒物(PM10),64,78,120,34,35,27,,79,59,74,54,16,11,1.0,0.7
2023-12-07T2300,1156A,118.7997,32.0754,南京市,玄武湖,颗粒物(PM10),56,61,106,27,35,58,,80,74,34,48,17,14,0.9,0.8
2023-12-07T2300,1157A,118.6414,32.0931,南京市,浦口,颗粒物(PM10),67,83,134,40,36,65,,96,86,38,43,7,9,0.7,0.7
2023-12-07T2300,1158A,118.7356,31.9996,南京市,奥体中心,颗粒物(PM10),60,70,125,34,38,60,,84,72,49,57,16,13,0.7,0.7
2023-12-07T2300,1159A,118.9125,32.1028,南京市,仙林大学城,颗粒物(PM10),67,83,128,29,37,34,,87,69,66,54,13,9,1.3,1
2023-12-07T2300,3422A,118.8436,31.9198,南京市,江宁彩虹桥,颗粒物(PM10),75,99,141,39,36,26,,96,58,79,58,7,8,0.9,0.8
2023-12-07T2300,3423A,119.0138,31.6494,南京市,溧水永阳,颗粒物(PM10),57,63,116,31,43,74,,100,89,12,21,4,8,0.6,0.6
2023-12-07T2300,3424A,118.879,31.3302,南京市,高淳老职中,颗粒物(PM10),56,62,105,26,39,82,,97,87,19,28,7,8,0.3,0.4
2023-12-07T2300,3427A,118.8554,32.3578,南京市,六合雄州,颗粒物(PM10),51,51,124,31,42,86,,88,87,8,39,26,20,0.7,1.3
2023-12-07T2300,1401A,108.3103,22.7881,南宁市,二十一中,细颗粒物(PM2.5),70,73,67,51,41,18,,100,80,86,43,9,15,1.2,1
2023-12-07T2300,1402A,108.3141,22.8528,南宁市,北湖,细颗粒物(PM2.5),99,135,77,74,43,7,,95,50,56,35,10,12,1.0,1
2023-12-07T2300,1403A,108.3206,22.8225,南宁市,市监测站,细颗粒物(PM2.5),90,82,67,67,42,10,,91,65,101,51,9,12,1.2,0.9
2023-12-07T2300,1404A,108.3829,22.8037,南宁市,大自然花园,细颗粒物(PM2.5),74,82,57,54,35,18,,88,73,68,41,7,10,0.8,0.7
2023-12-07T2300,1405A,108.4394,22.7904,南宁市,仙葫,细颗粒物(PM2.5),87,117,66,64,39,14,,90,61,75,40,9,10,1.1,0.8
2023-12-07T2300,1406A,108.2397,22.8467,南宁市,区农职院,颗粒物(PM10),51,52,54,34,29,8,,91,52,58,39,13,14,0.7,0.8
2023-12-07T2300,1407A,108.3275,22.735,南宁市,英华嘉园,细颗粒物(PM2.5),90,115,75,67,45,4,,77,41,97,55,10,18,1.1,0.9
2023-12-07T2300,1408A,108.2257,22.7757,南宁市,沙井镇街道办,颗粒物(PM10),114,177,77,81,44,4,,82,45,79,44,28,26,0.9,0.8
2023-12-07T2300,2332A,118.1681,26.6369,南平市,南平市监测站,,36,36,35,20,21,6,,64,38,43,27,4,5,0.7,0.6
2023-12-07T2300,2333A,118.1825,26.6489,南平市,南平铝业有限公司,,34,34,33,20,24,4,,50,32,38,27,7,6,0.7,0.7
2023-12-07T2300,2334A,118.1756,26.6272,南平市,南平七中,,29,29,35,17,21,18,,63,45,28,24,5,6,0.8,0.8
2023-12-07T2300,1168A,120.9098,31.9663,南通市,狼山街道,颗粒物(PM10),90,130,142,48,67,45,,53,43,77,71,12,10,0.9,1
2023-12-07T2300,1169A,120.86,32.0005,南通市,虹桥,颗粒物(PM10),89,127,157,53,69,12,,42,26,106,88,8,10,0.8,1
2023-12-07T2300,1170A,120.87,32.02,南通市,城中,颗粒物(PM10),80,109,134,45,62,26,,50,40,90,73,11,11,0.6,0.7
2023-12-07T2300,1171A,120.94,31.93,南通市,星湖花园,颗粒物(PM10),97,144,170,52,68,17,,53,32,107,81,10,10,0.8,0.9
2023-12-07T2300,1172A,120.81,32.0417,南通市,紫琅学院,,,,175,,62,19,,46,22,94,79,10,11,0.7,0.6
2023-12-07T2300,3291A,121.067,32.062,南通市,通州监测站,颗粒物(PM10),103,156,177,48,75,39,,74,52,74,68,9,10,0.7,0.8
2023-12-07T2300,3432A,120.9348,31.9883,南通市,环境教育馆,颗粒物(PM10),85,119,129,55,67,27,,59,44,85,68,11,11,0.6,0.8
2023-12-07T2300,2404A,112.5224,33.0122,南阳市,瓦房庄,细颗粒物(PM2.5),79,80,85,58,43,39,,68,59,41,34,8,9,0.7,0.6
2023-12-07T2300,2405A,112.5003,32.9735,南阳市,汉画馆,细颗粒物(PM2.5),77,98,104,56,42,37,,71,58,41,32,6,6,0.8,0.6
2023-12-07T2300,2406A,112.5573,33.027,南阳市,气象站,颗粒物(PM10),66,81,98,44,35,54,,77,72,34,30,11,12,0.6,0.6
2023-12-07T2300,2407A,112.5481,32.9689,南阳市,理工学院,颗粒物(PM10),69,87,97,49,44,51,,76,68,36,34,8,8,0.5,0.4
2023-12-07T2300,4008A,112.5234,32.9922,南阳市,卧龙区政府,细颗粒物(PM2.5),78,89,101,57,43,42,,71,60,37,34,6,7,0.5,0.5
2023-12-07T2300,1234A,121.8358,29.911,宁波市,区环保大楼,颗粒物(PM10),74,97,147,35,41,108,,97,97,22,46,6,7,0.5,0.6
2023-12-07T2300,1235A,121.56,29.82,宁波市,万里学院,颗粒物(PM10),86,122,126,48,43,63,,90,64,57,48,7,7,0.7,0.7
2023-12-07T2300,1236A,121.713,29.9572,宁波市,龙赛医院,颗粒物(PM10),84,118,134,45,44,48,,87,76,81,59,9,9,0.9,0.7
2023-12-07T2300,1239A,121.633,29.7733,宁波市,钱湖水厂,,,84,117,36,42,95,,101,97,16,28,,8,0.6,0.7
2023-12-07T2300,1240A,121.5856,29.8635,宁波市,太古小学,颗粒物(PM10),74,98,103,37,38,82,,95,89,39,48,10,10,0.8,0.9
2023-12-07T2300,1241A,121.524,29.8674,宁波市,市环境监测中心,颗粒物(PM10),77,103,108,34,35,75,,89,72,38,47,10,10,0.7,1
2023-12-07T2300,2871A,121.6147,29.9017,宁波市,万里国际学校,颗粒物(PM10),75,100,115,43,46,103,,101,100,29,47,9,9,0.7,0.8
2023-12-07T2300,3710A,121.5594,29.8975,宁波市,白沙活动中心,颗粒物(PM10),79,108,115,40,41,72,,92,81,49,51,8,8,0.8,0.8
2023-12-07T2300,2341A,119.5388,26.6612,宁德市,宁德市监测站,,41,41,32,25,19,61,,88,79,23,18,6,5,0.7,0.5
2023-12-07T2300,3209A,119.5231,26.6562,宁德市,宁德一中,,36,36,32,17,15,69,,88,79,13,15,7,6,0.9,0.8
2023-12-07T2300,2618A,98.8601,25.8567,怒江州,州监测站,,,26,26,21,20,,,30,,14,12,8,8,0.5,0.4
2023-12-07T2300,2619A,98.8546,25.8417,怒江州,泸水一中,,29,21,25,20,19,6,,21,11,20,21,6,6,0.6,0.6
2023-12-07T2300,1888A,101.6891,26.571,攀枝花市,弄弄坪,颗粒物(PM10),61,72,56,39,27,20,,47,43,48,38,17,22,1.0,1
2023-12-07T2300,1889A,101.5769,26.5928,攀枝花市,河门口,颗粒物(PM10),54,58,58,27,27,14,,30,28,46,40,19,26,1.7,1.9
2023-12-07T2300,1890A,101.7169,26.585,攀枝花市,炳草岗,颗粒物(PM10),71,92,61,45,26,6,,36,25,72,48,26,35,1.5,1.3
2023-12-07T2300,1891A,101.7369,26.5008,攀枝花市,仁和,颗粒物(PM10),59,68,52,41,30,18,,60,42,34,30,13,17,0.8,0.8
2023-12-07T2300,2835A,101.7227,26.567,攀枝花市,四十中小,颗粒物(PM10),69,87,62,38,25,7,,46,28,80,53,22,25,1.8,1.3
2023-12-07T2300,1604A,122.0303,41.1489,盘锦市,开发区,细颗粒物(PM2.5),173,215,129,131,84,6,,28,11,78,66,41,42,3.2,2.2
2023-12-07T2300,1605A,122.0485,41.0883,盘锦市,兴隆台,颗粒物(PM10),99,147,122,43,51,42,,28,18,37,60,14,28,0.9,1.6
2023-12-07T2300,1606A,121.8297,41.1028,盘锦市,新生街道,颗粒物(PM10),103,156,109,68,45,6,,29,10,65,57,11,16,1.4,1.3
2023-12-07T2300,1832A,113.3257,33.742,平顶山市,新华旅馆,颗粒物(PM10),66,82,115,37,36,65,,73,70,19,23,7,8,0.5,0.5
2023-12-07T2300,1833A,113.2919,33.737,平顶山市,规划设计院,颗粒物(PM10),61,72,100,39,33,73,,76,74,15,19,8,8,0.5,0.5
2023-12-07T2300,1834A,113.182,33.774,平顶山市,平顶山工学院,颗粒物(PM10),62,73,100,36,28,83,,85,83,16,22,6,6,0.5,0.5
2023-12-07T2300,3204A,113.3025,33.73,平顶山市,规划局,颗粒物(PM10),65,80,114,45,34,66,,72,70,20,22,8,7,0.7,0.7
2023-12-07T2300,3594A,112.8867,33.9116,平顶山市,石龙区,颗粒物(PM10),66,81,146,27,44,49,,85,80,18,58,6,11,0.6,0.8
2023-12-07T2300,2656A,106.6692,35.5461,平凉市,聚贤嘉苑,,44,44,76,27,23,35,,72,44,40,33,7,8,0.4,0.5
2023-12-07T2300,2657A,106.7021,35.5307,平凉市,博物馆,颗粒物(PM10),51,52,83,31,32,28,,65,40,45,47,11,18,0.6,1.1
2023-12-07T2300,2347A,114.0997,27.5002,萍乡市,武功山,,30,22,33,21,19,51,,90,73,8,8,2,3,0.4,0.5
2023-12-07T2300,2348A,113.8385,27.6434,萍乡市,中医院,颗粒物(PM10),87,123,84,60,54,2,,79,34,56,45,14,13,1.2,1.5
2023-12-07T2300,2349A,113.8493,27.6253,萍乡市,市政府车库,细颗粒物(PM2.5),89,71,71,66,48,6,,77,34,49,34,11,11,0.9,0.9
2023-12-07T2300,2350A,113.8676,27.6435,萍乡市,市环保局,颗粒物(PM10),69,88,76,46,48,2,,81,40,62,37,11,11,0.9,1.1
2023-12-07T2300,2351A,113.866,27.6198,萍乡市,安源区政府,细颗粒物(PM2.5),82,89,70,60,44,8,,83,44,41,28,12,13,1.0,0.7
2023-12-07T2300,2319A,119.0141,25.4325,莆田市,荔城区仓后路,颗粒物(PM10),51,52,39,20,18,66,,122,101,20,22,6,7,0.8,0.7
2023-12-07T2300,2320A,119.0015,25.4553,莆田市,莆田市监测站,,34,34,27,21,13,75,,118,102,9,9,6,7,0.5,0.5
2023-12-07T2300,2321A,119.1119,25.4561,莆田市,涵江区六中,,50,50,41,26,16,82,,126,118,31,25,8,8,0.8,0.7
2023-12-07T2300,2322A,119.1013,25.3215,莆田市,秀屿区政府,,48,48,42,24,21,89,,126,111,26,28,9,9,0.8,0.7
2023-12-07T2300,2392A,115.0312,35.7636,濮阳市,环保局,颗粒物(PM10),86,122,147,44,46,34,,55,42,34,34,6,6,0.4,0.4
2023-12-07T2300,2394A,115.0574,35.7609,濮阳市,油田运输公司,颗粒物(PM10),85,120,152,42,42,39,,54,46,31,38,6,6,0.4,0.6
2023-12-07T2300,2395A,115.0866,35.7754,濮阳市,油田物探公司,颗粒物(PM10),86,121,160,42,46,42,,56,45,29,38,4,4,0.6,0.6
2023-12-07T2300,3021A,115,35.7668,濮阳市,濮水河管理处,颗粒物(PM10),90,130,157,49,51,20,,54,37,50,35,7,8,0.8,0.6
2023-12-07T2300,2601A,100.98,22.7633,普洱市,市环保局,,31,31,31,15,19,36,,46,38,8,8,5,5,0.4,0.5
2023-12-07T2300,2602A,100.9817,22.8322,普洱市,普洱第二中学,,35,35,31,9,8,30,,46,36,12,20,5,6,0.6,0.6
2023-12-07T2300,2262A,131.0518,45.8751,七台河市,新一中,,19,13,20,13,11,56,,74,65,13,11,9,9,0.8,0.8
2023-12-07T2300,3345A,131.0577,45.7879,七台河市,中波台,,32,23,29,22,19,34,,60,44,32,28,8,9,0.6,0.6
2023-12-07T2300,3637A,131.0176,45.7761,七台河市,人民广场,,37,37,33,25,24,33,,54,37,38,34,12,10,0.5,0.4
2023-12-07T2300,3684A,130.8781,45.8222,七台河市,新建矿广场,,35,,28,24,27,41,,56,43,22,25,9,11,0.5,0.6
2023-12-07T2300,1779A,123.9305,47.3636,齐齐哈尔市,安居小区,,39,39,23,18,17,37,,53,43,23,12,7,9,0.4,0.4
2023-12-07T2300,1780A,123.9488,47.3386,齐齐哈尔市,中心广场,,40,40,22,21,8,33,,44,41,24,11,4,7,0.3,0.2
2023-12-07T2300,1781A,123.9483,47.3227,齐齐哈尔市,农牧车辆厂,,39,39,22,26,10,31,,46,40,25,13,9,10,0.5,0.4
2023-12-07T2300,1783A,123.945,47.2988,齐齐哈尔市,市环境监测站,,36,36,23,21,10,36,,50,43,22,11,4,7,0.4,0.3
2023-12-07T2300,3662A,123.6333,47.2075,齐齐哈尔市,富区青少年活动中心,,20,20,23,2,8,48,,57,52,9,12,6,8,0.3,0.3
2023-12-07T2300,2591A,107.9783,26.5747,黔东南苗族侗族自治州,市环境监测站,,38,38,44,22,31,14,,61,44,64,34,7,6,0.6,0.6
2023-12-07T2300,2881A,107.8908,26.5311,黔东南苗族侗族自治州,凯里学院,颗粒物(PM10),52,54,42,32,29,41,,85,69,35,22,8,6,0.7,0.6
2023-12-07T2300,2593A,107.5228,26.2403,黔南布依族苗族自治州,小围寨,,29,29,33,19,15,30,,85,67,19,12,7,5,0.4,0.3
2023-12-07T2300,3538A,107.5175,26.2978,黔南布依族苗族自治州,沙坝,,44,44,35,17,18,17,,83,67,34,14,10,5,0.7,0.5
2023-12-07T2300,2589A,104.9022,25.0925,黔西南布依族苗族自治州,场坝街,细颗粒物(PM2.5),67,63,42,48,30,29,,63,49,29,25,2,22,0.6,0.4
2023-12-07T2300,2590A,104.8811,25.0992,黔西南布依族苗族自治州,坪东大道,细颗粒物(PM2.5),78,75,49,57,34,3,,56,30,43,30,4,8,0.9,0.6
2023-12-07T2300,2502A,108.6236,21.9667,钦州市,市环保站,颗粒物(PM10),90,129,67,58,34,6,,94,53,88,35,11,13,1.4,1.4
2023-12-07T2300,2503A,108.6549,21.9481,钦州市,沙埠小学,颗粒物(PM10),126,202,76,50,37,2,,95,56,77,39,11,12,0.9,1.2
2023-12-07T2300,2504A,108.5989,21.7431,钦州市,港区一小,颗粒物(PM10),105,160,83,46,36,10,,90,53,80,50,14,18,0.8,0.9
2023-12-07T2300,3404A,108.5959,21.9633,钦州市,北职校,颗粒物(PM10),91,132,68,50,38,4,,100,52,66,24,7,9,0.9,0.9
2023-12-07T2300,1042A,119.5134,39.8207,秦皇岛市,北戴河环保局,颗粒物(PM10),138,225,242,64,56,10,,29,10,77,69,16,19,0.8,0.9
2023-12-07T2300,1043A,119.7493,40.0116,秦皇岛市,第一关,颗粒物(PM10),144,237,246,71,60,6,,32,14,58,57,18,20,1.7,1.4
2023-12-07T2300,1044A,119.5897,39.9499,秦皇岛市,监测站,细颗粒物(PM2.5),152,235,215,116,68,3,,24,5,84,72,18,21,2.3,1.6
2023-12-07T2300,1046A,119.5251,39.9041,秦皇岛市,建设大厦,颗粒物(PM10),145,239,244,73,60,6,,35,14,72,61,16,16,1.5,0.7
2023-12-07T2300,3132A,119.610547,39.943889,秦皇岛市,文明里,颗粒物(PM10),199,347,275,125,62,4,,22,5,84,75,14,18,2.7,1.6
2023-12-07T2300,1307A,120.6659,36.2403,青岛市,仰口,颗粒物(PM10),96,141,176,53,40,91,,92,92,13,15,8,9,0.6,0.7
2023-12-07T2300,1310A,120.4134,36.0658,青岛市,市南区东部子站,颗粒物(PM10),104,158,192,48,43,48,,71,61,40,39,10,12,1.0,0.8
2023-12-07T2300,1311A,120.3664,36.1032,青岛市,四方区子站,颗粒物(PM10),92,134,180,53,47,51,,70,65,50,52,8,10,1.1,1
2023-12-07T2300,1312A,120.2994,36.054,青岛市,市南区西部子站,颗粒物(PM10),92,134,192,46,41,60,,80,79,33,37,8,10,0.7,0.7
2023-12-07T2300,1313A,120.4581,36.0858,青岛市,崂山区子站,颗粒物(PM10),103,156,174,51,41,59,,78,71,34,41,8,9,0.9,0.7
2023-12-07T2300,1314A,120.1983,35.9608,青岛市,黄岛区子站,颗粒物(PM10),91,132,175,56,50,63,,75,75,34,45,8,10,0.8,0.8
2023-12-07T2300,1315A,120.3999,36.3083,青岛市,城阳区子站,颗粒物(PM10),86,122,180,42,36,60,,70,66,38,48,10,11,0.9,0.9
2023-12-07T2300,1966A,120.0405,35.8735,青岛市,黄岛区4号,颗粒物(PM10),89,127,193,51,50,73,,78,78,33,50,11,12,1.1,1.2
2023-12-07T2300,3362A,120.5014,36.4034,青岛市,即墨2号,颗粒物(PM10),99,148,212,57,46,68,,71,69,31,45,11,12,0.7,0.7
2023-12-07T2300,3642A,120.3503,36.0736,青岛市,市北区南部,颗粒物(PM10),91,132,175,56,45,54,,69,67,34,37,6,8,1.1,0.9
2023-12-07T2300,3643A,120.3948,36.1805,青岛市,李沧区北部,颗粒物(PM10),90,129,177,53,46,52,,72,60,55,56,11,12,1.1,1
2023-12-07T2300,1702A,113.0426,23.691,清远市,环保大楼,,48,42,32,33,23,35,,88,56,25,22,4,4,0.9,0.9
2023-12-07T2300,1703A,113.0208,23.7106,清远市,凤城街办,,38,38,35,15,20,37,,83,56,38,26,5,6,0.9,0.8
2023-12-07T2300,3025A,113.0477,23.6344,清远市,技师学院,颗粒物(PM10),69,88,44,38,23,1,,81,38,64,33,9,9,0.8,0.6
2023-12-07T2300,3318A,112.9903,23.7403,清远市,清新太和,,29,29,28,13,18,65,,84,80,21,23,5,6,0.7,0.7
2023-12-07T2300,3455A,113.076,23.7198,清远市,清城东城,,34,34,29,20,19,39,,98,63,22,19,7,8,0.5,0.6
2023-12-07T2300,2661A,107.6325,35.7357,庆阳市,庆阳五中,颗粒物(PM10),55,60,101,22,32,69,,74,62,18,19,9,6,0.3,0.6
2023-12-07T2300,2662A,107.6364,35.7067,庆阳市,市环保局,颗粒物(PM10),58,65,94,25,32,69,,73,64,14,17,7,11,0.3,0.3
