timepoint,stationcode,longitude,latitude,area,positionname,primarypollutant,aqi,pm10,pm10_24h,pm2_5,pm2_5_24h,o3,o3_24h,o3_8h,o3_8h_24h,no2,no2_24h,so2,so2_24h,co,co_24h
2025-01-20T2000,2566A,102.1879,31.914,阿坝藏族羌族自治州,州农科所,颗粒物(PM10),64,77,36,23,13,62,,66,66,15,15,6,7,0.9,0.9
2025-01-20T2000,2568A,102.2502,31.8896,阿坝藏族羌族自治州,马师校,,43,35,18,30,16,35,,56,54,22,16,6,6,0.6,0.4
2025-01-20T2000,3994A,102.2165,31.9024,阿坝藏族羌族自治州,马尔康中学西区,细颗粒物(PM2.5),52,38,37,36,17,41,,63,62,23,16,4,4,0.5,0.4
2025-01-20T2000,2695A,80.292,41.1694,阿克苏地区,电视台,颗粒物(PM10),79,107,137,53,82,77,,73,73,32,48,5,4,0.5,1.3
2025-01-20T2000,2696A,80.2613,41.1551,阿克苏地区,艺术中心,颗粒物(PM10),71,91,131,51,77,77,,70,70,21,49,4,4,0.7,1.6
2025-01-20T2000,2204A,105.6467,38.8363,阿拉善盟,西城区西花园,,35,35,31,16,17,78,,93,89,19,16,17,16,0.7,0.6
2025-01-20T2000,2205A,105.6985,38.8411,阿拉善盟,蒙二幼,,40,40,21,12,6,58,,88,79,26,13,2,3,0.4,0.3
2025-01-20T2000,2206A,105.724,38.8516,阿拉善盟,环保局新楼,,27,13,12,3,4,84,,99,86,7,6,12,12,0.5,0.5
2025-01-20T2000,2708A,88.1264,47.8517,阿勒泰地区,市站,,45,45,41,30,32,44,,46,46,37,50,8,10,0.5,0.6
2025-01-20T2000,2630A,80.1161,32.5,阿里地区,阿里监测站,,29,7,5,3,3,92,,89,89,1,4,9,9,0.6,0.5
2025-01-20T2000,3192A,80.0903,32.5028,阿里地区,阿里藏医院,,27,7,6,3,3,86,,83,83,1,4,6,7,0.5,0.6
2025-01-20T2000,2642A,109.0318,32.6537,安康市,香溪洞,细颗粒物(PM2.5),67,58,61,48,48,99,,89,89,14,16,10,10,0.8,0.8
2025-01-20T2000,2644A,109.0072,32.6975,安康市,汉滨区检察院,细颗粒物(PM2.5),84,93,72,62,48,40,,91,78,55,30,7,6,1.2,0.9
2025-01-20T2000,4054A,109.0325,32.6913,安康市,市邮政管理局,细颗粒物(PM2.5),113,130,87,85,60,7,,76,70,93,42,9,7,3.1,1.3
2025-01-20T2000,2291A,117.0809,30.5177,安庆市,环科院,细颗粒物(PM2.5),93,94,122,69,87,96,,132,132,41,66,13,11,0.8,1
2025-01-20T2000,2292A,117.0331,30.5119,安庆市,马山宾馆,细颗粒物(PM2.5),104,108,124,78,95,84,,131,130,48,66,12,11,0.8,1.1
2025-01-20T2000,2294A,116.9896,30.6145,安庆市,安庆大学,细颗粒物(PM2.5),122,152,133,92,91,88,,132,129,61,65,10,11,0.9,1.4
2025-01-20T2000,3173A,117.0598,30.5351,安庆市,市人大,细颗粒物(PM2.5),109,120,136,82,94,68,,132,128,67,72,10,11,0.8,1
2025-01-20T2000,3122A,105.9606,26.2611,安顺市,伍家关,细颗粒物(PM2.5),83,74,69,61,57,100,,103,103,21,20,26,29,1.0,1
2025-01-20T2000,3123A,105.9408,26.2431,安顺市,凤凰山,细颗粒物(PM2.5),92,82,75,68,62,91,,94,94,26,30,40,40,0.9,0.9
2025-01-20T2000,3124A,105.9439,26.2564,安顺市,金钟山,细颗粒物(PM2.5),87,79,68,64,56,93,,94,94,19,18,29,29,1.1,1
2025-01-20T2000,3125A,105.8983,26.2481,安顺市,娄家坡,细颗粒物(PM2.5),94,82,68,70,61,86,,90,90,23,21,32,29,1.0,0.9
2025-01-20T2000,1818A,114.4839,36.0621,安阳市,棉研所,细颗粒物(PM2.5),193,158,136,145,98,53,,80,79,49,50,13,14,0.9,1
2025-01-20T2000,1819A,114.3551,36.1017,安阳市,红庙街,细颗粒物(PM2.5),155,152,121,118,90,73,,88,88,42,43,15,10,1.3,1.6
2025-01-20T2000,1820A,114.361,36.0681,安阳市,银杏小区,细颗粒物(PM2.5),172,,115,130,95,70,,87,87,48,49,18,10,0.9,1.1
2025-01-20T2000,3141A,114.3922,36.0878,安阳市,信访局,细颗粒物(PM2.5),166,167,129,126,92,76,,90,90,42,50,10,9,0.7,1
2025-01-20T2000,3669A,114.4705,36.0637,安阳市,左辅环卫站,细颗粒物(PM2.5),185,193,149,139,103,58,,87,86,45,44,12,12,1.1,1.1
2025-01-20T2000,3703A,114.2917,36.0949,安阳市,安钢职工学校,细颗粒物(PM2.5),190,161,143,143,109,71,,86,86,51,52,12,11,0.8,1.3
2025-01-20T2000,1748A,123.044,41.1196,鞍山市,深沟寺,细颗粒物(PM2.5),98,127,85,73,49,14,,48,32,79,51,17,16,2.6,1.4
2025-01-20T2000,1749A,123.011,41.0931,鞍山市,太阳城,,,,76,54,51,18,,54,,,40,15,10,2.3,1.2
2025-01-20T2000,1750A,123.0485,41.1442,鞍山市,太平,细颗粒物(PM2.5),245,296,131,195,83,18,,40,33,100,55,29,18,4.3,1.9
2025-01-20T2000,1751A,122.9642,41.0971,鞍山市,铁西三道街,细颗粒物(PM2.5),388,474,155,338,104,27,,31,27,119,67,28,24,4.8,2.2
2025-01-20T2000,1753A,123.022,41.0821,鞍山市,明达新区,细颗粒物(PM2.5),143,148,70,109,52,22,,56,40,51,31,20,15,2.4,1.1
2025-01-20T2000,1754A,123.1289,41.0228,鞍山市,千山,,,,50,,23,,,46,,,20,,4,,0.7
2025-01-20T2000,4201A,122.9446,41.0826,鞍山市,兴盛南路290号,细颗粒物(PM2.5),236,282,154,186,102,19,,36,32,100,65,19,24,3.4,2.6
2025-01-20T2000,2195A,107.4212,40.761,巴彦淖尔市,附二中,细颗粒物(PM2.5),120,181,74,91,31,5,,59,38,82,27,18,9,1.2,0.5
2025-01-20T2000,2196A,107.37,40.7372,巴彦淖尔市,市环保大楼,颗粒物(PM10),86,122,56,46,25,4,,61,44,75,20,10,5,1.1,0.5
2025-01-20T2000,1956A,86.1472,41.7538,巴音郭楞蒙古自治州,孔雀公园,细颗粒物(PM2.5),69,78,98,50,69,56,,62,56,39,39,4,5,1.0,1.1
2025-01-20T2000,1957A,86.1972,41.7166,巴音郭楞蒙古自治州,棉纺厂,细颗粒物(PM2.5),78,97,112,57,59,21,,55,55,83,47,4,3,0.9,1
2025-01-20T2000,1958A,86.2357,41.7173,巴音郭楞蒙古自治州,经济开发区,颗粒物(PM10),65,79,77,44,51,68,,70,70,39,33,4,4,0.8,0.7
2025-01-20T2000,2914A,106.7677,31.8794,巴中市,苏山坪,细颗粒物(PM2.5),104,99,88,78,69,78,,77,77,22,19,4,3,0.6,0.7
2025-01-20T2000,3182A,106.7656,31.8545,巴中市,丽阳花园,细颗粒物(PM2.5),110,112,111,83,83,9,,62,61,72,36,4,4,1.3,1.1
2025-01-20T2000,3183A,106.7418,31.8654,巴中市,圣泉水务公司,细颗粒物(PM2.5),140,133,97,107,78,12,,72,70,75,35,5,4,1.1,0.9
2025-01-20T2000,3616A,106.7616,31.8344,巴中市,市中心医院,细颗粒物(PM2.5),99,102,110,74,91,21,,76,70,60,35,4,4,1.0,0.9
2025-01-20T2000,2235A,122.7911,45.6077,白城市,洮北区环保局,细颗粒物(PM2.5),63,53,48,45,45,64,,75,73,20,20,7,6,0.4,0.5
2025-01-20T2000,2236A,122.8738,45.5725,白城市,市环保局,细颗粒物(PM2.5),73,58,58,53,50,59,,71,69,21,26,3,2,0.4,0.4
2025-01-20T2000,2231A,126.4219,41.9171,白山市,喜丰,细颗粒物(PM2.5),72,90,75,52,40,32,,69,65,60,36,18,15,1.2,1
2025-01-20T2000,2232A,126.4077,41.9419,白山市,环保局,细颗粒物(PM2.5),87,97,70,64,38,12,,56,47,44,24,12,13,1.8,1.2
2025-01-20T2000,2647A,104.1724,36.5446,白银市,第三小学,细颗粒物(PM2.5),93,123,71,69,52,75,,74,74,48,45,177,76,1.3,1.3
2025-01-20T2000,2648A,104.1465,36.5482,白银市,动力公司,细颗粒物(PM2.5),78,90,51,57,42,38,,82,78,70,30,111,28,1.2,1
2025-01-20T2000,2512A,106.6103,23.9011,百色市,市监测站,细颗粒物(PM2.5),77,98,92,56,67,92,,133,133,29,35,13,18,1.2,1
2025-01-20T2000,2513A,106.6538,23.8859,百色市,市中心血站,细颗粒物(PM2.5),98,123,136,73,105,65,,127,126,78,56,17,27,1.2,1.2
2025-01-20T2000,3406A,106.6085,23.8798,百色市,祈福高中,颗粒物(PM10),84,118,120,61,72,92,,133,133,56,43,10,12,0.8,1
2025-01-20T2000,2270A,117.396,32.939,蚌埠市,工人疗养院,细颗粒物(PM2.5),128,144,142,97,104,11,,80,74,118,67,17,12,1.0,1.1
2025-01-20T2000,2271A,117.3605,32.9427,蚌埠市,百货大楼,细颗粒物(PM2.5),142,149,135,108,99,10,,74,68,114,65,14,13,1.2,1.1
2025-01-20T2000,2273A,117.4185,32.8911,蚌埠市,蚌埠学院,,,146,163,,124,54,,83,80,61,67,16,14,0.8,0.9
2025-01-20T2000,2274A,117.3533,32.9673,蚌埠市,淮上区政府,细颗粒物(PM2.5),147,163,143,112,100,40,,81,75,71,55,16,16,0.9,0.9
2025-01-20T2000,2275A,117.3145,32.8977,蚌埠市,高新区,细颗粒物(PM2.5),115,134,172,87,128,29,,82,75,83,68,13,15,0.9,1
2025-01-20T2000,3715A,117.3092,32.9314,蚌埠市,蚌埠田家炳中学,细颗粒物(PM2.5),130,137,150,99,111,26,,80,74,96,66,13,18,1.2,1
2025-01-20T2000,1585A,109.8756,40.6532,包头市,市环境监测站,颗粒物(PM10),79,108,97,54,48,7,,40,32,102,72,27,25,2.0,1.6
2025-01-20T2000,1587A,109.9991,40.5842,包头市,包头八中,细颗粒物(PM2.5),156,154,117,119,65,11,,45,41,94,65,25,26,2.0,2.5
2025-01-20T2000,1588A,109.8538,40.6821,包头市,青山宾馆,细颗粒物(PM2.5),173,146,98,131,72,6,,37,29,98,69,25,25,2.7,2.4
2025-01-20T2000,1589A,109.8642,40.6288,包头市,惠龙物流,颗粒物(PM10),67,84,103,40,52,30,,44,43,74,69,24,25,2.7,2
2025-01-20T2000,1590A,110.0377,40.5546,包头市,东河鸿龙湾,颗粒物(PM10),84,118,117,59,58,9,,50,47,89,60,19,20,1.9,2.1
2025-01-20T2000,3283A,109.9154,40.5685,包头市,滨河大厦,颗粒物(PM10),66,81,89,41,44,13,,50,48,89,68,21,22,1.7,2.1
2025-01-20T2000,3419A,109.9447,40.6261,包头市,包头市委党校,细颗粒物(PM2.5),92,113,93,68,45,9,,44,41,99,68,24,24,2.3,2.1
2025-01-20T2000,3683A,109.8331,40.6576,包头市,昆区政府,细颗粒物(PM2.5),90,106,99,67,61,4,,34,28,108,75,30,27,2.3,2.4
2025-01-20T2000,1930A,107.185,34.3063,宝鸡市,庙沟村,细颗粒物(PM2.5),92,71,56,68,43,51,,93,90,72,28,8,7,0.9,0.8
2025-01-20T2000,1931A,107.0708,34.3017,宝鸡市,竹园沟,细颗粒物(PM2.5),100,85,58,75,45,56,,85,85,36,28,7,7,0.6,0.6
2025-01-20T2000,1932A,107.1906,34.3672,宝鸡市,三陆医院,细颗粒物(PM2.5),115,105,88,87,65,37,,84,82,80,42,7,7,0.8,0.8
2025-01-20T2000,1933A,107.1431,34.3547,宝鸡市,监测站,细颗粒物(PM2.5),115,94,88,87,58,49,,85,83,37,39,8,8,0.8,0.8
2025-01-20T2000,1934A,107.1186,34.3739,宝鸡市,技工学校,细颗粒物(PM2.5),102,94,84,76,60,45,,78,77,59,36,10,8,0.8,0.8
2025-01-20T2000,1935A,107.3906,34.3528,宝鸡市,陈仓区环保局家属楼,细颗粒物(PM2.5),125,122,120,95,92,16,,85,80,100,52,10,47,1.2,1
2025-01-20T2000,1936A,107.2058,34.3497,宝鸡市,文理学院,细颗粒物(PM2.5),94,90,82,70,58,38,,93,91,60,35,7,7,0.7,0.6
2025-01-20T2000,1937A,107.2386,34.3622,宝鸡市,三迪小学,细颗粒物(PM2.5),107,,78,80,63,33,,80,79,85,48,8,8,1.0,0.8
2025-01-20T2000,1051A,115.493,38.8632,保定市,游泳馆,细颗粒物(PM2.5),129,153,107,98,71,7,,51,46,101,71,18,19,1.8,1.3
2025-01-20T2000,1052A,115.5213,38.8959,保定市,华电二区,细颗粒物(PM2.5),165,135,90,125,71,18,,47,46,76,60,10,9,1.0,0.8
2025-01-20T2000,1053A,115.4713,38.9108,保定市,接待中心,细颗粒物(PM2.5),130,138,101,99,71,18,,48,45,79,56,5,6,1.3,1.1
2025-01-20T2000,1054A,115.4612,38.8416,保定市,地表水厂,细颗粒物(PM2.5),117,153,127,88,76,15,,58,54,91,64,12,11,1.4,0.9
2025-01-20T2000,3581A,115.31981,38.95208,保定市,满城区生态环境分局,细颗粒物(PM2.5),178,197,122,134,77,13,,55,49,99,49,14,11,1.7,1
2025-01-20T2000,3582A,115.47694,38.76408,保定市,清苑区第二中学,细颗粒物(PM2.5),137,183,125,104,78,18,,57,54,98,68,19,15,1.5,1
2025-01-20T2000,3583A,115.62909,39.02311,保定市,徐水物探局,细颗粒物(PM2.5),149,161,104,114,74,3,,30,28,89,63,16,14,1.5,0.9
2025-01-20T2000,4004A,115.4202,38.8656,保定市,双鹰农机,细颗粒物(PM2.5),140,149,107,107,73,16,,57,54,80,57,6,8,1.6,1.2
2025-01-20T2000,4034A,115.5150,38.8590,保定市,植保所站,细颗粒物(PM2.5),135,139,109,103,72,5,,46,42,91,64,12,11,1.3,1
2025-01-20T2000,2594A,99.1678,25.1081,保山市,市环境监测站,,32,32,25,16,17,71,,90,89,11,9,6,5,0.5,0.5
2025-01-20T2000,2595A,99.1711,25.1328,保山市,市环保局,,30,30,27,20,22,79,,92,92,4,7,6,5,0.2,0.5
2025-01-20T2000,1866A,109.2262,21.588,北海市,牛尾岭水库,细颗粒物(PM2.5),94,118,102,70,107,55,,79,79,23,16,6,6,0.9,0.9
2025-01-20T2000,1867A,109.1436,21.4086,北海市,海滩公园,细颗粒物(PM2.5),95,98,113,71,99,186,,189,189,25,28,14,13,1.4,1.3
2025-01-20T2000,1868A,109.0981,21.4661,北海市,新市环保局,细颗粒物(PM2.5),94,90,113,70,102,177,,180,180,35,34,12,14,0.7,0.9
2025-01-20T2000,1869A,109.1778,21.5233,北海市,北海工业园,细颗粒物(PM2.5),123,122,142,93,122,137,,177,177,45,33,12,17,1.5,1.3
2025-01-20T2000,3400A,109.1911,21.4415,北海市,龙潭自来水厂,细颗粒物(PM2.5),127,113,115,96,113,109,,166,162,54,34,11,10,0.9,1.2
2025-01-20T2000,1001A,116.3621,39.8784,北京市,万寿西宫,颗粒物(PM10),103,155,66,63,28,14,,41,36,89,54,10,7,0.8,0.5
2025-01-20T2000,1002A,116.2202,40.2915,北京市,定陵,,,,,,,,,,,,,,,,
2025-01-20T2000,1003A,116.4174,39.9289,北京市,东四,细颗粒物(PM2.5),100,117,56,75,31,21,,34,32,56,44,6,4,0.8,0.5
2025-01-20T2000,1004A,116.4072,39.8863,北京市,天坛,细颗粒物(PM2.5),103,109,57,77,33,21,,42,37,58,46,3,3,0.6,0.4
2025-01-20T2000,1005A,116.462,39.9365,北京市,农展馆,细颗粒物(PM2.5),90,118,60,67,30,25,,41,39,74,59,6,5,1.0,0.8
2025-01-20T2000,1006A,116.3392,39.9295,北京市,官园,,,146,54,,20,12,,42,34,75,46,9,6,0.8,0.6
2025-01-20T2000,1007A,116.2878,39.9611,北京市,海淀万柳,细颗粒物(PM2.5),87,121,54,64,25,3,,34,27,84,56,5,5,1.3,0.7
2025-01-20T2000,1008A,116.6636,40.135,北京市,顺义新城,细颗粒物(PM2.5),72,89,54,52,28,3,,36,22,85,52,2,4,0.7,0.5
2025-01-20T2000,1009A,116.6275,40.3275,北京市,怀柔镇,颗粒物(PM10),64,77,37,41,19,18,,40,31,51,31,6,3,0.6,0.7
2025-01-20T2000,1010A,116.2296,40.217,北京市,昌平镇,颗粒物(PM10),54,58,43,28,20,31,,38,38,36,38,4,3,0.6,0.7
2025-01-20T2000,1011A,116.3966,39.9821,北京市,奥体中心,细颗粒物(PM2.5),90,114,53,67,29,8,,39,32,83,49,7,6,0.9,0.5
2025-01-20T2000,3281A,115.9718,40.4529,北京市,延庆夏都,细颗粒物(PM2.5),77,96,54,56,31,9,,37,33,59,38,7,6,1.2,0.8
2025-01-20T2000,3417A,117.0709,40.1465,北京市,平谷新城,细颗粒物(PM2.5),137,160,66,104,40,5,,33,26,79,41,3,4,1.2,0.7
2025-01-20T2000,3418A,116.8336,40.4095,北京市,密云新城,颗粒物(PM10),62,73,40,42,21,18,,48,37,53,25,4,2,0.7,0.3
2025-01-20T2000,3671A,116.088,39.9726,北京市,门头沟三家店,颗粒物(PM10),66,82,55,35,22,1,,42,19,2,36,4,4,0.7,0.4
2025-01-20T2000,3672A,116.1541,39.8204,北京市,丰台云岗,细颗粒物(PM2.5),95,121,62,71,29,23,,36,35,66,46,7,6,0.6,0.4
2025-01-20T2000,3673A,116.6804,39.9081,北京市,通州东关,细颗粒物(PM2.5),115,136,70,87,40,2,,24,21,101,65,7,4,0.8,0.5
2025-01-20T2000,3674A,115.9577,39.7603,北京市,房山燕山,细颗粒物(PM2.5),80,84,49,59,35,17,,46,37,60,32,8,3,1.2,0.6
2025-01-20T2000,3675A,116.4672,39.7733,北京市,大兴旧宫,细颗粒物(PM2.5),95,120,70,71,37,23,,39,39,50,52,3,3,0.7,0.5
2025-01-20T2000,3694A,115.986,40.4563,北京市,延庆石河营,细颗粒物(PM2.5),80,101,57,59,33,5,,34,30,62,40,5,5,1.1,0.9
2025-01-20T2000,3695A,116.6151,40.3053,北京市,怀柔新城,细颗粒物(PM2.5),75,72,35,55,21,13,,40,29,54,22,4,3,0.6,0.3
2025-01-20T2000,3696A,116.2545,39.8768,北京市,丰台小屯,细颗粒物(PM2.5),98,122,64,73,31,2,,33,26,102,63,7,6,1.0,0.6
2025-01-20T2000,3697A,116.84,40.3844,北京市,密云镇,颗粒物(PM10),88,125,51,61,24,4,,40,29,80,49,8,6,1.2,0.7
2025-01-20T2000,4182A,116.1942,39.91583,北京市,八角,颗粒物(PM10),85,119,58,59,27,6,,37,31,73,46,3,2,0.8,0.4
2025-01-20T2000,1761A,123.8275,41.3064,本溪市,大峪,细颗粒物(PM2.5),89,110,98,66,56,12,,49,43,77,53,13,11,2.7,2.1
2025-01-20T2000,1762A,123.7567,41.3325,本溪市,溪湖,细颗粒物(PM2.5),119,162,115,90,64,8,,39,37,70,53,15,13,2.1,2
2025-01-20T2000,1763A,123.7169,41.3094,本溪市,彩屯,细颗粒物(PM2.5),78,77,93,57,67,34,,48,48,40,46,9,12,1.1,1.9
2025-01-20T2000,1764A,123.7669,41.2864,本溪市,东明,细颗粒物(PM2.5),95,104,108,71,59,6,,31,28,80,59,16,10,2.3,2.1
2025-01-20T2000,1765A,123.7992,41.2664,本溪市,新立屯,颗粒物(PM10),52,53,72,28,23,22,,48,39,67,60,6,11,1.2,2
2025-01-20T2000,1766A,123.8142,41.3472,本溪市,威宁,细颗粒物(PM2.5),124,160,110,94,58,10,,49,43,68,43,5,6,3.0,1.5
2025-01-20T2000,2587A,105.2864,27.3125,毕节市,八中,细颗粒物(PM2.5),143,128,57,109,51,65,,73,73,30,16,15,8,1.3,0.9
2025-01-20T2000,2588A,105.31,27.2944,毕节市,师专,,,,57,,43,57,,68,68,37,19,,7,,0.9
2025-01-20T2000,3537A,105.3631,27.3533,毕节市,长征村,细颗粒物(PM2.5),133,114,45,101,40,89,,86,86,16,11,10,8,1.0,0.8
2025-01-20T2000,1629A,118.0018,37.3617,滨州市,第二水厂,颗粒物(PM10),62,73,83,39,50,19,,64,59,78,52,22,17,0.6,0.7
2025-01-20T2000,1630A,117.9776,37.393,滨州市,北中新校,颗粒物(PM10),79,107,91,53,49,4,,59,47,93,61,15,18,1.2,0.6
2025-01-20T2000,3514A,117.9378,37.3956,滨州市,中海酒店,细颗粒物(PM2.5),67,73,88,48,58,27,,69,63,60,49,21,20,0.9,1
2025-01-20T2000,3515A,117.9378,37.3553,滨州市,开发区一中,细颗粒物(PM2.5),73,90,86,53,49,38,,71,67,59,59,22,19,0.7,0.7
2025-01-20T2000,3516A,118.0917,37.694,滨州市,金海六路,细颗粒物(PM2.5),79,88,87,58,55,29,,61,59,67,61,20,23,1.0,1
2025-01-20T2000,4028A,117.9956,37.3753,滨州市,滨州市西街道办事处,细颗粒物(PM2.5),73,80,82,53,56,15,,63,56,73,49,16,15,0.8,0.8
2025-01-20T2000,2311A,115.8072,33.8399,亳州市,污水处理厂,细颗粒物(PM2.5),124,128,125,94,90,,,110,110,34,36,11,13,0.8,0.9
2025-01-20T2000,2312A,115.7789,33.8518,亳州市,三国揽胜宫,细颗粒物(PM2.5),114,131,143,86,94,96,,109,109,41,47,8,10,0.9,1.1
2025-01-20T2000,3332A,115.7633,33.8034,亳州市,亳州学院,细颗粒物(PM2.5),103,121,117,77,74,102,,112,112,29,43,8,8,0.8,1
2025-01-20T2000,2693A,82.0485,44.8556,博尔塔拉蒙古自治州,市党校,细颗粒物(PM2.5),98,109,111,73,69,52,,69,60,35,26,9,9,1.3,1.3
2025-01-20T2000,2694A,82.0806,44.8969,博尔塔拉蒙古自治州,市环保局,细颗粒物(PM2.5),93,133,124,69,70,49,,68,62,50,38,7,8,1.4,1.6
2025-01-20T2000,1071A,116.8842,38.2991,沧州市,沧县城建局,细颗粒物(PM2.5),108,106,91,81,61,22,,58,54,67,55,10,16,1.0,1.1
2025-01-20T2000,1072A,116.8584,38.3254,沧州市,电视转播站,细颗粒物(PM2.5),107,108,83,80,57,23,,64,61,69,60,9,17,1.1,1
2025-01-20T2000,1073A,116.8709,38.3228,沧州市,市环保局,细颗粒物(PM2.5),79,91,80,58,53,19,,60,54,68,54,10,16,0.7,0.9
2025-01-20T2000,3324A,116.8136,38.3004,沧州市,河北水利电力学院,细颗粒物(PM2.5),90,105,90,67,55,25,,53,53,61,56,17,22,0.6,1
2025-01-20T2000,2622A,97.1806,31.1273,昌都市,昌都监测站,,48,,29,33,17,37,,72,70,51,17,9,7,1.9,1.1
2025-01-20T2000,3719A,97.1714,31.1406,昌都市,昌都会议中心,,,19,16,15,7,,,81,81,12,5,4,4,0.5,0.2
2025-01-20T2000,2690A,88.1236,43.8886,昌吉回族自治州,天山天池,,25,6,6,3,3,80,,92,89,2,2,6,6,0.5,0.5
2025-01-20T2000,2692A,87.2717,44.0297,昌吉回族自治州,新区政务中心,颗粒物(PM10),486,586,203,440,149,24,,44,44,61,62,3,2,2.3,1.5
2025-01-20T2000,3613A,87.3095,44.0142,昌吉回族自治州,亚心广场,细颗粒物(PM2.5),412,412,212,368,183,30,,57,57,42,45,5,5,2.0,1.4
2025-01-20T2000,1119A,125.3325,43.9166,长春市,食品厂,细颗粒物(PM2.5),160,159,96,122,82,10,,55,47,90,48,18,13,1.7,0.9
2025-01-20T2000,1120A,125.2863,43.9027,长春市,客车厂,细颗粒物(PM2.5),127,153,77,96,70,12,,60,50,91,54,16,14,1.2,0.8
2025-01-20T2000,1121A,125.2841,43.8463,长春市,邮电学院,细颗粒物(PM2.5),74,70,74,54,69,34,,72,66,56,36,11,13,0.9,0.8
2025-01-20T2000,1122A,125.3716,43.8772,长春市,劳动公园,细颗粒物(PM2.5),113,105,78,85,66,28,,67,61,73,44,10,11,1.1,0.8
2025-01-20T2000,1123A,125.3297,43.8805,长春市,园林处,细颗粒物(PM2.5),99,86,69,74,57,23,,65,58,71,38,20,16,0.9,0.6
2025-01-20T2000,1124A,125.4605,43.79,长春市,净月潭,,,74,76,67,63,69,,78,78,11,18,7,7,,0.5
2025-01-20T2000,1125A,125.7194,43.515,长春市,甩湾子,,,,,,,,,,,,,,,,
2025-01-20T2000,1126A,125.3863,43.8447,长春市,经开区环卫处,颗粒物(PM10),79,107,94,51,59,20,,56,47,70,47,10,12,1.1,1.1
2025-01-20T2000,1127A,125.245,43.7783,长春市,高新区管委会,细颗粒物(PM2.5),156,,73,119,65,15,,66,53,83,49,11,9,1.8,1.1
2025-01-20T2000,1128A,125.1761,43.8325,长春市,岱山公园,细颗粒物(PM2.5),90,107,75,67,64,10,,61,51,100,60,11,10,1.4,0.8
2025-01-20T2000,1335A,113.0833,28.2325,长沙市,经开区环保局,细颗粒物(PM2.5),103,127,138,77,91,122,,118,118,36,51,8,6,0.7,0.8
2025-01-20T2000,1336A,112.8872,28.2189,长沙市,高开区环保局,细颗粒物(PM2.5),112,123,133,84,96,109,,130,130,38,50,8,7,0.8,0.9
2025-01-20T2000,1337A,113.0792,28.2053,长沙市,马坡岭,细颗粒物(PM2.5),114,120,141,86,103,50,,110,108,95,74,5,5,1.0,1
2025-01-20T2000,1338A,112.9394,28.19,长沙市,湖南师范大学,细颗粒物(PM2.5),98,114,132,73,93,103,,124,124,34,40,6,7,1.0,1
2025-01-20T2000,1339A,113.0178,28.1322,长沙市,雨花区环保局,细颗粒物(PM2.5),104,114,137,78,98,97,,131,126,,77,6,7,1.0,1.1
2025-01-20T2000,1340A,112.9792,28.2597,长沙市,伍家岭,细颗粒物(PM2.5),125,150,168,95,111,48,,113,109,99,68,7,6,1.3,1.1
2025-01-20T2000,1341A,113.0014,28.1944,长沙市,火车新站,细颗粒物(PM2.5),113,125,143,85,99,95,,123,123,59,68,5,5,1.0,1
2025-01-20T2000,1342A,112.9844,28.1178,长沙市,天心区环保局,细颗粒物(PM2.5),135,148,135,103,101,96,,132,131,62,65,4,4,1.7,1.3
2025-01-20T2000,1343A,112.8908,28.1308,长沙市,湖南中医药大学,细颗粒物(PM2.5),134,147,137,102,100,21,,133,111,95,53,7,8,1.1,1.1
2025-01-20T2000,1344A,112.9581,28.3611,长沙市,沙坪,细颗粒物(PM2.5),99,83,102,74,92,122,,120,120,20,30,10,10,1.0,1.1
2025-01-20T2000,1727A,113.1147,36.1547,长治市,清华站,颗粒物(PM10),53,56,56,34,31,79,,83,83,27,35,23,22,1.3,1.3
2025-01-20T2000,1730A,113.0886,36.2125,长治市,审计局,细颗粒物(PM2.5),67,62,77,48,48,44,,69,69,61,49,14,26,0.8,1
2025-01-20T2000,1731A,113.0844,36.1856,长治市,长治八中,颗粒物(PM10),86,121,103,62,59,62,,64,64,35,48,17,23,0.8,1.1
2025-01-20T2000,2845A,113.1569,36.1911,长治市,德盛苑,颗粒物(PM10),55,59,50,34,31,92,,89,89,21,25,29,16,0.7,1
2025-01-20T2000,3568A,113.06,36.0464,长治市,向阳小学,"颗粒物(PM10),细颗粒物(PM2.5)",68,85,68,49,38,74,,91,91,24,19,44,69,0.8,0.8
2025-01-20T2000,3569A,112.8792,36.3144,长治市,屯留一中,细颗粒物(PM2.5),82,100,65,60,42,8,,80,74,102,64,24,26,1.5,1.2
2025-01-20T2000,4189A,113.1131,36.19948,长治市,英华南巷50号,细颗粒物(PM2.5),64,68,66,46,38,59,,80,75,52,42,16,25,0.8,1
2025-01-20T2000,4190A,113.2367,36.3344,长治市,学府街1号,细颗粒物(PM2.5),67,76,97,48,56,5,,82,71,68,46,10,22,1.0,1.8
2025-01-20T2000,1854A,111.6975,28.9703,常德市,市二中,细颗粒物(PM2.5),156,149,129,119,113,85,,123,123,50,31,7,5,0.7,0.7
2025-01-20T2000,1857A,111.7158,29.1456,常德市,白鹤山,,,,,,,,,,,,,,,,
2025-01-20T2000,3138A,111.7153,29.0289,常德市,武陵区永安,细颗粒物(PM2.5),150,152,134,115,106,124,,145,145,23,24,7,5,0.7,0.7
2025-01-20T2000,3139A,111.6892,28.9881,常德市,鼎城区玉霞,细颗粒物(PM2.5),163,164,146,124,108,75,,132,131,47,33,11,8,1.0,0.9
2025-01-20T2000,3140A,111.6625,29.0531,常德市,武陵区长庚,细颗粒物(PM2.5),134,153,135,102,100,117,,141,141,27,29,4,3,0.7,0.7
2025-01-20T2000,1196A,119.9633,31.762,常州市,市监测站,细颗粒物(PM2.5),186,196,164,140,116,18,,87,77,131,93,16,14,1.2,1.1
2025-01-20T2000,1200A,119.9468,31.7069,常州市,武进监测站,细颗粒物(PM2.5),150,144,141,115,106,16,,90,78,112,64,9,13,1.3,1
2025-01-20T2000,1201A,119.9255,31.9087,常州市,安家,细颗粒物(PM2.5),166,165,174,126,130,6,,74,61,133,98,17,18,1.3,1.3
2025-01-20T2000,3002A,119.9805,31.8174,常州市,行政中心,细颗粒物(PM2.5),173,148,144,131,117,10,,77,68,119,76,22,21,1.2,1.1
2025-01-20T2000,3003A,120.0522,31.7748,常州市,经开区,细颗粒物(PM2.5),207,205,158,157,116,6,,96,78,149,81,18,15,,1
2025-01-20T2000,3010A,119.9025,31.7964,常州市,钟楼,细颗粒物(PM2.5),168,167,147,127,112,6,,80,70,126,78,16,13,1.4,1
2025-01-20T2000,3429A,119.8598,31.7066,常州市,武进经发区,细颗粒物(PM2.5),130,138,148,99,108,19,,94,81,111,60,13,12,1.0,0.9
2025-01-20T2000,3430A,119.5826,31.7245,常州市,金坛城区,细颗粒物(PM2.5),107,108,131,80,97,62,,91,88,48,38,12,12,0.9,0.9
2025-01-20T2000,2220A,120.4318,41.5881,朝阳市,西梁,细颗粒物(PM2.5),89,113,83,66,61,24,,57,55,70,49,22,22,1.1,1.7
2025-01-20T2000,2221A,120.4521,41.5646,朝阳市,河畔小区,细颗粒物(PM2.5),119,118,67,90,47,20,,61,55,66,39,18,14,1.3,1.1
2025-01-20T2000,2222A,120.4176,41.5648,朝阳市,八里堡,细颗粒物(PM2.5),107,117,71,80,50,27,,66,63,66,40,22,17,1.4,1.4
2025-01-20T2000,2223A,120.3806,41.5969,朝阳市,农业园区,细颗粒物(PM2.5),103,77,65,77,50,23,,59,57,65,40,24,17,1.1,1.2
2025-01-20T2000,1705A,116.6367,23.6719,潮州市,西园路,细颗粒物(PM2.5),62,69,62,44,46,111,,122,122,25,19,6,5,0.6,0.5
2025-01-20T2000,3026A,116.6183,23.6608,潮州市,市政府,颗粒物(PM10),54,57,62,26,37,105,,118,118,24,24,5,5,0.5,0.5
2025-01-20T2000,4036A,116.6461,23.6761,潮州市,金山,细颗粒物(PM2.5),52,46,51,36,41,99,,111,111,24,19,7,5,0.5,0.6
2025-01-20T2000,2472A,113.0073,25.9061,郴州市,马头岭,颗粒物(PM10),62,74,76,28,38,120,,125,125,20,24,16,14,0.8,0.8
2025-01-20T2000,2473A,113.0116,25.8226,郴州市,市职中,"颗粒物(PM10),细颗粒物(PM2.5)",84,117,75,62,50,41,,116,104,56,29,11,10,1.0,0.8
2025-01-20T2000,2474A,113.0161,25.8001,郴州市,兴隆步行街,,,,88,,54,,,60,,,40,,9,,0.8
2025-01-20T2000,2475A,113.0383,25.8071,郴州市,市审计局,细颗粒物(PM2.5),73,87,80,53,54,27,,112,105,71,39,12,9,1.4,1.8
2025-01-20T2000,2476A,113.0348,25.7759,郴州市,市环保局,"颗粒物(PM10),细颗粒物(PM2.5)",62,74,82,44,55,54,,106,101,46,49,13,14,0.9,0.9
2025-01-20T2000,1431A,103.9728,30.7236,成都市,金泉两河,细颗粒物(PM2.5),104,90,80,78,61,,,100,100,43,41,2,2,0.8,0.8
2025-01-20T2000,1432A,104.176,30.6872,成都市,十里店,细颗粒物(PM2.5),104,91,77,78,65,73,,96,96,34,33,2,2,0.6,0.6
2025-01-20T2000,1433A,104.079,30.5706,成都市,三瓦窑,细颗粒物(PM2.5),108,89,84,81,60,73,,94,94,38,40,3,3,0.7,0.6
2025-01-20T2000,1434A,104.1114,30.63,成都市,沙河铺,细颗粒物(PM2.5),102,98,81,76,65,64,,91,91,34,32,4,4,0.8,0.8
2025-01-20T2000,1437A,104.0786,30.6531,成都市,君平街,细颗粒物(PM2.5),109,94,76,82,70,80,,98,98,37,38,3,4,0.8,0.8
2025-01-20T2000,1438A,103.613,31.0283,成都市,灵岩寺,,,,,,,,,,,,,,,,
2025-01-20T2000,2880A,104.0239,30.65639,成都市,大石西路,细颗粒物(PM2.5),100,93,76,75,60,81,,105,105,33,37,3,4,1.1,1.1
2025-01-20T2000,3136A,104.2725,30.5589,成都市,龙泉驿区区政府,细颗粒物(PM2.5),94,92,76,70,60,80,,101,100,24,22,3,3,0.9,0.7
2025-01-20T2000,3357A,104.0106,30.6931,成都市,金博路,细颗粒物(PM2.5),94,99,72,70,54,54,,91,90,50,35,1,2,0.9,0.7
2025-01-20T2000,3359A,104.0578,30.5225,成都市,华阳,,,88,77,70,64,51,,94,91,51,31,,3,0.9,0.6
2025-01-20T2000,3488A,104.3853,30.7453,成都市,青白江技师分院,细颗粒物(PM2.5),119,99,74,90,62,87,,104,104,26,31,4,3,0.7,0.6
2025-01-20T2000,3489A,104.0789,30.4072,成都市,科学城,细颗粒物(PM2.5),89,76,69,66,58,66,,91,89,16,16,4,4,0.8,0.7
2025-01-20T2000,4011A,103.8506,30.6947,成都市,光华大道三段,细颗粒物(PM2.5),82,90,79,60,61,47,,90,88,61,34,2,2,1.0,0.7
2025-01-20T2000,4224A,104.2433,30.5353,成都市,鲸龙路1057号,细颗粒物(PM2.5),94,95,84,70,64,77,,103,102,36,30,2,1,0.9,0.8
2025-01-20T2000,1062A,117.9531,40.9081,承德市,铁路,细颗粒物(PM2.5),95,102,66,71,40,7,,30,25,57,44,24,14,1.7,1.1
2025-01-20T2000,1063A,117.9392,40.9763,承德市,中国银行,细颗粒物(PM2.5),85,104,69,63,36,3,,39,28,54,40,12,8,1.6,0.9
2025-01-20T2000,1064A,117.9503,40.928,承德市,开发区,颗粒物(PM10),63,75,62,43,35,12,,42,35,51,43,14,11,1.4,1
2025-01-20T2000,1065A,117.8051,40.9655,承德市,文化中心,细颗粒物(PM2.5),147,160,99,112,47,4,,30,24,66,54,29,34,1.6,1.3
2025-01-20T2000,1066A,117.9268,41.0026,承德市,离宫,细颗粒物(PM2.5),79,78,55,58,39,19,,38,32,45,36,15,9,1.2,0.7
2025-01-20T2000,2314A,117.47,30.6618,池州市,池州学院,细颗粒物(PM2.5),159,156,117,121,91,105,,114,114,37,49,12,11,1.0,1.2
2025-01-20T2000,3237A,117.4918,30.6617,池州市,展览馆,细颗粒物(PM2.5),129,145,105,98,75,89,,109,108,42,50,9,9,0.9,1
2025-01-20T2000,3333A,117.5627,30.695,池州市,第八中学,细颗粒物(PM2.5),145,151,125,111,90,106,,120,120,35,47,11,13,0.9,0.9
2025-01-20T2000,3334A,117.5038,30.6243,池州市,第十二中学,细颗粒物(PM2.5),135,137,112,103,83,97,,122,122,40,48,10,8,1.0,1.5
2025-01-20T2000,1744A,118.9233,42.2816,赤峰市,松山一中,,36,36,57,11,28,59,,57,57,23,45,9,22,0.7,1.2
2025-01-20T2000,1745A,118.9576,42.2728,赤峰市,哈达街,,32,27,44,22,29,62,,59,59,29,46,9,17,0.7,1.1
2025-01-20T2000,1746A,118.8788,42.2554,赤峰市,天义路,,49,49,47,12,26,46,,53,53,30,36,9,13,0.4,0.8
2025-01-20T2000,3058A,119.2658,42.0353,赤峰市,银河街,颗粒物(PM10),75,100,92,45,54,53,,49,49,24,44,19,30,0.6,1.5
2025-01-20T2000,3286A,118.9359,42.3147,赤峰市,桥北物流园区,,25,22,42,17,31,58,,50,50,21,46,12,15,0.4,0.8
2025-01-20T2000,2521A,107.3476,22.4136,崇左市,市环保局江州分局,颗粒物(PM10),95,139,111,60,69,63,,161,156,87,36,6,6,1.1,1
2025-01-20T2000,2522A,107.3702,22.3707,崇左市,城南新区,细颗粒物(PM2.5),72,89,108,52,87,122,,173,172,40,34,8,7,0.9,1
2025-01-20T2000,2298A,118.3093,32.3153,滁州市,老年大学,细颗粒物(PM2.5),100,117,109,75,81,20,,81,75,96,49,5,5,1.3,0.8
2025-01-20T2000,2299A,118.3244,32.2786,滁州市,人大宾馆,细颗粒物(PM2.5),93,108,122,69,93,12,,78,71,93,50,10,12,1.3,0.9
2025-01-20T2000,3207A,118.3118,32.3038,滁州市,市政府原办公楼,细颗粒物(PM2.5),103,94,108,77,87,25,,81,72,83,46,8,8,1.0,0.7
2025-01-20T2000,3331A,118.3267,32.2634,滁州市,图书馆,颗粒物(PM10),72,93,115,50,67,26,,80,78,84,42,8,10,1.1,0.9
2025-01-20T2000,2605A,101.5482,25.0441,楚雄彝族自治州,州环境监测站,,32,,28,22,22,73,,79,79,6,19,6,8,0.6,0.6
2025-01-20T2000,2606A,101.538,25.0492,楚雄彝族自治州,市经济开发区,,49,49,35,23,24,70,,76,76,10,20,5,8,0.6,0.7
2025-01-20T2000,2548A,107.5277,31.2827,达州市,达州职业技术学院,细颗粒物(PM2.5),160,157,119,122,93,11,,61,58,61,28,7,7,1.3,0.9
2025-01-20T2000,2549A,107.5086,31.2186,达州市,市环境监测站,细颗粒物(PM2.5),125,142,119,95,86,22,,52,52,79,49,7,7,1.7,1.2
2025-01-20T2000,2550A,107.4988,31.2132,达州市,凤凰小区,细颗粒物(PM2.5),147,156,120,112,92,13,,49,47,90,48,10,10,1.7,1.1
2025-01-20T2000,2551A,107.5082,31.1986,达州市,达县机关宾馆,细颗粒物(PM2.5),148,171,130,113,91,5,,45,42,94,52,8,8,1.7,1.3
2025-01-20T2000,2552A,107.4644,31.2124,达州市,市政中心,细颗粒物(PM2.5),140,165,128,107,89,5,,47,45,108,58,7,8,2.0,1.4
2025-01-20T2000,2614A,100.1542,25.7054,大理白族自治州,大理市环境监测站,,29,,23,20,15,84,,82,82,6,7,8,7,0.4,0.5
2025-01-20T2000,2615A,100.2171,25.5811,大理白族自治州,大理古城,,46,40,23,32,16,47,,95,89,50,14,7,6,0.9,0.7
2025-01-20T2000,1109A,121.612,38.9741,大连市,甘井子,,46,46,49,27,28,38,,54,49,53,33,10,11,0.7,0.6
2025-01-20T2000,1110A,121.565,38.9511,大连市,周水子,,38,37,47,26,34,53,,68,62,42,36,20,9,0.4,0.4
2025-01-20T2000,1111A,121.5637,38.8845,大连市,星海三站,,40,40,46,26,28,60,,73,69,34,24,14,15,0.5,0.7
2025-01-20T2000,1112A,121.6302,38.9117,大连市,青泥洼桥,,33,33,47,20,27,67,,60,60,17,22,14,15,0.5,0.6
2025-01-20T2000,1113A,121.6251,38.8638,大连市,傅家庄,,34,34,44,15,25,83,,74,74,11,14,10,14,0.5,0.7
2025-01-20T2000,1114A,121.5213,38.8661,大连市,七贤岭,,38,38,38,22,24,70,,73,71,24,21,9,11,0.6,0.7
2025-01-20T2000,1115A,121.2529,38.8061,大连市,旅顺,,31,31,38,21,28,86,,69,65,10,21,9,9,0.7,0.7
2025-01-20T2000,1116A,121.7485,39.1311,大连市,金州,细颗粒物(PM2.5),78,92,54,57,37,36,,72,52,57,32,14,11,1.2,0.8
2025-01-20T2000,1117A,121.7811,39.0496,大连市,开发区,细颗粒物(PM2.5),82,84,52,60,32,10,,67,40,89,33,20,14,1.1,0.4
2025-01-20T2000,1118A,121.9762,39.0631,大连市,双D港,颗粒物(PM10),64,78,56,43,32,19,,80,65,69,29,15,14,1.1,0.8
2025-01-20T2000,1789A,124.81117,46.03138,大庆市,大同区,细颗粒物(PM2.5),222,210,192,172,161,49,,68,66,53,49,16,12,1.3,1.3
2025-01-20T2000,1790A,125.129,46.533,大庆市,龙凤区,细颗粒物(PM2.5),199,189,165,149,134,58,,66,66,55,55,10,8,1.4,1.3
2025-01-20T2000,1791A,124.902,46.408,大庆市,红岗区,细颗粒物(PM2.5),245,220,163,195,134,67,,76,75,40,48,8,7,1.5,1.2
2025-01-20T2000,1792A,125.153,46.586,大庆市,萨尔图区,细颗粒物(PM2.5),237,220,157,187,137,72,,73,73,47,45,9,7,1.3,1
2025-01-20T2000,1793A,124.9042,46.6215,大庆市,让胡路区,细颗粒物(PM2.5),234,207,128,184,113,46,,64,58,71,50,11,8,1.5,1
2025-01-20T2000,3481A,125.141,46.634,大庆市,萨区政府监测点,细颗粒物(PM2.5),230,206,158,180,129,73,,74,74,38,38,5,6,1.4,1.1
2025-01-20T2000,1721A,113.3819,40.1097,大同市,果树场,,,,,,,,,,,,,,,,
2025-01-20T2000,1723A,113.2994,40.0758,大同市,云冈宾馆,颗粒物(PM10),54,58,87,30,36,40,,63,63,42,46,15,25,0.6,1.5
2025-01-20T2000,1724A,113.3444,40.0917,大同市,大同大学,颗粒物(PM10),53,55,69,32,32,37,,62,61,48,42,10,26,0.6,1
2025-01-20T2000,1725A,113.2661,40.1269,大同市,安家小村,颗粒物(PM10),54,58,85,31,31,43,,67,67,40,38,13,27,0.5,2
2025-01-20T2000,1726A,113.2711,40.0844,大同市,教育学院,颗粒物(PM10),54,58,91,24,37,36,,57,57,46,49,14,24,0.6,1.8
2025-01-20T2000,3282A,113.3397,40.0597,大同市,大同市卫生学校,颗粒物(PM10),54,57,83,29,34,39,,52,52,50,53,12,22,0.7,1.3
2025-01-20T2000,3565A,113.1367,40.1122,大同市,云冈站,颗粒物(PM10),52,53,71,27,25,13,,71,67,68,41,16,31,0.6,0.6
2025-01-20T2000,3566A,113.1186,40.2556,大同市,图书馆,,45,44,55,31,31,39,,68,66,29,21,15,16,0.8,0.7
2025-01-20T2000,3567A,113.5931,40.0461,大同市,区一中,颗粒物(PM10),75,100,99,29,39,29,,54,53,51,44,24,32,0.9,1.2
2025-01-20T2000,4199A,113.2798,40.0997,大同市,魏都大道141号,细颗粒物(PM2.5),64,69,108,46,46,33,,60,60,55,47,18,32,0.8,2
2025-01-20T2000,2269A,124.1069,50.4097,大兴安岭地区,科技局,细颗粒物(PM2.5),62,70,50,44,35,67,,61,61,14,14,10,8,0.6,0.5
2025-01-20T2000,3663A,124.1164,50.4278,大兴安岭地区,红旗社区,,46,34,62,32,54,63,,48,48,10,35,4,8,0.6,0.9
2025-01-20T2000,1600A,124.3303,40.0625,丹东市,江湾东路,细颗粒物(PM2.5),155,145,93,118,67,30,,74,65,63,36,29,15,1.9,1.3
2025-01-20T2000,1601A,124.4256,40.1503,丹东市,临江后街,细颗粒物(PM2.5),119,158,89,90,56,53,,85,81,44,40,17,13,1.4,1.2
2025-01-20T2000,1602A,124.3933,40.1461,丹东市,元宝山,细颗粒物(PM2.5),83,86,69,61,46,60,,69,69,30,28,12,13,1.1,1.1
2025-01-20T2000,1603A,124.3633,40.1092,丹东市,民主桥,细颗粒物(PM2.5),119,113,79,90,49,27,,74,68,71,32,20,14,1.3,0.9
2025-01-20T2000,3541A,109.5726,19.5167,儋州市,第一中学子站,臭氧1小时,59,56,52,37,32,167,,158,158,20,14,7,6,0.6,0.6
2025-01-20T2000,3542A,109.5567,19.5187,儋州市,东坡学校子站,臭氧1小时,82,50,49,38,34,185,,173,173,19,12,8,7,0.6,0.6
2025-01-20T2000,2616A,98.5842,24.428,德宏傣族景颇族自治州,德宏州监测站,颗粒物(PM10),55,59,46,32,35,62,,90,90,32,25,7,8,0.9,0.8
2025-01-20T2000,3677A,98.5881,24.4368,德宏傣族景颇族自治州,芒市人民政府综合楼,颗粒物(PM10),57,64,49,17,28,59,,81,81,20,16,7,7,0.6,0.5
2025-01-20T2000,1901A,104.4239,31.1208,德阳市,东山公园,细颗粒物(PM2.5),109,94,84,82,73,91,,101,101,20,21,2,2,0.9,0.8
2025-01-20T2000,1902A,104.3826,31.1317,德阳市,西小区,细颗粒物(PM2.5),123,110,102,93,84,71,,89,89,34,36,3,2,0.9,0.9
2025-01-20T2000,1904A,104.3553,31.1091,德阳市,耐火材料厂,细颗粒物(PM2.5),110,90,90,83,81,82,,94,94,24,34,4,4,0.9,0.9
2025-01-20T2000,3639A,104.4019,31.1244,德阳市,市教育局,细颗粒物(PM2.5),118,91,84,89,74,75,,95,95,34,35,4,4,0.9,0.9
2025-01-20T2000,1622A,116.3032,37.4674,德州市,儿童乐园,细颗粒物(PM2.5),100,132,94,75,47,62,,76,76,47,48,13,17,1.0,1
2025-01-20T2000,1624A,116.2991,37.4451,德州市,监理站,细颗粒物(PM2.5),94,119,88,70,46,65,,78,78,51,54,19,26,0.9,0.9
2025-01-20T2000,3066A,116.2721,37.4379,德州市,九衢泉纯净水厂,细颗粒物(PM2.5),107,127,97,80,54,52,,76,74,53,58,18,23,0.8,1
2025-01-20T2000,3371A,116.3728,37.4403,德州市,开发区人民医院,细颗粒物(PM2.5),100,132,98,75,51,71,,78,78,35,52,15,24,1.1,1
2025-01-20T2000,3372A,116.3572,37.4094,德州市,太阳城中学,细颗粒物(PM2.5),113,139,100,85,59,56,,80,79,45,61,16,26,0.9,0.9
2025-01-20T2000,3511A,116.5652,37.3319,德州市,陵城艺术中心,细颗粒物(PM2.5),100,129,102,75,54,62,,72,72,41,52,14,25,0.9,1.1
2025-01-20T2000,2621A,99.7056,27.8317,迪庆藏族自治州,迪庆州站,,33,33,30,13,17,79,,85,85,12,15,8,8,0.5,0.6
2025-01-20T2000,3180A,99.7136,27.8094,迪庆藏族自治州,质量技术监督局,,26,19,27,18,21,75,,82,82,7,16,8,8,0.3,0.5
2025-01-20T2000,2663A,104.6241,35.5734,定西市,东关小学,颗粒物(PM10),62,74,76,41,48,49,,72,72,23,27,24,20,0.8,1.2
2025-01-20T2000,2664A,104.6194,35.5934,定西市,供电公司,,,75,74,44,46,24,,72,71,68,41,26,19,,1.6
2025-01-20T2000,1389A,113.7547,23.0494,东莞市,莞城梨川,颗粒物(PM10),64,77,76,43,42,68,,126,122,60,58,6,7,1.2,1
2025-01-20T2000,1390A,113.7944,23.0128,东莞市,东城石井,,40,40,63,23,38,101,,129,128,23,48,6,7,0.4,0.8
2025-01-20T2000,1391A,113.7383,22.9658,东莞市,南城西平,颗粒物(PM10),65,80,84,42,46,78,,139,134,81,74,3,3,0.7,0.8
2025-01-20T2000,3319A,113.7338,23.0381,东莞市,万江金泰,颗粒物(PM10),64,78,75,43,39,82,,124,121,56,61,12,9,1.3,1.3
2025-01-20T2000,3626A,113.7533,23.0202,东莞市,南城元岭,颗粒物(PM10),59,68,77,37,45,79,,132,128,54,62,7,8,1.0,1
2025-01-20T2000,3627A,113.7875,23.0457,东莞市,东城主山,颗粒物(PM10),63,76,74,44,43,44,,115,108,86,60,9,9,1.2,0.9
2025-01-20T2000,1666A,118.6614,37.4309,东营市,市环保局,细颗粒物(PM2.5),73,88,68,53,41,35,,73,66,55,43,14,15,0.8,0.7
2025-01-20T2000,3036A,118.6904,37.4338,东营市,开发区管委会,,,72,68,41,41,,,66,66,38,52,9,10,0.7,0.8
2025-01-20T2000,3365A,118.5719,37.565,东营市,垦利区民丰路,细颗粒物(PM2.5),107,122,76,80,47,10,,18,17,87,54,15,16,0.8,0.7
2025-01-20T2000,3498A,118.5055,37.8612,东营市,河口城区,细颗粒物(PM2.5),158,156,88,120,53,38,,70,68,59,44,4,3,1.4,1
2025-01-20T2000,3646A,118.4978,37.4623,东营市,胜利站,颗粒物(PM10),70,90,87,48,52,30,,63,58,65,55,15,22,1.1,1.1
2025-01-20T2000,3734A,118.35,37.26,东营市,理想之城,颗粒物(PM10),68,85,81,48,50,36,,78,73,64,55,9,5,0.8,0.8
2025-01-20T2000,1591A,110.0023,39.8129,鄂尔多斯市,综合楼,颗粒物(PM10),54,58,39,24,16,39,,76,71,52,28,18,17,1.0,0.8
2025-01-20T2000,1592A,109.9486,39.8261,鄂尔多斯市,巴音孟克林场办事处,颗粒物(PM10),86,122,37,41,18,7,,77,63,82,23,21,12,1.2,0.5
2025-01-20T2000,1593A,109.7736,39.5986,鄂尔多斯市,康泽苑,,34,34,36,17,17,36,,66,65,47,28,6,8,0.6,0.6
2025-01-20T2000,1594A,109.8119,39.5989,鄂尔多斯市,华泰汽车城,,39,34,38,17,18,10,,65,62,77,37,8,8,0.9,0.6
2025-01-20T2000,1595A,109.9734,39.7884,鄂尔多斯市,奥林花园,颗粒物(PM10),71,92,44,31,15,6,,75,61,84,40,12,17,1.1,0.8
2025-01-20T2000,2436A,114.8938,30.3994,鄂州市,市政府,细颗粒物(PM2.5),147,140,160,112,127,116,,124,124,64,86,14,13,1.4,1.6
2025-01-20T2000,2437A,114.8989,30.3714,鄂州市,赵家坝,细颗粒物(PM2.5),150,137,147,115,115,126,,144,144,6,25,13,11,1.3,1.5
2025-01-20T2000,3654A,114.8094,30.4089,鄂州市,精准医疗中心,细颗粒物(PM2.5),170,160,153,129,127,110,,131,131,59,64,64,18,2.9,1.3
2025-01-20T2000,2454A,109.4978,30.2981,恩施土家族苗族自治州,湖北民院,细颗粒物(PM2.5),122,,82,92,89,43,,78,78,86,32,8,8,,1
2025-01-20T2000,2455A,109.4707,30.2798,恩施土家族苗族自治州,州电力总公司,细颗粒物(PM2.5),113,115,109,85,95,13,,71,68,66,29,10,8,1.9,1.3
2025-01-20T2000,3549A,109.5061,30.3772,恩施土家族苗族自治州,龙凤新区,细颗粒物(PM2.5),74,77,78,54,62,41,,80,80,33,18,5,6,1.2,1
2025-01-20T2000,2499A,108.3411,21.6158,防城港市,沙万,细颗粒物(PM2.5),173,146,104,131,77,147,,134,134,51,36,16,15,1.3,1.3
2025-01-20T2000,2500A,108.3514,21.7731,防城港市,防城档案局,"颗粒物(PM10),细颗粒物(PM2.5)",100,149,134,75,78,122,,131,130,37,37,17,9,1.2,0.7
2025-01-20T2000,2501A,108.3506,21.6414,防城港市,大海花园,细颗粒物(PM2.5),188,146,102,141,82,128,,110,110,44,34,9,9,1.7,1.6
2025-01-20T2000,1371A,113.1294,23.0067,佛山市,湾梁,颗粒物(PM10),52,53,73,27,39,67,,98,98,51,74,6,7,0.5,0.7
2025-01-20T2000,1372A,113.1083,23.0478,佛山市,华材职中,颗粒物(PM10),67,83,94,41,55,61,,30,,73,90,7,9,0.9,1
2025-01-20T2000,1373A,113.144,23.0453,佛山市,南海气象局,,50,42,74,35,48,82,,100,100,36,68,8,8,0.7,0.9
2025-01-20T2000,1374A,113.2881,22.8094,佛山市,顺德苏岗,细颗粒物(PM2.5),67,77,80,48,53,58,,109,103,53,69,9,10,0.9,0.9
2025-01-20T2000,1376A,112.8383,22.8678,佛山市,高明孔堂,颗粒物(PM10),52,53,56,30,34,112,,136,136,23,28,7,9,0.6,0.7
2025-01-20T2000,1377A,112.8836,23.1588,佛山市,三水监测站,二氧化氮,73,85,80,48,51,3,,99,87,146,73,13,12,1.1,0.9
2025-01-20T2000,1378A,112.867,23.185,佛山市,三水云东海,,42,42,68,29,48,112,,130,130,26,63,10,11,0.7,0.9
2025-01-20T2000,3625A,113.2544,22.7642,佛山市,容桂街道办,细颗粒物(PM2.5),83,112,104,61,62,62,,103,101,78,94,10,10,1.0,1.1
2025-01-20T2000,1280A,119.3903,26.0543,福州市,鼓山,,,,29,,16,,,106,,,9,,2,,0.6
2025-01-20T2000,1282A,119.2681,26.0504,福州市,师大,细颗粒物(PM2.5),73,57,44,53,30,137,,137,137,26,27,4,4,0.5,0.5
2025-01-20T2000,1283A,119.2984,26.1028,福州市,五四北路,细颗粒物(PM2.5),63,47,39,45,27,129,,130,130,27,26,2,2,0.5,0.6
2025-01-20T2000,1284A,119.2648,26.0768,福州市,杨桥西路,细颗粒物(PM2.5),64,49,44,46,28,127,,133,133,25,29,2,2,0.5,0.6
2025-01-20T2000,1285A,119.317,26.0746,福州市,紫阳,细颗粒物(PM2.5),74,68,48,54,32,90,,104,104,57,45,5,5,0.7,0.7
2025-01-20T2000,3048A,119.5799,26.0936,福州市,九龙,细颗粒物(PM2.5),68,64,32,49,28,124,,145,145,19,18,2,3,0.6,0.6
2025-01-20T2000,3526A,119.5189,25.9664,福州市,吴航,颗粒物(PM10),54,58,50,33,28,112,,139,139,30,32,2,3,0.4,0.6
2025-01-20T2000,1755A,123.7977,41.8491,抚顺市,望花区,细颗粒物(PM2.5),186,176,106,140,69,16,,59,53,91,50,21,8,2.2,1.2
2025-01-20T2000,1756A,123.9161,41.8822,抚顺市,顺城区,细颗粒物(PM2.5),163,181,87,124,57,19,,62,50,79,52,13,10,2.4,1.2
2025-01-20T2000,1757A,124.0436,41.8611,抚顺市,东洲区,细颗粒物(PM2.5),122,132,82,92,54,23,,74,62,68,30,16,13,1.7,1
2025-01-20T2000,1758A,123.9247,41.8642,抚顺市,新抚区,细颗粒物(PM2.5),133,155,93,101,60,15,,64,54,88,45,8,7,2.2,1.2
2025-01-20T2000,1759A,124.0972,41.8961,抚顺市,大伙房水库,细颗粒物(PM2.5),74,82,63,54,48,66,,76,74,21,28,9,10,1.1,0.8
2025-01-20T2000,1760A,123.7086,41.8391,抚顺市,沈抚新城,细颗粒物(PM2.5),140,136,83,107,53,17,,62,57,81,49,10,9,1.8,1.5
2025-01-20T2000,2376A,116.2127,28.0814,抚州市,桐源党溪,颗粒物(PM10),64,78,72,45,47,71,,120,114,2,7,1,3,0.5,0.3
2025-01-20T2000,2377A,116.3544,27.9831,抚州市,市站,细颗粒物(PM2.5),82,91,87,60,51,109,,134,134,38,36,20,17,1.0,0.9
2025-01-20T2000,2378A,116.3565,27.963,抚州市,血防站,细颗粒物(PM2.5),80,90,82,59,51,120,,140,140,25,32,9,8,1.4,1.2
2025-01-20T2000,2379A,116.3564,28.0007,抚州市,采茶剧团,细颗粒物(PM2.5),88,83,77,65,51,105,,121,121,23,28,9,8,1.9,1.8
2025-01-20T2000,2380A,116.385,27.9647,抚州市,医学分院,,,,80,153,51,76,,106,106,36,31,9,7,1.3,1.1
2025-01-20T2000,2207A,121.6094,41.998,阜新市,工业园区,细颗粒物(PM2.5),102,126,109,76,49,34,,64,62,60,39,24,22,0.9,0.9
2025-01-20T2000,2208A,121.6697,42.0279,阜新市,长青街,细颗粒物(PM2.5),77,90,87,56,44,49,,65,65,36,40,19,21,0.8,1.9
2025-01-20T2000,2209A,121.6673,42.0705,阜新市,农业园区,细颗粒物(PM2.5),83,80,54,61,29,55,,68,68,32,15,18,70,0.4,0.5
2025-01-20T2000,2210A,121.6717,42.0224,阜新市,东苑,细颗粒物(PM2.5),97,100,99,72,47,46,,58,58,42,41,17,31,0.7,2.4
2025-01-20T2000,2211A,121.6506,42.0498,阜新市,玉龙新城,细颗粒物(PM2.5),92,98,97,68,45,28,,70,67,65,41,17,19,1.2,1.7
2025-01-20T2000,2301A,115.8277,32.8929,阜阳市,市监测站,细颗粒物(PM2.5),129,130,158,98,130,55,,103,101,75,75,11,10,0.8,1.1
2025-01-20T2000,2303A,115.8554,32.8605,阜阳市,开发区,细颗粒物(PM2.5),114,166,176,86,113,92,,112,112,43,49,15,13,0.9,1
2025-01-20T2000,2875A,115.784,32.8892,阜阳市,阜阳职业技术学院,细颗粒物(PM2.5),134,134,158,102,121,78,,117,115,45,61,12,11,0.9,1.2
2025-01-20T2000,3468A,115.7901,32.8613,阜阳市,市规划展馆,细颗粒物(PM2.5),110,112,161,83,124,107,,120,120,33,52,11,11,0.8,1.1
2025-01-20T2000,3469A,115.836,32.9183,阜阳市,枣园社区,细颗粒物(PM2.5),110,106,171,83,132,87,,114,114,39,57,9,9,0.8,1
2025-01-20T2000,2669A,102.9099,34.9841,甘南藏族自治州,州政府,颗粒物(PM10),63,76,48,32,29,29,,68,66,44,23,19,14,0.7,0.6
2025-01-20T2000,3380A,102.8914,34.9617,甘南藏族自治州,甘肃民族师范学院,颗粒物(PM10),65,80,46,14,16,10,,74,70,70,27,8,7,0.6,0.5
2025-01-20T2000,2570A,101.9603,30.0475,甘孜藏族自治州,水桥子,,38,38,47,17,17,76,,81,81,10,20,3,3,0.5,0.5
2025-01-20T2000,3065A,101.9533,29.9972,甘孜藏族自治州,州环保局,,39,39,44,11,10,71,,81,81,10,8,4,4,0.5,0.4
2025-01-20T2000,3414A,115.8347,28.932,赣江新区,桑海产业园,细颗粒物(PM2.5),100,119,101,75,62,46,,135,128,87,56,15,14,0.8,0.7
2025-01-20T2000,2362A,114.9017,25.9149,赣州市,通天岩,,49,46,40,34,28,48,,58,57,15,15,9,10,0.5,0.5
2025-01-20T2000,2363A,114.9367,25.8664,赣州市,地委,颗粒物(PM10),56,62,55,35,31,40,,121,112,67,33,8,5,1.5,1.1
2025-01-20T2000,2364A,114.9461,25.8481,赣州市,气象台,颗粒物(PM10),76,102,69,33,28,29,,120,110,110,54,11,10,1.5,0.9
2025-01-20T2000,2365A,114.9322,25.8333,赣州市,市图书馆,颗粒物(PM10),80,110,59,42,32,5,,118,108,118,56,4,4,1.9,0.9
2025-01-20T2000,2366A,114.8905,25.8471,赣州市,华坚鞋城,颗粒物(PM10),61,71,68,35,34,27,,106,94,74,41,7,8,0.6,0.5
2025-01-20T2000,3109A,115.0093,25.8613,赣州市,赣县区卫计委,,,82,56,48,37,,,106,106,64,39,5,5,0.8,0.7
2025-01-20T2000,2683A,106.2319,36.1417,固原市,马园,颗粒物(PM10),56,61,67,28,31,73,,87,87,18,41,27,9,0.6,0.8
2025-01-20T2000,2684A,106.2792,36.0022,固原市,监测站,颗粒物(PM10),75,99,52,52,33,41,,92,87,55,35,17,13,1.1,1.3
2025-01-20T2000,2685A,106.2375,36.0211,固原市,新区,颗粒物(PM10),59,67,53,40,20,21,,82,75,82,46,8,6,0.9,0.9
2025-01-20T2000,3522A,106.2177,35.9959,固原市,原州区十五小,颗粒物(PM10),60,70,40,34,18,84,,93,93,21,16,9,7,0.6,0.5
2025-01-20T2000,2543A,106.6308,30.5278,广安市,小平旧居,,,,,,,,,,,,,,,,
2025-01-20T2000,2544A,106.6303,30.4576,广安市,市委,细颗粒物(PM2.5),125,137,131,95,100,43,,92,85,61,32,6,5,1.4,1.1
2025-01-20T2000,2545A,106.6271,30.4663,广安市,友谊中学,细颗粒物(PM2.5),119,120,130,90,104,61,,84,84,44,30,6,6,1.2,1.1
2025-01-20T2000,2547A,106.6388,30.4551,广安市,广电花园,细颗粒物(PM2.5),134,114,125,102,107,71,,81,81,37,32,6,4,1.1,1.2
2025-01-20T2000,2902A,106.6351,30.4865,广安市,北辰小学,细颗粒物(PM2.5),130,123,124,99,104,84,,91,91,27,26,7,6,1.1,1.1
2025-01-20T2000,2523A,105.8945,32.4535,广元市,黑石坡,细颗粒物(PM2.5),89,102,90,66,57,64,,60,60,13,25,4,4,0.5,0.7
2025-01-20T2000,2524A,105.821,32.4444,广元市,老城,细颗粒物(PM2.5),114,135,96,86,63,2,,46,45,79,43,3,3,1.2,0.8
2025-01-20T2000,2526A,105.8628,32.4287,广元市,监测站,细颗粒物(PM2.5),90,87,85,67,68,47,,51,51,23,39,5,8,0.5,1
2025-01-20T2000,3617A,105.8047,32.4166,广元市,经开区,细颗粒物(PM2.5),129,115,113,98,94,6,,39,39,68,42,6,7,1.3,1.3
2025-01-20T2000,1345A,113.2347,23.1423,广州市,广雅中学,细颗粒物(PM2.5),89,98,107,66,49,7,,110,99,123,88,5,6,1.2,1.1
2025-01-20T2000,1346A,113.2612,23.105,广州市,市五中,细颗粒物(PM2.5),95,112,81,71,53,23,,115,105,80,71,3,5,1.4,1.1
2025-01-20T2000,1348A,113.3478,23.0916,广州市,广东商学院,细颗粒物(PM2.5),67,80,80,48,45,43,,123,116,97,78,5,5,0.9,0.9
2025-01-20T2000,1349A,113.4332,23.1047,广州市,市八十六中,二氧化氮,78,97,80,50,42,6,,110,92,156,93,8,5,0.8,0.8
2025-01-20T2000,1350A,113.3505,22.9483,广州市,番禺中学,,,116,107,67,62,61,,121,118,78,81,6,7,,1.1
2025-01-20T2000,1351A,113.2146,23.3916,广州市,花都师范,细颗粒物(PM2.5),68,77,70,49,42,75,,115,114,53,51,8,8,0.9,0.8
2025-01-20T2000,1352A,113.2597,23.1331,广州市,市监测站,细颗粒物(PM2.5),82,90,66,60,41,54,,127,119,95,72,6,7,1.1,0.7
2025-01-20T2000,1353A,113.5618,23.312,广州市,九龙镇镇龙,颗粒物(PM10),70,89,82,41,38,19,,109,97,104,62,4,5,0.7,0.7
2025-01-20T2000,1354A,113.2765,23.1544,广州市,麓湖,二氧化氮,59,56,59,34,36,8,,122,109,118,74,3,6,0.9,0.9
2025-01-20T2000,1355A,113.443,23.3035,广州市,帽峰山森林公园,,44,32,31,18,24,140,,139,139,11,12,6,7,0.4,0.4
2025-01-20T2000,2846A,113.3221,23.1322,广州市,体育西,细颗粒物(PM2.5),78,97,77,57,47,44,,118,111,37,62,6,6,1.3,1
2025-01-20T2000,3298A,113.5717,23.5491,广州市,从化街口,细颗粒物(PM2.5),72,87,66,52,42,45,,120,115,68,46,7,7,1.0,0.8
2025-01-20T2000,3299A,113.3472,23.3692,广州市,白云竹料,细颗粒物(PM2.5),87,122,78,64,42,16,,126,116,110,56,8,7,1.5,0.9
2025-01-20T2000,3300A,113.2981,23.237,广州市,白云嘉禾,颗粒物(PM10),93,136,75,68,38,7,,116,97,136,67,8,8,1.7,1.2
2025-01-20T2000,3301A,113.4256,23.1716,广州市,黄埔科学城,颗粒物(PM10),55,59,51,33,30,38,,124,115,71,45,6,6,0.8,0.8
2025-01-20T2000,3302A,113.3942,23.0483,广州市,番禺大学城,颗粒物(PM10),65,80,82,45,44,70,,126,122,67,81,13,12,1.0,1
2025-01-20T2000,3303A,113.4922,22.8168,广州市,南沙黄阁,颗粒物(PM10),60,70,87,36,50,80,,128,125,53,70,7,7,1.0,0.9
2025-01-20T2000,3304A,113.5342,22.7896,广州市,南沙街,颗粒物(PM10),55,59,76,32,47,105,,134,133,40,60,8,7,0.8,0.8
2025-01-20T2000,3443A,113.2902,23.5544,广州市,花都梯面,细颗粒物(PM2.5),53,52,46,37,29,38,,133,115,56,41,4,6,0.7,0.7
2025-01-20T2000,3445A,113.7858,23.7478,广州市,从化良口,,35,35,32,23,22,103,,123,123,12,21,5,5,0.5,0.5
2025-01-20T2000,3446A,113.8051,23.2614,广州市,增城荔城,颗粒物(PM10),53,56,47,34,29,57,,123,117,47,24,5,6,0.9,0.7
2025-01-20T2000,2505A,109.568,23.1478,贵港市,德智高中,,,,,,,,,,,,,,,,
2025-01-20T2000,2506A,109.6047,23.0666,贵港市,江南子站,颗粒物(PM10),92,134,166,65,103,89,,130,130,52,65,7,8,1.3,1.4
2025-01-20T2000,2507A,109.6014,23.0948,贵港市,贵城子站,细颗粒物(PM2.5),97,109,124,72,85,68,,123,120,56,76,9,10,1.3,1.3
2025-01-20T2000,2508A,109.5669,23.1065,贵港市,荷城子站,细颗粒物(PM2.5),73,85,118,53,70,93,,122,122,37,55,10,12,0.9,1
2025-01-20T2000,3405A,109.5886,23.1172,贵港市,新世纪学校,颗粒物(PM10),73,95,91,50,55,96,,136,133,38,34,4,5,1.0,0.9
2025-01-20T2000,1439A,106.6899,26.5998,贵阳市,马鞍山,细颗粒物(PM2.5),89,88,66,66,47,50,,67,66,42,26,14,11,1.1,1
2025-01-20T2000,1441A,106.6243,26.6266,贵阳市,鉴湖路,细颗粒物(PM2.5),98,107,70,73,52,53,,77,63,53,27,19,14,0.9,0.8
2025-01-20T2000,1442A,106.7487,26.6343,贵阳市,燕子冲,细颗粒物(PM2.5),83,75,62,61,52,59,,86,80,36,21,15,16,0.9,0.8
2025-01-20T2000,1443A,106.6555,26.4365,贵阳市,碧云窝,细颗粒物(PM2.5),98,112,89,73,59,49,,74,73,55,38,57,30,1.2,0.9
2025-01-20T2000,1445A,106.7109,26.6027,贵阳市,红边门,细颗粒物(PM2.5),110,119,75,83,59,31,,83,63,81,35,46,23,1.4,1
2025-01-20T2000,1446A,106.7164,26.5699,贵阳市,新华路,细颗粒物(PM2.5),100,117,117,75,75,32,,,,68,68,6,6,0.9,0.9
2025-01-20T2000,1447A,106.674,26.5424,贵阳市,太慈桥,细颗粒物(PM2.5),89,88,67,66,50,38,,87,66,56,31,19,21,0.9,0.8
2025-01-20T2000,1552A,106.805,26.3003,贵阳市,桐木岭,,,,83,,57,,,85,,,8,,20,,0.9
2025-01-20T2000,4230A,106.6882,26.5695,贵阳市,花果园大街66号,细颗粒物(PM2.5),109,114,70,82,59,41,,80,59,71,42,21,15,1.2,1
2025-01-20T2000,4231A,106.6873,26.5169,贵阳市,漓江路57号,细颗粒物(PM2.5),100,100,71,75,53,41,,79,59,63,33,29,22,0.9,0.8
2025-01-20T2000,1862A,110.4144,25.3167,桂林市,电子科大尧山校区,"颗粒物(PM10),细颗粒物(PM2.5)",53,55,59,37,41,108,,135,132,13,13,9,9,0.6,0.6
2025-01-20T2000,1863A,110.2819,25.2697,桂林市,监测站,细颗粒物(PM2.5),104,100,82,78,54,53,,134,122,85,32,12,16,1.5,1
2025-01-20T2000,1864A,110.3089,25.2708,桂林市,龙隐路小学,细颗粒物(PM2.5),77,69,71,56,55,112,,143,140,31,23,15,22,1.1,1
2025-01-20T2000,1865A,110.2869,25.2178,桂林市,八中,细颗粒物(PM2.5),85,108,79,63,56,72,,134,123,58,32,11,16,1.1,0.9
2025-01-20T2000,3403A,110.1764,25.2381,桂林市,创业大厦,细颗粒物(PM2.5),85,90,79,63,55,110,,142,141,33,37,11,16,0.9,0.9
2025-01-20T2000,3531A,110.296,25.1253,桂林市,旅游学院,细颗粒物(PM2.5),64,73,88,46,62,107,,136,135,32,40,10,10,1.1,1.1
2025-01-20T2000,2674A,100.2561,34.4714,果洛藏族自治州,玛沁县大武镇,,35,35,40,24,15,70,,82,82,5,4,8,12,0.6,0.5
2025-01-20T2000,1129A,126.5422,45.755,哈尔滨市,岭北,细颗粒物(PM2.5),283,263,255,233,228,27,,51,50,92,73,16,15,1.7,1.7
2025-01-20T2000,1130A,126.561,45.8167,哈尔滨市,松北商大,细颗粒物(PM2.5),278,283,257,228,228,18,,41,39,91,78,8,8,2.0,1.9
2025-01-20T2000,1131A,126.979,45.5419,哈尔滨市,阿城会宁,细颗粒物(PM2.5),283,250,193,233,185,16,,57,48,77,53,7,9,1.8,1.6
2025-01-20T2000,1132A,126.599,45.7222,哈尔滨市,南岗学府路,细颗粒物(PM2.5),246,251,273,196,208,11,,29,25,102,84,6,13,1.8,1.8
2025-01-20T2000,1133A,126.689,45.7733,哈尔滨市,太平宏伟公园,细颗粒物(PM2.5),292,323,272,242,211,4,,36,32,99,82,10,8,1.8,1.6
2025-01-20T2000,1134A,126.635,45.7667,哈尔滨市,道外承德广场,细颗粒物(PM2.5),265,282,306,215,227,8,,25,22,98,76,11,12,1.8,1.6
2025-01-20T2000,1135A,126.685,45.7319,哈尔滨市,香坊红旗大街,细颗粒物(PM2.5),284,244,288,234,248,28,,33,33,71,79,34,32,1.8,2.1
2025-01-20T2000,1136A,126.6411,45.7258,哈尔滨市,动力和平路,细颗粒物(PM2.5),218,211,259,168,227,21,,28,25,74,77,13,14,1.7,2
2025-01-20T2000,1137A,126.593,45.7478,哈尔滨市,道里建国路,细颗粒物(PM2.5),235,258,260,185,233,7,,34,17,100,80,20,16,1.4,1.6
2025-01-20T2000,1138A,126.615,45.61,哈尔滨市,平房东轻厂,细颗粒物(PM2.5),291,,227,241,209,17,,52,46,94,81,10,11,1.8,1.7
2025-01-20T2000,1139A,126.595,45.9855,哈尔滨市,呼兰师专,细颗粒物(PM2.5),256,209,242,206,222,35,,56,54,68,59,9,9,1.6,1.7
2025-01-20T2000,1140A,126.6206,45.6842,哈尔滨市,省农科院,细颗粒物(PM2.5),273,267,294,223,245,13,,36,31,92,88,12,14,1.9,2.2
2025-01-20T2000,2688A,93.5128,42.8172,哈密市,地区监测站,颗粒物(PM10),84,118,108,36,32,41,,56,56,40,37,3,5,0.3,0.7
2025-01-20T2000,2689A,93.4961,42.8328,哈密市,哈密师范学校,细颗粒物(PM2.5),113,92,96,85,35,47,,61,59,31,38,9,6,0.5,0.9
2025-01-20T2000,2671A,100.9048,36.9639,海北藏族自治州,海晏县西海镇,,28,28,16,15,10,63,,89,86,4,2,13,11,0.4,0.4
2025-01-20T2000,3867A,102.0738,36.5056,海东市,平安区公安北苑,,45,41,50,31,30,58,,77,77,15,28,10,20,0.7,1
2025-01-20T2000,1409A,110.576,19.9507,海口市,东寨港,细颗粒物(PM2.5),60,45,57,43,59,152,,164,164,8,10,15,14,0.4,0.6
2025-01-20T2000,1410A,110.3232,20.0574,海口市,海南大学,臭氧1小时,80,60,58,36,37,184,,186,186,23,20,6,6,0.5,0.5
2025-01-20T2000,1411A,110.283,20.0053,海口市,秀英海南医院,臭氧1小时,89,74,66,38,42,191,,187,187,22,29,5,5,0.5,0.5
2025-01-20T2000,1412A,110.338,19.9969,海口市,海南师范大学,臭氧1小时,94,66,62,37,40,195,,198,198,17,18,6,7,0.5,0.5
2025-01-20T2000,1413A,110.33,20.0356,海口市,龙华路环保局宿舍,臭氧1小时,85,60,58,37,38,188,,190,190,23,21,7,7,0.5,0.5
2025-01-20T2000,3539A,110.5111,19.9736,海口市,桂林洋子站,,,59,73,36,49,178,,190,190,15,22,6,6,,0.5
2025-01-20T2000,2673A,100.6188,36.2866,海南藏族自治州,共和县恰卜恰镇,颗粒物(PM10),73,95,39,11,18,27,,92,85,52,26,21,12,0.8,0.6
2025-01-20T2000,2676A,97.3731,37.3753,海西蒙古族藏族自治州,德令哈市,颗粒物(PM10),68,86,57,22,14,38,,78,65,40,13,18,17,0.8,0.5
2025-01-20T2000,1048A,114.5302,36.6116,邯郸市,东污水处理厂,细颗粒物(PM2.5),149,135,101,114,78,68,,78,78,39,53,11,12,1.1,1
2025-01-20T2000,1049A,114.4918,36.5713,邯郸市,矿院,细颗粒物(PM2.5),149,163,113,114,70,64,,80,80,49,57,8,7,0.9,0.9
2025-01-20T2000,1050A,114.484,36.6133,邯郸市,丛台公园,细颗粒物(PM2.5),139,141,114,106,70,71,,79,79,41,57,8,8,0.9,1
2025-01-20T2000,3458A,114.7895,36.5593,邯郸市,香泉濮院小区,细颗粒物(PM2.5),140,196,132,107,82,94,,105,105,33,44,12,15,1.0,1
2025-01-20T2000,3579A,114.50634,36.77178,邯郸市,永年区实验高中,细颗粒物(PM2.5),119,141,130,90,68,77,,80,80,36,49,12,16,0.9,1.4
2025-01-20T2000,3580A,114.20016,36.44293,邯郸市,峰峰矿区临水派出所,细颗粒物(PM2.5),160,152,88,122,62,75,,88,88,40,27,25,21,1.1,1
2025-01-20T2000,2634A,106.9893,33.1842,汉中市,汉川机床厂子校,细颗粒物(PM2.5),127,,54,96,53,79,,92,92,9,14,6,7,1.1,1
2025-01-20T2000,2635A,107.0154,33.0706,汉中市,市监测站,细颗粒物(PM2.5),108,107,104,81,92,20,,82,79,100,47,11,8,3.0,1.9
2025-01-20T2000,2636A,107.0089,33.1138,汉中市,鑫源开发区,细颗粒物(PM2.5),128,,98,97,94,64,,94,94,44,40,8,9,1.2,1.5
2025-01-20T2000,2637A,107.007,33.0323,汉中市,南郑大河坎水厂,细颗粒物(PM2.5),156,152,103,119,84,26,,86,83,76,34,10,7,2.4,1.7
2025-01-20T2000,1223A,120.2072,30.2111,杭州市,滨江,细颗粒物(PM2.5),144,152,108,110,77,106,,119,119,46,67,10,8,0.9,0.9
2025-01-20T2000,1224A,120.0633,30.2747,杭州市,西溪,细颗粒物(PM2.5),169,158,94,128,69,91,,134,128,38,45,8,8,0.9,0.8
2025-01-20T2000,1226A,120.3461,30.3153,杭州市,下沙,细颗粒物(PM2.5),150,169,130,115,87,51,,133,116,104,80,11,10,1.0,1.1
2025-01-20T2000,1227A,120.1269,30.2456,杭州市,卧龙桥,细颗粒物(PM2.5),110,109,87,83,66,57,,121,116,55,42,6,8,0.8,0.7
2025-01-20T2000,1228A,120.1903,30.2692,杭州市,浙江农大,细颗粒物(PM2.5),156,168,137,119,92,75,,115,115,70,71,11,10,0.9,1
2025-01-20T2000,1230A,120.1197,30.3119,杭州市,和睦小学,细颗粒物(PM2.5),128,138,104,97,74,109,,124,124,49,71,11,8,0.9,1
2025-01-20T2000,1231A,120.3019,30.4183,杭州市,临平镇,细颗粒物(PM2.5),134,134,122,102,88,118,,147,147,38,61,12,10,1.0,1
2025-01-20T2000,1232A,120.2697,30.1819,杭州市,城厢镇,细颗粒物(PM2.5),129,148,113,98,70,83,,115,115,62,68,8,7,1.1,1.1
2025-01-20T2000,1233A,120.0883,30.1808,杭州市,云栖,细颗粒物(PM2.5),113,120,97,85,65,64,,123,123,53,42,6,6,0.9,0.8
2025-01-20T2000,3557A,119.9464,30.0494,杭州市,镇二中,细颗粒物(PM2.5),185,161,90,139,68,74,,121,121,70,57,8,8,1.3,1
2025-01-20T2000,3558A,119.7183,30.2367,杭州市,市府大楼,细颗粒物(PM2.5),140,159,91,107,67,108,,134,134,41,38,10,9,1.0,1
2025-01-20T2000,3656A,120.1556,30.2864,杭州市,消防大队,细颗粒物(PM2.5),158,163,115,120,80,101,,125,125,56,67,13,12,0.9,0.8
2025-01-20T2000,1270A,117.1959,31.7848,合肥市,明珠广场,细颗粒物(PM2.5),160,156,163,122,122,36,,64,62,91,70,12,13,1.1,1
2025-01-20T2000,1271A,117.3072,31.8764,合肥市,三里街,细颗粒物(PM2.5),149,178,181,114,132,13,,52,48,114,77,12,11,1.1,1
2025-01-20T2000,1272A,117.2588,31.8707,合肥市,琥珀山庄,细颗粒物(PM2.5),129,129,173,98,126,38,,63,57,84,74,10,10,0.9,1
2025-01-20T2000,1273A,117.1604,31.9052,合肥市,董铺水库,细颗粒物(PM2.5),83,114,186,61,124,40,,72,66,75,60,9,8,0.7,0.8
2025-01-20T2000,1274A,117.25,31.8571,合肥市,长江中路,细颗粒物(PM2.5),148,161,170,113,132,31,,64,57,96,72,11,12,1.5,1.3
2025-01-20T2000,1275A,117.266,31.9436,合肥市,庐阳区,细颗粒物(PM2.5),117,151,196,88,132,11,,67,58,107,68,9,9,0.9,1
2025-01-20T2000,1276A,117.336,31.8586,合肥市,瑶海区,细颗粒物(PM2.5),170,185,179,129,124,31,,56,55,113,89,11,11,1.1,1.1
2025-01-20T2000,1277A,117.3027,31.7964,合肥市,包河区,细颗粒物(PM2.5),156,163,167,119,125,4,,64,60,,84,11,11,,1.1
2025-01-20T2000,1278A,117.2776,31.7385,合肥市,滨湖新区,细颗粒物(PM2.5),125,144,178,95,113,56,,90,90,62,72,14,17,0.8,0.9
2025-01-20T2000,1279A,117.1318,31.8403,合肥市,高新区,细颗粒物(PM2.5),132,134,160,100,117,40,,65,62,94,65,12,13,1.1,1.1
2025-01-20T2000,3464A,117.3803,31.9147,合肥市,高教基地,颗粒物(PM10),81,111,161,51,113,21,,82,75,78,73,10,11,0.6,0.9
2025-01-20T2000,3614A,79.924,37.0877,和田地区,地区环保局,颗粒物(PM10),108,165,141,30,55,67,,82,82,20,16,13,28,0.3,0.7
2025-01-20T2000,3615A,79.9131,37.113,和田地区,市环保局,颗粒物(PM10),77,103,145,41,65,75,,81,81,18,52,6,16,0.7,3
2025-01-20T2000,2516A,108.2011,24.715,河池市,东仁乐园,细颗粒物(PM2.5),113,119,108,85,64,30,,118,112,78,52,10,10,0.9,0.9
2025-01-20T2000,2517A,108.0497,24.6947,河池市,市环保站,细颗粒物(PM2.5),74,,75,54,54,87,,118,118,24,32,10,14,0.9,0.8
2025-01-20T2000,2518A,108.0983,24.6989,河池市,市疾控中心,细颗粒物(PM2.5),85,98,86,63,59,45,,111,110,68,49,9,8,0.9,0.9
2025-01-20T2000,1696A,114.6778,23.7569,河源市,源西,颗粒物(PM10),59,67,45,34,27,42,,93,83,55,37,6,6,0.8,0.6
2025-01-20T2000,1697A,114.6944,23.7586,河源市,东埔,颗粒物(PM10),67,84,62,38,32,42,,115,104,72,43,5,5,0.9,0.5
2025-01-20T2000,1698A,114.6892,23.7233,河源市,老城,,,33,43,21,24,81,,112,112,,28,4,4,0.7,0.8
2025-01-20T2000,1718A,115.4208,35.2464,菏泽市,气象局,细颗粒物(PM2.5),133,163,142,101,88,101,,109,109,40,60,12,13,0.8,1.2
2025-01-20T2000,3374A,115.5564,35.0891,菏泽市,定陶老年大学,细颗粒物(PM2.5),119,136,137,90,90,85,,101,101,39,56,14,18,0.7,0.9
2025-01-20T2000,4184A,115.4797,35.24401,菏泽市,永昌路1号,细颗粒物(PM2.5),138,174,140,105,86,94,,107,107,54,56,13,16,0.7,0.7
2025-01-20T2000,4193A,115.4715,35.2800,菏泽市,长城路999号,细颗粒物(PM2.5),125,147,131,95,78,95,,100,100,44,58,10,12,1.1,1.2
2025-01-20T2000,2514A,111.5264,24.4172,贺州市,环保小区,颗粒物(PM10),92,134,89,60,68,63,,122,122,55,33,10,8,1.6,1.1
2025-01-20T2000,2515A,111.5608,24.4078,贺州市,政协大楼,颗粒物(PM10),94,137,100,59,61,57,,107,107,52,44,10,8,1.2,1
2025-01-20T2000,3534A,111.4744,24.4553,贺州市,西湾,颗粒物(PM10),70,90,100,46,66,63,,123,120,52,37,9,8,1.2,0.9
2025-01-20T2000,2385A,114.17,35.9019,鹤壁市,市监测站,细颗粒物(PM2.5),144,178,130,110,80,39,,82,78,45,30,13,11,2.4,0.9
2025-01-20T2000,2386A,114.2956,35.7511,鹤壁市,市交警支队,细颗粒物(PM2.5),186,189,141,140,92,64,,84,84,56,59,8,5,1.0,1
2025-01-20T2000,2387A,114.2878,35.7306,鹤壁市,迎宾馆,细颗粒物(PM2.5),138,184,131,105,75,69,,89,89,54,50,8,6,0.9,0.9
2025-01-20T2000,3474A,114.2617,35.6822,鹤壁市,大新区,细颗粒物(PM2.5),205,163,109,155,87,26,,80,74,94,51,12,10,0.9,0.7
2025-01-20T2000,3596A,114.1572,35.9603,鹤壁市,南山宾馆,细颗粒物(PM2.5),180,174,120,136,89,64,,91,89,45,29,18,23,1.2,0.9
2025-01-20T2000,2244A,130.2537,47.3416,鹤岗市,哈啤分公司,细颗粒物(PM2.5),113,94,34,85,29,28,,55,45,36,14,17,17,1.2,0.7
2025-01-20T2000,2245A,130.2684,47.3086,鹤岗市,斯达机电,细颗粒物(PM2.5),115,,36,87,30,46,,57,51,39,16,20,17,0.9,0.5
2025-01-20T2000,2246A,130.3114,47.3388,鹤岗市,东山纸板厂,细颗粒物(PM2.5),107,156,48,80,47,24,,42,38,41,34,16,19,1.3,1
2025-01-20T2000,2247A,130.1097,47.3382,鹤岗市,五号水库,,45,45,32,31,21,59,,76,70,14,11,7,8,0.4,0.3
2025-01-20T2000,2263A,127.4833,50.2524,黑河市,交通局,,46,46,33,30,26,45,,48,46,17,16,8,7,0.6,0.6
2025-01-20T2000,2264A,127.5144,50.2341,黑河市,环保局,细颗粒物(PM2.5),52,,39,36,34,39,,50,49,22,22,11,8,0.6,0.7
2025-01-20T2000,2265A,127.5291,50.2472,黑河市,大黑河岛,,,48,28,42,28,23,,33,30,16,13,1,2,,
2025-01-20T2000,1074A,115.6838,37.7541,衡水市,电机北厂,细颗粒物(PM2.5),109,132,96,82,56,68,,78,78,37,43,10,11,0.8,0.7
2025-01-20T2000,1075A,115.6303,37.7316,衡水市,市监测站,细颗粒物(PM2.5),105,122,84,79,49,64,,78,78,43,50,16,14,0.8,0.7
2025-01-20T2000,3188A,115.6683,37.7217,衡水市,市城管局,细颗粒物(PM2.5),98,131,86,73,50,63,,75,75,48,51,13,12,0.9,0.7
2025-01-20T2000,3459A,115.5989,37.5491,衡水市,地表水厂,细颗粒物(PM2.5),125,133,89,95,61,28,,77,74,81,59,17,17,0.9,0.7
2025-01-20T2000,2456A,112.5003,26.9167,衡阳市,原169医院,细颗粒物(PM2.5),72,52,80,52,66,97,,99,99,25,34,12,28,0.7,0.8
2025-01-20T2000,2457A,112.6194,26.9258,衡阳市,衡阳化工总厂,细颗粒物(PM2.5),150,165,111,115,86,62,,123,121,83,49,11,8,,1
2025-01-20T2000,2458A,112.6211,26.8956,衡阳市,珠晖区环保局,细颗粒物(PM2.5),138,138,106,105,83,43,,129,124,102,58,13,10,2.3,1.3
2025-01-20T2000,2459A,112.6197,26.8733,衡阳市,市委党校,,,92,106,74,77,116,,137,137,33,42,,12,,1.2
2025-01-20T2000,2460A,112.6006,26.8919,衡阳市,市监测站,细颗粒物(PM2.5),137,155,124,104,104,19,,124,114,97,45,10,10,2.3,1.3
2025-01-20T2000,2461A,112.5664,26.9056,衡阳市,真空机电公司,细颗粒物(PM2.5),109,121,121,82,79,95,,130,130,53,41,8,8,1.4,1.1
2025-01-20T2000,3399A,112.6703,26.882,衡阳市,师范学院,细颗粒物(PM2.5),97,119,112,72,85,100,,136,136,33,42,12,12,0.9,0.8
2025-01-20T2000,2608A,103.3772,23.3993,红河哈尼族彝族自治州,污水处理厂,细颗粒物(PM2.5),67,71,46,48,44,70,,76,76,9,13,6,9,0.5,0.5
2025-01-20T2000,2609A,103.3861,23.35,红河哈尼族彝族自治州,监测站,细颗粒物(PM2.5),67,57,44,48,43,72,,75,75,8,11,8,8,0.6,0.5
2025-01-20T2000,3038A,103.3758,23.368,红河哈尼族彝族自治州,州图书馆,细颗粒物(PM2.5),59,45,40,42,36,68,,71,70,8,11,8,10,0.5,0.5
2025-01-20T2000,1090A,111.6507,40.7517,呼和浩特市,呼市一监,细颗粒物(PM2.5),112,122,96,84,51,21,,56,50,67,55,16,16,1.1,1
2025-01-20T2000,1091A,111.6572,40.8033,呼和浩特市,小召,颗粒物(PM10),84,117,95,49,45,10,,43,38,87,66,17,16,1.1,1.1
2025-01-20T2000,1094A,111.7516,40.8369,呼和浩特市,如意水处理厂,颗粒物(PM10),84,118,92,53,43,4,,40,34,84,63,18,16,1.2,1.1
2025-01-20T2000,1095A,111.7276,40.8062,呼和浩特市,二十九中,颗粒物(PM10),77,103,88,54,42,6,,38,34,81,60,16,15,1.2,0.9
2025-01-20T2000,1096A,111.5512,40.7866,呼和浩特市,工大金川校区,颗粒物(PM10),93,135,92,58,44,4,,40,35,84,63,16,16,1.2,0.9
2025-01-20T2000,1097A,111.717,40.7612,呼和浩特市,化肥厂生活区,细颗粒物(PM2.5),145,192,98,111,48,15,,46,43,94,61,25,14,2.0,1.1
2025-01-20T2000,3698A,111.5968,40.8178,呼和浩特市,红旗小学,颗粒物(PM10),84,117,102,60,48,7,,38,33,83,62,15,15,1.0,1
2025-01-20T2000,3699A,111.6518,40.8389,呼和浩特市,海东办,,,124,103,63,52,5,,40,34,75,61,,12,1.3,1.1
2025-01-20T2000,2192A,119.7594,49.2261,呼伦贝尔市,区环保局,,40,32,31,28,23,63,,59,59,20,24,5,7,0.5,0.5
2025-01-20T2000,3061A,119.7512,49.1577,呼伦贝尔市,国华电力东,,33,31,26,23,17,72,,68,68,10,12,4,5,0.5,0.4
2025-01-20T2000,1250A,120.0751,30.8669,湖州市,城西水厂,细颗粒物(PM2.5),165,161,129,125,94,75,,131,128,97,87,12,12,1.1,0.9
2025-01-20T2000,2873A,120.0875,30.8955,湖州市,仁皇山新区,细颗粒物(PM2.5),168,157,127,127,96,87,,133,127,78,76,12,12,1.2,1
2025-01-20T2000,2907A,120.1844,30.8596,湖州市,吴兴区站,细颗粒物(PM2.5),195,195,199,146,126,127,,139,139,35,55,11,11,0.8,0.6
2025-01-20T2000,3562A,120.4148,30.8538,湖州市,南浔区站,细颗粒物(PM2.5),175,171,124,132,97,123,,161,159,46,44,14,14,0.9,0.7
2025-01-20T2000,1607A,120.9092,40.7136,葫芦岛市,龙港区,细颗粒物(PM2.5),129,124,106,98,83,22,,63,58,75,60,18,100,1.5,1.4
2025-01-20T2000,1608A,120.8392,40.7514,葫芦岛市,化工街,细颗粒物(PM2.5),138,156,120,105,72,9,,50,45,83,55,18,50,2.1,1.6
2025-01-20T2000,1609A,120.8341,40.7073,葫芦岛市,新区,细颗粒物(PM2.5),159,,97,121,75,8,,52,46,92,68,5,25,1.9,1.3
2025-01-20T2000,1610A,120.8695,40.7677,葫芦岛市,东城区,细颗粒物(PM2.5),168,200,98,127,66,11,,58,47,82,57,18,61,2.3,1.5
2025-01-20T2000,2482A,109.5981,27.5721,怀化市,林科所,细颗粒物(PM2.5),65,66,64,47,48,85,,102,102,19,25,7,10,1.6,1.5
2025-01-20T2000,2483A,109.9453,27.5444,怀化市,河西地税局,细颗粒物(PM2.5),125,115,94,95,78,40,,98,93,46,31,5,5,1.1,0.9
2025-01-20T2000,2484A,109.9781,27.5342,怀化市,市四医院,细颗粒物(PM2.5),99,111,108,74,76,60,,101,98,46,34,5,8,1.6,1.6
2025-01-20T2000,2485A,109.9972,27.5578,怀化市,监测楼,细颗粒物(PM2.5),94,99,108,70,74,55,,100,96,39,33,6,5,1.2,1.2
2025-01-20T2000,2486A,110.0394,27.583,怀化市,市委党校,细颗粒物(PM2.5),95,105,100,71,72,63,,102,100,34,40,16,9,1.2,1.2
2025-01-20T2000,1210A,119.036,33.5981,淮安市,钵池山,细颗粒物(PM2.5),192,175,156,144,131,74,,93,93,62,61,12,12,1.2,1.2
2025-01-20T2000,1211A,119.007,33.575,淮安市,北京南路,细颗粒物(PM2.5),198,202,171,148,134,28,,90,86,108,76,12,13,1.5,1.4
2025-01-20T2000,1212A,118.989,33.6067,淮安市,市监测站,细颗粒物(PM2.5),188,168,154,141,131,70,,90,90,70,66,11,13,1.3,1.2
2025-01-20T2000,1213A,119.135,33.5039,淮安市,楚州区监测站,细颗粒物(PM2.5),198,203,187,148,143,52,,94,92,75,74,12,11,1.2,1.1
2025-01-20T2000,1214A,119.0186,33.6297,淮安市,淮阴区监测站,细颗粒物(PM2.5),186,193,182,140,133,39,,83,75,106,79,12,13,1.3,1.2
2025-01-20T2000,3426A,118.8755,33.2894,淮安市,新华书店,细颗粒物(PM2.5),221,204,175,171,138,62,,86,80,77,52,15,14,1.3,1.1
2025-01-20T2000,2282A,116.8004,33.975,淮北市,监测站,细颗粒物(PM2.5),149,146,121,114,82,61,,76,76,58,43,13,12,1.0,0.9
2025-01-20T2000,2283A,116.8091,33.9007,淮北市,烈山区政府,细颗粒物(PM2.5),140,158,124,107,87,85,,90,90,50,49,15,12,1.0,0.9
2025-01-20T2000,3330A,116.8873,33.9836,淮北市,杜集区检察院,细颗粒物(PM2.5),156,154,135,119,93,96,,96,96,32,37,12,11,1.0,0.9
2025-01-20T2000,4017A,116.7923,33.9535,淮北市,市博物馆,细颗粒物(PM2.5),186,148,120,140,85,66,,81,81,63,49,15,12,1.2,0.8
2025-01-20T2000,2277A,116.8305,32.7727,淮南市,潘集区政府,细颗粒物(PM2.5),220,233,179,170,130,28,,82,78,87,57,19,14,1.1,0.9
2025-01-20T2000,2279A,116.8569,32.5951,淮南市,谢家集区政府,细颗粒物(PM2.5),148,151,143,113,101,61,,82,81,51,43,17,13,0.9,0.9
2025-01-20T2000,2280A,116.8281,32.633,淮南市,八公山区政府,细颗粒物(PM2.5),139,141,127,106,88,68,,90,90,43,31,14,14,0.7,0.7
2025-01-20T2000,2281A,116.6325,32.6201,淮南市,焦岗湖风景区管理处,,,,183,,131,,,29,,,42,,7,,0.8
2025-01-20T2000,2894A,117.0566,32.6531,淮南市,经济技术开发区消防队,细颗粒物(PM2.5),202,193,163,152,114,64,,84,84,47,42,18,13,0.9,0.9
2025-01-20T2000,3329A,117.0108,32.5893,淮南市,山南新区,细颗粒物(PM2.5),193,170,146,145,106,87,,94,94,36,37,18,14,0.9,0.9
2025-01-20T2000,4209A,117.0031,32.6445,淮南市,国庆中路369号,颗粒物(PM10),90,129,157,64,109,80,,84,84,49,55,16,16,0.7,1.2
2025-01-20T2000,2446A,114.9028,30.4742,黄冈市,职工中心,细颗粒物(PM2.5),150,159,139,115,106,90,,136,134,60,44,14,13,0.7,0.9
2025-01-20T2000,2929A,114.8858,30.4519,黄冈市,红卫路,细颗粒物(PM2.5),133,143,142,101,108,114,,135,135,43,52,12,11,1.0,1.3
2025-01-20T2000,3398A,114.9136,30.4445,黄冈市,市林业局,细颗粒物(PM2.5),143,136,134,109,108,103,,136,136,49,46,15,13,0.9,1
2025-01-20T2000,2672A,102.0199,35.5102,黄南藏族自治州,同仁县隆务镇,,44,44,40,17,20,71,,79,79,2,4,5,6,0.5,0.5
2025-01-20T2000,2295A,118.2903,29.6963,黄山市,延安路89号,细颗粒物(PM2.5),85,106,58,63,33,81,,122,122,19,19,7,5,0.6,0.5
2025-01-20T2000,2296A,118.327,29.7178,黄山市,黄山东路89号,细颗粒物(PM2.5),104,120,67,78,41,40,,104,101,45,25,8,6,1.0,0.7
2025-01-20T2000,2297A,118.1371,30.2756,黄山市,黄山区政府5号楼,"颗粒物(PM10),细颗粒物(PM2.5)",60,69,58,43,41,74,,121,117,14,13,8,8,0.8,0.7
2025-01-20T2000,2423A,115.0601,30.2313,黄石市,沈家营,细颗粒物(PM2.5),156,176,151,119,97,76,,113,113,77,65,17,14,1.2,1
2025-01-20T2000,2426A,114.8988,30.2019,黄石市,铁山,细颗粒物(PM2.5),140,137,133,107,106,102,,148,144,59,53,20,18,0.8,0.9
2025-01-20T2000,2427A,115.0307,30.2092,黄石市,团城山,细颗粒物(PM2.5),134,140,128,102,101,121,,133,133,41,60,19,14,1.0,1
2025-01-20T2000,3149A,115.0235,30.1578,黄石市,笔架山北路,细颗粒物(PM2.5),127,135,119,96,101,129,,147,147,24,38,17,15,0.9,1.1
2025-01-20T2000,4185A,115.0780,30.21118,黄石市,磁湖东路29号,细颗粒物(PM2.5),159,164,140,121,108,73,,109,109,95,72,82,24,1.5,1.3
2025-01-20T2000,1392A,114.4183,23.0528,惠州市,河南岸金山湖子站,颗粒物(PM10),64,77,60,45,38,52,,116,110,55,31,8,7,1.2,0.7
2025-01-20T2000,1393A,114.4053,23.0822,惠州市,下埔横江三路子站,颗粒物(PM10),69,88,68,48,40,38,,122,110,71,38,7,8,1.0,0.7
2025-01-20T2000,1394A,114.4103,23.1142,惠州市,江北云山西路子站,颗粒物(PM10),56,61,67,31,37,83,,130,128,54,42,8,8,0.9,0.9
2025-01-20T2000,1395A,114.4645,22.7833,惠州市,惠阳区承修路船湖子站,颗粒物(PM10),83,116,72,49,33,70,,148,140,58,35,9,9,1.0,0.6
2025-01-20T2000,1396A,114.5317,22.7422,惠州市,大亚湾管委会子站,颗粒物(PM10),68,85,58,43,31,43,,168,154,110,55,11,11,0.9,0.7
2025-01-20T2000,3314A,114.4338,22.8134,惠州市,惠阳秋长,颗粒物(PM10),65,80,63,37,33,82,,159,153,43,35,17,15,0.9,0.7
2025-01-20T2000,3452A,114.6517,22.775,惠州市,大亚湾霞涌,颗粒物(PM10),61,72,47,42,32,71,,134,124,55,33,7,7,0.6,0.4
2025-01-20T2000,2240A,130.9762,45.3001,鸡西市,环保局,细颗粒物(PM2.5),107,98,120,80,96,50,,59,55,22,42,8,11,0.9,1.2
2025-01-20T2000,2243A,130.9429,45.3039,鸡西市,第一中学,细颗粒物(PM2.5),109,95,82,82,68,54,,69,64,24,31,8,9,0.7,0.6
2025-01-20T2000,3707A,131.0207,45.3073,鸡西市,欧美日汽修厂,细颗粒物(PM2.5),140,115,134,107,108,55,,68,67,24,40,8,16,0.3,1.6
2025-01-20T2000,3709A,130.9967,45.3106,鸡西市,市政设施管理处,细颗粒物(PM2.5),138,114,122,105,93,53,,56,54,25,44,9,10,0.8,1
2025-01-20T2000,2367A,114.9754,27.0803,吉安市,红声器材厂,细颗粒物(PM2.5),63,73,77,45,48,118,,134,134,23,31,13,11,0.7,0.8
2025-01-20T2000,2368A,114.9658,27.0999,吉安市,市森林工业局,,,78,77,50,47,120,,130,130,,30,14,15,0.8,0.8
2025-01-20T2000,2369A,114.99,27.1312,吉安市,市环境监测站,细颗粒物(PM2.5),75,71,80,55,51,130,,139,139,25,38,16,16,0.5,0.7
2025-01-20T2000,2370A,115.0093,27.0968,吉安市,青原区法院,细颗粒物(PM2.5),74,92,84,54,49,110,,139,139,41,50,13,13,0.6,0.7
2025-01-20T2000,1772A,126.54,43.8622,吉林市,哈达湾,细颗粒物(PM2.5),235,224,127,185,106,34,,68,61,108,53,42,20,2.4,1.4
2025-01-20T2000,1773A,126.5844,43.8358,吉林市,东局子,细颗粒物(PM2.5),237,250,120,187,89,21,,65,58,87,40,,9,2.9,2.9
2025-01-20T2000,1774A,126.5052,43.8245,吉林市,电力学院,细颗粒物(PM2.5),372,373,145,322,117,10,,58,51,93,48,27,15,4.0,1.7
2025-01-20T2000,1775A,126.6133,43.8972,吉林市,江北,细颗粒物(PM2.5),215,203,147,165,117,36,,77,63,77,58,18,18,2.6,1.4
2025-01-20T2000,1776A,126.555,43.8306,吉林市,江南公园,细颗粒物(PM2.5),248,255,128,198,106,,,55,45,113,53,19,11,2.5,1.8
2025-01-20T2000,1778A,126.7061,43.7133,吉林市,丰满,,,,,,,,,,,,,,,,
2025-01-20T2000,2868A,126.4739,43.953,吉林市,九站,细颗粒物(PM2.5),233,222,160,183,132,12,,63,52,102,60,22,18,2.1,1.5
2025-01-20T2000,1299A,116.9862,36.6114,济南市,科干所,细颗粒物(PM2.5),83,95,63,61,31,90,,96,96,34,39,15,14,0.9,0.8
2025-01-20T2000,1300A,116.9376,36.665,济南市,农科所,颗粒物(PM10),89,127,101,63,43,19,,75,68,101,66,21,19,1.3,1
2025-01-20T2000,1301A,117.1265,36.6734,济南市,开发区,细颗粒物(PM2.5),98,103,70,73,41,39,,79,78,84,61,12,11,1.2,0.9
2025-01-20T2000,1303A,117.0624,36.6868,济南市,省种子仓库,细颗粒物(PM2.5),92,114,91,68,40,29,,76,75,85,56,11,10,1.3,1
2025-01-20T2000,1304A,116.9489,36.6447,济南市,机床二厂,细颗粒物(PM2.5),104,142,111,78,52,33,,83,79,84,56,83,43,1.5,1.4
2025-01-20T2000,1305A,117.0495,36.663,济南市,市监测站,,,100,69,61,32,73,,86,86,49,56,,10,1.0,0.9
2025-01-20T2000,1306A,116.7675,36.5484,济南市,长清党校,细颗粒物(PM2.5),85,98,74,63,43,79,,96,96,44,52,14,11,1.0,0.8
2025-01-20T2000,1616A,117.6795,36.229,济南市,技术学院,细颗粒物(PM2.5),132,141,104,100,66,16,,72,66,93,60,29,21,1.6,1.2
2025-01-20T2000,1961A,117.532,36.6868,济南市,东山小学,颗粒物(PM10),68,85,66,46,32,64,,73,73,34,42,14,10,0.9,0.8
2025-01-20T2000,3059A,117.7161,36.2049,济南市,泰兴公司,细颗粒物(PM2.5),138,217,126,105,75,9,,66,58,91,61,25,21,1.9,1.3
2025-01-20T2000,3064A,117.6867,36.2171,济南市,莱芜战役纪念馆,细颗粒物(PM2.5),117,153,120,88,70,16,,71,66,97,63,24,18,1.6,1.2
2025-01-20T2000,3494A,117.1673,36.9782,济南市,济阳区政府,细颗粒物(PM2.5),80,105,106,59,56,56,,70,70,45,47,17,25,1.1,1.4
2025-01-20T2000,3495A,117.1171,36.63,济南市,锦屏中学,细颗粒物(PM2.5),89,95,49,66,27,82,,88,88,36,29,14,8,0.8,0.5
2025-01-20T2000,3682A,116.9814,36.6819,济南市,济南四建,细颗粒物(PM2.5),83,100,86,61,42,63,,76,76,56,66,18,18,0.8,0.8
2025-01-20T2000,1653A,116.6251,35.4302,济宁市,火炬城,细颗粒物(PM2.5),107,131,103,80,58,63,,75,75,49,48,20,17,1.3,1.1
2025-01-20T2000,1655A,116.5491,35.4042,济宁市,电化厂,细颗粒物(PM2.5),132,165,138,100,82,73,,81,81,54,65,20,21,1.3,1.2
2025-01-20T2000,3500A,116.5814,35.3707,济宁市,北湖一中,细颗粒物(PM2.5),134,135,112,102,81,75,,80,80,57,62,17,15,1.6,1.5
2025-01-20T2000,3501A,116.8249,35.5593,济宁市,服务中心,细颗粒物(PM2.5),100,114,140,75,79,67,,85,85,46,59,17,18,1.3,1.4
2025-01-20T2000,3678A,116.5907,35.4054,济宁市,市第七中学,细颗粒物(PM2.5),132,136,109,100,73,66,,78,78,56,52,15,12,1.5,1.3
2025-01-20T2000,2255A,130.2751,46.8028,佳木斯市,佳纺,细颗粒物(PM2.5),221,201,181,171,157,28,,46,38,78,68,10,13,1.7,1.8
2025-01-20T2000,2256A,130.3995,46.8307,佳木斯市,发电厂,细颗粒物(PM2.5),196,155,155,147,142,63,,60,60,37,62,9,12,1.3,1.6
2025-01-20T2000,2257A,130.3258,46.7975,佳木斯市,环保局,细颗粒物(PM2.5),216,179,156,166,142,14,,26,22,83,67,16,14,2.1,2
2025-01-20T2000,2258A,130.3648,46.8032,佳木斯市,十一中,细颗粒物(PM2.5),208,162,144,158,148,33,,34,33,72,76,9,11,1.4,1.7
2025-01-20T2000,2259A,130.3794,46.7588,佳木斯市,四丰,细颗粒物(PM2.5),160,182,119,122,77,27,,62,40,60,36,1,1,2.4,1.4
2025-01-20T2000,1252A,120.7436,30.778,嘉兴市,清河小学,细颗粒物(PM2.5),179,150,119,135,100,77,,129,126,82,84,,14,,1.2
2025-01-20T2000,1253A,120.726,30.7478,嘉兴市,嘉兴学院,细颗粒物(PM2.5),178,180,141,134,101,87,,136,133,51,63,10,11,1.4,1.1
2025-01-20T2000,2872A,120.7846,30.7525,嘉兴市,南湖区残联,细颗粒物(PM2.5),168,169,140,127,101,119,,138,138,47,59,12,12,1.0,1
2025-01-20T2000,3407A,120.6916,30.7739,嘉兴市,秀洲住建,细颗粒物(PM2.5),175,170,140,132,111,4,,138,121,151,79,9,9,0.9,0.8
2025-01-20T2000,1945A,98.2908,39.7711,嘉峪关市,气象局,颗粒物(PM10),124,197,47,36,16,31,,74,70,28,23,10,7,0.9,0.8
2025-01-20T2000,2884A,98.2672,39.7978,嘉峪关市,酒钢宾馆,颗粒物(PM10),150,249,68,66,22,21,,66,59,54,27,46,20,0.4,0.7
2025-01-20T2000,3248A,98.2643,39.7724,嘉峪关市,雄关区,颗粒物(PM10),114,178,39,31,17,33,,73,69,39,30,2,4,0.4,0.5
2025-01-20T2000,1383A,113.1064,22.6058,江门市,北街,细颗粒物(PM2.5),88,72,79,65,61,74,,120,120,77,88,5,5,1.1,1.1
2025-01-20T2000,1384A,113.0731,22.5835,江门市,西区,细颗粒物(PM2.5),95,120,109,71,61,43,,127,120,109,83,8,9,1.7,0.9
2025-01-20T2000,1385A,113.0219,22.5311,江门市,圭峰西,细颗粒物(PM2.5),64,46,73,46,55,106,,131,131,51,52,7,7,0.8,0.7
2025-01-20T2000,1386A,113.0828,22.5947,江门市,东湖,颗粒物(PM10),76,102,104,53,59,85,,136,129,65,82,6,7,1.1,0.8
2025-01-20T2000,3311A,113.1075,22.5647,江门市,江海富民,细颗粒物(PM2.5),78,94,110,57,60,40,,125,120,119,84,8,8,1.4,1
2025-01-20T2000,3449A,113.05,22.4667,江门市,新会银湖,细颗粒物(PM2.5),84,76,85,62,72,94,,131,130,60,62,8,8,0.8,0.8
2025-01-20T2000,1828A,113.227,35.2125,焦作市,市环保局,细颗粒物(PM2.5),140,163,122,107,77,41,,84,81,81,41,14,16,1.3,1.2
2025-01-20T2000,1830A,113.1992,35.2590,焦作市,影视城,细颗粒物(PM2.5),124,107,101,94,68,91,,90,90,36,30,18,18,1.2,1.1
2025-01-20T2000,3169A,113.2725,35.2067,焦作市,太极体育中心,细颗粒物(PM2.5),134,164,122,102,61,51,,86,84,73,48,18,18,1.3,1
2025-01-20T2000,3335A,113.3137,35.2641,焦作市,马村街道办,细颗粒物(PM2.5),125,145,111,95,67,62,,84,84,46,33,16,17,1.6,1.2
2025-01-20T2000,3336A,113.2465,35.2373,焦作市,焦作技师学院,细颗粒物(PM2.5),134,162,110,102,71,59,,83,83,55,34,20,15,1.6,1.1
2025-01-20T2000,3477A,113.1656,35.2539,焦作市,中站许衡医院,细颗粒物(PM2.5),120,111,97,91,67,51,,77,76,75,40,17,21,1.3,1.2
2025-01-20T2000,3981A,113.2449,35.1803,焦作市,原李万街道办,细颗粒物(PM2.5),110,141,118,83,72,74,,93,93,48,41,14,24,1.2,1.1
2025-01-20T2000,1708A,116.3701,23.5345,揭阳市,新兴,颗粒物(PM10),52,53,70,31,48,102,,137,136,28,30,9,7,1.0,0.8
2025-01-20T2000,1709A,116.3264,23.5443,揭阳市,西马,颗粒物(PM10),52,53,79,19,48,104,,139,138,28,35,9,8,0.9,0.8
2025-01-20T2000,1710A,116.3611,23.5626,揭阳市,东兴,颗粒物(PM10),56,62,81,32,44,118,,146,146,20,33,8,8,0.7,0.8
2025-01-20T2000,1711A,116.4151,23.5294,揭阳市,渔湖,,49,49,77,31,44,111,,150,148,24,33,8,8,0.7,0.7
2025-01-20T2000,3320A,116.403,23.5699,揭阳市,曲溪,颗粒物(PM10),58,66,73,39,46,132,,159,159,24,35,2,2,0.6,0.8
2025-01-20T2000,1944A,102.1692,38.5167,金昌市,天庆家园,细颗粒物(PM2.5),100,91,62,75,36,26,,80,69,57,32,25,35,0.8,1.1
2025-01-20T2000,3170A,102.1864,38.5253,金昌市,市委党校,,,,,,,,,,,,,,,,
2025-01-20T2000,4022A,102.1647,38.5371,金昌市,金川区人防中心,细颗粒物(PM2.5),73,88,53,53,29,35,,80,71,43,20,26,26,0.4,0.8
2025-01-20T2000,1262A,119.647,29.077,金华市,十五中,细颗粒物(PM2.5),105,123,86,79,52,40,,114,112,94,56,5,4,0.9,0.7
2025-01-20T2000,1263A,119.686,29.1029,金华市,监测站,细颗粒物(PM2.5),104,110,81,78,50,43,,110,108,90,61,7,6,0.7,0.7
2025-01-20T2000,3659A,119.656,29.1131,金华市,气象局,细颗粒物(PM2.5),124,121,99,94,61,50,,106,106,80,70,6,6,1.0,0.9
2025-01-20T2000,1767A,121.1115,41.0879,锦州市,南山,细颗粒物(PM2.5),74,66,95,54,86,44,,67,66,53,50,6,16,1.2,1.9
2025-01-20T2000,1768A,121.0533,40.8434,锦州市,开发区,,,,,,,,,,,,,,,,
2025-01-20T2000,1769A,121.1836,41.1119,锦州市,百股街道,细颗粒物(PM2.5),107,88,92,80,75,21,,66,59,76,55,15,24,1.6,1.3
2025-01-20T2000,1770A,121.1178,41.1222,锦州市,天安街道,细颗粒物(PM2.5),70,,85,51,59,33,,57,56,52,44,7,14,1.2,1.3
2025-01-20T2000,1771A,121.1303,41.1386,锦州市,北湖公园,细颗粒物(PM2.5),143,,76,109,55,22,,66,63,77,46,10,11,1.8,1.1
2025-01-20T2000,2160A,112.85,35.5051,晋城市,自来水公司,颗粒物(PM10),75,100,71,51,46,15,,81,77,81,49,16,20,1.4,1.4
2025-01-20T2000,2161A,112.8318,35.4936,晋城市,白云商贸,颗粒物(PM10),84,118,81,31,35,28,,82,78,68,49,10,14,1.1,1.2
2025-01-20T2000,2162A,112.8508,35.4887,晋城市,市环保局,,,,79,,47,,,33,,,54,,19,,1.3
2025-01-20T2000,2163A,112.8676,35.4897,晋城市,技术学院,,,105,87,56,49,,,95,,93,59,14,17,1.3,1.3
2025-01-20T2000,2165A,112.8453,35.546,晋城市,白马寺,,47,47,54,28,38,52,,32,,16,19,16,31,0.8,1.3
2025-01-20T2000,3620A,112.8271,35.4828,晋城市,泽州一中,细颗粒物(PM2.5),58,55,76,41,44,37,,85,83,67,49,14,14,1.0,1.1
2025-01-20T2000,2173A,112.7249,37.7067,晋中市,南都小区,颗粒物(PM10),116,181,108,82,50,5,,70,63,100,57,28,26,1.6,1
2025-01-20T2000,2174A,112.6991,37.6982,晋中市,榆次区政府,细颗粒物(PM2.5),190,251,113,143,50,5,,68,61,104,54,32,27,2.2,1.2
2025-01-20T2000,2865A,112.7195,37.6828,晋中市,榆次三中,"颗粒物(PM10),细颗粒物(PM2.5)",104,158,99,78,45,8,,67,61,92,50,25,26,1.5,1.1
2025-01-20T2000,4200A,112.7478,37.6954,晋中市,榆次一中,颗粒物(PM10),87,124,107,56,47,19,,74,67,79,46,20,24,1.1,0.8
2025-01-20T2000,2439A,112.2014,31.0481,荆门市,竹园小学,细颗粒物(PM2.5),169,154,146,128,113,115,,140,140,43,42,10,12,1.5,1
2025-01-20T2000,2440A,112.1969,30.9891,荆门市,掇刀,细颗粒物(PM2.5),183,177,162,138,126,116,,145,144,45,44,17,16,1.1,0.9
2025-01-20T2000,2441A,112.2213,31.0386,荆门市,石化一小,细颗粒物(PM2.5),156,146,162,119,114,129,,139,139,34,49,15,12,1.0,1.1
2025-01-20T2000,3012A,112.1849,31.0362,荆门市,西山林语,细颗粒物(PM2.5),159,144,144,121,119,124,,145,145,26,29,6,6,0.7,0.7
2025-01-20T2000,3547A,112.1632,31.0138,荆门市,龙泉中学南校,细颗粒物(PM2.5),166,163,160,126,120,107,,140,138,32,31,14,15,1.0,1
2025-01-20T2000,1844A,112.2494,30.3197,荆州市,市图书馆,细颗粒物(PM2.5),162,132,140,123,146,89,,134,134,81,62,11,8,1.6,1.2
2025-01-20T2000,1845A,112.2008,30.3544,荆州市,市委党校,细颗粒物(PM2.5),170,158,158,129,150,73,,114,114,79,54,20,11,1.1,0.9
2025-01-20T2000,3194A,112.2747,30.3122,荆州市,管委会,细颗粒物(PM2.5),175,148,162,132,157,76,,136,136,90,63,12,10,,1.3
2025-01-20T2000,3548A,112.1655,30.3364,荆州市,学苑路,细颗粒物(PM2.5),165,142,145,125,140,115,,138,138,49,44,12,10,1.3,1.3
2025-01-20T2000,2342A,117.3102,29.3867,景德镇市,王港中学,,,,,,,,,,,,,,,,
2025-01-20T2000,2343A,117.2117,29.2933,景德镇市,老干部活动中心,细颗粒物(PM2.5),84,,70,62,46,39,,102,97,54,42,4,4,0.9,0.7
2025-01-20T2000,2344A,117.1894,29.2789,景德镇市,兽医站,颗粒物(PM10),57,63,76,37,40,66,,108,104,36,47,4,4,1.0,1
2025-01-20T2000,2345A,117.1547,29.2617,景德镇市,台达陶瓷,颗粒物(PM10),76,102,75,50,43,7,,105,83,91,50,128,25,1.1,0.6
2025-01-20T2000,2346A,117.2461,29.2956,景德镇市,陶研所,细颗粒物(PM2.5),201,,68,151,73,56,,106,102,38,40,4,4,0.7,0.7
2025-01-20T2000,1803A,115.9872,29.6815,九江市,十里,细颗粒物(PM2.5),115,138,117,87,78,36,,126,118,98,56,10,10,1.4,1.1
2025-01-20T2000,1804A,115.9584,29.7046,九江市,茅山头,细颗粒物(PM2.5),139,144,110,106,72,83,,126,123,69,66,12,8,1.6,1.2
2025-01-20T2000,1805A,115.9877,29.7295,九江市,西园,细颗粒物(PM2.5),120,126,112,91,82,95,,109,109,60,84,16,14,1.1,1.4
2025-01-20T2000,1808A,115.9114,29.6038,九江市,综合工业园,细颗粒物(PM2.5),139,119,105,106,89,68,,102,102,55,58,8,10,0.9,0.9
2025-01-20T2000,1809A,116.0721,29.7535,九江市,石化总厂,细颗粒物(PM2.5),135,112,117,103,95,100,,120,120,55,65,16,15,1.1,1.2
2025-01-20T2000,1810A,115.9773,29.5698,九江市,庐山气象台,,33,19,41,6,30,105,,119,114,5,10,6,8,1.0,0.9
2025-01-20T2000,3190A,116.0254,29.6994,九江市,外国语学校,细颗粒物(PM2.5),124,130,119,94,83,127,,135,135,28,44,21,14,0.8,0.8
2025-01-20T2000,4253A,116.0102,29.6594,九江市,莲花大道8号,细颗粒物(PM2.5),94,120,99,70,71,132,,132,132,24,32,12,10,0.3,0.4
2025-01-20T2000,2658A,98.5061,39.7443,酒泉市,仓门街子站,颗粒物(PM10),100,149,57,25,23,57,,71,71,13,20,10,16,0.5,0.6
2025-01-20T2000,4240A,98.4958,39.7339,酒泉市,玉门东路5号,颗粒物(PM10),102,153,65,28,23,50,,67,67,13,21,7,13,0.5,0.6
2025-01-20T2000,2698A,76.0072,39.4467,喀什地区,巡警大队,颗粒物(PM10),68,86,164,39,81,90,,64,64,26,62,6,8,0.9,2.5
2025-01-20T2000,2699A,75.9755,39.4694,喀什地区,吾办,细颗粒物(PM2.5),87,111,165,64,105,71,,53,53,49,70,4,4,1.0,2.3
2025-01-20T2000,4027A,75.9483,39.4689,喀什地区,老干局,颗粒物(PM10),74,98,179,43,85,79,,69,69,45,58,8,6,1.3,3
2025-01-20T2000,1824A,114.3389,34.7781,开封市,肿瘤医院,细颗粒物(PM2.5),217,216,147,167,107,91,,104,104,52,63,12,10,1.2,1
2025-01-20T2000,1826A,114.2885,34.7965,开封市,世纪星幼儿园,细颗粒物(PM2.5),218,,127,168,121,95,,96,96,44,53,12,12,1.0,0.9
2025-01-20T2000,3147A,114.3438,34.8106,开封市,龙亭公园,细颗粒物(PM2.5),236,222,145,186,116,72,,102,102,70,71,12,10,1.3,1
2025-01-20T2000,3210A,114.3644,34.7964,开封市,汴京公园,细颗粒物(PM2.5),239,258,165,189,123,58,,101,100,91,75,12,10,1.4,1
2025-01-20T2000,3473A,114.2485,34.8306,开封市,技师学院,细颗粒物(PM2.5),156,163,134,119,95,114,,96,96,37,69,8,9,1.3,1.2
2025-01-20T2000,3592A,114.4644,34.7556,开封市,祥符区生态环境局,细颗粒物(PM2.5),231,235,149,181,114,58,,107,106,79,57,10,9,1.2,0.8
2025-01-20T2000,1951A,84.895,45.6094,克拉玛依市,长征新村,细颗粒物(PM2.5),128,144,141,97,96,62,,63,63,49,40,24,10,1.1,1.1
2025-01-20T2000,1952A,84.8988,45.5893,克拉玛依市,南林小区,细颗粒物(PM2.5),129,143,132,98,102,68,,65,65,25,21,19,6,1.2,1.2
2025-01-20T2000,1954A,84.905,44.3396,克拉玛依市,独山子区,细颗粒物(PM2.5),298,,122,248,110,84,,83,83,58,45,13,6,1.9,1.1
2025-01-20T2000,1955A,85.6979,46.098,克拉玛依市,乌尔禾区商贸楼,细颗粒物(PM2.5),165,126,109,125,108,70,,71,71,40,34,8,6,1.4,1.3
2025-01-20T2000,3612A,85.1045,45.6899,克拉玛依市,白碱滩区新站,细颗粒物(PM2.5),130,134,130,99,92,58,,66,66,40,27,6,6,1.1,1.1
2025-01-20T2000,2697A,76.1454,39.7142,克孜勒苏柯尔克孜自治州,市人民政府,细颗粒物(PM2.5),90,117,115,67,69,96,,85,85,29,26,7,6,1.5,1.5
2025-01-20T2000,3665A,76.1658,39.7157,克孜勒苏柯尔克孜自治州,克州文化中心,"颗粒物(PM10),细颗粒物(PM2.5)",84,118,113,62,69,94,,82,82,38,36,12,11,1.2,1.2
2025-01-20T2000,1450A,102.8204,24.8886,昆明市,呈贡新区,,50,43,38,35,27,66,,78,78,17,22,5,5,0.5,0.5
2025-01-20T2000,1451A,102.6251,24.9608,昆明市,西山森林公园,,,,,,,,,,,,,,,,
2025-01-20T2000,1452A,102.7252,25.0902,昆明市,龙泉镇,颗粒物(PM10),51,52,49,34,34,64,,82,82,26,31,7,6,0.8,0.7
2025-01-20T2000,1453A,102.7266,25.0375,昆明市,东风东路,细颗粒物(PM2.5),52,48,44,36,32,66,,80,78,20,28,7,7,0.6,0.6
2025-01-20T2000,1454A,102.6742,25.0669,昆明市,金鼎山,颗粒物(PM10),52,54,53,28,34,65,,78,78,24,32,9,8,0.7,0.7
2025-01-20T2000,1455A,102.6644,25.0401,昆明市,碧鸡广场,细颗粒物(PM2.5),53,50,49,37,36,65,,80,78,20,31,6,6,0.6,0.7
2025-01-20T2000,3179A,102.7494,25.0119,昆明市,官渡区博物馆,,48,46,46,33,33,71,,84,84,17,27,7,7,0.5,0.6
2025-01-20T2000,3375A,102.8017,24.8336,昆明市,青年创业园,,46,39,31,32,23,79,,84,84,10,20,6,6,0.5,0.5
2025-01-20T2000,3550A,102.7997,24.9786,昆明市,昆明学院,,45,44,48,31,32,64,,80,80,24,26,9,9,0.3,0.4
2025-01-20T2000,3551A,102.5967,24.6736,昆明市,晋宁区生态环境分局,颗粒物(PM10),59,68,48,39,29,82,,87,87,17,22,4,4,0.6,0.7
2025-01-20T2000,3552A,102.6678,24.9856,昆明市,云天化总部,,50,49,41,35,29,78,,87,87,14,26,7,6,0.6,0.6
2025-01-20T2000,1456A,91.1319,29.6514,拉萨市,八廓街,,31,22,22,12,14,97,,93,93,14,23,7,6,0.4,0.6
2025-01-20T2000,1457A,91.1221,29.6747,拉萨市,市环保局,,39,34,41,27,18,95,,96,96,22,33,7,7,0.8,1.6
2025-01-20T2000,1458A,91.0874,29.6475,拉萨市,区监测站,,35,,18,8,12,110,,100,100,8,32,6,6,0.5,0.7
2025-01-20T2000,1459A,91.1774,29.6541,拉萨市,西藏大学,,32,11,18,7,8,101,,97,97,14,12,6,5,0.4,0.4
2025-01-20T2000,1460A,90.9798,29.6588,拉萨市,区辐射站,,25,25,26,16,18,77,,90,90,39,30,9,8,0.7,0.8
2025-01-20T2000,1461A,91.0834,29.6292,拉萨市,拉萨火车站,,37,10,16,8,12,118,,99,99,4,27,4,4,0.4,0.9
2025-01-20T2000,2520A,109.2203,23.7256,来宾市,来宾技工学校,细颗粒物(PM2.5),100,106,139,75,106,90,,136,136,42,47,9,21,1.3,1.3
2025-01-20T2000,3535A,109.1781,23.7297,来宾市,兴宾区政府,细颗粒物(PM2.5),77,84,101,56,93,114,,150,150,32,23,10,11,1.1,1.1
2025-01-20T2000,4002A,109.2416,23.7461,来宾市,中南小学,细颗粒物(PM2.5),129,180,150,98,101,32,,135,127,84,51,13,17,1.7,1.5
2025-01-20T2000,1476A,103.631,36.1031,兰州市,兰炼宾馆,,,,,,,,,,,,,,,,
2025-01-20T2000,1477A,104.1373,35.9454,兰州市,榆中兰大校区,,,,,,,,,,,,,,,,
2025-01-20T2000,1478A,103.8412,36.0726,兰州市,生物制品所,,,,97,,63,,,17,,,88,,16,,1.5
2025-01-20T2000,1479A,103.831,36.0464,兰州市,铁路设计院,细颗粒物(PM2.5),142,108,114,108,80,5,,25,24,145,96,23,25,3.6,2.7
2025-01-20T2000,3241A,103.7439,36.0842,兰州市,百合公园,细颗粒物(PM2.5),107,142,98,80,67,3,,51,46,129,78,20,22,2.5,1.8
2025-01-20T2000,3242A,103.9611,35.998,兰州市,和平,细颗粒物(PM2.5),115,108,76,87,47,35,,68,68,73,55,19,24,1.2,1.5
2025-01-20T2000,4237A,103.7251,36.1043,兰州市,安宁西路88号,细颗粒物(PM2.5),103,144,113,77,65,2,,77,65,119,78,28,29,1.9,1.4
2025-01-20T2000,3245A,103.6633,36.533,兰州新区,新区管委会,细颗粒物(PM2.5),88,88,63,65,46,41,,78,76,53,31,24,25,1.1,1
2025-01-20T2000,3246A,103.6975,36.4789,兰州新区,舟曲中学,细颗粒物(PM2.5),73,67,72,53,48,73,,78,78,32,41,21,24,1.2,1
2025-01-20T2000,1067A,116.6708,39.5111,廊坊市,药材公司,细颗粒物(PM2.5),147,151,105,112,74,32,,53,53,67,63,12,12,1.0,0.8
2025-01-20T2000,1068A,116.7214,39.5589,廊坊市,开发区,细颗粒物(PM2.5),112,136,101,84,62,20,,55,50,91,65,12,11,1.3,0.8
2025-01-20T2000,1070A,116.7244,39.5269,廊坊市,北华航天学院,,,,104,,61,19,,51,48,,56,12,12,,0.8
2025-01-20T2000,2919A,116.7022,39.5453,廊坊市,河北工业大学,细颗粒物(PM2.5),120,137,99,91,67,35,,52,51,67,58,15,14,1.1,0.8
2025-01-20T2000,2535A,103.7723,29.5462,乐山市,花湖湾,细颗粒物(PM2.5),85,78,88,63,75,116,,112,112,15,20,6,6,0.6,0.7
2025-01-20T2000,2536A,103.7627,29.5844,乐山市,牛耳桥,细颗粒物(PM2.5),110,97,88,83,80,48,,86,86,55,30,6,5,0.8,0.7
2025-01-20T2000,2537A,103.7508,29.6006,乐山市,市第三水厂,细颗粒物(PM2.5),88,98,89,65,70,41,,91,90,67,32,4,4,1.0,0.9
2025-01-20T2000,2538A,103.7571,29.5664,乐山市,市监测站,细颗粒物(PM2.5),94,91,79,70,62,77,,94,94,28,21,5,5,0.7,0.6
2025-01-20T2000,3361A,103.7311,29.5628,乐山市,理工大学,细颗粒物(PM2.5),90,79,83,67,74,82,,102,102,30,23,9,9,0.9,0.9
2025-01-20T2000,2598A,100.2143,26.8576,丽江市,西南郊,,43,43,32,21,21,95,,106,106,13,7,7,5,0.8,0.6
2025-01-20T2000,2599A,100.2497,26.8802,丽江市,丽江古城,,38,38,28,21,18,93,,102,102,12,11,11,9,0.9,0.8
2025-01-20T2000,2600A,100.2203,26.8906,丽江市,市中心,,36,36,23,23,15,87,,98,98,16,12,9,7,0.7,0.5
2025-01-20T2000,1267A,119.914,28.4514,丽水市,监测站大楼,细颗粒物(PM2.5),84,64,44,62,36,67,,109,109,48,33,6,6,0.8,0.5
2025-01-20T2000,1268A,119.93,28.4586,丽水市,莲都小学,细颗粒物(PM2.5),59,62,54,42,34,119,,128,128,23,34,7,6,0.6,0.7
2025-01-20T2000,1269A,119.879,28.4231,丽水市,余庄前,颗粒物(PM10),51,51,46,34,33,78,,118,118,19,24,3,4,0.5,0.4
2025-01-20T2000,1173A,119.176,34.5885,连云港市,市环境监测站,,,46,107,29,74,,,68,65,34,62,11,14,,1.3
2025-01-20T2000,3000A,119.3581,34.6972,连云港市,德源药业,,34,34,99,14,59,66,,66,65,22,60,6,10,0.3,0.7
2025-01-20T2000,3007A,119.178,34.844,连云港市,新城一中,颗粒物(PM10),54,57,119,25,86,22,,69,61,70,80,10,17,0.5,1.1
2025-01-20T2000,3008A,119.3608,34.7519,连云港市,胡沟管理处,颗粒物(PM10),60,70,75,27,48,3,,52,34,85,54,15,10,0.6,0.8
2025-01-20T2000,3009A,119.1478,34.5911,连云港市,矿山设计院,,,75,120,44,76,,,61,60,39,63,9,13,,1.2
2025-01-20T2000,3434A,119.2413,34.6539,连云港市,工贸学校,颗粒物(PM10),54,58,94,35,66,74,,74,73,23,31,13,16,0.8,1
2025-01-20T2000,3664A,119.4172,34.7341,连云港市,连云街道,细颗粒物(PM2.5),74,88,75,54,51,45,,53,49,44,35,24,16,1.3,1.1
2025-01-20T2000,2571A,102.3431,27.8099,凉山彝族自治州,青龙寺,,40,40,46,15,17,72,,90,89,7,7,6,7,0.8,0.9
2025-01-20T2000,2572A,102.2721,27.8415,凉山彝族自治州,邛海宾馆,,49,49,50,30,32,77,,85,85,14,17,6,8,0.8,0.9
2025-01-20T2000,2573A,102.2625,27.898,凉山彝族自治州,西昌市政府,细颗粒物(PM2.5),57,50,43,40,30,67,,86,86,15,15,9,9,1.0,0.9
2025-01-20T2000,2574A,102.2685,27.8851,凉山彝族自治州,凉山州政府,细颗粒物(PM2.5),65,62,50,47,32,64,,85,85,19,16,8,8,0.8,0.8
2025-01-20T2000,2575A,102.237,27.8914,凉山彝族自治州,长安,"颗粒物(PM10),细颗粒物(PM2.5)",52,54,50,36,32,72,,88,88,14,22,9,9,1.0,0.7
2025-01-20T2000,2212A,123.2,41.1953,辽阳市,宏伟区,细颗粒物(PM2.5),114,128,91,86,64,26,,68,62,80,44,14,25,1.7,1.2
2025-01-20T2000,2213A,123.1683,41.2495,辽阳市,新华园,,,303,122,,88,22,,57,52,118,61,34,26,5.4,2
2025-01-20T2000,2214A,123.2354,41.2639,辽阳市,滨河路,细颗粒物(PM2.5),93,69,78,69,59,21,,69,63,63,41,10,10,1.0,0.9
2025-01-20T2000,2215A,123.149,41.2991,辽阳市,铁西工业园,细颗粒物(PM2.5),165,169,135,125,101,5,,57,47,85,58,10,10,1.9,2
2025-01-20T2000,2227A,125.1358,42.8845,辽源市,环保局,细颗粒物(PM2.5),104,105,72,78,50,16,,65,60,73,43,16,13,1.8,1.4
2025-01-20T2000,3239A,125.0764,42.9078,辽源市,银鹰制药,细颗粒物(PM2.5),87,85,66,64,54,8,,61,52,72,39,9,8,1.6,1.2
2025-01-20T2000,1625A,115.9848,36.4372,聊城市,区政府,细颗粒物(PM2.5),110,146,100,83,59,76,,80,80,41,53,21,19,1.1,1.1
2025-01-20T2000,2878A,116.0072,36.4343,聊城市,聊大东校,细颗粒物(PM2.5),124,161,114,94,63,67,,72,72,49,59,18,16,1.1,1
2025-01-20T2000,3200A,115.9819,36.4978,聊城市,监控中心,细颗粒物(PM2.5),117,134,130,88,79,70,,79,79,54,64,19,21,1.2,1.3
2025-01-20T2000,3513A,116.0445,36.4361,聊城市,九州社区,细颗粒物(PM2.5),122,134,95,92,56,59,,73,73,51,50,17,18,0.9,0.7
2025-01-20T2000,4018A,116.0567,36.4608,聊城市,星美广场,细颗粒物(PM2.5),120,141,105,91,58,65,,67,67,37,48,18,21,1.0,0.8
2025-01-20T2000,2632A,94.3681,29.6376,林芝市,林芝监测站,,30,26,16,21,8,48,,80,78,30,12,7,6,0.5,0.3
2025-01-20T2000,2633A,94.3616,29.6616,林芝市,林芝人民医院,,35,35,14,19,7,52,,71,71,20,7,6,6,0.4,0.2
2025-01-20T2000,2603A,100.0781,23.8982,临沧市,市环保局,细颗粒物(PM2.5),57,54,33,40,25,64,,87,87,22,14,15,10,0.7,0.5
2025-01-20T2000,2604A,100.0894,23.8822,临沧市,市气象局,,39,37,32,27,27,62,,87,87,22,15,8,9,0.7,0.6
2025-01-20T2000,1733A,111.5531,36.0783,临汾市,临钢医院,细颗粒物(PM2.5),125,166,123,95,71,38,,74,74,68,45,16,14,1.8,1.7
2025-01-20T2000,1734A,111.5028,36.0714,临汾市,技工学校,细颗粒物(PM2.5),134,173,131,102,81,38,,68,68,71,54,16,16,1.9,1.8
2025-01-20T2000,1736A,111.5018,36.0855,临汾市,市委,细颗粒物(PM2.5),129,173,136,98,79,41,,71,70,73,56,15,15,1.4,1.4
2025-01-20T2000,3018A,111.505,36.1014,临汾市,唐尧大酒店,细颗粒物(PM2.5),119,172,136,90,82,30,,65,65,86,57,17,17,1.4,1.4
2025-01-20T2000,4244A,111.4879,36.0530,临汾市,启星学校,细颗粒物(PM2.5),128,179,130,97,81,24,,71,71,90,52,12,11,2.2,1.8
2025-01-20T2000,2667A,103.2069,35.5993,临夏回族自治州,环保局,"颗粒物(PM10),细颗粒物(PM2.5)",95,140,139,71,70,29,,76,75,56,40,20,16,1.6,2
2025-01-20T2000,2668A,103.2417,35.6057,临夏回族自治州,建设大厦,颗粒物(PM10),89,127,103,35,39,34,,83,81,60,28,24,18,1.4,1.3
2025-01-20T2000,1618A,118.3429,35.0532,临沂市,沂河小区,细颗粒物(PM2.5),153,171,138,117,94,56,,74,73,72,66,34,26,1.4,1.2
2025-01-20T2000,1619A,118.295,35.0583,临沂市,鲁南制药厂,细颗粒物(PM2.5),158,183,138,120,86,54,,74,73,68,63,41,26,1.3,1
2025-01-20T2000,1620A,118.2794,34.9976,临沂市,新光毛纺厂,细颗粒物(PM2.5),159,178,137,121,91,34,,77,72,85,69,40,26,1.5,1.3
2025-01-20T2000,1621A,118.3956,35.0888,临沂市,河东保险公司,细颗粒物(PM2.5),168,207,140,127,95,16,,72,64,135,77,28,22,1.6,1.1
2025-01-20T2000,3370A,118.3564,35.0215,临沂市,十里堡居委,细颗粒物(PM2.5),156,161,135,119,92,59,,78,77,64,59,32,25,1.4,1.3
2025-01-20T2000,3496A,118.3604,35.1084,临沂市,南坊新区,细颗粒物(PM2.5),156,173,133,119,91,52,,74,74,78,67,28,20,1.4,1.2
2025-01-20T2000,3860A,118.3920,35.0300,临沂市,皇山花园小区,细颗粒物(PM2.5),144,173,142,110,88,42,,78,75,112,77,24,22,1.5,1.3
2025-01-20T2000,1870A,109.4856,24.3895,柳州市,柳东小学,细颗粒物(PM2.5),75,80,92,55,69,157,,147,147,22,25,16,15,0.9,0.8
2025-01-20T2000,1871A,109.4157,24.3277,柳州市,环保监测站,颗粒物(PM10),94,138,157,67,99,44,,134,131,106,60,19,21,1.9,1.5
2025-01-20T2000,1872A,109.389,24.341,柳州市,河西水厂,细颗粒物(PM2.5),114,138,165,86,94,39,,128,124,117,63,25,24,2.3,1.6
2025-01-20T2000,1873A,109.4311,24.2921,柳州市,市四中,细颗粒物(PM2.5),132,162,145,100,93,20,,132,123,113,62,18,20,3.0,1.9
2025-01-20T2000,1874A,109.4006,24.3631,柳州市,市九中,颗粒物(PM10),114,178,145,75,94,13,,130,119,124,55,16,17,2.0,1.3
2025-01-20T2000,1875A,109.4958,24.3134,柳州市,古亭山,细颗粒物(PM2.5),82,76,80,60,56,89,,145,141,50,57,16,24,1.1,1
2025-01-20T2000,3402A,109.5422,24.3996,柳州市,市二中,细颗粒物(PM2.5),83,69,96,61,80,76,,126,124,43,42,10,11,1.0,1
2025-01-20T2000,2307A,116.5079,31.737,六安市,监测大楼,细颗粒物(PM2.5),107,97,122,80,97,89,,119,117,30,48,10,9,0.7,1
2025-01-20T2000,2308A,116.4738,31.7643,六安市,皖西学院,细颗粒物(PM2.5),100,97,126,75,94,90,,122,122,33,42,10,7,0.7,0.9
2025-01-20T2000,2309A,116.4996,31.7905,六安市,朝阳厂,细颗粒物(PM2.5),103,88,115,77,92,90,,117,117,32,38,6,6,0.6,0.8
2025-01-20T2000,2310A,116.5567,31.7886,六安市,开发区,,,,157,,102,,,119,119,53,50,9,7,,1.1
2025-01-20T2000,2576A,104.8,26.5892,六盘水市,窑上,细颗粒物(PM2.5),134,133,106,102,80,59,,68,65,17,16,1,6,,0.9
2025-01-20T2000,2577A,104.83,26.5917,六盘水市,黄土坡,细颗粒物(PM2.5),124,126,105,94,75,65,,67,58,29,25,16,14,1.0,1
2025-01-20T2000,2578A,104.89,26.5939,六盘水市,水钢,细颗粒物(PM2.5),156,150,108,119,83,77,,72,71,24,23,12,11,0.9,0.8
2025-01-20T2000,2579A,104.8475,26.5894,六盘水市,民中,细颗粒物(PM2.5),125,118,91,95,73,60,,67,58,30,23,12,12,1.0,0.9
2025-01-20T2000,2580A,104.9544,26.5506,六盘水市,双水,细颗粒物(PM2.5),98,102,92,73,67,97,,85,85,24,21,14,13,0.8,0.7
2025-01-20T2000,2335A,117.0189,25.1181,龙岩市,龙岩师专,,,,,,,,,,,,,,,,
2025-01-20T2000,2336A,117.0217,25.1033,龙岩市,龙岩市监测站,细颗粒物(PM2.5),62,67,42,44,28,20,,102,94,85,36,5,5,1.4,0.7
2025-01-20T2000,2337A,117.0258,25.0661,龙岩市,闽西职业技术学院,颗粒物(PM10),65,80,48,25,21,44,,93,86,52,40,2,3,0.6,0.7
2025-01-20T2000,2338A,117.0196,25.0306,龙岩市,龙岩学院,,40,40,36,26,24,72,,108,106,21,22,6,4,0.4,0.4
2025-01-20T2000,2665A,105.0822,33.3261,陇南市,汉王镇固水子,,,,,,,,,,,,,,,,
2025-01-20T2000,2885A,104.9339,33.3826,陇南市,滨江中学,细颗粒物(PM2.5),145,170,87,111,56,8,,66,57,98,51,48,72,5.0,2.1
2025-01-20T2000,3247A,104.955,33.371,陇南市,市总工会,细颗粒物(PM2.5),59,63,70,42,49,57,,73,73,32,39,8,29,0.7,0.9
2025-01-20T2000,2487A,111.9589,27.8901,娄底市,电视发射台,细颗粒物(PM2.5),69,60,58,50,50,117,,131,131,16,15,12,9,1.0,0.8
2025-01-20T2000,2488A,111.9975,27.725,娄底市,市监测站,细颗粒物(PM2.5),143,148,123,109,88,71,,129,129,76,50,19,25,2.2,1.7
2025-01-20T2000,2489A,112.0194,27.7314,娄底市,市委党校,细颗粒物(PM2.5),125,144,126,95,90,91,,113,113,51,49,26,31,1.5,1.7
2025-01-20T2000,2490A,111.9561,27.7569,娄底市,涟钢,细颗粒物(PM2.5),138,184,124,105,87,59,,110,110,71,36,20,23,1.3,1.3
2025-01-20T2000,2491A,111.9892,27.7044,娄底市,市政府,细颗粒物(PM2.5),138,154,116,105,83,13,,122,113,121,45,10,10,2.6,1.1
2025-01-20T2000,1893A,105.4324,28.9634,泸州市,九狮山,,,,,,,,,,,,,,,,
2025-01-20T2000,1894A,105.4427,28.9063,泸州市,小市上码头,细颗粒物(PM2.5),130,129,117,99,100,99,,106,106,28,40,3,3,1.0,1.1
2025-01-20T2000,1895A,105.4241,28.8573,泸州市,兰田宪桥,细颗粒物(PM2.5),140,137,106,107,90,87,,101,101,30,33,4,3,1.1,1.1
2025-01-20T2000,1896A,105.4379,28.8833,泸州市,市环监站,细颗粒物(PM2.5),129,111,104,98,90,83,,96,96,31,37,6,5,0.9,0.9
2025-01-20T2000,3490A,105.3617,28.7703,泸州市,纳溪区环保局,细颗粒物(PM2.5),115,103,91,87,78,85,,96,96,30,29,5,5,1.1,1
2025-01-20T2000,2183A,111.1406,37.5211,吕梁市,环保局,,,,91,41,30,3,,62,48,78,51,7,6,0.8,0.6
2025-01-20T2000,2185A,111.1297,37.5136,吕梁市,自来水公司,颗粒物(PM10),85,120,100,54,35,11,,48,44,71,47,12,13,1.0,0.8
2025-01-20T2000,2867A,111.1283,37.51,吕梁市,马茂庄小学,颗粒物(PM10),95,139,106,41,32,3,,49,45,89,54,11,14,1.0,0.8
2025-01-20T2000,1812A,112.3931,34.6516,洛阳市,市委党校,颗粒物(PM10),112,174,140,76,83,17,,73,70,104,72,9,13,2.0,1.4
2025-01-20T2000,1815A,112.494,34.6886,洛阳市,河南林校,细颗粒物(PM2.5),178,159,120,134,109,26,,70,69,83,61,10,11,1.5,1.2
2025-01-20T2000,1816A,112.3844,34.623,洛阳市,开发区管委会,,,,128,,98,,,85,85,38,49,9,10,1.0,1
2025-01-20T2000,1817A,112.4267,34.6258,洛阳市,市委新办公区,细颗粒物(PM2.5),125,152,127,95,80,54,,77,77,70,53,11,10,1.2,1
2025-01-20T2000,3340A,112.6005,34.6326,洛阳市,伊滨,细颗粒物(PM2.5),148,230,153,113,85,13,,80,74,101,57,12,10,0.8,0.7
2025-01-20T2000,3341A,112.4951,34.6332,洛阳市,中移产业园,细颗粒物(PM2.5),137,130,99,104,76,78,,94,94,51,50,14,10,1.0,1
2025-01-20T2000,3593A,112.5736,34.8993,洛阳市,吉利监测站,细颗粒物(PM2.5),137,178,129,104,74,8,,76,68,107,54,10,10,1.2,0.9
2025-01-20T2000,3635A,112.3677,34.662,洛阳市,河科大西苑校区,细颗粒物(PM2.5),127,174,145,96,94,11,,80,74,110,61,10,14,2.1,1.3
2025-01-20T2000,3636A,112.4388,34.6781,洛阳市,英才小学,细颗粒物(PM2.5),132,170,146,100,90,3,,69,65,127,74,17,19,1.7,1.3
2025-01-20T2000,4214A,112.4600,34.6949,洛阳市,春都路1号院,细颗粒物(PM2.5),125,161,134,95,78,36,,56,56,96,77,12,12,1.4,1.3
2025-01-20T2000,2399A,114.051,33.5699,漯河市,三五一五工厂,细颗粒物(PM2.5),218,215,159,168,136,66,,105,98,70,43,14,15,1.4,1.1
2025-01-20T2000,2400A,114.0055,33.5698,漯河市,漯河大学,细颗粒物(PM2.5),175,173,144,132,111,69,,110,110,71,44,12,14,1.3,1
2025-01-20T2000,2401A,114.0138,33.5828,漯河市,市水利局,细颗粒物(PM2.5),168,178,153,127,116,85,,105,105,48,36,12,13,1.1,1
2025-01-20T2000,2402A,114.0261,33.5698,漯河市,市广电局,细颗粒物(PM2.5),169,183,155,128,115,87,,110,110,52,42,15,15,1.0,0.9
2025-01-20T2000,3478A,113.9749,33.5664,漯河市,市图书馆,细颗粒物(PM2.5),166,169,155,126,121,109,,120,120,51,50,12,14,0.9,0.8
2025-01-20T2000,3479A,114.0967,33.5906,漯河市,召陵区卫健委,细颗粒物(PM2.5),186,191,170,140,126,66,,110,108,75,43,8,14,1.0,0.9
2025-01-20T2000,1798A,118.5092,31.6837,马鞍山市,湖东路四小,颗粒物(PM10),70,90,138,42,72,7,,75,62,104,71,5,17,1.0,1.4
2025-01-20T2000,1799A,118.5024,31.6449,马鞍山市,开发区,颗粒物(PM10),101,152,145,71,99,16,,81,71,83,70,11,12,0.8,1
2025-01-20T2000,1802A,118.6245,31.7241,马鞍山市,濮塘,颗粒物(PM10),53,56,126,36,97,90,,98,98,21,36,8,15,0.6,0.8
2025-01-20T2000,3633A,118.4918,31.6809,马鞍山市,雨山,细颗粒物(PM2.5),70,81,145,51,95,30,,77,68,81,69,9,19,1.1,1.4
2025-01-20T2000,4191A,118.5274,31.72227,马鞍山市,慈湖高新区,细颗粒物(PM2.5),65,66,124,47,83,40,,83,80,49,52,8,15,0.7,1.3
2025-01-20T2000,1686A,111.0286,21.4688,茂名市,电白南海,颗粒物(PM10),65,80,80,44,43,149,,164,164,48,30,8,11,0.7,0.8
2025-01-20T2000,1687A,110.9294,21.6533,茂名市,茂石化七小,颗粒物(PM10),84,117,89,53,42,162,,178,178,40,33,10,17,0.7,0.9
2025-01-20T2000,1688A,110.9107,21.6687,茂名市,健康路,细颗粒物(PM2.5),83,105,83,61,50,168,,184,184,38,35,10,18,0.9,0.9
2025-01-20T2000,1689A,110.8592,21.6828,茂名市,高岭,颗粒物(PM10),79,107,122,56,61,160,,181,181,28,42,11,23,0.8,1.1
2025-01-20T2000,3450A,111.01,21.5165,茂名市,电白水东,"颗粒物(PM10),臭氧1小时",63,75,77,41,41,170,,164,164,18,24,10,21,0.8,0.8
2025-01-20T2000,2539A,104.0308,30.0478,眉山市,黑龙滩水库,细颗粒物(PM2.5),80,75,77,59,53,114,,116,116,6,6,5,4,0.6,0.6
2025-01-20T2000,2540A,103.8416,30.0874,眉山市,气象局,细颗粒物(PM2.5),104,107,103,78,74,85,,102,102,27,27,1,1,0.9,0.8
2025-01-20T2000,3137A,103.8578,30.0744,眉山市,市委党校,细颗粒物(PM2.5),89,88,79,66,65,78,,96,96,38,27,7,6,0.8,0.7
2025-01-20T2000,3148A,103.8291,30.0564,眉山市,区人社局,细颗粒物(PM2.5),94,,60,70,65,62,,95,95,63,33,8,6,1.0,0.7
2025-01-20T2000,1690A,116.1231,24.3284,梅州市,梅江月梅,细颗粒物(PM2.5),69,50,50,50,30,86,,112,112,26,34,9,9,0.9,0.9
2025-01-20T2000,1691A,116.0797,24.2719,梅州市,梅县新城,细颗粒物(PM2.5),98,116,54,73,34,15,,104,95,89,44,5,5,1.4,0.7
2025-01-20T2000,1692A,116.1248,24.2654,梅州市,环境监控中心,细颗粒物(PM2.5),58,55,59,41,34,66,,104,103,42,46,8,15,0.6,0.5
2025-01-20T2000,3315A,116.1233,24.2991,梅州市,梅龙,颗粒物(PM10),64,78,45,44,30,45,,100,97,64,36,9,8,1.2,0.7
2025-01-20T2000,1878A,104.7778,31.4741,绵阳市,富乐山,细颗粒物(PM2.5),104,97,89,78,68,80,,94,94,15,27,1,2,1.1,1.1
2025-01-20T2000,1880A,104.6697,31.4668,绵阳市,高新区自来水公司,细颗粒物(PM2.5),110,123,108,83,78,39,,76,76,58,34,3,4,0.9,0.9
2025-01-20T2000,1881A,104.7287,31.5075,绵阳市,三水厂,细颗粒物(PM2.5),113,96,108,85,86,41,,85,85,61,33,4,4,1.5,1.3
2025-01-20T2000,3491A,104.69,31.5322,绵阳市,西科大附属小学,细颗粒物(PM2.5),113,109,117,85,93,55,,69,69,45,33,5,5,1.3,1.3
2025-01-20T2000,3492A,104.5648,31.5343,绵阳市,安州区旅游局,细颗粒物(PM2.5),138,126,114,105,102,25,,77,74,78,28,11,9,1.4,1.1
2025-01-20T2000,4226A,104.7651,31.4531,绵阳市,绵阳市气象局,细颗粒物(PM2.5),97,107,98,72,68,77,,92,92,25,34,1,2,0.7,0.8
2025-01-20T2000,1784A,129.61,44.561,牡丹江市,环保大楼,细颗粒物(PM2.5),135,167,88,103,60,,,59,59,69,37,11,10,1.3,0.9
2025-01-20T2000,1785A,129.6115,44.5782,牡丹江市,文化广场,细颗粒物(PM2.5),123,154,106,93,67,34,,49,49,52,41,13,12,1.4,1.3
2025-01-20T2000,1786A,129.5904,44.5963,牡丹江市,第一医院,细颗粒物(PM2.5),165,146,100,125,82,32,,48,48,55,38,14,11,1.3,0.9
2025-01-20T2000,1787A,129.6364,44.6075,牡丹江市,机车工厂,细颗粒物(PM2.5),110,119,111,83,70,24,,57,52,50,34,9,10,1.3,1
2025-01-20T2000,1788A,129.6386,44.5462,牡丹江市,第一中学,细颗粒物(PM2.5),152,123,75,116,57,8,,56,48,58,35,11,8,1.4,0.9
2025-01-20T2000,2531A,105.0703,29.61,内江市,市监测站,细颗粒物(PM2.5),144,143,88,110,90,18,,92,89,90,35,8,6,1.7,1.1
2025-01-20T2000,2532A,105.0717,29.5947,内江市,东兴区政府,细颗粒物(PM2.5),127,115,82,96,80,27,,99,96,95,35,5,4,1.6,1.1
2025-01-20T2000,2533A,105.0653,29.5817,内江市,内江二中,细颗粒物(PM2.5),115,155,93,87,84,,,107,107,77,36,9,9,,1
2025-01-20T2000,2534A,105.0406,29.5822,内江市,内江日报社,细颗粒物(PM2.5),122,106,88,92,82,42,,96,95,88,39,10,10,1.2,1.1
2025-01-20T2000,2628A,92.0657,31.4846,那曲市,那曲监测站,,28,21,40,19,35,84,,94,94,6,11,8,9,0.8,1.1
2025-01-20T2000,3128A,92.0506,31.4797,那曲市,那曲会议中心,,30,16,38,3,17,95,,96,96,2,11,2,4,0.6,1
2025-01-20T2000,1290A,115.8931,28.6843,南昌市,省外办,细颗粒物(PM2.5),160,188,122,122,86,27,,111,103,83,74,6,8,1.4,1
2025-01-20T2000,1291A,115.8886,28.7003,南昌市,省林业公司,细颗粒物(PM2.5),147,153,115,112,71,79,,121,119,,78,11,11,0.8,0.7
2025-01-20T2000,1292A,115.8126,28.7442,南昌市,林科所,细颗粒物(PM2.5),94,97,94,70,62,114,,142,141,44,55,10,10,0.8,0.6
2025-01-20T2000,1294A,115.8518,28.687,南昌市,建工学校,细颗粒物(PM2.5),119,147,115,90,75,68,,132,130,98,76,15,13,1.5,1
2025-01-20T2000,1295A,115.8921,28.6424,南昌市,象湖,细颗粒物(PM2.5),122,128,122,92,80,70,,128,125,88,82,9,9,1.4,1.4
2025-01-20T2000,1296A,115.7423,28.7996,南昌市,武术学校,细颗粒物(PM2.5),75,56,44,55,37,71,,107,101,22,19,3,3,0.6,0.4
2025-01-20T2000,3046A,115.9084,28.6062,南昌市,机电学校,细颗粒物(PM2.5),125,169,146,95,79,45,,122,115,100,77,13,14,1.0,1
2025-01-20T2000,3690A,115.9721,28.7031,南昌市,外国语学校,细颗粒物(PM2.5),94,117,110,70,63,53,,129,120,81,60,8,10,0.8,0.7
2025-01-20T2000,4192A,115.9316,28.68677,南昌市,南京东路235号,细颗粒物(PM2.5),129,144,127,98,77,73,,117,116,68,75,7,7,1.0,0.8
2025-01-20T2000,1905A,106.056,30.8064,南充市,西山风景区,细颗粒物(PM2.5),107,84,79,80,72,88,,92,92,14,16,2,2,0.9,1
2025-01-20T2000,1906A,106.0789,30.8023,南充市,南充市委,细颗粒物(PM2.5),109,107,100,82,81,37,,81,81,46,28,3,3,1.0,0.8
2025-01-20T2000,1907A,106.1031,30.8217,南充市,南充炼油厂,细颗粒物(PM2.5),99,107,102,74,82,61,,79,79,42,31,3,3,0.9,0.8
2025-01-20T2000,1909A,106.0642,30.7636,南充市,嘉陵区环保局,,,98,85,73,77,,,85,85,37,33,2,3,,0.9
2025-01-20T2000,1910A,106.1087,30.8388,南充市,市环境监测站,细颗粒物(PM2.5),102,106,106,76,76,81,,78,78,18,28,5,5,0.8,0.8
2025-01-20T2000,4227A,106.1083,30.7884,南充市,梨树横街98号,细颗粒物(PM2.5),97,98,104,72,78,56,,76,76,51,39,8,8,0.9,0.8
2025-01-20T2000,1151A,118.8086,32.1065,南京市,迈皋桥,细颗粒物(PM2.5),92,109,112,68,79,9,,72,63,119,84,26,19,1.7,1
2025-01-20T2000,1152A,118.7538,32.0551,南京市,草场门,颗粒物(PM10),65,80,112,46,75,23,,60,56,86,68,12,11,1.2,0.7
2025-01-20T2000,1153A,118.7794,32.0745,南京市,山西路,颗粒物(PM10),65,80,125,46,83,21,,79,73,119,78,10,9,1.4,0.8
2025-01-20T2000,1154A,118.7752,32.0023,南京市,中华门,颗粒物(PM10),62,73,107,41,77,36,,69,66,72,73,10,13,0.7,0.9
2025-01-20T2000,1155A,118.8109,32.0309,南京市,瑞金路,,,112,133,63,90,8,,10,,92,85,,9,2.6,1.7
2025-01-20T2000,1156A,118.7997,32.0754,南京市,玄武湖,颗粒物(PM10),66,82,122,36,78,2,,60,53,54,48,10,10,1.7,1.2
2025-01-20T2000,1157A,118.6414,32.0931,南京市,浦口,颗粒物(PM10),56,62,125,36,76,60,,79,76,23,25,8,12,0.6,0.8
2025-01-20T2000,1158A,118.7356,31.9996,南京市,奥体中心,细颗粒物(PM2.5),62,68,116,44,78,7,,76,67,104,75,6,10,1.0,0.8
2025-01-20T2000,1159A,118.9125,32.1028,南京市,仙林大学城,细颗粒物(PM2.5),98,100,122,73,84,37,,60,59,75,78,14,14,1.2,1.2
2025-01-20T2000,3422A,118.8436,31.9198,南京市,江宁彩虹桥,细颗粒物(PM2.5),73,88,127,53,75,6,,77,62,105,77,4,6,1.1,1
2025-01-20T2000,3423A,119.0138,31.6494,南京市,溧水永阳,细颗粒物(PM2.5),85,75,94,63,90,3,,87,69,87,54,3,6,1.4,1.1
2025-01-20T2000,3424A,118.879,31.3302,南京市,高淳老职中,,,,106,,103,,,49,,,2,,5,,0.7
2025-01-20T2000,3427A,118.8554,32.3578,南京市,六合雄州,细颗粒物(PM2.5),127,108,127,96,87,29,,74,71,45,32,13,11,0.9,0.8
2025-01-20T2000,1401A,108.3103,22.7881,南宁市,二十一中,细颗粒物(PM2.5),99,87,113,74,83,18,,147,140,158,80,5,5,1.7,1.2
2025-01-20T2000,1402A,108.3141,22.8528,南宁市,北湖,细颗粒物(PM2.5),97,128,117,72,82,22,,125,118,136,83,10,10,1.8,1.1
2025-01-20T2000,1403A,108.3206,22.8225,南宁市,市监测站,,,81,126,65,77,72,,139,128,,75,11,15,1.2,1.2
2025-01-20T2000,1404A,108.3829,22.8037,南宁市,大自然花园,细颗粒物(PM2.5),70,73,91,51,65,106,,143,143,51,51,7,8,1.2,1.1
2025-01-20T2000,1405A,108.4394,22.7904,南宁市,仙葫,细颗粒物(PM2.5),94,118,111,70,85,42,,138,127,72,70,4,7,0.9,0.8
2025-01-20T2000,1406A,108.2397,22.8467,南宁市,区农职院,细颗粒物(PM2.5),89,113,92,66,63,38,,133,129,87,45,8,10,1.0,0.7
2025-01-20T2000,1407A,108.3275,22.735,南宁市,英华嘉园,,,117,118,52,79,4,,116,109,129,87,8,10,,1.1
2025-01-20T2000,3401A,108.4834,22.7618,南宁市,红星社区,细颗粒物(PM2.5),115,131,101,87,71,63,,150,147,91,59,14,11,1.3,1
2025-01-20T2000,4221A,108.2177,22.7774,南宁市,乐贤路16号,颗粒物(PM10),101,152,118,73,75,23,,132,123,122,65,5,7,1.1,0.9
2025-01-20T2000,2331A,118.0966,26.6761,南平市,茫荡山,,,,,,,,,,,,,,,,
2025-01-20T2000,2332A,118.1681,26.6369,南平市,南平市监测站,细颗粒物(PM2.5),55,52,44,39,25,50,,97,92,38,30,5,5,1.1,0.7
2025-01-20T2000,2333A,118.1825,26.6489,南平市,南平铝业有限公司,细颗粒物(PM2.5),57,45,37,40,28,40,,98,94,46,33,5,7,1.0,0.7
2025-01-20T2000,2334A,118.1756,26.6272,南平市,南平七中,,45,32,33,31,27,75,,97,97,19,26,6,7,0.6,0.7
2025-01-20T2000,1168A,120.9098,31.9663,南通市,狼山街道,细颗粒物(PM2.5),156,149,162,119,134,49,,97,89,47,73,6,8,1.1,1.3
2025-01-20T2000,1169A,120.86,32.0005,南通市,虹桥,细颗粒物(PM2.5),179,166,167,135,140,51,,103,95,59,90,7,10,1.1,1.2
2025-01-20T2000,1170A,120.87,32.02,南通市,城中,细颗粒物(PM2.5),168,173,190,127,140,45,,120,110,74,93,8,10,1.2,1.4
2025-01-20T2000,1171A,120.94,31.93,南通市,星湖花园,细颗粒物(PM2.5),133,140,167,101,130,53,,81,69,48,87,6,9,1.0,1.3
2025-01-20T2000,1172A,120.81,32.0417,南通市,紫琅学院,细颗粒物(PM2.5),163,169,186,124,145,24,,121,104,95,80,5,6,1.3,1.4
2025-01-20T2000,3291A,121.067,32.062,南通市,通州监测站,细颗粒物(PM2.5),125,129,169,95,136,73,,118,112,41,58,4,7,1.1,1.2
2025-01-20T2000,3432A,120.9348,31.9883,南通市,环境教育馆,细颗粒物(PM2.5),182,171,170,137,137,12,,120,101,94,77,5,9,1.1,1.2
2025-01-20T2000,2404A,112.5224,33.0122,南阳市,瓦房庄,细颗粒物(PM2.5),189,200,158,142,122,21,,113,105,106,53,10,9,1.9,1.2
2025-01-20T2000,2405A,112.5003,32.9735,南阳市,汉画馆,细颗粒物(PM2.5),150,168,154,115,110,40,,104,101,76,63,6,7,1.4,1.3
2025-01-20T2000,2406A,112.5573,33.027,南阳市,气象站,细颗粒物(PM2.5),147,175,166,112,109,74,,116,116,60,46,9,9,1.2,1
2025-01-20T2000,2407A,112.5481,32.9689,南阳市,理工学院,细颗粒物(PM2.5),156,147,147,119,118,91,,122,122,52,58,11,9,1.1,1.2
2025-01-20T2000,4008A,112.5234,32.9922,南阳市,卧龙区政府,细颗粒物(PM2.5),156,170,152,119,110,18,,105,99,128,68,10,8,1.6,1.2
2025-01-20T2000,1234A,121.8358,29.911,宁波市,区环保大楼,细颗粒物(PM2.5),210,201,137,160,102,26,,98,91,148,91,12,11,1.7,1.4
2025-01-20T2000,1235A,121.56,29.82,宁波市,万里学院,细颗粒物(PM2.5),158,164,116,120,84,80,,136,133,80,72,8,8,1.3,1
2025-01-20T2000,1236A,121.713,29.9572,宁波市,龙赛医院,细颗粒物(PM2.5),210,224,149,160,101,34,,111,103,127,86,11,11,1.2,0.9
2025-01-20T2000,1239A,121.633,29.7733,宁波市,钱湖水厂,细颗粒物(PM2.5),142,162,110,108,77,116,,135,135,44,40,9,7,1.1,0.9
2025-01-20T2000,1240A,121.5856,29.8635,宁波市,太古小学,细颗粒物(PM2.5),179,187,129,135,92,71,,120,119,80,76,12,10,1.3,1.2
2025-01-20T2000,1241A,121.524,29.8674,宁波市,市环境监测中心,细颗粒物(PM2.5),173,190,130,131,85,66,,129,126,80,70,10,9,1.3,1.1
2025-01-20T2000,2871A,121.6147,29.9017,宁波市,万里国际学校,细颗粒物(PM2.5),189,183,118,142,90,53,,135,124,115,81,12,9,1.1,1
2025-01-20T2000,3710A,121.5594,29.8975,宁波市,白沙活动中心,细颗粒物(PM2.5),179,176,112,135,83,46,,123,119,93,67,8,8,1.1,0.9
2025-01-20T2000,2339A,119.5001,26.6946,宁德市,金涵水库,,,,,,,,,,,,,,,,
2025-01-20T2000,2341A,119.5388,26.6612,宁德市,宁德市监测站,细颗粒物(PM2.5),74,68,37,54,30,112,,124,124,13,11,4,4,0.5,0.4
2025-01-20T2000,3209A,119.5231,26.6562,宁德市,宁德一中,细颗粒物(PM2.5),70,55,37,51,27,109,,125,123,20,14,3,3,0.5,0.5
2025-01-20T2000,2618A,98.8601,25.8567,怒江傈僳族自治州,州监测站,,38,38,38,21,23,73,,85,85,16,11,4,4,0.5,0.5
2025-01-20T2000,2619A,98.8546,25.8417,怒江傈僳族自治州,泸水一中,,43,43,32,15,24,27,,71,68,47,18,8,8,1.0,0.5
2025-01-20T2000,1888A,101.6891,26.571,攀枝花市,弄弄坪,颗粒物(PM10),65,79,72,42,55,81,,103,103,38,32,28,21,2.5,1.2
2025-01-20T2000,1889A,101.5769,26.5928,攀枝花市,河门口,细颗粒物(PM2.5),70,79,84,51,58,87,,106,106,36,38,21,22,1.2,1.6
2025-01-20T2000,1890A,101.7169,26.585,攀枝花市,炳草岗,颗粒物(PM10),58,66,92,35,63,65,,99,99,50,49,16,17,0.8,1.1
2025-01-20T2000,1891A,101.7369,26.5008,攀枝花市,仁和,细颗粒物(PM2.5),92,98,68,68,50,76,,114,109,34,27,14,13,0.9,0.9
2025-01-20T2000,2835A,101.7227,26.567,攀枝花市,四十中小,细颗粒物(PM2.5),102,106,94,76,61,31,,97,94,93,59,19,19,2.2,1.7
2025-01-20T2000,1604A,122.0303,41.1489,盘锦市,开发区,细颗粒物(PM2.5),112,,101,84,80,20,,63,54,70,50,23,15,1.7,1.4
2025-01-20T2000,1605A,122.0485,41.0883,盘锦市,兴隆台,颗粒物(PM10),53,55,101,30,76,43,,60,54,50,52,42,17,0.9,1.4
2025-01-20T2000,1606A,121.8297,41.1028,盘锦市,新生街道,颗粒物(PM10),52,53,72,26,53,37,,74,68,52,50,12,13,0.8,1
2025-01-20T2000,1832A,113.3257,33.742,平顶山市,新华旅馆,,,,143,,75,75,,110,110,60,57,10,14,,1
2025-01-20T2000,1833A,113.2919,33.737,平顶山市,规划设计院,细颗粒物(PM2.5),176,220,158,133,92,84,,102,102,43,47,11,12,1.0,0.8
2025-01-20T2000,1834A,113.182,33.774,平顶山市,平顶山工学院,细颗粒物(PM2.5),153,201,152,117,77,108,,122,122,26,32,15,14,0.9,0.8
2025-01-20T2000,3204A,113.3025,33.73,平顶山市,规划局,细颗粒物(PM2.5),165,173,139,125,94,93,,112,112,42,54,12,14,0.6,0.6
2025-01-20T2000,3594A,112.8867,33.9116,平顶山市,石龙区,细颗粒物(PM2.5),133,170,131,101,75,105,,123,123,35,38,13,11,1.0,0.9
2025-01-20T2000,2656A,106.6692,35.5461,平凉市,聚贤嘉苑,细颗粒物(PM2.5),77,98,54,56,26,46,,90,86,65,37,13,13,1.0,0.6
2025-01-20T2000,2657A,106.7021,35.5307,平凉市,博物馆,细颗粒物(PM2.5),107,124,61,80,32,47,,92,89,73,41,40,22,1.6,0.8
2025-01-20T2000,2347A,114.0997,27.5002,萍乡市,武功山,细颗粒物(PM2.5),64,56,46,46,30,97,,115,114,19,13,10,13,0.9,0.8
2025-01-20T2000,2348A,113.8385,27.6434,萍乡市,中医院,,,102,103,51,60,78,,108,107,43,45,10,11,,1.7
2025-01-20T2000,2349A,113.8493,27.6253,萍乡市,市政府车库,细颗粒物(PM2.5),73,80,88,53,69,69,,114,112,55,35,15,15,2.2,1.9
2025-01-20T2000,2350A,113.8676,27.6435,萍乡市,市环保局,颗粒物(PM10),62,74,105,42,68,100,,111,111,33,51,12,14,1.0,1.7
2025-01-20T2000,2351A,113.866,27.6198,萍乡市,安源区政府,细颗粒物(PM2.5),78,81,92,57,58,101,,113,113,26,28,14,13,1.0,1.6
2025-01-20T2000,2319A,119.0141,25.4325,莆田市,荔城区仓后路,细颗粒物(PM2.5),77,69,45,56,29,117,,131,131,30,20,3,2,0.8,0.7
2025-01-20T2000,2320A,119.0015,25.4553,莆田市,莆田市监测站,细颗粒物(PM2.5),74,,36,54,23,114,,131,131,25,14,4,4,0.6,0.4
