timepoint,stationcode,longitude,latitude,area,positionname,primarypollutant,aqi,pm10,pm10_24h,pm2_5,pm2_5_24h,o3,o3_24h,o3_8h,o3_8h_24h,no2,no2_24h,so2,so2_24h,co,co_24h
2023-09-02T22:00:00,1001A,116.3621,39.8784,北京市,万寿西宫,,29,22,60,15,32,182,92,151,142,12,37,3,2,0.8,0.8
2023-09-02T22:00:00,1002A,116.2202,40.2915,北京市,定陵,,19,13,41,10,24,119,59,101,92,3,10,3,3,0.5,0.5
2023-09-02T22:00:00,1003A,116.4174,39.9289,北京市,东四,,31,28,61,17,31,194,99,160,151,19,31,3,3,0.6,0.6
2023-09-02T22:00:00,1004A,116.4072,39.8863,北京市,天坛,,23,23,56,16,34,174,61,144,132,18,31,3,2,0.7,0.7
2023-09-02T22:00:00,1005A,116.462,39.9365,北京市,农展馆,,25,25,62,13,31,184,71,155,141,18,35,3,2,0.6,0.6
2023-09-02T22:00:00,1006A,116.3392,39.9295,北京市,官园,,35,35,54,24,29,201,101,163,156,21,30,4,4,0.6,0.6
2023-09-02T22:00:00,1007A,116.2878,39.9611,北京市,海淀万柳,,36,36,53,22,27,147,77,120,117,22,36,3,3,0.6,0.5
2023-09-02T22:00:00,1008A,116.6636,40.135,北京市,顺义新城,,35,34,54,18,27,175,110,146,143,7,24,3,2,0.5,0.5
2023-09-02T22:00:00,1009A,116.6275,40.3275,北京市,怀柔镇,,29,29,43,18,24,150,83,123,119,8,14,3,2,0.5,0.4
2023-09-02T22:00:00,1010A,116.2296,40.217,北京市,昌平镇,,32,23,37,22,28,136,88,116,112,13,21,3,3,0.5,0.4
2023-09-02T22:00:00,1011A,116.3966,39.9821,北京市,奥体中心,,43,35,49,30,28,187,93,150,141,23,33,1,2,0.5,0.6
2023-09-02T22:00:00,1012A,116.184,39.9136,北京市,古城,,41,41,57,24,29,149,91,127,124,20,34,3,3,0.7,0.6
2023-09-02T22:00:00,1015A,117.1444,39.1661,天津市,勤俭道,,38,30,52,14,25,213,119,185,161,20,33,10,9,0.7,0.7
2023-09-02T22:00:00,1017A,117.237,39.1082,天津市,大直沽八号路,,38,38,59,15,26,169,86,152,126,25,43,6,6,0.7,0.8
2023-09-02T22:00:00,1018A,117.202,39.0927,天津市,前进道,,29,25,46,12,23,172,92,154,132,22,36,7,8,0.6,0.7
2023-09-02T22:00:00,1019A,117.1837,39.2133,天津市,淮河道,,34,30,55,15,26,189,106,170,146,19,40,7,7,0.7,0.8
2023-09-02T22:00:00,1021A,117.307,39.0877,天津市,跃进路,,22,22,50,10,23,183,70,162,130,42,47,6,8,0.6,0.8
2023-09-02T22:00:00,1023A,117.707,39.0343,天津市,第四大街,,24,23,40,8,23,148,49,115,83,48,45,6,9,0.4,0.8
2023-09-02T22:00:00,1024A,117.457,38.8394,天津市,永明路,,23,22,41,12,25,194,72,171,132,27,31,7,12,0.5,0.9
2023-09-02T22:00:00,1026A,117.764,39.1587,天津市,汉北路,,24,11,41,5,23,187,75,143,114,20,37,6,9,0.5,0.8
2023-09-02T22:00:00,1027A,117.157,38.9194,天津市,团泊洼,,20,14,41,7,24,174,64,145,113,38,36,3,6,0.6,0.8
2023-09-02T22:00:00,1029A,114.4422,38.0444,石家庄市,职工医院,"颗粒物(PM10),细颗粒物(PM2.5)",58,65,79,41,52,196,113,174,163,15,24,2,2,0.5,0.7
2023-09-02T22:00:00,1030A,114.6063,38.0266,石家庄市,高新区,,,60,75,44,60,197,,173,167,14,22,2,2,0.3,0.6
2023-09-02T22:00:00,1031A,114.4898,38.1328,石家庄市,西北水源,细颗粒物(PM2.5),59,62,92,42,56,190,129,173,163,12,27,1,2,0.5,0.7
2023-09-02T22:00:00,1032A,114.4586,38.0058,石家庄市,西南高教,颗粒物(PM10),55,59,70,31,49,191,96,171,157,18,22,1,2,0.5,0.7
2023-09-02T22:00:00,1033A,114.5331,38.0178,石家庄市,世纪公园,颗粒物(PM10),65,80,86,37,50,178,116,158,151,17,23,2,4,0.6,0.9
2023-09-02T22:00:00,1034A,114.509,38.0457,石家庄市,人民会堂,,,52,75,31,55,199,,186,186,13,19,4,7,0.4,0.7
2023-09-02T22:00:00,1035A,114.3524,37.8911,石家庄市,封龙山,颗粒物(PM10),59,68,68,39,42,190,151,163,163,10,10,7,4,0.9,1
2023-09-02T22:00:00,1037A,118.131,39.6363,唐山市,雷达站,颗粒物(PM10),53,56,60,24,34,194,65,146,100,39,38,13,5,1.2,0.7
2023-09-02T22:00:00,1038A,118.1725,39.6334,唐山市,物资局,,,52,66,,45,196,53,160,104,45,44,,9,0.9,0.9
2023-09-02T22:00:00,1040A,118.1705,39.6506,唐山市,十二中,,44,44,55,18,35,191,54,158,105,44,41,10,6,0.9,0.8
2023-09-02T22:00:00,1041A,118.1869,39.622,唐山市,小山,颗粒物(PM10),54,58,70,2,32,201,55,172,98,41,49,5,7,0.6,0.8
2023-09-02T22:00:00,1042A,119.5134,39.8207,秦皇岛市,北戴河环保局,,37,11,41,8,16,232,116,196,164,14,27,9,13,0,0.6
2023-09-02T22:00:00,1043A,119.7493,40.0116,秦皇岛市,第一关,二氧化氮,57,34,35,27,26,227,13,178,136,113,48,10,10,0.6,0.6
2023-09-02T22:00:00,1044A,119.5897,39.9499,秦皇岛市,监测站,,41,41,39,18,15,215,90,171,147,28,41,7,10,0.6,0.6
2023-09-02T22:00:00,1046A,119.5251,39.9041,秦皇岛市,建设大厦,颗粒物(PM10),53,55,53,12,9,235,92,181,158,23,37,3,10,0.6,0.7
2023-09-02T22:00:00,1048A,114.5302,36.6116,邯郸市,东污水处理厂,颗粒物(PM10),57,63,58,39,51,162,132,155,146,11,22,6,5,0.5,0.6
2023-09-02T22:00:00,1049A,114.4918,36.5713,邯郸市,矿院,细颗粒物(PM2.5),58,48,59,41,53,169,131,156,146,14,26,1,3,0.5,0.7
2023-09-02T22:00:00,1050A,114.484,36.6133,邯郸市,丛台公园,,50,48,67,35,44,173,134,158,148,10,15,4,4,0.4,0.5
2023-09-02T22:00:00,1051A,115.493,38.8632,保定市,游泳馆,,,50,65,46,41,172,,161,160,,44,,8,,0.6
2023-09-02T22:00:00,1052A,115.5213,38.8959,保定市,华电二区,细颗粒物(PM2.5),59,52,59,42,27,165,92,153,143,18,28,5,7,0.7,0.6
2023-09-02T22:00:00,1053A,115.4713,38.9108,保定市,接待中心,颗粒物(PM10),72,93,66,44,31,158,67,140,122,23,26,6,7,0.5,0.5
2023-09-02T22:00:00,1054A,115.4612,38.8416,保定市,地表水厂,颗粒物(PM10),71,91,75,41,30,166,110,153,143,28,46,9,9,0.6,0.6
2023-09-02T22:00:00,1056A,115.5086,38.8639,保定市,监测站,颗粒物(PM10),62,74,60,42,32,176,99,159,147,32,36,7,8,0.5,0.6
2023-09-02T22:00:00,1057A,114.8883,40.8336,张家口市,人民公园,,24,18,23,2,9,142,76,125,104,10,9,2,2,0.2,0.2
2023-09-02T22:00:00,1059A,114.8687,40.8042,张家口市,五金库,,32,32,29,11,13,142,74,122,100,15,12,1,2,0.5,0.4
2023-09-02T22:00:00,1060A,114.8902,40.762,张家口市,世纪豪园,,38,37,29,26,17,144,65,123,96,25,14,2,4,0.4,0.3
2023-09-02T22:00:00,1061A,114.8916,40.8661,张家口市,北泵房,,21,19,21,14,12,152,67,132,107,9,6,6,6,0.3,0.3
2023-09-02T22:00:00,1062A,117.9531,40.9081,承德市,铁路,,32,31,23,10,8,124,102,114,104,55,27,10,8,0.6,0.4
2023-09-02T22:00:00,1063A,117.9392,40.9763,承德市,中国银行,,46,39,24,16,8,147,147,128,128,13,17,10,8,0.7,0.4
2023-09-02T22:00:00,1064A,117.9503,40.928,承德市,开发区,,47,30,28,20,13,149,149,121,121,25,28,8,6,0.6,0.4
2023-09-02T22:00:00,1065A,117.8051,40.9655,承德市,文化中心,,32,32,28,6,9,152,95,128,120,23,26,6,5,0.5,0.4
2023-09-02T22:00:00,1066A,117.9268,41.0026,承德市,离宫,,34,34,22,19,12,142,84,127,112,9,12,2,2,0.5,0.4
2023-09-02T22:00:00,1067A,116.6708,39.5111,廊坊市,药材公司,颗粒物(PM10),55,59,64,24,36,190,108,173,156,20,27,1,6,0.5,0.6
2023-09-02T22:00:00,1068A,116.7214,39.5589,廊坊市,开发区,,33,29,49,23,35,178,102,163,150,14,26,1,3,0.4,0.5
2023-09-02T22:00:00,1070A,116.7244,39.5269,廊坊市,北华航天学院,颗粒物(PM10),54,57,65,22,32,187,110,175,159,19,30,3,5,0.6,0.7
2023-09-02T22:00:00,1071A,116.8842,38.2991,沧州市,沧县城建局,,39,39,43,22,22,143,102,135,127,31,34,6,13,0.4,0.6
2023-09-02T22:00:00,1072A,116.8584,38.3254,沧州市,电视转播站,,35,35,40,24,24,151,98,141,134,30,26,14,13,0.4,0.6
2023-09-02T22:00:00,1073A,116.8709,38.3228,沧州市,市环保局,,47,47,46,29,28,144,121,139,137,20,30,8,13,0.3,0.5
2023-09-02T22:00:00,1074A,115.6838,37.7541,衡水市,电机北厂,细颗粒物(PM2.5),72,80,71,52,41,173,112,166,150,21,19,2,5,0.6,0.6
2023-09-02T22:00:00,1075A,115.6303,37.7316,衡水市,市监测站,颗粒物(PM10),61,71,59,39,34,177,108,166,147,19,19,3,5,0.6,0.6
2023-09-02T22:00:00,1077A,114.4704,37.0886,邢台市,达活泉,颗粒物(PM10),59,68,73,26,37,203,136,182,166,10,9,7,5,0.9,0.8
2023-09-02T22:00:00,1078A,114.5062,37.0349,邢台市,邢师高专,颗粒物(PM10),66,81,73,42,48,207,120,176,152,21,20,5,5,0.5,0.7
2023-09-02T22:00:00,1079A,114.5237,37.0851,邢台市,路桥公司,颗粒物(PM10),53,55,64,34,42,206,116,180,158,18,15,6,7,0.7,0.8
2023-09-02T22:00:00,1080A,114.4725,37.0719,邢台市,市环保局,颗粒物(PM10),63,75,75,33,41,198,121,175,156,15,8,7,6,0.8,0.9
2023-09-02T22:00:00,1081A,112.522,37.8873,太原市,尖草坪,,35,35,64,20,45,194,106,182,158,24,27,6,7,0.7,0.9
2023-09-02T22:00:00,1083A,112.434,38.0108,太原市,上兰,,,,,,,,,,,,,,,,
2023-09-02T22:00:00,1084A,112.469,37.7124,太原市,晋源,颗粒物(PM10),63,75,74,24,45,191,56,171,132,48,26,4,5,0.7,0.9
2023-09-02T22:00:00,1085A,112.5583,37.7394,太原市,小店,,33,31,77,14,39,179,104,166,143,22,22,5,6,0.6,0.8
2023-09-02T22:00:00,1086A,112.5369,37.8692,太原市,桃园,,33,33,60,16,37,182,103,173,149,27,30,4,6,0.6,0.8
2023-09-02T22:00:00,1087A,112.57,37.8195,太原市,坞城,,33,33,54,17,38,185,101,171,146,35,22,7,9,0.7,0.9
2023-09-02T22:00:00,1088A,112.549,37.9854,太原市,南寨,,,,,,,,,,,,,,,,
2023-09-02T22:00:00,1090A,111.6507,40.7517,呼和浩特市,呼市一监,,32,19,27,12,20,147,102,130,129,18,24,6,7,0.5,0.6
2023-09-02T22:00:00,1091A,111.6572,40.8033,呼和浩特市,小召,,32,14,29,9,19,134,101,123,121,17,28,4,6,0.6,0.7
2023-09-02T22:00:00,1094A,111.7516,40.8369,呼和浩特市,如意水处理厂,,33,17,38,8,18,150,104,135,132,13,25,6,8,0.5,0.5
2023-09-02T22:00:00,1095A,111.7276,40.8062,呼和浩特市,二十九中,,32,24,34,11,22,151,102,137,135,16,26,5,8,0.6,0.6
2023-09-02T22:00:00,1096A,111.5512,40.7866,呼和浩特市,工大金川校区,,31,28,34,13,18,146,97,125,121,22,32,4,5,0.5,0.6
2023-09-02T22:00:00,1097A,111.717,40.7612,呼和浩特市,化肥厂生活区,,33,19,38,11,20,141,105,127,124,16,28,5,7,0.4,0.5
2023-09-02T22:00:00,1098A,123.6836,41.9339,沈阳市,森林路,,,,,,,,,,,,,,,,
2023-09-02T22:00:00,1099A,123.505,41.7406,沈阳市,浑南东路,颗粒物(PM10),55,59,46,23,20,154,6,130,86,100,41,19,19,1.0,1.3
2023-09-02T22:00:00,1100A,123.4231,41.6989,沈阳市,新秀街,,45,45,46,16,16,152,56,126,94,64,39,26,27,1.1,1.4
2023-09-02T22:00:00,1102A,123.5903,41.8411,沈阳市,东陵路,颗粒物(PM10),62,74,49,25,21,161,19,130,93,73,34,26,15,0.9,1.1
2023-09-02T22:00:00,1103A,123.4264,41.8467,沈阳市,陵东街,,32,28,30,18,18,148,102,134,119,26,27,7,11,0.8,1.1
2023-09-02T22:00:00,1104A,123.4114,41.7653,沈阳市,文化路,,40,40,42,18,21,151,100,138,117,32,29,8,20,0.8,1.2
2023-09-02T22:00:00,1105A,123.4678,41.7867,沈阳市,小河沿,,34,28,36,17,19,152,106,131,116,27,28,8,12,0.9,1.2
2023-09-02T22:00:00,1106A,123.4017,41.7972,沈阳市,太原街,,39,38,39,25,22,150,122,138,124,18,25,10,18,0.8,1.1
2023-09-02T22:00:00,1108A,123.3783,41.9228,沈阳市,京沈街,颗粒物(PM10),69,88,46,15,23,161,76,134,110,16,13,17,17,0.9,1.1
2023-09-02T22:00:00,1109A,121.612,38.9741,大连市,甘井子,颗粒物(PM10),79,107,55,54,22,183,77,154,120,33,27,5,5,0.8,0.5
2023-09-02T22:00:00,1110A,121.565,38.9511,大连市,周水子,颗粒物(PM10),61,72,40,42,22,171,79,149,122,41,38,10,12,0.8,0.7
2023-09-02T22:00:00,1111A,121.5637,38.8845,大连市,星海三站,细颗粒物(PM2.5),58,49,30,41,21,182,36,152,123,46,24,10,9,1.1,0.7
2023-09-02T22:00:00,1112A,121.6302,38.9117,大连市,青泥洼桥,,49,47,35,34,19,160,117,147,136,19,27,7,8,1.0,0.9
2023-09-02T22:00:00,1113A,121.6251,38.8638,大连市,傅家庄,,44,24,24,20,18,178,140,159,148,12,13,9,11,0.6,0.7
2023-09-02T22:00:00,1114A,121.5213,38.8661,大连市,七贤岭,,40,36,29,28,19,206,87,185,148,15,16,6,9,1.3,1
2023-09-02T22:00:00,1115A,121.2529,38.8061,大连市,旅顺,,38,22,26,26,19,148,92,134,124,27,21,9,8,1.1,1.4
2023-09-02T22:00:00,1116A,121.7485,39.1311,大连市,金州,,39,39,29,27,19,177,68,157,113,19,17,8,9,0.6,0.7
2023-09-02T22:00:00,1117A,121.7811,39.0496,大连市,开发区,,,37,32,36,25,175,143,162,146,,21,10,9,,0.9
2023-09-02T22:00:00,1118A,121.9762,39.0631,大连市,双D港,,42,28,27,29,20,179,82,169,138,14,14,7,9,0.9,0.8
2023-09-02T22:00:00,1119A,125.3325,43.9166,长春市,食品厂,,39,39,42,15,16,99,42,91,72,34,38,5,6,0.5,0.5
2023-09-02T22:00:00,1120A,125.2863,43.9027,长春市,客车厂,颗粒物(PM10),54,58,37,28,16,103,34,94,68,45,38,6,6,0.7,0.6
2023-09-02T22:00:00,1121A,125.2841,43.8463,长春市,邮电学院,颗粒物(PM10),51,52,36,13,11,110,15,101,76,47,25,5,5,0.6,0.4
2023-09-02T22:00:00,1122A,125.3716,43.8772,长春市,劳动公园,颗粒物(PM10),55,59,41,15,12,105,25,98,74,45,31,6,7,0.6,0.5
2023-09-02T22:00:00,1123A,125.3297,43.8805,长春市,园林处,,41,41,35,14,12,106,49,98,80,28,30,9,7,0.5,0.5
2023-09-02T22:00:00,1124A,125.4605,43.79,长春市,净月潭,,19,18,17,9,7,105,58,98,78,7,8,6,6,0.3,0.3
2023-09-02T22:00:00,1125A,125.7194,43.515,长春市,甩湾子,,,,,,,,,,,,,,,,
2023-09-02T22:00:00,1126A,125.3863,43.8447,长春市,经开区环卫处,,47,47,41,15,11,96,24,86,61,45,31,5,5,0.5,0.5
2023-09-02T22:00:00,1127A,125.245,43.7783,长春市,高新区管委会,,34,34,26,15,11,98,45,90,69,22,26,5,6,0.4,0.4
2023-09-02T22:00:00,1128A,125.1761,43.8325,长春市,岱山公园,颗粒物(PM10),54,57,46,13,12,108,15,96,56,69,43,4,5,0.5,0.5
2023-09-02T22:00:00,1129A,126.5422,45.755,哈尔滨市,岭北,,30,27,22,14,12,110,93,102,100,11,13,12,10,0.3,0.3
2023-09-02T22:00:00,1130A,126.561,45.8167,哈尔滨市,松北商大,,38,38,23,11,8,85,67,81,75,17,15,7,6,0.5,0.4
2023-09-02T22:00:00,1131A,126.979,45.5419,哈尔滨市,阿城会宁,,24,20,25,15,11,132,74,113,99,8,12,5,13,0.5,0.5
2023-09-02T22:00:00,1132A,126.599,45.7222,哈尔滨市,南岗学府路,,39,39,37,12,12,102,79,94,90,9,20,7,7,0.5,0.5
2023-09-02T22:00:00,1133A,126.689,45.7733,哈尔滨市,太平宏伟公园,,50,50,34,10,12,94,70,87,80,22,25,5,5,0.4,0.5
2023-09-02T22:00:00,1134A,126.635,45.7667,哈尔滨市,道外承德广场,,31,31,28,4,12,94,82,88,85,16,28,9,9,0.5,0.6
2023-09-02T22:00:00,1135A,126.685,45.7319,哈尔滨市,香坊红旗大街,,30,30,39,17,17,100,74,89,84,24,32,9,11,0.6,0.6
2023-09-02T22:00:00,1136A,126.6411,45.7258,哈尔滨市,动力和平路,,,37,37,,,98,76,89,85,20,29,8,8,0.5,0.5
2023-09-02T22:00:00,1137A,126.593,45.7478,哈尔滨市,道里建国路,,,,37,12,11,95,74,85,81,19,25,5,5,0.5,0.6
2023-09-02T22:00:00,1138A,126.615,45.61,哈尔滨市,平房东轻厂,,25,20,26,8,10,106,80,100,95,5,15,5,6,0.3,0.3
2023-09-02T22:00:00,1139A,126.595,45.9855,哈尔滨市,呼兰师专,,26,21,22,13,10,86,82,84,83,15,16,7,6,0.5,0.5
2023-09-02T22:00:00,1140A,126.6206,45.6842,哈尔滨市,省农科院,,37,37,40,9,10,108,80,101,96,19,24,7,8,0.4,0.4
2023-09-02T22:00:00,1141A,121.4,31.238,上海市,普陀,,50,50,34,21,14,132,127,127,125,11,12,4,4,0.7,0.6
2023-09-02T22:00:00,1142A,121.478,31.2036,上海市,十五厂,颗粒物(PM10),53,56,38,30,18,139,129,132,127,16,17,11,11,0.4,0.4
2023-09-02T22:00:00,1143A,121.467,31.3008,上海市,虹口,,49,49,33,23,16,130,124,125,124,17,19,6,6,0.6,0.6
2023-09-02T22:00:00,1144A,121.412,31.1654,上海市,徐汇上师大,,48,48,33,26,19,142,128,132,128,15,14,6,6,0.6,0.4
2023-09-02T22:00:00,1145A,121.536,31.2659,上海市,杨浦四漂,颗粒物(PM10),51,51,36,27,17,143,137,137,136,10,11,8,7,0.8,0.8
2023-09-02T22:00:00,1147A,121.425,31.2261,上海市,静安监测站,,45,45,31,24,15,142,135,135,133,14,14,2,3,0.6,0.5
2023-09-02T22:00:00,1148A,121.703,31.1907,上海市,浦东川沙,,46,45,35,25,20,145,145,140,140,7,6,6,6,0.6,0.6
2023-09-02T22:00:00,1149A,121.533,31.2284,上海市,浦东新区监测站,,46,46,32,21,13,133,132,128,128,7,11,6,6,0.6,0.5
2023-09-02T22:00:00,1150A,121.577,31.2071,上海市,浦东张江,,46,46,34,32,19,127,126,122,122,13,15,5,5,0.6,0.6
2023-09-02T22:00:00,1151A,118.8086,32.1065,南京市,迈皋桥,,44,44,35,29,17,198,83,166,136,27,28,4,5,0.5,0.4
2023-09-02T22:00:00,1152A,118.7538,32.0551,南京市,草场门,,50,50,37,27,17,201,95,172,148,30,29,3,4,0.6,0.6
2023-09-02T22:00:00,1153A,118.7794,32.0745,南京市,山西路,颗粒物(PM10),52,53,43,27,19,206,88,175,146,26,26,3,5,0.5,0.4
2023-09-02T22:00:00,1154A,118.7752,32.0023,南京市,中华门,,39,39,35,19,16,195,98,169,146,20,24,4,3,0.7,0.7
2023-09-02T22:00:00,1155A,118.8109,32.0309,南京市,瑞金路,,41,41,34,22,15,194,96,167,143,12,12,10,10,0.5,0.5
2023-09-02T22:00:00,1156A,118.7997,32.0754,南京市,玄武湖,颗粒物(PM10),59,68,41,25,17,192,73,164,137,36,30,6,6,0.3,0.2
2023-09-02T22:00:00,1157A,118.6414,32.0931,南京市,浦口,颗粒物(PM10),52,54,41,25,21,206,110,180,145,17,23,5,9,0.4,0.6
2023-09-02T22:00:00,1158A,118.7356,31.9996,南京市,奥体中心,,42,38,35,29,21,205,111,179,157,19,23,6,7,0.5,0.5
2023-09-02T22:00:00,1159A,118.9125,32.1028,南京市,仙林大学城,,48,48,37,27,20,201,81,174,141,27,29,9,9,0.7,0.6
2023-09-02T22:00:00,1160A,120.561,31.2472,苏州市,上方山,,40,37,33,28,20,130,115,126,118,8,13,7,7,0.6,0.5
2023-09-02T22:00:00,1162A,120.591,31.3019,苏州市,彩香,颗粒物(PM10),51,52,34,29,20,161,118,145,134,8,10,7,7,0.8,0.7
2023-09-02T22:00:00,1163A,120.596,31.3264,苏州市,轧钢厂,颗粒物(PM10),53,56,36,30,18,156,114,146,130,13,13,8,8,0.9,0.7
2023-09-02T22:00:00,1164A,120.613,31.2703,苏州市,吴中区,颗粒物(PM10),54,57,37,26,17,151,124,145,131,10,13,8,8,0.8,0.7
2023-09-02T22:00:00,1165A,120.543,31.2994,苏州市,苏州新区,,,,,,,,,,,,,,,,
2023-09-02T22:00:00,1166A,120.669,31.3097,苏州市,苏州工业园区,,50,50,33,31,17,148,121,143,132,16,14,8,8,0.8,0.7
2023-09-02T22:00:00,1167A,120.641,31.3708,苏州市,相城区,,48,48,35,30,18,140,106,132,116,17,14,8,8,0.9,0.7
2023-09-02T22:00:00,1168A,120.9098,31.9663,南通市,狼山街道,,39,39,28,23,12,140,122,134,131,16,14,8,8,0.5,0.5
2023-09-02T22:00:00,1169A,120.86,32.0005,南通市,虹桥,,43,42,30,30,18,134,122,131,130,16,12,6,6,0.6,0.6
2023-09-02T22:00:00,1170A,120.87,32.02,南通市,城中,,40,40,27,24,16,125,112,122,120,11,7,5,6,0.6,0.6
2023-09-02T22:00:00,1171A,120.94,31.93,南通市,星湖花园,,40,33,28,21,14,136,127,130,130,13,12,6,6,0.6,0.6
2023-09-02T22:00:00,1172A,120.81,32.0417,南通市,紫琅学院,,47,47,28,24,13,133,100,130,120,25,14,6,6,0.7,0.6
2023-09-02T22:00:00,1173A,119.176,34.5885,连云港市,市环境监测站,,39,34,58,14,36,169,123,161,138,7,12,7,8,0.4,0.5
2023-09-02T22:00:00,1177A,117.179,34.2761,徐州市,黄河新村,细颗粒物(PM2.5),75,83,93,55,55,217,144,205,185,18,32,9,11,0.6,0.7
2023-09-02T22:00:00,1178A,117.1918,34.2384,徐州市,淮塔,细颗粒物(PM2.5),80,91,86,59,53,222,128,210,186,27,22,8,10,0.4,0.5
2023-09-02T22:00:00,1180A,117.256,34.2153,徐州市,新城区,颗粒物(PM10),63,75,85,42,50,218,129,203,180,24,23,5,8,0.7,0.8
2023-09-02T22:00:00,1181A,117.244,34.2911,徐州市,桃园路,颗粒物(PM10),69,88,95,47,53,213,128,201,178,16,24,9,10,0.8,0.9
2023-09-02T22:00:00,1182A,117.2933,34.2778,徐州市,农科院,细颗粒物(PM2.5),63,63,77,45,53,216,116,207,179,40,44,9,10,0.6,0.7
2023-09-02T22:00:00,1186A,119.389,32.3761,扬州市,邗江监测站,,39,39,38,22,20,161,106,151,132,13,15,5,7,0.4,0.5
2023-09-02T22:00:00,1188A,120.269,31.4867,无锡市,雪浪,,39,39,37,14,17,166,106,155,134,14,17,4,6,0.6,0.8
2023-09-02T22:00:00,1189A,120.275,31.6219,无锡市,黄巷,,48,48,45,22,20,149,98,138,118,20,27,5,8,0.7,0.9
2023-09-02T22:00:00,1190A,120.294,31.56,无锡市,曹张,,49,49,38,22,22,151,94,140,119,20,20,9,9,0.8,0.8
2023-09-02T22:00:00,1191A,120.242,31.5031,无锡市,漆塘,,39,39,34,19,18,164,110,153,136,18,20,5,6,0.6,0.8
2023-09-02T22:00:00,1192A,120.3489,31.5863,无锡市,东亭,,44,44,41,29,24,150,90,140,117,28,29,6,7,0.7,0.7
2023-09-02T22:00:00,1193A,120.354,31.5475,无锡市,旺庄,,36,36,39,24,20,160,112,149,131,9,14,9,11,0.9,1
2023-09-02T22:00:00,1194A,120.245,31.5631,无锡市,荣巷,,41,41,33,24,17,159,97,152,131,16,14,10,12,0.7,0.8
2023-09-02T22:00:00,1195A,120.299,31.6817,无锡市,堰桥,,34,34,36,22,21,159,86,145,119,18,17,6,8,0.7,0.9
2023-09-02T22:00:00,1196A,119.9633,31.762,常州市,市监测站,,42,42,41,22,20,179,104,155,127,19,18,7,8,0.5,0.5
2023-09-02T22:00:00,1200A,119.9468,31.7069,常州市,武进监测站,颗粒物(PM10),53,55,44,23,17,190,104,170,137,15,15,5,6,0.7,0.7
2023-09-02T22:00:00,1201A,119.9255,31.9087,常州市,安家,,42,42,44,24,21,141,116,134,123,13,17,5,8,0.6,0.6
2023-09-02T22:00:00,1203A,119.6707,32.1875,镇江市,新区办事处,,44,44,30,23,17,143,95,136,119,17,16,4,5,0.7,0.6
2023-09-02T22:00:00,1204A,119.4974,32.1968,镇江市,职教中心,,50,50,37,33,26,161,100,150,125,17,22,3,6,0.6,0.7
2023-09-02T22:00:00,1205A,119.4303,32.1328,镇江市,丹徒区监测站,,48,35,37,33,23,169,109,163,136,12,15,1,3,0.7,0.6
2023-09-02T22:00:00,1206A,119.905,32.4878,泰州市,公园路,,36,36,34,22,23,142,103,137,125,10,12,6,8,0.8,0.8
2023-09-02T22:00:00,1207A,119.9189,32.4625,泰州市,莲花,,37,37,33,24,19,136,110,132,124,7,11,4,9,0.7,0.6
2023-09-02T22:00:00,1209A,119.888,32.4639,泰州市,留学生创业园,,39,39,36,22,19,137,113,133,126,10,14,6,8,0.6,0.6
2023-09-02T22:00:00,1210A,119.036,33.5981,淮安市,钵池山,,50,41,46,35,34,163,112,148,116,8,25,8,8,0.8,0.9
2023-09-02T22:00:00,1211A,119.007,33.575,淮安市,北京南路,,,41,46,31,32,166,,154,124,11,18,7,8,0.6,0.7
2023-09-02T22:00:00,1212A,118.989,33.6067,淮安市,市监测站,,46,46,53,29,32,167,116,156,126,11,21,6,7,0.7,0.9
2023-09-02T22:00:00,1213A,119.135,33.5039,淮安市,楚州区监测站,细颗粒物(PM2.5),57,49,48,40,31,161,100,149,116,14,15,9,8,0.7,0.8
2023-09-02T22:00:00,1214A,119.0186,33.6297,淮安市,淮阴区监测站,,46,46,54,30,36,162,111,152,114,11,23,6,8,0.7,0.9
2023-09-02T22:00:00,1215A,120.118,33.4022,盐城市,盐城电厂,颗粒物(PM10),51,51,44,29,26,164,115,157,142,8,7,6,7,0.5,0.6
2023-09-02T22:00:00,1216A,120.156,33.3942,盐城市,市监测站,,48,44,39,33,29,163,117,156,139,10,10,5,6,0.4,0.6
2023-09-02T22:00:00,1218A,120.2144,33.38,盐城市,开发区管委会,,46,36,34,32,24,166,121,158,144,8,10,8,8,0.5,0.5
2023-09-02T22:00:00,1220A,118.293,33.9528,宿迁市,宿迁学院,,45,42,64,31,55,182,106,178,152,14,20,9,9,0.5,0.6
2023-09-02T22:00:00,1221A,118.2442,33.9592,宿迁市,宿迁中学,,42,42,63,27,51,183,117,178,155,13,16,6,6,0.7,0.7
2023-09-02T22:00:00,1223A,120.2072,30.2111,杭州市,滨江,,44,44,39,20,19,196,118,177,165,14,15,8,7,0.6,0.6
2023-09-02T22:00:00,1224A,120.0633,30.2747,杭州市,西溪,,44,44,38,26,22,190,98,176,161,22,17,4,5,0.8,0.7
2023-09-02T22:00:00,1226A,120.3461,30.3153,杭州市,下沙,,37,37,37,22,21,188,117,169,157,12,22,3,4,0.7,0.7
2023-09-02T22:00:00,1227A,120.1269,30.2456,杭州市,卧龙桥,,40,40,32,26,20,192,85,182,161,18,15,5,4,0.7,0.6
2023-09-02T22:00:00,1228A,120.1903,30.2692,杭州市,浙江农大,,34,31,31,19,19,164,106,151,139,13,19,7,8,0.6,0.6
2023-09-02T22:00:00,1230A,120.1197,30.3119,杭州市,和睦小学,,47,47,41,25,21,184,94,173,158,36,29,8,8,0.7,0.6
2023-09-02T22:00:00,1231A,120.3019,30.4183,杭州市,临平镇,,43,43,40,16,18,182,92,171,149,20,14,4,5,0.5,0.5
2023-09-02T22:00:00,1232A,120.2697,30.1819,杭州市,城厢镇,,42,42,42,29,25,187,116,166,156,14,16,6,6,0.5,0.6
2023-09-02T22:00:00,1233A,120.0883,30.1808,杭州市,云栖,细颗粒物(PM2.5),58,16,16,41,19,189,91,170,141,15,12,6,6,0.5,0.3
2023-09-02T22:00:00,1234A,121.8358,29.911,宁波市,区环保大楼,,36,29,24,20,15,140,114,133,132,25,19,3,4,0.6,0.5
2023-09-02T22:00:00,1235A,121.56,29.82,宁波市,万里学院,,38,38,29,26,16,131,106,124,122,19,15,5,5,0.7,0.6
2023-09-02T22:00:00,1236A,121.713,29.9572,宁波市,龙赛医院,,43,43,41,15,11,136,122,132,131,17,14,8,7,0.6,0.6
2023-09-02T22:00:00,1239A,121.633,29.7733,宁波市,钱湖水厂,,44,44,36,22,16,149,78,131,122,24,12,5,6,0.6,0.6
2023-09-02T22:00:00,1240A,121.5856,29.8635,宁波市,太古小学,,38,29,24,17,12,134,119,126,126,17,16,5,6,0.9,0.8
2023-09-02T22:00:00,1241A,121.524,29.8674,宁波市,市环境监测中心,,44,44,28,19,12,140,124,131,131,12,9,8,8,0.6,0.5
2023-09-02T22:00:00,1242A,120.634,28.0089,温州市,瓯海,,23,23,31,15,16,84,41,72,44,23,23,6,6,0.6,0.5
2023-09-02T22:00:00,1243A,120.6748,27.9939,温州市,南浦,,27,27,25,14,13,94,42,90,51,22,17,5,5,0.6,0.5
2023-09-02T22:00:00,1244A,120.76,27.9747,温州市,龙湾,,38,38,31,17,13,95,12,95,26,52,32,6,6,0.7,0.6
2023-09-02T22:00:00,1245A,120.6709,28.0167,温州市,市站,,36,33,23,25,14,89,31,86,57,32,15,6,6,0.6,0.5
2023-09-02T22:00:00,1247A,120.6053,29.9928,绍兴市,城东开发委,,44,44,36,20,16,167,109,147,138,10,17,6,7,0.5,0.5
2023-09-02T22:00:00,1250A,120.0751,30.8669,湖州市,城西水厂,,33,33,33,16,17,186,103,176,157,18,23,2,3,0.5,0.6
2023-09-02T22:00:00,1252A,120.7436,30.778,嘉兴市,清河小学,,,42,34,19,15,166,,151,135,17,15,5,6,0.4,0.8
2023-09-02T22:00:00,1253A,120.726,30.7478,嘉兴市,嘉兴学院,,34,33,31,20,19,176,107,161,146,19,15,4,4,0.5,0.6
2023-09-02T22:00:00,1255A,121.273,28.6459,台州市,黄岩环保大楼,,28,26,31,19,18,89,62,89,64,14,15,5,5,0.6,0.6
2023-09-02T22:00:00,1256A,121.419,28.6542,台州市,台州环保大楼,,27,21,23,13,13,107,85,91,91,8,8,6,6,0.5,0.4
2023-09-02T22:00:00,1257A,121.377,28.5773,台州市,路桥田洋王,,25,25,29,15,16,96,75,83,76,8,9,3,4,0.5,0.5
2023-09-02T22:00:00,1258A,122.122,30.0203,舟山市,定海檀枫,,34,34,28,20,15,132,104,132,118,7,6,6,6,0.6,0.5
2023-09-02T22:00:00,1259A,122.3094,29.9558,舟山市,普陀东港,,37,29,29,15,15,154,116,154,129,7,7,4,4,0.6,0.6
2023-09-02T22:00:00,1260A,122.19,29.9944,舟山市,临城新区,,36,28,30,15,13,147,115,147,128,5,5,6,6,0.5,0.4
2023-09-02T22:00:00,1262A,119.647,29.077,金华市,十五中,颗粒物(PM10),52,54,37,34,22,164,90,133,120,23,26,4,4,0.5,0.5
2023-09-02T22:00:00,1263A,119.686,29.1029,金华市,监测站,颗粒物(PM10),55,60,46,36,25,150,72,122,107,27,29,4,4,0.6,0.5
2023-09-02T22:00:00,1264A,118.8692,28.9398,衢州市,环保大楼,细颗粒物(PM2.5),59,66,47,42,28,138,83,126,113,24,16,3,4,0.6,0.6
2023-09-02T22:00:00,1265A,118.8709,28.9666,衢州市,实验学校,颗粒物(PM10),58,66,50,34,25,142,95,129,120,22,21,3,5,0.5,0.4
2023-09-02T22:00:00,1266A,118.8621,28.9808,衢州市,衢州学院,细颗粒物(PM2.5),63,64,45,45,27,149,72,130,113,43,25,6,4,0.4,0.4
2023-09-02T22:00:00,1267A,119.914,28.4514,丽水市,监测站大楼,,49,49,41,33,22,94,39,81,62,24,23,6,5,0.6,0.5
2023-09-02T22:00:00,1268A,119.93,28.4586,丽水市,莲都小学,颗粒物(PM10),58,66,43,31,19,101,43,87,68,25,21,6,5,0.6,0.5
2023-09-02T22:00:00,1269A,119.879,28.4231,丽水市,余庄前,颗粒物(PM10),54,58,46,27,19,81,6,71,37,20,17,5,5,0.7,0.6
2023-09-02T22:00:00,1270A,117.1959,31.7848,合肥市,明珠广场,颗粒物(PM10),53,56,45,31,24,171,116,159,148,25,26,7,8,0.7,0.7
2023-09-02T22:00:00,1271A,117.3072,31.8764,合肥市,三里街,颗粒物(PM10),53,56,45,36,28,161,108,148,135,24,21,6,7,0.5,0.5
2023-09-02T22:00:00,1272A,117.2588,31.8707,合肥市,琥珀山庄,颗粒物(PM10),56,61,41,31,22,167,122,158,142,19,17,5,6,0.7,0.7
2023-09-02T22:00:00,1273A,117.1604,31.9052,合肥市,董铺水库,颗粒物(PM10),57,63,44,29,22,158,86,150,133,19,16,5,6,0.5,0.5
2023-09-02T22:00:00,1274A,117.25,31.8571,合肥市,长江中路,颗粒物(PM10),60,70,50,40,28,166,115,154,142,19,16,7,9,0.7,0.6
2023-09-02T22:00:00,1275A,117.266,31.9436,合肥市,庐阳区,颗粒物(PM10),58,66,53,36,28,154,83,143,127,30,20,5,5,0.6,0.5
2023-09-02T22:00:00,1276A,117.336,31.8586,合肥市,瑶海区,颗粒物(PM10),56,61,48,31,23,157,108,146,135,19,13,5,6,0.7,0.6
2023-09-02T22:00:00,1277A,117.3027,31.7964,合肥市,包河区,颗粒物(PM10),58,66,50,34,26,158,45,141,109,89,51,6,7,0.7,0.6
2023-09-02T22:00:00,1278A,117.2776,31.7385,合肥市,滨湖新区,颗粒物(PM10),57,63,47,34,24,172,110,158,145,26,19,6,7,0.6,0.5
2023-09-02T22:00:00,1279A,117.1318,31.8403,合肥市,高新区,颗粒物(PM10),54,58,46,37,29,161,91,151,136,36,26,10,10,0.8,0.7
2023-09-02T22:00:00,1280A,119.3903,26.0543,福州市,鼓山,,,,,,,,,,,,,,,,
2023-09-02T22:00:00,1282A,119.2681,26.0504,福州市,师大,,15,11,18,3,7,79,45,60,55,6,5,3,3,0.5,0.5
2023-09-02T22:00:00,1283A,119.2984,26.1028,福州市,五四北路,,15,12,17,5,7,70,47,63,55,8,8,3,3,0.5,0.5
2023-09-02T22:00:00,1284A,119.2648,26.0768,福州市,杨桥西路,,17,17,20,4,7,71,42,60,52,8,9,3,3,0.6,0.5
2023-09-02T22:00:00,1285A,119.317,26.0746,福州市,紫阳,,15,7,17,4,7,69,47,60,53,6,6,4,4,0.4,0.5
2023-09-02T22:00:00,1286A,118.1608,24.8169,厦门市,溪东,,,,,,,,,,,,,,,,
2023-09-02T22:00:00,1287A,118.1514,24.4767,厦门市,洪文,,21,21,19,9,9,74,28,65,53,8,3,1,2,0.3,0.3
2023-09-02T22:00:00,1288A,118.0661,24.4444,厦门市,鼓浪屿,,16,16,16,10,10,80,18,69,59,14,6,2,1,0.4,0.3
2023-09-02T22:00:00,1290A,115.8931,28.6843,南昌市,省外办,颗粒物(PM10),52,54,44,31,20,143,100,133,124,22,16,6,7,0.7,0.7
2023-09-02T22:00:00,1291A,115.8886,28.7003,南昌市,省林业公司,颗粒物(PM10),51,51,37,31,22,141,94,133,120,19,12,7,8,0.8,0.8
2023-09-02T22:00:00,1292A,115.8126,28.7442,南昌市,林科所,,39,29,24,22,15,160,124,146,139,13,11,8,9,0.7,0.8
2023-09-02T22:00:00,1294A,115.8518,28.687,南昌市,建工学校,,48,48,37,26,15,165,124,154,143,17,15,11,12,0.8,0.7
2023-09-02T22:00:00,1295A,115.8921,28.6424,南昌市,象湖,,49,47,34,34,21,157,120,150,141,16,14,8,9,0.5,0.5
2023-09-02T22:00:00,1296A,115.7423,28.7996,南昌市,武术学校,,26,16,21,8,13,151,83,133,110,9,10,2,3,0.3,0.3
2023-09-02T22:00:00,1298A,115.9314,28.6842,南昌市,省站,,50,50,39,28,21,156,115,146,138,15,12,12,10,0.8,0.7
2023-09-02T22:00:00,1299A,116.9862,36.6114,济南市,科干所,细颗粒物(PM2.5),92,97,92,68,63,221,103,200,168,24,23,6,9,0.7,0.8
2023-09-02T22:00:00,1300A,116.9376,36.665,济南市,农科所,细颗粒物(PM2.5),80,85,88,59,52,208,84,182,147,34,44,6,8,0.6,0.7
2023-09-02T22:00:00,1301A,117.1265,36.6734,济南市,开发区,细颗粒物(PM2.5),92,93,91,68,54,234,90,212,178,44,46,8,7,1.0,0.9
2023-09-02T22:00:00,1303A,117.0624,36.6868,济南市,省种子仓库,细颗粒物(PM2.5),85,100,105,63,56,222,141,203,182,24,58,7,9,1.0,1.1
2023-09-02T22:00:00,1304A,116.9489,36.6447,济南市,机床二厂,细颗粒物(PM2.5),92,112,101,68,58,207,83,192,155,37,35,6,9,1.0,1.1
2023-09-02T22:00:00,1305A,117.0495,36.663,济南市,市监测站,细颗粒物(PM2.5),83,90,86,61,55,214,145,207,185,24,40,7,7,0.7,0.8
2023-09-02T22:00:00,1306A,116.7675,36.5484,济南市,长清党校,细颗粒物(PM2.5),83,85,91,61,67,207,105,193,168,28,30,4,4,0.6,0.7
2023-09-02T22:00:00,1307A,120.6659,36.2403,青岛市,仰口,,23,9,28,12,23,128,71,115,74,3,5,6,6,0.1,0.4
2023-09-02T22:00:00,1310A,120.4134,36.0658,青岛市,市南区东部子站,,25,12,34,12,20,161,80,158,108,22,11,5,5,0.4,0.6
2023-09-02T22:00:00,1311A,120.3664,36.1032,青岛市,四方区子站,,24,19,35,7,26,179,74,171,102,31,18,5,5,0.5,0.6
2023-09-02T22:00:00,1312A,120.2994,36.054,青岛市,市南区西部子站,,27,17,37,7,20,169,86,155,106,31,21,5,6,0.4,0.6
2023-09-02T22:00:00,1313A,120.4581,36.0858,青岛市,崂山区子站,,29,29,30,14,21,160,79,148,115,22,13,7,8,0.3,0.4
2023-09-02T22:00:00,1314A,120.1983,35.9608,青岛市,黄岛区子站,,34,12,39,12,27,189,108,175,130,15,21,5,7,0.4,0.6
2023-09-02T22:00:00,1315A,120.3999,36.3083,青岛市,城阳区子站,,31,31,42,10,19,132,33,118,77,50,25,5,5,0.5,0.6
2023-09-02T22:00:00,1316A,113.69031,34.76122,郑州市,烟厂,颗粒物(PM10),63,75,62,37,30,192,124,183,168,29,28,2,2,0.7,0.7
2023-09-02T22:00:00,1317A,113.65724,34.77134,郑州市,郑纺机,颗粒物(PM10),61,72,59,33,28,198,133,185,172,20,18,2,2,0.7,0.7
2023-09-02T22:00:00,1318A,113.67526,34.80246,郑州市,银行学校,,,,,,,,,,,,,,,,
2023-09-02T22:00:00,1319A,113.56746,34.81334,郑州市,供水公司,颗粒物(PM10),58,65,62,31,30,197,119,175,165,29,39,3,2,0.6,0.5
2023-09-02T22:00:00,1320A,113.7329,34.7178,郑州市,经开区管委,颗粒物(PM10),68,86,65,44,35,191,97,176,156,24,23,4,4,0.8,0.8
2023-09-02T22:00:00,1321A,113.73961,34.77172,郑州市,四十七中,"颗粒物(PM10),细颗粒物(PM2.5)",62,74,58,44,36,178,115,168,155,22,25,8,8,0.7,0.7
2023-09-02T22:00:00,1322A,113.60532,34.74838,郑州市,市监测站,颗粒物(PM10),60,70,71,41,33,191,117,178,164,29,34,5,5,0.7,0.6
2023-09-02T22:00:00,1323A,113.64164,34.7525,郑州市,河医大,颗粒物(PM10),57,63,59,34,31,188,124,175,162,23,25,4,5,0.8,0.8
2023-09-02T22:00:00,1324A,113.51488,34.91089,郑州市,岗李水库,,,,,,,,,,,,,,,,
2023-09-02T22:00:00,1325A,114.3677,30.5584,武汉市,东湖梨园,,39,39,30,27,19,211,112,164,129,16,24,8,16,0.6,1.3
2023-09-02T22:00:00,1326A,114.2529,30.558,武汉市,汉阳月湖,,34,32,26,19,13,167,108,144,125,19,21,6,7,0.5,0.6
2023-09-02T22:00:00,1327A,114.282,30.6189,武汉市,汉口花桥,,39,34,28,27,18,176,102,146,121,18,16,6,6,0.6,0.5
2023-09-02T22:00:00,1328A,114.3025,30.5332,武汉市,武昌紫阳,,36,33,29,16,14,196,113,158,132,17,27,7,13,0.5,1
2023-09-02T22:00:00,1329A,114.3646,30.6217,武汉市,青山钢花,,42,41,28,29,20,171,102,149,124,23,17,9,9,0.7,0.6
2023-09-02T22:00:00,1330A,114.1566,30.4825,武汉市,沌口新区,,46,46,30,28,21,189,84,166,132,37,25,8,11,0.6,0.8
2023-09-02T22:00:00,1331A,114.3014,30.5944,武汉市,汉口江滩,,39,39,28,23,15,184,116,153,130,11,13,7,7,0.5,0.4
2023-09-02T22:00:00,1333A,114.135,30.6319,武汉市,吴家山,,38,33,25,20,16,174,119,154,134,14,14,9,9,0.6,0.6
2023-09-02T22:00:00,1334A,113.8454,30.2917,武汉市,沉湖七壕,颗粒物(PM10),53,56,31,23,15,203,85,173,139,17,19,5,4,0.7,0.7
2023-09-02T22:00:00,1335A,113.0833,28.2325,长沙市,经开区环保局,,41,37,31,27,20,147,130,140,139,15,12,8,8,0.6,0.5
2023-09-02T22:00:00,1336A,112.8872,28.2189,长沙市,高开区环保局,,49,49,41,29,25,157,134,153,151,6,6,7,8,0.7,0.6
2023-09-02T22:00:00,1337A,113.0792,28.2053,长沙市,马坡岭,细颗粒物(PM2.5),59,55,40,42,22,158,140,149,148,17,13,7,7,0.8,0.7
2023-09-02T22:00:00,1338A,112.9394,28.19,长沙市,湖南师范大学,细颗粒物(PM2.5),53,54,48,37,27,157,135,153,152,5,6,5,6,0.8,0.8
2023-09-02T22:00:00,1339A,113.0178,28.1322,长沙市,雨花区环保局,,42,42,33,22,18,159,134,148,147,18,15,7,7,0.6,0.5
2023-09-02T22:00:00,1340A,112.9792,28.2597,长沙市,伍家岭,细颗粒物(PM2.5),55,49,40,39,29,155,121,148,145,19,16,5,5,0.8,0.7
2023-09-02T22:00:00,1341A,113.0014,28.1944,长沙市,火车新站,,39,38,31,27,21,150,123,143,141,16,13,8,7,0.8,0.8
2023-09-02T22:00:00,1342A,112.9844,28.1178,长沙市,天心区环保局,,46,46,32,22,17,162,133,154,152,17,12,5,5,0.6,0.5
2023-09-02T22:00:00,1343A,112.8908,28.1308,长沙市,湖南中医药大学,颗粒物(PM10),51,51,49,25,19,157,137,152,150,10,12,4,4,0.8,0.8
2023-09-02T22:00:00,1344A,112.9581,28.3611,长沙市,沙坪,,44,44,41,27,24,158,133,153,151,10,10,7,8,0.8,0.8
2023-09-02T22:00:00,1345A,113.2347,23.1423,广州市,广雅中学,,29,25,19,20,15,44,6,41,21,45,21,5,5,1.1,0.9
2023-09-02T22:00:00,1346A,113.2612,23.105,广州市,市五中,,29,25,19,20,14,53,12,48,29,30,11,5,5,0.9,0.7
2023-09-02T22:00:00,1348A,113.3478,23.0916,广州市,广东商学院,,22,22,21,15,13,46,19,45,25,29,13,3,3,0.5,0.5
2023-09-02T22:00:00,1349A,113.4332,23.1047,广州市,市八十六中,,16,15,17,11,12,51,26,46,31,24,12,4,4,0.6,0.6
2023-09-02T22:00:00,1350A,113.3505,22.9483,广州市,番禺中学,,,20,15,14,14,59,42,47,47,24,16,5,4,,0.7
2023-09-02T22:00:00,1351A,113.2146,23.3916,广州市,花都师范,,33,24,24,23,18,56,39,53,46,14,8,5,6,0.8,0.8
2023-09-02T22:00:00,1352A,113.2597,23.1331,广州市,市监测站,,18,16,24,12,16,48,20,45,26,32,20,6,6,0.7,0.6
2023-09-02T22:00:00,1353A,113.5618,23.312,广州市,九龙镇镇龙,,11,8,16,5,10,49,33,42,38,9,6,6,6,0.4,0.4
2023-09-02T22:00:00,1354A,113.2765,23.1544,广州市,麓湖,,18,18,16,12,12,47,12,46,27,28,12,5,5,0.7,0.7
2023-09-02T22:00:00,1355A,113.443,23.3035,广州市,帽峰山森林公园,,15,5,11,3,9,55,47,51,42,6,6,7,7,0.2,0.3
2023-09-02T22:00:00,1356A,114.1063,22.5545,深圳市,通心岭子站,,24,24,12,10,4,79,73,73,72,9,6,4,5,0.5,0.4
2023-09-02T22:00:00,1357A,114.117,22.5625,深圳市,洪湖,,27,27,11,10,4,84,75,80,80,6,5,5,5,0.5,0.5
2023-09-02T22:00:00,1358A,113.987,22.5417,深圳市,华侨城,,23,18,10,14,4,77,71,70,70,7,6,6,6,0.7,0.7
2023-09-02T22:00:00,1359A,113.9181,22.5171,深圳市,南海子站,,26,26,9,13,3,77,72,72,72,8,6,4,4,0.7,0.7
2023-09-02T22:00:00,1360A,114.2458,22.5689,深圳市,盐田,,22,22,16,12,4,95,68,87,86,21,7,5,4,0.7,0.6
2023-09-02T22:00:00,1361A,114.2283,22.7244,深圳市,龙岗,,28,28,9,15,5,74,63,70,67,12,7,7,7,0.9,0.8
2023-09-02T22:00:00,1363A,114.494,22.5422,深圳市,南澳,,25,22,8,12,2,89,78,84,82,5,4,4,4,0.7,0.6
2023-09-02T22:00:00,1364A,114.41,22.6342,深圳市,葵涌,,26,26,10,13,4,85,70,77,77,7,6,5,4,0.6,0.5
2023-09-02T22:00:00,1365A,114.297,22.5978,深圳市,梅沙,,32,32,25,22,10,92,75,87,87,6,4,5,5,0.7,0.6
2023-09-02T22:00:00,1366A,114.0678,22.738,深圳市,观澜,,23,23,6,16,4,74,52,70,63,16,8,6,8,0.7,0.6
2023-09-02T22:00:00,1367A,113.5814,22.2618,珠海市,吉大,,27,21,21,12,13,91,84,85,82,12,8,3,2,0.5,0.5
2023-09-02T22:00:00,1368A,113.4881,22.2335,珠海市,前山,,29,15,11,12,8,96,90,86,86,7,4,7,7,0.4,0.4
2023-09-02T22:00:00,1369A,113.628,22.4251,珠海市,唐家,,26,23,15,10,10,83,82,78,77,11,5,5,4,0.5,0.4
2023-09-02T22:00:00,1370A,113.299,22.2281,珠海市,斗门,,28,14,13,9,5,96,87,86,85,4,3,5,5,0.6,0.6
2023-09-02T22:00:00,1371A,113.1294,23.0067,佛山市,湾梁,,19,17,8,13,11,49,15,47,27,29,13,6,6,0.7,0.6
2023-09-02T22:00:00,1372A,113.1083,23.0478,佛山市,华材职中,,28,27,12,19,13,45,3,39,19,46,16,8,8,0.7,0.4
2023-09-02T22:00:00,1373A,113.144,23.0453,佛山市,南海气象局,,27,27,19,10,9,43,8,40,16,25,14,6,6,0.7,0.6
2023-09-02T22:00:00,1374A,113.2881,22.8094,佛山市,顺德苏岗,,18,15,12,12,6,55,36,46,45,17,10,6,6,0.6,0.6
2023-09-02T22:00:00,1376A,112.8383,22.8678,佛山市,高明孔堂,,33,33,19,14,11,61,28,47,43,36,19,5,5,0.7,0.6
2023-09-02T22:00:00,1377A,112.8836,23.1588,佛山市,三水监测站,,29,9,12,20,14,54,39,49,43,16,12,4,3,0.8,0.7
2023-09-02T22:00:00,1378A,112.867,23.185,佛山市,三水云东海,,28,19,20,19,17,59,38,51,47,15,11,4,4,0.7,0.7
2023-09-02T22:00:00,1379A,113.3769,22.5211,中山市,华柏园,细颗粒物(PM2.5),62,23,10,44,23,69,56,68,64,15,7,4,4,0.4,0.4
2023-09-02T22:00:00,1380A,113.3881,22.5497,中山市,张溪,,22,22,10,11,11,73,65,70,69,15,5,4,3,0.5,0.4
2023-09-02T22:00:00,1381A,113.4075,22.5111,中山市,紫马岭,,28,28,8,12,5,74,57,73,70,16,4,4,4,0.3,0.3
2023-09-02T22:00:00,1382A,113.4411,22.4853,中山市,长江旅游区,,,,,,,,,,,,,,,,
2023-09-02T22:00:00,1383A,113.1064,22.6058,江门市,北街,,21,14,9,12,7,69,65,64,64,12,10,5,5,0.4,0.4
2023-09-02T22:00:00,1384A,113.0731,22.5835,江门市,西区,,20,18,10,6,5,72,63,67,67,13,9,4,4,0.6,0.5
2023-09-02T22:00:00,1385A,113.0219,22.5311,江门市,圭峰西,,18,18,9,9,5,70,56,67,65,16,10,4,3,0.5,0.5
2023-09-02T22:00:00,1386A,113.0828,22.5947,江门市,东湖,,22,22,12,11,9,76,70,71,71,10,8,7,7,0.5,0.4
2023-09-02T22:00:00,1389A,113.7547,23.0494,东莞市,莞城梨川,,16,16,14,9,9,69,38,57,54,16,10,9,9,0.7,0.7
2023-09-02T22:00:00,1390A,113.7944,23.0128,东莞市,东城石井,,18,18,14,11,8,64,37,53,50,15,9,8,7,0.8,0.7
2023-09-02T22:00:00,1391A,113.7383,22.9658,东莞市,南城西平,,23,23,14,13,8,49,23,45,44,30,12,6,5,1.0,0.8
2023-09-02T22:00:00,1392A,114.4183,23.0528,惠州市,河南岸金山湖子站,,20,12,9,14,13,77,35,62,57,11,6,4,4,0.5,0.4
2023-09-02T22:00:00,1393A,114.4053,23.0822,惠州市,下埔横江三路子站,,16,16,11,10,6,68,32,58,54,11,5,5,5,0.5,0.4
2023-09-02T22:00:00,1394A,114.4103,23.1142,惠州市,江北云山西路子站,,13,13,9,8,6,73,34,58,54,6,3,6,4,0.4,0.4
2023-09-02T22:00:00,1395A,114.4645,22.7833,惠州市,惠阳区承修路船湖子站,,28,28,11,16,6,76,67,72,72,11,5,4,4,0.7,0.6
2023-09-02T22:00:00,1396A,114.5317,22.7422,惠州市,大亚湾管委会子站,,27,27,13,13,9,84,66,74,74,17,13,6,5,0.5,0.5
2023-09-02T22:00:00,1397A,112.4267,23.0706,肇庆市,睦岗子站,,26,24,11,18,7,61,47,56,53,14,7,9,8,0.5,0.3
2023-09-02T22:00:00,1398A,112.4645,23.0475,肇庆市,城中子站,,19,18,13,13,7,64,50,60,57,13,8,10,9,0.6,0.5
2023-09-02T22:00:00,1399A,112.5544,23.1522,肇庆市,坑口子站,,32,26,12,22,10,57,41,54,49,20,11,5,4,0.5,0.4
2023-09-02T22:00:00,1400A,112.4753,23.1,肇庆市,七星岩子站,,,,,,,,,,,,,,,,
2023-09-02T22:00:00,1401A,108.3103,22.7881,南宁市,二十一中,,35,22,32,8,18,121,112,116,114,13,17,5,9,0.5,0.7
2023-09-02T22:00:00,1402A,108.3141,22.8528,南宁市,北湖,,36,24,36,11,20,117,113,112,109,10,14,4,12,0.6,0.6
2023-09-02T22:00:00,1403A,108.3206,22.8225,南宁市,市监测站,,29,19,37,15,21,112,91,106,99,43,29,8,15,0.6,0.7
2023-09-02T22:00:00,1404A,108.3829,22.8037,南宁市,大自然花园,,31,21,29,8,18,106,98,103,101,9,10,5,8,0.5,0.6
2023-09-02T22:00:00,1405A,108.4394,22.7904,南宁市,仙葫,,32,11,35,10,23,102,101,94,94,9,22,7,7,0.4,0.4
2023-09-02T22:00:00,1406A,108.2397,22.8467,南宁市,区农职院,,35,25,35,9,19,121,112,110,106,13,18,13,10,0.6,0.7
2023-09-02T22:00:00,1407A,108.3275,22.735,南宁市,英华嘉园,,32,16,35,7,22,110,101,105,104,7,21,6,8,0.5,0.6
2023-09-02T22:00:00,1408A,108.2257,22.7757,南宁市,沙井镇街道办,,35,20,45,15,23,118,111,108,104,11,26,5,7,0.5,0.5
2023-09-02T22:00:00,1409A,110.576,19.9507,海口市,东寨港,,,,,,,,,,,,,,,,
2023-09-02T22:00:00,1410A,110.3232,20.0574,海口市,海南大学,,28,24,32,19,19,113,89,95,87,8,11,6,7,0.6,0.5
2023-09-02T22:00:00,1411A,110.283,20.0053,海口市,秀英海南医院,,28,20,32,16,21,126,87,104,95,8,12,7,8,0.4,0.5
2023-09-02T22:00:00,1412A,110.338,19.9969,海口市,海南师范大学,,27,24,30,15,20,121,85,106,94,8,12,7,8,0.5,0.5
2023-09-02T22:00:00,1413A,110.33,20.0356,海口市,龙华路环保局宿舍,,27,22,29,17,20,114,85,96,86,8,11,7,8,0.4,0.4
2023-09-02T22:00:00,1414A,106.3787,29.8279,重庆市,缙云山,,45,32,35,19,20,158,141,144,143,7,7,8,9,0.2,0.3
2023-09-02T22:00:00,1416A,106.4213,29.8253,重庆市,天生,颗粒物(PM10),56,61,58,39,41,127,59,118,102,24,21,6,7,0.7,0.7
2023-09-02T22:00:00,1417A,106.6263,29.7228,重庆市,两路,细颗粒物(PM2.5),57,56,47,40,39,178,112,157,140,24,18,11,10,0.9,0.9
2023-09-02T22:00:00,1418A,106.2953,29.5983,重庆市,虎溪,颗粒物(PM10),59,68,45,27,35,161,35,147,125,82,20,6,8,0.8,0.7
2023-09-02T22:00:00,1419A,106.5777,29.5102,重庆市,南坪,颗粒物(PM10),54,57,69,35,46,195,90,173,151,32,29,9,11,0.6,0.9
2023-09-02T22:00:00,1420A,106.6556,29.6277,重庆市,唐家沱,细颗粒物(PM2.5),52,48,53,36,30,219,39,190,146,71,38,7,7,0.7,0.6
2023-09-02T22:00:00,1421A,106.6349,29.4906,重庆市,茶园,颗粒物(PM10),54,58,64,30,34,253,82,216,180,55,39,6,7,0.9,1
2023-09-02T22:00:00,1422A,106.3754,29.4572,重庆市,白市驿,细颗粒物(PM2.5),58,46,67,41,39,179,111,164,153,21,20,8,8,0.6,0.7
2023-09-02T22:00:00,1425A,106.6205,29.7166,重庆市,空港,颗粒物(PM10),52,54,54,31,35,187,118,164,144,27,18,9,8,0.8,0.8
2023-09-02T22:00:00,1426A,106.4782,29.4875,重庆市,新山村,,49,49,57,29,37,208,93,183,162,45,28,10,11,0.7,0.7
2023-09-02T22:00:00,1427A,106.5616,29.6453,重庆市,礼嘉,细颗粒物(PM2.5),53,48,45,37,36,153,88,141,124,30,16,11,11,0.8,0.8
2023-09-02T22:00:00,1428A,106.4522,29.7091,重庆市,蔡家,颗粒物(PM10),57,63,52,32,32,147,75,136,116,32,20,6,7,0.8,0.8
2023-09-02T22:00:00,1429A,106.5093,29.3917,重庆市,鱼新街,细颗粒物(PM2.5),59,52,60,42,44,192,58,172,148,54,31,6,9,1.1,1
2023-09-02T22:00:00,1431A,103.9728,30.7236,成都市,金泉两河,,36,36,37,17,20,186,29,157,133,38,20,4,5,0.8,0.6
2023-09-02T22:00:00,1432A,104.176,30.6872,成都市,十里店,颗粒物(PM10),60,69,46,38,33,217,56,186,169,75,24,4,4,0.8,0.7
2023-09-02T22:00:00,1433A,104.079,30.5706,成都市,三瓦窑,,40,40,41,22,26,207,77,180,161,62,36,3,3,0.6,0.5
2023-09-02T22:00:00,1434A,104.1114,30.63,成都市,沙河铺,颗粒物(PM10),51,52,48,32,30,190,42,165,141,38,21,2,3,0.8,0.6
2023-09-02T22:00:00,1437A,104.0786,30.6531,成都市,君平街,颗粒物(PM10),58,66,46,40,33,221,97,196,179,46,26,4,8,0.7,0.7
2023-09-02T22:00:00,1438A,103.613,31.0283,成都市,灵岩寺,,44,27,22,19,16,150,138,138,138,4,8,6,17,0.7,0.7
2023-09-02T22:00:00,1439A,106.6899,26.5998,贵阳市,马鞍山,,34,34,37,17,21,132,61,128,111,17,13,5,5,0.5,0.5
2023-09-02T22:00:00,1440A,106.6971,26.5694,贵阳市,市环保站,,50,41,35,35,28,146,73,142,121,37,16,6,7,0.5,0.4
2023-09-02T22:00:00,1441A,106.6243,26.6266,贵阳市,鉴湖路,,34,34,38,22,19,140,100,134,125,16,12,4,5,0.5,0.5
2023-09-02T22:00:00,1442A,106.7487,26.6343,贵阳市,燕子冲,颗粒物(PM10),80,110,36,27,23,123,78,120,109,17,13,5,6,0.7,0.6
2023-09-02T22:00:00,1443A,106.6555,26.4365,贵阳市,碧云窝,,48,48,44,27,23,139,59,134,114,21,12,5,5,0.7,0.5
2023-09-02T22:00:00,1444A,106.694,26.5161,贵阳市,中院村,颗粒物(PM10),51,51,40,27,24,128,74,122,109,27,16,6,9,0.4,0.4
2023-09-02T22:00:00,1445A,106.7109,26.6027,贵阳市,红边门,,39,36,41,27,30,138,87,133,119,22,14,4,7,0.5,0.5
2023-09-02T22:00:00,1446A,106.7164,26.5699,贵阳市,新华路,,39,39,35,22,24,138,91,135,122,14,9,5,8,0.4,0.4
2023-09-02T22:00:00,1447A,106.674,26.5424,贵阳市,太慈桥,,32,27,28,22,19,135,49,130,110,47,18,5,5,0.7,0.5
2023-09-02T22:00:00,1450A,102.8204,24.8886,昆明市,呈贡新区,,36,24,36,25,19,108,79,108,87,14,14,9,9,0.7,0.7
2023-09-02T22:00:00,1451A,102.6251,24.9608,昆明市,西山森林公园,,29,22,23,17,16,136,91,127,118,15,9,14,9,0.7,0.7
2023-09-02T22:00:00,1452A,102.7252,25.0902,昆明市,龙泉镇,,38,38,26,14,20,107,73,101,82,14,13,9,10,0.4,0.5
2023-09-02T22:00:00,1453A,102.7266,25.0375,昆明市,东风东路,,27,27,31,14,18,110,80,103,88,20,17,9,9,0.4,0.4
2023-09-02T22:00:00,1454A,102.6742,25.0669,昆明市,金鼎山,颗粒物(PM10),60,70,37,21,17,111,40,105,84,37,14,36,12,0.5,0.4
2023-09-02T22:00:00,1455A,102.6644,25.0401,昆明市,碧鸡广场,,48,48,30,18,20,112,54,108,91,22,9,26,10,0.5,0.4
2023-09-02T22:00:00,1456A,91.1319,29.6514,拉萨市,八廓街,,31,25,14,10,7,160,99,152,143,40,16,8,10,0.4,0.3
2023-09-02T22:00:00,1457A,91.1221,29.6747,拉萨市,市环保局,,29,29,17,12,8,155,73,142,130,43,19,7,9,0.5,0.2
2023-09-02T22:00:00,1458A,91.0874,29.6475,拉萨市,区监测站,,26,26,12,8,6,153,73,145,132,48,15,8,11,0.4,0.2
2023-09-02T22:00:00,1459A,91.1774,29.6541,拉萨市,西藏大学,,36,21,13,9,6,155,113,146,142,16,9,9,12,0.3,0.2
2023-09-02T22:00:00,1460A,90.9798,29.6588,拉萨市,区辐射站,,34,30,17,11,7,146,106,138,134,24,17,10,11,0.2,0.1
2023-09-02T22:00:00,1461A,91.0834,29.6292,拉萨市,拉萨火车站,,27,27,15,11,8,151,82,142,134,46,13,6,8,0.3,0.1
2023-09-02T22:00:00,1462A,108.882,34.2749,西安市,高压开关厂,颗粒物(PM10),52,53,76,24,36,224,83,181,151,40,36,9,9,0.7,0.8
2023-09-02T22:00:00,1463A,108.993,34.2629,西安市,兴庆小区,颗粒物(PM10),53,56,54,26,28,185,74,164,139,30,31,7,7,0.6,0.6
2023-09-02T22:00:00,1464A,109.06,34.2572,西安市,纺织城,,50,50,53,22,27,180,62,167,127,30,33,4,5,0.6,0.6
2023-09-02T22:00:00,1465A,108.9356,34.2173,西安市,小寨,,48,48,59,20,25,209,65,178,146,32,30,6,6,0.7,0.7
2023-09-02T22:00:00,1466A,108.954,34.2713,西安市,市人民体育场,颗粒物(PM10),57,63,66,29,33,196,64,166,138,43,36,7,8,0.6,0.6
2023-09-02T22:00:00,1467A,108.8922,34.2322,西安市,高新西区,,48,48,59,27,33,232,88,189,158,32,34,6,7,0.7,0.7
2023-09-02T22:00:00,1468A,108.935,34.3474,西安市,经开区,颗粒物(PM10),52,54,64,26,36,171,75,149,130,36,28,3,4,0.7,0.7
2023-09-02T22:00:00,1469A,108.906,34.1546,西安市,长安区,颗粒物(PM10),54,58,64,26,28,255,80,203,176,32,31,7,7,0.6,0.5
2023-09-02T22:00:00,1471A,109.2186,34.3731,西安市,临潼区,,35,31,58,24,30,154,106,142,131,13,25,5,7,0.4,0.4
2023-09-02T22:00:00,1472A,108.869,34.378,西安市,草滩,,50,50,71,19,21,202,78,170,142,56,40,9,12,0.7,0.8
2023-09-02T22:00:00,1473A,108.985,34.1978,西安市,曲江文化产业集团,颗粒物(PM10),57,64,62,24,27,198,44,174,141,50,39,6,6,0.7,0.7
2023-09-02T22:00:00,1474A,109.051,34.3213,西安市,广运潭,颗粒物(PM10),64,78,65,34,33,158,28,144,116,55,35,8,9,0.7,0.7
2023-09-02T22:00:00,1476A,103.631,36.1031,兰州市,兰炼宾馆,颗粒物(PM10),73,95,97,36,37,148,122,139,132,9,41,5,17,0.2,0.5
2023-09-02T22:00:00,1477A,104.1373,35.9454,兰州市,榆中兰大校区,,,,,,,,,,,,,,,,
2023-09-02T22:00:00,1478A,103.8412,36.0726,兰州市,生物制品所,颗粒物(PM10),117,183,102,38,39,164,108,132,116,17,54,4,9,0.5,0.9
2023-09-02T22:00:00,1479A,103.831,36.0464,兰州市,铁路设计院,颗粒物(PM10),113,175,99,43,42,169,110,125,98,22,67,6,16,0.3,1.3
2023-09-02T22:00:00,1483A,101.524,36.6867,西宁市,第五水厂,,,,,,,,,,,,,,,,
2023-09-02T22:00:00,1484A,105.9512,38.6016,银川市,贺兰山马莲口,,40,36,36,12,14,160,126,128,128,6,12,4,4,0.2,0.2
2023-09-02T22:00:00,1488A,106.2328,38.4975,银川市,贺兰山东路,颗粒物(PM10),64,78,54,30,21,187,57,160,140,86,31,15,13,1.0,0.6
2023-09-02T22:00:00,1489A,106.1358,38.5036,银川市,学院路,颗粒物(PM10),69,88,55,21,19,148,61,141,124,57,28,10,10,0.6,0.5
2023-09-02T22:00:00,1490A,87.5801,43.8303,乌鲁木齐市,监测站,,,47,92,13,15,126,71,105,102,36,28,8,6,,0.7
2023-09-02T22:00:00,1491A,87.6046,43.768,乌鲁木齐市,收费所,,50,50,84,20,23,136,57,107,103,50,29,6,4,0.7,0.4
2023-09-02T22:00:00,1492A,87.4754,43.9469,乌鲁木齐市,新疆农科院农场,颗粒物(PM10),64,77,95,12,21,100,60,90,84,27,34,3,3,0.4,0.4
2023-09-02T22:00:00,1493A,87.5525,43.8711,乌鲁木齐市,铁路局,颗粒物(PM10),56,62,88,21,21,129,74,109,104,30,26,4,5,0.4,0.4
2023-09-02T22:00:00,1494A,87.6432,43.831,乌鲁木齐市,三十一中学,,41,41,99,6,15,126,72,106,103,31,22,7,6,0.4,0.2
2023-09-02T22:00:00,1496A,87.7216,44.1747,乌鲁木齐市,米东区环保局,,49,49,59,17,14,118,79,109,104,14,7,7,8,0.3,0.3
2023-09-02T22:00:00,1508A,112.9433,27.8614,湘潭市,板塘,颗粒物(PM10),54,57,47,31,18,148,122,141,135,19,17,7,7,0.8,0.7
2023-09-02T22:00:00,1511A,112.9118,27.8403,湘潭市,市监测站,,49,49,44,32,24,142,119,135,132,16,16,5,5,0.7,0.6
2023-09-02T22:00:00,1512A,112.8937,27.8728,湘潭市,江麓,,49,46,49,34,26,141,126,138,136,18,18,9,9,0.4,0.4
2023-09-02T22:00:00,1513A,112.9227,27.8159,湘潭市,岳塘,颗粒物(PM10),55,60,48,34,24,146,112,139,134,27,19,7,6,0.5,0.3
2023-09-02T22:00:00,1514A,112.9074,27.9119,湘潭市,科大,细颗粒物(PM2.5),53,52,54,37,28,138,117,134,130,15,14,6,6,0.5,0.4
2023-09-02T22:00:00,1515A,113.135,27.8244,株洲市,天台山庄,颗粒物(PM10),60,70,43,35,22,161,118,143,135,21,17,6,6,0.8,0.6
2023-09-02T22:00:00,1518A,113.095,27.8867,株洲市,株冶医院,颗粒物(PM10),55,60,40,36,22,156,109,140,130,20,13,4,4,0.7,0.6
2023-09-02T22:00:00,1519A,113.167,27.8667,株洲市,市四中,颗粒物(PM10),56,61,45,34,25,146,121,135,126,22,15,8,8,0.7,0.5
2023-09-02T22:00:00,1520A,113.143,27.8381,株洲市,火车站,,,60,41,36,17,156,129,142,136,21,16,6,7,,0.5
2023-09-02T22:00:00,1524A,113.13,27.8528,株洲市,市监测站,颗粒物(PM10),61,72,43,40,26,161,113,143,134,20,16,7,8,0.9,0.7
2023-09-02T22:00:00,1552A,106.805,26.3003,贵阳市,桐木岭,,,,,,,,,,,,,,,,
2023-09-02T22:00:00,1559A,113.251,27.8336,株洲市,大京风景区,颗粒物(PM10),52,54,35,34,21,134,59,121,97,7,7,5,6,0.6,0.6
2023-09-02T22:00:00,1562A,113.0048,27.9153,湘潭市,昭山,颗粒物(PM10),52,53,48,29,20,166,128,152,145,18,16,6,6,0.8,0.6
2023-09-02T22:00:00,1564A,112.4876,27.9164,湘潭市,韶山,,45,45,45,26,21,163,139,163,137,8,9,8,9,0.4,0.4
2023-09-02T22:00:00,1585A,109.8756,40.6532,包头市,市环境监测站,,44,44,36,24,17,178,97,159,150,44,32,10,14,0.8,0.9
2023-09-02T22:00:00,1587A,109.9991,40.5842,包头市,包头八中,细颗粒物(PM2.5),55,56,46,39,24,180,128,162,156,24,28,28,24,0.8,0.8
2023-09-02T22:00:00,1588A,109.8538,40.6821,包头市,青山宾馆,细颗粒物(PM2.5),52,45,34,36,21,180,101,158,150,30,35,9,13,0.8,1
2023-09-02T22:00:00,1589A,109.8642,40.6288,包头市,惠龙物流,,50,50,36,22,17,184,119,167,160,24,28,15,16,0.8,0.8
2023-09-02T22:00:00,1590A,110.0377,40.5546,包头市,东河鸿龙湾,细颗粒物(PM2.5),53,51,32,37,17,186,74,161,146,51,24,18,19,0.7,0.6
2023-09-02T22:00:00,1591A,110.0023,39.8129,鄂尔多斯市,综合楼,颗粒物(PM10),51,51,56,17,16,157,86,138,122,37,27,6,10,0.6,0.6
2023-09-02T22:00:00,1592A,109.9486,39.8261,鄂尔多斯市,巴音孟克林场办事处,,44,44,50,19,21,167,112,156,142,23,22,7,12,0.6,0.7
2023-09-02T22:00:00,1593A,109.7736,39.5986,鄂尔多斯市,康泽苑,,,31,47,19,19,152,,141,137,22,20,9,12,0.5,0.6
2023-09-02T22:00:00,1594A,109.8119,39.5989,鄂尔多斯市,华泰汽车城,,39,39,49,24,21,140,71,132,117,32,20,7,10,0.5,0.5
2023-09-02T22:00:00,1595A,109.9734,39.7884,鄂尔多斯市,奥林花园,颗粒物(PM10),59,68,55,27,20,153,67,140,122,39,24,4,9,0.7,0.8
2023-09-02T22:00:00,1597A,122.2703,40.7094,营口市,大庆路,臭氧1小时,74,39,35,30,24,197,179,171,171,10,20,5,8,1.0,1
2023-09-02T22:00:00,1598A,122.2150,40.6511,营口市,镜湖西路,臭氧1小时,83,33,31,24,18,188,186,176,176,11,19,7,9,1.0,0.8
2023-09-02T22:00:00,1599A,122.1658,40.6789,营口市,西炮台,臭氧1小时,90,39,31,20,13,193,192,187,187,11,21,7,8,1.2,0.9
2023-09-02T22:00:00,1600A,124.3303,40.0625,丹东市,江湾东路,,44,44,31,25,21,156,50,138,107,19,18,6,7,0.9,0.8
2023-09-02T22:00:00,1601A,124.4256,40.1503,丹东市,临江后街,,36,36,26,16,13,131,36,118,89,28,18,5,7,0.7,0.6
2023-09-02T22:00:00,1602A,124.3933,40.1461,丹东市,元宝山,,37,37,25,16,14,109,48,99,87,22,17,8,9,1.2,1
2023-09-02T22:00:00,1603A,124.3633,40.1092,丹东市,民主桥,,38,38,27,24,16,126,32,114,91,38,17,4,4,1.0,0.7
2023-09-02T22:00:00,1604A,122.0303,41.1489,盘锦市,开发区,,49,32,28,33,17,164,156,155,155,20,20,3,4,1.1,1
2023-09-02T22:00:00,1605A,122.0485,41.0883,盘锦市,兴隆台,,49,22,27,25,18,162,156,149,149,22,19,5,5,0.9,0.8
2023-09-02T22:00:00,1606A,121.8297,41.1028,盘锦市,新生街道,,42,34,23,28,12,175,133,156,155,21,16,6,7,0.8,0.7
2023-09-02T22:00:00,1607A,120.9092,40.7136,葫芦岛市,龙港区,,48,18,46,12,26,226,152,192,192,12,21,10,31,0.7,0.8
2023-09-02T22:00:00,1608A,120.8392,40.7514,葫芦岛市,化工街,,41,41,50,23,22,178,101,148,144,26,30,9,26,0.7,0.7
2023-09-02T22:00:00,1609A,120.8341,40.7073,葫芦岛市,新区,,39,28,37,22,24,193,122,155,155,16,30,7,11,1.0,0.9
2023-09-02T22:00:00,1610A,120.8695,40.7677,葫芦岛市,东城区,,34,30,42,21,18,192,108,160,157,39,32,11,24,0.8,0.7
2023-09-02T22:00:00,1611A,118.5819,24.9117,泉州市,涂山街,,14,12,16,8,8,90,43,80,59,6,6,5,4,0.6,0.6
2023-09-02T22:00:00,1612A,118.5972,24.8978,泉州市,津头埔,,13,10,15,7,10,92,40,79,58,11,10,4,4,0.4,0.6
2023-09-02T22:00:00,1613A,118.6663,24.9424,泉州市,万安,,16,16,19,8,10,98,44,83,64,9,8,2,2,0.6,0.6
2023-09-02T22:00:00,1614A,118.6117,24.9604,泉州市,清源山,,,,,,,,,,,,,,,,
2023-09-02T22:00:00,1616A,117.6795,36.229,济南市,技术学院,颗粒物(PM10),59,68,69,31,38,219,130,203,178,31,24,7,9,1.1,1
2023-09-02T22:00:00,1618A,118.3429,35.0532,临沂市,沂河小区,,38,36,72,20,42,196,120,173,159,14,21,6,11,0.4,0.6
2023-09-02T22:00:00,1619A,118.295,35.0583,临沂市,鲁南制药厂,,38,34,74,16,39,216,119,200,173,9,17,6,7,0.5,0.6
2023-09-02T22:00:00,1620A,118.2794,34.9976,临沂市,新光毛纺厂,,30,29,64,21,43,181,96,168,143,27,20,8,10,0.6,0.9
2023-09-02T22:00:00,1621A,118.3956,35.0888,临沂市,河东保险公司,,34,34,64,18,38,187,102,172,151,14,22,3,5,0.5,0.8
2023-09-02T22:00:00,1622A,116.3032,37.4674,德州市,儿童乐园,细颗粒物(PM2.5),92,102,70,68,39,217,160,200,190,15,22,10,14,1.0,0.9
2023-09-02T22:00:00,1624A,116.2991,37.4451,德州市,监理站,细颗粒物(PM2.5),92,106,66,68,39,217,147,195,178,21,24,7,12,0.8,0.7
2023-09-02T22:00:00,1625A,115.9848,36.4372,聊城市,区政府,细颗粒物(PM2.5),65,72,74,47,53,186,145,180,168,11,14,6,5,0.5,0.6
2023-09-02T22:00:00,1628A,118.0062,37.3803,滨州市,市环保局,颗粒物(PM10),60,70,48,34,26,192,81,173,152,34,24,9,25,0.6,0.5
2023-09-02T22:00:00,1629A,118.0018,37.3617,滨州市,第二水厂,颗粒物(PM10),58,66,47,30,26,200,72,180,151,38,26,5,15,0.8,0.8
2023-09-02T22:00:00,1630A,117.9776,37.393,滨州市,北中新校,颗粒物(PM10),60,70,50,30,25,212,93,186,165,32,24,12,22,0.8,0.7
2023-09-02T22:00:00,1631A,118.0414,36.8103,淄博市,人民公园,颗粒物(PM10),54,58,55,19,22,191,71,152,114,38,36,7,10,0.6,0.8
2023-09-02T22:00:00,1633A,117.8525,36.4847,淄博市,双山,,42,42,59,27,38,230,114,192,165,12,19,7,7,0.3,0.4
2023-09-02T22:00:00,1634A,117.9592,36.6331,淄博市,气象站,颗粒物(PM10),52,53,68,24,41,214,98,180,153,21,27,8,13,0.2,0.2
2023-09-02T22:00:00,1635A,118.3092,36.8194,淄博市,莆田园,颗粒物(PM10),58,66,62,31,30,175,72,157,115,38,35,7,8,0.6,1.2
2023-09-02T22:00:00,1637A,117.558,34.8438,枣庄市,市中区政府,细颗粒物(PM2.5),70,75,102,51,60,237,129,216,186,21,31,10,12,0.5,0.6
2023-09-02T22:00:00,1638A,117.2852,34.7837,枣庄市,薛城环保局,细颗粒物(PM2.5),93,98,93,69,55,216,137,206,174,29,37,10,10,0.7,0.9
2023-09-02T22:00:00,1639A,117.5852,34.7745,枣庄市,峄城区政府,细颗粒物(PM2.5),85,97,107,63,61,226,109,209,172,23,32,13,11,0.7,0.8
2023-09-02T22:00:00,1640A,117.7276,34.5578,枣庄市,台儿庄区环保局,细颗粒物(PM2.5),62,68,88,44,62,197,101,182,142,16,31,8,10,0.7,0.9
2023-09-02T22:00:00,1641A,117.4518,35.0992,枣庄市,山亭区环保局,细颗粒物(PM2.5),98,97,78,73,54,203,106,181,134,20,18,7,8,0.8,0.6
2023-09-02T22:00:00,1642A,121.2514,37.5639,烟台市,开发区,,28,27,35,14,19,134,89,123,108,24,29,4,3,0.9,0.8
2023-09-02T22:00:00,1643A,121.3719,37.5433,烟台市,轴承厂,,,,29,,20,144,86,132,126,14,14,5,5,0.6,0.5
2023-09-02T22:00:00,1644A,121.3181,37.5436,烟台市,西郊化工站,,29,29,27,17,21,135,89,127,121,22,16,7,7,0.7,0.6
2023-09-02T22:00:00,1645A,121.4478,37.4822,烟台市,莱山环保局,,32,24,17,16,14,151,100,136,132,17,13,6,6,0.8,0.6
2023-09-02T22:00:00,1646A,121.2611,37.4967,烟台市,福山环保局,,41,41,46,14,12,128,59,111,89,38,29,9,10,0.8,0.8
2023-09-02T22:00:00,1650A,119.1437,36.7023,潍坊市,环保局,,44,44,45,26,29,157,98,148,134,19,22,8,9,0.3,0.6
2023-09-02T22:00:00,1653A,116.6251,35.4302,济宁市,火炬城,颗粒物(PM10),73,95,87,41,37,201,101,191,166,29,21,6,8,0.8,0.7
2023-09-02T22:00:00,1655A,116.5491,35.4042,济宁市,电化厂,颗粒物(PM10),77,103,88,44,37,208,116,184,154,21,27,8,9,0.8,0.8
2023-09-02T22:00:00,1656A,117.1437,36.1937,泰安市,监测站,细颗粒物(PM2.5),73,68,77,53,52,209,135,192,171,13,12,8,10,0.6,0.8
2023-09-02T22:00:00,1657A,117.0885,36.2017,泰安市,人口学校,,,68,64,47,36,204,,187,171,24,13,5,6,0.7,0.7
2023-09-02T22:00:00,1658A,117.1089,36.1758,泰安市,电力学校,颗粒物(PM10),70,90,75,47,45,208,99,192,165,23,14,8,10,0.6,0.7
2023-09-02T22:00:00,1659A,119.471,35.4209,日照市,监测站,,36,19,34,11,23,160,114,149,134,16,27,5,6,0.6,0.7
2023-09-02T22:00:00,1660A,119.523,35.4216,日照市,市政府广场,,40,24,37,7,22,154,128,145,137,9,14,5,6,0.5,0.6
2023-09-02T22:00:00,1661A,119.5587,35.4044,日照市,港务局,,41,19,42,9,24,154,130,149,143,7,12,7,9,0.4,0.6
2023-09-02T22:00:00,1662A,122.1214,37.4236,威海市,华夏技校,,34,22,21,15,16,137,108,123,102,20,15,7,6,0.7,0.6
2023-09-02T22:00:00,1663A,122.0508,37.5236,威海市,山大分校,,,,34,,23,160,,150,143,24,15,12,10,1.1,0.8
2023-09-02T22:00:00,1664A,122.1067,37.5072,威海市,市监测站,,37,37,34,22,20,136,91,123,115,28,15,11,10,1.1,0.8
2023-09-02T22:00:00,1666A,118.6614,37.4309,东营市,市环保局,,46,46,35,24,21,180,114,163,144,11,13,14,14,0.2,0.4
2023-09-02T22:00:00,1669A,113.5824,24.7733,韶关市,市八中,颗粒物(PM10),54,57,26,20,16,71,69,67,63,13,8,10,11,0.7,0.6
2023-09-02T22:00:00,1671A,113.5917,24.7972,韶关市,园林处,,34,34,23,20,15,75,55,70,66,6,3,9,10,0.7,0.7
2023-09-02T22:00:00,1672A,113.6735,24.7791,韶关市,韶关学院,,34,34,24,19,17,63,31,61,52,13,8,7,7,0.6,0.5
2023-09-02T22:00:00,1673A,113.5971,24.6863,韶关市,曲江监测站,,29,28,26,20,16,72,29,68,60,16,7,7,8,0.7,0.6
2023-09-02T22:00:00,1674A,116.6794,23.3667,汕头市,金平子站,,29,29,17,15,9,97,63,95,66,17,12,6,5,0.8,0.7
2023-09-02T22:00:00,1675A,116.7244,23.3633,汕头市,龙湖子站,细颗粒物(PM2.5),82,20,22,60,64,78,76,76,74,14,13,6,6,0.6,0.6
2023-09-02T22:00:00,1676A,116.7258,23.2775,汕头市,濠江子站,,,,,,,77,69,73,72,7,7,11,11,0.0,0.2
2023-09-02T22:00:00,1677A,116.7519,23.4714,汕头市,澄海子站,,,28,31,,0,64,46,55,55,18,14,1,1,0.1,0.2
2023-09-02T22:00:00,1678A,116.6092,23.2539,汕头市,潮阳子站,细颗粒物(PM2.5),78,27,26,57,60,89,63,79,73,5,5,9,7,0.3,0.4
2023-09-02T22:00:00,1680A,110.3539,21.2706,湛江市,湛江影剧院,,22,16,32,8,16,102,70,91,78,7,9,6,10,0.7,0.7
2023-09-02T22:00:00,1681A,110.3928,21.2228,湛江市,市环境监测站,,22,11,29,12,18,100,69,89,75,7,9,6,8,0.6,0.6
2023-09-02T22:00:00,1682A,110.4019,21.1997,湛江市,环保局宿舍,,23,13,31,10,19,100,71,90,76,5,8,4,6,0.9,0.8
2023-09-02T22:00:00,1683A,110.4111,21.2028,湛江市,霞山游泳场,,23,11,28,10,18,101,73,91,78,7,8,5,8,0.7,0.7
2023-09-02T22:00:00,1684A,110.3316,21.2679,湛江市,麻章区环保局,,25,17,36,17,20,102,69,90,76,8,11,5,7,0.8,0.7
2023-09-02T22:00:00,1685A,110.4558,21.2567,湛江市,坡头区环保局,,24,15,28,12,21,105,75,94,80,7,9,5,9,0.6,0.6
2023-09-02T22:00:00,1686A,111.0286,21.4688,茂名市,电白南海,,20,7,27,5,16,86,63,81,72,8,9,7,9,0.7,0.6
2023-09-02T22:00:00,1687A,110.9294,21.6533,茂名市,茂石化七小,,16,5,23,5,19,76,51,74,63,9,7,6,9,0.6,0.6
2023-09-02T22:00:00,1688A,110.9107,21.6687,茂名市,健康路,,18,7,20,2,13,81,57,78,67,7,6,5,7,0.7,0.6
2023-09-02T22:00:00,1689A,110.8592,21.6828,茂名市,高岭,,25,14,24,7,20,81,56,77,64,15,11,75,11,0.8,0.7
2023-09-02T22:00:00,1690A,116.1231,24.3284,梅州市,梅江月梅,,20,20,16,6,6,54,10,39,25,19,8,3,3,0.6,0.6
2023-09-02T22:00:00,1691A,116.0797,24.2719,梅州市,梅县新城,,19,19,16,8,8,58,10,47,32,21,10,6,6,0.8,0.7
2023-09-02T22:00:00,1692A,116.1248,24.2654,梅州市,环境监控中心,,22,22,17,8,7,56,12,45,29,15,10,7,8,0.6,0.5
2023-09-02T22:00:00,1693A,115.3653,22.775,汕尾市,市环保局,,,,,,,,,,,,,,,,
2023-09-02T22:00:00,1694A,115.3706,22.7898,汕尾市,市政府,,,,,22,24,73,66,73,71,5,5,7,10,0.9,1
2023-09-02T22:00:00,1695A,115.3622,22.7925,汕尾市,新城中学,,,34,14,11,7,88,,81,80,5,3,6,6,0.8,0.9
2023-09-02T22:00:00,1696A,114.6778,23.7569,河源市,源西,,22,20,21,15,12,58,6,52,33,18,12,4,4,0.8,0.7
2023-09-02T22:00:00,1697A,114.6944,23.7586,河源市,东埔,,21,21,20,9,10,57,14,51,37,16,8,5,5,0.7,0.6
2023-09-02T22:00:00,1698A,114.6892,23.7233,河源市,老城,,14,14,23,6,10,58,17,51,37,16,8,4,4,0.6,0.6
2023-09-02T22:00:00,1699A,111.9797,21.8593,阳江市,鸳鸯湖,,25,15,10,12,12,81,77,72,72,3,5,4,4,0.7,0.6
2023-09-02T22:00:00,1701A,111.9491,21.8658,阳江市,马南垌,,24,8,10,9,6,83,76,71,71,2,3,4,5,0.4,0.4
2023-09-02T22:00:00,1702A,113.0426,23.691,清远市,环保大楼,,29,26,19,20,15,69,48,65,61,6,3,6,6,0.7,0.6
2023-09-02T22:00:00,1703A,113.0208,23.7106,清远市,凤城街办,,,35,23,14,13,57,,53,52,11,6,6,7,0.7,0.5
2023-09-02T22:00:00,1705A,116.6367,23.6719,潮州市,西园路,,34,34,15,11,10,60,6,60,25,24,9,5,4,0.9,0.4
2023-09-02T22:00:00,1706A,116.6447,23.6706,潮州市,档案局,,24,24,18,9,6,62,12,61,35,14,9,7,5,0.7,0.6
2023-09-02T22:00:00,1708A,116.3701,23.5345,揭阳市,新兴,,36,36,19,12,10,75,15,62,36,32,10,35,10,1.0,0.7
2023-09-02T22:00:00,1709A,116.3264,23.5443,揭阳市,西马,,34,34,19,10,9,83,12,65,37,24,9,16,8,1.0,0.7
2023-09-02T22:00:00,1710A,116.3611,23.5626,揭阳市,东兴,,25,25,21,11,8,77,13,60,33,28,16,4,7,0.8,0.8
2023-09-02T22:00:00,1711A,116.4151,23.5294,揭阳市,渔湖,,45,45,19,15,9,73,8,64,39,46,13,27,6,1.0,0.7
2023-09-02T22:00:00,1712A,112.0392,22.9169,云浮市,新市府,,21,21,10,8,8,59,48,55,50,11,8,6,11,0.8,0.7
2023-09-02T22:00:00,1714A,112.0539,22.9539,云浮市,牧羊,,16,16,9,10,7,57,46,55,53,15,9,6,19,0.6,0.6
2023-09-02T22:00:00,1715A,102.575,24.3711,玉溪市,东风水库,,35,35,25,17,17,133,95,114,103,9,9,5,7,0.7,0.8
2023-09-02T22:00:00,1718A,115.4208,35.2464,菏泽市,气象局,"颗粒物(PM10),细颗粒物(PM2.5)",70,89,76,51,43,205,138,194,177,21,24,4,5,0.6,0.6
2023-09-02T22:00:00,1719A,115.4747,35.2375,菏泽市,市政协,"颗粒物(PM10),细颗粒物(PM2.5)",64,77,78,46,46,218,139,206,188,19,23,4,7,0.7,0.6
2023-09-02T22:00:00,1721A,113.3819,40.1097,大同市,果树场,,,,,,,,,,,,,,,,
2023-09-02T22:00:00,1723A,113.2994,40.0758,大同市,云冈宾馆,,40,21,39,15,22,153,127,132,114,12,24,7,9,0.5,0.7
2023-09-02T22:00:00,1724A,113.3444,40.0917,大同市,大同大学,,40,36,38,16,21,151,126,133,117,20,20,8,10,0.4,0.5
2023-09-02T22:00:00,1725A,113.2661,40.1269,大同市,安家小村,,39,37,42,16,19,137,124,123,112,8,16,9,11,0.4,0.6
2023-09-02T22:00:00,1726A,113.2711,40.0844,大同市,教育学院,,40,39,51,10,24,146,126,123,109,14,30,5,7,0.5,0.7
2023-09-02T22:00:00,1727A,113.1147,36.1547,长治市,清华站,,43,43,47,27,30,148,127,138,135,16,14,12,11,0.6,0.6
2023-09-02T22:00:00,1728A,113.1031,36.1989,长治市,监测站,,48,48,46,29,32,158,143,149,148,17,18,12,7,0.6,0.8
2023-09-02T22:00:00,1730A,113.0886,36.2125,长治市,审计局,,47,47,45,27,34,148,122,140,136,18,14,8,8,0.9,1.1
2023-09-02T22:00:00,1731A,113.0844,36.1856,长治市,长治八中,,45,45,52,25,29,146,117,138,134,20,16,10,10,0.5,0.8
2023-09-02T22:00:00,1733A,111.5531,36.0783,临汾市,临钢医院,颗粒物(PM10),51,51,62,23,26,181,110,156,134,19,28,11,10,0.7,0.8
2023-09-02T22:00:00,1734A,111.5028,36.0714,临汾市,技工学校,颗粒物(PM10),54,58,68,37,38,170,105,147,128,19,22,10,10,0.7,0.9
2023-09-02T22:00:00,1736A,111.5018,36.0855,临汾市,市委,颗粒物(PM10),54,57,70,23,31,162,102,141,124,19,22,10,10,0.6,0.7
2023-09-02T22:00:00,1738A,113.5758,37.8572,阳泉市,市中心,颗粒物(PM10),66,82,71,46,46,172,138,151,144,18,19,11,20,1.5,1.3
2023-09-02T22:00:00,1739A,113.4894,37.8731,阳泉市,赛鱼,细颗粒物(PM2.5),79,93,70,58,49,168,69,145,131,26,19,8,10,1.4,1
2023-09-02T22:00:00,1740A,113.5819,37.8486,阳泉市,南庄,细颗粒物(PM2.5),89,114,101,66,48,177,136,154,147,17,18,13,25,1.5,1.2
2023-09-02T22:00:00,1742A,113.5614,37.8703,阳泉市,平坦,细颗粒物(PM2.5),99,93,88,74,56,175,145,153,149,14,18,10,19,1.3,1.1
2023-09-02T22:00:00,1743A,113.5158,37.8392,阳泉市,大阳泉,细颗粒物(PM2.5),100,99,67,75,51,166,123,148,139,13,14,9,13,1.4,0.9
2023-09-02T22:00:00,1744A,118.9233,42.2816,赤峰市,松山一中,,44,25,25,18,10,138,138,128,128,17,28,12,11,0.6,0.4
2023-09-02T22:00:00,1745A,118.9576,42.2728,赤峰市,哈达街,,41,41,22,25,12,134,119,121,121,19,21,18,15,0.5,0.3
2023-09-02T22:00:00,1746A,118.8788,42.2554,赤峰市,天义路,,45,22,19,13,9,146,144,139,139,12,19,12,18,0.4,0.2
2023-09-02T22:00:00,1748A,123.044,41.1196,鞍山市,深沟寺,,49,46,32,34,16,157,95,135,116,28,17,13,8,1.6,0.9
2023-09-02T22:00:00,1749A,123.011,41.0931,鞍山市,太阳城,颗粒物(PM10),63,76,39,42,18,157,92,138,120,26,20,12,9,2.2,1.1
2023-09-02T22:00:00,1750A,123.0485,41.1442,鞍山市,太平,颗粒物(PM10),86,122,82,36,19,155,113,138,118,28,25,22,12,1.8,1
2023-09-02T22:00:00,1751A,122.9642,41.0971,鞍山市,铁西三道街,颗粒物(PM10),79,107,56,48,24,153,102,138,114,33,32,20,12,1.5,1.4
2023-09-02T22:00:00,1752A,122.9341,41.0833,鞍山市,铁西工业园区,细颗粒物(PM2.5),69,81,51,50,24,157,70,142,115,36,25,12,13,1.4,1.3
2023-09-02T22:00:00,1753A,123.022,41.0821,鞍山市,明达新区,颗粒物(PM10),52,53,36,34,17,152,102,134,119,30,20,14,9,1.8,1.1
2023-09-02T22:00:00,1754A,123.1289,41.0228,鞍山市,千山,,,,,,,,,,,,,,,,
2023-09-02T22:00:00,1755A,123.7977,41.8491,抚顺市,望花区,颗粒物(PM10),55,60,53,38,30,164,33,142,112,43,28,13,18,0.8,0.9
2023-09-02T22:00:00,1756A,123.9161,41.8822,抚顺市,顺城区,颗粒物(PM10),60,69,45,36,22,158,3,140,82,61,29,7,10,0.8,0.7
2023-09-02T22:00:00,1757A,124.0436,41.8611,抚顺市,东洲区,,34,34,30,14,15,144,65,133,105,10,11,7,8,0.5,0.6
2023-09-02T22:00:00,1758A,123.9247,41.8642,抚顺市,新抚区,颗粒物(PM10),71,91,44,24,16,154,6,139,91,47,24,6,9,0.8,0.7
2023-09-02T22:00:00,1759A,124.0972,41.8961,抚顺市,大伙房水库,,18,18,24,10,13,142,38,127,98,11,8,5,6,0.4,0.5
2023-09-02T22:00:00,1760A,123.7086,41.8391,抚顺市,沈抚新城,颗粒物(PM10),53,56,54,24,23,149,43,128,96,35,30,12,18,0.8,1.2
2023-09-02T22:00:00,1761A,123.8275,41.3064,本溪市,大峪,,41,41,40,8,13,111,31,95,70,26,21,5,6,0.6,0.9
2023-09-02T22:00:00,1762A,123.7567,41.3325,本溪市,溪湖,颗粒物(PM10),54,57,53,19,24,117,10,97,67,39,25,8,11,1.0,1.5
2023-09-02T22:00:00,1763A,123.7169,41.3094,本溪市,彩屯,,47,47,60,23,32,119,18,92,57,33,28,8,12,1.0,2
2023-09-02T22:00:00,1764A,123.7669,41.2864,本溪市,东明,颗粒物(PM10),62,74,48,29,19,120,9,102,64,54,32,6,8,0.9,1
2023-09-02T22:00:00,1765A,123.7992,41.2664,本溪市,新立屯,,29,29,27,9,11,112,18,88,49,50,27,8,8,0.6,0.7
2023-09-02T22:00:00,1766A,123.8142,41.3472,本溪市,威宁,,41,41,40,15,19,98,11,78,44,27,21,6,6,0.7,0.9
2023-09-02T22:00:00,1767A,121.1115,41.0879,锦州市,南山,细颗粒物(PM2.5),74,47,46,54,33,160,134,143,138,36,31,13,16,1.1,0.9
2023-09-02T22:00:00,1768A,121.0533,40.8434,锦州市,开发区,颗粒物(PM10),58,65,71,21,29,199,123,169,168,28,41,66,43,1.0,1.1
2023-09-02T22:00:00,1769A,121.1836,41.1119,锦州市,百股街道,臭氧1小时,57,44,33,27,16,170,165,148,148,23,24,18,23,1.1,0.7
2023-09-02T22:00:00,1770A,121.1178,41.1222,锦州市,天安街道,颗粒物(PM10),54,58,51,29,24,161,138,139,135,30,30,15,17,1.3,1
2023-09-02T22:00:00,1771A,121.1303,41.1386,锦州市,北湖公园,细颗粒物(PM2.5),60,50,42,43,27,167,149,142,139,28,29,16,19,1.0,0.8
2023-09-02T22:00:00,1772A,126.54,43.8622,吉林市,哈达湾,,49,49,23,29,12,118,16,110,86,54,18,6,7,0.8,0.6
2023-09-02T22:00:00,1773A,126.5844,43.8358,吉林市,东局子,,31,31,20,15,11,114,45,104,89,26,13,6,6,0.7,0.6
2023-09-02T22:00:00,1774A,126.5052,43.8245,吉林市,电力学院,颗粒物(PM10),62,74,45,43,23,69,10,69,28,36,27,8,8,0.9,0.7
2023-09-02T22:00:00,1775A,126.6133,43.8972,吉林市,江北,,41,41,27,20,13,111,24,105,77,40,17,8,8,0.6,0.6
2023-09-02T22:00:00,1776A,126.555,43.8306,吉林市,江南公园,,28,28,23,16,14,118,42,108,84,23,16,6,6,0.8,0.7
2023-09-02T22:00:00,1778A,126.7061,43.7133,吉林市,丰满,,,,,,,,,,,,,,,,
2023-09-02T22:00:00,1779A,123.9305,47.3636,齐齐哈尔市,安居小区,,40,40,40,11,14,86,80,79,79,9,17,5,6,0.3,0.4
2023-09-02T22:00:00,1780A,123.9488,47.3386,齐齐哈尔市,中心广场,,25,20,23,14,16,86,77,77,77,10,15,4,4,0.3,0.4
2023-09-02T22:00:00,1781A,123.9483,47.3227,齐齐哈尔市,农牧车辆厂,,29,29,38,5,10,90,79,82,82,8,14,8,8,0.3,0.4
2023-09-02T22:00:00,1783A,123.945,47.2988,齐齐哈尔市,市环境监测站,,26,14,23,15,13,96,81,86,85,8,10,9,6,0.2,0.3
2023-09-02T22:00:00,1784A,129.61,44.561,牡丹江市,环保大楼,,23,15,16,16,10,79,23,74,50,21,13,5,5,0.5,0.4
2023-09-02T22:00:00,1785A,129.6115,44.5782,牡丹江市,文化广场,,40,40,20,28,16,74,4,69,46,37,14,7,6,1.0,0.4
2023-09-02T22:00:00,1786A,129.5904,44.5963,牡丹江市,第一医院,,32,32,23,22,16,71,13,66,39,22,13,5,5,0.4,0.4
2023-09-02T22:00:00,1787A,129.6364,44.6075,牡丹江市,机车工厂,,33,33,19,14,10,73,21,68,48,14,12,4,3,0.6,0.5
2023-09-02T22:00:00,1788A,129.6386,44.5462,牡丹江市,第一中学,,22,22,18,10,6,78,11,74,45,22,11,5,5,0.4,0.4
2023-09-02T22:00:00,1789A,124.81117,46.03138,大庆市,大同区,,,21,23,18,13,95,,89,88,9,9,8,7,0.4,0.3
2023-09-02T22:00:00,1790A,125.129,46.533,大庆市,龙凤区,,25,19,33,17,9,92,69,84,79,7,15,2,3,0.3,0.4
2023-09-02T22:00:00,1791A,124.902,46.408,大庆市,红岗区,,25,15,20,7,11,100,79,89,86,8,9,3,4,0.4,0.5
2023-09-02T22:00:00,1792A,125.153,46.586,大庆市,萨尔图区,,22,19,26,8,12,87,70,82,78,9,14,6,6,0.2,0.3
2023-09-02T22:00:00,1793A,124.9042,46.6215,大庆市,让胡路区,,26,25,21,7,9,91,83,86,85,9,11,5,5,0.3,0.4
2023-09-02T22:00:00,1794A,118.3606,31.3519,芜湖市,监测站,,45,45,33,27,20,164,115,150,142,20,15,6,6,0.5,0.6
2023-09-02T22:00:00,1795A,118.3714,31.4134,芜湖市,科创中心,颗粒物(PM10),51,52,39,26,22,163,96,147,136,49,34,8,7,0.7,0.7
2023-09-02T22:00:00,1796A,118.3673,31.3131,芜湖市,四水厂,颗粒物(PM10),52,54,36,23,18,172,122,156,149,23,19,4,4,0.5,0.5
2023-09-02T22:00:00,1798A,118.5092,31.6837,马鞍山市,湖东路四小,,50,50,33,32,20,175,99,161,148,19,18,24,10,0.5,0.4
2023-09-02T22:00:00,1799A,118.5024,31.6449,马鞍山市,开发区,,,,30,24,20,180,121,164,154,15,17,7,7,0.7,0.7
2023-09-02T22:00:00,1800A,118.5228,31.7231,马鞍山市,慈湖,,44,44,35,24,21,196,110,174,161,20,19,9,12,0.6,0.6
2023-09-02T22:00:00,1802A,118.6245,31.7241,马鞍山市,濮塘,,32,32,26,21,21,161,84,149,134,13,10,4,4,0.8,0.8
2023-09-02T22:00:00,1803A,115.9872,29.6815,九江市,十里,,43,42,34,26,18,149,135,138,138,14,13,10,11,0.7,0.7
2023-09-02T22:00:00,1804A,115.9584,29.7046,九江市,茅山头,,44,37,31,26,19,140,140,134,134,14,17,9,9,0.8,0.7
2023-09-02T22:00:00,1805A,115.9877,29.7295,九江市,西园,,46,34,29,26,20,147,147,139,139,15,16,11,11,0.7,0.6
2023-09-02T22:00:00,1806A,116.0172,29.6547,九江市,五七二七厂,,49,49,30,24,21,151,127,134,129,11,11,9,11,0.6,0.7
2023-09-02T22:00:00,1808A,115.9114,29.6038,九江市,综合工业园,,49,49,38,25,20,155,140,146,142,12,16,11,13,0.7,0.7
2023-09-02T22:00:00,1809A,116.0721,29.7535,九江市,石化总厂,,48,44,34,26,18,151,151,140,140,14,16,10,10,0.9,0.8
2023-09-02T22:00:00,1810A,115.9773,29.5698,九江市,庐山气象台,,36,36,18,24,16,95,52,66,54,46,55,7,10,0.8,0.7
2023-09-02T22:00:00,1812A,112.3931,34.6516,洛阳市,市委党校,,49,47,63,32,45,166,155,155,152,6,14,7,8,0.4,0.5
2023-09-02T22:00:00,1814A,112.4657,34.6871,洛阳市,豫西宾馆,,45,41,60,27,41,158,142,148,141,12,13,3,5,0.8,0.8
2023-09-02T22:00:00,1815A,112.494,34.6886,洛阳市,河南林校,,42,42,57,25,35,161,107,149,136,18,17,5,6,0.4,0.5
2023-09-02T22:00:00,1816A,112.3844,34.623,洛阳市,开发区管委会,,47,47,60,25,32,164,140,153,146,10,17,1,3,0.4,0.4
2023-09-02T22:00:00,1817A,112.4267,34.6258,洛阳市,市委新办公区,细颗粒物(PM2.5),52,45,62,36,50,161,142,147,143,4,7,4,5,0.4,0.5
2023-09-02T22:00:00,1818A,114.4839,36.0621,安阳市,棉研所,,,,,,,,,,,,,,,,
2023-09-02T22:00:00,1819A,114.3551,36.1017,安阳市,红庙街,颗粒物(PM10),60,70,82,40,49,178,125,171,160,14,20,2,4,0.8,0.9
2023-09-02T22:00:00,1820A,114.361,36.0681,安阳市,银杏小区,,,62,68,,,183,119,175,164,14,14,4,5,0.7,0.7
2023-09-02T22:00:00,1824A,114.3389,34.7781,开封市,肿瘤医院,颗粒物(PM10),66,82,67,47,39,184,83,173,144,35,15,4,7,0.7,0.7
2023-09-02T22:00:00,1826A,114.2885,34.7965,开封市,世纪星幼儿园,,,83,63,,36,185,104,177,150,25,20,5,9,0.7,1
2023-09-02T22:00:00,1828A,113.227,35.2125,焦作市,市环保局,颗粒物(PM10),65,80,60,43,38,193,135,178,173,19,13,4,7,0.6,0.6
2023-09-02T22:00:00,1830A,113.1992,35.2590,焦作市,影视城,,,,,,,,,,,,,,,,
2023-09-02T22:00:00,1832A,113.3257,33.742,平顶山市,新华旅馆,颗粒物(PM10),73,95,59,35,30,177,89,166,148,39,28,3,6,0.6,0.6
2023-09-02T22:00:00,1833A,113.2919,33.737,平顶山市,规划设计院,细颗粒物(PM2.5),69,63,51,50,31,174,95,164,152,33,26,6,9,0.9,0.7
2023-09-02T22:00:00,1834A,113.182,33.774,平顶山市,平顶山工学院,颗粒物(PM10),61,72,65,31,27,179,144,172,164,10,19,5,8,0.5,0.5
2023-09-02T22:00:00,1835A,111.1922,34.7752,三门峡市,市政府,,42,36,47,18,29,144,133,139,136,14,10,6,6,0.6,0.6
2023-09-02T22:00:00,1836A,111.1587,34.7942,三门峡市,开发区,,44,44,63,25,36,148,113,144,135,25,15,6,6,0.5,0.6
2023-09-02T22:00:00,1838A,111.143,34.7955,三门峡市,风景区,,,,,,,,,,,,,,,,
2023-09-02T22:00:00,1840A,111.2992,30.6981,宜昌市,白龙岗,,39,39,37,22,17,165,88,150,133,29,18,3,2,0.5,0.5
2023-09-02T22:00:00,1841A,111.3549,30.6465,宜昌市,伍家岗,,35,27,27,24,20,160,91,150,133,26,18,6,5,0.5,0.5
2023-09-02T22:00:00,1842A,111.2628,30.6961,宜昌市,点军区,细颗粒物(PM2.5),62,53,36,44,19,177,76,160,139,17,16,8,7,0.6,0.5
2023-09-02T22:00:00,1843A,111.3275,30.7819,宜昌市,夷陵区,颗粒物(PM10),52,54,34,27,18,163,82,152,130,21,18,5,5,0.4,0.4
2023-09-02T22:00:00,1844A,112.2494,30.3197,荆州市,市图书馆,,46,46,37,32,21,164,128,152,144,16,14,11,11,0.7,0.6
2023-09-02T22:00:00,1845A,112.2008,30.3544,荆州市,市委党校,颗粒物(PM10),52,54,40,29,21,158,114,150,140,25,19,12,12,0.8,0.7
2023-09-02T22:00:00,1847A,113.1094,29.3578,岳阳市,南湖风景区,细颗粒物(PM2.5),59,53,38,42,28,166,87,147,131,27,16,11,10,0.8,0.6
2023-09-02T22:00:00,1848A,113.1493,29.4251,岳阳市,城陵矶,细颗粒物(PM2.5),60,55,46,43,27,157,64,133,114,28,22,9,11,1.0,0.9
2023-09-02T22:00:00,1849A,113.1497,29.3575,岳阳市,开发区,细颗粒物(PM2.5),59,53,39,42,26,170,98,149,133,21,16,9,10,0.7,0.7
2023-09-02T22:00:00,1850A,113.2621,29.4758,岳阳市,云溪区,细颗粒物(PM2.5),77,70,42,56,29,171,98,146,132,16,14,10,9,0.7,0.6
2023-09-02T22:00:00,1851A,112.9943,29.4402,岳阳市,君山区,细颗粒物(PM2.5),70,60,40,51,31,150,90,131,117,16,13,9,9,0.8,0.6
2023-09-02T22:00:00,1852A,113.2117,29.355,岳阳市,金凤水库,细颗粒物(PM2.5),60,53,38,43,24,176,109,155,142,15,19,6,6,0.6,0.5
2023-09-02T22:00:00,1854A,111.6975,28.9703,常德市,市二中,,,,37,,22,157,112,151,142,14,8,7,8,1.0,0.7
2023-09-02T22:00:00,1857A,111.7158,29.1456,常德市,白鹤山,,,,,,,,,,,,,,,,
2023-09-02T22:00:00,1858A,110.5319,29.1217,张家界市,永定新区,,,42,42,30,28,118,,114,113,25,18,6,6,0.4,0.3
2023-09-02T22:00:00,1859A,110.4697,29.1242,张家界市,电业局,,41,41,40,28,25,138,83,132,122,20,14,4,4,0.5,0.4
2023-09-02T22:00:00,1860A,110.5594,29.3547,张家界市,未央路,,35,30,32,24,18,132,72,124,112,10,6,3,4,0.4,0.4
2023-09-02T22:00:00,1861A,110.4417,29.315,张家界市,袁家界,,45,25,26,14,15,145,144,135,134,5,5,8,8,0.7,0.7
2023-09-02T22:00:00,1862A,110.4144,25.3167,桂林市,电子科大尧山校区,,32,25,35,21,23,127,100,122,85,8,8,4,4,0.7,0.7
2023-09-02T22:00:00,1863A,110.2819,25.2697,桂林市,监测站,,40,40,42,15,20,135,82,124,101,20,12,8,9,0.8,0.7
2023-09-02T22:00:00,1864A,110.3089,25.2708,桂林市,龙隐路小学,,38,33,36,26,26,135,86,123,104,13,8,6,9,0.7,0.6
2023-09-02T22:00:00,1865A,110.2869,25.2178,桂林市,八中,,41,41,37,25,23,141,83,128,106,20,13,5,7,0.7,0.7
2023-09-02T22:00:00,1866A,109.2262,21.588,北海市,牛尾岭水库,,29,17,28,6,20,106,90,95,93,9,10,5,6,0.6,0.6
2023-09-02T22:00:00,1867A,109.1436,21.4086,北海市,海滩公园,,32,27,40,17,21,119,101,109,105,8,8,5,6,0.6,0.6
2023-09-02T22:00:00,1868A,109.0981,21.4661,北海市,新市环保局,,33,24,36,19,23,123,104,115,110,7,8,5,6,0.6,0.6
2023-09-02T22:00:00,1869A,109.1778,21.5233,北海市,北海工业园,,33,28,40,22,25,120,104,109,106,7,10,7,9,0.6,0.7
2023-09-02T22:00:00,1870A,109.4856,24.3895,柳州市,柳东小学,,,25,34,26,32,101,,96,85,6,7,7,8,0.5,0.5
2023-09-02T22:00:00,1871A,109.4157,24.3277,柳州市,环保监测站,,43,28,37,30,26,108,83,101,88,7,10,4,8,0.4,0.4
2023-09-02T22:00:00,1872A,109.389,24.341,柳州市,河西水厂,,36,36,52,24,33,99,72,86,82,12,27,5,15,0.6,1
2023-09-02T22:00:00,1873A,109.4311,24.2921,柳州市,市四中,,28,19,34,19,23,112,89,105,92,10,11,8,10,0.7,0.7
2023-09-02T22:00:00,1874A,109.4006,24.3631,柳州市,市九中,,36,36,44,23,24,108,62,99,80,12,12,6,9,0.8,0.5
2023-09-02T22:00:00,1875A,109.4958,24.3134,柳州市,古亭山,,30,24,32,19,24,110,94,104,95,9,9,5,7,0.6,0.5
2023-09-02T22:00:00,1876A,109.5078,18.2489,三亚市,河东子站,,28,28,36,16,20,150,80,139,109,8,10,3,3,0.4,0.6
2023-09-02T22:00:00,1877A,109.4964,18.2681,三亚市,河西子站,,25,24,33,17,19,140,77,131,102,7,9,2,2,0.3,0.4
2023-09-02T22:00:00,1878A,104.7778,31.4741,绵阳市,富乐山,,29,28,32,20,23,170,87,140,132,32,18,3,4,0.7,0.7
2023-09-02T22:00:00,1879A,104.7563,31.4535,绵阳市,市人大,,46,39,39,32,26,164,57,140,128,74,28,11,9,0.8,0.7
2023-09-02T22:00:00,1880A,104.6697,31.4668,绵阳市,高新区自来水公司,颗粒物(PM10),62,73,47,30,25,158,24,147,125,97,33,8,8,0.5,0.4
2023-09-02T22:00:00,1881A,104.7287,31.5075,绵阳市,三水厂,,44,44,37,22,21,175,37,162,124,76,36,7,8,0.5,0.5
2023-09-02T22:00:00,1882A,104.563,28.793,宜宾市,石马中学,,,,,,,,,,,,,,,,
2023-09-02T22:00:00,1883A,104.6201,28.7728,宜宾市,市委,,48,48,48,30,35,180,77,161,142,35,19,9,9,0.7,0.7
2023-09-02T22:00:00,1884A,104.6055,28.793,宜宾市,宜宾四中,细颗粒物(PM2.5),59,66,48,42,36,185,20,163,131,81,21,6,8,0.9,0.7
2023-09-02T22:00:00,1885A,104.639,28.7562,宜宾市,市政府,,48,47,49,33,34,175,55,154,135,56,29,13,10,0.8,0.7
2023-09-02T22:00:00,1886A,104.5742,28.7199,宜宾市,黄金嘴,,,49,44,31,33,185,,164,162,44,22,10,9,0.7,0.6
2023-09-02T22:00:00,1888A,101.6891,26.571,攀枝花市,弄弄坪,,33,33,26,17,12,122,70,107,103,18,11,11,9,0.9,1
2023-09-02T22:00:00,1889A,101.5769,26.5928,攀枝花市,河门口,,24,24,16,16,11,110,67,100,93,10,12,8,8,0.7,0.7
2023-09-02T22:00:00,1890A,101.7169,26.585,攀枝花市,炳草岗,,40,40,26,27,14,142,50,123,110,39,20,16,14,1.7,1.4
2023-09-02T22:00:00,1891A,101.7369,26.5008,攀枝花市,仁和,,38,38,28,21,19,155,47,137,119,21,22,6,14,0.7,1.5
2023-09-02T22:00:00,1893A,105.4324,28.9634,泸州市,九狮山,,46,46,42,26,26,123,46,105,88,16,14,3,5,0.6,0.4
2023-09-02T22:00:00,1894A,105.4427,28.9063,泸州市,小市上码头,颗粒物(PM10),52,53,55,34,41,197,116,172,152,18,14,5,7,0.6,0.6
2023-09-02T22:00:00,1895A,105.4241,28.8573,泸州市,兰田宪桥,颗粒物(PM10),59,67,54,38,44,211,78,183,149,30,12,5,6,0.6,0.6
2023-09-02T22:00:00,1896A,105.4379,28.8833,泸州市,市环监站,,50,50,53,31,35,171,89,151,132,35,18,4,7,0.6,0.5
2023-09-02T22:00:00,1901A,104.4239,31.1208,德阳市,东山公园,颗粒物(PM10),52,54,50,24,24,188,140,173,168,13,16,2,3,0.6,0.6
2023-09-02T22:00:00,1902A,104.3826,31.1317,德阳市,西小区,颗粒物(PM10),59,67,60,41,32,205,82,183,172,59,32,1,3,0.8,0.7
2023-09-02T22:00:00,1904A,104.3553,31.1091,德阳市,耐火材料厂,"颗粒物(PM10),细颗粒物(PM2.5)",78,106,65,57,33,238,100,203,189,44,29,3,4,1.0,0.8
2023-09-02T22:00:00,1905A,106.056,30.8064,南充市,西山风景区,,43,27,28,23,25,143,135,136,136,6,6,8,7,0.5,0.5
2023-09-02T22:00:00,1906A,106.0789,30.8023,南充市,南充市委,细颗粒物(PM2.5),70,64,45,51,32,149,26,142,117,57,17,9,11,0.7,0.5
2023-09-02T22:00:00,1907A,106.1031,30.8217,南充市,南充炼油厂,颗粒物(PM10),61,72,44,34,28,154,57,142,129,51,16,12,12,0.7,0.4
2023-09-02T22:00:00,1908A,106.1064,30.7856,南充市,高坪区监测站,细颗粒物(PM2.5),68,68,44,49,33,156,85,144,128,30,21,10,10,0.4,0.4
2023-09-02T22:00:00,1909A,106.0642,30.7636,南充市,嘉陵区环保局,颗粒物(PM10),57,63,48,34,31,153,29,147,117,67,26,10,10,0.6,0.4
2023-09-02T22:00:00,1910A,106.1087,30.8388,南充市,市环境监测站,细颗粒物(PM2.5),52,52,45,36,33,145,68,136,124,49,22,11,8,0.6,0.4
2023-09-02T22:00:00,1911A,106.9222,27.6869,遵义市,丁字口,,39,39,31,27,21,136,63,130,108,32,23,5,6,0.9,0.7
2023-09-02T22:00:00,1912A,106.9242,27.7019,遵义市,凤凰山,,48,35,33,33,28,154,100,144,126,23,15,13,9,0.9,0.6
2023-09-02T22:00:00,1913A,106.8906,27.6486,遵义市,忠庄,颗粒物(PM10),63,75,32,31,19,158,76,144,117,21,17,4,4,0.7,0.5
2023-09-02T22:00:00,1914A,106.9231,27.6506,遵义市,舟水桥,颗粒物(PM10),62,73,43,36,25,161,36,145,104,36,18,2,3,0.8,0.7
2023-09-02T22:00:00,1915A,106.9178,27.72,遵义市,干田坝,颗粒物(PM10),54,57,33,37,20,150,76,142,116,23,17,6,7,0.7,0.7
2023-09-02T22:00:00,1916A,103.7897,25.5035,曲靖市,环境监测站,,30,30,33,6,15,114,83,100,88,14,17,7,8,0.5,0.8
2023-09-02T22:00:00,1917A,103.8,25.5364,曲靖市,烟厂办公区,,30,30,36,20,18,107,76,100,91,14,14,8,8,0.6,0.7
2023-09-02T22:00:00,1918A,108.7197,34.3956,咸阳市,气象站,,,,,,,,,,,,,,,,
2023-09-02T22:00:00,1919A,108.673,34.3155,咸阳市,实验中学,,,,,,,,,,,,,,,,
2023-09-02T22:00:00,1920A,108.7233,34.3617,咸阳市,师范学院,颗粒物(PM10),55,60,62,30,37,190,80,162,136,33,29,3,4,0.7,0.8
2023-09-02T22:00:00,1922A,109.0656,35.0994,铜川市,党校,,45,45,47,25,27,140,31,130,97,29,22,11,12,0.7,0.8
2023-09-02T22:00:00,1923A,109.0697,35.0697,铜川市,王益区政府,,48,48,42,27,27,141,41,132,102,21,20,5,6,0.6,0.6
2023-09-02T22:00:00,1924A,108.9344,34.9058,铜川市,新区管委会,颗粒物(PM10),54,58,47,30,27,153,83,142,124,32,17,7,6,0.7,0.7
2023-09-02T22:00:00,1926A,109.4131,36.6275,延安市,枣园,,35,35,32,17,16,130,105,123,114,14,21,7,6,0.5,0.5
2023-09-02T22:00:00,1927A,109.4761,36.6028,延安市,延大医附院,,35,29,33,19,18,130,111,124,116,7,21,5,5,0.6,0.6
2023-09-02T22:00:00,1929A,109.5056,36.6106,延安市,百米大道,,40,40,42,17,20,129,106,121,112,11,22,5,9,0.6,0.8
2023-09-02T22:00:00,1930A,107.185,34.3063,宝鸡市,庙沟村,,47,47,37,28,25,141,88,132,120,25,16,8,8,0.3,0.2
2023-09-02T22:00:00,1931A,107.0708,34.3017,宝鸡市,竹园沟,,40,37,31,28,22,184,76,162,140,24,14,5,5,0.6,0.6
2023-09-02T22:00:00,1932A,107.1906,34.3672,宝鸡市,三陆医院,颗粒物(PM10),56,61,58,35,34,171,82,161,148,36,28,7,12,0.7,0.7
2023-09-02T22:00:00,1933A,107.1431,34.3547,宝鸡市,监测站,,50,50,44,34,26,172,67,157,140,41,25,7,8,0.7,0.5
2023-09-02T22:00:00,1934A,107.1186,34.3739,宝鸡市,技工学校,细颗粒物(PM2.5),59,62,52,42,33,174,94,165,150,28,20,8,8,0.7,0.6
2023-09-02T22:00:00,1935A,107.3906,34.3528,宝鸡市,陈仓区环保局家属楼,颗粒物(PM10),74,98,58,37,27,170,56,155,134,75,36,9,8,0.8,0.7
2023-09-02T22:00:00,1936A,107.2058,34.3497,宝鸡市,文理学院,颗粒物(PM10),66,81,50,36,27,178,58,161,143,50,21,6,6,0.7,0.6
2023-09-02T22:00:00,1937A,107.2386,34.3622,宝鸡市,三迪小学,颗粒物(PM10),64,77,54,26,33,165,77,155,140,35,23,6,8,0.6,0.6
2023-09-02T22:00:00,1938A,109.5293,34.5101,渭南市,农科所,颗粒物(PM10),58,66,46,39,30,151,24,132,101,77,22,5,5,0.5,0.4
2023-09-02T22:00:00,1939A,109.4974,34.4877,渭南市,日报社,细颗粒物(PM2.5),74,75,50,54,35,163,49,144,120,34,27,4,5,0.6,0.4
2023-09-02T22:00:00,1940A,109.4636,34.493,渭南市,体育馆,颗粒物(PM10),57,63,50,34,30,162,32,146,124,70,34,3,4,0.6,0.6
2023-09-02T22:00:00,1941A,109.4259,34.5023,渭南市,高新一小,颗粒物(PM10),51,52,67,29,36,148,113,141,135,12,19,5,6,0.5,0.6
2023-09-02T22:00:00,1943A,102.1725,38.5339,金昌市,新川苑,,,,,,,,,,,,,,,,
2023-09-02T22:00:00,1944A,102.1692,38.5167,金昌市,天庆家园,,49,49,63,11,28,132,50,130,113,54,28,10,14,0.8,0.6
2023-09-02T22:00:00,1945A,98.2908,39.7711,嘉峪关市,气象局,,39,39,63,14,21,136,84,131,120,27,22,4,5,0.2,0.3
2023-09-02T22:00:00,1947A,106.3394,38.817,石嘴山市,沙湖旅游区,颗粒物(PM10),59,67,68,19,27,203,93,177,158,28,25,14,24,0.7,0.7
2023-09-02T22:00:00,1948A,106.3668,39.0145,石嘴山市,大武口朝阳西街,颗粒物(PM10),66,81,80,22,36,179,74,139,118,74,50,13,26,0.6,0.9
2023-09-02T22:00:00,1949A,106.7704,39.2282,石嘴山市,惠农南大街,颗粒物(PM10),105,159,57,25,14,187,9,138,98,98,33,96,22,1.7,0.9
2023-09-02T22:00:00,1950A,106.7099,39.1325,石嘴山市,红果子镇惠新街,颗粒物(PM10),65,80,52,17,17,196,18,138,93,71,30,30,20,0.5,0.5
2023-09-02T22:00:00,1951A,84.895,45.6094,克拉玛依市,长征新村,颗粒物(PM10),51,51,28,9,5,116,66,106,101,32,13,10,10,0.4,0.2
2023-09-02T22:00:00,1952A,84.8988,45.5893,克拉玛依市,南林小区,颗粒物(PM10),51,51,29,10,11,120,33,110,100,58,23,6,6,0.7,0.4
2023-09-02T22:00:00,1954A,84.905,44.3396,克拉玛依市,独山子区,,34,30,32,16,14,138,108,126,124,9,8,8,9,0.4,0.4
2023-09-02T22:00:00,1955A,85.6979,46.098,克拉玛依市,乌尔禾区商贸楼,颗粒物(PM10),52,54,16,9,6,120,77,107,103,14,6,7,7,0.3,0.3
2023-09-02T22:00:00,1956A,86.1472,41.7538,巴音郭楞州,孔雀公园,,,,102,,29,133,32,121,109,82,31,,11,1.0,0.5
2023-09-02T22:00:00,1957A,86.1972,41.7166,巴音郭楞州,棉纺厂,颗粒物(PM10),114,177,112,76,38,147,20,126,109,100,32,6,7,1.1,0.5
2023-09-02T22:00:00,1958A,86.2357,41.7173,巴音郭楞州,经济开发区,颗粒物(PM10),97,144,109,37,30,152,68,130,123,32,12,8,9,0.3,0.2
2023-09-02T22:00:00,1961A,117.532,36.6868,济南市,东山小学,颗粒物(PM10),74,98,77,49,40,256,134,232,200,46,35,6,7,0.9,0.8
2023-09-02T22:00:00,1966A,120.0405,35.8735,青岛市,黄岛区4号,,36,17,47,2,27,160,113,154,141,9,25,5,6,0.4,0.5
2023-09-02T22:00:00,1982A,122.0693,37.2174,威海市,文登开发区,,46,46,40,24,19,132,47,122,87,32,21,8,7,0.8,0.6
2023-09-02T22:00:00,2031A,113.1817,27.9958,株洲市,云田中学,颗粒物(PM10),55,60,40,34,21,153,135,143,142,19,13,8,7,0.8,0.7
2023-09-02T22:00:00,2054A,114.1099,32.1059,信阳市,平桥分局,颗粒物(PM10),64,77,38,43,24,150,100,144,131,19,14,4,4,0.9,0.7
2023-09-02T22:00:00,2064A,113.9956,32.1271,信阳市,南湾水厂,颗粒物(PM10),56,61,46,35,23,153,112,144,132,13,12,3,4,0.9,0.7
2023-09-02T22:00:00,2065A,114.0775,32.1195,信阳市,市酿酒公司,颗粒物(PM10),59,68,41,33,23,155,120,147,137,17,16,4,4,0.8,0.7
2023-09-02T22:00:00,2066A,114.0609,32.1399,信阳市,审计局,颗粒物(PM10),57,64,40,31,21,161,124,152,141,17,13,6,5,0.9,0.7
2023-09-02T22:00:00,2067A,114.6613,33.6128,周口市,市环境监测站,颗粒物(PM10),81,112,63,48,37,182,125,173,157,27,18,4,7,0.6,0.5
2023-09-02T22:00:00,2068A,114.6758,33.6347,周口市,周口师范,颗粒物(PM10),73,95,62,46,32,169,80,168,144,30,15,2,4,0.8,0.6
2023-09-02T22:00:00,2069A,114.6546,33.5979,周口市,市运管处,颗粒物(PM10),74,97,65,41,33,172,138,167,156,24,18,8,10,0.7,0.6
2023-09-02T22:00:00,2070A,114.6369,33.6406,周口市,川汇区环保局,颗粒物(PM10),76,102,61,41,31,167,89,162,143,30,18,4,6,0.9,0.6
2023-09-02T22:00:00,2075A,117.6336,24.4674,漳州市,九湖,,,,,,,,,,,,,,,,
2023-09-02T22:00:00,2160A,112.85,35.5051,晋城市,自来水公司,颗粒物(PM10),65,79,67,36,33,178,162,172,172,19,16,10,10,1.0,0.9
2023-09-02T22:00:00,2161A,112.8318,35.4936,晋城市,白云商贸,颗粒物(PM10),75,100,66,39,30,170,141,164,162,31,22,9,9,0.9,0.9
2023-09-02T22:00:00,2162A,112.8508,35.4887,晋城市,市环保局,颗粒物(PM10),69,87,76,41,35,165,135,158,156,30,23,8,9,0.9,0.8
2023-09-02T22:00:00,2163A,112.8676,35.4897,晋城市,技术学院,颗粒物(PM10),54,57,57,34,31,168,131,162,159,32,23,9,9,0.9,0.9
2023-09-02T22:00:00,2165A,112.8453,35.546,晋城市,白马寺,,,,,,,,,,,,,,,,
2023-09-02T22:00:00,2166A,112.4397,39.3522,朔州市,平朔,,35,5,55,6,28,149,109,143,135,8,22,4,8,0.7,0.8
2023-09-02T22:00:00,2167A,112.4575,39.3617,朔州市,朔唯,,33,12,66,5,30,144,103,137,130,9,26,5,10,0.2,0.6
2023-09-02T22:00:00,2168A,112.4258,39.3197,朔州市,区政府,,38,19,47,2,23,144,121,139,134,10,19,3,7,0.5,0.7
2023-09-02T22:00:00,2169A,112.4072,39.3278,朔州市,市环保局,,40,16,50,2,23,148,128,140,135,11,19,3,10,0.4,0.6
2023-09-02T22:00:00,2170A,112.4272,39.3681,朔州市,市二中,,34,10,55,5,29,146,107,137,130,11,24,5,9,0.5,0.7
2023-09-02T22:00:00,2171A,112.7532,37.6945,晋中市,锦纶小区,,41,39,59,12,33,172,129,161,146,21,18,10,11,0.4,0.5
2023-09-02T22:00:00,2173A,112.7249,37.7067,晋中市,南都小区,,41,41,62,19,39,178,120,164,147,24,17,9,8,0.6,0.7
2023-09-02T22:00:00,2174A,112.6991,37.6982,晋中市,榆次区政府,,48,48,59,28,35,176,111,160,142,28,17,10,11,0.7,0.6
2023-09-02T22:00:00,2175A,110.9956,35.0147,运城市,运城中学,,43,38,51,21,26,146,135,146,138,6,6,5,5,0.7,0.4
2023-09-02T22:00:00,2178A,110.9686,35.0303,运城市,地区技校,,40,36,49,19,26,144,127,139,135,8,7,5,4,0.2,0.3
2023-09-02T22:00:00,2179A,111.0414,35.1147,运城市,空港新区,,38,38,53,25,29,151,109,145,138,18,10,6,4,0.6,0.5
2023-09-02T22:00:00,2181A,112.7383,38.4519,忻州市,开发区,,40,36,60,22,43,173,126,155,141,6,20,6,19,0.4,0.9
2023-09-02T22:00:00,2182A,112.7003,38.4928,忻州市,会展中心,,38,30,56,19,45,176,119,157,137,9,22,8,13,0.4,0.7
2023-09-02T22:00:00,2183A,111.1406,37.5211,吕梁市,环保局,,33,29,61,10,23,140,105,128,122,23,35,4,4,1.3,0.6
2023-09-02T22:00:00,2185A,111.1297,37.5136,吕梁市,自来水公司,,33,29,59,11,24,137,103,130,126,25,32,4,4,1.6,0.8
2023-09-02T22:00:00,2187A,106.8174,39.6973,乌海市,市林业局,颗粒物(PM10),73,96,62,32,23,195,48,149,110,59,23,12,27,0.7,0.9
2023-09-02T22:00:00,2188A,106.7907,39.6667,乌海市,中海勃湾学校,颗粒物(PM10),71,92,55,33,19,182,12,154,110,92,25,11,25,1.2,0.7
2023-09-02T22:00:00,2191A,122.2532,43.6801,通辽市,艺术职业学校,,49,49,62,15,15,123,120,116,116,16,23,10,5,0.4,0.3
2023-09-02T22:00:00,2192A,119.7594,49.2261,呼伦贝尔市,区环保局,,45,45,29,30,21,80,46,74,61,15,15,3,3,0.4,0.4
2023-09-02T22:00:00,2195A,107.4212,40.761,巴彦淖尔市,附二中,颗粒物(PM10),70,90,51,27,18,202,80,172,151,52,16,5,8,0.7,0.6
2023-09-02T22:00:00,2196A,107.37,40.7372,巴彦淖尔市,市环保大楼,颗粒物(PM10),61,72,58,14,19,181,96,160,143,29,13,4,5,0.8,0.5
2023-09-02T22:00:00,2197A,113.1306,40.9923,乌兰察布市,集宁新区,,35,28,31,21,17,144,112,134,128,17,16,8,12,0.4,0.5
2023-09-02T22:00:00,2200A,122.0392,46.0656,兴安盟,胜华新制药厂,,27,18,23,14,10,103,84,97,94,8,11,4,3,0.2,0.2
2023-09-02T22:00:00,2201A,121.9504,46.0741,兴安盟,科右前旗环保局,,34,34,27,16,15,99,72,92,84,10,14,4,5,0.4,0.4
2023-09-02T22:00:00,2202A,116.1042,43.9317,锡林郭勒盟,市环保监测站,,37,13,22,15,9,135,117,131,127,5,6,10,10,0.4,0.3
2023-09-02T22:00:00,2203A,116.0781,43.9311,锡林郭勒盟,市政府,,38,12,18,2,6,140,121,136,131,8,10,10,10,0.3,0.3
2023-09-02T22:00:00,2204A,105.6467,38.8363,阿拉善盟,西城区西花园,,31,31,48,17,22,109,82,104,96,13,11,7,8,0.5,0.5
2023-09-02T22:00:00,2205A,105.6985,38.8411,阿拉善盟,蒙二幼,,40,40,56,13,22,131,89,126,116,15,9,6,7,0.3,0.3
2023-09-02T22:00:00,2206A,105.724,38.8516,阿拉善盟,环保局新楼,,35,33,41,10,20,133,110,127,114,5,6,8,9,0.4,0.4
2023-09-02T22:00:00,2207A,121.6094,41.998,阜新市,工业园区,,42,42,47,18,14,121,88,112,103,19,25,13,12,0.8,0.7
2023-09-02T22:00:00,2208A,121.6697,42.0279,阜新市,长青街,,29,18,40,17,18,127,91,112,110,23,23,23,15,0.5,0.6
2023-09-02T22:00:00,2209A,121.6673,42.0705,阜新市,农业园区,,32,14,38,14,16,122,102,111,111,15,15,16,21,0.8,0.9
2023-09-02T22:00:00,2210A,121.6717,42.0224,阜新市,东苑,,,,42,6,20,122,,113,113,11,20,11,16,0.3,0.5
2023-09-02T22:00:00,2211A,121.6506,42.0498,阜新市,玉龙新城,,32,32,54,14,14,114,91,105,104,17,22,12,9,0.7,0.7
2023-09-02T22:00:00,2212A,123.2,41.1953,辽阳市,宏伟区,,42,42,26,6,8,157,99,136,116,34,18,17,12,1.1,0.7
2023-09-02T22:00:00,2213A,123.1683,41.2495,辽阳市,新华园,颗粒物(PM10),62,73,50,15,17,132,37,110,82,64,31,15,16,1.0,1.1
2023-09-02T22:00:00,2214A,123.2354,41.2639,辽阳市,滨河路,,44,44,41,14,19,142,63,125,94,34,25,11,11,1.0,1.1
2023-09-02T22:00:00,2215A,123.149,41.2991,辽阳市,铁西工业园,颗粒物(PM10),78,106,53,31,23,152,49,128,100,69,36,12,15,1.1,1.3
2023-09-02T22:00:00,2216A,123.8139,42.3022,铁岭市,汇工街西,颗粒物(PM10),56,61,44,28,22,171,21,151,110,49,31,25,17,1.0,1
2023-09-02T22:00:00,2217A,123.8649,42.2923,铁岭市,水上乐园,,37,37,50,17,24,174,72,148,114,20,25,3,6,0.7,0.9
2023-09-02T22:00:00,2218A,123.8486,42.2867,铁岭市,银州路东段,,42,42,44,18,18,152,54,132,100,34,34,5,8,0.7,0.9
2023-09-02T22:00:00,2219A,123.7153,42.2217,铁岭市,金沙江路北,,39,39,42,16,19,163,35,137,99,55,35,7,10,0.7,1
2023-09-02T22:00:00,2220A,120.4318,41.5881,朝阳市,西梁,,44,36,38,22,16,139,139,127,127,14,21,9,9,0.9,0.6
2023-09-02T22:00:00,2221A,120.4521,41.5646,朝阳市,河畔小区,臭氧1小时,53,42,30,18,12,162,162,135,135,10,15,12,10,1.0,0.6
2023-09-02T22:00:00,2222A,120.4176,41.5648,朝阳市,八里堡,,48,48,41,21,16,138,112,122,122,27,24,9,9,1.0,0.8
2023-09-02T22:00:00,2223A,120.3806,41.5969,朝阳市,农业园区,,33,33,39,14,16,122,78,113,109,26,22,6,7,0.8,0.6
2023-09-02T22:00:00,2225A,124.4002,43.1713,四平市,一商场,,43,35,39,30,21,124,111,120,116,12,17,9,10,0.5,0.4
2023-09-02T22:00:00,2226A,124.388,43.193,四平市,境园,颗粒物(PM10),58,66,36,31,22,128,21,123,93,34,24,2,4,0.5,0.5
2023-09-02T22:00:00,2227A,125.1358,42.8845,辽源市,环保局,,33,33,24,20,13,102,25,96,56,26,18,7,7,0.6,0.6
2023-09-02T22:00:00,2229A,125.9358,41.7173,通化市,光明,,,37,45,13,25,113,,89,70,26,24,10,38,0.5,1.5
2023-09-02T22:00:00,2230A,125.9446,41.7325,通化市,铁路,,32,32,52,13,28,116,18,80,52,16,25,6,41,0.6,2.1
2023-09-02T22:00:00,2231A,126.4219,41.9171,白山市,喜丰,颗粒物(PM10),55,60,47,17,13,65,8,40,15,26,20,13,7,0.7,0.7
2023-09-02T22:00:00,2232A,126.4077,41.9419,白山市,环保局,,,,,,,,,,,,,,,,
2023-09-02T22:00:00,2233A,124.8006,45.1214,松原市,江南,,,22,18,16,12,108,,97,92,11,12,7,6,0.7,0.5
2023-09-02T22:00:00,2234A,124.7965,45.1722,松原市,江北,,35,13,16,14,10,112,112,99,99,7,10,4,4,0.7,0.5
2023-09-02T22:00:00,2235A,122.7911,45.6077,白城市,洮北区环保局,,24,23,20,7,7,107,75,100,89,17,12,5,5,0.1,0
2023-09-02T22:00:00,2236A,122.8738,45.5725,白城市,市环保局,,28,28,22,6,7,103,84,97,90,12,13,7,7,0.3,0.2
2023-09-02T22:00:00,2237A,129.47,42.8883,延边朝鲜族自治州,妇幼医院,,30,30,22,15,12,86,18,82,58,17,10,8,8,0.6,0.5
2023-09-02T22:00:00,2238A,129.5055,42.9108,延边朝鲜族自治州,延边医院,,37,37,35,17,14,87,15,86,54,29,19,6,6,0.7,0.7
2023-09-02T22:00:00,2239A,129.3964,42.8881,延边朝鲜族自治州,朝阳川镇医院,,22,20,20,15,10,90,17,86,52,10,7,8,8,0.6,0.6
2023-09-02T22:00:00,2240A,130.9762,45.3001,鸡西市,环保局,颗粒物(PM10),52,53,23,21,11,55,4,51,34,47,14,6,5,0.9,0.3
2023-09-02T22:00:00,2243A,130.9429,45.3039,鸡西市,第一中学,,35,35,20,18,11,74,47,69,62,11,7,8,6,0.2,0.1
2023-09-02T22:00:00,2244A,130.2537,47.3416,鹤岗市,哈啤分公司,,22,22,18,12,11,69,52,61,57,15,11,13,12,0.6,0.3
2023-09-02T22:00:00,2245A,130.2684,47.3086,鹤岗市,斯达机电,,21,21,21,14,8,73,60,63,61,10,10,11,9,0.5,0.4
2023-09-02T22:00:00,2246A,130.3114,47.3388,鹤岗市,东山纸板厂,,36,36,26,13,10,68,50,58,53,11,13,11,11,0.5,0.5
2023-09-02T22:00:00,2247A,130.1097,47.3382,鹤岗市,五号水库,,12,9,9,8,7,78,38,68,47,8,5,12,12,0.3,0.3
2023-09-02T22:00:00,2248A,131.1511,46.6937,双鸭山市,双合村,颗粒物(PM10),53,56,23,16,8,74,36,72,62,15,7,20,10,0.6,0.2
2023-09-02T22:00:00,2249A,131.1652,46.6191,双鸭山市,南小市,,15,7,24,10,10,71,46,67,59,4,4,5,6,0.2,0.2
2023-09-02T22:00:00,2250A,131.1524,46.6554,双鸭山市,环保局,,24,24,22,10,11,74,48,61,55,8,11,8,11,0.2,0.4
2023-09-02T22:00:00,2251A,131.12,46.5656,双鸭山市,苗圃,,13,13,7,9,7,86,36,80,62,4,3,3,3,0.3,0.3
2023-09-02T22:00:00,2252A,128.5159,47.4311,伊春市,环保局,,33,33,21,12,10,90,89,76,76,7,7,6,5,0.3,0.4
2023-09-02T22:00:00,2253A,128.9102,47.7412,伊春市,电力嘉园,,31,13,16,6,10,99,98,80,80,5,7,6,5,0.5,0.6
2023-09-02T22:00:00,2254A,129.5029,48.471,伊春市,汤旺河国家公园,,35,35,23,17,16,75,29,67,48,2,2,14,15,0.5,0.4
2023-09-02T22:00:00,2255A,130.2751,46.8028,佳木斯市,佳纺,,25,25,17,13,9,79,67,74,73,3,6,2,4,0.4,0.4
2023-09-02T22:00:00,2256A,130.3995,46.8307,佳木斯市,发电厂,,24,23,18,12,8,80,75,76,76,7,8,3,2,0.3,0.3
2023-09-02T22:00:00,2257A,130.3258,46.7975,佳木斯市,环保局,,23,21,23,9,8,77,72,74,74,4,7,3,4,0.4,0.4
2023-09-02T22:00:00,2258A,130.3648,46.8032,佳木斯市,十一中,,31,31,24,12,9,71,70,67,67,10,11,4,4,0.4,0.4
2023-09-02T22:00:00,2259A,130.3794,46.7588,佳木斯市,四丰,,29,15,12,10,4,109,91,100,100,2,3,1,1,0.2,0.3
2023-09-02T22:00:00,2262A,131.0518,45.8751,七台河市,新一中,,27,27,19,16,10,87,20,82,51,8,6,8,8,0.7,0.5
2023-09-02T22:00:00,2263A,127.4833,50.2524,黑河市,交通局,,39,39,19,13,9,71,39,67,63,1,9,2,5,0.3,0.4
2023-09-02T22:00:00,2264A,127.5144,50.2341,黑河市,环保局,颗粒物(PM10),52,53,27,18,9,75,27,67,58,15,9,18,9,0.3,0.3
2023-09-02T22:00:00,2265A,127.5291,50.2472,黑河市,大黑河岛,,,18,22,14,16,,,,,1,2,2,12,0.4,0.5
2023-09-02T22:00:00,2266A,126.9785,46.6365,绥化市,人和东街,,30,30,28,12,12,94,67,86,81,17,13,3,4,0.3,0.3
2023-09-02T22:00:00,2267A,126.964,46.6528,绥化市,党政办公中心,,28,28,20,11,11,91,73,85,82,14,11,9,9,0.4,0.3
2023-09-02T22:00:00,2269A,124.1069,50.4097,大兴安岭地区,科技局,,43,43,18,26,12,75,36,69,58,2,3,4,5,0.2,0.2
2023-09-02T22:00:00,2270A,117.396,32.939,蚌埠市,工人疗养院,颗粒物(PM10),58,66,60,36,31,168,124,159,144,20,13,3,4,0.6,0.5
2023-09-02T22:00:00,2271A,117.3605,32.9427,蚌埠市,百货大楼,颗粒物(PM10),60,70,66,35,31,172,129,164,150,18,15,4,5,0.5,0.5
2023-09-02T22:00:00,2273A,117.4185,32.8911,蚌埠市,蚌埠学院,颗粒物(PM10),69,88,58,45,34,161,87,150,126,41,29,4,6,0.6,0.5
2023-09-02T22:00:00,2274A,117.3533,32.9673,蚌埠市,淮上区政府,细颗粒物(PM2.5),59,66,61,42,38,166,112,161,141,25,23,5,5,0.5,0.5
2023-09-02T22:00:00,2275A,117.3145,32.8977,蚌埠市,高新区,细颗粒物(PM2.5),65,66,55,47,34,167,88,164,143,53,24,14,6,0.7,0.6
2023-09-02T22:00:00,2277A,116.8305,32.7727,淮南市,潘集区政府,颗粒物(PM10),58,66,63,35,34,176,101,160,135,20,16,10,8,0.4,0.4
2023-09-02T22:00:00,2278A,117.0067,32.6524,淮南市,师范学院,颗粒物(PM10),59,68,60,37,35,160,132,155,144,16,17,14,12,1.0,0.6
2023-09-02T22:00:00,2279A,116.8569,32.5951,淮南市,谢家集区政府,颗粒物(PM10),53,56,47,22,20,166,136,159,150,18,19,10,11,0.5,0.4
2023-09-02T22:00:00,2280A,116.8281,32.633,淮南市,八公山区政府,细颗粒物(PM2.5),58,64,60,41,38,163,97,158,140,25,15,11,10,0.6,0.6
2023-09-02T22:00:00,2281A,116.6325,32.6201,淮南市,焦岗湖风景区管理处,,44,44,45,29,34,155,84,147,124,28,21,4,4,0.4,0.5
2023-09-02T22:00:00,2282A,116.8004,33.975,淮北市,监测站,颗粒物(PM10),55,60,62,37,38,181,129,174,153,16,17,4,6,0.8,0.8
2023-09-02T22:00:00,2283A,116.8091,33.9007,淮北市,烈山区政府,颗粒物(PM10),73,95,71,41,42,195,121,190,165,18,12,6,6,0.6,0.8
2023-09-02T22:00:00,2285A,117.8177,30.9412,铜陵市,市第四中学,细颗粒物(PM2.5),59,62,43,42,26,149,86,140,131,24,13,7,7,0.5,0.4
2023-09-02T22:00:00,2286A,117.8059,30.9273,铜陵市,市公路局,颗粒物(PM10),57,63,44,32,24,164,109,156,147,23,16,11,11,0.6,0.6
2023-09-02T22:00:00,2287A,117.7807,30.9413,铜陵市,市新民污水厂,颗粒物(PM10),56,62,47,36,20,171,93,158,146,27,28,6,6,0.6,0.6
2023-09-02T22:00:00,2288A,117.7439,30.8792,铜陵市,市第九中学,颗粒物(PM10),77,104,69,45,30,153,106,138,126,27,34,22,12,1.7,1.6
2023-09-02T22:00:00,2289A,117.846,30.9413,铜陵市,车站新区,细颗粒物(PM2.5),59,60,40,42,28,164,100,150,141,22,18,5,5,0.4,0.4
2023-09-02T22:00:00,2290A,117.8483,30.97,铜陵市,市职教基地,颗粒物(PM10),56,62,40,39,19,164,88,146,134,18,12,4,4,0.8,0.6
2023-09-02T22:00:00,2291A,117.0809,30.5177,安庆市,环科院,臭氧1小时,64,46,34,30,20,176,171,156,156,9,8,8,8,0.7,0.7
2023-09-02T22:00:00,2292A,117.0331,30.5119,安庆市,马山宾馆,臭氧1小时,68,46,34,28,20,178,174,159,159,15,14,6,7,0.8,0.7
2023-09-02T22:00:00,2294A,116.9896,30.6145,安庆市,安庆大学,臭氧1小时,68,43,33,30,20,175,174,160,160,12,11,7,7,0.8,0.7
2023-09-02T22:00:00,2295A,118.2903,29.6963,黄山市,延安路89号,,39,33,29,15,7,125,124,119,119,8,6,4,4,0.5,0.4
2023-09-02T22:00:00,2296A,118.327,29.7178,黄山市,黄山东路89号,,37,19,22,9,9,118,118,109,109,7,7,5,4,0.5,0.5
2023-09-02T22:00:00,2297A,118.1371,30.2756,黄山市,黄山区政府5号楼,细颗粒物(PM2.5),78,90,33,57,18,149,65,128,109,9,9,6,6,0.8,0.5
2023-09-02T22:00:00,2298A,118.3093,32.3153,滁州市,老年大学,,45,45,41,25,22,175,123,166,152,21,19,8,8,0.4,0.4
2023-09-02T22:00:00,2299A,118.3244,32.2786,滁州市,人大宾馆,,49,43,41,34,26,172,124,166,152,18,23,6,8,0.5,0.5
2023-09-02T22:00:00,2301A,115.8277,32.8929,阜阳市,市监测站,细颗粒物(PM2.5),88,78,43,65,28,173,108,164,144,27,15,15,8,0.7,0.5
2023-09-02T22:00:00,2303A,115.8554,32.8605,阜阳市,开发区,细颗粒物(PM2.5),60,65,55,43,40,176,121,162,142,22,17,7,8,0.6,0.6
2023-09-02T22:00:00,2307A,116.5079,31.737,六安市,监测大楼,颗粒物(PM10),51,51,38,24,16,175,70,161,139,37,18,7,5,0.6,0.5
2023-09-02T22:00:00,2308A,116.4738,31.7643,六安市,皖西学院,颗粒物(PM10),64,78,48,30,19,176,64,163,133,35,21,6,9,0.4,0.3
2023-09-02T22:00:00,2309A,116.4996,31.7905,六安市,朝阳厂,细颗粒物(PM2.5),62,63,44,44,20,177,76,162,139,28,24,8,8,0.7,0.6
2023-09-02T22:00:00,2310A,116.5567,31.7886,六安市,开发区,颗粒物(PM10),61,72,52,33,24,163,67,150,118,29,25,6,6,0.7,0.6
2023-09-02T22:00:00,2311A,115.8072,33.8399,亳州市,污水处理厂,细颗粒物(PM2.5),77,74,60,56,38,191,120,186,158,11,12,21,15,1.0,0.8
2023-09-02T22:00:00,2312A,115.7789,33.8518,亳州市,三国揽胜宫,细颗粒物(PM2.5),65,71,56,47,37,185,132,181,169,19,13,13,12,0.9,0.8
2023-09-02T22:00:00,2314A,117.47,30.6618,池州市,池州学院,颗粒物(PM10),60,70,46,28,17,163,111,152,145,29,23,7,7,0.7,0.8
2023-09-02T22:00:00,2316A,118.7581,30.9454,宣城市,鳌峰子站,,39,39,42,22,23,166,99,146,140,15,18,4,4,0.5,0.7
2023-09-02T22:00:00,2317A,118.7385,30.9743,宣城市,敬亭山子站,颗粒物(PM10),56,62,44,28,24,172,79,142,131,32,22,6,7,0.9,0.5
2023-09-02T22:00:00,2318A,118.7173,30.9427,宣城市,开发区子站,,38,38,39,22,21,177,108,155,150,14,17,6,7,0.5,0.7
2023-09-02T22:00:00,2319A,119.0141,25.4325,莆田市,荔城区仓后路,,17,17,16,4,7,77,44,67,54,7,6,8,8,0.6,0.6
2023-09-02T22:00:00,2320A,119.0015,25.4553,莆田市,莆田市监测站,,15,8,15,2,5,83,46,66,57,4,3,6,6,0.5,0.6
2023-09-02T22:00:00,2321A,119.1119,25.4561,莆田市,涵江区六中,,,,20,,5,88,58,86,64,5,5,7,7,0.5,0.6
2023-09-02T22:00:00,2322A,119.1013,25.3215,莆田市,秀屿区政府,,18,15,20,8,11,84,55,78,68,6,8,7,7,0.6,0.6
2023-09-02T22:00:00,2323A,118.981,25.4792,莆田市,东圳水库,,,,,,,,,,,,,,,,
2023-09-02T22:00:00,2324A,117.6211,26.2625,三明市,三钢,,18,16,24,12,15,86,39,79,62,8,8,7,8,0.3,0.3
2023-09-02T22:00:00,2325A,117.635,26.2714,三明市,三明二中,,18,14,20,12,15,87,36,78,63,16,13,3,5,0.6,0.6
2023-09-02T22:00:00,2326A,117.6028,26.2378,三明市,三元区政府,,20,18,22,14,12,85,40,81,65,12,10,7,8,0.7,0.7
2023-09-02T22:00:00,2327A,117.7275,26.3108,三明市,洋溪,,,,,,,,,,,,,,,,
2023-09-02T22:00:00,2331A,118.0966,26.6761,南平市,茫荡山,,,,,,,,,,,,,,,,
2023-09-02T22:00:00,2332A,118.1681,26.6369,南平市,南平市监测站,,21,21,22,10,9,88,34,82,60,9,7,4,5,0.6,0.5
2023-09-02T22:00:00,2333A,118.1825,26.6489,南平市,南平铝业有限公司,,18,18,22,9,11,91,45,86,62,8,8,3,4,0.6,0.5
2023-09-02T22:00:00,2334A,118.1756,26.6272,南平市,南平七中,,22,22,21,14,9,92,21,81,53,10,8,4,5,0.8,0.7
2023-09-02T22:00:00,2335A,117.0189,25.1181,龙岩市,龙岩师专,,,,,,,,,,,,,,,,
2023-09-02T22:00:00,2336A,117.0217,25.1033,龙岩市,龙岩市监测站,,11,8,13,7,8,64,35,57,49,12,8,8,5,0.4,0.4
2023-09-02T22:00:00,2337A,117.0258,25.0661,龙岩市,闽西职业技术学院,,12,7,16,8,6,63,35,54,48,7,5,9,5,0.4,0.4
2023-09-02T22:00:00,2338A,117.0196,25.0306,龙岩市,龙岩学院,,18,18,14,8,6,62,32,54,47,8,6,4,5,0.4,0.3
2023-09-02T22:00:00,2339A,119.5001,26.6946,宁德市,金涵水库,,,,,,,,,,,,,,,,
2023-09-02T22:00:00,2341A,119.5388,26.6612,宁德市,宁德市监测站,,12,7,14,8,9,57,20,48,35,17,13,3,3,0.6,0.6
2023-09-02T22:00:00,2342A,117.3102,29.3867,景德镇市,王港中学,,21,21,20,13,10,105,19,81,49,6,4,4,3,0.5,0.4
2023-09-02T22:00:00,2343A,117.2117,29.2933,景德镇市,老干部活动中心,,34,34,29,17,18,101,54,94,73,16,9,4,4,0.3,0.3
2023-09-02T22:00:00,2344A,117.1894,29.2789,景德镇市,兽医站,细颗粒物(PM2.5),52,34,30,36,22,101,60,95,76,14,10,8,7,0.5,0.6
2023-09-02T22:00:00,2345A,117.1547,29.2617,景德镇市,台达陶瓷,,38,37,25,26,17,102,68,97,78,8,11,16,14,0.3,0.4
2023-09-02T22:00:00,2346A,117.2461,29.2956,景德镇市,陶研所,,47,47,36,20,11,102,21,94,64,24,9,4,5,0.4,0.3
2023-09-02T22:00:00,2347A,114.0997,27.5002,萍乡市,武功山,,15,12,10,6,8,116,47,103,71,4,5,8,9,0.4,0.4
2023-09-02T22:00:00,2348A,113.8385,27.6434,萍乡市,中医院,,45,31,34,31,20,137,75,126,102,21,12,9,17,0.6,0.6
2023-09-02T22:00:00,2349A,113.8493,27.6253,萍乡市,市政府车库,,36,36,38,20,20,151,76,130,100,15,14,10,15,0.4,0.7
2023-09-02T22:00:00,2350A,113.8676,27.6435,萍乡市,市环保局,,48,33,32,33,19,158,95,139,118,12,11,7,12,0.5,0.5
2023-09-02T22:00:00,2351A,113.866,27.6198,萍乡市,安源区政府,,43,43,38,30,21,150,40,134,97,19,15,6,13,0.5,1.1
2023-09-02T22:00:00,2352A,115.0861,27.9317,新余市,北岗,,28,27,25,19,18,143,68,134,115,8,7,12,14,0.7,0.7
2023-09-02T22:00:00,2353A,114.9886,27.8431,新余市,飞宇,,,,39,,20,142,62,135,120,15,12,20,15,0.4,0.4
2023-09-02T22:00:00,2354A,114.9231,27.8246,新余市,第二水厂,,50,50,39,22,20,162,111,154,140,21,16,14,12,0.4,0.4
2023-09-02T22:00:00,2355A,114.9308,27.8036,新余市,市气象局,,39,39,38,23,21,144,105,138,129,14,9,14,12,0.6,0.6
2023-09-02T22:00:00,2357A,116.9822,28.1136,鹰潭市,龙虎山,,38,32,32,26,22,131,93,129,116,7,5,5,5,0.4,0.2
2023-09-02T22:00:00,2358A,117.0564,28.2642,鹰潭市,新监测站,,42,38,41,29,22,141,92,127,108,17,9,27,15,0.7,0.5
2023-09-02T22:00:00,2359A,117.0311,28.2475,鹰潭市,财苑宾馆,颗粒物(PM10),53,55,46,27,21,144,86,128,111,20,10,29,14,0.6,0.5
2023-09-02T22:00:00,2360A,117.0222,28.2264,鹰潭市,体育馆,,38,38,43,20,22,143,90,128,110,11,10,9,11,0.6,0.6
2023-09-02T22:00:00,2361A,117.0017,28.2131,鹰潭市,三川水表,,38,38,46,24,24,140,88,126,106,17,15,9,8,0.6,0.5
2023-09-02T22:00:00,2362A,114.9017,25.9149,赣州市,通天岩,,,,,,,,,,,,,,,,
2023-09-02T22:00:00,2363A,114.9367,25.8664,赣州市,地委,,49,49,39,33,25,114,101,108,107,6,6,14,12,1.1,1.1
2023-09-02T22:00:00,2364A,114.9461,25.8481,赣州市,气象台,,46,46,35,25,24,121,105,115,113,10,10,5,6,0.8,0.8
2023-09-02T22:00:00,2365A,114.9322,25.8333,赣州市,市图书馆,,43,42,55,30,26,112,104,107,107,8,9,6,7,1.1,1.1
2023-09-02T22:00:00,2366A,114.8905,25.8471,赣州市,华坚鞋城,,49,46,32,34,26,116,103,109,108,9,7,3,4,0.8,0.8
2023-09-02T22:00:00,2367A,114.9754,27.0803,吉安市,红声器材厂,,39,39,39,24,20,143,105,135,132,10,14,14,14,0.7,0.7
2023-09-02T22:00:00,2368A,114.9658,27.0999,吉安市,市森林工业局,,49,49,38,27,22,151,100,140,135,19,10,15,12,0.5,0.6
2023-09-02T22:00:00,2369A,114.99,27.1312,吉安市,市环境监测站,,48,48,39,25,20,150,103,141,136,15,15,11,12,0.7,0.7
2023-09-02T22:00:00,2370A,115.0093,27.0968,吉安市,青原区法院,,,,37,,20,148,99,141,136,,14,13,17,,0.9
2023-09-02T22:00:00,2371A,114.3408,27.8064,宜春市,槟榔水业,,38,38,29,25,16,137,64,126,97,23,14,3,2,1.1,1
2023-09-02T22:00:00,2373A,114.3956,27.7844,宜春市,市石油公司,,48,48,38,25,21,142,54,130,102,22,12,4,7,0.8,0.8
2023-09-02T22:00:00,2374A,114.3703,27.7914,宜春市,市气象局,颗粒物(PM10),51,51,39,30,21,142,74,132,109,20,15,2,6,0.6,0.7
2023-09-02T22:00:00,2375A,114.4013,27.8074,宜春市,市广电局,,42,42,34,27,19,148,113,137,121,15,14,9,8,0.7,0.7
2023-09-02T22:00:00,2376A,116.2127,28.0814,抚州市,桐源党溪,,39,39,30,25,17,123,108,112,101,1,2,1,2,0.9,0.7
2023-09-02T22:00:00,2377A,116.3544,27.9831,抚州市,市站,,36,32,38,25,22,119,88,114,100,9,9,2,4,1.0,0.9
2023-09-02T22:00:00,2378A,116.3565,27.963,抚州市,血防站,,44,44,45,21,20,126,92,118,104,4,3,1,2,1.2,1.1
2023-09-02T22:00:00,2379A,116.3564,28.0007,抚州市,采茶剧团,,44,44,38,29,22,120,78,114,94,7,7,5,5,1.0,0.9
2023-09-02T22:00:00,2380A,116.385,27.9647,抚州市,医学分院,,47,47,39,27,21,130,90,121,104,8,8,14,11,1.0,1
2023-09-02T22:00:00,2381A,118.005,28.4572,上饶市,百草园,,,,,,,,,,,,,,,,
2023-09-02T22:00:00,2382A,117.9756,28.4436,上饶市,市监测站,,49,49,41,20,17,148,120,128,120,9,8,11,8,0.5,0.4
2023-09-02T22:00:00,2383A,117.9519,28.4628,上饶市,凤凰光学,,40,40,38,20,20,124,87,116,113,21,11,16,14,0.6,0.4
2023-09-02T22:00:00,2385A,114.17,35.9019,鹤壁市,市监测站,颗粒物(PM10),66,82,73,45,51,192,148,174,173,24,17,3,6,1.3,0.9
2023-09-02T22:00:00,2386A,114.2956,35.7511,鹤壁市,市交警支队,细颗粒物(PM2.5),70,68,73,51,51,172,96,160,148,30,24,3,5,0.6,0.8
2023-09-02T22:00:00,2387A,114.2878,35.7306,鹤壁市,迎宾馆,细颗粒物(PM2.5),65,75,68,47,51,176,103,163,152,29,24,6,6,0.8,0.9
2023-09-02T22:00:00,2389A,113.836,35.311,新乡市,环保西院,颗粒物(PM10),66,82,72,47,45,183,114,169,159,24,29,6,8,0.8,0.9
2023-09-02T22:00:00,2390A,113.884,35.272,新乡市,开发区,细颗粒物(PM2.5),58,51,49,41,37,181,118,168,158,22,27,3,4,0.3,0.3
2023-09-02T22:00:00,2391A,113.883,35.303,新乡市,环保东院,颗粒物(PM10),60,69,73,40,38,181,128,168,162,24,31,4,6,0.8,0.8
2023-09-02T22:00:00,2392A,115.0312,35.7636,濮阳市,环保局,细颗粒物(PM2.5),57,57,59,40,51,159,148,149,149,12,16,6,7,0.7,0.8
2023-09-02T22:00:00,2394A,115.0574,35.7609,濮阳市,油田运输公司,颗粒物(PM10),63,75,76,27,46,161,130,150,144,18,18,7,7,0.7,0.7
2023-09-02T22:00:00,2395A,115.0866,35.7754,濮阳市,油田物探公司,细颗粒物(PM2.5),68,74,76,49,58,164,137,153,149,13,14,4,5,0.7,0.7
2023-09-02T22:00:00,2396A,113.8276,34.0159,许昌市,监测站,细颗粒物(PM2.5),73,76,54,53,33,177,85,168,154,40,21,2,6,0.6,0.4
2023-09-02T22:00:00,2398A,113.7906,33.9953,许昌市,开发区,颗粒物(PM10),65,79,59,44,33,178,60,166,139,49,27,3,5,0.7,0.6
2023-09-02T22:00:00,2399A,114.051,33.5699,漯河市,三五一五工厂,颗粒物(PM10),68,85,60,48,34,176,76,170,144,42,23,9,12,0.8,0.6
2023-09-02T22:00:00,2400A,114.0055,33.5698,漯河市,漯河大学,颗粒物(PM10),62,74,56,42,32,182,125,178,163,20,17,6,7,0.7,0.6
2023-09-02T22:00:00,2401A,114.0138,33.5828,漯河市,市水利局,细颗粒物(PM2.5),64,75,57,46,39,178,101,171,151,26,21,7,10,0.8,0.6
2023-09-02T22:00:00,2402A,114.0261,33.5698,漯河市,市广电局,细颗粒物(PM2.5),64,73,59,46,34,180,142,175,162,15,18,7,9,0.7,0.6
2023-09-02T22:00:00,2404A,112.5224,33.0122,南阳市,瓦房庄,颗粒物(PM10),52,54,49,34,27,165,121,153,143,16,13,5,6,0.7,0.6
2023-09-02T22:00:00,2405A,112.5003,32.9735,南阳市,汉画馆,,47,47,43,26,23,161,127,154,145,14,13,7,7,0.6,0.6
2023-09-02T22:00:00,2406A,112.5573,33.027,南阳市,气象站,,47,47,41,27,22,158,114,152,142,21,13,7,8,0.7,0.7
2023-09-02T22:00:00,2407A,112.5481,32.9689,南阳市,理工学院,颗粒物(PM10),53,56,43,31,26,161,117,153,142,18,12,6,8,0.6,0.5
2023-09-02T22:00:00,2408A,115.6702,34.4285,商丘市,环境监测站,颗粒物(PM10),69,87,66,46,42,193,119,186,167,25,22,6,7,1.1,0.9
2023-09-02T22:00:00,2409A,115.6458,34.4045,商丘市,粮食局,颗粒物(PM10),67,84,60,43,38,192,128,186,170,23,18,4,6,0.9,0.7
2023-09-02T22:00:00,2410A,115.6293,34.3948,商丘市,睢阳区环保局,颗粒物(PM10),76,102,69,51,37,190,68,183,153,45,25,6,8,0.8,0.6
2023-09-02T22:00:00,2420A,114.0189,32.9656,驻马店市,市一纸厂,颗粒物(PM10),62,74,48,27,31,170,46,164,146,57,18,6,13,0.6,0.5
2023-09-02T22:00:00,2421A,114.0114,33.015,驻马店市,市彩印厂,颗粒物(PM10),56,61,48,31,26,177,127,168,157,18,13,7,9,0.5,0.4
2023-09-02T22:00:00,2422A,113.9976,32.9771,驻马店市,天方二分厂,细颗粒物(PM2.5),53,52,44,37,33,165,82,160,148,24,14,5,8,0.4,0.3
2023-09-02T22:00:00,2423A,115.0601,30.2313,黄石市,沈家营,,50,50,29,34,13,150,54,141,100,37,18,8,8,0.8,0.7
2023-09-02T22:00:00,2424A,115.0817,30.2006,黄石市,陈家湾,,,,30,,19,149,104,132,100,7,9,,8,0.4,0.5
2023-09-02T22:00:00,2426A,114.8988,30.2019,黄石市,铁山,颗粒物(PM10),56,62,31,39,14,164,50,151,118,60,19,7,9,0.8,0.7
2023-09-02T22:00:00,2427A,115.0307,30.2092,黄石市,团城山,颗粒物(PM10),58,66,32,30,11,163,102,150,123,24,13,8,9,0.6,0.5
2023-09-02T22:00:00,2428A,111.0419,32.395,十堰市,武当山,,34,22,21,20,14,124,106,120,115,7,7,10,10,0.8,0.7
2023-09-02T22:00:00,2429A,110.78,32.6494,十堰市,滨河新村,,48,48,52,20,29,139,58,128,114,42,17,8,9,0.8,0.6
2023-09-02T22:00:00,2430A,110.7258,32.6389,十堰市,刘家沟,,46,46,45,26,24,155,82,134,114,7,7,6,8,0.7,0.7
2023-09-02T22:00:00,2431A,110.8839,32.5714,十堰市,铁二处,颗粒物(PM10),51,52,36,26,19,157,83,142,120,5,6,6,6,0.7,0.7
2023-09-02T22:00:00,2432A,112.155,32.0197,襄阳市,襄城运动路,,45,45,46,19,23,157,70,148,130,37,19,7,9,0.8,0.6
2023-09-02T22:00:00,2433A,112.1392,32.0564,襄阳市,樊城新华路,颗粒物(PM10),51,51,40,24,24,159,126,152,141,17,22,8,8,0.5,0.5
2023-09-02T22:00:00,2434A,112.1825,32.1142,襄阳市,高新管委会,,,,50,,28,161,102,151,137,26,24,8,9,0.9,0.8
2023-09-02T22:00:00,2435A,112.2106,32.0903,襄阳市,襄州航空路,,47,47,44,22,22,153,107,147,135,19,19,8,8,0.8,0.7
2023-09-02T22:00:00,2436A,114.8938,30.3994,鄂州市,市政府,,50,50,37,31,17,153,58,137,107,27,19,4,4,0.8,0.7
2023-09-02T22:00:00,2437A,114.8989,30.3714,鄂州市,赵家坝,细颗粒物(PM2.5),64,73,49,46,19,162,64,145,117,29,23,5,6,0.6,0.5
2023-09-02T22:00:00,2439A,112.2014,31.0481,荆门市,竹园小学,,49,49,46,26,23,189,146,175,171,15,15,9,12,0.7,0.6
2023-09-02T22:00:00,2440A,112.1969,30.9891,荆门市,掇刀,,,,43,,21,171,143,163,159,12,13,5,10,0.5,0.5
