timepoint,stationcode,longitude,latitude,area,positionname,primarypollutant,aqi,pm10,pm10_24h,pm2_5,pm2_5_24h,o3,o3_24h,o3_8h,o3_8h_24h,no2,no2_24h,so2,so2_24h,co,co_24h
2023-09-02T03:00:00,1001A,116.3621,39.8784,北京市,万寿西宫,颗粒物(PM10),60,70,44,36,27,141,30,36,28,43,27,3,3,0.8,0.8
2023-09-02T03:00:00,1002A,116.2202,40.2915,北京市,定陵,,24,24,20,13,12,143,20,23,21,3,5,3,3,0.4,0.4
2023-09-02T03:00:00,1003A,116.4174,39.9289,北京市,东四,颗粒物(PM10),61,71,42,35,22,163,55,71,63,26,20,3,3,0.6,0.6
2023-09-02T03:00:00,1004A,116.4072,39.8863,北京市,天坛,颗粒物(PM10),59,68,40,40,26,159,16,29,23,26,20,3,3,0.7,0.7
2023-09-02T03:00:00,1005A,116.462,39.9365,北京市,农展馆,颗粒物(PM10),59,67,43,34,22,168,42,80,66,44,28,3,3,0.7,0.6
2023-09-02T03:00:00,1006A,116.3392,39.9295,北京市,官园,,42,42,39,18,23,159,32,77,60,42,22,4,4,0.5,0.6
2023-09-02T03:00:00,1007A,116.2878,39.9611,北京市,海淀万柳,,41,41,34,18,19,142,18,48,28,56,28,3,3,0.4,0.5
2023-09-02T03:00:00,1008A,116.6636,40.135,北京市,顺义新城,颗粒物(PM10),54,57,32,25,15,166,20,44,34,46,22,3,3,0.4,0.4
2023-09-02T03:00:00,1009A,116.6275,40.3275,北京市,怀柔镇,,24,24,19,14,12,147,50,55,53,7,10,3,3,0.3,0.4
2023-09-02T03:00:00,1010A,116.2296,40.217,北京市,昌平镇,,22,22,27,14,16,148,55,65,60,9,16,3,3,0.3,0.3
2023-09-02T03:00:00,1011A,116.3966,39.9821,北京市,奥体中心,,45,45,34,23,20,143,1,79,44,74,25,3,2,0.6,0.6
2023-09-02T03:00:00,1012A,116.184,39.9136,北京市,古城,,26,26,40,10,21,145,46,31,31,17,24,3,3,0.4,0.6
2023-09-02T03:00:00,1015A,117.1444,39.1661,天津市,勤俭道,颗粒物(PM10),66,81,46,35,24,207,31,48,40,60,31,8,8,0.8,0.8
2023-09-02T03:00:00,1017A,117.237,39.1082,天津市,大直沽八号路,颗粒物(PM10),72,94,45,38,24,181,15,50,29,82,34,5,5,0.9,0.9
2023-09-02T03:00:00,1018A,117.202,39.0927,天津市,前进道,颗粒物(PM10),62,73,41,34,21,179,26,34,31,63,30,6,6,0.7,0.7
2023-09-02T03:00:00,1019A,117.1837,39.2133,天津市,淮河道,颗粒物(PM10),64,78,46,33,26,188,35,27,27,58,36,7,6,0.8,0.8
2023-09-02T03:00:00,1021A,117.307,39.0877,天津市,跃进路,颗粒物(PM10),68,86,44,37,22,191,4,9,6,85,42,6,6,0.8,0.8
2023-09-02T03:00:00,1023A,117.707,39.0343,天津市,第四大街,颗粒物(PM10),66,82,43,47,26,170,74,56,56,33,37,6,6,1.1,0.8
2023-09-02T03:00:00,1024A,117.457,38.8394,天津市,永明路,,48,48,40,29,23,192,29,85,53,46,26,8,8,1.0,0.8
2023-09-02T03:00:00,1026A,117.764,39.1587,天津市,汉北路,颗粒物(PM10),68,85,47,48,26,173,31,47,33,51,33,6,7,0.9,0.8
2023-09-02T03:00:00,1027A,117.157,38.9194,天津市,团泊洼,细颗粒物(PM2.5),89,114,39,66,23,159,43,68,54,59,32,5,4,1.0,0.8
2023-09-02T03:00:00,1029A,114.4422,38.0444,石家庄市,职工医院,细颗粒物(PM2.5),67,74,65,48,45,194,36,106,77,53,14,4,6,0.6,0.6
2023-09-02T03:00:00,1030A,114.6063,38.0266,石家庄市,高新区,细颗粒物(PM2.5),94,87,68,70,43,192,51,78,68,39,17,2,2,0.7,0.6
2023-09-02T03:00:00,1031A,114.4898,38.1328,石家庄市,西北水源,细颗粒物(PM2.5),80,100,63,59,42,184,26,61,42,38,17,3,2,0.6,0.7
2023-09-02T03:00:00,1032A,114.4586,38.0058,石家庄市,西南高教,细颗粒物(PM2.5),58,63,58,41,40,188,52,88,68,36,14,3,2,0.5,0.6
2023-09-02T03:00:00,1033A,114.5331,38.0178,石家庄市,世纪公园,细颗粒物(PM2.5),67,66,69,48,37,175,57,69,61,26,18,3,2,0.7,0.7
2023-09-02T03:00:00,1034A,114.509,38.0457,石家庄市,人民会堂,细颗粒物(PM2.5),67,67,56,48,42,192,108,118,112,14,14,17,5,0.5,0.5
2023-09-02T03:00:00,1035A,114.3524,37.8911,石家庄市,封龙山,细颗粒物(PM2.5),57,49,58,40,32,177,143,153,147,7,10,2,2,0.9,0.9
2023-09-02T03:00:00,1037A,118.131,39.6363,唐山市,雷达站,细颗粒物(PM2.5),74,90,52,54,29,122,20,53,36,46,38,3,4,0.8,0.7
2023-09-02T03:00:00,1038A,118.1725,39.6334,唐山市,物资局,细颗粒物(PM2.5),110,82,49,83,24,146,27,15,15,50,31,7,5,1.0,0.8
2023-09-02T03:00:00,1040A,118.1705,39.6506,唐山市,十二中,细颗粒物(PM2.5),59,62,39,42,27,141,4,31,21,58,30,2,3,0.9,0.7
2023-09-02T03:00:00,1041A,118.1869,39.622,唐山市,小山,细颗粒物(PM2.5),73,94,49,53,22,142,0,9,6,80,34,3,3,0.9,0.7
2023-09-02T03:00:00,1042A,119.5134,39.8207,秦皇岛市,北戴河环保局,,36,36,27,13,10,176,70,72,71,34,27,13,10,0.6,0.5
2023-09-02T03:00:00,1043A,119.7493,40.0116,秦皇岛市,第一关,,45,22,27,31,17,163,15,7,7,44,45,8,8,0.5,0.5
2023-09-02T03:00:00,1044A,119.5897,39.9499,秦皇岛市,监测站,,41,41,30,14,13,135,13,11,11,54,40,6,6,0.4,0.4
2023-09-02T03:00:00,1046A,119.5251,39.9041,秦皇岛市,建设大厦,颗粒物(PM10),59,67,43,6,7,104,0,0,0,82,41,5,4,0.8,0.4
2023-09-02T03:00:00,1048A,114.5302,36.6116,邯郸市,东污水处理厂,细颗粒物(PM2.5),77,69,53,56,41,141,19,55,41,50,16,4,5,0.7,0.5
2023-09-02T03:00:00,1049A,114.4918,36.5713,邯郸市,矿院,细颗粒物(PM2.5),89,59,44,66,45,140,18,53,37,45,17,3,2,0.8,0.6
2023-09-02T03:00:00,1050A,114.484,36.6133,邯郸市,丛台公园,细颗粒物(PM2.5),69,85,57,50,39,136,53,58,56,18,12,4,3,0.5,0.4
2023-09-02T03:00:00,1051A,115.493,38.8632,保定市,游泳馆,颗粒物(PM10),53,56,60,35,31,162,27,40,35,85,37,9,8,0.7,0.7
2023-09-02T03:00:00,1052A,115.5213,38.8959,保定市,华电二区,,45,45,49,13,24,153,69,80,77,39,19,10,7,0.5,0.7
2023-09-02T03:00:00,1053A,115.4713,38.9108,保定市,接待中心,颗粒物(PM10),62,74,61,28,28,171,27,22,22,55,21,7,8,0.4,0.6
2023-09-02T03:00:00,1054A,115.4612,38.8416,保定市,地表水厂,颗粒物(PM10),64,78,72,21,27,162,7,5,5,89,45,9,10,0.6,0.7
2023-09-02T03:00:00,1056A,115.5086,38.8639,保定市,监测站,颗粒物(PM10),53,56,53,30,28,157,56,56,55,54,32,14,7,0.6,0.6
2023-09-02T03:00:00,1057A,114.8883,40.8336,张家口市,人民公园,,20,15,19,13,6,126,64,66,64,5,8,2,2,0.1,0.1
2023-09-02T03:00:00,1059A,114.8687,40.8042,张家口市,五金库,,20,19,25,4,9,121,64,66,65,6,10,1,2,0.3,0.3
2023-09-02T03:00:00,1060A,114.8902,40.762,张家口市,世纪豪园,,28,21,24,15,10,124,89,90,90,7,10,6,5,0.2,0.2
2023-09-02T03:00:00,1061A,114.8916,40.8661,张家口市,北泵房,,21,21,16,10,7,134,61,70,65,4,5,5,6,0.2,0.2
2023-09-02T03:00:00,1062A,117.9531,40.9081,承德市,铁路,,22,22,23,10,8,96,10,16,14,24,24,7,9,0.3,0.4
2023-09-02T03:00:00,1063A,117.9392,40.9763,承德市,中国银行,,27,27,21,5,9,102,0,1,1,29,21,8,9,0.3,0.4
2023-09-02T03:00:00,1064A,117.9503,40.928,承德市,开发区,,20,18,24,11,14,108,3,8,7,40,26,5,6,0.4,0.4
2023-09-02T03:00:00,1065A,117.8051,40.9655,承德市,文化中心,,26,26,42,9,17,97,4,4,4,44,33,4,21,0.3,0.6
2023-09-02T03:00:00,1066A,117.9268,41.0026,承德市,离宫,,25,25,20,13,14,94,6,8,7,21,13,2,3,0.3,0.3
2023-09-02T03:00:00,1067A,116.6708,39.5111,廊坊市,药材公司,颗粒物(PM10),52,53,51,32,31,166,62,59,59,28,26,2,1,0.5,0.6
2023-09-02T03:00:00,1068A,116.7214,39.5589,廊坊市,开发区,颗粒物(PM10),52,54,38,31,31,173,14,41,31,50,27,1,2,0.4,0.5
2023-09-02T03:00:00,1070A,116.7244,39.5269,廊坊市,北华航天学院,颗粒物(PM10),60,69,55,31,27,172,8,83,36,56,28,2,3,0.7,0.6
2023-09-02T03:00:00,1071A,116.8842,38.2991,沧州市,沧县城建局,,47,47,46,27,24,181,75,49,49,32,33,28,8,0.7,1
2023-09-02T03:00:00,1072A,116.8584,38.3254,沧州市,电视转播站,,50,50,45,31,26,178,68,58,58,36,26,35,10,0.7,0.8
2023-09-02T03:00:00,1073A,116.8709,38.3228,沧州市,市环保局,颗粒物(PM10),52,53,51,35,28,174,69,54,54,34,30,32,8,0.5,0.7
2023-09-02T03:00:00,1074A,115.6838,37.7541,衡水市,电机北厂,颗粒物(PM10),57,63,56,27,31,175,34,50,45,47,16,5,6,0.6,0.6
2023-09-02T03:00:00,1075A,115.6303,37.7316,衡水市,市监测站,,50,50,49,29,28,178,81,76,76,22,15,4,2,0.6,0.6
2023-09-02T03:00:00,1077A,114.4704,37.0886,邢台市,达活泉,颗粒物(PM10),55,60,62,31,32,155,60,59,59,16,6,2,2,0.6,0.6
2023-09-02T03:00:00,1078A,114.5062,37.0349,邢台市,邢师高专,细颗粒物(PM2.5),64,68,61,46,41,160,11,18,13,43,15,4,4,0.7,0.6
2023-09-02T03:00:00,1079A,114.5237,37.0851,邢台市,路桥公司,细颗粒物(PM2.5),57,58,56,40,36,149,39,52,45,32,12,8,7,0.8,0.8
2023-09-02T03:00:00,1080A,114.4725,37.0719,邢台市,市环保局,细颗粒物(PM2.5),63,62,65,45,38,152,66,55,55,10,8,5,4,0.7,0.7
2023-09-02T03:00:00,1081A,112.522,37.8873,太原市,尖草坪,细颗粒物(PM2.5),83,78,79,61,55,224,40,89,66,55,24,4,7,1.0,1.1
2023-09-02T03:00:00,1083A,112.434,38.0108,太原市,上兰,,,,,,,,,,,,,,,,
2023-09-02T03:00:00,1084A,112.469,37.7124,太原市,晋源,细颗粒物(PM2.5),85,93,78,63,51,196,16,49,30,50,27,3,4,0.9,1
2023-09-02T03:00:00,1085A,112.5583,37.7394,太原市,小店,颗粒物(PM10),89,128,93,65,48,185,60,71,66,28,21,5,5,0.9,0.9
2023-09-02T03:00:00,1086A,112.5369,37.8692,太原市,桃园,细颗粒物(PM2.5),79,89,76,58,51,213,44,70,52,47,30,4,7,1.0,1.1
2023-09-02T03:00:00,1087A,112.57,37.8195,太原市,坞城,细颗粒物(PM2.5),83,80,80,61,54,221,72,85,75,28,24,10,9,1.2,1.1
2023-09-02T03:00:00,1088A,112.549,37.9854,太原市,南寨,,,,,,,,,,,,,,,,
2023-09-02T03:00:00,1090A,111.6507,40.7517,呼和浩特市,呼市一监,,32,29,28,22,13,179,32,69,49,36,17,7,8,0.6,0.5
2023-09-02T03:00:00,1091A,111.6572,40.8033,呼和浩特市,小召,,32,29,35,22,14,176,64,70,65,26,26,5,8,0.6,0.6
2023-09-02T03:00:00,1094A,111.7516,40.8369,呼和浩特市,如意水处理厂,,36,36,34,17,12,185,65,64,64,28,22,7,9,0.5,0.5
2023-09-02T03:00:00,1095A,111.7276,40.8062,呼和浩特市,二十九中,,36,36,35,24,16,184,58,73,65,33,25,7,9,0.6,0.6
2023-09-02T03:00:00,1096A,111.5512,40.7866,呼和浩特市,工大金川校区,,22,22,33,12,11,186,55,48,48,27,26,4,6,0.5,0.5
2023-09-02T03:00:00,1097A,111.717,40.7612,呼和浩特市,化肥厂生活区,,38,38,35,22,13,181,66,76,70,23,18,6,8,0.4,0.5
2023-09-02T03:00:00,1098A,123.6836,41.9339,沈阳市,森林路,,,,,,,,,,,,,,,,
2023-09-02T03:00:00,1099A,123.505,41.7406,沈阳市,浑南东路,颗粒物(PM10),54,57,35,25,16,118,3,48,24,54,29,28,20,1.5,0.9
2023-09-02T03:00:00,1100A,123.4231,41.6989,沈阳市,新秀街,颗粒物(PM10),59,68,44,21,14,106,20,33,25,52,32,94,27,1.7,1
2023-09-02T03:00:00,1102A,123.5903,41.8411,沈阳市,东陵路,颗粒物(PM10),58,66,40,26,14,127,9,16,14,47,34,20,11,1.4,0.9
2023-09-02T03:00:00,1103A,123.4264,41.8467,沈阳市,陵东街,,35,33,29,24,16,115,38,61,52,28,24,8,9,1.5,0.9
2023-09-02T03:00:00,1104A,123.4114,41.7653,沈阳市,文化路,颗粒物(PM10),57,64,37,33,19,120,38,69,52,36,24,29,14,1.6,0.8
2023-09-02T03:00:00,1105A,123.4678,41.7867,沈阳市,小河沿,颗粒物(PM10),51,52,37,31,17,117,29,66,47,34,27,17,11,1.6,1
2023-09-02T03:00:00,1106A,123.4017,41.7972,沈阳市,太原街,细颗粒物(PM2.5),57,40,34,40,20,118,41,66,50,32,24,25,14,1.5,0.8
2023-09-02T03:00:00,1108A,123.3783,41.9228,沈阳市,京沈街,,38,36,41,26,18,116,59,64,63,10,14,12,13,0.9,0.9
2023-09-02T03:00:00,1109A,121.612,38.9741,大连市,甘井子,颗粒物(PM10),67,84,39,35,17,166,100,110,107,23,25,5,5,0,0.9
2023-09-02T03:00:00,1110A,121.565,38.9511,大连市,周水子,,25,25,25,17,15,145,80,60,60,27,33,11,10,0.7,0.4
2023-09-02T03:00:00,1111A,121.5637,38.8845,大连市,星海三站,,20,18,27,8,18,179,64,46,46,14,18,7,5,0.5,0.4
2023-09-02T03:00:00,1112A,121.6302,38.9117,大连市,青泥洼桥,,36,36,33,18,18,178,74,52,52,30,31,6,5,1.0,0.7
2023-09-02T03:00:00,1113A,121.6251,38.8638,大连市,傅家庄,臭氧1小时,57,20,26,11,16,188,165,118,118,6,15,17,10,1.1,0.5
2023-09-02T03:00:00,1114A,121.5213,38.8661,大连市,七贤岭,,20,9,24,10,15,191,61,61,60,12,13,5,5,0.4,0.5
2023-09-02T03:00:00,1115A,121.2529,38.8061,大连市,旅顺,,38,32,27,23,20,149,119,120,114,14,17,8,7,1.7,1.1
2023-09-02T03:00:00,1116A,121.7485,39.1311,大连市,金州,,50,50,23,28,13,135,107,100,100,9,13,7,7,0.9,0.4
2023-09-02T03:00:00,1117A,121.7811,39.0496,大连市,开发区,,46,31,29,32,18,181,126,127,127,10,20,8,6,1.1,0.7
2023-09-02T03:00:00,1118A,121.9762,39.0631,大连市,双D港,臭氧1小时,52,29,26,21,16,203,161,115,115,11,15,11,8,1.1,0.5
2023-09-02T03:00:00,1119A,125.3325,43.9166,长春市,食品厂,,50,50,39,20,18,76,8,8,7,65,35,6,4,0.5,0.6
2023-09-02T03:00:00,1120A,125.2863,43.9027,长春市,客车厂,,44,44,31,17,16,78,8,15,10,63,31,6,5,0.6,0.6
2023-09-02T03:00:00,1121A,125.2841,43.8463,长春市,邮电学院,,48,48,37,13,15,83,1,2,1,43,23,5,5,0.5,0.5
2023-09-02T03:00:00,1122A,125.3716,43.8772,长春市,劳动公园,,45,45,36,12,14,85,4,4,4,49,26,7,6,0.5,0.5
2023-09-02T03:00:00,1123A,125.3297,43.8805,长春市,园林处,,40,40,34,12,13,79,16,9,9,49,27,8,5,0.5,0.5
2023-09-02T03:00:00,1124A,125.4605,43.79,长春市,净月潭,,16,16,19,5,8,86,20,19,19,8,11,5,6,0.3,0.3
2023-09-02T03:00:00,1125A,125.7194,43.515,长春市,甩湾子,,,,,,,,,,,,,,,,
2023-09-02T03:00:00,1126A,125.3863,43.8447,长春市,经开区环卫处,颗粒物(PM10),53,55,40,12,19,78,4,2,2,37,25,5,5,0.5,0.5
2023-09-02T03:00:00,1127A,125.245,43.7783,长春市,高新区管委会,,24,24,28,10,13,81,10,13,12,46,24,6,6,0.4,0.4
2023-09-02T03:00:00,1128A,125.1761,43.8325,长春市,岱山公园,颗粒物(PM10),51,51,39,13,15,76,9,7,7,59,32,10,4,0.6,0.5
2023-09-02T03:00:00,1129A,126.5422,45.755,哈尔滨市,岭北,,26,26,13,14,9,67,32,37,35,18,11,9,8,0.3,0.3
2023-09-02T03:00:00,1130A,126.561,45.8167,哈尔滨市,松北商大,,20,20,17,8,7,48,22,29,26,19,17,6,6,0.4,0.4
2023-09-02T03:00:00,1131A,126.979,45.5419,哈尔滨市,阿城会宁,,24,24,29,10,13,63,11,12,12,20,16,24,11,0.4,0.7
2023-09-02T03:00:00,1132A,126.599,45.7222,哈尔滨市,南岗学府路,,30,30,30,13,9,59,10,6,6,38,21,8,7,0.5,0.5
2023-09-02T03:00:00,1133A,126.689,45.7733,哈尔滨市,太平宏伟公园,,48,48,24,18,9,56,4,4,4,41,25,5,4,0.6,0.5
2023-09-02T03:00:00,1134A,126.635,45.7667,哈尔滨市,道外承德广场,,25,25,22,16,10,55,11,14,11,45,30,9,8,0.4,0.5
2023-09-02T03:00:00,1135A,126.685,45.7319,哈尔滨市,香坊红旗大街,颗粒物(PM10),51,52,29,28,15,64,6,9,7,46,31,12,8,0.7,0.7
2023-09-02T03:00:00,1136A,126.6411,45.7258,哈尔滨市,动力和平路,,,26,26,,,60,1,10,7,52,29,9,7,0.5,0.5
2023-09-02T03:00:00,1137A,126.593,45.7478,哈尔滨市,道里建国路,,30,30,25,12,11,52,5,17,11,45,27,6,5,1.7,0.6
2023-09-02T03:00:00,1138A,126.615,45.61,哈尔滨市,平房东轻厂,,21,21,19,7,7,63,22,15,15,21,20,6,6,0.3,0.3
2023-09-02T03:00:00,1139A,126.595,45.9855,哈尔滨市,呼兰师专,,28,28,19,15,7,60,27,38,31,29,13,6,6,0.5,0.5
2023-09-02T03:00:00,1140A,126.6206,45.6842,哈尔滨市,省农科院,,40,40,27,12,8,68,6,30,17,53,22,9,5,0.5,0.4
2023-09-02T03:00:00,1141A,121.4,31.238,上海市,普陀,,35,35,22,18,10,109,106,98,98,12,16,4,4,0.7,0.6
2023-09-02T03:00:00,1142A,121.478,31.2036,上海市,十五厂,,35,32,24,19,11,114,110,107,107,16,20,11,11,0.4,0.3
2023-09-02T03:00:00,1143A,121.467,31.3008,上海市,虹口,,32,32,19,16,13,106,100,96,96,20,21,6,6,0.6,0.5
2023-09-02T03:00:00,1144A,121.412,31.1654,上海市,徐汇上师大,,36,36,22,19,14,116,111,107,107,13,18,6,11,0.4,0.4
2023-09-02T03:00:00,1145A,121.536,31.2659,上海市,杨浦四漂,,32,30,21,16,12,117,102,96,96,16,15,7,7,0.8,0.7
2023-09-02T03:00:00,1147A,121.425,31.2261,上海市,静安监测站,,36,31,19,14,10,117,115,107,107,13,17,3,3,0.5,0.5
2023-09-02T03:00:00,1148A,121.703,31.1907,上海市,浦东川沙,,35,26,22,17,14,117,109,116,113,6,9,6,6,0.6,0.6
2023-09-02T03:00:00,1149A,121.533,31.2284,上海市,浦东新区监测站,,34,34,20,13,10,108,95,88,88,17,15,8,7,0.6,0.5
2023-09-02T03:00:00,1150A,121.577,31.2071,上海市,浦东张江,,34,34,21,19,11,102,97,92,92,16,16,5,5,0.6,0.5
2023-09-02T03:00:00,1151A,118.8086,32.1065,南京市,迈皋桥,,33,33,24,12,10,162,13,24,19,44,26,4,5,0.4,0.3
2023-09-02T03:00:00,1152A,118.7538,32.0551,南京市,草场门,,31,31,28,14,10,176,32,54,42,43,25,3,3,0.6,0.5
2023-09-02T03:00:00,1153A,118.7794,32.0745,南京市,山西路,,36,36,33,14,12,177,30,36,31,44,21,4,4,0.3,0.3
2023-09-02T03:00:00,1154A,118.7752,32.0023,南京市,中华门,,31,31,25,14,10,160,37,34,34,40,22,4,3,0.9,0.6
2023-09-02T03:00:00,1155A,118.8109,32.0309,南京市,瑞金路,,27,27,24,9,9,155,48,63,50,25,13,11,9,0.6,0.4
2023-09-02T03:00:00,1156A,118.7997,32.0754,南京市,玄武湖,,44,44,30,13,11,167,12,39,20,61,27,6,6,0.3,0.2
2023-09-02T03:00:00,1157A,118.6414,32.0931,南京市,浦口,,37,37,28,17,13,156,38,34,33,40,24,7,8,0.6,0.6
2023-09-02T03:00:00,1158A,118.7356,31.9996,南京市,奥体中心,,24,24,27,12,13,172,38,59,50,46,21,8,6,0.6,0.4
2023-09-02T03:00:00,1159A,118.9125,32.1028,南京市,仙林大学城,,31,31,27,12,12,166,18,13,13,45,23,8,9,0.7,0.6
2023-09-02T03:00:00,1160A,120.561,31.2472,苏州市,上方山,,31,31,24,15,13,108,30,78,52,24,15,6,7,0.6,0.6
2023-09-02T03:00:00,1162A,120.591,31.3019,苏州市,彩香,颗粒物(PM10),53,55,26,34,14,126,46,78,54,23,16,7,7,0.7,0.7
2023-09-02T03:00:00,1163A,120.596,31.3264,苏州市,轧钢厂,颗粒物(PM10),53,55,27,29,12,128,37,76,45,33,21,9,9,0.7,0.7
2023-09-02T03:00:00,1164A,120.613,31.2703,苏州市,吴中区,颗粒物(PM10),52,54,26,22,11,127,76,82,80,18,20,8,8,0.7,0.7
2023-09-02T03:00:00,1165A,120.543,31.2994,苏州市,苏州新区,颗粒物(PM10),54,57,25,34,12,125,58,67,61,25,20,8,8,0.8,0.7
2023-09-02T03:00:00,1166A,120.669,31.3097,苏州市,苏州工业园区,,46,46,22,22,12,128,69,87,77,24,20,7,8,0.7,0.7
2023-09-02T03:00:00,1167A,120.641,31.3708,苏州市,相城区,,43,39,25,30,12,121,74,86,76,14,18,8,7,0.7,0.7
2023-09-02T03:00:00,1168A,120.9098,31.9663,南通市,狼山街道,,33,27,18,10,6,114,105,103,103,15,16,7,7,0.5,0.4
2023-09-02T03:00:00,1169A,120.86,32.0005,南通市,虹桥,,37,31,21,20,13,119,118,119,118,12,14,6,6,0.6,0.5
2023-09-02T03:00:00,1170A,120.87,32.02,南通市,城中,,35,26,19,18,9,112,111,110,110,4,7,7,6,0.6,0.6
2023-09-02T03:00:00,1171A,120.94,31.93,南通市,星湖花园,,31,25,20,16,8,110,99,104,102,13,14,6,6,0.6,0.5
2023-09-02T03:00:00,1172A,120.81,32.0417,南通市,紫琅学院,,26,26,20,11,7,114,82,81,81,16,16,6,7,0.7,0.5
2023-09-02T03:00:00,1173A,119.176,34.5885,连云港市,市环境监测站,细颗粒物(PM2.5),83,92,61,61,36,203,111,81,81,20,17,10,9,0.6,0.6
2023-09-02T03:00:00,1177A,117.179,34.2761,徐州市,黄河新村,颗粒物(PM10),71,92,54,47,29,202,8,154,76,73,23,9,10,0.6,0.4
2023-09-02T03:00:00,1178A,117.1918,34.2384,徐州市,淮塔,细颗粒物(PM2.5),67,74,55,48,29,202,66,85,76,28,22,8,9,0.5,0.3
2023-09-02T03:00:00,1180A,117.256,34.2153,徐州市,新城区,细颗粒物(PM2.5),69,70,56,50,28,197,75,93,87,25,24,6,6,0.7,0.5
2023-09-02T03:00:00,1181A,117.244,34.2911,徐州市,桃园路,细颗粒物(PM2.5),69,66,54,50,28,196,74,105,88,23,16,9,10,0.8,0.6
2023-09-02T03:00:00,1182A,117.2933,34.2778,徐州市,农科院,颗粒物(PM10),57,63,48,39,27,198,28,58,48,88,40,8,8,0.6,0.4
2023-09-02T03:00:00,1186A,119.389,32.3761,扬州市,邗江监测站,,41,41,30,19,13,147,71,87,81,22,16,14,7,0.5,0.4
2023-09-02T03:00:00,1188A,120.269,31.4867,无锡市,雪浪,,34,34,32,17,13,144,58,76,70,25,21,6,6,1.0,0.7
2023-09-02T03:00:00,1189A,120.275,31.6219,无锡市,黄巷,颗粒物(PM10),53,55,36,29,15,125,37,54,48,59,34,9,8,0.9,0.9
2023-09-02T03:00:00,1190A,120.294,31.56,无锡市,曹张,,45,45,36,31,16,134,72,68,66,23,28,12,9,1.4,0.8
2023-09-02T03:00:00,1191A,120.242,31.5031,无锡市,漆塘,,25,24,24,17,12,139,23,38,29,24,23,5,6,0.8,0.7
2023-09-02T03:00:00,1192A,120.3489,31.5863,无锡市,东亭,颗粒物(PM10),51,51,32,34,18,130,52,45,45,44,36,10,7,1.3,0.7
2023-09-02T03:00:00,1193A,120.354,31.5475,无锡市,旺庄,颗粒物(PM10),51,51,31,27,17,133,73,70,70,20,19,14,11,1.5,0.9
2023-09-02T03:00:00,1194A,120.245,31.5631,无锡市,荣巷,,39,39,24,22,12,144,78,91,82,15,16,15,11,1.4,0.8
2023-09-02T03:00:00,1195A,120.299,31.6817,无锡市,堰桥,,49,48,27,34,12,124,53,58,54,29,20,7,8,1.1,1
2023-09-02T03:00:00,1196A,119.9633,31.762,常州市,市监测站,颗粒物(PM10),56,61,29,20,14,134,96,92,92,18,21,9,8,0.7,0.5
2023-09-02T03:00:00,1200A,119.9468,31.7069,常州市,武进监测站,颗粒物(PM10),56,61,30,15,11,149,96,92,92,16,17,8,7,1.0,0.7
2023-09-02T03:00:00,1201A,119.9255,31.9087,常州市,安家,颗粒物(PM10),62,73,33,21,14,131,48,67,61,25,19,12,7,0.8,0.6
2023-09-02T03:00:00,1203A,119.6707,32.1875,镇江市,新区办事处,,35,35,23,23,11,140,93,98,95,22,16,4,4,0.6,0.5
2023-09-02T03:00:00,1204A,119.4974,32.1968,镇江市,职教中心,细颗粒物(PM2.5),55,46,28,39,18,154,55,58,56,39,24,12,4,0.6,0.5
2023-09-02T03:00:00,1205A,119.4303,32.1328,镇江市,丹徒区监测站,,33,33,28,23,14,167,73,72,68,26,17,2,3,0.7,0.6
2023-09-02T03:00:00,1206A,119.905,32.4878,泰州市,公园路,,46,46,26,27,19,136,61,78,65,26,14,25,9,0.9,0.7
2023-09-02T03:00:00,1207A,119.9189,32.4625,泰州市,莲花,颗粒物(PM10),53,56,26,36,15,132,71,100,82,25,12,19,7,0.9,0.6
2023-09-02T03:00:00,1209A,119.888,32.4639,泰州市,留学生创业园,颗粒物(PM10),58,65,32,35,15,132,52,87,69,31,17,22,9,0.7,0.6
2023-09-02T03:00:00,1210A,119.036,33.5981,淮安市,钵池山,细颗粒物(PM2.5),67,56,38,48,26,154,47,75,62,41,20,8,8,0.9,0.8
2023-09-02T03:00:00,1211A,119.007,33.575,淮安市,北京南路,细颗粒物(PM2.5),57,46,42,40,24,160,69,73,72,22,23,8,8,0.7,0.6
2023-09-02T03:00:00,1212A,118.989,33.6067,淮安市,市监测站,颗粒物(PM10),60,70,47,41,23,162,24,71,53,54,22,7,7,1.0,0.8
2023-09-02T03:00:00,1213A,119.135,33.5039,淮安市,楚州区监测站,细颗粒物(PM2.5),53,54,40,37,25,157,63,80,75,34,21,9,8,0.8,0.7
2023-09-02T03:00:00,1214A,119.0186,33.6297,淮安市,淮阴区监测站,细颗粒物(PM2.5),68,68,48,49,28,160,35,77,55,47,25,7,8,0.9,0.8
2023-09-02T03:00:00,1215A,120.118,33.4022,盐城市,盐城电厂,,46,46,41,31,21,178,98,123,111,10,13,7,7,0.7,0.5
2023-09-02T03:00:00,1216A,120.156,33.3942,盐城市,市监测站,细颗粒物(PM2.5),68,45,36,49,24,179,94,99,93,15,15,5,7,0.7,0.6
2023-09-02T03:00:00,1218A,120.2144,33.38,盐城市,开发区管委会,,48,26,29,33,19,181,104,106,106,8,11,10,8,0.5,0.5
2023-09-02T03:00:00,1220A,118.293,33.9528,宿迁市,宿迁学院,细颗粒物(PM2.5),103,86,53,77,39,200,84,108,93,35,26,10,10,0.8,0.6
2023-09-02T03:00:00,1221A,118.2442,33.9592,宿迁市,宿迁中学,细颗粒物(PM2.5),97,83,55,72,39,192,80,111,95,18,20,6,7,0.8,0.7
2023-09-02T03:00:00,1223A,120.2072,30.2111,杭州市,滨江,,40,40,26,17,13,174,72,67,67,15,21,7,7,0.6,0.6
2023-09-02T03:00:00,1224A,120.0633,30.2747,杭州市,西溪,,38,38,32,18,16,167,33,66,48,27,17,4,4,0.7,0.7
2023-09-02T03:00:00,1226A,120.3461,30.3153,杭州市,下沙,,41,41,31,24,15,164,40,31,31,34,30,4,3,0.7,0.7
2023-09-02T03:00:00,1227A,120.1269,30.2456,杭州市,卧龙桥,,25,25,28,15,14,178,19,20,19,18,17,5,4,0.6,0.6
2023-09-02T03:00:00,1228A,120.1903,30.2692,杭州市,浙江农大,,30,30,25,17,14,152,51,52,52,23,24,7,8,0.5,0.5
2023-09-02T03:00:00,1230A,120.1197,30.3119,杭州市,和睦小学,,36,36,32,18,18,159,39,71,53,44,29,8,8,0.6,0.7
2023-09-02T03:00:00,1231A,120.3019,30.4183,杭州市,临平镇,,48,48,26,22,12,168,64,63,63,15,17,4,5,0.5,0.5
2023-09-02T03:00:00,1232A,120.2697,30.1819,杭州市,城厢镇,,46,46,35,26,17,167,58,66,61,22,22,7,6,0.6,0.7
2023-09-02T03:00:00,1233A,120.0883,30.1808,杭州市,云栖,,20,19,22,14,14,176,46,43,43,11,15,6,6,0.2,0.6
2023-09-02T03:00:00,1234A,121.8358,29.911,宁波市,区环保大楼,,30,21,18,12,10,128,93,128,112,18,17,4,4,0.5,0.5
2023-09-02T03:00:00,1235A,121.56,29.82,宁波市,万里学院,,25,22,26,8,8,131,77,106,88,15,14,5,5,0.6,0.6
2023-09-02T03:00:00,1236A,121.713,29.9572,宁波市,龙赛医院,,32,29,30,8,9,126,100,125,113,6,13,7,7,0.5,0.5
2023-09-02T03:00:00,1239A,121.633,29.7733,宁波市,钱湖水厂,,29,28,22,17,14,135,92,119,107,10,13,6,6,0.6,0.5
2023-09-02T03:00:00,1240A,121.5856,29.8635,宁波市,太古小学,,29,20,20,10,9,126,91,104,98,11,16,6,6,0.7,0.7
2023-09-02T03:00:00,1241A,121.524,29.8674,宁波市,市环境监测中心,,28,28,21,11,9,132,71,76,74,14,9,9,8,0.5,0.5
2023-09-02T03:00:00,1242A,120.634,28.0089,温州市,瓯海,,23,19,27,8,13,84,73,72,72,15,18,6,6,0.5,0.5
2023-09-02T03:00:00,1243A,120.6748,27.9939,温州市,南浦,,26,15,21,10,13,94,81,90,87,10,11,5,5,0.4,0.5
2023-09-02T03:00:00,1244A,120.76,27.9747,温州市,龙湾,,25,16,20,5,7,95,80,95,88,14,14,6,6,0.4,0.5
2023-09-02T03:00:00,1245A,120.6709,28.0167,温州市,市站,,24,13,23,10,13,89,74,86,82,11,12,6,5,0.4,0.4
2023-09-02T03:00:00,1247A,120.6053,29.9928,绍兴市,城东开发委,,49,49,20,18,11,143,38,51,44,31,20,8,7,0.6,0.5
2023-09-02T03:00:00,1250A,120.0751,30.8669,湖州市,城西水厂,,38,38,25,21,15,167,10,52,23,62,29,3,3,0.6,0.7
2023-09-02T03:00:00,1252A,120.7436,30.778,嘉兴市,清河小学,颗粒物(PM10),51,51,24,21,10,139,66,66,66,16,18,6,5,0.9,0.9
2023-09-02T03:00:00,1253A,120.726,30.7478,嘉兴市,嘉兴学院,,43,43,21,30,12,151,68,74,69,18,19,4,4,0.6,0.5
2023-09-02T03:00:00,1255A,121.273,28.6459,台州市,黄岩环保大楼,,26,22,23,12,14,140,83,89,86,10,11,6,6,0.5,0.5
2023-09-02T03:00:00,1256A,121.419,28.6542,台州市,台州环保大楼,,27,21,21,9,11,132,86,86,86,8,10,6,6,0.4,0.5
2023-09-02T03:00:00,1257A,121.377,28.5773,台州市,路桥田洋王,,26,22,20,12,13,138,82,83,82,5,7,4,4,0.4,0.4
2023-09-02T03:00:00,1258A,122.122,30.0203,舟山市,定海檀枫,,31,24,20,10,10,132,97,132,117,5,5,5,6,0.5,0.5
2023-09-02T03:00:00,1259A,122.3094,29.9558,舟山市,普陀东港,,41,26,24,14,11,154,130,154,143,4,6,4,4,0.5,0.5
2023-09-02T03:00:00,1260A,122.19,29.9944,舟山市,临城新区,,36,24,22,11,8,147,114,147,132,3,4,6,7,0.4,0.4
2023-09-02T03:00:00,1262A,119.647,29.077,金华市,十五中,,30,30,32,20,15,169,56,83,69,32,23,4,4,0.4,0.4
2023-09-02T03:00:00,1263A,119.686,29.1029,金华市,监测站,,43,43,37,20,17,156,53,58,56,32,24,4,4,0.5,0.5
2023-09-02T03:00:00,1264A,118.8692,28.9398,衢州市,环保大楼,颗粒物(PM10),53,56,39,32,23,151,83,114,101,25,16,4,4,0.6,0.6
2023-09-02T03:00:00,1265A,118.8709,28.9666,衢州市,实验学校,颗粒物(PM10),55,59,45,27,22,150,56,92,69,35,19,5,4,0.4,0.5
2023-09-02T03:00:00,1266A,118.8621,28.9808,衢州市,衢州学院,,40,40,38,24,23,152,87,77,77,24,22,4,4,0.4,0.5
2023-09-02T03:00:00,1267A,119.914,28.4514,丽水市,监测站大楼,,33,33,39,19,18,97,29,30,30,30,20,6,5,0.5,0.5
2023-09-02T03:00:00,1268A,119.93,28.4586,丽水市,莲都小学,,25,25,35,10,18,103,66,43,43,21,19,5,5,0.4,0.5
2023-09-02T03:00:00,1269A,119.879,28.4231,丽水市,余庄前,,48,48,41,18,19,100,4,4,4,16,14,5,5,0.6,0.5
2023-09-02T03:00:00,1270A,117.1959,31.7848,合肥市,明珠广场,颗粒物(PM10),51,51,40,22,19,164,78,105,92,35,27,7,8,0.7,0.6
2023-09-02T03:00:00,1271A,117.3072,31.8764,合肥市,三里街,,46,46,37,27,22,138,86,102,93,24,24,6,6,0.4,0.4
2023-09-02T03:00:00,1272A,117.2588,31.8707,合肥市,琥珀山庄,,39,39,34,17,16,151,90,112,102,21,16,5,6,0.6,0.6
2023-09-02T03:00:00,1273A,117.1604,31.9052,合肥市,董铺水库,,48,48,37,27,16,151,86,95,91,21,20,5,6,0.4,0.5
2023-09-02T03:00:00,1274A,117.25,31.8571,合肥市,长江中路,颗粒物(PM10),51,51,43,26,21,146,112,107,107,12,15,8,8,0.5,0.6
2023-09-02T03:00:00,1275A,117.266,31.9436,合肥市,庐阳区,颗粒物(PM10),67,84,47,29,21,147,69,89,81,31,24,4,5,0.6,0.5
2023-09-02T03:00:00,1276A,117.336,31.8586,合肥市,瑶海区,颗粒物(PM10),51,51,41,27,16,136,93,104,98,14,14,5,5,0.6,0.6
2023-09-02T03:00:00,1277A,117.3027,31.7964,合肥市,包河区,颗粒物(PM10),51,51,43,24,20,149,44,54,50,66,51,6,6,0.6,0.5
2023-09-02T03:00:00,1278A,117.2776,31.7385,合肥市,滨湖新区,,42,41,38,29,15,157,95,120,107,19,18,8,7,0.5,0.5
2023-09-02T03:00:00,1279A,117.1318,31.8403,合肥市,高新区,,45,41,36,31,21,150,84,115,102,34,24,10,9,0.7,0.6
2023-09-02T03:00:00,1280A,119.3903,26.0543,福州市,鼓山,,,,,,,,,,,,,,,,
2023-09-02T03:00:00,1282A,119.2681,26.0504,福州市,师大,,17,17,20,9,9,96,47,53,49,4,4,3,3,0.4,0.5
2023-09-02T03:00:00,1283A,119.2984,26.1028,福州市,五四北路,,15,14,19,7,9,100,47,54,50,8,8,3,3,0.5,0.5
2023-09-02T03:00:00,1284A,119.2648,26.0768,福州市,杨桥西路,,20,20,22,9,10,98,44,47,46,8,7,3,3,0.6,0.6
2023-09-02T03:00:00,1285A,119.317,26.0746,福州市,紫阳,,16,16,19,10,8,96,46,56,53,6,5,4,4,0.5,0.5
2023-09-02T03:00:00,1286A,118.1608,24.8169,厦门市,溪东,,,,,,,,,,,,,,,,
2023-09-02T03:00:00,1287A,118.1514,24.4767,厦门市,洪文,,12,12,18,6,7,51,37,44,42,2,3,1,2,0.3,0.3
2023-09-02T03:00:00,1288A,118.0661,24.4444,厦门市,鼓浪屿,,20,14,16,10,11,72,61,64,63,4,6,1,1,0.2,0.3
2023-09-02T03:00:00,1290A,115.8931,28.6843,南昌市,省外办,,38,38,40,17,20,133,90,90,89,16,13,6,6,0.7,0.7
2023-09-02T03:00:00,1291A,115.8886,28.7003,南昌市,省林业公司,,39,36,33,27,22,130,83,85,84,9,11,8,8,0.8,0.7
2023-09-02T03:00:00,1292A,115.8126,28.7442,南昌市,林科所,,34,19,20,9,13,144,108,110,109,8,9,8,8,0.8,0.8
2023-09-02T03:00:00,1294A,115.8518,28.687,南昌市,建工学校,,34,28,33,8,13,148,108,113,110,14,13,11,11,0.7,0.7
2023-09-02T03:00:00,1295A,115.8921,28.6424,南昌市,象湖,,31,23,31,18,22,148,97,101,99,13,13,8,8,0.5,0.5
2023-09-02T03:00:00,1296A,115.7423,28.7996,南昌市,武术学校,,20,15,20,8,10,149,64,76,68,10,9,2,2,0.3,0.3
2023-09-02T03:00:00,1298A,115.9314,28.6842,南昌市,省站,,30,30,36,17,18,140,89,101,94,12,12,9,10,0.7,0.7
2023-09-02T03:00:00,1299A,116.9862,36.6114,济南市,科干所,细颗粒物(PM2.5),83,78,77,61,50,220,79,111,100,33,25,6,7,0.7,0.6
2023-09-02T03:00:00,1300A,116.9376,36.665,济南市,农科所,颗粒物(PM10),74,98,71,44,38,210,7,8,7,96,39,7,7,0.6,0.5
2023-09-02T03:00:00,1301A,117.1265,36.6734,济南市,开发区,颗粒物(PM10),73,95,78,51,43,213,30,49,39,75,40,5,8,0.9,0.8
2023-09-02T03:00:00,1303A,117.0624,36.6868,济南市,省种子仓库,颗粒物(PM10),82,114,85,56,42,205,3,10,5,100,51,8,8,1.1,1
2023-09-02T03:00:00,1304A,116.9489,36.6447,济南市,机床二厂,细颗粒物(PM2.5),102,122,81,76,43,206,36,64,50,55,34,6,8,1.1,0.9
2023-09-02T03:00:00,1305A,117.0495,36.663,济南市,市监测站,细颗粒物(PM2.5),70,78,75,51,45,211,73,84,75,48,38,5,7,0.7,0.6
2023-09-02T03:00:00,1306A,116.7675,36.5484,济南市,长清党校,细颗粒物(PM2.5),104,93,76,78,52,212,46,60,54,44,28,4,3,0.7,0.5
2023-09-02T03:00:00,1307A,120.6659,36.2403,青岛市,仰口,细颗粒物(PM2.5),52,41,49,36,35,151,84,115,98,5,7,6,7,0.5,0.5
2023-09-02T03:00:00,1310A,120.4134,36.0658,青岛市,市南区东部子站,,46,46,56,24,30,217,141,158,149,9,20,4,8,0.7,0.8
2023-09-02T03:00:00,1311A,120.3664,36.1032,青岛市,四方区子站,,45,44,54,31,37,216,142,171,160,9,21,5,9,0.8,0.8
2023-09-02T03:00:00,1312A,120.2994,36.054,青岛市,市南区西部子站,臭氧1小时,54,46,63,24,31,224,163,154,154,5,26,5,8,0.7,0.7
2023-09-02T03:00:00,1313A,120.4581,36.0858,青岛市,崂山区子站,细颗粒物(PM2.5),55,34,57,39,38,226,116,148,132,13,22,7,10,0.5,0.5
2023-09-02T03:00:00,1314A,120.1983,35.9608,青岛市,黄岛区子站,细颗粒物(PM2.5),55,51,54,39,37,219,155,175,163,10,21,6,9,0.7,0.7
2023-09-02T03:00:00,1315A,120.3999,36.3083,青岛市,城阳区子站,颗粒物(PM10),56,61,56,32,26,179,117,116,116,15,28,5,7,0.7,0.8
2023-09-02T03:00:00,1316A,113.69031,34.76122,郑州市,烟厂,颗粒物(PM10),58,66,60,32,29,174,92,79,79,30,26,2,3,0.6,0.7
2023-09-02T03:00:00,1317A,113.65724,34.77134,郑州市,郑纺机,颗粒物(PM10),52,53,60,30,24,179,103,101,101,16,20,2,2,0.7,0.7
2023-09-02T03:00:00,1318A,113.67526,34.80246,郑州市,银行学校,,,,,,,,,,,,,,,,
2023-09-02T03:00:00,1319A,113.56746,34.81334,郑州市,供水公司,颗粒物(PM10),60,70,63,38,31,176,41,37,37,49,33,2,3,0.5,0.5
2023-09-02T03:00:00,1320A,113.7329,34.7178,郑州市,经开区管委,颗粒物(PM10),65,80,59,46,33,167,52,52,52,26,17,4,4,0.8,0.7
2023-09-02T03:00:00,1321A,113.73961,34.77172,郑州市,四十七中,颗粒物(PM10),60,70,53,41,35,157,69,65,65,31,26,8,7,0.7,0.5
2023-09-02T03:00:00,1322A,113.60532,34.74838,郑州市,市监测站,颗粒物(PM10),74,97,62,36,28,180,9,96,40,66,27,5,6,0.7,0.6
2023-09-02T03:00:00,1323A,113.64164,34.7525,郑州市,河医大,颗粒物(PM10),61,71,58,39,28,168,59,70,63,29,23,4,5,0.8,0.7
2023-09-02T03:00:00,1324A,113.51488,34.91089,郑州市,岗李水库,,,,,,,,,,,,,,,,
2023-09-02T03:00:00,1325A,114.3677,30.5584,武汉市,东湖梨园,,29,28,25,20,18,198,78,97,84,36,19,23,11,2.5,0.8
2023-09-02T03:00:00,1326A,114.2529,30.558,武汉市,汉阳月湖,,30,20,28,12,16,161,94,111,103,23,22,7,7,0.9,0.6
2023-09-02T03:00:00,1327A,114.282,30.6189,武汉市,汉口花桥,,34,22,31,17,18,171,108,114,111,13,18,7,8,0.5,0.6
2023-09-02T03:00:00,1328A,114.3025,30.5332,武汉市,武昌紫阳,,32,32,30,11,18,201,76,109,88,37,20,18,9,1.8,0.7
2023-09-02T03:00:00,1329A,114.3646,30.6217,武汉市,青山钢花,,35,28,33,19,22,174,109,113,111,17,22,9,10,0.6,0.7
2023-09-02T03:00:00,1330A,114.1566,30.4825,武汉市,沌口新区,,30,19,31,21,25,216,83,108,96,28,25,14,9,1.2,0.6
2023-09-02T03:00:00,1331A,114.3014,30.5944,武汉市,汉口江滩,,35,17,29,10,17,188,112,117,115,12,16,7,8,0.4,0.5
2023-09-02T03:00:00,1333A,114.135,30.6319,武汉市,吴家山,,36,21,30,20,17,176,113,126,120,16,18,9,9,0.6,0.7
2023-09-02T03:00:00,1334A,113.8454,30.2917,武汉市,沉湖七壕,,28,26,32,13,20,222,87,96,92,20,18,3,3,0.6,0.7
2023-09-02T03:00:00,1335A,113.0833,28.2325,长沙市,经开区环保局,,36,25,28,17,19,169,115,122,119,12,10,8,7,0.4,0.4
2023-09-02T03:00:00,1336A,112.8872,28.2189,长沙市,高开区环保局,,48,48,39,25,25,171,61,68,66,10,9,8,7,0.7,0.6
2023-09-02T03:00:00,1337A,113.0792,28.2053,长沙市,马坡岭,,43,43,37,17,22,177,125,132,128,12,8,7,7,0.7,0.7
2023-09-02T03:00:00,1338A,112.9394,28.19,长沙市,湖南师范大学,,46,46,42,26,24,171,115,128,120,8,5,5,5,0.8,0.7
2023-09-02T03:00:00,1339A,113.0178,28.1322,长沙市,雨花区环保局,,38,26,31,20,20,173,119,124,121,13,13,7,7,0.4,0.4
2023-09-02T03:00:00,1340A,112.9792,28.2597,长沙市,伍家岭,,35,32,35,20,22,177,109,116,114,18,17,5,4,0.7,0.9
2023-09-02T03:00:00,1341A,113.0014,28.1944,长沙市,火车新站,,36,25,30,19,20,165,114,121,117,14,12,7,6,0.7,0.7
2023-09-02T03:00:00,1342A,112.9844,28.1178,长沙市,天心区环保局,,40,26,30,12,18,175,125,130,126,9,11,5,4,0.4,0.5
2023-09-02T03:00:00,1343A,112.8908,28.1308,长沙市,湖南中医药大学,,49,49,44,22,26,176,116,139,128,15,10,4,3,0.8,0.8
2023-09-02T03:00:00,1344A,112.9581,28.3611,长沙市,沙坪,,40,40,41,22,22,174,102,129,118,13,9,7,7,0.8,0.7
2023-09-02T03:00:00,1345A,113.2347,23.1423,广州市,广雅中学,,23,21,25,16,15,72,41,39,39,13,22,5,7,0.9,0.9
2023-09-02T03:00:00,1346A,113.2612,23.105,广州市,市五中,,20,20,26,13,15,89,50,48,48,4,12,5,7,0.6,0.7
2023-09-02T03:00:00,1348A,113.3478,23.0916,广州市,广东商学院,,19,19,35,9,15,69,43,45,44,5,15,3,4,0.4,0.9
2023-09-02T03:00:00,1349A,113.4332,23.1047,广州市,市八十六中,,16,15,22,11,13,71,39,46,42,6,7,4,4,0.5,0.6
2023-09-02T03:00:00,1350A,113.3505,22.9483,广州市,番禺中学,,15,12,20,10,14,79,43,46,45,9,15,4,5,0.6,0.7
2023-09-02T03:00:00,1351A,113.2146,23.3916,广州市,花都师范,,25,25,19,15,12,84,52,51,51,5,10,6,8,0.7,0.7
2023-09-02T03:00:00,1352A,113.2597,23.1331,广州市,市监测站,,36,36,31,23,18,79,48,44,44,11,22,6,7,0.5,0.7
2023-09-02T03:00:00,1353A,113.5618,23.312,广州市,九龙镇镇龙,,16,16,21,9,14,64,39,42,41,5,6,6,7,0.4,0.5
2023-09-02T03:00:00,1354A,113.2765,23.1544,广州市,麓湖,,23,21,22,16,13,80,47,46,46,8,16,5,7,0.6,0.7
2023-09-02T03:00:00,1355A,113.443,23.3035,广州市,帽峰山森林公园,,15,12,15,9,12,69,47,51,49,6,8,6,7,0.3,0.4
2023-09-02T03:00:00,1356A,114.1063,22.5545,深圳市,通心岭子站,,22,9,14,2,7,71,69,68,68,4,9,5,6,0.4,0.4
2023-09-02T03:00:00,1357A,114.117,22.5625,深圳市,洪湖,,21,6,18,2,6,70,67,67,67,3,8,5,5,0.5,0.5
2023-09-02T03:00:00,1358A,113.987,22.5417,深圳市,华侨城,,22,8,15,0,6,68,68,65,65,3,8,6,6,0.6,0.7
2023-09-02T03:00:00,1359A,113.9181,22.5171,深圳市,南海子站,,20,6,18,0,9,64,64,61,61,4,10,4,4,0.7,0.8
2023-09-02T03:00:00,1360A,114.2458,22.5689,深圳市,盐田,,23,15,14,1,4,78,72,76,74,2,5,4,4,0.6,0.6
2023-09-02T03:00:00,1361A,114.2283,22.7244,深圳市,龙岗,,23,1,10,0,5,71,71,68,68,5,6,7,7,0.7,0.7
2023-09-02T03:00:00,1363A,114.494,22.5422,深圳市,南澳,,23,4,9,0,5,75,73,74,74,4,5,4,4,0.6,0.6
2023-09-02T03:00:00,1364A,114.41,22.6342,深圳市,葵涌,,22,2,10,0,5,75,70,74,72,3,6,4,4,0.5,0.5
2023-09-02T03:00:00,1365A,114.297,22.5978,深圳市,梅沙,,21,21,16,3,7,72,66,70,69,3,5,5,5,0.6,0.6
2023-09-02T03:00:00,1366A,114.0678,22.738,深圳市,观澜,,23,0,12,0,6,72,72,68,68,4,8,8,8,0.5,0.6
2023-09-02T03:00:00,1367A,113.5814,22.2618,珠海市,吉大,,25,25,21,14,9,87,54,59,57,6,10,2,3,0.5,0.5
2023-09-02T03:00:00,1368A,113.4881,22.2335,珠海市,前山,,16,10,15,8,12,87,51,52,52,2,11,7,8,0.4,0.4
2023-09-02T03:00:00,1369A,113.628,22.4251,珠海市,唐家,,22,17,24,12,10,88,68,61,61,3,8,4,5,0.4,0.5
2023-09-02T03:00:00,1370A,113.299,22.2281,珠海市,斗门,,17,10,18,3,13,107,54,47,47,1,9,5,7,0.5,0.7
2023-09-02T03:00:00,1371A,113.1294,23.0067,佛山市,湾梁,,16,9,14,10,12,90,49,45,45,5,12,7,8,0.6,0.6
2023-09-02T03:00:00,1372A,113.1083,23.0478,佛山市,华材职中,,19,9,20,13,14,80,39,35,35,9,15,9,9,0.4,0.5
2023-09-02T03:00:00,1373A,113.144,23.0453,佛山市,南海气象局,,16,16,20,8,12,81,43,38,38,8,13,6,6,0.6,0.6
2023-09-02T03:00:00,1374A,113.2881,22.8094,佛山市,顺德苏岗,,17,17,20,9,10,80,40,41,41,3,9,5,7,0.5,0.7
2023-09-02T03:00:00,1376A,112.8383,22.8678,佛山市,高明孔堂,,15,15,28,10,14,101,41,47,44,15,16,5,6,0.6,0.6
2023-09-02T03:00:00,1377A,112.8836,23.1588,佛山市,三水监测站,,19,5,19,13,14,89,42,42,42,7,13,4,4,0.6,0.7
2023-09-02T03:00:00,1378A,112.867,23.185,佛山市,三水云东海,,15,15,23,9,15,87,43,39,39,5,13,4,5,0.6,0.6
2023-09-02T03:00:00,1379A,113.3769,22.5211,中山市,华柏园,,22,0,20,15,14,100,48,46,46,5,11,4,5,0.3,0.5
2023-09-02T03:00:00,1380A,113.3881,22.5497,中山市,张溪,,15,3,24,7,15,95,47,45,44,2,10,3,4,0.4,0.6
2023-09-02T03:00:00,1381A,113.4075,22.5111,中山市,紫马岭,,15,4,22,2,13,93,48,45,45,2,9,6,6,0.3,0.5
2023-09-02T03:00:00,1382A,113.4411,22.4853,中山市,长江旅游区,,,,,,,,,,,,,,,,
2023-09-02T03:00:00,1383A,113.1064,22.6058,江门市,北街,,18,12,23,12,13,107,44,43,43,8,13,5,6,0.4,0.4
2023-09-02T03:00:00,1384A,113.0731,22.5835,江门市,西区,,15,10,23,6,12,110,47,47,47,8,13,5,6,0.5,0.6
2023-09-02T03:00:00,1385A,113.0219,22.5311,江门市,圭峰西,,16,11,21,6,12,111,50,51,50,7,11,4,4,0.4,0.5
2023-09-02T03:00:00,1386A,113.0828,22.5947,江门市,东湖,,18,18,23,12,11,117,50,52,51,7,11,7,7,0.4,0.5
2023-09-02T03:00:00,1389A,113.7547,23.0494,东莞市,莞城梨川,,15,10,20,4,12,62,45,43,43,6,13,9,9,0.6,0.7
2023-09-02T03:00:00,1390A,113.7944,23.0128,东莞市,东城石井,,15,8,17,3,10,67,45,48,46,3,8,7,7,0.7,0.7
2023-09-02T03:00:00,1391A,113.7383,22.9658,东莞市,南城西平,,13,5,18,2,11,60,41,42,41,6,12,5,5,0.8,0.9
2023-09-02T03:00:00,1392A,114.4183,23.0528,惠州市,河南岸金山湖子站,,16,3,12,9,10,53,49,50,49,3,6,4,4,0.4,0.4
2023-09-02T03:00:00,1393A,114.4053,23.0822,惠州市,下埔横江三路子站,,16,4,12,3,8,56,50,49,49,2,4,4,4,0.3,0.4
2023-09-02T03:00:00,1394A,114.4103,23.1142,惠州市,江北云山西路子站,,15,5,12,2,7,55,45,46,46,2,2,4,4,0.4,0.4
2023-09-02T03:00:00,1395A,114.4645,22.7833,惠州市,惠阳区承修路船湖子站,,21,2,12,0,7,67,67,65,65,3,5,4,4,0.6,0.6
2023-09-02T03:00:00,1396A,114.5317,22.7422,惠州市,大亚湾管委会子站,,21,6,14,6,9,65,65,62,62,12,8,5,5,0.5,0.5
2023-09-02T03:00:00,1397A,112.4267,23.0706,肇庆市,睦岗子站,,15,10,22,6,14,87,48,54,51,5,7,8,9,0.3,0.4
2023-09-02T03:00:00,1398A,112.4645,23.0475,肇庆市,城中子站,,16,16,22,7,13,76,47,54,50,6,8,9,9,0.5,0.5
2023-09-02T03:00:00,1399A,112.5544,23.1522,肇庆市,坑口子站,,15,8,17,6,12,74,48,50,49,7,8,4,4,0.3,0.4
2023-09-02T03:00:00,1400A,112.4753,23.1,肇庆市,七星岩子站,,,,,,,,,,,,,,,,
2023-09-02T03:00:00,1401A,108.3103,22.7881,南宁市,二十一中,,35,35,35,21,20,146,59,62,61,21,19,15,8,0.7,0.7
2023-09-02T03:00:00,1402A,108.3141,22.8528,南宁市,北湖,,46,46,38,22,23,144,55,57,56,20,17,22,10,0.7,0.7
2023-09-02T03:00:00,1403A,108.3206,22.8225,南宁市,市监测站,,35,35,37,22,20,130,63,62,62,24,33,28,12,0.7,0.8
2023-09-02T03:00:00,1404A,108.3829,22.8037,南宁市,大自然花园,,26,26,30,18,20,107,68,66,66,9,14,6,13,0.6,0.7
2023-09-02T03:00:00,1405A,108.4394,22.7904,南宁市,仙葫,,30,28,37,21,22,106,55,47,47,24,24,6,7,0.5,0.5
2023-09-02T03:00:00,1406A,108.2397,22.8467,南宁市,区农职院,,33,33,36,20,19,139,52,43,43,22,17,12,8,0.8,0.7
2023-09-02T03:00:00,1407A,108.3275,22.735,南宁市,英华嘉园,,39,39,41,23,27,120,34,25,25,35,29,12,8,0.6,0.7
2023-09-02T03:00:00,1408A,108.2257,22.7757,南宁市,沙井镇街道办,颗粒物(PM10),51,52,47,29,26,136,16,16,15,41,29,6,10,0.6,0.6
2023-09-02T03:00:00,1409A,110.576,19.9507,海口市,东寨港,,,,,,,,,,,,,,,,
2023-09-02T03:00:00,1410A,110.3232,20.0574,海口市,海南大学,,42,34,37,29,24,154,94,87,86,12,10,8,8,0.6,0.6
2023-09-02T03:00:00,1411A,110.283,20.0053,海口市,秀英海南医院,,35,31,39,24,27,144,63,74,67,16,13,8,8,0.4,0.5
2023-09-02T03:00:00,1412A,110.338,19.9969,海口市,海南师范大学,,31,31,37,21,23,144,53,68,62,20,12,8,9,0.5,0.5
2023-09-02T03:00:00,1413A,110.33,20.0356,海口市,龙华路环保局宿舍,,39,29,35,27,23,150,86,83,81,13,10,8,9,0.4,0.5
2023-09-02T03:00:00,1414A,106.3787,29.8279,重庆市,缙云山,,48,48,34,26,18,172,90,89,89,8,11,8,9,0.4,0.3
2023-09-02T03:00:00,1416A,106.4213,29.8253,重庆市,天生,细颗粒物(PM2.5),74,67,54,54,36,142,30,37,34,27,27,7,8,0.8,0.7
2023-09-02T03:00:00,1417A,106.6263,29.7228,重庆市,两路,细颗粒物(PM2.5),68,65,43,49,33,176,68,82,75,16,28,12,11,1.0,0.9
2023-09-02T03:00:00,1418A,106.2953,29.5983,重庆市,虎溪,细颗粒物(PM2.5),55,44,48,39,36,158,75,68,68,15,32,9,9,0.8,0.8
2023-09-02T03:00:00,1419A,106.5777,29.5102,重庆市,南坪,细颗粒物(PM2.5),74,76,55,54,33,222,42,58,52,39,33,12,12,1.0,0.9
2023-09-02T03:00:00,1420A,106.6556,29.6277,重庆市,唐家沱,颗粒物(PM10),51,51,45,31,26,202,17,9,9,45,43,7,8,0.6,0.6
2023-09-02T03:00:00,1421A,106.6349,29.4906,重庆市,茶园,颗粒物(PM10),56,61,72,26,30,251,22,13,13,66,52,6,9,1.0,1
2023-09-02T03:00:00,1422A,106.3754,29.4572,重庆市,白市驿,颗粒物(PM10),63,75,66,34,34,208,44,60,48,26,35,9,9,0.8,0.8
2023-09-02T03:00:00,1425A,106.6205,29.7166,重庆市,空港,"颗粒物(PM10),细颗粒物(PM2.5)",60,69,47,43,26,184,76,85,81,17,29,12,10,0.8,0.7
2023-09-02T03:00:00,1426A,106.4782,29.4875,重庆市,新山村,细颗粒物(PM2.5),53,52,56,37,31,211,50,85,64,32,44,12,13,0.7,0.7
2023-09-02T03:00:00,1427A,106.5616,29.6453,重庆市,礼嘉,细颗粒物(PM2.5),63,67,55,45,32,166,57,63,59,12,41,13,12,0.9,0.9
2023-09-02T03:00:00,1428A,106.4522,29.7091,重庆市,蔡家,细颗粒物(PM2.5),58,60,62,41,30,162,57,58,58,16,26,8,8,0.9,0.8
2023-09-02T03:00:00,1429A,106.5093,29.3917,重庆市,鱼新街,颗粒物(PM10),60,70,44,42,29,225,29,43,36,40,35,12,9,1.1,0.9
2023-09-02T03:00:00,1431A,103.9728,30.7236,成都市,金泉两河,,49,46,31,34,13,120,0,2,1,27,16,4,4,0.6,0.5
2023-09-02T03:00:00,1432A,104.176,30.6872,成都市,十里店,颗粒物(PM10),53,56,34,26,22,129,29,38,34,26,17,5,3,0.6,0.6
2023-09-02T03:00:00,1433A,104.079,30.5706,成都市,三瓦窑,,34,34,30,19,19,136,1,52,22,50,27,2,3,0.5,0.5
2023-09-02T03:00:00,1434A,104.1114,30.63,成都市,沙河铺,,46,46,35,32,23,118,22,26,25,19,19,3,2,0.6,0.6
2023-09-02T03:00:00,1437A,104.0786,30.6531,成都市,君平街,,49,46,34,34,25,142,49,42,42,21,22,17,6,0.6,0.6
2023-09-02T03:00:00,1438A,103.613,31.0283,成都市,灵岩寺,,18,17,16,12,13,126,47,45,45,8,5,23,16,0.7,0.7
2023-09-02T03:00:00,1439A,106.6899,26.5998,贵阳市,马鞍山,,42,41,26,29,16,123,38,37,37,20,14,5,4,0.5,0.4
2023-09-02T03:00:00,1440A,106.6971,26.5694,贵阳市,市环保站,细颗粒物(PM2.5),55,44,26,39,22,135,79,89,86,20,19,7,5,0.4,0.3
2023-09-02T03:00:00,1441A,106.6243,26.6266,贵阳市,鉴湖路,,39,39,33,22,16,124,93,85,85,12,15,5,5,0.6,0.6
2023-09-02T03:00:00,1442A,106.7487,26.6343,贵阳市,燕子冲,,35,31,27,24,16,115,57,53,53,16,14,5,5,0.6,0.6
2023-09-02T03:00:00,1443A,106.6555,26.4365,贵阳市,碧云窝,,48,48,39,29,19,127,39,42,41,16,14,4,5,0.5,0.6
2023-09-02T03:00:00,1444A,106.694,26.5161,贵阳市,中院村,,39,36,33,27,18,120,88,78,78,12,20,12,7,0.3,0.4
2023-09-02T03:00:00,1445A,106.7109,26.6027,贵阳市,红边门,细颗粒物(PM2.5),73,73,33,53,22,128,85,84,84,14,14,10,7,0.5,0.5
2023-09-02T03:00:00,1446A,106.7164,26.5699,贵阳市,新华路,,42,31,27,29,16,130,90,79,79,10,11,9,7,0.4,0.3
2023-09-02T03:00:00,1447A,106.674,26.5424,贵阳市,太慈桥,,39,34,24,27,14,122,67,74,72,20,20,5,4,0.6,0.5
2023-09-02T03:00:00,1450A,102.8204,24.8886,昆明市,呈贡新区,,33,24,38,17,22,129,104,108,104,13,23,10,6,0.7,0.7
2023-09-02T03:00:00,1451A,102.6251,24.9608,昆明市,西山森林公园,,41,26,26,20,19,181,131,103,103,9,13,9,11,0.7,0.8
2023-09-02T03:00:00,1452A,102.7252,25.0902,昆明市,龙泉镇,,42,26,29,29,13,127,64,73,68,16,16,12,11,0.6,0.5
2023-09-02T03:00:00,1453A,102.7266,25.0375,昆明市,东风东路,,35,32,35,24,21,145,91,82,82,21,22,10,11,0.4,0.5
2023-09-02T03:00:00,1454A,102.6742,25.0669,昆明市,金鼎山,,30,29,45,21,18,134,81,78,78,12,19,9,19,0.5,0.5
2023-09-02T03:00:00,1455A,102.6644,25.0401,昆明市,碧鸡广场,,32,31,36,22,21,150,99,87,87,8,12,10,11,0.4,0.5
2023-09-02T03:00:00,1456A,91.1319,29.6514,拉萨市,八廓街,,34,12,15,7,8,169,107,103,103,15,18,7,7,0.3,0.3
2023-09-02T03:00:00,1457A,91.1221,29.6747,拉萨市,市环保局,,27,21,20,10,8,152,86,95,89,17,21,7,6,0.1,0.3
2023-09-02T03:00:00,1458A,91.0874,29.6475,拉萨市,区监测站,,29,14,13,7,6,163,91,105,98,17,16,7,8,0.3,0.3
2023-09-02T03:00:00,1459A,91.1774,29.6541,拉萨市,西藏大学,,30,11,11,8,7,161,96,99,96,8,11,10,8,0.2,0.3
2023-09-02T03:00:00,1460A,90.9798,29.6588,拉萨市,区辐射站,,33,12,18,7,7,157,103,108,106,14,16,10,10,0.1,0.1
2023-09-02T03:00:00,1461A,91.0834,29.6292,拉萨市,拉萨火车站,,28,20,16,8,7,158,89,126,103,17,15,3,6,0.3,0.2
2023-09-02T03:00:00,1462A,108.882,34.2749,西安市,高压开关厂,颗粒物(PM10),53,56,71,36,31,158,37,30,30,44,49,8,10,0.6,0.7
2023-09-02T03:00:00,1463A,108.993,34.2629,西安市,兴庆小区,颗粒物(PM10),57,64,55,26,22,144,5,40,18,61,33,8,8,0.6,0.6
2023-09-02T03:00:00,1464A,109.06,34.2572,西安市,纺织城,,47,47,57,21,29,145,6,11,6,52,43,5,5,0.6,0.6
2023-09-02T03:00:00,1465A,108.9356,34.2173,西安市,小寨,颗粒物(PM10),52,54,52,22,22,154,8,22,16,61,38,7,7,0.7,0.7
2023-09-02T03:00:00,1466A,108.954,34.2713,西安市,市人民体育场,颗粒物(PM10),60,70,61,36,26,149,20,32,23,52,42,7,8,0.6,0.6
2023-09-02T03:00:00,1467A,108.8922,34.2322,西安市,高新西区,颗粒物(PM10),56,62,56,32,27,168,34,37,35,48,42,6,7,0.7,0.7
2023-09-02T03:00:00,1468A,108.935,34.3474,西安市,经开区,细颗粒物(PM2.5),72,69,59,52,30,144,47,45,45,36,41,4,5,0.8,0.7
2023-09-02T03:00:00,1469A,108.906,34.1546,西安市,长安区,颗粒物(PM10),58,65,66,27,26,180,12,32,25,57,42,7,8,0.5,0.5
2023-09-02T03:00:00,1471A,109.2186,34.3731,西安市,临潼区,,43,43,59,28,28,134,28,29,29,31,32,6,8,0.4,0.5
2023-09-02T03:00:00,1472A,108.869,34.378,西安市,草滩,颗粒物(PM10),70,90,62,20,17,168,33,25,25,67,48,12,15,0.9,0.8
2023-09-02T03:00:00,1473A,108.985,34.1978,西安市,曲江文化产业集团,颗粒物(PM10),61,71,57,25,24,161,1,2,1,71,45,6,7,0.7,0.7
2023-09-02T03:00:00,1474A,109.051,34.3213,西安市,广运潭,颗粒物(PM10),70,89,61,39,27,126,1,2,2,56,37,8,10,0.7,0.6
2023-09-02T03:00:00,1476A,103.631,36.1031,兰州市,兰炼宾馆,颗粒物(PM10),91,132,72,44,32,138,13,11,10,74,37,5,15,0.5,0.5
2023-09-02T03:00:00,1477A,104.1373,35.9454,兰州市,榆中兰大校区,,,,,,,,,,,,,,,,
2023-09-02T03:00:00,1478A,103.8412,36.0726,兰州市,生物制品所,细颗粒物(PM2.5),80,105,78,59,36,140,1,1,1,84,43,8,11,1.0,0.7
2023-09-02T03:00:00,1479A,103.831,36.0464,兰州市,铁路设计院,颗粒物(PM10),78,106,75,45,34,140,2,10,7,94,55,30,17,3.2,1.1
2023-09-02T03:00:00,1483A,101.524,36.6867,西宁市,第五水厂,,,,,,,,,,,,,,,,
2023-09-02T03:00:00,1484A,105.9512,38.6016,银川市,贺兰山马莲口,,43,43,29,19,15,208,113,107,107,6,13,3,9,0.1,0.3
2023-09-02T03:00:00,1488A,106.2328,38.4975,银川市,贺兰山东路,,36,36,53,20,22,193,74,88,79,25,49,14,13,0.6,0.7
2023-09-02T03:00:00,1489A,106.1358,38.5036,银川市,学院路,颗粒物(PM10),51,52,55,11,20,186,46,67,57,32,44,12,12,0.5,0.6
2023-09-02T03:00:00,1490A,87.5801,43.8303,乌鲁木齐市,监测站,颗粒物(PM10),66,82,158,18,25,117,70,64,64,16,24,5,6,0.6,0.6
2023-09-02T03:00:00,1491A,87.6046,43.768,乌鲁木齐市,收费所,颗粒物(PM10),70,89,157,42,39,127,73,66,66,21,24,4,4,0.3,0.3
2023-09-02T03:00:00,1492A,87.4754,43.9469,乌鲁木齐市,新疆农科院农场,颗粒物(PM10),79,108,197,17,36,92,16,26,23,44,45,2,4,0.4,0.8
2023-09-02T03:00:00,1493A,87.5525,43.8711,乌鲁木齐市,铁路局,颗粒物(PM10),70,89,156,23,41,120,69,61,61,16,25,5,5,0.4,0.5
2023-09-02T03:00:00,1494A,87.6432,43.831,乌鲁木齐市,三十一中学,颗粒物(PM10),74,97,167,13,25,108,60,66,61,24,14,5,6,0.1,0.2
2023-09-02T03:00:00,1496A,87.7216,44.1747,乌鲁木齐市,米东区环保局,颗粒物(PM10),62,74,161,6,28,107,79,77,77,4,8,6,8,0.2,0.3
2023-09-02T03:00:00,1508A,112.9433,27.8614,湘潭市,板塘,,38,38,41,16,20,173,101,108,104,18,15,6,7,0.7,0.6
2023-09-02T03:00:00,1511A,112.9118,27.8403,湘潭市,市监测站,,46,46,36,20,20,182,99,113,105,17,17,5,5,0.6,0.6
2023-09-02T03:00:00,1512A,112.8937,27.8728,湘潭市,江麓,颗粒物(PM10),52,54,47,23,23,168,100,122,109,22,18,8,9,0.4,0.3
2023-09-02T03:00:00,1513A,112.9227,27.8159,湘潭市,岳塘,,44,44,40,18,20,173,111,115,109,16,16,7,6,0.3,0.3
2023-09-02T03:00:00,1514A,112.9074,27.9119,湘潭市,科大,颗粒物(PM10),56,61,47,26,22,167,92,113,100,20,13,6,5,0.5,0.4
2023-09-02T03:00:00,1515A,113.135,27.8244,株洲市,天台山庄,,41,41,39,20,21,149,98,110,101,16,15,6,6,0.6,0.5
2023-09-02T03:00:00,1518A,113.095,27.8867,株洲市,株冶医院,,34,31,36,15,19,165,108,115,111,11,12,4,5,0.6,0.6
2023-09-02T03:00:00,1519A,113.167,27.8667,株洲市,市四中,,37,37,41,21,23,148,83,104,93,22,13,7,8,0.5,0.5
2023-09-02T03:00:00,1520A,113.143,27.8381,株洲市,火车站,,38,38,40,14,23,150,85,99,92,23,16,7,7,0.5,0.4
2023-09-02T03:00:00,1524A,113.13,27.8528,株洲市,市监测站,,42,42,36,24,28,159,97,109,102,15,14,8,8,0.7,0.7
2023-09-02T03:00:00,1552A,106.805,26.3003,贵阳市,桐木岭,,,,,,,,,,,,,,,,
2023-09-02T03:00:00,1559A,113.251,27.8336,株洲市,大京风景区,,35,35,33,24,22,136,73,98,85,9,6,6,6,0.6,0.5
2023-09-02T03:00:00,1562A,113.0048,27.9153,湘潭市,昭山,,35,34,44,20,22,183,110,112,111,15,15,6,6,0.5,0.6
2023-09-02T03:00:00,1564A,112.4876,27.9164,湘潭市,韶山,颗粒物(PM10),52,53,44,19,19,163,149,163,157,10,8,8,8,0.5,0.4
2023-09-02T03:00:00,1585A,109.8756,40.6532,包头市,市环境监测站,,44,44,40,20,14,190,38,46,39,50,32,10,17,1.0,0.8
2023-09-02T03:00:00,1587A,109.9991,40.5842,包头市,包头八中,,35,32,48,24,16,187,78,73,73,28,24,24,23,0.6,0.7
2023-09-02T03:00:00,1588A,109.8538,40.6821,包头市,青山宾馆,,30,29,43,21,17,186,17,30,20,56,36,7,14,1.0,0.8
2023-09-02T03:00:00,1589A,109.8642,40.6288,包头市,惠龙物流,,37,37,36,18,14,196,32,78,55,64,27,14,16,1.1,0.7
2023-09-02T03:00:00,1590A,110.0377,40.5546,包头市,东河鸿龙湾,,28,28,38,19,12,187,68,68,68,23,20,15,16,0.5,0.5
2023-09-02T03:00:00,1591A,110.0023,39.8129,鄂尔多斯市,综合楼,颗粒物(PM10),53,56,52,7,13,150,72,108,87,34,29,7,12,0.5,0.6
2023-09-02T03:00:00,1592A,109.9486,39.8261,鄂尔多斯市,巴音孟克林场办事处,颗粒物(PM10),57,63,47,14,17,162,85,117,99,29,23,8,13,0.5,0.6
2023-09-02T03:00:00,1593A,109.7736,39.5986,鄂尔多斯市,康泽苑,颗粒物(PM10),59,68,37,14,14,148,80,96,88,24,22,19,10,0.7,0.5
2023-09-02T03:00:00,1594A,109.8119,39.5989,鄂尔多斯市,华泰汽车城,颗粒物(PM10),52,53,41,14,16,133,66,93,82,28,25,11,8,0.5,0.4
2023-09-02T03:00:00,1595A,109.9734,39.7884,鄂尔多斯市,奥林花园,颗粒物(PM10),60,70,52,19,17,145,55,91,72,41,30,6,10,0.6,0.7
2023-09-02T03:00:00,1597A,122.2703,40.7094,营口市,大庆路,细颗粒物(PM2.5),64,45,21,46,17,119,30,42,37,31,16,7,5,1.2,0.8
2023-09-02T03:00:00,1598A,122.2150,40.6511,营口市,镜湖西路,,33,33,20,18,11,110,52,44,44,23,16,10,7,0.6,0.5
2023-09-02T03:00:00,1599A,122.1658,40.6789,营口市,西炮台,,22,22,16,12,8,118,40,39,38,31,14,8,6,0.6,0.5
2023-09-02T03:00:00,1600A,124.3303,40.0625,丹东市,江湾东路,,35,34,28,24,19,146,23,33,25,24,20,6,7,0.9,0.8
2023-09-02T03:00:00,1601A,124.4256,40.1503,丹东市,临江后街,,24,24,26,12,13,146,17,28,19,24,18,9,7,0.5,0.6
2023-09-02T03:00:00,1602A,124.3933,40.1461,丹东市,元宝山,,20,20,21,14,13,136,25,34,25,17,14,8,9,0.9,1
2023-09-02T03:00:00,1603A,124.3633,40.1092,丹东市,民主桥,,26,26,24,14,13,138,36,27,27,8,13,4,5,0.7,0.7
2023-09-02T03:00:00,1604A,122.0303,41.1489,盘锦市,开发区,,21,10,23,12,13,126,65,73,68,17,28,3,9,0.6,0.6
2023-09-02T03:00:00,1605A,122.0485,41.0883,盘锦市,兴隆台,,26,14,25,18,14,125,64,67,64,16,22,4,9,0.5,0.5
2023-09-02T03:00:00,1606A,121.8297,41.1028,盘锦市,新生街道,,16,13,21,6,10,130,49,49,48,14,24,6,11,0.4,0.5
2023-09-02T03:00:00,1607A,120.9092,40.7136,葫芦岛市,龙港区,,39,39,29,27,11,133,61,96,74,14,16,6,12,0.9,0.6
2023-09-02T03:00:00,1608A,120.8392,40.7514,葫芦岛市,化工街,颗粒物(PM10),52,53,43,14,18,133,6,9,8,40,35,10,13,0.4,0.5
2023-09-02T03:00:00,1609A,120.8341,40.7073,葫芦岛市,新区,,43,25,26,30,15,118,35,26,24,34,25,4,8,0.9,0.7
2023-09-02T03:00:00,1610A,120.8695,40.7677,葫芦岛市,东城区,,37,37,42,12,16,145,2,2,2,48,39,24,21,0.5,0.5
2023-09-02T03:00:00,1611A,118.5819,24.9117,泉州市,涂山街,,20,10,20,7,10,90,64,80,72,7,8,4,4,0.7,0.7
2023-09-02T03:00:00,1612A,118.5972,24.8978,泉州市,津头埔,,22,7,19,7,12,87,70,79,75,9,12,4,4,0.6,0.6
2023-09-02T03:00:00,1613A,118.6663,24.9424,泉州市,万安,,23,8,22,8,12,93,72,82,76,8,9,2,2,0.6,0.6
2023-09-02T03:00:00,1614A,118.6117,24.9604,泉州市,清源山,,,,,,,,,,,,,,,,
2023-09-02T03:00:00,1616A,117.6795,36.229,济南市,技术学院,"颗粒物(PM10),细颗粒物(PM2.5)",52,53,70,36,39,204,92,94,93,25,29,7,9,0.8,0.9
2023-09-02T03:00:00,1618A,118.3429,35.0532,临沂市,沂河小区,细颗粒物(PM2.5),93,97,70,69,41,198,72,119,94,22,21,13,12,0.7,0.6
2023-09-02T03:00:00,1619A,118.295,35.0583,临沂市,鲁南制药厂,颗粒物(PM10),78,105,74,55,37,229,66,137,108,40,24,10,9,0.6,0.5
2023-09-02T03:00:00,1620A,118.2794,34.9976,临沂市,新光毛纺厂,细颗粒物(PM2.5),75,83,65,55,40,206,58,105,85,36,25,13,11,0.8,0.8
2023-09-02T03:00:00,1621A,118.3956,35.0888,临沂市,河东保险公司,细颗粒物(PM2.5),92,107,62,68,43,205,45,73,60,39,22,4,6,0.8,0.6
2023-09-02T03:00:00,1622A,116.3032,37.4674,德州市,儿童乐园,颗粒物(PM10),51,51,50,31,30,168,65,78,73,36,21,11,9,0.8,0.8
2023-09-02T03:00:00,1624A,116.2991,37.4451,德州市,监理站,,45,45,43,29,30,166,75,93,80,27,19,6,6,0.6,0.6
2023-09-02T03:00:00,1625A,115.9848,36.4372,聊城市,区政府,细颗粒物(PM2.5),83,75,67,61,45,208,79,94,81,16,12,4,6,0.5,0.5
2023-09-02T03:00:00,1628A,118.0062,37.3803,滨州市,市环保局,,36,36,41,22,23,168,52,90,71,48,15,26,8,0.7,0.4
2023-09-02T03:00:00,1629A,118.0018,37.3617,滨州市,第二水厂,,34,34,38,20,24,178,67,72,65,29,16,10,6,0.9,0.7
2023-09-02T03:00:00,1630A,117.9776,37.393,滨州市,北中新校,,45,45,46,25,24,174,47,87,68,42,16,12,8,0.9,0.6
2023-09-02T03:00:00,1631A,118.0414,36.8103,淄博市,人民公园,颗粒物(PM10),62,73,60,34,33,237,24,44,36,54,26,12,11,1.2,0.5
2023-09-02T03:00:00,1633A,117.8525,36.4847,淄博市,双山,,48,45,70,33,42,234,64,72,68,26,24,7,10,0.3,0.5
2023-09-02T03:00:00,1634A,117.9592,36.6331,淄博市,气象站,细颗粒物(PM2.5),92,73,69,68,45,231,42,63,47,40,31,14,10,0.2,0.4
2023-09-02T03:00:00,1635A,118.3092,36.8194,淄博市,莆田园,颗粒物(PM10),78,105,58,46,33,201,14,56,35,66,40,13,11,3.9,0.8
2023-09-02T03:00:00,1637A,117.558,34.8438,枣庄市,市中区政府,颗粒物(PM10),74,97,68,51,32,225,66,89,78,43,32,13,13,0.6,0.4
2023-09-02T03:00:00,1638A,117.2852,34.7837,枣庄市,薛城环保局,颗粒物(PM10),59,68,66,34,30,208,56,72,61,52,42,9,11,0.9,0.8
2023-09-02T03:00:00,1639A,117.5852,34.7745,枣庄市,峄城区政府,颗粒物(PM10),81,112,73,58,30,215,32,75,53,53,30,10,14,0.7,0.6
2023-09-02T03:00:00,1640A,117.7276,34.5578,枣庄市,台儿庄区环保局,细颗粒物(PM2.5),89,78,62,66,36,208,8,21,14,54,38,7,9,0.8,0.6
2023-09-02T03:00:00,1641A,117.4518,35.0992,枣庄市,山亭区环保局,细颗粒物(PM2.5),62,68,50,44,32,192,87,95,92,16,17,7,9,0.5,0.5
2023-09-02T03:00:00,1642A,121.2514,37.5639,烟台市,开发区,,36,36,30,24,19,140,41,28,28,31,27,2,3,0.9,0.8
2023-09-02T03:00:00,1643A,121.3719,37.5433,烟台市,轴承厂,,40,29,34,28,23,176,56,58,55,12,16,4,7,0.5,0.6
2023-09-02T03:00:00,1644A,121.3181,37.5436,烟台市,西郊化工站,细颗粒物(PM2.5),57,31,32,40,27,177,83,73,73,9,17,6,7,0.7,0.7
2023-09-02T03:00:00,1645A,121.4478,37.4822,烟台市,莱山环保局,,18,14,23,11,14,176,55,77,63,21,13,6,6,0.5,0.6
2023-09-02T03:00:00,1646A,121.2611,37.4967,烟台市,福山环保局,颗粒物(PM10),52,53,44,19,13,167,20,38,31,36,27,6,6,0.8,0.8
2023-09-02T03:00:00,1650A,119.1437,36.7023,潍坊市,环保局,,43,41,41,30,28,168,52,126,89,35,18,8,10,0.9,0.6
2023-09-02T03:00:00,1653A,116.6251,35.4302,济宁市,火炬城,颗粒物(PM10),58,66,53,27,16,196,91,100,97,25,17,12,9,0.6,0.5
2023-09-02T03:00:00,1655A,116.5491,35.4042,济宁市,电化厂,颗粒物(PM10),63,75,62,29,18,188,43,48,46,56,23,9,10,0.7,0.6
2023-09-02T03:00:00,1656A,117.1437,36.1937,泰安市,监测站,细颗粒物(PM2.5),73,68,80,53,50,214,136,154,146,8,24,11,9,0.8,0.7
2023-09-02T03:00:00,1657A,117.0885,36.2017,泰安市,人口学校,颗粒物(PM10),54,58,58,31,36,209,132,155,144,8,16,6,6,0.6,0.6
2023-09-02T03:00:00,1658A,117.1089,36.1758,泰安市,电力学校,细颗粒物(PM2.5),64,70,74,46,41,230,134,153,143,9,27,11,9,0.8,0.6
2023-09-02T03:00:00,1659A,119.471,35.4209,日照市,监测站,,45,39,47,31,31,190,53,59,52,45,37,6,6,0.8,0.8
2023-09-02T03:00:00,1660A,119.523,35.4216,日照市,市政府广场,,44,44,49,21,28,182,110,101,101,11,21,6,7,0.6,0.7
2023-09-02T03:00:00,1661A,119.5587,35.4044,日照市,港务局,,41,41,54,24,30,203,104,103,103,12,22,9,9,0.6,0.6
2023-09-02T03:00:00,1662A,122.1214,37.4236,威海市,华夏技校,,34,29,29,22,20,164,108,114,112,7,10,5,6,0.5,0.5
2023-09-02T03:00:00,1663A,122.0508,37.5236,威海市,山大分校,,49,44,35,34,21,173,104,96,96,12,9,9,10,0.6,0.6
2023-09-02T03:00:00,1664A,122.1067,37.5072,威海市,市监测站,,39,39,40,27,21,163,79,78,78,9,11,9,10,0.7,0.6
2023-09-02T03:00:00,1666A,118.6614,37.4309,东营市,市环保局,,26,12,26,5,17,166,81,92,86,8,8,6,6,0.3,0.4
2023-09-02T03:00:00,1669A,113.5824,24.7733,韶关市,市八中,,25,25,19,11,12,65,42,44,42,5,8,10,10,0.6,0.6
2023-09-02T03:00:00,1671A,113.5917,24.7972,韶关市,园林处,,19,19,17,13,12,64,47,45,45,2,3,9,10,0.6,0.6
2023-09-02T03:00:00,1672A,113.6735,24.7791,韶关市,韶关学院,,25,25,18,13,12,65,30,32,31,8,7,7,8,0.5,0.5
2023-09-02T03:00:00,1673A,113.5971,24.6863,韶关市,曲江监测站,,24,24,21,13,12,70,54,52,52,4,7,11,10,0.5,0.5
2023-09-02T03:00:00,1674A,116.6794,23.3667,汕头市,金平子站,,30,21,13,12,8,97,95,95,95,11,10,4,4,0.7,0.6
2023-09-02T03:00:00,1675A,116.7244,23.3633,汕头市,龙湖子站,,,,,,,,,,,,,,,,
2023-09-02T03:00:00,1676A,116.7258,23.2775,汕头市,濠江子站,,,,,,,,,,,,,,,,
2023-09-02T03:00:00,1677A,116.7519,23.4714,汕头市,澄海子站,,,,,,,,,,,,,,,,
2023-09-02T03:00:00,1678A,116.6092,23.2539,汕头市,潮阳子站,,,,,,,,,,,,,,,,
2023-09-02T03:00:00,1680A,110.3539,21.2706,湛江市,湛江影剧院,,38,38,39,21,23,106,71,70,70,12,11,10,13,0.8,0.8
2023-09-02T03:00:00,1681A,110.3928,21.2228,湛江市,市环境监测站,,34,34,34,20,23,106,72,72,72,10,12,9,10,0.6,0.7
2023-09-02T03:00:00,1682A,110.4019,21.1997,湛江市,环保局宿舍,,40,40,37,20,25,108,71,71,71,10,11,6,8,0.6,0.6
2023-09-02T03:00:00,1683A,110.4111,21.2028,湛江市,霞山游泳场,,33,33,35,19,22,107,74,74,74,9,10,10,11,0.7,0.8
2023-09-02T03:00:00,1684A,110.3316,21.2679,湛江市,麻章区环保局,,41,41,44,22,28,108,72,71,71,12,15,6,9,0.8,0.8
2023-09-02T03:00:00,1685A,110.4558,21.2567,湛江市,坡头区环保局,,39,29,34,27,26,109,71,72,71,12,11,12,12,0.6,0.7
2023-09-02T03:00:00,1686A,111.0286,21.4688,茂名市,电白南海,,44,44,39,22,22,143,61,72,67,12,10,12,11,0.7,0.7
2023-09-02T03:00:00,1687A,110.9294,21.6533,茂名市,茂石化七小,,35,27,32,24,22,102,61,71,66,7,8,11,9,0.5,0.6
2023-09-02T03:00:00,1688A,110.9107,21.6687,茂名市,健康路,,29,29,29,19,17,110,64,73,68,7,6,10,9,0.6,0.6
2023-09-02T03:00:00,1689A,110.8592,21.6828,茂名市,高岭,,35,22,31,24,25,105,66,71,69,9,10,13,10,0.6,0.7
2023-09-02T03:00:00,1690A,116.1231,24.3284,梅州市,梅江月梅,,16,16,13,5,5,45,34,29,29,6,8,3,2,0.5,0.6
2023-09-02T03:00:00,1691A,116.0797,24.2719,梅州市,梅县新城,,15,15,15,6,5,46,24,26,25,9,11,5,6,0.6,0.7
2023-09-02T03:00:00,1692A,116.1248,24.2654,梅州市,环境监控中心,,16,16,12,6,5,47,26,28,27,12,9,8,8,0.5,0.5
2023-09-02T03:00:00,1693A,115.3653,22.775,汕尾市,市环保局,,,,,,,,,,,,,,,,
2023-09-02T03:00:00,1694A,115.3706,22.7898,汕尾市,市政府,,,,,,,,,,,,,,,,
2023-09-02T03:00:00,1695A,115.3622,22.7925,汕尾市,新城中学,,23,9,10,6,5,71,71,70,70,2,2,6,6,0.8,0.8
2023-09-02T03:00:00,1696A,114.6778,23.7569,河源市,源西,,25,18,22,17,15,58,29,28,27,6,9,5,5,0.7,0.7
2023-09-02T03:00:00,1697A,114.6944,23.7586,河源市,东埔,,20,20,23,12,14,56,28,30,29,8,7,5,5,0.6,0.6
2023-09-02T03:00:00,1698A,114.6892,23.7233,河源市,老城,,24,24,23,12,13,57,29,32,30,9,8,4,4,0.5,0.6
2023-09-02T03:00:00,1699A,111.9797,21.8593,阳江市,鸳鸯湖,,15,15,25,10,16,91,48,54,51,6,7,5,5,0.6,0.7
2023-09-02T03:00:00,1701A,111.9491,21.8658,阳江市,马南垌,,16,8,28,9,15,90,49,56,53,4,6,5,6,0.3,0.4
2023-09-02T03:00:00,1702A,113.0426,23.691,清远市,环保大楼,,18,16,15,11,14,69,57,55,55,1,4,6,6,0.5,0.7
2023-09-02T03:00:00,1703A,113.0208,23.7106,清远市,凤城街办,,16,16,18,10,11,62,50,49,49,4,6,7,7,0.4,0.5
2023-09-02T03:00:00,1705A,116.6367,23.6719,潮州市,西园路,,20,16,9,14,10,70,56,60,57,6,5,4,3,0.2,0.2
2023-09-02T03:00:00,1706A,116.6447,23.6706,潮州市,档案局,,19,7,13,4,6,70,59,61,60,4,3,5,5,0.3,0.3
2023-09-02T03:00:00,1708A,116.3701,23.5345,揭阳市,新兴,,16,11,11,10,6,66,50,48,48,5,4,6,7,0.5,0.5
2023-09-02T03:00:00,1709A,116.3264,23.5443,揭阳市,西马,,16,14,10,7,6,67,50,47,47,5,4,6,6,0.6,0.6
2023-09-02T03:00:00,1710A,116.3611,23.5626,揭阳市,东兴,,22,22,11,5,5,65,47,47,47,11,9,4,4,0.7,0.7
2023-09-02T03:00:00,1711A,116.4151,23.5294,揭阳市,渔湖,,18,15,11,2,7,68,57,54,54,8,8,4,5,0.6,0.5
2023-09-02T03:00:00,1712A,112.0392,22.9169,云浮市,新市府,,13,11,23,8,13,89,40,55,48,11,10,36,14,0.7,0.8
2023-09-02T03:00:00,1714A,112.0539,22.9539,云浮市,牧羊,,16,3,27,5,14,90,43,51,45,13,18,46,31,0.6,0.6
2023-09-02T03:00:00,1715A,102.575,24.3711,玉溪市,东风水库,,42,21,31,16,21,133,133,100,100,6,14,8,8,0.6,1
2023-09-02T03:00:00,1718A,115.4208,35.2464,菏泽市,气象局,颗粒物(PM10),61,72,61,41,32,181,99,90,90,23,22,9,5,0.5,0.6
2023-09-02T03:00:00,1719A,115.4747,35.2375,菏泽市,市政协,细颗粒物(PM2.5),69,72,63,50,36,196,78,59,59,36,20,5,7,0.6,0.5
2023-09-02T03:00:00,1721A,113.3819,40.1097,大同市,果树场,,,,,,,,,,,,,,,,
2023-09-02T03:00:00,1723A,113.2994,40.0758,大同市,云冈宾馆,,44,44,48,20,21,159,46,114,81,47,25,9,12,0.7,0.7
2023-09-02T03:00:00,1724A,113.3444,40.0917,大同市,大同大学,,42,42,42,21,20,163,69,109,84,30,21,12,21,0.5,0.5
2023-09-02T03:00:00,1725A,113.2661,40.1269,大同市,安家小村,颗粒物(PM10),60,69,47,27,17,156,62,112,85,27,18,12,13,0.6,0.7
2023-09-02T03:00:00,1726A,113.2711,40.0844,大同市,教育学院,,34,34,50,20,22,162,53,106,83,43,28,8,10,0.7,0.9
2023-09-02T03:00:00,1727A,113.1147,36.1547,长治市,清华站,细颗粒物(PM2.5),79,74,51,58,33,180,77,96,85,19,15,11,12,0.9,1.1
2023-09-02T03:00:00,1728A,113.1031,36.1989,长治市,监测站,细颗粒物(PM2.5),79,64,54,58,38,195,84,104,97,20,23,6,8,0.9,1.3
2023-09-02T03:00:00,1730A,113.0886,36.2125,长治市,审计局,细颗粒物(PM2.5),98,61,52,73,39,189,99,99,99,12,17,7,8,1.1,1.4
2023-09-02T03:00:00,1731A,113.0844,36.1856,长治市,长治八中,颗粒物(PM10),66,82,61,46,31,179,87,96,93,17,22,10,11,1.1,1.4
2023-09-02T03:00:00,1733A,111.5531,36.0783,临汾市,临钢医院,颗粒物(PM10),55,60,70,19,21,170,20,12,12,35,31,8,12,0.7,0.9
2023-09-02T03:00:00,1734A,111.5028,36.0714,临汾市,技工学校,颗粒物(PM10),56,61,70,39,34,164,33,47,32,37,28,8,13,0.8,0.9
2023-09-02T03:00:00,1736A,111.5018,36.0855,临汾市,市委,颗粒物(PM10),65,80,67,42,30,161,24,43,26,46,29,8,13,0.7,0.8
2023-09-02T03:00:00,1738A,113.5758,37.8572,阳泉市,市中心,细颗粒物(PM2.5),63,55,64,45,43,160,126,137,132,12,16,8,9,1.0,1.1
2023-09-02T03:00:00,1739A,113.4894,37.8731,阳泉市,赛鱼,细颗粒物(PM2.5),72,75,72,52,48,169,136,129,129,14,17,11,8,0.9,0.9
2023-09-02T03:00:00,1740A,113.5819,37.8486,阳泉市,南庄,颗粒物(PM10),77,104,98,39,44,164,125,142,135,15,16,13,11,1.0,1
2023-09-02T03:00:00,1742A,113.5614,37.8703,阳泉市,平坦,细颗粒物(PM2.5),88,90,80,65,54,167,133,148,141,13,15,9,9,1.0,1
2023-09-02T03:00:00,1743A,113.5158,37.8392,阳泉市,大阳泉,颗粒物(PM10),56,61,71,32,56,161,114,126,117,12,14,8,8,0.9,0.9
2023-09-02T03:00:00,1744A,118.9233,42.2816,赤峰市,松山一中,,19,18,24,7,11,90,8,6,6,38,32,11,10,0.3,0.4
2023-09-02T03:00:00,1745A,118.9576,42.2728,赤峰市,哈达街,,20,11,18,14,9,91,40,36,36,15,25,14,14,0.2,0.3
2023-09-02T03:00:00,1746A,118.8788,42.2554,赤峰市,天义路,,20,9,17,14,8,92,37,32,32,19,25,18,15,0.2,0.2
2023-09-02T03:00:00,1748A,123.044,41.1196,鞍山市,深沟寺,,32,32,38,12,18,119,61,60,60,14,19,5,8,0.8,1
2023-09-02T03:00:00,1749A,123.011,41.0931,鞍山市,太阳城,,28,28,37,12,18,122,66,60,60,14,20,7,9,0.9,1.1
2023-09-02T03:00:00,1750A,123.0485,41.1442,鞍山市,太平,,30,30,48,16,23,101,59,64,62,17,30,9,15,0.9,1.2
2023-09-02T03:00:00,1751A,122.9642,41.0971,鞍山市,铁西三道街,,45,45,50,20,24,114,50,43,43,31,27,15,13,1.7,1.4
2023-09-02T03:00:00,1752A,122.9341,41.0833,鞍山市,铁西工业园区,,46,46,43,20,21,115,62,60,60,23,19,17,11,1.6,1.1
2023-09-02T03:00:00,1753A,123.022,41.0821,鞍山市,明达新区,,35,35,33,13,16,113,69,67,67,11,18,7,9,0.8,1
2023-09-02T03:00:00,1754A,123.1289,41.0228,鞍山市,千山,,,,,,,,,,,,,,,,
2023-09-02T03:00:00,1755A,123.7977,41.8491,抚顺市,望花区,颗粒物(PM10),62,73,46,34,29,142,7,43,25,42,28,13,22,0.8,0.9
2023-09-02T03:00:00,1756A,123.9161,41.8822,抚顺市,顺城区,,42,42,51,20,24,144,4,3,3,29,34,11,11,0.6,0.8
2023-09-02T03:00:00,1757A,124.0436,41.8611,抚顺市,东洲区,,32,32,39,15,18,142,30,38,35,11,18,6,10,0.6,0.8
2023-09-02T03:00:00,1758A,123.9247,41.8642,抚顺市,新抚区,颗粒物(PM10),55,59,43,16,20,140,3,3,3,23,24,6,9,0.6,0.9
2023-09-02T03:00:00,1759A,124.0972,41.8961,抚顺市,大伙房水库,,30,30,32,16,14,139,20,43,30,11,13,5,9,0.5,0.7
2023-09-02T03:00:00,1760A,123.7086,41.8391,抚顺市,沈抚新城,颗粒物(PM10),56,62,38,24,19,130,20,36,26,33,25,16,13,1.3,0.9
2023-09-02T03:00:00,1761A,123.8275,41.3064,本溪市,大峪,,44,44,37,12,15,125,9,22,14,27,22,4,8,0.9,1
2023-09-02T03:00:00,1762A,123.7567,41.3325,本溪市,溪湖,颗粒物(PM10),59,67,46,34,25,126,6,6,6,26,22,8,11,2.2,1.6
2023-09-02T03:00:00,1763A,123.7169,41.3094,本溪市,彩屯,颗粒物(PM10),57,64,49,36,29,123,5,6,6,27,24,9,9,2.2,1.6
2023-09-02T03:00:00,1764A,123.7669,41.2864,本溪市,东明,颗粒物(PM10),54,57,53,17,21,127,5,8,6,41,35,6,12,0.9,1.3
2023-09-02T03:00:00,1765A,123.7992,41.2664,本溪市,新立屯,,29,29,32,13,13,117,12,10,10,29,30,7,11,0.8,0.9
2023-09-02T03:00:00,1766A,123.8142,41.3472,本溪市,威宁,,40,40,39,21,18,112,8,6,6,24,23,6,6,0.9,1
2023-09-02T03:00:00,1767A,121.1115,41.0879,锦州市,南山,细颗粒物(PM2.5),78,58,34,57,21,137,4,5,4,50,29,8,12,1.0,0.7
2023-09-02T03:00:00,1768A,121.0533,40.8434,锦州市,开发区,颗粒物(PM10),54,57,56,24,23,139,4,4,4,71,42,15,24,1.1,1.1
2023-09-02T03:00:00,1769A,121.1836,41.1119,锦州市,百股街道,,25,25,30,14,13,145,27,27,27,28,21,14,16,0.6,0.6
2023-09-02T03:00:00,1770A,121.1178,41.1222,锦州市,天安街道,颗粒物(PM10),55,59,39,26,25,122,24,16,16,29,26,12,14,1.2,0.9
2023-09-02T03:00:00,1771A,121.1303,41.1386,锦州市,北湖公园,细颗粒物(PM2.5),73,53,34,53,22,126,12,36,24,48,24,15,16,1.0,0.6
2023-09-02T03:00:00,1772A,126.54,43.8622,吉林市,哈达湾,,23,23,24,10,15,88,36,34,34,16,16,7,6,0.5,0.6
2023-09-02T03:00:00,1773A,126.5844,43.8358,吉林市,东局子,,21,21,25,11,15,88,32,37,35,17,19,6,6,0.7,0.7
2023-09-02T03:00:00,1774A,126.5052,43.8245,吉林市,电力学院,,24,24,30,12,19,92,11,12,11,17,16,8,8,0.6,0.7
2023-09-02T03:00:00,1775A,126.6133,43.8972,吉林市,江北,,22,22,32,12,17,87,22,21,21,14,17,7,8,0.6,0.7
2023-09-02T03:00:00,1776A,126.555,43.8306,吉林市,江南公园,,21,21,24,11,16,85,26,30,29,16,18,5,6,0.6,0.7
2023-09-02T03:00:00,1778A,126.7061,43.7133,吉林市,丰满,,,,,,,,,,,,,,,,
2023-09-02T03:00:00,1779A,123.9305,47.3636,齐齐哈尔市,安居小区,,28,23,27,19,14,68,32,38,35,10,9,6,5,0.4,0.4
2023-09-02T03:00:00,1780A,123.9488,47.3386,齐齐哈尔市,中心广场,,28,26,19,19,12,60,34,36,34,13,11,4,3,0.3,0.4
2023-09-02T03:00:00,1781A,123.9483,47.3227,齐齐哈尔市,农牧车辆厂,,31,31,23,15,7,62,26,30,28,14,10,7,6,0.6,0.3
2023-09-02T03:00:00,1783A,123.945,47.2988,齐齐哈尔市,市环境监测站,,24,24,16,16,12,66,23,33,28,14,8,5,4,0.3,0.2
2023-09-02T03:00:00,1784A,129.61,44.561,牡丹江市,环保大楼,,13,13,12,6,9,78,22,23,22,7,12,5,5,0.4,0.4
2023-09-02T03:00:00,1785A,129.6115,44.5782,牡丹江市,文化广场,,15,15,17,9,12,73,16,24,21,9,16,6,6,0.3,0.4
2023-09-02T03:00:00,1786A,129.5904,44.5963,牡丹江市,第一医院,,32,24,21,22,12,69,21,28,25,8,15,5,5,0.3,0.4
2023-09-02T03:00:00,1787A,129.6364,44.6075,牡丹江市,机车工厂,,16,16,22,9,10,69,15,13,13,14,14,2,3,0.5,0.5
2023-09-02T03:00:00,1788A,129.6386,44.5462,牡丹江市,第一中学,,18,18,17,4,5,80,8,18,13,12,12,5,5,0.5,0.5
2023-09-02T03:00:00,1789A,124.81117,46.03138,大庆市,大同区,,19,13,16,13,11,67,45,49,47,7,11,7,6,0.3,0.3
2023-09-02T03:00:00,1790A,125.129,46.533,大庆市,龙凤区,,17,17,17,8,9,68,29,33,31,13,14,3,3,0.4,0.4
2023-09-02T03:00:00,1791A,124.902,46.408,大庆市,红岗区,,20,18,16,14,13,71,44,47,45,8,9,4,3,0.7,0.6
2023-09-02T03:00:00,1792A,125.153,46.586,大庆市,萨尔图区,,18,18,23,12,11,63,48,52,50,7,17,6,6,0.3,0.2
2023-09-02T03:00:00,1793A,124.9042,46.6215,大庆市,让胡路区,,16,13,15,7,7,63,49,48,48,5,13,4,5,0.4,0.5
2023-09-02T03:00:00,1794A,118.3606,31.3519,芜湖市,监测站,,23,23,27,16,13,149,65,69,67,18,17,6,6,0.5,0.6
2023-09-02T03:00:00,1795A,118.3714,31.4134,芜湖市,科创中心,,29,29,29,18,14,143,54,76,60,46,33,8,8,0.8,0.5
2023-09-02T03:00:00,1796A,118.3673,31.3131,芜湖市,四水厂,,33,33,30,14,14,153,68,74,72,23,22,5,5,0.5,0.5
2023-09-02T03:00:00,1798A,118.5092,31.6837,马鞍山市,湖东路四小,,29,24,24,20,13,169,53,56,54,18,16,10,9,0.4,0.4
2023-09-02T03:00:00,1799A,118.5024,31.6449,马鞍山市,开发区,,26,24,26,18,11,165,52,62,57,17,19,7,7,0.7,0.7
2023-09-02T03:00:00,1800A,118.5228,31.7231,马鞍山市,慈湖,,39,29,27,27,16,179,71,74,70,18,17,12,14,0.6,0.5
2023-09-02T03:00:00,1802A,118.6245,31.7241,马鞍山市,濮塘,,29,21,20,20,18,164,32,55,44,14,10,4,4,0.8,0.8
2023-09-02T03:00:00,1803A,115.9872,29.6815,九江市,十里,,34,30,31,18,19,143,108,110,109,15,13,12,10,0.7,0.7
2023-09-02T03:00:00,1804A,115.9584,29.7046,九江市,茅山头,,34,26,30,18,21,141,108,115,112,18,16,12,8,0.7,0.7
2023-09-02T03:00:00,1805A,115.9877,29.7295,九江市,西园,,38,21,30,12,20,147,119,125,122,14,15,11,10,0.6,0.7
2023-09-02T03:00:00,1806A,116.0172,29.6547,九江市,五七二七厂,,35,28,29,19,19,144,110,113,112,12,10,11,10,0.7,0.6
2023-09-02T03:00:00,1808A,115.9114,29.6038,九江市,综合工业园,,38,29,32,19,19,152,121,129,124,20,16,13,12,0.7,0.7
2023-09-02T03:00:00,1809A,116.0721,29.7535,九江市,石化总厂,,36,26,33,14,19,150,115,116,115,15,16,11,9,0.8,0.8
2023-09-02T03:00:00,1810A,115.9773,29.5698,九江市,庐山气象台,,32,15,14,12,13,135,33,22,22,63,31,10,9,0.8,0.7
2023-09-02T03:00:00,1812A,112.3931,34.6516,洛阳市,市委党校,细颗粒物(PM2.5),74,73,68,54,48,172,59,77,68,24,18,6,8,0.6,0.6
2023-09-02T03:00:00,1814A,112.4657,34.6871,洛阳市,豫西宾馆,细颗粒物(PM2.5),72,75,76,52,49,171,70,76,72,16,21,3,5,0.9,0.9
2023-09-02T03:00:00,1815A,112.494,34.6886,洛阳市,河南林校,颗粒物(PM10),57,64,64,38,37,172,76,80,78,17,25,6,6,0.5,0.6
2023-09-02T03:00:00,1816A,112.3844,34.623,洛阳市,开发区管委会,颗粒物(PM10),63,76,67,37,35,180,31,76,54,38,16,3,3,0.5,0.5
2023-09-02T03:00:00,1817A,112.4267,34.6258,洛阳市,市委新办公区,细颗粒物(PM2.5),75,75,70,55,54,169,71,77,74,11,10,4,5,0.5,0.6
2023-09-02T03:00:00,1818A,114.4839,36.0621,安阳市,棉研所,,,,,,,,,,,,,,,,
2023-09-02T03:00:00,1819A,114.3551,36.1017,安阳市,红庙街,细颗粒物(PM2.5),80,67,69,59,47,151,46,55,49,31,19,4,3,1.0,0.8
2023-09-02T03:00:00,1820A,114.361,36.0681,安阳市,银杏小区,,,76,68,,,155,17,19,18,30,14,4,4,0.8,0.7
2023-09-02T03:00:00,1824A,114.3389,34.7781,开封市,肿瘤医院,颗粒物(PM10),56,61,56,37,31,160,81,84,83,11,13,6,6,0.6,0.6
2023-09-02T03:00:00,1826A,114.2885,34.7965,开封市,世纪星幼儿园,颗粒物(PM10),53,56,52,32,29,158,70,87,72,25,18,9,10,0.9,0.9
2023-09-02T03:00:00,1828A,113.227,35.2125,焦作市,市环保局,细颗粒物(PM2.5),63,52,58,45,46,167,92,107,101,9,14,4,8,0.6,0.7
2023-09-02T03:00:00,1830A,113.1992,35.2590,焦作市,影视城,,,,,,,,,,,,,,,,
2023-09-02T03:00:00,1832A,113.3257,33.742,平顶山市,新华旅馆,颗粒物(PM10),53,55,61,28,31,167,89,84,84,20,27,8,6,0.5,0.5
2023-09-02T03:00:00,1833A,113.2919,33.737,平顶山市,规划设计院,,45,45,55,24,29,165,34,89,70,52,23,8,10,0.7,0.6
2023-09-02T03:00:00,1834A,113.182,33.774,平顶山市,平顶山工学院,颗粒物(PM10),52,53,54,22,24,169,53,103,75,38,22,7,6,0.5,0.5
2023-09-02T03:00:00,1835A,111.1922,34.7752,三门峡市,市政府,细颗粒物(PM2.5),64,59,53,46,33,147,112,125,118,10,14,5,6,0.8,0.7
2023-09-02T03:00:00,1836A,111.1587,34.7942,三门峡市,开发区,颗粒物(PM10),75,99,76,51,34,140,113,115,114,13,16,5,6,0.7,0.6
2023-09-02T03:00:00,1838A,111.143,34.7955,三门峡市,风景区,,,,,,,,,,,,,,,,
2023-09-02T03:00:00,1840A,111.2992,30.6981,宜昌市,白龙岗,,36,36,39,19,18,167,64,83,72,18,21,2,2,0.5,0.5
2023-09-02T03:00:00,1841A,111.3549,30.6465,宜昌市,伍家岗,,39,37,32,27,20,178,37,82,54,30,22,4,4,0.5,0.5
2023-09-02T03:00:00,1842A,111.2628,30.6961,宜昌市,点军区,,32,29,36,22,21,180,51,74,61,12,16,6,7,0.4,0.5
2023-09-02T03:00:00,1843A,111.3275,30.7819,宜昌市,夷陵区,,39,32,34,27,20,155,55,71,59,18,21,4,5,0.4,0.4
2023-09-02T03:00:00,1844A,112.2494,30.3197,荆州市,市图书馆,,30,29,44,21,24,158,80,92,84,18,14,10,10,0.6,0.6
2023-09-02T03:00:00,1845A,112.2008,30.3544,荆州市,市委党校,,37,37,45,15,24,155,67,78,68,27,18,11,11,0.7,0.7
2023-09-02T03:00:00,1847A,113.1094,29.3578,岳阳市,南湖风景区,,38,38,42,26,27,181,78,91,83,15,18,10,11,0.5,0.6
2023-09-02T03:00:00,1848A,113.1493,29.4251,岳阳市,城陵矶,,40,40,47,19,26,177,63,84,72,25,24,9,11,0.7,0.8
2023-09-02T03:00:00,1849A,113.1497,29.3575,岳阳市,开发区,,39,39,40,23,27,186,79,95,87,14,16,9,10,0.6,0.7
2023-09-02T03:00:00,1850A,113.2621,29.4758,岳阳市,云溪区,,39,39,35,25,25,185,72,104,85,13,12,12,9,0.5,0.6
2023-09-02T03:00:00,1851A,112.9943,29.4402,岳阳市,君山区,,30,27,44,21,29,166,78,93,85,10,13,8,9,0.5,0.7
2023-09-02T03:00:00,1852A,113.2117,29.355,岳阳市,金凤水库,,38,38,34,25,20,188,98,115,104,19,19,5,6,0.5,0.5
2023-09-02T03:00:00,1854A,111.6975,28.9703,常德市,市二中,,48,48,48,20,34,157,111,116,108,7,8,11,9,0.6,0.8
2023-09-02T03:00:00,1857A,111.7158,29.1456,常德市,白鹤山,,,,,,,,,,,,,,,,
2023-09-02T03:00:00,1858A,110.5319,29.1217,张家界市,永定新区,,42,35,39,29,28,124,45,56,51,25,15,5,6,0.4,0.4
2023-09-02T03:00:00,1859A,110.4697,29.1242,张家界市,电业局,,,,,,,,,,,,,,,,
2023-09-02T03:00:00,1860A,110.5594,29.3547,张家界市,未央路,,31,31,34,18,20,137,38,41,39,5,6,3,4,0.4,0.4
2023-09-02T03:00:00,1861A,110.4417,29.315,张家界市,袁家界,,40,22,27,17,17,138,126,135,131,4,5,8,8,0.6,0.6
2023-09-02T03:00:00,1862A,110.4144,25.3167,桂林市,电子科大尧山校区,,43,43,41,27,23,130,116,122,119,8,7,4,4,0.7,0.7
2023-09-02T03:00:00,1863A,110.2819,25.2697,桂林市,监测站,,47,47,39,22,26,133,117,120,119,8,10,8,8,0.7,0.7
2023-09-02T03:00:00,1864A,110.3089,25.2708,桂林市,龙隐路小学,,41,41,36,27,26,133,113,118,116,8,7,10,8,0.6,0.6
2023-09-02T03:00:00,1865A,110.2869,25.2178,桂林市,八中,,43,43,36,26,24,137,121,121,121,9,11,8,6,0.7,0.7
2023-09-02T03:00:00,1866A,109.2262,21.588,北海市,牛尾岭水库,,28,28,29,8,20,106,69,83,76,11,10,6,5,0.6,0.6
2023-09-02T03:00:00,1867A,109.1436,21.4086,北海市,海滩公园,,38,38,40,17,21,124,84,104,94,8,8,7,6,0.6,0.8
2023-09-02T03:00:00,1868A,109.0981,21.4661,北海市,新市环保局,,36,36,37,19,24,128,80,94,87,9,9,8,6,0.6,0.6
2023-09-02T03:00:00,1869A,109.1778,21.5233,北海市,北海工业园,,34,34,41,22,27,125,84,97,91,8,10,9,9,0.7,0.7
2023-09-02T03:00:00,1870A,109.4856,24.3895,柳州市,柳东小学,,28,24,29,19,27,112,79,79,79,5,5,7,8,0.4,0.5
2023-09-02T03:00:00,1871A,109.4157,24.3277,柳州市,环保监测站,,38,29,34,26,22,107,80,75,75,6,9,7,7,0.4,0.4
2023-09-02T03:00:00,1872A,109.389,24.341,柳州市,河西水厂,,35,33,47,24,27,103,80,63,63,15,20,7,12,0.4,0.7
2023-09-02T03:00:00,1873A,109.4311,24.2921,柳州市,市四中,,32,27,34,22,22,113,76,76,76,9,10,15,10,0.6,0.7
2023-09-02T03:00:00,1874A,109.4006,24.3631,柳州市,市九中,,36,36,40,24,23,106,86,76,76,6,10,6,10,0.4,0.4
2023-09-02T03:00:00,1875A,109.4958,24.3134,柳州市,古亭山,,35,30,34,24,24,120,92,95,92,8,9,7,7,0.5,0.5
2023-09-02T03:00:00,1876A,109.5078,18.2489,三亚市,河东子站,,34,34,28,19,16,119,37,34,34,12,12,3,3,0.6,0.6
2023-09-02T03:00:00,1877A,109.4964,18.2681,三亚市,河西子站,,35,35,25,18,14,119,21,22,22,14,10,1,2,0.5,0.4
2023-09-02T03:00:00,1878A,104.7778,31.4741,绵阳市,富乐山,,40,38,31,28,21,117,5,10,8,23,20,4,4,0.8,0.7
2023-09-02T03:00:00,1879A,104.7563,31.4535,绵阳市,市人大,,47,47,42,21,25,118,2,5,3,40,31,9,6,0.7,0.6
2023-09-02T03:00:00,1880A,104.6697,31.4668,绵阳市,高新区自来水公司,颗粒物(PM10),59,68,45,39,24,107,2,2,2,49,32,8,7,0.5,0.4
2023-09-02T03:00:00,1881A,104.7287,31.5075,绵阳市,三水厂,,,,,,,,,,,,,,,,
2023-09-02T03:00:00,1882A,104.563,28.793,宜宾市,石马中学,,,,,,,,,,,,,,,,
2023-09-02T03:00:00,1883A,104.6201,28.7728,宜宾市,市委,细颗粒物(PM2.5),74,72,60,54,39,112,33,48,40,28,26,8,8,0.8,0.7
2023-09-02T03:00:00,1884A,104.6055,28.793,宜宾市,宜宾四中,细颗粒物(PM2.5),80,74,65,59,45,118,41,49,43,27,24,6,7,0.8,0.7
2023-09-02T03:00:00,1885A,104.639,28.7562,宜宾市,市政府,细颗粒物(PM2.5),63,62,60,45,41,119,28,42,37,44,28,8,9,0.7,0.7
2023-09-02T03:00:00,1886A,104.5742,28.7199,宜宾市,黄金嘴,细颗粒物(PM2.5),68,60,51,49,38,128,32,34,33,25,22,8,8,0.6,0.6
2023-09-02T03:00:00,1888A,101.6891,26.571,攀枝花市,弄弄坪,,20,18,44,7,28,64,64,59,59,7,23,7,10,0.8,1.2
2023-09-02T03:00:00,1889A,101.5769,26.5928,攀枝花市,河门口,,22,16,41,10,25,70,70,66,66,9,26,7,16,0.6,1.4
2023-09-02T03:00:00,1890A,101.7169,26.585,攀枝花市,炳草岗,,18,14,49,6,25,57,57,45,45,12,39,11,17,1.1,1.6
2023-09-02T03:00:00,1891A,101.7369,26.5008,攀枝花市,仁和,,29,29,39,19,30,66,22,19,18,33,20,18,11,2.3,0.9
2023-09-02T03:00:00,1893A,105.4324,28.9634,泸州市,九狮山,细颗粒物(PM2.5),54,50,51,38,30,175,27,38,30,16,21,5,6,0.5,0.5
2023-09-02T03:00:00,1894A,105.4427,28.9063,泸州市,小市上码头,细颗粒物(PM2.5),52,50,66,36,45,183,90,85,85,9,18,10,15,0.6,0.6
2023-09-02T03:00:00,1895A,105.4241,28.8573,泸州市,兰田宪桥,细颗粒物(PM2.5),55,49,68,39,50,175,78,80,79,7,13,5,8,0.5,0.7
2023-09-02T03:00:00,1896A,105.4379,28.8833,泸州市,市环监站,颗粒物(PM10),54,58,67,36,42,160,85,83,83,12,22,14,13,0.4,0.6
2023-09-02T03:00:00,1901A,104.4239,31.1208,德阳市,东山公园,颗粒物(PM10),53,56,52,21,25,135,67,67,67,20,18,3,3,0.7,0.6
2023-09-02T03:00:00,1902A,104.3826,31.1317,德阳市,西小区,颗粒物(PM10),56,61,52,27,28,132,26,52,41,42,25,1,2,0.8,0.7
2023-09-02T03:00:00,1904A,104.3553,31.1091,德阳市,耐火材料厂,颗粒物(PM10),55,60,50,34,27,141,26,32,27,36,23,3,3,0.8,0.7
2023-09-02T03:00:00,1905A,106.056,30.8064,南充市,西山风景区,,43,33,40,30,32,129,93,116,105,6,8,19,5,0.5,0.6
2023-09-02T03:00:00,1906A,106.0789,30.8023,南充市,南充市委,,45,40,53,31,25,119,35,47,41,14,20,10,9,0.5,0.5
2023-09-02T03:00:00,1907A,106.1031,30.8217,南充市,南充炼油厂,"颗粒物(PM10),细颗粒物(PM2.5)",52,54,57,36,34,117,54,63,60,11,17,31,10,0.4,0.5
2023-09-02T03:00:00,1908A,106.1064,30.7856,南充市,高坪区监测站,"颗粒物(PM10),细颗粒物(PM2.5)",53,56,52,37,37,117,31,69,51,31,20,8,8,0.4,0.3
2023-09-02T03:00:00,1909A,106.0642,30.7636,南充市,嘉陵区环保局,颗粒物(PM10),54,58,52,36,37,123,29,38,32,31,25,8,8,0.4,0.5
2023-09-02T03:00:00,1910A,106.1087,30.8388,南充市,市环境监测站,,48,45,62,33,40,109,36,38,37,19,22,7,8,0.4,0.5
2023-09-02T03:00:00,1911A,106.9222,27.6869,遵义市,丁字口,,33,29,23,23,20,128,77,78,74,24,23,6,7,0.7,0.6
2023-09-02T03:00:00,1912A,106.9242,27.7019,遵义市,凤凰山,,41,35,31,27,27,144,131,132,132,16,14,10,9,0.6,0.5
2023-09-02T03:00:00,1913A,106.8906,27.6486,遵义市,忠庄,,40,40,32,23,20,142,85,122,100,28,17,4,4,0.5,0.5
2023-09-02T03:00:00,1914A,106.9231,27.6506,遵义市,舟水桥,,50,50,40,33,26,136,39,55,47,22,18,2,2,0.8,0.6
2023-09-02T03:00:00,1915A,106.9178,27.72,遵义市,干田坝,,40,31,27,28,17,142,91,85,85,19,17,7,7,0.7,0.6
2023-09-02T03:00:00,1916A,103.7897,25.5035,曲靖市,环境监测站,,29,29,31,14,13,139,92,88,88,15,16,7,7,0.8,0.7
2023-09-02T03:00:00,1917A,103.8,25.5364,曲靖市,烟厂办公区,,31,31,30,21,14,130,91,84,84,11,13,5,7,0.6,0.6
2023-09-02T03:00:00,1918A,108.7197,34.3956,咸阳市,气象站,,,,,,,,,,,,,,,,
2023-09-02T03:00:00,1919A,108.673,34.3155,咸阳市,实验中学,,,,,,,,,,,,,,,,
2023-09-02T03:00:00,1920A,108.7233,34.3617,咸阳市,师范学院,细颗粒物(PM2.5),77,85,58,56,31,162,43,61,52,40,36,4,5,1.0,0.8
2023-09-02T03:00:00,1922A,109.0656,35.0994,铜川市,党校,颗粒物(PM10),53,55,51,29,23,133,14,13,13,28,27,11,12,0.8,0.8
2023-09-02T03:00:00,1923A,109.0697,35.0697,铜川市,王益区政府,,42,42,42,25,23,133,16,13,13,27,25,6,8,0.7,0.7
2023-09-02T03:00:00,1924A,108.9344,34.9058,铜川市,新区管委会,,37,37,46,23,21,145,50,52,51,17,21,7,7,0.7,0.7
2023-09-02T03:00:00,1926A,109.4131,36.6275,延安市,枣园,,40,40,28,15,12,117,4,3,3,32,25,6,6,0.5,0.4
2023-09-02T03:00:00,1927A,109.4761,36.6028,延安市,延大医附院,,42,42,29,17,10,119,4,4,4,38,27,4,5,0.6,0.6
2023-09-02T03:00:00,1929A,109.5056,36.6106,延安市,百米大道,,47,47,41,23,13,122,12,15,14,32,28,8,7,0.9,0.7
2023-09-02T03:00:00,1930A,107.185,34.3063,宝鸡市,庙沟村,,39,28,32,27,18,116,67,55,55,7,19,8,8,0.2,0.2
2023-09-02T03:00:00,1931A,107.0708,34.3017,宝鸡市,竹园沟,,19,12,26,13,20,162,29,39,34,14,16,5,6,0.5,0.6
2023-09-02T03:00:00,1932A,107.1906,34.3672,宝鸡市,三陆医院,细颗粒物(PM2.5),52,50,50,36,35,152,33,47,39,36,32,10,13,0.6,0.7
2023-09-02T03:00:00,1933A,107.1431,34.3547,宝鸡市,监测站,,32,30,42,22,25,149,28,61,45,29,31,7,9,0.4,0.5
2023-09-02T03:00:00,1934A,107.1186,34.3739,宝鸡市,技工学校,细颗粒物(PM2.5),57,53,45,40,27,157,44,64,54,20,24,7,7,0.6,0.6
2023-09-02T03:00:00,1935A,107.3906,34.3528,宝鸡市,陈仓区环保局家属楼,,38,38,54,24,24,148,20,27,22,45,38,6,9,0.5,0.6
2023-09-02T03:00:00,1936A,107.2058,34.3497,宝鸡市,文理学院,,46,46,44,25,24,160,48,59,54,20,24,5,7,0.5,0.6
2023-09-02T03:00:00,1937A,107.2386,34.3622,宝鸡市,三迪小学,细颗粒物(PM2.5),53,46,49,37,31,158,44,56,52,23,28,6,9,0.5,0.6
2023-09-02T03:00:00,1938A,109.5293,34.5101,渭南市,农科所,,41,41,46,27,26,122,42,37,37,14,26,5,5,0.4,0.4
2023-09-02T03:00:00,1939A,109.4974,34.4877,渭南市,日报社,细颗粒物(PM2.5),52,46,51,36,32,132,17,15,15,30,34,4,6,0.4,0.4
2023-09-02T03:00:00,1940A,109.4636,34.493,渭南市,体育馆,颗粒物(PM10),56,61,51,39,27,137,2,3,2,52,42,4,5,0.6,0.6
2023-09-02T03:00:00,1941A,109.4259,34.5023,渭南市,高新一小,颗粒物(PM10),71,92,65,51,33,130,29,52,42,27,26,6,6,0.8,0.6
2023-09-02T03:00:00,1943A,102.1725,38.5339,金昌市,新川苑,,,,,,,,,,,,,,,,
2023-09-02T03:00:00,1944A,102.1692,38.5167,金昌市,天庆家园,颗粒物(PM10),64,77,97,42,37,140,51,50,49,28,25,9,16,0.6,0.5
2023-09-02T03:00:00,1945A,98.2908,39.7711,嘉峪关市,气象局,颗粒物(PM10),60,70,120,22,41,117,78,54,54,12,24,3,5,0.2,0.3
2023-09-02T03:00:00,1947A,106.3394,38.817,石嘴山市,沙湖旅游区,颗粒物(PM10),58,66,56,28,31,225,42,66,52,39,26,13,14,0.6,0.6
2023-09-02T03:00:00,1948A,106.3668,39.0145,石嘴山市,大武口朝阳西街,细颗粒物(PM2.5),79,87,66,58,34,212,44,68,48,68,49,21,39,1.2,0.9
2023-09-02T03:00:00,1949A,106.7704,39.2282,石嘴山市,惠农南大街,,42,42,41,10,17,195,59,78,66,22,30,10,15,0.5,0.7
2023-09-02T03:00:00,1950A,106.7099,39.1325,石嘴山市,红果子镇惠新街,,39,39,36,14,12,204,50,60,51,26,26,22,14,0.3,0.4
2023-09-02T03:00:00,1951A,84.895,45.6094,克拉玛依市,长征新村,,20,20,23,2,4,113,60,71,66,10,9,9,9,0.2,0.2
2023-09-02T03:00:00,1952A,84.8988,45.5893,克拉玛依市,南林小区,,20,20,26,12,12,113,27,42,35,38,17,6,7,0.6,0.4
2023-09-02T03:00:00,1954A,84.905,44.3396,克拉玛依市,独山子区,,40,40,50,18,20,109,73,85,81,8,7,7,8,0.4,0.4
2023-09-02T03:00:00,1955A,85.6979,46.098,克拉玛依市,乌尔禾区商贸楼,,22,6,31,0,7,108,68,82,74,2,5,6,6,0.2,0.2
2023-09-02T03:00:00,1956A,86.1472,41.7538,巴音郭楞州,孔雀公园,颗粒物(PM10),72,93,101,26,30,116,63,42,42,40,30,15,10,0.5,0.5
2023-09-02T03:00:00,1957A,86.1972,41.7166,巴音郭楞州,棉纺厂,颗粒物(PM10),72,93,113,36,37,115,66,40,40,38,32,9,7,0.4,0.5
2023-09-02T03:00:00,1958A,86.2357,41.7173,巴音郭楞州,经济开发区,颗粒物(PM10),62,73,111,27,33,117,99,90,90,7,14,11,9,0.2,0.3
2023-09-02T03:00:00,1961A,117.532,36.6868,济南市,东山小学,颗粒物(PM10),55,59,78,34,42,220,43,56,51,55,35,5,8,0.6,0.7
2023-09-02T03:00:00,1966A,120.0405,35.8735,青岛市,黄岛区4号,颗粒物(PM10),62,73,57,36,33,220,35,53,47,54,24,6,9,0.6,0.6
2023-09-02T03:00:00,1982A,122.0693,37.2174,威海市,文登开发区,颗粒物(PM10),54,58,44,31,21,180,21,40,31,30,17,6,7,0.7,0.8
2023-09-02T03:00:00,2031A,113.1817,27.9958,株洲市,云田中学,,34,34,34,16,19,156,97,104,99,13,11,7,6,0.7,0.7
2023-09-02T03:00:00,2054A,114.1099,32.1059,信阳市,平桥分局,,35,32,33,24,17,147,83,83,82,16,15,4,3,0.6,0.6
2023-09-02T03:00:00,2064A,113.9956,32.1271,信阳市,南湾水厂,,46,46,38,24,18,145,91,83,83,16,12,4,3,0.6,0.7
2023-09-02T03:00:00,2065A,114.0775,32.1195,信阳市,市酿酒公司,,40,36,36,28,20,149,104,110,108,14,17,4,3,0.6,0.6
2023-09-02T03:00:00,2066A,114.0609,32.1399,信阳市,审计局,,35,35,36,20,16,152,110,109,109,11,19,5,4,0.6,0.6
2023-09-02T03:00:00,2067A,114.6613,33.6128,周口市,市环境监测站,颗粒物(PM10),52,54,48,30,23,163,122,120,120,14,18,10,8,0.4,0.4
2023-09-02T03:00:00,2068A,114.6758,33.6347,周口市,周口师范,颗粒物(PM10),59,67,50,36,19,157,47,124,88,32,12,4,6,0.6,0.5
2023-09-02T03:00:00,2069A,114.6546,33.5979,周口市,市运管处,颗粒物(PM10),54,58,49,29,24,153,99,119,109,18,21,10,11,0.5,0.4
2023-09-02T03:00:00,2070A,114.6369,33.6406,周口市,川汇区环保局,颗粒物(PM10),57,64,40,31,14,155,38,131,80,48,13,7,8,0.6,0.5
2023-09-02T03:00:00,2075A,117.6336,24.4674,漳州市,九湖,,,,,,,,,,,,,,,,
2023-09-02T03:00:00,2160A,112.85,35.5051,晋城市,自来水公司,颗粒物(PM10),70,90,68,41,34,174,104,136,124,14,19,9,10,1.0,1.1
2023-09-02T03:00:00,2161A,112.8318,35.4936,晋城市,白云商贸,颗粒物(PM10),53,56,69,34,33,169,109,126,118,17,23,9,9,0.9,1.1
2023-09-02T03:00:00,2162A,112.8508,35.4887,晋城市,市环保局,细颗粒物(PM2.5),58,58,75,41,37,164,111,114,113,17,26,8,9,0.9,1
2023-09-02T03:00:00,2163A,112.8676,35.4897,晋城市,技术学院,颗粒物(PM10),56,62,56,31,32,167,92,123,112,24,23,8,9,0.9,1
2023-09-02T03:00:00,2165A,112.8453,35.546,晋城市,白马寺,,,,,,,,,,,,,,,,
2023-09-02T03:00:00,2166A,112.4397,39.3522,朔州市,平朔,颗粒物(PM10),56,62,64,20,26,157,22,38,25,48,28,14,10,0.8,0.8
2023-09-02T03:00:00,2167A,112.4575,39.3617,朔州市,朔唯,颗粒物(PM10),65,80,84,34,29,150,2,36,18,71,32,14,13,0.7,0.7
2023-09-02T03:00:00,2168A,112.4258,39.3197,朔州市,区政府,,44,44,57,20,23,140,38,70,50,42,25,13,12,0.6,0.7
2023-09-02T03:00:00,2169A,112.4072,39.3278,朔州市,市环保局,,36,36,58,19,24,150,53,67,55,27,25,15,15,0.5,0.6
2023-09-02T03:00:00,2170A,112.4272,39.3681,朔州市,市二中,颗粒物(PM10),57,64,70,27,29,150,25,19,17,40,31,17,11,0.6,0.8
2023-09-02T03:00:00,2171A,112.7532,37.6945,晋中市,锦纶小区,细颗粒物(PM2.5),65,68,61,47,35,196,82,93,88,17,15,9,9,0.6,0.6
2023-09-02T03:00:00,2173A,112.7249,37.7067,晋中市,南都小区,细颗粒物(PM2.5),74,68,70,54,47,197,87,92,90,15,15,6,7,0.8,0.8
2023-09-02T03:00:00,2174A,112.6991,37.6982,晋中市,榆次区政府,颗粒物(PM10),60,69,60,42,39,194,85,92,90,18,16,8,10,0.7,0.7
2023-09-02T03:00:00,2175A,110.9956,35.0147,运城市,运城中学,颗粒物(PM10),58,66,53,33,31,148,140,146,144,5,12,4,5,0.5,0.8
2023-09-02T03:00:00,2178A,110.9686,35.0303,运城市,地区技校,颗粒物(PM10),57,64,58,32,30,138,127,133,131,8,14,4,4,0.4,0.5
2023-09-02T03:00:00,2179A,111.0414,35.1147,运城市,空港新区,颗粒物(PM10),61,71,62,41,34,151,111,128,111,14,20,4,6,0.6,0.9
2023-09-02T03:00:00,2181A,112.7383,38.4519,忻州市,开发区,细颗粒物(PM2.5),63,51,64,45,46,161,35,94,67,35,18,8,12,0.9,1
2023-09-02T03:00:00,2182A,112.7003,38.4928,忻州市,会展中心,细颗粒物(PM2.5),70,46,59,51,48,160,44,55,51,28,21,11,14,0.8,0.8
2023-09-02T03:00:00,2183A,111.1406,37.5211,吕梁市,环保局,颗粒物(PM10),59,68,68,26,25,179,11,13,10,51,39,2,5,0.5,0.6
2023-09-02T03:00:00,2185A,111.1297,37.5136,吕梁市,自来水公司,颗粒物(PM10),65,80,61,29,25,176,15,30,22,52,33,5,5,0.7,0.7
2023-09-02T03:00:00,2187A,106.8174,39.6973,乌海市,市林业局,颗粒物(PM10),51,51,60,21,25,221,84,114,103,24,26,30,40,0.9,1.3
2023-09-02T03:00:00,2188A,106.7907,39.6667,乌海市,中海勃湾学校,,40,40,56,24,25,229,84,124,105,26,31,31,42,0.6,1.1
2023-09-02T03:00:00,2191A,122.2532,43.6801,通辽市,艺术职业学校,,48,48,59,11,14,92,59,62,61,18,26,4,5,0.2,0.3
2023-09-02T03:00:00,2192A,119.7594,49.2261,呼伦贝尔市,区环保局,,26,19,27,18,23,86,43,44,44,13,13,3,4,0.3,0.4
2023-09-02T03:00:00,2195A,107.4212,40.761,巴彦淖尔市,附二中,,48,48,64,15,20,178,96,107,102,11,13,6,8,0.6,0.6
2023-09-02T03:00:00,2196A,107.37,40.7372,巴彦淖尔市,市环保大楼,颗粒物(PM10),52,54,65,13,21,163,94,106,99,9,14,4,7,0.5,0.5
2023-09-02T03:00:00,2197A,113.1306,40.9923,乌兰察布市,集宁新区,,32,30,30,18,14,167,101,134,121,18,14,12,14,0.5,0.4
2023-09-02T03:00:00,2200A,122.0392,46.0656,兴安盟,胜华新制药厂,,18,18,27,12,15,86,30,28,28,10,15,2,2,0.2,0.3
2023-09-02T03:00:00,2201A,121.9504,46.0741,兴安盟,科右前旗环保局,,25,24,26,17,19,84,15,15,15,16,16,4,3,0.4,0.4
2023-09-02T03:00:00,2202A,116.1042,43.9317,锡林郭勒盟,市环保监测站,,22,12,22,2,8,104,69,79,74,2,12,9,10,0.2,0.2
2023-09-02T03:00:00,2203A,116.0781,43.9311,锡林郭勒盟,市政府,,20,13,22,2,4,104,64,78,70,8,17,10,11,0.2,0.2
2023-09-02T03:00:00,2204A,105.6467,38.8363,阿拉善盟,西城区西花园,,39,39,49,25,22,113,100,99,99,8,13,8,9,0.5,0.5
2023-09-02T03:00:00,2205A,105.6985,38.8411,阿拉善盟,蒙二幼,,50,50,51,22,22,136,121,114,114,5,9,7,7,0.3,0.3
2023-09-02T03:00:00,2206A,105.724,38.8516,阿拉善盟,环保局新楼,,40,40,39,21,20,135,128,124,124,4,7,10,9,0.4,0.4
2023-09-02T03:00:00,2207A,121.6094,41.998,阜新市,工业园区,,40,40,44,15,16,84,7,6,6,33,25,5,9,0.7,0.5
2023-09-02T03:00:00,2208A,121.6697,42.0279,阜新市,长青街,,42,42,34,25,17,84,7,35,21,41,22,7,11,0.7,0.5
2023-09-02T03:00:00,2209A,121.6673,42.0705,阜新市,农业园区,,33,33,33,18,14,81,77,75,73,16,15,16,12,1.0,0.8
2023-09-02T03:00:00,2210A,121.6717,42.0224,阜新市,东苑,,,51,37,24,21,83,11,49,30,42,19,,15,0.6,0.5
2023-09-02T03:00:00,2211A,121.6506,42.0498,阜新市,玉龙新城,颗粒物(PM10),58,66,51,14,15,79,5,6,6,35,25,5,6,0.8,0.6
2023-09-02T03:00:00,2212A,123.2,41.1953,辽阳市,宏伟区,,,11,33,11,13,128,56,59,56,,19,9,15,0.6,0.9
2023-09-02T03:00:00,2213A,123.1683,41.2495,辽阳市,新华园,,45,45,43,17,17,110,28,34,32,22,28,16,14,0.8,1
2023-09-02T03:00:00,2214A,123.2354,41.2639,辽阳市,滨河路,,30,29,36,21,17,120,50,45,45,14,26,8,14,1.0,1.1
2023-09-02T03:00:00,2215A,123.149,41.2991,辽阳市,铁西工业园,,44,44,48,22,20,131,38,45,41,31,28,10,13,1.1,1.2
2023-09-02T03:00:00,2216A,123.8139,42.3022,铁岭市,汇工街西,,35,35,35,21,18,111,31,52,39,37,26,11,15,0.7,0.8
2023-09-02T03:00:00,2217A,123.8649,42.2923,铁岭市,水上乐园,细颗粒物(PM2.5),83,114,41,61,22,113,31,44,38,26,23,5,4,0.7,0.8
2023-09-02T03:00:00,2218A,123.8486,42.2867,铁岭市,银州路东段,颗粒物(PM10),56,61,38,22,16,99,15,37,23,47,30,8,8,0.9,0.8
2023-09-02T03:00:00,2219A,123.7153,42.2217,铁岭市,金沙江路北,,38,38,38,23,17,109,27,38,33,37,33,5,6,0.8,0.8
2023-09-02T03:00:00,2220A,120.4318,41.5881,朝阳市,西梁,,48,48,38,19,16,95,9,18,15,35,26,9,9,0.6,0.7
2023-09-02T03:00:00,2221A,120.4521,41.5646,朝阳市,河畔小区,,31,31,29,15,11,93,35,41,39,17,19,10,10,0.6,0.6
2023-09-02T03:00:00,2222A,120.4176,41.5648,朝阳市,八里堡,,36,36,44,21,16,97,19,16,16,29,28,7,9,0.8,0.8
2023-09-02T03:00:00,2223A,120.3806,41.5969,朝阳市,农业园区,颗粒物(PM10),56,61,28,15,12,90,10,8,7,36,22,11,7,0.5,0.7
2023-09-02T03:00:00,2225A,124.4002,43.1713,四平市,一商场,,40,40,39,13,22,88,59,59,58,15,19,9,8,0.2,0.4
2023-09-02T03:00:00,2226A,124.388,43.193,四平市,境园,,39,39,36,21,23,86,24,21,21,29,20,3,2,0.4,0.5
2023-09-02T03:00:00,2227A,125.1358,42.8845,辽源市,环保局,,26,26,23,14,15,107,5,6,6,20,13,6,7,0.6,0.7
2023-09-02T03:00:00,2229A,125.9358,41.7173,通化市,光明,,30,30,17,7,7,86,7,9,8,20,11,9,9,0.5,0.3
2023-09-02T03:00:00,2230A,125.9446,41.7325,通化市,铁路,颗粒物(PM10),51,52,18,28,9,86,5,9,6,31,11,76,9,3.9,0.7
2023-09-02T03:00:00,2231A,126.4219,41.9171,白山市,喜丰,,36,36,33,15,12,97,5,5,5,16,15,7,9,0.7,0.7
2023-09-02T03:00:00,2232A,126.4077,41.9419,白山市,环保局,,37,37,34,9,13,101,8,11,9,15,16,7,9,0.6,0.8
2023-09-02T03:00:00,2233A,124.8006,45.1214,松原市,江南,,15,10,18,10,10,79,44,44,44,14,15,6,5,0.4,0.5
2023-09-02T03:00:00,2234A,124.7965,45.1722,松原市,江北,,17,15,13,8,8,78,53,48,48,9,10,3,4,0.4,0.4
2023-09-02T03:00:00,2235A,122.7911,45.6077,白城市,洮北区环保局,,22,13,16,15,8,103,43,54,49,10,10,5,5,0.1,0.1
2023-09-02T03:00:00,2236A,122.8738,45.5725,白城市,市环保局,,26,26,22,2,7,104,49,50,50,13,15,7,6,0.2,0.2
2023-09-02T03:00:00,2237A,129.47,42.8883,延边朝鲜族自治州,妇幼医院,,22,22,17,10,10,87,15,19,17,10,11,8,8,0.6,0.5
2023-09-02T03:00:00,2238A,129.5055,42.9108,延边朝鲜族自治州,延边医院,,20,20,30,12,12,89,16,24,20,16,16,6,6,0.6,0.6
2023-09-02T03:00:00,2239A,129.3964,42.8881,延边朝鲜族自治州,朝阳川镇医院,,19,19,15,11,7,93,15,17,16,7,7,8,8,0.6,0.5
2023-09-02T03:00:00,2240A,130.9762,45.3001,鸡西市,环保局,,18,18,29,10,12,57,25,32,30,7,13,5,5,0.3,0.3
2023-09-02T03:00:00,2243A,130.9429,45.3039,鸡西市,第一中学,,12,12,18,5,9,75,38,39,38,6,7,6,7,0.1,0.2
2023-09-02T03:00:00,2244A,130.2537,47.3416,鹤岗市,哈啤分公司,,16,14,11,11,9,44,18,18,18,7,8,11,12,0.3,0.3
2023-09-02T03:00:00,2245A,130.2684,47.3086,鹤岗市,斯达机电,,18,18,15,10,7,42,29,26,26,7,9,8,9,0.5,0.4
2023-09-02T03:00:00,2246A,130.3114,47.3388,鹤岗市,东山纸板厂,,18,8,12,12,9,44,7,8,7,7,11,11,11,0.5,0.5
2023-09-02T03:00:00,2247A,130.1097,47.3382,鹤岗市,五号水库,,10,9,10,7,7,48,16,24,22,5,5,11,12,0.4,0.3
2023-09-02T03:00:00,2248A,131.1511,46.6937,双鸭山市,双合村,,14,14,15,0,5,62,25,30,29,4,5,6,7,0.1,0.1
2023-09-02T03:00:00,2249A,131.1652,46.6191,双鸭山市,南小市,,9,5,20,5,7,61,27,28,27,2,5,5,6,0.2,0.2
2023-09-02T03:00:00,2250A,131.1524,46.6554,双鸭山市,环保局,,13,13,19,9,10,62,25,24,24,7,10,8,9,0.2,0.3
2023-09-02T03:00:00,2251A,131.12,46.5656,双鸭山市,苗圃,,12,7,7,5,8,74,36,37,36,3,3,3,3,0.3,0.3
2023-09-02T03:00:00,2252A,128.5159,47.4311,伊春市,环保局,,17,17,12,7,6,41,22,21,21,3,8,4,5,0.2,0.3
2023-09-02T03:00:00,2253A,128.9102,47.7412,伊春市,电力嘉园,,13,5,10,9,11,48,5,19,11,6,6,5,5,0.4,0.5
2023-09-02T03:00:00,2254A,129.5029,48.471,伊春市,汤旺河国家公园,,26,26,21,11,11,46,8,14,12,1,2,14,15,0.4,1
2023-09-02T03:00:00,2255A,130.2751,46.8028,佳木斯市,佳纺,,10,10,14,3,7,54,22,25,23,8,6,2,3,0.4,0.4
2023-09-02T03:00:00,2256A,130.3995,46.8307,佳木斯市,发电厂,,16,16,12,2,6,56,33,31,31,6,7,2,3,0.3,0.3
2023-09-02T03:00:00,2257A,130.3258,46.7975,佳木斯市,环保局,,19,19,16,5,6,53,27,27,27,6,7,3,3,0.4,0.4
2023-09-02T03:00:00,2258A,130.3648,46.8032,佳木斯市,十一中,,11,11,16,4,7,54,34,32,32,5,10,3,3,0.4,0.4
2023-09-02T03:00:00,2259A,130.3794,46.7588,佳木斯市,四丰,,11,9,10,0,4,69,34,40,37,2,3,1,1,0.3,0.3
2023-09-02T03:00:00,2262A,131.0518,45.8751,七台河市,新一中,,17,13,15,8,9,80,53,55,54,5,6,8,9,0.4,0.4
2023-09-02T03:00:00,2263A,127.4833,50.2524,黑河市,交通局,,9,8,15,6,8,46,14,12,12,5,12,5,7,0.4,0.4
2023-09-02T03:00:00,2264A,127.5144,50.2341,黑河市,环保局,,19,19,20,10,8,52,21,20,20,3,8,2,4,0.3,0.3
2023-09-02T03:00:00,2265A,127.5291,50.2472,黑河市,大黑河岛,,,6,14,15,12,,,,,1,2,1,3,0.5,0.5
2023-09-02T03:00:00,2266A,126.9785,46.6365,绥化市,人和东街,,29,29,17,15,10,49,34,47,41,15,12,4,4,0.3,0.3
2023-09-02T03:00:00,2267A,126.964,46.6528,绥化市,党政办公中心,,19,15,15,13,8,51,45,50,49,10,9,9,8,0.3,0.3
2023-09-02T03:00:00,2269A,124.1069,50.4097,大兴安岭地区,科技局,,26,19,16,18,12,73,13,26,18,2,4,4,4,0.2,0.2
2023-09-02T03:00:00,2270A,117.396,32.939,蚌埠市,工人疗养院,颗粒物(PM10),67,84,43,40,19,171,73,119,102,28,15,4,4,0.6,0.5
2023-09-02T03:00:00,2271A,117.3605,32.9427,蚌埠市,百货大楼,颗粒物(PM10),61,72,47,32,20,171,76,104,94,26,16,5,5,0.4,0.4
2023-09-02T03:00:00,2273A,117.4185,32.8911,蚌埠市,蚌埠学院,颗粒物(PM10),52,53,44,30,23,168,22,58,36,39,24,3,6,0.4,0.4
2023-09-02T03:00:00,2274A,117.3533,32.9673,蚌埠市,淮上区政府,颗粒物(PM10),62,73,44,42,26,163,8,18,15,73,26,5,6,0.5,0.4
2023-09-02T03:00:00,2275A,117.3145,32.8977,蚌埠市,高新区,颗粒物(PM10),63,75,40,39,23,173,47,73,64,36,21,4,6,0.6,0.5
2023-09-02T03:00:00,2277A,116.8305,32.7727,淮南市,潘集区政府,颗粒物(PM10),61,72,44,31,23,167,83,105,94,17,14,10,7,0.4,0.3
2023-09-02T03:00:00,2278A,117.0067,32.6524,淮南市,师范学院,细颗粒物(PM2.5),57,61,45,40,24,160,75,108,91,20,15,15,11,1.1,0.6
2023-09-02T03:00:00,2279A,116.8569,32.5951,淮南市,谢家集区政府,颗粒物(PM10),52,54,37,19,12,155,94,121,104,19,20,17,13,0.7,0.3
2023-09-02T03:00:00,2280A,116.8281,32.633,淮南市,八公山区政府,颗粒物(PM10),53,56,49,36,27,168,101,101,101,13,17,12,10,0.8,0.4
2023-09-02T03:00:00,2281A,116.6325,32.6201,淮南市,焦岗湖风景区管理处,,45,35,32,31,20,168,66,74,71,28,22,4,4,0.5,0.4
2023-09-02T03:00:00,2282A,116.8004,33.975,淮北市,监测站,,49,49,41,26,20,161,100,104,102,11,15,5,6,0.8,0.7
2023-09-02T03:00:00,2283A,116.8091,33.9007,淮北市,烈山区政府,颗粒物(PM10),55,60,48,37,25,172,96,97,90,13,14,6,7,0.7,0.6
2023-09-02T03:00:00,2285A,117.8177,30.9412,铜陵市,市第四中学,,37,37,32,23,20,133,70,76,73,13,10,7,6,0.3,0.3
2023-09-02T03:00:00,2286A,117.8059,30.9273,铜陵市,市公路局,,43,43,34,23,20,150,75,100,90,19,13,11,10,0.5,0.4
2023-09-02T03:00:00,2287A,117.7807,30.9413,铜陵市,市新民污水厂,,44,44,35,12,14,152,80,74,74,14,16,5,5,0.4,0.4
2023-09-02T03:00:00,2288A,117.7439,30.8792,铜陵市,市第九中学,颗粒物(PM10),58,66,51,29,20,121,68,100,82,36,37,18,9,1.8,1.2
2023-09-02T03:00:00,2289A,117.846,30.9413,铜陵市,车站新区,,42,33,27,29,20,145,66,59,59,19,17,4,5,0.3,0.3
2023-09-02T03:00:00,2290A,117.8483,30.97,铜陵市,市职教基地,,36,36,27,14,11,145,66,82,76,13,9,4,4,0.5,0.5
2023-09-02T03:00:00,2291A,117.0809,30.5177,安庆市,环科院,,39,29,29,15,18,154,123,128,126,8,9,8,8,0.6,0.6
2023-09-02T03:00:00,2292A,117.0331,30.5119,安庆市,马山宾馆,,41,33,32,17,18,156,130,142,138,15,14,8,7,0.7,0.7
2023-09-02T03:00:00,2294A,116.9896,30.6145,安庆市,安庆大学,,38,38,25,21,16,152,102,119,110,13,11,6,6,0.6,0.6
2023-09-02T03:00:00,2295A,118.2903,29.6963,黄山市,延安路89号,,24,24,30,6,7,127,32,108,65,8,5,3,4,0.4,0.4
2023-09-02T03:00:00,2296A,118.327,29.7178,黄山市,黄山东路89号,,30,30,22,2,7,117,65,108,88,9,6,4,4,0.5,0.5
2023-09-02T03:00:00,2297A,118.1371,30.2756,黄山市,黄山区政府5号楼,,31,31,31,14,12,136,21,28,22,7,9,6,6,0.5,0.5
2023-09-02T03:00:00,2298A,118.3093,32.3153,滁州市,老年大学,,42,42,32,20,16,156,24,32,29,29,20,7,7,0.4,0.3
2023-09-02T03:00:00,2299A,118.3244,32.2786,滁州市,人大宾馆,,44,44,32,27,17,155,44,59,49,28,22,8,8,0.5,0.4
2023-09-02T03:00:00,2301A,115.8277,32.8929,阜阳市,市监测站,,42,42,36,28,23,156,97,105,100,14,17,9,9,0.5,0.5
2023-09-02T03:00:00,2303A,115.8554,32.8605,阜阳市,开发区,细颗粒物(PM2.5),67,64,43,48,30,158,79,92,85,20,19,9,8,0.5,0.5
2023-09-02T03:00:00,2307A,116.5079,31.737,六安市,监测大楼,,29,29,28,12,9,156,62,80,72,16,12,4,5,0.4,0.4
2023-09-02T03:00:00,2308A,116.4738,31.7643,六安市,皖西学院,,44,44,34,12,12,159,61,64,61,32,17,19,9,0.3,0.2
2023-09-02T03:00:00,2309A,116.4996,31.7905,六安市,朝阳厂,,44,44,29,30,13,161,60,68,65,28,15,8,8,0.6,0.5
2023-09-02T03:00:00,2310A,116.5567,31.7886,六安市,开发区,,47,47,38,24,19,151,24,39,31,36,16,5,6,0.5,0.5
2023-09-02T03:00:00,2311A,115.8072,33.8399,亳州市,污水处理厂,细颗粒物(PM2.5),59,63,41,42,23,179,59,89,78,16,10,17,16,0.7,0.6
2023-09-02T03:00:00,2312A,115.7789,33.8518,亳州市,三国揽胜宫,细颗粒物(PM2.5),58,56,38,41,23,178,88,106,94,14,14,18,11,0.7,0.5
2023-09-02T03:00:00,2314A,117.47,30.6618,池州市,池州学院,颗粒物(PM10),52,53,36,22,18,129,56,113,85,40,19,7,6,0.7,0.6
2023-09-02T03:00:00,2316A,118.7581,30.9454,宣城市,鳌峰子站,,44,44,34,21,18,136,51,69,60,25,20,5,4,0.7,0.7
2023-09-02T03:00:00,2317A,118.7385,30.9743,宣城市,敬亭山子站,,35,35,36,20,16,140,29,48,39,23,21,6,8,0.5,0.6
2023-09-02T03:00:00,2318A,118.7173,30.9427,宣城市,开发区子站,,36,36,33,19,19,149,56,74,65,22,19,6,6,0.6,0.6
2023-09-02T03:00:00,2319A,119.0141,25.4325,莆田市,荔城区仓后路,,20,5,17,4,8,85,64,66,65,5,6,8,8,0.5,0.9
2023-09-02T03:00:00,2320A,119.0015,25.4553,莆田市,莆田市监测站,,20,9,18,1,6,86,64,63,63,3,4,6,6,0.5,0.5
2023-09-02T03:00:00,2321A,119.1119,25.4561,莆田市,涵江区六中,,24,7,18,3,9,101,75,86,81,4,6,7,7,0.6,0.5
2023-09-02T03:00:00,2322A,119.1013,25.3215,莆田市,秀屿区政府,,21,18,23,9,11,100,66,78,72,9,8,7,7,0.6,0.6
2023-09-02T03:00:00,2323A,118.981,25.4792,莆田市,东圳水库,,,,,,,,,,,,,,,,
2023-09-02T03:00:00,2324A,117.6211,26.2625,三明市,三钢,,23,23,23,12,15,70,30,24,24,10,12,12,8,0.3,0.4
2023-09-02T03:00:00,2325A,117.635,26.2714,三明市,三明二中,,21,21,19,14,11,68,34,30,30,14,14,9,5,0.6,0.7
2023-09-02T03:00:00,2326A,117.6028,26.2378,三明市,三元区政府,,23,23,24,16,10,64,33,28,28,12,14,14,8,0.6,0.7
2023-09-02T03:00:00,2327A,117.7275,26.3108,三明市,洋溪,,,,,,,,,,,,,,,,
2023-09-02T03:00:00,2331A,118.0966,26.6761,南平市,茫荡山,,,,,,,,,,,,,,,,
2023-09-02T03:00:00,2332A,118.1681,26.6369,南平市,南平市监测站,,17,16,20,9,7,88,54,52,52,6,8,6,5,0.4,0.6
2023-09-02T03:00:00,2333A,118.1825,26.6489,南平市,南平铝业有限公司,,18,12,19,8,9,83,57,53,53,7,8,4,4,0.5,0.6
2023-09-02T03:00:00,2334A,118.1756,26.6272,南平市,南平七中,,16,11,16,8,7,89,51,50,49,5,7,7,5,0.6,0.7
2023-09-02T03:00:00,2335A,117.0189,25.1181,龙岩市,龙岩师专,,,,,,,,,,,,,,,,
2023-09-02T03:00:00,2336A,117.0217,25.1033,龙岩市,龙岩市监测站,,15,13,12,10,8,47,35,34,34,8,8,6,5,0.4,0.4
2023-09-02T03:00:00,2337A,117.0258,25.0661,龙岩市,闽西职业技术学院,,20,20,12,8,6,52,36,38,37,6,5,6,5,0.4,0.4
2023-09-02T03:00:00,2338A,117.0196,25.0306,龙岩市,龙岩学院,,16,16,11,6,6,54,30,42,37,5,6,6,6,0.3,0.3
2023-09-02T03:00:00,2339A,119.5001,26.6946,宁德市,金涵水库,,,,,,,,,,,,,,,,
2023-09-02T03:00:00,2341A,119.5388,26.6612,宁德市,宁德市监测站,,15,12,20,10,12,107,44,41,41,5,11,3,4,0.5,0.6
2023-09-02T03:00:00,2342A,117.3102,29.3867,景德镇市,王港中学,,19,19,19,9,9,79,12,11,11,4,3,3,3,0.5,0.5
2023-09-02T03:00:00,2343A,117.2117,29.2933,景德镇市,老干部活动中心,,28,28,27,11,12,84,68,64,64,11,8,4,4,0.3,0.3
2023-09-02T03:00:00,2344A,117.1894,29.2789,景德镇市,兽医站,,33,33,28,19,24,84,76,75,75,8,8,8,6,0.6,0.6
2023-09-02T03:00:00,2345A,117.1547,29.2617,景德镇市,台达陶瓷,,27,23,20,17,9,88,84,79,79,5,8,12,6,0.4,0.4
2023-09-02T03:00:00,2346A,117.2461,29.2956,景德镇市,陶研所,,38,38,31,17,10,85,31,29,29,4,7,4,6,0.4,0.3
2023-09-02T03:00:00,2347A,114.0997,27.5002,萍乡市,武功山,,13,5,5,5,5,104,39,42,39,4,4,8,9,0.4,0.4
2023-09-02T03:00:00,2348A,113.8385,27.6434,萍乡市,中医院,,32,26,31,17,18,108,100,102,101,6,9,20,19,0.6,0.6
2023-09-02T03:00:00,2349A,113.8493,27.6253,萍乡市,市政府车库,,35,23,35,17,18,119,111,106,106,6,11,9,18,0.3,0.6
2023-09-02T03:00:00,2350A,113.8676,27.6435,萍乡市,市环保局,,37,24,32,14,19,121,117,115,115,5,8,8,15,0.4,0.5
2023-09-02T03:00:00,2351A,113.866,27.6198,萍乡市,安源区政府,,32,31,35,21,21,118,100,96,96,15,13,19,16,2.2,1.1
2023-09-02T03:00:00,2352A,115.0861,27.9317,新余市,北岗,,30,23,24,16,18,127,93,100,95,7,6,14,13,0.7,0.7
2023-09-02T03:00:00,2353A,114.9886,27.8431,新余市,飞宇,,37,37,38,17,19,123,90,96,94,12,11,10,10,0.4,0.4
2023-09-02T03:00:00,2354A,114.9231,27.8246,新余市,第二水厂,,36,36,37,18,19,134,102,109,105,14,14,12,11,0.4,0.5
2023-09-02T03:00:00,2355A,114.9308,27.8036,新余市,市气象局,,31,29,35,14,20,124,99,102,99,7,8,12,11,0.6,0.7
2023-09-02T03:00:00,2357A,116.9822,28.1136,鹰潭市,龙虎山,,40,35,27,24,21,131,127,129,128,6,4,4,5,0.2,0.3
2023-09-02T03:00:00,2358A,117.0564,28.2642,鹰潭市,新监测站,,37,33,35,23,20,138,118,117,116,8,9,12,18,0.5,0.6
2023-09-02T03:00:00,2359A,117.0311,28.2475,鹰潭市,财苑宾馆,,46,46,36,28,19,142,111,123,118,13,9,20,18,0.5,0.5
2023-09-02T03:00:00,2360A,117.0222,28.2264,鹰潭市,体育馆,,42,38,37,29,22,144,119,122,120,8,10,11,15,0.6,0.6
2023-09-02T03:00:00,2361A,117.0017,28.2131,鹰潭市,三川水表,,38,38,40,25,22,148,115,120,118,19,13,7,12,0.5,0.6
2023-09-02T03:00:00,2362A,114.9017,25.9149,赣州市,通天岩,,,,,,,,,,,,,,,,
2023-09-02T03:00:00,2363A,114.9367,25.8664,赣州市,地委,,32,32,35,21,23,82,61,57,57,5,7,14,14,1.1,1
2023-09-02T03:00:00,2364A,114.9461,25.8481,赣州市,气象台,,40,40,29,19,22,86,63,63,63,8,12,6,6,0.8,0.8
2023-09-02T03:00:00,2365A,114.9322,25.8333,赣州市,市图书馆,,35,35,39,20,23,80,68,66,66,6,9,4,7,1.2,1.1
2023-09-02T03:00:00,2366A,114.8905,25.8471,赣州市,华坚鞋城,,38,38,36,23,22,80,66,69,67,5,8,4,3,0.6,0.6
2023-09-02T03:00:00,2367A,114.9754,27.0803,吉安市,红声器材厂,,41,41,36,20,18,114,92,91,91,16,14,15,14,0.8,0.7
2023-09-02T03:00:00,2368A,114.9658,27.0999,吉安市,市森林工业局,,38,38,33,20,20,117,102,107,105,9,8,14,11,0.5,0.6
2023-09-02T03:00:00,2369A,114.99,27.1312,吉安市,市环境监测站,,39,39,35,18,17,116,104,100,100,14,15,12,12,0.7,0.6
2023-09-02T03:00:00,2370A,115.0093,27.0968,吉安市,青原区法院,,32,32,34,21,19,112,84,102,95,21,13,20,15,0.9,0.8
2023-09-02T03:00:00,2371A,114.3408,27.8064,宜春市,槟榔水业,,30,28,28,14,14,105,95,96,95,11,12,3,3,1.1,0.9
2023-09-02T03:00:00,2373A,114.3956,27.7844,宜春市,市石油公司,,30,30,35,18,20,107,62,101,86,11,10,8,8,0.8,0.8
2023-09-02T03:00:00,2374A,114.3703,27.7914,宜春市,市气象局,,30,28,36,18,19,112,93,109,103,12,14,10,7,0.7,0.7
2023-09-02T03:00:00,2375A,114.4013,27.8074,宜春市,市广电局,,31,28,33,18,16,110,97,110,105,10,11,12,8,0.8,0.8
2023-09-02T03:00:00,2376A,116.2127,28.0814,抚州市,桐源党溪,,30,30,26,15,12,125,70,100,84,2,3,1,2,0.7,0.7
2023-09-02T03:00:00,2377A,116.3544,27.9831,抚州市,市站,,36,36,34,20,18,110,83,95,89,8,8,4,4,1.0,0.9
2023-09-02T03:00:00,2378A,116.3565,27.963,抚州市,血防站,,47,47,37,20,17,113,88,97,93,3,3,3,2,1.1,1
2023-09-02T03:00:00,2379A,116.3564,28.0007,抚州市,采茶剧团,,32,32,33,22,17,107,74,89,83,5,5,4,4,1.0,0.9
2023-09-02T03:00:00,2380A,116.385,27.9647,抚州市,医学分院,,37,37,34,18,17,114,83,96,90,7,4,13,9,1.0,1
2023-09-02T03:00:00,2381A,118.005,28.4572,上饶市,百草园,,38,38,36,5,16,137,112,116,114,14,9,9,19,0.8,0.8
2023-09-02T03:00:00,2382A,117.9756,28.4436,上饶市,市监测站,,47,47,36,22,18,148,126,128,128,14,8,13,7,0.5,0.4
2023-09-02T03:00:00,2383A,117.9519,28.4628,上饶市,凤凰光学,,44,44,35,21,17,131,103,100,100,22,13,49,11,0.5,0.5
2023-09-02T03:00:00,2385A,114.17,35.9019,鹤壁市,市监测站,细颗粒物(PM2.5),82,84,82,60,58,165,56,65,58,27,20,3,4,1.1,0.9
2023-09-02T03:00:00,2386A,114.2956,35.7511,鹤壁市,市交警支队,细颗粒物(PM2.5),100,106,84,75,59,157,33,49,40,34,23,6,4,0.8,0.9
2023-09-02T03:00:00,2387A,114.2878,35.7306,鹤壁市,迎宾馆,细颗粒物(PM2.5),83,87,82,61,60,164,26,32,24,35,25,9,7,1.0,1
2023-09-02T03:00:00,2389A,113.836,35.311,新乡市,环保西院,细颗粒物(PM2.5),85,88,71,63,48,154,25,43,29,47,21,9,7,0.9,0.9
2023-09-02T03:00:00,2390A,113.884,35.272,新乡市,开发区,细颗粒物(PM2.5),55,42,54,39,43,154,32,56,45,30,15,3,5,0.4,0.4
2023-09-02T03:00:00,2391A,113.883,35.303,新乡市,环保东院,颗粒物(PM10),68,85,76,43,43,151,36,61,50,44,22,8,5,0.9,0.9
2023-09-02T03:00:00,2392A,115.0312,35.7636,濮阳市,环保局,细颗粒物(PM2.5),103,71,53,77,45,167,46,82,60,28,15,12,8,0.9,0.7
2023-09-02T03:00:00,2394A,115.0574,35.7609,濮阳市,油田运输公司,细颗粒物(PM2.5),77,87,65,56,42,165,45,85,68,26,15,8,9,0.8,0.6
2023-09-02T03:00:00,2395A,115.0866,35.7754,濮阳市,油田物探公司,细颗粒物(PM2.5),124,101,65,94,51,183,48,102,72,17,12,6,6,0.7,0.6
2023-09-02T03:00:00,2396A,113.8276,34.0159,许昌市,监测站,,50,50,44,30,23,157,64,94,79,25,20,6,5,0.4,0.4
2023-09-02T03:00:00,2398A,113.7906,33.9953,许昌市,开发区,颗粒物(PM10),61,71,44,29,23,159,5,37,17,55,20,4,5,0.7,0.5
2023-09-02T03:00:00,2399A,114.051,33.5699,漯河市,三五一五工厂,颗粒物(PM10),51,51,41,27,21,170,92,83,83,17,18,11,12,0.5,0.5
2023-09-02T03:00:00,2400A,114.0055,33.5698,漯河市,漯河大学,,,,,,,,,,,,,,,,
2023-09-02T03:00:00,2401A,114.0138,33.5828,漯河市,市水利局,,45,44,36,31,23,169,89,113,103,22,15,8,9,0.5,0.5
2023-09-02T03:00:00,2402A,114.0261,33.5698,漯河市,市广电局,,42,42,40,26,23,171,112,134,121,18,14,8,7,0.5,0.4
2023-09-02T03:00:00,2404A,112.5224,33.0122,南阳市,瓦房庄,,48,48,47,28,27,164,100,104,103,9,14,5,5,0.6,0.6
2023-09-02T03:00:00,2405A,112.5003,32.9735,南阳市,汉画馆,,39,39,42,23,23,165,108,104,104,8,13,7,6,0.6,0.6
2023-09-02T03:00:00,2406A,112.5573,33.027,南阳市,气象站,,44,44,39,19,20,159,91,107,98,11,13,7,7,0.7,0.7
2023-09-02T03:00:00,2407A,112.5481,32.9689,南阳市,理工学院,,39,39,40,23,25,163,113,112,112,7,11,8,7,0.5,0.5
2023-09-02T03:00:00,2408A,115.6702,34.4285,商丘市,环境监测站,细颗粒物(PM2.5),62,71,48,44,27,166,40,76,48,43,19,6,7,0.9,0.8
2023-09-02T03:00:00,2409A,115.6458,34.4045,商丘市,粮食局,"颗粒物(PM10),细颗粒物(PM2.5)",57,63,42,40,25,175,79,91,83,23,14,7,6,0.6,0.5
2023-09-02T03:00:00,2410A,115.6293,34.3948,商丘市,睢阳区环保局,颗粒物(PM10),62,73,48,34,23,176,48,76,67,40,16,8,8,0.6,0.5
2023-09-02T03:00:00,2420A,114.0189,32.9656,驻马店市,市一纸厂,"颗粒物(PM10),细颗粒物(PM2.5)",52,53,42,36,21,156,82,108,99,18,12,51,8,0.8,0.5
2023-09-02T03:00:00,2421A,114.0114,33.015,驻马店市,市彩印厂,,47,47,39,18,22,156,100,116,109,12,11,8,7,0.4,0.4
2023-09-02T03:00:00,2422A,113.9976,32.9771,驻马店市,天方二分厂,颗粒物(PM10),51,52,32,30,21,150,81,113,101,53,10,11,6,0.5,0.4
2023-09-02T03:00:00,2423A,115.0601,30.2313,黄石市,沈家营,,31,31,33,13,14,157,82,100,90,16,17,7,8,0.7,0.7
2023-09-02T03:00:00,2424A,115.0817,30.2006,黄石市,陈家湾,,27,22,30,14,17,154,86,126,107,10,10,8,9,0.6,0.6
2023-09-02T03:00:00,2426A,114.8988,30.2019,黄石市,铁山,,45,28,32,12,15,167,143,135,135,7,16,8,9,0.6,0.7
2023-09-02T03:00:00,2427A,115.0307,30.2092,黄石市,团城山,,33,33,33,14,12,174,90,135,115,14,12,7,9,0.4,0.5
2023-09-02T03:00:00,2428A,111.0419,32.395,十堰市,武当山,,30,24,21,14,14,128,96,98,97,7,7,10,10,0.7,0.7
2023-09-02T03:00:00,2429A,110.78,32.6494,十堰市,滨河新村,,45,42,48,31,27,150,30,29,29,20,20,11,8,0.8,0.7
2023-09-02T03:00:00,2430A,110.7258,32.6389,十堰市,刘家沟,,42,42,39,28,22,156,39,45,42,5,7,7,7,0.7,0.7
2023-09-02T03:00:00,2431A,110.8839,32.5714,十堰市,铁二处,,30,30,33,15,18,158,54,65,58,2,6,5,6,0.7,0.7
2023-09-02T03:00:00,2432A,112.155,32.0197,襄阳市,襄城运动路,颗粒物(PM10),51,51,47,21,25,157,41,45,43,24,19,9,9,0.6,0.6
2023-09-02T03:00:00,2433A,112.1392,32.0564,襄阳市,樊城新华路,,40,29,48,28,27,160,33,66,43,48,23,8,10,0.5,0.5
2023-09-02T03:00:00,2434A,112.1825,32.1142,襄阳市,高新管委会,颗粒物(PM10),58,65,49,30,32,149,40,69,47,50,24,9,8,0.9,0.9
2023-09-02T03:00:00,2435A,112.2106,32.0903,襄阳市,襄州航空路,颗粒物(PM10),55,60,51,22,26,146,48,47,47,39,22,6,8,0.7,0.7
2023-09-02T03:00:00,2436A,114.8938,30.3994,鄂州市,市政府,,35,22,37,11,19,158,111,83,83,11,22,4,4,0.6,0.7
2023-09-02T03:00:00,2437A,114.8989,30.3714,鄂州市,赵家坝,颗粒物(PM10),51,52,45,15,18,167,97,79,79,21,25,10,5,0.4,0.5
2023-09-02T03:00:00,2439A,112.2014,31.0481,荆门市,竹园小学,,36,33,51,18,26,166,113,113,113,13,18,11,12,0.6,0.7
2023-09-02T03:00:00,2440A,112.1969,30.9891,荆门市,掇刀,,38,34,44,18,25,153,119,112,112,8,15,8,12,0.5,0.5
2023-09-02T03:00:00,2441A,112.2213,31.0386,荆门市,石化一小,,44,44,50,23,29,163,107,112,111,12,16,6,10,0.4,0.5
2023-09-02T03:00:00,2443A,113.9153,30.9285,孝感市,文化路,,31,28,31,15,17,160,97,92,92,12,12,7,7,0.7,0.8
2023-09-02T03:00:00,2444A,113.942,30.9075,孝感市,东城区,,21,21,37,8,15,163,65,84,76,19,11,6,8,0.7,0.7
2023-09-02T03:00:00,2446A,114.9028,30.4742,黄冈市,职工中心,,38,20,32,11,18,172,120,119,119,2,4,8,9,0.6,0.6
2023-09-02T03:00:00,2447A,114.3175,29.8142,咸宁市,森林公园,,35,18,28,14,16,181,111,111,111,4,4,7,7,0.7,0.7
2023-09-02T03:00:00,2448A,114.3107,29.8454,咸宁市,市发改委,,43,28,28,13,16,195,136,128,128,5,6,10,11,0.4,0.5
2023-09-02T03:00:00,2449A,114.2936,29.8566,咸宁市,咸安区政府,,44,19,30,12,20,195,138,131,131,8,12,11,11,0.5,0.6
2023-09-02T03:00:00,2451A,113.3583,31.7275,随州市,市委党校,,43,43,36,26,20,153,63,83,65,25,10,7,8,0.6,0.6
2023-09-02T03:00:00,2452A,113.3833,31.6908,随州市,市林业局,,38,38,31,25,20,156,47,87,64,28,14,6,5,0.7,0.7
2023-09-02T03:00:00,2453A,113.3983,31.7308,随州市,市立交桥水厂,,30,30,28,18,18,150,64,64,64,21,17,10,9,0.6,0.5
2023-09-02T03:00:00,2454A,109.4978,30.2981,恩施土家族苗族自治州,湖北民院,,45,45,33,22,22,150,39,50,45,1,3,10,10,0.8,0.7
2023-09-02T03:00:00,2455A,109.4707,30.2798,恩施土家族苗族自治州,州电力总公司,细颗粒物(PM2.5),120,45,41,91,43,122,38,36,36,17,19,9,9,0.8,0.9
2023-09-02T03:00:00,2456A,112.5003,26.9167,衡阳市,原169医院,,38,35,34,19,22,133,120,118,118,14,15,8,10,0.6,0.5
2023-09-02T03:00:00,2457A,112.6194,26.9258,衡阳市,衡阳化工总厂,,40,31,43,18,23,159,127,122,122,8,11,9,12,0.7,0.7
2023-09-02T03:00:00,2458A,112.6211,26.8956,衡阳市,珠晖区环保局,,37,37,38,18,20,160,114,118,113,17,15,8,8,0.7,0.7
2023-09-02T03:00:00,2459A,112.6197,26.8733,衡阳市,市委党校,,39,38,38,18,20,179,124,135,131,11,10,13,11,0.8,0.7
