timepoint,stationcode,longitude,latitude,area,positionname,primarypollutant,aqi,pm10,pm10_24h,pm2_5,pm2_5_24h,o3,o3_24h,o3_8h,o3_8h_24h,no2,no2_24h,so2,so2_24h,co,co_24h
2023-09-02T18:00:00,1001A,116.3621,39.8784,北京市,万寿西宫,臭氧1小时,58,48,61,28,32,182,166,143,143,17,38,2,2,0.9,0.8
2023-09-02T18:00:00,1002A,116.2202,40.2915,北京市,定陵,颗粒物(PM10),55,60,41,36,23,119,96,97,97,14,10,3,3,0.7,0.5
2023-09-02T18:00:00,1003A,116.4174,39.9289,北京市,东四,臭氧1小时,78,49,60,26,29,194,182,148,148,13,31,3,3,0.6,0.6
2023-09-02T18:00:00,1004A,116.4072,39.8863,北京市,天坛,,50,42,56,26,33,174,159,136,136,16,32,1,2,0.7,0.7
2023-09-02T18:00:00,1005A,116.462,39.9365,北京市,农展馆,臭氧1小时,73,51,62,23,31,184,178,141,141,16,37,1,2,0.7,0.6
2023-09-02T18:00:00,1006A,116.3392,39.9295,北京市,官园,臭氧1小时,78,50,53,29,28,201,182,148,148,15,31,5,5,0.7,0.6
2023-09-02T18:00:00,1007A,116.2878,39.9611,北京市,海淀万柳,颗粒物(PM10),62,74,50,41,25,147,122,107,107,22,37,3,3,0.8,0.5
2023-09-02T18:00:00,1008A,116.6636,40.135,北京市,顺义新城,,47,35,55,20,26,175,148,133,133,26,28,1,2,0.6,0.5
2023-09-02T18:00:00,1009A,116.6275,40.3275,北京市,怀柔镇,颗粒物(PM10),58,65,39,34,21,150,110,120,120,17,14,1,2,0.6,0.4
2023-09-02T18:00:00,1010A,116.2296,40.217,北京市,昌平镇,细颗粒物(PM2.5),57,47,36,40,25,136,116,113,113,23,21,3,3,0.6,0.4
2023-09-02T18:00:00,1011A,116.3966,39.9821,北京市,奥体中心,臭氧1小时,73,48,47,28,25,187,178,131,131,16,33,4,2,0.6,0.6
2023-09-02T18:00:00,1012A,116.184,39.9136,北京市,古城,颗粒物(PM10),68,86,56,46,27,149,136,108,108,29,35,3,3,0.8,0.6
2023-09-02T18:00:00,1015A,117.1444,39.1661,天津市,勤俭道,臭氧1小时,54,17,55,8,26,213,163,184,184,11,36,9,9,0.5,0.7
2023-09-02T18:00:00,1017A,117.237,39.1082,天津市,大直沽八号路,,41,28,59,9,26,169,131,152,152,27,43,6,6,0.7,0.8
2023-09-02T18:00:00,1018A,117.202,39.0927,天津市,前进道,,48,18,46,8,23,172,152,154,154,15,37,8,8,0.5,0.7
2023-09-02T18:00:00,1019A,117.1837,39.2133,天津市,淮河道,,48,18,57,8,26,189,153,170,170,14,42,7,7,0.5,0.8
2023-09-02T18:00:00,1021A,117.307,39.0877,天津市,跃进路,,41,15,51,6,24,183,129,162,162,28,49,8,8,0.7,0.8
2023-09-02T18:00:00,1023A,117.707,39.0343,天津市,第四大街,,37,14,42,7,24,148,116,115,115,25,45,6,8,0.5,0.8
2023-09-02T18:00:00,1024A,117.457,38.8394,天津市,永明路,,47,23,44,12,26,194,150,171,171,17,32,8,12,0.6,0.9
2023-09-02T18:00:00,1026A,117.764,39.1587,天津市,汉北路,,41,9,47,4,26,187,129,142,142,12,43,5,10,0.5,0.9
2023-09-02T18:00:00,1027A,117.157,38.9194,天津市,团泊洼,,46,10,43,5,25,174,145,144,144,17,37,5,6,0.6,0.8
2023-09-02T18:00:00,1029A,114.4422,38.0444,石家庄市,职工医院,臭氧1小时,95,81,81,60,52,196,196,168,168,11,25,3,2,0.8,0.7
2023-09-02T18:00:00,1030A,114.6063,38.0266,石家庄市,高新区,臭氧1小时,89,69,77,50,62,197,191,168,168,11,23,1,2,0.5,0.7
2023-09-02T18:00:00,1031A,114.4898,38.1328,石家庄市,西北水源,臭氧1小时,88,88,93,56,56,190,190,164,164,13,27,3,3,0.9,0.7
2023-09-02T18:00:00,1032A,114.4586,38.0058,石家庄市,西南高教,臭氧1小时,89,78,70,47,50,191,191,165,165,11,23,2,2,0.8,0.7
2023-09-02T18:00:00,1033A,114.5331,38.0178,石家庄市,世纪公园,臭氧1小时,65,65,85,46,49,178,172,152,152,16,24,2,4,0.9,0.9
2023-09-02T18:00:00,1034A,114.509,38.0457,石家庄市,人民会堂,,,,,,,,,,,,,,,,
2023-09-02T18:00:00,1035A,114.3524,37.8911,石家庄市,封龙山,"细颗粒物(PM2.5),臭氧1小时",88,98,67,65,40,190,190,153,153,12,9,6,3,1.0,1
2023-09-02T18:00:00,1037A,118.131,39.6363,唐山市,雷达站,,38,37,62,15,36,194,120,146,144,21,41,9,4,0.7,0.7
2023-09-02T18:00:00,1038A,118.1725,39.6334,唐山市,物资局,,35,27,67,23,41,196,109,160,160,19,44,20,8,0.9,0.9
2023-09-02T18:00:00,1040A,118.1705,39.6506,唐山市,十二中,,36,22,57,23,37,191,113,158,158,22,41,14,5,0.9,0.8
2023-09-02T18:00:00,1041A,118.1869,39.622,唐山市,小山,,32,29,70,13,34,201,102,172,159,20,50,20,6,0.7,0.8
2023-09-02T18:00:00,1042A,119.5134,39.8207,秦皇岛市,北戴河环保局,臭氧1小时,72,24,44,13,16,232,177,194,194,14,30,11,13,0,0.7
2023-09-02T18:00:00,1043A,119.7493,40.0116,秦皇岛市,第一关,臭氧1小时,54,36,38,19,26,227,163,172,172,13,48,11,9,0.6,0.6
2023-09-02T18:00:00,1044A,119.5897,39.9499,秦皇岛市,监测站,,48,30,42,16,16,215,152,168,168,17,47,8,10,0.6,0.6
2023-09-02T18:00:00,1046A,119.5251,39.9041,秦皇岛市,建设大厦,,49,34,55,11,8,235,155,179,179,9,40,5,10,0.7,0.7
2023-09-02T18:00:00,1048A,114.5302,36.6116,邯郸市,东污水处理厂,,49,40,59,29,52,162,154,153,153,6,24,5,5,0.4,0.6
2023-09-02T18:00:00,1049A,114.4918,36.5713,邯郸市,矿院,,47,36,60,29,54,169,149,154,154,7,27,1,2,0.4,0.7
2023-09-02T18:00:00,1050A,114.484,36.6133,邯郸市,丛台公园,,47,47,69,26,46,173,150,156,156,4,16,4,4,0.2,0.5
2023-09-02T18:00:00,1051A,115.493,38.8632,保定市,游泳馆,,,92,64,50,37,172,162,151,151,18,45,7,8,,0.6
2023-09-02T18:00:00,1052A,115.5213,38.8959,保定市,华电二区,颗粒物(PM10),62,74,58,36,24,165,159,143,143,8,29,8,8,0.6,0.6
2023-09-02T18:00:00,1053A,115.4713,38.9108,保定市,接待中心,细颗粒物(PM2.5),70,82,60,51,26,158,129,138,138,16,25,6,7,0.5,0.4
2023-09-02T18:00:00,1054A,115.4612,38.8416,保定市,地表水厂,颗粒物(PM10),61,71,70,40,27,166,164,144,144,14,48,8,9,0.6,0.6
2023-09-02T18:00:00,1056A,115.5086,38.8639,保定市,监测站,颗粒物(PM10),61,71,58,38,30,176,166,148,148,14,37,6,8,0.5,0.6
2023-09-02T18:00:00,1057A,114.8883,40.8336,张家口市,人民公园,,37,16,24,6,11,142,116,125,125,9,9,2,2,0.2,0.2
2023-09-02T18:00:00,1059A,114.8687,40.8042,张家口市,五金库,,34,18,30,12,14,142,107,122,122,13,11,1,2,0.5,0.4
2023-09-02T18:00:00,1060A,114.8902,40.762,张家口市,世纪豪园,,,12,29,,15,144,99,123,123,16,11,2,4,0.3,0.3
2023-09-02T18:00:00,1061A,114.8916,40.8661,张家口市,北泵房,,38,16,23,6,12,152,120,131,131,5,6,6,6,0.3,0.3
2023-09-02T18:00:00,1062A,117.9531,40.9081,承德市,铁路,,36,31,24,16,8,124,113,109,109,16,26,9,8,0.5,0.4
2023-09-02T18:00:00,1063A,117.9392,40.9763,承德市,中国银行,,42,25,24,29,9,143,127,124,124,8,20,10,8,0.6,0.4
2023-09-02T18:00:00,1064A,117.9503,40.928,承德市,开发区,,33,30,27,18,12,134,104,115,115,34,30,7,6,0.5,0.4
2023-09-02T18:00:00,1065A,117.8051,40.9655,承德市,文化中心,,40,37,29,14,9,152,127,120,120,9,30,7,5,0.5,0.4
2023-09-02T18:00:00,1066A,117.9268,41.0026,承德市,离宫,,41,31,22,23,12,142,129,125,125,5,13,3,2,0.6,0.3
2023-09-02T18:00:00,1067A,116.6708,39.5111,廊坊市,药材公司,臭氧1小时,70,61,61,38,35,190,176,167,167,14,28,4,6,0.5,0.6
2023-09-02T18:00:00,1068A,116.7214,39.5589,廊坊市,开发区,"细颗粒物(PM2.5),臭氧1小时",62,56,48,44,35,178,169,159,159,16,28,4,3,0.5,0.5
2023-09-02T18:00:00,1070A,116.7244,39.5269,廊坊市,北华航天学院,臭氧1小时,82,73,64,38,31,187,185,172,172,14,30,6,5,0.7,0.7
2023-09-02T18:00:00,1071A,116.8842,38.2991,沧州市,沧县城建局,,43,29,47,7,24,153,136,135,135,18,35,6,13,0.4,0.7
2023-09-02T18:00:00,1072A,116.8584,38.3254,沧州市,电视转播站,,46,22,42,12,24,178,147,140,140,14,26,10,13,0.4,0.6
2023-09-02T18:00:00,1073A,116.8709,38.3228,沧州市,市环保局,,44,37,49,18,28,164,140,136,136,15,30,6,12,0.3,0.5
2023-09-02T18:00:00,1074A,115.6838,37.7541,衡水市,电机北厂,细颗粒物(PM2.5),63,73,67,45,38,173,162,166,166,4,20,3,6,0.6,0.6
2023-09-02T18:00:00,1075A,115.6303,37.7316,衡水市,市监测站,"颗粒物(PM10),细颗粒物(PM2.5)",55,59,56,39,32,177,154,164,164,10,18,3,5,0.6,0.6
2023-09-02T18:00:00,1077A,114.4704,37.0886,邢台市,达活泉,臭氧1小时,64,72,73,26,39,203,171,180,180,5,9,5,4,0.4,0.8
2023-09-02T18:00:00,1078A,114.5062,37.0349,邢台市,邢师高专,颗粒物(PM10),51,51,73,34,49,207,156,174,174,3,20,4,5,0.4,0.7
2023-09-02T18:00:00,1079A,114.5237,37.0851,邢台市,路桥公司,臭氧1小时,54,49,65,28,44,206,163,176,176,7,15,4,7,0.6,0.9
2023-09-02T18:00:00,1080A,114.4725,37.0719,邢台市,市环保局,颗粒物(PM10),58,66,74,29,43,198,159,174,174,5,7,5,6,0.6,0.9
2023-09-02T18:00:00,1081A,112.522,37.8873,太原市,尖草坪,臭氧1小时,93,44,68,27,48,194,194,178,178,12,27,9,7,0.7,0.9
2023-09-02T18:00:00,1083A,112.434,38.0108,太原市,上兰,,,,,,,,,,,,,,,,
2023-09-02T18:00:00,1084A,112.469,37.7124,太原市,晋源,臭氧1小时,85,50,71,25,48,191,188,171,171,12,24,7,5,0.8,0.9
2023-09-02T18:00:00,1085A,112.5583,37.7394,太原市,小店,臭氧1小时,72,41,86,21,43,179,177,166,166,12,23,5,6,0.7,0.9
2023-09-02T18:00:00,1086A,112.5369,37.8692,太原市,桃园,臭氧1小时,78,45,65,22,41,182,182,169,169,13,30,7,6,0.7,0.9
2023-09-02T18:00:00,1087A,112.57,37.8195,太原市,坞城,臭氧1小时,82,37,59,23,43,185,185,170,170,12,21,8,9,0.7,0.9
2023-09-02T18:00:00,1088A,112.549,37.9854,太原市,南寨,,,,,,,,,,,,,,,,
2023-09-02T18:00:00,1090A,111.6507,40.7517,呼和浩特市,呼市一监,,46,34,28,17,19,147,147,112,112,11,23,7,7,0.6,0.6
2023-09-02T18:00:00,1091A,111.6572,40.8033,呼和浩特市,小召,,46,46,29,22,19,134,128,107,107,25,28,8,6,0.8,0.7
2023-09-02T18:00:00,1094A,111.7516,40.8369,呼和浩特市,如意水处理厂,,47,38,40,18,18,150,150,121,121,13,26,9,8,0.5,0.5
2023-09-02T18:00:00,1095A,111.7276,40.8062,呼和浩特市,二十九中,,47,36,36,21,21,151,150,120,120,15,26,8,8,0.7,0.6
2023-09-02T18:00:00,1096A,111.5512,40.7866,呼和浩特市,工大金川校区,,44,39,32,22,17,146,138,109,109,19,31,5,5,0.6,0.6
2023-09-02T18:00:00,1097A,111.717,40.7612,呼和浩特市,化肥厂生活区,,43,43,40,19,20,136,136,109,109,28,28,7,7,0.5,0.5
2023-09-02T18:00:00,1098A,123.6836,41.9339,沈阳市,森林路,,,,,,,,,,,,,,,,
2023-09-02T18:00:00,1099A,123.505,41.7406,沈阳市,浑南东路,,44,44,43,18,19,154,115,130,130,28,35,10,18,0.8,1.2
2023-09-02T18:00:00,1100A,123.4231,41.6989,沈阳市,新秀街,,34,34,46,13,16,152,106,126,126,31,36,11,26,0.8,1.4
2023-09-02T18:00:00,1102A,123.5903,41.8411,沈阳市,东陵路,,32,29,48,17,20,161,102,130,130,22,35,7,14,0.6,1.1
2023-09-02T18:00:00,1103A,123.4264,41.8467,沈阳市,陵东街,,40,24,30,12,17,148,128,130,130,13,28,8,11,0.7,1.1
2023-09-02T18:00:00,1104A,123.4114,41.7653,沈阳市,文化路,,40,27,41,13,21,151,125,137,137,19,29,9,20,0.7,1.1
2023-09-02T18:00:00,1105A,123.4678,41.7867,沈阳市,小河沿,,37,21,37,12,19,152,116,131,131,15,29,8,12,0.7,1.2
2023-09-02T18:00:00,1106A,123.4017,41.7972,沈阳市,太原街,,43,34,38,10,22,150,135,137,137,15,26,11,18,0.7,1.1
2023-09-02T18:00:00,1108A,123.3783,41.9228,沈阳市,京沈街,,41,41,45,16,23,161,112,134,134,9,15,10,17,0.6,1
2023-09-02T18:00:00,1109A,121.612,38.9741,大连市,甘井子,,48,33,50,15,20,183,151,154,154,19,29,6,5,0.5,0.6
2023-09-02T18:00:00,1110A,121.565,38.9511,大连市,周水子,臭氧1小时,55,51,34,24,19,171,164,149,149,22,39,13,12,0.9,0.6
2023-09-02T18:00:00,1111A,121.5637,38.8845,大连市,星海三站,,50,29,28,21,19,182,159,152,152,15,24,10,8,0.7,0.7
2023-09-02T18:00:00,1112A,121.6302,38.9117,大连市,青泥洼桥,,50,33,33,20,18,160,158,147,147,13,32,9,7,1.1,0.9
2023-09-02T18:00:00,1113A,121.6251,38.8638,大连市,傅家庄,臭氧1小时,73,30,24,25,18,178,178,154,154,10,14,8,11,1.0,0.7
2023-09-02T18:00:00,1114A,121.5213,38.8661,大连市,七贤岭,臭氧1小时,62,46,28,17,17,206,169,185,185,20,16,11,8,1.1,0.9
2023-09-02T18:00:00,1115A,121.2529,38.8061,大连市,旅顺,,42,13,27,10,20,149,132,123,123,21,20,8,8,0.9,1.4
2023-09-02T18:00:00,1116A,121.7485,39.1311,大连市,金州,,38,29,27,18,16,177,120,157,154,36,15,16,9,0.6,0.6
2023-09-02T18:00:00,1117A,121.7811,39.0496,大连市,开发区,,50,33,30,25,21,175,159,162,162,32,20,11,8,0.9,0.9
2023-09-02T18:00:00,1118A,121.9762,39.0631,大连市,双D港,,44,38,26,21,18,179,139,169,169,12,14,9,9,0.9,0.8
2023-09-02T18:00:00,1119A,125.3325,43.9166,长春市,食品厂,,27,27,45,13,17,99,86,91,91,18,43,5,6,0.5,0.5
2023-09-02T18:00:00,1120A,125.2863,43.9027,长春市,客车厂,,29,24,36,20,15,103,86,94,94,18,40,6,6,0.5,0.6
2023-09-02T18:00:00,1121A,125.2841,43.8463,长春市,邮电学院,,30,27,38,13,11,110,95,101,101,11,28,5,5,0.4,0.4
2023-09-02T18:00:00,1122A,125.3716,43.8772,长春市,劳动公园,,36,36,41,9,12,105,92,98,98,15,32,7,7,0.5,0.5
2023-09-02T18:00:00,1123A,125.3297,43.8805,长春市,园林处,,30,20,37,9,11,106,95,98,98,13,33,6,7,0.4,0.5
2023-09-02T18:00:00,1124A,125.4605,43.79,长春市,净月潭,,26,14,16,8,6,105,82,98,98,6,10,6,6,0.3,0.3
2023-09-02T18:00:00,1125A,125.7194,43.515,长春市,甩湾子,,,,,,,,,,,,,,,,
2023-09-02T18:00:00,1126A,125.3863,43.8447,长春市,经开区环卫处,,26,23,41,8,13,96,81,86,86,16,31,5,5,0.4,0.5
2023-09-02T18:00:00,1127A,125.245,43.7783,长春市,高新区管委会,,28,28,28,11,10,98,73,90,90,18,29,5,6,0.5,0.4
2023-09-02T18:00:00,1128A,125.1761,43.8325,长春市,岱山公园,,32,32,39,10,12,108,71,96,96,41,39,4,5,0.5,0.5
2023-09-02T18:00:00,1129A,126.5422,45.755,哈尔滨市,岭北,,34,21,20,9,12,110,106,101,101,9,13,10,9,0.3,0.3
2023-09-02T18:00:00,1130A,126.561,45.8167,哈尔滨市,松北商大,,28,28,22,7,7,85,73,80,80,13,17,6,6,0.5,0.5
2023-09-02T18:00:00,1131A,126.979,45.5419,哈尔滨市,阿城会宁,,40,40,27,12,11,132,112,113,113,11,15,5,15,0.6,0.6
2023-09-02T18:00:00,1132A,126.599,45.7222,哈尔滨市,南岗学府路,,35,35,37,8,12,102,92,93,93,10,23,8,7,0.5,0.5
2023-09-02T18:00:00,1133A,126.689,45.7733,哈尔滨市,太平宏伟公园,,36,36,32,8,12,94,84,86,86,15,28,5,5,0.4,0.5
2023-09-02T18:00:00,1134A,126.635,45.7667,哈尔滨市,道外承德广场,,27,24,28,11,12,94,85,87,87,22,33,8,8,0.7,0.6
2023-09-02T18:00:00,1135A,126.685,45.7319,哈尔滨市,香坊红旗大街,,42,42,40,15,20,100,83,88,88,28,36,9,11,0.6,0.7
2023-09-02T18:00:00,1136A,126.6411,45.7258,哈尔滨市,动力和平路,,,41,36,,,98,83,88,88,22,33,9,8,0.5,0.6
2023-09-02T18:00:00,1137A,126.593,45.7478,哈尔滨市,道里建国路,,38,38,32,10,11,95,83,85,85,20,29,4,5,0.3,0.7
2023-09-02T18:00:00,1138A,126.615,45.61,哈尔滨市,平房东轻厂,,50,50,26,11,9,106,87,96,96,17,20,6,6,0.4,0.3
2023-09-02T18:00:00,1139A,126.595,45.9855,哈尔滨市,呼兰师专,,27,23,22,9,9,86,84,83,83,11,16,6,6,0.5,0.5
2023-09-02T18:00:00,1140A,126.6206,45.6842,哈尔滨市,省农科院,,39,39,39,5,10,108,93,99,99,19,27,9,8,0.4,0.4
2023-09-02T18:00:00,1141A,121.4,31.238,上海市,普陀,,39,37,31,19,12,132,122,126,126,11,12,4,4,0.6,0.6
2023-09-02T18:00:00,1142A,121.478,31.2036,上海市,十五厂,,45,45,33,22,16,139,125,132,130,17,17,11,11,0.4,0.4
2023-09-02T18:00:00,1143A,121.467,31.3008,上海市,虹口,,40,35,30,22,15,128,126,124,124,14,20,6,6,0.6,0.5
2023-09-02T18:00:00,1144A,121.412,31.1654,上海市,徐汇上师大,,,33,29,20,17,142,121,132,132,16,14,6,6,,0.3
2023-09-02T18:00:00,1145A,121.536,31.2659,上海市,杨浦四漂,,44,42,32,20,15,143,138,137,137,8,11,8,7,0.8,0.7
2023-09-02T18:00:00,1147A,121.425,31.2261,上海市,静安监测站,,41,33,29,17,14,142,129,134,134,15,14,3,3,0.5,0.5
2023-09-02T18:00:00,1148A,121.703,31.1907,上海市,浦东川沙,,45,45,31,27,18,140,139,138,138,9,6,6,6,0.6,0.6
2023-09-02T18:00:00,1149A,121.533,31.2284,上海市,浦东新区监测站,,41,37,29,17,12,130,130,126,126,7,12,6,6,0.5,0.5
2023-09-02T18:00:00,1150A,121.577,31.2071,上海市,浦东张江,,39,38,31,17,18,122,122,119,119,13,16,5,5,0.6,0.6
2023-09-02T18:00:00,1151A,118.8086,32.1065,南京市,迈皋桥,,45,37,32,17,15,198,144,166,163,7,29,4,5,0.4,0.4
2023-09-02T18:00:00,1152A,118.7538,32.0551,南京市,草场门,,47,35,36,22,15,201,150,171,171,14,30,4,4,0.5,0.6
2023-09-02T18:00:00,1153A,118.7794,32.0745,南京市,山西路,,46,46,42,24,18,206,147,175,175,10,27,3,4,0.4,0.4
2023-09-02T18:00:00,1154A,118.7752,32.0023,南京市,中华门,,45,36,35,17,15,195,142,169,169,13,25,4,4,0.7,0.7
2023-09-02T18:00:00,1155A,118.8109,32.0309,南京市,瑞金路,,44,36,33,17,14,194,140,167,167,6,13,10,10,0.4,0.5
2023-09-02T18:00:00,1156A,118.7997,32.0754,南京市,玄武湖,,44,38,39,18,16,192,139,163,163,10,31,6,6,0.2,0.2
2023-09-02T18:00:00,1157A,118.6414,32.0931,南京市,浦口,,,49,38,,19,206,150,180,177,16,23,11,9,0.6,0.6
2023-09-02T18:00:00,1158A,118.7356,31.9996,南京市,奥体中心,,48,39,34,24,19,205,152,179,179,12,24,7,7,0.5,0.5
2023-09-02T18:00:00,1159A,118.9125,32.1028,南京市,仙林大学城,,45,31,36,17,18,201,144,174,174,11,30,8,9,0.6,0.6
2023-09-02T18:00:00,1160A,120.561,31.2472,苏州市,上方山,,39,33,31,26,18,130,122,126,126,8,13,7,7,0.5,0.6
2023-09-02T18:00:00,1162A,120.591,31.3019,苏州市,彩香,,43,25,32,17,18,161,136,145,145,4,11,7,7,0.7,0.7
2023-09-02T18:00:00,1163A,120.596,31.3264,苏州市,轧钢厂,,42,30,33,12,16,156,133,146,146,7,14,8,8,0.7,0.7
2023-09-02T18:00:00,1164A,120.613,31.2703,苏州市,吴中区,,42,29,34,11,15,151,132,145,145,11,14,8,8,0.7,0.7
2023-09-02T18:00:00,1165A,120.543,31.2994,苏州市,苏州新区,,,,,,,,,,,,,,,,
2023-09-02T18:00:00,1166A,120.669,31.3097,苏州市,苏州工业园区,,42,25,30,14,15,148,133,143,143,9,14,8,8,0.7,0.7
2023-09-02T18:00:00,1167A,120.641,31.3708,苏州市,相城区,,36,32,33,10,16,140,115,132,131,16,16,8,8,0.7,0.7
2023-09-02T18:00:00,1168A,120.9098,31.9663,南通市,狼山街道,,44,28,25,9,10,140,138,134,134,11,15,7,7,0.4,0.5
2023-09-02T18:00:00,1169A,120.86,32.0005,南通市,虹桥,,42,35,27,21,16,134,132,130,130,10,13,5,6,0.5,0.6
2023-09-02T18:00:00,1170A,120.87,32.02,南通市,城中,,40,28,24,13,13,125,125,118,118,4,7,6,6,0.5,0.6
2023-09-02T18:00:00,1171A,120.94,31.93,南通市,星湖花园,,41,30,26,11,12,132,129,129,129,10,13,5,6,0.6,0.6
2023-09-02T18:00:00,1172A,120.81,32.0417,南通市,紫琅学院,,40,29,25,16,10,133,128,130,130,11,14,6,6,0.6,0.6
2023-09-02T18:00:00,1173A,119.176,34.5885,连云港市,市环境监测站,,42,36,63,17,39,185,132,161,153,8,13,7,8,0.5,0.6
2023-09-02T18:00:00,1177A,117.179,34.2761,徐州市,黄河新村,臭氧1小时,95,90,88,62,51,217,196,205,205,15,32,9,11,0.7,0.6
2023-09-02T18:00:00,1178A,117.1918,34.2384,徐州市,淮塔,臭氧1小时,102,88,82,64,50,222,203,210,210,15,22,9,10,0.5,0.5
2023-09-02T18:00:00,1180A,117.256,34.2153,徐州市,新城区,臭氧1小时,93,92,82,58,47,218,194,203,203,16,23,6,8,0.7,0.8
2023-09-02T18:00:00,1181A,117.244,34.2911,徐州市,桃园路,臭氧1小时,82,107,91,53,50,213,185,201,201,12,25,9,11,0.9,0.9
2023-09-02T18:00:00,1182A,117.2933,34.2778,徐州市,农科院,臭氧1小时,95,70,74,49,51,216,196,207,207,12,44,7,10,0.6,0.7
2023-09-02T18:00:00,1186A,119.389,32.3761,扬州市,邗江监测站,,45,34,37,20,19,161,143,151,151,10,16,5,7,0.4,0.5
2023-09-02T18:00:00,1188A,120.269,31.4867,无锡市,雪浪,,45,24,36,14,15,166,144,155,155,11,19,5,6,0.6,0.8
2023-09-02T18:00:00,1189A,120.275,31.6219,无锡市,黄巷,,42,42,42,19,19,149,115,138,138,25,29,8,8,1.0,0.9
2023-09-02T18:00:00,1190A,120.294,31.56,无锡市,曹张,,40,35,38,14,20,151,128,140,140,15,22,9,9,0.7,0.8
2023-09-02T18:00:00,1191A,120.242,31.5031,无锡市,漆塘,,45,39,31,17,16,164,143,153,153,16,21,6,6,0.6,0.7
2023-09-02T18:00:00,1192A,120.3489,31.5863,无锡市,东亭,,40,34,39,17,22,150,128,140,140,16,31,6,7,0.6,0.7
2023-09-02T18:00:00,1193A,120.354,31.5475,无锡市,旺庄,,42,36,36,17,19,160,134,149,149,9,16,10,11,0.8,1
2023-09-02T18:00:00,1194A,120.245,31.5631,无锡市,荣巷,,44,34,31,12,16,159,140,152,152,10,15,13,12,0.8,0.8
2023-09-02T18:00:00,1195A,120.299,31.6817,无锡市,堰桥,,38,29,34,12,19,159,121,145,142,10,18,8,8,0.8,1
2023-09-02T18:00:00,1196A,119.9633,31.762,常州市,市监测站,,41,31,39,11,18,179,131,155,155,14,19,7,8,0.4,0.5
2023-09-02T18:00:00,1200A,119.9468,31.7069,常州市,武进监测站,,44,33,41,13,15,190,138,170,166,11,16,2,6,0.6,0.7
2023-09-02T18:00:00,1201A,119.9255,31.9087,常州市,安家,,39,23,42,16,19,141,122,134,134,11,18,6,8,0.5,0.6
2023-09-02T18:00:00,1203A,119.6707,32.1875,镇江市,新区办事处,,40,26,28,13,16,143,125,136,136,13,16,3,5,0.5,0.6
2023-09-02T18:00:00,1204A,119.4974,32.1968,镇江市,职教中心,,44,32,33,20,24,161,138,150,150,11,23,3,6,0.5,0.6
2023-09-02T18:00:00,1205A,119.4303,32.1328,镇江市,丹徒区监测站,,46,38,36,21,20,169,146,163,159,7,17,2,3,0.5,0.6
2023-09-02T18:00:00,1206A,119.905,32.4878,泰州市,公园路,,43,29,32,17,21,142,135,137,137,10,13,6,8,0.6,0.8
2023-09-02T18:00:00,1207A,119.9189,32.4625,泰州市,莲花,,42,24,31,17,18,136,132,132,132,10,11,4,9,0.5,0.6
2023-09-02T18:00:00,1209A,119.888,32.4639,泰州市,留学生创业园,,42,31,34,12,17,137,134,133,133,13,14,6,8,0.5,0.6
2023-09-02T18:00:00,1210A,119.036,33.5981,淮安市,钵池山,,,34,48,19,34,163,104,148,136,,26,8,8,0.8,0.9
2023-09-02T18:00:00,1211A,119.007,33.575,淮安市,北京南路,,36,31,47,21,32,166,113,154,142,13,18,8,8,0.6,0.7
2023-09-02T18:00:00,1212A,118.989,33.6067,淮安市,市监测站,,39,31,55,19,32,167,122,156,146,13,22,8,7,0.7,0.9
2023-09-02T18:00:00,1213A,119.135,33.5039,淮安市,楚州区监测站,,37,37,48,20,30,161,115,149,140,10,16,7,8,0.7,0.8
2023-09-02T18:00:00,1214A,119.0186,33.6297,淮安市,淮阴区监测站,,35,34,57,24,37,162,111,152,142,14,24,8,8,0.7,0.9
2023-09-02T18:00:00,1215A,120.118,33.4022,盐城市,盐城电厂,颗粒物(PM10),52,53,44,29,25,164,156,157,157,4,7,6,8,0.5,0.6
2023-09-02T18:00:00,1216A,120.156,33.3942,盐城市,市监测站,,47,44,38,24,27,163,150,156,156,6,11,6,7,0.5,0.6
2023-09-02T18:00:00,1218A,120.2144,33.38,盐城市,开发区管委会,,49,41,32,25,23,166,154,158,158,7,10,6,8,0.6,0.6
2023-09-02T18:00:00,1220A,118.293,33.9528,宿迁市,宿迁学院,臭氧1小时,67,42,67,28,57,182,173,178,178,13,21,8,10,0.5,0.7
2023-09-02T18:00:00,1221A,118.2442,33.9592,宿迁市,宿迁中学,臭氧1小时,67,48,66,28,53,183,173,178,178,13,17,6,6,0.7,0.7
2023-09-02T18:00:00,1223A,120.2072,30.2111,杭州市,滨江,臭氧1小时,83,38,37,20,18,196,186,171,171,12,17,7,7,0.6,0.6
2023-09-02T18:00:00,1224A,120.0633,30.2747,杭州市,西溪,臭氧1小时,83,42,36,22,20,190,186,169,169,11,17,5,5,0.7,0.7
2023-09-02T18:00:00,1226A,120.3461,30.3153,杭州市,下沙,臭氧1小时,68,35,36,22,20,188,174,167,167,14,28,3,4,0.7,0.7
2023-09-02T18:00:00,1227A,120.1269,30.2456,杭州市,卧龙桥,臭氧1小时,75,38,30,20,18,192,180,175,175,16,15,4,4,0.6,0.6
2023-09-02T18:00:00,1228A,120.1903,30.2692,杭州市,浙江农大,,49,34,31,20,18,164,155,148,148,14,21,8,8,0.6,0.6
2023-09-02T18:00:00,1230A,120.1197,30.3119,杭州市,和睦小学,臭氧1小时,75,46,39,24,20,184,180,167,167,20,29,8,8,0.6,0.6
2023-09-02T18:00:00,1231A,120.3019,30.4183,杭州市,临平镇,臭氧1小时,65,33,37,14,18,182,172,168,168,9,14,4,5,0.5,0.5
2023-09-02T18:00:00,1232A,120.2697,30.1819,杭州市,城厢镇,臭氧1小时,72,44,43,24,24,187,177,162,162,15,18,6,6,0.5,0.6
2023-09-02T18:00:00,1233A,120.0883,30.1808,杭州市,云栖,臭氧1小时,57,18,16,21,16,189,165,168,168,10,12,6,6,0.4,0.3
2023-09-02T18:00:00,1234A,121.8358,29.911,宁波市,区环保大楼,,43,28,22,19,14,140,137,128,128,16,19,3,4,0.5,0.5
2023-09-02T18:00:00,1235A,121.56,29.82,宁波市,万里学院,,38,35,26,24,13,131,121,121,121,17,15,5,5,0.7,0.6
2023-09-02T18:00:00,1236A,121.713,29.9572,宁波市,龙赛医院,,47,47,39,16,10,136,133,127,127,17,13,7,7,0.6,0.5
2023-09-02T18:00:00,1239A,121.633,29.7733,宁波市,钱湖水厂,颗粒物(PM10),52,54,32,21,16,149,127,128,128,15,12,5,6,0.6,0.6
2023-09-02T18:00:00,1240A,121.5856,29.8635,宁波市,太古小学,,40,28,22,12,10,134,125,121,121,16,16,5,6,0.8,0.8
2023-09-02T18:00:00,1241A,121.524,29.8674,宁波市,市环境监测中心,,41,32,25,15,11,140,130,127,127,8,9,8,8,0.5,0.5
2023-09-02T18:00:00,1242A,120.634,28.0089,温州市,瓯海,,34,34,31,23,15,84,53,72,60,20,22,5,6,0.6,0.5
2023-09-02T18:00:00,1243A,120.6748,27.9939,温州市,南浦,,26,26,24,14,13,94,62,90,68,14,13,5,5,0.6,0.5
2023-09-02T18:00:00,1244A,120.76,27.9747,温州市,龙湾,,48,48,29,19,11,95,20,95,42,49,26,6,6,0.7,0.5
2023-09-02T18:00:00,1245A,120.6709,28.0167,温州市,市站,,27,27,24,16,14,89,60,86,66,15,14,5,6,0.5,0.4
2023-09-02T18:00:00,1247A,120.6053,29.9928,绍兴市,城东开发委,,49,31,33,13,14,167,154,147,147,12,19,6,7,0.5,0.5
2023-09-02T18:00:00,1250A,120.0751,30.8669,湖州市,城西水厂,臭氧1小时,83,30,30,16,15,186,186,174,174,13,24,3,3,0.6,0.6
2023-09-02T18:00:00,1252A,120.7436,30.778,嘉兴市,清河小学,,,30,31,13,14,166,145,151,151,,15,6,6,0.5,0.9
2023-09-02T18:00:00,1253A,120.726,30.7478,嘉兴市,嘉兴学院,,50,30,29,14,17,176,157,161,161,14,16,4,4,0.6,0.6
2023-09-02T18:00:00,1255A,121.273,28.6459,台州市,黄岩环保大楼,,38,38,31,24,17,131,61,89,71,26,14,5,6,0.8,0.5
2023-09-02T18:00:00,1256A,121.419,28.6542,台州市,台州环保大楼,,28,21,23,17,13,130,87,90,90,10,9,5,6,0.5,0.4
2023-09-02T18:00:00,1257A,121.377,28.5773,台州市,路桥田洋王,,34,34,29,20,15,135,77,83,77,16,8,4,4,0.6,0.5
2023-09-02T18:00:00,1258A,122.122,30.0203,舟山市,定海檀枫,,39,34,27,20,13,132,123,132,114,7,6,6,6,0.6,0.5
2023-09-02T18:00:00,1259A,122.3094,29.9558,舟山市,普陀东港,,43,34,28,18,14,154,136,154,132,8,6,4,4,0.6,0.6
2023-09-02T18:00:00,1260A,122.19,29.9944,舟山市,临城新区,,41,37,28,17,12,147,131,147,124,5,5,7,7,0.5,0.4
2023-09-02T18:00:00,1262A,119.647,29.077,金华市,十五中,,46,46,32,25,18,164,122,131,131,25,26,4,4,0.5,0.4
2023-09-02T18:00:00,1263A,119.686,29.1029,金华市,监测站,颗粒物(PM10),52,54,43,32,22,150,117,118,118,24,28,5,4,0.6,0.5
2023-09-02T18:00:00,1264A,118.8692,28.9398,衢州市,环保大楼,颗粒物(PM10),51,51,44,32,26,138,119,123,123,13,17,4,4,0.6,0.6
2023-09-02T18:00:00,1265A,118.8709,28.9666,衢州市,实验学校,颗粒物(PM10),53,55,46,27,24,142,123,127,127,15,21,5,6,0.5,0.4
2023-09-02T18:00:00,1266A,118.8621,28.9808,衢州市,衢州学院,颗粒物(PM10),52,53,41,34,24,149,131,129,129,15,23,4,4,0.4,0.4
2023-09-02T18:00:00,1267A,119.914,28.4514,丽水市,监测站大楼,,45,45,42,28,20,94,66,81,81,28,24,5,5,0.6,0.5
2023-09-02T18:00:00,1268A,119.93,28.4586,丽水市,莲都小学,颗粒物(PM10),57,64,40,28,18,101,74,87,87,26,21,5,5,0.6,0.5
2023-09-02T18:00:00,1269A,119.879,28.4231,丽水市,余庄前,颗粒物(PM10),52,54,42,24,18,81,38,71,67,19,16,4,5,0.6,0.6
2023-09-02T18:00:00,1270A,117.1959,31.7848,合肥市,明珠广场,颗粒物(PM10),51,51,44,27,22,171,156,158,158,18,27,7,8,0.7,0.7
2023-09-02T18:00:00,1271A,117.3072,31.8764,合肥市,三里街,,47,41,42,24,26,161,149,147,147,16,22,6,7,0.5,0.5
2023-09-02T18:00:00,1272A,117.2588,31.8707,合肥市,琥珀山庄,,50,41,38,27,20,167,157,158,158,13,17,5,6,0.7,0.6
2023-09-02T18:00:00,1273A,117.1604,31.9052,合肥市,董铺水库,,50,41,40,22,19,158,158,150,150,8,15,5,6,0.5,0.4
2023-09-02T18:00:00,1274A,117.25,31.8571,合肥市,长江中路,颗粒物(PM10),51,51,47,32,27,166,156,153,153,12,16,8,9,0.7,0.6
2023-09-02T18:00:00,1275A,117.266,31.9436,合肥市,庐阳区,颗粒物(PM10),52,53,51,29,26,154,143,143,143,12,20,5,5,0.5,0.5
2023-09-02T18:00:00,1276A,117.336,31.8586,合肥市,瑶海区,颗粒物(PM10),51,51,44,24,21,157,149,145,145,7,13,5,6,0.6,0.6
2023-09-02T18:00:00,1277A,117.3027,31.7964,合肥市,包河区,,48,48,48,22,25,158,130,141,141,34,52,6,7,0.6,0.6
2023-09-02T18:00:00,1278A,117.2776,31.7385,合肥市,滨湖新区,,50,48,44,24,21,172,157,158,158,15,19,5,7,0.5,0.5
2023-09-02T18:00:00,1279A,117.1318,31.8403,合肥市,高新区,,48,48,42,30,27,161,153,150,150,17,25,9,10,0.7,0.7
2023-09-02T18:00:00,1280A,119.3903,26.0543,福州市,鼓山,,,,,,,,,,,,,,,,
2023-09-02T18:00:00,1282A,119.2681,26.0504,福州市,师大,,26,26,19,8,9,94,53,59,59,7,5,3,3,0.4,0.5
2023-09-02T18:00:00,1283A,119.2984,26.1028,福州市,五四北路,,20,20,18,9,8,93,52,62,62,10,9,3,3,0.5,0.5
2023-09-02T18:00:00,1284A,119.2648,26.0768,福州市,杨桥西路,,22,22,21,8,9,91,51,60,60,9,8,3,3,0.6,0.5
2023-09-02T18:00:00,1285A,119.317,26.0746,福州市,紫阳,,19,19,18,6,8,91,51,58,58,6,6,3,4,0.4,0.5
2023-09-02T18:00:00,1286A,118.1608,24.8169,厦门市,溪东,,,,,,,,,,,,,,,,
2023-09-02T18:00:00,1287A,118.1514,24.4767,厦门市,洪文,,31,31,19,12,8,74,62,65,65,5,3,3,2,0.3,0.3
2023-09-02T18:00:00,1288A,118.0661,24.4444,厦门市,鼓浪屿,,,20,17,12,11,80,72,69,69,4,6,,1,0.2,0.2
2023-09-02T18:00:00,1290A,115.8931,28.6843,南昌市,省外办,颗粒物(PM10),53,56,42,24,19,143,128,133,133,19,16,8,6,0.8,0.7
2023-09-02T18:00:00,1291A,115.8886,28.7003,南昌市,省林业公司,,46,46,35,27,21,141,125,133,133,12,12,9,8,0.8,0.7
2023-09-02T18:00:00,1292A,115.8126,28.7442,南昌市,林科所,,44,31,23,14,14,160,140,146,146,14,10,8,9,0.7,0.8
2023-09-02T18:00:00,1294A,115.8518,28.687,南昌市,建工学校,,46,37,36,14,13,165,147,154,154,18,14,12,12,0.8,0.7
2023-09-02T18:00:00,1295A,115.8921,28.6424,南昌市,象湖,,47,32,32,22,21,157,149,149,149,16,14,10,8,0.5,0.5
2023-09-02T18:00:00,1296A,115.7423,28.7996,南昌市,武术学校,,34,18,20,20,12,151,108,133,131,10,10,2,3,0.3,0.3
2023-09-02T18:00:00,1298A,115.9314,28.6842,南昌市,省站,,46,45,38,24,19,156,145,145,145,12,12,10,10,0.8,0.7
2023-09-02T18:00:00,1299A,116.9862,36.6114,济南市,科干所,臭氧1小时,87,100,91,63,62,221,189,200,200,17,23,11,9,0.8,0.8
2023-09-02T18:00:00,1300A,116.9376,36.665,济南市,农科所,细颗粒物(PM2.5),68,76,86,49,49,208,159,182,182,17,45,9,8,0.6,0.7
2023-09-02T18:00:00,1301A,117.1265,36.6734,济南市,开发区,臭氧1小时,94,88,89,56,51,234,195,206,206,23,47,9,8,0.9,0.9
2023-09-02T18:00:00,1303A,117.0624,36.6868,济南市,省种子仓库,臭氧1小时,79,95,104,48,53,222,183,200,200,25,61,9,9,1.0,1.1
2023-09-02T18:00:00,1304A,116.9489,36.6447,济南市,机床二厂,细颗粒物(PM2.5),80,90,98,59,55,207,178,192,192,17,36,10,9,1.0,1
2023-09-02T18:00:00,1305A,117.0495,36.663,济南市,市监测站,臭氧1小时,100,83,85,54,53,214,200,206,206,20,43,9,7,0.7,0.8
2023-09-02T18:00:00,1306A,116.7675,36.5484,济南市,长清党校,细颗粒物(PM2.5),85,81,95,63,68,207,178,193,193,13,32,3,4,0.6,0.7
2023-09-02T18:00:00,1307A,120.6659,36.2403,青岛市,仰口,,22,2,35,5,28,128,68,115,96,7,5,6,6,0.2,0.5
2023-09-02T18:00:00,1310A,120.4134,36.0658,青岛市,市南区东部子站,,38,14,43,5,24,176,121,158,131,6,12,5,6,0.5,0.6
2023-09-02T18:00:00,1311A,120.3664,36.1032,青岛市,四方区子站,,35,12,44,5,35,179,111,171,116,17,20,5,6,0.5,0.7
2023-09-02T18:00:00,1312A,120.2994,36.054,青岛市,市南区西部子站,,34,9,45,5,26,177,108,155,128,26,21,7,6,0.4,0.6
2023-09-02T18:00:00,1313A,120.4581,36.0858,青岛市,崂山区子站,,39,17,38,7,27,199,123,148,130,9,13,8,8,0.3,0.4
2023-09-02T18:00:00,1314A,120.1983,35.9608,青岛市,黄岛区子站,,43,12,47,15,33,206,136,175,147,15,21,6,7,0.5,0.7
2023-09-02T18:00:00,1315A,120.3999,36.3083,青岛市,城阳区子站,,27,27,45,10,22,136,81,118,109,39,23,5,5,0.4,0.6
2023-09-02T18:00:00,1316A,113.69031,34.76122,郑州市,烟厂,臭氧1小时,78,59,62,24,30,192,182,173,173,20,29,2,2,0.6,0.7
2023-09-02T18:00:00,1317A,113.65724,34.77134,郑州市,郑纺机,臭氧1小时,80,57,58,23,26,198,184,178,178,13,19,2,2,0.6,0.7
2023-09-02T18:00:00,1318A,113.67526,34.80246,郑州市,银行学校,,,,,,,,,,,,,,,,
2023-09-02T18:00:00,1319A,113.56746,34.81334,郑州市,供水公司,臭氧1小时,73,52,62,20,30,197,178,161,161,18,41,3,2,0.5,0.5
2023-09-02T18:00:00,1320A,113.7329,34.7178,郑州市,经开区管委,臭氧1小时,68,58,64,25,34,191,174,168,168,12,24,4,4,0.7,0.8
2023-09-02T18:00:00,1321A,113.73961,34.77172,郑州市,四十七中,臭氧1小时,67,54,57,27,35,178,173,159,159,12,27,8,8,0.6,0.6
2023-09-02T18:00:00,1322A,113.60532,34.74838,郑州市,市监测站,臭氧1小时,70,57,71,26,32,191,176,174,174,16,36,5,5,0.5,0.6
2023-09-02T18:00:00,1323A,113.64164,34.7525,郑州市,河医大,臭氧1小时,69,56,57,22,30,188,175,169,169,13,26,4,5,0.7,0.7
2023-09-02T18:00:00,1324A,113.51488,34.91089,郑州市,岗李水库,,,,,,,,,,,,,,,,
2023-09-02T18:00:00,1325A,114.3677,30.5584,武汉市,东湖梨园,,40,16,27,15,17,211,127,164,164,14,24,8,15,0.5,1.3
2023-09-02T18:00:00,1326A,114.2529,30.558,武汉市,汉阳月湖,,39,30,24,9,12,167,123,144,144,19,22,6,7,0.5,0.6
2023-09-02T18:00:00,1327A,114.282,30.6189,武汉市,汉口花桥,,37,25,27,22,17,176,118,146,146,17,16,6,6,0.5,0.5
2023-09-02T18:00:00,1328A,114.3025,30.5332,武汉市,武昌紫阳,,40,23,28,18,14,196,128,158,158,22,28,7,13,0.4,1
2023-09-02T18:00:00,1329A,114.3646,30.6217,武汉市,青山钢花,,39,28,25,22,18,171,122,149,149,18,18,9,9,0.6,0.6
2023-09-02T18:00:00,1330A,114.1566,30.4825,武汉市,沌口新区,,40,32,26,21,20,189,126,166,166,31,26,8,11,0.5,0.8
2023-09-02T18:00:00,1331A,114.3014,30.5944,武汉市,汉口江滩,,39,27,25,22,13,184,123,153,153,17,13,7,7,0.4,0.4
2023-09-02T18:00:00,1333A,114.135,30.6319,武汉市,吴家山,,42,25,23,15,15,174,134,154,154,14,14,9,9,0.6,0.6
2023-09-02T18:00:00,1334A,113.8454,30.2917,武汉市,沉湖七壕,,50,46,29,20,15,203,160,172,172,16,18,4,4,0.6,0.6
2023-09-02T18:00:00,1335A,113.0833,28.2325,长沙市,经开区环保局,,45,34,31,23,19,155,142,132,132,10,12,7,8,0.5,0.4
2023-09-02T18:00:00,1336A,112.8872,28.2189,长沙市,高开区环保局,,49,48,39,28,24,157,155,138,138,4,7,8,8,0.7,0.6
2023-09-02T18:00:00,1337A,113.0792,28.2053,长沙市,马坡岭,颗粒物(PM10),55,59,38,31,20,166,149,141,141,17,13,7,7,0.9,0.7
2023-09-02T18:00:00,1338A,112.9394,28.19,长沙市,湖南师范大学,颗粒物(PM10),56,61,46,29,26,160,153,142,142,4,6,5,6,0.8,0.8
2023-09-02T18:00:00,1339A,113.0178,28.1322,长沙市,雨花区环保局,,49,49,32,18,18,159,148,140,140,15,15,7,7,0.6,0.5
2023-09-02T18:00:00,1340A,112.9792,28.2597,长沙市,伍家岭,"颗粒物(PM10),细颗粒物(PM2.5)",53,56,39,37,28,166,147,138,138,13,16,4,5,0.8,0.7
2023-09-02T18:00:00,1341A,113.0014,28.1944,长沙市,火车新站,,45,39,31,27,20,153,141,135,135,13,13,7,7,0.9,0.7
2023-09-02T18:00:00,1342A,112.9844,28.1178,长沙市,天心区环保局,,48,46,30,24,16,162,151,146,146,14,12,5,5,0.6,0.5
2023-09-02T18:00:00,1343A,112.8908,28.1308,长沙市,湖南中医药大学,颗粒物(PM10),55,60,47,21,18,163,151,139,138,11,11,4,4,0.9,0.8
2023-09-02T18:00:00,1344A,112.9581,28.3611,长沙市,沙坪,,50,41,40,25,24,167,157,143,143,10,10,8,8,0.9,0.8
2023-09-02T18:00:00,1345A,113.2347,23.1423,广州市,广雅中学,,,21,19,18,14,46,26,41,30,25,18,5,5,,0.9
2023-09-02T18:00:00,1346A,113.2612,23.105,广州市,市五中,,23,20,18,16,12,53,38,48,46,14,8,5,5,0.8,0.7
2023-09-02T18:00:00,1348A,113.3478,23.0916,广州市,广东商学院,,29,29,21,19,13,46,22,45,38,25,9,3,3,0.5,0.5
2023-09-02T18:00:00,1349A,113.4332,23.1047,广州市,市八十六中,,22,21,16,15,11,52,23,46,42,31,7,4,4,0.7,0.5
2023-09-02T18:00:00,1350A,113.3505,22.9483,广州市,番禺中学,,35,25,15,24,14,59,59,46,43,29,15,5,4,0.8,0.7
2023-09-02T18:00:00,1351A,113.2146,23.3916,广州市,花都师范,,29,23,23,20,16,61,47,53,52,12,7,6,6,0.9,0.8
2023-09-02T18:00:00,1352A,113.2597,23.1331,广州市,市监测站,,20,15,27,14,17,48,30,45,36,25,19,6,6,0.7,0.6
2023-09-02T18:00:00,1353A,113.5618,23.312,广州市,九龙镇镇龙,,20,20,18,14,11,54,34,42,41,13,6,6,6,0.5,0.4
2023-09-02T18:00:00,1354A,113.2765,23.1544,广州市,麓湖,,20,19,16,14,12,47,21,46,40,15,11,5,5,0.7,0.7
2023-09-02T18:00:00,1355A,113.443,23.3035,广州市,帽峰山森林公园,,13,11,12,9,9,55,39,51,40,6,7,7,7,0.3,0.3
2023-09-02T18:00:00,1356A,114.1063,22.5545,深圳市,通心岭子站,,20,18,10,7,3,79,61,73,72,11,6,5,5,0.5,0.4
2023-09-02T18:00:00,1357A,114.117,22.5625,深圳市,洪湖,,25,20,9,6,3,84,80,71,70,6,5,5,5,0.5,0.5
2023-09-02T18:00:00,1358A,113.987,22.5417,深圳市,华侨城,,20,11,8,7,2,74,64,69,63,10,6,6,6,0.7,0.6
2023-09-02T18:00:00,1359A,113.9181,22.5171,深圳市,南海子站,,22,13,8,6,2,73,70,68,68,7,6,4,4,0.7,0.7
2023-09-02T18:00:00,1360A,114.2458,22.5689,深圳市,盐田,,27,17,14,7,3,95,86,81,81,11,5,4,4,0.6,0.6
2023-09-02T18:00:00,1361A,114.2283,22.7244,深圳市,龙岗,,24,11,6,6,3,74,74,70,66,5,6,7,7,0.7,0.7
2023-09-02T18:00:00,1363A,114.494,22.5422,深圳市,南澳,,25,10,6,3,1,89,77,84,83,4,5,4,4,0.6,0.6
2023-09-02T18:00:00,1364A,114.41,22.6342,深圳市,葵涌,,25,18,6,8,2,79,79,74,73,11,5,5,4,0.5,0.5
2023-09-02T18:00:00,1365A,114.297,22.5978,深圳市,梅沙,,28,25,21,18,6,92,89,78,78,5,4,5,5,0.6,0.6
2023-09-02T18:00:00,1366A,114.0678,22.738,深圳市,观澜,,19,11,5,6,2,74,59,70,64,14,6,8,8,0.6,0.6
2023-09-02T18:00:00,1367A,113.5814,22.2618,珠海市,吉大,,26,20,21,13,12,91,82,85,85,12,7,3,2,0.5,0.5
2023-09-02T18:00:00,1368A,113.4881,22.2335,珠海市,前山,,25,11,11,10,8,96,77,84,84,6,4,7,7,0.4,0.4
2023-09-02T18:00:00,1369A,113.628,22.4251,珠海市,唐家,,25,16,16,10,10,83,77,78,78,4,4,4,4,0.4,0.4
2023-09-02T18:00:00,1370A,113.299,22.2281,珠海市,斗门,,24,12,14,6,6,96,74,84,84,5,4,6,5,0.6,0.6
2023-09-02T18:00:00,1371A,113.1294,23.0067,佛山市,湾梁,,18,9,7,12,10,54,29,47,40,24,10,6,7,0.7,0.6
2023-09-02T18:00:00,1372A,113.1083,23.0478,佛山市,华材职中,,15,9,11,10,12,48,25,39,29,18,13,8,8,0.4,0.4
2023-09-02T18:00:00,1373A,113.144,23.0453,佛山市,南海气象局,,22,22,17,10,9,49,16,40,27,20,12,6,6,0.7,0.6
2023-09-02T18:00:00,1374A,113.2881,22.8094,佛山市,顺德苏岗,,17,13,12,9,6,55,52,43,43,14,8,6,6,0.6,0.6
2023-09-02T18:00:00,1376A,112.8383,22.8678,佛山市,高明孔堂,,20,13,18,11,11,65,61,47,42,20,16,4,5,0.6,0.6
2023-09-02T18:00:00,1377A,112.8836,23.1588,佛山市,三水监测站,,20,17,12,14,15,58,54,49,49,14,10,3,3,0.8,0.7
2023-09-02T18:00:00,1378A,112.867,23.185,佛山市,三水云东海,,29,19,20,20,17,59,56,51,51,14,10,4,4,0.8,0.7
2023-09-02T18:00:00,1379A,113.3769,22.5211,中山市,华柏园,,46,17,8,32,18,69,66,68,68,7,7,4,4,0.4,0.4
2023-09-02T18:00:00,1380A,113.3881,22.5497,中山市,张溪,,23,14,10,13,12,73,71,69,69,5,4,3,3,0.5,0.5
2023-09-02T18:00:00,1381A,113.4075,22.5111,中山市,紫马岭,,24,7,9,6,5,74,74,72,72,3,4,4,4,0.3,0.4
2023-09-02T18:00:00,1382A,113.4411,22.4853,中山市,长江旅游区,,,,,,,,,,,,,,,,
2023-09-02T18:00:00,1383A,113.1064,22.6058,江门市,北街,,21,14,9,6,7,69,66,59,59,10,10,5,5,0.4,0.4
2023-09-02T18:00:00,1384A,113.0731,22.5835,江门市,西区,,22,0,12,4,6,72,70,64,64,9,10,5,5,0.5,0.5
2023-09-02T18:00:00,1385A,113.0219,22.5311,江门市,圭峰西,,22,9,10,4,6,70,69,66,66,10,9,3,3,0.5,0.5
2023-09-02T18:00:00,1386A,113.0828,22.5947,江门市,东湖,,23,15,13,14,8,76,73,67,67,9,9,6,7,0.4,0.4
2023-09-02T18:00:00,1389A,113.7547,23.0494,东莞市,莞城梨川,,20,19,14,12,8,69,63,55,55,16,8,9,9,0.7,0.6
2023-09-02T18:00:00,1390A,113.7944,23.0128,东莞市,东城石井,,19,18,14,13,8,64,55,49,49,14,7,7,7,0.8,0.7
2023-09-02T18:00:00,1391A,113.7383,22.9658,东莞市,南城西平,,17,17,13,10,8,49,47,42,40,14,10,5,5,0.9,0.9
2023-09-02T18:00:00,1392A,114.4183,23.0528,惠州市,河南岸金山湖子站,,30,12,8,21,13,77,64,60,60,5,5,4,4,0.4,0.4
2023-09-02T18:00:00,1393A,114.4053,23.0822,惠州市,下埔横江三路子站,,20,16,9,8,5,68,64,56,56,6,4,4,5,0.5,0.4
2023-09-02T18:00:00,1394A,114.4103,23.1142,惠州市,江北云山西路子站,,21,11,8,9,5,73,66,56,56,2,2,4,4,0.3,0.4
2023-09-02T18:00:00,1395A,114.4645,22.7833,惠州市,惠阳区承修路船湖子站,,24,19,7,10,4,74,74,66,64,8,5,4,4,0.7,0.6
2023-09-02T18:00:00,1396A,114.5317,22.7422,惠州市,大亚湾管委会子站,,23,19,10,10,7,81,72,66,66,13,11,5,5,0.5,0.5
2023-09-02T18:00:00,1397A,112.4267,23.0706,肇庆市,睦岗子站,,18,8,13,5,8,74,57,55,55,9,6,8,8,0.4,0.3
2023-09-02T18:00:00,1398A,112.4645,23.0475,肇庆市,城中子站,,19,10,14,4,7,71,58,60,60,13,6,9,9,0.6,0.5
2023-09-02T18:00:00,1399A,112.5544,23.1522,肇庆市,坑口子站,,18,13,12,12,10,68,51,54,54,16,9,4,4,0.4,0.4
2023-09-02T18:00:00,1400A,112.4753,23.1,肇庆市,七星岩子站,,,,,,,,,,,,,,,,
2023-09-02T18:00:00,1401A,108.3103,22.7881,南宁市,二十一中,,35,30,32,14,19,121,110,113,113,15,18,5,9,0.6,0.7
2023-09-02T18:00:00,1402A,108.3141,22.8528,南宁市,北湖,,34,32,39,18,22,117,107,111,111,11,16,5,13,0.6,0.6
2023-09-02T18:00:00,1403A,108.3206,22.8225,南宁市,市监测站,,45,45,38,22,21,112,97,104,104,28,30,8,15,0.7,0.7
2023-09-02T18:00:00,1404A,108.3829,22.8037,南宁市,大自然花园,,32,31,30,16,20,106,101,102,102,10,11,6,8,0.6,0.6
2023-09-02T18:00:00,1405A,108.4394,22.7904,南宁市,仙葫,,38,38,37,24,24,102,91,94,94,21,24,7,6,0.4,0.5
2023-09-02T18:00:00,1406A,108.2397,22.8467,南宁市,区农职院,,40,40,36,20,20,121,98,110,110,19,19,12,9,0.7,0.7
2023-09-02T18:00:00,1407A,108.3275,22.735,南宁市,英华嘉园,,32,29,38,16,25,110,101,103,103,12,24,6,8,0.6,0.6
2023-09-02T18:00:00,1408A,108.2257,22.7757,南宁市,沙井镇街道办,,45,45,48,20,25,118,97,108,106,20,30,8,7,0.5,0.6
2023-09-02T18:00:00,1409A,110.576,19.9507,海口市,东寨港,,,,,,,,,,,,,,,,
2023-09-02T18:00:00,1410A,110.3232,20.0574,海口市,海南大学,,27,25,34,15,20,143,84,95,95,8,11,7,7,0.5,0.5
2023-09-02T18:00:00,1411A,110.283,20.0053,海口市,秀英海南医院,,33,33,35,13,23,132,80,104,104,10,13,7,8,0.4,0.5
2023-09-02T18:00:00,1412A,110.338,19.9969,海口市,海南师范大学,,35,35,33,13,22,133,85,106,106,9,13,8,9,0.5,0.5
2023-09-02T18:00:00,1413A,110.33,20.0356,海口市,龙华路环保局宿舍,,25,24,31,14,21,137,80,96,96,10,11,8,8,0.3,0.4
2023-09-02T18:00:00,1414A,106.3787,29.8279,重庆市,缙云山,,43,27,37,19,20,158,137,139,139,6,8,11,9,0.2,0.3
2023-09-02T18:00:00,1416A,106.4213,29.8253,重庆市,天生,,38,25,60,26,43,127,112,115,115,12,21,6,7,0.5,0.7
2023-09-02T18:00:00,1417A,106.6263,29.7228,重庆市,两路,,45,28,46,25,38,178,143,155,155,11,18,8,10,0.8,0.9
2023-09-02T18:00:00,1418A,106.2953,29.5983,重庆市,虎溪,,48,48,46,22,38,161,139,145,145,16,17,6,8,0.7,0.7
2023-09-02T18:00:00,1419A,106.5777,29.5102,重庆市,南坪,臭氧1小时,70,56,69,29,46,195,176,168,168,17,31,6,11,0.6,0.9
2023-09-02T18:00:00,1420A,106.6556,29.6277,重庆市,唐家沱,臭氧1小时,74,42,53,22,29,219,179,185,185,18,39,7,7,0.5,0.6
2023-09-02T18:00:00,1421A,106.6349,29.4906,重庆市,茶园,臭氧1小时,112,51,65,23,34,253,223,208,208,22,40,5,7,0.9,1
2023-09-02T18:00:00,1422A,106.3754,29.4572,重庆市,白市驿,臭氧1小时,68,32,72,21,40,179,174,156,156,14,21,6,9,0.6,0.7
2023-09-02T18:00:00,1425A,106.6205,29.7166,重庆市,空港,,,34,55,28,34,187,145,162,162,12,19,6,9,,0.8
2023-09-02T18:00:00,1426A,106.4782,29.4875,重庆市,新山村,臭氧1小时,90,48,56,25,37,208,192,177,177,21,28,9,11,0.6,0.7
2023-09-02T18:00:00,1427A,106.5616,29.6453,重庆市,礼嘉,细颗粒物(PM2.5),55,30,48,39,35,153,142,139,139,16,18,9,12,0.7,0.8
2023-09-02T18:00:00,1428A,106.4522,29.7091,重庆市,蔡家,,45,39,57,31,33,147,131,136,136,16,20,7,8,0.7,0.8
2023-09-02T18:00:00,1429A,106.5093,29.3917,重庆市,鱼新街,臭氧1小时,85,43,58,27,42,192,188,161,161,23,29,5,9,0.8,1
2023-09-02T18:00:00,1431A,103.9728,30.7236,成都市,金泉两河,臭氧1小时,54,42,39,26,20,186,163,146,146,5,18,4,5,0.4,0.6
2023-09-02T18:00:00,1432A,104.176,30.6872,成都市,十里店,臭氧1小时,109,54,44,34,32,217,217,164,164,8,22,4,4,0.6,0.7
2023-09-02T18:00:00,1433A,104.079,30.5706,成都市,三瓦窑,臭氧1小时,104,30,39,20,25,207,207,160,160,,34,1,3,0.3,0.5
2023-09-02T18:00:00,1434A,104.1114,30.63,成都市,沙河铺,臭氧1小时,79,44,48,18,30,190,183,153,153,11,20,3,3,0.5,0.6
2023-09-02T18:00:00,1437A,104.0786,30.6531,成都市,君平街,臭氧1小时,111,54,43,28,30,221,221,176,176,11,25,4,8,0.6,0.6
2023-09-02T18:00:00,1438A,103.613,31.0283,成都市,灵岩寺,,47,28,21,19,15,150,150,121,121,4,8,7,21,0.7,0.7
2023-09-02T18:00:00,1439A,106.6899,26.5998,贵阳市,马鞍山,,41,29,35,19,21,132,129,128,128,6,14,5,5,0.4,0.5
2023-09-02T18:00:00,1440A,106.6971,26.5694,贵阳市,市环保站,,45,36,33,24,28,146,144,142,142,11,17,6,7,0.3,0.4
2023-09-02T18:00:00,1441A,106.6243,26.6266,贵阳市,鉴湖路,,44,39,36,24,18,140,140,134,134,8,12,5,6,0.5,0.5
2023-09-02T18:00:00,1442A,106.7487,26.6343,贵阳市,燕子冲,,39,24,32,14,21,123,122,120,120,5,12,6,6,0.7,0.6
2023-09-02T18:00:00,1443A,106.6555,26.4365,贵阳市,碧云窝,,44,44,43,24,22,139,132,134,134,8,13,5,5,0.5,0.5
2023-09-02T18:00:00,1444A,106.694,26.5161,贵阳市,中院村,,40,36,38,22,23,128,128,122,122,10,16,7,9,0.3,0.4
2023-09-02T18:00:00,1445A,106.7109,26.6027,贵阳市,红边门,,43,34,40,24,29,138,137,133,133,9,13,5,8,0.4,0.5
2023-09-02T18:00:00,1446A,106.7164,26.5699,贵阳市,新华路,,43,29,34,19,23,138,137,135,135,4,9,6,8,0.3,0.4
2023-09-02T18:00:00,1447A,106.674,26.5424,贵阳市,太慈桥,,43,29,28,22,18,135,135,130,130,10,19,4,5,0.5,0.5
2023-09-02T18:00:00,1450A,102.8204,24.8886,昆明市,呈贡新区,,29,28,40,17,20,129,92,108,97,12,19,6,8,0.5,0.7
2023-09-02T18:00:00,1451A,102.6251,24.9608,昆明市,西山森林公园,,39,20,25,10,17,156,124,127,127,6,10,7,9,0.6,0.7
2023-09-02T18:00:00,1452A,102.7252,25.0902,昆明市,龙泉镇,,28,27,27,19,19,115,88,101,100,12,13,8,10,0.4,0.5
2023-09-02T18:00:00,1453A,102.7266,25.0375,昆明市,东风东路,,30,21,33,14,20,130,96,103,103,15,17,7,9,0.4,0.4
2023-09-02T18:00:00,1454A,102.6742,25.0669,昆明市,金鼎山,,43,43,36,14,18,111,99,105,105,14,14,8,18,0.4,0.4
2023-09-02T18:00:00,1455A,102.6644,25.0401,昆明市,碧鸡广场,,32,22,31,12,19,116,102,108,108,8,9,8,10,0.4,0.4
2023-09-02T18:00:00,1456A,91.1319,29.6514,拉萨市,八廓街,,50,9,14,5,7,167,160,141,141,12,17,8,10,0.2,0.3
2023-09-02T18:00:00,1457A,91.1221,29.6747,拉萨市,市环保局,,47,12,16,6,8,155,149,130,130,15,19,7,8,0.2,0.2
2023-09-02T18:00:00,1458A,91.0874,29.6475,拉萨市,区监测站,,48,8,11,5,6,160,151,134,134,8,13,8,11,0.2,0.2
2023-09-02T18:00:00,1459A,91.1774,29.6541,拉萨市,西藏大学,,49,9,12,6,6,159,155,135,135,4,9,8,12,0.1,0.2
2023-09-02T18:00:00,1460A,90.9798,29.6588,拉萨市,区辐射站,,46,12,16,5,7,150,146,125,125,11,16,10,11,0.1,0.1
2023-09-02T18:00:00,1461A,91.0834,29.6292,拉萨市,拉萨火车站,,48,10,14,5,7,152,151,132,132,5,12,6,8,0.0,0.2
2023-09-02T18:00:00,1462A,108.882,34.2749,西安市,高压开关厂,,50,46,77,14,38,224,159,174,174,18,37,8,9,0.6,0.8
2023-09-02T18:00:00,1463A,108.993,34.2629,西安市,兴庆小区,,49,40,55,22,28,185,156,159,159,10,32,7,7,0.5,0.6
2023-09-02T18:00:00,1464A,109.06,34.2572,西安市,纺织城,,48,45,56,21,28,180,152,167,164,15,36,5,5,0.6,0.6
2023-09-02T18:00:00,1465A,108.9356,34.2173,西安市,小寨,臭氧1小时,54,49,60,20,26,209,163,173,173,8,31,7,7,0.6,0.7
2023-09-02T18:00:00,1466A,108.954,34.2713,西安市,市人民体育场,,50,50,67,23,34,196,154,158,158,14,36,7,8,0.5,0.6
2023-09-02T18:00:00,1467A,108.8922,34.2322,西安市,高新西区,臭氧1小时,65,46,59,24,33,232,172,184,184,15,35,6,7,0.5,0.7
2023-09-02T18:00:00,1468A,108.935,34.3474,西安市,经开区,,46,43,64,18,37,171,145,142,142,9,29,3,4,0.6,0.7
2023-09-02T18:00:00,1469A,108.906,34.1546,西安市,长安区,臭氧1小时,101,51,66,25,28,255,201,194,194,14,34,7,8,0.5,0.5
2023-09-02T18:00:00,1471A,109.2186,34.3731,西安市,临潼区,,46,45,59,20,30,154,145,137,137,10,26,6,7,0.3,0.5
2023-09-02T18:00:00,1472A,108.869,34.378,西安市,草滩,,48,40,72,18,21,202,151,164,164,20,41,9,13,0.6,0.8
2023-09-02T18:00:00,1473A,108.985,34.1978,西安市,曲江文化产业集团,颗粒物(PM10),53,55,64,20,28,198,159,168,168,14,39,6,6,0.6,0.7
2023-09-02T18:00:00,1474A,109.051,34.3213,西安市,广运潭,,45,40,64,24,33,158,142,138,138,10,34,8,9,0.5,0.7
2023-09-02T18:00:00,1476A,103.631,36.1031,兰州市,兰炼宾馆,颗粒物(PM10),60,69,93,32,39,148,143,134,134,11,48,5,17,0.4,0.6
2023-09-02T18:00:00,1477A,104.1373,35.9454,兰州市,榆中兰大校区,,,,,,,,,,,,,,,,
2023-09-02T18:00:00,1478A,103.8412,36.0726,兰州市,生物制品所,颗粒物(PM10),56,62,97,23,40,164,137,124,124,12,57,4,9,0.3,0.9
2023-09-02T18:00:00,1479A,103.831,36.0464,兰州市,铁路设计院,颗粒物(PM10),57,64,95,27,43,169,128,124,124,28,69,5,17,0.3,1.4
2023-09-02T18:00:00,1483A,101.524,36.6867,西宁市,第五水厂,,,,,,,,,,,,,,,,
2023-09-02T18:00:00,1484A,105.9512,38.6016,银川市,贺兰山马莲口,,40,19,36,11,14,183,127,115,115,5,12,3,4,0.1,0.2
2023-09-02T18:00:00,1488A,106.2328,38.4975,银川市,贺兰山东路,,48,47,56,20,20,187,153,150,150,18,31,9,12,0.5,0.6
2023-09-02T18:00:00,1489A,106.1358,38.5036,银川市,学院路,,48,48,56,13,20,171,148,135,135,11,29,7,10,0.4,0.5
2023-09-02T18:00:00,1490A,87.5801,43.8303,乌鲁木齐市,监测站,颗粒物(PM10),53,56,111,15,17,126,112,94,94,14,26,6,6,0.5,0.6
2023-09-02T18:00:00,1491A,87.6046,43.768,乌鲁木齐市,收费所,颗粒物(PM10),55,60,99,10,25,136,122,99,99,21,26,7,4,0.4,0.4
2023-09-02T18:00:00,1492A,87.4754,43.9469,乌鲁木齐市,新疆农科院农场,颗粒物(PM10),52,53,128,11,26,100,90,83,83,15,32,4,4,0.4,0.4
2023-09-02T18:00:00,1493A,87.5525,43.8711,乌鲁木齐市,铁路局,颗粒物(PM10),51,51,107,10,26,129,112,97,97,12,25,5,5,0.4,0.4
2023-09-02T18:00:00,1494A,87.6432,43.831,乌鲁木齐市,三十一中学,颗粒物(PM10),59,68,114,9,17,126,114,95,95,9,20,7,6,0.2,0.2
2023-09-02T18:00:00,1496A,87.7216,44.1747,乌鲁木齐市,米东区环保局,,35,33,103,12,18,118,110,107,107,5,7,8,8,0.3,0.3
2023-09-02T18:00:00,1508A,112.9433,27.8614,湘潭市,板塘,颗粒物(PM10),51,52,44,19,17,148,138,138,138,14,17,8,7,0.8,0.7
2023-09-02T18:00:00,1511A,112.9118,27.8403,湘潭市,市监测站,,46,46,41,29,23,142,135,126,126,13,16,5,5,0.7,0.6
2023-09-02T18:00:00,1512A,112.8937,27.8728,湘潭市,江麓,颗粒物(PM10),51,52,48,32,24,141,141,127,127,15,17,10,9,0.4,0.4
2023-09-02T18:00:00,1513A,112.9227,27.8159,湘潭市,岳塘,,49,49,45,28,22,146,139,130,130,16,18,6,6,0.4,0.3
2023-09-02T18:00:00,1514A,112.9074,27.9119,湘潭市,科大,颗粒物(PM10),51,51,51,33,25,138,136,124,124,12,14,6,6,0.5,0.4
2023-09-02T18:00:00,1515A,113.135,27.8244,株洲市,天台山庄,,49,49,40,29,20,161,139,142,142,16,17,8,6,0.6,0.6
2023-09-02T18:00:00,1518A,113.095,27.8867,株洲市,株冶医院,颗粒物(PM10),52,54,38,33,21,156,134,138,138,13,12,4,5,0.6,0.6
2023-09-02T18:00:00,1519A,113.167,27.8667,株洲市,市四中,颗粒物(PM10),56,62,41,39,23,148,126,134,134,22,14,8,8,0.5,0.5
2023-09-02T18:00:00,1520A,113.143,27.8381,株洲市,火车站,,,54,39,15,19,156,136,140,140,,15,7,7,0.6,0.4
2023-09-02T18:00:00,1524A,113.13,27.8528,株洲市,市监测站,颗粒物(PM10),51,51,37,32,25,161,136,141,141,15,16,7,8,0.7,0.7
2023-09-02T18:00:00,1552A,106.805,26.3003,贵阳市,桐木岭,,,,,,,,,,,,,,,,
2023-09-02T18:00:00,1559A,113.251,27.8336,株洲市,大京风景区,,48,48,34,28,21,136,120,121,121,7,8,7,7,0.6,0.6
2023-09-02T18:00:00,1562A,113.0048,27.9153,湘潭市,昭山,颗粒物(PM10),58,66,46,23,19,166,140,149,149,15,16,6,6,0.7,0.6
2023-09-02T18:00:00,1564A,112.4876,27.9164,湘潭市,韶山,,46,46,43,16,19,163,139,163,129,9,9,9,9,0.5,0.4
2023-09-02T18:00:00,1585A,109.8756,40.6532,包头市,市环境监测站,臭氧1小时,59,33,37,24,16,178,167,150,150,27,32,24,14,1.2,0.9
2023-09-02T18:00:00,1587A,109.9991,40.5842,包头市,包头八中,臭氧1小时,73,38,50,20,21,180,178,153,153,15,27,14,23,0.8,0.8
2023-09-02T18:00:00,1588A,109.8538,40.6821,包头市,青山宾馆,臭氧1小时,53,46,32,23,18,180,162,149,149,30,35,25,12,1.5,1
2023-09-02T18:00:00,1589A,109.8642,40.6288,包头市,惠龙物流,臭氧1小时,73,35,37,20,15,184,178,156,156,22,28,29,15,1.2,0.8
2023-09-02T18:00:00,1590A,110.0377,40.5546,包头市,东河鸿龙湾,臭氧1小时,83,37,36,21,15,186,186,152,152,13,22,13,18,0.7,0.6
2023-09-02T18:00:00,1591A,110.0023,39.8129,鄂尔多斯市,综合楼,颗粒物(PM10),70,90,59,24,15,157,132,133,133,34,25,30,11,0.6,0.6
2023-09-02T18:00:00,1592A,109.9486,39.8261,鄂尔多斯市,巴音孟克林场办事处,颗粒物(PM10),58,66,51,29,20,167,160,151,151,23,21,31,12,0.7,0.7
2023-09-02T18:00:00,1593A,109.7736,39.5986,鄂尔多斯市,康泽苑,,46,46,47,16,18,152,141,138,138,11,20,11,12,0.4,0.6
2023-09-02T18:00:00,1594A,109.8119,39.5989,鄂尔多斯市,华泰汽车城,,44,44,48,19,20,140,133,128,128,11,19,8,10,0.4,0.5
2023-09-02T18:00:00,1595A,109.9734,39.7884,鄂尔多斯市,奥林花园,颗粒物(PM10),62,73,55,27,19,153,144,136,136,25,22,27,10,0.9,0.8
2023-09-02T18:00:00,1597A,122.2703,40.7094,营口市,大庆路,臭氧1小时,60,34,32,21,21,197,168,162,162,16,20,7,8,1.1,0.9
2023-09-02T18:00:00,1598A,122.2150,40.6511,营口市,镜湖西路,臭氧1小时,62,28,28,15,16,188,169,166,166,12,19,8,9,0.9,0.7
2023-09-02T18:00:00,1599A,122.1658,40.6789,营口市,西炮台,臭氧1小时,75,32,27,13,12,193,180,174,174,10,20,7,8,1.0,0.8
2023-09-02T18:00:00,1600A,124.3303,40.0625,丹东市,江湾东路,,38,22,29,15,20,156,119,138,138,18,18,6,7,0.7,0.8
2023-09-02T18:00:00,1601A,124.4256,40.1503,丹东市,临江后街,,35,23,26,12,14,131,109,116,116,19,17,8,7,0.6,0.6
2023-09-02T18:00:00,1602A,124.3933,40.1461,丹东市,元宝山,,29,27,24,16,14,109,92,96,96,13,17,9,9,1.0,1
2023-09-02T18:00:00,1603A,124.3633,40.1092,丹东市,民主桥,,40,30,25,19,15,126,126,114,114,16,15,6,5,0.8,0.7
2023-09-02T18:00:00,1604A,122.0303,41.1489,盘锦市,开发区,,49,35,26,12,14,157,154,142,142,17,22,5,4,1.0,0.9
2023-09-02T18:00:00,1605A,122.0485,41.0883,盘锦市,兴隆台,,45,28,25,17,17,162,143,143,143,20,19,6,5,0.8,0.7
2023-09-02T18:00:00,1606A,121.8297,41.1028,盘锦市,新生街道,臭氧1小时,69,29,21,15,9,175,175,146,146,16,16,9,7,0.9,0.7
2023-09-02T18:00:00,1607A,120.9092,40.7136,葫芦岛市,龙港区,臭氧1小时,105,32,45,27,24,226,210,159,159,10,20,9,30,0.8,0.8
2023-09-02T18:00:00,1608A,120.8392,40.7514,葫芦岛市,化工街,,49,31,50,14,22,155,155,133,133,6,34,9,25,0.6,0.6
2023-09-02T18:00:00,1609A,120.8341,40.7073,葫芦岛市,新区,臭氧1小时,59,52,35,14,22,173,167,129,129,11,31,7,11,1.0,0.9
2023-09-02T18:00:00,1610A,120.8695,40.7677,葫芦岛市,东城区,臭氧1小时,57,25,43,21,18,180,165,146,146,16,37,10,24,0.8,0.6
2023-09-02T18:00:00,1611A,118.5819,24.9117,泉州市,涂山街,,23,23,19,7,10,90,58,80,76,6,7,4,4,0.6,0.6
2023-09-02T18:00:00,1612A,118.5972,24.8978,泉州市,津头埔,,,,18,10,11,92,56,79,76,10,11,,4,,0.6
2023-09-02T18:00:00,1613A,118.6663,24.9424,泉州市,万安,,21,21,21,11,11,98,62,83,83,7,9,2,2,0.6,0.6
2023-09-02T18:00:00,1614A,118.6117,24.9604,泉州市,清源山,,,,,,,,,,,,,,,,
2023-09-02T18:00:00,1616A,117.6795,36.229,济南市,技术学院,臭氧1小时,101,63,72,33,41,219,201,202,202,10,25,6,9,0.9,1
2023-09-02T18:00:00,1618A,118.3429,35.0532,临沂市,沂河小区,臭氧1小时,80,66,77,35,46,196,184,171,171,15,21,5,12,0.6,0.7
2023-09-02T18:00:00,1619A,118.295,35.0583,临沂市,鲁南制药厂,臭氧1小时,98,58,79,32,42,216,198,199,199,11,17,5,8,0.6,0.6
2023-09-02T18:00:00,1620A,118.2794,34.9976,临沂市,新光毛纺厂,,49,46,71,25,48,181,156,168,168,10,20,5,12,0.7,0.9
2023-09-02T18:00:00,1621A,118.3956,35.0888,临沂市,河东保险公司,臭氧1小时,58,48,69,24,43,187,166,172,172,11,23,3,6,0.7,0.8
2023-09-02T18:00:00,1622A,116.3032,37.4674,德州市,儿童乐园,臭氧1小时,93,75,62,51,32,217,194,197,197,9,24,9,14,0.8,0.8
2023-09-02T18:00:00,1624A,116.2991,37.4451,德州市,监理站,臭氧1小时,79,84,55,56,32,217,183,192,192,15,24,6,12,0.7,0.7
2023-09-02T18:00:00,1625A,115.9848,36.4372,聊城市,区政府,臭氧1小时,73,59,76,38,53,186,178,178,178,4,14,4,5,0.4,0.6
2023-09-02T18:00:00,1628A,118.0062,37.3803,滨州市,市环保局,臭氧1小时,65,51,45,24,24,192,172,171,171,14,23,8,25,0.3,0.5
2023-09-02T18:00:00,1629A,118.0018,37.3617,滨州市,第二水厂,臭氧1小时,68,51,44,28,24,200,174,179,179,12,26,5,15,0.6,0.8
2023-09-02T18:00:00,1630A,117.9776,37.393,滨州市,北中新校,臭氧1小时,85,48,47,23,24,212,188,183,183,17,24,10,21,0.5,0.7
2023-09-02T18:00:00,1631A,118.0414,36.8103,淄博市,人民公园,,40,39,54,17,22,191,128,152,143,21,35,7,11,0.5,0.8
2023-09-02T18:00:00,1633A,117.8525,36.4847,淄博市,双山,臭氧1小时,80,69,65,48,41,230,184,192,192,13,22,6,8,0.6,0.5
2023-09-02T18:00:00,1634A,117.9592,36.6331,淄博市,气象站,臭氧1小时,58,61,70,36,41,214,166,180,180,12,27,7,14,0.1,0.3
2023-09-02T18:00:00,1635A,118.3092,36.8194,淄博市,莆田园,,45,31,58,17,27,175,141,157,157,16,34,4,9,0.3,1.2
2023-09-02T18:00:00,1637A,117.558,34.8438,枣庄市,市中区政府,臭氧1小时,102,85,103,53,58,237,203,216,216,18,34,8,13,0.6,0.6
2023-09-02T18:00:00,1638A,117.2852,34.7837,枣庄市,薛城环保局,臭氧1小时,102,98,89,65,49,216,204,206,206,17,38,8,10,0.9,0.9
2023-09-02T18:00:00,1639A,117.5852,34.7745,枣庄市,峄城区政府,臭氧1小时,85,85,103,61,57,226,188,209,209,15,32,8,11,0.8,0.8
2023-09-02T18:00:00,1640A,117.7276,34.5578,枣庄市,台儿庄区环保局,颗粒物(PM10),62,73,92,41,64,197,156,182,180,22,38,9,10,0.7,0.9
2023-09-02T18:00:00,1641A,117.4518,35.0992,枣庄市,山亭区环保局,细颗粒物(PM2.5),80,75,74,59,48,203,134,181,178,20,18,6,9,0.7,0.6
2023-09-02T18:00:00,1642A,121.2514,37.5639,烟台市,开发区,,39,39,32,9,18,136,89,123,123,42,27,5,3,0.6,0.8
2023-09-02T18:00:00,1643A,121.3719,37.5433,烟台市,轴承厂,,43,22,29,14,20,144,136,129,129,11,15,5,5,0.4,0.5
2023-09-02T18:00:00,1644A,121.3181,37.5436,烟台市,西郊化工站,,43,22,27,9,23,138,135,122,122,15,17,7,6,0.6,0.6
2023-09-02T18:00:00,1645A,121.4478,37.4822,烟台市,莱山环保局,,44,5,18,7,14,151,139,135,135,2,16,5,6,0.5,0.6
2023-09-02T18:00:00,1646A,121.2611,37.4967,烟台市,福山环保局,,34,34,43,5,11,128,101,111,111,21,28,7,7,0.7,0.8
2023-09-02T18:00:00,1650A,119.1437,36.7023,潍坊市,环保局,,48,48,42,24,27,157,144,148,148,16,21,8,9,0.3,0.6
2023-09-02T18:00:00,1653A,116.6251,35.4302,济宁市,火炬城,臭氧1小时,73,73,81,39,34,201,178,189,189,15,22,6,8,0.7,0.7
2023-09-02T18:00:00,1655A,116.5491,35.4042,济宁市,电化厂,颗粒物(PM10),72,94,84,36,34,208,167,184,184,18,27,8,9,0.8,0.7
2023-09-02T18:00:00,1656A,117.1437,36.1937,泰安市,监测站,臭氧1小时,83,66,76,41,52,209,186,188,188,9,14,8,10,0.6,0.8
2023-09-02T18:00:00,1657A,117.0885,36.2017,泰安市,人口学校,臭氧1小时,74,58,64,30,36,204,179,186,186,14,12,6,6,0.6,0.7
2023-09-02T18:00:00,1658A,117.1089,36.1758,泰安市,电力学校,臭氧1小时,83,56,73,36,44,208,186,191,191,4,15,8,10,0.4,0.7
2023-09-02T18:00:00,1659A,119.471,35.4209,日照市,监测站,,44,17,39,11,27,160,138,149,147,12,30,6,6,0.6,0.8
2023-09-02T18:00:00,1660A,119.523,35.4216,日照市,市政府广场,,42,17,43,17,27,176,134,145,145,12,16,5,6,0.5,0.7
2023-09-02T18:00:00,1661A,119.5587,35.4044,日照市,港务局,,45,17,49,12,28,203,142,149,149,7,14,7,10,0.4,0.6
2023-09-02T18:00:00,1662A,122.1214,37.4236,威海市,华夏技校,,28,19,23,12,17,140,89,123,121,39,13,11,5,0.8,0.5
2023-09-02T18:00:00,1663A,122.0508,37.5236,威海市,山大分校,,,17,34,10,23,160,132,150,150,,12,12,10,0.9,0.7
2023-09-02T18:00:00,1664A,122.1067,37.5072,威海市,市监测站,,34,20,36,10,21,156,106,123,121,25,12,13,10,0.9,0.7
2023-09-02T18:00:00,1666A,118.6614,37.4309,东营市,市环保局,,47,34,32,14,20,180,150,163,162,10,13,9,14,0.2,0.4
2023-09-02T18:00:00,1669A,113.5824,24.7733,韶关市,市八中,,28,24,22,19,14,71,64,67,67,10,7,17,10,0.6,0.6
2023-09-02T18:00:00,1671A,113.5917,24.7972,韶关市,园林处,,28,28,21,16,14,75,67,70,70,7,3,17,10,0.7,0.7
2023-09-02T18:00:00,1672A,113.6735,24.7791,韶关市,韶关学院,,28,24,21,19,15,63,60,61,61,7,7,7,7,0.5,0.5
2023-09-02T18:00:00,1673A,113.5971,24.6863,韶关市,曲江监测站,,30,30,23,17,14,72,66,68,68,8,6,7,8,0.6,0.5
2023-09-02T18:00:00,1674A,116.6794,23.3667,汕头市,金平子站,,21,21,15,9,9,97,65,95,72,14,11,4,4,0.7,0.6
2023-09-02T18:00:00,1675A,116.7244,23.3633,汕头市,龙湖子站,,,,,,,76,75,76,76,12,11,5,5,0.6,0.4
2023-09-02T18:00:00,1676A,116.7258,23.2775,汕头市,濠江子站,,,,,,,,,,,,,,,,
2023-09-02T18:00:00,1677A,116.7519,23.4714,汕头市,澄海子站,,,62,39,,0,64,56,55,55,14,11,1,2,0.2,0.2
2023-09-02T18:00:00,1678A,116.6092,23.2539,汕头市,潮阳子站,,,,,,,89,73,78,77,6,5,8,7,0.6,0.4
2023-09-02T18:00:00,1680A,110.3539,21.2706,湛江市,湛江影剧院,,25,17,36,14,19,102,77,91,90,7,9,6,12,0.7,0.7
2023-09-02T18:00:00,1681A,110.3928,21.2228,湛江市,市环境监测站,,28,22,33,19,20,100,73,89,88,9,11,6,8,0.6,0.6
2023-09-02T18:00:00,1682A,110.4019,21.1997,湛江市,环保局宿舍,,24,23,34,16,21,103,74,90,89,8,9,5,6,0.9,0.8
2023-09-02T18:00:00,1683A,110.4111,21.2028,湛江市,霞山游泳场,,25,24,31,14,19,103,77,91,90,8,8,6,8,0.7,0.7
2023-09-02T18:00:00,1684A,110.3316,21.2679,湛江市,麻章区环保局,,31,31,41,19,22,102,76,90,90,10,13,6,8,0.9,0.7
2023-09-02T18:00:00,1685A,110.4558,21.2567,湛江市,坡头区环保局,,25,20,32,15,23,105,80,94,93,7,10,6,10,0.6,0.6
2023-09-02T18:00:00,1686A,111.0286,21.4688,茂名市,电白南海,,23,14,31,9,18,86,73,81,80,8,9,8,9,0.6,0.6
2023-09-02T18:00:00,1687A,110.9294,21.6533,茂名市,茂石化七小,,21,17,27,14,22,76,65,74,72,9,7,6,9,0.6,0.6
2023-09-02T18:00:00,1688A,110.9107,21.6687,茂名市,健康路,,22,7,23,9,14,82,69,78,76,8,6,5,7,0.7,0.6
2023-09-02T18:00:00,1689A,110.8592,21.6828,茂名市,高岭,,28,22,27,19,22,81,61,77,71,18,11,12,8,0.9,0.7
2023-09-02T18:00:00,1690A,116.1231,24.3284,梅州市,梅江月梅,,9,7,15,6,6,54,28,39,38,6,8,2,3,0.6,0.6
2023-09-02T18:00:00,1691A,116.0797,24.2719,梅州市,梅县新城,,12,10,15,8,8,58,33,47,47,12,9,5,6,0.7,0.7
2023-09-02T18:00:00,1692A,116.1248,24.2654,梅州市,环境监控中心,,16,16,15,7,6,56,32,45,45,11,9,7,8,0.5,0.5
2023-09-02T18:00:00,1693A,115.3653,22.775,汕尾市,市环保局,,,,,,,,,,,,,,,,
2023-09-02T18:00:00,1694A,115.3706,22.7898,汕尾市,市政府,,,,,,,,,,,,,,,,
2023-09-02T18:00:00,1695A,115.3622,22.7925,汕尾市,新城中学,,27,22,12,9,6,88,85,79,79,4,2,8,6,0.9,0.9
2023-09-02T18:00:00,1696A,114.6778,23.7569,河源市,源西,,19,19,21,3,12,58,41,52,52,4,10,4,4,0.7,0.7
2023-09-02T18:00:00,1697A,114.6944,23.7586,河源市,东埔,,12,9,20,3,9,57,38,51,51,5,7,5,5,0.6,0.6
2023-09-02T18:00:00,1698A,114.6892,23.7233,河源市,老城,,20,20,23,5,10,58,39,51,51,7,8,4,4,0.6,0.6
2023-09-02T18:00:00,1699A,111.9797,21.8593,阳江市,鸳鸯湖,,26,11,12,14,13,81,81,59,59,4,6,4,4,0.7,0.7
2023-09-02T18:00:00,1701A,111.9491,21.8658,阳江市,马南垌,,26,5,13,12,7,83,83,59,59,2,4,5,5,0.4,0.4
2023-09-02T18:00:00,1702A,113.0426,23.691,清远市,环保大楼,,20,16,18,14,15,69,63,65,65,3,3,6,6,0.6,0.6
2023-09-02T18:00:00,1703A,113.0208,23.7106,清远市,凤城街办,,,,21,,13,57,50,53,53,7,6,7,7,,0.5
2023-09-02T18:00:00,1705A,116.6367,23.6719,潮州市,西园路,,11,11,13,4,10,67,31,60,42,11,6,4,4,0.5,0.3
2023-09-02T18:00:00,1706A,116.6447,23.6706,潮州市,档案局,,13,9,20,8,5,66,40,61,46,15,6,5,5,0.9,0.4
2023-09-02T18:00:00,1708A,116.3701,23.5345,揭阳市,新兴,,12,11,15,7,9,75,38,62,58,16,7,14,8,0.7,0.6
2023-09-02T18:00:00,1709A,116.3264,23.5443,揭阳市,西马,,14,11,15,6,7,83,44,65,62,8,6,8,7,0.8,0.7
2023-09-02T18:00:00,1710A,116.3611,23.5626,揭阳市,东兴,,18,18,18,9,7,77,36,60,57,17,13,5,6,0.8,0.8
2023-09-02T18:00:00,1711A,116.4151,23.5294,揭阳市,渔湖,,25,25,15,14,7,73,39,64,60,19,10,7,5,0.7,0.6
2023-09-02T18:00:00,1712A,112.0392,22.9169,云浮市,新市府,,17,5,12,7,9,65,52,55,51,7,7,5,12,0.8,0.7
2023-09-02T18:00:00,1714A,112.0539,22.9539,云浮市,牧羊,,18,3,11,5,8,66,57,54,54,6,9,4,27,0.6,0.6
2023-09-02T18:00:00,1715A,102.575,24.3711,玉溪市,东风水库,,35,28,27,12,18,133,109,114,98,11,11,7,7,0.8,0.8
2023-09-02T18:00:00,1718A,115.4208,35.2464,菏泽市,气象局,臭氧1小时,92,72,75,41,41,205,193,193,193,11,27,4,5,0.5,0.6
2023-09-02T18:00:00,1719A,115.4747,35.2375,菏泽市,市政协,臭氧1小时,102,68,77,42,46,218,204,206,206,6,24,5,8,0.5,0.6
2023-09-02T18:00:00,1721A,113.3819,40.1097,大同市,果树场,,,,,,,,,,,,,,,,
2023-09-02T18:00:00,1723A,113.2994,40.0758,大同市,云冈宾馆,,40,20,44,13,24,153,126,132,130,18,26,7,9,0.5,0.7
2023-09-02T18:00:00,1724A,113.3444,40.0917,大同市,大同大学,,43,24,42,14,22,151,136,133,133,12,20,7,10,0.4,0.5
2023-09-02T18:00:00,1725A,113.2661,40.1269,大同市,安家小村,,39,19,46,11,20,154,122,123,123,15,15,9,12,0.4,0.6
2023-09-02T18:00:00,1726A,113.2711,40.0844,大同市,教育学院,,37,31,55,11,25,152,117,123,123,28,30,5,8,0.5,0.7
2023-09-02T18:00:00,1727A,113.1147,36.1547,长治市,清华站,,47,22,49,12,32,148,148,138,138,9,14,12,11,0.4,0.7
2023-09-02T18:00:00,1728A,113.1031,36.1989,长治市,监测站,,50,25,48,12,34,158,158,148,148,13,18,6,6,0.5,0.8
2023-09-02T18:00:00,1730A,113.0886,36.2125,长治市,审计局,,47,29,48,12,38,148,148,140,140,12,14,8,8,0.8,1.1
2023-09-02T18:00:00,1731A,113.0844,36.1856,长治市,长治八中,,46,32,54,12,31,146,146,136,136,13,17,11,10,0.4,0.9
2023-09-02T18:00:00,1733A,111.5531,36.0783,临汾市,临钢医院,,42,32,70,7,26,181,134,156,156,11,31,11,10,0.8,0.9
2023-09-02T18:00:00,1734A,111.5028,36.0714,临汾市,技工学校,颗粒物(PM10),51,51,71,21,39,170,136,144,144,10,24,10,11,0.9,0.9
2023-09-02T18:00:00,1736A,111.5018,36.0855,临汾市,市委,,41,39,72,16,33,162,131,139,139,11,24,10,11,0.7,0.7
2023-09-02T18:00:00,1738A,113.5758,37.8572,阳泉市,市中心,颗粒物(PM10),51,51,69,35,46,172,135,151,151,14,19,9,20,1.2,1.2
2023-09-02T18:00:00,1739A,113.4894,37.8731,阳泉市,赛鱼,颗粒物(PM10),60,70,69,41,47,168,132,144,144,23,19,10,10,1.1,0.9
2023-09-02T18:00:00,1740A,113.5819,37.8486,阳泉市,南庄,颗粒物(PM10),66,82,99,36,45,177,135,153,153,15,19,11,25,1.2,1.2
2023-09-02T18:00:00,1742A,113.5614,37.8703,阳泉市,平坦,颗粒物(PM10),62,73,85,42,54,175,136,152,152,18,18,10,18,1.1,1.1
2023-09-02T18:00:00,1743A,113.5158,37.8392,阳泉市,大阳泉,细颗粒物(PM2.5),65,62,64,47,50,166,140,146,146,15,14,10,13,1.0,0.9
2023-09-02T18:00:00,1744A,118.9233,42.2816,赤峰市,松山一中,,42,10,28,4,12,133,133,115,115,16,34,9,10,0.4,0.4
2023-09-02T18:00:00,1745A,118.9576,42.2728,赤峰市,哈达街,,41,23,21,17,12,130,130,111,111,13,27,15,14,0.3,0.3
2023-09-02T18:00:00,1746A,118.8788,42.2554,赤峰市,天义路,,45,16,22,2,9,144,144,128,128,12,26,8,19,0.2,0.3
2023-09-02T18:00:00,1748A,123.044,41.1196,鞍山市,深沟寺,,33,26,32,10,15,157,104,135,134,15,18,5,8,0.6,0.9
2023-09-02T18:00:00,1749A,123.011,41.0931,鞍山市,太阳城,,37,30,37,17,17,157,118,138,138,19,21,8,9,0.9,1.1
2023-09-02T18:00:00,1750A,123.0485,41.1442,鞍山市,太平,颗粒物(PM10),52,53,71,16,19,155,103,138,137,38,25,12,11,1.1,0.9
2023-09-02T18:00:00,1751A,122.9642,41.0971,鞍山市,铁西三道街,,37,34,51,14,22,153,118,138,138,24,31,7,12,0.9,1.3
2023-09-02T18:00:00,1752A,122.9341,41.0833,鞍山市,铁西工业园区,,38,37,48,15,21,157,119,142,142,17,26,9,13,0.9,1.3
2023-09-02T18:00:00,1753A,123.022,41.0821,鞍山市,明达新区,,36,35,34,17,15,152,115,134,134,22,20,6,9,0.8,1.1
2023-09-02T18:00:00,1754A,123.1289,41.0228,鞍山市,千山,,,,,,,,,,,,,,,,
2023-09-02T18:00:00,1755A,123.7977,41.8491,抚顺市,望花区,,45,44,50,24,30,164,142,140,140,22,26,16,19,0.8,0.9
2023-09-02T18:00:00,1756A,123.9161,41.8822,抚顺市,顺城区,,48,37,45,16,22,158,152,140,140,21,28,15,9,0.7,0.7
2023-09-02T18:00:00,1757A,124.0436,41.8611,抚顺市,东洲区,,36,29,32,18,16,144,113,128,128,22,13,11,9,0.8,0.6
2023-09-02T18:00:00,1758A,123.9247,41.8642,抚顺市,新抚区,,44,40,39,16,15,154,139,139,139,23,21,14,9,0.8,0.7
2023-09-02T18:00:00,1759A,124.0972,41.8961,抚顺市,大伙房水库,,38,24,24,10,13,142,121,127,126,6,9,6,6,0.5,0.5
2023-09-02T18:00:00,1760A,123.7086,41.8391,抚顺市,沈抚新城,,47,47,52,15,22,149,115,128,128,20,29,11,19,0.7,1.2
2023-09-02T18:00:00,1761A,123.8275,41.3064,本溪市,大峪,,26,25,39,8,14,111,81,95,95,10,22,6,6,0.7,1
2023-09-02T18:00:00,1762A,123.7567,41.3325,本溪市,溪湖,,30,30,52,10,24,117,80,96,96,11,24,9,12,0.5,1.5
2023-09-02T18:00:00,1763A,123.7169,41.3094,本溪市,彩屯,颗粒物(PM10),53,55,59,19,31,119,46,92,92,31,29,9,12,0.7,2.1
2023-09-02T18:00:00,1764A,123.7669,41.2864,本溪市,东明,,38,38,51,20,20,120,77,102,102,28,34,8,9,0.9,1.1
2023-09-02T18:00:00,1765A,123.7992,41.2664,本溪市,新立屯,颗粒物(PM10),53,55,28,9,12,112,31,88,87,42,28,8,8,0.8,0.7
2023-09-02T18:00:00,1766A,123.8142,41.3472,本溪市,威宁,,33,33,41,18,18,98,61,78,78,12,21,6,6,0.7,0.9
2023-09-02T18:00:00,1767A,121.1115,41.0879,锦州市,南山,,42,41,45,16,29,160,132,133,133,17,34,14,14,0.7,0.8
2023-09-02T18:00:00,1768A,121.0533,40.8434,锦州市,开发区,臭氧1小时,99,69,68,25,27,199,199,142,142,15,42,8,35,1.0,1.1
2023-09-02T18:00:00,1769A,121.1836,41.1119,锦州市,百股街道,,42,29,31,12,15,170,132,140,140,15,25,32,20,0.7,0.7
2023-09-02T18:00:00,1770A,121.1178,41.1222,锦州市,天安街道,,45,45,50,24,22,161,124,131,131,14,32,14,16,0.8,0.9
2023-09-02T18:00:00,1771A,121.1303,41.1386,锦州市,北湖公园,,40,26,40,14,25,167,126,133,133,15,30,15,18,0.6,0.7
2023-09-02T18:00:00,1772A,126.54,43.8622,吉林市,哈达湾,,34,21,23,12,12,118,106,110,110,12,18,7,7,0.5,0.6
2023-09-02T18:00:00,1773A,126.5844,43.8358,吉林市,东局子,,30,21,22,11,12,114,95,104,104,16,18,7,6,0.6,0.7
2023-09-02T18:00:00,1774A,126.5052,43.8245,吉林市,电力学院,,,,38,,22,55,,12,,,25,,8,,0.7
2023-09-02T18:00:00,1775A,126.6133,43.8972,吉林市,江北,,30,25,28,14,14,111,95,105,105,13,18,9,8,0.6,0.6
2023-09-02T18:00:00,1776A,126.555,43.8306,吉林市,江南公园,,31,24,24,16,15,118,98,108,108,16,19,7,6,0.7,0.7
2023-09-02T18:00:00,1778A,126.7061,43.7133,吉林市,丰满,,,,,,,,,,,,,,,,
2023-09-02T18:00:00,1779A,123.9305,47.3636,齐齐哈尔市,安居小区,,45,45,40,2,16,86,78,72,72,23,17,5,6,0.4,0.5
2023-09-02T18:00:00,1780A,123.9488,47.3386,齐齐哈尔市,中心广场,,25,17,23,12,16,86,77,75,75,21,14,4,4,0.4,0.4
2023-09-02T18:00:00,1781A,123.9483,47.3227,齐齐哈尔市,农牧车辆厂,,44,44,39,6,10,90,84,77,77,14,14,10,8,0.3,0.4
2023-09-02T18:00:00,1783A,123.945,47.2988,齐齐哈尔市,市环境监测站,,28,28,24,8,14,96,88,82,82,13,10,8,6,0.3,0.3
2023-09-02T18:00:00,1784A,129.61,44.561,牡丹江市,环保大楼,,24,24,15,9,9,79,48,74,72,30,12,5,5,0.5,0.4
2023-09-02T18:00:00,1785A,129.6115,44.5782,牡丹江市,文化广场,,35,35,20,19,14,74,52,69,69,27,13,6,6,0.5,0.4
2023-09-02T18:00:00,1786A,129.5904,44.5963,牡丹江市,第一医院,,26,26,22,11,15,71,49,66,66,26,12,5,5,0.4,0.4
2023-09-02T18:00:00,1787A,129.6364,44.6075,牡丹江市,机车工厂,,25,25,20,11,11,73,54,68,68,21,12,3,3,0.5,0.5
2023-09-02T18:00:00,1788A,129.6386,44.5462,牡丹江市,第一中学,,23,23,17,10,5,78,44,74,72,28,11,5,5,0.5,0.4
2023-09-02T18:00:00,1789A,124.81117,46.03138,大庆市,大同区,,,,24,,13,95,84,89,89,12,11,6,6,0.3,0.3
2023-09-02T18:00:00,1790A,125.129,46.533,大庆市,龙凤区,,41,41,35,11,9,92,81,83,83,16,18,3,3,0.4,0.4
2023-09-02T18:00:00,1791A,124.902,46.408,大庆市,红岗区,,29,22,20,10,13,100,91,88,88,9,10,4,4,0.4,0.6
2023-09-02T18:00:00,1792A,125.153,46.586,大庆市,萨尔图区,,29,29,29,12,13,87,81,81,81,19,19,7,6,0.1,0.3
2023-09-02T18:00:00,1793A,124.9042,46.6215,大庆市,让胡路区,,26,21,22,15,8,91,83,85,85,14,16,6,5,0.3,0.4
2023-09-02T18:00:00,1794A,118.3606,31.3519,芜湖市,监测站,,47,30,32,21,19,164,148,148,148,13,17,6,6,0.6,0.5
2023-09-02T18:00:00,1795A,118.3714,31.4134,芜湖市,科创中心,,49,48,37,21,21,163,155,146,146,29,35,7,7,0.6,0.7
2023-09-02T18:00:00,1796A,118.3673,31.3131,芜湖市,四水厂,,48,40,34,19,18,172,152,153,153,18,20,4,4,0.5,0.5
2023-09-02T18:00:00,1798A,118.5092,31.6837,马鞍山市,湖东路四小,臭氧1小时,57,42,30,21,18,175,165,159,159,32,18,9,9,0.5,0.4
2023-09-02T18:00:00,1799A,118.5024,31.6449,马鞍山市,开发区,,50,42,33,22,18,180,157,163,163,35,18,7,7,0.7,0.7
2023-09-02T18:00:00,1800A,118.5228,31.7231,马鞍山市,慈湖,,,52,34,22,20,196,182,170,170,19,19,11,13,,0.6
2023-09-02T18:00:00,1802A,118.6245,31.7241,马鞍山市,濮塘,,49,32,25,24,20,161,154,148,148,8,10,4,4,0.8,0.8
2023-09-02T18:00:00,1803A,115.9872,29.6815,九江市,十里,,46,30,32,20,17,149,145,134,134,9,13,9,11,0.8,0.7
2023-09-02T18:00:00,1804A,115.9584,29.7046,九江市,茅山头,,43,32,30,19,18,139,136,128,128,16,17,9,9,0.7,0.7
2023-09-02T18:00:00,1805A,115.9877,29.7295,九江市,西园,,45,22,28,24,19,146,141,137,137,16,16,9,11,0.7,0.6
2023-09-02T18:00:00,1806A,116.0172,29.6547,九江市,五七二七厂,,45,28,27,21,18,151,142,131,131,8,10,10,11,0.7,0.7
2023-09-02T18:00:00,1808A,115.9114,29.6038,九江市,综合工业园,,49,36,36,21,19,155,154,143,143,14,16,12,13,0.8,0.7
2023-09-02T18:00:00,1809A,116.0721,29.7535,九江市,石化总厂,,44,38,32,18,17,151,140,136,136,17,16,9,10,0.8,0.8
2023-09-02T18:00:00,1810A,115.9773,29.5698,九江市,庐山气象台,,24,10,17,15,14,95,76,66,65,34,56,6,9,0.7,0.8
2023-09-02T18:00:00,1812A,112.3931,34.6516,洛阳市,市委党校,,47,37,70,22,50,170,150,154,154,2,16,6,8,0.3,0.5
2023-09-02T18:00:00,1814A,112.4657,34.6871,洛阳市,豫西宾馆,,44,41,67,22,46,171,139,146,146,8,15,4,5,0.5,0.8
2023-09-02T18:00:00,1815A,112.494,34.6886,洛阳市,河南林校,,44,35,63,22,38,172,139,146,146,11,18,6,6,0.3,0.5
2023-09-02T18:00:00,1816A,112.3844,34.623,洛阳市,开发区管委会,,46,37,67,21,36,169,146,152,152,6,17,1,3,0.3,0.5
2023-09-02T18:00:00,1817A,112.4267,34.6258,洛阳市,市委新办公区,,,39,70,,57,162,142,144,144,2,9,4,5,0.3,0.6
2023-09-02T18:00:00,1818A,114.4839,36.0621,安阳市,棉研所,,,,,,,,,,,,,,,,
2023-09-02T18:00:00,1819A,114.3551,36.1017,安阳市,红庙街,臭氧1小时,73,58,81,32,49,178,178,169,169,4,20,4,4,0.7,0.9
2023-09-02T18:00:00,1820A,114.361,36.0681,安阳市,银杏小区,,,57,69,,,183,183,172,172,3,15,5,5,0.5,0.7
2023-09-02T18:00:00,1824A,114.3389,34.7781,开封市,肿瘤医院,颗粒物(PM10),61,71,65,38,37,184,165,173,173,4,14,4,7,0.6,0.7
2023-09-02T18:00:00,1826A,114.2885,34.7965,开封市,世纪星幼儿园,,,62,60,,36,185,168,177,176,8,20,5,10,0.7,1
2023-09-02T18:00:00,1828A,113.227,35.2125,焦作市,市环保局,臭氧1小时,92,57,59,26,38,193,193,167,167,10,12,3,7,0.5,0.6
2023-09-02T18:00:00,1830A,113.1992,35.2590,焦作市,影视城,,,,,,,,,,,,,,,,
2023-09-02T18:00:00,1832A,113.3257,33.742,平顶山市,新华旅馆,臭氧1小时,53,44,59,31,30,177,162,165,165,16,29,3,6,0.5,0.5
2023-09-02T18:00:00,1833A,113.2919,33.737,平顶山市,规划设计院,臭氧1小时,60,48,49,34,28,174,168,163,163,11,27,9,10,0.6,0.7
2023-09-02T18:00:00,1834A,113.182,33.774,平顶山市,平顶山工学院,臭氧1小时,72,55,62,24,26,179,177,164,164,11,22,5,8,0.4,0.5
2023-09-02T18:00:00,1835A,111.1922,34.7752,三门峡市,市政府,,43,31,54,16,35,147,136,137,137,10,10,4,6,0.5,0.7
2023-09-02T18:00:00,1836A,111.1587,34.7942,三门峡市,开发区,,46,27,74,24,38,148,146,142,142,12,15,5,6,0.5,0.7
2023-09-02T18:00:00,1838A,111.143,34.7955,三门峡市,风景区,,,,,,,,,,,,,,,,
2023-09-02T18:00:00,1840A,111.2992,30.6981,宜昌市,白龙岗,,45,34,38,9,18,165,141,149,149,15,18,3,2,0.5,0.5
2023-09-02T18:00:00,1841A,111.3549,30.6465,宜昌市,伍家岗,,46,21,29,12,20,160,145,148,148,8,20,5,4,0.4,0.5
2023-09-02T18:00:00,1842A,111.2628,30.6961,宜昌市,点军区,,47,39,37,12,20,177,148,157,157,24,16,8,7,0.7,0.5
2023-09-02T18:00:00,1843A,111.3275,30.7819,宜昌市,夷陵区,,46,46,34,9,18,163,146,150,150,18,19,6,5,0.3,0.4
2023-09-02T18:00:00,1844A,112.2494,30.3197,荆州市,市图书馆,,45,30,36,20,20,164,144,150,150,13,14,10,11,0.6,0.6
2023-09-02T18:00:00,1845A,112.2008,30.3544,荆州市,市委党校,,45,45,36,22,20,158,140,148,148,14,18,10,12,0.7,0.7
2023-09-02T18:00:00,1847A,113.1094,29.3578,岳阳市,南湖风景区,,44,38,39,23,26,176,140,142,142,13,17,8,10,0.7,0.6
2023-09-02T18:00:00,1848A,113.1493,29.4251,岳阳市,城陵矶,颗粒物(PM10),54,58,46,37,26,174,119,129,129,20,23,12,11,0.9,0.9
2023-09-02T18:00:00,1849A,113.1497,29.3575,岳阳市,开发区,,45,40,39,31,26,186,140,148,148,13,16,10,10,0.7,0.7
2023-09-02T18:00:00,1850A,113.2621,29.4758,岳阳市,云溪区,,44,44,40,27,28,178,140,143,143,14,14,8,10,0.6,0.6
2023-09-02T18:00:00,1851A,112.9943,29.4402,岳阳市,君山区,细颗粒物(PM2.5),57,51,40,40,29,162,110,129,129,23,13,9,9,0.7,0.6
2023-09-02T18:00:00,1852A,113.2117,29.355,岳阳市,金凤水库,,47,44,38,20,23,188,150,152,152,25,20,5,6,0.5,0.5
2023-09-02T18:00:00,1854A,111.6975,28.9703,常德市,市二中,,,39,37,27,22,157,156,149,149,9,7,,8,,0.7
2023-09-02T18:00:00,1857A,111.7158,29.1456,常德市,白鹤山,,,,,,,,,,,,,,,,
2023-09-02T18:00:00,1858A,110.5319,29.1217,张家界市,永定新区,,44,44,43,26,28,118,113,111,111,12,18,7,6,0.4,0.4
2023-09-02T18:00:00,1859A,110.4697,29.1242,张家界市,电业局,,42,35,41,22,25,138,132,130,128,9,14,4,4,0.4,0.4
2023-09-02T18:00:00,1860A,110.5594,29.3547,张家界市,未央路,,41,27,34,16,19,132,130,124,124,5,7,4,4,0.4,0.4
2023-09-02T18:00:00,1861A,110.4417,29.315,张家界市,袁家界,,,,26,5,15,138,134,135,120,5,5,8,8,0.7,0.7
2023-09-02T18:00:00,1862A,110.4144,25.3167,桂林市,电子科大尧山校区,,30,25,37,21,24,127,79,122,101,7,8,4,4,0.7,0.7
2023-09-02T18:00:00,1863A,110.2819,25.2697,桂林市,监测站,,43,43,41,18,22,135,106,124,123,12,10,7,9,0.8,0.7
2023-09-02T18:00:00,1864A,110.3089,25.2708,桂林市,龙隐路小学,,37,37,37,24,26,135,104,123,122,9,7,6,9,0.7,0.6
2023-09-02T18:00:00,1865A,110.2869,25.2178,桂林市,八中,,34,26,38,19,23,141,108,128,127,15,12,4,7,0.7,0.7
2023-09-02T18:00:00,1866A,109.2262,21.588,北海市,牛尾岭水库,,34,28,29,21,20,106,106,91,91,9,11,5,6,0.6,0.6
2023-09-02T18:00:00,1867A,109.1436,21.4086,北海市,海滩公园,,37,37,41,22,21,124,113,107,107,8,8,4,6,0.6,0.6
2023-09-02T18:00:00,1868A,109.0981,21.4661,北海市,新市环保局,,42,32,38,29,24,127,119,114,114,7,9,6,6,0.6,0.6
2023-09-02T18:00:00,1869A,109.1778,21.5233,北海市,北海工业园,,42,32,41,29,26,121,114,106,106,11,10,7,9,0.7,0.7
2023-09-02T18:00:00,1870A,109.4856,24.3895,柳州市,柳东小学,,,45,33,66,32,101,72,96,93,10,6,,8,0.5,0.5
2023-09-02T18:00:00,1871A,109.4157,24.3277,柳州市,环保监测站,,46,46,35,26,21,108,83,101,100,16,10,7,8,0.5,0.4
2023-09-02T18:00:00,1872A,109.389,24.341,柳州市,河西水厂,细颗粒物(PM2.5),74,88,53,54,34,99,85,82,82,26,28,7,15,0.7,1
2023-09-02T18:00:00,1873A,109.4311,24.2921,柳州市,市四中,颗粒物(PM10),51,52,35,30,24,112,83,105,104,20,11,12,10,0.8,0.7
2023-09-02T18:00:00,1874A,109.4006,24.3631,柳州市,市九中,颗粒物(PM10),59,68,44,39,22,108,80,99,99,18,12,10,9,0.7,0.5
2023-09-02T18:00:00,1875A,109.4958,24.3134,柳州市,古亭山,,37,37,33,25,25,110,69,104,98,10,9,5,7,0.6,0.5
2023-09-02T18:00:00,1876A,109.5078,18.2489,三亚市,河东子站,,50,50,36,22,20,150,128,139,139,8,13,3,3,0.6,0.6
2023-09-02T18:00:00,1877A,109.4964,18.2681,三亚市,河西子站,,41,41,34,21,19,140,119,131,131,7,11,2,2,0.4,0.5
2023-09-02T18:00:00,1878A,104.7778,31.4741,绵阳市,富乐山,,47,21,33,16,23,170,149,129,129,10,18,5,4,0.6,0.7
2023-09-02T18:00:00,1879A,104.7563,31.4535,绵阳市,市人大,,45,28,39,19,26,164,144,127,127,10,26,9,8,0.5,0.6
2023-09-02T18:00:00,1880A,104.6697,31.4668,绵阳市,高新区自来水公司,,46,28,47,18,25,158,147,129,129,14,30,7,8,0.3,0.4
2023-09-02T18:00:00,1881A,104.7287,31.5075,绵阳市,三水厂,,,3,42,,34,175,136,162,156,25,32,4,10,0.2,0.6
2023-09-02T18:00:00,1882A,104.563,28.793,宜宾市,石马中学,,,,,,,,,,,,,,,,
2023-09-02T18:00:00,1883A,104.6201,28.7728,宜宾市,市委,,49,30,50,21,36,180,156,151,151,11,19,10,9,0.5,0.7
2023-09-02T18:00:00,1884A,104.6055,28.793,宜宾市,宜宾四中,,47,31,50,21,38,185,149,155,155,13,17,5,7,0.6,0.7
2023-09-02T18:00:00,1885A,104.639,28.7562,宜宾市,市政府,,46,39,51,21,36,175,147,146,146,30,25,10,9,0.6,0.7
2023-09-02T18:00:00,1886A,104.5742,28.7199,宜宾市,黄金嘴,,49,31,45,20,34,185,155,152,152,22,20,10,8,0.5,0.6
2023-09-02T18:00:00,1888A,101.6891,26.571,攀枝花市,弄弄坪,,38,38,28,12,14,121,121,97,97,15,11,16,8,1.5,0.9
2023-09-02T18:00:00,1889A,101.5769,26.5928,攀枝花市,河门口,,34,8,20,6,14,110,108,96,96,12,16,7,10,0.6,0.8
2023-09-02T18:00:00,1890A,101.7169,26.585,攀枝花市,炳草岗,,45,29,27,12,14,142,142,115,115,16,23,16,14,1.7,1.3
2023-09-02T18:00:00,1891A,101.7369,26.5008,攀枝花市,仁和,,47,18,27,12,19,155,149,125,125,8,22,11,14,0.8,1.5
2023-09-02T18:00:00,1893A,105.4324,28.9634,泸州市,九狮山,,34,26,46,8,29,123,106,104,104,11,14,4,5,0.2,0.4
2023-09-02T18:00:00,1894A,105.4427,28.9063,泸州市,小市上码头,,46,31,62,22,45,197,147,168,168,7,14,5,7,0.5,0.6
2023-09-02T18:00:00,1895A,105.4241,28.8573,泸州市,兰田宪桥,臭氧1小时,64,28,62,24,50,211,171,183,183,9,9,6,7,0.4,0.6
2023-09-02T18:00:00,1896A,105.4379,28.8833,泸州市,市环监站,,42,28,62,17,40,171,132,151,151,11,18,4,7,0.4,0.5
2023-09-02T18:00:00,1901A,104.4239,31.1208,德阳市,东山公园,臭氧1小时,79,40,52,29,24,183,183,156,156,9,16,1,3,0.5,0.6
2023-09-02T18:00:00,1902A,104.3826,31.1317,德阳市,西小区,臭氧1小时,90,42,59,25,31,192,192,158,158,15,31,1,3,0.6,0.7
2023-09-02T18:00:00,1904A,104.3553,31.1091,德阳市,耐火材料厂,臭氧1小时,103,50,61,24,31,207,205,176,176,11,29,3,4,0.6,0.8
2023-09-02T18:00:00,1905A,106.056,30.8064,南充市,西山风景区,,44,10,29,24,25,139,139,127,127,4,6,4,7,0.4,0.5
2023-09-02T18:00:00,1906A,106.0789,30.8023,南充市,南充市委,,47,37,45,31,26,149,149,138,138,9,16,10,11,0.4,0.5
2023-09-02T18:00:00,1907A,106.1031,30.8217,南充市,南充炼油厂,,47,29,46,20,28,154,148,137,137,8,15,10,11,0.3,0.4
2023-09-02T18:00:00,1908A,106.1064,30.7856,南充市,高坪区监测站,,45,23,44,27,33,156,144,140,140,16,22,8,9,0.3,0.4
2023-09-02T18:00:00,1909A,106.0642,30.7636,南充市,嘉陵区环保局,,48,44,46,22,31,153,151,143,143,13,23,8,10,0.3,0.4
2023-09-02T18:00:00,1910A,106.1087,30.8388,南充市,市环境监测站,,46,39,46,23,34,145,145,130,130,16,20,8,8,0.4,0.4
2023-09-02T18:00:00,1911A,106.9222,27.6869,遵义市,丁字口,,39,30,30,15,21,136,123,130,130,15,23,7,6,0.7,0.7
2023-09-02T18:00:00,1912A,106.9242,27.7019,遵义市,凤凰山,细颗粒物(PM2.5),54,42,33,38,27,154,139,144,144,10,15,9,9,0.6,0.6
2023-09-02T18:00:00,1913A,106.8906,27.6486,遵义市,忠庄,,41,33,30,13,19,158,129,144,144,9,17,3,4,0.4,0.5
2023-09-02T18:00:00,1914A,106.9231,27.6506,遵义市,舟水桥,,40,31,40,19,24,161,126,145,145,10,19,3,3,0.6,0.7
2023-09-02T18:00:00,1915A,106.9178,27.72,遵义市,干田坝,,41,28,32,14,21,150,129,142,142,9,18,7,8,0.6,0.7
2023-09-02T18:00:00,1916A,103.7897,25.5035,曲靖市,环境监测站,,31,31,33,6,15,136,82,100,97,15,17,4,8,0.5,0.8
2023-09-02T18:00:00,1917A,103.8,25.5364,曲靖市,烟厂办公区,,27,22,36,16,18,127,85,100,98,11,14,4,8,0.5,0.7
2023-09-02T18:00:00,1918A,108.7197,34.3956,咸阳市,气象站,,,,,,,,,,,,,,,,
2023-09-02T18:00:00,1919A,108.673,34.3155,咸阳市,实验中学,,,,,,,,,,,,,,,,
2023-09-02T18:00:00,1920A,108.7233,34.3617,咸阳市,师范学院,,50,50,62,17,37,190,156,157,157,15,29,4,4,0.7,0.8
2023-09-02T18:00:00,1922A,109.0656,35.0994,铜川市,党校,颗粒物(PM10),51,51,50,23,27,140,125,130,130,12,23,12,12,0.8,0.8
2023-09-02T18:00:00,1923A,109.0697,35.0697,铜川市,王益区政府,,41,38,45,23,27,141,130,132,132,7,22,6,6,0.5,0.7
2023-09-02T18:00:00,1924A,108.9344,34.9058,铜川市,新区管委会,,46,46,49,27,26,153,135,142,142,11,18,6,7,0.6,0.7
2023-09-02T18:00:00,1926A,109.4131,36.6275,延安市,枣园,,40,26,31,16,15,130,125,121,121,6,23,7,6,0.4,0.5
2023-09-02T18:00:00,1927A,109.4761,36.6028,延安市,延大医附院,,40,30,32,14,17,130,125,123,123,6,23,6,5,0.5,0.6
2023-09-02T18:00:00,1929A,109.5056,36.6106,延安市,百米大道,,38,36,41,14,20,129,121,120,120,10,23,7,10,0.5,0.8
2023-09-02T18:00:00,1930A,107.185,34.3063,宝鸡市,庙沟村,,50,50,35,24,23,141,138,123,123,6,15,10,8,0.3,0.2
2023-09-02T18:00:00,1931A,107.0708,34.3017,宝鸡市,竹园沟,臭氧1小时,64,47,29,29,21,184,171,157,157,13,14,7,6,0.7,0.6
2023-09-02T18:00:00,1932A,107.1906,34.3672,宝鸡市,三陆医院,臭氧1小时,53,47,57,24,35,164,162,149,149,16,29,8,12,0.6,0.7
2023-09-02T18:00:00,1933A,107.1431,34.3547,宝鸡市,监测站,,50,47,45,24,26,160,160,146,146,17,27,9,8,0.5,0.5
2023-09-02T18:00:00,1934A,107.1186,34.3739,宝鸡市,技工学校,臭氧1小时,52,48,52,27,32,174,161,156,156,18,20,7,8,0.6,0.6
2023-09-02T18:00:00,1935A,107.3906,34.3528,宝鸡市,陈仓区环保局家属楼,臭氧1小时,63,71,56,26,27,170,170,146,146,25,35,8,8,0.7,0.6
2023-09-02T18:00:00,1936A,107.2058,34.3497,宝鸡市,文理学院,臭氧1小时,60,50,48,24,25,168,168,148,148,12,21,7,7,0.6,0.6
2023-09-02T18:00:00,1937A,107.2386,34.3622,宝鸡市,三迪小学,臭氧1小时,55,47,54,23,34,164,164,146,146,16,24,7,8,0.6,0.6
2023-09-02T18:00:00,1938A,109.5293,34.5101,渭南市,农科所,,48,34,46,22,29,151,151,130,130,8,22,6,5,0.4,0.4
2023-09-02T18:00:00,1939A,109.4974,34.4877,渭南市,日报社,臭氧1小时,54,39,50,20,34,163,163,139,139,8,29,6,5,0.4,0.4
2023-09-02T18:00:00,1940A,109.4636,34.493,渭南市,体育馆,,49,31,50,17,31,155,155,138,138,6,38,4,4,0.5,0.6
2023-09-02T18:00:00,1941A,109.4259,34.5023,渭南市,高新一小,,45,43,68,19,36,142,142,135,135,7,22,6,6,0.5,0.6
2023-09-02T18:00:00,1943A,102.1725,38.5339,金昌市,新川苑,,,,,,,,,,,,,,,,
2023-09-02T18:00:00,1944A,102.1692,38.5167,金昌市,天庆家园,,42,20,73,18,32,132,132,129,129,9,27,5,15,0.4,0.6
2023-09-02T18:00:00,1945A,98.2908,39.7711,嘉峪关市,气象局,,42,39,67,12,23,136,133,126,126,3,26,4,5,0.1,0.3
2023-09-02T18:00:00,1947A,106.3394,38.817,石嘴山市,沙湖旅游区,臭氧1小时,83,56,68,19,28,207,186,167,167,7,27,16,23,0.8,0.7
2023-09-02T18:00:00,1948A,106.3668,39.0145,石嘴山市,大武口朝阳西街,,40,29,81,5,36,182,125,128,128,5,52,3,26,0.2,0.9
2023-09-02T18:00:00,1949A,106.7704,39.2282,石嘴山市,惠农南大街,,40,31,51,16,14,187,127,137,137,10,31,7,20,0.4,0.9
2023-09-02T18:00:00,1950A,106.7099,39.1325,石嘴山市,红果子镇惠新街,,40,28,51,8,17,196,125,134,134,10,28,12,18,0.3,0.5
2023-09-02T18:00:00,1951A,84.895,45.6094,克拉玛依市,长征新村,,43,43,23,4,5,116,114,96,96,4,13,10,9,0.2,0.2
2023-09-02T18:00:00,1952A,84.8988,45.5893,克拉玛依市,南林小区,,41,41,25,10,10,120,120,98,98,6,23,6,7,0.3,0.4
2023-09-02T18:00:00,1954A,84.905,44.3396,克拉玛依市,独山子区,,44,39,34,19,14,138,138,117,117,4,8,11,9,0.4,0.4
2023-09-02T18:00:00,1955A,85.6979,46.098,克拉玛依市,乌尔禾区商贸楼,,37,15,13,4,5,120,116,102,102,1,5,8,6,0.2,0.3
2023-09-02T18:00:00,1956A,86.1472,41.7538,巴音郭楞州,孔雀公园,颗粒物(PM10),81,112,101,31,31,133,131,112,112,5,31,9,11,0.2,0.5
2023-09-02T18:00:00,1957A,86.1972,41.7166,巴音郭楞州,棉纺厂,颗粒物(PM10),77,103,108,34,37,147,147,117,117,7,30,7,7,0.3,0.5
2023-09-02T18:00:00,1958A,86.2357,41.7173,巴音郭楞州,经济开发区,颗粒物(PM10),73,96,105,31,30,152,152,121,121,7,13,9,9,0.2,0.2
2023-09-02T18:00:00,1961A,117.532,36.6868,济南市,东山小学,臭氧1小时,125,85,79,37,41,256,250,230,230,22,37,8,7,0.8,0.7
2023-09-02T18:00:00,1966A,120.0405,35.8735,青岛市,黄岛区4号,,50,22,55,12,33,220,160,154,154,10,26,8,7,0.4,0.6
2023-09-02T18:00:00,1982A,122.0693,37.2174,威海市,文登开发区,,30,24,41,5,20,134,96,122,122,19,19,8,7,0.5,0.6
2023-09-02T18:00:00,2031A,113.1817,27.9958,株洲市,云田中学,颗粒物(PM10),51,52,38,34,19,156,140,135,135,14,13,8,7,0.7,0.7
2023-09-02T18:00:00,2054A,114.1099,32.1059,信阳市,平桥分局,,49,49,36,20,20,150,142,144,144,9,14,3,4,0.7,0.6
2023-09-02T18:00:00,2064A,113.9956,32.1271,信阳市,南湾水厂,,44,41,42,23,21,153,138,144,144,6,12,3,4,0.8,0.7
2023-09-02T18:00:00,2065A,114.0775,32.1195,信阳市,市酿酒公司,,46,46,40,26,21,155,140,147,147,13,16,3,4,0.7,0.6
2023-09-02T18:00:00,2066A,114.0609,32.1399,信阳市,审计局,,47,40,35,31,18,161,148,152,152,8,13,4,4,0.7,0.6
2023-09-02T18:00:00,2067A,114.6613,33.6128,周口市,市环境监测站,臭氧1小时,63,63,60,32,33,182,170,173,173,15,19,4,7,0.5,0.5
2023-09-02T18:00:00,2068A,114.6758,33.6347,周口市,周口师范,臭氧1小时,59,64,59,31,29,169,167,168,167,5,15,2,4,0.6,0.6
2023-09-02T18:00:00,2069A,114.6546,33.5979,周口市,市运管处,臭氧1小时,58,59,61,34,31,172,166,166,166,12,19,7,11,0.6,0.5
2023-09-02T18:00:00,2070A,114.6369,33.6406,周口市,川汇区环保局,颗粒物(PM10),56,62,57,29,28,167,162,162,162,4,18,4,6,0.6,0.6
2023-09-02T18:00:00,2075A,117.6336,24.4674,漳州市,九湖,,,,,,,,,,,,,,,,
2023-09-02T18:00:00,2160A,112.85,35.5051,晋城市,自来水公司,臭氧1小时,73,48,70,27,35,178,178,158,158,12,16,10,10,0.8,1
2023-09-02T18:00:00,2161A,112.8318,35.4936,晋城市,白云商贸,"颗粒物(PM10),臭氧1小时",63,76,67,27,32,170,170,153,153,21,21,9,9,0.8,0.9
2023-09-02T18:00:00,2162A,112.8508,35.4887,晋城市,市环保局,臭氧1小时,57,52,78,22,37,165,165,148,148,17,23,8,9,0.8,0.9
2023-09-02T18:00:00,2163A,112.8676,35.4897,晋城市,技术学院,臭氧1小时,60,51,59,24,33,168,168,151,151,19,22,9,9,0.8,0.9
2023-09-02T18:00:00,2165A,112.8453,35.546,晋城市,白马寺,,,,,,,,,,,,,,,,
2023-09-02T18:00:00,2166A,112.4397,39.3522,朔州市,平朔,颗粒物(PM10),51,51,58,32,30,149,143,142,142,12,23,6,8,0.9,0.8
2023-09-02T18:00:00,2167A,112.4575,39.3617,朔州市,朔唯,颗粒物(PM10),52,54,72,31,34,144,135,136,136,11,30,8,10,0.5,0.7
2023-09-02T18:00:00,2168A,112.4258,39.3197,朔州市,区政府,细颗粒物(PM2.5),57,48,47,40,26,144,139,136,136,12,20,4,7,0.7,0.7
2023-09-02T18:00:00,2169A,112.4072,39.3278,朔州市,市环保局,,50,50,53,34,27,148,137,139,139,13,21,7,10,0.7,0.6
2023-09-02T18:00:00,2170A,112.4272,39.3681,朔州市,市二中,细颗粒物(PM2.5),54,35,57,38,32,146,135,137,137,14,26,7,9,0.8,0.8
2023-09-02T18:00:00,2171A,112.7532,37.6945,晋中市,锦纶小区,,46,44,63,26,35,172,145,161,161,13,18,11,11,0.4,0.6
2023-09-02T18:00:00,2173A,112.7249,37.7067,晋中市,南都小区,,48,48,66,29,43,178,153,164,164,13,16,9,8,0.6,0.7
2023-09-02T18:00:00,2174A,112.6991,37.6982,晋中市,榆次区政府,,48,43,63,29,37,176,152,160,160,13,16,10,11,0.5,0.6
2023-09-02T18:00:00,2175A,110.9956,35.0147,运城市,运城中学,,44,38,55,12,29,148,138,146,138,9,7,5,5,0.3,0.5
2023-09-02T18:00:00,2178A,110.9686,35.0303,运城市,地区技校,,43,37,53,15,29,144,137,138,138,6,8,4,4,0.2,0.3
2023-09-02T18:00:00,2179A,111.0414,35.1147,运城市,空港新区,,45,35,57,14,32,151,143,144,144,7,10,5,4,0.4,0.5
2023-09-02T18:00:00,2181A,112.7383,38.4519,忻州市,开发区,,50,48,60,32,45,173,159,152,152,16,19,11,18,0.7,0.9
2023-09-02T18:00:00,2182A,112.7003,38.4928,忻州市,会展中心,,,49,55,38,47,176,165,152,152,15,21,10,13,,0.8
2023-09-02T18:00:00,2183A,111.1406,37.5211,吕梁市,环保局,颗粒物(PM10),52,53,66,24,25,140,126,123,123,13,39,6,4,0.6,0.6
2023-09-02T18:00:00,2185A,111.1297,37.5136,吕梁市,自来水公司,颗粒物(PM10),60,70,62,23,26,137,133,124,124,12,34,4,4,0.6,0.8
2023-09-02T18:00:00,2187A,106.8174,39.6973,乌海市,市林业局,,41,35,61,12,24,195,130,149,149,5,23,8,28,0.5,1
2023-09-02T18:00:00,2188A,106.7907,39.6667,乌海市,中海勃湾学校,,42,38,57,7,19,183,132,154,154,5,26,7,29,0.3,0.7
2023-09-02T18:00:00,2191A,122.2532,43.6801,通辽市,艺术职业学校,,39,29,75,15,18,123,123,106,106,15,32,5,5,0.3,0.3
2023-09-02T18:00:00,2192A,119.7594,49.2261,呼伦贝尔市,区环保局,,29,22,25,20,21,80,71,74,74,17,14,3,3,0.5,0.4
2023-09-02T18:00:00,2195A,107.4212,40.761,巴彦淖尔市,附二中,臭氧1小时,60,55,50,13,18,202,168,164,164,10,12,6,8,0.5,0.6
2023-09-02T18:00:00,2196A,107.37,40.7372,巴彦淖尔市,市环保大楼,颗粒物(PM10),56,61,56,18,19,181,163,156,156,7,11,5,5,0.5,0.5
2023-09-02T18:00:00,2197A,113.1306,40.9923,乌兰察布市,集宁新区,,45,26,32,16,17,144,144,134,131,10,16,12,13,0.4,0.5
2023-09-02T18:00:00,2200A,122.0392,46.0656,兴安盟,胜华新制药厂,,29,18,29,4,12,103,90,94,94,11,15,2,3,0.2,0.3
2023-09-02T18:00:00,2201A,121.9504,46.0741,兴安盟,科右前旗环保局,,30,30,31,8,16,99,85,92,92,11,19,5,5,0.4,0.4
2023-09-02T18:00:00,2202A,116.1042,43.9317,锡林郭勒盟,市环保监测站,,42,42,24,8,8,135,131,130,130,6,9,10,10,0.4,0.3
2023-09-02T18:00:00,2203A,116.0781,43.9311,锡林郭勒盟,市政府,,43,32,19,17,6,140,136,134,134,9,14,10,10,0.3,0.3
2023-09-02T18:00:00,2204A,105.6467,38.8363,阿拉善盟,西城区西花园,,34,26,53,15,23,109,106,103,103,8,13,7,8,0.5,0.5
2023-09-02T18:00:00,2205A,105.6985,38.8411,阿拉善盟,蒙二幼,,40,26,59,12,23,131,128,124,124,6,8,6,7,0.3,0.3
2023-09-02T18:00:00,2206A,105.724,38.8516,阿拉善盟,环保局新楼,,38,25,44,13,21,133,120,127,119,6,6,8,9,0.4,0.4
2023-09-02T18:00:00,2207A,121.6094,41.998,阜新市,工业园区,颗粒物(PM10),61,71,52,10,15,121,116,112,112,18,27,25,11,0.6,0.6
2023-09-02T18:00:00,2208A,121.6697,42.0279,阜新市,长青街,,40,29,42,11,19,127,127,109,109,13,25,8,15,0.4,0.6
2023-09-02T18:00:00,2209A,121.6673,42.0705,阜新市,农业园区,,39,34,37,12,17,122,122,109,109,12,17,10,20,0.7,0.9
2023-09-02T18:00:00,2210A,121.6717,42.0224,阜新市,东苑,,,33,43,15,20,122,122,104,104,10,24,9,17,,0.6
2023-09-02T18:00:00,2211A,121.6506,42.0498,阜新市,玉龙新城,,36,30,60,13,16,114,114,103,103,14,28,8,9,0.5,0.7
2023-09-02T18:00:00,2212A,123.2,41.1953,辽阳市,宏伟区,,42,36,26,4,9,157,132,136,136,19,16,12,12,0.7,0.7
2023-09-02T18:00:00,2213A,123.1683,41.2495,辽阳市,新华园,,37,37,49,16,18,132,96,110,110,19,32,10,16,0.6,1.1
2023-09-02T18:00:00,2214A,123.2354,41.2639,辽阳市,滨河路,,44,44,41,17,19,142,119,125,125,20,27,12,11,0.9,1
2023-09-02T18:00:00,2215A,123.149,41.2991,辽阳市,铁西工业园,颗粒物(PM10),56,62,54,18,22,152,112,126,126,29,35,9,15,0.8,1.3
2023-09-02T18:00:00,2216A,123.8139,42.3022,铁岭市,汇工街西,,45,42,43,19,22,171,143,150,150,24,30,14,18,0.9,0.9
2023-09-02T18:00:00,2217A,123.8649,42.2923,铁岭市,水上乐园,,47,47,47,22,23,174,144,148,148,40,23,9,5,1.0,0.9
2023-09-02T18:00:00,2218A,123.8486,42.2867,铁岭市,银州路东段,,40,36,42,22,18,152,125,132,131,35,31,8,8,0.8,0.8
2023-09-02T18:00:00,2219A,123.7153,42.2217,铁岭市,金沙江路北,,39,39,42,12,19,163,113,137,137,19,36,9,10,0.7,1
2023-09-02T18:00:00,2220A,120.4318,41.5881,朝阳市,西梁,,37,24,44,6,17,121,117,112,112,12,29,7,9,0.5,0.6
2023-09-02T18:00:00,2221A,120.4521,41.5646,朝阳市,河畔小区,,40,27,35,6,13,125,125,115,115,9,20,9,10,0.4,0.6
2023-09-02T18:00:00,2222A,120.4176,41.5648,朝阳市,八里堡,,38,35,49,9,17,122,120,113,113,13,31,8,9,0.6,0.8
2023-09-02T18:00:00,2223A,120.3806,41.5969,朝阳市,农业园区,,34,20,39,10,16,118,108,109,109,8,26,5,7,0.5,0.6
2023-09-02T18:00:00,2225A,124.4002,43.1713,四平市,一商场,颗粒物(PM10),51,52,42,16,21,124,117,118,118,20,21,9,10,0.6,0.5
2023-09-02T18:00:00,2226A,124.388,43.193,四平市,境园,,40,18,37,16,22,128,127,120,120,9,24,4,4,0.5,0.5
2023-09-02T18:00:00,2227A,125.1358,42.8845,辽源市,环保局,,23,16,24,7,13,102,71,96,96,13,16,7,7,0.7,0.6
2023-09-02T18:00:00,2229A,125.9358,41.7173,通化市,光明,,,16,44,7,25,113,78,89,89,14,22,9,38,,1.5
2023-09-02T18:00:00,2230A,125.9446,41.7325,通化市,铁路,,23,23,52,2,28,116,59,78,78,21,25,7,41,0.7,2.1
2023-09-02T18:00:00,2231A,126.4219,41.9171,白山市,喜丰,,9,3,44,2,13,65,27,40,38,18,19,6,7,0.7,0.7
2023-09-02T18:00:00,2232A,126.4077,41.9419,白山市,环保局,,19,17,40,6,16,102,59,93,82,1,16,3,7,0.8,0.7
2023-09-02T18:00:00,2233A,124.8006,45.1214,松原市,江南,,28,27,20,12,12,108,89,97,97,16,16,6,6,0.5,0.5
2023-09-02T18:00:00,2234A,124.7965,45.1722,松原市,江北,,30,19,17,10,10,102,96,95,95,9,11,3,3,0.5,0.5
2023-09-02T18:00:00,2235A,122.7911,45.6077,白城市,洮北区环保局,,30,21,20,7,8,107,95,100,100,12,11,4,5,0.0,0
2023-09-02T18:00:00,2236A,122.8738,45.5725,白城市,市环保局,,30,27,23,6,7,103,93,97,97,11,16,7,7,0.2,0.2
2023-09-02T18:00:00,2237A,129.47,42.8883,延边朝鲜族自治州,妇幼医院,,23,23,21,11,12,86,68,82,82,8,10,8,8,0.5,0.6
2023-09-02T18:00:00,2238A,129.5055,42.9108,延边朝鲜族自治州,延边医院,,39,39,33,14,14,87,73,86,82,23,17,6,6,0.7,0.7
2023-09-02T18:00:00,2239A,129.3964,42.8881,延边朝鲜族自治州,朝阳川镇医院,,27,27,18,4,10,90,48,86,82,18,8,7,8,0.6,0.6
2023-09-02T18:00:00,2240A,130.9762,45.3001,鸡西市,环保局,,24,24,21,9,10,55,42,51,51,20,10,5,5,0.4,0.3
2023-09-02T18:00:00,2243A,130.9429,45.3039,鸡西市,第一中学,,29,29,17,16,10,74,59,69,69,14,6,6,6,0.2,0.1
2023-09-02T18:00:00,2244A,130.2537,47.3416,鹤岗市,哈啤分公司,,24,24,16,10,11,69,57,61,61,16,10,12,12,0.3,0.3
2023-09-02T18:00:00,2245A,130.2684,47.3086,鹤岗市,斯达机电,,33,33,20,10,7,73,57,61,61,17,10,10,9,0.4,0.4
2023-09-02T18:00:00,2246A,130.3114,47.3388,鹤岗市,东山纸板厂,,39,39,22,16,9,68,48,58,58,22,12,10,11,0.4,0.5
2023-09-02T18:00:00,2247A,130.1097,47.3382,鹤岗市,五号水库,,18,7,10,9,6,78,56,68,68,5,5,11,12,0.3,0.3
2023-09-02T18:00:00,2248A,131.1511,46.6937,双鸭山市,双合村,,24,20,19,10,7,74,74,71,71,5,6,6,8,0.0,0.2
2023-09-02T18:00:00,2249A,131.1652,46.6191,双鸭山市,南小市,,41,41,22,21,10,71,64,67,67,9,4,5,6,0.2,0.2
2023-09-02T18:00:00,2250A,131.1524,46.6554,双鸭山市,环保局,,45,45,20,12,11,74,46,61,61,22,11,15,11,0.8,0.4
2023-09-02T18:00:00,2251A,131.12,46.5656,双鸭山市,苗圃,,21,13,7,6,7,86,65,80,80,4,3,3,3,0.4,0.3
2023-09-02T18:00:00,2252A,128.5159,47.4311,伊春市,环保局,,30,27,17,21,8,75,74,71,71,14,8,6,6,0.4,0.4
2023-09-02T18:00:00,2253A,128.9102,47.7412,伊春市,电力嘉园,,37,37,16,10,11,82,75,77,77,17,7,6,5,0.6,0.6
2023-09-02T18:00:00,2254A,129.5029,48.471,伊春市,汤旺河国家公园,,28,22,23,19,14,75,48,67,66,2,2,19,14,0.4,0.4
2023-09-02T18:00:00,2255A,130.2751,46.8028,佳木斯市,佳纺,,25,25,16,13,8,79,79,72,72,4,7,4,4,0.4,0.4
2023-09-02T18:00:00,2256A,130.3995,46.8307,佳木斯市,发电厂,,29,29,16,16,7,76,74,74,74,13,8,1,2,0.4,0.3
2023-09-02T18:00:00,2257A,130.3258,46.7975,佳木斯市,环保局,,30,30,22,9,8,76,76,72,72,10,8,4,4,0.4,0.4
2023-09-02T18:00:00,2258A,130.3648,46.8032,佳木斯市,十一中,,38,38,20,15,8,70,63,66,66,22,11,4,4,0.5,0.5
2023-09-02T18:00:00,2259A,130.3794,46.7588,佳木斯市,四丰,,33,13,11,4,4,105,105,95,95,2,3,1,1,0.3,0.3
2023-09-02T18:00:00,2262A,131.0518,45.8751,七台河市,新一中,,30,30,15,14,8,87,59,82,79,11,5,8,8,0.6,0.4
2023-09-02T18:00:00,2263A,127.4833,50.2524,黑河市,交通局,,21,15,17,11,9,71,67,64,64,8,13,6,8,0.4,0.5
2023-09-02T18:00:00,2264A,127.5144,50.2341,黑河市,环保局,,27,27,26,9,9,75,57,66,66,20,10,33,6,0.3,0.3
2023-09-02T18:00:00,2265A,127.5291,50.2472,黑河市,大黑河岛,,,23,20,18,15,,,,,2,2,71,7,0.5,0.5
2023-09-02T18:00:00,2266A,126.9785,46.6365,绥化市,人和东街,,26,25,28,9,13,94,82,85,85,10,15,3,4,0.3,0.3
2023-09-02T18:00:00,2267A,126.964,46.6528,绥化市,党政办公中心,,26,23,20,8,11,91,81,83,83,9,12,9,9,0.3,0.3
2023-09-02T18:00:00,2269A,124.1069,50.4097,大兴安岭地区,科技局,,20,13,18,8,11,75,64,68,68,4,4,5,5,0.2,0.2
2023-09-02T18:00:00,2270A,117.396,32.939,蚌埠市,工人疗养院,颗粒物(PM10),52,54,58,23,29,171,152,159,159,12,12,4,4,0.5,0.5
2023-09-02T18:00:00,2271A,117.3605,32.9427,蚌埠市,百货大楼,颗粒物(PM10),54,58,64,25,30,172,160,164,164,10,15,5,5,0.5,0.5
2023-09-02T18:00:00,2273A,117.4185,32.8911,蚌埠市,蚌埠学院,颗粒物(PM10),51,51,55,25,33,161,142,150,150,21,27,9,6,0.4,0.4
2023-09-02T18:00:00,2274A,117.3533,32.9673,蚌埠市,淮上区政府,,49,46,58,24,36,166,155,161,161,8,22,5,5,0.5,0.5
2023-09-02T18:00:00,2275A,117.3145,32.8977,蚌埠市,高新区,臭氧1小时,57,41,53,27,33,173,165,164,164,12,25,4,6,0.5,0.6
2023-09-02T18:00:00,2277A,116.8305,32.7727,淮南市,潘集区政府,颗粒物(PM10),55,60,60,29,32,176,136,160,160,23,15,7,7,0.4,0.4
2023-09-02T18:00:00,2278A,117.0067,32.6524,淮南市,师范学院,,50,47,57,23,33,160,159,155,155,13,17,9,12,0.5,0.6
2023-09-02T18:00:00,2279A,116.8569,32.5951,淮南市,谢家集区政府,臭氧1小时,57,53,45,9,18,166,165,159,159,17,19,8,11,0.3,0.4
2023-09-02T18:00:00,2280A,116.8281,32.633,淮南市,八公山区政府,臭氧1小时,54,46,58,26,36,163,163,158,158,13,15,7,9,0.5,0.5
2023-09-02T18:00:00,2281A,116.6325,32.6201,淮南市,焦岗湖风景区管理处,,45,39,42,22,31,155,144,147,147,15,22,4,4,0.5,0.5
2023-09-02T18:00:00,2282A,116.8004,33.975,淮北市,监测站,细颗粒物(PM2.5),60,67,60,43,37,181,163,174,173,12,18,4,6,0.8,0.8
2023-09-02T18:00:00,2283A,116.8091,33.9007,淮北市,烈山区政府,臭氧1小时,79,74,66,45,40,195,183,190,190,7,12,5,6,0.7,0.8
2023-09-02T18:00:00,2285A,117.8177,30.9412,铜陵市,市第四中学,,47,47,38,25,24,149,142,133,133,11,12,6,7,0.3,0.4
2023-09-02T18:00:00,2286A,117.8059,30.9273,铜陵市,市公路局,,50,35,41,29,22,164,158,148,148,13,14,10,11,0.5,0.5
2023-09-02T18:00:00,2287A,117.7807,30.9413,铜陵市,市新民污水厂,臭氧1小时,60,48,42,16,17,171,168,152,152,15,25,5,5,0.5,0.5
2023-09-02T18:00:00,2288A,117.7439,30.8792,铜陵市,市第九中学,颗粒物(PM10),52,54,60,18,24,153,130,134,134,44,40,4,10,0.4,1.4
2023-09-02T18:00:00,2289A,117.846,30.9413,铜陵市,车站新区,,49,40,34,27,25,164,154,146,146,12,17,4,5,0.4,0.4
2023-09-02T18:00:00,2290A,117.8483,30.97,铜陵市,市职教基地,,48,36,35,12,15,164,152,142,142,11,11,4,4,0.6,0.6
2023-09-02T18:00:00,2291A,117.0809,30.5177,安庆市,环科院,,45,41,31,20,18,149,141,139,139,6,8,6,8,0.5,0.7
2023-09-02T18:00:00,2292A,117.0331,30.5119,安庆市,马山宾馆,,45,33,32,18,18,150,143,143,143,12,15,5,7,0.6,0.7
2023-09-02T18:00:00,2294A,116.9896,30.6145,安庆市,安庆大学,,46,37,29,22,17,152,147,139,139,10,12,6,7,0.6,0.7
2023-09-02T18:00:00,2295A,118.2903,29.6963,黄山市,延安路89号,,38,28,29,8,6,127,119,112,112,6,6,5,4,0.4,0.4
2023-09-02T18:00:00,2296A,118.327,29.7178,黄山市,黄山东路89号,,36,15,21,5,8,117,113,108,106,7,7,5,4,0.5,0.5
2023-09-02T18:00:00,2297A,118.1371,30.2756,黄山市,黄山区政府5号楼,,47,43,30,26,14,149,149,122,122,9,9,8,6,0.6,0.5
2023-09-02T18:00:00,2298A,118.3093,32.3153,滁州市,老年大学,,50,34,40,23,21,175,159,166,166,12,20,8,8,0.4,0.4
2023-09-02T18:00:00,2299A,118.3244,32.2786,滁州市,人大宾馆,臭氧1小时,55,50,39,29,24,172,164,166,166,16,23,7,8,0.5,0.5
2023-09-02T18:00:00,2301A,115.8277,32.8929,阜阳市,市监测站,臭氧1小时,55,46,38,26,25,173,164,164,164,11,14,6,8,0.5,0.5
2023-09-02T18:00:00,2303A,115.8554,32.8605,阜阳市,开发区,细颗粒物(PM2.5),59,55,50,42,37,176,151,162,162,18,17,8,8,0.6,0.5
2023-09-02T18:00:00,2307A,116.5079,31.737,六安市,监测大楼,,48,32,35,15,14,175,152,160,160,10,18,5,5,0.4,0.5
2023-09-02T18:00:00,2308A,116.4738,31.7643,六安市,皖西学院,,47,39,43,13,16,176,149,163,161,9,20,6,9,0.2,0.3
2023-09-02T18:00:00,2309A,116.4996,31.7905,六安市,朝阳厂,,,37,39,10,17,177,159,162,162,,23,8,8,0.6,0.6
2023-09-02T18:00:00,2310A,116.5567,31.7886,六安市,开发区,,44,41,46,17,21,163,139,150,150,12,22,6,6,0.5,0.5
2023-09-02T18:00:00,2311A,115.8072,33.8399,亳州市,污水处理厂,臭氧1小时,78,60,57,34,35,191,182,186,186,6,12,8,15,0.8,0.7
2023-09-02T18:00:00,2312A,115.7789,33.8518,亳州市,三国揽胜宫,臭氧1小时,77,61,50,37,34,185,181,179,179,7,13,5,12,0.8,0.7
2023-09-02T18:00:00,2314A,117.47,30.6618,池州市,池州学院,,48,45,42,10,16,163,152,145,145,19,23,6,7,0.6,0.7
2023-09-02T18:00:00,2316A,118.7581,30.9454,宣城市,鳌峰子站,臭氧1小时,58,54,40,26,21,166,166,139,139,10,20,5,4,0.8,0.7
2023-09-02T18:00:00,2317A,118.7385,30.9743,宣城市,敬亭山子站,臭氧1小时,59,51,40,23,20,172,167,140,140,21,20,7,7,0.5,0.6
2023-09-02T18:00:00,2318A,118.7173,30.9427,宣城市,开发区子站,臭氧1小时,72,46,38,23,20,177,177,146,146,10,19,8,7,0.7,0.7
2023-09-02T18:00:00,2319A,119.0141,25.4325,莆田市,荔城区仓后路,,20,20,17,10,8,83,55,67,67,7,6,8,8,0.6,0.6
2023-09-02T18:00:00,2320A,119.0015,25.4553,莆田市,莆田市监测站,,18,15,17,9,5,86,56,66,66,4,4,6,6,0.5,0.6
2023-09-02T18:00:00,2321A,119.1119,25.4561,莆田市,涵江区六中,,21,19,21,7,7,99,65,86,74,6,6,7,7,0.5,0.6
2023-09-02T18:00:00,2322A,119.1013,25.3215,莆田市,秀屿区政府,,24,23,22,14,11,100,74,78,78,7,8,7,7,0.6,0.6
2023-09-02T18:00:00,2323A,118.981,25.4792,莆田市,东圳水库,,,,,,,,,,,,,,,,
2023-09-02T18:00:00,2324A,117.6211,26.2625,三明市,三钢,,33,33,26,16,15,86,67,79,79,6,11,6,8,0.3,0.4
2023-09-02T18:00:00,2325A,117.635,26.2714,三明市,三明二中,,32,32,22,16,15,87,69,78,78,10,14,3,5,0.6,0.7
2023-09-02T18:00:00,2326A,117.6028,26.2378,三明市,三元区政府,,26,26,24,18,12,85,70,81,80,8,14,6,8,0.7,0.7
2023-09-02T18:00:00,2327A,117.7275,26.3108,三明市,洋溪,,,,,,,,,,,,,,,,
2023-09-02T18:00:00,2331A,118.0966,26.6761,南平市,茫荡山,,,,,,,,,,,,,,,,
2023-09-02T18:00:00,2332A,118.1681,26.6369,南平市,南平市监测站,,23,23,24,10,9,88,63,82,76,7,8,4,5,0.6,0.5
2023-09-02T18:00:00,2333A,118.1825,26.6489,南平市,南平铝业有限公司,,20,20,23,8,11,91,64,86,80,6,9,3,4,0.5,0.5
2023-09-02T18:00:00,2334A,118.1756,26.6272,南平市,南平七中,,24,24,21,12,8,92,60,81,79,10,9,4,6,0.8,0.7
2023-09-02T18:00:00,2335A,117.0189,25.1181,龙岩市,龙岩师专,,,,,,,,,,,,,,,,
2023-09-02T18:00:00,2336A,117.0217,25.1033,龙岩市,龙岩市监测站,,16,1,14,7,8,64,50,56,56,9,8,4,5,0.5,0.4
2023-09-02T18:00:00,2337A,117.0258,25.0661,龙岩市,闽西职业技术学院,,15,14,15,5,7,63,48,54,54,6,5,7,5,0.4,0.4
2023-09-02T18:00:00,2338A,117.0196,25.0306,龙岩市,龙岩学院,,16,14,14,11,6,62,46,54,54,8,6,5,5,0.4,0.3
2023-09-02T18:00:00,2339A,119.5001,26.6946,宁德市,金涵水库,,,,,,,,,,,,,,,,
2023-09-02T18:00:00,2341A,119.5388,26.6612,宁德市,宁德市监测站,,16,14,15,11,10,71,37,48,47,18,11,3,4,0.6,0.6
2023-09-02T18:00:00,2342A,117.3102,29.3867,景德镇市,王港中学,,15,14,20,2,10,105,47,81,81,4,4,3,3,0.4,0.4
2023-09-02T18:00:00,2343A,117.2117,29.2933,景德镇市,老干部活动中心,,31,31,26,21,16,101,78,94,94,12,8,3,4,0.3,0.3
2023-09-02T18:00:00,2344A,117.1894,29.2789,景德镇市,兽医站,,33,33,28,15,21,101,74,95,94,15,9,6,7,0.6,0.6
2023-09-02T18:00:00,2345A,117.1547,29.2617,景德镇市,台达陶瓷,,25,16,22,10,13,102,78,97,95,24,9,17,12,0.4,0.4
2023-09-02T18:00:00,2346A,117.2461,29.2956,景德镇市,陶研所,,21,18,34,8,10,102,65,94,93,7,7,4,5,0.3,0.3
2023-09-02T18:00:00,2347A,114.0997,27.5002,萍乡市,武功山,,28,2,8,1,6,116,88,103,103,5,4,8,9,0.4,0.4
2023-09-02T18:00:00,2348A,113.8385,27.6434,萍乡市,中医院,,38,38,33,23,18,137,115,126,126,19,10,11,18,0.8,0.6
2023-09-02T18:00:00,2349A,113.8493,27.6253,萍乡市,市政府车库,,49,46,37,34,18,151,105,130,130,28,14,15,16,1.7,0.7
2023-09-02T18:00:00,2350A,113.8676,27.6435,萍乡市,市环保局,,49,49,32,19,17,158,109,139,139,28,10,8,12,0.7,0.5
2023-09-02T18:00:00,2351A,113.866,27.6198,萍乡市,安源区政府,,36,31,38,18,20,150,115,134,134,14,15,7,14,0.5,1.2
2023-09-02T18:00:00,2352A,115.0861,27.9317,新余市,北岗,,40,27,24,18,18,143,126,134,134,9,6,15,13,0.5,0.7
2023-09-02T18:00:00,2353A,114.9886,27.8431,新余市,飞宇,,,41,39,19,19,142,128,135,135,,12,61,14,0.4,0.4
2023-09-02T18:00:00,2354A,114.9231,27.8246,新余市,第二水厂,,47,42,38,22,20,162,149,154,154,20,15,12,11,0.5,0.4
2023-09-02T18:00:00,2355A,114.9308,27.8036,新余市,市气象局,,46,46,38,25,22,144,136,137,137,12,9,13,12,0.6,0.6
2023-09-02T18:00:00,2357A,116.9822,28.1136,鹰潭市,龙虎山,,38,33,31,16,21,131,120,129,123,5,4,5,5,0.4,0.2
2023-09-02T18:00:00,2358A,117.0564,28.2642,鹰潭市,新监测站,,43,43,41,15,21,141,97,127,125,5,9,5,15,0.5,0.6
2023-09-02T18:00:00,2359A,117.0311,28.2475,鹰潭市,财苑宾馆,,45,45,42,24,20,144,107,128,127,6,9,6,12,0.4,0.4
2023-09-02T18:00:00,2360A,117.0222,28.2264,鹰潭市,体育馆,颗粒物(PM10),53,55,42,27,21,143,108,128,128,8,9,1,10,0.6,0.5
2023-09-02T18:00:00,2361A,117.0017,28.2131,鹰潭市,三川水表,,48,48,45,28,23,140,96,126,124,11,15,4,7,0.5,0.5
2023-09-02T18:00:00,2362A,114.9017,25.9149,赣州市,通天岩,,,,,,,,,,,,,,,,
2023-09-02T18:00:00,2363A,114.9367,25.8664,赣州市,地委,,34,30,38,21,24,114,106,105,105,6,7,12,12,1.1,1.1
2023-09-02T18:00:00,2364A,114.9461,25.8481,赣州市,气象台,,36,35,33,25,24,121,112,113,113,10,12,5,6,0.7,0.8
2023-09-02T18:00:00,2365A,114.9322,25.8333,赣州市,市图书馆,颗粒物(PM10),66,81,51,27,26,112,105,106,106,11,10,11,6,0.9,1.1
2023-09-02T18:00:00,2366A,114.8905,25.8471,赣州市,华坚鞋城,,33,28,32,19,24,115,103,109,108,9,8,2,4,0.8,0.7
2023-09-02T18:00:00,2367A,114.9754,27.0803,吉安市,红声器材厂,,43,32,39,20,20,143,136,123,123,9,14,13,16,0.6,0.7
2023-09-02T18:00:00,2368A,114.9658,27.0999,吉安市,市森林工业局,,45,38,36,22,22,151,143,129,129,8,10,9,12,0.6,0.6
2023-09-02T18:00:00,2369A,114.99,27.1312,吉安市,市环境监测站,,45,40,39,17,20,150,144,130,130,10,16,9,12,0.6,0.7
2023-09-02T18:00:00,2370A,115.0093,27.0968,吉安市,青原区法院,,44,38,38,18,21,148,139,129,129,11,14,14,17,0.8,0.9
2023-09-02T18:00:00,2371A,114.3408,27.8064,宜春市,槟榔水业,,34,26,28,16,15,137,106,126,126,12,12,3,2,0.9,1
2023-09-02T18:00:00,2373A,114.3956,27.7844,宜春市,市石油公司,,39,37,38,21,21,142,122,130,130,11,11,5,9,0.7,0.8
2023-09-02T18:00:00,2374A,114.3703,27.7914,宜春市,市气象局,,40,33,39,23,20,142,125,132,132,18,15,5,7,0.6,0.7
2023-09-02T18:00:00,2375A,114.4013,27.8074,宜春市,市广电局,,39,30,33,17,19,148,122,137,137,21,13,8,8,0.7,0.8
2023-09-02T18:00:00,2376A,116.2127,28.0814,抚州市,桐源党溪,,30,30,30,11,17,125,96,112,111,2,2,1,2,0.6,0.7
2023-09-02T18:00:00,2377A,116.3544,27.9831,抚州市,市站,,36,36,38,21,22,119,103,114,114,8,9,1,4,0.8,0.9
2023-09-02T18:00:00,2378A,116.3565,27.963,抚州市,血防站,,40,40,44,17,20,126,106,118,118,2,3,1,2,1.1,1.1
2023-09-02T18:00:00,2379A,116.3564,28.0007,抚州市,采茶剧团,,38,38,37,23,21,120,93,114,112,15,7,4,5,0.9,0.9
2023-09-02T18:00:00,2380A,116.385,27.9647,抚州市,医学分院,,38,38,38,21,20,130,106,121,121,6,7,12,11,0.9,1
2023-09-02T18:00:00,2381A,118.005,28.4572,上饶市,百草园,,,,,,,,,,,,,,,,
2023-09-02T18:00:00,2382A,117.9756,28.4436,上饶市,市监测站,,36,30,40,14,17,148,115,128,117,3,8,5,8,0.4,0.4
2023-09-02T18:00:00,2383A,117.9519,28.4628,上饶市,凤凰光学,,35,29,38,22,20,131,110,114,114,5,12,2,14,0.4,0.4
2023-09-02T18:00:00,2385A,114.17,35.9019,鹤壁市,市监测站,臭氧1小时,78,51,73,41,54,192,182,168,168,12,18,8,6,0.8,0.9
2023-09-02T18:00:00,2386A,114.2956,35.7511,鹤壁市,市交警支队,臭氧1小时,62,55,77,36,54,172,169,156,156,11,26,6,5,0.5,0.8
2023-09-02T18:00:00,2387A,114.2878,35.7306,鹤壁市,迎宾馆,臭氧1小时,68,59,72,39,55,176,174,159,159,14,25,5,6,0.6,1
2023-09-02T18:00:00,2389A,113.836,35.311,新乡市,环保西院,臭氧1小时,79,53,70,34,44,183,183,164,164,10,28,6,8,0.7,0.9
2023-09-02T18:00:00,2390A,113.884,35.272,新乡市,开发区,臭氧1小时,77,35,50,31,36,181,181,165,165,8,26,4,4,0.2,0.3
2023-09-02T18:00:00,2391A,113.883,35.303,新乡市,环保东院,臭氧1小时,77,52,74,27,38,181,181,161,161,13,31,4,6,0.7,0.8
2023-09-02T18:00:00,2392A,115.0312,35.7636,濮阳市,环保局,颗粒物(PM10),51,51,57,34,50,159,148,147,147,6,17,6,7,0.7,0.8
2023-09-02T18:00:00,2394A,115.0574,35.7609,濮阳市,油田运输公司,颗粒物(PM10),54,57,75,37,46,161,148,149,149,10,19,6,8,0.6,0.7
2023-09-02T18:00:00,2395A,115.0866,35.7754,濮阳市,油田物探公司,颗粒物(PM10),54,57,74,32,57,164,152,152,152,7,14,4,5,0.6,0.7
2023-09-02T18:00:00,2396A,113.8276,34.0159,许昌市,监测站,臭氧1小时,69,59,50,34,30,177,175,166,166,12,20,3,7,0.4,0.4
2023-09-02T18:00:00,2398A,113.7906,33.9953,许昌市,开发区,臭氧1小时,70,49,55,33,29,178,176,165,165,7,24,2,6,0.5,0.6
2023-09-02T18:00:00,2399A,114.051,33.5699,漯河市,三五一五工厂,臭氧1小时,64,59,56,41,31,176,171,169,169,5,23,9,13,0.6,0.6
2023-09-02T18:00:00,2400A,114.0055,33.5698,漯河市,漯河大学,臭氧1小时,73,54,52,33,28,182,178,175,175,7,17,5,7,0.6,0.5
2023-09-02T18:00:00,2401A,114.0138,33.5828,漯河市,市水利局,臭氧1小时,64,48,52,39,35,178,171,168,168,8,21,7,11,0.6,0.6
2023-09-02T18:00:00,2402A,114.0261,33.5698,漯河市,市广电局,臭氧1小时,69,61,55,36,30,180,175,172,172,7,19,6,9,0.6,0.5
2023-09-02T18:00:00,2404A,112.5224,33.0122,南阳市,瓦房庄,,48,44,47,23,26,165,152,151,151,10,13,6,6,0.6,0.6
2023-09-02T18:00:00,2405A,112.5003,32.9735,南阳市,汉画馆,,49,45,42,22,22,161,154,153,153,14,13,7,7,0.6,0.6
2023-09-02T18:00:00,2406A,112.5573,33.027,南阳市,气象站,,48,37,41,20,21,158,152,150,150,9,13,7,8,0.6,0.7
2023-09-02T18:00:00,2407A,112.5481,32.9689,南阳市,理工学院,,47,41,41,25,25,161,150,151,151,15,12,6,8,0.5,0.5
2023-09-02T18:00:00,2408A,115.6702,34.4285,商丘市,环境监测站,臭氧1小时,90,65,63,42,40,193,192,183,183,10,22,7,7,1.0,0.9
2023-09-02T18:00:00,2409A,115.6458,34.4045,商丘市,粮食局,臭氧1小时,80,60,55,38,35,192,184,186,186,10,18,4,6,0.6,0.6
2023-09-02T18:00:00,2410A,115.6293,34.3948,商丘市,睢阳区环保局,颗粒物(PM10),61,72,63,41,34,190,167,183,183,17,22,7,8,0.6,0.6
2023-09-02T18:00:00,2420A,114.0189,32.9656,驻马店市,市一纸厂,臭氧1小时,55,40,46,26,29,170,164,162,162,8,16,8,13,0.4,0.5
2023-09-02T18:00:00,2421A,114.0114,33.015,驻马店市,市彩印厂,臭氧1小时,67,48,44,34,25,177,173,167,167,6,13,7,9,0.4,0.4
2023-09-02T18:00:00,2422A,113.9976,32.9771,驻马店市,天方二分厂,,50,40,40,34,30,165,160,157,157,6,13,5,8,0.3,0.3
2023-09-02T18:00:00,2423A,115.0601,30.2313,黄石市,沈家营,,30,20,28,9,11,150,93,141,134,28,18,4,8,0.7,0.7
2023-09-02T18:00:00,2424A,115.0817,30.2006,黄石市,陈家湾,,39,32,28,27,17,149,93,132,128,9,9,6,8,0.4,0.5
2023-09-02T18:00:00,2426A,114.8988,30.2019,黄石市,铁山,,46,33,29,21,12,164,145,151,151,14,17,9,9,0.8,0.6
2023-09-02T18:00:00,2427A,115.0307,30.2092,黄石市,团城山,,39,22,30,3,9,163,122,150,147,11,12,6,9,0.4,0.5
2023-09-02T18:00:00,2428A,111.0419,32.395,十堰市,武当山,,37,22,21,17,14,124,118,120,120,7,7,10,10,0.7,0.7
2023-09-02T18:00:00,2429A,110.78,32.6494,十堰市,滨河新村,,39,23,54,17,30,139,123,124,124,3,21,7,9,0.4,0.7
2023-09-02T18:00:00,2430A,110.7258,32.6389,十堰市,刘家沟,,40,9,47,7,26,155,125,132,132,3,8,6,8,0.6,0.7
2023-09-02T18:00:00,2431A,110.8839,32.5714,十堰市,铁二处,,43,24,37,9,19,157,135,142,142,5,6,6,6,0.5,0.7
2023-09-02T18:00:00,2432A,112.155,32.0197,襄阳市,襄城运动路,,45,36,44,18,23,157,143,148,148,9,18,7,9,0.6,0.6
2023-09-02T18:00:00,2433A,112.1392,32.0564,襄阳市,樊城新华路,,45,32,38,16,23,159,144,149,149,13,23,8,8,0.4,0.5
2023-09-02T18:00:00,2434A,112.1825,32.1142,襄阳市,高新管委会,,45,43,50,20,26,161,144,151,151,9,23,8,9,0.8,0.8
2023-09-02T18:00:00,2435A,112.2106,32.0903,襄阳市,襄州航空路,,44,34,42,14,21,153,140,147,147,11,20,8,8,0.7,0.7
2023-09-02T18:00:00,2436A,114.8938,30.3994,鄂州市,市政府,,36,31,35,14,16,153,115,137,136,18,19,3,4,0.7,0.7
2023-09-02T18:00:00,2437A,114.8989,30.3714,鄂州市,赵家坝,,43,37,47,11,17,162,135,145,145,13,24,4,6,0.5,0.5
2023-09-02T18:00:00,2439A,112.2014,31.0481,荆门市,竹园小学,臭氧1小时,78,52,46,22,22,189,182,172,172,12,17,8,12,0.6,0.6
2023-09-02T18:00:00,2440A,112.1969,30.9891,荆门市,掇刀,臭氧1小时,62,49,39,22,20,171,169,160,160,12,14,8,11,0.5,0.5
2023-09-02T18:00:00,2441A,112.2213,31.0386,荆门市,石化一小,臭氧1小时,75,51,49,22,23,186,180,172,172,9,14,9,11,0.5,0.4
2023-09-02T18:00:00,2443A,113.9153,30.9285,孝感市,文化路,,40,21,26,28,16,153,117,134,134,12,10,7,7,0.9,0.7
2023-09-02T18:00:00,2444A,113.942,30.9075,孝感市,东城区,,42,42,37,21,14,156,121,136,136,15,11,8,8,0.8,0.7
2023-09-02T18:00:00,2446A,114.9028,30.4742,黄冈市,职工中心,,49,49,35,29,20,172,129,149,149,6,4,10,9,0.7,0.7
2023-09-02T18:00:00,2447A,114.3175,29.8142,咸宁市,森林公园,臭氧1小时,62,36,29,13,16,172,169,140,140,4,4,7,7,0.7,0.7
2023-09-02T18:00:00,2448A,114.3107,29.8454,咸宁市,市发改委,臭氧1小时,64,35,29,24,16,180,171,163,163,10,7,13,12,0.5,0.5
2023-09-02T18:00:00,2449A,114.2936,29.8566,咸宁市,咸安区政府,细颗粒物(PM2.5),73,71,33,53,21,183,167,165,165,20,14,12,12,0.7,0.6
2023-09-02T18:00:00,2451A,113.3583,31.7275,随州市,市委党校,,44,37,36,18,21,163,140,152,152,6,9,7,7,0.7,0.6
2023-09-02T18:00:00,2452A,113.3833,31.6908,随州市,市林业局,,47,28,31,20,21,163,148,156,156,8,13,6,6,0.8,0.7
2023-09-02T18:00:00,2453A,113.3983,31.7308,随州市,市立交桥水厂,,42,31,27,17,18,159,133,147,147,14,16,9,9,0.6,0.6
2023-09-02T18:00:00,2454A,109.4978,30.2981,恩施土家族苗族自治州,湖北民院,,38,28,37,26,28,111,96,80,80,8,3,10,10,0.8,0.8
2023-09-02T18:00:00,2455A,109.4707,30.2798,恩施土家族苗族自治州,州电力总公司,,35,29,47,9,46,122,111,109,109,7,19,9,9,0.7,0.8
