timepoint,stationcode,longitude,latitude,area,positionname,primarypollutant,aqi,pm10,pm10_24h,pm2_5,pm2_5_24h,o3,o3_24h,o3_8h,o3_8h_24h,no2,no2_24h,so2,so2_24h,co,co_24h
2023-10-06T18:00:00,1001A,116.3621,39.8784,北京市,万寿西宫,,44,44,37,15,14,68,58,59,59,22,33,3,2,0.4,0.4
2023-10-06T18:00:00,1002A,116.2202,40.2915,北京市,定陵,,30,30,22,10,8,59,23,48,46,4,3,3,2,0.3,0.2
2023-10-06T18:00:00,1003A,116.4174,39.9289,北京市,东四,,37,37,35,14,13,70,61,63,63,26,27,3,2,0.2,0.2
2023-10-06T18:00:00,1004A,116.4072,39.8863,北京市,天坛,,33,33,31,13,13,66,46,58,58,28,28,3,3,0.3,0.3
2023-10-06T18:00:00,1005A,116.462,39.9365,北京市,农展馆,,41,41,33,13,12,67,59,59,59,27,30,1,1,0.3,0.3
2023-10-06T18:00:00,1006A,116.3392,39.9295,北京市,官园,,41,41,35,13,12,78,66,65,65,25,33,2,2,0.2,0.2
2023-10-06T18:00:00,1007A,116.2878,39.9611,北京市,海淀万柳,,49,49,39,14,14,73,53,56,56,23,26,3,3,0.5,0.4
2023-10-06T18:00:00,1008A,116.6636,40.135,北京市,顺义新城,,32,32,34,14,14,82,54,70,70,32,19,3,3,0.2,0.2
2023-10-06T18:00:00,1009A,116.6275,40.3275,北京市,怀柔镇,,31,31,23,15,9,68,50,58,58,23,12,3,3,0.4,0.2
2023-10-06T18:00:00,1010A,116.2296,40.217,北京市,昌平镇,,38,38,26,14,10,66,49,56,56,6,7,3,1,0.4,0.3
2023-10-06T18:00:00,1011A,116.3966,39.9821,北京市,奥体中心,,34,34,35,13,13,57,52,48,48,28,36,3,3,0.3,0.3
2023-10-06T18:00:00,1012A,116.184,39.9136,北京市,古城,,48,48,38,16,13,72,44,53,53,39,37,3,3,0.4,0.4
2023-10-06T18:00:00,1015A,117.1444,39.1661,天津市,勤俭道,颗粒物(PM10),81,111,96,57,44,100,78,82,82,42,51,12,12,0.7,0.6
2023-10-06T18:00:00,1017A,117.237,39.1082,天津市,大直沽八号路,颗粒物(PM10),74,98,83,47,38,96,76,80,80,39,44,7,6,0.7,0.6
2023-10-06T18:00:00,1018A,117.202,39.0927,天津市,前进道,颗粒物(PM10),70,89,82,49,40,94,73,78,78,43,50,10,9,0.7,0.6
2023-10-06T18:00:00,1019A,117.1837,39.2133,天津市,淮河道,颗粒物(PM10),78,105,90,53,43,115,87,93,93,44,55,10,10,0.8,0.6
2023-10-06T18:00:00,1021A,117.307,39.0877,天津市,跃进路,颗粒物(PM10),68,86,81,43,37,105,82,86,86,32,44,10,9,0.7,0.7
2023-10-06T18:00:00,1023A,117.707,39.0343,天津市,第四大街,颗粒物(PM10),61,72,70,31,30,96,66,76,76,39,57,8,9,0.7,0.8
2023-10-06T18:00:00,1024A,117.457,38.8394,天津市,永明路,颗粒物(PM10),51,51,67,24,36,97,67,85,85,27,42,8,9,0.5,0.5
2023-10-06T18:00:00,1026A,117.764,39.1587,天津市,汉北路,颗粒物(PM10),73,95,69,44,29,98,71,73,73,38,56,9,9,0.7,0.7
2023-10-06T18:00:00,1027A,117.157,38.9194,天津市,团泊洼,颗粒物(PM10),52,54,80,24,42,87,62,74,74,30,43,7,7,0.7,0.8
2023-10-06T18:00:00,1029A,114.4422,38.0444,石家庄市,职工医院,颗粒物(PM10),60,70,34,16,11,80,11,59,53,65,36,13,6,0.8,0.4
2023-10-06T18:00:00,1030A,114.6063,38.0266,石家庄市,高新区,颗粒物(PM10),64,77,53,24,16,54,5,39,33,72,48,5,4,1.3,0.6
2023-10-06T18:00:00,1031A,114.4898,38.1328,石家庄市,西北水源,颗粒物(PM10),64,77,40,21,16,78,17,56,54,62,41,10,4,0.8,0.5
2023-10-06T18:00:00,1032A,114.4586,38.0058,石家庄市,西南高教,颗粒物(PM10),62,74,41,25,15,81,6,55,50,62,37,8,6,0.8,0.5
2023-10-06T18:00:00,1033A,114.5331,38.0178,石家庄市,世纪公园,颗粒物(PM10),68,86,44,30,21,59,6,42,39,67,41,9,7,1.2,0.5
2023-10-06T18:00:00,1034A,114.509,38.0457,石家庄市,人民会堂,颗粒物(PM10),62,74,37,27,12,80,10,61,52,66,34,8,7,0.9,0.5
2023-10-06T18:00:00,1035A,114.3524,37.8911,石家庄市,封龙山,,39,39,28,11,17,86,67,85,79,16,10,3,3,0.7,0.6
2023-10-06T18:00:00,1037A,118.131,39.6363,唐山市,雷达站,颗粒物(PM10),62,74,79,33,36,101,55,72,72,42,43,2,3,0.5,0.5
2023-10-06T18:00:00,1038A,118.1725,39.6334,唐山市,物资局,颗粒物(PM10),62,73,62,30,27,104,60,70,70,57,46,8,7,0.9,0.7
2023-10-06T18:00:00,1040A,118.1705,39.6506,唐山市,十二中,颗粒物(PM10),52,53,52,28,26,95,67,68,68,41,44,1,3,0.6,0.5
2023-10-06T18:00:00,1041A,118.1869,39.622,唐山市,小山,颗粒物(PM10),71,91,70,24,24,105,60,68,68,53,50,5,3,0.7,0.5
2023-10-06T18:00:00,1042A,119.5134,39.8207,秦皇岛市,北戴河环保局,颗粒物(PM10),55,60,38,15,10,94,79,76,76,48,39,13,12,0.8,0.6
2023-10-06T18:00:00,1043A,119.7493,40.0116,秦皇岛市,第一关,,36,36,32,24,16,107,92,94,94,38,65,11,10,0.7,0.5
2023-10-06T18:00:00,1044A,119.5897,39.9499,秦皇岛市,监测站,细颗粒物(PM2.5),52,48,40,36,18,88,83,77,77,49,45,17,13,1.4,0.5
2023-10-06T18:00:00,1046A,119.5251,39.9041,秦皇岛市,建设大厦,颗粒物(PM10),58,65,46,34,22,86,68,71,71,37,36,9,9,1.1,0.4
2023-10-06T18:00:00,1048A,114.5302,36.6116,邯郸市,东污水处理厂,,37,37,52,19,28,82,58,53,53,32,41,8,10,0.6,1.1
2023-10-06T18:00:00,1049A,114.4918,36.5713,邯郸市,矿院,,37,37,52,14,21,83,52,52,52,39,48,5,9,0.2,0.7
2023-10-06T18:00:00,1050A,114.484,36.6133,邯郸市,丛台公园,,47,47,39,17,21,75,62,54,54,28,37,8,13,0.3,0.8
2023-10-06T18:00:00,1051A,115.493,38.8632,保定市,游泳馆,颗粒物(PM10),66,81,63,34,29,64,40,53,53,55,43,5,4,0.8,0.7
2023-10-06T18:00:00,1052A,115.5213,38.8959,保定市,华电二区,颗粒物(PM10),52,54,51,28,27,60,49,50,50,39,35,7,7,0.5,0.4
2023-10-06T18:00:00,1053A,115.4713,38.9108,保定市,接待中心,颗粒物(PM10),53,56,60,21,22,61,48,52,52,45,38,8,7,0.2,0.3
2023-10-06T18:00:00,1054A,115.4612,38.8416,保定市,地表水厂,颗粒物(PM10),72,93,86,27,29,58,31,46,46,66,52,7,6,0.7,0.6
2023-10-06T18:00:00,1056A,115.5086,38.8639,保定市,监测站,颗粒物(PM10),66,81,64,27,27,65,49,54,54,46,40,10,8,0.7,0.6
2023-10-06T18:00:00,1057A,114.8883,40.8336,张家口市,人民公园,颗粒物(PM10),80,109,39,32,9,79,40,67,65,68,20,7,4,0.8,0.4
2023-10-06T18:00:00,1059A,114.8687,40.8042,张家口市,五金库,颗粒物(PM10),69,88,38,39,17,78,60,66,66,47,23,9,3,0.6,0.2
2023-10-06T18:00:00,1060A,114.8902,40.762,张家口市,世纪豪园,颗粒物(PM10),67,83,40,38,14,76,61,64,64,37,21,5,3,0.6,0.3
2023-10-06T18:00:00,1061A,114.8916,40.8661,张家口市,北泵房,颗粒物(PM10),68,85,31,37,16,87,39,75,71,57,16,10,8,0.5,0.2
2023-10-06T18:00:00,1062A,117.9531,40.9081,承德市,铁路,颗粒物(PM10),57,64,29,18,8,77,22,51,51,75,34,9,9,0.6,0.6
2023-10-06T18:00:00,1063A,117.9392,40.9763,承德市,中国银行,颗粒物(PM10),57,63,32,24,10,87,32,64,64,45,32,6,7,0.8,0.5
2023-10-06T18:00:00,1064A,117.9503,40.928,承德市,开发区,,37,37,34,14,14,83,55,65,65,30,32,6,7,0.4,0.5
2023-10-06T18:00:00,1065A,117.8051,40.9655,承德市,文化中心,颗粒物(PM10),56,62,41,30,8,86,52,58,58,30,39,2,5,0.5,0.4
2023-10-06T18:00:00,1066A,117.9268,41.0026,承德市,离宫,,29,20,22,20,14,86,61,68,68,7,19,2,3,0.3,0.3
2023-10-06T18:00:00,1067A,116.6708,39.5111,廊坊市,药材公司,颗粒物(PM10),80,110,57,45,22,89,68,66,66,46,42,8,3,0.7,0.4
2023-10-06T18:00:00,1068A,116.7214,39.5589,廊坊市,开发区,细颗粒物(PM2.5),75,93,52,55,23,96,84,71,71,45,43,6,2,0.7,0.4
2023-10-06T18:00:00,1070A,116.7244,39.5269,廊坊市,北华航天学院,颗粒物(PM10),78,106,56,51,20,101,90,74,74,43,42,13,7,0.7,0.4
2023-10-06T18:00:00,1071A,116.8842,38.2991,沧州市,沧县城建局,颗粒物(PM10),66,82,74,23,27,76,58,68,68,42,45,6,7,0.5,0.5
2023-10-06T18:00:00,1072A,116.8584,38.3254,沧州市,电视转播站,颗粒物(PM10),64,78,65,24,28,74,63,68,68,35,45,7,8,0.3,0.5
2023-10-06T18:00:00,1073A,116.8709,38.3228,沧州市,市环保局,颗粒物(PM10),60,70,78,27,33,75,62,68,68,32,39,5,7,0.4,0.4
2023-10-06T18:00:00,1074A,115.6838,37.7541,衡水市,电机北厂,颗粒物(PM10),97,144,85,28,26,72,69,57,57,30,40,6,6,0.5,0.7
2023-10-06T18:00:00,1075A,115.6303,37.7316,衡水市,市监测站,颗粒物(PM10),67,83,81,16,22,60,57,44,44,36,49,4,6,0.3,0.4
2023-10-06T18:00:00,1077A,114.4704,37.0886,邢台市,达活泉,颗粒物(PM10),56,61,53,18,16,78,68,44,40,23,33,16,19,1.0,1.4
2023-10-06T18:00:00,1078A,114.5062,37.0349,邢台市,邢师高专,颗粒物(PM10),53,55,61,13,15,72,53,36,36,45,51,12,14,0.8,1.1
2023-10-06T18:00:00,1079A,114.5237,37.0851,邢台市,路桥公司,,48,48,51,16,17,77,66,43,43,36,45,8,14,0.8,1.2
2023-10-06T18:00:00,1080A,114.4725,37.0719,邢台市,市环保局,,48,48,54,16,19,76,64,43,41,31,37,15,20,1.0,1.4
2023-10-06T18:00:00,1081A,112.522,37.8873,太原市,尖草坪,,45,44,41,31,27,116,109,99,99,18,24,8,6,0.6,0.6
2023-10-06T18:00:00,1083A,112.434,38.0108,太原市,上兰,,,,,,,,,,,,,,,,
2023-10-06T18:00:00,1084A,112.469,37.7124,太原市,晋源,细颗粒物(PM2.5),77,42,42,56,36,113,88,93,92,29,28,6,3,0.7,0.9
2023-10-06T18:00:00,1085A,112.5583,37.7394,太原市,小店,细颗粒物(PM2.5),73,65,53,53,36,110,86,89,89,30,38,7,6,0.7,0.8
2023-10-06T18:00:00,1086A,112.5369,37.8692,太原市,桃园,,40,28,28,28,25,114,103,95,95,20,29,6,6,0.6,0.6
2023-10-06T18:00:00,1087A,112.57,37.8195,太原市,坞城,细颗粒物(PM2.5),53,41,46,37,29,113,102,90,90,22,32,10,11,0.6,0.7
2023-10-06T18:00:00,1088A,112.549,37.9854,太原市,南寨,细颗粒物(PM2.5),52,48,39,36,30,111,94,96,96,24,31,13,9,0.7,0.7
2023-10-06T18:00:00,1090A,111.6507,40.7517,呼和浩特市,呼市一监,,41,41,80,10,36,90,87,67,67,13,46,6,9,0.5,0.7
2023-10-06T18:00:00,1091A,111.6572,40.8033,呼和浩特市,小召,,39,39,68,14,30,78,77,57,57,25,52,6,9,0.6,0.7
2023-10-06T18:00:00,1094A,111.7516,40.8369,呼和浩特市,如意水处理厂,,39,39,72,17,28,90,85,68,68,22,47,9,12,0.4,0.6
2023-10-06T18:00:00,1095A,111.7276,40.8062,呼和浩特市,二十九中,,49,49,71,15,33,92,89,69,69,20,48,6,10,0.5,0.7
2023-10-06T18:00:00,1096A,111.5512,40.7866,呼和浩特市,工大金川校区,,49,49,72,24,29,86,86,63,63,17,45,6,9,0.4,0.6
2023-10-06T18:00:00,1097A,111.717,40.7612,呼和浩特市,化肥厂生活区,,28,28,91,10,37,97,89,73,73,20,41,7,10,0.5,0.7
2023-10-06T18:00:00,1098A,123.6836,41.9339,沈阳市,森林路,,,,,,,,,,,,,,,,
2023-10-06T18:00:00,1099A,123.505,41.7406,沈阳市,浑南东路,,34,34,56,18,25,91,68,68,68,26,42,8,29,0.4,0.9
2023-10-06T18:00:00,1100A,123.4231,41.6989,沈阳市,新秀街,,28,28,69,14,22,91,72,72,72,26,46,11,52,0.5,1.1
2023-10-06T18:00:00,1102A,123.5903,41.8411,沈阳市,东陵路,,32,32,51,13,23,92,54,70,70,29,36,8,15,0.4,0.7
2023-10-06T18:00:00,1103A,123.4264,41.8467,沈阳市,陵东街,,24,24,50,10,22,94,61,75,75,26,31,8,13,0.4,0.8
2023-10-06T18:00:00,1104A,123.4114,41.7653,沈阳市,文化路,,24,24,61,9,31,93,73,74,74,24,41,9,30,0.4,1
2023-10-06T18:00:00,1105A,123.4678,41.7867,沈阳市,小河沿,,29,29,54,12,26,92,70,72,72,27,45,7,20,0.5,0.9
2023-10-06T18:00:00,1106A,123.4017,41.7972,沈阳市,太原街,,40,40,48,14,26,87,45,69,69,53,45,6,24,0.5,0.9
2023-10-06T18:00:00,1108A,123.3783,41.9228,沈阳市,京沈街,,43,43,51,14,23,94,74,82,82,7,14,8,15,0.4,0.7
2023-10-06T18:00:00,1109A,121.612,38.9741,大连市,甘井子,,46,46,29,16,10,101,85,91,91,26,22,9,7,1.0,0.7
2023-10-06T18:00:00,1110A,121.565,38.9511,大连市,周水子,,40,40,26,18,12,95,91,90,90,30,29,9,9,1.0,0.8
2023-10-06T18:00:00,1111A,121.5637,38.8845,大连市,星海三站,,31,31,24,14,9,117,88,96,96,24,19,8,7,0.7,0.7
2023-10-06T18:00:00,1112A,121.6302,38.9117,大连市,青泥洼桥,,29,29,27,13,9,110,74,88,88,36,26,8,8,0.7,0.6
2023-10-06T18:00:00,1113A,121.6251,38.8638,大连市,傅家庄,,30,30,23,11,9,117,95,98,98,22,16,7,7,0.7,0.6
2023-10-06T18:00:00,1114A,121.5213,38.8661,大连市,七贤岭,,36,29,24,14,9,121,114,109,109,21,20,7,6,0.9,0.8
2023-10-06T18:00:00,1115A,121.2529,38.8061,大连市,旅顺,,37,37,21,16,11,118,104,102,102,32,16,10,8,1.2,0.8
2023-10-06T18:00:00,1116A,121.7485,39.1311,大连市,金州,颗粒物(PM10),52,53,31,21,11,101,84,92,92,30,19,10,9,1.0,0.6
2023-10-06T18:00:00,1117A,121.7811,39.0496,大连市,开发区,,28,28,26,15,11,98,83,89,89,33,28,9,7,1.1,0.7
2023-10-06T18:00:00,1118A,121.9762,39.0631,大连市,双D港,,30,24,25,9,10,116,93,98,98,19,19,7,8,0.5,0.5
2023-10-06T18:00:00,1119A,125.3325,43.9166,长春市,食品厂,,36,36,54,20,26,75,40,61,61,34,44,7,7,0.4,0.6
2023-10-06T18:00:00,1120A,125.2863,43.9027,长春市,客车厂,,22,16,44,15,23,74,53,63,63,19,39,6,9,0.3,0.6
2023-10-06T18:00:00,1121A,125.2841,43.8463,长春市,邮电学院,,24,24,45,11,23,85,60,73,73,16,34,5,6,0.3,0.5
2023-10-06T18:00:00,1122A,125.3716,43.8772,长春市,劳动公园,,27,27,53,9,19,80,39,61,61,40,38,6,6,0.3,0.6
2023-10-06T18:00:00,1123A,125.3297,43.8805,长春市,园林处,,23,23,42,4,19,81,56,70,70,19,34,9,9,0.3,0.5
2023-10-06T18:00:00,1124A,125.4605,43.79,长春市,净月潭,,23,23,26,7,10,82,58,70,70,16,20,6,7,0.2,0.3
2023-10-06T18:00:00,1125A,125.7194,43.515,长春市,甩湾子,,,,,,,,,,,,,,,,
2023-10-06T18:00:00,1126A,125.3863,43.8447,长春市,经开区环卫处,,20,20,72,7,22,82,58,70,70,19,30,5,6,0.3,0.6
2023-10-06T18:00:00,1127A,125.245,43.7783,长春市,高新区管委会,,23,23,43,8,19,83,51,69,69,26,31,7,7,0.3,0.4
2023-10-06T18:00:00,1128A,125.1761,43.8325,长春市,岱山公园,,37,37,60,12,21,78,44,61,61,32,41,5,7,0.4,0.6
2023-10-06T18:00:00,1129A,126.5422,45.755,哈尔滨市,岭北,,18,7,20,3,11,66,56,59,59,8,14,6,8,0.3,0.4
2023-10-06T18:00:00,1130A,126.561,45.8167,哈尔滨市,松北商大,,23,22,25,8,9,59,15,51,49,46,26,6,7,0.5,0.5
2023-10-06T18:00:00,1131A,126.979,45.5419,哈尔滨市,阿城会宁,,,55,53,16,25,61,42,51,51,28,25,8,8,,1
2023-10-06T18:00:00,1132A,126.599,45.7222,哈尔滨市,南岗学府路,,25,25,31,4,10,60,36,52,52,24,32,4,5,0.5,0.6
2023-10-06T18:00:00,1133A,126.689,45.7733,哈尔滨市,太平宏伟公园,细颗粒物(PM2.5),87,18,41,64,27,64,33,54,54,28,24,5,4,0.8,0.7
2023-10-06T18:00:00,1134A,126.635,45.7667,哈尔滨市,道外承德广场,,,23,23,27,15,63,40,53,53,32,34,3,5,,0.6
2023-10-06T18:00:00,1135A,126.685,45.7319,哈尔滨市,香坊红旗大街,,21,21,34,12,10,64,44,55,55,23,33,9,11,0.4,0.5
2023-10-06T18:00:00,1136A,126.6411,45.7258,哈尔滨市,动力和平路,,23,23,26,6,9,63,36,52,52,30,35,5,6,0.3,0.4
2023-10-06T18:00:00,1137A,126.593,45.7478,哈尔滨市,道里建国路,,39,21,35,12,15,60,16,49,47,77,41,7,8,0.4,0.4
2023-10-06T18:00:00,1138A,126.615,45.61,哈尔滨市,平房东轻厂,,23,22,42,12,16,63,25,54,54,46,33,8,9,0.4,0.5
2023-10-06T18:00:00,1139A,126.595,45.9855,哈尔滨市,呼兰师专,细颗粒物(PM2.5),89,77,30,66,20,61,29,52,50,38,20,5,4,0.6,0.5
2023-10-06T18:00:00,1140A,126.6206,45.6842,哈尔滨市,省农科院,,25,25,41,13,14,64,48,58,58,22,38,7,10,0.4,0.7
2023-10-06T18:00:00,1141A,121.4,31.238,上海市,普陀,,28,26,31,8,7,89,89,83,83,12,11,4,4,0.5,0.5
2023-10-06T18:00:00,1142A,121.478,31.2036,上海市,十五厂,,42,42,33,16,8,92,88,85,85,21,18,8,9,0.7,0.5
2023-10-06T18:00:00,1143A,121.467,31.3008,上海市,虹口,,34,34,31,10,8,89,88,84,84,21,20,8,7,0.4,0.4
2023-10-06T18:00:00,1144A,121.412,31.1654,上海市,徐汇上师大,,29,29,30,12,11,91,85,84,84,18,12,9,7,0.6,0.6
2023-10-06T18:00:00,1145A,121.536,31.2659,上海市,杨浦四漂,,32,32,34,8,6,96,96,86,86,11,12,8,8,0.5,0.4
2023-10-06T18:00:00,1147A,121.425,31.2261,上海市,静安监测站,,29,26,28,12,9,94,90,87,87,21,19,4,4,0.4,0.4
2023-10-06T18:00:00,1148A,121.703,31.1907,上海市,浦东川沙,,29,29,30,9,8,92,92,88,88,12,10,6,5,0.6,0.5
2023-10-06T18:00:00,1149A,121.533,31.2284,上海市,浦东新区监测站,,28,28,28,7,5,87,87,81,81,13,13,6,7,0.5,0.4
2023-10-06T18:00:00,1150A,121.577,31.2071,上海市,浦东张江,,26,26,28,12,8,83,81,79,79,21,17,5,5,0.6,0.5
2023-10-06T18:00:00,1151A,118.8086,32.1065,南京市,迈皋桥,,24,24,25,2,3,89,72,76,76,13,17,3,5,0.3,0.3
2023-10-06T18:00:00,1152A,118.7538,32.0551,南京市,草场门,,24,24,28,9,7,83,71,74,74,20,24,4,4,0.6,0.6
2023-10-06T18:00:00,1153A,118.7794,32.0745,南京市,山西路,,36,36,35,9,8,95,76,83,83,15,19,4,6,0.2,0.2
2023-10-06T18:00:00,1154A,118.7752,32.0023,南京市,中华门,,29,29,32,12,6,89,70,81,81,16,15,4,4,0.5,0.5
2023-10-06T18:00:00,1155A,118.8109,32.0309,南京市,瑞金路,,34,34,31,7,5,82,68,75,75,17,16,7,9,0.4,0.4
2023-10-06T18:00:00,1156A,118.7997,32.0754,南京市,玄武湖,,38,38,32,7,6,85,71,75,75,14,23,6,6,0.3,0.3
2023-10-06T18:00:00,1157A,118.6414,32.0931,南京市,浦口,,,,33,,10,94,75,81,81,,17,,6,0.8,0.4
2023-10-06T18:00:00,1158A,118.7356,31.9996,南京市,奥体中心,,30,30,33,9,8,93,79,85,85,18,18,8,8,0.3,0.3
2023-10-06T18:00:00,1159A,118.9125,32.1028,南京市,仙林大学城,,24,24,31,9,5,87,71,77,77,17,23,3,3,0.5,0.5
2023-10-06T18:00:00,1160A,120.561,31.2472,苏州市,上方山,,26,24,31,12,9,92,83,82,82,7,9,4,4,0.6,0.6
2023-10-06T18:00:00,1162A,120.591,31.3019,苏州市,彩香,,30,30,34,10,9,92,82,84,84,11,11,7,7,0.5,0.5
2023-10-06T18:00:00,1163A,120.596,31.3264,苏州市,轧钢厂,,33,33,39,8,8,96,85,87,87,7,7,8,10,0.6,0.6
2023-10-06T18:00:00,1164A,120.613,31.2703,苏州市,吴中区,,32,32,35,8,7,94,84,86,86,15,13,8,9,0.6,0.6
2023-10-06T18:00:00,1165A,120.543,31.2994,苏州市,苏州新区,,28,25,32,8,8,99,88,90,90,15,18,7,8,0.5,0.5
2023-10-06T18:00:00,1166A,120.669,31.3097,苏州市,苏州工业园区,,28,28,31,8,8,96,86,86,86,14,14,7,8,0.5,0.5
2023-10-06T18:00:00,1167A,120.641,31.3708,苏州市,相城区,,29,29,35,8,8,94,83,85,85,16,18,8,9,0.5,0.5
2023-10-06T18:00:00,1168A,120.9098,31.9663,南通市,狼山街道,,27,23,28,0,5,94,84,88,88,13,16,6,6,0.2,0.2
2023-10-06T18:00:00,1169A,120.86,32.0005,南通市,虹桥,,25,22,27,10,9,89,79,84,84,14,17,6,6,0.4,0.4
2023-10-06T18:00:00,1170A,120.87,32.02,南通市,城中,,24,17,22,10,9,85,74,80,80,15,18,6,6,0.6,0.6
2023-10-06T18:00:00,1171A,120.94,31.93,南通市,星湖花园,,28,28,28,5,7,89,79,85,85,13,16,6,6,0.5,0.5
2023-10-06T18:00:00,1172A,120.81,32.0417,南通市,紫琅学院,,,24,28,,10,82,71,76,76,17,25,7,7,0.3,0.4
2023-10-06T18:00:00,1173A,119.176,34.5885,连云港市,市环境监测站,,20,19,41,9,10,83,62,53,49,29,37,6,10,0.5,0.9
2023-10-06T18:00:00,1177A,117.179,34.2761,徐州市,黄河新村,颗粒物(PM10),59,68,70,35,28,85,14,56,38,67,38,6,8,0.5,0.4
2023-10-06T18:00:00,1178A,117.1918,34.2384,徐州市,淮塔,颗粒物(PM10),58,66,66,28,24,111,3,56,45,59,29,6,9,0.6,0.5
2023-10-06T18:00:00,1180A,117.256,34.2153,徐州市,新城区,颗粒物(PM10),58,66,66,20,25,107,12,60,54,71,35,6,9,0.4,0.3
2023-10-06T18:00:00,1181A,117.244,34.2911,徐州市,桃园路,颗粒物(PM10),65,80,75,31,26,88,13,58,44,62,34,8,9,0.6,0.4
2023-10-06T18:00:00,1182A,117.2933,34.2778,徐州市,农科院,颗粒物(PM10),56,61,61,26,26,96,20,53,46,65,36,8,9,0.4,0.4
2023-10-06T18:00:00,1186A,119.389,32.3761,扬州市,邗江监测站,,34,34,38,12,12,83,68,74,74,15,16,7,10,0.2,0.2
2023-10-06T18:00:00,1188A,120.269,31.4867,无锡市,雪浪,,31,31,33,7,6,82,71,74,74,17,18,4,5,0.5,0.5
2023-10-06T18:00:00,1189A,120.275,31.6219,无锡市,黄巷,,42,42,42,9,8,81,65,74,74,25,24,8,8,0.6,0.6
2023-10-06T18:00:00,1190A,120.294,31.56,无锡市,曹张,,29,29,36,9,10,80,65,72,72,23,24,7,8,0.7,0.8
2023-10-06T18:00:00,1191A,120.242,31.5031,无锡市,漆塘,,34,34,35,7,8,86,76,79,79,20,22,7,8,0.8,0.9
2023-10-06T18:00:00,1192A,120.3489,31.5863,无锡市,东亭,,39,39,38,12,10,80,63,74,74,25,25,5,6,0.5,0.6
2023-10-06T18:00:00,1193A,120.354,31.5475,无锡市,旺庄,,31,31,36,9,10,87,71,79,79,22,23,6,7,0.7,0.8
2023-10-06T18:00:00,1194A,120.245,31.5631,无锡市,荣巷,,34,34,31,9,9,84,70,76,76,16,15,8,9,0.7,0.8
2023-10-06T18:00:00,1195A,120.299,31.6817,无锡市,堰桥,,34,34,35,7,9,82,71,77,77,17,21,8,8,0.8,0.7
2023-10-06T18:00:00,1196A,119.9633,31.762,常州市,市监测站,,37,37,40,17,16,90,75,80,80,23,19,8,9,0.4,0.5
2023-10-06T18:00:00,1200A,119.9468,31.7069,常州市,武进监测站,,36,36,39,10,9,94,82,85,85,17,16,9,11,0.6,0.7
2023-10-06T18:00:00,1201A,119.9255,31.9087,常州市,安家,,27,26,40,10,17,100,84,93,92,13,19,9,11,0.4,0.5
2023-10-06T18:00:00,1203A,119.6707,32.1875,镇江市,新区办事处,,30,30,37,11,12,90,76,81,81,15,21,6,7,0.3,0.3
2023-10-06T18:00:00,1204A,119.4974,32.1968,镇江市,职教中心,,27,27,38,13,14,82,66,74,74,15,18,3,7,0.4,0.3
2023-10-06T18:00:00,1205A,119.4303,32.1328,镇江市,丹徒区监测站,,33,33,37,13,12,89,77,82,82,13,15,2,5,0.3,0.4
2023-10-06T18:00:00,1206A,119.905,32.4878,泰州市,公园路,,27,27,31,9,14,82,67,71,71,18,18,6,9,0.4,0.4
2023-10-06T18:00:00,1207A,119.9189,32.4625,泰州市,莲花,,24,20,29,5,10,85,75,75,75,14,15,5,9,0.4,0.3
2023-10-06T18:00:00,1209A,119.888,32.4639,泰州市,留学生创业园,,24,24,38,7,11,85,74,73,73,11,13,6,11,0.5,0.5
2023-10-06T18:00:00,1210A,119.036,33.5981,淮安市,钵池山,,44,44,40,26,18,74,30,63,40,32,24,7,7,1.0,0.7
2023-10-06T18:00:00,1211A,119.007,33.575,淮安市,北京南路,,46,46,45,18,14,81,37,73,46,33,27,6,6,0.8,0.6
2023-10-06T18:00:00,1212A,118.989,33.6067,淮安市,市监测站,,41,41,47,19,18,84,31,74,42,34,30,8,9,1.0,0.7
2023-10-06T18:00:00,1213A,119.135,33.5039,淮安市,楚州区监测站,,49,49,45,22,16,74,39,59,50,32,24,6,6,0.6,0.3
2023-10-06T18:00:00,1214A,119.0186,33.6297,淮安市,淮阴区监测站,,46,46,50,26,19,80,28,66,40,34,28,7,7,1.0,0.7
2023-10-06T18:00:00,1215A,120.118,33.4022,盐城市,盐城电厂,,24,24,33,5,8,81,59,69,69,12,12,6,8,0.4,0.3
2023-10-06T18:00:00,1216A,120.156,33.3942,盐城市,市监测站,,22,22,28,11,7,85,60,72,72,18,17,6,8,0.4,0.5
2023-10-06T18:00:00,1218A,120.2144,33.38,盐城市,开发区管委会,,23,23,32,10,8,83,58,69,69,20,20,14,14,0.3,0.3
2023-10-06T18:00:00,1220A,118.293,33.9528,宿迁市,宿迁学院,,45,45,37,22,17,90,36,62,48,40,26,10,10,0.8,0.6
2023-10-06T18:00:00,1221A,118.2442,33.9592,宿迁市,宿迁中学,颗粒物(PM10),51,52,49,29,17,81,29,71,46,38,23,10,9,0.9,0.8
2023-10-06T18:00:00,1223A,120.2072,30.2111,杭州市,滨江,,35,35,40,10,10,105,78,77,77,26,22,8,8,0.3,0.3
2023-10-06T18:00:00,1224A,120.0633,30.2747,杭州市,西溪,,28,28,34,14,10,100,73,72,72,19,16,4,4,0.5,0.5
2023-10-06T18:00:00,1226A,120.3461,30.3153,杭州市,下沙,,36,36,38,17,8,91,60,70,70,31,24,6,6,0.4,0.4
2023-10-06T18:00:00,1227A,120.1269,30.2456,杭州市,卧龙桥,,38,38,35,12,12,106,54,72,71,22,18,7,8,0.5,0.5
2023-10-06T18:00:00,1228A,120.1903,30.2692,杭州市,浙江农大,,31,31,32,13,12,92,59,66,65,20,17,8,9,0.4,0.4
2023-10-06T18:00:00,1230A,120.1197,30.3119,杭州市,和睦小学,,31,31,33,14,10,98,76,73,73,23,22,8,8,0.6,0.5
2023-10-06T18:00:00,1231A,120.3019,30.4183,杭州市,临平镇,,35,35,36,18,12,84,69,74,74,26,21,5,6,0.5,0.4
2023-10-06T18:00:00,1232A,120.2697,30.1819,杭州市,城厢镇,,36,36,35,10,9,92,69,73,73,20,17,8,9,0.6,0.5
2023-10-06T18:00:00,1233A,120.0883,30.1808,杭州市,云栖,,33,33,37,9,8,113,63,70,67,15,15,6,7,0.4,0.4
2023-10-06T18:00:00,1234A,121.8358,29.911,宁波市,区环保大楼,,26,22,21,9,8,92,83,84,84,14,9,4,5,0.5,0.5
2023-10-06T18:00:00,1235A,121.56,29.82,宁波市,万里学院,,,30,30,10,8,96,78,86,86,,13,,8,0.4,0.4
2023-10-06T18:00:00,1236A,121.713,29.9572,宁波市,龙赛医院,,37,37,39,4,6,92,75,82,82,19,11,6,5,0.5,0.5
2023-10-06T18:00:00,1239A,121.633,29.7733,宁波市,钱湖水厂,,27,19,31,6,8,91,85,84,84,4,6,6,8,0.3,0.4
2023-10-06T18:00:00,1240A,121.5856,29.8635,宁波市,太古小学,,28,28,27,12,6,88,70,81,80,16,10,7,7,0.7,0.6
2023-10-06T18:00:00,1241A,121.524,29.8674,宁波市,市环境监测中心,,33,33,29,6,4,96,79,86,86,14,9,6,7,0.4,0.4
2023-10-06T18:00:00,1242A,120.634,28.0089,温州市,瓯海,,31,31,30,15,13,88,52,79,58,13,8,6,6,0.4,0.4
2023-10-06T18:00:00,1243A,120.6748,27.9939,温州市,南浦,,25,25,26,13,11,90,51,84,58,18,12,5,5,0.5,0.4
2023-10-06T18:00:00,1244A,120.76,27.9747,温州市,龙湾,颗粒物(PM10),52,54,28,32,10,89,53,80,65,27,12,4,4,0.5,0.4
2023-10-06T18:00:00,1245A,120.6709,28.0167,温州市,市站,,32,32,29,17,14,79,44,77,54,26,15,6,6,0.5,0.4
2023-10-06T18:00:00,1247A,120.6053,29.9928,绍兴市,城东开发委,,33,33,35,11,9,88,72,74,74,14,15,7,9,0.4,0.4
2023-10-06T18:00:00,1250A,120.0751,30.8669,湖州市,城西水厂,,38,38,33,12,8,102,87,95,95,27,15,3,4,0.4,0.3
2023-10-06T18:00:00,1252A,120.7436,30.778,嘉兴市,清河小学,,37,37,36,10,6,84,70,74,74,21,17,5,4,0.5,0.5
2023-10-06T18:00:00,1253A,120.726,30.7478,嘉兴市,嘉兴学院,,38,38,35,13,9,83,67,72,72,19,14,4,5,0.5,0.4
2023-10-06T18:00:00,1255A,121.273,28.6459,台州市,黄岩环保大楼,,25,25,30,11,10,86,70,80,70,16,13,6,6,0.5,0.4
2023-10-06T18:00:00,1256A,121.419,28.6542,台州市,台州环保大楼,,25,19,28,6,8,84,79,81,75,8,8,4,4,0.5,0.5
2023-10-06T18:00:00,1257A,121.377,28.5773,台州市,路桥田洋王,,23,22,30,16,8,82,66,79,69,14,9,5,6,0.4,0.3
2023-10-06T18:00:00,1258A,122.122,30.0203,舟山市,定海檀枫,,30,30,30,8,5,85,81,79,79,11,8,6,6,0.3,0.3
2023-10-06T18:00:00,1259A,122.3094,29.9558,舟山市,普陀东港,,26,24,25,12,4,88,82,83,83,11,9,5,5,0.4,0.3
2023-10-06T18:00:00,1260A,122.19,29.9944,舟山市,临城新区,,27,22,25,5,4,88,86,84,84,8,6,6,5,0.3,0.3
2023-10-06T18:00:00,1262A,119.647,29.077,金华市,十五中,,33,33,41,13,11,96,66,82,62,21,20,4,4,0.5,0.4
2023-10-06T18:00:00,1263A,119.686,29.1029,金华市,监测站,,30,30,37,15,12,99,67,79,63,17,18,4,5,0.5,0.4
2023-10-06T18:00:00,1264A,118.8692,28.9398,衢州市,环保大楼,,36,36,38,18,15,91,52,82,57,18,13,3,4,0.5,0.4
2023-10-06T18:00:00,1265A,118.8709,28.9666,衢州市,实验学校,,35,35,35,15,15,97,49,89,61,21,14,2,3,0.5,0.5
2023-10-06T18:00:00,1266A,118.8621,28.9808,衢州市,衢州学院,,27,27,35,11,12,91,48,83,59,22,16,1,3,0.4,0.3
2023-10-06T18:00:00,1267A,119.914,28.4514,丽水市,监测站大楼,,38,16,29,26,10,84,54,82,64,17,11,5,7,0.4,0.3
2023-10-06T18:00:00,1268A,119.93,28.4586,丽水市,莲都小学,,23,23,28,12,5,85,59,81,66,15,12,5,6,0.4,0.4
2023-10-06T18:00:00,1269A,119.879,28.4231,丽水市,余庄前,,21,21,25,5,11,90,36,85,57,24,15,6,6,0.4,0.3
2023-10-06T18:00:00,1270A,117.1959,31.7848,合肥市,明珠广场,,41,41,39,14,9,103,69,80,80,24,21,8,7,0.6,0.6
2023-10-06T18:00:00,1271A,117.3072,31.8764,合肥市,三里街,,,,,,,,,,,,,,,,
2023-10-06T18:00:00,1272A,117.2588,31.8707,合肥市,琥珀山庄,,39,39,35,12,9,90,60,80,80,30,17,6,6,0.6,0.5
2023-10-06T18:00:00,1273A,117.1604,31.9052,合肥市,董铺水库,,48,48,40,7,4,94,64,82,81,24,13,5,5,0.5,0.3
2023-10-06T18:00:00,1274A,117.25,31.8571,合肥市,长江中路,,36,36,42,17,16,94,62,79,79,23,15,8,8,0.7,0.6
2023-10-06T18:00:00,1275A,117.266,31.9436,合肥市,庐阳区,颗粒物(PM10),54,57,40,19,12,91,53,78,77,26,11,5,4,0.5,0.4
2023-10-06T18:00:00,1276A,117.336,31.8586,合肥市,瑶海区,,44,44,46,7,8,87,63,76,74,17,14,5,5,0.5,0.5
2023-10-06T18:00:00,1277A,117.3027,31.7964,合肥市,包河区,,39,39,41,9,9,81,53,69,69,36,34,5,5,0.4,0.4
2023-10-06T18:00:00,1278A,117.2776,31.7385,合肥市,滨湖新区,,31,31,38,7,8,98,72,80,80,17,15,6,6,0.4,0.4
2023-10-06T18:00:00,1279A,117.1318,31.8403,合肥市,高新区,,36,36,39,22,10,97,62,80,79,28,17,8,8,0.5,0.4
2023-10-06T18:00:00,1280A,119.3903,26.0543,福州市,鼓山,,,,,,,,,,,,,,,,
2023-10-06T18:00:00,1282A,119.2681,26.0504,福州市,师大,,23,23,23,8,9,115,73,91,70,10,7,5,5,0.4,0.4
2023-10-06T18:00:00,1283A,119.2984,26.1028,福州市,五四北路,,24,24,23,8,7,114,73,88,72,10,9,3,3,0.3,0.4
2023-10-06T18:00:00,1284A,119.2648,26.0768,福州市,杨桥西路,,29,29,24,8,8,115,72,90,71,9,7,3,3,0.4,0.5
2023-10-06T18:00:00,1285A,119.317,26.0746,福州市,紫阳,,24,24,20,9,8,111,74,87,73,8,6,4,4,0.4,0.5
2023-10-06T18:00:00,1286A,118.1608,24.8169,厦门市,溪东,,,,,,,,,,,,,,,,
2023-10-06T18:00:00,1287A,118.1514,24.4767,厦门市,洪文,,39,39,20,14,7,95,57,82,67,16,5,4,2,0.3,0.3
2023-10-06T18:00:00,1288A,118.0661,24.4444,厦门市,鼓浪屿,,22,22,14,9,5,89,61,79,68,12,6,3,1,0.3,0.3
2023-10-06T18:00:00,1290A,115.8931,28.6843,南昌市,省外办,,38,38,54,17,19,120,70,81,73,10,13,2,6,0.5,0.6
2023-10-06T18:00:00,1291A,115.8886,28.7003,南昌市,省林业公司,,28,24,47,19,19,127,82,87,85,10,6,4,7,0.5,0.6
2023-10-06T18:00:00,1292A,115.8126,28.7442,南昌市,林科所,,34,34,42,14,13,137,79,106,84,5,8,7,8,0.3,0.4
2023-10-06T18:00:00,1294A,115.8518,28.687,南昌市,建工学校,,32,32,48,18,20,124,77,88,81,9,14,7,8,0.3,0.4
2023-10-06T18:00:00,1295A,115.8921,28.6424,南昌市,象湖,,37,37,45,15,18,133,83,88,86,8,11,5,7,0.4,0.5
2023-10-06T18:00:00,1296A,115.7423,28.7996,南昌市,武术学校,,29,15,29,14,13,134,91,93,93,8,13,1,5,0.2,0.4
2023-10-06T18:00:00,1298A,115.9314,28.6842,南昌市,省站,,41,41,57,14,17,128,79,88,83,10,10,5,7,0.5,0.6
2023-10-06T18:00:00,1299A,116.9862,36.6114,济南市,科干所,颗粒物(PM10),58,66,62,29,19,109,86,92,92,24,37,9,8,0.6,0.5
2023-10-06T18:00:00,1300A,116.9376,36.665,济南市,农科所,颗粒物(PM10),55,59,68,20,19,92,67,74,74,29,50,7,6,0.8,0.5
2023-10-06T18:00:00,1301A,117.1265,36.6734,济南市,开发区,颗粒物(PM10),62,73,56,29,17,102,86,88,88,34,45,12,9,0.7,0.5
2023-10-06T18:00:00,1303A,117.0624,36.6868,济南市,省种子仓库,颗粒物(PM10),59,68,69,22,16,114,99,97,97,28,47,9,7,0.6,0.4
2023-10-06T18:00:00,1304A,116.9489,36.6447,济南市,机床二厂,颗粒物(PM10),70,90,81,27,21,109,88,91,91,33,51,10,7,0.7,0.5
2023-10-06T18:00:00,1305A,117.0495,36.663,济南市,市监测站,颗粒物(PM10),62,73,66,29,19,109,94,98,98,42,50,9,6,0.6,0.4
2023-10-06T18:00:00,1306A,116.7675,36.5484,济南市,长清党校,颗粒物(PM10),67,83,80,27,26,103,97,95,95,24,50,12,8,0.6,0.5
2023-10-06T18:00:00,1307A,120.6659,36.2403,青岛市,仰口,,23,17,19,12,8,86,71,77,76,7,8,4,4,0.3,0.3
2023-10-06T18:00:00,1310A,120.4134,36.0658,青岛市,市南区东部子站,,29,29,30,7,6,95,79,83,83,28,25,7,6,0.5,0.4
2023-10-06T18:00:00,1311A,120.3664,36.1032,青岛市,四方区子站,,29,29,30,7,6,88,66,73,71,41,24,7,7,0.4,0.4
2023-10-06T18:00:00,1312A,120.2994,36.054,青岛市,市南区西部子站,,,48,34,7,6,87,54,71,71,46,27,8,7,,0.6
2023-10-06T18:00:00,1313A,120.4581,36.0858,青岛市,崂山区子站,,27,27,30,5,7,99,70,80,80,29,20,7,7,0.5,0.4
2023-10-06T18:00:00,1314A,120.1983,35.9608,青岛市,黄岛区子站,,41,41,33,10,7,91,61,71,71,37,35,6,8,0.4,0.3
2023-10-06T18:00:00,1315A,120.3999,36.3083,青岛市,城阳区子站,,41,41,39,15,13,95,53,76,76,56,32,8,7,0.6,0.5
2023-10-06T18:00:00,1316A,113.69031,34.76122,郑州市,烟厂,,26,26,46,14,17,71,52,57,57,36,31,6,9,0.6,0.7
2023-10-06T18:00:00,1317A,113.65724,34.77134,郑州市,郑纺机,,32,32,42,12,15,73,57,62,62,33,34,7,9,0.6,0.8
2023-10-06T18:00:00,1318A,113.67526,34.80246,郑州市,银行学校,,25,25,40,7,14,73,60,61,61,26,26,6,10,0.4,0.6
2023-10-06T18:00:00,1319A,113.56746,34.81334,郑州市,供水公司,,29,29,37,16,18,74,55,63,62,36,33,10,9,0.6,0.6
2023-10-06T18:00:00,1320A,113.7329,34.7178,郑州市,经开区管委,,24,24,42,8,19,74,66,59,59,22,29,6,10,0.3,0.5
2023-10-06T18:00:00,1321A,113.73961,34.77172,郑州市,四十七中,,20,20,38,7,9,65,61,58,58,28,32,5,10,0.5,0.7
2023-10-06T18:00:00,1322A,113.60532,34.74838,郑州市,市监测站,颗粒物(PM10),52,53,51,22,21,64,48,57,57,36,33,12,11,0.5,0.6
2023-10-06T18:00:00,1323A,113.64164,34.7525,郑州市,河医大,,33,33,46,13,14,60,48,54,53,39,36,11,13,0.6,0.8
2023-10-06T18:00:00,1324A,113.51488,34.91089,郑州市,岗李水库,,,,,,,,,,,,,,,,
2023-10-06T18:00:00,1325A,114.3677,30.5584,武汉市,东湖梨园,,24,22,26,5,13,106,75,92,90,10,15,9,10,0.2,0.7
2023-10-06T18:00:00,1326A,114.2529,30.558,武汉市,汉阳月湖,,27,27,32,7,13,97,69,84,84,16,18,6,6,0.4,0.5
2023-10-06T18:00:00,1327A,114.282,30.6189,武汉市,汉口花桥,,29,29,31,7,14,97,66,84,84,15,14,7,7,0.4,0.4
2023-10-06T18:00:00,1328A,114.3025,30.5332,武汉市,武昌紫阳,,24,24,29,9,14,107,72,90,90,15,16,8,9,0.5,0.6
2023-10-06T18:00:00,1329A,114.3646,30.6217,武汉市,青山钢花,,30,30,30,14,18,97,69,84,84,12,16,8,8,0.3,0.3
2023-10-06T18:00:00,1330A,114.1566,30.4825,武汉市,沌口新区,,29,29,31,2,10,109,69,90,90,16,16,8,8,0.3,0.4
2023-10-06T18:00:00,1331A,114.3014,30.5944,武汉市,汉口江滩,,23,22,31,13,12,104,73,90,90,14,13,7,7,0.3,0.3
2023-10-06T18:00:00,1333A,114.135,30.6319,武汉市,吴家山,,23,23,26,7,14,107,64,90,88,15,12,6,7,0.4,0.4
2023-10-06T18:00:00,1334A,113.8454,30.2917,武汉市,沉湖七壕,,34,34,37,10,16,122,68,98,98,17,20,6,5,0.6,0.6
2023-10-06T18:00:00,1335A,113.0833,28.2325,长沙市,经开区环保局,颗粒物(PM10),61,72,62,25,32,98,73,79,79,19,21,7,6,0.3,0.5
2023-10-06T18:00:00,1336A,112.8872,28.2189,长沙市,高开区环保局,颗粒物(PM10),51,52,51,29,31,96,65,76,76,12,11,8,7,0.6,0.6
2023-10-06T18:00:00,1337A,113.0792,28.2053,长沙市,马坡岭,颗粒物(PM10),61,71,65,26,33,105,78,88,88,14,14,8,7,0.5,0.6
2023-10-06T18:00:00,1338A,112.9394,28.19,长沙市,湖南师范大学,颗粒物(PM10),58,65,54,31,34,99,68,80,80,13,10,7,6,0.6,0.6
2023-10-06T18:00:00,1339A,113.0178,28.1322,长沙市,雨花区环保局,颗粒物(PM10),56,61,55,29,29,97,68,84,84,17,17,6,6,0.7,0.6
2023-10-06T18:00:00,1340A,112.9792,28.2597,长沙市,伍家岭,,,,52,,28,101,74,80,80,16,16,7,6,0.6,0.6
2023-10-06T18:00:00,1341A,113.0014,28.1944,长沙市,火车新站,颗粒物(PM10),62,74,62,31,36,98,70,83,83,17,15,6,6,0.6,0.7
2023-10-06T18:00:00,1342A,112.9844,28.1178,长沙市,天心区环保局,,,,58,,32,96,67,82,79,19,16,5,4,0.5,0.6
2023-10-06T18:00:00,1343A,112.8908,28.1308,长沙市,湖南中医药大学,颗粒物(PM10),61,71,65,38,34,96,69,80,80,10,9,4,3,0.8,0.8
2023-10-06T18:00:00,1344A,112.9581,28.3611,长沙市,沙坪,,36,36,57,23,26,79,58,62,62,9,10,9,9,0.4,0.4
2023-10-06T18:00:00,1345A,113.2347,23.1423,广州市,广雅中学,,50,50,36,27,17,145,101,124,124,25,22,5,4,0.7,0.7
2023-10-06T18:00:00,1346A,113.2612,23.105,广州市,市五中,,41,41,30,26,18,151,111,134,133,15,12,7,7,0.6,0.7
2023-10-06T18:00:00,1348A,113.3478,23.0916,广州市,广东商学院,颗粒物(PM10),51,52,30,27,15,135,99,119,119,13,12,4,4,0.5,0.5
2023-10-06T18:00:00,1349A,113.4332,23.1047,广州市,市八十六中,,38,38,32,18,13,142,100,124,123,10,12,5,5,0.5,0.5
2023-10-06T18:00:00,1350A,113.3505,22.9483,广州市,番禺中学,,37,37,29,19,11,154,108,137,137,18,18,9,8,0.7,0.7
2023-10-06T18:00:00,1351A,113.2146,23.3916,广州市,花都师范,,44,44,24,24,14,139,113,129,129,15,14,6,6,0.7,0.6
2023-10-06T18:00:00,1352A,113.2597,23.1331,广州市,市监测站,,48,48,33,21,16,148,106,128,128,20,19,4,4,0.7,0.6
2023-10-06T18:00:00,1353A,113.5618,23.312,广州市,九龙镇镇龙,,37,37,23,19,13,113,94,107,105,9,8,5,5,0.6,0.6
2023-10-06T18:00:00,1354A,113.2765,23.1544,广州市,麓湖,,39,39,30,22,14,148,107,129,129,16,15,7,7,0.6,0.6
2023-10-06T18:00:00,1355A,113.443,23.3035,广州市,帽峰山森林公园,,40,40,24,26,14,126,99,118,116,12,10,7,7,0.5,0.5
2023-10-06T18:00:00,1356A,114.1063,22.5545,深圳市,通心岭子站,,28,28,27,13,13,129,84,117,116,16,13,4,3,0.7,0.7
2023-10-06T18:00:00,1357A,114.117,22.5625,深圳市,洪湖,,38,38,29,16,11,115,79,106,105,18,13,6,6,0.2,0.3
2023-10-06T18:00:00,1358A,113.987,22.5417,深圳市,华侨城,,28,28,26,10,11,142,81,120,120,17,15,8,8,0.9,0.9
2023-10-06T18:00:00,1359A,113.9181,22.5171,深圳市,南海子站,,43,43,36,13,13,144,82,121,121,14,12,5,5,0.6,0.6
2023-10-06T18:00:00,1360A,114.2458,22.5689,深圳市,盐田,,32,32,23,16,12,113,84,103,101,14,10,5,5,0.7,0.7
2023-10-06T18:00:00,1361A,114.2283,22.7244,深圳市,龙岗,,30,30,23,13,12,110,83,98,96,10,10,7,8,0.6,0.6
2023-10-06T18:00:00,1363A,114.494,22.5422,深圳市,南澳,,34,34,18,14,6,112,97,101,101,15,9,5,4,0.6,0.6
2023-10-06T18:00:00,1364A,114.41,22.6342,深圳市,葵涌,,33,33,26,13,10,104,91,97,97,16,11,7,6,0.6,0.6
2023-10-06T18:00:00,1365A,114.297,22.5978,深圳市,梅沙,,36,36,27,17,11,102,93,96,96,16,9,6,6,0.9,0.8
2023-10-06T18:00:00,1366A,114.0678,22.738,深圳市,观澜,,,42,34,14,12,144,88,118,115,23,19,,9,0.8,0.9
2023-10-06T18:00:00,1367A,113.5814,22.2618,珠海市,吉大,,44,40,30,18,11,206,138,171,171,10,10,6,6,0.7,0.7
2023-10-06T18:00:00,1368A,113.4881,22.2335,珠海市,前山,,44,38,23,22,20,188,138,155,155,18,11,8,6,0.5,0.5
2023-10-06T18:00:00,1369A,113.628,22.4251,珠海市,唐家,,37,37,29,16,11,188,106,150,150,14,14,6,6,0.4,0.5
2023-10-06T18:00:00,1370A,113.299,22.2281,珠海市,斗门,臭氧1小时,92,43,23,31,15,208,193,180,180,23,16,9,8,0.8,0.7
2023-10-06T18:00:00,1371A,113.1294,23.0067,佛山市,湾梁,,41,31,25,19,15,166,130,146,146,11,11,8,8,0.6,0.6
2023-10-06T18:00:00,1372A,113.1083,23.0478,佛山市,华材职中,,39,36,28,20,15,161,124,142,142,13,12,8,7,0.5,0.5
2023-10-06T18:00:00,1373A,113.144,23.0453,佛山市,南海气象局,,43,43,30,21,17,149,116,130,130,16,15,6,6,0.6,0.5
2023-10-06T18:00:00,1374A,113.2881,22.8094,佛山市,顺德苏岗,,36,36,28,19,14,164,112,140,140,15,12,8,8,0.7,0.7
2023-10-06T18:00:00,1376A,112.8383,22.8678,佛山市,高明孔堂,,40,24,33,20,14,168,126,145,145,17,18,6,7,0.7,0.8
2023-10-06T18:00:00,1377A,112.8836,23.1588,佛山市,三水监测站,,44,44,29,15,7,142,106,128,125,14,13,3,4,0.7,0.7
2023-10-06T18:00:00,1378A,112.867,23.185,佛山市,三水云东海,,40,40,26,18,14,137,99,117,117,12,11,4,5,0.5,0.6
2023-10-06T18:00:00,1379A,113.3769,22.5211,中山市,华柏园,,43,40,30,22,17,196,136,163,163,20,17,7,8,0.4,0.4
2023-10-06T18:00:00,1380A,113.3881,22.5497,中山市,张溪,,41,38,35,24,15,194,129,158,158,15,14,3,4,0.7,0.7
2023-10-06T18:00:00,1381A,113.4075,22.5111,中山市,紫马岭,,42,39,32,22,17,193,133,159,159,14,14,4,4,0.5,0.5
2023-10-06T18:00:00,1382A,113.4411,22.4853,中山市,长江旅游区,,,,,,,,,,,,,,,,
2023-10-06T18:00:00,1383A,113.1064,22.6058,江门市,北街,,48,48,35,28,17,218,142,172,172,21,17,8,7,0.6,0.6
2023-10-06T18:00:00,1384A,113.0731,22.5835,江门市,西区,颗粒物(PM10),55,60,34,25,15,217,152,174,174,19,16,8,6,0.5,0.5
2023-10-06T18:00:00,1385A,113.0219,22.5311,江门市,圭峰西,,49,38,31,20,10,209,155,175,175,18,16,6,5,0.6,0.6
2023-10-06T18:00:00,1386A,113.0828,22.5947,江门市,东湖,,50,50,31,20,14,222,154,180,180,16,14,8,7,0.6,0.6
2023-10-06T18:00:00,1389A,113.7547,23.0494,东莞市,莞城梨川,,32,32,22,17,13,119,88,106,106,12,9,6,6,0.7,0.6
2023-10-06T18:00:00,1390A,113.7944,23.0128,东莞市,东城石井,,28,28,23,14,12,132,87,111,110,12,10,4,4,0.7,0.8
2023-10-06T18:00:00,1391A,113.7383,22.9658,东莞市,南城西平,,27,27,22,15,12,127,82,106,105,17,15,2,3,0.7,0.7
2023-10-06T18:00:00,1392A,114.4183,23.0528,惠州市,河南岸金山湖子站,,40,40,32,19,15,101,83,94,94,15,13,6,7,0.6,0.6
2023-10-06T18:00:00,1393A,114.4053,23.0822,惠州市,下埔横江三路子站,,34,34,27,20,15,101,85,94,94,10,11,7,7,0.6,0.7
2023-10-06T18:00:00,1394A,114.4103,23.1142,惠州市,江北云山西路子站,,35,35,28,21,16,108,89,99,99,6,6,7,7,0.8,0.8
2023-10-06T18:00:00,1395A,114.4645,22.7833,惠州市,惠阳区承修路船湖子站,,43,43,31,22,15,88,80,84,83,11,9,4,5,0.8,0.8
2023-10-06T18:00:00,1396A,114.5317,22.7422,惠州市,大亚湾管委会子站,,42,42,27,22,15,95,89,90,90,17,10,7,6,0.6,0.6
2023-10-06T18:00:00,1397A,112.4267,23.0706,肇庆市,睦岗子站,,,33,19,17,12,111,89,103,100,,12,4,3,0.5,0.5
2023-10-06T18:00:00,1398A,112.4645,23.0475,肇庆市,城中子站,,29,22,16,15,11,124,91,106,106,9,10,5,6,0.6,0.6
2023-10-06T18:00:00,1399A,112.5544,23.1522,肇庆市,坑口子站,,28,25,16,18,12,120,87,101,101,10,12,4,4,0.5,0.6
2023-10-06T18:00:00,1400A,112.4753,23.1,肇庆市,七星岩子站,,,,,,,,,,,,,,,,
2023-10-06T18:00:00,1401A,108.3103,22.7881,南宁市,二十一中,,38,24,26,14,16,142,121,115,115,10,8,6,7,0.8,0.8
2023-10-06T18:00:00,1402A,108.3141,22.8528,南宁市,北湖,,35,35,30,19,19,133,99,110,110,10,10,6,7,0.7,0.7
2023-10-06T18:00:00,1403A,108.3206,22.8225,南宁市,市监测站,,33,31,30,16,19,141,105,113,113,27,16,10,10,0.8,0.8
2023-10-06T18:00:00,1404A,108.3829,22.8037,南宁市,大自然花园,,34,25,31,17,21,115,106,115,111,14,13,8,6,0.7,0.7
2023-10-06T18:00:00,1405A,108.4394,22.7904,南宁市,仙葫,,34,34,25,15,15,116,104,100,100,18,14,9,7,0.6,0.5
2023-10-06T18:00:00,1406A,108.2397,22.8467,南宁市,区农职院,,42,42,32,18,19,151,121,120,120,14,13,7,9,0.8,0.7
2023-10-06T18:00:00,1407A,108.3275,22.735,南宁市,英华嘉园,,32,26,31,16,19,123,102,100,100,18,11,6,7,0.7,0.7
2023-10-06T18:00:00,1408A,108.2257,22.7757,南宁市,沙井镇街道办,,40,40,31,16,18,168,120,120,120,24,21,6,6,0.9,0.8
2023-10-06T18:00:00,1409A,110.576,19.9507,海口市,东寨港,,,,,,,,,,,,,,,,
2023-10-06T18:00:00,1410A,110.3232,20.0574,海口市,海南大学,,38,20,26,16,19,121,121,98,98,11,16,7,7,0.6,0.6
2023-10-06T18:00:00,1411A,110.283,20.0053,海口市,秀英海南医院,,,25,28,16,22,110,109,93,93,10,23,,6,0.6,0.5
2023-10-06T18:00:00,1412A,110.338,19.9969,海口市,海南师范大学,,,20,26,15,20,118,118,97,97,8,15,6,5,,0.4
2023-10-06T18:00:00,1413A,110.33,20.0356,海口市,龙华路环保局宿舍,,37,22,26,15,20,116,116,92,92,8,14,8,8,0.4,0.4
2023-10-06T18:00:00,1414A,106.3787,29.8279,重庆市,缙云山,,19,7,9,6,5,61,60,57,51,6,7,6,6,0.2,0.2
2023-10-06T18:00:00,1416A,106.4213,29.8253,重庆市,天生,,16,6,18,9,13,50,50,41,41,15,20,5,5,0.6,0.7
2023-10-06T18:00:00,1417A,106.6263,29.7228,重庆市,两路,,12,6,8,5,8,51,38,46,42,24,14,4,5,0.9,0.8
2023-10-06T18:00:00,1418A,106.2953,29.5983,重庆市,虎溪,,11,11,13,2,5,48,33,41,40,19,15,4,5,0.6,0.6
2023-10-06T18:00:00,1419A,106.5777,29.5102,重庆市,南坪,,25,25,22,15,11,43,21,34,32,48,29,6,6,0.7,0.5
2023-10-06T18:00:00,1420A,106.6556,29.6277,重庆市,唐家沱,,17,8,10,8,8,60,52,50,50,19,15,5,5,0.7,0.7
2023-10-06T18:00:00,1421A,106.6349,29.4906,重庆市,茶园,,17,6,11,9,7,59,45,55,50,34,20,5,5,0.9,0.8
2023-10-06T18:00:00,1422A,106.3754,29.4572,重庆市,白市驿,,15,6,10,5,10,50,47,44,44,18,19,6,6,0.7,0.6
2023-10-06T18:00:00,1425A,106.6205,29.7166,重庆市,空港,,18,18,12,8,10,66,57,60,60,18,13,4,4,0.9,0.8
2023-10-06T18:00:00,1426A,106.4782,29.4875,重庆市,新山村,,22,18,21,13,14,45,31,41,34,43,30,6,6,0.9,0.7
2023-10-06T18:00:00,1427A,106.5616,29.6453,重庆市,礼嘉,,16,6,9,8,10,59,36,50,48,32,12,7,7,0.8,0.7
2023-10-06T18:00:00,1428A,106.4522,29.7091,重庆市,蔡家,,19,19,16,8,10,44,44,39,39,17,22,6,6,0.8,0.8
2023-10-06T18:00:00,1429A,106.5093,29.3917,重庆市,鱼新街,,23,10,13,8,10,53,36,47,40,46,27,5,5,0.9,0.8
2023-10-06T18:00:00,1431A,103.9728,30.7236,成都市,金泉两河,,10,9,14,1,6,60,30,55,44,10,10,1,1,0.5,0.4
2023-10-06T18:00:00,1432A,104.176,30.6872,成都市,十里店,,15,15,11,9,4,59,39,56,52,25,11,3,3,0.6,0.5
2023-10-06T18:00:00,1433A,104.079,30.5706,成都市,三瓦窑,,38,38,14,14,5,65,34,58,52,27,11,2,1,0.6,0.4
2023-10-06T18:00:00,1434A,104.1114,30.63,成都市,沙河铺,,23,18,17,16,6,58,30,55,47,18,10,3,2,0.7,0.5
2023-10-06T18:00:00,1437A,104.0786,30.6531,成都市,君平街,,20,17,10,14,8,66,37,59,55,22,14,2,3,0.7,0.5
2023-10-06T18:00:00,1438A,103.613,31.0283,成都市,灵岩寺,,12,7,4,6,3,54,36,54,42,11,8,4,4,0.7,0.7
2023-10-06T18:00:00,1439A,106.6899,26.5998,贵阳市,马鞍山,,13,12,13,0,4,45,39,38,36,8,7,4,4,0.7,0.7
2023-10-06T18:00:00,1440A,106.6971,26.5694,贵阳市,市环保站,,14,2,10,8,9,44,44,42,42,15,12,2,2,0.4,0.3
2023-10-06T18:00:00,1441A,106.6243,26.6266,贵阳市,鉴湖路,,13,9,19,0,9,47,41,37,37,6,6,4,3,0.5,0.5
2023-10-06T18:00:00,1442A,106.7487,26.6343,贵阳市,燕子冲,,17,17,13,7,9,46,31,36,35,13,7,5,5,0.5,0.4
2023-10-06T18:00:00,1443A,106.6555,26.4365,贵阳市,碧云窝,,14,14,18,7,6,41,34,37,37,15,11,4,4,0.7,0.7
2023-10-06T18:00:00,1444A,106.694,26.5161,贵阳市,中院村,,27,27,19,7,8,38,36,35,35,18,13,7,7,0.5,0.4
2023-10-06T18:00:00,1445A,106.7109,26.6027,贵阳市,红边门,,14,14,15,9,12,43,43,35,35,8,8,3,3,0.5,0.5
2023-10-06T18:00:00,1446A,106.7164,26.5699,贵阳市,新华路,,18,12,16,12,8,49,44,46,46,14,9,5,5,0.4,0.4
2023-10-06T18:00:00,1447A,106.674,26.5424,贵阳市,太慈桥,,11,5,12,5,7,39,35,33,33,14,11,4,3,0.4,0.4
2023-10-06T18:00:00,1450A,102.8204,24.8886,昆明市,呈贡新区,,35,35,18,11,9,72,41,59,59,28,20,8,8,0.6,0.6
2023-10-06T18:00:00,1451A,102.6251,24.9608,昆明市,西山森林公园,,17,10,11,8,9,68,54,60,60,8,10,6,9,0.5,0.5
2023-10-06T18:00:00,1452A,102.7252,25.0902,昆明市,龙泉镇,,21,21,24,12,11,77,41,62,62,16,21,8,10,0.7,0.6
2023-10-06T18:00:00,1453A,102.7266,25.0375,昆明市,东风东路,,18,13,19,11,9,78,55,63,63,12,13,6,8,0.5,0.8
2023-10-06T18:00:00,1454A,102.6742,25.0669,昆明市,金鼎山,,16,11,23,7,8,74,51,64,62,23,18,12,12,0.5,0.5
2023-10-06T18:00:00,1455A,102.6644,25.0401,昆明市,碧鸡广场,,18,12,23,8,10,74,55,62,62,15,18,6,9,0.5,0.5
2023-10-06T18:00:00,1456A,91.1319,29.6514,拉萨市,八廓街,,,11,23,5,9,111,111,93,93,,17,7,7,0.2,0.3
2023-10-06T18:00:00,1457A,91.1221,29.6747,拉萨市,市环保局,,36,14,18,6,7,113,113,92,92,10,14,6,7,0,0.2
2023-10-06T18:00:00,1458A,91.0874,29.6475,拉萨市,区监测站,,33,10,18,4,7,106,105,86,86,9,13,9,9,0.3,0.3
2023-10-06T18:00:00,1459A,91.1774,29.6541,拉萨市,西藏大学,,34,11,14,7,7,108,108,90,90,6,10,8,8,0.2,0.4
2023-10-06T18:00:00,1460A,90.9798,29.6588,拉萨市,区辐射站,,31,16,20,7,7,102,99,83,83,15,17,6,7,0.3,0.3
2023-10-06T18:00:00,1461A,91.0834,29.6292,拉萨市,拉萨火车站,,31,10,15,5,7,99,97,80,80,6,10,6,6,0.2,0.2
2023-10-06T18:00:00,1462A,108.882,34.2749,西安市,高压开关厂,,39,39,25,13,12,74,41,68,48,33,19,7,6,0.6,0.5
2023-10-06T18:00:00,1463A,108.993,34.2629,西安市,兴庆小区,,30,30,18,14,12,67,39,63,37,23,16,6,6,0.5,0.5
2023-10-06T18:00:00,1464A,109.06,34.2572,西安市,纺织城,,,31,21,21,16,67,33,63,38,,20,5,5,0.6,0.5
2023-10-06T18:00:00,1465A,108.9356,34.2173,西安市,小寨,,25,25,19,11,9,64,36,61,45,27,15,6,6,0.6,0.5
2023-10-06T18:00:00,1466A,108.954,34.2713,西安市,市人民体育场,,25,25,21,14,12,67,28,63,38,25,17,5,5,0.5,0.4
2023-10-06T18:00:00,1467A,108.8922,34.2322,西安市,高新西区,,26,23,19,18,13,70,45,65,47,28,13,5,5,0.5,0.4
2023-10-06T18:00:00,1468A,108.935,34.3474,西安市,经开区,,27,27,19,14,8,68,43,64,41,17,10,3,3,0.4,0.3
2023-10-06T18:00:00,1469A,108.906,34.1546,西安市,长安区,,22,22,20,14,11,70,57,68,61,14,10,5,5,0.4,0.5
2023-10-06T18:00:00,1471A,109.2186,34.3731,西安市,临潼区,,26,18,23,18,16,62,36,56,42,17,10,5,5,0.6,0.5
2023-10-06T18:00:00,1472A,108.869,34.378,西安市,草滩,,28,28,19,16,12,70,41,68,50,24,9,3,3,0,0
2023-10-06T18:00:00,1473A,108.985,34.1978,西安市,曲江文化产业集团,,32,32,19,15,11,62,33,60,46,32,16,4,4,0.6,0.4
2023-10-06T18:00:00,1474A,109.051,34.3213,西安市,广运潭,,29,29,20,15,10,66,34,57,34,22,16,6,7,0.5,0.4
2023-10-06T18:00:00,1476A,103.631,36.1031,兰州市,兰炼宾馆,,43,43,34,24,29,80,64,56,56,38,39,4,5,0.6,0.6
2023-10-06T18:00:00,1477A,104.1373,35.9454,兰州市,榆中兰大校区,,,,,,,,,,,,,,,,
2023-10-06T18:00:00,1478A,103.8412,36.0726,兰州市,生物制品所,,49,37,27,34,28,74,74,48,48,26,35,6,5,0.5,0.5
2023-10-06T18:00:00,1479A,103.831,36.0464,兰州市,铁路设计院,细颗粒物(PM2.5),52,46,34,36,28,66,64,47,47,43,44,6,5,0.6,0.6
2023-10-06T18:00:00,1483A,101.524,36.6867,西宁市,第五水厂,,,,,,,,,,,,,,,,
2023-10-06T18:00:00,1484A,105.9512,38.6016,银川市,贺兰山马莲口,,39,29,14,27,13,101,70,92,90,32,11,4,3,0.5,0.4
2023-10-06T18:00:00,1488A,106.2328,38.4975,银川市,贺兰山东路,细颗粒物(PM2.5),69,76,35,50,28,114,105,96,96,26,21,10,8,0.7,0.6
2023-10-06T18:00:00,1489A,106.1358,38.5036,银川市,学院路,细颗粒物(PM2.5),89,79,41,66,29,101,70,82,82,45,23,10,7,0.7,0.5
2023-10-06T18:00:00,1490A,87.5801,43.8303,乌鲁木齐市,监测站,颗粒物(PM10),55,59,50,16,18,102,102,72,72,23,54,8,6,0.4,0.5
2023-10-06T18:00:00,1491A,87.6046,43.768,乌鲁木齐市,收费所,颗粒物(PM10),58,65,54,20,21,117,91,77,77,35,44,7,3,0.4,0.4
2023-10-06T18:00:00,1492A,87.4754,43.9469,乌鲁木齐市,新疆农科院农场,细颗粒物(PM2.5),78,63,76,57,32,104,104,60,60,14,47,3,3,0.8,0.9
2023-10-06T18:00:00,1493A,87.5525,43.8711,乌鲁木齐市,铁路局,颗粒物(PM10),56,61,64,16,21,105,105,66,66,24,54,6,5,0.3,0.6
2023-10-06T18:00:00,1494A,87.6432,43.831,乌鲁木齐市,三十一中学,颗粒物(PM10),57,63,50,17,15,113,100,80,80,17,33,8,6,0.4,0.4
2023-10-06T18:00:00,1496A,87.7216,44.1747,乌鲁木齐市,米东区环保局,,37,32,34,11,13,116,116,83,83,2,17,9,10,0.2,0.3
2023-10-06T18:00:00,1508A,112.9433,27.8614,湘潭市,板塘,颗粒物(PM10),61,71,61,40,39,84,62,73,73,18,17,9,9,0.7,0.7
2023-10-06T18:00:00,1511A,112.9118,27.8403,湘潭市,市监测站,颗粒物(PM10),57,63,57,31,32,86,68,76,75,18,14,5,5,0.6,0.7
2023-10-06T18:00:00,1512A,112.8937,27.8728,湘潭市,江麓,颗粒物(PM10),60,69,54,32,30,96,72,85,85,17,14,7,7,0.9,0.8
2023-10-06T18:00:00,1513A,112.9227,27.8159,湘潭市,岳塘,颗粒物(PM10),56,61,55,32,32,97,75,86,86,15,12,11,9,0.5,0.5
2023-10-06T18:00:00,1514A,112.9074,27.9119,湘潭市,科大,颗粒物(PM10),60,69,56,32,30,92,69,80,80,15,14,7,7,1.0,0.9
2023-10-06T18:00:00,1515A,113.135,27.8244,株洲市,天台山庄,颗粒物(PM10),58,66,60,33,36,110,68,90,90,19,21,6,6,0.7,0.8
2023-10-06T18:00:00,1518A,113.095,27.8867,株洲市,株冶医院,颗粒物(PM10),61,71,59,40,35,101,58,82,81,24,24,7,6,0.8,0.8
2023-10-06T18:00:00,1519A,113.167,27.8667,株洲市,市四中,颗粒物(PM10),61,72,60,39,39,108,79,92,92,16,23,5,6,0.5,0.6
2023-10-06T18:00:00,1520A,113.143,27.8381,株洲市,火车站,颗粒物(PM10),58,65,58,33,37,108,70,90,90,20,24,6,7,0.6,0.6
2023-10-06T18:00:00,1524A,113.13,27.8528,株洲市,市监测站,细颗粒物(PM2.5),63,72,63,45,39,104,66,89,86,20,23,8,7,0.7,0.7
2023-10-06T18:00:00,1552A,106.805,26.3003,贵阳市,桐木岭,,,,,,,,,,,,,,,,
2023-10-06T18:00:00,1559A,113.251,27.8336,株洲市,大京风景区,,44,44,51,26,40,103,85,92,92,11,10,4,5,0.5,0.5
2023-10-06T18:00:00,1562A,113.0048,27.9153,湘潭市,昭山,颗粒物(PM10),65,80,66,31,29,99,70,84,84,15,17,6,6,0.9,1
2023-10-06T18:00:00,1564A,112.4876,27.9164,湘潭市,韶山,颗粒物(PM10),62,74,58,36,27,83,56,81,63,13,9,5,5,0.5,0.5
2023-10-06T18:00:00,1585A,109.8756,40.6532,包头市,市环境监测站,,29,17,52,6,19,105,92,85,85,22,48,7,11,0.5,0.7
2023-10-06T18:00:00,1587A,109.9991,40.5842,包头市,包头八中,,33,19,63,7,25,106,104,92,92,16,46,10,26,0.6,0.8
2023-10-06T18:00:00,1588A,109.8538,40.6821,包头市,青山宾馆,,31,24,47,9,24,103,98,86,86,13,48,9,13,0.6,0.8
2023-10-06T18:00:00,1589A,109.8642,40.6288,包头市,惠龙物流,,34,17,54,10,22,108,106,92,92,14,48,6,10,0.7,0.8
2023-10-06T18:00:00,1590A,110.0377,40.5546,包头市,东河鸿龙湾,,34,7,59,8,21,109,108,91,91,8,40,11,16,0.5,0.7
2023-10-06T18:00:00,1591A,110.0023,39.8129,鄂尔多斯市,综合楼,,36,36,32,9,14,81,68,71,71,36,30,4,6,0.6,0.7
2023-10-06T18:00:00,1592A,109.9486,39.8261,鄂尔多斯市,巴音孟克林场办事处,,27,27,27,17,19,80,79,73,73,28,26,10,9,0.6,0.5
2023-10-06T18:00:00,1593A,109.7736,39.5986,鄂尔多斯市,康泽苑,,29,24,25,16,20,100,90,89,89,18,20,5,5,0.7,0.7
2023-10-06T18:00:00,1594A,109.8119,39.5989,鄂尔多斯市,华泰汽车城,,28,27,26,19,18,97,82,86,86,16,16,3,4,0.5,0.5
2023-10-06T18:00:00,1595A,109.9734,39.7884,鄂尔多斯市,奥林花园,,49,29,31,34,15,86,73,74,74,20,25,5,5,0.7,0.7
2023-10-06T18:00:00,1597A,122.2703,40.7094,营口市,大庆路,细颗粒物(PM2.5),55,45,36,39,21,101,58,86,86,35,25,8,8,0.7,0.8
2023-10-06T18:00:00,1598A,122.2150,40.6511,营口市,镜湖西路,,45,45,36,14,20,98,64,89,86,46,34,8,9,0.8,0.8
2023-10-06T18:00:00,1599A,122.1658,40.6789,营口市,西炮台,,34,34,29,21,14,99,86,94,93,26,28,8,9,0.7,0.6
2023-10-06T18:00:00,1600A,124.3303,40.0625,丹东市,江湾东路,颗粒物(PM10),51,52,41,27,19,102,73,80,79,34,22,14,14,0.7,0.7
2023-10-06T18:00:00,1601A,124.4256,40.1503,丹东市,临江后街,,49,49,36,21,15,98,76,82,82,34,23,13,12,1.0,0.7
2023-10-06T18:00:00,1602A,124.3933,40.1461,丹东市,元宝山,,36,36,30,14,14,86,76,76,76,29,22,14,12,0.7,0.7
2023-10-06T18:00:00,1603A,124.3633,40.1092,丹东市,民主桥,,45,45,32,21,13,92,57,71,71,53,24,13,10,0.8,0.6
2023-10-06T18:00:00,1604A,122.0303,41.1489,盘锦市,开发区,颗粒物(PM10),53,55,26,22,13,107,58,88,88,49,36,11,23,0.5,0.4
2023-10-06T18:00:00,1605A,122.0485,41.0883,盘锦市,兴隆台,,44,44,27,18,12,105,59,89,88,64,40,15,17,0.6,0.4
2023-10-06T18:00:00,1606A,121.8297,41.1028,盘锦市,新生街道,,25,25,21,10,11,98,67,85,85,23,31,13,31,0.4,0.4
2023-10-06T18:00:00,1607A,120.9092,40.7136,葫芦岛市,龙港区,,28,12,43,14,17,100,87,89,89,12,35,14,46,0.4,0.6
2023-10-06T18:00:00,1608A,120.8392,40.7514,葫芦岛市,化工街,,27,27,64,7,28,100,80,90,89,15,42,11,36,0.6,0.8
2023-10-06T18:00:00,1609A,120.8341,40.7073,葫芦岛市,新区,,28,22,49,11,23,106,88,91,91,19,43,10,27,0.4,0.5
2023-10-06T18:00:00,1610A,120.8695,40.7677,葫芦岛市,东城区,,26,18,58,14,24,103,83,91,91,26,43,13,41,0.7,0.9
2023-10-06T18:00:00,1611A,118.5819,24.9117,泉州市,涂山街,,25,15,12,5,4,116,77,92,82,10,8,3,5,0.5,0.5
2023-10-06T18:00:00,1612A,118.5972,24.8978,泉州市,津头埔,,21,16,13,10,4,115,67,88,77,18,11,2,4,0.5,0.6
2023-10-06T18:00:00,1613A,118.6663,24.9424,泉州市,万安,,32,32,19,17,6,118,69,93,82,15,9,4,3,0.6,0.5
2023-10-06T18:00:00,1614A,118.6117,24.9604,泉州市,清源山,,,,,,,,,,,,,,,,
2023-10-06T18:00:00,1616A,117.6795,36.229,济南市,技术学院,细颗粒物(PM2.5),88,95,73,65,28,111,80,93,93,40,40,14,13,0.8,0.6
2023-10-06T18:00:00,1618A,118.3429,35.0532,临沂市,沂河小区,颗粒物(PM10),56,61,50,24,22,94,38,67,56,47,27,7,8,0.4,0.3
2023-10-06T18:00:00,1619A,118.295,35.0583,临沂市,鲁南制药厂,,,63,45,17,12,99,,71,,56,28,7,7,0.5,0.4
2023-10-06T18:00:00,1620A,118.2794,34.9976,临沂市,新光毛纺厂,颗粒物(PM10),57,63,43,20,13,97,25,69,51,62,25,7,8,0.7,0.5
2023-10-06T18:00:00,1621A,118.3956,35.0888,临沂市,河东保险公司,,48,48,46,17,18,72,37,54,52,46,30,5,6,0.6,0.6
2023-10-06T18:00:00,1622A,116.3032,37.4674,德州市,儿童乐园,颗粒物(PM10),78,105,92,41,23,84,72,72,72,41,50,16,14,0.7,0.6
2023-10-06T18:00:00,1624A,116.2991,37.4451,德州市,监理站,颗粒物(PM10),81,111,84,34,18,75,60,62,62,42,42,18,16,0.7,0.5
2023-10-06T18:00:00,1625A,115.9848,36.4372,聊城市,区政府,颗粒物(PM10),88,125,88,55,34,81,65,57,57,39,40,7,6,0.7,0.6
2023-10-06T18:00:00,1628A,118.0062,37.3803,滨州市,市环保局,颗粒物(PM10),63,75,62,17,22,100,81,88,88,27,35,11,20,0.7,0.8
2023-10-06T18:00:00,1629A,118.0018,37.3617,滨州市,第二水厂,颗粒物(PM10),64,78,65,25,23,108,92,95,95,35,48,14,20,0.8,0.9
2023-10-06T18:00:00,1630A,117.9776,37.393,滨州市,北中新校,颗粒物(PM10),63,75,56,20,20,102,78,89,89,33,37,10,17,0.8,0.9
2023-10-06T18:00:00,1631A,118.0414,36.8103,淄博市,人民公园,颗粒物(PM10),62,73,79,31,34,113,60,89,85,47,50,10,13,0.5,0.7
2023-10-06T18:00:00,1633A,117.8525,36.4847,淄博市,双山,颗粒物(PM10),57,64,67,26,24,111,81,99,99,30,38,11,12,0.7,0.4
2023-10-06T18:00:00,1634A,117.9592,36.6331,淄博市,气象站,颗粒物(PM10),62,74,75,31,33,104,77,93,93,38,47,10,12,0.5,0.5
2023-10-06T18:00:00,1635A,118.3092,36.8194,淄博市,莆田园,颗粒物(PM10),80,110,79,44,27,96,60,83,83,65,43,18,13,0.6,1.5
2023-10-06T18:00:00,1637A,117.558,34.8438,枣庄市,市中区政府,颗粒物(PM10),74,97,86,36,31,97,64,75,75,44,38,6,7,0.5,0.4
2023-10-06T18:00:00,1638A,117.2852,34.7837,枣庄市,薛城环保局,颗粒物(PM10),70,90,82,40,30,70,16,64,57,72,47,7,8,0.8,0.7
2023-10-06T18:00:00,1639A,117.5852,34.7745,枣庄市,峄城区政府,颗粒物(PM10),70,90,79,22,20,100,65,66,66,45,37,10,11,0.6,0.5
2023-10-06T18:00:00,1640A,117.7276,34.5578,枣庄市,台儿庄区环保局,颗粒物(PM10),57,63,75,34,37,90,16,50,46,63,39,7,9,0.6,0.6
2023-10-06T18:00:00,1641A,117.4518,35.0992,枣庄市,山亭区环保局,,46,46,54,24,23,101,72,92,92,34,24,6,10,0.6,0.5
2023-10-06T18:00:00,1642A,121.2514,37.5639,烟台市,开发区,,41,41,27,14,9,138,116,120,120,18,16,13,12,0.7,0.6
2023-10-06T18:00:00,1643A,121.3719,37.5433,烟台市,轴承厂,,48,48,28,25,9,136,125,121,121,20,17,7,6,0.5,0.3
2023-10-06T18:00:00,1644A,121.3181,37.5436,烟台市,西郊化工站,,44,44,27,16,10,138,118,121,121,28,19,7,6,0.8,0.6
2023-10-06T18:00:00,1645A,121.4478,37.4822,烟台市,莱山环保局,,36,36,21,14,6,130,111,111,111,19,12,7,8,0.6,0.4
2023-10-06T18:00:00,1646A,121.2611,37.4967,烟台市,福山环保局,颗粒物(PM10),54,58,35,22,11,130,111,112,112,29,26,5,4,0.5,0.4
2023-10-06T18:00:00,1650A,119.1437,36.7023,潍坊市,环保局,,,,,,,,,,,,,,,,
2023-10-06T18:00:00,1653A,116.6251,35.4302,济宁市,火炬城,,47,47,66,12,20,90,79,73,73,20,40,10,12,0.3,0.4
2023-10-06T18:00:00,1655A,116.5491,35.4042,济宁市,电化厂,颗粒物(PM10),56,62,86,17,28,85,65,72,72,31,40,6,9,0.4,0.5
2023-10-06T18:00:00,1656A,117.1437,36.1937,泰安市,监测站,颗粒物(PM10),52,53,69,21,28,100,87,83,83,20,27,11,11,0.5,0.5
2023-10-06T18:00:00,1657A,117.0885,36.2017,泰安市,人口学校,,36,36,49,18,19,104,83,93,93,19,24,9,10,0.6,0.6
2023-10-06T18:00:00,1658A,117.1089,36.1758,泰安市,电力学校,颗粒物(PM10),57,63,76,28,30,104,88,90,90,26,34,10,10,0.8,0.7
2023-10-06T18:00:00,1659A,119.471,35.4209,日照市,监测站,,36,36,26,11,8,75,34,64,52,43,19,8,8,0.7,0.6
2023-10-06T18:00:00,1660A,119.523,35.4216,日照市,市政府广场,,31,31,24,10,6,91,51,76,61,33,15,5,5,0.5,0.4
2023-10-06T18:00:00,1661A,119.5587,35.4044,日照市,港务局,,36,36,25,11,8,94,49,74,62,40,23,8,8,0.6,0.5
2023-10-06T18:00:00,1662A,122.1214,37.4236,威海市,华夏技校,,31,29,17,15,7,113,99,97,97,15,12,4,4,0.4,0.5
2023-10-06T18:00:00,1663A,122.0508,37.5236,威海市,山大分校,,,,,,,,,,,,,,,,
2023-10-06T18:00:00,1664A,122.1067,37.5072,威海市,市监测站,,32,32,24,12,6,116,84,96,96,28,13,8,8,0.7,0.6
2023-10-06T18:00:00,1666A,118.6614,37.4309,东营市,市环保局,颗粒物(PM10),62,73,38,27,11,134,86,111,111,42,30,12,14,0.5,0.4
2023-10-06T18:00:00,1669A,113.5824,24.7733,韶关市,市八中,,28,26,26,17,9,108,87,104,100,9,6,11,13,0.6,0.6
2023-10-06T18:00:00,1671A,113.5917,24.7972,韶关市,园林处,,40,36,32,28,20,112,93,108,105,4,2,13,11,0.6,0.6
2023-10-06T18:00:00,1672A,113.6735,24.7791,韶关市,韶关学院,,33,32,29,23,18,110,87,104,102,8,8,30,12,0.7,0.7
2023-10-06T18:00:00,1673A,113.5971,24.6863,韶关市,曲江监测站,,38,38,28,26,12,116,88,111,106,11,7,18,11,1.0,0.5
2023-10-06T18:00:00,1674A,116.6794,23.3667,汕头市,金平子站,,26,16,19,18,8,82,58,78,68,22,14,5,6,0.7,0.6
2023-10-06T18:00:00,1675A,116.7244,23.3633,汕头市,龙湖子站,,22,22,19,10,4,83,62,79,71,18,12,6,8,0.9,0.8
2023-10-06T18:00:00,1676A,116.7258,23.2775,汕头市,濠江子站,,24,11,15,15,4,83,76,80,76,9,9,7,9,0.5,0.5
2023-10-06T18:00:00,1677A,116.7519,23.4714,汕头市,澄海子站,,22,18,21,15,9,81,59,76,67,22,15,10,14,0.5,0.4
2023-10-06T18:00:00,1678A,116.6092,23.2539,汕头市,潮阳子站,,28,28,36,4,2,84,67,80,74,11,8,8,9,0.7,0.7
2023-10-06T18:00:00,1680A,110.3539,21.2706,湛江市,湛江影剧院,颗粒物(PM10),55,60,39,26,30,149,137,126,126,20,14,12,12,1.1,0.8
2023-10-06T18:00:00,1681A,110.3928,21.2228,湛江市,市环境监测站,,43,40,37,17,25,137,137,115,115,9,14,11,11,1.0,0.8
2023-10-06T18:00:00,1682A,110.4019,21.1997,湛江市,环保局宿舍,,42,35,30,15,22,140,134,119,119,10,14,8,9,1.0,0.9
2023-10-06T18:00:00,1683A,110.4111,21.2028,湛江市,霞山游泳场,,43,26,31,14,21,143,135,117,117,10,13,9,10,1.0,0.8
2023-10-06T18:00:00,1684A,110.3316,21.2679,湛江市,麻章区环保局,颗粒物(PM10),55,60,38,16,21,161,135,130,130,20,16,8,10,1.1,0.8
2023-10-06T18:00:00,1685A,110.4558,21.2567,湛江市,坡头区环保局,,41,37,27,20,20,139,129,117,117,13,11,7,7,0.8,0.7
2023-10-06T18:00:00,1686A,111.0286,21.4688,茂名市,电白南海,,37,31,33,19,25,129,118,110,110,14,10,9,10,0.7,0.6
2023-10-06T18:00:00,1687A,110.9294,21.6533,茂名市,茂石化七小,,,,,,,,,,,,,,,,
2023-10-06T18:00:00,1688A,110.9107,21.6687,茂名市,健康路,,32,24,25,22,17,122,97,105,105,8,12,9,12,0.6,0.7
2023-10-06T18:00:00,1689A,110.8592,21.6828,茂名市,高岭,,35,27,33,24,26,116,91,100,100,9,14,8,9,0.7,0.8
2023-10-06T18:00:00,1690A,116.1231,24.3284,梅州市,梅江月梅,,,,21,35,8,99,70,87,85,19,14,6,6,0.9,0.6
2023-10-06T18:00:00,1691A,116.0797,24.2719,梅州市,梅县新城,,40,27,22,28,7,90,65,82,81,21,11,8,7,0.7,0.6
2023-10-06T18:00:00,1692A,116.1248,24.2654,梅州市,环境监控中心,,27,27,20,18,7,93,71,80,80,17,14,9,9,0.6,0.6
2023-10-06T18:00:00,1693A,115.3653,22.775,汕尾市,市环保局,,24,17,19,9,11,83,76,80,79,7,6,8,8,0.8,0.8
2023-10-06T18:00:00,1694A,115.3706,22.7898,汕尾市,市政府,,28,24,24,19,11,88,80,84,84,6,5,6,6,0.6,0.6
2023-10-06T18:00:00,1695A,115.3622,22.7925,汕尾市,新城中学,,25,25,18,12,13,74,67,70,70,6,6,8,8,0.5,0.6
2023-10-06T18:00:00,1696A,114.6778,23.7569,河源市,源西,,36,36,29,23,15,104,96,96,96,10,10,5,6,0.7,0.7
2023-10-06T18:00:00,1697A,114.6944,23.7586,河源市,东埔,,45,36,31,31,16,103,90,94,94,13,9,6,7,0.8,0.7
2023-10-06T18:00:00,1698A,114.6892,23.7233,河源市,老城,,45,41,30,31,16,104,93,96,96,12,9,5,6,0.8,0.7
2023-10-06T18:00:00,1699A,111.9797,21.8593,阳江市,鸳鸯湖,,40,40,26,14,11,108,92,94,94,8,13,9,9,0.8,0.8
2023-10-06T18:00:00,1701A,111.9491,21.8658,阳江市,马南垌,,30,30,29,20,15,99,92,90,90,6,9,6,6,0.5,0.6
2023-10-06T18:00:00,1702A,113.0426,23.691,清远市,环保大楼,,37,37,22,19,8,124,113,110,110,12,9,11,9,0.7,0.6
2023-10-06T18:00:00,1703A,113.0208,23.7106,清远市,凤城街办,,,39,22,,12,110,110,100,100,,8,12,9,0.6,0.6
2023-10-06T18:00:00,1705A,116.6367,23.6719,潮州市,西园路,,22,22,16,4,8,76,54,71,70,10,7,4,5,0.3,0.3
2023-10-06T18:00:00,1706A,116.6447,23.6706,潮州市,档案局,,20,16,15,12,6,83,63,80,78,10,6,6,7,0.6,0.5
2023-10-06T18:00:00,1708A,116.3701,23.5345,揭阳市,新兴,,30,30,15,9,12,81,65,79,76,8,5,7,7,0.5,0.5
2023-10-06T18:00:00,1709A,116.3264,23.5443,揭阳市,西马,,29,29,23,12,11,81,66,75,75,8,8,6,7,0.6,0.6
2023-10-06T18:00:00,1710A,116.3611,23.5626,揭阳市,东兴,,21,20,18,7,8,82,67,78,78,13,10,4,5,0.7,0.7
2023-10-06T18:00:00,1711A,116.4151,23.5294,揭阳市,渔湖,,29,29,20,18,10,78,57,75,70,18,11,5,6,0.5,0.5
2023-10-06T18:00:00,1712A,112.0392,22.9169,云浮市,新市府,,25,25,18,14,12,96,73,85,85,10,9,6,6,0.9,0.9
2023-10-06T18:00:00,1714A,112.0539,22.9539,云浮市,牧羊,颗粒物(PM10),63,75,22,42,7,95,84,88,88,8,15,5,6,0.8,0.6
2023-10-06T18:00:00,1715A,102.575,24.3711,玉溪市,东风水库,,21,21,17,6,10,65,50,53,53,6,10,5,5,0.6,0.8
2023-10-06T18:00:00,1718A,115.4208,35.2464,菏泽市,气象局,颗粒物(PM10),58,66,111,24,43,96,82,72,72,34,46,8,11,0.6,0.6
2023-10-06T18:00:00,1719A,115.4747,35.2375,菏泽市,市政协,颗粒物(PM10),57,64,101,29,41,96,81,74,74,33,38,7,12,0.4,0.4
2023-10-06T18:00:00,1721A,113.3819,40.1097,大同市,果树场,,,,,,,,,,,,,,,,
2023-10-06T18:00:00,1723A,113.2994,40.0758,大同市,云冈宾馆,颗粒物(PM10),52,53,82,30,31,100,94,87,87,25,42,11,16,0.6,0.8
2023-10-06T18:00:00,1724A,113.3444,40.0917,大同市,大同大学,颗粒物(PM10),54,57,75,25,31,92,89,81,81,24,42,12,15,0.6,0.6
2023-10-06T18:00:00,1725A,113.2661,40.1269,大同市,安家小村,,31,31,79,19,30,110,99,93,93,14,34,13,22,0.4,1.4
2023-10-06T18:00:00,1726A,113.2711,40.0844,大同市,教育学院,,43,43,89,26,32,101,88,83,83,31,51,9,15,0.5,0.9
2023-10-06T18:00:00,1727A,113.1147,36.1547,长治市,清华站,,28,17,33,2,15,95,89,88,88,14,28,7,8,0.5,0.7
2023-10-06T18:00:00,1728A,113.1031,36.1989,长治市,监测站,,29,19,27,5,15,98,90,90,90,21,30,7,9,0.3,0.8
2023-10-06T18:00:00,1730A,113.0886,36.2125,长治市,审计局,,26,21,26,9,14,92,83,84,84,18,25,8,10,0.4,0.5
2023-10-06T18:00:00,1731A,113.0844,36.1856,长治市,长治八中,,33,18,33,23,16,96,88,88,88,17,26,11,12,0.4,0.6
2023-10-06T18:00:00,1733A,111.5531,36.0783,临汾市,临钢医院,颗粒物(PM10),51,51,51,33,33,81,64,61,61,20,27,12,12,1.5,1.1
2023-10-06T18:00:00,1734A,111.5028,36.0714,临汾市,技工学校,细颗粒物(PM2.5),53,42,45,37,38,92,76,70,70,22,32,10,11,1.3,0.9
2023-10-06T18:00:00,1736A,111.5018,36.0855,临汾市,市委,,50,50,49,31,35,93,78,71,71,19,28,11,11,1.3,0.9
2023-10-06T18:00:00,1738A,113.5758,37.8572,阳泉市,市中心,,36,36,35,11,20,92,71,79,79,32,31,9,10,0.5,0.5
2023-10-06T18:00:00,1739A,113.4894,37.8731,阳泉市,赛鱼,,34,34,44,19,25,95,54,82,82,38,37,11,10,0.5,0.5
2023-10-06T18:00:00,1740A,113.5819,37.8486,阳泉市,南庄,颗粒物(PM10),53,55,48,16,23,91,79,80,80,32,31,10,11,0.5,0.6
2023-10-06T18:00:00,1742A,113.5614,37.8703,阳泉市,平坦,,37,37,44,7,21,95,78,80,80,31,38,8,9,0.6,0.6
2023-10-06T18:00:00,1743A,113.5158,37.8392,阳泉市,大阳泉,,28,12,26,17,24,99,89,89,89,21,21,14,9,0.5,0.5
2023-10-06T18:00:00,1744A,118.9233,42.2816,赤峰市,松山一中,,29,29,38,11,20,79,55,67,67,42,42,20,14,0.5,0.5
2023-10-06T18:00:00,1745A,118.9576,42.2728,赤峰市,哈达街,颗粒物(PM10),70,90,43,29,18,66,26,56,55,78,47,99,26,0.7,0.6
2023-10-06T18:00:00,1746A,118.8788,42.2554,赤峰市,天义路,,31,31,41,9,19,92,48,77,77,54,35,30,16,0.5,0.5
2023-10-06T18:00:00,1748A,123.044,41.1196,鞍山市,深沟寺,,30,30,33,9,17,90,76,77,77,15,22,2,10,0.5,1
2023-10-06T18:00:00,1749A,123.011,41.0931,鞍山市,太阳城,,27,27,39,11,17,92,63,76,76,22,23,8,14,0.4,1
2023-10-06T18:00:00,1750A,123.0485,41.1442,鞍山市,太平,颗粒物(PM10),64,78,60,31,25,89,42,72,72,64,39,10,16,1.2,1.1
2023-10-06T18:00:00,1751A,122.9642,41.0971,鞍山市,铁西三道街,,40,40,66,14,28,82,48,67,67,47,43,8,18,0.9,1.4
2023-10-06T18:00:00,1752A,122.9341,41.0833,鞍山市,铁西工业园区,颗粒物(PM10),52,53,57,19,26,87,30,75,72,68,36,18,18,1.1,1.1
2023-10-06T18:00:00,1753A,123.022,41.0821,鞍山市,明达新区,,35,35,37,14,17,85,73,74,74,19,24,6,13,0.6,1
2023-10-06T18:00:00,1754A,123.1289,41.0228,鞍山市,千山,,,,,,,,,,,,,,,,
2023-10-06T18:00:00,1755A,123.7977,41.8491,抚顺市,望花区,,38,38,65,14,28,91,68,73,73,26,35,11,14,0.5,0.8
2023-10-06T18:00:00,1756A,123.9161,41.8822,抚顺市,顺城区,,45,42,62,31,38,82,41,63,63,52,34,5,9,0.4,0.7
2023-10-06T18:00:00,1757A,124.0436,41.8611,抚顺市,东洲区,,50,50,42,18,22,91,61,73,73,29,19,33,11,0.6,0.6
2023-10-06T18:00:00,1758A,123.9247,41.8642,抚顺市,新抚区,,35,35,45,15,28,85,55,67,67,29,26,7,10,0.5,0.8
2023-10-06T18:00:00,1759A,124.0972,41.8961,抚顺市,大伙房水库,细颗粒物(PM2.5),63,63,33,45,20,87,59,74,74,36,18,12,9,0.7,0.6
2023-10-06T18:00:00,1760A,123.7086,41.8391,抚顺市,沈抚新城,,32,32,53,19,34,95,64,75,75,23,29,8,15,0.3,0.7
2023-10-06T18:00:00,1761A,123.8275,41.3064,本溪市,大峪,,25,21,44,12,20,79,77,66,66,16,37,7,14,0.6,1.3
2023-10-06T18:00:00,1762A,123.7567,41.3325,本溪市,溪湖,,43,43,68,16,25,86,66,68,68,27,36,12,16,0.5,1.2
2023-10-06T18:00:00,1763A,123.7169,41.3094,本溪市,彩屯,颗粒物(PM10),80,110,98,33,44,82,17,63,63,66,41,10,16,1.6,2.7
2023-10-06T18:00:00,1764A,123.7669,41.2864,本溪市,东明,,38,37,65,26,33,83,49,67,67,54,45,10,23,1.0,1.7
2023-10-06T18:00:00,1765A,123.7992,41.2664,本溪市,新立屯,,48,48,34,22,18,74,16,54,53,69,41,11,19,0.7,1.3
2023-10-06T18:00:00,1766A,123.8142,41.3472,本溪市,威宁,,45,45,64,20,22,77,42,63,63,41,32,7,8,0.7,1
2023-10-06T18:00:00,1767A,121.1115,41.0879,锦州市,南山,,41,41,43,24,27,93,68,80,80,38,26,15,14,0.6,0.6
2023-10-06T18:00:00,1768A,121.0533,40.8434,锦州市,开发区,,43,43,66,21,27,103,52,85,81,55,47,13,31,0.5,0.7
2023-10-06T18:00:00,1769A,121.1836,41.1119,锦州市,百股街道,,28,28,37,19,21,104,75,90,90,42,32,17,16,0.7,0.7
2023-10-06T18:00:00,1770A,121.1178,41.1222,锦州市,天安街道,,48,48,50,14,23,98,73,82,82,39,32,18,14,0.9,1
2023-10-06T18:00:00,1771A,121.1303,41.1386,锦州市,北湖公园,,30,30,39,15,25,99,78,86,86,34,29,21,16,0.6,0.8
2023-10-06T18:00:00,1772A,126.54,43.8622,吉林市,哈达湾,,26,26,24,11,13,84,54,72,72,27,22,10,8,0.5,0.5
2023-10-06T18:00:00,1773A,126.5844,43.8358,吉林市,东局子,,27,27,29,13,13,83,63,71,71,22,28,8,8,0.5,0.5
2023-10-06T18:00:00,1774A,126.5052,43.8245,吉林市,电力学院,,23,23,34,11,17,87,66,76,76,16,24,11,9,0.5,0.6
2023-10-06T18:00:00,1775A,126.6133,43.8972,吉林市,江北,颗粒物(PM10),52,53,42,24,20,80,52,71,71,28,27,8,9,0.6,0.7
2023-10-06T18:00:00,1776A,126.555,43.8306,吉林市,江南公园,,26,26,28,14,16,80,60,69,69,22,26,8,7,0.5,0.6
2023-10-06T18:00:00,1778A,126.7061,43.7133,吉林市,丰满,,,,,,,,,,,,,,,,
2023-10-06T18:00:00,1779A,123.9305,47.3636,齐齐哈尔市,安居小区,,23,13,38,11,20,63,19,54,52,46,18,7,5,0.8,0.5
2023-10-06T18:00:00,1780A,123.9488,47.3386,齐齐哈尔市,中心广场,,28,10,25,3,14,58,12,49,46,55,19,3,2,1.0,0.3
2023-10-06T18:00:00,1781A,123.9483,47.3227,齐齐哈尔市,农牧车辆厂,,23,19,31,4,12,59,16,53,50,46,18,6,6,0.5,0.5
2023-10-06T18:00:00,1783A,123.945,47.2988,齐齐哈尔市,市环境监测站,,38,38,30,10,15,60,28,52,51,40,16,6,4,0.3,0.4
2023-10-06T18:00:00,1784A,129.61,44.561,牡丹江市,环保大楼,,33,33,23,13,13,68,50,63,62,18,14,5,5,0.4,0.4
2023-10-06T18:00:00,1785A,129.6115,44.5782,牡丹江市,文化广场,,25,22,21,17,16,67,46,60,59,20,18,4,4,0.3,0.3
2023-10-06T18:00:00,1786A,129.5904,44.5963,牡丹江市,第一医院,,31,31,26,19,21,67,50,61,61,14,15,6,6,0.3,0.3
2023-10-06T18:00:00,1787A,129.6364,44.6075,牡丹江市,机车工厂,,,149,41,,16,70,51,64,63,9,14,10,6,1.7,0.6
2023-10-06T18:00:00,1788A,129.6386,44.5462,牡丹江市,第一中学,,32,32,28,22,15,70,56,63,63,13,14,5,5,0.4,0.3
2023-10-06T18:00:00,1789A,124.81117,46.03138,大庆市,大同区,,44,44,37,27,16,58,15,49,46,48,22,5,6,0.4,0.4
2023-10-06T18:00:00,1790A,125.129,46.533,大庆市,龙凤区,,17,17,25,5,15,59,41,54,53,21,28,5,5,0.5,0.6
2023-10-06T18:00:00,1791A,124.902,46.408,大庆市,红岗区,,23,23,18,6,10,63,33,57,56,33,18,4,4,0.4,0.5
2023-10-06T18:00:00,1792A,125.153,46.586,大庆市,萨尔图区,,27,27,25,8,13,55,24,49,47,39,25,3,3,0.4,0.3
2023-10-06T18:00:00,1793A,124.9042,46.6215,大庆市,让胡路区,,26,10,24,18,15,59,35,53,53,28,23,5,5,0.4,0.4
2023-10-06T18:00:00,1794A,118.3606,31.3519,芜湖市,监测站,,40,40,37,28,13,94,83,87,87,21,13,8,8,0.6,0.5
2023-10-06T18:00:00,1795A,118.3714,31.4134,芜湖市,科创中心,,50,50,37,18,12,98,80,89,89,31,22,8,7,0.6,0.5
2023-10-06T18:00:00,1796A,118.3673,31.3131,芜湖市,四水厂,,42,42,39,22,16,97,87,88,88,24,15,6,7,0.6,0.5
2023-10-06T18:00:00,1798A,118.5092,31.6837,马鞍山市,湖东路四小,,37,37,30,17,10,108,75,96,96,23,13,9,7,0.5,0.4
2023-10-06T18:00:00,1799A,118.5024,31.6449,马鞍山市,开发区,,38,38,30,18,11,104,86,97,97,20,13,10,9,0.7,0.6
2023-10-06T18:00:00,1800A,118.5228,31.7231,马鞍山市,慈湖,,37,37,33,15,13,108,76,98,97,28,19,7,7,0.7,0.6
2023-10-06T18:00:00,1802A,118.6245,31.7241,马鞍山市,濮塘,,27,27,28,14,11,105,80,96,96,15,10,6,5,0.7,0.6
2023-10-06T18:00:00,1803A,115.9872,29.6815,九江市,十里,,41,41,46,11,14,118,92,92,92,18,17,8,9,0.6,0.5
2023-10-06T18:00:00,1804A,115.9584,29.7046,九江市,茅山头,,39,39,39,17,15,104,81,88,88,24,17,11,10,0.7,0.7
2023-10-06T18:00:00,1805A,115.9877,29.7295,九江市,西园,,42,42,41,15,15,112,96,100,100,19,19,10,9,0.8,0.7
2023-10-06T18:00:00,1806A,116.0172,29.6547,九江市,五七二七厂,,43,43,41,19,14,116,89,93,89,15,13,18,13,0.6,0.5
2023-10-06T18:00:00,1808A,115.9114,29.6038,九江市,综合工业园,,48,48,44,18,16,128,100,106,99,18,17,12,13,0.7,0.5
2023-10-06T18:00:00,1809A,116.0721,29.7535,九江市,石化总厂,颗粒物(PM10),51,52,48,26,17,114,80,94,91,31,17,10,9,0.8,0.6
2023-10-06T18:00:00,1810A,115.9773,29.5698,九江市,庐山气象台,,43,43,38,23,21,165,88,107,94,9,6,6,8,0.9,0.7
2023-10-06T18:00:00,1812A,112.3931,34.6516,洛阳市,市委党校,,26,22,26,18,20,70,60,58,58,18,20,4,5,0.5,0.5
2023-10-06T18:00:00,1814A,112.4657,34.6871,洛阳市,豫西宾馆,,26,22,27,18,20,60,57,52,52,19,23,2,3,0.6,0.7
2023-10-06T18:00:00,1815A,112.494,34.6886,洛阳市,河南林校,,25,25,25,16,18,56,54,54,49,17,19,2,3,0.4,0.4
2023-10-06T18:00:00,1816A,112.3844,34.623,洛阳市,开发区管委会,,28,28,24,16,16,64,54,59,59,19,16,3,2,0.5,0.4
2023-10-06T18:00:00,1817A,112.4267,34.6258,洛阳市,市委新办公区,,26,24,27,18,18,70,64,64,64,16,14,1,2,0.4,0.4
2023-10-06T18:00:00,1818A,114.4839,36.0621,安阳市,棉研所,,,,,,,,,,,,,,,,
2023-10-06T18:00:00,1819A,114.3551,36.1017,安阳市,红庙街,,42,42,59,6,21,81,78,64,64,17,38,6,15,0.6,1.4
2023-10-06T18:00:00,1820A,114.361,36.0681,安阳市,银杏小区,,27,27,58,15,19,78,69,60,60,19,32,6,14,0.3,1
2023-10-06T18:00:00,1824A,114.3389,34.7781,开封市,肿瘤医院,颗粒物(PM10),53,55,59,24,28,70,41,51,51,33,30,4,7,0.5,0.7
2023-10-06T18:00:00,1826A,114.2885,34.7965,开封市,世纪星幼儿园,颗粒物(PM10),51,52,55,23,22,67,46,50,50,41,41,4,9,0.6,0.7
2023-10-06T18:00:00,1828A,113.227,35.2125,焦作市,市环保局,,38,38,46,20,22,43,30,36,36,31,29,6,10,0.5,0.6
2023-10-06T18:00:00,1830A,113.1992,35.2590,焦作市,影视城,,,,,,,,,,,,,,,,
2023-10-06T18:00:00,1832A,113.3257,33.742,平顶山市,新华旅馆,,40,39,43,28,30,82,67,74,68,25,21,7,7,0.5,0.4
2023-10-06T18:00:00,1833A,113.2919,33.737,平顶山市,规划设计院,,30,28,29,21,22,81,72,68,68,18,15,7,7,0.5,0.5
2023-10-06T18:00:00,1834A,113.182,33.774,平顶山市,平顶山工学院,,30,30,33,14,15,82,77,71,71,14,19,6,9,0.5,0.6
2023-10-06T18:00:00,1835A,111.1922,34.7752,三门峡市,市政府,,22,22,18,10,11,86,63,70,70,30,15,6,6,0.5,0.5
2023-10-06T18:00:00,1836A,111.1587,34.7942,三门峡市,开发区,,24,22,24,16,15,87,75,71,71,13,14,7,7,0.3,0.4
2023-10-06T18:00:00,1838A,111.143,34.7955,三门峡市,风景区,,,,,,,,,,,,,,,,
2023-10-06T18:00:00,1840A,111.2992,30.6981,宜昌市,白龙岗,,27,12,23,9,14,87,86,68,68,18,19,6,6,0.5,0.6
2023-10-06T18:00:00,1841A,111.3549,30.6465,宜昌市,伍家岗,,28,23,24,9,17,88,88,63,63,10,21,5,4,0.4,0.5
2023-10-06T18:00:00,1842A,111.2628,30.6961,宜昌市,点军区,,30,22,32,7,16,96,96,77,77,10,11,8,8,0.4,0.5
2023-10-06T18:00:00,1843A,111.3275,30.7819,宜昌市,夷陵区,,25,16,24,12,17,81,77,70,70,18,15,6,6,0.4,0.5
2023-10-06T18:00:00,1844A,112.2494,30.3197,荆州市,市图书馆,,26,26,47,16,26,78,78,70,66,9,12,5,6,0.5,0.6
2023-10-06T18:00:00,1845A,112.2008,30.3544,荆州市,市委党校,,33,33,48,11,23,77,77,70,70,11,12,6,7,0.5,0.7
2023-10-06T18:00:00,1847A,113.1094,29.3578,岳阳市,南湖风景区,,47,47,46,17,28,126,71,104,102,12,14,8,28,0.6,0.7
2023-10-06T18:00:00,1848A,113.1493,29.4251,岳阳市,城陵矶,颗粒物(PM10),52,54,49,18,23,120,60,96,93,24,21,8,8,0.5,0.5
2023-10-06T18:00:00,1849A,113.1497,29.3575,岳阳市,开发区,,42,42,43,29,29,133,68,106,104,15,14,10,10,0.7,0.7
2023-10-06T18:00:00,1850A,113.2621,29.4758,岳阳市,云溪区,,43,43,45,19,24,124,68,102,101,17,16,8,9,0.4,0.5
2023-10-06T18:00:00,1851A,112.9943,29.4402,岳阳市,君山区,颗粒物(PM10),56,62,44,26,32,119,60,83,82,13,13,5,5,0.4,0.4
2023-10-06T18:00:00,1852A,113.2117,29.355,岳阳市,金凤水库,颗粒物(PM10),52,54,48,18,25,154,93,126,126,10,9,5,5,0.6,0.7
2023-10-06T18:00:00,1854A,111.6975,28.9703,常德市,市二中,,38,38,44,13,23,91,73,72,68,10,9,6,8,0.5,0.6
2023-10-06T18:00:00,1857A,111.7158,29.1456,常德市,白鹤山,,24,13,23,8,4,93,74,73,68,2,2,3,4,0.4,0.4
2023-10-06T18:00:00,1858A,110.5319,29.1217,张家界市,永定新区,,21,14,33,10,22,92,65,86,73,13,12,6,6,0.5,0.5
2023-10-06T18:00:00,1859A,110.4697,29.1242,张家界市,电业局,,33,33,36,9,23,90,68,84,69,12,15,8,8,0.5,0.5
2023-10-06T18:00:00,1860A,110.5594,29.3547,张家界市,未央路,,,12,25,9,14,82,69,80,67,6,5,,3,0.4,0.5
2023-10-06T18:00:00,1861A,110.4417,29.315,张家界市,袁家界,,26,8,12,3,9,94,82,91,75,4,5,9,8,0.6,0.7
2023-10-06T18:00:00,1862A,110.4144,25.3167,桂林市,电子科大尧山校区,,50,50,28,28,17,107,104,102,102,6,6,4,4,0.6,0.7
2023-10-06T18:00:00,1863A,110.2819,25.2697,桂林市,监测站,,48,48,32,21,13,144,108,112,112,10,9,9,8,0.5,0.6
2023-10-06T18:00:00,1864A,110.3089,25.2708,桂林市,龙隐路小学,,42,42,27,21,14,119,110,112,112,6,6,6,9,0.6,0.6
2023-10-06T18:00:00,1865A,110.2869,25.2178,桂林市,八中,,38,38,26,21,13,122,111,114,114,11,10,4,6,0.5,0.5
2023-10-06T18:00:00,1866A,109.2262,21.588,北海市,牛尾岭水库,,35,19,21,22,15,110,110,100,100,8,8,14,8,0.8,0.7
2023-10-06T18:00:00,1867A,109.1436,21.4086,北海市,海滩公园,,40,33,31,17,16,130,128,117,117,6,8,5,7,0.8,0.8
2023-10-06T18:00:00,1868A,109.0981,21.4661,北海市,新市环保局,,41,36,31,24,21,144,130,130,130,9,10,5,8,0.7,0.7
2023-10-06T18:00:00,1869A,109.1778,21.5233,北海市,北海工业园,,40,29,33,22,21,140,128,124,124,7,9,6,11,0.8,0.7
2023-10-06T18:00:00,1870A,109.4856,24.3895,柳州市,柳东小学,,46,34,19,32,16,130,130,104,104,7,6,8,8,0.5,0.5
2023-10-06T18:00:00,1871A,109.4157,24.3277,柳州市,环保监测站,,36,19,17,22,14,114,114,93,93,10,7,5,5,0.7,0.7
2023-10-06T18:00:00,1872A,109.389,24.341,柳州市,河西水厂,,47,47,22,24,14,112,112,92,92,10,8,7,7,0.9,0.9
2023-10-06T18:00:00,1873A,109.4311,24.2921,柳州市,市四中,,40,33,19,28,10,115,115,98,98,11,9,8,8,0.8,0.8
2023-10-06T18:00:00,1874A,109.4006,24.3631,柳州市,市九中,细颗粒物(PM2.5),55,44,25,39,15,119,119,95,95,10,10,6,6,0.7,0.8
2023-10-06T18:00:00,1875A,109.4958,24.3134,柳州市,古亭山,,42,36,18,23,11,132,132,108,108,10,8,6,6,0.5,0.5
2023-10-06T18:00:00,1876A,109.5078,18.2489,三亚市,河东子站,,20,16,19,8,8,75,64,66,66,5,10,4,3,0.4,0.4
2023-10-06T18:00:00,1877A,109.4964,18.2681,三亚市,河西子站,,21,15,18,8,10,72,66,65,65,6,7,3,3,0.5,0.4
2023-10-06T18:00:00,1878A,104.7778,31.4741,绵阳市,富乐山,,11,11,8,5,3,76,13,70,52,14,9,4,4,0.6,0.5
2023-10-06T18:00:00,1879A,104.7563,31.4535,绵阳市,市人大,,19,19,8,9,5,75,20,70,46,33,14,4,4,0.7,0.6
2023-10-06T18:00:00,1880A,104.6697,31.4668,绵阳市,高新区自来水公司,,18,17,6,5,2,81,21,74,46,36,15,7,6,0.6,0.5
2023-10-06T18:00:00,1881A,104.7287,31.5075,绵阳市,三水厂,,23,16,11,10,6,77,4,73,41,45,16,9,7,0.9,0.6
2023-10-06T18:00:00,1882A,104.563,28.793,宜宾市,石马中学,,,,,,,,,,,,,,,,
2023-10-06T18:00:00,1883A,104.6201,28.7728,宜宾市,市委,,16,8,18,4,10,62,51,50,50,21,16,5,5,0.5,0.6
2023-10-06T18:00:00,1884A,104.6055,28.793,宜宾市,宜宾四中,,18,13,19,6,13,65,55,55,55,19,16,5,5,0.6,0.6
2023-10-06T18:00:00,1885A,104.639,28.7562,宜宾市,市政府,,19,7,16,5,13,66,59,56,56,16,14,6,6,0.6,0.6
2023-10-06T18:00:00,1886A,104.5742,28.7199,宜宾市,黄金嘴,,19,5,14,3,8,65,60,60,60,14,15,7,8,0.4,0.5
2023-10-06T18:00:00,1888A,101.6891,26.571,攀枝花市,弄弄坪,,20,18,29,6,11,87,61,70,70,7,16,8,9,0.5,0.7
2023-10-06T18:00:00,1889A,101.5769,26.5928,攀枝花市,河门口,,23,23,33,10,17,88,60,73,73,18,19,30,17,1.9,1.2
2023-10-06T18:00:00,1890A,101.7169,26.585,攀枝花市,炳草岗,,21,20,37,6,15,92,66,76,76,10,26,3,8,0.5,0.8
2023-10-06T18:00:00,1891A,101.7369,26.5008,攀枝花市,仁和,,20,8,18,4,13,73,62,66,66,7,11,4,5,0.5,0.6
2023-10-06T18:00:00,1893A,105.4324,28.9634,泸州市,九狮山,,38,10,13,16,8,199,121,140,82,13,13,5,5,0.4,0.4
2023-10-06T18:00:00,1894A,105.4427,28.9063,泸州市,小市上码头,,12,6,9,2,2,43,38,41,32,16,11,4,4,0.5,0.5
2023-10-06T18:00:00,1895A,105.4241,28.8573,泸州市,兰田宪桥,,11,8,10,2,5,45,35,38,33,10,7,4,5,0.5,0.5
2023-10-06T18:00:00,1896A,105.4379,28.8833,泸州市,市环监站,,11,4,7,0,2,41,35,39,32,15,10,2,3,0.4,0.5
2023-10-06T18:00:00,1901A,104.4239,31.1208,德阳市,东山公园,,26,26,23,14,8,73,57,69,50,20,10,1,3,0.5,0.4
2023-10-06T18:00:00,1902A,104.3826,31.1317,德阳市,西小区,,30,30,25,8,8,75,27,69,45,37,12,3,4,0.8,0.5
2023-10-06T18:00:00,1904A,104.3553,31.1091,德阳市,耐火材料厂,,33,33,22,14,8,71,23,65,45,34,10,3,4,0.5,0.4
2023-10-06T18:00:00,1905A,106.056,30.8064,南充市,西山风景区,,14,4,9,4,2,61,43,58,54,7,3,2,2,0.5,0.4
2023-10-06T18:00:00,1906A,106.0789,30.8023,南充市,南充市委,,23,23,10,10,15,66,50,57,57,18,12,3,2,0.5,0.4
2023-10-06T18:00:00,1907A,106.1031,30.8217,南充市,南充炼油厂,,18,18,21,6,6,65,52,57,57,16,9,3,2,0.3,0.3
2023-10-06T18:00:00,1908A,106.1064,30.7856,南充市,高坪区监测站,,16,12,7,11,7,65,51,59,58,14,10,2,2,0.3,0.3
2023-10-06T18:00:00,1909A,106.0642,30.7636,南充市,嘉陵区环保局,,17,17,11,2,4,65,52,57,57,16,12,2,1,0.2,0.2
2023-10-06T18:00:00,1910A,106.1087,30.8388,南充市,市环境监测站,,17,10,8,9,8,67,53,58,58,14,9,3,3,0.4,0.3
2023-10-06T18:00:00,1911A,106.9222,27.6869,遵义市,丁字口,,14,9,11,7,9,58,44,52,52,21,14,4,4,0.8,0.7
2023-10-06T18:00:00,1912A,106.9242,27.7019,遵义市,凤凰山,,16,6,8,11,12,56,49,50,50,8,7,7,6,0.6,0.6
2023-10-06T18:00:00,1913A,106.8906,27.6486,遵义市,忠庄,,17,17,15,10,9,53,51,47,47,8,7,1,1,0.4,0.4
2023-10-06T18:00:00,1914A,106.9231,27.6506,遵义市,舟水桥,,17,7,9,4,6,62,54,55,55,9,4,1,1,0.6,0.5
2023-10-06T18:00:00,1915A,106.9178,27.72,遵义市,干田坝,,15,9,13,9,9,58,46,50,50,14,9,5,5,0.8,0.7
2023-10-06T18:00:00,1916A,103.7897,25.5035,曲靖市,环境监测站,,30,30,27,9,9,77,33,52,52,17,12,6,5,1.2,1
2023-10-06T18:00:00,1917A,103.8,25.5364,曲靖市,烟厂办公区,,30,30,27,14,12,81,32,52,50,15,10,5,6,0.8,0.6
2023-10-06T18:00:00,1918A,108.7197,34.3956,咸阳市,气象站,,,,,,,,,,,,,,,,
2023-10-06T18:00:00,1919A,108.673,34.3155,咸阳市,实验中学,,30,30,20,20,14,68,50,67,53,20,9,1,2,0.6,0.5
2023-10-06T18:00:00,1920A,108.7233,34.3617,咸阳市,师范学院,,30,26,17,21,10,66,47,65,50,24,14,4,4,0.5,0.5
2023-10-06T18:00:00,1922A,109.0656,35.0994,铜川市,党校,,42,42,14,17,8,83,45,81,64,34,13,8,7,0.8,0.5
2023-10-06T18:00:00,1923A,109.0697,35.0697,铜川市,王益区政府,,41,41,15,15,7,83,48,78,65,30,8,2,1,0.6,0.4
2023-10-06T18:00:00,1924A,108.9344,34.9058,铜川市,新区管委会,,30,30,21,18,15,78,75,74,74,17,20,5,5,0.5,0.3
2023-10-06T18:00:00,1926A,109.4131,36.6275,延安市,枣园,,22,22,15,6,8,74,50,67,66,21,15,8,7,0.4,0.3
2023-10-06T18:00:00,1927A,109.4761,36.6028,延安市,延大医附院,,19,18,16,13,9,76,56,68,68,18,15,6,5,0.5,0.5
2023-10-06T18:00:00,1929A,109.5056,36.6106,延安市,百米大道,,26,26,18,9,17,67,60,63,62,18,19,6,4,0.5,0.5
2023-10-06T18:00:00,1930A,107.185,34.3063,宝鸡市,庙沟村,,21,21,13,11,7,68,49,64,49,15,14,8,8,0.3,0.3
2023-10-06T18:00:00,1931A,107.0708,34.3017,宝鸡市,竹园沟,,20,20,13,10,7,83,62,77,64,18,13,4,4,0.5,0.5
2023-10-06T18:00:00,1932A,107.1906,34.3672,宝鸡市,三陆医院,,32,32,17,18,6,77,65,76,68,25,15,7,7,0.5,0.5
2023-10-06T18:00:00,1933A,107.1431,34.3547,宝鸡市,监测站,,30,30,16,18,11,76,62,76,65,22,13,6,6,0.5,0.4
2023-10-06T18:00:00,1934A,107.1186,34.3739,宝鸡市,技工学校,,27,27,16,17,13,74,60,72,64,30,19,7,6,0.5,0.4
2023-10-06T18:00:00,1935A,107.3906,34.3528,宝鸡市,陈仓区环保局家属楼,,25,24,14,17,14,82,71,80,70,22,18,9,7,0.5,0.5
2023-10-06T18:00:00,1936A,107.2058,34.3497,宝鸡市,文理学院,,,,14,4,3,78,65,77,70,23,14,6,7,0.8,0.5
2023-10-06T18:00:00,1937A,107.2386,34.3622,宝鸡市,三迪小学,,23,23,15,14,6,78,66,76,70,26,16,7,6,0.5,0.5
2023-10-06T18:00:00,1938A,109.5293,34.5101,渭南市,农科所,,32,24,19,22,17,70,45,63,56,19,13,3,4,0.6,0.5
2023-10-06T18:00:00,1939A,109.4974,34.4877,渭南市,日报社,,31,31,20,21,16,79,34,65,57,30,16,4,4,0.5,0.4
2023-10-06T18:00:00,1940A,109.4636,34.493,渭南市,体育馆,,39,31,21,27,14,79,39,66,57,24,15,2,2,0.6,0.5
2023-10-06T18:00:00,1941A,109.4259,34.5023,渭南市,高新一小,,45,42,23,31,16,75,42,61,56,27,16,8,7,0.5,0.4
2023-10-06T18:00:00,1944A,102.1692,38.5167,金昌市,天庆家园,,,31,23,16,13,112,110,94,94,16,13,14,8,,0.8
2023-10-06T18:00:00,1945A,98.2908,39.7711,嘉峪关市,气象局,颗粒物(PM10),67,83,86,24,26,142,135,123,123,12,28,24,21,0.4,0.4
2023-10-06T18:00:00,1947A,106.3394,38.817,石嘴山市,沙湖旅游区,,49,43,30,34,31,120,119,102,102,6,12,16,13,0.5,0.6
2023-10-06T18:00:00,1948A,106.3668,39.0145,石嘴山市,大武口朝阳西街,细颗粒物(PM2.5),152,133,53,116,51,87,79,70,70,33,19,55,18,1.4,0.7
2023-10-06T18:00:00,1949A,106.7704,39.2282,石嘴山市,惠农南大街,,33,33,25,20,21,94,89,80,80,21,23,12,11,0.7,0.7
2023-10-06T18:00:00,1950A,106.7099,39.1325,石嘴山市,红果子镇惠新街,,35,35,29,20,24,100,98,88,88,13,18,8,7,0.4,0.5
2023-10-06T18:00:00,1951A,84.895,45.6094,克拉玛依市,长征新村,,30,18,25,6,7,94,94,79,79,4,18,10,10,0.2,0.3
2023-10-06T18:00:00,1952A,84.8988,45.5893,克拉玛依市,南林小区,,32,23,28,9,14,101,100,82,82,6,25,6,6,0.2,0.5
2023-10-06T18:00:00,1954A,84.905,44.3396,克拉玛依市,独山子区,,41,41,40,18,21,124,124,102,102,11,18,6,5,0.3,0.4
2023-10-06T18:00:00,1955A,85.6979,46.098,克拉玛依市,乌尔禾区商贸楼,,32,7,24,8,11,102,100,84,84,4,17,7,7,0.2,0.3
2023-10-06T18:00:00,1956A,86.1472,41.7538,巴音郭楞州,孔雀公园,颗粒物(PM10),55,59,68,23,20,109,106,96,96,6,27,9,10,0.3,0.5
2023-10-06T18:00:00,1957A,86.1972,41.7166,巴音郭楞州,棉纺厂,颗粒物(PM10),52,54,99,22,27,110,108,98,98,5,25,6,8,0.2,0.4
2023-10-06T18:00:00,1958A,86.2357,41.7173,巴音郭楞州,经济开发区,颗粒物(PM10),52,54,78,22,22,106,104,100,100,8,14,2,3,0.3,0.3
2023-10-06T18:00:00,1961A,117.532,36.6868,济南市,东山小学,颗粒物(PM10),77,103,69,34,21,96,78,86,86,47,47,10,8,1.0,0.6
2023-10-06T18:00:00,1966A,120.0405,35.8735,青岛市,黄岛区4号,,39,39,28,9,7,86,54,83,73,38,21,6,6,0.5,0.5
2023-10-06T18:00:00,1982A,122.0693,37.2174,威海市,文登开发区,,,53,27,12,7,106,68,91,91,40,16,,9,0.7,0.5
2023-10-06T18:00:00,2031A,113.1817,27.9958,株洲市,云田中学,颗粒物(PM10),53,56,59,28,36,101,80,94,94,20,21,8,8,0.7,0.7
2023-10-06T18:00:00,2054A,114.1099,32.1059,信阳市,平桥分局,细颗粒物(PM2.5),53,42,54,37,29,89,41,76,49,26,17,3,4,0.9,0.7
2023-10-06T18:00:00,2064A,113.9956,32.1271,信阳市,南湾水厂,颗粒物(PM10),53,55,58,32,29,91,44,67,46,17,15,3,4,0.9,0.7
2023-10-06T18:00:00,2065A,114.0775,32.1195,信阳市,市酿酒公司,,,53,57,21,28,90,42,72,45,,19,2,4,1.0,0.8
2023-10-06T18:00:00,2066A,114.0609,32.1399,信阳市,审计局,,46,46,52,32,26,91,46,76,49,25,18,4,5,1.0,0.8
2023-10-06T18:00:00,2067A,114.6613,33.6128,周口市,市环境监测站,,41,41,75,25,43,84,34,32,32,35,34,7,10,0.5,0.5
2023-10-06T18:00:00,2068A,114.6758,33.6347,周口市,周口师范,,45,37,71,31,44,81,30,32,32,34,32,4,7,0.6,0.6
2023-10-06T18:00:00,2069A,114.6546,33.5979,周口市,市运管处,颗粒物(PM10),54,58,90,25,42,88,33,35,35,32,32,5,8,0.4,0.5
2023-10-06T18:00:00,2070A,114.6369,33.6406,周口市,川汇区环保局,,38,38,69,24,43,78,29,34,34,40,38,7,9,0.5,0.5
2023-10-06T18:00:00,2075A,117.6336,24.4674,漳州市,九湖,,,,,,,,,,,,,,,,
2023-10-06T18:00:00,2160A,112.85,35.5051,晋城市,自来水公司,,32,29,50,7,16,109,102,93,93,16,36,6,6,0.4,0.8
2023-10-06T18:00:00,2161A,112.8318,35.4936,晋城市,白云商贸,,31,23,47,5,11,107,97,90,90,14,33,5,5,0.5,0.8
2023-10-06T18:00:00,2162A,112.8508,35.4887,晋城市,市环保局,,34,34,56,9,15,107,95,90,90,18,37,7,7,0.4,0.7
2023-10-06T18:00:00,2163A,112.8676,35.4897,晋城市,技术学院,,32,30,48,5,12,107,102,89,89,16,41,5,6,0.5,0.7
2023-10-06T18:00:00,2165A,112.8453,35.546,晋城市,白马寺,,,,,,,,,,,,,,,,
2023-10-06T18:00:00,2166A,112.4397,39.3522,朔州市,平朔,,29,24,74,19,32,105,92,93,93,14,34,4,11,0.6,0.9
2023-10-06T18:00:00,2167A,112.4575,39.3617,朔州市,朔唯,,37,37,96,21,37,96,80,84,84,23,43,6,15,0.6,0.8
2023-10-06T18:00:00,2168A,112.4258,39.3197,朔州市,区政府,,35,35,56,15,33,105,87,94,94,16,29,4,10,0.4,0.5
2023-10-06T18:00:00,2169A,112.4072,39.3278,朔州市,市环保局,,45,45,68,18,28,104,85,94,94,17,28,6,12,0.6,0.8
2023-10-06T18:00:00,2170A,112.4272,39.3681,朔州市,市二中,,32,32,86,10,32,102,89,88,88,12,37,5,12,0.6,0.8
2023-10-06T18:00:00,2171A,112.7532,37.6945,晋中市,锦纶小区,颗粒物(PM10),57,63,46,38,28,114,90,99,99,30,30,11,10,0.7,0.7
2023-10-06T18:00:00,2173A,112.7249,37.7067,晋中市,南都小区,,46,46,48,32,36,113,95,95,95,24,28,11,10,0.5,0.7
2023-10-06T18:00:00,2174A,112.6991,37.6982,晋中市,榆次区政府,颗粒物(PM10),57,64,48,26,33,112,93,92,92,27,31,11,10,0.7,0.8
2023-10-06T18:00:00,2175A,110.9956,35.0147,运城市,运城中学,,26,18,25,14,15,91,82,85,85,19,17,4,6,0.7,0.8
2023-10-06T18:00:00,2178A,110.9686,35.0303,运城市,地区技校,,26,26,29,10,13,96,74,85,84,12,16,5,6,0.3,0.5
2023-10-06T18:00:00,2179A,111.0414,35.1147,运城市,空港新区,,28,28,34,18,23,92,86,80,80,15,15,4,6,0.5,0.7
2023-10-06T18:00:00,2181A,112.7383,38.4519,忻州市,开发区,,32,28,36,14,21,112,101,89,89,15,28,11,22,0.6,0.7
2023-10-06T18:00:00,2182A,112.7003,38.4928,忻州市,会展中心,,27,23,31,15,20,105,85,77,77,18,28,7,11,0.4,0.5
2023-10-06T18:00:00,2183A,111.1406,37.5211,吕梁市,环保局,,44,44,38,20,23,77,62,59,59,25,38,9,7,0.5,0.6
2023-10-06T18:00:00,2185A,111.1297,37.5136,吕梁市,自来水公司,,37,37,35,22,29,76,63,63,63,26,33,9,5,0.5,0.7
2023-10-06T18:00:00,2187A,106.8174,39.6973,乌海市,市林业局,颗粒物(PM10),52,53,53,35,32,78,57,78,55,44,29,18,22,0.8,0.8
2023-10-06T18:00:00,2188A,106.7907,39.6667,乌海市,中海勃湾学校,细颗粒物(PM2.5),62,61,52,44,31,91,68,73,58,30,24,13,16,0.6,0.6
2023-10-06T18:00:00,2191A,122.2532,43.6801,通辽市,艺术职业学校,,36,23,41,25,12,87,53,79,78,39,20,5,5,0.8,0.5
2023-10-06T18:00:00,2192A,119.7594,49.2261,呼伦贝尔市,区环保局,,33,32,36,23,20,74,66,62,62,16,28,5,5,0.3,0.4
2023-10-06T18:00:00,2195A,107.4212,40.761,巴彦淖尔市,附二中,,32,29,76,12,28,113,100,102,102,12,32,2,6,0.5,0.6
2023-10-06T18:00:00,2196A,107.37,40.7372,巴彦淖尔市,市环保大楼,,32,32,69,18,31,110,102,103,103,6,26,3,4,0.5,0.6
2023-10-06T18:00:00,2197A,113.1306,40.9923,乌兰察布市,集宁新区,,40,36,43,28,25,104,104,78,78,15,36,8,11,0.4,0.5
2023-10-06T18:00:00,2200A,122.0392,46.0656,兴安盟,胜华新制药厂,,38,38,39,15,23,66,39,59,58,25,22,5,3,0.9,0.5
2023-10-06T18:00:00,2201A,121.9504,46.0741,兴安盟,科右前旗环保局,,30,30,36,20,24,68,43,63,60,24,23,5,4,0.5,0.5
2023-10-06T18:00:00,2202A,116.1042,43.9317,锡林郭勒盟,市环保监测站,,27,27,19,7,5,87,70,76,76,12,12,12,10,0.3,0.3
2023-10-06T18:00:00,2203A,116.0781,43.9311,锡林郭勒盟,市政府,,26,7,15,5,5,96,82,86,86,13,12,12,12,0.2,0.2
2023-10-06T18:00:00,2204A,105.6467,38.8363,阿拉善盟,西城区西花园,,36,16,19,12,15,117,114,111,111,10,11,9,10,0.6,0.6
2023-10-06T18:00:00,2205A,105.6985,38.8411,阿拉善盟,蒙二幼,,35,11,16,7,13,112,112,107,107,8,9,10,10,0.4,0.4
2023-10-06T18:00:00,2206A,105.724,38.8516,阿拉善盟,环保局新楼,,33,17,21,10,13,107,105,103,103,7,7,7,7,0.5,0.5
2023-10-06T18:00:00,2207A,121.6094,41.998,阜新市,工业园区,,33,33,56,11,19,92,73,83,83,22,30,3,8,0.7,0.6
2023-10-06T18:00:00,2208A,121.6697,42.0279,阜新市,长青街,,31,31,48,11,24,86,59,74,74,22,30,6,10,0.4,0.5
2023-10-06T18:00:00,2209A,121.6673,42.0705,阜新市,农业园区,,23,17,32,16,28,86,69,78,78,19,21,9,13,0.8,0.6
2023-10-06T18:00:00,2210A,121.6717,42.0224,阜新市,东苑,,32,32,54,15,29,86,58,74,74,25,33,10,18,0.7,0.9
2023-10-06T18:00:00,2211A,121.6506,42.0498,阜新市,玉龙新城,,29,29,67,12,16,92,67,82,82,25,30,7,7,1.0,0.5
2023-10-06T18:00:00,2212A,123.2,41.1953,辽阳市,宏伟区,,26,26,40,16,16,96,75,80,80,28,32,9,13,0.5,0.8
2023-10-06T18:00:00,2213A,123.1683,41.2495,辽阳市,新华园,,32,32,49,19,21,82,61,71,71,29,34,9,14,0.5,0.9
2023-10-06T18:00:00,2214A,123.2354,41.2639,辽阳市,滨河路,,44,44,45,10,11,91,31,74,73,49,26,8,11,0.6,0.7
2023-10-06T18:00:00,2215A,123.149,41.2991,辽阳市,铁西工业园,颗粒物(PM10),72,93,53,27,25,86,50,79,74,24,32,11,14,0.6,0.9
2023-10-06T18:00:00,2216A,123.8139,42.3022,铁岭市,汇工街西,颗粒物(PM10),51,52,50,24,31,89,66,74,74,25,35,8,35,0.4,0.7
2023-10-06T18:00:00,2217A,123.8649,42.2923,铁岭市,水上乐园,,,35,49,14,25,67,58,57,57,,24,,12,0.4,0.6
2023-10-06T18:00:00,2218A,123.8486,42.2867,铁岭市,银州路东段,,49,49,49,23,21,84,64,71,71,32,37,5,9,0.5,0.6
2023-10-06T18:00:00,2219A,123.7153,42.2217,铁岭市,金沙江路北,,36,36,42,17,22,87,74,75,75,16,36,13,16,0.4,0.7
2023-10-06T18:00:00,2220A,120.4318,41.5881,朝阳市,西梁,,34,34,58,15,27,100,76,83,83,22,31,11,12,0.6,0.8
2023-10-06T18:00:00,2221A,120.4521,41.5646,朝阳市,河畔小区,,30,30,45,15,22,102,90,88,88,12,24,8,13,0.4,0.7
2023-10-06T18:00:00,2222A,120.4176,41.5648,朝阳市,八里堡,颗粒物(PM10),57,63,59,22,26,101,64,83,83,41,35,10,13,1.8,1.1
2023-10-06T18:00:00,2223A,120.3806,41.5969,朝阳市,农业园区,,38,38,45,21,20,96,70,81,81,26,36,9,9,0.6,0.7
2023-10-06T18:00:00,2225A,124.4002,43.1713,四平市,一商场,颗粒物(PM10),58,65,45,18,21,78,33,64,62,51,25,7,8,0.4,0.3
2023-10-06T18:00:00,2226A,124.388,43.193,四平市,境园,,32,23,44,22,25,86,54,71,71,23,28,4,5,0.3,0.4
2023-10-06T18:00:00,2227A,125.1358,42.8845,辽源市,环保局,,28,28,31,14,18,93,70,82,82,19,21,10,8,0.7,0.6
2023-10-06T18:00:00,2229A,125.9358,41.7173,通化市,光明,,20,20,24,8,10,83,60,72,72,30,25,11,11,0.6,0.3
2023-10-06T18:00:00,2230A,125.9446,41.7325,通化市,铁路,,21,17,25,2,12,88,65,73,73,24,23,6,10,0.5,0.6
2023-10-06T18:00:00,2231A,126.4219,41.9171,白山市,喜丰,,26,26,39,5,14,84,61,75,75,27,24,6,8,0.6,0.6
2023-10-06T18:00:00,2232A,126.4077,41.9419,白山市,环保局,,31,31,42,19,13,81,65,76,75,19,22,7,10,0.4,0.5
2023-10-06T18:00:00,2233A,124.8006,45.1214,松原市,江南,,23,23,47,5,26,75,56,66,66,19,27,6,7,0.4,0.6
2023-10-06T18:00:00,2234A,124.7965,45.1722,松原市,江北,,30,30,27,10,14,68,36,63,60,25,24,3,3,0.4,0.5
2023-10-06T18:00:00,2235A,122.7911,45.6077,白城市,洮北区环保局,,33,33,25,10,15,79,47,70,69,33,20,7,8,0.5,0.5
2023-10-06T18:00:00,2236A,122.8738,45.5725,白城市,市环保局,,37,37,30,17,10,75,48,68,67,24,18,10,9,0.4,0.4
2023-10-06T18:00:00,2237A,129.47,42.8883,延边朝鲜族自治州,妇幼医院,,27,27,16,18,6,70,51,67,65,21,12,7,6,0.5,0.4
2023-10-06T18:00:00,2238A,129.5055,42.9108,延边朝鲜族自治州,延边医院,颗粒物(PM10),74,98,47,11,9,71,60,68,67,15,12,6,6,0.5,0.4
2023-10-06T18:00:00,2239A,129.3964,42.8881,延边朝鲜族自治州,朝阳川镇医院,,31,31,14,16,4,77,62,75,73,8,7,4,4,0.5,0.4
2023-10-06T18:00:00,2240A,130.9762,45.3001,鸡西市,环保局,,21,21,16,8,5,48,31,45,44,31,9,6,4,0.3,0.1
2023-10-06T18:00:00,2243A,130.9429,45.3039,鸡西市,第一中学,,21,21,13,4,4,62,34,58,56,26,6,10,6,0.1,0.1
2023-10-06T18:00:00,2244A,130.2537,47.3416,鹤岗市,哈啤分公司,,23,23,12,13,12,59,55,57,57,4,5,8,9,0.2,0.1
2023-10-06T18:00:00,2245A,130.2684,47.3086,鹤岗市,斯达机电,,30,17,16,21,14,60,44,57,56,18,6,7,7,0.2,0.2
2023-10-06T18:00:00,2246A,130.3114,47.3388,鹤岗市,东山纸板厂,,33,33,52,14,12,65,60,62,62,4,4,9,9,0.2,0.2
2023-10-06T18:00:00,2247A,130.1097,47.3382,鹤岗市,五号水库,,19,8,10,12,12,63,58,61,61,4,4,10,10,0.2,0.2
2023-10-06T18:00:00,2248A,131.1511,46.6937,双鸭山市,双合村,,16,16,11,6,5,62,42,58,57,10,3,9,8,0.3,0.2
2023-10-06T18:00:00,2249A,131.1652,46.6191,双鸭山市,南小市,,24,24,12,11,3,64,42,60,58,17,5,7,8,0.3,0.3
2023-10-06T18:00:00,2250A,131.1524,46.6554,双鸭山市,环保局,,23,23,19,15,11,59,48,55,55,11,7,7,7,0.2,0.1
2023-10-06T18:00:00,2251A,131.12,46.5656,双鸭山市,苗圃,,29,29,14,18,11,90,68,82,82,9,7,5,8,0.3,0.5
2023-10-06T18:00:00,2252A,128.5159,47.4311,伊春市,环保局,,35,19,19,24,10,62,38,56,53,18,13,7,5,0.4,0.4
2023-10-06T18:00:00,2253A,128.9102,47.7412,伊春市,电力嘉园,,18,15,15,11,11,72,55,63,63,9,10,6,5,0.3,0.3
2023-10-06T18:00:00,2254A,129.5029,48.471,伊春市,汤旺河国家公园,,,0,24,0,10,54,12,49,46,,3,7,7,0.6,0.1
2023-10-06T18:00:00,2255A,130.2751,46.8028,佳木斯市,佳纺,,28,28,23,10,7,56,19,52,46,45,13,6,4,0.6,0.4
2023-10-06T18:00:00,2256A,130.3995,46.8307,佳木斯市,发电厂,,38,38,15,10,7,60,25,54,50,19,9,5,6,0.5,0.4
2023-10-06T18:00:00,2257A,130.3258,46.7975,佳木斯市,环保局,,16,16,16,7,6,58,31,55,51,27,13,5,6,0.5,0.4
2023-10-06T18:00:00,2258A,130.3648,46.8032,佳木斯市,十一中,,23,23,17,11,8,59,28,54,49,33,16,3,5,0.6,0.5
2023-10-06T18:00:00,2259A,130.3794,46.7588,佳木斯市,四丰,,15,15,13,8,6,68,28,63,58,29,13,1,1,0.2,0.1
2023-10-06T18:00:00,2262A,131.0518,45.8751,七台河市,新一中,,21,14,8,3,4,77,66,71,71,5,4,8,7,0.6,0.5
2023-10-06T18:00:00,2263A,127.4833,50.2524,黑河市,交通局,颗粒物(PM10),68,85,23,14,9,68,28,56,54,47,14,6,3,0.4,0.3
2023-10-06T18:00:00,2264A,127.5144,50.2341,黑河市,环保局,,36,36,22,8,10,63,38,55,53,34,11,2,7,0.4,0.3
2023-10-06T18:00:00,2265A,127.5291,50.2472,黑河市,大黑河岛,,,33,27,14,14,,,,,2,2,1,4,,
2023-10-06T18:00:00,2266A,126.9785,46.6365,绥化市,人和东街,,19,19,18,6,8,66,51,59,59,15,13,1,2,0.4,0.4
2023-10-06T18:00:00,2267A,126.964,46.6528,绥化市,党政办公中心,,18,16,16,4,8,70,55,63,63,12,11,2,2,0.3,0.3
2023-10-06T18:00:00,2269A,124.1069,50.4097,大兴安岭地区,科技局,,24,24,12,14,12,68,48,59,59,19,5,6,6,0.2,0.1
2023-10-06T18:00:00,2270A,117.396,32.939,蚌埠市,工人疗养院,颗粒物(PM10),55,59,60,18,18,84,54,61,54,23,20,5,5,0.5,0.4
2023-10-06T18:00:00,2271A,117.3605,32.9427,蚌埠市,百货大楼,颗粒物(PM10),54,58,58,16,14,83,54,60,57,24,19,6,5,0.5,0.3
2023-10-06T18:00:00,2273A,117.4185,32.8911,蚌埠市,蚌埠学院,,48,48,51,16,18,70,52,70,54,28,33,5,8,0.5,0.4
2023-10-06T18:00:00,2274A,117.3533,32.9673,蚌埠市,淮上区政府,颗粒物(PM10),62,73,59,27,24,89,50,63,55,33,20,7,6,0.4,0.3
2023-10-06T18:00:00,2275A,117.3145,32.8977,蚌埠市,高新区,,48,48,48,21,16,97,63,75,60,27,24,6,6,0.6,0.4
2023-10-06T18:00:00,2277A,116.8305,32.7727,淮南市,潘集区政府,颗粒物(PM10),54,58,48,30,21,90,29,61,45,44,23,8,8,0.4,0.3
2023-10-06T18:00:00,2278A,117.0067,32.6524,淮南市,师范学院,颗粒物(PM10),58,65,53,29,20,85,46,74,53,34,21,6,8,0.4,0.3
2023-10-06T18:00:00,2279A,116.8569,32.5951,淮南市,谢家集区政府,,50,50,39,28,15,89,33,79,57,45,20,6,8,0.4,0.2
2023-10-06T18:00:00,2280A,116.8281,32.633,淮南市,八公山区政府,颗粒物(PM10),53,56,49,21,15,85,43,70,52,28,19,10,11,0.4,0.3
2023-10-06T18:00:00,2281A,116.6325,32.6201,淮南市,焦岗湖风景区管理处,,32,32,31,9,13,91,39,72,54,18,12,1,2,0.3,0.2
2023-10-06T18:00:00,2282A,116.8004,33.975,淮北市,监测站,颗粒物(PM10),53,56,58,26,23,92,42,70,55,42,28,10,10,0.6,0.5
2023-10-06T18:00:00,2283A,116.8091,33.9007,淮北市,烈山区政府,颗粒物(PM10),55,59,65,32,25,113,52,77,73,34,22,8,8,0.4,0.4
2023-10-06T18:00:00,2285A,117.8177,30.9412,铜陵市,市第四中学,,44,44,45,19,13,97,75,74,74,12,8,7,6,0.6,0.4
2023-10-06T18:00:00,2286A,117.8059,30.9273,铜陵市,市公路局,,42,42,39,20,14,108,82,82,82,16,12,5,5,0.6,0.4
2023-10-06T18:00:00,2287A,117.7807,30.9413,铜陵市,市新民污水厂,,38,38,36,19,12,115,86,84,84,14,11,8,7,0.4,0.2
2023-10-06T18:00:00,2288A,117.7439,30.8792,铜陵市,市第九中学,颗粒物(PM10),51,52,49,15,12,118,87,85,85,11,11,2,3,0.5,0.4
2023-10-06T18:00:00,2289A,117.846,30.9413,铜陵市,车站新区,,34,34,31,19,12,107,78,80,80,15,11,4,4,0.4,0.2
2023-10-06T18:00:00,2290A,117.8483,30.97,铜陵市,市职教基地,,40,40,38,14,8,109,82,83,83,11,9,10,10,0.5,0.4
2023-10-06T18:00:00,2291A,117.0809,30.5177,安庆市,环科院,颗粒物(PM10),51,51,41,21,14,124,84,90,90,20,16,10,9,0.6,0.5
2023-10-06T18:00:00,2292A,117.0331,30.5119,安庆市,马山宾馆,,39,39,42,18,12,124,91,96,96,18,15,7,6,0.6,0.5
2023-10-06T18:00:00,2294A,116.9896,30.6145,安庆市,安庆大学,,48,48,37,22,12,131,98,100,100,16,17,6,7,0.5,0.4
2023-10-06T18:00:00,2295A,118.2903,29.6963,黄山市,延安路89号,,26,21,34,3,9,112,81,97,81,6,7,4,5,0.3,0.3
2023-10-06T18:00:00,2296A,118.327,29.7178,黄山市,黄山东路89号,,26,17,34,7,10,110,82,88,78,6,7,4,5,0.4,0.4
2023-10-06T18:00:00,2297A,118.1371,30.2756,黄山市,黄山区政府5号楼,,47,47,38,19,11,98,60,75,74,11,10,6,6,0.5,0.4
2023-10-06T18:00:00,2298A,118.3093,32.3153,滁州市,老年大学,,33,33,35,10,9,93,66,83,82,23,16,7,8,0.3,0.2
2023-10-06T18:00:00,2299A,118.3244,32.2786,滁州市,人大宾馆,,38,38,39,15,11,94,72,82,82,13,12,7,7,0.3,0.2
2023-10-06T18:00:00,2301A,115.8277,32.8929,阜阳市,市监测站,,22,22,41,14,16,94,59,76,75,27,18,8,8,0.5,0.3
2023-10-06T18:00:00,2303A,115.8554,32.8605,阜阳市,开发区,,32,24,56,22,26,88,66,69,69,27,23,9,9,0.6,0.5
2023-10-06T18:00:00,2307A,116.5079,31.737,六安市,监测大楼,颗粒物(PM10),53,55,36,11,7,81,54,74,65,24,14,6,4,0.2,0.1
2023-10-06T18:00:00,2308A,116.4738,31.7643,六安市,皖西学院,颗粒物(PM10),54,58,45,12,7,89,56,72,67,26,17,8,9,0.4,0.3
2023-10-06T18:00:00,2309A,116.4996,31.7905,六安市,朝阳厂,颗粒物(PM10),52,53,36,21,8,88,54,70,67,26,16,8,7,0.4,0.3
2023-10-06T18:00:00,2310A,116.5567,31.7886,六安市,开发区,颗粒物(PM10),58,65,45,16,11,82,45,67,60,27,14,7,6,0.5,0.3
2023-10-06T18:00:00,2311A,115.8072,33.8399,亳州市,污水处理厂,,40,40,67,24,37,90,54,59,59,23,24,9,12,0.5,0.5
2023-10-06T18:00:00,2312A,115.7789,33.8518,亳州市,三国揽胜宫,,43,43,61,23,28,102,72,68,68,17,23,7,11,0.4,0.3
2023-10-06T18:00:00,2314A,117.47,30.6618,池州市,池州学院,颗粒物(PM10),52,53,44,20,14,124,78,84,84,16,13,6,7,0.5,0.4
2023-10-06T18:00:00,2316A,118.7581,30.9454,宣城市,鳌峰子站,,40,40,46,17,14,100,75,81,81,18,16,4,4,0.6,0.5
2023-10-06T18:00:00,2317A,118.7385,30.9743,宣城市,敬亭山子站,,26,26,28,16,14,95,73,84,84,28,25,6,6,0.5,0.4
2023-10-06T18:00:00,2318A,118.7173,30.9427,宣城市,开发区子站,,40,40,40,17,14,99,72,77,77,22,19,6,5,0.6,0.6
2023-10-06T18:00:00,2319A,119.0141,25.4325,莆田市,荔城区仓后路,,22,18,11,4,1,109,70,87,70,9,6,7,7,0.7,0.6
2023-10-06T18:00:00,2320A,119.0015,25.4553,莆田市,莆田市监测站,,25,13,9,6,2,119,79,92,78,4,2,6,6,0.6,0.6
2023-10-06T18:00:00,2321A,119.1119,25.4561,莆田市,涵江区六中,,26,18,9,3,1,115,81,90,82,7,4,6,6,0.6,0.5
2023-10-06T18:00:00,2322A,119.1013,25.3215,莆田市,秀屿区政府,,27,27,12,10,2,111,70,85,76,14,5,6,6,0.7,0.6
2023-10-06T18:00:00,2323A,118.981,25.4792,莆田市,东圳水库,,,,,,,,,,,,,,,,
2023-10-06T18:00:00,2324A,117.6211,26.2625,三明市,三钢,,26,16,23,18,19,82,60,79,72,10,11,7,9,0.5,0.5
2023-10-06T18:00:00,2325A,117.635,26.2714,三明市,三明二中,,19,18,22,13,14,93,60,91,71,12,14,3,6,0.5,0.5
2023-10-06T18:00:00,2326A,117.6028,26.2378,三明市,三元区政府,,20,16,24,10,11,98,62,97,74,13,12,8,10,0.4,0.4
2023-10-06T18:00:00,2327A,117.7275,26.3108,三明市,洋溪,,,,,,,,,,,,,,,,
2023-10-06T18:00:00,2331A,118.0966,26.6761,南平市,茫荡山,,,,,,,,,,,,,,,,
2023-10-06T18:00:00,2332A,118.1681,26.6369,南平市,南平市监测站,,22,22,21,15,10,96,62,94,71,10,9,4,4,0.5,0.5
2023-10-06T18:00:00,2333A,118.1825,26.6489,南平市,南平铝业有限公司,,20,18,23,11,11,100,61,100,68,10,9,4,4,0.5,0.5
2023-10-06T18:00:00,2334A,118.1756,26.6272,南平市,南平七中,,25,19,22,17,12,106,52,102,69,8,8,4,6,0.6,0.6
2023-10-06T18:00:00,2335A,117.0189,25.1181,龙岩市,龙岩师专,,,,,,,,,,,,,,,,
2023-10-06T18:00:00,2336A,117.0217,25.1033,龙岩市,龙岩市监测站,,22,17,17,15,8,93,68,91,77,12,9,4,4,0.4,0.4
2023-10-06T18:00:00,2337A,117.0258,25.0661,龙岩市,闽西职业技术学院,,22,22,17,10,9,96,69,94,77,9,6,5,5,0.4,0.3
2023-10-06T18:00:00,2338A,117.0196,25.0306,龙岩市,龙岩学院,,24,18,16,10,7,94,75,92,79,5,5,4,3,0.3,0.3
2023-10-06T18:00:00,2339A,119.5001,26.6946,宁德市,金涵水库,,,,,,,,,,,,,,,,
2023-10-06T18:00:00,2341A,119.5388,26.6612,宁德市,宁德市监测站,,19,16,25,12,12,100,60,81,65,12,12,5,6,0.5,0.5
2023-10-06T18:00:00,2342A,117.3102,29.3867,景德镇市,王港中学,,23,23,30,15,16,104,67,86,78,7,7,3,3,0.3,0.3
2023-10-06T18:00:00,2343A,117.2117,29.2933,景德镇市,老干部活动中心,,23,22,33,16,20,102,62,81,72,12,10,4,7,0.4,0.4
2023-10-06T18:00:00,2344A,117.1894,29.2789,景德镇市,兽医站,,42,42,38,20,25,102,60,78,69,11,9,6,10,0.3,0.3
2023-10-06T18:00:00,2345A,117.1547,29.2617,景德镇市,台达陶瓷,,30,30,32,16,18,100,62,83,70,11,9,11,13,0.4,0.4
2023-10-06T18:00:00,2346A,117.2461,29.2956,景德镇市,陶研所,,33,33,46,11,15,97,59,74,69,5,6,4,4,0.4,0.4
2023-10-06T18:00:00,2347A,114.0997,27.5002,萍乡市,武功山,,27,27,22,15,14,100,80,91,91,7,6,3,8,0.5,0.6
2023-10-06T18:00:00,2348A,113.8385,27.6434,萍乡市,中医院,颗粒物(PM10),55,59,52,23,28,97,84,92,92,15,18,13,14,0.6,0.6
2023-10-06T18:00:00,2349A,113.8493,27.6253,萍乡市,市政府车库,颗粒物(PM10),54,57,47,29,26,91,81,87,87,17,15,9,12,1.0,0.6
2023-10-06T18:00:00,2350A,113.8676,27.6435,萍乡市,市环保局,颗粒物(PM10),53,56,47,28,27,104,86,90,90,14,16,6,12,0.5,0.6
2023-10-06T18:00:00,2351A,113.866,27.6198,萍乡市,安源区政府,颗粒物(PM10),53,55,46,20,25,98,87,90,90,14,15,8,11,0.4,0.9
2023-10-06T18:00:00,2352A,115.0861,27.9317,新余市,北岗,,28,26,31,11,19,116,88,92,88,11,9,15,15,0.4,0.6
2023-10-06T18:00:00,2353A,114.9886,27.8431,新余市,飞宇,,40,40,51,16,22,113,83,86,84,20,16,8,11,0.3,0.5
2023-10-06T18:00:00,2354A,114.9231,27.8246,新余市,第二水厂,,44,44,51,14,24,126,95,100,93,13,13,9,10,0.3,0.4
2023-10-06T18:00:00,2355A,114.9308,27.8036,新余市,市气象局,,36,36,41,20,23,122,88,96,88,18,13,10,10,0.4,0.5
2023-10-06T18:00:00,2357A,116.9822,28.1136,鹰潭市,龙虎山,,23,18,36,9,6,133,71,89,81,1,5,6,8,0,0
2023-10-06T18:00:00,2358A,117.0564,28.2642,鹰潭市,新监测站,,27,27,42,7,13,121,62,92,78,12,11,4,9,0.3,0.3
2023-10-06T18:00:00,2359A,117.0311,28.2475,鹰潭市,财苑宾馆,,26,26,41,5,13,131,73,96,85,8,8,9,9,0.2,0.2
2023-10-06T18:00:00,2360A,117.0222,28.2264,鹰潭市,体育馆,,33,33,44,8,13,125,70,90,80,10,7,14,9,0.4,0.3
2023-10-06T18:00:00,2361A,117.0017,28.2131,鹰潭市,三川水表,,37,37,48,19,17,121,68,90,78,14,12,13,7,0.5,0.4
2023-10-06T18:00:00,2362A,114.9017,25.9149,赣州市,通天岩,,,,,,,,,,,,,,,,
2023-10-06T18:00:00,2363A,114.9367,25.8664,赣州市,地委,细颗粒物(PM2.5),59,42,48,42,28,108,82,108,88,8,8,15,16,1.2,1.2
2023-10-06T18:00:00,2364A,114.9461,25.8481,赣州市,气象台,,33,33,41,20,28,118,81,118,88,18,12,7,8,1.0,1
2023-10-06T18:00:00,2365A,114.9322,25.8333,赣州市,市图书馆,颗粒物(PM10),62,73,58,26,28,110,83,108,90,12,10,8,17,0.9,1
2023-10-06T18:00:00,2366A,114.8905,25.8471,赣州市,华坚鞋城,颗粒物(PM10),51,52,48,28,25,116,81,116,89,14,11,5,8,0.9,1
2023-10-06T18:00:00,2367A,114.9754,27.0803,吉安市,红声器材厂,,50,50,52,17,23,130,93,106,93,14,11,9,13,0.6,0.8
2023-10-06T18:00:00,2368A,114.9658,27.0999,吉安市,市森林工业局,,,45,49,22,26,135,96,108,95,,11,12,13,0.5,0.4
2023-10-06T18:00:00,2369A,114.99,27.1312,吉安市,市环境监测站,,46,46,47,17,23,128,88,102,90,19,15,10,10,0.5,0.5
2023-10-06T18:00:00,2370A,115.0093,27.0968,吉安市,青原区法院,,47,47,44,19,22,123,91,106,93,13,15,11,13,0.7,0.7
2023-10-06T18:00:00,2371A,114.3408,27.8064,宜春市,槟榔水业,,48,48,44,14,21,128,96,95,95,17,19,3,3,0.4,0.4
2023-10-06T18:00:00,2373A,114.3956,27.7844,宜春市,市石油公司,,48,48,53,20,27,128,94,93,93,17,20,6,8,0.7,0.8
2023-10-06T18:00:00,2374A,114.3703,27.7914,宜春市,市气象局,颗粒物(PM10),55,59,68,22,26,121,86,86,86,16,16,4,6,0.8,0.9
2023-10-06T18:00:00,2375A,114.4013,27.8074,宜春市,市广电局,,44,44,49,19,25,133,92,94,92,15,17,5,10,0.5,0.5
2023-10-06T18:00:00,2376A,116.2127,28.0814,抚州市,桐源党溪,,41,41,40,14,20,110,74,84,84,4,3,2,2,0.6,0.6
2023-10-06T18:00:00,2377A,116.3544,27.9831,抚州市,市站,,46,46,47,15,20,114,80,88,86,12,13,5,8,0.6,0.6
2023-10-06T18:00:00,2378A,116.3565,27.963,抚州市,血防站,,37,37,46,16,18,109,76,81,81,10,11,2,3,0.6,0.7
2023-10-06T18:00:00,2379A,116.3564,28.0007,抚州市,采茶剧团,,40,40,44,20,23,103,76,86,84,5,7,4,7,0.7,0.8
2023-10-06T18:00:00,2380A,116.385,27.9647,抚州市,医学分院,,43,43,44,16,18,110,79,87,85,9,12,5,9,0.6,0.6
2023-10-06T18:00:00,2381A,118.005,28.4572,上饶市,百草园,,,27,36,4,14,100,56,82,57,10,8,5,8,,
2023-10-06T18:00:00,2382A,117.9756,28.4436,上饶市,市监测站,,33,33,40,9,13,112,70,91,72,11,9,7,9,0.3,0.2
2023-10-06T18:00:00,2383A,117.9519,28.4628,上饶市,凤凰光学,,30,30,40,13,14,108,60,88,68,16,9,6,6,0.5,0.5
2023-10-06T18:00:00,2385A,114.17,35.9019,鹤壁市,市监测站,,26,26,46,9,29,100,78,80,80,22,32,5,11,0.8,0.8
2023-10-06T18:00:00,2386A,114.2956,35.7511,鹤壁市,市交警支队,,33,33,52,12,19,85,65,61,61,31,43,7,13,0.4,0.8
2023-10-06T18:00:00,2387A,114.2878,35.7306,鹤壁市,迎宾馆,,29,24,47,20,23,86,59,61,61,37,44,8,14,0.5,0.8
2023-10-06T18:00:00,2389A,113.836,35.311,新乡市,环保西院,,46,46,52,24,24,48,25,37,37,46,38,10,10,0.7,0.8
2023-10-06T18:00:00,2390A,113.884,35.272,新乡市,开发区,,41,41,50,22,22,52,22,41,41,40,36,11,10,0.9,1
2023-10-06T18:00:00,2391A,113.883,35.303,新乡市,环保东院,颗粒物(PM10),52,54,56,27,29,48,24,35,35,43,44,12,12,0.8,0.8
2023-10-06T18:00:00,2392A,115.0312,35.7636,濮阳市,环保局,,42,42,72,21,33,70,56,51,51,32,48,6,10,0.3,0.5
2023-10-06T18:00:00,2394A,115.0574,35.7609,濮阳市,油田运输公司,颗粒物(PM10),53,56,85,19,34,71,55,50,50,34,42,6,11,0.4,0.5
2023-10-06T18:00:00,2395A,115.0866,35.7754,濮阳市,油田物探公司,颗粒物(PM10),53,55,93,22,40,82,68,59,59,32,45,8,13,0.4,0.5
2023-10-06T18:00:00,2396A,113.8276,34.0159,许昌市,监测站,,,37,56,29,31,69,59,53,53,,37,,7,0.7,0.8
2023-10-06T18:00:00,2398A,113.7906,33.9953,许昌市,开发区,,43,37,48,30,36,77,61,56,56,27,28,6,8,0.5,0.6
2023-10-06T18:00:00,2399A,114.051,33.5699,漯河市,三五一五工厂,颗粒物(PM10),52,54,68,27,35,71,50,40,40,21,31,10,10,0.7,0.7
2023-10-06T18:00:00,2400A,114.0055,33.5698,漯河市,漯河大学,颗粒物(PM10),51,52,68,31,39,73,56,44,44,32,36,5,5,0.6,0.6
2023-10-06T18:00:00,2401A,114.0138,33.5828,漯河市,市水利局,"颗粒物(PM10),细颗粒物(PM2.5)",53,56,71,37,41,70,56,44,44,23,30,8,9,0.6,0.6
2023-10-06T18:00:00,2402A,114.0261,33.5698,漯河市,市广电局,颗粒物(PM10),51,51,66,31,41,66,49,40,40,27,32,4,5,0.8,0.8
2023-10-06T18:00:00,2404A,112.5224,33.0122,南阳市,瓦房庄,,32,29,36,22,28,88,72,85,76,20,16,4,5,0.5,0.5
2023-10-06T18:00:00,2405A,112.5003,32.9735,南阳市,汉画馆,,33,28,32,23,24,90,75,87,78,15,12,5,6,0.5,0.5
2023-10-06T18:00:00,2406A,112.5573,33.027,南阳市,气象站,,,18,28,13,25,87,70,84,75,,12,4,8,0.4,0.4
2023-10-06T18:00:00,2407A,112.5481,32.9689,南阳市,理工学院,,32,31,34,22,27,94,75,90,80,16,13,5,6,0.4,0.4
2023-10-06T18:00:00,2408A,115.6702,34.4285,商丘市,环境监测站,,44,44,79,20,33,76,46,46,46,28,38,6,7,0.5,0.6
2023-10-06T18:00:00,2409A,115.6458,34.4045,商丘市,粮食局,颗粒物(PM10),54,57,82,25,38,74,52,42,42,27,36,6,10,0.5,0.6
2023-10-06T18:00:00,2410A,115.6293,34.3948,商丘市,睢阳区环保局,,,68,81,29,39,85,39,38,38,35,38,,13,0.5,0.5
2023-10-06T18:00:00,2420A,114.0189,32.9656,驻马店市,市一纸厂,颗粒物(PM10),61,71,61,27,38,92,47,42,41,17,21,6,8,0.5,0.4
2023-10-06T18:00:00,2421A,114.0114,33.015,驻马店市,市彩印厂,,48,43,63,33,37,86,39,37,37,19,21,7,8,0.5,0.4
2023-10-06T18:00:00,2422A,113.9976,32.9771,驻马店市,天方二分厂,细颗粒物(PM2.5),58,40,61,41,41,93,45,42,42,19,22,6,8,0.4,0.4
2023-10-06T18:00:00,2423A,115.0601,30.2313,黄石市,沈家营,,34,34,44,13,13,123,91,111,111,14,11,6,5,0.4,0.3
2023-10-06T18:00:00,2424A,115.0817,30.2006,黄石市,陈家湾,,37,37,37,11,17,122,89,105,105,12,11,7,8,0.2,0.4
2023-10-06T18:00:00,2426A,114.8988,30.2019,黄石市,铁山,,33,33,32,11,13,128,87,113,112,17,8,18,11,0.9,0.5
2023-10-06T18:00:00,2427A,115.0307,30.2092,黄石市,团城山,,37,37,38,13,9,124,97,112,112,13,10,8,7,0.4,0.4
2023-10-06T18:00:00,2428A,111.0419,32.395,十堰市,武当山,,23,8,17,9,13,87,73,83,80,9,9,10,10,0.7,0.7
2023-10-06T18:00:00,2429A,110.78,32.6494,十堰市,滨河新村,,22,22,32,15,26,76,64,71,70,24,13,7,7,0.9,0.8
2023-10-06T18:00:00,2430A,110.7258,32.6389,十堰市,刘家沟,,36,15,22,25,21,78,75,71,71,8,7,6,6,0.8,0.9
2023-10-06T18:00:00,2431A,110.8839,32.5714,十堰市,铁二处,,24,22,29,15,22,86,75,78,78,15,7,6,6,0.6,0.6
2023-10-06T18:00:00,2432A,112.155,32.0197,襄阳市,襄城运动路,,38,38,52,24,31,81,65,71,68,20,15,8,9,0.6,0.6
2023-10-06T18:00:00,2433A,112.1392,32.0564,襄阳市,樊城新华路,细颗粒物(PM2.5),52,41,59,36,37,77,65,71,67,20,15,9,10,0.6,0.5
2023-10-06T18:00:00,2434A,112.1825,32.1142,襄阳市,高新管委会,细颗粒物(PM2.5),63,47,55,45,36,75,68,71,68,20,18,7,7,0.8,0.7
2023-10-06T18:00:00,2435A,112.2106,32.0903,襄阳市,襄州航空路,,49,35,53,34,35,82,71,78,71,19,16,9,9,0.6,0.6
2023-10-06T18:00:00,2436A,114.8938,30.3994,鄂州市,市政府,,26,26,37,11,15,111,70,99,97,14,14,4,4,0.5,0.4
2023-10-06T18:00:00,2437A,114.8989,30.3714,鄂州市,赵家坝,,31,31,43,10,17,114,77,102,101,15,20,5,5,0.5,0.5
2023-10-06T18:00:00,2439A,112.2014,31.0481,荆门市,竹园小学,,33,30,56,23,37,89,71,84,81,20,13,9,9,0.6,0.6
2023-10-06T18:00:00,2440A,112.1969,30.9891,荆门市,掇刀,,32,21,50,22,36,88,73,84,82,16,11,5,6,0.5,0.6
2023-10-06T18:00:00,2441A,112.2213,31.0386,荆门市,石化一小,,40,30,57,28,45,85,74,80,80,18,12,7,5,0.4,0.5
2023-10-06T18:00:00,2443A,113.9153,30.9285,孝感市,文化路,,32,21,34,22,14,93,57,83,65,14,13,7,8,0.6,0.5
2023-10-06T18:00:00,2444A,113.942,30.9075,孝感市,东城区,,40,40,41,19,12,93,57,82,63,11,10,7,7,0.7,0.6
2023-10-06T18:00:00,2446A,114.9028,30.4742,黄冈市,职工中心,,,49,48,,20,115,75,107,103,4,3,9,9,0.7,0.7
2023-10-06T18:00:00,2447A,114.3175,29.8142,咸宁市,森林公园,,46,46,41,9,18,135,120,118,118,3,3,6,7,0.5,0.6
2023-10-06T18:00:00,2448A,114.3107,29.8454,咸宁市,市发改委,,45,45,51,17,23,137,113,120,120,7,6,11,10,0.6,0.6
2023-10-06T18:00:00,2449A,114.2936,29.8566,咸宁市,咸安区政府,,43,43,46,21,21,142,116,124,124,13,11,8,8,0.5,0.5
2023-10-06T18:00:00,2451A,113.3583,31.7275,随州市,市委党校,细颗粒物(PM2.5),59,54,45,42,27,94,46,86,68,16,9,7,8,0.6,0.5
2023-10-06T18:00:00,2452A,113.3833,31.6908,随州市,市林业局,细颗粒物(PM2.5),53,50,37,37,24,95,46,79,63,23,13,6,7,0.6,0.4
2023-10-06T18:00:00,2453A,113.3983,31.7308,随州市,市立交桥水厂,细颗粒物(PM2.5),54,45,36,38,28,92,43,76,60,18,12,6,7,0.6,0.5
2023-10-06T18:00:00,2454A,109.4978,30.2981,恩施土家族苗族自治州,湖北民院,,21,15,23,10,11,88,67,85,76,4,6,10,10,0.8,0.8
2023-10-06T18:00:00,2455A,109.4707,30.2798,恩施土家族苗族自治州,州电力总公司,,21,5,13,9,7,70,35,66,58,41,14,8,8,0.8,0.8
2023-10-06T18:00:00,2456A,112.5003,26.9167,衡阳市,原169医院,颗粒物(PM10),51,52,45,25,21,90,67,78,78,19,18,9,6,0.6,0.7
2023-10-06T18:00:00,2457A,112.6194,26.9258,衡阳市,衡阳化工总厂,颗粒物(PM10),60,69,59,34,31,105,76,96,96,18,16,7,12,0.7,0.7
2023-10-06T18:00:00,2458A,112.6211,26.8956,衡阳市,珠晖区环保局,,,76,58,,,103,80,92,92,16,14,12,11,0.8,0.8
2023-10-06T18:00:00,2459A,112.6197,26.8733,衡阳市,市委党校,颗粒物(PM10),59,67,52,30,32,110,98,99,99,12,12,9,11,0.7,0.8
2023-10-06T18:00:00,2460A,112.6006,26.8919,衡阳市,市监测站,颗粒物(PM10),62,73,53,38,36,106,84,99,97,18,16,7,12,0.8,0.9
2023-10-06T18:00:00,2461A,112.5664,26.9056,衡阳市,真空机电公司,颗粒物(PM10),57,63,50,29,27,105,85,96,96,12,15,6,8,0.7,0.8
2023-10-06T18:00:00,2462A,111.5239,27.3033,邵阳市,市水土所,细颗粒物(PM2.5),58,47,41,41,28,96,59,82,80,9,5,5,7,0.7,0.7
2023-10-06T18:00:00,2463A,111.4733,27.2317,邵阳市,市一中,颗粒物(PM10),55,59,48,32,28,98,61,84,82,11,8,6,7,0.5,0.5
2023-10-06T18:00:00,2464A,111.5283,27.2442,邵阳市,市化工厂,,49,49,42,29,27,100,62,86,84,12,11,3,7,0.8,0.8
2023-10-06T18:00:00,2465A,111.4503,27.2537,邵阳市,市罐头厂,细颗粒物(PM2.5),52,49,41,36,29,102,68,89,87,12,11,6,7,0.6,0.6
2023-10-06T18:00:00,2466A,111.4328,27.2272,邵阳市,市环保局,,49,49,40,29,28,106,68,90,87,9,9,7,9,0.5,0.6
2023-10-06T18:00:00,2467A,112.4067,28.6428,益阳市,甘溪港,颗粒物(PM10),52,53,48,17,8,62,50,55,55,11,8,5,5,0.6,0.6
2023-10-06T18:00:00,2468A,112.3458,28.5808,益阳市,市环保局,细颗粒物(PM2.5),73,63,49,53,37,67,59,62,62,18,14,2,4,0.6,0.6
2023-10-06T18:00:00,2469A,112.3437,28.5531,益阳市,市特殊教育学校,细颗粒物(PM2.5),62,62,63,44,43,67,59,60,60,14,11,4,5,0.6,0.6
2023-10-06T18:00:00,2470A,112.3347,28.6047,益阳市,资阳区政务中心,细颗粒物(PM2.5),78,58,51,57,41,66,57,60,60,17,14,4,5,0.8,0.8
2023-10-06T18:00:00,2471A,112.3744,28.5819,益阳市,赫山环保分局,颗粒物(PM10),66,81,62,46,35,66,58,61,61,16,12,2,3,0.7,0.7
2023-10-06T18:00:00,2472A,113.0073,25.9061,郴州市,马头岭,颗粒物(PM10),57,63,57,28,30,71,70,66,66,14,12,5,4,1.0,1
2023-10-06T18:00:00,2473A,113.0116,25.8226,郴州市,市职中,细颗粒物(PM2.5),62,57,45,44,37,78,60,67,67,16,15,6,6,0.8,0.8
2023-10-06T18:00:00,2474A,113.0161,25.8001,郴州市,兴隆步行街,颗粒物(PM10),57,63,51,38,34,77,66,69,69,14,10,4,4,0.9,0.9
