timepoint,stationcode,longitude,latitude,area,positionname,primarypollutant,aqi,pm10,pm10_24h,pm2_5,pm2_5_24h,o3,o3_24h,o3_8h,o3_8h_24h,no2,no2_24h,so2,so2_24h,co,co_24h
2026-05-04T1900,2568A,102.2503,31.8896,阿坝藏族羌族自治州,马师校,,41,16,22,7,10,130,130,131,131,3,4,6,6,0.2,0.2
2026-05-04T1900,3994A,102.2174,31.9016,阿坝藏族羌族自治州,马尔康中学西区,,37,27,18,8,8,116,116,121,121,5,5,4,4,0.1,0.2
2026-05-04T1900,2695A,80.2899,41.1684,阿克苏地区,电视台,颗粒物(PM10),103,127,189,48,71,102,102,101,101,4,22,3,4,0.3,0.4
2026-05-04T1900,2696A,80.2592,41.1541,阿克苏地区,艺术中心,细颗粒物(PM2.5),115,105,137,76,98,101,101,101,101,6,28,3,4,0.4,0.6
2026-05-04T1900,2205A,105.699,38.8409,阿拉善盟,蒙二幼,,43,20,21,7,7,137,137,137,137,11,8,10,10,0.4,0.4
2026-05-04T1900,2206A,105.7198,38.8508,阿拉善盟,环保局新楼,,42,16,18,6,7,132,132,130,130,4,4,9,10,0.4,0.5
2026-05-04T1900,2708A,88.1266,47.8515,阿勒泰地区,市站,颗粒物(PM10),75,85,32,17,5,84,84,87,87,4,5,6,5,0.2,0.2
2026-05-04T1900,4166A,88.1198,47.7931,阿勒泰地区,阿勒泰路33号,颗粒物(PM10),110,146,51,34,7,89,89,89,89,3,4,5,5,0.2,0.1
2026-05-04T1900,2630A,80.1171,32.4999,阿里地区,阿里监测站,,47,12,15,3,4,150,150,136,136,2,8,8,8,0.3,0.3
2026-05-04T1900,3192A,80.0906,32.5029,阿里地区,阿里藏医院,,47,11,10,3,3,148,148,136,136,2,3,8,7,0.4,0.3
2026-05-04T1900,2644A,109.0088,32.6974,安康市,汉滨区检察院,,38,32,26,15,12,121,121,113,113,10,9,6,6,0.3,0.3
2026-05-04T1900,4054A,109.0324,32.6913,安康市,市邮政管理局,,37,36,33,17,14,116,116,113,113,11,9,6,8,0.4,0.4
2026-05-04T1900,2291A,117.0806,30.5181,安庆市,环科院,,30,30,23,12,8,88,88,118,118,40,33,7,7,0.4,0.3
2026-05-04T1900,2292A,117.0331,30.5118,安庆市,马山宾馆,,33,24,22,11,9,103,103,113,113,14,35,5,5,0.3,0.3
2026-05-04T1900,2294A,116.9897,30.6146,安庆市,安庆大学,,35,22,22,9,8,110,110,118,118,9,16,5,5,0.2,0.3
2026-05-04T1900,3173A,117.0598,30.5351,安庆市,市人大,,36,27,25,7,10,114,114,118,118,7,26,7,6,0.3,0.3
2026-05-04T1900,3123A,105.9408,26.2431,安顺市,凤凰山,,32,19,21,12,15,102,102,108,107,7,8,7,9,0.5,0.5
2026-05-04T1900,3124A,105.9443,26.2567,安顺市,金钟山,,30,16,18,16,15,93,93,100,99,5,5,6,7,0.4,0.4
2026-05-04T1900,3125A,105.8983,26.248,安顺市,娄家坡,,30,19,19,16,16,94,94,100,99,6,5,6,7,0.4,0.4
2026-05-04T1900,1819A,114.3552,36.1017,安阳市,红庙街,颗粒物(PM10),72,80,55,33,20,130,130,125,125,12,16,4,4,0.4,0.4
2026-05-04T1900,1820A,114.361,36.0681,安阳市,银杏小区,颗粒物(PM10),99,118,55,26,22,134,134,131,131,10,14,6,6,0.3,0.3
2026-05-04T1900,3141A,114.3921,36.0879,安阳市,信访局,颗粒物(PM10),86,100,52,30,21,135,135,133,133,7,11,4,4,0.5,0.5
2026-05-04T1900,3669A,114.4706,36.0634,安阳市,左辅环卫站,颗粒物(PM10),63,67,42,32,17,132,132,131,131,12,13,2,2,0.6,0.5
2026-05-04T1900,4117A,114.2918,36.0769,安阳市,钢三路198号,颗粒物(PM10),69,76,55,34,21,120,120,121,121,12,15,4,5,0.6,0.6
2026-05-04T1900,1748A,123.0441,41.1201,鞍山市,深沟寺,颗粒物(PM10),73,82,43,26,16,124,124,102,102,18,17,13,12,0.7,0.8
2026-05-04T1900,1749A,123.011,41.0931,鞍山市,太阳城,颗粒物(PM10),71,79,42,35,22,122,122,99,99,15,20,12,15,0.7,1.1
2026-05-04T1900,1750A,123.0483,41.1445,鞍山市,太平,颗粒物(PM10),85,98,52,30,18,120,120,102,102,16,17,13,13,0.8,1
2026-05-04T1900,1751A,122.964,41.0968,鞍山市,铁西三道街,颗粒物(PM10),70,78,52,39,22,129,129,100,100,16,22,9,12,0.7,0.9
2026-05-04T1900,1753A,123.0219,41.0822,鞍山市,明达新区,颗粒物(PM10),84,97,43,32,18,119,119,100,100,17,18,13,14,0.8,1
2026-05-04T1900,4201A,122.944647,41.082639,鞍山市,兴盛南路290号,颗粒物(PM10),103,126,55,46,20,128,128,104,104,19,21,11,11,0.7,0.9
2026-05-04T1900,2195A,107.4206,40.7609,巴彦淖尔市,附二中,,45,37,44,18,20,144,144,129,129,8,8,10,8,0.4,0.4
2026-05-04T1900,2196A,107.37,40.7372,巴彦淖尔市,市环保大楼,,47,43,49,13,16,149,149,134,134,6,7,9,8,0.4,0.4
2026-05-04T1900,1956A,86.1476,41.7529,巴音郭楞蒙古自治州,孔雀公园,颗粒物(PM10),54,55,64,19,22,103,103,97,97,5,23,4,5,0.3,0.4
2026-05-04T1900,1957A,86.1971,41.7166,巴音郭楞蒙古自治州,棉纺厂,颗粒物(PM10),64,69,77,25,22,101,101,105,105,7,32,/,/,/,/
2026-05-04T1900,1958A,86.236,41.7172,巴音郭楞蒙古自治州,经济开发区,,47,47,57,19,17,103,103,104,104,6,12,9,10,0.4,0.4
2026-05-04T1900,3181A,106.776805,31.852614,巴中市,市五中,,40,39,40,24,26,126,126,122,122,8,14,5,5,0.4,0.4
2026-05-04T1900,3183A,106.7419,31.8654,巴中市,圣泉水务公司,,47,47,38,27,21,126,126,127,127,9,17,6,6,0.5,0.5
2026-05-04T1900,3616A,106.7617,31.8343,巴中市,市中心医院,,46,46,46,27,28,109,109,121,121,18,18,5,6,0.5,0.5
2026-05-04T1900,2235A,122.7909,45.608,白城市,洮北区环保局,NA,NA,41,32,17,8,109,109,118,118,5,8,3,4,NA,0.3
2026-05-04T1900,2236A,122.8741,45.5725,白城市,市环保局,,44,44,32,3,7,105,105,113,113,14,17,4,3,0.2,0.2
2026-05-04T1900,2231A,126.4219,41.9172,白山市,喜丰,,32,26,30,3,12,100,100,103,103,9,10,5,7,0.7,0.7
2026-05-04T1900,2232A,126.4082,41.9416,白山市,环保局,,30,26,23,15,12,94,94,103,103,15,11,9,10,0.9,0.8
2026-05-04T1900,2647A,104.1727,36.5448,白银市,第三小学,,39,28,48,12,19,124,124,120,120,5,31,10,17,0.4,0.6
2026-05-04T1900,2648A,104.1467,36.5482,白银市,动力公司,,40,26,31,11,19,126,126,121,121,5,18,10,13,0.2,0.5
2026-05-04T1900,2512A,106.6102,23.901,百色市,市监测站,,28,18,20,3,6,88,88,91,91,11,7,7,7,0.5,0.5
2026-05-04T1900,2513A,106.6524,23.8842,百色市,市中心血站,,43,43,31,12,9,89,89,95,95,11,8,9,9,0.6,0.6
2026-05-04T1900,4133A,106.6273,23.8798,百色市,龙景西路,,32,18,20,6,8,101,101,96,96,7,8,9,10,0.3,0.4
2026-05-04T1900,2270A,117.396,32.9389,蚌埠市,工人疗养院,,42,40,38,7,7,134,134,134,134,15,23,5,6,0.3,0.4
2026-05-04T1900,2271A,117.3606,32.9428,蚌埠市,百货大楼,,41,39,33,10,7,129,129,136,136,9,15,6,6,0.4,0.4
2026-05-04T1900,2273A,117.4183,32.8909,蚌埠市,蚌埠学院,,39,36,34,12,9,122,122,127,127,12,20,5,7,0.4,0.5
2026-05-04T1900,2274A,117.3534,32.9672,蚌埠市,淮上区政府,,41,34,34,8,7,131,131,139,139,18,20,6,6,0.2,0.2
2026-05-04T1900,2275A,117.3143,32.8977,蚌埠市,高新区,,41,39,32,8,8,129,129,132,132,9,20,7,8,0.3,0.3
2026-05-04T1900,3715A,117.3091,32.9314,蚌埠市,蚌埠田家炳中学,,50,50,42,12,8,126,126,136,136,17,21,7,12,0.3,0.3
2026-05-04T1900,1585A,109.8761,40.6533,包头市,市环境监测站,,40,33,36,11,19,126,126,125,125,11,23,6,12,0.3,0.5
2026-05-04T1900,1587A,109.9992,40.5843,包头市,包头八中,,37,32,43,17,21,118,118,115,115,10,21,7,17,0.3,0.5
2026-05-04T1900,1589A,109.8641,40.6288,包头市,惠龙物流,,38,28,34,17,16,119,119,114,114,7,18,6,11,0.3,0.5
2026-05-04T1900,1590A,110.0376,40.5546,包头市,东河鸿龙湾,,39,NA,37,17,22,123,123,118,118,7,25,10,18,0.3,0.4
2026-05-04T1900,3283A,109.9154,40.5684,包头市,滨河大厦,,38,28,32,14,16,120,120,117,117,7,24,8,12,0.3,0.4
2026-05-04T1900,3419A,109.9449,40.6259,包头市,包头市委党校,颗粒物(PM10),85,98,40,9,18,124,124,60,NA,7,25,7,14,0.3,0.6
2026-05-04T1900,3683A,109.8332,40.6577,包头市,昆区政府,,39,30,34,10,17,123,123,120,120,11,25,4,10,0.6,0.7
2026-05-04T1900,1931A,107.0802,34.3129,宝鸡市,竹园沟,,45,34,25,16,12,141,141,130,130,10,8,8,7,0.7,0.6
2026-05-04T1900,1933A,107.1429,34.3549,宝鸡市,监测站,颗粒物(PM10),55,57,34,10,9,145,145,127,127,10,11,6,8,0.3,0.3
2026-05-04T1900,1934A,107.1172,34.3759,宝鸡市,技工学校,,50,50,33,11,12,143,143,131,131,18,12,4,4,0.4,0.4
2026-05-04T1900,1936A,107.2025,34.3518,宝鸡市,文理学院,,49,49,33,19,13,148,148,131,131,12,13,6,5,0.4,0.3
2026-05-04T1900,1937A,107.2396,34.3626,宝鸡市,三迪小学,颗粒物(PM10),71,79,38,16,14,148,148,134,134,16,17,6,5,0.4,0.4
2026-05-04T1900,4155A,107.1721,34.3558,宝鸡市,滨河北路,,44,38,29,14,11,138,138,123,123,12,13,7,6,0.4,0.4
2026-05-04T1900,4308A,107.3898,34.3601,宝鸡市,陈仓区北开路21号,NA,NA,NA,38,15,15,139,139,125,125,11,18,8,8,0.4,0.3
2026-05-04T1900,1051A,115.4803,38.8568,保定市,游泳馆,颗粒物(PM10),54,55,46,25,18,131,131,133,133,8,10,6,3,0.1,0.2
2026-05-04T1900,1052A,115.509,38.8895,保定市,华电二区,,43,43,34,25,17,130,130,130,130,8,11,3,4,0.3,0.3
2026-05-04T1900,1053A,115.4588,38.9037,保定市,接待中心,颗粒物(PM10),53,54,47,26,14,130,130,130,130,6,8,2,3,0.3,0.2
2026-05-04T1900,1054A,115.4484,38.8344,保定市,地表水厂,颗粒物(PM10),74,83,72,21,16,128,128,132,132,10,14,3,2,0.1,0
2026-05-04T1900,3581A,115.3136,38.9511,保定市,满城区生态环境分局,颗粒物(PM10),56,58,51,19,12,136,136,141,141,5,9,4,3,0.2,0.2
2026-05-04T1900,3582A,115.4709,38.7628,保定市,清苑区第二中学,颗粒物(PM10),91,107,75,16,15,121,121,131,131,7,11,6,5,0.3,0.3
2026-05-04T1900,3583A,115.6231,39.0223,保定市,徐水物探局,颗粒物(PM10),67,73,59,22,15,130,130,133,133,12,15,2,2,0.1,0.3
2026-05-04T1900,4004A,115.4199,38.8665,保定市,双鹰农机,颗粒物(PM10),63,67,52,25,18,135,135,136,136,7,10,3,3,0.2,0.1
2026-05-04T1900,4034A,115.515,38.8589,保定市,植保所站,颗粒物(PM10),76,86,66,22,11,138,138,139,139,8,10,3,3,0.2,0.3
2026-05-04T1900,2594A,99.1589,25.1137,保山市,市环境监测站,,21,21,21,9,12,59,59,70,66,11,8,6,6,0.4,0.3
2026-05-04T1900,2595A,99.1616,25.1381,保山市,市环保局,,30,NA,21,21,17,59,59,69,65,7,6,7,7,0.4,0.3
2026-05-04T1900,1867A,109.1435,21.4085,北海市,海滩公园,,26,26,21,13,14,71,71,70,70,10,9,6,7,0.7,0.7
2026-05-04T1900,1868A,109.0983,21.466,北海市,新市环保局,,30,26,17,21,14,68,68,66,66,8,8,8,7,0.6,0.6
2026-05-04T1900,1869A,109.1775,21.5232,北海市,北海工业园,,24,22,21,9,14,74,74,74,74,7,7,6,6,0.7,0.8
2026-05-04T1900,3400A,109.1844,21.4396,北海市,龙潭自来水厂,,21,21,18,14,10,67,67,69,69,7,8,7,9,0.9,0.9
2026-05-04T1900,1001A,116.3611,39.8786,北京市,万寿西宫,颗粒物(PM10),61,65,38,21,14,140,140,132,132,10,23,4,3,0.3,0.2
2026-05-04T1900,1003A,116.4174,39.9289,北京市,东四,颗粒物(PM10),75,84,45,30,14,143,143,134,134,10,18,4,2,0.2,0.1
2026-05-04T1900,1004A,116.4073,39.8858,北京市,天坛,颗粒物(PM10),56,58,36,16,11,134,134,128,128,11,15,5,4,0.1,0
2026-05-04T1900,1005A,116.4622,39.9364,北京市,农展馆,颗粒物(PM10),55,57,31,16,10,138,138,132,132,5,15,4,3,0.3,0.3
2026-05-04T1900,1006A,116.3399,39.9293,北京市,官园,颗粒物(PM10),64,69,38,30,13,129,129,122,122,11,22,3,2,0.3,0.2
2026-05-04T1900,1007A,116.2879,39.9613,北京市,海淀万柳,颗粒物(PM10),62,66,35,27,14,120,120,112,112,11,24,6,4,0.3,0.2
2026-05-04T1900,1008A,116.6635,40.1349,北京市,顺义新城,颗粒物(PM10),67,73,53,26,15,139,139,128,128,13,26,5,3,0.4,0.4
2026-05-04T1900,1009A,116.6275,40.327,北京市,怀柔镇,,49,49,23,17,8,136,136,123,123,10,5,6,4,0.3,0.2
2026-05-04T1900,1010A,116.2295,40.217,北京市,昌平镇,颗粒物(PM10),58,61,26,21,7,141,141,125,125,9,13,4,3,0.4,0.3
2026-05-04T1900,1011A,116.3968,39.982,北京市,奥体中心,颗粒物(PM10),56,58,33,18,13,125,125,117,117,10,24,5,4,0.2,0.2
2026-05-04T1900,3418A,116.8336,40.4095,北京市,密云新城,颗粒物(PM10),73,81,30,14,8,137,137,125,125,12,11,4,3,0.2,0.1
2026-05-04T1900,3671A,116.0879,39.9725,北京市,门头沟三家店,颗粒物(PM10),73,81,41,35,13,133,133,122,122,12,13,4,3,0.3,0.2
2026-05-04T1900,3672A,116.1507,39.8246,北京市,丰台云岗,颗粒物(PM10),76,86,48,34,15,141,141,132,132,12,19,3,2,0.3,0.2
2026-05-04T1900,3674A,115.9578,39.7602,北京市,房山燕山,颗粒物(PM10),70,78,35,17,10,129,129,119,119,9,10,6,4,0.3,0.3
2026-05-04T1900,3675A,116.4669,39.7734,北京市,大兴旧宫,,50,50,38,22,15,139,139,135,135,9,14,2,2,0.4,0.3
2026-05-04T1900,3694A,115.9859,40.4562,北京市,延庆石河营,颗粒物(PM10),53,53,26,17,9,131,131,114,114,4,14,1,1,0.4,0.3
2026-05-04T1900,3695A,116.6151,40.3052,北京市,怀柔新城,颗粒物(PM10),58,60,25,12,7,132,132,120,120,14,8,6,4,0.4,0.3
2026-05-04T1900,3696A,116.2542,39.8764,北京市,丰台小屯,颗粒物(PM10),65,71,41,21,13,122,122,118,118,8,22,4,3,0.4,0.3
2026-05-04T1900,3697A,116.8399,40.3843,北京市,密云镇,,49,49,27,16,10,140,140,128,128,10,20,4,3,0.4,0.4
2026-05-04T1900,4057A,115.9423,40.4431,北京市,延庆百泉,,48,48,20,9,7,130,130,117,117,8,19,1,1,0.4,0.3
2026-05-04T1900,4058A,116.6598,39.9164,北京市,通州新华,颗粒物(PM10),70,77,57,19,15,125,125,117,117,10,24,6,5,0.4,0.4
2026-05-04T1900,4182A,116.1942,39.9158,北京市,石景山八角,颗粒物(PM10),62,66,32,20,10,131,131,121,121,9,17,6,4,0.3,0.2
2026-05-04T1900,4194A,117.078628,40.151726,北京市,平谷新城,颗粒物(PM10),53,54,33,14,12,137,137,123,123,11,13,3,2,0.3,0.3
2026-05-04T1900,1761A,123.8274146,41.31234549,本溪市,大峪,,31,28,28,10,12,97,97,101,101,8,13,10,10,0.5,0.7
2026-05-04T1900,1763A,123.7169,41.3094,本溪市,彩屯,,31,31,38,9,16,97,97,102,102,12,17,16,12,0.8,0.8
2026-05-04T1900,1764A,123.7672166,41.28649327,本溪市,东明,,41,41,43,6,12,100,100,97,97,8,23,5,8,0.6,1
2026-05-04T1900,1765A,123.799345,41.266614,本溪市,新立屯,,44,44,33,6,10,84,84,104,102,18,22,10,10,0.8,1.1
2026-05-04T1900,1766A,123.829144,41.336777,本溪市,威宁,,31,31,46,11,12,95,95,103,103,13,22,11,8,0.7,0.8
2026-05-04T1900,2587A,105.287,27.3133,毕节市,八中,,30,16,13,16,12,93,93,91,91,10,8,8,10,0.5,0.4
2026-05-04T1900,2588A,105.3079,27.2987,毕节市,师专,,29,25,15,8,8,90,90,88,88,7,7,12,13,0.3,0.3
2026-05-04T1900,4263A,105.3688,27.3598,毕节市,工业大道,,32,29,19,15,9,101,101,101,101,8,7,10,12,/,/
2026-05-04T1900,1629A,117.9961,37.3604,滨州市,第二水厂,,39,39,31,6,8,124,124,115,115,11,15,6,7,0.2,0.3
2026-05-04T1900,1630A,117.9789,37.3931,滨州市,北中新校,,43,39,36,7,7,136,136,124,124,16,16,10,8,0.2,0.3
2026-05-04T1900,3514A,117.9379,37.3959,滨州市,中海酒店,,45,24,22,3,8,144,144,130,130,16,21,7,8,0.1,0.2
2026-05-04T1900,3515A,117.9381509,37.35547456,滨州市,开发区一中,,44,44,36,14,12,130,130,122,122,15,20,9,10,0.3,0.3
2026-05-04T1900,3516A,118.0914,37.6938,滨州市,金海六路,,40,29,23,10,14,126,126,124,124,17,21,8,7,0.5,0.3
2026-05-04T1900,4028A,117.9955,37.3752,滨州市,滨州市西街道办事处,,42,29,26,7,7,132,132,121,121,13,16,5,5,0.4,0.5
2026-05-04T1900,2311A,115.8071,33.8399,亳州市,污水处理厂,,41,33,26,7,9,130,130,123,123,8,9,8,9,0.1,0.1
2026-05-04T1900,2312A,115.7789,33.8519,亳州市,三国揽胜宫,,42,40,35,11,10,134,134,125,125,6,9,8,9,0.1,0.1
2026-05-04T1900,3332A,115.7631,33.803,亳州市,亳州学院,,39,21,18,8,9,124,124,120,120,7,10,6,8,0.1,0.1
2026-05-04T1900,2693A,82.0482,44.8553,博尔塔拉蒙古自治州,市党校,颗粒物(PM10),71,79,47,13,14,115,115,115,115,3,7,3,3,0.5,0.5
2026-05-04T1900,2694A,82.0805,44.8966,博尔塔拉蒙古自治州,市环保局,颗粒物(PM10),72,80,54,21,18,110,110,108,108,6,21,2,3,0.3,0.3
2026-05-04T1900,1071A,116.8733,38.2922,沧州市,沧县城建局,颗粒物(PM10),52,52,37,30,13,135,135,125,125,17,18,8,5,0.6,0.4
2026-05-04T1900,1072A,116.8462,38.3189,沧州市,电视转播站,,49,49,35,21,12,143,143,128,128,13,14,12,7,0.4,0.2
2026-05-04T1900,1073A,116.8588,38.3161,沧州市,市环保局,颗粒物(PM10),53,54,40,27,16,141,141,128,128,13,14,10,7,0.4,0.4
2026-05-04T1900,3324A,116.8011,38.294,沧州市,河北水利电力学院,,41,41,32,28,16,126,126,120,120,12,16,11,8,0.3,0.2
2026-05-04T1900,2622A,97.1813,31.1289,昌都市,昌都监测站,NA,NA,NA,19,3,4,132,132,131,131,NA,9,10,11,0.4,0.5
2026-05-04T1900,3719A,97.1707,31.1428,昌都市,昌都会议中心,,46,9,16,3,6,147,147,140,140,3,5,8,8,0.3,0.3
2026-05-04T1900,2692A,87.2722,44.0298,昌吉回族自治州,新区政务中心,NA,NA,26,36,17,15,115,115,108,108,8,19,7,6,NA,0.4
2026-05-04T1900,3613A,87.3069,44.0093,昌吉回族自治州,亚心广场,,38,34,46,16,13,121,121,116,116,4,17,6,7,0.3,0.4
2026-05-04T1900,4164A,87.2057,43.9289,昌吉回族自治州,财政所,,43,43,49,14,12,133,133,120,120,5,9,10,9,0.4,0.4
2026-05-04T1900,1120A,125.2874,43.9024,长春市,客车厂,,38,38,39,14,19,85,85,92,92,15,20,7,7,0.3,0.3
2026-05-04T1900,1121A,125.2943,43.8508,长春市,邮电学院,,42,42,40,12,17,90,90,97,97,12,18,7,7,0.3,0.4
2026-05-04T1900,1122A,125.3648,43.8745,长春市,劳动公园,,36,36,34,13,15,93,93,99,99,10,15,7,7,0.4,0.4
2026-05-04T1900,1123A,125.3233,43.8781,长春市,园林处,,33,33,33,14,14,96,96,101,101,11,13,7,6,0.3,0.3
2026-05-04T1900,1124A,125.4604,43.7904,长春市,净月潭,,34,34,32,12,17,91,91,99,99,7,14,5,5,0.3,0.3
2026-05-04T1900,1126A,125.38,43.8422,长春市,经开区环卫处,颗粒物(PM10),53,54,44,14,17,92,92,100,100,13,23,5,5,0.3,0.4
2026-05-04T1900,1127A,125.234,43.7761,长春市,高新区管委会,,38,38,49,15,17,87,87,98,97,11,21,8,8,0.4,0.4
2026-05-04T1900,1128A,125.1695,43.83,长春市,岱山公园,,47,47,56,31,25,96,96,105,105,12,28,5,4,0.4,0.4
2026-05-04T1900,4281A,125.334645,43.916281,长春市,北亚泰大街1068号,,40,40,39,15,17,86,86,97,96,19,23,5,6,0.2,0.2
2026-05-04T1900,1335A,113.082,28.2421,长沙市,经开区环保局,,41,16,33,10,15,131,131,126,126,7,15,4,6,0.4,0.4
2026-05-04T1900,1336A,112.8873,28.2202,长沙市,高开区环保局,,46,16,35,10,20,145,145,138,138,7,17,6,7,0.4,0.4
2026-05-04T1900,1337A,113.0785,28.2012,长沙市,马坡岭,,46,21,33,13,17,147,147,142,142,5,16,6,6,0.5,0.6
2026-05-04T1900,1338A,112.9448,28.1894,长沙市,湖南师范大学,,36,25,36,14,20,113,113,136,136,14,20,6,7,0.3,0.3
2026-05-04T1900,1339A,113.0177,28.1322,长沙市,雨花区环保局,,47,14,34,9,18,150,150,139,139,8,21,4,5,0.4,0.5
2026-05-04T1900,1340A,112.9795,28.2593,长沙市,伍家岭,,40,21,41,10,19,128,128,130,130,6,16,5,6,0.6,0.6
2026-05-04T1900,1341A,113.002,28.1944,长沙市,火车新站,,41,24,36,14,19,131,131,132,132,14,19,5,6,0.3,0.3
2026-05-04T1900,1342A,112.9846,28.1177,长沙市,天心区环保局,,48,16,36,9,19,151,151,146,146,12,19,6,7,0.3,0.4
2026-05-04T1900,1343A,112.8906,28.1307,长沙市,湖南中医药大学,,46,20,35,10,18,145,145,152,152,12,17,6,7,0.5,0.6
2026-05-04T1900,1727A,113.1146,36.1547,长治市,清华站,,42,38,39,15,14,132,132,130,130,9,16,10,9,0.4,0.7
2026-05-04T1900,1730A,113.0887,36.2126,长治市,审计局,,48,48,44,18,18,134,134,130,130,9,15,10,9,0.4,0.4
2026-05-04T1900,1731A,113.0845,36.1856,长治市,长治八中,颗粒物(PM10),65,71,56,15,15,130,130,128,128,11,15,11,10,0.5,0.6
2026-05-04T1900,2845A,113.1561,36.1912,长治市,德盛苑,,44,40,32,20,13,138,138,134,134,10,12,10,9,0.4,0.5
2026-05-04T1900,3568A,113.0603,36.0464,长治市,向阳小学,颗粒物(PM10),73,81,71,16,15,133,133,133,133,13,21,11,9,0.6,0.7
2026-05-04T1900,3569A,112.8788,36.315,长治市,屯留一中,,41,41,39,16,16,122,122,121,121,13,27,8,8,0.3,1
2026-05-04T1900,4189A,113.113092,36.199482,长治市,英华南巷50号,颗粒物(PM10),55,57,49,16,15,134,134,131,131,8,12,9,8,0.5,0.8
2026-05-04T1900,4190A,113.23666,36.33435,长治市,学府街1号,,48,48,40,12,12,125,125,122,122,14,17,4,5,0.4,0.5
2026-05-04T1900,1854A,111.696,28.9725,常德市,市二中,颗粒物(PM10),51,51,34,21,17,108,108,110,110,19,9,10,9,0.7,0.7
2026-05-04T1900,3138A,111.7152,29.0288,常德市,武陵区永安,NA,NA,42,39,18,19,124,124,120,120,NA,12,6,9,0.6,0.6
2026-05-04T1900,3139A,111.6891,28.9881,常德市,鼎城区玉霞,,41,41,38,16,18,119,119,112,112,6,11,10,9,0.8,0.8
2026-05-04T1900,3140A,111.6651,29.0526,常德市,武陵区长庚,,40,40,39,18,18,128,128,115,115,6,10,8,8,0.6,0.7
2026-05-04T1900,1196A,119.9524,31.7586,常州市,市监测站,,39,35,28,3,8,124,124,130,130,16,24,7,8,0.5,0.6
2026-05-04T1900,1200A,119.9351,31.703,常州市,武进监测站,,41,17,23,3,8,130,130,128,128,11,21,9,9,0.4,0.5
2026-05-04T1900,3002A,119.9701,31.813,常州市,行政中心,,38,32,30,3,7,120,120,122,122,14,19,7,7,0.1,0.3
2026-05-04T1900,3003A,120.0434,31.7726,常州市,经开区,,41,27,24,3,5,129,129,133,133,12,15,15,13,0.8,0.6
2026-05-04T1900,3010A,119.8919,31.7892,常州市,钟楼,,48,27,25,6,8,151,151,140,140,18,31,14,10,0.0,0.2
2026-05-04T1900,3429A,119.8595,31.706,常州市,武进经发区,,41,22,29,9,12,131,131,132,132,21,21,6,9,0.5,0.6
2026-05-04T1900,3430A,119.5812,31.7256,常州市,金坛城区,,43,33,24,17,12,135,135,124,124,10,11,8,10,0.5,0.5
2026-05-04T1900,4089A,119.9551,31.863,常州市,崇义南街5-H号,NA,NA,32,35,3,10,129,129,136,136,13,28,9,9,NA,0.6
2026-05-04T1900,2220A,120.4318,41.588,朝阳市,西梁,,31,26,31,8,8,99,99,102,102,10,19,6,7,0.5,0.5
2026-05-04T1900,2221A,120.452,41.565,朝阳市,河畔小区,,33,18,26,3,4,104,104,108,108,9,12,6,8,0.3,0.4
2026-05-04T1900,2222A,120.4176,41.5648,朝阳市,八里堡,,43,43,33,10,8,99,99,102,102,12,23,6,8,0.5,0.6
2026-05-04T1900,3026A,116.6179,23.6608,潮州市,市政府,,25,13,18,11,9,78,78,66,66,5,5,3,3,0.6,0.5
2026-05-04T1900,4036A,116.646,23.676,潮州市,金山,,22,11,15,10,9,70,70,59,59,4,3,2,2,0.3,0.3
2026-05-04T1900,2473A,113.0116,25.8228,郴州市,市职中,,31,22,29,18,22,97,97,110,110,12,14,7,6,0.4,0.5
2026-05-04T1900,2475A,113.0381,25.8074,郴州市,市审计局,,32,32,30,22,22,85,85,96,96,8,9,4,3,/,/
2026-05-04T1900,2476A,113.0348,25.7757,郴州市,市环保局,,36,36,38,19,25,97,97,104,104,16,14,7,7,0.4,0.5
2026-05-04T1900,4252A,113.0138,25.8011,郴州市,好美居路49号,,39,NA,28,27,21,95,95,113,113,17,13,7,8,/,/
2026-05-04T1900,1431A,103.9727,30.7242,成都市,金泉两河,,44,28,46,14,26,140,140,134,134,8,18,3,4,0.2,0.3
2026-05-04T1900,1432A,104.1423,30.6765,成都市,十里店,,44,35,44,22,27,139,139,131,131,8,15,5,5,0.5,0.6
2026-05-04T1900,1433A,104.0594,30.5765,成都市,三瓦窑,,45,43,38,17,23,141,141,129,129,7,15,3,4,0.3,0.4
2026-05-04T1900,1434A,104.1122,30.6306,成都市,沙河铺,,47,47,44,17,25,113,113,117,117,12,18,3,2,0.4,0.4
2026-05-04T1900,2880A,104.0219,30.6561,成都市,大石西路,,50,50,43,18,28,127,127,121,121,9,18,4,5,0.4,0.5
2026-05-04T1900,3136A,104.2724,30.559,成都市,龙泉驿区区政府,,44,27,33,17,18,140,140,127,127,6,8,8,7,0.5,0.5
2026-05-04T1900,3357A,104.0028,30.6891,成都市,金博路,,44,30,34,15,26,140,140,134,134,6,18,5,6,0.5,0.6
2026-05-04T1900,3359A,104.056,30.5228,成都市,华阳,,44,34,41,15,23,139,139,129,129,7,11,6,5,0.4,0.4
2026-05-04T1900,3488A,104.387954,30.746684,成都市,青石路225号,NA,NA,45,38,17,21,146,146,138,138,13,19,7,7,NA,0.5
2026-05-04T1900,3489A,104.0788,30.4054,成都市,科学城,,45,NA,41,18,25,143,143,131,131,5,9,7,6,0.4,0.4
2026-05-04T1900,4011A,103.8505,30.6946,成都市,光华大道三段,,45,40,42,16,25,144,144,136,136,5,11,3,6,0.3,0.4
2026-05-04T1900,4144A,104.3257,30.6406,成都市,八角井街185号,,50,50,41,16,19,137,137,126,126,6,12,6,5,0.5,0.5
2026-05-04T1900,4224A,104.2433276,30.53529463,成都市,鲸龙路1057号,,46,32,37,3,16,145,145,132,132,6,14,7,7,0.4,0.5
2026-05-04T1900,1062A,117.9531,40.908,承德市,铁路,,45,45,20,16,7,115,115,102,102,14,12,4,3,0.2,0.3
2026-05-04T1900,1063A,117.9397,40.9763,承德市,中国银行,,35,32,18,8,6,111,111,96,96,5,9,2,3,0.3,0.3
2026-05-04T1900,4073A,117.9462,40.95,承德市,杏林街1号,,46,46,17,11,9,126,126,108,108,6,11,2,2,0.3,0.3
2026-05-04T1900,4274A,117.7994,40.9605,承德市,滨河大街98号,颗粒物(PM10),52,52,24,35,8,104,104,97,97,13,11,97,18,0.3,0.5
2026-05-04T1900,2314A,117.4698,30.6617,池州市,池州学院,,38,25,17,15,11,120,120,117,117,20,19,5,4,0.4,0.7
2026-05-04T1900,3237A,117.4918,30.6617,池州市,展览馆,,40,36,19,17,10,127,127,124,124,17,16,5,3,0.6,0.7
2026-05-04T1900,3333A,117.5626,30.695,池州市,第八中学,,39,22,16,13,10,124,124,117,117,19,22,6,4,0.6,0.5
2026-05-04T1900,3334A,117.5037,30.6242,池州市,第十二中学,,39,31,19,16,9,123,123,123,123,19,21,12,5,0.5,0.9
2026-05-04T1900,1744A,118.9229,42.2816,赤峰市,松山一中,,31,NA,13,13,5,98,98,100,100,11,18,7,8,0.5,0.5
2026-05-04T1900,1745A,118.9588,42.2733,赤峰市,哈达街,,30,25,16,12,6,93,93,93,93,11,14,7,6,0.4,0.4
2026-05-04T1900,1746A,118.8792,42.2551,赤峰市,天义路,,30,NA,8,11,4,96,96,97,97,10,12,6,7,0.4,0.5
2026-05-04T1900,3058A,119.2656,42.0356,赤峰市,银河街,,32,27,26,12,8,101,101,105,105,14,14,38,14,0.7,0.7
2026-05-04T1900,3286A,118.9359,42.3146,赤峰市,桥北物流园区,,29,21,14,10,6,90,90,92,92,2,11,4,4,0.3,0.3
2026-05-04T1900,2521A,107.3473,22.4137,崇左市,市环保局江州分局,,34,34,25,14,8,103,103,97,97,9,6,7,5,0.3,0.3
2026-05-04T1900,4256A,107.375,22.3736,崇左市,石景林东路7号,,30,27,21,14,8,95,95,95,95,6,6,4,3,0.6,0.6
2026-05-04T1900,3207A,118.31131,32.3033,滁州市,市政府原办公楼,,33,21,25,17,16,105,105,117,117,14,16,5,6,0.3,0.3
2026-05-04T1900,3331A,118.3268,32.2633,滁州市,图书馆,,36,19,19,6,7,114,114,118,118,13,15,9,9,0.4,0.4
2026-05-04T1900,4101A,118.3196,32.3335,滁州市,银山路666号,,35,24,25,9,11,109,109,117,117,10,16,7,7,0.2,0.2
2026-05-04T1900,4102A,118.3426,32.2979,滁州市,黄山路555号,,38,34,34,10,12,121,121,127,127,6,11,6,7,0.5,0.6
2026-05-04T1900,2606A,101.5379,25.0492,楚雄彝族自治州,市经济开发区,,23,21,12,16,10,69,69,70,70,9,7,2,4,0.6,0.5
2026-05-04T1900,4153A,101.5536,25.0343,楚雄彝族自治州,团结路562号,,24,17,9,13,7,74,74,72,72,6,6,4,4,0.3,0.3
2026-05-04T1900,2549A,107.5087,31.2186,达州市,市环境监测站,颗粒物(PM10),55,57,57,26,26,119,119,127,127,26,29,6,6,0.4,0.4
2026-05-04T1900,2550A,107.4988,31.2132,达州市,凤凰小区,颗粒物(PM10),53,53,58,24,28,134,134,130,130,17,27,5,5,0.2,0.4
2026-05-04T1900,2551A,107.5081,31.1987,达州市,达县机关宾馆,颗粒物(PM10),55,56,58,31,27,137,137,132,132,20,31,4,4,0.3,0.4
2026-05-04T1900,2552A,107.4644,31.2124,达州市,市政中心,,48,48,59,16,25,136,136,132,132,10,28,4,4,0.1,0.3
2026-05-04T1900,2614A,100.2168,25.5818,大理白族自治州,大理市环境监测站,,23,23,6,13,6,56,56,87,80,11,4,4,4,0.4,0.3
2026-05-04T1900,2615A,100.1542,25.7055,大理白族自治州,大理古城,,25,18,8,12,5,80,80,84,84,10,6,5,5,0.8,0.6
2026-05-04T1900,1109A,121.6119,38.974,大连市,甘井子,,37,24,19,10,11,118,118,120,120,12,12,9,10,0.4,0.5
2026-05-04T1900,1110A,121.565,38.9509,大连市,周水子,,36,26,27,3,9,113,113,116,115,12,14,6,6,0.6,0.7
2026-05-04T1900,1111A,121.5637,38.8849,大连市,星海三站,,36,21,19,10,8,113,113,115,115,9,9,4,5,0.3,0.5
2026-05-04T1900,1112A,121.6301,38.9117,大连市,青泥洼桥,,38,11,18,3,8,120,120,122,122,8,12,5,6,0.4,0.7
2026-05-04T1900,1113A,121.6248,38.8643,大连市,傅家庄,,39,28,24,16,10,124,124,112,112,12,10,8,9,0.4,0.5
2026-05-04T1900,1114A,121.5117,38.8636,大连市,七贤岭,,29,6,13,3,6,92,92,96,96,10,11,6,7,0.3,0.5
2026-05-04T1900,1116A,121.7507,39.1339,大连市,金州,,37,34,40,8,14,116,116,118,118,16,14,8,9,0.4,0.5
2026-05-04T1900,1117A,121.7811,39.0495,大连市,开发区,,34,26,25,15,12,108,108,112,112,28,21,11,9,0.2,0.3
2026-05-04T1900,1118A,121.9762,39.0631,大连市,双D港,,35,21,23,9,8,112,112,108,108,15,11,6,5,0.5,0.6
2026-05-04T1900,4082A,121.2548,38.8188,大连市,旅顺,,33,13,17,3,9,103,103,112,112,9,11,6,7,0.4,0.5
2026-05-04T1900,1789A,124.8085,46.0381,大庆市,大同区,颗粒物(PM10),60,63,34,15,10,95,95,109,108,10,13,2,2,0.4,0.4
2026-05-04T1900,1790A,125.1166,46.5255,大庆市,龙凤区,颗粒物(PM10),51,51,43,19,16,81,81,97,96,14,17,7,6,0.3,0.3
2026-05-04T1900,1791A,124.8894,46.4007,大庆市,红岗区,细颗粒物(PM2.5),82,NA,32,51,23,89,89,102,101,9,13,11,11,0.4,0.1
2026-05-04T1900,1792A,125.1391,46.578,大庆市,萨尔图区,,44,44,38,10,16,93,93,101,101,14,23,8,8,0.3,0.4
2026-05-04T1900,1793A,124.9026,46.6217,大庆市,让胡路区,,36,36,38,12,16,93,93,95,95,8,13,2,2,0.6,0.5
2026-05-04T1900,3481A,125.127,46.6277,大庆市,萨区政府监测点,,32,32,26,11,12,100,100,104,104,5,9,9,9,0.3,0.4
2026-05-04T1900,1723A,113.2926,40.0759,大同市,云冈宾馆,颗粒物(PM10),51,51,46,23,20,111,111,112,112,19,24,7,9,0.5,1
2026-05-04T1900,1724A,113.3437,40.0921,大同市,大同大学,,48,48,42,23,13,112,112,111,111,18,22,6,8,0.5,0.4
2026-05-04T1900,1725A,113.2637,40.129,大同市,安家小村,颗粒物(PM10),51,51,46,18,14,117,117,113,113,12,18,9,10,0.2,0.5
2026-05-04T1900,3282A,113.3399,40.0586,大同市,大同市卫生学校,颗粒物(PM10),68,74,41,17,15,116,116,115,115,17,21,7,8,0.4,0.5
2026-05-04T1900,3565A,113.1371,40.1122,大同市,云冈站,,47,47,41,12,10,115,115,106,106,7,24,5,9,0.3,0.4
2026-05-04T1900,3566A,113.1186,40.2556,大同市,图书馆,,37,29,30,15,10,118,118,108,108,7,10,5,7,0.5,0.5
2026-05-04T1900,3567A,113.5931,40.0459,大同市,区一中,,42,42,30,16,6,116,116,123,123,16,10,3,3,0.2,0.2
2026-05-04T1900,4199A,113.2798248,40.09972476,大同市,魏都大道141号,,46,46,57,21,18,108,108,108,108,16,26,10,11,0.4,1.2
2026-05-04T1900,2269A,124.1068,50.4091,大兴安岭地区,科技局,,29,26,17,3,6,92,92,96,96,2,3,6,6,0.5,0.4
2026-05-04T1900,3663A,124.117,50.4279,大兴安岭地区,红旗社区,,26,12,14,10,7,83,83,102,100,5,10,8,7,0.4,0.3
2026-05-04T1900,1600A,124.33,40.0625,丹东市,江湾东路,,36,36,25,14,12,109,109,109,109,17,18,5,5,0.5,0.6
2026-05-04T1900,1601A,124.4242,40.1513,丹东市,临江后街,,48,48,18,17,9,104,104,105,105,17,14,9,6,0.7,0.4
2026-05-04T1900,1602A,124.3935,40.1461,丹东市,元宝山,,36,36,18,16,9,109,109,104,104,19,16,7,6,0.6,0.5
2026-05-04T1900,1603A,124.3634,40.1093,丹东市,民主桥,,50,50,28,18,12,106,106,102,102,16,18,7,7,0.6,0.5
2026-05-04T1900,3541A,109.5726195,19.51688767,儋州市,第一中学子站,,23,20,21,9,10,72,72,63,63,6,7,4,5,0.5,0.4
2026-05-04T1900,3542A,109.5567,19.5187,儋州市,东坡学校子站,,25,21,21,11,10,77,77,68,68,6,6,4,5,0.5,0.5
2026-05-04T1900,2616A,98.5611,24.4273,德宏傣族景颇族自治州,德宏州监测站,,27,NA,17,18,18,85,85,80,80,7,8,8,8,1.1,1.2
2026-05-04T1900,3677A,98.5887,24.4366,德宏傣族景颇族自治州,芒市人民政府综合楼,,42,42,37,18,19,92,92,85,85,10,10,4,4,0.8,1
2026-05-04T1900,1901A,104.424,31.1209,德阳市,东山公园,,45,36,44,14,28,142,142,133,133,4,13,3,4,0.3,0.4
2026-05-04T1900,1902A,104.3827,31.1318,德阳市,西小区,,45,45,58,16,33,131,131,124,124,12,24,4,4,0.4,0.5
2026-05-04T1900,1904A,104.3553,31.1091,德阳市,耐火材料厂,,48,43,60,18,31,153,153,142,142,11,25,2,3,0.2,0.4
2026-05-04T1900,4145A,104.4144,31.1495,德阳市,市林业局,,48,40,48,15,29,152,152,143,143,7,20,3,4,0.3,0.4
2026-05-04T1900,1622A,116.3034,37.4675,德州市,儿童乐园,颗粒物(PM10),79,90,41,12,7,146,146,132,132,33,21,8,8,0.7,0.6
2026-05-04T1900,1624A,116.2992,37.4449,德州市,监理站,颗粒物(PM10),56,58,28,15,10,142,142,132,132,14,13,10,9,0.3,0.3
2026-05-04T1900,3066A,116.2722,37.438,德州市,九衢泉纯净水厂,颗粒物(PM10),56,58,33,12,11,143,143,129,129,15,21,10,9,0.6,0.6
2026-05-04T1900,3371A,116.3693,37.44,德州市,开发区人民医院,颗粒物(PM10),62,66,39,13,7,148,148,132,132,14,16,11,10,0.6,0.5
2026-05-04T1900,3511A,116.5687,37.3331,德州市,陵城艺术中心,颗粒物(PM10),55,56,35,19,22,133,133,127,127,15,15,16,12,0.7,0.6
2026-05-04T1900,4292A,116.352738,37.420875,德州市,新河东路,,48,48,32,14,10,148,148,132,132,12,16,10,9,0.6,0.6
2026-05-04T1900,2621A,99.7054,27.8319,迪庆藏族自治州,迪庆州站,,28,10,16,3,9,89,89,94,94,8,9,6,7,0.4,0.5
2026-05-04T1900,3180A,99.7122,27.8129,迪庆藏族自治州,质量技术监督局,,30,11,12,6,6,96,96,103,103,7,8,8,8,0.4,0.4
2026-05-04T1900,4257A,104.6092,35.5962,定西市,将台街,NA,NA,NA,39,NA,14,142,142,138,138,5,17,4,4,NA,0.1
2026-05-04T1900,4309A,104.6159,35.5701,定西市,正龙路62号,,43,17,35,6,10,137,137,134,134,6,9,3,3,0.4,0.3
2026-05-04T1900,4071A,114.9883,38.5232,定州市,交通局,颗粒物(PM10),71,79,48,18,12,131,131,134,134,14,13,5,4,0.4,0.3
2026-05-04T1900,4072A,115.0045,38.5136,定州市,第五中学,颗粒物(PM10),69,76,62,27,13,130,130,131,131,11,12,4,3,0.4,0.3
2026-05-04T1900,1390A,113.7943,23.0132,东莞市,东城石井,,34,34,21,21,12,92,92,102,102,16,15,6,6,0.7,0.7
2026-05-04T1900,1391A,113.7384,22.9659,东莞市,南城西平,,34,34,21,19,11,79,79,97,96,20,20,6,5,0.5,0.5
2026-05-04T1900,3319A,113.7283,23.041,东莞市,万江金泰,,34,34,20,22,11,78,78,94,92,18,12,8,7,0.4,0.3
2026-05-04T1900,4129A,113.8666,23.1062,东莞市,裕兴路,,32,32,23,17,10,83,83,91,91,13,12,8,7,0.6,0.6
2026-05-04T1900,4130A,114.0076,22.9739,东莞市,教育路1号,,42,42,26,20,12,85,85,104,104,23,15,6,6,0.5,0.5
2026-05-04T1900,4131A,113.7981,22.8124,东莞市,长怡路1号,,44,44,29,22,14,90,90,110,110,23,17,8,7,0.8,0.7
2026-05-04T1900,1666A,118.6612,37.4313,东营市,市环保局,,42,24,25,3,8,134,134,132,132,15,17,9,10,0.3,0.3
2026-05-04T1900,3036A,118.6903,37.4337,东营市,开发区管委会,,44,30,28,3,9,140,140,132,132,18,23,7,8,0.4,0.4
2026-05-04T1900,3365A,118.5721,37.5654,东营市,垦利区民丰路,,47,27,27,6,9,149,149,141,141,18,20,13,12,0.4,0.5
2026-05-04T1900,3498A,118.5063,37.8606,东营市,河口城区,,44,29,21,3,7,140,140,136,136,10,15,8,9,0.5,0.6
2026-05-04T1900,3646A,118.4979,37.4623,东营市,胜利站,,41,20,24,8,9,131,131,124,124,24,23,7,6,0.5,0.6
2026-05-04T1900,3734A,118.5753,37.4405,东营市,理想之城,,45,29,32,3,11,142,142,138,138,22,25,7,7,0.4,0.5
2026-05-04T1900,1591A,110.0024,39.8127,鄂尔多斯市,综合楼,颗粒物(PM10),53,53,44,16,15,124,124,117,117,13,21,8,6,0.4,0.4
2026-05-04T1900,1592A,109.9485,39.8259,鄂尔多斯市,巴音孟克林场办事处,,46,46,34,12,13,129,129,120,120,7,14,5,5,0.2,0.3
2026-05-04T1900,1593A,109.7734,39.5987,鄂尔多斯市,康泽苑,,48,48,32,19,8,129,129,122,122,8,11,10,10,0.3,0.2
2026-05-04T1900,1594A,109.8121,39.5987,鄂尔多斯市,华泰汽车城,,44,44,35,16,10,122,122,119,119,10,17,7,7,0.3,0.4
2026-05-04T1900,1595A,109.9734,39.7884,鄂尔多斯市,奥林花园,颗粒物(PM10),53,53,48,16,12,118,118,117,117,15,31,5,5,0.2,0.3
2026-05-04T1900,2436A,114.894,30.3989,鄂州市,市政府,,45,25,41,11,14,144,144,146,146,14,26,11,16,0.4,0.5
2026-05-04T1900,2437A,114.8986,30.3714,鄂州市,赵家坝,,41,31,33,15,13,129,129,146,146,2,11,16,18,0.8,0.7
2026-05-04T1900,3654A,114.8093,30.4091,鄂州市,精准医疗中心,,36,30,30,14,14,114,114,128,128,9,14,9,6,0.5,0.7
2026-05-04T1900,2454A,109.4978,30.2979,恩施土家族苗族自治州,湖北民院,,43,39,35,30,19,121,121,119,119,9,10,8,8,0.3,0.3
2026-05-04T1900,3549A,109.5061,30.3771,恩施土家族苗族自治州,龙凤新区,,30,25,32,16,18,95,95,109,109,7,7,7,7,0.4,0.5
2026-05-04T1900,2499A,108.3411,21.6159,防城港市,沙万,,28,28,19,17,9,79,79,80,80,8,5,6,6,0.6,0.5
2026-05-04T1900,2500A,108.3515,21.7733,防城港市,防城档案局,,40,40,22,19,11,74,74,79,79,8,5,7,7,0.4,0.4
2026-05-04T1900,2501A,108.3506,21.6414,防城港市,大海花园,,30,26,18,21,14,85,85,85,85,6,5,7,7,0.6,0.5
2026-05-04T1900,1371A,113.1293,23.0065,佛山市,湾梁,,29,29,23,19,16,82,82,86,86,15,14,/,/,/,/
2026-05-04T1900,1372A,113.1082,23.0477,佛山市,华材职中,,30,27,25,21,19,76,76,81,81,16,19,4,5,0.5,0.5
2026-05-04T1900,1373A,113.1439,23.045,佛山市,南海气象局,,26,24,23,18,14,74,74,78,78,18,19,/,/,/,/
2026-05-04T1900,1374A,113.2879,22.8094,佛山市,顺德苏岗,,33,28,17,23,15,80,80,103,103,25,17,/,/,0.8,0.7
2026-05-04T1900,1376A,112.8384,22.8678,佛山市,高明孔堂,,43,43,31,27,20,74,74,86,86,30,22,/,/,/,/
2026-05-04T1900,1377A,112.8835,23.1584,佛山市,三水监测站,细颗粒物(PM2.5),54,39,22,37,18,66,66,82,82,39,22,3,4,0.7,0.6
2026-05-04T1900,1378A,112.8668,23.185,佛山市,三水云东海,,45,41,34,31,17,44,44,67,66,20,15,/,/,/,/
2026-05-04T1900,3625A,113.2568,22.7629,佛山市,容桂街道办,,36,36,21,25,16,88,88,109,109,32,24,/,/,/,/
2026-05-04T1900,1282A,119.2681,26.0506,福州市,师大,,25,25,18,12,9,68,68,88,87,17,10,4,4,0.4,0.4
2026-05-04T1900,1283A,119.2983,26.1028,福州市,五四北路,,32,32,18,13,9,67,67,93,90,24,15,4,4,0.3,0.3
2026-05-04T1900,1284A,119.2648,26.0769,福州市,杨桥西路,,29,29,17,10,7,66,66,88,85,16,11,4,3,/,/
2026-05-04T1900,3048A,119.5799,26.0937,福州市,九龙,,26,26,18,10,9,73,73,97,91,15,9,6,5,0.3,0.3
2026-05-04T1900,3526A,119.5188,25.9666,福州市,吴航,,24,14,17,9,12,74,74,99,90,14,12,6,6,0.3,0.4
2026-05-04T1900,4104A,119.3106,26.0648,福州市,路通桥巷6号,,25,22,15,17,13,76,76,96,94,15,10,/,/,/,/
2026-05-04T1900,1755A,123.7974,41.8494,抚顺市,望花区,,49,49,44,17,22,95,95,104,104,15,21,10,12,0.6,0.6
2026-05-04T1900,1756A,123.9161,41.8827,抚顺市,顺城区,,37,37,36,7,16,94,94,103,103,14,23,11,12,0.4,0.5
2026-05-04T1900,1757A,124.0437,41.8615,抚顺市,东洲区,颗粒物(PM10),55,56,36,7,15,96,96,103,103,11,16,8,12,0.5,0.6
2026-05-04T1900,1758A,123.9246,41.8638,抚顺市,新抚区,,47,47,44,7,16,100,100,110,110,15,22,9,9,0.5,0.5
2026-05-04T1900,1759A,124.0972,41.8961,抚顺市,大伙房水库,颗粒物(PM10),54,55,32,3,7,103,103,109,109,15,19,14,10,0.5,0.7
2026-05-04T1900,1760A,123.708,41.8386,抚顺市,沈抚新城,,47,47,44,12,15,90,90,103,103,22,26,16,12,0.7,0.6
2026-05-04T1900,2377A,116.3544,27.9833,抚州市,市站,,46,41,39,32,27,119,119,118,118,6,7,6,22,0.5,0.5
2026-05-04T1900,2378A,116.3562,27.9631,抚州市,血防站,,45,41,40,31,28,125,125,123,123,6,7,8,16,0.6,0.6
2026-05-04T1900,2379A,116.3561,28.0007,抚州市,采茶剧团,细颗粒物(PM2.5),58,NA,38,39,26,121,121,120,120,6,8,14,20,0.6,0.6
2026-05-04T1900,2380A,116.3854,27.9648,抚州市,医学分院,,40,36,42,21,23,126,126,120,120,4,6,8,14,0.8,0.8
2026-05-04T1900,2207A,121.6095,41.9978,阜新市,工业园区,颗粒物(PM10),89,104,47,3,15,109,109,107,107,10,23,8,15,0.3,0.6
2026-05-04T1900,2208A,121.6567,42.0188,阜新市,长青街,,36,36,32,6,13,108,108,106,106,14,21,8,13,0.3,0.4
2026-05-04T1900,2209A,121.6672,42.07,阜新市,农业园区,颗粒物(PM10),65,71,38,6,11,108,108,106,106,12,14,8,20,0.3,0.5
2026-05-04T1900,2211A,121.6343,42.0455,阜新市,玉龙新城,颗粒物(PM10),73,81,41,7,13,110,110,108,108,10,21,9,14,0.4,0.5
2026-05-04T1900,2301A,115.8276,32.8929,阜阳市,市监测站,,39,35,29,10,6,124,124,123,123,8,8,7,7,0.4,0.4
2026-05-04T1900,2303A,115.8551,32.8606,阜阳市,开发区,,43,43,33,12,9,121,121,122,122,10,10,5,5,0.4,0.4
2026-05-04T1900,2875A,115.783962,32.889217,阜阳市,阜阳职业技术学院,,39,36,25,11,8,123,123,124,124,10,9,8,8,0.3,0.3
2026-05-04T1900,3468A,115.79,32.8614,阜阳市,市规划展馆,,40,32,35,9,7,127,127,126,126,7,6,8,8,0.4,0.4
2026-05-04T1900,3469A,115.835101,32.918568,阜阳市,枣园社区,,40,35,28,19,7,126,126,122,122,13,11,8,7,0.3,0.4
2026-05-04T1900,2669A,102.9097,34.9841,甘南藏族自治州,州政府,,39,18,45,7,15,124,124,126,126,2,24,6,5,0.2,0.3
2026-05-04T1900,3380A,102.8915,34.9618,甘南藏族自治州,甘肃民族师范学院,,42,13,58,3,16,133,133,132,132,1,25,3,4,0.2,0.3
2026-05-04T1900,2570A,101.96,30.048,甘孜藏族自治州,水桥子,,30,8,9,3,3,94,94,109,109,3,9,6,6,0.1,0.2
2026-05-04T1900,3065A,101.9534,29.9976,甘孜藏族自治州,州环保局,,33,17,8,7,4,105,105,119,119,8,9,8,7,0.3,0.3
2026-05-04T1900,2363A,114.9368,25.8663,赣州市,地委,,35,32,36,21,17,109,109,109,109,4,6,3,3,0.6,0.5
2026-05-04T1900,2364A,114.946,25.8483,赣州市,气象台,,37,37,37,23,25,102,102,106,106,12,13,6,7,0.6,0.6
2026-05-04T1900,2365A,114.932,25.8332,赣州市,市图书馆,,36,26,30,21,20,114,114,116,116,8,12,4,5,0.3,0.3
2026-05-04T1900,2366A,114.8905,25.8472,赣州市,华坚鞋城,NA,NA,36,32,25,17,96,96,106,106,18,12,7,7,NA,0.4
2026-05-04T1900,3109A,115.0094,25.8614,赣州市,赣县区卫计委,,33,26,32,19,17,104,104,105,105,8,15,3,5,0.4,0.4
2026-05-04T1900,2684A,106.2753,36.0057,固原市,监测站,,42,20,25,11,9,134,134,132,132,8,11,6,6,0.3,0.3
2026-05-04T1900,2685A,106.2384,36.0189,固原市,新区,,42,20,26,3,6,132,132,130,130,8,9,5,5,0.3,0.3
2026-05-04T1900,2544A,106.6307,30.4577,广安市,市委,,46,38,48,12,30,146,146,138,138,8,13,8,8,0.4,0.4
2026-05-04T1900,2545A,106.6266,30.4662,广安市,友谊中学,,45,42,47,16,26,141,141,132,132,8,12,8,8,0.2,0.2
2026-05-04T1900,2547A,106.6386,30.4551,广安市,广电花园,,43,40,45,18,32,135,135,132,132,14,16,7,7,0.4,0.5
2026-05-04T1900,2902A,106.6347,30.4868,广安市,北辰小学,,44,44,51,20,31,137,137,132,132,9,13,4,5,0.3,0.4
2026-05-04T1900,2524A,105.8211,32.4444,广元市,老城,,43,29,44,17,20,135,135,131,131,6,18,1,2,0.4,0.4
2026-05-04T1900,2526A,105.8629,32.429,广元市,监测站,,41,40,44,19,17,131,131,128,128,8,14,3,5,0.5,0.5
2026-05-04T1900,3617A,105.8047,32.4167,广元市,经开区,,41,41,50,22,27,131,131,125,125,6,18,3,9,0.4,0.5
2026-05-04T1900,1345A,113.2346,23.1423,广州市,广雅中学,NA,NA,32,29,18,16,69,69,77,77,NA,23,2,3,0.5,0.6
2026-05-04T1900,1346A,113.2611,23.105,广州市,市五中,,35,34,21,24,15,82,82,94,94,23,21,4,4,/,/
2026-05-04T1900,1348A,113.3477,23.0916,广州市,广东商学院,,30,30,21,17,12,63,63,82,82,27,13,5,5,0.3,1.8
2026-05-04T1900,1349A,113.4332,23.105,广州市,市八十六中,,32,32,20,15,11,69,69,80,80,24,17,6,6,/,/
2026-05-04T1900,1350A,113.3506,22.9488,广州市,番禺中学,,32,32,22,19,12,77,77,90,90,29,20,9,5,0.6,0.5
2026-05-04T1900,1351A,113.2147,23.3918,广州市,花都师范,,36,36,23,23,14,80,80,86,86,22,16,7,8,0.8,0.8
2026-05-04T1900,1352A,113.2599,23.1329,广州市,市监测站,,26,NA,26,18,16,66,66,71,71,16,18,2,3,/,/
2026-05-04T1900,1353A,113.5618,23.3119,广州市,九龙镇镇龙,,31,31,18,18,11,73,73,74,74,11,12,7,6,0.5,0.5
2026-05-04T1900,1354A,113.2764,23.1544,广州市,麓湖,,26,26,22,16,12,54,54,64,63,15,21,5,5,0.3,0.3
2026-05-04T1900,2846A,113.3209,23.1323,广州市,体育西,,38,38,23,23,15,72,72,78,78,23,21,5,6,0.7,0.7
2026-05-04T1900,3298A,113.5718,23.5493,广州市,从化街口,,37,37,24,24,15,83,83,90,90,10,10,5,6,0.6,0.6
2026-05-04T1900,3299A,113.3463,23.369,广州市,白云竹料,,46,46,24,32,14,84,84,95,95,15,11,4,5,0.7,0.6
2026-05-04T1900,3300A,113.2981,23.2365,广州市,白云嘉禾,,39,39,27,22,15,60,60,77,77,28,23,9,9,/,/
2026-05-04T1900,3301A,113.4256,23.1716,广州市,黄埔科学城,,36,36,22,24,15,50,50,66,65,10,9,4,5,0.7,0.7
2026-05-04T1900,3302A,113.3942,23.0485,广州市,番禺大学城,,29,29,12,16,10,81,81,92,92,27,19,9,7,0.3,0.4
2026-05-04T1900,3303A,113.4923,22.8169,广州市,南沙黄阁,,46,46,27,26,15,88,88,111,111,30,24,9,8,/,/
2026-05-04T1900,3304A,113.534,22.7893,广州市,南沙街,,43,43,28,23,14,92,92,112,112,30,26,8,8,0.5,0.5
2026-05-04T1900,3443A,113.2905,23.5541,广州市,花都梯面,,40,40,21,26,13,52,52,35,NA,12,10,8,8,/,/
2026-05-04T1900,3445A,113.786,23.7479,广州市,从化良口,,28,28,20,19,12,54,54,79,74,9,7,4,5,/,/
2026-05-04T1900,3446A,113.805,23.2614,广州市,增城荔城,,30,30,17,16,9,69,69,77,77,13,8,7,7,0.6,0.5
2026-05-04T1900,2506A,109.604387,23.066791,贵港市,江南子站,,31,22,22,13,11,98,98,100,100,9,9,8,7,0.5,0.6
2026-05-04T1900,2508A,109.5669,23.1065,贵港市,荷城子站,,33,29,20,23,12,91,91,92,92,11,9,5,4,0.7,0.6
2026-05-04T1900,3405A,109.5886,23.1172,贵港市,新世纪学校,,30,22,21,18,12,94,94,96,96,11,9,/,/,0.4,0.4
2026-05-04T1900,4260A,109.5933,23.095,贵港市,中山路155-3号,,32,28,22,19,14,102,102,106,106,9,8,/,/,0.4,0.4
2026-05-04T1900,1439A,106.6863,26.6035,贵阳市,马鞍山,,27,NA,22,18,12,84,84,99,99,10,11,4,4,/,/
2026-05-04T1900,1441A,106.6241,26.6266,贵阳市,鉴湖路,,36,36,33,16,14,105,105,116,116,11,10,6,6,0.6,0.5
2026-05-04T1900,1442A,106.7468,26.6344,贵阳市,燕子冲,,34,34,32,8,14,95,95,104,104,9,10,6,8,0.6,0.7
2026-05-04T1900,1443A,106.6556,26.4362,贵阳市,碧云窝,,36,36,38,13,14,100,100,104,104,6,8,8,6,/,/
2026-05-04T1900,1445A,106.6963,26.6063,贵阳市,红边门,,30,27,27,12,14,95,95,105,105,15,13,6,5,/,/
2026-05-04T1900,1446A,106.7162383,26.56964667,贵阳市,新华路,,34,34,35,13,15,105,105,114,114,10,13,9,7,0.1,0.3
2026-05-04T1900,1447A,106.6742,26.542,贵阳市,太慈桥,,31,31,24,14,14,84,84,94,94,10,10,5,3,/,/
2026-05-04T1900,4230A,106.688212,26.56952,贵阳市,花果园大街66号,,33,NA,16,17,14,104,104,107,107,8,11,2,2,/,/
2026-05-04T1900,4231A,106.687268,26.516892,贵阳市,漓江路57号,,30,24,24,11,15,96,96,108,108,13,14,6,6,0.4,0.5
2026-05-04T1900,1864A,110.3091,25.2705,桂林市,龙隐路小学,,34,29,29,15,16,107,107,113,113,10,8,4,8,0.4,0.4
2026-05-04T1900,1865A,110.2849361,25.22909545,桂林市,八中,,32,22,32,8,11,100,100,102,102,6,12,4,6,0.5,0.6
2026-05-04T1900,3531A,110.296,25.1254,桂林市,旅游学院,,37,27,34,11,15,117,117,117,117,9,13,7,8,0.3,0.3
2026-05-04T1900,4222A,110.1835,25.2444,桂林市,环湖路276号,,36,19,29,15,16,114,114,118,118,4,8,4,22,0.4,0.5
2026-05-04T1900,4301A,110.2803,25.2773,桂林市,信义路13号,,35,29,31,20,14,110,110,113,113,8,9,5,8,0.6,0.6
2026-05-04T1900,2674A,100.2262,34.4854,果洛藏族自治州,玛沁县大武镇,,44,20,31,6,11,140,140,133,133,2,4,12,18,0.2,0.4
2026-05-04T1900,1130A,126.5557,45.8109,哈尔滨市,松北商大,颗粒物(PM10),75,85,42,15,13,79,79,100,96,11,15,4,4,0.4,0.4
2026-05-04T1900,1132A,126.6162,45.719,哈尔滨市,南岗学府路,,34,34,43,12,12,93,93,105,102,14,20,5,5,0.3,0.2
2026-05-04T1900,1133A,126.6894,45.7733,哈尔滨市,太平宏伟公园,,31,31,37,15,14,91,91,104,102,16,21,6,6,0.6,0.6
2026-05-04T1900,1134A,126.6361,45.7672,哈尔滨市,道外承德广场,细颗粒物(PM2.5),127,NA,39,89,14,89,89,101,100,18,22,6,7,0.7,0.8
2026-05-04T1900,1136A,126.644,45.7261,哈尔滨市,动力和平路,,29,25,34,14,12,90,90,103,102,15,21,6,6,0.2,0.2
2026-05-04T1900,1137A,126.5933,45.7479,哈尔滨市,道里建国路,NA,NA,31,38,NA,13,88,88,102,100,25,26,10,9,NA,0
2026-05-04T1900,1138A,126.6127,45.6119,哈尔滨市,平房东轻厂,,23,13,27,9,16,73,73,105,100,16,37,11,14,0.4,0.5
2026-05-04T1900,1139A,126.5875,45.9827,哈尔滨市,呼兰师专,,33,33,31,10,13,85,85,100,99,18,18,10,10,0.4,0.4
2026-05-04T1900,1140A,126.6299,45.6799,哈尔滨市,省农科院,颗粒物(PM10),53,53,88,19,22,54,54,92,87,27,27,7,6,0.4,0.5
2026-05-04T1900,4282A,126.6769,45.7379,哈尔滨市,华山路1号,,41,41,34,16,12,86,86,105,102,14,16,1,2,0.6,0.5
2026-05-04T1900,4283A,126.9717,45.5356,哈尔滨市,解放大街52号,颗粒物(PM10),57,59,67,15,13,79,79,110,106,23,22,6,7,0.5,0.5
2026-05-04T1900,2688A,93.5124,42.8176,哈密市,地区监测站,,38,26,32,15,16,120,120,116,116,8,21,16,15,0.0,0.1
2026-05-04T1900,2689A,93.5014,42.8312,哈密市,哈密师范学校,,34,27,51,13,23,108,108,116,116,13,33,13,13,0.1,0.2
2026-05-04T1900,2671A,100.9016,36.9464,海北藏族自治州,海晏县西海镇,,40,16,13,9,7,127,127,127,127,2,3,5,7,0.3,0.3
2026-05-04T1900,3867A,102.074,36.5056,海东市,平安区公安局北苑,,42,34,35,6,11,133,133,140,140,8,12,9,11,0.5,0.6
2026-05-04T1900,4163A,102.0984,36.5119,海东市,滨河路,,38,24,25,13,16,120,120,123,123,12,31,6,9,0.5,0.7
2026-05-04T1900,1410A,110.3189,20.0596,海口市,海南大学,,34,30,17,18,9,107,107,96,96,7,6,5,5,0.6,0.5
2026-05-04T1900,1411A,110.2827,20.0051,海口市,秀英海南医院,,32,25,15,21,11,100,100,89,89,6,13,6,6,0.4,0.4
2026-05-04T1900,1412A,110.3391,19.9979,海口市,海南师范大学,,32,21,15,20,11,102,102,95,95,6,7,4,4,0.6,0.5
2026-05-04T1900,1413A,110.3303,20.0359,海口市,龙华路环保局宿舍,,34,23,15,16,10,106,106,98,98,8,7,/,/,0.4,0.4
2026-05-04T1900,3539A,110.5111,19.9737,海口市,桂林洋子站,,39,39,23,15,8,98,98,89,89,11,9,/,/,/,/
2026-05-04T1900,4134A,110.1952,20.0451,海口市,长滨二路9号,,32,21,14,19,11,101,101,88,88,5,9,/,/,/,/
2026-05-04T1900,2673A,100.6158,36.2985,海南藏族自治州,共和县恰卜恰镇,,47,18,18,9,9,148,148,146,146,3,7,12,11,0.3,0.3
2026-05-04T1900,2676A,97.373,37.376,海西蒙古族藏族自治州,德令哈市,臭氧1小时(O3_1h),54,30,22,3,9,163,163,157,157,1,2,17,18,0.3,0.4
2026-05-04T1900,1049A,114.492,36.5712,邯郸市,矿院,颗粒物(PM10),58,61,35,24,17,135,135,134,134,4,9,8,5,0.4,0.3
2026-05-04T1900,1050A,114.4839,36.6136,邯郸市,丛台公园,颗粒物(PM10),76,86,30,36,11,130,130,130,130,4,11,9,5,0.4,0.4
2026-05-04T1900,3458A,114.7893,36.5592,邯郸市,香泉濮院小区,颗粒物(PM10),58,60,40,23,17,126,126,129,129,10,15,1,2,0.3,0.2
2026-05-04T1900,3580A,114.1998,36.4439,邯郸市,峰峰矿区临水派出所,,45,45,34,26,15,134,134,137,137,8,11,3,3,0.4,0.5
2026-05-04T1900,4068A,114.5209,36.7697,邯郸市,建安街268号,,42,42,43,28,13,126,126,127,127,7,15,1,3,0.3,0.4
2026-05-04T1900,4069A,114.5488,36.6177,邯郸市,丛台东路558号,,48,48,33,14,9,132,132,128,128,3,16,3,3,0.4,0.3
2026-05-04T1900,2635A,107.0155,33.0707,汉中市,市监测站,,40,40,34,18,19,123,123,124,124,7,11,5,5,0.4,0.4
2026-05-04T1900,2636A,107.0083,33.114,汉中市,鑫源开发区,,40,33,34,14,19,126,126,127,127,7,12,5,7,0.2,0.3
2026-05-04T1900,2637A,107.0072,33.0323,汉中市,南郑大河坎水厂,,38,30,32,17,16,119,119,121,121,6,11,4,5,0.3,0.4
2026-05-04T1900,1223A,120.2073,30.2111,杭州市,滨江,,42,34,26,15,13,133,133,123,123,11,14,9,8,0.4,0.4
2026-05-04T1900,1224A,120.0625,30.2737,杭州市,西溪,,33,28,16,11,8,104,104,115,115,6,13,4,5,0.6,0.6
2026-05-04T1900,1226A,120.3417,30.315,杭州市,下沙,,30,20,21,16,13,96,96,113,113,30,18,9,9,0.5,0.5
2026-05-04T1900,1227A,120.1252,30.2465,杭州市,卧龙桥,,26,26,16,12,8,77,77,114,114,18,11,7,8,0.3,0.3
2026-05-04T1900,1228A,120.1902,30.2691,杭州市,浙江农大,,39,34,24,14,11,123,123,120,120,10,16,8,8,0.2,0.2
2026-05-04T1900,1230A,120.1195,30.3121,杭州市,和睦小学,,38,32,22,14,12,119,119,112,112,16,21,7,7,0.4,0.4
2026-05-04T1900,1231A,120.3076,30.4146,杭州市,临平镇,,37,37,27,14,11,105,105,128,128,29,25,7,7,0.4,0.5
2026-05-04T1900,1232A,120.2753,30.1839,杭州市,城厢镇,,39,35,24,20,14,122,122,115,115,17,16,8,7,0.5,0.5
2026-05-04T1900,1233A,120.0883,30.1808,杭州市,云栖,,32,32,20,12,8,94,94,109,109,18,19,7,6,0.6,0.6
2026-05-04T1900,3557A,119.9463,30.0496,杭州市,镇二中,,29,29,18,11,12,82,82,102,102,30,18,5,5,0.5,0.6
2026-05-04T1900,3558A,119.7184,30.2367,杭州市,市府大楼,,33,17,13,9,10,103,103,107,107,12,14,7,7,0.3,0.3
2026-05-04T1900,3656A,120.1554,30.2863,杭州市,消防大队,,37,35,21,15,10,118,118,114,114,14,12,6,5,0.4,0.4
2026-05-04T1900,1270A,117.1957,31.7845,合肥市,明珠广场,,37,27,20,8,4,117,117,120,120,15,18,8,7,0.4,0.4
2026-05-04T1900,1271A,117.307,31.8765,合肥市,三里街,,33,24,29,3,6,103,103,103,103,20,36,7,7,0.3,0.4
2026-05-04T1900,1272A,117.2587,31.8703,合肥市,琥珀山庄,,34,24,28,3,6,108,108,112,112,13,20,8,8,0.5,0.6
2026-05-04T1900,1275A,117.2593,31.9376,合肥市,庐阳区,,36,19,19,3,3,113,113,112,112,7,13,4,4,0.4,0.5
2026-05-04T1900,1276A,117.345251,31.861615,合肥市,瑶海区,NA,NA,29,25,3,4,107,107,112,112,NA,32,7,6,0.3,0.4
2026-05-04T1900,1277A,117.3033,31.7967,合肥市,包河区,,35,19,35,6,9,109,109,107,107,3,30,9,9,0.3,0.3
2026-05-04T1900,1278A,117.278,31.7392,合肥市,滨湖新区,,34,31,19,3,3,106,106,108,108,10,35,6,5,0.2,0.3
2026-05-04T1900,1279A,117.1324,31.8395,合肥市,高新区,,46,46,23,6,2,120,120,108,108,8,9,6,5,0.3,0.3
2026-05-04T1900,3464A,117.3802,31.9148,合肥市,高教基地,,37,27,27,3,5,116,116,121,121,8,19,9,8,0.4,0.4
2026-05-04T1900,4098A,117.2518,31.8404,合肥市,中国科学技术大学,,36,29,18,3,4,113,113,123,123,14,15,7,7,0.5,0.5
2026-05-04T1900,3614A,79.9241,37.0878,和田地区,地区环保局,颗粒物(PM10),200,349,256,75,82,113,113,106,106,2,6,NA,4,0.2,0.3
2026-05-04T1900,3615A,79.9132,37.1137,和田地区,市环保局,颗粒物(PM10),128,191,208,60,73,115,115,111,111,2,10,3,5,0.1,0.1
2026-05-04T1900,2517A,108.0496,24.6957,河池市,市环保站,NA,NA,27,26,16,10,105,105,108,108,NA,8,NA,6,0.5,0.5
2026-05-04T1900,4302A,108.0901,24.6945,河池市,上任中路54号,,32,25,25,11,7,102,102,102,102,5,9,8,7,0.8,0.8
2026-05-04T1900,1697A,114.6962,23.7538,河源市,东埔,,33,31,22,23,15,74,74,89,88,11,8,6,7,0.5,0.5
2026-05-04T1900,1698A,114.6895,23.7232,河源市,老城,,28,26,23,19,14,71,71,87,85,7,8,6,7,0.6,0.6
2026-05-04T1900,3374A,115.5562,35.089,菏泽市,定陶老年大学,颗粒物(PM10),56,58,46,15,10,126,126,108,NA,12,14,6,8,0.3,0.3
2026-05-04T1900,4114A,115.4239,35.2593,菏泽市,黄河路600号,NA,NA,NA,45,17,11,122,122,118,118,11,12,3,3,0.4,0.4
2026-05-04T1900,4115A,115.5025,35.2727,菏泽市,菏泽市人社局,颗粒物(PM10),55,56,38,15,11,128,128,120,120,8,11,7,7,0.3,0.2
2026-05-04T1900,4184A,115.479691,35.244011,菏泽市,永昌路1号,颗粒物(PM10),52,52,50,15,12,131,131,130,130,13,15,6,6,0.6,0.5
2026-05-04T1900,4193A,115.471542,35.280012,菏泽市,长城路999号,颗粒物(PM10),55,56,45,13,10,141,141,131,131,10,14,8,8,0.3,0.3
2026-05-04T1900,2514A,111.5264,24.4178,贺州市,环保小区,,31,31,23,19,12,86,86,88,88,10,9,6,6,0.5,0.4
2026-05-04T1900,2515A,111.561,24.4074,贺州市,政协大楼,,34,34,24,19,13,91,91,94,94,17,11,11,11,0.5,0.5
2026-05-04T1900,3534A,111.4744,24.455,贺州市,西湾,,31,31,25,14,13,90,90,88,88,7,9,10,9,0.5,0.5
2026-05-04T1900,2385A,114.17,35.9019,鹤壁市,市监测站,,44,44,43,29,27,130,130,128,128,10,12,5,6,0.6,0.6
2026-05-04T1900,2386A,114.2953,35.7512,鹤壁市,市交警支队,颗粒物(PM10),59,62,45,28,20,126,126,119,119,8,10,7,9,0.6,0.6
2026-05-04T1900,2387A,114.2877,35.7302,鹤壁市,迎宾馆,细颗粒物(PM2.5),70,74,52,45,24,128,128,121,121,12,13,6,8,0.5,0.5
2026-05-04T1900,3474A,114.2616,35.6824,鹤壁市,大新区,细颗粒物(PM2.5),74,80,55,47,24,119,119,118,118,13,11,7,7,0.5,0.4
2026-05-04T1900,3596A,114.1573,35.9607,鹤壁市,南山宾馆,颗粒物(PM10),57,59,44,33,28,133,133,130,130,11,11,9,8,0.5,0.6
2026-05-04T1900,2244A,130.2537,47.3416,鹤岗市,哈啤分公司,,29,29,29,16,16,86,86,84,84,10,9,11,11,0.7,0.5
2026-05-04T1900,2245A,130.2683,47.3087,鹤岗市,斯达机电,,33,33,25,18,13,90,90,98,97,10,9,11,11,0.5,0.5
2026-05-04T1900,2246A,130.3114,47.3388,鹤岗市,东山纸板厂,颗粒物(PM10),51,51,52,12,26,84,84,96,94,12,10,10,13,0.5,0.6
2026-05-04T1900,2263A,127.4832,50.2524,黑河市,交通局,,31,28,29,7,12,99,99,97,97,10,16,5,6,0.2,0.3
2026-05-04T1900,2264A,127.5146,50.2339,黑河市,环保局,,32,27,30,6,12,101,101,98,98,8,12,6,7,0.3,0.3
2026-05-04T1900,1074A,115.6839,37.754,衡水市,电机北厂,颗粒物(PM10),68,74,48,21,9,140,140,131,131,13,12,2,3,0.3,0.3
2026-05-04T1900,1075A,115.6303,37.7318,衡水市,市监测站,颗粒物(PM10),67,73,47,20,9,133,133,126,126,14,13,5,6,0.3,0.3
2026-05-04T1900,3188A,115.6684,37.7216,衡水市,市城管局,,50,50,41,25,12,137,137,130,130,10,12,4,3,0.3,0.2
2026-05-04T1900,3459A,115.599,37.5491,衡水市,地表水厂,颗粒物(PM10),73,82,42,16,8,131,131,128,128,7,12,5,5,0.3,0.3
2026-05-04T1900,2457A,112.6209,26.9268,衡阳市,衡阳化工总厂,,41,39,43,14,20,130,130,130,130,10,14,7,8,0.6,0.7
2026-05-04T1900,2458A,112.621,26.8957,衡阳市,珠晖区环保局,,42,26,34,13,18,132,132,133,133,10,14,8,9,0.8,0.8
2026-05-04T1900,2459A,112.628,26.8654,衡阳市,市委党校,,41,32,37,18,24,130,130,126,126,9,13,11,12,0.6,0.9
2026-05-04T1900,2460A,112.6007,26.8977,衡阳市,市监测站,,43,34,37,30,20,117,117,121,121,14,16,9,10,0.6,0.7
2026-05-04T1900,2461A,112.5658,26.9013,衡阳市,真空机电公司,,43,28,35,13,21,136,136,139,139,12,14,8,10,0.6,0.7
2026-05-04T1900,3399A,112.6703,26.8817,衡阳市,师范学院,,40,21,36,16,21,127,127,130,130,9,12,8,8,0.5,0.6
2026-05-04T1900,3038A,103.3757,23.3679,红河哈尼族彝族自治州,州图书馆,,49,34,17,34,16,100,100,106,106,7,8,31,16,0.3,0.4
2026-05-04T1900,4154A,103.401,23.3561,红河哈尼族彝族自治州,蒙自市朝阳路,,38,33,16,26,13,103,103,108,108,4,5,33,11,0.6,0.5
2026-05-04T1900,1090A,111.6506,40.7517,呼和浩特市,呼市一监,颗粒物(PM10),56,58,39,30,12,124,124,117,117,9,20,6,8,0.7,0.7
2026-05-04T1900,1094A,111.7516,40.8369,呼和浩特市,如意水处理厂,,45,45,36,20,14,126,126,113,113,7,21,8,8,0.3,0.4
2026-05-04T1900,1095A,111.727798,40.806187,呼和浩特市,二十九中,,42,42,35,16,12,118,118,107,107,10,18,9,11,0.3,0.5
2026-05-04T1900,1097A,111.717,40.7617,呼和浩特市,化肥厂生活区,NA,NA,65,44,23,19,NA,NA,115,115,12,20,7,9,0.2,0.6
2026-05-04T1900,3699A,111.6519,40.8389,呼和浩特市,海东办,颗粒物(PM10),60,63,37,13,15,117,117,106,106,9,25,5,6,0.2,0.3
2026-05-04T1900,4275A,111.591512,40.827312,呼和浩特市,成吉思汗西街8号,颗粒物(PM10),62,66,45,16,14,112,112,102,102,12,23,5,7,0.3,0.3
2026-05-04T1900,4276A,111.6597,40.8077,呼和浩特市,公园东路75号,颗粒物(PM10),62,66,42,18,10,114,114,103,103,12,20,6,6,0.3,0.4
2026-05-04T1900,4277A,111.5427,40.7846,呼和浩特市,金海路35号,颗粒物(PM10),60,63,41,27,12,109,109,102,102,13,22,6,7,0.2,0.3
2026-05-04T1900,3061A,119.7511,49.1576,呼伦贝尔市,国华电力东,,36,36,27,11,12,104,104,98,98,6,7,5,5,0.3,0.3
2026-05-04T1900,4279A,119.7569,49.2222,呼伦贝尔市,伊敏大街东7号,,32,32,28,16,14,100,100,95,95,8,10,7,6,0.5,0.5
2026-05-04T1900,1250A,120.075,30.867,湖州市,城西水厂,,43,27,22,12,11,137,137,131,131,13,35,7,7,0.3,0.3
2026-05-04T1900,2873A,120.083,30.8929,湖州市,仁皇山新区,,41,28,20,15,11,131,131,128,128,17,31,7,7,0.4,0.5
2026-05-04T1900,2907A,120.1846,30.8592,湖州市,吴兴区站,,41,34,23,14,11,129,129,125,125,15,22,7,7,0.3,0.3
2026-05-04T1900,3562A,120.4146,30.8538,湖州市,南浔区站,,38,36,40,11,13,121,121,122,122,15,16,6,7,0.4,0.5
2026-05-04T1900,1607A,120.904878,40.721091,葫芦岛市,龙港区,颗粒物(PM10),58,61,34,21,9,136,136,116,116,14,25,11,11,0.5,0.5
2026-05-04T1900,1608A,120.8382,40.7521,葫芦岛市,化工街,颗粒物(PM10),53,53,36,26,14,117,117,108,108,21,35,15,15,0.5,0.4
2026-05-04T1900,1609A,120.8339,40.7078,葫芦岛市,新区,颗粒物(PM10),68,74,29,20,9,126,126,109,109,18,28,10,11,0.6,0.6
2026-05-04T1900,1610A,120.8697,40.7679,葫芦岛市,东城区,,50,50,44,32,16,121,121,111,111,22,29,11,31,0.6,0.5
2026-05-04T1900,2483A,109.9297,27.5383,怀化市,河西地税局,,30,28,29,16,17,93,93,98,98,7,7,8,7,/,/
2026-05-04T1900,2484A,109.9783,27.5342,怀化市,市四医院,NA,NA,31,35,11,18,NA,NA,27,NA,9,11,6,5,0.3,0.4
2026-05-04T1900,2485A,109.9971,27.5579,怀化市,监测楼,,26,22,31,18,18,83,83,95,95,8,7,4,4,0.6,0.6
2026-05-04T1900,1210A,119.0566,33.5991,淮安市,钵池山,,36,22,30,7,11,115,115,120,120,12,15,9,9,0.5,0.6
2026-05-04T1900,1211A,119.0083,33.578,淮安市,北京南路,,38,29,34,8,12,120,120,126,126,12,19,8,8,0.4,0.5
2026-05-04T1900,1212A,118.9938,33.6083,淮安市,市监测站,NA,NA,22,21,10,11,127,127,132,132,NA,12,NA,6,0.4,0.4
2026-05-04T1900,1213A,119.135,33.5038,淮安市,楚州区监测站,,34,24,28,8,12,108,108,118,118,12,10,6,6,0.4,0.4
2026-05-04T1900,3426A,118.8757,33.2897,淮安市,新华书店,,37,28,32,9,12,118,118,119,119,12,14,8,9,0.5,0.5
2026-05-04T1900,4092A,119.119691,33.550006,淮安市,枚皋中路89号,,38,24,27,7,11,120,120,124,124,9,11,8,7,0.4,0.4
2026-05-04T1900,4206A,119.028838,33.631911,淮安市,承德北路606号,,36,24,38,6,12,115,115,122,122,11,15,6,6,0.3,0.4
2026-05-04T1900,2282A,116.8005,33.9749,淮北市,监测站,,43,43,39,18,15,127,127,129,129,14,17,8,8,0.4,0.3
2026-05-04T1900,2283A,116.8094,33.9008,淮北市,烈山区政府,,40,34,44,13,11,125,125,127,127,9,15,8,8,0.3,0.3
2026-05-04T1900,4017A,116.7926,33.9534,淮北市,市博物馆,,40,39,40,17,12,126,126,128,128,11,14,6,6,0.4,0.4
2026-05-04T1900,4100A,116.8322,33.9884,淮北市,杜集区第一实验学校,NA,NA,39,37,30,12,NA,NA,110,NA,8,13,8,8,0.4,0.4
2026-05-04T1900,2277A,116.8304,32.7726,淮南市,潘集区政府,,50,50,27,13,9,122,122,126,126,16,17,7,8,0.4,0.4
2026-05-04T1900,2279A,116.8569,32.5949,淮南市,谢家集区政府,,38,31,15,14,6,119,119,131,131,15,10,8,8,0.2,0.2
2026-05-04T1900,2280A,116.8279,32.6333,淮南市,八公山区政府,,39,34,22,12,6,123,123,129,129,9,6,6,4,0.2,0.2
2026-05-04T1900,2894A,117.0561,32.6536,淮南市,经济技术开发区消防队,,39,32,26,11,7,122,122,122,122,5,7,7,7,0.3,0.2
2026-05-04T1900,3329A,117.011,32.5891,淮南市,山南新区,,42,24,13,9,6,132,132,128,128,10,11,8,8,0.3,0.2
2026-05-04T1900,4209A,117.003137,32.644456,淮南市,国庆中路369号,,39,34,21,12,6,124,124,124,124,8,9,6,5,0.1,0.1
2026-05-04T1900,2446A,114.9021,30.474,黄冈市,职工中心,,49,31,26,17,14,154,154,157,157,9,9,9,6,0.6,0.5
2026-05-04T1900,2929A,114.8858,30.4519,黄冈市,红卫路,,47,24,23,22,17,148,148,154,154,14,12,10,8,0.5,0.4
2026-05-04T1900,3398A,114.9134,30.4446,黄冈市,市林业局,,45,45,32,25,13,140,140,148,148,17,14,5,4,1.1,0.4
2026-05-04T1900,2672A,102.02,35.5101,黄南藏族自治州,同仁县隆务镇,,46,20,19,11,11,147,147,142,142,1,3,10,10,0.2,0.3
2026-05-04T1900,2295A,118.2905,29.6965,黄山市,延安路89号,,28,18,21,6,12,88,88,106,106,8,8,6,6,0.1,0.2
2026-05-04T1900,2297A,118.1369,30.2755,黄山市,黄山区政府5号楼,,29,23,21,6,6,91,91,97,97,4,4,3,3,0.1,0.1
2026-05-04T1900,4210A,118.335445,29.720283,黄山市,滨江东路7-2号,,42,42,33,9,10,77,77,107,105,11,7,/,/,/,/
2026-05-04T1900,2423A,115.0547,30.2332,黄石市,沈家营,,37,30,30,14,11,116,116,140,140,27,19,4,6,0.6,0.5
2026-05-04T1900,2426A,114.899,30.211,黄石市,铁山,,35,31,34,16,10,111,111,138,138,8,13,8,11,0,0.4
2026-05-04T1900,2427A,115.0259,30.2108,黄石市,团城山,,45,24,30,10,10,142,142,147,147,3,18,7,7,0.4,0.6
2026-05-04T1900,3149A,115.0174,30.1591,黄石市,笔架山北路,NA,NA,34,33,22,12,124,124,130,130,11,12,NA,14,0.2,0.4
2026-05-04T1900,4185A,115.078022,30.21118,黄石市,磁湖东路29号,,41,40,32,24,14,131,131,138,138,12,20,4,5,0.4,0.5
2026-05-04T1900,1392A,114.4181,23.0528,惠州市,河南岸金山湖子站,,35,35,20,23,13,78,78,88,88,15,10,10,9,0.7,0.6
2026-05-04T1900,1393A,114.4055,23.0824,惠州市,下埔横江三路子站,,50,50,24,26,12,84,84,90,90,17,9,10,7,0.7,0.7
2026-05-04T1900,1395A,114.4645,22.7832,惠州市,惠阳区承修路船湖子站,,50,50,27,30,14,55,55,89,88,19,11,7,7,0.7,0.5
2026-05-04T1900,1396A,114.5316,22.7423,惠州市,大亚湾管委会子站,,38,38,22,23,12,87,87,96,96,12,9,5,5,0.5,0.5
2026-05-04T1900,3314A,114.4334,22.8134,惠州市,惠阳秋长,,38,36,21,26,14,68,68,93,92,18,9,/,/,/,/
2026-05-04T1900,3452A,114.6521,22.7755,惠州市,大亚湾霞涌,,28,NA,16,17,10,88,88,95,95,9,7,/,/,/,/
2026-05-04T1900,4300A,114.4089,23.1147,惠州市,文华一路1号,,36,35,21,25,12,87,87,91,91,12,7,/,/,/,/
2026-05-04T1900,2240A,130.9618,45.2926,鸡西市,环保局,,26,22,34,12,16,82,82,102,100,13,12,6,7,0.3,0.4
2026-05-04T1900,2243A,130.9294,45.2959,鸡西市,第一中学,,28,14,27,13,13,88,88,100,100,8,9,6,6,0.3,0.3
2026-05-04T1900,3707A,131.0069,45.2988,鸡西市,欧美日汽修厂,,29,NA,34,20,16,76,76,98,96,12,13,5,6,0.4,0.4
2026-05-04T1900,2367A,114.9753,27.0803,吉安市,红声器材厂,,41,33,38,23,20,129,129,136,136,9,11,8,9,0.5,0.4
2026-05-04T1900,2369A,114.9903,27.1313,吉安市,市环境监测站,,40,34,34,22,18,128,128,130,130,9,9,13,14,/,/
2026-05-04T1900,2370A,115.009527,27.096792,吉安市,青原区法院,,43,43,40,18,19,100,100,124,124,18,17,8,9,0.3,0.4
2026-05-04T1900,1772A,126.54,43.8622,吉林市,哈达湾,颗粒物(PM10),74,83,39,13,17,96,96,104,103,6,10,8,9,0.4,0.4
2026-05-04T1900,1773A,126.5843,43.8358,吉林市,东局子,,29,28,36,12,18,92,92,108,106,16,16,4,6,0.7,0.8
2026-05-04T1900,1774A,126.5051,43.8243,吉林市,电力学院,,33,33,32,14,18,104,104,117,116,11,13,4,5,0.4,0.5
2026-05-04T1900,1775A,126.6133,43.8971,吉林市,江北,,50,50,39,27,18,80,80,104,102,21,15,10,11,0.6,0.6
2026-05-04T1900,1776A,126.5549,43.8304,吉林市,江南公园,NA,NA,29,33,14,19,93,93,101,100,NA,15,NA,9,0.5,0.6
2026-05-04T1900,2868A,126.4737,43.953,吉林市,九站,颗粒物(PM10),51,51,49,16,23,85,85,105,103,16,20,10,16,0.4,0.5
2026-05-04T1900,1299A,116.9866,36.6118,济南市,科干所,颗粒物(PM10),51,51,22,15,3,151,151,134,134,13,11,6,4,0.3,0.4
2026-05-04T1900,1300A,116.9379,36.6652,济南市,农科所,,46,46,28,12,4,142,142,126,126,11,20,8,6,0.2,0.2
2026-05-04T1900,1301A,117.1265,36.6736,济南市,开发区,,45,39,26,8,4,144,144,134,134,13,14,5,4,0.3,0.3
2026-05-04T1900,1303A,117.0616,36.6865,济南市,省种子仓库,,48,48,45,12,5,149,149,136,136,13,30,5,4,0.6,0.5
2026-05-04T1900,1304A,116.9495185,36.644937,济南市,机床二厂,颗粒物(PM10),57,59,32,15,6,151,151,136,136,15,18,7,5,0.4,0.3
2026-05-04T1900,1305A,117.0496,36.6629,济南市,市监测站,,49,49,29,18,4,140,140,126,126,11,13,4,3,0.6,0.5
2026-05-04T1900,1306A,116.7674,36.5458,济南市,长清党校,,46,46,29,10,2,140,140,132,132,9,13,8,3,0.5,0.4
2026-05-04T1900,1961A,117.5323,36.6865,济南市,东山小学,,42,42,19,10,2,134,134,125,125,14,14,4,3,0.3,0.3
2026-05-04T1900,3059A,117.7181,36.205,济南市,泰兴公司,,45,44,28,8,6,142,142,127,127,15,27,10,8,0.3,0.3
2026-05-04T1900,3064A,117.6861,36.2172,济南市,莱芜战役纪念馆,,44,36,27,6,6,139,139,128,128,14,22,6,5,0.2,0.2
2026-05-04T1900,3494A,117.1673,36.9782,济南市,济阳区政府,颗粒物(PM10),57,59,37,20,9,112,112,114,114,20,21,7,7,0.5,0.4
2026-05-04T1900,3495A,117.1168,36.6299,济南市,锦屏中学,,43,42,24,12,3,137,137,127,127,14,12,6,4,0.2,0.2
2026-05-04T1900,4108A,117.7107,36.2385,济南市,山财大街5号,,45,31,19,7,4,143,143,128,128,12,20,6,4,0.2,0.2
2026-05-04T1900,4109A,116.9744,36.6889,济南市,无影山路12号,,48,48,25,15,4,143,143,131,131,12,17,6,4,0.4,0.3
2026-05-04T1900,1653A,116.6229,35.4288,济宁市,火炬城,,38,36,35,6,5,120,120,119,119,8,10,4,4,0.4,0.4
2026-05-04T1900,3500A,116.5808,35.3703,济宁市,北湖一中,,43,39,37,3,4,135,135,131,131,10,12,8,8,0.2,0.2
2026-05-04T1900,3501A,116.8251,35.5592,济宁市,服务中心,颗粒物(PM10),54,55,48,10,7,118,118,117,117,10,10,2,2,0.3,0.3
2026-05-04T1900,3678A,116.5907,35.4054,济宁市,市第七中学,颗粒物(PM10),59,62,61,3,5,137,137,134,134,13,16,5,6,0.2,0.2
2026-05-04T1900,4111A,116.6075,35.4566,济宁市,任和路,颗粒物(PM10),51,51,39,6,6,136,136,134,134,8,11,5,6,0.2,0.2
2026-05-04T1900,4112A,116.5648,35.3921,济宁市,文体南路1号,,43,38,33,3,4,136,136,133,133,7,9,4,4,0.3,0.3
2026-05-04T1900,4122A,112.6071,35.1015,济源市,市委党校,,48,48,58,20,16,142,142,136,136,14,22,9,14,0.5,0.6
2026-05-04T1900,4123A,112.596,35.0702,济源市,沁园中路1号,NA,NA,NA,42,NA,20,NA,NA,130,130,NA,17,NA,7,NA,0.7
2026-05-04T1900,2255A,130.2749,46.8028,佳木斯市,佳纺,,32,32,24,18,9,90,90,101,100,6,10,4,4,0.2,0.3
2026-05-04T1900,2257A,130.3258,46.7975,佳木斯市,环保局,,31,13,20,11,11,97,97,101,101,6,10,2,2,0.3,0.4
2026-05-04T1900,4285A,130.363,46.806,佳木斯市,顺和街,,30,18,21,8,11,95,95,101,100,10,14,2,2,0.3,0.3
2026-05-04T1900,4286A,130.3952,46.8268,佳木斯市,长安路196号,,29,17,23,16,15,91,91,101,100,11,11,2,2,0.3,0.3
2026-05-04T1900,1252A,120.7439,30.778,嘉兴市,清河小学,,43,43,28,24,8,124,124,122,122,17,21,7,8,0.5,0.5
2026-05-04T1900,1253A,120.7261,30.7477,嘉兴市,嘉兴学院,NA,NA,26,24,12,13,125,125,122,122,17,27,6,7,NA,0.4
2026-05-04T1900,2872A,120.7845,30.7524,嘉兴市,南湖区残联,,44,38,27,15,14,140,140,137,137,18,21,7,7,0.2,0.3
2026-05-04T1900,3407A,120.6915,30.7741,嘉兴市,秀洲住建,,44,28,26,9,12,138,138,139,139,22,24,7,7,0.3,0.3
2026-05-04T1900,1945A,98.291,39.7705,嘉峪关市,气象局,,47,19,25,14,10,149,149,143,143,5,17,15,11,1.5,1.3
2026-05-04T1900,2884A,98.2672,39.7978,嘉峪关市,酒钢宾馆,,46,31,41,13,15,146,146,142,142,6,11,12,14,0.4,0.5
2026-05-04T1900,3248A,98.2644,39.7723,嘉峪关市,雄关区,,46,24,28,8,9,145,145,139,139,7,20,8,6,0.4,0.4
2026-05-04T1900,1383A,113.1063,22.6058,江门市,北街,,48,48,29,30,20,102,102,110,110,34,25,/,/,/,/
2026-05-04T1900,1384A,113.073,22.5835,江门市,西区,颗粒物(PM10),51,51,26,30,19,108,108,114,114,31,23,/,/,/,/
2026-05-04T1900,1385A,113.0218,22.531,江门市,圭峰西,,42,42,26,24,16,101,101,106,106,27,19,/,/,/,/
2026-05-04T1900,1386A,113.0826,22.5947,江门市,东湖,,42,42,29,29,22,94,94,101,101,26,20,7,6,0.6,0.6
2026-05-04T1900,3311A,113.1077,22.5647,江门市,江海富民,,46,46,26,29,19,109,109,110,110,27,20,/,/,0.7,0.6
2026-05-04T1900,3449A,113.0496,22.4669,江门市,新会银湖,细颗粒物(PM2.5),56,45,26,38,20,88,88,110,110,37,28,10,10,0.7,0.6
2026-05-04T1900,3335A,113.3137,35.2643,焦作市,马村街道办,,46,35,58,32,17,143,143,138,138,8,11,12,11,0.3,0.4
2026-05-04T1900,3336A,113.2464,35.2374,焦作市,焦作技师学院,颗粒物(PM10),57,59,54,30,17,141,141,136,136,11,12,10,9,0.4,0.5
2026-05-04T1900,3477A,113.1656,35.2536,焦作市,中站许衡医院,颗粒物(PM10),102,125,71,27,17,130,130,135,135,18,10,10,12,0.4,0.5
2026-05-04T1900,3981A,113.2456,35.18,焦作市,原李万街道办,NA,NA,56,54,23,17,143,143,138,138,11,12,8,9,NA,0.4
2026-05-04T1900,4264A,113.234,35.219,焦作市,新安路1731号,,46,46,43,24,17,143,143,137,137,11,13,8,9,0.3,0.4
2026-05-04T1900,4295A,113.2722,35.2121,焦作市,人民路3066号,,44,44,49,30,19,137,137,136,136,12,11,9,8,0.3,0.3
2026-05-04T1900,1708A,116.3701,23.5345,揭阳市,新兴,,31,31,27,15,11,55,55,51,51,23,17,9,8,0.8,0.7
2026-05-04T1900,1709A,116.3261,23.5442,揭阳市,西马,,50,50,28,23,12,46,46,53,50,25,15,14,7,0.9,0.7
2026-05-04T1900,1710A,116.361,23.5627,揭阳市,东兴,,37,37,26,21,13,46,46,48,46,22,15,8,5,/,/
2026-05-04T1900,1711A,116.4151,23.5295,揭阳市,渔湖,,24,24,28,13,11,61,61,50,50,17,17,3,4,/,/
2026-05-04T1900,3320A,116.4028,23.5699,揭阳市,曲溪,,40,40,27,18,12,52,52,49,49,19,16,10,5,0.7,0.6
2026-05-04T1900,1944A,102.1691,38.5166,金昌市,天庆家园,,47,17,41,11,23,150,150,145,145,5,16,5,11,0.5,0.6
2026-05-04T1900,4022A,102.1648,38.5369,金昌市,金川区人防中心,,45,14,33,10,22,144,144,144,144,8,14,10,13,0.3,0.4
2026-05-04T1900,4239A,102.193042,38.531887,金昌市,长春路96号,,44,15,44,14,23,140,140,135,135,4,13,8,28,0.4,0.4
2026-05-04T1900,1262A,119.6478,29.0773,金华市,十五中,,43,43,33,21,18,107,107,118,118,22,16,2,2,0.4,0.6
2026-05-04T1900,1263A,119.6859,29.1032,金华市,监测站,,38,30,30,19,17,120,120,133,133,24,23,4,4,0.3,0.4
2026-05-04T1900,3659A,119.656,29.1132,金华市,气象局,,34,34,32,12,15,97,97,120,120,32,23,4,4,0.3,0.4
2026-05-04T1900,1767A,121.1114,41.0879,锦州市,南山,颗粒物(PM10),60,64,40,22,22,119,119,116,116,22,20,14,13,0.7,0.5
2026-05-04T1900,1768A,121.060361,40.842794,锦州市,开发区,颗粒物(PM10),88,103,67,29,20,134,134,108,108,20,42,8,11,0.6,0.5
2026-05-04T1900,1769A,121.1836,41.1118,锦州市,百股街道,颗粒物(PM10),65,70,37,20,19,125,125,116,116,20,15,10,10,0.6,0.5
2026-05-04T1900,1770A,121.1176,41.1224,锦州市,天安街道,颗粒物(PM10),69,76,38,21,16,116,116,114,114,23,15,10,8,0.6,0.4
2026-05-04T1900,1771A,121.1303,41.1385,锦州市,北湖公园,颗粒物(PM10),57,59,39,26,17,117,117,114,114,20,13,13,12,0.6,0.4
2026-05-04T1900,2160A,112.8496,35.5051,晋城市,自来水公司,,45,41,49,14,7,143,143,138,138,16,20,6,5,0.3,0.4
2026-05-04T1900,2162A,112.8509,35.4886,晋城市,市环保局,,44,44,47,16,7,133,133,128,128,8,14,7,5,0.3,0.3
2026-05-04T1900,3620A,112.8258,35.4804,晋城市,泽州一中,,48,48,44,16,11,142,142,138,138,7,16,6,4,0.7,0.7
2026-05-04T1900,4078A,112.8246,35.5152,晋城市,前书院路,,45,45,44,31,10,142,142,137,137,6,14,11,9,0.7,0.7
2026-05-04T1900,4079A,112.8864,35.4773,晋城市,祥云街666号,细颗粒物(PM2.5),56,46,42,38,12,138,138,132,132,11,17,10,8,0.4,0.4
2026-05-04T1900,2174A,112.6992,37.6984,晋中市,榆次区政府,颗粒物(PM10),55,56,56,22,21,133,133,128,128,11,26,6,9,0.4,0.5
2026-05-04T1900,2865A,112.7195,37.683,晋中市,榆次三中,颗粒物(PM10),65,70,61,24,17,131,131,131,131,7,21,7,9,0.8,0.4
2026-05-04T1900,4080A,112.7375,37.7215,晋中市,广安街188号,颗粒物(PM10),59,62,54,20,18,127,127,122,122,7,23,5,8,0.2,0.3
2026-05-04T1900,4200A,112.7478,37.6954,晋中市,迎宾街26号,颗粒物(PM10),65,70,58,23,18,134,134,132,132,8,21,5,8,0.4,0.4
2026-05-04T1900,2439A,112.2012,31.048,荆门市,竹园小学,,40,40,44,18,23,124,124,129,129,10,17,1,7,0.4,0.4
2026-05-04T1900,2440A,112.1968,30.9892,荆门市,掇刀,,41,40,44,26,24,129,129,132,132,8,15,10,10,0.5,0.5
2026-05-04T1900,3012A,112.1849,31.0361,荆门市,西山林语,,39,39,40,24,20,124,124,127,127,7,10,7,8,0.5,0.5
2026-05-04T1900,3547A,112.1631,31.0134,荆门市,龙泉中学南校,,40,36,34,22,16,127,127,131,131,8,13,5,6,0.3,0.4
2026-05-04T1900,4124A,112.2213,31.0654,荆门市,新台西路6号,,48,48,48,24,27,125,125,130,130,8,14,11,10,0.7,0.7
2026-05-04T1900,1844A,112.2493,30.3198,荆州市,市图书馆,,38,37,38,20,22,119,119,122,122,11,12,8,7,0.3,0.4
2026-05-04T1900,1845A,112.2009,30.3543,荆州市,市委党校,,38,34,38,26,23,97,97,96,96,12,17,9,8,0.4,0.4
2026-05-04T1900,3194A,112.2749,30.3124,荆州市,管委会,,37,37,38,23,22,117,117,116,116,11,14,8,8,0.3,0.4
2026-05-04T1900,4268A,112.1722,30.3366,荆州市,学苑路85号,,42,42,33,17,25,120,120,122,122,6,12,4,3,0.4,0.5
2026-05-04T1900,2343A,117.2114,29.2931,景德镇市,老干部活动中心,,26,25,20,6,13,82,82,98,98,8,7,3,4,0.5,0.5
2026-05-04T1900,2344A,117.1893,29.2789,景德镇市,兽医站,,27,23,29,14,10,86,86,110,108,8,8,4,4,0.4,0.4
2026-05-04T1900,2346A,117.246,29.2958,景德镇市,陶研所,,35,NA,18,24,14,72,72,102,100,7,9,3,3,0.5,0.6
2026-05-04T1900,4289A,117.154766,29.256967,景德镇市,青少年活动中心,,32,26,22,22,12,77,77,100,100,16,12,31,12,/,/
2026-05-04T1900,1803A,115.9873,29.6816,九江市,十里,,33,24,29,8,9,104,104,127,126,17,31,6,8,0.9,0.9
2026-05-04T1900,1804A,115.9583,29.7047,九江市,茅山头,,34,34,24,7,9,101,101,130,129,11,18,4,5,0.4,0.5
2026-05-04T1900,1805A,115.9877,29.7295,九江市,西园,,34,19,27,8,9,106,106,124,124,14,32,4,8,0.5,0.6
2026-05-04T1900,1808A,115.9112,29.6038,九江市,综合工业园,,32,19,20,10,7,102,102,121,120,17,22,8,10,0.4,0.5
2026-05-04T1900,3190A,116.0254,29.6995,九江市,外国语学校,,32,13,21,3,7,100,100,113,113,9,23,11,13,0.6,0.7
2026-05-04T1900,4253A,116.010205,29.659402,九江市,莲花大道8号,,30,14,22,6,6,96,96,105,105,10,16,5,7,0.4,0.4
2026-05-04T1900,4240A,98.495752,39.733935,酒泉市,玉门东路5号,,39,19,27,12,14,124,124,123,123,5,10,8,7,0.3,0.3
2026-05-04T1900,4241A,98.5099,39.7506,酒泉市,北大街108号,,37,NA,28,15,16,118,118,116,116,4,12,9,9,0.3,0.3
2026-05-04T1900,2698A,76.0071,39.466,喀什地区,巡警大队,颗粒物(PM10),157,264,296,102,120,117,117,100,100,6,37,4,5,0.2,0.5
2026-05-04T1900,2699A,75.9756,39.4693,喀什地区,吾办,颗粒物(PM10),155,260,267,105,109,116,116,104,104,8,22,4,5,0.4,0.6
2026-05-04T1900,4027A,75.9485,39.4688,喀什地区,老干局,颗粒物(PM10),158,265,266,112,117,119,119,102,102,4,20,4,3,0.1,0.2
2026-05-04T1900,1824A,114.3389,34.778,开封市,肿瘤医院,颗粒物(PM10),64,69,65,30,30,129,129,132,132,15,19,8,9,0.6,0.7
2026-05-04T1900,1826A,114.2884,34.7966,开封市,世纪星幼儿园,颗粒物(PM10),63,67,53,35,27,130,130,134,134,12,18,9,9,0.6,0.6
2026-05-04T1900,3147A,114.3434,34.8101,开封市,龙亭公园,颗粒物(PM10),63,68,74,22,24,141,141,138,138,17,24,10,10,0.5,0.6
2026-05-04T1900,3210A,114.3645,34.7955,开封市,汴京公园,颗粒物(PM10),58,61,63,34,25,138,138,136,136,10,16,6,7,0.5,0.5
2026-05-04T1900,3473A,114.2485,34.8306,开封市,技师学院,颗粒物(PM10),72,80,57,24,23,142,142,141,141,9,15,6,7,0.8,0.8
2026-05-04T1900,3592A,114.4518,34.7503,开封市,祥符区生态环境局,,50,50,58,28,31,122,122,126,126,20,23,10,14,0.6,0.6
2026-05-04T1900,1951A,84.886,45.6029,克拉玛依市,长征新村,,48,48,58,12,16,107,107,109,109,2,13,7,7,0.5,0.6
2026-05-04T1900,1952A,84.8894,45.5827,克拉玛依市,南林小区,,48,48,45,3,10,104,104,104,104,2,19,2,2,0.2,0.2
2026-05-04T1900,1954A,84.896,44.3328,克拉玛依市,独山子区,颗粒物(PM10),53,54,59,18,15,117,117,116,112,5,9,6,6,0.5,0.5
2026-05-04T1900,1955A,85.6888,46.0909,克拉玛依市,乌尔禾区商贸楼,颗粒物(PM10),60,63,42,15,17,105,105,104,104,5,13,4,4,0.4,0.4
2026-05-04T1900,3612A,85.1045,45.6895,克拉玛依市,白碱滩区新站,细颗粒物(PM2.5),56,50,43,38,22,112,112,111,111,2,11,9,9,0.2,0.2
2026-05-04T1900,2697A,76.1457,39.7143,克孜勒苏柯尔克孜自治州,市人民政府,颗粒物(PM10),154,258,247,104,89,111,111,102,102,2,12,5,6,0.1,0.1
2026-05-04T1900,3665A,76.1654,39.7157,克孜勒苏柯尔克孜自治州,克州文化中心,细颗粒物(PM2.5),188,270,244,141,103,112,112,103,103,1,10,3,7,0.2,0.2
2026-05-04T1900,1450A,102.8203,24.889,昆明市,呈贡新区,,40,NA,13,28,10,76,76,90,89,10,8,4,4,0.4,0.3
2026-05-04T1900,1452A,102.7253,25.0904,昆明市,龙泉镇,,43,34,10,30,6,62,62,68,67,6,5,5,4,0.6,0.5
2026-05-04T1900,1453A,102.7267,25.0378,昆明市,东风东路,细颗粒物(PM2.5),64,46,14,42,10,60,60,77,73,15,8,3,2,0.6,0.4
2026-05-04T1900,1454A,102.6744,25.0671,昆明市,金鼎山,,43,39,12,30,8,68,68,76,72,13,8,2,3,0.7,0.6
2026-05-04T1900,1455A,102.6643,25.0401,昆明市,碧鸡广场,细颗粒物(PM2.5),70,46,16,45,12,51,51,73,63,18,8,6,5,0.8,0.5
2026-05-04T1900,3179A,102.7491,25.012,昆明市,官渡区博物馆,细颗粒物(PM2.5),54,50,15,37,9,59,59,73,72,17,14,4,3,0.8,0.6
2026-05-04T1900,3375A,102.8016,24.8336,昆明市,青年创业园,,39,39,16,17,9,75,75,91,90,8,6,4,4,0.5,0.4
2026-05-04T1900,3550A,102.8,24.9787,昆明市,昆明学院,细颗粒物(PM2.5),66,64,19,43,9,63,63,79,78,17,14,5,4,0.8,0.5
2026-05-04T1900,3551A,102.5969,24.6738,昆明市,晋宁区生态环境分局,,46,41,17,32,10,69,69,93,76,17,9,2,2,0.5,0.3
2026-05-04T1900,3552A,102.6673,24.9861,昆明市,云天化总部,细颗粒物(PM2.5),76,NA,18,48,9,59,59,67,67,14,12,4,4,0.8,0.6
2026-05-04T1900,1456A,91.132,29.6515,拉萨市,八廓街,,40,13,16,7,7,126,126,132,123,5,4,5,5,0.1,0.1
2026-05-04T1900,1457A,91.1221,29.6748,拉萨市,市环保局,,36,7,15,6,6,113,113,127,116,14,10,4,4,0.4,0.3
2026-05-04T1900,1458A,91.0874,29.6476,拉萨市,区监测站,,37,14,12,3,7,117,117,126,118,14,10,5,5,0.4,0.3
2026-05-04T1900,1459A,91.1774,29.6541,拉萨市,西藏大学,,38,NA,14,9,8,120,120,128,119,9,10,4,5,0.3,0.4
2026-05-04T1900,1460A,90.9798,29.6586,拉萨市,区辐射站,,38,38,16,12,8,108,108,116,106,19,15,6,5,0.4,0.3
2026-05-04T1900,1461A,91.0831,29.6292,拉萨市,拉萨火车站,,40,20,14,11,12,125,125,132,123,13,7,4,4,0.4,0.3
2026-05-04T1900,2520A,109.2203,23.7252,来宾市,来宾技工学校,NA,NA,26,29,NA,6,109,109,123,123,6,7,6,7,0.5,0.6
2026-05-04T1900,3535A,109.1781,23.7293,来宾市,兴宾区政府,,38,29,27,11,9,120,120,131,131,6,6,8,8,0.5,0.6
2026-05-04T1900,4002A,109.2312,23.7428,来宾市,中南小学,,36,32,30,12,12,113,113,129,129,8,11,6,8,0.5,0.6
2026-05-04T1900,1479A,103.8309,36.0467,兰州市,铁路设计院,,40,22,54,8,22,126,126,146,146,12,58,3,8,0.5,0.9
2026-05-04T1900,3241A,103.7439,36.0841,兰州市,百合公园,,39,23,49,9,19,123,123,166,155,9,37,3,6,0.5,0.6
2026-05-04T1900,3242A,103.9613,35.9985,兰州市,和平,,44,15,29,12,20,139,139,140,140,3,13,6,8,0.2,0.4
2026-05-04T1900,4236A,103.629272,36.093822,兰州市,庄浪东路808号,,39,27,50,3,18,122,122,100,100,8,28,8,11,0.2,0.1
2026-05-04T1900,4237A,103.7251,36.104344,兰州市,安宁西路88号,,43,27,66,9,16,136,136,174,155,7,34,7,10,0.3,0.3
2026-05-04T1900,4238A,103.846982,36.067567,兰州市,北滨河东路1号,,35,16,44,15,20,110,110,138,138,28,56,8,11,0.5,0.8
2026-05-04T1900,1067A,116.6712,39.5109,廊坊市,药材公司,,50,50,38,19,15,133,133,128,128,9,14,4,2,0.3,0.3
2026-05-04T1900,1068A,116.7215,39.5592,廊坊市,开发区,颗粒物(PM10),58,60,42,26,18,143,143,135,135,9,16,5,2,0.3,0.3
2026-05-04T1900,1070A,116.7246,39.5273,廊坊市,北华航天学院,颗粒物(PM10),71,79,48,25,16,139,139,131,131,12,15,4,2,0.3,0.2
2026-05-04T1900,2919A,116.7022,39.5454,廊坊市,河北工业大学,颗粒物(PM10),87,101,54,21,19,144,144,138,138,10,13,6,3,0.3,0.3
2026-05-04T1900,2536A,103.7629,29.5844,乐山市,牛耳桥,,39,22,35,9,18,124,124,107,107,7,14,6,6,0.5,0.5
2026-05-04T1900,2537A,103.7501,29.6002,乐山市,市第三水厂,,38,34,38,10,19,120,120,104,104,12,16,5,5,0.4,0.5
2026-05-04T1900,2538A,103.7571,29.5664,乐山市,市监测站,,37,21,36,3,15,117,117,102,102,7,14,3,4,0.4,0.5
2026-05-04T1900,3361A,103.7313,29.563,乐山市,理工大学,,40,24,35,6,16,126,126,111,111,7,12,8,8,0.3,0.4
2026-05-04T1900,2599A,100.2497,26.8802,丽江市,丽江古城,,27,17,14,3,5,86,86,90,90,8,7,5,5,0.4,0.3
2026-05-04T1900,2600A,100.2203,26.8906,丽江市,市中心,,27,14,7,10,6,84,84,88,88,10,7,6,5,0.5,0.5
2026-05-04T1900,1267A,119.9141,28.4513,丽水市,监测站大楼,NA,NA,NA,26,16,14,91,91,99,99,12,13,4,4,0.5,0.5
2026-05-04T1900,1268A,119.93,28.4589,丽水市,莲都小学,,32,28,29,15,16,102,102,99,99,10,16,/,/,/,/
2026-05-04T1900,1269A,119.8794,28.4232,丽水市,余庄前,,21,21,24,12,14,60,60,87,87,7,9,4,4,0.4,0.5
2026-05-04T1900,1173A,119.1759,34.5885,连云港市,市环境监测站,,35,24,30,3,9,112,112,116,116,13,25,10,9,0.5,0.6
2026-05-04T1900,3000A,119.3577,34.6971,连云港市,德源药业,,31,19,24,3,8,97,97,108,108,18,24,6,6,0.3,0.3
2026-05-04T1900,3007A,119.178,34.8442,连云港市,新城一中,,37,37,46,3,8,92,92,106,105,28,18,5,6,0.4,0.4
2026-05-04T1900,3008A,119.3607,34.7519,连云港市,胡沟管理处,,30,7,9,3,4,94,94,104,104,29,25,12,12,0.3,0.4
2026-05-04T1900,3009A,119.1478,34.5913,连云港市,矿山设计院,,37,31,37,12,11,117,117,119,119,13,29,6,5,0.6,0.6
2026-05-04T1900,3434A,119.2414,34.6539,连云港市,工贸学校,,34,17,11,3,7,107,107,117,117,9,11,5,4,0.4,0.5
2026-05-04T1900,3664A,119.4171,34.734,连云港市,连云街道,,33,20,9,7,4,104,104,110,110,17,14,11,11,0.8,0.8
2026-05-04T1900,2573A,102.2629,27.8981,凉山彝族自治州,西昌市政府,,28,18,10,12,8,88,88,107,107,9,5,9,4,0.9,0.4
2026-05-04T1900,2574A,102.2686,27.885,凉山彝族自治州,凉山州政府,,24,20,12,13,9,74,74,91,91,11,5,12,5,1.0,0.5
2026-05-04T1900,4229A,102.2342,27.8859,凉山彝族自治州,凯乐南路30号,,24,17,14,12,11,76,76,93,93,12,11,8,4,0.9,0.5
2026-05-04T1900,2212A,123.1978,41.2036,辽阳市,宏伟区,颗粒物(PM10),61,65,47,26,14,105,105,102,102,17,14,20,9,0.8,0.6
2026-05-04T1900,2213A,123.1684,41.2497,辽阳市,新华园,颗粒物(PM10),68,74,60,29,25,116,116,102,102,17,20,9,7,0.7,0.7
2026-05-04T1900,2214A,123.2355,41.2663,辽阳市,滨河路,颗粒物(PM10),62,66,45,17,14,104,104,100,100,20,18,19,12,0.6,0.5
2026-05-04T1900,4083A,123.153,41.2874,辽阳市,铁西路150号,颗粒物(PM10),63,68,57,24,21,114,114,96,96,12,19,8,12,0.5,0.7
2026-05-04T1900,2227A,125.1359,42.8845,辽源市,环保局,,36,18,26,3,11,115,115,113,113,5,11,7,7,0.3,0.3
2026-05-04T1900,4085A,125.0998,42.9134,辽源市,安宁大街333号,,42,42,39,3,12,108,108,111,111,12,12,7,5,0.3,0.4
2026-05-04T1900,1625A,115.9789,36.4372,聊城市,区政府,颗粒物(PM10),62,66,47,22,8,133,133,129,129,8,14,8,8,0.3,0.3
2026-05-04T1900,3200A,115.9772,36.4986,聊城市,监控中心,颗粒物(PM10),53,53,38,10,8,144,144,139,139,11,15,9,9,0.2,0.3
2026-05-04T1900,3513A,116.0443,36.436,聊城市,九州社区,,50,50,44,9,8,137,137,140,140,12,17,5,6,0.4,0.4
2026-05-04T1900,4018A,116.0564,36.4609,聊城市,星美广场,颗粒物(PM10),51,51,41,9,8,140,140,141,141,9,10,5,7,0.3,0.4
2026-05-04T1900,4113A,116.0091,36.4495,聊城市,利民路,,45,31,25,7,7,143,143,140,140,3,5,11,11,0.4,0.5
2026-05-04T1900,2632A,94.3683,29.6373,林芝市,林芝监测站,,29,6,8,3,4,92,92,93,93,4,5,3,2,0.5,0.5
2026-05-04T1900,2633A,94.3616,29.6634,林芝市,林芝人民医院,,30,8,10,3,5,94,94,94,94,4,6,3,3,0.4,0.4
2026-05-04T1900,2603A,100.0779,23.8981,临沧市,市环保局,,33,33,26,15,20,75,75,75,75,6,6,8,5,0.6,0.6
2026-05-04T1900,2604A,100.0894,23.882,临沧市,市气象局,,30,NA,25,21,24,89,89,80,80,6,7,7,6,0.6,0.7
2026-05-04T1900,1733A,111.5552,36.0791,临汾市,临钢医院,颗粒物(PM10),59,62,63,13,18,117,117,127,127,8,15,7,8,0.6,0.8
2026-05-04T1900,1734A,111.4984,36.0734,临汾市,技工学校,颗粒物(PM10),58,61,66,20,19,132,132,129,129,12,16,8,9,0.5,0.6
2026-05-04T1900,1736A,111.5017,36.0857,临汾市,市委,颗粒物(PM10),65,70,64,18,14,136,136,132,132,13,16,10,10,0.6,0.7
2026-05-04T1900,3018A,111.5048,36.1015,临汾市,唐尧大酒店,颗粒物(PM10),65,70,74,17,18,140,140,135,135,12,16,9,9,0.6,0.7
2026-05-04T1900,4244A,111.4879,36.053,临汾市,启星学校,,49,49,58,22,18,133,133,131,131,13,15,8,8,0.5,0.7
2026-05-04T1900,4271A,103.2464,35.6123,临夏回族自治州,滨河东路1号,,36,16,55,16,24,114,114,129,129,11,19,11,10,0.2,0.4
2026-05-04T1900,4310A,103.207136,35.599807,临夏回族自治州,新华街21号,,32,10,44,6,20,100,100,102,102,2,15,8,7,0.0,0.2
2026-05-04T1900,1618A,118.3429,35.0532,临沂市,沂河小区,颗粒物(PM10),51,51,52,3,6,134,134,124,124,12,16,13,10,0.3,0.3
2026-05-04T1900,1619A,118.2962,35.0568,临沂市,鲁南制药厂,,44,41,47,10,8,138,138,129,129,13,19,12,9,0.2,0.2
2026-05-04T1900,1620A,118.2793,34.9976,临沂市,新光毛纺厂,,42,24,39,6,11,134,134,128,128,10,16,12,11,0.4,0.3
2026-05-04T1900,1621A,118.3955,35.0889,临沂市,河东保险公司,,43,39,50,14,10,135,135,131,131,18,21,13,11,0.2,0.2
2026-05-04T1900,3370A,118.3563,35.0215,临沂市,十里堡居委,,43,24,38,13,9,135,135,130,130,10,15,13,10,0.4,0.4
2026-05-04T1900,3496A,118.359,35.1067,临沂市,南坊新区,,43,31,41,10,8,135,135,130,130,14,18,13,10,0.2,0.2
2026-05-04T1900,3860A,118.3915,35.0297,临沂市,皇山花园小区,,43,24,41,8,8,135,135,130,130,16,22,12,11,0.3,0.3
2026-05-04T1900,1870A,109.4854,24.3898,柳州市,柳东小学,,38,19,27,14,13,121,121,123,123,5,9,5,13,0.4,0.5
2026-05-04T1900,1871A,109.4109,24.3304,柳州市,环保监测站,,48,48,41,11,14,111,111,117,117,12,15,6,11,0.5,0.7
2026-05-04T1900,1872A,109.3886,24.3408,柳州市,河西水厂,,40,23,38,13,17,126,126,129,129,17,16,7,14,0.4,0.6
2026-05-04T1900,1873A,109.4263,24.2951,柳州市,市四中,,37,32,29,14,16,116,116,123,123,10,12,8,12,0.7,0.7
2026-05-04T1900,1874A,109.396,24.3658,柳州市,市九中,,38,32,36,8,16,120,120,118,118,9,13,7,14,0.3,0.5
2026-05-04T1900,1875A,109.4912,24.3164,柳州市,古亭山,,31,27,29,13,12,99,99,116,116,9,8,5,8,0.5,0.5
2026-05-04T1900,3402A,109.5422,24.3994,柳州市,市二中,,38,18,26,10,13,121,121,128,128,7,13,14,10,0.4,0.4
2026-05-04T1900,2307A,116.5078,31.7369,六安市,监测大楼,,34,18,15,11,6,106,106,114,114,11,9,4,4,0.2,0.3
2026-05-04T1900,2308A,116.4738,31.7642,六安市,皖西学院,,39,20,13,8,5,122,122,120,120,8,8,5,5,0.2,0.2
2026-05-04T1900,2309A,116.4997,31.7904,六安市,朝阳厂,,36,17,6,15,6,114,114,111,111,12,9,6,6,0.2,0.2
2026-05-04T1900,2310A,116.5566,31.7885,六安市,开发区,,40,NA,10,16,6,126,126,128,128,11,19,5,5,0.2,0.3
2026-05-04T1900,2577A,104.8293,26.592,六盘水市,黄土坡,,27,19,11,16,6,86,86,91,91,11,8,6,6,0.4,0.3
2026-05-04T1900,2579A,104.8481,26.5898,六盘水市,民中,,28,NA,8,19,6,77,77,86,85,14,8,7,7,0.5,0.3
2026-05-04T1900,2580A,104.9541,26.5506,六盘水市,双水,,28,12,6,3,6,89,89,93,93,7,6,4,4,0.3,0.3
2026-05-04T1900,4151A,104.8899,26.5685,六盘水市,钟山大道中段564号,,26,17,10,3,5,82,82,89,89,7,8,2,3,0.4,0.4
2026-05-04T1900,2336A,117.022,25.1031,龙岩市,龙岩市监测站,,26,13,16,11,13,82,82,86,86,9,6,9,10,0.4,0.5
2026-05-04T1900,2337A,117.0257,25.0662,龙岩市,闽西职业技术学院,,24,NA,16,10,11,76,76,81,81,6,4,9,8,0.6,0.6
2026-05-04T1900,2338A,117.0195,25.0306,龙岩市,龙岩学院,,21,16,18,7,10,67,67,79,76,7,5,4,5,/,/
2026-05-04T1900,2885A,104.9344,33.3827,陇南市,滨江中学,NA,NA,61,48,NA,13,99,99,102,102,5,8,5,5,0.5,0.6
2026-05-04T1900,3247A,104.9551,33.3709,陇南市,市总工会,,40,40,37,16,14,98,98,101,101,5,5,4,4,0.5,0.4
2026-05-04T1900,2488A,111.9984,27.7346,娄底市,市监测站,,35,22,45,10,23,112,112,119,119,4,24,6,13,0.5,1
2026-05-04T1900,2491A,111.9888,27.7035,娄底市,市政府,,36,28,36,11,21,115,115,122,122,10,12,4,4,0.4,0.6
2026-05-04T1900,4127A,111.9812,27.7591,娄底市,涟钢职大,NA,NA,41,36,26,14,121,121,130,130,NA,13,4,7,0.0,1.5
2026-05-04T1900,4128A,112.0303,27.7457,娄底市,娄底体校,,37,25,34,14,18,116,116,128,128,12,12,6,6,0.2,0.4
2026-05-04T1900,1894A,105.4427,28.9063,泸州市,小市上码头,,32,17,17,8,9,102,102,98,98,8,11,8,12,0.4,0.4
2026-05-04T1900,1895A,105.4241,28.8573,泸州市,兰田宪桥,,35,23,25,11,10,109,109,113,113,15,10,4,6,0.4,0.5
2026-05-04T1900,1896A,105.4378,28.8833,泸州市,市环监站,,36,15,17,6,6,113,113,113,113,16,14,6,8,0.5,0.6
2026-05-04T1900,4272A,105.3689,28.7783,泸州市,纳溪中医医院,,43,43,30,6,8,108,108,106,106,9,10,5,5,0.4,0.5
2026-05-04T1900,2183A,111.1447,37.5212,吕梁市,环保局,,35,34,59,9,10,110,110,112,112,8,21,3,7,0.2,0.5
2026-05-04T1900,2185A,111.1285,37.5338,吕梁市,自来水公司,NA,NA,29,72,NA,22,105,105,109,109,12,28,2,9,0.3,0.4
2026-05-04T1900,2867A,111.1225,37.5093,吕梁市,马茂庄小学,,37,37,63,15,9,112,112,113,113,7,26,3,7,0.3,0.3
2026-05-04T1900,1812A,112.3934,34.6517,洛阳市,市委党校,,49,49,40,34,23,147,147,146,146,17,20,10,12,0.6,0.6
2026-05-04T1900,1815A,112.494,34.6883,洛阳市,河南林校,颗粒物(PM10),52,52,49,20,17,143,143,147,147,18,20,13,15,0.4,0.4
2026-05-04T1900,1816A,112.3843,34.623,洛阳市,开发区管委会,,49,49,40,27,19,149,149,153,153,14,18,13,12,0.5,0.5
2026-05-04T1900,1817A,112.4263,34.6249,洛阳市,市委新办公区,颗粒物(PM10),53,53,38,33,17,142,142,146,146,19,18,12,11,0.5,0.4
2026-05-04T1900,3340A,112.6005,34.6323,洛阳市,伊滨,颗粒物(PM10),57,59,47,36,19,128,128,138,138,20,19,11,10,0.3,0.3
2026-05-04T1900,3341A,112.495,34.6338,洛阳市,中移产业园,,44,37,40,29,20,138,138,148,148,21,21,11,12,0.7,0.5
2026-05-04T1900,3593A,112.5736,34.8993,洛阳市,吉利监测站,颗粒物(PM10),55,56,49,20,12,137,137,140,140,15,15,11,11,0.4,0.4
2026-05-04T1900,3635A,112.3678,34.6623,洛阳市,河科大西苑校区,颗粒物(PM10),53,53,44,30,17,154,154,155,155,17,21,12,13,0.8,0.7
2026-05-04T1900,3636A,112.4387,34.678,洛阳市,英才小学,细颗粒物(PM2.5),54,47,45,37,27,138,138,144,144,11,16,10,12,0.4,0.4
2026-05-04T1900,4214A,112.460027,34.694929,洛阳市,春都路1号院,颗粒物(PM10),58,61,55,29,19,139,139,146,146,13,16,11,14,0.5,0.5
2026-05-04T1900,2399A,114.051,33.5721,漯河市,三五一五工厂,,38,32,43,19,19,121,121,132,132,13,18,6,7,0.3,0.4
2026-05-04T1900,2400A,114.0055,33.5698,漯河市,漯河大学,,39,36,36,27,18,120,120,132,132,18,19,7,7,0.3,0.4
2026-05-04T1900,2401A,114.0134,33.5826,漯河市,市水利局,,38,34,40,24,17,120,120,131,131,12,15,6,7,0.4,0.4
2026-05-04T1900,2402A,114.0261,33.5697,漯河市,市广电局,,38,24,38,24,19,119,119,130,130,13,18,5,7,0.2,0.3
2026-05-04T1900,3478A,113.9691,33.568,漯河市,市图书馆,,48,48,41,23,17,110,110,122,122,16,14,9,8,0.4,0.4
2026-05-04T1900,4250A,114.089259,33.588274,漯河市,韶山路11号,,44,44,42,20,18,114,114,129,129,10,16,6,8,0.1,0.1
2026-05-04T1900,1798A,118.5084,31.6838,马鞍山市,湖东路四小,,39,24,35,9,10,123,123,129,128,17,34,6,9,0.4,0.5
2026-05-04T1900,1799A,118.5019,31.6449,马鞍山市,开发区,,36,30,44,8,10,114,114,128,128,22,38,6,8,0.4,0.6
2026-05-04T1900,3633A,118.4914,31.681,马鞍山市,雨山,,38,23,34,11,14,120,120,130,130,21,37,8,9,0.3,0.6
2026-05-04T1900,4191A,118.527362,31.722269,马鞍山市,慈湖高新区,,32,30,36,11,12,102,102,116,116,32,39,6,9,0.3,0.5
2026-05-04T1900,1686A,111.0285,21.469,茂名市,电白南海,,29,29,23,17,13,61,61,63,63,11,9,6,9,1.0,1
2026-05-04T1900,1687A,110.9294,21.6533,茂名市,茂石化七小,,31,31,24,16,16,56,56,52,52,16,12,9,15,0.7,0.8
2026-05-04T1900,1688A,110.9108,21.6688,茂名市,健康路,,27,27,18,17,15,54,54,49,49,13,12,30,15,0.8,0.8
2026-05-04T1900,1689A,110.8592,21.6826,茂名市,高岭,,36,36,31,21,21,45,45,46,46,7,10,5,15,/,/
2026-05-04T1900,3450A,111.0101,21.5165,茂名市,电白水东,,30,NA,14,21,15,59,59,62,62,14,11,5,7,/,/
2026-05-04T1900,2540A,103.8414,30.0871,眉山市,气象局,,42,27,46,3,11,132,132,123,123,7,15,7,8,0.5,0.6
2026-05-04T1900,3148A,103.829,30.0563,眉山市,区人社局,,40,30,50,3,16,125,125,117,117,16,21,4,5,0.6,0.7
2026-05-04T1900,4148A,103.8836,30.0695,眉山市,眉职院,,42,18,40,3,15,134,134,123,123,8,15,8,8,0.6,0.7
2026-05-04T1900,1690A,116.1248,24.3307,梅州市,梅江月梅,,16,11,20,6,11,50,50,63,59,6,11,/,/,/,/
2026-05-04T1900,1691A,116.0798,24.2719,梅州市,梅县新城,,18,NA,22,12,11,47,47,67,61,12,13,8,8,0.6,0.5
2026-05-04T1900,3315A,116.1234,24.2994,梅州市,梅龙,,16,14,19,9,11,49,49,65,59,8,9,6,6,0.4,0.4
2026-05-04T1900,1878A,104.7775,31.4741,绵阳市,富乐山,,41,41,46,22,25,128,128,128,128,8,14,8,8,0.5,0.5
2026-05-04T1900,1880A,104.6698,31.4668,绵阳市,高新区自来水公司,,44,37,57,16,26,138,138,131,131,8,25,7,7,0.5,0.6
2026-05-04T1900,3491A,104.6899,31.5324,绵阳市,西科大附属小学,,45,40,56,17,26,142,142,134,134,7,23,6,6,0.2,0.3
2026-05-04T1900,3492A,104.5647,31.5343,绵阳市,安州区旅游局,臭氧1小时(O3_1h),54,41,50,17,24,163,163,139,139,9,11,4,5,0.4,0.5
2026-05-04T1900,4146A,104.7092,31.4972,绵阳市,科技城新区公安局,,48,48,54,16,25,128,128,124,124,10,22,6,6,0.5,0.5
2026-05-04T1900,4226A,104.765114,31.453094,绵阳市,绵阳市气象局,,39,36,49,16,24,124,124,119,119,7,19,9,8,0.5,0.5
2026-05-04T1900,1784A,129.61,44.561,牡丹江市,环保大楼,,32,32,28,18,16,99,99,115,113,18,12,2,3,0.3,0.2
2026-05-04T1900,1787A,129.6364,44.6075,牡丹江市,机车工厂,,40,40,41,27,25,85,85,108,106,13,16,9,9,0.2,0.3
2026-05-04T1900,1788A,129.6386,44.5462,牡丹江市,第一中学,,32,28,24,22,13,66,66,114,108,32,10,4,3,0.3,0.2
2026-05-04T1900,4287A,129.5992,44.5964,牡丹江市,东晓云街98号,,49,49,38,28,20,68,68,108,103,30,14,10,6,0.5,0.2
2026-05-04T1900,2531A,105.0703,29.61,内江市,市监测站,,44,42,32,13,16,140,140,133,133,10,11,8,8,0.3,0.3
2026-05-04T1900,2533A,105.0657,29.5807,内江市,内江二中,,44,33,31,12,17,140,140,132,132,9,13,7,7,0.2,0.3
2026-05-04T1900,2534A,105.0407,29.5828,内江市,内江日报社,,45,32,28,14,16,144,144,136,136,7,10,13,12,0.3,0.3
2026-05-04T1900,4147A,105.0433,29.6105,内江市,玉峰路西段888号,NA,NA,NA,27,NA,15,136,136,133,133,14,13,NA,4,0.3,0.4
2026-05-04T1900,2628A,92.0653,31.4846,那曲市,那曲监测站,,35,28,30,17,19,112,112,123,121,13,13,6,5,0.5,0.6
2026-05-04T1900,4243A,92.0515,31.4787,那曲市,那曲市委宣传部,,35,21,18,3,12,110,110,118,116,13,10,7,7,0.6,0.6
2026-05-04T1900,1291A,115.8887,28.7006,南昌市,省林业公司,,36,27,21,19,13,113,113,112,112,7,14,5,5,0.4,0.3
2026-05-04T1900,1292A,115.813,28.7443,南昌市,林科所,,34,34,16,16,10,100,100,118,117,15,8,10,8,0.4,0.4
2026-05-04T1900,1294A,115.8518,28.687,南昌市,建工学校,颗粒物(PM10),99,118,31,22,12,57,57,91,88,57,16,8,7,0.9,0.6
2026-05-04T1900,1295A,115.8926,28.6425,南昌市,象湖,,35,19,16,17,12,110,110,114,114,8,11,8,9,0.8,0.8
2026-05-04T1900,3046A,115.9084,28.6062,南昌市,机电学校,,38,29,26,18,12,119,119,123,123,6,10,5,6,0.4,0.4
2026-05-04T1900,3690A,115.9718,28.7032,南昌市,外国语学校,,35,23,21,17,11,111,111,109,109,9,16,9,9,0.5,0.4
2026-05-04T1900,4106A,115.7923,28.6873,南昌市,工业二路,,31,31,28,16,13,99,99,116,116,10,11,5,5,0.5,0.4
2026-05-04T1900,4192A,115.931587,28.686774,南昌市,南京东路235号,,38,27,22,18,11,120,120,122,122,10,13,7,7,0.5,0.4
2026-05-04T1900,1906A,106.0791,30.8022,南充市,南充市委,,42,36,50,18,31,133,133,126,126,8,12,6,7,0.3,0.3
2026-05-04T1900,1907A,106.1038,30.8215,南充市,南充炼油厂,,44,44,60,16,34,130,130,125,125,11,13,6,7,0.3,0.3
2026-05-04T1900,4227A,106.108336,30.788436,南充市,梨树横街98号,,44,43,51,18,32,140,140,131,131,8,13,8,9,0.2,0.3
2026-05-04T1900,4304A,106.1172,30.843,南充市,清泉寺北路188号,,44,35,56,17,34,139,139,130,130,11,13,7,8,0.4,0.5
2026-05-04T1900,4305A,106.067,30.7616,南充市,同庆路1号,,42,38,50,17,30,134,134,128,128,9,11,7,8,0.3,0.4
2026-05-04T1900,1151A,118.8033,32.1085,南京市,迈皋桥,,41,22,25,3,5,129,129,132,132,2,23,3,5,0.3,0.4
2026-05-04T1900,1152A,118.7487,32.057,南京市,草场门,,40,27,27,3,4,127,127,121,121,19,32,5,9,0.3,0.5
2026-05-04T1900,1154A,118.770105,32.004342,南京市,中华门,,36,24,32,3,6,114,114,114,114,8,28,8,7,0.5,0.5
2026-05-04T1900,1155A,118.8059,32.0329,南京市,瑞金路,,35,27,29,3,8,111,111,119,119,8,17,8,9,0.6,0.6
2026-05-04T1900,1156A,118.7946,32.0774,南京市,玄武湖,,38,6,28,3,4,119,119,112,112,8,24,5,8,0.4,0.6
2026-05-04T1900,1157A,118.6415,32.0964,南京市,浦口,,37,22,24,3,0,117,117,114,114,12,15,5,5,0.4,0.4
2026-05-04T1900,1158A,118.730129,32.000956,南京市,奥体中心,,30,28,30,3,3,96,96,97,97,19,43,12,13,0.5,0.5
2026-05-04T1900,1159A,118.9072,32.1047,南京市,仙林大学城,,37,24,32,3,5,118,118,122,122,12,30,10,11,0.6,0.7
2026-05-04T1900,3422A,118.8443,31.919,南京市,江宁彩虹桥,,40,37,34,3,4,126,126,132,132,14,25,4,5,0.3,0.6
2026-05-04T1900,3427A,118.8497,32.3599,南京市,六合雄州,,36,17,21,3,5,113,113,117,117,21,20,6,7,0.5,0.5
2026-05-04T1900,4086A,118.7641,32.0841,南京市,新模范马路66号,,42,22,29,3,6,134,134,127,127,10,29,3,5,0.5,0.7
2026-05-04T1900,4249A,118.8707617,31.34017673,南京市,汶溪路181号,,38,32,21,3,1,120,120,124,124,15,14,6,6,0.3,0.3
2026-05-04T1900,4312A,119.019,31.6512,南京市,中山西路1号,,34,14,20,3,4,106,106,111,111,11,17,4,4,0.3,0.4
2026-05-04T1900,1401A,108.3098,22.788,南宁市,二十一中,,38,38,27,16,14,99,99,107,107,10,10,3,4,0.4,0.4
2026-05-04T1900,1402A,108.3135,22.8529,南宁市,北湖,,44,44,27,20,16,107,107,113,113,8,10,4,5,0.4,0.5
2026-05-04T1900,1403A,108.3205,22.8222,南宁市,市监测站,,31,27,28,18,12,98,98,108,108,14,11,3,3,0.5,0.5
2026-05-04T1900,1404A,108.3828,22.8038,南宁市,大自然花园,,33,33,26,16,11,92,92,104,104,12,12,6,7,0.3,0.3
2026-05-04T1900,1406A,108.2397,22.8462,南宁市,区农职院,颗粒物(PM10),52,52,25,22,12,116,116,107,107,7,4,3,3,0.7,0.6
2026-05-04T1900,1407A,108.3285,22.7356,南宁市,英华嘉园,,37,37,29,21,15,95,95,117,117,16,14,9,6,0.6,0.6
2026-05-04T1900,3401A,108.4829,22.762,南宁市,红星社区,,32,32,23,17,10,85,85,102,102,7,8,5,7,0.6,0.6
2026-05-04T1900,4132A,108.2927,23.1477,南宁市,起凤路9号,,30,28,21,17,14,96,96,100,100,7,4,6,11,0.5,0.5
2026-05-04T1900,4221A,108.2177,22.7774,南宁市,乐贤路16号,,38,34,28,19,15,119,119,110,110,16,11,7,10,0.6,0.5
2026-05-04T1900,2332A,118.1682,26.6371,南平市,南平市监测站,,29,14,16,9,9,90,90,NA,NA,5,9,4,4,0.3,0.5
2026-05-04T1900,2334A,118.1757,26.6276,南平市,南平七中,,27,17,21,8,13,85,85,73,73,4,9,2,2,0.3,0.5
2026-05-04T1900,1168A,120.9056,31.9669,南通市,狼山街道,,46,46,33,19,15,120,120,130,130,15,27,9,6,1.1,0.6
2026-05-04T1900,1170A,120.8635,32.0231,南通市,城中,颗粒物(PM10),52,52,42,23,14,112,112,134,134,15,21,8,7,1.0,0.6
2026-05-04T1900,1171A,120.9376,31.9301,南通市,星湖花园,,42,42,39,18,18,119,119,132,132,12,28,6,6,0.7,0.6
2026-05-04T1900,1172A,120.8053,32.046,南通市,紫琅学院,,35,33,34,14,14,110,110,140,140,19,26,6,8,0.8,0.7
2026-05-04T1900,3291A,121.0631,32.0644,南通市,通州监测站,,41,41,30,16,10,115,115,127,127,12,11,3,4,1.3,0.5
2026-05-04T1900,3432A,120.9348,31.9874,南通市,环境教育馆,,44,44,38,19,14,115,115,133,133,17,29,9,6,1.3,0.6
2026-05-04T1900,4091A,120.8692,31.9885,南通市,洪江路,,42,42,39,18,18,113,113,124,124,16,31,7,8,1.4,0.9
2026-05-04T1900,2404A,112.5338,33.0086,南阳市,瓦房庄,,37,37,39,16,9,113,113,109,109,10,17,5,9,0.4,0.5
2026-05-04T1900,2405A,112.5002,32.9734,南阳市,汉画馆,,37,37,39,10,9,108,108,108,108,16,18,6,9,0.3,0.4
2026-05-04T1900,2406A,112.5778,33.0144,南阳市,气象站,,38,34,36,11,13,119,119,114,114,10,13,6,10,0.3,0.4
2026-05-04T1900,2407A,112.548,32.9687,南阳市,理工学院,,40,40,39,14,11,106,106,111,111,23,15,6,9,0.2,0.4
2026-05-04T1900,4008A,112.5233,32.9921,南阳市,卧龙区政府,,37,30,37,15,10,116,116,110,110,10,15,7,10,0.3,0.4
2026-05-04T1900,1234A,121.8352,29.9111,宁波市,区环保大楼,,36,36,32,12,14,87,87,101,101,31,24,7,8,0.3,0.4
2026-05-04T1900,1235A,121.5595,29.8208,宁波市,万里学院,,31,27,28,3,14,99,99,111,111,13,14,4,4,0.3,0.4
2026-05-04T1900,1236A,121.713,29.9564,宁波市,龙赛医院,NA,NA,55,36,22,17,70,70,103,102,NA,22,11,8,0.5,0.4
2026-05-04T1900,1240A,121.5855,29.8635,宁波市,太古小学,,30,24,28,8,13,95,95,109,109,14,16,4,4,0.5,0.5
2026-05-04T1900,1241A,121.5239,29.8673,宁波市,市环境监测中心,,31,26,34,8,13,97,97,106,106,17,20,9,9,0.5,0.5
2026-05-04T1900,2871A,121.6156,29.9015,宁波市,万里国际学校,,34,30,38,9,15,108,108,118,118,11,18,6,6,0.5,0.5
2026-05-04T1900,3710A,121.5593,29.8976,宁波市,白沙活动中心,,34,25,26,7,13,107,107,115,115,9,15,6,6,0.2,0.3
2026-05-04T1900,4095A,121.8962,29.7529,宁波市,中科路88号,,39,25,31,13,20,122,122,121,121,15,13,8,8,0.6,0.6
2026-05-04T1900,2341A,119.5387,26.6611,宁德市,宁德市监测站,,35,34,19,24,14,72,72,90,89,22,15,7,6,0.7,0.5
2026-05-04T1900,3209A,119.5231,26.6562,宁德市,宁德一中,,38,32,19,26,15,54,54,91,88,12,8,8,7,0.6,0.4
2026-05-04T1900,2618A,98.859,25.8541,怒江傈僳族自治州,州监测站,,20,17,17,14,10,64,64,58,58,9,6,6,6,0.3,0.3
2026-05-04T1900,2619A,98.8607,25.8168,怒江傈僳族自治州,泸水一中,,22,NA,14,15,14,63,63,54,54,12,9,4,4,0.5,0.4
2026-05-04T1900,1888A,101.6891,26.571,攀枝花市,弄弄坪,,43,43,18,15,8,91,91,89,89,14,12,17,11,0.7,0.9
2026-05-04T1900,1889A,101.577,26.5914,攀枝花市,河门口,,30,24,14,13,7,95,95,102,102,13,9,16,8,1.0,0.7
2026-05-04T1900,1891A,101.7365,26.4986,攀枝花市,仁和,,23,NA,3,9,7,73,73,84,84,6,7,5,5,0.4,0.4
2026-05-04T1900,2835A,101.7222,26.567,攀枝花市,四十中小,,27,20,18,7,10,84,84,94,94,14,14,13,13,0.9,1.4
2026-05-04T1900,1604A,122.0303,41.1489,盘锦市,开发区,颗粒物(PM10),52,52,28,27,9,117,117,103,103,12,14,8,10,0.6,0.5
2026-05-04T1900,1605A,122.0486,41.0883,盘锦市,兴隆台,细颗粒物(PM2.5),64,46,31,42,15,124,124,108,108,15,21,8,10,0.6,0.5
2026-05-04T1900,1606A,121.8297,41.1026,盘锦市,新生街道,,39,39,24,21,8,124,124,104,104,14,23,6,15,0.5,0.5
2026-05-04T1900,1832A,113.3257,33.7423,平顶山市,新华旅馆,,43,43,56,21,20,112,112,119,119,9,20,4,6,0.4,0.5
2026-05-04T1900,1833A,113.2917,33.737,平顶山市,规划设计院,,37,37,44,15,16,114,114,119,119,10,18,7,8,0.4,0.4
2026-05-04T1900,1834A,113.182,33.7738,平顶山市,平顶山工学院,,35,31,37,15,16,111,111,118,118,8,13,6,9,0.4,0.4
2026-05-04T1900,3594A,112.8736,33.9068,平顶山市,石龙区,颗粒物(PM10),53,53,49,24,21,118,118,126,126,8,19,7,10,0.3,0.3
2026-05-04T1900,4116A,113.284,33.7139,平顶山市,姚电大道23号,颗粒物(PM10),52,52,62,26,17,105,105,115,115,14,18,6,8,0.3,0.4
2026-05-04T1900,2656A,106.6633,35.5338,平凉市,聚贤嘉苑,颗粒物(PM10),52,52,53,14,17,118,118,121,121,8,19,5,7,0.4,0.5
2026-05-04T1900,2657A,106.7021,35.5307,平凉市,博物馆,,41,41,48,14,17,123,123,126,126,6,18,7,9,0.4,0.7
2026-05-04T1900,2348A,113.8384,27.6436,萍乡市,中医院,颗粒物(PM10),51,51,35,23,22,128,128,137,137,7,11,6,11,0.5,0.8
2026-05-04T1900,2350A,113.8677,27.6438,萍乡市,市环保局,,45,NA,37,31,24,126,126,141,141,13,16,8,9,0.9,1.1
2026-05-04T1900,2351A,113.8663,27.6202,萍乡市,安源区政府,,43,33,37,30,22,128,128,141,141,14,15,7,8,0.4,0.6
2026-05-04T1900,4107A,113.8686,27.6668,萍乡市,联洪村委会,颗粒物(PM10),53,53,43,23,22,121,121,133,133,8,15,6,10,0.6,0.6
2026-05-04T1900,2319A,119.0142,25.4324,莆田市,荔城区仓后路,,33,33,21,14,10,83,83,94,92,15,9,/,/,/,/
2026-05-04T1900,2320A,119.0016,25.4553,莆田市,莆田市监测站,,38,38,15,8,7,85,85,94,94,6,6,2,3,0.4,0.5
2026-05-04T1900,2321A,119.112,25.4561,莆田市,涵江区六中,,33,20,21,3,8,105,105,102,102,7,5,/,/,0.4,0.6
2026-05-04T1900,2322A,119.1014,25.3215,莆田市,秀屿区政府,,30,24,22,6,11,96,96,102,102,13,7,4,4,0.4,0.6
2026-05-04T1900,2392A,115.0312,35.7636,濮阳市,环保局,颗粒物(PM10),63,67,39,24,12,137,137,123,123,17,18,6,9,0.6,0.5
2026-05-04T1900,3021A,115,35.7667,濮阳市,濮水河管理处,颗粒物(PM10),55,57,33,27,15,136,136,122,122,12,14,6,8,0.6,0.5
2026-05-04T1900,4118A,115.0552,35.7816,濮阳市,中原东路68号,颗粒物(PM10),62,66,39,30,13,133,133,127,127,12,14,6,8,0.7,0.6
2026-05-04T1900,4216A,115.0923632,35.76857718,濮阳市,任丘路479号,颗粒物(PM10),54,55,36,29,16,125,125,123,123,16,16,6,12,0.7,0.6
2026-05-04T1900,2601A,100.9801,22.7634,普洱市,市环保局,,50,50,39,23,18,83,83,81,81,8,7,5,5,0.8,0.8
2026-05-04T1900,2602A,100.9763,22.8237,普洱市,普洱第二中学,,42,42,42,19,18,89,89,83,83,6,10,8,7,0.7,0.8
2026-05-04T1900,3345A,131.0413,45.7795,七台河市,中波台,,32,32,36,16,13,83,83,98,96,14,12,3,4,0.5,0.4
2026-05-04T1900,3637A,131.0136,45.7688,七台河市,人民广场,,25,23,39,7,11,79,79,96,94,16,16,8,8,0.3,0.4
2026-05-04T1900,3684A,130.8639,45.8144,七台河市,新建矿广场,颗粒物(PM10),79,90,34,26,9,73,73,89,86,14,13,10,11,0.4,0.4
2026-05-04T1900,1779A,123.9307,47.3641,齐齐哈尔市,安居小区,颗粒物(PM10),52,52,37,7,6,100,100,102,102,8,8,15,13,0.4,0.3
2026-05-04T1900,1780A,123.9497,47.3389,齐齐哈尔市,中心广场,颗粒物(PM10),59,62,32,11,7,96,96,102,102,12,7,7,7,0.3,0.2
2026-05-04T1900,1781A,123.9483,47.3229,齐齐哈尔市,农牧车辆厂,颗粒物(PM10),53,53,35,11,6,106,106,108,108,7,9,5,6,0.3,0.3
2026-05-04T1900,1783A,123.9442,47.2994,齐齐哈尔市,市环境监测站,,39,39,34,7,6,100,100,103,103,7,8,3,4,0.3,0.3
2026-05-04T1900,3662A,123.6341,47.2079,齐齐哈尔市,富区青少年活动中心,颗粒物(PM10),75,84,44,12,10,96,96,101,101,6,9,4,6,0.4,0.7
2026-05-04T1900,2591A,107.9765,26.5724,黔东南苗族侗族自治州,市环境监测站,,26,25,23,9,15,83,83,94,94,9,9,2,3,0.3,0.4
2026-05-04T1900,2881A,107.8909,26.531,黔东南苗族侗族自治州,凯里学院,,30,19,19,16,15,95,95,102,102,4,7,2,2,0.3,0.4
2026-05-04T1900,2593A,107.5223,26.2371,黔南布依族苗族自治州,小围寨,,29,NA,18,16,10,90,90,92,92,4,8,4,4,0.6,0.6
2026-05-04T1900,3538A,107.5175,26.2977,黔南布依族苗族自治州,沙坝,,29,17,16,15,10,91,91,90,90,3,5,3,3,0.5,0.5
2026-05-04T1900,2589A,104.9022,25.0943,黔西南布依族苗族自治州,场坝街,,29,15,14,15,10,90,90,104,104,5,5,5,8,0.3,0.2
2026-05-04T1900,2590A,104.8812,25.0994,黔西南布依族苗族自治州,坪东大道,NA,NA,NA,18,NA,4,NA,NA,NA,NA,NA,8,NA,4,NA,0.2
2026-05-04T1900,2502A,108.6238,21.9667,钦州市,市环保站,,44,44,22,16,11,77,77,75,75,16,7,1,2,0.6,0.8
2026-05-04T1900,2503A,108.655,21.9481,钦州市,沙埠小学,,33,30,22,23,14,81,81,80,80,10,10,4,2,0.5,0.7
2026-05-04T1900,2504A,108.5989,21.7435,钦州市,港区一小,,40,40,23,14,16,70,70,76,76,16,13,3,3,0.5,0.5
2026-05-04T1900,3404A,108.5959,21.9634,钦州市,北职校,,28,28,20,16,12,83,83,76,76,8,6,2,2,0.5,0.5
2026-05-04T1900,1046A,119.5247,39.9346,秦皇岛市,建设大厦,颗粒物(PM10),109,142,41,15,14,136,136,126,126,6,17,9,8,0.3,0.4
2026-05-04T1900,3132A,119.5979,39.938,秦皇岛市,文明里,颗粒物(PM10),60,63,39,24,9,128,128,122,122,18,18,11,10,0.4,0.4
2026-05-04T1900,4066A,119.7458,39.9952,秦皇岛市,南园路157号,颗粒物(PM10),57,59,32,26,9,121,121,114,114,16,22,8,8,0.3,0.3
2026-05-04T1900,4067A,119.5131,39.8858,秦皇岛市,翠岛大街1号,NA,NA,49,37,16,9,123,123,123,123,14,20,NA,11,0.3,0.4
2026-05-04T1900,4198A,119.509013,39.825305,秦皇岛市,北戴河轮滑馆,颗粒物(PM10),54,55,40,18,10,128,128,126,126,14,18,10,12,0.4,0.5
2026-05-04T1900,1310A,120.404,36.0625,青岛市,市南区东部子站,,33,19,23,3,9,105,105,100,100,13,22,6,6,0.4,0.4
2026-05-04T1900,1311A,120.362344,36.10282,青岛市,四方区子站,,37,19,21,3,8,118,118,122,122,16,18,6,7,0.7,0.7
2026-05-04T1900,1312A,120.294373,36.054183,青岛市,市南区西部子站,,32,19,22,3,6,100,100,103,103,20,19,4,4,0.1,0.2
2026-05-04T1900,1313A,120.4581,36.0858,青岛市,崂山区子站,,39,39,20,8,9,109,109,108,108,6,7,8,9,0.3,0.3
2026-05-04T1900,1315A,120.3945,36.3083,青岛市,城阳区子站,,36,36,28,3,9,99,99,118,117,16,17,7,7,0.6,0.6
2026-05-04T1900,3642A,120.3454,36.0735,青岛市,市北区南部,,35,22,21,3,7,112,112,114,114,10,14,2,3,0.6,0.6
2026-05-04T1900,3643A,120.3897,36.18,青岛市,李沧区北部,,32,27,24,3,9,101,101,109,109,15,16,9,9,0.5,0.5
2026-05-04T1900,4110A,120.5222,36.4089,青岛市,盟旺路653号,,34,20,19,3,8,108,108,117,117,7,10,4,4,0.5,0.6
2026-05-04T1900,4290A,120.196923,35.954556,青岛市,珠江路669号,,38,22,19,3,5,120,120,113,113,11,15,4,5,0.5,0.5
2026-05-04T1900,4291A,120.0424,35.8656,青岛市,黄岛区人民政府广场,,34,17,23,3,6,107,107,106,106,13,18,8,9,0.5,0.5
2026-05-04T1900,1703A,113.0218,23.7086,清远市,凤城街办,,43,43,24,24,14,69,69,83,83,34,12,/,/,/,/
2026-05-04T1900,3025A,113.0479,23.6343,清远市,技师学院,,40,40,24,24,14,67,67,84,84,26,14,8,6,0.7,0.6
2026-05-04T1900,3318A,112.9898,23.7403,清远市,清新太和,,33,33,21,19,12,52,52,87,80,17,10,5,8,0.7,0.5
2026-05-04T1900,3455A,113.076,23.72,清远市,清城东城,,48,48,24,25,13,56,56,82,79,20,11,/,/,/,/
2026-05-04T1900,2661A,107.6325,35.7357,庆阳市,庆阳五中,,37,37,32,10,10,115,115,111,111,11,11,3,3,0.3,0.2
2026-05-04T1900,2662A,107.6361,35.7067,庆阳市,市环保局,,39,30,30,3,8,124,124,118,118,9,12,5,6,0.2,0.2
2026-05-04T1900,1916A,103.7897,25.5036,曲靖市,环境监测站,,32,32,15,8,10,91,91,86,86,8,11,3,5,0.5,0.5
2026-05-04T1900,1917A,103.8013,25.5357,曲靖市,烟厂办公区,,26,22,16,12,8,82,82,77,77,9,10,6,6,0.4,0.3
2026-05-04T1900,3376A,103.7926,25.4651,曲靖市,南苑二区,NA,NA,9,14,6,8,90,90,85,85,NA,11,4,4,NA,0.4
2026-05-04T1900,3377A,103.7442,25.5259,曲靖市,曲靖师范学院,,28,21,17,13,11,87,87,87,87,11,20,5,7,0.4,0.5
2026-05-04T1900,1264A,118.8694,28.94,衢州市,环保大楼,,39,32,31,19,18,123,123,121,121,11,12,/,/,/,/
2026-05-04T1900,1266A,118.8622,28.9809,衢州市,衢州学院,,35,26,24,16,16,110,110,103,103,10,19,6,6,0.3,0.3
2026-05-04T1900,4097A,118.9646,28.9832,衢州市,衢州三中,,36,24,27,14,17,115,115,120,120,15,17,8,8,0.4,0.4
2026-05-04T1900,1611A,118.5818,24.9116,泉州市,涂山街,,23,21,21,11,12,72,72,86,84,10,9,3,3,0.3,0.5
2026-05-04T1900,1612A,118.597,24.8976,泉州市,津头埔,,26,22,19,13,14,83,83,98,96,13,11,3,3,0.4,0.4
2026-05-04T1900,1613A,118.6669,24.9422,泉州市,万安,,24,19,19,9,12,74,74,85,85,15,10,3,3,0.4,0.5
2026-05-04T1900,4105A,118.6355,24.9148,泉州市,霞新路6号,,21,13,17,8,12,66,66,82,80,21,12,/,/,0.4,0.5
2026-05-04T1900,2626A,88.8873,29.2723,日喀则市,日喀则监测站,,44,11,7,3,4,140,140,114,114,5,6,7,8,0.5,0.5
2026-05-04T1900,3726A,88.8775,29.2425,日喀则市,林业技术推广中心,NA,NA,NA,8,NA,2,143,143,116,116,5,5,NA,8,0.5,0.6
2026-05-04T1900,1659A,119.4711,35.421,日照市,监测站,,29,29,19,6,4,86,86,104,101,29,22,8,7,0.4,0.4
2026-05-04T1900,1660A,119.523,35.4216,日照市,市政府广场,,33,17,15,3,1,104,104,107,107,16,18,4,4,0.4,0.5
2026-05-04T1900,1661A,119.5511,35.4113,日照市,港务局,,34,27,24,3,1,106,106,104,104,16,23,4,4,0.4,0.5
2026-05-04T1900,3507A,119.5326,35.4627,日照市,职业技术学院,,35,17,16,3,1,110,110,111,111,14,16,6,6,0.4,0.4
2026-05-04T1900,3604A,119.3267,35.1043,日照市,岚山环保分局,,33,29,39,3,8,103,103,106,106,20,26,8,17,0.4,1
2026-05-04T1900,1835A,111.1922,34.7752,三门峡市,市政府,,45,45,36,17,10,125,125,118,118,12,20,10,11,0.4,0.4
2026-05-04T1900,1836A,111.1588,34.794,三门峡市,开发区,颗粒物(PM10),55,56,41,23,12,130,130,122,122,15,14,9,11,0.4,0.4
2026-05-04T1900,3039A,111.1911,34.7829,三门峡市,三门峡市第一小学,颗粒物(PM10),61,65,43,21,13,130,130,120,120,14,20,12,13,0.3,0.3
2026-05-04T1900,3598A,111.1031,34.719,三门峡市,富达温泉假日酒店,颗粒物(PM10),60,64,45,29,26,127,127,122,122,15,16,7,8,0.3,0.3
2026-05-04T1900,2324A,117.621,26.2626,三明市,三钢,,25,11,24,7,15,79,79,90,90,12,12,9,6,0.8,0.7
2026-05-04T1900,2325A,117.6352,26.2714,三明市,三明二中,,25,19,23,15,16,78,78,83,83,10,11,4,6,0.5,0.7
2026-05-04T1900,2326A,117.6028,26.2377,三明市,三元区政府,,27,11,22,6,14,84,84,84,84,4,9,2,4,0.5,0.7
2026-05-04T1900,1877A,109.4962,18.2682,三亚市,河西子站,,23,23,19,14,12,47,47,76,68,4,6,4,4,0.3,0.4
2026-05-04T1900,3540A,109.7348,18.3443,三亚市,君悦子站,,20,19,19,9,11,62,62,80,76,3,7,3,3,0.4,0.4
2026-05-04T1900,4135A,109.1714,18.3739,三亚市,城东小学站,NA,NA,25,30,12,19,48,48,82,80,NA,11,/,/,/,/
2026-05-04T1900,2624A,91.7592,29.234,山南市,山南监测站,,35,9,10,3,4,111,111,122,110,4,4,8,7,0.3,0.2
2026-05-04T1900,2625A,91.7701,29.2436,山南市,山南人民医院,,36,18,14,3,5,113,113,126,114,6,4,8,7,0.3,0.3
2026-05-04T1900,1674A,116.6795,23.3666,汕头市,金平子站,,29,28,21,20,11,87,87,96,96,15,12,6,7,0.7,0.6
2026-05-04T1900,1675A,116.7248,23.3632,汕头市,龙湖子站,,32,32,20,20,11,87,87,94,94,15,9,8,7,/,/
2026-05-04T1900,1676A,116.7257,23.2774,汕头市,濠江子站,NA,NA,NA,26,15,11,93,93,95,95,NA,13,NA,8,/,/
2026-05-04T1900,1677A,116.7518,23.4712,汕头市,澄海子站,,28,28,22,18,12,80,80,86,86,15,13,8,8,0.7,0.7
2026-05-04T1900,1678A,116.6088,23.2539,汕头市,潮阳子站,NA,NA,27,20,20,12,95,95,99,99,NA,8,7,7,0.5,0.6
2026-05-04T1900,3444A,116.4539,23.2684,汕头市,潮南峡山,,36,36,17,25,10,97,97,97,97,10,6,7,8,0.6,0.6
2026-05-04T1900,3624A,116.4069,23.2533,汕头市,潮南子站,,40,40,23,24,11,84,84,84,84,17,13,8,6,/,/
2026-05-04T1900,1693A,115.3653,22.7751,汕尾市,市环保局,,34,24,19,20,12,108,108,99,99,8,6,6,6,0.6,0.5
2026-05-04T1900,1695A,115.362,22.7926,汕尾市,新城中学,,32,NA,17,20,12,101,101,92,92,8,6,6,6,0.6,0.5
2026-05-04T1900,2645A,109.9155,33.8714,商洛市,监测站,,34,19,29,16,10,106,106,119,119,6,11,4,9,0.3,0.4
2026-05-04T1900,3045A,109.9647,33.8486,商洛市,商州区中学,,32,32,33,10,11,94,94,119,119,11,13,5,7,0.4,0.4
2026-05-04T1900,2408A,115.6701,34.4283,商丘市,环境监测站,颗粒物(PM10),59,62,58,22,21,128,128,127,127,4,8,4,4,0.3,0.3
2026-05-04T1900,2409A,115.6458,34.4047,商丘市,粮食局,,45,45,51,19,18,125,125,122,122,11,15,6,6,0.3,0.3
2026-05-04T1900,3171A,115.6069,34.4465,商丘市,梁园区档案局,颗粒物(PM10),51,51,53,26,19,127,127,125,125,6,12,6,7,0.2,0.2
2026-05-04T1900,4119A,115.6701,34.3767,商丘市,北海东路185号,,39,38,44,19,19,124,124,125,125,6,11,6,6,0.4,0.4
2026-05-04T1900,4120A,115.6172,34.3704,商丘市,中山大街3号,,43,39,45,30,19,117,117,120,120,7,11,7,7,0.3,0.3
2026-05-04T1900,1141A,121.401,31.2382,上海市,普陀,细颗粒物(PM2.5),60,62,37,40,26,143,143,144,144,31,24,8,8,0.6,0.6
2026-05-04T1900,1142A,121.4774,31.2043,上海市,十五厂,颗粒物(PM10),66,72,38,35,24,147,147,138,138,26,30,8,8,0.8,0.7
2026-05-04T1900,1143A,121.4673,31.3011,上海市,虹口,"颗粒物(PM10),细颗粒物(PM2.5)",60,64,35,40,24,138,138,131,131,31,28,7,6,0.7,0.7
2026-05-04T1900,1147A,121.4253,31.226,上海市,静安监测站,颗粒物(PM10),55,57,34,37,23,152,152,145,145,36,29,11,10,0.8,0.7
2026-05-04T1900,1148A,121.7029,31.1905,上海市,浦东川沙,颗粒物(PM10),58,60,36,38,24,148,148,141,141,34,31,10,10,0.7,0.8
2026-05-04T1900,1149A,121.5339,31.229,上海市,浦东新区监测站,颗粒物(PM10),56,58,34,36,23,141,141,133,133,30,30,8,8,0.6,0.6
2026-05-04T1900,1150A,121.5776,31.2038,上海市,浦东张江,细颗粒物(PM2.5),58,54,35,39,24,163,163,145,145,24,30,8,8,0.4,0.3
2026-05-04T1900,3265A,121.4242,31.3303,上海市,宝山庙行,颗粒物(PM10),60,63,35,37,22,136,136,136,136,35,27,10,10,0.5,0.4
2026-05-04T1900,3266A,121.8789,31.4662,上海市,崇明上实东滩,,41,20,22,13,16,129,129,138,138,14,17,8,8,0.2,0.3
2026-05-04T1900,3268A,121.316,31.2839,上海市,嘉定南翔,,49,49,31,30,21,139,139,138,138,29,25,7,6,0.6,0.5
2026-05-04T1900,3269A,121.3357,30.7455,上海市,金山新城,,41,22,29,13,21,131,131,132,132,13,15,6,7,0.5,0.6
2026-05-04T1900,3270A,121.4996,31.0741,上海市,闵行浦江,颗粒物(PM10),55,57,32,35,22,139,139,138,138,41,26,9,8,0.5,0.4
2026-05-04T1900,3271A,121.2886,31.1663,上海市,青浦徐泾,,41,17,29,10,20,131,131,145,145,20,24,6,6,0.5,0.5
2026-05-04T1900,3272A,121.2193,31.0382,上海市,松江图书馆,,45,30,34,16,24,141,141,144,144,12,21,8,8,0.3,0.4
2026-05-04T1900,3273A,121.3904,31.206,上海市,长宁仙霞,细颗粒物(PM2.5),56,57,35,38,22,148,148,136,136,30,24,7,7,0.4,0.4
2026-05-04T1900,3274A,121.7964,31.0507,上海市,浦东惠南,细颗粒物(PM2.5),66,67,34,43,22,124,124,138,138,43,30,7,8,0.6,0.7
2026-05-04T1900,3544A,121.4891,30.925,上海市,奉贤南桥新城,,40,23,30,12,21,125,125,137,137,19,19,5,6,0.2,0.4
2026-05-04T1900,4183A,121.417401,31.16637,上海市,冠生园路458号,,46,46,28,31,22,143,143,127,127,32,26,6,5,0.7,0.6
2026-05-04T1900,4205A,121.541914,31.268301,上海市,宁武路151号,细颗粒物(PM2.5),72,74,38,46,24,128,128,136,136,52,34,8,8,0.6,0.5
2026-05-04T1900,2382A,117.9758,28.4439,上饶市,市监测站,,35,26,40,16,22,112,112,110,110,2,8,9,14,/,/
2026-05-04T1900,2383A,117.9521,28.4637,上饶市,凤凰光学,,34,28,36,17,21,106,106,108,108,12,18,11,12,0.5,0.6
2026-05-04T1900,3685A,117.897,28.4316,上饶市,双创科技城,,36,27,38,15,24,115,115,117,117,7,12,8,11,0.4,0.5
2026-05-04T1900,4211A,118.190438,28.444845,上饶市,裕丰大道,,35,35,40,20,26,111,111,112,112,10,13,14,18,0.8,0.9
2026-05-04T1900,1669A,113.5821,24.7733,韶关市,市八中,,31,31,33,17,20,78,78,85,85,15,12,7,10,0.5,0.5
2026-05-04T1900,1671A,113.5916,24.7973,韶关市,园林处,,29,26,27,18,20,90,90,86,86,11,11,6,8,/,/
2026-05-04T1900,1673A,113.5971,24.6864,韶关市,曲江监测站,,36,36,28,20,18,71,71,88,88,14,14,5,9,0.7,0.6
2026-05-04T1900,2809A,113.6668,24.7756,韶关市,大学路288号,,27,27,25,14,17,69,69,87,87,8,11,6,12,/,/
2026-05-04T1900,3622A,113.5556,24.8082,韶关市,碧湖山庄,,28,28,31,18,19,89,89,84,84,9,10,7,8,0.5,0.5
