timepoint,stationcode,longitude,latitude,area,positionname,primarypollutant,aqi,pm10,pm10_24h,pm2_5,pm2_5_24h,o3,o3_24h,o3_8h,o3_8h_24h,no2,no2_24h,so2,so2_24h,co,co_24h
2026-02-14T1600,2568A,102.2503,31.8896,阿坝藏族羌族自治州,马师校,,25,8,15,7,8,80,,64,64,3,5,4,5,0.4,0.4
2026-02-14T1600,3994A,102.2174,31.9016,阿坝藏族羌族自治州,马尔康中学西区,,25,,13,6,8,80,,67,67,5,5,4,5,0.4,0.5
2026-02-14T1600,2695A,80.2899,41.1684,阿克苏地区,电视台,颗粒物(PM10),173,295,337,80,95,74,,46,46,11,28,11,11,0.6,1
2026-02-14T1600,2696A,80.2592,41.1541,阿克苏地区,艺术中心,颗粒物(PM10),166,282,310,84,102,77,,48,48,13,32,5,6,0.6,0.8
2026-02-14T1600,2205A,105.699,38.8409,阿拉善盟,蒙二幼,颗粒物(PM10),335,448,151,93,35,87,,82,82,4,12,10,10,0.5,0.4
2026-02-14T1600,2206A,105.7198,38.8508,阿拉善盟,环保局新楼,颗粒物(PM10),174,297,112,69,28,87,,86,72,5,6,9,10,0.5,0.5
2026-02-14T1600,2708A,88.1266,47.8515,阿勒泰地区,市站,,25,14,23,3,14,79,,67,67,34,42,5,3,0.2,0.4
2026-02-14T1600,4166A,88.1198,47.7931,阿勒泰地区,阿勒泰路33号,,28,18,19,3,9,88,,70,70,18,28,7,5,0.4,0.4
2026-02-14T1600,2630A,80.1171,32.4999,阿里地区,阿里监测站,,28,6,14,3,7,89,,75,75,1,6,6,7,0.3,0.4
2026-02-14T1600,3192A,80.0906,32.5029,阿里地区,阿里藏医院,,,,11,3,4,95,,80,79,2,5,,10,0.3,0.4
2026-02-14T1600,2644A,109.0088,32.6974,安康市,汉滨区检察院,细颗粒物(PM2.5),64,63,61,46,41,117,,68,68,10,11,4,3,0.6,0.7
2026-02-14T1600,4054A,109.0324,32.6913,安康市,市邮政管理局,细颗粒物(PM2.5),59,64,74,42,46,111,,67,67,13,25,6,5,0.8,1.1
2026-02-14T1600,2291A,117.0806,30.5181,安庆市,环科院,,46,46,61,25,50,101,,62,62,7,17,7,6,0.7,0.8
2026-02-14T1600,2292A,117.0331,30.5118,安庆市,马山宾馆,,48,48,61,21,50,103,,64,64,7,21,5,6,0.6,0.8
2026-02-14T1600,2294A,116.9897,30.6146,安庆市,安庆大学,,46,46,60,22,40,107,,76,76,5,8,5,5,0.6,0.7
2026-02-14T1600,3173A,117.0598,30.5351,安庆市,市人大,,49,49,62,22,46,105,,68,68,4,12,6,8,0.6,0.7
2026-02-14T1600,3123A,105.9408,26.2431,安顺市,凤凰山,,48,,71,33,56,98,,66,66,8,28,11,57,0.5,1.1
2026-02-14T1600,3124A,105.9443,26.2567,安顺市,金钟山,细颗粒物(PM2.5),54,42,54,38,48,92,,64,64,5,18,13,39,0.6,1.1
2026-02-14T1600,3125A,105.8983,26.248,安顺市,娄家坡,,49,,46,34,40,94,,68,68,6,11,12,19,0.6,0.8
2026-02-14T1600,1819A,114.3552,36.1017,安阳市,红庙街,细颗粒物(PM2.5),78,88,154,57,103,150,,106,106,14,27,8,10,0.7,1.1
2026-02-14T1600,1820A,114.361,36.0681,安阳市,银杏小区,细颗粒物(PM2.5),82,91,157,60,106,146,,99,99,14,28,9,12,0.7,1
2026-02-14T1600,3141A,114.3921,36.0879,安阳市,信访局,颗粒物(PM10),80,110,160,58,104,157,,109,109,6,20,9,11,0.8,1.2
2026-02-14T1600,3669A,114.4706,36.0634,安阳市,左辅环卫站,颗粒物(PM10),81,112,187,45,107,144,,104,104,13,23,8,11,0.7,1.1
2026-02-14T1600,4117A,114.2918,36.0769,安阳市,钢三路198号,颗粒物(PM10),84,117,186,61,97,146,,100,100,18,24,11,10,0.9,1.1
2026-02-14T1600,1748A,123.0441,41.1201,鞍山市,深沟寺,细颗粒物(PM2.5),89,105,124,66,80,105,,128,112,18,19,9,10,0.9,1.1
2026-02-14T1600,1749A,123.011,41.0931,鞍山市,太阳城,细颗粒物(PM2.5),99,102,112,74,78,103,,126,110,16,19,12,14,0.9,1
2026-02-14T1600,1750A,123.0483,41.1445,鞍山市,太平,细颗粒物(PM2.5),88,103,123,65,79,99,,115,99,18,22,11,12,0.9,1
2026-02-14T1600,1751A,122.964,41.0968,鞍山市,铁西三道街,细颗粒物(PM2.5),95,110,127,71,82,100,,105,105,25,39,13,40,1.2,0.9
2026-02-14T1600,1753A,123.0219,41.0822,鞍山市,明达新区,,,,112,,75,,,126,111,,21,,14,,0.8
2026-02-14T1600,4201A,122.944647,41.082639,鞍山市,兴盛南路290号,细颗粒物(PM2.5),112,109,128,84,88,96,,111,103,25,32,17,18,0.9,1.1
2026-02-14T1600,2195A,107.4206,40.7609,巴彦淖尔市,附二中,颗粒物(PM10),61,71,120,10,33,80,,75,75,3,10,7,10,0.3,0.4
2026-02-14T1600,2196A,107.37,40.7372,巴彦淖尔市,市环保大楼,颗粒物(PM10),58,66,108,7,31,81,,76,76,4,15,5,8,0.3,0.5
2026-02-14T1600,1956A,86.1476,41.7529,巴音郭楞蒙古自治州,孔雀公园,颗粒物(PM10),115,180,200,49,57,81,,66,52,,28,8,9,0.5,0.7
2026-02-14T1600,1957A,86.1971,41.7166,巴音郭楞蒙古自治州,棉纺厂,颗粒物(PM10),136,221,225,42,55,84,,58,58,4,33,/,/,/,/
2026-02-14T1600,1958A,86.236,41.7172,巴音郭楞蒙古自治州,经济开发区,颗粒物(PM10),117,183,165,32,35,74,,64,60,6,12,7,7,0.3,0.5
2026-02-14T1600,3181A,106.776805,31.852614,巴中市,市五中,细颗粒物(PM2.5),63,62,73,45,56,116,,67,67,18,20,7,6,0.9,1
2026-02-14T1600,3183A,106.7419,31.8654,巴中市,圣泉水务公司,细颗粒物(PM2.5),65,59,68,47,57,123,,76,76,11,23,7,6,0.9,1
2026-02-14T1600,3616A,106.7617,31.8343,巴中市,市中心医院,细颗粒物(PM2.5),64,64,80,46,61,123,,64,64,12,32,7,6,0.8,1.2
2026-02-14T1600,2235A,122.7909,45.608,白城市,洮北区环保局,颗粒物(PM10),183,316,85,34,34,83,,74,74,8,13,6,6,0.3,0.4
2026-02-14T1600,2236A,122.8741,45.5725,白城市,市环保局,颗粒物(PM10),265,395,92,58,34,88,,78,78,5,9,4,5,0.2,0.3
2026-02-14T1600,2231A,126.4219,41.9172,白山市,喜丰,细颗粒物(PM2.5),97,110,137,72,102,120,,94,94,14,56,15,16,1.2,1.8
2026-02-14T1600,2232A,126.4082,41.9416,白山市,环保局,细颗粒物(PM2.5),102,95,122,76,104,126,,94,94,11,36,15,15,1.1,1.7
2026-02-14T1600,2647A,104.1727,36.5448,白银市,第三小学,颗粒物(PM10),77,104,101,30,47,92,,82,82,7,38,5,18,0.3,0.7
2026-02-14T1600,2648A,104.1467,36.5482,白银市,动力公司,颗粒物(PM10),72,94,94,25,34,88,,81,81,6,18,2,9,0.5,0.7
2026-02-14T1600,2512A,106.6102,23.901,百色市,市监测站,,25,25,33,16,23,47,,25,25,9,14,9,10,0.7,0.9
2026-02-14T1600,2513A,106.6524,23.8842,百色市,市中心血站,,38,,48,26,31,48,,24,24,5,12,11,9,0.7,1
2026-02-14T1600,4133A,106.6273,23.8798,百色市,龙景西路,,40,,43,28,26,51,,24,24,9,14,11,10,0.6,0.7
2026-02-14T1600,2270A,117.396,32.9389,蚌埠市,工人疗养院,颗粒物(PM10),60,70,97,26,52,132,,104,104,15,23,5,6,0.7,0.8
2026-02-14T1600,2271A,117.3606,32.9428,蚌埠市,百货大楼,颗粒物(PM10),62,73,97,26,52,130,,106,106,11,23,7,7,0.5,0.8
2026-02-14T1600,2273A,117.4183,32.8909,蚌埠市,蚌埠学院,颗粒物(PM10),57,63,94,26,56,133,,105,105,11,20,6,6,0.6,0.7
2026-02-14T1600,2274A,117.3534,32.9672,蚌埠市,淮上区政府,颗粒物(PM10),59,68,96,28,56,137,,112,112,11,21,7,7,0.5,0.7
2026-02-14T1600,2275A,117.3143,32.8977,蚌埠市,高新区,颗粒物(PM10),59,68,100,28,62,126,,97,97,4,22,8,8,0.5,0.7
2026-02-14T1600,3715A,117.3091,32.9314,蚌埠市,蚌埠田家炳中学,颗粒物(PM10),59,68,105,27,61,133,,103,103,9,23,6,24,0.5,0.7
2026-02-14T1600,1585A,109.8761,40.6533,包头市,市环境监测站,颗粒物(PM10),56,61,99,9,37,90,,78,78,7,31,4,9,0.7,0.9
2026-02-14T1600,1587A,109.9992,40.5843,包头市,包头八中,颗粒物(PM10),64,78,101,10,38,86,,78,78,6,28,5,12,0.4,0.7
2026-02-14T1600,1589A,109.8641,40.6288,包头市,惠龙物流,,40,40,89,6,34,92,,80,80,6,28,8,14,0.4,0.8
2026-02-14T1600,1590A,110.0376,40.5546,包头市,东河鸿龙湾,颗粒物(PM10),69,87,94,12,35,84,,77,77,6,38,6,11,0.3,0.7
2026-02-14T1600,3283A,109.9154,40.5684,包头市,滨河大厦,颗粒物(PM10),53,56,86,9,41,88,,78,78,5,30,5,11,0.3,0.6
2026-02-14T1600,3419A,109.9449,40.6259,包头市,包头市委党校,颗粒物(PM10),57,63,82,21,32,84,,76,76,4,27,7,13,0.3,0.6
2026-02-14T1600,3683A,109.8332,40.6577,包头市,昆区政府,,44,44,92,3,35,90,,80,80,7,32,6,14,0.4,0.8
2026-02-14T1600,1931A,107.0802,34.3129,宝鸡市,竹园沟,颗粒物(PM10),54,58,56,36,35,120,,80,80,14,17,8,7,0.4,0.4
2026-02-14T1600,1933A,107.1429,34.3549,宝鸡市,监测站,颗粒物(PM10),68,85,76,40,37,119,,74,74,22,24,7,6,0.5,0.6
2026-02-14T1600,1934A,107.1172,34.3759,宝鸡市,技工学校,颗粒物(PM10),73,96,83,44,49,134,,79,79,18,23,8,11,0.6,0.7
2026-02-14T1600,1936A,107.2025,34.3518,宝鸡市,文理学院,颗粒物(PM10),64,77,80,40,46,126,,81,81,18,25,6,6,0.4,0.5
2026-02-14T1600,1937A,107.2396,34.3626,宝鸡市,三迪小学,细颗粒物(PM2.5),64,74,87,46,51,130,,81,81,19,32,8,6,0.6,0.7
2026-02-14T1600,4155A,107.1721,34.3558,宝鸡市,滨河北路,颗粒物(PM10),57,64,82,38,45,123,,78,78,6,16,7,7,0.6,0.7
2026-02-14T1600,4308A,107.3898,34.3601,宝鸡市,陈仓区北开路21号,细颗粒物(PM2.5),59,55,105,42,66,125,,84,84,13,28,8,66,0.2,0.6
2026-02-14T1600,1051A,115.4803,38.8568,保定市,游泳馆,细颗粒物(PM2.5),95,99,168,71,127,108,,93,93,19,55,8,12,0.3,0.9
2026-02-14T1600,1052A,115.509,38.8895,保定市,华电二区,颗粒物(PM10),69,88,147,33,110,111,,94,94,14,40,6,8,0.5,1
2026-02-14T1600,1053A,115.4588,38.9037,保定市,接待中心,细颗粒物(PM2.5),78,104,154,57,112,109,,91,91,11,36,4,7,0.5,0.9
2026-02-14T1600,1054A,115.4484,38.8344,保定市,地表水厂,颗粒物(PM10),80,110,189,51,112,114,,98,98,17,40,6,10,0.5,1
2026-02-14T1600,3581A,115.3136,38.9511,保定市,满城区生态环境分局,细颗粒物(PM2.5),139,175,188,106,108,131,,100,100,20,46,6,9,1.0,1.3
2026-02-14T1600,3582A,115.4709,38.7628,保定市,清苑区第二中学,颗粒物(PM10),96,142,216,42,118,104,,94,94,21,34,10,14,0.5,1
2026-02-14T1600,3583A,115.6231,39.0223,保定市,徐水物探局,颗粒物(PM10),87,124,221,44,134,95,,83,83,9,53,7,12,0.5,1.1
2026-02-14T1600,4004A,115.4199,38.8665,保定市,双鹰农机,颗粒物(PM10),105,159,212,63,120,126,,106,106,14,37,6,10,0.6,1
2026-02-14T1600,4034A,115.515,38.8589,保定市,植保所站,颗粒物(PM10),73,95,167,37,116,109,,93,93,12,61,4,8,0.4,1.1
2026-02-14T1600,2594A,99.1589,25.1137,保山市,市环境监测站,,35,27,20,13,11,110,,86,86,5,8,6,6,0.3,0.3
2026-02-14T1600,2595A,99.1616,25.1381,保山市,市环保局,,43,43,23,8,9,109,,88,88,3,4,3,3,0.4,0.3
2026-02-14T1600,1867A,109.1435,21.4085,北海市,海滩公园,,45,45,48,29,24,129,,102,102,11,11,3,3,0.8,0.8
2026-02-14T1600,1868A,109.0983,21.466,北海市,新市环保局,,30,30,43,8,22,96,,88,88,5,11,7,8,0.5,0.6
2026-02-14T1600,1869A,109.1775,21.5232,北海市,北海工业园,,38,38,58,14,36,92,,82,82,4,8,5,6,0.6,0.8
2026-02-14T1600,3400A,109.1844,21.4396,北海市,龙潭自来水厂,,31,28,46,11,32,98,,89,89,1,7,4,3,0.8,0.9
2026-02-14T1600,1001A,116.3611,39.8786,北京市,万寿西宫,,29,28,137,9,83,92,,80,80,5,42,2,6,0.3,0.9
2026-02-14T1600,1003A,116.4174,39.9289,北京市,东四,,29,29,139,11,84,80,,66,66,7,47,5,9,0.3,0.9
2026-02-14T1600,1004A,116.4073,39.8858,北京市,天坛,,30,30,128,8,78,86,,69,69,8,40,2,3,0.4,1
2026-02-14T1600,1005A,116.4622,39.9364,北京市,农展馆,,28,24,132,8,81,89,,75,75,4,44,5,8,0.5,1.1
2026-02-14T1600,1006A,116.3399,39.9293,北京市,官园,,30,30,125,10,76,79,,68,68,7,36,4,7,0.2,0.8
2026-02-14T1600,1007A,116.2879,39.9613,北京市,海淀万柳,,30,30,110,9,62,75,,62,62,11,45,3,5,0.3,0.9
2026-02-14T1600,1008A,116.6635,40.1349,北京市,顺义新城,,28,17,106,3,55,88,,82,82,4,32,5,7,0.3,0.8
2026-02-14T1600,1009A,116.6275,40.327,北京市,怀柔镇,,25,19,89,3,50,79,,70,70,3,24,4,6,0.2,0.9
2026-02-14T1600,1010A,116.2295,40.217,北京市,昌平镇,,28,28,89,8,51,80,,75,75,5,22,2,5,0.4,0.8
2026-02-14T1600,1011A,116.3968,39.982,北京市,奥体中心,,29,29,125,9,73,78,,63,63,7,46,5,8,0.3,0.9
2026-02-14T1600,3418A,116.8336,40.4095,北京市,密云新城,,26,14,91,3,49,82,,80,80,2,16,3,4,0.3,0.7
2026-02-14T1600,3671A,116.0879,39.9725,北京市,门头沟三家店,,27,23,93,6,50,86,,79,79,7,20,4,5,0.2,0.6
2026-02-14T1600,3672A,116.1507,39.8246,北京市,丰台云岗,,30,25,108,8,61,95,,80,80,10,24,3,6,0.3,0.7
2026-02-14T1600,3674A,115.9578,39.7602,北京市,房山燕山,,27,18,106,6,64,85,,80,80,9,22,4,6,0.2,0.6
2026-02-14T1600,3675A,116.4669,39.7734,北京市,大兴旧宫,,28,28,152,8,87,87,,70,70,8,39,4,6,0.2,0.9
2026-02-14T1600,3694A,115.9859,40.4562,北京市,延庆石河营,,26,26,89,6,49,78,,63,63,2,21,4,5,0.3,0.8
2026-02-14T1600,3695A,116.6151,40.3052,北京市,怀柔新城,,27,14,88,3,57,85,,74,74,7,18,2,4,0.3,0.7
2026-02-14T1600,3696A,116.2542,39.8764,北京市,丰台小屯,,31,31,130,10,73,77,,62,62,5,50,4,6,0.3,0.8
2026-02-14T1600,3697A,116.8399,40.3843,北京市,密云镇,,26,15,91,3,51,81,,73,73,5,31,4,5,0.3,0.7
2026-02-14T1600,4057A,115.9423,40.4431,北京市,延庆百泉,,24,20,90,3,51,74,,60,60,3,22,1,3,0.3,0.8
2026-02-14T1600,4058A,116.6598,39.9164,北京市,通州新华,,25,14,154,3,96,79,,68,68,11,43,1,5,0.4,1.1
2026-02-14T1600,4182A,116.1942,39.9158,北京市,石景山八角,,25,24,115,7,62,79,,66,66,8,36,5,7,0.2,0.7
2026-02-14T1600,4194A,117.078628,40.151726,北京市,平谷新城,,25,13,116,3,71,80,,73,73,5,22,4,5,0.3,0.8
2026-02-14T1600,1761A,123.8274146,41.31234549,本溪市,大峪,细颗粒物(PM2.5),105,127,130,79,77,107,,119,113,15,19,13,11,1.1,1.1
2026-02-14T1600,1763A,123.7169,41.3094,本溪市,彩屯,细颗粒物(PM2.5),82,89,128,60,91,104,,98,98,15,36,11,18,1.0,2.9
2026-02-14T1600,1764A,123.7672166,41.28649327,本溪市,东明,细颗粒物(PM2.5),94,126,102,70,79,103,,127,112,20,17,11,10,1.1,1
2026-02-14T1600,1765A,123.799345,41.266614,本溪市,新立屯,细颗粒物(PM2.5),102,125,97,76,73,110,,130,115,19,16,14,12,1.0,0.8
2026-02-14T1600,1766A,123.829144,41.336777,本溪市,威宁,颗粒物(PM10),96,142,133,58,74,104,,110,110,15,24,12,10,0.8,0.9
2026-02-14T1600,2587A,105.287,27.3133,毕节市,八中,,30,,52,15,32,93,,67,67,6,13,12,12,0.4,0.7
2026-02-14T1600,2588A,105.3079,27.2987,毕节市,师专,,33,21,60,10,31,105,,72,72,6,18,10,11,0.3,0.7
2026-02-14T1600,4263A,105.3688,27.3598,毕节市,工业大道,,36,36,71,16,38,115,,79,79,7,15,12,13,/,/
2026-02-14T1600,1629A,117.9961,37.3604,滨州市,第二水厂,细颗粒物(PM2.5),93,119,157,69,97,162,,118,118,15,30,15,22,0.9,1.1
2026-02-14T1600,1630A,117.9789,37.3931,滨州市,北中新校,细颗粒物(PM2.5),84,114,154,62,91,169,,122,122,19,37,13,17,0.7,1
2026-02-14T1600,3514A,117.9379,37.3959,滨州市,中海酒店,细颗粒物(PM2.5),87,119,149,64,91,179,,133,133,21,34,15,18,0.9,1.3
2026-02-14T1600,3515A,117.9381509,37.35547456,滨州市,开发区一中,颗粒物(PM10),91,132,166,63,92,163,,120,120,12,27,20,26,1.0,1.2
2026-02-14T1600,3516A,118.0914,37.6938,滨州市,金海六路,,,,173,67,106,166,,124,124,16,37,23,18,0.8,1
2026-02-14T1600,4028A,117.9955,37.3752,滨州市,滨州市西街道办事处,颗粒物(PM10),87,124,158,63,94,173,,128,128,12,26,13,18,0.8,1.1
2026-02-14T1600,2311A,115.8071,33.8399,亳州市,污水处理厂,颗粒物(PM10),57,63,96,31,61,126,,101,101,12,20,5,7,0.4,0.6
2026-02-14T1600,2312A,115.7789,33.8519,亳州市,三国揽胜宫,颗粒物(PM10),65,80,106,37,63,125,,102,102,5,17,4,6,0.3,0.6
2026-02-14T1600,3332A,115.7631,33.803,亳州市,亳州学院,颗粒物(PM10),57,64,96,29,55,129,,101,101,8,14,4,5,0.7,0.8
2026-02-14T1600,2693A,82.0482,44.8553,博尔塔拉蒙古自治州,市党校,,45,45,60,20,32,91,,92,82,14,15,3,2,0.5,0.6
2026-02-14T1600,2694A,82.0805,44.8966,博尔塔拉蒙古自治州,市环保局,,41,41,70,18,27,86,,85,80,10,11,4,3,0.6,0.7
2026-02-14T1600,1071A,116.8733,38.2922,沧州市,沧县城建局,细颗粒物(PM2.5),118,149,172,89,108,147,,110,110,17,30,10,12,0.8,1
2026-02-14T1600,1072A,116.8462,38.3189,沧州市,电视转播站,细颗粒物(PM2.5),143,148,169,109,120,143,,110,110,21,25,8,11,0.6,0.8
2026-02-14T1600,1073A,116.8588,38.3161,沧州市,市环保局,细颗粒物(PM2.5),114,155,180,86,104,126,,94,94,16,25,12,16,0.6,0.9
2026-02-14T1600,3324A,116.8011,38.294,沧州市,河北水利电力学院,细颗粒物(PM2.5),142,166,190,108,118,129,,100,100,16,22,13,17,0.7,0.9
2026-02-14T1600,2622A,97.1813,31.1289,昌都市,昌都监测站,,28,18,23,3,8,88,,63,63,2,6,3,3,0.4,0.6
2026-02-14T1600,3719A,97.1707,31.1428,昌都市,昌都会议中心,,29,12,11,7,7,90,,66,66,1,2,4,5,0.4,0.4
2026-02-14T1600,2692A,87.2722,44.0298,昌吉回族自治州,新区政务中心,,31,31,21,15,15,89,,70,58,14,19,6,4,0.5,0.4
2026-02-14T1600,3613A,87.3069,44.0093,昌吉回族自治州,亚心广场,,,36,27,27,20,85,,77,57,,20,9,8,,0.6
2026-02-14T1600,4164A,87.2057,43.9289,昌吉回族自治州,财政所,细颗粒物(PM2.5),68,58,55,49,44,90,,65,65,8,15,6,5,0.5,0.6
2026-02-14T1600,1120A,125.2874,43.9024,长春市,客车厂,颗粒物(PM10),79,108,103,10,67,67,,98,79,9,35,6,14,0.4,0.9
2026-02-14T1600,1121A,125.2943,43.8508,长春市,邮电学院,颗粒物(PM10),78,105,100,11,65,49,,78,66,11,21,6,11,0.4,0.8
2026-02-14T1600,1122A,125.3648,43.8745,长春市,劳动公园,颗粒物(PM10),72,94,117,10,64,65,,99,83,10,25,10,14,0.5,0.8
2026-02-14T1600,1123A,125.3233,43.8781,长春市,园林处,颗粒物(PM10),73,96,95,10,66,65,,102,82,9,18,6,11,0.2,0.7
2026-02-14T1600,1124A,125.4604,43.7904,长春市,净月潭,颗粒物(PM10),77,104,93,11,61,68,,101,86,10,14,4,8,0.3,0.7
2026-02-14T1600,1126A,125.38,43.8422,长春市,经开区环卫处,颗粒物(PM10),75,100,99,11,61,64,,98,82,12,28,6,8,0.4,0.8
2026-02-14T1600,1127A,125.234,43.7761,长春市,高新区管委会,颗粒物(PM10),86,122,99,11,63,71,,101,86,8,26,8,10,0.3,0.9
2026-02-14T1600,1128A,125.1695,43.83,长春市,岱山公园,颗粒物(PM10),89,127,97,15,65,69,,106,82,8,20,4,9,0.3,0.8
2026-02-14T1600,4281A,125.334645,43.916281,长春市,北亚泰大街1068号,颗粒物(PM10),82,114,111,14,71,57,,92,72,16,28,10,13,0.5,1
2026-02-14T1600,1335A,113.082,28.2421,长沙市,经开区环保局,,46,46,44,27,32,101,,50,50,11,15,3,3,0.8,0.9
2026-02-14T1600,1336A,112.8873,28.2202,长沙市,高开区环保局,,48,48,52,32,48,100,,44,44,7,19,7,6,1.2,1.4
2026-02-14T1600,1337A,113.0785,28.2012,长沙市,马坡岭,,,40,43,26,34,110,,55,55,,13,5,4,0.8,1
2026-02-14T1600,1338A,112.9448,28.1894,长沙市,湖南师范大学,,46,46,53,31,42,112,,52,52,8,20,5,4,1.0,1.3
2026-02-14T1600,1339A,113.0177,28.1322,长沙市,雨花区环保局,,46,46,44,24,28,113,,59,59,13,22,9,8,0.7,1
2026-02-14T1600,1340A,112.9795,28.2593,长沙市,伍家岭,细颗粒物(PM2.5),57,50,58,40,43,104,,46,46,18,22,7,6,1.2,1.2
2026-02-14T1600,1341A,113.002,28.1944,长沙市,火车新站,,43,43,52,25,41,110,,51,51,9,21,3,2,1.1,1.3
2026-02-14T1600,1342A,112.9846,28.1177,长沙市,天心区环保局,,43,37,44,30,39,109,,52,52,11,23,6,6,0.9,1.1
2026-02-14T1600,1343A,112.8906,28.1307,长沙市,湖南中医药大学,颗粒物(PM10),51,52,50,26,38,116,,53,53,7,20,10,7,1.1,1.3
2026-02-14T1600,1727A,113.1146,36.1547,长治市,清华站,,33,22,73,13,41,105,,68,68,5,27,7,17,0.4,0.8
2026-02-14T1600,1730A,113.0887,36.2126,长治市,审计局,颗粒物(PM10),83,115,90,10,48,109,,71,71,5,33,8,26,0.4,0.9
2026-02-14T1600,1731A,113.0845,36.1856,长治市,长治八中,,34,31,105,6,52,107,,66,66,4,33,9,24,0.4,0.9
2026-02-14T1600,2845A,113.1561,36.1912,长治市,德盛苑,,35,20,73,6,43,112,,92,84,5,20,7,19,0.3,0.8
2026-02-14T1600,3568A,113.0603,36.0464,长治市,向阳小学,,45,45,91,9,38,103,,84,75,28,27,16,23,0.3,0.6
2026-02-14T1600,3569A,112.8788,36.315,长治市,屯留一中,,35,28,80,11,48,111,,94,94,7,30,5,18,0.1,0.8
2026-02-14T1600,4189A,113.113092,36.199482,长治市,英华南巷50号,,34,34,85,8,48,105,,71,71,10,28,7,24,0.4,0.9
2026-02-14T1600,4190A,113.23666,36.33435,长治市,学府街1号,,47,47,93,3,47,105,,98,98,9,51,6,28,0.3,1.6
2026-02-14T1600,1854A,111.696,28.9725,常德市,市二中,细颗粒物(PM2.5),52,50,75,36,54,98,,63,63,8,18,6,6,1.3,1.4
2026-02-14T1600,3138A,111.7152,29.0288,常德市,武陵区永安,细颗粒物(PM2.5),53,48,71,37,57,100,,64,64,7,17,6,5,1.1,1.3
2026-02-14T1600,3139A,111.6891,28.9881,常德市,鼎城区玉霞,,50,46,73,35,52,99,,65,65,10,18,6,5,1.0,1.2
2026-02-14T1600,3140A,111.6651,29.0526,常德市,武陵区长庚,细颗粒物(PM2.5),57,52,71,40,56,101,,61,61,6,18,6,5,0.9,1.2
2026-02-14T1600,1196A,119.9524,31.7586,常州市,市监测站,,,58,89,27,51,126,,88,88,11,25,,9,0.6,0.8
2026-02-14T1600,1200A,119.9351,31.703,常州市,武进监测站,颗粒物(PM10),58,65,91,33,52,122,,88,88,6,14,10,9,1.0,1
2026-02-14T1600,3002A,119.9701,31.813,常州市,行政中心,颗粒物(PM10),62,73,90,30,51,118,,86,86,8,20,6,6,0.7,0.9
2026-02-14T1600,3003A,120.0434,31.7726,常州市,经开区,颗粒物(PM10),55,59,96,27,48,130,,92,92,9,23,8,7,0.7,1
2026-02-14T1600,3010A,119.8919,31.7892,常州市,钟楼,颗粒物(PM10),56,62,82,26,47,125,,92,92,11,24,7,8,0.7,0.8
2026-02-14T1600,3429A,119.8595,31.706,常州市,武进经发区,细颗粒物(PM2.5),57,62,92,40,59,126,,89,89,7,18,8,7,0.9,0.8
2026-02-14T1600,3430A,119.5812,31.7256,常州市,金坛城区,,,57,93,42,58,128,,90,90,,18,8,9,0.9,0.9
2026-02-14T1600,4089A,119.9551,31.863,常州市,崇义南街5-H号,颗粒物(PM10),58,66,79,25,41,124,,89,89,12,32,6,6,0.9,1
2026-02-14T1600,2220A,120.4318,41.588,朝阳市,西梁,颗粒物(PM10),51,52,116,11,83,82,,90,80,16,30,7,14,0.4,1.1
2026-02-14T1600,2221A,120.452,41.565,朝阳市,河畔小区,,40,40,96,12,69,84,,98,82,9,23,7,13,0.3,1
2026-02-14T1600,2222A,120.4176,41.5648,朝阳市,八里堡,颗粒物(PM10),52,53,106,3,85,81,,86,82,8,30,7,15,0.3,1.3
2026-02-14T1600,3026A,116.6179,23.6608,潮州市,市政府,,33,32,44,12,28,104,,95,95,2,8,4,4,0.5,0.5
2026-02-14T1600,4036A,116.646,23.676,潮州市,金山,,35,34,43,13,28,109,,98,98,5,10,2,2,0.6,0.6
2026-02-14T1600,2473A,113.0116,25.8228,郴州市,市职中,,28,28,61,17,50,80,,41,41,8,14,7,8,0.3,0.8
2026-02-14T1600,2475A,113.0381,25.8074,郴州市,市审计局,,26,25,63,14,50,83,,43,43,6,16,4,7,/,/
2026-02-14T1600,2476A,113.0348,25.7757,郴州市,市环保局,,42,42,74,19,52,74,,49,49,16,21,6,11,0.3,0.8
2026-02-14T1600,4252A,113.0138,25.8011,郴州市,好美居路49号,,29,26,55,20,47,92,,56,56,7,16,3,6,/,/
2026-02-14T1600,1431A,103.9727,30.7242,成都市,金泉两河,细颗粒物(PM2.5),107,104,103,80,75,148,,94,94,28,46,5,4,1.0,1.4
2026-02-14T1600,1432A,104.1423,30.6765,成都市,十里店,细颗粒物(PM2.5),75,81,101,55,68,146,,84,84,10,33,5,5,0.5,0.7
2026-02-14T1600,1433A,104.0594,30.5765,成都市,三瓦窑,细颗粒物(PM2.5),74,69,82,54,59,147,,83,83,11,47,4,3,0.8,1
2026-02-14T1600,1434A,104.1122,30.6306,成都市,沙河铺,细颗粒物(PM2.5),75,72,87,55,66,132,,74,74,22,48,4,3,0.5,0.7
2026-02-14T1600,2880A,104.0219,30.6561,成都市,大石西路,细颗粒物(PM2.5),88,101,116,65,84,138,,81,81,17,45,7,6,0.6,1
2026-02-14T1600,3136A,104.2724,30.559,成都市,龙泉驿区区政府,细颗粒物(PM2.5),65,66,70,47,53,137,,92,92,8,14,7,7,0.5,0.6
2026-02-14T1600,3357A,104.0028,30.6891,成都市,金博路,细颗粒物(PM2.5),92,96,113,68,84,134,,80,80,28,47,7,6,0.8,0.9
2026-02-14T1600,3359A,104.056,30.5228,成都市,华阳,细颗粒物(PM2.5),73,75,89,53,64,141,,81,81,15,47,4,3,0.3,0.6
2026-02-14T1600,3488A,104.387954,30.746684,成都市,青石路225号,细颗粒物(PM2.5),78,77,77,57,57,144,,90,90,16,31,6,4,0.1,0.4
2026-02-14T1600,3489A,104.0788,30.4054,成都市,科学城,细颗粒物(PM2.5),89,81,69,66,50,98,,62,62,8,14,7,6,0.5,0.6
2026-02-14T1600,4011A,103.8505,30.6946,成都市,光华大道三段,细颗粒物(PM2.5),87,116,126,64,79,149,,93,93,18,39,5,4,0.7,0.9
2026-02-14T1600,4144A,104.3257,30.6406,成都市,八角井街185号,细颗粒物(PM2.5),84,81,80,62,53,137,,85,85,18,24,6,5,0.6,0.6
2026-02-14T1600,4224A,104.2433276,30.53529463,成都市,鲸龙路1057号,细颗粒物(PM2.5),67,69,86,48,60,143,,96,96,9,24,6,6,0.6,0.7
2026-02-14T1600,1062A,117.9531,40.908,承德市,铁路,颗粒物(PM10),52,53,94,12,51,84,,57,57,3,37,2,8,0.2,1.1
2026-02-14T1600,1063A,117.9397,40.9763,承德市,中国银行,,34,34,83,3,40,83,,62,62,2,30,2,5,0.2,0.9
2026-02-14T1600,4073A,117.9462,40.95,承德市,杏林街1号,,44,44,80,8,44,85,,64,64,3,28,4,8,0.2,1
2026-02-14T1600,4274A,117.7994,40.9605,承德市,滨河大街98号,颗粒物(PM10),73,96,83,17,43,82,,63,63,6,23,4,14,0.2,0.8
2026-02-14T1600,2314A,117.4698,30.6617,池州市,池州学院,,32,30,55,22,39,102,,61,61,14,20,9,15,1.3,1.3
2026-02-14T1600,3237A,117.4918,30.6617,池州市,展览馆,,32,26,61,19,40,100,,60,60,13,22,6,11,1.1,1.1
2026-02-14T1600,3333A,117.5626,30.695,池州市,第八中学,,33,23,54,17,34,104,,63,63,14,18,6,10,1.0,1.2
2026-02-14T1600,3334A,117.5037,30.6242,池州市,第十二中学,,32,29,53,20,37,101,,60,60,15,24,7,7,0.7,0.9
2026-02-14T1600,1744A,118.9229,42.2816,赤峰市,松山一中,,44,44,47,14,23,77,,73,70,12,17,6,5,0.5,0.7
2026-02-14T1600,1745A,118.9588,42.2733,赤峰市,哈达街,,43,43,49,3,22,75,,73,69,10,17,10,10,0.5,0.7
2026-02-14T1600,1746A,118.8792,42.2551,赤峰市,天义路,,37,37,35,11,19,78,,80,71,4,9,5,5,0.4,0.5
2026-02-14T1600,3058A,119.2656,42.0356,赤峰市,银河街,颗粒物(PM10),62,73,71,11,28,87,,74,74,2,10,7,12,0.3,0.6
2026-02-14T1600,3286A,118.9359,42.3146,赤峰市,桥北物流园区,,34,34,38,13,19,89,,89,83,1,8,4,4,0.3,0.5
2026-02-14T1600,2521A,107.3473,22.4137,崇左市,市环保局江州分局,,34,34,62,18,39,70,,51,51,9,19,7,4,0.6,1.1
2026-02-14T1600,4256A,107.375,22.3736,崇左市,石景林东路7号,,26,24,46,18,33,73,,56,56,7,19,1,2,0.8,1
2026-02-14T1600,3207A,118.31131,32.3033,滁州市,市政府原办公楼,颗粒物(PM10),58,65,84,39,59,129,,84,84,8,28,7,6,0.5,0.7
2026-02-14T1600,3331A,118.3268,32.2633,滁州市,图书馆,颗粒物(PM10),56,61,74,26,42,128,,89,89,9,23,10,9,0.6,0.8
2026-02-14T1600,4101A,118.3196,32.3335,滁州市,银山路666号,细颗粒物(PM2.5),62,70,79,44,63,140,,95,95,7,20,11,8,0.7,0.7
2026-02-14T1600,4102A,118.3426,32.2979,滁州市,黄山路555号,颗粒物(PM10),64,78,94,41,59,135,,91,91,38,33,9,6,0.8,0.7
2026-02-14T1600,2606A,101.5379,25.0492,楚雄彝族自治州,市经济开发区,,30,15,31,6,19,93,,72,72,4,13,2,2,0.3,0.4
2026-02-14T1600,4153A,101.5536,25.0343,楚雄彝族自治州,团结路562号,,29,12,22,3,14,90,,69,69,4,10,3,4,0.4,0.5
2026-02-14T1600,2549A,107.5087,31.2186,达州市,市环境监测站,细颗粒物(PM2.5),64,72,98,46,69,100,,63,63,20,29,7,7,0.5,0.8
2026-02-14T1600,2550A,107.4988,31.2132,达州市,凤凰小区,颗粒物(PM10),53,56,100,35,70,98,,61,61,13,38,5,6,0.3,0.7
2026-02-14T1600,2551A,107.5081,31.1987,达州市,达县机关宾馆,,,61,97,24,66,106,,83,83,19,45,,5,0.7,1
2026-02-14T1600,2552A,107.4644,31.2124,达州市,市政中心,颗粒物(PM10),56,61,107,33,66,111,,64,64,13,48,5,5,0.5,1
2026-02-14T1600,2614A,100.2168,25.5818,大理白族自治州,大理市环境监测站,,30,19,16,11,10,93,,89,89,6,6,7,7,0.4,0.4
2026-02-14T1600,2615A,100.1542,25.7055,大理白族自治州,大理古城,,30,8,18,3,10,95,,80,80,4,8,8,8,0.5,0.5
2026-02-14T1600,1109A,121.6119,38.974,大连市,甘井子,细颗粒物(PM2.5),137,117,115,104,88,98,,111,102,21,18,8,7,0.6,0.6
2026-02-14T1600,1110A,121.565,38.9509,大连市,周水子,细颗粒物(PM2.5),144,130,131,110,106,80,,90,87,15,19,12,9,0.8,0.8
2026-02-14T1600,1111A,121.5637,38.8849,大连市,星海三站,细颗粒物(PM2.5),140,116,115,107,100,91,,95,95,22,14,5,4,0.8,0.8
2026-02-14T1600,1112A,121.6301,38.9117,大连市,青泥洼桥,细颗粒物(PM2.5),147,134,127,112,106,92,,97,94,28,23,8,7,1.1,1.2
2026-02-14T1600,1113A,121.6248,38.8643,大连市,傅家庄,细颗粒物(PM2.5),124,107,116,94,86,108,,101,101,15,16,9,8,0.7,0.7
2026-02-14T1600,1114A,121.5117,38.8636,大连市,七贤岭,,,124,121,,85,101,,101,101,20,17,9,8,1.0,0.9
2026-02-14T1600,1116A,121.7507,39.1339,大连市,金州,细颗粒物(PM2.5),149,115,102,114,79,103,,107,99,18,16,11,10,1.2,0.7
2026-02-14T1600,1117A,121.7811,39.0495,大连市,开发区,细颗粒物(PM2.5),128,114,112,97,81,101,,110,95,21,17,4,4,0.6,0.8
2026-02-14T1600,1118A,121.9762,39.0631,大连市,双D港,细颗粒物(PM2.5),123,97,84,93,64,117,,116,112,20,16,6,5,1.1,1
2026-02-14T1600,4082A,121.2548,38.8188,大连市,旅顺,细颗粒物(PM2.5),137,123,127,104,94,96,,90,90,14,12,10,8,0.9,0.9
2026-02-14T1600,1789A,124.8085,46.0381,大庆市,大同区,细颗粒物(PM2.5),59,66,122,42,85,91,,76,76,9,21,8,11,0.7,1.2
2026-02-14T1600,1790A,125.1166,46.5255,大庆市,龙凤区,颗粒物(PM10),53,56,108,36,85,71,,63,62,17,26,6,9,0.1,0.5
2026-02-14T1600,1791A,124.8894,46.4007,大庆市,红岗区,颗粒物(PM10),53,56,90,35,77,69,,57,57,10,19,6,12,0.7,1
2026-02-14T1600,1792A,125.1391,46.578,大庆市,萨尔图区,,,66,85,32,40,68,,,,14,14,,,0.4,0.5
2026-02-14T1600,1793A,124.9026,46.6217,大庆市,让胡路区,细颗粒物(PM2.5),54,45,84,38,82,57,,52,52,10,25,8,9,0.4,0.8
2026-02-14T1600,3481A,125.127,46.6277,大庆市,萨区政府监测点,,,,114,27,71,78,,73,73,3,13,10,10,0.6,1
2026-02-14T1600,1723A,113.2926,40.0759,大同市,云冈宾馆,颗粒物(PM10),69,87,98,12,42,73,,70,70,6,35,5,11,0.4,1.3
2026-02-14T1600,1724A,113.3437,40.0921,大同市,大同大学,颗粒物(PM10),99,147,92,19,31,76,,72,72,5,23,5,12,0.3,0.8
2026-02-14T1600,1725A,113.2637,40.129,大同市,安家小村,颗粒物(PM10),57,63,78,11,27,52,,62,62,11,21,6,13,0.2,0.8
2026-02-14T1600,3282A,113.3399,40.0586,大同市,大同市卫生学校,颗粒物(PM10),65,79,94,12,37,88,,79,79,10,37,4,10,0.2,0.8
2026-02-14T1600,3565A,113.1371,40.1122,大同市,云冈站,颗粒物(PM10),52,53,71,13,23,76,,71,71,6,20,6,17,0.4,0.5
2026-02-14T1600,3566A,113.1186,40.2556,大同市,图书馆,,46,46,74,9,28,74,,70,70,6,14,5,11,0.5,0.7
2026-02-14T1600,3567A,113.5931,40.0459,大同市,区一中,,41,41,90,13,45,92,,85,85,4,18,6,24,0.2,0.8
2026-02-14T1600,4199A,113.2798248,40.09972476,大同市,魏都大道141号,,,103,121,13,44,74,,70,70,5,36,7,13,,1.5
2026-02-14T1600,2269A,124.1068,50.4091,大兴安岭地区,科技局,,42,42,35,10,12,69,,65,65,3,8,4,9,0.3,0.3
2026-02-14T1600,3663A,124.117,50.4279,大兴安岭地区,红旗社区,,27,7,16,6,12,84,,82,82,2,8,4,8,0.2,0.2
2026-02-14T1600,1600A,124.33,40.0625,丹东市,江湾东路,细颗粒物(PM2.5),99,101,138,74,101,102,,98,98,19,21,7,10,0.9,1.1
2026-02-14T1600,1601A,124.4242,40.1513,丹东市,临江后街,细颗粒物(PM2.5),104,110,162,78,120,101,,96,96,19,23,10,11,1.2,1.6
2026-02-14T1600,1602A,124.3935,40.1461,丹东市,元宝山,细颗粒物(PM2.5),100,113,143,75,101,103,,97,97,22,23,14,12,1.1,1.2
2026-02-14T1600,1603A,124.3634,40.1093,丹东市,民主桥,细颗粒物(PM2.5),109,120,148,82,105,99,,92,92,,24,,13,0.8,1.1
2026-02-14T1600,3541A,109.5726195,19.51688767,儋州市,第一中学子站,,23,19,30,9,15,72,,68,68,2,2,4,4,0.6,0.6
2026-02-14T1600,3542A,109.5567,19.5187,儋州市,东坡学校子站,,25,19,28,10,16,79,,74,74,2,4,4,4,0.5,0.6
2026-02-14T1600,2616A,98.5611,24.4273,德宏傣族景颇族自治州,德宏州监测站,,48,48,52,23,33,120,,70,70,12,26,7,7,0.4,0.6
2026-02-14T1600,3677A,98.5887,24.4366,德宏傣族景颇族自治州,芒市人民政府综合楼,颗粒物(PM10),54,57,54,24,25,116,,68,68,10,14,5,4,0.8,0.9
2026-02-14T1600,1901A,104.424,31.1209,德阳市,东山公园,细颗粒物(PM2.5),82,70,86,60,75,130,,88,88,11,14,4,3,0.6,0.6
2026-02-14T1600,1902A,104.3827,31.1318,德阳市,西小区,细颗粒物(PM2.5),77,87,121,56,95,129,,76,76,15,47,5,4,0.7,1
2026-02-14T1600,1904A,104.3553,31.1091,德阳市,耐火材料厂,,,76,114,65,105,123,,89,89,15,36,,2,0.7,0.9
2026-02-14T1600,4145A,104.4144,31.1495,德阳市,市林业局,细颗粒物(PM2.5),75,86,100,55,81,131,,81,81,6,26,7,5,0.6,0.8
2026-02-14T1600,1622A,116.3034,37.4675,德州市,儿童乐园,细颗粒物(PM2.5),124,156,185,94,108,168,,117,117,19,27,18,19,0.8,1
2026-02-14T1600,1624A,116.2992,37.4449,德州市,监理站,细颗粒物(PM2.5),117,151,184,88,101,168,,118,118,23,32,20,19,0.9,1
2026-02-14T1600,3066A,116.2722,37.438,德州市,九衢泉纯净水厂,细颗粒物(PM2.5),103,132,174,77,104,170,,116,116,35,37,13,14,1.0,1.1
2026-02-14T1600,3371A,116.3693,37.44,德州市,开发区人民医院,细颗粒物(PM2.5),112,153,185,84,106,170,,75,,15,24,18,19,0.9,1
2026-02-14T1600,3511A,116.5687,37.3331,德州市,陵城艺术中心,细颗粒物(PM2.5),94,124,161,70,96,154,,114,114,22,28,17,16,1.1,1.1
2026-02-14T1600,4292A,116.352738,37.420875,德州市,新河东路,细颗粒物(PM2.5),110,141,180,83,105,162,,110,110,15,26,20,21,0.8,1.2
2026-02-14T1600,2621A,99.7054,27.8319,迪庆藏族自治州,迪庆州站,,29,14,25,6,13,92,,77,77,5,9,5,5,0.6,0.7
2026-02-14T1600,3180A,99.7122,27.8129,迪庆藏族自治州,质量技术监督局,,30,16,24,9,13,93,,74,74,5,11,5,4,0.4,0.6
2026-02-14T1600,4257A,104.6092,35.5962,定西市,将台街,颗粒物(PM10),68,86,72,24,42,93,,62,62,5,22,9,16,0.6,0.9
2026-02-14T1600,4309A,104.6159,35.5701,定西市,正龙路62号,颗粒物(PM10),69,87,77,28,38,77,,50,50,5,12,6,15,0.5,1
2026-02-14T1600,1390A,113.7943,23.0132,东莞市,东城石井,臭氧1小时(O3_1h),63,20,39,10,24,170,,125,125,12,21,5,4,0.7,0.6
2026-02-14T1600,1391A,113.7384,22.9659,东莞市,南城西平,,41,7,36,3,24,130,,113,113,13,27,7,7,0.4,0.5
2026-02-14T1600,3319A,113.7283,23.041,东莞市,万江金泰,,48,13,51,12,28,151,,120,120,11,25,6,6,0.6,0.7
2026-02-14T1600,4129A,113.8666,23.1062,东莞市,裕兴路,,45,19,49,8,28,142,,111,111,9,20,6,6,0.6,0.8
2026-02-14T1600,4130A,114.0076,22.9739,东莞市,教育路1号,,40,12,41,3,23,126,,109,109,8,20,4,4,0.4,0.6
2026-02-14T1600,4131A,113.7981,22.8124,东莞市,长怡路1号,,31,8,38,3,20,97,,108,108,10,20,8,7,0.4,0.5
2026-02-14T1600,1666A,118.6612,37.4313,东营市,市环保局,细颗粒物(PM2.5),99,132,156,74,102,171,,128,128,25,35,18,25,1.0,1.2
2026-02-14T1600,3036A,118.6903,37.4337,东营市,开发区管委会,细颗粒物(PM2.5),95,127,152,71,94,166,,130,130,23,35,17,21,0.9,1.1
2026-02-14T1600,3365A,118.5721,37.5654,东营市,垦利区民丰路,细颗粒物(PM2.5),115,127,152,87,95,183,,130,130,25,39,14,16,1.0,1.1
2026-02-14T1600,3498A,118.5063,37.8606,东营市,河口城区,细颗粒物(PM2.5),109,153,174,82,102,182,,132,132,22,34,13,13,1.1,1.3
2026-02-14T1600,3646A,118.4979,37.4623,东营市,胜利站,细颗粒物(PM2.5),87,114,153,64,94,160,,107,107,28,39,13,17,1.1,1.4
2026-02-14T1600,3734A,118.5753,37.4405,东营市,理想之城,细颗粒物(PM2.5),98,129,155,73,92,177,,124,124,29,36,14,15,1.0,1.2
2026-02-14T1600,1591A,110.0024,39.8127,鄂尔多斯市,综合楼,颗粒物(PM10),178,305,96,12,18,84,,74,74,6,17,7,10,0.2,0.4
2026-02-14T1600,1592A,109.9485,39.8259,鄂尔多斯市,巴音孟克林场办事处,颗粒物(PM10),158,266,87,17,21,88,,76,76,6,14,6,8,0.2,0.4
2026-02-14T1600,1593A,109.7734,39.5987,鄂尔多斯市,康泽苑,颗粒物(PM10),126,202,81,13,21,95,,80,80,6,16,8,8,0.5,0.4
2026-02-14T1600,1594A,109.8121,39.5987,鄂尔多斯市,华泰汽车城,颗粒物(PM10),124,197,75,24,20,96,,78,78,6,17,10,10,0.5,0.5
2026-02-14T1600,1595A,109.9734,39.7884,鄂尔多斯市,奥林花园,颗粒物(PM10),153,256,91,14,16,87,,76,76,9,25,5,8,0.3,0.4
2026-02-14T1600,2436A,114.894,30.3989,鄂州市,市政府,细颗粒物(PM2.5),64,64,115,46,86,118,,63,63,15,47,18,17,1.1,1.2
2026-02-14T1600,2437A,114.8986,30.3714,鄂州市,赵家坝,细颗粒物(PM2.5),72,64,106,52,75,139,,78,78,8,29,29,12,1.4,1.4
2026-02-14T1600,3654A,114.8093,30.4091,鄂州市,精准医疗中心,,44,44,101,30,73,97,,69,69,4,33,22,20,0.8,1.2
2026-02-14T1600,2454A,109.4978,30.2979,恩施土家族苗族自治州,湖北民院,细颗粒物(PM2.5),68,61,75,49,61,113,,66,66,11,14,7,6,0.8,1
2026-02-14T1600,3549A,109.5061,30.3771,恩施土家族苗族自治州,龙凤新区,,46,46,69,26,49,103,,67,67,6,10,7,7,0.6,0.7
2026-02-14T1600,2499A,108.3411,21.6159,防城港市,沙万,颗粒物(PM10),53,55,58,22,32,86,,61,61,16,21,8,6,0.5,0.6
2026-02-14T1600,2500A,108.3515,21.7733,防城港市,防城档案局,,49,49,53,22,36,105,,63,63,6,10,6,5,0.8,0.7
2026-02-14T1600,2501A,108.3506,21.6414,防城港市,大海花园,颗粒物(PM10),53,55,47,23,35,98,,70,70,11,17,8,7,0.6,0.7
2026-02-14T1600,1371A,113.1293,23.0065,佛山市,湾梁,,48,29,39,13,21,153,,120,120,7,14,/,/,/,/
2026-02-14T1600,1372A,113.1082,23.0477,佛山市,华材职中,,48,36,40,23,25,153,,121,121,14,17,8,6,0.3,0.4
2026-02-14T1600,1373A,113.1439,23.045,佛山市,南海气象局,臭氧1小时(O3_1h),54,37,39,18,25,163,,121,121,9,17,/,/,/,/
2026-02-14T1600,1374A,113.2879,22.8094,佛山市,顺德苏岗,,44,36,45,12,22,140,,106,106,12,17,/,/,0.6,0.7
2026-02-14T1600,1376A,112.8384,22.8678,佛山市,高明孔堂,,47,30,35,21,20,148,,106,106,8,11,/,/,/,/
2026-02-14T1600,1377A,112.8835,23.1584,佛山市,三水监测站,,40,29,44,15,29,127,,102,102,6,24,2,2,0.4,0.5
2026-02-14T1600,1378A,112.8668,23.185,佛山市,三水云东海,,45,40,41,16,24,142,,109,109,12,24,/,/,/,/
2026-02-14T1600,3625A,113.2568,22.7629,佛山市,容桂街道办,,39,24,34,11,21,122,,101,101,8,12,/,/,/,/
2026-02-14T1600,1282A,119.2681,26.0506,福州市,师大,,47,47,44,21,28,119,,95,95,15,18,4,4,0.5,0.6
2026-02-14T1600,1283A,119.2983,26.1028,福州市,五四北路,,37,35,42,19,33,118,,96,96,14,21,5,5,0.5,0.7
2026-02-14T1600,1284A,119.2648,26.0769,福州市,杨桥西路,,36,34,41,18,27,115,,97,97,12,18,4,4,/,/
2026-02-14T1600,3048A,119.5799,26.0937,福州市,九龙,细颗粒物(PM2.5),60,56,39,43,30,152,,102,102,17,17,7,5,0.7,0.7
2026-02-14T1600,3526A,119.5188,25.9666,福州市,吴航,,46,45,48,31,31,145,,108,108,21,20,7,5,0.7,0.7
2026-02-14T1600,4104A,119.3106,26.0648,福州市,路通桥巷6号,颗粒物(PM10),52,54,48,24,33,112,,89,89,16,21,/,/,/,/
2026-02-14T1600,1755A,123.7974,41.8494,抚顺市,望花区,颗粒物(PM10),68,85,137,20,83,80,,106,93,12,27,12,23,0.5,1.4
2026-02-14T1600,1756A,123.9161,41.8827,抚顺市,顺城区,颗粒物(PM10),62,74,125,27,94,86,,87,87,13,41,10,14,0.5,1.2
2026-02-14T1600,1757A,124.0437,41.8615,抚顺市,东洲区,颗粒物(PM10),77,104,128,39,77,84,,110,99,14,20,10,20,0.6,1
2026-02-14T1600,1758A,123.9246,41.8638,抚顺市,新抚区,颗粒物(PM10),71,91,141,32,85,89,,102,102,14,32,8,11,0.4,1
2026-02-14T1600,1759A,124.0972,41.8961,抚顺市,大伙房水库,颗粒物(PM10),68,86,115,46,76,92,,122,108,11,15,11,12,0.7,1
2026-02-14T1600,1760A,123.708,41.8386,抚顺市,沈抚新城,颗粒物(PM10),70,90,125,7,77,79,,110,94,8,22,7,12,0.4,1.1
2026-02-14T1600,2377A,116.3544,27.9833,抚州市,市站,,40,33,45,28,40,76,,49,49,8,14,6,6,1.0,1.3
2026-02-14T1600,2378A,116.3562,27.9631,抚州市,血防站,,39,33,44,27,36,66,,40,40,1,9,6,6,1.3,1.5
2026-02-14T1600,2379A,116.3561,28.0007,抚州市,采茶剧团,,40,40,48,20,42,67,,42,42,3,8,4,4,1.2,1.5
2026-02-14T1600,2380A,116.3854,27.9648,抚州市,医学分院,,48,34,43,33,31,65,,40,40,2,11,5,5,1.3,1.4
2026-02-14T1600,2207A,121.6095,41.9978,阜新市,工业园区,颗粒物(PM10),55,59,132,3,100,78,,83,74,10,22,8,14,0.3,1
2026-02-14T1600,2208A,121.6567,42.0188,阜新市,长青街,,43,43,120,3,103,83,,83,78,11,26,7,14,0.4,1.1
2026-02-14T1600,2209A,121.6672,42.07,阜新市,农业园区,,46,46,139,3,88,75,,78,72,11,24,6,14,0.1,0.8
2026-02-14T1600,2211A,121.6343,42.0455,阜新市,玉龙新城,颗粒物(PM10),52,53,131,3,89,81,,78,77,12,26,11,16,0.3,1
2026-02-14T1600,2301A,115.8276,32.8929,阜阳市,市监测站,颗粒物(PM10),66,81,92,35,46,117,,94,94,10,19,6,6,0.6,0.8
2026-02-14T1600,2303A,115.8551,32.8606,阜阳市,开发区,颗粒物(PM10),53,56,92,33,54,117,,93,93,4,16,7,6,0.5,0.6
2026-02-14T1600,2875A,115.783962,32.889217,阜阳市,阜阳职业技术学院,颗粒物(PM10),56,61,83,32,45,124,,100,100,10,18,7,7,0.7,0.8
2026-02-14T1600,3468A,115.79,32.8614,阜阳市,市规划展馆,颗粒物(PM10),55,59,87,33,47,126,,99,99,6,11,7,7,0.7,0.8
2026-02-14T1600,3469A,115.835101,32.918568,阜阳市,枣园社区,颗粒物(PM10),58,65,85,34,43,118,,95,95,11,23,7,8,0.6,0.6
2026-02-14T1600,2669A,102.9097,34.9841,甘南藏族自治州,州政府,,25,13,38,3,23,80,,58,58,1,19,7,10,0.2,0.7
2026-02-14T1600,3380A,102.8915,34.9618,甘南藏族自治州,甘肃民族师范学院,,27,11,31,3,12,85,,62,62,4,17,7,10,0.3,0.4
2026-02-14T1600,2570A,101.96,30.048,甘孜藏族自治州,水桥子,,23,6,10,3,4,73,,58,58,5,10,7,6,0.3,0.3
2026-02-14T1600,3065A,101.9534,29.9976,甘孜藏族自治州,州环保局,,27,6,7,3,4,86,,78,78,5,5,6,6,0.2,0.2
2026-02-14T1600,2363A,114.9368,25.8663,赣州市,地委,,37,27,49,17,35,116,,90,90,8,25,7,8,0.8,1
2026-02-14T1600,2364A,114.946,25.8483,赣州市,气象台,,37,21,51,18,34,116,,87,87,8,27,6,5,0.4,0.5
2026-02-14T1600,2365A,114.932,25.8332,赣州市,市图书馆,,31,24,47,12,31,98,,75,75,4,25,4,4,0.8,1
2026-02-14T1600,2366A,114.8905,25.8472,赣州市,华坚鞋城,,31,23,44,16,30,99,,78,78,12,23,5,6,0.3,0.5
2026-02-14T1600,3109A,115.0094,25.8614,赣州市,赣县区卫计委,,37,27,48,20,33,116,,90,90,5,27,7,8,0.6,0.8
2026-02-14T1600,2684A,106.2753,36.0057,固原市,监测站,颗粒物(PM10),114,177,133,43,37,101,,82,82,7,14,11,9,0.5,0.5
2026-02-14T1600,2685A,106.2384,36.0189,固原市,新区,颗粒物(PM10),111,172,118,42,30,101,,81,81,8,16,9,6,0.4,0.4
2026-02-14T1600,2544A,106.6307,30.4577,广安市,市委,,50,50,98,29,77,122,,83,83,12,39,7,6,0.7,1.2
2026-02-14T1600,2545A,106.6266,30.4662,广安市,友谊中学,颗粒物(PM10),53,56,88,24,63,122,,78,78,10,27,8,9,0.7,1
2026-02-14T1600,2547A,106.6386,30.4551,广安市,广电花园,颗粒物(PM10),51,51,83,31,77,115,,81,81,10,32,7,6,0.5,1
2026-02-14T1600,2902A,106.6347,30.4868,广安市,北辰小学,颗粒物(PM10),52,54,86,35,74,124,,74,74,8,19,13,11,0.7,0.9
2026-02-14T1600,2524A,105.8211,32.4444,广元市,老城,细颗粒物(PM2.5),75,56,85,55,54,126,,69,69,14,35,15,11,0.7,0.7
2026-02-14T1600,2526A,105.8629,32.429,广元市,监测站,细颗粒物(PM2.5),74,64,69,54,52,116,,63,63,14,20,13,12,0.4,0.6
2026-02-14T1600,3617A,105.8047,32.4167,广元市,经开区,细颗粒物(PM2.5),94,92,91,70,65,117,,62,62,17,27,22,17,1.0,0.9
2026-02-14T1600,1345A,113.2346,23.1423,广州市,广雅中学,,47,30,42,15,25,149,,109,109,8,21,3,3,0.7,0.7
2026-02-14T1600,1346A,113.2611,23.105,广州市,市五中,臭氧1小时(O3_1h),78,31,44,17,24,182,,135,135,9,22,7,7,/,/
2026-02-14T1600,1348A,113.3477,23.0916,广州市,广东商学院,,49,22,38,14,27,156,,115,115,6,20,6,5,0.7,0.8
2026-02-14T1600,1349A,113.4332,23.105,广州市,市八十六中,臭氧1小时(O3_1h),52,17,36,12,22,161,,126,126,23,44,4,5,/,/
2026-02-14T1600,1350A,113.3506,22.9488,广州市,番禺中学,,44,18,57,13,23,138,,109,109,8,17,4,4,0.5,0.7
2026-02-14T1600,1351A,113.2147,23.3918,广州市,花都师范,,48,26,54,20,34,153,,110,110,11,38,6,6,0.6,0.8
2026-02-14T1600,1352A,113.2599,23.1329,广州市,市监测站,,48,30,44,16,25,151,,115,115,9,25,2,2,/,/
2026-02-14T1600,1353A,113.5618,23.3119,广州市,九龙镇镇龙,,36,36,50,23,32,110,,69,69,11,22,6,5,0.5,0.6
2026-02-14T1600,1354A,113.2764,23.1544,广州市,麓湖,,50,33,40,19,24,158,,117,117,10,35,4,4,0.4,0.5
2026-02-14T1600,2846A,113.3209,23.1323,广州市,体育西,,50,28,46,16,27,160,,116,116,12,35,6,6,0.7,0.9
2026-02-14T1600,3298A,113.5718,23.5493,广州市,从化街口,,45,30,50,19,33,143,,106,106,11,22,7,7,0.5,0.7
2026-02-14T1600,3299A,113.3463,23.369,广州市,白云竹料,臭氧1小时(O3_1h),57,29,53,17,35,165,,114,114,12,25,4,4,0.5,0.7
2026-02-14T1600,3300A,113.2981,23.2365,广州市,白云嘉禾,臭氧1小时(O3_1h),77,26,45,14,26,181,,134,134,13,29,6,5,/,/
2026-02-14T1600,3301A,113.4256,23.1716,广州市,黄埔科学城,臭氧1小时(O3_1h),72,19,42,13,29,177,,129,129,11,23,5,5,0.5,0.6
2026-02-14T1600,3302A,113.3942,23.0485,广州市,番禺大学城,,50,29,59,7,27,159,,116,116,7,20,8,8,0.5,0.6
2026-02-14T1600,3303A,113.4923,22.8169,广州市,南沙黄阁,,32,16,34,6,22,102,,91,91,11,17,5,6,/,/
2026-02-14T1600,3304A,113.534,22.7893,广州市,南沙街,,35,15,36,3,21,109,,95,95,7,15,4,5,0.4,0.5
2026-02-14T1600,3443A,113.2905,23.5541,广州市,花都梯面,,36,28,36,17,25,115,,90,90,7,18,5,4,/,/
2026-02-14T1600,3445A,113.786,23.7479,广州市,从化良口,,38,35,27,26,19,120,,94,94,6,8,8,8,/,/
2026-02-14T1600,3446A,113.805,23.2614,广州市,增城荔城,,50,26,43,18,28,159,,118,118,11,18,6,6,0.4,0.6
2026-02-14T1600,2506A,109.604387,23.066791,贵港市,江南子站,,41,41,99,24,72,113,,76,76,4,27,6,6,0.5,1
2026-02-14T1600,2508A,109.5669,23.1065,贵港市,荷城子站,,41,41,88,26,65,96,,68,68,10,34,6,7,0.6,1.1
2026-02-14T1600,3405A,109.5886,23.1172,贵港市,新世纪学校,,43,41,93,30,79,108,,76,76,12,42,/,/,0.5,1.1
2026-02-14T1600,4260A,109.5933,23.095,贵港市,中山路155-3号,,42,41,117,29,98,109,,74,74,6,30,/,/,0.5,1.3
2026-02-14T1600,1439A,106.6863,26.6035,贵阳市,马鞍山,,32,29,42,22,32,83,,51,51,9,17,8,7,/,/
2026-02-14T1600,1441A,106.6241,26.6266,贵阳市,鉴湖路,,39,39,47,19,30,88,,62,62,10,16,9,9,0.7,0.6
2026-02-14T1600,1442A,106.7468,26.6344,贵阳市,燕子冲,,31,31,47,15,34,90,,56,56,14,21,9,9,0.3,0.6
2026-02-14T1600,1443A,106.6556,26.4362,贵阳市,碧云窝,,34,34,55,19,34,82,,55,55,9,13,16,14,/,/
2026-02-14T1600,1445A,106.6963,26.6063,贵阳市,红边门,,30,24,57,21,46,85,,52,52,11,37,8,28,/,/
2026-02-14T1600,1446A,106.7162383,26.56964667,贵阳市,新华路,,41,41,63,22,41,85,,57,57,12,38,24,17,0.5,0.8
2026-02-14T1600,1447A,106.6742,26.542,贵阳市,太慈桥,,28,24,45,19,35,68,,43,43,11,20,4,4,/,/
2026-02-14T1600,4230A,106.688212,26.56952,贵阳市,花果园大街66号,,29,,49,20,42,69,,40,40,10,32,5,9,/,/
2026-02-14T1600,4231A,106.687268,26.516892,贵阳市,漓江路57号,,31,31,56,21,39,83,,52,52,9,23,8,16,0.6,0.8
2026-02-14T1600,1864A,110.3091,25.2705,桂林市,龙隐路小学,细颗粒物(PM2.5),63,63,48,45,38,40,,19,19,19,22,4,3,1.0,1.3
2026-02-14T1600,1865A,110.2849361,25.22909545,桂林市,八中,细颗粒物(PM2.5),53,54,46,37,34,32,,15,15,29,25,5,4,1.1,1.2
2026-02-14T1600,3531A,110.296,25.1254,桂林市,旅游学院,细颗粒物(PM2.5),64,61,44,46,36,43,,20,20,16,18,6,5,1.0,1.1
2026-02-14T1600,4222A,110.1835,25.2444,桂林市,环湖路276号,细颗粒物(PM2.5),59,63,44,42,39,36,,20,20,24,26,4,4,1.2,1.3
2026-02-14T1600,4301A,110.2803,25.2773,桂林市,信义路13号,细颗粒物(PM2.5),65,57,50,47,38,44,,20,20,23,25,7,6,1.5,1.7
2026-02-14T1600,2674A,100.2262,34.4854,果洛藏族自治州,玛沁县大武镇,,38,,25,26,11,92,,72,72,2,2,8,16,0.3,0.4
2026-02-14T1600,1130A,126.5557,45.8109,哈尔滨市,松北商大,细颗粒物(PM2.5),150,137,123,115,97,73,,74,74,26,42,10,12,1.0,1.2
2026-02-14T1600,1132A,126.6162,45.719,哈尔滨市,南岗学府路,细颗粒物(PM2.5),142,165,131,108,89,90,,83,79,17,31,8,13,1.1,1.2
2026-02-14T1600,1133A,126.6894,45.7733,哈尔滨市,太平宏伟公园,细颗粒物(PM2.5),166,153,128,126,98,88,,88,88,5,17,8,13,1.1,1.2
2026-02-14T1600,1134A,126.6361,45.7672,哈尔滨市,道外承德广场,细颗粒物(PM2.5),152,180,144,116,94,79,,83,76,19,37,10,14,1.1,1.3
2026-02-14T1600,1136A,126.644,45.7261,哈尔滨市,动力和平路,细颗粒物(PM2.5),155,167,125,118,91,77,,84,77,23,36,12,14,1.0,1.1
2026-02-14T1600,1137A,126.5933,45.7479,哈尔滨市,道里建国路,细颗粒物(PM2.5),155,147,118,118,94,80,,80,75,23,45,8,14,0.6,2.1
2026-02-14T1600,1138A,126.6127,45.6119,哈尔滨市,平房东轻厂,细颗粒物(PM2.5),144,137,115,110,92,81,,98,84,16,19,8,11,0.9,1
2026-02-14T1600,1139A,126.5875,45.9827,哈尔滨市,呼兰师专,细颗粒物(PM2.5),142,133,124,108,98,72,,68,68,17,27,14,16,1.1,1.2
2026-02-14T1600,1140A,126.6299,45.6799,哈尔滨市,省农科院,细颗粒物(PM2.5),166,186,142,126,98,74,,75,75,17,32,,17,1.1,1.1
2026-02-14T1600,4282A,126.6769,45.7379,哈尔滨市,华山路1号,细颗粒物(PM2.5),147,151,132,112,96,78,,,,23,43,1,9,1.2,1.3
2026-02-14T1600,4283A,126.9717,45.5356,哈尔滨市,解放大街52号,细颗粒物(PM2.5),138,152,95,105,89,70,,102,89,19,25,17,18,1.0,1.1
2026-02-14T1600,2688A,93.5124,42.8176,哈密市,地区监测站,,,84,99,55,50,81,,68,68,6,14,5,7,,0.3
2026-02-14T1600,2689A,93.5014,42.8312,哈密市,哈密师范学校,颗粒物(PM10),61,71,106,21,35,90,,69,69,7,21,4,7,0.3,0.5
2026-02-14T1600,2671A,100.9016,36.9464,海北藏族自治州,海晏县西海镇,,26,22,17,12,8,81,,74,74,1,2,8,8,0.4,0.4
2026-02-14T1600,3867A,102.074,36.5056,海东市,平安区公安局北苑,颗粒物(PM10),55,59,44,25,24,78,,46,46,8,18,27,18,0.7,1.1
2026-02-14T1600,4163A,102.0984,36.5119,海东市,滨河路,颗粒物(PM10),66,82,45,37,26,92,,56,56,14,30,29,16,0.6,0.8
2026-02-14T1600,1410A,110.3189,20.0596,海口市,海南大学,,31,20,34,10,17,99,,99,99,3,4,6,5,0.4,0.4
2026-02-14T1600,1411A,110.2827,20.0051,海口市,秀英海南医院,,30,25,34,11,16,93,,93,93,4,5,7,7,0.3,0.3
2026-02-14T1600,1412A,110.3391,19.9979,海口市,海南师范大学,,32,24,34,11,18,100,,99,99,5,6,5,5,0.4,0.5
2026-02-14T1600,1413A,110.3303,20.0359,海口市,龙华路环保局宿舍,,32,26,36,13,19,102,,102,102,5,6,/,/,0.7,0.7
2026-02-14T1600,3539A,110.5111,19.9737,海口市,桂林洋子站,,28,16,33,9,17,88,,91,91,3,4,/,/,/,/
2026-02-14T1600,4134A,110.1952,20.0451,海口市,长滨二路9号,,31,20,30,11,17,98,,97,97,4,6,/,/,/,/
2026-02-14T1600,2673A,100.6158,36.2985,海南藏族自治州,共和县恰卜恰镇,,30,26,33,7,18,96,,68,68,1,15,13,10,0.4,0.5
2026-02-14T1600,2676A,97.373,37.376,海西蒙古族藏族自治州,德令哈市,,30,20,26,7,8,96,,93,90,2,3,16,19,0.3,0.4
2026-02-14T1600,1049A,114.492,36.5712,邯郸市,矿院,细颗粒物(PM2.5),170,159,161,129,126,175,,112,112,21,31,18,11,1.6,1.3
2026-02-14T1600,1050A,114.4839,36.6136,邯郸市,丛台公园,细颗粒物(PM2.5),185,182,161,139,119,181,,114,114,29,36,21,15,1.6,1.4
2026-02-14T1600,3458A,114.7893,36.5592,邯郸市,香泉濮院小区,细颗粒物(PM2.5),137,172,202,104,118,177,,121,121,16,20,12,12,1.1,1.2
2026-02-14T1600,3580A,114.1998,36.4439,邯郸市,峰峰矿区临水派出所,细颗粒物(PM2.5),84,98,93,62,53,172,,125,125,16,11,20,13,1.5,1.1
2026-02-14T1600,4068A,114.5209,36.7697,邯郸市,建安街268号,细颗粒物(PM2.5),175,174,156,132,113,175,,101,101,26,37,25,13,1.6,1.2
2026-02-14T1600,4069A,114.5488,36.6177,邯郸市,丛台东路558号,细颗粒物(PM2.5),199,172,183,149,145,187,,118,118,18,31,18,13,1.5,1.3
2026-02-14T1600,2635A,107.0155,33.0707,汉中市,市监测站,细颗粒物(PM2.5),67,78,103,48,74,125,,69,69,15,31,6,6,0.8,1.3
2026-02-14T1600,2636A,107.0083,33.114,汉中市,鑫源开发区,细颗粒物(PM2.5),67,74,89,48,68,107,,62,62,12,27,5,5,0.7,1.1
2026-02-14T1600,2637A,107.0072,33.0323,汉中市,南郑大河坎水厂,细颗粒物(PM2.5),65,75,97,47,67,121,,67,67,14,24,6,6,0.7,1.1
2026-02-14T1600,1223A,120.2073,30.2111,杭州市,滨江,,30,24,71,21,50,75,,45,45,9,28,7,7,0.6,0.8
2026-02-14T1600,1224A,120.0625,30.2737,杭州市,西溪,,36,36,60,16,33,75,,46,46,6,18,9,8,1.2,1.2
2026-02-14T1600,1226A,120.3417,30.315,杭州市,下沙,,36,36,81,15,46,83,,53,53,5,23,10,9,0.5,0.6
2026-02-14T1600,1227A,120.1252,30.2465,杭州市,卧龙桥,,34,34,57,22,37,76,,47,47,10,19,8,8,0.5,0.6
2026-02-14T1600,1228A,120.1902,30.2691,杭州市,浙江农大,,27,19,59,18,40,84,,52,52,8,29,6,6,0.8,0.9
2026-02-14T1600,1230A,120.1195,30.3121,杭州市,和睦小学,,35,35,59,24,38,80,,52,52,6,21,6,5,0.7,0.8
2026-02-14T1600,1231A,120.3076,30.4146,杭州市,临平镇,,27,20,66,14,45,86,,60,60,4,25,6,6,0.7,0.8
2026-02-14T1600,1232A,120.2753,30.1839,杭州市,城厢镇,,48,48,83,14,54,80,,47,47,6,26,8,8,0.7,0.9
2026-02-14T1600,1233A,120.0883,30.1808,杭州市,云栖,,28,28,56,9,33,58,,39,39,12,27,5,5,0.6,0.7
2026-02-14T1600,3557A,119.9463,30.0496,杭州市,镇二中,,24,14,67,9,51,74,,50,50,6,29,5,5,0.8,1
2026-02-14T1600,3558A,119.7184,30.2367,杭州市,市府大楼,,23,22,57,13,42,72,,46,46,6,19,10,11,0.5,0.8
2026-02-14T1600,3656A,120.1554,30.2863,杭州市,消防大队,,44,44,76,25,45,71,,44,44,8,24,6,7,0.9,0.9
2026-02-14T1600,1270A,117.1957,31.7845,合肥市,明珠广场,颗粒物(PM10),53,56,83,29,50,115,,83,83,10,24,7,7,0.6,0.8
2026-02-14T1600,1271A,117.307,31.8765,合肥市,三里街,,48,48,84,18,56,107,,68,68,12,32,6,6,0.7,1
2026-02-14T1600,1272A,117.2587,31.8703,合肥市,琥珀山庄,颗粒物(PM10),54,58,81,25,50,114,,82,82,11,37,7,7,0.7,1
2026-02-14T1600,1275A,117.2593,31.9376,合肥市,庐阳区,颗粒物(PM10),54,58,87,25,49,115,,83,83,12,28,12,11,0.7,0.9
2026-02-14T1600,1276A,117.345251,31.861615,合肥市,瑶海区,颗粒物(PM10),52,53,77,19,47,116,,77,77,14,30,6,6,0.5,0.6
2026-02-14T1600,1277A,117.3033,31.7967,合肥市,包河区,颗粒物(PM10),53,56,79,24,47,112,,81,81,4,24,10,10,0.9,1
2026-02-14T1600,1278A,117.278,31.7392,合肥市,滨湖新区,细颗粒物(PM2.5),60,61,81,43,52,109,,74,74,6,20,4,4,0.7,0.8
2026-02-14T1600,1279A,117.1324,31.8395,合肥市,高新区,颗粒物(PM10),56,61,84,28,52,117,,92,92,4,13,5,5,0.7,0.7
2026-02-14T1600,3464A,117.3802,31.9148,合肥市,高教基地,颗粒物(PM10),51,51,70,20,43,125,,88,88,11,19,8,8,0.6,0.7
2026-02-14T1600,4098A,117.2518,31.8404,合肥市,中国科学技术大学,,48,48,82,18,50,122,,87,87,5,23,8,8,0.7,1
2026-02-14T1600,3614A,79.9241,37.0878,和田地区,地区环保局,颗粒物(PM10),213,359,373,100,101,95,,63,63,11,25,1,4,1.6,2.1
2026-02-14T1600,3615A,79.9132,37.1137,和田地区,市环保局,颗粒物(PM10),206,354,396,93,114,121,,66,66,11,43,1,4,0.7,1.4
2026-02-14T1600,2517A,108.0496,24.6957,河池市,市环保站,,32,32,26,18,13,25,,14,14,16,12,2,2,1.1,1.1
2026-02-14T1600,4302A,108.0901,24.6945,河池市,上任中路54号,,32,32,26,13,11,19,,9,9,14,16,4,4,0.9,1
2026-02-14T1600,1697A,114.6962,23.7538,河源市,东埔,,36,15,40,14,30,115,,105,105,6,20,6,6,0.5,0.8
2026-02-14T1600,1698A,114.6895,23.7232,河源市,老城,,35,17,38,12,25,111,,105,105,4,11,6,6,0.4,0.6
2026-02-14T1600,3374A,115.5562,35.089,菏泽市,定陶老年大学,细颗粒物(PM2.5),82,105,154,60,99,145,,107,107,18,22,5,7,0.6,0.8
2026-02-14T1600,4114A,115.4239,35.2593,菏泽市,黄河路600号,细颗粒物(PM2.5),97,120,166,72,104,138,,100,100,13,19,7,9,0.6,0.7
2026-02-14T1600,4115A,115.5025,35.2727,菏泽市,菏泽市人社局,细颗粒物(PM2.5),89,106,152,66,91,138,,103,103,20,24,6,10,0.7,0.8
2026-02-14T1600,4184A,115.479691,35.244011,菏泽市,永昌路1号,细颗粒物(PM2.5),92,114,156,68,98,153,,114,114,13,17,5,8,0.6,0.7
2026-02-14T1600,4193A,115.471542,35.280012,菏泽市,长城路999号,细颗粒物(PM2.5),97,117,154,72,94,150,,109,109,13,17,12,10,0.8,0.9
2026-02-14T1600,2514A,111.5264,24.4178,贺州市,环保小区,,33,33,66,18,47,83,,55,55,11,20,4,4,0,0.6
2026-02-14T1600,2515A,111.561,24.4074,贺州市,政协大楼,,29,29,54,18,42,86,,57,57,2,13,4,4,0.2,0.7
2026-02-14T1600,3534A,111.4744,24.455,贺州市,西湾,,38,38,75,21,41,89,,57,57,8,19,4,5,0.7,1
2026-02-14T1600,2385A,114.17,35.9019,鹤壁市,市监测站,颗粒物(PM10),69,88,126,47,79,147,,100,100,44,38,3,8,1.0,1.1
2026-02-14T1600,2386A,114.2953,35.7512,鹤壁市,市交警支队,颗粒物(PM10),73,95,161,37,102,133,,96,96,16,33,12,11,0.7,1.1
2026-02-14T1600,2387A,114.2877,35.7302,鹤壁市,迎宾馆,颗粒物(PM10),74,98,161,46,97,138,,100,100,16,28,9,13,0.8,1.2
2026-02-14T1600,3474A,114.2616,35.6824,鹤壁市,大新区,颗粒物(PM10),83,115,170,41,102,136,,100,100,16,36,12,16,0.9,1.4
2026-02-14T1600,3596A,114.1573,35.9607,鹤壁市,南山宾馆,细颗粒物(PM2.5),95,117,145,71,86,155,,115,115,13,15,19,20,0.9,1
2026-02-14T1600,2244A,130.2537,47.3416,鹤岗市,哈啤分公司,,28,26,41,13,37,89,,94,91,6,15,8,9,0.2,0.4
2026-02-14T1600,2245A,130.2683,47.3087,鹤岗市,斯达机电,,50,50,48,13,31,79,,79,79,11,18,7,8,0.5,0.6
2026-02-14T1600,2246A,130.3114,47.3388,鹤岗市,东山纸板厂,,32,32,66,12,38,78,,79,79,9,29,10,13,0.9,1.3
2026-02-14T1600,2263A,127.4832,50.2524,黑河市,交通局,,24,21,42,13,22,76,,74,74,10,21,6,7,0.3,0.4
2026-02-14T1600,2264A,127.5146,50.2339,黑河市,环保局,,22,22,39,12,25,70,,66,66,17,24,7,11,0.7,0.6
2026-02-14T1600,1074A,115.6839,37.754,衡水市,电机北厂,细颗粒物(PM2.5),152,172,196,116,118,174,,121,121,23,27,17,11,1.2,1
2026-02-14T1600,1075A,115.6303,37.7318,衡水市,市监测站,细颗粒物(PM2.5),142,162,186,108,110,174,,120,120,25,28,22,14,1.2,1
2026-02-14T1600,3188A,115.6684,37.7216,衡水市,市城管局,细颗粒物(PM2.5),135,172,192,103,106,168,,117,117,21,23,25,18,1.3,1.1
2026-02-14T1600,3459A,115.599,37.5491,衡水市,地表水厂,细颗粒物(PM2.5),137,162,195,104,130,169,,115,115,11,32,15,14,0.9,0.9
2026-02-14T1600,2457A,112.6209,26.9268,衡阳市,衡阳化工总厂,颗粒物(PM10),51,51,71,24,56,92,,48,48,8,23,12,12,1.2,1.8
2026-02-14T1600,2458A,112.621,26.8957,衡阳市,珠晖区环保局,,40,40,63,26,51,82,,44,44,10,24,8,7,1.6,2
2026-02-14T1600,2459A,112.628,26.8654,衡阳市,市委党校,颗粒物(PM10),54,57,59,24,50,83,,44,44,5,17,8,9,1.0,1.6
2026-02-14T1600,2460A,112.6007,26.8977,衡阳市,市监测站,细颗粒物(PM2.5),58,45,65,41,55,90,,44,44,16,25,13,8,1.5,1.8
2026-02-14T1600,2461A,112.5658,26.9013,衡阳市,真空机电公司,细颗粒物(PM2.5),52,50,57,36,51,94,,45,45,13,26,11,9,1.9,1.9
2026-02-14T1600,3399A,112.6703,26.8817,衡阳市,师范学院,,43,43,61,28,45,90,,53,53,10,22,4,4,1.1,1.5
2026-02-14T1600,3038A,103.3757,23.3679,红河哈尼族彝族自治州,州图书馆,,32,20,25,17,21,102,,84,84,3,4,3,2,0.6,0.7
2026-02-14T1600,4154A,103.401,23.3561,红河哈尼族彝族自治州,蒙自市朝阳路,,31,,18,17,20,98,,82,82,2,3,8,6,0.4,0.5
2026-02-14T1600,1090A,111.6506,40.7517,呼和浩特市,呼市一监,,27,27,74,13,33,85,,75,75,8,28,7,11,0.3,0.6
2026-02-14T1600,1094A,111.7516,40.8369,呼和浩特市,如意水处理厂,,27,17,67,3,28,84,,75,75,5,34,8,13,0.2,0.6
2026-02-14T1600,1095A,111.727798,40.806187,呼和浩特市,二十九中,,29,29,71,3,27,79,,72,72,2,29,10,14,0.2,0.5
2026-02-14T1600,1097A,111.717,40.7617,呼和浩特市,化肥厂生活区,,26,22,76,11,36,83,,77,77,6,30,4,9,0.2,0.6
2026-02-14T1600,3699A,111.6519,40.8389,呼和浩特市,海东办,,44,44,77,3,29,85,,75,75,5,29,3,9,0.3,0.7
2026-02-14T1600,4275A,111.591512,40.827312,呼和浩特市,成吉思汗西街8号,,25,24,68,3,23,80,,70,70,4,19,4,7,0.3,0.4
2026-02-14T1600,4276A,111.6597,40.8077,呼和浩特市,公园东路75号,,44,44,78,3,30,76,,70,70,8,34,5,11,0.4,0.7
2026-02-14T1600,4277A,111.5427,40.7846,呼和浩特市,金海路35号,,33,33,73,3,25,87,,76,76,7,26,6,9,0.0,0.2
2026-02-14T1600,3061A,119.7511,49.1576,呼伦贝尔市,国华电力东,,46,46,35,18,14,79,,78,78,13,16,3,4,0.4,0.4
2026-02-14T1600,4279A,119.7569,49.2222,呼伦贝尔市,伊敏大街东7号,,35,35,28,16,16,76,,77,77,8,13,6,7,0.2,0.2
2026-02-14T1600,1250A,120.075,30.867,湖州市,城西水厂,,36,32,81,19,51,115,,84,84,11,37,6,6,0.5,0.7
2026-02-14T1600,2873A,120.083,30.8929,湖州市,仁皇山新区,,35,32,74,20,46,111,,83,83,10,35,5,5,0.5,0.7
2026-02-14T1600,2907A,120.1846,30.8592,湖州市,吴兴区站,,41,41,86,22,56,104,,74,74,3,22,5,6,0.8,0.9
2026-02-14T1600,3562A,120.4146,30.8538,湖州市,南浔区站,,33,27,89,18,61,104,,78,78,5,22,7,8,0.7,0.7
2026-02-14T1600,1607A,120.904878,40.721091,葫芦岛市,龙港区,颗粒物(PM10),96,141,121,63,99,87,,95,78,25,25,113,35,0.7,1.1
2026-02-14T1600,1608A,120.8382,40.7521,葫芦岛市,化工街,,,124,146,74,119,86,,71,68,,43,21,21,0.7,1.1
2026-02-14T1600,1609A,120.8339,40.7078,葫芦岛市,新区,细颗粒物(PM2.5),94,124,113,70,117,87,,82,73,28,33,79,17,1.0,1.3
2026-02-14T1600,1610A,120.8697,40.7679,葫芦岛市,东城区,细颗粒物(PM2.5),113,112,120,85,121,100,,78,74,20,34,16,14,0.9,1.2
2026-02-14T1600,2483A,109.9297,27.5383,怀化市,河西地税局,,20,16,48,12,33,61,,33,33,11,15,3,2,/,/
2026-02-14T1600,2484A,109.9783,27.5342,怀化市,市四医院,,22,22,51,8,31,66,,38,38,6,15,8,7,0.4,0.6
2026-02-14T1600,2485A,109.9971,27.5579,怀化市,监测楼,,26,26,57,13,40,60,,36,36,4,18,3,6,0.1,0.4
2026-02-14T1600,1210A,119.0566,33.5991,淮安市,钵池山,颗粒物(PM10),62,73,111,41,74,126,,91,91,14,31,13,13,0.8,0.9
2026-02-14T1600,1211A,119.0083,33.578,淮安市,北京南路,颗粒物(PM10),65,80,120,46,79,122,,81,81,14,40,13,11,1.0,0.9
2026-02-14T1600,1212A,118.9938,33.6083,淮安市,市监测站,细颗粒物(PM2.5),72,75,106,52,72,130,,95,95,17,28,11,13,0.5,0.9
2026-02-14T1600,1213A,119.135,33.5038,淮安市,楚州区监测站,颗粒物(PM10),59,68,122,33,84,123,,87,87,7,33,8,7,0.4,0.6
2026-02-14T1600,3426A,118.8757,33.2897,淮安市,新华书店,颗粒物(PM10),63,75,108,39,65,130,,95,95,9,24,8,8,0.7,0.7
2026-02-14T1600,4092A,119.119691,33.550006,淮安市,枚皋中路89号,颗粒物(PM10),57,64,125,33,82,129,,92,92,7,28,11,10,0.5,0.8
2026-02-14T1600,4206A,119.028838,33.631911,淮安市,承德北路606号,颗粒物(PM10),65,80,124,40,71,123,,94,94,12,30,9,11,0.5,0.9
2026-02-14T1600,2282A,116.8005,33.9749,淮北市,监测站,颗粒物(PM10),64,78,118,38,62,131,,104,104,12,29,8,7,0.5,0.8
2026-02-14T1600,2283A,116.8094,33.9008,淮北市,烈山区政府,颗粒物(PM10),70,90,119,33,62,126,,99,99,11,21,8,9,0.5,0.6
2026-02-14T1600,4017A,116.7926,33.9534,淮北市,市博物馆,,,75,121,39,65,124,,95,95,13,26,8,7,,0.7
2026-02-14T1600,4100A,116.8322,33.9884,淮北市,杜集区第一实验学校,颗粒物(PM10),66,82,118,32,63,128,,97,97,11,22,12,10,0.6,0.7
2026-02-14T1600,2277A,116.8304,32.7726,淮南市,潘集区政府,,,73,98,24,50,,,96,96,,22,10,8,0.5,0.6
2026-02-14T1600,2279A,116.8569,32.5949,淮南市,谢家集区政府,颗粒物(PM10),52,54,77,19,45,122,,94,94,9,15,8,9,0.5,0.6
2026-02-14T1600,2280A,116.8279,32.6333,淮南市,八公山区政府,颗粒物(PM10),56,62,81,26,47,121,,101,101,8,12,8,7,0.4,0.5
2026-02-14T1600,2894A,117.0561,32.6536,淮南市,经济技术开发区消防队,颗粒物(PM10),52,53,93,23,45,121,,96,96,10,27,7,7,0.4,0.5
2026-02-14T1600,3329A,117.011,32.5891,淮南市,山南新区,颗粒物(PM10),56,61,92,24,44,124,,101,101,19,21,9,9,0.6,0.6
2026-02-14T1600,4209A,117.003137,32.644456,淮南市,国庆中路369号,颗粒物(PM10),51,51,83,25,47,114,,94,94,8,22,12,11,0.4,0.7
2026-02-14T1600,2446A,114.9021,30.474,黄冈市,职工中心,细颗粒物(PM2.5),57,50,100,40,84,104,,75,75,12,38,9,9,1.0,1.1
2026-02-14T1600,2929A,114.8858,30.4519,黄冈市,红卫路,,48,46,90,33,77,109,,81,81,9,26,10,11,0.8,1
2026-02-14T1600,3398A,114.9134,30.4446,黄冈市,市林业局,细颗粒物(PM2.5),73,69,112,53,83,112,,78,78,14,25,3,4,1.0,0.9
2026-02-14T1600,2672A,102.02,35.5101,黄南藏族自治州,同仁县隆务镇,,38,38,32,16,13,80,,68,68,1,5,9,10,0.3,0.5
2026-02-14T1600,2295A,118.2905,29.6965,黄山市,延安路89号,,23,14,49,6,35,72,,50,50,5,12,4,4,0.6,0.7
2026-02-14T1600,2297A,118.1369,30.2755,黄山市,黄山区政府5号楼,,28,23,43,12,32,88,,64,64,4,9,2,2,0.6,0.6
2026-02-14T1600,4210A,118.335445,29.720283,黄山市,滨江东路7-2号,,31,31,50,9,33,74,,51,51,4,12,/,/,/,/
2026-02-14T1600,2423A,115.0547,30.2332,黄石市,沈家营,细颗粒物(PM2.5),65,75,119,47,75,114,,73,73,4,34,51,20,1.3,1.3
2026-02-14T1600,2426A,114.899,30.211,黄石市,铁山,细颗粒物(PM2.5),53,54,81,37,61,124,,87,87,9,20,11,10,0.5,0.9
2026-02-14T1600,2427A,115.0259,30.2108,黄石市,团城山,颗粒物(PM10),69,88,118,47,80,106,,58,58,17,29,7,7,1.0,1.1
2026-02-14T1600,3149A,115.0174,30.1591,黄石市,笔架山北路,颗粒物(PM10),60,70,145,41,83,114,,75,75,7,26,11,11,1.2,1.4
2026-02-14T1600,4185A,115.078022,30.21118,黄石市,磁湖东路29号,细颗粒物(PM2.5),74,72,115,54,86,109,,70,70,16,28,13,8,1.4,1.4
2026-02-14T1600,1392A,114.4181,23.0528,惠州市,河南岸金山湖子站,,36,13,38,9,23,115,,99,99,5,12,6,6,0.4,0.6
2026-02-14T1600,1393A,114.4055,23.0824,惠州市,下埔横江三路子站,,41,13,43,7,25,130,,112,112,6,16,7,7,0.4,0.6
2026-02-14T1600,1395A,114.4645,22.7832,惠州市,惠阳区承修路船湖子站,,32,9,38,3,22,100,,102,102,7,14,6,6,0.5,0.6
2026-02-14T1600,1396A,114.5316,22.7423,惠州市,大亚湾管委会子站,,28,10,34,6,19,88,,95,95,6,13,6,6,0.6,0.6
2026-02-14T1600,3314A,114.4334,22.8134,惠州市,惠阳秋长,,38,14,32,3,22,120,,117,117,8,15,/,/,/,/
2026-02-14T1600,3452A,114.6521,22.7755,惠州市,大亚湾霞涌,,30,23,30,8,20,94,,100,100,16,18,/,/,/,/
2026-02-14T1600,4300A,114.4089,23.1147,惠州市,文华一路1号,,43,14,41,9,24,135,,114,114,9,13,/,/,/,/
2026-02-14T1600,2240A,130.9618,45.2926,鸡西市,环保局,,47,47,77,28,53,77,,77,77,16,25,10,11,0.5,0.7
2026-02-14T1600,2243A,130.9294,45.2959,鸡西市,第一中学,细颗粒物(PM2.5),55,43,65,39,50,75,,72,71,18,24,12,8,0.6,0.6
2026-02-14T1600,3707A,131.0069,45.2988,鸡西市,欧美日汽修厂,,48,48,86,26,56,80,,79,79,9,17,11,16,0.3,0.6
2026-02-14T1600,2367A,114.9753,27.0803,吉安市,红声器材厂,,40,40,45,25,30,80,,43,43,7,13,6,6,0.9,1
2026-02-14T1600,2369A,114.9903,27.1313,吉安市,市环境监测站,,34,34,39,23,29,82,,42,42,7,15,7,7,/,/
2026-02-14T1600,2370A,115.009527,27.096792,吉安市,青原区法院,,32,24,39,22,28,84,,42,42,8,16,8,8,0.5,0.9
2026-02-14T1600,1772A,126.54,43.8622,吉林市,哈达湾,颗粒物(PM10),63,76,106,40,83,81,,113,,13,24,7,11,0.7,1.3
2026-02-14T1600,1773A,126.5843,43.8358,吉林市,东局子,颗粒物(PM10),58,66,103,37,72,76,,120,107,10,22,6,9,0.5,0.8
2026-02-14T1600,1774A,126.5051,43.8243,吉林市,电力学院,,50,50,131,34,92,82,,114,108,13,37,6,11,0.7,1.6
2026-02-14T1600,1775A,126.6133,43.8971,吉林市,江北,细颗粒物(PM2.5),67,77,106,48,89,80,,124,111,16,22,9,11,0.5,1.1
2026-02-14T1600,1776A,126.5549,43.8304,吉林市,江南公园,颗粒物(PM10),55,59,92,37,68,74,,116,106,11,17,7,11,0.7,1
2026-02-14T1600,2868A,126.4737,43.953,吉林市,九站,颗粒物(PM10),57,63,106,34,76,73,,120,107,20,30,7,12,0.6,1
2026-02-14T1600,1299A,116.9866,36.6118,济南市,科干所,颗粒物(PM10),71,92,120,39,54,144,,129,129,11,14,9,10,0.6,0.7
2026-02-14T1600,1300A,116.9379,36.6652,济南市,农科所,颗粒物(PM10),77,103,127,46,66,143,,123,123,14,22,8,10,0.7,0.8
2026-02-14T1600,1301A,117.1265,36.6736,济南市,开发区,颗粒物(PM10),58,66,109,29,54,144,,137,137,22,21,6,6,0.5,0.7
2026-02-14T1600,1303A,117.0616,36.6865,济南市,省种子仓库,颗粒物(PM10),64,78,129,31,62,142,,124,124,9,30,6,8,0.7,0.9
2026-02-14T1600,1304A,116.9495185,36.644937,济南市,机床二厂,颗粒物(PM10),72,93,124,44,72,150,,128,128,11,17,9,15,0.6,0.7
2026-02-14T1600,1305A,117.0496,36.6629,济南市,市监测站,颗粒物(PM10),68,85,122,32,55,143,,129,129,14,23,6,6,0.7,0.9
2026-02-14T1600,1306A,116.7674,36.5458,济南市,长清党校,颗粒物(PM10),83,115,136,44,62,149,,125,125,18,21,7,7,0.7,0.7
2026-02-14T1600,1961A,117.5323,36.6865,济南市,东山小学,颗粒物(PM10),72,93,126,34,54,146,,127,127,14,19,7,8,0.6,0.7
2026-02-14T1600,3059A,117.7181,36.205,济南市,泰兴公司,颗粒物(PM10),74,97,149,39,82,151,,103,103,13,52,15,17,0.8,1.3
2026-02-14T1600,3064A,117.6861,36.2172,济南市,莱芜战役纪念馆,颗粒物(PM10),79,107,143,41,74,147,,104,104,13,36,15,17,0.7,1.2
2026-02-14T1600,3494A,117.1673,36.9782,济南市,济阳区政府,颗粒物(PM10),70,90,137,32,71,134,,109,109,13,20,9,12,0.4,0.6
2026-02-14T1600,3495A,117.1168,36.6299,济南市,锦屏中学,颗粒物(PM10),63,76,115,29,57,141,,131,131,14,14,7,7,0.4,0.6
2026-02-14T1600,4108A,117.7107,36.2385,济南市,山财大街5号,颗粒物(PM10),75,100,136,40,68,150,,114,114,16,35,14,20,1.2,1.5
2026-02-14T1600,4109A,116.9744,36.6889,济南市,无影山路12号,,,90,126,42,68,135,,104,100,13,20,8,10,,0.7
2026-02-14T1600,1653A,116.6229,35.4288,济宁市,火炬城,细颗粒物(PM2.5),74,93,137,54,85,134,,95,95,11,20,5,6,0.7,0.8
2026-02-14T1600,3500A,116.5808,35.3703,济宁市,北湖一中,颗粒物(PM10),72,93,128,49,81,137,,98,98,9,19,9,10,0.7,0.8
2026-02-14T1600,3501A,116.8251,35.5592,济宁市,服务中心,"颗粒物(PM10),细颗粒物(PM2.5)",85,120,158,63,92,136,,101,101,6,16,6,8,0.5,0.6
2026-02-14T1600,3678A,116.5907,35.4054,济宁市,市第七中学,颗粒物(PM10),73,95,139,49,85,143,,105,105,10,25,7,8,0.6,0.8
2026-02-14T1600,4111A,116.6075,35.4566,济宁市,任和路,颗粒物(PM10),86,122,157,50,82,143,,105,105,12,20,6,8,0.8,1
2026-02-14T1600,4112A,116.5648,35.3921,济宁市,文体南路1号,颗粒物(PM10),78,105,151,48,81,143,,105,105,9,21,6,7,0.7,0.7
2026-02-14T1600,2255A,130.2749,46.8028,佳木斯市,佳纺,,32,32,50,18,38,73,,67,67,9,22,6,7,0.3,0.5
2026-02-14T1600,2257A,130.3258,46.7975,佳木斯市,环保局,,29,29,51,17,42,62,,55,55,14,30,8,9,0.5,0.4
2026-02-14T1600,4285A,130.363,46.806,佳木斯市,顺和街,,24,24,40,15,36,69,,64,64,11,17,7,7,0.4,0.5
2026-02-14T1600,4286A,130.3952,46.8268,佳木斯市,长安路196号,,23,23,41,15,31,73,,68,68,6,10,4,5,0.4,0.5
2026-02-14T1600,1252A,120.7439,30.778,嘉兴市,清河小学,,33,25,85,10,54,103,,80,80,9,30,6,6,0.4,0.2
2026-02-14T1600,1253A,120.7261,30.7477,嘉兴市,嘉兴学院,,33,25,80,16,55,103,,72,72,11,27,5,6,0.5,0.6
2026-02-14T1600,2872A,120.7845,30.7524,嘉兴市,南湖区残联,,35,20,66,16,57,110,,80,80,10,24,4,5,0.7,0.8
2026-02-14T1600,3407A,120.6915,30.7741,嘉兴市,秀洲住建,,,28,84,16,58,109,,79,79,10,25,7,8,,0.6
2026-02-14T1600,1945A,98.291,39.7705,嘉峪关市,气象局,颗粒物(PM10),71,92,64,24,24,92,,87,86,4,8,7,8,0.4,0.6
2026-02-14T1600,2884A,98.2672,39.7978,嘉峪关市,酒钢宾馆,颗粒物(PM10),80,110,74,23,24,80,,79,72,5,12,16,31,0.5,1.1
2026-02-14T1600,3248A,98.2644,39.7723,嘉峪关市,雄关区,颗粒物(PM10),67,84,63,21,25,92,,87,83,6,17,12,16,0.6,1
2026-02-14T1600,1383A,113.1063,22.6058,江门市,北街,,39,24,34,7,19,124,,109,109,5,9,/,/,/,/
2026-02-14T1600,1384A,113.073,22.5835,江门市,西区,,38,12,38,8,23,121,,104,104,8,14,/,/,/,/
2026-02-14T1600,1385A,113.0218,22.531,江门市,圭峰西,,38,29,34,10,22,120,,103,103,8,12,/,/,/,/
2026-02-14T1600,1386A,113.0826,22.5947,江门市,东湖,,38,20,34,3,22,120,,106,106,6,11,5,6,0.3,0.5
2026-02-14T1600,3311A,113.1077,22.5647,江门市,江海富民,,39,34,46,8,20,124,,113,113,7,12,/,/,0.4,0.5
2026-02-14T1600,3449A,113.0496,22.4669,江门市,新会银湖,,43,43,37,10,23,120,,100,100,8,13,7,6,0.5,0.5
2026-02-14T1600,3335A,113.3137,35.2643,焦作市,马村街道办,颗粒物(PM10),63,76,122,29,61,122,,92,92,13,21,9,15,0.6,1
2026-02-14T1600,3336A,113.2464,35.2374,焦作市,焦作技师学院,颗粒物(PM10),60,70,118,33,59,124,,86,86,17,27,9,14,0.6,1
2026-02-14T1600,3477A,113.1656,35.2536,焦作市,中站许衡医院,细颗粒物(PM2.5),59,48,92,42,50,137,,100,100,20,21,15,16,0.8,0.9
2026-02-14T1600,3981A,113.2456,35.18,焦作市,原李万街道办,颗粒物(PM10),125,199,125,41,62,137,,100,100,14,19,15,19,0.6,0.9
2026-02-14T1600,4264A,113.234,35.219,焦作市,新安路1731号,颗粒物(PM10),65,79,120,34,61,139,,100,100,18,28,12,16,0.7,1
2026-02-14T1600,4295A,113.2722,35.2121,焦作市,人民路3066号,细颗粒物(PM2.5),57,61,112,40,61,135,,100,100,22,29,9,14,0.6,0.9
2026-02-14T1600,1708A,116.3701,23.5345,揭阳市,新兴,,29,29,47,11,31,91,,82,82,7,16,6,7,0.6,0.9
2026-02-14T1600,1709A,116.3261,23.5442,揭阳市,西马,,43,43,52,10,31,97,,84,84,4,12,5,5,0.5,0.8
2026-02-14T1600,1710A,116.361,23.5627,揭阳市,东兴,,30,30,44,10,26,96,,85,85,5,14,7,8,/,/
2026-02-14T1600,1711A,116.4151,23.5295,揭阳市,渔湖,颗粒物(PM10),58,65,50,9,30,102,,98,98,8,16,5,6,/,/
2026-02-14T1600,3320A,116.4028,23.5699,揭阳市,曲溪,,35,30,45,9,27,109,,101,101,2,11,4,3,0.8,0.8
2026-02-14T1600,1944A,102.1691,38.5166,金昌市,天庆家园,颗粒物(PM10),59,68,115,25,24,90,,86,82,4,7,4,6,0.4,0.5
2026-02-14T1600,4022A,102.1648,38.5369,金昌市,金川区人防中心,颗粒物(PM10),56,61,112,21,26,89,,85,81,4,6,5,5,0.3,0.3
2026-02-14T1600,4239A,102.193042,38.531887,金昌市,长春路96号,,,61,86,19,24,,,10,,2,4,5,6,0.4,0.4
2026-02-14T1600,1262A,119.6478,29.0773,金华市,十五中,,45,33,78,31,55,81,,50,50,4,17,2,2,1.1,1
2026-02-14T1600,1263A,119.6859,29.1032,金华市,监测站,,38,38,74,26,51,70,,42,42,13,25,4,4,1.0,1
2026-02-14T1600,3659A,119.656,29.1132,金华市,气象局,,29,27,72,20,50,78,,46,46,10,26,4,3,1.0,1
2026-02-14T1600,1767A,121.1114,41.0879,锦州市,南山,颗粒物(PM10),65,80,121,6,102,84,,88,77,26,36,10,13,0.1,0.9
2026-02-14T1600,1768A,121.060361,40.842794,锦州市,开发区,细颗粒物(PM2.5),108,104,106,81,97,101,,98,86,20,27,12,11,1.0,1.1
2026-02-14T1600,1769A,121.1836,41.1118,锦州市,百股街道,,50,50,128,8,117,85,,95,80,10,28,10,11,0.4,1.1
2026-02-14T1600,1770A,121.1176,41.1224,锦州市,天安街道,颗粒物(PM10),51,52,131,7,109,86,,93,77,8,28,7,9,0.4,1.2
2026-02-14T1600,1771A,121.1303,41.1385,锦州市,北湖公园,,25,25,130,7,115,67,,88,68,8,30,11,14,0.4,1
2026-02-14T1600,2160A,112.8496,35.5051,晋城市,自来水公司,,34,34,114,13,49,98,,78,78,4,26,6,15,0.3,1.1
2026-02-14T1600,2162A,112.8509,35.4886,晋城市,市环保局,,47,47,103,16,50,112,,85,85,9,34,5,12,0.2,1
2026-02-14T1600,3620A,112.8258,35.4804,晋城市,泽州一中,,32,28,112,3,46,102,,86,86,1,18,3,9,0.3,1.1
2026-02-14T1600,4078A,112.8246,35.5152,晋城市,前书院路,,30,16,107,3,36,96,,80,80,4,20,6,13,0.3,1
2026-02-14T1600,4079A,112.8864,35.4773,晋城市,祥云街666号,,35,35,112,23,54,112,,85,85,5,22,9,20,0.3,1.2
2026-02-14T1600,2174A,112.6992,37.6984,晋中市,榆次区政府,颗粒物(PM10),74,97,115,45,59,104,,82,82,38,37,25,21,0.9,0.8
2026-02-14T1600,2865A,112.7195,37.683,晋中市,榆次三中,"颗粒物(PM10),细颗粒物(PM2.5)",69,88,117,50,51,119,,90,90,21,31,23,20,0.8,0.8
2026-02-14T1600,4080A,112.7375,37.7215,晋中市,广安街188号,颗粒物(PM10),63,75,123,36,55,113,,87,87,31,36,26,29,0.7,0.8
2026-02-14T1600,4200A,112.7478,37.6954,晋中市,迎宾街26号,颗粒物(PM10),69,88,106,46,53,124,,96,96,31,26,23,20,0.9,0.8
2026-02-14T1600,2439A,112.2012,31.048,荆门市,竹园小学,细颗粒物(PM2.5),98,88,114,73,81,113,,59,59,18,21,1,2,1.0,1.8
2026-02-14T1600,2440A,112.1968,30.9892,荆门市,掇刀,细颗粒物(PM2.5),109,104,112,82,85,116,,61,61,12,16,3,6,1.0,1
2026-02-14T1600,3012A,112.1849,31.0361,荆门市,西山林语,细颗粒物(PM2.5),103,90,104,77,76,114,,63,63,15,16,4,4,0.9,1
2026-02-14T1600,3547A,112.1631,31.0134,荆门市,龙泉中学南校,细颗粒物(PM2.5),90,100,111,67,77,120,,70,70,16,17,6,5,1.2,1.2
2026-02-14T1600,4124A,112.2213,31.0654,荆门市,新台西路6号,细颗粒物(PM2.5),104,89,110,78,85,110,,51,51,20,22,11,10,0.8,1.1
2026-02-14T1600,1844A,112.2493,30.3198,荆州市,市图书馆,细颗粒物(PM2.5),103,,70,77,57,104,,56,56,12,18,10,7,1.0,1.1
2026-02-14T1600,1845A,112.2009,30.3543,荆州市,市委党校,细颗粒物(PM2.5),112,91,82,84,64,96,,50,50,21,24,9,7,1.3,1.3
2026-02-14T1600,3194A,112.2749,30.3124,荆州市,管委会,细颗粒物(PM2.5),90,77,68,67,59,97,,54,54,11,19,13,11,1.0,1.1
2026-02-14T1600,4268A,112.1722,30.3366,荆州市,学苑路85号,细颗粒物(PM2.5),102,98,79,76,62,114,,58,58,9,13,9,5,0.6,0.7
2026-02-14T1600,2343A,117.2114,29.2931,景德镇市,老干部活动中心,细颗粒物(PM2.5),65,,40,47,32,53,,32,32,17,13,6,4,1.1,1
2026-02-14T1600,2344A,117.1893,29.2789,景德镇市,兽医站,,49,48,47,34,37,58,,36,36,18,18,4,4,0.9,0.8
2026-02-14T1600,2346A,117.246,29.2958,景德镇市,陶研所,细颗粒物(PM2.5),69,,36,50,32,52,,28,28,16,12,4,3,1.1,0.9
2026-02-14T1600,4289A,117.154766,29.256967,景德镇市,青少年活动中心,,29,26,47,20,38,61,,34,34,6,15,5,4,/,/
2026-02-14T1600,1803A,115.9873,29.6816,九江市,十里,,,7,56,,40,66,,45,45,8,24,6,7,,1.1
2026-02-14T1600,1804A,115.9583,29.7047,九江市,茅山头,,24,21,44,16,35,76,,52,52,8,16,6,6,0.6,0.6
2026-02-14T1600,1805A,115.9877,29.7295,九江市,西园,,24,23,54,14,34,74,,53,53,16,31,4,4,0.6,0.8
2026-02-14T1600,1808A,115.9112,29.6038,九江市,综合工业园,,,13,36,10,30,82,,52,52,,14,5,5,0.6,0.7
2026-02-14T1600,3190A,116.0254,29.6995,九江市,外国语学校,,23,,41,16,37,63,,41,41,8,17,5,5,0.6,0.7
2026-02-14T1600,4253A,116.010205,29.659402,九江市,莲花大道8号,,23,18,52,16,29,70,,38,38,4,16,4,5,0.5,0.7
2026-02-14T1600,4240A,98.495752,39.733935,酒泉市,玉门东路5号,颗粒物(PM10),75,100,73,22,29,81,,76,76,3,7,10,10,0.3,0.3
2026-02-14T1600,4241A,98.5099,39.7506,酒泉市,北大街108号,颗粒物(PM10),73,95,72,27,32,78,,73,73,4,8,10,10,0.4,0.5
2026-02-14T1600,2698A,76.0071,39.466,喀什地区,巡警大队,颗粒物(PM10),218,362,398,103,121,84,,58,56,6,27,5,7,0.5,0.9
2026-02-14T1600,2699A,75.9756,39.4693,喀什地区,吾办,颗粒物(PM10),198,345,365,108,127,82,,51,51,10,33,3,7,0.5,0.9
2026-02-14T1600,4027A,75.9485,39.4688,喀什地区,老干局,颗粒物(PM10),239,377,409,148,128,82,,54,48,8,26,5,7,0.5,1
2026-02-14T1600,1824A,114.3389,34.778,开封市,肿瘤医院,细颗粒物(PM2.5),84,109,168,62,98,137,,102,102,17,31,8,11,0.9,1.1
2026-02-14T1600,1826A,114.2884,34.7966,开封市,世纪星幼儿园,细颗粒物(PM2.5),84,109,153,62,95,135,,100,100,17,31,9,12,0.8,1
2026-02-14T1600,3147A,114.3434,34.8101,开封市,龙亭公园,颗粒物(PM10),79,107,166,52,96,136,,102,102,20,38,10,13,0.7,1
2026-02-14T1600,3210A,114.3645,34.7955,开封市,汴京公园,颗粒物(PM10),77,104,182,48,99,136,,100,100,16,40,7,8,0.8,1
2026-02-14T1600,3473A,114.2485,34.8306,开封市,技师学院,细颗粒物(PM2.5),82,107,143,60,87,139,,105,105,14,25,9,13,0.8,0.9
2026-02-14T1600,3592A,114.4518,34.7503,开封市,祥符区生态环境局,细颗粒物(PM2.5),84,102,185,62,103,142,,104,104,15,32,7,8,0.6,0.8
2026-02-14T1600,1951A,84.886,45.6029,克拉玛依市,长征新村,,25,19,12,6,8,79,,75,75,7,7,5,5,0.4,0.4
2026-02-14T1600,1952A,84.8894,45.5827,克拉玛依市,南林小区,,27,18,12,3,2,84,,76,76,3,5,1,1,0.5,0.4
2026-02-14T1600,1954A,84.896,44.3328,克拉玛依市,独山子区,细颗粒物(PM2.5),112,125,94,84,73,79,,59,59,28,26,3,3,0.6,0.7
2026-02-14T1600,1955A,85.6888,46.0909,克拉玛依市,乌尔禾区商贸楼,,24,23,19,11,10,76,,84,84,7,6,8,7,0.5,0.4
2026-02-14T1600,3612A,85.1045,45.6895,克拉玛依市,白碱滩区新站,,,,14,,3,76,,76,75,12,15,8,9,0.2,0.4
2026-02-14T1600,2697A,76.1457,39.7143,克孜勒苏柯尔克孜自治州,市人民政府,颗粒物(PM10),205,353,398,83,100,92,,66,66,4,18,4,4,0.3,0.5
2026-02-14T1600,3665A,76.1654,39.7157,克孜勒苏柯尔克孜自治州,克州文化中心,颗粒物(PM10),203,352,384,96,109,90,,65,60,4,16,5,5,0.4,0.7
2026-02-14T1600,1450A,102.8203,24.889,昆明市,呈贡新区,,33,22,28,9,18,103,,83,83,4,16,2,3,0.1,0.3
2026-02-14T1600,1452A,102.7253,25.0904,昆明市,龙泉镇,,33,,28,10,16,104,,78,78,5,16,5,4,0.4,0.4
2026-02-14T1600,1453A,102.7267,25.0378,昆明市,东风东路,,32,16,33,9,22,102,,82,82,8,23,6,9,0.4,0.6
2026-02-14T1600,1454A,102.6744,25.0671,昆明市,金鼎山,,33,20,31,7,17,105,,80,80,6,18,5,5,0.4,0.5
2026-02-14T1600,1455A,102.6643,25.0401,昆明市,碧鸡广场,,33,13,28,8,16,105,,88,88,8,17,5,8,0.2,0.4
2026-02-14T1600,3179A,102.7491,25.012,昆明市,官渡区博物馆,,35,18,37,8,24,110,,82,82,6,31,3,5,0.2,0.6
2026-02-14T1600,3375A,102.8016,24.8336,昆明市,青年创业园,,34,,26,10,19,106,,89,89,2,12,5,8,0.3,0.4
2026-02-14T1600,3550A,102.8,24.9787,昆明市,昆明学院,,36,16,35,3,19,115,,88,88,4,15,5,5,0.2,0.4
2026-02-14T1600,3551A,102.5969,24.6738,昆明市,晋宁区生态环境分局,,35,10,42,6,30,112,,98,98,1,14,2,1,0.4,0.5
2026-02-14T1600,3552A,102.6673,24.9861,昆明市,云天化总部,,35,13,28,3,14,109,,88,88,6,16,9,9,0.2,0.5
2026-02-14T1600,1456A,91.132,29.6515,拉萨市,八廓街,,30,15,21,6,12,95,,73,73,5,19,7,7,0.4,0.7
2026-02-14T1600,1457A,91.1221,29.6748,拉萨市,市环保局,,28,12,32,3,19,87,,64,64,10,36,6,8,0.4,0.8
2026-02-14T1600,1458A,91.0874,29.6476,拉萨市,区监测站,,29,8,13,3,8,92,,70,70,6,29,4,4,0.6,0.9
2026-02-14T1600,1459A,91.1774,29.6541,拉萨市,西藏大学,,29,9,17,3,11,91,,69,69,7,22,3,4,0.2,0.6
2026-02-14T1600,1460A,90.9798,29.6586,拉萨市,区辐射站,,30,10,21,3,13,96,,70,70,2,21,3,4,0.3,0.5
2026-02-14T1600,1461A,91.0831,29.6292,拉萨市,拉萨火车站,,29,6,10,3,6,92,,79,79,3,11,4,4,0.2,0.3
2026-02-14T1600,2520A,109.2203,23.7252,来宾市,来宾技工学校,"颗粒物(PM10),细颗粒物(PM2.5)",59,68,57,42,39,99,,48,48,5,14,8,7,0.8,1.1
2026-02-14T1600,3535A,109.1781,23.7293,来宾市,兴宾区政府,颗粒物(PM10),57,64,54,29,35,112,,56,56,7,18,8,6,0.8,1
2026-02-14T1600,4002A,109.2312,23.7428,来宾市,中南小学,颗粒物(PM10),60,69,54,37,39,112,,56,56,8,18,7,6,0.9,1.1
2026-02-14T1600,1479A,103.8309,36.0467,兰州市,铁路设计院,,,,,,,,,,,,,,,,
2026-02-14T1600,3241A,103.7439,36.0841,兰州市,百合公园,颗粒物(PM10),70,89,104,33,59,92,,48,48,4,71,8,15,0.4,1.6
2026-02-14T1600,3242A,103.9613,35.9985,兰州市,和平,颗粒物(PM10),85,120,74,34,31,95,,64,64,5,26,7,16,0.3,0.8
2026-02-14T1600,4236A,103.629272,36.093822,兰州市,庄浪东路808号,颗粒物(PM10),78,106,94,28,48,96,,61,61,9,58,20,22,0.5,1.1
2026-02-14T1600,4237A,103.7251,36.104344,兰州市,安宁西路88号,颗粒物(PM10),91,132,105,27,47,103,,61,61,5,62,15,18,0.4,1.1
2026-02-14T1600,4238A,103.846982,36.067567,兰州市,北滨河东路1号,颗粒物(PM10),73,95,96,32,49,102,,59,59,15,67,6,14,0.5,1.5
2026-02-14T1600,1067A,116.6712,39.5109,廊坊市,药材公司,,43,43,183,14,129,90,,75,75,1,29,1,7,0.3,1
2026-02-14T1600,1068A,116.7215,39.5592,廊坊市,开发区,,47,47,181,7,121,92,,76,76,8,40,1,5,0.2,1
2026-02-14T1600,1070A,116.7246,39.5273,廊坊市,北华航天学院,,42,42,189,10,128,92,,79,79,2,34,3,9,0.3,1
2026-02-14T1600,2919A,116.7022,39.5454,廊坊市,河北工业大学,颗粒物(PM10),52,53,199,9,121,91,,76,76,5,36,3,6,0.2,1
2026-02-14T1600,2536A,103.7629,29.5844,乐山市,牛耳桥,细颗粒物(PM2.5),64,55,85,46,59,121,,72,72,12,29,7,6,0.8,0.8
2026-02-14T1600,2537A,103.7501,29.6002,乐山市,市第三水厂,细颗粒物(PM2.5),63,68,87,45,56,121,,69,69,17,42,5,4,0.9,1.1
2026-02-14T1600,2538A,103.7571,29.5664,乐山市,市监测站,细颗粒物(PM2.5),55,58,79,39,55,113,,57,57,9,26,8,8,0.7,1
2026-02-14T1600,3361A,103.7313,29.563,乐山市,理工大学,颗粒物(PM10),54,58,77,36,49,116,,56,56,7,25,4,4,0.6,1
2026-02-14T1600,2599A,100.2497,26.8802,丽江市,丽江古城,,30,24,24,6,13,94,,85,85,8,11,5,6,0.4,0.4
2026-02-14T1600,2600A,100.2203,26.8906,丽江市,市中心,,32,13,16,3,14,101,,86,86,7,13,6,6,0.4,0.4
2026-02-14T1600,1267A,119.9141,28.4513,丽水市,监测站大楼,,43,35,46,30,36,61,,45,45,11,21,6,6,0.8,1
2026-02-14T1600,1268A,119.93,28.4589,丽水市,莲都小学,,40,34,43,28,31,63,,48,48,8,19,/,/,/,/
2026-02-14T1600,1269A,119.8794,28.4232,丽水市,余庄前,,33,28,33,23,27,55,,38,38,8,10,4,4,0.7,0.7
2026-02-14T1600,1173A,119.1759,34.5885,连云港市,市环境监测站,颗粒物(PM10),63,75,123,34,84,125,,98,98,13,24,9,10,0.4,0.7
2026-02-14T1600,3000A,119.3577,34.6971,连云港市,德源药业,颗粒物(PM10),64,78,123,36,76,125,,92,92,13,22,8,7,0.5,0.8
2026-02-14T1600,3007A,119.178,34.8442,连云港市,新城一中,颗粒物(PM10),70,90,136,38,89,139,,104,104,12,38,10,10,0.8,0.9
2026-02-14T1600,3008A,119.3607,34.7519,连云港市,胡沟管理处,"颗粒物(PM10),细颗粒物(PM2.5)",73,95,132,53,82,101,,92,69,38,39,14,14,0.6,0.7
2026-02-14T1600,3009A,119.1478,34.5913,连云港市,矿山设计院,颗粒物(PM10),60,70,128,24,76,121,,97,97,12,25,7,8,0.7,0.9
2026-02-14T1600,3434A,119.2414,34.6539,连云港市,工贸学校,颗粒物(PM10),52,54,118,30,68,125,,106,106,10,16,11,13,0.6,0.8
2026-02-14T1600,3664A,119.4171,34.734,连云港市,连云街道,细颗粒物(PM2.5),92,132,157,68,88,77,,81,34,63,48,10,12,0.8,0.9
2026-02-14T1600,2573A,102.2629,27.8981,凉山彝族自治州,西昌市政府,,34,28,28,18,23,107,,84,84,6,8,12,8,0.7,0.7
2026-02-14T1600,2574A,102.2686,27.885,凉山彝族自治州,凉山州政府,,29,24,27,14,20,92,,72,72,5,10,13,10,0.7,0.7
2026-02-14T1600,4229A,102.2342,27.8859,凉山彝族自治州,凯乐南路30号,,32,27,37,13,18,100,,70,70,10,16,16,11,0.7,0.6
2026-02-14T1600,2212A,123.1978,41.2036,辽阳市,宏伟区,细颗粒物(PM2.5),92,80,96,68,79,100,,123,107,12,12,8,7,1.0,1.1
2026-02-14T1600,2213A,123.1684,41.2497,辽阳市,新华园,细颗粒物(PM2.5),93,109,103,69,82,101,,122,105,16,16,7,8,0.6,0.8
2026-02-14T1600,2214A,123.2355,41.2663,辽阳市,滨河路,细颗粒物(PM2.5),87,88,95,64,77,101,,114,105,11,14,7,15,0.7,1.1
2026-02-14T1600,4083A,123.153,41.2874,辽阳市,铁西路150号,细颗粒物(PM2.5),85,83,100,63,79,90,,99,91,11,15,9,10,0.8,1
2026-02-14T1600,2227A,125.1359,42.8845,辽源市,环保局,颗粒物(PM10),97,143,147,8,72,77,,115,106,8,30,4,8,0.6,1.3
2026-02-14T1600,4085A,125.0998,42.9134,辽源市,安宁大街333号,颗粒物(PM10),105,160,114,3,74,75,,112,103,5,23,5,10,0.3,0.9
2026-02-14T1600,1625A,115.9789,36.4372,聊城市,区政府,细颗粒物(PM2.5),93,129,163,69,96,148,,109,109,14,20,17,18,0.9,1
2026-02-14T1600,3200A,115.9772,36.4986,聊城市,监控中心,细颗粒物(PM2.5),97,133,166,72,97,172,,131,131,18,25,14,15,0.7,0.8
2026-02-14T1600,3513A,116.0443,36.436,聊城市,九州社区,细颗粒物(PM2.5),98,136,161,73,98,160,,121,121,12,15,4,7,0.8,0.8
2026-02-14T1600,4018A,116.0564,36.4609,聊城市,星美广场,颗粒物(PM10),96,142,169,66,87,147,,112,112,23,18,6,8,1.1,1.1
2026-02-14T1600,4113A,116.0091,36.4495,聊城市,利民路,细颗粒物(PM2.5),98,124,153,73,93,162,,120,120,19,23,12,13,1.1,1.1
2026-02-14T1600,2632A,94.3683,29.6373,林芝市,林芝监测站,,31,9,8,8,10,99,,86,86,1,2,5,4,0.4,0.4
2026-02-14T1600,2633A,94.3616,29.6634,林芝市,林芝人民医院,,31,20,14,8,11,97,,85,85,2,2,6,5,0.2,0.1
2026-02-14T1600,2603A,100.0779,23.8981,临沧市,市环保局,,45,45,32,24,26,124,,91,91,3,7,6,5,0.5,0.6
2026-02-14T1600,2604A,100.0894,23.882,临沧市,市气象局,,40,37,40,28,29,118,,53,,4,8,7,5,0.4,0.5
2026-02-14T1600,1733A,111.5552,36.0791,临汾市,临钢医院,细颗粒物(PM2.5),80,107,153,59,82,159,,104,104,22,28,10,11,1.0,1.4
2026-02-14T1600,1734A,111.4984,36.0734,临汾市,技工学校,细颗粒物(PM2.5),92,114,152,68,87,148,,95,95,25,33,14,16,0.4,0.8
2026-02-14T1600,1736A,111.5017,36.0857,临汾市,市委,细颗粒物(PM2.5),82,98,153,60,80,160,,115,115,18,35,10,13,0.9,1.3
2026-02-14T1600,3018A,111.5048,36.1015,临汾市,唐尧大酒店,"颗粒物(PM10),细颗粒物(PM2.5)",85,119,158,63,82,154,,97,97,35,39,10,14,0.8,1.3
2026-02-14T1600,4244A,111.4879,36.053,临汾市,启星学校,颗粒物(PM10),82,114,151,59,86,159,,98,98,24,43,12,13,1.0,1.5
2026-02-14T1600,4271A,103.2464,35.6123,临夏回族自治州,滨河东路1号,颗粒物(PM10),83,116,87,39,49,99,,59,59,11,19,22,12,0.6,1.3
2026-02-14T1600,4310A,103.207136,35.599807,临夏回族自治州,新华街21号,颗粒物(PM10),94,137,92,33,54,87,,56,56,6,23,21,12,0.5,1.1
2026-02-14T1600,1618A,118.3429,35.0532,临沂市,沂河小区,颗粒物(PM10),76,102,131,44,70,132,,104,104,10,27,12,17,0.5,0.7
2026-02-14T1600,1619A,118.2962,35.0568,临沂市,鲁南制药厂,颗粒物(PM10),78,105,130,44,70,123,,98,98,22,30,14,20,0.4,0.7
2026-02-14T1600,1620A,118.2793,34.9976,临沂市,新光毛纺厂,细颗粒物(PM2.5),74,92,128,54,77,138,,105,105,16,29,12,19,0.7,0.9
2026-02-14T1600,1621A,118.3955,35.0889,临沂市,河东保险公司,,,,142,,84,137,,116,116,,55,13,15,0.7,1
2026-02-14T1600,3370A,118.3563,35.0215,临沂市,十里堡居委,颗粒物(PM10),75,100,126,53,71,140,,108,108,17,31,12,21,0.7,0.9
2026-02-14T1600,3496A,118.359,35.1067,临沂市,南坊新区,颗粒物(PM10),73,95,128,42,69,139,,112,112,18,34,12,14,0.6,0.7
2026-02-14T1600,3860A,118.3915,35.0297,临沂市,皇山花园小区,颗粒物(PM10),70,90,126,47,73,142,,115,115,16,34,14,19,0.7,0.8
2026-02-14T1600,1870A,109.4854,24.3898,柳州市,柳东小学,,36,36,26,20,18,88,,43,43,5,9,4,4,0.7,0.9
2026-02-14T1600,1871A,109.4109,24.3304,柳州市,环保监测站,细颗粒物(PM2.5),54,50,33,38,21,88,,35,35,16,22,4,5,1.2,1.2
2026-02-14T1600,1872A,109.3886,24.3408,柳州市,河西水厂,细颗粒物(PM2.5),72,57,44,52,22,96,,38,38,14,17,6,6,1.1,1
2026-02-14T1600,1873A,109.4263,24.2951,柳州市,市四中,细颗粒物(PM2.5),70,70,46,51,28,90,,33,33,16,19,6,7,1.1,1.2
2026-02-14T1600,1874A,109.396,24.3658,柳州市,市九中,,49,49,36,31,18,94,,38,38,13,16,11,11,1.1,1.1
2026-02-14T1600,1875A,109.4912,24.3164,柳州市,古亭山,,,,33,,23,95,,40,40,12,14,7,6,1.0,1
2026-02-14T1600,3402A,109.5422,24.3994,柳州市,市二中,,37,37,28,19,18,88,,40,40,8,12,5,5,0.6,0.7
2026-02-14T1600,2307A,116.5078,31.7369,六安市,监测大楼,,44,44,69,25,48,108,,85,85,9,16,4,4,0.4,0.5
2026-02-14T1600,2308A,116.4738,31.7642,六安市,皖西学院,,50,50,81,22,48,122,,93,93,7,17,5,5,0.4,0.6
2026-02-14T1600,2309A,116.4997,31.7904,六安市,朝阳厂,,46,46,72,26,50,114,,86,86,10,23,6,6,0.4,0.6
2026-02-14T1600,2310A,116.5566,31.7885,六安市,开发区,,39,34,74,22,50,123,,95,95,11,15,5,5,0.5,0.7
2026-02-14T1600,2577A,104.8293,26.592,六盘水市,黄土坡,,38,35,54,26,43,116,,67,67,11,21,9,10,0.5,1.1
2026-02-14T1600,2579A,104.8481,26.5898,六盘水市,民中,,36,28,65,19,52,114,,66,66,10,26,7,10,0.5,1.2
2026-02-14T1600,2580A,104.9541,26.5506,六盘水市,双水,,43,41,49,30,37,101,,80,80,10,14,7,6,0.6,0.8
2026-02-14T1600,4151A,104.8899,26.5685,六盘水市,钟山大道中段564号,,41,41,77,24,45,107,,73,73,6,17,8,10,0.5,1.1
2026-02-14T1600,2336A,117.022,25.1031,龙岩市,龙岩市监测站,,31,15,28,10,19,97,,92,92,3,12,6,6,0.5,0.7
2026-02-14T1600,2337A,117.0257,25.0662,龙岩市,闽西职业技术学院,,31,16,28,9,17,99,,95,95,3,6,4,5,0.4,0.5
2026-02-14T1600,2338A,117.0195,25.0306,龙岩市,龙岩学院,,32,30,25,9,15,102,,97,97,3,6,4,4,/,/
2026-02-14T1600,2885A,104.9344,33.3827,陇南市,滨江中学,,,72,82,,62,99,,67,67,8,36,6,15,0.6,1.6
2026-02-14T1600,3247A,104.9551,33.3709,陇南市,市总工会,,49,49,64,25,35,96,,66,66,9,29,4,8,0.6,1
2026-02-14T1600,2488A,111.9984,27.7346,娄底市,市监测站,,45,45,86,27,64,81,,37,37,9,22,4,6,0.5,1.3
2026-02-14T1600,2491A,111.9888,27.7035,娄底市,市政府,,29,29,59,18,44,70,,32,32,16,8,4,3,0.2,0.8
2026-02-14T1600,4127A,111.9812,27.7591,娄底市,涟钢职大,,32,32,75,13,54,89,,34,34,10,20,4,4,1.1,1.8
2026-02-14T1600,4128A,112.0303,27.7457,娄底市,娄底体校,,35,35,84,22,61,72,,24,24,3,15,4,3,0.6,1.4
2026-02-14T1600,1894A,105.4427,28.9063,泸州市,小市上码头,细颗粒物(PM2.5),69,69,80,50,61,136,,84,84,12,17,7,6,1.0,1
2026-02-14T1600,1895A,105.4241,28.8573,泸州市,兰田宪桥,细颗粒物(PM2.5),64,73,80,46,55,129,,75,75,13,23,11,10,1.0,1
2026-02-14T1600,1896A,105.4378,28.8833,泸州市,市环监站,细颗粒物(PM2.5),82,72,88,60,63,128,,76,76,10,19,10,9,0.7,0.8
2026-02-14T1600,4272A,105.3689,28.7783,泸州市,纳溪中医医院,细颗粒物(PM2.5),74,67,83,54,61,135,,66,66,10,16,10,9,0.6,0.7
2026-02-14T1600,2183A,111.1447,37.5212,吕梁市,环保局,颗粒物(PM10),69,87,96,31,29,110,,61,61,11,33,5,9,0.4,0.5
2026-02-14T1600,2185A,111.1285,37.5338,吕梁市,自来水公司,颗粒物(PM10),67,83,118,32,37,108,,60,60,11,36,4,15,0.3,0.5
2026-02-14T1600,2867A,111.1225,37.5093,吕梁市,马茂庄小学,颗粒物(PM10),76,102,118,32,40,104,,57,57,13,42,5,17,0.2,0.4
2026-02-14T1600,1812A,112.3934,34.6517,洛阳市,市委党校,细颗粒物(PM2.5),78,84,113,57,67,120,,74,74,25,43,22,12,0.9,1.1
2026-02-14T1600,1815A,112.494,34.6883,洛阳市,河南林校,颗粒物(PM10),69,88,121,46,60,132,,80,80,21,44,28,18,0.5,0.8
2026-02-14T1600,1816A,112.3843,34.623,洛阳市,开发区管委会,颗粒物(PM10),74,97,122,35,47,128,,79,79,17,24,26,14,0.6,0.7
2026-02-14T1600,1817A,112.4263,34.6249,洛阳市,市委新办公区,"颗粒物(PM10),细颗粒物(PM2.5)",73,95,111,53,50,129,,81,81,18,29,30,13,0.7,0.7
2026-02-14T1600,3340A,112.6005,34.6323,洛阳市,伊滨,颗粒物(PM10),69,87,124,43,56,128,,85,85,18,28,17,12,0.6,0.7
2026-02-14T1600,3341A,112.495,34.6338,洛阳市,中移产业园,颗粒物(PM10),70,90,99,50,53,129,,80,80,20,33,39,14,0.9,0.9
2026-02-14T1600,3593A,112.5736,34.8993,洛阳市,吉利监测站,颗粒物(PM10),57,64,100,26,42,134,,103,103,14,23,12,11,0.6,0.7
2026-02-14T1600,3635A,112.3678,34.6623,洛阳市,河科大西苑校区,颗粒物(PM10),64,77,125,38,64,127,,84,84,20,40,22,21,0.7,1.2
2026-02-14T1600,3636A,112.4387,34.678,洛阳市,英才小学,颗粒物(PM10),73,95,142,51,72,130,,76,76,24,60,29,21,0.9,1.2
2026-02-14T1600,4214A,112.460027,34.694929,洛阳市,春都路1号院,颗粒物(PM10),78,105,137,46,64,127,,75,75,26,43,27,16,0.8,0.9
2026-02-14T1600,2399A,114.051,33.5721,漯河市,三五一五工厂,颗粒物(PM10),68,85,134,40,75,121,,95,95,11,26,6,7,0.9,1
2026-02-14T1600,2400A,114.0055,33.5698,漯河市,漯河大学,颗粒物(PM10),57,63,112,32,70,115,,93,93,14,27,6,8,0.7,0.8
2026-02-14T1600,2401A,114.0134,33.5826,漯河市,市水利局,颗粒物(PM10),57,63,115,34,72,120,,100,100,10,22,6,7,0.6,0.9
2026-02-14T1600,2402A,114.0261,33.5697,漯河市,市广电局,细颗粒物(PM2.5),63,63,112,45,72,112,,92,92,9,21,6,8,0.6,0.8
2026-02-14T1600,3478A,113.9691,33.568,漯河市,市图书馆,颗粒物(PM10),58,65,124,30,65,106,,88,88,6,14,6,9,0.7,0.9
2026-02-14T1600,4250A,114.089259,33.588274,漯河市,韶山路11号,颗粒物(PM10),62,73,127,43,68,121,,97,97,12,23,7,8,0.6,0.7
2026-02-14T1600,1798A,118.5084,31.6838,马鞍山市,湖东路四小,颗粒物(PM10),56,62,81,34,54,117,,74,74,12,35,7,7,0.5,0.8
2026-02-14T1600,1799A,118.5019,31.6449,马鞍山市,开发区,颗粒物(PM10),58,65,78,36,49,119,,75,75,17,38,7,6,0.4,0.6
2026-02-14T1600,3633A,118.4914,31.681,马鞍山市,雨山,颗粒物(PM10),62,74,81,36,48,118,,75,75,12,35,4,5,0.7,1
2026-02-14T1600,4191A,118.527362,31.722269,马鞍山市,慈湖高新区,颗粒物(PM10),52,54,86,35,52,121,,75,75,12,33,7,8,0.5,0.8
2026-02-14T1600,1686A,111.0285,21.469,茂名市,电白南海,,36,36,48,12,27,84,,82,82,6,11,4,7,0.8,0.9
2026-02-14T1600,1687A,110.9294,21.6533,茂名市,茂石化七小,,34,34,48,14,25,95,,81,81,5,9,6,8,0.4,0.4
2026-02-14T1600,1688A,110.9108,21.6688,茂名市,健康路,,33,31,40,13,23,104,,98,98,7,9,4,7,0.6,0.7
2026-02-14T1600,1689A,110.8592,21.6826,茂名市,高岭,,,,56,14,29,98,,93,93,4,9,,5,/,/
2026-02-14T1600,3450A,111.0101,21.5165,茂名市,电白水东,,29,24,38,10,22,90,,90,90,16,19,3,4,/,/
2026-02-14T1600,2540A,103.8414,30.0871,眉山市,气象局,细颗粒物(PM2.5),64,58,82,46,59,132,,80,80,8,22,4,9,0.7,0.8
2026-02-14T1600,3148A,103.829,30.0563,眉山市,区人社局,细颗粒物(PM2.5),73,72,89,53,62,121,,68,68,11,34,6,6,0.6,0.8
2026-02-14T1600,4148A,103.8836,30.0695,眉山市,眉职院,颗粒物(PM10),61,72,81,42,49,126,,84,84,6,14,6,5,0.8,0.8
2026-02-14T1600,1690A,116.1248,24.3307,梅州市,梅江月梅,,32,14,33,7,25,101,,94,94,7,13,/,/,/,/
2026-02-14T1600,1691A,116.0798,24.2719,梅州市,梅县新城,,33,12,38,7,27,104,,94,94,8,17,7,8,0.5,0.7
2026-02-14T1600,3315A,116.1234,24.2994,梅州市,梅龙,,30,17,39,8,28,96,,89,89,5,17,7,8,0.6,0.9
2026-02-14T1600,1878A,104.7775,31.4741,绵阳市,富乐山,细颗粒物(PM2.5),68,75,83,49,60,134,,88,88,10,13,10,9,0.8,0.8
2026-02-14T1600,1880A,104.6698,31.4668,绵阳市,高新区自来水公司,细颗粒物(PM2.5),68,73,99,49,70,123,,81,81,11,38,9,8,0.8,1
2026-02-14T1600,3491A,104.6899,31.5324,绵阳市,西科大附属小学,细颗粒物(PM2.5),87,83,102,64,71,136,,88,88,16,29,10,10,0.6,0.8
2026-02-14T1600,3492A,104.5647,31.5343,绵阳市,安州区旅游局,细颗粒物(PM2.5),70,54,96,51,75,136,,90,90,15,34,7,6,0.9,1.1
2026-02-14T1600,4146A,104.7092,31.4972,绵阳市,科技城新区公安局,"颗粒物(PM10),细颗粒物(PM2.5)",68,85,101,49,63,132,,88,88,15,31,6,6,0.8,1
2026-02-14T1600,4226A,104.765114,31.453094,绵阳市,绵阳市气象局,细颗粒物(PM2.5),72,72,91,52,66,126,,78,78,9,31,11,10,0.8,0.6
2026-02-14T1600,1784A,129.61,44.561,牡丹江市,环保大楼,细颗粒物(PM2.5),114,136,116,86,96,30,,48,48,86,54,15,10,1.2,1.2
2026-02-14T1600,1787A,129.6364,44.6075,牡丹江市,机车工厂,细颗粒物(PM2.5),113,111,97,85,80,58,,60,60,45,48,15,11,0.9,1
2026-02-14T1600,1788A,129.6386,44.5462,牡丹江市,第一中学,细颗粒物(PM2.5),97,130,75,72,70,97,,59,59,36,40,13,11,1.0,1.1
2026-02-14T1600,4287A,129.5992,44.5964,牡丹江市,东晓云街98号,细颗粒物(PM2.5),117,141,103,88,82,38,,46,46,69,45,17,14,1.2,1.1
2026-02-14T1600,2531A,105.0703,29.61,内江市,市监测站,细颗粒物(PM2.5),58,46,76,41,68,139,,95,95,14,33,7,7,0.3,0.7
2026-02-14T1600,2533A,105.0657,29.5807,内江市,内江二中,细颗粒物(PM2.5),59,64,90,42,62,129,,82,82,16,41,8,8,0.4,0.7
2026-02-14T1600,2534A,105.0407,29.5828,内江市,内江日报社,细颗粒物(PM2.5),62,51,73,44,62,147,,88,88,15,47,13,11,0.4,0.6
2026-02-14T1600,4147A,105.0433,29.6105,内江市,玉峰路西段888号,细颗粒物(PM2.5),55,49,77,39,64,143,,90,90,15,34,8,6,0.5,0.8
2026-02-14T1600,2628A,92.0653,31.4846,那曲市,那曲监测站,,31,31,40,6,23,86,,77,77,4,20,8,12,0.6,1
2026-02-14T1600,4243A,92.0515,31.4787,那曲市,那曲市委宣传部,,30,30,22,10,15,88,,82,82,1,10,4,6,0.3,0.7
2026-02-14T1600,1291A,115.8887,28.7006,南昌市,省林业公司,,39,,21,27,27,63,,34,34,8,19,3,3,1.0,1
2026-02-14T1600,1292A,115.813,28.7443,南昌市,林科所,,29,22,25,20,22,65,,34,34,12,17,7,7,1.2,1.1
2026-02-14T1600,1294A,115.8518,28.687,南昌市,建工学校,,38,38,38,26,27,62,,31,31,11,20,6,6,0.7,0.7
2026-02-14T1600,1295A,115.8926,28.6425,南昌市,象湖,,35,,18,24,28,74,,37,37,10,16,8,7,1.3,1.3
2026-02-14T1600,3046A,115.9084,28.6062,南昌市,机电学校,,45,37,37,31,31,78,,45,45,5,17,5,4,0.9,0.9
2026-02-14T1600,3690A,115.9718,28.7032,南昌市,外国语学校,,43,36,33,30,34,76,,41,41,11,20,7,8,1.1,1.1
2026-02-14T1600,4106A,115.7923,28.6873,南昌市,工业二路,,38,34,37,26,29,66,,33,33,12,18,4,4,1.1,1
2026-02-14T1600,4192A,115.931587,28.686774,南昌市,南京东路235号,,33,30,41,23,29,74,,44,44,7,18,4,4,0.7,0.8
2026-02-14T1600,1906A,106.0791,30.8022,南充市,南充市委,颗粒物(PM10),58,66,75,40,57,121,,73,73,8,33,6,6,0.5,1.1
2026-02-14T1600,1907A,106.1038,30.8215,南充市,南充炼油厂,"颗粒物(PM10),细颗粒物(PM2.5)",57,63,91,40,63,110,,72,72,19,34,6,5,0.6,0.7
2026-02-14T1600,4227A,106.108336,30.788436,南充市,梨树横街98号,细颗粒物(PM2.5),62,63,88,44,65,119,,75,75,13,38,7,7,0.4,0.6
2026-02-14T1600,4304A,106.1172,30.843,南充市,清泉寺北路188号,细颗粒物(PM2.5),58,59,79,41,63,124,,80,80,7,18,5,5,0.5,0.7
2026-02-14T1600,4305A,106.067,30.7616,南充市,同庆路1号,细颗粒物(PM2.5),64,66,85,46,58,111,,69,69,15,40,6,6,0.5,0.7
2026-02-14T1600,1151A,118.8033,32.1085,南京市,迈皋桥,颗粒物(PM10),53,56,70,34,44,125,,79,79,13,38,8,9,0.2,0.6
2026-02-14T1600,1152A,118.7487,32.057,南京市,草场门,颗粒物(PM10),56,61,76,31,43,86,,53,53,14,58,10,11,1.0,1.1
2026-02-14T1600,1154A,118.770105,32.004342,南京市,中华门,颗粒物(PM10),57,63,71,24,41,132,,78,78,11,26,8,5,1.1,0.8
2026-02-14T1600,1155A,118.8059,32.0329,南京市,瑞金路,颗粒物(PM10),59,68,75,25,46,136,,80,80,20,55,5,4,2.2,2.3
2026-02-14T1600,1156A,118.7946,32.0774,南京市,玄武湖,颗粒物(PM10),54,58,73,24,37,137,,82,82,7,34,1,3,1.0,1.2
2026-02-14T1600,1157A,118.6415,32.0964,南京市,浦口,颗粒物(PM10),59,67,82,28,46,124,,81,81,21,26,6,8,0.6,0.9
2026-02-14T1600,1158A,118.730129,32.000956,南京市,奥体中心,颗粒物(PM10),61,72,79,22,43,133,,77,77,15,42,15,9,1.1,0.8
2026-02-14T1600,1159A,118.9072,32.1047,南京市,仙林大学城,颗粒物(PM10),60,70,75,21,36,130,,84,84,11,34,8,8,0.7,0.8
2026-02-14T1600,3422A,118.8443,31.919,南京市,江宁彩虹桥,颗粒物(PM10),61,71,78,22,37,134,,91,91,4,43,4,4,0.7,0.8
2026-02-14T1600,3427A,118.8497,32.3599,南京市,六合雄州,,47,47,92,17,50,79,,53,53,9,42,4,4,0.8,1.2
2026-02-14T1600,4086A,118.7641,32.0841,南京市,新模范马路66号,颗粒物(PM10),58,66,87,15,48,135,,76,76,2,48,4,4,0.8,1.2
2026-02-14T1600,4249A,118.8707617,31.34017673,南京市,汶溪路181号,颗粒物(PM10),60,69,63,28,36,110,,73,73,13,19,7,5,0.9,0.9
2026-02-14T1600,4312A,119.019,31.6512,南京市,中山西路1号,颗粒物(PM10),56,61,52,27,30,114,,73,73,16,23,4,4,0.9,0.9
2026-02-14T1600,1401A,108.3098,22.788,南宁市,二十一中,,29,29,45,12,26,73,,53,53,11,18,4,4,0.5,0.7
2026-02-14T1600,1402A,108.3135,22.8529,南宁市,北湖,,27,24,69,14,52,85,,52,52,7,32,2,2,0.5,1
2026-02-14T1600,1403A,108.3205,22.8222,南宁市,市监测站,,26,19,46,10,30,81,,58,58,11,24,5,5,0.5,0.8
2026-02-14T1600,1404A,108.3828,22.8038,南宁市,大自然花园,,25,16,33,10,22,80,,64,64,6,11,5,5,0.4,0.6
2026-02-14T1600,1406A,108.2397,22.8462,南宁市,区农职院,,33,33,57,18,35,94,,64,64,8,27,3,3,0.3,0.7
2026-02-14T1600,1407A,108.3285,22.7356,南宁市,英华嘉园,,48,48,53,12,23,73,,55,55,7,17,2,3,0.4,0.6
2026-02-14T1600,3401A,108.4829,22.762,南宁市,红星社区,,36,36,42,11,27,84,,63,63,4,13,4,5,0.7,0.9
2026-02-14T1600,4132A,108.2927,23.1477,南宁市,起凤路9号,,29,26,46,19,33,90,,59,59,6,13,2,2,0.5,0.7
2026-02-14T1600,4221A,108.2177,22.7774,南宁市,乐贤路16号,,27,24,39,10,23,85,,64,64,6,24,3,2,0.4,0.6
2026-02-14T1600,2332A,118.1682,26.6371,南平市,南平市监测站,,29,20,50,12,27,91,,72,72,6,19,3,5,0.5,0.9
2026-02-14T1600,2334A,118.1757,26.6276,南平市,南平七中,,30,29,39,13,28,93,,72,72,3,16,2,3,0.5,0.8
2026-02-14T1600,1168A,120.9056,31.9669,南通市,狼山街道,颗粒物(PM10),71,91,96,28,64,115,,69,69,35,42,16,6,1.6,0.9
2026-02-14T1600,1170A,120.8635,32.0231,南通市,城中,颗粒物(PM10),77,103,118,43,77,134,,79,79,26,46,8,7,0.7,0.9
2026-02-14T1600,1171A,120.9376,31.9301,南通市,星湖花园,颗粒物(PM10),67,84,101,37,70,112,,68,68,40,51,16,9,1.5,1
2026-02-14T1600,1172A,120.8053,32.046,南通市,紫琅学院,颗粒物(PM10),67,83,126,40,77,139,,80,80,16,48,6,7,0.7,1
2026-02-14T1600,3291A,121.0631,32.0644,南通市,通州监测站,颗粒物(PM10),60,70,101,33,60,147,,101,101,14,30,6,8,0.7,1
2026-02-14T1600,3432A,120.9348,31.9874,南通市,环境教育馆,颗粒物(PM10),68,85,94,47,61,124,,73,73,43,42,9,7,1.0,0.7
2026-02-14T1600,4091A,120.8692,31.9885,南通市,洪江路,颗粒物(PM10),64,78,98,31,75,125,,68,68,25,51,12,9,1.1,1
2026-02-14T1600,2404A,112.5338,33.0086,南阳市,瓦房庄,颗粒物(PM10),60,69,115,33,72,110,,78,78,9,21,5,7,0.7,1.1
2026-02-14T1600,2405A,112.5002,32.9734,南阳市,汉画馆,颗粒物(PM10),63,76,128,43,90,113,,79,79,10,24,6,7,0.9,1.2
2026-02-14T1600,2406A,112.5778,33.0144,南阳市,气象站,颗粒物(PM10),65,79,134,29,69,114,,85,85,10,22,6,8,0.7,1.1
2026-02-14T1600,2407A,112.548,32.9687,南阳市,理工学院,颗粒物(PM10),63,75,121,33,81,112,,81,81,8,19,6,7,0.7,1
2026-02-14T1600,4008A,112.5233,32.9921,南阳市,卧龙区政府,颗粒物(PM10),57,63,141,31,77,105,,73,73,9,23,6,7,0.7,1
2026-02-14T1600,1234A,121.8352,29.9111,宁波市,区环保大楼,,30,30,48,13,25,76,,61,61,20,31,6,7,0.6,0.6
2026-02-14T1600,1235A,121.5595,29.8208,宁波市,万里学院,,25,23,37,13,24,78,,70,66,8,12,4,4,0.9,0.8
2026-02-14T1600,1236A,121.713,29.9564,宁波市,龙赛医院,,43,38,44,30,28,67,,63,62,29,23,4,5,0.9,0.8
2026-02-14T1600,1240A,121.5855,29.8635,宁波市,太古小学,,25,18,42,11,23,80,,68,67,10,15,3,3,0.6,0.6
2026-02-14T1600,1241A,121.5239,29.8673,宁波市,市环境监测中心,,29,29,50,11,29,65,,55,55,5,15,2,3,0.7,0.8
2026-02-14T1600,2871A,121.6156,29.9015,宁波市,万里国际学校,,42,31,44,29,30,78,,64,64,16,15,5,4,0.8,0.7
2026-02-14T1600,3710A,121.5593,29.8976,宁波市,白沙活动中心,,27,27,46,16,29,74,,62,62,12,17,4,4,0.5,0.5
2026-02-14T1600,4095A,121.8962,29.7529,宁波市,中科路88号,,25,18,34,17,25,55,,44,42,26,22,6,6,0.5,0.5
2026-02-14T1600,2341A,119.5387,26.6611,宁德市,宁德市监测站,,50,50,44,32,30,113,,85,85,19,25,5,4,1.3,1.2
2026-02-14T1600,3209A,119.5231,26.6562,宁德市,宁德一中,,50,50,44,34,30,109,,89,89,21,17,5,4,1.3,1.1
2026-02-14T1600,2618A,98.859,25.8541,怒江傈僳族自治州,州监测站,,32,26,29,14,17,102,,72,72,5,8,6,6,0.2,0.3
2026-02-14T1600,2619A,98.8607,25.8168,怒江傈僳族自治州,泸水一中,,44,44,29,8,24,93,,63,63,5,13,5,5,0.3,0.6
2026-02-14T1600,1888A,101.6891,26.571,攀枝花市,弄弄坪,,35,22,41,16,21,111,,68,68,6,27,13,18,0.6,1.1
2026-02-14T1600,1889A,101.577,26.5914,攀枝花市,河门口,,39,30,34,19,19,124,,72,72,12,15,27,28,1.6,1
2026-02-14T1600,1891A,101.7365,26.4986,攀枝花市,仁和,,35,30,31,21,19,109,,74,74,8,14,22,14,0.6,0.8
2026-02-14T1600,2835A,101.7222,26.567,攀枝花市,四十中小,,34,33,43,12,23,107,,63,63,10,39,15,15,0.8,1.1
2026-02-14T1600,1604A,122.0303,41.1489,盘锦市,开发区,颗粒物(PM10),63,75,99,27,86,86,,88,88,12,19,7,7,0.4,0.8
2026-02-14T1600,1605A,122.0486,41.0883,盘锦市,兴隆台,,,67,93,30,90,95,,96,94,,24,7,7,0.5,0.8
2026-02-14T1600,1606A,121.8297,41.1026,盘锦市,新生街道,,,,85,23,88,87,,84,,12,22,8,8,0.3,1
2026-02-14T1600,1832A,113.3257,33.7423,平顶山市,新华旅馆,细颗粒物(PM2.5),73,75,122,53,76,116,,90,90,14,29,6,7,0.4,0.6
2026-02-14T1600,1833A,113.2917,33.737,平顶山市,规划设计院,颗粒物(PM10),71,91,145,45,78,114,,86,86,7,23,7,7,0.4,0.6
2026-02-14T1600,1834A,113.182,33.7738,平顶山市,平顶山工学院,颗粒物(PM10),66,81,129,39,72,123,,98,98,10,17,8,10,0.5,0.6
2026-02-14T1600,3594A,112.8736,33.9068,平顶山市,石龙区,颗粒物(PM10),74,98,126,45,61,128,,102,102,22,19,10,8,0.6,0.8
2026-02-14T1600,4116A,113.284,33.7139,平顶山市,姚电大道23号,颗粒物(PM10),63,75,151,41,78,118,,89,89,9,20,4,6,0.5,0.7
2026-02-14T1600,2656A,106.6633,35.5338,平凉市,聚贤嘉苑,颗粒物(PM10),86,122,72,39,28,97,,77,77,6,14,8,7,0.4,0.5
2026-02-14T1600,2657A,106.7021,35.5307,平凉市,博物馆,颗粒物(PM10),83,116,75,37,34,93,,71,71,6,20,9,9,0.4,0.9
2026-02-14T1600,2348A,113.8384,27.6436,萍乡市,中医院,,24,22,73,16,56,76,,48,48,6,24,4,6,0.4,2.1
2026-02-14T1600,2350A,113.8677,27.6438,萍乡市,市环保局,,29,29,68,15,57,87,,55,55,11,28,14,9,0.3,2.1
2026-02-14T1600,2351A,113.8663,27.6202,萍乡市,安源区政府,,25,21,67,17,55,63,,37,37,6,21,5,5,0.6,2.1
2026-02-14T1600,4107A,113.8686,27.6668,萍乡市,联洪村委会,,26,23,74,18,60,71,,44,44,2,23,2,3,0.3,1.9
2026-02-14T1600,2319A,119.0142,25.4324,莆田市,荔城区仓后路,,45,45,53,17,35,138,,117,117,14,16,/,/,/,/
2026-02-14T1600,2320A,119.0016,25.4553,莆田市,莆田市监测站,颗粒物(PM10),54,57,43,21,32,146,,119,119,13,12,4,3,0.6,0.6
2026-02-14T1600,2321A,119.112,25.4561,莆田市,涵江区六中,,46,46,50,25,33,140,,132,132,13,15,/,/,0.6,0.7
2026-02-14T1600,2322A,119.1014,25.3215,莆田市,秀屿区政府,,45,45,65,30,56,130,,113,113,12,16,4,5,0.6,0.6
2026-02-14T1600,2392A,115.0312,35.7636,濮阳市,环保局,"颗粒物(PM10),细颗粒物(PM2.5)",82,113,152,60,87,148,,108,108,19,24,8,9,0.5,0.8
2026-02-14T1600,3021A,115,35.7667,濮阳市,濮水河管理处,颗粒物(PM10),78,106,169,49,93,155,,114,114,12,22,8,10,0.6,0.8
2026-02-14T1600,4118A,115.0552,35.7816,濮阳市,中原东路68号,颗粒物(PM10),90,130,174,50,89,153,,113,113,19,27,7,10,0.7,0.9
2026-02-14T1600,4216A,115.0923632,35.76857718,濮阳市,任丘路479号,颗粒物(PM10),86,121,181,62,101,150,,108,108,19,31,6,9,0.5,0.8
2026-02-14T1600,2601A,100.9801,22.7634,普洱市,市环保局,,46,46,59,18,27,112,,88,88,5,9,5,5,0.4,0.6
2026-02-14T1600,2602A,100.9763,22.8237,普洱市,普洱第二中学,,50,50,60,20,31,114,,86,86,5,22,6,6,0.4,0.5
2026-02-14T1600,3345A,131.0413,45.7795,七台河市,中波台,,27,27,54,16,45,78,,84,84,12,16,8,9,0.3,0.4
2026-02-14T1600,3637A,131.0136,45.7688,七台河市,人民广场,颗粒物(PM10),52,54,79,23,54,74,,80,80,17,29,12,10,0.5,0.8
2026-02-14T1600,3684A,130.8639,45.8144,七台河市,新建矿广场,,34,34,71,17,55,78,,80,80,15,23,8,13,0.5,0.7
2026-02-14T1600,1779A,123.9307,47.3641,齐齐哈尔市,安居小区,,25,16,66,11,47,78,,75,75,7,16,12,15,0.4,0.6
2026-02-14T1600,1780A,123.9497,47.3389,齐齐哈尔市,中心广场,,24,21,67,12,48,75,,77,74,12,16,8,9,0.5,0.7
2026-02-14T1600,1781A,123.9483,47.3229,齐齐哈尔市,农牧车辆厂,,33,,64,23,52,78,,77,76,5,12,5,6,0.1,0.4
2026-02-14T1600,1783A,123.9442,47.2994,齐齐哈尔市,市环境监测站,,25,20,68,11,51,80,,78,78,9,16,4,5,0.4,0.6
2026-02-14T1600,3662A,123.6341,47.2079,齐齐哈尔市,富区青少年活动中心,,26,22,74,15,52,82,,82,82,4,9,5,6,0.3,0.6
2026-02-14T1600,2591A,107.9765,26.5724,黔东南苗族侗族自治州,市环境监测站,,22,20,42,14,34,69,,40,40,2,16,2,4,0.5,0.8
2026-02-14T1600,2881A,107.8909,26.531,黔东南苗族侗族自治州,凯里学院,,23,22,38,13,33,71,,42,42,10,11,8,8,0.5,0.7
2026-02-14T1600,2593A,107.5223,26.2371,黔南布依族苗族自治州,小围寨,,23,14,26,12,23,71,,46,46,3,9,4,7,0.7,1
2026-02-14T1600,3538A,107.5175,26.2977,黔南布依族苗族自治州,沙坝,,23,22,35,10,26,73,,39,39,5,12,4,7,0.6,0.7
2026-02-14T1600,2589A,104.9022,25.0943,黔西南布依族苗族自治州,场坝街,,33,24,31,23,24,72,,48,48,7,9,6,4,0.7,0.8
2026-02-14T1600,2590A,104.8812,25.0994,黔西南布依族苗族自治州,坪东大道,,38,,33,26,25,75,,48,48,6,12,6,5,0.6,0.9
2026-02-14T1600,2502A,108.6238,21.9667,钦州市,市环保站,,36,36,58,22,38,105,,85,85,5,13,3,4,0.5,0.7
2026-02-14T1600,2503A,108.655,21.9481,钦州市,沙埠小学,,38,35,55,24,34,121,,88,88,7,14,6,6,0.6,0.6
2026-02-14T1600,2504A,108.5989,21.7435,钦州市,港区一小,,32,32,57,14,32,93,,76,76,6,25,3,2,0.4,0.6
2026-02-14T1600,3404A,108.5959,21.9634,钦州市,北职校,,34,34,58,19,34,101,,84,84,6,15,3,3,0.7,0.8
2026-02-14T1600,1046A,119.5247,39.9346,秦皇岛市,建设大厦,细颗粒物(PM2.5),127,156,194,96,132,94,,60,56,26,38,10,14,0.9,1.2
2026-02-14T1600,3132A,119.5979,39.938,秦皇岛市,文明里,细颗粒物(PM2.5),117,167,187,88,120,90,,61,57,35,57,14,15,0.9,1
2026-02-14T1600,4066A,119.7458,39.9952,秦皇岛市,南园路157号,细颗粒物(PM2.5),120,141,181,91,130,93,,58,58,28,58,9,12,1.0,1.1
2026-02-14T1600,4067A,119.5131,39.8858,秦皇岛市,翠岛大街1号,细颗粒物(PM2.5),135,139,164,103,130,86,,62,62,22,37,10,15,0.8,1.1
2026-02-14T1600,4198A,119.509013,39.825305,秦皇岛市,北戴河轮滑馆,细颗粒物(PM2.5),142,157,187,108,123,94,,66,66,28,47,9,10,0.8,1
2026-02-14T1600,1310A,120.404,36.0625,青岛市,市南区东部子站,细颗粒物(PM2.5),109,107,125,82,87,100,,114,104,21,19,11,11,0.8,0.8
2026-02-14T1600,1311A,120.362344,36.10282,青岛市,四方区子站,细颗粒物(PM2.5),128,144,121,97,83,145,,121,121,30,24,18,9,1.9,1.1
2026-02-14T1600,1312A,120.294373,36.054183,青岛市,市南区西部子站,细颗粒物(PM2.5),105,92,107,79,92,96,,111,100,27,24,5,5,0.9,0.9
2026-02-14T1600,1313A,120.4581,36.0858,青岛市,崂山区子站,,,85,116,58,82,116,,115,113,,23,8,11,0.8,0.9
2026-02-14T1600,1315A,120.3945,36.3083,青岛市,城阳区子站,细颗粒物(PM2.5),80,107,115,59,65,147,,121,121,24,30,11,11,1.1,1.1
2026-02-14T1600,3642A,120.3454,36.0735,青岛市,市北区南部,细颗粒物(PM2.5),120,129,125,91,82,115,,119,108,30,21,6,4,1.3,1
2026-02-14T1600,3643A,120.3897,36.18,青岛市,李沧区北部,细颗粒物(PM2.5),92,122,116,68,72,140,,117,117,33,33,17,13,1.4,1.1
2026-02-14T1600,4110A,120.5222,36.4089,青岛市,盟旺路653号,颗粒物(PM10),62,74,118,40,59,95,,117,103,18,19,1,3,0.8,0.9
2026-02-14T1600,4290A,120.196923,35.954556,青岛市,珠江路669号,细颗粒物(PM2.5),113,110,112,85,81,102,,118,103,25,22,,9,0.9,0.8
2026-02-14T1600,4291A,120.0424,35.8656,青岛市,黄岛区人民政府广场,细颗粒物(PM2.5),120,117,117,91,85,92,,95,95,31,31,9,8,1.0,0.9
2026-02-14T1600,1703A,113.0218,23.7086,清远市,凤城街办,,42,34,50,22,35,132,,106,106,10,26,/,/,/,/
2026-02-14T1600,3025A,113.0479,23.6343,清远市,技师学院,,44,26,49,15,31,138,,104,104,9,21,4,6,0.4,0.5
2026-02-14T1600,3318A,112.9898,23.7403,清远市,清新太和,,45,37,41,25,27,144,,116,116,11,22,8,10,0.5,0.6
2026-02-14T1600,3455A,113.076,23.72,清远市,清城东城,,45,36,46,21,28,144,,108,108,12,30,/,/,/,/
2026-02-14T1600,2661A,107.6325,35.7357,庆阳市,庆阳五中,颗粒物(PM10),114,177,73,51,30,109,,83,83,12,18,9,11,0.4,0.4
2026-02-14T1600,2662A,107.6361,35.7067,庆阳市,市环保局,颗粒物(PM10),104,158,73,46,33,107,,90,84,9,11,7,5,0.5,0.4
2026-02-14T1600,1916A,103.7897,25.5036,曲靖市,环境监测站,,39,6,29,6,17,124,,94,94,5,12,4,5,0.3,0.4
2026-02-14T1600,1917A,103.8013,25.5357,曲靖市,烟厂办公区,,36,11,33,3,17,113,,78,78,4,19,4,5,0.2,0.4
2026-02-14T1600,3376A,103.7926,25.4651,曲靖市,南苑二区,,35,18,23,3,14,112,,85,85,12,13,4,4,0.3,0.4
2026-02-14T1600,3377A,103.7442,25.5259,曲靖市,曲靖师范学院,,36,,32,6,22,114,,82,82,4,14,2,3,0.3,0.4
2026-02-14T1600,1264A,118.8694,28.94,衢州市,环保大楼,,28,25,60,19,40,61,,38,38,9,26,/,/,/,/
2026-02-14T1600,1266A,118.8622,28.9809,衢州市,衢州学院,,26,22,52,18,38,53,,36,36,6,18,3,4,0.5,0.7
2026-02-14T1600,4097A,118.9646,28.9832,衢州市,衢州三中,,26,23,65,18,43,60,,37,37,7,24,5,6,0.8,1
2026-02-14T1600,1611A,118.5818,24.9116,泉州市,涂山街,,34,29,41,10,30,106,,92,92,8,14,3,3,0.6,0.6
2026-02-14T1600,1612A,118.597,24.8976,泉州市,津头埔,,31,26,41,10,32,97,,87,87,9,14,3,3,0.4,0.5
2026-02-14T1600,1613A,118.6669,24.9422,泉州市,万安,,30,30,41,8,29,95,,82,82,7,15,3,3,0.5,0.6
2026-02-14T1600,4105A,118.6355,24.9148,泉州市,霞新路6号,,31,16,38,10,27,99,,86,86,3,13,/,/,0.4,0.5
2026-02-14T1600,2626A,88.8873,29.2723,日喀则市,日喀则监测站,,33,6,29,3,13,105,,90,90,3,18,11,15,0.3,0.7
2026-02-14T1600,3726A,88.8775,29.2425,日喀则市,林业技术推广中心,,30,8,21,3,15,95,,86,86,3,13,11,13,0.2,0.5
2026-02-14T1600,1659A,119.4711,35.421,日照市,监测站,细颗粒物(PM2.5),130,149,150,99,100,116,,78,78,49,53,15,15,1.1,1.5
2026-02-14T1600,1660A,119.523,35.4216,日照市,市政府广场,细颗粒物(PM2.5),147,207,154,112,102,98,,74,74,61,44,17,14,0.9,1
2026-02-14T1600,1661A,119.5511,35.4113,日照市,港务局,细颗粒物(PM2.5),152,173,160,116,101,110,,77,77,44,42,10,9,1.0,1
2026-02-14T1600,3507A,119.5326,35.4627,日照市,职业技术学院,细颗粒物(PM2.5),160,183,146,122,99,103,,80,80,48,41,14,12,1.4,1.4
2026-02-14T1600,3604A,119.3267,35.1043,日照市,岚山环保分局,细颗粒物(PM2.5),129,151,154,98,97,104,,91,91,49,38,17,17,1.1,1.3
2026-02-14T1600,1835A,111.1922,34.7752,三门峡市,市政府,颗粒物(PM10),58,65,85,30,37,102,,77,77,15,31,14,13,0.4,0.6
2026-02-14T1600,1836A,111.1588,34.794,三门峡市,开发区,颗粒物(PM10),66,81,114,41,51,110,,74,74,13,25,11,12,0.5,0.7
2026-02-14T1600,3039A,111.1911,34.7829,三门峡市,三门峡市第一小学,颗粒物(PM10),64,78,101,36,46,105,,78,78,17,25,16,14,0.5,0.7
2026-02-14T1600,3598A,111.1031,34.719,三门峡市,富达温泉假日酒店,颗粒物(PM10),73,95,101,46,51,108,,65,65,31,34,18,21,0.7,1
2026-02-14T1600,2324A,117.621,26.2626,三明市,三钢,,28,17,33,12,28,87,,71,71,11,17,9,7,0.9,1
2026-02-14T1600,2325A,117.6352,26.2714,三明市,三明二中,,28,14,32,14,25,88,,71,71,8,18,7,8,0.6,1
2026-02-14T1600,2326A,117.6028,26.2377,三明市,三元区政府,,30,25,34,15,25,96,,74,74,6,18,3,4,0.6,1.1
2026-02-14T1600,1877A,109.4962,18.2682,三亚市,河西子站,,29,29,29,9,13,89,,80,80,2,5,1,2,0.3,0.4
2026-02-14T1600,3540A,109.7348,18.3443,三亚市,君悦子站,,33,33,32,13,16,85,,77,77,3,7,3,3,0.5,0.5
2026-02-14T1600,4135A,109.1714,18.3739,三亚市,城东小学站,,29,25,30,12,17,92,,77,77,4,8,/,/,/,/
2026-02-14T1600,2624A,91.7592,29.234,山南市,山南监测站,,30,27,11,3,3,96,,90,84,1,3,1,2,0.2,0.3
2026-02-14T1600,2625A,91.7701,29.2436,山南市,山南人民医院,颗粒物(PM10),55,60,15,3,6,96,,86,83,1,4,7,9,0.4,0.4
2026-02-14T1600,1674A,116.6795,23.3666,汕头市,金平子站,,29,26,37,6,28,91,,96,96,4,17,4,5,0.7,0.8
2026-02-14T1600,1675A,116.7248,23.3632,汕头市,龙湖子站,,39,39,41,7,27,91,,95,95,4,14,9,10,/,/
2026-02-14T1600,1676A,116.7257,23.2774,汕头市,濠江子站,,29,29,45,8,27,88,,84,84,11,20,8,8,/,/
2026-02-14T1600,1677A,116.7518,23.4712,汕头市,澄海子站,,43,43,47,8,28,88,,93,93,2,11,6,6,0.7,0.8
2026-02-14T1600,1678A,116.6088,23.2539,汕头市,潮阳子站,,29,27,35,8,27,91,,88,88,3,13,5,6,0.5,0.7
2026-02-14T1600,3444A,116.4539,23.2684,汕头市,潮南峡山,,31,21,46,9,31,99,,95,95,2,10,6,6,0.7,0.8
2026-02-14T1600,3624A,116.4069,23.2533,汕头市,潮南子站,,28,18,55,7,37,89,,86,86,5,10,6,6,/,/
2026-02-14T1600,1693A,115.3653,22.7751,汕尾市,市环保局,,24,18,32,3,23,76,,88,87,4,11,4,5,0.6,0.7
2026-02-14T1600,1695A,115.362,22.7926,汕尾市,新城中学,,28,23,34,6,22,87,,88,88,7,10,5,5,0.6,0.7
2026-02-14T1600,2645A,109.9155,33.8714,商洛市,监测站,,49,42,56,34,32,107,,79,79,12,19,9,7,0.6,0.7
2026-02-14T1600,3045A,109.9647,33.8486,商洛市,商州区中学,颗粒物(PM10),61,72,55,24,30,105,,78,78,7,18,6,6,0.4,0.6
2026-02-14T1600,2408A,115.6701,34.4283,商丘市,环境监测站,"颗粒物(PM10),细颗粒物(PM2.5)",72,94,127,52,75,141,,108,108,13,21,7,7,0.5,0.7
2026-02-14T1600,2409A,115.6458,34.4047,商丘市,粮食局,颗粒物(PM10),71,91,116,45,67,132,,102,102,13,20,2,3,0.5,0.7
2026-02-14T1600,3171A,115.6069,34.4465,商丘市,梁园区档案局,颗粒物(PM10),65,80,118,41,69,139,,105,105,6,15,2,3,0.6,0.7
2026-02-14T1600,4119A,115.6701,34.3767,商丘市,北海东路185号,颗粒物(PM10),68,85,136,48,75,140,,103,103,9,20,4,4,0.6,0.7
2026-02-14T1600,4120A,115.6172,34.3704,商丘市,中山大街3号,颗粒物(PM10),70,89,148,47,76,135,,100,100,14,26,3,5,0.5,0.7
2026-02-14T1600,1141A,121.401,31.2382,上海市,普陀,,39,31,68,19,55,123,,90,90,12,26,7,7,0.6,0.7
2026-02-14T1600,1142A,121.4774,31.2043,上海市,十五厂,,40,39,72,22,54,127,,92,92,17,31,8,8,0.7,0.8
2026-02-14T1600,1143A,121.4673,31.3011,上海市,虹口,细颗粒物(PM2.5),68,69,76,49,55,85,,83,83,50,28,12,6,1.1,0.8
2026-02-14T1600,1147A,121.4253,31.226,上海市,静安监测站,,40,32,72,20,49,126,,94,94,17,32,8,8,0.7,0.8
2026-02-14T1600,1148A,121.7029,31.1905,上海市,浦东川沙,细颗粒物(PM2.5),72,76,74,52,53,94,,81,81,54,38,15,9,2.0,1.2
2026-02-14T1600,1149A,121.5339,31.229,上海市,浦东新区监测站,,45,45,69,26,51,118,,90,90,22,26,7,6,0.9,0.8
2026-02-14T1600,1150A,121.5776,31.2038,上海市,浦东张江,,45,45,73,28,47,131,,97,97,21,38,8,7,0.5,0.4
2026-02-14T1600,3265A,121.4242,31.3303,上海市,宝山庙行,,45,45,87,19,53,122,,89,89,14,34,9,9,0.6,0.7
2026-02-14T1600,3266A,121.8789,31.4662,上海市,崇明上实东滩,细颗粒物(PM2.5),79,76,59,58,44,128,,92,92,19,38,6,6,0.6,0.4
2026-02-14T1600,3268A,121.316,31.2839,上海市,嘉定南翔,,39,38,77,24,53,123,,98,98,18,40,5,6,0.7,0.7
2026-02-14T1600,3269A,121.3357,30.7455,上海市,金山新城,细颗粒物(PM2.5),58,47,58,41,50,100,,74,74,20,24,6,5,1.0,0.9
2026-02-14T1600,3270A,121.4996,31.0741,上海市,闵行浦江,,39,34,65,22,49,124,,84,84,19,25,7,7,0.5,0.5
2026-02-14T1600,3271A,121.2886,31.1663,上海市,青浦徐泾,,42,39,77,25,57,133,,94,94,15,31,7,6,0.5,0.7
2026-02-14T1600,3272A,121.2193,31.0382,上海市,松江图书馆,,39,35,80,21,58,124,,88,88,6,22,6,7,0.6,0.7
2026-02-14T1600,3273A,121.3904,31.206,上海市,长宁仙霞,,37,32,72,16,46,118,,83,83,10,26,9,9,0.5,0.6
2026-02-14T1600,3274A,121.7964,31.0507,上海市,浦东惠南,细颗粒物(PM2.5),60,55,59,43,47,108,,89,89,32,30,6,5,0.9,0.9
2026-02-14T1600,3544A,121.4891,30.925,上海市,奉贤南桥新城,,38,26,65,17,49,119,,84,84,14,27,2,3,0.7,0.7
2026-02-14T1600,4183A,121.417401,31.16637,上海市,冠生园路458号,,,28,70,18,49,110,,82,82,24,33,7,6,,0.5
2026-02-14T1600,4205A,121.541914,31.268301,上海市,宁武路151号,,,71,70,52,53,87,,87,87,46,31,,7,0.8,0.9
2026-02-14T1600,2382A,117.9758,28.4439,上饶市,市监测站,,,28,45,21,35,80,,44,44,8,23,,9,/,/
2026-02-14T1600,2383A,117.9521,28.4637,上饶市,凤凰光学,,27,27,44,17,34,72,,35,35,13,26,10,11,0.8,0.9
2026-02-14T1600,3685A,117.897,28.4316,上饶市,双创科技城,,32,32,44,17,34,80,,42,42,8,21,8,7,0.9,1
2026-02-14T1600,4211A,118.190438,28.444845,上饶市,裕丰大道,,32,26,50,22,36,68,,36,36,11,21,13,13,0.9,1
2026-02-14T1600,1669A,113.5821,24.7733,韶关市,市八中,,45,40,71,27,46,143,,122,122,12,32,12,13,0.5,0.8
2026-02-14T1600,1671A,113.5916,24.7973,韶关市,园林处,,44,24,53,18,44,140,,107,107,10,31,10,9,/,/
2026-02-14T1600,1673A,113.5971,24.6864,韶关市,曲江监测站,,40,35,54,25,39,126,,94,94,14,21,9,8,0.7,0.7
2026-02-14T1600,2809A,113.6668,24.7756,韶关市,大学路288号,,45,43,49,23,36,143,,98,98,11,15,7,5,/,/
2026-02-14T1600,3622A,113.5556,24.8082,韶关市,碧湖山庄,,47,37,55,24,39,148,,104,104,6,12,10,7,0.7,0.7
2026-02-14T1600,2464A,111.5277,27.2442,邵阳市,市化工厂,,34,34,64,21,56,73,,36,36,7,18,5,7,0.7,1.1
2026-02-14T1600,2466A,111.4327,27.2276,邵阳市,市环保局,"颗粒物(PM10),细颗粒物(PM2.5)",54,58,66,38,65,85,,43,43,10,17,7,6,1.1,1.3
2026-02-14T1600,4218A,111.446,27.2472,邵阳市,北塔二期4-26地块,颗粒物(PM10),53,55,61,13,50,83,,41,41,6,12,8,6,0.8,1.1
