timepoint,stationcode,longitude,latitude,area,positionname,primarypollutant,aqi,pm10,pm10_24h,pm2_5,pm2_5_24h,o3,o3_24h,o3_8h,o3_8h_24h,no2,no2_24h,so2,so2_24h,co,co_24h
2026-02-14T2100,2568A,102.2503,31.8896,阿坝藏族羌族自治州,马师校,,22,18,13,15,8,55,,76,74,9,5,6,5,0.5,0.4
2026-02-14T2100,3994A,102.2174,31.9016,阿坝藏族羌族自治州,马尔康中学西区,,25,25,12,11,8,65,,77,76,6,6,5,5,0.5,0.5
2026-02-14T2100,2695A,80.2899,41.1684,阿克苏地区,电视台,颗粒物(PM10),175,299,328,88,94,67,,74,74,23,28,12,12,0.8,1
2026-02-14T2100,2696A,80.2592,41.1541,阿克苏地区,艺术中心,颗粒物(PM10),171,291,302,107,100,60,,78,78,31,32,8,6,0.7,0.9
2026-02-14T2100,2205A,105.699,38.8409,阿拉善盟,蒙二幼,颗粒物(PM10),77,103,194,23,41,83,,85,83,4,11,10,10,0.5,0.4
2026-02-14T2100,2206A,105.7198,38.8508,阿拉善盟,环保局新楼,颗粒物(PM10),68,85,139,18,33,82,,86,82,4,6,9,9,0.4,0.5
2026-02-14T2100,2708A,88.1266,47.8515,阿勒泰地区,市站,,22,13,21,3,12,70,,77,77,33,40,2,3,0.2,0.3
2026-02-14T2100,4166A,88.1198,47.7931,阿勒泰地区,阿勒泰路33号,,24,24,21,12,9,76,,76,74,25,31,7,5,0.3,0.5
2026-02-14T2100,2630A,80.1171,32.4999,阿里地区,阿里监测站,,29,10,11,3,5,92,,91,91,1,6,6,7,0.3,0.4
2026-02-14T2100,3192A,80.0906,32.5029,阿里地区,阿里藏医院,,32,6,7,3,3,100,,97,97,2,5,5,10,0.3,0.4
2026-02-14T2100,2644A,109.0088,32.6974,安康市,汉滨区检察院,细颗粒物(PM2.5),77,96,62,56,43,57,,96,93,20,11,3,3,0.8,0.7
2026-02-14T2100,4054A,109.0324,32.6913,安康市,市邮政管理局,细颗粒物(PM2.5),110,134,75,83,47,5,,86,70,78,26,12,6,3.4,1.2
2026-02-14T2100,2291A,117.0806,30.5181,安庆市,环科院,细颗粒物(PM2.5),65,75,57,47,47,53,,84,82,28,18,8,7,1.0,0.8
2026-02-14T2100,2292A,117.0331,30.5118,安庆市,马山宾馆,细颗粒物(PM2.5),72,77,59,52,46,37,,87,78,49,22,7,6,1.0,0.8
2026-02-14T2100,2294A,116.9897,30.6146,安庆市,安庆大学,颗粒物(PM10),55,60,53,34,36,71,,98,96,16,8,6,5,0.8,0.7
2026-02-14T2100,3173A,117.0598,30.5351,安庆市,市人大,细颗粒物(PM2.5),70,75,58,51,43,45,,90,86,36,12,8,8,1.0,0.8
2026-02-14T2100,3123A,105.9408,26.2431,安顺市,凤凰山,,32,24,68,22,51,74,,86,86,12,26,20,54,0.4,1.1
2026-02-14T2100,3124A,105.9443,26.2567,安顺市,金钟山,,42,36,54,29,47,72,,81,81,9,16,23,38,0.6,1.1
2026-02-14T2100,3125A,105.8983,26.248,安顺市,娄家坡,,27,27,44,14,38,72,,84,84,6,11,12,19,0.6,0.8
2026-02-14T2100,1819A,114.3552,36.1017,安阳市,红庙街,细颗粒物(PM2.5),152,180,156,116,105,126,,144,144,21,26,11,11,1.2,1.2
2026-02-14T2100,1820A,114.361,36.0681,安阳市,银杏小区,细颗粒物(PM2.5),149,185,157,114,108,130,,141,141,20,25,13,13,1.2,1.1
2026-02-14T2100,3141A,114.3921,36.0879,安阳市,信访局,细颗粒物(PM2.5),159,192,162,121,107,143,,153,153,14,20,14,12,1.3,1.2
2026-02-14T2100,3669A,114.4706,36.0634,安阳市,左辅环卫站,细颗粒物(PM2.5),153,214,188,117,110,134,,144,144,21,23,13,11,1.3,1.2
2026-02-14T2100,4117A,114.2918,36.0769,安阳市,钢三路198号,细颗粒物(PM2.5),152,203,186,116,100,124,,139,139,24,24,13,11,1.2,1.2
2026-02-14T2100,1748A,123.0441,41.1201,鞍山市,深沟寺,颗粒物(PM10),63,75,105,23,66,60,,128,84,19,18,9,10,0.6,1
2026-02-14T2100,1749A,123.011,41.0931,鞍山市,太阳城,颗粒物(PM10),53,56,95,23,64,66,,126,86,17,17,12,13,0.5,0.9
2026-02-14T2100,1750A,123.0483,41.1445,鞍山市,太平,颗粒物(PM10),60,70,105,28,66,60,,115,79,21,21,13,12,0.6,1
2026-02-14T2100,1751A,122.964,41.0968,鞍山市,铁西三道街,颗粒物(PM10),54,57,106,19,65,70,,105,81,20,34,9,35,0.4,0.9
2026-02-14T2100,1753A,123.0219,41.0822,鞍山市,明达新区,,36,36,102,15,67,65,,126,,16,19,10,13,0.4,0.8
2026-02-14T2100,4201A,122.944647,41.082639,鞍山市,兴盛南路290号,颗粒物(PM10),58,65,109,25,72,55,,111,75,33,30,18,18,0.7,1.1
2026-02-14T2100,2195A,107.4206,40.7609,巴彦淖尔市,附二中,,50,50,105,20,25,72,,78,78,4,6,7,9,0.3,0.4
2026-02-14T2100,2196A,107.37,40.7372,巴彦淖尔市,市环保大楼,,44,44,94,9,22,76,,79,79,6,8,5,7,0.4,0.4
2026-02-14T2100,1956A,86.1476,41.7529,巴音郭楞蒙古自治州,孔雀公园,颗粒物(PM10),109,167,189,64,56,56,,80,76,32,26,8,9,0.5,0.7
2026-02-14T2100,1957A,86.1971,41.7166,巴音郭楞蒙古自治州,棉纺厂,颗粒物(PM10),127,203,217,62,54,55,,80,78,31,32,/,/,/,/
2026-02-14T2100,1958A,86.236,41.7172,巴音郭楞蒙古自治州,经济开发区,颗粒物(PM10),89,127,159,26,33,70,,75,75,8,11,6,6,0.4,0.4
2026-02-14T2100,3181A,106.776805,31.852614,巴中市,市五中,细颗粒物(PM2.5),107,103,76,80,58,50,,101,96,24,20,7,7,1.1,1
2026-02-14T2100,3183A,106.7419,31.8654,巴中市,圣泉水务公司,细颗粒物(PM2.5),107,104,71,80,59,46,,100,92,37,23,7,6,1.3,1.1
2026-02-14T2100,3616A,106.7617,31.8343,巴中市,市中心医院,细颗粒物(PM2.5),113,118,84,85,65,19,,93,81,60,33,7,7,1.6,1.2
2026-02-14T2100,2235A,122.7909,45.608,白城市,洮北区环保局,,32,32,105,20,36,71,,81,79,7,10,7,6,0.2,0.4
2026-02-14T2100,2236A,122.8741,45.5725,白城市,市环保局,,49,46,120,34,39,75,,86,84,5,7,5,5,0.3,0.3
2026-02-14T2100,2231A,126.4219,41.9172,白山市,喜丰,细颗粒物(PM2.5),93,97,135,69,100,101,,120,115,16,52,13,15,1.4,1.7
2026-02-14T2100,2232A,126.4082,41.9416,白山市,环保局,细颗粒物(PM2.5),89,91,115,66,98,102,,124,120,13,29,16,14,1.2,1.5
2026-02-14T2100,2647A,104.1727,36.5448,白银市,第三小学,颗粒物(PM10),90,129,114,34,46,81,,88,87,8,28,1,15,0.4,0.6
2026-02-14T2100,2648A,104.1467,36.5482,白银市,动力公司,颗粒物(PM10),79,108,104,26,32,78,,86,85,9,13,3,8,0.5,0.7
2026-02-14T2100,2512A,106.6102,23.901,百色市,市监测站,细颗粒物(PM2.5),74,54,38,54,28,17,,41,40,17,14,10,10,1.1,0.9
2026-02-14T2100,2513A,106.6524,23.8842,百色市,市中心血站,细颗粒物(PM2.5),84,78,53,62,37,8,,42,40,31,13,10,10,1.3,1
2026-02-14T2100,4133A,106.6273,23.8798,百色市,龙景西路,颗粒物(PM10),76,102,52,55,33,0,,45,39,35,15,9,10,1.2,0.8
2026-02-14T2100,2270A,117.396,32.9389,蚌埠市,工人疗养院,颗粒物(PM10),73,95,94,47,51,113,,121,121,21,22,7,6,0.7,0.8
2026-02-14T2100,2271A,117.3606,32.9428,蚌埠市,百货大楼,颗粒物(PM10),74,98,94,49,51,114,,121,120,18,20,9,7,0.6,0.7
2026-02-14T2100,2273A,117.4183,32.8909,蚌埠市,蚌埠学院,颗粒物(PM10),75,100,90,52,55,109,,124,122,21,20,7,6,0.7,0.7
2026-02-14T2100,2274A,117.3534,32.9672,蚌埠市,淮上区政府,颗粒物(PM10),74,97,91,50,55,109,,124,122,27,20,8,7,0.7,0.7
2026-02-14T2100,2275A,117.3143,32.8977,蚌埠市,高新区,细颗粒物(PM2.5),78,95,96,57,61,98,,112,110,21,18,10,8,0.6,0.7
2026-02-14T2100,3715A,117.3091,32.9314,蚌埠市,蚌埠田家炳中学,"颗粒物(PM10),细颗粒物(PM2.5)",74,98,100,54,59,107,,122,120,20,21,9,24,0.6,0.7
2026-02-14T2100,1585A,109.8761,40.6533,包头市,市环境监测站,,,28,83,3,25,83,,87,87,8,19,4,7,,0.8
2026-02-14T2100,1587A,109.9992,40.5843,包头市,包头八中,,32,32,80,10,25,79,,82,82,7,15,5,7,0.3,0.5
2026-02-14T2100,1589A,109.8641,40.6288,包头市,惠龙物流,,27,23,73,3,24,86,,89,89,7,19,8,12,0.4,0.7
2026-02-14T2100,1590A,110.0376,40.5546,包头市,东河鸿龙湾,,33,33,76,6,22,80,,81,81,7,27,6,9,0.4,0.6
2026-02-14T2100,3283A,109.9154,40.5684,包头市,滨河大厦,,30,30,68,6,29,83,,85,85,5,21,5,8,0.4,0.5
2026-02-14T2100,3419A,109.9449,40.6259,包头市,包头市委党校,,,,74,,24,,,80,,,16,,10,,0.5
2026-02-14T2100,3683A,109.8332,40.6577,包头市,昆区政府,,26,26,74,3,22,83,,86,86,8,19,6,12,0.4,0.7
2026-02-14T2100,1931A,107.0802,34.3129,宝鸡市,竹园沟,细颗粒物(PM2.5),73,76,56,53,36,64,,101,96,20,17,7,7,0.5,0.4
2026-02-14T2100,1933A,107.1429,34.3549,宝鸡市,监测站,颗粒物(PM10),77,103,78,54,40,66,,99,94,29,27,6,6,0.6,0.6
2026-02-14T2100,1934A,107.1172,34.3759,宝鸡市,技工学校,颗粒物(PM10),88,125,88,52,51,68,,113,111,30,23,15,12,0.8,0.7
2026-02-14T2100,1936A,107.2025,34.3518,宝鸡市,文理学院,颗粒物(PM10),82,114,82,55,49,76,,115,111,31,27,9,7,0.6,0.5
2026-02-14T2100,1937A,107.2396,34.3626,宝鸡市,三迪小学,"颗粒物(PM10),细颗粒物(PM2.5)",100,149,92,75,56,70,,119,114,49,33,9,7,0.9,0.8
2026-02-14T2100,4155A,107.1721,34.3558,宝鸡市,滨河北路,"颗粒物(PM10),细颗粒物(PM2.5)",74,98,84,54,47,62,,108,103,26,18,8,7,0.9,0.7
2026-02-14T2100,4308A,107.3898,34.3601,宝鸡市,陈仓区北开路21号,细颗粒物(PM2.5),158,173,109,120,71,80,,122,120,43,30,12,66,0.7,0.6
2026-02-14T2100,1051A,115.4803,38.8568,保定市,游泳馆,颗粒物(PM10),71,91,150,10,106,74,,102,95,14,46,2,11,0.1,0.7
2026-02-14T2100,1052A,115.509,38.8895,保定市,华电二区,颗粒物(PM10),56,61,134,10,94,76,,106,98,8,35,3,7,0.3,0.9
2026-02-14T2100,1053A,115.4588,38.9037,保定市,接待中心,颗粒物(PM10),55,60,136,12,93,73,,100,94,4,29,2,6,0.1,0.8
2026-02-14T2100,1054A,115.4484,38.8344,保定市,地表水厂,颗粒物(PM10),75,99,173,3,95,75,,105,97,9,34,4,9,0.2,0.8
2026-02-14T2100,3581A,115.3136,38.9511,保定市,满城区生态环境分局,颗粒物(PM10),74,97,172,20,94,66,,112,99,6,38,3,8,0.4,1.2
2026-02-14T2100,3582A,115.4709,38.7628,保定市,清苑区第二中学,颗粒物(PM10),81,111,203,8,105,74,,103,94,13,31,6,13,0.2,0.9
2026-02-14T2100,3583A,115.6231,39.0223,保定市,徐水物探局,颗粒物(PM10),83,115,205,22,117,74,,97,92,10,49,3,10,0.4,1
2026-02-14T2100,4004A,115.4199,38.8665,保定市,双鹰农机,颗粒物(PM10),65,79,192,10,101,81,,112,104,6,31,2,8,0.2,0.9
2026-02-14T2100,4034A,115.515,38.8589,保定市,植保所站,颗粒物(PM10),70,90,157,16,98,76,,105,98,9,50,1,6,0.2,0.9
2026-02-14T2100,2594A,99.1589,25.1137,保山市,市环境监测站,,34,30,22,20,12,108,,109,109,7,8,5,6,0.3,0.3
2026-02-14T2100,2595A,99.1616,25.1381,保山市,市环保局,,35,33,25,20,11,110,,109,109,3,5,3,3,0.4,0.4
2026-02-14T2100,1867A,109.1435,21.4085,北海市,海滩公园,,48,48,49,24,26,97,,119,118,16,12,2,3,0.7,0.8
2026-02-14T2100,1868A,109.0983,21.466,北海市,新市环保局,,38,38,41,25,23,100,,102,102,11,11,8,8,0.6,0.6
2026-02-14T2100,1869A,109.1775,21.5232,北海市,北海工业园,细颗粒物(PM2.5),55,47,58,39,37,95,,96,96,8,9,5,6,0.7,0.8
2026-02-14T2100,3400A,109.1844,21.4396,北海市,龙潭自来水厂,,40,40,44,22,31,84,,98,96,6,7,4,4,0.9,0.9
2026-02-14T2100,1001A,116.3611,39.8786,北京市,万寿西宫,,29,22,109,3,65,90,,88,88,3,37,1,5,0.2,0.8
2026-02-14T2100,1003A,116.4174,39.9289,北京市,东四,,23,20,111,3,65,72,,75,74,5,41,4,7,0.1,0.8
2026-02-14T2100,1004A,116.4073,39.8858,北京市,天坛,,27,23,103,6,61,84,,82,82,4,36,2,3,0.3,0.9
2026-02-14T2100,1005A,116.4622,39.9364,北京市,农展馆,,28,15,105,3,64,88,,86,86,1,38,4,7,0.3,1
2026-02-14T2100,1006A,116.3399,39.9293,北京市,官园,,25,18,99,3,57,77,,76,76,5,31,3,6,0.2,0.7
2026-02-14T2100,1007A,116.2879,39.9613,北京市,海淀万柳,,23,18,84,3,46,73,,71,71,9,38,2,4,0.3,0.7
2026-02-14T2100,1008A,116.6635,40.1349,北京市,顺义新城,,27,14,88,3,45,86,,88,86,3,23,5,7,0.3,0.7
2026-02-14T2100,1009A,116.6275,40.327,北京市,怀柔镇,,26,13,73,3,40,82,,80,80,2,15,3,5,0.2,0.7
2026-02-14T2100,1010A,116.2295,40.217,北京市,昌平镇,,26,15,74,3,41,82,,81,81,4,18,2,4,0.4,0.7
2026-02-14T2100,1011A,116.3968,39.982,北京市,奥体中心,,25,15,99,3,57,78,,76,76,6,40,4,7,0.2,0.7
2026-02-14T2100,3418A,116.8336,40.4095,北京市,密云新城,,26,12,73,3,39,83,,81,81,2,11,3,4,0.3,0.6
2026-02-14T2100,3671A,116.0879,39.9725,北京市,门头沟三家店,,25,20,69,3,35,80,,84,84,5,15,3,4,0.2,0.4
2026-02-14T2100,3672A,116.1507,39.8246,北京市,丰台云岗,,28,17,80,3,43,88,,91,91,5,20,2,5,0.2,0.5
2026-02-14T2100,3674A,115.9578,39.7602,北京市,房山燕山,,33,33,83,3,49,82,,85,83,9,18,4,5,0.2,0.5
2026-02-14T2100,3675A,116.4669,39.7734,北京市,大兴旧宫,,26,20,121,3,68,83,,83,83,6,35,3,5,0.2,0.7
2026-02-14T2100,3694A,115.9859,40.4562,北京市,延庆石河营,,27,14,75,3,41,84,,82,82,2,17,3,4,0.2,0.7
2026-02-14T2100,3695A,116.6151,40.3052,北京市,怀柔新城,,28,8,73,3,48,87,,84,84,3,13,2,4,0.3,0.6
2026-02-14T2100,3696A,116.2542,39.8764,北京市,丰台小屯,,23,23,103,3,56,71,,72,72,2,40,3,5,0.3,0.7
2026-02-14T2100,3697A,116.8399,40.3843,北京市,密云镇,,26,10,73,3,42,82,,80,80,3,22,3,4,0.3,0.6
2026-02-14T2100,4057A,115.9423,40.4431,北京市,延庆百泉,,24,11,73,3,42,75,,78,78,1,18,3,3,0.3,0.7
2026-02-14T2100,4058A,116.6598,39.9164,北京市,通州新华,,26,11,126,3,80,82,,81,80,9,39,1,4,0.5,1
2026-02-14T2100,4182A,116.1942,39.9158,北京市,石景山八角,,24,21,88,3,47,74,,75,75,5,31,1,5,0.1,0.6
2026-02-14T2100,4194A,117.078628,40.151726,北京市,平谷新城,,27,13,94,3,58,84,,80,80,3,16,4,4,0.3,0.7
2026-02-14T2100,1761A,123.8274146,41.31234549,本溪市,大峪,颗粒物(PM10),56,61,121,14,69,60,,119,87,10,17,9,11,0.7,1
2026-02-14T2100,1763A,123.7169,41.3094,本溪市,彩屯,颗粒物(PM10),73,96,118,47,81,54,,100,86,25,32,10,16,1.0,2.5
2026-02-14T2100,1764A,123.7672166,41.28649327,本溪市,东明,颗粒物(PM10),94,137,102,19,69,57,,127,85,24,18,10,10,0.8,1
2026-02-14T2100,1765A,123.799345,41.266614,本溪市,新立屯,颗粒物(PM10),83,116,97,19,67,40,,130,78,28,19,11,12,0.5,0.8
2026-02-14T2100,1766A,123.829144,41.336777,本溪市,威宁,颗粒物(PM10),97,144,133,18,67,56,,110,82,16,25,7,10,0.5,0.9
2026-02-14T2100,2587A,105.287,27.3133,毕节市,八中,细颗粒物(PM2.5),77,98,57,56,35,66,,98,95,27,14,27,14,1.0,0.7
2026-02-14T2100,2588A,105.3079,27.2987,毕节市,师专,颗粒物(PM10),63,75,64,43,33,79,,107,106,18,19,21,13,0.6,0.7
2026-02-14T2100,4263A,105.3688,27.3598,毕节市,工业大道,细颗粒物(PM2.5),72,64,70,52,39,93,,114,113,12,14,15,13,/,/
2026-02-14T2100,1629A,117.9961,37.3604,滨州市,第二水厂,细颗粒物(PM2.5),158,195,162,120,101,128,,147,146,19,29,17,21,1.2,1.2
2026-02-14T2100,1630A,117.9789,37.3931,滨州市,北中新校,细颗粒物(PM2.5),172,197,157,130,97,117,,148,146,26,34,13,17,1.0,1
2026-02-14T2100,3514A,117.9379,37.3959,滨州市,中海酒店,细颗粒物(PM2.5),179,202,156,135,98,124,,161,158,27,31,17,19,1.3,1.3
2026-02-14T2100,3515A,117.9381509,37.35547456,滨州市,开发区一中,细颗粒物(PM2.5),169,215,172,128,98,127,,148,146,17,26,21,26,1.2,1.2
2026-02-14T2100,3516A,118.0914,37.6938,滨州市,金海六路,细颗粒物(PM2.5),200,215,177,150,113,119,,150,147,27,34,10,18,1.2,1.1
2026-02-14T2100,4028A,117.9955,37.3752,滨州市,滨州市西街道办事处,细颗粒物(PM2.5),168,190,161,127,96,137,,156,155,18,24,16,18,1.0,1
2026-02-14T2100,2311A,115.8071,33.8399,亳州市,污水处理厂,细颗粒物(PM2.5),74,95,88,54,57,79,,115,110,21,19,8,7,0.5,0.5
2026-02-14T2100,2312A,115.7789,33.8519,亳州市,三国揽胜宫,颗粒物(PM10),72,93,106,48,59,90,,114,111,10,15,6,6,0.6,0.5
2026-02-14T2100,3332A,115.7631,33.803,亳州市,亳州学院,颗粒物(PM10),65,79,90,41,53,94,,118,115,13,13,5,5,0.8,0.8
2026-02-14T2100,2693A,82.0482,44.8553,博尔塔拉蒙古自治州,市党校,,41,41,55,20,27,92,,92,90,12,15,2,2,0.5,0.5
2026-02-14T2100,2694A,82.0805,44.8966,博尔塔拉蒙古自治州,市环保局,颗粒物(PM10),56,62,64,22,22,74,,85,84,18,11,5,3,0.6,0.6
2026-02-14T2100,1071A,116.8733,38.2922,沧州市,沧县城建局,颗粒物(PM10),68,86,174,34,111,72,,137,130,13,27,8,12,0.4,1
2026-02-14T2100,1072A,116.8462,38.3189,沧州市,电视转播站,细颗粒物(PM2.5),99,89,171,74,123,68,,132,124,16,25,5,11,0.4,0.8
2026-02-14T2100,1073A,116.8588,38.3161,沧州市,市环保局,颗粒物(PM10),69,88,183,42,108,58,,116,109,16,24,12,16,0.3,0.8
2026-02-14T2100,3324A,116.8011,38.294,沧州市,河北水利电力学院,细颗粒物(PM2.5),73,88,190,53,119,69,,121,116,10,21,7,16,0.2,0.9
2026-02-14T2100,2622A,97.1813,31.1289,昌都市,昌都监测站,,34,34,21,12,9,84,,86,86,3,5,3,3,0.6,0.6
2026-02-14T2100,3719A,97.1707,31.1428,昌都市,昌都会议中心,,28,16,12,10,8,88,,87,87,2,2,4,5,0.3,0.4
2026-02-14T2100,2692A,87.2722,44.0298,昌吉回族自治州,新区政务中心,细颗粒物(PM2.5),59,57,25,42,16,64,,85,83,38,21,15,5,0.5,0.4
2026-02-14T2100,3613A,87.3069,44.0093,昌吉回族自治州,亚心广场,细颗粒物(PM2.5),132,114,34,100,25,86,,91,91,34,20,23,9,1.0,0.6
2026-02-14T2100,4164A,87.2057,43.9289,昌吉回族自治州,财政所,细颗粒物(PM2.5),67,66,51,48,39,58,,84,84,20,16,6,5,0.6,0.6
2026-02-14T2100,1120A,125.2874,43.9024,长春市,客车厂,颗粒物(PM10),112,174,128,13,56,71,,98,66,12,23,6,12,0.4,0.8
2026-02-14T2100,1121A,125.2943,43.8508,长春市,邮电学院,颗粒物(PM10),90,129,124,14,55,53,,78,52,10,17,6,10,0.4,0.7
2026-02-14T2100,1122A,125.3648,43.8745,长春市,劳动公园,颗粒物(PM10),117,184,137,18,54,70,,99,68,11,19,12,13,0.4,0.7
2026-02-14T2100,1123A,125.3233,43.8781,长春市,园林处,颗粒物(PM10),104,157,120,18,56,68,,102,66,11,14,10,10,0.2,0.6
2026-02-14T2100,1124A,125.4604,43.7904,长春市,净月潭,颗粒物(PM10),110,169,117,14,50,71,,101,70,12,13,5,7,0.3,0.6
2026-02-14T2100,1126A,125.38,43.8422,长春市,经开区环卫处,颗粒物(PM10),100,149,123,12,51,61,,98,62,22,20,18,10,0.3,0.7
2026-02-14T2100,1127A,125.234,43.7761,长春市,高新区管委会,颗粒物(PM10),93,136,123,11,58,75,,101,73,9,17,6,9,0.3,0.7
2026-02-14T2100,1128A,125.1695,43.83,长春市,岱山公园,颗粒物(PM10),103,155,125,16,55,72,,106,69,9,15,4,8,0.3,0.7
2026-02-14T2100,4281A,125.334645,43.916281,长春市,北亚泰大街1068号,颗粒物(PM10),115,180,134,30,58,61,,92,60,17,21,7,11,0.5,0.8
2026-02-14T2100,1335A,113.082,28.2421,长沙市,经开区环保局,,43,41,42,30,30,58,,86,86,26,14,5,3,0.7,0.8
2026-02-14T2100,1336A,112.8873,28.2202,长沙市,高开区环保局,颗粒物(PM10),57,63,51,37,44,65,,85,85,20,17,6,7,1.2,1.4
2026-02-14T2100,1337A,113.0785,28.2012,长沙市,马坡岭,,48,48,40,32,32,64,,94,94,18,12,4,4,0.8,0.9
2026-02-14T2100,1338A,112.9448,28.1894,长沙市,湖南师范大学,,49,49,50,24,37,66,,90,90,15,17,4,5,0.9,1.2
2026-02-14T2100,1339A,113.0177,28.1322,长沙市,雨花区环保局,细颗粒物(PM2.5),55,47,41,39,26,71,,95,95,18,20,8,8,0.9,0.8
2026-02-14T2100,1340A,112.9795,28.2593,长沙市,伍家岭,颗粒物(PM10),66,82,57,36,39,19,,69,66,46,23,6,6,1.2,1.2
2026-02-14T2100,1341A,113.002,28.1944,长沙市,火车新站,颗粒物(PM10),54,58,49,34,37,40,,85,83,41,20,2,2,1.1,1.2
2026-02-14T2100,1342A,112.9846,28.1177,长沙市,天心区环保局,,45,45,43,27,35,70,,92,92,19,20,6,6,0.9,1.1
2026-02-14T2100,1343A,112.8906,28.1307,长沙市,湖南中医药大学,颗粒物(PM10),70,90,54,42,37,4,,81,73,44,21,6,8,1.3,1.3
2026-02-14T2100,1727A,113.1146,36.1547,长治市,清华站,细颗粒物(PM2.5),102,,68,76,40,123,,102,102,18,25,22,17,1.5,0.9
2026-02-14T2100,1730A,113.0887,36.2126,长治市,审计局,细颗粒物(PM2.5),114,100,92,86,48,130,,106,106,23,31,28,25,1.6,0.9
2026-02-14T2100,1731A,113.0845,36.1856,长治市,长治八中,细颗粒物(PM2.5),92,105,99,68,50,108,,99,99,24,31,25,25,1.5,1
2026-02-14T2100,2845A,113.1561,36.1912,长治市,德盛苑,细颗粒物(PM2.5),59,57,69,42,41,91,,105,105,19,19,12,18,0.8,0.8
2026-02-14T2100,3568A,113.0603,36.0464,长治市,向阳小学,颗粒物(PM10),68,86,88,39,37,91,,100,99,34,27,24,24,0.7,0.7
2026-02-14T2100,3569A,112.8788,36.315,长治市,屯留一中,颗粒物(PM10),93,136,78,68,47,106,,102,97,33,30,33,18,2.2,0.8
2026-02-14T2100,4189A,113.113092,36.199482,长治市,英华南巷50号,细颗粒物(PM2.5),117,103,82,88,47,111,,98,98,27,26,25,24,1.6,1
2026-02-14T2100,4190A,113.23666,36.33435,长治市,学府街1号,细颗粒物(PM2.5),97,111,91,72,49,129,,118,117,27,44,39,30,1.7,1.8
2026-02-14T2100,1854A,111.696,28.9725,常德市,市二中,细颗粒物(PM2.5),89,93,72,66,53,54,,88,86,34,17,7,6,1.6,1.4
2026-02-14T2100,3138A,111.7152,29.0288,常德市,武陵区永安,细颗粒物(PM2.5),83,67,67,61,55,85,,95,95,10,16,6,5,1.3,1.3
2026-02-14T2100,3139A,111.6891,28.9881,常德市,鼎城区玉霞,细颗粒物(PM2.5),79,68,69,58,51,74,,92,91,18,18,7,5,1.2,1.1
2026-02-14T2100,3140A,111.6651,29.0526,常德市,武陵区长庚,细颗粒物(PM2.5),87,70,69,64,56,75,,92,92,17,18,6,5,1.2,1.2
2026-02-14T2100,1196A,119.9524,31.7586,常州市,市监测站,,,,92,,53,,,107,100,46,26,12,10,1.1,0.9
2026-02-14T2100,1200A,119.9351,31.703,常州市,武进监测站,细颗粒物(PM2.5),69,86,91,50,52,81,,110,108,23,15,11,9,1.2,1
2026-02-14T2100,3002A,119.9701,31.813,常州市,行政中心,颗粒物(PM10),70,89,88,49,52,83,,106,104,30,21,7,6,1.1,0.9
2026-02-14T2100,3003A,120.0434,31.7726,常州市,经开区,颗粒物(PM10),68,85,95,41,48,96,,119,119,20,22,9,8,1.1,1
2026-02-14T2100,3010A,119.8919,31.7892,常州市,钟楼,细颗粒物(PM2.5),67,80,82,48,48,73,,113,109,37,26,8,8,1.1,0.9
2026-02-14T2100,3429A,119.8595,31.706,常州市,武进经发区,细颗粒物(PM2.5),89,100,90,66,58,88,,116,115,21,17,8,7,0.9,0.9
2026-02-14T2100,3430A,119.5812,31.7256,常州市,金坛城区,,,77,90,52,57,,,120,120,16,18,11,9,0.9,0.9
2026-02-14T2100,4089A,119.9551,31.863,常州市,崇义南街5-H号,细颗粒物(PM2.5),89,118,79,66,44,50,,107,94,42,33,6,6,1.4,1.1
2026-02-14T2100,2220A,120.4318,41.588,朝阳市,西梁,颗粒物(PM10),60,70,107,10,69,91,,90,79,13,28,6,13,0.3,1
2026-02-14T2100,2221A,120.452,41.565,朝阳市,河畔小区,颗粒物(PM10),59,67,86,11,56,89,,98,81,11,21,7,12,0.3,0.9
2026-02-14T2100,2222A,120.4176,41.5648,朝阳市,八里堡,颗粒物(PM10),77,103,99,21,71,85,,86,79,8,26,6,13,0.2,1.1
2026-02-14T2100,3026A,116.6179,23.6608,潮州市,市政府,,39,39,40,17,24,61,,102,88,8,7,4,4,0.7,0.5
2026-02-14T2100,4036A,116.646,23.676,潮州市,金山,,30,30,38,13,23,68,,107,96,7,9,2,2,0.6,0.6
2026-02-14T2100,2473A,113.0116,25.8228,郴州市,市职中,颗粒物(PM10),63,75,60,36,46,1,,59,49,29,16,8,8,1.0,0.8
2026-02-14T2100,2475A,113.0381,25.8074,郴州市,市审计局,颗粒物(PM10),69,88,62,48,48,0,,56,46,39,19,5,7,/,/
2026-02-14T2100,2476A,113.0348,25.7757,郴州市,市环保局,颗粒物(PM10),61,72,73,32,47,15,,63,55,41,22,6,10,0.6,0.8
2026-02-14T2100,4252A,113.0138,25.8011,郴州市,好美居路49号,,,61,52,44,43,,,79,78,41,17,3,5,/,/
2026-02-14T2100,1431A,103.9727,30.7242,成都市,金泉两河,细颗粒物(PM2.5),107,106,107,80,80,98,,131,131,28,43,4,4,0.9,1.4
2026-02-14T2100,1432A,104.1423,30.6765,成都市,十里店,细颗粒物(PM2.5),99,119,105,74,73,110,,133,133,20,33,5,5,0.6,0.7
2026-02-14T2100,1433A,104.0594,30.5765,成都市,三瓦窑,细颗粒物(PM2.5),82,79,83,60,63,96,,137,135,33,47,3,4,1.0,1
2026-02-14T2100,1434A,104.1122,30.6306,成都市,沙河铺,细颗粒物(PM2.5),95,107,91,71,69,96,,121,121,36,48,3,3,0.7,0.7
2026-02-14T2100,2880A,104.0219,30.6561,成都市,大石西路,细颗粒物(PM2.5),109,132,119,82,88,98,,123,123,20,44,5,6,0.7,1
2026-02-14T2100,3136A,104.2724,30.559,成都市,龙泉驿区区政府,细颗粒物(PM2.5),85,88,72,63,55,89,,124,120,17,14,7,7,0.7,0.6
2026-02-14T2100,3357A,104.0028,30.6891,成都市,金博路,细颗粒物(PM2.5),130,120,113,99,86,91,,125,124,30,45,6,6,0.8,1
2026-02-14T2100,3359A,104.056,30.5228,成都市,华阳,细颗粒物(PM2.5),95,107,90,71,67,48,,124,116,64,49,3,3,0.8,0.6
2026-02-14T2100,3488A,104.387954,30.746684,成都市,青石路225号,细颗粒物(PM2.5),109,137,81,82,61,31,,127,113,74,33,5,4,1.0,0.4
2026-02-14T2100,3489A,104.0788,30.4054,成都市,科学城,细颗粒物(PM2.5),87,86,71,64,53,64,,94,90,17,14,6,6,0.6,0.6
2026-02-14T2100,4011A,103.8505,30.6946,成都市,光华大道三段,"颗粒物(PM10),细颗粒物(PM2.5)",114,178,133,86,84,92,,131,129,42,39,5,5,1.0,1
2026-02-14T2100,4144A,104.3257,30.6406,成都市,八角井街185号,细颗粒物(PM2.5),87,98,82,64,55,72,,125,118,31,24,5,5,0.7,0.7
2026-02-14T2100,4224A,104.2433276,30.53529463,成都市,鲸龙路1057号,细颗粒物(PM2.5),94,102,89,70,64,77,,132,124,34,25,7,6,0.9,0.7
2026-02-14T2100,1062A,117.9531,40.908,承德市,铁路,,38,38,85,3,42,86,,84,84,2,28,1,6,0.2,0.9
2026-02-14T2100,1063A,117.9397,40.9763,承德市,中国银行,,27,22,75,3,34,84,,82,82,1,21,1,3,0.2,0.7
2026-02-14T2100,4073A,117.9462,40.95,承德市,杏林街1号,,33,33,76,9,39,83,,85,85,3,22,3,6,0.2,0.8
2026-02-14T2100,4274A,117.7994,40.9605,承德市,滨河大街98号,,28,28,78,13,37,83,,84,84,5,20,3,10,0.2,0.7
2026-02-14T2100,2314A,117.4698,30.6617,池州市,池州学院,细颗粒物(PM2.5),57,54,51,40,37,78,,92,92,23,19,19,14,1.2,1.3
2026-02-14T2100,3237A,117.4918,30.6617,池州市,展览馆,"颗粒物(PM10),细颗粒物(PM2.5)",52,54,54,36,36,30,,82,76,36,21,3,10,1.1,1.1
2026-02-14T2100,3333A,117.5626,30.695,池州市,第八中学,,44,44,47,30,31,86,,94,94,15,17,9,9,0.9,1.2
2026-02-14T2100,3334A,117.5037,30.6242,池州市,第十二中学,细颗粒物(PM2.5),57,59,47,40,34,60,,87,86,29,23,6,7,0.9,0.9
2026-02-14T2100,1744A,118.9229,42.2816,赤峰市,松山一中,,36,36,52,16,20,84,,81,81,7,14,10,5,0.5,0.7
2026-02-14T2100,1745A,118.9588,42.2733,赤峰市,哈达街,,35,35,53,8,20,77,,78,78,7,15,7,10,0.5,0.7
2026-02-14T2100,1746A,118.8792,42.2551,赤峰市,天义路,,25,21,37,14,18,79,,80,80,6,8,5,5,0.5,0.5
2026-02-14T2100,3058A,119.2656,42.0356,赤峰市,银河街,,44,44,73,13,26,82,,84,84,9,8,14,12,0.5,0.6
2026-02-14T2100,3286A,118.9359,42.3146,赤峰市,桥北物流园区,,29,27,40,3,21,90,,90,90,2,7,3,4,0.2,0.4
2026-02-14T2100,2521A,107.3473,22.4137,崇左市,市环保局江州分局,细颗粒物(PM2.5),107,103,61,80,41,14,,69,58,46,19,4,4,1.3,1
2026-02-14T2100,4256A,107.375,22.3736,崇左市,石景林东路7号,颗粒物(PM10),52,54,45,28,31,30,,72,64,19,17,2,2,1.0,1
2026-02-14T2100,3207A,118.31131,32.3033,滁州市,市政府原办公楼,细颗粒物(PM2.5),82,84,81,60,59,95,,115,113,21,27,6,6,0.6,0.7
2026-02-14T2100,3331A,118.3268,32.2633,滁州市,图书馆,颗粒物(PM10),61,72,72,42,42,90,,117,115,23,22,9,9,0.8,0.8
2026-02-14T2100,4101A,118.3196,32.3335,滁州市,银山路666号,细颗粒物(PM2.5),90,78,77,67,63,104,,127,125,16,20,10,8,0.7,0.7
2026-02-14T2100,4102A,118.3426,32.2979,滁州市,黄山路555号,细颗粒物(PM2.5),82,93,92,60,60,99,,121,119,26,33,3,6,0.7,0.8
2026-02-14T2100,2606A,101.5379,25.0492,楚雄彝族自治州,市经济开发区,细颗粒物(PM2.5),54,44,32,38,21,69,,92,89,24,13,3,2,0.6,0.4
2026-02-14T2100,4153A,101.5536,25.0343,楚雄彝族自治州,团结路562号,,28,22,23,19,14,87,,92,91,8,10,5,4,0.5,0.5
2026-02-14T2100,2549A,107.5087,31.2186,达州市,市环境监测站,,,,89,,64,,,95,,,26,,6,,0.6
2026-02-14T2100,2550A,107.4988,31.2132,达州市,凤凰小区,细颗粒物(PM2.5),92,110,93,68,65,9,,76,59,82,38,7,6,1.1,0.6
2026-02-14T2100,2551A,107.5081,31.1987,达州市,达县机关宾馆,细颗粒物(PM2.5),107,122,97,80,67,3,,83,48,72,48,5,5,1.3,1.1
2026-02-14T2100,2552A,107.4644,31.2124,达州市,市政中心,颗粒物(PM10),85,120,103,62,63,6,,86,67,100,50,7,5,1.7,1
2026-02-14T2100,2614A,100.2168,25.5818,大理白族自治州,大理市环境监测站,,32,28,18,20,11,101,,98,98,5,6,7,7,0.4,0.4
2026-02-14T2100,2615A,100.1542,25.7055,大理白族自治州,大理古城,,30,25,17,16,10,94,,94,94,7,8,8,8,0.6,0.5
2026-02-14T2100,1109A,121.6119,38.974,大连市,甘井子,细颗粒物(PM2.5),119,109,114,90,89,103,,111,94,19,20,7,7,0.7,0.7
2026-02-14T2100,1110A,121.565,38.9509,大连市,周水子,细颗粒物(PM2.5),117,111,129,88,105,101,,90,83,13,19,10,9,0.8,0.8
2026-02-14T2100,1111A,121.5637,38.8849,大连市,星海三站,细颗粒物(PM2.5),129,110,114,98,101,92,,96,88,15,16,4,4,0.8,0.9
2026-02-14T2100,1112A,121.6301,38.9117,大连市,青泥洼桥,细颗粒物(PM2.5),115,109,128,87,105,107,,97,93,20,24,7,8,0.9,1.2
2026-02-14T2100,1113A,121.6248,38.8643,大连市,傅家庄,细颗粒物(PM2.5),104,94,112,78,87,104,,103,98,18,17,10,9,0.7,0.8
2026-02-14T2100,1114A,121.5117,38.8636,大连市,七贤岭,细颗粒物(PM2.5),137,129,122,104,90,,,101,90,24,20,9,9,0.9,0.9
2026-02-14T2100,1116A,121.7507,39.1339,大连市,金州,细颗粒物(PM2.5),103,90,98,77,78,113,,107,106,11,15,10,10,1.1,0.8
2026-02-14T2100,1117A,121.7811,39.0495,大连市,开发区,细颗粒物(PM2.5),109,115,112,82,81,108,,110,,11,17,4,4,0.6,0.8
2026-02-14T2100,1118A,121.9762,39.0631,大连市,双D港,细颗粒物(PM2.5),85,68,82,63,61,118,,119,119,17,16,6,5,0.9,1
2026-02-14T2100,4082A,121.2548,38.8188,大连市,旅顺,细颗粒物(PM2.5),87,112,123,64,91,65,,91,84,18,13,9,9,1.0,0.9
2026-02-14T2100,1789A,124.8085,46.0381,大庆市,大同区,,38,28,114,26,81,77,,88,86,9,16,7,10,0.7,1.1
2026-02-14T2100,1790A,125.1166,46.5255,大庆市,龙凤区,,36,36,95,20,76,69,,72,71,15,23,7,8,0,0.4
2026-02-14T2100,1791A,124.8894,46.4007,大庆市,红岗区,,30,30,87,14,73,64,,67,66,9,18,6,10,0.5,1
2026-02-14T2100,1792A,125.1391,46.578,大庆市,萨尔图区,,,39,61,19,31,56,,,,,16,6,6,0.4,0.4
2026-02-14T2100,1793A,124.9026,46.6217,大庆市,让胡路区,,27,27,78,14,68,54,,58,56,8,17,7,9,0.4,0.7
2026-02-14T2100,3481A,125.127,46.6277,大庆市,萨区政府监测点,,28,28,109,12,65,65,,77,74,10,11,8,10,0.6,1
2026-02-14T2100,1723A,113.2926,40.0759,大同市,云冈宾馆,,48,48,85,9,34,72,,74,74,7,25,5,9,0.8,1.2
2026-02-14T2100,1724A,113.3437,40.0921,大同市,大同大学,,38,38,93,14,26,78,,78,78,4,16,5,11,0.3,0.7
2026-02-14T2100,1725A,113.2637,40.129,大同市,安家小村,颗粒物(PM10),60,70,74,10,21,53,,63,60,11,17,5,11,0.2,0.7
2026-02-14T2100,3282A,113.3399,40.0586,大同市,大同市卫生学校,,32,32,87,3,29,86,,88,88,6,26,3,8,0.2,0.7
2026-02-14T2100,3565A,113.1371,40.1122,大同市,云冈站,,36,36,60,3,18,75,,77,77,4,15,4,15,0.4,0.5
2026-02-14T2100,3566A,113.1186,40.2556,大同市,图书馆,,27,27,64,9,21,72,,76,75,5,10,4,9,0.4,0.7
2026-02-14T2100,3567A,113.5931,40.0459,大同市,区一中,颗粒物(PM10),54,58,76,13,33,88,,91,90,4,14,4,18,0.2,0.6
2026-02-14T2100,4199A,113.2798248,40.09972476,大同市,魏都大道141号,,48,48,113,9,30,74,,75,75,8,25,5,11,0.4,1.4
2026-02-14T2100,2269A,124.1068,50.4091,大兴安岭地区,科技局,,23,21,34,10,11,71,,70,70,2,8,3,8,0.3,0.3
2026-02-14T2100,3663A,124.117,50.4279,大兴安岭地区,红旗社区,,27,6,10,3,9,84,,85,85,2,3,4,6,0.2,0.2
2026-02-14T2100,1600A,124.33,40.0625,丹东市,江湾东路,细颗粒物(PM2.5),189,206,133,142,97,26,,98,77,50,24,9,9,2.2,1.1
2026-02-14T2100,1601A,124.4242,40.1513,丹东市,临江后街,细颗粒物(PM2.5),132,144,160,100,119,69,,99,81,26,26,8,11,1.5,1.7
2026-02-14T2100,1602A,124.3935,40.1461,丹东市,元宝山,细颗粒物(PM2.5),124,154,142,94,100,55,,97,80,28,24,10,12,1.1,1.2
2026-02-14T2100,1603A,124.3634,40.1093,丹东市,民主桥,细颗粒物(PM2.5),172,201,146,130,104,42,,97,81,40,25,12,14,1.3,1.1
2026-02-14T2100,3541A,109.5726195,19.51688767,儋州市,第一中学子站,,29,29,29,16,15,72,,72,72,2,2,4,4,0.6,0.6
2026-02-14T2100,3542A,109.5567,19.5187,儋州市,东坡学校子站,,25,15,26,15,16,80,,80,78,3,4,4,4,0.4,0.6
2026-02-14T2100,2616A,98.5611,24.4273,德宏傣族景颇族自治州,德宏州监测站,细颗粒物(PM2.5),75,95,56,55,35,59,,106,103,32,26,8,7,0.9,0.6
2026-02-14T2100,3677A,98.5887,24.4366,德宏傣族景颇族自治州,芒市人民政府综合楼,细颗粒物(PM2.5),67,80,56,48,27,75,,103,102,18,14,5,4,1.1,0.9
2026-02-14T2100,1901A,104.424,31.1209,德阳市,东山公园,细颗粒物(PM2.5),112,90,85,84,76,108,,122,122,12,13,4,3,0.7,0.6
2026-02-14T2100,1902A,104.3827,31.1318,德阳市,西小区,细颗粒物(PM2.5),122,108,119,92,94,57,,111,106,53,45,5,5,1.2,1
2026-02-14T2100,1904A,104.3553,31.1091,德阳市,耐火材料厂,细颗粒物(PM2.5),114,100,110,86,103,76,,111,109,28,33,3,2,0.8,0.9
2026-02-14T2100,4145A,104.4144,31.1495,德阳市,市林业局,细颗粒物(PM2.5),105,101,99,79,82,70,,115,111,34,24,6,5,0.8,0.8
2026-02-14T2100,1622A,116.3034,37.4675,德州市,儿童乐园,细颗粒物(PM2.5),163,207,189,124,113,120,,149,148,26,26,19,19,0.9,1
2026-02-14T2100,1624A,116.2992,37.4449,德州市,监理站,细颗粒物(PM2.5),152,212,188,116,107,125,,152,152,32,31,20,20,1.1,1.1
2026-02-14T2100,3066A,116.2722,37.438,德州市,九衢泉纯净水厂,细颗粒物(PM2.5),137,195,178,104,108,130,,154,154,36,36,14,15,1.1,1.1
2026-02-14T2100,3371A,116.3693,37.44,德州市,开发区人民医院,细颗粒物(PM2.5),159,215,190,121,112,125,,155,151,23,22,17,19,1.1,1.1
2026-02-14T2100,3511A,116.5687,37.3331,德州市,陵城艺术中心,细颗粒物(PM2.5),178,215,169,134,105,120,,138,138,30,28,16,16,1.3,1.2
2026-02-14T2100,4292A,116.352738,37.420875,德州市,新河东路,细颗粒物(PM2.5),144,200,182,110,108,124,,147,147,21,24,18,20,1.3,1.2
2026-02-14T2100,2621A,99.7054,27.8319,迪庆藏族自治州,迪庆州站,,28,19,24,6,12,88,,91,91,6,8,4,5,0.6,0.7
2026-02-14T2100,3180A,99.7122,27.8129,迪庆藏族自治州,质量技术监督局,,28,14,23,10,12,89,,93,93,5,10,4,4,0.5,0.6
2026-02-14T2100,4257A,104.6092,35.5962,定西市,将台街,颗粒物(PM10),76,101,88,26,43,90,,93,93,2,18,9,14,0.3,0.8
2026-02-14T2100,4309A,104.6159,35.5701,定西市,正龙路62号,颗粒物(PM10),98,146,96,26,41,81,,77,77,4,11,5,12,0.4,1
2026-02-14T2100,1390A,113.7943,23.0132,东莞市,东城石井,,20,11,34,6,21,62,,142,120,19,21,4,5,0.5,0.5
2026-02-14T2100,1391A,113.7384,22.9659,东莞市,南城西平,,21,14,32,8,22,67,,124,108,24,27,7,7,0.4,0.5
2026-02-14T2100,3319A,113.7283,23.041,东莞市,万江金泰,,22,9,44,7,25,69,,135,117,15,25,5,6,0.6,0.7
2026-02-14T2100,4129A,113.8666,23.1062,东莞市,裕兴路,,20,16,44,3,26,64,,137,123,20,20,6,6,0.6,0.7
2026-02-14T2100,4130A,114.0076,22.9739,东莞市,教育路1号,,24,24,36,9,21,58,,124,103,31,22,5,4,0.5,0.5
2026-02-14T2100,4131A,113.7981,22.8124,东莞市,长怡路1号,,20,20,34,8,18,51,,111,91,35,20,9,7,0.5,0.5
2026-02-14T2100,1666A,118.6612,37.4313,东营市,市环保局,细颗粒物(PM2.5),133,149,152,101,101,126,,153,148,26,35,12,25,1.0,1.2
2026-02-14T2100,3036A,118.6903,37.4337,东营市,开发区管委会,细颗粒物(PM2.5),123,131,148,93,93,126,,148,145,25,35,13,21,0.9,1.1
2026-02-14T2100,3365A,118.5721,37.5654,东营市,垦利区民丰路,,,,148,,93,,,160,160,,38,,16,,1.1
2026-02-14T2100,3498A,118.5063,37.8606,东营市,河口城区,细颗粒物(PM2.5),175,210,177,132,105,132,,171,167,33,34,14,13,1.4,1.3
2026-02-14T2100,3646A,118.4979,37.4623,东营市,胜利站,细颗粒物(PM2.5),122,157,151,92,94,120,,139,138,27,39,15,17,1.4,1.4
2026-02-14T2100,3734A,118.5753,37.4405,东营市,理想之城,细颗粒物(PM2.5),123,158,153,93,92,114,,149,145,32,37,10,15,1.0,1.1
2026-02-14T2100,1591A,110.0024,39.8127,鄂尔多斯市,综合楼,颗粒物(PM10),52,53,106,3,15,79,,82,82,7,13,6,9,0.3,0.3
2026-02-14T2100,1592A,109.9485,39.8259,鄂尔多斯市,巴音孟克林场办事处,颗粒物(PM10),51,51,96,9,19,84,,86,86,6,11,5,8,0.3,0.3
2026-02-14T2100,1593A,109.7734,39.5987,鄂尔多斯市,康泽苑,,48,48,87,14,19,85,,90,90,6,13,6,8,0.3,0.4
2026-02-14T2100,1594A,109.8121,39.5987,鄂尔多斯市,华泰汽车城,颗粒物(PM10),59,68,83,11,20,84,,89,89,7,15,9,10,0.3,0.5
2026-02-14T2100,1595A,109.9734,39.7884,鄂尔多斯市,奥林花园,颗粒物(PM10),52,53,105,7,15,77,,84,83,15,21,6,7,0.3,0.4
2026-02-14T2100,2436A,114.894,30.3989,鄂州市,市政府,细颗粒物(PM2.5),105,126,116,79,86,74,,102,102,26,47,11,16,1.2,1.3
2026-02-14T2100,2437A,114.8986,30.3714,鄂州市,赵家坝,,,,107,,79,,,127,127,,29,,13,,1.4
2026-02-14T2100,3654A,114.8093,30.4091,鄂州市,精准医疗中心,细颗粒物(PM2.5),92,87,101,68,75,81,,102,102,27,34,64,23,2.6,1.3
2026-02-14T2100,2454A,109.4978,30.2979,恩施土家族苗族自治州,湖北民院,细颗粒物(PM2.5),118,,74,89,61,57,,100,96,19,15,7,6,1.1,1
2026-02-14T2100,3549A,109.5061,30.3771,恩施土家族苗族自治州,龙凤新区,细颗粒物(PM2.5),84,70,67,62,49,41,,90,82,16,10,8,7,0.8,0.7
2026-02-14T2100,2499A,108.3411,21.6159,防城港市,沙万,,46,46,58,28,31,78,,81,81,14,21,6,7,0.5,0.6
2026-02-14T2100,2500A,108.3515,21.7733,防城港市,防城档案局,细颗粒物(PM2.5),53,45,51,37,34,70,,92,91,8,9,4,5,0.6,0.7
2026-02-14T2100,2501A,108.3506,21.6414,防城港市,大海花园,,45,36,47,31,35,89,,93,93,12,16,6,7,0.5,0.7
2026-02-14T2100,1371A,113.1293,23.0065,佛山市,湾梁,,26,19,36,18,22,83,,140,131,11,13,/,/,/,/
2026-02-14T2100,1372A,113.1082,23.0477,佛山市,华材职中,,28,27,38,18,25,87,,142,133,19,17,6,6,0.3,0.4
2026-02-14T2100,1373A,113.1439,23.045,佛山市,南海气象局,,23,21,37,14,24,73,,142,132,15,15,/,/,/,/
2026-02-14T2100,1374A,113.2879,22.8094,佛山市,顺德苏岗,,22,22,40,3,19,70,,120,110,10,15,/,/,0.6,0.7
2026-02-14T2100,1376A,112.8384,22.8678,佛山市,高明孔堂,,30,24,32,9,18,94,,132,128,7,10,/,/,/,/
2026-02-14T2100,1377A,112.8835,23.1584,佛山市,三水监测站,,39,39,44,18,28,84,,124,119,25,23,3,2,0.5,0.5
2026-02-14T2100,1378A,112.8668,23.185,佛山市,三水云东海,,48,48,40,24,24,74,,133,122,34,24,/,/,/,/
2026-02-14T2100,3625A,113.2568,22.7629,佛山市,容桂街道办,,21,17,29,6,19,65,,114,105,9,11,/,/,/,/
2026-02-14T2100,1282A,119.2681,26.0506,福州市,师大,细颗粒物(PM2.5),72,76,48,52,32,108,,126,125,24,18,6,4,0.6,0.6
2026-02-14T2100,1283A,119.2983,26.1028,福州市,五四北路,细颗粒物(PM2.5),97,94,44,72,36,39,,116,106,62,22,9,5,1.0,0.7
2026-02-14T2100,1284A,119.2648,26.0769,福州市,杨桥西路,细颗粒物(PM2.5),70,70,44,51,31,105,,123,122,25,18,6,5,/,/
2026-02-14T2100,3048A,119.5799,26.0937,福州市,九龙,细颗粒物(PM2.5),54,42,40,38,32,78,,129,123,16,17,5,5,0.6,0.6
2026-02-14T2100,3526A,119.5188,25.9666,福州市,吴航,细颗粒物(PM2.5),59,64,46,42,31,82,,128,120,25,21,5,5,0.6,0.7
2026-02-14T2100,4104A,119.3106,26.0648,福州市,路通桥巷6号,细颗粒物(PM2.5),57,41,44,40,36,105,,119,118,22,21,/,/,/,/
2026-02-14T2100,1755A,123.7974,41.8494,抚顺市,望花区,颗粒物(PM10),75,100,127,12,66,70,,106,76,15,23,10,20,0.5,1.2
2026-02-14T2100,1756A,123.9161,41.8827,抚顺市,顺城区,颗粒物(PM10),61,71,109,19,75,60,,94,79,28,35,9,12,0.6,1
2026-02-14T2100,1757A,124.0437,41.8615,抚顺市,东洲区,颗粒物(PM10),66,81,119,9,64,69,,110,78,12,17,10,17,0.5,0.8
2026-02-14T2100,1758A,123.9246,41.8638,抚顺市,新抚区,颗粒物(PM10),68,86,123,12,67,71,,102,83,16,25,8,10,0.4,0.8
2026-02-14T2100,1759A,124.0972,41.8961,抚顺市,大伙房水库,颗粒物(PM10),62,73,106,7,62,74,,122,84,10,14,10,11,0.4,0.8
2026-02-14T2100,1760A,123.708,41.8386,抚顺市,沈抚新城,颗粒物(PM10),71,92,119,13,61,67,,110,75,14,17,7,10,0.5,0.9
2026-02-14T2100,2377A,116.3544,27.9833,抚州市,市站,细颗粒物(PM2.5),87,78,46,64,40,43,,62,60,20,15,9,6,1.3,1.3
2026-02-14T2100,2378A,116.3562,27.9631,抚州市,血防站,细颗粒物(PM2.5),82,,42,60,35,45,,61,61,14,9,7,6,1.3,1.5
2026-02-14T2100,2379A,116.3561,28.0007,抚州市,采茶剧团,细颗粒物(PM2.5),52,52,45,36,38,42,,62,61,8,8,5,4,1.3,1.4
2026-02-14T2100,2380A,116.3854,27.9648,抚州市,医学分院,细颗粒物(PM2.5),67,55,40,48,30,41,,60,60,16,10,7,5,1.4,1.4
2026-02-14T2100,2207A,121.6095,41.9978,阜新市,工业园区,颗粒物(PM10),59,68,114,3,77,80,,83,76,8,19,8,12,0.3,0.8
2026-02-14T2100,2208A,121.6567,42.0188,阜新市,长青街,颗粒物(PM10),59,68,103,3,81,85,,83,81,10,22,7,12,0.3,0.9
2026-02-14T2100,2209A,121.6672,42.07,阜新市,农业园区,颗粒物(PM10),52,53,120,3,68,78,,78,75,10,20,5,10,0.1,0.6
2026-02-14T2100,2211A,121.6343,42.0455,阜新市,玉龙新城,颗粒物(PM10),54,57,115,3,70,83,,79,75,10,23,10,14,0.3,0.8
2026-02-14T2100,2301A,115.8276,32.8929,阜阳市,市监测站,细颗粒物(PM2.5),80,106,89,59,47,55,,104,97,37,17,6,6,1.0,0.7
2026-02-14T2100,2303A,115.8551,32.8606,阜阳市,开发区,颗粒物(PM10),71,91,88,44,55,89,,107,105,18,14,7,6,0.6,0.6
2026-02-14T2100,2875A,115.783962,32.889217,阜阳市,阜阳职业技术学院,颗粒物(PM10),72,93,79,47,46,95,,114,113,21,15,8,7,0.8,0.8
2026-02-14T2100,3468A,115.79,32.8614,阜阳市,市规划展馆,细颗粒物(PM2.5),80,95,88,59,49,86,,112,110,19,11,9,8,0.9,0.8
2026-02-14T2100,3469A,115.835101,32.918568,阜阳市,枣园社区,颗粒物(PM10),72,94,84,50,44,39,,107,96,61,21,8,8,0.8,0.6
2026-02-14T2100,2669A,102.9097,34.9841,甘南藏族自治州,州政府,颗粒物(PM10),83,115,48,41,26,85,,83,83,10,17,12,11,0.5,0.7
2026-02-14T2100,3380A,102.8915,34.9618,甘南藏族自治州,甘肃民族师范学院,颗粒物(PM10),84,118,42,37,16,91,,87,87,15,17,12,11,0.4,0.4
2026-02-14T2100,2570A,101.96,30.048,甘孜藏族自治州,水桥子,,29,,10,20,4,47,,70,67,18,10,7,6,0.6,0.4
2026-02-14T2100,3065A,101.9534,29.9976,甘孜藏族自治州,州环保局,,24,,5,7,3,74,,87,85,6,5,6,6,0.3,0.2
2026-02-14T2100,2363A,114.9368,25.8663,赣州市,地委,颗粒物(PM10),52,53,47,34,34,58,,111,98,26,23,8,8,0.9,1
2026-02-14T2100,2364A,114.946,25.8483,赣州市,气象台,细颗粒物(PM2.5),58,63,49,41,33,30,,108,90,53,28,7,5,0.7,0.5
2026-02-14T2100,2365A,114.932,25.8332,赣州市,市图书馆,颗粒物(PM10),57,64,45,38,31,34,,91,78,48,23,5,4,1.3,1
2026-02-14T2100,2366A,114.8905,25.8472,赣州市,华坚鞋城,细颗粒物(PM2.5),57,51,44,40,30,35,,96,80,56,26,6,6,0.9,0.5
2026-02-14T2100,3109A,115.0094,25.8614,赣州市,赣县区卫计委,细颗粒物(PM2.5),73,93,45,53,32,59,,109,96,35,25,8,8,0.8,0.8
2026-02-14T2100,2684A,106.2753,36.0057,固原市,监测站,颗粒物(PM10),118,185,152,31,39,77,,90,89,11,10,10,8,0.5,0.5
2026-02-14T2100,2685A,106.2384,36.0189,固原市,新区,颗粒物(PM10),108,166,139,32,34,80,,90,90,12,11,10,7,0.4,0.3
2026-02-14T2100,2544A,106.6307,30.4577,广安市,市委,细颗粒物(PM2.5),104,103,94,78,76,69,,112,107,44,34,8,7,1.2,1.1
2026-02-14T2100,2545A,106.6266,30.4662,广安市,友谊中学,细颗粒物(PM2.5),82,89,85,60,63,82,,111,109,25,24,9,8,1.0,1
2026-02-14T2100,2547A,106.6386,30.4551,广安市,广电花园,细颗粒物(PM2.5),95,84,81,71,77,67,,109,101,36,27,7,7,1.0,0.9
2026-02-14T2100,2902A,106.6347,30.4868,广安市,北辰小学,细颗粒物(PM2.5),90,88,84,67,72,99,,117,117,18,17,15,11,0.9,0.9
2026-02-14T2100,2524A,105.8211,32.4444,广元市,老城,"颗粒物(PM10),细颗粒物(PM2.5)",82,113,86,60,57,72,,106,106,32,34,11,13,0.7,0.8
2026-02-14T2100,2526A,105.8629,32.429,广元市,监测站,细颗粒物(PM2.5),78,78,70,57,55,70,,98,98,24,20,8,11,0.6,0.6
2026-02-14T2100,3617A,105.8047,32.4167,广元市,经开区,细颗粒物(PM2.5),100,99,93,75,68,46,,102,98,45,28,5,17,1.0,1
2026-02-14T2100,1345A,113.2346,23.1423,广州市,广雅中学,,32,32,40,17,24,72,,131,124,21,20,2,3,0.6,0.6
2026-02-14T2100,1346A,113.2611,23.105,广州市,市五中,,26,26,41,13,22,83,,160,148,20,20,7,7,/,/
2026-02-14T2100,1348A,113.3477,23.0916,广州市,广东商学院,,20,20,36,9,26,58,,138,123,24,20,5,5,0.7,0.8
2026-02-14T2100,1349A,113.4332,23.105,广州市,市八十六中,,20,13,33,8,19,61,,142,118,34,42,4,5,/,/
2026-02-14T2100,1350A,113.3506,22.9488,广州市,番禺中学,,37,37,50,20,21,60,,125,111,21,17,5,4,0.7,0.7
2026-02-14T2100,1351A,113.2147,23.3918,广州市,花都师范,,,19,53,14,34,,,153,153,20,37,5,6,0.5,0.8
2026-02-14T2100,1352A,113.2599,23.1329,广州市,市监测站,,48,48,41,31,25,67,,136,125,29,23,1,2,/,/
2026-02-14T2100,1353A,113.5618,23.3119,广州市,九龙镇镇龙,,18,18,46,10,30,51,,94,90,22,21,5,5,0.5,0.6
2026-02-14T2100,1354A,113.2764,23.1544,广州市,麓湖,,22,22,38,12,24,70,,142,131,28,34,4,4,0.4,0.5
2026-02-14T2100,2846A,113.3209,23.1323,广州市,体育西,,21,21,42,12,25,61,,138,124,36,34,6,6,0.8,0.9
2026-02-14T2100,3298A,113.5718,23.5493,广州市,从化街口,,49,49,52,31,34,98,,142,138,31,22,7,7,0.9,0.7
2026-02-14T2100,3299A,113.3463,23.369,广州市,白云竹料,,29,18,51,11,34,92,,150,144,18,24,4,4,0.5,0.7
2026-02-14T2100,3300A,113.2981,23.2365,广州市,白云嘉禾,,25,18,41,9,24,78,,161,148,28,27,5,5,/,/
2026-02-14T2100,3301A,113.4256,23.1716,广州市,黄埔科学城,,23,11,38,6,27,72,,163,142,20,23,4,5,0.5,0.6
2026-02-14T2100,3302A,113.3942,23.0485,广州市,番禺大学城,,28,28,54,6,24,63,,134,119,20,20,8,8,0.5,0.5
2026-02-14T2100,3303A,113.4923,22.8169,广州市,南沙黄阁,,21,17,28,7,18,67,,102,93,14,17,5,5,/,/
2026-02-14T2100,3304A,113.534,22.7893,广州市,南沙街,,21,21,30,3,18,66,,107,94,11,14,4,5,0.5,0.5
2026-02-14T2100,3443A,113.2905,23.5541,广州市,花都梯面,,46,46,38,29,26,75,,115,109,16,18,4,4,/,/
2026-02-14T2100,3445A,113.786,23.7479,广州市,从化良口,,34,34,27,23,19,104,,119,115,8,8,8,8,/,/
2026-02-14T2100,3446A,113.805,23.2614,广州市,增城荔城,,22,21,41,12,27,68,,149,134,23,18,6,6,0.5,0.5
2026-02-14T2100,2506A,109.604387,23.066791,贵港市,江南子站,细颗粒物(PM2.5),110,136,100,83,71,65,,105,98,28,26,11,6,1.0,1
2026-02-14T2100,2508A,109.5669,23.1065,贵港市,荷城子站,细颗粒物(PM2.5),98,102,85,73,64,52,,87,80,32,31,9,7,1.0,1
2026-02-14T2100,3405A,109.5886,23.1172,贵港市,新世纪学校,细颗粒物(PM2.5),85,100,90,63,77,69,,100,94,25,38,/,/,0.8,1.1
2026-02-14T2100,4260A,109.5933,23.095,贵港市,中山路155-3号,细颗粒物(PM2.5),82,68,111,60,92,69,,100,94,20,27,/,/,0.8,1.2
2026-02-14T2100,1439A,106.6863,26.6035,贵阳市,马鞍山,,28,24,41,19,32,63,,77,77,9,16,7,7,/,/
2026-02-14T2100,1441A,106.6241,26.6266,贵阳市,鉴湖路,,39,39,46,22,28,60,,81,80,10,15,8,9,0.4,0.6
2026-02-14T2100,1442A,106.7468,26.6344,贵阳市,燕子冲,,34,34,44,19,32,64,,82,81,16,20,5,9,0.3,0.6
2026-02-14T2100,1443A,106.6556,26.4362,贵阳市,碧云窝,,34,34,53,20,33,64,,78,77,10,12,15,14,/,/
2026-02-14T2100,1445A,106.6963,26.6063,贵阳市,红边门,,40,31,53,28,44,54,,75,74,22,34,11,25,/,/
2026-02-14T2100,1446A,106.7162383,26.56964667,贵阳市,新华路,,39,39,61,23,40,58,,78,76,20,35,14,16,0.4,0.7
2026-02-14T2100,1447A,106.6742,26.542,贵阳市,太慈桥,,32,29,42,22,33,49,,62,62,10,18,4,3,/,/
2026-02-14T2100,4230A,106.688212,26.56952,贵阳市,花果园大街66号,,30,27,47,21,41,53,,64,64,13,30,5,8,/,/
2026-02-14T2100,4231A,106.687268,26.516892,贵阳市,漓江路57号,,31,31,52,20,37,59,,76,76,13,21,14,16,0.6,0.8
2026-02-14T2100,1864A,110.3091,25.2705,桂林市,龙隐路小学,,,99,57,71,45,2,,28,26,41,23,,3,,1.3
2026-02-14T2100,1865A,110.2849361,25.22909545,桂林市,八中,颗粒物(PM10),70,89,54,48,38,6,,23,22,44,27,4,4,1.4,1.3
2026-02-14T2100,3531A,110.296,25.1254,桂林市,旅游学院,细颗粒物(PM2.5),84,77,48,62,40,25,,36,36,27,18,6,5,1.1,1.1
2026-02-14T2100,4222A,110.1835,25.2444,桂林市,环湖路276号,细颗粒物(PM2.5),115,97,55,87,47,6,,25,22,42,27,4,5,1.7,1.4
2026-02-14T2100,4301A,110.2803,25.2773,桂林市,信义路13号,细颗粒物(PM2.5),119,107,61,90,47,8,,29,27,45,27,6,6,2.3,1.8
2026-02-14T2100,2674A,100.2262,34.4854,果洛藏族自治州,玛沁县大武镇,,36,36,27,19,13,77,,88,88,2,2,13,16,0.4,0.4
2026-02-14T2100,1130A,126.5557,45.8109,哈尔滨市,松北商大,细颗粒物(PM2.5),65,55,121,47,97,61,,74,67,24,36,9,12,0.8,1.1
2026-02-14T2100,1132A,126.6162,45.719,哈尔滨市,南岗学府路,颗粒物(PM10),53,56,126,36,86,65,,83,79,18,26,8,11,0.7,1.1
2026-02-14T2100,1133A,126.6894,45.7733,哈尔滨市,太平宏伟公园,,50,50,120,35,92,82,,88,84,4,10,7,11,0.7,1.1
2026-02-14T2100,1134A,126.6361,45.7672,哈尔滨市,道外承德广场,颗粒物(PM10),64,77,141,38,90,74,,83,74,15,29,8,13,0.5,1.2
2026-02-14T2100,1136A,126.644,45.7261,哈尔滨市,动力和平路,细颗粒物(PM2.5),54,50,119,38,87,65,,84,72,24,28,13,13,0.7,1
2026-02-14T2100,1137A,126.5933,45.7479,哈尔滨市,道里建国路,细颗粒物(PM2.5),70,,113,51,92,62,,80,73,27,34,6,13,0.3,1.7
2026-02-14T2100,1138A,126.6127,45.6119,哈尔滨市,平房东轻厂,"颗粒物(PM10),细颗粒物(PM2.5)",59,67,112,42,89,65,,98,72,22,18,10,10,0.6,0.9
2026-02-14T2100,1139A,126.5875,45.9827,哈尔滨市,呼兰师专,细颗粒物(PM2.5),55,47,115,39,90,58,,70,65,13,21,12,15,0.7,1.1
2026-02-14T2100,1140A,126.6299,45.6799,哈尔滨市,省农科院,细颗粒物(PM2.5),85,82,141,63,97,48,,75,64,28,27,10,15,0.8,1.1
2026-02-14T2100,4282A,126.6769,45.7379,哈尔滨市,华山路1号,细颗粒物(PM2.5),57,44,120,40,90,72,,75,74,21,28,3,8,0.8,1.2
2026-02-14T2100,4283A,126.9717,45.5356,哈尔滨市,解放大街52号,颗粒物(PM10),65,80,97,39,82,74,,102,72,15,18,14,17,0.6,0.9
2026-02-14T2100,2688A,93.5124,42.8176,哈密市,地区监测站,颗粒物(PM10),64,78,91,36,50,71,,78,77,10,13,5,6,0.2,0.3
2026-02-14T2100,2689A,93.5014,42.8312,哈密市,哈密师范学校,颗粒物(PM10),74,97,100,29,31,68,,86,84,23,21,4,5,0.5,0.5
2026-02-14T2100,2671A,100.9016,36.9464,海北藏族自治州,海晏县西海镇,,34,34,19,16,9,74,,80,79,2,1,10,8,0.5,0.4
2026-02-14T2100,3867A,102.074,36.5056,海东市,平安区公安局北苑,颗粒物(PM10),91,132,60,44,27,69,,73,73,7,18,11,19,0.6,1.1
2026-02-14T2100,4163A,102.0984,36.5119,海东市,滨河路,颗粒物(PM10),109,168,67,41,30,80,,87,87,13,28,10,17,0.5,0.8
2026-02-14T2100,1410A,110.3189,20.0596,海口市,海南大学,,25,23,31,13,15,79,,99,91,6,4,6,6,0.4,0.4
2026-02-14T2100,1411A,110.2827,20.0051,海口市,秀英海南医院,,25,25,30,15,15,69,,94,86,12,6,8,7,0.3,0.3
2026-02-14T2100,1412A,110.3391,19.9979,海口市,海南师范大学,,27,27,32,16,17,78,,99,91,8,6,6,5,0.5,0.5
2026-02-14T2100,1413A,110.3303,20.0359,海口市,龙华路环保局宿舍,,32,32,34,18,17,76,,102,93,9,6,/,/,0.7,0.7
2026-02-14T2100,3539A,110.5111,19.9737,海口市,桂林洋子站,,32,32,29,17,15,72,,92,85,7,4,/,/,/,/
2026-02-14T2100,4134A,110.1952,20.0451,海口市,长滨二路9号,,26,26,28,15,16,75,,100,92,4,6,/,/,/,/
2026-02-14T2100,2673A,100.6158,36.2985,海南藏族自治州,共和县恰卜恰镇,,35,35,31,18,17,78,,91,90,6,13,14,10,0.5,0.5
2026-02-14T2100,2676A,97.373,37.376,海西蒙古族藏族自治州,德令哈市,,34,34,25,17,9,87,,93,92,3,2,17,19,0.4,0.4
2026-02-14T2100,1049A,114.492,36.5712,邯郸市,矿院,细颗粒物(PM2.5),196,196,166,147,130,150,,165,165,17,30,11,12,1.1,1.4
2026-02-14T2100,1050A,114.4839,36.6136,邯郸市,丛台公园,细颗粒物(PM2.5),176,197,167,133,124,146,,162,162,27,37,13,17,1.1,1.5
2026-02-14T2100,3458A,114.7893,36.5592,邯郸市,香泉濮院小区,,,,200,,120,,,166,166,,19,,12,,1.2
2026-02-14T2100,3580A,114.1998,36.4439,邯郸市,峰峰矿区临水派出所,细颗粒物(PM2.5),144,206,103,110,58,161,,166,166,11,11,11,14,1.0,1.2
2026-02-14T2100,4068A,114.5209,36.7697,邯郸市,建安街268号,细颗粒物(PM2.5),158,170,159,120,118,127,,154,154,21,34,10,14,0.9,1.3
2026-02-14T2100,4069A,114.5488,36.6177,邯郸市,丛台东路558号,细颗粒物(PM2.5),210,214,187,160,150,136,,164,164,21,30,10,14,1.1,1.4
2026-02-14T2100,2635A,107.0155,33.0707,汉中市,市监测站,颗粒物(PM10),101,151,103,75,75,36,,100,90,58,31,7,6,1.7,1.3
2026-02-14T2100,2636A,107.0083,33.114,汉中市,鑫源开发区,细颗粒物(PM2.5),144,124,90,110,70,61,,92,91,32,25,7,5,1.3,1.1
2026-02-14T2100,2637A,107.0072,33.0323,汉中市,南郑大河坎水厂,细颗粒物(PM2.5),132,134,98,100,69,57,,98,94,30,23,8,6,1.3,1.1
2026-02-14T2100,1223A,120.2073,30.2111,杭州市,滨江,,48,44,60,33,44,55,,67,67,20,22,7,7,0.7,0.7
2026-02-14T2100,1224A,120.0625,30.2737,杭州市,西溪,,41,41,52,23,28,23,,64,58,12,16,8,8,1.4,1.2
2026-02-14T2100,1226A,120.3417,30.315,杭州市,下沙,细颗粒物(PM2.5),58,59,74,41,40,56,,72,70,21,19,10,9,0.6,0.6
2026-02-14T2100,1227A,120.1252,30.2465,杭州市,卧龙桥,,30,30,50,18,32,4,,59,47,23,17,7,8,0.6,0.6
2026-02-14T2100,1228A,120.1902,30.2691,杭州市,浙江农大,,40,35,48,28,35,40,,74,70,26,23,6,6,0.9,0.9
2026-02-14T2100,1230A,120.1195,30.3121,杭州市,和睦小学,,44,44,53,29,34,42,,70,68,27,18,5,5,0.8,0.8
2026-02-14T2100,1231A,120.3076,30.4146,杭州市,临平镇,细颗粒物(PM2.5),58,56,57,41,40,52,,77,74,20,21,6,6,0.8,0.8
2026-02-14T2100,1232A,120.2753,30.1839,杭州市,城厢镇,"颗粒物(PM10),细颗粒物(PM2.5)",52,54,74,36,49,56,,69,69,20,19,9,8,0.9,0.9
2026-02-14T2100,1233A,120.0883,30.1808,杭州市,云栖,,,28,48,22,29,6,,50,31,,26,6,5,0.9,0.7
2026-02-14T2100,3557A,119.9463,30.0496,杭州市,镇二中,,40,35,55,28,43,33,,65,61,31,22,5,5,0.8,1
2026-02-14T2100,3558A,119.7184,30.2367,杭州市,市府大楼,颗粒物(PM10),55,60,44,38,34,40,,64,62,22,13,11,11,0.8,0.7
2026-02-14T2100,3656A,120.1554,30.2863,杭州市,消防大队,,49,49,68,31,40,44,,63,62,28,20,6,6,1.0,0.9
2026-02-14T2100,1270A,117.1957,31.7845,合肥市,明珠广场,"颗粒物(PM10),细颗粒物(PM2.5)",58,66,79,41,48,80,,104,101,20,24,6,7,0.8,0.8
2026-02-14T2100,1271A,117.307,31.8765,合肥市,三里街,颗粒物(PM10),64,78,81,44,54,67,,90,87,33,32,6,6,1.0,1
2026-02-14T2100,1272A,117.2587,31.8703,合肥市,琥珀山庄,细颗粒物(PM2.5),64,75,77,46,50,56,,99,92,43,37,7,7,1.2,1
2026-02-14T2100,1275A,117.2593,31.9376,合肥市,庐阳区,颗粒物(PM10),60,70,82,41,48,75,,103,101,29,28,11,11,0.9,0.9
2026-02-14T2100,1276A,117.345251,31.861615,合肥市,瑶海区,颗粒物(PM10),56,61,73,35,45,87,,102,101,26,29,6,6,0.7,0.7
2026-02-14T2100,1277A,117.3033,31.7967,合肥市,包河区,颗粒物(PM10),56,61,73,37,46,81,,104,102,25,24,10,10,1.0,1
2026-02-14T2100,1278A,117.278,31.7392,合肥市,滨湖新区,颗粒物(PM10),63,75,76,43,51,82,,101,100,15,20,4,4,0.8,0.8
2026-02-14T2100,1279A,117.1324,31.8395,合肥市,高新区,颗粒物(PM10),54,58,80,36,50,91,,107,106,8,12,5,5,0.8,0.8
2026-02-14T2100,3464A,117.3802,31.9148,合肥市,高教基地,颗粒物(PM10),51,51,66,32,41,81,,110,108,18,18,8,8,0.7,0.7
2026-02-14T2100,4098A,117.2518,31.8404,合肥市,中国科学技术大学,颗粒物(PM10),59,68,78,36,48,84,,108,107,17,22,8,8,1.0,1
2026-02-14T2100,3614A,79.9241,37.0878,和田地区,地区环保局,颗粒物(PM10),186,322,354,79,97,61,,82,81,13,24,2,4,1.4,2
2026-02-14T2100,3615A,79.9132,37.1137,和田地区,市环保局,颗粒物(PM10),188,326,378,115,115,71,,101,101,21,41,30,5,0.3,1.3
2026-02-14T2100,2517A,108.0496,24.6957,河池市,市环保站,,36,36,30,25,17,6,,18,17,11,12,2,2,1.0,1.1
2026-02-14T2100,4302A,108.0901,24.6945,河池市,上任中路54号,颗粒物(PM10),61,72,31,41,15,1,,16,15,25,16,5,5,1.1,1
2026-02-14T2100,1697A,114.6962,23.7538,河源市,东埔,,26,22,37,14,28,83,,115,104,13,18,5,6,0.7,0.7
2026-02-14T2100,1698A,114.6895,23.7232,河源市,老城,,28,23,36,11,23,87,,115,104,7,10,6,6,0.5,0.6
2026-02-14T2100,3374A,115.5562,35.089,菏泽市,定陶老年大学,颗粒物(PM10),133,215,146,97,93,86,,130,125,34,21,10,6,0.8,0.8
2026-02-14T2100,4114A,115.4239,35.2593,菏泽市,黄河路600号,细颗粒物(PM2.5),99,126,151,74,96,97,,125,122,20,17,7,8,0.8,0.7
2026-02-14T2100,4115A,115.5025,35.2727,菏泽市,菏泽市人社局,细颗粒物(PM2.5),103,135,139,77,85,83,,126,122,36,24,7,9,1.0,0.8
2026-02-14T2100,4184A,115.479691,35.244011,菏泽市,永昌路1号,细颗粒物(PM2.5),93,116,146,69,92,112,,141,138,19,16,4,7,0.8,0.7
2026-02-14T2100,4193A,115.471542,35.280012,菏泽市,长城路999号,细颗粒物(PM2.5),109,135,141,82,89,92,,138,134,25,16,17,11,0.9,0.9
2026-02-14T2100,2514A,111.5264,24.4178,贺州市,环保小区,细颗粒物(PM2.5),75,78,61,55,42,40,,78,74,28,20,4,4,1.2,0.5
2026-02-14T2100,2515A,111.561,24.4074,贺州市,政协大楼,细颗粒物(PM2.5),90,85,49,67,39,28,,81,72,8,8,5,4,0.8,0.5
2026-02-14T2100,3534A,111.4744,24.455,贺州市,西湾,颗粒物(PM10),65,79,70,37,40,46,,80,76,17,17,3,4,0.9,1
2026-02-14T2100,2385A,114.17,35.9019,鹤壁市,市监测站,细颗粒物(PM2.5),160,183,127,122,80,138,,138,138,54,39,16,9,1.0,1.2
2026-02-14T2100,2386A,114.2953,35.7512,鹤壁市,市交警支队,细颗粒物(PM2.5),202,225,158,152,100,138,,132,132,25,31,16,11,1.6,1.1
2026-02-14T2100,2387A,114.2877,35.7302,鹤壁市,迎宾馆,细颗粒物(PM2.5),196,214,158,147,96,137,,136,136,29,28,18,12,1.8,1.3
2026-02-14T2100,3474A,114.2616,35.6824,鹤壁市,大新区,细颗粒物(PM2.5),198,205,165,148,100,137,,133,133,28,35,24,16,2.2,1.4
2026-02-14T2100,3596A,114.1573,35.9607,鹤壁市,南山宾馆,细颗粒物(PM2.5),166,220,150,126,90,140,,148,148,17,14,21,21,1.3,1.1
2026-02-14T2100,2244A,130.2537,47.3416,鹤岗市,哈啤分公司,,28,28,37,12,27,88,,94,90,6,11,8,9,0.2,0.3
2026-02-14T2100,2245A,130.2683,47.3087,鹤岗市,斯达机电,,34,34,47,15,27,80,,80,80,9,16,8,8,0.5,0.6
2026-02-14T2100,2246A,130.3114,47.3388,鹤岗市,东山纸板厂,,25,,58,17,29,77,,79,78,7,22,11,13,0.9,1.2
2026-02-14T2100,2263A,127.4832,50.2524,黑河市,交通局,,25,21,37,10,19,80,,78,78,4,14,4,6,0.2,0.3
2026-02-14T2100,2264A,127.5146,50.2339,黑河市,环保局,,23,20,31,10,19,73,,71,71,10,20,6,9,0.5,0.6
2026-02-14T2100,1074A,115.6839,37.754,衡水市,电机北厂,颗粒物(PM10),62,74,192,36,114,76,,145,136,14,26,3,10,0.3,1
2026-02-14T2100,1075A,115.6303,37.7318,衡水市,市监测站,颗粒物(PM10),63,76,181,30,108,76,,146,136,17,26,6,14,0.3,1
2026-02-14T2100,3188A,115.6684,37.7216,衡水市,市城管局,颗粒物(PM10),62,74,189,33,105,70,,140,130,12,22,9,17,0.4,1.1
2026-02-14T2100,3459A,115.599,37.5491,衡水市,地表水厂,颗粒物(PM10),68,86,188,36,125,78,,150,142,7,27,6,13,0.3,1
2026-02-14T2100,2457A,112.6209,26.9268,衡阳市,衡阳化工总厂,颗粒物(PM10),57,64,67,39,50,59,,80,80,19,21,11,12,1.9,1.9
2026-02-14T2100,2458A,112.621,26.8957,衡阳市,珠晖区环保局,细颗粒物(PM2.5),75,75,60,55,47,7,,61,56,88,26,8,7,2.5,2
2026-02-14T2100,2459A,112.628,26.8654,衡阳市,市委党校,细颗粒物(PM2.5),58,47,56,41,45,56,,73,73,23,14,8,9,1.6,1.5
2026-02-14T2100,2460A,112.6007,26.8977,衡阳市,市监测站,细颗粒物(PM2.5),144,162,72,110,58,6,,61,51,64,28,12,9,3.8,2.1
2026-02-14T2100,2461A,112.5658,26.9013,衡阳市,真空机电公司,细颗粒物(PM2.5),73,67,56,53,47,54,,73,73,30,24,9,9,2.1,2
2026-02-14T2100,3399A,112.6703,26.8817,衡阳市,师范学院,细颗粒物(PM2.5),60,65,59,43,42,40,,79,74,24,20,4,5,1.5,1.4
2026-02-14T2100,3038A,103.3757,23.3679,红河哈尼族彝族自治州,州图书馆,,36,36,26,22,21,73,,93,91,6,4,2,2,0.8,0.7
2026-02-14T2100,4154A,103.401,23.3561,红河哈尼族彝族自治州,蒙自市朝阳路,,45,39,18,31,20,73,,94,91,6,3,7,6,0.6,0.5
2026-02-14T2100,1090A,111.6506,40.7517,呼和浩特市,呼市一监,,26,19,58,18,26,80,,81,81,8,21,6,8,0.3,0.4
2026-02-14T2100,1094A,111.7516,40.8369,呼和浩特市,如意水处理厂,,26,17,50,3,20,81,,81,81,4,24,8,11,0.2,0.4
2026-02-14T2100,1095A,111.727798,40.806187,呼和浩特市,二十九中,,25,23,57,3,19,78,,77,77,3,20,10,12,0.2,0.4
2026-02-14T2100,1097A,111.717,40.7617,呼和浩特市,化肥厂生活区,,26,19,54,3,24,81,,81,81,5,19,4,7,0.2,0.4
2026-02-14T2100,3699A,111.6519,40.8389,呼和浩特市,海东办,,26,24,59,3,21,81,,82,82,4,21,3,6,0.3,0.6
2026-02-14T2100,4275A,111.591512,40.827312,呼和浩特市,成吉思汗西街8号,,24,22,52,3,16,76,,77,77,4,12,5,6,0.3,0.4
2026-02-14T2100,4276A,111.6597,40.8077,呼和浩特市,公园东路75号,,24,19,62,3,23,76,,73,73,7,26,5,8,0.4,0.7
2026-02-14T2100,4277A,111.5427,40.7846,呼和浩特市,金海路35号,,40,40,60,3,18,82,,84,84,7,18,6,8,0.1,0.1
2026-02-14T2100,3061A,119.7511,49.1576,呼伦贝尔市,国华电力东,颗粒物(PM10),65,79,39,23,15,66,,78,73,22,17,3,3,0.5,0.4
2026-02-14T2100,4279A,119.7569,49.2222,呼伦贝尔市,伊敏大街东7号,,38,38,29,17,16,62,,77,70,16,12,6,6,0.2,0.2
2026-02-14T2100,1250A,120.075,30.867,湖州市,城西水厂,颗粒物(PM10),51,52,71,30,45,42,,103,97,47,34,5,6,0.8,0.7
2026-02-14T2100,2873A,120.083,30.8929,湖州市,仁皇山新区,,41,41,64,23,40,72,,101,99,22,31,5,5,0.6,0.7
2026-02-14T2100,2907A,120.1846,30.8592,湖州市,吴兴区站,颗粒物(PM10),52,54,76,33,48,76,,98,97,16,18,6,6,0.9,0.9
2026-02-14T2100,3562A,120.4146,30.8538,湖州市,南浔区站,,50,50,78,35,55,81,,96,95,14,20,8,8,0.8,0.8
2026-02-14T2100,1607A,120.904878,40.721091,葫芦岛市,龙港区,细颗粒物(PM2.5),120,163,117,91,89,16,,95,61,61,28,45,52,1.8,1.1
2026-02-14T2100,1608A,120.8382,40.7521,葫芦岛市,化工街,颗粒物(PM10),75,100,132,39,101,46,,72,64,29,38,20,20,0.6,0.9
2026-02-14T2100,1609A,120.8339,40.7078,葫芦岛市,新区,"颗粒物(PM10),细颗粒物(PM2.5)",78,106,108,57,104,33,,82,67,50,33,14,21,0.9,1.2
2026-02-14T2100,1610A,120.8697,40.7679,葫芦岛市,东城区,颗粒物(PM10),58,65,108,26,102,64,,82,76,18,30,13,14,0.6,1
2026-02-14T2100,2483A,109.9297,27.5383,怀化市,河西地税局,颗粒物(PM10),51,52,45,33,32,14,,53,49,24,15,3,2,/,/
2026-02-14T2100,2484A,109.9783,27.5342,怀化市,市四医院,颗粒物(PM10),54,57,48,28,28,17,,56,51,26,15,7,7,0.8,0.6
2026-02-14T2100,2485A,109.9971,27.5579,怀化市,监测楼,细颗粒物(PM2.5),72,88,53,52,38,0,,49,38,34,17,6,6,1.2,0.4
2026-02-14T2100,1210A,119.0566,33.5991,淮安市,钵池山,细颗粒物(PM2.5),94,117,108,70,73,105,,122,121,30,30,11,13,0.7,0.9
2026-02-14T2100,1211A,119.0083,33.578,淮安市,北京南路,细颗粒物(PM2.5),102,122,118,76,78,100,,101,99,22,42,9,11,0.7,0.9
2026-02-14T2100,1212A,118.9938,33.6083,淮安市,市监测站,细颗粒物(PM2.5),97,100,102,72,73,118,,121,121,21,27,12,13,0.6,0.8
2026-02-14T2100,1213A,119.135,33.5038,淮安市,楚州区监测站,细颗粒物(PM2.5),114,125,118,86,84,83,,108,102,39,33,7,7,0.6,0.6
2026-02-14T2100,3426A,118.8757,33.2897,淮安市,新华书店,细颗粒物(PM2.5),100,113,106,75,67,107,,115,113,19,24,9,8,0.7,0.7
2026-02-14T2100,4092A,119.119691,33.550006,淮安市,枚皋中路89号,细颗粒物(PM2.5),108,125,120,81,80,98,,118,115,26,27,11,10,0.8,0.7
2026-02-14T2100,4206A,119.028838,33.631911,淮安市,承德北路606号,细颗粒物(PM2.5),89,119,122,66,71,109,,111,108,25,30,10,12,0.7,1
2026-02-14T2100,2282A,116.8005,33.9749,淮北市,监测站,颗粒物(PM10),77,104,112,52,60,104,,121,119,25,28,8,7,0.8,0.8
2026-02-14T2100,2283A,116.8094,33.9008,淮北市,烈山区政府,颗粒物(PM10),80,109,114,49,60,99,,119,117,18,20,8,9,0.6,0.6
2026-02-14T2100,4017A,116.7926,33.9534,淮北市,市博物馆,颗粒物(PM10),80,110,116,55,64,94,,118,114,24,26,7,7,0.9,0.7
2026-02-14T2100,4100A,116.8322,33.9884,淮北市,杜集区第一实验学校,颗粒物(PM10),80,109,114,53,63,99,,118,116,20,21,7,9,0.8,0.8
2026-02-14T2100,2277A,116.8304,32.7726,淮南市,潘集区政府,,,95,96,51,50,91,,103,,,23,8,8,0.7,0.6
2026-02-14T2100,2279A,116.8569,32.5949,淮南市,谢家集区政府,颗粒物(PM10),68,85,74,42,45,90,,114,112,16,14,9,9,0.7,0.6
2026-02-14T2100,2280A,116.8279,32.6333,淮南市,八公山区政府,颗粒物(PM10),61,71,79,36,46,102,,115,114,11,12,6,7,0.5,0.6
2026-02-14T2100,2894A,117.0561,32.6536,淮南市,经济技术开发区消防队,颗粒物(PM10),71,91,88,38,45,98,,113,110,20,25,7,7,0.6,0.5
2026-02-14T2100,3329A,117.011,32.5891,淮南市,山南新区,颗粒物(PM10),70,89,90,35,44,100,,118,116,30,21,10,9,0.6,0.7
2026-02-14T2100,4209A,117.003137,32.644456,淮南市,国庆中路369号,细颗粒物(PM2.5),57,57,77,40,46,92,,106,103,15,19,12,12,0.6,0.6
2026-02-14T2100,2446A,114.9021,30.474,黄冈市,职工中心,细颗粒物(PM2.5),127,100,97,96,84,88,,108,108,28,35,11,9,1.3,1.2
2026-02-14T2100,2929A,114.8858,30.4519,黄冈市,红卫路,细颗粒物(PM2.5),117,96,92,88,80,90,,115,115,20,23,13,12,1.0,1
2026-02-14T2100,3398A,114.9134,30.4446,黄冈市,市林业局,细颗粒物(PM2.5),103,100,112,77,87,85,,107,106,19,23,4,4,1.0,0.9
2026-02-14T2100,2672A,102.02,35.5101,黄南藏族自治州,同仁县隆务镇,颗粒物(PM10),68,85,39,35,17,89,,82,82,2,4,15,10,0.4,0.5
2026-02-14T2100,2295A,118.2905,29.6965,黄山市,延安路89号,,23,21,41,16,30,54,,67,66,9,11,4,4,0.6,0.7
2026-02-14T2100,2297A,118.1369,30.2755,黄山市,黄山区政府5号楼,细颗粒物(PM2.5),55,,39,39,30,41,,81,73,8,8,2,2,0.7,0.7
2026-02-14T2100,4210A,118.335445,29.720283,黄山市,滨江东路7-2号,颗粒物(PM10),57,64,42,25,29,25,,67,62,24,11,/,/,/,/
2026-02-14T2100,2423A,115.0547,30.2332,黄石市,沈家营,颗粒物(PM10),64,78,116,45,74,43,,96,87,26,34,8,19,1.2,1.3
2026-02-14T2100,2426A,114.899,30.211,黄石市,铁山,细颗粒物(PM2.5),75,69,76,55,58,78,,108,106,16,17,11,10,0.4,0.7
2026-02-14T2100,2427A,115.0259,30.2108,黄石市,团城山,细颗粒物(PM2.5),69,74,116,50,78,68,,88,87,20,30,8,7,0.8,1.1
2026-02-14T2100,3149A,115.0174,30.1591,黄石市,笔架山北路,细颗粒物(PM2.5),69,86,134,50,77,70,,103,100,11,24,15,11,1.2,1.4
2026-02-14T2100,4185A,115.078022,30.21118,黄石市,磁湖东路29号,细颗粒物(PM2.5),98,114,112,73,85,50,,91,84,33,29,8,9,1.2,1.4
2026-02-14T2100,1392A,114.4181,23.0528,惠州市,河南岸金山湖子站,,20,14,32,8,20,64,,105,96,7,10,5,6,0.4,0.6
2026-02-14T2100,1393A,114.4055,23.0824,惠州市,下埔横江三路子站,,22,15,34,7,20,70,,119,106,8,12,6,7,0.5,0.5
2026-02-14T2100,1395A,114.4645,22.7832,惠州市,惠阳区承修路船湖子站,,23,14,32,8,19,73,,107,89,8,13,6,6,0.5,0.6
2026-02-14T2100,1396A,114.5316,22.7423,惠州市,大亚湾管委会子站,,25,16,30,9,17,80,,101,86,8,12,6,6,0.6,0.6
2026-02-14T2100,3314A,114.4334,22.8134,惠州市,惠阳秋长,,26,17,28,7,19,82,,124,107,8,13,/,/,/,/
2026-02-14T2100,3452A,114.6521,22.7755,惠州市,大亚湾霞涌,,28,28,27,14,18,63,,104,92,34,17,/,/,/,/
2026-02-14T2100,4300A,114.4089,23.1147,惠州市,文华一路1号,,22,17,35,8,20,70,,120,108,10,13,/,/,/,/
2026-02-14T2100,2240A,130.9618,45.2926,鸡西市,环保局,细颗粒物(PM2.5),98,,72,73,46,29,,77,64,46,20,12,11,1.0,0.6
2026-02-14T2100,2243A,130.9294,45.2959,鸡西市,第一中学,细颗粒物(PM2.5),88,71,58,65,44,54,,72,67,33,21,12,9,0.6,0.6
2026-02-14T2100,3707A,131.0069,45.2988,鸡西市,欧美日汽修厂,细颗粒物(PM2.5),90,79,70,67,47,43,,80,70,26,12,27,14,0.8,0.5
2026-02-14T2100,2367A,114.9753,27.0803,吉安市,红声器材厂,颗粒物(PM10),55,60,46,30,31,51,,70,70,16,13,6,6,0.9,1
2026-02-14T2100,2369A,114.9903,27.1313,吉安市,市环境监测站,颗粒物(PM10),54,57,39,29,30,49,,70,70,18,16,7,7,/,/
2026-02-14T2100,2370A,115.009527,27.096792,吉安市,青原区法院,细颗粒物(PM2.5),65,57,38,47,29,33,,68,65,31,18,9,8,0.6,0.8
2026-02-14T2100,1772A,126.54,43.8622,吉林市,哈达湾,颗粒物(PM10),74,98,101,12,68,80,,113,78,10,19,6,10,0.5,1.1
2026-02-14T2100,1773A,126.5843,43.8358,吉林市,东局子,颗粒物(PM10),65,80,94,13,60,78,,120,72,9,15,7,8,0.3,0.7
2026-02-14T2100,1774A,126.5051,43.8243,吉林市,电力学院,颗粒物(PM10),51,52,103,10,72,85,,114,80,10,28,5,9,0.5,1.3
2026-02-14T2100,1775A,126.6133,43.8971,吉林市,江北,颗粒物(PM10),71,92,96,14,70,73,,124,74,16,19,10,10,0.3,0.8
2026-02-14T2100,1776A,126.5549,43.8304,吉林市,江南公园,颗粒物(PM10),55,59,85,11,57,77,,116,72,6,13,6,9,0.5,0.9
2026-02-14T2100,2868A,126.4737,43.953,吉林市,九站,颗粒物(PM10),72,94,98,13,62,72,,120,71,18,26,6,10,0.5,0.9
2026-02-14T2100,1299A,116.9866,36.6118,济南市,科干所,细颗粒物(PM2.5),119,175,119,90,55,105,,138,133,35,15,20,10,1.0,0.7
2026-02-14T2100,1300A,116.9379,36.6652,济南市,农科所,细颗粒物(PM2.5),149,210,125,114,66,122,,132,129,25,20,14,9,1.1,0.8
2026-02-14T2100,1301A,117.1265,36.6736,济南市,开发区,细颗粒物(PM2.5),165,210,108,125,58,134,,141,133,26,18,14,7,1.0,0.7
2026-02-14T2100,1303A,117.0616,36.6865,济南市,省种子仓库,细颗粒物(PM2.5),150,239,129,115,63,126,,136,128,24,29,17,8,1.1,0.9
2026-02-14T2100,1304A,116.9495185,36.644937,济南市,机床二厂,细颗粒物(PM2.5),170,220,123,129,70,129,,137,133,26,16,19,13,1.0,0.7
2026-02-14T2100,1305A,117.0496,36.6629,济南市,市监测站,细颗粒物(PM2.5),135,217,122,103,57,124,,137,127,34,22,12,6,1.2,0.9
2026-02-14T2100,1306A,116.7674,36.5458,济南市,长清党校,细颗粒物(PM2.5),120,188,132,91,61,118,,138,137,39,22,11,7,1.0,0.8
2026-02-14T2100,1961A,117.5323,36.6865,济南市,东山小学,颗粒物(PM10),139,227,127,95,55,124,,140,139,33,20,12,8,1.0,0.7
2026-02-14T2100,3059A,117.7181,36.205,济南市,泰兴公司,颗粒物(PM10),126,202,149,85,82,8,,130,103,93,51,17,16,1.6,1.3
2026-02-14T2100,3064A,117.6861,36.2172,济南市,莱芜战役纪念馆,颗粒物(PM10),141,232,144,104,75,27,,132,115,92,37,21,16,1.7,1.2
2026-02-14T2100,3494A,117.1673,36.9782,济南市,济阳区政府,细颗粒物(PM2.5),185,227,141,139,74,116,,123,123,26,20,19,12,1.0,0.6
2026-02-14T2100,3495A,117.1168,36.6299,济南市,锦屏中学,细颗粒物(PM2.5),133,181,115,101,59,119,,135,128,22,14,13,8,0.8,0.6
2026-02-14T2100,4108A,117.7107,36.2385,济南市,山财大街5号,颗粒物(PM10),95,139,131,66,67,93,,136,131,43,33,18,19,1.4,1.5
2026-02-14T2100,4109A,116.9744,36.6889,济南市,无影山路12号,细颗粒物(PM2.5),173,212,125,131,70,120,,120,120,21,19,15,9,1.0,0.7
2026-02-14T2100,1653A,116.6229,35.4288,济宁市,火炬城,细颗粒物(PM2.5),90,116,128,67,80,110,,123,123,18,19,5,6,0.9,0.8
2026-02-14T2100,3500A,116.5808,35.3703,济宁市,北湖一中,细颗粒物(PM2.5),88,111,119,65,74,106,,126,126,21,18,10,10,0.8,0.8
2026-02-14T2100,3501A,116.8251,35.5592,济宁市,服务中心,细颗粒物(PM2.5),125,126,151,95,87,81,,124,120,29,16,14,8,0.8,0.6
2026-02-14T2100,3678A,116.5907,35.4054,济宁市,市第七中学,细颗粒物(PM2.5),100,128,131,75,79,100,,130,128,29,24,10,9,1.0,0.8
2026-02-14T2100,4111A,116.6075,35.4566,济宁市,任和路,"颗粒物(PM10),细颗粒物(PM2.5)",87,124,144,64,76,114,,133,132,20,20,7,8,0.9,0.9
2026-02-14T2100,4112A,116.5648,35.3921,济宁市,文体南路1号,细颗粒物(PM2.5),103,142,140,77,74,95,,128,125,34,21,8,7,0.9,0.7
2026-02-14T2100,2255A,130.2749,46.8028,佳木斯市,佳纺,,23,22,40,9,27,72,,72,72,9,14,6,6,0.3,0.4
2026-02-14T2100,2257A,130.3258,46.7975,佳木斯市,环保局,,23,20,43,16,34,66,,61,61,10,23,8,8,0.4,0.4
2026-02-14T2100,4285A,130.363,46.806,佳木斯市,顺和街,,25,19,33,17,28,72,,69,69,9,13,6,7,0.3,0.4
2026-02-14T2100,4286A,130.3952,46.8268,佳木斯市,长安路196号,,24,20,33,9,23,74,,72,72,6,8,5,4,0.3,0.4
2026-02-14T2100,1252A,120.7439,30.778,嘉兴市,清河小学,,49,49,68,27,43,52,,94,87,32,26,6,6,0.6,0.3
2026-02-14T2100,1253A,120.7261,30.7477,嘉兴市,嘉兴学院,,43,43,63,28,44,66,,93,88,25,25,5,6,0.7,0.6
2026-02-14T2100,2872A,120.7845,30.7524,嘉兴市,南湖区残联,细颗粒物(PM2.5),53,41,51,37,47,75,,101,97,23,22,4,5,0.9,0.8
2026-02-14T2100,3407A,120.6915,30.7741,嘉兴市,秀洲住建,,42,42,68,25,48,41,,97,86,39,22,6,7,0.7,0.6
2026-02-14T2100,1945A,98.291,39.7705,嘉峪关市,气象局,颗粒物(PM10),85,119,66,27,22,75,,88,86,7,7,7,7,0.4,0.6
2026-02-14T2100,2884A,98.2672,39.7978,嘉峪关市,酒钢宾馆,颗粒物(PM10),79,107,79,25,24,74,,79,77,2,11,9,26,0.3,1
2026-02-14T2100,3248A,98.2644,39.7723,嘉峪关市,雄关区,颗粒物(PM10),77,103,63,28,23,81,,87,87,8,13,11,13,0.5,0.8
2026-02-14T2100,1383A,113.1063,22.6058,江门市,北街,,25,21,31,9,17,79,,119,109,6,8,/,/,/,/
2026-02-14T2100,1384A,113.073,22.5835,江门市,西区,,35,35,36,14,21,82,,117,109,12,13,/,/,/,/
2026-02-14T2100,1385A,113.0218,22.531,江门市,圭峰西,,26,13,32,13,20,81,,116,107,13,11,/,/,/,/
2026-02-14T2100,1386A,113.0826,22.5947,江门市,东湖,,26,25,34,16,22,81,,115,106,10,11,6,6,0.5,0.5
2026-02-14T2100,3311A,113.1077,22.5647,江门市,江海富民,,26,21,42,9,18,83,,122,113,9,11,/,/,0.5,0.5
2026-02-14T2100,3449A,113.0496,22.4669,江门市,新会银湖,,25,25,34,14,22,76,,113,106,14,13,7,7,0.4,0.5
2026-02-14T2100,3335A,113.3137,35.2643,焦作市,马村街道办,细颗粒物(PM2.5),107,154,116,80,57,96,,115,114,20,19,13,14,0.9,0.9
2026-02-14T2100,3336A,113.2464,35.2374,焦作市,焦作技师学院,颗粒物(PM10),92,134,112,67,55,100,,113,113,23,26,12,13,0.9,0.9
2026-02-14T2100,3477A,113.1656,35.2536,焦作市,中站许衡医院,颗粒物(PM10),81,111,87,50,48,128,,132,132,13,20,12,15,0.7,0.9
2026-02-14T2100,3981A,113.2456,35.18,焦作市,原李万街道办,细颗粒物(PM2.5),127,165,135,96,63,102,,126,124,21,19,39,19,1.3,0.9
2026-02-14T2100,4264A,113.234,35.219,焦作市,新安路1731号,细颗粒物(PM2.5),104,142,114,78,59,105,,126,124,26,27,17,15,1.0,1
2026-02-14T2100,4295A,113.2722,35.2121,焦作市,人民路3066号,细颗粒物(PM2.5),124,152,106,94,60,105,,123,122,32,29,14,13,0.9,0.9
2026-02-14T2100,1708A,116.3701,23.5345,揭阳市,新兴,,30,30,44,13,28,63,,88,77,10,15,6,7,0.6,0.8
2026-02-14T2100,1709A,116.3261,23.5442,揭阳市,西马,颗粒物(PM10),60,70,51,16,29,58,,91,80,8,10,4,5,0.6,0.8
2026-02-14T2100,1710A,116.361,23.5627,揭阳市,东兴,,22,22,41,11,23,64,,91,80,7,12,7,7,/,/
2026-02-14T2100,1711A,116.4151,23.5295,揭阳市,渔湖,,36,36,49,12,27,74,,103,90,9,13,4,5,/,/
2026-02-14T2100,3320A,116.4028,23.5699,揭阳市,曲溪,,35,35,40,12,23,71,,106,92,4,8,3,2,0.8,0.7
2026-02-14T2100,1944A,102.1691,38.5166,金昌市,天庆家园,颗粒物(PM10),84,117,99,26,22,82,,88,86,7,7,8,5,0.6,0.5
2026-02-14T2100,4022A,102.1648,38.5369,金昌市,金川区人防中心,颗粒物(PM10),81,111,105,28,25,76,,86,84,10,6,7,5,0.5,0.3
2026-02-14T2100,4239A,102.193042,38.531887,金昌市,长春路96号,颗粒物(PM10),87,124,87,30,23,0,,10,,6,4,8,6,0.4,0.4
2026-02-14T2100,1262A,119.6478,29.0773,金华市,十五中,,42,38,67,29,50,30,,69,65,19,14,2,2,1.1,1
2026-02-14T2100,1263A,119.6859,29.1032,金华市,监测站,,36,36,64,24,45,33,,58,56,22,22,4,3,0.9,1
2026-02-14T2100,3659A,119.656,29.1132,金华市,气象局,,27,27,60,18,43,42,,63,62,20,23,4,3,0.9,1
2026-02-14T2100,1767A,121.1114,41.0879,锦州市,南山,颗粒物(PM10),60,69,103,14,80,68,,88,80,29,31,10,11,0.3,0.7
2026-02-14T2100,1768A,121.060361,40.842794,锦州市,开发区,颗粒物(PM10),62,73,94,19,80,61,,98,87,19,21,8,11,0.6,1
2026-02-14T2100,1769A,121.1836,41.1118,锦州市,百股街道,颗粒物(PM10),75,100,113,45,93,54,,95,78,26,22,11,11,0.9,1
2026-02-14T2100,1770A,121.1176,41.1224,锦州市,天安街道,颗粒物(PM10),61,72,109,15,84,70,,93,81,13,21,6,7,0.5,1
2026-02-14T2100,1771A,121.1303,41.1385,锦州市,北湖公园,颗粒物(PM10),57,63,107,18,90,56,,88,63,14,22,10,12,0.6,0.9
2026-02-14T2100,2160A,112.8496,35.5051,晋城市,自来水公司,细颗粒物(PM2.5),160,182,104,122,48,44,,95,87,43,25,13,14,0.8,1.1
2026-02-14T2100,2162A,112.8509,35.4886,晋城市,市环保局,颗粒物(PM10),80,109,95,57,48,18,,105,90,70,34,6,11,1.4,1
2026-02-14T2100,3620A,112.8258,35.4804,晋城市,泽州一中,细颗粒物(PM2.5),72,67,102,52,42,93,,107,106,17,17,7,8,0.7,1
2026-02-14T2100,4078A,112.8246,35.5152,晋城市,前书院路,颗粒物(PM10),61,72,98,40,34,71,,96,92,16,19,10,12,0.5,1
2026-02-14T2100,4079A,112.8864,35.4773,晋城市,祥云街666号,细颗粒物(PM2.5),70,71,102,51,50,106,,110,110,9,21,11,19,0.3,1.1
2026-02-14T2100,2174A,112.6992,37.6984,晋中市,榆次区政府,颗粒物(PM10),81,112,116,59,57,88,,106,104,22,31,14,20,0.5,0.8
2026-02-14T2100,2865A,112.7195,37.683,晋中市,榆次三中,颗粒物(PM10),84,117,115,50,48,105,,115,113,17,27,14,19,0.5,0.8
2026-02-14T2100,4080A,112.7375,37.7215,晋中市,广安街188号,细颗粒物(PM2.5),80,108,122,59,54,97,,111,109,26,34,18,28,0.4,0.8
2026-02-14T2100,4200A,112.7478,37.6954,晋中市,迎宾街26号,颗粒物(PM10),87,124,109,60,53,105,,114,113,26,26,15,20,0.6,0.8
2026-02-14T2100,2439A,112.2012,31.048,荆门市,竹园小学,细颗粒物(PM2.5),152,158,115,116,83,66,,99,99,35,21,7,2,1.6,1.7
2026-02-14T2100,2440A,112.1968,30.9892,荆门市,掇刀,细颗粒物(PM2.5),134,152,112,102,88,61,,103,102,27,16,13,6,1.2,1.1
2026-02-14T2100,3012A,112.1849,31.0361,荆门市,西山林语,细颗粒物(PM2.5),117,141,103,88,75,59,,101,98,23,17,5,4,1.0,1
2026-02-14T2100,3547A,112.1631,31.0134,荆门市,龙泉中学南校,细颗粒物(PM2.5),160,157,111,122,79,80,,107,107,24,17,10,6,1.4,1.2
2026-02-14T2100,4124A,112.2213,31.0654,荆门市,新台西路6号,细颗粒物(PM2.5),166,138,110,126,88,66,,96,96,42,23,14,10,1.0,1.1
2026-02-14T2100,1844A,112.2493,30.3198,荆州市,市图书馆,细颗粒物(PM2.5),90,77,68,67,59,59,,87,87,32,19,10,7,1.2,1.2
2026-02-14T2100,1845A,112.2009,30.3543,荆州市,市委党校,细颗粒物(PM2.5),82,88,79,60,64,48,,77,77,37,25,9,7,1.4,1.4
2026-02-14T2100,3194A,112.2749,30.3124,荆州市,管委会,细颗粒物(PM2.5),93,77,66,69,60,59,,83,82,27,19,13,12,1.1,1.1
2026-02-14T2100,4268A,112.1722,30.3366,荆州市,学苑路85号,细颗粒物(PM2.5),72,70,76,52,61,81,,90,90,15,14,7,5,0.5,0.7
2026-02-14T2100,2343A,117.2114,29.2931,景德镇市,老干部活动中心,细颗粒物(PM2.5),60,56,41,43,34,14,,45,39,21,15,3,4,1.1,1
2026-02-14T2100,2344A,117.1893,29.2789,景德镇市,兽医站,细颗粒物(PM2.5),59,59,46,42,36,19,,47,45,23,19,5,4,1.0,0.8
2026-02-14T2100,2346A,117.246,29.2958,景德镇市,陶研所,,48,,34,33,31,21,,43,42,13,12,3,3,0.9,0.9
2026-02-14T2100,4289A,117.154766,29.256967,景德镇市,青少年活动中心,颗粒物(PM10),53,56,42,28,35,11,,48,41,24,16,4,5,/,/
2026-02-14T2100,1803A,115.9873,29.6816,九江市,十里,细颗粒物(PM2.5),54,49,44,38,33,39,,57,56,17,19,8,7,1.0,1
2026-02-14T2100,1804A,115.9583,29.7047,九江市,茅山头,,46,45,34,32,28,41,,68,66,16,13,6,6,0.7,0.6
2026-02-14T2100,1805A,115.9877,29.7295,九江市,西园,,49,49,41,25,27,43,,65,62,38,27,4,4,0.8,0.7
2026-02-14T2100,1808A,115.9112,29.6038,九江市,综合工业园,"颗粒物(PM10),细颗粒物(PM2.5)",53,56,28,37,24,47,,69,68,21,14,6,5,0.8,0.7
2026-02-14T2100,3190A,116.0254,29.6995,九江市,外国语学校,,33,,30,23,30,51,,56,56,12,15,5,5,0.6,0.7
2026-02-14T2100,4253A,116.010205,29.659402,九江市,莲花大道8号,,33,33,38,18,24,27,,54,52,17,12,4,4,0.6,0.6
2026-02-14T2100,4240A,98.495752,39.733935,酒泉市,玉门东路5号,颗粒物(PM10),87,124,79,28,27,68,,80,77,7,7,10,10,0.3,0.4
2026-02-14T2100,4241A,98.5099,39.7506,酒泉市,北大街108号,颗粒物(PM10),82,114,77,40,30,63,,78,74,8,8,11,10,0.4,0.5
2026-02-14T2100,2698A,76.0071,39.466,喀什地区,巡警大队,颗粒物(PM10),210,357,388,111,118,59,,80,80,31,26,5,6,0.7,0.9
2026-02-14T2100,2699A,75.9756,39.4693,喀什地区,吾办,颗粒物(PM10),194,338,359,113,118,62,,79,79,29,32,3,7,0.6,0.9
2026-02-14T2100,4027A,75.9485,39.4688,喀什地区,老干局,颗粒物(PM10),203,352,397,101,121,68,,78,78,19,25,4,6,0.6,0.9
2026-02-14T2100,1824A,114.3389,34.778,开封市,肿瘤医院,细颗粒物(PM2.5),133,138,154,101,94,77,,125,118,36,29,9,10,1.3,1.1
2026-02-14T2100,1826A,114.2884,34.7966,开封市,世纪星幼儿园,细颗粒物(PM2.5),112,107,140,84,89,72,,120,114,38,29,10,11,1.1,1
2026-02-14T2100,3147A,114.3434,34.8101,开封市,龙亭公园,细颗粒物(PM2.5),149,118,149,114,92,72,,124,115,43,34,12,11,1.2,0.9
2026-02-14T2100,3210A,114.3645,34.7955,开封市,汴京公园,细颗粒物(PM2.5),120,141,164,91,95,73,,124,115,40,36,7,7,1.1,1
2026-02-14T2100,3473A,114.2485,34.8306,开封市,技师学院,细颗粒物(PM2.5),92,88,130,68,80,90,,126,122,24,23,9,11,1.0,0.9
2026-02-14T2100,3592A,114.4518,34.7503,开封市,祥符区生态环境局,细颗粒物(PM2.5),139,170,166,106,100,87,,126,120,25,26,8,7,0.9,0.8
2026-02-14T2100,1951A,84.886,45.6029,克拉玛依市,长征新村,,25,,12,16,9,77,,81,81,12,6,5,4,0.4,0.4
2026-02-14T2100,1952A,84.8894,45.5827,克拉玛依市,南林小区,,25,12,13,3,2,78,,83,83,9,5,1,1,0.5,0.4
2026-02-14T2100,1954A,84.896,44.3328,克拉玛依市,独山子区,细颗粒物(PM2.5),147,138,111,112,81,78,,80,80,31,27,3,3,0.9,0.7
2026-02-14T2100,1955A,85.6888,46.0909,克拉玛依市,乌尔禾区商贸楼,,30,30,20,15,10,73,,87,77,8,6,8,7,0.5,0.4
2026-02-14T2100,3612A,85.1045,45.6895,克拉玛依市,白碱滩区新站,,25,15,14,8,3,80,,80,80,14,14,8,9,0.2,0.4
2026-02-14T2100,2697A,76.1457,39.7143,克孜勒苏柯尔克孜自治州,市人民政府,颗粒物(PM10),229,370,387,100,97,61,,83,83,24,16,4,4,0.4,0.4
2026-02-14T2100,3665A,76.1654,39.7157,克孜勒苏柯尔克孜自治州,克州文化中心,颗粒物(PM10),213,359,378,104,105,72,,82,82,11,14,5,5,0.5,0.6
2026-02-14T2100,1450A,102.8203,24.889,昆明市,呈贡新区,,42,39,28,29,19,98,,101,100,10,15,4,3,0.2,0.3
2026-02-14T2100,1452A,102.7253,25.0904,昆明市,龙泉镇,,38,38,28,24,17,95,,101,100,8,16,3,4,0.4,0.4
2026-02-14T2100,1453A,102.7267,25.0378,昆明市,东风东路,,35,31,33,23,23,111,,105,104,9,22,5,9,0.5,0.6
2026-02-14T2100,1454A,102.6744,25.0671,昆明市,金鼎山,,35,35,32,21,18,93,,100,100,10,17,4,5,0.4,0.5
2026-02-14T2100,1455A,102.6643,25.0401,昆明市,碧鸡广场,,35,31,28,24,16,95,,104,102,12,16,5,8,0.4,0.4
2026-02-14T2100,3179A,102.7491,25.012,昆明市,官渡区博物馆,,31,22,38,20,24,99,,108,106,13,31,4,5,0.4,0.6
2026-02-14T2100,3375A,102.8016,24.8336,昆明市,青年创业园,,43,32,26,30,20,104,,106,105,9,12,7,8,0.5,0.4
2026-02-14T2100,3550A,102.8,24.9787,昆明市,昆明学院,,34,33,36,20,20,107,,112,111,6,15,5,6,0.4,0.4
2026-02-14T2100,3551A,102.5969,24.6738,昆明市,晋宁区生态环境分局,细颗粒物(PM2.5),53,50,42,37,32,115,,111,111,7,14,2,1,0.6,0.5
2026-02-14T2100,3552A,102.6673,24.9861,昆明市,云天化总部,,39,29,29,27,15,106,,107,106,9,17,6,9,0.3,0.4
2026-02-14T2100,1456A,91.132,29.6515,拉萨市,八廓街,,24,23,20,13,12,74,,91,89,19,19,9,8,0.7,0.7
2026-02-14T2100,1457A,91.1221,29.6748,拉萨市,市环保局,,25,25,33,6,20,68,,85,82,22,36,8,8,0.5,0.8
2026-02-14T2100,1458A,91.0874,29.6476,拉萨市,区监测站,,24,11,14,11,8,75,,88,87,20,29,4,4,0.7,0.9
2026-02-14T2100,1459A,91.1774,29.6541,拉萨市,西藏大学,,25,15,18,6,10,79,,88,88,14,20,4,4,0.4,0.6
2026-02-14T2100,1460A,90.9798,29.6586,拉萨市,区辐射站,,25,15,21,7,12,80,,92,91,13,19,3,4,0.5,0.5
2026-02-14T2100,1461A,91.0831,29.6292,拉萨市,拉萨火车站,,29,12,11,3,6,90,,90,90,2,10,4,4,0.2,0.3
2026-02-14T2100,2520A,109.2203,23.7252,来宾市,来宾技工学校,细颗粒物(PM2.5),113,99,58,85,40,26,,81,77,34,14,7,7,1.6,1.1
2026-02-14T2100,3535A,109.1781,23.7293,来宾市,兴宾区政府,细颗粒物(PM2.5),67,53,52,48,33,74,,94,94,18,15,6,6,1.1,1
2026-02-14T2100,4002A,109.2312,23.7428,来宾市,中南小学,细颗粒物(PM2.5),144,141,59,110,42,10,,85,74,53,19,7,6,2.5,1.2
2026-02-14T2100,1479A,103.8309,36.0467,兰州市,铁路设计院,,,,,,,,,,,,,,,,
2026-02-14T2100,3241A,103.7439,36.0841,兰州市,百合公园,颗粒物(PM10),87,123,104,29,47,79,,84,84,6,46,2,12,0.3,1.2
2026-02-14T2100,3242A,103.9613,35.9985,兰州市,和平,颗粒物(PM10),100,149,92,30,30,83,,90,90,6,22,12,15,0.4,0.7
2026-02-14T2100,4236A,103.629272,36.093822,兰州市,庄浪东路808号,颗粒物(PM10),92,134,106,32,44,79,,88,88,13,47,9,21,0.6,1
2026-02-14T2100,4237A,103.7251,36.104344,兰州市,安宁西路88号,颗粒物(PM10),101,151,115,39,40,91,,98,98,3,41,5,16,0.3,0.8
2026-02-14T2100,4238A,103.846982,36.067567,兰州市,北滨河东路1号,颗粒物(PM10),93,135,98,38,42,86,,96,96,15,47,5,11,0.4,1.2
2026-02-14T2100,1067A,116.6712,39.5109,廊坊市,药材公司,颗粒物(PM10),58,66,162,8,108,87,,88,87,2,25,3,5,0.2,0.8
2026-02-14T2100,1068A,116.7215,39.5592,廊坊市,开发区,颗粒物(PM10),53,55,159,7,102,87,,91,88,5,34,3,4,0.2,0.8
2026-02-14T2100,1070A,116.7246,39.5273,廊坊市,北华航天学院,,46,46,164,3,108,88,,91,88,2,29,3,7,0.2,0.9
2026-02-14T2100,2919A,116.7022,39.5454,廊坊市,河北工业大学,颗粒物(PM10),51,52,172,7,100,86,,89,87,5,31,3,5,0.2,0.8
2026-02-14T2100,2536A,103.7629,29.5844,乐山市,牛耳桥,细颗粒物(PM2.5),98,107,88,73,63,6,,101,86,85,30,6,6,1.5,0.9
2026-02-14T2100,2537A,103.7501,29.6002,乐山市,市第三水厂,细颗粒物(PM2.5),99,119,90,74,59,12,,105,94,92,40,4,4,1.7,1.1
2026-02-14T2100,2538A,103.7571,29.5664,乐山市,市监测站,细颗粒物(PM2.5),80,83,81,59,58,100,,106,106,14,26,8,8,0.8,1
2026-02-14T2100,3361A,103.7313,29.563,乐山市,理工大学,细颗粒物(PM2.5),77,89,80,56,52,82,,106,106,19,24,4,4,0.8,1
2026-02-14T2100,2599A,100.2497,26.8802,丽江市,丽江古城,,28,25,25,15,12,88,,94,93,10,9,6,6,0.4,0.4
2026-02-14T2100,2600A,100.2203,26.8906,丽江市,市中心,,30,12,16,12,13,93,,100,98,13,11,5,6,0.4,0.4
2026-02-14T2100,1267A,119.9141,28.4513,丽水市,监测站大楼,,50,47,44,35,35,3,,50,34,30,20,7,6,1.7,1
2026-02-14T2100,1268A,119.93,28.4589,丽水市,莲都小学,,47,47,42,30,30,7,,56,43,35,19,/,/,/,/
2026-02-14T2100,1269A,119.8794,28.4232,丽水市,余庄前,,38,32,34,26,28,4,,46,33,7,9,4,4,0.7,0.7
2026-02-14T2100,1173A,119.1759,34.5885,连云港市,市环境监测站,细颗粒物(PM2.5),110,112,117,83,81,,,114,111,32,24,10,10,0.7,0.6
2026-02-14T2100,3000A,119.3577,34.6971,连云港市,德源药业,细颗粒物(PM2.5),85,114,121,63,74,78,,113,103,31,25,7,7,0.7,0.8
2026-02-14T2100,3007A,119.178,34.8442,连云港市,新城一中,细颗粒物(PM2.5),90,112,131,67,87,78,,107,99,47,38,10,10,0.9,0.9
2026-02-14T2100,3008A,119.3607,34.7519,连云港市,胡沟管理处,细颗粒物(PM2.5),77,95,126,56,78,107,,92,83,24,37,12,14,0.5,0.7
2026-02-14T2100,3009A,119.1478,34.5913,连云港市,矿山设计院,细颗粒物(PM2.5),104,132,124,78,74,75,,112,100,49,27,11,9,1.2,1
2026-02-14T2100,3434A,119.2414,34.6539,连云港市,工贸学校,细颗粒物(PM2.5),98,123,110,73,66,112,,119,119,21,16,15,13,0.9,0.8
2026-02-14T2100,3664A,119.4171,34.734,连云港市,连云街道,颗粒物(PM10),81,111,149,55,85,128,,90,90,18,50,7,12,0.7,0.9
2026-02-14T2100,2573A,102.2629,27.8981,凉山彝族自治州,西昌市政府,,30,26,26,17,22,95,,102,102,10,8,18,9,0.9,0.7
2026-02-14T2100,2574A,102.2686,27.885,凉山彝族自治州,凉山州政府,,27,24,25,13,18,86,,90,90,8,9,20,11,0.7,0.7
2026-02-14T2100,4229A,102.2342,27.8859,凉山彝族自治州,凯乐南路30号,,31,25,32,10,16,98,,98,98,7,15,13,11,0.5,0.6
2026-02-14T2100,2212A,123.1978,41.2036,辽阳市,宏伟区,颗粒物(PM10),84,117,99,17,65,53,,123,81,18,13,9,8,0.7,1
2026-02-14T2100,2213A,123.1684,41.2497,辽阳市,新华园,颗粒物(PM10),91,132,106,22,67,53,,122,80,26,16,11,8,0.4,0.7
2026-02-14T2100,2214A,123.2355,41.2663,辽阳市,滨河路,颗粒物(PM10),86,121,98,23,64,47,,114,78,30,14,16,12,0.6,0.9
2026-02-14T2100,4083A,123.153,41.2874,辽阳市,铁西路150号,颗粒物(PM10),88,125,102,37,66,50,,99,72,20,14,11,9,0.7,0.9
2026-02-14T2100,2227A,125.1359,42.8845,辽源市,环保局,颗粒物(PM10),91,132,146,11,56,75,,115,80,10,21,5,7,0.6,1.1
2026-02-14T2100,4085A,125.0998,42.9134,辽源市,安宁大街333号,颗粒物(PM10),72,93,115,7,59,72,,112,76,8,17,5,9,0.4,0.7
2026-02-14T2100,1625A,115.9789,36.4372,聊城市,区政府,细颗粒物(PM2.5),134,173,156,102,95,101,,129,127,27,19,18,18,1.2,1
2026-02-14T2100,3200A,115.9772,36.4986,聊城市,监控中心,细颗粒物(PM2.5),155,205,161,118,96,115,,153,150,34,24,16,15,1.0,0.8
2026-02-14T2100,3513A,116.0443,36.436,聊城市,九州社区,细颗粒物(PM2.5),134,174,156,102,97,115,,147,145,21,15,10,7,0.9,0.9
2026-02-14T2100,4018A,116.0564,36.4609,聊城市,星美广场,细颗粒物(PM2.5),123,192,164,93,87,101,,134,131,32,19,12,8,1.4,1.1
2026-02-14T2100,4113A,116.0091,36.4495,聊城市,利民路,细颗粒物(PM2.5),134,181,150,102,92,112,,146,144,33,22,14,13,1.3,1.1
2026-02-14T2100,2632A,94.3683,29.6373,林芝市,林芝监测站,,33,,10,23,12,89,,95,95,2,2,4,5,0.5,0.4
2026-02-14T2100,2633A,94.3616,29.6634,林芝市,林芝人民医院,,29,21,16,20,12,92,,94,94,2,2,6,5,0.3,0.2
2026-02-14T2100,2603A,100.0779,23.8981,临沧市,市环保局,细颗粒物(PM2.5),75,,35,55,30,92,,123,120,14,7,6,5,0.8,0.6
2026-02-14T2100,2604A,100.0894,23.882,临沧市,市气象局,细颗粒物(PM2.5),69,67,44,50,32,91,,118,116,15,9,5,5,0.7,0.6
2026-02-14T2100,1733A,111.5552,36.0791,临汾市,临钢医院,颗粒物(PM10),107,163,142,35,75,95,,134,129,23,27,7,9,0.7,1.3
2026-02-14T2100,1734A,111.4984,36.0734,临汾市,技工学校,颗粒物(PM10),108,166,149,43,85,81,,127,120,34,34,11,15,0.2,0.7
2026-02-14T2100,1736A,111.5017,36.0857,临汾市,市委,颗粒物(PM10),121,191,152,33,78,91,,139,132,26,36,8,11,0.7,1.2
2026-02-14T2100,3018A,111.5048,36.1015,临汾市,唐尧大酒店,颗粒物(PM10),102,154,153,29,78,97,,126,121,29,42,8,12,0.6,1.2
2026-02-14T2100,4244A,111.4879,36.053,临汾市,启星学校,颗粒物(PM10),102,154,143,72,84,80,,148,141,37,42,10,11,0.9,1.4
2026-02-14T2100,4271A,103.2464,35.6123,临夏回族自治州,滨河东路1号,颗粒物(PM10),107,163,111,34,50,61,,83,81,9,15,9,13,0.4,1.2
2026-02-14T2100,4310A,103.207136,35.599807,临夏回族自治州,新华街21号,颗粒物(PM10),111,171,112,29,52,67,,76,75,5,21,12,14,0.4,1
2026-02-14T2100,1618A,118.3429,35.0532,临沂市,沂河小区,细颗粒物(PM2.5),97,134,131,72,71,97,,123,118,31,28,18,17,0.8,0.7
2026-02-14T2100,1619A,118.2962,35.0568,临沂市,鲁南制药厂,"颗粒物(PM10),细颗粒物(PM2.5)",90,129,129,67,69,96,,119,116,30,30,23,20,0.7,0.7
2026-02-14T2100,1620A,118.2793,34.9976,临沂市,新光毛纺厂,细颗粒物(PM2.5),107,124,126,80,78,104,,126,124,33,30,21,19,0.9,0.9
2026-02-14T2100,1621A,118.3955,35.0889,临沂市,河东保险公司,细颗粒物(PM2.5),98,132,145,73,89,80,,132,121,54,58,16,15,0.8,1
2026-02-14T2100,3370A,118.3563,35.0215,临沂市,十里堡居委,细颗粒物(PM2.5),100,127,126,75,74,108,,129,124,32,32,20,22,0.9,0.9
2026-02-14T2100,3496A,118.359,35.1067,临沂市,南坊新区,颗粒物(PM10),89,127,127,61,71,101,,130,127,33,35,15,15,0.7,0.7
2026-02-14T2100,3860A,118.3915,35.0297,临沂市,皇山花园小区,细颗粒物(PM2.5),100,127,125,75,75,112,,133,131,27,34,21,18,0.8,0.8
2026-02-14T2100,1870A,109.4854,24.3898,柳州市,柳东小学,细颗粒物(PM2.5),53,43,29,37,20,74,,85,85,10,8,4,5,1.1,0.9
2026-02-14T2100,1871A,109.4109,24.3304,柳州市,环保监测站,细颗粒物(PM2.5),94,88,40,70,28,16,,67,65,55,23,5,5,1.8,1.2
2026-02-14T2100,1872A,109.3886,24.3408,柳州市,河西水厂,细颗粒物(PM2.5),85,82,50,63,29,23,,76,75,40,17,6,6,1.1,1
2026-02-14T2100,1873A,109.4263,24.2951,柳州市,市四中,细颗粒物(PM2.5),103,109,54,77,36,11,,61,59,60,23,8,7,1.7,1.3
2026-02-14T2100,1874A,109.396,24.3658,柳州市,市九中,,,,40,44,23,,,77,77,50,19,7,10,1.5,1.2
2026-02-14T2100,1875A,109.4912,24.3164,柳州市,古亭山,细颗粒物(PM2.5),53,38,36,37,26,35,,75,72,12,14,6,6,0.9,1
2026-02-14T2100,3402A,109.5422,24.3994,柳州市,市二中,,49,34,31,34,20,48,,77,77,16,12,5,5,0.9,0.7
2026-02-14T2100,2307A,116.5078,31.7369,六安市,监测大楼,细颗粒物(PM2.5),68,61,65,49,47,82,,100,98,12,16,4,4,0.5,0.5
2026-02-14T2100,2308A,116.4738,31.7642,六安市,皖西学院,细颗粒物(PM2.5),64,71,77,46,47,92,,112,111,12,17,6,5,0.6,0.6
2026-02-14T2100,2309A,116.4997,31.7904,六安市,朝阳厂,细颗粒物(PM2.5),65,64,70,47,49,84,,103,102,16,23,6,6,0.6,0.6
2026-02-14T2100,2310A,116.5566,31.7885,六安市,开发区,细颗粒物(PM2.5),69,57,69,50,49,84,,112,109,11,14,7,5,0.7,0.7
2026-02-14T2100,2577A,104.8293,26.592,六盘水市,黄土坡,,40,38,52,28,41,87,,103,102,12,19,11,10,0.7,1.1
2026-02-14T2100,2579A,104.8481,26.5898,六盘水市,民中,颗粒物(PM10),52,53,64,30,50,80,,100,99,14,25,7,10,0.8,1.2
2026-02-14T2100,2580A,104.9541,26.5506,六盘水市,双水,,48,48,48,32,35,86,,99,98,10,14,7,6,0.7,0.7
2026-02-14T2100,4151A,104.8899,26.5685,六盘水市,钟山大道中段564号,颗粒物(PM10),51,52,74,27,43,82,,97,97,6,15,8,9,0.6,1
2026-02-14T2100,2336A,117.022,25.1031,龙岩市,龙岩市监测站,,43,34,28,30,20,48,,101,84,23,14,8,6,0.9,0.7
2026-02-14T2100,2337A,117.0257,25.0662,龙岩市,闽西职业技术学院,,22,20,28,12,17,70,,102,91,7,6,4,5,0.4,0.5
2026-02-14T2100,2338A,117.0195,25.0306,龙岩市,龙岩学院,,23,16,24,12,15,72,,104,93,7,6,4,4,/,/
2026-02-14T2100,2885A,104.9344,33.3827,陇南市,滨江中学,细颗粒物(PM2.5),83,93,74,61,50,94,,95,95,12,26,6,12,0.8,1.2
2026-02-14T2100,3247A,104.9551,33.3709,陇南市,市总工会,"颗粒物(PM10),细颗粒物(PM2.5)",65,80,62,47,33,96,,94,94,11,21,3,7,0.8,0.9
2026-02-14T2100,2488A,111.9984,27.7346,娄底市,市监测站,颗粒物(PM10),56,62,82,36,58,43,,64,64,32,22,4,6,0.8,1.3
2026-02-14T2100,2491A,111.9888,27.7035,娄底市,市政府,颗粒物(PM10),52,54,54,34,39,43,,58,58,26,10,3,3,0.5,0.7
2026-02-14T2100,4127A,111.9812,27.7591,娄底市,涟钢职大,细颗粒物(PM2.5),74,66,70,54,50,45,,72,72,21,17,2,5,1.1,1.8
2026-02-14T2100,4128A,112.0303,27.7457,娄底市,娄底体校,"颗粒物(PM10),细颗粒物(PM2.5)",58,65,82,41,58,22,,45,45,14,16,3,3,1.0,1.4
2026-02-14T2100,1894A,105.4427,28.9063,泸州市,小市上码头,细颗粒物(PM2.5),120,124,87,91,67,62,,126,121,58,20,8,7,1.4,1.1
2026-02-14T2100,1895A,105.4241,28.8573,泸州市,兰田宪桥,细颗粒物(PM2.5),114,129,88,86,61,96,,115,115,22,22,11,10,1.2,1
2026-02-14T2100,1896A,105.4378,28.8833,泸州市,市环监站,细颗粒物(PM2.5),104,120,96,78,66,101,,120,120,26,19,9,9,0.9,0.8
2026-02-14T2100,4272A,105.3689,28.7783,泸州市,纳溪中医医院,细颗粒物(PM2.5),138,119,89,105,68,47,,112,108,40,16,10,9,1.3,0.7
2026-02-14T2100,2183A,111.1447,37.5212,吕梁市,环保局,颗粒物(PM10),122,194,102,30,29,80,,93,93,8,28,4,9,0.3,0.5
2026-02-14T2100,2185A,111.1285,37.5338,吕梁市,自来水公司,颗粒物(PM10),148,246,133,19,36,78,,92,91,9,32,4,15,0.2,0.4
2026-02-14T2100,2867A,111.1225,37.5093,吕梁市,马茂庄小学,颗粒物(PM10),139,227,126,32,38,76,,88,88,12,35,4,16,0.1,0.3
2026-02-14T2100,1812A,112.3934,34.6517,洛阳市,市委党校,细颗粒物(PM2.5),112,128,108,84,64,26,,106,98,83,43,11,14,1.6,1.1
2026-02-14T2100,1815A,112.494,34.6883,洛阳市,河南林校,细颗粒物(PM2.5),99,126,115,74,59,64,,110,108,46,41,17,18,0.9,0.8
2026-02-14T2100,1816A,112.3843,34.623,洛阳市,开发区管委会,颗粒物(PM10),83,115,119,53,48,90,,113,112,31,25,15,16,0.7,0.7
2026-02-14T2100,1817A,112.4263,34.6249,洛阳市,市委新办公区,细颗粒物(PM2.5),115,143,109,87,52,21,,106,92,89,32,13,14,1.3,0.7
2026-02-14T2100,3340A,112.6005,34.6323,洛阳市,伊滨,细颗粒物(PM2.5),83,111,120,61,56,68,,114,110,35,29,13,13,0.8,0.7
2026-02-14T2100,3341A,112.495,34.6338,洛阳市,中移产业园,细颗粒物(PM2.5),90,104,95,67,52,70,,111,109,45,33,15,14,1.1,0.9
2026-02-14T2100,3593A,112.5736,34.8993,洛阳市,吉利监测站,细颗粒物(PM2.5),89,112,92,66,41,61,,127,119,59,23,14,12,1.0,0.7
2026-02-14T2100,3635A,112.3678,34.6623,洛阳市,河科大西苑校区,细颗粒物(PM2.5),124,145,121,94,64,32,,116,107,86,40,16,23,1.6,1.2
2026-02-14T2100,3636A,112.4387,34.678,洛阳市,英才小学,细颗粒物(PM2.5),115,129,138,87,73,19,,106,97,106,59,16,22,1.5,1.3
2026-02-14T2100,4214A,112.460027,34.694929,洛阳市,春都路1号院,细颗粒物(PM2.5),92,120,132,68,64,80,,104,104,35,44,13,17,0.8,0.9
2026-02-14T2100,2399A,114.051,33.5721,漯河市,三五一五工厂,细颗粒物(PM2.5),87,106,123,64,72,67,,107,98,32,24,6,6,1.0,1
2026-02-14T2100,2400A,114.0055,33.5698,漯河市,漯河大学,细颗粒物(PM2.5),72,76,102,52,67,84,,107,103,27,26,7,8,0.8,0.8
2026-02-14T2100,2401A,114.0134,33.5826,漯河市,市水利局,细颗粒物(PM2.5),72,90,104,52,68,80,,112,106,28,20,7,7,0.8,0.8
2026-02-14T2100,2402A,114.0261,33.5697,漯河市,市广电局,细颗粒物(PM2.5),84,93,101,62,69,67,,103,96,30,20,7,8,0.7,0.8
2026-02-14T2100,3478A,113.9691,33.568,漯河市,市图书馆,细颗粒物(PM2.5),74,88,113,54,62,79,,99,95,18,14,8,8,0.9,0.9
2026-02-14T2100,4250A,114.089259,33.588274,漯河市,韶山路11号,细颗粒物(PM2.5),87,106,116,64,64,72,,110,104,29,21,8,8,0.7,0.7
2026-02-14T2100,1798A,118.5084,31.6838,马鞍山市,湖东路四小,细颗粒物(PM2.5),94,121,82,70,55,50,,98,91,48,36,7,7,0.9,0.7
2026-02-14T2100,1799A,118.5019,31.6449,马鞍山市,开发区,细颗粒物(PM2.5),78,102,78,57,50,77,,105,104,30,35,6,6,0.6,0.5
2026-02-14T2100,3633A,118.4914,31.681,马鞍山市,雨山,颗粒物(PM10),80,109,81,58,48,62,,100,96,45,34,3,4,1.2,0.9
2026-02-14T2100,4191A,118.527362,31.722269,马鞍山市,慈湖高新区,颗粒物(PM10),72,94,84,51,51,95,,104,104,20,31,7,8,0.8,0.7
2026-02-14T2100,1686A,111.0285,21.469,茂名市,电白南海,,36,36,46,18,26,74,,89,84,12,10,4,6,0.9,0.8
2026-02-14T2100,1687A,110.9294,21.6533,茂名市,茂石化七小,颗粒物(PM10),51,51,47,18,24,62,,92,86,11,9,5,8,0.5,0.4
2026-02-14T2100,1688A,110.9108,21.6688,茂名市,健康路,,29,29,39,13,22,77,,107,96,8,9,4,7,0.7,0.7
2026-02-14T2100,1689A,110.8592,21.6826,茂名市,高岭,,,46,52,,27,,,103,98,10,9,2,5,/,/
2026-02-14T2100,3450A,111.0101,21.5165,茂名市,电白水东,,27,27,36,18,21,83,,94,89,20,19,3,4,/,/
2026-02-14T2100,2540A,103.8414,30.0871,眉山市,气象局,细颗粒物(PM2.5),135,165,88,103,65,92,,123,121,25,21,7,8,1.0,0.9
2026-02-14T2100,3148A,103.829,30.0563,眉山市,区人社局,细颗粒物(PM2.5),99,126,94,74,66,74,,108,106,34,33,7,6,0.9,0.8
2026-02-14T2100,4148A,103.8836,30.0695,眉山市,眉职院,细颗粒物(PM2.5),73,90,83,53,51,77,,115,112,16,14,5,5,0.9,0.8
2026-02-14T2100,1690A,116.1248,24.3307,梅州市,梅江月梅,,30,30,31,20,24,90,,104,99,10,12,/,/,/,/
2026-02-14T2100,1691A,116.0798,24.2719,梅州市,梅县新城,,31,31,36,21,26,81,,106,93,13,17,8,7,0.6,0.7
2026-02-14T2100,3315A,116.1234,24.2994,梅州市,梅龙,,41,41,35,24,26,75,,99,91,14,15,9,8,1.0,0.9
2026-02-14T2100,1878A,104.7775,31.4741,绵阳市,富乐山,细颗粒物(PM2.5),69,72,83,50,60,104,,121,120,8,12,9,9,0.8,0.8
2026-02-14T2100,1880A,104.6698,31.4668,绵阳市,高新区自来水公司,细颗粒物(PM2.5),95,95,98,71,71,30,,111,100,59,37,8,8,1.1,1
2026-02-14T2100,3491A,104.6899,31.5324,绵阳市,西科大附属小学,细颗粒物(PM2.5),102,106,102,76,71,68,,122,116,38,28,8,9,0.8,0.8
2026-02-14T2100,3492A,104.5647,31.5343,绵阳市,安州区旅游局,细颗粒物(PM2.5),95,105,92,71,72,20,,122,108,83,32,5,6,1.7,1.1
2026-02-14T2100,4146A,104.7092,31.4972,绵阳市,科技城新区公安局,细颗粒物(PM2.5),75,86,101,55,65,68,,123,118,32,30,6,6,0.9,0.9
2026-02-14T2100,4226A,104.765114,31.453094,绵阳市,绵阳市气象局,细颗粒物(PM2.5),83,95,91,61,67,45,,112,105,58,33,13,12,1.1,0.7
2026-02-14T2100,1784A,129.61,44.561,牡丹江市,环保大楼,"颗粒物(PM10),细颗粒物(PM2.5)",72,93,112,52,96,86,,76,76,13,45,3,9,0.4,1.1
2026-02-14T2100,1787A,129.6364,44.6075,牡丹江市,机车工厂,细颗粒物(PM2.5),73,84,100,53,81,79,,64,64,15,43,9,12,0.6,1
2026-02-14T2100,1788A,129.6386,44.5462,牡丹江市,第一中学,颗粒物(PM10),74,97,79,45,70,79,,84,84,15,36,7,11,0.6,1
2026-02-14T2100,4287A,129.5992,44.5964,牡丹江市,东晓云街98号,细颗粒物(PM2.5),92,124,106,68,82,78,,58,58,18,40,8,14,0.6,1
2026-02-14T2100,2531A,105.0703,29.61,内江市,市监测站,细颗粒物(PM2.5),89,83,71,66,67,96,,132,128,30,28,9,7,0.6,0.7
2026-02-14T2100,2533A,105.0657,29.5807,内江市,内江二中,,,110,90,53,62,,,120,120,39,38,9,8,0.7,0.7
2026-02-14T2100,2534A,105.0407,29.5828,内江市,内江日报社,细颗粒物(PM2.5),72,62,72,52,62,106,,130,128,31,42,13,12,0.5,0.6
2026-02-14T2100,4147A,105.0433,29.6105,内江市,玉峰路西段888号,细颗粒物(PM2.5),85,99,76,63,64,97,,130,127,32,30,10,7,0.8,0.7
2026-02-14T2100,2628A,92.0653,31.4846,那曲市,那曲监测站,,40,39,40,28,25,78,,85,85,12,16,10,11,0.6,0.9
2026-02-14T2100,4243A,92.0515,31.4787,那曲市,那曲市委宣传部,,39,39,23,18,15,82,,90,89,1,8,4,5,0.3,0.7
2026-02-14T2100,1291A,115.8887,28.7006,南昌市,省林业公司,细颗粒物(PM2.5),83,92,23,61,28,20,,51,,44,19,5,3,1.6,1
2026-02-14T2100,1292A,115.813,28.7443,南昌市,林科所,,30,29,23,21,21,42,,54,54,12,16,6,7,1.2,1.1
2026-02-14T2100,1294A,115.8518,28.687,南昌市,建工学校,颗粒物(PM10),72,93,40,45,27,31,,50,50,41,21,6,6,1.1,0.7
2026-02-14T2100,1295A,115.8926,28.6425,南昌市,象湖,细颗粒物(PM2.5),93,105,26,69,30,9,,59,53,57,19,8,7,1.7,1.3
2026-02-14T2100,3046A,115.9084,28.6062,南昌市,机电学校,细颗粒物(PM2.5),95,119,44,71,33,5,,61,52,70,21,5,4,1.2,0.9
2026-02-14T2100,3690A,115.9718,28.7032,南昌市,外国语学校,细颗粒物(PM2.5),80,64,34,59,33,45,,65,65,23,19,7,7,1.2,1.1
2026-02-14T2100,4106A,115.7923,28.6873,南昌市,工业二路,细颗粒物(PM2.5),87,100,44,64,31,4,,51,47,58,21,4,4,1.6,1.1
2026-02-14T2100,4192A,115.931587,28.686774,南昌市,南京东路235号,细颗粒物(PM2.5),80,90,42,59,30,19,,61,55,37,18,5,4,1.1,0.8
2026-02-14T2100,1906A,106.0791,30.8022,南充市,南充市委,细颗粒物(PM2.5),87,93,78,64,57,59,,103,98,44,31,6,6,0.9,1
2026-02-14T2100,1907A,106.1038,30.8215,南充市,南充炼油厂,细颗粒物(PM2.5),77,89,90,56,62,78,,98,97,30,32,8,6,0.8,0.7
2026-02-14T2100,4227A,106.108336,30.788436,南充市,梨树横街98号,细颗粒物(PM2.5),90,98,88,67,66,87,,110,109,28,36,7,6,0.6,0.6
2026-02-14T2100,4304A,106.1172,30.843,南充市,清泉寺北路188号,细颗粒物(PM2.5),85,76,79,63,64,102,,117,117,11,15,6,5,0.7,0.7
2026-02-14T2100,4305A,106.067,30.7616,南充市,同庆路1号,细颗粒物(PM2.5),79,86,84,58,58,52,,94,91,53,38,6,6,0.9,0.7
2026-02-14T2100,1151A,118.8033,32.1085,南京市,迈皋桥,细颗粒物(PM2.5),64,76,68,46,43,53,,106,97,49,37,8,8,0.6,0.5
2026-02-14T2100,1152A,118.7487,32.057,南京市,草场门,颗粒物(PM10),63,75,74,44,43,60,,75,75,36,56,9,10,1.1,1.2
2026-02-14T2100,1154A,118.770105,32.004342,南京市,中华门,细颗粒物(PM2.5),67,70,70,48,42,92,,113,112,20,25,3,5,0.8,0.8
2026-02-14T2100,1155A,118.8059,32.0329,南京市,瑞金路,颗粒物(PM10),84,117,80,61,48,12,,103,82,111,61,3,4,0.5,2.2
2026-02-14T2100,1156A,118.7946,32.0774,南京市,玄武湖,颗粒物(PM10),68,86,71,36,36,81,,114,114,32,33,1,2,1.2,1.2
2026-02-14T2100,1157A,118.6415,32.0964,南京市,浦口,颗粒物(PM10),64,78,77,33,44,96,,112,112,20,23,5,7,0.7,0.8
2026-02-14T2100,1158A,118.730129,32.000956,南京市,奥体中心,颗粒物(PM10),66,82,79,45,43,77,,110,107,37,43,8,9,0.8,0.9
2026-02-14T2100,1159A,118.9072,32.1047,南京市,仙林大学城,颗粒物(PM10),67,83,76,42,37,71,,115,109,43,35,8,8,1.0,0.8
2026-02-14T2100,3422A,118.8443,31.919,南京市,江宁彩虹桥,"颗粒物(PM10),细颗粒物(PM2.5)",72,93,79,52,40,90,,122,119,33,42,3,4,0.8,0.8
2026-02-14T2100,3427A,118.8497,32.3599,南京市,六合雄州,颗粒物(PM10),70,89,89,42,48,49,,72,70,38,40,3,4,1.2,1.1
2026-02-14T2100,4086A,118.7641,32.0841,南京市,新模范马路66号,颗粒物(PM10),74,97,84,44,47,72,,116,114,44,46,4,4,1.4,1.2
2026-02-14T2100,4249A,118.8707617,31.34017673,南京市,汶溪路181号,颗粒物(PM10),66,81,62,43,39,71,,96,94,27,19,7,6,1.1,1
2026-02-14T2100,4312A,119.019,31.6512,南京市,中山西路1号,颗粒物(PM10),70,90,56,44,33,31,,98,91,48,25,4,4,1.4,1
2026-02-14T2100,1401A,108.3098,22.788,南宁市,二十一中,,46,39,38,32,25,74,,70,70,12,17,3,4,0.7,0.6
2026-02-14T2100,1402A,108.3135,22.8529,南宁市,北湖,细颗粒物(PM2.5),54,55,62,38,47,70,,71,70,13,26,2,2,0.7,0.9
2026-02-14T2100,1403A,108.3205,22.8222,南宁市,市监测站,颗粒物(PM10),51,52,41,30,27,79,,76,76,12,20,5,5,0.7,0.7
2026-02-14T2100,1404A,108.3828,22.8038,南宁市,大自然花园,,46,44,32,32,22,84,,84,84,9,11,5,5,0.7,0.6
2026-02-14T2100,1406A,108.2397,22.8462,南宁市,区农职院,,50,50,51,34,33,78,,83,82,13,23,4,3,0.6,0.6
2026-02-14T2100,1407A,108.3285,22.7356,南宁市,英华嘉园,颗粒物(PM10),55,59,52,33,23,78,,73,73,12,16,3,3,0.6,0.6
2026-02-14T2100,3401A,108.4829,22.762,南宁市,红星社区,颗粒物(PM10),52,53,41,31,28,89,,87,87,6,12,6,5,0.9,0.9
2026-02-14T2100,4132A,108.2927,23.1477,南宁市,起凤路9号,,46,42,42,32,31,69,,79,77,9,12,2,2,0.6,0.7
2026-02-14T2100,4221A,108.2177,22.7774,南宁市,乐贤路16号,,48,48,36,33,22,70,,77,75,15,21,1,1,0.8,0.6
2026-02-14T2100,2332A,118.1682,26.6371,南平市,南平市监测站,颗粒物(PM10),54,57,45,32,24,46,,87,80,16,15,4,5,0.9,0.7
2026-02-14T2100,2334A,118.1757,26.6276,南平市,南平七中,,32,24,35,22,25,56,,90,82,9,12,4,4,0.6,0.7
2026-02-14T2100,1168A,120.9056,31.9669,南通市,狼山街道,细颗粒物(PM2.5),88,110,96,65,62,55,,87,73,34,48,3,7,1.1,1
2026-02-14T2100,1170A,120.8635,32.0231,南通市,城中,细颗粒物(PM2.5),107,124,117,80,75,86,,102,100,26,47,6,8,1.1,0.9
2026-02-14T2100,1171A,120.9376,31.9301,南通市,星湖花园,细颗粒物(PM2.5),92,107,101,68,70,76,,89,86,31,53,5,11,1.1,1.2
2026-02-14T2100,1172A,120.8053,32.046,南通市,紫琅学院,细颗粒物(PM2.5),98,113,122,73,74,69,,110,97,31,48,5,6,1.1,0.9
2026-02-14T2100,3291A,121.0631,32.0644,南通市,通州监测站,细颗粒物(PM2.5),79,102,96,58,57,105,,128,127,24,28,5,6,1.0,0.9
2026-02-14T2100,3432A,120.9348,31.9874,南通市,环境教育馆,细颗粒物(PM2.5),92,114,95,68,60,70,,99,97,27,41,5,8,1.0,0.9
2026-02-14T2100,4091A,120.8692,31.9885,南通市,洪江路,细颗粒物(PM2.5),104,105,98,78,73,79,,86,77,33,57,6,9,1.1,1
2026-02-14T2100,2404A,112.5338,33.0086,南阳市,瓦房庄,细颗粒物(PM2.5),120,120,111,91,72,70,,102,99,32,21,7,7,1.5,1.1
2026-02-14T2100,2405A,112.5002,32.9734,南阳市,汉画馆,细颗粒物(PM2.5),175,236,128,132,89,67,,102,97,26,23,8,7,1.4,1.3
2026-02-14T2100,2406A,112.5778,33.0144,南阳市,气象站,颗粒物(PM10),80,110,124,58,67,89,,105,104,26,20,7,7,1.1,1.1
2026-02-14T2100,2407A,112.548,32.9687,南阳市,理工学院,细颗粒物(PM2.5),83,96,114,61,78,92,,104,104,19,18,7,7,1.0,1
2026-02-14T2100,4008A,112.5233,32.9921,南阳市,卧龙区政府,细颗粒物(PM2.5),89,114,133,66,76,66,,94,91,26,22,8,7,1.1,1
2026-02-14T2100,1234A,121.8352,29.9111,宁波市,区环保大楼,颗粒物(PM10),55,59,43,27,23,3,,63,36,61,40,6,8,1.1,0.7
2026-02-14T2100,1235A,121.5595,29.8208,宁波市,万里学院,细颗粒物(PM2.5),57,43,34,40,24,55,,73,71,25,13,5,4,0.9,0.8
2026-02-14T2100,1236A,121.713,29.9564,宁波市,龙赛医院,,28,28,37,18,25,23,,65,55,47,21,9,5,0.9,0.8
2026-02-14T2100,1240A,121.5855,29.8635,宁波市,太古小学,,42,42,38,27,21,49,,76,71,30,16,4,3,0.7,0.6
2026-02-14T2100,1241A,121.5239,29.8673,宁波市,市环境监测中心,,48,45,47,33,28,31,,63,58,39,15,4,3,0.9,0.8
2026-02-14T2100,2871A,121.6156,29.9015,宁波市,万里国际学校,,38,35,40,26,29,46,,71,68,28,15,5,4,0.8,0.7
2026-02-14T2100,3710A,121.5593,29.8976,宁波市,白沙活动中心,,33,33,43,23,28,44,,70,67,32,17,5,4,0.6,0.5
2026-02-14T2100,4095A,121.8962,29.7529,宁波市,中科路88号,,38,31,30,26,24,52,,62,62,21,23,6,6,0.5,0.5
2026-02-14T2100,2341A,119.5387,26.6611,宁德市,宁德市监测站,细颗粒物(PM2.5),65,57,45,47,32,74,,102,93,38,27,4,4,1.2,1.2
2026-02-14T2100,3209A,119.5231,26.6562,宁德市,宁德一中,细颗粒物(PM2.5),58,59,46,41,32,59,,105,93,22,18,4,4,1.1,1.1
2026-02-14T2100,2618A,98.859,25.8541,怒江傈僳族自治州,州监测站,,43,38,30,30,18,77,,98,93,11,8,6,6,0.3,0.3
2026-02-14T2100,2619A,98.8607,25.8168,怒江傈僳族自治州,泸水一中,细颗粒物(PM2.5),63,,29,45,23,45,,82,78,29,13,5,5,0.8,0.6
2026-02-14T2100,1888A,101.6891,26.571,攀枝花市,弄弄坪,,35,35,42,19,22,74,,97,95,19,28,14,18,0.6,1.1
2026-02-14T2100,1889A,101.577,26.5914,攀枝花市,河门口,,49,49,36,30,21,66,,105,103,19,16,48,28,0.9,1.1
2026-02-14T2100,1891A,101.7365,26.4986,攀枝花市,仁和,,42,42,32,24,21,59,,95,90,17,15,11,15,0.7,0.9
2026-02-14T2100,2835A,101.7222,26.567,攀枝花市,四十中小,,38,38,43,21,23,77,,88,86,22,38,13,16,0.8,1.1
2026-02-14T2100,1604A,122.0303,41.1489,盘锦市,开发区,颗粒物(PM10),67,84,88,16,66,64,,88,74,13,16,5,6,0.3,0.7
2026-02-14T2100,1605A,122.0486,41.0883,盘锦市,兴隆台,颗粒物(PM10),71,91,82,17,69,65,,96,81,20,19,7,7,0.4,0.7
2026-02-14T2100,1606A,121.8297,41.1026,盘锦市,新生街道,颗粒物(PM10),54,57,84,24,70,51,,98,92,23,20,7,8,0.4,0.8
2026-02-14T2100,1832A,113.3257,33.7423,平顶山市,新华旅馆,细颗粒物(PM2.5),67,80,110,48,71,86,,107,103,22,27,6,6,0.5,0.6
2026-02-14T2100,1833A,113.2917,33.737,平顶山市,规划设计院,颗粒物(PM10),69,87,132,39,72,89,,105,102,13,22,7,7,0.4,0.6
2026-02-14T2100,1834A,113.182,33.7738,平顶山市,平顶山工学院,颗粒物(PM10),68,86,117,45,66,93,,114,111,14,15,8,9,0.5,0.6
2026-02-14T2100,3594A,112.8736,33.9068,平顶山市,石龙区,颗粒物(PM10),67,84,114,45,56,97,,117,114,22,19,9,8,0.5,0.7
2026-02-14T2100,4116A,113.284,33.7139,平顶山市,姚电大道23号,颗粒物(PM10),71,91,136,49,73,87,,107,104,16,18,5,6,0.5,0.6
2026-02-14T2100,2656A,106.6633,35.5338,平凉市,聚贤嘉苑,颗粒物(PM10),79,107,91,29,31,88,,96,96,8,13,8,8,0.5,0.5
2026-02-14T2100,2657A,106.7021,35.5307,平凉市,博物馆,颗粒物(PM10),78,105,91,34,38,86,,94,94,8,17,9,10,0.5,0.8
2026-02-14T2100,2348A,113.8384,27.6436,萍乡市,中医院,细颗粒物(PM2.5),100,118,68,75,51,2,,65,52,48,23,5,6,1.8,1.8
2026-02-14T2100,2350A,113.8677,27.6438,萍乡市,市环保局,细颗粒物(PM2.5),80,71,60,59,50,11,,82,70,44,25,13,10,1.1,1.7
2026-02-14T2100,2351A,113.8663,27.6202,萍乡市,安源区政府,细颗粒物(PM2.5),65,72,59,47,48,8,,52,43,28,20,6,6,1.1,1.8
2026-02-14T2100,4107A,113.8686,27.6668,萍乡市,联洪村委会,细颗粒物(PM2.5),74,83,66,54,52,10,,65,55,35,21,2,3,1.1,1.6
2026-02-14T2100,2319A,119.0142,25.4324,莆田市,荔城区仓后路,颗粒物(PM10),57,64,57,32,34,43,,129,99,34,19,/,/,/,/
2026-02-14T2100,2320A,119.0016,25.4553,莆田市,莆田市监测站,,36,,45,25,32,62,,135,113,16,13,3,3,0.6,0.6
2026-02-14T2100,2321A,119.112,25.4561,莆田市,涵江区六中,,48,48,51,27,32,59,,135,108,23,16,/,/,0.8,0.7
2026-02-14T2100,2322A,119.1014,25.3215,莆田市,秀屿区政府,,35,35,62,18,51,79,,120,106,11,16,4,5,0.5,0.6
2026-02-14T2100,2392A,115.0312,35.7636,濮阳市,环保局,细颗粒物(PM2.5),140,140,140,107,81,104,,126,117,38,27,10,8,1.1,0.8
2026-02-14T2100,3021A,115,35.7667,濮阳市,濮水河管理处,细颗粒物(PM2.5),137,179,154,104,86,108,,135,127,25,21,11,9,0.8,0.8
2026-02-14T2100,4118A,115.0552,35.7816,濮阳市,中原东路68号,细颗粒物(PM2.5),142,201,163,108,84,101,,132,113,36,30,10,9,1.1,1
2026-02-14T2100,4216A,115.0923632,35.76857718,濮阳市,任丘路479号,细颗粒物(PM2.5),148,189,166,113,93,79,,129,116,57,33,9,8,1.3,0.8
2026-02-14T2100,2601A,100.9801,22.7634,普洱市,市环保局,颗粒物(PM10),56,61,56,24,25,79,,108,102,10,9,5,5,0.6,0.5
2026-02-14T2100,2602A,100.9763,22.8237,普洱市,普洱第二中学,颗粒物(PM10),56,61,59,32,30,78,,110,104,12,21,6,6,0.5,0.5
2026-02-14T2100,3345A,131.0413,45.7795,七台河市,中波台,,40,31,42,28,31,68,,84,74,13,13,9,8,0.3,0.3
2026-02-14T2100,3637A,131.0136,45.7688,七台河市,人民广场,细颗粒物(PM2.5),62,46,61,44,40,58,,80,70,24,21,12,10,0.6,0.7
2026-02-14T2100,3684A,130.8639,45.8144,七台河市,新建矿广场,细颗粒物(PM2.5),57,61,57,40,42,57,,80,67,13,22,9,13,0.7,0.6
2026-02-14T2100,1779A,123.9307,47.3641,齐齐哈尔市,安居小区,,28,28,56,12,43,73,,76,76,6,12,9,14,0.4,0.6
2026-02-14T2100,1780A,123.9497,47.3389,齐齐哈尔市,中心广场,,23,19,63,3,46,73,,77,74,9,14,6,8,0.4,0.7
2026-02-14T2100,1781A,123.9483,47.3229,齐齐哈尔市,农牧车辆厂,,24,22,59,14,49,74,,77,76,6,10,4,5,0.2,0.4
2026-02-14T2100,1783A,123.9442,47.2994,齐齐哈尔市,市环境监测站,,25,24,61,10,47,77,,79,79,7,14,3,5,0.4,0.6
2026-02-14T2100,3662A,123.6341,47.2079,齐齐哈尔市,富区青少年活动中心,,30,30,64,18,45,70,,82,78,7,7,5,6,0.4,0.5
2026-02-14T2100,2591A,107.9765,26.5724,黔东南苗族侗族自治州,市环境监测站,,26,19,38,18,31,66,,68,68,2,13,2,4,0.4,0.7
2026-02-14T2100,2881A,107.8909,26.531,黔东南苗族侗族自治州,凯里学院,,22,22,35,10,29,66,,70,70,10,10,7,8,0.4,0.6
2026-02-14T2100,2593A,107.5223,26.2371,黔南布依族苗族自治州,小围寨,,26,,25,18,23,65,,68,68,4,9,5,7,0.6,0.9
2026-02-14T2100,3538A,107.5175,26.2977,黔南布依族苗族自治州,沙坝,,28,22,34,19,25,56,,67,67,7,12,6,7,0.6,0.7
2026-02-14T2100,2589A,104.9022,25.0943,黔西南布依族苗族自治州,场坝街,,49,49,33,34,26,41,,62,60,10,9,5,4,0.9,0.8
2026-02-14T2100,2590A,104.8812,25.0994,黔西南布依族苗族自治州,坪东大道,细颗粒物(PM2.5),53,51,34,37,27,41,,65,61,11,12,6,5,0.9,0.8
2026-02-14T2100,2502A,108.6238,21.9667,钦州市,市环保站,颗粒物(PM10),51,51,57,20,38,81,,102,97,11,13,5,5,0.6,0.7
2026-02-14T2100,2503A,108.655,21.9481,钦州市,沙埠小学,,49,49,55,29,34,82,,106,101,13,14,10,7,0.5,0.6
2026-02-14T2100,2504A,108.5989,21.7435,钦州市,港区一小,颗粒物(PM10),52,54,54,33,32,79,,98,96,22,23,2,2,0.5,0.6
2026-02-14T2100,3404A,108.5959,21.9634,钦州市,北职校,,38,38,56,22,33,86,,102,97,10,14,2,4,0.6,0.8
2026-02-14T2100,1046A,119.5247,39.9346,秦皇岛市,建设大厦,颗粒物(PM10),77,104,179,54,122,76,,86,86,25,34,10,12,0.6,1.1
2026-02-14T2100,3132A,119.5979,39.938,秦皇岛市,文明里,颗粒物(PM10),76,102,168,54,107,84,,87,87,25,45,13,14,0.6,0.9
2026-02-14T2100,4066A,119.7458,39.9952,秦皇岛市,南园路157号,,,,167,,120,81,,87,87,,49,10,10,0.6,1
2026-02-14T2100,4067A,119.5131,39.8858,秦皇岛市,翠岛大街1号,颗粒物(PM10),75,99,149,52,119,82,,83,83,20,33,11,14,0.5,1
2026-02-14T2100,4198A,119.509013,39.825305,秦皇岛市,北戴河轮滑馆,细颗粒物(PM2.5),88,121,171,65,114,76,,85,85,37,40,11,9,0.6,1
2026-02-14T2100,1310A,120.404,36.0625,青岛市,市南区东部子站,细颗粒物(PM2.5),78,88,113,57,80,57,,114,84,30,19,11,11,0.6,0.8
2026-02-14T2100,1311A,120.362344,36.10282,青岛市,四方区子站,细颗粒物(PM2.5),133,139,120,101,84,123,,128,124,25,25,8,9,0.9,1.1
2026-02-14T2100,1312A,120.294373,36.054183,青岛市,市南区西部子站,细颗粒物(PM2.5),99,90,100,74,83,74,,111,84,38,25,6,5,0.8,0.9
2026-02-14T2100,1313A,120.4581,36.0858,青岛市,崂山区子站,颗粒物(PM10),60,70,97,42,67,66,,115,95,27,21,9,10,0.6,0.8
2026-02-14T2100,1315A,120.3945,36.3083,青岛市,城阳区子站,细颗粒物(PM2.5),94,107,111,70,65,42,,137,115,49,31,7,10,1.3,1.1
2026-02-14T2100,3642A,120.3454,36.0735,青岛市,市北区南部,细颗粒物(PM2.5),127,138,121,96,83,108,,119,109,32,22,3,3,1.0,1.1
2026-02-14T2100,3643A,120.3897,36.18,青岛市,李沧区北部,细颗粒物(PM2.5),110,124,112,83,72,85,,128,120,53,34,11,12,1.1,1
2026-02-14T2100,4110A,120.5222,36.4089,青岛市,盟旺路653号,"颗粒物(PM10),细颗粒物(PM2.5)",55,60,102,39,56,64,,117,84,21,19,3,3,0.8,0.9
2026-02-14T2100,4290A,120.196923,35.954556,青岛市,珠江路669号,细颗粒物(PM2.5),110,107,105,83,74,57,,118,91,30,19,8,9,0.7,0.8
2026-02-14T2100,4291A,120.0424,35.8656,青岛市,黄岛区人民政府广场,细颗粒物(PM2.5),122,119,113,92,84,94,,100,92,23,29,7,8,0.9,0.9
2026-02-14T2100,1703A,113.0218,23.7086,清远市,凤城街办,颗粒物(PM10),61,72,50,42,34,49,,131,120,57,24,/,/,/,/
2026-02-14T2100,3025A,113.0479,23.6343,清远市,技师学院,,38,38,49,23,31,116,,139,137,18,20,5,6,0.5,0.5
2026-02-14T2100,3318A,112.9898,23.7403,清远市,清新太和,,41,30,43,17,28,131,,142,140,15,21,9,10,0.5,0.6
2026-02-14T2100,3455A,113.076,23.72,清远市,清城东城,二氧化氮(NO2),57,45,45,24,27,8,,137,116,113,33,/,/,/,/
2026-02-14T2100,2661A,107.6325,35.7357,庆阳市,庆阳五中,颗粒物(PM10),94,137,92,30,34,82,,94,94,15,17,7,11,0.4,0.4
2026-02-14T2100,2662A,107.6361,35.7067,庆阳市,市环保局,颗粒物(PM10),96,142,92,35,37,86,,95,95,9,11,4,5,0.5,0.5
2026-02-14T2100,1916A,103.7897,25.5036,曲靖市,环境监测站,,30,29,28,7,16,96,,115,114,9,12,4,5,0.3,0.4
2026-02-14T2100,1917A,103.8013,25.5357,曲靖市,烟厂办公区,,30,19,33,11,17,94,,108,107,6,18,4,5,0.3,0.4
2026-02-14T2100,3376A,103.7926,25.4651,曲靖市,南苑二区,,29,23,24,19,14,90,,104,103,9,12,6,4,0.3,0.4
2026-02-14T2100,3377A,103.7442,25.5259,曲靖市,曲靖师范学院,,31,22,31,10,21,97,,110,110,5,13,2,3,0.3,0.4
2026-02-14T2100,1264A,118.8694,28.94,衢州市,环保大楼,细颗粒物(PM2.5),52,45,44,36,32,25,,50,48,23,20,/,/,/,/
2026-02-14T2100,1266A,118.8622,28.9809,衢州市,衢州学院,,42,39,42,29,33,22,,50,46,26,16,2,4,0.7,0.7
2026-02-14T2100,4097A,118.9646,28.9832,衢州市,衢州三中,,42,40,52,29,36,9,,52,46,39,21,5,5,0.9,1
2026-02-14T2100,1611A,118.5818,24.9116,泉州市,涂山街,,,,39,,27,,,99,92,15,12,4,3,0.5,0.6
2026-02-14T2100,1612A,118.597,24.8976,泉州市,津头埔,,30,30,39,14,28,67,,92,82,14,13,2,2,0.5,0.5
2026-02-14T2100,1613A,118.6669,24.9422,泉州市,万安,,29,29,39,13,26,58,,89,79,14,15,4,3,0.5,0.5
2026-02-14T2100,4105A,118.6355,24.9148,泉州市,霞新路6号,,21,21,34,13,24,67,,93,84,10,12,/,/,0.4,0.5
2026-02-14T2100,2626A,88.8873,29.2723,日喀则市,日喀则监测站,,30,29,31,21,14,80,,102,100,28,15,17,14,0.7,0.6
2026-02-14T2100,3726A,88.8775,29.2425,日喀则市,林业技术推广中心,,30,24,24,12,15,93,,94,94,3,12,10,12,0.2,0.5
2026-02-14T2100,1659A,119.4711,35.421,日照市,监测站,细颗粒物(PM2.5),166,212,154,126,104,4,,92,69,115,61,17,15,1.6,1.6
2026-02-14T2100,1660A,119.523,35.4216,日照市,市政府广场,细颗粒物(PM2.5),118,141,153,89,104,87,,90,89,56,48,14,15,0.7,1.1
2026-02-14T2100,1661A,119.5511,35.4113,日照市,港务局,细颗粒物(PM2.5),179,178,165,135,107,62,,87,86,44,44,6,9,1.0,1.1
2026-02-14T2100,3507A,119.5326,35.4627,日照市,职业技术学院,细颗粒物(PM2.5),128,136,150,97,104,104,,98,98,38,43,10,12,1.2,1.5
2026-02-14T2100,3604A,119.3267,35.1043,日照市,岚山环保分局,细颗粒物(PM2.5),88,112,148,65,96,113,,118,118,28,39,13,18,1.0,1.3
2026-02-14T2100,1835A,111.1922,34.7752,三门峡市,市政府,细颗粒物(PM2.5),107,131,78,80,36,29,,98,86,67,29,19,14,1.5,0.6
2026-02-14T2100,1836A,111.1588,34.794,三门峡市,开发区,细颗粒物(PM2.5),90,125,109,67,49,74,,106,106,36,22,11,12,1.0,0.7
2026-02-14T2100,3039A,111.1911,34.7829,三门峡市,三门峡市第一小学,细颗粒物(PM2.5),104,128,93,78,44,46,,103,98,73,23,17,14,1.5,0.7
2026-02-14T2100,3598A,111.1031,34.719,三门峡市,富达温泉假日酒店,颗粒物(PM10),93,135,103,68,53,80,,99,99,34,34,16,22,1.1,1.1
2026-02-14T2100,2324A,117.621,26.2626,三明市,三钢,,38,38,30,20,26,41,,88,74,18,16,3,6,0.5,0.8
2026-02-14T2100,2325A,117.6352,26.2714,三明市,三明二中,,42,35,32,29,25,37,,86,72,23,17,4,7,0.7,0.8
2026-02-14T2100,2326A,117.6028,26.2377,三明市,三元区政府,颗粒物(PM10),51,52,32,25,24,32,,88,68,25,16,4,4,0.9,1
2026-02-14T2100,1877A,109.4962,18.2682,三亚市,河西子站,,29,29,29,17,13,84,,89,88,4,5,1,2,0.4,0.4
2026-02-14T2100,3540A,109.7348,18.3443,三亚市,君悦子站,,33,33,32,14,16,85,,86,86,5,7,3,3,0.5,0.5
2026-02-14T2100,4135A,109.1714,18.3739,三亚市,城东小学站,,31,31,27,18,17,82,,92,90,7,8,/,/,/,/
2026-02-14T2100,2624A,91.7592,29.234,山南市,山南监测站,颗粒物(PM10),67,84,38,21,10,94,,95,95,2,2,3,2,0.2,0.3
2026-02-14T2100,2625A,91.7701,29.2436,山南市,山南人民医院,颗粒物(PM10),74,97,56,28,13,89,,94,94,6,3,9,9,0.5,0.4
2026-02-14T2100,1674A,116.6795,23.3666,汕头市,金平子站,,30,30,36,12,25,81,,99,89,15,15,4,5,0.7,0.9
2026-02-14T2100,1675A,116.7248,23.3632,汕头市,龙湖子站,,31,31,40,11,24,84,,100,91,10,13,9,10,/,/
2026-02-14T2100,1676A,116.7257,23.2774,汕头市,濠江子站,,42,31,42,29,27,96,,93,93,27,22,10,9,/,/
2026-02-14T2100,1677A,116.7518,23.4712,汕头市,澄海子站,,30,30,44,20,25,86,,98,91,11,10,6,6,0.8,0.8
2026-02-14T2100,1678A,116.6088,23.2539,汕头市,潮阳子站,,31,31,37,14,25,86,,92,90,9,12,6,6,0.6,0.7
2026-02-14T2100,3444A,116.4539,23.2684,汕头市,潮南峡山,,36,36,43,19,28,91,,101,97,4,8,6,6,0.8,0.8
2026-02-14T2100,3624A,116.4069,23.2533,汕头市,潮南子站,颗粒物(PM10),53,55,52,27,35,76,,91,82,12,10,6,6,/,/
2026-02-14T2100,1693A,115.3653,22.7751,汕尾市,市环保局,,32,32,29,16,20,54,,88,77,25,11,4,5,0.9,0.7
2026-02-14T2100,1695A,115.362,22.7926,汕尾市,新城中学,,16,13,32,11,18,47,,88,77,16,10,5,5,0.7,0.7
2026-02-14T2100,2645A,109.9155,33.8714,商洛市,监测站,细颗粒物(PM2.5),108,,51,81,34,46,,96,87,42,17,12,6,1.1,0.6
2026-02-14T2100,3045A,109.9647,33.8486,商洛市,商州区中学,细颗粒物(PM2.5),54,48,54,38,30,64,,94,87,18,16,8,6,0.6,0.6
2026-02-14T2100,2408A,115.6701,34.4283,商丘市,环境监测站,细颗粒物(PM2.5),82,98,117,60,69,99,,126,124,19,19,6,6,0.6,0.7
2026-02-14T2100,2409A,115.6458,34.4047,商丘市,粮食局,细颗粒物(PM2.5),75,87,105,55,63,96,,120,118,19,19,3,3,0.6,0.7
2026-02-14T2100,3171A,115.6069,34.4465,商丘市,梁园区档案局,细颗粒物(PM2.5),75,94,106,55,64,100,,127,124,14,13,3,3,0.7,0.7
2026-02-14T2100,4119A,115.6701,34.3767,商丘市,北海东路185号,颗粒物(PM10),82,114,127,58,71,93,,124,120,17,18,4,4,0.7,0.7
2026-02-14T2100,4120A,115.6172,34.3704,商丘市,中山大街3号,颗粒物(PM10),79,107,130,54,69,92,,119,114,23,23,5,4,0.6,0.7
2026-02-14T2100,1141A,121.401,31.2382,上海市,普陀,细颗粒物(PM2.5),138,130,67,105,54,124,,114,114,32,26,9,8,1.1,0.7
2026-02-14T2100,1142A,121.4774,31.2043,上海市,十五厂,细颗粒物(PM2.5),134,122,73,102,56,120,,118,118,33,31,11,9,1.3,0.9
2026-02-14T2100,1143A,121.4673,31.3011,上海市,虹口,细颗粒物(PM2.5),129,139,82,98,58,94,,95,95,39,31,7,7,1.2,0.9
2026-02-14T2100,1147A,121.4253,31.226,上海市,静安监测站,细颗粒物(PM2.5),117,126,72,88,49,129,,119,119,34,31,10,8,1.2,0.8
2026-02-14T2100,1148A,121.7029,31.1905,上海市,浦东川沙,细颗粒物(PM2.5),159,154,84,121,61,65,,101,92,82,43,13,10,2.0,1.4
2026-02-14T2100,1149A,121.5339,31.229,上海市,浦东新区监测站,细颗粒物(PM2.5),139,127,74,106,55,106,,110,110,36,30,10,7,1.3,0.9
2026-02-14T2100,1150A,121.5776,31.2038,上海市,浦东张江,细颗粒物(PM2.5),123,132,78,93,52,110,,120,120,48,41,10,8,0.9,0.5
2026-02-14T2100,3265A,121.4242,31.3303,上海市,宝山庙行,细颗粒物(PM2.5),143,153,88,109,56,98,,98,97,40,34,11,10,1.1,0.8
