timepoint,stationcode,longitude,latitude,area,positionname,primarypollutant,aqi,pm10,pm10_24h,pm2_5,pm2_5_24h,o3,o3_24h,o3_8h,o3_8h_24h,no2,no2_24h,so2,so2_24h,co,co_24h
2026-02-14T1100,2568A,102.2503,31.8896,阿坝藏族羌族自治州,马师校,,18,,18,11,7,55,,49,49,6,4,5,5,0.4,0.4
2026-02-14T1100,3994A,102.2174,31.9016,阿坝藏族羌族自治州,马尔康中学西区,,19,,18,8,8,59,,55,54,6,5,5,5,0.5,0.4
2026-02-14T1100,2695A,80.2899,41.1684,阿克苏地区,电视台,颗粒物(PM10),226,368,348,98,97,16,,44,37,54,28,12,12,1.3,0.9
2026-02-14T1100,2696A,80.2592,41.1541,阿克苏地区,艺术中心,颗粒物(PM10),176,302,315,95,106,23,,38,37,40,31,5,6,0.9,0.8
2026-02-14T1100,2205A,105.699,38.8409,阿拉善盟,蒙二幼,颗粒物(PM10),142,234,91,50,19,86,,78,78,9,12,9,10,0.5,0.4
2026-02-14T1100,2206A,105.7198,38.8508,阿拉善盟,环保局新楼,颗粒物(PM10),112,173,69,34,17,65,,86,76,10,6,9,10,0.5,0.5
2026-02-14T1100,2708A,88.1266,47.8515,阿勒泰地区,市站,,24,7,24,3,15,49,,51,51,47,42,2,3,0.5,0.4
2026-02-14T1100,4166A,88.1198,47.7931,阿勒泰地区,阿勒泰路33号,,29,6,20,3,10,42,,67,67,58,27,5,4,0.8,0.4
2026-02-14T1100,2630A,80.1171,32.4999,阿里地区,阿里监测站,,33,33,14,18,5,61,,65,57,18,6,11,7,0.7,0.4
2026-02-14T1100,3192A,80.0906,32.5029,阿里地区,阿里藏医院,,22,19,12,3,4,68,,80,69,16,4,14,10,0.6,0.4
2026-02-14T1100,2644A,109.0088,32.6974,安康市,汉滨区检察院,细颗粒物(PM2.5),68,53,63,49,41,36,,29,26,13,12,3,3,0.9,0.7
2026-02-14T1100,4054A,109.0324,32.6913,安康市,市邮政管理局,细颗粒物(PM2.5),72,85,76,52,46,40,,27,26,17,26,6,5,1.0,1.1
2026-02-14T1100,2291A,117.0806,30.5181,安庆市,环科院,细颗粒物(PM2.5),53,44,69,37,54,39,,19,19,11,20,6,7,0.9,0.8
2026-02-14T1100,2292A,117.0331,30.5118,安庆市,马山宾馆,,48,46,69,33,56,50,,18,18,4,22,5,6,0.8,0.8
2026-02-14T1100,2294A,116.9897,30.6146,安庆市,安庆大学,,50,50,68,33,45,55,,46,46,5,10,5,5,0.8,0.7
2026-02-14T1100,3173A,117.0598,30.5351,安庆市,市人大,,50,50,71,32,50,50,,30,30,6,14,6,8,0.8,0.7
2026-02-14T1100,3123A,105.9408,26.2431,安顺市,凤凰山,细颗粒物(PM2.5),54,43,70,38,55,52,,24,24,11,29,20,58,0.6,1.1
2026-02-14T1100,3124A,105.9443,26.2567,安顺市,金钟山,颗粒物(PM10),51,51,52,35,45,49,,30,30,9,19,18,41,0.8,1.1
2026-02-14T1100,3125A,105.8983,26.248,安顺市,娄家坡,,48,43,45,33,39,52,,50,50,9,11,13,19,0.7,0.8
2026-02-14T1100,1819A,114.3552,36.1017,安阳市,红庙街,细颗粒物(PM2.5),128,163,159,97,105,85,,58,58,29,28,18,10,1.1,1.2
2026-02-14T1100,1820A,114.361,36.0681,安阳市,银杏小区,细颗粒物(PM2.5),123,156,162,93,109,74,,52,52,26,28,19,13,1.0,1.1
2026-02-14T1100,3141A,114.3921,36.0879,安阳市,信访局,细颗粒物(PM2.5),128,164,165,97,108,84,,58,56,23,21,10,12,1.2,1.2
2026-02-14T1100,3669A,114.4706,36.0634,安阳市,左辅环卫站,细颗粒物(PM2.5),139,194,198,106,116,84,,62,54,25,24,14,12,1.2,1.2
2026-02-14T1100,4117A,114.2918,36.0769,安阳市,钢三路198号,细颗粒物(PM2.5),122,190,193,92,99,82,,64,64,29,25,12,12,1.2,1.3
2026-02-14T1100,1748A,123.0441,41.1201,鞍山市,深沟寺,细颗粒物(PM2.5),99,115,128,74,82,123,,128,128,22,20,12,11,1.1,1.1
2026-02-14T1100,1749A,123.011,41.0931,鞍山市,太阳城,细颗粒物(PM2.5),108,118,116,81,80,116,,126,125,22,21,15,15,1.1,1
2026-02-14T1100,1750A,123.0483,41.1445,鞍山市,太平,细颗粒物(PM2.5),97,108,127,72,82,105,,115,113,28,23,16,12,1.2,1
2026-02-14T1100,1751A,122.964,41.0968,鞍山市,铁西三道街,细颗粒物(PM2.5),108,123,132,81,85,115,,105,105,27,40,,41,1.1,1
2026-02-14T1100,1753A,123.0219,41.0822,鞍山市,明达新区,细颗粒物(PM2.5),102,117,114,76,76,116,,126,125,21,23,14,15,0.8,0.9
2026-02-14T1100,4201A,122.944647,41.082639,鞍山市,兴盛南路290号,细颗粒物(PM2.5),125,131,131,95,88,112,,111,111,23,33,17,19,1.2,1.1
2026-02-14T1100,2195A,107.4206,40.7609,巴彦淖尔市,附二中,颗粒物(PM10),53,56,119,17,36,76,,72,72,4,11,9,10,0.3,0.5
2026-02-14T1100,2196A,107.37,40.7372,巴彦淖尔市,市环保大楼,颗粒物(PM10),62,73,111,6,34,76,,74,74,5,15,6,8,0.3,0.5
2026-02-14T1100,1956A,86.1476,41.7529,巴音郭楞蒙古自治州,孔雀公园,颗粒物(PM10),115,179,209,50,58,38,,66,52,42,25,9,10,0.9,0.7
2026-02-14T1100,1957A,86.1971,41.7166,巴音郭楞蒙古自治州,棉纺厂,颗粒物(PM10),134,217,238,52,57,29,,48,43,46,33,/,/,/,/
2026-02-14T1100,1958A,86.236,41.7172,巴音郭楞蒙古自治州,经济开发区,颗粒物(PM10),103,156,171,37,33,42,,64,55,21,11,6,7,0.8,0.5
2026-02-14T1100,3181A,106.776805,31.852614,巴中市,市五中,细颗粒物(PM2.5),88,77,73,65,55,26,,27,23,35,19,7,6,1.5,1
2026-02-14T1100,3183A,106.7419,31.8654,巴中市,圣泉水务公司,细颗粒物(PM2.5),77,59,68,56,56,44,,32,32,13,24,6,6,1.0,1
2026-02-14T1100,3616A,106.7617,31.8343,巴中市,市中心医院,细颗粒物(PM2.5),93,80,78,69,60,21,,7,7,35,32,7,6,1.4,1.2
2026-02-14T1100,2235A,122.7909,45.608,白城市,洮北区环保局,颗粒物(PM10),62,74,45,36,36,68,,51,51,8,13,7,6,0.4,0.4
2026-02-14T1100,2236A,122.8741,45.5725,白城市,市环保局,颗粒物(PM10),62,73,52,30,33,69,,56,55,6,10,5,6,0.3,0.3
2026-02-14T1100,2231A,126.4219,41.9172,白山市,喜丰,细颗粒物(PM2.5),147,160,136,112,99,84,,26,26,44,58,23,16,1.7,1.8
2026-02-14T1100,2232A,126.4082,41.9416,白山市,环保局,细颗粒物(PM2.5),152,127,121,116,101,49,,33,33,51,39,19,15,1.9,1.7
2026-02-14T1100,2647A,104.1727,36.5448,白银市,第三小学,,,82,95,24,46,83,,59,59,,41,2,23,0.3,0.8
2026-02-14T1100,2648A,104.1467,36.5482,白银市,动力公司,颗粒物(PM10),60,70,92,20,38,81,,65,65,7,20,4,14,0.5,0.8
2026-02-14T1100,2512A,106.6102,23.901,百色市,市监测站,,26,26,30,17,20,12,,5,5,9,14,9,10,0.8,0.9
2026-02-14T1100,2513A,106.6524,23.8842,百色市,市中心血站,,44,44,44,24,27,10,,4,4,9,12,8,9,0.9,1
2026-02-14T1100,4133A,106.6273,23.8798,百色市,龙景西路,,40,40,41,17,22,7,,1,1,11,14,9,9,0.7,0.7
2026-02-14T1100,2270A,117.396,32.9389,蚌埠市,工人疗养院,细颗粒物(PM2.5),84,105,102,62,54,96,,68,66,23,23,7,6,1.0,0.8
2026-02-14T1100,2271A,117.3606,32.9428,蚌埠市,百货大楼,细颗粒物(PM2.5),77,98,102,56,54,97,,68,68,20,23,10,7,0.8,0.7
2026-02-14T1100,2273A,117.4183,32.8909,蚌埠市,蚌埠学院,细颗粒物(PM2.5),94,85,98,70,57,100,,71,66,16,20,10,6,1.0,0.7
2026-02-14T1100,2274A,117.3534,32.9672,蚌埠市,淮上区政府,细颗粒物(PM2.5),83,92,99,61,57,100,,78,78,20,21,10,7,0.8,0.7
2026-02-14T1100,2275A,117.3143,32.8977,蚌埠市,高新区,细颗粒物(PM2.5),93,92,105,69,65,93,,58,58,13,22,11,8,0.9,0.7
2026-02-14T1100,3715A,117.3091,32.9314,蚌埠市,蚌埠田家炳中学,细颗粒物(PM2.5),88,106,110,65,63,95,,64,61,20,24,10,24,0.8,0.7
2026-02-14T1100,1585A,109.8761,40.6533,包头市,市环境监测站,细颗粒物(PM2.5),67,76,102,48,45,74,,74,71,10,35,8,12,0.7,0.9
2026-02-14T1100,1587A,109.9992,40.5843,包头市,包头八中,,38,38,112,14,46,76,,72,72,9,32,7,14,0.4,0.8
2026-02-14T1100,1589A,109.8641,40.6288,包头市,惠龙物流,,46,46,95,10,43,75,,75,72,10,31,12,16,0.4,0.9
2026-02-14T1100,1590A,110.0376,40.5546,包头市,东河鸿龙湾,,31,31,104,6,44,80,,71,71,11,42,9,13,0.4,0.8
2026-02-14T1100,3283A,109.9154,40.5684,包头市,滨河大厦,,43,,95,30,51,76,,72,72,8,34,8,12,0.3,0.7
2026-02-14T1100,3419A,109.9449,40.6259,包头市,包头市委党校,,48,48,88,3,41,74,,73,72,7,31,10,16,0.3,0.7
2026-02-14T1100,3683A,109.8332,40.6577,包头市,昆区政府,,,42,101,8,44,,,70,70,9,35,,16,0.4,0.9
2026-02-14T1100,1931A,107.0802,34.3129,宝鸡市,竹园沟,"颗粒物(PM10),细颗粒物(PM2.5)",52,54,54,36,32,57,,37,37,21,16,8,6,0.5,0.3
2026-02-14T1100,1933A,107.1429,34.3549,宝鸡市,监测站,颗粒物(PM10),64,78,75,43,34,40,,28,28,30,23,9,5,0.7,0.6
2026-02-14T1100,1934A,107.1172,34.3759,宝鸡市,技工学校,颗粒物(PM10),74,98,83,45,47,47,,35,34,21,22,11,10,0.7,0.7
2026-02-14T1100,1936A,107.2025,34.3518,宝鸡市,文理学院,细颗粒物(PM2.5),69,74,80,50,43,43,,33,32,29,24,7,5,0.6,0.5
2026-02-14T1100,1937A,107.2396,34.3626,宝鸡市,三迪小学,细颗粒物(PM2.5),78,71,86,57,48,44,,28,28,32,32,7,5,0.9,0.7
2026-02-14T1100,4155A,107.1721,34.3558,宝鸡市,滨河北路,"颗粒物(PM10),细颗粒物(PM2.5)",69,87,80,50,42,47,,29,29,17,16,8,6,0.8,0.6
2026-02-14T1100,4308A,107.3898,34.3601,宝鸡市,陈仓区北开路21号,细颗粒物(PM2.5),94,101,103,70,61,52,,35,35,24,27,115,62,0.6,0.5
2026-02-14T1100,1051A,115.4803,38.8568,保定市,游泳馆,细颗粒物(PM2.5),176,180,160,133,119,78,,44,44,39,54,13,12,1.0,0.9
2026-02-14T1100,1052A,115.509,38.8895,保定市,华电二区,细颗粒物(PM2.5),172,179,138,130,105,75,,44,40,38,39,11,8,1.1,1
2026-02-14T1100,1053A,115.4588,38.9037,保定市,接待中心,细颗粒物(PM2.5),162,163,147,123,105,74,,47,44,38,36,9,8,1.0,0.9
2026-02-14T1100,1054A,115.4484,38.8344,保定市,地表水厂,细颗粒物(PM2.5),178,202,180,134,106,82,,54,54,38,40,10,10,1.1,0.9
2026-02-14T1100,3581A,115.3136,38.9511,保定市,满城区生态环境分局,细颗粒物(PM2.5),110,166,178,83,100,87,,30,30,28,46,8,9,0.8,1.3
2026-02-14T1100,3582A,115.4709,38.7628,保定市,清苑区第二中学,细颗粒物(PM2.5),172,230,209,130,117,76,,63,54,38,35,14,14,1.1,1
2026-02-14T1100,3583A,115.6231,39.0223,保定市,徐水物探局,细颗粒物(PM2.5),186,230,215,140,127,62,,21,21,45,52,11,13,1.2,1.1
2026-02-14T1100,4004A,115.4199,38.8665,保定市,双鹰农机,细颗粒物(PM2.5),176,220,198,133,114,90,,62,62,37,36,11,10,1.0,1
2026-02-14T1100,4034A,115.515,38.8589,保定市,植保所站,细颗粒物(PM2.5),165,173,166,125,108,74,,35,35,40,65,7,8,1.1,1.2
2026-02-14T1100,2594A,99.1589,25.1137,保山市,市环境监测站,,30,30,18,14,10,68,,68,62,18,8,7,6,0.5,0.3
2026-02-14T1100,2595A,99.1616,25.1381,保山市,市环保局,,33,33,21,14,9,64,,75,69,17,4,4,3,0.6,0.3
2026-02-14T1100,1867A,109.1435,21.4085,北海市,海滩公园,,31,25,51,16,24,98,,76,74,6,11,3,3,0.7,0.8
2026-02-14T1100,1868A,109.0983,21.466,北海市,新市环保局,,32,32,47,11,24,92,,80,75,8,12,7,8,0.5,0.6
2026-02-14T1100,1869A,109.1775,21.5232,北海市,北海工业园,,50,50,61,18,38,89,,60,55,3,8,6,6,0.7,0.8
2026-02-14T1100,3400A,109.1844,21.4396,北海市,龙潭自来水厂,,29,26,50,15,34,91,,59,55,3,7,3,4,0.8,0.9
2026-02-14T1100,1001A,116.3611,39.8786,北京市,万寿西宫,颗粒物(PM10),67,83,146,44,90,70,,46,46,18,46,5,7,0.6,1
2026-02-14T1100,1003A,116.4174,39.9289,北京市,东四,颗粒物(PM10),63,75,149,39,89,61,,34,34,19,50,7,10,0.6,1
2026-02-14T1100,1004A,116.4073,39.8858,北京市,天坛,颗粒物(PM10),66,81,138,39,84,66,,26,26,21,44,6,4,0.7,1.1
2026-02-14T1100,1005A,116.4622,39.9364,北京市,农展馆,,,,144,,88,,,104,16,,48,,9,,1.2
2026-02-14T1100,1006A,116.3399,39.9293,北京市,官园,颗粒物(PM10),64,78,135,41,83,60,,42,42,20,40,6,8,0.6,0.9
2026-02-14T1100,1007A,116.2879,39.9613,北京市,海淀万柳,颗粒物(PM10),61,71,119,33,69,52,,39,39,28,50,5,6,0.7,0.9
2026-02-14T1100,1008A,116.6635,40.1349,北京市,顺义新城,细颗粒物(PM2.5),90,120,110,67,58,90,,50,50,12,34,8,7,0.7,0.8
2026-02-14T1100,1009A,116.6275,40.327,北京市,怀柔镇,细颗粒物(PM2.5),92,127,94,68,53,75,,62,61,23,25,7,6,1.0,0.9
2026-02-14T1100,1010A,116.2295,40.217,北京市,昌平镇,颗粒物(PM10),59,67,96,28,55,71,,62,62,10,26,5,6,0.6,0.9
2026-02-14T1100,1011A,116.3968,39.982,北京市,奥体中心,颗粒物(PM10),57,64,134,27,79,62,,39,39,14,50,7,8,0.5,0.9
2026-02-14T1100,3418A,116.8336,40.4095,北京市,密云新城,颗粒物(PM10),60,70,96,37,52,79,,60,60,7,17,5,4,0.6,0.7
2026-02-14T1100,3671A,116.0879,39.9725,北京市,门头沟三家店,颗粒物(PM10),57,63,106,29,57,75,,63,63,13,22,6,5,0.4,0.6
2026-02-14T1100,3672A,116.1507,39.8246,北京市,丰台云岗,细颗粒物(PM2.5),74,88,122,54,71,71,,68,64,24,26,7,7,0.6,0.7
2026-02-14T1100,3674A,115.9578,39.7602,北京市,房山燕山,细颗粒物(PM2.5),89,104,113,66,67,80,,62,62,23,22,6,7,0.6,0.7
2026-02-14T1100,3675A,116.4669,39.7734,北京市,大兴旧宫,细颗粒物(PM2.5),87,117,162,64,93,68,,30,26,28,43,8,6,0.8,0.9
2026-02-14T1100,3694A,115.9859,40.4562,北京市,延庆石河营,细颗粒物(PM2.5),109,131,96,82,53,51,,25,25,30,21,8,5,1.0,0.8
2026-02-14T1100,3695A,116.6151,40.3052,北京市,怀柔新城,细颗粒物(PM2.5),107,121,92,80,59,74,,66,64,22,19,5,4,0.9,0.7
2026-02-14T1100,3696A,116.2542,39.8764,北京市,丰台小屯,颗粒物(PM10),67,84,139,46,81,40,,39,39,28,54,7,6,0.6,0.9
2026-02-14T1100,3697A,116.8399,40.3843,北京市,密云镇,颗粒物(PM10),63,76,96,38,54,79,,48,48,9,32,6,5,0.5,0.7
2026-02-14T1100,4057A,115.9423,40.4431,北京市,延庆百泉,细颗粒物(PM2.5),105,124,97,79,56,46,,29,26,28,23,5,3,1.0,0.8
2026-02-14T1100,4058A,116.6598,39.9164,北京市,通州新华,细颗粒物(PM2.5),103,132,161,77,99,62,,34,26,46,46,5,6,1.0,1.1
2026-02-14T1100,4182A,116.1942,39.9158,北京市,石景山八角,颗粒物(PM10),66,82,126,43,69,59,,34,34,21,39,8,7,0.5,0.8
2026-02-14T1100,4194A,117.078628,40.151726,北京市,平谷新城,细颗粒物(PM2.5),155,172,124,118,75,77,,56,56,24,24,7,6,1.0,0.8
2026-02-14T1100,1761A,123.8274146,41.31234549,本溪市,大峪,细颗粒物(PM2.5),84,107,131,62,78,119,,119,118,16,24,10,11,1.0,1.1
2026-02-14T1100,1763A,123.7169,41.3094,本溪市,彩屯,细颗粒物(PM2.5),92,93,130,68,93,97,,96,92,29,38,19,18,2.2,3.2
2026-02-14T1100,1764A,123.7672166,41.28649327,本溪市,东明,细颗粒物(PM2.5),82,75,105,60,82,112,,127,120,16,18,8,10,1.0,1
2026-02-14T1100,1765A,123.799345,41.266614,本溪市,新立屯,细颗粒物(PM2.5),79,72,101,58,74,116,,130,122,15,16,11,12,0.8,0.8
2026-02-14T1100,1766A,123.829144,41.336777,本溪市,威宁,细颗粒物(PM2.5),78,100,141,57,78,116,,101,101,17,25,14,10,0.8,0.9
2026-02-14T1100,2587A,105.287,27.3133,毕节市,八中,颗粒物(PM10),68,86,51,47,31,44,,33,29,24,12,15,12,1.2,0.6
2026-02-14T1100,2588A,105.3079,27.2987,毕节市,师专,颗粒物(PM10),62,73,54,40,28,44,,24,24,22,17,11,10,0.9,0.6
2026-02-14T1100,4263A,105.3688,27.3598,毕节市,工业大道,颗粒物(PM10),64,77,71,26,38,57,,27,27,15,15,13,12,/,/
2026-02-14T1100,1629A,117.9961,37.3604,滨州市,第二水厂,细颗粒物(PM2.5),168,171,158,127,96,83,,66,66,38,30,22,21,1.4,1.1
2026-02-14T1100,1630A,117.9789,37.3931,滨州市,北中新校,细颗粒物(PM2.5),130,151,156,99,91,89,,69,69,38,37,18,16,1.2,1
2026-02-14T1100,3514A,117.9379,37.3959,滨州市,中海酒店,细颗粒物(PM2.5),123,149,150,93,90,104,,84,84,30,33,21,18,1.3,1.3
2026-02-14T1100,3515A,117.9381509,37.35547456,滨州市,开发区一中,细颗粒物(PM2.5),124,153,169,94,92,94,,68,68,24,27,26,25,1.2,1.2
2026-02-14T1100,3516A,118.0914,37.6938,滨州市,金海六路,细颗粒物(PM2.5),137,154,174,104,106,101,,62,62,29,38,27,17,1.1,1
2026-02-14T1100,4028A,117.9955,37.3752,滨州市,滨州市西街道办事处,细颗粒物(PM2.5),140,175,158,107,93,93,,73,73,32,26,22,18,1.2,1.1
2026-02-14T1100,2311A,115.8071,33.8399,亳州市,污水处理厂,细颗粒物(PM2.5),90,85,102,67,65,86,,67,67,15,21,8,7,0.6,0.6
2026-02-14T1100,2312A,115.7789,33.8519,亳州市,三国揽胜宫,细颗粒物(PM2.5),97,117,110,72,66,81,,65,64,11,21,6,7,0.6,0.6
2026-02-14T1100,3332A,115.7631,33.803,亳州市,亳州学院,细颗粒物(PM2.5),103,101,103,77,58,86,,62,62,11,15,6,6,1.0,0.8
2026-02-14T1100,2693A,82.0482,44.8553,博尔塔拉蒙古自治州,市党校,颗粒物(PM10),55,60,65,32,38,76,,92,86,21,16,2,2,0.6,0.7
2026-02-14T1100,2694A,82.0805,44.8966,博尔塔拉蒙古自治州,市环保局,颗粒物(PM10),59,67,78,15,36,72,,85,82,17,13,4,3,0.6,0.7
2026-02-14T1100,1071A,116.8733,38.2922,沧州市,沧县城建局,细颗粒物(PM2.5),140,186,168,107,103,71,,72,66,36,30,11,12,1.3,1
2026-02-14T1100,1072A,116.8462,38.3189,沧州市,电视转播站,细颗粒物(PM2.5),155,163,166,118,115,79,,69,65,27,25,13,10,1.0,0.7
2026-02-14T1100,1073A,116.8588,38.3161,沧州市,市环保局,细颗粒物(PM2.5),137,178,176,104,99,65,,60,55,29,26,19,16,1.1,0.8
2026-02-14T1100,3324A,116.8011,38.294,沧州市,河北水利电力学院,细颗粒物(PM2.5),152,193,187,116,114,74,,68,64,24,22,19,16,1.1,0.9
2026-02-14T1100,2622A,97.1813,31.1289,昌都市,昌都监测站,,18,18,23,3,8,51,,52,49,8,6,3,2,0.6,0.6
2026-02-14T1100,3719A,97.1707,31.1428,昌都市,昌都会议中心,,18,11,10,7,7,55,,57,54,1,2,5,5,0.4,0.4
2026-02-14T1100,2692A,87.2722,44.0298,昌吉回族自治州,新区政务中心,,41,41,27,26,21,29,,70,51,42,19,3,4,0.8,0.4
2026-02-14T1100,3613A,87.3069,44.0093,昌吉回族自治州,亚心广场,,48,46,35,33,30,49,,77,62,34,20,8,8,0.9,0.6
2026-02-14T1100,4164A,87.2057,43.9289,昌吉回族自治州,财政所,细颗粒物(PM2.5),67,52,67,48,55,49,,51,47,18,18,5,5,1.2,0.7
2026-02-14T1100,1120A,125.2874,43.9024,长春市,客车厂,细颗粒物(PM2.5),113,122,98,85,76,81,,98,98,16,38,10,15,0.9,1
2026-02-14T1100,1121A,125.2943,43.8508,长春市,邮电学院,细颗粒物(PM2.5),114,141,97,86,73,70,,78,78,16,23,11,13,0.9,0.9
2026-02-14T1100,1122A,125.3648,43.8745,长春市,劳动公园,细颗粒物(PM2.5),112,155,117,84,73,89,,99,99,16,27,14,15,0.8,0.9
2026-02-14T1100,1123A,125.3233,43.8781,长春市,园林处,细颗粒物(PM2.5),115,126,96,87,75,86,,102,101,14,21,10,13,0.8,0.8
2026-02-14T1100,1124A,125.4604,43.7904,长春市,净月潭,细颗粒物(PM2.5),114,143,95,86,70,98,,101,101,16,16,9,9,0.9,0.8
2026-02-14T1100,1126A,125.38,43.8422,长春市,经开区环卫处,细颗粒物(PM2.5),114,134,100,86,71,90,,98,98,16,30,9,9,1.0,0.9
2026-02-14T1100,1127A,125.234,43.7761,长春市,高新区管委会,细颗粒物(PM2.5),104,124,96,78,70,89,,101,101,15,28,11,11,0.9,0.9
2026-02-14T1100,1128A,125.1695,43.83,长春市,岱山公园,细颗粒物(PM2.5),115,130,92,87,74,82,,106,104,13,21,7,10,0.8,0.9
2026-02-14T1100,4281A,125.334645,43.916281,长春市,北亚泰大街1068号,,,,108,0,78,78,,92,91,15,31,14,14,1.0,1
2026-02-14T1100,1335A,113.082,28.2421,长沙市,经开区环保局,细颗粒物(PM2.5),52,46,46,36,36,23,,8,8,12,17,4,3,0.8,1
2026-02-14T1100,1336A,112.8873,28.2202,长沙市,高开区环保局,细颗粒物(PM2.5),78,,52,57,50,15,,5,5,13,21,6,6,1.6,1.4
2026-02-14T1100,1337A,113.0785,28.2012,长沙市,马坡岭,细颗粒物(PM2.5),58,46,45,41,38,22,,12,12,9,15,4,4,1.0,1
2026-02-14T1100,1338A,112.9448,28.1894,长沙市,湖南师范大学,细颗粒物(PM2.5),67,60,53,48,43,18,,7,7,14,22,3,4,1.5,1.4
2026-02-14T1100,1339A,113.0177,28.1322,长沙市,雨花区环保局,细颗粒物(PM2.5),63,50,48,45,32,23,,9,9,15,25,7,8,0.9,1.2
2026-02-14T1100,1340A,112.9795,28.2593,长沙市,伍家岭,细颗粒物(PM2.5),74,63,59,54,44,17,,5,5,16,24,6,6,1.3,1.3
2026-02-14T1100,1341A,113.002,28.1944,长沙市,火车新站,细颗粒物(PM2.5),69,54,54,50,44,15,,7,7,17,25,2,3,1.4,1.5
2026-02-14T1100,1342A,112.9846,28.1177,长沙市,天心区环保局,细颗粒物(PM2.5),84,,46,62,43,17,,7,7,18,26,5,6,1.3,1.2
2026-02-14T1100,1343A,112.8906,28.1307,长沙市,湖南中医药大学,细颗粒物(PM2.5),72,57,49,52,39,20,,6,6,15,22,8,6,1.8,1.3
2026-02-14T1100,1727A,113.1146,36.1547,长治市,清华站,细颗粒物(PM2.5),85,101,73,63,40,47,,37,32,40,26,32,16,1.2,0.8
2026-02-14T1100,1730A,113.0887,36.2126,长治市,审计局,细颗粒物(PM2.5),94,115,79,70,47,58,,33,31,44,32,42,24,1.4,0.8
2026-02-14T1100,1731A,113.0845,36.1856,长治市,长治八中,颗粒物(PM10),96,141,105,70,52,53,,24,24,46,30,51,23,1.4,0.9
2026-02-14T1100,2845A,113.1561,36.1912,长治市,德盛苑,细颗粒物(PM2.5),93,106,72,69,43,62,,92,73,39,18,31,18,1.3,0.7
2026-02-14T1100,3568A,113.0603,36.0464,长治市,向阳小学,颗粒物(PM10),89,128,96,61,40,45,,84,64,49,26,36,23,1.3,0.7
2026-02-14T1100,3569A,112.8788,36.315,长治市,屯留一中,细颗粒物(PM2.5),75,98,81,55,47,94,,54,54,27,28,19,18,1.0,0.8
2026-02-14T1100,4189A,113.113092,36.199482,长治市,英华南巷50号,细颗粒物(PM2.5),98,116,84,73,47,53,,42,29,43,26,34,24,1.5,0.9
2026-02-14T1100,4190A,113.23666,36.33435,长治市,学府街1号,细颗粒物(PM2.5),104,133,88,78,43,100,,33,33,45,49,116,22,3.1,1.4
2026-02-14T1100,1854A,111.696,28.9725,常德市,市二中,细颗粒物(PM2.5),72,62,80,52,55,45,,21,21,26,18,6,6,1.5,1.4
2026-02-14T1100,3138A,111.7152,29.0288,常德市,武陵区永安,细颗粒物(PM2.5),62,65,77,44,59,44,,14,14,14,17,5,5,1.1,1.3
2026-02-14T1100,3139A,111.6891,28.9881,常德市,鼎城区玉霞,细颗粒物(PM2.5),68,66,78,49,53,54,,14,14,23,19,5,5,1.0,1.2
2026-02-14T1100,3140A,111.6651,29.0526,常德市,武陵区长庚,细颗粒物(PM2.5),58,57,78,41,59,41,,12,12,12,19,5,5,1.0,1.2
2026-02-14T1100,1196A,119.9524,31.7586,常州市,市监测站,细颗粒物(PM2.5),74,85,89,54,51,70,,52,44,15,26,13,9,0.9,0.8
2026-02-14T1100,1200A,119.9351,31.703,常州市,武进监测站,细颗粒物(PM2.5),70,84,89,51,50,70,,57,55,10,15,13,9,1.2,0.9
2026-02-14T1100,3002A,119.9701,31.813,常州市,行政中心,细颗粒物(PM2.5),74,72,93,54,50,68,,59,52,16,21,8,6,1.0,0.9
2026-02-14T1100,3003A,120.0434,31.7726,常州市,经开区,细颗粒物(PM2.5),72,89,96,52,48,70,,56,56,16,23,11,7,1.0,1
2026-02-14T1100,3010A,119.8919,31.7892,常州市,钟楼,细颗粒物(PM2.5),69,82,84,50,48,74,,53,53,16,26,10,8,1.0,0.8
2026-02-14T1100,3429A,119.8595,31.706,常州市,武进经发区,细颗粒物(PM2.5),69,74,93,50,59,68,,65,57,9,19,10,7,1.1,0.8
2026-02-14T1100,3430A,119.5812,31.7256,常州市,金坛城区,细颗粒物(PM2.5),78,82,95,57,59,67,,69,60,12,18,10,9,1.2,0.8
2026-02-14T1100,4089A,119.9551,31.863,常州市,崇义南街5-H号,细颗粒物(PM2.5),67,76,82,48,43,78,,26,26,17,34,7,6,1.0,1
2026-02-14T1100,2220A,120.4318,41.588,朝阳市,西梁,颗粒物(PM10),111,172,124,37,91,81,,90,87,27,32,14,16,0.8,1.2
2026-02-14T1100,2221A,120.452,41.565,朝阳市,河畔小区,颗粒物(PM10),89,128,100,26,76,82,,98,92,15,24,10,15,0.6,1.1
2026-02-14T1100,2222A,120.4176,41.5648,朝阳市,八里堡,"颗粒物(PM10),细颗粒物(PM2.5)",90,130,102,67,93,83,,86,86,31,32,16,17,1.2,1.4
2026-02-14T1100,3026A,116.6179,23.6608,潮州市,市政府,颗粒物(PM10),53,55,49,20,30,88,,52,52,6,9,4,4,0.6,0.5
2026-02-14T1100,4036A,116.646,23.676,潮州市,金山,颗粒物(PM10),52,53,47,21,30,85,,45,45,8,10,2,3,0.7,0.6
2026-02-14T1100,2473A,113.0116,25.8228,郴州市,市职中,细颗粒物(PM2.5),87,70,63,64,54,7,,1,1,15,15,15,7,1.0,0.8
2026-02-14T1100,2475A,113.0381,25.8074,郴州市,市审计局,细颗粒物(PM2.5),97,77,70,72,53,12,,2,2,17,16,13,8,/,/
2026-02-14T1100,2476A,113.0348,25.7757,郴州市,市环保局,细颗粒物(PM2.5),95,75,76,71,55,21,,8,8,24,22,24,13,1.1,0.9
2026-02-14T1100,4252A,113.0138,25.8011,郴州市,好美居路49号,细颗粒物(PM2.5),69,63,57,50,51,23,,9,9,17,18,12,6,/,/
2026-02-14T1100,1431A,103.9727,30.7242,成都市,金泉两河,细颗粒物(PM2.5),114,115,97,86,69,64,,23,23,26,44,7,4,0.9,1.4
2026-02-14T1100,1432A,104.1423,30.6765,成都市,十里店,细颗粒物(PM2.5),144,125,99,110,65,46,,20,16,32,32,6,4,0.9,0.7
2026-02-14T1100,1433A,104.0594,30.5765,成都市,三瓦窑,细颗粒物(PM2.5),110,,82,83,57,41,,10,10,55,46,4,3,1.4,1
2026-02-14T1100,1434A,104.1122,30.6306,成都市,沙河铺,细颗粒物(PM2.5),148,125,89,113,64,37,,8,8,55,47,4,3,0.8,0.7
2026-02-14T1100,2880A,104.0219,30.6561,成都市,大石西路,细颗粒物(PM2.5),144,120,109,110,79,54,,12,12,30,42,8,6,0.9,0.9
2026-02-14T1100,3136A,104.2724,30.559,成都市,龙泉驿区区政府,细颗粒物(PM2.5),122,112,71,92,51,43,,80,65,38,14,7,7,0.9,0.5
2026-02-14T1100,3357A,104.0028,30.6891,成都市,金博路,细颗粒物(PM2.5),105,104,108,79,78,50,,16,16,35,45,10,5,0.9,0.9
2026-02-14T1100,3359A,104.056,30.5228,成都市,华阳,细颗粒物(PM2.5),113,105,88,85,62,33,,8,8,55,46,3,3,0.8,0.6
2026-02-14T1100,3488A,104.387954,30.746684,成都市,青石路225号,细颗粒物(PM2.5),99,81,75,74,54,67,,50,37,26,30,5,4,0.3,0.5
2026-02-14T1100,3489A,104.0788,30.4054,成都市,科学城,细颗粒物(PM2.5),72,64,67,52,48,30,,21,17,18,13,7,7,0.7,0.5
2026-02-14T1100,4011A,103.8505,30.6946,成都市,光华大道三段,细颗粒物(PM2.5),127,127,121,96,75,65,,30,30,27,38,7,4,0.8,0.9
2026-02-14T1100,4144A,104.3257,30.6406,成都市,八角井街185号,细颗粒物(PM2.5),117,,79,88,51,34,,71,45,43,23,5,4,0.9,0.6
2026-02-14T1100,4224A,104.2433276,30.53529463,成都市,鲸龙路1057号,细颗粒物(PM2.5),109,108,85,82,59,56,,58,52,34,23,6,6,0.9,0.7
2026-02-14T1100,1062A,117.9531,40.908,承德市,铁路,颗粒物(PM10),68,86,86,47,49,42,,19,19,29,38,9,8,1.0,1.1
2026-02-14T1100,1063A,117.9397,40.9763,承德市,中国银行,颗粒物(PM10),78,106,77,51,39,52,,27,27,24,30,5,6,0.9,1
2026-02-14T1100,4073A,117.9462,40.95,承德市,杏林街1号,颗粒物(PM10),75,99,74,54,43,53,,29,29,26,33,8,8,1.0,1
2026-02-14T1100,4274A,117.7994,40.9605,承德市,滨河大街98号,细颗粒物(PM2.5),124,169,80,94,45,44,,42,38,57,27,49,26,3.9,1
2026-02-14T1100,2314A,117.4698,30.6617,池州市,池州学院,细颗粒物(PM2.5),55,44,67,39,45,38,,24,24,17,23,13,15,1.5,1.5
2026-02-14T1100,3237A,117.4918,30.6617,池州市,展览馆,细颗粒物(PM2.5),54,49,72,38,46,37,,23,22,16,25,12,12,1.2,1.3
2026-02-14T1100,3333A,117.5626,30.695,池州市,第八中学,,42,35,64,29,38,44,,25,24,12,20,8,11,1.1,1.3
2026-02-14T1100,3334A,117.5037,30.6242,池州市,第十二中学,,45,37,64,31,42,39,,19,19,16,27,8,8,0.9,1.1
2026-02-14T1100,1744A,118.9229,42.2816,赤峰市,松山一中,,38,38,46,6,23,64,,73,66,14,18,5,5,0.6,0.7
2026-02-14T1100,1745A,118.9588,42.2733,赤峰市,哈达街,,38,38,47,11,23,65,,73,64,11,19,9,10,0.5,0.7
2026-02-14T1100,1746A,118.8792,42.2551,赤峰市,天义路,,34,34,32,3,19,68,,80,70,8,9,5,5,0.4,0.5
2026-02-14T1100,3058A,119.2656,42.0356,赤峰市,银河街,颗粒物(PM10),63,75,81,11,35,69,,69,64,6,12,12,13,0.4,0.8
2026-02-14T1100,3286A,118.9359,42.3146,赤峰市,桥北物流园区,,32,32,37,13,22,80,,89,80,4,10,5,4,0.4,0.5
2026-02-14T1100,2521A,107.3473,22.4137,崇左市,市环保局江州分局,细颗粒物(PM2.5),59,,66,42,43,30,,7,7,13,20,4,4,0.8,1.2
2026-02-14T1100,4256A,107.375,22.3736,崇左市,石景林东路7号,颗粒物(PM10),63,76,50,32,35,40,,14,14,15,20,2,2,1.0,1
2026-02-14T1100,3207A,118.31131,32.3033,滁州市,市政府原办公楼,细颗粒物(PM2.5),107,97,86,80,58,57,,24,23,33,29,6,6,0.8,0.6
2026-02-14T1100,3331A,118.3268,32.2633,滁州市,图书馆,细颗粒物(PM2.5),74,83,78,54,42,74,,36,29,15,24,10,9,0.8,0.7
2026-02-14T1100,4101A,118.3196,32.3335,滁州市,银山路666号,细颗粒物(PM2.5),104,82,82,78,62,65,,18,18,21,21,10,8,0.8,0.7
2026-02-14T1100,4102A,118.3426,32.2979,滁州市,黄山路555号,细颗粒物(PM2.5),112,102,96,84,58,66,,24,23,22,33,8,6,0.8,0.7
2026-02-14T1100,2606A,101.5379,25.0492,楚雄彝族自治州,市经济开发区,,42,34,29,29,19,59,,37,37,13,13,3,2,0.4,0.4
2026-02-14T1100,4153A,101.5536,25.0343,楚雄彝族自治州,团结路562号,,23,23,21,11,14,54,,37,34,16,9,4,4,0.7,0.5
2026-02-14T1100,2549A,107.5087,31.2186,达州市,市环境监测站,细颗粒物(PM2.5),87,90,103,64,75,40,,18,18,21,31,11,7,0.7,0.8
2026-02-14T1100,2550A,107.4988,31.2132,达州市,凤凰小区,细颗粒物(PM2.5),87,92,106,64,76,40,,23,23,22,41,11,6,0.5,0.7
2026-02-14T1100,2551A,107.5081,31.1987,达州市,达县机关宾馆,细颗粒物(PM2.5),84,85,102,62,73,48,,16,16,21,44,9,5,0.8,1
2026-02-14T1100,2552A,107.4644,31.2124,达州市,市政中心,细颗粒物(PM2.5),97,100,112,72,70,31,,13,13,36,50,8,5,0.9,1
2026-02-14T1100,2614A,100.2168,25.5818,大理白族自治州,大理市环境监测站,,25,16,14,14,10,77,,75,73,5,6,7,7,0.5,0.4
2026-02-14T1100,2615A,100.1542,25.7055,大理白族自治州,大理古城,,23,12,19,6,10,71,,62,59,8,8,8,8,0.5,0.5
2026-02-14T1100,1109A,121.6119,38.974,大连市,甘井子,细颗粒物(PM2.5),129,115,111,98,84,103,,111,103,17,18,6,7,0.6,0.6
2026-02-14T1100,1110A,121.565,38.9509,大连市,周水子,细颗粒物(PM2.5),142,128,128,108,101,89,,90,85,19,20,9,9,0.8,0.8
2026-02-14T1100,1111A,121.5637,38.8849,大连市,星海三站,细颗粒物(PM2.5),134,114,112,102,96,90,,92,83,14,14,5,3,0.8,0.8
2026-02-14T1100,1112A,121.6301,38.9117,大连市,青泥洼桥,细颗粒物(PM2.5),142,126,122,108,101,95,,97,90,22,21,8,8,1.1,1.2
2026-02-14T1100,1113A,121.6248,38.8643,大连市,傅家庄,细颗粒物(PM2.5),124,112,113,94,81,102,,97,90,13,16,9,8,0.7,0.7
2026-02-14T1100,1114A,121.5117,38.8636,大连市,七贤岭,细颗粒物(PM2.5),123,119,120,93,82,100,,99,93,17,17,9,8,0.9,0.9
2026-02-14T1100,1116A,121.7507,39.1339,大连市,金州,细颗粒物(PM2.5),110,87,102,83,76,96,,107,101,17,17,10,10,0.8,0.7
2026-02-14T1100,1117A,121.7811,39.0495,大连市,开发区,细颗粒物(PM2.5),119,110,111,90,78,94,,110,99,20,18,4,4,0.9,0.8
2026-02-14T1100,1118A,121.9762,39.0631,大连市,双D港,细颗粒物(PM2.5),95,106,84,71,63,107,,116,108,17,16,5,5,1.0,1
2026-02-14T1100,4082A,121.2548,38.8188,大连市,旅顺,细颗粒物(PM2.5),134,132,128,102,92,85,,89,82,13,12,9,8,0.9,0.9
2026-02-14T1100,1789A,124.8085,46.0381,大庆市,大同区,细颗粒物(PM2.5),145,133,106,111,75,61,,55,53,18,19,10,10,1.3,1.1
2026-02-14T1100,1790A,125.1166,46.5255,大庆市,龙凤区,细颗粒物(PM2.5),139,120,99,106,80,51,,63,54,35,27,12,9,0.6,0.5
2026-02-14T1100,1791A,124.8894,46.4007,大庆市,红岗区,细颗粒物(PM2.5),143,117,79,109,69,48,,47,42,24,19,9,12,1.2,0.9
2026-02-14T1100,1792A,125.1391,46.578,大庆市,萨尔图区,,,,,,,,,,,,,,,,
2026-02-14T1100,1793A,124.9026,46.6217,大庆市,让胡路区,细颗粒物(PM2.5),134,107,76,102,75,50,,48,41,18,25,10,9,0.9,0.8
2026-02-14T1100,3481A,125.127,46.6277,大庆市,萨区政府监测点,细颗粒物(PM2.5),125,140,102,95,68,67,,73,67,15,15,12,10,1.2,1
2026-02-14T1100,1723A,113.2926,40.0759,大同市,云冈宾馆,,32,32,109,3,50,64,,44,44,7,40,6,14,0.4,1.4
2026-02-14T1100,1724A,113.3437,40.0921,大同市,大同大学,,49,49,98,8,37,67,,57,57,7,27,6,16,0.4,0.8
2026-02-14T1100,1725A,113.2637,40.129,大同市,安家小村,,44,44,98,6,36,64,,55,55,7,25,8,17,0.2,0.9
2026-02-14T1100,3282A,113.3399,40.0586,大同市,大同市卫生学校,,42,42,104,8,43,71,,61,61,11,41,4,14,0.4,0.8
2026-02-14T1100,3565A,113.1371,40.1122,大同市,云冈站,颗粒物(PM10),55,60,86,17,31,66,,48,48,9,24,14,21,0.7,0.6
2026-02-14T1100,3566A,113.1186,40.2556,大同市,图书馆,颗粒物(PM10),59,68,83,12,32,68,,45,45,8,15,10,16,0.6,0.7
2026-02-14T1100,3567A,113.5931,40.0459,大同市,区一中,颗粒物(PM10),73,95,101,15,49,81,,53,53,5,20,10,27,0.3,0.8
2026-02-14T1100,4199A,113.2798248,40.09972476,大同市,魏都大道141号,,48,48,128,3,50,68,,49,49,5,40,6,15,0.4,1.6
2026-02-14T1100,2269A,124.1068,50.4091,大兴安岭地区,科技局,颗粒物(PM10),52,53,30,6,12,64,,61,60,5,8,6,9,0.3,0.3
2026-02-14T1100,3663A,124.117,50.4279,大兴安岭地区,红旗社区,,26,14,19,8,12,81,,82,79,2,10,6,9,0.2,0.3
2026-02-14T1100,1600A,124.33,40.0625,丹东市,江湾东路,细颗粒物(PM2.5),120,122,142,91,104,98,,80,80,18,21,8,10,1.0,1.1
2026-02-14T1100,1601A,124.4242,40.1513,丹东市,临江后街,细颗粒物(PM2.5),127,123,165,96,122,106,,50,50,14,24,12,12,1.2,1.6
2026-02-14T1100,1602A,124.3935,40.1461,丹东市,元宝山,细颗粒物(PM2.5),125,128,145,95,103,102,,72,72,23,22,17,11,1.2,1.2
2026-02-14T1100,1603A,124.3634,40.1093,丹东市,民主桥,细颗粒物(PM2.5),134,133,153,102,107,90,,68,68,22,25,14,14,0.8,1.1
2026-02-14T1100,3541A,109.5726195,19.51688767,儋州市,第一中学子站,,32,32,30,18,14,70,,52,52,2,2,4,4,0.6,0.6
2026-02-14T1100,3542A,109.5567,19.5187,儋州市,东坡学校子站,,29,29,28,18,15,77,,50,50,3,4,5,4,0.6,0.6
2026-02-14T1100,2616A,98.5611,24.4273,德宏傣族景颇族自治州,德宏州监测站,颗粒物(PM10),59,67,49,37,33,38,,18,18,27,26,8,7,0.7,0.6
2026-02-14T1100,3677A,98.5887,24.4366,德宏傣族景颇族自治州,芒市人民政府综合楼,颗粒物(PM10),57,64,51,36,25,35,,39,32,27,14,5,4,1.1,0.9
2026-02-14T1100,1901A,104.424,31.1209,德阳市,东山公园,细颗粒物(PM2.5),124,98,88,94,76,55,,78,61,19,16,2,2,0.7,0.6
2026-02-14T1100,1902A,104.3827,31.1318,德阳市,西小区,细颗粒物(PM2.5),125,122,121,95,95,47,,18,18,34,47,4,4,1.0,1
2026-02-14T1100,1904A,104.3553,31.1091,德阳市,耐火材料厂,细颗粒物(PM2.5),133,109,113,101,103,,,28,28,39,34,2,2,1.0,0.8
2026-02-14T1100,4145A,104.4144,31.1495,德阳市,市林业局,细颗粒物(PM2.5),130,101,101,99,81,45,,30,29,26,27,6,5,0.8,0.7
2026-02-14T1100,1622A,116.3034,37.4675,德州市,儿童乐园,细颗粒物(PM2.5),156,195,188,119,107,85,,85,79,28,27,22,19,1.2,1
2026-02-14T1100,1624A,116.2992,37.4449,德州市,监理站,细颗粒物(PM2.5),156,183,185,119,100,88,,87,80,34,33,23,19,1.3,1.1
2026-02-14T1100,3066A,116.2722,37.438,德州市,九衢泉纯净水厂,细颗粒物(PM2.5),153,168,177,117,103,87,,76,69,30,37,20,14,1.2,1.1
2026-02-14T1100,3371A,116.3693,37.44,德州市,开发区人民医院,细颗粒物(PM2.5),143,175,187,109,105,,,75,67,19,24,22,19,1.3,1
2026-02-14T1100,3511A,116.5687,37.3331,德州市,陵城艺术中心,细颗粒物(PM2.5),114,134,163,86,95,87,,73,73,26,29,13,16,1.0,1.1
2026-02-14T1100,4292A,116.352738,37.420875,德州市,新河东路,细颗粒物(PM2.5),134,163,182,102,103,82,,61,57,22,26,26,21,1.4,1.2
2026-02-14T1100,2621A,99.7054,27.8319,迪庆藏族自治州,迪庆州站,,,20,25,18,13,,,56,52,13,9,,5,0.8,0.7
2026-02-14T1100,3180A,99.7122,27.8129,迪庆藏族自治州,质量技术监督局,,29,29,24,13,13,63,,58,51,11,10,5,4,0.6,0.6
2026-02-14T1100,4257A,104.6092,35.5962,定西市,将台街,颗粒物(PM10),59,67,66,35,39,40,,20,20,20,22,20,17,1.2,0.9
2026-02-14T1100,4309A,104.6159,35.5701,定西市,正龙路62号,,,90,71,,37,20,,24,21,26,12,,14,,1
2026-02-14T1100,1390A,113.7943,23.0132,东莞市,东城石井,,35,35,41,23,25,112,,40,40,19,20,5,4,0.6,0.6
2026-02-14T1100,1391A,113.7384,22.9659,东莞市,南城西平,,33,25,37,23,25,94,,41,41,24,27,8,6,0.6,0.5
2026-02-14T1100,3319A,113.7283,23.041,东莞市,万江金泰,,39,39,51,25,27,100,,43,43,17,25,6,6,0.8,0.7
2026-02-14T1100,4129A,113.8666,23.1062,东莞市,裕兴路,,44,44,51,30,29,94,,48,48,14,21,6,6,0.7,0.8
2026-02-14T1100,4130A,114.0076,22.9739,东莞市,教育路1号,,38,38,46,26,25,108,,66,66,13,21,5,4,0.6,0.6
2026-02-14T1100,4131A,113.7981,22.8124,东莞市,长怡路1号,,33,21,41,10,22,104,,51,51,6,20,8,7,0.5,0.5
2026-02-14T1100,1666A,118.6612,37.4313,东营市,市环保局,细颗粒物(PM2.5),149,151,157,114,100,105,,54,54,36,35,44,24,1.3,1.2
2026-02-14T1100,3036A,118.6903,37.4337,东营市,开发区管委会,细颗粒物(PM2.5),140,149,154,107,93,105,,68,68,36,35,34,20,1.4,1
2026-02-14T1100,3365A,118.5721,37.5654,东营市,垦利区民丰路,细颗粒物(PM2.5),132,139,158,100,95,104,,63,63,35,40,13,16,1.1,1.1
2026-02-14T1100,3498A,118.5063,37.8606,东营市,河口城区,细颗粒物(PM2.5),149,180,173,114,100,108,,58,58,41,33,18,13,1.5,1.3
2026-02-14T1100,3646A,118.4979,37.4623,东营市,胜利站,细颗粒物(PM2.5),135,161,156,103,95,69,,44,44,48,41,18,17,1.6,1.4
2026-02-14T1100,3734A,118.5753,37.4405,东营市,理想之城,细颗粒物(PM2.5),130,149,161,99,91,86,,55,55,36,34,16,14,1.2,1.1
2026-02-14T1100,1591A,110.0024,39.8127,鄂尔多斯市,综合楼,颗粒物(PM10),60,70,83,7,20,68,,72,69,10,19,11,11,0.3,0.4
2026-02-14T1100,1592A,109.9485,39.8259,鄂尔多斯市,巴音孟克林场办事处,颗粒物(PM10),58,66,72,17,23,69,,74,70,10,14,10,9,0.4,0.4
2026-02-14T1100,1593A,109.7734,39.5987,鄂尔多斯市,康泽苑,颗粒物(PM10),69,88,70,14,22,68,,69,69,15,17,11,8,0.4,0.4
2026-02-14T1100,1594A,109.8121,39.5987,鄂尔多斯市,华泰汽车城,颗粒物(PM10),69,88,66,12,21,64,,58,58,16,18,12,10,0.4,0.5
2026-02-14T1100,1595A,109.9734,39.7884,鄂尔多斯市,奥林花园,颗粒物(PM10),62,73,78,9,21,69,,70,70,13,26,8,9,0.4,0.4
2026-02-14T1100,2436A,114.894,30.3989,鄂州市,市政府,细颗粒物(PM2.5),137,115,120,104,90,27,,8,8,45,48,28,17,1.2,1.3
2026-02-14T1100,2437A,114.8986,30.3714,鄂州市,赵家坝,细颗粒物(PM2.5),143,135,110,109,79,47,,17,17,34,30,14,15,1.5,1.4
2026-02-14T1100,3654A,114.8093,30.4091,鄂州市,精准医疗中心,细颗粒物(PM2.5),139,134,109,106,78,58,,25,23,44,35,66,22,1.7,1.2
2026-02-14T1100,2454A,109.4978,30.2979,恩施土家族苗族自治州,湖北民院,细颗粒物(PM2.5),72,57,76,52,61,31,,18,18,18,14,6,6,1.1,1
2026-02-14T1100,3549A,109.5061,30.3771,恩施土家族苗族自治州,龙凤新区,细颗粒物(PM2.5),64,59,70,46,50,48,,15,15,7,11,7,7,0.7,0.7
2026-02-14T1100,2499A,108.3411,21.6159,防城港市,沙万,细颗粒物(PM2.5),67,61,57,48,32,45,,29,29,20,21,7,6,0.8,0.6
2026-02-14T1100,2500A,108.3515,21.7733,防城港市,防城档案局,细颗粒物(PM2.5),80,75,50,59,34,43,,28,27,10,10,5,5,0.7,0.7
2026-02-14T1100,2501A,108.3506,21.6414,防城港市,大海花园,细颗粒物(PM2.5),69,56,45,50,33,65,,33,29,12,15,7,7,0.7,0.7
2026-02-14T1100,1371A,113.1293,23.0065,佛山市,湾梁,,,,41,,20,,,130,,,15,,,,
2026-02-14T1100,1372A,113.1082,23.0477,佛山市,华材职中,,39,39,40,24,24,100,,76,76,14,17,6,6,0.4,0.4
2026-02-14T1100,1373A,113.1439,23.045,佛山市,南海气象局,,45,45,40,22,24,99,,72,72,11,17,/,/,/,/
2026-02-14T1100,1374A,113.2879,22.8094,佛山市,顺德苏岗,,30,25,46,21,22,78,,65,59,21,17,/,/,0.7,0.7
2026-02-14T1100,1376A,112.8384,22.8678,佛山市,高明孔堂,,40,40,36,23,21,85,,54,53,10,11,/,/,/,/
2026-02-14T1100,1377A,112.8835,23.1584,佛山市,三水监测站,,41,41,47,26,29,87,,57,57,9,25,3,2,0.5,0.5
2026-02-14T1100,1378A,112.8668,23.185,佛山市,三水云东海,,38,37,43,26,23,93,,41,41,15,24,/,/,/,/
2026-02-14T1100,3625A,113.2568,22.7629,佛山市,容桂街道办,,36,36,36,22,22,91,,78,73,12,12,/,/,/,/
2026-02-14T1100,1282A,119.2681,26.0506,福州市,师大,,44,44,43,28,27,77,,55,47,13,18,4,4,0.6,0.6
2026-02-14T1100,1283A,119.2983,26.1028,福州市,五四北路,,42,41,41,29,32,82,,50,50,14,21,5,5,0.7,0.7
2026-02-14T1100,1284A,119.2648,26.0769,福州市,杨桥西路,,38,38,40,25,26,80,,53,47,11,18,4,4,/,/
2026-02-14T1100,3048A,119.5799,26.0937,福州市,九龙,细颗粒物(PM2.5),55,48,35,39,25,71,,39,39,18,16,5,4,0.7,0.7
2026-02-14T1100,3526A,119.5188,25.9666,福州市,吴航,,40,38,46,28,28,84,,50,50,16,20,5,5,0.7,0.7
2026-02-14T1100,4104A,119.3106,26.0648,福州市,路通桥巷6号,,49,49,47,32,32,68,,51,45,19,21,/,/,/,/
2026-02-14T1100,1755A,123.7974,41.8494,抚顺市,望花区,细颗粒物(PM2.5),102,120,147,76,92,104,,106,106,24,30,19,24,1.2,1.5
2026-02-14T1100,1756A,123.9161,41.8827,抚顺市,顺城区,细颗粒物(PM2.5),99,114,135,74,104,108,,62,62,27,45,19,16,1.3,1.4
2026-02-14T1100,1757A,124.0437,41.8615,抚顺市,东洲区,细颗粒物(PM2.5),95,124,135,71,83,100,,110,110,29,22,16,21,1.1,1.1
2026-02-14T1100,1758A,123.9246,41.8638,抚顺市,新抚区,细颗粒物(PM2.5),107,130,152,80,94,114,,96,96,25,35,15,13,1.2,1.2
2026-02-14T1100,1759A,124.0972,41.8961,抚顺市,大伙房水库,细颗粒物(PM2.5),93,111,122,69,82,115,,122,122,20,17,14,14,1.1,1.1
2026-02-14T1100,1760A,123.708,41.8386,抚顺市,沈抚新城,细颗粒物(PM2.5),104,116,139,78,87,107,,110,110,22,25,13,14,1.0,1.2
2026-02-14T1100,2377A,116.3544,27.9833,抚州市,市站,细颗粒物(PM2.5),62,,48,44,43,29,,24,24,13,14,4,6,1.3,1.3
2026-02-14T1100,2378A,116.3562,27.9631,抚州市,血防站,细颗粒物(PM2.5),63,,47,45,38,23,,18,17,12,10,6,6,1.4,1.5
2026-02-14T1100,2379A,116.3561,28.0007,抚州市,采茶剧团,细颗粒物(PM2.5),57,,51,40,43,22,,17,17,9,7,4,4,1.4,1.5
2026-02-14T1100,2380A,116.3854,27.9648,抚州市,医学分院,,43,31,46,30,32,25,,20,20,10,11,4,5,1.4,1.4
2026-02-14T1100,2207A,121.6095,41.9978,阜新市,工业园区,颗粒物(PM10),100,150,143,52,114,71,,83,78,16,24,12,19,0.7,1.1
2026-02-14T1100,2208A,121.6567,42.0188,阜新市,长青街,细颗粒物(PM2.5),82,90,129,60,116,72,,83,80,20,30,10,18,0.8,1.2
2026-02-14T1100,2209A,121.6672,42.07,阜新市,农业园区,颗粒物(PM10),72,94,151,3,99,70,,78,76,11,25,7,18,0.2,0.9
2026-02-14T1100,2211A,121.6343,42.0455,阜新市,玉龙新城,颗粒物(PM10),87,123,146,32,103,76,,78,76,14,28,13,20,0.5,1.1
2026-02-14T1100,2301A,115.8276,32.8929,阜阳市,市监测站,颗粒物(PM10),79,107,92,44,46,82,,83,80,12,20,7,6,0.7,0.8
2026-02-14T1100,2303A,115.8551,32.8606,阜阳市,开发区,细颗粒物(PM2.5),78,64,94,57,54,83,,67,67,7,17,8,6,0.6,0.6
2026-02-14T1100,2875A,115.783962,32.889217,阜阳市,阜阳职业技术学院,颗粒物(PM10),66,81,84,42,45,84,,84,82,13,18,8,7,0.8,0.8
2026-02-14T1100,3468A,115.79,32.8614,阜阳市,市规划展馆,颗粒物(PM10),79,107,90,47,48,82,,86,82,9,12,8,7,0.9,0.8
2026-02-14T1100,3469A,115.835101,32.918568,阜阳市,枣园社区,颗粒物(PM10),66,81,86,47,43,82,,81,80,12,23,8,8,0.7,0.6
2026-02-14T1100,2669A,102.9097,34.9841,甘南藏族自治州,州政府,,43,43,37,30,23,44,,22,22,22,19,12,10,1.0,0.7
2026-02-14T1100,3380A,102.8915,34.9618,甘南藏族自治州,甘肃民族师范学院,颗粒物(PM10),53,56,33,30,12,47,,33,33,25,17,17,10,0.7,0.4
2026-02-14T1100,2570A,101.96,30.048,甘孜藏族自治州,水桥子,,14,6,11,3,4,44,,51,48,24,9,7,6,0.6,0.3
2026-02-14T1100,3065A,101.9534,29.9976,甘孜藏族自治州,州环保局,,22,6,9,3,5,68,,75,72,11,4,7,6,0.3,0.2
2026-02-14T1100,2363A,114.9368,25.8663,赣州市,地委,细颗粒物(PM2.5),55,49,51,39,38,72,,,,16,26,8,8,1.0,1
2026-02-14T1100,2364A,114.946,25.8483,赣州市,气象台,细颗粒物(PM2.5),60,47,52,43,37,62,,34,34,32,28,8,6,0.6,0.6
2026-02-14T1100,2365A,114.932,25.8332,赣州市,市图书馆,细颗粒物(PM2.5),60,,48,43,33,51,,31,31,22,26,4,4,1.0,1.1
2026-02-14T1100,2366A,114.8905,25.8472,赣州市,华坚鞋城,颗粒物(PM10),51,51,45,30,31,65,,27,27,25,24,7,6,0.6,0.6
2026-02-14T1100,3109A,115.0094,25.8614,赣州市,赣县区卫计委,颗粒物(PM10),54,58,51,35,35,76,,32,32,22,28,8,8,0.8,0.8
2026-02-14T1100,2684A,106.2753,36.0057,固原市,监测站,颗粒物(PM10),155,260,102,45,29,75,,76,71,4,14,7,9,0.4,0.5
2026-02-14T1100,2685A,106.2384,36.0189,固原市,新区,颗粒物(PM10),160,270,89,47,23,75,,79,72,5,16,6,6,0.3,0.3
2026-02-14T1100,2544A,106.6307,30.4577,广安市,市委,细颗粒物(PM2.5),114,100,103,86,82,53,,28,28,23,41,7,6,1.1,1.2
2026-02-14T1100,2545A,106.6266,30.4662,广安市,友谊中学,细颗粒物(PM2.5),98,84,94,73,68,44,,22,22,22,29,9,9,1.2,1.1
2026-02-14T1100,2547A,106.6386,30.4551,广安市,广电花园,细颗粒物(PM2.5),117,,89,88,86,,,20,20,16,35,7,6,0.8,1.1
2026-02-14T1100,2902A,106.6347,30.4868,广安市,北辰小学,细颗粒物(PM2.5),115,95,92,87,80,39,,27,22,22,21,11,10,1.2,1
2026-02-14T1100,2524A,105.8211,32.4444,广元市,老城,细颗粒物(PM2.5),90,101,83,67,52,37,,39,32,37,36,15,10,1.0,0.7
2026-02-14T1100,2526A,105.8629,32.429,广元市,监测站,细颗粒物(PM2.5),94,80,67,70,49,37,,43,36,23,20,21,12,1.0,0.6
2026-02-14T1100,3617A,105.8047,32.4167,广元市,经开区,细颗粒物(PM2.5),115,115,91,87,63,28,,26,19,28,27,68,14,1.5,0.9
2026-02-14T1100,1345A,113.2346,23.1423,广州市,广雅中学,,33,33,43,19,26,87,,65,65,14,22,3,3,0.7,0.6
2026-02-14T1100,1346A,113.2611,23.105,广州市,市五中,,35,35,44,18,24,108,,72,72,12,22,7,7,/,/
2026-02-14T1100,1348A,113.3477,23.0916,广州市,广东商学院,,33,29,38,23,27,92,,58,58,18,19,7,5,0.8,0.8
2026-02-14T1100,1349A,113.4332,23.105,广州市,市八十六中,,39,39,36,24,21,100,,56,56,25,43,7,5,/,/
2026-02-14T1100,1350A,113.3506,22.9488,广州市,番禺中学,,47,47,60,22,23,80,,60,60,18,17,5,3,0.7,0.7
2026-02-14T1100,1351A,113.2147,23.3918,广州市,花都师范,,50,50,53,32,33,79,,36,36,37,39,8,6,0.8,0.8
2026-02-14T1100,1352A,113.2599,23.1329,广州市,市监测站,,34,34,43,19,25,94,,62,62,13,25,2,1,/,/
2026-02-14T1100,1353A,113.5618,23.3119,广州市,九龙镇镇龙,,,64,48,48,30,44,,29,29,18,21,,5,0.6,0.6
2026-02-14T1100,1354A,113.2764,23.1544,广州市,麓湖,,30,30,40,21,23,96,,36,36,14,35,5,3,0.5,0.5
2026-02-14T1100,2846A,113.3209,23.1323,广州市,体育西,,40,40,45,23,27,88,,56,56,26,35,8,6,0.9,0.9
2026-02-14T1100,3298A,113.5718,23.5493,广州市,从化街口,细颗粒物(PM2.5),53,54,48,37,31,99,,38,38,16,22,8,7,0.6,0.7
2026-02-14T1100,3299A,113.3463,23.369,广州市,白云竹料,,45,45,55,29,36,92,,37,37,16,26,4,3,0.6,0.7
2026-02-14T1100,3300A,113.2981,23.2365,广州市,白云嘉禾,,33,33,44,21,25,102,,64,64,18,28,6,5,/,/
2026-02-14T1100,3301A,113.4256,23.1716,广州市,黄埔科学城,细颗粒物(PM2.5),69,62,41,50,29,91,,41,41,27,23,7,4,0.7,0.6
2026-02-14T1100,3302A,113.3942,23.0485,广州市,番禺大学城,颗粒物(PM10),52,53,59,34,26,91,,59,59,18,19,9,8,0.6,0.6
2026-02-14T1100,3303A,113.4923,22.8169,广州市,南沙黄阁,,39,38,36,27,23,72,,68,56,22,17,6,5,/,/
2026-02-14T1100,3304A,113.534,22.7893,广州市,南沙街,,41,41,38,26,22,77,,68,59,23,15,5,5,0.6,0.5
2026-02-14T1100,3443A,113.2905,23.5541,广州市,花都梯面,,36,36,37,24,26,84,,28,28,9,20,5,4,/,/
2026-02-14T1100,3445A,113.786,23.7479,广州市,从化良口,,28,27,27,19,19,87,,43,43,8,8,8,8,/,/
2026-02-14T1100,3446A,113.805,23.2614,广州市,增城荔城,细颗粒物(PM2.5),60,59,42,43,27,101,,46,46,15,18,6,6,0.5,0.6
2026-02-14T1100,2506A,109.604387,23.066791,贵港市,江南子站,细颗粒物(PM2.5),115,100,100,87,73,57,,11,11,12,30,7,6,0.8,1.1
2026-02-14T1100,2508A,109.5669,23.1065,贵港市,荷城子站,细颗粒物(PM2.5),110,105,91,83,65,56,,15,15,25,38,10,7,1.0,1.2
2026-02-14T1100,3405A,109.5886,23.1172,贵港市,新世纪学校,细颗粒物(PM2.5),134,,96,102,79,67,,14,14,28,46,/,/,0.8,1.2
2026-02-14T1100,4260A,109.5933,23.095,贵港市,中山路155-3号,细颗粒物(PM2.5),135,108,120,103,100,57,,12,12,14,33,/,/,0.8,1.3
2026-02-14T1100,1439A,106.6863,26.6035,贵阳市,马鞍山,细颗粒物(PM2.5),53,41,44,37,31,31,,10,10,18,17,11,8,/,/
2026-02-14T1100,1441A,106.6241,26.6266,贵阳市,鉴湖路,,46,46,48,24,30,40,,42,42,14,16,13,8,0.7,0.6
2026-02-14T1100,1442A,106.7468,26.6344,贵阳市,燕子冲,,48,41,50,33,34,37,,15,10,19,22,12,10,0.7,0.6
2026-02-14T1100,1443A,106.6556,26.4362,贵阳市,碧云窝,,39,39,58,18,36,43,,16,16,10,14,16,13,/,/
2026-02-14T1100,1445A,106.6963,26.6063,贵阳市,红边门,细颗粒物(PM2.5),54,44,60,38,47,27,,10,10,26,38,15,29,/,/
2026-02-14T1100,1446A,106.7162383,26.56964667,贵阳市,新华路,,43,36,66,30,42,38,,16,16,21,39,12,18,0.6,0.8
2026-02-14T1100,1447A,106.6742,26.542,贵阳市,太慈桥,,49,36,49,34,36,25,,29,24,20,21,5,5,/,/
2026-02-14T1100,4230A,106.688212,26.56952,贵阳市,花果园大街66号,,46,,54,32,43,21,,7,7,19,33,10,10,/,/
2026-02-14T1100,4231A,106.687268,26.516892,贵阳市,漓江路57号,,46,,59,32,41,37,,11,11,13,24,17,17,0.7,0.8
2026-02-14T1100,1864A,110.3091,25.2705,桂林市,龙隐路小学,细颗粒物(PM2.5),55,52,44,39,35,6,,2,2,21,23,4,3,1.2,1.3
2026-02-14T1100,1865A,110.2849361,25.22909545,桂林市,八中,,49,44,42,34,32,4,,1,1,21,25,4,3,1.2,1.2
2026-02-14T1100,3531A,110.296,25.1254,桂林市,旅游学院,,50,37,40,35,33,6,,2,2,16,18,5,4,1.1,1.1
2026-02-14T1100,4222A,110.1835,25.2444,桂林市,环湖路276号,"颗粒物(PM10),细颗粒物(PM2.5)",52,53,39,36,36,6,,2,2,23,29,8,4,1.4,1.3
2026-02-14T1100,4301A,110.2803,25.2773,桂林市,信义路13号,细颗粒物(PM2.5),55,48,44,39,34,6,,2,2,23,24,7,5,1.8,1.7
2026-02-14T1100,2674A,100.2262,34.4854,果洛藏族自治州,玛沁县大武镇,,22,22,26,8,10,62,,49,45,4,2,24,16,0.9,0.4
2026-02-14T1100,1130A,126.5557,45.8109,哈尔滨市,松北商大,细颗粒物(PM2.5),117,125,104,88,81,83,,55,55,23,40,16,11,1.1,1.1
2026-02-14T1100,1132A,126.6162,45.719,哈尔滨市,南岗学府路,细颗粒物(PM2.5),113,132,113,85,76,83,,83,83,18,31,14,13,1.2,1.1
2026-02-14T1100,1133A,126.6894,45.7733,哈尔滨市,太平宏伟公园,细颗粒物(PM2.5),117,142,114,88,85,97,,80,80,9,18,15,15,1.1,1.1
2026-02-14T1100,1134A,126.6361,45.7672,哈尔滨市,道外承德广场,细颗粒物(PM2.5),122,145,123,92,80,80,,82,82,29,38,18,14,1.2,1.2
2026-02-14T1100,1136A,126.644,45.7261,哈尔滨市,动力和平路,细颗粒物(PM2.5),117,131,109,88,78,89,,82,82,24,35,18,14,1.1,1
2026-02-14T1100,1137A,126.5933,45.7479,哈尔滨市,道里建国路,细颗粒物(PM2.5),118,132,97,89,83,82,,80,80,30,46,15,14,,2.2
2026-02-14T1100,1138A,126.6127,45.6119,哈尔滨市,平房东轻厂,细颗粒物(PM2.5),114,118,99,86,80,95,,98,98,14,19,13,11,1.0,0.9
2026-02-14T1100,1139A,126.5875,45.9827,哈尔滨市,呼兰师专,细颗粒物(PM2.5),117,140,108,88,85,79,,66,66,20,26,22,17,1.3,1.2
2026-02-14T1100,1140A,126.6299,45.6799,哈尔滨市,省农科院,细颗粒物(PM2.5),122,145,120,92,82,90,,68,68,16,31,19,17,1.1,1
2026-02-14T1100,4282A,126.6769,45.7379,哈尔滨市,华山路1号,细颗粒物(PM2.5),114,146,114,86,83,,,,,,43,11,10,1.3,1.3
2026-02-14T1100,4283A,126.9717,45.5356,哈尔滨市,解放大街52号,细颗粒物(PM2.5),98,100,88,73,84,109,,101,101,18,24,20,21,0.9,1.1
2026-02-14T1100,2688A,93.5124,42.8176,哈密市,地区监测站,颗粒物(PM10),77,104,100,38,47,58,,56,56,12,14,6,8,0.1,0.3
2026-02-14T1100,2689A,93.5014,42.8312,哈密市,哈密师范学校,颗粒物(PM10),151,252,108,51,35,48,,62,58,34,21,5,8,0.7,0.5
2026-02-14T1100,2671A,100.9016,36.9464,海北藏族自治州,海晏县西海镇,,21,21,19,8,8,64,,57,57,3,1,9,8,0.4,0.4
2026-02-14T1100,3867A,102.074,36.5056,海东市,平安区公安局北苑,细颗粒物(PM2.5),67,60,41,48,23,25,,32,26,45,18,34,15,2.4,1
2026-02-14T1100,4163A,102.0984,36.5119,海东市,滨河路,细颗粒物(PM2.5),70,72,38,51,24,37,,25,25,40,29,35,11,1.9,0.8
2026-02-14T1100,1410A,110.3189,20.0596,海口市,海南大学,,31,26,37,13,18,99,,92,92,4,5,5,5,0.4,0.4
2026-02-14T1100,1411A,110.2827,20.0051,海口市,秀英海南医院,,32,32,37,14,17,92,,86,86,4,5,7,7,0.3,0.3
2026-02-14T1100,1412A,110.3391,19.9979,海口市,海南师范大学,,34,34,38,15,20,98,,91,91,5,6,5,5,0.4,0.5
2026-02-14T1100,1413A,110.3303,20.0359,海口市,龙华路环保局宿舍,,40,40,39,15,20,102,,94,94,6,6,/,/,0.7,0.7
2026-02-14T1100,3539A,110.5111,19.9737,海口市,桂林洋子站,,30,23,36,12,18,93,,85,85,3,4,/,/,/,/
2026-02-14T1100,4134A,110.1952,20.0451,海口市,长滨二路9号,,31,28,33,16,19,99,,82,82,4,7,/,/,/,/
2026-02-14T1100,2673A,100.6158,36.2985,海南藏族自治州,共和县恰卜恰镇,,32,32,33,21,18,59,,42,40,16,14,12,10,0.6,0.5
2026-02-14T1100,2676A,97.373,37.376,海西蒙古族藏族自治州,德令哈市,,40,40,24,3,8,88,,93,91,2,3,18,19,0.3,0.4
2026-02-14T1100,1049A,114.492,36.5712,邯郸市,矿院,细颗粒物(PM2.5),133,132,154,101,117,85,,50,50,26,28,15,9,1.4,1.1
2026-02-14T1100,1050A,114.4839,36.6136,邯郸市,丛台公园,细颗粒物(PM2.5),143,145,152,109,110,87,,63,63,39,34,17,13,1.8,1.2
2026-02-14T1100,3458A,114.7893,36.5592,邯郸市,香泉濮院小区,细颗粒物(PM2.5),127,172,198,96,119,92,,81,72,17,21,11,12,1.1,1.1
2026-02-14T1100,3580A,114.1998,36.4439,邯郸市,峰峰矿区临水派出所,颗粒物(PM10),58,66,89,24,47,88,,109,102,12,9,9,12,0.8,0.9
2026-02-14T1100,4068A,114.5209,36.7697,邯郸市,建安街268号,细颗粒物(PM2.5),120,136,149,91,104,67,,50,45,32,35,19,11,1.7,1
2026-02-14T1100,4069A,114.5488,36.6177,邯郸市,丛台东路558号,细颗粒物(PM2.5),144,156,175,110,134,85,,58,58,30,29,18,11,1.5,1.1
2026-02-14T1100,2635A,107.0155,33.0707,汉中市,市监测站,细颗粒物(PM2.5),113,103,102,85,72,31,,18,16,34,32,6,7,1.6,1.3
2026-02-14T1100,2636A,107.0083,33.114,汉中市,鑫源开发区,细颗粒物(PM2.5),77,98,90,56,67,40,,21,21,21,28,5,5,0.9,1.1
2026-02-14T1100,2637A,107.0072,33.0323,汉中市,南郑大河坎水厂,细颗粒物(PM2.5),100,109,96,75,65,36,,17,16,24,25,6,7,1.2,1.1
2026-02-14T1100,1223A,120.2073,30.2111,杭州市,滨江,细颗粒物(PM2.5),72,61,81,52,55,15,,20,17,24,31,7,7,0.8,0.8
2026-02-14T1100,1224A,120.0625,30.2737,杭州市,西溪,,47,47,73,28,44,29,,8,8,14,23,9,8,1.3,1.2
2026-02-14T1100,1226A,120.3417,30.315,杭州市,下沙,颗粒物(PM10),59,68,88,38,53,35,,26,25,15,25,9,10,0.6,0.6
2026-02-14T1100,1227A,120.1252,30.2465,杭州市,卧龙桥,细颗粒物(PM2.5),55,53,64,39,42,27,,10,10,19,22,8,8,0.7,0.7
2026-02-14T1100,1228A,120.1902,30.2691,杭州市,浙江农大,细颗粒物(PM2.5),55,41,68,39,44,26,,17,17,27,32,6,6,0.9,0.9
2026-02-14T1100,1230A,120.1195,30.3121,杭州市,和睦小学,,43,42,74,30,48,37,,17,17,11,26,5,5,0.7,0.8
2026-02-14T1100,1231A,120.3076,30.4146,杭州市,临平镇,,38,36,79,26,53,50,,21,21,11,28,7,7,0.7,0.9
2026-02-14T1100,1232A,120.2753,30.1839,杭州市,城厢镇,细颗粒物(PM2.5),77,71,89,56,59,22,,26,21,22,28,8,8,1.0,0.9
2026-02-14T1100,1233A,120.0883,30.1808,杭州市,云栖,细颗粒物(PM2.5),58,55,64,41,37,31,,9,9,28,29,5,5,0.8,0.7
2026-02-14T1100,3557A,119.9463,30.0496,杭州市,镇二中,细颗粒物(PM2.5),54,44,74,38,57,36,,20,20,16,32,6,5,0.9,1
2026-02-14T1100,3558A,119.7184,30.2367,杭州市,市府大楼,细颗粒物(PM2.5),52,37,65,36,50,26,,24,22,15,21,12,11,0.8,0.9
2026-02-14T1100,3656A,120.1554,30.2863,杭州市,消防大队,颗粒物(PM10),55,59,84,32,52,27,,15,12,17,29,6,7,1.0,0.9
2026-02-14T1100,1270A,117.1957,31.7845,合肥市,明珠广场,细颗粒物(PM2.5),83,88,87,61,50,62,,33,32,25,25,8,7,0.8,0.8
2026-02-14T1100,1271A,117.307,31.8765,合肥市,三里街,细颗粒物(PM2.5),94,100,90,70,57,40,,24,19,38,35,6,6,1.1,1
2026-02-14T1100,1272A,117.2587,31.8703,合肥市,琥珀山庄,细颗粒物(PM2.5),78,92,86,57,52,66,,21,21,28,38,7,7,1.0,1
2026-02-14T1100,1275A,117.2593,31.9376,合肥市,庐阳区,细颗粒物(PM2.5),78,95,90,57,49,79,,32,30,25,29,12,11,1.0,0.9
2026-02-14T1100,1276A,117.345251,31.861615,合肥市,瑶海区,细颗粒物(PM2.5),80,75,83,59,47,50,,39,34,26,34,6,6,0.8,0.6
2026-02-14T1100,1277A,117.3033,31.7967,合肥市,包河区,细颗粒物(PM2.5),83,80,85,61,49,58,,24,24,12,25,9,10,1.1,0.9
2026-02-14T1100,1278A,117.278,31.7392,合肥市,滨湖新区,细颗粒物(PM2.5),98,80,86,73,51,50,,28,24,12,20,4,4,0.8,0.8
2026-02-14T1100,1279A,117.1324,31.8395,合肥市,高新区,细颗粒物(PM2.5),79,88,87,58,50,78,,55,55,16,13,5,5,0.8,0.7
2026-02-14T1100,3464A,117.3802,31.9148,合肥市,高教基地,细颗粒物(PM2.5),79,88,75,58,43,68,,40,39,22,19,9,8,0.8,0.7
2026-02-14T1100,4098A,117.2518,31.8404,合肥市,中国科学技术大学,细颗粒物(PM2.5),82,85,87,60,50,67,,30,30,20,24,8,8,1.0,0.9
2026-02-14T1100,3614A,79.9241,37.0878,和田地区,地区环保局,颗粒物(PM10),169,288,407,70,107,40,,47,46,25,25,4,4,1.9,2.1
2026-02-14T1100,3615A,79.9132,37.1137,和田地区,市环保局,颗粒物(PM10),209,356,424,76,119,31,,40,40,46,42,5,4,1.4,1.4
2026-02-14T1100,2517A,108.0496,24.6957,河池市,市环保站,,24,24,24,7,11,8,,2,2,12,12,2,2,1.0,1.1
2026-02-14T1100,4302A,108.0901,24.6945,河池市,上任中路54号,,20,20,22,6,9,3,,0,0,16,17,4,4,0.9,1
2026-02-14T1100,1697A,114.6962,23.7538,河源市,东埔,,42,36,44,29,32,107,,77,77,12,20,7,6,0.7,0.8
2026-02-14T1100,1698A,114.6895,23.7232,河源市,老城,,39,,41,27,26,108,,75,75,11,11,8,6,0.6,0.6
2026-02-14T1100,3374A,115.5562,35.089,菏泽市,定陶老年大学,细颗粒物(PM2.5),147,136,166,112,104,86,,68,64,18,23,7,7,0.8,0.8
2026-02-14T1100,4114A,115.4239,35.2593,菏泽市,黄河路600号,细颗粒物(PM2.5),155,161,178,118,109,73,,69,62,17,20,7,9,0.8,0.8
2026-02-14T1100,4115A,115.5025,35.2727,菏泽市,菏泽市人社局,细颗粒物(PM2.5),139,150,163,106,95,81,,80,73,21,25,8,10,0.8,0.8
2026-02-14T1100,4184A,115.479691,35.244011,菏泽市,永昌路1号,细颗粒物(PM2.5),158,157,167,120,102,85,,85,76,16,18,6,8,0.8,0.8
2026-02-14T1100,4193A,115.471542,35.280012,菏泽市,长城路999号,细颗粒物(PM2.5),147,149,164,112,96,83,,87,76,17,19,10,10,0.9,0.9
2026-02-14T1100,2514A,111.5264,24.4178,贺州市,环保小区,,36,36,71,24,51,30,,13,13,12,23,3,4,0.2,0.7
2026-02-14T1100,2515A,111.561,24.4074,贺州市,政协大楼,,,,60,,49,,,35,,,17,,4,,0.9
2026-02-14T1100,3534A,111.4744,24.455,贺州市,西湾,,42,30,82,29,43,31,,8,8,14,20,4,5,0.8,1
2026-02-14T1100,2385A,114.17,35.9019,鹤壁市,市监测站,细颗粒物(PM2.5),97,105,129,72,81,72,,71,56,38,37,12,11,1.2,1.2
2026-02-14T1100,2386A,114.2953,35.7512,鹤壁市,市交警支队,细颗粒物(PM2.5),114,152,168,86,106,74,,46,44,32,34,10,13,1.2,1.2
2026-02-14T1100,2387A,114.2877,35.7302,鹤壁市,迎宾馆,细颗粒物(PM2.5),120,156,167,91,103,76,,59,48,29,30,15,13,1.3,1.3
2026-02-14T1100,3474A,114.2616,35.6824,鹤壁市,大新区,细颗粒物(PM2.5),102,150,174,76,108,81,,50,44,27,37,18,16,1.3,1.5
2026-02-14T1100,3596A,114.1573,35.9607,鹤壁市,南山宾馆,颗粒物(PM10),72,94,150,44,87,96,,109,102,14,15,18,23,0.8,1.2
2026-02-14T1100,2244A,130.2537,47.3416,鹤岗市,哈啤分公司,,29,24,44,16,39,91,,94,94,9,17,10,9,0.2,0.4
2026-02-14T1100,2245A,130.2683,47.3087,鹤岗市,斯达机电,,36,36,50,12,34,80,,78,78,13,17,9,9,0.6,0.6
2026-02-14T1100,2246A,130.3114,47.3388,鹤岗市,东山纸板厂,,28,28,66,9,42,80,,72,72,10,30,11,13,0.9,1.3
2026-02-14T1100,2263A,127.4832,50.2524,黑河市,交通局,,30,30,48,14,25,70,,69,69,16,26,7,7,0.3,0.4
2026-02-14T1100,2264A,127.5146,50.2339,黑河市,环保局,,27,27,43,16,30,61,,63,61,22,26,7,13,0.5,0.7
2026-02-14T1100,1074A,115.6839,37.754,衡水市,电机北厂,细颗粒物(PM2.5),160,205,191,122,111,84,,99,87,34,26,9,11,1.1,0.9
2026-02-14T1100,1075A,115.6303,37.7318,衡水市,市监测站,细颗粒物(PM2.5),129,177,182,98,105,88,,78,72,25,27,13,12,1.0,0.9
2026-02-14T1100,3188A,115.6684,37.7216,衡水市,市城管局,细颗粒物(PM2.5),128,185,187,97,100,87,,86,77,22,22,17,17,1.1,0.9
2026-02-14T1100,3459A,115.599,37.5491,衡水市,地表水厂,细颗粒物(PM2.5),169,175,194,128,126,86,,54,54,19,33,14,13,0.9,0.9
2026-02-14T1100,2457A,112.6209,26.9268,衡阳市,衡阳化工总厂,细颗粒物(PM2.5),79,81,70,58,59,18,,5,5,15,26,13,11,1.9,1.8
2026-02-14T1100,2458A,112.621,26.8957,衡阳市,珠晖区环保局,细颗粒物(PM2.5),60,58,64,43,55,25,,8,8,9,27,6,7,1.5,2
2026-02-14T1100,2459A,112.628,26.8654,衡阳市,市委党校,细颗粒物(PM2.5),73,59,58,53,51,25,,8,8,6,20,8,10,1.3,1.7
2026-02-14T1100,2460A,112.6007,26.8977,衡阳市,市监测站,细颗粒物(PM2.5),75,66,68,55,60,20,,5,5,12,27,8,8,1.5,1.9
2026-02-14T1100,2461A,112.5658,26.9013,衡阳市,真空机电公司,细颗粒物(PM2.5),75,56,57,55,54,18,,5,5,16,27,9,7,1.7,1.8
2026-02-14T1100,3399A,112.6703,26.8817,衡阳市,师范学院,,,81,61,58,46,,,8,8,14,25,4,4,1.3,1.6
2026-02-14T1100,3038A,103.3757,23.3679,红河哈尼族彝族自治州,州图书馆,,30,,26,21,21,78,,68,66,4,4,2,2,0.6,0.7
2026-02-14T1100,4154A,103.401,23.3561,红河哈尼族彝族自治州,蒙自市朝阳路,,29,,18,20,21,81,,64,62,2,3,6,6,0.4,0.5
2026-02-14T1100,1090A,111.6506,40.7517,呼和浩特市,呼市一监,,24,17,85,3,37,76,,70,70,11,31,10,12,0.3,0.6
2026-02-14T1100,1094A,111.7516,40.8369,呼和浩特市,如意水处理厂,,23,17,80,6,34,72,,69,69,9,36,11,14,0.2,0.6
2026-02-14T1100,1095A,111.727798,40.806187,呼和浩特市,二十九中,,24,24,82,6,33,72,,65,65,3,32,12,15,0.3,0.5
2026-02-14T1100,1097A,111.717,40.7617,呼和浩特市,化肥厂生活区,,24,18,89,6,42,75,,67,67,10,33,7,10,0.2,0.6
2026-02-14T1100,3699A,111.6519,40.8389,呼和浩特市,海东办,,24,22,86,6,36,74,,69,69,7,32,7,11,0.4,0.7
2026-02-14T1100,4275A,111.591512,40.827312,呼和浩特市,成吉思汗西街8号,,21,14,83,6,31,66,,66,64,6,23,8,9,0.3,0.5
2026-02-14T1100,4276A,111.6597,40.8077,呼和浩特市,公园东路75号,,22,22,91,7,36,69,,65,65,10,38,9,13,0.4,0.8
2026-02-14T1100,4277A,111.5427,40.7846,呼和浩特市,金海路35号,,37,37,86,6,33,74,,73,72,8,29,8,11,0.0,0.3
2026-02-14T1100,3061A,119.7511,49.1576,呼伦贝尔市,国华电力东,,25,15,31,9,14,78,,77,77,16,18,3,5,0.3,0.4
2026-02-14T1100,4279A,119.7569,49.2222,呼伦贝尔市,伊敏大街东7号,,27,27,28,6,17,76,,77,77,9,16,7,8,0.2,0.3
2026-02-14T1100,1250A,120.075,30.867,湖州市,城西水厂,,38,37,95,26,61,74,,33,33,17,39,6,6,0.5,0.7
2026-02-14T1100,2873A,120.083,30.8929,湖州市,仁皇山新区,,40,40,88,26,58,71,,34,34,13,39,6,6,0.5,0.7
2026-02-14T1100,2907A,120.1846,30.8592,湖州市,吴兴区站,,47,47,97,26,66,65,,28,28,5,24,5,6,0.8,0.9
2026-02-14T1100,3562A,120.4146,30.8538,湖州市,南浔区站,细颗粒物(PM2.5),60,57,99,43,68,72,,35,35,15,24,8,8,0.7,0.7
2026-02-14T1100,1607A,120.904878,40.721091,葫芦岛市,龙港区,细颗粒物(PM2.5),118,98,123,89,109,65,,95,83,25,26,14,18,1.1,1.2
2026-02-14T1100,1608A,120.8382,40.7521,葫芦岛市,化工街,细颗粒物(PM2.5),148,132,154,113,130,47,,71,61,42,47,20,33,1.0,1.2
2026-02-14T1100,1609A,120.8339,40.7078,葫芦岛市,新区,细颗粒物(PM2.5),158,,109,120,120,56,,82,69,35,34,15,14,1.1,1.3
2026-02-14T1100,1610A,120.8697,40.7679,葫芦岛市,东城区,细颗粒物(PM2.5),156,,136,119,132,55,,78,64,36,39,15,22,1.2,1.3
2026-02-14T1100,2483A,109.9297,27.5383,怀化市,河西地税局,,50,41,52,35,35,10,,2,2,17,15,1,2,/,/
2026-02-14T1100,2484A,109.9783,27.5342,怀化市,市四医院,颗粒物(PM10),52,53,55,35,33,20,,10,7,12,15,6,7,0.7,0.6
2026-02-14T1100,2485A,109.9971,27.5579,怀化市,监测楼,细颗粒物(PM2.5),57,44,61,40,42,19,,5,5,13,19,4,4,0.4,0.3
2026-02-14T1100,1210A,119.0566,33.5991,淮安市,钵池山,细颗粒物(PM2.5),103,117,117,77,76,67,,49,45,36,31,32,12,2.6,0.9
2026-02-14T1100,1211A,119.0083,33.578,淮安市,北京南路,细颗粒物(PM2.5),99,114,124,74,79,61,,23,21,31,40,25,10,1.4,0.8
2026-02-14T1100,1212A,118.9938,33.6083,淮安市,市监测站,细颗粒物(PM2.5),109,110,112,82,73,72,,54,50,28,29,13,14,0.5,1.2
2026-02-14T1100,1213A,119.135,33.5038,淮安市,楚州区监测站,细颗粒物(PM2.5),109,112,129,82,88,73,,28,27,22,34,9,8,0.6,0.6
2026-02-14T1100,3426A,118.8757,33.2897,淮安市,新华书店,细颗粒物(PM2.5),84,94,111,62,65,82,,53,53,12,28,9,8,0.7,0.6
2026-02-14T1100,4092A,119.119691,33.550006,淮安市,枚皋中路89号,细颗粒物(PM2.5),109,136,134,82,88,70,,34,29,23,31,14,11,0.8,0.8
2026-02-14T1100,4206A,119.028838,33.631911,淮安市,承德北路606号,细颗粒物(PM2.5),93,122,131,69,74,76,,59,56,25,32,12,13,0.7,1
2026-02-14T1100,2282A,116.8005,33.9749,淮北市,监测站,细颗粒物(PM2.5),117,156,124,88,64,90,,58,56,26,30,8,7,0.9,0.8
2026-02-14T1100,2283A,116.8094,33.9008,淮北市,烈山区政府,细颗粒物(PM2.5),98,114,124,73,65,82,,57,56,19,21,9,7,0.6,0.6
2026-02-14T1100,4017A,116.7926,33.9534,淮北市,市博物馆,细颗粒物(PM2.5),115,144,129,87,67,81,,58,54,22,25,8,7,0.8,0.7
2026-02-14T1100,4100A,116.8322,33.9884,淮北市,杜集区第一实验学校,细颗粒物(PM2.5),114,122,124,86,66,77,,61,57,22,22,11,8,0.9,0.7
2026-02-14T1100,2277A,116.8304,32.7726,淮南市,潘集区政府,,,96,103,51,52,92,,60,60,,20,10,8,0.9,0.7
2026-02-14T1100,2279A,116.8569,32.5949,淮南市,谢家集区政府,细颗粒物(PM2.5),80,79,83,59,46,72,,69,63,19,15,9,9,0.7,0.6
2026-02-14T1100,2280A,116.8279,32.6333,淮南市,八公山区政府,细颗粒物(PM2.5),80,89,85,59,47,81,,78,78,16,12,8,6,0.7,0.5
2026-02-14T1100,2894A,117.0561,32.6536,淮南市,经济技术开发区消防队,颗粒物(PM10),68,86,100,46,46,94,,44,44,17,28,10,7,0.6,0.5
2026-02-14T1100,3329A,117.011,32.5891,淮南市,山南新区,细颗粒物(PM2.5),82,100,97,60,45,91,,68,67,17,20,10,9,0.7,0.6
2026-02-14T1100,4209A,117.003137,32.644456,淮南市,国庆中路369号,细颗粒物(PM2.5),72,76,89,52,49,84,,54,54,15,23,13,11,0.7,0.7
2026-02-14T1100,2446A,114.9021,30.474,黄冈市,职工中心,细颗粒物(PM2.5),130,110,101,99,83,58,,34,34,36,35,9,9,1.1,1.2
2026-02-14T1100,2929A,114.8858,30.4519,黄冈市,红卫路,细颗粒物(PM2.5),155,,92,118,78,70,,41,41,26,26,10,12,1.0,1
2026-02-14T1100,3398A,114.9134,30.4446,黄冈市,市林业局,细颗粒物(PM2.5),148,128,116,113,84,69,,39,39,24,25,4,4,0.9,0.8
2026-02-14T1100,2672A,102.02,35.5101,黄南藏族自治州,同仁县隆务镇,,44,44,31,14,12,61,,63,60,7,5,11,10,0.6,0.5
2026-02-14T1100,2295A,118.2905,29.6965,黄山市,延安路89号,,30,26,58,21,41,40,,22,22,6,14,4,4,0.7,0.7
2026-02-14T1100,2297A,118.1369,30.2755,黄山市,黄山区政府5号楼,,28,28,48,11,34,50,,14,14,4,10,2,2,0.5,0.6
2026-02-14T1100,4210A,118.335445,29.720283,黄山市,滨江东路7-2号,,43,34,59,30,38,39,,20,20,8,13,/,/,/,/
2026-02-14T1100,2423A,115.0547,30.2332,黄石市,沈家营,细颗粒物(PM2.5),134,145,116,102,72,47,,13,13,37,35,13,16,1.7,1.2
2026-02-14T1100,2426A,114.899,30.211,黄石市,铁山,细颗粒物(PM2.5),102,89,87,76,63,80,,36,36,15,22,16,12,0.3,1.1
2026-02-14T1100,2427A,115.0259,30.2108,黄石市,团城山,细颗粒物(PM2.5),138,169,110,105,76,18,,20,13,51,28,8,7,1.3,1
2026-02-14T1100,3149A,115.0174,30.1591,黄石市,笔架山北路,细颗粒物(PM2.5),140,178,148,107,83,59,,28,27,28,26,14,11,1.5,1.4
2026-02-14T1100,4185A,115.078022,30.21118,黄石市,磁湖东路29号,细颗粒物(PM2.5),148,146,111,113,81,35,,15,14,41,28,18,7,1.9,1.3
2026-02-14T1100,1392A,114.4181,23.0528,惠州市,河南岸金山湖子站,,30,30,43,21,26,87,,68,68,10,13,6,6,0.6,0.6
2026-02-14T1100,1393A,114.4055,23.0824,惠州市,下埔横江三路子站,,33,30,47,19,27,103,,86,86,9,17,7,7,0.6,0.6
2026-02-14T1100,1395A,114.4645,22.7832,惠州市,惠阳区承修路船湖子站,,37,37,43,24,24,104,,68,63,16,14,6,6,0.6,0.6
2026-02-14T1100,1396A,114.5316,22.7423,惠州市,大亚湾管委会子站,,35,30,40,18,22,112,,67,62,18,13,7,7,0.7,0.7
2026-02-14T1100,3314A,114.4334,22.8134,惠州市,惠阳秋长,,37,31,37,23,24,116,,70,70,13,15,/,/,/,/
2026-02-14T1100,3452A,114.6521,22.7755,惠州市,大亚湾霞涌,,42,42,34,22,22,113,,75,75,15,17,/,/,/,/
2026-02-14T1100,4300A,114.4089,23.1147,惠州市,文华一路1号,,32,30,45,19,26,102,,80,80,11,14,/,/,/,/
2026-02-14T1100,2240A,130.9618,45.2926,鸡西市,环保局,,50,50,83,31,58,76,,71,71,13,24,10,11,0.5,0.7
2026-02-14T1100,2243A,130.9294,45.2959,鸡西市,第一中学,细颗粒物(PM2.5),54,43,70,38,54,70,,72,72,19,22,10,8,0.5,0.7
2026-02-14T1100,3707A,131.0069,45.2988,鸡西市,欧美日汽修厂,,43,43,93,29,61,79,,70,70,6,18,12,16,0.3,0.5
2026-02-14T1100,2367A,114.9753,27.0803,吉安市,红声器材厂,,46,46,47,30,32,13,,4,4,13,14,6,6,1.2,1
2026-02-14T1100,2369A,114.9903,27.1313,吉安市,市环境监测站,细颗粒物(PM2.5),60,,40,43,30,14,,6,6,18,16,6,7,/,/
2026-02-14T1100,2370A,115.009527,27.096792,吉安市,青原区法院,细颗粒物(PM2.5),59,,41,42,30,9,,3,3,16,17,8,8,1.0,0.9
2026-02-14T1100,1772A,126.54,43.8622,吉林市,哈达湾,,,120,103,,84,,,113,,15,24,13,12,1.2,1.4
2026-02-14T1100,1773A,126.5843,43.8358,吉林市,东局子,细颗粒物(PM2.5),113,119,102,85,73,126,,118,118,15,23,10,10,0.8,0.9
2026-02-14T1100,1774A,126.5051,43.8243,吉林市,电力学院,,,96,130,73,93,,,109,109,18,39,10,11,0.9,1.6
2026-02-14T1100,1775A,126.6133,43.8971,吉林市,江北,细颗粒物(PM2.5),127,123,105,96,89,129,,118,118,18,23,10,11,0.8,1.1
2026-02-14T1100,1776A,126.5549,43.8304,吉林市,江南公园,细颗粒物(PM2.5),107,115,91,80,70,126,,114,114,11,17,11,11,0.9,1
2026-02-14T1100,2868A,126.4737,43.953,吉林市,九站,细颗粒物(PM2.5),103,129,102,77,77,130,,117,117,20,30,11,12,0.9,1
2026-02-14T1100,1299A,116.9866,36.6118,济南市,科干所,颗粒物(PM10),76,102,123,37,55,122,,121,121,12,14,9,10,0.6,0.7
2026-02-14T1100,1300A,116.9379,36.6652,济南市,农科所,颗粒物(PM10),80,110,128,44,66,113,,106,106,15,22,9,10,0.7,0.8
2026-02-14T1100,1301A,117.1265,36.6736,济南市,开发区,颗粒物(PM10),69,88,116,40,58,131,,125,125,12,21,7,7,0.6,0.7
2026-02-14T1100,1303A,117.0616,36.6865,济南市,省种子仓库,颗粒物(PM10),74,97,134,40,64,122,,82,82,8,30,7,8,0.7,0.9
2026-02-14T1100,1304A,116.9495185,36.644937,济南市,机床二厂,颗粒物(PM10),77,103,126,48,73,119,,113,113,10,17,10,15,0.5,0.7
2026-02-14T1100,1305A,117.0496,36.6629,济南市,市监测站,颗粒物(PM10),77,103,125,38,58,125,,120,120,15,23,6,6,0.8,0.9
2026-02-14T1100,1306A,116.7674,36.5458,济南市,长清党校,颗粒物(PM10),75,100,138,40,62,112,,109,109,15,21,6,7,0.6,0.7
2026-02-14T1100,1961A,117.5323,36.6865,济南市,东山小学,颗粒物(PM10),80,110,130,43,54,119,,108,108,16,19,9,7,0.8,0.7
2026-02-14T1100,3059A,117.7181,36.205,济南市,泰兴公司,细颗粒物(PM2.5),103,139,155,77,84,90,,24,24,28,53,21,17,1.2,1.3
2026-02-14T1100,3064A,117.6861,36.2172,济南市,莱芜战役纪念馆,细颗粒物(PM2.5),102,136,150,76,78,88,,50,50,33,37,21,16,1.4,1.2
2026-02-14T1100,3494A,117.1673,36.9782,济南市,济阳区政府,细颗粒物(PM2.5),102,139,140,76,75,94,,81,78,22,20,15,12,0.6,0.5
2026-02-14T1100,3495A,117.1168,36.6299,济南市,锦屏中学,颗粒物(PM10),73,95,118,42,59,126,,123,123,9,14,7,7,0.5,0.6
2026-02-14T1100,4108A,117.7107,36.2385,济南市,山财大街5号,细颗粒物(PM2.5),88,122,142,65,71,100,,81,80,32,37,24,21,1.6,1.5
2026-02-14T1100,4109A,116.9744,36.6889,济南市,无影山路12号,,,97,124,44,66,110,,104,104,14,20,,9,0.6,0.7
2026-02-14T1100,1653A,116.6229,35.4288,济宁市,火炬城,细颗粒物(PM2.5),122,125,140,92,87,71,,64,60,22,21,6,5,0.9,0.8
2026-02-14T1100,3500A,116.5808,35.3703,济宁市,北湖一中,细颗粒物(PM2.5),115,113,131,87,82,78,,71,68,17,20,10,10,0.9,0.8
2026-02-14T1100,3501A,116.8251,35.5592,济宁市,服务中心,细颗粒物(PM2.5),130,145,165,99,94,82,,62,62,13,16,10,8,0.7,0.6
2026-02-14T1100,3678A,116.5907,35.4054,济宁市,市第七中学,细颗粒物(PM2.5),120,121,142,91,86,86,,64,64,20,26,9,8,0.8,0.8
2026-02-14T1100,4111A,116.6075,35.4566,济宁市,任和路,细颗粒物(PM2.5),119,159,161,90,84,78,,72,69,23,21,9,8,1.0,0.9
2026-02-14T1100,4112A,116.5648,35.3921,济宁市,文体南路1号,细颗粒物(PM2.5),107,144,156,80,84,88,,71,71,17,22,8,7,0.7,0.7
2026-02-14T1100,2255A,130.2749,46.8028,佳木斯市,佳纺,,36,36,57,20,42,67,,58,58,10,24,6,7,0.4,0.5
2026-02-14T1100,2257A,130.3258,46.7975,佳木斯市,环保局,,43,43,58,27,48,56,,46,46,14,33,9,9,0.5,0.4
2026-02-14T1100,4285A,130.363,46.806,佳木斯市,顺和街,,32,32,49,19,43,66,,63,60,11,20,7,8,0.4,0.5
2026-02-14T1100,4286A,130.3952,46.8268,佳木斯市,长安路196号,,28,28,44,16,36,69,,63,63,6,12,5,6,0.4,0.5
2026-02-14T1100,1252A,120.7439,30.778,嘉兴市,清河小学,,,48,103,34,66,66,,39,33,,36,7,7,0.3,0.1
2026-02-14T1100,1253A,120.7261,30.7477,嘉兴市,嘉兴学院,,49,48,96,34,65,62,,38,30,19,30,6,6,0.6,0.6
2026-02-14T1100,2872A,120.7845,30.7524,嘉兴市,南湖区残联,细颗粒物(PM2.5),54,,81,38,68,69,,48,40,17,26,4,5,0.9,0.8
2026-02-14T1100,3407A,120.6915,30.7741,嘉兴市,秀洲住建,细颗粒物(PM2.5),54,50,100,38,69,68,,40,34,14,28,8,8,0.6,0.6
2026-02-14T1100,1945A,98.291,39.7705,嘉峪关市,气象局,颗粒物(PM10),52,53,63,14,26,85,,87,86,8,9,6,10,0.7,0.6
2026-02-14T1100,2884A,98.2672,39.7978,嘉峪关市,酒钢宾馆,颗粒物(PM10),69,88,72,21,25,63,,79,78,26,14,96,30,3.8,1.1
2026-02-14T1100,3248A,98.2644,39.7723,嘉峪关市,雄关区,,,51,63,20,26,,,87,87,24,19,23,18,2.5,1.1
2026-02-14T1100,1383A,113.1063,22.6058,江门市,北街,,41,41,36,19,20,100,,74,72,6,10,/,/,/,/
2026-02-14T1100,1384A,113.073,22.5835,江门市,西区,,42,42,41,22,24,98,,71,67,9,14,/,/,/,/
2026-02-14T1100,1385A,113.0218,22.531,江门市,圭峰西,颗粒物(PM10),51,52,35,23,22,95,,74,69,12,12,/,/,/,/
2026-02-14T1100,1386A,113.0826,22.5947,江门市,东湖,,34,34,34,21,24,97,,66,66,9,12,6,6,0.4,0.5
2026-02-14T1100,3311A,113.1077,22.5647,江门市,江海富民,颗粒物(PM10),54,58,48,18,21,101,,88,86,8,13,/,/,0.5,0.5
2026-02-14T1100,3449A,113.0496,22.4669,江门市,新会银湖,,44,44,38,18,24,91,,40,40,8,13,7,6,0.5,0.5
2026-02-14T1100,3335A,113.3137,35.2643,焦作市,马村街道办,细颗粒物(PM2.5),112,147,129,84,64,75,,66,57,28,22,22,15,1.4,1.1
2026-02-14T1100,3336A,113.2464,35.2374,焦作市,焦作技师学院,颗粒物(PM10),100,150,122,71,61,73,,54,47,28,28,23,15,1.5,1
2026-02-14T1100,3477A,113.1656,35.2536,焦作市,中站许衡医院,颗粒物(PM10),84,118,98,57,53,73,,91,78,33,22,30,16,1.5,1
2026-02-14T1100,3981A,113.2456,35.18,焦作市,原李万街道办,颗粒物(PM10),105,159,127,69,66,85,,62,62,21,20,27,20,1.1,1
2026-02-14T1100,4264A,113.234,35.219,焦作市,新安路1731号,细颗粒物(PM2.5),102,138,126,76,64,85,,66,63,27,29,25,17,1.4,1.1
2026-02-14T1100,4295A,113.2722,35.2121,焦作市,人民路3066号,,27,6,122,3,64,85,,64,64,27,29,22,15,1.1,1
2026-02-14T1100,1708A,116.3701,23.5345,揭阳市,新兴,颗粒物(PM10),64,77,50,42,33,86,,49,49,14,17,6,7,1.0,0.9
2026-02-14T1100,1709A,116.3261,23.5442,揭阳市,西马,细颗粒物(PM2.5),59,57,54,42,34,82,,49,49,10,13,6,6,0.8,0.8
2026-02-14T1100,1710A,116.361,23.5627,揭阳市,东兴,颗粒物(PM10),62,73,47,32,29,85,,50,49,10,15,7,8,/,/
2026-02-14T1100,1711A,116.4151,23.5295,揭阳市,渔湖,颗粒物(PM10),64,77,51,37,32,103,,52,52,12,17,6,6,/,/
2026-02-14T1100,3320A,116.4028,23.5699,揭阳市,曲溪,颗粒物(PM10),52,53,48,33,30,101,,59,59,7,12,2,3,0.9,0.8
2026-02-14T1100,1944A,102.1691,38.5166,金昌市,天庆家园,颗粒物(PM10),53,56,107,15,21,85,,86,80,10,7,8,7,0.5,0.5
2026-02-14T1100,4022A,102.1648,38.5369,金昌市,金川区人防中心,颗粒物(PM10),53,56,106,17,23,84,,85,79,7,6,5,6,0.4,0.3
2026-02-14T1100,4239A,102.193042,38.531887,金昌市,长春路96号,,,55,77,37,21,,,10,,4,5,6,9,0.4,0.4
2026-02-14T1100,1262A,119.6478,29.0773,金华市,十五中,细颗粒物(PM2.5),72,59,82,52,56,39,,19,19,9,20,2,2,1.0,1
2026-02-14T1100,1263A,119.6859,29.1032,金华市,监测站,细颗粒物(PM2.5),67,61,79,48,52,31,,14,14,15,27,3,4,0.9,0.9
2026-02-14T1100,3659A,119.656,29.1132,金华市,气象局,细颗粒物(PM2.5),69,58,78,50,51,38,,12,12,18,29,3,3,1.1,0.9
2026-02-14T1100,1767A,121.1114,41.0879,锦州市,南山,细颗粒物(PM2.5),176,,138,133,120,60,,88,74,41,41,10,16,1.1,1.1
2026-02-14T1100,1768A,121.060361,40.842794,锦州市,开发区,细颗粒物(PM2.5),134,102,111,102,100,70,,98,85,29,29,14,10,1.2,1.1
2026-02-14T1100,1769A,121.1836,41.1118,锦州市,百股街道,细颗粒物(PM2.5),205,158,144,155,138,65,,95,80,34,33,11,14,1.3,1.3
2026-02-14T1100,1770A,121.1176,41.1224,锦州市,天安街道,细颗粒物(PM2.5),175,,147,132,128,59,,93,77,37,33,6,12,1.4,1.5
2026-02-14T1100,1771A,121.1303,41.1385,锦州市,北湖公园,细颗粒物(PM2.5),196,151,146,147,134,62,,88,74,35,37,12,17,1.2,1.2
2026-02-14T1100,2160A,112.8496,35.5051,晋城市,自来水公司,颗粒物(PM10),92,133,119,62,50,65,,40,40,31,26,24,14,2.2,1
2026-02-14T1100,2162A,112.8509,35.4886,晋城市,市环保局,颗粒物(PM10),83,115,104,55,49,68,,36,36,36,34,20,11,2.0,1
2026-02-14T1100,3620A,112.8258,35.4804,晋城市,泽州一中,颗粒物(PM10),98,145,116,58,47,70,,61,54,31,18,11,9,1.8,1
2026-02-14T1100,4078A,112.8246,35.5152,晋城市,前书院路,颗粒物(PM10),94,138,110,33,35,58,,56,49,41,19,26,12,2.3,0.9
2026-02-14T1100,4079A,112.8864,35.4773,晋城市,祥云街666号,颗粒物(PM10),89,127,112,47,51,72,,55,51,32,21,32,19,2.4,1.1
2026-02-14T1100,2174A,112.6992,37.6984,晋中市,榆次区政府,颗粒物(PM10),92,134,113,56,55,69,,36,36,31,35,33,19,1.0,0.7
2026-02-14T1100,2865A,112.7195,37.683,晋中市,榆次三中,颗粒物(PM10),92,134,113,54,47,67,,35,35,30,31,30,18,1.0,0.8
2026-02-14T1100,4080A,112.7375,37.7215,晋中市,广安街188号,颗粒物(PM10),87,124,120,49,52,62,,36,36,36,35,41,28,1.0,0.8
2026-02-14T1100,4200A,112.7478,37.6954,晋中市,迎宾街26号,颗粒物(PM10),87,124,104,57,51,80,,48,48,22,25,33,19,1.0,0.8
2026-02-14T1100,2439A,112.2012,31.048,荆门市,竹园小学,细颗粒物(PM2.5),103,93,118,77,82,20,,37,28,25,22,2,2,2.4,1.8
2026-02-14T1100,2440A,112.1968,30.9892,荆门市,掇刀,,,87,115,,86,22,,40,31,19,16,5,6,1.1,1
2026-02-14T1100,3012A,112.1849,31.0361,荆门市,西山林语,细颗粒物(PM2.5),87,85,109,64,76,24,,34,26,14,17,3,4,1.0,1
2026-02-14T1100,3547A,112.1631,31.0134,荆门市,龙泉中学南校,细颗粒物(PM2.5),95,77,114,71,78,34,,43,37,15,17,4,5,1.3,1.3
2026-02-14T1100,4124A,112.2213,31.0654,荆门市,新台西路6号,细颗粒物(PM2.5),94,87,113,70,87,11,,31,17,17,23,8,10,1.3,1.1
2026-02-14T1100,1844A,112.2493,30.3198,荆州市,市图书馆,细颗粒物(PM2.5),88,,70,65,56,27,,18,18,14,18,6,8,1.4,1.1
2026-02-14T1100,1845A,112.2009,30.3543,荆州市,市委党校,细颗粒物(PM2.5),79,68,83,58,64,21,,18,14,19,23,5,7,1.5,1.3
2026-02-14T1100,3194A,112.2749,30.3124,荆州市,管委会,细颗粒物(PM2.5),89,,68,66,58,25,,14,14,14,19,9,11,1.3,1.1
2026-02-14T1100,4268A,112.1722,30.3366,荆州市,学苑路85号,细颗粒物(PM2.5),78,68,79,57,62,26,,21,20,7,13,2,5,0.8,0.7
2026-02-14T1100,2343A,117.2114,29.2931,景德镇市,老干部活动中心,,,53,43,29,33,,,16,15,10,12,3,4,0.9,1
2026-02-14T1100,2344A,117.1893,29.2789,景德镇市,兽医站,,50,39,53,35,39,20,,17,17,18,19,5,4,0.9,0.8
2026-02-14T1100,2346A,117.246,29.2958,景德镇市,陶研所,,42,34,40,29,34,17,,13,11,8,11,3,3,0.9,0.9
2026-02-14T1100,4289A,117.154766,29.256967,景德镇市,青少年活动中心,细颗粒物(PM2.5),72,,58,52,46,17,,15,13,20,22,8,7,/,/
2026-02-14T1100,1803A,115.9873,29.6816,九江市,十里,,,26,72,22,47,,,19,16,,27,,8,,1.1
2026-02-14T1100,1804A,115.9583,29.7047,九江市,茅山头,,35,,62,24,46,32,,32,26,16,20,5,7,0.7,0.7
2026-02-14T1100,1805A,115.9877,29.7295,九江市,西园,,49,,69,34,42,34,,32,30,27,36,3,5,0.9,0.8
2026-02-14T1100,1808A,115.9112,29.6038,九江市,综合工业园,,25,,55,17,39,31,,34,29,10,16,5,6,0.8,0.8
2026-02-14T1100,3190A,116.0254,29.6995,九江市,外国语学校,,49,,54,34,46,29,,18,18,15,21,6,6,0.6,0.7
2026-02-14T1100,4253A,116.010205,29.659402,九江市,莲花大道8号,,38,,66,26,36,22,,12,12,16,17,4,6,0.7,0.7
2026-02-14T1100,4240A,98.495752,39.733935,酒泉市,玉门东路5号,颗粒物(PM10),58,66,72,21,30,79,,73,73,3,7,10,11,0.3,0.4
2026-02-14T1100,4241A,98.5099,39.7506,酒泉市,北大街108号,颗粒物(PM10),59,68,74,22,34,76,,72,72,5,9,10,11,0.4,0.6
2026-02-14T1100,2698A,76.0071,39.466,喀什地区,巡警大队,颗粒物(PM10),268,397,412,126,131,32,,58,53,50,30,9,7,1.3,1.1
2026-02-14T1100,2699A,75.9756,39.4693,喀什地区,吾办,颗粒物(PM10),230,371,375,128,133,34,,46,37,46,35,12,6,1.1,1
2026-02-14T1100,4027A,75.9485,39.4688,喀什地区,老干局,颗粒物(PM10),278,404,416,123,125,33,,54,47,41,27,7,7,1.1,1
2026-02-14T1100,1824A,114.3389,34.778,开封市,肿瘤医院,颗粒物(PM10),113,176,177,82,102,83,,54,49,26,33,11,13,1.2,1.2
2026-02-14T1100,1826A,114.2884,34.7966,开封市,世纪星幼儿园,细颗粒物(PM2.5),130,166,161,99,99,80,,55,51,26,32,12,14,1.0,1
2026-02-14T1100,3147A,114.3434,34.8101,开封市,龙亭公园,细颗粒物(PM2.5),120,169,176,91,101,81,,53,52,30,40,13,14,1.0,1.1
2026-02-14T1100,3210A,114.3645,34.7955,开封市,汴京公园,颗粒物(PM10),111,171,193,69,103,78,,46,46,30,42,10,10,1.0,1.1
2026-02-14T1100,3473A,114.2485,34.8306,开封市,技师学院,细颗粒物(PM2.5),115,155,150,87,91,83,,64,58,26,26,14,14,1.1,0.9
2026-02-14T1100,3592A,114.4518,34.7503,开封市,祥符区生态环境局,颗粒物(PM10),101,152,200,74,108,86,,54,54,17,34,9,10,0.8,0.9
2026-02-14T1100,1951A,84.886,45.6029,克拉玛依市,长征新村,,21,6,15,3,9,66,,70,70,9,7,4,4,0.6,0.4
2026-02-14T1100,1952A,84.8894,45.5827,克拉玛依市,南林小区,,21,10,14,3,3,67,,73,71,11,6,2,1,0.5,0.4
2026-02-14T1100,1954A,84.896,44.3328,克拉玛依市,独山子区,细颗粒物(PM2.5),119,115,86,90,67,49,,58,55,29,25,3,3,0.7,0.8
2026-02-14T1100,1955A,85.6888,46.0909,克拉玛依市,乌尔禾区商贸楼,,,,20,,8,146,,82,82,5,6,7,7,0.4,0.4
2026-02-14T1100,3612A,85.1045,45.6895,克拉玛依市,白碱滩区新站,,27,27,13,3,4,67,,75,75,15,15,8,9,0.4,0.4
2026-02-14T1100,2697A,76.1457,39.7143,克孜勒苏柯尔克孜自治州,市人民政府,颗粒物(PM10),243,380,405,88,104,57,,58,57,8,19,4,4,0.4,0.5
2026-02-14T1100,3665A,76.1654,39.7157,克孜勒苏柯尔克孜自治州,克州文化中心,颗粒物(PM10),236,375,396,,113,47,,65,59,18,15,4,6,1.0,0.7
2026-02-14T1100,1450A,102.8203,24.889,昆明市,呈贡新区,,31,31,29,14,17,82,,46,41,14,15,6,4,0.3,0.3
2026-02-14T1100,1452A,102.7253,25.0904,昆明市,龙泉镇,,22,22,25,11,15,58,,30,30,24,16,6,4,0.5,0.4
2026-02-14T1100,1453A,102.7267,25.0378,昆明市,东风东路,,41,41,32,28,22,60,,36,28,32,22,9,8,0.8,0.6
2026-02-14T1100,1454A,102.6744,25.0671,昆明市,金鼎山,,24,24,31,13,16,71,,39,39,20,17,8,5,0.6,0.5
2026-02-14T1100,1455A,102.6643,25.0401,昆明市,碧鸡广场,,36,36,28,16,16,75,,55,55,19,17,9,7,0.4,0.4
2026-02-14T1100,3179A,102.7491,25.012,昆明市,官渡区博物馆,,49,49,36,29,23,63,,15,15,26,31,9,5,0.6,0.6
2026-02-14T1100,3375A,102.8016,24.8336,昆明市,青年创业园,,35,,27,24,18,93,,47,47,5,12,11,8,0.5,0.4
2026-02-14T1100,3550A,102.8,24.9787,昆明市,昆明学院,,45,45,34,17,18,75,,34,30,18,15,9,5,0.5,0.4
2026-02-14T1100,3551A,102.5969,24.6738,昆明市,晋宁区生态环境分局,,31,14,42,10,30,99,,55,55,7,14,1,1,0.4,0.5
2026-02-14T1100,3552A,102.6673,24.9861,昆明市,云天化总部,,29,29,27,3,14,91,,48,48,13,16,8,8,0.5,0.4
2026-02-14T1100,1456A,91.132,29.6515,拉萨市,八廓街,,34,34,20,7,12,66,,51,51,24,19,8,7,0.7,0.7
2026-02-14T1100,1457A,91.1221,29.6748,拉萨市,市环保局,,,45,32,18,19,63,,16,16,25,36,7,8,,0.7
2026-02-14T1100,1458A,91.0874,29.6476,拉萨市,区监测站,,21,21,12,3,8,67,,36,36,21,29,5,4,0.8,0.9
2026-02-14T1100,1459A,91.1774,29.6541,拉萨市,西藏大学,,30,26,15,21,11,55,,45,45,37,21,4,4,0.8,0.6
2026-02-14T1100,1460A,90.9798,29.6586,拉萨市,区辐射站,,29,28,21,20,12,54,,64,58,21,22,4,4,0.5,0.6
2026-02-14T1100,1461A,91.0831,29.6292,拉萨市,拉萨火车站,,21,14,10,8,6,65,,73,72,19,11,4,4,0.3,0.3
2026-02-14T1100,2520A,109.2203,23.7252,来宾市,来宾技工学校,细颗粒物(PM2.5),62,62,54,44,39,14,,4,4,10,16,6,6,1.2,1.2
2026-02-14T1100,3535A,109.1781,23.7293,来宾市,兴宾区政府,细颗粒物(PM2.5),70,51,51,51,35,20,,9,9,18,20,5,5,1.2,1.2
2026-02-14T1100,4002A,109.2312,23.7428,来宾市,中南小学,细颗粒物(PM2.5),67,54,51,48,40,16,,4,4,14,19,5,5,1.2,1.2
2026-02-14T1100,1479A,103.8309,36.0467,兰州市,铁路设计院,,,,,,,,,,,,,,,,
2026-02-14T1100,3241A,103.7439,36.0841,兰州市,百合公园,颗粒物(PM10),67,84,108,44,67,26,,5,5,54,78,22,18,1.3,1.8
2026-02-14T1100,3242A,103.9613,35.9985,兰州市,和平,颗粒物(PM10),81,112,75,47,38,36,,36,30,41,31,35,20,1.9,1.1
2026-02-14T1100,4236A,103.629272,36.093822,兰州市,庄浪东路808号,颗粒物(PM10),75,100,95,45,55,47,,16,16,59,64,33,24,1.3,1.4
2026-02-14T1100,4237A,103.7251,36.104344,兰州市,安宁西路88号,颗粒物(PM10),77,104,104,45,54,39,,9,9,48,66,37,21,1.4,1.3
2026-02-14T1100,4238A,103.846982,36.067567,兰州市,北滨河东路1号,颗粒物(PM10),71,91,96,39,56,21,,8,8,59,76,26,18,2.3,1.8
2026-02-14T1100,1067A,116.6712,39.5109,廊坊市,药材公司,细颗粒物(PM2.5),236,249,192,186,137,74,,45,37,37,32,9,7,1.3,1.1
2026-02-14T1100,1068A,116.7215,39.5592,廊坊市,开发区,细颗粒物(PM2.5),225,256,190,175,130,82,,36,30,37,45,10,6,1.3,1.1
2026-02-14T1100,1070A,116.7246,39.5273,廊坊市,北华航天学院,细颗粒物(PM2.5),232,271,194,182,138,85,,34,32,31,39,13,10,1.3,1.1
2026-02-14T1100,2919A,116.7022,39.5454,廊坊市,河北工业大学,细颗粒物(PM2.5),233,294,204,183,130,72,,40,34,42,40,9,7,1.3,1.1
2026-02-14T1100,2536A,103.7629,29.5844,乐山市,牛耳桥,细颗粒物(PM2.5),99,86,81,74,54,54,,21,21,25,29,6,6,0.8,0.7
2026-02-14T1100,2537A,103.7501,29.6002,乐山市,市第三水厂,细颗粒物(PM2.5),89,86,82,66,52,43,,12,12,42,41,4,3,1.2,1.1
2026-02-14T1100,2538A,103.7571,29.5664,乐山市,市监测站,细颗粒物(PM2.5),95,90,76,71,52,20,,18,11,33,25,8,7,1.3,1
2026-02-14T1100,3361A,103.7313,29.563,乐山市,理工大学,细颗粒物(PM2.5),77,74,74,56,46,20,,17,14,27,23,10,4,1.7,1
2026-02-14T1100,2599A,100.2497,26.8802,丽江市,丽江古城,,25,24,24,8,13,79,,74,70,9,10,6,6,0.4,0.4
2026-02-14T1100,2600A,100.2203,26.8906,丽江市,市中心,,25,20,15,12,14,80,,72,63,12,13,6,6,0.5,0.4
2026-02-14T1100,1267A,119.9141,28.4513,丽水市,监测站大楼,细颗粒物(PM2.5),53,42,46,37,37,46,,15,15,10,20,7,6,0.7,1
2026-02-14T1100,1268A,119.93,28.4589,丽水市,莲都小学,细颗粒物(PM2.5),53,46,44,37,32,49,,16,16,9,19,/,/,/,/
2026-02-14T1100,1269A,119.8794,28.4232,丽水市,余庄前,,50,41,35,35,29,38,,8,8,9,10,4,4,0.8,0.7
2026-02-14T1100,1173A,119.1759,34.5885,连云港市,市环境监测站,细颗粒物(PM2.5),125,144,128,95,86,79,,74,70,28,25,12,10,0.7,0.7
2026-02-14T1100,3000A,119.3577,34.6971,连云港市,德源药业,细颗粒物(PM2.5),110,136,129,83,77,75,,68,57,24,23,8,7,0.8,0.8
2026-02-14T1100,3007A,119.178,34.8442,连云港市,新城一中,细颗粒物(PM2.5),148,148,141,113,94,66,,75,72,46,42,12,10,1.1,0.9
2026-02-14T1100,3008A,119.3607,34.7519,连云港市,胡沟管理处,细颗粒物(PM2.5),156,173,134,119,81,49,,92,60,50,39,18,14,0.9,0.8
2026-02-14T1100,3009A,119.1478,34.5913,连云港市,矿山设计院,细颗粒物(PM2.5),89,119,132,66,76,88,,66,64,22,26,10,8,0.9,0.9
2026-02-14T1100,3434A,119.2414,34.6539,连云港市,工贸学校,细颗粒物(PM2.5),100,120,122,75,68,95,,104,88,21,18,14,13,0.9,0.8
2026-02-14T1100,3664A,119.4171,34.734,连云港市,连云街道,细颗粒物(PM2.5),178,210,158,134,84,10,,81,41,104,44,19,12,1.0,0.9
2026-02-14T1100,2573A,102.2629,27.8981,凉山彝族自治州,西昌市政府,,50,,29,35,22,58,,67,61,18,7,8,7,0.8,0.7
2026-02-14T1100,2574A,102.2686,27.885,凉山彝族自治州,凉山州政府,,42,31,28,29,20,54,,56,50,16,9,11,9,0.8,0.7
2026-02-14T1100,4229A,102.2342,27.8859,凉山彝族自治州,凯乐南路30号,,38,38,42,24,19,53,,40,32,18,15,13,9,0.7,0.5
2026-02-14T1100,2212A,123.1978,41.2036,辽阳市,宏伟区,细颗粒物(PM2.5),84,69,97,62,79,109,,123,120,15,12,8,7,1.1,1.1
2026-02-14T1100,2213A,123.1684,41.2497,辽阳市,新华园,细颗粒物(PM2.5),94,79,111,70,84,106,,122,119,22,18,10,9,0.9,0.8
2026-02-14T1100,2214A,123.2355,41.2663,辽阳市,滨河路,细颗粒物(PM2.5),83,83,95,61,78,112,,114,113,16,14,10,17,0.9,1.2
2026-02-14T1100,4083A,123.153,41.2874,辽阳市,铁西路150号,,,81,112,73,83,,,99,98,21,21,13,11,1.2,1.1
2026-02-14T1100,2227A,125.1359,42.8845,辽源市,环保局,细颗粒物(PM2.5),102,144,135,76,72,120,,110,110,15,30,8,8,1.1,1.3
2026-02-14T1100,4085A,125.0998,42.9134,辽源市,安宁大街333号,细颗粒物(PM2.5),110,154,108,83,77,120,,111,111,13,24,11,11,0.9,0.9
2026-02-14T1100,1625A,115.9789,36.4372,聊城市,区政府,细颗粒物(PM2.5),123,143,163,93,93,87,,82,78,17,20,19,18,1.0,1
2026-02-14T1100,3200A,115.9772,36.4986,聊城市,监控中心,细颗粒物(PM2.5),117,145,167,88,94,106,,101,97,21,25,15,15,0.8,0.8
2026-02-14T1100,3513A,116.0443,36.436,聊城市,九州社区,细颗粒物(PM2.5),118,139,161,89,94,102,,83,82,11,16,7,6,0.8,0.8
2026-02-14T1100,4018A,116.0564,36.4609,聊城市,星美广场,细颗粒物(PM2.5),112,143,170,84,85,89,,81,78,16,18,7,8,1.1,1
2026-02-14T1100,4113A,116.0091,36.4495,聊城市,利民路,细颗粒物(PM2.5),110,128,151,83,89,98,,86,83,19,25,14,13,1.1,1.1
2026-02-14T1100,2632A,94.3683,29.6373,林芝市,林芝监测站,,24,9,7,6,9,75,,86,84,2,2,4,4,0.5,0.3
2026-02-14T1100,2633A,94.3616,29.6634,林芝市,林芝人民医院,,24,13,12,3,10,75,,85,84,4,1,5,5,0.3,0.1
2026-02-14T1100,2603A,100.0779,23.8981,临沧市,市环保局,,47,47,31,30,25,63,,57,52,8,7,5,5,0.7,0.6
2026-02-14T1100,2604A,100.0894,23.882,临沧市,市气象局,,,54,38,49,26,,,53,50,9,8,5,5,0.6,0.5
2026-02-14T1100,1733A,111.5552,36.0791,临汾市,临钢医院,细颗粒物(PM2.5),100,131,161,75,85,75,,57,53,24,29,12,11,1.4,1.5
2026-02-14T1100,1734A,111.4984,36.0734,临汾市,技工学校,细颗粒物(PM2.5),99,132,155,74,89,61,,41,41,30,33,16,18,0.8,0.8
2026-02-14T1100,1736A,111.5017,36.0857,临汾市,市委,,,141,160,74,81,,,38,35,29,35,13,14,1.4,1.3
2026-02-14T1100,3018A,111.5048,36.1015,临汾市,唐尧大酒店,细颗粒物(PM2.5),103,148,160,77,82,59,,37,37,34,38,14,15,1.4,1.4
2026-02-14T1100,4244A,111.4879,36.053,临汾市,启星学校,细颗粒物(PM2.5),100,134,157,75,88,60,,31,31,34,43,13,14,1.4,1.5
2026-02-14T1100,4271A,103.2464,35.6123,临夏回族自治州,滨河东路1号,颗粒物(PM10),82,114,84,49,46,43,,21,19,16,19,11,10,1.1,1.2
2026-02-14T1100,4310A,103.207136,35.599807,临夏回族自治州,新华街21号,颗粒物(PM10),82,114,85,52,52,36,,18,18,37,25,12,10,1.5,1.1
2026-02-14T1100,1618A,118.3429,35.0532,临沂市,沂河小区,细颗粒物(PM2.5),132,161,136,100,73,85,,60,60,31,29,23,18,0.8,0.7
2026-02-14T1100,1619A,118.2962,35.0568,临沂市,鲁南制药厂,细颗粒物(PM2.5),120,146,136,91,73,86,,62,62,34,31,27,21,0.8,0.7
2026-02-14T1100,1620A,118.2793,34.9976,临沂市,新光毛纺厂,细颗粒物(PM2.5),123,144,132,93,79,94,,58,58,28,30,23,19,1.0,0.9
2026-02-14T1100,1621A,118.3955,35.0889,临沂市,河东保险公司,细颗粒物(PM2.5),134,136,144,102,85,101,,57,57,33,54,24,15,1.0,1
2026-02-14T1100,3370A,118.3563,35.0215,临沂市,十里堡居委,细颗粒物(PM2.5),134,158,129,102,73,89,,61,61,34,32,27,21,1.0,0.9
2026-02-14T1100,3496A,118.359,35.1067,临沂市,南坊新区,细颗粒物(PM2.5),124,136,134,94,74,101,,65,65,26,36,18,15,0.8,0.7
2026-02-14T1100,3860A,118.3915,35.0297,临沂市,皇山花园小区,细颗粒物(PM2.5),143,161,130,109,74,95,,74,74,34,34,26,19,1.0,0.8
2026-02-14T1100,1870A,109.4854,24.3898,柳州市,柳东小学,,32,31,25,22,15,15,,9,9,8,9,5,4,0.9,0.9
2026-02-14T1100,1871A,109.4109,24.3304,柳州市,环保监测站,,29,29,29,19,16,7,,2,2,21,22,9,5,1.2,1.1
2026-02-14T1100,1872A,109.3886,24.3408,柳州市,河西水厂,颗粒物(PM10),51,52,40,19,17,8,,2,2,15,16,8,5,1.0,0.9
2026-02-14T1100,1873A,109.4263,24.2951,柳州市,市四中,颗粒物(PM10),54,57,40,32,22,5,,1,1,19,18,8,6,1.3,1.2
2026-02-14T1100,1874A,109.396,24.3658,柳州市,市九中,,42,42,28,16,13,7,,2,2,16,16,14,10,1.1,1.1
2026-02-14T1100,1875A,109.4912,24.3164,柳州市,古亭山,,32,32,37,21,21,8,,2,2,17,13,7,6,1.1,1
2026-02-14T1100,3402A,109.5422,24.3994,柳州市,市二中,,23,22,26,16,15,11,,6,6,12,12,6,5,0.8,0.7
2026-02-14T1100,2307A,116.5078,31.7369,六安市,监测大楼,细颗粒物(PM2.5),65,51,73,47,48,66,,60,60,22,16,7,4,0.5,0.5
2026-02-14T1100,2308A,116.4738,31.7642,六安市,皖西学院,颗粒物(PM10),61,72,85,42,49,82,,45,45,12,18,6,5,0.6,0.6
2026-02-14T1100,2309A,116.4997,31.7904,六安市,朝阳厂,细颗粒物(PM2.5),65,62,75,47,51,75,,38,38,20,23,6,6,0.6,0.6
2026-02-14T1100,2310A,116.5566,31.7885,六安市,开发区,颗粒物(PM10),54,57,79,36,51,83,,53,53,11,15,5,6,0.7,0.7
2026-02-14T1100,2577A,104.8293,26.592,六盘水市,黄土坡,细颗粒物(PM2.5),102,92,53,76,41,37,,17,17,34,20,18,10,1.9,1.1
2026-02-14T1100,2579A,104.8481,26.5898,六盘水市,民中,细颗粒物(PM2.5),104,,63,78,50,38,,12,12,28,25,12,9,1.2,1.2
2026-02-14T1100,2580A,104.9541,26.5506,六盘水市,双水,细颗粒物(PM2.5),63,48,51,45,39,60,,33,33,17,15,9,5,0.8,0.8
2026-02-14T1100,4151A,104.8899,26.5685,六盘水市,钟山大道中段564号,,,56,76,41,44,,,14,14,14,17,8,10,1.0,1.1
2026-02-14T1100,2336A,117.022,25.1031,龙岩市,龙岩市监测站,,48,48,30,22,19,99,,50,50,9,12,7,6,0.8,0.7
2026-02-14T1100,2337A,117.0257,25.0662,龙岩市,闽西职业技术学院,,42,42,29,18,17,103,,70,70,6,7,5,6,0.6,0.5
2026-02-14T1100,2338A,117.0195,25.0306,龙岩市,龙岩学院,,42,42,26,20,16,106,,74,74,6,7,5,4,/,/
2026-02-14T1100,2885A,104.9344,33.3827,陇南市,滨江中学,颗粒物(PM10),56,61,85,37,62,42,,25,25,21,36,12,15,1.0,1.6
2026-02-14T1100,3247A,104.9551,33.3709,陇南市,市总工会,颗粒物(PM10),52,54,66,30,37,43,,34,34,22,30,10,7,1.0,1.1
2026-02-14T1100,2488A,111.9984,27.7346,娄底市,市监测站,细颗粒物(PM2.5),168,158,80,127,62,7,,3,3,25,21,12,5,4.1,1.2
2026-02-14T1100,2491A,111.9888,27.7035,娄底市,市政府,细颗粒物(PM2.5),77,,59,56,44,6,,2,2,3,6,2,2,1.0,0.8
2026-02-14T1100,4127A,111.9812,27.7591,娄底市,涟钢职大,细颗粒物(PM2.5),87,82,71,64,52,3,,1,1,13,19,4,2,2.1,1.7
2026-02-14T1100,4128A,112.0303,27.7457,娄底市,娄底体校,细颗粒物(PM2.5),152,162,79,116,57,0,,0,0,18,13,2,2,2.8,1.3
2026-02-14T1100,1894A,105.4427,28.9063,泸州市,小市上码头,细颗粒物(PM2.5),77,70,74,56,56,51,,35,34,18,16,8,6,1.0,1
2026-02-14T1100,1895A,105.4241,28.8573,泸州市,兰田宪桥,细颗粒物(PM2.5),69,75,77,50,53,44,,25,25,20,23,10,9,1.0,1
2026-02-14T1100,1896A,105.4378,28.8833,泸州市,市环监站,细颗粒物(PM2.5),75,79,82,55,60,51,,30,26,16,20,9,9,0.8,0.7
2026-02-14T1100,4272A,105.3689,28.7783,泸州市,纳溪中医医院,细颗粒物(PM2.5),92,103,83,68,61,36,,18,17,17,17,11,9,0.7,0.7
2026-02-14T1100,2183A,111.1447,37.5212,吕梁市,环保局,颗粒物(PM10),74,97,95,30,28,28,,13,13,36,31,38,8,0.6,0.4
2026-02-14T1100,2185A,111.1285,37.5338,吕梁市,自来水公司,颗粒物(PM10),72,94,118,23,36,29,,8,8,31,35,28,15,0.5,0.4
2026-02-14T1100,2867A,111.1225,37.5093,吕梁市,马茂庄小学,颗粒物(PM10),75,99,114,29,38,21,,7,7,43,40,33,16,0.3,0.3
2026-02-14T1100,1812A,112.3934,34.6517,洛阳市,市委党校,颗粒物(PM10),72,94,123,45,72,44,,25,25,28,44,12,12,0.9,1.1
2026-02-14T1100,1815A,112.494,34.6883,洛阳市,河南林校,颗粒物(PM10),84,117,129,54,62,57,,24,24,35,45,26,17,1.0,0.8
2026-02-14T1100,1816A,112.3843,34.623,洛阳市,开发区管委会,颗粒物(PM10),73,96,133,32,50,49,,32,32,22,25,12,13,0.6,0.7
2026-02-14T1100,1817A,112.4263,34.6249,洛阳市,市委新办公区,颗粒物(PM10),65,80,120,34,52,57,,35,35,15,30,10,12,0.5,0.7
2026-02-14T1100,3340A,112.6005,34.6323,洛阳市,伊滨,颗粒物(PM10),76,101,133,40,58,67,,35,35,18,29,17,11,0.7,0.7
2026-02-14T1100,3341A,112.495,34.6338,洛阳市,中移产业园,颗粒物(PM10),61,72,106,32,56,58,,36,36,17,34,9,11,0.7,0.9
2026-02-14T1100,3593A,112.5736,34.8993,洛阳市,吉利监测站,颗粒物(PM10),58,65,108,12,44,78,,65,62,12,23,9,11,0.6,0.7
2026-02-14T1100,3635A,112.3678,34.6623,洛阳市,河科大西苑校区,颗粒物(PM10),82,113,136,57,69,64,,29,29,26,42,30,21,1.3,1.2
2026-02-14T1100,3636A,112.4387,34.678,洛阳市,英才小学,颗粒物(PM10),92,134,152,61,76,51,,15,15,45,60,27,20,1.3,1.3
2026-02-14T1100,4214A,112.460027,34.694929,洛阳市,春都路1号院,颗粒物(PM10),102,154,148,69,69,51,,20,20,47,45,30,16,1.2,0.9
2026-02-14T1100,2399A,114.051,33.5721,漯河市,三五一五工厂,细颗粒物(PM2.5),115,149,140,87,77,72,,67,67,23,27,8,7,1.2,1
2026-02-14T1100,2400A,114.0055,33.5698,漯河市,漯河大学,细颗粒物(PM2.5),110,119,119,83,72,79,,67,67,22,28,9,9,1.0,0.9
2026-02-14T1100,2401A,114.0134,33.5826,漯河市,市水利局,细颗粒物(PM2.5),110,114,123,83,75,85,,73,73,17,23,8,7,0.9,0.9
2026-02-14T1100,2402A,114.0261,33.5697,漯河市,市广电局,细颗粒物(PM2.5),107,117,119,80,73,73,,66,66,18,22,9,8,0.9,0.8
2026-02-14T1100,3478A,113.9691,33.568,漯河市,市图书馆,细颗粒物(PM2.5),110,128,132,83,70,78,,73,70,13,15,10,9,1.1,1
2026-02-14T1100,4250A,114.089259,33.588274,漯河市,韶山路11号,细颗粒物(PM2.5),104,124,133,78,70,76,,68,68,22,23,10,9,0.8,0.8
2026-02-14T1100,1798A,118.5084,31.6838,马鞍山市,湖东路四小,细颗粒物(PM2.5),74,76,87,54,54,53,,19,19,15,38,7,8,0.6,0.8
2026-02-14T1100,1799A,118.5019,31.6449,马鞍山市,开发区,细颗粒物(PM2.5),72,66,84,52,50,56,,13,13,14,40,5,7,0.5,0.7
2026-02-14T1100,3633A,118.4914,31.681,马鞍山市,雨山,细颗粒物(PM2.5),69,74,88,50,49,51,,13,13,14,37,3,7,0.9,1
2026-02-14T1100,4191A,118.527362,31.722269,马鞍山市,慈湖高新区,细颗粒物(PM2.5),84,88,91,62,53,50,,22,22,24,35,10,9,0.8,0.8
2026-02-14T1100,1686A,111.0285,21.469,茂名市,电白南海,颗粒物(PM10),51,51,48,21,27,84,,68,62,10,11,5,8,0.8,0.9
2026-02-14T1100,1687A,110.9294,21.6533,茂名市,茂石化七小,,,58,47,,24,72,,68,60,9,9,7,8,0.4,0.4
2026-02-14T1100,1688A,110.9108,21.6688,茂名市,健康路,,48,48,40,24,22,85,,75,67,10,9,11,7,0.7,0.7
2026-02-14T1100,1689A,110.8592,21.6826,茂名市,高岭,颗粒物(PM10),58,66,54,33,28,82,,62,54,6,9,8,5,/,/
2026-02-14T1100,3450A,111.0101,21.5165,茂名市,电白水东,,36,36,39,18,22,90,,80,74,19,19,5,4,/,/
2026-02-14T1100,2540A,103.8414,30.0871,眉山市,气象局,,,68,80,59,56,49,,19,19,19,21,,10,0.9,0.8
2026-02-14T1100,3148A,103.829,30.0563,眉山市,区人社局,细颗粒物(PM2.5),93,86,86,69,58,32,,12,12,39,33,9,5,1.1,0.8
2026-02-14T1100,4148A,103.8836,30.0695,眉山市,眉职院,细颗粒物(PM2.5),77,93,77,56,46,68,,28,27,10,14,6,5,0.9,0.8
2026-02-14T1100,1690A,116.1248,24.3307,梅州市,梅江月梅,,40,38,35,28,27,90,,48,48,12,13,/,/,/,/
2026-02-14T1100,1691A,116.0798,24.2719,梅州市,梅县新城,细颗粒物(PM2.5),54,51,40,38,29,104,,46,46,17,17,8,8,0.8,0.7
2026-02-14T1100,3315A,116.1234,24.2994,梅州市,梅龙,,45,41,41,31,30,81,,46,46,14,17,9,8,0.9,0.9
2026-02-14T1100,1878A,104.7775,31.4741,绵阳市,富乐山,细颗粒物(PM2.5),92,97,83,68,59,50,,43,36,17,13,9,9,0.9,0.8
2026-02-14T1100,1880A,104.6698,31.4668,绵阳市,高新区自来水公司,细颗粒物(PM2.5),89,88,101,66,70,64,,19,19,24,39,8,8,1.0,1
2026-02-14T1100,3491A,104.6899,31.5324,绵阳市,西科大附属小学,细颗粒物(PM2.5),88,95,105,65,72,55,,33,33,20,30,9,10,0.9,0.7
2026-02-14T1100,3492A,104.5647,31.5343,绵阳市,安州区旅游局,细颗粒物(PM2.5),84,90,97,62,75,73,,26,26,17,35,8,6,1.0,1.1
2026-02-14T1100,4146A,104.7092,31.4972,绵阳市,科技城新区公安局,细颗粒物(PM2.5),88,105,103,65,63,60,,42,42,25,32,6,6,1.0,0.9
2026-02-14T1100,4226A,104.765114,31.453094,绵阳市,绵阳市气象局,,,97,90,73,64,,,11,11,30,31,13,10,0.7,0.5
2026-02-14T1100,1784A,129.61,44.561,牡丹江市,环保大楼,细颗粒物(PM2.5),107,89,109,80,91,47,,23,23,45,48,16,8,1.0,1.1
2026-02-14T1100,1787A,129.6364,44.6075,牡丹江市,机车工厂,细颗粒物(PM2.5),70,60,93,51,76,69,,24,24,24,46,19,10,0.7,1
2026-02-14T1100,1788A,129.6386,44.5462,牡丹江市,第一中学,细颗粒物(PM2.5),84,,67,62,65,61,,28,28,34,36,15,9,0.9,1
2026-02-14T1100,4287A,129.5992,44.5964,牡丹江市,东晓云街98号,细颗粒物(PM2.5),82,88,95,60,76,51,,29,27,39,40,25,11,0.8,1.1
2026-02-14T1100,2531A,105.0703,29.61,内江市,市监测站,细颗粒物(PM2.5),117,,79,88,68,56,,30,28,41,33,9,7,0.9,0.7
2026-02-14T1100,2533A,105.0657,29.5807,内江市,内江二中,细颗粒物(PM2.5),103,89,88,77,61,56,,19,19,33,40,9,8,0.8,0.7
2026-02-14T1100,2534A,105.0407,29.5828,内江市,内江日报社,细颗粒物(PM2.5),109,,71,82,61,41,,14,14,37,46,12,11,0.8,0.6
2026-02-14T1100,4147A,105.0433,29.6105,内江市,玉峰路西段888号,细颗粒物(PM2.5),104,78,78,78,64,37,,28,26,40,34,6,6,1.0,0.8
2026-02-14T1100,2628A,92.0653,31.4846,那曲市,那曲监测站,,36,30,37,25,22,67,,62,62,8,21,10,12,0.5,1
2026-02-14T1100,4243A,92.0515,31.4787,那曲市,那曲市委宣传部,,23,22,17,12,17,73,,65,65,2,10,4,6,0.4,0.7
2026-02-14T1100,1291A,115.8887,28.7006,南昌市,省林业公司,细颗粒物(PM2.5),54,,26,38,29,16,,10,9,24,20,3,3,1.0,0.9
2026-02-14T1100,1292A,115.813,28.7443,南昌市,林科所,,35,27,27,24,23,16,,7,7,18,17,7,7,1.1,1.1
2026-02-14T1100,1294A,115.8518,28.687,南昌市,建工学校,,50,43,42,35,29,16,,11,10,22,20,6,6,0.8,0.6
2026-02-14T1100,1295A,115.8926,28.6425,南昌市,象湖,,45,,33,31,31,20,,8,8,16,17,7,7,1.4,1.2
2026-02-14T1100,3046A,115.9084,28.6062,南昌市,机电学校,,40,35,41,28,34,31,,12,12,12,18,5,4,1.0,0.9
2026-02-14T1100,3690A,115.9718,28.7032,南昌市,外国语学校,细颗粒物(PM2.5),53,,36,37,36,23,,9,8,14,21,7,9,1.1,1.1
2026-02-14T1100,4106A,115.7923,28.6873,南昌市,工业二路,细颗粒物(PM2.5),54,44,40,38,30,15,,9,8,24,17,4,4,1.1,1
2026-02-14T1100,4192A,115.931587,28.686774,南昌市,南京东路235号,细颗粒物(PM2.5),54,48,45,38,31,16,,8,7,16,18,4,4,0.8,0.7
2026-02-14T1100,1906A,106.0791,30.8022,南充市,南充市委,细颗粒物(PM2.5),90,90,76,67,57,42,,15,15,21,37,6,6,1.1,1
2026-02-14T1100,1907A,106.1038,30.8215,南充市,南充炼油厂,细颗粒物(PM2.5),89,76,93,66,65,47,,25,25,20,34,6,6,0.7,0.7
2026-02-14T1100,4227A,106.108336,30.788436,南充市,梨树横街98号,细颗粒物(PM2.5),97,86,87,72,64,48,,23,23,22,38,6,7,0.5,0.6
2026-02-14T1100,4304A,106.1172,30.843,南充市,清泉寺北路188号,细颗粒物(PM2.5),89,70,78,66,63,48,,38,35,12,20,4,5,0.7,0.7
2026-02-14T1100,4305A,106.067,30.7616,南充市,同庆路1号,,,86,86,67,57,46,,16,16,,40,6,6,0.6,0.7
2026-02-14T1100,1151A,118.8033,32.1085,南京市,迈皋桥,细颗粒物(PM2.5),73,83,73,53,45,58,,22,22,37,38,10,9,0.5,0.7
2026-02-14T1100,1152A,118.7487,32.057,南京市,草场门,细颗粒物(PM2.5),67,75,81,48,43,38,,16,16,38,59,11,12,1.0,1.2
2026-02-14T1100,1154A,118.770105,32.004342,南京市,中华门,细颗粒物(PM2.5),84,83,75,62,42,45,,30,25,36,26,7,6,0.9,0.9
2026-02-14T1100,1155A,118.8059,32.0329,南京市,瑞金路,细颗粒物(PM2.5),94,95,78,70,46,44,,12,12,46,54,8,5,2.5,2.3
2026-02-14T1100,1156A,118.7946,32.0774,南京市,玄武湖,颗粒物(PM10),71,92,76,48,38,60,,25,24,36,35,1,4,1.1,1.2
2026-02-14T1100,1157A,118.6415,32.0964,南京市,浦口,细颗粒物(PM2.5),74,93,86,54,46,62,,38,36,26,29,9,9,0.8,1
2026-02-14T1100,1158A,118.730129,32.000956,南京市,奥体中心,细颗粒物(PM2.5),83,88,84,61,43,35,,9,9,43,45,12,10,0.7,0.9
2026-02-14T1100,1159A,118.9072,32.1047,南京市,仙林大学城,细颗粒物(PM2.5),80,95,78,59,36,60,,22,22,30,34,11,8,1.0,0.8
2026-02-14T1100,3422A,118.8443,31.919,南京市,江宁彩虹桥,细颗粒物(PM2.5),82,94,84,60,38,68,,22,22,33,48,11,4,1.6,0.8
2026-02-14T1100,3427A,118.8497,32.3599,南京市,六合雄州,细颗粒物(PM2.5),84,94,97,62,52,40,,10,10,14,45,3,4,1.1,1.2
2026-02-14T1100,4086A,118.7641,32.0841,南京市,新模范马路66号,细颗粒物(PM2.5),83,90,92,61,47,47,,17,17,32,48,3,4,0.9,1.2
2026-02-14T1100,4249A,118.8707617,31.34017673,南京市,汶溪路181号,细颗粒物(PM2.5),58,,69,41,35,54,,39,34,14,19,6,5,1.1,0.9
2026-02-14T1100,4312A,119.019,31.6512,南京市,中山西路1号,细颗粒物(PM2.5),72,58,53,52,27,49,,23,23,20,23,3,4,1.3,0.9
2026-02-14T1100,1401A,108.3098,22.788,南宁市,二十一中,,38,32,48,26,30,47,,24,24,12,20,4,3,0.6,0.7
2026-02-14T1100,1402A,108.3135,22.8529,南宁市,北湖,颗粒物(PM10),79,108,77,47,56,29,,5,5,22,34,2,3,0.8,1.1
2026-02-14T1100,1403A,108.3205,22.8222,南宁市,市监测站,,46,46,51,27,33,49,,22,21,15,26,5,5,0.7,0.8
2026-02-14T1100,1404A,108.3828,22.8038,南宁市,大自然花园,细颗粒物(PM2.5),53,45,41,37,25,48,,34,34,12,13,5,5,0.7,0.7
2026-02-14T1100,1406A,108.2397,22.8462,南宁市,区农职院,,47,47,62,31,37,47,,13,13,21,29,4,3,0.7,0.8
2026-02-14T1100,1407A,108.3285,22.7356,南宁市,英华嘉园,颗粒物(PM10),52,54,58,30,28,49,,18,18,9,18,3,3,0.5,0.6
2026-02-14T1100,3401A,108.4829,22.762,南宁市,红星社区,,46,41,48,32,30,59,,17,17,5,14,4,5,0.9,0.9
2026-02-14T1100,4132A,108.2927,23.1477,南宁市,起凤路9号,细颗粒物(PM2.5),59,44,49,42,37,50,,23,14,12,14,3,2,0.8,0.7
2026-02-14T1100,4221A,108.2177,22.7774,南宁市,乐贤路16号,,20,19,46,13,27,61,,20,20,9,26,1,2,0.4,0.7
2026-02-14T1100,2332A,118.1682,26.6371,南平市,南平市监测站,,48,48,53,26,28,62,,21,21,10,19,5,5,0.7,0.8
2026-02-14T1100,2334A,118.1757,26.6276,南平市,南平七中,颗粒物(PM10),51,51,42,29,29,60,,20,20,9,16,4,3,0.6,0.8
2026-02-14T1100,1168A,120.9056,31.9669,南通市,狼山街道,细颗粒物(PM2.5),82,99,100,60,68,66,,16,16,51,42,10,6,1.1,0.9
2026-02-14T1100,1170A,120.8635,32.0231,南通市,城中,细颗粒物(PM2.5),104,126,122,78,80,56,,17,16,56,48,12,8,1.0,1.1
2026-02-14T1100,1171A,120.9376,31.9301,南通市,星湖花园,细颗粒物(PM2.5),105,113,104,79,73,47,,12,12,67,51,15,8,1.1,1
2026-02-14T1100,1172A,120.8053,32.046,南通市,紫琅学院,细颗粒物(PM2.5),90,113,132,67,82,58,,13,10,47,52,11,9,0.9,1.2
2026-02-14T1100,3291A,121.0631,32.0644,南通市,通州监测站,细颗粒物(PM2.5),72,80,107,52,64,88,,34,34,23,34,10,8,0.9,1
2026-02-14T1100,3432A,120.9348,31.9874,南通市,环境教育馆,细颗粒物(PM2.5),83,97,98,61,67,54,,14,14,59,43,12,7,0.9,0.8
2026-02-14T1100,4091A,120.8692,31.9885,南通市,洪江路,细颗粒物(PM2.5),100,100,104,75,81,51,,15,14,56,59,16,11,1.3,1.1
2026-02-14T1100,2404A,112.5338,33.0086,南阳市,瓦房庄,细颗粒物(PM2.5),97,120,121,72,76,59,,54,51,18,22,8,7,1.2,1.2
2026-02-14T1100,2405A,112.5002,32.9734,南阳市,汉画馆,细颗粒物(PM2.5),139,137,135,106,93,59,,51,49,19,24,10,7,1.3,1.2
2026-02-14T1100,2406A,112.5778,33.0144,南阳市,气象站,细颗粒物(PM2.5),98,134,141,73,73,70,,65,61,16,23,8,8,1.1,1.1
2026-02-14T1100,2407A,112.548,32.9687,南阳市,理工学院,细颗粒物(PM2.5),120,128,126,91,84,62,,60,55,15,20,8,8,1.1,1
2026-02-14T1100,4008A,112.5233,32.9921,南阳市,卧龙区政府,细颗粒物(PM2.5),103,142,152,77,81,54,,52,47,18,23,8,8,1.1,1.1
2026-02-14T1100,1234A,121.8352,29.9111,宁波市,区环保大楼,"颗粒物(PM10),细颗粒物(PM2.5)",52,53,54,36,26,60,,40,28,28,42,14,8,0.8,0.6
2026-02-14T1100,1235A,121.5595,29.8208,宁波市,万里学院,,42,34,42,29,26,63,,70,61,12,14,4,4,0.9,0.8
2026-02-14T1100,1236A,121.713,29.9564,宁波市,龙赛医院,,42,36,46,29,28,71,,63,57,14,24,4,5,0.8,0.8
2026-02-14T1100,1240A,121.5855,29.8635,宁波市,太古小学,,39,39,47,27,25,64,,68,61,13,17,3,3,0.7,0.5
2026-02-14T1100,1241A,121.5239,29.8673,宁波市,市环境监测中心,"颗粒物(PM10),细颗粒物(PM2.5)",52,54,54,36,31,51,,52,44,8,16,2,3,0.8,0.7
2026-02-14T1100,2871A,121.6156,29.9015,宁波市,万里国际学校,,46,32,48,32,28,60,,64,56,12,16,4,4,0.8,0.7
2026-02-14T1100,3710A,121.5593,29.8976,宁波市,白沙活动中心,细颗粒物(PM2.5),52,40,49,36,30,58,,55,50,14,19,4,4,0.5,0.5
2026-02-14T1100,4095A,121.8962,29.7529,宁波市,中科路88号,,39,28,38,27,26,35,,44,32,33,19,7,6,0.6,0.5
2026-02-14T1100,2341A,119.5387,26.6611,宁德市,宁德市监测站,,49,49,42,30,30,71,,23,23,13,25,5,4,1.1,1.1
2026-02-14T1100,3209A,119.5231,26.6562,宁德市,宁德一中,细颗粒物(PM2.5),55,45,44,39,30,74,,33,33,15,17,4,4,0.9,0.9
2026-02-14T1100,2618A,98.859,25.8541,怒江傈僳族自治州,州监测站,,36,36,28,13,16,58,,56,53,7,7,6,6,0.4,0.3
2026-02-14T1100,2619A,98.8607,25.8168,怒江傈僳族自治州,泸水一中,,35,,27,24,23,48,,35,35,12,13,5,5,0.4,0.6
2026-02-14T1100,1888A,101.6891,26.571,攀枝花市,弄弄坪,颗粒物(PM10),67,83,39,37,20,31,,24,24,48,26,87,18,4.2,1.1
2026-02-14T1100,1889A,101.577,26.5914,攀枝花市,河门口,颗粒物(PM10),52,53,32,32,17,36,,29,29,21,13,20,24,1.5,0.8
2026-02-14T1100,1891A,101.7365,26.4986,攀枝花市,仁和,,35,32,29,24,18,51,,39,38,25,13,36,11,2.7,0.7
2026-02-14T1100,2835A,101.7222,26.567,攀枝花市,四十中小,,48,48,44,25,23,30,,22,22,38,39,22,16,1.2,1.1
2026-02-14T1100,1604A,122.0303,41.1489,盘锦市,开发区,细颗粒物(PM2.5),103,,110,77,98,84,,87,83,19,20,6,7,0.8,0.9
2026-02-14T1100,1605A,122.0486,41.0883,盘锦市,兴隆台,细颗粒物(PM2.5),107,,100,80,101,92,,96,88,19,25,6,7,0.8,0.9
2026-02-14T1100,1606A,121.8297,41.1026,盘锦市,新生街道,细颗粒物(PM2.5),113,,86,85,99,,,84,84,20,24,9,8,1.0,1.1
2026-02-14T1100,1832A,113.3257,33.7423,平顶山市,新华旅馆,细颗粒物(PM2.5),135,135,127,103,76,79,,51,49,23,30,8,7,0.8,0.6
2026-02-14T1100,1833A,113.2917,33.737,平顶山市,规划设计院,细颗粒物(PM2.5),125,166,150,95,79,76,,34,32,15,24,10,8,0.8,0.6
2026-02-14T1100,1834A,113.182,33.7738,平顶山市,平顶山工学院,细颗粒物(PM2.5),114,136,135,86,72,86,,73,66,15,17,10,10,0.7,0.6
2026-02-14T1100,3594A,112.8736,33.9068,平顶山市,石龙区,颗粒物(PM10),69,88,132,27,61,96,,73,73,8,20,7,8,0.8,0.8
2026-02-14T1100,4116A,113.284,33.7139,平顶山市,姚电大道23号,细颗粒物(PM2.5),138,191,157,105,80,77,,60,50,19,21,8,6,0.9,0.7
2026-02-14T1100,2656A,106.6633,35.5338,平凉市,聚贤嘉苑,颗粒物(PM10),105,160,52,33,23,66,,57,57,13,16,9,7,0.6,0.5
2026-02-14T1100,2657A,106.7021,35.5307,平凉市,博物馆,颗粒物(PM10),74,98,56,39,28,64,,42,42,14,22,11,9,0.7,0.9
2026-02-14T1100,2348A,113.8384,27.6436,萍乡市,中医院,细颗粒物(PM2.5),84,,78,62,60,27,,6,6,20,29,10,5,1.8,2.4
2026-02-14T1100,2350A,113.8677,27.6438,萍乡市,市环保局,细颗粒物(PM2.5),87,70,71,64,61,32,,8,8,22,32,12,7,1.8,2.2
2026-02-14T1100,2351A,113.8663,27.6202,萍乡市,安源区政府,细颗粒物(PM2.5),74,56,74,54,60,19,,3,3,15,25,8,5,2.0,2.2
2026-02-14T1100,4107A,113.8686,27.6668,萍乡市,联洪村委会,细颗粒物(PM2.5),83,76,80,61,64,21,,6,6,19,27,5,3,1.5,2
2026-02-14T1100,2319A,119.0142,25.4324,莆田市,荔城区仓后路,细颗粒物(PM2.5),74,68,50,54,32,102,,56,56,19,15,/,/,/,/
2026-02-14T1100,2320A,119.0016,25.4553,莆田市,莆田市监测站,细颗粒物(PM2.5),70,78,39,51,29,96,,52,52,16,11,3,3,0.7,0.6
2026-02-14T1100,2321A,119.112,25.4561,莆田市,涵江区六中,,,117,45,54,26,122,,65,65,20,13,/,/,,0.7
2026-02-14T1100,2322A,119.1014,25.3215,莆田市,秀屿区政府,细颗粒物(PM2.5),74,59,64,54,54,114,,62,62,14,15,6,4,0.6,0.6
2026-02-14T1100,2392A,115.0312,35.7636,濮阳市,环保局,细颗粒物(PM2.5),114,156,160,86,92,90,,79,71,23,26,11,10,0.9,0.8
2026-02-14T1100,3021A,115,35.7667,濮阳市,濮水河管理处,细颗粒物(PM2.5),122,175,178,92,99,94,,74,70,17,24,13,10,0.8,0.9
2026-02-14T1100,4118A,115.0552,35.7816,濮阳市,中原东路68号,"颗粒物(PM10),细颗粒物(PM2.5)",114,178,182,86,94,92,,74,72,25,28,13,10,1.1,1
2026-02-14T1100,4216A,115.0923632,35.76857718,濮阳市,任丘路479号,细颗粒物(PM2.5),133,176,188,101,107,85,,62,58,25,32,11,10,0.8,0.8
2026-02-14T1100,2601A,100.9801,22.7634,普洱市,市环保局,颗粒物(PM10),55,60,60,27,27,64,,52,50,24,10,6,5,0.8,0.6
2026-02-14T1100,2602A,100.9763,22.8237,普洱市,普洱第二中学,颗粒物(PM10),59,68,60,29,32,69,,32,32,22,22,6,6,0.6,0.5
2026-02-14T1100,3345A,131.0413,45.7795,七台河市,中波台,,28,21,61,8,51,88,,78,78,8,17,9,9,0.2,0.5
2026-02-14T1100,3637A,131.0136,45.7688,七台河市,人民广场,,27,27,88,13,59,85,,76,76,14,29,11,11,0.5,0.9
2026-02-14T1100,3684A,130.8639,45.8144,七台河市,新建矿广场,,39,39,81,8,62,82,,64,64,13,23,12,13,0.4,0.8
2026-02-14T1100,1779A,123.9307,47.3641,齐齐哈尔市,安居小区,,31,31,69,20,49,73,,75,74,10,18,14,15,0.5,0.6
2026-02-14T1100,1780A,123.9497,47.3389,齐齐哈尔市,中心广场,颗粒物(PM10),56,61,69,39,49,73,,77,76,14,17,8,10,0.6,0.7
2026-02-14T1100,1781A,123.9483,47.3229,齐齐哈尔市,农牧车辆厂,,46,44,71,32,53,73,,77,76,10,14,5,7,0.2,0.4
2026-02-14T1100,1783A,123.9442,47.2994,齐齐哈尔市,市环境监测站,颗粒物(PM10),52,54,71,30,51,76,,77,77,14,19,5,6,0.5,0.6
2026-02-14T1100,3662A,123.6341,47.2079,齐齐哈尔市,富区青少年活动中心,细颗粒物(PM2.5),52,52,79,36,56,80,,76,76,8,11,7,7,0.5,0.6
2026-02-14T1100,2591A,107.9765,26.5724,黔东南苗族侗族自治州,市环境监测站,细颗粒物(PM2.5),63,53,45,45,37,21,,11,11,17,16,5,5,0.9,0.8
2026-02-14T1100,2881A,107.8909,26.531,黔东南苗族侗族自治州,凯里学院,细颗粒物(PM2.5),59,,43,42,38,23,,10,10,12,11,8,9,0.8,0.7
2026-02-14T1100,2593A,107.5223,26.2371,黔南布依族苗族自治州,小围寨,,25,,29,17,28,39,,11,11,5,9,6,8,0.8,1
2026-02-14T1100,3538A,107.5175,26.2977,黔南布依族苗族自治州,沙坝,细颗粒物(PM2.5),54,41,38,38,29,16,,8,8,17,13,14,7,1.0,0.8
2026-02-14T1100,2589A,104.9022,25.0943,黔西南布依族苗族自治州,场坝街,,33,,31,23,21,38,,20,20,10,9,4,4,0.8,0.8
2026-02-14T1100,2590A,104.8812,25.0994,黔西南布依族苗族自治州,坪东大道,,27,27,31,18,22,39,,12,12,9,12,5,6,0.7,0.9
2026-02-14T1100,2502A,108.6238,21.9667,钦州市,市环保站,细颗粒物(PM2.5),59,63,59,42,37,78,,38,38,10,13,5,3,0.7,0.7
2026-02-14T1100,2503A,108.655,21.9481,钦州市,沙埠小学,颗粒物(PM10),64,78,56,34,33,81,,39,39,10,14,6,6,0.7,0.5
2026-02-14T1100,2504A,108.5989,21.7435,钦州市,港区一小,细颗粒物(PM2.5),74,80,56,54,30,50,,34,34,35,25,4,2,0.8,0.6
2026-02-14T1100,3404A,108.5959,21.9634,钦州市,北职校,颗粒物(PM10),63,76,57,41,33,73,,30,30,14,15,4,3,0.9,0.8
2026-02-14T1100,1046A,119.5247,39.9346,秦皇岛市,建设大厦,细颗粒物(PM2.5),198,202,197,148,132,26,,60,35,62,43,12,14,1.5,1.3
2026-02-14T1100,3132A,119.5979,39.938,秦皇岛市,文明里,细颗粒物(PM2.5),162,191,187,123,121,31,,61,38,66,64,16,15,1.2,1.1
2026-02-14T1100,4066A,119.7458,39.9952,秦皇岛市,南园路157号,细颗粒物(PM2.5),185,161,182,139,129,36,,45,35,50,62,8,13,1.6,1.1
2026-02-14T1100,4067A,119.5131,39.8858,秦皇岛市,翠岛大街1号,细颗粒物(PM2.5),110,109,168,83,131,53,,58,44,29,42,12,16,0.9,1.2
2026-02-14T1100,4198A,119.509013,39.825305,秦皇岛市,北戴河轮滑馆,细颗粒物(PM2.5),143,176,202,109,131,52,,61,50,41,53,14,12,1.2,1.1
2026-02-14T1100,1310A,120.404,36.0625,青岛市,市南区东部子站,细颗粒物(PM2.5),102,105,137,76,95,106,,114,107,13,24,12,11,0.8,0.8
2026-02-14T1100,1311A,120.362344,36.10282,青岛市,四方区子站,细颗粒物(PM2.5),108,110,123,81,82,110,,121,108,30,25,12,9,1.3,1.1
2026-02-14T1100,1312A,120.294373,36.054183,青岛市,市南区西部子站,细颗粒物(PM2.5),99,85,120,74,100,104,,111,104,15,29,5,6,0.9,0.9
2026-02-14T1100,1313A,120.4581,36.0858,青岛市,崂山区子站,,,88,131,65,93,,,115,112,26,28,12,11,0.8,0.9
2026-02-14T1100,1315A,120.3945,36.3083,青岛市,城阳区子站,细颗粒物(PM2.5),107,136,122,80,68,112,,113,96,36,31,18,10,1.5,1.1
2026-02-14T1100,3642A,120.3454,36.0735,青岛市,市北区南部,细颗粒物(PM2.5),105,113,135,79,85,105,,119,110,18,24,5,5,1.1,1.1
2026-02-14T1100,3643A,120.3897,36.18,青岛市,李沧区北部,细颗粒物(PM2.5),99,119,122,74,74,103,,117,104,38,35,15,13,1.2,1
2026-02-14T1100,4110A,120.5222,36.4089,青岛市,盟旺路653号,细颗粒物(PM2.5),115,145,128,87,62,93,,117,101,34,20,10,3,1.5,0.9
2026-02-14T1100,4290A,120.196923,35.954556,青岛市,珠江路669号,细颗粒物(PM2.5),85,83,125,63,88,102,,118,112,17,27,11,12,0.8,0.9
2026-02-14T1100,4291A,120.0424,35.8656,青岛市,黄岛区人民政府广场,细颗粒物(PM2.5),103,97,127,77,88,109,,94,85,20,35,9,9,0.8,0.9
2026-02-14T1100,1703A,113.0218,23.7086,清远市,凤城街办,细颗粒物(PM2.5),75,66,50,55,36,94,,54,54,16,26,/,/,/,/
2026-02-14T1100,3025A,113.0479,23.6343,清远市,技师学院,细颗粒物(PM2.5),58,62,50,41,31,88,,46,46,18,21,7,6,0.5,0.5
2026-02-14T1100,3318A,112.9898,23.7403,清远市,清新太和,细颗粒物(PM2.5),74,78,42,54,29,107,,71,71,22,22,13,9,0.7,0.6
2026-02-14T1100,3455A,113.076,23.72,清远市,清城东城,细颗粒物(PM2.5),63,69,48,45,29,90,,46,46,19,31,/,/,/,/
2026-02-14T1100,2661A,107.6325,35.7357,庆阳市,庆阳五中,颗粒物(PM10),65,80,53,33,27,77,,78,69,17,18,9,11,0.5,0.4
2026-02-14T1100,2662A,107.6361,35.7067,庆阳市,市环保局,颗粒物(PM10),62,73,56,35,30,84,,90,83,12,12,6,8,0.5,0.4
2026-02-14T1100,1916A,103.7897,25.5036,曲靖市,环境监测站,,34,34,29,22,18,91,,52,52,13,13,7,6,0.5,0.4
2026-02-14T1100,1917A,103.8013,25.5357,曲靖市,烟厂办公区,颗粒物(PM10),59,68,35,25,18,63,,27,25,20,20,9,5,0.7,0.4
2026-02-14T1100,3376A,103.7926,25.4651,曲靖市,南苑二区,,33,33,24,19,17,84,,64,62,15,13,5,4,0.5,0.4
2026-02-14T1100,3377A,103.7442,25.5259,曲靖市,曲靖师范学院,,50,50,33,20,23,86,,50,43,9,15,4,4,0.4,0.4
2026-02-14T1100,1264A,118.8694,28.94,衢州市,环保大楼,,30,25,74,21,47,24,,13,12,15,31,/,/,/,/
2026-02-14T1100,1266A,118.8622,28.9809,衢州市,衢州学院,,38,28,62,26,42,21,,13,11,13,20,4,4,0.8,0.8
2026-02-14T1100,4097A,118.9646,28.9832,衢州市,衢州三中,,42,37,79,29,52,19,,7,6,20,29,6,6,1.1,1.1
2026-02-14T1100,1611A,118.5818,24.9116,泉州市,涂山街,,47,47,43,31,32,85,,59,58,11,14,4,4,0.6,0.7
2026-02-14T1100,1612A,118.597,24.8976,泉州市,津头埔,颗粒物(PM10),52,53,42,35,33,81,,58,57,13,14,4,3,0.6,0.5
2026-02-14T1100,1613A,118.6669,24.9422,泉州市,万安,颗粒物(PM10),53,56,41,31,30,74,,43,42,12,15,4,3,0.6,0.5
2026-02-14T1100,4105A,118.6355,24.9148,泉州市,霞新路6号,,42,41,40,29,29,81,,46,46,6,14,/,/,0.5,0.5
2026-02-14T1100,2626A,88.8873,29.2723,日喀则市,日喀则监测站,,26,13,30,9,14,82,,55,55,7,18,11,15,0.4,0.7
2026-02-14T1100,3726A,88.8775,29.2425,日喀则市,林业技术推广中心,,26,9,22,8,15,83,,48,48,3,14,12,13,0.2,0.5
2026-02-14T1100,1659A,119.4711,35.421,日照市,监测站,细颗粒物(PM2.5),156,166,150,119,96,73,,17,17,52,52,22,14,1.7,1.5
2026-02-14T1100,1660A,119.523,35.4216,日照市,市政府广场,细颗粒物(PM2.5),159,158,148,121,97,63,,58,48,60,42,15,13,1.3,1
2026-02-14T1100,1661A,119.5511,35.4113,日照市,港务局,细颗粒物(PM2.5),153,156,158,117,99,82,,62,55,34,42,7,9,1.1,1.1
2026-02-14T1100,3507A,119.5326,35.4627,日照市,职业技术学院,细颗粒物(PM2.5),134,156,143,102,92,89,,68,58,51,39,20,12,2.0,1.4
2026-02-14T1100,3604A,119.3267,35.1043,日照市,岚山环保分局,细颗粒物(PM2.5),165,158,155,125,92,,,72,65,37,39,,18,1.2,1.3
2026-02-14T1100,1835A,111.1922,34.7752,三门峡市,市政府,颗粒物(PM10),58,66,94,31,41,68,,44,44,17,32,10,15,0.4,0.6
2026-02-14T1100,1836A,111.1588,34.794,三门峡市,开发区,颗粒物(PM10),71,91,123,36,57,61,,46,46,14,26,9,12,0.5,0.7
2026-02-14T1100,3039A,111.1911,34.7829,三门峡市,三门峡市第一小学,颗粒物(PM10),62,74,112,29,51,71,,56,55,13,27,12,16,0.4,0.7
2026-02-14T1100,3598A,111.1031,34.719,三门峡市,富达温泉假日酒店,细颗粒物(PM2.5),69,77,110,50,56,40,,38,34,38,34,17,19,0.9,0.9
2026-02-14T1100,2324A,117.621,26.2626,三明市,三钢,,41,41,37,25,32,58,,18,18,12,20,10,10,1.1,1.3
2026-02-14T1100,2325A,117.6352,26.2714,三明市,三明二中,,38,38,36,26,28,59,,20,20,19,22,18,11,1.2,1.3
2026-02-14T1100,2326A,117.6028,26.2377,三明市,三元区政府,,40,36,36,28,27,58,,19,19,16,21,8,6,1.1,1.4
2026-02-14T1100,1877A,109.4962,18.2682,三亚市,河西子站,,32,32,29,11,13,82,,73,66,4,4,3,1,0.4,0.4
2026-02-14T1100,3540A,109.7348,18.3443,三亚市,君悦子站,,43,43,33,16,16,81,,48,48,4,6,3,3,0.4,0.5
2026-02-14T1100,4135A,109.1714,18.3739,三亚市,城东小学站,,33,33,29,19,17,78,,33,33,5,8,/,/,/,/
2026-02-14T1100,2624A,91.7592,29.234,山南市,山南监测站,,23,14,10,3,3,73,,90,83,7,3,2,2,0.4,0.3
2026-02-14T1100,2625A,91.7701,29.2436,山南市,山南人民医院,,24,24,13,3,6,69,,86,79,9,4,10,9,0.5,0.4
2026-02-14T1100,1674A,116.6795,23.3666,汕头市,金平子站,颗粒物(PM10),51,51,39,35,29,96,,54,53,18,18,8,5,1.2,0.8
2026-02-14T1100,1675A,116.7248,23.3632,汕头市,龙湖子站,,47,47,42,23,28,100,,64,64,15,14,10,10,/,/
2026-02-14T1100,1676A,116.7257,23.2774,汕头市,濠江子站,颗粒物(PM10),62,74,46,30,29,94,,59,59,25,20,10,8,/,/
2026-02-14T1100,1677A,116.7518,23.4712,汕头市,澄海子站,,44,44,46,23,29,92,,57,57,7,12,7,7,0.8,0.8
2026-02-14T1100,1678A,116.6088,23.2539,汕头市,潮阳子站,,,29,37,16,30,99,,68,68,,14,6,6,0.7,0.7
2026-02-14T1100,3444A,116.4539,23.2684,汕头市,潮南峡山,,45,45,50,31,34,103,,60,60,7,11,6,6,0.8,0.8
2026-02-14T1100,3624A,116.4069,23.2533,汕头市,潮南子站,,37,37,61,24,37,91,,51,50,9,11,6,6,/,/
2026-02-14T1100,1693A,115.3653,22.7751,汕尾市,市环保局,,30,22,36,14,27,93,,87,87,9,12,5,5,0.7,0.7
2026-02-14T1100,1695A,115.362,22.7926,汕尾市,新城中学,,29,29,38,10,25,91,,84,84,8,11,5,5,0.7,0.7
2026-02-14T1100,2645A,109.9155,33.8714,商洛市,监测站,,45,45,58,18,31,60,,42,42,7,19,4,6,0.6,0.7
2026-02-14T1100,3045A,109.9647,33.8486,商洛市,商州区中学,颗粒物(PM10),54,58,56,29,29,56,,34,34,10,17,5,6,0.6,0.6
2026-02-14T1100,2408A,115.6701,34.4283,商丘市,环境监测站,细颗粒物(PM2.5),93,112,136,69,79,93,,65,65,13,22,7,7,0.7,0.7
2026-02-14T1100,2409A,115.6458,34.4047,商丘市,粮食局,细颗粒物(PM2.5),93,106,125,69,72,85,,62,62,14,21,3,3,0.8,0.7
2026-02-14T1100,3171A,115.6069,34.4465,商丘市,梁园区档案局,细颗粒物(PM2.5),87,105,127,64,74,89,,64,61,10,16,4,4,0.8,0.8
2026-02-14T1100,4119A,115.6701,34.3767,商丘市,北海东路185号,颗粒物(PM10),88,126,146,59,79,87,,52,51,12,21,5,5,0.8,0.7
2026-02-14T1100,4120A,115.6172,34.3704,商丘市,中山大街3号,颗粒物(PM10),89,127,158,65,81,86,,52,50,14,27,5,5,0.7,0.7
2026-02-14T1100,1141A,121.401,31.2382,上海市,普陀,细颗粒物(PM2.5),75,58,75,55,59,74,,49,46,24,29,8,7,0.7,0.7
2026-02-14T1100,1142A,121.4774,31.2043,上海市,十五厂,细颗粒物(PM2.5),73,71,78,53,58,74,,40,39,25,33,9,8,0.9,0.8
2026-02-14T1100,1143A,121.4673,31.3011,上海市,虹口,细颗粒物(PM2.5),85,85,80,63,57,76,,42,40,20,32,6,5,0.8,0.7
2026-02-14T1100,1147A,121.4253,31.226,上海市,静安监测站,细颗粒物(PM2.5),79,77,79,58,53,76,,52,50,31,34,8,8,1.0,0.8
2026-02-14T1100,1148A,121.7029,31.1905,上海市,浦东川沙,细颗粒物(PM2.5),57,56,77,40,55,69,,46,46,25,38,8,9,1.4,1.1
2026-02-14T1100,1149A,121.5339,31.229,上海市,浦东新区监测站,细颗粒物(PM2.5),73,64,76,53,54,72,,48,46,26,28,7,6,0.9,0.8
2026-02-14T1100,1150A,121.5776,31.2038,上海市,浦东张江,细颗粒物(PM2.5),59,62,78,42,50,80,,44,44,37,41,8,7,0.5,0.5
2026-02-14T1100,3265A,121.4242,31.3303,上海市,宝山庙行,细颗粒物(PM2.5),77,87,95,56,58,78,,47,44,22,40,10,10,0.7,0.7
2026-02-14T1100,3266A,121.8789,31.4662,上海市,崇明上实东滩,细颗粒物(PM2.5),100,90,58,75,42,74,,32,32,34,39,8,5,0.6,0.4
