timepoint,stationcode,longitude,latitude,area,positionname,primarypollutant,aqi,pm10,pm10_24h,pm2_5,pm2_5_24h,o3,o3_24h,o3_8h,o3_8h_24h,no2,no2_24h,so2,so2_24h,co,co_24h
2025-10-13T1800,2566A,102.1879,31.914,阿坝藏族羌族自治州,州农科所,,,,,,,,,,,,,,,,
2025-10-13T1800,2568A,102.2502,31.8896,阿坝藏族羌族自治州,马师校,,25,25,17,11,13,33,,41,41,14,8,5,5,0.5,0.5
2025-10-13T1800,3994A,102.2165,31.9024,阿坝藏族羌族自治州,马尔康中学西区,,36,,15,25,13,77,,60,60,3,5,5,5,0.5,0.6
2025-10-13T1800,2695A,80.292,41.1694,阿克苏地区,电视台,颗粒物(PM10),151,251,108,27,38,101,,90,90,5,30,5,6,0.3,0.8
2025-10-13T1800,2696A,80.2613,41.1551,阿克苏地区,艺术中心,颗粒物(PM10),104,158,98,16,37,101,,86,86,7,35,3,4,0.3,0.6
2025-10-13T1800,2204A,105.6467,38.8363,阿拉善盟,西城区西花园,,,,,,,,,,,,,,,,
2025-10-13T1800,2205A,105.6985,38.8411,阿拉善盟,蒙二幼,,31,25,20,7,6,98,,88,88,10,7,10,8,0.6,0.5
2025-10-13T1800,2206A,105.724,38.8516,阿拉善盟,环保局新楼,,31,16,10,9,6,97,,99,99,10,6,8,8,0.4,0.4
2025-10-13T1800,2708A,88.1264,47.8517,阿勒泰地区,市站,,15,7,23,3,6,46,,75,52,8,19,3,4,0.6,0.6
2025-10-13T1800,2630A,80.1161,32.5,阿里地区,阿里监测站,,29,,3,3,3,90,,82,82,1,16,5,7,0.2,0.3
2025-10-13T1800,3192A,80.0903,32.5028,阿里地区,阿里藏医院,,32,20,30,3,8,101,,88,88,1,12,7,9,0.1,0.3
2025-10-13T1800,2642A,109.0318,32.6537,安康市,香溪洞,,,,,,,,,,,,,,,,
2025-10-13T1800,2644A,109.0072,32.6975,安康市,汉滨区检察院,,25,7,7,3,4,80,,66,66,9,10,5,5,0.8,0.8
2025-10-13T1800,4054A,109.0325,32.6913,安康市,市邮政管理局,,24,10,7,7,4,74,,65,65,10,11,6,5,0.8,0.7
2025-10-13T1800,2291A,117.0809,30.5177,安庆市,环科院,,30,26,29,21,23,42,,56,56,16,14,7,6,0.7,0.7
2025-10-13T1800,2292A,117.0331,30.5119,安庆市,马山宾馆,,30,30,28,15,20,44,,60,60,18,17,6,6,0.7,0.8
2025-10-13T1800,2294A,116.9896,30.6145,安庆市,安庆大学,,25,25,26,16,18,46,,56,56,15,16,4,4,0.5,0.6
2025-10-13T1800,3173A,117.0598,30.5351,安庆市,市人大,,38,38,33,18,21,42,,58,58,16,14,6,6,0.6,0.7
2025-10-13T1800,3122A,105.9606,26.2611,安顺市,伍家关,,49,49,39,30,22,71,,63,63,9,6,10,10,0.7,0.6
2025-10-13T1800,3123A,105.9408,26.2431,安顺市,凤凰山,细颗粒物(PM2.5),63,55,40,45,35,75,,68,68,10,7,9,7,1.0,0.7
2025-10-13T1800,3124A,105.9439,26.2564,安顺市,金钟山,细颗粒物(PM2.5),59,50,38,42,32,81,,71,71,7,5,10,10,0.9,0.8
2025-10-13T1800,3125A,105.8983,26.2481,安顺市,娄家坡,细颗粒物(PM2.5),65,49,31,47,29,70,,61,61,13,8,10,9,0.7,0.6
2025-10-13T1800,1818A,114.4839,36.0621,安阳市,棉研所,,,,,,,,,,,,,,,,
2025-10-13T1800,1819A,114.3551,36.1017,安阳市,红庙街,,28,20,20,8,14,88,,96,96,11,15,2,2,0.2,0.5
2025-10-13T1800,1820A,114.361,36.0681,安阳市,银杏小区,,31,21,21,3,14,99,,103,103,8,14,2,3,0.1,0.4
2025-10-13T1800,3141A,114.3922,36.0878,安阳市,信访局,,30,13,18,3,10,96,,102,102,11,12,2,2,0.2,0.5
2025-10-13T1800,3669A,114.4705,36.0637,安阳市,左辅环卫站,,31,18,26,3,13,99,,102,102,10,13,1,2,0.3,0.5
2025-10-13T1800,3703A,114.2917,36.0949,安阳市,安钢职工学校,,30,24,36,3,23,95,,92,92,5,16,1,8,0.3,1
2025-10-13T1800,1748A,123.044,41.1196,鞍山市,深沟寺,细颗粒物(PM2.5),69,81,69,50,39,65,,74,74,41,37,10,8,1.2,1
2025-10-13T1800,1749A,123.011,41.0931,鞍山市,太阳城,细颗粒物(PM2.5),69,82,69,50,40,50,,69,69,44,33,11,10,1.1,1.1
2025-10-13T1800,1750A,123.0485,41.1442,鞍山市,太平,颗粒物(PM10),103,155,99,68,48,16,,72,64,95,45,15,15,2.8,1.4
2025-10-13T1800,1751A,122.9642,41.0971,鞍山市,铁西三道街,细颗粒物(PM2.5),89,124,98,66,50,10,,61,60,102,49,13,23,1.8,1.8
2025-10-13T1800,1753A,123.022,41.0821,鞍山市,明达新区,细颗粒物(PM2.5),87,103,76,64,45,22,,66,64,54,33,14,13,1.7,1.3
2025-10-13T1800,1754A,123.1289,41.0228,鞍山市,千山,,,,45,,30,,,30,,,16,,4,,0.7
2025-10-13T1800,4201A,122.9446,41.0826,鞍山市,兴盛南路290号,细颗粒物(PM2.5),105,154,105,79,52,12,,63,62,106,52,22,23,1.6,1.8
2025-10-13T1800,2195A,107.4212,40.761,巴彦淖尔市,附二中,颗粒物(PM10),52,53,55,19,29,98,,96,96,15,17,9,9,0.4,0.8
2025-10-13T1800,2196A,107.37,40.7372,巴彦淖尔市,市环保大楼,,,52,60,28,30,85,,91,91,,19,12,12,,0.9
2025-10-13T1800,1956A,86.1472,41.7538,巴音郭楞蒙古自治州,孔雀公园,颗粒物(PM10),66,82,98,19,29,52,,61,61,38,45,8,7,0.3,0.4
2025-10-13T1800,1957A,86.1972,41.7166,巴音郭楞蒙古自治州,棉纺厂,颗粒物(PM10),54,58,120,30,24,63,,76,76,31,26,6,5,0.4,0.4
2025-10-13T1800,1958A,86.2357,41.7173,巴音郭楞蒙古自治州,经济开发区,颗粒物(PM10),60,69,92,10,17,55,,77,77,40,16,7,6,0.4,0.3
2025-10-13T1800,2914A,106.7677,31.8794,巴中市,苏山坪,,,,,,,,,,,,,,,,
2025-10-13T1800,3181A,106.7768,31.8526,巴中市,市五中,,17,11,8,9,5,53,,59,59,7,7,7,7,0.8,0.7
2025-10-13T1800,3183A,106.7418,31.8654,巴中市,圣泉水务公司,,19,14,8,10,4,58,,62,62,5,8,7,7,0.7,0.7
2025-10-13T1800,3616A,106.7616,31.8344,巴中市,市中心医院,,17,13,9,3,5,53,,59,59,9,10,10,9,0.7,0.7
2025-10-13T1800,2235A,122.7911,45.6077,白城市,洮北区环保局,颗粒物(PM10),51,52,45,21,19,55,,69,69,27,17,5,4,0.5,0.4
2025-10-13T1800,2236A,122.8738,45.5725,白城市,市环保局,颗粒物(PM10),56,61,46,22,23,72,,77,77,17,17,2,7,0.4,0.4
2025-10-13T1800,2231A,126.4219,41.9171,白山市,喜丰,,36,36,66,14,17,60,,63,63,13,20,9,8,0.7,0.5
2025-10-13T1800,2232A,126.4077,41.9419,白山市,环保局,,31,31,29,18,13,34,,62,62,29,16,8,8,1.0,0.5
2025-10-13T1800,2647A,104.1724,36.5446,白银市,第三小学,,33,33,50,15,27,77,,74,74,28,32,10,13,0.5,0.9
2025-10-13T1800,2648A,104.1465,36.5482,白银市,动力公司,,31,21,40,3,11,99,,84,84,11,26,10,12,0.4,0.9
2025-10-13T1800,2512A,106.6103,23.9011,百色市,市监测站,,42,42,49,19,28,94,,97,97,12,16,10,14,0.6,0.7
2025-10-13T1800,2513A,106.6538,23.8859,百色市,市中心血站,,45,45,52,22,29,101,,98,98,13,20,10,14,0.7,0.8
2025-10-13T1800,3406A,106.6085,23.8798,百色市,祈福高中,颗粒物(PM10),55,59,58,15,31,73,,80,80,15,23,7,17,0.5,0.7
2025-10-13T1800,2270A,117.396,32.939,蚌埠市,工人疗养院,,21,21,26,9,14,12,,10,10,19,19,4,4,0.5,0.7
2025-10-13T1800,2271A,117.3605,32.9427,蚌埠市,百货大楼,,18,,18,12,15,14,,13,13,21,20,6,6,0.7,0.8
2025-10-13T1800,2273A,117.4185,32.8911,蚌埠市,蚌埠学院,,12,9,18,8,16,14,,11,11,17,20,4,5,0.5,0.7
2025-10-13T1800,2274A,117.3533,32.9673,蚌埠市,淮上区政府,,22,19,23,15,18,12,,12,12,22,21,5,5,0.5,0.6
2025-10-13T1800,2275A,117.3145,32.8977,蚌埠市,高新区,,17,17,20,11,14,7,,9,9,27,23,6,6,0.6,0.8
2025-10-13T1800,3715A,117.3092,32.9314,蚌埠市,蚌埠田家炳中学,,25,25,27,9,14,9,,12,12,25,20,4,4,0.5,0.7
2025-10-13T1800,1585A,109.8756,40.6532,包头市,市环境监测站,颗粒物(PM10),52,53,51,29,24,66,,74,74,46,46,15,11,0.8,0.8
2025-10-13T1800,1587A,109.9991,40.5842,包头市,包头八中,细颗粒物(PM2.5),65,64,63,47,37,74,,74,74,45,46,24,12,1.2,0.9
2025-10-13T1800,1588A,109.8538,40.6821,包头市,青山宾馆,细颗粒物(PM2.5),55,50,50,39,38,63,,75,75,49,44,14,11,0.9,0.9
2025-10-13T1800,1589A,109.8642,40.6288,包头市,惠龙物流,,50,50,48,33,28,77,,75,75,34,44,12,11,0.8,0.8
2025-10-13T1800,1590A,110.0377,40.5546,包头市,东河鸿龙湾,细颗粒物(PM2.5),67,62,57,48,31,79,,74,74,44,44,15,11,0.9,1
2025-10-13T1800,3283A,109.9154,40.5685,包头市,滨河大厦,细颗粒物(PM2.5),55,58,43,39,27,79,,78,78,33,37,13,9,0.8,0.8
2025-10-13T1800,3419A,109.9447,40.6261,包头市,包头市委党校,,,58,52,28,27,,,79,79,,42,,14,,0.9
2025-10-13T1800,3683A,109.8331,40.6576,包头市,昆区政府,细颗粒物(PM2.5),60,59,55,43,39,78,,73,73,33,46,13,14,0.8,0.8
2025-10-13T1800,1930A,107.185,34.3063,宝鸡市,庙沟村,,,,,,,,,,,,,,,,
2025-10-13T1800,1931A,107.0708,34.3017,宝鸡市,竹园沟,,43,43,19,16,19,89,,72,72,11,6,8,8,0.4,0.4
2025-10-13T1800,1932A,107.1906,34.3672,宝鸡市,三陆医院,,30,30,26,17,16,89,,67,67,22,23,7,7,0.6,0.7
2025-10-13T1800,1933A,107.1431,34.3547,宝鸡市,监测站,,30,29,21,19,11,96,,69,69,11,11,9,8,0.5,0.5
2025-10-13T1800,1934A,107.1186,34.3739,宝鸡市,技工学校,,36,26,23,25,13,92,,68,68,17,12,6,6,0.6,0.6
2025-10-13T1800,1936A,107.2058,34.3497,宝鸡市,文理学院,,33,33,22,19,13,97,,68,68,12,16,5,5,0.6,0.6
2025-10-13T1800,1937A,107.2386,34.3622,宝鸡市,三迪小学,,35,30,27,24,18,94,,68,68,17,20,5,5,0.7,0.7
2025-10-13T1800,4308A,107.3898,34.3601,宝鸡市,陈仓区北开路21号,,39,27,20,27,16,102,,75,75,14,21,6,8,0.5,0.6
2025-10-13T1800,1051A,115.493,38.8632,保定市,游泳馆,,34,34,51,11,26,96,,83,83,10,30,5,6,0.2,0.5
2025-10-13T1800,1052A,115.5213,38.8959,保定市,华电二区,,32,24,42,19,28,100,,82,82,12,30,5,6,0.2,0.6
2025-10-13T1800,1053A,115.4713,38.9108,保定市,接待中心,,38,38,49,12,27,83,,68,68,10,27,4,4,0.3,0.6
2025-10-13T1800,1054A,115.4612,38.8416,保定市,地表水厂,,31,31,54,3,20,96,,83,83,16,34,8,9,0.0,0.4
2025-10-13T1800,3581A,115.31981,38.95208,保定市,满城区生态环境分局,,39,39,58,12,25,97,,82,82,13,26,3,2,0.2,0.5
2025-10-13T1800,3582A,115.47694,38.76408,保定市,清苑区第二中学,,,,56,,22,,,17,,,38,,3,,0.7
2025-10-13T1800,3583A,115.62909,39.02311,保定市,徐水物探局,,36,36,42,20,32,83,,78,78,21,33,5,6,0.3,0.7
2025-10-13T1800,4004A,115.4202,38.8656,保定市,双鹰农机,,31,27,49,20,25,97,,83,83,13,31,5,6,0.1,0.4
2025-10-13T1800,4034A,115.5150,38.8590,保定市,植保所站,,40,40,56,25,29,96,,79,79,4,25,4,4,0.3,0.6
2025-10-13T1800,2594A,99.1678,25.1081,保山市,市环境监测站,,20,11,14,11,16,63,,61,61,5,7,5,5,0.3,0.4
2025-10-13T1800,2595A,99.1711,25.1328,保山市,市环保局,,21,13,15,8,8,65,,67,67,3,4,6,6,0.5,0.5
2025-10-13T1800,1866A,109.2262,21.588,北海市,牛尾岭水库,,17,17,17,8,12,52,,57,57,7,9,6,5,1.0,1
2025-10-13T1800,1867A,109.1436,21.4086,北海市,海滩公园,,20,19,18,3,7,64,,68,68,4,6,5,6,0.4,0.5
2025-10-13T1800,1868A,109.0981,21.4661,北海市,新市环保局,,,20,18,14,15,66,,61,61,8,9,,4,0.5,0.5
2025-10-13T1800,1869A,109.1778,21.5233,北海市,北海工业园,,30,30,25,10,14,58,,61,61,7,11,4,6,0.3,0.4
2025-10-13T1800,3400A,109.1911,21.4415,北海市,龙潭自来水厂,,20,16,18,14,13,63,,64,64,6,8,6,7,0.4,0.5
2025-10-13T1800,1001A,116.3621,39.8784,北京市,万寿西宫,颗粒物(PM10),53,56,51,30,23,57,,52,52,38,36,3,4,0.7,0.8
2025-10-13T1800,1002A,116.2202,40.2915,北京市,定陵,,,,,,,,,,,,,,,,
2025-10-13T1800,1003A,116.4174,39.9289,北京市,东四,颗粒物(PM10),57,64,58,31,24,70,,60,60,29,31,3,4,0.7,0.8
2025-10-13T1800,1004A,116.4072,39.8863,北京市,天坛,,43,43,42,19,20,45,,47,47,23,27,3,4,0.7,0.9
2025-10-13T1800,1005A,116.462,39.9365,北京市,农展馆,颗粒物(PM10),51,52,48,24,22,57,,51,51,30,32,4,5,0.7,0.8
2025-10-13T1800,1006A,116.3392,39.9295,北京市,官园,颗粒物(PM10),53,56,55,29,23,65,,56,56,34,34,4,6,0.6,0.8
2025-10-13T1800,1007A,116.2878,39.9611,北京市,海淀万柳,,43,43,48,20,21,46,,39,39,37,34,4,5,0.6,0.7
2025-10-13T1800,1008A,116.6636,40.135,北京市,顺义新城,颗粒物(PM10),57,64,52,25,19,43,,57,57,50,31,5,5,0.4,0.5
2025-10-13T1800,1009A,116.6275,40.3275,北京市,怀柔镇,,46,46,37,23,18,52,,54,54,37,24,3,3,0.9,0.8
2025-10-13T1800,1010A,116.2296,40.217,北京市,昌平镇,,41,41,41,18,17,47,,45,45,38,23,2,3,0.8,0.8
2025-10-13T1800,1011A,116.3966,39.9821,北京市,奥体中心,颗粒物(PM10),51,51,47,21,20,60,,49,49,31,33,4,5,0.5,0.6
2025-10-13T1800,3281A,115.9718,40.4529,北京市,延庆夏都,,25,25,37,13,18,51,,60,60,25,19,2,2,0.6,0.7
2025-10-13T1800,3418A,116.8336,40.4095,北京市,密云新城,,50,50,36,20,16,50,,65,65,40,20,2,1,0.7,0.6
2025-10-13T1800,3671A,116.088,39.9726,北京市,门头沟三家店,颗粒物(PM10),62,73,42,22,14,54,,54,54,32,22,3,3,0.6,0.6
2025-10-13T1800,3672A,116.1541,39.8204,北京市,丰台云岗,,48,48,51,23,21,52,,52,52,27,29,4,4,0.5,0.6
2025-10-13T1800,3673A,116.6804,39.9081,北京市,通州东关,颗粒物(PM10),51,51,55,26,23,65,,54,54,32,36,3,6,0.4,0.7
2025-10-13T1800,3674A,115.9577,39.7603,北京市,房山燕山,,49,49,34,22,14,25,,60,58,43,14,3,2,0.6,0.5
2025-10-13T1800,3675A,116.4672,39.7733,北京市,大兴旧宫,,47,47,50,21,20,64,,58,58,23,30,4,4,0.6,0.8
2025-10-13T1800,3694A,115.986,40.4563,北京市,延庆石河营,,27,27,34,12,18,48,,57,57,23,15,3,3,0.6,0.7
2025-10-13T1800,3695A,116.6151,40.3053,北京市,怀柔新城,,41,41,34,21,20,43,,51,51,24,18,5,5,0.7,0.7
2025-10-13T1800,3696A,116.2545,39.8768,北京市,丰台小屯,,46,46,52,20,22,52,,49,49,27,31,3,3,0.6,0.8
2025-10-13T1800,3697A,116.84,40.3844,北京市,密云镇,,34,34,39,17,17,53,,66,66,32,22,5,5,0.7,0.7
2025-10-13T1800,4182A,116.1942,39.9158,北京市,八角北路9号,,48,48,56,21,20,52,,52,52,38,34,2,3,0.4,0.6
2025-10-13T1800,4194A,117.0790,40.1518,北京市,洳河巡河路,颗粒物(PM10),53,55,38,23,17,49,,60,60,34,19,3,3,0.7,0.6
2025-10-13T1800,1761A,123.8275,41.3064,本溪市,大峪,颗粒物(PM10),52,53,34,20,14,58,,73,73,27,20,10,9,0.9,0.8
2025-10-13T1800,1762A,123.7567,41.3325,本溪市,溪湖,,,63,48,38,23,71,,74,74,,25,11,9,1.1,1.3
2025-10-13T1800,1763A,123.7169,41.3094,本溪市,彩屯,细颗粒物(PM2.5),73,82,59,53,33,18,,63,63,63,30,9,12,1.4,2
2025-10-13T1800,1764A,123.7669,41.2864,本溪市,东明,颗粒物(PM10),66,82,50,45,18,43,,72,72,65,27,11,9,1.2,1.1
2025-10-13T1800,1765A,123.7992,41.2664,本溪市,新立屯,颗粒物(PM10),51,52,38,33,16,7,,70,56,70,23,9,8,1.1,0.8
2025-10-13T1800,1766A,123.8142,41.3472,本溪市,威宁,颗粒物(PM10),67,83,48,46,22,31,,65,65,56,24,8,7,0.9,0.8
2025-10-13T1800,2587A,105.2864,27.3125,毕节市,八中,,49,,15,34,12,60,,62,62,7,4,8,8,0.5,0.6
2025-10-13T1800,2588A,105.31,27.2944,毕节市,师专,颗粒物(PM10),51,52,19,32,12,59,,58,58,7,6,7,7,0.6,0.7
2025-10-13T1800,4263A,105.3688,27.3598,毕节市,工业大道,细颗粒物(PM2.5),57,54,18,40,13,67,,62,62,8,6,11,8,0.7,0.7
2025-10-13T1800,1629A,118.0018,37.3617,滨州市,第二水厂,,29,29,16,16,11,89,,87,87,14,19,7,6,0.0,0.1
2025-10-13T1800,1630A,117.9776,37.393,滨州市,北中新校,,36,36,19,12,9,56,,87,87,37,22,9,8,0.4,0.2
2025-10-13T1800,3514A,117.9378,37.3956,滨州市,中海酒店,,28,22,16,12,12,87,,87,87,11,20,6,5,0.5,0.4
2025-10-13T1800,3515A,117.9378,37.3553,滨州市,开发区一中,,33,29,22,12,11,105,,97,97,16,24,8,7,0.6,0.6
2025-10-13T1800,3516A,118.0917,37.694,滨州市,金海六路,,41,41,20,14,4,106,,86,86,24,27,8,6,0.6,0.6
2025-10-13T1800,4028A,117.9956,37.3753,滨州市,滨州市西街道办事处,,31,31,13,17,13,72,,83,83,26,22,7,6,0.9,0.6
2025-10-13T1800,2311A,115.8072,33.8399,亳州市,污水处理厂,,33,23,9,23,13,38,,40,40,17,14,5,5,0.3,0.4
2025-10-13T1800,2312A,115.7789,33.8518,亳州市,三国揽胜宫,,30,,13,21,10,42,,43,43,8,7,4,4,0.6,0.6
2025-10-13T1800,3332A,115.7633,33.8034,亳州市,亳州学院,,33,23,9,23,13,44,,44,44,12,10,4,4,0.4,0.4
2025-10-13T1800,2693A,82.0485,44.8556,博尔塔拉蒙古自治州,市党校,颗粒物(PM10),63,76,87,40,41,91,,80,80,12,28,5,9,0.4,0.5
2025-10-13T1800,2694A,82.0806,44.8969,博尔塔拉蒙古自治州,市环保局,颗粒物(PM10),68,86,101,21,31,92,,77,77,15,34,11,11,0.4,0.6
2025-10-13T1800,1071A,116.8842,38.2991,沧州市,沧县城建局,,35,35,34,17,20,89,,93,93,24,32,2,4,0.4,0.5
2025-10-13T1800,1072A,116.8584,38.3254,沧州市,电视转播站,,29,29,31,7,15,90,,84,84,14,26,2,3,0.3,0.6
2025-10-13T1800,1073A,116.8709,38.3228,沧州市,市环保局,,,29,37,17,23,90,,89,89,16,28,,2,0.2,0.4
2025-10-13T1800,3324A,116.8136,38.3004,沧州市,河北水利电力学院,,27,19,25,6,15,86,,86,86,20,29,4,4,0.2,0.5
2025-10-13T1800,2622A,97.1806,31.1273,昌都市,昌都监测站,,25,,8,8,7,79,,80,80,15,6,3,2,0.3,0.2
2025-10-13T1800,3719A,97.1714,31.1406,昌都市,昌都会议中心,,30,7,10,3,6,96,,86,86,1,3,3,3,0.2,0.2
2025-10-13T1800,2690A,88.1236,43.8886,昌吉回族自治州,天山天池,,,,,,,,,,,,,,,,
2025-10-13T1800,2692A,87.2717,44.0297,昌吉回族自治州,新区政务中心,颗粒物(PM10),58,66,96,17,35,103,,72,72,16,42,11,10,0.6,0.9
2025-10-13T1800,3613A,87.3095,44.0142,昌吉回族自治州,亚心广场,颗粒物(PM10),64,78,127,24,43,110,,78,78,18,42,12,13,0.5,0.7
2025-10-13T1800,1120A,125.2863,43.9027,长春市,客车厂,细颗粒物(PM2.5),140,119,86,107,72,57,,84,84,74,44,7,8,0.7,0.5
2025-10-13T1800,1121A,125.2841,43.8463,长春市,邮电学院,细颗粒物(PM2.5),115,117,82,87,58,98,,90,90,29,27,7,7,0.6,0.5
2025-10-13T1800,1122A,125.3716,43.8772,长春市,劳动公园,颗粒物(PM10),129,208,152,94,76,74,,90,90,58,40,11,11,0.7,0.6
2025-10-13T1800,1123A,125.3297,43.8805,长春市,园林处,细颗粒物(PM2.5),115,110,81,87,66,92,,87,87,39,38,5,5,0.7,0.5
2025-10-13T1800,1124A,125.4605,43.79,长春市,净月潭,细颗粒物(PM2.5),122,107,89,92,68,111,,89,89,23,19,6,7,0.5,0.5
2025-10-13T1800,1125A,125.7194,43.515,长春市,甩湾子,细颗粒物(PM2.5),97,80,44,72,31,111,,94,94,20,20,5,5,0.4,0.3
2025-10-13T1800,1126A,125.3863,43.8447,长春市,经开区环卫处,细颗粒物(PM2.5),114,118,87,86,61,82,,82,82,39,42,8,7,0.6,0.5
2025-10-13T1800,1127A,125.245,43.7783,长春市,高新区管委会,细颗粒物(PM2.5),127,111,75,96,62,62,,86,86,68,31,7,6,0.8,0.5
2025-10-13T1800,1128A,125.1761,43.8325,长春市,岱山公园,细颗粒物(PM2.5),138,135,72,105,57,23,,77,74,108,44,8,7,0.7,0.5
2025-10-13T1800,4281A,125.3346,43.9164,长春市,北亚泰大街1068号,细颗粒物(PM2.5),152,126,102,116,79,83,,87,87,40,44,,11,0.7,0.5
2025-10-13T1800,1335A,113.0833,28.2325,长沙市,经开区环保局,,42,42,112,21,87,40,,31,31,16,18,5,5,0.4,0.7
2025-10-13T1800,1336A,112.8872,28.2189,长沙市,高开区环保局,,35,35,106,19,82,44,,35,35,11,13,5,5,0.4,0.6
2025-10-13T1800,1337A,113.0792,28.2053,长沙市,马坡岭,,44,44,109,22,84,40,,34,34,20,18,6,6,0.4,0.7
2025-10-13T1800,1338A,112.9394,28.19,长沙市,湖南师范大学,,29,29,94,16,60,50,,41,41,12,14,4,4,0.7,0.9
2025-10-13T1800,1339A,113.0178,28.1322,长沙市,雨花区环保局,,31,31,111,11,107,45,,36,36,17,16,6,6,0.7,0.9
2025-10-13T1800,1340A,112.9792,28.2597,长沙市,伍家岭,,35,35,107,19,101,45,,39,39,16,17,3,3,0.5,0.7
2025-10-13T1800,1341A,113.0014,28.1944,长沙市,火车新站,,33,33,105,22,82,47,,39,39,14,16,7,7,0.7,0.9
2025-10-13T1800,1342A,112.9844,28.1178,长沙市,天心区环保局,,33,33,98,16,56,54,,43,43,15,16,4,4,0.5,0.7
2025-10-13T1800,1343A,112.8908,28.1308,长沙市,湖南中医药大学,,36,36,84,13,48,41,,38,38,17,14,4,4,0.8,1
2025-10-13T1800,1344A,112.9581,28.3611,长沙市,沙坪,,,,,,,,,,,,,,,,
2025-10-13T1800,1727A,113.1147,36.1547,长治市,清华站,,49,21,14,19,11,155,,130,130,14,12,12,10,0.9,0.8
2025-10-13T1800,1730A,113.0886,36.2125,长治市,审计局,,50,30,13,29,19,158,,147,147,19,16,10,8,0.9,0.6
2025-10-13T1800,1731A,113.0844,36.1856,长治市,长治八中,,47,34,18,27,16,150,,133,133,14,10,10,8,1.0,0.7
2025-10-13T1800,2845A,113.1569,36.1911,长治市,德盛苑,,44,25,17,17,13,140,,128,128,10,12,7,5,1.0,0.8
2025-10-13T1800,3568A,113.06,36.0464,长治市,向阳小学,,48,48,30,14,14,144,,108,108,28,17,10,8,0.8,0.8
2025-10-13T1800,3569A,112.8792,36.3144,长治市,屯留一中,,,27,18,12,12,98,,89,89,15,17,12,12,,0.4
2025-10-13T1800,4189A,113.1131,36.19948,长治市,英华南巷50号,,36,36,19,22,17,109,,124,124,38,16,8,7,1.1,0.9
2025-10-13T1800,4190A,113.2367,36.3344,长治市,学府街1号,,39,39,27,12,20,83,,124,124,15,14,9,13,0.4,0.9
2025-10-13T1800,1854A,111.6975,28.9703,常德市,市二中,,,12,33,3,17,56,,54,54,8,12,6,6,,0.6
2025-10-13T1800,1857A,111.7158,29.1456,常德市,白鹤山,,,,,,,,,,,,,,,,
2025-10-13T1800,3138A,111.7153,29.0289,常德市,武陵区永安,,17,10,31,3,15,53,,50,50,11,11,3,3,0.7,0.7
2025-10-13T1800,3139A,111.6892,28.9881,常德市,鼎城区玉霞,,17,8,35,3,16,54,,51,51,12,12,4,3,0.8,0.8
2025-10-13T1800,3140A,111.6625,29.0531,常德市,武陵区长庚,,16,10,28,3,14,50,,48,48,11,11,3,3,0.5,0.5
2025-10-13T1800,1196A,119.9633,31.762,常州市,市监测站,,27,27,61,18,44,9,,26,24,34,28,8,10,1.1,1.2
2025-10-13T1800,1200A,119.9468,31.7069,常州市,武进监测站,,34,34,54,20,39,12,,27,26,35,26,9,9,1.2,1.2
2025-10-13T1800,1201A,119.9255,31.9087,常州市,安家,,36,36,97,12,44,8,,20,18,39,39,8,9,1.1,1.2
2025-10-13T1800,3002A,119.9805,31.8174,常州市,行政中心,,31,31,69,13,45,6,,21,20,39,34,2,4,1.2,1.2
2025-10-13T1800,3003A,120.0522,31.7748,常州市,经开区,,31,31,64,15,39,9,,32,22,36,29,8,9,1.5,1.6
2025-10-13T1800,3010A,119.9025,31.7964,常州市,钟楼,,25,25,62,12,43,14,,29,28,34,31,6,8,1.3,1.3
2025-10-13T1800,3429A,119.8598,31.7066,常州市,武进经发区,,40,40,74,18,39,14,,24,24,36,40,9,9,1.4,1.5
2025-10-13T1800,3430A,119.5826,31.7245,常州市,金坛城区,,17,17,52,8,32,10,,23,22,25,20,8,8,1.1,1.3
2025-10-13T1800,2220A,120.4318,41.5881,朝阳市,西梁,,30,29,33,21,25,82,,79,79,27,29,12,8,0.9,0.9
2025-10-13T1800,2221A,120.4521,41.5646,朝阳市,河畔小区,,35,29,45,24,18,90,,88,88,22,22,12,9,0.7,0.6
2025-10-13T1800,2222A,120.4176,41.5648,朝阳市,八里堡,颗粒物(PM10),54,57,53,28,25,82,,86,86,31,31,14,9,0.8,0.7
2025-10-13T1800,2223A,120.3806,41.5969,朝阳市,农业园区,细颗粒物(PM2.5),53,46,45,37,27,79,,86,86,32,28,13,7,0.8,0.7
2025-10-13T1800,1705A,116.6367,23.6719,潮州市,西园路,,,,,,,,,,,,,,,,
2025-10-13T1800,3026A,116.6183,23.6608,潮州市,市政府,,26,26,17,9,9,45,,50,50,7,6,5,6,0.9,0.9
2025-10-13T1800,4036A,116.6461,23.6761,潮州市,金山,,17,17,17,3,10,46,,48,48,4,5,5,5,0.6,0.6
2025-10-13T1800,2472A,113.0073,25.9061,郴州市,马头岭,,,,,,,,,,,,,,,,
2025-10-13T1800,2473A,113.0116,25.8226,郴州市,市职中,细颗粒物(PM2.5),173,131,71,131,66,62,,80,80,16,12,3,6,1.0,0.7
2025-10-13T1800,2475A,113.0383,25.8071,郴州市,市审计局,细颗粒物(PM2.5),186,141,62,140,50,74,,86,86,10,10,6,15,1.2,0.8
2025-10-13T1800,2476A,113.0348,25.7759,郴州市,市环保局,细颗粒物(PM2.5),152,157,62,116,54,76,,85,85,15,12,2,9,1.1,0.7
2025-10-13T1800,4252A,113.0138,25.8011,郴州市,好美居路49号,细颗粒物(PM2.5),115,125,64,87,44,74,,89,89,19,12,5,10,1.0,0.7
2025-10-13T1800,1431A,103.9728,30.7236,成都市,金泉两河,,27,19,15,3,4,86,,89,89,14,17,3,4,0.6,0.6
2025-10-13T1800,1432A,104.176,30.6872,成都市,十里店,,,,15,18,7,90,,92,92,14,17,3,3,,0.5
2025-10-13T1800,1433A,104.079,30.5706,成都市,三瓦窑,,26,20,18,16,9,82,,86,86,26,21,4,4,0.6,0.6
2025-10-13T1800,1434A,104.1114,30.63,成都市,沙河铺,,30,25,18,21,11,70,,80,80,20,22,4,3,0.5,0.5
2025-10-13T1800,1437A,104.0786,30.6531,成都市,君平街,,25,24,21,17,9,68,,68,68,15,18,4,5,0.6,0.6
2025-10-13T1800,1438A,103.613,31.0283,成都市,灵岩寺,,,,,,,,,,,,,,,,
2025-10-13T1800,2880A,104.0239,30.65639,成都市,大石西路,,26,22,17,18,9,80,,82,82,20,22,2,3,0.5,0.5
2025-10-13T1800,3136A,104.2725,30.5589,成都市,龙泉驿区区政府,,28,6,9,3,3,88,,87,87,9,16,6,5,0.5,0.6
2025-10-13T1800,3357A,104.0106,30.6931,成都市,金博路,,26,17,10,14,4,82,,87,87,19,22,6,8,0.4,0.5
2025-10-13T1800,3359A,104.0578,30.5225,成都市,华阳,,29,17,13,14,10,91,,85,85,12,16,5,5,0.5,0.5
2025-10-13T1800,3488A,104.3880,30.7467,成都市,青石路225号,,44,44,29,21,13,83,,84,84,17,27,5,5,0.5,0.8
2025-10-13T1800,3489A,104.0789,30.4072,成都市,科学城,,29,22,18,17,9,90,,82,82,8,15,6,5,0.6,0.6
2025-10-13T1800,4011A,103.8506,30.6947,成都市,光华大道三段,,34,34,16,13,5,98,,101,101,19,17,1,1,0.6,0.6
2025-10-13T1800,4224A,104.2433,30.5353,成都市,鲸龙路1057号,,27,27,19,8,8,85,,85,85,14,21,5,5,0.6,0.6
2025-10-13T1800,1062A,117.9531,40.9081,承德市,铁路,颗粒物(PM10),76,102,31,49,10,26,,46,46,49,22,6,6,0.8,0.5
2025-10-13T1800,1063A,117.9392,40.9763,承德市,中国银行,颗粒物(PM10),59,67,34,22,9,31,,46,46,38,18,5,5,1.0,0.5
2025-10-13T1800,1064A,117.9503,40.928,承德市,开发区,颗粒物(PM10),59,67,48,25,15,18,,41,41,44,25,4,6,0.8,0.5
2025-10-13T1800,1066A,117.9268,41.0026,承德市,离宫,,,,,,,,,,,,,,,,
2025-10-13T1800,4274A,117.7994,40.9605,承德市,滨河大街98号,,50,50,40,35,19,42,,56,56,16,19,6,29,1.0,1.1
2025-10-13T1800,2314A,117.47,30.6618,池州市,池州学院,,45,44,38,31,28,28,,44,44,26,20,7,7,0.8,0.9
2025-10-13T1800,3237A,117.4918,30.6617,池州市,展览馆,,42,42,38,29,26,30,,44,44,23,19,7,6,0.8,0.9
2025-10-13T1800,3333A,117.5627,30.695,池州市,第八中学,,24,24,34,15,21,29,,43,43,20,16,6,6,0.9,1
2025-10-13T1800,3334A,117.5038,30.6243,池州市,第十二中学,,26,26,31,16,22,34,,46,46,21,20,4,5,0.9,1.1
2025-10-13T1800,1744A,118.9233,42.2816,赤峰市,松山一中,,35,35,50,15,20,69,,76,76,29,38,12,11,0.7,0.8
2025-10-13T1800,1745A,118.9576,42.2728,赤峰市,哈达街,颗粒物(PM10),55,60,45,22,17,46,,79,79,47,32,23,12,0.9,0.8
2025-10-13T1800,1746A,118.8788,42.2554,赤峰市,天义路,,,31,32,22,23,66,,83,83,35,24,,9,,0.4
2025-10-13T1800,3058A,119.2658,42.0353,赤峰市,银河街,颗粒物(PM10),58,65,65,22,37,60,,72,72,31,24,20,24,0.9,0.8
2025-10-13T1800,3286A,118.9359,42.3147,赤峰市,桥北物流园区,,50,50,48,30,30,65,,68,68,28,35,11,15,0.7,0.8
2025-10-13T1800,2521A,107.3476,22.4136,崇左市,市环保局江州分局,,23,21,34,16,18,48,,64,64,12,12,1,1,0.6,0.7
2025-10-13T1800,4256A,107.3750,22.3736,崇左市,石景林东路7号,,19,,26,13,17,47,,67,67,11,10,5,8,0.6,0.6
2025-10-13T1800,2298A,118.3093,32.3153,滁州市,老年大学,,26,22,28,18,23,4,,7,7,17,14,4,5,0.5,0.6
2025-10-13T1800,2299A,118.3244,32.2786,滁州市,人大宾馆,,15,10,20,10,20,7,,10,10,19,17,4,4,0.7,0.8
2025-10-13T1800,3207A,118.3118,32.3038,滁州市,市政府原办公楼,,32,,24,22,26,11,,14,14,20,18,5,5,0.6,0.7
2025-10-13T1800,3331A,118.3267,32.2634,滁州市,图书馆,,16,11,22,11,20,6,,10,10,19,16,7,7,0.6,0.7
2025-10-13T1800,2605A,101.5482,25.0441,楚雄彝族自治州,州环境监测站,,14,13,18,8,13,44,,45,45,2,8,6,7,0.5,0.5
2025-10-13T1800,2606A,101.538,25.0492,楚雄彝族自治州,市经济开发区,,14,11,19,9,13,42,,45,45,10,12,6,6,0.6,0.7
2025-10-13T1800,2548A,107.5277,31.2827,达州市,达州职业技术学院,,,,,,,,,,,,,,,,
2025-10-13T1800,2549A,107.5086,31.2186,达州市,市环境监测站,,27,27,17,12,3,33,,24,24,18,17,6,6,0.7,0.7
2025-10-13T1800,2550A,107.4988,31.2132,达州市,凤凰小区,,34,34,16,9,3,33,,28,28,15,14,5,5,0.6,0.6
2025-10-13T1800,2551A,107.5082,31.1986,达州市,达县机关宾馆,,27,27,14,6,4,21,,21,21,26,19,6,5,0.7,0.6
2025-10-13T1800,2552A,107.4644,31.2124,达州市,市政中心,,31,31,24,3,3,30,,27,27,18,14,6,6,0.5,0.6
2025-10-13T1800,2614A,100.1542,25.7054,大理白族自治州,大理市环境监测站,,20,10,13,9,10,62,,58,58,8,8,5,5,0.5,0.6
2025-10-13T1800,2615A,100.2171,25.5811,大理白族自治州,大理古城,,28,28,14,16,10,44,,61,61,15,9,6,6,0.7,0.7
2025-10-13T1800,1109A,121.612,38.9741,大连市,甘井子,,46,46,68,19,34,90,,84,84,35,30,7,8,0.4,0.7
2025-10-13T1800,1110A,121.565,38.9511,大连市,周水子,,42,42,63,6,31,87,,87,87,38,34,9,10,0.5,0.6
2025-10-13T1800,1111A,121.5637,38.8845,大连市,星海三站,,44,44,59,20,35,83,,82,82,17,14,5,6,0.3,0.4
2025-10-13T1800,1112A,121.6302,38.9117,大连市,青泥洼桥,,48,48,70,23,37,79,,74,74,37,30,10,11,0.5,0.6
2025-10-13T1800,1113A,121.6251,38.8638,大连市,傅家庄,,41,41,60,18,32,78,,74,74,31,25,12,12,0.7,0.8
2025-10-13T1800,1114A,121.5213,38.8661,大连市,七贤岭,,44,44,58,19,27,88,,89,89,21,19,4,5,0.7,0.7
2025-10-13T1800,1115A,121.2529,38.8061,大连市,旅顺,,33,33,50,19,26,87,,104,101,18,15,9,8,0.5,0.4
2025-10-13T1800,1116A,121.7485,39.1311,大连市,金州,,44,44,73,26,44,80,,85,85,30,36,9,12,0.5,0.8
2025-10-13T1800,1117A,121.7811,39.0496,大连市,开发区,颗粒物(PM10),52,53,74,21,42,84,,71,71,38,39,5,7,0.5,0.7
2025-10-13T1800,1118A,121.9762,39.0631,大连市,双D港,,23,23,62,9,40,56,,69,69,10,27,8,11,0.6,1.1
2025-10-13T1800,1789A,124.81117,46.03138,大庆市,大同区,颗粒物(PM10),62,73,41,33,19,56,,63,63,26,15,10,9,0.6,0.5
2025-10-13T1800,1790A,125.129,46.533,大庆市,龙凤区,,48,48,41,23,19,50,,60,60,27,12,15,10,0.7,0.6
2025-10-13T1800,1791A,124.902,46.408,大庆市,红岗区,,48,48,36,26,16,60,,69,69,25,14,7,5,0.5,0.4
2025-10-13T1800,1792A,125.153,46.586,大庆市,萨尔图区,,50,50,30,13,12,62,,67,67,20,10,10,11,0.4,0.3
2025-10-13T1800,1793A,124.9042,46.6215,大庆市,让胡路区,,45,45,32,27,17,39,,60,60,42,13,6,7,0.5,0.4
2025-10-13T1800,3481A,125.141,46.634,大庆市,萨区政府监测点,,39,39,30,7,5,62,,66,66,15,7,8,8,0.6,0.5
2025-10-13T1800,1721A,113.3819,40.1097,大同市,果树场,,42,40,40,29,29,66,,72,72,27,26,9,9,0.4,0.6
2025-10-13T1800,1723A,113.2994,40.0758,大同市,云冈宾馆,,,47,59,27,32,74,,74,74,,28,13,10,,1
2025-10-13T1800,1724A,113.3444,40.0917,大同市,大同大学,,44,44,54,29,30,96,,82,82,24,32,14,12,0.4,0.7
2025-10-13T1800,1725A,113.2661,40.1269,大同市,安家小村,颗粒物(PM10),59,68,67,36,35,70,,74,74,36,32,11,9,0.5,0.9
2025-10-13T1800,1726A,113.2711,40.0844,大同市,教育学院,颗粒物(PM10),53,56,72,35,34,72,,69,69,34,33,15,14,0.6,1.1
2025-10-13T1800,3282A,113.3397,40.0597,大同市,大同市卫生学校,,47,47,58,28,28,78,,74,74,31,33,11,9,0.7,0.9
2025-10-13T1800,3565A,113.1367,40.1122,大同市,云冈站,颗粒物(PM10),58,65,64,29,33,65,,71,71,30,25,11,11,0.5,0.7
2025-10-13T1800,3566A,113.1186,40.2556,大同市,图书馆,,45,39,60,31,32,84,,88,88,26,22,13,9,0.5,0.6
2025-10-13T1800,3567A,113.5931,40.0461,大同市,区一中,,27,27,43,15,26,78,,96,96,39,20,10,9,0.5,0.7
2025-10-13T1800,4199A,113.2798,40.0997,大同市,魏都大道141号,,47,47,73,24,35,87,,76,76,28,35,12,10,0.6,1.2
2025-10-13T1800,2269A,124.1069,50.4097,大兴安岭地区,科技局,,16,12,14,11,11,38,,47,45,11,4,4,4,0.3,0.2
2025-10-13T1800,3663A,124.1164,50.4278,大兴安岭地区,红旗社区,,14,,2,3,2,42,,50,46,7,3,4,4,0.3,0.3
2025-10-13T1800,1600A,124.3303,40.0625,丹东市,江湾东路,细颗粒物(PM2.5),62,52,27,44,16,10,,51,49,54,19,8,9,1.0,0.7
2025-10-13T1800,1601A,124.4256,40.1503,丹东市,临江后街,,44,44,27,14,11,10,,48,48,61,22,8,8,1.2,0.7
2025-10-13T1800,1602A,124.3933,40.1461,丹东市,元宝山,,21,13,21,3,10,67,,54,54,9,13,7,8,0.6,0.7
2025-10-13T1800,1603A,124.3633,40.1092,丹东市,民主桥,,49,49,27,28,13,0,,49,47,66,24,6,6,1.0,0.6
2025-10-13T1800,3541A,109.5726,19.5167,儋州市,第一中学子站,,9,9,11,3,6,23,,30,30,4,3,3,3,0.3,0.3
2025-10-13T1800,3542A,109.5567,19.5187,儋州市,东坡学校子站,,17,17,13,3,6,27,,33,32,5,4,6,4,0.2,0.2
2025-10-13T1800,2616A,98.5842,24.428,德宏傣族景颇族自治州,德宏州监测站,,24,13,21,3,13,75,,69,69,9,13,9,9,0.0,0.4
2025-10-13T1800,3677A,98.5881,24.4368,德宏傣族景颇族自治州,芒市人民政府综合楼,,29,29,30,9,13,72,,73,73,6,10,9,9,0.4,0.6
2025-10-13T1800,1901A,104.4239,31.1208,德阳市,东山公园,,35,13,18,8,11,111,,96,96,7,24,2,3,0.5,0.7
2025-10-13T1800,1902A,104.3826,31.1317,德阳市,西小区,,38,26,31,12,12,120,,100,100,15,26,3,2,0.2,0.4
2025-10-13T1800,1904A,104.3553,31.1091,德阳市,耐火材料厂,,37,36,34,14,13,116,,102,102,19,28,2,3,0.7,0.9
2025-10-13T1800,3639A,104.4019,31.1244,德阳市,市教育局,,35,21,26,9,12,110,,99,99,16,25,3,4,0.6,0.8
2025-10-13T1800,1622A,116.3032,37.4674,德州市,儿童乐园,,39,39,28,12,12,107,,102,102,19,28,12,11,0.5,0.6
2025-10-13T1800,1624A,116.2991,37.4451,德州市,监理站,,33,22,18,7,9,105,,103,103,27,31,14,16,0.5,0.5
2025-10-13T1800,3066A,116.2721,37.4379,德州市,九衢泉纯净水厂,,,,21,,10,72,,92,92,62,32,10,12,,0.5
2025-10-13T1800,3371A,116.3728,37.4403,德州市,开发区人民医院,,39,39,25,17,12,98,,97,97,34,34,15,13,0.5,0.6
2025-10-13T1800,3511A,116.5652,37.3319,德州市,陵城艺术中心,,39,39,25,9,10,105,,106,106,22,22,8,9,0.5,0.6
2025-10-13T1800,4292A,116.3525,37.4209,德州市,新河东路,,34,34,24,14,11,94,,99,99,28,30,12,10,0.5,0.7
2025-10-13T1800,2621A,99.7056,27.8317,迪庆藏族自治州,迪庆州站,,29,15,19,11,12,91,,79,79,5,7,6,6,0.5,0.6
2025-10-13T1800,3180A,99.7136,27.8094,迪庆藏族自治州,质量技术监督局,,32,32,24,9,9,94,,79,79,5,10,8,7,0.6,0.7
2025-10-13T1800,4257A,104.6092,35.5962,定西市,将台街,,33,33,43,16,22,91,,81,81,9,23,7,8,0.4,0.5
2025-10-13T1800,4309A,104.6159,35.5701,定西市,正龙路62号,,38,38,46,18,24,88,,78,78,6,12,5,5,0.3,0.4
2025-10-13T1800,1389A,113.7547,23.0494,东莞市,莞城梨川,,30,26,25,21,25,73,,96,93,25,23,6,7,0.6,0.7
2025-10-13T1800,1390A,113.7944,23.0128,东莞市,东城石井,,15,13,27,7,14,48,,84,80,29,24,5,6,0.5,0.5
2025-10-13T1800,1391A,113.7383,22.9658,东莞市,南城西平,,18,17,20,11,13,55,,78,78,27,29,4,5,0.5,0.5
2025-10-13T1800,3319A,113.7338,23.0381,东莞市,万江金泰,,21,20,26,10,15,65,,91,91,25,21,6,7,0.7,0.7
2025-10-13T1800,3626A,113.7533,23.0202,东莞市,南城元岭,,21,19,28,11,16,66,,92,92,24,23,5,5,0.5,0.6
2025-10-13T1800,3627A,113.7875,23.0457,东莞市,东城主山,,29,29,27,14,14,78,,95,95,31,27,3,3,0.5,0.5
2025-10-13T1800,1666A,118.6614,37.4309,东营市,市环保局,,,36,18,,3,71,,90,90,33,18,8,7,0.8,0.4
2025-10-13T1800,3036A,118.6904,37.4338,东营市,开发区管委会,,43,43,23,12,7,83,,92,92,31,16,8,7,0.8,0.4
2025-10-13T1800,3365A,118.5719,37.565,东营市,垦利区民丰路,颗粒物(PM10),52,53,22,19,6,70,,77,77,41,19,4,4,1.1,0.8
2025-10-13T1800,3498A,118.5055,37.8612,东营市,河口城区,颗粒物(PM10),51,51,29,17,6,119,,90,90,22,27,9,9,0.6,0.6
2025-10-13T1800,3646A,118.4978,37.4623,东营市,胜利站,颗粒物(PM10),52,53,28,14,6,75,,86,86,40,26,10,9,0.9,0.5
2025-10-13T1800,3734A,118.35,37.26,东营市,理想之城,颗粒物(PM10),51,51,22,19,11,42,,84,83,58,24,5,4,0.9,0.4
2025-10-13T1800,1591A,110.0023,39.8129,鄂尔多斯市,综合楼,,41,41,51,17,28,103,,93,93,22,35,13,11,0.6,0.8
2025-10-13T1800,1592A,109.9486,39.8261,鄂尔多斯市,巴音孟克林场办事处,,39,39,60,22,33,104,,99,99,30,37,24,14,0.5,0.8
2025-10-13T1800,1593A,109.7736,39.5986,鄂尔多斯市,康泽苑,,46,46,45,17,24,109,,81,81,17,31,8,7,0.4,0.6
2025-10-13T1800,1594A,109.8119,39.5989,鄂尔多斯市,华泰汽车城,,36,36,42,24,26,100,,70,70,15,34,9,14,0.4,0.6
2025-10-13T1800,1595A,109.9734,39.7884,鄂尔多斯市,奥林花园,,48,48,64,17,27,97,,85,85,21,39,5,6,0.3,0.8
2025-10-13T1800,2436A,114.8938,30.3994,鄂州市,市政府,,13,,24,9,14,25,,24,24,15,14,7,6,0.8,0.7
2025-10-13T1800,2437A,114.8989,30.3714,鄂州市,赵家坝,,15,15,29,6,10,32,,32,32,6,6,11,9,1.0,0.6
2025-10-13T1800,3654A,114.8094,30.4089,鄂州市,精准医疗中心,,17,17,25,3,12,28,,27,27,14,12,4,6,0.8,0.8
2025-10-13T1800,2454A,109.4978,30.2981,恩施土家族苗族自治州,湖北民院,,15,12,27,10,20,42,,42,42,3,4,6,6,0.9,0.9
2025-10-13T1800,2455A,109.4707,30.2798,恩施土家族苗族自治州,州电力总公司,,13,13,27,3,22,31,,40,34,13,11,6,7,0.9,0.8
2025-10-13T1800,3549A,109.5061,30.3772,恩施土家族苗族自治州,龙凤新区,,,5,25,,21,21,,34,28,11,6,6,6,0.9,0.8
2025-10-13T1800,2499A,108.3411,21.6158,防城港市,沙万,,48,48,35,12,14,45,,47,47,15,13,6,6,0.4,0.5
2025-10-13T1800,2500A,108.3514,21.7731,防城港市,防城档案局,,25,25,33,15,17,49,,50,50,13,12,4,5,0.6,0.6
2025-10-13T1800,2501A,108.3506,21.6414,防城港市,大海花园,,29,29,20,8,13,64,,68,68,7,10,5,6,0.5,0.5
2025-10-13T1800,1371A,113.1294,23.0067,佛山市,湾梁,,24,24,24,9,11,46,,93,86,40,36,7,8,0.5,0.5
2025-10-13T1800,1372A,113.1083,23.0478,佛山市,华材职中,,25,17,19,17,12,64,,104,104,19,24,5,6,0.4,0.5
2025-10-13T1800,1373A,113.144,23.0453,佛山市,南海气象局,,20,20,26,14,11,54,,94,94,29,26,8,8,0.7,0.8
2025-10-13T1800,1374A,113.2881,22.8094,佛山市,顺德苏岗,,14,14,23,3,9,34,,59,59,23,28,6,7,0.4,0.5
2025-10-13T1800,1376A,112.8383,22.8678,佛山市,高明孔堂,,33,31,25,14,15,105,,128,128,10,23,3,3,0.3,0.4
2025-10-13T1800,1377A,112.8836,23.1588,佛山市,三水监测站,,28,22,25,19,16,83,,93,93,21,27,7,8,0.5,0.6
2025-10-13T1800,1378A,112.867,23.185,佛山市,三水云东海,,31,31,32,10,18,65,,91,91,18,31,2,3,0.7,0.8
2025-10-13T1800,3625A,113.2544,22.7642,佛山市,容桂街道办,,17,17,17,9,13,51,,71,71,19,30,5,5,0.6,0.7
2025-10-13T1800,1280A,119.3903,26.0543,福州市,鼓山,,,,29,,16,,,80,,,10,,1,,0.2
2025-10-13T1800,1282A,119.2681,26.0504,福州市,师大,,48,48,38,22,20,107,,128,128,16,13,7,6,0.6,0.4
2025-10-13T1800,1283A,119.2984,26.1028,福州市,五四北路,颗粒物(PM10),51,51,34,23,19,108,,126,126,16,13,6,4,0.5,0.4
2025-10-13T1800,1284A,119.2648,26.0768,福州市,杨桥西路,,50,50,34,24,20,112,,129,129,15,11,6,4,0.6,0.4
2025-10-13T1800,1285A,119.317,26.0746,福州市,紫阳,,50,50,41,19,21,92,,108,108,17,17,6,6,0.5,0.5
2025-10-13T1800,3048A,119.5799,26.0936,福州市,九龙,,33,21,21,13,14,104,,105,105,5,6,4,4,0.3,0.4
2025-10-13T1800,3526A,119.5189,25.9664,福州市,吴航,,33,31,28,19,15,105,,117,117,6,9,5,5,0.5,0.5
2025-10-13T1800,1755A,123.7977,41.8491,抚顺市,望花区,颗粒物(PM10),67,83,72,46,42,16,,64,62,86,35,13,11,1.3,1.1
2025-10-13T1800,1756A,123.9161,41.8822,抚顺市,顺城区,颗粒物(PM10),62,74,61,40,37,14,,66,64,83,36,8,9,1.2,0.9
2025-10-13T1800,1757A,124.0436,41.8611,抚顺市,东洲区,颗粒物(PM10),57,64,52,28,36,38,,80,80,58,28,11,10,1.4,1
2025-10-13T1800,1758A,123.9247,41.8642,抚顺市,新抚区,颗粒物(PM10),62,73,62,28,36,23,,66,66,62,28,10,10,1.8,1.1
2025-10-13T1800,1759A,124.0972,41.8961,抚顺市,大伙房水库,,,56,46,34,33,54,,86,86,51,23,,10,,0.7
2025-10-13T1800,1760A,123.7086,41.8391,抚顺市,沈抚新城,颗粒物(PM10),66,81,67,45,44,46,,68,68,67,34,13,12,0.9,0.9
2025-10-13T1800,2376A,116.2127,28.0814,抚州市,桐源党溪,,,,,,,,,,,,,,,,
2025-10-13T1800,2377A,116.3544,27.9831,抚州市,市站,细颗粒物(PM2.5),70,78,69,51,45,96,,114,114,10,10,7,6,1.4,1.3
2025-10-13T1800,2378A,116.3565,27.963,抚州市,血防站,细颗粒物(PM2.5),68,76,67,49,45,87,,104,104,11,12,8,8,0.9,0.8
2025-10-13T1800,2379A,116.3564,28.0007,抚州市,采茶剧团,细颗粒物(PM2.5),73,72,73,53,49,96,,113,113,7,9,7,9,1.0,1
2025-10-13T1800,2380A,116.385,27.9647,抚州市,医学分院,细颗粒物(PM2.5),64,75,73,46,44,106,,114,114,6,7,4,5,1.1,1.1
2025-10-13T1800,2207A,121.6094,41.998,阜新市,工业园区,颗粒物(PM10),72,93,75,37,31,76,,110,110,35,34,26,16,0.5,0.6
2025-10-13T1800,2208A,121.6697,42.0279,阜新市,长青街,颗粒物(PM10),51,52,51,27,23,73,,97,97,23,34,12,18,0.5,1
2025-10-13T1800,2209A,121.6673,42.0705,阜新市,农业园区,颗粒物(PM10),60,69,56,24,21,86,,94,94,21,21,7,15,0.5,0.7
2025-10-13T1800,2210A,121.6717,42.0224,阜新市,东苑,颗粒物(PM10),61,72,74,34,25,78,,91,91,30,35,11,16,0.5,1.4
2025-10-13T1800,2211A,121.6506,42.0498,阜新市,玉龙新城,颗粒物(PM10),68,86,65,25,16,83,,97,97,29,34,12,14,0.5,0.7
2025-10-13T1800,2301A,115.8277,32.8929,阜阳市,市监测站,,18,17,18,12,10,41,,39,39,20,18,4,4,0.4,0.4
2025-10-13T1800,2303A,115.8554,32.8605,阜阳市,开发区,,32,32,20,10,10,38,,38,38,20,16,7,7,0.4,0.5
2025-10-13T1800,2875A,115.784,32.8892,阜阳市,阜阳职业技术学院,,22,22,14,9,8,40,,38,38,18,16,5,5,0.3,0.4
2025-10-13T1800,3468A,115.7901,32.8613,阜阳市,市规划展馆,,21,21,17,12,9,46,,44,44,17,17,4,4,0.3,0.4
2025-10-13T1800,3469A,115.836,32.9183,阜阳市,枣园社区,,21,21,15,13,9,46,,43,43,16,16,6,6,0.3,0.4
2025-10-13T1800,2669A,102.9099,34.9841,甘南藏族自治州,州政府,,23,17,29,11,18,73,,64,64,7,18,5,4,0.3,0.4
2025-10-13T1800,3380A,102.8914,34.9617,甘南藏族自治州,甘肃民族师范学院,,28,,33,19,13,77,,66,66,8,19,4,6,0.2,0.3
2025-10-13T1800,2570A,101.9603,30.0475,甘孜藏族自治州,水桥子,,22,6,5,3,3,69,,70,70,9,11,7,7,0.4,0.4
2025-10-13T1800,3065A,101.9533,29.9972,甘孜藏族自治州,州环保局,,22,16,9,7,5,70,,73,73,11,9,5,4,0.4,0.4
2025-10-13T1800,3414A,115.8347,28.932,赣江新区,桑海产业园,颗粒物(PM10),52,53,71,26,50,55,,75,75,18,16,6,8,0.6,0.8
2025-10-13T1800,2362A,114.9017,25.9149,赣州市,通天岩,,,26,19,9,12,,,52,51,6,4,16,17,0.6,0.8
2025-10-13T1800,2363A,114.9367,25.8664,赣州市,地委,,24,24,21,9,11,46,,52,52,8,9,5,7,0.7,0.7
2025-10-13T1800,2364A,114.9461,25.8481,赣州市,气象台,,41,41,24,7,8,50,,56,56,8,6,4,7,0.6,0.6
2025-10-13T1800,2365A,114.9322,25.8333,赣州市,市图书馆,,24,24,18,14,12,52,,52,52,7,7,4,6,0.6,0.6
2025-10-13T1800,2366A,114.8905,25.8471,赣州市,华坚鞋城,,20,20,22,14,11,47,,54,54,10,10,5,7,0.6,0.6
2025-10-13T1800,3109A,115.0093,25.8613,赣州市,赣县区卫计委,,17,15,18,9,16,54,,46,46,4,11,7,7,0.5,0.5
2025-10-13T1800,2683A,106.2319,36.1417,固原市,马园,,,,,,,,,,,,,,,,
2025-10-13T1800,2684A,106.2792,36.0022,固原市,监测站,,33,33,28,8,13,84,,81,81,12,21,6,6,0.4,0.7
2025-10-13T1800,2685A,106.2375,36.0211,固原市,新区,,33,33,30,10,8,82,,81,81,14,24,4,4,0.7,0.8
2025-10-13T1800,3522A,106.2177,35.9959,固原市,原州区十五小,,27,21,16,10,9,86,,81,81,9,18,7,7,0.4,0.4
2025-10-13T1800,2543A,106.6308,30.5278,广安市,小平旧居,,,,,,,,,,,,,,,,
2025-10-13T1800,2544A,106.6303,30.4576,广安市,市委,,20,16,11,13,7,64,,50,50,10,8,4,4,0.7,0.7
2025-10-13T1800,2545A,106.6271,30.4663,广安市,友谊中学,,20,16,11,12,7,62,,52,52,12,9,9,8,0.8,0.8
2025-10-13T1800,2547A,106.6388,30.4551,广安市,广电花园,,19,15,8,10,7,58,,47,47,14,9,8,7,0.6,0.6
2025-10-13T1800,2902A,106.6351,30.4865,广安市,北辰小学,,20,17,9,10,6,61,,51,51,12,8,8,8,0.8,0.8
2025-10-13T1800,2523A,105.8945,32.4535,广元市,黑石坡,,,,,,,,,,,,,,,,
2025-10-13T1800,2524A,105.821,32.4444,广元市,老城,,31,,14,12,9,98,,86,86,18,16,13,6,0.8,0.8
2025-10-13T1800,2526A,105.8628,32.4287,广元市,监测站,,49,,11,34,9,83,,79,79,13,13,7,4,0.8,0.7
2025-10-13T1800,3617A,105.8047,32.4166,广元市,经开区,,22,22,18,10,8,70,,82,82,30,16,7,5,0.8,0.7
2025-10-13T1800,1345A,113.2347,23.1423,广州市,广雅中学,,27,24,25,11,14,84,,96,96,31,30,6,5,0.5,0.4
2025-10-13T1800,1346A,113.2612,23.105,广州市,市五中,,28,21,25,11,14,87,,118,118,33,34,7,7,0.3,0.3
2025-10-13T1800,1348A,113.3478,23.0916,广州市,广东商学院,,,20,27,15,17,86,,110,110,31,32,,4,0.4,0.4
2025-10-13T1800,1349A,113.4332,23.1047,广州市,市八十六中,,25,23,24,13,15,77,,111,111,46,38,6,7,0.5,0.6
2025-10-13T1800,1350A,113.3505,22.9483,广州市,番禺中学,,23,23,31,12,17,40,,95,95,32,28,8,9,0.8,0.9
2025-10-13T1800,1351A,113.2146,23.3916,广州市,花都师范,,28,28,28,14,12,66,,68,68,31,33,5,5,0.6,0.6
2025-10-13T1800,1352A,113.2597,23.1331,广州市,市监测站,,26,24,25,10,13,81,,101,101,27,27,7,6,0.7,0.6
2025-10-13T1800,1353A,113.5618,23.312,广州市,九龙镇镇龙,,20,14,18,8,12,62,,68,68,13,15,4,5,0.4,0.4
2025-10-13T1800,1354A,113.2765,23.1544,广州市,麓湖,,31,25,23,14,13,98,,89,89,27,26,6,5,0.5,0.5
2025-10-13T1800,1355A,113.443,23.3035,广州市,帽峰山森林公园,,,,,,,,,,,,,,,,
2025-10-13T1800,2846A,113.3221,23.1322,广州市,体育西,,36,36,30,17,16,100,,110,110,32,31,5,5,0.6,0.6
2025-10-13T1800,3298A,113.5717,23.5491,广州市,从化街口,,15,14,21,7,13,45,,48,48,12,16,6,6,0.6,0.6
2025-10-13T1800,3299A,113.3472,23.3692,广州市,白云竹料,,27,27,25,14,14,67,,60,60,24,21,4,4,0.5,0.5
2025-10-13T1800,3300A,113.2981,23.237,广州市,白云嘉禾,,28,26,25,13,12,89,,74,74,23,26,5,5,0.5,0.6
2025-10-13T1800,3301A,113.4256,23.1716,广州市,黄埔科学城,,26,23,23,12,11,83,,79,79,27,22,3,3,0.6,0.6
2025-10-13T1800,3302A,113.3942,23.0483,广州市,番禺大学城,,27,23,27,15,17,84,,98,98,33,33,6,7,0.6,0.7
2025-10-13T1800,3303A,113.4922,22.8168,广州市,南沙黄阁,,14,13,25,8,13,42,,66,66,26,31,7,8,0.4,0.5
2025-10-13T1800,3304A,113.5342,22.7896,广州市,南沙街,,21,21,22,7,12,35,,57,57,24,24,6,5,0.4,0.5
2025-10-13T1800,3443A,113.2902,23.5544,广州市,花都梯面,,18,16,17,11,9,56,,54,54,17,16,5,6,0.5,0.5
2025-10-13T1800,3445A,113.7858,23.7478,广州市,从化良口,,10,10,13,3,7,30,,32,32,8,11,5,5,0.4,0.4
2025-10-13T1800,3446A,113.8051,23.2614,广州市,增城荔城,,16,16,15,3,7,40,,65,65,10,9,6,6,0.4,0.4
2025-10-13T1800,2505A,109.568,23.1478,贵港市,德智高中,,,,,,,,,,,,,,,,
2025-10-13T1800,2506A,109.6047,23.0666,贵港市,江南子站,,28,19,33,19,26,55,,67,67,5,12,4,6,0.6,0.7
2025-10-13T1800,2508A,109.5669,23.1065,贵港市,荷城子站,,22,22,29,9,16,51,,62,62,7,14,4,6,0.4,0.5
2025-10-13T1800,3405A,109.5886,23.1172,贵港市,新世纪学校,,44,44,35,15,20,54,,64,64,9,13,2,3,0.5,0.6
2025-10-13T1800,4260A,109.5933,23.0951,贵港市,中山路155-3号,,44,44,39,18,24,55,,71,69,9,14,3,6,0.3,0.7
2025-10-13T1800,1439A,106.6899,26.5998,贵阳市,马鞍山,,35,31,22,24,20,69,,55,55,13,9,4,5,0.5,0.4
2025-10-13T1800,1441A,106.6243,26.6266,贵阳市,鉴湖路,,36,36,31,17,12,56,,50,50,10,8,6,7,0.6,0.5
2025-10-13T1800,1442A,106.7487,26.6343,贵阳市,燕子冲,,42,39,21,29,21,75,,60,60,13,10,4,5,0.6,0.4
2025-10-13T1800,1443A,106.6555,26.4365,贵阳市,碧云窝,颗粒物(PM10),51,51,37,19,14,95,,67,67,15,10,5,7,0.5,0.4
2025-10-13T1800,1445A,106.7109,26.6027,贵阳市,红边门,,46,46,28,24,19,81,,59,59,14,8,4,4,0.4,0.3
2025-10-13T1800,1446A,106.7164,26.5699,贵阳市,新华路,,31,31,28,17,14,84,,65,65,14,12,2,3,0.5,0.5
2025-10-13T1800,1447A,106.674,26.5424,贵阳市,太慈桥,,34,34,24,17,13,78,,52,52,20,17,4,5,0.4,0.3
2025-10-13T1800,1552A,106.805,26.3003,贵阳市,桐木岭,,44,44,43,29,28,103,,80,80,8,7,3,3,1.0,1.1
2025-10-13T1800,4230A,106.6882,26.5695,贵阳市,花果园大街66号,,36,31,19,25,18,79,,53,53,15,10,1,2,0.5,0.7
2025-10-13T1800,4231A,106.6873,26.5169,贵阳市,漓江路57号,,31,31,28,19,16,88,,63,63,14,10,6,8,0.9,0.8
2025-10-13T1800,1862A,110.4144,25.3167,桂林市,电子科大尧山校区,,,,,,,,,,,,,,,,
2025-10-13T1800,1864A,110.3089,25.2708,桂林市,龙隐路小学,细颗粒物(PM2.5),57,,45,40,29,82,,79,79,10,15,5,8,0.4,0.4
2025-10-13T1800,1865A,110.2869,25.2178,桂林市,八中,,40,28,48,28,31,78,,77,77,11,16,7,10,0.7,0.7
2025-10-13T1800,3531A,110.296,25.1253,桂林市,旅游学院,,17,7,41,3,28,54,,71,71,5,25,5,7,0.5,0.6
2025-10-13T1800,4222A,110.1835,25.2444,桂林市,环湖路276号,,22,22,48,14,30,62,,68,68,9,32,9,14,0.3,0.4
2025-10-13T1800,4301A,110.2803,25.2773,桂林市,信义路13号,,38,31,45,26,26,82,,79,79,11,16,6,11,0.8,0.7
2025-10-13T1800,2674A,100.2561,34.4714,果洛藏族自治州,玛沁县大武镇,,32,27,30,12,15,100,,89,89,1,5,9,14,0.3,0.4
2025-10-13T1800,1129A,126.5422,45.755,哈尔滨市,岭北,,,,,,,,,,,,,,,,
2025-10-13T1800,1130A,126.561,45.8167,哈尔滨市,松北商大,颗粒物(PM10),55,60,48,21,18,29,,54,53,38,25,4,4,0.6,0.5
2025-10-13T1800,1131A,126.979,45.5419,哈尔滨市,阿城会宁,颗粒物(PM10),61,72,57,25,20,21,,46,45,42,32,7,8,0.4,0.4
2025-10-13T1800,1132A,126.599,45.7222,哈尔滨市,南岗学府路,,,62,56,20,22,43,,50,50,33,36,9,9,,0.7
2025-10-13T1800,1133A,126.689,45.7733,哈尔滨市,太平宏伟公园,颗粒物(PM10),59,68,63,31,24,29,,50,49,37,25,12,10,0.5,0.5
2025-10-13T1800,1134A,126.635,45.7667,哈尔滨市,道外承德广场,颗粒物(PM10),63,75,60,27,22,33,,47,47,37,28,9,8,0.6,0.6
2025-10-13T1800,1135A,126.685,45.7319,哈尔滨市,香坊红旗大街,颗粒物(PM10),64,78,70,28,22,26,,44,44,45,33,12,13,0.7,0.6
2025-10-13T1800,1136A,126.6411,45.7258,哈尔滨市,动力和平路,颗粒物(PM10),51,52,45,31,25,42,,48,48,31,31,7,8,0.6,0.6
2025-10-13T1800,1137A,126.593,45.7478,哈尔滨市,道里建国路,颗粒物(PM10),54,58,51,29,22,40,,50,50,32,28,10,10,0.5,0.5
2025-10-13T1800,1138A,126.615,45.61,哈尔滨市,平房东轻厂,颗粒物(PM10),64,78,65,29,23,8,,40,38,66,41,18,13,0.6,0.7
2025-10-13T1800,1139A,126.595,45.9855,哈尔滨市,呼兰师专,颗粒物(PM10),64,78,59,33,27,38,,52,52,37,22,8,7,0.4,0.4
2025-10-13T1800,1140A,126.6206,45.6842,哈尔滨市,省农科院,颗粒物(PM10),57,63,66,35,24,30,,42,42,44,39,2,3,0.7,0.8
2025-10-13T1800,2688A,93.5128,42.8172,哈密市,地区监测站,颗粒物(PM10),90,130,120,26,35,73,,74,74,28,36,14,10,0.6,0.3
2025-10-13T1800,2689A,93.4961,42.8328,哈密市,哈密师范学校,颗粒物(PM10),66,81,120,23,34,78,,73,73,21,39,11,6,0.5,0.6
2025-10-13T1800,2671A,100.9048,36.9639,海北藏族自治州,海晏县西海镇,,33,15,15,12,11,103,,96,96,2,6,12,11,0.2,0.3
2025-10-13T1800,3867A,102.0738,36.5056,海东市,平安区公安北苑,,34,22,31,3,20,107,,86,86,9,13,10,11,0.5,0.7
2025-10-13T1800,1409A,110.576,19.9507,海口市,东寨港,,,,,,,,,,,,,,,,
2025-10-13T1800,1410A,110.3232,20.0574,海口市,海南大学,,12,12,10,3,5,35,,39,39,3,4,4,4,0.2,0.2
2025-10-13T1800,1411A,110.283,20.0053,海口市,秀英海南医院,,,10,7,3,4,,,34,33,,7,,4,,0.3
2025-10-13T1800,1412A,110.338,19.9969,海口市,海南师范大学,,10,10,11,3,7,32,,36,36,6,7,4,5,0.3,0.4
2025-10-13T1800,1413A,110.33,20.0356,海口市,龙华路环保局宿舍,,10,9,10,6,7,30,,37,36,6,6,6,6,0.1,0.1
2025-10-13T1800,3539A,110.5111,19.9736,海口市,桂林洋子站,,10,7,14,6,7,30,,34,34,3,7,5,5,0.2,0.2
2025-10-13T1800,2673A,100.6188,36.2866,海南藏族自治州,共和县恰卜恰镇,,37,20,33,6,11,117,,106,106,2,18,6,13,0.2,0.5
2025-10-13T1800,2676A,97.3731,37.3753,海西蒙古族藏族自治州,德令哈市,,37,35,21,9,14,117,,108,108,3,5,22,21,0.3,0.4
2025-10-13T1800,1048A,114.5302,36.6116,邯郸市,东污水处理厂,,27,,14,18,27,86,,101,101,18,15,6,7,0.2,0.5
2025-10-13T1800,1049A,114.4918,36.5713,邯郸市,矿院,,34,34,19,17,24,98,,106,106,10,13,4,5,0.2,0.5
2025-10-13T1800,1050A,114.484,36.6133,邯郸市,丛台公园,,34,24,20,7,17,107,,110,110,12,18,3,5,0.3,0.5
2025-10-13T1800,3458A,114.7895,36.5593,邯郸市,香泉濮院小区,,30,26,22,13,17,96,,100,100,9,16,4,5,0.2,0.5
2025-10-13T1800,3579A,114.50634,36.77178,邯郸市,永年区实验高中,,34,19,24,7,15,107,,106,106,10,16,1,2,0.3,0.5
2025-10-13T1800,3580A,114.20016,36.44293,邯郸市,峰峰矿区临水派出所,,39,28,24,3,12,122,,117,117,8,12,3,7,0.3,0.7
2025-10-13T1800,2634A,106.9893,33.1842,汉中市,汉川机床厂子校,,,,,,,,,,,,,,,,
2025-10-13T1800,2635A,107.0154,33.0706,汉中市,市监测站,,17,12,14,6,8,54,,63,63,7,12,4,4,0.7,0.8
2025-10-13T1800,2636A,107.0089,33.1138,汉中市,鑫源开发区,,18,8,12,3,7,56,,65,65,12,14,4,4,0.7,0.8
2025-10-13T1800,2637A,107.007,33.0323,汉中市,南郑大河坎水厂,,15,8,12,3,8,48,,56,56,8,12,6,6,0.6,0.7
2025-10-13T1800,1223A,120.2072,30.2111,杭州市,滨江,,48,46,69,33,44,43,,95,89,40,29,8,9,1.4,1
2025-10-13T1800,1224A,120.0633,30.2747,杭州市,西溪,,41,41,61,28,44,56,,96,91,38,27,7,7,1.2,0.8
2025-10-13T1800,1226A,120.3417,30.3150,杭州市,下沙,,44,44,56,29,36,16,,69,61,39,23,8,8,1.3,0.7
2025-10-13T1800,1227A,120.1269,30.2456,杭州市,卧龙桥,,,53,60,,48,40,,90,84,39,21,,8,1.4,1
2025-10-13T1800,1228A,120.1903,30.2692,杭州市,浙江农大,,46,46,72,29,43,34,,81,74,38,29,7,7,1.4,0.9
2025-10-13T1800,1230A,120.1197,30.3119,杭州市,和睦小学,,45,39,57,31,40,37,,81,74,40,24,13,13,1.4,1
2025-10-13T1800,1231A,120.3019,30.4183,杭州市,临平镇,,38,38,67,21,36,13,,70,49,41,22,6,6,1.4,1
2025-10-13T1800,1232A,120.2753,30.1839,杭州市,城厢镇,细颗粒物(PM2.5),57,57,72,40,54,48,,89,84,40,30,5,6,1.4,0.9
2025-10-13T1800,1233A,120.0883,30.1808,杭州市,云栖,细颗粒物(PM2.5),52,48,58,36,50,66,,111,105,34,28,7,7,1.4,0.9
2025-10-13T1800,3557A,119.9464,30.0494,杭州市,镇二中,细颗粒物(PM2.5),58,55,69,41,49,98,,136,135,28,24,5,6,1.4,0.9
2025-10-13T1800,3558A,119.7183,30.2367,杭州市,市府大楼,,29,29,75,20,57,69,,114,112,18,19,8,9,1.0,0.7
2025-10-13T1800,3656A,120.1556,30.2864,杭州市,消防大队,,47,47,63,27,42,34,,83,76,42,27,8,8,1.6,1.2
2025-10-13T1800,1270A,117.1959,31.7848,合肥市,明珠广场,,14,12,38,9,24,9,,12,12,27,23,4,4,0.6,0.7
2025-10-13T1800,1271A,117.3072,31.8764,合肥市,三里街,,12,12,42,3,20,10,,11,11,19,19,6,5,0.6,0.8
2025-10-13T1800,1272A,117.2588,31.8707,合肥市,琥珀山庄,,17,17,35,6,21,12,,16,15,18,17,8,8,0.5,0.6
2025-10-13T1800,1273A,117.1604,31.9052,合肥市,董铺水库,,,,,,,,,,,,,,,,
2025-10-13T1800,1274A,117.25,31.8571,合肥市,长江中路,,19,19,41,7,24,10,,15,14,20,17,4,4,0.6,0.8
2025-10-13T1800,1275A,117.266,31.9436,合肥市,庐阳区,,9,6,38,3,22,15,,16,16,18,20,6,6,0.7,0.8
2025-10-13T1800,1276A,117.3453,31.8616,合肥市,瑶海区,,13,7,49,3,26,9,,11,11,25,23,8,8,0.5,0.6
2025-10-13T1800,1277A,117.3027,31.7964,合肥市,包河区,,15,14,41,3,23,8,,13,13,29,27,7,8,0.7,0.8
2025-10-13T1800,1278A,117.2776,31.7385,合肥市,滨湖新区,,20,,41,14,30,8,,13,13,26,23,5,5,0.7,0.8
2025-10-13T1800,1279A,117.1318,31.8403,合肥市,高新区,,24,24,41,14,27,11,,18,17,27,20,5,5,0.7,0.8
2025-10-13T1800,3464A,117.3803,31.9147,合肥市,高教基地,,19,19,47,3,20,9,,13,13,24,21,6,7,0.5,0.6
2025-10-13T1800,3614A,79.924,37.0877,和田地区,地区环保局,,48,48,110,18,30,116,,96,96,4,12,1,3,0.2,0.3
2025-10-13T1800,3615A,79.9131,37.113,和田地区,市环保局,,38,16,116,10,29,121,,99,99,8,31,3,4,0.3,0.4
2025-10-13T1800,2516A,108.2011,24.715,河池市,东仁乐园,,,,,,,,,,,,,,,,
2025-10-13T1800,2517A,108.0497,24.6947,河池市,市环保站,,21,10,30,10,19,66,,79,79,5,13,8,7,0.6,0.7
2025-10-13T1800,2518A,108.0983,24.6989,河池市,市疾控中心,,19,9,32,9,20,58,,76,76,8,22,8,9,0.6,0.7
2025-10-13T1800,1696A,114.6778,23.7569,河源市,源西,,,,,,,,,,,,,,,,
2025-10-13T1800,1697A,114.6944,23.7586,河源市,东埔,,12,,17,8,11,29,,42,41,9,12,4,6,0.5,0.6
2025-10-13T1800,1698A,114.6892,23.7233,河源市,老城,,10,,21,7,16,28,,46,43,7,7,5,9,0.5,0.6
2025-10-13T1800,1718A,115.4208,35.2464,菏泽市,气象局,,45,45,22,25,15,71,,80,80,21,10,3,3,0.4,0.3
2025-10-13T1800,3374A,115.5564,35.0891,菏泽市,定陶老年大学,,24,24,21,14,12,67,,64,64,14,13,5,5,0.4,0.4
2025-10-13T1800,4184A,115.4797,35.24401,菏泽市,永昌路1号,,35,35,23,24,17,71,,77,77,23,8,4,3,0.1,0.1
2025-10-13T1800,4193A,115.4715,35.2800,菏泽市,长城路999号,,36,36,18,25,11,75,,77,77,28,16,8,7,0.4,0.3
2025-10-13T1800,2514A,111.5264,24.4172,贺州市,环保小区,,26,18,20,10,16,81,,81,81,8,8,14,15,0.6,0.6
2025-10-13T1800,2515A,111.5608,24.4078,贺州市,政协大楼,,25,18,21,7,16,79,,73,73,8,9,8,10,0.7,0.7
2025-10-13T1800,3534A,111.4744,24.4553,贺州市,西湾,,25,15,23,11,19,77,,80,80,12,11,12,12,0.5,0.5
2025-10-13T1800,2385A,114.17,35.9019,鹤壁市,市监测站,,31,29,26,18,19,98,,103,103,19,16,8,8,0.6,0.9
2025-10-13T1800,2386A,114.2956,35.7511,鹤壁市,市交警支队,,37,37,38,3,15,81,,94,94,25,20,6,6,0.5,0.7
2025-10-13T1800,2387A,114.2878,35.7306,鹤壁市,迎宾馆,,35,26,29,24,15,95,,100,100,12,14,3,6,0.6,0.8
2025-10-13T1800,3474A,114.2617,35.6822,鹤壁市,大新区,,25,16,28,8,16,77,,92,92,7,10,4,4,0.5,0.7
2025-10-13T1800,3596A,114.1572,35.9603,鹤壁市,南山宾馆,,37,37,29,25,21,108,,107,107,11,14,5,7,0.7,1.1
2025-10-13T1800,2244A,130.2537,47.3416,鹤岗市,哈啤分公司,,49,49,23,24,9,27,,61,54,29,6,12,10,0.6,0.5
2025-10-13T1800,2245A,130.2684,47.3086,鹤岗市,斯达机电,颗粒物(PM10),66,82,26,18,15,39,,63,59,26,8,13,12,0.5,0.4
2025-10-13T1800,2246A,130.3114,47.3388,鹤岗市,东山纸板厂,颗粒物(PM10),131,211,50,32,17,13,,66,54,46,13,13,13,0.7,0.1
2025-10-13T1800,2247A,130.1097,47.3382,鹤岗市,五号水库,,,,,,,,,,,,,,,,
2025-10-13T1800,2263A,127.4833,50.2524,黑河市,交通局,,48,48,28,15,13,38,,42,41,28,14,5,9,0.5,0.5
2025-10-13T1800,2264A,127.5144,50.2341,黑河市,环保局,,29,29,33,3,15,43,,41,41,17,16,4,8,0.4,0.4
2025-10-13T1800,2265A,127.5291,50.2472,黑河市,大黑河岛,,,,,,,,,,,,,,,,
2025-10-13T1800,1074A,115.6838,37.7541,衡水市,电机北厂,,,,26,31,12,102,,96,96,,19,6,6,0.2,0.3
2025-10-13T1800,1075A,115.6303,37.7316,衡水市,市监测站,,39,39,29,13,10,77,,90,90,36,19,5,5,0.3,0.4
2025-10-13T1800,3188A,115.6683,37.7217,衡水市,市城管局,,46,,21,32,13,107,,102,102,9,15,7,7,0.3,0.4
2025-10-13T1800,3459A,115.5989,37.5491,衡水市,地表水厂,,37,37,31,9,10,73,,96,96,29,19,4,4,0.2,0.3
2025-10-13T1800,2456A,112.5003,26.9167,衡阳市,原169医院,,,,,,,,,,,,,,,,
2025-10-13T1800,2457A,112.6194,26.9258,衡阳市,衡阳化工总厂,,33,33,96,23,85,46,,64,50,10,12,5,7,0.9,1.1
2025-10-13T1800,2458A,112.6211,26.8956,衡阳市,珠晖区环保局,,49,38,92,34,70,42,,66,51,18,19,8,8,1.2,1.4
2025-10-13T1800,2459A,112.6197,26.8733,衡阳市,市委党校,,33,30,90,23,64,44,,66,52,8,10,8,8,0.7,1
2025-10-13T1800,2460A,112.6006,26.8919,衡阳市,市监测站,,38,33,88,26,67,44,,66,51,12,13,4,5,1.0,1.2
2025-10-13T1800,2461A,112.5664,26.9056,衡阳市,真空机电公司,,44,44,85,23,77,44,,68,49,8,10,5,6,1.0,1.3
2025-10-13T1800,3399A,112.6703,26.882,衡阳市,师范学院,,36,33,95,25,68,44,,65,55,12,13,7,8,0.9,1.1
2025-10-13T1800,2608A,103.3772,23.3993,红河哈尼族彝族自治州,污水处理厂,,37,37,31,18,21,69,,68,68,10,8,44,25,0.2,0.3
2025-10-13T1800,2609A,103.3861,23.35,红河哈尼族彝族自治州,监测站,,32,32,33,22,20,66,,70,70,4,4,12,11,0.4,0.4
2025-10-13T1800,3038A,103.3758,23.368,红河哈尼族彝族自治州,州图书馆,,39,,26,27,31,69,,71,71,5,5,3,4,0.3,0.3
2025-10-13T1800,1090A,111.6507,40.7517,呼和浩特市,呼市一监,细颗粒物(PM2.5),62,61,53,44,38,102,,79,79,22,30,8,8,0.5,0.5
2025-10-13T1800,1091A,111.6572,40.8033,呼和浩特市,小召,细颗粒物(PM2.5),74,75,63,54,50,100,,74,74,27,39,9,9,0.7,0.7
2025-10-13T1800,1094A,111.7516,40.8369,呼和浩特市,如意水处理厂,细颗粒物(PM2.5),64,64,65,46,39,102,,74,74,24,35,11,11,0.7,0.6
2025-10-13T1800,1095A,111.7276,40.8062,呼和浩特市,二十九中,颗粒物(PM10),63,76,66,44,39,103,,80,80,24,30,10,10,0.7,0.7
2025-10-13T1800,1096A,111.5512,40.7866,呼和浩特市,工大金川校区,颗粒物(PM10),63,76,79,43,40,101,,71,71,27,42,7,8,0.4,0.5
2025-10-13T1800,1097A,111.717,40.7612,呼和浩特市,化肥厂生活区,细颗粒物(PM2.5),67,66,67,48,39,92,,75,75,39,38,8,7,0.6,0.6
2025-10-13T1800,3698A,111.5968,40.8178,呼和浩特市,红旗小学,细颗粒物(PM2.5),55,56,70,39,40,103,,69,69,36,47,7,9,0.4,0.4
2025-10-13T1800,3699A,111.6518,40.8389,呼和浩特市,海东办,颗粒物(PM10),59,68,69,41,39,113,,79,79,28,41,8,8,0.8,0.8
2025-10-13T1800,2192A,119.7594,49.2261,呼伦贝尔市,区环保局,,39,29,29,27,17,33,,50,49,38,16,5,5,0.7,0.4
2025-10-13T1800,3061A,119.7512,49.1577,呼伦贝尔市,国华电力东,,22,22,24,11,12,48,,55,55,12,10,6,7,0.5,0.5
2025-10-13T1800,1250A,120.0751,30.8669,湖州市,城西水厂,,48,48,67,33,50,15,,51,23,45,32,7,7,1.0,0.9
2025-10-13T1800,2873A,120.0830,30.8929,湖州市,仁皇山新区,,43,42,67,30,44,20,,45,16,38,24,5,5,1.1,0.9
2025-10-13T1800,2907A,120.1844,30.8596,湖州市,吴兴区站,,37,37,53,25,37,19,,44,13,38,24,6,6,1.3,1.2
2025-10-13T1800,3562A,120.4148,30.8538,湖州市,南浔区站,,50,44,49,35,53,44,,53,37,25,20,8,8,1.2,0.9
2025-10-13T1800,1607A,120.9049,40.7211,葫芦岛市,龙港区,细颗粒物(PM2.5),53,43,66,37,27,87,,93,93,20,36,10,24,0.6,0.8
2025-10-13T1800,1608A,120.8392,40.7514,葫芦岛市,化工街,,44,44,61,17,20,84,,80,80,21,40,10,33,0.5,0.6
2025-10-13T1800,1609A,120.8341,40.7073,葫芦岛市,新区,,44,44,41,20,18,83,,87,87,25,40,6,10,0.8,0.6
2025-10-13T1800,1610A,120.8695,40.7677,葫芦岛市,东城区,,35,35,51,22,22,86,,91,90,31,37,8,21,0.8,0.7
2025-10-13T1800,2482A,109.5981,27.5721,怀化市,林科所,,,,,,,,,,,,,,,,
2025-10-13T1800,2483A,109.9453,27.5444,怀化市,河西地税局,,28,28,36,12,25,39,,43,39,9,10,3,3,0.5,0.5
2025-10-13T1800,2484A,109.9781,27.5342,怀化市,市四医院,,32,32,42,14,28,45,,51,46,5,6,6,7,0.4,0.3
2025-10-13T1800,2485A,109.9972,27.5578,怀化市,监测楼,,32,32,39,12,28,42,,57,43,9,9,2,3,0.3,0.3
2025-10-13T1800,2486A,110.0394,27.583,怀化市,市委党校,,25,25,36,8,25,44,,46,45,10,9,7,8,0.5,0.5
2025-10-13T1800,1210A,119.036,33.5981,淮安市,钵池山,,18,,9,12,14,31,,34,34,24,24,6,5,1.0,1.1
2025-10-13T1800,1211A,119.007,33.575,淮安市,北京南路,,12,,12,7,13,36,,34,34,23,23,6,6,0.9,1
2025-10-13T1800,1212A,118.989,33.6067,淮安市,市监测站,,17,,10,3,10,27,,34,34,34,26,4,5,0.9,1.1
2025-10-13T1800,1213A,119.135,33.5039,淮安市,楚州区监测站,,17,,15,8,14,52,,41,41,26,26,8,8,0.7,0.9
2025-10-13T1800,3426A,118.8755,33.2894,淮安市,新华书店,,,6,15,3,9,32,,30,30,,21,7,6,0.7,0.6
2025-10-13T1800,4206A,119.0288,33.6319,淮安市,承德北路606号,,13,,12,9,13,32,,36,36,22,22,6,6,0.7,0.8
2025-10-13T1800,2282A,116.8004,33.975,淮北市,监测站,,33,33,13,14,7,32,,28,28,18,18,8,8,0.7,0.7
2025-10-13T1800,2283A,116.8091,33.9007,淮北市,烈山区政府,,31,31,7,18,8,32,,31,31,20,18,7,7,0.8,0.8
2025-10-13T1800,3330A,116.8873,33.9836,淮北市,杜集区检察院,,45,45,23,27,16,34,,31,31,13,15,2,2,0.5,0.5
2025-10-13T1800,4017A,116.7923,33.9535,淮北市,市博物馆,,34,34,14,22,11,28,,29,29,22,19,7,7,0.6,0.6
2025-10-13T1800,2277A,116.8305,32.7727,淮南市,潘集区政府,,19,13,20,13,20,23,,22,22,15,15,5,4,0.5,0.5
2025-10-13T1800,2279A,116.8569,32.5951,淮南市,谢家集区政府,,15,,19,10,9,19,,18,18,18,17,7,7,0.4,0.5
2025-10-13T1800,2280A,116.8281,32.633,淮南市,八公山区政府,,22,22,27,13,16,21,,21,21,12,15,9,8,0.4,0.5
2025-10-13T1800,2281A,116.6325,32.6201,淮南市,焦岗湖风景区管理处,,,,,,,,,,,,,,,,
2025-10-13T1800,2894A,117.0566,32.6531,淮南市,经济技术开发区消防队,,16,,25,11,12,20,,17,17,17,22,8,8,0.3,0.5
2025-10-13T1800,3329A,117.0108,32.5893,淮南市,山南新区,,22,22,24,7,12,21,,17,17,20,24,4,4,0.3,0.4
2025-10-13T1800,4209A,117.0031,32.6445,淮南市,国庆中路369号,,18,18,29,10,15,15,,12,12,18,22,7,7,0.5,0.6
2025-10-13T1800,2446A,114.9028,30.4742,黄冈市,职工中心,,20,20,30,11,19,31,,30,30,14,13,7,6,0.5,0.5
2025-10-13T1800,2929A,114.8858,30.4519,黄冈市,红卫路,,21,21,28,10,16,32,,31,31,16,14,4,4,0.6,0.5
2025-10-13T1800,3398A,114.9136,30.4445,黄冈市,市林业局,,17,17,26,9,16,33,,30,30,13,12,4,3,0.5,0.5
2025-10-13T1800,2672A,102.0199,35.5102,黄南藏族自治州,同仁县隆务镇,,42,42,26,6,9,83,,76,76,20,7,10,10,0.3,0.3
2025-10-13T1800,2295A,118.2903,29.6963,黄山市,延安路89号,,39,39,53,3,21,94,,120,118,9,10,5,6,0.9,0.7
2025-10-13T1800,2297A,118.1371,30.2756,黄山市,黄山区政府5号楼,,19,19,35,11,25,28,,36,36,19,10,4,5,1.2,1.2
2025-10-13T1800,4210A,118.3354,29.7203,黄山市,滨江东路7-2号,,35,35,50,17,28,82,,112,111,10,9,3,4,0.9,0.6
2025-10-13T1800,2423A,115.0601,30.2313,黄石市,沈家营,,42,42,51,9,19,27,,24,24,11,9,9,9,1.0,0.7
2025-10-13T1800,2426A,114.8988,30.2019,黄石市,铁山,,34,34,38,11,21,29,,29,29,19,14,5,4,1.0,0.8
2025-10-13T1800,2427A,115.0307,30.2092,黄石市,团城山,,36,36,47,3,18,27,,23,23,9,12,12,15,0.8,0.9
2025-10-13T1800,3149A,115.0235,30.1578,黄石市,笔架山北路,,18,18,33,10,15,26,,25,25,12,10,4,6,0.6,0.5
2025-10-13T1800,4185A,115.0780,30.21118,黄石市,磁湖东路29号,,38,38,46,17,25,26,,24,24,13,10,8,8,0.8,0.7
2025-10-13T1800,1392A,114.4183,23.0528,惠州市,河南岸金山湖子站,,21,21,19,10,10,25,,43,42,21,12,9,9,0.6,0.6
2025-10-13T1800,1393A,114.4053,23.0822,惠州市,下埔横江三路子站,,19,19,23,9,10,34,,51,49,9,8,5,10,0.4,0.7
2025-10-13T1800,1394A,114.4103,23.1142,惠州市,江北云山西路子站,,11,11,19,7,10,33,,52,51,14,13,9,7,0.6,0.5
2025-10-13T1800,1395A,114.4645,22.7833,惠州市,惠阳区承修路船湖子站,,14,14,16,7,8,42,,43,43,10,12,8,8,0.5,0.5
2025-10-13T1800,1396A,114.5317,22.7422,惠州市,大亚湾管委会子站,,14,14,13,7,6,40,,38,38,9,11,11,11,0.4,0.5
2025-10-13T1800,3314A,114.4338,22.8134,惠州市,惠阳秋长,,19,14,14,13,8,43,,47,47,9,9,12,12,0.5,0.5
2025-10-13T1800,3452A,114.6517,22.775,惠州市,大亚湾霞涌,,14,,12,3,6,44,,46,46,4,7,6,6,0.6,0.7
2025-10-13T1800,2240A,130.9762,45.3001,鸡西市,环保局,,37,37,61,9,22,45,,53,53,19,23,8,10,0.5,0.6
2025-10-13T1800,2243A,130.9429,45.3039,鸡西市,第一中学,,,49,46,11,18,41,,48,48,,17,10,10,0.6,0.6
2025-10-13T1800,3707A,131.0207,45.3073,鸡西市,欧美日汽修厂,,36,36,79,8,27,48,,54,54,13,20,8,10,0.6,0.7
2025-10-13T1800,3709A,130.9967,45.3106,鸡西市,市政设施管理处,,36,36,52,11,18,42,,52,52,24,24,9,8,0.5,0.5
2025-10-13T1800,2367A,114.9754,27.0803,吉安市,红声器材厂,,45,45,50,28,31,57,,72,72,9,11,9,11,0.6,0.6
2025-10-13T1800,2368A,114.9658,27.0999,吉安市,市森林工业局,,49,49,49,34,32,54,,69,69,14,14,9,11,0.6,0.6
2025-10-13T1800,2369A,114.99,27.1312,吉安市,市环境监测站,,50,50,48,32,30,59,,71,71,8,10,8,11,0.7,0.6
2025-10-13T1800,2370A,115.0093,27.0968,吉安市,青原区法院,细颗粒物(PM2.5),58,58,45,41,30,62,,76,76,12,15,9,11,0.9,0.8
2025-10-13T1800,1772A,126.54,43.8622,吉林市,哈达湾,颗粒物(PM10),66,81,54,40,32,69,,82,82,39,26,14,8,0.5,0.3
2025-10-13T1800,1773A,126.5844,43.8358,吉林市,东局子,细颗粒物(PM2.5),75,74,44,55,30,69,,81,81,32,26,10,7,0.7,0.6
2025-10-13T1800,1774A,126.5052,43.8245,吉林市,电力学院,细颗粒物(PM2.5),69,79,51,50,41,69,,81,81,32,25,17,8,0.7,0.6
2025-10-13T1800,1775A,126.6133,43.8972,吉林市,江北,细颗粒物(PM2.5),100,98,56,75,35,56,,100,88,32,22,6,6,0.6,0.4
2025-10-13T1800,1776A,126.555,43.8306,吉林市,江南公园,,,84,51,55,36,62,,76,76,,26,,5,0.6,0.5
2025-10-13T1800,1778A,126.7061,43.7133,吉林市,丰满,,39,38,19,27,15,116,,115,115,21,9,14,8,0.6,0.5
2025-10-13T1800,2868A,126.4739,43.953,吉林市,九站,,,,63,140,57,75,,81,81,46,35,43,14,1.2,0.7
2025-10-13T1800,1299A,116.9862,36.6114,济南市,科干所,,44,44,16,22,12,82,,90,90,25,15,9,7,0.4,0.3
2025-10-13T1800,1300A,116.9376,36.665,济南市,农科所,,37,37,16,17,10,78,,90,89,19,18,7,7,0.6,0.4
2025-10-13T1800,1301A,117.1265,36.6734,济南市,开发区,颗粒物(PM10),51,51,18,29,15,94,,96,96,32,16,6,4,0.6,0.5
2025-10-13T1800,1303A,117.0624,36.6868,济南市,省种子仓库,颗粒物(PM10),51,51,24,29,12,98,,100,100,27,19,9,8,0.7,0.6
2025-10-13T1800,1304A,116.9489,36.6447,济南市,机床二厂,颗粒物(PM10),53,56,23,27,14,91,,92,92,26,20,9,8,0.6,0.5
2025-10-13T1800,1305A,117.0495,36.663,济南市,市监测站,颗粒物(PM10),55,59,21,34,13,98,,97,97,30,18,6,4,0.8,0.7
2025-10-13T1800,1306A,116.7675,36.5484,济南市,长清党校,,37,37,17,12,9,98,,96,96,23,20,8,7,0.6,0.5
2025-10-13T1800,1616A,117.6795,36.229,济南市,技术学院,,22,22,8,14,10,60,,78,76,18,13,8,8,0.5,0.4
2025-10-13T1800,1961A,117.532,36.6868,济南市,东山小学,,44,44,20,22,11,71,,90,90,27,16,8,7,0.4,0.3
2025-10-13T1800,3059A,117.7161,36.2049,济南市,泰兴公司,,27,27,12,12,6,54,,74,73,14,12,8,8,0.2,0.2
2025-10-13T1800,3064A,117.6867,36.2171,济南市,莱芜战役纪念馆,,19,19,12,10,11,58,,72,71,20,17,6,6,0.4,0.3
2025-10-13T1800,3494A,117.1673,36.9782,济南市,济阳区政府,,34,34,22,3,6,102,,93,93,10,12,8,9,0.3,0.2
2025-10-13T1800,3495A,117.1171,36.63,济南市,锦屏中学,,37,37,14,17,8,81,,93,92,22,14,7,5,0.6,0.7
2025-10-13T1800,3682A,116.9814,36.6819,济南市,济南四建,,34,34,14,17,13,83,,92,92,26,15,6,6,0.6,0.6
2025-10-13T1800,1653A,116.6251,35.4302,济宁市,火炬城,,34,34,18,22,10,40,,50,50,21,14,6,6,0.3,0.3
2025-10-13T1800,1655A,116.5491,35.4042,济宁市,电化厂,,39,39,22,19,17,54,,58,58,24,23,1,2,0.5,0.4
2025-10-13T1800,3500A,116.5814,35.3707,济宁市,北湖一中,,32,29,17,22,14,41,,46,46,18,16,1,2,0.3,0.4
2025-10-13T1800,3501A,116.8249,35.5593,济宁市,服务中心,,28,28,13,14,3,46,,59,59,16,12,5,5,0.3,0.3
2025-10-13T1800,3678A,116.5907,35.4054,济宁市,市第七中学,,38,38,20,14,6,39,,53,51,21,15,6,6,0.4,0.4
2025-10-13T1800,2255A,130.2751,46.8028,佳木斯市,佳纺,颗粒物(PM10),51,52,35,16,12,10,,35,31,39,19,4,4,0.4,0.2
2025-10-13T1800,2256A,130.3995,46.8307,佳木斯市,发电厂,颗粒物(PM10),62,74,52,20,12,21,,39,34,35,21,7,13,0.5,0.5
2025-10-13T1800,2257A,130.3258,46.7975,佳木斯市,环保局,颗粒物(PM10),51,51,32,9,9,20,,38,32,33,19,2,4,0.6,0.4
2025-10-13T1800,2258A,130.3648,46.8032,佳木斯市,十一中,,47,47,32,12,13,29,,37,36,20,14,5,6,0.5,0.4
2025-10-13T1800,2259A,130.3794,46.7588,佳木斯市,四丰,,,,,,,,,,,,,,,,
2025-10-13T1800,1252A,120.7436,30.778,嘉兴市,清河小学,颗粒物(PM10),51,51,57,27,30,38,,49,49,38,26,7,8,1.4,0.9
2025-10-13T1800,1253A,120.726,30.7478,嘉兴市,嘉兴学院,,49,43,51,34,38,39,,56,56,33,20,4,5,1.4,0.9
2025-10-13T1800,2872A,120.7846,30.7525,嘉兴市,南湖区残联,细颗粒物(PM2.5),53,49,52,37,41,47,,63,62,35,22,6,6,1.6,1.1
2025-10-13T1800,3407A,120.6916,30.7739,嘉兴市,秀洲住建,,47,47,47,32,31,43,,58,58,29,18,8,8,1.4,0.9
2025-10-13T1800,1945A,98.2908,39.7711,嘉峪关市,气象局,颗粒物(PM10),56,61,66,17,20,130,,116,116,7,22,10,16,0.3,0.4
2025-10-13T1800,2884A,98.2672,39.7978,嘉峪关市,酒钢宾馆,颗粒物(PM10),54,58,69,22,20,119,,107,107,7,15,19,26,0.7,0.7
2025-10-13T1800,3248A,98.2643,39.7724,嘉峪关市,雄关区,颗粒物(PM10),56,61,57,21,19,123,,109,109,11,23,15,20,0.3,0.5
2025-10-13T1800,1383A,113.1064,22.6058,江门市,北街,,26,26,30,3,14,66,,71,71,12,30,5,5,0.4,0.5
2025-10-13T1800,1384A,113.0731,22.5835,江门市,西区,,24,24,24,12,13,59,,68,68,14,30,4,5,0.5,0.6
2025-10-13T1800,1385A,113.0219,22.5311,江门市,圭峰西,,21,21,22,8,12,61,,77,77,10,22,5,5,0.5,0.5
2025-10-13T1800,1386A,113.0828,22.5947,江门市,东湖,,19,13,22,3,13,60,,63,62,12,28,2,3,0.5,0.6
2025-10-13T1800,3311A,113.1075,22.5647,江门市,江海富民,,28,28,30,9,18,63,,67,67,16,34,7,8,0.5,0.6
2025-10-13T1800,3449A,113.05,22.4667,江门市,新会银湖,,19,19,24,8,12,44,,58,58,10,22,3,3,0.5,0.6
2025-10-13T1800,1830A,113.1992,35.2590,焦作市,影视城,,,,15,,8,,,46,,,13,,10,,0.7
2025-10-13T1800,3335A,113.3137,35.2641,焦作市,马村街道办,,46,46,28,30,19,98,,86,86,15,12,5,5,0.6,0.6
2025-10-13T1800,3336A,113.2465,35.2373,焦作市,焦作技师学院,,44,44,25,29,17,95,,82,82,14,14,8,8,0.8,0.8
2025-10-13T1800,3477A,113.1656,35.2539,焦作市,中站许衡医院,细颗粒物(PM2.5),67,60,37,48,27,72,,73,73,23,18,8,6,0.9,0.8
2025-10-13T1800,3981A,113.2449,35.1803,焦作市,原李万街道办,颗粒物(PM10),60,70,29,27,12,96,,83,83,16,14,7,6,0.8,0.7
2025-10-13T1800,4264A,113.2340,35.2190,焦作市,新安路1731号,,49,44,24,34,20,92,,82,82,14,13,6,5,0.8,0.7
2025-10-13T1800,4295A,113.2722,35.2121,焦作市,人民路3066号,,42,42,31,20,11,107,,89,89,15,13,6,5,0.8,0.7
2025-10-13T1800,1708A,116.3701,23.5345,揭阳市,新兴,,20,,25,14,15,29,,44,42,10,15,5,8,0.6,0.6
2025-10-13T1800,1709A,116.3264,23.5443,揭阳市,西马,,18,18,26,10,11,32,,43,42,6,14,3,5,0.7,0.7
2025-10-13T1800,1710A,116.3611,23.5626,揭阳市,东兴,,,,22,8,12,30,,44,43,6,13,4,9,0.5,0.5
2025-10-13T1800,1711A,116.4151,23.5294,揭阳市,渔湖,,12,12,26,3,10,32,,48,47,8,16,5,7,0.7,0.8
2025-10-13T1800,3320A,116.403,23.5699,揭阳市,曲溪,,24,24,27,6,13,35,,53,51,6,13,2,3,0.6,0.6
2025-10-13T1800,1944A,102.1692,38.5167,金昌市,天庆家园,,34,34,47,6,17,99,,96,96,11,21,16,8,0.8,0.9
2025-10-13T1800,4022A,102.1647,38.5371,金昌市,金川区人防中心,,28,28,46,7,17,87,,81,81,10,21,12,8,0.4,0.6
2025-10-13T1800,4239A,102.1930,38.5319,金昌市,长春路96号,,28,26,44,3,17,87,,79,79,9,21,6,11,0.5,0.6
2025-10-13T1800,1262A,119.647,29.077,金华市,十五中,,,40,48,24,28,110,,140,140,,22,3,3,0.6,0.6
2025-10-13T1800,1263A,119.686,29.1029,金华市,监测站,,41,41,52,24,28,122,,144,144,16,32,5,5,0.6,0.6
2025-10-13T1800,3659A,119.656,29.1131,金华市,气象局,,45,45,44,25,26,120,,129,129,20,28,5,4,0.4,0.4
2025-10-13T1800,1767A,121.1115,41.0879,锦州市,南山,细颗粒物(PM2.5),69,,44,50,26,96,,77,77,23,28,8,9,0.5,0.7
2025-10-13T1800,1768A,121.0604,40.8428,锦州市,开发区,颗粒物(PM10),51,52,59,28,26,77,,83,83,46,39,10,26,0.6,0.7
2025-10-13T1800,1769A,121.1836,41.1119,锦州市,百股街道,细颗粒物(PM2.5),62,62,52,44,22,91,,83,83,31,30,8,11,0.7,0.8
2025-10-13T1800,1770A,121.1178,41.1222,锦州市,天安街道,颗粒物(PM10),60,69,51,37,25,96,,78,78,27,34,11,14,0.8,0.8
2025-10-13T1800,1771A,121.1303,41.1386,锦州市,北湖公园,颗粒物(PM10),52,54,53,35,23,88,,73,73,20,26,9,10,0.6,0.6
2025-10-13T1800,2160A,112.85,35.5051,晋城市,自来水公司,颗粒物(PM10),69,88,31,48,18,72,,81,81,19,18,4,5,1.0,1.1
2025-10-13T1800,2161A,112.8318,35.4936,晋城市,白云商贸,颗粒物(PM10),62,73,43,41,7,70,,82,82,16,18,3,3,1.0,0.8
2025-10-13T1800,2162A,112.8508,35.4887,晋城市,市环保局,颗粒物(PM10),66,81,34,39,14,73,,78,78,18,19,4,5,0.9,1
2025-10-13T1800,2163A,112.8676,35.4897,晋城市,技术学院,颗粒物(PM10),61,72,32,34,11,68,,72,72,16,17,5,6,1.0,1.1
2025-10-13T1800,2165A,112.8453,35.546,晋城市,白马寺,,,,,,,,,,,,,,,,
2025-10-13T1800,3620A,112.8271,35.4828,晋城市,泽州一中,细颗粒物(PM2.5),64,51,24,46,12,72,,85,85,21,14,3,3,0.8,0.8
2025-10-13T1800,2173A,112.7249,37.7067,晋中市,南都小区,,41,41,33,25,20,101,,84,84,19,20,9,9,0.8,0.6
2025-10-13T1800,2174A,112.6991,37.6982,晋中市,榆次区政府,,46,46,31,24,22,97,,82,82,18,17,10,9,0.7,0.7
2025-10-13T1800,2865A,112.7195,37.6828,晋中市,榆次三中,,44,44,30,22,14,100,,87,87,14,16,11,10,0.8,0.8
2025-10-13T1800,4200A,112.7478,37.6954,晋中市,迎宾街26号,,46,46,26,19,13,95,,90,90,19,18,9,8,0.7,0.6
2025-10-13T1800,2439A,112.2014,31.0481,荆门市,竹园小学,,25,25,19,17,13,45,,47,47,17,14,1,1,0.2,0.1
2025-10-13T1800,2440A,112.1969,30.9891,荆门市,掇刀,,33,33,16,20,14,52,,48,48,10,9,1,1,0.5,0.5
2025-10-13T1800,2441A,112.2213,31.0386,荆门市,石化一小,,30,30,17,18,12,39,,38,38,15,13,3,4,1.0,0.9
2025-10-13T1800,3012A,112.1849,31.0362,荆门市,西山林语,,26,26,13,11,12,43,,46,46,12,10,3,3,0.8,0.7
2025-10-13T1800,3547A,112.1632,31.0138,荆门市,龙泉中学南校,,15,15,9,7,6,44,,48,48,10,12,5,4,0.3,0.3
2025-10-13T1800,1844A,112.2494,30.3197,荆州市,市图书馆,,17,14,16,6,10,53,,48,48,18,17,4,4,0.7,0.6
2025-10-13T1800,1845A,112.2008,30.3544,荆州市,市委党校,,17,16,16,3,11,53,,42,42,13,15,7,7,0.6,0.6
2025-10-13T1800,3194A,112.2747,30.3122,荆州市,管委会,,15,10,14,3,11,48,,44,44,14,13,7,8,0.7,0.7
2025-10-13T1800,4268A,112.1722,30.3366,荆州市,学苑路85号,,,22,16,6,12,54,,46,46,11,14,2,1,,0.7
2025-10-13T1800,2342A,117.3102,29.3867,景德镇市,王港中学,,,,,,,,,,,,,,,,
2025-10-13T1800,2343A,117.2117,29.2933,景德镇市,老干部活动中心,细颗粒物(PM2.5),52,44,56,36,45,111,,123,123,1,7,3,6,1.1,0.9
2025-10-13T1800,2344A,117.1894,29.2789,景德镇市,兽医站,,48,44,61,33,42,124,,138,138,10,16,7,11,1.2,1
2025-10-13T1800,2346A,117.2461,29.2956,景德镇市,陶研所,细颗粒物(PM2.5),62,49,59,44,47,118,,140,140,12,18,7,11,1.3,1.2
2025-10-13T1800,4289A,117.1542,29.2566,景德镇市,青少年活动中心,颗粒物(PM10),60,69,68,39,50,119,,130,130,15,29,10,22,1.0,1
2025-10-13T1800,1803A,115.9872,29.6815,九江市,十里,细颗粒物(PM2.5),60,55,74,43,57,26,,39,31,31,24,6,6,0.9,1.2
2025-10-13T1800,1804A,115.9584,29.7046,九江市,茅山头,细颗粒物(PM2.5),67,52,72,48,55,21,,27,26,26,22,3,4,0.9,1
2025-10-13T1800,1805A,115.9877,29.7295,九江市,西园,颗粒物(PM10),51,51,64,34,50,32,,36,35,38,39,8,10,1.0,1
2025-10-13T1800,1808A,115.9114,29.6038,九江市,综合工业园,颗粒物(PM10),58,66,61,32,39,29,,39,30,32,33,6,6,0.8,0.9
2025-10-13T1800,1809A,116.0721,29.7535,九江市,石化总厂,细颗粒物(PM2.5),67,48,69,48,63,35,,36,35,26,32,3,4,0.8,1
2025-10-13T1800,1810A,115.9773,29.5698,九江市,庐山气象台,,,,,,,,,,,,,,,,
2025-10-13T1800,3190A,116.0254,29.6994,九江市,外国语学校,颗粒物(PM10),60,70,76,38,60,28,,38,29,27,26,6,8,0.9,1
2025-10-13T1800,4253A,116.0102,29.6594,九江市,莲花大道8号,颗粒物(PM10),57,64,74,24,36,23,,38,26,30,19,5,6,0.8,0.9
2025-10-13T1800,4240A,98.4958,39.7339,酒泉市,玉门东路5号,颗粒物(PM10),57,63,68,17,18,112,,97,97,6,18,12,12,0.3,0.4
2025-10-13T1800,4241A,98.5099,39.7506,酒泉市,北大街108号,,41,41,69,12,20,112,,96,96,3,18,10,11,0.3,0.5
2025-10-13T1800,2698A,76.0072,39.4467,喀什地区,巡警大队,颗粒物(PM10),76,101,151,27,48,124,,87,87,11,50,5,7,0.2,0.7
2025-10-13T1800,2699A,75.9755,39.4694,喀什地区,吾办,颗粒物(PM10),76,101,158,29,53,115,,75,75,12,45,9,8,0.3,0.9
2025-10-13T1800,4027A,75.9483,39.4689,喀什地区,老干局,颗粒物(PM10),77,104,151,17,27,118,,80,80,11,47,4,4,0.2,0.6
2025-10-13T1800,1824A,114.3389,34.7781,开封市,肿瘤医院,,32,27,19,10,14,100,,96,96,12,14,6,6,0.7,0.8
2025-10-13T1800,1826A,114.2885,34.7965,开封市,世纪星幼儿园,,41,41,18,13,13,108,,101,101,15,14,8,6,0.8,0.8
2025-10-13T1800,3147A,114.3438,34.8106,开封市,龙亭公园,,31,31,22,6,10,95,,98,92,14,13,8,8,0.7,0.9
2025-10-13T1800,3210A,114.3644,34.7964,开封市,汴京公园,,32,32,21,6,12,96,,94,94,13,14,8,7,0.3,0.6
2025-10-13T1800,3473A,114.2485,34.8306,开封市,技师学院,,41,41,22,15,17,106,,96,96,15,15,12,9,0.9,1
2025-10-13T1800,3592A,114.4644,34.7556,开封市,祥符区生态环境局,,27,21,16,7,10,86,,87,87,14,14,5,6,0.6,0.8
2025-10-13T1800,1951A,84.895,45.6094,克拉玛依市,长征新村,,26,22,41,10,15,83,,76,76,3,19,2,4,0.1,0.3
2025-10-13T1800,1952A,84.8988,45.5893,克拉玛依市,南林小区,,37,37,44,10,14,79,,70,70,6,22,4,5,0.2,0.4
2025-10-13T1800,1954A,84.905,44.3396,克拉玛依市,独山子区,颗粒物(PM10),91,131,117,33,32,94,,92,92,14,14,10,8,0.6,0.5
2025-10-13T1800,1955A,85.6979,46.098,克拉玛依市,乌尔禾区商贸楼,,34,34,55,3,11,87,,65,65,4,31,4,5,0.1,0.4
2025-10-13T1800,3612A,85.1045,45.6899,克拉玛依市,白碱滩区新站,,46,46,58,11,14,91,,74,74,3,15,5,7,0.3,0.4
2025-10-13T1800,2697A,76.1454,39.7142,克孜勒苏柯尔克孜自治州,市人民政府,颗粒物(PM10),63,75,93,19,27,123,,128,128,3,13,10,13,0.1,0.1
2025-10-13T1800,3665A,76.1658,39.7157,克孜勒苏柯尔克孜自治州,克州文化中心,颗粒物(PM10),54,58,97,24,23,117,,132,132,2,11,10,12,0.2,0.2
2025-10-13T1800,1450A,102.8204,24.8886,昆明市,呈贡新区,,22,12,18,11,16,70,,67,67,13,18,2,5,0.3,0.3
2025-10-13T1800,1451A,102.6251,24.9608,昆明市,西山森林公园,,,,,,,,,,,,,,,,
2025-10-13T1800,1452A,102.7252,25.0902,昆明市,龙泉镇,,21,18,30,3,12,65,,68,68,11,18,4,3,0.4,0.4
2025-10-13T1800,1453A,102.7266,25.0375,昆明市,东风东路,,,21,29,10,13,61,,68,68,,11,4,5,0.3,0.4
2025-10-13T1800,1454A,102.6742,25.0669,昆明市,金鼎山,,28,28,31,9,13,60,,64,64,15,20,2,3,0.3,0.4
2025-10-13T1800,1455A,102.6644,25.0401,昆明市,碧鸡广场,,19,13,31,3,14,58,,62,62,15,23,7,8,0.3,0.4
2025-10-13T1800,3179A,102.7494,25.0119,昆明市,官渡区博物馆,细颗粒物(PM2.5),80,,21,59,22,62,,66,66,12,15,2,3,0.3,0.4
2025-10-13T1800,3375A,102.8017,24.8336,昆明市,青年创业园,,23,17,25,16,14,66,,65,65,9,15,2,4,0.3,0.4
2025-10-13T1800,3550A,102.7997,24.9786,昆明市,昆明学院,,19,12,25,6,13,59,,59,59,13,14,8,9,0.3,0.4
2025-10-13T1800,3551A,102.5967,24.6736,昆明市,晋宁区生态环境分局,,21,14,21,9,12,65,,58,58,10,10,7,4,0.4,0.4
2025-10-13T1800,3552A,102.6678,24.9856,昆明市,云天化总部,,20,7,22,3,14,63,,64,64,9,17,4,5,0.5,0.5
2025-10-13T1800,1456A,91.1319,29.6514,拉萨市,八廓街,,36,9,17,3,10,114,,101,101,4,13,6,8,0.2,0.2
2025-10-13T1800,1457A,91.1221,29.6747,拉萨市,市环保局,,36,9,17,7,8,115,,104,104,8,14,8,10,0.3,0.4
2025-10-13T1800,1458A,91.0874,29.6475,拉萨市,区监测站,,35,,13,7,8,110,,99,99,11,25,4,6,0.2,0.3
2025-10-13T1800,1459A,91.1774,29.6541,拉萨市,西藏大学,,36,6,16,6,8,113,,101,101,9,15,7,9,0.2,0.2
2025-10-13T1800,1460A,90.9798,29.6588,拉萨市,区辐射站,,30,7,18,3,8,96,,87,87,12,21,5,8,0.3,0.4
2025-10-13T1800,1461A,91.0834,29.6292,拉萨市,拉萨火车站,,35,6,13,3,7,109,,91,91,5,18,5,6,0.1,0.2
2025-10-13T1800,2520A,109.2203,23.7256,来宾市,来宾技工学校,,21,20,45,11,34,65,,63,63,5,15,8,13,0.5,0.7
2025-10-13T1800,3535A,109.1781,23.7297,来宾市,兴宾区政府,,21,17,39,13,26,67,,68,68,4,10,6,8,0.5,0.6
2025-10-13T1800,4002A,109.2416,23.7461,来宾市,中南小学,,18,17,41,3,25,56,,58,58,5,13,5,7,0.4,0.6
2025-10-13T1800,1477A,104.1373,35.9454,兰州市,榆中兰大校区,,,,,,,,,,,,,,,,
2025-10-13T1800,1479A,103.831,36.0464,兰州市,铁路设计院,,,,,,,,,,,,,,,,
2025-10-13T1800,3241A,103.7439,36.0842,兰州市,百合公园,,49,49,54,23,24,54,,72,72,60,38,6,6,0.7,0.7
2025-10-13T1800,3242A,103.9611,35.998,兰州市,和平,,43,43,36,15,14,88,,72,72,14,20,23,7,1.2,0.6
2025-10-13T1800,4236A,103.6293,36.0938,兰州市,庄浪东路808号,颗粒物(PM10),65,80,51,42,33,73,,94,94,72,48,14,12,0.7,0.5
2025-10-13T1800,4237A,103.7251,36.1043,兰州市,安宁西路88号,,,65,58,42,39,94,,100,100,44,35,,6,,0.6
2025-10-13T1800,4238A,103.8470,36.0676,兰州市,北滨河东路1号,,40,34,48,28,25,101,,83,83,30,46,8,10,0.7,0.9
2025-10-13T1800,3245A,103.6633,36.533,兰州新区,新区管委会,,37,32,41,21,30,116,,88,88,10,23,12,12,0.4,0.6
2025-10-13T1800,3246A,103.6975,36.4789,兰州新区,舟曲中学,,38,18,42,13,26,120,,93,93,12,36,14,15,0.3,0.5
2025-10-13T1800,1067A,116.6708,39.5111,廊坊市,药材公司,细颗粒物(PM2.5),58,61,53,41,27,87,,76,76,21,35,7,8,0.5,0.8
2025-10-13T1800,1068A,116.7214,39.5589,廊坊市,开发区,颗粒物(PM10),57,63,52,28,22,89,,77,77,24,33,3,4,0.5,0.7
2025-10-13T1800,1070A,116.7244,39.5269,廊坊市,北华航天学院,细颗粒物(PM2.5),59,55,54,42,25,101,,83,83,22,33,8,11,0.5,0.7
2025-10-13T1800,2919A,116.7022,39.5453,廊坊市,河北工业大学,,46,38,50,32,25,92,,79,79,21,36,3,5,0.6,0.8
2025-10-13T1800,2535A,103.7723,29.5462,乐山市,花湖湾,,,,,,,,,,,,,,,,
2025-10-13T1800,2536A,103.7627,29.5844,乐山市,牛耳桥,,21,20,14,7,6,67,,65,65,12,15,6,8,0.6,0.6
2025-10-13T1800,2537A,103.7508,29.6006,乐山市,市第三水厂,,20,17,13,6,6,61,,61,61,16,16,5,6,0.6,0.6
2025-10-13T1800,2538A,103.7571,29.5664,乐山市,市监测站,,20,10,13,7,6,63,,62,62,8,12,5,7,0.8,0.9
2025-10-13T1800,3361A,103.7311,29.5628,乐山市,理工大学,,23,15,14,8,7,71,,70,70,8,14,7,8,0.7,0.7
2025-10-13T1800,2598A,100.2143,26.8576,丽江市,西南郊,,25,8,8,3,2,77,,68,68,1,2,7,6,0.8,0.8
2025-10-13T1800,2599A,100.2497,26.8802,丽江市,丽江古城,,25,25,14,9,5,78,,67,67,10,10,10,9,0.5,0.4
2025-10-13T1800,2600A,100.2203,26.8906,丽江市,市中心,,25,16,9,3,7,80,,70,70,10,9,10,9,0.5,0.5
2025-10-13T1800,1267A,119.914,28.4514,丽水市,监测站大楼,,35,35,29,16,16,78,,101,101,13,12,5,5,0.5,0.4
2025-10-13T1800,1268A,119.93,28.4586,丽水市,莲都小学,,35,35,31,13,15,83,,100,100,11,12,4,4,0.4,0.4
2025-10-13T1800,1269A,119.879,28.4231,丽水市,余庄前,,34,34,33,19,22,57,,110,107,18,12,5,5,0.4,0.4
2025-10-13T1800,1173A,119.176,34.5885,连云港市,市环境监测站,,25,24,14,17,11,42,,47,47,32,25,10,7,1.2,1
2025-10-13T1800,3000A,119.3581,34.6972,连云港市,德源药业,,19,19,4,12,3,49,,58,57,27,18,8,7,1.0,0.7
2025-10-13T1800,3007A,119.178,34.844,连云港市,新城一中,,22,21,18,15,9,44,,48,47,21,25,5,4,0.8,0.9
2025-10-13T1800,3008A,119.3608,34.7519,连云港市,胡沟管理处,,25,24,6,17,3,59,,71,71,24,15,10,6,1.5,0.8
2025-10-13T1800,3009A,119.1478,34.5911,连云港市,矿山设计院,,24,24,12,14,10,49,,53,52,19,18,8,6,1.2,1
2025-10-13T1800,3434A,119.2413,34.6539,连云港市,工贸学校,,27,27,14,16,8,54,,59,59,25,19,10,8,1.1,1.2
2025-10-13T1800,3664A,119.4172,34.7341,连云港市,连云街道,,24,24,8,13,4,57,,67,67,31,24,2,2,0.6,0.5
2025-10-13T1800,2571A,102.3431,27.8099,凉山彝族自治州,青龙寺,,,,,,,,,,,,,,,,
2025-10-13T1800,2572A,102.2721,27.8415,凉山彝族自治州,邛海宾馆,,36,36,20,14,10,57,,69,68,4,6,8,12,0.6,0.6
2025-10-13T1800,2573A,102.2625,27.898,凉山彝族自治州,西昌市政府,,26,,19,18,13,53,,62,62,7,9,7,11,0.3,0.4
2025-10-13T1800,2574A,102.2685,27.8851,凉山彝族自治州,凉山州政府,,27,27,22,14,15,54,,64,64,5,8,8,11,0.7,0.8
2025-10-13T1800,4229A,102.2342,27.8859,凉山彝族自治州,凯乐南路30号,,29,28,21,20,9,64,,73,73,8,12,5,10,0.4,0.6
2025-10-13T1800,2212A,123.2,41.1953,辽阳市,宏伟区,颗粒物(PM10),71,92,81,49,37,55,,71,71,63,36,8,8,1.4,1.1
2025-10-13T1800,2213A,123.1683,41.2495,辽阳市,新华园,细颗粒物(PM2.5),93,108,87,69,44,48,,74,74,93,48,12,16,1.9,1.2
2025-10-13T1800,2214A,123.2354,41.2639,辽阳市,滨河路,颗粒物(PM10),114,178,104,67,48,7,,65,63,104,43,10,12,2.3,1.2
2025-10-13T1800,2215A,123.149,41.2991,辽阳市,铁西工业园,颗粒物(PM10),112,174,95,71,46,30,,66,66,78,43,9,13,1.7,1.6
2025-10-13T1800,2227A,125.1358,42.8845,辽源市,环保局,颗粒物(PM10),60,70,68,15,25,43,,84,84,52,28,5,7,0.8,0.5
2025-10-13T1800,3239A,125.0764,42.9078,辽源市,银鹰制药,颗粒物(PM10),53,55,47,35,32,19,,82,79,84,26,6,6,0.7,0.6
2025-10-13T1800,1625A,115.9848,36.4372,聊城市,区政府,,33,33,22,16,10,79,,96,96,22,17,7,9,0.5,0.5
2025-10-13T1800,2878A,116.0072,36.4343,聊城市,聊大东校,,27,27,24,12,16,83,,101,101,21,16,10,10,0.5,0.4
2025-10-13T1800,3200A,115.9819,36.4978,聊城市,监控中心,,42,42,23,17,12,74,,91,91,34,17,12,10,0.5,0.5
2025-10-13T1800,3513A,116.0445,36.4361,聊城市,九州社区,,27,27,25,13,11,82,,99,99,13,12,3,5,0.4,0.3
2025-10-13T1800,4018A,116.0567,36.4608,聊城市,星美广场,,29,29,28,6,9,77,,92,92,12,12,6,6,0.4,0.4
2025-10-13T1800,2632A,94.3681,29.6376,林芝市,林芝监测站,,27,8,8,3,5,86,,70,70,2,3,4,5,0.2,0.2
2025-10-13T1800,2633A,94.3616,29.6616,林芝市,林芝人民医院,,26,10,12,3,5,83,,66,66,1,6,6,6,0.2,0.3
2025-10-13T1800,2603A,100.0781,23.8982,临沧市,市环保局,,13,12,19,3,11,40,,51,51,5,6,9,7,0.5,0.6
2025-10-13T1800,2604A,100.0894,23.8822,临沧市,市气象局,,26,18,17,18,17,46,,55,55,8,8,6,8,0.5,0.5
2025-10-13T1800,1733A,111.5531,36.0783,临汾市,临钢医院,细颗粒物(PM2.5),85,84,41,63,22,108,,90,90,18,21,12,10,1.2,0.9
2025-10-13T1800,1734A,111.5028,36.0714,临汾市,技工学校,细颗粒物(PM2.5),84,75,39,62,29,105,,88,88,18,26,15,10,1.1,0.9
2025-10-13T1800,1736A,111.5018,36.0855,临汾市,市委,细颗粒物(PM2.5),103,96,49,77,26,116,,94,94,18,29,15,10,1.1,0.9
2025-10-13T1800,3018A,111.505,36.1014,临汾市,唐尧大酒店,细颗粒物(PM2.5),104,86,47,78,27,118,,94,94,18,23,11,8,1.2,1
2025-10-13T1800,4244A,111.4879,36.0530,临汾市,启星学校,细颗粒物(PM2.5),92,91,38,68,31,100,,92,92,22,28,13,9,1.0,0.9
2025-10-13T1800,4271A,103.2464,35.6123,临夏回族自治州,滨河东路1号,,25,25,58,12,26,59,,54,54,14,20,11,10,0.3,0.5
2025-10-13T1800,4310A,103.2093,35.5995,临夏回族自治州,新华街21号,,26,26,54,13,31,78,,66,66,12,22,8,7,0.3,0.7
2025-10-13T1800,1618A,118.3429,35.0532,临沂市,沂河小区,,31,31,13,15,9,54,,61,58,19,15,7,7,0.3,0.3
2025-10-13T1800,1619A,118.295,35.0583,临沂市,鲁南制药厂,,24,24,6,15,6,62,,65,64,20,17,7,7,0.7,0.8
2025-10-13T1800,1620A,118.2794,34.9976,临沂市,新光毛纺厂,,22,22,5,8,7,58,,62,61,26,21,6,7,0.3,0.3
2025-10-13T1800,1621A,118.3956,35.0888,临沂市,河东保险公司,,24,24,10,8,5,55,,59,59,21,16,6,6,0.4,0.4
2025-10-13T1800,3370A,118.3564,35.0215,临沂市,十里堡居委,,27,27,5,3,2,61,,66,65,24,20,7,7,0.3,0.3
2025-10-13T1800,3496A,118.3604,35.1084,临沂市,南坊新区,,31,31,9,14,6,58,,62,62,21,17,8,8,0.4,0.5
2025-10-13T1800,3860A,118.3920,35.0300,临沂市,皇山花园小区,,24,24,6,10,6,60,,62,62,19,16,9,9,0.5,0.6
2025-10-13T1800,1870A,109.4856,24.3895,柳州市,柳东小学,,31,31,39,19,27,88,,86,86,11,15,5,6,0.6,0.6
2025-10-13T1800,1871A,109.4157,24.3277,柳州市,环保监测站,,29,,34,20,19,53,,72,72,8,11,7,8,0.6,0.6
2025-10-13T1800,1872A,109.389,24.341,柳州市,河西水厂,,23,23,44,12,22,44,,70,70,14,16,5,6,0.5,0.6
2025-10-13T1800,1873A,109.4311,24.2921,柳州市,市四中,,20,15,37,14,22,57,,72,72,10,20,7,8,0.2,0.3
2025-10-13T1800,1874A,109.4006,24.3631,柳州市,市九中,,31,31,56,15,30,53,,84,84,17,20,3,4,0.7,0.6
2025-10-13T1800,1875A,109.4958,24.3134,柳州市,古亭山,,40,40,39,14,21,81,,76,76,14,27,8,6,1.1,0.5
2025-10-13T1800,3402A,109.5422,24.3996,柳州市,市二中,,32,32,46,20,26,81,,84,84,11,26,6,10,0.6,0.6
2025-10-13T1800,2307A,116.5079,31.737,六安市,监测大楼,,13,13,19,9,22,22,,22,22,13,14,1,2,0.6,0.6
2025-10-13T1800,2308A,116.4738,31.7643,六安市,皖西学院,,13,9,17,9,22,25,,25,25,14,14,2,2,0.6,0.6
2025-10-13T1800,2309A,116.4996,31.7905,六安市,朝阳厂,,9,9,15,6,19,22,,21,21,16,17,2,2,0.6,0.6
2025-10-13T1800,2310A,116.5567,31.7886,六安市,开发区,,12,12,21,8,19,23,,21,21,13,15,2,2,0.4,0.5
2025-10-13T1800,2576A,104.8,26.5892,六盘水市,窑上,,41,41,36,18,22,32,,42,34,4,6,2,3,0.6,0.6
2025-10-13T1800,2577A,104.83,26.5917,六盘水市,黄土坡,,30,30,24,16,16,37,,36,34,11,8,4,3,0.7,0.6
2025-10-13T1800,2578A,104.89,26.5939,六盘水市,水钢,,47,47,27,25,18,46,,40,40,10,7,4,3,0.9,0.7
2025-10-13T1800,2579A,104.8475,26.5894,六盘水市,民中,,27,27,21,14,11,28,,36,30,19,8,3,2,0.6,0.5
2025-10-13T1800,2580A,104.9544,26.5506,六盘水市,双水,,36,36,25,20,15,44,,40,40,9,7,4,3,0.5,0.5
2025-10-13T1800,2335A,117.0189,25.1181,龙岩市,龙岩师专,,,,,,,,,,,,,,,,
2025-10-13T1800,2336A,117.0217,25.1033,龙岩市,龙岩市监测站,,14,,27,6,19,42,,60,57,8,17,6,10,0.4,0.4
2025-10-13T1800,2337A,117.0258,25.0661,龙岩市,闽西职业技术学院,,20,19,33,14,18,37,,56,53,8,14,5,12,0.3,0.4
2025-10-13T1800,2338A,117.0196,25.0306,龙岩市,龙岩学院,,32,22,26,22,18,30,,56,50,10,8,8,9,0.4,0.4
2025-10-13T1800,2665A,105.0822,33.3261,陇南市,汉王镇固水子,,,,,,,,,,,,,,,,
2025-10-13T1800,2885A,104.9339,33.3826,陇南市,滨江中学,颗粒物(PM10),58,66,40,12,17,43,,52,52,17,17,6,7,0.7,0.7
2025-10-13T1800,3247A,104.955,33.371,陇南市,市总工会,,29,29,34,14,16,50,,52,52,8,10,7,7,0.7,0.8
2025-10-13T1800,2487A,111.9589,27.8901,娄底市,电视发射台,,,,,,,,,,,,,,,,
2025-10-13T1800,2488A,111.9975,27.725,娄底市,市监测站,,22,22,48,13,32,55,,50,45,11,13,6,7,0.7,0.9
2025-10-13T1800,2489A,112.0194,27.7314,娄底市,市委党校,,18,17,44,9,38,55,,53,47,11,13,5,5,0.3,0.5
2025-10-13T1800,2490A,111.9561,27.7569,娄底市,涟钢,,37,37,52,20,37,40,,34,34,20,19,6,7,1.6,1.4
2025-10-13T1800,2491A,111.9892,27.7044,娄底市,市政府,,,32,42,,35,53,,55,47,10,9,7,8,0.9,1
2025-10-13T1800,1893A,105.4324,28.9634,泸州市,九狮山,,,,,,,,,,,,,,,,
2025-10-13T1800,1894A,105.4427,28.9063,泸州市,小市上码头,,17,6,10,3,3,54,,45,45,17,14,6,6,0.8,0.8
2025-10-13T1800,1895A,105.4241,28.8573,泸州市,兰田宪桥,,,,11,3,4,42,,36,36,12,6,5,5,0.5,0.5
2025-10-13T1800,1896A,105.4379,28.8833,泸州市,市环监站,,15,7,10,3,5,46,,41,41,13,13,8,8,0.6,0.6
2025-10-13T1800,4272A,105.3689,28.7783,泸州市,纳溪中医医院,,15,15,13,7,6,44,,40,40,14,12,4,5,0.7,0.7
2025-10-13T1800,2183A,111.1406,37.5211,吕梁市,环保局,,44,44,32,28,17,69,,66,66,33,25,8,3,0.7,0.5
2025-10-13T1800,2185A,111.1297,37.5136,吕梁市,自来水公司,,45,45,38,28,18,66,,62,62,26,23,6,4,0.6,0.9
2025-10-13T1800,2867A,111.1283,37.51,吕梁市,马茂庄小学,颗粒物(PM10),52,54,43,28,17,68,,67,67,34,26,7,5,0.5,0.7
2025-10-13T1800,1812A,112.3931,34.6516,洛阳市,市委党校,,38,29,21,26,21,91,,69,69,20,22,6,6,0.7,0.7
2025-10-13T1800,1815A,112.494,34.6886,洛阳市,河南林校,,39,32,25,27,20,86,,66,66,21,30,8,7,0.6,0.6
2025-10-13T1800,1816A,112.3844,34.623,洛阳市,开发区管委会,,,47,26,39,21,89,,76,76,,18,,5,0.8,0.8
2025-10-13T1800,1817A,112.4267,34.6258,洛阳市,市委新办公区,,41,41,23,25,17,79,,70,70,20,17,8,6,0.7,0.6
2025-10-13T1800,3340A,112.6005,34.6326,洛阳市,伊滨,,35,33,22,24,22,79,,70,70,21,22,7,6,0.6,0.6
2025-10-13T1800,3341A,112.4951,34.6332,洛阳市,中移产业园,,32,32,24,22,18,87,,71,71,20,22,6,6,0.8,0.7
2025-10-13T1800,3593A,112.5736,34.8993,洛阳市,吉利监测站,,39,39,19,23,16,80,,72,72,17,14,7,6,0.7,0.6
2025-10-13T1800,3635A,112.3677,34.662,洛阳市,河科大西苑校区,,46,46,32,26,20,80,,70,70,31,26,7,7,0.9,0.9
2025-10-13T1800,3636A,112.4388,34.6781,洛阳市,英才小学,,49,46,31,34,24,83,,66,66,19,26,6,6,0.8,0.8
2025-10-13T1800,4214A,112.4600,34.6949,洛阳市,春都路1号院,,33,33,23,19,14,80,,54,54,18,25,6,5,0.7,0.7
2025-10-13T1800,2399A,114.051,33.5699,漯河市,三五一五工厂,,29,,14,20,11,90,,84,84,16,14,7,6,0.5,0.5
2025-10-13T1800,2400A,114.0055,33.5698,漯河市,漯河大学,,,32,22,27,14,91,,83,83,14,14,6,5,,0.5
2025-10-13T1800,2401A,114.0138,33.5828,漯河市,市水利局,,32,29,18,22,15,83,,82,82,21,14,7,7,0.8,0.7
2025-10-13T1800,2402A,114.0261,33.5698,漯河市,市广电局,,32,32,18,14,13,91,,84,84,18,16,6,6,0.6,0.5
2025-10-13T1800,3478A,113.9749,33.5664,漯河市,市图书馆,,28,28,15,15,11,86,,75,75,17,14,4,4,0.6,0.6
2025-10-13T1800,4250A,114.0892,33.5882,漯河市,韶山路11号,,27,23,14,13,9,84,,79,79,17,15,6,6,0.5,0.6
2025-10-13T1800,1798A,118.5092,31.6837,马鞍山市,湖东路四小,,24,24,42,15,28,5,,9,8,27,26,5,9,1.0,1.7
2025-10-13T1800,1799A,118.5024,31.6449,马鞍山市,开发区,,30,30,42,17,23,1,,10,8,27,25,9,8,1.4,1.2
2025-10-13T1800,1802A,118.6245,31.7241,马鞍山市,濮塘,,,,,,,,,,,,,,,,
2025-10-13T1800,3633A,118.4918,31.6809,马鞍山市,雨山,,28,28,44,18,27,3,,8,7,30,30,15,19,1.6,1.7
2025-10-13T1800,4191A,118.5274,31.72227,马鞍山市,慈湖高新区,,29,29,49,13,23,3,,8,6,32,28,7,10,0.8,1
2025-10-13T1800,1686A,111.0286,21.4688,茂名市,电白南海,,17,17,22,7,13,45,,50,50,9,9,5,8,0.7,0.7
2025-10-13T1800,1687A,110.9294,21.6533,茂名市,茂石化七小,,31,31,22,14,10,35,,46,44,10,9,6,8,0.6,0.4
2025-10-13T1800,1688A,110.9107,21.6687,茂名市,健康路,,19,19,13,12,9,41,,48,48,11,11,6,7,0.8,0.8
2025-10-13T1800,1689A,110.8592,21.6828,茂名市,高岭,,22,22,26,3,6,41,,40,40,14,18,6,11,0.6,0.6
2025-10-13T1800,3450A,111.01,21.5165,茂名市,电白水东,,14,14,15,3,8,42,,49,49,10,12,6,9,0.5,0.5
2025-10-13T1800,2539A,104.0308,30.0478,眉山市,黑龙滩水库,,,,,,,,,,,,,,,,
2025-10-13T1800,2540A,103.8416,30.0874,眉山市,气象局,,26,26,20,3,4,82,,77,77,9,15,7,8,0.3,0.4
2025-10-13T1800,3137A,103.8578,30.0744,眉山市,市委党校,,23,7,11,3,2,72,,70,70,9,13,7,7,0.4,0.4
2025-10-13T1800,3148A,103.8291,30.0564,眉山市,区人社局,,24,23,24,3,2,75,,74,74,15,15,3,3,0.9,0.8
2025-10-13T1800,1690A,116.1231,24.3284,梅州市,梅江月梅,,19,,21,13,15,26,,42,39,11,10,10,11,0.8,0.8
2025-10-13T1800,1691A,116.0797,24.2719,梅州市,梅县新城,,19,17,24,13,18,16,,46,42,21,10,6,7,0.7,0.6
2025-10-13T1800,1692A,116.1248,24.2654,梅州市,环境监控中心,,20,18,24,14,17,11,,45,40,21,18,4,9,0.6,0.6
2025-10-13T1800,3315A,116.1233,24.2991,梅州市,梅龙,,14,14,18,8,12,26,,42,41,11,8,8,10,0.8,0.7
2025-10-13T1800,1878A,104.7778,31.4741,绵阳市,富乐山,,24,24,20,8,10,71,,84,84,9,15,7,7,0.7,0.8
2025-10-13T1800,1880A,104.6697,31.4668,绵阳市,高新区自来水公司,,28,17,26,14,9,87,,84,84,15,22,9,11,0.6,0.8
2025-10-13T1800,1881A,104.7287,31.5075,绵阳市,三水厂,,29,18,22,12,14,91,,85,85,16,20,6,7,0.7,0.9
2025-10-13T1800,3491A,104.69,31.5322,绵阳市,西科大附属小学,,30,23,28,13,13,95,,93,93,20,19,10,11,0.6,0.8
2025-10-13T1800,3492A,104.5648,31.5343,绵阳市,安州区旅游局,,34,,16,17,14,107,,90,90,14,16,12,12,0.6,0.6
2025-10-13T1800,4226A,104.7651,31.4531,绵阳市,绵阳市气象局,,30,17,20,10,10,93,,81,81,9,19,8,9,0.5,0.7
2025-10-13T1800,1784A,129.61,44.561,牡丹江市,环保大楼,,38,38,32,17,14,40,,59,56,26,22,15,14,0.3,0.3
2025-10-13T1800,1785A,129.6115,44.5782,牡丹江市,文化广场,,50,50,56,20,23,43,,55,55,26,25,12,12,0.4,0.4
2025-10-13T1800,1786A,129.5904,44.5963,牡丹江市,第一医院,细颗粒物(PM2.5),52,52,40,36,29,44,,59,58,26,23,5,7,0.3,0.4
2025-10-13T1800,1787A,129.6364,44.6075,牡丹江市,机车工厂,颗粒物(PM10),55,60,53,29,22,38,,56,55,19,19,8,9,0.3,0.3
2025-10-13T1800,1788A,129.6386,44.5462,牡丹江市,第一中学,,43,43,34,10,15,39,,55,55,24,22,4,5,0.3,0.2
2025-10-13T1800,2531A,105.0703,29.61,内江市,市监测站,,22,,18,15,8,69,,59,59,11,9,1,1,0.8,0.9
2025-10-13T1800,2532A,105.0717,29.5947,内江市,东兴区政府,,23,11,10,3,2,71,,64,64,9,9,7,7,0.3,0.3
2025-10-13T1800,2533A,105.0653,29.5817,内江市,内江二中,,22,9,12,8,6,68,,60,60,8,10,2,1,0.6,0.6
2025-10-13T1800,2534A,105.0406,29.5822,内江市,内江日报社,,23,11,15,10,6,71,,62,62,9,9,4,4,0.5,0.5
2025-10-13T1800,2628A,92.0657,31.4846,那曲市,那曲监测站,,32,18,42,8,22,102,,92,92,8,21,4,6,0.5,0.7
2025-10-13T1800,4243A,92.0515,31.4787,那曲市,那曲市委宣传部,,36,7,24,3,11,113,,98,98,3,17,3,3,0.4,0.7
2025-10-13T1800,1290A,115.8931,28.6843,南昌市,省外办,,46,46,72,31,55,99,,126,126,17,19,4,5,1.2,1.4
2025-10-13T1800,1291A,115.8886,28.7003,南昌市,省林业公司,,39,39,68,27,51,70,,96,96,12,11,2,3,0.7,0.9
2025-10-13T1800,1292A,115.8126,28.7442,南昌市,林科所,,39,39,58,24,42,68,,98,98,23,19,8,8,0.9,0.9
2025-10-13T1800,1294A,115.8518,28.687,南昌市,建工学校,,44,44,82,27,52,72,,100,100,10,18,8,10,0.6,1.2
2025-10-13T1800,1295A,115.8921,28.6424,南昌市,象湖,颗粒物(PM10),55,59,70,27,47,79,,114,109,18,18,7,9,0.8,1
2025-10-13T1800,1296A,115.7423,28.7996,南昌市,武术学校,,,,,,,,,,,,,,,,
2025-10-13T1800,3046A,115.9084,28.6062,南昌市,机电学校,颗粒物(PM10),53,56,79,24,50,91,,122,122,12,11,6,8,0.8,0.9
2025-10-13T1800,3690A,115.9721,28.7031,南昌市,外国语学校,,43,43,75,29,52,81,,103,103,19,19,5,8,0.7,0.8
2025-10-13T1800,4192A,115.9316,28.68677,南昌市,南京东路235号,颗粒物(PM10),56,61,81,22,54,77,,104,104,21,20,3,3,1.2,1.3
2025-10-13T1800,1905A,106.056,30.8064,南充市,西山风景区,,,,,,,,,,,,,,,,
2025-10-13T1800,1906A,106.0789,30.8023,南充市,南充市委,,24,19,14,13,8,74,,52,52,9,11,4,4,0.5,0.5
2025-10-13T1800,1907A,106.1031,30.8217,南充市,南充炼油厂,,27,27,24,15,10,71,,54,54,6,9,6,6,0.4,0.4
2025-10-13T1800,4227A,106.1083,30.7884,南充市,梨树横街98号,,25,19,17,10,7,79,,62,62,7,7,5,4,0.4,0.4
2025-10-13T1800,4304A,106.1172,30.843,南充市,清泉寺北路188号,,24,13,12,9,4,76,,61,61,7,9,5,5,0.4,0.5
2025-10-13T1800,4305A,106.067,30.7616,南充市,同庆路1号,,26,13,12,3,4,82,,57,57,8,10,6,7,0.4,0.5
2025-10-13T1800,1151A,118.8086,32.1065,南京市,迈皋桥,,25,25,34,12,22,5,,11,7,16,18,4,4,0.7,0.9
2025-10-13T1800,1152A,118.7538,32.0551,南京市,草场门,,18,17,33,12,21,3,,12,5,30,27,3,3,0.7,1
2025-10-13T1800,1153A,118.7794,32.0745,南京市,山西路,,17,17,35,7,17,5,,9,5,32,33,9,9,0.9,1.1
2025-10-13T1800,1154A,118.7752,32.0023,南京市,中华门,,14,14,34,7,21,6,,15,8,22,22,3,3,0.8,1
2025-10-13T1800,1155A,118.8109,32.0309,南京市,瑞金路,,29,29,36,12,21,20,,22,19,20,30,6,6,0.6,0.8
2025-10-13T1800,1156A,118.7997,32.0754,南京市,玄武湖,,15,15,32,3,19,6,,9,6,12,13,4,4,0.5,0.6
2025-10-13T1800,1157A,118.6414,32.0931,南京市,浦口,,20,20,28,8,13,6,,12,9,25,23,6,6,0.7,0.9
2025-10-13T1800,1158A,118.7356,31.9996,南京市,奥体中心,,17,17,34,9,23,7,,17,8,24,24,6,6,0.5,0.7
2025-10-13T1800,1159A,118.9125,32.1028,南京市,仙林大学城,,22,22,42,3,20,7,,10,6,22,27,8,9,0.8,1.2
2025-10-13T1800,3422A,118.8436,31.9198,南京市,江宁彩虹桥,,15,12,27,9,24,4,,19,7,30,28,4,4,0.9,1.2
2025-10-13T1800,3427A,118.8554,32.3578,南京市,六合雄州,,17,17,31,3,19,22,,14,14,13,18,6,5,0.6,0.8
2025-10-13T1800,4249A,118.8708,31.3402,南京市,汶溪路181号,,40,40,52,21,36,7,,16,10,28,28,4,6,0.8,1.2
2025-10-13T1800,4312A,119.019,31.6512,南京市,中山西路1号,,18,14,40,10,25,2,,15,6,36,36,4,4,1.0,1.2
2025-10-13T1800,1401A,108.3103,22.7881,南宁市,二十一中,,46,46,26,16,16,39,,52,52,10,9,5,5,0.4,0.5
2025-10-13T1800,1402A,108.3141,22.8528,南宁市,北湖,,44,44,27,11,17,56,,71,71,11,10,4,5,0.5,0.6
2025-10-13T1800,1403A,108.3206,22.8225,南宁市,市监测站,,30,30,22,11,17,44,,61,61,14,7,4,5,0.6,0.3
2025-10-13T1800,1404A,108.3829,22.8037,南宁市,大自然花园,,26,26,28,15,18,46,,63,63,11,8,5,5,0.7,0.8
2025-10-13T1800,1405A,108.4394,22.7904,南宁市,仙葫,,,,,,,,,,,,,,,,
2025-10-13T1800,1406A,108.2397,22.8467,南宁市,区农职院,,30,30,25,8,15,63,,68,68,13,13,3,3,0.5,0.5
2025-10-13T1800,1407A,108.3275,22.735,南宁市,英华嘉园,,21,21,29,11,18,41,,56,56,8,12,1,2,0.4,0.5
2025-10-13T1800,3401A,108.4834,22.7618,南宁市,红星社区,,36,36,31,19,20,39,,51,51,13,10,3,3,0.3,0.4
2025-10-13T1800,4221A,108.2177,22.7774,南宁市,乐贤路16号,,43,43,35,16,18,46,,66,66,12,24,6,6,0.3,0.4
2025-10-13T1800,2331A,118.0966,26.6761,南平市,茫荡山,,,,25,,55,,,113,,,,,2,,
2025-10-13T1800,2332A,118.1681,26.6369,南平市,南平市监测站,,41,41,26,21,18,90,,106,106,13,13,3,4,0.8,0.6
2025-10-13T1800,2333A,118.1825,26.6489,南平市,南平铝业有限公司,颗粒物(PM10),51,52,30,27,20,86,,108,108,15,17,5,5,0.7,0.7
2025-10-13T1800,2334A,118.1756,26.6272,南平市,南平七中,,36,29,29,25,17,80,,106,106,10,10,4,4,0.7,0.6
2025-10-13T1800,1168A,120.9098,31.9663,南通市,狼山街道,颗粒物(PM10),51,51,40,33,28,23,,29,29,22,23,3,4,0.8,0.7
2025-10-13T1800,1169A,120.86,32.0005,南通市,虹桥,细颗粒物(PM2.5),53,52,44,37,28,29,,42,35,17,21,3,4,0.4,0.7
2025-10-13T1800,1170A,120.87,32.02,南通市,城中,颗粒物(PM10),64,78,57,37,28,27,,45,34,23,23,4,5,0.3,0.4
2025-10-13T1800,1171A,120.94,31.93,南通市,星湖花园,细颗粒物(PM2.5),55,57,43,39,33,22,,38,24,35,29,4,5,0.9,0.8
2025-10-13T1800,1172A,120.81,32.0417,南通市,紫琅学院,颗粒物(PM10),54,57,49,36,26,30,,36,36,19,26,3,4,1.1,1.1
2025-10-13T1800,3291A,121.067,32.062,南通市,通州监测站,,49,39,32,34,26,36,,57,47,15,11,2,2,0.8,0.7
2025-10-13T1800,3432A,120.9348,31.9883,南通市,环境教育馆,细颗粒物(PM2.5),63,61,47,45,32,32,,35,35,20,20,4,4,0.5,0.4
2025-10-13T1800,2404A,112.5224,33.0122,南阳市,瓦房庄,,27,27,20,9,8,52,,58,58,14,11,7,7,0.8,0.6
2025-10-13T1800,2405A,112.5003,32.9735,南阳市,汉画馆,,22,22,17,13,9,51,,56,55,14,13,7,8,0.7,0.6
2025-10-13T1800,2406A,112.5573,33.027,南阳市,气象站,,20,20,14,9,7,56,,61,61,18,16,7,8,0.8,0.7
2025-10-13T1800,2407A,112.5481,32.9689,南阳市,理工学院,,23,23,19,6,7,51,,58,58,16,15,9,9,0.8,0.7
2025-10-13T1800,4008A,112.5234,32.9922,南阳市,卧龙区政府,,23,,11,16,9,40,,57,55,23,14,7,7,0.8,0.7
2025-10-13T1800,1234A,121.8358,29.911,宁波市,区环保大楼,,,33,26,13,16,64,,102,102,,15,5,6,0.6,0.6
2025-10-13T1800,1235A,121.56,29.82,宁波市,万里学院,细颗粒物(PM2.5),80,63,30,59,23,172,,144,144,27,13,10,9,0.7,0.5
2025-10-13T1800,1236A,121.713,29.9572,宁波市,龙赛医院,颗粒物(PM10),62,74,50,33,16,129,,154,151,34,16,9,7,0.5,0.4
2025-10-13T1800,1239A,121.633,29.7733,宁波市,钱湖水厂,,27,27,22,15,16,76,,97,97,4,6,6,6,0.6,0.6
2025-10-13T1800,1240A,121.5856,29.8635,宁波市,太古小学,颗粒物(PM10),66,82,35,41,17,161,,146,146,20,11,4,5,0.7,0.5
2025-10-13T1800,1241A,121.524,29.8674,宁波市,市环境监测中心,细颗粒物(PM2.5),73,80,38,53,21,173,,158,158,17,13,9,9,0.8,0.6
2025-10-13T1800,2871A,121.6147,29.9017,宁波市,万里国际学校,臭氧1小时,74,82,34,52,21,179,,162,162,21,11,7,6,0.7,0.6
2025-10-13T1800,3710A,121.5594,29.8975,宁波市,白沙活动中心,细颗粒物(PM2.5),77,72,36,56,21,176,,170,170,21,15,8,7,0.8,0.5
2025-10-13T1800,2339A,119.5001,26.6946,宁德市,金涵水库,,,,10,,8,,,45,,,2,,2,,0.5
2025-10-13T1800,2341A,119.5388,26.6612,宁德市,宁德市监测站,,35,28,23,19,15,111,,121,120,14,8,6,5,0.7,0.6
2025-10-13T1800,3209A,119.5231,26.6562,宁德市,宁德一中,,46,46,24,26,19,112,,115,115,10,7,7,6,0.5,0.4
2025-10-13T1800,2618A,98.8601,25.8567,怒江傈僳族自治州,州监测站,,23,18,22,16,11,54,,45,45,7,5,6,6,0.4,0.3
2025-10-13T1800,2619A,98.8546,25.8417,怒江傈僳族自治州,泸水一中,,17,17,15,8,8,21,,25,25,28,10,5,5,0.7,0.5
2025-10-13T1800,1888A,101.6891,26.571,攀枝花市,弄弄坪,,20,16,35,10,12,61,,65,65,8,21,3,12,0.6,1.2
2025-10-13T1800,1889A,101.5769,26.5928,攀枝花市,河门口,,19,15,26,8,14,60,,73,73,5,12,8,12,0.6,0.8
2025-10-13T1800,1890A,101.7169,26.585,攀枝花市,炳草岗,,20,20,38,6,18,59,,71,71,11,27,4,10,0.6,1.1
2025-10-13T1800,1891A,101.7369,26.5008,攀枝花市,仁和,,18,14,21,8,12,57,,63,62,12,12,9,10,0.6,0.9
2025-10-13T1800,2835A,101.7227,26.567,攀枝花市,四十中小,,23,23,30,16,16,65,,72,72,5,25,7,17,0.7,1.4
2025-10-13T1800,1604A,122.0303,41.1489,盘锦市,开发区,颗粒物(PM10),59,67,48,24,26,56,,78,78,44,24,5,5,0.6,0.4
2025-10-13T1800,1605A,122.0485,41.0883,盘锦市,兴隆台,,48,48,52,20,23,52,,81,81,50,29,6,6,0.7,0.5
2025-10-13T1800,1606A,121.8297,41.1028,盘锦市,新生街道,,28,28,38,12,16,62,,90,90,31,30,6,7,0.5,0.3
2025-10-13T1800,1832A,113.3257,33.742,平顶山市,新华旅馆,,,33,15,,17,64,,60,60,16,12,6,6,0.7,0.6
2025-10-13T1800,1833A,113.2919,33.737,平顶山市,规划设计院,,44,44,18,29,15,62,,58,58,17,14,4,4,1.0,0.8
2025-10-13T1800,1834A,113.182,33.774,平顶山市,平顶山工学院,,49,39,14,34,11,78,,66,66,13,15,6,6,0.8,0.7
2025-10-13T1800,3204A,113.3025,33.73,平顶山市,规划局,,41,41,19,27,14,64,,57,57,15,12,6,6,0.8,0.7
2025-10-13T1800,3594A,112.8867,33.9116,平顶山市,石龙区,,49,,19,34,18,59,,53,53,11,12,6,6,1.0,1
2025-10-13T1800,2656A,106.6692,35.5461,平凉市,聚贤嘉苑,,47,47,38,21,20,72,,53,53,16,21,19,15,0.6,0.7
2025-10-13T1800,2657A,106.7021,35.5307,平凉市,博物馆,,42,42,48,20,23,75,,60,60,16,22,11,10,0.6,0.8
2025-10-13T1800,2347A,114.0997,27.5002,萍乡市,武功山,,,,,,,,,,,,,,,,
2025-10-13T1800,2348A,113.8385,27.6434,萍乡市,中医院,"颗粒物(PM10),细颗粒物(PM2.5)",57,63,135,40,86,20,,35,31,37,32,9,9,1.1,1.3
2025-10-13T1800,2349A,113.8493,27.6253,萍乡市,市政府车库,,49,42,110,34,99,28,,42,42,29,24,14,15,0.9,1.1
2025-10-13T1800,2350A,113.8676,27.6435,萍乡市,市环保局,,38,30,110,26,88,30,,47,45,38,31,4,6,0.7,0.9
2025-10-13T1800,2351A,113.866,27.6198,萍乡市,安源区政府,细颗粒物(PM2.5),87,,112,64,128,36,,48,48,24,21,9,11,0.7,1
2025-10-13T1800,2319A,119.0141,25.4325,莆田市,荔城区仓后路,,49,49,40,27,24,112,,124,124,10,11,8,8,0.7,0.7
2025-10-13T1800,2320A,119.0015,25.4553,莆田市,莆田市监测站,,39,35,35,27,24,102,,125,124,11,10,7,7,0.8,0.7
2025-10-13T1800,2321A,119.1119,25.4561,莆田市,涵江区六中,,42,42,34,25,25,122,,135,135,7,11,4,6,0.7,0.6
2025-10-13T1800,2322A,119.1013,25.3215,莆田市,秀屿区政府,,37,29,31,16,22,116,,130,130,7,9,6,7,0.5,0.5
2025-10-13T1800,2323A,118.981,25.4792,莆田市,东圳水库,,,,26,,19,,,86,,,7,,5,,1.8
2025-10-13T1800,2392A,115.0312,35.7636,濮阳市,环保局,,38,38,17,20,16,77,,80,80,16,16,7,8,0.8,0.8
2025-10-13T1800,2394A,115.0574,35.7609,濮阳市,油田运输公司,,33,33,24,17,14,69,,85,85,27,16,8,8,0.9,0.8
2025-10-13T1800,3021A,115,35.7668,濮阳市,濮水河管理处,,42,42,21,10,10,19,,76,72,29,18,7,7,0.5,0.4
2025-10-13T1800,4216A,115.0924,35.7686,濮阳市,任丘路479号,,32,32,25,18,14,79,,87,87,12,13,7,7,0.5,0.5
2025-10-13T1800,2601A,100.98,22.7633,普洱市,市环保局,,32,32,34,9,21,52,,51,51,7,6,9,8,0.5,0.5
2025-10-13T1800,2602A,100.9817,22.8322,普洱市,普洱第二中学,,36,36,34,25,18,51,,49,49,8,8,8,7,0.4,0.5
2025-10-13T1800,2262A,131.0518,45.8751,七台河市,新一中,,,,,,,,,,,,,,,,
2025-10-13T1800,3345A,131.0577,45.7879,七台河市,中波台,,36,36,44,10,15,33,,42,41,25,27,6,8,0.5,0.6
2025-10-13T1800,3637A,131.0176,45.7761,七台河市,人民广场,颗粒物(PM10),57,63,48,21,21,39,,54,52,24,21,8,8,0.5,0.5
2025-10-13T1800,3684A,130.8781,45.8222,七台河市,新建矿广场,颗粒物(PM10),51,51,51,23,22,34,,41,41,16,21,12,14,0.5,0.5
2025-10-13T1800,1779A,123.9305,47.3636,齐齐哈尔市,安居小区,,38,38,29,12,7,37,,47,47,17,11,4,6,0.4,0.3
2025-10-13T1800,1780A,123.9488,47.3386,齐齐哈尔市,中心广场,,43,43,23,12,5,42,,49,49,20,13,3,7,0.3,0.2
2025-10-13T1800,1781A,123.9483,47.3227,齐齐哈尔市,农牧车辆厂,,44,44,30,14,8,40,,46,46,17,12,6,9,0.5,0.4
2025-10-13T1800,1783A,123.945,47.2988,齐齐哈尔市,市环境监测站,,44,44,27,10,8,45,,48,48,14,12,6,11,0.4,0.4
2025-10-13T1800,3662A,123.6333,47.2075,齐齐哈尔市,富区青少年活动中心,颗粒物(PM10),53,56,32,19,11,38,,51,51,11,7,5,6,0.6,0.6
2025-10-13T1800,2591A,107.9783,26.5747,黔东南苗族侗族自治州,市环境监测站,,31,31,24,20,17,91,,89,89,7,4,4,3,0.6,0.5
2025-10-13T1800,2881A,107.8908,26.5311,黔东南苗族侗族自治州,凯里学院,,38,27,33,26,16,54,,65,,12,8,4,3,0.6,0.5
2025-10-13T1800,2593A,107.5228,26.2403,黔南布依族苗族自治州,小围寨,,23,19,16,12,11,72,,72,72,3,3,2,3,0.5,0.5
2025-10-13T1800,3538A,107.5175,26.2978,黔南布依族苗族自治州,沙坝,,39,36,24,27,17,65,,65,65,8,6,4,4,0.6,0.4
2025-10-13T1800,2589A,104.9022,25.0925,黔西南布依族苗族自治州,场坝街,,26,23,26,18,17,69,,61,61,6,6,3,4,0.4,0.4
2025-10-13T1800,2590A,104.8811,25.0992,黔西南布依族苗族自治州,坪东大道,,22,22,32,9,22,62,,58,58,6,6,1,2,0.5,0.5
2025-10-13T1800,2502A,108.6236,21.9667,钦州市,市环保站,,13,9,21,3,10,41,,54,54,12,11,2,4,0.5,0.5
2025-10-13T1800,2503A,108.6549,21.9481,钦州市,沙埠小学,,,,29,12,16,38,,56,55,15,11,1,3,0.5,0.5
2025-10-13T1800,2504A,108.5989,21.7431,钦州市,港区一小,,36,36,38,14,15,42,,61,61,25,19,3,5,0.5,0.5
2025-10-13T1800,3404A,108.5959,21.9633,钦州市,北职校,,18,18,27,6,14,33,,54,54,9,9,3,5,0.5,0.6
2025-10-13T1800,1043A,119.7493,40.0116,秦皇岛市,第一关,颗粒物(PM10),73,95,52,39,23,48,,69,69,66,56,10,8,0.9,0.5
2025-10-13T1800,1044A,119.5897,39.9499,秦皇岛市,监测站,颗粒物(PM10),63,76,53,24,13,51,,60,60,60,40,10,8,1.1,0.6
2025-10-13T1800,1046A,119.5251,39.9041,秦皇岛市,建设大厦,颗粒物(PM10),58,66,48,20,14,63,,64,64,38,36,6,5,0.9,0.5
2025-10-13T1800,3132A,119.610547,39.943889,秦皇岛市,文明里,,,,48,,13,72,,63,63,,38,11,9,0.9,0.5
2025-10-13T1800,4198A,119.5090,39.8253,秦皇岛市,北戴河轮滑馆,颗粒物(PM10),64,77,44,25,16,63,,68,68,45,25,4,5,0.9,0.6
2025-10-13T1800,1307A,120.6659,36.2403,青岛市,仰口,,,,,,,,,,,,,,,,
2025-10-13T1800,1310A,120.4134,36.0658,青岛市,市南区东部子站,,48,48,21,17,10,37,,61,52,30,51,7,6,0.2,0.4
2025-10-13T1800,1311A,120.3664,36.1032,青岛市,四方区子站,,44,44,22,22,12,56,,72,64,25,13,3,2,0.3,0.3
2025-10-13T1800,1312A,120.2994,36.054,青岛市,市南区西部子站,,31,31,20,12,9,66,,67,67,20,16,8,7,0.4,0.4
2025-10-13T1800,1313A,120.4581,36.0858,青岛市,崂山区子站,,46,46,18,14,7,44,,67,62,34,15,9,8,0.3,0.3
2025-10-13T1800,1315A,120.3999,36.3083,青岛市,城阳区子站,,48,48,21,15,5,38,,72,66,36,12,5,4,0.5,0.4
2025-10-13T1800,3362A,120.5014,36.4034,青岛市,即墨2号,颗粒物(PM10),51,51,20,20,13,41,,66,61,41,17,5,4,0.3,0.3
2025-10-13T1800,3642A,120.3503,36.0736,青岛市,市北区南部,,33,33,20,17,11,43,,61,54,34,21,9,7,0.4,0.4
2025-10-13T1800,3643A,120.3948,36.1805,青岛市,李沧区北部,,48,48,22,24,16,48,,68,60,32,15,7,6,0.4,0.3
2025-10-13T1800,4290A,120.1969,35.9546,青岛市,珠江路669号,,44,44,17,20,12,40,,60,53,46,32,9,9,0.3,0.2
2025-10-13T1800,4291A,120.0424,35.8656,青岛市,黄岛区人民政府广场,,34,34,15,14,6,51,,69,68,29,16,7,5,0.5,0.5
2025-10-13T1800,1702A,113.0426,23.691,清远市,环保大楼,,,,,,,,,,,,,,,,
2025-10-13T1800,1703A,113.0208,23.7106,清远市,凤城街办,,23,17,16,12,10,73,,66,66,13,18,8,6,0.5,0.6
2025-10-13T1800,3025A,113.0477,23.6344,清远市,技师学院,,20,16,29,9,15,64,,67,67,17,21,5,6,0.4,0.5
2025-10-13T1800,3318A,112.9903,23.7403,清远市,清新太和,,24,24,16,12,7,73,,73,73,11,13,6,5,0.4,0.4
2025-10-13T1800,3455A,113.076,23.7198,清远市,清城东城,,22,16,20,11,10,69,,63,63,8,13,8,5,0.8,0.8
2025-10-13T1800,2661A,107.6325,35.7357,庆阳市,庆阳五中,,38,37,33,26,19,68,,62,62,10,16,8,8,0.5,0.6
2025-10-13T1800,2662A,107.6364,35.7067,庆阳市,市环保局,,30,27,27,21,18,71,,64,64,12,16,4,3,0.4,0.5
2025-10-13T1800,1916A,103.7897,25.5035,曲靖市,环境监测站,,28,28,31,13,12,65,,65,65,12,12,5,6,0.1,0.2
2025-10-13T1800,1917A,103.8,25.5364,曲靖市,烟厂办公区,,21,16,25,10,15,66,,60,60,9,9,4,5,0.4,0.5
2025-10-13T1800,3376A,103.7947,25.462,曲靖市,南苑二区,,,,28,,15,62,,59,59,11,8,,5,0.4,0.5
2025-10-13T1800,3377A,103.7444,25.5261,曲靖市,曲靖师范学院,,22,18,24,13,17,70,,62,62,8,11,2,2,0.4,0.4
2025-10-13T1800,1264A,118.8692,28.9398,衢州市,环保大楼,颗粒物(PM10),55,59,55,29,33,92,,118,117,20,21,5,6,0.6,0.6
2025-10-13T1800,1265A,118.8709,28.9666,衢州市,实验学校,,48,48,50,28,32,94,,124,124,20,22,7,7,0.7,0.7
2025-10-13T1800,1266A,118.8621,28.9808,衢州市,衢州学院,,45,45,48,28,33,84,,126,124,26,23,6,6,0.5,0.5
2025-10-13T1800,1611A,118.5819,24.9117,泉州市,涂山街,,44,44,38,23,24,107,,135,135,12,9,3,3,0.6,0.5
2025-10-13T1800,1612A,118.5972,24.8978,泉州市,津头埔,,44,44,34,23,26,102,,136,135,18,13,4,3,0.5,0.4
2025-10-13T1800,1613A,118.6663,24.9424,泉州市,万安,,45,45,36,21,22,106,,128,126,15,14,4,3,0.6,0.6
2025-10-13T1800,1614A,118.6117,24.9604,泉州市,清源山,,,,26,,17,,,97,,,6,,3,,0.5
2025-10-13T1800,3529A,118.6333,24.9264,泉州市,城华南路,,33,33,31,20,22,102,,122,122,19,12,4,4,0.5,0.4
2025-10-13T1800,2626A,88.8876,29.2718,日喀则市,日喀则监测站,,35,6,20,3,5,112,,100,100,3,15,14,13,0.1,0.2
2025-10-13T1800,3726A,88.8781,29.2426,日喀则市,林业技术推广中心,,36,9,16,3,5,113,,102,102,2,6,6,6,0.3,0.3
2025-10-13T1800,1659A,119.471,35.4209,日照市,监测站,,34,34,8,16,6,46,,66,61,31,16,7,6,0.7,0.6
2025-10-13T1800,1660A,119.523,35.4216,日照市,市政府广场,,27,27,7,7,4,56,,69,64,18,10,3,2,0.7,0.6
2025-10-13T1800,1661A,119.5587,35.4044,日照市,港务局,,32,31,10,22,13,60,,72,68,16,9,4,3,0.5,0.4
2025-10-13T1800,3507A,119.5328,35.4625,日照市,职业技术学院,,41,41,11,14,6,56,,72,66,20,11,4,4,0.7,0.6
2025-10-13T1800,3604A,119.3266,35.1044,日照市,岚山环保分局,,31,31,23,8,15,47,,57,53,26,26,8,21,0.6,2.2
2025-10-13T1800,1835A,111.1922,34.7752,三门峡市,市政府,,41,41,20,28,11,98,,83,83,18,28,8,8,0.7,0.7
2025-10-13T1800,1836A,111.1587,34.7942,三门峡市,开发区,,50,41,20,35,13,76,,72,72,31,27,7,6,0.7,0.6
2025-10-13T1800,1838A,111.143,34.7955,三门峡市,风景区,,36,31,16,25,10,88,,79,79,14,16,7,6,0.8,0.8
2025-10-13T1800,3039A,111.1911,34.7829,三门峡市,三门峡市第一小学,细颗粒物(PM2.5),60,53,22,43,16,88,,78,78,17,24,8,9,0.8,0.8
2025-10-13T1800,3598A,111.1,34.7167,三门峡市,富达温泉假日酒店,,37,37,22,16,14,66,,68,68,17,23,8,8,0.9,1
2025-10-13T1800,2324A,117.6211,26.2625,三明市,三钢,细颗粒物(PM2.5),58,43,33,41,23,76,,124,123,10,18,2,5,0.7,1.1
2025-10-13T1800,2325A,117.635,26.2714,三明市,三明二中,,35,34,38,24,24,72,,29,,7,16,1,3,0.4,0.8
2025-10-13T1800,2326A,117.6028,26.2378,三明市,三元区政府,,31,31,34,14,18,84,,122,122,11,22,3,6,0.8,1
2025-10-13T1800,2327A,117.7275,26.3108,三明市,洋溪,,,,23,,17,,,66,,,11,,7,,1.2
2025-10-13T1800,1876A,109.5078,18.2489,三亚市,河东子站,,12,12,21,3,7,33,,38,38,10,6,3,3,0.6,0.6
2025-10-13T1800,1877A,109.4964,18.2681,三亚市,河西子站,,17,17,11,3,2,30,,44,43,16,6,5,5,0.4,0.4
2025-10-13T1800,3540A,109.7348,18.3443,三亚市,君悦子站,,14,12,11,3,5,43,,47,47,3,4,3,3,0.3,0.4
2025-10-13T1800,2624A,91.7608,29.2313,山南市,山南监测站,,,,10,4,5,114,,104,104,9,9,7,6,0.2,0.3
2025-10-13T1800,2625A,91.7706,29.2436,山南市,山南人民医院,,34,12,12,3,6,108,,94,94,3,5,4,4,0.3,0.3
2025-10-13T1800,1674A,116.6794,23.3667,汕头市,金平子站,,12,12,14,6,10,31,,53,51,7,7,2,3,0.4,0.5
2025-10-13T1800,1675A,116.7244,23.3633,汕头市,龙湖子站,,16,16,13,11,8,31,,50,49,6,6,7,7,0.3,0.4
2025-10-13T1800,1676A,116.7258,23.2775,汕头市,濠江子站,,16,16,13,10,7,30,,49,48,5,3,5,5,0.5,0.5
2025-10-13T1800,1677A,116.7519,23.4714,汕头市,澄海子站,,16,12,19,8,13,51,,51,51,7,7,4,4,0.6,0.6
2025-10-13T1800,1678A,116.6092,23.2539,汕头市,潮阳子站,,,27,12,6,8,26,,43,41,,5,,5,0.6,0.6
2025-10-13T1800,3444A,116.454,23.2684,汕头市,潮南峡山,,10,10,9,3,7,29,,40,39,3,3,7,7,0.7,0.7
2025-10-13T1800,3624A,116.4069,23.2533,汕头市,潮南子站,,17,17,14,3,7,30,,38,38,7,7,4,5,0.5,0.5
2025-10-13T1800,1693A,115.3653,22.775,汕尾市,市环保局,,16,16,14,9,8,28,,37,37,10,6,4,4,0.6,0.6
2025-10-13T1800,1694A,115.3706,22.7898,汕尾市,市政府,,10,7,14,3,6,31,,37,37,9,9,6,6,0.5,0.5
2025-10-13T1800,1695A,115.3622,22.7925,汕尾市,新城中学,,12,12,15,7,8,33,,38,38,9,9,7,6,0.6,0.7
2025-10-13T1800,2645A,109.9154,33.8715,商洛市,监测站,,25,11,9,9,5,79,,76,76,11,12,3,3,0.5,0.6
2025-10-13T1800,3045A,109.9643,33.8471,商洛市,商州区中学,,21,21,10,3,4,60,,72,72,18,15,4,3,0.5,0.6
2025-10-13T1800,2408A,115.6702,34.4285,商丘市,环境监测站,,29,20,14,20,15,56,,53,53,16,12,2,2,0.3,0.3
2025-10-13T1800,2409A,115.6458,34.4045,商丘市,粮食局,,,22,13,15,7,54,,50,50,,9,1,2,0.4,0.3
2025-10-13T1800,2410A,115.6293,34.3948,商丘市,睢阳区环保局,,26,22,13,18,13,61,,52,52,12,11,3,3,0.3,0.3
2025-10-13T1800,3171A,115.6071,34.4465,商丘市,梁园区档案局,,26,21,12,18,13,56,,53,53,18,13,3,3,0.4,0.4
2025-10-13T1800,1141A,121.4,31.238,上海市,普陀,细颗粒物(PM2.5),105,86,55,79,40,30,,98,96,52,24,6,6,1.4,0.6
2025-10-13T1800,1142A,121.478,31.2036,上海市,十五厂,细颗粒物(PM2.5),113,100,57,85,41,34,,113,109,47,21,7,7,1.6,0.9
2025-10-13T1800,1143A,121.467,31.3008,上海市,虹口,细颗粒物(PM2.5),95,82,59,71,39,25,,85,81,42,21,10,8,1.3,0.8
2025-10-13T1800,1147A,121.425,31.2261,上海市,静安监测站,细颗粒物(PM2.5),103,86,54,77,39,28,,106,102,52,22,5,4,1.4,0.8
2025-10-13T1800,1148A,121.703,31.1907,上海市,浦东川沙,细颗粒物(PM2.5),104,89,54,78,38,6,,96,92,80,31,11,10,0.6,0.3
2025-10-13T1800,1149A,121.533,31.2284,上海市,浦东新区监测站,细颗粒物(PM2.5),100,98,54,75,29,26,,95,91,56,26,9,7,1.8,0.8
2025-10-13T1800,1150A,121.577,31.2071,上海市,浦东张江,细颗粒物(PM2.5),99,80,54,74,33,44,,115,113,44,21,8,7,0.8,0.3
2025-10-13T1800,3265A,121.4316,31.3322,上海市,宝山庙行,细颗粒物(PM2.5),94,100,71,70,42,31,,78,74,43,25,8,7,1.0,0.6
2025-10-13T1800,3266A,121.8791,31.4662,上海市,崇明上实东滩,,,46,36,34,26,83,,95,95,,5,4,5,0.5,0.2
2025-10-13T1800,3268A,121.3162,31.2838,上海市,嘉定南翔,细颗粒物(PM2.5),107,81,57,80,42,33,,83,80,45,28,7,6,1.6,0.7
2025-10-13T1800,3269A,121.3359,30.7456,上海市,金山新城,细颗粒物(PM2.5),103,80,50,77,40,48,,115,109,40,14,6,7,1.3,0.7
2025-10-13T1800,3270A,121.4996,31.0739,上海市,闵行浦江,颗粒物(PM10),52,54,48,26,30,81,,134,134,37,18,5,5,1.2,1
2025-10-13T1800,3271A,121.2886,31.1663,上海市,青浦徐泾,细颗粒物(PM2.5),110,102,59,83,41,31,,91,87,46,19,8,8,1.9,0.9
2025-10-13T1800,3272A,121.2186,31.0378,上海市,松江图书馆,细颗粒物(PM2.5),108,109,52,81,38,38,,92,86,49,28,5,5,1.9,0.7
2025-10-13T1800,3273A,121.3902,31.2059,上海市,长宁仙霞,细颗粒物(PM2.5),102,93,57,76,37,30,,98,94,50,22,5,5,1.4,0.8
2025-10-13T1800,3274A,121.7965,31.0507,上海市,浦东惠南,,49,49,34,18,32,44,,112,110,62,18,8,8,1.1,0.8
2025-10-13T1800,3544A,121.4891,30.925,上海市,奉贤南桥新城,,39,22,43,13,31,122,,145,145,26,19,4,4,0.9,0.9
2025-10-13T1800,4183A,121.4174,31.16637,上海市,冠生园路458号,细颗粒物(PM2.5),108,100,55,81,38,43,,107,104,47,24,6,5,1.5,0.9
