timepoint,stationcode,longitude,latitude,area,positionname,primarypollutant,aqi,pm10,pm10_24h,pm2_5,pm2_5_24h,o3,o3_24h,o3_8h,o3_8h_24h,no2,no2_24h,so2,so2_24h,co,co_24h
2026-02-07T1800,2568A,102.2503,31.8896,阿坝藏族羌族自治州,马师校,,26,20,15,18,8,70,,69,69,8,10,4,4,0.5,0.4
2026-02-07T1800,3994A,102.2174,31.9016,阿坝藏族羌族自治州,马尔康中学西区,,39,39,21,8,9,72,,70,70,7,9,4,4,0.4,0.4
2026-02-07T1800,2695A,80.2899,41.1684,阿克苏地区,电视台,颗粒物(PM10),145,239,323,66,87,84,,73,73,8,25,10,9,0.2,0.6
2026-02-07T1800,2696A,80.2592,41.1541,阿克苏地区,艺术中心,颗粒物(PM10),139,227,291,66,87,93,,80,80,7,24,5,6,0.5,0.7
2026-02-07T1800,2205A,105.699,38.8409,阿拉善盟,蒙二幼,,28,12,18,10,4,87,,88,88,7,8,9,9,0.5,0.5
2026-02-07T1800,2206A,105.7198,38.8508,阿拉善盟,环保局新楼,,25,,15,17,4,78,,80,80,4,5,8,9,0.4,0.5
2026-02-07T1800,2708A,88.1266,47.8515,阿勒泰地区,市站,,27,20,10,11,3,84,,82,82,14,14,5,3,0,0
2026-02-07T1800,4166A,88.1198,47.7931,阿勒泰地区,阿勒泰路33号,,36,36,11,3,2,90,,86,86,5,11,6,5,0.3,0.3
2026-02-07T1800,2630A,80.1171,32.4999,阿里地区,阿里监测站,,29,6,3,3,2,91,,82,82,2,4,5,9,0.2,0.3
2026-02-07T1800,3192A,80.0906,32.5029,阿里地区,阿里藏医院,,30,7,11,3,3,95,,82,82,2,7,7,10,0.3,0.4
2026-02-07T1800,2644A,109.0088,32.6974,安康市,汉滨区检察院,细颗粒物(PM2.5),123,116,142,93,105,66,,74,70,24,14,7,7,0.9,0.8
2026-02-07T1800,4054A,109.0324,32.6913,安康市,市邮政管理局,细颗粒物(PM2.5),109,112,150,82,104,75,,70,70,22,20,4,4,0.9,0.9
2026-02-07T1800,2291A,117.0806,30.5181,安庆市,环科院,,,,39,28,21,58,,55,55,10,10,5,5,0.4,0.5
2026-02-07T1800,2292A,117.0331,30.5118,安庆市,马山宾馆,颗粒物(PM10),57,63,34,28,23,58,,58,58,6,7,4,4,0.3,0.4
2026-02-07T1800,2294A,116.9897,30.6146,安庆市,安庆大学,颗粒物(PM10),52,53,31,26,19,62,,58,58,9,11,3,3,0.4,0.5
2026-02-07T1800,3173A,117.0598,30.5351,安庆市,市人大,颗粒物(PM10),56,61,37,26,23,54,,53,53,12,10,4,4,0.4,0.5
2026-02-07T1800,3123A,105.9408,26.2431,安顺市,凤凰山,,32,28,38,22,30,57,,63,43,12,14,13,14,0.9,0.8
2026-02-07T1800,3124A,105.9443,26.2567,安顺市,金钟山,,35,24,34,24,28,53,,60,41,9,10,12,12,0.8,0.8
2026-02-07T1800,3125A,105.8983,26.248,安顺市,娄家坡,,35,26,34,24,30,53,,59,39,12,13,14,17,0.8,0.8
2026-02-07T1800,1819A,114.3552,36.1017,安阳市,红庙街,细颗粒物(PM2.5),75,80,71,55,38,80,,68,68,12,16,3,4,0.7,0.7
2026-02-07T1800,1820A,114.361,36.0681,安阳市,银杏小区,细颗粒物(PM2.5),72,80,70,52,39,80,,68,68,12,17,5,5,0.5,0.4
2026-02-07T1800,3141A,114.3921,36.0879,安阳市,信访局,细颗粒物(PM2.5),70,72,66,51,35,82,,71,71,9,13,6,7,0.5,0.5
2026-02-07T1800,3669A,114.4706,36.0634,安阳市,左辅环卫站,"颗粒物(PM10),细颗粒物(PM2.5)",67,84,76,48,36,77,,71,71,17,21,6,4,0.5,0.4
2026-02-07T1800,4117A,114.2918,36.0769,安阳市,钢三路198号,细颗粒物(PM2.5),87,92,83,64,40,70,,59,59,18,17,5,5,0.6,0.6
2026-02-07T1800,1748A,123.0441,41.1201,鞍山市,深沟寺,,32,32,39,15,24,69,,72,72,13,22,8,8,0.6,0.7
2026-02-07T1800,1749A,123.011,41.0931,鞍山市,太阳城,,28,28,35,18,23,68,,69,69,10,23,9,14,0.5,0.9
2026-02-07T1800,1750A,123.0483,41.1445,鞍山市,太平,,46,46,60,20,26,63,,66,66,16,23,10,10,0.4,0.5
2026-02-07T1800,1751A,122.964,41.0968,鞍山市,铁西三道街,,50,50,72,25,30,66,,76,75,18,25,10,12,0.9,0.7
2026-02-07T1800,1753A,123.0219,41.0822,鞍山市,明达新区,,39,39,47,17,23,69,,71,71,12,19,8,11,0.5,0.9
2026-02-07T1800,4201A,122.944647,41.082639,鞍山市,兴盛南路290号,,34,34,98,17,38,64,,,,17,35,9,12,0.7,1.4
2026-02-07T1800,2195A,107.4206,40.7609,巴彦淖尔市,附二中,颗粒物(PM10),54,57,40,18,10,74,,72,72,8,9,5,6,0.4,0.4
2026-02-07T1800,2196A,107.37,40.7372,巴彦淖尔市,市环保大楼,,50,50,41,16,8,78,,76,76,6,12,4,4,0.3,0.4
2026-02-07T1800,1956A,86.1476,41.7529,巴音郭楞蒙古自治州,孔雀公园,颗粒物(PM10),161,271,167,48,37,86,,89,81,5,8,7,8,0.3,0.3
2026-02-07T1800,1957A,86.1971,41.7166,巴音郭楞蒙古自治州,棉纺厂,颗粒物(PM10),187,324,197,56,40,86,,78,78,6,14,/,/,/,/
2026-02-07T1800,1958A,86.236,41.7172,巴音郭楞蒙古自治州,经济开发区,颗粒物(PM10),155,260,172,33,26,79,,79,76,7,7,5,5,0.4,0.4
2026-02-07T1800,3181A,106.776805,31.852614,巴中市,市五中,细颗粒物(PM2.5),53,47,61,37,48,70,,73,73,18,21,5,5,0.7,0.9
2026-02-07T1800,3183A,106.7419,31.8654,巴中市,圣泉水务公司,,48,43,56,33,46,63,,75,72,19,28,6,6,1.0,1.1
2026-02-07T1800,3616A,106.7617,31.8343,巴中市,市中心医院,,46,43,66,32,50,71,,69,69,17,33,6,6,1.0,1.2
2026-02-07T1800,2235A,122.7909,45.608,白城市,洮北区环保局,,45,45,35,19,25,53,,69,68,30,18,6,7,0.5,0.4
2026-02-07T1800,2236A,122.8741,45.5725,白城市,市环保局,,31,31,32,12,17,37,,67,64,31,16,5,5,0.3,0.4
2026-02-07T1800,2231A,126.4219,41.9172,白山市,喜丰,,41,41,48,14,22,64,,68,68,20,28,10,13,0.7,0.8
2026-02-07T1800,2232A,126.4082,41.9416,白山市,环保局,,28,28,37,13,22,71,,69,69,10,18,14,14,0.8,0.6
2026-02-07T1800,2647A,104.1727,36.5448,白银市,第三小学,颗粒物(PM10),76,102,83,49,30,82,,76,76,14,10,3,8,0.4,0.4
2026-02-07T1800,2648A,104.1467,36.5482,白银市,动力公司,颗粒物(PM10),82,114,81,44,28,85,,80,80,10,8,4,7,0.6,0.5
2026-02-07T1800,2512A,106.6102,23.901,百色市,市监测站,颗粒物(PM10),52,53,40,32,30,50,,48,48,11,25,8,8,0.8,0.8
2026-02-07T1800,2513A,106.6524,23.8842,百色市,市中心血站,颗粒物(PM10),55,59,47,29,32,51,,48,48,8,23,8,9,0.8,0.9
2026-02-07T1800,4133A,106.6273,23.8798,百色市,龙景西路,颗粒物(PM10),52,53,50,35,34,51,,49,49,9,22,7,9,0.7,0.7
2026-02-07T1800,2270A,117.396,32.9389,蚌埠市,工人疗养院,颗粒物(PM10),68,86,54,45,19,69,,70,70,24,16,5,4,0.5,0.4
2026-02-07T1800,2271A,117.3606,32.9428,蚌埠市,百货大楼,颗粒物(PM10),69,87,52,44,18,73,,73,73,16,12,6,4,0.4,0.3
2026-02-07T1800,2273A,117.4183,32.8909,蚌埠市,蚌埠学院,颗粒物(PM10),64,78,47,40,19,77,,74,74,20,25,5,5,0.5,0.4
2026-02-07T1800,2274A,117.3534,32.9672,蚌埠市,淮上区政府,细颗粒物(PM2.5),72,90,50,52,20,74,,77,77,20,12,6,4,0.4,0.3
2026-02-07T1800,2275A,117.3143,32.8977,蚌埠市,高新区,颗粒物(PM10),67,83,49,47,19,68,,67,67,17,12,7,6,0.4,0.3
2026-02-07T1800,3715A,117.3091,32.9314,蚌埠市,蚌埠田家炳中学,颗粒物(PM10),77,104,57,43,19,59,,67,67,31,15,6,4,0.4,0.3
2026-02-07T1800,1585A,109.8761,40.6533,包头市,市环境监测站,,26,26,31,3,9,77,,76,76,11,13,4,8,0.4,0.6
2026-02-07T1800,1587A,109.9992,40.5843,包头市,包头八中,,30,30,30,13,11,75,,71,71,8,14,3,7,0.4,0.6
2026-02-07T1800,1589A,109.8641,40.6288,包头市,惠龙物流,,25,23,28,7,11,80,,77,77,11,18,6,14,0.4,0.9
2026-02-07T1800,1590A,110.0376,40.5546,包头市,东河鸿龙湾,,33,33,23,3,7,74,,72,72,15,18,6,9,0.3,0.6
2026-02-07T1800,3283A,109.9154,40.5684,包头市,滨河大厦,,35,35,23,9,9,75,,71,71,13,18,5,9,0.5,0.6
2026-02-07T1800,3419A,109.9449,40.6259,包头市,包头市委党校,,25,17,28,15,12,80,,78,78,8,13,6,10,0.4,0.5
2026-02-07T1800,3683A,109.8332,40.6577,包头市,昆区政府,,25,20,22,6,6,80,,74,74,11,15,6,11,0.4,0.7
2026-02-07T1800,1931A,107.0802,34.3129,宝鸡市,竹园沟,颗粒物(PM10),55,59,78,20,43,88,,85,85,16,18,7,7,0.3,0.5
2026-02-07T1800,1933A,107.1429,34.3549,宝鸡市,监测站,颗粒物(PM10),54,58,97,17,45,85,,81,81,24,25,5,6,0.5,0.6
2026-02-07T1800,1934A,107.1172,34.3759,宝鸡市,技工学校,颗粒物(PM10),56,61,94,15,42,83,,82,82,20,20,5,6,0.3,0.5
2026-02-07T1800,1936A,107.2025,34.3518,宝鸡市,文理学院,颗粒物(PM10),58,66,95,23,45,86,,77,77,12,18,4,5,0.3,0.6
2026-02-07T1800,1937A,107.2396,34.3626,宝鸡市,三迪小学,颗粒物(PM10),57,63,96,21,45,86,,82,82,25,24,3,5,0.4,0.6
2026-02-07T1800,4155A,107.1721,34.3558,宝鸡市,滨河北路,颗粒物(PM10),51,52,80,19,41,84,,78,78,21,19,4,6,0.2,0.4
2026-02-07T1800,4308A,107.3898,34.3601,宝鸡市,陈仓区北开路21号,颗粒物(PM10),58,65,108,26,48,96,,80,80,17,23,6,8,0.4,0.6
2026-02-07T1800,1051A,115.4803,38.8568,保定市,游泳馆,,49,49,59,22,41,66,,59,59,13,29,3,3,0.5,0.7
2026-02-07T1800,1052A,115.509,38.8895,保定市,华电二区,,35,35,54,14,32,62,,54,54,14,26,3,3,0.6,0.9
2026-02-07T1800,1053A,115.4588,38.9037,保定市,接待中心,,38,38,59,20,36,63,,55,55,15,25,1,2,0.2,0.4
2026-02-07T1800,1054A,115.4484,38.8344,保定市,地表水厂,,48,48,70,18,35,65,,53,53,18,47,2,2,0.2,0.4
2026-02-07T1800,3581A,115.3136,38.9511,保定市,满城区生态环境分局,,39,39,66,22,42,59,,59,59,20,30,2,2,0.3,0.6
2026-02-07T1800,3582A,115.4709,38.7628,保定市,清苑区第二中学,,45,45,71,21,39,60,,58,58,23,35,4,4,0.4,0.5
2026-02-07T1800,3583A,115.6231,39.0223,保定市,徐水物探局,,38,38,75,23,40,68,,61,61,9,28,4,4,0.4,0.6
2026-02-07T1800,4004A,115.4199,38.8665,保定市,双鹰农机,,33,33,72,19,39,68,,62,62,12,26,1,2,0.3,0.4
2026-02-07T1800,4034A,115.515,38.8589,保定市,植保所站,,47,47,63,26,37,62,,54,54,17,29,3,3,0.4,0.5
2026-02-07T1800,2594A,99.1589,25.1137,保山市,市环境监测站,,32,24,29,14,17,102,,96,96,6,9,6,6,0.3,0.4
2026-02-07T1800,2595A,99.1616,25.1381,保山市,市环保局,,32,29,30,14,16,100,,94,94,4,5,3,3,0.5,0.5
2026-02-07T1800,1867A,109.1435,21.4085,北海市,海滩公园,"颗粒物(PM10),细颗粒物(PM2.5)",67,84,63,48,39,124,,108,108,22,18,4,3,1.2,0.9
2026-02-07T1800,1868A,109.0983,21.466,北海市,新市环保局,细颗粒物(PM2.5),64,62,58,46,40,121,,108,108,21,22,9,8,0.9,0.7
2026-02-07T1800,1869A,109.1775,21.5232,北海市,北海工业园,细颗粒物(PM2.5),70,75,68,51,45,106,,93,93,14,18,7,6,1.1,0.8
2026-02-07T1800,3400A,109.1844,21.4396,北海市,龙潭自来水厂,细颗粒物(PM2.5),54,53,55,38,45,109,,96,96,10,13,7,6,0.9,0.7
2026-02-07T1800,1001A,116.3611,39.8786,北京市,万寿西宫,,25,14,21,6,6,79,,81,81,3,15,2,2,0.4,0.5
2026-02-07T1800,1003A,116.4174,39.9289,北京市,东四,,19,14,20,3,6,60,,60,60,7,17,3,4,0.2,0.3
2026-02-07T1800,1004A,116.4073,39.8858,北京市,天坛,,22,19,22,6,7,69,,72,72,8,15,2,2,0.3,0.3
2026-02-07T1800,1005A,116.4622,39.9364,北京市,农展馆,,24,13,20,3,5,76,,76,76,1,14,5,5,0.1,0.2
2026-02-07T1800,1006A,116.3399,39.9293,北京市,官园,,21,18,23,3,7,66,,68,68,5,16,2,2,0.4,0.3
2026-02-07T1800,1007A,116.2879,39.9613,北京市,海淀万柳,,20,17,20,3,7,64,,62,62,8,28,2,2,0.2,0.3
2026-02-07T1800,1008A,116.6635,40.1349,北京市,顺义新城,,25,10,12,3,3,79,,79,79,4,14,4,4,0.3,0.3
2026-02-07T1800,1009A,116.6275,40.327,北京市,怀柔镇,,24,9,10,3,5,76,,75,75,2,8,4,4,0.4,0.4
2026-02-07T1800,1010A,116.2295,40.217,北京市,昌平镇,,21,16,15,3,5,39,,65,62,42,10,1,2,0.3,0.4
2026-02-07T1800,1011A,116.3968,39.982,北京市,奥体中心,,24,11,18,3,6,74,,72,72,3,25,4,5,0.2,0.3
2026-02-07T1800,3418A,116.8336,40.4095,北京市,密云新城,,24,8,11,3,5,75,,76,76,2,8,3,3,0.2,0.2
2026-02-07T1800,3671A,116.0879,39.9725,北京市,门头沟三家店,,23,15,23,3,6,72,,72,72,2,13,2,3,0.4,0.4
2026-02-07T1800,3672A,116.1507,39.8246,北京市,丰台云岗,,24,10,32,3,11,76,,75,75,1,18,1,2,0.3,0.3
2026-02-07T1800,3674A,115.9578,39.7602,北京市,房山燕山,,23,22,28,3,10,73,,68,68,2,10,3,4,0.1,0.3
2026-02-07T1800,3675A,116.4669,39.7734,北京市,大兴旧宫,,23,13,26,3,9,72,,73,73,4,22,3,3,0.4,0.4
2026-02-07T1800,3694A,115.9859,40.4562,北京市,延庆石河营,,25,9,19,3,9,77,,76,76,2,24,3,3,0.3,0.5
2026-02-07T1800,3695A,116.6151,40.3052,北京市,怀柔新城,,26,8,13,3,8,81,,78,78,2,7,2,2,0.2,0.2
2026-02-07T1800,3696A,116.2542,39.8764,北京市,丰台小屯,,19,17,29,3,9,60,,60,60,11,26,4,4,0.3,0.4
2026-02-07T1800,3697A,116.8399,40.3843,北京市,密云镇,,24,11,15,6,7,76,,78,78,4,21,1,2,0.2,0.3
2026-02-07T1800,4057A,115.9423,40.4431,北京市,延庆百泉,,24,9,13,3,7,76,,74,74,2,7,1,2,0.3,0.3
2026-02-07T1800,4058A,116.6598,39.9164,北京市,通州新华,,23,12,17,3,6,73,,74,74,5,24,2,3,0.4,0.5
2026-02-07T1800,4182A,116.1942,39.9158,北京市,石景山八角,,21,16,28,3,7,66,,63,63,2,17,2,3,0.1,0.2
2026-02-07T1800,4194A,117.078628,40.151726,北京市,平谷新城,,24,8,10,3,6,75,,72,72,3,9,3,3,0.2,0.2
2026-02-07T1800,1761A,123.8274146,41.31234549,本溪市,大峪,,40,40,81,17,28,57,,57,57,12,31,8,9,0.6,1
2026-02-07T1800,1763A,123.7169,41.3094,本溪市,彩屯,,48,48,71,20,35,58,,65,65,22,34,8,8,0.7,1.1
2026-02-07T1800,1764A,123.7672166,41.28649327,本溪市,东明,,41,41,61,20,30,60,,62,62,16,34,9,9,0.8,1.3
2026-02-07T1800,1765A,123.799345,41.266614,本溪市,新立屯,,45,45,55,20,32,63,,63,63,9,26,10,11,0.8,1.7
2026-02-07T1800,1766A,123.829144,41.336777,本溪市,威宁,,42,42,58,22,29,55,,56,56,18,29,5,6,0.5,0.8
2026-02-07T1800,2587A,105.287,27.3133,毕节市,八中,细颗粒物(PM2.5),89,109,82,66,54,77,,84,84,14,20,9,10,1.0,1
2026-02-07T1800,2588A,105.3079,27.2987,毕节市,师专,细颗粒物(PM2.5),80,95,76,59,51,82,,87,87,15,22,8,10,0.9,0.9
2026-02-07T1800,4263A,105.3688,27.3598,毕节市,工业大道,,,77,79,58,55,79,,86,85,15,20,,11,/,/
2026-02-07T1800,1629A,117.9961,37.3604,滨州市,第二水厂,,34,34,34,11,21,61,,58,58,13,18,8,9,0.4,0.6
2026-02-07T1800,1630A,117.9789,37.3931,滨州市,北中新校,,34,34,42,11,21,56,,52,52,15,18,4,5,0.5,0.5
2026-02-07T1800,3514A,117.9379,37.3959,滨州市,中海酒店,,27,27,34,10,22,72,,70,70,16,20,6,7,0.5,0.5
2026-02-07T1800,3515A,117.9381509,37.35547456,滨州市,开发区一中,,44,44,44,11,23,61,,59,59,14,18,8,11,0.5,0.6
2026-02-07T1800,3516A,118.0914,37.6938,滨州市,金海六路,,39,39,36,3,23,65,,71,71,18,25,4,9,0.3,0
2026-02-07T1800,4028A,117.9955,37.3752,滨州市,滨州市西街道办事处,,29,29,33,17,25,66,,64,64,13,16,7,8,0.3,0.3
2026-02-07T1800,2311A,115.8071,33.8399,亳州市,污水处理厂,颗粒物(PM10),70,89,70,47,28,78,,66,66,25,28,6,6,0.4,0.3
2026-02-07T1800,2312A,115.7789,33.8519,亳州市,三国揽胜宫,颗粒物(PM10),75,100,82,49,29,78,,63,63,19,22,6,6,0.4,0.4
2026-02-07T1800,3332A,115.7631,33.803,亳州市,亳州学院,颗粒物(PM10),71,92,73,49,28,69,,58,58,21,21,5,5,0.5,0.4
2026-02-07T1800,2693A,82.0482,44.8553,博尔塔拉蒙古自治州,市党校,,48,47,48,33,24,98,,87,87,14,16,4,3,0.9,0.9
2026-02-07T1800,2694A,82.0805,44.8966,博尔塔拉蒙古自治州,市环保局,颗粒物(PM10),165,280,89,45,28,83,,70,67,28,23,9,5,0.9,0.7
2026-02-07T1800,1071A,116.8733,38.2922,沧州市,沧县城建局,,49,47,54,34,31,64,,65,65,20,22,4,3,0.3,0.4
2026-02-07T1800,1072A,116.8462,38.3189,沧州市,电视转播站,细颗粒物(PM2.5),53,45,49,37,34,63,,62,62,21,23,1,3,0.5,0.5
2026-02-07T1800,1073A,116.8588,38.3161,沧州市,市环保局,,50,40,53,35,30,55,,54,54,20,21,6,5,0.5,0.5
2026-02-07T1800,3324A,116.8011,38.294,沧州市,河北水利电力学院,,50,39,47,35,36,59,,58,58,19,23,2,2,0.3,0.3
2026-02-07T1800,2622A,97.1813,31.1289,昌都市,昌都监测站,,26,14,24,3,10,81,,70,70,2,11,3,3,0.3,0.5
2026-02-07T1800,3719A,97.1707,31.1428,昌都市,昌都会议中心,,24,13,11,8,8,76,,67,67,2,2,4,4,0.3,0.3
2026-02-07T1800,2692A,87.2722,44.0298,昌吉回族自治州,新区政务中心,细颗粒物(PM2.5),79,79,85,58,63,86,,64,64,20,25,9,8,1.1,1
2026-02-07T1800,3613A,87.3069,44.0093,昌吉回族自治州,亚心广场,细颗粒物(PM2.5),93,100,96,69,74,95,,82,82,19,22,8,8,1.1,1
2026-02-07T1800,4164A,87.2057,43.9289,昌吉回族自治州,财政所,细颗粒物(PM2.5),75,91,106,55,76,91,,78,78,16,15,6,5,0.6,0.9
2026-02-07T1800,1120A,125.2874,43.9024,长春市,客车厂,,49,36,53,34,35,43,,55,54,29,36,10,13,0.6,0.7
2026-02-07T1800,1121A,125.2943,43.8508,长春市,邮电学院,,35,35,47,23,34,55,,57,57,16,30,9,10,0.5,0.7
2026-02-07T1800,1122A,125.3648,43.8745,长春市,劳动公园,,33,31,56,23,33,56,,59,59,17,28,5,6,0.3,0.5
2026-02-07T1800,1123A,125.3233,43.8781,长春市,园林处,,35,30,49,24,36,56,,58,58,13,27,8,11,0.5,0.7
2026-02-07T1800,1124A,125.4604,43.7904,长春市,净月潭,,27,27,37,16,24,59,,60,60,13,14,6,6,0.4,0.5
2026-02-07T1800,1126A,125.38,43.8422,长春市,经开区环卫处,,39,39,59,20,36,45,,55,55,28,40,26,8,0.4,0.6
2026-02-07T1800,1127A,125.234,43.7761,长春市,高新区管委会,,26,26,68,17,47,55,,56,56,19,42,9,8,0.7,0.9
2026-02-07T1800,1128A,125.1695,43.83,长春市,岱山公园,,40,28,56,28,38,41,,56,56,31,40,6,8,0.4,0.6
2026-02-07T1800,4281A,125.334645,43.916281,长春市,北亚泰大街1068号,,37,37,58,25,38,47,,54,54,22,36,7,10,0.6,0.7
2026-02-07T1800,1335A,113.082,28.2421,长沙市,经开区环保局,颗粒物(PM10),58,65,88,34,54,26,,25,25,25,23,2,2,0.4,0.6
2026-02-07T1800,1336A,112.8873,28.2202,长沙市,高开区环保局,细颗粒物(PM2.5),59,65,115,42,75,32,,28,27,18,18,4,4,0.6,0.7
2026-02-07T1800,1337A,113.0785,28.2012,长沙市,马坡岭,颗粒物(PM10),60,69,102,40,65,32,,30,30,23,21,4,4,0.5,0.7
2026-02-07T1800,1338A,112.9448,28.1894,长沙市,湖南师范大学,颗粒物(PM10),56,62,112,36,66,37,,32,32,19,18,3,3,0.6,0.7
2026-02-07T1800,1339A,113.0177,28.1322,长沙市,雨花区环保局,颗粒物(PM10),54,57,102,36,63,24,,25,25,22,20,6,6,0.7,0.9
2026-02-07T1800,1340A,112.9795,28.2593,长沙市,伍家岭,细颗粒物(PM2.5),57,62,121,40,71,31,,28,28,21,20,4,4,0.5,0.7
2026-02-07T1800,1341A,113.002,28.1944,长沙市,火车新站,颗粒物(PM10),62,74,110,38,70,33,,31,31,19,18,1,1,0.6,0.7
2026-02-07T1800,1342A,112.9846,28.1177,长沙市,天心区环保局,颗粒物(PM10),56,62,116,38,74,33,,32,32,23,22,4,4,0.6,0.6
2026-02-07T1800,1343A,112.8906,28.1307,长沙市,湖南中医药大学,颗粒物(PM10),56,62,114,35,65,38,,34,32,18,19,5,5,0.6,0.8
2026-02-07T1800,1727A,113.1146,36.1547,长治市,清华站,,28,21,47,9,23,88,,81,81,13,20,6,10,0.4,0.7
2026-02-07T1800,1730A,113.0887,36.2126,长治市,审计局,,27,18,49,9,26,84,,80,80,12,24,8,11,0.4,0.7
2026-02-07T1800,1731A,113.0845,36.1856,长治市,长治八中,,27,26,57,8,26,86,,80,80,10,20,8,13,0.4,0.6
2026-02-07T1800,2845A,113.1561,36.1912,长治市,德盛苑,,28,23,48,8,29,87,,85,85,12,19,9,12,0.4,0.7
2026-02-07T1800,3568A,113.0603,36.0464,长治市,向阳小学,,36,36,68,8,25,85,,80,80,14,21,10,11,0.4,0.6
2026-02-07T1800,3569A,112.8788,36.315,长治市,屯留一中,,27,27,61,9,33,85,,86,86,15,32,6,9,0.2,0.9
2026-02-07T1800,4189A,113.113092,36.199482,长治市,英华南巷50号,,27,22,50,8,24,84,,81,81,12,18,8,11,0.3,0.5
2026-02-07T1800,4190A,113.23666,36.33435,长治市,学府街1号,,27,27,59,12,33,83,,78,78,12,33,10,11,0.3,0.8
2026-02-07T1800,1854A,111.696,28.9725,常德市,市二中,细颗粒物(PM2.5),85,106,133,63,77,49,,45,45,22,18,5,5,0.8,1
2026-02-07T1800,3138A,111.7152,29.0288,常德市,武陵区永安,细颗粒物(PM2.5),87,115,140,64,80,50,,43,43,23,20,4,4,0.8,0.9
2026-02-07T1800,3139A,111.6891,28.9881,常德市,鼎城区玉霞,细颗粒物(PM2.5),82,108,131,60,76,50,,44,44,27,23,5,5,0.9,0.9
2026-02-07T1800,3140A,111.6651,29.0526,常德市,武陵区长庚,细颗粒物(PM2.5),90,108,133,67,81,50,,42,42,20,17,4,4,0.6,0.7
2026-02-07T1800,1196A,119.9524,31.7586,常州市,市监测站,颗粒物(PM10),57,64,29,31,10,74,,65,63,20,15,6,6,0.4,0.2
2026-02-07T1800,1200A,119.9351,31.703,常州市,武进监测站,颗粒物(PM10),53,55,31,35,11,74,,64,62,18,14,6,6,0.6,0.5
2026-02-07T1800,3002A,119.9701,31.813,常州市,行政中心,,,,36,34,10,70,,64,63,25,17,4,4,,0.4
2026-02-07T1800,3003A,120.0434,31.7726,常州市,经开区,颗粒物(PM10),62,73,34,34,10,73,,66,66,15,8,3,2,0.7,0.5
2026-02-07T1800,3010A,119.8919,31.7892,常州市,钟楼,,49,49,31,32,10,72,,64,62,18,14,7,6,0.6,0.5
2026-02-07T1800,3429A,119.8595,31.706,常州市,武进经发区,颗粒物(PM10),55,59,37,36,18,77,,65,65,17,16,6,4,0.6,0.5
2026-02-07T1800,3430A,119.5812,31.7256,常州市,金坛城区,细颗粒物(PM2.5),60,64,38,43,18,74,,66,66,14,11,6,6,0.4,0.3
2026-02-07T1800,4089A,119.9551,31.863,常州市,崇义南街5-H号,颗粒物(PM10),58,66,29,32,10,75,,66,66,16,11,4,4,0.6,0.5
2026-02-07T1800,2220A,120.4318,41.588,朝阳市,西梁,颗粒物(PM10),54,58,63,18,31,56,,72,72,25,36,8,9,0.4,0.9
2026-02-07T1800,2221A,120.452,41.565,朝阳市,河畔小区,,48,48,47,3,23,68,,72,72,13,25,7,9,0.5,0.9
2026-02-07T1800,2222A,120.4176,41.5648,朝阳市,八里堡,颗粒物(PM10),56,61,56,12,33,64,,69,69,16,36,7,10,1.1,1
2026-02-07T1800,3026A,116.6179,23.6608,潮州市,市政府,,44,44,36,17,28,70,,65,65,15,12,4,4,0.5,0.5
2026-02-07T1800,4036A,116.646,23.676,潮州市,金山,,41,41,36,19,29,69,,64,64,21,16,3,3,0.6,0.6
2026-02-07T1800,2473A,113.0116,25.8228,郴州市,市职中,细颗粒物(PM2.5),59,44,50,42,50,18,,18,14,14,13,3,3,0.6,0.9
2026-02-07T1800,2475A,113.0381,25.8074,郴州市,市审计局,颗粒物(PM10),52,53,49,27,38,17,,18,12,17,16,3,3,/,/
2026-02-07T1800,2476A,113.0348,25.7757,郴州市,市环保局,细颗粒物(PM2.5),88,,50,65,75,24,,24,20,21,20,2,2,0.6,0.8
2026-02-07T1800,4252A,113.0138,25.8011,郴州市,好美居路49号,细颗粒物(PM2.5),52,37,47,36,46,29,,30,25,22,21,2,2,/,/
2026-02-07T1800,1431A,103.9727,30.7242,成都市,金泉两河,,,54,78,24,50,68,,66,64,,32,1,2,,0.9
2026-02-07T1800,1432A,104.1423,30.6765,成都市,十里店,颗粒物(PM10),60,70,93,26,48,70,,68,68,13,24,3,4,0.2,0.4
2026-02-07T1800,1433A,104.0594,30.5765,成都市,三瓦窑,颗粒物(PM10),55,60,74,24,48,73,,74,72,14,31,2,2,0.5,0.7
2026-02-07T1800,1434A,104.1122,30.6306,成都市,沙河铺,颗粒物(PM10),63,76,77,24,49,65,,64,64,20,32,3,3,0.3,0.6
2026-02-07T1800,2880A,104.0219,30.6561,成都市,大石西路,颗粒物(PM10),61,71,87,27,53,67,,71,68,12,18,4,5,0.4,0.6
2026-02-07T1800,3136A,104.2724,30.559,成都市,龙泉驿区区政府,颗粒物(PM10),52,53,70,30,49,68,,69,69,11,17,6,6,0.2,0.4
2026-02-07T1800,3357A,104.0028,30.6891,成都市,金博路,颗粒物(PM10),52,54,76,28,54,68,,65,65,19,28,4,4,0.6,0.8
2026-02-07T1800,3359A,104.056,30.5228,成都市,华阳,颗粒物(PM10),52,53,71,25,48,70,,73,70,17,28,2,3,0.2,0.5
2026-02-07T1800,3488A,104.387954,30.746684,成都市,青石路225号,颗粒物(PM10),61,72,82,26,49,73,,78,78,17,34,1,2,0.3,1
2026-02-07T1800,3489A,104.0788,30.4054,成都市,科学城,,,50,68,28,46,57,,72,56,12,18,6,7,,0.8
2026-02-07T1800,4011A,103.8505,30.6946,成都市,光华大道三段,颗粒物(PM10),56,62,99,19,49,70,,69,69,19,34,2,3,0.4,0.8
2026-02-07T1800,4144A,104.3257,30.6406,成都市,八角井街185号,颗粒物(PM10),63,76,80,25,45,64,,67,67,17,28,3,4,0.4,0.6
2026-02-07T1800,4224A,104.2433276,30.53529463,成都市,鲸龙路1057号,,46,46,70,27,49,71,,71,71,15,22,5,5,0.4,0.6
2026-02-07T1800,1062A,117.9531,40.908,承德市,铁路,,26,26,28,3,10,76,,77,77,2,13,3,5,0.2,0.4
2026-02-07T1800,1063A,117.9397,40.9763,承德市,中国银行,,32,32,25,6,6,65,,75,72,17,9,3,2,0.4,0.3
2026-02-07T1800,4073A,117.9462,40.95,承德市,杏林街1号,,24,24,19,3,9,76,,80,79,3,8,2,4,0.2,0.3
2026-02-07T1800,4274A,117.7994,40.9605,承德市,滨河大街98号,,28,28,16,14,8,75,,78,78,4,6,2,3,0.2,0.2
2026-02-07T1800,2314A,117.4698,30.6617,池州市,池州学院,颗粒物(PM10),51,52,36,33,30,50,,47,44,22,20,4,3,0.7,0.7
2026-02-07T1800,3237A,117.4918,30.6617,池州市,展览馆,颗粒物(PM10),51,52,36,33,30,54,,47,45,17,19,2,2,0.6,0.6
2026-02-07T1800,3333A,117.5626,30.695,池州市,第八中学,颗粒物(PM10),51,51,34,33,26,56,,46,45,18,19,2,2,0.5,0.6
2026-02-07T1800,3334A,117.5037,30.6242,池州市,第十二中学,颗粒物(PM10),51,51,30,34,23,54,,48,45,22,22,4,4,0.7,0.7
2026-02-07T1800,1744A,118.9229,42.2816,赤峰市,松山一中,,21,21,20,9,10,61,,62,62,9,15,1,2,0.6,0.7
2026-02-07T1800,1745A,118.9588,42.2733,赤峰市,哈达街,,20,19,22,11,7,62,,64,64,9,13,5,7,0.5,0.6
2026-02-07T1800,1746A,118.8792,42.2551,赤峰市,天义路,,22,,16,15,8,68,,71,71,6,10,5,7,0.5,0.5
2026-02-07T1800,3058A,119.2656,42.0356,赤峰市,银河街,,44,44,27,12,10,67,,75,74,9,10,9,11,0.6,0.6
2026-02-07T1800,3286A,118.9359,42.3146,赤峰市,桥北物流园区,,23,,17,12,8,71,,74,74,10,14,3,4,0.4,0.5
2026-02-07T1800,2521A,107.3473,22.4137,崇左市,市环保局江州分局,颗粒物(PM10),57,64,66,39,46,60,,59,59,21,24,9,8,1.0,1
2026-02-07T1800,4256A,107.375,22.3736,崇左市,石景林东路7号,颗粒物(PM10),51,51,53,32,40,70,,67,67,18,19,5,3,0.8,0.8
2026-02-07T1800,3207A,118.31131,32.3033,滁州市,市政府原办公楼,颗粒物(PM10),59,68,41,39,22,78,,74,74,16,12,5,4,0.4,0.3
2026-02-07T1800,3331A,118.3268,32.2633,滁州市,图书馆,颗粒物(PM10),52,53,32,26,18,74,,71,71,12,6,8,8,0.6,0.3
2026-02-07T1800,4101A,118.3196,32.3335,滁州市,银山路666号,细颗粒物(PM2.5),63,59,34,45,24,74,,72,72,11,7,8,6,0.4,0.3
2026-02-07T1800,4102A,118.3426,32.2979,滁州市,黄山路555号,颗粒物(PM10),63,75,43,43,24,78,,74,74,12,7,4,4,0.4,0.3
2026-02-07T1800,2606A,101.5379,25.0492,楚雄彝族自治州,市经济开发区,,26,11,35,7,20,83,,76,76,5,17,3,3,0.5,0.6
2026-02-07T1800,4153A,101.5536,25.0343,楚雄彝族自治州,团结路562号,,25,22,25,10,17,80,,73,73,3,10,4,4,0.4,0.6
2026-02-07T1800,2549A,107.5087,31.2186,达州市,市环境监测站,颗粒物(PM10),61,72,77,39,50,50,,53,53,35,37,6,8,0.2,0.3
2026-02-07T1800,2550A,107.4988,31.2132,达州市,凤凰小区,,,,76,39,47,52,,58,57,31,40,4,7,0.5,0.6
2026-02-07T1800,2551A,107.5081,31.1987,达州市,达县机关宾馆,颗粒物(PM10),54,58,79,30,47,56,,49,49,33,50,4,7,0.6,0.9
2026-02-07T1800,2552A,107.4644,31.2124,达州市,市政中心,颗粒物(PM10),57,63,87,37,50,64,,62,62,27,47,4,6,0.5,0.8
2026-02-07T1800,2614A,100.2168,25.5818,大理白族自治州,大理市环境监测站,,28,18,22,14,16,88,,86,86,7,8,7,7,0.4,0.5
2026-02-07T1800,2615A,100.1542,25.7055,大理白族自治州,大理古城,,29,21,24,12,16,90,,89,89,7,8,8,8,0.6,0.6
2026-02-07T1800,1109A,121.6119,38.974,大连市,甘井子,,26,26,39,12,26,77,,80,80,9,13,10,10,0.5,0.5
2026-02-07T1800,1110A,121.565,38.9509,大连市,周水子,,30,30,48,14,26,67,,75,75,18,19,12,6,0.4,0.4
2026-02-07T1800,1111A,121.5637,38.8849,大连市,星海三站,,33,27,34,23,22,63,,73,73,18,17,15,9,0.3,0.5
2026-02-07T1800,1112A,121.6301,38.9117,大连市,青泥洼桥,,24,24,39,14,23,67,,74,74,20,17,10,10,0.3,0.4
2026-02-07T1800,1113A,121.6248,38.8643,大连市,傅家庄,,23,22,37,12,25,72,,75,75,10,14,9,7,0.7,0.8
2026-02-07T1800,1114A,121.5117,38.8636,大连市,七贤岭,,27,27,35,11,21,74,,77,77,14,15,10,10,0.4,0.6
2026-02-07T1800,1116A,121.7507,39.1339,大连市,金州,,32,32,46,20,28,68,,74,74,18,16,11,9,0.3,0.4
2026-02-07T1800,1117A,121.7811,39.0495,大连市,开发区,,50,50,40,17,24,76,,78,78,11,13,8,8,0.3,0.5
2026-02-07T1800,1118A,121.9762,39.0631,大连市,双D港,,43,,41,30,27,82,,83,83,10,14,9,9,0.5,0.5
2026-02-07T1800,4082A,121.2548,38.8188,大连市,旅顺,,29,29,33,15,24,70,,74,74,10,10,7,6,0.6,0.7
2026-02-07T1800,1789A,124.8085,46.0381,大庆市,大同区,,28,28,53,19,35,50,,64,63,23,25,7,8,0.5,0.7
2026-02-07T1800,1790A,125.1166,46.5255,大庆市,龙凤区,,33,31,43,23,26,51,,57,57,27,24,12,13,0.4,0.4
2026-02-07T1800,1791A,124.8894,46.4007,大庆市,红岗区,,37,37,38,24,23,49,,58,58,23,22,6,9,0.6,0.6
2026-02-07T1800,1792A,125.1391,46.578,大庆市,萨尔图区,,27,27,30,14,17,49,,57,57,22,20,8,9,0.5,0.5
2026-02-07T1800,1793A,124.9026,46.6217,大庆市,让胡路区,,32,32,32,21,20,58,,64,64,15,18,9,9,0.5,0.5
2026-02-07T1800,3481A,125.127,46.6277,大庆市,萨区政府监测点,,30,30,31,17,18,50,,65,64,22,20,8,9,0.6,0.7
2026-02-07T1800,1723A,113.2926,40.0759,大同市,云冈宾馆,,22,19,31,8,10,69,,68,68,8,17,4,7,0.3,0.5
2026-02-07T1800,1724A,113.3437,40.0921,大同市,大同大学,,25,25,36,9,18,75,,73,73,7,19,2,8,0.4,0.8
2026-02-07T1800,1725A,113.2637,40.129,大同市,安家小村,,23,23,35,6,13,69,,68,68,9,14,5,10,0.3,1.1
2026-02-07T1800,3282A,113.3399,40.0586,大同市,大同市卫生学校,,26,25,35,7,17,81,,76,76,11,22,2,6,0.4,0.8
2026-02-07T1800,3565A,113.1371,40.1122,大同市,云冈站,,22,13,38,3,13,70,,72,72,8,23,4,10,0.4,0.6
2026-02-07T1800,3566A,113.1186,40.2556,大同市,图书馆,,29,29,32,13,13,72,,74,74,8,11,2,5,0.2,0.7
2026-02-07T1800,3567A,113.5931,40.0459,大同市,区一中,,33,33,58,7,35,76,,72,72,6,19,8,12,0.3,0.7
2026-02-07T1800,4199A,113.2798248,40.09972476,大同市,魏都大道141号,,30,30,35,13,12,69,,69,69,10,19,2,7,0.3,0.7
2026-02-07T1800,2269A,124.1068,50.4091,大兴安岭地区,科技局,,22,17,22,8,10,68,,68,68,5,3,6,5,0.2,0.2
2026-02-07T1800,3663A,124.117,50.4279,大兴安岭地区,红旗社区,,26,,19,9,13,82,,79,79,2,10,4,5,0.2,0.3
2026-02-07T1800,1600A,124.33,40.0625,丹东市,江湾东路,,37,37,39,16,13,66,,68,68,12,13,5,7,0.5,0.6
2026-02-07T1800,1601A,124.4242,40.1513,丹东市,临江后街,,35,35,34,17,13,62,,67,67,15,12,8,8,0.6,0.6
2026-02-07T1800,1602A,124.3935,40.1461,丹东市,元宝山,,32,32,32,14,13,65,,67,67,9,12,7,10,0.5,0.6
2026-02-07T1800,1603A,124.3634,40.1093,丹东市,民主桥,,42,42,40,17,16,59,,64,63,17,16,9,10,0.4,0.6
2026-02-07T1800,3541A,109.5726195,19.51688767,儋州市,第一中学子站,,25,21,24,9,12,79,,70,70,3,3,4,4,0.6,0.6
2026-02-07T1800,3542A,109.5567,19.5187,儋州市,东坡学校子站,,27,12,24,8,12,85,,74,74,5,6,4,4,0.6,0.6
2026-02-07T1800,2616A,98.5611,24.4273,德宏傣族景颇族自治州,德宏州监测站,,32,31,49,22,32,98,,83,83,8,25,6,6,0.8,1
2026-02-07T1800,3677A,98.5887,24.4366,德宏傣族景颇族自治州,芒市人民政府综合楼,,33,33,50,18,27,90,,78,78,8,15,4,4,0.5,0.7
2026-02-07T1800,1901A,104.424,31.1209,德阳市,东山公园,,49,49,72,31,49,85,,76,76,8,14,1,1,0.6,0.8
2026-02-07T1800,1902A,104.3827,31.1318,德阳市,西小区,颗粒物(PM10),54,57,83,20,50,83,,78,78,12,19,2,3,0.4,0.6
2026-02-07T1800,1904A,104.3553,31.1091,德阳市,耐火材料厂,颗粒物(PM10),52,53,75,22,53,68,,68,68,24,21,1,2,0.4,0.6
2026-02-07T1800,4145A,104.4144,31.1495,德阳市,市林业局,,44,44,77,20,50,79,,73,73,7,19,4,4,0.6,0.8
2026-02-07T1800,1622A,116.3034,37.4675,德州市,儿童乐园,,36,36,58,11,37,71,,66,66,19,22,11,9,0.5,0.6
2026-02-07T1800,1624A,116.2992,37.4449,德州市,监理站,,29,29,56,8,35,80,,73,73,16,19,8,8,0.5,0.6
2026-02-07T1800,3066A,116.2722,37.438,德州市,九衢泉纯净水厂,,,27,52,8,38,78,,67,67,17,27,5,3,,0.6
2026-02-07T1800,3371A,116.3693,37.44,德州市,开发区人民医院,,34,34,56,12,35,72,,67,67,12,17,9,9,0.4,0.5
2026-02-07T1800,3511A,116.5687,37.3331,德州市,陵城艺术中心,,34,34,54,21,41,63,,56,56,20,25,8,8,0.6,0.7
2026-02-07T1800,4292A,116.352738,37.420875,德州市,新河东路,,31,31,52,11,32,73,,69,69,17,19,10,10,0.6,0.6
2026-02-07T1800,2621A,99.7054,27.8319,迪庆藏族自治州,迪庆州站,,25,13,27,8,16,77,,78,78,6,10,5,5,0.6,0.7
2026-02-07T1800,3180A,99.7122,27.8129,迪庆藏族自治州,质量技术监督局,,26,23,26,18,12,82,,82,82,7,11,5,5,0.5,0.5
2026-02-07T1800,4257A,104.6092,35.5962,定西市,将台街,颗粒物(PM10),67,84,92,41,32,101,,91,91,2,6,8,8,0.3,0.3
2026-02-07T1800,4309A,104.6159,35.5701,定西市,正龙路62号,颗粒物(PM10),66,81,96,33,33,97,,90,90,4,7,6,4,0.4,0.4
2026-02-07T1800,1390A,113.7943,23.0132,东莞市,东城石井,,30,30,34,14,17,96,,101,101,18,27,6,6,0.8,0.7
2026-02-07T1800,1391A,113.7384,22.9659,东莞市,南城西平,,28,21,26,12,15,88,,95,95,23,35,6,6,0.8,0.6
2026-02-07T1800,3319A,113.7283,23.041,东莞市,万江金泰,,28,24,34,13,19,87,,92,92,15,31,5,6,1.1,0.9
2026-02-07T1800,4129A,113.8666,23.1062,东莞市,裕兴路,,26,21,44,10,22,81,,81,81,11,31,5,5,1.0,1
2026-02-07T1800,4130A,114.0076,22.9739,东莞市,教育路1号,,30,24,43,10,19,93,,99,99,18,41,4,4,0.8,0.7
2026-02-07T1800,4131A,113.7981,22.8124,东莞市,长怡路1号,,36,33,39,14,15,113,,117,117,14,40,6,7,0.9,0.8
2026-02-07T1800,1666A,118.6612,37.4313,东营市,市环保局,,36,36,29,7,14,64,,66,66,24,22,7,9,0.6,0.5
2026-02-07T1800,3036A,118.6903,37.4337,东营市,开发区管委会,颗粒物(PM10),53,55,33,8,13,62,,66,66,21,14,8,9,0.5,0.4
2026-02-07T1800,3365A,118.5721,37.5654,东营市,垦利区民丰路,,36,36,30,3,12,60,,60,60,17,17,8,5,0.7,0.7
2026-02-07T1800,3498A,118.5063,37.8606,东营市,河口城区,,36,36,37,3,15,80,,70,70,20,22,3,3,0.6,0.8
2026-02-07T1800,3646A,118.4979,37.4623,东营市,胜利站,,42,42,32,11,12,58,,65,65,27,23,6,7,0.3,0.7
2026-02-07T1800,3734A,118.5753,37.4405,东营市,理想之城,,36,36,35,8,13,70,,75,75,20,13,3,4,0.5,0.4
2026-02-07T1800,1591A,110.0024,39.8127,鄂尔多斯市,综合楼,,44,44,32,3,4,79,,82,82,12,10,5,6,0.2,0.3
2026-02-07T1800,1592A,109.9485,39.8259,鄂尔多斯市,巴音孟克林场办事处,,36,36,30,7,5,88,,87,87,8,10,5,6,0.3,0.3
2026-02-07T1800,1593A,109.7734,39.5987,鄂尔多斯市,康泽苑,,30,19,24,7,6,93,,91,91,5,6,3,4,0.2,0.3
2026-02-07T1800,1594A,109.8121,39.5987,鄂尔多斯市,华泰汽车城,,29,27,27,11,7,92,,90,90,5,6,5,6,0.2,0.2
2026-02-07T1800,1595A,109.9734,39.7884,鄂尔多斯市,奥林花园,,39,39,34,3,2,87,,85,85,11,14,5,5,0.3,0.3
2026-02-07T1800,2436A,114.894,30.3989,鄂州市,市政府,细颗粒物(PM2.5),54,55,27,38,20,63,,60,60,17,17,5,5,0.5,0.5
2026-02-07T1800,2437A,114.8986,30.3714,鄂州市,赵家坝,细颗粒物(PM2.5),64,56,32,46,19,73,,67,67,3,4,8,8,0.4,0.4
2026-02-07T1800,3654A,114.8093,30.4091,鄂州市,精准医疗中心,颗粒物(PM10),58,66,38,34,20,74,,71,71,8,7,4,7,0.6,0.6
2026-02-07T1800,2454A,109.4978,30.2979,恩施土家族苗族自治州,湖北民院,细颗粒物(PM2.5),124,,83,94,78,60,,62,62,20,21,6,6,1.0,1.1
2026-02-07T1800,3549A,109.5061,30.3771,恩施土家族苗族自治州,龙凤新区,细颗粒物(PM2.5),109,92,86,82,65,45,,57,57,9,13,7,7,0.8,0.8
2026-02-07T1800,2499A,108.3411,21.6159,防城港市,沙万,颗粒物(PM10),62,73,55,42,35,85,,72,72,14,24,7,7,0.9,0.8
2026-02-07T1800,2500A,108.3515,21.7733,防城港市,防城档案局,细颗粒物(PM2.5),72,82,59,52,38,88,,75,75,13,18,6,5,0.9,0.8
2026-02-07T1800,2501A,108.3506,21.6414,防城港市,大海花园,细颗粒物(PM2.5),68,72,50,49,42,91,,79,79,14,23,7,7,0.9,0.7
2026-02-07T1800,1371A,113.1293,23.0065,佛山市,湾梁,,29,29,34,11,16,84,,84,84,16,20,/,/,/,/
2026-02-07T1800,1372A,113.1082,23.0477,佛山市,华材职中,,40,,45,28,32,88,,86,86,11,23,6,6,1.0,0.9
2026-02-07T1800,1373A,113.1439,23.045,佛山市,南海气象局,,26,26,38,14,24,82,,84,84,18,24,/,/,/,/
2026-02-07T1800,1374A,113.2879,22.8094,佛山市,顺德苏岗,,34,34,41,15,22,100,,99,99,21,31,/,/,1.0,1
2026-02-07T1800,1376A,112.8384,22.8678,佛山市,高明孔堂,,34,34,35,19,21,88,,81,81,18,19,/,/,/,/
2026-02-07T1800,1377A,112.8835,23.1584,佛山市,三水监测站,,39,39,47,19,25,65,,65,65,15,27,1,3,0.7,0.7
2026-02-07T1800,1378A,112.8668,23.185,佛山市,三水云东海,,25,22,38,17,20,66,,66,66,18,22,/,/,/,/
2026-02-07T1800,3625A,113.2568,22.7629,佛山市,容桂街道办,,36,36,40,16,22,95,,95,95,23,32,/,/,/,/
2026-02-07T1800,1282A,119.2681,26.0506,福州市,师大,,29,29,16,9,6,77,,69,64,18,18,2,2,0.4,0.4
2026-02-07T1800,1283A,119.2983,26.1028,福州市,五四北路,,28,28,14,11,6,78,,72,63,15,16,4,4,0.3,0.4
2026-02-07T1800,1284A,119.2648,26.0769,福州市,杨桥西路,,26,26,16,3,9,74,,69,61,18,18,3,3,/,/
2026-02-07T1800,3048A,119.5799,26.0937,福州市,九龙,,32,29,14,15,3,100,,82,82,11,11,4,4,0.5,0.5
2026-02-07T1800,3526A,119.5188,25.9666,福州市,吴航,,31,31,10,18,6,97,,81,81,11,10,4,4,0.6,0.5
2026-02-07T1800,4104A,119.3106,26.0648,福州市,路通桥巷6号,,26,21,14,18,11,73,,66,61,14,14,/,/,/,/
2026-02-07T1800,1755A,123.7974,41.8494,抚顺市,望花区,,37,37,70,20,39,58,,59,59,15,31,7,10,0.6,0.8
2026-02-07T1800,1756A,123.9161,41.8827,抚顺市,顺城区,,33,33,59,16,40,62,,62,62,17,42,9,9,0.5,0.9
2026-02-07T1800,1757A,124.0437,41.8615,抚顺市,东洲区,,38,38,64,19,38,59,,58,58,12,18,6,9,0.5,0.7
2026-02-07T1800,1758A,123.9246,41.8638,抚顺市,新抚区,,43,43,78,18,38,71,,67,67,17,42,6,8,0.7,1
2026-02-07T1800,1759A,124.0972,41.8961,抚顺市,大伙房水库,,34,34,47,14,29,60,,64,64,16,18,10,10,0.6,0.7
2026-02-07T1800,1760A,123.708,41.8386,抚顺市,沈抚新城,,40,40,60,19,32,55,,56,56,15,36,7,7,0.4,0.8
2026-02-07T1800,2377A,116.3544,27.9833,抚州市,市站,,30,27,23,21,17,79,,64,64,9,10,8,5,1.7,1.3
2026-02-07T1800,2378A,116.3562,27.9631,抚州市,血防站,,35,32,28,24,15,74,,58,58,10,11,5,4,0.6,0.7
2026-02-07T1800,2379A,116.3561,28.0007,抚州市,采茶剧团,,36,29,22,25,15,72,,57,57,5,6,4,4,0.9,0.9
2026-02-07T1800,2380A,116.3854,27.9648,抚州市,医学分院,,34,34,29,19,11,72,,43,,8,10,4,5,0.8,0.8
2026-02-07T1800,2207A,121.6095,41.9978,阜新市,工业园区,,38,38,70,3,24,68,,72,72,10,28,8,16,0.3,0.6
2026-02-07T1800,2208A,121.6567,42.0188,阜新市,长青街,,23,17,20,3,9,72,,75,75,6,10,6,7,0.3,0.4
2026-02-07T1800,2209A,121.6672,42.07,阜新市,农业园区,,26,26,24,3,7,67,,69,69,7,8,5,7,0.2,0.2
2026-02-07T1800,2211A,121.6343,42.0455,阜新市,玉龙新城,,26,26,46,6,24,63,,72,71,15,30,4,6,0.5,0.7
2026-02-07T1800,2301A,115.8276,32.8929,阜阳市,市监测站,颗粒物(PM10),73,96,67,49,24,62,,59,59,26,18,5,4,0.5,0.4
2026-02-07T1800,2303A,115.8551,32.8606,阜阳市,开发区,颗粒物(PM10),68,86,58,42,22,63,,59,59,21,14,6,4,0.4,0.3
2026-02-07T1800,2875A,115.783962,32.889217,阜阳市,阜阳职业技术学院,细颗粒物(PM2.5),77,102,63,56,24,68,,64,64,19,13,6,5,0.4,0.4
2026-02-07T1800,3468A,115.79,32.8614,阜阳市,市规划展馆,细颗粒物(PM2.5),67,79,60,48,24,66,,61,61,19,14,7,5,0.4,0.3
2026-02-07T1800,3469A,115.835101,32.918568,阜阳市,枣园社区,颗粒物(PM10),72,94,64,48,25,67,,62,62,19,15,7,6,0.6,0.5
2026-02-07T1800,2669A,102.9097,34.9841,甘南藏族自治州,州政府,,34,34,72,22,32,87,,78,78,6,8,6,5,0.3,0.4
2026-02-07T1800,3380A,102.8915,34.9618,甘南藏族自治州,甘肃民族师范学院,,50,50,82,14,27,95,,84,84,4,14,6,8,0.2,0.3
2026-02-07T1800,2570A,101.96,30.048,甘孜藏族自治州,水桥子,,23,,16,3,8,72,,66,66,3,13,6,6,0.7,0.4
2026-02-07T1800,3065A,101.9534,29.9976,甘孜藏族自治州,州环保局,,25,,15,7,10,80,,81,81,11,9,6,6,1.0,0.6
2026-02-07T1800,2363A,114.9368,25.8663,赣州市,地委,,39,37,24,27,15,53,,62,57,15,13,6,6,0.4,0.5
2026-02-07T1800,2364A,114.946,25.8483,赣州市,气象台,,46,46,30,23,14,52,,63,58,17,15,6,5,0.5,0.5
2026-02-07T1800,2365A,114.932,25.8332,赣州市,市图书馆,,28,23,20,19,13,49,,58,54,18,14,4,4,0.8,0.9
2026-02-07T1800,2366A,114.8905,25.8472,赣州市,华坚鞋城,,35,30,25,24,14,48,,57,54,18,15,4,4,0.5,0.7
2026-02-07T1800,3109A,115.0094,25.8614,赣州市,赣县区卫计委,,22,22,16,13,12,57,,70,61,8,9,7,7,0.7,0.8
2026-02-07T1800,2684A,106.2753,36.0057,固原市,监测站,颗粒物(PM10),59,68,77,26,22,59,,71,69,16,12,6,7,0.4,0.4
2026-02-07T1800,2685A,106.2384,36.0189,固原市,新区,颗粒物(PM10),63,76,73,32,22,85,,85,85,6,8,7,7,0.3,0.4
2026-02-07T1800,2544A,106.6307,30.4577,广安市,市委,细颗粒物(PM2.5),78,71,93,57,74,65,,57,54,16,29,6,6,0.8,1.1
2026-02-07T1800,2545A,106.6266,30.4662,广安市,友谊中学,细颗粒物(PM2.5),68,66,85,49,61,70,,62,56,18,27,5,6,0.9,1.1
2026-02-07T1800,2547A,106.6386,30.4551,广安市,广电花园,细颗粒物(PM2.5),82,72,83,60,80,58,,50,45,16,26,6,6,0.7,1
2026-02-07T1800,2902A,106.6347,30.4868,广安市,北辰小学,细颗粒物(PM2.5),79,63,81,58,70,65,,60,57,12,15,7,8,0.7,0.9
2026-02-07T1800,2524A,105.8211,32.4444,广元市,老城,颗粒物(PM10),63,75,79,17,35,74,,79,71,20,32,1,11,0.5,0.7
2026-02-07T1800,2526A,105.8629,32.429,广元市,监测站,颗粒物(PM10),55,60,65,18,33,69,,78,74,20,20,4,6,0.7,0.8
2026-02-07T1800,3617A,105.8047,32.4167,广元市,经开区,颗粒物(PM10),54,58,69,25,38,70,,72,67,17,28,2,2,0.5,0.7
2026-02-07T1800,1345A,113.2346,23.1423,广州市,广雅中学,,26,26,54,17,30,75,,80,80,18,36,3,3,0.8,0.9
2026-02-07T1800,1346A,113.2611,23.105,广州市,市五中,,29,25,45,15,27,92,,97,97,16,30,6,7,/,/
2026-02-07T1800,1348A,113.3477,23.0916,广州市,广东商学院,,28,23,45,12,26,88,,90,90,12,30,5,5,0.7,0.8
2026-02-07T1800,1349A,113.4332,23.105,广州市,市八十六中,,28,25,42,17,25,88,,93,93,18,44,7,8,/,/
2026-02-07T1800,1350A,113.3506,22.9488,广州市,番禺中学,,,,52,16,26,92,,90,90,16,36,3,3,0.8,0.9
2026-02-07T1800,1351A,113.2147,23.3918,广州市,花都师范,,25,23,42,11,24,80,,74,74,20,26,6,6,0.8,0.9
2026-02-07T1800,1352A,113.2599,23.1329,广州市,市监测站,,28,28,48,16,27,83,,85,85,12,29,2,2,/,/
2026-02-07T1800,1353A,113.5618,23.3119,广州市,九龙镇镇龙,,25,20,45,13,24,80,,81,81,10,27,4,5,0.8,0.8
2026-02-07T1800,1354A,113.2764,23.1544,广州市,麓湖,,29,29,43,14,25,85,,88,88,18,41,4,4,0.7,0.8
2026-02-07T1800,2846A,113.3209,23.1323,广州市,体育西,,30,30,50,21,31,81,,85,85,18,41,6,6,1.0,1.1
2026-02-07T1800,3298A,113.5718,23.5493,广州市,从化街口,,27,18,39,11,24,85,,80,80,14,25,6,7,0.8,0.8
2026-02-07T1800,3299A,113.3463,23.369,广州市,白云竹料,,29,22,46,14,27,91,,87,87,12,28,4,4,0.8,0.8
2026-02-07T1800,3300A,113.2981,23.2365,广州市,白云嘉禾,,27,27,50,14,26,83,,85,85,18,38,6,6,/,/
2026-02-07T1800,3301A,113.4256,23.1716,广州市,黄埔科学城,,29,22,42,14,26,92,,95,95,13,31,3,3,0.8,0.8
2026-02-07T1800,3302A,113.3942,23.0485,广州市,番禺大学城,,30,30,48,10,21,93,,96,96,10,32,7,8,0.7,0.7
2026-02-07T1800,3303A,113.4923,22.8169,广州市,南沙黄阁,,41,41,46,14,21,95,,111,111,24,40,6,6,/,/
2026-02-07T1800,3304A,113.534,22.7893,广州市,南沙街,颗粒物(PM10),51,52,43,17,20,92,,108,108,25,35,5,6,0.9,0.8
2026-02-07T1800,3443A,113.2905,23.5541,广州市,花都梯面,,,19,30,12,20,78,,69,69,,14,6,6,/,/
2026-02-07T1800,3445A,113.786,23.7479,广州市,从化良口,,27,12,21,10,16,86,,82,82,9,13,8,8,/,/
2026-02-07T1800,3446A,113.805,23.2614,广州市,增城荔城,,,20,33,13,20,,,78,,12,22,5,5,0.7,0.6
2026-02-07T1800,2506A,109.604387,23.066791,贵港市,江南子站,颗粒物(PM10),57,63,49,34,32,65,,64,64,17,16,4,5,1.0,1
2026-02-07T1800,2508A,109.5669,23.1065,贵港市,荷城子站,细颗粒物(PM2.5),57,58,43,40,31,55,,50,50,17,14,6,6,1.2,1.2
2026-02-07T1800,3405A,109.5886,23.1172,贵港市,新世纪学校,细颗粒物(PM2.5),60,61,49,43,36,60,,54,54,18,18,/,/,0.8,0.8
2026-02-07T1800,4260A,109.5933,23.095,贵港市,中山路155-3号,细颗粒物(PM2.5),58,54,43,41,33,65,,60,60,15,14,/,/,1.0,1
2026-02-07T1800,1439A,106.6863,26.6035,贵阳市,马鞍山,,29,,35,20,28,52,,43,43,12,16,4,4,/,/
2026-02-07T1800,1441A,106.6241,26.6266,贵阳市,鉴湖路,,24,24,46,6,29,38,,42,39,18,18,3,3,0.7,0.7
2026-02-07T1800,1442A,106.7468,26.6344,贵阳市,燕子冲,,24,24,39,16,27,56,,51,51,12,12,8,7,0.8,0.6
2026-02-07T1800,1443A,106.6556,26.4362,贵阳市,碧云窝,,29,29,51,15,34,51,,42,42,13,20,12,16,/,/
2026-02-07T1800,1445A,106.6963,26.6063,贵阳市,红边门,,28,22,18,19,31,54,,46,46,16,20,9,11,/,/
2026-02-07T1800,1446A,106.7162383,26.56964667,贵阳市,新华路,,22,22,47,13,30,49,,45,45,20,23,5,7,0.5,0.5
2026-02-07T1800,1447A,106.6742,26.542,贵阳市,太慈桥,,22,22,39,14,28,51,,44,44,15,22,2,3,/,/
2026-02-07T1800,4230A,106.688212,26.56952,贵阳市,花果园大街66号,,26,,34,18,30,46,,40,40,14,20,3,3,/,/
2026-02-07T1800,4231A,106.687268,26.516892,贵阳市,漓江路57号,,29,22,41,20,30,47,,39,39,15,22,6,7,0.8,0.8
2026-02-07T1800,1864A,110.3091,25.2705,桂林市,龙隐路小学,,,37,43,20,34,58,,70,66,14,14,2,2,,0.8
2026-02-07T1800,1865A,110.2849361,25.22909545,桂林市,八中,,35,35,43,10,20,50,,60,54,17,15,2,2,1.0,0.9
2026-02-07T1800,3531A,110.296,25.1254,桂林市,旅游学院,,29,28,50,20,36,61,,74,69,12,11,4,4,1.0,0.9
2026-02-07T1800,4222A,110.1835,25.2444,桂林市,环湖路276号,,35,29,55,24,39,54,,66,60,18,16,2,2,1.1,1
2026-02-07T1800,4301A,110.2803,25.2773,桂林市,信义路13号,,31,31,46,21,38,53,,69,60,15,14,4,4,1.2,1.2
2026-02-07T1800,2674A,100.2262,34.4854,果洛藏族自治州,玛沁县大武镇,,28,24,32,3,11,89,,81,81,2,4,12,18,0.2,0.3
2026-02-07T1800,1130A,126.5557,45.8109,哈尔滨市,松北商大,细颗粒物(PM2.5),57,,51,40,47,42,,56,55,27,33,7,12,0.7,0.9
2026-02-07T1800,1132A,126.6162,45.719,哈尔滨市,南岗学府路,,32,32,53,17,36,61,,64,64,14,28,7,9,0.7,1
2026-02-07T1800,1133A,126.6894,45.7733,哈尔滨市,太平宏伟公园,,45,32,68,31,53,57,,63,63,9,16,18,17,0.7,1.2
2026-02-07T1800,1134A,126.6361,45.7672,哈尔滨市,道外承德广场,,48,48,51,28,25,59,,65,65,23,23,12,11,0.9,0.8
2026-02-07T1800,1136A,126.644,45.7261,哈尔滨市,动力和平路,,38,29,42,26,28,60,,64,64,14,22,6,9,0.9,0.9
2026-02-07T1800,1137A,126.5933,45.7479,哈尔滨市,道里建国路,,28,22,43,19,34,53,,60,60,28,29,7,10,0.8,0.9
2026-02-07T1800,1138A,126.6127,45.6119,哈尔滨市,平房东轻厂,颗粒物(PM10),53,55,60,36,50,21,,58,56,56,48,9,7,0.9,1
2026-02-07T1800,1139A,126.5875,45.9827,哈尔滨市,呼兰师专,细颗粒物(PM2.5),74,,83,54,64,44,,55,55,34,34,10,12,0.8,1.1
2026-02-07T1800,1140A,126.6299,45.6799,哈尔滨市,省农科院,,46,42,76,32,61,50,,57,57,17,47,15,18,0.8,1.2
2026-02-07T1800,4282A,126.6769,45.7379,哈尔滨市,华山路1号,,39,39,48,21,31,54,,60,60,21,25,5,8,0.8,1
2026-02-07T1800,4283A,126.9717,45.5356,哈尔滨市,解放大街52号,颗粒物(PM10),51,52,56,26,44,54,,60,60,23,20,13,11,0.6,0.7
2026-02-07T1800,2688A,93.5124,42.8176,哈密市,地区监测站,颗粒物(PM10),120,189,376,44,73,66,,63,63,5,16,4,4,0.0,0.3
2026-02-07T1800,2689A,93.5014,42.8312,哈密市,哈密师范学校,颗粒物(PM10),108,165,342,38,54,65,,62,62,7,19,1,2,0.3,0.4
2026-02-07T1800,2671A,100.9016,36.9464,海北藏族自治州,海晏县西海镇,,31,25,55,18,26,98,,87,87,1,3,8,7,0.4,0.4
2026-02-07T1800,3867A,102.074,36.5056,海东市,平安区公安局北苑,,49,42,76,34,41,85,,71,71,5,8,7,10,0.5,0.6
2026-02-07T1800,4163A,102.0984,36.5119,海东市,滨河路,颗粒物(PM10),54,58,75,28,36,89,,81,81,20,20,6,11,0.6,0.6
2026-02-07T1800,1410A,110.3189,20.0596,海口市,海南大学,,42,24,21,15,12,133,,100,100,8,6,6,5,0.4,0.4
2026-02-07T1800,1411A,110.2827,20.0051,海口市,秀英海南医院,,35,17,20,14,11,110,,90,90,7,10,7,7,0.3,0.3
2026-02-07T1800,1412A,110.3391,19.9979,海口市,海南师范大学,,35,24,21,16,13,111,,91,91,6,7,6,5,0.4,0.4
2026-02-07T1800,1413A,110.3303,20.0359,海口市,龙华路环保局宿舍,,41,21,19,19,13,130,,100,100,9,8,/,/,0.7,0.6
2026-02-07T1800,3539A,110.5111,19.9737,海口市,桂林洋子站,,31,21,22,12,14,97,,92,92,8,7,/,/,/,/
2026-02-07T1800,4134A,110.1952,20.0451,海口市,长滨二路9号,,40,24,17,18,10,126,,91,91,8,9,/,/,/,/
2026-02-07T1800,2673A,100.6158,36.2985,海南藏族自治州,共和县恰卜恰镇,,42,42,50,18,18,96,,93,93,2,8,11,11,0.4,0.5
2026-02-07T1800,2676A,97.373,37.376,海西蒙古族藏族自治州,德令哈市,,39,39,46,9,10,108,,112,112,11,4,19,18,0.5,0.4
2026-02-07T1800,1049A,114.492,36.5712,邯郸市,矿院,细颗粒物(PM2.5),78,58,54,57,34,80,,69,69,18,19,3,2,0.5,0.4
2026-02-07T1800,1050A,114.4839,36.6136,邯郸市,丛台公园,细颗粒物(PM2.5),67,68,58,48,33,82,,73,73,16,20,5,4,0.5,0.5
2026-02-07T1800,3458A,114.7893,36.5592,邯郸市,香泉濮院小区,,40,29,42,28,25,81,,73,73,7,10,3,2,0.4,0.4
2026-02-07T1800,3580A,114.1998,36.4439,邯郸市,峰峰矿区临水派出所,细颗粒物(PM2.5),55,57,56,39,28,86,,75,75,5,10,7,5,0.7,0.7
2026-02-07T1800,4068A,114.5209,36.7697,邯郸市,建安街268号,细颗粒物(PM2.5),64,,59,46,38,74,,64,64,6,13,4,3,0.5,0.4
2026-02-07T1800,4069A,114.5488,36.6177,邯郸市,丛台东路558号,细颗粒物(PM2.5),53,50,51,37,21,85,,76,76,5,12,3,4,0.7,0.5
2026-02-07T1800,2635A,107.0155,33.0707,汉中市,市监测站,颗粒物(PM10),61,72,73,34,38,75,,83,78,19,20,4,5,0.5,0.6
2026-02-07T1800,2636A,107.0083,33.114,汉中市,鑫源开发区,颗粒物(PM10),60,69,64,37,38,86,,85,83,13,17,4,4,0.5,0.6
2026-02-07T1800,2637A,107.0072,33.0323,汉中市,南郑大河坎水厂,颗粒物(PM10),63,75,79,31,42,77,,77,75,15,24,6,7,0.5,0.6
2026-02-07T1800,1223A,120.2073,30.2111,杭州市,滨江,,38,38,24,20,11,42,,50,40,26,23,6,6,0.3,0.3
2026-02-07T1800,1224A,120.0625,30.2737,杭州市,西溪,,37,37,30,25,19,47,,50,47,22,23,8,8,0.5,0.5
2026-02-07T1800,1226A,120.3417,30.315,杭州市,下沙,,36,34,28,25,17,42,,49,47,25,20,7,7,0.4,0.4
2026-02-07T1800,1227A,120.1252,30.2465,杭州市,卧龙桥,,36,32,22,25,15,47,,50,45,10,14,9,8,0.3,0.3
2026-02-07T1800,1228A,120.1902,30.2691,杭州市,浙江农大,,40,40,24,20,11,45,,57,48,31,27,5,5,0.5,0.4
2026-02-07T1800,1230A,120.1195,30.3121,杭州市,和睦小学,,36,36,24,23,16,41,,52,46,24,19,4,4,0.6,0.5
2026-02-07T1800,1231A,120.3076,30.4146,杭州市,临平镇,,43,43,25,25,17,47,,56,54,16,10,6,6,0.5,0.5
2026-02-07T1800,1232A,120.2753,30.1839,杭州市,城厢镇,,36,35,30,25,14,48,,57,48,19,18,6,6,0.6,0.5
2026-02-07T1800,1233A,120.0883,30.1808,杭州市,云栖,,30,30,22,20,12,48,,47,45,11,13,4,4,0.6,0.5
2026-02-07T1800,3557A,119.9463,30.0496,杭州市,镇二中,,35,24,14,24,15,48,,51,44,20,20,4,4,0.6,0.6
2026-02-07T1800,3558A,119.7184,30.2367,杭州市,市府大楼,,38,26,13,26,14,47,,49,43,13,12,9,9,0.6,0.6
2026-02-07T1800,3656A,120.1554,30.2863,杭州市,消防大队,,35,35,27,24,15,40,,51,44,25,20,5,5,0.6,0.5
2026-02-07T1800,1270A,117.1957,31.7845,合肥市,明珠广场,颗粒物(PM10),62,73,38,39,18,57,,55,55,17,13,6,5,0.4,0.3
2026-02-07T1800,1271A,117.307,31.8765,合肥市,三里街,颗粒物(PM10),59,68,35,31,12,56,,56,56,20,16,5,4,0.8,0.7
2026-02-07T1800,1272A,117.2587,31.8703,合肥市,琥珀山庄,颗粒物(PM10),62,73,40,37,19,58,,58,58,16,13,7,6,0.7,0.6
2026-02-07T1800,1275A,117.2593,31.9376,合肥市,庐阳区,颗粒物(PM10),60,70,38,35,12,58,,59,59,21,16,4,4,0.5,0.4
2026-02-07T1800,1276A,117.345251,31.861615,合肥市,瑶海区,颗粒物(PM10),58,66,33,31,12,61,,60,60,21,14,4,4,0.6,0.6
2026-02-07T1800,1277A,117.3033,31.7967,合肥市,包河区,颗粒物(PM10),58,66,37,30,13,48,,48,48,27,24,5,5,0.7,0.6
2026-02-07T1800,1278A,117.278,31.7392,合肥市,滨湖新区,颗粒物(PM10),59,68,38,29,12,55,,54,54,18,14,1,2,0.6,0.5
2026-02-07T1800,1279A,117.1324,31.8395,合肥市,高新区,颗粒物(PM10),63,75,40,33,14,65,,60,60,12,10,3,3,0.4,0.4
2026-02-07T1800,3464A,117.3802,31.9148,合肥市,高教基地,颗粒物(PM10),59,68,35,28,11,66,,64,64,20,12,7,7,0.5,0.4
2026-02-07T1800,4098A,117.2518,31.8404,合肥市,中国科学技术大学,颗粒物(PM10),58,66,35,32,12,60,,61,61,13,8,6,6,0.5,0.4
2026-02-07T1800,3614A,79.9241,37.0878,和田地区,地区环保局,颗粒物(PM10),500,1018,678,128,106,88,,77,77,4,15,1,3,0.7,1
2026-02-07T1800,3615A,79.9132,37.1137,和田地区,市环保局,颗粒物(PM10),500,850,603,105,108,108,,92,92,4,18,3,2,0.6,0.8
2026-02-07T1800,2517A,108.0496,24.6957,河池市,市环保站,,38,36,22,26,18,42,,45,45,21,14,4,4,0.9,0.8
2026-02-07T1800,4302A,108.0901,24.6945,河池市,上任中路54号,,40,40,25,22,18,36,,42,42,16,13,5,5,1.1,1.1
2026-02-07T1800,1697A,114.6962,23.7538,河源市,东埔,,25,19,27,12,18,80,,85,85,9,20,5,5,0.8,0.9
2026-02-07T1800,1698A,114.6895,23.7232,河源市,老城,,25,22,25,6,21,80,,87,86,9,19,6,6,0.7,0.5
2026-02-07T1800,3374A,115.5562,35.089,菏泽市,定陶老年大学,颗粒物(PM10),59,68,68,41,34,86,,81,81,16,20,7,6,0.5,0.5
2026-02-07T1800,4114A,115.4239,35.2593,菏泽市,黄河路600号,颗粒物(PM10),58,66,70,36,37,88,,86,86,20,21,6,4,0.5,0.5
2026-02-07T1800,4115A,115.5025,35.2727,菏泽市,菏泽市人社局,,48,48,63,31,35,76,,83,83,16,23,5,9,0.5,0.5
2026-02-07T1800,4184A,115.479691,35.244011,菏泽市,永昌路1号,颗粒物(PM10),53,55,67,26,31,86,,88,88,24,20,4,5,0.5,0.5
2026-02-07T1800,4193A,115.471542,35.280012,菏泽市,长城路999号,颗粒物(PM10),59,67,73,30,38,83,,85,85,20,21,5,4,0.4,0.4
2026-02-07T1800,2514A,111.5264,24.4178,贺州市,环保小区,,40,31,30,28,23,41,,50,46,19,15,3,3,0.9,0.8
2026-02-07T1800,2515A,111.561,24.4074,贺州市,政协大楼,,42,38,31,29,23,31,,47,44,23,12,4,4,1.2,1.1
2026-02-07T1800,3534A,111.4744,24.455,贺州市,西湾,,45,45,35,27,22,38,,48,45,18,15,5,6,1.1,1
2026-02-07T1800,2385A,114.17,35.9019,鹤壁市,市监测站,,,82,71,35,35,68,,62,62,,18,,4,0.6,0.6
2026-02-07T1800,2386A,114.2953,35.7512,鹤壁市,市交警支队,细颗粒物(PM2.5),69,81,74,50,36,62,,55,55,23,30,8,6,0.5,0.5
2026-02-07T1800,2387A,114.2877,35.7302,鹤壁市,迎宾馆,细颗粒物(PM2.5),84,92,80,62,37,67,,60,60,25,23,2,7,0.6,0.6
2026-02-07T1800,3474A,114.2616,35.6824,鹤壁市,大新区,细颗粒物(PM2.5),93,69,76,69,40,68,,64,64,23,23,11,9,0.7,0.7
2026-02-07T1800,3596A,114.1573,35.9607,鹤壁市,南山宾馆,"颗粒物(PM10),细颗粒物(PM2.5)",69,88,81,50,38,67,,62,62,15,12,6,6,0.5,0.4
2026-02-07T1800,2244A,130.2537,47.3416,鹤岗市,哈啤分公司,,30,30,22,18,10,74,,77,77,5,4,8,7,0.4,0.4
2026-02-07T1800,2245A,130.2683,47.3087,鹤岗市,斯达机电,,26,26,24,9,8,69,,69,69,8,5,6,6,0.5,0.5
2026-02-07T1800,2246A,130.3114,47.3388,鹤岗市,东山纸板厂,,32,32,23,8,7,71,,74,74,5,3,7,7,0.4,0.5
2026-02-07T1800,2263A,127.4832,50.2524,黑河市,交通局,,49,49,22,21,16,40,,74,68,39,8,8,6,0.7,0.4
2026-02-07T1800,2264A,127.5146,50.2339,黑河市,环保局,,42,42,18,26,13,32,,72,65,48,11,7,5,0.5,0.4
2026-02-07T1800,1074A,115.6839,37.754,衡水市,电机北厂,细颗粒物(PM2.5),64,54,68,46,42,64,,59,59,21,30,6,5,0.2,0.3
2026-02-07T1800,1075A,115.6303,37.7318,衡水市,市监测站,细颗粒物(PM2.5),58,53,60,41,35,64,,60,60,24,28,7,6,0.5,0.5
2026-02-07T1800,3188A,115.6684,37.7216,衡水市,市城管局,细颗粒物(PM2.5),77,,59,56,37,61,,58,58,23,20,1,9,0.5,0.5
2026-02-07T1800,3459A,115.599,37.5491,衡水市,地表水厂,,39,36,48,27,32,66,,71,71,12,25,4,4,0.3,0.4
2026-02-07T1800,2457A,112.6209,26.9268,衡阳市,衡阳化工总厂,颗粒物(PM10),53,55,67,32,60,32,,40,34,16,14,7,8,0.8,1
2026-02-07T1800,2458A,112.621,26.8957,衡阳市,珠晖区环保局,颗粒物(PM10),53,56,70,34,56,30,,38,32,23,20,3,4,0.9,1.1
2026-02-07T1800,2459A,112.628,26.8654,衡阳市,市委党校,,47,47,67,32,63,36,,42,34,14,13,7,7,0.8,1.1
2026-02-07T1800,2460A,112.6007,26.8977,衡阳市,市监测站,颗粒物(PM10),58,65,90,35,64,33,,42,34,18,15,5,7,1.0,1.2
2026-02-07T1800,2461A,112.5658,26.9013,衡阳市,真空机电公司,颗粒物(PM10),56,62,83,38,70,36,,44,35,18,16,5,7,0.9,1
2026-02-07T1800,3399A,112.6703,26.8817,衡阳市,师范学院,,30,30,81,19,58,36,,40,,17,22,2,2,0.6,1.1
2026-02-07T1800,3038A,103.3757,23.3679,红河哈尼族彝族自治州,州图书馆,,43,32,44,30,34,93,,91,91,4,6,10,10,0.6,0.6
2026-02-07T1800,4154A,103.401,23.3561,红河哈尼族彝族自治州,蒙自市朝阳路,,42,,31,29,29,97,,94,94,4,6,6,7,0.4,0.4
2026-02-07T1800,1090A,111.6506,40.7517,呼和浩特市,呼市一监,颗粒物(PM10),60,70,25,22,11,75,,72,72,15,11,8,6,0.5,0.4
2026-02-07T1800,1094A,111.7516,40.8369,呼和浩特市,如意水处理厂,,25,15,22,3,7,78,,68,68,7,11,7,9,0.2,0.3
2026-02-07T1800,1095A,111.727798,40.806187,呼和浩特市,二十九中,,,51,24,17,8,64,,67,67,17,9,14,11,,0.4
2026-02-07T1800,1097A,111.717,40.7617,呼和浩特市,化肥厂生活区,颗粒物(PM10),51,52,24,16,10,71,,72,72,17,10,7,5,0.4,0.3
2026-02-07T1800,3699A,111.6519,40.8389,呼和浩特市,海东办,,34,34,23,8,7,74,,66,66,10,13,4,6,0.3,0.3
2026-02-07T1800,4275A,111.591512,40.827312,呼和浩特市,成吉思汗西街8号,颗粒物(PM10),67,83,25,14,8,64,,63,63,19,18,7,6,0.4,0.3
2026-02-07T1800,4276A,111.6597,40.8077,呼和浩特市,公园东路75号,颗粒物(PM10),70,90,27,16,10,65,,63,63,17,13,9,8,0.4,0.4
2026-02-07T1800,4277A,111.5427,40.7846,呼和浩特市,金海路35号,颗粒物(PM10),57,64,27,16,9,68,,67,67,16,13,9,8,0.5,0.4
2026-02-07T1800,3061A,119.7511,49.1576,呼伦贝尔市,国华电力东,,26,26,29,12,14,65,,67,67,14,13,14,7,0.4,0.3
2026-02-07T1800,4279A,119.7569,49.2222,呼伦贝尔市,伊敏大街东7号,,26,26,30,8,15,73,,70,70,12,16,7,7,0.1,0.1
2026-02-07T1800,1250A,120.075,30.867,湖州市,城西水厂,,42,42,25,26,17,58,,66,64,31,15,5,5,0.5,0.5
2026-02-07T1800,2873A,120.083,30.8929,湖州市,仁皇山新区,,40,40,24,22,14,64,,67,66,21,16,5,4,0.5,0.6
2026-02-07T1800,2907A,120.1846,30.8592,湖州市,吴兴区站,,41,41,30,28,16,63,,66,66,14,12,3,4,0.4,0.4
2026-02-07T1800,3562A,120.4146,30.8538,湖州市,南浔区站,,46,46,24,31,15,61,,65,65,22,17,6,6,0.5,0.5
2026-02-07T1800,1607A,120.904878,40.721091,葫芦岛市,龙港区,,45,45,49,30,27,64,,71,71,16,34,11,19,0.5,0.9
2026-02-07T1800,1608A,120.8382,40.7521,葫芦岛市,化工街,,36,34,40,25,23,56,,68,67,20,38,12,22,0.3,0.5
2026-02-07T1800,1609A,120.8339,40.7078,葫芦岛市,新区,,42,,31,29,18,63,,70,70,17,35,12,14,0.6,0.7
2026-02-07T1800,1610A,120.8697,40.7679,葫芦岛市,东城区,,38,,50,26,31,61,,72,72,22,39,9,28,0.5,0.9
2026-02-07T1800,2483A,109.9297,27.5383,怀化市,河西地税局,颗粒物(PM10),53,55,114,36,75,33,,60,43,19,22,3,2,/,/
2026-02-07T1800,2484A,109.9783,27.5342,怀化市,市四医院,"颗粒物(PM10),细颗粒物(PM2.5)",52,53,111,36,78,28,,63,43,12,13,5,6,0.8,0.9
2026-02-07T1800,2485A,109.9971,27.5579,怀化市,监测楼,细颗粒物(PM2.5),52,46,104,36,78,30,,60,45,15,16,2,3,0.3,0.4
2026-02-07T1800,1210A,119.0566,33.5991,淮安市,钵池山,颗粒物(PM10),63,75,42,40,19,74,,74,74,17,14,9,8,0.5,0.3
2026-02-07T1800,1211A,119.0083,33.578,淮安市,北京南路,颗粒物(PM10),59,68,46,38,18,72,,71,71,16,12,8,7,0.6,0.5
2026-02-07T1800,1212A,118.9938,33.6083,淮安市,市监测站,"颗粒物(PM10),细颗粒物(PM2.5)",59,68,38,42,19,66,,68,68,22,16,11,9,0.5,0.4
2026-02-07T1800,1213A,119.135,33.5038,淮安市,楚州区监测站,颗粒物(PM10),61,71,40,37,17,65,,68,68,20,10,8,6,0.8,0.6
2026-02-07T1800,3426A,118.8757,33.2897,淮安市,新华书店,颗粒物(PM10),62,74,47,37,21,76,,70,70,17,17,10,9,0.5,0.4
2026-02-07T1800,4092A,119.119691,33.550006,淮安市,枚皋中路89号,"颗粒物(PM10),细颗粒物(PM2.5)",59,67,43,42,20,74,,72,72,14,11,11,9,0.6,0.2
2026-02-07T1800,4206A,119.028838,33.631911,淮安市,承德北路606号,,,,50,,18,75,,75,75,17,12,10,7,,0.6
2026-02-07T1800,2282A,116.8005,33.9749,淮北市,监测站,细颗粒物(PM2.5),67,81,66,48,28,86,,75,75,19,20,6,6,0.7,0.6
2026-02-07T1800,2283A,116.8094,33.9008,淮北市,烈山区政府,颗粒物(PM10),69,87,65,44,22,85,,74,74,14,14,6,5,0.4,0.3
2026-02-07T1800,4017A,116.7926,33.9534,淮北市,市博物馆,颗粒物(PM10),69,88,69,49,28,83,,72,72,19,20,5,4,0.4,0.4
2026-02-07T1800,4100A,116.8322,33.9884,淮北市,杜集区第一实验学校,颗粒物(PM10),73,95,72,46,23,87,,77,77,13,13,7,5,0.2,0.2
2026-02-07T1800,2277A,116.8304,32.7726,淮南市,潘集区政府,颗粒物(PM10),64,77,55,34,19,67,,63,63,14,12,6,5,0.4,0.3
2026-02-07T1800,2279A,116.8569,32.5949,淮南市,谢家集区政府,颗粒物(PM10),63,76,50,27,19,66,,62,62,18,14,7,7,0.6,0.4
2026-02-07T1800,2280A,116.8279,32.6333,淮南市,八公山区政府,颗粒物(PM10),60,70,52,34,21,64,,62,62,18,16,3,3,0.5,0.5
2026-02-07T1800,2894A,117.0561,32.6536,淮南市,经济技术开发区消防队,颗粒物(PM10),62,74,57,33,20,68,,64,64,17,19,5,4,0.3,0.3
2026-02-07T1800,3329A,117.011,32.5891,淮南市,山南新区,颗粒物(PM10),60,70,50,33,19,70,,65,65,8,8,7,6,0.3,0.3
2026-02-07T1800,4209A,117.003137,32.644456,淮南市,国庆中路369号,颗粒物(PM10),61,72,49,28,18,63,,58,58,16,15,2,3,0.4,0.3
2026-02-07T1800,2446A,114.9021,30.474,黄冈市,职工中心,细颗粒物(PM2.5),67,54,31,48,23,69,,68,68,7,6,4,4,0.5,0.5
2026-02-07T1800,2929A,114.8858,30.4519,黄冈市,红卫路,细颗粒物(PM2.5),62,50,28,44,22,70,,68,68,9,8,6,5,0.3,0.3
2026-02-07T1800,3398A,114.9134,30.4446,黄冈市,市林业局,细颗粒物(PM2.5),59,63,31,42,23,68,,63,63,12,12,3,3,0.5,0.4
2026-02-07T1800,2672A,102.02,35.5101,黄南藏族自治州,同仁县隆务镇,,47,47,69,23,28,92,,85,85,4,5,8,8,0.3,0.4
2026-02-07T1800,2295A,118.2905,29.6965,黄山市,延安路89号,,28,24,8,19,5,64,,65,65,10,11,4,4,0.4,0.4
2026-02-07T1800,2297A,118.1369,30.2755,黄山市,黄山区政府5号楼,,39,39,17,24,8,53,,60,60,13,12,2,2,0.5,0.5
2026-02-07T1800,4210A,118.335445,29.720283,黄山市,滨江东路7-2号,,38,38,21,16,4,66,,70,70,12,12,/,/,/,/
2026-02-07T1800,2423A,115.0547,30.2332,黄石市,沈家营,,49,48,26,34,14,74,,65,65,11,9,6,7,1.0,0.9
2026-02-07T1800,2426A,114.899,30.211,黄石市,铁山,细颗粒物(PM2.5),64,53,33,46,26,73,,57,57,8,10,5,5,1.2,0.8
2026-02-07T1800,2427A,115.0259,30.2108,黄石市,团城山,细颗粒物(PM2.5),59,50,36,42,20,54,,44,44,9,7,7,6,0.8,0.7
2026-02-07T1800,3149A,115.0174,30.1591,黄石市,笔架山北路,细颗粒物(PM2.5),63,66,36,45,18,57,,51,51,20,13,7,5,0.9,0.7
2026-02-07T1800,4185A,115.078022,30.21118,黄石市,磁湖东路29号,细颗粒物(PM2.5),62,59,29,44,21,67,,51,51,12,12,7,6,0.6,0.5
2026-02-07T1800,1392A,114.4181,23.0528,惠州市,河南岸金山湖子站,,30,26,37,15,18,96,,89,89,14,20,6,6,0.9,0.8
2026-02-07T1800,1393A,114.4055,23.0824,惠州市,下埔横江三路子站,,33,26,42,14,23,104,,99,99,10,23,6,6,0.7,0.7
2026-02-07T1800,1395A,114.4645,22.7832,惠州市,惠阳区承修路船湖子站,,48,48,38,22,20,91,,93,93,18,25,6,6,0.7,0.7
2026-02-07T1800,1396A,114.5316,22.7423,惠州市,大亚湾管委会子站,,41,41,50,14,22,83,,80,80,15,33,5,6,0.6,0.7
2026-02-07T1800,3314A,114.4334,22.8134,惠州市,惠阳秋长,颗粒物(PM10),52,53,46,25,22,106,,110,110,20,30,/,/,/,/
2026-02-07T1800,3452A,114.6521,22.7755,惠州市,大亚湾霞涌,,,,30,20,23,89,,86,86,12,22,/,/,/,/
2026-02-07T1800,4300A,114.4089,23.1147,惠州市,文华一路1号,,31,26,35,14,19,99,,97,97,12,24,/,/,/,/
2026-02-07T1800,2240A,130.9618,45.2926,鸡西市,环保局,,22,,21,15,14,64,,65,65,12,8,7,7,0.3,0.3
2026-02-07T1800,2243A,130.9294,45.2959,鸡西市,第一中学,,22,15,18,12,16,70,,71,71,6,6,4,3,0.4,0.4
2026-02-07T1800,3707A,131.0069,45.2988,鸡西市,欧美日汽修厂,,20,18,23,13,16,62,,63,63,6,4,7,8,0.6,0.5
2026-02-07T1800,2367A,114.9753,27.0803,吉安市,红声器材厂,,41,41,36,25,24,51,,40,37,15,16,7,7,0.6,0.8
2026-02-07T1800,2369A,114.9903,27.1313,吉安市,市环境监测站,,35,27,29,24,25,56,,41,41,16,18,6,7,/,/
2026-02-07T1800,2370A,115.009527,27.096792,吉安市,青原区法院,,38,30,29,26,25,48,,41,36,16,16,8,8,0.7,0.8
2026-02-07T1800,1772A,126.54,43.8622,吉林市,哈达湾,,,61,40,40,28,74,,78,78,,18,,12,0.6,0.7
2026-02-07T1800,1773A,126.5843,43.8358,吉林市,东局子,,49,47,42,34,26,57,,56,56,20,17,12,6,0.7,0.7
2026-02-07T1800,1774A,126.5051,43.8243,吉林市,电力学院,,,,47,,35,40,,68,68,51,22,15,9,1.6,0.9
2026-02-07T1800,1775A,126.6133,43.8971,吉林市,江北,细颗粒物(PM2.5),93,81,53,69,38,40,,61,61,27,19,10,9,0.8,0.6
2026-02-07T1800,1776A,126.5549,43.8304,吉林市,江南公园,,49,46,40,34,31,64,,62,62,15,19,8,8,0.7,0.7
2026-02-07T1800,2868A,126.4737,43.953,吉林市,九站,细颗粒物(PM2.5),99,87,61,74,46,47,,62,62,40,39,8,10,1.1,0.9
2026-02-07T1800,1299A,116.9866,36.6118,济南市,科干所,,44,44,50,24,26,70,,66,66,11,24,4,6,0.3,0.4
2026-02-07T1800,1300A,116.9379,36.6652,济南市,农科所,,44,44,49,27,27,69,,69,69,17,36,5,5,0.5,0.6
2026-02-07T1800,1301A,117.1265,36.6736,济南市,开发区,,42,42,44,28,25,80,,76,76,24,34,3,4,0.4,0.5
2026-02-07T1800,1303A,117.0616,36.6865,济南市,省种子仓库,,46,46,49,29,24,68,,69,69,20,31,4,5,0.4,0.4
2026-02-07T1800,1304A,116.9495185,36.644937,济南市,机床二厂,,44,44,45,29,27,68,,62,62,14,31,3,5,0.4,0.2
2026-02-07T1800,1305A,117.0496,36.6629,济南市,市监测站,,49,49,50,27,26,68,,69,69,18,28,4,4,0.5,0.6
2026-02-07T1800,1306A,116.7674,36.5458,济南市,长清党校,颗粒物(PM10),51,51,55,19,25,70,,68,68,18,32,3,4,0.5,0.5
2026-02-07T1800,1961A,117.5323,36.6865,济南市,东山小学,,49,49,55,25,23,80,,76,76,16,31,3,3,0.4,0.4
2026-02-07T1800,3059A,117.7181,36.205,济南市,泰兴公司,,39,39,48,18,27,78,,73,73,17,24,6,4,0.6,0.6
2026-02-07T1800,3064A,117.6861,36.2172,济南市,莱芜战役纪念馆,,41,41,47,16,25,76,,75,75,20,24,10,9,0.5,0.6
2026-02-07T1800,3494A,117.1673,36.9782,济南市,济阳区政府,,46,46,47,28,26,60,,63,63,16,19,4,7,0.6,0.5
2026-02-07T1800,3495A,117.1168,36.6299,济南市,锦屏中学,,39,39,41,26,24,69,,68,68,21,22,6,3,0.3,0.3
2026-02-07T1800,4108A,117.7107,36.2385,济南市,山财大街5号,,31,31,36,13,23,74,,74,74,19,25,8,8,0.7,0.8
2026-02-07T1800,4109A,116.9744,36.6889,济南市,无影山路12号,,42,41,44,29,27,65,,64,64,12,27,4,6,0.3,0.5
2026-02-07T1800,1653A,116.6229,35.4288,济宁市,火炬城,,49,49,57,27,26,68,,69,69,15,20,2,2,0.3,0.4
2026-02-07T1800,3500A,116.5808,35.3703,济宁市,北湖一中,,45,45,54,22,24,73,,68,68,17,24,3,3,0.2,0.3
2026-02-07T1800,3501A,116.8251,35.5592,济宁市,服务中心,颗粒物(PM10),59,68,64,31,34,66,,65,65,14,16,6,4,0.4,0.4
2026-02-07T1800,3678A,116.5907,35.4054,济宁市,市第七中学,颗粒物(PM10),51,52,62,25,29,77,,74,74,16,20,7,8,0.4,0.4
2026-02-07T1800,4111A,116.6075,35.4566,济宁市,任和路,颗粒物(PM10),86,122,68,27,30,70,,70,70,14,23,5,6,0.4,0.5
2026-02-07T1800,4112A,116.5648,35.3921,济宁市,文体南路1号,颗粒物(PM10),54,58,62,21,28,79,,75,75,12,19,3,3,0.3,0.4
2026-02-07T1800,2255A,130.2749,46.8028,佳木斯市,佳纺,,45,36,27,31,18,50,,63,62,19,10,9,8,0.6,0.5
2026-02-07T1800,2257A,130.3258,46.7975,佳木斯市,环保局,,32,23,20,22,13,59,,66,65,12,9,6,7,0.3,0.2
2026-02-07T1800,4285A,130.363,46.806,佳木斯市,顺和街,,38,,22,26,16,53,,61,60,20,12,4,6,0.7,0.6
2026-02-07T1800,4286A,130.3952,46.8268,佳木斯市,长安路196号,,35,,20,24,14,58,,66,66,17,9,6,9,0.3,0.2
2026-02-07T1800,1252A,120.7439,30.778,嘉兴市,清河小学,颗粒物(PM10),57,63,29,31,7,52,,58,54,25,19,5,5,0.4,0.4
2026-02-07T1800,1253A,120.7261,30.7477,嘉兴市,嘉兴学院,颗粒物(PM10),51,52,28,33,15,56,,62,56,26,20,4,4,0.5,0.5
2026-02-07T1800,2872A,120.7845,30.7524,嘉兴市,南湖区残联,细颗粒物(PM2.5),53,45,23,37,14,60,,65,62,25,19,4,4,0.5,0.4
2026-02-07T1800,3407A,120.6915,30.7741,嘉兴市,秀洲住建,颗粒物(PM10),54,58,27,32,11,57,,63,60,24,17,5,5,0.4,0.4
2026-02-07T1800,1945A,98.291,39.7705,嘉峪关市,气象局,颗粒物(PM10),103,156,180,49,47,83,,73,73,6,9,6,7,0.4,0.4
2026-02-07T1800,2884A,98.2672,39.7978,嘉峪关市,酒钢宾馆,颗粒物(PM10),100,149,196,48,54,80,,70,70,6,9,9,8,0.3,0.3
2026-02-07T1800,3248A,98.2644,39.7723,嘉峪关市,雄关区,颗粒物(PM10),95,140,160,50,50,79,,69,69,9,18,7,7,0.3,0.4
2026-02-07T1800,1383A,113.1063,22.6058,江门市,北街,,39,39,41,18,23,104,,97,97,20,25,/,/,/,/
2026-02-07T1800,1384A,113.073,22.5835,江门市,西区,,46,46,42,19,24,104,,96,96,22,28,/,/,/,/
2026-02-07T1800,1385A,113.0218,22.531,江门市,圭峰西,,38,38,36,19,23,108,,98,98,16,19,/,/,/,/
2026-02-07T1800,1386A,113.0826,22.5947,江门市,东湖,,35,35,38,18,24,105,,104,104,20,25,8,8,0.8,0.7
2026-02-07T1800,3311A,113.1077,22.5647,江门市,江海富民,,36,36,50,18,25,107,,100,100,24,30,/,/,0.8,0.7
2026-02-07T1800,3449A,113.0496,22.4669,江门市,新会银湖,,43,43,38,20,24,100,,97,97,28,32,7,7,0.8,0.6
2026-02-07T1800,3335A,113.3137,35.2643,焦作市,马村街道办,颗粒物(PM10),81,112,88,58,36,57,,54,54,22,20,11,10,0.6,0.5
2026-02-07T1800,3336A,113.2464,35.2374,焦作市,焦作技师学院,细颗粒物(PM2.5),77,98,80,56,33,53,,57,57,28,21,11,8,0.6,0.5
2026-02-07T1800,3477A,113.1656,35.2536,焦作市,中站许衡医院,细颗粒物(PM2.5),89,104,65,66,34,58,,60,60,22,15,15,12,0.8,0.6
2026-02-07T1800,3981A,113.2456,35.18,焦作市,原李万街道办,颗粒物(PM10),82,113,76,58,33,63,,70,70,25,21,11,6,0.7,0.5
2026-02-07T1800,4264A,113.234,35.219,焦作市,新安路1731号,颗粒物(PM10),81,111,77,55,33,60,,66,66,27,17,12,8,0.6,0.4
2026-02-07T1800,4295A,113.2722,35.2121,焦作市,人民路3066号,颗粒物(PM10),93,136,81,61,33,52,,62,61,26,19,12,8,0.8,0.7
2026-02-07T1800,1708A,116.3701,23.5345,揭阳市,新兴,,48,48,44,13,28,73,,65,65,26,24,6,6,0.7,0.7
2026-02-07T1800,1709A,116.3261,23.5442,揭阳市,西马,颗粒物(PM10),52,54,49,14,29,67,,64,64,27,20,5,5,0.8,0.7
2026-02-07T1800,1710A,116.361,23.5627,揭阳市,东兴,,40,40,44,15,31,72,,63,63,20,20,10,10,/,/
2026-02-07T1800,1711A,116.4151,23.5295,揭阳市,渔湖,,48,48,39,16,32,82,,75,75,21,21,4,5,/,/
2026-02-07T1800,3320A,116.4028,23.5699,揭阳市,曲溪,,38,38,42,12,31,83,,77,77,17,17,3,6,0.7,0.7
2026-02-07T1800,1944A,102.1691,38.5166,金昌市,天庆家园,颗粒物(PM10),84,117,122,39,40,89,,74,74,6,8,8,15,0.3,0.4
2026-02-07T1800,4022A,102.1648,38.5369,金昌市,金川区人防中心,颗粒物(PM10),92,134,122,58,43,82,,75,75,10,6,27,18,0.5,0.4
2026-02-07T1800,4239A,102.193042,38.531887,金昌市,长春路96号,颗粒物(PM10),101,151,121,50,36,78,,68,66,8,7,8,21,0.7,0.6
2026-02-07T1800,1262A,119.6478,29.0773,金华市,十五中,,28,25,12,19,10,46,,57,54,19,15,2,2,0.6,0.5
2026-02-07T1800,1263A,119.6859,29.1032,金华市,监测站,,33,30,16,23,10,34,,53,48,28,23,2,2,0.6,0.4
2026-02-07T1800,3659A,119.656,29.1132,金华市,气象局,,30,30,15,14,7,32,,46,43,30,21,1,1,0.5,0.4
2026-02-07T1800,1767A,121.1114,41.0879,锦州市,南山,,,,47,9,33,74,,81,81,11,24,,12,0.6,0.9
2026-02-07T1800,1768A,121.060361,40.842794,锦州市,开发区,,37,37,51,23,34,60,,71,71,19,34,8,15,0.5,0.7
2026-02-07T1800,1769A,121.1836,41.1118,锦州市,百股街道,,38,38,44,17,32,65,,78,78,16,28,4,8,0.6,0.9
2026-02-07T1800,1770A,121.1176,41.1224,锦州市,天安街道,,40,40,37,10,22,80,,89,89,11,20,3,7,0.5,0.8
2026-02-07T1800,1771A,121.1303,41.1385,锦州市,北湖公园,,35,33,45,24,32,75,,83,83,9,17,8,11,0.6,0.7
2026-02-07T1800,2160A,112.8496,35.5051,晋城市,自来水公司,颗粒物(PM10),73,96,72,3,15,66,,66,66,20,19,5,6,0.4,0.5
2026-02-07T1800,2162A,112.8509,35.4886,晋城市,市环保局,,26,22,46,11,20,82,,34,,11,18,3,4,0.2,0.4
2026-02-07T1800,3620A,112.8258,35.4804,晋城市,泽州一中,,33,33,60,12,21,84,,84,84,8,12,4,4,0.2,0.4
2026-02-07T1800,4078A,112.8246,35.5152,晋城市,前书院路,,46,46,57,9,16,71,,70,70,8,16,6,6,0.1,0.2
2026-02-07T1800,4079A,112.8864,35.4773,晋城市,祥云街666号,,37,37,48,25,23,82,,77,77,12,20,7,7,0.3,0.4
2026-02-07T1800,2174A,112.6992,37.6984,晋中市,榆次区政府,,36,36,51,14,31,76,,78,78,16,32,7,8,0.3,0.5
2026-02-07T1800,2865A,112.7195,37.683,晋中市,榆次三中,,39,39,53,14,31,81,,81,81,11,27,8,8,0.2,0.4
2026-02-07T1800,4080A,112.7375,37.7215,晋中市,广安街188号,,40,40,55,24,32,87,,84,84,8,30,8,8,0.2,0.4
2026-02-07T1800,4200A,112.7478,37.6954,晋中市,迎宾街26号,,36,36,52,13,33,83,,81,81,11,25,8,8,0.4,0.5
2026-02-07T1800,2439A,112.2012,31.048,荆门市,竹园小学,细颗粒物(PM2.5),105,129,119,79,65,53,,51,51,25,26,2,1,0.1,0.2
2026-02-07T1800,2440A,112.1968,30.9892,荆门市,掇刀,细颗粒物(PM2.5),117,120,122,88,71,57,,56,56,22,20,6,4,0.8,0.7
2026-02-07T1800,3012A,112.1849,31.0361,荆门市,西山林语,细颗粒物(PM2.5),112,118,116,84,63,52,,52,52,24,24,5,3,0.6,0.8
2026-02-07T1800,3547A,112.1631,31.0134,荆门市,龙泉中学南校,颗粒物(PM10),95,139,129,66,59,62,,63,63,20,17,8,4,0,0.1
2026-02-07T1800,4124A,112.2213,31.0654,荆门市,新台西路6号,细颗粒物(PM2.5),119,147,127,90,73,53,,54,54,22,21,10,9,0.5,0.5
2026-02-07T1800,1844A,112.2493,30.3198,荆州市,市图书馆,,,101,98,74,67,72,,67,67,17,16,,6,0.7,0.7
2026-02-07T1800,1845A,112.2009,30.3543,荆州市,市委党校,细颗粒物(PM2.5),98,117,110,73,79,63,,57,57,22,23,7,6,0.8,0.9
2026-02-07T1800,3194A,112.2749,30.3124,荆州市,管委会,,,,93,,69,69,,65,65,,17,,6,0.7,0.7
2026-02-07T1800,4268A,112.1722,30.3366,荆州市,学苑路85号,细颗粒物(PM2.5),108,96,100,81,76,73,,65,65,12,16,8,8,0.5,0.6
2026-02-07T1800,2343A,117.2114,29.2931,景德镇市,老干部活动中心,,30,30,15,19,6,72,,63,63,7,6,4,4,0.6,0.6
2026-02-07T1800,2344A,117.1893,29.2789,景德镇市,兽医站,,30,30,17,20,5,74,,63,63,8,9,3,4,0.6,0.6
2026-02-07T1800,2346A,117.246,29.2958,景德镇市,陶研所,,33,25,7,23,8,77,,61,61,7,7,3,3,0.5,0.5
2026-02-07T1800,4289A,117.154766,29.256967,景德镇市,青少年活动中心,,27,27,8,18,5,74,,63,63,10,9,2,3,/,/
2026-02-07T1800,1803A,115.9873,29.6816,九江市,十里,,45,37,26,31,24,58,,61,60,16,14,4,4,0.6,0.6
2026-02-07T1800,1804A,115.9583,29.7047,九江市,茅山头,,50,,24,35,21,53,,56,,12,9,4,4,0.4,0.4
2026-02-07T1800,1805A,115.9877,29.7295,九江市,西园,,42,36,26,29,20,60,,62,62,17,16,6,6,0.7,0.7
2026-02-07T1800,1808A,115.9112,29.6038,九江市,综合工业园,,42,42,23,22,18,51,,60,58,22,19,4,3,0.5,0.5
2026-02-07T1800,3190A,116.0254,29.6995,九江市,外国语学校,,40,,25,28,19,49,,52,52,19,16,3,3,0.4,0.6
2026-02-07T1800,4253A,116.010205,29.659402,九江市,莲花大道8号,,38,38,30,24,18,54,,56,56,10,9,3,2,0.4,0.3
2026-02-07T1800,4240A,98.495752,39.733935,酒泉市,玉门东路5号,颗粒物(PM10),96,141,181,45,52,72,,66,66,5,9,9,9,0.3,0.4
2026-02-07T1800,4241A,98.5099,39.7506,酒泉市,北大街108号,颗粒物(PM10),90,129,152,42,47,67,,63,63,3,5,9,8,0.3,0.4
2026-02-07T1800,2698A,76.0071,39.466,喀什地区,巡警大队,颗粒物(PM10),319,435,450,88,102,85,,63,63,5,30,3,6,0.4,1
2026-02-07T1800,2699A,75.9756,39.4693,喀什地区,吾办,颗粒物(PM10),300,420,431,100,111,84,,67,67,7,30,4,5,0.6,0.8
2026-02-07T1800,4027A,75.9485,39.4688,喀什地区,老干局,颗粒物(PM10),310,428,505,85,105,86,,62,62,4,28,4,7,0.5,1.1
2026-02-07T1800,1824A,114.3389,34.778,开封市,肿瘤医院,细颗粒物(PM2.5),74,80,67,54,37,75,,70,70,29,26,12,9,0.6,0.6
2026-02-07T1800,1826A,114.2884,34.7966,开封市,世纪星幼儿园,细颗粒物(PM2.5),75,80,63,55,37,73,,66,66,28,28,11,9,0.6,0.5
2026-02-07T1800,3147A,114.3434,34.8101,开封市,龙亭公园,"颗粒物(PM10),细颗粒物(PM2.5)",73,96,72,53,35,75,,68,68,26,24,12,9,0.5,0.6
2026-02-07T1800,3210A,114.3645,34.7955,开封市,汴京公园,颗粒物(PM10),68,85,75,48,33,77,,71,71,25,20,10,6,0.5,0.7
2026-02-07T1800,3473A,114.2485,34.8306,开封市,技师学院,细颗粒物(PM2.5),72,81,66,52,34,76,,67,67,24,27,9,8,0.8,0.8
2026-02-07T1800,3592A,114.4518,34.7503,开封市,祥符区生态环境局,细颗粒物(PM2.5),74,92,83,54,39,71,,74,73,27,30,6,7,0.7,0.7
2026-02-07T1800,1951A,84.886,45.6029,克拉玛依市,长征新村,颗粒物(PM10),54,58,92,22,29,61,,53,53,19,21,4,5,0.6,0.7
2026-02-07T1800,1952A,84.8894,45.5827,克拉玛依市,南林小区,颗粒物(PM10),57,63,89,23,27,65,,56,56,13,21,3,3,0.6,0.8
2026-02-07T1800,1954A,84.896,44.3328,克拉玛依市,独山子区,,,122,84,28,32,75,,79,,,6,5,4,0.7,0.7
2026-02-07T1800,1955A,85.6888,46.0909,克拉玛依市,乌尔禾区商贸楼,,46,46,99,21,40,77,,63,63,9,31,6,8,0.5,1.2
2026-02-07T1800,3612A,85.1045,45.6895,克拉玛依市,白碱滩区新站,颗粒物(PM10),55,60,86,25,35,73,,50,50,23,31,10,8,0.7,0.7
2026-02-07T1800,2697A,76.1457,39.7143,克孜勒苏柯尔克孜自治州,市人民政府,颗粒物(PM10),302,421,438,93,96,90,,76,76,2,12,4,4,0.2,0.2
2026-02-07T1800,3665A,76.1654,39.7157,克孜勒苏柯尔克孜自治州,克州文化中心,颗粒物(PM10),296,417,429,94,96,86,,72,72,2,11,4,4,0.4,0.6
2026-02-07T1800,1450A,102.8203,24.889,昆明市,呈贡新区,,41,41,54,18,37,79,,89,89,11,27,4,6,0.2,0.5
2026-02-07T1800,1452A,102.7253,25.0904,昆明市,龙泉镇,,27,21,73,16,64,86,,91,91,10,35,3,5,0.4,0.7
2026-02-07T1800,1453A,102.7267,25.0378,昆明市,东风东路,,28,20,72,14,56,89,,92,92,11,28,5,7,0.3,0.6
2026-02-07T1800,1454A,102.6744,25.0671,昆明市,金鼎山,,27,27,85,13,63,85,,91,91,8,27,4,6,0.5,0.8
2026-02-07T1800,1455A,102.6643,25.0401,昆明市,碧鸡广场,,28,16,69,12,59,89,,93,93,11,28,3,5,0.3,0.7
2026-02-07T1800,3179A,102.7491,25.012,昆明市,官渡区博物馆,,29,28,65,14,45,92,,97,97,9,28,3,5,0.2,0.7
2026-02-07T1800,3375A,102.8016,24.8336,昆明市,青年创业园,,29,,41,15,31,90,,94,94,2,26,4,6,0.4,0.6
2026-02-07T1800,3550A,102.8,24.9787,昆明市,昆明学院,,29,19,78,8,38,92,,97,97,6,28,3,5,0.4,0.8
2026-02-07T1800,3551A,102.5969,24.6738,昆明市,晋宁区生态环境分局,,34,23,69,18,55,106,,100,100,4,22,3,3,0.3,0.7
2026-02-07T1800,3552A,102.6673,24.9861,昆明市,云天化总部,,29,,86,16,55,91,,94,94,8,29,7,8,0.2,0.6
2026-02-07T1800,1456A,91.132,29.6515,拉萨市,八廓街,,30,8,19,7,11,95,,82,82,4,15,7,7,0.4,0.6
2026-02-07T1800,1457A,91.1221,29.6748,拉萨市,市环保局,,28,7,26,3,13,89,,79,79,8,22,6,8,0.3,0.7
2026-02-07T1800,1458A,91.0874,29.6476,拉萨市,区监测站,,29,6,12,3,8,90,,78,78,6,24,4,4,0.5,0.7
2026-02-07T1800,1459A,91.1774,29.6541,拉萨市,西藏大学,,28,6,13,3,7,89,,76,76,7,14,4,4,0.2,0.3
2026-02-07T1800,1460A,90.9798,29.6586,拉萨市,区辐射站,,29,6,31,3,18,90,,74,74,5,31,3,4,0.2,0.6
2026-02-07T1800,1461A,91.0831,29.6292,拉萨市,拉萨火车站,,28,6,13,3,8,87,,70,70,5,20,4,4,0.3,0.5
2026-02-07T1800,2520A,109.2203,23.7252,来宾市,来宾技工学校,,50,50,39,33,27,72,,72,72,11,11,5,6,0.9,1
2026-02-07T1800,3535A,109.1781,23.7293,来宾市,兴宾区政府,颗粒物(PM10),58,66,42,36,28,76,,77,77,17,13,5,6,0.9,1
2026-02-07T1800,4002A,109.2312,23.7428,来宾市,中南小学,,50,39,40,35,29,73,,75,75,15,13,4,6,1.0,1.1
2026-02-07T1800,1479A,103.8309,36.0467,兰州市,铁路设计院,,,,,,,,,,,,,,,,
2026-02-07T1800,3241A,103.7439,36.0841,兰州市,百合公园,颗粒物(PM10),63,75,79,38,31,86,,74,74,12,15,2,6,0.5,0.6
2026-02-07T1800,3242A,103.9613,35.9985,兰州市,和平,颗粒物(PM10),77,103,89,42,31,89,,80,80,12,11,9,10,0.5,0.6
2026-02-07T1800,4236A,103.629272,36.093822,兰州市,庄浪东路808号,颗粒物(PM10),71,92,81,43,31,82,,81,81,21,12,10,9,0.5,0.4
2026-02-07T1800,4237A,103.7251,36.104344,兰州市,安宁西路88号,颗粒物(PM10),65,79,95,34,32,94,,85,85,13,8,6,7,0.4,0.3
2026-02-07T1800,4238A,103.846982,36.067567,兰州市,北滨河东路1号,颗粒物(PM10),64,78,82,43,32,82,,75,75,33,21,7,7,0.5,0.5
2026-02-07T1800,1067A,116.6712,39.5109,廊坊市,药材公司,,31,31,39,3,18,69,,70,70,4,28,3,3,0.3,0.4
2026-02-07T1800,1068A,116.7215,39.5592,廊坊市,开发区,,24,10,30,3,13,76,,76,76,6,25,3,3,0.2,0.3
2026-02-07T1800,1070A,116.7246,39.5273,廊坊市,北华航天学院,,23,18,35,3,14,71,,73,73,12,29,1,2,0.2,0.3
2026-02-07T1800,2919A,116.7022,39.5454,廊坊市,河北工业大学,,22,16,35,3,14,69,,71,71,8,25,3,3,0.3,0.4
2026-02-07T1800,2536A,103.7629,29.5844,乐山市,牛耳桥,细颗粒物(PM2.5),59,61,86,42,66,42,,63,51,31,31,6,6,0.6,0.8
2026-02-07T1800,2537A,103.7501,29.6002,乐山市,市第三水厂,颗粒物(PM10),54,57,86,36,60,42,,65,50,33,38,3,4,0.8,1
2026-02-07T1800,2538A,103.7571,29.5664,乐山市,市监测站,颗粒物(PM10),53,56,81,35,60,39,,63,50,27,24,6,6,0.9,1
2026-02-07T1800,3361A,103.7313,29.563,乐山市,理工大学,细颗粒物(PM2.5),52,49,80,36,60,41,,59,46,23,21,3,3,1.1,1.2
2026-02-07T1800,2599A,100.2497,26.8802,丽江市,丽江古城,,26,23,32,7,16,81,,86,86,10,11,5,6,0.4,0.4
2026-02-07T1800,2600A,100.2203,26.8906,丽江市,市中心,,26,16,23,15,16,82,,88,88,9,11,6,5,0.4,0.4
2026-02-07T1800,1267A,119.9141,28.4513,丽水市,监测站大楼,,21,18,7,14,7,66,,53,53,14,12,5,4,0.4,0.3
2026-02-07T1800,1268A,119.93,28.4589,丽水市,莲都小学,,23,23,11,13,6,63,,54,54,15,12,/,/,/,/
2026-02-07T1800,1269A,119.8794,28.4232,丽水市,余庄前,,21,21,10,14,7,65,,50,50,12,13,4,4,0.3,0.3
2026-02-07T1800,1173A,119.1759,34.5885,连云港市,市环境监测站,颗粒物(PM10),54,58,42,36,22,64,,67,67,24,26,10,13,0.5,0.5
2026-02-07T1800,3000A,119.3577,34.6971,连云港市,德源药业,细颗粒物(PM2.5),62,63,44,44,21,61,,64,64,16,11,6,7,1.0,1.1
2026-02-07T1800,3007A,119.178,34.8442,连云港市,新城一中,细颗粒物(PM2.5),62,60,49,44,25,68,,71,71,24,27,10,12,0.4,0.4
2026-02-07T1800,3008A,119.3607,34.7519,连云港市,胡沟管理处,颗粒物(PM10),54,58,32,36,18,64,,69,69,16,12,8,10,1.2,1.1
2026-02-07T1800,3009A,119.1478,34.5913,连云港市,矿山设计院,颗粒物(PM10),53,56,41,29,18,63,,66,66,18,16,9,10,0.8,0.8
2026-02-07T1800,3434A,119.2414,34.6539,连云港市,工贸学校,颗粒物(PM10),64,77,52,37,20,68,,66,66,14,17,10,13,0.5,0.7
2026-02-07T1800,3664A,119.4171,34.734,连云港市,连云街道,颗粒物(PM10),70,89,45,48,18,53,,64,61,36,23,9,7,0.8,0.6
2026-02-07T1800,2573A,102.2629,27.8981,凉山彝族自治州,西昌市政府,,40,38,31,28,22,82,,82,82,7,13,4,8,0.6,0.7
2026-02-07T1800,2574A,102.2686,27.885,凉山彝族自治州,凉山州政府,,42,42,33,27,23,77,,75,75,6,16,9,10,0.7,0.8
2026-02-07T1800,4229A,102.2342,27.8859,凉山彝族自治州,凯乐南路30号,,49,49,42,22,19,78,,78,78,12,23,10,10,0.5,0.6
2026-02-07T1800,2212A,123.1978,41.2036,辽阳市,宏伟区,,25,25,52,9,24,64,,65,65,7,15,6,8,0.5,0.7
2026-02-07T1800,2213A,123.1684,41.2497,辽阳市,新华园,,30,30,60,11,33,62,,64,64,12,29,5,15,0.4,0.8
2026-02-07T1800,2214A,123.2355,41.2663,辽阳市,滨河路,,36,36,47,13,23,61,,66,65,8,24,4,6,0.5,0.7
2026-02-07T1800,4083A,123.153,41.2874,辽阳市,铁西路150号,,32,32,62,13,33,52,,57,56,11,28,6,12,0.5,0.9
2026-02-07T1800,2227A,125.1359,42.8845,辽源市,环保局,颗粒物(PM10),56,62,60,38,32,62,,67,67,18,29,4,4,0.8,0.9
2026-02-07T1800,4085A,125.0998,42.9134,辽源市,安宁大街333号,颗粒物(PM10),54,58,55,36,32,69,,72,72,12,21,5,4,0.6,0.8
2026-02-07T1800,1625A,115.9789,36.4372,聊城市,区政府,颗粒物(PM10),51,51,52,22,30,73,,71,71,15,19,11,12,0.6,0.6
2026-02-07T1800,3200A,115.9772,36.4986,聊城市,监控中心,颗粒物(PM10),53,55,51,24,28,73,,74,74,19,23,9,9,0.7,0.7
2026-02-07T1800,3513A,116.0443,36.436,聊城市,九州社区,,50,50,58,23,30,81,,80,80,3,10,2,3,0.5,0.5
2026-02-07T1800,4018A,116.0564,36.4609,聊城市,星美广场,颗粒物(PM10),53,55,61,25,32,69,,70,70,12,16,2,4,0.4,0.5
2026-02-07T1800,4113A,116.0091,36.4495,聊城市,利民路,,47,47,53,21,27,66,,64,64,15,19,8,9,0.7,0.7
2026-02-07T1800,2632A,94.3683,29.6373,林芝市,林芝监测站,,29,8,12,3,8,92,,84,84,1,3,5,5,0.4,0.4
2026-02-07T1800,2633A,94.3616,29.6634,林芝市,林芝人民医院,,29,16,18,9,11,90,,81,81,2,3,7,6,0.2,0.3
2026-02-07T1800,2603A,100.0779,23.8981,临沧市,市环保局,,40,40,36,20,26,100,,66,66,3,12,7,6,0.3,0.6
2026-02-07T1800,2604A,100.0894,23.882,临沧市,市气象局,,38,38,45,23,27,98,,81,81,6,12,5,6,0.4,0.5
2026-02-07T1800,1733A,111.5552,36.0791,临汾市,临钢医院,,25,9,75,3,32,77,,71,71,10,22,3,10,0.4,0.7
2026-02-07T1800,1734A,111.4984,36.0734,临汾市,技工学校,,25,12,57,11,29,79,,76,76,13,25,1,6,0.3,0.5
2026-02-07T1800,1736A,111.5017,36.0857,临汾市,市委,,25,21,59,3,21,79,,75,75,8,21,1,7,0.3,0.6
2026-02-07T1800,3018A,111.5048,36.1015,临汾市,唐尧大酒店,,34,34,75,3,24,80,,76,76,17,28,4,9,0.4,0.7
2026-02-07T1800,4244A,111.4879,36.053,临汾市,启星学校,,25,17,62,12,30,79,,78,78,11,21,4,8,0.4,0.7
2026-02-07T1800,4271A,103.2464,35.6123,临夏回族自治州,滨河东路1号,颗粒物(PM10),59,68,92,41,34,76,,71,71,14,12,5,5,0.5,0.4
2026-02-07T1800,4310A,103.207136,35.599807,临夏回族自治州,新华街21号,颗粒物(PM10),64,78,93,40,32,76,,70,70,13,12,5,6,0.6,0.5
2026-02-07T1800,1618A,118.3429,35.0532,临沂市,沂河小区,颗粒物(PM10),53,56,51,31,21,65,,62,62,18,20,8,8,0.3,0.3
2026-02-07T1800,1619A,118.2962,35.0568,临沂市,鲁南制药厂,颗粒物(PM10),53,56,48,28,21,62,,62,62,22,20,14,11,0.2,0.3
2026-02-07T1800,1620A,118.2793,34.9976,临沂市,新光毛纺厂,颗粒物(PM10),52,53,43,30,26,62,,62,62,18,17,10,9,0.4,0.4
2026-02-07T1800,1621A,118.3955,35.0889,临沂市,河东保险公司,,,46,45,33,24,62,,69,69,23,21,,9,,0.5
2026-02-07T1800,3370A,118.3563,35.0215,临沂市,十里堡居委,颗粒物(PM10),51,51,46,28,19,70,,69,69,20,23,8,8,0.4,0.4
2026-02-07T1800,3496A,118.359,35.1067,临沂市,南坊新区,,48,48,43,26,21,68,,68,68,22,18,8,9,1.2,0.4
2026-02-07T1800,3860A,118.3915,35.0297,临沂市,皇山花园小区,颗粒物(PM10),53,56,46,32,25,71,,68,68,20,22,10,11,0.4,0.4
2026-02-07T1800,1870A,109.4854,24.3898,柳州市,柳东小学,,44,44,39,24,27,71,,80,80,14,11,8,8,0.9,0.8
2026-02-07T1800,1871A,109.4109,24.3304,柳州市,环保监测站,,40,40,36,23,27,75,,76,76,16,14,4,4,1.0,0.9
2026-02-07T1800,1872A,109.3886,24.3408,柳州市,河西水厂,颗粒物(PM10),52,53,40,25,23,78,,78,78,16,16,5,7,0.8,0.9
2026-02-07T1800,1873A,109.4263,24.2951,柳州市,市四中,,,59,34,,23,70,,76,76,,13,6,6,1.1,1
2026-02-07T1800,1874A,109.396,24.3658,柳州市,市九中,,43,43,35,26,24,72,,74,74,12,11,9,9,1.0,0.9
2026-02-07T1800,1875A,109.4912,24.3164,柳州市,古亭山,,30,30,37,20,29,71,,79,79,15,10,6,6,0.8,0.9
2026-02-07T1800,3402A,109.5422,24.3994,柳州市,市二中,,30,30,36,20,32,68,,80,79,18,16,9,9,0.7,0.7
2026-02-07T1800,2307A,116.5078,31.7369,六安市,监测大楼,颗粒物(PM10),55,59,39,25,16,63,,55,55,12,12,2,2,0.3,0.2
2026-02-07T1800,2308A,116.4738,31.7642,六安市,皖西学院,颗粒物(PM10),54,58,43,28,16,72,,62,62,12,13,4,3,0.3,0.2
2026-02-07T1800,2309A,116.4997,31.7904,六安市,朝阳厂,颗粒物(PM10),56,62,36,30,16,67,,60,60,14,14,3,4,0.3,0.2
2026-02-07T1800,2310A,116.5566,31.7885,六安市,开发区,颗粒物(PM10),56,62,33,34,16,66,,61,61,8,3,4,4,0.2,0.1
2026-02-07T1800,2577A,104.8293,26.592,六盘水市,黄土坡,,33,26,51,23,39,72,,76,70,22,17,9,10,1.1,0.9
2026-02-07T1800,2579A,104.8481,26.5898,六盘水市,民中,,41,41,54,22,42,68,,77,62,21,17,3,5,1.0,0.9
2026-02-07T1800,2580A,104.9541,26.5506,六盘水市,双水,,36,36,49,24,36,69,,84,66,19,13,3,5,0.8,0.6
2026-02-07T1800,4151A,104.8899,26.5685,六盘水市,钟山大道中段564号,,46,46,57,27,37,72,,76,65,14,12,5,7,0.9,1
2026-02-07T1800,2336A,117.022,25.1031,龙岩市,龙岩市监测站,,24,15,21,10,18,74,,80,80,9,12,7,8,0.9,0.8
2026-02-07T1800,2337A,117.0257,25.0662,龙岩市,闽西职业技术学院,,25,,23,10,18,77,,82,82,9,11,5,6,0.8,0.8
2026-02-07T1800,2338A,117.0195,25.0306,龙岩市,龙岩学院,,24,21,23,14,17,76,,81,81,11,10,4,4,/,/
2026-02-07T1800,2885A,104.9344,33.3827,陇南市,滨江中学,颗粒物(PM10),63,75,74,29,26,77,,86,85,15,8,5,4,0.6,0.5
2026-02-07T1800,3247A,104.9551,33.3709,陇南市,市总工会,颗粒物(PM10),53,55,69,21,24,78,,83,83,14,9,2,2,0.6,0.6
2026-02-07T1800,2488A,111.9984,27.7346,娄底市,市监测站,颗粒物(PM10),58,65,104,36,81,42,,54,52,14,15,5,6,0.6,0.7
2026-02-07T1800,2491A,111.9888,27.7035,娄底市,市政府,颗粒物(PM10),65,79,105,28,71,45,,56,54,11,12,2,3,0.3,0.4
2026-02-07T1800,4127A,111.9812,27.7591,娄底市,涟钢职大,细颗粒物(PM2.5),64,54,104,46,77,45,,56,53,14,16,3,5,0.6,0.9
2026-02-07T1800,4128A,112.0303,27.7457,娄底市,娄底体校,,50,50,105,31,76,37,,46,45,7,8,2,2,0.4,0.6
2026-02-07T1800,1894A,105.4427,28.9063,泸州市,小市上码头,细颗粒物(PM2.5),99,88,128,74,97,26,,45,32,24,31,4,6,1.1,1.1
2026-02-07T1800,1895A,105.4241,28.8573,泸州市,兰田宪桥,细颗粒物(PM2.5),109,120,135,82,89,23,,35,35,33,30,7,9,1.1,1.1
2026-02-07T1800,1896A,105.4378,28.8833,泸州市,市环监站,细颗粒物(PM2.5),103,126,151,77,119,26,,51,27,31,30,6,11,1.0,0.9
2026-02-07T1800,4272A,105.3689,28.7783,泸州市,纳溪中医医院,细颗粒物(PM2.5),158,127,119,120,108,31,,38,38,21,29,8,9,1.1,1.1
2026-02-07T1800,2183A,111.1447,37.5212,吕梁市,环保局,,23,17,39,3,12,73,,70,70,8,19,2,5,0.2,0.4
2026-02-07T1800,2185A,111.1285,37.5338,吕梁市,自来水公司,,26,26,42,3,15,74,,73,73,9,16,2,4,0.2,0.4
2026-02-07T1800,2867A,111.1225,37.5093,吕梁市,马茂庄小学,,26,26,46,8,12,71,,68,68,10,21,2,4,0.1,0.2
2026-02-07T1800,1812A,112.3934,34.6517,洛阳市,市委党校,,40,40,67,15,30,76,,60,60,13,28,8,9,0.5,0.6
2026-02-07T1800,1815A,112.494,34.6883,洛阳市,河南林校,,48,48,74,21,28,84,,70,70,24,34,10,11,0.3,0.4
2026-02-07T1800,1816A,112.3843,34.623,洛阳市,开发区管委会,,43,43,73,13,28,80,,70,70,14,29,9,11,0.4,0.5
2026-02-07T1800,1817A,112.4263,34.6249,洛阳市,市委新办公区,,35,35,65,15,29,84,,69,69,18,29,9,10,0.4,0.5
2026-02-07T1800,3340A,112.6005,34.6323,洛阳市,伊滨,,43,43,78,19,33,80,,66,66,18,32,8,8,0.5,0.7
2026-02-07T1800,3341A,112.495,34.6338,洛阳市,中移产业园,,50,50,70,12,32,83,,67,67,17,34,8,10,0.4,0.6
2026-02-07T1800,3593A,112.5736,34.8993,洛阳市,吉利监测站,,34,34,61,11,24,82,,73,73,14,26,8,8,0.6,0.6
2026-02-07T1800,3635A,112.3678,34.6623,洛阳市,河科大西苑校区,,39,39,68,15,33,84,,72,72,14,30,9,10,0.5,0.7
2026-02-07T1800,3636A,112.4387,34.678,洛阳市,英才小学,,39,39,68,12,28,84,,70,70,25,31,10,10,0.6,0.6
2026-02-07T1800,4214A,112.460027,34.694929,洛阳市,春都路1号院,,40,40,76,16,28,81,,65,65,19,26,7,8,0.5,0.5
2026-02-07T1800,2399A,114.051,33.5721,漯河市,三五一五工厂,细颗粒物(PM2.5),83,87,100,61,45,68,,62,62,24,22,8,7,0.5,0.6
2026-02-07T1800,2400A,114.0055,33.5698,漯河市,漯河大学,"颗粒物(PM10),细颗粒物(PM2.5)",70,89,88,51,44,79,,67,67,22,23,9,8,0.6,0.6
2026-02-07T1800,2401A,114.0134,33.5826,漯河市,市水利局,颗粒物(PM10),71,92,94,47,45,52,,52,52,29,27,7,6,0.5,0.5
2026-02-07T1800,2402A,114.0261,33.5697,漯河市,市广电局,,,,94,65,45,66,,58,58,18,18,9,8,0.5,0.5
2026-02-07T1800,3478A,113.9691,33.568,漯河市,市图书馆,,,95,97,50,44,71,,60,60,20,23,9,8,,0.8
2026-02-07T1800,4250A,114.089259,33.588274,漯河市,韶山路11号,颗粒物(PM10),82,114,94,49,44,58,,60,60,31,28,8,7,0.5,0.6
2026-02-07T1800,1798A,118.5084,31.6838,马鞍山市,湖东路四小,颗粒物(PM10),55,59,37,30,17,49,,55,55,32,18,10,3,1.0,0.4
2026-02-07T1800,1799A,118.5019,31.6449,马鞍山市,开发区,,50,50,37,29,17,60,,56,55,22,17,4,3,0.4,0.4
2026-02-07T1800,3633A,118.4914,31.681,马鞍山市,雨山,颗粒物(PM10),54,58,40,30,18,54,,54,52,27,18,7,3,0.7,0.6
2026-02-07T1800,4191A,118.527362,31.722269,马鞍山市,慈湖高新区,颗粒物(PM10),54,57,35,31,16,61,,60,60,25,17,10,4,0.4,0.3
2026-02-07T1800,1686A,111.0285,21.469,茂名市,电白南海,,,70,47,51,26,171,,119,119,21,21,,11,1.0,0.9
2026-02-07T1800,1687A,110.9294,21.6533,茂名市,茂石化七小,颗粒物(PM10),67,83,55,45,28,154,,110,110,20,22,7,10,0.7,0.6
2026-02-07T1800,1688A,110.9108,21.6688,茂名市,健康路,"颗粒物(PM10),臭氧1小时(O3_1h)",64,78,48,45,27,171,,120,120,23,26,6,10,0.8,0.8
2026-02-07T1800,1689A,110.8592,21.6826,茂名市,高岭,"颗粒物(PM10),细颗粒物(PM2.5)",79,107,74,58,37,155,,111,111,22,25,4,8,/,/
2026-02-07T1800,3450A,111.0101,21.5165,茂名市,电白水东,细颗粒物(PM2.5),72,70,42,52,27,171,,122,122,31,25,9,11,/,/
2026-02-07T1800,2540A,103.8414,30.0871,眉山市,气象局,颗粒物(PM10),68,85,94,35,59,48,,65,47,33,33,14,12,0.7,0.9
2026-02-07T1800,3148A,103.829,30.0563,眉山市,区人社局,颗粒物(PM10),66,81,87,32,58,41,,62,42,30,30,9,10,0.6,0.8
2026-02-07T1800,4148A,103.8836,30.0695,眉山市,眉职院,颗粒物(PM10),56,62,85,36,56,50,,62,51,25,21,4,5,0.6,0.8
2026-02-07T1800,1690A,116.1248,24.3307,梅州市,梅江月梅,,21,18,24,9,17,67,,63,63,14,16,/,/,/,/
2026-02-07T1800,1691A,116.0798,24.2719,梅州市,梅县新城,,22,21,26,12,17,68,,63,63,15,19,7,7,0.8,0.8
2026-02-07T1800,3315A,116.1234,24.2994,梅州市,梅龙,,19,19,28,11,17,60,,56,56,12,19,8,8,0.9,0.9
2026-02-07T1800,1878A,104.7775,31.4741,绵阳市,富乐山,颗粒物(PM10),53,56,72,18,40,70,,75,72,8,14,8,8,0.5,0.7
2026-02-07T1800,1880A,104.6698,31.4668,绵阳市,高新区自来水公司,,47,47,72,15,46,66,,70,69,18,28,7,7,0.6,0.8
2026-02-07T1800,3491A,104.6899,31.5324,绵阳市,西科大附属小学,,46,46,85,16,52,71,,75,74,17,29,8,9,0.3,0.6
2026-02-07T1800,3492A,104.5647,31.5343,绵阳市,安州区旅游局,颗粒物(PM10),59,67,85,16,51,65,,66,66,14,20,9,10,0.4,0.8
2026-02-07T1800,4146A,104.7092,31.4972,绵阳市,科技城新区公安局,颗粒物(PM10),55,60,91,15,45,71,,76,74,20,34,5,5,0.5,0.8
2026-02-07T1800,4226A,104.765114,31.453094,绵阳市,绵阳市气象局,,,60,75,16,44,67,,75,71,,21,4,8,0.4,0.7
2026-02-07T1800,1784A,129.61,44.561,牡丹江市,环保大楼,,38,38,33,16,15,67,,70,70,12,11,4,3,0.3,0.3
2026-02-07T1800,1787A,129.6364,44.6075,牡丹江市,机车工厂,,33,31,34,23,18,63,,65,65,10,14,6,6,0.4,0.4
2026-02-07T1800,1788A,129.6386,44.5462,牡丹江市,第一中学,,20,19,28,14,16,64,,66,66,8,10,4,4,0.3,0.3
2026-02-07T1800,4287A,129.5992,44.5964,牡丹江市,东晓云街98号,,26,26,41,13,21,65,,66,66,7,12,4,4,0.6,0.6
2026-02-07T1800,2531A,105.0703,29.61,内江市,市监测站,细颗粒物(PM2.5),57,53,76,40,58,62,,81,57,18,23,4,6,0.6,0.7
2026-02-07T1800,2533A,105.0657,29.5807,内江市,内江二中,细颗粒物(PM2.5),54,56,76,38,56,52,,76,47,20,23,6,8,0.6,0.6
2026-02-07T1800,2534A,105.0407,29.5828,内江市,内江日报社,细颗粒物(PM2.5),59,44,71,42,57,56,,73,49,19,30,6,7,0.4,0.5
2026-02-07T1800,4147A,105.0433,29.6105,内江市,玉峰路西段888号,细颗粒物(PM2.5),57,43,68,40,54,57,,71,53,21,27,3,5,0.5,0.6
2026-02-07T1800,2628A,92.0653,31.4846,那曲市,那曲监测站,,25,16,32,16,25,78,,68,68,7,19,11,13,0.8,1.1
2026-02-07T1800,4243A,92.0515,31.4787,那曲市,那曲市委宣传部,,27,6,22,6,17,86,,75,75,1,11,7,9,0.4,0.9
2026-02-07T1800,1291A,115.8887,28.7006,南昌市,省林业公司,,46,39,20,32,21,59,,57,57,8,7,3,3,0.5,0.5
2026-02-07T1800,1292A,115.813,28.7443,南昌市,林科所,,44,44,23,24,18,45,,46,46,17,14,7,7,0.6,0.5
2026-02-07T1800,1294A,115.8518,28.687,南昌市,建工学校,颗粒物(PM10),55,59,33,29,20,48,,48,48,19,19,7,7,0.6,0.6
2026-02-07T1800,1295A,115.8926,28.6425,南昌市,象湖,颗粒物(PM10),54,57,29,36,24,51,,50,50,17,14,7,7,0.7,0.6
2026-02-07T1800,3046A,115.9084,28.6062,南昌市,机电学校,颗粒物(PM10),51,51,32,32,22,57,,54,54,16,14,4,4,0.4,0.4
2026-02-07T1800,3690A,115.9718,28.7032,南昌市,外国语学校,颗粒物(PM10),51,51,31,35,24,57,,53,53,20,18,10,11,0.7,0.6
2026-02-07T1800,4106A,115.7923,28.6873,南昌市,工业二路,颗粒物(PM10),52,54,31,29,21,49,,62,58,15,14,3,3,0.7,0.6
2026-02-07T1800,4192A,115.931587,28.686774,南昌市,南京东路235号,,48,48,30,31,21,56,,54,54,17,12,4,5,0.4,0.3
2026-02-07T1800,1906A,106.0791,30.8022,南充市,南充市委,细颗粒物(PM2.5),74,75,82,54,58,52,,46,46,22,42,3,3,0.6,0.9
2026-02-07T1800,1907A,106.1038,30.8215,南充市,南充炼油厂,细颗粒物(PM2.5),68,74,83,49,56,54,,52,52,21,28,5,5,0.7,0.8
2026-02-07T1800,4227A,106.108336,30.788436,南充市,梨树横街98号,细颗粒物(PM2.5),83,81,85,61,64,74,,62,62,16,30,5,6,0.5,0.7
2026-02-07T1800,4304A,106.1172,30.843,南充市,清泉寺北路188号,细颗粒物(PM2.5),70,64,70,51,56,74,,66,66,13,15,2,3,0.6,0.7
2026-02-07T1800,4305A,106.067,30.7616,南充市,同庆路1号,细颗粒物(PM2.5),87,65,76,64,59,52,,50,50,30,45,5,6,0.7,0.8
2026-02-07T1800,1151A,118.8033,32.1085,南京市,迈皋桥,,47,47,29,31,17,64,,63,63,14,16,6,5,0.4,0.2
2026-02-07T1800,1152A,118.7487,32.057,南京市,草场门,,49,48,33,34,17,47,,46,44,23,18,5,4,0.5,0.5
2026-02-07T1800,1154A,118.770105,32.004342,南京市,中华门,颗粒物(PM10),51,51,30,24,11,68,,62,62,11,11,3,3,0.3,0.3
2026-02-07T1800,1155A,118.8059,32.0329,南京市,瑞金路,颗粒物(PM10),54,58,29,27,12,65,,64,64,17,3,3,4,0.7,0.5
2026-02-07T1800,1156A,118.7946,32.0774,南京市,玄武湖,,48,46,30,33,15,63,,64,63,17,12,1,3,0.5,0.4
2026-02-07T1800,1157A,118.6415,32.0964,南京市,浦口,,49,49,35,25,10,66,,64,64,18,16,4,4,0.3,0.4
2026-02-07T1800,1158A,118.730129,32.000956,南京市,奥体中心,颗粒物(PM10),52,53,33,24,9,72,,68,68,14,14,4,4,0.3,0.3
2026-02-07T1800,1159A,118.9072,32.1047,南京市,仙林大学城,颗粒物(PM10),57,63,35,32,12,64,,64,64,20,13,5,5,0.4,0.3
2026-02-07T1800,3422A,118.8443,31.919,南京市,江宁彩虹桥,颗粒物(PM10),57,63,37,24,9,75,,71,71,16,13,4,4,0.7,0.6
2026-02-07T1800,3427A,118.8497,32.3599,南京市,六合雄州,颗粒物(PM10),56,61,37,28,10,70,,66,66,21,13,2,1,0.5,0.4
2026-02-07T1800,4086A,118.7641,32.0841,南京市,新模范马路66号,颗粒物(PM10),58,66,38,30,12,90,,85,81,2,2,4,4,1.0,1
2026-02-07T1800,4249A,118.8707617,31.34017673,南京市,汶溪路181号,,48,48,34,20,8,50,,54,52,24,17,6,5,0.7,0.4
2026-02-07T1800,4312A,119.019,31.6512,南京市,中山西路1号,,48,48,29,26,8,58,,59,59,21,15,4,4,0.6,0.5
2026-02-07T1800,1401A,108.3098,22.788,南宁市,二十一中,细颗粒物(PM2.5),52,43,31,36,32,55,,48,48,18,16,4,4,0.7,0.6
2026-02-07T1800,1402A,108.3135,22.8529,南宁市,北湖,,50,45,45,35,36,59,,52,52,19,18,2,3,0.7,0.7
2026-02-07T1800,1403A,108.3205,22.8222,南宁市,市监测站,,50,42,36,35,31,57,,49,49,20,18,6,6,0.9,0.8
2026-02-07T1800,1404A,108.3828,22.8038,南宁市,大自然花园,细颗粒物(PM2.5),52,51,38,36,29,69,,63,63,16,14,6,6,0.8,0.7
2026-02-07T1800,1406A,108.2397,22.8462,南宁市,区农职院,,46,46,41,32,35,57,,51,51,23,20,4,5,0.9,0.9
2026-02-07T1800,1407A,108.3285,22.7356,南宁市,英华嘉园,细颗粒物(PM2.5),57,41,38,40,32,67,,58,58,14,13,4,4,0.6,0.6
2026-02-07T1800,3401A,108.4829,22.762,南宁市,红星社区,,50,47,37,35,33,68,,64,64,12,10,6,5,0.9,0.9
2026-02-07T1800,4132A,108.2927,23.1477,南宁市,起凤路9号,细颗粒物(PM2.5),53,43,41,37,34,62,,61,61,16,12,1,1,0.7,0.7
2026-02-07T1800,4221A,108.2177,22.7774,南宁市,乐贤路16号,细颗粒物(PM2.5),52,43,41,36,33,62,,52,52,19,20,2,2,1.0,0.9
2026-02-07T1800,2332A,118.1682,26.6371,南平市,南平市监测站,,28,11,14,3,6,87,,81,81,8,10,3,3,0.3,0.4
2026-02-07T1800,2334A,118.1757,26.6276,南平市,南平七中,,28,22,16,3,5,89,,82,82,7,8,7,4,0.5,0.7
2026-02-07T1800,1168A,120.9056,31.9669,南通市,狼山街道,颗粒物(PM10),58,66,27,36,9,71,,71,71,18,13,2,2,0.3,0.2
2026-02-07T1800,1170A,120.8635,32.0231,南通市,城中,细颗粒物(PM2.5),64,69,30,46,13,77,,79,79,8,3,3,2,0.5,0.4
2026-02-07T1800,1171A,120.9376,31.9301,南通市,星湖花园,颗粒物(PM10),57,64,27,36,9,78,,77,77,16,13,4,4,0.5,0.3
2026-02-07T1800,1172A,120.8053,32.046,南通市,紫琅学院,细颗粒物(PM2.5),67,74,28,48,13,73,,74,74,9,3,3,3,0.8,0.6
2026-02-07T1800,3291A,121.0631,32.0644,南通市,通州监测站,,48,48,23,22,8,79,,78,78,17,12,2,2,0.4,0.3
2026-02-07T1800,3432A,120.9348,31.9874,南通市,环境教育馆,颗粒物(PM10),57,63,30,33,9,69,,70,70,15,10,3,3,0.7,0.5
2026-02-07T1800,4091A,120.8692,31.9885,南通市,洪江路,细颗粒物(PM2.5),57,57,24,40,10,67,,68,68,16,9,3,3,0.5,0.4
2026-02-07T1800,2404A,112.5338,33.0086,南阳市,瓦房庄,颗粒物(PM10),78,106,86,54,34,49,,47,47,30,22,6,5,0.8,0.7
2026-02-07T1800,2405A,112.5002,32.9734,南阳市,汉画馆,细颗粒物(PM2.5),100,117,92,75,51,54,,48,48,27,24,8,8,0.6,0.6
2026-02-07T1800,2406A,112.5778,33.0144,南阳市,气象站,颗粒物(PM10),92,133,103,61,38,48,,48,48,35,23,8,7,0.7,0.6
2026-02-07T1800,2407A,112.548,32.9687,南阳市,理工学院,细颗粒物(PM2.5),92,112,94,68,40,43,,44,44,39,27,8,7,0.6,0.6
2026-02-07T1800,4008A,112.5233,32.9921,南阳市,卧龙区政府,细颗粒物(PM2.5),100,132,98,75,41,50,,45,45,26,22,7,7,0.7,0.6
2026-02-07T1800,1234A,121.8352,29.9111,宁波市,区环保大楼,,46,46,25,21,9,55,,68,56,25,19,4,4,0.5,0.4
2026-02-07T1800,1235A,121.5595,29.8208,宁波市,万里学院,,32,32,22,20,9,54,,64,,23,13,2,2,0.7,0.6
2026-02-07T1800,1236A,121.713,29.9564,宁波市,龙赛医院,,46,46,20,19,6,48,,66,52,32,18,3,3,0.7,0.5
2026-02-07T1800,1240A,121.5855,29.8635,宁波市,太古小学,,34,34,20,18,9,60,,66,58,18,9,2,2,0.7,0.6
2026-02-07T1800,1241A,121.5239,29.8673,宁波市,市环境监测中心,,35,35,28,17,9,50,,56,52,21,13,2,1,0.5,0.3
2026-02-07T1800,2871A,121.6156,29.9015,宁波市,万里国际学校,颗粒物(PM10),72,94,61,18,8,62,,57,57,23,14,2,2,1.1,0.7
2026-02-07T1800,3710A,121.5593,29.8976,宁波市,白沙活动中心,颗粒物(PM10),52,54,31,18,9,54,,64,53,20,14,3,3,0.5,0.3
2026-02-07T1800,4095A,121.8962,29.7529,宁波市,中科路88号,,32,32,18,22,9,58,,72,59,23,17,4,4,0.4,0.4
2026-02-07T1800,2341A,119.5387,26.6611,宁德市,宁德市监测站,,23,23,16,14,7,73,,68,60,18,15,3,3,0.5,0.5
2026-02-07T1800,3209A,119.5231,26.6562,宁德市,宁德一中,,26,26,14,18,9,81,,71,64,17,16,3,3,0.2,0.2
2026-02-07T1800,2618A,98.859,25.8541,怒江傈僳族自治州,州监测站,,30,28,44,20,26,93,,85,85,8,13,6,6,0.4,0.4
2026-02-07T1800,2619A,98.8607,25.8168,怒江傈僳族自治州,泸水一中,,42,42,38,24,28,85,,75,75,11,24,4,5,0.3,0.4
2026-02-07T1800,1888A,101.6891,26.571,攀枝花市,弄弄坪,,31,31,61,14,32,95,,84,84,13,39,7,36,0.6,1.6
2026-02-07T1800,1889A,101.577,26.5914,攀枝花市,河门口,,31,31,46,17,22,98,,85,85,10,21,21,22,0.9,0.9
2026-02-07T1800,1891A,101.7365,26.4986,攀枝花市,仁和,,30,26,33,15,22,95,,84,84,11,18,8,13,0.6,0.9
2026-02-07T1800,2835A,101.7222,26.567,攀枝花市,四十中小,,42,42,54,11,31,90,,78,78,13,46,10,33,0.5,1.3
2026-02-07T1800,1604A,122.0303,41.1489,盘锦市,开发区,,45,45,49,25,31,60,,70,69,12,18,7,7,0.2,0.3
2026-02-07T1800,1605A,122.0486,41.0883,盘锦市,兴隆台,,38,38,48,19,28,64,,60,60,17,27,5,8,0.5,0.6
2026-02-07T1800,1606A,121.8297,41.1026,盘锦市,新生街道,,34,34,41,8,27,53,,72,71,18,31,6,8,0.1,0.3
2026-02-07T1800,1832A,113.3257,33.7423,平顶山市,新华旅馆,颗粒物(PM10),56,62,88,20,37,82,,67,67,12,25,7,7,0.3,0.4
2026-02-07T1800,1833A,113.2917,33.737,平顶山市,规划设计院,,49,49,82,22,38,80,,65,65,8,18,8,8,0.2,0.4
2026-02-07T1800,1834A,113.182,33.7738,平顶山市,平顶山工学院,,44,44,78,22,37,83,,66,66,10,22,9,9,0.3,0.5
2026-02-07T1800,3594A,112.8736,33.9068,平顶山市,石龙区,,44,44,99,29,38,89,,74,74,2,21,5,6,0.3,0.6
2026-02-07T1800,4116A,113.284,33.7139,平顶山市,姚电大道23号,,39,39,99,18,42,84,,66,66,15,24,5,6,0.4,0.6
2026-02-07T1800,2656A,106.6633,35.5338,平凉市,聚贤嘉苑,,41,41,72,19,26,98,,90,90,5,7,8,14,0.4,0.4
2026-02-07T1800,2657A,106.7021,35.5307,平凉市,博物馆,,41,41,74,20,28,94,,92,92,6,7,8,8,0.4,0.4
2026-02-07T1800,2348A,113.8384,27.6436,萍乡市,中医院,,29,27,51,20,30,81,,65,65,13,16,3,4,0.4,0.8
2026-02-07T1800,2350A,113.8677,27.6438,萍乡市,市环保局,,29,29,46,20,32,86,,69,69,18,21,24,27,0.2,0.6
2026-02-07T1800,2351A,113.8663,27.6202,萍乡市,安源区政府,,25,24,52,17,34,72,,58,58,12,18,3,3,0.1,0.5
2026-02-07T1800,4107A,113.8686,27.6668,萍乡市,联洪村委会,,32,32,43,21,30,64,,51,51,14,21,2,2,0.3,0.6
2026-02-07T1800,2319A,119.0142,25.4324,莆田市,荔城区仓后路,,33,33,21,12,8,78,,75,71,13,15,/,/,/,/
2026-02-07T1800,2320A,119.0016,25.4553,莆田市,莆田市监测站,,27,27,19,11,9,78,,76,72,13,15,2,2,0.4,0.5
2026-02-07T1800,2321A,119.112,25.4561,莆田市,涵江区六中,,33,33,19,13,7,83,,77,73,12,12,/,/,0.4,0.5
2026-02-07T1800,2322A,119.1014,25.3215,莆田市,秀屿区政府,,29,26,19,12,7,91,,81,79,8,10,2,2,0.6,0.5
2026-02-07T1800,2392A,115.0312,35.7636,濮阳市,环保局,,41,41,52,25,25,75,,69,69,16,15,6,6,0.4,0.5
2026-02-07T1800,3021A,115,35.7667,濮阳市,濮水河管理处,,49,49,60,31,28,77,,72,72,15,18,6,6,0.5,0.5
2026-02-07T1800,4118A,115.0552,35.7816,濮阳市,中原东路68号,颗粒物(PM10),55,60,66,35,27,76,,70,70,21,21,5,5,0.5,0.5
2026-02-07T1800,4216A,115.0923632,35.76857718,濮阳市,任丘路479号,颗粒物(PM10),51,51,57,34,30,75,,70,70,16,16,12,10,0.3,0.4
2026-02-07T1800,2601A,100.9801,22.7634,普洱市,市环保局,,50,50,48,24,21,102,,97,97,6,9,6,5,0.4,0.4
2026-02-07T1800,2602A,100.9763,22.8237,普洱市,普洱第二中学,颗粒物(PM10),52,54,49,28,23,104,,97,97,8,25,6,5,0.5,0.5
2026-02-07T1800,3345A,131.0413,45.7795,七台河市,中波台,,21,16,25,13,13,65,,69,69,9,9,9,11,0.4,0.4
2026-02-07T1800,3637A,131.0136,45.7688,七台河市,人民广场,,27,27,31,18,18,62,,66,66,14,16,8,9,0.5,0.5
2026-02-07T1800,3684A,130.8639,45.8144,七台河市,新建矿广场,,35,31,27,24,15,58,,64,64,13,9,7,7,0.4,0.2
2026-02-07T1800,1779A,123.9307,47.3641,齐齐哈尔市,安居小区,,21,21,28,3,12,48,,67,66,28,13,7,7,0.5,0.4
2026-02-07T1800,1780A,123.9497,47.3389,齐齐哈尔市,中心广场,,23,23,22,12,12,56,,62,62,18,11,6,6,0.6,0.6
2026-02-07T1800,1781A,123.9483,47.3229,齐齐哈尔市,农牧车辆厂,,27,27,27,10,12,52,,63,63,21,11,7,6,0.3,0.3
2026-02-07T1800,1783A,123.9442,47.2994,齐齐哈尔市,市环境监测站,,20,20,29,3,9,60,,66,66,13,14,3,4,0.4,0.4
2026-02-07T1800,3662A,123.6341,47.2079,齐齐哈尔市,富区青少年活动中心,颗粒物(PM10),54,57,33,25,12,59,,69,69,23,11,9,6,0.8,0.5
2026-02-07T1800,2591A,107.9765,26.5724,黔东南苗族侗族自治州,市环境监测站,,35,25,36,24,27,54,,54,50,12,12,2,3,0.9,0.8
2026-02-07T1800,2881A,107.8909,26.531,黔东南苗族侗族自治州,凯里学院,,38,34,35,26,27,55,,55,55,15,16,3,3,0.8,0.8
2026-02-07T1800,2593A,107.5223,26.2371,黔南布依族苗族自治州,小围寨,,23,,21,16,20,44,,41,39,10,7,5,4,1.2,0.9
2026-02-07T1800,3538A,107.5175,26.2977,黔南布依族苗族自治州,沙坝,,29,22,29,20,21,53,,54,47,12,9,5,5,1.0,0.9
2026-02-07T1800,2589A,104.9022,25.0943,黔西南布依族苗族自治州,场坝街,细颗粒物(PM2.5),55,50,52,39,40,57,,67,67,8,10,5,4,0.8,0.8
2026-02-07T1800,2590A,104.8812,25.0994,黔西南布依族苗族自治州,坪东大道,细颗粒物(PM2.5),62,58,46,44,42,58,,68,68,10,11,5,5,0.9,0.9
2026-02-07T1800,2502A,108.6238,21.9667,钦州市,市环保站,细颗粒物(PM2.5),67,75,63,48,39,97,,79,79,17,20,4,3,0.8,0.8
2026-02-07T1800,2503A,108.655,21.9481,钦州市,沙埠小学,颗粒物(PM10),68,85,61,47,35,101,,82,82,18,21,5,5,0.7,0.6
2026-02-07T1800,2504A,108.5989,21.7435,钦州市,港区一小,颗粒物(PM10),59,68,65,38,36,97,,74,74,21,34,2,2,0.8,0.8
2026-02-07T1800,3404A,108.5959,21.9634,钦州市,北职校,细颗粒物(PM2.5),55,50,54,39,32,86,,73,73,14,21,3,3,0.9,0.8
2026-02-07T1800,1046A,119.5247,39.9346,秦皇岛市,建设大厦,,33,33,33,8,14,64,,69,69,14,26,4,7,0.3,0.5
2026-02-07T1800,3132A,119.5979,39.938,秦皇岛市,文明里,,25,25,33,11,13,62,,68,68,17,19,8,10,0.3,0.4
2026-02-07T1800,4066A,119.7458,39.9952,秦皇岛市,南园路157号,,34,34,31,22,13,70,,71,71,17,33,7,9,0.3,0.5
2026-02-07T1800,4067A,119.5131,39.8858,秦皇岛市,翠岛大街1号,,27,27,29,7,8,62,,68,68,15,17,8,10,0.3,0.4
2026-02-07T1800,4198A,119.509013,39.825305,秦皇岛市,北戴河轮滑馆,,24,23,28,12,12,74,,75,75,10,27,5,7,0.4,0.5
2026-02-07T1800,1310A,120.404,36.0625,青岛市,市南区东部子站,颗粒物(PM10),52,53,40,16,14,67,,72,72,12,9,8,11,0.5,0.4
2026-02-07T1800,1311A,120.362344,36.10282,青岛市,四方区子站,,46,46,37,16,11,67,,74,74,12,9,4,5,0.5,0.4
2026-02-07T1800,1312A,120.294373,36.054183,青岛市,市南区西部子站,,41,41,27,15,15,62,,67,67,14,8,3,4,0.4,0.3
2026-02-07T1800,1313A,120.4581,36.0858,青岛市,崂山区子站,,,39,27,,12,67,,73,72,14,10,9,11,0.3,0.3
2026-02-07T1800,1315A,120.3945,36.3083,青岛市,城阳区子站,,31,31,33,12,18,68,,72,72,16,14,7,7,0.6,0.6
2026-02-07T1800,3642A,120.3454,36.0735,青岛市,市北区南部,颗粒物(PM10),53,55,31,16,14,52,,66,64,24,14,4,3,0.6,0.6
2026-02-07T1800,3643A,120.3897,36.18,青岛市,李沧区北部,,,41,32,16,15,58,,66,66,,12,,10,,0.4
2026-02-07T1800,4110A,120.5222,36.4089,青岛市,盟旺路653号,,35,35,35,9,15,64,,66,66,21,19,4,3,0.6,0.7
2026-02-07T1800,4290A,120.196923,35.954556,青岛市,珠江路669号,,48,48,31,20,17,51,,71,70,26,16,7,8,0.2,0.2
2026-02-07T1800,4291A,120.0424,35.8656,青岛市,黄岛区人民政府广场,,44,44,33,22,15,66,,72,72,18,15,7,8,0.4,0.3
2026-02-07T1800,1703A,113.0218,23.7086,清远市,凤城街办,,20,20,26,12,16,62,,63,63,16,17,/,/,/,/
2026-02-07T1800,3025A,113.0479,23.6343,清远市,技师学院,,28,28,36,12,17,75,,64,64,24,27,5,5,0.7,0.7
2026-02-07T1800,3318A,112.9898,23.7403,清远市,清新太和,,23,23,25,15,14,54,,64,62,18,13,12,8,1.0,0.9
2026-02-07T1800,3455A,113.076,23.72,清远市,清城东城,,22,19,30,9,17,70,,56,,25,26,/,/,/,/
2026-02-07T1800,2661A,107.6325,35.7357,庆阳市,庆阳五中,,34,34,64,7,21,91,,88,88,6,11,5,6,0.3,0.4
2026-02-07T1800,2662A,107.6361,35.7067,庆阳市,市环保局,,40,40,68,11,22,86,,86,86,10,10,3,4,0.2,0.3
2026-02-07T1800,1916A,103.7897,25.5036,曲靖市,环境监测站,,35,35,44,13,30,110,,102,102,8,13,5,6,0.3,0.5
2026-02-07T1800,1917A,103.8013,25.5357,曲靖市,烟厂办公区,,33,30,47,10,28,103,,93,93,6,15,3,4,0.3,0.5
2026-02-07T1800,3376A,103.7926,25.4651,曲靖市,南苑二区,,31,22,45,18,31,97,,88,88,11,14,4,4,0.2,0.4
2026-02-07T1800,3377A,103.7442,25.5259,曲靖市,曲靖师范学院,,35,24,45,16,34,110,,102,102,5,14,3,4,0.3,0.4
2026-02-07T1800,1264A,118.8694,28.94,衢州市,环保大楼,,36,27,15,25,15,66,,54,54,19,18,/,/,/,/
2026-02-07T1800,1266A,118.8622,28.9809,衢州市,衢州学院,,28,25,13,19,12,62,,52,52,18,17,4,4,0.3,0.3
2026-02-07T1800,4097A,118.9646,28.9832,衢州市,衢州三中,,,20,12,20,11,63,,51,51,,26,4,4,0.5,0.3
2026-02-07T1800,1611A,118.5818,24.9116,泉州市,涂山街,,,40,27,15,16,72,,74,74,15,14,3,3,,0.6
2026-02-07T1800,1612A,118.597,24.8976,泉州市,津头埔,,39,39,25,16,17,71,,72,72,16,14,2,2,0.5,0.6
2026-02-07T1800,1613A,118.6669,24.9422,泉州市,万安,,41,41,29,17,15,69,,68,68,16,14,3,3,0.4,0.5
2026-02-07T1800,4105A,118.6355,24.9148,泉州市,霞新路6号,,28,28,19,14,12,69,,70,70,16,15,/,/,0.6,0.6
2026-02-07T1800,2626A,88.8873,29.2723,日喀则市,日喀则监测站,,29,14,23,3,15,92,,84,84,1,13,10,12,0.2,0.5
2026-02-07T1800,3726A,88.8775,29.2425,日喀则市,林业技术推广中心,,28,11,14,3,4,88,,84,84,2,5,5,6,0.2,0.3
2026-02-07T1800,1659A,119.4711,35.421,日照市,监测站,,46,46,33,21,16,70,,70,70,13,12,8,8,0.6,0.6
2026-02-07T1800,1660A,119.523,35.4216,日照市,市政府广场,,41,41,33,20,14,76,,74,74,16,16,7,7,0.3,0.3
2026-02-07T1800,1661A,119.5511,35.4113,日照市,港务局,,46,46,38,17,17,74,,71,71,14,13,6,5,0.4,0.4
2026-02-07T1800,3507A,119.5326,35.4627,日照市,职业技术学院,,44,44,35,20,15,76,,74,74,16,16,8,8,0.5,0.5
2026-02-07T1800,3604A,119.3267,35.1043,日照市,岚山环保分局,颗粒物(PM10),51,51,44,23,15,71,,72,72,16,14,12,13,0.7,0.7
2026-02-07T1800,1835A,111.1922,34.7752,三门峡市,市政府,,30,18,39,17,18,96,,92,92,14,25,6,10,0.3,0.6
2026-02-07T1800,1836A,111.1588,34.794,三门峡市,开发区,,28,23,48,3,20,88,,84,84,12,21,6,9,0.3,0.4
2026-02-07T1800,3039A,111.1911,34.7829,三门峡市,三门峡市第一小学,,28,27,53,12,18,88,,84,84,11,22,6,11,0.4,0.5
2026-02-07T1800,3598A,111.1031,34.719,三门峡市,富达温泉假日酒店,,28,21,60,10,25,88,,87,87,14,26,4,10,0.3,0.5
2026-02-07T1800,2324A,117.621,26.2626,三明市,三钢,,25,18,19,10,14,80,,72,72,9,11,3,6,0.4,0.7
2026-02-07T1800,2325A,117.6352,26.2714,三明市,三明二中,,26,14,17,7,11,82,,71,71,8,11,3,4,0.7,0.9
2026-02-07T1800,2326A,117.6028,26.2377,三明市,三元区政府,,27,16,17,6,10,84,,75,75,9,12,2,3,0.7,0.9
2026-02-07T1800,1877A,109.4962,18.2682,三亚市,河西子站,,26,21,23,9,9,81,,78,78,6,9,3,3,0.3,0.4
2026-02-07T1800,3540A,109.7348,18.3443,三亚市,君悦子站,,32,32,20,10,10,84,,76,76,4,7,2,2,0.4,0.4
2026-02-07T1800,4135A,109.1714,18.3739,三亚市,城东小学站,,29,29,25,7,11,83,,83,83,6,9,/,/,/,/
2026-02-07T1800,2624A,91.7592,29.234,山南市,山南监测站,,27,7,14,3,7,85,,70,70,1,10,4,5,0.3,0.5
2026-02-07T1800,2625A,91.7701,29.2436,山南市,山南人民医院,,27,11,15,3,6,85,,70,70,1,10,6,6,0.5,0.6
2026-02-07T1800,1674A,116.6795,23.3666,汕头市,金平子站,,30,30,28,9,18,92,,91,91,12,12,4,4,0.7,0.6
2026-02-07T1800,1675A,116.7248,23.3632,汕头市,龙湖子站,,36,36,29,12,21,86,,89,88,14,12,9,9,/,/
2026-02-07T1800,1676A,116.7257,23.2774,汕头市,濠江子站,,37,37,29,10,17,89,,90,90,14,14,6,7,/,/
2026-02-07T1800,1677A,116.7518,23.4712,汕头市,澄海子站,,35,35,32,9,21,86,,87,87,15,13,7,6,0.7,0.6
2026-02-07T1800,1678A,116.6088,23.2539,汕头市,潮阳子站,,34,34,26,10,17,95,,93,93,11,12,5,5,0.6,0.5
2026-02-07T1800,3444A,116.4539,23.2684,汕头市,潮南峡山,,30,21,31,9,20,95,,88,88,12,11,5,5,0.6,0.6
2026-02-07T1800,3624A,116.4069,23.2533,汕头市,潮南子站,,27,27,37,9,23,78,,77,77,18,15,5,5,/,/
2026-02-07T1800,1693A,115.3653,22.7751,汕尾市,市环保局,,40,40,29,11,22,96,,77,77,10,12,4,4,0.7,0.8
2026-02-07T1800,1695A,115.362,22.7926,汕尾市,新城中学,,33,33,27,12,23,93,,77,77,11,16,5,5,0.6,0.7
2026-02-07T1800,2645A,109.9155,33.8714,商洛市,监测站,,,43,115,15,75,89,,82,82,11,19,5,8,,0.9
2026-02-07T1800,3045A,109.9647,33.8486,商洛市,商州区中学,颗粒物(PM10),59,68,111,11,72,93,,84,84,10,20,5,8,0.4,0.7
2026-02-07T1800,2408A,115.6701,34.4283,商丘市,环境监测站,细颗粒物(PM2.5),84,96,74,62,41,85,,71,71,17,20,5,6,0.4,0.5
2026-02-07T1800,2409A,115.6458,34.4047,商丘市,粮食局,细颗粒物(PM2.5),84,82,70,62,41,76,,66,66,22,24,3,2,0.4,0.4
2026-02-07T1800,3171A,115.6069,34.4465,商丘市,梁园区档案局,细颗粒物(PM2.5),69,73,65,50,37,80,,71,71,16,19,3,2,0.4,0.3
2026-02-07T1800,4119A,115.6701,34.3767,商丘市,北海东路185号,细颗粒物(PM2.5),80,97,82,59,36,83,,69,69,19,20,4,4,0.4,0.4
2026-02-07T1800,4120A,115.6172,34.3704,商丘市,中山大街3号,细颗粒物(PM2.5),84,102,86,62,40,84,,70,70,18,23,3,2,0.3,0.3
2026-02-07T1800,1141A,121.401,31.2382,上海市,普陀,颗粒物(PM10),55,59,25,35,13,66,,68,67,22,18,6,5,0.6,0.5
2026-02-07T1800,1142A,121.4774,31.2043,上海市,十五厂,颗粒物(PM10),53,55,23,35,13,72,,71,71,19,16,6,6,0.5,0.4
2026-02-07T1800,1143A,121.4673,31.3011,上海市,虹口,颗粒物(PM10),54,58,24,28,11,65,,65,65,16,13,4,6,0.4,0.1
2026-02-07T1800,1147A,121.4253,31.226,上海市,静安监测站,颗粒物(PM10),51,52,23,32,11,71,,71,71,21,17,7,6,0.4,0.4
2026-02-07T1800,1148A,121.7029,31.1905,上海市,浦东川沙,颗粒物(PM10),54,58,24,37,13,70,,72,72,19,16,7,7,0.5,0.4
2026-02-07T1800,1149A,121.5339,31.229,上海市,浦东新区监测站,细颗粒物(PM2.5),62,58,23,44,18,72,,69,67,15,13,6,5,0.6,0.5
2026-02-07T1800,1150A,121.5776,31.2038,上海市,浦东张江,"颗粒物(PM10),细颗粒物(PM2.5)",53,55,23,37,14,76,,74,74,16,14,6,6,0.1,0.1
2026-02-07T1800,3265A,121.4242,31.3303,上海市,宝山庙行,"颗粒物(PM10),细颗粒物(PM2.5)",54,58,27,38,13,69,,70,70,17,16,7,7,0.5,0.5
2026-02-07T1800,3266A,121.8789,31.4662,上海市,崇明上实东滩,,45,45,23,30,12,86,,80,80,7,6,4,3,0.1,0.1
2026-02-07T1800,3268A,121.316,31.2839,上海市,嘉定南翔,颗粒物(PM10),53,55,22,36,14,70,,70,70,18,15,3,3,0.6,0.5
2026-02-07T1800,3269A,121.3357,30.7455,上海市,金山新城,,50,50,21,34,16,60,,63,63,26,24,8,7,0.7,0.6
2026-02-07T1800,3270A,121.4996,31.0741,上海市,闵行浦江,颗粒物(PM10),51,51,22,34,13,72,,69,69,17,16,6,6,0.4,0.3
2026-02-07T1800,3271A,121.2886,31.1663,上海市,青浦徐泾,细颗粒物(PM2.5),54,52,22,38,15,70,,73,70,23,18,5,4,0.6,0.5
2026-02-07T1800,3272A,121.2193,31.0382,上海市,松江图书馆,颗粒物(PM10),53,56,25,33,15,73,,67,67,15,15,6,5,0.6,0.5
2026-02-07T1800,3273A,121.3904,31.206,上海市,长宁仙霞,颗粒物(PM10),53,56,23,31,11,68,,68,67,19,14,7,6,0.8,0.7
2026-02-07T1800,3274A,121.7964,31.0507,上海市,浦东惠南,,,57,22,33,12,70,,70,70,21,20,4,4,,0.5
2026-02-07T1800,3544A,121.4891,30.925,上海市,奉贤南桥新城,,50,50,23,33,15,71,,68,68,18,16,4,3,0.4,0.3
2026-02-07T1800,4183A,121.417401,31.16637,上海市,冠生园路458号,颗粒物(PM10),51,51,21,34,13,74,,71,71,20,16,5,4,0.6,0.5
2026-02-07T1800,4205A,121.541914,31.268301,上海市,宁武路151号,颗粒物(PM10),56,62,25,39,14,69,,70,68,21,19,5,5,0.5,0.5
2026-02-07T1800,2382A,117.9758,28.4439,上饶市,市监测站,,24,23,14,7,4,74,,76,76,14,12,4,4,/,/
2026-02-07T1800,2383A,117.9521,28.4637,上饶市,凤凰光学,,23,23,15,10,5,60,,65,65,19,17,7,7,0.9,0.9
2026-02-07T1800,3685A,117.897,28.4316,上饶市,双创科技城,,22,22,16,11,7,45,,59,58,22,18,3,4,0.8,0.8
2026-02-07T1800,4211A,118.190438,28.444845,上饶市,裕丰大道,,22,22,16,12,7,56,,66,66,19,17,10,10,0.6,0.7
2026-02-07T1800,1669A,113.5821,24.7733,韶关市,市八中,,43,43,22,28,13,42,,68,66,23,15,10,6,1.0,0.8
2026-02-07T1800,1671A,113.5916,24.7973,韶关市,园林处,,32,26,18,22,13,57,,71,69,19,14,6,6,/,/
2026-02-07T1800,1673A,113.5971,24.6864,韶关市,曲江监测站,,25,25,20,17,13,58,,73,73,19,14,6,5,0.9,0.9
2026-02-07T1800,2809A,113.6668,24.7756,韶关市,大学路288号,,27,23,19,14,14,86,,83,83,13,14,3,3,/,/
2026-02-07T1800,3622A,113.5556,24.8082,韶关市,碧湖山庄,,42,42,24,26,13,43,,65,63,22,16,9,6,1.1,0.9
2026-02-07T1800,2464A,111.5277,27.2442,邵阳市,市化工厂,细颗粒物(PM2.5),75,78,111,55,92,40,,58,49,13,15,4,4,0.7,0.9
2026-02-07T1800,2466A,111.4327,27.2276,邵阳市,市环保局,细颗粒物(PM2.5),82,63,74,60,83,51,,68,62,15,14,7,7,0.9,1
2026-02-07T1800,4218A,111.446,27.2472,邵阳市,北塔二期4-26地块,细颗粒物(PM2.5),99,,80,74,81,45,,63,57,13,11,6,6,0.8,1
2026-02-07T1800,4219A,111.4739,27.2282,邵阳市,邵水西路287号,细颗粒物(PM2.5),74,65,76,54,80,47,,63,57,10,10,8,8,0.9,1
2026-02-07T1800,1247A,120.6053,29.9927,绍兴市,城东开发委,,32,32,24,22,17,58,,53,53,25,23,6,7,0.4,0.3
2026-02-07T1800,2921A,120.5482,30.0003,绍兴市,树下王站,,30,30,22,21,16,46,,47,45,24,20,6,6,0.4,0.4
2026-02-07T1800,3408A,120.5685,29.936,绍兴市,绍兴中专,,32,32,23,22,17,50,,52,51,19,16,7,7,0.3,0.2
2026-02-07T1800,3409A,120.4905,30.086,绍兴市,柯桥区政府,,37,37,26,20,15,49,,52,51,30,24,5,4,0.4,0.4
2026-02-07T1800,3410A,120.8751,30.0249,绍兴市,重华小学,,26,26,23,18,16,58,,52,52,23,21,7,6,0.4,0.3
2026-02-07T1800,3411A,120.837,30.0137,绍兴市,上虞中学,,30,30,24,18,16,59,,52,52,21,18,6,6,0.6,0.5
2026-02-07T1800,3560A,120.4715,30.0414,绍兴市,柯桥妇保,,37,37,25,25,19,48,,52,50,20,16,5,5,0.4,0.4
2026-02-07T1800,3658A,120.6156,30.0762,绍兴市,袍江中学,,26,26,16,17,12,57,,52,52,15,13,7,7,0.5,0.5
2026-02-07T1800,1356A,114.0948,22.5506,深圳市,通心岭子站,,33,33,38,17,22,105,,98,98,8,34,2,2,0.5,0.5
2026-02-07T1800,1357A,114.1153,22.5713,深圳市,洪湖,,42,42,44,23,24,95,,96,96,19,44,4,5,0.6,0.7
2026-02-07T1800,1358A,113.9823,22.5398,深圳市,华侨城,,,49,38,29,24,,,90,90,51,51,/,/,/,/
2026-02-07T1800,1359A,113.9181,22.517,深圳市,南海子站,,50,50,45,34,28,53,,85,84,69,57,8,8,1.0,0.9
2026-02-07T1800,1360A,114.2345,22.565,深圳市,盐田,,33,33,34,16,21,90,,74,74,19,49,8,8,0.4,0.4
2026-02-07T1800,1363A,114.4911,22.5381,深圳市,南澳,,29,26,23,13,15,92,,83,83,8,10,/,/,/,/
2026-02-07T1800,1364A,114.41,22.6346,深圳市,葵涌,,33,33,28,17,16,92,,82,82,11,18,7,8,0.7,0.7
2026-02-07T1800,1365A,114.2967,22.5978,深圳市,梅沙,,34,34,29,16,15,97,,86,86,12,18,/,/,/,/
2026-02-07T1800,1366A,114.0563,22.7353,深圳市,观澜,,35,33,52,16,23,111,,113,113,15,39,7,8,0.8,0.7
2026-02-07T1800,3305A,114.0614,22.556,深圳市,莲花,,36,36,38,22,25,95,,92,92,17,41,/,/,/,/
2026-02-07T1800,3306A,114.0144,22.6163,深圳市,民治,,39,39,33,24,20,100,,106,106,22,48,/,/,/,/
2026-02-07T1800,3307A,114.1756,22.6421,深圳市,横岗,,47,47,49,27,26,82,,93,93,31,50,/,/,/,/
2026-02-07T1800,3447A,114.344,22.7115,深圳市,坪山,,37,37,34,22,19,100,,99,99,14,25,9,8,0.7,0.7
2026-02-07T1800,3623A,113.8952,22.586,深圳市,西乡,颗粒物(PM10),57,63,48,34,25,75,,109,109,66,56,6,6,0.8,0.7
2026-02-07T1800,4220A,114.214113,22.713717,深圳市,黄阁路,,35,26,38,14,20,110,,104,104,14,37,7,7,1.0,1
2026-02-07T1800,1099A,123.5058,41.7084,沈阳市,浑南东路,,36,36,55,10,31,65,,64,64,18,46,12,11,0.3,0.7
2026-02-07T1800,1100A,123.4238,41.6992,沈阳市,新秀街,,32,32,56,9,26,67,,67,67,10,39,13,13,0.5,0.8
2026-02-07T1800,1102A,123.5903,41.8412,沈阳市,东陵路,,,47,47,19,30,63,,67,67,,33,6,8,,0.8
2026-02-07T1800,1103A,123.4267,41.8466,沈阳市,陵东街,,29,29,39,8,17,71,,72,72,9,20,10,13,0.6,0.7
2026-02-07T1800,1104A,123.4116,41.7654,沈阳市,文化路,,29,29,51,10,20,61,,63,63,16,28,19,16,0.5,0.7
2026-02-07T1800,1105A,123.4673,41.787,沈阳市,小河沿,,39,39,71,10,50,70,,70,70,12,32,8,12,0.3,0.6
2026-02-07T1800,1106A,123.4019,41.7978,沈阳市,太原街,,24,24,46,9,20,62,,66,66,20,27,8,13,0.6,0.7
2026-02-07T1800,1108A,123.3778,41.9233,沈阳市,京沈街,,23,21,43,8,24,72,,76,76,12,32,7,11,0.5,0.7
2026-02-07T1800,2897A,123.2429,41.7341,沈阳市,沈辽西路,,36,36,65,12,31,60,,62,62,16,35,7,12,0.4,0.6
