timepoint,stationcode,longitude,latitude,area,positionname,primarypollutant,aqi,pm10,pm10_24h,pm2_5,pm2_5_24h,o3,o3_24h,o3_8h,o3_8h_24h,no2,no2_24h,so2,so2_24h,co,co_24h
2026-02-07T1200,2568A,102.2503,31.8896,阿坝藏族羌族自治州,马师校,,18,8,18,8,8,55,,43,42,9,10,3,4,0.4,0.4
2026-02-07T1200,3994A,102.2174,31.9016,阿坝藏族羌族自治州,马尔康中学西区,,19,,26,8,8,60,,50,49,7,9,4,4,0.4,0.4
2026-02-07T1200,2695A,80.2899,41.1684,阿克苏地区,电视台,颗粒物(PM10),394,495,306,131,85,61,,34,34,23,26,8,9,0.6,0.8
2026-02-07T1200,2696A,80.2592,41.1541,阿克苏地区,艺术中心,颗粒物(PM10),337,449,280,117,85,75,,46,46,20,26,5,6,0.6,0.8
2026-02-07T1200,2205A,105.699,38.8409,阿拉善盟,蒙二幼,,28,14,42,3,8,88,,75,72,6,8,9,9,0.5,0.5
2026-02-07T1200,2206A,105.7198,38.8508,阿拉善盟,环保局新楼,,26,12,32,3,8,82,,72,69,5,5,8,9,0.5,0.5
2026-02-07T1200,2708A,88.1266,47.8515,阿勒泰地区,市站,,20,17,8,3,3,63,,79,72,35,13,6,3,0.2,0
2026-02-07T1200,4166A,88.1198,47.7931,阿勒泰地区,阿勒泰路33号,,25,11,9,3,2,77,,85,83,16,12,5,5,0.4,0.3
2026-02-07T1200,2630A,80.1171,32.4999,阿里地区,阿里监测站,,22,,3,3,2,69,,69,69,5,4,11,9,0.3,0.3
2026-02-07T1200,3192A,80.0906,32.5029,阿里地区,阿里藏医院,,22,16,10,3,3,68,,60,56,8,8,17,10,0.5,0.4
2026-02-07T1200,2644A,109.0088,32.6974,安康市,汉滨区检察院,细颗粒物(PM2.5),139,124,144,106,103,66,,74,66,12,14,7,8,0.9,0.8
2026-02-07T1200,4054A,109.0324,32.6913,安康市,市邮政管理局,细颗粒物(PM2.5),139,138,152,106,102,62,,69,60,19,20,4,5,0.9,0.9
2026-02-07T1200,2291A,117.0806,30.5181,安庆市,环科院,颗粒物(PM10),52,53,26,24,16,47,,50,48,9,11,5,5,0.5,0.5
2026-02-07T1200,2292A,117.0331,30.5118,安庆市,马山宾馆,,,36,27,28,17,,,52,49,8,8,,4,0.5,0.5
2026-02-07T1200,2294A,116.9897,30.6146,安庆市,安庆大学,,32,32,24,20,14,48,,52,50,10,13,3,3,0.5,0.5
2026-02-07T1200,3173A,117.0598,30.5351,安庆市,市人大,,40,40,29,27,18,44,,50,46,10,11,4,4,0.5,0.5
2026-02-07T1200,3123A,105.9408,26.2431,安顺市,凤凰山,,35,33,41,24,34,40,,63,52,14,14,12,15,0.8,0.8
2026-02-07T1200,3124A,105.9443,26.2567,安顺市,金钟山,,38,30,37,26,32,34,,60,46,10,10,10,13,0.8,0.7
2026-02-07T1200,3125A,105.8983,26.248,安顺市,娄家坡,,39,28,39,27,33,32,,59,46,14,13,14,17,0.8,0.7
2026-02-07T1200,1819A,114.3552,36.1017,安阳市,红庙街,"颗粒物(PM10),细颗粒物(PM2.5)",70,90,66,51,31,53,,35,35,14,16,10,3,0.7,0.6
2026-02-07T1200,1820A,114.361,36.0681,安阳市,银杏小区,细颗粒物(PM2.5),70,85,66,51,32,52,,29,29,15,17,11,4,0.4,0.4
2026-02-07T1200,3141A,114.3921,36.0879,安阳市,信访局,颗粒物(PM10),62,74,61,34,29,55,,35,35,12,12,9,7,0.6,0.5
2026-02-07T1200,3669A,114.4706,36.0634,安阳市,左辅环卫站,颗粒物(PM10),65,79,71,40,29,56,,30,30,15,21,6,4,0.4,0.4
2026-02-07T1200,4117A,114.2918,36.0769,安阳市,钢三路198号,颗粒物(PM10),75,100,72,48,32,47,,27,27,18,14,7,3,0.6,0.6
2026-02-07T1200,1748A,123.0441,41.1201,鞍山市,深沟寺,,25,25,37,15,23,70,,47,47,8,22,7,8,0.5,0.7
2026-02-07T1200,1749A,123.011,41.0931,鞍山市,太阳城,,21,20,35,14,22,66,,47,47,10,23,13,14,0.7,0.9
2026-02-07T1200,1750A,123.0483,41.1445,鞍山市,太平,,32,32,63,14,25,65,,42,42,12,23,9,10,0.3,0.5
2026-02-07T1200,1751A,122.964,41.0968,鞍山市,铁西三道街,,32,32,81,14,30,75,,56,56,7,25,6,12,0.3,0.7
2026-02-07T1200,1753A,123.0219,41.0822,鞍山市,明达新区,,36,36,48,13,22,69,,53,53,10,19,11,11,0.6,0.9
2026-02-07T1200,4201A,122.944647,41.082639,鞍山市,兴盛南路290号,,,23,104,11,37,,,,,15,35,9,12,0.8,1.5
2026-02-07T1200,2195A,107.4206,40.7609,巴彦淖尔市,附二中,,41,41,32,3,10,66,,62,62,8,8,5,6,0.4,0.4
2026-02-07T1200,2196A,107.37,40.7372,巴彦淖尔市,市环保大楼,,48,48,34,3,7,69,,62,62,7,12,4,4,0.3,0.4
2026-02-07T1200,1956A,86.1476,41.7529,巴音郭楞蒙古自治州,孔雀公园,颗粒物(PM10),112,174,115,45,29,77,,89,85,13,8,7,8,0.3,0.3
2026-02-07T1200,1957A,86.1971,41.7166,巴音郭楞蒙古自治州,棉纺厂,颗粒物(PM10),125,200,147,43,31,70,,78,71,16,13,/,/,/,/
2026-02-07T1200,1958A,86.236,41.7172,巴音郭楞蒙古自治州,经济开发区,颗粒物(PM10),144,238,126,33,21,72,,79,75,7,6,5,6,0.4,0.4
2026-02-07T1200,3181A,106.776805,31.852614,巴中市,市五中,细颗粒物(PM2.5),82,69,60,60,47,76,,52,52,13,21,5,6,0.8,0.9
2026-02-07T1200,3183A,106.7419,31.8654,巴中市,圣泉水务公司,细颗粒物(PM2.5),69,56,57,50,47,76,,62,62,16,27,6,6,1.1,1.1
2026-02-07T1200,3616A,106.7617,31.8343,巴中市,市中心医院,细颗粒物(PM2.5),79,74,64,58,49,73,,36,36,16,32,6,6,1.0,1.3
2026-02-07T1200,2235A,122.7909,45.608,白城市,洮北区环保局,,22,19,34,12,24,70,,52,52,8,18,3,8,0.3,0.4
2026-02-07T1200,2236A,122.8741,45.5725,白城市,市环保局,,21,12,33,11,18,67,,46,46,4,16,4,6,0.3,0.4
2026-02-07T1200,2231A,126.4219,41.9172,白山市,喜丰,,49,49,46,28,21,59,,38,38,21,27,27,12,0.8,0.8
2026-02-07T1200,2232A,126.4082,41.9416,白山市,环保局,,46,46,34,24,21,54,,40,40,27,18,46,13,0.7,0.6
2026-02-07T1200,2647A,104.1727,36.5448,白银市,第三小学,颗粒物(PM10),71,92,79,30,30,68,,74,62,12,10,23,10,0.5,0.4
2026-02-07T1200,2648A,104.1467,36.5482,白银市,动力公司,颗粒物(PM10),75,100,76,28,28,75,,70,60,7,8,30,8,0.8,0.5
2026-02-07T1200,2512A,106.6102,23.901,百色市,市监测站,,32,30,39,22,30,44,,22,22,11,24,8,9,0.8,0.8
2026-02-07T1200,2513A,106.6524,23.8842,百色市,市中心血站,,32,32,48,22,34,42,,31,31,9,23,8,9,0.8,0.9
2026-02-07T1200,4133A,106.6273,23.8798,百色市,龙景西路,,,34,52,25,34,,,31,31,10,22,8,9,0.5,0.6
2026-02-07T1200,2270A,117.396,32.9389,蚌埠市,工人疗养院,,47,47,51,20,13,64,,52,52,16,16,4,3,0.4,0.3
2026-02-07T1200,2271A,117.3606,32.9428,蚌埠市,百货大楼,,46,46,50,20,13,65,,53,53,12,12,4,3,0.3,0.3
2026-02-07T1200,2273A,117.4183,32.8909,蚌埠市,蚌埠学院,,36,36,47,20,14,67,,44,42,16,26,6,5,0.4,0.3
2026-02-07T1200,2274A,117.3534,32.9672,蚌埠市,淮上区政府,,41,41,47,22,14,71,,58,58,9,12,4,4,0.3,0.3
2026-02-07T1200,2275A,117.3143,32.8977,蚌埠市,高新区,,41,41,46,21,14,58,,52,52,13,11,6,5,0.3,0.3
2026-02-07T1200,3715A,117.3091,32.9314,蚌埠市,蚌埠田家炳中学,,48,48,54,21,14,63,,54,54,15,13,4,3,0.3,0.3
2026-02-07T1200,1585A,109.8761,40.6533,包头市,市环境监测站,颗粒物(PM10),51,52,25,6,7,70,,70,59,12,11,8,6,0.8,0.5
2026-02-07T1200,1587A,109.9992,40.5843,包头市,包头八中,,45,45,23,6,8,69,,52,42,10,11,7,4,0.7,0.5
2026-02-07T1200,1589A,109.8641,40.6288,包头市,惠龙物流,,,46,23,26,10,,,59,37,20,15,20,12,1.4,0.6
2026-02-07T1200,1590A,110.0376,40.5546,包头市,东河鸿龙湾,,38,38,18,12,5,66,,51,48,21,16,15,7,0.9,0.5
2026-02-07T1200,3283A,109.9154,40.5684,包头市,滨河大厦,,45,45,16,26,6,61,,50,44,23,16,24,7,1.1,0.5
2026-02-07T1200,3419A,109.9449,40.6259,包头市,包头市委党校,,49,49,24,18,11,73,,66,56,10,11,9,8,0.5,0.4
2026-02-07T1200,3683A,109.8332,40.6577,包头市,昆区政府,,30,30,16,8,4,68,,72,63,19,12,13,8,1.1,0.5
2026-02-07T1200,1931A,107.0802,34.3129,宝鸡市,竹园沟,颗粒物(PM10),53,56,85,15,48,78,,54,54,10,19,6,8,0.3,0.5
2026-02-07T1200,1933A,107.1429,34.3549,宝鸡市,监测站,颗粒物(PM10),60,70,107,16,56,74,,66,66,16,26,5,7,0.4,0.6
2026-02-07T1200,1934A,107.1172,34.3759,宝鸡市,技工学校,颗粒物(PM10),74,97,102,16,50,75,,64,64,10,21,4,7,0.3,0.6
2026-02-07T1200,1936A,107.2025,34.3518,宝鸡市,文理学院,,,,102,20,53,66,,63,63,,21,4,7,0.3,0.8
2026-02-07T1200,1937A,107.2396,34.3626,宝鸡市,三迪小学,颗粒物(PM10),59,67,104,21,54,74,,65,65,15,26,4,6,0.4,0.6
2026-02-07T1200,4155A,107.1721,34.3558,宝鸡市,滨河北路,颗粒物(PM10),52,54,85,18,48,71,,63,63,10,20,4,7,0.2,0.5
2026-02-07T1200,4308A,107.3898,34.3601,宝鸡市,陈仓区北开路21号,颗粒物(PM10),69,88,116,32,59,67,,54,52,17,25,7,9,0.5,0.6
2026-02-07T1200,1051A,115.4803,38.8568,保定市,游泳馆,细颗粒物(PM2.5),94,80,57,70,37,36,,16,14,28,29,3,3,0.8,0.7
2026-02-07T1200,1052A,115.509,38.8895,保定市,华电二区,细颗粒物(PM2.5),84,67,51,62,31,25,,18,10,30,26,3,3,1.2,1
2026-02-07T1200,1053A,115.4588,38.9037,保定市,接待中心,细颗粒物(PM2.5),87,79,56,64,34,32,,17,15,31,26,1,1,0.7,0.4
2026-02-07T1200,1054A,115.4484,38.8344,保定市,地表水厂,细颗粒物(PM2.5),87,90,70,64,34,34,,12,12,34,37,3,2,0.6,0.4
2026-02-07T1200,3581A,115.3136,38.9511,保定市,满城区生态环境分局,细颗粒物(PM2.5),54,53,63,38,40,49,,15,15,19,28,2,2,0.5,0.5
2026-02-07T1200,3582A,115.4709,38.7628,保定市,清苑区第二中学,颗粒物(PM10),110,169,72,58,39,41,,16,16,24,35,,5,,0.5
2026-02-07T1200,3583A,115.6231,39.0223,保定市,徐水物探局,细颗粒物(PM2.5),78,88,74,57,37,40,,14,14,17,29,4,4,0.7,0.6
2026-02-07T1200,4004A,115.4199,38.8665,保定市,双鹰农机,颗粒物(PM10),80,110,68,47,36,41,,17,17,28,25,2,3,0.6,0.4
2026-02-07T1200,4034A,115.515,38.8589,保定市,植保所站,细颗粒物(PM2.5),74,81,62,54,35,28,,16,10,30,30,3,3,0.7,0.5
2026-02-07T1200,2594A,99.1589,25.1137,保山市,市环境监测站,,41,41,29,14,17,87,,69,62,12,9,7,6,0.4,0.4
2026-02-07T1200,2595A,99.1616,25.1381,保山市,市环保局,,42,42,30,20,15,81,,76,68,14,6,4,3,0.5,0.5
2026-02-07T1200,1867A,109.1435,21.4085,北海市,海滩公园,颗粒物(PM10),61,71,53,39,33,83,,40,40,14,14,5,3,0.9,0.8
2026-02-07T1200,1868A,109.0983,21.466,北海市,新市环保局,细颗粒物(PM2.5),74,64,48,54,33,74,,38,38,18,20,8,7,0.8,0.7
2026-02-07T1200,1869A,109.1775,21.5232,北海市,北海工业园,细颗粒物(PM2.5),87,84,58,64,38,67,,31,31,16,16,8,6,0.9,0.7
2026-02-07T1200,3400A,109.1844,21.4396,北海市,龙潭自来水厂,细颗粒物(PM2.5),72,65,48,52,40,72,,27,27,11,12,8,6,0.8,0.6
2026-02-07T1200,1001A,116.3611,39.8786,北京市,万寿西宫,,26,15,22,3,6,82,,60,60,2,17,2,2,0.4,0.5
2026-02-07T1200,1003A,116.4174,39.9289,北京市,东四,,19,17,21,3,7,60,,47,47,5,19,4,4,0.2,0.3
2026-02-07T1200,1004A,116.4073,39.8858,北京市,天坛,,23,16,22,3,7,73,,54,54,2,17,3,2,0.3,0.3
2026-02-07T1200,1005A,116.4622,39.9364,北京市,农展馆,,24,17,20,3,5,74,,55,55,2,15,6,5,0.2,0.2
2026-02-07T1200,1006A,116.3399,39.9293,北京市,官园,,22,20,23,3,8,68,,52,52,2,19,3,2,0.3,0.3
2026-02-07T1200,1007A,116.2879,39.9613,北京市,海淀万柳,,20,16,21,3,7,61,,38,38,11,30,3,2,0.2,0.3
2026-02-07T1200,1008A,116.6635,40.1349,北京市,顺义新城,,24,8,11,3,3,76,,56,56,2,14,4,4,0.3,0.3
2026-02-07T1200,1009A,116.6275,40.327,北京市,怀柔镇,,23,6,10,3,5,73,,58,58,1,8,4,4,0.4,0.4
2026-02-07T1200,1010A,116.2295,40.217,北京市,昌平镇,,21,15,15,3,6,66,,61,61,7,7,3,2,0.4,0.4
2026-02-07T1200,1011A,116.3968,39.982,北京市,奥体中心,,23,15,19,3,6,72,,55,55,1,28,5,5,0.2,0.3
2026-02-07T1200,3418A,116.8336,40.4095,北京市,密云新城,,24,6,11,3,5,74,,66,66,3,9,3,3,0.2,0.2
2026-02-07T1200,3671A,116.0879,39.9725,北京市,门头沟三家店,,23,18,24,3,7,72,,68,68,2,15,4,3,0.4,0.4
2026-02-07T1200,3672A,116.1507,39.8246,北京市,丰台云岗,,24,17,34,3,11,74,,48,48,2,20,2,2,0.3,0.3
2026-02-07T1200,3674A,115.9578,39.7602,北京市,房山燕山,,36,36,27,16,10,60,,48,48,9,12,4,4,0.2,0.3
2026-02-07T1200,3675A,116.4669,39.7734,北京市,大兴旧宫,,23,12,27,3,10,73,,41,41,3,24,4,3,0.4,0.4
2026-02-07T1200,3694A,115.9859,40.4562,北京市,延庆石河营,,24,6,21,3,10,75,,50,50,2,25,4,3,0.4,0.5
2026-02-07T1200,3695A,116.6151,40.3052,北京市,怀柔新城,,23,8,15,3,8,73,,59,59,4,8,2,2,0.2,0.2
2026-02-07T1200,3696A,116.2542,39.8764,北京市,丰台小屯,,20,17,29,3,9,61,,41,41,4,28,5,3,0.3,0.4
2026-02-07T1200,3697A,116.8399,40.3843,北京市,密云镇,,25,6,14,3,7,77,,55,55,3,22,2,2,0.2,0.3
2026-02-07T1200,4057A,115.9423,40.4431,北京市,延庆百泉,,23,7,15,3,8,73,,61,61,2,7,2,2,0.3,0.3
2026-02-07T1200,4058A,116.6598,39.9164,北京市,通州新华,,22,13,16,3,6,69,,42,42,2,24,3,3,0.4,0.5
2026-02-07T1200,4182A,116.1942,39.9158,北京市,石景山八角,,21,21,28,3,8,62,,50,50,2,18,4,4,0.1,0.2
2026-02-07T1200,4194A,117.078628,40.151726,北京市,平谷新城,,22,6,10,3,6,70,,55,55,4,9,3,3,0.1,0.2
2026-02-07T1200,1761A,123.8274146,41.31234549,本溪市,大峪,颗粒物(PM10),53,55,82,22,27,57,,20,20,14,31,12,9,0.9,0.9
2026-02-07T1200,1763A,123.7169,41.3094,本溪市,彩屯,,48,48,72,21,32,70,,27,27,13,33,10,8,0.7,1.1
2026-02-07T1200,1764A,123.7672166,41.28649327,本溪市,东明,颗粒物(PM10),55,59,58,26,27,62,,23,23,21,33,15,9,1.4,1.3
2026-02-07T1200,1765A,123.799345,41.266614,本溪市,新立屯,颗粒物(PM10),51,52,51,30,29,59,,25,25,15,26,18,11,1.6,1.7
2026-02-07T1200,1766A,123.829144,41.336777,本溪市,威宁,颗粒物(PM10),64,77,54,26,27,56,,25,25,17,29,12,6,0.7,0.7
2026-02-07T1200,2587A,105.287,27.3133,毕节市,八中,,42,42,77,29,53,85,,74,74,12,21,9,12,0.9,1
2026-02-07T1200,2588A,105.3079,27.2987,毕节市,师专,,43,40,72,30,50,89,,79,79,14,23,8,12,0.8,0.8
2026-02-07T1200,4263A,105.3688,27.3598,毕节市,工业大道,细颗粒物(PM2.5),53,50,76,37,51,85,,73,73,14,19,10,11,/,/
2026-02-07T1200,1629A,117.9961,37.3604,滨州市,第二水厂,细颗粒物(PM2.5),82,73,32,60,17,45,,32,32,13,18,8,9,0.8,0.6
2026-02-07T1200,1630A,117.9789,37.3931,滨州市,北中新校,细颗粒物(PM2.5),89,83,41,66,18,38,,32,27,16,17,6,5,0.7,0.5
2026-02-07T1200,3514A,117.9379,37.3959,滨州市,中海酒店,细颗粒物(PM2.5),85,78,33,63,19,57,,40,33,15,19,10,7,0.6,0.5
2026-02-07T1200,3515A,117.9381509,37.35547456,滨州市,开发区一中,细颗粒物(PM2.5),74,73,42,54,19,48,,28,28,9,17,11,11,0.7,0.6
2026-02-07T1200,3516A,118.0914,37.6938,滨州市,金海六路,,,29,33,14,20,,,20,20,8,22,6,4,0,0
2026-02-07T1200,4028A,117.9955,37.3752,滨州市,滨州市西街道办事处,细颗粒物(PM2.5),83,75,30,61,23,51,,41,39,13,16,9,8,0.5,0.3
2026-02-07T1200,2311A,115.8071,33.8399,亳州市,污水处理厂,颗粒物(PM10),65,79,65,37,20,51,,32,32,28,26,6,6,0.4,0.3
2026-02-07T1200,2312A,115.7789,33.8519,亳州市,三国揽胜宫,颗粒物(PM10),71,92,77,37,20,52,,36,36,21,22,6,6,0.4,0.3
2026-02-07T1200,3332A,115.7631,33.803,亳州市,亳州学院,颗粒物(PM10),65,79,68,36,20,47,,33,33,20,21,5,5,0.4,0.4
2026-02-07T1200,2693A,82.0482,44.8553,博尔塔拉蒙古自治州,市党校,,47,47,58,26,32,80,,80,73,19,18,3,3,1.1,1
2026-02-07T1200,2694A,82.0805,44.8966,博尔塔拉蒙古自治州,市环保局,颗粒物(PM10),52,54,67,24,33,46,,70,57,41,21,5,4,0.9,0.7
2026-02-07T1200,1071A,116.8733,38.2922,沧州市,沧县城建局,颗粒物(PM10),56,61,63,18,28,61,,38,38,15,23,4,3,0.3,0.4
2026-02-07T1200,1072A,116.8462,38.3189,沧州市,电视转播站,颗粒物(PM10),53,55,51,36,31,55,,38,35,20,23,1,3,0.5,0.5
2026-02-07T1200,1073A,116.8588,38.3161,沧州市,市环保局,颗粒物(PM10),54,57,53,19,30,50,,34,32,18,21,6,5,0.5,0.5
2026-02-07T1200,3324A,116.8011,38.294,沧州市,河北水利电力学院,细颗粒物(PM2.5),62,66,47,44,35,48,,28,28,15,23,2,2,0.4,0.4
2026-02-07T1200,2622A,97.1813,31.1289,昌都市,昌都监测站,,30,30,25,9,12,56,,45,45,9,11,3,2,0.6,0.5
2026-02-07T1200,3719A,97.1707,31.1428,昌都市,昌都会议中心,,19,10,12,6,7,58,,46,46,1,2,3,4,0.3,0.3
2026-02-07T1200,2692A,87.2722,44.0298,昌吉回族自治州,新区政务中心,细颗粒物(PM2.5),82,78,89,60,69,27,,59,40,55,24,9,8,1.3,1.1
2026-02-07T1200,3613A,87.3069,44.0093,昌吉回族自治州,亚心广场,"颗粒物(PM10),细颗粒物(PM2.5)",59,68,100,42,83,69,,64,54,24,22,8,8,0.9,1.1
2026-02-07T1200,4164A,87.2057,43.9289,昌吉回族自治州,财政所,细颗粒物(PM2.5),67,79,114,48,86,63,,62,60,14,15,5,5,0.8,1
2026-02-07T1200,1120A,125.2874,43.9024,长春市,客车厂,,,53,50,31,31,47,,26,,,34,14,12,0.6,0.6
2026-02-07T1200,1121A,125.2943,43.8508,长春市,邮电学院,,49,49,43,34,30,48,,29,29,25,29,12,10,0.6,0.6
2026-02-07T1200,1122A,125.3648,43.8745,长春市,劳动公园,颗粒物(PM10),68,85,51,32,30,55,,37,37,22,26,8,5,0.5,0.5
2026-02-07T1200,1123A,125.3233,43.8781,长春市,园林处,颗粒物(PM10),56,61,45,30,33,50,,29,29,22,26,11,11,0.7,0.7
2026-02-07T1200,1124A,125.4604,43.7904,长春市,净月潭,,41,41,33,22,21,61,,54,49,13,12,9,5,0.5,0.5
2026-02-07T1200,1126A,125.38,43.8422,长春市,经开区环卫处,,,,53,,34,50,,20,20,24,39,9,5,,0.6
2026-02-07T1200,1127A,125.234,43.7761,长春市,高新区管委会,"颗粒物(PM10),细颗粒物(PM2.5)",72,93,63,52,44,35,,19,19,45,40,15,8,1.0,0.8
2026-02-07T1200,1128A,125.1695,43.83,长春市,岱山公园,颗粒物(PM10),81,112,53,52,35,44,,18,18,31,39,12,7,0.7,0.6
2026-02-07T1200,4281A,125.334645,43.916281,长春市,北亚泰大街1068号,颗粒物(PM10),55,60,55,35,34,50,,23,23,20,36,10,10,0.6,0.7
2026-02-07T1200,1335A,113.082,28.2421,长沙市,经开区环保局,颗粒物(PM10),54,58,96,27,65,22,,24,22,21,25,2,2,0.4,0.7
2026-02-07T1200,1336A,112.8873,28.2202,长沙市,高开区环保局,颗粒物(PM10),65,80,134,42,94,24,,28,25,16,20,4,4,0.6,0.8
2026-02-07T1200,1337A,113.0785,28.2012,长沙市,马坡岭,颗粒物(PM10),59,68,110,36,78,29,,28,25,16,23,4,4,0.6,0.9
2026-02-07T1200,1338A,112.9448,28.1894,长沙市,湖南师范大学,颗粒物(PM10),59,68,128,34,82,29,,32,28,16,19,3,3,0.5,0.9
2026-02-07T1200,1339A,113.0177,28.1322,长沙市,雨花区环保局,颗粒物(PM10),58,65,113,31,76,23,,24,22,16,22,6,6,0.7,1
2026-02-07T1200,1340A,112.9795,28.2593,长沙市,伍家岭,颗粒物(PM10),61,71,136,36,88,25,,25,24,18,22,4,4,0.5,0.8
2026-02-07T1200,1341A,113.002,28.1944,长沙市,火车新站,颗粒物(PM10),59,67,122,34,86,30,,29,27,14,20,1,1,0.6,0.9
2026-02-07T1200,1342A,112.9846,28.1177,长沙市,天心区环保局,,,,133,,93,,,30,,,22,,4,,0.7
2026-02-07T1200,1343A,112.8906,28.1307,长沙市,湖南中医药大学,颗粒物(PM10),66,82,131,34,80,31,,34,30,16,21,5,5,0.6,0.9
2026-02-07T1200,1727A,113.1146,36.1547,长治市,清华站,颗粒物(PM10),56,61,60,15,34,67,,38,35,18,22,14,11,0.7,0.7
2026-02-07T1200,1730A,113.0887,36.2126,长治市,审计局,,44,44,62,12,37,69,,26,25,14,26,11,12,0.6,0.8
2026-02-07T1200,1731A,113.0845,36.1856,长治市,长治八中,颗粒物(PM10),57,63,74,29,38,67,,27,26,13,22,14,13,0.6,0.7
2026-02-07T1200,2845A,113.1561,36.1912,长治市,德盛苑,,49,49,61,23,40,77,,43,42,14,20,17,12,0.5,0.7
2026-02-07T1200,3568A,113.0603,36.0464,长治市,向阳小学,颗粒物(PM10),59,68,85,33,37,70,,40,40,17,22,16,11,0.6,0.7
2026-02-07T1200,3569A,112.8788,36.315,长治市,屯留一中,,27,24,75,3,42,86,,32,32,9,35,5,10,0.2,1.1
2026-02-07T1200,4189A,113.113092,36.199482,长治市,英华南巷50号,,48,48,68,14,32,71,,34,34,11,20,11,12,0.4,0.6
2026-02-07T1200,4190A,113.23666,36.33435,长治市,学府街1号,颗粒物(PM10),53,56,62,21,36,74,,33,33,17,36,12,10,0.4,0.9
2026-02-07T1200,1854A,111.696,28.9725,常德市,市二中,颗粒物(PM10),74,98,154,50,95,45,,34,32,15,18,5,6,0.8,1.1
2026-02-07T1200,3138A,111.7152,29.0288,常德市,武陵区永安,颗粒物(PM10),78,105,162,52,97,42,,33,31,17,20,4,5,0.8,1
2026-02-07T1200,3139A,111.6891,28.9881,常德市,鼎城区玉霞,颗粒物(PM10),74,97,151,48,93,45,,36,34,22,23,5,5,0.8,1
2026-02-07T1200,3140A,111.6651,29.0526,常德市,武陵区长庚,细颗粒物(PM2.5),74,94,154,54,99,44,,33,32,16,17,4,5,0.6,0.8
2026-02-07T1200,1196A,119.9524,31.7586,常州市,市监测站,,37,37,26,20,6,56,,65,62,18,14,6,6,0.2,0.2
2026-02-07T1200,1200A,119.9351,31.703,常州市,武进监测站,,37,37,31,21,6,53,,64,61,19,14,7,6,0.5,0.5
2026-02-07T1200,3002A,119.9701,31.813,常州市,行政中心,,40,40,40,21,5,54,,64,60,22,15,4,3,0.5,0.4
2026-02-07T1200,3003A,120.0434,31.7726,常州市,经开区,,48,48,30,20,5,56,,65,63,11,8,3,2,0.6,0.5
2026-02-07T1200,3010A,119.8919,31.7892,常州市,钟楼,,33,33,32,20,5,52,,64,59,19,13,6,6,0.5,0.4
2026-02-07T1200,3429A,119.8595,31.706,常州市,武进经发区,,46,46,34,26,13,56,,61,58,16,16,5,4,0.6,0.5
2026-02-07T1200,3430A,119.5812,31.7256,常州市,金坛城区,,47,47,36,26,13,62,,62,61,11,10,6,6,0.4,0.3
2026-02-07T1200,4089A,119.9551,31.863,常州市,崇义南街5-H号,,40,40,31,22,6,55,,65,61,15,10,4,4,0.5,0.5
2026-02-07T1200,2220A,120.4318,41.588,朝阳市,西梁,,25,19,59,3,31,78,,30,30,7,35,4,9,0.3,0.9
2026-02-07T1200,2221A,120.452,41.565,朝阳市,河畔小区,,25,25,44,3,24,76,,33,33,7,25,8,9,0.4,0.8
2026-02-07T1200,2222A,120.4176,41.5648,朝阳市,八里堡,,,,51,,34,,,12,12,9,34,8,11,,0.9
2026-02-07T1200,3026A,116.6179,23.6608,潮州市,市政府,,47,47,39,27,29,54,,62,56,15,12,5,4,0.6,0.5
2026-02-07T1200,4036A,116.646,23.676,潮州市,金山,,43,40,38,30,29,55,,64,58,20,15,2,3,0.7,0.6
2026-02-07T1200,2473A,113.0116,25.8228,郴州市,市职中,细颗粒物(PM2.5),67,57,50,48,47,9,,18,14,14,13,3,3,1.0,0.9
2026-02-07T1200,2475A,113.0381,25.8074,郴州市,市审计局,细颗粒物(PM2.5),54,54,49,38,37,9,,18,14,18,15,3,3,/,/
2026-02-07T1200,2476A,113.0348,25.7757,郴州市,市环保局,细颗粒物(PM2.5),114,,51,86,70,16,,24,20,23,20,2,3,0.9,0.8
2026-02-07T1200,4252A,113.0138,25.8011,郴州市,好美居路49号,细颗粒物(PM2.5),63,49,46,45,45,21,,30,26,24,21,2,2,/,/
2026-02-07T1200,1431A,103.9727,30.7242,成都市,金泉两河,颗粒物(PM10),60,69,87,37,59,58,,66,62,25,32,2,2,0.7,0.9
2026-02-07T1200,1432A,104.1423,30.6765,成都市,十里店,颗粒物(PM10),62,74,102,33,58,65,,62,62,18,24,3,4,0.3,0.6
2026-02-07T1200,1433A,104.0594,30.5765,成都市,三瓦窑,颗粒物(PM10),56,61,80,33,57,68,,74,63,19,32,2,3,0.6,0.8
2026-02-07T1200,1434A,104.1122,30.6306,成都市,沙河铺,颗粒物(PM10),56,62,87,34,60,60,,62,58,28,32,4,4,0.4,0.7
2026-02-07T1200,2880A,104.0219,30.6561,成都市,大石西路,颗粒物(PM10),59,67,95,37,63,69,,71,62,12,19,5,6,0.5,0.7
2026-02-07T1200,3136A,104.2724,30.559,成都市,龙泉驿区区政府,颗粒物(PM10),60,70,78,40,58,61,,60,44,17,18,6,6,0.3,0.4
2026-02-07T1200,3357A,104.0028,30.6891,成都市,金博路,,,66,86,,63,56,,64,58,26,28,,5,0.7,0.9
2026-02-07T1200,3359A,104.056,30.5228,成都市,华阳,颗粒物(PM10),57,63,78,38,56,64,,73,64,22,29,3,3,0.4,0.5
2026-02-07T1200,3488A,104.387954,30.746684,成都市,青石路225号,颗粒物(PM10),62,73,92,39,57,77,,27,26,16,35,2,3,0.4,1.2
2026-02-07T1200,3489A,104.0788,30.4054,成都市,科学城,颗粒物(PM10),54,58,79,36,58,50,,72,54,16,17,6,7,0.8,0.8
2026-02-07T1200,4011A,103.8505,30.6946,成都市,光华大道三段,颗粒物(PM10),67,83,113,34,63,66,,68,65,22,35,3,3,0.6,0.9
2026-02-07T1200,4144A,104.3257,30.6406,成都市,八角井街185号,颗粒物(PM10),58,66,87,31,54,68,,41,27,18,28,4,4,0.5,0.7
2026-02-07T1200,4224A,104.2433276,30.53529463,成都市,鲸龙路1057号,细颗粒物(PM2.5),57,59,79,40,57,60,,60,41,21,22,6,6,0.6,0.7
2026-02-07T1200,1062A,117.9531,40.908,承德市,铁路,,,62,26,8,10,79,,76,,,13,3,4,0.2,0.3
2026-02-07T1200,1063A,117.9397,40.9763,承德市,中国银行,,32,32,22,3,5,77,,74,74,3,8,2,2,0.3,0.3
2026-02-07T1200,4073A,117.9462,40.95,承德市,杏林街1号,,26,22,18,6,10,82,,78,78,2,9,3,4,0.2,0.3
2026-02-07T1200,4274A,117.7994,40.9605,承德市,滨河大街98号,,25,6,15,3,9,77,,74,72,2,6,2,3,0.2,0.2
2026-02-07T1200,2314A,117.4698,30.6617,池州市,池州学院,细颗粒物(PM2.5),62,52,29,44,26,37,,47,40,22,23,3,3,0.9,0.8
2026-02-07T1200,3237A,117.4918,30.6617,池州市,展览馆,细颗粒物(PM2.5),62,57,29,44,25,35,,47,39,22,22,2,2,0.8,0.6
2026-02-07T1200,3333A,117.5626,30.695,池州市,第八中学,细颗粒物(PM2.5),55,50,25,39,21,34,,46,39,24,21,2,2,0.7,0.6
2026-02-07T1200,3334A,117.5037,30.6242,池州市,第十二中学,细颗粒物(PM2.5),57,53,21,40,16,32,,48,41,30,23,4,4,0.9,0.7
2026-02-07T1200,1744A,118.9229,42.2816,赤峰市,松山一中,,27,27,19,3,10,61,,47,46,8,15,1,3,0.6,0.7
2026-02-07T1200,1745A,118.9588,42.2733,赤峰市,哈达街,,26,26,20,3,7,64,,48,46,8,12,6,7,0.5,0.6
2026-02-07T1200,1746A,118.8792,42.2551,赤峰市,天义路,,23,6,16,3,8,71,,58,58,5,11,5,7,0.5,0.6
2026-02-07T1200,3058A,119.2656,42.0356,赤峰市,银河街,,24,23,24,3,11,74,,62,62,7,11,12,12,0.6,0.6
2026-02-07T1200,3286A,118.9359,42.3146,赤峰市,桥北物流园区,,,,12,,8,74,,52,52,1,14,,4,0.5,0.5
2026-02-07T1200,2521A,107.3473,22.4137,崇左市,市环保局江州分局,,49,48,65,34,46,41,,33,33,16,22,9,8,1.0,1
2026-02-07T1200,4256A,107.375,22.3736,崇左市,石景林东路7号,,40,40,55,26,42,47,,43,43,15,18,4,2,0.8,0.8
2026-02-07T1200,3207A,118.31131,32.3033,滁州市,市政府原办公楼,,45,44,40,31,17,68,,62,62,11,12,4,3,0.3,0.2
2026-02-07T1200,3331A,118.3268,32.2633,滁州市,图书馆,,40,34,33,28,15,61,,59,59,8,6,8,8,0.3,0.2
2026-02-07T1200,4101A,118.3196,32.3335,滁州市,银山路666号,,45,34,36,31,19,66,,60,60,6,7,8,5,0.4,0.3
2026-02-07T1200,4102A,118.3426,32.2979,滁州市,黄山路555号,,49,45,43,34,19,66,,63,63,9,8,4,4,0.3,0.2
2026-02-07T1200,2606A,101.5379,25.0492,楚雄彝族自治州,市经济开发区,,38,,37,26,19,74,,30,30,9,20,3,3,0.6,0.6
2026-02-07T1200,4153A,101.5536,25.0343,楚雄彝族自治州,团结路562号,,37,37,26,12,19,74,,32,32,6,10,4,4,0.5,0.6
2026-02-07T1200,2549A,107.5087,31.2186,达州市,市环境监测站,细颗粒物(PM2.5),95,108,76,71,50,59,,34,34,23,35,10,8,0.3,0.3
2026-02-07T1200,2550A,107.4988,31.2132,达州市,凤凰小区,,,90,78,66,49,63,,32,32,18,41,8,8,,0.7
2026-02-07T1200,2551A,107.5081,31.1987,达州市,达县机关宾馆,细颗粒物(PM2.5),140,,83,107,44,53,,22,22,33,51,9,8,0.7,0.9
2026-02-07T1200,2552A,107.4644,31.2124,达州市,市政中心,细颗粒物(PM2.5),79,90,90,58,52,62,,20,20,21,48,8,7,0.6,0.8
2026-02-07T1200,2614A,100.2168,25.5818,大理白族自治州,大理市环境监测站,,,,22,,16,85,,80,76,9,8,7,7,0.4,0.5
2026-02-07T1200,2615A,100.1542,25.7055,大理白族自治州,大理古城,,29,14,21,9,15,90,,71,71,5,8,8,8,0.6,0.6
2026-02-07T1200,1109A,121.6119,38.974,大连市,甘井子,,29,29,43,17,27,75,,62,62,7,13,8,10,0.4,0.5
2026-02-07T1200,1110A,121.565,38.9509,大连市,周水子,,34,34,55,14,27,74,,56,56,8,20,9,6,0.3,0.4
2026-02-07T1200,1111A,121.5637,38.8849,大连市,星海三站,,26,26,35,6,22,73,,54,54,11,17,8,9,0.4,0.5
2026-02-07T1200,1112A,121.6301,38.9117,大连市,青泥洼桥,,,21,42,14,23,72,,57,56,12,18,,9,0.3,0.3
2026-02-07T1200,1113A,121.6248,38.8643,大连市,傅家庄,,24,16,38,12,25,74,,57,57,6,14,6,7,0.7,0.8
2026-02-07T1200,1114A,121.5117,38.8636,大连市,七贤岭,,28,28,38,9,21,76,,59,56,9,16,9,10,0.4,0.6
2026-02-07T1200,1116A,121.7507,39.1339,大连市,金州,,27,27,50,14,29,69,,60,59,12,17,8,9,0.3,0.4
2026-02-07T1200,1117A,121.7811,39.0495,大连市,开发区,,33,33,41,18,25,73,,62,62,10,13,8,8,0.4,0.5
2026-02-07T1200,1118A,121.9762,39.0631,大连市,双D港,,,,45,20,25,76,,69,69,,15,8,9,0.5,0.5
2026-02-07T1200,4082A,121.2548,38.8188,大连市,旅顺,,23,20,34,3,25,73,,49,49,6,10,6,6,0.5,0.6
2026-02-07T1200,1789A,124.8085,46.0381,大庆市,大同区,,28,28,55,13,37,63,,44,44,4,25,6,8,0.4,0.7
2026-02-07T1200,1790A,125.1166,46.5255,大庆市,龙凤区,,37,37,42,19,26,54,,43,43,18,24,12,12,0.4,0.4
2026-02-07T1200,1791A,124.8894,46.4007,大庆市,红岗区,,18,16,38,6,23,57,,46,46,7,22,4,9,0.4,0.6
2026-02-07T1200,1792A,125.1391,46.578,大庆市,萨尔图区,,30,30,30,8,17,56,,46,46,13,19,8,9,0.4,0.5
2026-02-07T1200,1793A,124.9026,46.6217,大庆市,让胡路区,,,26,29,16,17,65,,55,55,,18,,9,0.5,0.5
2026-02-07T1200,3481A,125.127,46.6277,大庆市,萨区政府监测点,,20,19,31,12,19,62,,45,45,8,19,8,9,0.6,0.6
2026-02-07T1200,1723A,113.2926,40.0759,大同市,云冈宾馆,,21,21,30,3,12,64,,32,32,8,18,5,8,0.4,0.6
2026-02-07T1200,1724A,113.3437,40.0921,大同市,大同大学,,32,32,36,3,18,66,,31,31,8,20,6,8,0.5,0.8
2026-02-07T1200,1725A,113.2637,40.129,大同市,安家小村,,34,34,32,10,12,67,,37,37,5,14,5,10,0.3,1.1
2026-02-07T1200,3282A,113.3399,40.0586,大同市,大同市卫生学校,,,54,35,3,18,68,,38,30,,23,5,7,0.7,0.9
2026-02-07T1200,3565A,113.1371,40.1122,大同市,云冈站,,33,33,37,7,13,71,,46,46,4,23,4,11,0.4,0.6
2026-02-07T1200,3566A,113.1186,40.2556,大同市,图书馆,,,43,26,3,12,,,50,50,6,12,,6,0.5,0.9
2026-02-07T1200,3567A,113.5931,40.0459,大同市,区一中,颗粒物(PM10),56,61,62,18,36,63,,41,41,12,20,26,11,0.5,0.7
2026-02-07T1200,4199A,113.2798248,40.09972476,大同市,魏都大道141号,,43,43,32,3,12,67,,42,42,7,19,3,7,0.4,0.7
2026-02-07T1200,2269A,124.1068,50.4091,大兴安岭地区,科技局,,20,14,24,6,11,63,,53,53,1,3,5,5,0.2,0.2
2026-02-07T1200,3663A,124.117,50.4279,大兴安岭地区,红旗社区,,25,,20,8,13,78,,58,58,3,10,5,6,0.2,0.3
2026-02-07T1200,1600A,124.33,40.0625,丹东市,江湾东路,,39,39,42,16,11,66,,60,60,12,13,8,7,0.7,0.6
2026-02-07T1200,1601A,124.4242,40.1513,丹东市,临江后街,,30,30,36,13,11,67,,58,54,9,11,8,7,0.7,0.6
2026-02-07T1200,1602A,124.3935,40.1461,丹东市,元宝山,,28,28,36,13,12,67,,50,50,7,11,8,10,0.6,0.5
2026-02-07T1200,1603A,124.3634,40.1093,丹东市,民主桥,,,48,39,22,14,60,,55,52,,15,,10,,0.7
2026-02-07T1200,3541A,109.5726195,19.51688767,儋州市,第一中学子站,,23,23,27,12,13,59,,48,45,2,4,4,4,0.6,0.6
2026-02-07T1200,3542A,109.5567,19.5187,儋州市,东坡学校子站,,26,26,23,13,13,63,,50,47,4,6,3,4,0.6,0.7
2026-02-07T1200,2616A,98.5611,24.4273,德宏傣族景颇族自治州,德宏州监测站,颗粒物(PM10),58,65,49,36,32,63,,23,23,17,25,7,6,0.9,1
2026-02-07T1200,3677A,98.5887,24.4366,德宏傣族景颇族自治州,芒市人民政府综合楼,颗粒物(PM10),68,86,53,42,27,56,,34,29,19,15,4,4,0.8,0.7
2026-02-07T1200,1901A,104.424,31.1209,德阳市,东山公园,颗粒物(PM10),70,90,80,31,62,76,,70,70,6,16,1,2,0.6,0.9
2026-02-07T1200,1902A,104.3827,31.1318,德阳市,西小区,颗粒物(PM10),67,83,93,32,63,78,,71,71,12,22,3,4,0.4,0.7
2026-02-07T1200,1904A,104.3553,31.1091,德阳市,耐火材料厂,颗粒物(PM10),69,88,84,33,68,68,,62,62,17,23,1,2,0.4,0.7
2026-02-07T1200,4145A,104.4144,31.1495,德阳市,市林业局,颗粒物(PM10),64,77,89,31,64,76,,62,62,5,21,4,5,0.5,0.9
2026-02-07T1200,1622A,116.3034,37.4675,德州市,儿童乐园,细颗粒物(PM2.5),82,83,60,60,34,53,,38,38,19,22,10,9,0.7,0.6
2026-02-07T1200,1624A,116.2992,37.4449,德州市,监理站,细颗粒物(PM2.5),74,78,60,54,33,58,,47,46,17,20,8,7,0.6,0.6
2026-02-07T1200,3066A,116.2722,37.438,德州市,九衢泉纯净水厂,细颗粒物(PM2.5),78,68,52,57,34,54,,31,31,18,26,2,2,0.7,0.6
2026-02-07T1200,3371A,116.3693,37.44,德州市,开发区人民医院,细颗粒物(PM2.5),75,80,59,55,34,55,,39,38,12,18,9,9,0.6,0.4
2026-02-07T1200,3511A,116.5687,37.3331,德州市,陵城艺术中心,细颗粒物(PM2.5),93,80,55,69,38,46,,33,33,23,25,8,8,0.8,0.7
2026-02-07T1200,4292A,116.352738,37.420875,德州市,新河东路,,,75,55,54,29,53,,28,22,11,18,,10,0.6,0.5
2026-02-07T1200,2621A,99.7054,27.8319,迪庆藏族自治州,迪庆州站,,32,27,27,22,16,78,,58,58,11,10,5,5,0.7,0.7
2026-02-07T1200,3180A,99.7122,27.8129,迪庆藏族自治州,质量技术监督局,,29,29,24,14,11,82,,60,56,13,11,6,4,0.6,0.5
2026-02-07T1200,4257A,104.6092,35.5962,定西市,将台街,颗粒物(PM10),78,105,91,40,31,77,,65,58,5,6,9,9,0.4,0.3
2026-02-07T1200,4309A,104.6159,35.5701,定西市,正龙路62号,,,94,97,53,30,71,,67,60,,7,8,4,,0.4
2026-02-07T1200,1390A,113.7943,23.0132,东莞市,东城石井,,30,25,36,13,17,95,,68,68,12,31,6,6,0.8,0.6
2026-02-07T1200,1391A,113.7384,22.9659,东莞市,南城西平,,28,24,25,14,14,89,,54,54,17,38,6,6,0.8,0.6
2026-02-07T1200,3319A,113.7283,23.041,东莞市,万江金泰,,29,22,35,14,20,91,,60,60,11,35,5,6,1.0,0.9
2026-02-07T1200,4129A,113.8666,23.1062,东莞市,裕兴路,,23,22,49,10,24,73,,52,52,7,34,5,6,1.0,0.9
2026-02-07T1200,4130A,114.0076,22.9739,东莞市,教育路1号,,32,32,46,16,19,90,,58,58,15,44,4,4,0.8,0.7
2026-02-07T1200,4131A,113.7981,22.8124,东莞市,长怡路1号,,38,38,34,16,12,100,,52,52,14,41,6,7,0.9,0.7
2026-02-07T1200,1666A,118.6612,37.4313,东营市,市环保局,,45,44,24,31,11,63,,49,45,19,20,7,9,0.6,0.5
2026-02-07T1200,3036A,118.6903,37.4337,东营市,开发区管委会,颗粒物(PM10),54,57,26,30,10,64,,54,48,11,12,9,9,0.5,0.4
2026-02-07T1200,3365A,118.5721,37.5654,东营市,垦利区民丰路,,31,31,25,21,10,60,,39,37,10,16,4,5,0.7,0.6
2026-02-07T1200,3498A,118.5063,37.8606,东营市,河口城区,颗粒物(PM10),51,51,36,24,13,65,,44,44,19,21,4,4,0.8,0.8
2026-02-07T1200,3646A,118.4979,37.4623,东营市,胜利站,,,58,30,30,8,56,,46,37,,22,6,7,0.8,0.8
2026-02-07T1200,3734A,118.5753,37.4405,东营市,理想之城,,44,44,32,27,10,68,,44,44,10,10,5,4,0.4,0.3
2026-02-07T1200,1591A,110.0024,39.8127,鄂尔多斯市,综合楼,,25,17,36,3,6,78,,74,74,7,11,5,7,0.3,0.3
2026-02-07T1200,1592A,109.9485,39.8259,鄂尔多斯市,巴音孟克林场办事处,,26,22,36,3,7,81,,75,75,6,12,6,7,0.4,0.4
2026-02-07T1200,1593A,109.7734,39.5987,鄂尔多斯市,康泽苑,,28,12,28,3,9,88,,75,75,5,7,3,5,0.3,0.3
2026-02-07T1200,1594A,109.8121,39.5987,鄂尔多斯市,华泰汽车城,,27,22,32,3,10,86,,73,73,5,8,6,7,0.1,0.2
2026-02-07T1200,1595A,109.9734,39.7884,鄂尔多斯市,奥林花园,,26,19,40,3,4,81,,71,71,10,15,5,5,0.3,0.4
2026-02-07T1200,2436A,114.894,30.3989,鄂州市,市政府,,30,,37,21,28,45,,44,44,16,18,5,5,0.5,0.5
2026-02-07T1200,2437A,114.8986,30.3714,鄂州市,赵家坝,,32,26,48,22,29,51,,48,48,2,6,7,8,0.4,0.5
2026-02-07T1200,3654A,114.8093,30.4091,鄂州市,精准医疗中心,,33,33,51,14,28,61,,54,54,5,9,13,7,0.6,0.7
2026-02-07T1200,2454A,109.4978,30.2979,恩施土家族苗族自治州,湖北民院,细颗粒物(PM2.5),93,80,89,69,75,61,,36,36,10,22,6,6,0.9,1.1
2026-02-07T1200,3549A,109.5061,30.3771,恩施土家族苗族自治州,龙凤新区,细颗粒物(PM2.5),84,84,87,62,62,56,,47,47,10,15,7,7,0.7,0.8
2026-02-07T1200,2499A,108.3411,21.6159,防城港市,沙万,,49,46,57,34,34,51,,31,31,13,29,7,7,0.8,0.7
2026-02-07T1200,2500A,108.3515,21.7733,防城港市,防城档案局,颗粒物(PM10),58,66,55,37,36,58,,32,32,11,20,6,6,0.8,0.8
2026-02-07T1200,2501A,108.3506,21.6414,防城港市,大海花园,细颗粒物(PM2.5),54,52,51,38,44,54,,36,36,13,28,7,8,0.8,0.7
2026-02-07T1200,1371A,113.1293,23.0065,佛山市,湾梁,,36,36,32,16,15,63,,,,16,22,/,/,/,/
2026-02-07T1200,1372A,113.1082,23.0477,佛山市,华材职中,,,34,45,,28,67,,49,49,12,23,7,6,1.0,0.8
2026-02-07T1200,1373A,113.1439,23.045,佛山市,南海气象局,,34,34,37,17,23,64,,48,48,16,24,/,/,/,/
2026-02-07T1200,1374A,113.2879,22.8094,佛山市,顺德苏岗,,,,38,26,19,73,,46,46,21,30,/,/,1.0,0.9
2026-02-07T1200,1376A,112.8384,22.8678,佛山市,高明孔堂,,41,41,32,25,20,65,,52,52,18,18,/,/,/,/
2026-02-07T1200,1377A,112.8835,23.1584,佛山市,三水监测站,,36,36,46,22,23,54,,53,48,13,27,2,3,0.7,0.6
2026-02-07T1200,1378A,112.8668,23.185,佛山市,三水云东海,,31,31,40,18,19,54,,53,48,16,23,/,/,/,/
2026-02-07T1200,3625A,113.2568,22.7629,佛山市,容桂街道办,,39,39,38,26,20,68,,42,42,20,31,/,/,/,/
2026-02-07T1200,1282A,119.2681,26.0506,福州市,师大,,18,13,23,3,14,57,,69,62,21,20,3,2,0.4,0.4
2026-02-07T1200,1283A,119.2983,26.1028,福州市,五四北路,,18,9,17,3,12,57,,72,65,17,18,4,4,0.4,0.4
2026-02-07T1200,1284A,119.2648,26.0769,福州市,杨桥西路,,19,14,18,3,19,58,,69,62,20,19,3,3,/,/
2026-02-07T1200,3048A,119.5799,26.0937,福州市,九龙,,21,11,20,3,11,66,,75,70,11,13,4,4,0.5,0.5
2026-02-07T1200,3526A,119.5188,25.9666,福州市,吴航,,20,8,19,3,13,64,,78,71,11,11,4,4,0.5,0.5
2026-02-07T1200,4104A,119.3106,26.0648,福州市,路通桥巷6号,,18,7,23,7,17,57,,66,62,14,15,/,/,/,/
2026-02-07T1200,1755A,123.7974,41.8494,抚顺市,望花区,颗粒物(PM10),51,52,66,19,37,55,,24,24,16,30,7,9,0.6,0.8
2026-02-07T1200,1756A,123.9161,41.8827,抚顺市,顺城区,颗粒物(PM10),65,79,54,33,38,53,,24,24,25,41,10,9,0.9,0.9
2026-02-07T1200,1757A,124.0437,41.8615,抚顺市,东洲区,颗粒物(PM10),82,114,58,38,35,48,,38,38,23,17,9,9,0.9,0.7
2026-02-07T1200,1758A,123.9246,41.8638,抚顺市,新抚区,颗粒物(PM10),120,190,71,45,35,56,,26,26,28,38,,8,,1
2026-02-07T1200,1759A,124.0972,41.8961,抚顺市,大伙房水库,颗粒物(PM10),82,113,42,49,27,57,,40,40,19,17,11,9,1.1,0.6
2026-02-07T1200,1760A,123.708,41.8386,抚顺市,沈抚新城,颗粒物(PM10),52,54,56,21,30,50,,20,20,20,36,8,7,0.5,0.8
2026-02-07T1200,2377A,116.3544,27.9833,抚州市,市站,,29,25,26,20,20,52,,49,49,9,12,5,5,1.3,1.3
2026-02-07T1200,2378A,116.3562,27.9631,抚州市,血防站,,36,33,32,25,18,45,,42,42,11,13,4,4,0.6,0.9
2026-02-07T1200,2379A,116.3561,28.0007,抚州市,采茶剧团,,25,23,25,17,16,44,,41,41,5,8,4,4,0.8,1.1
2026-02-07T1200,2380A,116.3854,27.9648,抚州市,医学分院,,29,29,33,16,12,46,,42,42,8,12,6,5,0.8,1
2026-02-07T1200,2207A,121.6095,41.9978,阜新市,工业园区,,26,26,69,3,24,74,,44,44,4,29,8,16,0.3,0.6
2026-02-07T1200,2208A,121.6567,42.0188,阜新市,长青街,,24,12,19,3,9,75,,61,61,3,10,7,7,0.3,0.4
2026-02-07T1200,2209A,121.6672,42.07,阜新市,农业园区,,22,20,24,3,8,70,,64,64,5,8,6,7,0.1,0.2
2026-02-07T1200,2211A,121.6343,42.0455,阜新市,玉龙新城,,23,21,52,3,25,73,,39,39,4,32,6,7,0.4,0.7
2026-02-07T1200,2301A,115.8276,32.8929,阜阳市,市监测站,颗粒物(PM10),61,71,61,32,17,45,,43,42,22,17,4,4,0.4,0.3
2026-02-07T1200,2303A,115.8551,32.8606,阜阳市,开发区,颗粒物(PM10),57,63,54,30,17,48,,42,42,15,13,5,4,0.3,0.3
2026-02-07T1200,2875A,115.783962,32.889217,阜阳市,阜阳职业技术学院,颗粒物(PM10),58,65,57,28,17,56,,47,47,11,12,6,5,0.4,0.3
2026-02-07T1200,3468A,115.79,32.8614,阜阳市,市规划展馆,颗粒物(PM10),58,66,56,31,17,52,,44,44,14,13,6,5,0.3,0.3
2026-02-07T1200,3469A,115.835101,32.918568,阜阳市,枣园社区,颗粒物(PM10),59,68,60,31,17,51,,44,44,15,15,6,5,0.5,0.5
2026-02-07T1200,2669A,102.9097,34.9841,甘南藏族自治州,州政府,,44,44,85,20,30,66,,62,56,7,7,5,6,0.4,0.3
2026-02-07T1200,3380A,102.8915,34.9618,甘南藏族自治州,甘肃民族师范学院,颗粒物(PM10),55,60,102,30,25,69,,53,51,10,13,8,7,0.3,0.3
2026-02-07T1200,2570A,101.96,30.048,甘孜藏族自治州,水桥子,,17,16,21,8,9,54,,40,40,11,13,6,6,0.5,0.4
2026-02-07T1200,3065A,101.9534,29.9976,甘孜藏族自治州,州环保局,,,21,18,11,8,66,,66,56,,8,7,6,,0.5
2026-02-07T1200,2363A,114.9368,25.8663,赣州市,地委,,25,22,34,17,19,60,,58,58,14,14,7,7,0.4,0.6
2026-02-07T1200,2364A,114.946,25.8483,赣州市,气象台,,25,25,39,14,21,62,,59,59,16,16,5,5,0.5,0.6
2026-02-07T1200,2365A,114.932,25.8332,赣州市,市图书馆,,20,17,30,14,19,58,,54,54,15,14,4,4,0.8,1
2026-02-07T1200,2366A,114.8905,25.8472,赣州市,华坚鞋城,,22,22,36,14,20,59,,53,53,14,16,4,5,0.6,0.7
2026-02-07T1200,3109A,115.0094,25.8614,赣州市,赣县区卫计委,,21,11,26,10,18,65,,68,68,7,9,7,7,0.8,0.9
2026-02-07T1200,2684A,106.2753,36.0057,固原市,监测站,颗粒物(PM10),61,72,86,18,25,64,,60,58,14,10,7,7,0.4,0.4
2026-02-07T1200,2685A,106.2384,36.0189,固原市,新区,颗粒物(PM10),58,66,79,12,26,76,,61,61,6,9,7,7,0.3,0.4
2026-02-07T1200,2544A,106.6307,30.4577,广安市,市委,细颗粒物(PM2.5),77,69,99,56,79,41,,57,48,26,29,6,7,1.0,1.1
2026-02-07T1200,2545A,106.6266,30.4662,广安市,友谊中学,细颗粒物(PM2.5),72,70,92,52,63,36,,62,52,33,28,6,7,1.2,1.2
2026-02-07T1200,2547A,106.6386,30.4551,广安市,广电花园,细颗粒物(PM2.5),84,62,88,62,83,30,,50,38,26,26,6,7,0.9,1
2026-02-07T1200,2902A,106.6347,30.4868,广安市,北辰小学,细颗粒物(PM2.5),82,68,87,60,74,41,,60,52,18,16,7,9,0.9,0.9
2026-02-07T1200,2524A,105.8211,32.4444,广元市,老城,颗粒物(PM10),66,81,81,23,44,67,,79,77,18,34,10,13,0.5,0.9
2026-02-07T1200,2526A,105.8629,32.429,广元市,监测站,颗粒物(PM10),55,59,67,23,40,73,,78,78,10,22,4,6,0.5,0.9
2026-02-07T1200,3617A,105.8047,32.4167,广元市,经开区,颗粒物(PM10),58,65,77,28,47,65,,72,72,14,30,2,6,0.5,0.9
2026-02-07T1200,1345A,113.2346,23.1423,广州市,广雅中学,,33,33,59,20,29,66,,43,43,13,38,3,3,0.9,0.9
2026-02-07T1200,1346A,113.2611,23.105,广州市,市五中,,26,25,45,17,26,81,,55,55,13,32,6,7,/,/
2026-02-07T1200,1348A,113.3477,23.0916,广州市,广东商学院,,25,25,44,15,26,77,,51,51,11,31,4,5,0.8,0.7
2026-02-07T1200,1349A,113.4332,23.105,广州市,市八十六中,,28,28,41,18,24,81,,53,53,12,48,7,8,/,/
2026-02-07T1200,1350A,113.3506,22.9488,广州市,番禺中学,,,36,48,20,24,76,,49,49,13,34,,3,1.0,0.9
2026-02-07T1200,1351A,113.2147,23.3918,广州市,花都师范,,28,28,44,16,26,63,,52,49,14,28,7,6,0.9,0.8
2026-02-07T1200,1352A,113.2599,23.1329,广州市,市监测站,,32,32,48,18,26,70,,48,48,10,30,2,2,/,/
2026-02-07T1200,1353A,113.5618,23.3119,广州市,九龙镇镇龙,,,21,49,13,26,,,50,50,,32,4,5,0.8,0.7
2026-02-07T1200,1354A,113.2764,23.1544,广州市,麓湖,,29,29,44,17,24,72,,48,48,15,42,4,4,0.8,0.7
2026-02-07T1200,2846A,113.3209,23.1323,广州市,体育西,,26,26,50,18,30,73,,49,49,13,42,5,6,1.0,1
2026-02-07T1200,3298A,113.5718,23.5493,广州市,从化街口,,21,16,41,10,24,67,,57,57,11,29,6,7,0.8,0.8
2026-02-07T1200,3299A,113.3463,23.369,广州市,白云竹料,,23,20,49,12,27,73,,60,60,11,32,4,4,0.8,0.8
2026-02-07T1200,3300A,113.2981,23.2365,广州市,白云嘉禾,,26,26,50,14,25,70,,50,50,15,41,6,6,/,/
2026-02-07T1200,3301A,113.4256,23.1716,广州市,黄埔科学城,,27,25,43,17,26,85,,60,60,10,33,3,3,0.8,0.7
2026-02-07T1200,3302A,113.3942,23.0485,广州市,番禺大学城,,33,33,48,15,20,83,,50,50,8,35,6,8,0.8,0.6
2026-02-07T1200,3303A,113.4923,22.8169,广州市,南沙黄阁,,41,41,44,22,19,98,,50,50,17,42,6,6,/,/
2026-02-07T1200,3304A,113.534,22.7893,广州市,南沙街,,46,46,40,21,18,91,,48,48,20,38,6,6,0.9,0.7
2026-02-07T1200,3443A,113.2905,23.5541,广州市,花都梯面,,24,24,33,16,20,55,,45,45,6,17,7,5,/,/
2026-02-07T1200,3445A,113.786,23.7479,广州市,从化良口,,24,14,22,10,18,74,,56,56,7,14,8,8,/,/
2026-02-07T1200,3446A,113.805,23.2614,广州市,增城荔城,,24,15,37,10,23,74,,64,64,9,25,5,6,0.7,0.6
2026-02-07T1200,2506A,109.604387,23.066791,贵港市,江南子站,,44,44,46,28,29,63,,41,41,15,14,6,5,1.0,0.9
2026-02-07T1200,2508A,109.5669,23.1065,贵港市,荷城子站,,38,34,42,26,30,49,,35,35,14,14,6,6,1.2,1.1
2026-02-07T1200,3405A,109.5886,23.1172,贵港市,新世纪学校,,,,55,,34,,,87,,,18,,,,0.6
2026-02-07T1200,4260A,109.5933,23.095,贵港市,中山路155-3号,细颗粒物(PM2.5),52,40,42,36,30,64,,41,41,14,12,/,/,1.0,1
2026-02-07T1200,1439A,106.6863,26.6035,贵阳市,马鞍山,,20,14,46,14,33,41,,36,36,13,18,4,5,/,/
2026-02-07T1200,1441A,106.6241,26.6266,贵阳市,鉴湖路,,24,24,56,8,36,39,,42,42,14,17,2,4,0.5,0.6
2026-02-07T1200,1442A,106.7468,26.6344,贵阳市,燕子冲,,22,22,49,11,34,51,,51,51,11,13,7,7,0.6,0.6
2026-02-07T1200,1443A,106.6556,26.4362,贵阳市,碧云窝,,31,31,62,19,41,33,,39,39,24,21,14,18,/,/
2026-02-07T1200,1445A,106.6963,26.6063,贵阳市,红边门,,,,,20,38,47,,46,46,18,20,6,12,/,/
2026-02-07T1200,1446A,106.7162383,26.56964667,贵阳市,新华路,,27,27,57,14,38,44,,41,41,21,23,5,9,0.5,0.6
2026-02-07T1200,1447A,106.6742,26.542,贵阳市,太慈桥,,20,17,48,14,35,40,,43,43,20,22,3,4,/,/
2026-02-07T1200,4230A,106.688212,26.56952,贵阳市,花果园大街66号,,22,,45,15,37,38,,39,37,17,21,2,4,/,/
2026-02-07T1200,4231A,106.687268,26.516892,贵阳市,漓江路57号,,22,22,52,13,37,28,,36,35,26,23,6,8,0.8,0.8
2026-02-07T1200,1864A,110.3091,25.2705,桂林市,龙隐路小学,,36,32,49,25,39,74,,70,70,13,14,2,2,0.8,0.8
2026-02-07T1200,1865A,110.2849361,25.22909545,桂林市,八中,,,25,50,,24,59,,60,60,16,16,2,2,1.0,1
2026-02-07T1200,3531A,110.296,25.1254,桂林市,旅游学院,,45,43,56,31,41,77,,74,74,10,12,3,4,0.9,0.9
2026-02-07T1200,4222A,110.1835,25.2444,桂林市,环湖路276号,,46,46,60,24,45,68,,66,66,17,15,2,3,1.0,1.1
2026-02-07T1200,4301A,110.2803,25.2773,桂林市,信义路13号,,39,33,50,27,42,68,,69,69,15,14,4,4,1.2,1.2
2026-02-07T1200,2674A,100.2262,34.4854,果洛藏族自治州,玛沁县大武镇,颗粒物(PM10),51,51,39,28,11,64,,50,43,16,4,35,18,0.5,0.3
2026-02-07T1200,1130A,126.5557,45.8109,哈尔滨市,松北商大,,,83,46,60,40,,,19,19,20,31,40,10,0.9,0.8
2026-02-07T1200,1132A,126.6162,45.719,哈尔滨市,南岗学府路,,49,49,50,31,34,63,,32,32,10,27,10,10,0.8,1
2026-02-07T1200,1133A,126.6894,45.7733,哈尔滨市,太平宏伟公园,细颗粒物(PM2.5),59,60,64,42,50,59,,23,23,7,16,20,16,0.8,1.2
2026-02-07T1200,1134A,126.6361,45.7672,哈尔滨市,道外承德广场,颗粒物(PM10),63,76,45,42,21,60,,44,44,20,22,12,10,1.0,0.8
2026-02-07T1200,1136A,126.644,45.7261,哈尔滨市,动力和平路,,45,45,39,31,24,64,,37,37,13,22,10,9,0.9,0.9
2026-02-07T1200,1137A,126.5933,45.7479,哈尔滨市,道里建国路,"颗粒物(PM10),细颗粒物(PM2.5)",59,67,39,42,31,59,,32,32,19,28,18,9,0.9,0.8
2026-02-07T1200,1138A,126.6127,45.6119,哈尔滨市,平房东轻厂,细颗粒物(PM2.5),78,61,56,57,45,60,,26,26,21,46,7,6,0.9,1
2026-02-07T1200,1139A,126.5875,45.9827,哈尔滨市,呼兰师专,细颗粒物(PM2.5),65,68,80,47,62,54,,31,31,14,32,10,13,0.8,1.1
2026-02-07T1200,1140A,126.6299,45.6799,哈尔滨市,省农科院,细颗粒物(PM2.5),89,92,73,66,57,55,,19,19,19,46,16,16,0.9,1.2
2026-02-07T1200,4282A,126.6769,45.7379,哈尔滨市,华山路1号,颗粒物(PM10),51,51,43,27,28,59,,34,30,21,23,22,6,0.8,0.9
2026-02-07T1200,4283A,126.9717,45.5356,哈尔滨市,解放大街52号,细颗粒物(PM2.5),72,57,50,52,41,57,,38,38,13,18,20,10,0.7,0.7
2026-02-07T1200,2688A,93.5124,42.8176,哈密市,地区监测站,颗粒物(PM10),187,324,459,53,83,61,,40,40,7,17,4,5,0.0,0.4
2026-02-07T1200,2689A,93.5014,42.8312,哈密市,哈密师范学校,颗粒物(PM10),168,285,399,46,61,57,,,,10,20,3,4,0.4,0.5
2026-02-07T1200,2671A,100.9016,36.9464,海北藏族自治州,海晏县西海镇,颗粒物(PM10),57,63,65,36,26,74,,58,58,5,3,8,7,0.6,0.4
2026-02-07T1200,3867A,102.074,36.5056,海东市,平安区公安局北苑,颗粒物(PM10),58,66,90,39,51,52,,52,47,12,9,13,14,0.6,0.7
2026-02-07T1200,4163A,102.0984,36.5119,海东市,滨河路,颗粒物(PM10),57,63,93,32,40,67,,52,47,13,21,8,14,0.6,0.6
2026-02-07T1200,1410A,110.3189,20.0596,海口市,海南大学,,27,7,20,3,11,86,,75,75,5,7,5,5,0.4,0.3
2026-02-07T1200,1411A,110.2827,20.0051,海口市,秀英海南医院,,26,17,21,7,11,82,,63,63,5,10,7,7,0.3,0.3
2026-02-07T1200,1412A,110.3391,19.9979,海口市,海南师范大学,,26,18,22,8,13,82,,74,74,5,7,5,5,0.4,0.4
2026-02-07T1200,1413A,110.3303,20.0359,海口市,龙华路环保局宿舍,,27,18,20,6,12,86,,76,76,6,8,/,/,0.6,0.6
2026-02-07T1200,3539A,110.5111,19.9737,海口市,桂林洋子站,,26,6,22,3,14,82,,64,64,4,6,/,/,/,/
2026-02-07T1200,4134A,110.1952,20.0451,海口市,长滨二路9号,,25,10,16,6,10,78,,61,61,5,10,/,/,/,/
2026-02-07T1200,2673A,100.6158,36.2985,海南藏族自治州,共和县恰卜恰镇,,45,45,86,23,22,86,,86,67,2,8,12,10,0.4,0.4
2026-02-07T1200,2676A,97.373,37.376,海西蒙古族藏族自治州,德令哈市,,36,34,58,6,11,115,,109,109,2,3,18,18,0.3,0.4
2026-02-07T1200,1049A,114.492,36.5712,邯郸市,矿院,,,62,52,40,29,51,,27,27,,16,,2,0.7,0.4
2026-02-07T1200,1050A,114.4839,36.6136,邯郸市,丛台公园,细颗粒物(PM2.5),58,64,56,41,28,54,,37,37,19,19,6,3,0.7,0.4
2026-02-07T1200,3458A,114.7893,36.5592,邯郸市,香泉濮院小区,颗粒物(PM10),56,62,45,35,22,56,,40,40,10,10,5,2,0.6,0.4
2026-02-07T1200,3580A,114.1998,36.4439,邯郸市,峰峰矿区临水派出所,颗粒物(PM10),56,62,52,36,22,62,,42,42,10,9,14,4,1.1,0.6
2026-02-07T1200,4068A,114.5209,36.7697,邯郸市,建安街268号,细颗粒物(PM2.5),73,76,59,53,32,44,,24,24,11,13,6,2,0.9,0.3
2026-02-07T1200,4069A,114.5488,36.6177,邯郸市,丛台东路558号,颗粒物(PM10),56,62,49,10,19,55,,32,32,11,11,7,3,0.8,0.4
2026-02-07T1200,2635A,107.0155,33.0707,汉中市,市监测站,细颗粒物(PM2.5),59,64,70,42,36,73,,83,72,14,20,4,5,0.5,0.6
2026-02-07T1200,2636A,107.0083,33.114,汉中市,鑫源开发区,细颗粒物(PM2.5),60,67,60,43,36,76,,85,71,12,17,4,5,0.5,0.6
2026-02-07T1200,2637A,107.0072,33.0323,汉中市,南郑大河坎水厂,颗粒物(PM10),61,72,76,39,40,69,,77,69,16,24,6,7,0.6,0.7
2026-02-07T1200,1223A,120.2073,30.2111,杭州市,滨江,,32,32,19,11,10,42,,50,46,27,22,6,6,0.3,0.3
2026-02-07T1200,1224A,120.0625,30.2737,杭州市,西溪,,34,34,29,21,16,49,,50,50,22,25,8,8,0.6,0.6
2026-02-07T1200,1226A,120.3417,30.315,杭州市,下沙,,,,30,19,15,49,,48,48,20,22,7,7,0.4,0.4
2026-02-07T1200,1227A,120.1252,30.2465,杭州市,卧龙桥,,26,26,21,18,13,48,,50,48,14,16,9,8,0.3,0.2
2026-02-07T1200,1228A,120.1902,30.2691,杭州市,浙江农大,,28,28,20,13,9,50,,57,55,32,27,5,5,0.4,0.4
2026-02-07T1200,1230A,120.1195,30.3121,杭州市,和睦小学,,29,29,22,17,13,50,,52,51,19,20,4,4,0.5,0.5
2026-02-07T1200,1231A,120.3076,30.4146,杭州市,临平镇,,29,29,21,18,15,56,,55,55,9,10,6,6,0.5,0.5
2026-02-07T1200,1232A,120.2753,30.1839,杭州市,城厢镇,,31,31,33,17,11,51,,57,54,18,20,6,6,0.6,0.5
2026-02-07T1200,1233A,120.0883,30.1808,杭州市,云栖,,26,26,21,16,10,48,,47,46,13,15,4,4,0.6,0.5
2026-02-07T1200,3557A,119.9463,30.0496,杭州市,镇二中,,22,15,11,15,12,44,,51,49,20,21,4,4,0.7,0.6
2026-02-07T1200,3558A,119.7184,30.2367,杭州市,市府大楼,,33,,11,23,11,47,,49,47,13,13,10,9,0.7,0.6
2026-02-07T1200,3656A,120.1554,30.2863,杭州市,消防大队,,28,28,26,18,13,45,,51,50,24,20,5,5,0.5,0.5
2026-02-07T1200,1270A,117.1957,31.7845,合肥市,明珠广场,,46,46,33,19,14,53,,51,45,12,14,5,5,0.3,0.3
2026-02-07T1200,1271A,117.307,31.8765,合肥市,三里街,,39,39,30,14,8,52,,50,48,17,17,5,4,0.7,0.6
2026-02-07T1200,1272A,117.2587,31.8703,合肥市,琥珀山庄,,48,48,35,22,14,52,,51,48,15,14,7,6,0.7,0.6
2026-02-07T1200,1275A,117.2593,31.9376,合肥市,庐阳区,,41,41,33,12,7,58,,54,52,14,16,4,4,0.4,0.4
2026-02-07T1200,1276A,117.345251,31.861615,合肥市,瑶海区,,39,39,28,14,8,52,,54,52,17,14,4,4,0.6,0.6
2026-02-07T1200,1277A,117.3033,31.7967,合肥市,包河区,,48,48,33,18,8,43,,41,40,20,27,5,5,0.7,0.6
2026-02-07T1200,1278A,117.278,31.7392,合肥市,滨湖新区,,46,46,33,16,8,41,,53,48,20,14,1,2,0.5,0.5
2026-02-07T1200,1279A,117.1324,31.8395,合肥市,高新区,,39,39,34,15,10,57,,51,50,7,12,3,3,0.4,0.4
2026-02-07T1200,3464A,117.3802,31.9148,合肥市,高教基地,,36,36,30,12,7,58,,54,54,11,12,6,7,0.4,0.4
2026-02-07T1200,4098A,117.2518,31.8404,合肥市,中国科学技术大学,,41,41,30,16,8,55,,55,51,10,8,7,6,0.5,0.4
2026-02-07T1200,3614A,79.9241,37.0878,和田地区,地区环保局,颗粒物(PM10),500,627,545,120,97,59,,64,63,23,16,14,3,1.3,1
2026-02-07T1200,3615A,79.9132,37.1137,和田地区,市环保局,颗粒物(PM10),479,579,504,92,99,60,,78,74,40,16,4,2,0.3,0.9
2026-02-07T1200,2517A,108.0496,24.6957,河池市,市环保站,,29,29,21,16,14,37,,38,38,15,12,3,4,0.8,0.8
2026-02-07T1200,4302A,108.0901,24.6945,河池市,上任中路54号,,33,33,25,12,16,37,,36,36,14,13,5,5,1.1,1.1
2026-02-07T1200,1697A,114.6962,23.7538,河源市,东埔,,25,13,27,9,18,79,,62,62,8,20,6,5,0.8,0.8
2026-02-07T1200,1698A,114.6895,23.7232,河源市,老城,,25,,28,13,23,77,,,,10,19,6,6,0.6,0.5
2026-02-07T1200,3374A,115.5562,35.089,菏泽市,定陶老年大学,颗粒物(PM10),58,66,67,37,26,66,,40,40,16,21,5,6,0.4,0.4
2026-02-07T1200,4114A,115.4239,35.2593,菏泽市,黄河路600号,颗粒物(PM10),61,72,66,38,29,75,,42,42,12,21,4,4,0.4,0.5
2026-02-07T1200,4115A,115.5025,35.2727,菏泽市,菏泽市人社局,颗粒物(PM10),53,55,60,35,28,68,,35,35,14,24,7,10,0.5,0.5
2026-02-07T1200,4184A,115.479691,35.244011,菏泽市,永昌路1号,,,,64,32,25,76,,46,46,15,19,3,5,0.4,0.5
2026-02-07T1200,4193A,115.471542,35.280012,菏泽市,长城路999号,颗粒物(PM10),60,70,70,38,32,71,,38,38,14,22,3,4,0.3,0.4
2026-02-07T1200,2514A,111.5264,24.4178,贺州市,环保小区,,48,45,48,33,34,52,,50,48,14,15,4,3,0.7,0.8
2026-02-07T1200,2515A,111.561,24.4074,贺州市,政协大楼,颗粒物(PM10),51,52,44,34,34,46,,47,44,13,13,5,4,1.0,1.1
2026-02-07T1200,3534A,111.4744,24.455,贺州市,西湾,,46,46,51,28,33,52,,48,46,15,15,7,6,0.9,1
2026-02-07T1200,2385A,114.17,35.9019,鹤壁市,市监测站,细颗粒物(PM2.5),64,73,62,46,30,49,,30,30,16,17,6,4,0.6,0.5
2026-02-07T1200,2386A,114.2953,35.7512,鹤壁市,市交警支队,,,,69,47,29,44,,20,20,18,31,2,4,0.5,0.5
2026-02-07T1200,2387A,114.2877,35.7302,鹤壁市,迎宾馆,颗粒物(PM10),67,84,73,33,32,50,,22,22,14,21,8,5,0.6,0.6
2026-02-07T1200,3474A,114.2616,35.6824,鹤壁市,大新区,颗粒物(PM10),71,92,68,49,34,52,,26,26,18,22,10,7,0.7,0.6
2026-02-07T1200,3596A,114.1573,35.9607,鹤壁市,南山宾馆,颗粒物(PM10),66,82,74,39,31,51,,34,34,9,10,8,5,0.5,0.4
2026-02-07T1200,2244A,130.2537,47.3416,鹤岗市,哈啤分公司,,,7,22,3,11,76,,73,72,2,3,,7,0.4,0.4
2026-02-07T1200,2245A,130.2683,47.3087,鹤岗市,斯达机电,,22,12,26,3,8,70,,67,66,4,5,6,6,0.5,0.6
2026-02-07T1200,2246A,130.3114,47.3388,鹤岗市,东山纸板厂,,23,13,26,3,8,73,,68,68,1,3,7,8,0.3,0.5
2026-02-07T1200,2263A,127.4832,50.2524,黑河市,交通局,,25,18,22,9,17,77,,73,73,5,7,5,6,0.3,0.3
2026-02-07T1200,2264A,127.5146,50.2339,黑河市,环保局,,23,9,22,3,14,72,,69,69,7,9,4,5,0.4,0.4
2026-02-07T1200,1074A,115.6839,37.754,衡水市,电机北厂,颗粒物(PM10),66,81,72,46,38,42,,29,29,20,30,7,4,0.4,0.2
2026-02-07T1200,1075A,115.6303,37.7318,衡水市,市监测站,颗粒物(PM10),61,71,63,42,34,43,,27,26,20,28,7,6,0.1,0.5
2026-02-07T1200,3188A,115.6684,37.7216,衡水市,市城管局,颗粒物(PM10),59,68,63,25,35,38,,31,26,16,19,7,9,0.6,0.5
2026-02-07T1200,3459A,115.599,37.5491,衡水市,地表水厂,,46,36,52,32,31,61,,21,21,4,25,4,4,0.4,0.4
2026-02-07T1200,2457A,112.6209,26.9268,衡阳市,衡阳化工总厂,细颗粒物(PM2.5),59,46,67,42,63,26,,40,30,14,15,9,8,0.9,1.1
2026-02-07T1200,2458A,112.621,26.8957,衡阳市,珠晖区环保局,,50,49,69,35,58,28,,38,30,16,21,4,4,1.0,1.2
2026-02-07T1200,2459A,112.628,26.8654,衡阳市,市委党校,细颗粒物(PM2.5),54,,66,38,62,31,,42,32,11,13,7,7,0.9,1.2
2026-02-07T1200,2460A,112.6007,26.8977,衡阳市,市监测站,颗粒物(PM10),60,70,90,36,69,28,,42,32,14,16,6,7,1.1,1.2
2026-02-07T1200,2461A,112.5658,26.9013,衡阳市,真空机电公司,细颗粒物(PM2.5),64,52,82,46,76,31,,44,34,14,16,5,7,1.0,1.1
2026-02-07T1200,3399A,112.6703,26.8817,衡阳市,师范学院,,,,72,,54,,,46,33,,23,,2,,1.1
2026-02-07T1200,3038A,103.3757,23.3679,红河哈尼族彝族自治州,州图书馆,,48,42,42,33,30,88,,74,74,5,6,10,12,0.6,0.6
2026-02-07T1200,4154A,103.401,23.3561,红河哈尼族彝族自治州,蒙自市朝阳路,,40,,30,28,27,90,,74,74,3,6,5,7,0.4,0.4
2026-02-07T1200,1090A,111.6506,40.7517,呼和浩特市,呼市一监,,36,36,18,8,10,65,,55,43,14,9,8,6,0.5,0.4
2026-02-07T1200,1094A,111.7516,40.8369,呼和浩特市,如意水处理厂,,27,27,19,10,6,62,,56,42,12,10,11,8,0.4,0.3
2026-02-07T1200,1095A,111.727798,40.806187,呼和浩特市,二十九中,,,33,18,19,6,,,58,40,,7,,10,,0.4
2026-02-07T1200,1097A,111.717,40.7617,呼和浩特市,化肥厂生活区,,44,44,18,26,8,63,,59,47,13,9,6,4,0.4,0.3
2026-02-07T1200,3699A,111.6519,40.8389,呼和浩特市,海东办,,41,41,16,14,5,56,,58,41,14,11,9,5,0.4,0.3
2026-02-07T1200,4275A,111.591512,40.827312,呼和浩特市,成吉思汗西街8号,,39,39,15,11,6,54,,38,25,15,16,8,6,0.4,0.3
2026-02-07T1200,4276A,111.6597,40.8077,呼和浩特市,公园东路75号,,39,39,17,17,7,55,,60,48,16,11,9,7,0.5,0.4
2026-02-07T1200,4277A,111.5427,40.7846,呼和浩特市,金海路35号,,33,33,19,10,7,64,,50,39,11,12,8,7,0.4,0.4
2026-02-07T1200,3061A,119.7511,49.1576,呼伦贝尔市,国华电力东,,21,13,31,7,14,66,,60,60,10,13,6,7,0.3,0.3
2026-02-07T1200,4279A,119.7569,49.2222,呼伦贝尔市,伊敏大街东7号,,28,28,30,9,16,66,,60,59,15,16,8,7,0.2,0.2
2026-02-07T1200,1250A,120.075,30.867,湖州市,城西水厂,,25,25,21,15,14,69,,66,66,14,14,4,4,0.5,0.5
2026-02-07T1200,2873A,120.083,30.8929,湖州市,仁皇山新区,,25,25,20,13,11,68,,66,66,15,16,4,4,0.5,0.6
2026-02-07T1200,2907A,120.1846,30.8592,湖州市,吴兴区站,,28,28,30,14,14,63,,60,60,14,11,4,4,0.4,0.4
2026-02-07T1200,3562A,120.4146,30.8538,湖州市,南浔区站,,22,22,21,15,11,65,,61,61,15,17,6,6,0.5,0.5
2026-02-07T1200,1607A,120.904878,40.721091,葫芦岛市,龙港区,,27,27,47,3,26,72,,38,38,6,34,10,19,0.6,0.9
2026-02-07T1200,1608A,120.8382,40.7521,葫芦岛市,化工街,,,17,41,3,23,67,,43,43,8,37,,22,0.3,0.5
2026-02-07T1200,1609A,120.8339,40.7078,葫芦岛市,新区,,24,24,32,3,16,70,,45,45,8,35,9,14,0.6,0.7
2026-02-07T1200,1610A,120.8697,40.7679,葫芦岛市,东城区,,24,24,54,10,31,72,,44,44,8,39,12,28,0.5,0.9
2026-02-07T1200,2483A,109.9297,27.5383,怀化市,河西地税局,细颗粒物(PM2.5),78,79,122,57,81,55,,60,53,20,22,3,2,/,/
2026-02-07T1200,2484A,109.9783,27.5342,怀化市,市四医院,细颗粒物(PM2.5),73,75,120,53,83,63,,63,58,11,13,3,6,0.8,1
2026-02-07T1200,2485A,109.9971,27.5579,怀化市,监测楼,细颗粒物(PM2.5),73,69,113,53,85,64,,60,56,13,16,2,3,0.3,0.4
2026-02-07T1200,1210A,119.0566,33.5991,淮安市,钵池山,,44,44,35,22,12,68,,54,54,11,13,8,7,0.4,0.3
2026-02-07T1200,1211A,119.0083,33.578,淮安市,北京南路,颗粒物(PM10),52,53,40,23,12,64,,49,49,10,10,8,6,0.6,0.5
2026-02-07T1200,1212A,118.9938,33.6083,淮安市,市监测站,,46,46,30,25,12,62,,46,46,14,15,10,8,0.4,0.4
2026-02-07T1200,1213A,119.135,33.5038,淮安市,楚州区监测站,,46,46,33,22,11,62,,56,56,12,8,6,5,0.7,0.5
2026-02-07T1200,3426A,118.8757,33.2897,淮安市,新华书店,颗粒物(PM10),53,56,41,26,15,60,,51,48,15,16,11,8,0.6,0.4
2026-02-07T1200,4092A,119.119691,33.550006,淮安市,枚皋中路89号,,50,50,37,23,12,64,,56,56,10,9,10,8,0.2,0.1
2026-02-07T1200,4206A,119.028838,33.631911,淮安市,承德北路606号,,,51,43,23,12,68,,48,48,6,10,,6,0.6,0.5
2026-02-07T1200,2282A,116.8005,33.9749,淮北市,监测站,颗粒物(PM10),66,81,62,43,21,63,,55,54,22,20,7,6,0.7,0.6
2026-02-07T1200,2283A,116.8094,33.9008,淮北市,烈山区政府,颗粒物(PM10),62,74,64,30,14,61,,54,53,17,13,7,4,0.4,0.3
2026-02-07T1200,4017A,116.7926,33.9534,淮北市,市博物馆,颗粒物(PM10),65,80,63,40,20,60,,54,52,21,20,5,3,0.4,0.4
2026-02-07T1200,4100A,116.8322,33.9884,淮北市,杜集区第一实验学校,颗粒物(PM10),71,91,66,41,16,67,,56,54,14,13,6,5,0.2,0.2
2026-02-07T1200,2277A,116.8304,32.7726,淮南市,潘集区政府,颗粒物(PM10),52,54,52,27,15,51,,46,46,15,12,6,4,0.3,0.3
2026-02-07T1200,2279A,116.8569,32.5949,淮南市,谢家集区政府,颗粒物(PM10),62,73,46,38,15,48,,44,42,19,13,9,7,0.5,0.4
2026-02-07T1200,2280A,116.8279,32.6333,淮南市,八公山区政府,颗粒物(PM10),56,61,50,30,16,52,,44,44,20,16,4,3,0.6,0.4
2026-02-07T1200,2894A,117.0561,32.6536,淮南市,经济技术开发区消防队,颗粒物(PM10),58,66,52,28,14,50,,42,42,20,19,5,4,0.3,0.2
2026-02-07T1200,3329A,117.011,32.5891,淮南市,山南新区,颗粒物(PM10),57,64,45,28,14,52,,46,44,10,8,7,6,0.3,0.3
2026-02-07T1200,4209A,117.003137,32.644456,淮南市,国庆中路369号,,50,50,46,26,14,44,,38,38,16,14,3,3,0.3,0.3
2026-02-07T1200,2446A,114.9021,30.474,黄冈市,职工中心,,32,30,32,22,23,56,,50,50,5,7,4,4,0.5,0.5
2026-02-07T1200,2929A,114.8858,30.4519,黄冈市,红卫路,,28,27,37,19,29,56,,52,52,6,9,5,5,0.2,0.3
2026-02-07T1200,3398A,114.9134,30.4446,黄冈市,市林业局,,36,29,38,25,32,52,,49,49,11,13,3,3,0.4,0.5
2026-02-07T1200,2672A,102.02,35.5101,黄南藏族自治州,同仁县隆务镇,,50,50,86,25,26,80,,72,68,3,5,8,8,0.4,0.4
2026-02-07T1200,2295A,118.2905,29.6965,黄山市,延安路89号,,20,12,9,10,6,62,,51,51,9,12,4,4,0.3,0.4
2026-02-07T1200,2297A,118.1369,30.2755,黄山市,黄山区政府5号楼,,20,15,11,3,4,62,,51,51,10,14,2,2,0.5,0.5
2026-02-07T1200,4210A,118.335445,29.720283,黄山市,滨江东路7-2号,,24,24,22,8,5,65,,54,54,11,13,/,/,/,/
2026-02-07T1200,2423A,115.0547,30.2332,黄石市,沈家营,,20,16,44,14,25,56,,46,46,9,12,23,7,0.9,1
2026-02-07T1200,2426A,114.899,30.211,黄石市,铁山,,32,31,41,22,36,41,,41,41,9,12,5,5,0.6,0.9
2026-02-07T1200,2427A,115.0259,30.2108,黄石市,团城山,,38,38,53,18,32,34,,31,31,7,8,7,7,0.6,0.8
2026-02-07T1200,3149A,115.0174,30.1591,黄石市,笔架山北路,,41,41,36,19,27,39,,37,37,12,15,5,5,0.7,0.8
2026-02-07T1200,4185A,115.078022,30.21118,黄石市,磁湖东路29号,,33,32,43,23,19,38,,40,37,14,15,6,6,0.5,0.6
2026-02-07T1200,1392A,114.4181,23.0528,惠州市,河南岸金山湖子站,,24,22,39,10,21,74,,57,57,11,21,6,6,0.8,0.7
2026-02-07T1200,1393A,114.4055,23.0824,惠州市,下埔横江三路子站,,27,20,44,11,23,84,,66,66,8,24,6,6,0.7,0.6
2026-02-07T1200,1395A,114.4645,22.7832,惠州市,惠阳区承修路船湖子站,,32,32,34,18,18,78,,54,54,15,25,6,6,0.8,0.7
2026-02-07T1200,1396A,114.5316,22.7423,惠州市,大亚湾管委会子站,,30,30,45,17,20,70,,47,47,13,35,6,6,0.8,0.7
2026-02-07T1200,3314A,114.4334,22.8134,惠州市,惠阳秋长,,31,27,46,16,21,99,,69,69,9,31,/,/,/,/
2026-02-07T1200,3452A,114.6521,22.7755,惠州市,大亚湾霞涌,,33,28,26,23,20,82,,58,58,13,23,/,/,/,/
2026-02-07T1200,4300A,114.4089,23.1147,惠州市,文华一路1号,,26,21,36,12,20,82,,64,64,10,25,/,/,/,/
2026-02-07T1200,2240A,130.9618,45.2926,鸡西市,环保局,,22,22,35,12,14,68,,64,64,6,7,7,7,0.3,0.3
2026-02-07T1200,2243A,130.9294,45.2959,鸡西市,第一中学,,,14,25,3,15,,,63,63,4,6,4,3,0.3,0.4
2026-02-07T1200,3707A,131.0069,45.2988,鸡西市,欧美日汽修厂,,22,22,29,11,16,62,,62,61,4,3,10,7,0.6,0.5
2026-02-07T1200,2367A,114.9753,27.0803,吉安市,红声器材厂,,45,31,40,31,28,28,,40,32,16,16,7,7,0.7,0.9
2026-02-07T1200,2369A,114.9903,27.1313,吉安市,市环境监测站,,40,32,34,28,30,32,,40,33,16,20,7,7,/,/
2026-02-07T1200,2370A,115.009527,27.096792,吉安市,青原区法院,,46,36,34,32,29,26,,41,33,18,17,9,9,0.7,0.9
2026-02-07T1200,1772A,126.54,43.8622,吉林市,哈达湾,细颗粒物(PM2.5),55,48,41,39,26,72,,54,54,19,17,13,13,0.9,0.7
2026-02-07T1200,1773A,126.5843,43.8358,吉林市,东局子,细颗粒物(PM2.5),60,50,45,43,22,45,,46,40,27,16,12,5,0.9,0.7
2026-02-07T1200,1774A,126.5051,43.8243,吉林市,电力学院,,39,34,49,27,33,70,,44,44,12,20,9,7,0.8,0.9
2026-02-07T1200,1775A,126.6133,43.8971,吉林市,江北,细颗粒物(PM2.5),92,81,53,68,35,57,,48,44,29,18,12,8,0.8,0.6
2026-02-07T1200,1776A,126.5549,43.8304,吉林市,江南公园,细颗粒物(PM2.5),53,44,40,37,29,57,,39,39,19,18,12,7,0.8,0.7
2026-02-07T1200,2868A,126.4737,43.953,吉林市,九站,细颗粒物(PM2.5),70,63,60,51,42,57,,23,23,28,36,14,9,0.8,0.8
2026-02-07T1200,1299A,116.9866,36.6118,济南市,科干所,颗粒物(PM10),56,61,51,29,25,57,,21,21,17,25,7,5,0.4,0.4
2026-02-07T1200,1300A,116.9379,36.6652,济南市,农科所,,,54,50,36,23,55,,14,14,19,36,,6,0.6,0.6
2026-02-07T1200,1301A,117.1265,36.6736,济南市,开发区,颗粒物(PM10),51,51,46,31,22,67,,32,32,25,34,6,3,0.5,0.5
2026-02-07T1200,1303A,117.0616,36.6865,济南市,省种子仓库,颗粒物(PM10),51,51,51,33,21,61,,28,28,19,33,6,5,0.5,0.4
2026-02-07T1200,1304A,116.9495185,36.644937,济南市,机床二厂,,,,48,36,25,41,,18,18,22,36,,5,0.1,0.2
2026-02-07T1200,1305A,117.0496,36.6629,济南市,市监测站,颗粒物(PM10),55,59,53,35,23,62,,26,26,16,29,6,4,0.6,0.5
2026-02-07T1200,1306A,116.7674,36.5458,济南市,长清党校,颗粒物(PM10),56,61,59,34,24,58,,23,23,17,35,5,4,0.5,0.5
2026-02-07T1200,1961A,117.5323,36.6865,济南市,东山小学,,44,44,55,25,20,70,,30,30,15,32,4,3,0.4,0.4
2026-02-07T1200,3059A,117.7181,36.205,济南市,泰兴公司,,,46,49,27,25,,,32,31,,26,,4,,0.6
2026-02-07T1200,3064A,117.6861,36.2172,济南市,莱芜战役纪念馆,,44,44,49,24,24,72,,40,40,16,23,7,9,0.5,0.6
2026-02-07T1200,3494A,117.1673,36.9782,济南市,济阳区政府,细颗粒物(PM2.5),60,68,46,43,20,55,,31,31,13,19,6,8,0.6,0.5
2026-02-07T1200,3495A,117.1168,36.6299,济南市,锦屏中学,,49,49,42,28,21,63,,35,35,20,23,5,2,0.3,0.3
2026-02-07T1200,4108A,117.7107,36.2385,济南市,山财大街5号,,39,39,39,21,22,69,,35,35,17,25,8,8,0.7,0.8
2026-02-07T1200,4109A,116.9744,36.6889,济南市,无影山路12号,细颗粒物(PM2.5),53,48,46,37,23,54,,24,24,16,30,6,6,0.5,0.5
2026-02-07T1200,1653A,116.6229,35.4288,济宁市,火炬城,"颗粒物(PM10),细颗粒物(PM2.5)",55,59,58,39,21,64,,32,32,12,20,2,2,0.4,0.4
2026-02-07T1200,3500A,116.5808,35.3703,济宁市,北湖一中,颗粒物(PM10),54,57,52,35,19,60,,35,35,19,24,3,3,0.3,0.3
2026-02-07T1200,3501A,116.8251,35.5592,济宁市,服务中心,颗粒物(PM10),58,65,62,39,29,63,,32,32,8,15,2,3,0.4,0.4
2026-02-07T1200,3678A,116.5907,35.4054,济宁市,市第七中学,颗粒物(PM10),67,83,62,43,25,65,,40,40,15,21,9,8,0.5,0.4
2026-02-07T1200,4111A,116.6075,35.4566,济宁市,任和路,细颗粒物(PM2.5),59,64,64,42,26,64,,28,28,12,24,6,6,0.5,0.5
2026-02-07T1200,4112A,116.5648,35.3921,济宁市,文体南路1号,颗粒物(PM10),60,69,61,33,24,68,,35,35,11,19,4,3,0.4,0.4
2026-02-07T1200,2255A,130.2749,46.8028,佳木斯市,佳纺,,38,38,25,13,18,64,,56,56,6,9,8,8,0.5,0.5
2026-02-07T1200,2257A,130.3258,46.7975,佳木斯市,环保局,,21,21,20,6,14,66,,62,62,6,8,7,7,0.2,0.2
2026-02-07T1200,4285A,130.363,46.806,佳木斯市,顺和街,,24,24,21,3,15,61,,59,59,10,11,5,6,0.6,0.6
2026-02-07T1200,4286A,130.3952,46.8268,佳木斯市,长安路196号,,23,23,19,8,14,66,,61,61,7,7,8,8,0.2,0.2
2026-02-07T1200,1252A,120.7439,30.778,嘉兴市,清河小学,,,25,26,3,4,,,58,58,20,18,5,5,0.7,0.4
2026-02-07T1200,1253A,120.7261,30.7477,嘉兴市,嘉兴学院,,28,28,27,16,12,55,,62,59,22,19,4,4,0.6,0.4
2026-02-07T1200,2872A,120.7845,30.7524,嘉兴市,南湖区残联,,23,23,22,12,10,63,,65,64,17,17,4,3,0.5,0.4
2026-02-07T1200,3407A,120.6915,30.7741,嘉兴市,秀洲住建,,32,32,25,13,9,59,,63,62,18,16,5,5,0.6,0.4
2026-02-07T1200,1945A,98.291,39.7705,嘉峪关市,气象局,颗粒物(PM10),147,244,191,55,46,64,,65,62,11,8,6,7,0.4,0.3
2026-02-07T1200,2884A,98.2672,39.7978,嘉峪关市,酒钢宾馆,颗粒物(PM10),155,259,203,72,51,62,,55,52,6,10,9,9,0.3,0.4
2026-02-07T1200,3248A,98.2644,39.7723,嘉峪关市,雄关区,颗粒物(PM10),118,185,170,62,51,65,,45,45,13,16,8,8,0.4,0.4
2026-02-07T1200,1383A,113.1063,22.6058,江门市,北街,颗粒物(PM10),55,59,37,28,20,61,,43,43,23,23,/,/,/,/
2026-02-07T1200,1384A,113.073,22.5835,江门市,西区,,48,48,36,30,21,61,,42,42,22,26,/,/,/,/
2026-02-07T1200,1385A,113.0218,22.531,江门市,圭峰西,颗粒物(PM10),58,66,33,33,19,63,,54,51,21,17,/,/,/,/
2026-02-07T1200,1386A,113.0826,22.5947,江门市,东湖,,40,40,34,26,21,61,,40,40,21,23,8,8,0.8,0.6
2026-02-07T1200,3311A,113.1077,22.5647,江门市,江海富民,颗粒物(PM10),57,64,48,31,22,64,,44,44,24,28,/,/,0.8,0.6
2026-02-07T1200,3449A,113.0496,22.4669,江门市,新会银湖,,50,50,33,32,20,62,,40,40,27,30,9,7,0.8,0.5
2026-02-07T1200,3335A,113.3137,35.2643,焦作市,马村街道办,颗粒物(PM10),78,105,79,50,29,47,,34,34,21,19,13,8,0.6,0.4
2026-02-07T1200,3336A,113.2464,35.2374,焦作市,焦作技师学院,颗粒物(PM10),71,92,77,44,27,46,,33,32,23,19,13,8,0.6,0.4
2026-02-07T1200,3477A,113.1656,35.2536,焦作市,中站许衡医院,颗粒物(PM10),75,99,58,48,28,48,,43,38,21,15,18,9,0.7,0.5
2026-02-07T1200,3981A,113.2456,35.18,焦作市,原李万街道办,颗粒物(PM10),80,110,70,40,28,58,,41,41,18,20,9,5,0.7,0.5
2026-02-07T1200,4264A,113.234,35.219,焦作市,新安路1731号,颗粒物(PM10),65,80,78,44,29,54,,40,39,15,15,13,7,0.5,0.3
2026-02-07T1200,4295A,113.2722,35.2121,焦作市,人民路3066号,,,72,74,,27,48,,34,34,,18,11,7,0.7,0.6
2026-02-07T1200,1708A,116.3701,23.5345,揭阳市,新兴,颗粒物(PM10),53,55,45,26,29,56,,60,59,28,22,6,7,0.7,0.7
2026-02-07T1200,1709A,116.3261,23.5442,揭阳市,西马,颗粒物(PM10),51,51,49,29,28,56,,58,58,20,18,4,5,0.8,0.7
2026-02-07T1200,1710A,116.361,23.5627,揭阳市,东兴,颗粒物(PM10),51,51,42,28,30,54,,60,60,23,18,9,10,/,/
2026-02-07T1200,1711A,116.4151,23.5295,揭阳市,渔湖,,43,43,44,27,32,68,,68,67,19,20,4,5,/,/
2026-02-07T1200,3320A,116.4028,23.5699,揭阳市,曲溪,,,34,40,26,31,,,68,,18,15,16,6,0.7,0.7
2026-02-07T1200,1944A,102.1691,38.5166,金昌市,天庆家园,颗粒物(PM10),104,158,149,75,44,65,,67,57,13,7,30,6,0.5,0.3
2026-02-07T1200,4022A,102.1648,38.5369,金昌市,金川区人防中心,细颗粒物(PM2.5),113,126,147,85,45,66,,66,60,12,5,52,10,0.5,0.4
2026-02-07T1200,4239A,102.193042,38.531887,金昌市,长春路96号,颗粒物(PM10),127,203,146,88,39,44,,68,53,18,6,216,18,0.7,0.5
2026-02-07T1200,1262A,119.6478,29.0773,金华市,十五中,,25,19,9,17,8,63,,56,56,16,14,2,2,0.5,0.5
2026-02-07T1200,1263A,119.6859,29.1032,金华市,监测站,,25,25,12,16,7,55,,49,49,21,24,2,2,0.4,0.4
2026-02-07T1200,3659A,119.656,29.1132,金华市,气象局,,23,23,10,10,5,51,,43,43,19,21,1,1,0.4,0.4
2026-02-07T1200,1767A,121.1114,41.0879,锦州市,南山,,26,25,45,7,34,83,,55,55,4,23,10,12,0.5,0.9
2026-02-07T1200,1768A,121.060361,40.842794,锦州市,开发区,,,,52,10,34,73,,42,42,6,34,9,15,0.4,0.7
2026-02-07T1200,1769A,121.1836,41.1118,锦州市,百股街道,,25,24,45,6,33,80,,52,52,4,28,4,9,0.5,0.8
2026-02-07T1200,1770A,121.1176,41.1224,锦州市,天安街道,,29,15,36,6,22,92,,76,76,6,20,4,7,0.5,0.8
2026-02-07T1200,1771A,121.1303,41.1385,锦州市,北湖公园,,27,20,50,7,34,84,,73,73,4,18,7,11,0.4,0.7
2026-02-07T1200,2160A,112.8496,35.5051,晋城市,自来水公司,,44,44,66,3,18,67,,35,35,11,17,5,6,0.5,0.5
2026-02-07T1200,2162A,112.8509,35.4886,晋城市,市环保局,,,,56,,24,,,73,,,19,,5,,0.5
2026-02-07T1200,3620A,112.8258,35.4804,晋城市,泽州一中,,45,45,72,13,25,79,,48,48,6,13,4,4,0.3,0.4
2026-02-07T1200,4078A,112.8246,35.5152,晋城市,前书院路,,28,28,63,3,19,66,,34,34,8,16,6,6,0.2,0.3
2026-02-07T1200,4079A,112.8864,35.4773,晋城市,祥云街666号,,32,32,55,3,26,72,,36,36,11,21,6,7,0.3,0.4
2026-02-07T1200,2174A,112.6992,37.6984,晋中市,榆次区政府,,27,27,64,3,40,74,,26,26,12,35,7,8,0.3,0.6
2026-02-07T1200,2865A,112.7195,37.683,晋中市,榆次三中,,25,19,63,3,41,78,,26,26,9,31,7,9,0.2,0.5
2026-02-07T1200,4080A,112.7375,37.7215,晋中市,广安街188号,,25,21,70,6,42,80,,28,28,5,33,8,8,0.2,0.5
2026-02-07T1200,4200A,112.7478,37.6954,晋中市,迎宾街26号,,24,22,65,3,43,76,,30,30,10,28,7,8,0.3,0.5
2026-02-07T1200,2439A,112.2012,31.048,荆门市,竹园小学,颗粒物(PM10),83,116,132,56,72,46,,31,31,20,27,1,1,0.1,0.3
2026-02-07T1200,2440A,112.1968,30.9892,荆门市,掇刀,细颗粒物(PM2.5),94,117,135,70,81,51,,34,34,17,21,6,4,0.7,0.7
2026-02-07T1200,3012A,112.1849,31.0361,荆门市,西山林语,,,103,128,73,72,44,,31,31,,25,,2,0.8,0.9
2026-02-07T1200,3547A,112.1631,31.0134,荆门市,龙泉中学南校,颗粒物(PM10),85,120,140,51,69,58,,46,46,14,18,5,4,0.1,0.1
2026-02-07T1200,4124A,112.2213,31.0654,荆门市,新台西路6号,颗粒物(PM10),97,144,134,69,80,54,,33,33,14,22,9,8,0.4,0.5
2026-02-07T1200,1844A,112.2493,30.3198,荆州市,市图书馆,细颗粒物(PM2.5),78,86,110,57,79,55,,34,34,13,18,6,6,0.6,0.8
2026-02-07T1200,1845A,112.2009,30.3543,荆州市,市委党校,细颗粒物(PM2.5),78,92,124,57,90,47,,28,28,20,24,6,6,0.8,0.9
2026-02-07T1200,3194A,112.2749,30.3124,荆州市,管委会,细颗粒物(PM2.5),74,79,106,54,83,54,,33,33,14,19,6,6,0.6,0.7
2026-02-07T1200,4268A,112.1722,30.3366,荆州市,学苑路85号,细颗粒物(PM2.5),79,84,113,58,89,51,,32,32,15,18,7,8,0.5,0.6
2026-02-07T1200,2343A,117.2114,29.2931,景德镇市,老干部活动中心,,,50,12,3,5,45,,40,40,6,9,,4,0.6,0.7
2026-02-07T1200,2344A,117.1893,29.2789,景德镇市,兽医站,,23,23,18,3,5,49,,43,43,7,11,4,4,0.5,0.7
2026-02-07T1200,2346A,117.246,29.2958,景德镇市,陶研所,,15,,6,3,5,45,,41,41,6,9,3,3,0.5,0.7
2026-02-07T1200,4289A,117.154766,29.256967,景德镇市,青少年活动中心,,16,8,7,3,6,49,,44,44,8,11,2,3,/,/
2026-02-07T1200,1803A,115.9873,29.6816,九江市,十里,,30,27,26,21,25,63,,59,59,14,15,4,5,0.6,0.7
2026-02-07T1200,1804A,115.9583,29.7047,九江市,茅山头,,,,25,,19,,,65,56,,9,,4,,0.5
2026-02-07T1200,1805A,115.9877,29.7295,九江市,西园,,40,,30,28,17,64,,60,60,13,17,6,6,0.7,0.7
2026-02-07T1200,1808A,115.9112,29.6038,九江市,综合工业园,,32,30,23,22,16,65,,57,57,16,19,3,3,0.5,0.5
2026-02-07T1200,3190A,116.0254,29.6995,九江市,外国语学校,,35,,27,24,16,55,,50,50,15,17,2,3,0.6,0.6
2026-02-07T1200,4253A,116.010205,29.659402,九江市,莲花大道8号,,33,32,32,23,16,61,,54,54,7,10,2,2,0.3,0.3
2026-02-07T1200,4240A,98.495752,39.733935,酒泉市,玉门东路5号,颗粒物(PM10),145,239,175,63,54,56,,50,50,8,8,9,8,0.4,0.4
2026-02-07T1200,4241A,98.5099,39.7506,酒泉市,北大街108号,颗粒物(PM10),131,212,164,55,48,56,,48,48,3,5,8,8,0.4,0.4
2026-02-07T1200,2698A,76.0071,39.466,喀什地区,巡警大队,颗粒物(PM10),372,477,401,124,95,20,,55,47,47,34,8,6,1.3,1
2026-02-07T1200,2699A,75.9756,39.4693,喀什地区,吾办,颗粒物(PM10),338,450,385,133,107,39,,50,42,36,31,7,5,1.2,0.9
2026-02-07T1200,4027A,75.9485,39.4688,喀什地区,老干局,颗粒物(PM10),500,716,441,148,99,24,,56,46,36,30,8,8,1.5,1.1
2026-02-07T1200,1824A,114.3389,34.778,开封市,肿瘤医院,颗粒物(PM10),59,68,66,34,33,62,,46,46,22,26,10,9,0.5,0.5
2026-02-07T1200,1826A,114.2884,34.7966,开封市,世纪星幼儿园,颗粒物(PM10),55,59,62,31,32,59,,41,41,23,28,9,9,0.5,0.5
2026-02-07T1200,3147A,114.3434,34.8101,开封市,龙亭公园,颗粒物(PM10),64,77,67,30,32,60,,36,36,17,23,9,8,0.6,0.7
2026-02-07T1200,3210A,114.3645,34.7955,开封市,汴京公园,颗粒物(PM10),72,93,71,20,31,61,,39,39,16,19,7,6,0.6,0.7
2026-02-07T1200,3473A,114.2485,34.8306,开封市,技师学院,颗粒物(PM10),56,62,65,34,30,60,,32,32,20,27,8,7,0.7,0.7
2026-02-07T1200,3592A,114.4518,34.7503,开封市,祥符区生态环境局,颗粒物(PM10),66,82,86,47,36,57,,34,34,20,31,11,9,0.6,0.7
2026-02-07T1200,1951A,84.886,45.6029,克拉玛依市,长征新村,颗粒物(PM10),68,85,97,32,28,34,,53,45,35,20,6,5,0.7,0.7
2026-02-07T1200,1952A,84.8894,45.5827,克拉玛依市,南林小区,颗粒物(PM10),61,71,88,25,26,41,,45,41,30,21,3,3,0.9,0.7
2026-02-07T1200,1954A,84.896,44.3328,克拉玛依市,独山子区,颗粒物(PM10),76,101,67,27,34,79,,79,69,4,5,4,3,0.6,0.8
2026-02-07T1200,1955A,85.6888,46.0909,克拉玛依市,乌尔禾区商贸楼,颗粒物(PM10),65,79,102,41,40,39,,26,25,34,31,10,8,1.4,1.2
2026-02-07T1200,3612A,85.1045,45.6895,克拉玛依市,白碱滩区新站,颗粒物(PM10),60,69,93,38,35,33,,34,17,31,29,9,9,0.7,0.7
2026-02-07T1200,2697A,76.1457,39.7143,克孜勒苏柯尔克孜自治州,市人民政府,颗粒物(PM10),258,390,389,90,91,59,,71,63,7,12,4,4,0.3,0.2
2026-02-07T1200,3665A,76.1654,39.7157,克孜勒苏柯尔克孜自治州,克州文化中心,颗粒物(PM10),179,308,378,81,95,48,,71,58,18,12,4,4,0.9,0.6
2026-02-07T1200,1450A,102.8203,24.889,昆明市,呈贡新区,,31,31,55,9,37,83,,37,37,10,28,4,6,0.3,0.5
2026-02-07T1200,1452A,102.7253,25.0904,昆明市,龙泉镇,,38,,72,26,64,88,,30,30,11,36,5,5,0.5,0.7
2026-02-07T1200,1453A,102.7267,25.0378,昆明市,东风东路,,39,35,75,27,56,92,,37,32,12,28,8,8,0.5,0.6
2026-02-07T1200,1454A,102.6744,25.0671,昆明市,金鼎山,,45,44,85,31,63,85,,35,35,12,28,5,7,0.6,0.8
2026-02-07T1200,1455A,102.6643,25.0401,昆明市,碧鸡广场,,46,36,71,32,59,86,,39,39,15,28,4,6,0.5,0.7
2026-02-07T1200,3179A,102.7491,25.012,昆明市,官渡区博物馆,,34,34,66,23,45,96,,35,27,10,29,6,6,0.5,0.7
2026-02-07T1200,3375A,102.8016,24.8336,昆明市,青年创业园,,28,15,44,12,31,87,,38,38,4,27,4,7,0.4,0.6
2026-02-07T1200,3550A,102.8,24.9787,昆明市,昆明学院,,32,32,81,15,40,91,,30,30,8,30,6,6,0.7,0.8
2026-02-07T1200,3551A,102.5969,24.6738,昆明市,晋宁区生态环境分局,,29,16,71,16,56,92,,50,50,7,23,2,4,0.4,0.7
2026-02-07T1200,3552A,102.6673,24.9861,昆明市,云天化总部,,34,34,95,23,57,91,,36,36,12,31,8,8,0.6,0.6
2026-02-07T1200,1456A,91.132,29.6515,拉萨市,八廓街,,22,,20,12,11,69,,58,58,7,16,7,7,0.5,0.5
2026-02-07T1200,1457A,91.1221,29.6748,拉萨市,市环保局,,22,22,25,8,13,65,,49,49,13,22,7,8,0.5,0.7
2026-02-07T1200,1458A,91.0874,29.6476,拉萨市,区监测站,,20,12,13,7,8,64,,48,48,9,23,4,4,0.6,0.7
2026-02-07T1200,1459A,91.1774,29.6541,拉萨市,西藏大学,,20,8,15,7,7,61,,54,51,8,14,3,4,0.1,0.3
2026-02-07T1200,1460A,90.9798,29.6586,拉萨市,区辐射站,,26,26,32,13,18,58,,25,25,20,31,3,4,0.4,0.6
2026-02-07T1200,1461A,91.0831,29.6292,拉萨市,拉萨火车站,,18,15,14,12,8,51,,38,35,22,20,5,4,0.6,0.5
2026-02-07T1200,2520A,109.2203,23.7252,来宾市,来宾技工学校,细颗粒物(PM2.5),59,54,41,42,25,65,,43,43,10,10,5,6,0.9,1
2026-02-07T1200,3535A,109.1781,23.7293,来宾市,兴宾区政府,细颗粒物(PM2.5),59,,42,42,25,70,,50,50,13,12,5,6,0.9,1
2026-02-07T1200,4002A,109.2312,23.7428,来宾市,中南小学,细颗粒物(PM2.5),63,53,41,45,27,69,,43,43,12,12,5,6,1.0,1.1
2026-02-07T1200,1479A,103.8309,36.0467,兰州市,铁路设计院,,,,,,,,,,,,,,,,
2026-02-07T1200,3241A,103.7439,36.0841,兰州市,百合公园,颗粒物(PM10),69,88,81,28,30,59,,69,56,23,13,13,6,0.7,0.6
2026-02-07T1200,3242A,103.9613,35.9985,兰州市,和平,颗粒物(PM10),72,94,86,26,31,69,,76,62,15,10,23,10,1.2,0.5
2026-02-07T1200,4236A,103.629272,36.093822,兰州市,庄浪东路808号,颗粒物(PM10),66,81,86,28,29,74,,75,68,16,12,13,10,0.5,0.4
2026-02-07T1200,4237A,103.7251,36.104344,兰州市,安宁西路88号,颗粒物(PM10),80,110,99,32,30,73,,78,71,15,7,16,7,0.5,0.3
2026-02-07T1200,4238A,103.846982,36.067567,兰州市,北滨河东路1号,颗粒物(PM10),63,75,85,24,31,77,,72,65,18,17,8,7,0.5,0.5
2026-02-07T1200,1067A,116.6712,39.5109,廊坊市,药材公司,,21,,37,3,20,65,,25,25,5,28,3,3,0.3,0.4
2026-02-07T1200,1068A,116.7215,39.5592,廊坊市,开发区,,23,20,27,3,13,71,,34,34,8,26,3,3,0.2,0.3
2026-02-07T1200,1070A,116.7246,39.5273,廊坊市,北华航天学院,,22,12,34,3,14,69,,33,33,12,29,2,2,0.2,0.3
2026-02-07T1200,2919A,116.7022,39.5454,廊坊市,河北工业大学,,21,19,33,3,14,67,,31,31,8,26,3,3,0.3,0.4
2026-02-07T1200,2536A,103.7629,29.5844,乐山市,牛耳桥,细颗粒物(PM2.5),88,84,86,65,66,57,,63,58,32,28,5,6,0.8,0.8
2026-02-07T1200,2537A,103.7501,29.6002,乐山市,市第三水厂,细颗粒物(PM2.5),80,78,91,59,62,56,,65,59,35,35,3,4,0.9,1
2026-02-07T1200,2538A,103.7571,29.5664,乐山市,市监测站,细颗粒物(PM2.5),78,78,86,57,63,56,,63,60,25,22,5,6,1.0,1
2026-02-07T1200,3361A,103.7313,29.563,乐山市,理工大学,细颗粒物(PM2.5),87,76,87,64,64,48,,59,56,26,20,3,4,1.2,1.2
2026-02-07T1200,2599A,100.2497,26.8802,丽江市,丽江古城,,49,49,32,19,15,85,,83,78,11,11,6,6,0.5,0.4
2026-02-07T1200,2600A,100.2203,26.8906,丽江市,市中心,,27,24,23,8,15,85,,84,80,10,11,6,5,0.4,0.4
2026-02-07T1200,1267A,119.9141,28.4513,丽水市,监测站大楼,,26,,7,18,4,40,,52,46,14,14,4,4,0.3,0.4
2026-02-07T1200,1268A,119.93,28.4589,丽水市,莲都小学,,,,6,,3,40,,52,46,,12,/,/,/,/
2026-02-07T1200,1269A,119.8794,28.4232,丽水市,余庄前,,25,21,7,17,4,39,,43,40,13,15,4,4,0.3,0.4
2026-02-07T1200,1173A,119.1759,34.5885,连云港市,市环境监测站,,39,39,38,22,17,65,,52,52,21,26,12,13,0.6,0.5
2026-02-07T1200,3000A,119.3577,34.6971,连云港市,德源药业,,41,41,42,22,16,62,,56,55,9,10,9,7,1.2,1.1
2026-02-07T1200,3007A,119.178,34.8442,连云港市,新城一中,,44,44,50,21,18,69,,53,53,19,26,13,13,0.5,0.4
2026-02-07T1200,3008A,119.3607,34.7519,连云港市,胡沟管理处,,34,34,30,17,13,66,,62,59,10,11,14,10,1.2,1
2026-02-07T1200,3009A,119.1478,34.5913,连云港市,矿山设计院,,39,39,39,14,12,64,,56,56,15,16,9,10,0.9,0.8
2026-02-07T1200,3434A,119.2414,34.6539,连云港市,工贸学校,,48,48,45,18,14,61,,55,52,15,17,16,14,0.7,0.7
2026-02-07T1200,3664A,119.4171,34.734,连云港市,连云街道,,50,50,38,22,11,63,,64,60,22,22,13,7,0.9,0.6
2026-02-07T1200,2573A,102.2629,27.8981,凉山彝族自治州,西昌市政府,细颗粒物(PM2.5),52,44,30,36,22,67,,53,39,22,14,12,9,1.0,0.7
2026-02-07T1200,2574A,102.2686,27.885,凉山彝族自治州,凉山州政府,,50,46,32,35,24,62,,34,28,21,17,13,10,1.0,0.8
2026-02-07T1200,4229A,102.2342,27.8859,凉山彝族自治州,凯乐南路30号,颗粒物(PM10),53,55,41,26,18,68,,26,26,22,23,10,11,0.7,0.6
2026-02-07T1200,2212A,123.1978,41.2036,辽阳市,宏伟区,颗粒物(PM10),51,51,50,8,24,63,,38,38,4,15,6,8,0.5,0.7
2026-02-07T1200,2213A,123.1684,41.2497,辽阳市,新华园,,33,33,58,9,32,63,,40,40,7,29,5,14,0.4,0.7
2026-02-07T1200,2214A,123.2355,41.2663,辽阳市,滨河路,,,27,44,9,23,64,,30,30,4,24,4,6,,0.7
2026-02-07T1200,4083A,123.153,41.2874,辽阳市,铁西路150号,,,34,57,6,33,,,28,28,5,27,,12,0.5,0.9
2026-02-07T1200,2227A,125.1359,42.8845,辽源市,环保局,,39,39,56,13,30,70,,33,33,9,28,5,3,0.5,0.9
2026-02-07T1200,4085A,125.0998,42.9134,辽源市,安宁大街333号,,38,38,47,16,29,75,,35,35,7,21,6,4,0.5,0.7
2026-02-07T1200,1625A,115.9789,36.4372,聊城市,区政府,细颗粒物(PM2.5),53,53,57,37,27,63,,41,41,14,20,13,13,0.5,0.6
2026-02-07T1200,3200A,115.9772,36.4986,聊城市,监控中心,"颗粒物(PM10),细颗粒物(PM2.5)",53,56,56,37,25,66,,36,36,15,24,7,10,0.6,0.7
2026-02-07T1200,3513A,116.0443,36.436,聊城市,九州社区,,,61,64,36,26,,,42,41,4,11,,3,0.5,0.5
2026-02-07T1200,4018A,116.0564,36.4609,聊城市,星美广场,细颗粒物(PM2.5),60,63,68,43,29,61,,33,33,9,17,5,4,0.4,0.5
2026-02-07T1200,4113A,116.0091,36.4495,聊城市,利民路,颗粒物(PM10),52,54,57,35,25,56,,34,34,14,21,8,10,0.6,0.7
2026-02-07T1200,2632A,94.3683,29.6373,林芝市,林芝监测站,,23,13,11,9,7,72,,64,60,2,4,4,5,0.3,0.4
2026-02-07T1200,2633A,94.3616,29.6634,林芝市,林芝人民医院,,25,,17,17,11,69,,62,59,4,4,4,6,0.4,0.3
2026-02-07T1200,2603A,100.0779,23.8981,临沧市,市环保局,颗粒物(PM10),52,53,36,19,26,25,,,,15,13,6,6,0.7,0.6
2026-02-07T1200,2604A,100.0894,23.882,临沧市,市气象局,颗粒物(PM10),53,56,46,25,27,55,,42,38,22,12,11,7,0.6,0.6
2026-02-07T1200,1733A,111.5552,36.0791,临汾市,临钢医院,,23,23,103,11,42,65,,56,56,11,25,6,12,0.5,0.8
2026-02-07T1200,1734A,111.4984,36.0734,临汾市,技工学校,,,27,83,,41,70,,60,60,12,30,2,9,0.3,0.6
2026-02-07T1200,1736A,111.5017,36.0857,临汾市,市委,,22,22,87,6,32,68,,59,59,9,26,4,10,0.4,0.7
2026-02-07T1200,3018A,111.5048,36.1015,临汾市,唐尧大酒店,,43,43,99,11,34,69,,60,60,16,32,6,12,0.5,0.8
2026-02-07T1200,4244A,111.4879,36.053,临汾市,启星学校,,24,23,89,13,42,75,,65,65,6,26,4,11,0.4,0.8
2026-02-07T1200,4271A,103.2464,35.6123,临夏回族自治州,滨河东路1号,颗粒物(PM10),65,80,100,38,33,63,,58,55,10,12,4,6,0.4,0.4
2026-02-07T1200,4310A,103.207136,35.599807,临夏回族自治州,新华街21号,颗粒物(PM10),66,81,101,36,32,61,,58,56,12,13,5,8,0.6,0.4
2026-02-07T1200,1618A,118.3429,35.0532,临沂市,沂河小区,颗粒物(PM10),63,75,47,36,14,54,,46,40,24,19,11,8,0.3,0.3
2026-02-07T1200,1619A,118.2962,35.0568,临沂市,鲁南制药厂,颗粒物(PM10),62,73,43,40,14,56,,49,47,24,18,13,11,0.3,0.3
2026-02-07T1200,1620A,118.2793,34.9976,临沂市,新光毛纺厂,颗粒物(PM10),57,63,40,33,22,58,,45,40,15,18,10,9,0.5,0.4
2026-02-07T1200,1621A,118.3955,35.0889,临沂市,河东保险公司,,,61,44,39,17,,,43,39,17,21,12,9,0.6,0.5
2026-02-07T1200,3370A,118.3563,35.0215,临沂市,十里堡居委,颗粒物(PM10),62,73,39,32,13,64,,50,46,20,21,11,8,0.4,0.4
2026-02-07T1200,3496A,118.359,35.1067,临沂市,南坊新区,颗粒物(PM10),59,68,40,36,15,62,,45,43,17,18,10,9,0.4,0.3
2026-02-07T1200,3860A,118.3915,35.0297,临沂市,皇山花园小区,颗粒物(PM10),54,58,44,37,18,60,,49,45,26,21,13,11,0.5,0.4
2026-02-07T1200,1870A,109.4854,24.3898,柳州市,柳东小学,细颗粒物(PM2.5),63,63,34,45,23,82,,62,62,10,9,8,8,0.8,0.8
2026-02-07T1200,1871A,109.4109,24.3304,柳州市,环保监测站,细颗粒物(PM2.5),64,58,33,46,22,71,,57,57,15,13,5,4,0.9,1
2026-02-07T1200,1872A,109.3886,24.3408,柳州市,河西水厂,细颗粒物(PM2.5),60,67,32,43,18,74,,56,56,12,15,6,8,0.6,1
2026-02-07T1200,1873A,109.4263,24.2951,柳州市,市四中,细颗粒物(PM2.5),59,55,28,42,19,73,,58,58,16,12,6,6,1.0,1
2026-02-07T1200,1874A,109.396,24.3658,柳州市,市九中,细颗粒物(PM2.5),62,57,27,44,19,69,,49,49,10,11,9,9,1.0,0.9
2026-02-07T1200,1875A,109.4912,24.3164,柳州市,古亭山,细颗粒物(PM2.5),62,71,33,44,26,81,,67,67,12,9,6,6,0.8,0.8
2026-02-07T1200,3402A,109.5422,24.3994,柳州市,市二中,细颗粒物(PM2.5),64,57,33,46,28,81,,70,70,16,16,9,9,0.7,0.7
2026-02-07T1200,2307A,116.5078,31.7369,六安市,监测大楼,,43,43,32,22,10,45,,48,44,11,13,2,2,0.2,0.2
2026-02-07T1200,2308A,116.4738,31.7642,六安市,皖西学院,颗粒物(PM10),52,53,36,20,11,52,,55,50,10,14,3,3,0.2,0.2
2026-02-07T1200,2309A,116.4997,31.7904,六安市,朝阳厂,,48,48,30,22,11,52,,53,49,12,14,6,4,0.2,0.2
2026-02-07T1200,2310A,116.5566,31.7885,六安市,开发区,,46,46,25,19,10,54,,55,50,2,3,4,4,0.2,0.1
2026-02-07T1200,2577A,104.8293,26.592,六盘水市,黄土坡,细颗粒物(PM2.5),89,101,53,66,38,66,,76,62,18,17,15,11,1.2,0.9
2026-02-07T1200,2579A,104.8481,26.5898,六盘水市,民中,细颗粒物(PM2.5),90,85,53,67,41,52,,77,60,18,16,4,6,0.9,0.9
2026-02-07T1200,2580A,104.9541,26.5506,六盘水市,双水,细颗粒物(PM2.5),87,105,52,64,36,56,,84,67,13,13,4,6,0.6,0.6
2026-02-07T1200,4151A,104.8899,26.5685,六盘水市,钟山大道中段564号,,,108,61,66,38,53,,76,64,,12,,8,1.1,1.1
2026-02-07T1200,2336A,117.022,25.1031,龙岩市,龙岩市监测站,,22,14,24,8,19,69,,66,66,7,11,7,8,0.8,0.7
2026-02-07T1200,2337A,117.0257,25.0662,龙岩市,闽西职业技术学院,,23,9,24,7,18,72,,66,66,6,11,5,6,0.8,0.7
2026-02-07T1200,2338A,117.0195,25.0306,龙岩市,龙岩学院,,23,16,23,8,17,71,,63,61,7,9,5,4,/,/
2026-02-07T1200,2885A,104.9344,33.3827,陇南市,滨江中学,颗粒物(PM10),53,56,73,16,26,84,,82,80,6,9,3,4,0.4,0.6
2026-02-07T1200,3247A,104.9551,33.3709,陇南市,市总工会,,48,48,72,11,32,82,,78,78,7,9,2,3,0.5,0.6
2026-02-07T1200,2488A,111.9984,27.7346,娄底市,市监测站,细颗粒物(PM2.5),54,56,113,38,92,50,,54,42,11,17,5,7,0.6,0.8
2026-02-07T1200,2491A,111.9888,27.7035,娄底市,市政府,颗粒物(PM10),53,56,114,32,81,50,,56,44,9,12,3,4,0.3,0.5
2026-02-07T1200,4127A,111.9812,27.7591,娄底市,涟钢职大,颗粒物(PM10),51,51,115,35,88,48,,56,44,12,16,4,6,0.7,1.2
2026-02-07T1200,4128A,112.0303,27.7457,娄底市,娄底体校,细颗粒物(PM2.5),53,54,119,37,88,43,,46,36,6,10,2,2,0.3,0.7
2026-02-07T1200,1894A,105.4427,28.9063,泸州市,小市上码头,细颗粒物(PM2.5),128,124,120,97,89,37,,45,25,34,28,6,6,1.2,1.1
2026-02-07T1200,1895A,105.4241,28.8573,泸州市,兰田宪桥,细颗粒物(PM2.5),113,129,126,85,83,45,,35,24,26,27,9,9,1.0,1
2026-02-07T1200,1896A,105.4378,28.8833,泸州市,市环监站,细颗粒物(PM2.5),142,152,139,108,120,,,51,27,36,26,11,11,1.0,0.9
2026-02-07T1200,4272A,105.3689,28.7783,泸州市,纳溪中医医院,细颗粒物(PM2.5),170,150,111,129,99,25,,7,7,31,28,10,8,1.2,1.1
2026-02-07T1200,2183A,111.1447,37.5212,吕梁市,环保局,,33,33,49,6,17,65,,53,49,9,27,6,6,0.3,0.5
2026-02-07T1200,2185A,111.1285,37.5338,吕梁市,自来水公司,,42,42,54,9,20,67,,53,49,8,23,5,5,0.3,0.5
2026-02-07T1200,2867A,111.1225,37.5093,吕梁市,马茂庄小学,,41,41,58,6,17,56,,52,47,17,28,4,6,0.3,0.3
2026-02-07T1200,1812A,112.3934,34.6517,洛阳市,市委党校,,,,65,,29,40,,28,28,,31,13,9,0.7,0.6
2026-02-07T1200,1815A,112.494,34.6883,洛阳市,河南林校,颗粒物(PM10),69,87,73,37,27,51,,37,37,30,34,15,11,0.6,0.4
2026-02-07T1200,1816A,112.3843,34.623,洛阳市,开发区管委会,,,83,72,40,28,47,,28,28,,32,,11,0.6,0.5
2026-02-07T1200,1817A,112.4263,34.6249,洛阳市,市委新办公区,颗粒物(PM10),59,67,64,36,28,49,,35,35,26,32,12,10,0.6,0.5
2026-02-07T1200,3340A,112.6005,34.6323,洛阳市,伊滨,颗粒物(PM10),67,83,76,32,32,52,,25,25,22,32,12,8,0.7,0.7
2026-02-07T1200,3341A,112.495,34.6338,洛阳市,中移产业园,颗粒物(PM10),66,81,69,42,31,45,,29,29,28,36,12,10,0.7,0.6
2026-02-07T1200,3593A,112.5736,34.8993,洛阳市,吉利监测站,颗粒物(PM10),62,74,68,34,26,53,,31,31,21,29,14,9,0.6,0.6
2026-02-07T1200,3635A,112.3678,34.6623,洛阳市,河科大西苑校区,颗粒物(PM10),66,82,69,45,33,53,,34,34,22,34,12,10,0.7,0.7
2026-02-07T1200,3636A,112.4387,34.678,洛阳市,英才小学,颗粒物(PM10),66,82,68,34,28,49,,40,40,31,32,13,10,0.7,0.6
2026-02-07T1200,4214A,112.460027,34.694929,洛阳市,春都路1号院,颗粒物(PM10),74,98,77,36,27,45,,37,37,28,27,11,8,0.6,0.5
2026-02-07T1200,2399A,114.051,33.5721,漯河市,三五一五工厂,颗粒物(PM10),80,109,99,41,42,45,,27,27,18,23,8,6,0.6,0.6
2026-02-07T1200,2400A,114.0055,33.5698,漯河市,漯河大学,颗粒物(PM10),70,89,87,44,41,48,,31,31,20,24,8,7,0.6,0.6
2026-02-07T1200,2401A,114.0134,33.5826,漯河市,市水利局,颗粒物(PM10),74,97,94,41,42,40,,24,24,23,27,7,6,0.5,0.5
2026-02-07T1200,2402A,114.0261,33.5697,漯河市,市广电局,颗粒物(PM10),73,95,94,41,42,43,,26,26,13,18,9,8,0.5,0.5
2026-02-07T1200,3478A,113.9691,33.568,漯河市,市图书馆,颗粒物(PM10),75,99,96,44,40,43,,28,28,19,23,8,8,0.9,0.8
2026-02-07T1200,4250A,114.089259,33.588274,漯河市,韶山路11号,,,103,92,47,42,,,22,22,,29,,6,,0.6
2026-02-07T1200,1798A,118.5084,31.6838,马鞍山市,湖东路四小,,46,46,38,19,13,47,,52,51,22,16,2,2,0.4,0.3
2026-02-07T1200,1799A,118.5019,31.6449,马鞍山市,开发区,,39,39,37,20,13,50,,56,54,20,15,3,3,0.4,0.3
2026-02-07T1200,3633A,118.4914,31.681,马鞍山市,雨山,,39,39,39,20,14,48,,54,53,21,15,2,2,0.5,0.4
2026-02-07T1200,4191A,118.527362,31.722269,马鞍山市,慈湖高新区,,37,37,32,19,13,47,,53,53,24,16,4,4,0.3,0.2
2026-02-07T1200,1686A,111.0285,21.469,茂名市,电白南海,,,,25,,9,,,71,,,12,,8,,0.8
2026-02-07T1200,1687A,110.9294,21.6533,茂名市,茂石化七小,,,,33,,10,,,77,,,17,,7,,0.5
2026-02-07T1200,1688A,110.9108,21.6688,茂名市,健康路,,,,24,,9,,,85,,,18,,5,,0.5
2026-02-07T1200,1689A,110.8592,21.6826,茂名市,高岭,颗粒物(PM10),64,78,64,40,29,77,,20,20,25,22,14,8,/,/
2026-02-07T1200,3450A,111.0101,21.5165,茂名市,电白水东,,44,44,28,24,17,80,,31,31,20,22,10,10,/,/
2026-02-07T1200,2540A,103.8414,30.0871,眉山市,气象局,细颗粒物(PM2.5),75,78,94,55,65,51,,65,65,23,30,11,12,0.9,0.9
2026-02-07T1200,3148A,103.829,30.0563,眉山市,区人社局,细颗粒物(PM2.5),68,67,90,49,64,46,,62,61,25,27,11,10,0.8,0.8
2026-02-07T1200,4148A,103.8836,30.0695,眉山市,眉职院,细颗粒物(PM2.5),73,83,94,53,63,48,,62,62,20,19,5,6,0.9,0.9
2026-02-07T1200,1690A,116.1248,24.3307,梅州市,梅江月梅,,18,10,27,6,19,57,,57,56,11,16,/,/,/,/
2026-02-07T1200,1691A,116.0798,24.2719,梅州市,梅县新城,,19,15,28,8,17,60,,58,56,13,19,7,7,0.8,0.7
2026-02-07T1200,3315A,116.1234,24.2994,梅州市,梅龙,,16,12,30,7,18,51,,52,50,11,19,8,8,0.9,0.8
2026-02-07T1200,1878A,104.7775,31.4741,绵阳市,富乐山,,,67,79,27,52,,,62,62,10,16,,8,0.5,0.8
2026-02-07T1200,1880A,104.6698,31.4668,绵阳市,高新区自来水公司,颗粒物(PM10),51,51,86,27,59,68,,64,64,14,29,7,7,0.6,1
2026-02-07T1200,3491A,104.6899,31.5324,绵阳市,西科大附属小学,,49,49,105,25,70,76,,66,66,14,33,8,9,0.5,0.6
2026-02-07T1200,3492A,104.5647,31.5343,绵阳市,安州区旅游局,颗粒物(PM10),55,59,92,27,65,64,,60,60,13,23,10,11,0.5,0.9
2026-02-07T1200,4146A,104.7092,31.4972,绵阳市,科技城新区公安局,颗粒物(PM10),59,67,100,25,58,74,,68,68,17,37,5,5,0.6,0.9
2026-02-07T1200,4226A,104.765114,31.453094,绵阳市,绵阳市气象局,,,60,82,27,56,,,63,63,10,22,,9,0.4,0.8
2026-02-07T1200,1784A,129.61,44.561,牡丹江市,环保大楼,,23,23,32,10,15,70,,58,57,6,11,4,3,0.3,0.3
2026-02-07T1200,1787A,129.6364,44.6075,牡丹江市,机车工厂,,24,24,35,7,19,65,,39,39,5,14,8,6,0.3,0.4
2026-02-07T1200,1788A,129.6386,44.5462,牡丹江市,第一中学,,21,21,30,3,16,67,,54,54,4,10,5,4,0.3,0.3
2026-02-07T1200,4287A,129.5992,44.5964,牡丹江市,东晓云街98号,,32,32,44,3,22,66,,40,40,4,12,5,4,0.6,0.6
2026-02-07T1200,2531A,105.0703,29.61,内江市,市监测站,细颗粒物(PM2.5),92,86,82,68,64,50,,81,63,28,24,6,6,0.8,0.7
2026-02-07T1200,2533A,105.0657,29.5807,内江市,内江二中,细颗粒物(PM2.5),85,,82,63,62,41,,76,54,31,22,8,8,0.7,0.6
2026-02-07T1200,2534A,105.0407,29.5828,内江市,内江日报社,细颗粒物(PM2.5),85,97,75,63,62,43,,73,54,34,31,6,7,0.5,0.5
2026-02-07T1200,4147A,105.0433,29.6105,内江市,玉峰路西段888号,细颗粒物(PM2.5),83,78,74,61,59,46,,71,53,30,28,4,6,0.7,0.6
2026-02-07T1200,2628A,92.0653,31.4846,那曲市,那曲监测站,细颗粒物(PM2.5),54,46,33,38,26,51,,34,34,15,20,19,13,0.7,1.1
2026-02-07T1200,4243A,92.0515,31.4787,那曲市,那曲市委宣传部,,39,,23,27,18,62,,30,30,9,12,10,10,0.7,0.9
2026-02-07T1200,1291A,115.8887,28.7006,南昌市,省林业公司,,40,,19,28,22,52,,51,51,6,10,3,3,0.5,0.6
2026-02-07T1200,1292A,115.813,28.7443,南昌市,林科所,,32,31,21,22,18,47,,42,42,9,15,7,7,0.6,0.4
2026-02-07T1200,1294A,115.8518,28.687,南昌市,建工学校,,40,37,34,28,21,44,,41,41,17,21,7,7,0.6,0.7
2026-02-07T1200,1295A,115.8926,28.6425,南昌市,象湖,,42,,30,29,24,47,,43,43,13,15,7,7,0.6,0.8
2026-02-07T1200,3046A,115.9084,28.6062,南昌市,机电学校,,39,35,32,27,22,51,,45,45,13,16,3,4,0.4,0.5
2026-02-07T1200,3690A,115.9718,28.7032,南昌市,外国语学校,,42,35,29,29,23,50,,44,44,16,18,10,11,0.6,0.7
2026-02-07T1200,4106A,115.7923,28.6873,南昌市,工业二路,,36,36,30,25,20,64,,59,59,12,15,3,3,0.6,0.7
2026-02-07T1200,4192A,115.931587,28.686774,南昌市,南京东路235号,,38,30,32,26,21,51,,46,46,11,13,4,5,0.2,0.4
2026-02-07T1200,1906A,106.0791,30.8022,南充市,南充市委,细颗粒物(PM2.5),74,77,76,54,54,39,,27,27,22,40,3,3,0.7,0.9
2026-02-07T1200,1907A,106.1038,30.8215,南充市,南充炼油厂,细颗粒物(PM2.5),69,69,79,50,51,44,,40,40,14,28,5,6,0.7,0.8
2026-02-07T1200,4227A,106.108336,30.788436,南充市,梨树横街98号,细颗粒物(PM2.5),77,69,81,56,58,48,,43,43,17,31,6,6,0.4,0.7
2026-02-07T1200,4304A,106.1172,30.843,南充市,清泉寺北路188号,细颗粒物(PM2.5),70,60,69,51,53,54,,52,50,12,14,3,3,0.7,0.8
2026-02-07T1200,4305A,106.067,30.7616,南充市,同庆路1号,,,69,71,56,53,36,,36,36,32,41,,6,0.7,0.8
2026-02-07T1200,1151A,118.8033,32.1085,南京市,迈皋桥,,42,35,31,29,13,54,,61,58,22,17,5,5,0.3,0.2
2026-02-07T1200,1152A,118.7487,32.057,南京市,草场门,,45,44,36,31,14,36,,46,44,28,18,4,4,0.7,0.4
2026-02-07T1200,1154A,118.770105,32.004342,南京市,中华门,,45,44,32,31,6,52,,61,58,15,10,3,3,0.6,0.2
2026-02-07T1200,1155A,118.8059,32.0329,南京市,瑞金路,,36,36,32,21,6,56,,63,61,2,2,4,4,1.0,0.5
2026-02-07T1200,1156A,118.7946,32.0774,南京市,玄武湖,,44,44,33,22,11,54,,64,62,17,13,3,3,0.3,0.3
2026-02-07T1200,1157A,118.6415,32.0964,南京市,浦口,,38,38,40,17,6,60,,56,55,17,16,4,4,0.3,0.4
2026-02-07T1200,1158A,118.730129,32.000956,南京市,奥体中心,,46,46,37,21,5,54,,66,63,22,13,4,4,0.5,0.3
2026-02-07T1200,1159A,118.9072,32.1047,南京市,仙林大学城,,44,44,39,19,6,56,,61,60,12,13,4,5,0.4,0.3
2026-02-07T1200,3422A,118.8443,31.919,南京市,江宁彩虹桥,,39,39,35,13,5,64,,70,69,21,11,4,4,0.7,0.5
2026-02-07T1200,3427A,118.8497,32.3599,南京市,六合雄州,,39,39,32,13,4,60,,59,56,14,11,1,1,0.4,0.4
2026-02-07T1200,4086A,118.7641,32.0841,南京市,新模范马路66号,,48,48,39,25,6,64,,85,80,10,2,3,4,1.1,0.9
2026-02-07T1200,4249A,118.8707617,31.34017673,南京市,汶溪路181号,,44,44,37,8,5,52,,54,51,16,16,6,5,0.4,0.4
2026-02-07T1200,4312A,119.019,31.6512,南京市,中山西路1号,,24,24,30,10,4,56,,54,54,14,14,4,4,0.5,0.5
2026-02-07T1200,1401A,108.3098,22.788,南宁市,二十一中,细颗粒物(PM2.5),55,,37,39,30,41,,36,36,16,17,5,4,0.7,0.6
2026-02-07T1200,1402A,108.3135,22.8529,南宁市,北湖,颗粒物(PM10),52,54,44,32,33,46,,41,40,18,17,3,3,0.7,0.7
2026-02-07T1200,1403A,108.3205,22.8222,南宁市,市监测站,,40,40,36,28,29,43,,40,38,18,17,6,6,0.9,0.8
2026-02-07T1200,1404A,108.3828,22.8038,南宁市,大自然花园,,36,36,38,25,26,55,,50,48,14,14,6,6,0.7,0.7
2026-02-07T1200,1406A,108.2397,22.8462,南宁市,区农职院,,42,37,40,29,35,47,,40,40,19,19,4,5,0.9,0.8
2026-02-07T1200,1407A,108.3285,22.7356,南宁市,英华嘉园,,49,37,40,34,29,48,,47,44,14,14,4,4,0.6,0.5
2026-02-07T1200,3401A,108.4829,22.762,南宁市,红星社区,,43,33,36,30,30,54,,48,46,8,9,5,5,0.9,0.8
2026-02-07T1200,4132A,108.2927,23.1477,南宁市,起凤路9号,,45,34,41,31,32,60,,53,51,8,11,1,2,0.7,0.6
2026-02-07T1200,4221A,108.2177,22.7774,南宁市,乐贤路16号,,49,37,40,34,29,45,,37,,18,18,2,2,0.9,0.8
2026-02-07T1200,2332A,118.1682,26.6371,南平市,南平市监测站,,23,6,20,3,10,73,,49,49,8,11,3,3,0.5,0.5
2026-02-07T1200,2334A,118.1757,26.6276,南平市,南平七中,,24,10,23,3,8,74,,52,52,7,9,4,4,0.7,0.7
2026-02-07T1200,1168A,120.9056,31.9669,南通市,狼山街道,,31,31,27,12,3,67,,69,64,13,13,3,2,0.2,0.2
2026-02-07T1200,1170A,120.8635,32.0231,南通市,城中,,31,31,30,19,7,76,,76,71,2,3,3,2,0.4,0.3
2026-02-07T1200,1171A,120.9376,31.9301,南通市,星湖花园,,30,30,26,13,3,74,,74,70,12,13,4,3,0.3,0.3
2026-02-07T1200,1172A,120.8053,32.046,南通市,紫琅学院,,38,38,27,18,7,71,,70,66,2,2,3,3,0.6,0.6
2026-02-07T1200,3291A,121.0631,32.0644,南通市,通州监测站,,24,24,24,12,3,75,,74,70,11,12,3,2,0.3,0.3
2026-02-07T1200,3432A,120.9348,31.9874,南通市,环境教育馆,,29,29,29,13,4,68,,68,64,10,10,3,3,0.5,0.5
2026-02-07T1200,4091A,120.8692,31.9885,南通市,洪江路,,33,33,23,16,4,63,,67,62,10,9,3,3,0.4,0.4
2026-02-07T1200,2404A,112.5338,33.0086,南阳市,瓦房庄,颗粒物(PM10),71,92,90,24,30,43,,40,40,21,20,6,5,0.8,0.7
2026-02-07T1200,2405A,112.5002,32.9734,南阳市,汉画馆,细颗粒物(PM2.5),75,93,95,55,48,41,,39,39,25,23,8,7,0.6,0.6
2026-02-07T1200,2406A,112.5778,33.0144,南阳市,气象站,颗粒物(PM10),77,103,105,37,34,43,,38,38,22,21,8,6,0.6,0.6
2026-02-07T1200,2407A,112.548,32.9687,南阳市,理工学院,颗粒物(PM10),73,95,98,38,37,41,,36,36,25,24,8,6,0.6,0.6
2026-02-07T1200,4008A,112.5233,32.9921,南阳市,卧龙区政府,细颗粒物(PM2.5),108,104,97,81,38,38,,38,38,22,21,8,6,0.7,0.6
2026-02-07T1200,1234A,121.8352,29.9111,宁波市,区环保大楼,,40,40,24,16,6,57,,68,63,18,20,4,4,0.5,0.3
2026-02-07T1200,1235A,121.5595,29.8208,宁波市,万里学院,,30,30,24,21,8,57,,64,60,16,14,2,2,0.7,0.6
2026-02-07T1200,1236A,121.713,29.9564,宁波市,龙赛医院,,34,34,18,13,4,47,,66,58,28,16,6,3,0.6,0.4
2026-02-07T1200,1240A,121.5855,29.8635,宁波市,太古小学,,32,32,19,19,7,58,,66,61,12,8,2,2,0.7,0.5
2026-02-07T1200,1241A,121.5239,29.8673,宁波市,市环境监测中心,,31,31,33,15,7,52,,56,53,14,12,1,2,0.3,0.3
2026-02-07T1200,2871A,121.6156,29.9015,宁波市,万里国际学校,颗粒物(PM10),89,128,44,17,5,56,,,,18,11,3,3,1.1,0.5
2026-02-07T1200,3710A,121.5593,29.8976,宁波市,白沙活动中心,,,24,29,18,7,,,64,59,17,15,3,3,,0.2
2026-02-07T1200,4095A,121.8962,29.7529,宁波市,中科路88号,,26,26,16,13,6,59,,72,68,19,17,4,4,0.4,0.3
2026-02-07T1200,2341A,119.5387,26.6611,宁德市,宁德市监测站,,16,16,22,8,14,49,,68,57,18,16,3,3,0.5,0.6
2026-02-07T1200,3209A,119.5231,26.6562,宁德市,宁德一中,,18,18,21,10,17,53,,71,61,18,16,3,3,0.3,0.3
2026-02-07T1200,2618A,98.859,25.8541,怒江傈僳族自治州,州监测站,,37,37,42,24,26,64,,37,37,10,13,6,6,0.4,0.4
2026-02-07T1200,2619A,98.8607,25.8168,怒江傈僳族自治州,泸水一中,,45,45,37,22,27,54,,23,23,14,24,5,4,0.4,0.4
2026-02-07T1200,1888A,101.6891,26.571,攀枝花市,弄弄坪,细颗粒物(PM2.5),67,74,61,48,31,56,,16,16,41,38,56,36,2.7,1.6
2026-02-07T1200,1889A,101.577,26.5914,攀枝花市,河门口,颗粒物(PM10),54,57,45,33,21,55,,27,27,26,20,27,21,1.4,0.8
2026-02-07T1200,1891A,101.7365,26.4986,攀枝花市,仁和,,41,41,33,28,22,71,,35,34,32,19,49,13,3.2,0.9
2026-02-07T1200,2835A,101.7222,26.567,攀枝花市,四十中小,颗粒物(PM10),58,65,51,37,30,52,,12,12,42,46,50,32,1.7,1.3
2026-02-07T1200,1604A,122.0303,41.1489,盘锦市,开发区,,29,29,48,16,31,69,,50,50,9,19,8,6,0.2,0.3
2026-02-07T1200,1605A,122.0486,41.0883,盘锦市,兴隆台,,,,44,,29,,,55,55,13,27,,8,0.5,0.6
2026-02-07T1200,1606A,121.8297,41.1026,盘锦市,新生街道,,25,25,42,10,27,74,,44,44,8,31,7,7,0.1,0.3
2026-02-07T1200,1832A,113.3257,33.7423,平顶山市,新华旅馆,颗粒物(PM10),79,107,95,49,38,46,,29,29,23,28,11,7,0.5,0.4
2026-02-07T1200,1833A,113.2917,33.737,平顶山市,规划设计院,颗粒物(PM10),80,110,87,52,39,46,,34,32,17,20,12,8,0.5,0.4
2026-02-07T1200,1834A,113.182,33.7738,平顶山市,平顶山工学院,细颗粒物(PM2.5),72,91,82,52,38,45,,29,29,21,23,12,9,0.5,0.5
2026-02-07T1200,3594A,112.8736,33.9068,平顶山市,石龙区,颗粒物(PM10),81,111,106,33,42,54,,22,22,11,24,8,7,0.6,0.6
2026-02-07T1200,4116A,113.284,33.7139,平顶山市,姚电大道23号,颗粒物(PM10),88,125,104,50,44,44,,36,29,33,25,13,6,0.9,0.7
2026-02-07T1200,2656A,106.6633,35.5338,平凉市,聚贤嘉苑,颗粒物(PM10),54,57,80,21,31,80,,74,74,6,7,12,13,0.4,0.4
2026-02-07T1200,2657A,106.7021,35.5307,平凉市,博物馆,,,61,84,26,32,,,71,70,7,7,8,7,0.4,0.5
2026-02-07T1200,2348A,113.8384,27.6436,萍乡市,中医院,,34,34,49,19,32,46,,41,40,12,21,3,4,0.5,1
2026-02-07T1200,2350A,113.8677,27.6438,萍乡市,市环保局,,33,33,47,18,35,44,,43,41,21,24,23,28,0.3,0.7
2026-02-07T1200,2351A,113.8663,27.6202,萍乡市,安源区政府,,36,36,54,18,36,37,,31,31,19,20,3,3,0.2,0.6
2026-02-07T1200,4107A,113.8686,27.6668,萍乡市,联洪村委会,,28,27,46,19,35,34,,32,31,17,25,2,2,0.4,0.7
2026-02-07T1200,2319A,119.0142,25.4324,莆田市,荔城区仓后路,,23,13,30,3,17,73,,75,70,11,17,/,/,/,/
2026-02-07T1200,2320A,119.0016,25.4553,莆田市,莆田市监测站,,24,11,27,3,17,74,,76,72,12,16,2,3,0.4,0.5
2026-02-07T1200,2321A,119.112,25.4561,莆田市,涵江区六中,,23,16,28,3,15,71,,77,72,11,14,/,/,0.5,0.5
2026-02-07T1200,2322A,119.1014,25.3215,莆田市,秀屿区政府,,23,18,28,3,16,73,,81,77,9,12,2,2,0.5,0.6
2026-02-07T1200,2392A,115.0312,35.7636,濮阳市,环保局,颗粒物(PM10),56,62,51,27,21,59,,49,48,14,15,6,7,0.6,0.6
2026-02-07T1200,3021A,115,35.7667,濮阳市,濮水河管理处,颗粒物(PM10),62,74,58,32,24,62,,38,38,14,19,6,6,0.5,0.5
2026-02-07T1200,4118A,115.0552,35.7816,濮阳市,中原东路68号,颗粒物(PM10),65,79,66,27,22,55,,43,43,20,21,5,5,0.5,0.5
2026-02-07T1200,4216A,115.0923632,35.76857718,濮阳市,任丘路479号,颗粒物(PM10),59,67,56,35,27,58,,42,42,14,17,11,9,0.5,0.4
2026-02-07T1200,2601A,100.9801,22.7634,普洱市,市环保局,颗粒物(PM10),52,54,43,20,18,87,,43,43,15,9,6,5,0.5,0.4
2026-02-07T1200,2602A,100.9763,22.8237,普洱市,普洱第二中学,颗粒物(PM10),52,54,45,21,20,88,,29,29,11,25,6,5,0.5,0.5
2026-02-07T1200,3345A,131.0413,45.7795,七台河市,中波台,,22,22,32,3,14,70,,60,60,2,10,8,11,0.4,0.4
2026-02-07T1200,3637A,131.0136,45.7688,七台河市,人民广场,,31,31,35,16,18,69,,50,50,6,15,12,8,0.4,0.5
2026-02-07T1200,3684A,130.8639,45.8144,七台河市,新建矿广场,,24,24,34,10,15,65,,52,52,5,9,10,7,0.2,0.2
2026-02-07T1200,1779A,123.9307,47.3641,齐齐哈尔市,安居小区,,21,17,28,8,13,67,,53,53,7,13,7,7,0.3,0.4
2026-02-07T1200,1780A,123.9497,47.3389,齐齐哈尔市,中心广场,,20,20,23,7,12,61,,56,56,10,10,6,6,0.5,0.6
2026-02-07T1200,1781A,123.9483,47.3229,齐齐哈尔市,农牧车辆厂,,22,22,27,12,12,62,,54,54,8,11,5,6,0.3,0.4
2026-02-07T1200,1783A,123.9442,47.2994,齐齐哈尔市,市环境监测站,,23,23,29,3,10,65,,57,57,8,14,4,5,0.4,0.4
2026-02-07T1200,3662A,123.6341,47.2079,齐齐哈尔市,富区青少年活动中心,,25,25,33,8,11,71,,60,60,4,10,5,6,0.4,0.5
2026-02-07T1200,2591A,107.9765,26.5724,黔东南苗族侗族自治州,市环境监测站,,43,37,36,30,25,43,,54,50,15,11,2,3,0.9,0.7
2026-02-07T1200,2881A,107.8909,26.531,黔东南苗族侗族自治州,凯里学院,,35,24,36,24,26,50,,43,43,15,15,3,3,0.8,0.7
2026-02-07T1200,2593A,107.5223,26.2371,黔南布依族苗族自治州,小围寨,,19,19,26,13,23,35,,41,38,8,7,5,4,1.0,0.9
2026-02-07T1200,3538A,107.5175,26.2977,黔南布依族苗族自治州,沙坝,,26,19,35,18,23,43,,54,48,12,9,6,5,0.9,0.9
2026-02-07T1200,2589A,104.9022,25.0943,黔西南布依族苗族自治州,场坝街,,49,40,51,34,41,65,,61,59,7,11,4,5,0.7,0.8
2026-02-07T1200,2590A,104.8812,25.0994,黔西南布依族苗族自治州,坪东大道,细颗粒物(PM2.5),77,,44,56,42,66,,54,52,9,11,5,6,0.9,0.9
2026-02-07T1200,2502A,108.6238,21.9667,钦州市,市环保站,颗粒物(PM10),54,58,61,24,38,54,,34,34,12,21,3,3,0.8,0.7
2026-02-07T1200,2503A,108.655,21.9481,钦州市,沙埠小学,颗粒物(PM10),62,74,57,31,33,49,,34,34,20,22,5,6,0.7,0.6
2026-02-07T1200,2504A,108.5989,21.7435,钦州市,港区一小,颗粒物(PM10),52,53,64,32,34,46,,27,27,22,35,3,2,0.8,0.7
2026-02-07T1200,3404A,108.5959,21.9634,钦州市,北职校,颗粒物(PM10),52,54,52,26,30,46,,30,30,14,22,3,3,0.9,0.8
2026-02-07T1200,1046A,119.5247,39.9346,秦皇岛市,建设大厦,,45,45,33,25,14,62,,38,38,14,26,8,7,0.4,0.5
2026-02-07T1200,3132A,119.5979,39.938,秦皇岛市,文明里,,29,29,32,17,12,64,,56,56,14,18,14,10,0.4,0.4
2026-02-07T1200,4066A,119.7458,39.9952,秦皇岛市,南园路157号,,28,28,29,13,12,67,,42,42,16,32,12,8,0.4,0.5
2026-02-07T1200,4067A,119.5131,39.8858,秦皇岛市,翠岛大街1号,,30,30,30,3,8,66,,48,48,11,17,12,10,0.3,0.4
2026-02-07T1200,4198A,119.509013,39.825305,秦皇岛市,北戴河轮滑馆,,23,14,29,9,11,73,,47,47,8,28,10,7,0.3,0.5
2026-02-07T1200,1310A,120.404,36.0625,青岛市,市南区东部子站,颗粒物(PM10),57,63,33,30,10,69,,66,65,12,9,13,10,0.5,0.4
2026-02-07T1200,1311A,120.362344,36.10282,青岛市,四方区子站,,,61,31,,8,72,,66,66,9,9,7,5,0.4,0.4
2026-02-07T1200,1312A,120.294373,36.054183,青岛市,市南区西部子站,,42,41,22,29,11,65,,56,56,10,7,6,4,0.5,0.3
2026-02-07T1200,1313A,120.4581,36.0858,青岛市,崂山区子站,,48,48,20,26,9,71,,66,65,13,10,12,11,0.4,0.3
2026-02-07T1200,1315A,120.3945,36.3083,青岛市,城阳区子站,,48,48,25,31,14,69,,54,54,12,14,7,7,0.6,0.6
2026-02-07T1200,3642A,120.3454,36.0735,青岛市,市北区南部,,40,37,27,28,10,65,,58,57,13,14,4,3,0.7,0.5
2026-02-07T1200,3643A,120.3897,36.18,青岛市,李沧区北部,,46,46,24,27,12,68,,55,54,11,11,11,10,0.4,0.4
2026-02-07T1200,4110A,120.5222,36.4089,青岛市,盟旺路653号,,49,49,30,27,12,65,,53,53,18,17,4,3,0.7,0.6
2026-02-07T1200,4290A,120.196923,35.954556,青岛市,珠江路669号,,41,41,25,24,14,71,,56,56,8,16,10,8,0.2,0.2
2026-02-07T1200,4291A,120.0424,35.8656,青岛市,黄岛区人民政府广场,,41,41,28,22,11,71,,57,57,12,15,9,8,0.4,0.3
2026-02-07T1200,1703A,113.0218,23.7086,清远市,凤城街办,,20,20,30,14,19,53,,56,51,14,19,/,/,/,/
2026-02-07T1200,3025A,113.0479,23.6343,清远市,技师学院,,23,23,37,11,18,52,,51,45,24,28,6,5,0.7,0.6
2026-02-07T1200,3318A,112.9898,23.7403,清远市,清新太和,,20,20,29,10,17,62,,64,60,13,15,8,9,0.9,0.7
2026-02-07T1200,3455A,113.076,23.72,清远市,清城东城,,,,34,,21,,,124,46,,26,,,,
2026-02-07T1200,2661A,107.6325,35.7357,庆阳市,庆阳五中,,48,48,72,11,26,83,,70,70,7,12,5,6,0.3,0.4
2026-02-07T1200,2662A,107.6361,35.7067,庆阳市,市环保局,颗粒物(PM10),51,51,75,10,26,82,,70,70,7,11,4,5,0.2,0.3
2026-02-07T1200,1916A,103.7897,25.5036,曲靖市,环境监测站,,29,29,47,17,32,92,,61,61,6,15,5,7,0.4,0.5
2026-02-07T1200,1917A,103.8013,25.5357,曲靖市,烟厂办公区,,37,37,50,19,30,83,,44,40,6,17,4,5,0.4,0.5
2026-02-07T1200,3376A,103.7926,25.4651,曲靖市,南苑二区,,25,22,49,16,32,80,,55,55,10,14,3,4,0.3,0.4
2026-02-07T1200,3377A,103.7442,25.5259,曲靖市,曲靖师范学院,,32,32,47,20,35,91,,48,48,6,16,4,5,0.3,0.5
2026-02-07T1200,1264A,118.8694,28.94,衢州市,环保大楼,,39,,15,27,15,47,,47,43,17,18,/,/,/,/
2026-02-07T1200,1266A,118.8622,28.9809,衢州市,衢州学院,,32,23,14,22,13,45,,44,42,14,18,4,4,0.3,0.3
2026-02-07T1200,4097A,118.9646,28.9832,衢州市,衢州三中,,30,22,12,21,11,42,,38,36,23,28,4,4,0.3,0.4
2026-02-07T1200,1611A,118.5818,24.9116,泉州市,涂山街,,24,24,29,7,20,69,,73,69,12,14,2,3,0.6,0.6
2026-02-07T1200,1612A,118.597,24.8976,泉州市,津头埔,,21,21,27,8,21,66,,71,67,14,14,2,3,0.5,0.6
2026-02-07T1200,1613A,118.6669,24.9422,泉州市,万安,,23,23,31,7,19,63,,67,63,14,14,3,4,0.3,0.5
2026-02-07T1200,4105A,118.6355,24.9148,泉州市,霞新路6号,,21,12,24,8,17,65,,68,65,13,15,/,/,0.5,0.6
2026-02-07T1200,2626A,88.8873,29.2723,日喀则市,日喀则监测站,,23,18,23,9,15,71,,60,60,5,14,11,12,0.3,0.5
2026-02-07T1200,3726A,88.8775,29.2425,日喀则市,林业技术推广中心,,25,6,14,3,5,78,,78,75,3,5,6,6,0.3,0.3
2026-02-07T1200,1659A,119.4711,35.421,日照市,监测站,,34,34,30,20,11,69,,56,52,9,11,8,8,0.6,0.6
2026-02-07T1200,1660A,119.523,35.4216,日照市,市政府广场,,34,34,31,19,10,72,,61,61,13,16,8,7,0.3,0.3
2026-02-07T1200,1661A,119.5511,35.4113,日照市,港务局,,44,44,36,22,13,68,,60,60,12,12,6,5,0.4,0.4
2026-02-07T1200,3507A,119.5326,35.4627,日照市,职业技术学院,,34,34,32,20,11,71,,58,57,13,15,8,7,0.6,0.5
2026-02-07T1200,3604A,119.3267,35.1043,日照市,岚山环保分局,颗粒物(PM10),51,51,42,20,9,69,,60,58,14,14,14,13,0.8,0.7
2026-02-07T1200,1835A,111.1922,34.7752,三门峡市,市政府,,27,27,49,8,24,83,,40,40,12,27,7,11,0.4,0.7
2026-02-07T1200,1836A,111.1588,34.794,三门峡市,开发区,,,25,67,,28,76,,44,44,8,24,7,10,0.3,0.5
2026-02-07T1200,3039A,111.1911,34.7829,三门峡市,三门峡市第一小学,,35,35,66,6,26,77,,43,43,10,24,9,12,0.3,0.5
2026-02-07T1200,3598A,111.1031,34.719,三门峡市,富达温泉假日酒店,,29,29,74,7,31,80,,38,38,12,30,5,11,0.4,0.6
2026-02-07T1200,2324A,117.621,26.2626,三明市,三钢,,19,,22,7,16,58,,44,43,9,14,4,10,0.5,0.8
2026-02-07T1200,2325A,117.6352,26.2714,三明市,三明二中,,18,6,21,3,13,56,,44,42,10,12,1,5,0.9,0.9
2026-02-07T1200,2326A,117.6028,26.2377,三明市,三元区政府,,19,,20,3,13,60,,45,43,10,13,4,4,0.9,0.9
2026-02-07T1200,1877A,109.4962,18.2682,三亚市,河西子站,,26,26,21,10,8,68,,53,49,14,11,3,3,0.5,0.4
2026-02-07T1200,3540A,109.7348,18.3443,三亚市,君悦子站,,23,18,21,9,9,72,,39,39,5,7,2,2,0.3,0.4
2026-02-07T1200,4135A,109.1714,18.3739,三亚市,城东小学站,,26,25,25,12,11,83,,34,34,8,9,/,/,/,/
2026-02-07T1200,2624A,91.7592,29.234,山南市,山南监测站,,22,22,14,10,7,56,,36,33,10,10,6,5,0.6,0.5
2026-02-07T1200,2625A,91.7701,29.2436,山南市,山南人民医院,,22,22,15,3,6,53,,45,38,8,10,8,6,0.6,0.6
2026-02-07T1200,1674A,116.6795,23.3666,汕头市,金平子站,,27,25,29,8,21,84,,91,84,11,17,4,5,0.6,0.6
2026-02-07T1200,1675A,116.7248,23.3632,汕头市,龙湖子站,,26,19,33,9,24,81,,89,82,13,17,9,10,/,/
2026-02-07T1200,1676A,116.7257,23.2774,汕头市,濠江子站,,28,28,30,3,20,84,,84,84,11,20,7,7,/,/
2026-02-07T1200,1677A,116.7518,23.4712,汕头市,澄海子站,,25,25,35,9,23,76,,83,77,15,15,7,6,0.6,0.6
2026-02-07T1200,1678A,116.6088,23.2539,汕头市,潮阳子站,,27,21,27,7,20,84,,89,87,11,14,5,5,0.5,0.5
2026-02-07T1200,3444A,116.4539,23.2684,汕头市,潮南峡山,,24,15,34,8,22,76,,85,84,14,12,5,5,0.6,0.6
2026-02-07T1200,3624A,116.4069,23.2533,汕头市,潮南子站,,22,17,41,9,25,68,,73,73,17,15,5,6,/,/
2026-02-07T1200,1693A,115.3653,22.7751,汕尾市,市环保局,,37,37,28,15,21,59,,57,55,12,13,4,4,0.9,0.8
2026-02-07T1200,1695A,115.362,22.7926,汕尾市,新城中学,,28,28,28,16,22,60,,49,48,13,16,5,5,0.8,0.7
2026-02-07T1200,2645A,109.9155,33.8714,商洛市,监测站,颗粒物(PM10),51,52,136,19,98,75,,57,55,7,22,7,10,0.7,1
2026-02-07T1200,3045A,109.9647,33.8486,商洛市,商州区中学,颗粒物(PM10),64,78,128,19,94,75,,54,54,9,23,7,10,0.5,0.8
2026-02-07T1200,2408A,115.6701,34.4283,商丘市,环境监测站,细颗粒物(PM2.5),75,96,68,55,33,48,,26,26,18,19,7,5,0.5,0.4
2026-02-07T1200,2409A,115.6458,34.4047,商丘市,粮食局,颗粒物(PM10),73,95,62,52,31,47,,26,25,21,23,3,2,0.5,0.3
2026-02-07T1200,3171A,115.6069,34.4465,商丘市,梁园区档案局,颗粒物(PM10),62,74,60,43,29,51,,27,27,16,18,4,2,0.4,0.3
2026-02-07T1200,4119A,115.6701,34.3767,商丘市,北海东路185号,细颗粒物(PM2.5),74,96,70,54,29,47,,27,27,20,19,5,3,0.5,0.4
2026-02-07T1200,4120A,115.6172,34.3704,商丘市,中山大街3号,颗粒物(PM10),79,107,73,49,30,49,,26,26,21,22,2,3,0.4,0.2
2026-02-07T1200,1141A,121.401,31.2382,上海市,普陀,,27,27,21,15,11,61,,68,66,18,16,5,5,0.5,0.5
2026-02-07T1200,1142A,121.4774,31.2043,上海市,十五厂,,25,25,21,13,9,67,,69,65,14,16,6,6,0.4,0.4
2026-02-07T1200,1143A,121.4673,31.3011,上海市,虹口,,,26,21,12,8,,,62,59,11,14,,6,0.1,0.1
2026-02-07T1200,1147A,121.4253,31.226,上海市,静安监测站,,24,24,20,11,8,68,,69,68,15,17,6,6,0.3,0.4
2026-02-07T1200,1148A,121.7029,31.1905,上海市,浦东川沙,,26,26,21,14,9,70,,68,67,13,16,7,7,0.4,0.4
2026-02-07T1200,1149A,121.5339,31.229,上海市,浦东新区监测站,,38,30,20,26,15,62,,69,66,15,15,6,5,0.7,0.4
2026-02-07T1200,1150A,121.5776,31.2038,上海市,浦东张江,,23,23,20,16,10,71,,72,71,12,15,6,6,0.1,0.1
2026-02-07T1200,3265A,121.4242,31.3303,上海市,宝山庙行,,27,27,24,15,7,65,,63,63,11,18,7,7,0.4,0.5
2026-02-07T1200,3266A,121.8789,31.4662,上海市,崇明上实东滩,,25,25,20,15,8,74,,76,76,6,6,3,3,0.1,0.1
2026-02-07T1200,3268A,121.316,31.2839,上海市,嘉定南翔,,23,23,20,15,10,66,,68,66,12,16,3,3,0.5,0.6
2026-02-07T1200,3269A,121.3357,30.7455,上海市,金山新城,,20,19,19,14,13,61,,60,60,20,23,7,7,0.6,0.6
2026-02-07T1200,3270A,121.4996,31.0741,上海市,闵行浦江,,25,25,20,14,10,64,,67,64,14,16,6,6,0.3,0.4
2026-02-07T1200,3271A,121.2886,31.1663,上海市,青浦徐泾,,22,21,20,15,11,68,,73,71,16,19,4,4,0.4,0.4
2026-02-07T1200,3272A,121.2193,31.0382,上海市,松江图书馆,,30,30,22,17,11,61,,66,65,16,15,6,5,0.5,0.5
2026-02-07T1200,3273A,121.3904,31.206,上海市,长宁仙霞,,25,25,20,12,8,60,,68,66,16,13,6,6,0.7,0.6
2026-02-07T1200,3274A,121.7964,31.0507,上海市,浦东惠南,,26,26,19,15,8,67,,64,63,17,20,4,4,0.5,0.5
2026-02-07T1200,3544A,121.4891,30.925,上海市,奉贤南桥新城,,25,25,22,15,13,63,,66,63,16,15,4,3,0.3,0.3
2026-02-07T1200,4183A,121.417401,31.16637,上海市,冠生园路458号,,24,24,19,15,10,63,,71,69,20,16,4,4,0.5,0.4
2026-02-07T1200,4205A,121.541914,31.268301,上海市,宁武路151号,,,28,21,15,10,61,,70,66,14,21,6,5,,0.4
2026-02-07T1200,2382A,117.9758,28.4439,上饶市,市监测站,,18,16,15,9,5,57,,56,55,13,14,4,4,/,/
2026-02-07T1200,2383A,117.9521,28.4637,上饶市,凤凰光学,,21,21,16,10,7,46,,47,44,17,19,7,7,0.9,1
2026-02-07T1200,3685A,117.897,28.4316,上饶市,双创科技城,,20,20,17,11,8,56,,56,53,17,19,4,4,0.8,0.9
2026-02-07T1200,4211A,118.190438,28.444845,上饶市,裕丰大道,,25,24,17,17,7,50,,50,47,19,20,10,10,0.7,0.7
2026-02-07T1200,1669A,113.5821,24.7733,韶关市,市八中,,23,15,31,8,18,71,,53,53,14,16,6,7,0.7,0.8
2026-02-07T1200,1671A,113.5916,24.7973,韶关市,园林处,,23,15,22,11,16,73,,55,55,13,15,6,7,/,/
2026-02-07T1200,1673A,113.5971,24.6864,韶关市,曲江监测站,,23,13,28,8,18,71,,52,52,12,15,4,6,0.8,0.9
2026-02-07T1200,2809A,113.6668,24.7756,韶关市,大学路288号,,24,14,25,11,18,76,,57,57,12,15,3,4,/,/
2026-02-07T1200,3622A,113.5556,24.8082,韶关市,碧湖山庄,,22,15,32,8,19,70,,54,54,14,16,6,6,0.8,0.9
2026-02-07T1200,2464A,111.5277,27.2442,邵阳市,市化工厂,细颗粒物(PM2.5),59,52,116,42,105,43,,58,53,12,15,4,4,0.7,0.9
2026-02-07T1200,2466A,111.4327,27.2276,邵阳市,市环保局,细颗粒物(PM2.5),54,,79,38,89,58,,68,66,12,14,8,7,0.9,1.1
2026-02-07T1200,4218A,111.446,27.2472,邵阳市,北塔二期4-26地块,,30,30,84,10,85,55,,63,60,9,11,5,6,0.8,1
2026-02-07T1200,4219A,111.4739,27.2282,邵阳市,邵水西路287号,细颗粒物(PM2.5),54,,79,38,85,52,,63,59,8,10,8,8,0.9,1.1
2026-02-07T1200,1247A,120.6053,29.9927,绍兴市,城东开发委,,29,27,21,20,14,55,,53,53,22,22,6,7,0.4,0.3
2026-02-07T1200,2921A,120.5482,30.0003,绍兴市,树下王站,,30,26,21,21,14,50,,47,47,17,19,6,6,0.5,0.4
2026-02-07T1200,3408A,120.5685,29.936,绍兴市,绍兴中专,,32,29,20,22,14,55,,52,52,14,16,7,7,0.3,0.2
2026-02-07T1200,3409A,120.4905,30.086,绍兴市,柯桥区政府,,38,38,23,21,13,51,,52,52,24,25,4,4,0.6,0.4
2026-02-07T1200,3410A,120.8751,30.0249,绍兴市,重华小学,,29,28,21,20,14,51,,51,51,22,20,6,6,0.3,0.3
2026-02-07T1200,3411A,120.837,30.0137,绍兴市,上虞中学,,27,27,22,18,14,50,,52,51,19,17,6,6,0.5,0.5
2026-02-07T1200,3560A,120.4715,30.0414,绍兴市,柯桥妇保,,38,34,22,26,16,51,,52,52,16,16,4,5,0.6,0.4
2026-02-07T1200,3658A,120.6156,30.0762,绍兴市,袍江中学,,22,20,14,15,10,50,,52,52,14,14,6,7,0.6,0.5
2026-02-07T1200,1356A,114.0948,22.5506,深圳市,通心岭子站,,31,31,34,21,20,87,,49,49,12,39,2,2,0.6,0.4
2026-02-07T1200,1357A,114.1153,22.5713,深圳市,洪湖,,35,35,39,21,20,89,,43,43,14,48,5,5,0.7,0.6
2026-02-07T1200,1358A,113.9823,22.5398,深圳市,华侨城,,38,38,30,23,18,90,,41,41,16,56,/,/,/,/
2026-02-07T1200,1359A,113.9181,22.517,深圳市,南海子站,,40,40,42,27,25,83,,43,43,15,67,6,9,0.9,0.8
2026-02-07T1200,1360A,114.2345,22.565,深圳市,盐田,,40,40,30,25,18,49,,35,35,40,57,9,9,0.6,0.4
2026-02-07T1200,1363A,114.4911,22.5381,深圳市,南澳,,34,34,21,22,15,65,,54,54,12,14,/,/,/,/
2026-02-07T1200,1364A,114.41,22.6346,深圳市,葵涌,,38,38,23,23,12,63,,44,44,16,19,8,8,0.9,0.7
2026-02-07T1200,1365A,114.2967,22.5978,深圳市,梅沙,,30,30,25,18,13,75,,57,57,16,20,/,/,/,/
2026-02-07T1200,1366A,114.0563,22.7353,深圳市,观澜,,42,42,48,22,20,93,,50,50,13,43,8,8,0.8,0.6
2026-02-07T1200,3305A,114.0614,22.556,深圳市,莲花,,35,35,32,24,21,87,,44,44,17,45,/,/,/,/
2026-02-07T1200,3306A,114.0144,22.6163,深圳市,民治,,39,39,26,25,15,87,,43,43,15,50,/,/,/,/
2026-02-07T1200,3307A,114.1756,22.6421,深圳市,横岗,,38,38,44,25,22,85,,50,50,13,53,/,/,/,/
2026-02-07T1200,3447A,114.344,22.7115,深圳市,坪山,,34,34,30,21,16,82,,57,57,14,24,8,9,0.9,0.6
2026-02-07T1200,3623A,113.8952,22.586,深圳市,西乡,,48,48,45,28,23,95,,43,43,13,65,6,7,0.7,0.6
2026-02-07T1200,4220A,114.214113,22.713717,深圳市,黄阁路,,29,29,36,18,18,86,,54,54,12,40,7,7,1.1,1
2026-02-07T1200,1099A,123.5058,41.7084,沈阳市,浑南东路,,43,43,55,15,29,60,,22,22,20,46,13,10,0.4,0.7
2026-02-07T1200,1100A,123.4238,41.6992,沈阳市,新秀街,,34,34,54,14,25,64,,26,26,10,39,15,12,0.5,0.7
2026-02-07T1200,1102A,123.5903,41.8412,沈阳市,东陵路,,30,30,44,18,28,63,,32,32,13,32,9,8,0.6,0.8
2026-02-07T1200,1103A,123.4267,41.8466,沈阳市,陵东街,,36,36,41,17,16,69,,52,52,6,20,9,13,0.6,0.7
2026-02-07T1200,1104A,123.4116,41.7654,沈阳市,文化路,,36,36,53,16,19,61,,42,42,11,28,14,16,0.6,0.7
2026-02-07T1200,1105A,123.4673,41.787,沈阳市,小河沿,,49,49,79,15,47,64,,25,25,13,33,10,12,0.3,0.8
2026-02-07T1200,1106A,123.4019,41.7978,沈阳市,太原街,,36,36,47,16,19,64,,47,47,12,27,9,13,0.6,0.7
2026-02-07T1200,1108A,123.3778,41.9233,沈阳市,京沈街,,29,29,42,17,24,73,,54,54,8,31,7,11,0.6,0.7
2026-02-07T1200,2897A,123.2429,41.7341,沈阳市,沈辽西路,,38,38,68,14,30,59,,41,41,11,35,17,12,0.4,0.6
2026-02-07T1200,2900A,123.5951,41.9085,沈阳市,裕农路,,38,38,44,18,24,67,,35,35,9,24,7,7,0.5,0.7
2026-02-07T1200,2429A,110.78,32.6494,十堰市,滨河新村,细颗粒物(PM2.5),87,101,118,64,76,29,,35,30,32,25,/,/,1.3,1.2
2026-02-07T1200,2430A,110.7305,32.6408,十堰市,刘家沟,细颗粒物(PM2.5),98,133,147,73,79,39,,33,31,22,21,/,/,/,/
2026-02-07T1200,2431A,110.8843,32.5712,十堰市,铁二处,细颗粒物(PM2.5),89,112,131,66,82,21,,29,20,31,27,8,8,1.0,1
2026-02-07T1200,3545A,110.8053,32.8401,十堰市,郧阳区金沙路,颗粒物(PM10),82,114,125,57,75,43,,38,36,17,22,6,6,1.0,0.9
2026-02-07T1200,2709A,86.0391,44.298,石河子市,艾青诗歌馆,颗粒物(PM10),54,58,87,32,62,64,,71,71,22,23,7,7,0.7,0.9
