timepoint,stationcode,longitude,latitude,area,positionname,primarypollutant,aqi,pm10,pm10_24h,pm2_5,pm2_5_24h,o3,o3_24h,o3_8h,o3_8h_24h,no2,no2_24h,so2,so2_24h,co,co_24h
2026-02-07T0300,2568A,102.2503,31.8896,阿坝藏族羌族自治州,马师校,,17,17,22,3,10,45,,,,7,11,4,4,0.4,0.4
2026-02-07T0300,3994A,102.2174,31.9016,阿坝藏族羌族自治州,马尔康中学西区,,21,21,44,7,10,52,,,,7,9,4,5,0.5,0.4
2026-02-07T0300,2695A,80.2899,41.1684,阿克苏地区,电视台,颗粒物(PM10),184,317,249,89,78,24,,,,48,24,12,10,1.1,1
2026-02-07T0300,2696A,80.2592,41.1541,阿克苏地区,艺术中心,颗粒物(PM10),174,298,228,104,81,34,,,,40,26,6,5,1.2,0.8
2026-02-07T0300,2205A,105.699,38.8409,阿拉善盟,蒙二幼,,26,15,67,3,17,81,,,,5,7,9,10,0.4,0.5
2026-02-07T0300,2206A,105.7198,38.8508,阿拉善盟,环保局新楼,,23,15,54,3,14,72,,,,4,6,9,9,0.5,0.5
2026-02-07T0300,2708A,88.1266,47.8515,阿勒泰地区,市站,,24,8,6,3,2,76,,,,12,9,2,2,0.1,0
2026-02-07T0300,4166A,88.1198,47.7931,阿勒泰地区,阿勒泰路33号,,25,6,9,3,2,79,,,,10,10,5,5,0.4,0.3
2026-02-07T0300,2630A,80.1171,32.4999,阿里地区,阿里监测站,,21,6,3,3,2,67,,,,6,4,12,8,0.3,0.3
2026-02-07T0300,3192A,80.0906,32.5029,阿里地区,阿里藏医院,,20,10,10,3,3,64,,,,9,6,14,12,0.5,0.4
2026-02-07T0300,2644A,109.0088,32.6974,安康市,汉滨区检察院,细颗粒物(PM2.5),155,162,111,118,74,78,,,,14,18,7,8,0.8,0.8
2026-02-07T0300,4054A,109.0324,32.6913,安康市,市邮政管理局,细颗粒物(PM2.5),155,174,121,118,76,71,,,,20,24,4,7,0.9,0.9
2026-02-07T0300,2291A,117.0806,30.5181,安庆市,环科院,,30,29,53,21,37,51,,,,9,13,5,5,0.4,0.7
2026-02-07T0300,2292A,117.0331,30.5118,安庆市,马山宾馆,,33,30,52,23,38,52,,,,5,10,3,4,0.4,0.7
2026-02-07T0300,2294A,116.9897,30.6146,安庆市,安庆大学,,32,29,52,22,34,52,,,,11,15,2,3,0.5,0.6
2026-02-07T0300,3173A,117.0598,30.5351,安庆市,市人大,,37,37,58,25,31,50,,,,7,14,4,5,0.4,0.6
2026-02-07T0300,3123A,105.9408,26.2431,安顺市,凤凰山,,45,40,38,31,31,68,,,,15,15,14,16,0.8,0.8
2026-02-07T0300,3124A,105.9443,26.2567,安顺市,金钟山,,40,36,32,28,31,66,,,,8,10,13,15,0.8,0.7
2026-02-07T0300,3125A,105.8983,26.248,安顺市,娄家坡,,40,34,35,28,31,66,,,,10,13,18,19,0.8,0.8
2026-02-07T0300,1819A,114.3552,36.1017,安阳市,红庙街,颗粒物(PM10),57,64,71,29,25,35,,,,18,14,1,2,0.5,0.5
2026-02-07T0300,1820A,114.361,36.0681,安阳市,银杏小区,颗粒物(PM10),57,64,71,27,27,32,,,,20,14,3,6,0.4,0.3
2026-02-07T0300,3141A,114.3921,36.0879,安阳市,信访局,颗粒物(PM10),57,64,66,34,25,33,,,,15,10,4,5,0.5,0.5
2026-02-07T0300,3669A,114.4706,36.0634,安阳市,左辅环卫站,颗粒物(PM10),57,63,77,36,24,37,,,,20,18,3,4,0.4,0.4
2026-02-07T0300,4117A,114.2918,36.0769,安阳市,钢三路198号,颗粒物(PM10),65,79,65,42,27,22,,,,23,9,2,3,0.5,0.6
2026-02-07T0300,1748A,123.0441,41.1201,鞍山市,深沟寺,颗粒物(PM10),53,55,39,34,16,27,,,,40,16,11,7,1.3,0.6
2026-02-07T0300,1749A,123.011,41.0931,鞍山市,太阳城,颗粒物(PM10),61,72,42,42,16,12,,,,56,15,23,10,1.9,0.6
2026-02-07T0300,1750A,123.0483,41.1445,鞍山市,太平,颗粒物(PM10),54,58,56,26,19,35,,,,23,17,8,9,0.7,0.4
2026-02-07T0300,1751A,122.964,41.0968,鞍山市,铁西三道街,颗粒物(PM10),89,128,81,56,26,17,,,,53,20,26,11,1.9,0.8
2026-02-07T0300,1753A,123.0219,41.0822,鞍山市,明达新区,颗粒物(PM10),61,71,47,42,16,31,,,,31,15,17,9,1.3,0.7
2026-02-07T0300,4201A,122.944647,41.082639,鞍山市,兴盛南路290号,颗粒物(PM10),85,120,79,46,24,21,,,,41,22,18,9,2.6,1.1
2026-02-07T0300,2195A,107.4206,40.7609,巴彦淖尔市,附二中,,27,27,32,10,10,56,,,,12,7,6,7,0.4,0.4
2026-02-07T0300,2196A,107.37,40.7372,巴彦淖尔市,市环保大楼,,36,36,32,10,8,36,,,,24,11,5,4,0.4,0.4
2026-02-07T0300,1956A,86.1476,41.7529,巴音郭楞蒙古自治州,孔雀公园,颗粒物(PM10),72,94,118,18,29,89,,,,6,8,8,9,0.3,0.4
2026-02-07T0300,1957A,86.1971,41.7166,巴音郭楞蒙古自治州,棉纺厂,颗粒物(PM10),75,99,141,23,32,83,,,,11,13,/,/,/,/
2026-02-07T0300,1958A,86.236,41.7172,巴音郭楞蒙古自治州,经济开发区,颗粒物(PM10),65,79,102,18,19,81,,,,5,8,6,6,0.4,0.5
2026-02-07T0300,3181A,106.776805,31.852614,巴中市,市五中,细颗粒物(PM2.5),53,51,66,37,54,21,,,,19,22,5,6,0.8,1
2026-02-07T0300,3183A,106.7419,31.8654,巴中市,圣泉水务公司,细颗粒物(PM2.5),63,52,62,45,51,20,,,,25,31,6,6,1.1,1.2
2026-02-07T0300,3616A,106.7617,31.8343,巴中市,市中心医院,细颗粒物(PM2.5),72,64,71,52,56,1,,,,36,31,5,6,1.3,1.4
2026-02-07T0300,2235A,122.7909,45.608,白城市,洮北区环保局,,37,37,29,13,17,56,,,,11,16,5,7,0.3,0.3
2026-02-07T0300,2236A,122.8741,45.5725,白城市,市环保局,,26,19,31,18,15,55,,,,6,13,4,6,0.3,0.3
2026-02-07T0300,2231A,126.4219,41.9172,白山市,喜丰,颗粒物(PM10),52,54,65,27,16,32,,,,34,22,11,11,0.9,0.7
2026-02-07T0300,2232A,126.4082,41.9416,白山市,环保局,,36,36,51,23,18,42,,,,21,15,10,12,0.6,0.5
2026-02-07T0300,2647A,104.1727,36.5448,白银市,第三小学,颗粒物(PM10),58,66,81,24,31,80,,,,5,11,1,8,0.3,0.4
2026-02-07T0300,2648A,104.1467,36.5482,白银市,动力公司,颗粒物(PM10),55,60,77,25,28,78,,,,4,9,2,5,0.4,0.4
2026-02-07T0300,2512A,106.6102,23.901,百色市,市监测站,,37,37,39,24,34,2,,,,44,21,8,8,0.8,0.8
2026-02-07T0300,2513A,106.6524,23.8842,百色市,市中心血站,细颗粒物(PM2.5),69,65,53,50,41,2,,,,42,26,13,9,1.0,0.9
2026-02-07T0300,4133A,106.6273,23.8798,百色市,龙景西路,颗粒物(PM10),60,70,58,42,41,8,,,,28,22,8,8,0.6,0.7
2026-02-07T0300,2270A,117.396,32.9389,蚌埠市,工人疗养院,颗粒物(PM10),51,52,60,13,11,51,,,,14,14,2,3,0.3,0.3
2026-02-07T0300,2271A,117.3606,32.9428,蚌埠市,百货大楼,,45,45,62,12,11,49,,,,13,11,4,4,0.3,0.3
2026-02-07T0300,2273A,117.4183,32.8909,蚌埠市,蚌埠学院,,36,36,57,12,12,49,,,,19,21,3,4,0.3,0.3
2026-02-07T0300,2274A,117.3534,32.9672,蚌埠市,淮上区政府,,48,48,60,13,12,56,,,,11,11,4,4,0.3,0.3
2026-02-07T0300,2275A,117.3143,32.8977,蚌埠市,高新区,,36,36,56,11,12,49,,,,10,10,4,5,0.3,0.3
2026-02-07T0300,3715A,117.3091,32.9314,蚌埠市,蚌埠田家炳中学,,45,45,65,12,12,52,,,,12,12,2,3,0.3,0.3
2026-02-07T0300,1585A,109.8761,40.6533,包头市,市环境监测站,,24,16,20,3,6,75,,,,6,8,3,4,0.4,0.4
2026-02-07T0300,1587A,109.9992,40.5843,包头市,包头八中,,23,20,22,10,8,72,,,,3,8,3,4,0.4,0.4
2026-02-07T0300,1589A,109.8641,40.6288,包头市,惠龙物流,,25,15,17,10,6,80,,,,4,7,6,7,0.4,0.4
2026-02-07T0300,1590A,110.0376,40.5546,包头市,东河鸿龙湾,,16,8,16,3,4,50,,,,16,17,5,7,0.5,0.4
2026-02-07T0300,3283A,109.9154,40.5684,包头市,滨河大厦,,22,13,14,6,6,69,,,,10,11,6,6,0.5,0.5
2026-02-07T0300,3419A,109.9449,40.6259,包头市,包头市委党校,,32,32,24,11,9,78,,,,4,8,6,7,0.3,0.3
2026-02-07T0300,3683A,109.8332,40.6577,包头市,昆区政府,,25,19,13,3,3,79,,,,5,8,5,6,0.3,0.4
2026-02-07T0300,1931A,107.0802,34.3129,宝鸡市,竹园沟,颗粒物(PM10),81,112,96,57,70,65,,,,18,23,7,8,0.5,0.6
2026-02-07T0300,1933A,107.1429,34.3549,宝鸡市,监测站,颗粒物(PM10),82,114,132,53,97,67,,,,20,34,11,8,0.5,0.8
2026-02-07T0300,1934A,107.1172,34.3759,宝鸡市,技工学校,颗粒物(PM10),80,109,130,41,87,70,,,,12,26,10,9,0.5,0.8
2026-02-07T0300,1936A,107.2025,34.3518,宝鸡市,文理学院,颗粒物(PM10),87,124,128,54,88,67,,,,16,30,6,7,0.7,1
2026-02-07T0300,1937A,107.2396,34.3626,宝鸡市,三迪小学,颗粒物(PM10),84,118,130,58,90,65,,,,22,35,6,7,0.6,0.8
2026-02-07T0300,4155A,107.1721,34.3558,宝鸡市,滨河北路,颗粒物(PM10),78,105,118,53,82,63,,,,14,28,9,8,0.5,0.7
2026-02-07T0300,4308A,107.3898,34.3601,宝鸡市,陈仓区北开路21号,,,135,149,51,100,63,,,,21,34,,37,0.6,1
2026-02-07T0300,1051A,115.4803,38.8568,保定市,游泳馆,细颗粒物(PM2.5),59,59,42,42,17,25,,,,33,17,3,3,0.6,0.6
2026-02-07T0300,1052A,115.509,38.8895,保定市,华电二区,,50,50,37,34,13,30,,,,24,16,2,3,1.0,0.8
2026-02-07T0300,1053A,115.4588,38.9037,保定市,接待中心,细颗粒物(PM2.5),60,66,38,43,17,25,,,,29,17,1,2,0.4,0.2
2026-02-07T0300,1054A,115.4484,38.8344,保定市,地表水厂,颗粒物(PM10),57,64,51,31,15,16,,,,43,26,2,2,0.4,0.2
2026-02-07T0300,3581A,115.3136,38.9511,保定市,满城区生态环境分局,细颗粒物(PM2.5),79,75,39,58,19,12,,,,40,19,1,2,0.6,0.3
2026-02-07T0300,3582A,115.4709,38.7628,保定市,清苑区第二中学,颗粒物(PM10),63,76,51,35,19,28,,,,26,26,4,5,0.4,0.3
2026-02-07T0300,3583A,115.6231,39.0223,保定市,徐水物探局,颗粒物(PM10),64,78,50,45,20,0,,,,50,20,4,3,0.6,0.5
2026-02-07T0300,4004A,115.4199,38.8665,保定市,双鹰农机,细颗粒物(PM2.5),63,73,44,45,17,18,,,,35,13,3,3,0.4,0.3
2026-02-07T0300,4034A,115.515,38.8589,保定市,植保所站,颗粒物(PM10),54,57,49,37,15,27,,,,31,19,1,3,0.4,0.4
2026-02-07T0300,2594A,99.1589,25.1137,保山市,市环境监测站,,25,21,27,17,15,72,,,,6,9,5,5,0.3,0.4
2026-02-07T0300,2595A,99.1616,25.1381,保山市,市环保局,,29,29,29,19,13,80,,,,4,5,3,3,0.5,0.5
2026-02-07T0300,1867A,109.1435,21.4085,北海市,海滩公园,细颗粒物(PM2.5),122,,38,92,24,46,,,,19,12,3,2,0.9,0.6
2026-02-07T0300,1868A,109.0983,21.466,北海市,新市环保局,细颗粒物(PM2.5),118,92,40,89,24,38,,,,24,20,10,7,0.8,0.6
2026-02-07T0300,1869A,109.1775,21.5232,北海市,北海工业园,细颗粒物(PM2.5),122,120,54,92,33,21,,,,24,15,8,6,0.9,0.6
2026-02-07T0300,3400A,109.1844,21.4396,北海市,龙潭自来水厂,细颗粒物(PM2.5),93,,38,69,29,21,,,,14,10,7,6,0.7,0.5
2026-02-07T0300,1001A,116.3611,39.8786,北京市,万寿西宫,,19,15,21,3,5,60,,,,13,13,1,1,0.5,0.5
2026-02-07T0300,1003A,116.4174,39.9289,北京市,东四,,19,19,20,7,6,23,,,,33,17,3,4,0.3,0.3
2026-02-07T0300,1004A,116.4073,39.8858,北京市,天坛,,21,21,21,7,6,27,,,,26,14,1,2,0.4,0.3
2026-02-07T0300,1005A,116.4622,39.9364,北京市,农展馆,,17,17,18,3,4,45,,,,25,10,5,4,0.2,0.1
2026-02-07T0300,1006A,116.3399,39.9293,北京市,官园,,16,15,22,3,7,50,,,,18,16,2,2,0.3,0.3
2026-02-07T0300,1007A,116.2879,39.9613,北京市,海淀万柳,,15,14,19,6,6,38,,,,29,22,2,2,0.3,0.2
2026-02-07T0300,1008A,116.6635,40.1349,北京市,顺义新城,,18,18,10,6,3,27,,,,32,10,4,4,0.4,0.3
2026-02-07T0300,1009A,116.6275,40.327,北京市,怀柔镇,,16,10,10,6,4,49,,,,13,5,4,4,0.4,0.3
2026-02-07T0300,1010A,116.2295,40.217,北京市,昌平镇,,20,7,15,3,5,61,,,,7,9,1,1,0.3,0.3
2026-02-07T0300,1011A,116.3968,39.982,北京市,奥体中心,,34,19,17,6,5,12,,,,68,22,4,4,0.3,0.2
2026-02-07T0300,3418A,116.8336,40.4095,北京市,密云新城,,14,13,11,6,5,44,,,,18,9,3,3,0.3,0.2
2026-02-07T0300,3671A,116.0879,39.9725,北京市,门头沟三家店,,29,29,22,9,6,7,,,,38,14,2,2,0.5,0.4
2026-02-07T0300,3672A,116.1507,39.8246,北京市,丰台云岗,,42,42,26,14,8,17,,,,36,16,1,1,0.4,0.3
2026-02-07T0300,3674A,115.9578,39.7602,北京市,房山燕山,,29,29,24,11,6,35,,,,14,12,4,3,0.3,0.2
2026-02-07T0300,3675A,116.4669,39.7734,北京市,大兴旧宫,,43,43,23,16,7,13,,,,43,17,2,3,0.5,0.4
2026-02-07T0300,3694A,115.9859,40.4562,北京市,延庆石河营,,28,16,20,7,9,2,,,,55,18,3,3,0.5,0.5
2026-02-07T0300,3695A,116.6151,40.3052,北京市,怀柔新城,,16,15,14,11,7,45,,,,15,5,2,2,0.3,0.2
2026-02-07T0300,3696A,116.2542,39.8764,北京市,丰台小屯,,50,50,24,15,7,1,,,,63,22,3,3,0.5,0.4
2026-02-07T0300,3697A,116.8399,40.3843,北京市,密云镇,,20,16,13,8,6,21,,,,39,16,1,2,0.3,0.3
2026-02-07T0300,4057A,115.9423,40.4431,北京市,延庆百泉,,16,12,16,7,8,50,,,,8,6,1,2,0.3,0.3
2026-02-07T0300,4058A,116.6598,39.9164,北京市,通州新华,,31,24,13,10,4,9,,,,61,15,8,2,0.6,0.5
2026-02-07T0300,4182A,116.1942,39.9158,北京市,石景山八角,,36,36,26,12,7,9,,,,42,15,3,3,0.3,0.2
2026-02-07T0300,4194A,117.078628,40.151726,北京市,平谷新城,,15,10,9,3,5,47,,,,10,7,3,3,0.2,0.2
2026-02-07T0300,1761A,123.8274146,41.31234549,本溪市,大峪,,,86,59,26,15,,,,,43,18,7,8,0.9,0.6
2026-02-07T0300,1763A,123.7169,41.3094,本溪市,彩屯,颗粒物(PM10),61,72,63,27,18,17,,,,43,23,6,7,1.2,0.8
2026-02-07T0300,1764A,123.7672166,41.28649327,本溪市,东明,颗粒物(PM10),55,59,37,25,15,12,,,,42,21,6,8,1.2,0.9
2026-02-07T0300,1765A,123.799345,41.266614,本溪市,新立屯,,21,21,27,9,9,36,,,,20,13,8,10,0.9,0.8
2026-02-07T0300,1766A,123.829144,41.336777,本溪市,威宁,,46,46,35,26,16,19,,,,32,21,3,6,0.7,0.6
2026-02-07T0300,2587A,105.287,27.3133,毕节市,八中,细颗粒物(PM2.5),84,100,72,62,51,37,,,,17,21,10,12,1.0,1
2026-02-07T0300,2588A,105.3079,27.2987,毕节市,师专,细颗粒物(PM2.5),102,109,66,76,46,19,,,,46,24,10,12,1.2,0.9
2026-02-07T0300,4263A,105.3688,27.3598,毕节市,工业大道,细颗粒物(PM2.5),79,82,70,58,48,65,,,,12,22,12,11,/,/
2026-02-07T0300,1629A,117.9961,37.3604,滨州市,第二水厂,,27,27,30,14,5,34,,,,26,11,8,8,0.7,0.5
2026-02-07T0300,1630A,117.9789,37.3931,滨州市,北中新校,,24,24,35,10,4,38,,,,20,12,4,4,0.5,0.4
2026-02-07T0300,3514A,117.9379,37.3959,滨州市,中海酒店,,22,22,27,11,4,55,,,,18,11,7,6,0.5,0.4
2026-02-07T0300,3515A,117.9381509,37.35547456,滨州市,开发区一中,,48,48,40,21,5,29,,,,30,8,12,10,0.8,0.5
2026-02-07T0300,3516A,118.0914,37.6938,滨州市,金海六路,,29,24,31,20,6,18,,,,46,12,5,4,0,0
2026-02-07T0300,4028A,117.9955,37.3752,滨州市,滨州市西街道办事处,,25,22,27,17,12,49,,,,18,12,8,7,0.3,0.2
2026-02-07T0300,2311A,115.8071,33.8399,亳州市,污水处理厂,颗粒物(PM10),54,57,71,19,16,32,,,,30,20,6,6,0.4,0.3
2026-02-07T0300,2312A,115.7789,33.8519,亳州市,三国揽胜宫,,,75,84,20,16,36,,,,23,23,,6,0.4,0.3
2026-02-07T0300,3332A,115.7631,33.803,亳州市,亳州学院,颗粒物(PM10),55,59,73,21,16,33,,,,20,19,5,5,0.5,0.4
2026-02-07T0300,2693A,82.0482,44.8553,博尔塔拉蒙古自治州,市党校,,36,36,75,11,46,87,,,,7,23,2,3,0.8,1.1
2026-02-07T0300,2694A,82.0805,44.8966,博尔塔拉蒙古自治州,市环保局,,50,50,84,23,48,71,,,,16,20,5,4,0.6,0.7
2026-02-07T0300,1071A,116.8733,38.2922,沧州市,沧县城建局,颗粒物(PM10),53,55,66,32,19,42,,,,24,23,1,3,0.4,0.3
2026-02-07T0300,1072A,116.8462,38.3189,沧州市,电视转播站,细颗粒物(PM2.5),57,52,50,40,20,40,,,,25,25,3,3,0.5,0.5
2026-02-07T0300,1073A,116.8588,38.3161,沧州市,市环保局,,49,49,50,34,19,37,,,,22,21,4,5,0.5,0.5
2026-02-07T0300,3324A,116.8011,38.294,沧州市,河北水利电力学院,细颗粒物(PM2.5),62,48,40,44,24,33,,,,26,22,1,2,0.3,0.3
2026-02-07T0300,2622A,97.1813,31.1289,昌都市,昌都监测站,,25,25,27,10,13,35,,,,12,11,3,2,0.5,0.5
2026-02-07T0300,3719A,97.1707,31.1428,昌都市,昌都会议中心,,15,12,17,8,7,48,,,,2,2,4,4,0.3,0.3
2026-02-07T0300,2692A,87.2722,44.0298,昌吉回族自治州,新区政务中心,细颗粒物(PM2.5),85,81,86,63,75,65,,,,16,17,7,7,1.0,1.1
2026-02-07T0300,3613A,87.3069,44.0093,昌吉回族自治州,亚心广场,细颗粒物(PM2.5),102,95,109,76,90,69,,,,14,18,7,8,1.0,1.2
2026-02-07T0300,4164A,87.2057,43.9289,昌吉回族自治州,财政所,细颗粒物(PM2.5),102,100,127,76,100,67,,,,10,18,5,5,0.8,1.1
2026-02-07T0300,1120A,125.2874,43.9024,长春市,客车厂,,42,42,43,26,24,35,,,,31,23,13,10,0.7,0.5
2026-02-07T0300,1121A,125.2943,43.8508,长春市,邮电学院,细颗粒物(PM2.5),58,51,35,41,23,30,,,,27,21,6,9,0.7,0.5
2026-02-07T0300,1122A,125.3648,43.8745,长春市,劳动公园,颗粒物(PM10),56,62,38,36,21,13,,,,48,17,4,5,0.6,0.6
2026-02-07T0300,1123A,125.3233,43.8781,长春市,园林处,细颗粒物(PM2.5),55,44,36,39,26,35,,,,25,17,11,9,0.8,0.5
2026-02-07T0300,1124A,125.4604,43.7904,长春市,净月潭,,30,,28,21,17,56,,,,7,11,4,5,0.5,0.4
2026-02-07T0300,1126A,125.38,43.8422,长春市,经开区环卫处,,50,50,43,32,26,26,,,,38,28,4,9,0.6,0.5
2026-02-07T0300,1127A,125.234,43.7761,长春市,高新区管委会,细颗粒物(PM2.5),77,66,47,56,31,8,,,,52,24,7,7,1.0,0.6
2026-02-07T0300,1128A,125.1695,43.83,长春市,岱山公园,,43,43,41,27,23,19,,,,45,28,7,6,0.6,0.4
2026-02-07T0300,4281A,125.334645,43.916281,长春市,北亚泰大街1068号,细颗粒物(PM2.5),55,52,43,39,24,15,,,,43,28,8,9,0.8,0.6
2026-02-07T0300,1335A,113.082,28.2421,长沙市,经开区环保局,细颗粒物(PM2.5),110,145,108,83,76,24,,,,18,28,2,3,0.8,0.9
2026-02-07T0300,1336A,112.8873,28.2202,长沙市,高开区环保局,细颗粒物(PM2.5),120,157,142,91,115,31,,,,15,21,4,5,0.9,1
2026-02-07T0300,1337A,113.0785,28.2012,长沙市,马坡岭,细颗粒物(PM2.5),123,163,118,93,90,29,,,,18,24,4,4,0.9,1
2026-02-07T0300,1338A,112.9448,28.1894,长沙市,湖南师范大学,细颗粒物(PM2.5),114,151,137,86,98,36,,,,15,19,4,4,0.9,1.1
2026-02-07T0300,1339A,113.0177,28.1322,长沙市,雨花区环保局,细颗粒物(PM2.5),115,146,116,87,85,26,,,,18,24,6,7,1.1,1
2026-02-07T0300,1340A,112.9795,28.2593,长沙市,伍家岭,细颗粒物(PM2.5),120,160,146,91,107,27,,,,17,24,4,5,0.8,1
2026-02-07T0300,1341A,113.002,28.1944,长沙市,火车新站,,,,124,,100,,,38,,,22,,2,,1.1
2026-02-07T0300,1342A,112.9846,28.1177,长沙市,天心区环保局,细颗粒物(PM2.5),130,168,129,99,98,34,,,,18,23,4,5,0.7,0.8
2026-02-07T0300,1343A,112.8906,28.1307,长沙市,湖南中医药大学,细颗粒物(PM2.5),112,156,138,84,96,38,,,,15,23,5,5,1.0,1.1
2026-02-07T0300,1727A,113.1146,36.1547,长治市,清华站,,39,39,67,25,41,45,,,,21,19,10,8,0.7,0.7
2026-02-07T0300,1730A,113.0887,36.2126,长治市,审计局,,42,42,64,25,40,42,,,,25,19,10,8,0.7,0.7
2026-02-07T0300,1731A,113.0845,36.1856,长治市,长治八中,颗粒物(PM10),54,58,80,23,46,45,,,,21,17,12,10,0.7,0.7
2026-02-07T0300,2845A,113.1561,36.1912,长治市,德盛苑,,46,46,70,26,46,57,,,,16,17,12,9,0.5,0.7
2026-02-07T0300,3568A,113.0603,36.0464,长治市,向阳小学,颗粒物(PM10),60,69,100,27,48,50,,,,18,21,10,10,0.6,0.9
2026-02-07T0300,3569A,112.8788,36.315,长治市,屯留一中,细颗粒物(PM2.5),78,92,81,57,45,10,,,,52,33,16,10,1.7,1.3
2026-02-07T0300,4189A,113.113092,36.199482,长治市,英华南巷50号,颗粒物(PM10),53,56,77,22,40,48,,,,15,16,12,7,0.5,0.7
2026-02-07T0300,4190A,113.23666,36.33435,长治市,学府街1号,细颗粒物(PM2.5),57,62,60,40,33,14,,,,47,30,6,8,0.8,0.6
2026-02-07T0300,1854A,111.696,28.9725,常德市,市二中,细颗粒物(PM2.5),93,112,171,69,117,37,,,,15,22,6,6,0.9,1.3
2026-02-07T0300,3138A,111.7152,29.0288,常德市,武陵区永安,细颗粒物(PM2.5),105,123,187,79,130,33,,,,17,23,6,5,0.9,1.2
2026-02-07T0300,3139A,111.6891,28.9881,常德市,鼎城区玉霞,细颗粒物(PM2.5),99,112,169,74,121,36,,,,20,27,5,5,0.9,1.2
2026-02-07T0300,3140A,111.6651,29.0526,常德市,武陵区长庚,细颗粒物(PM2.5),117,128,180,88,133,31,,,,14,21,5,5,0.7,1.1
2026-02-07T0300,1196A,119.9524,31.7586,常州市,市监测站,,20,19,39,3,12,63,,,,12,15,6,6,0.2,0.3
2026-02-07T0300,1200A,119.9351,31.703,常州市,武进监测站,,26,26,43,3,13,61,,,,10,15,7,7,0.5,0.6
2026-02-07T0300,3002A,119.9701,31.813,常州市,行政中心,,24,24,62,3,10,62,,,,15,13,3,3,0.4,0.4
2026-02-07T0300,3003A,120.0434,31.7726,常州市,经开区,,21,21,41,3,9,63,,,,6,10,2,3,0.5,0.4
2026-02-07T0300,3010A,119.8919,31.7892,常州市,钟楼,,26,26,45,3,12,64,,,,10,14,6,6,0.4,0.4
2026-02-07T0300,3429A,119.8595,31.706,常州市,武进经发区,,28,28,42,11,20,62,,,,11,15,4,4,0.5,0.6
2026-02-07T0300,3430A,119.5812,31.7256,常州市,金坛城区,,28,28,45,10,20,64,,,,8,11,6,6,0.3,0.3
2026-02-07T0300,4089A,119.9551,31.863,常州市,崇义南街5-H号,,21,16,52,3,10,67,,,,5,9,3,3,0.4,0.5
2026-02-07T0300,2220A,120.4318,41.588,朝阳市,西梁,细颗粒物(PM2.5),78,78,42,57,20,4,,,,50,27,12,8,1.2,0.6
2026-02-07T0300,2221A,120.452,41.565,朝阳市,河畔小区,细颗粒物(PM2.5),55,58,35,39,16,11,,,,38,19,9,9,1.1,0.6
2026-02-07T0300,2222A,120.4176,41.5648,朝阳市,八里堡,颗粒物(PM10),57,63,41,38,19,3,,,,50,27,9,10,1.0,0.6
2026-02-07T0300,3026A,116.6179,23.6608,潮州市,市政府,,,,44,28,30,65,,,,,16,4,5,0.4,0.5
2026-02-07T0300,4036A,116.646,23.676,潮州市,金山,,38,30,38,26,26,64,,,,9,15,2,3,0.5,0.6
2026-02-07T0300,2473A,113.0116,25.8228,郴州市,市职中,细颗粒物(PM2.5),82,62,58,60,55,15,,,,11,17,3,4,0.9,0.9
2026-02-07T0300,2475A,113.0381,25.8074,郴州市,市审计局,细颗粒物(PM2.5),67,54,62,48,47,18,,,,12,17,3,3,/,/
2026-02-07T0300,2476A,113.0348,25.7757,郴州市,市环保局,细颗粒物(PM2.5),110,,69,83,83,24,,,,16,23,3,4,0.8,0.8
2026-02-07T0300,4252A,113.0138,25.8011,郴州市,好美居路49号,细颗粒物(PM2.5),78,57,53,57,51,27,,,,17,24,1,2,/,/
2026-02-07T0300,1431A,103.9727,30.7242,成都市,金泉两河,细颗粒物(PM2.5),107,122,110,80,80,59,,,,28,47,3,3,0.9,1.2
2026-02-07T0300,1432A,104.1423,30.6765,成都市,十里店,细颗粒物(PM2.5),85,106,114,63,67,54,,,,33,34,4,4,0.6,0.7
2026-02-07T0300,1433A,104.0594,30.5765,成都市,三瓦窑,细颗粒物(PM2.5),85,75,88,63,68,77,,,,27,44,3,3,0.7,0.9
2026-02-07T0300,1434A,104.1122,30.6306,成都市,沙河铺,,,89,98,61,66,60,,,,38,36,,4,0.6,0.9
2026-02-07T0300,2880A,104.0219,30.6561,成都市,大石西路,细颗粒物(PM2.5),98,107,114,73,82,63,,,,21,32,6,5,0.7,0.9
2026-02-07T0300,3136A,104.2724,30.559,成都市,龙泉驿区区政府,细颗粒物(PM2.5),65,63,77,47,59,74,,,,16,15,6,7,0.4,0.6
2026-02-07T0300,3357A,104.0028,30.6891,成都市,金博路,细颗粒物(PM2.5),112,108,109,84,80,54,,,,31,39,5,5,0.9,1
2026-02-07T0300,3359A,104.056,30.5228,成都市,华阳,细颗粒物(PM2.5),69,68,89,50,66,78,,,,27,34,4,4,0.5,0.6
2026-02-07T0300,3488A,104.387954,30.746684,成都市,青石路225号,细颗粒物(PM2.5),72,83,94,52,61,27,,,,56,31,3,3,1.3,1.2
2026-02-07T0300,3489A,104.0788,30.4054,成都市,科学城,颗粒物(PM10),56,61,86,39,64,68,,,,21,17,8,7,0.8,0.8
2026-02-07T0300,4011A,103.8505,30.6946,成都市,光华大道三段,颗粒物(PM10),91,132,138,65,85,63,,,,27,45,4,4,0.8,1
2026-02-07T0300,4144A,104.3257,30.6406,成都市,八角井街185号,颗粒物(PM10),70,89,88,49,57,59,,,,30,21,4,4,0.7,0.7
2026-02-07T0300,4224A,104.2433276,30.53529463,成都市,鲸龙路1057号,细颗粒物(PM2.5),68,68,84,49,60,76,,,,22,27,6,5,0.6,0.8
2026-02-07T0300,1062A,117.9531,40.908,承德市,铁路,,25,12,27,3,9,80,,,,2,12,3,4,0.2,0.3
2026-02-07T0300,1063A,117.9397,40.9763,承德市,中国银行,,21,19,20,3,5,66,,,,4,8,2,2,0.3,0.3
2026-02-07T0300,4073A,117.9462,40.95,承德市,杏林街1号,,23,14,17,8,10,73,,,,5,8,3,4,0.2,0.3
2026-02-07T0300,4274A,117.7994,40.9605,承德市,滨河大街98号,,25,6,15,3,8,77,,,,1,7,2,3,0.2,0.2
2026-02-07T0300,2314A,117.4698,30.6617,池州市,池州学院,,46,34,45,32,37,47,,,,17,27,3,4,0.7,0.9
2026-02-07T0300,3237A,117.4918,30.6617,池州市,展览馆,,48,36,47,33,40,46,,,,16,26,3,3,0.6,0.7
2026-02-07T0300,3333A,117.5626,30.695,池州市,第八中学,,39,32,41,27,32,47,,,,18,23,2,3,0.5,0.7
2026-02-07T0300,3334A,117.5037,30.6242,池州市,第十二中学,,29,25,35,20,28,47,,,,19,24,3,3,0.6,0.8
2026-02-07T0300,1744A,118.9229,42.2816,赤峰市,松山一中,,17,7,16,6,7,54,,,,10,12,2,2,0.6,0.6
2026-02-07T0300,1745A,118.9588,42.2733,赤峰市,哈达街,,19,10,16,8,7,59,,,,9,5,7,7,0.5,0.5
2026-02-07T0300,1746A,118.8792,42.2551,赤峰市,天义路,,36,36,15,3,8,57,,,,10,10,8,6,0.5,0.5
2026-02-07T0300,3058A,119.2656,42.0356,赤峰市,银河街,,32,32,26,8,10,55,,,,10,10,13,13,0.7,0.6
2026-02-07T0300,3286A,118.9359,42.3146,赤峰市,桥北物流园区,,15,,11,7,6,48,,,,20,12,3,4,0.7,0.5
2026-02-07T0300,2521A,107.3473,22.4137,崇左市,市环保局江州分局,细颗粒物(PM2.5),85,72,83,63,61,30,,,,18,26,8,7,1.1,0.9
2026-02-07T0300,4256A,107.375,22.3736,崇左市,石景林东路7号,细颗粒物(PM2.5),69,54,70,50,56,43,,,,12,25,3,2,0.8,0.8
2026-02-07T0300,3207A,118.31131,32.3033,滁州市,市政府原办公楼,,33,33,52,16,19,60,,,,9,11,3,3,0.2,0.2
2026-02-07T0300,3331A,118.3268,32.2633,滁州市,图书馆,,27,27,49,14,13,56,,,,5,5,8,8,0.2,0.1
2026-02-07T0300,4101A,118.3196,32.3335,滁州市,银山路666号,,28,28,48,18,20,57,,,,6,7,5,4,0.3,0.3
2026-02-07T0300,4102A,118.3426,32.2979,滁州市,黄山路555号,,37,37,58,19,20,58,,,,5,9,4,4,0.2,0.3
2026-02-07T0300,2606A,101.5379,25.0492,楚雄彝族自治州,市经济开发区,,36,36,34,22,18,18,,,,26,28,3,4,0.6,0.5
2026-02-07T0300,4153A,101.5536,25.0343,楚雄彝族自治州,团结路562号,,36,32,26,25,23,25,,,,19,13,4,5,0.6,0.6
2026-02-07T0300,2549A,107.5087,31.2186,达州市,市环境监测站,细颗粒物(PM2.5),67,68,86,48,60,9,,,,37,33,7,9,0.3,0.5
2026-02-07T0300,2550A,107.4988,31.2132,达州市,凤凰小区,细颗粒物(PM2.5),63,70,89,45,60,10,,,,40,42,7,9,0.5,0.8
2026-02-07T0300,2551A,107.5081,31.1987,达州市,达县机关宾馆,颗粒物(PM10),57,63,95,33,61,12,,,,44,46,6,9,0.8,1
2026-02-07T0300,2552A,107.4644,31.2124,达州市,市政中心,细颗粒物(PM2.5),70,83,102,51,63,3,,,,50,45,5,8,0.7,0.9
2026-02-07T0300,2614A,100.2168,25.5818,大理白族自治州,大理市环境监测站,,28,24,21,19,14,83,,,,8,8,7,7,0.5,0.5
2026-02-07T0300,2615A,100.1542,25.7055,大理白族自治州,大理古城,,23,18,21,15,14,72,,,,6,10,8,8,0.6,0.6
2026-02-07T0300,1109A,121.6119,38.974,大连市,甘井子,细颗粒物(PM2.5),62,56,44,44,18,61,,,,17,10,10,9,0.6,0.5
2026-02-07T0300,1110A,121.565,38.9509,大连市,周水子,细颗粒物(PM2.5),58,62,55,41,17,53,,,,22,14,2,6,0.4,0.3
2026-02-07T0300,1111A,121.5637,38.8849,大连市,星海三站,,43,42,37,30,16,48,,,,22,14,7,9,0.6,0.4
2026-02-07T0300,1112A,121.6301,38.9117,大连市,青泥洼桥,细颗粒物(PM2.5),55,56,38,39,15,64,,,,17,13,9,9,0.4,0.3
2026-02-07T0300,1113A,121.6248,38.8643,大连市,傅家庄,细颗粒物(PM2.5),58,56,31,41,15,49,,,,24,10,7,7,0.9,0.7
2026-02-07T0300,1114A,121.5117,38.8636,大连市,七贤岭,,37,37,45,23,14,72,,,,11,12,9,9,0.6,0.6
2026-02-07T0300,1116A,121.7507,39.1339,大连市,金州,细颗粒物(PM2.5),55,55,47,39,21,66,,,,14,14,7,8,0.3,0.3
2026-02-07T0300,1117A,121.7811,39.0495,大连市,开发区,,44,44,46,30,17,67,,,,11,10,8,8,0.4,0.4
2026-02-07T0300,1118A,121.9762,39.0631,大连市,双D港,细颗粒物(PM2.5),59,58,40,42,18,61,,,,18,14,9,9,0.6,0.5
2026-02-07T0300,4082A,121.2548,38.8188,大连市,旅顺,细颗粒物(PM2.5),60,44,30,43,15,48,,,,11,6,5,6,0.8,0.6
2026-02-07T0300,1789A,124.8085,46.0381,大庆市,大同区,细颗粒物(PM2.5),68,61,46,49,30,22,,,,52,20,10,8,0.8,0.6
2026-02-07T0300,1790A,125.1166,46.5255,大庆市,龙凤区,颗粒物(PM10),51,52,38,34,24,30,,,,38,21,13,11,0.5,0.5
2026-02-07T0300,1791A,124.8894,46.4007,大庆市,红岗区,"颗粒物(PM10),细颗粒物(PM2.5)",52,53,36,36,22,20,,,,43,20,8,8,0.7,0.6
2026-02-07T0300,1792A,125.1391,46.578,大庆市,萨尔图区,,44,44,28,30,15,30,,,,39,18,10,9,0.6,0.4
2026-02-07T0300,1793A,124.9026,46.6217,大庆市,让胡路区,,33,33,27,23,15,52,,,,15,16,9,8,0.5,0.5
2026-02-07T0300,3481A,125.127,46.6277,大庆市,萨区政府监测点,"颗粒物(PM10),细颗粒物(PM2.5)",52,54,28,36,19,20,,,,44,16,11,9,0.9,0.6
2026-02-07T0300,1723A,113.2926,40.0759,大同市,云冈宾馆,,41,41,20,17,8,25,,,,30,11,11,7,0.8,0.4
2026-02-07T0300,1724A,113.3437,40.0921,大同市,大同大学,,32,23,27,22,11,42,,,,20,12,15,7,1.1,0.6
2026-02-07T0300,1725A,113.2637,40.129,大同市,安家小村,,39,39,17,15,6,35,,,,21,7,16,8,1.6,0.4
2026-02-07T0300,3282A,113.3399,40.0586,大同市,大同市卫生学校,,27,27,21,13,9,43,,,,25,12,10,6,1.1,0.7
2026-02-07T0300,3565A,113.1371,40.1122,大同市,云冈站,颗粒物(PM10),54,58,32,32,9,6,,,,37,21,15,10,0.9,0.6
2026-02-07T0300,3566A,113.1186,40.2556,大同市,图书馆,,,30,23,11,9,31,,,,12,12,,6,1.0,0.8
2026-02-07T0300,3567A,113.5931,40.0459,大同市,区一中,细颗粒物(PM2.5),67,63,50,48,24,28,,,,24,15,8,8,1.0,0.5
2026-02-07T0300,4199A,113.2798248,40.09972476,大同市,魏都大道141号,颗粒物(PM10),51,52,25,24,8,24,,,,34,11,12,6,1.3,0.5
2026-02-07T0300,2269A,124.1068,50.4091,大兴安岭地区,科技局,,18,16,23,12,11,55,,,,2,3,5,6,0.2,0.2
2026-02-07T0300,3663A,124.117,50.4279,大兴安岭地区,红旗社区,,20,9,13,7,10,64,,,,6,6,5,6,0.2,0.2
2026-02-07T0300,1600A,124.33,40.0625,丹东市,江湾东路,,34,34,56,10,8,54,,,,17,12,5,6,0.5,0.5
2026-02-07T0300,1601A,124.4242,40.1513,丹东市,临江后街,,29,29,48,8,7,66,,,,6,8,5,6,0.5,0.5
2026-02-07T0300,1602A,124.3935,40.1461,丹东市,元宝山,,28,28,49,8,7,55,,,,13,7,6,7,0.4,0.4
2026-02-07T0300,1603A,124.3634,40.1093,丹东市,民主桥,,30,30,40,12,8,59,,,,11,12,8,8,0.6,0.6
2026-02-07T0300,3541A,109.5726195,19.51688767,儋州市,第一中学子站,,21,21,28,10,14,51,,,,2,5,4,6,0.6,0.7
2026-02-07T0300,3542A,109.5567,19.5187,儋州市,东坡学校子站,,22,22,27,9,14,55,,,,4,7,3,5,0.6,0.6
2026-02-07T0300,2616A,98.5611,24.4273,德宏傣族景颇族自治州,德宏州监测站,,49,48,51,34,33,21,,,,32,25,6,6,1.0,1
2026-02-07T0300,3677A,98.5887,24.4366,德宏傣族景颇族自治州,芒市人民政府综合楼,,42,35,55,29,27,44,,,,11,15,4,4,0.7,0.7
2026-02-07T0300,1901A,104.424,31.1209,德阳市,东山公园,细颗粒物(PM2.5),87,74,81,64,71,52,,,,23,19,2,2,0.9,0.9
2026-02-07T0300,1902A,104.3827,31.1318,德阳市,西小区,细颗粒物(PM2.5),118,90,98,89,73,55,,,,25,33,2,4,0.8,0.9
2026-02-07T0300,1904A,104.3553,31.1091,德阳市,耐火材料厂,细颗粒物(PM2.5),128,97,93,97,80,53,,,,23,34,2,2,0.8,0.8
2026-02-07T0300,4145A,104.4144,31.1495,德阳市,市林业局,细颗粒物(PM2.5),108,93,93,81,73,45,,,,30,29,4,5,1.0,1
2026-02-07T0300,1622A,116.3034,37.4675,德州市,儿童乐园,细颗粒物(PM2.5),60,56,57,43,17,24,,,,35,19,9,10,0.6,0.6
2026-02-07T0300,1624A,116.2992,37.4449,德州市,监理站,细颗粒物(PM2.5),72,68,54,52,16,46,,,,25,18,6,8,0.6,0.5
2026-02-07T0300,3066A,116.2722,37.438,德州市,九衢泉纯净水厂,细颗粒物(PM2.5),64,63,48,46,16,30,,,,34,20,2,4,0.6,0.4
2026-02-07T0300,3371A,116.3693,37.44,德州市,开发区人民医院,颗粒物(PM10),53,56,55,32,16,39,,,,22,13,10,10,0.5,0.3
2026-02-07T0300,3511A,116.5687,37.3331,德州市,陵城艺术中心,细颗粒物(PM2.5),57,51,49,40,16,32,,,,26,21,10,9,0.8,0.6
2026-02-07T0300,4292A,116.352738,37.420875,德州市,新河东路,颗粒物(PM10),54,58,51,34,12,44,,,,12,11,10,10,0.5,0.5
2026-02-07T0300,2621A,99.7054,27.8319,迪庆藏族自治州,迪庆州站,,28,28,26,10,16,57,,,,8,10,4,5,0.6,0.7
2026-02-07T0300,3180A,99.7122,27.8129,迪庆藏族自治州,质量技术监督局,,24,24,23,6,11,64,,,,9,11,4,4,0.5,0.5
2026-02-07T0300,4257A,104.6092,35.5962,定西市,将台街,颗粒物(PM10),70,89,89,31,31,72,,,,6,10,7,11,0.3,0.4
2026-02-07T0300,4309A,104.6159,35.5701,定西市,正龙路62号,颗粒物(PM10),67,84,96,29,32,68,,,,9,9,3,8,0.4,0.6
2026-02-07T0300,1390A,113.7943,23.0132,东莞市,东城石井,,43,43,52,21,24,24,,,,45,50,6,6,0.6,0.6
2026-02-07T0300,1391A,113.7384,22.9659,东莞市,南城西平,,42,31,32,16,19,0,,,,83,54,6,7,0.6,0.5
2026-02-07T0300,3319A,113.7283,23.041,东莞市,万江金泰,颗粒物(PM10),63,76,53,35,30,36,,,,53,56,8,7,1.0,0.9
2026-02-07T0300,4129A,113.8666,23.1062,东莞市,裕兴路,颗粒物(PM10),62,73,66,40,34,14,,,,52,46,6,6,1.0,0.9
2026-02-07T0300,4130A,114.0076,22.9739,东莞市,教育路1号,颗粒物(PM10),55,60,61,25,28,1,,,,75,59,5,5,0.6,0.6
2026-02-07T0300,4131A,113.7981,22.8124,东莞市,长怡路1号,,34,34,43,10,18,7,,,,64,56,6,7,0.7,0.8
2026-02-07T0300,1666A,118.6612,37.4313,东营市,市环保局,,19,19,22,6,1,58,,,,22,16,7,7,0.5,0.4
2026-02-07T0300,3036A,118.6903,37.4337,东营市,开发区管委会,,19,13,24,3,1,60,,,,16,7,9,8,0.3,0.4
2026-02-07T0300,3365A,118.5721,37.5654,东营市,垦利区民丰路,,,27,24,6,1,42,,,,,10,5,5,0.7,0.5
2026-02-07T0300,3498A,118.5063,37.8606,东营市,河口城区,,34,34,31,11,2,43,,,,25,15,1,5,0.8,0.7
2026-02-07T0300,3646A,118.4979,37.4623,东营市,胜利站,,19,18,27,3,0,60,,,,19,14,6,6,0.7,0.7
2026-02-07T0300,3734A,118.5753,37.4405,东营市,理想之城,,,29,29,7,1,,,,,17,4,3,3,0.3,0.3
2026-02-07T0300,1591A,110.0024,39.8127,鄂尔多斯市,综合楼,,22,22,37,3,7,62,,,,15,15,6,8,0.2,0.3
2026-02-07T0300,1592A,109.9485,39.8259,鄂尔多斯市,巴音孟克林场办事处,,22,14,35,3,8,70,,,,9,14,5,7,0.3,0.4
2026-02-07T0300,1593A,109.7734,39.5987,鄂尔多斯市,康泽苑,,24,14,30,3,9,75,,,,6,12,4,6,0.2,0.4
2026-02-07T0300,1594A,109.8121,39.5987,鄂尔多斯市,华泰汽车城,,21,17,34,8,11,66,,,,9,12,6,8,0.1,0.3
2026-02-07T0300,1595A,109.9734,39.7884,鄂尔多斯市,奥林花园,,22,22,42,3,5,69,,,,12,17,6,5,0.3,0.4
2026-02-07T0300,2436A,114.894,30.3989,鄂州市,市政府,,16,16,63,7,46,35,,,,18,33,5,5,0.4,0.8
2026-02-07T0300,2437A,114.8986,30.3714,鄂州市,赵家坝,,,27,73,7,49,40,,,,5,23,8,8,,0.8
2026-02-07T0300,3654A,114.8093,30.4091,鄂州市,精准医疗中心,,20,20,71,9,46,47,,,,8,25,4,7,0.5,0.8
2026-02-07T0300,2454A,109.4978,30.2979,恩施土家族苗族自治州,湖北民院,细颗粒物(PM2.5),107,95,100,80,88,2,,,,,22,6,6,1.2,1.2
2026-02-07T0300,3549A,109.5061,30.3771,恩施土家族苗族自治州,龙凤新区,细颗粒物(PM2.5),88,94,100,65,74,8,,,,15,19,7,7,0.9,1
2026-02-07T0300,2499A,108.3411,21.6159,防城港市,沙万,,38,34,61,26,32,11,,,,31,36,7,7,0.7,0.7
2026-02-07T0300,2500A,108.3515,21.7733,防城港市,防城档案局,"颗粒物(PM10),细颗粒物(PM2.5)",52,53,55,36,37,27,,,,17,23,5,7,0.7,0.8
2026-02-07T0300,2501A,108.3506,21.6414,防城港市,大海花园,,49,34,49,34,41,15,,,,30,32,6,8,0.7,0.7
2026-02-07T0300,1371A,113.1293,23.0065,佛山市,湾梁,,,,37,,17,,,129,,,41,,,,
2026-02-07T0300,1372A,113.1082,23.0477,佛山市,华材职中,细颗粒物(PM2.5),57,56,44,40,28,40,,,,26,33,6,6,0.9,0.7
2026-02-07T0300,1373A,113.1439,23.045,佛山市,南海气象局,细颗粒物(PM2.5),62,55,38,44,23,46,,,,22,38,/,/,/,/
2026-02-07T0300,1374A,113.2879,22.8094,佛山市,顺德苏岗,,46,46,36,27,18,22,,,,55,40,/,/,0.9,0.8
2026-02-07T0300,1376A,112.8384,22.8678,佛山市,高明孔堂,,50,50,27,31,15,60,,,,15,16,/,/,/,/
2026-02-07T0300,1377A,112.8835,23.1584,佛山市,三水监测站,颗粒物(PM10),52,53,53,26,26,53,,,,13,44,1,3,0.6,0.5
2026-02-07T0300,1378A,112.8668,23.185,佛山市,三水云东海,,42,42,44,23,21,54,,,,16,35,/,/,/,/
2026-02-07T0300,3625A,113.2568,22.7629,佛山市,容桂街道办,颗粒物(PM10),51,51,38,24,19,14,,,,63,39,/,/,/,/
2026-02-07T0300,1282A,119.2681,26.0506,福州市,师大,,23,6,34,3,27,71,,,,14,22,2,3,0.3,0.5
2026-02-07T0300,1283A,119.2983,26.1028,福州市,五四北路,,25,6,26,3,28,77,,,,12,22,4,10,0.4,0.4
2026-02-07T0300,1284A,119.2648,26.0769,福州市,杨桥西路,,22,6,22,3,39,70,,,,15,22,3,4,/,/
2026-02-07T0300,3048A,119.5799,26.0937,福州市,九龙,,24,6,27,3,21,76,,,,11,15,4,4,0.5,0.5
2026-02-07T0300,3526A,119.5188,25.9666,福州市,吴航,,25,6,29,3,20,80,,,,9,15,4,4,0.5,0.6
2026-02-07T0300,4104A,119.3106,26.0648,福州市,路通桥巷6号,,21,6,42,3,31,66,,,,12,18,/,/,/,/
2026-02-07T0300,1755A,123.7974,41.8494,抚顺市,望花区,颗粒物(PM10),66,81,43,43,22,16,,,,43,20,6,8,0.8,0.6
2026-02-07T0300,1756A,123.9161,41.8827,抚顺市,顺城区,细颗粒物(PM2.5),58,63,34,41,23,8,,,,56,29,9,8,0.9,0.7
2026-02-07T0300,1757A,124.0437,41.8615,抚顺市,东洲区,颗粒物(PM10),61,72,36,39,18,35,,,,20,12,6,11,0.8,0.5
2026-02-07T0300,1758A,123.9246,41.8638,抚顺市,新抚区,颗粒物(PM10),73,95,45,52,20,9,,,,57,27,15,7,1.1,0.8
2026-02-07T0300,1759A,124.0972,41.8961,抚顺市,大伙房水库,,47,47,28,26,16,25,,,,33,15,9,10,0.7,0.6
2026-02-07T0300,1760A,123.708,41.8386,抚顺市,沈抚新城,颗粒物(PM10),68,86,36,41,18,9,,,,44,27,5,6,1.1,0.6
2026-02-07T0300,2377A,116.3544,27.9833,抚州市,市站,,22,20,43,15,35,47,,,,11,15,7,5,1.2,1.4
2026-02-07T0300,2378A,116.3562,27.9631,抚州市,血防站,,27,27,47,15,35,40,,,,11,16,7,5,0.8,1.2
2026-02-07T0300,2379A,116.3561,28.0007,抚州市,采茶剧团,,23,23,44,3,35,38,,,,6,12,4,4,0.9,1.3
2026-02-07T0300,2380A,116.3854,27.9648,抚州市,医学分院,,27,27,51,10,29,40,,,,11,16,6,5,0.9,1.2
2026-02-07T0300,2207A,121.6095,41.9978,阜新市,工业园区,颗粒物(PM10),56,61,55,15,21,44,,,,22,21,19,14,0.6,0.6
2026-02-07T0300,2208A,121.6567,42.0188,阜新市,长青街,,20,7,18,3,8,61,,,,7,8,7,7,0.4,0.4
2026-02-07T0300,2209A,121.6672,42.07,阜新市,农业园区,,19,9,24,3,9,59,,,,7,7,6,7,0.2,0.2
2026-02-07T0300,2211A,121.6343,42.0455,阜新市,玉龙新城,,27,27,48,9,21,23,,,,31,24,4,6,0.7,0.6
2026-02-07T0300,2301A,115.8276,32.8929,阜阳市,市监测站,颗粒物(PM10),57,63,78,19,24,43,,,,18,14,4,4,0.4,0.4
2026-02-07T0300,2303A,115.8551,32.8606,阜阳市,开发区,颗粒物(PM10),51,51,75,18,24,40,,,,14,12,4,4,0.3,0.3
2026-02-07T0300,2875A,115.783962,32.889217,阜阳市,阜阳职业技术学院,颗粒物(PM10),55,59,73,18,24,46,,,,14,11,5,5,0.3,0.4
2026-02-07T0300,3468A,115.79,32.8614,阜阳市,市规划展馆,颗粒物(PM10),53,56,77,19,25,42,,,,15,12,5,5,0.3,0.3
2026-02-07T0300,3469A,115.835101,32.918568,阜阳市,枣园社区,颗粒物(PM10),58,65,80,19,24,42,,,,16,14,5,5,0.5,0.5
2026-02-07T0300,2669A,102.9097,34.9841,甘南藏族自治州,州政府,颗粒物(PM10),62,74,86,36,32,65,,,,7,12,4,6,0.4,0.5
2026-02-07T0300,3380A,102.8915,34.9618,甘南藏族自治州,甘肃民族师范学院,颗粒物(PM10),84,117,98,24,23,45,,,,21,15,7,7,0.4,0.4
2026-02-07T0300,2570A,101.96,30.048,甘孜藏族自治州,水桥子,,23,23,22,3,7,32,,,,21,15,6,6,0.3,0.6
2026-02-07T0300,3065A,101.9534,29.9976,甘孜藏族自治州,州环保局,,24,14,19,3,6,74,,,,3,5,6,6,0.5,0.5
2026-02-07T0300,2363A,114.9368,25.8663,赣州市,地委,,16,16,51,10,29,35,,,,14,16,7,8,0.6,0.7
2026-02-07T0300,2364A,114.946,25.8483,赣州市,气象台,,18,18,57,6,41,37,,,,13,18,6,6,0.6,0.6
2026-02-07T0300,2365A,114.932,25.8332,赣州市,市图书馆,,13,13,52,6,39,36,,,,13,16,4,5,1.0,1.1
2026-02-07T0300,2366A,114.8905,25.8472,赣州市,华坚鞋城,,18,18,57,3,38,27,,,,18,19,5,7,0.8,0.7
2026-02-07T0300,3109A,115.0094,25.8614,赣州市,赣县区卫计委,,18,8,47,8,34,57,,,,9,16,7,8,0.9,0.9
2026-02-07T0300,2684A,106.2753,36.0057,固原市,监测站,颗粒物(PM10),73,96,94,25,30,61,,,,9,12,7,8,0.4,0.5
2026-02-07T0300,2685A,106.2384,36.0189,固原市,新区,颗粒物(PM10),70,90,90,26,32,59,,,,8,12,7,8,0.3,0.4
2026-02-07T0300,2544A,106.6307,30.4577,广安市,市委,细颗粒物(PM2.5),105,88,114,79,94,59,,,,14,32,6,7,1.0,1.2
2026-02-07T0300,2545A,106.6266,30.4662,广安市,友谊中学,细颗粒物(PM2.5),92,90,105,68,74,61,,,,18,29,6,6,1.1,1.2
2026-02-07T0300,2547A,106.6386,30.4551,广安市,广电花园,细颗粒物(PM2.5),117,,102,88,99,52,,,,12,26,6,7,0.9,1.1
2026-02-07T0300,2902A,106.6347,30.4868,广安市,北辰小学,细颗粒物(PM2.5),92,79,100,68,89,64,,,,10,17,8,9,0.8,1
2026-02-07T0300,2524A,105.8211,32.4444,广元市,老城,颗粒物(PM10),64,77,79,43,54,18,,,,45,43,15,15,1.1,1.2
2026-02-07T0300,2526A,105.8629,32.429,广元市,监测站,细颗粒物(PM2.5),62,66,71,44,51,12,,,,43,30,11,8,1.3,1.2
2026-02-07T0300,3617A,105.8047,32.4167,广元市,经开区,细颗粒物(PM2.5),64,73,95,46,65,7,,,,46,41,4,13,1.1,1.4
2026-02-07T0300,1345A,113.2346,23.1423,广州市,广雅中学,颗粒物(PM10),65,79,58,44,27,42,,,,21,57,5,4,0.8,0.9
2026-02-07T0300,1346A,113.2611,23.105,广州市,市五中,细颗粒物(PM2.5),62,72,47,44,26,46,,,,26,49,7,8,/,/
2026-02-07T0300,1348A,113.3477,23.0916,广州市,广东商学院,细颗粒物(PM2.5),65,75,46,47,26,51,,,,22,51,6,6,0.9,0.7
2026-02-07T0300,1349A,113.4332,23.105,广州市,市八十六中,颗粒物(PM10),54,57,48,33,24,42,,,,38,71,7,11,/,/
2026-02-07T0300,1350A,113.3506,22.9488,广州市,番禺中学,颗粒物(PM10),66,81,54,40,21,25,,,,64,48,3,3,0.9,0.8
2026-02-07T0300,1351A,113.2147,23.3918,广州市,花都师范,颗粒物(PM10),51,51,58,35,31,56,,,,15,56,6,7,0.9,0.8
2026-02-07T0300,1352A,113.2599,23.1329,广州市,市监测站,颗粒物(PM10),64,77,48,44,26,39,,,,25,49,2,3,/,/
2026-02-07T0300,1353A,113.5618,23.3119,广州市,九龙镇镇龙,颗粒物(PM10),61,72,58,42,31,51,,,,20,46,6,6,0.8,0.6
2026-02-07T0300,1354A,113.2764,23.1544,广州市,麓湖,"颗粒物(PM10),细颗粒物(PM2.5)",60,70,46,43,23,34,,,,35,58,4,5,0.8,0.7
2026-02-07T0300,2846A,113.3209,23.1323,广州市,体育西,细颗粒物(PM2.5),64,73,52,46,28,41,,,,26,62,6,7,1.0,1
2026-02-07T0300,3298A,113.5718,23.5493,广州市,从化街口,,49,49,51,31,31,48,,,,23,41,9,8,0.9,0.8
2026-02-07T0300,3299A,113.3463,23.369,广州市,白云竹料,颗粒物(PM10),53,55,62,35,32,56,,,,21,52,3,4,0.8,0.7
2026-02-07T0300,3300A,113.2981,23.2365,广州市,白云嘉禾,颗粒物(PM10),57,64,53,36,25,33,,,,33,58,6,7,/,/
2026-02-07T0300,3301A,113.4256,23.1716,广州市,黄埔科学城,细颗粒物(PM2.5),59,66,48,42,26,65,,,,22,53,4,3,0.7,0.6
2026-02-07T0300,3302A,113.3942,23.0485,广州市,番禺大学城,颗粒物(PM10),66,81,51,40,19,33,,,,48,54,8,9,0.6,0.6
2026-02-07T0300,3303A,113.4923,22.8169,广州市,南沙黄阁,颗粒物(PM10),64,77,43,22,17,3,,,,92,50,8,6,/,/
2026-02-07T0300,3304A,113.534,22.7893,广州市,南沙街,,43,43,33,21,14,4,,,,73,42,6,6,0.8,0.6
2026-02-07T0300,3443A,113.2905,23.5541,广州市,花都梯面,,32,32,38,22,21,47,,,,11,28,5,5,/,/
2026-02-07T0300,3445A,113.786,23.7479,广州市,从化良口,,50,46,23,35,19,64,,,,12,17,8,8,/,/
2026-02-07T0300,3446A,113.805,23.2614,广州市,增城荔城,,50,50,46,33,28,45,,,,29,31,6,7,0.5,0.5
2026-02-07T0300,2506A,109.604387,23.066791,贵港市,江南子站,,49,48,70,34,42,38,,,,14,23,5,7,1.0,0.9
2026-02-07T0300,2508A,109.5669,23.1065,贵港市,荷城子站,细颗粒物(PM2.5),58,,60,41,45,36,,,,14,21,6,7,1.3,1.2
2026-02-07T0300,3405A,109.5886,23.1172,贵港市,新世纪学校,细颗粒物(PM2.5),58,46,67,41,52,36,,,,17,27,/,/,0.8,0.7
2026-02-07T0300,4260A,109.5933,23.095,贵港市,中山路155-3号,,50,44,64,35,48,40,,,,12,19,/,/,1.1,1
2026-02-07T0300,1439A,106.6863,26.6035,贵阳市,马鞍山,,49,41,47,34,35,7,,,,16,18,3,5,/,/
2026-02-07T0300,1441A,106.6241,26.6266,贵阳市,鉴湖路,颗粒物(PM10),53,56,58,34,38,37,,,,14,18,2,4,0.6,0.7
2026-02-07T0300,1442A,106.7468,26.6344,贵阳市,燕子冲,,48,48,54,32,39,34,,,,11,14,7,7,0.7,0.6
2026-02-07T0300,1443A,106.6556,26.4362,贵阳市,碧云窝,颗粒物(PM10),54,58,65,34,43,11,,,,17,21,12,18,/,/
2026-02-07T0300,1445A,106.6963,26.6063,贵阳市,红边门,,,,,37,40,43,,,,14,21,8,13,/,/
2026-02-07T0300,1446A,106.7162383,26.56964667,贵阳市,新华路,颗粒物(PM10),59,68,60,41,39,34,,,,22,24,7,10,0.6,0.6
2026-02-07T0300,1447A,106.6742,26.542,贵阳市,太慈桥,颗粒物(PM10),51,51,49,34,36,22,,,,28,22,3,4,/,/
2026-02-07T0300,4230A,106.688212,26.56952,贵阳市,花果园大街66号,细颗粒物(PM2.5),58,53,47,41,38,35,,,,18,21,4,4,/,/
2026-02-07T0300,4231A,106.687268,26.516892,贵阳市,漓江路57号,,,51,53,34,38,,,,,25,23,6,8,0.8,0.8
2026-02-07T0300,1864A,110.3091,25.2705,桂林市,龙隐路小学,细颗粒物(PM2.5),62,59,52,44,46,64,,,,15,16,2,3,0.8,0.9
2026-02-07T0300,1865A,110.2849361,25.22909545,桂林市,八中,颗粒物(PM10),57,63,53,32,29,59,,,,12,19,2,3,0.9,1
2026-02-07T0300,3531A,110.296,25.1254,桂林市,旅游学院,细颗粒物(PM2.5),68,54,59,49,48,68,,,,12,17,4,4,0.9,1
2026-02-07T0300,4222A,110.1835,25.2444,桂林市,环湖路276号,细颗粒物(PM2.5),75,70,56,55,49,63,,,,12,19,2,5,1.0,1.3
2026-02-07T0300,4301A,110.2803,25.2773,桂林市,信义路13号,细颗粒物(PM2.5),83,,51,61,47,69,,,,11,15,4,4,1.2,1.3
2026-02-07T0300,2674A,100.2262,34.4854,果洛藏族自治州,玛沁县大武镇,,38,38,43,18,9,46,,,,3,2,16,17,0.4,0.3
2026-02-07T0300,1130A,126.5557,45.8109,哈尔滨市,松北商大,细颗粒物(PM2.5),84,63,32,62,26,17,,,,40,21,4,9,1.0,0.7
2026-02-07T0300,1132A,126.6162,45.719,哈尔滨市,南岗学府路,细颗粒物(PM2.5),62,68,35,44,22,14,,,,45,21,9,16,1.2,0.8
2026-02-07T0300,1133A,126.6894,45.7733,哈尔滨市,太平宏伟公园,,,68,31,60,20,,,,,35,8,9,22,1.4,0.7
2026-02-07T0300,1134A,126.6361,45.7672,哈尔滨市,道外承德广场,,49,49,42,23,18,55,,,,15,20,10,12,0.6,0.8
2026-02-07T0300,1136A,126.644,45.7261,哈尔滨市,动力和平路,细颗粒物(PM2.5),55,58,32,39,17,31,,,,35,16,7,10,1.0,0.8
2026-02-07T0300,1137A,126.5933,45.7479,哈尔滨市,道里建国路,,,49,27,44,21,,,,,26,21,10,10,1.0,0.5
2026-02-07T0300,1138A,126.6127,45.6119,哈尔滨市,平房东轻厂,细颗粒物(PM2.5),67,60,46,48,33,8,,,,65,36,6,6,1.1,0.9
2026-02-07T0300,1139A,126.5875,45.9827,哈尔滨市,呼兰师专,细颗粒物(PM2.5),124,114,53,94,39,20,,,,43,23,12,11,1.4,0.9
2026-02-07T0300,1140A,126.6299,45.6799,哈尔滨市,省农科院,细颗粒物(PM2.5),79,76,45,58,35,5,,,,70,30,15,15,1.6,0.9
2026-02-07T0300,4282A,126.6769,45.7379,哈尔滨市,华山路1号,,26,24,24,18,16,56,,,,11,15,3,5,0.7,0.7
2026-02-07T0300,4283A,126.9717,45.5356,哈尔滨市,解放大街52号,细颗粒物(PM2.5),92,,42,68,30,38,,,,14,18,9,10,0.7,0.7
2026-02-07T0300,2688A,93.5124,42.8176,哈密市,地区监测站,颗粒物(PM10),192,334,355,82,69,30,,,,22,17,4,5,1.0,0.4
2026-02-07T0300,2689A,93.5014,42.8312,哈密市,哈密师范学校,,,,263,,46,,,70,,,21,,3,,0.5
2026-02-07T0300,2671A,100.9016,36.9464,海北藏族自治州,海晏县西海镇,颗粒物(PM10),57,64,58,27,18,62,,,,4,2,6,6,0.5,0.4
2026-02-07T0300,3867A,102.074,36.5056,海东市,平安区公安局北苑,颗粒物(PM10),65,79,90,36,54,54,,,,9,10,11,16,0.6,0.7
2026-02-07T0300,4163A,102.0984,36.5119,海东市,滨河路,颗粒物(PM10),52,54,96,32,39,62,,,,17,24,17,16,0.6,0.6
2026-02-07T0300,1410A,110.3189,20.0596,海口市,海南大学,,26,18,20,10,10,81,,,,5,7,5,5,0.4,0.3
2026-02-07T0300,1411A,110.2827,20.0051,海口市,秀英海南医院,,24,21,20,10,11,75,,,,7,12,7,7,0.3,0.3
2026-02-07T0300,1412A,110.3391,19.9979,海口市,海南师范大学,,24,23,22,14,12,76,,,,6,7,5,5,0.4,0.4
2026-02-07T0300,1413A,110.3303,20.0359,海口市,龙华路环保局宿舍,,25,18,19,11,12,79,,,,8,8,/,/,0.6,0.7
2026-02-07T0300,3539A,110.5111,19.9737,海口市,桂林洋子站,,26,26,21,15,13,72,,,,6,7,/,/,/,/
2026-02-07T0300,4134A,110.1952,20.0451,海口市,长滨二路9号,,20,20,16,11,11,64,,,,6,9,/,/,/,/
2026-02-07T0300,2673A,100.6158,36.2985,海南藏族自治州,共和县恰卜恰镇,,45,45,103,12,26,81,,,,13,6,9,10,0.5,0.4
2026-02-07T0300,2676A,97.373,37.376,海西蒙古族藏族自治州,德令哈市,,46,46,64,12,13,96,,,,3,5,18,18,0.4,0.4
2026-02-07T0300,1049A,114.492,36.5712,邯郸市,矿院,细颗粒物(PM2.5),63,60,55,45,24,33,,,,24,10,1,2,0.4,0.3
2026-02-07T0300,1050A,114.4839,36.6136,邯郸市,丛台公园,颗粒物(PM10),53,56,58,24,23,43,,,,21,15,3,3,0.3,0.3
2026-02-07T0300,3458A,114.7893,36.5592,邯郸市,香泉濮院小区,,46,46,54,26,18,37,,,,14,9,3,2,0.4,0.3
2026-02-07T0300,3580A,114.1998,36.4439,邯郸市,峰峰矿区临水派出所,颗粒物(PM10),62,74,50,28,18,28,,,,27,7,6,4,0.6,0.5
2026-02-07T0300,4068A,114.5209,36.7697,邯郸市,建安街268号,细颗粒物(PM2.5),57,57,59,40,24,25,,,,14,9,3,2,0.4,0.3
2026-02-07T0300,4069A,114.5488,36.6177,邯郸市,丛台东路558号,颗粒物(PM10),52,53,51,20,18,22,,,,29,8,3,2,0.4,0.3
2026-02-07T0300,2635A,107.0155,33.0707,汉中市,市监测站,颗粒物(PM10),70,90,87,38,58,90,,,,12,31,6,6,0.5,1
2026-02-07T0300,2636A,107.0083,33.114,汉中市,鑫源开发区,颗粒物(PM10),59,68,80,36,55,92,,,,10,29,4,6,0.5,1
2026-02-07T0300,2637A,107.0072,33.0323,汉中市,南郑大河坎水厂,颗粒物(PM10),67,84,94,39,60,90,,,,14,30,7,7,0.5,1
2026-02-07T0300,1223A,120.2073,30.2111,杭州市,滨江,,17,15,38,10,33,54,,,,17,25,6,6,0.2,0.5
2026-02-07T0300,1224A,120.0625,30.2737,杭州市,西溪,,24,24,55,16,32,48,,,,19,29,8,8,0.5,0.8
2026-02-07T0300,1226A,120.3417,30.315,杭州市,下沙,,27,27,58,16,36,44,,,,18,32,7,7,0.3,0.5
2026-02-07T0300,1227A,120.1252,30.2465,杭州市,卧龙桥,,17,17,46,10,29,52,,,,10,23,8,8,0.2,0.3
2026-02-07T0300,1228A,120.1902,30.2691,杭州市,浙江农大,,19,18,40,8,28,58,,,,22,30,5,5,0.3,0.6
2026-02-07T0300,1230A,120.1195,30.3121,杭州市,和睦小学,,20,20,49,12,34,52,,,,15,24,4,4,0.4,0.6
2026-02-07T0300,1231A,120.3076,30.4146,杭州市,临平镇,,25,23,43,17,33,48,,,,10,14,6,6,0.5,0.6
2026-02-07T0300,1232A,120.2753,30.1839,杭州市,城厢镇,,25,25,62,10,29,58,,,,14,26,6,7,0.4,0.6
2026-02-07T0300,1233A,120.0883,30.1808,杭州市,云栖,,18,18,42,6,27,49,,,,11,23,4,5,0.5,0.6
2026-02-07T0300,3557A,119.9463,30.0496,杭州市,镇二中,,17,,29,10,30,52,,,,15,25,4,4,0.5,0.7
2026-02-07T0300,3558A,119.7184,30.2367,杭州市,市府大楼,,15,,32,10,34,48,,,,10,18,9,9,0.5,0.7
2026-02-07T0300,3656A,120.1554,30.2863,杭州市,消防大队,,23,23,55,12,35,50,,,,16,24,5,5,0.4,0.6
2026-02-07T0300,1270A,117.1957,31.7845,合肥市,明珠广场,,24,24,53,14,30,49,,,,12,14,5,5,0.3,0.4
2026-02-07T0300,1271A,117.307,31.8765,合肥市,三里街,,34,34,52,9,23,48,,,,15,17,4,4,0.7,0.6
2026-02-07T0300,1272A,117.2587,31.8703,合肥市,琥珀山庄,,31,31,52,16,27,51,,,,12,14,6,6,0.6,0.7
2026-02-07T0300,1275A,117.2593,31.9376,合肥市,庐阳区,,34,34,52,8,21,55,,,,14,17,4,4,0.4,0.6
2026-02-07T0300,1276A,117.345251,31.861615,合肥市,瑶海区,,29,29,46,9,21,52,,,,11,16,4,4,0.6,0.6
2026-02-07T0300,1277A,117.3033,31.7967,合肥市,包河区,,34,34,51,9,23,38,,,,24,30,5,6,0.5,0.7
2026-02-07T0300,1278A,117.278,31.7392,合肥市,滨湖新区,,31,31,54,8,23,53,,,,11,13,3,2,0.5,0.6
2026-02-07T0300,1279A,117.1324,31.8395,合肥市,高新区,,36,36,53,12,26,51,,,,11,13,3,3,0.4,0.5
2026-02-07T0300,3464A,117.3802,31.9148,合肥市,高教基地,,34,34,50,8,19,53,,,,11,14,7,7,0.4,0.4
2026-02-07T0300,4098A,117.2518,31.8404,合肥市,中国科学技术大学,,29,29,50,8,22,56,,,,6,8,6,6,0.4,0.6
2026-02-07T0300,3614A,79.9241,37.0878,和田地区,地区环保局,颗粒物(PM10),500,859,379,138,73,63,,,,13,16,3,2,0.8,1
2026-02-07T0300,3615A,79.9132,37.1137,和田地区,市环保局,颗粒物(PM10),500,811,333,144,72,78,,,,17,14,1,2,4.2,0.9
2026-02-07T0300,2517A,108.0496,24.6957,河池市,市环保站,,25,25,56,16,47,32,,,,16,15,3,3,0.8,1
2026-02-07T0300,4302A,108.0901,24.6945,河池市,上任中路54号,,30,,61,21,48,34,,,,13,16,5,5,1.0,1.3
2026-02-07T0300,1697A,114.6962,23.7538,河源市,东埔,,28,28,35,19,24,68,,,,9,32,5,5,0.8,0.7
2026-02-07T0300,1698A,114.6895,23.7232,河源市,老城,,,44,35,31,26,,,,,16,25,6,6,0.6,0.5
2026-02-07T0300,3374A,115.5562,35.089,菏泽市,定陶老年大学,颗粒物(PM10),59,68,72,28,20,37,,,,21,20,5,6,0.4,0.5
2026-02-07T0300,4114A,115.4239,35.2593,菏泽市,黄河路600号,,49,49,71,27,20,42,,,,21,20,3,4,0.4,0.4
2026-02-07T0300,4115A,115.5025,35.2727,菏泽市,菏泽市人社局,颗粒物(PM10),51,52,63,28,19,38,,,,24,24,11,9,0.5,0.5
2026-02-07T0300,4184A,115.479691,35.244011,菏泽市,永昌路1号,颗粒物(PM10),56,62,70,29,19,45,,,,17,18,7,5,0.5,0.5
2026-02-07T0300,4193A,115.471542,35.280012,菏泽市,长城路999号,颗粒物(PM10),56,62,73,32,21,37,,,,22,22,5,3,0.4,0.5
2026-02-07T0300,2514A,111.5264,24.4178,贺州市,环保小区,,17,13,64,11,44,53,,,,13,20,3,3,0.7,0.8
2026-02-07T0300,2515A,111.561,24.4074,贺州市,政协大楼,,19,19,58,10,45,50,,,,9,22,4,4,1.0,1.1
2026-02-07T0300,3534A,111.4744,24.455,贺州市,西湾,,18,,71,12,44,50,,,,12,21,6,6,0.9,1
2026-02-07T0300,2385A,114.17,35.9019,鹤壁市,市监测站,颗粒物(PM10),53,56,60,28,26,29,,,,20,16,4,4,0.6,0.5
2026-02-07T0300,2386A,114.2953,35.7512,鹤壁市,市交警支队,颗粒物(PM10),59,67,72,35,25,28,,,,22,26,5,6,0.4,0.4
2026-02-07T0300,2387A,114.2877,35.7302,鹤壁市,迎宾馆,颗粒物(PM10),58,66,77,36,27,32,,,,18,16,6,4,0.6,0.6
2026-02-07T0300,3474A,114.2616,35.6824,鹤壁市,大新区,颗粒物(PM10),66,81,69,37,30,31,,,,23,18,6,7,0.6,0.6
2026-02-07T0300,3596A,114.1573,35.9607,鹤壁市,南山宾馆,颗粒物(PM10),62,74,80,37,30,32,,,,13,11,4,5,0.4,0.4
2026-02-07T0300,2244A,130.2537,47.3416,鹤岗市,哈啤分公司,,25,25,23,12,10,74,,,,4,3,7,7,0.4,0.4
2026-02-07T0300,2245A,130.2683,47.3087,鹤岗市,斯达机电,,22,21,30,6,9,68,,,,3,5,5,6,0.5,0.6
2026-02-07T0300,2246A,130.3114,47.3388,鹤岗市,东山纸板厂,,22,16,28,7,9,69,,,,2,3,7,8,0.8,0.5
2026-02-07T0300,2263A,127.4832,50.2524,黑河市,交通局,,,,22,17,18,,,,,2,7,5,6,0.3,0.3
2026-02-07T0300,2264A,127.5146,50.2339,黑河市,环保局,,22,,23,10,14,69,,,,6,9,4,5,0.3,0.4
2026-02-07T0300,1074A,115.6839,37.754,衡水市,电机北厂,颗粒物(PM10),62,74,67,38,28,7,,,,56,30,4,4,0.3,0.1
2026-02-07T0300,1075A,115.6303,37.7318,衡水市,市监测站,细颗粒物(PM2.5),69,65,57,50,24,32,,,,29,27,5,7,1.4,0.3
2026-02-07T0300,3188A,115.6684,37.7216,衡水市,市城管局,细颗粒物(PM2.5),64,47,59,46,27,35,,,,18,19,11,9,0.4,0.4
2026-02-07T0300,3459A,115.599,37.5491,衡水市,地表水厂,"颗粒物(PM10),细颗粒物(PM2.5)",53,56,48,37,20,1,,,,57,19,7,5,0.5,0.4
2026-02-07T0300,2457A,112.6209,26.9268,衡阳市,衡阳化工总厂,细颗粒物(PM2.5),119,97,64,90,57,44,,,,15,15,18,8,1.1,1.1
2026-02-07T0300,2458A,112.621,26.8957,衡阳市,珠晖区环保局,细颗粒物(PM2.5),109,103,63,82,53,38,,,,27,21,10,4,1.2,1.2
2026-02-07T0300,2459A,112.628,26.8654,衡阳市,市委党校,细颗粒物(PM2.5),128,,60,97,56,48,,,,12,13,7,7,1.2,1.2
2026-02-07T0300,2460A,112.6007,26.8977,衡阳市,市监测站,细颗粒物(PM2.5),110,114,78,83,64,45,,,,17,16,27,7,1.2,1.3
2026-02-07T0300,2461A,112.5658,26.9013,衡阳市,真空机电公司,细颗粒物(PM2.5),129,111,74,98,73,50,,,,16,16,12,7,1.1,1.2
2026-02-07T0300,3399A,112.6703,26.8817,衡阳市,师范学院,细颗粒物(PM2.5),114,107,64,86,48,44,,,,27,23,2,2,1.2,1.1
2026-02-07T0300,3038A,103.3757,23.3679,红河哈尼族彝族自治州,州图书馆,颗粒物(PM10),51,52,39,32,28,76,,,,5,8,11,15,0.7,0.6
2026-02-07T0300,4154A,103.401,23.3561,红河哈尼族彝族自治州,蒙自市朝阳路,,49,,29,34,25,76,,,,4,8,5,8,0.5,0.4
2026-02-07T0300,1090A,111.6506,40.7517,呼和浩特市,呼市一监,,23,9,11,3,9,73,,,,7,6,7,6,0.3,0.3
2026-02-07T0300,1094A,111.7516,40.8369,呼和浩特市,如意水处理厂,,21,12,11,3,3,67,,,,7,6,8,8,0.2,0.2
2026-02-07T0300,1095A,111.727798,40.806187,呼和浩特市,二十九中,,23,10,13,3,3,72,,,,1,3,9,9,0.3,0.3
2026-02-07T0300,1097A,111.717,40.7617,呼和浩特市,化肥厂生活区,,23,9,13,3,3,73,,,,4,6,3,4,0.2,0.2
2026-02-07T0300,3699A,111.6519,40.8389,呼和浩特市,海东办,,24,9,8,3,2,74,,,,4,6,2,3,0.2,0.2
2026-02-07T0300,4275A,111.591512,40.827312,呼和浩特市,成吉思汗西街8号,,20,,11,3,3,61,,,,8,6,4,6,0.3,0.3
2026-02-07T0300,4276A,111.6597,40.8077,呼和浩特市,公园东路75号,,23,7,10,3,3,72,,,,6,9,4,5,0.3,0.3
2026-02-07T0300,4277A,111.5427,40.7846,呼和浩特市,金海路35号,,20,11,11,3,3,64,,,,9,7,8,7,0.4,0.3
2026-02-07T0300,3061A,119.7511,49.1576,呼伦贝尔市,国华电力东,,32,32,30,16,14,54,,,,16,12,6,7,0.3,0.3
2026-02-07T0300,4279A,119.7569,49.2222,呼伦贝尔市,伊敏大街东7号,,31,31,31,15,15,58,,,,16,13,6,7,0.1,0.4
2026-02-07T0300,1250A,120.075,30.867,湖州市,城西水厂,,25,23,33,17,23,65,,,,12,14,5,4,0.6,0.6
2026-02-07T0300,2873A,120.083,30.8929,湖州市,仁皇山新区,,21,21,41,14,26,62,,,,15,17,4,4,0.7,0.7
2026-02-07T0300,2907A,120.1846,30.8592,湖州市,吴兴区站,,30,30,53,17,29,56,,,,11,11,4,4,0.5,0.5
2026-02-07T0300,3562A,120.4146,30.8538,湖州市,南浔区站,,19,19,44,11,26,58,,,,14,18,6,6,0.5,0.5
2026-02-07T0300,1607A,120.904878,40.721091,葫芦岛市,龙港区,,46,46,36,25,19,4,,,,60,25,12,12,1.1,0.8
2026-02-07T0300,1608A,120.8382,40.7521,葫芦岛市,化工街,颗粒物(PM10),51,51,35,30,19,8,,,,58,29,40,18,0.7,0.4
2026-02-07T0300,1609A,120.8339,40.7078,葫芦岛市,新区,,46,46,27,31,14,4,,,,64,27,15,11,0.9,0.6
2026-02-07T0300,1610A,120.8697,40.7679,葫芦岛市,东城区,颗粒物(PM10),63,75,44,41,25,7,,,,50,30,91,23,0.9,0.8
2026-02-07T0300,2483A,109.9297,27.5383,怀化市,河西地税局,细颗粒物(PM2.5),120,136,104,91,72,69,,,,16,22,3,2,/,/
2026-02-07T0300,2484A,109.9783,27.5342,怀化市,市四医院,细颗粒物(PM2.5),127,141,104,96,69,71,,,,10,13,6,7,0.9,0.9
2026-02-07T0300,2485A,109.9971,27.5579,怀化市,监测楼,细颗粒物(PM2.5),123,128,98,93,76,67,,,,14,16,3,3,0.4,0.4
2026-02-07T0300,1210A,119.0566,33.5991,淮安市,钵池山,,29,29,42,11,9,56,,,,14,11,7,7,0.2,0.2
2026-02-07T0300,1211A,119.0083,33.578,淮安市,北京南路,,29,29,48,10,9,56,,,,11,7,8,6,0.4,0.4
2026-02-07T0300,1212A,118.9938,33.6083,淮安市,市监测站,,24,24,38,11,8,55,,,,14,12,8,8,0.3,0.3
2026-02-07T0300,1213A,119.135,33.5038,淮安市,楚州区监测站,,22,22,40,10,8,57,,,,10,7,5,5,0.4,0.4
2026-02-07T0300,3426A,118.8757,33.2897,淮安市,新华书店,,41,41,47,18,10,56,,,,18,11,8,7,0.4,0.3
2026-02-07T0300,4092A,119.119691,33.550006,淮安市,枚皋中路89号,,32,32,44,12,9,54,,,,14,6,8,8,0.1,0.1
2026-02-07T0300,4206A,119.028838,33.631911,淮安市,承德北路606号,,41,41,52,12,9,56,,,,9,6,6,5,0.5,0.4
2026-02-07T0300,2282A,116.8005,33.9749,淮北市,监测站,,49,49,71,16,17,60,,,,16,19,5,6,0.6,0.5
2026-02-07T0300,2283A,116.8094,33.9008,淮北市,烈山区政府,颗粒物(PM10),56,61,76,12,11,58,,,,11,11,4,4,0.3,0.3
2026-02-07T0300,4017A,116.7926,33.9534,淮北市,市博物馆,颗粒物(PM10),53,55,73,16,16,58,,,,17,18,3,4,0.3,0.4
2026-02-07T0300,4100A,116.8322,33.9884,淮北市,杜集区第一实验学校,颗粒物(PM10),52,53,74,13,12,59,,,,10,12,4,5,0.2,0.2
2026-02-07T0300,2277A,116.8304,32.7726,淮南市,潘集区政府,,46,46,65,17,18,47,,,,11,11,5,4,0.3,0.3
2026-02-07T0300,2279A,116.8569,32.5949,淮南市,谢家集区政府,,41,41,60,10,20,44,,,,10,12,6,7,0.4,0.4
2026-02-07T0300,2280A,116.8279,32.6333,淮南市,八公山区政府,,40,40,64,14,22,44,,,,14,14,4,3,0.4,0.4
2026-02-07T0300,2894A,117.0561,32.6536,淮南市,经济技术开发区消防队,,42,42,64,13,17,41,,,,18,16,4,4,0.3,0.2
2026-02-07T0300,3329A,117.011,32.5891,淮南市,山南新区,,34,34,60,13,19,49,,,,8,7,6,6,0.3,0.3
2026-02-07T0300,4209A,117.003137,32.644456,淮南市,国庆中路369号,,18,,58,12,19,36,,,,12,12,3,3,0.3,0.3
2026-02-07T0300,2446A,114.9021,30.474,黄冈市,职工中心,,22,22,56,12,44,40,,,,5,23,4,4,0.4,0.7
2026-02-07T0300,2929A,114.8858,30.4519,黄冈市,红卫路,,21,21,62,13,47,44,,,,8,24,5,6,0.2,0.6
2026-02-07T0300,3398A,114.9134,30.4446,黄冈市,市林业局,,20,20,63,12,53,39,,,,12,25,4,4,0.4,0.7
2026-02-07T0300,2672A,102.02,35.5101,黄南藏族自治州,同仁县隆务镇,颗粒物(PM10),63,75,80,29,22,78,,,,2,6,7,9,0.3,0.4
2026-02-07T0300,2295A,118.2905,29.6965,黄山市,延安路89号,,15,6,16,3,13,48,,,,10,15,4,4,0.3,0.6
2026-02-07T0300,2297A,118.1369,30.2755,黄山市,黄山区政府5号楼,,15,15,29,3,20,43,,,,11,18,2,2,0.5,0.7
2026-02-07T0300,4210A,118.335445,29.720283,黄山市,滨江东路7-2号,,16,15,31,3,14,49,,,,12,16,/,/,/,/
2026-02-07T0300,2423A,115.0547,30.2332,黄石市,沈家营,,18,18,73,8,40,44,,,,14,20,6,6,0.9,1.2
2026-02-07T0300,2426A,114.899,30.211,黄石市,铁山,,29,29,63,17,57,32,,,,8,24,7,6,0.4,1.4
2026-02-07T0300,2427A,115.0259,30.2108,黄石市,团城山,,25,24,78,17,49,26,,,,7,16,6,7,0.6,1
2026-02-07T0300,3149A,115.0174,30.1591,黄石市,笔架山北路,,26,26,77,15,46,36,,,,14,24,6,6,0.7,1.1
2026-02-07T0300,4185A,115.078022,30.21118,黄石市,磁湖东路29号,,20,18,70,14,44,39,,,,7,23,6,7,0.5,0.9
2026-02-07T0300,1392A,114.4181,23.0528,惠州市,河南岸金山湖子站,,47,47,45,20,25,30,,,,32,27,7,5,0.6,0.7
2026-02-07T0300,1393A,114.4055,23.0824,惠州市,下埔横江三路子站,颗粒物(PM10),51,52,53,28,28,37,,,,37,31,7,6,0.5,0.5
2026-02-07T0300,1395A,114.4645,22.7832,惠州市,惠阳区承修路船湖子站,颗粒物(PM10),55,59,39,30,20,49,,,,36,35,7,7,0.6,0.6
2026-02-07T0300,1396A,114.5316,22.7423,惠州市,大亚湾管委会子站,颗粒物(PM10),66,81,45,27,18,37,,,,42,45,7,6,0.6,0.6
2026-02-07T0300,3314A,114.4334,22.8134,惠州市,惠阳秋长,颗粒物(PM10),56,61,51,34,25,10,,,,52,40,/,/,/,/
2026-02-07T0300,3452A,114.6521,22.7755,惠州市,大亚湾霞涌,,32,,24,22,17,64,,,,24,24,/,/,/,/
2026-02-07T0300,4300A,114.4089,23.1147,惠州市,文华一路1号,颗粒物(PM10),52,53,45,29,25,39,,,,49,36,/,/,/,/
2026-02-07T0300,2240A,130.9618,45.2926,鸡西市,环保局,,32,24,39,22,15,65,,,,5,7,6,7,0.3,0.3
2026-02-07T0300,2243A,130.9294,45.2959,鸡西市,第一中学,,36,,34,25,15,64,,,,6,6,3,4,0.4,0.3
2026-02-07T0300,3707A,131.0069,45.2988,鸡西市,欧美日汽修厂,,30,23,36,21,16,62,,,,1,3,6,8,0.5,0.5
2026-02-07T0300,2367A,114.9753,27.0803,吉安市,红声器材厂,,33,33,54,20,40,42,,,,14,18,8,7,0.9,0.9
2026-02-07T0300,2369A,114.9903,27.1313,吉安市,市环境监测站,,29,29,46,18,41,41,,,,19,22,7,7,/,/
2026-02-07T0300,2370A,115.009527,27.096792,吉安市,青原区法院,,33,24,46,23,39,40,,,,11,20,8,10,1.0,1
2026-02-07T0300,1772A,126.54,43.8622,吉林市,哈达湾,,42,38,52,29,17,52,,,,25,11,6,12,0.7,0.6
2026-02-07T0300,1773A,126.5843,43.8358,吉林市,东局子,,41,41,55,20,16,56,,,,11,12,4,5,0.6,0.8
2026-02-07T0300,1774A,126.5051,43.8243,吉林市,电力学院,,42,40,50,29,24,42,,,,22,13,5,6,1.0,0.7
2026-02-07T0300,1775A,126.6133,43.8971,吉林市,江北,,38,38,49,23,19,55,,,,12,13,5,8,0.5,0.4
2026-02-07T0300,1776A,126.5549,43.8304,吉林市,江南公园,,48,45,38,33,20,35,,,,28,11,6,7,0.8,0.5
2026-02-07T0300,2868A,126.4737,43.953,吉林市,九站,细颗粒物(PM2.5),52,47,47,36,21,16,,,,52,21,33,7,0.9,0.7
2026-02-07T0300,1299A,116.9866,36.6118,济南市,科干所,颗粒物(PM10),51,51,49,29,18,26,,,,31,14,5,5,0.4,0.3
2026-02-07T0300,1300A,116.9379,36.6652,济南市,农科所,颗粒物(PM10),51,51,52,26,13,4,,,,54,25,5,7,0.6,0.5
2026-02-07T0300,1301A,117.1265,36.6736,济南市,开发区,,49,49,49,29,12,20,,,,47,26,3,3,0.5,0.4
2026-02-07T0300,1303A,117.0616,36.6865,济南市,省种子仓库,颗粒物(PM10),53,56,54,22,11,8,,,,55,23,6,4,0.5,0.4
2026-02-07T0300,1304A,116.9495185,36.644937,济南市,机床二厂,,44,44,50,29,14,10,,,,51,22,4,4,0.2,0.1
2026-02-07T0300,1305A,117.0496,36.6629,济南市,市监测站,,49,49,56,27,13,13,,,,45,20,4,4,0.5,0.5
2026-02-07T0300,1306A,116.7674,36.5458,济南市,长清党校,颗粒物(PM10),51,51,55,27,11,10,,,,54,28,4,4,0.5,0.5
2026-02-07T0300,1961A,117.5323,36.6865,济南市,东山小学,颗粒物(PM10),58,66,51,26,9,18,,,,46,24,2,3,0.4,0.3
2026-02-07T0300,3059A,117.7181,36.205,济南市,泰兴公司,颗粒物(PM10),52,53,46,32,12,39,,,,31,21,3,3,0.5,0.6
2026-02-07T0300,3064A,117.6861,36.2172,济南市,莱芜战役纪念馆,,46,46,45,29,11,42,,,,28,17,8,9,0.5,0.5
2026-02-07T0300,3494A,117.1673,36.9782,济南市,济阳区政府,,39,39,47,20,9,37,,,,18,11,12,7,0.5,0.4
2026-02-07T0300,3495A,117.1168,36.6299,济南市,锦屏中学,,39,39,46,24,12,47,,,,21,19,2,3,0.3,0.2
2026-02-07T0300,4108A,117.7107,36.2385,济南市,山财大街5号,,38,36,37,26,11,36,,,,30,18,7,8,0.8,0.7
2026-02-07T0300,4109A,116.9744,36.6889,济南市,无影山路12号,颗粒物(PM10),52,53,47,26,12,8,,,,44,20,4,5,0.4,0.5
2026-02-07T0300,1653A,116.6229,35.4288,济宁市,火炬城,颗粒物(PM10),52,54,54,20,10,29,,,,25,16,2,2,0.4,0.3
2026-02-07T0300,3500A,116.5808,35.3703,济宁市,北湖一中,,46,46,51,19,10,37,,,,27,19,2,4,0.2,0.2
2026-02-07T0300,3501A,116.8251,35.5592,济宁市,服务中心,,,46,57,36,18,32,,,,17,10,,3,0.4,0.4
2026-02-07T0300,3678A,116.5907,35.4054,济宁市,市第七中学,,46,46,59,26,13,36,,,,24,17,7,8,0.4,0.3
2026-02-07T0300,4111A,116.6075,35.4566,济宁市,任和路,颗粒物(PM10),56,62,59,26,13,26,,,,29,19,6,5,0.5,0.4
2026-02-07T0300,4112A,116.5648,35.3921,济宁市,文体南路1号,颗粒物(PM10),53,56,57,24,12,37,,,,21,15,2,3,0.3,0.3
2026-02-07T0300,2255A,130.2749,46.8028,佳木斯市,佳纺,,19,18,23,13,16,50,,,,11,6,13,7,0.5,0.5
2026-02-07T0300,2257A,130.3258,46.7975,佳木斯市,环保局,,20,19,21,8,14,61,,,,5,7,6,8,0.3,0.2
2026-02-07T0300,4285A,130.363,46.806,佳木斯市,顺和街,,21,21,20,11,16,61,,,,8,11,5,6,0.6,0.5
2026-02-07T0300,4286A,130.3952,46.8268,佳木斯市,长安路196号,,20,20,19,8,13,61,,,,10,4,15,6,0.2,0.3
2026-02-07T0300,1252A,120.7439,30.778,嘉兴市,清河小学,,19,19,44,3,22,57,,,,14,21,5,5,0.4,0.3
2026-02-07T0300,1253A,120.7261,30.7477,嘉兴市,嘉兴学院,,22,22,48,12,29,61,,,,16,20,4,4,0.4,0.5
2026-02-07T0300,2872A,120.7845,30.7524,嘉兴市,南湖区残联,,,16,36,10,26,64,,,,12,19,,3,0.4,0.5
2026-02-07T0300,3407A,120.6915,30.7741,嘉兴市,秀洲住建,,19,18,46,8,25,60,,,,14,19,5,6,0.4,0.5
2026-02-07T0300,1945A,98.291,39.7705,嘉峪关市,气象局,颗粒物(PM10),91,132,330,40,112,62,,,,10,6,7,8,0.4,0.3
2026-02-07T0300,2884A,98.2672,39.7978,嘉峪关市,酒钢宾馆,,,146,325,35,112,46,,,,12,10,8,10,,0.5
2026-02-07T0300,3248A,98.2644,39.7723,嘉峪关市,雄关区,颗粒物(PM10),85,119,373,42,107,20,,,,41,11,8,9,0.4,0.4
2026-02-07T0300,1383A,113.1063,22.6058,江门市,北街,,40,40,37,27,19,31,,,,41,30,/,/,/,/
2026-02-07T0300,1384A,113.073,22.5835,江门市,西区,,45,45,35,30,19,26,,,,44,33,/,/,/,/
2026-02-07T0300,1385A,113.0218,22.531,江门市,圭峰西,,32,26,28,22,15,42,,,,29,17,/,/,/,/
2026-02-07T0300,1386A,113.0826,22.5947,江门市,东湖,细颗粒物(PM2.5),54,51,33,38,19,28,,,,38,29,8,8,0.6,0.5
2026-02-07T0300,3311A,113.1077,22.5647,江门市,江海富民,颗粒物(PM10),51,51,50,28,23,31,,,,45,35,/,/,0.6,0.5
2026-02-07T0300,3449A,113.0496,22.4669,江门市,新会银湖,,39,34,32,27,20,2,,,,57,32,6,7,0.5,0.4
2026-02-07T0300,3335A,113.3137,35.2643,焦作市,马村街道办,颗粒物(PM10),63,76,76,25,26,40,,,,17,15,12,7,0.4,0.4
2026-02-07T0300,3336A,113.2464,35.2374,焦作市,焦作技师学院,,,76,78,35,26,37,,,,19,15,,7,0.5,0.4
2026-02-07T0300,3477A,113.1656,35.2536,焦作市,中站许衡医院,颗粒物(PM10),54,57,63,31,28,48,,,,9,15,9,7,0.6,0.5
2026-02-07T0300,3981A,113.2456,35.18,焦作市,原李万街道办,颗粒物(PM10),54,58,68,36,26,43,,,,20,17,5,5,0.5,0.5
2026-02-07T0300,4264A,113.234,35.219,焦作市,新安路1731号,颗粒物(PM10),62,73,81,38,30,44,,,,16,13,9,7,0.3,0.3
2026-02-07T0300,4295A,113.2722,35.2121,焦作市,人民路3066号,颗粒物(PM10),71,92,74,27,26,34,,,,21,16,10,8,0.7,0.6
2026-02-07T0300,1708A,116.3701,23.5345,揭阳市,新兴,细颗粒物(PM2.5),59,56,62,42,39,58,,,,17,32,8,8,0.6,0.9
2026-02-07T0300,1709A,116.3261,23.5442,揭阳市,西马,细颗粒物(PM2.5),58,60,67,41,39,53,,,,13,29,5,7,0.6,0.8
2026-02-07T0300,1710A,116.361,23.5627,揭阳市,东兴,细颗粒物(PM2.5),60,48,59,43,37,51,,,,15,28,8,10,/,/
2026-02-07T0300,1711A,116.4151,23.5295,揭阳市,渔湖,细颗粒物(PM2.5),68,,63,49,41,65,,,,14,32,4,6,/,/
2026-02-07T0300,3320A,116.4028,23.5699,揭阳市,曲溪,细颗粒物(PM2.5),55,45,53,39,36,61,,,,11,26,3,6,0.6,0.8
2026-02-07T0300,1944A,102.1691,38.5166,金昌市,天庆家园,颗粒物(PM10),64,78,209,23,55,73,,,,4,5,3,5,0.2,0.2
2026-02-07T0300,4022A,102.1648,38.5369,金昌市,金川区人防中心,颗粒物(PM10),61,71,212,23,57,66,,,,3,4,7,8,0.4,0.3
2026-02-07T0300,4239A,102.193042,38.531887,金昌市,长春路96号,颗粒物(PM10),65,80,209,16,49,65,,,,4,4,4,6,0.5,0.5
2026-02-07T0300,1262A,119.6478,29.0773,金华市,十五中,,16,,28,7,19,51,,,,12,17,2,2,0.5,0.7
2026-02-07T0300,1263A,119.6859,29.1032,金华市,监测站,,15,11,26,6,18,45,,,,21,27,1,2,0.4,0.6
2026-02-07T0300,3659A,119.656,29.1132,金华市,气象局,,14,11,20,3,17,44,,,,18,25,1,2,0.4,0.7
2026-02-07T0300,1767A,121.1114,41.0879,锦州市,南山,细颗粒物(PM2.5),59,51,34,42,25,23,,,,26,17,11,10,1.1,0.7
2026-02-07T0300,1768A,121.060361,40.842794,锦州市,开发区,细颗粒物(PM2.5),80,90,40,59,27,13,,,,47,26,31,10,1.5,0.5
2026-02-07T0300,1769A,121.1836,41.1118,锦州市,百股街道,细颗粒物(PM2.5),55,49,39,39,28,15,,,,40,22,8,8,1.1,0.7
2026-02-07T0300,1770A,121.1176,41.1224,锦州市,天安街道,,44,44,34,26,21,31,,,,32,18,6,7,0.9,0.7
2026-02-07T0300,1771A,121.1303,41.1385,锦州市,北湖公园,,44,44,43,19,32,58,,,,11,16,10,12,0.6,0.7
2026-02-07T0300,2160A,112.8496,35.5051,晋城市,自来水公司,颗粒物(PM10),57,64,79,25,31,40,,,,18,14,6,6,0.5,0.6
2026-02-07T0300,2162A,112.8509,35.4886,晋城市,市环保局,颗粒物(PM10),55,60,71,36,35,46,,,,18,16,5,4,0.4,0.5
2026-02-07T0300,3620A,112.8258,35.4804,晋城市,泽州一中,,48,48,96,29,41,50,,,,12,12,4,4,0.5,0.5
2026-02-07T0300,4078A,112.8246,35.5152,晋城市,前书院路,颗粒物(PM10),62,74,83,27,30,27,,,,20,14,5,6,0.3,0.4
2026-02-07T0300,4079A,112.8864,35.4773,晋城市,祥云街666号,颗粒物(PM10),53,56,78,32,42,42,,,,24,18,6,7,0.4,0.5
2026-02-07T0300,2174A,112.6992,37.6984,晋中市,榆次区政府,细颗粒物(PM2.5),72,61,77,52,38,2,,,,55,32,7,9,0.6,0.5
2026-02-07T0300,2865A,112.7195,37.683,晋中市,榆次三中,颗粒物(PM10),54,58,79,36,40,5,,,,50,27,8,9,0.5,0.4
2026-02-07T0300,4080A,112.7375,37.7215,晋中市,广安街188号,细颗粒物(PM2.5),64,74,81,46,41,1,,,,52,28,7,8,0.6,0.4
2026-02-07T0300,4200A,112.7478,37.6954,晋中市,迎宾街26号,细颗粒物(PM2.5),72,63,81,52,40,17,,,,37,25,7,9,0.5,0.4
2026-02-07T0300,2439A,112.2012,31.048,荆门市,竹园小学,颗粒物(PM10),78,106,161,55,95,28,,,,26,27,1,1,0.2,0.6
2026-02-07T0300,2440A,112.1968,30.9892,荆门市,掇刀,细颗粒物(PM2.5),85,106,164,63,104,30,,,,19,22,4,5,0.5,0.8
2026-02-07T0300,3012A,112.1849,31.0361,荆门市,西山林语,细颗粒物(PM2.5),74,91,155,54,93,30,,,,24,25,2,2,0.8,1
2026-02-07T0300,3547A,112.1631,31.0134,荆门市,龙泉中学南校,颗粒物(PM10),82,114,173,54,93,44,,,,18,20,4,5,0.2,0.1
2026-02-07T0300,4124A,112.2213,31.0654,荆门市,新台西路6号,细颗粒物(PM2.5),79,102,164,58,103,28,,,,22,24,8,9,0.4,0.6
2026-02-07T0300,1844A,112.2493,30.3198,荆州市,市图书馆,细颗粒物(PM2.5),67,79,129,48,103,41,,,,12,21,5,7,0.6,0.9
2026-02-07T0300,1845A,112.2009,30.3543,荆州市,市委党校,细颗粒物(PM2.5),97,93,151,72,117,32,,,,20,26,5,7,0.8,1.1
2026-02-07T0300,3194A,112.2749,30.3124,荆州市,管委会,细颗粒物(PM2.5),72,84,127,52,109,40,,,,14,21,5,7,0.6,0.9
2026-02-07T0300,4268A,112.1722,30.3366,荆州市,学苑路85号,细颗粒物(PM2.5),84,87,142,62,116,36,,,,12,21,8,8,0.5,0.7
2026-02-07T0300,2343A,117.2114,29.2931,景德镇市,老干部活动中心,,12,7,12,3,7,37,,,,5,10,4,4,0.5,0.8
2026-02-07T0300,2344A,117.1893,29.2789,景德镇市,兽医站,,12,12,20,3,7,38,,,,9,13,3,4,0.6,0.8
2026-02-07T0300,2346A,117.246,29.2958,景德镇市,陶研所,,12,6,9,3,8,38,,,,7,11,3,3,0.5,0.8
2026-02-07T0300,4289A,117.154766,29.256967,景德镇市,青少年活动中心,,13,6,11,3,9,39,,,,8,14,3,3,/,/
2026-02-07T0300,1803A,115.9873,29.6816,九江市,十里,,25,23,55,17,44,50,,,,13,19,4,5,0.6,0.9
2026-02-07T0300,1804A,115.9583,29.7047,九江市,茅山头,,34,34,58,23,49,54,,,,6,15,5,4,0.4,0.7
2026-02-07T0300,1805A,115.9877,29.7295,九江市,西园,,29,27,65,20,46,54,,,,15,24,6,6,0.7,0.8
2026-02-07T0300,1808A,115.9112,29.6038,九江市,综合工业园,,26,,58,18,39,48,,,,19,23,3,3,0.5,0.6
2026-02-07T0300,3190A,116.0254,29.6995,九江市,外国语学校,,28,27,52,19,42,45,,,,13,22,2,3,0.5,0.7
2026-02-07T0300,4253A,116.010205,29.659402,九江市,莲花大道8号,,26,26,62,18,38,48,,,,9,13,2,3,0.2,0.5
2026-02-07T0300,4240A,98.495752,39.733935,酒泉市,玉门东路5号,颗粒物(PM10),131,212,152,57,130,29,,,,12,6,8,8,0.5,0.3
2026-02-07T0300,4241A,98.5099,39.7506,酒泉市,北大街108号,颗粒物(PM10),89,127,516,45,128,50,,,,6,3,7,8,0.5,0.2
2026-02-07T0300,2698A,76.0071,39.466,喀什地区,巡警大队,颗粒物(PM10),488,588,242,127,87,52,,,,20,48,5,8,0.7,1.8
2026-02-07T0300,2699A,75.9756,39.4693,喀什地区,吾办,颗粒物(PM10),432,532,224,130,94,50,,,,22,43,4,7,0.7,1.6
2026-02-07T0300,4027A,75.9485,39.4688,喀什地区,老干局,颗粒物(PM10),462,562,253,117,87,53,,,,17,39,6,9,0.8,1.9
2026-02-07T0300,1824A,114.3389,34.778,开封市,肿瘤医院,颗粒物(PM10),55,59,76,37,32,42,,,,26,24,10,9,0.6,0.5
2026-02-07T0300,1826A,114.2884,34.7966,开封市,世纪星幼儿园,颗粒物(PM10),58,66,72,30,31,38,,,,27,26,8,9,0.5,0.5
2026-02-07T0300,3147A,114.3434,34.8101,开封市,龙亭公园,颗粒物(PM10),59,68,72,32,30,36,,,,22,21,8,9,0.7,0.6
2026-02-07T0300,3210A,114.3645,34.7955,开封市,汴京公园,颗粒物(PM10),54,57,75,37,29,36,,,,18,17,5,6,0.8,0.7
2026-02-07T0300,3473A,114.2485,34.8306,开封市,技师学院,颗粒物(PM10),56,62,71,23,27,34,,,,25,23,7,8,0.7,0.7
2026-02-07T0300,3592A,114.4518,34.7503,开封市,祥符区生态环境局,颗粒物(PM10),59,67,79,33,33,28,,,,38,26,10,10,0.7,0.7
2026-02-07T0300,1951A,84.886,45.6029,克拉玛依市,长征新村,颗粒物(PM10),72,94,73,31,28,65,,,,18,18,5,5,0.6,0.6
2026-02-07T0300,1952A,84.8894,45.5827,克拉玛依市,南林小区,颗粒物(PM10),69,88,71,26,25,47,,,,32,20,4,3,0.8,0.6
2026-02-07T0300,1954A,84.896,44.3328,克拉玛依市,独山子区,颗粒物(PM10),69,88,52,32,36,87,,,,2,4,3,3,0.6,0.9
2026-02-07T0300,1955A,85.6888,46.0909,克拉玛依市,乌尔禾区商贸楼,颗粒物(PM10),83,115,75,57,32,22,,,,43,22,7,8,1.6,0.7
2026-02-07T0300,3612A,85.1045,45.6895,克拉玛依市,白碱滩区新站,颗粒物(PM10),67,83,77,35,31,39,,,,32,21,8,9,0.7,0.6
2026-02-07T0300,2697A,76.1457,39.7143,克孜勒苏柯尔克孜自治州,市人民政府,颗粒物(PM10),500,894,260,134,76,70,,,,8,13,3,4,0.2,0.1
2026-02-07T0300,3665A,76.1654,39.7157,克孜勒苏柯尔克孜自治州,克州文化中心,颗粒物(PM10),500,729,280,127,79,67,,,,10,13,3,4,0.4,0.6
2026-02-07T0300,1450A,102.8203,24.889,昆明市,呈贡新区,细颗粒物(PM2.5),74,66,48,54,31,9,,,,49,24,5,6,0.7,0.5
2026-02-07T0300,1452A,102.7253,25.0904,昆明市,龙泉镇,细颗粒物(PM2.5),149,136,56,114,43,0,,,,77,32,5,5,1.0,0.6
2026-02-07T0300,1453A,102.7267,25.0378,昆明市,东风东路,细颗粒物(PM2.5),120,112,57,91,39,56,,,,31,20,9,8,0.8,0.5
2026-02-07T0300,1454A,102.6744,25.0671,昆明市,金鼎山,细颗粒物(PM2.5),132,139,57,100,40,31,,,,45,18,7,6,1.1,0.7
2026-02-07T0300,1455A,102.6643,25.0401,昆明市,碧鸡广场,细颗粒物(PM2.5),119,100,54,90,39,42,,,,35,22,4,6,0.8,0.6
2026-02-07T0300,3179A,102.7491,25.012,昆明市,官渡区博物馆,细颗粒物(PM2.5),84,74,52,62,35,62,,,,21,21,4,6,0.7,0.6
2026-02-07T0300,3375A,102.8016,24.8336,昆明市,青年创业园,,,,42,,27,,,108,,,22,,8,,0.6
2026-02-07T0300,3550A,102.8,24.9787,昆明市,昆明学院,细颗粒物(PM2.5),67,75,58,48,29,50,,,,32,23,5,6,0.8,0.7
2026-02-07T0300,3551A,102.5969,24.6738,昆明市,晋宁区生态环境分局,细颗粒物(PM2.5),112,94,64,84,48,28,,,,42,19,2,4,0.9,0.6
2026-02-07T0300,3552A,102.6673,24.9861,昆明市,云天化总部,细颗粒物(PM2.5),119,120,75,90,43,26,,,,63,24,8,10,0.8,0.6
2026-02-07T0300,1456A,91.132,29.6515,拉萨市,八廓街,,18,18,20,6,11,56,,,,16,14,7,7,0.6,0.5
2026-02-07T0300,1457A,91.1221,29.6748,拉萨市,市环保局,,21,21,24,13,13,37,,,,26,20,7,8,0.8,0.6
2026-02-07T0300,1458A,91.0874,29.6476,拉萨市,区监测站,,22,21,13,15,8,36,,,,34,20,4,4,1.1,0.6
2026-02-07T0300,1459A,91.1774,29.6541,拉萨市,西藏大学,,17,15,15,3,8,54,,,,15,14,4,4,0.3,0.3
2026-02-07T0300,1460A,90.9798,29.6586,拉萨市,区辐射站,,34,34,26,18,15,22,,,,41,23,3,4,0.8,0.5
2026-02-07T0300,1461A,91.0831,29.6292,拉萨市,拉萨火车站,,17,17,12,11,7,45,,,,23,16,4,4,0.5,0.4
2026-02-07T0300,2520A,109.2203,23.7252,来宾市,来宾技工学校,,29,22,47,20,29,36,,,,9,12,5,7,1.0,0.9
2026-02-07T0300,3535A,109.1781,23.7293,来宾市,兴宾区政府,,37,37,47,20,25,44,,,,10,12,5,6,1.0,0.9
2026-02-07T0300,4002A,109.2312,23.7428,来宾市,中南小学,,33,33,51,23,34,36,,,,11,16,5,6,1.0,1
2026-02-07T0300,1479A,103.8309,36.0467,兰州市,铁路设计院,,,,,,,,,,,,,,,,
2026-02-07T0300,3241A,103.7439,36.0841,兰州市,百合公园,颗粒物(PM10),56,61,88,23,33,72,,,,9,17,8,5,0.5,0.6
2026-02-07T0300,3242A,103.9613,35.9985,兰州市,和平,颗粒物(PM10),57,63,94,22,32,88,,,,5,11,7,9,0.4,0.6
2026-02-07T0300,4236A,103.629272,36.093822,兰州市,庄浪东路808号,颗粒物(PM10),61,72,94,22,30,81,,,,8,16,8,11,0.3,0.5
2026-02-07T0300,4237A,103.7251,36.104344,兰州市,安宁西路88号,颗粒物(PM10),68,86,105,29,32,79,,,,7,11,6,8,0.3,0.3
2026-02-07T0300,4238A,103.846982,36.067567,兰州市,北滨河东路1号,颗粒物(PM10),63,76,93,26,33,75,,,,15,23,7,8,0.5,0.5
2026-02-07T0300,1067A,116.6712,39.5109,廊坊市,药材公司,颗粒物(PM10),52,53,24,26,9,3,,,,57,15,3,3,0.5,0.3
2026-02-07T0300,1068A,116.7215,39.5592,廊坊市,开发区,,46,46,14,17,5,25,,,,40,15,3,3,0.3,0.3
2026-02-07T0300,1070A,116.7246,39.5273,廊坊市,北华航天学院,颗粒物(PM10),52,53,19,23,6,19,,,,48,18,2,2,0.4,0.2
2026-02-07T0300,2919A,116.7022,39.5454,廊坊市,河北工业大学,,49,49,19,23,7,20,,,,41,14,3,3,0.4,0.3
2026-02-07T0300,2536A,103.7629,29.5844,乐山市,牛耳桥,细颗粒物(PM2.5),89,83,96,66,74,73,,,,19,30,5,6,0.8,0.9
2026-02-07T0300,2537A,103.7501,29.6002,乐山市,市第三水厂,细颗粒物(PM2.5),89,94,100,66,68,60,,,,30,41,3,4,1.0,1.1
2026-02-07T0300,2538A,103.7571,29.5664,乐山市,市监测站,细颗粒物(PM2.5),87,86,96,64,69,69,,,,18,27,6,6,1.0,1.2
2026-02-07T0300,3361A,103.7313,29.563,乐山市,理工大学,细颗粒物(PM2.5),89,92,67,66,69,61,,,,21,24,4,3,1.4,1.3
2026-02-07T0300,2599A,100.2497,26.8802,丽江市,丽江古城,,28,27,29,17,14,88,,,,8,12,6,6,0.4,0.4
2026-02-07T0300,2600A,100.2203,26.8906,丽江市,市中心,,28,21,21,17,14,88,,,,8,13,5,6,0.4,0.4
2026-02-07T0300,1267A,119.9141,28.4513,丽水市,监测站大楼,,,,20,0,15,54,,,,10,18,4,4,0.2,0.5
2026-02-07T0300,1268A,119.93,28.4589,丽水市,莲都小学,,18,6,21,3,13,55,,,,10,16,/,/,/,/
2026-02-07T0300,1269A,119.8794,28.4232,丽水市,余庄前,,15,6,24,3,16,46,,,,10,21,4,4,0.3,0.6
2026-02-07T0300,1173A,119.1759,34.5885,连云港市,市环境监测站,,29,29,48,7,15,55,,,,28,24,14,11,0.5,0.4
2026-02-07T0300,3000A,119.3577,34.6971,连云港市,德源药业,,39,39,53,14,13,60,,,,7,9,7,6,1.1,0.9
2026-02-07T0300,3007A,119.178,34.8442,连云港市,新城一中,,42,42,60,11,13,58,,,,26,24,14,11,0.2,0.5
2026-02-07T0300,3008A,119.3607,34.7519,连云港市,胡沟管理处,,22,19,39,12,11,68,,,,8,10,8,8,1.0,0.8
2026-02-07T0300,3009A,119.1478,34.5913,连云港市,矿山设计院,,31,31,49,7,10,60,,,,15,16,10,9,0.7,0.7
2026-02-07T0300,3434A,119.2414,34.6539,连云港市,工贸学校,,42,42,42,14,11,59,,,,17,17,16,11,0.8,0.4
2026-02-07T0300,3664A,119.4171,34.734,连云港市,连云街道,,29,29,40,8,10,69,,,,16,22,5,6,0.5,0.5
2026-02-07T0300,2573A,102.2629,27.8981,凉山彝族自治州,西昌市政府,,24,24,28,15,22,64,,,,7,9,6,7,0.5,0.6
2026-02-07T0300,2574A,102.2686,27.885,凉山彝族自治州,凉山州政府,,32,28,27,22,21,49,,,,11,10,8,9,0.7,0.7
2026-02-07T0300,4229A,102.2342,27.8859,凉山彝族自治州,凯乐南路30号,,33,33,39,14,18,28,,,,31,18,7,10,0.5,0.6
2026-02-07T0300,2212A,123.1978,41.2036,辽阳市,宏伟区,"颗粒物(PM10),细颗粒物(PM2.5)",73,95,43,53,15,6,,,,37,8,8,6,1.3,0.5
2026-02-07T0300,2213A,123.1684,41.2497,辽阳市,新华园,颗粒物(PM10),75,99,53,53,23,5,,,,64,21,20,12,1.6,0.6
2026-02-07T0300,2214A,123.2355,41.2663,辽阳市,滨河路,,45,45,33,28,13,26,,,,29,15,6,5,0.8,0.6
2026-02-07T0300,4083A,123.153,41.2874,辽阳市,铁西路150号,颗粒物(PM10),76,101,45,54,20,9,,,,60,16,16,9,1.4,0.6
2026-02-07T0300,2227A,125.1359,42.8845,辽源市,环保局,颗粒物(PM10),54,58,45,27,19,19,,,,37,18,2,2,0.9,0.7
2026-02-07T0300,4085A,125.0998,42.9134,辽源市,安宁大街333号,细颗粒物(PM2.5),52,49,38,36,20,24,,,,30,15,3,5,0.8,0.5
2026-02-07T0300,1625A,115.9789,36.4372,聊城市,区政府,细颗粒物(PM2.5),52,51,55,36,13,45,,,,18,20,11,14,0.6,0.7
2026-02-07T0300,3200A,115.9772,36.4986,聊城市,监控中心,,49,48,54,34,15,41,,,,26,20,8,10,0.7,0.7
2026-02-07T0300,3513A,116.0443,36.436,聊城市,九州社区,细颗粒物(PM2.5),72,72,66,52,14,48,,,,14,9,2,5,0.6,0.5
2026-02-07T0300,4018A,116.0564,36.4609,聊城市,星美广场,颗粒物(PM10),59,67,68,37,15,39,,,,18,17,4,5,0.6,0.6
2026-02-07T0300,4113A,116.0091,36.4495,聊城市,利民路,颗粒物(PM10),51,51,55,29,12,40,,,,18,19,8,11,0.7,0.7
2026-02-07T0300,2632A,94.3683,29.6373,林芝市,林芝监测站,,21,14,10,8,7,65,,,,2,3,5,4,0.4,0.4
2026-02-07T0300,2633A,94.3616,29.6634,林芝市,林芝人民医院,,20,15,15,8,9,64,,,,2,3,5,5,0.3,0.3
2026-02-07T0300,2603A,100.0779,23.8981,临沧市,市环保局,,,,34,34,26,,,,,8,13,6,8,0.6,0.6
2026-02-07T0300,2604A,100.0894,23.882,临沧市,市气象局,,44,44,46,28,26,47,,,,9,11,6,9,0.5,0.5
2026-02-07T0300,1733A,111.5552,36.0791,临汾市,临钢医院,颗粒物(PM10),77,104,143,52,54,11,,,,34,35,16,17,1.0,1.1
2026-02-07T0300,1734A,111.4984,36.0734,临汾市,技工学校,颗粒物(PM10),67,84,125,44,49,29,,,,30,38,10,15,0.7,0.8
2026-02-07T0300,1736A,111.5017,36.0857,临汾市,市委,颗粒物(PM10),66,81,133,24,42,37,,,,25,35,8,15,0.6,0.9
2026-02-07T0300,3018A,111.5048,36.1015,临汾市,唐尧大酒店,颗粒物(PM10),73,95,139,22,41,43,,,,23,41,8,17,0.7,1
2026-02-07T0300,4244A,111.4879,36.053,临汾市,启星学校,"颗粒物(PM10),细颗粒物(PM2.5)",68,86,132,49,53,30,,,,31,37,11,16,0.9,1
2026-02-07T0300,4271A,103.2464,35.6123,临夏回族自治州,滨河东路1号,颗粒物(PM10),63,76,120,26,43,62,,,,12,18,4,8,0.3,0.7
2026-02-07T0300,4310A,103.207136,35.599807,临夏回族自治州,新华街21号,颗粒物(PM10),64,77,119,24,38,60,,,,11,17,4,9,0.4,0.6
2026-02-07T0300,1618A,118.3429,35.0532,临沂市,沂河小区,,34,34,52,12,6,55,,,,15,16,6,8,0.2,0.2
2026-02-07T0300,1619A,118.2962,35.0568,临沂市,鲁南制药厂,,29,29,48,9,7,55,,,,13,15,8,11,0.2,0.2
2026-02-07T0300,1620A,118.2793,34.9976,临沂市,新光毛纺厂,,29,29,44,20,19,53,,,,17,16,7,9,0.3,0.3
2026-02-07T0300,1621A,118.3955,35.0889,临沂市,河东保险公司,,34,34,48,15,8,51,,,,20,18,7,9,0.5,0.5
2026-02-07T0300,3370A,118.3563,35.0215,临沂市,十里堡居委,,22,22,45,9,5,62,,,,20,18,6,8,0.3,0.3
2026-02-07T0300,3496A,118.359,35.1067,临沂市,南坊新区,,27,27,45,14,7,55,,,,15,15,8,9,0.2,0.3
2026-02-07T0300,3860A,118.3915,35.0297,临沂市,皇山花园小区,,27,27,53,12,9,60,,,,18,18,10,11,0.4,0.4
2026-02-07T0300,1870A,109.4854,24.3898,柳州市,柳东小学,,26,22,49,18,32,48,,,,10,15,8,10,0.8,0.8
2026-02-07T0300,1871A,109.4109,24.3304,柳州市,环保监测站,,25,19,50,17,31,38,,,,11,22,4,5,1.0,1.1
2026-02-07T0300,1872A,109.3886,24.3408,柳州市,河西水厂,,19,19,53,12,36,40,,,,12,21,6,9,0.7,1.2
2026-02-07T0300,1873A,109.4263,24.2951,柳州市,市四中,,20,18,46,14,34,39,,,,10,20,6,6,0.9,1.2
2026-02-07T0300,1874A,109.396,24.3658,柳州市,市九中,,19,19,18,13,31,38,,,,8,19,8,10,0.9,1.1
2026-02-07T0300,1875A,109.4912,24.3164,柳州市,古亭山,,26,24,42,18,36,48,,,,9,16,6,6,0.9,0.8
2026-02-07T0300,3402A,109.5422,24.3994,柳州市,市二中,,29,21,44,20,39,68,,,,14,22,10,11,0.7,0.8
2026-02-07T0300,2307A,116.5078,31.7369,六安市,监测大楼,,28,28,56,12,34,48,,,,12,14,2,2,0.2,0.3
2026-02-07T0300,2308A,116.4738,31.7642,六安市,皖西学院,,33,33,61,13,36,56,,,,14,15,3,4,0.3,0.3
2026-02-07T0300,2309A,116.4997,31.7904,六安市,朝阳厂,,33,33,52,12,34,53,,,,12,16,3,4,0.2,0.3
2026-02-07T0300,2310A,116.5566,31.7885,六安市,开发区,,19,19,50,11,34,54,,,,3,4,4,4,0.1,0.3
2026-02-07T0300,2577A,104.8293,26.592,六盘水市,黄土坡,,42,35,44,29,32,82,,,,12,16,7,10,0.8,0.9
2026-02-07T0300,2579A,104.8481,26.5898,六盘水市,民中,,49,39,46,34,35,82,,,,11,15,5,6,0.8,0.8
2026-02-07T0300,2580A,104.9541,26.5506,六盘水市,双水,,46,39,46,32,30,88,,,,9,11,5,6,0.5,0.7
2026-02-07T0300,4151A,104.8899,26.5685,六盘水市,钟山大道中段564号,,47,47,56,31,33,79,,,,8,12,6,8,1.0,1.2
2026-02-07T0300,2336A,117.022,25.1031,龙岩市,龙岩市监测站,,45,32,34,31,25,60,,,,7,20,9,13,0.8,0.7
2026-02-07T0300,2337A,117.0257,25.0662,龙岩市,闽西职业技术学院,,39,33,34,27,21,62,,,,7,17,7,8,0.8,0.6
2026-02-07T0300,2338A,117.0195,25.0306,龙岩市,龙岩学院,,46,33,27,32,18,62,,,,8,12,6,5,/,/
2026-02-07T0300,2885A,104.9344,33.3827,陇南市,滨江中学,颗粒物(PM10),77,103,71,36,28,83,,,,5,19,3,5,0.5,0.8
2026-02-07T0300,3247A,104.9551,33.3709,陇南市,市总工会,颗粒物(PM10),73,95,68,41,35,79,,,,8,16,2,3,0.5,0.8
2026-02-07T0300,2488A,111.9984,27.7346,娄底市,市监测站,细颗粒物(PM2.5),178,167,99,134,86,63,,,,19,21,14,8,0.8,1
2026-02-07T0300,2491A,111.9888,27.7035,娄底市,市政府,细颗粒物(PM2.5),153,173,98,117,76,68,,,,16,17,5,4,0.5,0.5
2026-02-07T0300,4127A,111.9812,27.7591,娄底市,涟钢职大,细颗粒物(PM2.5),182,167,108,137,83,66,,,,14,18,4,5,1.1,2.1
2026-02-07T0300,4128A,112.0303,27.7457,娄底市,娄底体校,细颗粒物(PM2.5),159,153,112,121,83,63,,,,8,11,2,2,0.7,0.9
2026-02-07T0300,1894A,105.4427,28.9063,泸州市,小市上码头,细颗粒物(PM2.5),137,143,119,104,90,55,,,,29,26,6,5,1.1,1.1
2026-02-07T0300,1895A,105.4241,28.8573,泸州市,兰田宪桥,细颗粒物(PM2.5),128,145,118,97,78,34,,,,38,24,9,9,1.1,1
2026-02-07T0300,1896A,105.4378,28.8833,泸州市,市环监站,细颗粒物(PM2.5),185,160,135,139,107,60,,,,25,25,11,11,0.9,0.9
2026-02-07T0300,4272A,105.3689,28.7783,泸州市,纳溪中医医院,细颗粒物(PM2.5),150,120,106,115,91,3,,,,31,25,8,8,1.1,1.1
2026-02-07T0300,2183A,111.1447,37.5212,吕梁市,环保局,,29,29,70,13,28,62,,,,13,38,7,11,0.4,0.5
2026-02-07T0300,2185A,111.1285,37.5338,吕梁市,自来水公司,,34,34,76,10,30,63,,,,11,33,5,13,0.4,0.5
2026-02-07T0300,2867A,111.1225,37.5093,吕梁市,马茂庄小学,,34,34,80,3,28,62,,,,14,39,5,13,0.2,0.4
2026-02-07T0300,1812A,112.3934,34.6517,洛阳市,市委党校,"颗粒物(PM10),细颗粒物(PM2.5)",59,68,66,42,30,25,,,,37,27,8,9,0.7,0.6
2026-02-07T0300,1815A,112.494,34.6883,洛阳市,河南林校,颗粒物(PM10),62,73,75,32,27,33,,,,36,33,10,10,0.4,0.4
2026-02-07T0300,1816A,112.3843,34.623,洛阳市,开发区管委会,颗粒物(PM10),69,88,72,34,27,16,,,,46,26,9,11,0.5,0.5
2026-02-07T0300,1817A,112.4263,34.6249,洛阳市,市委新办公区,颗粒物(PM10),59,67,65,30,26,33,,,,32,29,9,10,0.5,0.5
2026-02-07T0300,3340A,112.6005,34.6323,洛阳市,伊滨,颗粒物(PM10),71,91,76,39,32,6,,,,52,26,6,8,0.8,0.6
2026-02-07T0300,3341A,112.495,34.6338,洛阳市,中移产业园,颗粒物(PM10),61,71,69,41,30,11,,,,53,32,9,10,0.6,0.5
2026-02-07T0300,3593A,112.5736,34.8993,洛阳市,吉利监测站,颗粒物(PM10),61,72,76,25,30,16,,,,41,28,8,9,0.6,0.6
2026-02-07T0300,3635A,112.3678,34.6623,洛阳市,河科大西苑校区,,,65,70,28,33,18,,,,47,30,,9,0.7,0.6
2026-02-07T0300,3636A,112.4387,34.678,洛阳市,英才小学,颗粒物(PM10),59,68,71,33,30,33,,,,36,32,9,10,0.6,0.7
2026-02-07T0300,4214A,112.460027,34.694929,洛阳市,春都路1号院,颗粒物(PM10),62,73,83,28,31,26,,,,33,25,8,8,0.5,0.5
2026-02-07T0300,2399A,114.051,33.5721,漯河市,三五一五工厂,颗粒物(PM10),73,95,109,46,42,26,,,,26,22,6,6,0.6,0.6
2026-02-07T0300,2400A,114.0055,33.5698,漯河市,漯河大学,颗粒物(PM10),69,88,96,45,42,32,,,,27,22,8,7,0.6,0.6
2026-02-07T0300,2401A,114.0134,33.5826,漯河市,市水利局,颗粒物(PM10),70,90,103,43,42,27,,,,28,26,7,6,0.5,0.5
2026-02-07T0300,2402A,114.0261,33.5697,漯河市,市广电局,颗粒物(PM10),73,95,103,47,45,25,,,,21,17,8,8,0.5,0.5
2026-02-07T0300,3478A,113.9691,33.568,漯河市,市图书馆,颗粒物(PM10),78,106,107,46,41,24,,,,31,21,9,7,0.9,0.8
2026-02-07T0300,4250A,114.089259,33.588274,漯河市,韶山路11号,,,89,98,41,42,10,,,,43,26,,6,0.6,0.6
2026-02-07T0300,1798A,118.5084,31.6838,马鞍山市,湖东路四小,,35,35,60,15,24,52,,,,14,15,2,2,0.3,0.4
2026-02-07T0300,1799A,118.5019,31.6449,马鞍山市,开发区,,34,34,60,15,26,57,,,,12,14,3,3,0.3,0.4
2026-02-07T0300,3633A,118.4914,31.681,马鞍山市,雨山,,30,30,60,16,24,54,,,,12,14,2,2,0.4,0.5
2026-02-07T0300,4191A,118.527362,31.722269,马鞍山市,慈湖高新区,,33,33,45,14,23,51,,,,15,15,4,4,0.2,0.3
2026-02-07T0300,1686A,111.0285,21.469,茂名市,电白南海,,,,29,,14,,,71,,,13,,9,,0.8
2026-02-07T0300,1687A,110.9294,21.6533,茂名市,茂石化七小,,,,35,,13,,,77,,,16,,8,,0.4
2026-02-07T0300,1688A,110.9108,21.6688,茂名市,健康路,,,,26,,12,,,85,,,17,,6,,0.6
2026-02-07T0300,1689A,110.8592,21.6826,茂名市,高岭,颗粒物(PM10),79,107,53,44,20,2,,,,37,16,8,9,/,/
2026-02-07T0300,3450A,111.0101,21.5165,茂名市,电白水东,,43,36,24,30,14,40,,,,25,20,8,8,/,/
2026-02-07T0300,2540A,103.8414,30.0871,眉山市,气象局,细颗粒物(PM2.5),112,107,105,84,75,10,,,,60,33,13,13,1.1,1
2026-02-07T0300,3148A,103.829,30.0563,眉山市,区人社局,细颗粒物(PM2.5),104,98,100,78,76,40,,,,38,29,10,11,0.9,0.9
2026-02-07T0300,4148A,103.8836,30.0695,眉山市,眉职院,细颗粒物(PM2.5),105,111,107,79,72,48,,,,27,20,4,4,0.9,0.9
2026-02-07T0300,1690A,116.1248,24.3307,梅州市,梅江月梅,,30,30,39,21,27,61,,,,13,23,/,/,/,/
2026-02-07T0300,1691A,116.0798,24.2719,梅州市,梅县新城,,31,31,40,21,24,64,,,,12,25,7,8,0.8,0.6
2026-02-07T0300,3315A,116.1234,24.2994,梅州市,梅龙,,32,22,41,22,26,54,,,,12,24,8,9,0.9,0.7
2026-02-07T0300,1878A,104.7775,31.4741,绵阳市,富乐山,细颗粒物(PM2.5),90,72,80,67,59,44,,,,20,16,8,8,0.8,0.9
2026-02-07T0300,1880A,104.6698,31.4668,绵阳市,高新区自来水公司,细颗粒物(PM2.5),103,106,99,77,69,58,,,,23,39,7,7,1.1,1.1
2026-02-07T0300,3491A,104.6899,31.5324,绵阳市,西科大附属小学,细颗粒物(PM2.5),107,121,117,80,77,46,,,,36,43,9,9,0.9,0.7
2026-02-07T0300,3492A,104.5647,31.5343,绵阳市,安州区旅游局,细颗粒物(PM2.5),94,88,105,70,77,55,,,,24,28,10,11,0.9,1.1
2026-02-07T0300,4146A,104.7092,31.4972,绵阳市,科技城新区公安局,细颗粒物(PM2.5),104,118,102,78,66,48,,,,39,47,5,5,1.0,1
2026-02-07T0300,4226A,104.765114,31.453094,绵阳市,绵阳市气象局,细颗粒物(PM2.5),92,90,84,68,63,29,,,,40,23,9,9,0.9,0.9
2026-02-07T0300,1784A,129.61,44.561,牡丹江市,环保大楼,,27,27,32,14,13,61,,,,10,9,2,3,0.3,0.3
2026-02-07T0300,1787A,129.6364,44.6075,牡丹江市,机车工厂,,48,48,31,27,15,46,,,,16,8,6,7,0.4,0.3
2026-02-07T0300,1788A,129.6386,44.5462,牡丹江市,第一中学,,,30,31,20,13,,,,,19,8,5,4,0.3,0.3
2026-02-07T0300,4287A,129.5992,44.5964,牡丹江市,东晓云街98号,,,32,36,11,13,,,,,8,6,3,4,0.5,0.5
2026-02-07T0300,2531A,105.0703,29.61,内江市,市监测站,细颗粒物(PM2.5),82,73,90,60,73,92,,,,16,27,7,6,0.7,0.8
2026-02-07T0300,2533A,105.0657,29.5807,内江市,内江二中,细颗粒物(PM2.5),90,68,92,67,71,92,,,,17,26,9,8,0.7,0.7
2026-02-07T0300,2534A,105.0407,29.5828,内江市,内江日报社,细颗粒物(PM2.5),88,71,82,65,72,90,,,,22,36,8,8,0.5,0.6
2026-02-07T0300,4147A,105.0433,29.6105,内江市,玉峰路西段888号,细颗粒物(PM2.5),79,80,82,58,70,84,,,,22,31,6,6,0.6,0.7
2026-02-07T0300,2628A,92.0653,31.4846,那曲市,那曲监测站,,42,42,34,29,27,28,,,,30,19,13,12,1.8,1
2026-02-07T0300,4243A,92.0515,31.4787,那曲市,那曲市委宣传部,,30,24,25,21,19,35,,,,21,12,11,9,1.4,0.9
2026-02-07T0300,1291A,115.8887,28.7006,南昌市,省林业公司,,30,,38,21,42,44,,,,7,15,3,3,0.5,0.8
2026-02-07T0300,1292A,115.813,28.7443,南昌市,林科所,,28,24,43,19,35,36,,,,14,19,7,7,0.7,0.3
2026-02-07T0300,1294A,115.8518,28.687,南昌市,建工学校,,29,27,59,20,41,36,,,,18,24,7,7,0.6,0.9
2026-02-07T0300,1295A,115.8926,28.6425,南昌市,象湖,,37,37,50,24,43,37,,,,14,18,7,7,0.7,1
2026-02-07T0300,3046A,115.9084,28.6062,南昌市,机电学校,,35,29,55,24,41,39,,,,14,21,4,4,0.4,0.7
2026-02-07T0300,3690A,115.9718,28.7032,南昌市,外国语学校,,36,33,52,25,42,36,,,,19,23,11,12,0.7,0.9
2026-02-07T0300,4106A,115.7923,28.6873,南昌市,工业二路,,30,29,53,21,37,53,,,,13,18,3,3,0.6,0.8
2026-02-07T0300,4192A,115.931587,28.686774,南昌市,南京东路235号,,30,22,54,21,37,39,,,,12,17,4,7,0.3,0.6
2026-02-07T0300,1906A,106.0791,30.8022,南充市,南充市委,细颗粒物(PM2.5),87,92,82,64,60,2,,,,54,40,3,4,0.9,0.9
2026-02-07T0300,1907A,106.1038,30.8215,南充市,南充炼油厂,细颗粒物(PM2.5),90,90,89,67,60,32,,,,26,33,6,6,0.8,0.9
2026-02-07T0300,4227A,106.108336,30.788436,南充市,梨树横街98号,细颗粒物(PM2.5),105,97,95,79,69,34,,,,26,37,6,6,0.7,0.9
2026-02-07T0300,4304A,106.1172,30.843,南充市,清泉寺北路188号,细颗粒物(PM2.5),77,63,78,56,61,62,,,,13,19,3,3,0.8,0.8
2026-02-07T0300,4305A,106.067,30.7616,南充市,同庆路1号,细颗粒物(PM2.5),92,85,79,68,59,27,,,,39,45,5,6,0.7,0.9
2026-02-07T0300,1151A,118.8033,32.1085,南京市,迈皋桥,,26,26,44,12,15,61,,,,16,16,5,5,0.2,0.1
2026-02-07T0300,1152A,118.7487,32.057,南京市,草场门,,27,27,52,14,17,44,,,,16,18,4,5,0.4,0.5
2026-02-07T0300,1154A,118.770105,32.004342,南京市,中华门,,22,22,49,3,9,59,,,,8,9,3,3,0.2,0.3
2026-02-07T0300,1155A,118.8059,32.0329,南京市,瑞金路,,20,19,49,3,10,61,,,,2,2,6,4,0.2,0.4
2026-02-07T0300,1156A,118.7946,32.0774,南京市,玄武湖,,22,22,47,9,13,62,,,,8,14,3,3,0.4,0.3
2026-02-07T0300,1157A,118.6415,32.0964,南京市,浦口,,32,32,57,3,9,52,,,,18,15,4,4,0.6,0.4
2026-02-07T0300,1158A,118.730129,32.000956,南京市,奥体中心,,27,27,53,3,11,63,,,,12,11,4,4,0.2,0.3
2026-02-07T0300,1159A,118.9072,32.1047,南京市,仙林大学城,,24,24,56,3,7,60,,,,10,13,4,5,0.3,0.3
2026-02-07T0300,3422A,118.8443,31.919,南京市,江宁彩虹桥,,29,29,56,3,12,71,,,,6,11,3,4,0.5,0.5
2026-02-07T0300,3427A,118.8497,32.3599,南京市,六合雄州,,27,27,32,3,4,58,,,,10,10,2,1,0.3,0.4
2026-02-07T0300,4086A,118.7641,32.0841,南京市,新模范马路66号,,31,31,56,3,7,81,,,,2,2,3,4,1.0,0.9
2026-02-07T0300,4249A,118.8707617,31.34017673,南京市,汶溪路181号,,33,33,63,3,17,56,,,,13,16,6,4,0.5,0.5
2026-02-07T0300,4312A,119.019,31.6512,南京市,中山西路1号,,24,24,48,3,14,55,,,,13,14,5,4,0.5,0.6
2026-02-07T0300,1401A,108.3098,22.788,南宁市,二十一中,,32,,40,22,29,38,,,,14,20,4,4,0.6,0.6
2026-02-07T0300,1402A,108.3135,22.8529,南宁市,北湖,,42,,45,29,34,43,,,,14,22,3,3,0.6,0.6
2026-02-07T0300,1403A,108.3205,22.8222,南宁市,市监测站,,32,24,40,22,29,42,,,,13,20,6,7,0.8,0.8
2026-02-07T0300,1404A,108.3828,22.8038,南宁市,大自然花园,,31,31,41,20,26,52,,,,12,16,6,6,0.7,0.6
2026-02-07T0300,1406A,108.2397,22.8462,南宁市,区农职院,,43,32,47,30,32,43,,,,16,26,5,5,0.8,0.9
2026-02-07T0300,1407A,108.3285,22.7356,南宁市,英华嘉园,,30,24,45,21,29,49,,,,10,18,3,4,0.5,0.5
2026-02-07T0300,3401A,108.4829,22.762,南宁市,红星社区,,32,24,41,22,30,51,,,,8,13,4,5,0.8,0.8
2026-02-07T0300,4132A,108.2927,23.1477,南宁市,起凤路9号,,26,22,43,18,31,61,,,,10,13,1,2,0.6,0.6
2026-02-07T0300,4221A,108.2177,22.7774,南宁市,乐贤路16号,,34,34,44,23,28,38,,,,18,25,2,5,0.8,0.8
2026-02-07T0300,2332A,118.1682,26.6371,南平市,南平市监测站,,14,6,36,3,19,44,,,,11,19,3,4,0.4,0.4
2026-02-07T0300,2334A,118.1757,26.6276,南平市,南平七中,,14,,32,3,17,44,,,,10,17,5,3,0.8,0.6
2026-02-07T0300,1168A,120.9056,31.9669,南通市,狼山街道,,23,22,50,3,7,72,,,,11,13,2,2,0.2,0.2
2026-02-07T0300,1170A,120.8635,32.0231,南通市,城中,,25,20,54,7,6,80,,,,2,3,2,3,0.3,0.3
2026-02-07T0300,1171A,120.9376,31.9301,南通市,星湖花园,,24,15,49,3,7,76,,,,10,13,3,3,0.3,0.3
2026-02-07T0300,1172A,120.8053,32.046,南通市,紫琅学院,,24,15,52,3,9,74,,,,2,3,3,3,0.5,0.6
2026-02-07T0300,3291A,121.0631,32.0644,南通市,通州监测站,,25,17,46,3,5,78,,,,8,12,2,2,0.2,0.3
2026-02-07T0300,3432A,120.9348,31.9874,南通市,环境教育馆,,27,27,51,3,6,72,,,,7,10,3,3,0.5,0.4
2026-02-07T0300,4091A,120.8692,31.9885,南通市,洪江路,,23,18,42,3,6,71,,,,4,11,3,3,0.4,0.4
2026-02-07T0300,2404A,112.5338,33.0086,南阳市,瓦房庄,颗粒物(PM10),62,73,106,28,39,39,,,,18,19,5,5,0.7,0.7
2026-02-07T0300,2405A,112.5002,32.9734,南阳市,汉画馆,颗粒物(PM10),67,83,115,44,55,38,,,,21,21,7,7,0.5,0.6
2026-02-07T0300,2406A,112.5778,33.0144,南阳市,气象站,颗粒物(PM10),71,92,127,30,40,33,,,,21,20,6,6,0.6,0.7
2026-02-07T0300,2407A,112.548,32.9687,南阳市,理工学院,颗粒物(PM10),68,85,120,32,45,35,,,,23,23,6,6,0.5,0.6
2026-02-07T0300,4008A,112.5233,32.9921,南阳市,卧龙区政府,颗粒物(PM10),68,86,114,34,43,36,,,,19,20,6,6,0.6,0.7
2026-02-07T0300,1234A,121.8352,29.9111,宁波市,区环保大楼,,24,16,47,3,23,74,,,,10,33,4,4,0.3,0.4
2026-02-07T0300,1235A,121.5595,29.8208,宁波市,万里学院,,20,18,44,3,24,64,,,,10,17,3,3,0.5,0.6
2026-02-07T0300,1236A,121.713,29.9564,宁波市,龙赛医院,,21,12,35,3,19,66,,,,12,17,2,2,0.4,0.5
2026-02-07T0300,1240A,121.5855,29.8635,宁波市,太古小学,,21,12,38,3,21,66,,,,4,13,2,2,0.5,0.6
2026-02-07T0300,1241A,121.5239,29.8673,宁波市,市环境监测中心,,25,25,55,6,22,53,,,,11,14,1,2,0.3,0.4
2026-02-07T0300,2871A,121.6156,29.9015,宁波市,万里国际学校,,22,21,52,3,23,68,,,,7,15,2,3,0.4,0.5
2026-02-07T0300,3710A,121.5593,29.8976,宁波市,白沙活动中心,,21,19,53,3,25,65,,,,11,18,3,4,0.2,0.3
2026-02-07T0300,4095A,121.8962,29.7529,宁波市,中科路88号,,24,15,34,3,25,75,,,,12,21,4,4,0.3,0.4
2026-02-07T0300,2341A,119.5387,26.6611,宁德市,宁德市监测站,,23,6,28,3,20,72,,,,14,19,3,3,0.5,0.6
2026-02-07T0300,3209A,119.5231,26.6562,宁德市,宁德一中,,24,6,27,3,24,75,,,,13,17,2,3,0.3,0.3
2026-02-07T0300,2618A,98.859,25.8541,怒江傈僳族自治州,州监测站,,50,50,37,26,20,33,,,,16,11,6,6,0.5,0.4
2026-02-07T0300,2619A,98.8607,25.8168,怒江傈僳族自治州,泸水一中,,42,29,34,29,25,23,,,,24,21,4,4,0.4,0.5
2026-02-07T0300,1888A,101.6891,26.571,攀枝花市,弄弄坪,颗粒物(PM10),61,71,55,35,27,5,,,,57,36,30,21,1.6,1
2026-02-07T0300,1889A,101.577,26.5914,攀枝花市,河门口,,42,42,46,17,20,29,,,,23,22,18,21,0.7,0.8
2026-02-07T0300,1891A,101.7365,26.4986,攀枝花市,仁和,,28,27,27,19,19,38,,,,14,16,8,10,0.6,0.6
2026-02-07T0300,2835A,101.7222,26.567,攀枝花市,四十中小,颗粒物(PM10),53,56,43,34,27,12,,,,58,42,52,27,1.3,1.1
2026-02-07T0300,1604A,122.0303,41.1489,盘锦市,开发区,,,,38,,26,,,73,,,16,,4,,0.3
2026-02-07T0300,1605A,122.0486,41.0883,盘锦市,兴隆台,,38,38,38,19,28,47,,,,28,24,13,7,0.5,0.5
2026-02-07T0300,1606A,121.8297,41.1026,盘锦市,新生街道,细颗粒物(PM2.5),72,68,39,52,27,4,,,,56,25,9,7,0.8,0.3
2026-02-07T0300,1832A,113.3257,33.7423,平顶山市,新华旅馆,颗粒物(PM10),72,94,102,38,39,31,,,,30,25,6,6,0.4,0.4
2026-02-07T0300,1833A,113.2917,33.737,平顶山市,规划设计院,颗粒物(PM10),67,83,94,39,40,39,,,,18,17,8,8,0.3,0.3
2026-02-07T0300,1834A,113.182,33.7738,平顶山市,平顶山工学院,颗粒物(PM10),68,86,92,41,41,31,,,,25,20,9,9,0.5,0.5
2026-02-07T0300,3594A,112.8736,33.9068,平顶山市,石龙区,颗粒物(PM10),84,118,107,45,45,6,,,,42,17,6,6,0.6,0.6
2026-02-07T0300,4116A,113.284,33.7139,平顶山市,姚电大道23号,颗粒物(PM10),76,102,106,41,43,40,,,,20,20,5,6,0.7,0.6
2026-02-07T0300,2656A,106.6633,35.5338,平凉市,聚贤嘉苑,颗粒物(PM10),59,68,82,26,34,75,,,,7,9,7,14,0.4,0.4
2026-02-07T0300,2657A,106.7021,35.5307,平凉市,博物馆,颗粒物(PM10),65,80,89,29,34,74,,,,6,9,8,7,0.4,0.5
2026-02-07T0300,2348A,113.8384,27.6436,萍乡市,中医院,,40,,63,28,43,45,,,,12,28,4,5,0.8,1.4
2026-02-07T0300,2350A,113.8677,27.6438,萍乡市,市环保局,,45,,58,31,44,44,,,,17,29,29,33,0.6,0.9
2026-02-07T0300,2351A,113.8663,27.6202,萍乡市,安源区政府,,43,43,62,26,44,33,,,,17,21,3,3,1.1,0.4
2026-02-07T0300,4107A,113.8686,27.6668,萍乡市,联洪村委会,,40,38,61,28,45,36,,,,15,32,2,4,0.6,0.9
2026-02-07T0300,2319A,119.0142,25.4324,莆田市,荔城区仓后路,,24,13,45,3,36,76,,,,12,23,/,/,/,/
2026-02-07T0300,2320A,119.0016,25.4553,莆田市,莆田市监测站,,26,6,42,3,35,81,,,,10,21,2,4,0.4,0.6
2026-02-07T0300,2321A,119.112,25.4561,莆田市,涵江区六中,,25,7,40,3,30,78,,,,10,22,/,/,0.4,0.6
2026-02-07T0300,2322A,119.1014,25.3215,莆田市,秀屿区政府,,27,6,36,3,28,84,,,,7,14,2,3,0.5,0.7
2026-02-07T0300,2392A,115.0312,35.7636,濮阳市,环保局,,36,36,60,20,17,53,,,,12,15,6,7,0.5,0.5
2026-02-07T0300,3021A,115,35.7667,濮阳市,濮水河管理处,,43,43,63,17,19,36,,,,20,16,5,7,0.5,0.5
2026-02-07T0300,4118A,115.0552,35.7816,濮阳市,中原东路68号,颗粒物(PM10),53,56,73,24,18,44,,,,19,20,4,6,0.4,0.5
2026-02-07T0300,4216A,115.0923632,35.76857718,濮阳市,任丘路479号,,44,44,60,18,21,44,,,,17,17,9,8,0.3,0.3
2026-02-07T0300,2601A,100.9801,22.7634,普洱市,市环保局,,37,37,41,21,17,40,,,,7,9,5,5,0.4,0.4
2026-02-07T0300,2602A,100.9763,22.8237,普洱市,普洱第二中学,,36,36,44,24,18,5,,,,41,25,5,5,0.5,0.5
2026-02-07T0300,3345A,131.0413,45.7795,七台河市,中波台,,27,27,36,15,15,59,,,,9,9,10,9,0.4,0.4
2026-02-07T0300,3637A,131.0136,45.7688,七台河市,人民广场,,24,24,35,11,14,55,,,,16,11,7,7,0.4,0.4
2026-02-07T0300,3684A,130.8639,45.8144,七台河市,新建矿广场,,19,17,35,10,14,58,,,,5,6,4,6,0.2,0.2
2026-02-07T0300,1779A,123.9307,47.3641,齐齐哈尔市,安居小区,,24,24,27,6,12,55,,,,8,11,7,7,0.3,0.4
2026-02-07T0300,1780A,123.9497,47.3389,齐齐哈尔市,中心广场,,18,10,21,3,11,57,,,,6,10,6,6,0.7,0.5
2026-02-07T0300,1781A,123.9483,47.3229,齐齐哈尔市,农牧车辆厂,,18,17,27,3,12,56,,,,5,10,5,6,0.3,0.4
2026-02-07T0300,1783A,123.9442,47.2994,齐齐哈尔市,市环境监测站,,18,15,27,6,10,57,,,,6,13,4,4,0.4,0.4
2026-02-07T0300,3662A,123.6341,47.2079,齐齐哈尔市,富区青少年活动中心,,25,25,34,6,10,64,,,,4,9,5,6,0.4,0.4
2026-02-07T0300,2591A,107.9765,26.5724,黔东南苗族侗族自治州,市环境监测站,,40,36,31,28,22,54,,,,7,10,2,3,0.7,0.7
2026-02-07T0300,2881A,107.8909,26.531,黔东南苗族侗族自治州,凯里学院,,45,31,37,31,21,26,,,,14,15,3,3,0.7,0.7
2026-02-07T0300,2593A,107.5223,26.2371,黔南布依族苗族自治州,小围寨,,33,27,21,23,20,44,,,,5,8,4,4,0.9,0.9
2026-02-07T0300,3538A,107.5175,26.2977,黔南布依族苗族自治州,沙坝,,35,27,29,24,20,54,,,,7,9,4,5,0.8,0.9
2026-02-07T0300,2589A,104.9022,25.0943,黔西南布依族苗族自治州,场坝街,细颗粒物(PM2.5),64,57,59,46,49,62,,,,8,14,3,13,0.8,0.8
2026-02-07T0300,2590A,104.8812,25.0994,黔西南布依族苗族自治州,坪东大道,细颗粒物(PM2.5),57,54,51,40,44,70,,,,7,13,6,7,0.9,1
2026-02-07T0300,2502A,108.6238,21.9667,钦州市,市环保站,细颗粒物(PM2.5),62,51,62,44,39,37,,,,12,24,2,3,0.7,0.6
2026-02-07T0300,2503A,108.655,21.9481,钦州市,沙埠小学,,48,48,63,28,33,38,,,,13,29,4,5,0.5,0.5
2026-02-07T0300,2504A,108.5989,21.7435,钦州市,港区一小,颗粒物(PM10),62,73,68,41,33,21,,,,35,40,2,2,0.7,0.7
2026-02-07T0300,3404A,108.5959,21.9634,钦州市,北职校,颗粒物(PM10),59,68,50,36,29,26,,,,19,24,2,3,0.8,0.7
2026-02-07T0300,1046A,119.5247,39.9346,秦皇岛市,建设大厦,,40,40,29,16,9,31,,,,26,17,7,7,0.6,0.4
2026-02-07T0300,3132A,119.5979,39.938,秦皇岛市,文明里,颗粒物(PM10),51,51,30,16,9,34,,,,27,14,10,10,0.6,0.3
2026-02-07T0300,4066A,119.7458,39.9952,秦皇岛市,南园路157号,,28,28,27,18,10,17,,,,52,27,8,7,0.6,0.4
2026-02-07T0300,4067A,119.5131,39.8858,秦皇岛市,翠岛大街1号,,40,40,29,17,5,32,,,,33,11,11,9,0.6,0.4
2026-02-07T0300,4198A,119.509013,39.825305,秦皇岛市,北戴河轮滑馆,,40,40,28,19,7,5,,,,68,19,7,7,1.0,0.4
2026-02-07T0300,1310A,120.404,36.0625,青岛市,市南区东部子站,,22,22,43,9,8,69,,,,5,9,11,9,0.4,0.5
2026-02-07T0300,1311A,120.362344,36.10282,青岛市,四方区子站,,22,19,44,7,7,68,,,,8,8,4,4,0.4,0.4
2026-02-07T0300,1312A,120.294373,36.054183,青岛市,市南区西部子站,,19,12,37,10,9,58,,,,5,8,4,4,0.3,0.3
2026-02-07T0300,1313A,120.4581,36.0858,青岛市,崂山区子站,,23,12,33,9,7,71,,,,6,11,11,10,0.2,0.3
2026-02-07T0300,1315A,120.3945,36.3083,青岛市,城阳区子站,,20,14,35,11,9,62,,,,11,12,6,6,0.6,0.6
2026-02-07T0300,3642A,120.3454,36.0735,青岛市,市北区南部,,20,17,42,8,8,63,,,,9,13,3,3,0.5,0.5
2026-02-07T0300,3643A,120.3897,36.18,青岛市,李沧区北部,,21,17,38,9,8,65,,,,6,8,10,9,0.3,0.3
2026-02-07T0300,4110A,120.5222,36.4089,青岛市,盟旺路653号,,24,24,38,13,8,55,,,,18,13,3,2,0.7,0.6
2026-02-07T0300,4290A,120.196923,35.954556,青岛市,珠江路669号,,22,19,40,15,12,49,,,,18,15,7,7,0.2,0.2
2026-02-07T0300,4291A,120.0424,35.8656,青岛市,黄岛区人民政府广场,,20,17,41,10,7,61,,,,12,14,7,7,0.3,0.3
2026-02-07T0300,1703A,113.0218,23.7086,清远市,凤城街办,,22,22,49,14,33,58,,,,10,33,/,/,/,/
2026-02-07T0300,3025A,113.0479,23.6343,清远市,技师学院,,35,35,57,19,29,54,,,,13,42,4,6,0.6,0.5
2026-02-07T0300,3318A,112.9898,23.7403,清远市,清新太和,,24,24,43,14,27,64,,,,12,30,8,10,0.8,0.7
2026-02-07T0300,3455A,113.076,23.72,清远市,清城东城,,30,30,49,19,29,61,,,,13,34,/,/,/,/
2026-02-07T0300,2661A,107.6325,35.7357,庆阳市,庆阳五中,颗粒物(PM10),66,82,79,25,35,64,,,,12,15,7,6,0.4,0.5
2026-02-07T0300,2662A,107.6361,35.7067,庆阳市,市环保局,颗粒物(PM10),66,82,81,30,33,67,,,,10,13,5,5,0.4,0.4
2026-02-07T0300,1916A,103.7897,25.5036,曲靖市,环境监测站,细颗粒物(PM2.5),68,52,42,49,25,66,,,,12,20,5,8,0.7,0.5
2026-02-07T0300,1917A,103.8013,25.5357,曲靖市,烟厂办公区,细颗粒物(PM2.5),60,57,44,43,23,63,,,,11,17,4,6,0.6,0.5
2026-02-07T0300,3376A,103.7926,25.4651,曲靖市,南苑二区,细颗粒物(PM2.5),69,58,46,50,25,61,,,,12,15,3,4,0.6,0.4
2026-02-07T0300,3377A,103.7442,25.5259,曲靖市,曲靖师范学院,细颗粒物(PM2.5),64,49,41,46,26,40,,,,17,18,2,7,0.5,0.4
2026-02-07T0300,1264A,118.8694,28.94,衢州市,环保大楼,,17,,25,9,21,52,,,,15,18,/,/,/,/
2026-02-07T0300,1266A,118.8622,28.9809,衢州市,衢州学院,,,8,21,8,19,47,,,,16,19,,4,0.2,0.4
2026-02-07T0300,4097A,118.9646,28.9832,衢州市,衢州三中,,14,8,18,7,17,43,,,,26,26,4,4,0.3,0.6
2026-02-07T0300,1611A,118.5818,24.9116,泉州市,涂山街,,24,8,39,7,35,76,,,,11,20,2,4,0.6,0.7
2026-02-07T0300,1612A,118.597,24.8976,泉州市,津头埔,,23,11,39,8,37,71,,,,12,20,2,4,0.5,0.6
2026-02-07T0300,1613A,118.6669,24.9422,泉州市,万安,,22,13,42,6,35,68,,,,13,22,2,6,0.4,0.6
2026-02-07T0300,4105A,118.6355,24.9148,泉州市,霞新路6号,,23,9,43,6,34,71,,,,10,23,/,/,0.5,0.6
2026-02-07T0300,2626A,88.8873,29.2723,日喀则市,日喀则监测站,,19,16,27,13,18,59,,,,6,15,10,12,0.4,0.6
2026-02-07T0300,3726A,88.8775,29.2425,日喀则市,林业技术推广中心,,26,9,19,3,12,81,,,,3,8,6,5,0.2,0.4
2026-02-07T0300,1659A,119.4711,35.421,日照市,监测站,,22,22,41,10,8,60,,,,10,9,7,7,0.6,0.5
2026-02-07T0300,1660A,119.523,35.4216,日照市,市政府广场,,22,22,39,10,7,62,,,,16,16,7,7,0.3,0.3
2026-02-07T0300,1661A,119.5511,35.4113,日照市,港务局,,31,31,46,17,8,60,,,,12,12,5,5,0.4,0.3
2026-02-07T0300,3507A,119.5326,35.4627,日照市,职业技术学院,,29,29,42,10,7,60,,,,14,14,7,7,0.5,0.5
2026-02-07T0300,3604A,119.3267,35.1043,日照市,岚山环保分局,,36,36,55,8,10,65,,,,11,18,14,16,0.7,1.2
2026-02-07T0300,1835A,111.1922,34.7752,三门峡市,市政府,,43,43,72,16,34,47,,,,24,22,12,11,0.7,0.6
2026-02-07T0300,1836A,111.1588,34.794,三门峡市,开发区,颗粒物(PM10),55,60,93,15,37,42,,,,25,22,11,10,0.5,0.5
2026-02-07T0300,3039A,111.1911,34.7829,三门峡市,三门峡市第一小学,颗粒物(PM10),55,60,87,20,36,44,,,,22,21,14,13,0.5,0.5
2026-02-07T0300,3598A,111.1031,34.719,三门峡市,富达温泉假日酒店,颗粒物(PM10),59,68,90,30,37,28,,,,33,26,11,10,0.7,0.5
2026-02-07T0300,2324A,117.621,26.2626,三明市,三钢,,16,11,32,6,25,50,,,,8,21,2,13,0.5,1
2026-02-07T0300,2325A,117.6352,26.2714,三明市,三明二中,,,,33,3,21,49,,,,8,19,3,8,0.9,1.2
2026-02-07T0300,2326A,117.6028,26.2377,三明市,三元区政府,,17,7,30,3,19,54,,,,9,18,2,6,0.9,0.8
2026-02-07T0300,1877A,109.4962,18.2682,三亚市,河西子站,,20,20,21,8,8,60,,,,5,11,3,3,0.4,0.4
2026-02-07T0300,3540A,109.7348,18.3443,三亚市,君悦子站,,19,19,20,12,8,43,,,,13,7,3,3,0.4,0.4
2026-02-07T0300,4135A,109.1714,18.3739,三亚市,城东小学站,,21,21,23,14,9,27,,,,12,8,/,/,/,/
2026-02-07T0300,2624A,91.7592,29.234,山南市,山南监测站,,13,13,14,8,5,40,,,,9,9,5,5,0.6,0.5
2026-02-07T0300,2625A,91.7701,29.2436,山南市,山南人民医院,,16,10,16,3,6,50,,,,4,9,4,6,0.5,0.6
2026-02-07T0300,1674A,116.6795,23.3666,汕头市,金平子站,,46,38,43,32,31,96,,,,9,33,4,6,0.6,0.7
2026-02-07T0300,1675A,116.7248,23.3632,汕头市,龙湖子站,细颗粒物(PM2.5),54,,49,38,38,94,,,,10,32,9,11,/,/
2026-02-07T0300,1676A,116.7257,23.2774,汕头市,濠江子站,细颗粒物(PM2.5),52,47,43,36,30,82,,,,14,31,6,9,/,/
2026-02-07T0300,1677A,116.7518,23.4712,汕头市,澄海子站,,49,,48,34,31,87,,,,12,21,6,7,0.6,0.7
2026-02-07T0300,1678A,116.6088,23.2539,汕头市,潮阳子站,,49,36,37,34,32,90,,,,10,20,5,7,0.5,0.5
2026-02-07T0300,3444A,116.4539,23.2684,汕头市,潮南峡山,,50,50,53,34,35,82,,,,7,18,5,6,0.6,0.7
2026-02-07T0300,3624A,116.4069,23.2533,汕头市,潮南子站,颗粒物(PM10),51,51,61,34,37,71,,,,8,21,5,7,/,/
2026-02-07T0300,1693A,115.3653,22.7751,汕尾市,市环保局,,48,,31,33,23,64,,,,6,16,4,5,0.7,0.8
2026-02-07T0300,1695A,115.362,22.7926,汕尾市,新城中学,,32,22,33,22,22,59,,,,8,22,4,5,0.5,0.7
2026-02-07T0300,2645A,109.9155,33.8714,商洛市,监测站,细颗粒物(PM2.5),168,184,116,127,80,77,,,,22,22,17,9,1.2,1
2026-02-07T0300,3045A,109.9647,33.8486,商洛市,商州区中学,细颗粒物(PM2.5),150,128,108,115,76,58,,,,19,26,4,8,0.8,0.7
2026-02-07T0300,2408A,115.6701,34.4283,商丘市,环境监测站,颗粒物(PM10),57,63,67,33,24,20,,,,33,15,5,4,0.4,0.2
2026-02-07T0300,2409A,115.6458,34.4047,商丘市,粮食局,颗粒物(PM10),57,64,59,33,21,25,,,,34,20,1,2,0.4,0.3
2026-02-07T0300,3171A,115.6069,34.4465,商丘市,梁园区档案局,颗粒物(PM10),59,67,59,27,18,26,,,,24,14,2,2,0.3,0.2
2026-02-07T0300,4119A,115.6701,34.3767,商丘市,北海东路185号,颗粒物(PM10),62,74,53,27,20,34,,,,24,14,3,4,0.3,0.4
2026-02-07T0300,4120A,115.6172,34.3704,商丘市,中山大街3号,颗粒物(PM10),66,82,57,26,21,22,,,,38,18,3,2,0.3,0.2
2026-02-07T0300,1141A,121.401,31.2382,上海市,普陀,,21,20,38,11,22,67,,,,15,16,5,5,0.6,0.6
2026-02-07T0300,1142A,121.4774,31.2043,上海市,十五厂,,23,15,37,7,19,73,,,,9,16,5,6,0.4,0.5
2026-02-07T0300,1143A,121.4673,31.3011,上海市,虹口,,21,17,34,7,18,67,,,,8,16,6,6,0.0,0.1
2026-02-07T0300,1147A,121.4253,31.226,上海市,静安监测站,,23,18,35,8,18,73,,,,13,19,6,6,0.4,0.5
2026-02-07T0300,1148A,121.7029,31.1905,上海市,浦东川沙,,21,20,36,9,19,67,,,,16,16,7,7,0.4,0.5
2026-02-07T0300,1149A,121.5339,31.229,上海市,浦东新区监测站,,21,16,37,9,28,67,,,,11,19,4,5,0.4,0.5
2026-02-07T0300,1150A,121.5776,31.2038,上海市,浦东张江,,23,19,36,10,20,71,,,,12,19,6,6,0.0,0.1
2026-02-07T0300,3265A,121.4242,31.3303,上海市,宝山庙行,,21,21,40,9,16,65,,,,15,19,7,7,0.5,0.5
2026-02-07T0300,3266A,121.8789,31.4662,上海市,崇明上实东滩,,25,17,32,7,16,77,,,,5,7,3,3,0.1,0.2
2026-02-07T0300,3268A,121.316,31.2839,上海市,嘉定南翔,,22,16,38,10,21,70,,,,10,18,2,3,0.6,0.6
2026-02-07T0300,3269A,121.3357,30.7455,上海市,金山新城,,22,15,36,15,26,52,,,,22,22,7,7,0.6,0.7
2026-02-07T0300,3270A,121.4996,31.0741,上海市,闵行浦江,,22,14,34,8,20,70,,,,11,16,6,6,0.3,0.4
2026-02-07T0300,3271A,121.2886,31.1663,上海市,青浦徐泾,,23,18,38,12,22,73,,,,14,21,4,4,0.5,0.4
2026-02-07T0300,3272A,121.2193,31.0382,上海市,松江图书馆,,21,18,39,12,24,67,,,,8,16,5,5,0.5,0.6
2026-02-07T0300,3273A,121.3904,31.206,上海市,长宁仙霞,,21,20,36,9,20,67,,,,10,15,6,6,0.7,0.7
2026-02-07T0300,3274A,121.7964,31.0507,上海市,浦东惠南,,20,17,33,8,19,63,,,,22,17,4,4,0.5,0.5
2026-02-07T0300,3544A,121.4891,30.925,上海市,奉贤南桥新城,,22,12,37,9,24,70,,,,8,16,3,2,0.3,0.3
2026-02-07T0300,4183A,121.417401,31.16637,上海市,冠生园路458号,,23,15,34,9,23,73,,,,12,19,4,5,0.4,0.4
2026-02-07T0300,4205A,121.541914,31.268301,上海市,宁武路151号,,22,18,37,9,20,70,,,,16,23,5,5,0.4,0.5
2026-02-07T0300,2382A,117.9758,28.4439,上饶市,市监测站,,18,10,32,3,20,57,,,,13,21,4,4,/,/
2026-02-07T0300,2383A,117.9521,28.4637,上饶市,凤凰光学,,16,14,31,3,20,49,,,,14,23,6,7,0.9,1
2026-02-07T0300,3685A,117.897,28.4316,上饶市,双创科技城,,18,14,36,3,23,56,,,,15,27,3,4,0.7,1
2026-02-07T0300,4211A,118.190438,28.444845,上饶市,裕丰大道,,17,8,34,3,22,53,,,,17,23,10,10,0.7,0.9
2026-02-07T0300,1669A,113.5821,24.7733,韶关市,市八中,,21,21,63,13,41,47,,,,14,27,6,9,0.8,0.8
2026-02-07T0300,1671A,113.5916,24.7973,韶关市,园林处,,18,16,45,12,38,47,,,,14,26,7,8,/,/
2026-02-07T0300,1673A,113.5971,24.6864,韶关市,曲江监测站,,21,21,49,14,30,49,,,,13,24,5,7,0.9,0.9
2026-02-07T0300,2809A,113.6668,24.7756,韶关市,大学路288号,,22,20,49,15,39,44,,,,14,19,3,6,/,/
2026-02-07T0300,3622A,113.5556,24.8082,韶关市,碧湖山庄,,25,25,64,14,43,47,,,,16,20,6,7,0.9,0.9
2026-02-07T0300,2464A,111.5277,27.2442,邵阳市,市化工厂,细颗粒物(PM2.5),158,168,87,120,95,58,,,,15,13,2,4,0.9,0.9
2026-02-07T0300,2466A,111.4327,27.2276,邵阳市,市环保局,细颗粒物(PM2.5),159,,64,121,70,67,,,,13,14,7,8,1.1,1.1
2026-02-07T0300,4218A,111.446,27.2472,邵阳市,北塔二期4-26地块,细颗粒物(PM2.5),158,122,67,120,60,61,,,,10,10,6,6,1.0,1.1
2026-02-07T0300,4219A,111.4739,27.2282,邵阳市,邵水西路287号,细颗粒物(PM2.5),152,,64,116,67,63,,,,10,10,8,8,1.1,1.1
2026-02-07T0300,1247A,120.6053,29.9927,绍兴市,城东开发委,,26,26,39,18,28,46,,,,23,24,7,7,0.3,0.4
2026-02-07T0300,2921A,120.5482,30.0003,绍兴市,树下王站,,23,21,42,16,33,45,,,,17,20,6,6,0.3,0.5
2026-02-07T0300,3408A,120.5685,29.936,绍兴市,绍兴中专,,26,23,37,18,28,48,,,,15,20,7,7,0.2,0.3
2026-02-07T0300,3409A,120.4905,30.086,绍兴市,柯桥区政府,,23,23,49,14,32,48,,,,23,28,4,5,0.3,0.5
2026-02-07T0300,3410A,120.8751,30.0249,绍兴市,重华小学,,26,26,39,18,29,48,,,,20,21,7,6,0.3,0.4
2026-02-07T0300,3411A,120.837,30.0137,绍兴市,上虞中学,,26,26,40,18,29,49,,,,17,19,6,6,0.5,0.6
2026-02-07T0300,3560A,120.4715,30.0414,绍兴市,柯桥妇保,,26,23,38,18,33,46,,,,16,20,5,5,0.4,0.5
2026-02-07T0300,3658A,120.6156,30.0762,绍兴市,袍江中学,,16,14,30,11,23,45,,,,14,20,7,7,0.5,0.5
2026-02-07T0300,1356A,114.0948,22.5506,深圳市,通心岭子站,,38,38,31,22,18,0,,,,60,45,1,2,0.5,0.4
2026-02-07T0300,1357A,114.1153,22.5713,深圳市,洪湖,,47,47,38,23,19,1,,,,63,56,5,5,0.7,0.6
2026-02-07T0300,1358A,113.9823,22.5398,深圳市,华侨城,,38,33,27,21,15,0,,,,76,62,/,/,/,/
2026-02-07T0300,1359A,113.9181,22.517,深圳市,南海子站,颗粒物(PM10),52,54,42,29,24,0,,,,85,76,9,9,0.9,0.8
2026-02-07T0300,1360A,114.2345,22.565,深圳市,盐田,,36,27,22,16,12,5,,,,71,54,8,9,0.4,0.3
2026-02-07T0300,1363A,114.4911,22.5381,深圳市,南澳,,34,34,15,16,13,60,,,,12,14,/,/,/,/
2026-02-07T0300,1364A,114.41,22.6346,深圳市,葵涌,,15,15,18,8,7,35,,,,18,21,7,8,0.6,0.6
2026-02-07T0300,1365A,114.2967,22.5978,深圳市,梅沙,,25,25,17,13,7,44,,,,25,21,/,/,/,/
2026-02-07T0300,1366A,114.0563,22.7353,深圳市,观澜,颗粒物(PM10),64,77,59,31,27,0,,,,65,56,8,8,0.7,0.6
2026-02-07T0300,3305A,114.0614,22.556,深圳市,莲花,,41,41,29,26,18,0,,,,69,53,/,/,/,/
2026-02-07T0300,3306A,114.0144,22.6163,深圳市,民治,,36,24,26,12,16,2,,,,71,60,/,/,/,/
2026-02-07T0300,3307A,114.1756,22.6421,深圳市,横岗,颗粒物(PM10),54,57,46,27,23,0,,,,92,68,/,/,/,/
2026-02-07T0300,3447A,114.344,22.7115,深圳市,坪山,,37,37,31,17,15,3,,,,56,33,8,9,0.6,0.6
2026-02-07T0300,3623A,113.8952,22.586,深圳市,西乡,,50,50,46,24,24,3,,,,77,74,6,8,0.7,0.6
2026-02-07T0300,4220A,114.214113,22.713717,深圳市,黄阁路,颗粒物(PM10),59,67,43,34,22,2,,,,70,49,8,7,1.2,1
2026-02-07T0300,1099A,123.5058,41.7084,沈阳市,浑南东路,颗粒物(PM10),54,58,56,32,14,3,,,,67,33,9,9,0.9,0.5
2026-02-07T0300,1100A,123.4238,41.6992,沈阳市,新秀街,颗粒物(PM10),63,75,41,39,14,7,,,,52,25,9,10,0.9,0.6
2026-02-07T0300,1102A,123.5903,41.8412,沈阳市,东陵路,细颗粒物(PM2.5),63,66,31,45,17,12,,,,47,23,6,8,1.1,0.7
2026-02-07T0300,1103A,123.4267,41.8466,沈阳市,陵东街,细颗粒物(PM2.5),52,51,53,36,10,18,,,,50,16,28,12,0.9,0.6
2026-02-07T0300,1104A,123.4116,41.7654,沈阳市,文化路,颗粒物(PM10),80,109,56,56,14,7,,,,57,22,12,15,1.0,0.6
2026-02-07T0300,1105A,123.4673,41.787,沈阳市,小河沿,细颗粒物(PM2.5),104,,85,78,25,13,,,,51,24,12,9,0.7,0.8
2026-02-07T0300,1106A,123.4019,41.7978,沈阳市,太原街,颗粒物(PM10),68,85,48,46,13,19,,,,51,21,22,12,0.8,0.6
2026-02-07T0300,1108A,123.3778,41.9233,沈阳市,京沈街,颗粒物(PM10),70,89,35,49,17,6,,,,66,27,12,11,1.0,0.6
2026-02-07T0300,2897A,123.2429,41.7341,沈阳市,沈辽西路,细颗粒物(PM2.5),95,134,71,71,23,4,,,,65,28,13,12,1.1,0.6
2026-02-07T0300,2900A,123.5951,41.9085,沈阳市,裕农路,细颗粒物(PM2.5),52,50,47,36,12,27,,,,37,15,7,6,1.1,0.5
2026-02-07T0300,2429A,110.78,32.6494,十堰市,滨河新村,颗粒物(PM10),79,108,134,55,89,37,,,,22,26,/,/,1.1,1.2
2026-02-07T0300,2430A,110.7305,32.6408,十堰市,刘家沟,颗粒物(PM10),87,124,165,58,92,34,,,,20,22,/,/,/,/
2026-02-07T0300,2431A,110.8843,32.5712,十堰市,铁二处,颗粒物(PM10),74,98,146,52,94,32,,,,22,27,9,9,0.9,1
2026-02-07T0300,3545A,110.8053,32.8401,十堰市,郧阳区金沙路,颗粒物(PM10),72,93,140,51,85,40,,,,17,25,5,7,0.8,1
2026-02-07T0300,2709A,86.0391,44.298,石河子市,艾青诗歌馆,细颗粒物(PM2.5),79,82,104,58,76,63,,,,22,23,7,7,0.8,1
2026-02-07T0300,3442A,86.047,44.2331,石河子市,南区管委会,细颗粒物(PM2.5),92,88,112,68,85,61,,,,17,19,10,10,0.9,1
2026-02-07T0300,4051A,86.0791,44.3018,石河子市,世纪广场,细颗粒物(PM2.5),84,88,112,62,76,68,,,,20,22,6,6,0.6,1.1
2026-02-07T0300,4167A,86.0126,44.2349,石河子市,城南景苑小区,细颗粒物(PM2.5),90,93,91,67,64,68,,,,13,21,6,6,0.8,0.9
2026-02-07T0300,1030A,114.5919,38.0328,石家庄市,高新区,颗粒物(PM10),64,78,62,34,25,22,,,,33,22,3,4,0.5,0.4
2026-02-07T0300,1032A,114.4556,38.0136,石家庄市,西南高教,颗粒物(PM10),67,84,66,44,24,25,,,,21,17,1,1,0.5,0.3
2026-02-07T0300,1033A,114.533,38.0177,石家庄市,世纪公园,颗粒物(PM10),69,87,57,37,21,24,,,,20,15,3,3,0.5,0.4
2026-02-07T0300,1034A,114.5105,38.0489,石家庄市,人民会堂,细颗粒物(PM2.5),72,64,56,52,25,25,,,,18,12,3,3,0.4,0.4
2026-02-07T0300,3456A,114.2887,38.0905,石家庄市,鹿泉一中,颗粒物(PM10),54,57,61,18,17,24,,,,19,18,1,2,0.4,0.3
2026-02-07T0300,4024A,114.6491,37.9014,石家庄市,栾城区星河路,细颗粒物(PM2.5),65,65,61,47,32,18,,,,36,26,3,4,0.5,0.4
2026-02-07T0300,4059A,114.4563,38.0365,石家庄市,裕华西路63号,细颗粒物(PM2.5),64,60,52,46,27,26,,,,21,17,1,2,0.5,0.4
2026-02-07T0300,4060A,114.5586,38.0581,石家庄市,和平路363号,细颗粒物(PM2.5),63,62,57,45,26,27,,,,26,19,3,3,0.4,0.4
2026-02-07T0300,4061A,114.8347,38.0213,石家庄市,廉州西路160号,细颗粒物(PM2.5),73,66,60,53,31,1,,,,36,12,1,1,0.5,0.3
2026-02-07T0300,4062A,114.4498,38.0729,石家庄市,北城路41号,颗粒物(PM10),65,79,58,32,18,34,,,,15,10,1,2,0.4,0.3
2026-02-07T0300,4314A,114.0494,38.059,石家庄市,矿区区委大楼,颗粒物(PM10),63,75,62,18,16,8,,,,33,15,15,6,0.5,0.4
2026-02-07T0300,1948A,106.3668,39.0145,石嘴山市,大武口朝阳西街,颗粒物(PM10),51,52,56,11,19,56,,,,12,13,10,13,0.9,0.8
2026-02-07T0300,1949A,106.7713,39.2278,石嘴山市,惠农南大街,,31,31,49,12,13,61,,,,19,16,16,15,0.9,0.8
2026-02-07T0300,1950A,106.7074,39.1332,石嘴山市,红果子镇惠新街,,32,32,65,8,15,68,,,,11,10,12,12,0.7,0.5
2026-02-07T0300,3520A,106.3495,38.9837,石嘴山市,妇女儿童医院,颗粒物(PM10),52,53,60,13,20,51,,,,16,16,7,11,0.7,0.7
2026-02-07T0300,3521A,106.7495,39.2068,石嘴山市,石大公路,,32,32,61,10,13,65,,,,14,13,13,10,1.0,0.6
2026-02-07T0300,2248A,131.1509,46.6936,双鸭山市,双合村,,21,,17,14,14,66,,,,2,2,4,5,0.2,0.2
2026-02-07T0300,2249A,131.1651,46.6191,双鸭山市,南小市,,28,,12,19,15,56,,,,9,8,4,7,0.3,0.3
2026-02-07T0300,2250A,131.1526,46.6554,双鸭山市,环保局,,31,31,27,9,14,64,,,,6,7,5,6,0.2,0.1
2026-02-07T0300,2166A,112.4399,39.3521,朔州市,平朔,颗粒物(PM10),62,73,50,28,21,26,,,,28,18,8,8,0.5,0.5
2026-02-07T0300,2167A,112.4574,39.362,朔州市,朔唯,,50,50,69,3,19,50,,,,19,16,11,13,/,/
2026-02-07T0300,2168A,112.426,39.3199,朔州市,区政府,颗粒物(PM10),51,52,40,28,19,25,,,,20,14,9,8,0.6,0.4
2026-02-07T0300,2169A,112.4075,39.3277,朔州市,市环保局,颗粒物(PM10),57,63,45,33,24,35,,,,23,18,9,8,/,/
2026-02-07T0300,2170A,112.4273,39.3682,朔州市,市二中,,,59,47,16,21,41,,,,27,17,,8,/,/
2026-02-07T0300,3571A,112.2938,39.5296,朔州市,一水厂,,21,18,47,6,20,66,,,,1,12,4,9,0.2,0.5
2026-02-07T0300,2226A,124.3744,43.1842,四平市,境园,,46,46,43,23,22,11,,,,58,23,4,3,0.4,0.3
2026-02-07T0300,3486A,124.4029,43.1411,四平市,植物园,,31,31,36,18,25,24,,,,43,30,6,6,0.4,0.4
2026-02-07T0300,3713A,124.3286,43.1726,四平市,世纪城,颗粒物(PM10),54,57,49,30,20,22,,,,37,18,5,4,0.3,0.3
2026-02-07T0300,2233A,124.8007,45.1213,松原市,江南,,,64,43,38,25,,,,,27,18,17,7,0.6,0.6
2026-02-07T0300,2234A,124.7967,45.1721,松原市,江北,细颗粒物(PM2.5),62,62,44,44,19,12,,,,47,18,1,1,0.9,0.4
