timepoint,stationcode,longitude,latitude,area,positionname,primarypollutant,aqi,pm10,pm10_24h,pm2_5,pm2_5_24h,o3,o3_24h,o3_8h,o3_8h_24h,no2,no2_24h,so2,so2_24h,co,co_24h
2025-03-11T1000,2566A,102.1879,31.914,阿坝藏族羌族自治州,州农科所,,,,64,19,9,49,,57,52,16,10,10,9,0.1,0
2025-03-11T1000,2568A,102.2502,31.8896,阿坝藏族羌族自治州,马师校,细颗粒物(PM2.5),73,,20,53,16,48,,42,42,22,17,6,4,0.6,0.5
2025-03-11T1000,3994A,102.2165,31.9024,阿坝藏族羌族自治州,马尔康中学西区,,21,21,14,7,7,54,,49,48,11,11,5,5,0.4,0.3
2025-03-11T1000,2695A,80.292,41.1694,阿克苏地区,电视台,颗粒物(PM10),147,244,162,40,40,47,,66,64,27,17,8,6,0.7,0.6
2025-03-11T1000,2696A,80.2613,41.1551,阿克苏地区,艺术中心,颗粒物(PM10),174,297,173,45,46,55,,57,57,26,37,6,6,0.6,0.9
2025-03-11T1000,2204A,105.6467,38.8363,阿拉善盟,西城区西花园,颗粒物(PM10),500,624,770,80,80,102,,98,98,8,13,10,14,0.7,0.7
2025-03-11T1000,2205A,105.6985,38.8411,阿拉善盟,蒙二幼,颗粒物(PM10),405,505,541,118,89,96,,94,94,8,10,5,6,0.6,0.7
2025-03-11T1000,2206A,105.724,38.8516,阿拉善盟,环保局新楼,颗粒物(PM10),481,581,488,110,102,99,,100,100,5,6,7,8,0.9,0.9
2025-03-11T1000,2708A,88.1264,47.8517,阿勒泰地区,市站,,21,10,11,10,7,67,,76,74,14,9,2,2,0.4,0.4
2025-03-11T1000,2630A,80.1161,32.5,阿里地区,阿里监测站,,21,10,8,6,3,67,,82,77,14,4,7,7,0.6,0.5
2025-03-11T1000,3192A,80.0903,32.5028,阿里地区,阿里藏医院,,26,26,13,12,4,67,,86,83,13,2,17,6,0.6,0.3
2025-03-11T1000,2642A,109.0318,32.6537,安康市,香溪洞,,29,28,26,20,20,33,,39,36,10,8,11,8,0.4,0.4
2025-03-11T1000,2644A,109.0072,32.6975,安康市,汉滨区检察院,,34,34,33,20,22,24,,25,24,21,18,22,9,0.6,0.4
2025-03-11T1000,4054A,109.0325,32.6913,安康市,市邮政管理局,,48,48,36,26,23,23,,24,22,22,19,25,12,0.8,0.6
2025-03-11T1000,2291A,117.0809,30.5177,安庆市,环科院,细颗粒物(PM2.5),59,43,48,42,43,15,,21,14,44,32,8,7,0.8,0.6
2025-03-11T1000,2292A,117.0331,30.5119,安庆市,马山宾馆,细颗粒物(PM2.5),55,42,41,39,40,10,,15,8,44,26,4,3,0.7,0.6
2025-03-11T1000,2294A,116.9896,30.6145,安庆市,安庆大学,,,39,53,30,38,38,,48,42,23,17,,9,,0.4
2025-03-11T1000,3173A,117.0598,30.5351,安庆市,市人大,细颗粒物(PM2.5),59,,43,42,46,28,,26,20,26,22,10,8,0.7,0.6
2025-03-11T1000,3122A,105.9606,26.2611,安顺市,伍家关,,46,32,22,32,24,56,,49,49,10,11,6,11,0.7,0.7
2025-03-11T1000,3123A,105.9408,26.2431,安顺市,凤凰山,,,,28,33,24,,,45,45,12,14,15,20,0.7,0.8
2025-03-11T1000,3124A,105.9439,26.2564,安顺市,金钟山,,48,,25,33,23,60,,51,51,8,11,11,17,0.6,0.6
2025-03-11T1000,3125A,105.8983,26.2481,安顺市,娄家坡,,45,,29,31,22,60,,54,54,7,11,4,8,0.7,0.7
2025-03-11T1000,1818A,114.4839,36.0621,安阳市,棉研所,,,,,,,,,,,,,,,,
2025-03-11T1000,1819A,114.3551,36.1017,安阳市,红庙街,细颗粒物(PM2.5),114,,93,86,76,,,50,43,,21,4,6,0.7,0.4
2025-03-11T1000,1820A,114.361,36.0681,安阳市,银杏小区,细颗粒物(PM2.5),119,,84,90,82,44,,48,42,28,21,2,2,0.7,0.6
2025-03-11T1000,3141A,114.3922,36.0878,安阳市,信访局,细颗粒物(PM2.5),119,90,94,90,82,46,,62,55,32,21,1,2,0.7,0.6
2025-03-11T1000,3669A,114.4705,36.0637,安阳市,左辅环卫站,细颗粒物(PM2.5),129,131,120,98,85,64,,63,58,31,24,3,3,0.6,0.6
2025-03-11T1000,3703A,114.2917,36.0949,安阳市,安钢职工学校,细颗粒物(PM2.5),123,96,91,93,81,49,,53,48,28,24,2,4,0.7,0.6
2025-03-11T1000,1748A,123.044,41.1196,鞍山市,深沟寺,,,48,62,41,49,,,99,98,12,11,8,8,0.8,0.8
2025-03-11T1000,1749A,123.011,41.0931,鞍山市,太阳城,细颗粒物(PM2.5),62,59,69,44,47,111,,111,110,12,13,6,5,0.9,0.8
2025-03-11T1000,1750A,123.0485,41.1442,鞍山市,太平,,49,48,69,34,45,100,,103,101,16,12,8,7,0.7,0.7
2025-03-11T1000,1751A,122.9642,41.0971,鞍山市,铁西三道街,细颗粒物(PM2.5),73,73,83,53,55,92,,94,90,36,32,35,44,0.8,0.7
2025-03-11T1000,1753A,123.022,41.0821,鞍山市,明达新区,细颗粒物(PM2.5),62,53,58,44,47,109,,111,109,15,13,6,5,0.7,0.6
2025-03-11T1000,1754A,123.1289,41.0228,鞍山市,千山,,,,74,,43,,,108,,,9,,5,,0.6
2025-03-11T1000,4201A,122.9446,41.0826,鞍山市,兴盛南路290号,细颗粒物(PM2.5),64,75,83,46,48,99,,100,98,24,23,11,9,0.9,0.7
2025-03-11T1000,2195A,107.4212,40.761,巴彦淖尔市,附二中,颗粒物(PM10),500,687,679,119,117,80,,83,83,7,26,7,14,0.5,0.8
2025-03-11T1000,2196A,107.37,40.7372,巴彦淖尔市,市环保大楼,颗粒物(PM10),500,644,627,120,111,82,,84,84,5,26,4,9,0.2,0.4
2025-03-11T1000,1956A,86.1472,41.7538,巴音郭楞蒙古自治州,孔雀公园,颗粒物(PM10),439,539,509,97,82,38,,77,69,40,13,5,4,0.7,0.3
2025-03-11T1000,1957A,86.1972,41.7166,巴音郭楞蒙古自治州,棉纺厂,颗粒物(PM10),500,703,599,84,75,40,,77,67,46,14,5,2,0.6,0.3
2025-03-11T1000,1958A,86.2357,41.7173,巴音郭楞蒙古自治州,经济开发区,颗粒物(PM10),500,651,672,93,77,18,,72,53,55,10,5,4,0.5,0.2
2025-03-11T1000,2914A,106.7677,31.8794,巴中市,苏山坪,,36,33,36,25,27,61,,70,67,11,11,4,5,0.4,0.4
2025-03-11T1000,3181A,106.7768,31.8526,巴中市,市五中,细颗粒物(PM2.5),53,53,46,37,32,6,,18,13,40,25,5,5,1.0,0.6
2025-03-11T1000,3183A,106.7418,31.8654,巴中市,圣泉水务公司,,35,32,44,24,34,31,,19,19,22,26,6,7,0.6,0.7
2025-03-11T1000,3616A,106.7616,31.8344,巴中市,市中心医院,细颗粒物(PM2.5),54,48,47,38,39,8,,5,5,33,29,7,6,0.8,0.6
2025-03-11T1000,2235A,122.7911,45.6077,白城市,洮北区环保局,细颗粒物(PM2.5),115,106,188,87,63,81,,64,58,17,20,10,7,,0.9
2025-03-11T1000,2236A,122.8738,45.5725,白城市,市环保局,细颗粒物(PM2.5),120,134,217,91,71,84,,46,46,13,30,10,9,0.7,0.6
2025-03-11T1000,2231A,126.4219,41.9171,白山市,喜丰,颗粒物(PM10),63,75,68,37,37,76,,77,64,36,18,13,9,1.0,0.9
2025-03-11T1000,2232A,126.4077,41.9419,白山市,环保局,颗粒物(PM10),65,80,68,36,45,89,,62,57,26,15,9,6,1.0,0.9
2025-03-11T1000,2647A,104.1724,36.5446,白银市,第三小学,颗粒物(PM10),500,746,132,124,48,81,,,,8,22,10,60,0.7,1
2025-03-11T1000,2648A,104.1465,36.5482,白银市,动力公司,颗粒物(PM10),500,722,334,154,71,84,,87,87,7,14,5,22,0.5,0.6
2025-03-11T1000,2512A,106.6103,23.9011,百色市,市监测站,细颗粒物(PM2.5),82,85,56,60,42,17,,6,6,28,26,24,14,1.4,1.3
2025-03-11T1000,2513A,106.6538,23.8859,百色市,市中心血站,细颗粒物(PM2.5),95,87,59,71,53,20,,6,6,27,26,23,16,1.4,1.2
2025-03-11T1000,3406A,106.6085,23.8798,百色市,祈福高中,细颗粒物(PM2.5),94,99,63,70,48,12,,6,6,27,29,15,11,1.3,1.2
2025-03-11T1000,2270A,117.396,32.939,蚌埠市,工人疗养院,细颗粒物(PM2.5),95,95,102,71,69,56,,28,28,24,35,6,6,0.7,0.6
2025-03-11T1000,2271A,117.3605,32.9427,蚌埠市,百货大楼,细颗粒物(PM2.5),95,101,101,71,66,46,,22,22,32,41,7,6,0.7,0.5
2025-03-11T1000,2273A,117.4185,32.8911,蚌埠市,蚌埠学院,细颗粒物(PM2.5),109,,85,82,65,48,,33,28,26,27,5,4,0.7,0.6
2025-03-11T1000,2274A,117.3533,32.9673,蚌埠市,淮上区政府,细颗粒物(PM2.5),110,92,98,83,74,44,,28,24,36,34,9,6,0.9,0.7
2025-03-11T1000,2275A,117.3145,32.8977,蚌埠市,高新区,细颗粒物(PM2.5),98,75,90,73,72,54,,41,35,26,29,6,6,0.6,0.6
2025-03-11T1000,3715A,117.3092,32.9314,蚌埠市,蚌埠田家炳中学,细颗粒物(PM2.5),103,106,100,77,70,51,,44,38,,34,7,7,,0.6
2025-03-11T1000,1585A,109.8756,40.6532,包头市,市环境监测站,颗粒物(PM10),500,622,221,119,62,89,,43,43,10,54,8,18,0.4,1
2025-03-11T1000,1587A,109.9991,40.5842,包头市,包头八中,颗粒物(PM10),425,525,220,121,82,85,,34,34,13,51,11,27,0.4,1.1
2025-03-11T1000,1588A,109.8538,40.6821,包头市,青山宾馆,颗粒物(PM10),500,635,219,148,83,80,,38,38,9,50,6,16,0.4,1.1
2025-03-11T1000,1589A,109.8642,40.6288,包头市,惠龙物流,颗粒物(PM10),500,640,227,90,55,85,,47,47,17,49,8,17,0.5,1
2025-03-11T1000,1590A,110.0377,40.5546,包头市,东河鸿龙湾,颗粒物(PM10),347,457,223,83,56,70,,27,27,17,50,7,16,0.6,0.9
2025-03-11T1000,3283A,109.9154,40.5685,包头市,滨河大厦,颗粒物(PM10),478,578,214,134,71,80,,27,27,12,49,12,17,0.9,1
2025-03-11T1000,3419A,109.9447,40.6261,包头市,包头市委党校,颗粒物(PM10),428,528,199,130,61,84,,42,42,9,51,6,23,0.5,1.3
2025-03-11T1000,3683A,109.8331,40.6576,包头市,昆区政府,颗粒物(PM10),500,633,240,123,81,83,,42,42,13,50,8,20,0.4,1.2
2025-03-11T1000,1930A,107.185,34.3063,宝鸡市,庙沟村,,24,17,43,14,32,75,,69,69,5,14,6,7,0.4,0.4
2025-03-11T1000,1931A,107.0708,34.3017,宝鸡市,竹园沟,,30,30,45,16,30,72,,54,54,15,19,7,7,0.5,0.5
2025-03-11T1000,1932A,107.1906,34.3672,宝鸡市,三陆医院,,45,45,78,20,48,33,,13,13,44,47,6,6,0.6,0.6
2025-03-11T1000,1933A,107.1431,34.3547,宝鸡市,监测站,,37,37,66,16,44,42,,31,31,35,31,10,8,0.6,0.6
2025-03-11T1000,1934A,107.1186,34.3739,宝鸡市,技工学校,,28,28,68,16,41,57,,42,42,21,27,6,8,0.7,0.7
2025-03-11T1000,1935A,107.3906,34.3528,宝鸡市,陈仓区环保局家属楼,颗粒物(PM10),56,62,89,27,63,33,,14,14,40,46,15,8,0.6,0.5
2025-03-11T1000,1936A,107.2058,34.3497,宝鸡市,文理学院,,35,35,66,20,45,43,,26,26,35,30,6,6,0.5,0.5
2025-03-11T1000,1937A,107.2386,34.3622,宝鸡市,三迪小学,,34,34,73,20,51,50,,18,18,28,39,6,7,0.7,0.7
2025-03-11T1000,1051A,115.493,38.8632,保定市,游泳馆,细颗粒物(PM2.5),180,159,138,136,106,69,,70,63,29,29,11,11,0.5,0.5
2025-03-11T1000,1052A,115.5213,38.8959,保定市,华电二区,细颗粒物(PM2.5),162,133,125,123,114,76,,72,67,21,25,10,10,1.0,1
2025-03-11T1000,1053A,115.4713,38.9108,保定市,接待中心,细颗粒物(PM2.5),186,169,146,140,121,69,,76,72,28,28,10,10,1.0,1
2025-03-11T1000,1054A,115.4612,38.8416,保定市,地表水厂,细颗粒物(PM2.5),178,174,151,134,108,65,,64,58,30,31,7,7,0.9,0.8
2025-03-11T1000,3581A,115.31981,38.95208,保定市,满城区生态环境分局,细颗粒物(PM2.5),178,161,161,134,124,67,,60,60,25,33,15,14,0.8,0.9
2025-03-11T1000,3582A,115.47694,38.76408,保定市,清苑区第二中学,,,,139,,97,,,53,48,29,32,10,10,0.6,0.6
2025-03-11T1000,3583A,115.62909,39.02311,保定市,徐水物探局,细颗粒物(PM2.5),160,149,145,122,118,54,,61,58,35,34,11,12,0.5,0.6
2025-03-11T1000,4004A,115.4202,38.8656,保定市,双鹰农机,细颗粒物(PM2.5),153,139,130,117,103,57,,62,57,37,35,2,4,0.9,0.9
2025-03-11T1000,4034A,115.5150,38.8590,保定市,植保所站,细颗粒物(PM2.5),160,136,132,122,110,61,,64,55,33,36,6,7,0.9,0.8
2025-03-11T1000,2594A,99.1678,25.1081,保山市,市环境监测站,,,63,52,52,34,,,97,89,34,11,4,4,0.8,0.5
2025-03-11T1000,2595A,99.1711,25.1328,保山市,市环保局,颗粒物(PM10),61,72,59,41,36,63,,106,93,32,9,6,6,1.0,0.6
2025-03-11T1000,1866A,109.2262,21.588,北海市,牛尾岭水库,,,82,36,25,22,47,,66,58,,,7,7,0.7,0.6
2025-03-11T1000,1867A,109.1436,21.4086,北海市,海滩公园,颗粒物(PM10),68,86,39,20,18,76,,94,86,11,9,8,6,0.6,0.7
2025-03-11T1000,1868A,109.0981,21.4661,北海市,新市环保局,颗粒物(PM10),56,62,42,24,26,70,,88,82,16,13,5,4,0.5,0.5
2025-03-11T1000,1869A,109.1778,21.5233,北海市,北海工业园,,,84,50,37,26,,,87,78,25,13,8,8,0.7,0.6
2025-03-11T1000,3400A,109.1911,21.4415,北海市,龙潭自来水厂,颗粒物(PM10),61,71,39,27,25,73,,88,81,10,8,8,7,0.4,0.4
2025-03-11T1000,1001A,116.3621,39.8784,北京市,万寿西宫,细颗粒物(PM2.5),213,210,177,163,134,30,,36,30,75,44,5,4,1.5,1.2
2025-03-11T1000,1002A,116.2202,40.2915,北京市,定陵,,,,,,,,,,,,,,,,
2025-03-11T1000,1003A,116.4174,39.9289,北京市,东四,细颗粒物(PM2.5),222,207,175,172,140,36,,36,29,69,46,8,8,1.2,1
2025-03-11T1000,1004A,116.4072,39.8863,北京市,天坛,细颗粒物(PM2.5),204,197,169,154,130,27,,20,13,70,39,4,4,1.2,1.2
2025-03-11T1000,1005A,116.462,39.9365,北京市,农展馆,细颗粒物(PM2.5),210,206,171,160,128,29,,23,13,73,53,7,7,1.3,1.1
2025-03-11T1000,1006A,116.3392,39.9295,北京市,官园,细颗粒物(PM2.5),219,218,177,169,137,42,,33,28,48,38,9,8,1.3,1.1
2025-03-11T1000,1007A,116.2878,39.9611,北京市,海淀万柳,细颗粒物(PM2.5),216,205,171,166,132,21,,22,18,67,50,4,4,1.3,1.1
2025-03-11T1000,1008A,116.6636,40.135,北京市,顺义新城,细颗粒物(PM2.5),199,200,173,149,124,46,,58,45,48,33,5,6,0.9,0.7
2025-03-11T1000,1009A,116.6275,40.3275,北京市,怀柔镇,细颗粒物(PM2.5),189,171,155,142,121,57,,64,58,31,27,3,3,1.0,0.9
2025-03-11T1000,1010A,116.2296,40.217,北京市,昌平镇,细颗粒物(PM2.5),203,215,185,153,126,57,,39,32,34,36,3,2,1.1,1
2025-03-11T1000,1011A,116.3966,39.9821,北京市,奥体中心,细颗粒物(PM2.5),226,216,177,176,133,35,,27,20,62,49,5,5,1.4,1.1
2025-03-11T1000,3281A,115.9718,40.4529,北京市,延庆夏都,细颗粒物(PM2.5),193,178,155,145,120,59,,64,57,29,22,6,5,1.1,0.9
2025-03-11T1000,3418A,116.8336,40.4095,北京市,密云新城,细颗粒物(PM2.5),193,180,156,145,119,64,,50,48,21,25,5,5,0.9,0.8
2025-03-11T1000,3671A,116.088,39.9726,北京市,门头沟三家店,细颗粒物(PM2.5),210,196,176,160,133,51,,34,34,27,36,4,4,0.8,0.8
2025-03-11T1000,3672A,116.1541,39.8204,北京市,丰台云岗,细颗粒物(PM2.5),215,212,184,165,137,50,,38,38,46,36,7,6,1.1,1
2025-03-11T1000,3673A,116.6804,39.9081,北京市,通州东关,细颗粒物(PM2.5),193,193,168,145,126,51,,41,34,62,53,7,7,0.8,0.8
2025-03-11T1000,3674A,115.9577,39.7603,北京市,房山燕山,细颗粒物(PM2.5),211,195,162,161,134,66,,53,45,28,24,1,1,0.9,0.8
2025-03-11T1000,3675A,116.4672,39.7733,北京市,大兴旧宫,细颗粒物(PM2.5),172,175,167,130,121,39,,21,16,49,36,1,2,0.8,0.8
2025-03-11T1000,3694A,115.986,40.4563,北京市,延庆石河营,细颗粒物(PM2.5),186,175,156,140,119,63,,43,43,25,22,4,4,1.1,1
2025-03-11T1000,3695A,116.6151,40.3053,北京市,怀柔新城,细颗粒物(PM2.5),199,177,155,149,125,59,,74,67,22,20,5,5,1.1,1
2025-03-11T1000,3696A,116.2545,39.8768,北京市,丰台小屯,细颗粒物(PM2.5),217,207,180,167,133,34,,26,25,63,47,4,2,1.2,0.9
2025-03-11T1000,3697A,116.84,40.3844,北京市,密云镇,细颗粒物(PM2.5),195,197,158,146,115,42,,25,21,46,36,6,6,1.0,0.9
2025-03-11T1000,4182A,116.1942,39.9158,北京市,八角北路9号,细颗粒物(PM2.5),214,211,180,164,132,49,,23,23,46,48,2,2,0.9,0.8
2025-03-11T1000,4194A,117.0790,40.1518,北京市,洳河巡河路,细颗粒物(PM2.5),178,161,147,134,119,80,,87,75,26,22,5,5,0.8,0.7
2025-03-11T1000,1761A,123.8275,41.3064,本溪市,大峪,细颗粒物(PM2.5),60,53,60,43,56,113,,108,108,14,11,13,10,0.8,0.7
2025-03-11T1000,1762A,123.7567,41.3325,本溪市,溪湖,颗粒物(PM10),52,53,73,35,48,107,,106,105,18,18,12,11,0.8,0.8
2025-03-11T1000,1763A,123.7169,41.3094,本溪市,彩屯,细颗粒物(PM2.5),65,70,99,47,63,94,,89,89,25,29,18,22,2.2,2.6
2025-03-11T1000,1764A,123.7669,41.2864,本溪市,东明,,50,50,56,32,46,103,,109,106,14,13,5,6,0.7,0.7
2025-03-11T1000,1765A,123.7992,41.2664,本溪市,新立屯,细颗粒物(PM2.5),55,,46,39,49,125,,126,124,12,13,5,5,0.7,0.6
2025-03-11T1000,1766A,123.8142,41.3472,本溪市,威宁,,,63,68,36,46,,,86,86,11,17,6,4,,0.6
2025-03-11T1000,2587A,105.2864,27.3125,毕节市,八中,细颗粒物(PM2.5),64,56,57,46,46,39,,24,24,18,16,10,9,1.0,0.8
2025-03-11T1000,2588A,105.31,27.2944,毕节市,师专,细颗粒物(PM2.5),63,59,65,45,48,35,,16,16,20,18,7,8,1.0,0.9
2025-03-11T1000,4263A,105.3688,27.3598,毕节市,工业大道,细颗粒物(PM2.5),57,49,50,40,41,44,,23,22,17,15,18,10,0.7,0.7
2025-03-11T1000,1629A,118.0018,37.3617,滨州市,第二水厂,细颗粒物(PM2.5),104,124,117,78,74,76,,64,60,20,25,16,11,0.5,0.4
2025-03-11T1000,1630A,117.9776,37.393,滨州市,北中新校,,,,118,73,73,85,,71,70,30,33,12,12,0.7,0.7
2025-03-11T1000,3514A,117.9378,37.3956,滨州市,中海酒店,细颗粒物(PM2.5),107,107,105,80,79,94,,86,84,24,25,13,11,0.7,0.6
2025-03-11T1000,3515A,117.9378,37.3553,滨州市,开发区一中,细颗粒物(PM2.5),92,114,116,68,71,75,,63,61,31,35,15,13,0.7,0.5
2025-03-11T1000,3516A,118.0917,37.694,滨州市,金海六路,细颗粒物(PM2.5),122,139,122,92,80,69,,41,41,35,39,18,13,1.1,0.9
2025-03-11T1000,4028A,117.9956,37.3753,滨州市,滨州市西街道办事处,细颗粒物(PM2.5),117,119,116,88,85,84,,65,63,21,25,13,10,0.9,0.8
2025-03-11T1000,2311A,115.8072,33.8399,亳州市,污水处理厂,细颗粒物(PM2.5),92,116,108,68,64,64,,58,50,32,27,6,6,0.7,0.6
2025-03-11T1000,2312A,115.7789,33.8518,亳州市,三国揽胜宫,颗粒物(PM10),93,135,124,61,62,67,,60,52,23,21,6,11,0.6,0.5
2025-03-11T1000,3332A,115.7633,33.8034,亳州市,亳州学院,细颗粒物(PM2.5),94,117,111,70,69,72,,74,66,25,24,6,6,0.7,0.5
2025-03-11T1000,2693A,82.0485,44.8556,博尔塔拉蒙古自治州,市党校,,26,22,24,18,12,37,,44,44,12,11,4,4,1.2,1.3
2025-03-11T1000,2694A,82.0806,44.8969,博尔塔拉蒙古自治州,市环保局,,30,30,28,12,11,41,,67,63,24,12,3,4,0.6,0.4
2025-03-11T1000,1071A,116.8842,38.2991,沧州市,沧县城建局,,,,116,,87,,,93,87,,18,6,5,0.5,0.7
2025-03-11T1000,1072A,116.8584,38.3254,沧州市,电视转播站,细颗粒物(PM2.5),113,114,111,85,88,91,,92,87,17,18,7,6,0.5,0.5
2025-03-11T1000,1073A,116.8709,38.3228,沧州市,市环保局,细颗粒物(PM2.5),92,92,106,68,85,87,,85,81,16,18,8,8,0.5,0.6
2025-03-11T1000,3324A,116.8136,38.3004,沧州市,河北水利电力学院,细颗粒物(PM2.5),112,107,119,84,82,90,,84,81,18,20,10,10,0.5,0.6
2025-03-11T1000,2622A,97.1806,31.1273,昌都市,昌都监测站,,30,30,18,19,11,40,,47,44,31,14,7,6,1.0,0.7
2025-03-11T1000,3719A,97.1714,31.1406,昌都市,昌都会议中心,,24,15,11,11,10,76,,80,77,8,4,2,2,0.5,0.4
2025-03-11T1000,2690A,88.1236,43.8886,昌吉回族自治州,天山天池,,25,6,5,3,2,80,,81,80,2,2,5,5,0.3,0.3
2025-03-11T1000,2692A,87.2717,44.0297,昌吉回族自治州,新区政务中心,,28,28,26,3,5,43,,16,16,27,24,6,5,0.5,0.4
2025-03-11T1000,3613A,87.3095,44.0142,昌吉回族自治州,亚心广场,,31,31,28,7,8,32,,20,20,48,33,7,6,0.7,0.4
2025-03-11T1000,1119A,125.3325,43.9166,长春市,食品厂,细颗粒物(PM2.5),78,64,146,57,69,96,,92,92,25,23,9,9,0.7,0.6
2025-03-11T1000,1120A,125.2863,43.9027,长春市,客车厂,细颗粒物(PM2.5),87,66,160,64,80,93,,88,88,24,24,9,9,0.7,0.7
2025-03-11T1000,1121A,125.2841,43.8463,长春市,邮电学院,细颗粒物(PM2.5),87,,155,64,71,98,,94,94,23,24,9,9,0.8,0.8
2025-03-11T1000,1122A,125.3716,43.8772,长春市,劳动公园,细颗粒物(PM2.5),80,71,136,59,64,103,,87,87,22,24,9,9,1.0,0.8
2025-03-11T1000,1123A,125.3297,43.8805,长春市,园林处,细颗粒物(PM2.5),85,69,136,63,72,100,,96,96,17,18,8,9,0.7,0.7
2025-03-11T1000,1124A,125.4605,43.79,长春市,净月潭,细颗粒物(PM2.5),74,62,96,54,57,108,,94,94,10,12,8,8,0.6,0.6
2025-03-11T1000,1125A,125.7194,43.515,长春市,甩湾子,,,,,,,,,,,,,,,,
2025-03-11T1000,1126A,125.3863,43.8447,长春市,经开区环卫处,细颗粒物(PM2.5),79,68,124,58,62,101,,86,86,13,16,8,7,0.7,0.6
2025-03-11T1000,1127A,125.245,43.7783,长春市,高新区管委会,细颗粒物(PM2.5),88,82,126,65,68,102,,79,79,18,21,9,9,0.6,0.6
2025-03-11T1000,1128A,125.1761,43.8325,长春市,岱山公园,细颗粒物(PM2.5),92,70,134,68,72,103,,87,87,27,25,8,6,0.5,0.6
2025-03-11T1000,1335A,113.0833,28.2325,长沙市,经开区环保局,,30,27,36,21,29,8,,5,5,25,34,4,4,0.8,0.8
2025-03-11T1000,1336A,112.8872,28.2189,长沙市,高开区环保局,,40,29,36,28,31,12,,9,9,20,24,6,4,0.9,0.9
2025-03-11T1000,1337A,113.0792,28.2053,长沙市,马坡岭,,31,31,38,20,26,10,,6,6,19,24,4,4,0.7,0.8
2025-03-11T1000,1338A,112.9394,28.19,长沙市,湖南师范大学,,38,34,43,26,29,6,,4,4,23,26,4,3,1.0,0.9
2025-03-11T1000,1339A,113.0178,28.1322,长沙市,雨花区环保局,,39,29,39,27,30,2,,3,3,25,27,7,5,0.9,0.8
2025-03-11T1000,1340A,112.9792,28.2597,长沙市,伍家岭,,35,35,47,22,29,5,,3,3,27,29,4,2,0.9,0.8
2025-03-11T1000,1341A,113.0014,28.1944,长沙市,火车新站,,28,28,43,17,36,7,,4,4,29,34,6,5,1.2,1.2
2025-03-11T1000,1342A,112.9844,28.1178,长沙市,天心区环保局,,36,31,37,25,27,5,,5,5,32,37,3,2,1.3,1.3
2025-03-11T1000,1343A,112.8908,28.1308,长沙市,湖南中医药大学,,35,34,40,24,31,6,,3,3,21,26,4,3,0.9,0.8
2025-03-11T1000,1344A,112.9581,28.3611,长沙市,沙坪,,32,32,35,22,25,9,,10,10,20,25,6,5,1.2,1.1
2025-03-11T1000,1727A,113.1147,36.1547,长治市,清华站,细颗粒物(PM2.5),89,97,75,66,48,43,,51,36,38,26,10,10,1.1,1
2025-03-11T1000,1730A,113.0886,36.2125,长治市,审计局,细颗粒物(PM2.5),122,103,72,92,56,40,,58,44,52,28,12,8,1.4,0.7
2025-03-11T1000,1731A,113.0844,36.1856,长治市,长治八中,细颗粒物(PM2.5),119,126,95,90,61,41,,64,53,41,22,12,9,0.9,0.5
2025-03-11T1000,2845A,113.1569,36.1911,长治市,德盛苑,细颗粒物(PM2.5),100,99,74,75,48,30,,88,74,48,19,7,5,1.2,0.9
2025-03-11T1000,3568A,113.06,36.0464,长治市,向阳小学,细颗粒物(PM2.5),105,125,97,79,57,32,,70,57,38,16,11,10,0.9,0.7
2025-03-11T1000,3569A,112.8792,36.3144,长治市,屯留一中,细颗粒物(PM2.5),88,83,76,65,53,48,,24,19,40,35,12,9,0.6,0.5
2025-03-11T1000,4189A,113.1131,36.19948,长治市,英华南巷50号,细颗粒物(PM2.5),104,100,78,78,52,50,,64,52,38,24,12,9,1.1,0.7
2025-03-11T1000,4190A,113.2367,36.3344,长治市,学府街1号,细颗粒物(PM2.5),166,167,104,126,63,42,,36,35,48,43,17,5,2.6,1
2025-03-11T1000,1854A,111.6975,28.9703,常德市,市二中,,36,34,40,25,28,15,,13,12,15,16,6,7,0.6,0.6
2025-03-11T1000,1857A,111.7158,29.1456,常德市,白鹤山,,,,,,,,,,,,,,,,
2025-03-11T1000,3138A,111.7153,29.0289,常德市,武陵区永安,,33,32,41,23,26,13,,17,16,16,12,5,5,0.8,0.7
2025-03-11T1000,3139A,111.6892,28.9881,常德市,鼎城区玉霞,,34,34,41,20,24,17,,16,15,18,19,5,6,0.7,0.6
2025-03-11T1000,3140A,111.6625,29.0531,常德市,武陵区长庚,,34,34,47,20,26,14,,12,11,12,12,5,6,0.7,0.7
2025-03-11T1000,1196A,119.9633,31.762,常州市,市监测站,细颗粒物(PM2.5),128,132,103,97,60,32,,10,10,58,52,13,9,1.2,0.7
2025-03-11T1000,1200A,119.9468,31.7069,常州市,武进监测站,细颗粒物(PM2.5),97,109,82,72,54,40,,11,11,51,49,2,4,0.7,0.8
2025-03-11T1000,1201A,119.9255,31.9087,常州市,安家,细颗粒物(PM2.5),118,112,87,89,52,37,,9,9,46,54,10,8,1.0,0.8
2025-03-11T1000,3002A,119.9805,31.8174,常州市,行政中心,细颗粒物(PM2.5),117,116,87,88,58,35,,9,9,49,51,15,11,0.8,0.5
2025-03-11T1000,3003A,120.0522,31.7748,常州市,经开区,细颗粒物(PM2.5),115,106,87,87,53,39,,13,13,54,52,10,9,0.7,0.6
2025-03-11T1000,3010A,119.9025,31.7964,常州市,钟楼,细颗粒物(PM2.5),128,122,90,97,61,38,,11,11,51,47,10,8,1.0,0.6
2025-03-11T1000,3429A,119.8598,31.7066,常州市,武进经发区,细颗粒物(PM2.5),93,106,79,69,55,45,,13,13,57,54,9,8,1.0,0.9
2025-03-11T1000,3430A,119.5826,31.7245,常州市,金坛城区,细颗粒物(PM2.5),93,126,93,69,56,48,,12,12,46,39,11,8,0.9,0.8
2025-03-11T1000,2220A,120.4318,41.5881,朝阳市,西梁,细颗粒物(PM2.5),144,126,122,110,96,107,,98,98,25,24,14,12,1.3,1.1
2025-03-11T1000,2221A,120.4521,41.5646,朝阳市,河畔小区,细颗粒物(PM2.5),132,,101,100,92,111,,104,104,22,23,12,10,1.2,1.1
2025-03-11T1000,2222A,120.4176,41.5648,朝阳市,八里堡,细颗粒物(PM2.5),135,,90,103,89,95,,104,101,30,22,16,12,1.2,1
2025-03-11T1000,2223A,120.3806,41.5969,朝阳市,农业园区,细颗粒物(PM2.5),142,,100,108,108,119,,106,106,21,27,15,11,1.2,1.2
2025-03-11T1000,1705A,116.6367,23.6719,潮州市,西园路,细颗粒物(PM2.5),87,83,57,64,43,40,,41,33,31,22,10,7,0.5,0.4
2025-03-11T1000,3026A,116.6183,23.6608,潮州市,市政府,细颗粒物(PM2.5),82,85,58,60,38,34,,34,28,48,32,12,11,1.1,0.6
2025-03-11T1000,4036A,116.6461,23.6761,潮州市,金山,,,84,54,70,43,,,39,30,37,23,,8,0.9,0.7
2025-03-11T1000,2472A,113.0073,25.9061,郴州市,马头岭,颗粒物(PM10),57,64,47,27,21,22,,19,18,31,25,26,13,0.9,0.8
2025-03-11T1000,2473A,113.0116,25.8226,郴州市,市职中,细颗粒物(PM2.5),68,66,47,49,37,14,,6,6,28,24,19,9,1.1,0.9
2025-03-11T1000,2475A,113.0383,25.8071,郴州市,市审计局,细颗粒物(PM2.5),67,53,53,48,44,13,,5,5,25,25,18,15,0.9,0.8
2025-03-11T1000,2476A,113.0348,25.7759,郴州市,市环保局,细颗粒物(PM2.5),74,69,67,54,48,12,,4,4,30,26,33,15,1.1,0.9
2025-03-11T1000,4252A,113.0138,25.8011,郴州市,好美居路49号,细颗粒物(PM2.5),65,75,55,47,43,14,,5,5,28,25,21,15,1.1,0.8
2025-03-11T1000,1431A,103.9728,30.7236,成都市,金泉两河,颗粒物(PM10),65,79,99,41,58,38,,34,34,23,32,2,3,0.7,0.8
2025-03-11T1000,1432A,104.176,30.6872,成都市,十里店,颗粒物(PM10),62,73,77,40,54,41,,24,24,33,46,2,3,0.7,0.7
2025-03-11T1000,1433A,104.079,30.5706,成都市,三瓦窑,细颗粒物(PM2.5),69,75,80,50,52,42,,34,34,33,39,4,4,0.8,0.8
2025-03-11T1000,1434A,104.1114,30.63,成都市,沙河铺,细颗粒物(PM2.5),79,75,81,58,62,41,,27,27,29,37,5,5,0.8,0.9
2025-03-11T1000,1437A,104.0786,30.6531,成都市,君平街,细颗粒物(PM2.5),62,64,86,44,65,47,,39,39,31,50,5,6,0.8,0.8
2025-03-11T1000,1438A,103.613,31.0283,成都市,灵岩寺,,,,,,,,,,,,,,,,
2025-03-11T1000,2880A,104.0239,30.65639,成都市,大石西路,细颗粒物(PM2.5),73,70,89,53,67,45,,38,38,28,48,5,5,1.0,1.1
2025-03-11T1000,3136A,104.2725,30.5589,成都市,龙泉驿区区政府,细颗粒物(PM2.5),77,73,64,56,49,29,,13,13,29,34,4,4,0.7,0.8
2025-03-11T1000,3357A,104.0106,30.6931,成都市,金博路,颗粒物(PM10),59,67,82,39,54,43,,29,29,21,39,6,6,0.8,0.9
2025-03-11T1000,3359A,104.0578,30.5225,成都市,华阳,细颗粒物(PM2.5),77,73,71,56,51,30,,27,27,34,36,6,6,0.8,0.8
2025-03-11T1000,3488A,104.3853,30.7453,成都市,青白江技师分院,细颗粒物(PM2.5),98,73,67,73,56,26,,11,11,30,37,5,6,0.7,0.6
2025-03-11T1000,3489A,104.0789,30.4072,成都市,科学城,细颗粒物(PM2.5),87,81,64,64,52,25,,22,20,41,37,5,5,0.7,0.7
2025-03-11T1000,4011A,103.8506,30.6947,成都市,光华大道三段,细颗粒物(PM2.5),79,72,84,58,62,36,,37,36,32,40,4,5,0.9,0.9
2025-03-11T1000,4224A,104.2433,30.5353,成都市,鲸龙路1057号,细颗粒物(PM2.5),80,89,79,59,53,26,,14,14,36,41,4,4,0.9,0.9
2025-03-11T1000,1062A,117.9531,40.9081,承德市,铁路,细颗粒物(PM2.5),160,178,138,122,98,42,,46,36,54,34,8,7,1.0,0.8
2025-03-11T1000,1063A,117.9392,40.9763,承德市,中国银行,,,,133,,94,55,,39,34,34,28,5,5,0.9,0.8
2025-03-11T1000,1064A,117.9503,40.928,承德市,开发区,细颗粒物(PM2.5),137,170,128,104,88,57,,53,43,51,34,8,8,1.1,0.9
2025-03-11T1000,1065A,117.8051,40.9655,承德市,文化中心,细颗粒物(PM2.5),162,195,152,123,102,57,,37,36,51,38,14,8,1.4,0.8
2025-03-11T1000,1066A,117.9268,41.0026,承德市,离宫,细颗粒物(PM2.5),168,170,139,127,106,73,,52,46,30,25,7,7,0.8,0.7
2025-03-11T1000,2314A,117.47,30.6618,池州市,池州学院,细颗粒物(PM2.5),54,50,43,38,33,35,,25,25,18,21,23,11,1.3,0.7
2025-03-11T1000,3237A,117.4918,30.6617,池州市,展览馆,细颗粒物(PM2.5),53,45,42,37,35,35,,27,27,16,18,26,12,0.8,0.7
2025-03-11T1000,3333A,117.5627,30.695,池州市,第八中学,,,38,40,32,30,,,25,25,,19,,10,0.6,0.6
2025-03-11T1000,3334A,117.5038,30.6243,池州市,第十二中学,,46,41,36,32,29,31,,18,18,16,21,11,13,0.7,0.7
2025-03-11T1000,1744A,118.9233,42.2816,赤峰市,松山一中,细颗粒物(PM2.5),103,109,108,77,63,116,,119,115,28,26,,11,0.9,0.9
2025-03-11T1000,1745A,118.9576,42.2728,赤峰市,哈达街,细颗粒物(PM2.5),97,113,109,72,57,113,,116,111,24,23,12,13,0.9,0.8
2025-03-11T1000,1746A,118.8788,42.2554,赤峰市,天义路,细颗粒物(PM2.5),134,125,110,102,87,100,,101,99,24,22,7,8,0.7,0.6
2025-03-11T1000,3058A,119.2658,42.0353,赤峰市,银河街,细颗粒物(PM2.5),185,186,133,139,86,81,,66,61,43,31,44,25,1.2,1
2025-03-11T1000,3286A,118.9359,42.3147,赤峰市,桥北物流园区,细颗粒物(PM2.5),159,,111,121,88,99,,97,92,24,25,10,10,1.0,0.9
2025-03-11T1000,2521A,107.3476,22.4136,崇左市,市环保局江州分局,细颗粒物(PM2.5),107,117,112,80,71,29,,18,17,22,23,12,7,1.1,1
2025-03-11T1000,4256A,107.3750,22.3736,崇左市,石景林东路7号,细颗粒物(PM2.5),120,126,105,91,74,20,,15,12,38,28,11,8,1.1,1
2025-03-11T1000,2298A,118.3093,32.3153,滁州市,老年大学,细颗粒物(PM2.5),124,101,82,94,63,28,,10,10,40,33,8,7,0.9,0.7
2025-03-11T1000,2299A,118.3244,32.2786,滁州市,人大宾馆,细颗粒物(PM2.5),123,100,83,93,69,29,,14,10,57,43,9,9,0.9,0.7
2025-03-11T1000,3207A,118.3118,32.3038,滁州市,市政府原办公楼,细颗粒物(PM2.5),119,105,78,90,62,32,,10,10,49,40,7,6,0.8,0.5
2025-03-11T1000,3331A,118.3267,32.2634,滁州市,图书馆,,,93,87,,56,29,,17,9,50,43,9,7,0.8,0.6
2025-03-11T1000,2605A,101.5482,25.0441,楚雄彝族自治州,州环境监测站,细颗粒物(PM2.5),67,69,45,48,33,46,,52,47,55,21,25,7,0.9,0.7
2025-03-11T1000,2606A,101.538,25.0492,楚雄彝族自治州,市经济开发区,,,,46,,32,49,,57,53,,20,12,8,,0.7
2025-03-11T1000,2548A,107.5277,31.2827,达州市,达州职业技术学院,颗粒物(PM10),55,60,51,37,29,16,,9,9,32,27,15,6,0.4,0.3
2025-03-11T1000,2549A,107.5086,31.2186,达州市,市环境监测站,颗粒物(PM10),56,62,49,29,27,12,,10,10,48,43,16,7,0.7,0.7
2025-03-11T1000,2550A,107.4988,31.2132,达州市,凤凰小区,颗粒物(PM10),52,53,49,34,30,18,,14,14,43,39,16,8,0.6,0.6
2025-03-11T1000,2551A,107.5082,31.1986,达州市,达县机关宾馆,颗粒物(PM10),51,51,47,35,30,19,,14,14,36,37,14,6,0.8,0.8
2025-03-11T1000,2552A,107.4644,31.2124,达州市,市政中心,颗粒物(PM10),57,64,59,31,30,9,,7,7,51,45,13,4,0.9,0.8
2025-03-11T1000,2614A,100.1542,25.7054,大理白族自治州,大理市环境监测站,,48,46,42,33,31,112,,123,117,9,7,8,7,0.6,0.6
2025-03-11T1000,2615A,100.2171,25.5811,大理白族自治州,大理古城,,36,34,39,25,29,103,,107,98,12,9,8,7,0.5,0.4
2025-03-11T1000,1109A,121.612,38.9741,大连市,甘井子,颗粒物(PM10),51,52,74,35,56,78,,82,78,33,31,5,6,0.6,0.7
2025-03-11T1000,1110A,121.565,38.9511,大连市,周水子,细颗粒物(PM2.5),58,54,79,41,67,72,,67,64,27,28,8,9,0.4,0.6
2025-03-11T1000,1111A,121.5637,38.8845,大连市,星海三站,,,51,77,41,65,80,,84,80,15,14,8,7,,0.9
2025-03-11T1000,1112A,121.6302,38.9117,大连市,青泥洼桥,,,38,68,31,56,83,,87,83,14,13,,8,0.2,0.3
2025-03-11T1000,1113A,121.6251,38.8638,大连市,傅家庄,细颗粒物(PM2.5),54,49,77,38,58,79,,84,80,18,20,7,6,0.6,0.6
2025-03-11T1000,1114A,121.5213,38.8661,大连市,七贤岭,,50,45,78,35,61,71,,70,66,22,20,9,8,0.4,0.5
2025-03-11T1000,1115A,121.2529,38.8061,大连市,旅顺,,48,39,75,33,60,70,,73,69,27,20,6,6,0.5,0.6
2025-03-11T1000,1116A,121.7485,39.1311,大连市,金州,,40,39,73,28,51,93,,90,90,20,21,8,8,0.6,0.6
2025-03-11T1000,1117A,121.7811,39.0496,大连市,开发区,细颗粒物(PM2.5),62,63,86,44,66,62,,64,58,38,33,10,7,0.8,1
2025-03-11T1000,1118A,121.9762,39.0631,大连市,双D港,细颗粒物(PM2.5),98,,85,73,105,82,,67,64,27,23,10,9,0.7,0.8
2025-03-11T1000,1789A,124.81117,46.03138,大庆市,大同区,细颗粒物(PM2.5),100,112,219,75,51,63,,55,55,18,20,7,5,1.1,0.8
2025-03-11T1000,1790A,125.129,46.533,大庆市,龙凤区,颗粒物(PM10),136,222,158,91,37,62,,44,43,35,25,14,10,0.8,0.7
2025-03-11T1000,1791A,124.902,46.408,大庆市,红岗区,细颗粒物(PM2.5),127,184,148,96,35,80,,62,61,14,13,6,5,0.7,0.4
2025-03-11T1000,1792A,125.153,46.586,大庆市,萨尔图区,颗粒物(PM10),105,160,172,59,31,62,,56,53,33,23,11,8,0.4,0.3
2025-03-11T1000,1793A,124.9042,46.6215,大庆市,让胡路区,颗粒物(PM10),84,117,126,44,34,52,,55,48,50,19,13,8,0.8,0.6
2025-03-11T1000,3481A,125.141,46.634,大庆市,萨区政府监测点,颗粒物(PM10),70,90,165,44,32,57,,55,50,27,17,29,8,0.5,0.5
2025-03-11T1000,1721A,113.3819,40.1097,大同市,果树场,细颗粒物(PM2.5),182,,120,137,72,29,,44,33,60,29,25,12,1.6,1
2025-03-11T1000,1723A,113.2994,40.0758,大同市,云冈宾馆,细颗粒物(PM2.5),99,146,137,74,54,36,,18,15,56,44,22,12,1.8,1
2025-03-11T1000,1724A,113.3444,40.0917,大同市,大同大学,细颗粒物(PM2.5),107,143,120,80,56,24,,49,35,64,32,18,14,1.5,0.8
2025-03-11T1000,1725A,113.2661,40.1269,大同市,安家小村,颗粒物(PM10),105,159,162,46,63,80,,60,57,23,35,19,15,0.6,0.8
2025-03-11T1000,1726A,113.2711,40.0844,大同市,教育学院,细颗粒物(PM2.5),103,151,169,77,69,,,10,7,48,55,27,14,0.9,0.9
2025-03-11T1000,3282A,113.3397,40.0597,大同市,大同市卫生学校,细颗粒物(PM2.5),104,147,126,78,56,28,,43,34,61,34,16,11,1.5,0.8
2025-03-11T1000,3565A,113.1367,40.1122,大同市,云冈站,细颗粒物(PM2.5),94,123,140,70,61,54,,14,14,30,33,24,18,0.9,0.9
2025-03-11T1000,3566A,113.1186,40.2556,大同市,图书馆,细颗粒物(PM2.5),108,123,142,81,59,70,,29,29,22,23,16,14,0.8,0.8
2025-03-11T1000,3567A,113.5931,40.0461,大同市,区一中,颗粒物(PM10),114,177,148,75,43,25,,68,59,60,21,24,20,1.1,0.7
2025-03-11T1000,4199A,113.2798,40.0997,大同市,魏都大道141号,颗粒物(PM10),123,195,156,70,64,41,,16,16,49,48,25,17,,1.2
2025-03-11T1000,2269A,124.1069,50.4097,大兴安岭地区,科技局,,29,29,60,20,32,91,,92,90,6,9,6,6,0.4,0.5
2025-03-11T1000,3663A,124.1164,50.4278,大兴安岭地区,红旗社区,,30,19,39,10,20,93,,95,93,8,10,4,4,0.4,0.4
2025-03-11T1000,1600A,124.3303,40.0625,丹东市,江湾东路,"颗粒物(PM10),细颗粒物(PM2.5)",52,54,97,36,84,109,,79,79,12,21,9,12,0.6,1.1
2025-03-11T1000,1601A,124.4256,40.1503,丹东市,临江后街,细颗粒物(PM2.5),73,75,94,53,72,104,,74,74,16,23,12,9,0.9,1.1
2025-03-11T1000,1602A,124.3933,40.1461,丹东市,元宝山,细颗粒物(PM2.5),68,60,83,49,70,93,,88,88,23,23,9,7,0.6,0.8
2025-03-11T1000,1603A,124.3633,40.1092,丹东市,民主桥,颗粒物(PM10),60,70,93,36,78,102,,79,79,11,24,7,8,0.8,1.3
2025-03-11T1000,3541A,109.5726,19.5167,儋州市,第一中学子站,,38,38,24,17,12,44,,47,41,7,3,6,4,0.8,0.6
2025-03-11T1000,3542A,109.5567,19.5187,儋州市,东坡学校子站,,38,38,39,17,11,47,,50,43,8,5,6,4,0.6,0.6
2025-03-11T1000,2616A,98.5842,24.428,德宏傣族景颇族自治州,德宏州监测站,细颗粒物(PM2.5),88,98,73,65,49,29,,31,23,38,27,9,10,1.0,0.8
2025-03-11T1000,3677A,98.5881,24.4368,德宏傣族景颇族自治州,芒市人民政府综合楼,细颗粒物(PM2.5),82,89,79,60,47,32,,71,60,44,17,8,8,0.9,0.5
2025-03-11T1000,1901A,104.4239,31.1208,德阳市,东山公园,细颗粒物(PM2.5),87,71,69,64,59,24,,30,30,41,25,3,3,0.8,0.8
2025-03-11T1000,1902A,104.3826,31.1317,德阳市,西小区,,,,83,,67,26,,30,30,,35,4,4,0.8,0.8
2025-03-11T1000,1904A,104.3553,31.1091,德阳市,耐火材料厂,细颗粒物(PM2.5),94,85,80,70,68,31,,31,31,35,37,7,7,0.7,0.6
2025-03-11T1000,3639A,104.4019,31.1244,德阳市,市教育局,细颗粒物(PM2.5),93,71,71,69,62,28,,31,31,40,36,4,4,0.8,0.8
2025-03-11T1000,1622A,116.3032,37.4674,德州市,儿童乐园,细颗粒物(PM2.5),110,124,128,83,89,87,,97,88,26,22,9,8,1.1,0.9
2025-03-11T1000,1624A,116.2991,37.4451,德州市,监理站,细颗粒物(PM2.5),110,119,118,83,86,81,,93,84,29,27,19,16,1.0,0.9
2025-03-11T1000,3066A,116.2721,37.4379,德州市,九衢泉纯净水厂,细颗粒物(PM2.5),92,122,124,68,74,78,,84,78,26,24,12,11,1.0,0.9
2025-03-11T1000,3371A,116.3728,37.4403,德州市,开发区人民医院,细颗粒物(PM2.5),107,122,123,80,77,83,,83,80,19,25,15,13,1.0,0.8
2025-03-11T1000,3372A,116.3572,37.4094,德州市,太阳城中学,细颗粒物(PM2.5),98,117,122,73,80,87,,86,81,21,22,10,8,1.3,0.8
2025-03-11T1000,3511A,116.5652,37.3319,德州市,陵城艺术中心,细颗粒物(PM2.5),107,107,108,80,80,79,,90,83,24,24,10,10,0.7,0.7
2025-03-11T1000,2621A,99.7056,27.8317,迪庆藏族自治州,迪庆州站,颗粒物(PM10),63,75,44,36,24,70,,72,67,24,12,8,8,0.7,0.5
2025-03-11T1000,3180A,99.7136,27.8094,迪庆藏族自治州,质量技术监督局,细颗粒物(PM2.5),60,66,37,43,26,71,,76,66,25,14,8,8,0.9,0.7
2025-03-11T1000,4257A,104.6092,35.5962,定西市,将台街,颗粒物(PM10),500,608,175,111,43,86,,56,56,11,16,6,9,0.3,0.4
2025-03-11T1000,4309A,104.6159,35.5701,定西市,正龙路62号,颗粒物(PM10),500,675,185,109,48,91,,66,66,6,11,5,6,0.2,0.5
2025-03-11T1000,1389A,113.7547,23.0494,东莞市,莞城梨川,颗粒物(PM10),66,82,49,47,28,86,,34,34,52,38,7,5,0.7,0.8
2025-03-11T1000,1390A,113.7944,23.0128,东莞市,东城石井,颗粒物(PM10),59,67,39,41,22,67,,22,22,53,28,7,5,0.7,0.6
2025-03-11T1000,1391A,113.7383,22.9658,东莞市,南城西平,,50,50,47,27,22,70,,20,20,40,52,9,10,0.6,0.6
2025-03-11T1000,3319A,113.7338,23.0381,东莞市,万江金泰,颗粒物(PM10),63,76,44,36,24,86,,42,42,48,35,7,5,0.8,0.7
2025-03-11T1000,3626A,113.7533,23.0202,东莞市,南城元岭,颗粒物(PM10),60,70,42,38,21,59,,32,32,53,36,6,5,0.9,0.7
2025-03-11T1000,3627A,113.7875,23.0457,东莞市,东城主山,颗粒物(PM10),62,74,49,38,21,87,,31,31,50,45,8,7,0.7,0.6
2025-03-11T1000,1666A,118.6614,37.4309,东营市,市环保局,细颗粒物(PM2.5),98,105,105,73,69,55,,47,46,24,25,6,6,1.0,1.1
2025-03-11T1000,3036A,118.6904,37.4338,东营市,开发区管委会,细颗粒物(PM2.5),119,106,104,90,82,47,,56,52,32,28,7,6,0.9,1
2025-03-11T1000,3365A,118.5719,37.565,东营市,垦利区民丰路,,,88,93,56,64,,,53,50,43,40,5,5,0.8,0.8
2025-03-11T1000,3498A,118.5055,37.8612,东营市,河口城区,细颗粒物(PM2.5),95,127,123,71,74,74,,52,52,28,27,9,6,1.1,1
2025-03-11T1000,3646A,118.4978,37.4623,东营市,胜利站,细颗粒物(PM2.5),100,130,122,75,72,57,,50,47,36,35,9,9,1.1,1
2025-03-11T1000,3734A,118.35,37.26,东营市,理想之城,细颗粒物(PM2.5),100,112,111,75,74,62,,46,44,23,29,8,7,0.8,0.8
2025-03-11T1000,1591A,110.0023,39.8129,鄂尔多斯市,综合楼,颗粒物(PM10),500,1255,204,185,51,84,,73,73,13,30,4,10,0.3,0.5
2025-03-11T1000,1592A,109.9486,39.8261,鄂尔多斯市,巴音孟克林场办事处,颗粒物(PM10),500,1265,197,202,49,87,,82,82,11,26,6,16,0.3,0.6
2025-03-11T1000,1593A,109.7736,39.5986,鄂尔多斯市,康泽苑,颗粒物(PM10),500,1834,205,300,51,89,,69,69,7,25,7,10,0.5,0.6
2025-03-11T1000,1594A,109.8119,39.5989,鄂尔多斯市,华泰汽车城,颗粒物(PM10),500,1602,194,261,53,84,,49,49,9,33,5,8,0.4,0.7
2025-03-11T1000,1595A,109.9734,39.7884,鄂尔多斯市,奥林花园,颗粒物(PM10),500,1255,206,185,52,88,,59,59,11,39,7,9,0.2,0.5
2025-03-11T1000,2436A,114.8938,30.3994,鄂州市,市政府,细颗粒物(PM2.5),67,61,73,48,61,34,,29,28,17,25,4,5,0.8,0.9
2025-03-11T1000,2437A,114.8989,30.3714,鄂州市,赵家坝,细颗粒物(PM2.5),69,66,78,50,60,27,,26,25,21,22,3,2,1.0,1.1
2025-03-11T1000,3654A,114.8094,30.4089,鄂州市,精准医疗中心,细颗粒物(PM2.5),70,75,68,51,52,22,,8,8,39,35,25,6,2.4,0.9
2025-03-11T1000,2454A,109.4978,30.2981,恩施土家族苗族自治州,湖北民院,细颗粒物(PM2.5),57,40,46,40,39,9,,16,13,33,24,3,3,0.4,0.3
2025-03-11T1000,2455A,109.4707,30.2798,恩施土家族苗族自治州,州电力总公司,"颗粒物(PM10),细颗粒物(PM2.5)",58,66,50,41,39,6,,7,7,28,23,5,6,0.5,0.4
2025-03-11T1000,3549A,109.5061,30.3772,恩施土家族苗族自治州,龙凤新区,,43,37,40,30,27,7,,21,18,25,16,6,6,1.0,0.8
2025-03-11T1000,2499A,108.3411,21.6158,防城港市,沙万,,47,47,58,27,40,26,,26,26,36,36,8,9,1.0,0.9
2025-03-11T1000,2500A,108.3514,21.7731,防城港市,防城档案局,,36,36,59,23,38,37,,11,11,27,28,6,7,0.6,0.7
2025-03-11T1000,2501A,108.3506,21.6414,防城港市,大海花园,细颗粒物(PM2.5),55,,54,39,55,44,,42,41,27,28,5,7,0.9,1.1
2025-03-11T1000,1371A,113.1294,23.0067,佛山市,湾梁,颗粒物(PM10),62,73,71,23,24,51,,37,37,49,50,10,9,0.6,0.6
2025-03-11T1000,1372A,113.1083,23.0478,佛山市,华材职中,颗粒物(PM10),52,53,63,25,32,67,,44,44,40,48,8,7,0.6,0.7
2025-03-11T1000,1373A,113.144,23.0453,佛山市,南海气象局,颗粒物(PM10),62,73,57,31,32,50,,33,33,40,38,8,7,0.6,0.6
2025-03-11T1000,1374A,113.2881,22.8094,佛山市,顺德苏岗,颗粒物(PM10),59,68,54,34,25,39,,10,10,51,44,6,6,0.8,0.7
2025-03-11T1000,1376A,112.8383,22.8678,佛山市,高明孔堂,,48,48,50,20,28,55,,45,39,24,27,6,7,0.5,0.6
2025-03-11T1000,1377A,112.8836,23.1588,佛山市,三水监测站,,48,48,72,32,41,42,,16,15,52,63,3,4,0.5,0.6
2025-03-11T1000,1378A,112.867,23.185,佛山市,三水云东海,,42,42,64,23,29,47,,20,18,57,53,2,4,0.6,0.6
2025-03-11T1000,3625A,113.2544,22.7642,佛山市,容桂街道办,颗粒物(PM10),60,70,55,41,30,49,,24,24,60,53,10,8,1.0,0.8
2025-03-11T1000,1280A,119.3903,26.0543,福州市,鼓山,,,,30,,20,,,81,,,10,,1,,0.4
2025-03-11T1000,1282A,119.2681,26.0504,福州市,师大,细颗粒物(PM2.5),60,55,40,43,21,36,,14,14,21,25,9,4,0.5,0.4
2025-03-11T1000,1283A,119.2984,26.1028,福州市,五四北路,"颗粒物(PM10),细颗粒物(PM2.5)",53,55,38,37,22,31,,18,15,32,31,4,4,0.7,0.5
2025-03-11T1000,1284A,119.2648,26.0768,福州市,杨桥西路,细颗粒物(PM2.5),53,50,38,37,19,38,,15,15,25,26,7,4,0.5,0.4
2025-03-11T1000,1285A,119.317,26.0746,福州市,紫阳,,,,44,,22,23,,13,10,37,39,4,4,0.7,0.6
2025-03-11T1000,3048A,119.5799,26.0936,福州市,九龙,,,,27,40,20,,,27,26,22,17,4,4,0.4,0.4
2025-03-11T1000,3526A,119.5189,25.9664,福州市,吴航,细颗粒物(PM2.5),58,64,46,41,26,29,,24,23,47,30,10,6,0.6,0.4
2025-03-11T1000,1755A,123.7977,41.8491,抚顺市,望花区,细颗粒物(PM2.5),73,64,97,53,60,114,,101,101,14,20,18,27,0.7,0.8
2025-03-11T1000,1756A,123.9161,41.8822,抚顺市,顺城区,细颗粒物(PM2.5),62,71,80,44,50,114,,103,101,15,17,9,8,0.7,0.7
2025-03-11T1000,1757A,124.0436,41.8611,抚顺市,东洲区,细颗粒物(PM2.5),55,58,74,39,48,121,,121,120,15,16,6,8,0.8,0.7
2025-03-11T1000,1758A,123.9247,41.8642,抚顺市,新抚区,颗粒物(PM10),59,68,82,36,55,112,,82,82,14,22,6,6,0.7,0.8
2025-03-11T1000,1759A,124.0972,41.8961,抚顺市,大伙房水库,,,44,66,44,52,,,107,107,9,9,7,7,0.6,0.6
2025-03-11T1000,1760A,123.7086,41.8391,抚顺市,沈抚新城,细颗粒物(PM2.5),65,67,83,47,53,115,,109,109,17,15,8,5,1.0,0.8
2025-03-11T1000,2376A,116.2127,28.0814,抚州市,桐源党溪,,49,49,38,33,23,14,,5,5,13,7,28,9,0.8,0.6
2025-03-11T1000,2377A,116.3544,27.9831,抚州市,市站,,43,43,34,26,20,21,,11,11,27,26,18,17,0.7,0.6
2025-03-11T1000,2378A,116.3565,27.963,抚州市,血防站,,42,42,38,28,21,20,,8,8,19,21,14,11,1.0,0.9
2025-03-11T1000,2379A,116.3564,28.0007,抚州市,采茶剧团,,42,42,32,28,20,16,,5,5,20,20,12,10,1.4,1.2
2025-03-11T1000,2380A,116.385,27.9647,抚州市,医学分院,,35,33,31,24,18,19,,9,9,24,16,8,6,1.1,1
2025-03-11T1000,2207A,121.6094,41.998,阜新市,工业园区,细颗粒物(PM2.5),127,129,147,96,90,73,,81,74,17,18,10,10,,0.8
2025-03-11T1000,2208A,121.6697,42.0279,阜新市,长青街,细颗粒物(PM2.5),125,,113,95,89,79,,81,73,22,21,11,10,1.0,0.8
2025-03-11T1000,2209A,121.6673,42.0705,阜新市,农业园区,细颗粒物(PM2.5),122,112,135,92,86,82,,81,74,13,12,14,13,0.8,0.8
2025-03-11T1000,2210A,121.6717,42.0224,阜新市,东苑,细颗粒物(PM2.5),110,101,115,83,74,68,,74,65,23,21,14,11,0.9,0.7
2025-03-11T1000,2211A,121.6506,42.0498,阜新市,玉龙新城,细颗粒物(PM2.5),120,93,130,91,88,75,,68,62,21,21,12,13,0.8,0.8
2025-03-11T1000,2301A,115.8277,32.8929,阜阳市,市监测站,,,,106,,80,,,17,17,22,37,8,7,,0.7
2025-03-11T1000,2303A,115.8554,32.8605,阜阳市,开发区,细颗粒物(PM2.5),108,105,117,81,76,72,,43,43,27,35,8,7,0.8,0.7
2025-03-11T1000,2875A,115.784,32.8892,阜阳市,阜阳职业技术学院,细颗粒物(PM2.5),90,100,97,67,68,70,,53,53,17,28,8,7,0.8,0.7
2025-03-11T1000,3468A,115.7901,32.8613,阜阳市,市规划展馆,细颗粒物(PM2.5),104,102,98,78,70,72,,83,80,21,19,8,7,0.9,0.7
2025-03-11T1000,3469A,115.836,32.9183,阜阳市,枣园社区,细颗粒物(PM2.5),102,128,119,76,75,73,,27,27,24,43,8,7,0.7,0.6
2025-03-11T1000,2669A,102.9099,34.9841,甘南藏族自治州,州政府,颗粒物(PM10),73,95,49,29,19,70,,30,30,11,23,9,8,0.4,0.5
2025-03-11T1000,3380A,102.8914,34.9617,甘南藏族自治州,甘肃民族师范学院,颗粒物(PM10),73,96,51,28,15,77,,22,22,6,19,11,9,0.3,0.3
2025-03-11T1000,2570A,101.9603,30.0475,甘孜藏族自治州,水桥子,颗粒物(PM10),60,70,24,20,8,16,,28,26,53,25,4,3,0.9,0.5
2025-03-11T1000,3065A,101.9533,29.9972,甘孜藏族自治州,州环保局,颗粒物(PM10),59,67,24,3,6,55,,65,65,26,10,4,4,0.4,0.3
2025-03-11T1000,3414A,115.8347,28.932,赣江新区,桑海产业园,细颗粒物(PM2.5),62,56,61,44,50,24,,7,7,28,39,9,10,0.5,0.5
2025-03-11T1000,2362A,114.9017,25.9149,赣州市,通天岩,,32,32,30,13,7,52,,53,42,4,4,10,11,0.4,0.4
2025-03-11T1000,2363A,114.9367,25.8664,赣州市,地委,,44,44,56,29,34,20,,36,29,29,28,10,6,1.1,1
2025-03-11T1000,2364A,114.9461,25.8481,赣州市,气象台,颗粒物(PM10),52,54,61,26,31,23,,42,33,37,36,15,9,1.0,0.8
2025-03-11T1000,2365A,114.9322,25.8333,赣州市,市图书馆,细颗粒物(PM2.5),58,56,59,41,35,19,,36,30,37,35,8,4,1.0,0.9
2025-03-11T1000,2366A,114.8905,25.8471,赣州市,华坚鞋城,,,51,62,25,36,28,,32,28,,31,9,7,0.7,0.7
2025-03-11T1000,3109A,115.0093,25.8613,赣州市,赣县区卫计委,细颗粒物(PM2.5),52,45,59,36,36,19,,11,11,27,28,8,5,0.7,0.6
2025-03-11T1000,2683A,106.2319,36.1417,固原市,马园,颗粒物(PM10),500,1270,301,209,51,74,,62,62,9,15,5,5,0.5,0.5
2025-03-11T1000,2684A,106.2792,36.0022,固原市,监测站,颗粒物(PM10),500,1083,293,206,52,84,,73,73,7,12,6,7,0.2,0.3
2025-03-11T1000,2685A,106.2375,36.0211,固原市,新区,颗粒物(PM10),500,1191,257,192,49,86,,74,74,2,9,6,7,0.3,0.4
2025-03-11T1000,3522A,106.2177,35.9959,固原市,原州区十五小,颗粒物(PM10),500,1141,190,186,45,87,,72,72,6,14,6,8,0.3,0.4
2025-03-11T1000,2543A,106.6308,30.5278,广安市,小平旧居,,,,,,,,,,,,,,,,
2025-03-11T1000,2544A,106.6303,30.4576,广安市,市委,颗粒物(PM10),58,65,49,38,39,40,,60,56,33,14,4,4,0.6,0.5
2025-03-11T1000,2545A,106.6271,30.4663,广安市,友谊中学,颗粒物(PM10),51,52,54,35,40,40,,58,55,34,19,1,2,0.7,0.6
2025-03-11T1000,2547A,106.6388,30.4551,广安市,广电花园,颗粒物(PM10),57,63,51,32,38,22,,52,42,49,22,4,4,0.6,0.6
2025-03-11T1000,2902A,106.6351,30.4865,广安市,北辰小学,颗粒物(PM10),63,75,47,33,39,38,,59,54,33,16,8,8,0.8,0.6
2025-03-11T1000,2523A,105.8945,32.4535,广元市,黑石坡,细颗粒物(PM2.5),64,54,63,46,37,48,,7,7,10,35,9,11,0.5,0.6
2025-03-11T1000,2524A,105.821,32.4444,广元市,老城,细颗粒物(PM2.5),68,72,71,49,45,22,,3,3,32,36,3,2,0.8,0.8
2025-03-11T1000,2526A,105.8628,32.4287,广元市,监测站,,,76,65,52,49,21,,5,5,,37,5,7,0.8,0.8
2025-03-11T1000,3617A,105.8047,32.4166,广元市,经开区,细颗粒物(PM2.5),80,70,72,59,60,9,,6,6,35,39,2,2,1.1,1
2025-03-11T1000,1345A,113.2347,23.1423,广州市,广雅中学,,49,49,53,26,27,50,,14,14,50,55,5,5,0.8,0.7
2025-03-11T1000,1346A,113.2612,23.105,广州市,市五中,颗粒物(PM10),51,52,54,23,26,49,,12,12,49,53,4,4,0.6,0.6
2025-03-11T1000,1348A,113.3478,23.0916,广州市,广东商学院,颗粒物(PM10),51,51,55,24,27,47,,10,10,54,58,6,5,0.7,0.7
2025-03-11T1000,1349A,113.4332,23.1047,广州市,市八十六中,颗粒物(PM10),58,65,58,28,26,34,,10,10,79,71,12,6,0.4,0.3
2025-03-11T1000,1350A,113.3505,22.9483,广州市,番禺中学,颗粒物(PM10),51,51,46,30,24,53,,15,15,53,50,9,7,0.6,0.6
2025-03-11T1000,1351A,113.2146,23.3916,广州市,花都师范,颗粒物(PM10),64,78,61,37,33,32,,10,10,71,55,8,5,0.7,0.7
2025-03-11T1000,1352A,113.2597,23.1331,广州市,市监测站,颗粒物(PM10),51,51,53,24,23,47,,14,14,52,54,8,7,0.8,0.7
2025-03-11T1000,1353A,113.5618,23.312,广州市,九龙镇镇龙,颗粒物(PM10),58,65,63,38,36,38,,8,8,44,53,10,6,0.6,0.7
2025-03-11T1000,1354A,113.2765,23.1544,广州市,麓湖,,49,49,46,24,22,50,,14,14,58,55,5,4,0.6,0.6
2025-03-11T1000,1355A,113.443,23.3035,广州市,帽峰山森林公园,,33,33,46,22,26,61,,26,26,31,42,8,7,0.7,0.7
2025-03-11T1000,2846A,113.3221,23.1322,广州市,体育西,颗粒物(PM10),56,62,53,31,27,57,,14,14,56,61,8,6,0.7,0.7
2025-03-11T1000,3298A,113.5717,23.5491,广州市,从化街口,,48,48,68,32,45,63,,15,15,28,42,8,7,0.8,0.8
2025-03-11T1000,3299A,113.3472,23.3692,广州市,白云竹料,颗粒物(PM10),60,70,70,38,38,56,,16,16,46,51,10,8,0.8,0.8
2025-03-11T1000,3300A,113.2981,23.237,广州市,白云嘉禾,颗粒物(PM10),61,71,61,35,32,38,,9,9,67,63,6,4,0.6,0.6
2025-03-11T1000,3301A,113.4256,23.1716,广州市,黄埔科学城,颗粒物(PM10),69,87,52,42,27,27,,7,7,76,53,13,8,0.7,0.5
2025-03-11T1000,3302A,113.3942,23.0483,广州市,番禺大学城,颗粒物(PM10),59,68,73,27,24,65,,18,18,60,53,7,6,0.3,0.3
2025-03-11T1000,3303A,113.4922,22.8168,广州市,南沙黄阁,颗粒物(PM10),55,59,47,38,24,43,,16,16,60,43,6,6,0.8,0.6
2025-03-11T1000,3304A,113.5342,22.7896,广州市,南沙街,,49,49,39,31,20,64,,24,24,46,39,7,7,0.7,0.5
2025-03-11T1000,3443A,113.2902,23.5544,广州市,花都梯面,,49,49,55,26,33,74,,13,13,24,44,6,5,0.6,0.7
2025-03-11T1000,3445A,113.7858,23.7478,广州市,从化良口,,25,23,32,17,25,52,,30,29,12,15,6,6,0.6,0.7
2025-03-11T1000,3446A,113.8051,23.2614,广州市,增城荔城,,,38,48,22,28,,,20,20,19,26,8,7,,0.6
2025-03-11T1000,2505A,109.568,23.1478,贵港市,德智高中,,,,,,,,,,,,,,,,
2025-03-11T1000,2506A,109.6047,23.0666,贵港市,江南子站,颗粒物(PM10),82,114,127,57,72,12,,13,11,50,51,8,8,0.9,1.1
2025-03-11T1000,2507A,109.6014,23.0948,贵港市,贵城子站,细颗粒物(PM2.5),77,100,106,56,67,20,,12,12,41,46,9,8,0.8,1.2
2025-03-11T1000,2508A,109.5669,23.1065,贵港市,荷城子站,细颗粒物(PM2.5),77,83,89,56,63,16,,17,17,47,43,10,10,1.0,1
2025-03-11T1000,3405A,109.5886,23.1172,贵港市,新世纪学校,细颗粒物(PM2.5),83,88,95,61,69,17,,6,6,44,40,2,3,0.7,0.8
2025-03-11T1000,1439A,106.6899,26.5998,贵阳市,马鞍山,,,27,24,14,14,43,,44,44,,17,6,5,0.7,0.8
2025-03-11T1000,1441A,106.6243,26.6266,贵阳市,鉴湖路,,31,31,31,14,13,57,,54,54,9,14,10,12,0.5,0.5
2025-03-11T1000,1442A,106.7487,26.6343,贵阳市,燕子冲,,35,29,28,24,25,41,,41,41,24,22,10,11,0.7,0.8
2025-03-11T1000,1443A,106.6555,26.4365,贵阳市,碧云窝,,36,36,29,22,12,60,,51,51,8,12,7,10,0.5,0.6
2025-03-11T1000,1445A,106.7109,26.6027,贵阳市,红边门,,42,34,40,29,29,30,,29,29,36,36,6,12,0.5,0.9
2025-03-11T1000,1446A,106.7164,26.5699,贵阳市,新华路,,35,34,36,24,22,36,,32,32,28,27,13,14,0.7,0.8
2025-03-11T1000,1447A,106.674,26.5424,贵阳市,太慈桥,,39,29,27,27,16,52,,45,45,14,18,8,10,0.3,0.4
2025-03-11T1000,1552A,106.805,26.3003,贵阳市,桐木岭,,40,40,29,28,18,60,,61,61,7,5,12,14,1.2,0.9
2025-03-11T1000,4230A,106.6882,26.5695,贵阳市,花果园大街66号,,39,27,22,27,22,35,,36,36,26,23,5,6,0.5,0.5
2025-03-11T1000,4231A,106.6873,26.5169,贵阳市,漓江路57号,,34,34,28,22,19,37,,35,35,22,20,13,15,0.5,0.6
2025-03-11T1000,1862A,110.4144,25.3167,桂林市,电子科大尧山校区,,,,,,,,,,,,,,,,
2025-03-11T1000,1864A,110.3089,25.2708,桂林市,龙隐路小学,,42,32,24,29,24,8,,6,6,28,27,8,8,1.0,0.9
2025-03-11T1000,1865A,110.2869,25.2178,桂林市,八中,,38,36,28,26,22,5,,2,2,30,34,8,7,1.0,0.9
2025-03-11T1000,3531A,110.296,25.1253,桂林市,旅游学院,,25,22,15,17,12,10,,6,6,22,24,6,6,0.9,0.9
2025-03-11T1000,4222A,110.1835,25.2444,桂林市,环湖路276号,,32,24,21,22,21,3,,2,2,31,34,10,9,1.3,1.1
2025-03-11T1000,4301A,110.2803,25.2773,桂林市,信义路13号,,42,33,25,29,21,5,,3,3,31,33,6,6,1.5,1.2
2025-03-11T1000,2674A,100.2561,34.4714,果洛藏族自治州,玛沁县大武镇,,40,40,33,11,15,50,,42,40,8,5,19,12,0.5,0.4
2025-03-11T1000,1129A,126.5422,45.755,哈尔滨市,岭北,细颗粒物(PM2.5),120,120,334,91,79,95,,88,88,27,21,21,12,1.0,0.9
2025-03-11T1000,1130A,126.561,45.8167,哈尔滨市,松北商大,细颗粒物(PM2.5),127,112,296,96,66,84,,79,76,23,18,8,6,0.8,0.7
2025-03-11T1000,1131A,126.979,45.5419,哈尔滨市,阿城会宁,细颗粒物(PM2.5),110,88,378,83,92,84,,76,73,14,17,14,14,0.8,0.7
2025-03-11T1000,1132A,126.599,45.7222,哈尔滨市,南岗学府路,细颗粒物(PM2.5),112,130,365,84,69,75,,84,80,30,20,12,7,0.9,0.7
2025-03-11T1000,1133A,126.689,45.7733,哈尔滨市,太平宏伟公园,细颗粒物(PM2.5),128,126,378,97,76,73,,82,78,33,24,13,8,0.7,0.6
2025-03-11T1000,1134A,126.635,45.7667,哈尔滨市,道外承德广场,细颗粒物(PM2.5),128,153,341,97,81,68,,71,67,27,24,11,7,1.0,0.7
2025-03-11T1000,1135A,126.685,45.7319,哈尔滨市,香坊红旗大街,细颗粒物(PM2.5),123,124,426,93,74,64,,69,64,36,24,17,10,0.9,0.9
2025-03-11T1000,1136A,126.6411,45.7258,哈尔滨市,动力和平路,细颗粒物(PM2.5),135,119,365,103,76,66,,84,77,32,19,12,7,1.0,0.7
2025-03-11T1000,1137A,126.593,45.7478,哈尔滨市,道里建国路,细颗粒物(PM2.5),130,122,343,99,81,68,,71,67,28,24,18,13,0.9,0.7
2025-03-11T1000,1138A,126.615,45.61,哈尔滨市,平房东轻厂,细颗粒物(PM2.5),113,99,384,85,84,77,,77,72,16,16,14,8,0.8,0.7
2025-03-11T1000,1139A,126.595,45.9855,哈尔滨市,呼兰师专,细颗粒物(PM2.5),159,,285,121,70,85,,74,74,22,18,15,9,0.7,0.4
2025-03-11T1000,1140A,126.6206,45.6842,哈尔滨市,省农科院,细颗粒物(PM2.5),128,123,392,97,85,,,68,64,28,21,,9,0.9,0.8
2025-03-11T1000,2688A,93.5128,42.8172,哈密市,地区监测站,颗粒物(PM10),56,62,181,16,22,51,,62,59,18,9,3,4,0.4,0.2
2025-03-11T1000,2689A,93.4961,42.8328,哈密市,哈密师范学校,,44,44,119,10,28,53,,65,62,26,10,4,4,0.4,0.4
2025-03-11T1000,2671A,100.9048,36.9639,海北藏族自治州,海晏县西海镇,,29,29,26,13,10,51,,51,51,17,4,10,9,0.4,0.3
2025-03-11T1000,3867A,102.0738,36.5056,海东市,平安区公安北苑,颗粒物(PM10),500,894,110,124,35,66,,38,33,11,9,19,18,1.0,1.1
2025-03-11T1000,1409A,110.576,19.9507,海口市,东寨港,,,,40,,20,,,78,,,4,,5,,0.8
2025-03-11T1000,1410A,110.3232,20.0574,海口市,海南大学,,45,45,70,20,23,77,,67,67,19,13,3,3,0.4,0.4
2025-03-11T1000,1411A,110.283,20.0053,海口市,秀英海南医院,,34,34,62,21,21,69,,60,58,15,13,4,4,0.4,0.4
2025-03-11T1000,1412A,110.338,19.9969,海口市,海南师范大学,,39,39,64,20,21,76,,70,68,12,8,4,4,0.4,0.4
2025-03-11T1000,1413A,110.33,20.0356,海口市,龙华路环保局宿舍,,38,38,62,18,20,80,,68,68,12,9,4,4,0.4,0.4
2025-03-11T1000,3539A,110.5111,19.9736,海口市,桂林洋子站,,26,26,50,14,18,83,,65,65,6,8,3,3,0.3,0.3
2025-03-11T1000,2673A,100.6188,36.2866,海南藏族自治州,共和县恰卜恰镇,颗粒物(PM10),56,61,34,14,15,69,,45,45,21,15,7,7,0.7,0.5
2025-03-11T1000,2676A,97.3731,37.3753,海西蒙古族藏族自治州,德令哈市,颗粒物(PM10),86,122,65,28,20,73,,67,62,10,13,16,16,0.5,0.6
2025-03-11T1000,1048A,114.5302,36.6116,邯郸市,东污水处理厂,细颗粒物(PM2.5),100,91,97,75,70,54,,58,51,22,20,2,2,0.6,0.6
2025-03-11T1000,1049A,114.4918,36.5713,邯郸市,矿院,细颗粒物(PM2.5),100,86,110,75,69,50,,53,46,17,16,2,2,0.6,0.5
2025-03-11T1000,1050A,114.484,36.6133,邯郸市,丛台公园,细颗粒物(PM2.5),98,86,93,73,67,47,,58,50,23,16,3,2,0.7,0.5
2025-03-11T1000,3458A,114.7895,36.5593,邯郸市,香泉濮院小区,细颗粒物(PM2.5),110,111,102,83,72,73,,73,66,14,12,3,2,0.5,0.6
2025-03-11T1000,3579A,114.50634,36.77178,邯郸市,永年区实验高中,,,,105,,63,,,58,48,22,15,10,4,1.5,1
2025-03-11T1000,3580A,114.20016,36.44293,邯郸市,峰峰矿区临水派出所,细颗粒物(PM2.5),92,102,92,68,72,53,,73,65,20,12,8,10,1.0,1
2025-03-11T1000,2634A,106.9893,33.1842,汉中市,汉川机床厂子校,,,,31,,24,,,30,27,20,12,10,8,,0.8
2025-03-11T1000,2635A,107.0154,33.0706,汉中市,市监测站,颗粒物(PM10),57,64,42,37,31,14,,28,23,37,25,9,6,1.2,1
2025-03-11T1000,2636A,107.0089,33.1138,汉中市,鑫源开发区,颗粒物(PM10),62,74,50,43,34,12,,15,12,42,35,10,8,1.1,1
2025-03-11T1000,2637A,107.007,33.0323,汉中市,南郑大河坎水厂,颗粒物(PM10),59,67,48,40,34,11,,20,16,37,28,9,7,1.3,1
2025-03-11T1000,1223A,120.2072,30.2111,杭州市,滨江,颗粒物(PM10),63,76,76,40,38,13,,6,6,50,53,7,6,0.9,0.8
2025-03-11T1000,1224A,120.0633,30.2747,杭州市,西溪,颗粒物(PM10),70,90,86,47,45,21,,7,7,34,34,6,6,0.8,0.7
2025-03-11T1000,1226A,120.3417,30.3150,杭州市,下沙,细颗粒物(PM2.5),114,126,112,86,76,17,,5,5,68,70,6,6,0.6,0.6
2025-03-11T1000,1227A,120.1269,30.2456,杭州市,卧龙桥,细颗粒物(PM2.5),73,85,80,53,50,20,,8,8,46,46,6,6,0.5,0.6
2025-03-11T1000,1228A,120.1903,30.2692,杭州市,浙江农大,细颗粒物(PM2.5),58,59,57,41,42,19,,6,6,43,50,9,8,0.7,0.7
2025-03-11T1000,1230A,120.1197,30.3119,杭州市,和睦小学,颗粒物(PM10),69,87,88,49,52,24,,8,8,46,54,8,7,0.9,0.8
2025-03-11T1000,1231A,120.3019,30.4183,杭州市,临平镇,细颗粒物(PM2.5),120,126,108,91,78,13,,6,6,66,62,8,6,0.8,0.7
2025-03-11T1000,1232A,120.2753,30.1839,杭州市,城厢镇,细颗粒物(PM2.5),88,101,94,65,62,18,,7,7,62,68,8,7,0.8,0.7
2025-03-11T1000,1233A,120.0883,30.1808,杭州市,云栖,细颗粒物(PM2.5),88,88,81,65,60,19,,6,6,44,42,8,8,0.8,0.7
2025-03-11T1000,3557A,119.9464,30.0494,杭州市,镇二中,细颗粒物(PM2.5),67,61,60,48,46,18,,5,5,36,43,7,6,1.1,0.9
2025-03-11T1000,3558A,119.7183,30.2367,杭州市,市府大楼,"颗粒物(PM10),细颗粒物(PM2.5)",54,57,75,38,50,23,,16,14,36,38,8,8,0.7,0.7
2025-03-11T1000,3656A,120.1556,30.2864,杭州市,消防大队,细颗粒物(PM2.5),94,88,92,70,68,29,,10,10,43,56,8,7,0.9,0.8
2025-03-11T1000,1270A,117.1959,31.7848,合肥市,明珠广场,细颗粒物(PM2.5),94,102,78,70,59,44,,27,22,38,27,7,6,0.8,0.7
2025-03-11T1000,1271A,117.3072,31.8764,合肥市,三里街,细颗粒物(PM2.5),85,102,80,63,52,29,,26,20,38,30,6,6,0.9,0.8
2025-03-11T1000,1272A,117.2588,31.8707,合肥市,琥珀山庄,细颗粒物(PM2.5),88,85,69,65,57,42,,34,26,38,28,2,2,0.6,0.5
2025-03-11T1000,1273A,117.1604,31.9052,合肥市,董铺水库,细颗粒物(PM2.5),67,72,72,48,44,44,,41,32,40,23,3,3,0.7,0.5
2025-03-11T1000,1274A,117.25,31.8571,合肥市,长江中路,细颗粒物(PM2.5),89,95,75,66,58,38,,37,29,40,27,8,8,0.9,0.7
2025-03-11T1000,1275A,117.266,31.9436,合肥市,庐阳区,细颗粒物(PM2.5),73,90,78,53,54,45,,33,26,34,27,6,5,0.7,0.5
2025-03-11T1000,1276A,117.3453,31.8616,合肥市,瑶海区,细颗粒物(PM2.5),75,90,76,55,51,50,,33,28,25,25,7,6,0.6,0.6
2025-03-11T1000,1277A,117.3027,31.7964,合肥市,包河区,细颗粒物(PM2.5),85,75,74,63,53,59,,33,29,15,18,5,5,0.7,0.7
2025-03-11T1000,1278A,117.2776,31.7385,合肥市,滨湖新区,细颗粒物(PM2.5),89,75,77,66,65,57,,31,28,18,21,8,7,0.6,0.6
2025-03-11T1000,1279A,117.1318,31.8403,合肥市,高新区,细颗粒物(PM2.5),93,97,81,69,60,44,,35,31,46,28,3,3,0.8,0.7
2025-03-11T1000,3464A,117.3803,31.9147,合肥市,高教基地,细颗粒物(PM2.5),82,82,69,60,53,48,,40,33,31,22,8,8,0.6,0.5
2025-03-11T1000,3614A,79.924,37.0877,和田地区,地区环保局,颗粒物(PM10),125,200,211,47,51,34,,50,50,22,12,6,4,0.7,0.8
2025-03-11T1000,3615A,79.9131,37.113,和田地区,市环保局,颗粒物(PM10),125,199,206,54,55,13,,42,42,80,33,3,3,1.9,1.1
2025-03-11T1000,2516A,108.2011,24.715,河池市,东仁乐园,,37,37,29,25,19,6,,7,6,18,18,6,6,1.4,1
2025-03-11T1000,2517A,108.0497,24.6947,河池市,市环保站,,34,34,29,22,23,7,,9,6,19,16,9,9,1.4,1
2025-03-11T1000,2518A,108.0983,24.6989,河池市,市疾控中心,,33,27,26,23,23,7,,10,8,20,16,6,7,1.2,0.9
2025-03-11T1000,1696A,114.6778,23.7569,河源市,源西,,32,32,42,20,24,10,,3,3,35,33,5,5,0.4,0.4
2025-03-11T1000,1697A,114.6944,23.7586,河源市,东埔,,38,37,40,26,24,12,,14,6,38,28,4,4,0.9,0.7
2025-03-11T1000,1698A,114.6892,23.7233,河源市,老城,,35,33,36,24,27,19,,28,19,25,19,4,5,0.9,0.7
2025-03-11T1000,1718A,115.4208,35.2464,菏泽市,气象局,,,,117,,86,,,112,,,23,,4,,0.6
2025-03-11T1000,3374A,115.5564,35.0891,菏泽市,定陶老年大学,细颗粒物(PM2.5),117,114,111,88,80,67,,86,76,27,25,5,4,0.7,0.6
2025-03-11T1000,4184A,115.4797,35.24401,菏泽市,永昌路1号,细颗粒物(PM2.5),130,136,126,99,90,69,,99,84,27,22,7,7,0.6,0.6
2025-03-11T1000,4193A,115.4715,35.2800,菏泽市,长城路999号,细颗粒物(PM2.5),124,128,119,94,79,64,,92,78,26,26,8,7,0.7,0.7
2025-03-11T1000,2514A,111.5264,24.4172,贺州市,环保小区,颗粒物(PM10),78,105,92,50,46,24,,23,23,37,35,9,8,1.6,1.4
2025-03-11T1000,2515A,111.5608,24.4078,贺州市,政协大楼,细颗粒物(PM2.5),79,85,80,58,45,6,,5,5,43,41,10,7,1.4,1.3
2025-03-11T1000,3534A,111.4744,24.4553,贺州市,西湾,细颗粒物(PM2.5),79,87,68,58,45,12,,5,5,35,31,7,7,1.1,1.1
2025-03-11T1000,2385A,114.17,35.9019,鹤壁市,市监测站,细颗粒物(PM2.5),83,96,94,61,63,44,,55,41,35,28,3,3,0.9,0.7
2025-03-11T1000,2386A,114.2956,35.7511,鹤壁市,市交警支队,细颗粒物(PM2.5),99,114,104,74,74,38,,48,48,28,24,8,3,0.6,0.7
2025-03-11T1000,2387A,114.2878,35.7306,鹤壁市,迎宾馆,细颗粒物(PM2.5),102,112,112,76,67,40,,55,46,26,26,7,6,0.7,0.7
2025-03-11T1000,3474A,114.2617,35.6822,鹤壁市,大新区,细颗粒物(PM2.5),112,86,79,84,75,,,27,27,26,35,4,5,0.8,0.7
2025-03-11T1000,3596A,114.1572,35.9603,鹤壁市,南山宾馆,细颗粒物(PM2.5),118,105,99,89,78,42,,76,64,21,17,5,6,0.6,0.5
2025-03-11T1000,2244A,130.2537,47.3416,鹤岗市,哈啤分公司,,,6,76,3,46,81,,12,12,4,10,15,12,,0.8
2025-03-11T1000,2245A,130.2684,47.3086,鹤岗市,斯达机电,,27,24,76,18,39,86,,86,85,6,10,14,15,0.6,0.6
2025-03-11T1000,2246A,130.3114,47.3388,鹤岗市,东山纸板厂,,25,19,82,15,41,80,,74,74,6,16,12,16,0.3,0.6
2025-03-11T1000,2247A,130.1097,47.3382,鹤岗市,五号水库,,,,,,,,,,,,,,,,
2025-03-11T1000,2263A,127.4833,50.2524,黑河市,交通局,,28,26,68,18,35,87,,90,89,10,13,6,6,0.5,0.6
2025-03-11T1000,2264A,127.5144,50.2341,黑河市,环保局,,30,26,72,21,41,92,,92,92,8,11,4,4,0.4,0.6
2025-03-11T1000,2265A,127.5291,50.2472,黑河市,大黑河岛,,,,,,,,,,,,,,,,
2025-03-11T1000,1074A,115.6838,37.7541,衡水市,电机北厂,细颗粒物(PM2.5),109,116,115,82,87,85,,90,86,17,16,6,7,0.5,0.5
2025-03-11T1000,1075A,115.6303,37.7316,衡水市,市监测站,细颗粒物(PM2.5),113,94,102,85,82,82,,87,82,22,19,7,10,0.5,0.6
2025-03-11T1000,3188A,115.6683,37.7217,衡水市,市城管局,细颗粒物(PM2.5),103,107,102,77,82,80,,81,78,22,22,9,6,0.5,0.6
2025-03-11T1000,3459A,115.5989,37.5491,衡水市,地表水厂,细颗粒物(PM2.5),119,101,105,90,88,87,,70,70,18,22,10,9,0.6,0.6
2025-03-11T1000,2456A,112.5003,26.9167,衡阳市,原169医院,,47,47,38,30,24,12,,5,5,34,32,14,14,1.1,0.7
2025-03-11T1000,2457A,112.6194,26.9258,衡阳市,衡阳化工总厂,,50,44,49,35,43,21,,9,9,10,19,7,6,0.9,1
2025-03-11T1000,2458A,112.6211,26.8956,衡阳市,珠晖区环保局,细颗粒物(PM2.5),58,57,48,41,40,17,,8,8,20,24,8,7,1.1,1.1
2025-03-11T1000,2459A,112.6197,26.8733,衡阳市,市委党校,细颗粒物(PM2.5),54,56,51,38,37,21,,7,7,18,29,11,10,1.2,1.2
2025-03-11T1000,2460A,112.6006,26.8919,衡阳市,市监测站,颗粒物(PM10),55,60,50,38,35,18,,6,6,23,29,10,8,1.4,1.2
2025-03-11T1000,2461A,112.5664,26.9056,衡阳市,真空机电公司,细颗粒物(PM2.5),62,62,47,44,36,12,,5,5,29,31,12,7,1.8,1.1
2025-03-11T1000,3399A,112.6703,26.882,衡阳市,师范学院,颗粒物(PM10),52,54,49,35,34,21,,11,11,16,23,10,8,1.0,1
2025-03-11T1000,2608A,103.3772,23.3993,红河哈尼族彝族自治州,污水处理厂,细颗粒物(PM2.5),63,65,36,45,34,75,,66,65,16,7,8,7,0.6,0.5
2025-03-11T1000,2609A,103.3861,23.35,红河哈尼族彝族自治州,监测站,"颗粒物(PM10),细颗粒物(PM2.5)",55,59,44,39,30,73,,66,66,17,9,8,10,0.6,0.5
2025-03-11T1000,3038A,103.3758,23.368,红河哈尼族彝族自治州,州图书馆,,44,44,30,30,29,73,,66,66,14,8,7,6,0.5,0.4
2025-03-11T1000,1090A,111.6507,40.7517,呼和浩特市,呼市一监,颗粒物(PM10),93,136,260,60,84,46,,25,25,34,46,11,13,0.7,1
2025-03-11T1000,1091A,111.6572,40.8033,呼和浩特市,小召,颗粒物(PM10),100,149,278,56,76,44,,34,34,41,46,6,7,0.8,0.9
2025-03-11T1000,1094A,111.7516,40.8369,呼和浩特市,如意水处理厂,颗粒物(PM10),84,118,238,32,69,66,,30,30,25,52,8,11,0.5,0.8
2025-03-11T1000,1095A,111.7276,40.8062,呼和浩特市,二十九中,颗粒物(PM10),92,133,256,58,75,50,,36,36,41,43,7,8,1.2,1.2
2025-03-11T1000,1096A,111.5512,40.7866,呼和浩特市,工大金川校区,颗粒物(PM10),105,159,264,66,82,22,,26,26,59,50,10,11,1.1,0.9
2025-03-11T1000,1097A,111.717,40.7612,呼和浩特市,化肥厂生活区,颗粒物(PM10),110,170,260,62,79,34,,27,27,49,48,10,12,0.7,0.8
2025-03-11T1000,3698A,111.5968,40.8178,呼和浩特市,红旗小学,,,,284,,76,,,14,14,51,56,9,11,1.0,0.9
2025-03-11T1000,3699A,111.6518,40.8389,呼和浩特市,海东办,颗粒物(PM10),84,117,217,36,73,69,,27,27,25,52,8,10,0.6,1
2025-03-11T1000,2192A,119.7594,49.2261,呼伦贝尔市,区环保局,,32,32,38,17,23,81,,60,60,15,15,11,6,0.5,0.5
2025-03-11T1000,3061A,119.7512,49.1577,呼伦贝尔市,国华电力东,,,24,37,8,17,,,74,74,7,7,6,4,,0.6
2025-03-11T1000,1250A,120.0751,30.8669,湖州市,城西水厂,细颗粒物(PM2.5),110,113,103,83,71,34,,12,12,44,58,9,8,0.5,0.5
2025-03-11T1000,2873A,120.0830,30.8929,湖州市,仁皇山新区,细颗粒物(PM2.5),99,107,98,74,63,38,,13,13,39,52,7,5,0.7,0.7
2025-03-11T1000,2907A,120.1844,30.8596,湖州市,吴兴区站,细颗粒物(PM2.5),105,109,108,79,77,36,,16,16,38,51,9,7,0.7,0.6
2025-03-11T1000,3562A,120.4148,30.8538,湖州市,南浔区站,细颗粒物(PM2.5),93,99,104,69,71,38,,23,23,40,52,6,4,0.6,0.6
2025-03-11T1000,1607A,120.9049,40.7211,葫芦岛市,龙港区,细颗粒物(PM2.5),107,80,81,80,77,66,,86,77,18,16,7,7,0.8,0.8
2025-03-11T1000,1608A,120.8392,40.7514,葫芦岛市,化工街,细颗粒物(PM2.5),128,129,99,97,75,47,,78,69,32,21,12,11,0.8,0.6
2025-03-11T1000,1609A,120.8341,40.7073,葫芦岛市,新区,细颗粒物(PM2.5),103,86,77,77,78,64,,92,80,24,20,7,8,0.9,0.9
2025-03-11T1000,1610A,120.8695,40.7677,葫芦岛市,东城区,细颗粒物(PM2.5),119,,56,90,82,53,,76,68,30,26,7,7,0.8,0.8
2025-03-11T1000,2482A,109.5981,27.5721,怀化市,林科所,,15,15,22,3,16,13,,15,13,16,18,4,4,0.8,0.9
2025-03-11T1000,2483A,109.9453,27.5444,怀化市,河西地税局,,32,25,28,22,24,3,,7,4,21,21,7,7,0.6,0.5
2025-03-11T1000,2484A,109.9781,27.5342,怀化市,市四医院,,32,32,43,21,28,6,,5,3,22,24,3,3,0.9,0.7
2025-03-11T1000,2485A,109.9972,27.5578,怀化市,监测楼,,37,37,32,25,24,8,,11,9,22,22,7,7,0.6,0.4
2025-03-11T1000,2486A,110.0394,27.583,怀化市,市委党校,,48,,29,33,25,11,,10,10,16,19,13,6,0.8,0.8
2025-03-11T1000,1210A,119.036,33.5981,淮安市,钵池山,细颗粒物(PM2.5),118,97,65,89,62,48,,48,47,22,18,7,7,0.9,0.7
2025-03-11T1000,1211A,119.007,33.575,淮安市,北京南路,,,,57,,57,,,46,44,21,21,6,7,,0.6
2025-03-11T1000,1212A,118.989,33.6067,淮安市,市监测站,细颗粒物(PM2.5),122,97,61,92,61,48,,48,46,25,22,7,7,0.8,0.6
2025-03-11T1000,1213A,119.135,33.5039,淮安市,楚州区监测站,细颗粒物(PM2.5),112,100,66,84,56,44,,44,43,28,26,6,7,0.5,0.4
2025-03-11T1000,3426A,118.8755,33.2894,淮安市,新华书店,细颗粒物(PM2.5),119,110,74,90,64,44,,40,40,24,24,7,7,0.9,0.8
2025-03-11T1000,4206A,119.0288,33.6319,淮安市,承德北路606号,细颗粒物(PM2.5),107,112,75,80,57,50,,46,45,29,25,6,6,0.9,0.6
2025-03-11T1000,2282A,116.8004,33.975,淮北市,监测站,细颗粒物(PM2.5),118,126,106,89,79,47,,51,40,28,24,7,7,0.8,0.8
2025-03-11T1000,2283A,116.8091,33.9007,淮北市,烈山区政府,细颗粒物(PM2.5),134,110,102,102,80,49,,53,44,35,27,7,6,0.9,0.7
2025-03-11T1000,3330A,116.8873,33.9836,淮北市,杜集区检察院,细颗粒物(PM2.5),117,93,98,88,78,49,,55,45,28,23,7,6,0.9,0.8
2025-03-11T1000,4017A,116.7923,33.9535,淮北市,市博物馆,细颗粒物(PM2.5),123,127,107,93,80,46,,53,43,28,23,10,9,0.9,0.9
2025-03-11T1000,2277A,116.8305,32.7727,淮南市,潘集区政府,细颗粒物(PM2.5),123,113,120,93,92,48,,25,24,40,38,12,10,0.8,0.6
2025-03-11T1000,2279A,116.8569,32.5951,淮南市,谢家集区政府,细颗粒物(PM2.5),99,97,98,74,71,50,,46,39,25,25,8,8,0.4,0.4
2025-03-11T1000,2280A,116.8281,32.633,淮南市,八公山区政府,细颗粒物(PM2.5),103,117,97,77,63,46,,48,42,33,21,,4,0.5,0.5
2025-03-11T1000,2281A,116.6325,32.6201,淮南市,焦岗湖风景区管理处,细颗粒物(PM2.5),69,74,92,50,60,18,,13,11,21,24,5,5,0.3,0.3
2025-03-11T1000,2894A,117.0566,32.6531,淮南市,经济技术开发区消防队,细颗粒物(PM2.5),79,76,90,58,68,46,,38,36,22,30,6,6,0.5,0.5
2025-03-11T1000,3329A,117.0108,32.5893,淮南市,山南新区,细颗粒物(PM2.5),84,78,82,62,62,44,,55,47,18,15,8,8,0.6,0.6
2025-03-11T1000,4209A,117.0031,32.6445,淮南市,国庆中路369号,细颗粒物(PM2.5),82,92,94,60,65,51,,52,47,25,29,8,7,0.4,0.4
2025-03-11T1000,2446A,114.9028,30.4742,黄冈市,职工中心,细颗粒物(PM2.5),72,60,69,52,58,25,,29,26,28,26,12,8,0.7,0.8
2025-03-11T1000,2929A,114.8858,30.4519,黄冈市,红卫路,细颗粒物(PM2.5),78,66,76,57,62,30,,27,25,3,28,8,9,0.8,0.9
2025-03-11T1000,3398A,114.9136,30.4445,黄冈市,市林业局,细颗粒物(PM2.5),79,65,76,58,62,28,,20,19,26,28,10,12,0.7,0.8
2025-03-11T1000,2672A,102.0199,35.5102,黄南藏族自治州,同仁县隆务镇,颗粒物(PM10),72,93,51,22,17,48,,45,44,21,7,22,14,0.7,0.3
2025-03-11T1000,2295A,118.2903,29.6963,黄山市,延安路89号,细颗粒物(PM2.5),80,,57,59,51,21,,13,13,15,14,4,4,0.9,0.8
2025-03-11T1000,2297A,118.1371,30.2756,黄山市,黄山区政府5号楼,,33,33,35,22,21,21,,12,12,7,9,7,7,0.4,0.4
2025-03-11T1000,4210A,118.3354,29.7203,黄山市,滨江东路7-2号,细颗粒物(PM2.5),83,81,73,61,56,14,,9,9,19,20,4,4,0.7,0.7
2025-03-11T1000,2423A,115.0601,30.2313,黄石市,沈家营,细颗粒物(PM2.5),69,84,84,50,54,15,,11,10,34,33,18,16,1.4,1
2025-03-11T1000,2426A,114.8988,30.2019,黄石市,铁山,细颗粒物(PM2.5),107,,60,80,58,19,,19,16,31,24,24,16,1.3,1.2
2025-03-11T1000,2427A,115.0307,30.2092,黄石市,团城山,细颗粒物(PM2.5),80,81,80,59,58,15,,8,8,42,34,21,16,1.3,1
2025-03-11T1000,3149A,115.0235,30.1578,黄石市,笔架山北路,细颗粒物(PM2.5),89,75,66,66,54,15,,20,16,32,23,20,11,1.1,1
2025-03-11T1000,4185A,115.0780,30.21118,黄石市,磁湖东路29号,细颗粒物(PM2.5),85,89,91,63,71,21,,7,7,27,30,12,13,1.4,1.2
2025-03-11T1000,1392A,114.4183,23.0528,惠州市,河南岸金山湖子站,颗粒物(PM10),56,61,42,39,25,63,,30,30,28,27,14,9,0.7,0.7
2025-03-11T1000,1393A,114.4053,23.0822,惠州市,下埔横江三路子站,颗粒物(PM10),57,63,47,39,26,61,,26,26,35,31,12,9,0.8,0.7
2025-03-11T1000,1394A,114.4103,23.1142,惠州市,江北云山西路子站,颗粒物(PM10),56,61,46,34,24,59,,31,31,38,29,11,9,0.6,0.5
2025-03-11T1000,1395A,114.4645,22.7833,惠州市,惠阳区承修路船湖子站,颗粒物(PM10),58,66,49,34,23,46,,66,53,48,27,10,9,0.8,0.6
2025-03-11T1000,1396A,114.5317,22.7422,惠州市,大亚湾管委会子站,,,56,44,24,19,40,,72,57,76,28,,7,0.8,0.6
2025-03-11T1000,3314A,114.4338,22.8134,惠州市,惠阳秋长,颗粒物(PM10),56,61,45,31,23,54,,48,35,38,28,14,10,0.7,0.7
2025-03-11T1000,3452A,114.6517,22.775,惠州市,大亚湾霞涌,,45,45,41,21,21,50,,62,52,33,29,8,8,0.7,0.6
2025-03-11T1000,2240A,130.9762,45.3001,鸡西市,环保局,细颗粒物(PM2.5),88,105,94,65,57,104,,114,109,11,10,6,6,0.5,0.5
2025-03-11T1000,2243A,130.9429,45.3039,鸡西市,第一中学,,,101,90,62,53,106,,115,111,10,11,,6,0.4,0.3
2025-03-11T1000,3707A,131.0207,45.3073,鸡西市,欧美日汽修厂,细颗粒物(PM2.5),84,101,98,62,64,109,,119,114,13,10,4,4,0.3,0.4
2025-03-11T1000,3709A,130.9967,45.3106,鸡西市,市政设施管理处,颗粒物(PM10),82,114,103,53,57,103,,108,104,9,11,5,6,0.4,0.5
2025-03-11T1000,2367A,114.9754,27.0803,吉安市,红声器材厂,,49,39,33,34,19,11,,19,16,24,22,12,14,1.1,0.8
2025-03-11T1000,2368A,114.9658,27.0999,吉安市,市森林工业局,,35,34,26,24,18,16,,19,17,29,28,11,12,0.9,0.6
2025-03-11T1000,2369A,114.99,27.1312,吉安市,市环境监测站,颗粒物(PM10),51,52,30,30,20,12,,18,16,28,21,17,18,0.9,0.6
2025-03-11T1000,2370A,115.0093,27.0968,吉安市,青原区法院,,42,42,31,28,21,15,,22,18,29,23,15,13,0.8,0.7
2025-03-11T1000,1772A,126.54,43.8622,吉林市,哈达湾,细颗粒物(PM2.5),75,83,91,55,52,116,,108,107,21,17,9,8,0.9,0.9
2025-03-11T1000,1773A,126.5844,43.8358,吉林市,东局子,细颗粒物(PM2.5),73,82,83,53,51,111,,104,103,22,18,7,6,0.6,0.6
2025-03-11T1000,1774A,126.5052,43.8245,吉林市,电力学院,细颗粒物(PM2.5),70,75,88,51,55,113,,103,102,19,16,3,3,0.4,0.4
2025-03-11T1000,1775A,126.6133,43.8972,吉林市,江北,细颗粒物(PM2.5),70,82,92,51,54,118,,109,109,14,16,9,16,0.8,0.8
2025-03-11T1000,1776A,126.555,43.8306,吉林市,江南公园,细颗粒物(PM2.5),80,79,88,59,51,112,,103,102,20,15,8,7,0.6,0.6
2025-03-11T1000,1778A,126.7061,43.7133,吉林市,丰满,细颗粒物(PM2.5),69,58,67,50,55,133,,131,131,12,14,6,6,0.8,0.8
2025-03-11T1000,2868A,126.4739,43.953,吉林市,九站,细颗粒物(PM2.5),73,73,89,53,52,112,,112,112,23,20,8,7,0.6,0.6
2025-03-11T1000,1299A,116.9862,36.6114,济南市,科干所,细颗粒物(PM2.5),77,95,86,56,47,118,,125,120,19,20,7,6,0.5,0.5
2025-03-11T1000,1300A,116.9376,36.665,济南市,农科所,颗粒物(PM10),80,110,97,51,50,110,,109,103,17,18,8,7,0.8,0.8
2025-03-11T1000,1301A,117.1265,36.6734,济南市,开发区,细颗粒物(PM2.5),74,85,82,54,55,120,,118,115,15,17,7,7,0.6,0.5
2025-03-11T1000,1303A,117.0624,36.6868,济南市,省种子仓库,细颗粒物(PM2.5),85,102,94,63,56,120,,118,114,16,20,5,4,0.7,0.7
2025-03-11T1000,1304A,116.9489,36.6447,济南市,机床二厂,细颗粒物(PM2.5),92,110,94,68,63,117,,118,113,20,22,11,9,0.8,0.8
2025-03-11T1000,1305A,117.0495,36.663,济南市,市监测站,细颗粒物(PM2.5),83,90,86,61,56,112,,118,114,22,22,8,8,0.5,0.5
2025-03-11T1000,1306A,116.7675,36.5484,济南市,长清党校,细颗粒物(PM2.5),92,100,93,68,60,106,,119,110,25,27,6,6,0.7,0.7
2025-03-11T1000,1616A,117.6795,36.229,济南市,技术学院,细颗粒物(PM2.5),113,105,106,85,80,71,,64,59,33,39,11,11,1.0,1
2025-03-11T1000,1961A,117.532,36.6868,济南市,东山小学,细颗粒物(PM2.5),92,110,101,68,64,99,,105,98,23,26,7,8,0.8,0.8
2025-03-11T1000,3059A,117.7161,36.2049,济南市,泰兴公司,细颗粒物(PM2.5),113,110,121,85,92,69,,53,50,27,38,8,9,0.9,0.9
2025-03-11T1000,3064A,117.6867,36.2171,济南市,莱芜战役纪念馆,细颗粒物(PM2.5),107,117,117,80,79,70,,65,60,26,32,7,7,0.9,1
2025-03-11T1000,3494A,117.1673,36.9782,济南市,济阳区政府,细颗粒物(PM2.5),92,107,96,68,57,79,,80,76,23,23,13,11,0.5,0.5
2025-03-11T1000,3495A,117.1171,36.63,济南市,锦屏中学,细颗粒物(PM2.5),77,78,78,56,52,117,,118,115,18,19,8,8,0.5,0.5
2025-03-11T1000,3682A,116.9814,36.6819,济南市,济南四建,细颗粒物(PM2.5),68,78,77,49,51,113,,116,111,21,22,6,5,0.4,0.4
2025-03-11T1000,1653A,116.6251,35.4302,济宁市,火炬城,细颗粒物(PM2.5),147,,88,112,94,49,,68,57,18,16,12,11,1.0,0.9
2025-03-11T1000,1655A,116.5491,35.4042,济宁市,电化厂,细颗粒物(PM2.5),140,125,112,107,87,60,,79,65,17,15,11,10,1.1,1
2025-03-11T1000,3500A,116.5814,35.3707,济宁市,北湖一中,细颗粒物(PM2.5),125,99,88,95,76,56,,77,63,25,22,11,10,1.0,0.9
2025-03-11T1000,3501A,116.8249,35.5593,济宁市,服务中心,细颗粒物(PM2.5),124,122,110,94,70,62,,70,62,28,27,8,7,0.9,0.8
2025-03-11T1000,3678A,116.5907,35.4054,济宁市,市第七中学,细颗粒物(PM2.5),125,,85,95,80,59,,76,64,28,26,6,4,0.9,0.8
2025-03-11T1000,2255A,130.2751,46.8028,佳木斯市,佳纺,颗粒物(PM10),54,58,99,35,44,83,,63,63,7,13,6,6,0.3,0.4
2025-03-11T1000,2256A,130.3995,46.8307,佳木斯市,发电厂,,29,24,99,20,44,88,,77,77,10,17,3,4,0.5,0.6
2025-03-11T1000,2257A,130.3258,46.7975,佳木斯市,环保局,,45,45,98,21,44,86,,66,66,7,13,4,4,0.3,0.4
2025-03-11T1000,2258A,130.3648,46.8032,佳木斯市,十一中,,50,50,105,31,50,86,,70,69,27,21,5,7,0.4,0.6
2025-03-11T1000,2259A,130.3794,46.7588,佳木斯市,四丰,,40,30,85,28,38,81,,72,72,4,8,1,1,0.6,0.7
2025-03-11T1000,1252A,120.7436,30.778,嘉兴市,清河小学,颗粒物(PM10),56,62,66,37,54,28,,23,23,37,43,5,4,0.6,0.5
2025-03-11T1000,1253A,120.726,30.7478,嘉兴市,嘉兴学院,细颗粒物(PM2.5),68,73,81,49,52,30,,25,25,39,51,8,8,0.6,0.5
2025-03-11T1000,2872A,120.7846,30.7525,嘉兴市,南湖区残联,细颗粒物(PM2.5),67,59,66,48,50,36,,31,31,40,46,10,8,0.6,0.5
2025-03-11T1000,3407A,120.6916,30.7739,嘉兴市,秀洲住建,颗粒物(PM10),73,96,108,29,45,31,,22,22,37,51,6,6,0.7,0.6
2025-03-11T1000,1945A,98.2908,39.7711,嘉峪关市,气象局,颗粒物(PM10),318,434,534,119,73,,,75,73,12,11,3,14,,0.5
2025-03-11T1000,2884A,98.2672,39.7978,嘉峪关市,酒钢宾馆,颗粒物(PM10),289,412,580,92,78,73,,68,68,9,11,2,23,0.3,0.5
2025-03-11T1000,3248A,98.2643,39.7724,嘉峪关市,雄关区,颗粒物(PM10),189,328,376,69,57,73,,72,72,18,14,5,9,0.5,0.5
2025-03-11T1000,1383A,113.1064,22.6058,江门市,北街,颗粒物(PM10),62,73,52,29,26,75,,47,47,29,33,4,3,0.7,0.6
2025-03-11T1000,1384A,113.0731,22.5835,江门市,西区,,,107,56,20,25,85,,48,48,,41,,7,0.5,0.6
2025-03-11T1000,1385A,113.0219,22.5311,江门市,圭峰西,,,67,45,22,23,,,70,69,21,26,,4,0.7,0.5
2025-03-11T1000,1386A,113.0828,22.5947,江门市,东湖,颗粒物(PM10),51,51,47,29,30,81,,47,47,24,32,9,7,0.5,0.5
2025-03-11T1000,3311A,113.1075,22.5647,江门市,江海富民,颗粒物(PM10),63,75,75,27,34,79,,48,48,19,31,8,7,0.3,0.4
2025-03-11T1000,3449A,113.05,22.4667,江门市,新会银湖,颗粒物(PM10),61,71,49,30,30,81,,18,18,21,35,2,2,0.5,0.5
2025-03-11T1000,1830A,113.1992,35.2590,焦作市,影视城,,,,74,,45,,,,,,7,,10,,0.5
2025-03-11T1000,3169A,113.2725,35.2067,焦作市,太极体育中心,细颗粒物(PM2.5),130,155,114,99,72,44,,57,46,37,25,12,9,0.9,0.7
2025-03-11T1000,3335A,113.3137,35.2641,焦作市,马村街道办,细颗粒物(PM2.5),99,94,96,74,72,51,,59,50,24,23,10,9,0.8,0.8
2025-03-11T1000,3336A,113.2465,35.2373,焦作市,焦作技师学院,细颗粒物(PM2.5),85,112,97,63,60,57,,69,63,32,26,8,8,1.1,0.9
2025-03-11T1000,3477A,113.1656,35.2539,焦作市,中站许衡医院,细颗粒物(PM2.5),80,78,96,59,67,66,,79,71,23,22,9,9,0.8,0.8
2025-03-11T1000,3981A,113.2449,35.1803,焦作市,原李万街道办,细颗粒物(PM2.5),98,93,111,73,61,32,,51,38,41,24,16,13,0.5,0.4
2025-03-11T1000,4264A,113.2340,35.2190,焦作市,新安路1731号,细颗粒物(PM2.5),114,122,103,86,67,52,,64,54,31,22,12,8,0.9,0.7
2025-03-11T1000,1708A,116.3701,23.5345,揭阳市,新兴,细颗粒物(PM2.5),79,91,53,58,35,39,,46,39,45,28,8,8,1.2,0.8
2025-03-11T1000,1709A,116.3264,23.5443,揭阳市,西马,细颗粒物(PM2.5),82,75,52,60,33,44,,46,39,32,22,11,10,1.0,0.7
2025-03-11T1000,1710A,116.3611,23.5626,揭阳市,东兴,细颗粒物(PM2.5),84,104,60,62,36,37,,40,32,41,26,9,8,1.1,0.8
2025-03-11T1000,1711A,116.4151,23.5294,揭阳市,渔湖,颗粒物(PM10),66,82,55,32,26,45,,48,41,39,22,18,9,0.9,0.9
2025-03-11T1000,3320A,116.403,23.5699,揭阳市,曲溪,颗粒物(PM10),68,85,55,37,29,32,,44,36,53,28,13,10,0.9,0.7
2025-03-11T1000,1944A,102.1692,38.5167,金昌市,天庆家园,颗粒物(PM10),119,187,369,60,66,46,,84,72,26,10,34,8,1.0,0.7
2025-03-11T1000,4022A,102.1647,38.5371,金昌市,金川区人防中心,颗粒物(PM10),125,199,500,48,56,67,,92,83,19,7,23,12,0.6,0.5
2025-03-11T1000,4239A,102.1930,38.5319,金昌市,长春路96号,细颗粒物(PM2.5),82,110,206,60,72,65,,82,75,14,9,20,13,0.3,0.5
2025-03-11T1000,1262A,119.647,29.077,金华市,十五中,细颗粒物(PM2.5),118,111,104,89,85,15,,6,6,60,62,6,5,1.1,0.9
2025-03-11T1000,1263A,119.686,29.1029,金华市,监测站,细颗粒物(PM2.5),124,113,102,94,89,7,,2,2,68,66,6,5,0.9,0.7
2025-03-11T1000,3659A,119.656,29.1131,金华市,气象局,细颗粒物(PM2.5),108,120,107,81,82,6,,1,1,64,61,6,4,1.1,0.8
2025-03-11T1000,1767A,121.1115,41.0879,锦州市,南山,细颗粒物(PM2.5),180,,83,136,93,50,,77,67,28,23,28,25,0.8,0.7
2025-03-11T1000,1768A,121.0604,40.8428,锦州市,开发区,细颗粒物(PM2.5),98,,76,73,76,57,,74,64,27,24,8,8,0.8,0.8
2025-03-11T1000,1769A,121.1836,41.1119,锦州市,百股街道,细颗粒物(PM2.5),107,,79,80,69,59,,74,67,24,22,10,11,0.7,0.6
2025-03-11T1000,1770A,121.1178,41.1222,锦州市,天安街道,细颗粒物(PM2.5),192,,86,144,94,54,,82,72,26,23,23,23,1.0,0.8
2025-03-11T1000,1771A,121.1303,41.1386,锦州市,北湖公园,细颗粒物(PM2.5),169,148,92,128,92,,,75,67,31,27,22,21,1.1,0.9
2025-03-11T1000,2160A,112.85,35.5051,晋城市,自来水公司,细颗粒物(PM2.5),119,141,100,90,54,38,,46,42,40,29,15,7,2.5,0.9
2025-03-11T1000,2161A,112.8318,35.4936,晋城市,白云商贸,细颗粒物(PM2.5),122,150,106,92,53,,,41,37,36,34,11,6,2.3,0.8
2025-03-11T1000,2162A,112.8508,35.4887,晋城市,市环保局,细颗粒物(PM2.5),113,139,111,85,53,43,,31,28,38,36,10,6,2.1,0.7
2025-03-11T1000,2163A,112.8676,35.4897,晋城市,技术学院,颗粒物(PM10),97,144,108,70,49,32,,28,26,44,38,13,7,2.4,1.1
2025-03-11T1000,2165A,112.8453,35.546,晋城市,白马寺,细颗粒物(PM2.5),108,135,85,81,56,,,96,84,24,12,13,6,2.7,1
2025-03-11T1000,3620A,112.8271,35.4828,晋城市,泽州一中,细颗粒物(PM2.5),140,158,107,107,60,45,,42,34,40,32,14,9,2.6,0.9
2025-03-11T1000,2173A,112.7249,37.7067,晋中市,南都小区,,,,129,,80,26,,36,29,45,28,11,9,1.3,0.9
2025-03-11T1000,2174A,112.6991,37.6982,晋中市,榆次区政府,颗粒物(PM10),130,210,135,98,78,31,,43,32,49,33,10,8,1.4,0.9
2025-03-11T1000,2865A,112.7195,37.6828,晋中市,榆次三中,细颗粒物(PM2.5),128,168,133,97,83,34,,35,26,39,33,8,7,1.0,0.6
2025-03-11T1000,4200A,112.7478,37.6954,晋中市,迎宾街26号,细颗粒物(PM2.5),128,156,131,97,83,46,,43,36,30,26,8,5,0.5,0.6
2025-03-11T1000,2439A,112.2014,31.0481,荆门市,竹园小学,细颗粒物(PM2.5),128,149,90,97,69,21,,36,29,22,19,4,6,0.7,0.5
2025-03-11T1000,2440A,112.1969,30.9891,荆门市,掇刀,细颗粒物(PM2.5),113,132,85,85,64,25,,43,37,33,19,6,5,0.6,0.5
2025-03-11T1000,2441A,112.2213,31.0386,荆门市,石化一小,细颗粒物(PM2.5),125,118,87,95,71,22,,32,27,28,25,9,10,0.4,0.3
2025-03-11T1000,3012A,112.1849,31.0362,荆门市,西山林语,细颗粒物(PM2.5),100,122,74,75,58,24,,34,31,24,17,4,4,0.2,0.3
2025-03-11T1000,3547A,112.1632,31.0138,荆门市,龙泉中学南校,细颗粒物(PM2.5),79,86,73,58,55,22,,37,31,22,16,4,8,0.7,0.6
2025-03-11T1000,1844A,112.2494,30.3197,荆州市,市图书馆,细颗粒物(PM2.5),68,55,52,49,46,25,,21,20,21,22,10,7,1.1,0.8
2025-03-11T1000,1845A,112.2008,30.3544,荆州市,市委党校,细颗粒物(PM2.5),78,77,57,57,49,21,,21,18,23,23,9,8,1.1,0.8
2025-03-11T1000,3194A,112.2747,30.3122,荆州市,管委会,,,80,57,57,49,,,20,17,22,22,19,12,,0.9
2025-03-11T1000,4268A,112.1722,30.3366,荆州市,学苑路85号,细颗粒物(PM2.5),93,,50,69,51,27,,26,24,20,17,11,10,1.1,0.8
2025-03-11T1000,2342A,117.3102,29.3867,景德镇市,王港中学,,,,,,,,,,,,,,,,
2025-03-11T1000,2343A,117.2117,29.2933,景德镇市,老干部活动中心,,39,,31,27,31,12,,21,18,17,15,5,4,0.5,0.5
2025-03-11T1000,2344A,117.1894,29.2789,景德镇市,兽医站,,47,47,42,20,25,8,,16,14,20,20,3,4,0.6,0.7
2025-03-11T1000,2345A,117.1547,29.2617,景德镇市,台达陶瓷,,44,44,49,26,32,14,,20,19,18,31,16,42,0.7,0.7
2025-03-11T1000,2346A,117.2461,29.2956,景德镇市,陶研所,,,30,27,25,30,,,17,15,19,19,,5,,0.7
2025-03-11T1000,1803A,115.9872,29.6815,九江市,十里,细颗粒物(PM2.5),59,63,52,42,41,13,,15,12,35,32,2,2,1.0,0.7
2025-03-11T1000,1804A,115.9584,29.7046,九江市,茅山头,,39,39,50,15,36,7,,18,10,39,30,4,7,0.8,0.5
2025-03-11T1000,1805A,115.9877,29.7295,九江市,西园,细颗粒物(PM2.5),60,57,53,43,39,24,,23,23,38,32,9,10,1.0,0.8
2025-03-11T1000,1808A,115.9114,29.6038,九江市,综合工业园,细颗粒物(PM2.5),59,44,46,42,44,34,,38,36,31,31,6,6,1.1,0.9
2025-03-11T1000,1809A,116.0721,29.7535,九江市,石化总厂,细颗粒物(PM2.5),73,,49,53,49,38,,50,46,25,20,9,7,0.8,0.7
2025-03-11T1000,1810A,115.9773,29.5698,九江市,庐山气象台,,19,9,5,3,6,60,,69,68,7,5,6,6,1.0,0.9
2025-03-11T1000,3190A,116.0254,29.6994,九江市,外国语学校,细颗粒物(PM2.5),59,45,45,42,41,28,,31,28,26,24,7,9,0.6,0.5
2025-03-11T1000,4253A,116.0102,29.6594,九江市,莲花大道8号,细颗粒物(PM2.5),85,,51,63,56,13,,16,15,29,17,7,6,0.8,0.6
2025-03-11T1000,4240A,98.4958,39.7339,酒泉市,玉门东路5号,颗粒物(PM10),394,495,448,85,65,63,,74,65,20,6,8,9,0.4,0.3
2025-03-11T1000,4241A,98.5099,39.7506,酒泉市,北大街108号,颗粒物(PM10),328,442,310,79,60,60,,64,58,15,8,10,9,0.4,0.3
2025-03-11T1000,2698A,76.0072,39.4467,喀什地区,巡警大队,颗粒物(PM10),70,90,57,31,15,33,,52,49,64,30,6,4,1.0,0.7
2025-03-11T1000,2699A,75.9755,39.4694,喀什地区,吾办,颗粒物(PM10),76,102,68,34,23,31,,35,35,52,33,9,6,1.0,0.8
2025-03-11T1000,4027A,75.9483,39.4689,喀什地区,老干局,颗粒物(PM10),76,101,70,35,20,32,,48,45,56,28,6,4,1.2,0.9
2025-03-11T1000,1824A,114.3389,34.7781,开封市,肿瘤医院,细颗粒物(PM2.5),109,89,82,82,69,51,,46,41,27,22,6,5,0.9,0.9
2025-03-11T1000,1826A,114.2885,34.7965,开封市,世纪星幼儿园,细颗粒物(PM2.5),117,90,71,88,72,57,,60,52,26,22,7,7,0.9,0.9
2025-03-11T1000,3147A,114.3438,34.8106,开封市,龙亭公园,细颗粒物(PM2.5),105,100,78,79,67,51,,51,48,32,24,2,2,0.6,0.6
2025-03-11T1000,3210A,114.3644,34.7964,开封市,汴京公园,,,,91,,72,,,97,,,27,,5,,0.8
2025-03-11T1000,3473A,114.2485,34.8306,开封市,技师学院,细颗粒物(PM2.5),102,84,72,76,66,51,,63,54,21,17,8,7,1.0,0.9
2025-03-11T1000,3592A,114.4644,34.7556,开封市,祥符区生态环境局,,,,101,,76,,,38,32,27,30,4,4,0.6,0.6
2025-03-11T1000,1951A,84.895,45.6094,克拉玛依市,长征新村,,23,23,20,8,8,27,,58,50,35,7,7,6,0.7,0.3
2025-03-11T1000,1952A,84.8988,45.5893,克拉玛依市,南林小区,,24,18,18,10,8,10,,55,44,48,11,7,3,1.9,0.4
2025-03-11T1000,1954A,84.905,44.3396,克拉玛依市,独山子区,颗粒物(PM10),51,52,22,8,7,45,,65,58,25,11,6,5,0.3,0.2
2025-03-11T1000,1955A,85.6979,46.098,克拉玛依市,乌尔禾区商贸楼,,23,,19,16,8,45,,63,57,12,5,3,4,0.3,0.3
2025-03-11T1000,3612A,85.1045,45.6899,克拉玛依市,白碱滩区新站,,26,26,21,10,6,23,,63,54,27,4,7,7,0.6,0.3
2025-03-11T1000,2697A,76.1454,39.7142,克孜勒苏柯尔克孜自治州,市人民政府,颗粒物(PM10),62,73,32,21,10,64,,88,83,15,7,4,4,0.2,0.1
2025-03-11T1000,3665A,76.1658,39.7157,克孜勒苏柯尔克孜自治州,克州文化中心,颗粒物(PM10),67,83,33,19,11,71,,86,82,15,10,4,4,0.4,0.4
2025-03-11T1000,1450A,102.8204,24.8886,昆明市,呈贡新区,细颗粒物(PM2.5),62,65,47,44,33,109,,99,99,18,15,9,7,0.6,0.6
2025-03-11T1000,1451A,102.6251,24.9608,昆明市,西山森林公园,,,,,,,,,,,,,,,,
2025-03-11T1000,1452A,102.7252,25.0902,昆明市,龙泉镇,细颗粒物(PM2.5),55,54,49,39,32,119,,58,58,19,38,9,8,0.6,0.6
2025-03-11T1000,1453A,102.7266,25.0375,昆明市,东风东路,细颗粒物(PM2.5),63,61,49,45,34,110,,87,87,26,22,15,11,0.8,0.6
2025-03-11T1000,1454A,102.6742,25.0669,昆明市,金鼎山,颗粒物(PM10),60,70,52,41,33,102,,53,53,35,32,3,3,0.8,0.7
2025-03-11T1000,1455A,102.6644,25.0401,昆明市,碧鸡广场,细颗粒物(PM2.5),65,68,52,47,37,88,,52,50,45,36,15,10,0.7,0.5
2025-03-11T1000,3179A,102.7494,25.0119,昆明市,官渡区博物馆,细颗粒物(PM2.5),58,58,53,41,31,115,,75,75,23,22,18,11,0.7,0.5
2025-03-11T1000,3375A,102.8017,24.8336,昆明市,青年创业园,细颗粒物(PM2.5),59,60,48,42,31,118,,85,85,10,18,10,9,0.5,0.5
2025-03-11T1000,3550A,102.7997,24.9786,昆明市,昆明学院,细颗粒物(PM2.5),60,64,49,43,32,112,,104,102,23,14,8,7,0.6,0.5
2025-03-11T1000,3551A,102.5967,24.6736,昆明市,晋宁区生态环境分局,细颗粒物(PM2.5),62,44,31,44,31,121,,91,91,29,17,6,5,0.3,0.5
2025-03-11T1000,3552A,102.6678,24.9856,昆明市,云天化总部,细颗粒物(PM2.5),64,65,47,46,31,127,,71,71,21,23,16,10,0.5,0.6
2025-03-11T1000,1456A,91.1319,29.6514,拉萨市,八廓街,,48,48,24,19,11,61,,61,61,29,22,6,6,0.8,0.7
2025-03-11T1000,1457A,91.1221,29.6747,拉萨市,市环保局,颗粒物(PM10),52,53,33,11,14,83,,77,77,14,21,6,7,0.5,0.6
2025-03-11T1000,1458A,91.0874,29.6475,拉萨市,区监测站,颗粒物(PM10),53,55,27,16,11,82,,82,82,15,23,6,6,0.8,0.8
2025-03-11T1000,1459A,91.1774,29.6541,拉萨市,西藏大学,颗粒物(PM10),56,61,19,17,9,61,,67,62,30,17,4,5,0.7,0.6
2025-03-11T1000,1460A,90.9798,29.6588,拉萨市,区辐射站,,45,45,35,16,16,79,,79,79,18,26,7,8,0.5,0.5
2025-03-11T1000,1461A,91.0834,29.6292,拉萨市,拉萨火车站,,48,48,27,15,11,89,,82,82,6,21,4,7,0.5,0.6
2025-03-11T1000,2520A,109.2203,23.7256,来宾市,来宾技工学校,细颗粒物(PM2.5),57,52,46,40,37,5,,3,3,22,26,6,7,1.1,1.1
2025-03-11T1000,3535A,109.1781,23.7297,来宾市,兴宾区政府,细颗粒物(PM2.5),57,53,41,40,29,7,,5,5,20,23,6,6,1.1,1
2025-03-11T1000,4002A,109.2416,23.7461,来宾市,中南小学,,49,46,45,34,27,8,,6,6,20,24,9,8,1.1,1.1
2025-03-11T1000,1477A,104.1373,35.9454,兰州市,榆中兰大校区,,,,,,,,,,,,,,,,
2025-03-11T1000,1479A,103.831,36.0464,兰州市,铁路设计院,颗粒物(PM10),500,645,185,146,69,73,,51,51,26,65,9,11,0.5,1.1
2025-03-11T1000,3241A,103.7439,36.0842,兰州市,百合公园,颗粒物(PM10),500,658,264,118,64,73,,50,50,12,55,7,10,0.4,0.9
2025-03-11T1000,3242A,103.9611,35.998,兰州市,和平,颗粒物(PM10),500,946,274,201,68,74,,67,67,14,25,11,12,0.6,0.6
2025-03-11T1000,4236A,103.6293,36.0938,兰州市,庄浪东路808号,颗粒物(PM10),500,665,231,137,65,73,,63,63,22,49,3,14,0.4,0.7
2025-03-11T1000,4237A,103.7251,36.1043,兰州市,安宁西路88号,颗粒物(PM10),500,686,284,148,79,76,,52,52,8,53,3,12,0.3,0.8
2025-03-11T1000,4238A,103.8470,36.0676,兰州市,北滨河东路1号,颗粒物(PM10),500,691,245,136,64,75,,53,53,19,54,12,12,0.4,0.7
2025-03-11T1000,3245A,103.6633,36.533,兰州新区,新区管委会,颗粒物(PM10),248,383,225,104,68,76,,80,80,10,10,10,14,0.3,0.3
2025-03-11T1000,3246A,103.6975,36.4789,兰州新区,舟曲中学,颗粒物(PM10),500,868,294,153,65,78,,81,80,7,12,3,10,0.3,0.4
2025-03-11T1000,1067A,116.6708,39.5111,廊坊市,药材公司,细颗粒物(PM2.5),158,142,147,120,121,76,,58,58,30,37,5,4,0.7,0.8
2025-03-11T1000,1068A,116.7214,39.5589,廊坊市,开发区,细颗粒物(PM2.5),159,156,161,121,122,82,,66,66,27,35,5,4,0.6,0.7
2025-03-11T1000,1070A,116.7244,39.5269,廊坊市,北华航天学院,细颗粒物(PM2.5),152,157,153,116,114,77,,64,64,25,34,,6,,0.7
2025-03-11T1000,2919A,116.7022,39.5453,廊坊市,河北工业大学,细颗粒物(PM2.5),155,146,148,118,116,79,,72,72,28,32,9,8,0.6,0.7
2025-03-11T1000,2535A,103.7723,29.5462,乐山市,花湖湾,细颗粒物(PM2.5),104,81,72,78,61,17,,30,28,39,28,6,5,0.7,0.6
2025-03-11T1000,2536A,103.7627,29.5844,乐山市,牛耳桥,细颗粒物(PM2.5),107,93,82,80,64,16,,27,24,40,35,11,10,0.9,0.8
2025-03-11T1000,2537A,103.7508,29.6006,乐山市,市第三水厂,细颗粒物(PM2.5),82,72,65,60,48,17,,29,25,34,24,5,5,0.8,0.7
2025-03-11T1000,2538A,103.7571,29.5664,乐山市,市监测站,细颗粒物(PM2.5),79,67,57,58,48,17,,30,26,32,22,7,6,1.1,0.9
2025-03-11T1000,3361A,103.7311,29.5628,乐山市,理工大学,细颗粒物(PM2.5),77,67,68,56,50,18,,29,27,33,25,7,7,0.6,0.5
2025-03-11T1000,2598A,100.2143,26.8576,丽江市,西南郊,臭氧1小时,116,57,42,26,24,232,,127,127,6,5,245,15,0.7,0.9
2025-03-11T1000,2599A,100.2497,26.8802,丽江市,丽江古城,颗粒物(PM10),51,52,39,32,25,98,,95,94,20,11,8,8,0.7,0.6
2025-03-11T1000,2600A,100.2203,26.8906,丽江市,市中心,,42,32,31,29,23,106,,99,99,12,8,8,6,0.7,0.7
2025-03-11T1000,1267A,119.914,28.4514,丽水市,监测站大楼,细颗粒物(PM2.5),70,60,35,51,28,12,,5,5,33,28,4,3,0.6,0.4
2025-03-11T1000,1268A,119.93,28.4586,丽水市,莲都小学,细颗粒物(PM2.5),77,83,50,56,32,13,,5,5,37,33,4,4,0.6,0.5
2025-03-11T1000,1269A,119.879,28.4231,丽水市,余庄前,细颗粒物(PM2.5),75,76,44,55,32,7,,4,4,37,22,4,4,0.7,0.5
2025-03-11T1000,1173A,119.176,34.5885,连云港市,市环境监测站,细颗粒物(PM2.5),58,63,57,41,40,62,,64,64,18,20,8,9,0.4,0.4
2025-03-11T1000,3000A,119.3581,34.6972,连云港市,德源药业,细颗粒物(PM2.5),64,53,50,46,38,60,,55,55,24,22,8,8,0.6,0.6
2025-03-11T1000,3007A,119.178,34.844,连云港市,新城一中,细颗粒物(PM2.5),63,56,71,45,47,62,,30,30,50,49,6,7,0.6,0.6
2025-03-11T1000,3008A,119.3608,34.7519,连云港市,胡沟管理处,,,,42,,31,,,84,79,32,29,9,9,,0.5
2025-03-11T1000,3009A,119.1478,34.5911,连云港市,矿山设计院,细颗粒物(PM2.5),62,61,63,44,41,58,,60,60,19,22,7,8,0.4,0.4
2025-03-11T1000,3434A,119.2413,34.6539,连云港市,工贸学校,细颗粒物(PM2.5),70,63,60,51,49,70,,74,74,14,16,7,8,0.8,0.8
2025-03-11T1000,3664A,119.4172,34.7341,连云港市,连云街道,,,,63,,45,34,,78,65,,30,12,8,,0.7
2025-03-11T1000,2571A,102.3431,27.8099,凉山彝族自治州,青龙寺,,47,47,41,14,13,90,,86,86,9,11,7,6,0.7,0.7
2025-03-11T1000,2572A,102.2721,27.8415,凉山彝族自治州,邛海宾馆,,,46,43,24,28,88,,108,106,22,12,,15,,0.8
2025-03-11T1000,2573A,102.2625,27.898,凉山彝族自治州,西昌市政府,,43,43,42,29,30,97,,92,92,14,12,22,18,1.5,0.9
2025-03-11T1000,2574A,102.2685,27.8851,凉山彝族自治州,凉山州政府,,48,48,43,28,28,101,,105,105,17,12,24,21,1.2,0.8
2025-03-11T1000,4229A,102.2342,27.8859,凉山彝族自治州,凯乐南路30号,颗粒物(PM10),51,51,51,23,29,101,,96,96,13,17,13,18,0.4,0.9
2025-03-11T1000,2212A,123.2,41.1953,辽阳市,宏伟区,,45,32,45,31,47,110,,117,113,14,12,9,9,0.8,0.8
2025-03-11T1000,2213A,123.1683,41.2495,辽阳市,新华园,,,47,55,35,50,102,,104,103,,18,,9,0.7,0.7
2025-03-11T1000,2214A,123.2354,41.2639,辽阳市,滨河路,,46,36,37,32,49,97,,106,102,21,17,8,12,0.6,0.6
2025-03-11T1000,2215A,123.149,41.2991,辽阳市,铁西工业园,,50,45,67,35,50,106,,108,106,17,18,9,9,0.6,0.6
2025-03-11T1000,2227A,125.1358,42.8845,辽源市,环保局,细颗粒物(PM2.5),58,53,55,41,34,110,,102,102,32,47,10,6,1.0,0.9
2025-03-11T1000,3239A,125.0764,42.9078,辽源市,银鹰制药,细颗粒物(PM2.5),62,61,65,44,37,118,,102,102,15,16,8,6,1.0,0.9
2025-03-11T1000,1625A,115.9848,36.4372,聊城市,区政府,细颗粒物(PM2.5),103,123,122,77,78,76,,85,78,17,15,14,13,0.8,0.8
2025-03-11T1000,2878A,116.0072,36.4343,聊城市,聊大东校,,,,129,,82,,,86,79,21,22,11,9,0.8,0.6
2025-03-11T1000,3200A,115.9819,36.4978,聊城市,监控中心,细颗粒物(PM2.5),125,124,123,95,88,82,,93,85,20,19,13,13,1.1,1
2025-03-11T1000,3513A,116.0445,36.4361,聊城市,九州社区,细颗粒物(PM2.5),97,114,112,72,77,86,,90,84,14,14,10,10,0.7,0.7
2025-03-11T1000,4018A,116.0567,36.4608,聊城市,星美广场,细颗粒物(PM2.5),97,126,124,72,74,81,,90,82,23,21,15,14,0.9,0.9
2025-03-11T1000,2632A,94.3681,29.6376,林芝市,林芝监测站,,31,23,20,15,10,99,,113,110,11,5,7,7,0.4,0.3
2025-03-11T1000,2633A,94.3616,29.6616,林芝市,林芝人民医院,,36,36,20,17,10,92,,109,104,12,3,7,7,0.3,0.2
2025-03-11T1000,2603A,100.0781,23.8982,临沧市,市环保局,颗粒物(PM10),62,73,68,35,46,59,,74,66,24,16,10,11,0.8,0.6
2025-03-11T1000,2604A,100.0894,23.8822,临沧市,市气象局,,,87,60,60,45,49,,73,65,27,17,,16,0.9,0.7
2025-03-11T1000,1733A,111.5531,36.0783,临汾市,临钢医院,颗粒物(PM10),92,133,106,64,51,26,,28,24,38,31,9,9,0.9,0.7
2025-03-11T1000,1734A,111.5028,36.0714,临汾市,技工学校,细颗粒物(PM2.5),97,116,102,72,61,34,,49,45,33,26,12,10,1.2,0.8
2025-03-11T1000,1736A,111.5018,36.0855,临汾市,市委,颗粒物(PM10),91,131,106,64,54,34,,52,47,32,23,11,8,1.4,0.9
2025-03-11T1000,3018A,111.505,36.1014,临汾市,唐尧大酒店,细颗粒物(PM2.5),89,126,103,66,57,31,,50,43,34,27,11,8,1.2,0.8
2025-03-11T1000,4244A,111.4879,36.0530,临汾市,启星学校,,,108,90,69,63,38,,25,22,29,28,,6,1.0,0.8
2025-03-11T1000,4271A,103.2464,35.6123,临夏回族自治州,滨河东路1号,颗粒物(PM10),130,210,79,16,18,78,,35,35,7,30,2,5,0.3,0.8
2025-03-11T1000,4310A,103.2093,35.5995,临夏回族自治州,新华街21号,颗粒物(PM10),54,57,55,7,19,78,,37,37,9,24,7,11,0.4,0.9
2025-03-11T1000,1618A,118.3429,35.0532,临沂市,沂河小区,细颗粒物(PM2.5),87,80,99,64,78,42,,32,32,17,19,10,12,0.7,0.6
2025-03-11T1000,1619A,118.295,35.0583,临沂市,鲁南制药厂,细颗粒物(PM2.5),88,95,99,65,68,44,,36,36,28,35,8,14,0.5,0.4
2025-03-11T1000,1620A,118.2794,34.9976,临沂市,新光毛纺厂,,,66,84,63,68,43,,32,32,25,31,5,9,,0.7
2025-03-11T1000,1621A,118.3956,35.0888,临沂市,河东保险公司,细颗粒物(PM2.5),88,80,92,65,68,43,,26,26,32,36,4,4,0.7,0.7
2025-03-11T1000,3370A,118.3564,35.0215,临沂市,十里堡居委,细颗粒物(PM2.5),92,80,86,68,66,34,,32,31,23,25,8,10,0.7,0.6
2025-03-11T1000,3496A,118.3604,35.1084,临沂市,南坊新区,细颗粒物(PM2.5),79,73,87,58,70,52,,36,36,21,25,4,6,0.6,0.6
2025-03-11T1000,3860A,118.3920,35.0300,临沂市,皇山花园小区,细颗粒物(PM2.5),75,58,82,55,63,45,,34,34,21,26,4,6,0.6,0.5
2025-03-11T1000,1870A,109.4856,24.3895,柳州市,柳东小学,,41,41,29,23,20,6,,6,5,26,20,11,10,0.8,0.7
2025-03-11T1000,1871A,109.4157,24.3277,柳州市,环保监测站,细颗粒物(PM2.5),57,56,55,40,35,2,,2,2,24,27,10,11,1.2,1
2025-03-11T1000,1872A,109.389,24.341,柳州市,河西水厂,颗粒物(PM10),63,75,55,31,31,2,,0,0,24,24,4,5,1.1,1
2025-03-11T1000,1873A,109.4311,24.2921,柳州市,市四中,颗粒物(PM10),51,52,55,31,30,6,,5,5,26,27,10,9,1.1,0.9
2025-03-11T1000,1874A,109.4006,24.3631,柳州市,市九中,颗粒物(PM10),54,57,46,26,26,5,,3,3,20,21,7,7,1.2,1.1
2025-03-11T1000,1875A,109.4958,24.3134,柳州市,古亭山,,41,41,40,28,24,5,,4,4,24,21,10,8,0.7,0.6
2025-03-11T1000,3402A,109.5422,24.3996,柳州市,市二中,,46,34,31,32,22,4,,2,2,27,22,27,13,0.7,0.6
2025-03-11T1000,2307A,116.5079,31.737,六安市,监测大楼,细颗粒物(PM2.5),89,87,79,66,66,80,,38,38,32,30,8,5,0.9,0.8
2025-03-11T1000,2308A,116.4738,31.7643,六安市,皖西学院,细颗粒物(PM2.5),82,98,88,60,68,79,,30,30,26,25,6,4,0.7,0.6
2025-03-11T1000,2309A,116.4996,31.7905,六安市,朝阳厂,细颗粒物(PM2.5),94,97,84,70,68,66,,59,59,37,28,5,4,0.9,0.7
2025-03-11T1000,2310A,116.5567,31.7886,六安市,开发区,细颗粒物(PM2.5),75,98,89,55,56,81,,34,34,30,26,7,5,0.9,0.7
2025-03-11T1000,2576A,104.8,26.5892,六盘水市,窑上,,,,45,42,37,43,,35,35,21,13,8,6,0.9,0.8
2025-03-11T1000,2577A,104.83,26.5917,六盘水市,黄土坡,细颗粒物(PM2.5),58,54,50,41,36,47,,37,33,27,21,17,11,1.0,1
2025-03-11T1000,2578A,104.89,26.5939,六盘水市,水钢,细颗粒物(PM2.5),72,54,59,52,44,57,,50,50,12,12,9,8,0.6,0.6
2025-03-11T1000,2579A,104.8475,26.5894,六盘水市,民中,,42,35,41,29,30,50,,39,37,20,17,14,10,0.7,0.7
2025-03-11T1000,2580A,104.9544,26.5506,六盘水市,双水,,41,41,32,23,24,54,,52,52,13,11,8,8,0.5,0.5
2025-03-11T1000,2335A,117.0189,25.1181,龙岩市,龙岩师专,,,,,,,,,,,,,,,,
2025-03-11T1000,2336A,117.0217,25.1033,龙岩市,龙岩市监测站,,50,47,44,35,30,23,,9,9,30,29,10,10,0.8,0.8
2025-03-11T1000,2337A,117.0258,25.0661,龙岩市,闽西职业技术学院,细颗粒物(PM2.5),59,54,46,42,31,17,,8,8,37,31,6,20,1.0,0.6
2025-03-11T1000,2338A,117.0196,25.0306,龙岩市,龙岩学院,,48,45,40,33,34,20,,22,18,28,14,9,9,0.7,0.6
2025-03-11T1000,2665A,105.0822,33.3261,陇南市,汉王镇固水子,,,,,,,,,,,,,,,,
2025-03-11T1000,2885A,104.9339,33.3826,陇南市,滨江中学,,43,43,36,24,19,39,,49,45,15,7,8,6,0.7,0.6
2025-03-11T1000,3247A,104.955,33.371,陇南市,市总工会,,39,39,31,22,14,42,,51,48,13,5,9,8,0.5,0.4
2025-03-11T1000,2487A,111.9589,27.8901,娄底市,电视发射台,细颗粒物(PM2.5),58,45,44,41,40,16,,12,12,15,12,9,8,1.0,0.9
2025-03-11T1000,2488A,111.9975,27.725,娄底市,市监测站,细颗粒物(PM2.5),68,76,62,49,45,7,,7,6,35,34,10,8,1.2,1
2025-03-11T1000,2489A,112.0194,27.7314,娄底市,市委党校,细颗粒物(PM2.5),65,64,56,47,43,16,,15,15,20,23,3,4,1.0,1
2025-03-11T1000,2490A,111.9561,27.7569,娄底市,涟钢,细颗粒物(PM2.5),79,66,61,58,47,14,,10,9,18,23,12,10,1.2,1.4
2025-03-11T1000,2491A,111.9892,27.7044,娄底市,市政府,细颗粒物(PM2.5),60,58,47,43,37,9,,11,10,21,14,8,7,1.0,0.8
2025-03-11T1000,1893A,105.4324,28.9634,泸州市,九狮山,,,,,,,,,,,,,,,,
2025-03-11T1000,1894A,105.4427,28.9063,泸州市,小市上码头,细颗粒物(PM2.5),79,98,84,58,48,32,,51,40,38,30,10,9,0.7,0.6
2025-03-11T1000,1895A,105.4241,28.8573,泸州市,兰田宪桥,细颗粒物(PM2.5),77,80,77,56,52,29,,41,39,34,28,9,8,0.7,0.6
2025-03-11T1000,1896A,105.4379,28.8833,泸州市,市环监站,细颗粒物(PM2.5),80,71,60,59,50,17,,46,38,49,33,10,10,0.6,0.4
2025-03-11T1000,4272A,105.3689,28.7783,泸州市,纳溪中医医院,细颗粒物(PM2.5),79,76,78,58,61,28,,25,25,29,32,7,6,0.7,0.7
2025-03-11T1000,2183A,111.1406,37.5211,吕梁市,环保局,颗粒物(PM10),80,110,103,51,46,22,,22,20,46,46,5,3,0.5,0.5
2025-03-11T1000,2185A,111.1297,37.5136,吕梁市,自来水公司,,,102,107,50,47,,,8,8,,39,10,9,0.8,0.7
2025-03-11T1000,2867A,111.1283,37.51,吕梁市,马茂庄小学,颗粒物(PM10),77,103,109,52,45,26,,11,11,50,48,11,11,0.8,0.6
2025-03-11T1000,1812A,112.3931,34.6516,洛阳市,市委党校,细颗粒物(PM2.5),110,128,109,83,74,29,,15,15,48,46,13,7,1.0,0.9
2025-03-11T1000,1815A,112.494,34.6886,洛阳市,河南林校,细颗粒物(PM2.5),130,144,106,99,91,23,,16,12,42,37,7,5,1.0,0.9
2025-03-11T1000,1816A,112.3844,34.623,洛阳市,开发区管委会,细颗粒物(PM2.5),112,115,106,84,77,37,,36,29,34,29,8,7,0.8,0.8
2025-03-11T1000,1817A,112.4267,34.6258,洛阳市,市委新办公区,细颗粒物(PM2.5),97,119,118,72,70,37,,34,34,37,37,6,5,0.8,0.7
2025-03-11T1000,3340A,112.6005,34.6326,洛阳市,伊滨,细颗粒物(PM2.5),115,115,123,87,92,33,,22,21,36,38,6,5,0.9,0.9
2025-03-11T1000,3341A,112.4951,34.6332,洛阳市,中移产业园,细颗粒物(PM2.5),128,126,131,97,99,33,,23,23,41,44,10,7,1.1,1.1
2025-03-11T1000,3593A,112.5736,34.8993,洛阳市,吉利监测站,细颗粒物(PM2.5),110,110,103,83,86,36,,32,32,44,33,7,6,0.9,0.8
2025-03-11T1000,3635A,112.3677,34.662,洛阳市,河科大西苑校区,细颗粒物(PM2.5),119,123,111,90,81,15,,22,18,36,38,7,10,0.9,0.8
2025-03-11T1000,3636A,112.4388,34.6781,洛阳市,英才小学,细颗粒物(PM2.5),102,145,126,76,72,30,,17,16,54,52,13,10,0.9,0.7
2025-03-11T1000,4214A,112.4600,34.6949,洛阳市,春都路1号院,细颗粒物(PM2.5),103,112,106,77,71,34,,21,18,50,44,8,7,1.0,0.7
2025-03-11T1000,2399A,114.051,33.5699,漯河市,三五一五工厂,,,,81,,78,,,41,37,26,20,5,5,0.6,0.6
2025-03-11T1000,2400A,114.0055,33.5698,漯河市,漯河大学,细颗粒物(PM2.5),100,115,90,75,65,54,,44,40,31,23,23,8,0.6,0.6
2025-03-11T1000,2401A,114.0138,33.5828,漯河市,市水利局,细颗粒物(PM2.5),100,88,78,75,66,62,,40,38,22,19,8,5,0.4,0.4
2025-03-11T1000,2402A,114.0261,33.5698,漯河市,市广电局,细颗粒物(PM2.5),98,83,75,73,66,54,,39,38,23,20,6,5,0.6,0.6
2025-03-11T1000,3478A,113.9749,33.5664,漯河市,市图书馆,,,,83,,68,,,44,37,32,24,31,10,0.8,0.7
2025-03-11T1000,4250A,114.0892,33.5882,漯河市,韶山路11号,细颗粒物(PM2.5),112,107,91,84,63,44,,46,42,33,24,7,5,0.6,0.6
2025-03-11T1000,1798A,118.5092,31.6837,马鞍山市,湖东路四小,,,92,93,66,67,46,,42,37,34,30,,8,1.1,0.9
2025-03-11T1000,1799A,118.5024,31.6449,马鞍山市,开发区,细颗粒物(PM2.5),94,120,108,70,80,45,,24,24,34,42,12,7,1.2,0.9
2025-03-11T1000,1802A,118.6245,31.7241,马鞍山市,濮塘,,,,81,,66,,,42,35,,14,,10,,0.8
2025-03-11T1000,3633A,118.4918,31.6809,马鞍山市,雨山,细颗粒物(PM2.5),94,104,98,70,69,45,,40,36,33,30,14,10,1.1,0.9
2025-03-11T1000,4191A,118.5274,31.72227,马鞍山市,慈湖高新区,细颗粒物(PM2.5),103,95,96,77,79,47,,32,28,35,41,14,12,0.9,0.8
2025-03-11T1000,1686A,111.0286,21.4688,茂名市,电白南海,颗粒物(PM10),51,51,44,27,24,66,,86,75,15,8,5,3,0.7,0.7
2025-03-11T1000,1687A,110.9294,21.6533,茂名市,茂石化七小,,44,44,35,24,19,64,,90,77,14,8,10,4,0.5,0.4
2025-03-11T1000,1688A,110.9107,21.6687,茂名市,健康路,,36,36,32,19,18,67,,89,78,15,10,8,5,0.4,0.4
2025-03-11T1000,1689A,110.8592,21.6828,茂名市,高岭,颗粒物(PM10),59,68,44,22,18,62,,83,73,23,12,14,6,0.5,0.4
2025-03-11T1000,3450A,111.01,21.5165,茂名市,电白水东,,39,39,32,17,15,49,,76,64,18,8,7,3,0.8,0.7
2025-03-11T1000,2539A,104.0308,30.0478,眉山市,黑龙滩水库,细颗粒物(PM2.5),100,,59,75,47,9,,7,6,29,16,1,3,0.9,0.7
2025-03-11T1000,2540A,103.8416,30.0874,眉山市,气象局,细颗粒物(PM2.5),98,98,95,73,70,14,,11,10,29,37,7,6,0.8,0.8
2025-03-11T1000,3137A,103.8578,30.0744,眉山市,市委党校,细颗粒物(PM2.5),98,88,82,73,64,14,,9,9,38,42,9,8,0.8,0.8
2025-03-11T1000,3148A,103.8291,30.0564,眉山市,区人社局,细颗粒物(PM2.5),98,78,78,73,66,12,,11,10,35,45,10,8,0.9,0.9
2025-03-11T1000,1690A,116.1231,24.3284,梅州市,梅江月梅,细颗粒物(PM2.5),62,48,47,44,31,11,,5,5,35,29,11,11,0.8,0.6
2025-03-11T1000,1691A,116.0797,24.2719,梅州市,梅县新城,,49,47,49,34,33,13,,5,5,36,35,7,6,0.8,0.7
2025-03-11T1000,1692A,116.1248,24.2654,梅州市,环境监控中心,细颗粒物(PM2.5),57,44,47,40,32,38,,15,15,32,34,10,8,0.8,0.7
2025-03-11T1000,3315A,116.1233,24.2991,梅州市,梅龙,,,36,44,28,28,28,,14,14,14,27,,7,0.8,0.8
2025-03-11T1000,1878A,104.7778,31.4741,绵阳市,富乐山,细颗粒物(PM2.5),79,73,64,58,53,28,,31,27,34,25,2,3,0.8,0.7
2025-03-11T1000,1880A,104.6697,31.4668,绵阳市,高新区自来水公司,细颗粒物(PM2.5),70,66,74,51,51,18,,31,31,38,29,5,5,1.0,0.9
2025-03-11T1000,1881A,104.7287,31.5075,绵阳市,三水厂,细颗粒物(PM2.5),87,91,88,64,62,9,,13,13,36,37,6,6,0.9,0.8
2025-03-11T1000,3491A,104.69,31.5322,绵阳市,西科大附属小学,细颗粒物(PM2.5),60,65,76,43,52,21,,23,23,33,36,7,7,0.8,0.7
2025-03-11T1000,3492A,104.5648,31.5343,绵阳市,安州区旅游局,细颗粒物(PM2.5),73,68,56,53,58,40,,40,36,18,23,9,8,0.6,0.6
2025-03-11T1000,4226A,104.7651,31.4531,绵阳市,绵阳市气象局,细颗粒物(PM2.5),78,89,74,57,52,17,,26,22,43,32,7,7,0.7,0.6
2025-03-11T1000,1784A,129.61,44.561,牡丹江市,环保大楼,"颗粒物(PM10),细颗粒物(PM2.5)",78,105,92,57,58,105,,101,98,18,18,7,7,0.5,0.4
2025-03-11T1000,1785A,129.6115,44.5782,牡丹江市,文化广场,细颗粒物(PM2.5),77,81,94,56,56,103,,96,92,24,24,10,11,0.4,0.4
2025-03-11T1000,1786A,129.5904,44.5963,牡丹江市,第一医院,细颗粒物(PM2.5),88,80,90,65,61,107,,88,85,16,19,11,11,0.5,0.5
2025-03-11T1000,1787A,129.6364,44.6075,牡丹江市,机车工厂,细颗粒物(PM2.5),77,81,95,56,52,104,,63,63,20,30,9,12,0.6,0.6
2025-03-11T1000,1788A,129.6386,44.5462,牡丹江市,第一中学,,,78,87,55,50,,,107,106,16,17,8,8,,0.5
2025-03-11T1000,2531A,105.0703,29.61,内江市,市监测站,细颗粒物(PM2.5),77,71,60,56,52,32,,56,46,26,23,6,6,1.0,1
2025-03-11T1000,2532A,105.0717,29.5947,内江市,东兴区政府,细颗粒物(PM2.5),58,49,50,41,41,31,,57,46,28,22,5,5,0.9,0.9
2025-03-11T1000,2533A,105.0653,29.5817,内江市,内江二中,细颗粒物(PM2.5),64,52,56,46,45,30,,58,48,32,21,8,11,0.9,0.8
2025-03-11T1000,2534A,105.0406,29.5822,内江市,内江日报社,细颗粒物(PM2.5),68,69,58,49,47,38,,52,47,24,29,10,9,0.7,0.7
2025-03-11T1000,2628A,92.0657,31.4846,那曲市,那曲监测站,细颗粒物(PM2.5),60,60,31,43,20,71,,72,62,10,13,8,9,0.7,1
2025-03-11T1000,3128A,92.0506,31.4797,那曲市,那曲会议中心,,29,29,28,3,15,60,,59,50,3,9,6,6,0.7,1
2025-03-11T1000,1290A,115.8931,28.6843,南昌市,省外办,细颗粒物(PM2.5),79,63,70,58,66,21,,6,6,48,62,4,4,1.0,0.9
2025-03-11T1000,1291A,115.8886,28.7003,南昌市,省林业公司,细颗粒物(PM2.5),64,46,61,46,58,24,,5,5,28,42,6,6,0.7,0.6
2025-03-11T1000,1292A,115.8126,28.7442,南昌市,林科所,细颗粒物(PM2.5),89,83,55,66,48,19,,9,9,42,44,3,5,0.8,0.7
2025-03-11T1000,1294A,115.8518,28.687,南昌市,建工学校,细颗粒物(PM2.5),90,87,73,67,58,16,,5,5,43,47,9,9,0.9,0.8
2025-03-11T1000,1295A,115.8921,28.6424,南昌市,象湖,,,,61,,74,28,,7,7,24,42,6,6,1.0,0.8
2025-03-11T1000,1296A,115.7423,28.7996,南昌市,武术学校,细颗粒物(PM2.5),52,,28,36,23,14,,10,10,28,11,2,1,0.7,0.6
2025-03-11T1000,3046A,115.9084,28.6062,南昌市,机电学校,细颗粒物(PM2.5),64,60,78,46,65,31,,10,10,22,38,5,4,0.7,0.8
2025-03-11T1000,3690A,115.9721,28.7031,南昌市,外国语学校,细颗粒物(PM2.5),65,48,71,47,59,37,,16,16,9,26,4,4,0.6,0.8
2025-03-11T1000,4192A,115.9316,28.68677,南昌市,南京东路235号,细颗粒物(PM2.5),67,57,80,48,70,36,,13,13,23,52,4,5,0.6,0.8
2025-03-11T1000,1905A,106.056,30.8064,南充市,西山风景区,,50,40,41,35,35,42,,53,49,13,13,3,3,0.5,0.5
2025-03-11T1000,1906A,106.0789,30.8023,南充市,南充市委,"颗粒物(PM10),细颗粒物(PM2.5)",52,53,51,36,35,31,,37,36,29,28,5,4,0.8,0.7
2025-03-11T1000,1907A,106.1031,30.8217,南充市,南充炼油厂,细颗粒物(PM2.5),62,67,56,44,43,26,,40,34,30,22,6,5,0.5,0.4
2025-03-11T1000,1909A,106.0642,30.7636,南充市,嘉陵区环保局,颗粒物(PM10),53,56,56,34,39,32,,40,36,24,24,4,4,0.7,0.7
2025-03-11T1000,1910A,106.1087,30.8388,南充市,市环境监测站,,,60,58,39,42,,,45,42,16,15,7,7,0.6,0.6
2025-03-11T1000,4227A,106.1083,30.7884,南充市,梨树横街98号,颗粒物(PM10),54,57,57,35,37,29,,40,35,30,23,7,6,0.5,0.5
2025-03-11T1000,1151A,118.8086,32.1065,南京市,迈皋桥,细颗粒物(PM2.5),89,94,76,66,52,39,,22,20,47,38,4,4,0.7,0.5
2025-03-11T1000,1152A,118.7538,32.0551,南京市,草场门,细颗粒物(PM2.5),85,90,74,63,54,29,,20,18,48,34,8,6,1.1,0.8
2025-03-11T1000,1153A,118.7794,32.0745,南京市,山西路,细颗粒物(PM2.5),98,92,84,73,57,31,,25,21,44,24,4,4,0.9,0.7
2025-03-11T1000,1154A,118.7752,32.0023,南京市,中华门,细颗粒物(PM2.5),85,95,80,63,54,39,,30,24,61,43,5,4,0.7,0.5
2025-03-11T1000,1155A,118.8109,32.0309,南京市,瑞金路,细颗粒物(PM2.5),83,100,83,61,51,41,,17,17,55,32,6,6,0.7,0.6
2025-03-11T1000,1156A,118.7997,32.0754,南京市,玄武湖,细颗粒物(PM2.5),98,93,79,73,57,34,,20,15,35,26,5,4,0.6,0.5
2025-03-11T1000,1157A,118.6414,32.0931,南京市,浦口,细颗粒物(PM2.5),94,116,94,70,59,31,,31,23,49,35,9,6,0.9,0.6
2025-03-11T1000,1158A,118.7356,31.9996,南京市,奥体中心,细颗粒物(PM2.5),83,104,89,61,58,38,,33,26,54,38,11,8,0.8,0.5
2025-03-11T1000,1159A,118.9125,32.1028,南京市,仙林大学城,,,90,75,,52,32,,13,10,43,37,8,8,0.9,0.8
2025-03-11T1000,3422A,118.8436,31.9198,南京市,江宁彩虹桥,细颗粒物(PM2.5),85,87,80,63,52,31,,17,16,51,33,6,5,0.7,0.5
2025-03-11T1000,3423A,119.0138,31.6494,南京市,溧水永阳,颗粒物(PM10),59,68,70,31,51,41,,27,23,43,30,10,6,0.7,0.6
2025-03-11T1000,3427A,118.8554,32.3578,南京市,六合雄州,细颗粒物(PM2.5),93,111,75,69,39,25,,5,5,50,34,6,5,1.2,0.9
2025-03-11T1000,4249A,118.8708,31.3402,南京市,汶溪路181号,颗粒物(PM10),51,52,75,23,53,52,,30,30,26,22,9,6,0.6,0.5
2025-03-11T1000,1401A,108.3103,22.7881,南宁市,二十一中,,24,24,58,16,34,48,,52,51,23,34,4,4,0.8,1
2025-03-11T1000,1402A,108.3141,22.8528,南宁市,北湖,颗粒物(PM10),55,59,80,31,48,12,,6,6,46,47,6,6,1.1,1.1
2025-03-11T1000,1403A,108.3206,22.8225,南宁市,市监测站,,33,25,56,23,36,32,,44,42,32,38,5,6,1.0,1.1
2025-03-11T1000,1404A,108.3829,22.8037,南宁市,大自然花园,,28,21,49,19,32,55,,60,59,8,18,5,5,0.8,0.9
2025-03-11T1000,1405A,108.4394,22.7904,南宁市,仙葫,,35,35,50,18,34,37,,50,50,21,26,1,2,0.5,0.6
2025-03-11T1000,1406A,108.2397,22.8467,南宁市,区农职院,颗粒物(PM10),54,57,81,30,42,10,,2,2,44,44,8,9,1.0,1
2025-03-11T1000,1407A,108.3275,22.735,南宁市,英华嘉园,,19,17,57,13,34,36,,36,36,26,31,6,6,0.6,0.8
2025-03-11T1000,3401A,108.4834,22.7618,南宁市,红星社区,,26,21,49,18,38,50,,45,45,14,21,7,7,0.7,0.9
2025-03-11T1000,4221A,108.2177,22.7774,南宁市,乐贤路16号,颗粒物(PM10),57,63,88,30,44,23,,18,18,43,51,7,7,0.8,1
2025-03-11T1000,2331A,118.0966,26.6761,南平市,茫荡山,,,,,,,,,,,,,,,,
2025-03-11T1000,2332A,118.1681,26.6369,南平市,南平市监测站,细颗粒物(PM2.5),52,50,46,36,33,30,,12,12,14,21,8,6,0.9,1
2025-03-11T1000,2333A,118.1825,26.6489,南平市,南平铝业有限公司,细颗粒物(PM2.5),52,42,42,36,35,25,,7,7,17,27,12,7,1.1,1
2025-03-11T1000,2334A,118.1756,26.6272,南平市,南平七中,细颗粒物(PM2.5),54,47,42,38,31,25,,11,11,16,19,4,4,0.8,0.8
2025-03-11T1000,1168A,120.9098,31.9663,南通市,狼山街道,细颗粒物(PM2.5),67,63,34,48,24,46,,51,47,30,22,7,5,0.6,0.4
2025-03-11T1000,1169A,120.86,32.0005,南通市,虹桥,细颗粒物(PM2.5),80,81,44,59,33,43,,50,46,34,27,5,4,0.2,0
2025-03-11T1000,1170A,120.87,32.02,南通市,城中,细颗粒物(PM2.5),79,86,43,58,31,52,,54,49,27,22,6,5,0.7,0.4
2025-03-11T1000,1171A,120.94,31.93,南通市,星湖花园,细颗粒物(PM2.5),60,66,32,43,27,40,,46,41,34,25,6,5,0.5,0.4
2025-03-11T1000,1172A,120.81,32.0417,南通市,紫琅学院,细颗粒物(PM2.5),84,69,39,62,29,45,,48,43,30,24,3,3,0.6,0.5
2025-03-11T1000,3291A,121.067,32.062,南通市,通州监测站,细颗粒物(PM2.5),70,61,32,51,26,64,,64,60,18,14,4,3,0.7,0.5
2025-03-11T1000,3432A,120.9348,31.9883,南通市,环境教育馆,细颗粒物(PM2.5),75,66,34,55,29,56,,56,50,22,16,5,4,0.3,0.1
2025-03-11T1000,2404A,112.5224,33.0122,南阳市,瓦房庄,,,6,71,3,53,51,,58,54,15,13,4,5,,0.4
2025-03-11T1000,2405A,112.5003,32.9735,南阳市,汉画馆,细颗粒物(PM2.5),89,81,69,66,56,48,,50,47,15,18,4,4,0.7,0.6
2025-03-11T1000,2406A,112.5573,33.027,南阳市,气象站,细颗粒物(PM2.5),89,94,79,66,55,51,,56,53,14,13,5,5,0.4,0.4
2025-03-11T1000,2407A,112.5481,32.9689,南阳市,理工学院,细颗粒物(PM2.5),85,91,74,63,55,47,,49,44,18,21,4,4,0.6,0.6
2025-03-11T1000,4008A,112.5234,32.9922,南阳市,卧龙区政府,细颗粒物(PM2.5),92,90,76,68,59,49,,58,53,15,14,6,6,0.7,0.6
2025-03-11T1000,1234A,121.8358,29.911,宁波市,区环保大楼,,22,22,52,10,25,47,,10,10,37,83,7,10,0.5,0.5
2025-03-11T1000,1235A,121.56,29.82,宁波市,万里学院,,40,40,44,24,26,41,,28,24,30,41,8,7,0.6,0.6
2025-03-11T1000,1236A,121.713,29.9572,宁波市,龙赛医院,颗粒物(PM10),52,54,43,25,30,27,,13,13,44,66,8,9,0.5,0.5
2025-03-11T1000,1239A,121.633,29.7733,宁波市,钱湖水厂,,26,24,30,18,20,61,,48,48,18,26,7,7,0.7,0.7
2025-03-11T1000,1240A,121.5856,29.8635,宁波市,太古小学,,,28,48,15,24,54,,29,29,30,46,,8,0.8,0.8
2025-03-11T1000,1241A,121.524,29.8674,宁波市,市环境监测中心,,44,44,34,22,25,28,,25,23,50,59,8,7,0.7,0.6
2025-03-11T1000,2871A,121.6147,29.9017,宁波市,万里国际学校,,29,29,36,17,24,58,,18,18,18,55,7,8,0.6,0.6
2025-03-11T1000,3710A,121.5594,29.8975,宁波市,白沙活动中心,,49,49,58,19,28,55,,18,18,19,44,6,6,0.5,0.5
2025-03-11T1000,2339A,119.5001,26.6946,宁德市,金涵水库,,,,,,,,,,,,,,,,
2025-03-11T1000,2341A,119.5388,26.6612,宁德市,宁德市监测站,细颗粒物(PM2.5),55,52,45,39,32,27,,13,12,17,18,6,6,1.0,0.8
2025-03-11T1000,3209A,119.5231,26.6562,宁德市,宁德一中,细颗粒物(PM2.5),55,42,40,39,32,34,,25,23,28,21,7,5,0.9,0.7
2025-03-11T1000,2618A,98.8601,25.8567,怒江傈僳族自治州,州监测站,,,57,56,43,36,56,,74,69,18,11,5,5,,0.2
2025-03-11T1000,2619A,98.8546,25.8417,怒江傈僳族自治州,泸水一中,细颗粒物(PM2.5),65,62,57,47,40,24,,40,35,34,22,7,7,0.6,0.6
2025-03-11T1000,1888A,101.6891,26.571,攀枝花市,弄弄坪,颗粒物(PM10),100,149,90,74,46,20,,10,8,81,48,145,57,6.6,2.8
2025-03-11T1000,1889A,101.5769,26.5928,攀枝花市,河门口,颗粒物(PM10),63,76,59,34,28,35,,32,30,38,24,17,12,1.0,0.7
2025-03-11T1000,1890A,101.7169,26.585,攀枝花市,炳草岗,颗粒物(PM10),81,112,76,55,39,16,,5,5,69,55,46,15,3.5,1.5
2025-03-11T1000,1891A,101.7369,26.5008,攀枝花市,仁和,颗粒物(PM10),55,59,50,36,38,38,,48,48,43,24,14,8,1.6,0.7
2025-03-11T1000,2835A,101.7227,26.567,攀枝花市,四十中小,,,,67,,37,,,39,30,89,49,,23,3.3,1.8
2025-03-11T1000,1604A,122.0303,41.1489,盘锦市,开发区,,,68,73,60,66,100,,94,94,14,17,,14,0.6,0.7
2025-03-11T1000,1605A,122.0485,41.0883,盘锦市,兴隆台,细颗粒物(PM2.5),82,,64,60,67,97,,86,86,16,20,7,5,0.7,0.7
2025-03-11T1000,1606A,121.8297,41.1028,盘锦市,新生街道,细颗粒物(PM2.5),78,,54,57,64,94,,85,85,15,18,10,8,0.8,0.8
2025-03-11T1000,1832A,113.3257,33.742,平顶山市,新华旅馆,细颗粒物(PM2.5),87,114,85,64,52,58,,68,67,24,28,5,4,0.4,0.4
2025-03-11T1000,1833A,113.2919,33.737,平顶山市,规划设计院,细颗粒物(PM2.5),98,92,83,73,57,62,,69,67,20,22,4,2,0.6,0.5
2025-03-11T1000,1834A,113.182,33.774,平顶山市,平顶山工学院,细颗粒物(PM2.5),89,88,70,66,50,56,,66,60,18,12,5,5,0.7,0.6
2025-03-11T1000,3204A,113.3025,33.73,平顶山市,规划局,细颗粒物(PM2.5),112,90,76,84,69,58,,68,66,23,22,6,4,0.7,0.7
2025-03-11T1000,3594A,112.8867,33.9116,平顶山市,石龙区,细颗粒物(PM2.5),92,108,80,68,47,56,,45,45,20,20,6,4,0.6,0.5
2025-03-11T1000,2656A,106.6692,35.5461,平凉市,聚贤嘉苑,颗粒物(PM10),500,1055,214,145,46,95,,64,64,14,20,8,14,0.0,0.3
2025-03-11T1000,2657A,106.7021,35.5307,平凉市,博物馆,颗粒物(PM10),500,1253,227,158,48,92,,70,70,,21,10,15,0.4,0.7
2025-03-11T1000,2347A,114.0997,27.5002,萍乡市,武功山,,16,,14,11,13,13,,12,11,11,13,4,4,0.5,0.5
2025-03-11T1000,2348A,113.8385,27.6434,萍乡市,中医院,,42,42,34,26,26,14,,20,17,20,23,15,9,1.3,1.1
2025-03-11T1000,2349A,113.8493,27.6253,萍乡市,市政府车库,,40,40,31,28,26,12,,16,13,21,25,9,5,1.0,1
2025-03-11T1000,2350A,113.8676,27.6435,萍乡市,市环保局,,48,42,30,33,24,14,,18,15,20,25,9,5,0.9,0.8
2025-03-11T1000,2351A,113.866,27.6198,萍乡市,安源区政府,,49,41,35,34,26,11,,9,8,18,27,10,6,1.0,1.1
2025-03-11T1000,2319A,119.0141,25.4325,莆田市,荔城区仓后路,细颗粒物(PM2.5),62,72,46,44,24,48,,30,30,32,24,8,4,1.0,0.7
2025-03-11T1000,2320A,119.0015,25.4553,莆田市,莆田市监测站,细颗粒物(PM2.5),67,65,35,48,20,50,,29,27,30,15,6,4,1.0,0.6
2025-03-11T1000,2321A,119.1119,25.4561,莆田市,涵江区六中,颗粒物(PM10),57,63,42,38,24,54,,32,32,32,31,6,3,0.9,0.4
2025-03-11T1000,2322A,119.1013,25.3215,莆田市,秀屿区政府,细颗粒物(PM2.5),53,,43,37,30,74,,61,61,18,17,6,5,0.8,0.6
2025-03-11T1000,2323A,118.981,25.4792,莆田市,东圳水库,,,,,,,,,,,,,,,,
2025-03-11T1000,2392A,115.0312,35.7636,濮阳市,环保局,细颗粒物(PM2.5),109,85,79,82,79,75,,85,80,16,13,5,4,0.7,0.7
2025-03-11T1000,2394A,115.0574,35.7609,濮阳市,油田运输公司,细颗粒物(PM2.5),109,118,116,82,78,74,,94,86,21,17,5,4,1.0,0.9
2025-03-11T1000,3021A,115,35.7668,濮阳市,濮水河管理处,,,110,116,36,65,81,,92,86,21,19,,6,0.8,0.8
2025-03-11T1000,4216A,115.0924,35.7686,濮阳市,任丘路479号,细颗粒物(PM2.5),105,,105,79,77,79,,91,84,28,27,6,5,0.8,0.7
2025-03-11T1000,2601A,100.98,22.7633,普洱市,市环保局,颗粒物(PM10),68,86,66,18,34,28,,58,52,47,13,4,4,1.2,0.8
2025-03-11T1000,2602A,100.9817,22.8322,普洱市,普洱第二中学,颗粒物(PM10),71,91,65,34,34,32,,29,29,38,24,6,6,0.7,0.5
2025-03-11T1000,2262A,131.0518,45.8751,七台河市,新一中,颗粒物(PM10),86,121,117,43,47,104,,105,102,17,15,12,12,0.8,0.9
2025-03-11T1000,3345A,131.0577,45.7879,七台河市,中波台,,,,103,,45,,,112,,,19,,6,,0.5
2025-03-11T1000,3637A,131.0176,45.7761,七台河市,人民广场,颗粒物(PM10),86,122,113,44,54,83,,86,78,23,20,15,8,0.7,0.7
2025-03-11T1000,3684A,130.8781,45.8222,七台河市,新建矿广场,颗粒物(PM10),96,141,122,34,46,91,,86,82,15,17,11,9,0.5,0.5
2025-03-11T1000,1779A,123.9305,47.3636,齐齐哈尔市,安居小区,,39,39,63,22,35,80,,39,39,16,25,6,6,0.3,0.4
2025-03-11T1000,1780A,123.9488,47.3386,齐齐哈尔市,中心广场,,44,44,75,10,23,71,,34,34,16,24,7,6,0.4,0.5
2025-03-11T1000,1781A,123.9483,47.3227,齐齐哈尔市,农牧车辆厂,,26,17,60,17,20,82,,42,42,10,20,6,6,0.2,0.3
2025-03-11T1000,1783A,123.945,47.2988,齐齐哈尔市,市环境监测站,,35,35,68,17,24,74,,39,39,11,19,4,4,0.4,0.5
2025-03-11T1000,3662A,123.6333,47.2075,齐齐哈尔市,富区青少年活动中心,,42,42,119,18,32,56,,37,36,12,24,7,19,0.4,0.8
2025-03-11T1000,2591A,107.9783,26.5747,黔东南苗族侗族自治州,市环境监测站,,32,27,35,22,24,7,,14,12,20,15,5,3,1.2,0.7
2025-03-11T1000,2881A,107.8908,26.5311,黔东南苗族侗族自治州,凯里学院,,16,,11,11,14,39,,18,18,8,9,2,2,0.9,0.9
2025-03-11T1000,2593A,107.5228,26.2403,黔南布依族苗族自治州,小围寨,,12,6,7,3,7,36,,27,27,6,9,5,5,0.4,0.5
2025-03-11T1000,3538A,107.5175,26.2978,黔南布依族苗族自治州,沙坝,,13,12,8,3,6,41,,24,24,8,11,4,4,0.5,0.6
2025-03-11T1000,2589A,104.9022,25.0925,黔西南布依族苗族自治州,场坝街,,33,33,30,23,21,56,,54,54,9,8,2,3,0.4,0.5
2025-03-11T1000,2590A,104.8811,25.0992,黔西南布依族苗族自治州,坪东大道,,31,31,28,21,19,51,,49,49,11,10,3,3,0.4,0.4
2025-03-11T1000,2502A,108.6236,21.9667,钦州市,市环保站,,28,27,56,19,33,22,,26,24,42,30,6,7,1.2,1.1
2025-03-11T1000,2503A,108.6549,21.9481,钦州市,沙埠小学,,28,28,60,17,35,40,,36,36,24,35,5,6,0.9,1
2025-03-11T1000,2504A,108.5989,21.7431,钦州市,港区一小,,29,29,61,20,31,27,,45,36,48,36,7,9,1.0,1
2025-03-11T1000,3404A,108.5959,21.9633,钦州市,北职校,,33,,42,23,40,32,,39,38,30,27,6,8,1.0,0.9
2025-03-11T1000,1043A,119.7493,40.0116,秦皇岛市,第一关,细颗粒物(PM2.5),150,141,110,115,96,48,,51,39,48,36,11,5,1.1,0.7
2025-03-11T1000,1044A,119.5897,39.9499,秦皇岛市,监测站,细颗粒物(PM2.5),133,138,121,101,83,41,,41,32,56,47,9,3,1.2,0.8
2025-03-11T1000,1046A,119.5251,39.9041,秦皇岛市,建设大厦,细颗粒物(PM2.5),123,140,107,93,84,,,64,52,,38,13,5,1.0,0.7
2025-03-11T1000,3132A,119.610547,39.943889,秦皇岛市,文明里,细颗粒物(PM2.5),112,138,100,84,75,40,,60,51,45,36,12,4,1.1,0.6
2025-03-11T1000,4198A,119.5090,39.8253,秦皇岛市,北戴河轮滑馆,细颗粒物(PM2.5),120,117,90,91,75,41,,65,56,45,30,6,4,1.0,0.6
2025-03-11T1000,1307A,120.6659,36.2403,青岛市,仰口,,33,29,29,23,23,102,,91,89,10,10,3,3,0.3,0.3
2025-03-11T1000,1310A,120.4134,36.0658,青岛市,市南区东部子站,,39,39,53,19,32,80,,87,83,18,16,9,8,0.4,0.5
2025-03-11T1000,1311A,120.3664,36.1032,青岛市,四方区子站,,44,44,50,24,36,92,,94,90,20,20,5,3,0.6,0.7
2025-03-11T1000,1312A,120.2994,36.054,青岛市,市南区西部子站,,31,31,47,20,30,74,,83,79,28,24,6,6,0.6,0.7
2025-03-11T1000,1313A,120.4581,36.0858,青岛市,崂山区子站,,,29,46,17,28,72,,98,93,,15,,8,,0.5
