timepoint,stationcode,longitude,latitude,area,positionname,primarypollutant,aqi,pm10,pm10_24h,pm2_5,pm2_5_24h,o3,o3_24h,o3_8h,o3_8h_24h,no2,no2_24h,so2,so2_24h,co,co_24h
2025-03-11T1500,2566A,102.1879,31.914,阿坝藏族羌族自治州,州农科所,,29,16,61,3,9,91,,71,71,7,10,9,9,0,0
2025-03-11T1500,2568A,102.2502,31.8896,阿坝藏族羌族自治州,马师校,,30,18,20,14,16,96,,67,67,5,18,4,4,0.4,0.5
2025-03-11T1500,3994A,102.2165,31.9024,阿坝藏族羌族自治州,马尔康中学西区,,32,6,13,3,7,100,,72,72,6,11,5,5,0.3,0.3
2025-03-11T1500,2695A,80.292,41.1694,阿克苏地区,电视台,颗粒物(PM10),500,1114,278,204,53,95,,74,74,2,12,8,6,0.3,0.5
2025-03-11T1500,2696A,80.2613,41.1551,阿克苏地区,艺术中心,颗粒物(PM10),500,1201,297,190,58,91,,72,72,7,29,5,5,0.3,0.7
2025-03-11T1500,2204A,105.6467,38.8363,阿拉善盟,西城区西花园,颗粒物(PM10),99,148,796,37,83,103,,102,102,7,12,10,13,0.6,0.7
2025-03-11T1500,2205A,105.6985,38.8411,阿拉善盟,蒙二幼,颗粒物(PM10),116,181,480,41,96,97,,97,97,8,9,5,6,0.6,0.6
2025-03-11T1500,2206A,105.724,38.8516,阿拉善盟,环保局新楼,颗粒物(PM10),119,188,536,41,109,96,,100,99,3,5,8,8,0.8,0.8
2025-03-11T1500,2708A,88.1264,47.8517,阿勒泰地区,市站,,24,7,9,7,6,76,,76,72,6,9,3,2,0.4,0.4
2025-03-11T1500,2630A,80.1161,32.5,阿里地区,阿里监测站,,30,7,8,3,4,96,,82,81,1,4,5,7,0.4,0.5
2025-03-11T1500,3192A,80.0903,32.5028,阿里地区,阿里藏医院,,30,6,13,3,5,95,,86,85,2,2,6,7,0.3,0.3
2025-03-11T1500,2642A,109.0318,32.6537,安康市,香溪洞,,36,36,26,23,20,81,,46,46,6,9,7,9,0.4,0.4
2025-03-11T1500,2644A,109.0072,32.6975,安康市,汉滨区检察院,,38,38,31,24,21,85,,46,46,12,19,7,9,0.5,0.4
2025-03-11T1500,4054A,109.0325,32.6913,安康市,市邮政管理局,,,38,35,18,22,,,40,40,,20,6,14,0.4,0.6
2025-03-11T1500,2291A,117.0809,30.5177,安庆市,环科院,,50,45,43,35,40,42,,28,28,28,33,7,7,0.8,0.7
2025-03-11T1500,2292A,117.0331,30.5119,安庆市,马山宾馆,,42,42,39,29,38,30,,24,24,37,30,4,4,0.7,0.6
2025-03-11T1500,2294A,116.9896,30.6145,安庆市,安庆大学,,35,35,46,20,33,63,,49,49,11,16,8,9,0.6,0.4
2025-03-11T1500,3173A,117.0598,30.5351,安庆市,市人大,,49,42,40,34,44,45,,33,33,22,24,10,9,0.7,0.7
2025-03-11T1500,3122A,105.9606,26.2611,安顺市,伍家关,,46,33,31,32,28,90,,67,67,8,10,9,10,0.7,0.7
2025-03-11T1500,3123A,105.9408,26.2431,安顺市,凤凰山,,40,31,31,28,28,96,,69,69,8,13,15,19,0.7,0.8
2025-03-11T1500,3124A,105.9439,26.2564,安顺市,金钟山,,36,28,27,25,25,98,,71,71,7,10,11,16,0.6,0.6
2025-03-11T1500,3125A,105.8983,26.2481,安顺市,娄家坡,,42,29,31,29,25,98,,74,74,5,10,6,7,0.7,0.7
2025-03-11T1500,1818A,114.4839,36.0621,安阳市,棉研所,,,,,,,,,,,,,,,,
2025-03-11T1500,1819A,114.3551,36.1017,安阳市,红庙街,细颗粒物(PM2.5),99,90,89,74,73,86,,63,63,16,20,7,6,0.6,0.4
2025-03-11T1500,1820A,114.361,36.0681,安阳市,银杏小区,细颗粒物(PM2.5),110,,80,83,79,90,,62,62,15,21,4,2,0.6,0.6
2025-03-11T1500,3141A,114.3922,36.0878,安阳市,信访局,细颗粒物(PM2.5),107,,90,80,80,95,,66,66,17,21,3,2,0.6,0.6
2025-03-11T1500,3669A,114.4705,36.0637,安阳市,左辅环卫站,细颗粒物(PM2.5),110,113,117,83,83,102,,76,76,23,24,7,3,0.5,0.6
2025-03-11T1500,3703A,114.2917,36.0949,安阳市,安钢职工学校,细颗粒物(PM2.5),117,,84,88,79,86,,63,63,20,23,4,5,0.7,0.6
2025-03-11T1500,1748A,123.044,41.1196,鞍山市,深沟寺,细颗粒物(PM2.5),67,56,60,48,49,113,,108,108,11,11,8,8,0.6,0.8
2025-03-11T1500,1749A,123.011,41.0931,鞍山市,太阳城,细颗粒物(PM2.5),62,60,65,44,47,119,,114,114,10,12,5,5,0.8,0.8
2025-03-11T1500,1750A,123.0485,41.1442,鞍山市,太平,细颗粒物(PM2.5),59,61,66,42,45,115,,109,109,13,13,8,7,0.7,0.7
2025-03-11T1500,1751A,122.9642,41.0971,鞍山市,铁西三道街,细颗粒物(PM2.5),69,79,80,50,55,101,,100,100,36,33,10,45,0.9,0.7
2025-03-11T1500,1753A,123.022,41.0821,鞍山市,明达新区,,,54,56,43,46,114,,112,112,,13,5,6,0.6,0.6
2025-03-11T1500,1754A,123.1289,41.0228,鞍山市,千山,,,,66,,39,,,109,,,9,,5,,0.6
2025-03-11T1500,4201A,122.9446,41.0826,鞍山市,兴盛南路290号,细颗粒物(PM2.5),67,80,82,48,48,108,,105,105,20,23,12,10,0.8,0.8
2025-03-11T1500,2195A,107.4212,40.761,巴彦淖尔市,附二中,颗粒物(PM10),116,181,622,29,104,95,,88,88,5,24,6,11,0.5,0.7
2025-03-11T1500,2196A,107.37,40.7372,巴彦淖尔市,市环保大楼,颗粒物(PM10),116,181,576,28,106,99,,91,91,3,23,4,8,0.2,0.3
2025-03-11T1500,1956A,86.1472,41.7538,巴音郭楞蒙古自治州,孔雀公园,颗粒物(PM10),365,472,562,80,91,97,,77,74,2,12,4,4,0.3,0.3
2025-03-11T1500,1957A,86.1972,41.7166,巴音郭楞蒙古自治州,棉纺厂,颗粒物(PM10),252,386,582,64,81,100,,77,75,9,15,2,2,0.3,0.3
2025-03-11T1500,1958A,86.2357,41.7173,巴音郭楞蒙古自治州,经济开发区,颗粒物(PM10),235,374,557,55,79,107,,72,67,9,11,4,4,0.3,0.2
2025-03-11T1500,2914A,106.7677,31.8794,巴中市,苏山坪,,27,18,32,12,24,84,,70,67,9,11,4,4,0.3,0.3
2025-03-11T1500,3181A,106.7768,31.8526,巴中市,市五中,,28,27,43,19,30,87,,33,33,10,26,4,4,0.5,0.6
2025-03-11T1500,3183A,106.7418,31.8654,巴中市,圣泉水务公司,,28,21,40,16,31,88,,42,42,9,26,7,7,0.6,0.6
2025-03-11T1500,3616A,106.7616,31.8344,巴中市,市中心医院,,36,27,43,25,38,91,,34,34,9,30,6,6,0.4,0.6
2025-03-11T1500,2235A,122.7911,45.6077,白城市,洮北区环保局,细颗粒物(PM2.5),139,128,128,106,71,92,,94,94,16,21,,8,0.7,0.9
2025-03-11T1500,2236A,122.8738,45.5725,白城市,市环保局,细颗粒物(PM2.5),135,132,151,103,80,98,,85,85,12,31,9,10,0.9,0.7
2025-03-11T1500,2231A,126.4219,41.9171,白山市,喜丰,,44,44,64,24,36,116,,91,91,8,18,8,8,0.8,0.9
2025-03-11T1500,2232A,126.4077,41.9419,白山市,环保局,,42,42,66,27,44,119,,93,93,6,15,6,6,0.9,1
2025-03-11T1500,2647A,104.1724,36.5446,白银市,第三小学,颗粒物(PM10),156,262,243,47,51,96,,89,89,5,15,7,36,0.6,0.8
2025-03-11T1500,2648A,104.1465,36.5482,白银市,动力公司,颗粒物(PM10),165,279,393,72,79,96,,89,89,6,11,3,12,0.5,0.6
2025-03-11T1500,2512A,106.6103,23.9011,百色市,市监测站,,42,42,66,18,47,110,,54,54,11,25,14,16,0.9,1.3
2025-03-11T1500,2513A,106.6538,23.8859,百色市,市中心血站,,43,43,67,21,57,102,,53,53,9,25,12,17,0.8,1.2
2025-03-11T1500,3406A,106.6085,23.8798,百色市,祈福高中,,50,50,72,15,52,105,,49,49,11,30,11,12,0.8,1.2
2025-03-11T1500,2270A,117.396,32.939,蚌埠市,工人疗养院,细颗粒物(PM2.5),89,89,106,66,73,138,,78,78,19,36,5,6,0.7,0.6
2025-03-11T1500,2271A,117.3605,32.9427,蚌埠市,百货大楼,细颗粒物(PM2.5),88,96,104,65,70,126,,70,70,22,42,6,6,0.5,0.5
2025-03-11T1500,2273A,117.4185,32.8911,蚌埠市,蚌埠学院,细颗粒物(PM2.5),92,,87,68,71,135,,74,74,13,28,5,4,0.7,0.6
2025-03-11T1500,2274A,117.3533,32.9673,蚌埠市,淮上区政府,细颗粒物(PM2.5),104,85,100,78,77,133,,73,73,17,34,6,6,0.8,0.8
2025-03-11T1500,2275A,117.3145,32.8977,蚌埠市,高新区,细颗粒物(PM2.5),97,80,90,72,75,120,,74,74,24,30,6,6,0.6,0.6
2025-03-11T1500,3715A,117.3092,32.9314,蚌埠市,蚌埠田家炳中学,细颗粒物(PM2.5),90,95,102,67,74,132,,82,82,25,35,6,7,0.7,0.7
2025-03-11T1500,1585A,109.8756,40.6532,包头市,市环境监测站,颗粒物(PM10),252,386,311,61,75,95,,88,88,7,47,8,15,0.3,0.9
2025-03-11T1500,1587A,109.9991,40.5842,包头市,包头八中,颗粒物(PM10),374,479,317,103,91,92,,84,84,10,46,10,22,0.4,1
2025-03-11T1500,1588A,109.8538,40.6821,包头市,青山宾馆,颗粒物(PM10),215,360,308,66,89,92,,84,84,5,43,6,12,0.4,0.9
2025-03-11T1500,1589A,109.8642,40.6288,包头市,惠龙物流,颗粒物(PM10),232,372,303,49,60,95,,89,89,10,45,7,14,0.4,0.9
2025-03-11T1500,1590A,110.0377,40.5546,包头市,东河鸿龙湾,颗粒物(PM10),500,732,350,88,72,96,,78,78,6,45,5,13,0.4,0.9
2025-03-11T1500,3283A,109.9154,40.5685,包头市,滨河大厦,颗粒物(PM10),500,625,320,100,86,95,,85,85,5,44,8,15,0.6,1
2025-03-11T1500,3419A,109.9447,40.6261,包头市,包头市委党校,颗粒物(PM10),209,356,285,63,71,93,,86,86,7,45,7,15,0.5,1
2025-03-11T1500,3683A,109.8331,40.6576,包头市,昆区政府,颗粒物(PM10),188,325,300,53,80,92,,86,86,8,45,8,16,0.4,1.1
2025-03-11T1500,1930A,107.185,34.3063,宝鸡市,庙沟村,颗粒物(PM10),500,801,176,154,47,91,,83,83,5,11,6,6,0.2,0.4
2025-03-11T1500,1931A,107.0708,34.3017,宝鸡市,竹园沟,颗粒物(PM10),500,885,176,156,43,93,,79,79,11,17,6,6,0.3,0.5
2025-03-11T1500,1932A,107.1906,34.3672,宝鸡市,三陆医院,颗粒物(PM10),500,856,195,162,63,88,,50,50,6,44,4,6,0.2,0.6
2025-03-11T1500,1933A,107.1431,34.3547,宝鸡市,监测站,颗粒物(PM10),500,882,191,155,56,86,,58,58,8,29,7,8,0.3,0.6
2025-03-11T1500,1934A,107.1186,34.3739,宝鸡市,技工学校,颗粒物(PM10),500,831,178,174,55,87,,70,70,10,26,4,7,0.3,0.6
2025-03-11T1500,1935A,107.3906,34.3528,宝鸡市,陈仓区环保局家属楼,颗粒物(PM10),500,848,218,115,70,80,,52,52,18,46,6,8,0.2,0.5
2025-03-11T1500,1936A,107.2058,34.3497,宝鸡市,文理学院,颗粒物(PM10),500,852,196,140,54,87,,59,59,17,31,5,6,0.1,0.4
2025-03-11T1500,1937A,107.2386,34.3622,宝鸡市,三迪小学,颗粒物(PM10),500,865,206,146,61,84,,56,56,11,38,5,6,0.4,0.7
2025-03-11T1500,1051A,115.493,38.8632,保定市,游泳馆,细颗粒物(PM2.5),188,183,145,141,112,96,,78,78,28,30,12,11,0.6,0.5
2025-03-11T1500,1052A,115.5213,38.8959,保定市,华电二区,细颗粒物(PM2.5),162,145,130,123,120,100,,83,83,23,26,8,10,1.3,1.1
2025-03-11T1500,1053A,115.4713,38.9108,保定市,接待中心,细颗粒物(PM2.5),198,170,152,148,126,96,,79,79,30,29,8,9,1.1,1
2025-03-11T1500,1054A,115.4612,38.8416,保定市,地表水厂,细颗粒物(PM2.5),180,187,160,136,113,97,,75,75,28,32,7,7,0.9,0.8
2025-03-11T1500,3581A,115.31981,38.95208,保定市,满城区生态环境分局,细颗粒物(PM2.5),175,180,166,132,127,105,,80,80,23,33,14,14,0.8,0.9
2025-03-11T1500,3582A,115.47694,38.76408,保定市,清苑区第二中学,细颗粒物(PM2.5),147,159,148,112,103,93,,68,68,29,32,10,10,0.8,0.6
2025-03-11T1500,3583A,115.62909,39.02311,保定市,徐水物探局,细颗粒物(PM2.5),185,156,149,139,123,99,,73,73,28,34,12,12,0.5,0.6
2025-03-11T1500,4004A,115.4202,38.8656,保定市,双鹰农机,细颗粒物(PM2.5),135,143,136,103,109,94,,71,71,34,36,1,3,0.9,0.9
2025-03-11T1500,4034A,115.5150,38.8590,保定市,植保所站,细颗粒物(PM2.5),170,148,137,129,116,92,,71,71,34,37,5,6,0.9,0.8
2025-03-11T1500,2594A,99.1678,25.1081,保山市,市环境监测站,颗粒物(PM10),53,55,53,32,37,140,,114,114,8,11,4,4,0.4,0.5
2025-03-11T1500,2595A,99.1711,25.1328,保山市,市环保局,颗粒物(PM10),54,57,60,29,38,145,,109,109,6,9,7,6,0.6,0.6
2025-03-11T1500,1866A,109.2262,21.588,北海市,牛尾岭水库,,,25,36,12,20,68,,66,59,,,5,6,0.5,0.6
2025-03-11T1500,1867A,109.1436,21.4086,北海市,海滩公园,,36,36,43,22,19,114,,94,93,6,8,6,6,0.8,0.7
2025-03-11T1500,1868A,109.0981,21.4661,北海市,新市环保局,,28,28,40,14,24,80,,88,77,9,12,3,4,0.4,0.5
2025-03-11T1500,1869A,109.1778,21.5233,北海市,北海工业园,,45,45,50,20,25,81,,87,76,5,11,7,7,0.4,0.6
2025-03-11T1500,3400A,109.1911,21.4415,北海市,龙潭自来水厂,,40,31,41,28,27,100,,88,87,7,8,7,7,0.4,0.4
2025-03-11T1500,1001A,116.3621,39.8784,北京市,万寿西宫,细颗粒物(PM2.5),222,226,192,172,144,72,,53,53,54,49,4,4,1.4,1.3
2025-03-11T1500,1002A,116.2202,40.2915,北京市,定陵,,,,,,,,,,,,,,,,
2025-03-11T1500,1003A,116.4174,39.9289,北京市,东四,细颗粒物(PM2.5),233,230,190,183,153,68,,52,52,59,52,7,8,1.2,1.1
2025-03-11T1500,1004A,116.4072,39.8863,北京市,天坛,细颗粒物(PM2.5),224,235,185,174,142,60,,42,42,59,45,5,4,1.4,1.3
2025-03-11T1500,1005A,116.462,39.9365,北京市,农展馆,细颗粒物(PM2.5),220,225,187,170,139,73,,45,45,53,58,7,7,1.3,1.2
2025-03-11T1500,1006A,116.3392,39.9295,北京市,官园,细颗粒物(PM2.5),229,232,193,179,149,66,,47,47,40,42,8,8,1.2,1.2
2025-03-11T1500,1007A,116.2878,39.9611,北京市,海淀万柳,细颗粒物(PM2.5),229,228,187,179,145,58,,37,37,51,52,4,4,1.2,1.2
2025-03-11T1500,1008A,116.6636,40.135,北京市,顺义新城,细颗粒物(PM2.5),206,211,184,156,134,65,,58,55,50,38,5,6,0.8,0.8
2025-03-11T1500,1009A,116.6275,40.3275,北京市,怀柔镇,细颗粒物(PM2.5),199,184,165,149,130,70,,65,65,33,27,3,3,1.0,0.9
2025-03-11T1500,1010A,116.2296,40.217,北京市,昌平镇,细颗粒物(PM2.5),213,234,199,163,137,62,,54,54,37,39,3,2,1.1,1.1
2025-03-11T1500,1011A,116.3966,39.9821,北京市,奥体中心,细颗粒物(PM2.5),233,235,193,183,146,69,,48,48,51,54,5,5,1.3,1.2
2025-03-11T1500,3281A,115.9718,40.4529,北京市,延庆夏都,细颗粒物(PM2.5),162,159,166,123,129,91,,71,71,20,23,8,6,0.9,0.9
2025-03-11T1500,3418A,116.8336,40.4095,北京市,密云新城,细颗粒物(PM2.5),199,188,167,149,128,70,,67,67,32,27,5,5,0.9,0.9
2025-03-11T1500,3671A,116.088,39.9726,北京市,门头沟三家店,细颗粒物(PM2.5),227,218,186,177,144,76,,61,61,34,36,5,4,0.9,0.8
2025-03-11T1500,3672A,116.1541,39.8204,北京市,丰台云岗,细颗粒物(PM2.5),223,225,198,173,148,74,,60,60,44,40,7,6,1.1,1
2025-03-11T1500,3673A,116.6804,39.9081,北京市,通州东关,细颗粒物(PM2.5),203,199,179,153,135,72,,58,58,57,57,7,7,0.8,0.8
2025-03-11T1500,3674A,115.9577,39.7603,北京市,房山燕山,细颗粒物(PM2.5),232,215,175,182,146,76,,58,58,38,27,1,2,1.0,0.8
2025-03-11T1500,3675A,116.4672,39.7733,北京市,大兴旧宫,细颗粒物(PM2.5),182,190,176,137,128,65,,47,47,43,40,2,2,1.0,0.9
2025-03-11T1500,3694A,115.986,40.4563,北京市,延庆石河营,细颗粒物(PM2.5),158,157,165,120,127,89,,66,66,20,24,6,4,0.9,1
2025-03-11T1500,3695A,116.6151,40.3053,北京市,怀柔新城,细颗粒物(PM2.5),204,184,165,154,134,74,,74,67,28,22,5,4,1.0,1
2025-03-11T1500,3696A,116.2545,39.8768,北京市,丰台小屯,细颗粒物(PM2.5),218,220,195,168,144,66,,45,45,45,52,3,2,1.0,1
2025-03-11T1500,3697A,116.84,40.3844,北京市,密云镇,细颗粒物(PM2.5),192,195,170,144,123,71,,57,57,33,39,6,6,0.9,0.9
2025-03-11T1500,4182A,116.1942,39.9158,北京市,八角北路9号,细颗粒物(PM2.5),223,226,194,173,143,75,,59,59,39,49,2,2,0.9,0.9
2025-03-11T1500,4194A,117.0790,40.1518,北京市,洳河巡河路,细颗粒物(PM2.5),186,169,155,140,127,99,,87,83,22,22,4,5,0.7,0.8
2025-03-11T1500,1761A,123.8275,41.3064,本溪市,大峪,细颗粒物(PM2.5),64,59,57,46,54,120,,115,115,9,11,11,10,0.8,0.7
2025-03-11T1500,1762A,123.7567,41.3325,本溪市,溪湖,细颗粒物(PM2.5),55,57,66,39,43,100,,106,105,17,18,11,11,1.0,0.8
2025-03-11T1500,1763A,123.7169,41.3094,本溪市,彩屯,细颗粒物(PM2.5),60,64,89,43,58,85,,92,92,24,29,16,22,1.8,2.6
2025-03-11T1500,1764A,123.7669,41.2864,本溪市,东明,,44,44,48,30,40,96,,109,101,14,12,6,6,0.7,0.7
2025-03-11T1500,1765A,123.7992,41.2664,本溪市,新立屯,细颗粒物(PM2.5),57,45,41,40,45,118,,126,121,13,13,5,5,0.7,0.6
2025-03-11T1500,1766A,123.8142,41.3472,本溪市,威宁,细颗粒物(PM2.5),59,55,61,42,43,114,,109,109,7,18,6,4,0.6,0.6
2025-03-11T1500,2587A,105.2864,27.3125,毕节市,八中,,35,28,58,24,48,53,,45,45,10,16,8,8,0.7,0.8
2025-03-11T1500,2588A,105.31,27.2944,毕节市,师专,,29,26,65,20,49,58,,46,46,8,17,6,7,0.8,0.9
2025-03-11T1500,4263A,105.3688,27.3598,毕节市,工业大道,,35,30,49,24,40,74,,43,43,10,14,7,9,0.6,0.7
2025-03-11T1500,1629A,118.0018,37.3617,滨州市,第二水厂,,,112,119,63,75,147,,94,94,9,24,13,11,,0.4
2025-03-11T1500,1630A,117.9776,37.393,滨州市,北中新校,颗粒物(PM10),80,110,120,58,73,151,,111,111,21,32,13,12,0.6,0.7
2025-03-11T1500,3514A,117.9378,37.3956,滨州市,中海酒店,细颗粒物(PM2.5),92,105,108,68,79,153,,119,119,14,24,13,12,0.6,0.6
2025-03-11T1500,3515A,117.9378,37.3553,滨州市,开发区一中,细颗粒物(PM2.5),89,110,118,66,71,140,,101,101,20,35,14,13,0.6,0.6
2025-03-11T1500,3516A,118.0917,37.694,滨州市,金海六路,细颗粒物(PM2.5),77,90,123,56,80,135,,97,97,16,38,12,14,0.7,0.9
2025-03-11T1500,4028A,117.9956,37.3753,滨州市,滨州市西街道办事处,细颗粒物(PM2.5),94,112,119,70,85,158,,110,110,10,24,12,10,0.8,0.8
2025-03-11T1500,2311A,115.8072,33.8399,亳州市,污水处理厂,颗粒物(PM10),59,67,104,40,62,133,,88,88,14,27,4,6,0.6,0.6
2025-03-11T1500,2312A,115.7789,33.8518,亳州市,三国揽胜宫,颗粒物(PM10),67,84,120,46,61,122,,84,84,9,20,4,10,0.4,0.5
2025-03-11T1500,3332A,115.7633,33.8034,亳州市,亳州学院,细颗粒物(PM2.5),70,75,107,51,68,129,,93,93,16,23,4,5,0.6,0.5
2025-03-11T1500,2693A,82.0485,44.8556,博尔塔拉蒙古自治州,市党校,,47,47,29,16,12,74,,57,57,12,11,6,5,1.3,1.3
2025-03-11T1500,2694A,82.0806,44.8969,博尔塔拉蒙古自治州,市环保局,,33,30,29,11,12,104,,72,72,10,14,4,4,0.3,0.4
2025-03-11T1500,1071A,116.8842,38.2991,沧州市,沧县城建局,细颗粒物(PM2.5),113,87,114,85,86,124,,104,104,10,17,5,5,0.5,0.7
2025-03-11T1500,1072A,116.8584,38.3254,沧州市,电视转播站,细颗粒物(PM2.5),104,100,108,78,84,122,,106,106,12,17,9,7,0.5,0.5
2025-03-11T1500,1073A,116.8709,38.3228,沧州市,市环保局,细颗粒物(PM2.5),94,109,104,70,84,118,,98,98,11,17,7,7,0.5,0.6
2025-03-11T1500,3324A,116.8136,38.3004,沧州市,河北水利电力学院,细颗粒物(PM2.5),99,97,114,74,79,117,,99,99,12,19,10,10,0.4,0.5
2025-03-11T1500,2622A,97.1806,31.1273,昌都市,昌都监测站,,,17,18,8,12,,,50,50,3,14,6,6,0.5,0.7
2025-03-11T1500,3719A,97.1714,31.1406,昌都市,昌都会议中心,,35,10,12,10,12,109,,88,88,1,4,2,2,0.3,0.4
2025-03-11T1500,2690A,88.1236,43.8886,昌吉回族自治州,天山天池,,29,6,3,3,1,92,,85,85,3,2,6,5,0.3,0.3
2025-03-11T1500,2692A,87.2717,44.0297,昌吉回族自治州,新区政务中心,,24,23,29,3,5,76,,51,51,8,26,9,6,0.5,0.5
2025-03-11T1500,3613A,87.3095,44.0142,昌吉回族自治州,亚心广场,,31,31,32,17,9,65,,48,48,19,34,10,6,0.5,0.5
2025-03-11T1500,1119A,125.3325,43.9166,长春市,食品厂,细颗粒物(PM2.5),87,87,109,64,66,145,,112,112,16,23,9,9,0.6,0.6
2025-03-11T1500,1120A,125.2863,43.9027,长春市,客车厂,细颗粒物(PM2.5),95,80,109,71,77,137,,107,107,19,23,8,10,0.7,0.7
2025-03-11T1500,1121A,125.2841,43.8463,长春市,邮电学院,细颗粒物(PM2.5),77,89,110,56,68,151,,116,116,16,23,9,9,0.8,0.8
2025-03-11T1500,1122A,125.3716,43.8772,长春市,劳动公园,细颗粒物(PM2.5),77,75,96,56,61,148,,114,114,16,23,9,10,0.9,0.9
2025-03-11T1500,1123A,125.3297,43.8805,长春市,园林处,细颗粒物(PM2.5),87,75,102,64,69,149,,114,114,12,18,9,9,0.7,0.7
2025-03-11T1500,1124A,125.4605,43.79,长春市,净月潭,细颗粒物(PM2.5),73,64,79,53,55,142,,115,115,10,12,8,8,0.6,0.6
2025-03-11T1500,1125A,125.7194,43.515,长春市,甩湾子,,,,,,,,,,,,,,,,
2025-03-11T1500,1126A,125.3863,43.8447,长春市,经开区环卫处,细颗粒物(PM2.5),75,63,94,55,60,135,,108,108,12,15,8,7,0.6,0.6
2025-03-11T1500,1127A,125.245,43.7783,长春市,高新区管委会,,,,91,,65,142,,110,110,13,21,9,9,0.6,0.6
2025-03-11T1500,1128A,125.1761,43.8325,长春市,岱山公园,细颗粒物(PM2.5),84,72,95,62,70,148,,116,116,22,25,8,7,0.5,0.5
2025-03-11T1500,1335A,113.0833,28.2325,长沙市,经开区环保局,,42,42,35,28,26,18,,12,12,38,32,6,4,0.9,0.8
2025-03-11T1500,1336A,112.8872,28.2189,长沙市,高开区环保局,细颗粒物(PM2.5),59,48,36,42,31,26,,16,16,31,26,6,4,1.1,0.9
2025-03-11T1500,1337A,113.0792,28.2053,长沙市,马坡岭,,36,36,36,24,24,36,,19,19,18,22,5,4,0.7,0.8
2025-03-11T1500,1338A,112.9394,28.19,长沙市,湖南师范大学,颗粒物(PM10),56,61,44,38,29,19,,11,11,31,28,3,3,1.3,1
2025-03-11T1500,1339A,113.0178,28.1322,长沙市,雨花区环保局,,45,45,38,27,28,18,,6,6,23,28,7,5,0.9,0.8
2025-03-11T1500,1340A,112.9792,28.2597,长沙市,伍家岭,颗粒物(PM10),51,51,46,27,27,19,,11,11,26,29,4,3,0.8,0.8
2025-03-11T1500,1341A,113.0014,28.1944,长沙市,火车新站,,50,50,40,29,32,24,,12,12,24,34,7,5,1.2,1.2
2025-03-11T1500,1342A,112.9844,28.1178,长沙市,天心区环保局,,45,45,37,27,26,23,,11,11,33,38,3,2,1.3,1.3
2025-03-11T1500,1343A,112.8908,28.1308,长沙市,湖南中医药大学,,49,49,40,30,29,21,,11,11,28,29,5,3,0.9,0.8
2025-03-11T1500,1344A,112.9581,28.3611,长沙市,沙坪,,32,26,33,22,24,30,,16,16,20,25,6,5,1.1,1.1
2025-03-11T1500,1727A,113.1147,36.1547,长治市,清华站,细颗粒物(PM2.5),77,77,76,56,50,120,,58,58,23,29,15,11,1.3,1
2025-03-11T1500,1730A,113.0886,36.2125,长治市,审计局,细颗粒物(PM2.5),92,84,76,68,60,135,,67,67,24,30,13,9,1.0,0.8
2025-03-11T1500,1731A,113.0844,36.1856,长治市,长治八中,,,126,99,73,64,132,,69,69,20,24,,9,0.7,0.6
2025-03-11T1500,2845A,113.1569,36.1911,长治市,德盛苑,细颗粒物(PM2.5),92,81,76,68,51,126,,88,68,24,22,12,6,1.2,0.9
2025-03-11T1500,3568A,113.06,36.0464,长治市,向阳小学,细颗粒物(PM2.5),78,98,98,57,60,114,,70,63,15,18,12,10,0.8,0.7
2025-03-11T1500,3569A,112.8792,36.3144,长治市,屯留一中,颗粒物(PM10),76,102,79,49,54,109,,63,63,23,37,15,11,0.5,0.5
2025-03-11T1500,4189A,113.1131,36.19948,长治市,英华南巷50号,细颗粒物(PM2.5),89,83,80,66,55,138,,69,69,23,26,16,10,1.1,0.8
2025-03-11T1500,4190A,113.2367,36.3344,长治市,学府街1号,颗粒物(PM10),92,133,117,62,70,122,,67,67,21,45,21,9,1.0,1.2
2025-03-11T1500,1854A,111.6975,28.9703,常德市,市二中,细颗粒物(PM2.5),55,44,39,39,30,43,,23,23,7,16,4,7,0.7,0.7
2025-03-11T1500,1857A,111.7158,29.1456,常德市,白鹤山,,,,,,,,,,,,,,,,
2025-03-11T1500,3138A,111.7153,29.0289,常德市,武陵区永安,细颗粒物(PM2.5),52,,39,36,27,37,,20,20,6,12,3,5,0.7,0.7
2025-03-11T1500,3139A,111.6892,28.9881,常德市,鼎城区玉霞,,50,48,40,35,25,40,,23,23,11,19,3,6,0.7,0.7
2025-03-11T1500,3140A,111.6625,29.0531,常德市,武陵区长庚,细颗粒物(PM2.5),60,57,46,43,28,30,,16,16,5,13,4,6,0.8,0.7
2025-03-11T1500,1196A,119.9633,31.762,常州市,市监测站,颗粒物(PM10),59,67,106,40,63,137,,76,76,24,53,10,10,0.8,0.7
2025-03-11T1500,1200A,119.9468,31.7069,常州市,武进监测站,细颗粒物(PM2.5),63,67,87,45,56,141,,82,82,21,50,3,4,0.7,0.8
2025-03-11T1500,1201A,119.9255,31.9087,常州市,安家,细颗粒物(PM2.5),100,105,95,75,59,119,,63,63,41,57,9,8,0.9,0.8
2025-03-11T1500,3002A,119.9805,31.8174,常州市,行政中心,细颗粒物(PM2.5),95,92,94,71,65,122,,68,68,39,55,16,12,0.6,0.6
2025-03-11T1500,3003A,120.0522,31.7748,常州市,经开区,细颗粒物(PM2.5),83,93,93,61,59,117,,70,70,43,56,9,9,0.6,0.6
2025-03-11T1500,3010A,119.9025,31.7964,常州市,钟楼,,,75,94,48,66,148,,79,79,18,49,,8,0.6,0.7
2025-03-11T1500,3429A,119.8598,31.7066,常州市,武进经发区,细颗粒物(PM2.5),67,63,85,48,58,150,,87,87,25,57,10,9,0.9,1
2025-03-11T1500,3430A,119.5826,31.7245,常州市,金坛城区,,49,49,94,27,56,136,,84,84,11,40,7,8,0.6,0.8
2025-03-11T1500,2220A,120.4318,41.5881,朝阳市,西梁,颗粒物(PM10),131,211,127,66,95,125,,116,116,15,24,10,12,1.0,1.1
2025-03-11T1500,2221A,120.4521,41.5646,朝阳市,河畔小区,颗粒物(PM10),104,158,102,64,92,130,,121,121,14,22,7,10,0.9,1.1
2025-03-11T1500,2222A,120.4176,41.5648,朝阳市,八里堡,颗粒物(PM10),111,171,96,62,89,116,,106,106,17,21,13,12,1.0,1
2025-03-11T1500,2223A,120.3806,41.5969,朝阳市,农业园区,颗粒物(PM10),115,180,106,81,107,132,,115,115,15,26,8,11,1.0,1.2
2025-03-11T1500,1705A,116.6367,23.6719,潮州市,西园路,,40,40,59,23,48,128,,81,81,11,23,6,8,0.3,0.4
2025-03-11T1500,3026A,116.6183,23.6608,潮州市,市政府,颗粒物(PM10),54,57,58,26,41,130,,78,78,27,33,6,10,0.4,0.6
2025-03-11T1500,4036A,116.6461,23.6761,潮州市,金山,,47,47,54,17,47,121,,82,82,11,24,6,9,0.5,0.7
2025-03-11T1500,2472A,113.0073,25.9061,郴州市,马头岭,,38,38,51,13,22,90,,54,54,17,27,8,13,0.6,0.8
2025-03-11T1500,2473A,113.0116,25.8226,郴州市,市职中,,30,29,47,19,36,93,,53,53,10,24,7,10,0.6,0.9
2025-03-11T1500,2475A,113.0383,25.8071,郴州市,市审计局,,31,,49,20,41,99,,58,58,9,24,3,15,0.3,0.7
2025-03-11T1500,2476A,113.0348,25.7759,郴州市,市环保局,,39,39,61,17,41,93,,53,53,9,26,7,14,0.4,0.8
2025-03-11T1500,4252A,113.0138,25.8011,郴州市,好美居路49号,,35,34,55,24,41,96,,55,55,10,24,7,15,0.5,0.8
2025-03-11T1500,1431A,103.9728,30.7236,成都市,金泉两河,颗粒物(PM10),62,73,93,29,56,89,,48,48,10,28,3,3,0.6,0.7
2025-03-11T1500,1432A,104.176,30.6872,成都市,十里店,,46,46,75,25,55,92,,50,50,22,43,3,3,0.6,0.7
2025-03-11T1500,1433A,104.079,30.5706,成都市,三瓦窑,,50,50,78,18,50,93,,55,55,18,35,4,4,0.7,0.8
2025-03-11T1500,1434A,104.1114,30.63,成都市,沙河铺,,49,46,82,34,63,87,,49,49,20,35,6,5,0.8,0.8
2025-03-11T1500,1437A,104.0786,30.6531,成都市,君平街,细颗粒物(PM2.5),67,53,81,48,63,90,,59,59,20,43,6,6,0.7,0.8
2025-03-11T1500,1438A,103.613,31.0283,成都市,灵岩寺,,,,,,,,,,,,,,,,
2025-03-11T1500,2880A,104.0239,30.65639,成都市,大石西路,细颗粒物(PM2.5),57,58,81,40,62,91,,56,56,20,40,6,5,0.9,1
2025-03-11T1500,3136A,104.2725,30.5589,成都市,龙泉驿区区政府,"颗粒物(PM10),细颗粒物(PM2.5)",52,53,65,36,50,83,,39,39,21,35,4,4,0.6,0.8
2025-03-11T1500,3357A,104.0106,30.6931,成都市,金博路,,50,50,75,30,50,85,,47,47,10,34,6,6,0.8,0.9
2025-03-11T1500,3359A,104.0578,30.5225,成都市,华阳,细颗粒物(PM2.5),62,63,70,44,52,88,,47,47,20,36,6,6,0.7,0.8
2025-03-11T1500,3488A,104.3853,30.7453,成都市,青白江技师分院,,40,36,69,28,56,94,,44,44,15,37,5,6,0.5,0.6
2025-03-11T1500,3489A,104.0789,30.4072,成都市,科学城,细颗粒物(PM2.5),54,48,67,38,53,95,,46,46,18,39,5,5,0.6,0.7
2025-03-11T1500,4011A,103.8506,30.6947,成都市,光华大道三段,,39,39,82,17,60,96,,51,51,15,36,4,4,0.7,0.8
2025-03-11T1500,4224A,104.2433,30.5353,成都市,鲸龙路1057号,细颗粒物(PM2.5),65,62,82,47,56,82,,38,38,25,42,4,4,0.8,0.9
2025-03-11T1500,1062A,117.9531,40.9081,承德市,铁路,细颗粒物(PM2.5),110,93,148,83,106,66,,57,57,35,38,9,8,1.0,0.9
2025-03-11T1500,1063A,117.9392,40.9763,承德市,中国银行,细颗粒物(PM2.5),103,95,140,77,102,73,,54,54,21,30,9,5,0.9,0.8
2025-03-11T1500,1064A,117.9503,40.928,承德市,开发区,细颗粒物(PM2.5),114,108,136,86,95,77,,66,66,32,37,14,8,1.1,1
2025-03-11T1500,1065A,117.8051,40.9655,承德市,文化中心,细颗粒物(PM2.5),82,96,158,60,106,84,,72,72,20,38,16,7,0.8,0.9
2025-03-11T1500,1066A,117.9268,41.0026,承德市,离宫,细颗粒物(PM2.5),127,106,147,96,112,43,,66,66,23,26,11,7,0.8,0.7
2025-03-11T1500,2314A,117.47,30.6618,池州市,池州学院,,33,31,39,23,30,54,,45,45,21,22,12,12,1.2,0.8
2025-03-11T1500,3237A,117.4918,30.6617,池州市,展览馆,,30,29,40,21,32,55,,45,45,16,19,12,14,1.1,0.8
2025-03-11T1500,3333A,117.5627,30.695,池州市,第八中学,,32,29,38,22,29,55,,45,45,18,20,10,12,0.9,0.7
2025-03-11T1500,3334A,117.5038,30.6243,池州市,第十二中学,,39,36,36,27,29,53,,40,40,16,22,12,15,0.9,0.8
2025-03-11T1500,1744A,118.9233,42.2816,赤峰市,松山一中,,,,110,,65,93,,119,110,17,26,8,11,,0.9
2025-03-11T1500,1745A,118.9576,42.2728,赤峰市,哈达街,颗粒物(PM10),74,98,108,34,59,90,,116,106,20,23,11,13,0.6,0.8
2025-03-11T1500,1746A,118.8788,42.2554,赤峰市,天义路,颗粒物(PM10),99,148,118,22,89,81,,101,96,17,22,7,8,0.4,0.6
2025-03-11T1500,3058A,119.2658,42.0353,赤峰市,银河街,颗粒物(PM10),87,123,137,49,89,87,,80,80,19,31,14,25,0.6,1
2025-03-11T1500,3286A,118.9359,42.3147,赤峰市,桥北物流园区,颗粒物(PM10),86,121,116,40,94,79,,97,91,13,25,6,10,0.6,1
2025-03-11T1500,2521A,107.3476,22.4136,崇左市,市环保局江州分局,颗粒物(PM10),53,55,109,28,69,80,,51,51,8,22,6,7,0.6,1
2025-03-11T1500,4256A,107.3750,22.3736,崇左市,石景林东路7号,,50,43,104,35,73,94,,51,51,14,28,6,8,0.6,0.9
2025-03-11T1500,2298A,118.3093,32.3153,滁州市,老年大学,细颗粒物(PM2.5),77,72,86,56,68,123,,62,62,28,36,13,8,1.1,0.8
2025-03-11T1500,2299A,118.3244,32.2786,滁州市,人大宾馆,细颗粒物(PM2.5),82,67,87,60,74,110,,60,60,41,48,18,10,1.3,0.8
2025-03-11T1500,3207A,118.3118,32.3038,滁州市,市政府原办公楼,,,,83,,67,119,,64,64,,44,,6,1.0,0.6
2025-03-11T1500,3331A,118.3267,32.2634,滁州市,图书馆,细颗粒物(PM2.5),65,77,93,47,60,111,,62,62,30,44,17,8,1.2,0.7
2025-03-11T1500,2605A,101.5482,25.0441,楚雄彝族自治州,州环境监测站,,41,40,45,27,33,131,,96,96,6,20,7,8,0.5,0.7
2025-03-11T1500,2606A,101.538,25.0492,楚雄彝族自治州,市经济开发区,,42,,46,29,33,128,,105,105,6,19,6,8,0.5,0.7
2025-03-11T1500,2548A,107.5277,31.2827,达州市,达州职业技术学院,,40,40,52,24,28,83,,40,40,7,28,6,8,0.2,0.3
2025-03-11T1500,2549A,107.5086,31.2186,达州市,市环境监测站,,47,47,50,24,26,57,,28,28,32,44,10,8,0.6,0.7
2025-03-11T1500,2550A,107.4988,31.2132,达州市,凤凰小区,,45,44,51,31,30,71,,32,32,19,41,11,10,0.4,0.6
2025-03-11T1500,2551A,107.5082,31.1986,达州市,达县机关宾馆,,46,46,49,30,32,72,,35,35,18,39,10,8,0.6,0.8
2025-03-11T1500,2552A,107.4644,31.2124,达州市,市政中心,颗粒物(PM10),51,52,60,29,30,65,,25,25,22,47,6,6,0.5,0.7
2025-03-11T1500,2614A,100.1542,25.7054,大理白族自治州,大理市环境监测站,,41,38,43,22,31,130,,123,121,6,7,7,7,0.5,0.6
2025-03-11T1500,2615A,100.2171,25.5811,大理白族自治州,大理古城,,36,20,37,8,28,113,,107,107,4,9,6,7,0.3,0.4
2025-03-11T1500,1109A,121.612,38.9741,大连市,甘井子,颗粒物(PM10),51,51,68,31,49,104,,89,89,29,32,6,6,0.6,0.6
2025-03-11T1500,1110A,121.565,38.9511,大连市,周水子,细颗粒物(PM2.5),55,55,72,39,58,93,,76,76,24,29,9,10,0.5,0.6
2025-03-11T1500,1111A,121.5637,38.8845,大连市,星海三站,,,44,67,34,54,90,,84,84,,15,8,7,0.6,0.8
2025-03-11T1500,1112A,121.6302,38.9117,大连市,青泥洼桥,,40,36,58,28,47,98,,87,87,16,14,6,7,0.4,0.3
2025-03-11T1500,1113A,121.6251,38.8638,大连市,傅家庄,,39,38,67,27,48,82,,84,82,26,20,7,6,0.6,0.6
2025-03-11T1500,1114A,121.5213,38.8661,大连市,七贤岭,,46,43,68,32,53,84,,75,75,20,21,8,8,0.4,0.5
2025-03-11T1500,1115A,121.2529,38.8061,大连市,旅顺,,50,42,63,35,50,90,,77,77,24,21,6,6,0.5,0.5
2025-03-11T1500,1116A,121.7485,39.1311,大连市,金州,,46,44,64,32,43,106,,98,98,28,22,9,8,0.5,0.6
2025-03-11T1500,1117A,121.7811,39.0496,大连市,开发区,,49,49,77,30,57,86,,71,71,25,34,8,8,0.7,0.8
2025-03-11T1500,1118A,121.9762,39.0631,大连市,双D港,细颗粒物(PM2.5),63,,71,45,79,90,,81,81,25,23,9,9,0.7,0.7
2025-03-11T1500,1789A,124.81117,46.03138,大庆市,大同区,细颗粒物(PM2.5),104,128,147,78,51,115,,82,82,19,20,7,6,0.7,0.8
2025-03-11T1500,1790A,125.129,46.533,大庆市,龙凤区,颗粒物(PM10),79,107,106,54,34,105,,77,77,15,25,8,10,0.7,0.7
2025-03-11T1500,1791A,124.902,46.408,大庆市,红岗区,,,,94,,37,124,,90,90,13,12,7,5,0.7,0.4
2025-03-11T1500,1792A,125.153,46.586,大庆市,萨尔图区,颗粒物(PM10),92,134,111,62,30,102,,76,76,20,22,11,8,0.4,0.3
2025-03-11T1500,1793A,124.9042,46.6215,大庆市,让胡路区,细颗粒物(PM2.5),95,122,84,71,34,106,,72,72,17,21,8,9,0.7,0.6
2025-03-11T1500,3481A,125.141,46.634,大庆市,萨区政府监测点,"颗粒物(PM10),细颗粒物(PM2.5)",89,127,100,66,28,106,,76,76,18,17,13,9,0.6,0.5
2025-03-11T1500,1721A,113.3819,40.1097,大同市,果树场,颗粒物(PM10),500,603,137,42,69,89,,51,51,8,29,8,12,0.3,0.9
2025-03-11T1500,1723A,113.2994,40.0758,大同市,云冈宾馆,颗粒物(PM10),136,222,125,54,49,93,,59,59,11,43,8,10,0.4,0.9
2025-03-11T1500,1724A,113.3444,40.0917,大同市,大同大学,颗粒物(PM10),130,209,105,65,52,91,,56,56,9,32,11,13,0.3,0.7
2025-03-11T1500,1725A,113.2661,40.1269,大同市,安家小村,颗粒物(PM10),164,277,143,66,55,91,,76,76,9,32,8,13,0.2,0.8
2025-03-11T1500,1726A,113.2711,40.0844,大同市,教育学院,颗粒物(PM10),163,275,152,85,64,92,,61,61,10,53,7,12,0.3,0.9
2025-03-11T1500,3282A,113.3397,40.0597,大同市,大同市卫生学校,颗粒物(PM10),149,248,116,64,53,90,,54,54,13,34,7,10,0.4,0.8
2025-03-11T1500,3565A,113.1367,40.1122,大同市,云冈站,颗粒物(PM10),198,345,120,76,51,89,,64,64,8,30,9,16,0.5,0.8
2025-03-11T1500,3566A,113.1186,40.2556,大同市,图书馆,颗粒物(PM10),119,187,137,65,52,90,,71,71,6,20,7,11,0.6,0.7
2025-03-11T1500,3567A,113.5931,40.0461,大同市,区一中,颗粒物(PM10),113,176,136,29,40,93,,68,62,13,23,16,19,0.3,0.7
2025-03-11T1500,4199A,113.2798,40.0997,大同市,魏都大道141号,颗粒物(PM10),163,275,140,78,60,90,,66,66,9,47,11,16,0.4,1.1
2025-03-11T1500,2269A,124.1069,50.4097,大兴安岭地区,科技局,,29,29,31,20,23,89,,92,90,8,7,6,6,0.4,0.4
2025-03-11T1500,3663A,124.1164,50.4278,大兴安岭地区,红旗社区,,31,12,17,11,10,98,,95,94,6,8,4,4,0.3,0.4
2025-03-11T1500,1600A,124.3303,40.0625,丹东市,江湾东路,,36,36,88,22,74,108,,101,101,11,21,9,12,0.5,1.1
2025-03-11T1500,1601A,124.4256,40.1503,丹东市,临江后街,,35,22,84,12,63,111,,103,103,12,22,11,9,0.6,1
2025-03-11T1500,1602A,124.3933,40.1461,丹东市,元宝山,,33,24,74,20,62,104,,98,98,12,22,8,7,0.5,0.8
2025-03-11T1500,1603A,124.3633,40.1092,丹东市,民主桥,,39,39,84,15,67,103,,97,97,10,23,6,8,0.7,1.2
2025-03-11T1500,3541A,109.5726,19.5167,儋州市,第一中学子站,,18,13,24,7,11,57,,48,48,2,3,3,4,0.6,0.7
2025-03-11T1500,3542A,109.5567,19.5187,儋州市,东坡学校子站,,24,24,43,6,11,58,,50,50,2,5,4,4,0.5,0.6
2025-03-11T1500,2616A,98.5842,24.428,德宏傣族景颇族自治州,德宏州监测站,细颗粒物(PM2.5),74,69,75,54,53,140,,69,69,14,29,10,9,0.7,0.8
2025-03-11T1500,3677A,98.5881,24.4368,德宏傣族景颇族自治州,芒市人民政府综合楼,细颗粒物(PM2.5),77,101,84,56,49,165,,89,89,16,18,11,9,0.6,0.5
2025-03-11T1500,1901A,104.4239,31.1208,德阳市,东山公园,细颗粒物(PM2.5),58,57,71,41,59,85,,52,52,16,25,3,3,0.7,0.8
2025-03-11T1500,1902A,104.3826,31.1317,德阳市,西小区,颗粒物(PM10),57,64,83,34,66,86,,49,49,12,33,4,4,0.6,0.7
2025-03-11T1500,1904A,104.3553,31.1091,德阳市,耐火材料厂,,,,77,,68,89,,48,48,12,32,8,7,0.5,0.6
2025-03-11T1500,3639A,104.4019,31.1244,德阳市,市教育局,"颗粒物(PM10),细颗粒物(PM2.5)",53,56,72,37,61,86,,49,49,14,35,5,4,0.6,0.8
2025-03-11T1500,1622A,116.3032,37.4674,德州市,儿童乐园,细颗粒物(PM2.5),100,110,123,75,86,127,,103,103,13,21,7,8,0.8,0.9
2025-03-11T1500,1624A,116.2991,37.4451,德州市,监理站,细颗粒物(PM2.5),104,105,113,78,84,127,,101,101,21,27,15,16,0.7,0.9
2025-03-11T1500,3066A,116.2721,37.4379,德州市,九衢泉纯净水厂,细颗粒物(PM2.5),83,100,119,61,73,119,,94,94,16,24,7,10,0.7,0.9
2025-03-11T1500,3371A,116.3728,37.4403,德州市,开发区人民医院,颗粒物(PM10),80,110,117,53,72,128,,102,102,12,24,12,12,0.6,0.7
2025-03-11T1500,3372A,116.3572,37.4094,德州市,太阳城中学,细颗粒物(PM2.5),79,100,116,58,77,123,,101,101,14,21,6,8,0.6,0.8
2025-03-11T1500,3511A,116.5652,37.3319,德州市,陵城艺术中心,细颗粒物(PM2.5),77,85,104,56,77,120,,97,97,18,24,10,9,0.7,0.7
2025-03-11T1500,2621A,99.7056,27.8317,迪庆藏族自治州,迪庆州站,,,34,45,19,24,107,,86,86,,12,,8,0.2,0.5
2025-03-11T1500,3180A,99.7136,27.8094,迪庆藏族自治州,质量技术监督局,,39,34,38,27,28,116,,89,89,11,14,8,8,0.4,0.7
2025-03-11T1500,4257A,104.6092,35.5962,定西市,将台街,颗粒物(PM10),175,300,233,53,51,95,,88,88,9,16,7,8,0.2,0.4
2025-03-11T1500,4309A,104.6159,35.5701,定西市,正龙路62号,颗粒物(PM10),182,314,249,39,55,99,,94,94,4,10,4,6,0.3,0.4
2025-03-11T1500,1389A,113.7547,23.0494,东莞市,莞城梨川,,41,34,49,22,28,129,,107,107,22,38,5,5,0.6,0.8
2025-03-11T1500,1390A,113.7944,23.0128,东莞市,东城石井,,,31,39,18,21,116,,83,83,,29,5,5,0.5,0.6
2025-03-11T1500,1391A,113.7383,22.9658,东莞市,南城西平,,41,31,47,15,21,131,,94,94,20,51,9,10,0.5,0.6
2025-03-11T1500,3319A,113.7338,23.0381,东莞市,万江金泰,,48,43,47,21,24,151,,114,114,20,35,5,5,0.6,0.7
2025-03-11T1500,3626A,113.7533,23.0202,东莞市,南城元岭,,40,39,44,19,22,125,,90,90,23,36,4,5,0.6,0.7
2025-03-11T1500,3627A,113.7875,23.0457,东莞市,东城主山,,39,34,50,14,22,123,,110,110,28,44,7,7,0.5,0.6
2025-03-11T1500,1666A,118.6614,37.4309,东营市,市环保局,颗粒物(PM10),76,102,106,53,69,145,,88,88,16,24,4,6,0.9,1.1
2025-03-11T1500,3036A,118.6904,37.4338,东营市,开发区管委会,,,101,104,,82,140,,83,83,,28,3,6,0.6,1
2025-03-11T1500,3365A,118.5719,37.565,东营市,垦利区民丰路,颗粒物(PM10),73,95,95,44,62,149,,101,101,30,41,4,5,0.6,0.8
2025-03-11T1500,3498A,118.5055,37.8612,东营市,河口城区,颗粒物(PM10),86,122,126,61,75,162,,111,111,17,27,7,6,0.9,1
2025-03-11T1500,3646A,118.4978,37.4623,东营市,胜利站,颗粒物(PM10),88,125,125,61,72,151,,92,92,30,34,9,9,0.8,1
2025-03-11T1500,3734A,118.35,37.26,东营市,理想之城,,,112,113,,77,162,,96,96,18,28,9,7,0.6,0.8
2025-03-11T1500,1591A,110.0023,39.8129,鄂尔多斯市,综合楼,颗粒物(PM10),394,495,440,92,82,87,,84,84,8,26,4,8,0.3,0.5
2025-03-11T1500,1592A,109.9486,39.8261,鄂尔多斯市,巴音孟克林场办事处,颗粒物(PM10),289,412,403,73,76,90,,87,87,7,22,6,15,0.3,0.5
2025-03-11T1500,1593A,109.7736,39.5986,鄂尔多斯市,康泽苑,颗粒物(PM10),194,337,433,44,81,94,,90,90,6,22,6,8,0.5,0.6
2025-03-11T1500,1594A,109.8119,39.5989,鄂尔多斯市,华泰汽车城,颗粒物(PM10),223,366,423,61,84,92,,86,86,6,30,6,7,0.4,0.6
2025-03-11T1500,1595A,109.9734,39.7884,鄂尔多斯市,奥林花园,颗粒物(PM10),355,464,428,78,79,83,,86,86,14,36,12,8,0.2,0.4
2025-03-11T1500,2436A,114.8938,30.3994,鄂州市,市政府,,43,43,68,30,54,47,,38,38,19,25,4,5,0.8,0.9
2025-03-11T1500,2437A,114.8989,30.3714,鄂州市,赵家坝,,49,49,71,33,53,39,,32,32,21,23,2,2,1.0,1.1
2025-03-11T1500,3654A,114.8094,30.4089,鄂州市,精准医疗中心,颗粒物(PM10),51,52,69,26,53,21,,20,20,39,39,17,8,2.5,1.1
2025-03-11T1500,2454A,109.4978,30.2981,恩施土家族苗族自治州,湖北民院,,50,49,45,35,38,47,,19,19,23,26,4,3,0.2,0.3
2025-03-11T1500,2455A,109.4707,30.2798,恩施土家族苗族自治州,州电力总公司,细颗粒物(PM2.5),57,51,51,40,38,39,,17,17,23,25,6,5,0.3,0.4
2025-03-11T1500,3549A,109.5061,30.3772,恩施土家族苗族自治州,龙凤新区,颗粒物(PM10),53,55,41,36,28,31,,21,17,31,17,6,6,1.0,0.9
2025-03-11T1500,2499A,108.3411,21.6158,防城港市,沙万,颗粒物(PM10),59,68,60,29,38,65,,41,41,22,37,9,10,0.6,0.9
2025-03-11T1500,2500A,108.3514,21.7731,防城港市,防城档案局,颗粒物(PM10),57,63,58,38,39,79,,45,45,14,29,8,7,0.4,0.7
2025-03-11T1500,2501A,108.3506,21.6414,防城港市,大海花园,细颗粒物(PM2.5),92,73,55,68,56,69,,55,55,28,30,15,7,2.3,1.1
2025-03-11T1500,1371A,113.1294,23.0067,佛山市,湾梁,臭氧1小时,93,68,59,25,21,194,,98,98,26,41,8,9,0.5,0.5
2025-03-11T1500,1372A,113.1083,23.0478,佛山市,华材职中,臭氧1小时,93,48,49,24,26,194,,107,107,23,38,7,7,0.5,0.6
2025-03-11T1500,1373A,113.144,23.0453,佛山市,南海气象局,臭氧1小时,97,58,51,29,29,197,,103,103,21,32,7,7,0.5,0.5
2025-03-11T1500,1374A,113.2881,22.8094,佛山市,顺德苏岗,,45,45,53,24,26,137,,77,77,20,42,5,6,0.7,0.7
2025-03-11T1500,1376A,112.8383,22.8678,佛山市,高明孔堂,,35,26,38,17,20,110,,77,77,6,19,5,5,0.5,0.5
2025-03-11T1500,1377A,112.8836,23.1588,佛山市,三水监测站,,43,41,58,30,33,123,,69,69,34,59,3,3,0.4,0.6
2025-03-11T1500,1378A,112.867,23.185,佛山市,三水云东海,,50,42,56,20,21,157,,79,79,23,50,1,2,0.5,0.6
2025-03-11T1500,3625A,113.2544,22.7642,佛山市,容桂街道办,臭氧1小时,55,41,51,29,30,164,,100,100,26,49,7,8,0.7,0.8
2025-03-11T1500,1280A,119.3903,26.0543,福州市,鼓山,,,,35,,24,,,80,,,13,,2,,0.4
2025-03-11T1500,1282A,119.2681,26.0504,福州市,师大,颗粒物(PM10),58,66,48,29,27,145,,70,70,19,28,6,5,0.5,0.4
2025-03-11T1500,1283A,119.2984,26.1028,福州市,五四北路,颗粒物(PM10),56,61,44,35,28,143,,68,68,22,34,6,4,0.7,0.6
2025-03-11T1500,1284A,119.2648,26.0768,福州市,杨桥西路,颗粒物(PM10),62,74,48,38,26,145,,72,72,23,29,6,5,0.6,0.5
2025-03-11T1500,1285A,119.317,26.0746,福州市,紫阳,,,68,49,34,29,125,,63,63,,41,5,4,,0.6
2025-03-11T1500,3048A,119.5799,26.0936,福州市,九龙,,38,22,29,11,23,119,,83,83,7,17,6,4,0.6,0.4
2025-03-11T1500,3526A,119.5189,25.9664,福州市,吴航,,44,35,50,21,29,139,,76,76,16,31,11,7,1.7,0.5
2025-03-11T1500,1755A,123.7977,41.8491,抚顺市,望花区,颗粒物(PM10),66,81,85,46,58,118,,112,112,13,20,11,27,0.7,0.8
2025-03-11T1500,1756A,123.9161,41.8822,抚顺市,顺城区,颗粒物(PM10),69,87,72,46,48,128,,118,118,15,17,8,8,0.7,0.7
2025-03-11T1500,1757A,124.0436,41.8611,抚顺市,东洲区,颗粒物(PM10),67,83,65,44,45,131,,127,127,15,16,6,8,0.8,0.7
2025-03-11T1500,1758A,123.9247,41.8642,抚顺市,新抚区,颗粒物(PM10),74,97,75,45,51,128,,110,110,12,21,6,6,0.7,0.8
2025-03-11T1500,1759A,124.0972,41.8961,抚顺市,大伙房水库,细颗粒物(PM2.5),60,66,60,43,49,121,,117,117,10,9,7,7,0.7,0.6
2025-03-11T1500,1760A,123.7086,41.8391,抚顺市,沈抚新城,颗粒物(PM10),70,90,75,45,50,121,,118,118,15,15,6,5,0.9,0.8
2025-03-11T1500,2376A,116.2127,28.0814,抚州市,桐源党溪,,46,46,41,29,25,62,,29,29,3,7,8,7,0.6,0.6
2025-03-11T1500,2377A,116.3544,27.9831,抚州市,市站,,34,34,36,22,21,55,,29,29,20,26,13,13,0.8,0.7
2025-03-11T1500,2378A,116.3565,27.963,抚州市,血防站,,43,43,40,24,22,56,,28,28,14,21,14,10,1.0,0.9
2025-03-11T1500,2379A,116.3564,28.0007,抚州市,采茶剧团,,36,36,34,18,21,47,,24,24,13,20,8,8,1.4,1.3
2025-03-11T1500,2380A,116.385,27.9647,抚州市,医学分院,,45,45,34,23,20,52,,28,28,5,16,7,6,1.1,1.1
2025-03-11T1500,2207A,121.6094,41.998,阜新市,工业园区,颗粒物(PM10),283,408,140,79,88,126,,96,96,19,18,13,10,0.8,1
2025-03-11T1500,2208A,121.6697,42.0279,阜新市,长青街,颗粒物(PM10),146,242,111,80,89,140,,99,99,19,21,10,10,0.8,0.8
2025-03-11T1500,2209A,121.6673,42.0705,阜新市,农业园区,颗粒物(PM10),172,293,132,92,86,143,,104,104,11,12,13,12,0.9,0.8
2025-03-11T1500,2210A,121.6717,42.0224,阜新市,东苑,颗粒物(PM10),199,347,115,73,74,129,,88,88,19,22,11,12,0.7,0.7
2025-03-11T1500,2211A,121.6506,42.0498,阜新市,玉龙新城,颗粒物(PM10),113,176,119,82,87,129,,92,92,19,21,14,12,0.9,0.8
2025-03-11T1500,2301A,115.8277,32.8929,阜阳市,市监测站,细颗粒物(PM2.5),68,65,98,49,74,117,,78,78,9,37,7,7,0.6,0.7
2025-03-11T1500,2303A,115.8554,32.8605,阜阳市,开发区,细颗粒物(PM2.5),67,57,110,48,69,125,,84,84,12,34,7,7,0.7,0.7
2025-03-11T1500,2875A,115.784,32.8892,阜阳市,阜阳职业技术学院,细颗粒物(PM2.5),72,67,91,52,63,115,,78,78,9,28,7,7,0.7,0.7
2025-03-11T1500,3468A,115.7901,32.8613,阜阳市,市规划展馆,细颗粒物(PM2.5),63,59,90,45,64,126,,95,95,10,18,7,7,0.7,0.8
2025-03-11T1500,3469A,115.836,32.9183,阜阳市,枣园社区,细颗粒物(PM2.5),64,59,109,46,67,125,,83,83,8,42,6,6,0.6,0.6
2025-03-11T1500,2669A,102.9099,34.9841,甘南藏族自治州,州政府,颗粒物(PM10),65,80,63,31,22,83,,69,69,6,22,6,8,0.4,0.5
2025-03-11T1500,3380A,102.8914,34.9617,甘南藏族自治州,甘肃民族师范学院,颗粒物(PM10),68,85,61,31,19,93,,72,72,2,18,8,9,0.3,0.3
2025-03-11T1500,2570A,101.9603,30.0475,甘孜藏族自治州,水桥子,,30,20,26,8,9,95,,50,50,5,26,4,3,0.4,0.5
2025-03-11T1500,3065A,101.9533,29.9972,甘孜藏族自治州,州环保局,,30,27,25,16,7,96,,78,78,7,11,4,4,0.3,0.3
2025-03-11T1500,3414A,115.8347,28.932,赣江新区,桑海产业园,,,44,60,30,48,53,,26,26,6,39,43,12,,0.5
2025-03-11T1500,2362A,114.9017,25.9149,赣州市,通天岩,,33,31,28,3,6,105,,71,71,3,3,12,11,0.4,0.4
2025-03-11T1500,2363A,114.9367,25.8664,赣州市,地委,,47,47,58,32,35,102,,58,58,12,29,7,5,0.8,1
2025-03-11T1500,2364A,114.9461,25.8481,赣州市,气象台,颗粒物(PM10),51,51,64,32,32,116,,62,62,13,39,9,9,0.4,0.8
2025-03-11T1500,2365A,114.9322,25.8333,赣州市,市图书馆,细颗粒物(PM2.5),54,51,62,38,36,100,,54,54,19,38,4,4,0.9,1
2025-03-11T1500,2366A,114.8905,25.8471,赣州市,华坚鞋城,,45,45,65,29,37,102,,60,60,10,34,7,8,0.4,0.7
2025-03-11T1500,3109A,115.0093,25.8613,赣州市,赣县区卫计委,,46,46,62,26,38,98,,51,51,6,30,5,5,0.3,0.6
2025-03-11T1500,2683A,106.2319,36.1417,固原市,马园,颗粒物(PM10),106,161,400,26,62,89,,82,82,8,15,5,5,0.4,0.6
2025-03-11T1500,2684A,106.2792,36.0022,固原市,监测站,颗粒物(PM10),102,153,362,37,64,97,,90,90,6,12,6,7,0.3,0.3
2025-03-11T1500,2685A,106.2375,36.0211,固原市,新区,颗粒物(PM10),97,144,339,29,59,97,,90,90,2,8,6,7,0.2,0.4
2025-03-11T1500,3522A,106.2177,35.9959,固原市,原州区十五小,颗粒物(PM10),120,189,264,33,56,96,,90,90,6,14,6,7,0.2,0.4
2025-03-11T1500,2543A,106.6308,30.5278,广安市,小平旧居,,,,,,,,,,,,,,,,
2025-03-11T1500,2544A,106.6303,30.4576,广安市,市委,细颗粒物(PM2.5),54,46,49,38,39,70,,60,57,10,15,5,4,0.5,0.5
2025-03-11T1500,2545A,106.6271,30.4663,广安市,友谊中学,,49,43,53,34,39,74,,58,57,15,20,1,2,0.6,0.6
2025-03-11T1500,2547A,106.6388,30.4551,广安市,广电花园,,46,43,50,32,38,73,,52,46,13,24,4,4,0.5,0.6
2025-03-11T1500,2902A,106.6351,30.4865,广安市,北辰小学,细颗粒物(PM2.5),54,53,51,38,38,71,,59,56,12,17,8,8,0.6,0.6
2025-03-11T1500,2523A,105.8945,32.4535,广元市,黑石坡,颗粒物(PM10),144,238,71,68,38,71,,37,37,4,31,7,10,0.3,0.6
2025-03-11T1500,2524A,105.821,32.4444,广元市,老城,颗粒物(PM10),165,279,81,54,44,84,,40,40,7,33,1,2,0.3,0.7
2025-03-11T1500,2526A,105.8628,32.4287,广元市,监测站,颗粒物(PM10),123,195,71,45,47,87,,41,41,6,32,5,7,0.3,0.7
2025-03-11T1500,3617A,105.8047,32.4166,广元市,经开区,颗粒物(PM10),117,183,77,48,58,72,,32,32,12,35,2,2,0.5,0.9
2025-03-11T1500,1345A,113.2347,23.1423,广州市,广雅中学,臭氧1小时,105,49,44,28,21,209,,90,90,24,47,4,4,0.7,0.7
2025-03-11T1500,1346A,113.2612,23.105,广州市,市五中,臭氧1小时,107,70,47,37,22,213,,91,91,23,46,4,4,0.5,0.6
2025-03-11T1500,1348A,113.3478,23.0916,广州市,广东商学院,臭氧1小时,70,45,45,25,20,176,,83,83,18,52,4,4,0.6,0.6
2025-03-11T1500,1349A,113.4332,23.1047,广州市,市八十六中,颗粒物(PM10),51,52,49,23,20,146,,84,84,39,65,4,5,0.1,0.2
2025-03-11T1500,1350A,113.3505,22.9483,广州市,番禺中学,臭氧1小时,79,46,41,26,22,183,,99,99,22,44,7,7,0.5,0.6
2025-03-11T1500,1351A,113.2146,23.3916,广州市,花都师范,臭氧1小时,82,54,58,29,29,185,,76,76,21,56,4,5,0.5,0.6
2025-03-11T1500,1352A,113.2597,23.1331,广州市,市监测站,臭氧1小时,87,45,42,23,18,189,,84,84,21,46,6,6,0.6,0.6
2025-03-11T1500,1353A,113.5618,23.312,广州市,九龙镇镇龙,臭氧1小时,65,56,59,32,32,172,,93,93,33,52,6,6,0.5,0.6
2025-03-11T1500,1354A,113.2765,23.1544,广州市,麓湖,臭氧1小时,94,47,40,21,17,195,,91,91,20,48,4,3,0.4,0.6
2025-03-11T1500,1355A,113.443,23.3035,广州市,帽峰山森林公园,,50,37,44,20,24,158,,81,81,20,44,5,7,0.6,0.7
2025-03-11T1500,2846A,113.3221,23.1322,广州市,体育西,臭氧1小时,90,52,46,29,22,192,,91,91,21,54,5,5,0.5,0.6
2025-03-11T1500,3298A,113.5717,23.5491,广州市,从化街口,臭氧1小时,52,41,60,26,39,161,,88,88,16,40,7,7,0.5,0.8
2025-03-11T1500,3299A,113.3472,23.3692,广州市,白云竹料,"颗粒物(PM10),臭氧1小时",52,54,63,26,32,161,,82,82,24,52,7,8,0.6,0.8
2025-03-11T1500,3300A,113.2981,23.237,广州市,白云嘉禾,臭氧1小时,52,52,55,25,26,161,,78,78,26,61,3,4,0.4,0.5
2025-03-11T1500,3301A,113.4256,23.1716,广州市,黄埔科学城,,,54,46,26,22,158,,82,82,,50,5,7,0.3,0.5
2025-03-11T1500,3302A,113.3942,23.0483,广州市,番禺大学城,臭氧1小时,65,54,62,22,20,172,,92,92,23,46,4,5,0.2,0.2
2025-03-11T1500,3303A,113.4922,22.8168,广州市,南沙黄阁,,47,47,43,10,22,96,,73,73,13,40,5,5,0.5,0.6
2025-03-11T1500,3304A,113.5342,22.7896,广州市,南沙街,,33,33,38,8,19,90,,76,76,16,38,6,6,0.4,0.5
2025-03-11T1500,3443A,113.2902,23.5544,广州市,花都梯面,"颗粒物(PM10),臭氧1小时",55,59,52,31,29,164,,81,81,24,45,4,5,0.6,0.7
2025-03-11T1500,3445A,113.7858,23.7478,广州市,从化良口,,31,21,28,16,21,99,,74,74,6,14,6,6,0.6,0.7
2025-03-11T1500,3446A,113.8051,23.2614,广州市,增城荔城,臭氧1小时,107,56,44,34,26,214,,118,118,18,25,6,7,0.5,0.5
2025-03-11T1500,2505A,109.568,23.1478,贵港市,德智高中,,,,,,,,,,,,,,,,
2025-03-11T1500,2506A,109.6047,23.0666,贵港市,江南子站,,39,39,122,25,68,60,,30,30,21,50,7,8,0.4,1
2025-03-11T1500,2507A,109.6014,23.0948,贵港市,贵城子站,细颗粒物(PM2.5),60,68,110,43,67,45,,27,27,32,46,7,9,0.7,1.1
2025-03-11T1500,2508A,109.5669,23.1065,贵港市,荷城子站,,,61,93,44,66,39,,23,23,,47,,10,0.7,1
2025-03-11T1500,3405A,109.5886,23.1172,贵港市,新世纪学校,细颗粒物(PM2.5),64,61,97,46,70,51,,28,28,33,43,3,3,0.5,0.8
2025-03-11T1500,1439A,106.6899,26.5998,贵阳市,马鞍山,,36,36,24,17,14,98,,64,64,9,15,7,5,0.9,0.8
2025-03-11T1500,1441A,106.6243,26.6266,贵阳市,鉴湖路,,49,48,32,34,14,114,,75,75,9,11,13,11,0.5,0.5
2025-03-11T1500,1442A,106.7487,26.6343,贵阳市,燕子冲,,39,31,28,27,26,114,,68,68,9,20,36,11,0.5,0.7
2025-03-11T1500,1443A,106.6555,26.4365,贵阳市,碧云窝,,44,44,31,19,14,92,,71,71,7,11,9,9,0.6,0.6
2025-03-11T1500,1445A,106.7109,26.6027,贵阳市,红边门,细颗粒物(PM2.5),52,44,41,36,31,99,,57,57,13,32,6,11,0.3,0.7
2025-03-11T1500,1446A,106.7164,26.5699,贵阳市,新华路,,35,31,37,24,23,98,,63,63,9,25,28,15,0.5,0.8
2025-03-11T1500,1447A,106.674,26.5424,贵阳市,太慈桥,,41,41,27,24,17,89,,64,64,14,16,10,9,0.3,0.4
2025-03-11T1500,1552A,106.805,26.3003,贵阳市,桐木岭,"颗粒物(PM10),细颗粒物(PM2.5)",52,53,34,36,21,99,,71,71,11,7,35,15,1.1,1.1
2025-03-11T1500,4230A,106.6882,26.5695,贵阳市,花果园大街66号,,36,29,22,25,23,90,,58,58,16,22,8,6,0.3,0.5
2025-03-11T1500,4231A,106.6873,26.5169,贵阳市,漓江路57号,,35,34,30,24,21,78,,54,54,7,19,12,14,0.3,0.5
2025-03-11T1500,1862A,110.4144,25.3167,桂林市,电子科大尧山校区,,,,,,,,,,,,,,,,
2025-03-11T1500,1864A,110.3089,25.2708,桂林市,龙隐路小学,,45,32,26,31,26,10,,9,9,36,29,7,8,1.1,0.9
2025-03-11T1500,1865A,110.2869,25.2178,桂林市,八中,,45,37,31,31,25,6,,5,5,45,35,8,7,1.1,1
2025-03-11T1500,3531A,110.296,25.1253,桂林市,旅游学院,,39,31,20,27,16,12,,10,10,34,27,7,6,1.1,0.9
2025-03-11T1500,4222A,110.1835,25.2444,桂林市,环湖路276号,,35,,24,24,23,3,,4,4,43,38,10,9,1.4,1.2
2025-03-11T1500,4301A,110.2803,25.2773,桂林市,信义路13号,细颗粒物(PM2.5),59,,29,42,26,5,,5,5,43,35,9,6,1.2,1.3
2025-03-11T1500,2674A,100.2561,34.4714,果洛藏族自治州,玛沁县大武镇,,32,30,32,8,13,102,,70,70,2,4,10,12,0.4,0.3
2025-03-11T1500,1129A,126.5422,45.755,哈尔滨市,岭北,,,100,219,69,75,143,,114,114,30,22,,15,0.6,0.8
2025-03-11T1500,1130A,126.561,45.8167,哈尔滨市,松北商大,细颗粒物(PM2.5),102,90,187,76,66,135,,100,100,20,19,8,7,0.7,0.7
2025-03-11T1500,1131A,126.979,45.5419,哈尔滨市,阿城会宁,细颗粒物(PM2.5),93,104,299,69,89,125,,100,100,17,16,23,14,0.6,0.7
2025-03-11T1500,1132A,126.599,45.7222,哈尔滨市,南岗学府路,细颗粒物(PM2.5),105,120,258,79,66,125,,95,95,21,21,10,8,0.8,0.7
2025-03-11T1500,1133A,126.689,45.7733,哈尔滨市,太平宏伟公园,细颗粒物(PM2.5),103,126,251,77,74,131,,95,95,25,25,9,9,0.8,0.6
2025-03-11T1500,1134A,126.635,45.7667,哈尔滨市,道外承德广场,细颗粒物(PM2.5),110,128,248,83,76,116,,76,76,21,24,12,8,,0.7
2025-03-11T1500,1135A,126.685,45.7319,哈尔滨市,香坊红旗大街,细颗粒物(PM2.5),97,102,265,72,75,126,,88,88,21,25,14,12,0.7,0.8
2025-03-11T1500,1136A,126.6411,45.7258,哈尔滨市,动力和平路,,,,259,,76,130,,87,87,15,19,10,8,0.8,0.7
2025-03-11T1500,1137A,126.593,45.7478,哈尔滨市,道里建国路,细颗粒物(PM2.5),113,102,231,85,80,120,,83,83,22,24,12,13,1.0,0.7
2025-03-11T1500,1138A,126.615,45.61,哈尔滨市,平房东轻厂,细颗粒物(PM2.5),103,103,262,77,83,133,,100,100,11,16,9,8,0.6,0.7
2025-03-11T1500,1139A,126.595,45.9855,哈尔滨市,呼兰师专,细颗粒物(PM2.5),123,114,169,93,72,115,,92,92,27,20,13,11,0.6,0.4
2025-03-11T1500,1140A,126.6206,45.6842,哈尔滨市,省农科院,细颗粒物(PM2.5),113,119,271,85,84,114,,89,89,27,22,12,11,0.6,0.8
2025-03-11T1500,2688A,93.5128,42.8172,哈密市,地区监测站,颗粒物(PM10),85,120,98,22,17,87,,66,66,6,7,3,4,0.3,0.2
2025-03-11T1500,2689A,93.4961,42.8328,哈密市,哈密师范学校,,,84,67,22,19,,,65,64,10,10,5,4,0.4,0.4
2025-03-11T1500,2671A,100.9048,36.9639,海北藏族自治州,海晏县西海镇,颗粒物(PM10),68,85,27,34,11,90,,72,72,1,3,6,8,0.3,0.3
2025-03-11T1500,3867A,102.0738,36.5056,海东市,平安区公安北苑,颗粒物(PM10),424,524,229,121,56,88,,63,63,5,7,14,15,0.9,1
2025-03-11T1500,1409A,110.576,19.9507,海口市,东寨港,,,,40,,20,,,89,,,4,,5,,0.8
2025-03-11T1500,1410A,110.3232,20.0574,海口市,海南大学,,50,50,67,25,22,97,,84,84,18,14,3,3,0.4,0.4
2025-03-11T1500,1411A,110.283,20.0053,海口市,秀英海南医院,,33,33,58,14,21,87,,76,76,8,13,4,4,0.4,0.4
2025-03-11T1500,1412A,110.338,19.9969,海口市,海南师范大学,,39,39,61,16,20,100,,85,85,5,8,4,4,0.4,0.4
2025-03-11T1500,1413A,110.33,20.0356,海口市,龙华路环保局宿舍,,33,33,58,18,19,99,,84,84,8,9,4,4,0.4,0.4
2025-03-11T1500,3539A,110.5111,19.9736,海口市,桂林洋子站,,31,31,47,21,18,98,,81,81,5,7,3,3,0.3,0.3
2025-03-11T1500,2673A,100.6188,36.2866,海南藏族自治州,共和县恰卜恰镇,颗粒物(PM10),56,62,40,18,13,97,,81,81,1,14,7,7,0.4,0.4
2025-03-11T1500,2676A,97.3731,37.3753,海西蒙古族藏族自治州,德令哈市,颗粒物(PM10),57,63,69,15,21,97,,79,79,8,14,18,15,0.5,0.6
2025-03-11T1500,1048A,114.5302,36.6116,邯郸市,东污水处理厂,细颗粒物(PM2.5),83,79,94,61,68,92,,67,67,18,21,3,2,0.7,0.6
2025-03-11T1500,1049A,114.4918,36.5713,邯郸市,矿院,细颗粒物(PM2.5),85,106,106,63,66,88,,63,63,12,16,4,2,0.6,0.5
2025-03-11T1500,1050A,114.484,36.6133,邯郸市,丛台公园,细颗粒物(PM2.5),84,79,90,62,66,88,,63,63,15,17,3,2,0.5,0.5
2025-03-11T1500,3458A,114.7895,36.5593,邯郸市,香泉濮院小区,细颗粒物(PM2.5),77,75,101,56,72,103,,79,79,8,12,3,2,0.4,0.6
2025-03-11T1500,3579A,114.50634,36.77178,邯郸市,永年区实验高中,,,96,103,60,61,101,,74,74,12,15,,5,0.6,1.1
2025-03-11T1500,3580A,114.20016,36.44293,邯郸市,峰峰矿区临水派出所,细颗粒物(PM2.5),88,90,91,65,68,110,,84,84,11,12,15,10,1.3,1.2
2025-03-11T1500,2634A,106.9893,33.1842,汉中市,汉川机床厂子校,,47,47,32,32,26,98,,61,61,5,11,6,8,0.9,0.9
2025-03-11T1500,2635A,107.0154,33.0706,汉中市,市监测站,颗粒物(PM10),58,66,44,26,32,99,,53,53,8,24,6,7,0.9,1.1
2025-03-11T1500,2636A,107.0089,33.1138,汉中市,鑫源开发区,颗粒物(PM10),53,56,52,26,34,100,,50,50,9,35,5,8,0.8,1
2025-03-11T1500,2637A,107.007,33.0323,汉中市,南郑大河坎水厂,颗粒物(PM10),57,63,49,22,34,100,,52,52,9,26,12,8,0.7,1
2025-03-11T1500,1223A,120.2072,30.2111,杭州市,滨江,,42,42,72,22,36,93,,41,41,27,52,6,6,0.7,0.8
2025-03-11T1500,1224A,120.0633,30.2747,杭州市,西溪,颗粒物(PM10),53,56,80,31,42,87,,40,40,22,33,6,6,0.7,0.7
2025-03-11T1500,1226A,120.3417,30.3150,杭州市,下沙,细颗粒物(PM2.5),114,128,112,86,75,92,,41,41,64,71,7,6,0.6,0.6
2025-03-11T1500,1227A,120.1269,30.2456,杭州市,卧龙桥,,47,47,75,30,47,90,,45,45,30,44,6,6,0.4,0.5
2025-03-11T1500,1228A,120.1903,30.2692,杭州市,浙江农大,,44,44,54,30,37,87,,40,40,37,49,8,8,0.6,0.7
2025-03-11T1500,1230A,120.1197,30.3119,杭州市,和睦小学,颗粒物(PM10),55,59,84,32,47,92,,46,46,29,53,7,7,0.8,0.8
2025-03-11T1500,1231A,120.3019,30.4183,杭州市,临平镇,细颗粒物(PM2.5),102,102,108,76,77,88,,40,40,53,63,7,6,0.7,0.7
2025-03-11T1500,1232A,120.2753,30.1839,杭州市,城厢镇,细颗粒物(PM2.5),68,72,92,49,61,97,,51,51,40,67,8,8,0.7,0.7
2025-03-11T1500,1233A,120.0883,30.1808,杭州市,云栖,细颗粒物(PM2.5),59,56,76,42,56,90,,42,42,31,39,8,8,0.6,0.7
2025-03-11T1500,3557A,119.9464,30.0494,杭州市,镇二中,,30,30,55,21,42,75,,38,38,21,40,6,6,0.9,0.9
2025-03-11T1500,3558A,119.7183,30.2367,杭州市,市府大楼,,27,27,62,17,41,85,,49,49,11,35,7,7,0.5,0.7
2025-03-11T1500,3656A,120.1556,30.2864,杭州市,消防大队,细颗粒物(PM2.5),52,51,84,36,62,96,,50,50,26,55,7,7,0.7,0.8
2025-03-11T1500,1270A,117.1959,31.7848,合肥市,明珠广场,,45,36,68,31,52,115,,74,74,15,26,5,5,0.6,0.7
2025-03-11T1500,1271A,117.3072,31.8764,合肥市,三里街,,41,41,73,27,47,102,,66,66,17,29,5,5,0.7,0.8
2025-03-11T1500,1272A,117.2588,31.8707,合肥市,琥珀山庄,,,41,62,33,52,111,,75,75,15,27,,2,0.5,0.5
2025-03-11T1500,1273A,117.1604,31.9052,合肥市,董铺水库,细颗粒物(PM2.5),64,68,67,46,42,128,,76,76,15,24,2,2,0.5,0.5
2025-03-11T1500,1274A,117.25,31.8571,合肥市,长江中路,细颗粒物(PM2.5),55,46,69,39,53,115,,75,75,17,26,7,8,0.6,0.7
2025-03-11T1500,1275A,117.266,31.9436,合肥市,庐阳区,"颗粒物(PM10),细颗粒物(PM2.5)",52,53,74,36,50,120,,76,76,18,27,6,5,0.5,0.5
2025-03-11T1500,1276A,117.3453,31.8616,合肥市,瑶海区,,,,70,22,46,104,,67,67,11,24,6,6,0.6,0.6
2025-03-11T1500,1277A,117.3027,31.7964,合肥市,包河区,,39,34,65,27,47,109,,78,78,6,17,6,5,0.7,0.7
2025-03-11T1500,1278A,117.2776,31.7385,合肥市,滨湖新区,细颗粒物(PM2.5),55,39,66,39,56,108,,78,78,9,20,7,7,0.5,0.6
2025-03-11T1500,1279A,117.1318,31.8403,合肥市,高新区,"颗粒物(PM10),细颗粒物(PM2.5)",53,56,75,37,55,121,,76,76,19,28,2,3,0.6,0.7
2025-03-11T1500,3464A,117.3803,31.9147,合肥市,高教基地,,46,37,64,32,47,115,,80,80,16,21,8,8,0.4,0.5
2025-03-11T1500,3614A,79.924,37.0877,和田地区,地区环保局,颗粒物(PM10),134,217,224,48,54,77,,52,52,2,14,1,5,1.0,0.8
2025-03-11T1500,3615A,79.9131,37.113,和田地区,市环保局,颗粒物(PM10),115,180,202,48,55,85,,50,50,11,36,1,3,0.6,1.1
2025-03-11T1500,2516A,108.2011,24.715,河池市,东仁乐园,细颗粒物(PM2.5),59,58,35,42,26,24,,11,11,19,19,7,6,1.2,1.1
2025-03-11T1500,2517A,108.0497,24.6947,河池市,市环保站,,,,33,,28,27,,13,13,18,18,,9,,1
2025-03-11T1500,2518A,108.0983,24.6989,河池市,市疾控中心,颗粒物(PM10),51,52,32,32,27,25,,11,11,18,18,6,6,1.0,0.9
2025-03-11T1500,1696A,114.6778,23.7569,河源市,源西,,,34,40,16,22,,,41,41,8,33,4,5,,0.4
2025-03-11T1500,1697A,114.6944,23.7586,河源市,东埔,,30,30,40,18,23,82,,45,45,10,26,3,4,0.5,0.7
2025-03-11T1500,1698A,114.6892,23.7233,河源市,老城,,27,19,33,13,24,86,,53,53,5,18,4,5,0.5,0.7
2025-03-11T1500,1718A,115.4208,35.2464,菏泽市,气象局,细颗粒物(PM2.5),100,106,115,75,84,119,,93,,12,22,3,4,0.4,0.6
2025-03-11T1500,3374A,115.5564,35.0891,菏泽市,定陶老年大学,细颗粒物(PM2.5),89,78,108,66,79,125,,90,90,19,25,3,4,0.6,0.6
2025-03-11T1500,4184A,115.4797,35.24401,菏泽市,永昌路1号,细颗粒物(PM2.5),98,102,124,73,88,125,,99,94,15,22,6,7,0.5,0.5
2025-03-11T1500,4193A,115.4715,35.2800,菏泽市,长城路999号,细颗粒物(PM2.5),90,92,117,67,80,114,,92,86,16,22,7,7,0.6,0.7
2025-03-11T1500,2514A,111.5264,24.4172,贺州市,环保小区,细颗粒物(PM2.5),78,72,102,57,52,95,,46,46,24,39,8,8,0.9,1.5
2025-03-11T1500,2515A,111.5608,24.4078,贺州市,政协大楼,细颗粒物(PM2.5),67,71,88,48,49,84,,33,33,34,45,8,8,0.9,1.3
2025-03-11T1500,3534A,111.4744,24.4553,贺州市,西湾,细颗粒物(PM2.5),72,74,79,52,52,96,,38,38,21,36,6,7,0.6,1.1
2025-03-11T1500,2385A,114.17,35.9019,鹤壁市,市监测站,细颗粒物(PM2.5),95,104,86,71,56,79,,56,56,33,27,6,3,0.7,0.7
2025-03-11T1500,2386A,114.2956,35.7511,鹤壁市,市交警支队,细颗粒物(PM2.5),89,102,100,66,68,89,,56,56,19,24,7,4,0.6,0.6
2025-03-11T1500,2387A,114.2878,35.7306,鹤壁市,迎宾馆,颗粒物(PM10),82,114,107,56,64,93,,58,58,29,27,8,7,0.6,0.6
2025-03-11T1500,3474A,114.2617,35.6822,鹤壁市,大新区,细颗粒物(PM2.5),114,86,75,86,72,85,,51,51,21,35,7,5,0.8,0.7
2025-03-11T1500,3596A,114.1572,35.9603,鹤壁市,南山宾馆,细颗粒物(PM2.5),100,100,91,75,72,84,,76,67,19,15,12,11,0.4,0.4
2025-03-11T1500,2244A,130.2537,47.3416,鹤岗市,哈啤分公司,,30,,67,21,42,81,,63,63,9,8,14,10,0.4,0.7
2025-03-11T1500,2245A,130.2684,47.3086,鹤岗市,斯达机电,,28,26,65,13,33,89,,88,88,9,8,14,14,0.5,0.6
2025-03-11T1500,2246A,130.3114,47.3388,鹤岗市,东山纸板厂,,50,50,68,33,33,81,,82,82,13,13,15,15,0.3,0.5
2025-03-11T1500,2247A,130.1097,47.3382,鹤岗市,五号水库,,,,,,,,,,,,,,,,
2025-03-11T1500,2263A,127.4833,50.2524,黑河市,交通局,,30,25,46,15,26,93,,90,89,8,11,6,6,0.3,0.5
2025-03-11T1500,2264A,127.5144,50.2341,黑河市,环保局,,32,,45,22,30,90,,92,92,11,10,9,4,0.4,0.5
2025-03-11T1500,2265A,127.5291,50.2472,黑河市,大黑河岛,,,,,,,,,,,,,,,,
2025-03-11T1500,1074A,115.6838,37.7541,衡水市,电机北厂,细颗粒物(PM2.5),107,121,117,80,89,120,,101,101,14,17,7,6,0.5,0.5
2025-03-11T1500,1075A,115.6303,37.7316,衡水市,市监测站,细颗粒物(PM2.5),100,98,103,75,84,120,,98,98,16,19,8,9,0.5,0.5
2025-03-11T1500,3188A,115.6683,37.7217,衡水市,市城管局,细颗粒物(PM2.5),97,88,103,72,84,122,,96,96,17,22,3,5,0.5,0.5
2025-03-11T1500,3459A,115.5989,37.5491,衡水市,地表水厂,细颗粒物(PM2.5),100,87,104,75,88,136,,100,100,14,22,10,9,0.6,0.6
2025-03-11T1500,2456A,112.5003,26.9167,衡阳市,原169医院,颗粒物(PM10),61,71,45,32,26,101,,39,39,23,35,19,14,1.2,0.9
2025-03-11T1500,2457A,112.6194,26.9258,衡阳市,衡阳化工总厂,细颗粒物(PM2.5),57,57,50,40,43,101,,52,52,9,16,11,7,0.8,0.8
2025-03-11T1500,2458A,112.6211,26.8956,衡阳市,珠晖区环保局,,49,48,51,34,41,105,,49,49,8,22,10,8,0.9,1
2025-03-11T1500,2459A,112.6197,26.8733,衡阳市,市委党校,颗粒物(PM10),55,59,55,30,39,122,,53,53,9,27,14,11,1.1,1.2
2025-03-11T1500,2460A,112.6006,26.8919,衡阳市,市监测站,细颗粒物(PM2.5),57,59,53,40,38,114,,50,50,10,26,12,9,1.0,1.1
2025-03-11T1500,2461A,112.5664,26.9056,衡阳市,真空机电公司,颗粒物(PM10),58,66,55,37,41,114,,46,46,13,29,11,8,0.9,1.2
2025-03-11T1500,3399A,112.6703,26.882,衡阳市,师范学院,,44,44,50,30,34,112,,50,50,12,21,13,9,0.9,1
2025-03-11T1500,2608A,103.3772,23.3993,红河哈尼族彝族自治州,污水处理厂,细颗粒物(PM2.5),72,55,43,52,41,139,,107,107,6,8,8,7,0.5,0.5
2025-03-11T1500,2609A,103.3861,23.35,红河哈尼族彝族自治州,监测站,细颗粒物(PM2.5),64,70,51,46,35,138,,108,108,7,9,9,10,0.5,0.5
2025-03-11T1500,3038A,103.3758,23.368,红河哈尼族彝族自治州,州图书馆,细颗粒物(PM2.5),64,51,37,46,34,140,,105,105,6,8,7,6,0.4,0.4
2025-03-11T1500,1090A,111.6507,40.7517,呼和浩特市,呼市一监,颗粒物(PM10),377,481,335,73,86,101,,71,71,4,42,7,11,0.3,0.8
2025-03-11T1500,1091A,111.6572,40.8033,呼和浩特市,小召,颗粒物(PM10),385,488,335,67,76,94,,75,75,9,43,2,6,0.4,0.8
2025-03-11T1500,1094A,111.7516,40.8369,呼和浩特市,如意水处理厂,颗粒物(PM10),312,429,290,60,72,84,,73,73,5,48,5,8,0.3,0.7
2025-03-11T1500,1095A,111.7276,40.8062,呼和浩特市,二十九中,颗粒物(PM10),500,684,322,84,77,93,,74,74,8,40,2,6,0.8,1.2
2025-03-11T1500,1096A,111.5512,40.7866,呼和浩特市,工大金川校区,颗粒物(PM10),495,595,322,71,81,87,,66,66,7,46,5,9,0.4,0.8
2025-03-11T1500,1097A,111.717,40.7612,呼和浩特市,化肥厂生活区,颗粒物(PM10),382,485,289,67,79,92,,61,61,8,46,5,10,0.3,0.7
2025-03-11T1500,3698A,111.5968,40.8178,呼和浩特市,红旗小学,颗粒物(PM10),405,505,343,61,81,90,,14,,8,56,3,9,,0.8
2025-03-11T1500,3699A,111.6518,40.8389,呼和浩特市,海东办,颗粒物(PM10),303,422,310,65,75,91,,82,82,3,45,4,9,0.4,0.9
2025-03-11T1500,2192A,119.7594,49.2261,呼伦贝尔市,区环保局,,32,32,35,16,21,94,,88,88,10,15,7,6,0.5,0.5
2025-03-11T1500,3061A,119.7512,49.1577,呼伦贝尔市,国华电力东,,30,29,34,10,17,96,,95,95,6,7,5,5,0.3,0.5
2025-03-11T1500,1250A,120.0751,30.8669,湖州市,城西水厂,细颗粒物(PM2.5),92,90,104,68,72,118,,59,59,30,58,8,8,0.5,0.6
2025-03-11T1500,2873A,120.0830,30.8929,湖州市,仁皇山新区,细颗粒物(PM2.5),84,99,100,62,65,132,,56,56,30,53,5,5,0.8,0.7
2025-03-11T1500,2907A,120.1844,30.8596,湖州市,吴兴区站,细颗粒物(PM2.5),90,93,103,67,75,117,,63,63,27,50,8,8,0.6,0.6
2025-03-11T1500,3562A,120.4148,30.8538,湖州市,南浔区站,细颗粒物(PM2.5),60,68,100,43,69,109,,61,61,24,50,4,4,0.6,0.6
2025-03-11T1500,1607A,120.9049,40.7211,葫芦岛市,龙港区,细颗粒物(PM2.5),114,,78,86,74,85,,86,72,19,17,9,7,0.8,0.7
2025-03-11T1500,1608A,120.8392,40.7514,葫芦岛市,化工街,细颗粒物(PM2.5),92,100,96,68,72,92,,78,71,25,22,12,11,0.7,0.6
2025-03-11T1500,1609A,120.8341,40.7073,葫芦岛市,新区,细颗粒物(PM2.5),108,,74,81,75,104,,92,80,26,21,9,8,1.0,0.9
2025-03-11T1500,1610A,120.8695,40.7677,葫芦岛市,东城区,细颗粒物(PM2.5),100,,53,75,79,84,,76,69,31,26,8,7,0.8,0.7
2025-03-11T1500,2482A,109.5981,27.5721,怀化市,林科所,,14,14,20,7,13,27,,22,22,5,17,3,4,1.0,0.9
2025-03-11T1500,2483A,109.9453,27.5444,怀化市,河西地税局,,30,23,28,21,24,22,,13,13,6,20,7,7,0.5,0.5
2025-03-11T1500,2484A,109.9781,27.5342,怀化市,市四医院,,34,34,39,20,26,20,,12,12,7,22,2,3,0.5,0.7
2025-03-11T1500,2485A,109.9972,27.5578,怀化市,监测楼,,,21,29,16,22,40,,17,17,8,20,,7,0.3,0.5
2025-03-11T1500,2486A,110.0394,27.583,怀化市,市委党校,,23,19,26,16,24,32,,21,21,8,18,6,6,0.7,0.8
2025-03-11T1500,1210A,119.036,33.5981,淮安市,钵池山,细颗粒物(PM2.5),137,119,76,104,72,120,,72,72,23,20,8,7,0.9,0.7
2025-03-11T1500,1211A,119.007,33.575,淮安市,北京南路,细颗粒物(PM2.5),137,,65,104,66,119,,72,72,29,23,7,7,0.8,0.7
2025-03-11T1500,1212A,118.989,33.6067,淮安市,市监测站,细颗粒物(PM2.5),140,110,71,107,72,122,,68,68,28,25,8,7,0.7,0.6
2025-03-11T1500,1213A,119.135,33.5039,淮安市,楚州区监测站,细颗粒物(PM2.5),143,125,77,109,65,130,,74,74,35,28,8,7,0.6,0.4
2025-03-11T1500,3426A,118.8755,33.2894,淮安市,新华书店,细颗粒物(PM2.5),117,98,83,88,71,120,,69,69,24,27,8,7,1.1,0.9
2025-03-11T1500,4206A,119.0288,33.6319,淮安市,承德北路606号,细颗粒物(PM2.5),125,134,86,95,65,128,,72,72,28,27,6,6,0.8,0.6
2025-03-11T1500,2282A,116.8004,33.975,淮北市,监测站,细颗粒物(PM2.5),98,73,102,73,80,102,,66,66,16,24,6,6,0.8,0.8
2025-03-11T1500,2283A,116.8091,33.9007,淮北市,烈山区政府,细颗粒物(PM2.5),92,78,101,68,82,106,,67,67,21,27,6,5,0.8,0.8
2025-03-11T1500,3330A,116.8873,33.9836,淮北市,杜集区检察院,细颗粒物(PM2.5),104,81,95,78,80,99,,64,64,18,24,5,5,0.9,0.8
2025-03-11T1500,4017A,116.7923,33.9535,淮北市,市博物馆,细颗粒物(PM2.5),77,63,103,56,79,106,,68,68,16,23,9,8,0.9,0.9
2025-03-11T1500,2277A,116.8305,32.7727,淮南市,潘集区政府,细颗粒物(PM2.5),119,114,120,90,92,162,,88,88,21,38,10,10,0.6,0.6
2025-03-11T1500,2279A,116.8569,32.5951,淮南市,谢家集区政府,细颗粒物(PM2.5),68,51,98,49,70,129,,79,79,10,25,6,8,0.3,0.4
2025-03-11T1500,2280A,116.8281,32.633,淮南市,八公山区政府,,,94,99,62,65,197,,99,99,16,22,8,5,,0.5
2025-03-11T1500,2281A,116.6325,32.6201,淮南市,焦岗湖风景区管理处,细颗粒物(PM2.5),62,71,91,44,59,73,,43,43,8,24,5,5,0.3,0.3
2025-03-11T1500,2894A,117.0566,32.6531,淮南市,经济技术开发区消防队,细颗粒物(PM2.5),73,81,87,53,68,125,,77,77,16,31,5,6,0.5,0.5
2025-03-11T1500,3329A,117.0108,32.5893,淮南市,山南新区,细颗粒物(PM2.5),69,62,81,50,63,129,,80,80,7,14,7,8,0.5,0.6
2025-03-11T1500,4209A,117.0031,32.6445,淮南市,国庆中路369号,细颗粒物(PM2.5),110,92,94,83,66,139,,84,84,38,30,11,8,0.4,0.4
2025-03-11T1500,2446A,114.9028,30.4742,黄冈市,职工中心,,49,41,64,34,53,42,,37,37,25,26,9,7,0.7,0.7
2025-03-11T1500,2929A,114.8858,30.4519,黄冈市,红卫路,细颗粒物(PM2.5),52,47,71,36,57,51,,40,40,24,26,9,9,0.8,0.8
2025-03-11T1500,3398A,114.9136,30.4445,黄冈市,市林业局,细颗粒物(PM2.5),53,47,70,37,56,45,,35,35,22,28,7,11,0.7,0.8
2025-03-11T1500,2672A,102.0199,35.5102,黄南藏族自治州,同仁县隆务镇,颗粒物(PM10),123,195,87,58,25,100,,72,72,4,7,10,14,0.3,0.3
2025-03-11T1500,2295A,118.2903,29.6963,黄山市,延安路89号,细颗粒物(PM2.5),65,55,57,47,51,40,,27,27,13,14,4,4,0.9,0.9
2025-03-11T1500,2297A,118.1371,30.2756,黄山市,黄山区政府5号楼,,23,19,32,11,18,71,,40,40,4,8,7,7,0.4,0.4
2025-03-11T1500,4210A,118.3354,29.7203,黄山市,滨江东路7-2号,细颗粒物(PM2.5),67,71,71,48,54,25,,21,21,18,19,5,4,0.7,0.7
2025-03-11T1500,2423A,115.0601,30.2313,黄石市,沈家营,颗粒物(PM10),57,63,74,36,44,27,,25,25,36,34,12,14,1.1,1
2025-03-11T1500,2426A,114.8988,30.2019,黄石市,铁山,细颗粒物(PM2.5),62,46,58,44,55,41,,33,33,20,24,17,16,1.1,1.2
2025-03-11T1500,2427A,115.0307,30.2092,黄石市,团城山,细颗粒物(PM2.5),54,47,71,38,47,27,,29,29,44,35,17,15,1.3,0.9
2025-03-11T1500,3149A,115.0235,30.1578,黄石市,笔架山北路,颗粒物(PM10),51,51,63,32,51,38,,30,30,26,26,11,12,1.0,1
2025-03-11T1500,4185A,115.0780,30.21118,黄石市,磁湖东路29号,细颗粒物(PM2.5),70,74,78,51,59,15,,27,27,41,30,17,12,2.4,1.2
2025-03-11T1500,1392A,114.4183,23.0528,惠州市,河南岸金山湖子站,,31,25,42,14,25,98,,76,76,13,27,9,9,0.5,0.7
2025-03-11T1500,1393A,114.4053,23.0822,惠州市,下埔横江三路子站,,35,28,47,14,26,112,,83,83,12,30,9,9,0.6,0.7
2025-03-11T1500,1394A,114.4103,23.1142,惠州市,江北云山西路子站,,36,25,45,12,24,113,,87,87,9,28,9,9,0.5,0.6
2025-03-11T1500,1395A,114.4645,22.7833,惠州市,惠阳区承修路船湖子站,,30,24,48,12,23,95,,70,70,11,27,9,9,0.5,0.6
2025-03-11T1500,1396A,114.5317,22.7422,惠州市,大亚湾管委会子站,,,,43,,19,110,,78,78,16,29,6,7,,0.6
2025-03-11T1500,3314A,114.4338,22.8134,惠州市,惠阳秋长,,30,19,45,11,23,94,,77,77,12,28,8,11,0.5,0.7
2025-03-11T1500,3452A,114.6517,22.775,惠州市,大亚湾霞涌,,32,25,39,18,19,100,,69,69,29,29,9,8,0.7,0.6
2025-03-11T1500,2240A,130.9762,45.3001,鸡西市,环保局,颗粒物(PM10),57,63,94,36,57,112,,114,107,8,10,5,6,0.5,0.5
2025-03-11T1500,2243A,130.9429,45.3039,鸡西市,第一中学,,46,46,88,31,53,114,,115,109,8,11,5,6,0.3,0.3
2025-03-11T1500,3707A,131.0207,45.3073,鸡西市,欧美日汽修厂,颗粒物(PM10),54,57,97,32,62,119,,119,112,8,10,2,4,0.2,0.3
2025-03-11T1500,3709A,130.9967,45.3106,鸡西市,市政设施管理处,颗粒物(PM10),58,66,102,28,56,108,,108,104,8,11,4,5,0.3,0.4
2025-03-11T1500,2367A,114.9754,27.0803,吉安市,红声器材厂,,47,47,36,24,21,68,,34,34,21,22,18,14,0.8,0.8
2025-03-11T1500,2368A,114.9658,27.0999,吉安市,市森林工业局,细颗粒物(PM2.5),52,50,28,36,20,58,,34,34,32,28,17,13,0.6,0.6
2025-03-11T1500,2369A,114.99,27.1312,吉安市,市环境监测站,,38,38,32,24,21,47,,29,29,27,22,21,19,0.6,0.6
2025-03-11T1500,2370A,115.0093,27.0968,吉安市,青原区法院,,,,31,,22,,,35,,,23,,13,,0.7
2025-03-11T1500,1772A,126.54,43.8622,吉林市,哈达湾,细颗粒物(PM2.5),65,69,85,47,51,137,,118,118,14,17,7,8,0.8,0.9
2025-03-11T1500,1773A,126.5844,43.8358,吉林市,东局子,细颗粒物(PM2.5),63,60,78,45,50,134,,118,118,16,18,6,6,0.5,0.6
2025-03-11T1500,1774A,126.5052,43.8245,吉林市,电力学院,细颗粒物(PM2.5),64,60,80,46,53,134,,116,116,14,16,8,4,0.4,0.4
2025-03-11T1500,1775A,126.6133,43.8972,吉林市,江北,细颗粒物(PM2.5),64,71,86,46,53,132,,122,122,13,16,8,14,0.7,0.8
2025-03-11T1500,1776A,126.555,43.8306,吉林市,江南公园,细颗粒物(PM2.5),70,63,80,51,50,133,,116,116,12,15,6,7,0.5,0.6
2025-03-11T1500,1778A,126.7061,43.7133,吉林市,丰满,细颗粒物(PM2.5),75,58,63,55,54,152,,136,136,16,14,6,6,0.8,0.8
2025-03-11T1500,2868A,126.4739,43.953,吉林市,九站,细颗粒物(PM2.5),67,69,82,48,52,132,,118,118,12,19,8,8,0.6,0.6
2025-03-11T1500,1299A,116.9862,36.6114,济南市,科干所,细颗粒物(PM2.5),83,95,87,61,49,134,,126,126,20,20,7,6,0.6,0.5
2025-03-11T1500,1300A,116.9376,36.665,济南市,农科所,颗粒物(PM10),73,95,96,51,50,130,,118,118,13,18,7,7,0.8,0.8
2025-03-11T1500,1301A,117.1265,36.6734,济南市,开发区,细颗粒物(PM2.5),80,83,84,59,56,133,,124,124,15,17,6,7,0.6,0.6
2025-03-11T1500,1303A,117.0624,36.6868,济南市,省种子仓库,细颗粒物(PM2.5),89,97,94,66,58,136,,126,126,18,20,5,4,0.8,0.7
2025-03-11T1500,1304A,116.9489,36.6447,济南市,机床二厂,细颗粒物(PM2.5),92,95,94,68,62,135,,124,124,17,21,9,9,0.8,0.8
2025-03-11T1500,1305A,117.0495,36.663,济南市,市监测站,细颗粒物(PM2.5),92,90,88,68,59,125,,118,118,21,22,8,8,0.6,0.5
2025-03-11T1500,1306A,116.7675,36.5484,济南市,长清党校,细颗粒物(PM2.5),89,98,93,66,60,135,,119,119,28,28,5,6,0.8,0.7
2025-03-11T1500,1616A,117.6795,36.229,济南市,技术学院,细颗粒物(PM2.5),122,112,109,92,82,126,,92,92,30,39,10,11,1.0,1
2025-03-11T1500,1961A,117.532,36.6868,济南市,东山小学,细颗粒物(PM2.5),74,93,102,54,64,130,,114,114,21,26,6,8,0.7,0.8
2025-03-11T1500,3059A,117.7161,36.2049,济南市,泰兴公司,细颗粒物(PM2.5),128,114,124,97,94,130,,89,89,22,39,8,9,0.6,0.9
2025-03-11T1500,3064A,117.6867,36.2171,济南市,莱芜战役纪念馆,细颗粒物(PM2.5),107,117,121,80,80,126,,91,91,23,33,6,6,0.9,1
2025-03-11T1500,3494A,117.1673,36.9782,济南市,济阳区政府,细颗粒物(PM2.5),74,78,97,54,60,113,,95,95,11,23,11,11,0.5,0.5
2025-03-11T1500,3495A,117.1171,36.63,济南市,锦屏中学,细颗粒物(PM2.5),64,73,79,46,53,128,,119,119,16,19,8,8,0.6,0.5
2025-03-11T1500,3682A,116.9814,36.6819,济南市,济南四建,细颗粒物(PM2.5),74,75,77,54,51,130,,120,120,18,22,6,5,0.5,0.4
2025-03-11T1500,1653A,116.6251,35.4302,济宁市,火炬城,细颗粒物(PM2.5),178,,93,134,99,108,,73,73,18,17,12,11,1.0,0.9
2025-03-11T1500,1655A,116.5491,35.4042,济宁市,电化厂,细颗粒物(PM2.5),160,141,116,122,93,107,,79,72,20,16,10,10,1.2,1
2025-03-11T1500,3500A,116.5814,35.3707,济宁市,北湖一中,细颗粒物(PM2.5),140,121,92,107,81,100,,77,68,27,24,10,9,1.0,0.9
2025-03-11T1500,3501A,116.8249,35.5593,济宁市,服务中心,细颗粒物(PM2.5),120,106,113,91,73,136,,86,86,20,28,6,6,0.9,0.8
2025-03-11T1500,3678A,116.5907,35.4054,济宁市,市第七中学,细颗粒物(PM2.5),149,115,91,114,84,109,,77,77,30,28,5,4,0.9,0.8
2025-03-11T1500,2255A,130.2751,46.8028,佳木斯市,佳纺,,,,95,,38,90,,81,81,4,13,5,6,0.2,0.4
2025-03-11T1500,2256A,130.3995,46.8307,佳木斯市,发电厂,,31,21,89,10,36,98,,89,89,8,16,2,4,0.5,0.6
2025-03-11T1500,2257A,130.3258,46.7975,佳木斯市,环保局,,30,27,92,12,37,96,,85,85,6,12,2,3,0.2,0.3
2025-03-11T1500,2258A,130.3648,46.8032,佳木斯市,十一中,,30,24,99,14,42,96,,86,86,18,22,4,7,0.4,0.6
2025-03-11T1500,2259A,130.3794,46.7588,佳木斯市,四丰,,28,21,78,9,35,89,,83,83,4,7,1,1,0.5,0.7
2025-03-11T1500,1252A,120.7436,30.778,嘉兴市,清河小学,颗粒物(PM10),52,53,69,34,54,105,,50,50,24,44,4,4,0.0,0.5
2025-03-11T1500,1253A,120.726,30.7478,嘉兴市,嘉兴学院,细颗粒物(PM2.5),58,59,83,41,55,93,,51,51,28,51,8,8,0.5,0.6
2025-03-11T1500,2872A,120.7846,30.7525,嘉兴市,南湖区残联,,49,49,68,32,52,122,,62,62,24,47,9,9,0.5,0.5
2025-03-11T1500,3407A,120.6916,30.7739,嘉兴市,秀洲住建,颗粒物(PM10),67,83,110,28,44,106,,58,58,26,50,5,6,0.6,0.6
2025-03-11T1500,1945A,98.2908,39.7711,嘉峪关市,气象局,颗粒物(PM10),120,190,561,46,79,111,,90,90,5,11,4,13,0.2,0.5
2025-03-11T1500,2884A,98.2672,39.7978,嘉峪关市,酒钢宾馆,颗粒物(PM10),112,173,587,46,82,107,,83,83,5,11,6,17,0.2,0.3
2025-03-11T1500,3248A,98.2643,39.7724,嘉峪关市,雄关区,颗粒物(PM10),94,138,394,34,60,111,,88,88,8,14,5,8,0.3,0.5
2025-03-11T1500,1383A,113.1064,22.6058,江门市,北街,,34,22,40,17,19,107,,85,85,10,23,3,3,0.5,0.6
2025-03-11T1500,1384A,113.0731,22.5835,江门市,西区,,41,36,50,24,21,129,,97,97,15,33,6,6,0.4,0.5
2025-03-11T1500,1385A,113.0219,22.5311,江门市,圭峰西,,50,50,41,19,18,109,,98,98,14,20,5,4,0.4,0.5
2025-03-11T1500,1386A,113.0828,22.5947,江门市,东湖,,44,44,40,21,24,128,,97,97,12,24,7,7,0.3,0.5
2025-03-11T1500,3311A,113.1075,22.5647,江门市,江海富民,,48,48,66,30,30,120,,89,89,8,24,6,7,0.2,0.3
2025-03-11T1500,3449A,113.05,22.4667,江门市,新会银湖,,33,20,43,15,23,104,,82,82,11,31,1,2,0.4,0.5
2025-03-11T1500,1830A,113.1992,35.2590,焦作市,影视城,,,,74,,45,,,,,,7,,10,,0.5
2025-03-11T1500,3169A,113.2725,35.2067,焦作市,太极体育中心,细颗粒物(PM2.5),128,143,114,97,72,95,,61,61,26,27,11,9,1.1,0.8
2025-03-11T1500,3335A,113.3137,35.2641,焦作市,马村街道办,细颗粒物(PM2.5),127,120,99,96,71,92,,61,61,26,24,14,9,1.2,0.8
2025-03-11T1500,3336A,113.2465,35.2373,焦作市,焦作技师学院,细颗粒物(PM2.5),113,136,99,85,60,96,,69,69,37,27,10,8,1.3,0.9
2025-03-11T1500,3477A,113.1656,35.2539,焦作市,中站许衡医院,细颗粒物(PM2.5),125,149,98,95,67,84,,79,70,35,25,17,10,1.2,0.8
2025-03-11T1500,3981A,113.2449,35.1803,焦作市,原李万街道办,细颗粒物(PM2.5),113,136,108,85,60,,,55,55,24,26,11,13,0.7,0.4
2025-03-11T1500,4264A,113.2340,35.2190,焦作市,新安路1731号,细颗粒物(PM2.5),135,143,107,103,69,96,,64,64,27,23,11,8,1.2,0.8
2025-03-11T1500,1708A,116.3701,23.5345,揭阳市,新兴,,40,31,55,21,37,126,,81,81,12,30,9,9,0.8,0.9
2025-03-11T1500,1709A,116.3264,23.5443,揭阳市,西马,,43,36,53,14,36,135,,89,89,8,23,10,11,0.7,0.8
2025-03-11T1500,1710A,116.3611,23.5626,揭阳市,东兴,颗粒物(PM10),56,62,66,31,39,137,,85,85,12,27,8,9,0.7,0.8
2025-03-11T1500,1711A,116.4151,23.5294,揭阳市,渔湖,,45,33,55,26,27,143,,86,86,6,23,10,10,1.0,0.9
2025-03-11T1500,3320A,116.403,23.5699,揭阳市,曲溪,,49,39,58,34,29,134,,78,78,12,30,6,10,0.6,0.8
2025-03-11T1500,1944A,102.1692,38.5167,金昌市,天庆家园,颗粒物(PM10),100,149,384,44,72,92,,84,73,4,10,5,8,0.6,0.7
2025-03-11T1500,4022A,102.1647,38.5371,金昌市,金川区人防中心,颗粒物(PM10),122,194,528,47,62,89,,92,79,3,8,10,14,0.5,0.6
2025-03-11T1500,4239A,102.1930,38.5319,金昌市,长春路96号,颗粒物(PM10),74,97,215,51,78,90,,82,76,5,9,8,14,0.7,0.5
2025-03-11T1500,1262A,119.647,29.077,金华市,十五中,细颗粒物(PM2.5),93,83,105,69,84,67,,39,39,59,64,6,6,1.0,1
2025-03-11T1500,1263A,119.686,29.1029,金华市,监测站,细颗粒物(PM2.5),88,87,102,65,86,90,,37,37,44,67,5,5,0.7,0.7
2025-03-11T1500,3659A,119.656,29.1131,金华市,气象局,细颗粒物(PM2.5),68,84,105,49,76,74,,34,34,43,61,5,5,0.8,0.9
2025-03-11T1500,1767A,121.1115,41.0879,锦州市,南山,细颗粒物(PM2.5),118,,81,89,92,106,,77,72,27,24,19,22,0.8,0.7
2025-03-11T1500,1768A,121.0604,40.8428,锦州市,开发区,细颗粒物(PM2.5),94,107,73,70,72,81,,74,69,26,26,9,8,0.8,0.8
2025-03-11T1500,1769A,121.1836,41.1119,锦州市,百股街道,细颗粒物(PM2.5),85,71,70,63,66,94,,74,72,26,23,9,9,0.7,0.6
2025-03-11T1500,1770A,121.1178,41.1222,锦州市,天安街道,细颗粒物(PM2.5),112,85,84,84,93,112,,82,76,27,24,18,21,0.9,0.8
2025-03-11T1500,1771A,121.1303,41.1386,锦州市,北湖公园,细颗粒物(PM2.5),113,95,92,85,91,107,,75,75,29,28,17,19,0.8,0.9
2025-03-11T1500,2160A,112.85,35.5051,晋城市,自来水公司,颗粒物(PM10),71,91,102,48,57,92,,59,59,24,30,10,9,1.1,1.1
2025-03-11T1500,2161A,112.8318,35.4936,晋城市,白云商贸,,,,108,,53,104,,67,67,22,33,9,7,1.0,1
2025-03-11T1500,2162A,112.8508,35.4887,晋城市,市环保局,颗粒物(PM10),70,90,111,46,57,97,,59,59,23,36,10,7,1.1,0.9
2025-03-11T1500,2163A,112.8676,35.4897,晋城市,技术学院,颗粒物(PM10),73,95,111,46,55,85,,52,52,27,38,12,9,1.6,1.4
2025-03-11T1500,2165A,112.8453,35.546,晋城市,白马寺,细颗粒物(PM2.5),79,69,83,58,55,101,,96,82,14,13,8,6,0.8,1
2025-03-11T1500,3620A,112.8271,35.4828,晋城市,泽州一中,颗粒物(PM10),77,103,107,48,61,100,,59,59,21,32,13,10,1.0,1.1
2025-03-11T1500,2173A,112.7249,37.7067,晋中市,南都小区,颗粒物(PM10),89,127,139,53,86,74,,38,38,28,32,12,10,1.4,1.1
2025-03-11T1500,2174A,112.6991,37.6982,晋中市,榆次区政府,颗粒物(PM10),92,134,146,46,81,76,,48,48,33,37,11,9,0.9,1.1
2025-03-11T1500,2865A,112.7195,37.6828,晋中市,榆次三中,颗粒物(PM10),97,144,144,53,88,77,,35,,30,37,10,8,0.8,0.8
2025-03-11T1500,4200A,112.7478,37.6954,晋中市,迎宾街26号,颗粒物(PM10),103,156,144,53,88,81,,57,57,30,31,13,7,0.6,0.7
2025-03-11T1500,2439A,112.2014,31.0481,荆门市,竹园小学,细颗粒物(PM2.5),104,100,95,78,74,55,,36,35,21,20,6,7,0.6,0.5
2025-03-11T1500,2440A,112.1969,30.9891,荆门市,掇刀,细颗粒物(PM2.5),94,91,88,70,67,74,,44,44,18,21,4,6,0.5,0.5
2025-03-11T1500,2441A,112.2213,31.0386,荆门市,石化一小,,,105,93,,77,57,,34,34,21,26,7,10,0.3,0.3
2025-03-11T1500,3012A,112.1849,31.0362,荆门市,西山林语,细颗粒物(PM2.5),95,92,78,71,60,60,,41,41,24,18,7,5,0.5,0.4
2025-03-11T1500,3547A,112.1632,31.0138,荆门市,龙泉中学南校,细颗粒物(PM2.5),87,91,73,64,55,57,,37,37,22,17,7,8,0.6,0.6
2025-03-11T1500,1844A,112.2494,30.3197,荆州市,市图书馆,细颗粒物(PM2.5),78,72,55,57,47,48,,29,29,27,24,5,7,1.0,0.9
2025-03-11T1500,1845A,112.2008,30.3544,荆州市,市委党校,细颗粒物(PM2.5),89,78,62,66,51,44,,26,26,28,24,7,8,0.9,0.9
2025-03-11T1500,3194A,112.2747,30.3122,荆州市,管委会,细颗粒物(PM2.5),84,80,61,62,50,46,,31,31,21,24,9,12,0.7,1
2025-03-11T1500,4268A,112.1722,30.3366,荆州市,学苑路85号,细颗粒物(PM2.5),92,,51,68,54,48,,32,32,22,19,9,10,0.9,0.9
2025-03-11T1500,2342A,117.3102,29.3867,景德镇市,王港中学,,,,,,,,,,,,,,,,
2025-03-11T1500,2343A,117.2117,29.2933,景德镇市,老干部活动中心,,26,22,27,18,26,27,,21,17,10,13,4,4,0.4,0.5
2025-03-11T1500,2344A,117.1894,29.2789,景德镇市,兽医站,,28,28,36,14,20,22,,16,13,16,16,5,4,0.5,0.6
2025-03-11T1500,2345A,117.1547,29.2617,景德镇市,台达陶瓷,,31,31,40,16,26,26,,20,19,11,27,14,39,0.5,0.6
2025-03-11T1500,2346A,117.2461,29.2956,景德镇市,陶研所,,36,36,27,14,26,26,,17,14,13,17,5,6,0.7,0.6
2025-03-11T1500,1803A,115.9872,29.6815,九江市,十里,,48,45,53,33,39,30,,23,23,36,33,5,2,0.8,0.7
2025-03-11T1500,1804A,115.9584,29.7046,九江市,茅山头,,38,38,48,23,36,28,,19,19,38,32,8,8,0.7,0.5
2025-03-11T1500,1805A,115.9877,29.7295,九江市,西园,,42,38,50,29,38,34,,27,27,43,35,11,11,0.9,0.8
2025-03-11T1500,1808A,115.9114,29.6038,九江市,综合工业园,,49,,45,34,43,36,,38,36,43,33,9,6,0.8,0.9
2025-03-11T1500,1809A,116.0721,29.7535,九江市,石化总厂,细颗粒物(PM2.5),52,37,47,36,47,66,,50,43,13,20,10,8,0.8,0.8
2025-03-11T1500,1810A,115.9773,29.5698,九江市,庐山气象台,,23,,6,16,6,72,,69,67,5,5,6,6,0.6,0.8
2025-03-11T1500,3190A,116.0254,29.6994,九江市,外国语学校,颗粒物(PM10),51,51,44,35,39,53,,31,28,23,27,10,8,0.5,0.5
2025-03-11T1500,4253A,116.0102,29.6594,九江市,莲花大道8号,细颗粒物(PM2.5),72,76,54,52,56,29,,21,21,40,21,8,6,0.8,0.6
2025-03-11T1500,4240A,98.4958,39.7339,酒泉市,玉门东路5号,颗粒物(PM10),147,244,477,50,69,109,,80,80,2,6,8,8,0.3,0.3
2025-03-11T1500,4241A,98.5099,39.7506,酒泉市,北大街108号,颗粒物(PM10),144,237,347,47,64,98,,73,73,5,8,8,8,0.3,0.3
2025-03-11T1500,2698A,76.0072,39.4467,喀什地区,巡警大队,颗粒物(PM10),89,127,65,24,17,99,,66,66,9,29,4,4,0.3,0.7
2025-03-11T1500,2699A,75.9755,39.4694,喀什地区,吾办,颗粒物(PM10),84,118,76,33,25,97,,62,62,12,34,6,7,0.5,0.8
2025-03-11T1500,4027A,75.9483,39.4689,喀什地区,老干局,颗粒物(PM10),89,127,90,24,23,85,,64,64,32,31,4,5,0.7,0.9
2025-03-11T1500,1824A,114.3389,34.7781,开封市,肿瘤医院,细颗粒物(PM2.5),98,85,81,73,69,94,,69,69,17,22,6,5,0.9,0.9
2025-03-11T1500,1826A,114.2885,34.7965,开封市,世纪星幼儿园,细颗粒物(PM2.5),103,,71,77,72,105,,76,76,21,23,8,7,0.9,0.9
2025-03-11T1500,3147A,114.3438,34.8106,开封市,龙亭公园,细颗粒物(PM2.5),95,76,76,71,67,100,,73,73,20,23,3,2,0.5,0.6
2025-03-11T1500,3210A,114.3644,34.7964,开封市,汴京公园,细颗粒物(PM2.5),102,78,91,76,71,96,,68,68,17,27,5,5,0.7,0.8
2025-03-11T1500,3473A,114.2485,34.8306,开封市,技师学院,细颗粒物(PM2.5),94,82,73,70,66,98,,71,71,18,17,8,7,1.0,0.9
2025-03-11T1500,3592A,114.4644,34.7556,开封市,祥符区生态环境局,细颗粒物(PM2.5),89,90,97,66,73,98,,73,73,16,30,5,4,0.6,0.6
2025-03-11T1500,1951A,84.895,45.6094,克拉玛依市,长征新村,,32,32,21,10,8,75,,58,58,10,9,7,6,0.3,0.3
2025-03-11T1500,1952A,84.8988,45.5893,克拉玛依市,南林小区,,38,38,20,8,9,76,,55,52,14,14,3,3,0.3,0.4
2025-03-11T1500,1954A,84.905,44.3396,克拉玛依市,独山子区,颗粒物(PM10),66,81,35,12,8,81,,67,67,5,11,6,6,0.1,0.2
2025-03-11T1500,1955A,85.6979,46.098,克拉玛依市,乌尔禾区商贸楼,,32,32,17,19,10,81,,63,60,5,8,4,4,0.3,0.4
2025-03-11T1500,3612A,85.1045,45.6899,克拉玛依市,白碱滩区新站,,31,31,26,3,6,74,,63,47,8,9,8,7,0.4,0.4
2025-03-11T1500,2697A,76.1454,39.7142,克孜勒苏柯尔克孜自治州,市人民政府,颗粒物(PM10),87,123,50,28,14,116,,88,87,2,8,5,4,0.1,0.1
2025-03-11T1500,3665A,76.1658,39.7157,克孜勒苏柯尔克孜自治州,克州文化中心,颗粒物(PM10),87,124,51,30,15,112,,88,88,1,11,5,4,0.4,0.5
2025-03-11T1500,1450A,102.8204,24.8886,昆明市,呈贡新区,,43,41,50,30,36,125,,120,120,9,15,6,7,0.5,0.6
2025-03-11T1500,1451A,102.6251,24.9608,昆明市,西山森林公园,,,,,,,,,,,,,,,,
2025-03-11T1500,1452A,102.7252,25.0902,昆明市,龙泉镇,,39,,48,21,32,124,,116,116,8,37,8,8,0.4,0.6
2025-03-11T1500,1453A,102.7266,25.0375,昆明市,东风东路,,39,39,50,23,36,119,,115,115,11,22,8,11,0.4,0.6
2025-03-11T1500,1454A,102.6742,25.0669,昆明市,金鼎山,,46,46,52,14,32,121,,105,105,10,33,3,3,0.6,0.7
2025-03-11T1500,1455A,102.6644,25.0401,昆明市,碧鸡广场,,40,30,53,21,37,125,,103,103,8,36,7,10,0.3,0.5
2025-03-11T1500,3179A,102.7494,25.0119,昆明市,官渡区博物馆,,50,50,54,19,32,126,,121,121,9,22,9,11,0.2,0.5
2025-03-11T1500,3375A,102.8017,24.8336,昆明市,青年创业园,,43,37,52,30,33,126,,125,125,5,18,7,10,0.4,0.5
2025-03-11T1500,3550A,102.7997,24.9786,昆明市,昆明学院,,42,40,50,24,33,132,,122,122,8,14,5,7,0.4,0.5
2025-03-11T1500,3551A,102.5967,24.6736,昆明市,晋宁区生态环境分局,,,,33,17,31,112,,115,115,27,22,6,6,0.2,0.4
2025-03-11T1500,3552A,102.6678,24.9856,昆明市,云天化总部,,41,34,49,20,32,130,,118,118,8,23,8,10,0.3,0.5
2025-03-11T1500,1456A,91.1319,29.6514,拉萨市,八廓街,,34,10,27,9,12,107,,80,80,6,21,6,6,0.5,0.8
2025-03-11T1500,1457A,91.1221,29.6747,拉萨市,市环保局,,32,11,35,7,14,101,,89,89,11,21,6,7,0.3,0.6
2025-03-11T1500,1458A,91.0874,29.6475,拉萨市,区监测站,,33,15,30,7,13,105,,87,87,7,22,6,6,0.7,0.8
2025-03-11T1500,1459A,91.1774,29.6541,拉萨市,西藏大学,,32,17,24,8,11,101,,78,78,7,17,5,5,0.5,0.6
2025-03-11T1500,1460A,90.9798,29.6588,拉萨市,区辐射站,,31,27,38,7,16,99,,87,87,12,25,7,8,0.4,0.5
2025-03-11T1500,1461A,91.0834,29.6292,拉萨市,拉萨火车站,,,8,29,8,12,103,,91,91,5,19,,6,0.4,0.6
2025-03-11T1500,2520A,109.2203,23.7256,来宾市,来宾技工学校,,40,40,53,23,43,64,,20,20,10,27,6,7,0.7,1.1
2025-03-11T1500,3535A,109.1781,23.7297,来宾市,兴宾区政府,细颗粒物(PM2.5),59,53,48,42,36,58,,21,21,8,24,6,6,0.7,1
2025-03-11T1500,4002A,109.2416,23.7461,来宾市,中南小学,细颗粒物(PM2.5),53,40,51,37,34,62,,22,22,10,25,8,8,0.9,1.2
2025-03-11T1500,1477A,104.1373,35.9454,兰州市,榆中兰大校区,,,,,,,,,,,,,,,,
2025-03-11T1500,1479A,103.831,36.0464,兰州市,铁路设计院,颗粒物(PM10),181,312,256,83,80,93,,81,81,16,59,8,10,0.4,1
2025-03-11T1500,3241A,103.7439,36.0842,兰州市,百合公园,颗粒物(PM10),208,355,342,76,73,89,,79,79,4,50,6,8,0.3,0.8
2025-03-11T1500,3242A,103.9611,35.998,兰州市,和平,颗粒物(PM10),213,359,368,96,87,93,,82,82,6,22,11,12,0.5,0.6
2025-03-11T1500,4236A,103.6293,36.0938,兰州市,庄浪东路808号,颗粒物(PM10),232,372,306,90,76,91,,80,80,15,41,8,8,0.4,0.5
2025-03-11T1500,4237A,103.7251,36.1043,兰州市,安宁西路88号,颗粒物(PM10),275,402,369,85,91,93,,81,81,5,45,7,9,0.3,0.7
2025-03-11T1500,4238A,103.8470,36.0676,兰州市,北滨河东路1号,颗粒物(PM10),184,318,325,58,76,94,,83,83,10,47,10,11,0.3,0.6
2025-03-11T1500,3245A,103.6633,36.533,兰州新区,新区管委会,颗粒物(PM10),161,271,283,65,81,95,,84,84,4,9,12,12,0.3,0.3
2025-03-11T1500,3246A,103.6975,36.4789,兰州新区,舟曲中学,颗粒物(PM10),401,501,416,102,84,95,,84,84,4,11,7,8,0.3,0.3
2025-03-11T1500,1067A,116.6708,39.5111,廊坊市,药材公司,细颗粒物(PM2.5),155,151,153,118,124,96,,80,80,24,37,4,4,0.7,0.8
2025-03-11T1500,1068A,116.7214,39.5589,廊坊市,开发区,细颗粒物(PM2.5),162,167,166,123,124,94,,84,84,24,35,4,4,0.6,0.7
2025-03-11T1500,1070A,116.7244,39.5269,廊坊市,北华航天学院,细颗粒物(PM2.5),163,151,159,124,119,92,,90,90,21,34,5,6,0.7,0.7
2025-03-11T1500,2919A,116.7022,39.5453,廊坊市,河北工业大学,细颗粒物(PM2.5),160,151,153,122,120,93,,84,84,24,32,7,8,0.6,0.7
2025-03-11T1500,2535A,103.7723,29.5462,乐山市,花湖湾,,,,76,,65,,,30,27,,30,,5,,0.6
2025-03-11T1500,2536A,103.7627,29.5844,乐山市,牛耳桥,细颗粒物(PM2.5),94,86,86,70,68,32,,27,24,30,37,9,10,0.8,0.8
2025-03-11T1500,2537A,103.7508,29.6006,乐山市,市第三水厂,细颗粒物(PM2.5),69,58,67,50,51,35,,29,26,25,26,4,5,0.7,0.7
2025-03-11T1500,2538A,103.7571,29.5664,乐山市,市监测站,细颗粒物(PM2.5),67,55,59,48,51,31,,30,25,22,25,5,6,1.0,0.9
2025-03-11T1500,3361A,103.7311,29.5628,乐山市,理工大学,细颗粒物(PM2.5),68,62,67,49,51,34,,29,25,29,28,7,7,0.6,0.6
2025-03-11T1500,2598A,100.2143,26.8576,丽江市,西南郊,,41,41,39,22,24,110,,128,128,5,5,5,15,0.8,1
2025-03-11T1500,2599A,100.2497,26.8802,丽江市,丽江古城,,36,33,38,25,26,105,,102,102,8,11,8,8,0.5,0.6
2025-03-11T1500,2600A,100.2203,26.8906,丽江市,市中心,,33,25,30,23,23,102,,103,103,8,8,7,6,0.7,0.7
2025-03-11T1500,1267A,119.914,28.4514,丽水市,监测站大楼,,37,37,40,20,28,91,,37,37,20,29,4,4,0.5,0.5
2025-03-11T1500,1268A,119.93,28.4586,丽水市,莲都小学,,,,53,16,33,90,,38,38,,34,4,4,0.5,0.5
2025-03-11T1500,1269A,119.879,28.4231,丽水市,余庄前,,31,30,45,19,33,99,,38,38,20,24,5,4,0.6,0.6
2025-03-11T1500,1173A,119.176,34.5885,连云港市,市环境监测站,细颗粒物(PM2.5),100,92,60,75,42,70,,64,61,30,23,8,8,0.4,0.4
2025-03-11T1500,3000A,119.3581,34.6972,连云港市,德源药业,细颗粒物(PM2.5),104,85,53,78,41,84,,61,61,30,24,8,8,0.6,0.6
2025-03-11T1500,3007A,119.178,34.844,连云港市,新城一中,细颗粒物(PM2.5),68,67,65,49,42,82,,63,63,39,50,7,7,0.6,0.6
2025-03-11T1500,3008A,119.3608,34.7519,连云港市,胡沟管理处,细颗粒物(PM2.5),79,66,43,58,32,97,,84,72,24,31,9,9,0.7,0.5
2025-03-11T1500,3009A,119.1478,34.5911,连云港市,矿山设计院,细颗粒物(PM2.5),94,105,66,70,43,66,,60,59,32,24,7,7,0.5,0.4
2025-03-11T1500,3434A,119.2413,34.6539,连云港市,工贸学校,细颗粒物(PM2.5),107,97,61,80,50,78,,74,72,29,17,8,8,0.8,0.8
2025-03-11T1500,3664A,119.4172,34.7341,连云港市,连云街道,细颗粒物(PM2.5),85,106,66,63,44,60,,78,54,55,31,8,8,0.7,0.7
2025-03-11T1500,2571A,102.3431,27.8099,凉山彝族自治州,青龙寺,,37,36,40,9,12,117,,105,105,2,10,5,5,0.6,0.7
2025-03-11T1500,2572A,102.2721,27.8415,凉山彝族自治州,邛海宾馆,,44,44,42,21,26,125,,115,115,4,11,10,15,0.4,0.7
2025-03-11T1500,2573A,102.2625,27.898,凉山彝族自治州,西昌市政府,,42,42,41,26,28,112,,102,102,7,11,16,18,0.7,0.9
2025-03-11T1500,2574A,102.2685,27.8851,凉山彝族自治州,凉山州政府,,38,38,42,22,27,116,,110,110,7,11,18,21,0.7,0.8
2025-03-11T1500,4229A,102.2342,27.8859,凉山彝族自治州,凯乐南路30号,,47,47,51,22,28,117,,104,104,10,15,14,17,0.8,0.9
2025-03-11T1500,2212A,123.2,41.1953,辽阳市,宏伟区,,42,39,39,29,41,106,,117,109,16,12,9,9,0.8,0.8
2025-03-11T1500,2213A,123.1683,41.2495,辽阳市,新华园,,45,42,48,31,45,104,,104,104,13,16,9,9,0.7,0.7
2025-03-11T1500,2214A,123.2354,41.2639,辽阳市,滨河路,,48,47,32,33,43,100,,106,101,18,16,7,12,0.6,0.6
2025-03-11T1500,2215A,123.149,41.2991,辽阳市,铁西工业园,颗粒物(PM10),55,59,57,35,45,107,,108,106,17,17,8,9,0.6,0.6
2025-03-11T1500,2227A,125.1358,42.8845,辽源市,环保局,,,53,50,36,33,143,,124,124,,28,,6,0.8,0.9
2025-03-11T1500,3239A,125.0764,42.9078,辽源市,银鹰制药,颗粒物(PM10),51,52,50,33,36,151,,128,128,12,15,6,6,0.9,0.9
2025-03-11T1500,1625A,115.9848,36.4372,聊城市,区政府,细颗粒物(PM2.5),90,97,116,67,75,121,,91,91,7,14,12,13,0.7,0.8
2025-03-11T1500,2878A,116.0072,36.4343,聊城市,聊大东校,,,100,123,61,78,123,,96,96,,22,8,8,0.8,0.6
2025-03-11T1500,3200A,115.9819,36.4978,聊城市,监控中心,细颗粒物(PM2.5),85,99,119,63,85,125,,96,96,12,18,12,12,0.9,1
2025-03-11T1500,3513A,116.0445,36.4361,聊城市,九州社区,细颗粒物(PM2.5),79,96,109,58,73,132,,100,100,7,14,11,10,0.6,0.7
2025-03-11T1500,4018A,116.0567,36.4608,聊城市,星美广场,颗粒物(PM10),76,101,119,53,70,128,,97,97,14,20,13,14,0.9,0.9
2025-03-11T1500,2632A,94.3681,29.6376,林芝市,林芝监测站,,37,22,21,8,12,116,,113,109,5,5,7,7,0.3,0.3
2025-03-11T1500,2633A,94.3616,29.6616,林芝市,林芝人民医院,,36,15,22,7,12,114,,109,103,2,3,7,6,0.2,0.2
2025-03-11T1500,2603A,100.0781,23.8982,临沧市,市环保局,细颗粒物(PM2.5),57,60,70,40,47,140,,93,93,10,16,11,11,0.5,0.6
2025-03-11T1500,2604A,100.0894,23.8822,临沧市,市气象局,,,58,62,36,46,142,,98,98,10,18,11,15,,0.7
2025-03-11T1500,1733A,111.5531,36.0783,临汾市,临钢医院,颗粒物(PM10),117,184,113,27,51,107,,59,59,11,31,9,9,0.5,0.8
2025-03-11T1500,1734A,111.5028,36.0714,临汾市,技工学校,颗粒物(PM10),82,113,106,41,61,101,,60,60,13,28,10,10,0.6,0.8
2025-03-11T1500,1736A,111.5018,36.0855,临汾市,市委,颗粒物(PM10),85,120,111,39,54,104,,62,62,11,25,9,9,0.7,1
2025-03-11T1500,3018A,111.505,36.1014,临汾市,唐尧大酒店,颗粒物(PM10),89,127,108,31,56,104,,61,61,15,28,8,9,0.5,0.8
2025-03-11T1500,4244A,111.4879,36.0530,临汾市,启星学校,颗粒物(PM10),74,97,94,53,63,102,,61,61,11,29,6,6,0.7,0.8
2025-03-11T1500,4271A,103.2464,35.6123,临夏回族自治州,滨河东路1号,颗粒物(PM10),78,106,106,8,18,95,,78,78,2,27,3,4,0.2,0.7
2025-03-11T1500,4310A,103.2093,35.5995,临夏回族自治州,新华街21号,,46,46,55,12,17,92,,78,78,7,22,8,10,0.3,0.8
2025-03-11T1500,1618A,118.3429,35.0532,临沂市,沂河小区,细颗粒物(PM2.5),147,129,98,112,78,63,,51,51,18,20,10,11,0.6,0.6
2025-03-11T1500,1619A,118.295,35.0583,临沂市,鲁南制药厂,细颗粒物(PM2.5),155,175,103,118,69,58,,52,52,38,36,12,13,0.4,0.4
2025-03-11T1500,1620A,118.2794,34.9976,临沂市,新光毛纺厂,细颗粒物(PM2.5),199,161,88,149,76,52,,46,46,28,32,12,8,0.7,0.7
2025-03-11T1500,1621A,118.3956,35.0888,临沂市,河东保险公司,细颗粒物(PM2.5),109,102,91,82,68,71,,55,55,30,39,3,4,0.7,0.7
2025-03-11T1500,3370A,118.3564,35.0215,临沂市,十里堡居委,细颗粒物(PM2.5),149,134,86,114,67,57,,48,48,24,26,10,10,0.7,0.6
2025-03-11T1500,3496A,118.3604,35.1084,临沂市,南坊新区,细颗粒物(PM2.5),117,95,87,88,70,67,,59,59,25,27,5,5,0.6,0.6
2025-03-11T1500,3860A,118.3920,35.0300,临沂市,皇山花园小区,细颗粒物(PM2.5),109,97,81,82,63,66,,51,51,21,27,4,5,0.5,0.5
2025-03-11T1500,1870A,109.4856,24.3895,柳州市,柳东小学,细颗粒物(PM2.5),53,45,34,37,24,28,,11,11,27,23,13,10,0.8,0.7
2025-03-11T1500,1871A,109.4157,24.3277,柳州市,环保监测站,细颗粒物(PM2.5),64,63,60,46,38,29,,9,9,38,30,10,10,1.1,1
2025-03-11T1500,1872A,109.389,24.341,柳州市,河西水厂,"颗粒物(PM10),细颗粒物(PM2.5)",60,69,64,43,35,28,,8,8,36,28,4,5,1.2,1.1
2025-03-11T1500,1873A,109.4311,24.2921,柳州市,市四中,颗粒物(PM10),65,79,58,39,33,53,,15,15,21,29,8,8,0.7,1
2025-03-11T1500,1874A,109.4006,24.3631,柳州市,市九中,细颗粒物(PM2.5),74,75,53,54,30,34,,12,12,31,23,7,7,1.1,1.1
2025-03-11T1500,1875A,109.4958,24.3134,柳州市,古亭山,颗粒物(PM10),51,51,45,33,28,41,,12,12,23,24,8,8,0.6,0.6
2025-03-11T1500,3402A,109.5422,24.3996,柳州市,市二中,细颗粒物(PM2.5),63,54,39,45,29,26,,8,8,31,26,16,15,0.7,0.7
2025-03-11T1500,2307A,116.5079,31.737,六安市,监测大楼,,50,45,73,35,62,126,,93,93,19,29,6,5,0.7,0.8
2025-03-11T1500,2308A,116.4738,31.7643,六安市,皖西学院,,50,48,82,35,64,132,,93,93,10,24,4,4,0.5,0.6
2025-03-11T1500,2309A,116.4996,31.7905,六安市,朝阳厂,颗粒物(PM10),53,56,80,34,63,133,,101,101,17,27,4,4,0.7,0.7
2025-03-11T1500,2310A,116.5567,31.7886,六安市,开发区,细颗粒物(PM2.5),53,50,83,37,51,136,,95,95,16,24,6,5,0.7,0.7
2025-03-11T1500,2576A,104.8,26.5892,六盘水市,窑上,颗粒物(PM10),54,58,49,29,37,116,,74,74,8,12,7,6,0.6,0.7
2025-03-11T1500,2577A,104.83,26.5917,六盘水市,黄土坡,颗粒物(PM10),55,60,52,34,37,112,,72,72,21,21,13,10,0.7,0.9
2025-03-11T1500,2578A,104.89,26.5939,六盘水市,水钢,细颗粒物(PM2.5),68,71,61,49,45,123,,84,84,11,12,9,8,0.5,0.6
2025-03-11T1500,2579A,104.8475,26.5894,六盘水市,民中,,47,47,43,24,31,118,,75,75,12,17,11,10,0.5,0.7
2025-03-11T1500,2580A,104.9544,26.5506,六盘水市,双水,,48,48,36,24,28,115,,76,76,10,11,10,8,0.4,0.5
2025-03-11T1500,2335A,117.0189,25.1181,龙岩市,龙岩师专,,,,,,,,,,,,,,,,
2025-03-11T1500,2336A,117.0217,25.1033,龙岩市,龙岩市监测站,,26,26,41,9,27,71,,44,44,9,28,4,10,0.4,0.7
2025-03-11T1500,2337A,117.0258,25.0661,龙岩市,闽西职业技术学院,,23,14,41,14,29,71,,44,44,10,30,4,19,0.5,0.6
2025-03-11T1500,2338A,117.0196,25.0306,龙岩市,龙岩学院,,24,16,36,10,31,74,,48,48,7,13,11,9,0.5,0.6
2025-03-11T1500,2665A,105.0822,33.3261,陇南市,汉王镇固水子,,,,,,,,,,,,,,,,
2025-03-11T1500,2885A,104.9339,33.3826,陇南市,滨江中学,颗粒物(PM10),177,304,60,46,22,72,,50,50,8,9,6,6,0.6,0.6
2025-03-11T1500,3247A,104.955,33.371,陇南市,市总工会,颗粒物(PM10),172,293,57,73,19,79,,56,56,4,5,8,8,0.3,0.4
2025-03-11T1500,2487A,111.9589,27.8901,娄底市,电视发射台,细颗粒物(PM2.5),59,59,47,42,41,58,,29,29,20,14,11,7,1.2,0.9
2025-03-11T1500,2488A,111.9975,27.725,娄底市,市监测站,细颗粒物(PM2.5),74,58,64,54,46,65,,27,27,27,34,11,9,0.8,1
2025-03-11T1500,2489A,112.0194,27.7314,娄底市,市委党校,细颗粒物(PM2.5),55,50,57,39,43,68,,33,33,16,22,3,3,0.8,1
2025-03-11T1500,2490A,111.9561,27.7569,娄底市,涟钢,细颗粒物(PM2.5),79,85,72,58,54,49,,21,21,38,27,45,18,3.0,1.9
2025-03-11T1500,2491A,111.9892,27.7044,娄底市,市政府,细颗粒物(PM2.5),57,42,48,40,38,66,,28,28,12,13,10,7,0.7,0.8
2025-03-11T1500,1893A,105.4324,28.9634,泸州市,九狮山,,,,,,,,,,,,,,,,
2025-03-11T1500,1894A,105.4427,28.9063,泸州市,小市上码头,颗粒物(PM10),57,64,82,35,48,94,,54,54,13,31,8,9,0.4,0.6
2025-03-11T1500,1895A,105.4241,28.8573,泸州市,兰田宪桥,颗粒物(PM10),55,60,75,31,51,90,,53,53,12,29,6,8,0.5,0.6
2025-03-11T1500,1896A,105.4379,28.8833,泸州市,市环监站,细颗粒物(PM2.5),55,46,58,39,49,86,,47,47,19,33,8,9,0.3,0.4
2025-03-11T1500,4272A,105.3689,28.7783,泸州市,纳溪中医医院,,,72,77,51,60,68,,45,45,23,33,6,6,,0.7
2025-03-11T1500,2183A,111.1406,37.5211,吕梁市,环保局,颗粒物(PM10),139,227,113,99,49,80,,45,45,11,47,2,3,0.3,0.5
2025-03-11T1500,2185A,111.1297,37.5136,吕梁市,自来水公司,细颗粒物(PM2.5),138,208,121,105,51,81,,48,48,11,40,2,8,0.3,0.7
2025-03-11T1500,2867A,111.1283,37.51,吕梁市,马茂庄小学,颗粒物(PM10),153,256,124,87,49,82,,46,46,14,49,7,12,0.3,0.7
2025-03-11T1500,1812A,112.3931,34.6516,洛阳市,市委党校,细颗粒物(PM2.5),84,86,108,62,73,86,,55,55,14,45,9,7,0.8,0.9
2025-03-11T1500,1815A,112.494,34.6886,洛阳市,河南林校,细颗粒物(PM2.5),108,102,111,81,90,91,,54,54,17,37,8,5,0.8,0.9
2025-03-11T1500,1816A,112.3844,34.623,洛阳市,开发区管委会,细颗粒物(PM2.5),104,101,103,78,75,90,,61,61,17,29,13,7,0.7,0.7
2025-03-11T1500,1817A,112.4267,34.6258,洛阳市,市委新办公区,细颗粒物(PM2.5),98,116,118,73,70,98,,65,65,18,37,9,5,0.7,0.7
2025-03-11T1500,3340A,112.6005,34.6326,洛阳市,伊滨,细颗粒物(PM2.5),112,104,120,84,89,104,,58,58,18,38,8,5,0.8,0.9
2025-03-11T1500,3341A,112.4951,34.6332,洛阳市,中移产业园,细颗粒物(PM2.5),108,112,128,81,97,97,,58,58,27,44,11,8,1.1,1.1
2025-03-11T1500,3593A,112.5736,34.8993,洛阳市,吉利监测站,细颗粒物(PM2.5),100,88,96,75,79,98,,67,67,18,33,8,6,0.7,0.8
2025-03-11T1500,3635A,112.3677,34.662,洛阳市,河科大西苑校区,细颗粒物(PM2.5),89,85,110,66,81,37,,28,28,15,39,6,8,0.8,0.8
2025-03-11T1500,3636A,112.4388,34.6781,洛阳市,英才小学,细颗粒物(PM2.5),77,102,125,56,71,92,,58,58,18,50,12,11,0.6,0.7
2025-03-11T1500,4214A,112.4600,34.6949,洛阳市,春都路1号院,细颗粒物(PM2.5),85,83,103,63,70,95,,59,59,24,44,10,7,0.7,0.7
2025-03-11T1500,2399A,114.051,33.5699,漯河市,三五一五工厂,细颗粒物(PM2.5),102,,78,76,76,100,,72,72,10,20,5,5,0.6,0.6
2025-03-11T1500,2400A,114.0055,33.5698,漯河市,漯河大学,细颗粒物(PM2.5),83,84,88,61,64,100,,70,70,12,23,6,8,0.6,0.6
2025-03-11T1500,2401A,114.0138,33.5828,漯河市,市水利局,细颗粒物(PM2.5),79,70,76,58,65,98,,71,71,10,19,4,4,0.4,0.4
2025-03-11T1500,2402A,114.0261,33.5698,漯河市,市广电局,细颗粒物(PM2.5),89,76,74,66,64,98,,71,71,10,20,5,5,0.6,0.6
2025-03-11T1500,3478A,113.9749,33.5664,漯河市,市图书馆,细颗粒物(PM2.5),89,81,83,66,68,99,,68,68,12,24,4,10,0.6,0.7
2025-03-11T1500,4250A,114.0892,33.5882,漯河市,韶山路11号,细颗粒物(PM2.5),87,93,89,64,63,101,,70,70,15,24,6,5,0.7,0.6
2025-03-11T1500,1798A,118.5092,31.6837,马鞍山市,湖东路四小,,49,49,89,32,66,126,,81,81,15,29,8,9,0.9,0.9
2025-03-11T1500,1799A,118.5024,31.6449,马鞍山市,开发区,细颗粒物(PM2.5),53,,105,37,77,125,,72,72,20,41,6,7,0.9,0.9
2025-03-11T1500,1802A,118.6245,31.7241,马鞍山市,濮塘,,38,38,75,3,60,121,,86,86,8,14,8,10,0.8,0.9
2025-03-11T1500,3633A,118.4918,31.6809,马鞍山市,雨山,细颗粒物(PM2.5),53,52,94,37,67,125,,74,74,20,29,11,10,1.0,1
2025-03-11T1500,4191A,118.5274,31.72227,马鞍山市,慈湖高新区,细颗粒物(PM2.5),54,44,93,38,77,121,,71,71,21,39,9,11,0.7,0.8
2025-03-11T1500,1686A,111.0286,21.4688,茂名市,电白南海,,39,36,45,27,25,101,,86,77,6,9,2,3,0.7,0.7
2025-03-11T1500,1687A,110.9294,21.6533,茂名市,茂石化七小,,29,29,34,7,18,82,,90,78,5,8,4,4,0.4,0.4
2025-03-11T1500,1688A,110.9107,21.6687,茂名市,健康路,,27,22,31,9,16,85,,89,79,6,10,4,5,0.3,0.4
2025-03-11T1500,1689A,110.8592,21.6828,茂名市,高岭,颗粒物(PM10),60,70,48,12,18,74,,83,75,14,14,3,6,0.3,0.4
2025-03-11T1500,3450A,111.01,21.5165,茂名市,电白水东,,28,22,31,12,14,87,,76,69,8,8,2,3,0.6,0.7
2025-03-11T1500,2539A,104.0308,30.0478,眉山市,黑龙滩水库,细颗粒物(PM2.5),79,62,62,58,53,65,,24,24,22,22,3,3,0.7,0.8
2025-03-11T1500,2540A,103.8416,30.0874,眉山市,气象局,细颗粒物(PM2.5),85,84,98,63,72,73,,31,31,21,38,6,6,0.7,0.8
2025-03-11T1500,3137A,103.8578,30.0744,眉山市,市委党校,细颗粒物(PM2.5),85,75,86,63,67,64,,27,27,30,44,9,8,0.7,0.8
2025-03-11T1500,3148A,103.8291,30.0564,眉山市,区人社局,细颗粒物(PM2.5),79,64,77,58,68,68,,29,29,28,45,8,8,0.7,0.9
2025-03-11T1500,1690A,116.1231,24.3284,梅州市,梅江月梅,,29,28,46,19,31,92,,45,45,10,30,10,10,0.5,0.6
2025-03-11T1500,1691A,116.0797,24.2719,梅州市,梅县新城,,41,41,46,18,30,85,,47,47,13,34,6,6,0.4,0.7
2025-03-11T1500,1692A,116.1248,24.2654,梅州市,环境监控中心,,36,34,44,25,30,85,,57,57,18,33,6,8,0.7,0.7
2025-03-11T1500,3315A,116.1233,24.2991,梅州市,梅龙,,,29,42,16,27,92,,47,47,14,28,6,6,,0.8
2025-03-11T1500,1878A,104.7778,31.4741,绵阳市,富乐山,,35,35,63,23,51,90,,57,57,17,23,2,2,0.7,0.7
2025-03-11T1500,1880A,104.6697,31.4668,绵阳市,高新区自来水公司,,36,36,69,19,47,72,,44,44,10,29,3,5,0.4,0.9
2025-03-11T1500,1881A,104.7287,31.5075,绵阳市,三水厂,颗粒物(PM10),53,55,88,27,60,94,,52,52,12,35,6,6,0.6,0.8
2025-03-11T1500,3491A,104.69,31.5322,绵阳市,西科大附属小学,,34,34,68,23,47,89,,53,53,14,32,6,7,0.5,0.7
2025-03-11T1500,3492A,104.5648,31.5343,绵阳市,安州区旅游局,,32,32,57,22,53,83,,57,57,11,19,10,8,0.4,0.6
2025-03-11T1500,4226A,104.7651,31.4531,绵阳市,绵阳市气象局,,32,27,67,22,47,83,,50,50,19,30,5,6,0.4,0.6
2025-03-11T1500,1784A,129.61,44.561,牡丹江市,环保大楼,细颗粒物(PM2.5),68,64,83,49,59,125,,111,111,14,18,5,6,0.4,0.4
2025-03-11T1500,1785A,129.6115,44.5782,牡丹江市,文化广场,细颗粒物(PM2.5),67,58,86,48,57,124,,110,110,20,24,10,11,0.3,0.4
2025-03-11T1500,1786A,129.5904,44.5963,牡丹江市,第一医院,细颗粒物(PM2.5),68,59,82,49,62,124,,108,108,16,19,10,11,0.4,0.5
2025-03-11T1500,1787A,129.6364,44.6075,牡丹江市,机车工厂,颗粒物(PM10),56,62,88,39,55,126,,104,104,14,30,7,12,0.5,0.6
2025-03-11T1500,1788A,129.6386,44.5462,牡丹江市,第一中学,颗粒物(PM10),56,61,80,38,51,134,,122,122,10,17,7,8,0.5,0.5
2025-03-11T1500,2531A,105.0703,29.61,内江市,市监测站,细颗粒物(PM2.5),68,59,59,49,50,59,,56,45,21,23,7,6,1.0,1
2025-03-11T1500,2532A,105.0717,29.5947,内江市,东兴区政府,细颗粒物(PM2.5),55,,48,39,40,58,,57,43,20,21,5,5,0.9,0.9
2025-03-11T1500,2533A,105.0653,29.5817,内江市,内江二中,细颗粒物(PM2.5),72,70,58,52,44,59,,58,43,21,21,7,10,0.8,0.8
2025-03-11T1500,2534A,105.0406,29.5822,内江市,内江日报社,细颗粒物(PM2.5),69,55,57,50,45,59,,52,45,21,28,9,9,0.7,0.7
2025-03-11T1500,2628A,92.0657,31.4846,那曲市,那曲监测站,,35,,26,15,18,111,,78,78,4,12,6,8,0.5,1
2025-03-11T1500,3128A,92.0506,31.4797,那曲市,那曲会议中心,,32,,28,22,13,93,,66,66,2,8,5,6,0.6,0.9
2025-03-11T1500,1290A,115.8931,28.6843,南昌市,省外办,细颗粒物(PM2.5),92,74,70,68,65,81,,40,40,34,57,5,4,1.3,1
2025-03-11T1500,1291A,115.8886,28.7003,南昌市,省林业公司,,,66,61,56,57,77,,37,37,,40,14,7,0.9,0.6
2025-03-11T1500,1292A,115.8126,28.7442,南昌市,林科所,细颗粒物(PM2.5),58,46,55,41,47,84,,41,41,26,44,8,5,0.9,0.7
2025-03-11T1500,1294A,115.8518,28.687,南昌市,建工学校,细颗粒物(PM2.5),72,74,72,52,58,84,,40,40,27,45,15,9,1.3,0.9
2025-03-11T1500,1295A,115.8921,28.6424,南昌市,象湖,细颗粒物(PM2.5),85,73,62,63,73,93,,45,45,24,39,14,7,1.6,0.9
2025-03-11T1500,1296A,115.7423,28.7996,南昌市,武术学校,,44,44,28,17,23,64,,30,30,23,12,3,2,0.7,0.6
2025-03-11T1500,3046A,115.9084,28.6062,南昌市,机电学校,,,98,81,66,64,80,,39,39,31,36,13,5,,0.8
2025-03-11T1500,3690A,115.9721,28.7031,南昌市,外国语学校,细颗粒物(PM2.5),67,51,69,48,57,92,,52,52,8,23,11,6,0.6,0.7
2025-03-11T1500,4192A,115.9316,28.68677,南昌市,南京东路235号,细颗粒物(PM2.5),77,67,78,56,69,88,,47,47,25,48,13,6,1.0,0.9
2025-03-11T1500,1905A,106.056,30.8064,南充市,西山风景区,,28,21,38,19,32,87,,56,56,7,11,4,3,0.5,0.5
2025-03-11T1500,1906A,106.0789,30.8023,南充市,南充市委,,,36,47,26,31,82,,46,46,12,26,,4,0.6,0.7
2025-03-11T1500,1907A,106.1031,30.8217,南充市,南充炼油厂,,,43,54,21,40,,,40,36,16,22,5,5,0.4,0.4
2025-03-11T1500,1909A,106.0642,30.7636,南充市,嘉陵区环保局,,35,35,53,24,37,76,,44,44,12,22,4,4,0.5,0.6
2025-03-11T1500,1910A,106.1087,30.8388,南充市,市环境监测站,,49,48,55,34,40,82,,53,53,11,15,8,7,0.6,0.6
2025-03-11T1500,4227A,106.1083,30.7884,南充市,梨树横街98号,,50,38,52,35,36,76,,43,43,12,22,6,6,0.4,0.4
2025-03-11T1500,1151A,118.8086,32.1065,南京市,迈皋桥,,49,46,76,34,52,118,,69,69,19,40,4,4,0.3,0.5
2025-03-11T1500,1152A,118.7538,32.0551,南京市,草场门,细颗粒物(PM2.5),55,48,74,39,55,93,,51,51,22,36,6,6,0.9,0.9
2025-03-11T1500,1153A,118.7794,32.0745,南京市,山西路,,44,44,83,29,57,102,,56,56,15,27,4,4,0.7,0.7
2025-03-11T1500,1154A,118.7752,32.0023,南京市,中华门,颗粒物(PM10),51,51,81,34,55,104,,60,60,33,45,6,5,0.5,0.5
2025-03-11T1500,1155A,118.8109,32.0309,南京市,瑞金路,颗粒物(PM10),58,66,84,34,51,113,,63,63,18,35,6,6,0.6,0.6
2025-03-11T1500,1156A,118.7997,32.0754,南京市,玄武湖,,46,,78,32,58,99,,56,56,21,28,4,4,0.4,0.5
2025-03-11T1500,1157A,118.6414,32.0931,南京市,浦口,细颗粒物(PM2.5),58,51,98,41,62,115,,60,60,27,38,8,7,0.9,0.7
2025-03-11T1500,1158A,118.7356,31.9996,南京市,奥体中心,颗粒物(PM10),57,64,88,39,58,109,,62,62,30,40,8,8,0.5,0.6
2025-03-11T1500,1159A,118.9125,32.1028,南京市,仙林大学城,颗粒物(PM10),51,51,76,31,52,104,,57,57,16,38,8,8,0.7,0.8
2025-03-11T1500,3422A,118.8436,31.9198,南京市,江宁彩虹桥,颗粒物(PM10),53,56,80,29,53,122,,63,63,10,36,5,5,0.5,0.5
2025-03-11T1500,3423A,119.0138,31.6494,南京市,溧水永阳,,38,,69,26,49,111,,66,66,12,32,3,7,0.5,0.6
2025-03-11T1500,3427A,118.8554,32.3578,南京市,六合雄州,颗粒物(PM10),70,90,80,49,42,114,,56,56,20,38,5,5,0.6,0.9
2025-03-11T1500,4249A,118.8708,31.3402,南京市,汶溪路181号,,,,69,,47,112,,72,72,,23,2,5,0.4,0.5
2025-03-11T1500,1401A,108.3103,22.7881,南宁市,二十一中,,28,26,58,12,30,87,,65,65,11,31,4,4,0.7,0.9
2025-03-11T1500,1402A,108.3141,22.8528,南宁市,北湖,,23,23,74,14,44,67,,36,36,18,46,5,5,0.7,1.1
2025-03-11T1500,1403A,108.3206,22.8225,南宁市,市监测站,,33,33,50,13,33,75,,52,52,15,35,6,6,0.8,1.1
2025-03-11T1500,1404A,108.3829,22.8037,南宁市,大自然花园,,27,20,45,16,29,85,,68,68,4,16,5,5,0.6,0.8
2025-03-11T1500,1405A,108.4394,22.7904,南宁市,仙葫,,25,16,46,7,29,79,,57,57,7,23,2,2,0.3,0.6
2025-03-11T1500,1406A,108.2397,22.8467,南宁市,区农职院,,28,28,71,11,35,76,,36,36,16,42,7,9,0.8,1
2025-03-11T1500,1407A,108.3275,22.735,南宁市,英华嘉园,,23,22,52,9,29,73,,54,54,16,31,6,6,0.6,0.8
2025-03-11T1500,3401A,108.4834,22.7618,南宁市,红星社区,,26,,45,14,33,81,,59,59,4,19,7,7,0.6,0.9
2025-03-11T1500,4221A,108.2177,22.7774,南宁市,乐贤路16号,,23,16,74,13,37,73,,48,48,9,46,7,8,0.7,1
2025-03-11T1500,2331A,118.0966,26.6761,南平市,茫荡山,,,,,,,,,,,,,,,,
2025-03-11T1500,2332A,118.1681,26.6369,南平市,南平市监测站,,42,31,46,29,34,106,,61,61,6,20,4,6,0.7,1
2025-03-11T1500,2333A,118.1825,26.6489,南平市,南平铝业有限公司,,37,37,44,21,36,103,,59,59,6,26,5,7,0.7,1
2025-03-11T1500,2334A,118.1756,26.6272,南平市,南平七中,,47,47,43,24,32,100,,55,55,6,18,3,4,0.5,0.8
2025-03-11T1500,1168A,120.9098,31.9663,南通市,狼山街道,细颗粒物(PM2.5),60,47,37,43,29,105,,69,69,22,23,6,6,0.5,0.4
2025-03-11T1500,1169A,120.86,32.0005,南通市,虹桥,细颗粒物(PM2.5),54,51,50,38,39,92,,65,65,29,27,6,5,0.2,0
2025-03-11T1500,1170A,120.87,32.02,南通市,城中,,50,48,48,35,35,97,,70,70,23,23,7,6,0.6,0.5
2025-03-11T1500,1171A,120.94,31.93,南通市,星湖花园,细颗粒物(PM2.5),57,46,36,40,31,102,,65,65,26,26,6,5,0.6,0.4
2025-03-11T1500,1172A,120.81,32.0417,南通市,紫琅学院,细颗粒物(PM2.5),52,49,42,36,34,91,,69,69,33,24,4,3,0.7,0.6
2025-03-11T1500,3291A,121.067,32.062,南通市,通州监测站,,49,41,39,34,32,95,,78,78,16,14,3,3,0.7,0.6
2025-03-11T1500,3432A,120.9348,31.9883,南通市,环境教育馆,细颗粒物(PM2.5),59,,37,42,34,112,,80,80,21,17,4,4,0.3,0.2
2025-03-11T1500,2404A,112.5224,33.0122,南阳市,瓦房庄,细颗粒物(PM2.5),90,76,67,67,51,62,,58,54,14,14,4,4,0.7,0.5
2025-03-11T1500,2405A,112.5003,32.9735,南阳市,汉画馆,细颗粒物(PM2.5),97,82,69,72,56,58,,51,51,12,19,3,4,0.7,0.6
2025-03-11T1500,2406A,112.5573,33.027,南阳市,气象站,,,71,77,68,55,69,,56,55,10,14,4,5,,0.4
2025-03-11T1500,2407A,112.5481,32.9689,南阳市,理工学院,细颗粒物(PM2.5),75,74,74,55,54,67,,50,50,13,21,3,3,0.6,0.6
2025-03-11T1500,4008A,112.5234,32.9922,南阳市,卧龙区政府,细颗粒物(PM2.5),88,92,75,65,58,60,,58,53,15,15,5,6,0.7,0.6
2025-03-11T1500,1234A,121.8358,29.911,宁波市,区环保大楼,,34,34,47,13,22,53,,47,47,53,72,10,9,0.4,0.5
2025-03-11T1500,1235A,121.56,29.82,宁波市,万里学院,,24,24,46,14,26,68,,45,45,19,39,8,8,0.6,0.6
2025-03-11T1500,1236A,121.713,29.9572,宁波市,龙赛医院,,36,36,46,25,28,66,,50,50,54,63,14,9,0.7,0.5
2025-03-11T1500,1239A,121.633,29.7733,宁波市,钱湖水厂,,,22,31,18,21,68,,62,62,17,24,8,7,,0.7
2025-03-11T1500,1240A,121.5856,29.8635,宁波市,太古小学,,24,24,49,14,25,74,,49,49,18,46,9,9,0.8,0.8
2025-03-11T1500,1241A,121.524,29.8674,宁波市,市环境监测中心,,35,35,40,11,25,67,,42,42,32,56,8,8,0.6,0.7
2025-03-11T1500,2871A,121.6147,29.9017,宁波市,万里国际学校,,26,22,37,18,24,80,,60,60,18,52,8,8,0.5,0.6
2025-03-11T1500,3710A,121.5594,29.8975,宁波市,白沙活动中心,,33,33,60,14,28,79,,53,53,10,43,6,7,0.5,0.5
2025-03-11T1500,2339A,119.5001,26.6946,宁德市,金涵水库,,,,,,,,,,,,,,,,
2025-03-11T1500,2341A,119.5388,26.6612,宁德市,宁德市监测站,细颗粒物(PM2.5),54,54,47,38,36,106,,52,52,15,18,9,6,1.1,0.9
2025-03-11T1500,3209A,119.5231,26.6562,宁德市,宁德一中,细颗粒物(PM2.5),68,55,43,49,36,107,,56,56,20,22,10,6,0.9,0.7
2025-03-11T1500,2618A,98.8601,25.8567,怒江傈僳族自治州,州监测站,颗粒物(PM10),51,51,58,31,37,138,,86,86,7,11,6,5,0.6,0.2
2025-03-11T1500,2619A,98.8546,25.8417,怒江傈僳族自治州,泸水一中,细颗粒物(PM2.5),68,73,58,49,41,123,,62,62,11,23,7,7,0.5,0.6
2025-03-11T1500,1888A,101.6891,26.571,攀枝花市,弄弄坪,细颗粒物(PM2.5),55,42,93,39,47,137,,75,75,15,51,13,59,0.8,2.9
2025-03-11T1500,1889A,101.5769,26.5928,攀枝花市,河门口,,40,40,59,21,26,119,,78,78,9,25,9,14,0.5,0.8
2025-03-11T1500,1890A,101.7169,26.585,攀枝花市,炳草岗,,48,37,78,22,39,151,,78,78,11,55,8,16,0.7,1.5
2025-03-11T1500,1891A,101.7369,26.5008,攀枝花市,仁和,,40,37,52,28,38,81,,66,66,11,24,7,9,0.6,0.8
2025-03-11T1500,2835A,101.7227,26.567,攀枝花市,四十中小,细颗粒物(PM2.5),69,82,70,50,41,148,,86,86,13,50,12,23,0.5,1.7
2025-03-11T1500,1604A,122.0303,41.1489,盘锦市,开发区,细颗粒物(PM2.5),82,,59,60,64,106,,103,103,16,17,9,13,0.6,0.7
2025-03-11T1500,1605A,122.0485,41.0883,盘锦市,兴隆台,细颗粒物(PM2.5),84,,58,62,65,100,,96,96,19,19,7,6,0.7,0.7
2025-03-11T1500,1606A,121.8297,41.1028,盘锦市,新生街道,细颗粒物(PM2.5),87,,45,64,62,107,,96,96,19,18,11,9,0.8,0.8
2025-03-11T1500,1832A,113.3257,33.742,平顶山市,新华旅馆,细颗粒物(PM2.5),87,76,87,64,56,93,,74,74,21,28,4,4,0.4,0.4
2025-03-11T1500,1833A,113.2919,33.737,平顶山市,规划设计院,细颗粒物(PM2.5),92,87,83,68,59,97,,75,75,16,23,2,2,0.6,0.6
2025-03-11T1500,1834A,113.182,33.774,平顶山市,平顶山工学院,细颗粒物(PM2.5),85,90,74,63,53,90,,68,68,12,12,6,5,0.7,0.7
2025-03-11T1500,3204A,113.3025,33.73,平顶山市,规划局,细颗粒物(PM2.5),100,83,78,75,72,93,,73,73,17,23,4,4,0.7,0.7
2025-03-11T1500,3594A,112.8867,33.9116,平顶山市,石龙区,颗粒物(PM10),67,83,87,46,52,100,,73,73,11,21,8,5,0.5,0.5
2025-03-11T1500,2656A,106.6692,35.5461,平凉市,聚贤嘉苑,颗粒物(PM10),128,205,300,41,56,100,,95,95,4,19,8,12,0.0,0.3
2025-03-11T1500,2657A,106.7021,35.5307,平凉市,博物馆,颗粒物(PM10),133,216,328,43,57,98,,92,92,7,19,13,14,0.2,0.7
2025-03-11T1500,2347A,114.0997,27.5002,萍乡市,武功山,,34,34,17,23,15,18,,14,14,14,13,4,4,0.5,0.5
2025-03-11T1500,2348A,113.8385,27.6434,萍乡市,中医院,细颗粒物(PM2.5),67,51,39,48,31,22,,20,17,24,21,14,10,1.4,1.2
2025-03-11T1500,2349A,113.8493,27.6253,萍乡市,市政府车库,细颗粒物(PM2.5),55,57,36,39,30,23,,16,15,27,24,16,7,2.7,1.3
2025-03-11T1500,2350A,113.8676,27.6435,萍乡市,市环保局,,49,44,35,34,27,24,,18,17,25,23,10,6,1.1,0.9
2025-03-11T1500,2351A,113.866,27.6198,萍乡市,安源区政府,细颗粒物(PM2.5),60,48,38,43,31,23,,14,14,22,26,12,7,1.2,1.1
2025-03-11T1500,2319A,119.0141,25.4325,莆田市,荔城区仓后路,颗粒物(PM10),55,60,52,37,29,131,,84,84,18,26,4,4,0.8,0.8
2025-03-11T1500,2320A,119.0015,25.4553,莆田市,莆田市监测站,颗粒物(PM10),68,86,43,37,27,142,,84,84,17,17,6,5,0.7,0.7
2025-03-11T1500,2321A,119.1119,25.4561,莆田市,涵江区六中,,48,48,46,28,27,122,,81,81,18,32,4,4,0.3,0.4
2025-03-11T1500,2322A,119.1013,25.3215,莆田市,秀屿区政府,,42,,48,29,36,128,,97,97,11,18,5,6,0.6,0.7
2025-03-11T1500,2323A,118.981,25.4792,莆田市,东圳水库,,,,,,,,,,,,,,,,
2025-03-11T1500,2392A,115.0312,35.7636,濮阳市,环保局,细颗粒物(PM2.5),78,,77,57,78,108,,86,86,5,13,4,4,0.6,0.7
2025-03-11T1500,2394A,115.0574,35.7609,濮阳市,油田运输公司,细颗粒物(PM2.5),80,90,114,59,77,114,,94,90,12,17,4,4,1.0,0.9
2025-03-11T1500,3021A,115,35.7668,濮阳市,濮水河管理处,,,83,114,59,63,113,,92,89,,18,6,6,0.7,0.8
2025-03-11T1500,4216A,115.0924,35.7686,濮阳市,任丘路479号,细颗粒物(PM2.5),80,82,102,59,76,120,,95,95,19,26,5,5,0.6,0.7
2025-03-11T1500,2601A,100.98,22.7633,普洱市,市环保局,颗粒物(PM10),65,80,74,41,38,139,,88,88,10,15,5,4,0.7,0.8
2025-03-11T1500,2602A,100.9817,22.8322,普洱市,普洱第二中学,颗粒物(PM10),62,73,68,35,36,127,,82,82,9,25,8,7,0.5,0.5
2025-03-11T1500,2262A,131.0518,45.8751,七台河市,新一中,,38,38,114,17,44,110,,106,106,11,15,11,12,0.7,0.8
2025-03-11T1500,3345A,131.0577,45.7879,七台河市,中波台,,,,106,,44,,,106,,,19,,7,,0.5
2025-03-11T1500,3637A,131.0176,45.7761,七台河市,人民广场,,49,44,110,34,50,98,,86,85,14,20,10,9,0.4,0.7
2025-03-11T1500,3684A,130.8781,45.8222,七台河市,新建矿广场,颗粒物(PM10),62,73,119,23,43,96,,90,90,16,17,7,10,0.3,0.5
2025-03-11T1500,1779A,123.9305,47.3636,齐齐哈尔市,安居小区,颗粒物(PM10),57,64,44,28,33,87,,77,77,15,25,7,6,0.3,0.4
2025-03-11T1500,1780A,123.9488,47.3386,齐齐哈尔市,中心广场,,37,37,44,13,19,80,,71,71,15,24,11,6,0.4,0.5
2025-03-11T1500,1781A,123.9483,47.3227,齐齐哈尔市,农牧车辆厂,,41,41,38,6,15,90,,78,78,10,18,6,6,0.1,0.3
2025-03-11T1500,1783A,123.945,47.2988,齐齐哈尔市,市环境监测站,,49,49,43,10,19,82,,69,69,14,19,9,5,0.4,0.5
2025-03-11T1500,3662A,123.6333,47.2075,齐齐哈尔市,富区青少年活动中心,颗粒物(PM10),58,66,70,16,29,86,,68,68,9,22,7,18,0.4,0.7
2025-03-11T1500,2591A,107.9783,26.5747,黔东南苗族侗族自治州,市环境监测站,,29,29,36,19,25,75,,37,37,2,13,2,3,0.4,0.7
2025-03-11T1500,2881A,107.8908,26.5311,黔东南苗族侗族自治州,凯里学院,,,,12,18,14,76,,50,50,,8,2,2,0.5,0.9
2025-03-11T1500,2593A,107.5228,26.2403,黔南布依族苗族自治州,小围寨,,24,24,10,9,9,72,,46,46,4,9,5,5,0.4,0.5
2025-03-11T1500,3538A,107.5175,26.2978,黔南布依族苗族自治州,沙坝,,24,24,10,9,8,73,,49,49,6,10,4,4,0.5,0.6
2025-03-11T1500,2589A,104.9022,25.0925,黔西南布依族苗族自治州,场坝街,,37,18,31,10,23,118,,75,75,8,8,3,3,0.4,0.4
2025-03-11T1500,2590A,104.8811,25.0992,黔西南布依族苗族自治州,坪东大道,,34,,30,21,23,107,,68,68,11,10,4,3,0.3,0.4
2025-03-11T1500,2502A,108.6236,21.9667,钦州市,市环保站,,,,55,14,30,77,,37,37,16,32,6,6,0.7,1
2025-03-11T1500,2503A,108.6549,21.9481,钦州市,沙埠小学,,,48,57,16,31,65,,39,39,11,35,5,6,,1
2025-03-11T1500,2504A,108.5989,21.7431,钦州市,港区一小,颗粒物(PM10),53,55,62,24,28,84,,54,54,25,37,7,9,1.5,1
2025-03-11T1500,3404A,108.5959,21.9633,钦州市,北职校,,50,50,41,24,37,81,,49,49,17,27,6,7,0.8,0.9
2025-03-11T1500,1043A,119.7493,40.0116,秦皇岛市,第一关,细颗粒物(PM2.5),107,108,115,80,99,83,,59,59,32,40,7,6,0.7,0.7
2025-03-11T1500,1044A,119.5897,39.9499,秦皇岛市,监测站,细颗粒物(PM2.5),108,111,125,81,87,85,,57,57,39,50,6,4,0.8,0.8
2025-03-11T1500,1046A,119.5251,39.9041,秦皇岛市,建设大厦,细颗粒物(PM2.5),90,112,111,67,86,110,,78,78,39,40,8,6,0.7,0.7
2025-03-11T1500,3132A,119.610547,39.943889,秦皇岛市,文明里,细颗粒物(PM2.5),104,100,105,78,79,74,,60,53,37,38,7,5,0.6,0.6
2025-03-11T1500,4198A,119.5090,39.8253,秦皇岛市,北戴河轮滑馆,细颗粒物(PM2.5),103,86,92,77,77,67,,65,58,45,34,5,4,0.6,0.7
2025-03-11T1500,1307A,120.6659,36.2403,青岛市,仰口,,35,33,25,24,22,95,,98,98,10,9,3,3,0.3,0.3
2025-03-11T1500,1310A,120.4134,36.0658,青岛市,市南区东部子站,,,44,46,29,27,70,,87,75,,17,,8,0.4,0.5
2025-03-11T1500,1311A,120.3664,36.1032,青岛市,四方区子站,,44,44,43,27,30,77,,94,86,27,20,4,4,0.6,0.6
2025-03-11T1500,1312A,120.2994,36.054,青岛市,市南区西部子站,,36,36,39,17,23,62,,83,70,36,26,7,6,0.6,0.6
2025-03-11T1500,1313A,120.4581,36.0858,青岛市,崂山区子站,,36,36,38,19,22,78,,98,77,22,15,9,9,0.4,0.5
2025-03-11T1500,1315A,120.3999,36.3083,青岛市,城阳区子站,,34,34,36,15,19,97,,92,92,25,28,6,6,0.6,0.6
2025-03-11T1500,1966A,120.0405,35.8735,青岛市,黄岛区4号,,32,29,35,22,25,87,,92,89,22,20,7,6,0.5,0.6
2025-03-11T1500,3362A,120.5014,36.4034,青岛市,即墨2号,,34,27,33,16,21,107,,97,97,15,20,6,6,0.6,0.6
2025-03-11T1500,3642A,120.3503,36.0736,青岛市,市北区南部,,,28,44,24,23,48,,74,65,,16,6,6,0.6,0.6
2025-03-11T1500,3643A,120.3948,36.1805,青岛市,李沧区北部,,39,34,41,27,29,67,,73,68,29,25,10,10,0.5,0.5
2025-03-11T1500,4290A,120.1969,35.9546,青岛市,珠江路669号,,35,31,43,24,31,84,,88,85,20,22,6,6,0.7,0.7
2025-03-11T1500,1702A,113.0426,23.691,清远市,环保大楼,臭氧1小时,99,70,114,38,56,199,,85,85,14,39,10,10,0.7,1
2025-03-11T1500,1703A,113.0208,23.7106,清远市,凤城街办,臭氧1小时,54,51,84,34,54,163,,76,76,22,49,9,9,0.5,1
