timepoint,stationcode,longitude,latitude,area,positionname,primarypollutant,aqi,pm10,pm10_24h,pm2_5,pm2_5_24h,o3,o3_24h,o3_8h,o3_8h_24h,no2,no2_24h,so2,so2_24h,co,co_24h
2023-08-01T23:00:00,1001A,116.3621,39.8784,北京市,万寿西宫,,22,14,30,15,23,53,35,45,45,6,13,3,3,0.4,0.7
2023-08-01T23:00:00,1002A,116.2202,40.2915,北京市,定陵,,22,12,23,13,18,69,69,60,60,6,9,3,3,0.5,0.6
2023-08-01T23:00:00,1003A,116.4174,39.9289,北京市,东四,,18,13,39,12,27,146,55,73,73,8,13,3,3,0.6,0.7
2023-08-01T23:00:00,1004A,116.4072,39.8863,北京市,天坛,,11,6,32,3,24,59,35,48,47,11,15,3,3,0.4,0.5
2023-08-01T23:00:00,1005A,116.462,39.9365,北京市,农展馆,,22,19,34,15,27,73,48,59,59,14,15,3,3,0.4,0.5
2023-08-01T23:00:00,1006A,116.3392,39.9295,北京市,官园,,20,12,29,14,26,86,4,68,55,9,13,2,3,0.1,0.2
2023-08-01T23:00:00,1007A,116.2878,39.9611,北京市,海淀万柳,,19,14,33,11,27,69,58,63,63,14,16,1,1,0.5,0.6
2023-08-01T23:00:00,1008A,116.6636,40.135,北京市,顺义新城,,,,,,,,,,,,,,,,
2023-08-01T23:00:00,1009A,116.6275,40.3275,北京市,怀柔镇,,50,50,31,31,19,76,73,54,54,6,14,3,3,0.5,0.5
2023-08-01T23:00:00,1010A,116.2296,40.217,北京市,昌平镇,,29,23,35,20,29,55,53,45,45,11,12,3,3,0.4,0.5
2023-08-01T23:00:00,1011A,116.3966,39.9821,北京市,奥体中心,,15,13,28,8,10,60,45,46,46,19,19,3,3,0.4,0.5
2023-08-01T23:00:00,1012A,116.184,39.9136,北京市,古城,,23,22,34,16,26,70,37,52,52,14,15,3,3,0.4,0.5
2023-08-01T23:00:00,1015A,117.1444,39.1661,天津市,勤俭道,,38,38,35,25,24,166,52,119,96,22,12,5,5,0.7,0.5
2023-08-01T23:00:00,1017A,117.237,39.1082,天津市,大直沽八号路,细颗粒物(PM2.5),62,53,40,44,29,148,49,113,91,25,15,2,2,0.8,0.6
2023-08-01T23:00:00,1018A,117.202,39.0927,天津市,前进道,细颗粒物(PM2.5),54,44,34,38,24,148,53,110,86,30,18,4,4,0.7,0.6
2023-08-01T23:00:00,1019A,117.1837,39.2133,天津市,淮河道,细颗粒物(PM2.5),53,52,38,37,26,156,71,120,102,17,14,4,4,0.9,0.8
2023-08-01T23:00:00,1021A,117.307,39.0877,天津市,跃进路,细颗粒物(PM2.5),53,54,37,37,25,171,55,137,99,18,15,4,4,0.8,0.7
2023-08-01T23:00:00,1023A,117.707,39.0343,天津市,第四大街,,38,38,41,23,22,109,62,109,81,36,23,4,4,0.5,0.4
2023-08-01T23:00:00,1024A,117.457,38.8394,天津市,永明路,,50,50,40,34,25,148,78,128,111,14,12,3,3,0.6,0.6
2023-08-01T23:00:00,1026A,117.764,39.1587,天津市,汉北路,,28,25,35,19,24,133,83,114,106,12,7,3,3,0.4,0.4
2023-08-01T23:00:00,1027A,117.157,38.9194,天津市,团泊洼,,38,34,37,26,25,132,30,108,85,40,13,2,2,0.7,0.6
2023-08-01T23:00:00,1029A,114.4422,38.0444,石家庄市,职工医院,,42,42,26,25,24,116,71,102,89,7,4,2,2,0.6,0.7
2023-08-01T23:00:00,1030A,114.6063,38.0266,石家庄市,高新区,,42,40,27,29,23,124,70,108,92,15,8,3,2,0.4,0.4
2023-08-01T23:00:00,1031A,114.4898,38.1328,石家庄市,西北水源,,46,15,17,32,21,110,82,100,90,8,8,3,3,0.5,0.5
2023-08-01T23:00:00,1032A,114.4586,38.0058,石家庄市,西南高教,,26,24,16,18,17,111,61,94,79,8,7,3,3,0.5,0.5
2023-08-01T23:00:00,1033A,114.5331,38.0178,石家庄市,世纪公园,,34,34,23,19,16,99,71,92,84,10,7,3,3,0.4,0.4
2023-08-01T23:00:00,1034A,114.509,38.0457,石家庄市,人民会堂,,31,31,28,17,14,127,86,96,88,6,6,3,2,0.3,0.4
2023-08-01T23:00:00,1035A,114.3524,37.8911,石家庄市,封龙山,,29,13,14,6,9,108,92,101,99,7,6,8,8,0.7,0.9
2023-08-01T23:00:00,1037A,118.131,39.6363,唐山市,雷达站,颗粒物(PM10),51,51,36,32,21,110,58,97,87,15,7,1,2,0.3,0.3
2023-08-01T23:00:00,1038A,118.1725,39.6334,唐山市,物资局,,40,40,37,25,24,105,52,90,76,11,8,2,3,0.3,0.5
2023-08-01T23:00:00,1040A,118.1705,39.6506,唐山市,十二中,,,39,39,27,27,113,,113,96,13,15,2,6,0.0,0.1
2023-08-01T23:00:00,1041A,118.1869,39.622,唐山市,小山,,37,37,31,8,14,106,50,91,74,10,5,2,2,0.4,0.5
2023-08-01T23:00:00,1042A,119.5134,39.8207,秦皇岛市,北戴河环保局,,23,23,24,15,9,72,62,64,64,16,15,4,4,0.2,0.2
2023-08-01T23:00:00,1043A,119.7493,40.0116,秦皇岛市,第一关,,47,47,28,14,10,67,46,62,61,14,14,2,2,0.3,0.2
2023-08-01T23:00:00,1044A,119.5897,39.9499,秦皇岛市,监测站,,36,36,30,24,24,75,75,67,67,11,17,5,5,0.2,0.2
2023-08-01T23:00:00,1046A,119.5251,39.9041,秦皇岛市,建设大厦,,38,38,24,22,13,78,78,69,69,4,15,4,4,0.2,0.2
2023-08-01T23:00:00,1048A,114.5302,36.6116,邯郸市,东污水处理厂,,48,48,22,24,15,101,54,80,69,13,13,2,2,0.5,0.5
2023-08-01T23:00:00,1049A,114.4918,36.5713,邯郸市,矿院,,45,40,21,31,12,107,40,88,75,15,5,3,3,0.5,0.5
2023-08-01T23:00:00,1050A,114.484,36.6133,邯郸市,丛台公园,,35,35,16,22,8,103,59,88,79,12,9,2,2,0.4,0.4
2023-08-01T23:00:00,1051A,115.493,38.8632,保定市,游泳馆,,,11,8,9,6,49,,37,21,,3,,11,,0.1
2023-08-01T23:00:00,1052A,115.5213,38.8959,保定市,华电二区,,17,17,15,5,8,83,32,68,57,9,5,3,3,0.0,0.1
2023-08-01T23:00:00,1053A,115.4713,38.9108,保定市,接待中心,,18,18,15,7,7,79,24,64,53,9,5,6,6,0.5,0.5
2023-08-01T23:00:00,1054A,115.4612,38.8416,保定市,地表水厂,,33,33,28,13,11,80,38,65,58,8,5,8,9,0.3,0.4
2023-08-01T23:00:00,1056A,115.5086,38.8639,保定市,监测站,,18,16,11,12,11,99,46,74,62,15,10,6,6,0.4,0.4
2023-08-01T23:00:00,1057A,114.8883,40.8336,张家口市,人民公园,,,,4,0,3,94,69,88,85,,8,166,21,0,0.3
2023-08-01T23:00:00,1059A,114.8687,40.8042,张家口市,五金库,,24,24,15,12,6,80,57,71,65,6,6,1,1,0.3,0.3
2023-08-01T23:00:00,1060A,114.8902,40.762,张家口市,世纪豪园,,21,11,10,9,8,93,67,85,78,5,6,3,3,0.2,0.2
2023-08-01T23:00:00,1061A,114.8916,40.8661,张家口市,北泵房,,25,20,14,1,6,95,77,89,86,4,5,9,9,0.4,0.4
2023-08-01T23:00:00,1062A,117.9531,40.9081,承德市,铁路,,35,30,26,24,15,37,37,26,26,24,22,6,6,0.6,0.4
2023-08-01T23:00:00,1063A,117.9392,40.9763,承德市,中国银行,,29,29,25,18,11,36,18,34,30,19,14,5,6,0.7,0.4
2023-08-01T23:00:00,1064A,117.9503,40.928,承德市,开发区,,29,29,22,19,12,45,45,36,36,13,12,9,9,0.6,0.5
2023-08-01T23:00:00,1065A,117.8051,40.9655,承德市,文化中心,,30,30,21,14,10,40,37,35,35,18,11,3,2,0.6,0.4
2023-08-01T23:00:00,1066A,117.9268,41.0026,承德市,离宫,,46,46,34,11,10,24,8,20,16,7,6,4,4,0.5,0.3
2023-08-01T23:00:00,1067A,116.6708,39.5111,廊坊市,药材公司,,19,10,32,13,19,116,42,74,60,16,13,3,3,0.3,0.3
2023-08-01T23:00:00,1068A,116.7214,39.5589,廊坊市,开发区,,13,12,26,9,22,106,37,69,57,18,16,3,2,0.4,0.4
2023-08-01T23:00:00,1070A,116.7244,39.5269,廊坊市,北华航天学院,,19,19,40,10,21,117,37,73,58,21,16,4,4,0.4,0.4
2023-08-01T23:00:00,1071A,116.8842,38.2991,沧州市,沧县城建局,,44,44,36,29,20,116,74,110,102,17,13,3,5,0.3,0.2
2023-08-01T23:00:00,1072A,116.8584,38.3254,沧州市,电视转播站,,37,37,31,22,21,118,78,108,103,17,13,9,11,0.3,0.2
2023-08-01T23:00:00,1073A,116.8709,38.3228,沧州市,市环保局,,33,26,22,23,21,108,67,103,97,25,16,3,3,0.2,0.2
2023-08-01T23:00:00,1074A,115.6838,37.7541,衡水市,电机北厂,,38,36,37,26,17,111,85,99,93,6,4,5,3,0.3,0.4
2023-08-01T23:00:00,1075A,115.6303,37.7316,衡水市,市监测站,,36,36,32,21,14,110,78,92,84,9,7,3,3,0.4,0.5
2023-08-01T23:00:00,1077A,114.4704,37.0886,邢台市,达活泉,,28,26,12,19,10,118,53,95,85,13,6,3,3,0.3,0.5
2023-08-01T23:00:00,1078A,114.5062,37.0349,邢台市,邢师高专,,36,29,18,25,16,115,53,87,78,18,9,4,4,0.4,0.4
2023-08-01T23:00:00,1079A,114.5237,37.0851,邢台市,路桥公司,,33,33,22,18,15,118,53,86,79,16,10,7,4,0.4,0.4
2023-08-01T23:00:00,1080A,114.4725,37.0719,邢台市,市环保局,,33,28,13,23,17,127,57,99,89,17,10,5,5,0.5,0.6
2023-08-01T23:00:00,1081A,112.522,37.8873,太原市,尖草坪,,40,40,57,19,24,139,79,132,117,16,22,4,4,0.6,0.6
2023-08-01T23:00:00,1083A,112.434,38.0108,太原市,上兰,,30,30,26,18,14,134,63,121,102,7,7,3,3,0.6,0.6
2023-08-01T23:00:00,1084A,112.469,37.7124,太原市,晋源,,28,28,28,19,21,136,41,129,108,36,14,4,5,0.7,0.7
2023-08-01T23:00:00,1085A,112.5583,37.7394,太原市,小店,,26,23,32,15,20,131,82,122,112,13,12,2,2,0.4,0.4
2023-08-01T23:00:00,1086A,112.5369,37.8692,太原市,桃园,,23,23,32,13,18,132,73,127,110,15,22,2,2,0.6,0.7
2023-08-01T23:00:00,1087A,112.57,37.8195,太原市,坞城,,25,25,27,12,22,128,71,121,104,17,14,3,2,0.6,0.6
2023-08-01T23:00:00,1088A,112.549,37.9854,太原市,南寨,,26,26,36,14,20,130,62,116,96,23,23,2,2,0.6,0.6
2023-08-01T23:00:00,1090A,111.6507,40.7517,呼和浩特市,呼市一监,细颗粒物(PM2.5),52,36,20,36,21,121,48,103,89,22,15,4,5,0.6,0.6
2023-08-01T23:00:00,1091A,111.6572,40.8033,呼和浩特市,小召,,40,39,20,28,19,118,71,99,93,27,19,5,6,0.8,0.9
2023-08-01T23:00:00,1094A,111.7516,40.8369,呼和浩特市,如意水处理厂,,49,49,28,32,19,127,36,102,92,45,19,5,6,0.7,0.6
2023-08-01T23:00:00,1095A,111.7276,40.8062,呼和浩特市,二十九中,,45,45,24,25,20,123,58,107,98,28,18,8,7,0.7,0.6
2023-08-01T23:00:00,1096A,111.5512,40.7866,呼和浩特市,工大金川校区,颗粒物(PM10),51,51,29,24,19,109,58,94,89,33,24,6,5,0.7,0.7
2023-08-01T23:00:00,1097A,111.717,40.7612,呼和浩特市,化肥厂生活区,,39,39,27,22,20,112,60,100,92,20,17,5,5,0.7,0.7
2023-08-01T23:00:00,1098A,123.6836,41.9339,沈阳市,森林路,,,,,,,,,,,,,,,,
2023-08-01T23:00:00,1099A,123.505,41.7406,沈阳市,浑南东路,,23,23,50,13,25,117,42,93,70,13,29,4,5,0.4,0.9
2023-08-01T23:00:00,1100A,123.4231,41.6989,沈阳市,新秀街,,20,20,45,14,19,112,42,82,58,11,26,4,4,0.4,0.8
2023-08-01T23:00:00,1102A,123.5903,41.8411,沈阳市,东陵路,,,,48,13,25,103,43,84,66,9,20,4,8,0.3,0.8
2023-08-01T23:00:00,1103A,123.4264,41.8467,沈阳市,陵东街,,20,20,28,10,20,74,44,66,58,8,14,5,4,0.4,0.7
2023-08-01T23:00:00,1104A,123.4114,41.7653,沈阳市,文化路,,16,16,43,3,24,95,47,81,64,7,23,6,10,0.3,0.8
2023-08-01T23:00:00,1105A,123.4678,41.7867,沈阳市,小河沿,,18,18,38,7,20,91,43,75,63,11,23,6,8,0.4,0.9
2023-08-01T23:00:00,1106A,123.4017,41.7972,沈阳市,太原街,,20,17,36,14,26,88,46,83,64,10,21,4,7,0.3,0.7
2023-08-01T23:00:00,1108A,123.3783,41.9228,沈阳市,京沈街,,27,27,41,16,26,102,48,90,66,9,19,5,7,0.5,0.6
2023-08-01T23:00:00,1109A,121.612,38.9741,大连市,甘井子,,25,18,22,17,21,72,40,59,41,12,14,4,4,0.5,0.6
2023-08-01T23:00:00,1110A,121.565,38.9511,大连市,周水子,,29,29,34,20,17,61,41,54,40,14,16,4,5,0.4,0.4
2023-08-01T23:00:00,1111A,121.5637,38.8845,大连市,星海三站,,29,21,23,20,21,68,25,54,40,11,11,6,7,0.4,0.4
2023-08-01T23:00:00,1112A,121.6302,38.9117,大连市,青泥洼桥,,20,17,22,14,17,57,37,52,38,7,10,4,4,0.5,0.6
2023-08-01T23:00:00,1113A,121.6251,38.8638,大连市,傅家庄,,22,15,20,15,18,76,46,59,48,8,11,6,6,0.5,0.5
2023-08-01T23:00:00,1114A,121.5213,38.8661,大连市,七贤岭,,22,19,22,15,18,76,55,67,53,11,13,5,6,0.3,0.3
2023-08-01T23:00:00,1115A,121.2529,38.8061,大连市,旅顺,,,17,21,,19,63,34,52,35,24,19,4,4,,0.3
2023-08-01T23:00:00,1116A,121.7485,39.1311,大连市,金州,,20,18,24,14,16,45,29,43,31,11,9,8,8,0.4,0.5
2023-08-01T23:00:00,1117A,121.7811,39.0496,大连市,开发区,,22,21,20,15,18,64,32,55,42,12,12,5,5,0.5,0.5
2023-08-01T23:00:00,1118A,121.9762,39.0631,大连市,双D港,,26,26,17,16,16,72,22,67,40,11,9,2,2,0.5,0.6
2023-08-01T23:00:00,1119A,125.3325,43.9166,长春市,食品厂,,45,45,38,24,17,68,56,60,49,22,22,3,4,0.6,0.6
2023-08-01T23:00:00,1120A,125.2863,43.9027,长春市,客车厂,,40,40,35,26,18,79,66,70,59,10,15,3,4,0.6,0.6
2023-08-01T23:00:00,1121A,125.2841,43.8463,长春市,邮电学院,,45,45,35,27,20,86,62,62,60,12,11,4,4,0.6,0.5
2023-08-01T23:00:00,1122A,125.3716,43.8772,长春市,劳动公园,,45,45,34,22,17,81,62,65,59,13,14,5,5,0.6,0.4
2023-08-01T23:00:00,1123A,125.3297,43.8805,长春市,园林处,,47,47,37,26,20,93,64,80,62,21,15,2,3,0.6,0.5
2023-08-01T23:00:00,1124A,125.4605,43.79,长春市,净月潭,,35,33,25,24,15,73,61,63,55,8,8,5,5,0.6,0.3
2023-08-01T23:00:00,1125A,125.7194,43.515,长春市,甩湾子,颗粒物(PM10),56,62,31,12,16,70,54,61,57,12,13,4,4,1.5,1.3
2023-08-01T23:00:00,1126A,125.3863,43.8447,长春市,经开区环卫处,,43,43,37,24,18,68,53,58,54,14,16,4,4,0.5,0.4
2023-08-01T23:00:00,1127A,125.245,43.7783,长春市,高新区管委会,,44,44,34,27,23,69,49,61,54,10,13,2,3,0.5,0.4
2023-08-01T23:00:00,1128A,125.1761,43.8325,长春市,岱山公园,,49,49,36,27,20,70,51,62,56,19,21,2,3,0.6,0.5
2023-08-01T23:00:00,1129A,126.5422,45.755,哈尔滨市,岭北,,29,29,26,19,18,80,55,77,61,7,6,7,8,0.5,0.6
2023-08-01T23:00:00,1130A,126.561,45.8167,哈尔滨市,松北商大,,23,23,32,14,15,62,38,60,43,6,7,5,5,0.5,0.5
2023-08-01T23:00:00,1131A,126.979,45.5419,哈尔滨市,阿城会宁,,31,31,39,15,14,76,35,71,53,12,9,5,5,0.5,0.5
2023-08-01T23:00:00,1132A,126.599,45.7222,哈尔滨市,南岗学府路,,38,38,44,17,16,66,45,64,51,3,3,4,4,0.4,0.5
2023-08-01T23:00:00,1133A,126.689,45.7733,哈尔滨市,太平宏伟公园,,40,40,33,12,12,67,44,65,51,9,8,6,8,0.2,0.3
2023-08-01T23:00:00,1134A,126.635,45.7667,哈尔滨市,道外承德广场,,32,32,42,21,18,66,38,64,49,12,13,8,8,0.5,0.6
2023-08-01T23:00:00,1135A,126.685,45.7319,哈尔滨市,香坊红旗大街,,29,22,37,20,19,68,37,64,49,16,14,4,5,0.6,0.6
2023-08-01T23:00:00,1136A,126.6411,45.7258,哈尔滨市,动力和平路,,,30,41,,,67,42,64,53,13,12,7,6,0.4,0.5
2023-08-01T23:00:00,1137A,126.593,45.7478,哈尔滨市,道里建国路,,28,28,38,18,16,61,43,59,46,11,10,4,4,0.5,0.6
2023-08-01T23:00:00,1138A,126.615,45.61,哈尔滨市,平房东轻厂,,33,33,40,12,13,54,31,50,35,11,8,5,5,0.0,0.3
2023-08-01T23:00:00,1139A,126.595,45.9855,哈尔滨市,呼兰师专,,23,20,36,16,15,68,46,64,53,8,7,6,6,0.3,0.3
2023-08-01T23:00:00,1140A,126.6206,45.6842,哈尔滨市,省农科院,,47,47,49,21,18,71,43,63,37,20,17,14,6,0.2,0.4
2023-08-01T23:00:00,1141A,121.4,31.238,上海市,普陀,,22,22,20,6,10,42,39,39,39,10,10,6,5,0.5,0.4
2023-08-01T23:00:00,1142A,121.478,31.2036,上海市,十五厂,,26,23,20,18,12,45,43,42,42,13,12,9,9,0.3,0.3
2023-08-01T23:00:00,1143A,121.467,31.3008,上海市,虹口,,21,21,20,12,11,49,46,46,46,10,8,8,8,0.3,0.3
2023-08-01T23:00:00,1144A,121.412,31.1654,上海市,徐汇上师大,,20,20,20,13,8,53,50,50,49,9,9,4,4,0.6,0.6
2023-08-01T23:00:00,1145A,121.536,31.2659,上海市,杨浦四漂,,28,28,25,12,9,44,16,40,37,41,14,6,5,0.4,0.4
2023-08-01T23:00:00,1147A,121.425,31.2261,上海市,静安监测站,,22,22,19,12,13,42,40,39,39,11,11,3,3,0.4,0.4
2023-08-01T23:00:00,1148A,121.703,31.1907,上海市,浦东川沙,,23,23,17,13,10,63,44,58,57,19,12,6,6,0.5,0.4
2023-08-01T23:00:00,1149A,121.533,31.2284,上海市,浦东新区监测站,,20,20,18,8,7,52,45,47,47,10,8,8,7,0.3,0.3
2023-08-01T23:00:00,1150A,121.577,31.2071,上海市,浦东张江,,24,24,19,15,13,54,45,48,48,16,13,6,5,0.4,0.5
2023-08-01T23:00:00,1151A,118.8086,32.1065,南京市,迈皋桥,,26,26,19,9,7,91,27,77,62,17,11,6,6,0.4,0.4
2023-08-01T23:00:00,1152A,118.7538,32.0551,南京市,草场门,,13,12,18,9,8,98,35,81,68,15,13,4,4,0.5,0.4
2023-08-01T23:00:00,1153A,118.7794,32.0745,南京市,山西路,,24,24,23,9,6,106,36,89,74,12,9,4,4,0.2,0.2
2023-08-01T23:00:00,1154A,118.7752,32.0023,南京市,中华门,,12,12,16,5,6,93,29,79,62,11,11,6,7,0.7,0.7
2023-08-01T23:00:00,1155A,118.8109,32.0309,南京市,瑞金路,,17,17,18,9,8,96,31,78,65,15,13,4,4,0.4,0.5
2023-08-01T23:00:00,1156A,118.7997,32.0754,南京市,玄武湖,,22,14,19,15,8,96,24,80,66,17,10,6,7,0.4,0.4
2023-08-01T23:00:00,1157A,118.6414,32.0931,南京市,浦口,,24,24,21,9,10,104,37,86,68,22,17,4,5,0.2,0.2
2023-08-01T23:00:00,1158A,118.7356,31.9996,南京市,奥体中心,,13,11,21,9,12,98,27,82,63,20,14,6,7,0.3,0.4
2023-08-01T23:00:00,1159A,118.9125,32.1028,南京市,仙林大学城,,18,17,19,12,7,106,28,82,65,10,9,8,8,0.5,0.5
2023-08-01T23:00:00,1160A,120.561,31.2472,苏州市,上方山,,43,43,30,13,9,46,12,32,25,16,14,6,6,0.4,0.4
2023-08-01T23:00:00,1162A,120.591,31.3019,苏州市,彩香,,31,31,23,15,11,61,21,40,34,14,10,7,7,0.5,0.5
2023-08-01T23:00:00,1163A,120.596,31.3264,苏州市,轧钢厂,,32,32,22,15,11,63,13,38,31,21,12,9,9,0.5,0.4
2023-08-01T23:00:00,1164A,120.613,31.2703,苏州市,吴中区,,37,37,25,17,11,54,11,38,28,28,19,8,8,0.4,0.4
2023-08-01T23:00:00,1165A,120.543,31.2994,苏州市,苏州新区,,31,31,24,18,13,56,15,39,30,19,11,8,8,0.5,0.5
2023-08-01T23:00:00,1166A,120.669,31.3097,苏州市,苏州工业园区,,28,28,21,16,12,51,17,37,32,15,10,10,9,0.5,0.5
2023-08-01T23:00:00,1167A,120.641,31.3708,苏州市,相城区,,28,28,20,18,10,63,20,38,30,17,13,7,6,0.6,0.5
2023-08-01T23:00:00,1168A,120.9098,31.9663,南通市,狼山街道,,20,20,15,6,5,64,64,52,52,8,7,8,7,0.3,0.3
2023-08-01T23:00:00,1169A,120.86,32.0005,南通市,虹桥,,20,20,18,12,10,62,62,46,46,9,9,9,9,0.4,0.4
2023-08-01T23:00:00,1170A,120.87,32.02,南通市,城中,,20,15,14,11,6,62,62,50,50,10,7,6,6,0.4,0.4
2023-08-01T23:00:00,1171A,120.94,31.93,南通市,星湖花园,,19,15,12,6,5,59,59,47,47,9,7,5,5,0.4,0.3
2023-08-01T23:00:00,1172A,120.81,32.0417,南通市,紫琅学院,,20,15,13,7,3,63,63,49,49,9,7,6,5,0.4,0.4
2023-08-01T23:00:00,1173A,119.176,34.5885,连云港市,市环境监测站,,22,22,24,14,11,73,45,68,55,8,6,5,5,0.3,0.2
2023-08-01T23:00:00,1177A,117.179,34.2761,徐州市,黄河新村,,19,19,28,11,15,77,40,72,61,7,6,6,6,0.3,0.3
2023-08-01T23:00:00,1178A,117.1918,34.2384,徐州市,淮塔,,20,20,26,11,16,77,38,72,61,9,8,8,8,0.2,0.3
2023-08-01T23:00:00,1180A,117.256,34.2153,徐州市,新城区,,32,32,37,12,16,84,43,78,67,12,8,6,6,0.3,0.3
2023-08-01T23:00:00,1181A,117.244,34.2911,徐州市,桃园路,,22,22,20,12,12,90,36,82,64,12,6,8,8,0.2,0.2
2023-08-01T23:00:00,1182A,117.2933,34.2778,徐州市,农科院,,22,22,19,15,15,91,28,82,61,23,10,5,5,0.3,0.3
2023-08-01T23:00:00,1186A,119.389,32.3761,扬州市,邗江监测站,,29,29,25,17,13,101,26,72,38,12,13,7,7,0.5,0.6
2023-08-01T23:00:00,1188A,120.269,31.4867,无锡市,雪浪,,31,31,20,12,9,71,24,50,41,20,16,5,4,0.5,0.4
2023-08-01T23:00:00,1189A,120.275,31.6219,无锡市,黄巷,,27,27,40,9,11,59,30,42,33,21,21,6,6,0.5,0.5
2023-08-01T23:00:00,1190A,120.294,31.56,无锡市,曹张,,28,28,19,9,9,62,24,44,38,11,8,10,9,0.6,0.5
2023-08-01T23:00:00,1191A,120.242,31.5031,无锡市,漆塘,,,24,16,12,9,71,,52,46,21,15,8,6,0.7,0.7
2023-08-01T23:00:00,1192A,120.3489,31.5863,无锡市,东亭,,24,24,20,14,10,72,34,48,41,15,16,11,11,0.5,0.5
2023-08-01T23:00:00,1193A,120.354,31.5475,无锡市,旺庄,,22,22,15,9,10,68,24,45,38,15,10,9,8,0.7,0.6
2023-08-01T23:00:00,1194A,120.245,31.5631,无锡市,荣巷,,24,24,17,14,10,68,26,50,41,15,12,10,9,0.5,0.5
2023-08-01T23:00:00,1195A,120.299,31.6817,无锡市,堰桥,,24,24,16,14,7,83,24,56,41,18,11,6,6,0.6,0.6
2023-08-01T23:00:00,1196A,119.9633,31.762,常州市,市监测站,,27,27,21,13,11,78,14,54,37,21,15,8,8,0.6,0.7
2023-08-01T23:00:00,1200A,119.9468,31.7069,常州市,武进监测站,,31,31,26,11,11,92,30,62,48,11,10,8,9,0.5,0.6
2023-08-01T23:00:00,1201A,119.9255,31.9087,常州市,安家,,20,18,17,14,13,86,21,64,46,14,10,5,5,0.6,0.6
2023-08-01T23:00:00,1203A,119.6707,32.1875,镇江市,新区办事处,,35,35,26,18,14,100,29,77,52,16,15,1,3,0.6,0.7
2023-08-01T23:00:00,1204A,119.4974,32.1968,镇江市,职教中心,,29,29,26,14,11,94,17,76,41,24,19,10,4,0.5,0.6
2023-08-01T23:00:00,1205A,119.4303,32.1328,镇江市,丹徒区监测站,,36,36,25,25,18,115,22,87,54,23,15,3,2,0.6,0.6
2023-08-01T23:00:00,1206A,119.905,32.4878,泰州市,公园路,,22,22,17,12,10,59,48,51,45,9,7,4,4,0.4,0.4
2023-08-01T23:00:00,1207A,119.9189,32.4625,泰州市,莲花,,25,20,16,17,11,56,44,49,42,7,5,3,3,0.4,0.3
2023-08-01T23:00:00,1209A,119.888,32.4639,泰州市,留学生创业园,,37,37,106,5,11,55,43,50,42,7,4,7,7,0.4,0.3
2023-08-01T23:00:00,1210A,119.036,33.5981,淮安市,钵池山,,22,22,15,14,11,59,29,54,47,10,7,7,6,0.7,0.6
2023-08-01T23:00:00,1211A,119.007,33.575,淮安市,北京南路,,22,17,15,15,10,52,23,47,39,12,9,9,8,0.5,0.5
2023-08-01T23:00:00,1212A,118.989,33.6067,淮安市,市监测站,,,27,21,14,7,58,31,54,48,9,6,,5,0.6,0.6
2023-08-01T23:00:00,1213A,119.135,33.5039,淮安市,楚州区监测站,,26,22,16,18,11,52,18,48,38,15,7,7,6,0.7,0.7
2023-08-01T23:00:00,1214A,119.0186,33.6297,淮安市,淮阴区监测站,,24,24,19,8,10,57,23,53,43,13,8,6,8,0.6,0.3
2023-08-01T23:00:00,1215A,120.118,33.4022,盐城市,盐城电厂,,,,,,,,,,,,,,,,
2023-08-01T23:00:00,1216A,120.156,33.3942,盐城市,市监测站,,19,18,19,11,13,64,58,63,55,4,3,3,4,0.3,0.3
2023-08-01T23:00:00,1218A,120.2144,33.38,盐城市,开发区管委会,,30,11,17,21,12,62,54,57,55,6,6,5,5,0.3,0.3
2023-08-01T23:00:00,1220A,118.293,33.9528,宿迁市,宿迁学院,,32,24,20,22,12,77,33,67,48,9,7,7,7,0.5,0.5
2023-08-01T23:00:00,1221A,118.2442,33.9592,宿迁市,宿迁中学,,27,27,23,18,12,75,36,67,50,10,10,6,5,0.5,0.5
2023-08-01T23:00:00,1223A,120.2072,30.2111,杭州市,滨江,,31,31,27,13,12,75,22,47,35,9,13,6,7,0.5,0.5
2023-08-01T23:00:00,1224A,120.0633,30.2747,杭州市,西溪,,25,25,24,13,12,77,25,51,39,6,9,3,4,0.6,0.6
2023-08-01T23:00:00,1226A,120.3461,30.3153,杭州市,下沙,,25,25,23,12,10,81,29,54,39,14,12,5,4,0.4,0.4
2023-08-01T23:00:00,1227A,120.1269,30.2456,杭州市,卧龙桥,,22,22,21,12,12,86,24,57,44,8,10,5,6,0.5,0.5
2023-08-01T23:00:00,1228A,120.1903,30.2692,杭州市,浙江农大,,19,19,19,13,13,86,35,59,48,9,10,6,6,0.6,0.6
2023-08-01T23:00:00,1230A,120.1197,30.3119,杭州市,和睦小学,,28,28,28,15,13,79,28,53,39,8,9,6,6,0.7,0.7
2023-08-01T23:00:00,1231A,120.3019,30.4183,杭州市,临平镇,,28,28,21,14,8,62,34,50,41,7,6,4,4,0.3,0.3
2023-08-01T23:00:00,1232A,120.2697,30.1819,杭州市,城厢镇,,28,28,24,17,17,77,19,50,38,18,15,6,6,0.5,0.4
2023-08-01T23:00:00,1233A,120.0883,30.1808,杭州市,云栖,,28,28,23,8,9,77,6,57,35,9,10,5,5,0.5,0.5
2023-08-01T23:00:00,1234A,121.8358,29.911,宁波市,区环保大楼,,22,22,17,9,7,44,6,31,20,26,20,4,4,0.5,0.5
2023-08-01T23:00:00,1235A,121.56,29.82,宁波市,万里学院,,26,26,21,14,12,62,12,36,25,17,18,6,5,0.4,0.5
2023-08-01T23:00:00,1236A,121.713,29.9572,宁波市,龙赛医院,,20,20,19,10,9,65,26,43,27,12,14,8,9,0.4,0.4
2023-08-01T23:00:00,1239A,121.633,29.7733,宁波市,钱湖水厂,,24,24,20,11,8,60,1,34,16,20,10,3,3,0.5,0.5
2023-08-01T23:00:00,1240A,121.5856,29.8635,宁波市,太古小学,,29,29,28,8,9,42,6,24,13,16,16,4,4,0.6,0.6
2023-08-01T23:00:00,1241A,121.524,29.8674,宁波市,市环境监测中心,,23,23,21,9,9,93,20,51,32,11,11,6,6,0.4,0.5
2023-08-01T23:00:00,1242A,120.634,28.0089,温州市,瓯海,,26,26,25,5,12,52,2,46,20,20,18,5,5,0.5,0.4
2023-08-01T23:00:00,1243A,120.6748,27.9939,温州市,南浦,,23,23,26,10,16,74,4,52,25,24,18,6,6,0.6,0.4
2023-08-01T23:00:00,1244A,120.76,27.9747,温州市,龙湾,,32,32,28,13,12,69,4,56,22,23,18,6,6,0.4,0.5
2023-08-01T23:00:00,1245A,120.6709,28.0167,温州市,市站,,,,24,,11,46,,39,28,23,16,5,5,0.4,0.4
2023-08-01T23:00:00,1247A,120.6053,29.9928,绍兴市,城东开发委,,25,25,23,9,12,74,22,49,35,14,17,5,5,0.6,0.4
2023-08-01T23:00:00,1250A,120.0751,30.8669,湖州市,城西水厂,,29,29,24,15,12,78,22,58,45,18,14,2,2,0.5,0.5
2023-08-01T23:00:00,1252A,120.7436,30.778,嘉兴市,清河小学,,22,22,18,9,8,55,36,45,37,4,5,4,5,0.3,0.2
2023-08-01T23:00:00,1253A,120.726,30.7478,嘉兴市,嘉兴学院,,21,21,20,12,10,48,31,41,34,11,11,3,3,0.3,0.4
2023-08-01T23:00:00,1255A,121.273,28.6459,台州市,黄岩环保大楼,,26,26,23,13,13,32,5,24,10,16,14,4,4,0.4,0.6
2023-08-01T23:00:00,1256A,121.419,28.6542,台州市,台州环保大楼,,26,26,20,11,9,32,14,28,24,9,10,3,3,0.3,0.3
2023-08-01T23:00:00,1257A,121.377,28.5773,台州市,路桥田洋王,,26,26,22,13,11,34,13,26,20,8,10,3,3,0.2,0.3
2023-08-01T23:00:00,1258A,122.122,30.0203,舟山市,定海檀枫,,25,25,17,11,8,36,28,34,32,5,5,5,5,0.4,0.4
2023-08-01T23:00:00,1259A,122.3094,29.9558,舟山市,普陀东港,,26,26,20,9,8,48,32,44,38,2,3,4,4,0.4,0.4
2023-08-01T23:00:00,1260A,122.19,29.9944,舟山市,临城新区,,18,18,15,4,6,37,29,35,33,2,2,5,5,0.4,0.2
2023-08-01T23:00:00,1262A,119.647,29.077,金华市,十五中,,28,28,30,8,12,121,26,108,59,17,15,2,3,0.4,0.4
2023-08-01T23:00:00,1263A,119.686,29.1029,金华市,监测站,,29,29,28,16,14,113,21,95,50,20,16,4,4,0.4,0.4
2023-08-01T23:00:00,1264A,118.8692,28.9398,衢州市,环保大楼,,26,26,29,14,16,134,35,117,74,23,16,2,4,0.4,0.4
2023-08-01T23:00:00,1265A,118.8709,28.9666,衢州市,实验学校,,41,41,40,14,17,136,30,118,77,24,19,5,3,0.3,0.4
2023-08-01T23:00:00,1266A,118.8621,28.9808,衢州市,衢州学院,,23,23,32,13,15,125,24,110,73,25,17,3,3,0.4,0.4
2023-08-01T23:00:00,1267A,119.914,28.4514,丽水市,监测站大楼,,18,18,21,5,8,103,12,63,28,19,14,8,6,0.4,0.4
2023-08-01T23:00:00,1268A,119.93,28.4586,丽水市,莲都小学,,16,16,22,5,7,99,10,63,26,20,12,7,5,0.5,0.5
2023-08-01T23:00:00,1269A,119.879,28.4231,丽水市,余庄前,,20,20,24,5,7,97,3,63,16,8,9,4,5,0.5,0.5
2023-08-01T23:00:00,1270A,117.1959,31.7848,合肥市,明珠广场,,27,27,27,12,16,123,47,114,89,18,15,6,6,0.3,0.4
2023-08-01T23:00:00,1271A,117.3072,31.8764,合肥市,三里街,,24,24,28,14,18,114,53,96,82,15,16,5,5,0.4,0.5
2023-08-01T23:00:00,1272A,117.2588,31.8707,合肥市,琥珀山庄,,22,22,28,9,19,125,61,102,91,10,12,5,5,0.5,0.6
2023-08-01T23:00:00,1273A,117.1604,31.9052,合肥市,董铺水库,,21,19,27,9,14,123,65,106,92,13,13,4,4,0.3,0.3
2023-08-01T23:00:00,1274A,117.25,31.8571,合肥市,长江中路,,29,29,36,14,20,127,54,112,89,13,14,6,6,0.4,0.4
2023-08-01T23:00:00,1275A,117.266,31.9436,合肥市,庐阳区,,29,29,31,17,18,123,52,100,83,21,19,3,3,0.4,0.4
2023-08-01T23:00:00,1276A,117.336,31.8586,合肥市,瑶海区,,27,27,32,10,13,113,53,97,81,12,12,8,8,0.5,0.6
2023-08-01T23:00:00,1277A,117.3027,31.7964,合肥市,包河区,,27,27,32,14,18,116,16,104,71,54,22,10,9,0.4,0.5
2023-08-01T23:00:00,1278A,117.2776,31.7385,合肥市,滨湖新区,,17,17,26,9,15,121,52,111,89,9,9,7,9,0.4,0.4
2023-08-01T23:00:00,1279A,117.1318,31.8403,合肥市,高新区,,25,22,29,17,17,118,57,109,91,14,14,9,9,0.3,0.3
2023-08-01T23:00:00,1280A,119.3903,26.0543,福州市,鼓山,,,,,,,,,,,,,,,,
2023-08-01T23:00:00,1282A,119.2681,26.0504,福州市,师大,,35,35,32,15,15,126,52,104,78,22,11,4,4,0.3,0.4
2023-08-01T23:00:00,1283A,119.2984,26.1028,福州市,五四北路,,39,39,33,17,15,103,54,88,77,21,11,4,4,0.3,0.4
2023-08-01T23:00:00,1284A,119.2648,26.0768,福州市,杨桥西路,,38,38,33,17,16,123,52,106,78,20,11,4,3,0.3,0.5
2023-08-01T23:00:00,1285A,119.317,26.0746,福州市,紫阳,,42,42,33,18,14,121,53,92,74,17,10,5,4,0.5,0.6
2023-08-01T23:00:00,1286A,118.1608,24.8169,厦门市,溪东,,,,,,,,,,,,,,,,
2023-08-01T23:00:00,1287A,118.1514,24.4767,厦门市,洪文,,22,22,29,10,16,95,29,79,58,15,17,1,2,0.3,0.4
2023-08-01T23:00:00,1288A,118.0661,24.4444,厦门市,鼓浪屿,,25,9,25,8,19,99,24,82,61,50,27,4,4,0.3,0.5
2023-08-01T23:00:00,1290A,115.8931,28.6843,南昌市,省外办,,25,25,19,14,11,88,42,77,67,22,12,9,8,0.6,0.6
2023-08-01T23:00:00,1291A,115.8886,28.7003,南昌市,省林业公司,,36,36,11,19,10,88,25,81,63,58,16,9,6,0.4,0.4
2023-08-01T23:00:00,1292A,115.8126,28.7442,南昌市,林科所,,12,9,10,0,5,88,36,80,59,20,12,4,6,0.5,0.6
2023-08-01T23:00:00,1294A,115.8518,28.687,南昌市,建工学校,,22,18,10,15,9,93,40,84,71,25,7,6,6,0.6,0.6
2023-08-01T23:00:00,1295A,115.8921,28.6424,南昌市,象湖,,22,21,13,15,11,90,40,83,71,23,8,4,4,0.7,0.7
2023-08-01T23:00:00,1296A,115.7423,28.7996,南昌市,武术学校,,19,19,17,12,12,88,9,83,47,6,6,17,17,1.3,0.9
2023-08-01T23:00:00,1298A,115.9314,28.6842,南昌市,省站,,35,35,19,23,11,88,42,79,71,22,13,7,7,0.5,0.4
2023-08-01T23:00:00,1299A,116.9862,36.6114,济南市,科干所,,22,22,26,12,18,98,63,89,86,9,6,7,6,0.3,0.3
2023-08-01T23:00:00,1300A,116.9376,36.665,济南市,农科所,,22,22,24,7,11,99,63,87,81,11,8,7,6,0.1,0.1
2023-08-01T23:00:00,1301A,117.1265,36.6734,济南市,开发区,,22,15,22,10,14,101,68,91,89,6,6,5,4,0.4,0.4
2023-08-01T23:00:00,1303A,117.0624,36.6868,济南市,省种子仓库,,25,17,22,17,12,103,66,88,84,4,5,5,4,0.4,0.4
2023-08-01T23:00:00,1304A,116.9489,36.6447,济南市,机床二厂,,22,22,24,7,13,109,69,98,92,8,6,9,7,0.5,0.5
2023-08-01T23:00:00,1305A,117.0495,36.663,济南市,市监测站,,22,22,24,10,16,103,70,89,85,9,11,3,3,0.3,0.3
2023-08-01T23:00:00,1306A,116.7675,36.5484,济南市,长清党校,,22,22,27,10,20,113,68,104,91,12,8,8,6,0.4,0.4
2023-08-01T23:00:00,1307A,120.6659,36.2403,青岛市,仰口,,20,12,14,14,16,45,21,40,32,8,6,5,6,0.2,0.1
2023-08-01T23:00:00,1310A,120.4134,36.0658,青岛市,市南区东部子站,,15,14,15,9,10,66,45,57,52,13,11,4,5,0.3,0.3
2023-08-01T23:00:00,1311A,120.3664,36.1032,青岛市,四方区子站,,19,19,17,9,9,62,53,60,54,11,14,6,8,0.4,0.4
2023-08-01T23:00:00,1312A,120.2994,36.054,青岛市,市南区西部子站,,22,22,20,15,9,54,39,48,35,23,18,13,11,0.5,0.4
2023-08-01T23:00:00,1313A,120.4581,36.0858,青岛市,崂山区子站,,19,19,18,9,10,74,54,67,62,6,6,6,7,0.2,0.2
2023-08-01T23:00:00,1314A,120.1983,35.9608,青岛市,黄岛区子站,,20,7,14,12,13,62,61,58,58,7,7,5,6,0.4,0.4
2023-08-01T23:00:00,1315A,120.3999,36.3083,青岛市,城阳区子站,,24,24,24,12,11,82,39,70,47,19,14,5,6,0.3,0.3
2023-08-01T23:00:00,1316A,113.69031,34.76122,郑州市,烟厂,,27,20,28,14,16,105,84,103,97,13,13,1,2,0.3,0.4
2023-08-01T23:00:00,1317A,113.65724,34.77134,郑州市,郑纺机,,,26,26,,,107,83,104,97,6,6,3,2,0.5,0.5
2023-08-01T23:00:00,1318A,113.67526,34.80246,郑州市,银行学校,,28,19,21,9,13,116,87,110,104,14,12,3,3,0.5,0.5
2023-08-01T23:00:00,1319A,113.56746,34.81334,郑州市,供水公司,,27,20,24,10,13,111,84,98,87,11,17,2,2,0.4,0.5
2023-08-01T23:00:00,1320A,113.7329,34.7178,郑州市,经开区管委,,27,27,26,13,16,93,62,90,81,7,6,3,3,0.5,0.5
2023-08-01T23:00:00,1321A,113.73961,34.77172,郑州市,四十七中,,24,24,23,12,14,89,70,86,79,10,9,1,1,0.5,0.5
2023-08-01T23:00:00,1322A,113.60532,34.74838,郑州市,市监测站,,27,24,29,14,14,107,86,103,97,9,16,3,3,0.3,0.5
2023-08-01T23:00:00,1323A,113.64164,34.7525,郑州市,河医大,,26,26,27,11,14,93,74,91,86,5,7,2,2,0.3,0.4
2023-08-01T23:00:00,1324A,113.51488,34.91089,郑州市,岗李水库,,29,29,28,11,12,125,22,101,67,14,15,2,2,0.6,0.6
2023-08-01T23:00:00,1325A,114.3677,30.5584,武汉市,东湖梨园,,22,22,26,7,12,128,67,123,106,15,14,6,6,0.7,0.8
2023-08-01T23:00:00,1326A,114.2529,30.558,武汉市,汉阳月湖,,20,20,30,2,10,113,49,105,84,22,21,6,7,0.5,0.6
2023-08-01T23:00:00,1327A,114.282,30.6189,武汉市,汉口花桥,,27,27,32,15,15,133,58,124,100,18,16,7,8,0.4,0.5
2023-08-01T23:00:00,1328A,114.3025,30.5332,武汉市,武昌紫阳,,21,21,27,12,14,132,65,126,106,20,16,4,5,0.5,0.6
2023-08-01T23:00:00,1329A,114.3646,30.6217,武汉市,青山钢花,,23,23,33,14,18,140,49,126,99,17,14,6,8,0.5,0.6
2023-08-01T23:00:00,1330A,114.1566,30.4825,武汉市,沌口新区,,20,19,29,11,21,127,63,107,83,27,21,5,7,0.5,0.6
2023-08-01T23:00:00,1331A,114.3014,30.5944,武汉市,汉口江滩,,18,16,25,7,13,138,56,125,98,8,15,5,5,0.6,0.7
2023-08-01T23:00:00,1333A,114.135,30.6319,武汉市,吴家山,,23,19,30,12,13,138,71,120,86,12,19,5,6,0.4,0.6
2023-08-01T23:00:00,1334A,113.8454,30.2917,武汉市,沉湖七壕,,19,3,20,9,13,128,59,91,73,13,22,6,6,0.6,0.7
2023-08-01T23:00:00,1335A,113.0833,28.2325,长沙市,经开区环保局,,14,14,21,7,12,88,36,78,60,20,12,5,4,0.4,0.4
2023-08-01T23:00:00,1336A,112.8872,28.2189,长沙市,高开区环保局,,16,10,16,11,13,114,43,90,64,15,9,12,6,1.0,0.6
2023-08-01T23:00:00,1337A,113.0792,28.2053,长沙市,马坡岭,,18,18,24,8,15,96,40,92,62,18,13,4,5,0.3,0.4
2023-08-01T23:00:00,1338A,112.9394,28.19,长沙市,湖南师范大学,,20,10,23,14,16,107,24,91,58,19,10,4,2,1.0,0.5
2023-08-01T23:00:00,1339A,113.0178,28.1322,长沙市,雨花区环保局,,28,28,26,16,14,89,23,80,54,26,10,5,4,0.7,0.5
2023-08-01T23:00:00,1340A,112.9792,28.2597,长沙市,伍家岭,,28,26,25,19,21,98,26,84,58,28,14,4,3,0.9,0.6
2023-08-01T23:00:00,1341A,113.0014,28.1944,长沙市,火车新站,,20,14,17,14,14,87,16,76,51,35,12,5,5,0.9,0.6
2023-08-01T23:00:00,1342A,112.9844,28.1178,长沙市,天心区环保局,,15,10,17,5,8,102,22,84,54,30,12,3,3,0.8,0.6
2023-08-01T23:00:00,1343A,112.8908,28.1308,长沙市,湖南中医药大学,,15,8,16,10,11,114,22,90,60,26,12,6,3,1.0,0.8
2023-08-01T23:00:00,1344A,112.9581,28.3611,长沙市,沙坪,,35,35,30,12,13,90,22,76,48,12,10,5,5,0.5,0.5
2023-08-01T23:00:00,1345A,113.2347,23.1423,广州市,广雅中学,,18,18,25,8,12,167,49,124,89,17,26,4,4,0.4,0.5
2023-08-01T23:00:00,1346A,113.2612,23.105,广州市,市五中,,19,19,26,6,10,180,58,132,93,10,20,5,5,0.5,0.6
2023-08-01T23:00:00,1348A,113.3478,23.0916,广州市,广东商学院,,20,20,28,10,12,139,34,104,70,28,25,3,5,0.5,0.6
2023-08-01T23:00:00,1349A,113.4332,23.1047,广州市,市八十六中,,30,30,28,13,12,154,21,109,63,39,24,4,6,0.5,0.4
2023-08-01T23:00:00,1350A,113.3505,22.9483,广州市,番禺中学,,18,18,20,8,9,150,41,110,74,22,24,8,9,0.6,0.6
2023-08-01T23:00:00,1351A,113.2146,23.3916,广州市,花都师范,,30,30,27,21,17,175,52,138,102,31,26,6,7,0.7,0.7
2023-08-01T23:00:00,1352A,113.2597,23.1331,广州市,市监测站,,15,11,25,7,13,163,47,120,84,20,29,6,7,0.7,0.7
2023-08-01T23:00:00,1353A,113.5618,23.312,广州市,九龙镇镇龙,,30,30,28,15,14,164,70,132,110,16,21,6,6,0.6,0.6
2023-08-01T23:00:00,1354A,113.2765,23.1544,广州市,麓湖,,18,18,26,8,12,150,48,114,83,15,23,6,7,0.6,0.7
2023-08-01T23:00:00,1355A,113.443,23.3035,广州市,帽峰山森林公园,,29,29,20,14,8,196,29,135,95,31,19,8,8,0.3,0.3
2023-08-01T23:00:00,1356A,114.1063,22.5545,深圳市,通心岭子站,,29,19,15,11,8,92,92,66,66,6,10,4,4,0.7,0.6
2023-08-01T23:00:00,1357A,114.117,22.5625,深圳市,洪湖,,32,32,18,16,9,90,90,69,69,9,12,5,5,0.7,0.6
2023-08-01T23:00:00,1358A,113.987,22.5417,深圳市,华侨城,,28,24,16,19,10,58,54,48,48,14,15,6,6,0.6,0.6
2023-08-01T23:00:00,1359A,113.9181,22.5171,深圳市,南海子站,,,49,37,34,14,60,,44,44,22,18,4,4,0.5,0.8
2023-08-01T23:00:00,1360A,114.2458,22.5689,深圳市,盐田,,22,22,16,10,9,77,67,64,64,10,13,4,4,0.6,0.5
2023-08-01T23:00:00,1361A,114.2283,22.7244,深圳市,龙岗,,22,17,20,10,9,87,70,79,77,11,12,7,7,0.7,0.6
2023-08-01T23:00:00,1363A,114.494,22.5422,深圳市,南澳,,30,30,17,20,8,78,34,66,56,7,8,6,7,0.6,0.6
2023-08-01T23:00:00,1364A,114.41,22.6342,深圳市,葵涌,,36,36,20,15,8,71,14,60,48,36,6,7,6,0.7,0.6
2023-08-01T23:00:00,1365A,114.297,22.5978,深圳市,梅沙,,28,28,20,15,9,70,54,64,62,9,4,5,5,0.9,0.8
2023-08-01T23:00:00,1366A,114.0678,22.738,深圳市,观澜,,34,34,25,14,11,112,29,72,46,37,21,7,7,0.6,0.5
2023-08-01T23:00:00,1367A,113.5814,22.2618,珠海市,吉大,,25,9,9,4,3,80,80,69,69,9,11,5,4,0.5,0.5
2023-08-01T23:00:00,1368A,113.4881,22.2335,珠海市,前山,,15,9,9,10,5,53,48,50,50,24,13,6,6,0.4,0.4
2023-08-01T23:00:00,1369A,113.628,22.4251,珠海市,唐家,,22,11,11,8,5,70,70,67,67,6,12,4,4,0.2,0.2
2023-08-01T23:00:00,1370A,113.299,22.2281,珠海市,斗门,,20,8,8,14,9,61,58,52,52,4,8,4,4,0.4,0.4
2023-08-01T23:00:00,1371A,113.1294,23.0067,佛山市,湾梁,,15,14,16,10,13,166,45,120,76,16,24,6,6,0.5,0.5
2023-08-01T23:00:00,1372A,113.1083,23.0478,佛山市,华材职中,,17,17,19,11,11,156,40,112,76,20,23,8,8,0.4,0.4
2023-08-01T23:00:00,1373A,113.144,23.0453,佛山市,南海气象局,,26,26,25,14,11,132,22,95,61,30,25,5,5,0.5,0.4
2023-08-01T23:00:00,1374A,113.2881,22.8094,佛山市,顺德苏岗,,9,7,16,5,8,88,23,77,55,17,19,7,6,0.7,0.7
2023-08-01T23:00:00,1376A,112.8383,22.8678,佛山市,高明孔堂,,19,19,20,8,10,159,48,118,81,12,13,4,5,0.5,0.5
2023-08-01T23:00:00,1377A,112.8836,23.1588,佛山市,三水监测站,,29,29,28,16,16,219,40,146,91,25,29,5,3,0.7,0.7
2023-08-01T23:00:00,1378A,112.867,23.185,佛山市,三水云东海,,22,22,30,11,16,201,39,151,100,23,23,6,6,0.5,0.6
2023-08-01T23:00:00,1379A,113.3769,22.5211,中山市,华柏园,,23,9,15,16,9,65,47,54,52,16,15,6,6,0.3,0.3
2023-08-01T23:00:00,1380A,113.3881,22.5497,中山市,张溪,,22,22,19,4,5,67,54,58,52,8,14,6,6,0.4,0.4
2023-08-01T23:00:00,1381A,113.4075,22.5111,中山市,紫马岭,,23,23,13,13,7,67,48,59,53,8,8,3,4,0.3,0.2
2023-08-01T23:00:00,1382A,113.4411,22.4853,中山市,长江旅游区,,12,12,12,6,4,70,29,60,49,5,6,10,10,0.4,0.3
2023-08-01T23:00:00,1383A,113.1064,22.6058,江门市,北街,,11,10,15,6,5,86,35,77,61,14,12,6,6,0.4,0.4
2023-08-01T23:00:00,1384A,113.0731,22.5835,江门市,西区,,24,24,16,8,8,89,33,76,56,16,14,6,6,0.4,0.4
2023-08-01T23:00:00,1385A,113.0219,22.5311,江门市,圭峰西,,,,16,6,7,85,34,77,58,15,13,3,3,0.5,0.5
2023-08-01T23:00:00,1386A,113.0828,22.5947,江门市,东湖,,16,16,16,3,5,86,39,78,63,11,11,5,5,0.4,0.4
2023-08-01T23:00:00,1389A,113.7547,23.0494,东莞市,莞城梨川,,35,35,22,17,11,153,35,122,78,33,21,9,9,0.9,0.8
2023-08-01T23:00:00,1390A,113.7944,23.0128,东莞市,东城石井,,32,32,24,13,10,152,16,114,64,34,19,7,7,0.7,0.6
2023-08-01T23:00:00,1391A,113.7383,22.9658,东莞市,南城西平,,21,21,23,8,12,125,44,105,74,26,24,4,4,0.9,0.9
2023-08-01T23:00:00,1392A,114.4183,23.0528,惠州市,河南岸金山湖子站,,21,21,22,12,6,103,40,76,58,11,12,3,4,0.6,0.6
2023-08-01T23:00:00,1393A,114.4053,23.0822,惠州市,下埔横江三路子站,,15,12,20,10,7,98,37,78,60,9,9,4,6,0.7,0.7
2023-08-01T23:00:00,1394A,114.4103,23.1142,惠州市,江北云山西路子站,,18,14,26,12,9,100,30,85,57,8,8,11,6,0.5,0.5
2023-08-01T23:00:00,1395A,114.4645,22.7833,惠州市,惠阳区承修路船湖子站,,28,28,24,15,11,78,72,72,72,14,13,7,6,0.9,0.8
2023-08-01T23:00:00,1396A,114.5317,22.7422,惠州市,大亚湾管委会子站,,26,26,28,13,9,91,76,74,74,16,19,6,6,0.7,0.7
2023-08-01T23:00:00,1397A,112.4267,23.0706,肇庆市,睦岗子站,,19,19,25,10,14,187,46,132,96,28,21,6,7,0.4,0.4
2023-08-01T23:00:00,1398A,112.4645,23.0475,肇庆市,城中子站,,25,20,25,13,15,191,22,127,97,50,25,5,11,0.6,0.5
2023-08-01T23:00:00,1399A,112.5544,23.1522,肇庆市,坑口子站,,15,10,30,10,17,230,33,168,118,14,17,4,6,0.3,0.3
2023-08-01T23:00:00,1400A,112.4753,23.1,肇庆市,七星岩子站,,15,15,19,9,9,187,45,168,100,16,13,13,9,0.4,0.3
2023-08-01T23:00:00,1401A,108.3103,22.7881,南宁市,二十一中,,,24,23,50,11,77,36,77,36,,12,4,4,1.1,0.7
2023-08-01T23:00:00,1402A,108.3141,22.8528,南宁市,北湖,,15,11,19,10,10,78,42,70,59,9,10,4,4,0.6,0.6
2023-08-01T23:00:00,1403A,108.3206,22.8225,南宁市,市监测站,,22,11,21,15,12,81,30,70,59,21,14,5,6,0.6,0.6
2023-08-01T23:00:00,1404A,108.3829,22.8037,南宁市,大自然花园,,17,17,18,10,11,69,32,61,53,16,12,5,5,0.7,0.7
2023-08-01T23:00:00,1405A,108.4394,22.7904,南宁市,仙葫,,13,10,16,9,8,69,26,64,52,22,10,4,5,0.7,0.6
2023-08-01T23:00:00,1406A,108.2397,22.8467,南宁市,区农职院,,24,24,24,12,10,84,30,73,62,20,16,6,6,0.7,0.7
2023-08-01T23:00:00,1407A,108.3275,22.735,南宁市,英华嘉园,,12,12,19,7,8,67,38,63,57,15,11,5,5,0.6,0.6
2023-08-01T23:00:00,1408A,108.2257,22.7757,南宁市,沙井镇街道办,,24,24,25,11,13,71,42,66,59,24,19,5,3,0.8,0.8
2023-08-01T23:00:00,1409A,110.576,19.9507,海口市,东寨港,,,,,,,,,,,,,,,,
2023-08-01T23:00:00,1410A,110.3232,20.0574,海口市,海南大学,,39,21,14,27,7,83,15,72,48,26,12,6,6,0.5,0.4
2023-08-01T23:00:00,1411A,110.283,20.0053,海口市,秀英海南医院,,43,43,17,21,10,82,11,66,40,32,22,5,5,0.5,0.5
2023-08-01T23:00:00,1412A,110.338,19.9969,海口市,海南师范大学,,25,25,14,11,9,81,22,71,42,12,12,6,7,0.4,0.4
2023-08-01T23:00:00,1413A,110.33,20.0356,海口市,龙华路环保局宿舍,,45,23,15,31,9,76,19,68,42,21,13,6,6,0.5,0.4
2023-08-01T23:00:00,1414A,106.3787,29.8279,重庆市,缙云山,,29,9,16,7,10,111,91,98,98,6,8,7,9,0.3,0.2
2023-08-01T23:00:00,1416A,106.4213,29.8253,重庆市,天生,,15,10,26,10,18,112,36,88,65,21,22,5,6,0.8,0.7
2023-08-01T23:00:00,1417A,106.6263,29.7228,重庆市,两路,,23,17,21,16,16,132,57,104,78,28,30,4,5,0.9,0.8
2023-08-01T23:00:00,1418A,106.2953,29.5983,重庆市,虎溪,,18,18,32,7,16,145,52,111,76,23,22,4,6,0.5,0.6
2023-08-01T23:00:00,1419A,106.5777,29.5102,重庆市,南坪,,26,26,26,16,14,165,44,114,72,22,15,6,6,0.5,0.5
2023-08-01T23:00:00,1420A,106.6556,29.6277,重庆市,唐家沱,,25,25,25,16,16,146,32,115,67,30,25,6,7,0.6,0.5
2023-08-01T23:00:00,1421A,106.6349,29.4906,重庆市,茶园,,19,19,21,7,8,154,55,122,76,23,24,4,5,0.6,0.7
2023-08-01T23:00:00,1422A,106.3754,29.4572,重庆市,白市驿,,15,13,21,9,10,165,45,114,81,14,19,4,6,0.8,0.8
2023-08-01T23:00:00,1425A,106.6205,29.7166,重庆市,空港,,26,26,24,12,12,137,65,115,87,23,24,5,6,0.8,0.8
2023-08-01T23:00:00,1426A,106.4782,29.4875,重庆市,新山村,,40,28,27,28,15,192,38,116,69,40,30,10,8,0.4,0.4
2023-08-01T23:00:00,1427A,106.5616,29.6453,重庆市,礼嘉,,28,28,25,11,14,145,32,117,76,38,27,5,5,0.8,0.7
2023-08-01T23:00:00,1428A,106.4522,29.7091,重庆市,蔡家,,33,33,37,21,16,140,50,123,80,20,23,3,4,0.7,0.7
2023-08-01T23:00:00,1429A,106.5093,29.3917,重庆市,鱼新街,,29,25,24,20,16,155,36,104,57,26,25,5,6,0.8,0.9
2023-08-01T23:00:00,1431A,103.9728,30.7236,成都市,金泉两河,,19,17,26,2,16,153,59,138,123,11,9,2,3,0.4,0.4
2023-08-01T23:00:00,1432A,104.176,30.6872,成都市,十里店,,26,21,21,2,12,170,81,149,134,15,14,3,3,0.6,0.5
2023-08-01T23:00:00,1433A,104.079,30.5706,成都市,三瓦窑,,35,18,28,16,18,186,111,164,156,16,27,2,2,0.5,0.5
2023-08-01T23:00:00,1434A,104.1114,30.63,成都市,沙河铺,,27,27,24,12,12,171,85,150,136,14,17,1,2,0.7,0.6
2023-08-01T23:00:00,1437A,104.0786,30.6531,成都市,君平街,,28,13,25,10,17,194,89,173,153,17,16,4,4,0.6,0.6
2023-08-01T23:00:00,1438A,103.613,31.0283,成都市,灵岩寺,,26,20,20,14,13,144,83,117,114,3,5,1,9,0.4,0.5
2023-08-01T23:00:00,1439A,106.6899,26.5998,贵阳市,马鞍山,,14,14,13,2,1,91,27,81,60,19,10,3,4,0.7,0.6
2023-08-01T23:00:00,1440A,106.6971,26.5694,贵阳市,市环保站,,16,9,11,9,7,90,49,83,71,25,17,4,4,0.5,0.4
2023-08-01T23:00:00,1441A,106.6243,26.6266,贵阳市,鉴湖路,,17,17,15,8,8,96,38,80,62,15,10,5,5,0.4,0.3
2023-08-01T23:00:00,1442A,106.7487,26.6343,贵阳市,燕子冲,,14,14,10,9,6,97,34,84,61,18,14,5,5,0.6,0.6
2023-08-01T23:00:00,1443A,106.6555,26.4365,贵阳市,碧云窝,,19,19,18,2,4,82,35,71,63,9,7,4,6,0.4,0.4
2023-08-01T23:00:00,1444A,106.694,26.5161,贵阳市,中院村,,12,12,15,0,5,79,36,67,57,17,12,5,6,0.4,0.4
2023-08-01T23:00:00,1445A,106.7109,26.6027,贵阳市,红边门,,14,14,18,9,13,85,43,73,58,20,18,4,4,0.5,0.5
2023-08-01T23:00:00,1446A,106.7164,26.5699,贵阳市,新华路,,15,14,17,7,8,89,47,79,65,22,15,5,4,0.4,0.3
2023-08-01T23:00:00,1447A,106.674,26.5424,贵阳市,太慈桥,,12,12,20,0,3,81,37,74,58,10,12,5,4,0.4,0.4
2023-08-01T23:00:00,1450A,102.8204,24.8886,昆明市,呈贡新区,,42,42,22,26,14,83,28,70,62,37,17,9,8,0.6,0.5
2023-08-01T23:00:00,1451A,102.6251,24.9608,昆明市,西山森林公园,,16,14,13,10,9,76,49,63,63,17,11,7,6,0.4,0.5
2023-08-01T23:00:00,1452A,102.7252,25.0902,昆明市,龙泉镇,,,,17,20,11,63,3,48,32,32,17,8,7,0.7,0.6
2023-08-01T23:00:00,1453A,102.7266,25.0375,昆明市,东风东路,,32,32,21,19,13,69,16,57,45,42,23,3,3,0.7,0.5
2023-08-01T23:00:00,1454A,102.6742,25.0669,昆明市,金鼎山,,40,40,36,22,17,64,8,59,46,36,15,18,19,0.6,0.6
2023-08-01T23:00:00,1455A,102.6644,25.0401,昆明市,碧鸡广场,,34,34,25,22,15,56,11,55,40,37,20,10,12,0.7,0.6
2023-08-01T23:00:00,1456A,91.1319,29.6514,拉萨市,八廓街,,30,30,17,17,10,116,50,96,81,35,15,8,7,0.4,0.2
2023-08-01T23:00:00,1457A,91.1221,29.6747,拉萨市,市环保局,,27,27,15,10,9,86,37,80,69,27,16,8,12,0.3,0.3
2023-08-01T23:00:00,1458A,91.0874,29.6475,拉萨市,区监测站,,27,27,9,5,5,88,51,86,73,27,14,9,9,0.5,0.2
2023-08-01T23:00:00,1459A,91.1774,29.6541,拉萨市,西藏大学,,16,14,6,6,6,92,51,87,78,21,7,11,11,0.3,0.2
2023-08-01T23:00:00,1460A,90.9798,29.6588,拉萨市,区辐射站,,17,14,18,9,8,95,53,87,75,19,13,13,10,0.2,0.1
2023-08-01T23:00:00,1461A,91.0834,29.6292,拉萨市,拉萨火车站,,28,28,13,8,6,85,60,83,74,17,10,11,11,0.4,0.4
2023-08-01T23:00:00,1462A,108.882,34.2749,西安市,高压开关厂,,34,34,33,23,21,188,60,160,118,44,24,8,8,0.6,0.5
2023-08-01T23:00:00,1463A,108.993,34.2629,西安市,兴庆小区,,33,31,31,23,17,152,61,140,105,23,17,5,5,0.7,0.7
2023-08-01T23:00:00,1464A,109.06,34.2572,西安市,纺织城,,30,24,35,21,19,148,25,131,87,48,26,3,4,0.6,0.4
2023-08-01T23:00:00,1465A,108.9356,34.2173,西安市,小寨,,28,28,32,13,14,201,55,159,112,24,20,7,7,0.6,0.5
2023-08-01T23:00:00,1466A,108.954,34.2713,西安市,市人民体育场,,31,31,32,17,17,162,70,144,109,20,19,6,6,0.6,0.5
2023-08-01T23:00:00,1467A,108.8922,34.2322,西安市,高新西区,,28,20,31,19,18,219,88,184,138,23,22,7,8,0.7,0.7
2023-08-01T23:00:00,1468A,108.935,34.3474,西安市,经开区,,46,46,31,19,15,138,35,130,102,36,13,2,2,0.6,0.5
2023-08-01T23:00:00,1469A,108.906,34.1546,西安市,长安区,,38,38,43,13,18,248,46,200,137,31,25,4,4,0.3,0.3
2023-08-01T23:00:00,1471A,109.2186,34.3731,西安市,临潼区,,26,26,27,16,15,121,56,110,96,26,17,4,4,0.6,0.5
2023-08-01T23:00:00,1472A,108.869,34.378,西安市,草滩,,36,36,29,20,12,134,38,124,91,32,27,5,5,0.5,0.5
2023-08-01T23:00:00,1473A,108.985,34.1978,西安市,曲江文化产业集团,,37,37,36,16,16,208,44,162,106,32,24,6,5,0.8,0.7
2023-08-01T23:00:00,1474A,109.051,34.3213,西安市,广运潭,,33,33,30,15,15,125,27,112,78,44,20,6,8,0.6,0.5
2023-08-01T23:00:00,1476A,103.631,36.1031,兰州市,兰炼宾馆,,47,47,32,10,14,135,52,124,97,41,19,5,6,0.8,0.6
2023-08-01T23:00:00,1477A,104.1373,35.9454,兰州市,榆中兰大校区,,,,,,,,,,,,,,,,
2023-08-01T23:00:00,1478A,103.8412,36.0726,兰州市,生物制品所,,45,45,33,24,22,113,55,108,88,41,21,13,4,1.3,0.5
2023-08-01T23:00:00,1479A,103.831,36.0464,兰州市,铁路设计院,,42,38,30,29,17,114,56,104,84,37,26,14,7,1.1,0.6
2023-08-01T23:00:00,1483A,101.524,36.6867,西宁市,第五水厂,,,,,,,,,,,,,,,,
2023-08-01T23:00:00,1484A,105.9512,38.6016,银川市,贺兰山马莲口,,30,30,22,14,15,136,81,123,97,26,16,4,4,0.6,0.6
2023-08-01T23:00:00,1488A,106.2328,38.4975,银川市,贺兰山东路,颗粒物(PM10),55,59,37,29,17,148,102,134,116,25,18,6,7,0.5,0.4
2023-08-01T23:00:00,1489A,106.1358,38.5036,银川市,学院路,颗粒物(PM10),84,118,49,25,17,155,41,130,97,57,21,15,15,0.8,0.5
2023-08-01T23:00:00,1490A,87.5801,43.8303,乌鲁木齐市,监测站,,45,45,70,8,17,135,66,118,100,35,37,2,3,0.4,0.7
2023-08-01T23:00:00,1491A,87.6046,43.768,乌鲁木齐市,收费所,,23,18,62,16,26,147,68,133,112,32,35,8,7,0.4,0.4
2023-08-01T23:00:00,1492A,87.4754,43.9469,乌鲁木齐市,新疆农科院农场,,42,42,96,3,13,146,86,127,112,23,45,2,4,0.7,0.8
2023-08-01T23:00:00,1493A,87.5525,43.8711,乌鲁木齐市,铁路局,,35,35,60,19,20,149,59,128,109,42,40,4,5,0.6,0.6
2023-08-01T23:00:00,1494A,87.6432,43.831,乌鲁木齐市,三十一中学,,33,33,61,12,17,140,70,122,109,32,27,4,5,0.7,0.6
2023-08-01T23:00:00,1496A,87.7216,44.1747,乌鲁木齐市,米东区环保局,,44,44,59,14,19,156,103,130,122,11,22,5,8,0.4,0.5
2023-08-01T23:00:00,1508A,112.9433,27.8614,湘潭市,板塘,,14,14,29,5,13,107,43,78,55,16,15,10,14,0.1,0.2
2023-08-01T23:00:00,1511A,112.9118,27.8403,湘潭市,市监测站,,18,5,18,5,10,111,55,86,67,10,11,3,7,0.4,0.5
2023-08-01T23:00:00,1512A,112.8937,27.8728,湘潭市,江麓,,15,11,25,10,13,106,44,82,63,13,14,8,19,0.1,0.5
2023-08-01T23:00:00,1513A,112.9227,27.8159,湘潭市,岳塘,,16,11,21,4,10,100,49,80,60,11,11,12,14,0.2,0.3
2023-08-01T23:00:00,1514A,112.9074,27.9119,湘潭市,科大,,16,16,27,8,12,120,37,88,57,12,11,8,12,0.6,0.7
2023-08-01T23:00:00,1515A,113.135,27.8244,株洲市,天台山庄,,17,13,27,3,12,88,53,76,61,12,12,3,7,0.5,0.6
2023-08-01T23:00:00,1518A,113.095,27.8867,株洲市,株冶医院,,14,14,25,6,10,99,37,77,54,25,17,4,6,0.5,0.6
2023-08-01T23:00:00,1519A,113.167,27.8667,株洲市,市四中,,17,14,25,5,11,87,52,73,60,8,11,4,7,0.4,0.5
2023-08-01T23:00:00,1520A,113.143,27.8381,株洲市,火车站,,17,17,26,2,10,83,46,73,60,10,10,5,9,0.5,0.6
2023-08-01T23:00:00,1524A,113.13,27.8528,株洲市,市监测站,,18,14,26,10,16,89,56,80,68,10,11,8,11,0.5,0.6
2023-08-01T23:00:00,1552A,106.805,26.3003,贵阳市,桐木岭,,23,14,18,11,9,87,72,81,75,2,2,1,1,0.4,0.4
2023-08-01T23:00:00,1559A,113.251,27.8336,株洲市,大京风景区,,21,21,22,5,9,77,17,57,36,4,5,6,7,0.4,0.5
2023-08-01T23:00:00,1562A,113.0048,27.9153,湘潭市,昭山,,14,14,31,7,11,109,27,80,49,22,20,4,5,0.6,0.7
2023-08-01T23:00:00,1564A,112.4876,27.9164,湘潭市,韶山,,15,15,14,3,8,83,7,67,34,6,7,6,7,0.4,0.4
2023-08-01T23:00:00,1585A,109.8756,40.6532,包头市,市环境监测站,,24,24,23,15,15,120,69,108,94,27,16,11,12,0.7,0.6
2023-08-01T23:00:00,1587A,109.9991,40.5842,包头市,包头八中,,35,35,31,15,20,99,67,90,83,22,17,3,5,1.0,0.8
2023-08-01T23:00:00,1588A,109.8538,40.6821,包头市,青山宾馆,,33,28,25,23,18,114,70,107,94,21,15,8,8,1.0,0.9
2023-08-01T23:00:00,1589A,109.8642,40.6288,包头市,惠龙物流,,27,27,26,12,15,114,78,104,93,17,15,7,10,0.7,0.7
2023-08-01T23:00:00,1590A,110.0377,40.5546,包头市,东河鸿龙湾,,25,18,21,17,15,84,47,78,69,29,16,2,2,1.0,0.9
2023-08-01T23:00:00,1591A,110.0023,39.8129,鄂尔多斯市,综合楼,,31,31,32,12,14,107,86,95,88,18,19,4,6,0.6,0.7
2023-08-01T23:00:00,1592A,109.9486,39.8261,鄂尔多斯市,巴音孟克林场办事处,,29,24,29,9,18,118,91,103,98,14,15,6,8,0.5,0.6
2023-08-01T23:00:00,1593A,109.7736,39.5986,鄂尔多斯市,康泽苑,,28,19,22,7,8,111,87,97,93,9,11,7,8,0.4,0.4
2023-08-01T23:00:00,1594A,109.8119,39.5989,鄂尔多斯市,华泰汽车城,,27,19,25,9,15,112,85,99,96,8,12,6,7,0.4,0.5
2023-08-01T23:00:00,1595A,109.9734,39.7884,鄂尔多斯市,奥林花园,,27,27,30,7,15,108,86,96,89,13,15,5,6,0.8,0.9
2023-08-01T23:00:00,1597A,122.2703,40.7094,营口市,大庆路,,21,20,28,12,19,85,65,69,67,5,12,3,7,0.5,0.6
2023-08-01T23:00:00,1598A,122.2150,40.6511,营口市,镜湖西路,,18,15,22,10,18,86,55,65,62,7,11,6,7,0.4,0.5
2023-08-01T23:00:00,1599A,122.1658,40.6789,营口市,西炮台,,20,20,23,13,16,88,61,72,68,9,13,4,4,0.4,0.5
2023-08-01T23:00:00,1600A,124.3303,40.0625,丹东市,江湾东路,,19,19,24,13,16,80,6,56,20,15,11,1,3,0.5,0.7
2023-08-01T23:00:00,1601A,124.4256,40.1503,丹东市,临江后街,,22,22,23,12,14,94,11,66,27,11,8,5,5,0.7,0.7
2023-08-01T23:00:00,1602A,124.3933,40.1461,丹东市,元宝山,,18,18,27,11,16,90,11,62,21,8,10,6,6,0.4,0.5
2023-08-01T23:00:00,1603A,124.3633,40.1092,丹东市,民主桥,,20,20,24,12,14,89,11,62,21,9,10,3,4,0.5,0.6
2023-08-01T23:00:00,1604A,122.0303,41.1489,盘锦市,开发区,,21,21,24,13,14,66,48,56,55,11,13,3,4,0.6,0.7
2023-08-01T23:00:00,1605A,122.0485,41.0883,盘锦市,兴隆台,,22,18,24,15,17,69,47,59,56,15,16,3,2,0.3,0.4
2023-08-01T23:00:00,1606A,121.8297,41.1028,盘锦市,新生街道,,23,23,20,12,11,72,65,64,64,6,8,5,5,0.3,0.3
2023-08-01T23:00:00,1607A,120.9092,40.7136,葫芦岛市,龙港区,,32,23,25,22,23,70,69,64,64,3,4,6,5,0.4,0.3
2023-08-01T23:00:00,1608A,120.8392,40.7514,葫芦岛市,化工街,,24,24,24,14,15,66,62,62,61,9,10,5,5,0.3,0.3
2023-08-01T23:00:00,1609A,120.8341,40.7073,葫芦岛市,新区,,39,39,27,18,21,75,75,67,67,1,7,1,1,0.4,0.4
2023-08-01T23:00:00,1610A,120.8695,40.7677,葫芦岛市,东城区,,25,25,29,10,16,62,62,59,59,14,15,6,5,0.3,0.3
2023-08-01T23:00:00,1611A,118.5819,24.9117,泉州市,涂山街,,36,36,36,12,16,142,49,107,74,12,10,19,13,0.7,0.8
2023-08-01T23:00:00,1612A,118.5972,24.8978,泉州市,津头埔,,35,35,35,21,22,149,45,107,73,21,15,42,17,0.6,0.6
2023-08-01T23:00:00,1613A,118.6663,24.9424,泉州市,万安,,44,44,35,22,20,157,30,117,69,28,13,16,22,0.7,0.7
2023-08-01T23:00:00,1614A,118.6117,24.9604,泉州市,清源山,,,,,,,,,,,,,,,,
2023-08-01T23:00:00,1616A,117.6795,36.229,济南市,技术学院,,27,27,20,14,12,85,48,81,69,11,8,7,6,0.8,0.7
2023-08-01T23:00:00,1618A,118.3429,35.0532,临沂市,沂河小区,,,27,25,18,14,72,,61,54,7,7,5,5,0.1,0.1
2023-08-01T23:00:00,1619A,118.295,35.0583,临沂市,鲁南制药厂,,23,22,16,16,11,90,47,76,59,4,4,3,3,0.5,0.5
2023-08-01T23:00:00,1620A,118.2794,34.9976,临沂市,新光毛纺厂,,16,14,15,11,12,84,41,72,56,4,5,5,5,0.1,0.1
2023-08-01T23:00:00,1621A,118.3956,35.0888,临沂市,河东保险公司,,17,17,18,4,6,75,37,62,48,3,5,3,2,0.3,0.3
2023-08-01T23:00:00,1622A,116.3032,37.4674,德州市,儿童乐园,,29,29,35,12,21,136,80,120,108,7,6,7,7,0.5,0.6
2023-08-01T23:00:00,1624A,116.2991,37.4451,德州市,监理站,,29,29,34,12,23,122,68,111,103,12,9,5,7,0.3,0.4
2023-08-01T23:00:00,1625A,115.9848,36.4372,聊城市,区政府,,33,33,33,17,19,139,66,119,98,15,7,8,4,0.3,0.3
2023-08-01T23:00:00,1628A,118.0062,37.3803,滨州市,市环保局,,23,23,27,16,20,150,29,128,83,24,8,4,3,0.2,0.2
2023-08-01T23:00:00,1629A,118.0018,37.3617,滨州市,第二水厂,,27,27,28,13,16,157,36,135,88,25,9,3,2,0.3,0.3
2023-08-01T23:00:00,1630A,117.9776,37.393,滨州市,北中新校,,29,29,32,11,16,154,42,132,93,18,8,4,3,0.3,0.3
2023-08-01T23:00:00,1631A,118.0414,36.8103,淄博市,人民公园,,27,27,29,12,12,99,48,91,74,20,18,19,12,0.1,0.2
2023-08-01T23:00:00,1633A,117.8525,36.4847,淄博市,双山,,18,18,16,9,9,87,53,78,69,6,4,9,8,0.2,0.2
2023-08-01T23:00:00,1634A,117.9592,36.6331,淄博市,气象站,,14,14,21,9,14,85,44,78,68,6,7,6,6,0.0,0.1
2023-08-01T23:00:00,1635A,118.3092,36.8194,淄博市,莆田园,,25,17,20,17,16,95,48,89,76,12,8,8,7,0.3,0.3
2023-08-01T23:00:00,1637A,117.558,34.8438,枣庄市,市中区政府,颗粒物(PM10),52,53,26,24,15,93,41,81,68,23,13,14,12,0.4,0.3
2023-08-01T23:00:00,1638A,117.2852,34.7837,枣庄市,薛城环保局,,34,34,32,17,11,91,51,83,67,16,13,10,9,0.3,0.3
2023-08-01T23:00:00,1639A,117.5852,34.7745,枣庄市,峄城区政府,,31,31,27,12,9,86,53,80,67,11,10,9,8,0.4,0.3
2023-08-01T23:00:00,1640A,117.7276,34.5578,枣庄市,台儿庄区环保局,,25,24,22,17,10,78,41,68,60,12,10,11,9,0.3,0.3
2023-08-01T23:00:00,1641A,117.4518,35.0992,枣庄市,山亭区环保局,,39,31,25,27,17,88,55,80,74,10,8,7,7,0.2,0.2
2023-08-01T23:00:00,1642A,121.2514,37.5639,烟台市,开发区,,12,12,21,7,14,74,29,58,44,5,6,7,8,0.6,0.6
2023-08-01T23:00:00,1643A,121.3719,37.5433,烟台市,轴承厂,,19,19,20,10,13,88,38,76,60,5,4,3,3,0.3,0.2
2023-08-01T23:00:00,1644A,121.3181,37.5436,烟台市,西郊化工站,,22,22,21,15,16,83,37,69,54,7,5,4,4,0.5,0.4
2023-08-01T23:00:00,1645A,121.4478,37.4822,烟台市,莱山环保局,,13,7,15,9,13,88,33,62,45,4,3,4,6,0.3,0.4
2023-08-01T23:00:00,1646A,121.2611,37.4967,烟台市,福山环保局,,17,17,22,7,5,68,32,54,45,9,8,7,7,0.2,0.2
2023-08-01T23:00:00,1650A,119.1437,36.7023,潍坊市,环保局,,27,27,20,15,13,89,30,80,59,16,8,7,7,0.2,0.1
2023-08-01T23:00:00,1653A,116.6251,35.4302,济宁市,火炬城,,26,26,32,14,16,94,40,85,73,11,6,9,7,0.5,0.5
2023-08-01T23:00:00,1655A,116.5491,35.4042,济宁市,电化厂,,30,30,32,17,19,96,47,88,78,8,4,6,5,0.5,0.6
2023-08-01T23:00:00,1656A,117.1437,36.1937,泰安市,监测站,,27,27,28,16,15,104,49,93,78,9,5,15,9,0.2,0.1
2023-08-01T23:00:00,1657A,117.0885,36.2017,泰安市,人口学校,,20,19,24,14,17,105,54,95,81,8,7,10,8,0.2,0.3
2023-08-01T23:00:00,1658A,117.1089,36.1758,泰安市,电力学校,,27,27,30,14,17,110,46,97,80,10,5,11,9,0.3,0.2
2023-08-01T23:00:00,1659A,119.471,35.4209,日照市,监测站,,14,14,14,9,9,50,40,49,43,12,12,6,6,0.2,0.2
2023-08-01T23:00:00,1660A,119.523,35.4216,日照市,市政府广场,,15,2,17,10,12,119,47,64,63,3,2,8,9,0.3,0.3
2023-08-01T23:00:00,1661A,119.5587,35.4044,日照市,港务局,,19,19,18,5,7,70,48,63,56,4,4,6,6,0.5,0.5
2023-08-01T23:00:00,1662A,122.1214,37.4236,威海市,华夏技校,,25,9,16,17,15,60,43,44,38,6,11,4,5,0.1,0.2
2023-08-01T23:00:00,1663A,122.0508,37.5236,威海市,山大分校,,18,15,21,12,14,87,55,63,47,6,10,6,6,0.3,0.3
2023-08-01T23:00:00,1664A,122.1067,37.5072,威海市,市监测站,,29,17,22,20,22,58,46,45,33,3,10,6,6,0.4,0.4
2023-08-01T23:00:00,1666A,118.6614,37.4309,东营市,市环保局,,17,17,18,9,11,98,40,90,69,10,5,8,12,0.2,0.3
2023-08-01T23:00:00,1669A,113.5824,24.7733,韶关市,市八中,,33,33,21,21,9,62,15,47,36,14,13,9,14,0.5,0.7
2023-08-01T23:00:00,1671A,113.5917,24.7972,韶关市,园林处,,25,25,19,13,16,60,23,47,39,6,8,9,11,0.6,0.7
2023-08-01T23:00:00,1672A,113.6735,24.7791,韶关市,韶关学院,,32,32,20,9,12,47,14,42,34,9,10,12,11,0.5,0.6
2023-08-01T23:00:00,1673A,113.5971,24.6863,韶关市,曲江监测站,,24,24,23,10,11,52,14,45,34,22,13,8,11,0.6,0.6
2023-08-01T23:00:00,1674A,116.6794,23.3667,汕头市,金平子站,,42,33,30,29,18,118,49,87,72,23,17,9,10,0.8,0.8
2023-08-01T23:00:00,1675A,116.7244,23.3633,汕头市,龙湖子站,,25,20,26,8,13,122,78,91,79,14,15,5,9,0.6,0.6
2023-08-01T23:00:00,1676A,116.7258,23.2775,汕头市,濠江子站,,20,20,26,7,13,119,60,95,81,9,12,9,12,0.5,0.6
2023-08-01T23:00:00,1677A,116.7519,23.4714,汕头市,澄海子站,,39,39,31,21,17,131,60,101,82,16,16,7,9,0.8,0.8
2023-08-01T23:00:00,1678A,116.6092,23.2539,汕头市,潮阳子站,,18,14,29,3,11,131,57,101,84,7,14,8,10,0.5,0.6
2023-08-01T23:00:00,1680A,110.3539,21.2706,湛江市,湛江影剧院,,15,5,13,2,4,54,45,52,49,10,6,5,6,0.5,0.5
2023-08-01T23:00:00,1681A,110.3928,21.2228,湛江市,市环境监测站,,15,7,10,3,5,53,45,49,48,9,8,6,6,0.4,0.4
2023-08-01T23:00:00,1682A,110.4019,21.1997,湛江市,环保局宿舍,,16,9,12,5,6,51,49,48,47,4,8,4,4,0.5,0.6
2023-08-01T23:00:00,1683A,110.4111,21.2028,湛江市,霞山游泳场,,16,8,11,6,6,52,49,50,48,5,7,5,5,0.5,0.5
2023-08-01T23:00:00,1684A,110.3316,21.2679,湛江市,麻章区环保局,,13,6,14,6,7,50,40,47,44,10,10,2,4,0.6,0.6
2023-08-01T23:00:00,1685A,110.4558,21.2567,湛江市,坡头区环保局,,15,14,11,9,7,55,46,51,49,5,5,5,5,0.4,0.4
2023-08-01T23:00:00,1686A,111.0286,21.4688,茂名市,电白南海,,,,19,,10,64,,60,56,,6,,8,,0.5
2023-08-01T23:00:00,1687A,110.9294,21.6533,茂名市,茂石化七小,,24,24,16,9,10,57,36,53,44,8,6,6,5,0.8,0.8
2023-08-01T23:00:00,1688A,110.9107,21.6687,茂名市,健康路,,19,19,11,9,5,50,32,45,37,7,7,4,3,0.4,0.4
2023-08-01T23:00:00,1689A,110.8592,21.6828,茂名市,高岭,,28,27,22,19,15,60,39,50,42,14,10,11,9,0.8,0.7
2023-08-01T23:00:00,1690A,116.1231,24.3284,梅州市,梅江月梅,,9,6,15,2,8,76,26,60,52,7,8,1,2,0.6,0.5
2023-08-01T23:00:00,1691A,116.0797,24.2719,梅州市,梅县新城,,10,10,15,6,9,87,32,68,56,11,8,4,5,0.6,0.5
2023-08-01T23:00:00,1692A,116.1248,24.2654,梅州市,环境监控中心,,14,12,22,6,8,88,15,66,52,28,10,6,5,0.6,0.6
2023-08-01T23:00:00,1693A,115.3653,22.775,汕尾市,市环保局,,40,24,22,28,13,118,41,81,57,6,9,8,7,0.5,0.6
2023-08-01T23:00:00,1694A,115.3706,22.7898,汕尾市,市政府,,22,22,18,4,8,128,51,85,62,5,7,4,5,0.6,0.6
2023-08-01T23:00:00,1695A,115.3622,22.7925,汕尾市,新城中学,,20,20,19,13,9,117,35,82,55,8,6,6,7,0.7,0.6
2023-08-01T23:00:00,1696A,114.6778,23.7569,河源市,源西,,19,11,23,13,12,139,10,68,48,23,12,4,4,0.7,0.6
2023-08-01T23:00:00,1697A,114.6944,23.7586,河源市,东埔,,24,24,21,14,11,68,16,59,42,19,10,5,5,0.7,0.5
2023-08-01T23:00:00,1698A,114.6892,23.7233,河源市,老城,,16,16,25,7,9,73,28,61,44,7,8,4,5,0.5,0.6
2023-08-01T23:00:00,1699A,111.9797,21.8593,阳江市,鸳鸯湖,,13,13,14,3,6,53,30,50,46,9,5,6,6,0.7,0.6
2023-08-01T23:00:00,1701A,111.9491,21.8658,阳江市,马南垌,,20,20,14,4,5,54,27,50,44,13,6,5,4,0.7,0.5
2023-08-01T23:00:00,1702A,113.0426,23.691,清远市,环保大楼,,25,12,17,10,13,107,78,92,80,9,12,4,5,0.4,0.4
2023-08-01T23:00:00,1703A,113.0208,23.7106,清远市,凤城街办,,,22,23,12,12,100,,88,75,9,11,6,7,0.4,0.4
2023-08-01T23:00:00,1705A,116.6367,23.6719,潮州市,西园路,,21,21,24,13,10,108,21,76,47,8,6,4,4,0.6,0.5
2023-08-01T23:00:00,1706A,116.6447,23.6706,潮州市,档案局,,20,20,20,13,10,112,20,83,49,10,6,4,5,0.6,0.5
2023-08-01T23:00:00,1708A,116.3701,23.5345,揭阳市,新兴,,32,28,39,22,23,132,52,102,78,17,20,12,22,0.9,0.7
2023-08-01T23:00:00,1709A,116.3264,23.5443,揭阳市,西马,,32,25,38,22,19,117,54,104,80,13,14,5,9,0.9,0.8
2023-08-01T23:00:00,1710A,116.3611,23.5626,揭阳市,东兴,,26,24,36,18,18,121,48,100,70,25,22,7,10,0.8,0.8
2023-08-01T23:00:00,1711A,116.4151,23.5294,揭阳市,渔湖,颗粒物(PM10),56,62,36,29,19,136,15,98,62,44,19,22,20,1.0,0.7
2023-08-01T23:00:00,1712A,112.0392,22.9169,云浮市,新市府,,17,17,21,10,11,103,34,80,61,2,3,4,4,0.8,0.8
2023-08-01T23:00:00,1714A,112.0539,22.9539,云浮市,牧羊,,33,33,31,9,12,119,9,98,66,40,15,5,7,0.5,0.5
2023-08-01T23:00:00,1715A,102.575,24.3711,玉溪市,东风水库,,17,17,15,10,9,65,8,45,22,24,13,5,5,0.9,0.7
2023-08-01T23:00:00,1718A,115.4208,35.2464,菏泽市,气象局,,34,34,33,16,18,118,70,106,91,12,10,3,3,0.3,0.3
2023-08-01T23:00:00,1719A,115.4747,35.2375,菏泽市,市政协,,33,33,33,17,23,119,62,105,87,9,6,4,4,0.3,0.3
2023-08-01T23:00:00,1721A,113.3819,40.1097,大同市,果树场,,33,33,18,7,7,94,23,89,61,32,14,4,4,0.6,0.6
2023-08-01T23:00:00,1723A,113.2994,40.0758,大同市,云冈宾馆,,46,46,27,18,10,116,54,106,91,23,12,10,7,0.7,0.5
2023-08-01T23:00:00,1724A,113.3444,40.0917,大同市,大同大学,,34,34,17,19,12,108,47,104,88,24,9,6,5,0.8,0.7
2023-08-01T23:00:00,1725A,113.2661,40.1269,大同市,安家小村,,49,49,21,20,7,112,59,103,92,19,8,11,8,0.5,0.4
2023-08-01T23:00:00,1726A,113.2711,40.0844,大同市,教育学院,颗粒物(PM10),51,52,23,23,12,114,64,105,91,21,12,17,8,0.6,0.5
2023-08-01T23:00:00,1727A,113.1147,36.1547,长治市,清华站,,26,26,18,12,6,88,44,80,60,15,10,8,8,0.7,0.9
2023-08-01T23:00:00,1728A,113.1031,36.1989,长治市,监测站,,28,28,18,17,11,90,18,78,55,27,18,10,10,1.0,1
2023-08-01T23:00:00,1730A,113.0886,36.2125,长治市,审计局,,23,23,14,12,8,92,44,81,62,13,9,4,4,0.7,0.8
2023-08-01T23:00:00,1731A,113.0844,36.1856,长治市,长治八中,,30,30,21,12,10,87,55,81,67,14,11,8,8,0.6,0.9
2023-08-01T23:00:00,1733A,111.5531,36.0783,临汾市,临钢医院,,35,35,30,7,10,114,61,96,78,12,15,8,8,0.7,0.8
2023-08-01T23:00:00,1734A,111.5028,36.0714,临汾市,技工学校,,33,33,33,17,11,122,53,102,80,15,12,5,6,0.8,0.7
2023-08-01T23:00:00,1736A,111.5018,36.0855,临汾市,市委,细颗粒物(PM2.5),57,46,37,40,27,100,49,91,74,17,16,8,8,0.4,0.5
2023-08-01T23:00:00,1738A,113.5758,37.8572,阳泉市,市中心,,35,35,24,21,18,107,69,90,79,14,11,6,6,1.2,1.1
2023-08-01T23:00:00,1739A,113.4894,37.8731,阳泉市,赛鱼,,43,38,33,30,21,116,65,96,81,12,9,6,6,1.0,0.9
2023-08-01T23:00:00,1740A,113.5819,37.8486,阳泉市,南庄,,34,34,31,20,19,118,81,101,90,15,11,5,6,1.2,1
2023-08-01T23:00:00,1742A,113.5614,37.8703,阳泉市,平坦,细颗粒物(PM2.5),52,47,36,36,29,119,85,100,91,9,10,8,8,1.0,0.9
2023-08-01T23:00:00,1743A,113.5158,37.8392,阳泉市,大阳泉,,30,30,24,11,15,109,73,87,75,7,7,8,8,1.0,0.9
2023-08-01T23:00:00,1744A,118.9233,42.2816,赤峰市,松山一中,,20,20,14,3,4,85,40,74,68,21,14,12,12,0.6,0.4
2023-08-01T23:00:00,1745A,118.9576,42.2728,赤峰市,哈达街,,24,24,18,2,6,82,44,68,63,14,12,14,14,0.4,0.3
2023-08-01T23:00:00,1746A,118.8788,42.2554,赤峰市,天义路,,18,6,11,2,5,90,57,77,75,14,9,18,15,0.4,0.3
2023-08-01T23:00:00,1748A,123.044,41.1196,鞍山市,深沟寺,,30,30,38,17,24,118,30,93,72,22,11,6,5,1.4,0.8
2023-08-01T23:00:00,1749A,123.011,41.0931,鞍山市,太阳城,,29,29,37,15,21,111,26,88,66,22,13,7,6,1.7,1.1
2023-08-01T23:00:00,1750A,123.0485,41.1442,鞍山市,太平,,41,41,51,16,23,110,35,88,66,24,16,13,7,1.6,1.2
2023-08-01T23:00:00,1751A,122.9642,41.0971,鞍山市,铁西三道街,,,38,47,18,26,122,,92,69,16,16,11,6,0.7,1
2023-08-01T23:00:00,1752A,122.9341,41.0833,鞍山市,铁西工业园区,,34,34,43,17,25,110,39,84,61,16,18,10,5,0.8,1.2
2023-08-01T23:00:00,1753A,123.022,41.0821,鞍山市,明达新区,,34,34,39,18,23,110,34,88,67,24,17,6,4,1.4,0.8
2023-08-01T23:00:00,1754A,123.1289,41.0228,鞍山市,千山,,,,,,,,,,,,,,,,
2023-08-01T23:00:00,1755A,123.7977,41.8491,抚顺市,望花区,,36,29,57,25,38,140,43,112,85,18,22,3,3,0.2,0.7
2023-08-01T23:00:00,1756A,123.9161,41.8822,抚顺市,顺城区,颗粒物(PM10),60,70,61,28,34,138,45,112,93,16,26,5,6,0.7,1
2023-08-01T23:00:00,1757A,124.0436,41.8611,抚顺市,东洲区,,31,31,47,21,29,141,61,127,106,9,15,6,8,0.3,0.8
2023-08-01T23:00:00,1758A,123.9247,41.8642,抚顺市,新抚区,,30,30,54,21,31,141,52,114,93,12,21,5,6,0.5,1
2023-08-01T23:00:00,1759A,124.0972,41.8961,抚顺市,大伙房水库,,38,38,41,21,29,132,56,110,89,6,11,5,5,0.4,0.7
2023-08-01T23:00:00,1760A,123.7086,41.8391,抚顺市,沈抚新城,,33,33,50,21,44,125,35,96,70,21,25,5,10,0.3,0.8
2023-08-01T23:00:00,1761A,123.8275,41.3064,本溪市,大峪,颗粒物(PM10),55,59,55,19,20,107,29,88,64,21,21,4,7,1.0,0.9
2023-08-01T23:00:00,1762A,123.7567,41.3325,本溪市,溪湖,,36,36,46,22,26,93,19,81,57,19,17,3,4,0.9,1.2
2023-08-01T23:00:00,1763A,123.7169,41.3094,本溪市,彩屯,,45,45,48,28,29,97,28,74,53,17,17,6,6,0.8,1.2
2023-08-01T23:00:00,1764A,123.7669,41.2864,本溪市,东明,,46,46,48,32,27,90,19,74,51,34,26,5,5,1.4,1.3
2023-08-01T23:00:00,1765A,123.7992,41.2664,本溪市,新立屯,,26,26,36,14,16,75,11,65,43,19,17,6,6,0.9,1
2023-08-01T23:00:00,1766A,123.8142,41.3472,本溪市,威宁,,26,23,44,18,27,98,14,73,35,22,20,6,7,0.7,0.9
2023-08-01T23:00:00,1767A,121.1115,41.0879,锦州市,南山,,28,26,32,19,22,64,45,59,51,14,15,4,10,0.3,0.4
2023-08-01T23:00:00,1768A,121.0533,40.8434,锦州市,开发区,,38,38,39,22,18,69,63,63,60,8,7,81,24,0.7,0.5
2023-08-01T23:00:00,1769A,121.1836,41.1119,锦州市,百股街道,,24,24,27,14,18,61,52,57,52,14,16,2,6,0.5,0.5
2023-08-01T23:00:00,1770A,121.1178,41.1222,锦州市,天安街道,,28,26,36,19,19,60,38,57,48,21,16,4,6,0.4,0.5
2023-08-01T23:00:00,1771A,121.1303,41.1386,锦州市,北湖公园,,32,32,40,17,18,64,49,61,54,16,15,3,6,0.5,0.5
2023-08-01T23:00:00,1772A,126.54,43.8622,吉林市,哈达湾,,49,44,27,34,17,76,39,62,57,20,11,6,6,0.7,0.6
2023-08-01T23:00:00,1773A,126.5844,43.8358,吉林市,东局子,,32,32,25,20,15,64,33,57,47,14,14,5,4,0.8,0.8
2023-08-01T23:00:00,1774A,126.5052,43.8245,吉林市,电力学院,,37,37,31,20,17,58,21,54,40,23,16,7,6,0.7,0.6
2023-08-01T23:00:00,1775A,126.6133,43.8972,吉林市,江北,,39,39,32,19,16,75,47,62,54,6,9,6,6,0.7,0.7
2023-08-01T23:00:00,1776A,126.555,43.8306,吉林市,江南公园,,33,29,28,23,20,77,33,63,53,16,12,3,3,0.7,0.7
2023-08-01T23:00:00,1778A,126.7061,43.7133,吉林市,丰满,,25,25,21,14,15,63,21,59,38,2,4,5,6,0.7,0.7
2023-08-01T23:00:00,1779A,123.9305,47.3636,齐齐哈尔市,安居小区,,27,27,34,4,11,118,36,90,57,5,10,5,5,0.4,0.5
2023-08-01T23:00:00,1780A,123.9488,47.3386,齐齐哈尔市,中心广场,,25,25,25,3,4,134,36,108,63,10,12,4,4,0.2,0.3
2023-08-01T23:00:00,1781A,123.9483,47.3227,齐齐哈尔市,农牧车辆厂,,29,29,40,10,8,121,38,99,62,8,11,7,7,0.2,0.3
2023-08-01T23:00:00,1783A,123.945,47.2988,齐齐哈尔市,市环境监测站,,10,5,27,6,13,110,32,93,58,11,10,6,6,0.2,0.3
2023-08-01T23:00:00,1784A,129.61,44.561,牡丹江市,环保大楼,,19,16,16,13,11,80,25,75,42,16,12,5,5,0.4,0.4
2023-08-01T23:00:00,1785A,129.6115,44.5782,牡丹江市,文化广场,,23,23,12,13,13,79,27,74,42,15,12,5,5,0.5,0.5
2023-08-01T23:00:00,1786A,129.5904,44.5963,牡丹江市,第一医院,,18,18,19,11,10,72,2,68,32,19,11,4,4,0.4,0.4
2023-08-01T23:00:00,1787A,129.6364,44.6075,牡丹江市,机车工厂,,31,31,23,9,7,72,10,68,37,19,10,2,3,0.5,0.5
2023-08-01T23:00:00,1788A,129.6386,44.5462,牡丹江市,第一中学,,19,19,26,8,7,82,31,76,43,15,11,4,4,0.4,0.4
2023-08-01T23:00:00,1789A,124.81117,46.03138,大庆市,大同区,,20,20,28,9,15,64,42,61,50,5,6,5,6,0.2,0.2
2023-08-01T23:00:00,1790A,125.129,46.533,大庆市,龙凤区,,17,17,19,9,9,76,37,66,46,10,11,5,5,0.4,0.4
2023-08-01T23:00:00,1791A,124.902,46.408,大庆市,红岗区,,22,22,21,14,14,75,43,65,49,4,6,3,3,0.3,0.4
2023-08-01T23:00:00,1792A,125.153,46.586,大庆市,萨尔图区,,31,31,29,6,11,77,39,67,48,9,10,5,4,0.2,0.4
2023-08-01T23:00:00,1793A,124.9042,46.6215,大庆市,让胡路区,,19,19,18,6,9,76,40,66,49,5,8,2,2,0.2,0.3
2023-08-01T23:00:00,1794A,118.3606,31.3519,芜湖市,监测站,,23,20,26,16,13,121,44,91,62,16,14,4,5,0.5,0.5
2023-08-01T23:00:00,1795A,118.3714,31.4134,芜湖市,科创中心,,25,20,23,17,14,122,51,93,62,16,14,6,6,0.5,0.5
2023-08-01T23:00:00,1796A,118.3673,31.3131,芜湖市,四水厂,,20,18,23,14,13,125,43,95,66,13,12,2,3,0.5,0.5
2023-08-01T23:00:00,1798A,118.5092,31.6837,马鞍山市,湖东路四小,,26,22,20,18,13,97,35,85,56,15,11,8,8,0.6,0.6
2023-08-01T23:00:00,1799A,118.5024,31.6449,马鞍山市,开发区,,26,17,26,18,14,90,27,79,50,22,14,8,8,0.6,0.6
2023-08-01T23:00:00,1800A,118.5228,31.7231,马鞍山市,慈湖,,30,30,27,18,16,98,41,86,60,15,14,12,14,0.5,0.5
2023-08-01T23:00:00,1802A,118.6245,31.7241,马鞍山市,濮塘,,,6,11,,5,84,38,76,57,10,7,5,5,0.4,0.4
2023-08-01T23:00:00,1803A,115.9872,29.6815,九江市,十里,,35,28,15,24,9,100,84,89,89,14,10,11,10,0.6,0.5
2023-08-01T23:00:00,1804A,115.9584,29.7046,九江市,茅山头,,33,29,13,23,10,99,87,92,92,19,16,8,8,0.7,0.6
2023-08-01T23:00:00,1805A,115.9877,29.7295,九江市,西园,,30,30,15,13,7,105,83,96,93,16,12,8,10,0.5,0.4
2023-08-01T23:00:00,1806A,116.0172,29.6547,九江市,五七二七厂,,21,21,13,14,7,82,54,77,70,8,4,9,8,0.8,0.6
2023-08-01T23:00:00,1808A,115.9114,29.6038,九江市,综合工业园,,22,22,16,14,7,118,60,102,85,40,16,13,11,1.0,0.6
2023-08-01T23:00:00,1809A,116.0721,29.7535,九江市,石化总厂,,25,25,16,11,6,97,72,80,72,17,11,10,11,0.7,0.6
2023-08-01T23:00:00,1810A,115.9773,29.5698,九江市,庐山气象台,,29,18,7,16,7,90,90,85,74,2,2,10,8,0.4,0.6
2023-08-01T23:00:00,1812A,112.3931,34.6516,洛阳市,市委党校,,30,16,22,21,24,106,45,89,62,14,8,2,3,0.9,0.8
2023-08-01T23:00:00,1814A,112.4657,34.6871,洛阳市,豫西宾馆,,25,25,29,17,20,121,54,99,74,12,8,3,3,0.8,0.8
2023-08-01T23:00:00,1815A,112.494,34.6886,洛阳市,河南林校,,18,11,16,12,15,109,44,91,65,22,14,3,3,0.7,0.6
2023-08-01T23:00:00,1816A,112.3844,34.623,洛阳市,开发区管委会,,20,20,26,10,17,125,25,105,67,29,13,5,6,0.8,0.6
2023-08-01T23:00:00,1817A,112.4267,34.6258,洛阳市,市委新办公区,,25,19,24,17,24,107,36,92,63,19,11,3,3,0.7,0.6
2023-08-01T23:00:00,1818A,114.4839,36.0621,安阳市,棉研所,,29,29,31,14,11,108,64,100,91,8,5,6,6,0.5,0.5
2023-08-01T23:00:00,1819A,114.3551,36.1017,安阳市,红庙街,,35,35,24,20,12,115,61,96,78,6,4,2,2,0.4,0.4
2023-08-01T23:00:00,1820A,114.361,36.0681,安阳市,银杏小区,,,24,21,,,116,65,98,80,9,7,3,3,0.4,0.5
2023-08-01T23:00:00,1824A,114.3389,34.7781,开封市,肿瘤医院,,21,21,32,14,15,96,57,88,78,9,6,4,3,0.5,0.5
2023-08-01T23:00:00,1826A,114.2885,34.7965,开封市,世纪星幼儿园,,,34,28,,,114,61,105,84,13,9,3,2,0.6,0.7
2023-08-01T23:00:00,1828A,113.227,35.2125,焦作市,市环保局,,28,28,20,15,16,84,62,73,67,12,11,5,6,0.5,0.5
2023-08-01T23:00:00,1830A,113.1992,35.2590,焦作市,影视城,,,,,,,,,,,,,,,,
2023-08-01T23:00:00,1832A,113.3257,33.742,平顶山市,新华旅馆,,47,47,28,30,16,114,54,104,77,28,17,3,2,0.6,0.6
2023-08-01T23:00:00,1833A,113.2919,33.737,平顶山市,规划设计院,,31,31,26,15,14,104,29,94,71,28,13,6,6,0.8,0.7
2023-08-01T23:00:00,1834A,113.182,33.774,平顶山市,平顶山工学院,,44,44,45,22,16,105,47,94,66,20,15,4,4,0.5,0.4
2023-08-01T23:00:00,1835A,111.1922,34.7752,三门峡市,市政府,,26,18,27,14,18,109,82,103,96,8,7,2,2,0.5,0.6
2023-08-01T23:00:00,1836A,111.1587,34.7942,三门峡市,开发区,,26,24,36,18,21,112,78,104,96,13,11,2,2,0.5,0.5
2023-08-01T23:00:00,1838A,111.143,34.7955,三门峡市,风景区,,26,17,29,15,21,113,83,105,98,4,4,5,5,0.6,0.6
2023-08-01T23:00:00,1840A,111.2992,30.6981,宜昌市,白龙岗,,19,19,25,5,10,126,55,96,66,13,18,6,6,0.4,0.5
2023-08-01T23:00:00,1841A,111.3549,30.6465,宜昌市,伍家岗,,27,27,20,9,13,148,46,101,66,21,20,2,2,0.4,0.4
2023-08-01T23:00:00,1842A,111.2628,30.6961,宜昌市,点军区,,19,19,22,7,8,138,48,107,70,8,12,5,5,0.5,0.5
2023-08-01T23:00:00,1843A,111.3275,30.7819,宜昌市,夷陵区,,,14,20,7,7,126,,96,75,15,12,2,2,0.4,0.5
2023-08-01T23:00:00,1844A,112.2494,30.3197,荆州市,市图书馆,,24,24,28,7,15,122,27,98,61,31,19,7,8,0.7,0.6
2023-08-01T23:00:00,1845A,112.2008,30.3544,荆州市,市委党校,,20,20,28,4,15,135,55,102,65,16,17,6,8,0.5,0.5
2023-08-01T23:00:00,1847A,113.1094,29.3578,岳阳市,南湖风景区,,25,25,23,14,16,91,15,71,41,40,14,7,7,0.7,0.7
2023-08-01T23:00:00,1848A,113.1493,29.4251,岳阳市,城陵矶,,29,25,25,20,17,78,11,62,33,48,28,8,8,0.7,0.7
2023-08-01T23:00:00,1849A,113.1497,29.3575,岳阳市,开发区,,32,32,28,8,10,85,22,60,36,34,16,9,7,0.5,0.3
2023-08-01T23:00:00,1850A,113.2621,29.4758,岳阳市,云溪区,,25,25,21,16,13,87,18,64,37,28,16,10,7,0.7,0.6
2023-08-01T23:00:00,1851A,112.9943,29.4402,岳阳市,君山区,,13,11,17,4,14,91,39,75,46,15,15,7,8,0.5,0.5
2023-08-01T23:00:00,1852A,113.2117,29.355,岳阳市,金凤水库,,31,31,23,17,13,83,23,69,46,17,10,2,2,0.6,0.7
2023-08-01T23:00:00,1854A,111.6975,28.9703,常德市,市二中,,21,10,24,3,15,136,65,98,69,11,10,3,7,0.6,0.7
2023-08-01T23:00:00,1857A,111.7158,29.1456,常德市,白鹤山,,13,13,14,3,6,92,36,74,47,5,5,7,8,0.5,0.5
2023-08-01T23:00:00,1858A,110.5319,29.1217,张家界市,永定新区,,27,27,15,13,10,88,46,76,58,8,6,5,4,0.2,0.2
2023-08-01T23:00:00,1859A,110.4697,29.1242,张家界市,电业局,,16,9,10,11,10,78,49,71,53,11,9,8,7,0.3,0.3
2023-08-01T23:00:00,1860A,110.5594,29.3547,张家界市,未央路,,19,19,18,8,10,71,35,64,55,10,8,3,3,0.1,0.2
2023-08-01T23:00:00,1861A,110.4417,29.315,张家界市,袁家界,,17,6,14,0,8,69,53,61,60,2,3,6,6,0.6,0.6
2023-08-01T23:00:00,1862A,110.4144,25.3167,桂林市,电子科大尧山校区,,,,31,6,9,66,65,62,62,4,5,3,5,0.8,0.6
2023-08-01T23:00:00,1863A,110.2819,25.2697,桂林市,监测站,,21,8,25,12,12,112,66,82,66,6,11,5,11,0.5,0.5
2023-08-01T23:00:00,1864A,110.3089,25.2708,桂林市,龙隐路小学,,19,8,25,13,15,98,52,75,62,6,9,5,14,0.6,0.6
2023-08-01T23:00:00,1865A,110.2869,25.2178,桂林市,八中,,21,1,21,5,15,94,67,76,68,7,13,4,6,0.4,0.4
2023-08-01T23:00:00,1866A,109.2262,21.588,北海市,牛尾岭水库,,13,8,11,5,4,149,41,58,44,5,7,6,13,0.5,0.6
2023-08-01T23:00:00,1867A,109.1436,21.4086,北海市,海滩公园,,17,12,17,2,3,74,54,66,62,5,4,3,4,0.5,0.5
2023-08-01T23:00:00,1868A,109.0981,21.4661,北海市,新市环保局,,19,11,12,9,6,73,60,65,61,5,6,3,3,0.6,0.6
2023-08-01T23:00:00,1869A,109.1778,21.5233,北海市,北海工业园,,24,24,15,10,8,72,37,60,51,12,7,4,4,0.4,0.5
2023-08-01T23:00:00,1870A,109.4856,24.3895,柳州市,柳东小学,,18,18,22,6,17,117,30,82,56,18,13,8,10,0.4,0.3
2023-08-01T23:00:00,1871A,109.4157,24.3277,柳州市,环保监测站,,,32,35,9,23,110,,85,55,25,21,4,9,0.6,0.9
2023-08-01T23:00:00,1872A,109.389,24.341,柳州市,河西水厂,颗粒物(PM10),55,59,39,26,20,125,22,91,56,35,23,5,9,1.9,1.2
2023-08-01T23:00:00,1873A,109.4311,24.2921,柳州市,市四中,,26,26,29,13,14,112,26,79,47,19,16,6,6,0.8,0.8
2023-08-01T23:00:00,1874A,109.4006,24.3631,柳州市,市九中,颗粒物(PM10),59,67,36,36,20,100,19,80,55,33,18,8,11,2.0,1.1
2023-08-01T23:00:00,1875A,109.4958,24.3134,柳州市,古亭山,,13,13,24,6,14,126,8,78,36,26,19,5,9,0.7,0.8
2023-08-01T23:00:00,1876A,109.5078,18.2489,三亚市,河东子站,,12,10,13,2,4,47,38,40,39,5,10,1,1,0.5,0.5
2023-08-01T23:00:00,1877A,109.4964,18.2681,三亚市,河西子站,,11,11,14,3,4,48,30,37,35,5,10,3,3,0.4,0.5
2023-08-01T23:00:00,1878A,104.7778,31.4741,绵阳市,富乐山,,25,21,19,11,14,128,80,119,107,11,8,4,4,0.6,0.5
2023-08-01T23:00:00,1879A,104.7563,31.4535,绵阳市,市人大,,27,20,19,10,13,127,85,118,107,12,14,7,7,0.6,0.6
2023-08-01T23:00:00,1880A,104.6697,31.4668,绵阳市,高新区自来水公司,,39,39,27,24,20,151,88,141,124,11,12,6,7,0.5,0.5
2023-08-01T23:00:00,1881A,104.7287,31.5075,绵阳市,三水厂,,29,26,27,11,17,133,91,124,113,14,12,6,6,0.6,0.6
2023-08-01T23:00:00,1882A,104.563,28.793,宜宾市,石马中学,,16,11,18,11,14,106,34,92,81,16,15,4,4,0.6,0.5
2023-08-01T23:00:00,1883A,104.6201,28.7728,宜宾市,市委,,26,26,26,12,14,97,43,82,78,26,18,8,8,0.6,0.6
2023-08-01T23:00:00,1884A,104.6055,28.793,宜宾市,宜宾四中,,26,26,25,16,14,102,37,87,78,31,17,9,8,0.7,0.6
2023-08-01T23:00:00,1885A,104.639,28.7562,宜宾市,市政府,,22,22,27,12,15,108,62,94,90,24,20,8,7,0.6,0.6
2023-08-01T23:00:00,1886A,104.5742,28.7199,宜宾市,黄金嘴,,21,21,18,14,12,100,35,89,77,26,16,4,5,0.7,0.6
2023-08-01T23:00:00,1888A,101.6891,26.571,攀枝花市,弄弄坪,颗粒物(PM10),51,51,42,20,21,108,32,97,80,18,20,8,6,0.8,1.2
2023-08-01T23:00:00,1889A,101.5769,26.5928,攀枝花市,河门口,,27,27,28,16,18,91,34,79,66,19,22,10,16,1.2,1.8
2023-08-01T23:00:00,1890A,101.7169,26.585,攀枝花市,炳草岗,,45,39,32,31,19,108,16,86,70,42,23,8,14,1.4,1.1
2023-08-01T23:00:00,1891A,101.7369,26.5008,攀枝花市,仁和,,26,26,27,16,23,110,25,95,67,15,15,6,10,0.8,0.9
2023-08-01T23:00:00,1893A,105.4324,28.9634,泸州市,九狮山,,25,12,14,17,12,96,25,80,60,24,18,5,5,0.5,0.5
2023-08-01T23:00:00,1894A,105.4427,28.9063,泸州市,小市上码头,,22,22,24,9,12,119,54,91,75,20,13,6,8,0.7,0.7
2023-08-01T23:00:00,1895A,105.4241,28.8573,泸州市,兰田宪桥,,35,35,26,16,13,113,56,98,80,8,10,1,5,0.6,0.6
2023-08-01T23:00:00,1896A,105.4379,28.8833,泸州市,市环监站,,23,23,23,9,9,115,70,94,84,10,10,4,7,0.5,0.5
2023-08-01T23:00:00,1901A,104.4239,31.1208,德阳市,东山公园,,35,18,18,24,17,131,104,119,112,9,7,1,1,0.6,0.5
2023-08-01T23:00:00,1902A,104.3826,31.1317,德阳市,西小区,,37,31,33,19,18,148,116,128,119,8,12,3,2,0.5,0.5
2023-08-01T23:00:00,1904A,104.3553,31.1091,德阳市,耐火材料厂,,33,18,19,16,17,139,104,123,109,4,6,1,2,0.5,0.5
2023-08-01T23:00:00,1905A,106.056,30.8064,南充市,西山风景区,,23,21,15,12,12,126,72,108,96,4,4,3,4,0.3,0.4
2023-08-01T23:00:00,1906A,106.0789,30.8023,南充市,南充市委,,26,26,22,8,12,112,79,108,97,10,10,8,9,0.4,0.4
2023-08-01T23:00:00,1907A,106.1031,30.8217,南充市,南充炼油厂,,28,28,25,15,14,125,89,116,106,11,10,8,9,0.3,0.3
2023-08-01T23:00:00,1908A,106.1064,30.7856,南充市,高坪区监测站,,28,20,23,10,13,117,87,113,102,11,12,9,7,0.4,0.4
2023-08-01T23:00:00,1909A,106.0642,30.7636,南充市,嘉陵区环保局,,29,22,22,17,15,129,90,120,106,8,11,5,6,0.3,0.3
2023-08-01T23:00:00,1910A,106.1087,30.8388,南充市,市环境监测站,,28,28,21,15,19,128,81,115,104,14,11,5,5,0.2,0.2
2023-08-01T23:00:00,1911A,106.9222,27.6869,遵义市,丁字口,,19,19,22,9,13,95,33,86,67,21,16,3,5,0.7,0.7
2023-08-01T23:00:00,1912A,106.9242,27.7019,遵义市,凤凰山,,22,22,22,13,15,102,50,97,83,13,9,6,7,0.7,0.7
2023-08-01T23:00:00,1913A,106.8906,27.6486,遵义市,忠庄,,29,29,25,7,10,108,44,90,67,8,11,2,3,0.4,0.5
2023-08-01T23:00:00,1914A,106.9231,27.6506,遵义市,舟水桥,,13,11,19,7,9,95,40,86,66,11,8,2,2,0.3,0.3
2023-08-01T23:00:00,1915A,106.9178,27.72,遵义市,干田坝,,25,25,21,14,16,102,44,92,74,13,13,5,8,0.4,0.4
2023-08-01T23:00:00,1916A,103.7897,25.5035,曲靖市,环境监测站,,36,36,27,21,14,70,24,61,53,30,19,4,4,0.8,0.8
2023-08-01T23:00:00,1917A,103.8,25.5364,曲靖市,烟厂办公区,,39,39,25,22,15,65,17,65,45,31,14,15,5,0.6,0.6
2023-08-01T23:00:00,1918A,108.7197,34.3956,咸阳市,气象站,,,,,,,,,,,,,,,,
2023-08-01T23:00:00,1919A,108.673,34.3155,咸阳市,实验中学,,30,30,34,20,18,178,58,156,126,30,14,4,5,0.7,0.6
2023-08-01T23:00:00,1920A,108.7233,34.3617,咸阳市,师范学院,,44,44,31,23,16,172,62,144,115,28,16,4,4,0.5,0.5
2023-08-01T23:00:00,1922A,109.0656,35.0994,铜川市,党校,,48,48,26,18,12,108,20,89,63,23,12,7,8,0.7,0.8
2023-08-01T23:00:00,1923A,109.0697,35.0697,铜川市,王益区政府,,40,40,27,19,15,115,22,99,75,21,13,2,1,0.5,0.4
2023-08-01T23:00:00,1924A,108.9344,34.9058,铜川市,新区管委会,,,62,32,20,15,132,,121,115,16,14,2,4,0.7,0.6
2023-08-01T23:00:00,1926A,109.4131,36.6275,延安市,枣园,,46,46,32,12,12,77,2,66,38,27,15,6,6,0.8,0.7
2023-08-01T23:00:00,1927A,109.4761,36.6028,延安市,延大医附院,,,42,31,12,13,85,,81,60,31,17,4,4,0.5,0.4
2023-08-01T23:00:00,1929A,109.5056,36.6106,延安市,百米大道,,31,31,36,11,16,80,5,75,42,36,21,4,6,0.8,0.7
2023-08-01T23:00:00,1930A,107.185,34.3063,宝鸡市,庙沟村,,36,36,31,17,13,91,49,75,55,27,6,7,7,0.3,0.3
2023-08-01T23:00:00,1931A,107.0708,34.3017,宝鸡市,竹园沟,,33,28,29,23,16,143,52,138,114,18,11,6,6,0.4,0.4
2023-08-01T23:00:00,1932A,107.1906,34.3672,宝鸡市,三陆医院,,46,43,35,32,22,150,84,136,126,26,16,5,5,0.6,0.5
2023-08-01T23:00:00,1933A,107.1431,34.3547,宝鸡市,监测站,,42,42,35,23,17,151,67,135,119,26,19,5,5,0.5,0.5
2023-08-01T23:00:00,1934A,107.1186,34.3739,宝鸡市,技工学校,,43,36,34,30,21,146,82,133,124,19,14,3,4,0.6,0.5
2023-08-01T23:00:00,1935A,107.3906,34.3528,宝鸡市,陈仓区环保局家属楼,颗粒物(PM10),51,52,35,30,19,159,65,141,120,41,22,5,5,0.6,0.5
2023-08-01T23:00:00,1936A,107.2058,34.3497,宝鸡市,文理学院,,41,41,32,21,15,156,57,140,127,25,12,5,4,0.6,0.5
2023-08-01T23:00:00,1937A,107.2386,34.3622,宝鸡市,三迪小学,细颗粒物(PM2.5),52,49,37,36,20,144,83,131,121,22,16,4,4,0.6,0.5
2023-08-01T23:00:00,1938A,109.5293,34.5101,渭南市,农科所,,22,22,27,14,16,113,49,104,84,15,13,5,4,0.2,0.2
2023-08-01T23:00:00,1939A,109.4974,34.4877,渭南市,日报社,,34,34,24,19,16,139,47,128,104,21,14,6,6,0.4,0.4
2023-08-01T23:00:00,1940A,109.4636,34.493,渭南市,体育馆,,27,27,22,15,12,137,57,127,105,16,12,5,5,0.5,0.4
2023-08-01T23:00:00,1941A,109.4259,34.5023,渭南市,高新一小,,27,27,30,12,11,124,52,116,98,13,10,3,3,0.4,0.4
2023-08-01T23:00:00,1943A,102.1725,38.5339,金昌市,新川苑,颗粒物(PM10),62,74,181,34,39,109,91,105,100,8,9,7,9,0.6,0.6
2023-08-01T23:00:00,1944A,102.1692,38.5167,金昌市,天庆家园,颗粒物(PM10),54,58,148,30,38,120,103,117,112,9,11,9,14,0.3,0.7
2023-08-01T23:00:00,1945A,98.2908,39.7711,嘉峪关市,气象局,颗粒物(PM10),65,80,78,29,33,111,46,104,94,59,10,7,12,0.4,0.3
2023-08-01T23:00:00,1947A,106.3394,38.817,石嘴山市,沙湖旅游区,颗粒物(PM10),67,84,47,21,21,137,76,118,96,22,15,26,23,0.7,0.6
2023-08-01T23:00:00,1948A,106.3668,39.0145,石嘴山市,大武口朝阳西街,颗粒物(PM10),66,82,49,28,18,140,61,133,107,46,16,60,28,0.8,0.5
2023-08-01T23:00:00,1949A,106.7704,39.2282,石嘴山市,惠农南大街,颗粒物(PM10),53,55,38,21,14,146,91,130,111,16,18,11,17,0.5,0.6
2023-08-01T23:00:00,1950A,106.7099,39.1325,石嘴山市,红果子镇惠新街,颗粒物(PM10),59,68,42,30,17,178,74,139,108,23,17,7,15,0.4,0.5
2023-08-01T23:00:00,1951A,84.895,45.6094,克拉玛依市,长征新村,,34,12,22,7,4,141,108,127,122,6,11,9,9,0.2,0.2
2023-08-01T23:00:00,1952A,84.8988,45.5893,克拉玛依市,南林小区,,43,21,22,30,12,133,91,127,106,19,20,5,5,0.2,0.2
2023-08-01T23:00:00,1954A,84.905,44.3396,克拉玛依市,独山子区,,30,30,30,19,12,137,92,130,122,16,7,6,6,0.4,0.3
2023-08-01T23:00:00,1955A,85.6979,46.098,克拉玛依市,乌尔禾区商贸楼,,36,36,25,6,7,133,113,120,118,1,12,8,7,0.2,0.4
2023-08-01T23:00:00,1956A,86.1472,41.7538,巴音郭楞州,孔雀公园,,35,35,110,3,34,104,98,97,89,27,32,5,5,0.3,0.4
2023-08-01T23:00:00,1957A,86.1972,41.7166,巴音郭楞州,棉纺厂,,42,42,132,18,41,110,100,97,94,13,13,4,4,0.3,0.2
2023-08-01T23:00:00,1958A,86.2357,41.7173,巴音郭楞州,经济开发区,,37,26,114,13,33,118,118,105,105,5,8,5,5,0.2,0.2
2023-08-01T23:00:00,1961A,117.532,36.6868,济南市,东山小学,,24,24,20,12,11,96,64,91,76,10,8,5,5,0.4,0.3
2023-08-01T23:00:00,1966A,120.0405,35.8735,青岛市,黄岛区4号,,18,14,16,12,11,67,53,61,57,6,7,1,2,0.4,0.4
2023-08-01T23:00:00,1982A,122.0693,37.2174,威海市,文登开发区,,18,17,19,12,12,67,54,60,58,6,7,5,5,0.2,0.2
2023-08-01T23:00:00,2031A,113.1817,27.9958,株洲市,云田中学,,18,11,21,1,10,99,55,79,63,11,9,9,8,0.5,0.5
2023-08-01T23:00:00,2054A,114.1099,32.1059,信阳市,平桥分局,,15,15,21,5,11,100,47,89,66,8,8,3,1,0.5,0.5
2023-08-01T23:00:00,2064A,113.9956,32.1271,信阳市,南湾水厂,,23,23,24,1,9,104,41,84,62,5,6,1,1,0.5,0.6
2023-08-01T23:00:00,2065A,114.0775,32.1195,信阳市,市酿酒公司,,15,11,18,9,15,101,47,90,66,16,13,1,2,0.5,0.5
2023-08-01T23:00:00,2066A,114.0609,32.1399,信阳市,审计局,,19,19,28,8,17,108,40,92,67,14,10,1,1,0.5,0.6
2023-08-01T23:00:00,2067A,114.6613,33.6128,周口市,市环境监测站,,30,30,27,17,17,121,82,115,107,7,8,2,2,0.4,0.5
2023-08-01T23:00:00,2068A,114.6758,33.6347,周口市,周口师范,,25,21,25,12,11,124,80,114,108,7,4,2,2,0.5,0.5
2023-08-01T23:00:00,2069A,114.6546,33.5979,周口市,市运管处,,28,28,34,12,16,111,75,104,97,7,8,4,4,0.6,0.7
2023-08-01T23:00:00,2070A,114.6369,33.6406,周口市,川汇区环保局,,27,23,26,5,9,121,84,113,107,2,2,2,1,0.5,0.6
2023-08-01T23:00:00,2075A,117.6336,24.4674,漳州市,九湖,,,,,,,,,,,,,,,,
2023-08-01T23:00:00,2160A,112.85,35.5051,晋城市,自来水公司,,34,34,28,7,9,103,102,98,98,10,9,8,8,1.1,1.1
2023-08-01T23:00:00,2161A,112.8318,35.4936,晋城市,白云商贸,,36,36,29,12,11,101,90,95,94,13,10,8,8,0.8,0.8
2023-08-01T23:00:00,2162A,112.8508,35.4887,晋城市,市环保局,,27,23,35,17,12,94,84,87,87,12,11,8,8,0.8,0.8
2023-08-01T23:00:00,2163A,112.8676,35.4897,晋城市,技术学院,,31,30,24,14,8,101,97,94,94,10,11,7,7,0.6,0.6
2023-08-01T23:00:00,2165A,112.8453,35.546,晋城市,白马寺,,,,14,,17,89,,82,81,,7,,6,,0.6
2023-08-01T23:00:00,2166A,112.4397,39.3522,朔州市,平朔,,48,40,20,33,19,105,68,93,91,12,5,5,5,0.7,0.5
2023-08-01T23:00:00,2167A,112.4575,39.3617,朔州市,朔唯,,50,50,22,34,17,123,92,109,108,6,3,6,6,0.6,0.6
2023-08-01T23:00:00,2168A,112.4258,39.3197,朔州市,区政府,,42,42,20,19,13,103,88,94,94,14,9,4,4,0.6,0.5
2023-08-01T23:00:00,2169A,112.4072,39.3278,朔州市,市环保局,,43,43,26,29,18,109,97,100,100,4,3,5,5,0.7,0.7
2023-08-01T23:00:00,2170A,112.4272,39.3681,朔州市,市二中,,45,45,20,29,17,106,78,94,93,14,9,6,5,0.9,0.4
2023-08-01T23:00:00,2171A,112.7532,37.6945,晋中市,锦纶小区,,25,12,19,6,10,124,79,115,103,12,11,8,7,0.5,0.5
2023-08-01T23:00:00,2173A,112.7249,37.7067,晋中市,南都小区,,29,12,20,16,17,128,90,121,110,10,9,8,8,0.6,0.6
2023-08-01T23:00:00,2174A,112.6991,37.6982,晋中市,榆次区政府,,27,15,25,14,16,117,86,111,103,14,12,9,7,0.4,0.5
2023-08-01T23:00:00,2175A,110.9956,35.0147,运城市,运城中学,,31,26,28,15,16,124,97,112,109,3,3,5,5,0.5,0.5
2023-08-01T23:00:00,2178A,110.9686,35.0303,运城市,地区技校,,29,27,26,20,19,119,90,106,103,5,5,2,2,0.5,0.6
2023-08-01T23:00:00,2179A,111.0414,35.1147,运城市,空港新区,,,,33,16,18,114,81,106,103,5,6,2,2,0.5,0.5
2023-08-01T23:00:00,2181A,112.7383,38.4519,忻州市,开发区,,43,43,27,19,22,92,33,76,61,23,13,9,10,0.9,0.9
2023-08-01T23:00:00,2182A,112.7003,38.4928,忻州市,会展中心,,49,49,33,27,24,118,52,102,80,23,12,7,9,0.6,0.6
2023-08-01T23:00:00,2183A,111.1406,37.5211,吕梁市,环保局,颗粒物(PM10),52,54,43,15,17,111,57,93,63,46,29,5,3,0.6,0.7
2023-08-01T23:00:00,2185A,111.1297,37.5136,吕梁市,自来水公司,颗粒物(PM10),60,70,52,27,21,117,37,98,62,38,27,3,5,1.0,0.8
2023-08-01T23:00:00,2187A,106.8174,39.6973,乌海市,市林业局,颗粒物(PM10),55,60,55,24,21,186,130,159,148,18,19,30,24,1.0,1
2023-08-01T23:00:00,2188A,106.7907,39.6667,乌海市,中海勃湾学校,,42,42,47,21,20,186,131,157,146,17,17,21,20,0.6,0.7
2023-08-01T23:00:00,2191A,122.2532,43.6801,通辽市,艺术职业学校,,37,37,33,12,17,79,59,71,70,12,13,6,5,0.3,0.2
2023-08-01T23:00:00,2192A,119.7594,49.2261,呼伦贝尔市,区环保局,,44,44,33,20,15,98,35,87,69,30,19,6,6,0.8,0.6
2023-08-01T23:00:00,2195A,107.4212,40.761,巴彦淖尔市,附二中,颗粒物(PM10),66,81,41,26,19,133,96,125,107,11,10,7,16,0.6,0.6
2023-08-01T23:00:00,2196A,107.37,40.7372,巴彦淖尔市,市环保大楼,颗粒物(PM10),55,59,46,21,13,135,105,125,110,8,9,4,4,0.5,0.5
2023-08-01T23:00:00,2197A,113.1306,40.9923,乌兰察布市,集宁新区,,40,40,28,23,19,98,67,90,86,15,9,10,11,0.7,0.6
2023-08-01T23:00:00,2200A,122.0392,46.0656,兴安盟,胜华新制药厂,,26,16,22,18,11,76,33,76,45,9,10,4,4,0.4,0.4
2023-08-01T23:00:00,2201A,121.9504,46.0741,兴安盟,科右前旗环保局,,18,17,26,12,12,78,39,78,54,6,11,3,4,0.4,0.5
2023-08-01T23:00:00,2202A,116.1042,43.9317,锡林郭勒盟,市环保监测站,,23,14,14,12,6,100,73,95,91,5,4,7,8,0.3,0.3
2023-08-01T23:00:00,2203A,116.0781,43.9311,锡林郭勒盟,市政府,,23,12,8,2,2,96,73,93,90,10,7,10,10,0.4,0.3
2023-08-01T23:00:00,2204A,105.6467,38.8363,阿拉善盟,西城区西花园,颗粒物(PM10),52,53,48,33,22,140,77,132,110,19,14,10,12,0.5,0.6
2023-08-01T23:00:00,2205A,105.6985,38.8411,阿拉善盟,蒙二幼,颗粒物(PM10),57,64,60,23,21,144,74,134,107,7,8,6,7,0.5,0.5
2023-08-01T23:00:00,2206A,105.724,38.8516,阿拉善盟,环保局新楼,颗粒物(PM10),55,59,39,24,23,152,79,143,106,5,6,6,8,0.4,0.5
2023-08-01T23:00:00,2207A,121.6094,41.998,阜新市,工业园区,,31,31,40,11,22,67,40,63,52,14,14,10,7,0.7,0.7
2023-08-01T23:00:00,2208A,121.6697,42.0279,阜新市,长青街,,29,29,44,20,22,60,34,56,44,12,13,7,7,0.5,0.6
2023-08-01T23:00:00,2209A,121.6673,42.0705,阜新市,农业园区,,,31,35,13,28,72,,67,59,10,11,10,10,0.6,0.7
2023-08-01T23:00:00,2210A,121.6717,42.0224,阜新市,东苑,,28,26,42,19,26,71,39,65,51,12,12,17,15,0.5,0.5
2023-08-01T23:00:00,2211A,121.6506,42.0498,阜新市,玉龙新城,颗粒物(PM10),75,100,41,11,18,86,42,70,56,12,11,8,8,0.6,0.7
2023-08-01T23:00:00,2212A,123.2,41.1953,辽阳市,宏伟区,,30,30,40,15,20,111,39,87,71,21,17,6,6,0.5,0.7
2023-08-01T23:00:00,2213A,123.1683,41.2495,辽阳市,新华园,,36,36,53,18,26,100,23,76,55,24,22,8,10,1.4,1.1
2023-08-01T23:00:00,2214A,123.2354,41.2639,辽阳市,滨河路,,30,30,45,16,24,110,34,84,66,22,21,8,9,0.5,0.8
2023-08-01T23:00:00,2215A,123.149,41.2991,辽阳市,铁西工业园,,32,32,58,20,27,113,24,83,62,29,27,13,12,1.1,1.6
2023-08-01T23:00:00,2216A,123.8139,42.3022,铁岭市,汇工街西,,46,46,52,21,27,116,24,95,64,34,26,12,9,0.5,0.7
2023-08-01T23:00:00,2217A,123.8649,42.2923,铁岭市,水上乐园,,33,33,46,14,28,111,46,92,73,22,22,3,3,0.4,0.8
2023-08-01T23:00:00,2218A,123.8486,42.2867,铁岭市,银州路东段,,33,33,59,17,28,106,40,89,67,23,26,6,6,0.4,0.7
2023-08-01T23:00:00,2219A,123.7153,42.2217,铁岭市,金沙江路北,,26,26,43,16,26,109,30,82,60,30,26,8,8,0.5,0.8
2023-08-01T23:00:00,2220A,120.4318,41.5881,朝阳市,西梁,颗粒物(PM10),69,88,43,2,9,64,39,58,54,7,7,11,11,0.6,0.6
2023-08-01T23:00:00,2221A,120.4521,41.5646,朝阳市,河畔小区,颗粒物(PM10),65,79,45,11,11,72,48,64,61,6,7,6,6,0.6,0.6
2023-08-01T23:00:00,2222A,120.4176,41.5648,朝阳市,八里堡,,42,42,31,4,9,72,43,64,59,12,12,2,2,0.6,0.6
2023-08-01T23:00:00,2223A,120.3806,41.5969,朝阳市,农业园区,,33,33,34,13,15,65,36,56,51,13,12,4,4,0.6,0.6
2023-08-01T23:00:00,2225A,124.4002,43.1713,四平市,一商场,,44,44,40,29,29,84,66,84,71,13,15,6,7,0.7,0.6
2023-08-01T23:00:00,2226A,124.388,43.193,四平市,境园,,39,33,40,27,29,114,62,69,63,14,18,5,5,0.4,0.3
2023-08-01T23:00:00,2227A,125.1358,42.8845,辽源市,环保局,,39,34,28,27,18,88,49,76,65,12,13,6,6,0.9,0.8
2023-08-01T23:00:00,2229A,125.9358,41.7173,通化市,光明,,20,16,19,14,11,65,12,60,37,11,9,6,6,0.3,0.3
2023-08-01T23:00:00,2230A,125.9446,41.7325,通化市,铁路,,17,17,15,10,7,60,11,58,33,8,8,8,6,0.2,0.3
2023-08-01T23:00:00,2231A,126.4219,41.9171,白山市,喜丰,,46,46,47,9,14,103,5,81,40,18,16,7,9,0.6,0.7
2023-08-01T23:00:00,2232A,126.4077,41.9419,白山市,环保局,,36,36,36,9,15,129,6,94,48,24,15,6,9,0.7,0.7
2023-08-01T23:00:00,2233A,124.8006,45.1214,松原市,江南,,26,26,26,13,16,73,50,73,49,8,8,5,6,0.4,0.4
2023-08-01T23:00:00,2234A,124.7965,45.1722,松原市,江北,,25,14,19,17,14,66,56,65,51,6,7,3,4,0.5,0.5
2023-08-01T23:00:00,2235A,122.7911,45.6077,白城市,洮北区环保局,,21,21,21,14,8,69,47,60,52,11,8,6,6,0.2,0.1
2023-08-01T23:00:00,2236A,122.8738,45.5725,白城市,市环保局,,28,28,20,14,8,66,52,60,53,6,5,5,6,0.2,0.1
2023-08-01T23:00:00,2237A,129.47,42.8883,延边朝鲜族自治州,妇幼医院,,27,27,30,18,16,82,14,74,36,18,15,7,7,0.5,0.5
2023-08-01T23:00:00,2238A,129.5055,42.9108,延边朝鲜族自治州,延边医院,,35,30,74,24,21,84,18,75,42,24,16,6,6,0.8,0.7
2023-08-01T23:00:00,2239A,129.3964,42.8881,延边朝鲜族自治州,朝阳川镇医院,,34,34,25,17,11,84,15,74,32,14,11,6,6,0.6,0.6
2023-08-01T23:00:00,2240A,130.9762,45.3001,鸡西市,环保局,,26,26,34,14,16,77,33,69,47,15,14,6,6,0.1,0.2
2023-08-01T23:00:00,2243A,130.9429,45.3039,鸡西市,第一中学,,26,26,27,14,13,93,39,85,58,8,7,6,6,0.4,0.2
2023-08-01T23:00:00,2244A,130.2537,47.3416,鹤岗市,哈啤分公司,,13,13,14,8,9,79,40,70,42,17,13,9,9,0.1,0.4
2023-08-01T23:00:00,2245A,130.2684,47.3086,鹤岗市,斯达机电,,37,37,20,15,11,77,52,73,58,16,11,7,7,0.5,0.4
2023-08-01T23:00:00,2246A,130.3114,47.3388,鹤岗市,东山纸板厂,,26,20,17,18,13,82,47,72,56,15,12,10,10,0.7,0.5
2023-08-01T23:00:00,2247A,130.1097,47.3382,鹤岗市,五号水库,,22,20,11,15,12,77,12,66,29,9,10,10,10,0.1,0.1
2023-08-01T23:00:00,2248A,131.1511,46.6937,双鸭山市,双合村,,31,31,30,12,12,74,56,71,65,7,8,9,10,0.2,0.3
2023-08-01T23:00:00,2249A,131.1652,46.6191,双鸭山市,南小市,,20,12,30,14,18,77,50,75,67,5,5,6,6,0.0,0.1
2023-08-01T23:00:00,2250A,131.1524,46.6554,双鸭山市,环保局,,22,22,17,14,10,76,54,71,58,10,9,8,9,0.2,0.4
2023-08-01T23:00:00,2251A,131.12,46.5656,双鸭山市,苗圃,,22,22,12,13,8,96,64,94,81,20,19,3,3,0.4,0.4
2023-08-01T23:00:00,2252A,128.5159,47.4311,伊春市,环保局,,34,34,23,12,10,77,24,71,29,12,10,4,6,0.3,0.3
2023-08-01T23:00:00,2253A,128.9102,47.7412,伊春市,电力嘉园,,20,20,14,13,13,87,29,76,51,10,5,7,6,0.5,0.4
2023-08-01T23:00:00,2254A,129.5029,48.471,伊春市,汤旺河国家公园,,37,37,39,14,18,69,17,67,37,1,2,17,12,0.4,0.1
2023-08-01T23:00:00,2255A,130.2751,46.8028,佳木斯市,佳纺,,34,34,25,18,16,80,46,77,64,12,7,3,2,0.6,0.5
2023-08-01T23:00:00,2256A,130.3995,46.8307,佳木斯市,发电厂,,33,33,32,18,15,86,54,79,68,8,7,2,2,0.5,0.5
2023-08-01T23:00:00,2257A,130.3258,46.7975,佳木斯市,环保局,,43,43,31,19,16,80,48,76,62,9,7,3,3,0.5,0.5
2023-08-01T23:00:00,2258A,130.3648,46.8032,佳木斯市,十一中,,34,34,28,19,16,83,50,77,61,8,9,4,4,0.5,0.5
2023-08-01T23:00:00,2259A,130.3794,46.7588,佳木斯市,四丰,,31,31,23,16,17,108,66,102,91,5,4,1,1,0.5,0.5
2023-08-01T23:00:00,2262A,131.0518,45.8751,七台河市,新一中,细颗粒物(PM2.5),57,33,28,40,17,103,30,94,70,21,10,7,8,1.1,0.8
2023-08-01T23:00:00,2263A,127.4833,50.2524,黑河市,交通局,,19,19,16,6,7,62,32,55,46,19,10,7,3,0.5,0.6
2023-08-01T23:00:00,2264A,127.5144,50.2341,黑河市,环保局,,34,34,32,8,8,83,26,67,51,18,8,2,4,0.5,0.5
2023-08-01T23:00:00,2265A,127.5291,50.2472,黑河市,大黑河岛,,,,,19,15,,,,,2,2,2,6,0.4,0.4
2023-08-01T23:00:00,2266A,126.9785,46.6365,绥化市,人和东街,,22,22,29,12,16,67,33,61,45,10,10,5,5,0.3,0.3
2023-08-01T23:00:00,2267A,126.964,46.6528,绥化市,党政办公中心,,18,18,24,11,16,72,37,66,51,8,6,3,4,0.3,0.3
2023-08-01T23:00:00,2269A,124.1069,50.4097,大兴安岭地区,科技局,,28,28,17,12,9,84,16,67,31,7,5,7,7,0.2,0.2
2023-08-01T23:00:00,2270A,117.396,32.939,蚌埠市,工人疗养院,,24,24,29,12,12,79,41,74,64,13,15,3,5,0.2,0.3
2023-08-01T23:00:00,2271A,117.3605,32.9427,蚌埠市,百货大楼,,22,22,30,8,11,80,34,74,62,20,15,6,6,0.2,0.3
2023-08-01T23:00:00,2273A,117.4185,32.8911,蚌埠市,蚌埠学院,,24,24,24,16,16,90,46,77,68,8,7,6,6,0.3,0.4
2023-08-01T23:00:00,2274A,117.3533,32.9673,蚌埠市,淮上区政府,,27,27,28,13,15,81,40,76,65,17,13,7,6,0.2,0.3
2023-08-01T23:00:00,2275A,117.3145,32.8977,蚌埠市,高新区,,17,17,25,11,12,87,54,82,76,7,8,5,6,0.3,0.4
2023-08-01T23:00:00,2277A,116.8305,32.7727,淮南市,潘集区政府,,32,32,26,20,17,122,68,111,89,9,8,4,6,0.3,0.4
2023-08-01T23:00:00,2278A,117.0067,32.6524,淮南市,师范学院,,30,30,32,19,16,123,61,114,94,12,9,8,8,0.4,0.4
2023-08-01T23:00:00,2279A,116.8569,32.5951,淮南市,谢家集区政府,,26,19,19,6,5,123,83,116,108,15,10,15,12,0.3,0.3
2023-08-01T23:00:00,2280A,116.8281,32.633,淮南市,八公山区政府,,31,31,29,17,17,117,84,111,103,9,8,8,8,0.3,0.3
2023-08-01T23:00:00,2281A,116.6325,32.6201,淮南市,焦岗湖风景区管理处,,22,22,23,6,7,31,13,28,13,11,6,5,5,0.3,0.3
2023-08-01T23:00:00,2282A,116.8004,33.975,淮北市,监测站,,30,30,24,9,13,89,51,77,55,6,6,3,3,0.4,0.4
2023-08-01T23:00:00,2283A,116.8091,33.9007,淮北市,烈山区政府,,26,26,27,17,16,98,37,84,59,23,7,6,5,0.2,0.3
2023-08-01T23:00:00,2285A,117.8177,30.9412,铜陵市,市第四中学,,18,18,26,5,11,93,48,85,66,6,10,4,4,0.1,0.3
2023-08-01T23:00:00,2286A,117.8059,30.9273,铜陵市,市公路局,,19,19,31,10,18,113,48,100,75,12,14,4,5,0.2,0.5
2023-08-01T23:00:00,2287A,117.7807,30.9413,铜陵市,市新民污水厂,,20,20,26,14,12,110,55,101,79,8,12,5,5,0.3,0.3
2023-08-01T23:00:00,2288A,117.7439,30.8792,铜陵市,市第九中学,,37,37,47,14,12,102,42,84,63,13,22,10,9,1.6,0.7
2023-08-01T23:00:00,2289A,117.846,30.9413,铜陵市,车站新区,,26,22,22,18,11,110,55,95,77,9,12,4,4,0.2,0.3
2023-08-01T23:00:00,2290A,117.8483,30.97,铜陵市,市职教基地,,22,22,20,5,6,97,51,85,69,8,9,3,4,0.5,0.5
2023-08-01T23:00:00,2291A,117.0809,30.5177,安庆市,环科院,,24,24,22,7,14,142,58,124,105,10,13,5,6,0.4,0.6
2023-08-01T23:00:00,2292A,117.0331,30.5119,安庆市,马山宾馆,,20,18,20,8,14,141,63,126,110,11,15,4,6,0.6,0.7
2023-08-01T23:00:00,2294A,116.9896,30.6145,安庆市,安庆大学,,29,29,23,14,16,121,62,105,96,9,12,4,4,0.4,0.5
2023-08-01T23:00:00,2295A,118.2903,29.6963,黄山市,延安路89号,,23,23,29,4,7,87,35,71,53,4,4,6,5,0.3,0.3
2023-08-01T23:00:00,2296A,118.327,29.7178,黄山市,黄山东路89号,,14,9,13,2,5,71,43,64,50,3,4,6,6,0.3,0.4
2023-08-01T23:00:00,2297A,118.1371,30.2756,黄山市,黄山区政府5号楼,,31,31,23,4,5,74,11,64,37,5,4,7,7,0.3,0.2
2023-08-01T23:00:00,2298A,118.3093,32.3153,滁州市,老年大学,,35,35,34,12,14,131,41,116,78,23,22,10,11,0.2,0.3
2023-08-01T23:00:00,2299A,118.3244,32.2786,滁州市,人大宾馆,,18,18,20,6,13,136,50,118,82,16,18,8,9,0.3,0.3
2023-08-01T23:00:00,2301A,115.8277,32.8929,阜阳市,市监测站,,20,20,21,11,10,149,62,127,109,13,10,6,6,0.6,0.6
2023-08-01T23:00:00,2303A,115.8554,32.8605,阜阳市,开发区,,20,17,20,6,6,148,62,125,106,14,11,6,6,0.5,0.6
2023-08-01T23:00:00,2307A,116.5079,31.737,六安市,监测大楼,,23,15,20,6,12,111,72,102,99,4,3,5,3,0.2,0.2
2023-08-01T23:00:00,2308A,116.4738,31.7643,六安市,皖西学院,,25,17,24,7,8,120,79,107,105,6,5,10,7,0.2,0.3
2023-08-01T23:00:00,2309A,116.4996,31.7905,六安市,朝阳厂,,25,7,15,11,11,115,77,107,103,5,4,10,8,0.3,0.4
2023-08-01T23:00:00,2310A,116.5567,31.7886,六安市,开发区,,28,18,25,19,17,108,73,98,94,5,5,8,7,0.4,0.5
2023-08-01T23:00:00,2311A,115.8072,33.8399,亳州市,污水处理厂,,21,21,21,6,8,96,48,89,69,6,6,7,5,0.6,0.6
2023-08-01T23:00:00,2312A,115.7789,33.8518,亳州市,三国揽胜宫,,23,23,22,7,8,98,51,91,74,6,6,8,4,0.5,0.6
2023-08-01T23:00:00,2314A,117.47,30.6618,池州市,池州学院,,16,12,22,6,13,145,50,110,84,5,9,3,3,0.3,0.5
2023-08-01T23:00:00,2316A,118.7581,30.9454,宣城市,鳌峰子站,,26,26,20,15,11,72,60,69,67,17,15,6,5,0.3,0.3
2023-08-01T23:00:00,2317A,118.7385,30.9743,宣城市,敬亭山子站,颗粒物(PM10),53,56,25,16,11,74,37,60,45,22,20,7,6,0.4,0.3
2023-08-01T23:00:00,2318A,118.7173,30.9427,宣城市,开发区子站,,23,21,21,16,11,88,42,70,57,21,15,5,5,0.4,0.4
2023-08-01T23:00:00,2319A,119.0141,25.4325,莆田市,荔城区仓后路,,,,32,,15,119,44,101,73,18,11,7,7,0.7,0.9
2023-08-01T23:00:00,2320A,119.0015,25.4553,莆田市,莆田市监测站,,20,19,30,14,13,123,47,103,71,1,4,6,7,0.0,0.7
2023-08-01T23:00:00,2321A,119.1119,25.4561,莆田市,涵江区六中,,35,35,31,18,12,109,57,94,76,11,10,7,7,0.7,0.7
2023-08-01T23:00:00,2322A,119.1013,25.3215,莆田市,秀屿区政府,,22,19,36,15,16,107,51,91,67,10,9,7,8,0.6,0.8
2023-08-01T23:00:00,2323A,118.981,25.4792,莆田市,东圳水库,,,,,,,,,,,,,,,,
2023-08-01T23:00:00,2324A,117.6211,26.2625,三明市,三钢,,21,21,17,10,13,67,6,63,39,18,9,6,7,0.5,0.4
2023-08-01T23:00:00,2325A,117.635,26.2714,三明市,三明二中,,15,15,16,10,12,64,13,61,40,16,13,3,3,0.6,0.5
2023-08-01T23:00:00,2326A,117.6028,26.2378,三明市,三元区政府,,30,30,19,8,10,71,8,65,37,18,12,8,7,0.7,0.7
2023-08-01T23:00:00,2327A,117.7275,26.3108,三明市,洋溪,,,,,,,,,,,,,,,,
2023-08-01T23:00:00,2331A,118.0966,26.6761,南平市,茫荡山,,,,,,,,,,,,,,,,
2023-08-01T23:00:00,2332A,118.1681,26.6369,南平市,南平市监测站,,13,13,18,4,8,78,30,69,44,8,5,5,5,0.7,0.7
2023-08-01T23:00:00,2333A,118.1825,26.6489,南平市,南平铝业有限公司,,18,18,17,4,7,75,32,64,40,8,8,7,6,0.5,0.5
2023-08-01T23:00:00,2334A,118.1756,26.6272,南平市,南平七中,,16,16,18,8,7,81,12,68,40,12,5,4,4,0.7,0.6
2023-08-01T23:00:00,2335A,117.0189,25.1181,龙岩市,龙岩师专,,,,,,,,,,,,,,,,
2023-08-01T23:00:00,2336A,117.0217,25.1033,龙岩市,龙岩市监测站,,28,28,21,8,8,76,2,64,35,30,14,4,4,0.6,0.5
2023-08-01T23:00:00,2337A,117.0258,25.0661,龙岩市,闽西职业技术学院,,27,27,18,11,7,80,4,66,38,27,11,7,5,0.4,0.4
2023-08-01T23:00:00,2338A,117.0196,25.0306,龙岩市,龙岩学院,,12,12,18,7,8,84,22,68,47,6,7,3,4,0.3,0.3
2023-08-01T23:00:00,2339A,119.5001,26.6946,宁德市,金涵水库,,,,,,,,,,,,,,,,
2023-08-01T23:00:00,2341A,119.5388,26.6612,宁德市,宁德市监测站,,34,34,28,18,14,108,51,94,83,7,7,8,9,0.6,0.6
2023-08-01T23:00:00,2342A,117.3102,29.3867,景德镇市,王港中学,,21,21,16,12,9,70,16,58,32,4,4,3,2,0.7,0.7
2023-08-01T23:00:00,2343A,117.2117,29.2933,景德镇市,老干部活动中心,,34,34,17,11,12,60,10,55,33,12,6,6,4,0.3,0.2
2023-08-01T23:00:00,2344A,117.1894,29.2789,景德镇市,兽医站,,40,40,24,23,16,62,14,59,38,12,7,6,5,0.4,0.3
2023-08-01T23:00:00,2345A,117.1547,29.2617,景德镇市,台达陶瓷,,15,12,15,10,10,65,17,59,40,11,8,6,5,0.4,0.3
2023-08-01T23:00:00,2346A,117.2461,29.2956,景德镇市,陶研所,,25,25,30,4,7,58,9,53,30,11,6,18,7,0.3,0.3
2023-08-01T23:00:00,2347A,114.0997,27.5002,萍乡市,武功山,,9,9,9,5,4,62,13,57,39,3,3,16,26,0.3,0.3
2023-08-01T23:00:00,2348A,113.8385,27.6434,萍乡市,中医院,,23,23,27,16,20,72,17,58,42,24,9,11,12,0.6,0.6
2023-08-01T23:00:00,2349A,113.8493,27.6253,萍乡市,市政府车库,,30,30,28,12,17,83,15,61,43,29,15,13,15,0.6,0.6
2023-08-01T23:00:00,2350A,113.8676,27.6435,萍乡市,市环保局,,23,23,24,7,17,69,28,55,42,13,10,9,14,0.4,0.5
2023-08-01T23:00:00,2351A,113.866,27.6198,萍乡市,安源区政府,,24,24,26,13,17,80,24,60,43,21,14,10,12,0.8,0.6
2023-08-01T23:00:00,2352A,115.0861,27.9317,新余市,北岗,,15,15,13,9,9,78,16,66,34,14,9,7,9,0.5,0.6
2023-08-01T23:00:00,2353A,114.9886,27.8431,新余市,飞宇,,44,44,30,19,12,81,20,66,34,14,11,10,11,0.4,0.6
2023-08-01T23:00:00,2354A,114.9231,27.8246,新余市,第二水厂,,24,24,22,5,7,87,39,68,51,15,11,8,7,0.3,0.4
2023-08-01T23:00:00,2355A,114.9308,27.8036,新余市,市气象局,,21,21,22,7,11,79,32,61,42,11,8,10,7,0.6,0.7
2023-08-01T23:00:00,2357A,116.9822,28.1136,鹰潭市,龙虎山,,,19,19,5,11,95,,83,80,8,3,8,5,0.3,0.4
2023-08-01T23:00:00,2358A,117.0564,28.2642,鹰潭市,新监测站,,25,25,34,16,19,111,42,104,89,10,6,7,11,0.4,0.5
2023-08-01T23:00:00,2359A,117.0311,28.2475,鹰潭市,财苑宾馆,,25,24,34,17,16,112,44,106,88,11,8,8,9,0.5,0.4
2023-08-01T23:00:00,2360A,117.0222,28.2264,鹰潭市,体育馆,,23,20,41,16,16,107,32,100,77,15,10,2,3,0.4,0.5
2023-08-01T23:00:00,2361A,117.0017,28.2131,鹰潭市,三川水表,,23,23,46,12,16,111,36,105,80,7,8,7,3,0.3,0.5
2023-08-01T23:00:00,2362A,114.9017,25.9149,赣州市,通天岩,,,,,,,,,,,,,,,,
2023-08-01T23:00:00,2363A,114.9367,25.8664,赣州市,地委,,46,46,25,24,12,90,16,67,47,23,9,2,2,1.2,1.2
2023-08-01T23:00:00,2364A,114.9461,25.8481,赣州市,气象台,,,28,19,21,10,85,,62,54,22,8,5,5,0.6,0.7
2023-08-01T23:00:00,2365A,114.9322,25.8333,赣州市,市图书馆,,37,37,26,17,11,91,20,65,46,21,10,7,6,1.1,1
2023-08-01T23:00:00,2366A,114.8905,25.8471,赣州市,华坚鞋城,,33,33,24,14,13,91,14,69,44,18,8,5,5,0.9,0.8
2023-08-01T23:00:00,2367A,114.9754,27.0803,吉安市,红声器材厂,,28,28,23,10,11,84,15,67,40,24,10,11,12,0.7,0.6
2023-08-01T23:00:00,2368A,114.9658,27.0999,吉安市,市森林工业局,,28,25,22,19,13,84,24,66,42,23,8,5,6,0.5,0.4
2023-08-01T23:00:00,2369A,114.99,27.1312,吉安市,市环境监测站,,26,26,22,11,10,83,27,63,43,15,9,12,7,0.6,0.7
2023-08-01T23:00:00,2370A,115.0093,27.0968,吉安市,青原区法院,,29,29,20,17,14,78,6,58,29,22,13,16,12,0.8,0.7
2023-08-01T23:00:00,2371A,114.3408,27.8064,宜春市,槟榔水业,,21,21,24,10,11,66,20,49,38,23,29,1,1,0.5,0.7
2023-08-01T23:00:00,2373A,114.3956,27.7844,宜春市,市石油公司,,,,25,,13,73,25,70,53,11,9,1,5,0.6,0.8
2023-08-01T23:00:00,2374A,114.3703,27.7914,宜春市,市气象局,,28,28,26,11,15,74,30,69,57,14,14,1,5,0.7,0.8
2023-08-01T23:00:00,2375A,114.4013,27.8074,宜春市,市广电局,,24,24,27,9,12,81,34,74,63,12,8,6,8,0.6,0.6
2023-08-01T23:00:00,2376A,116.2127,28.0814,抚州市,桐源党溪,,18,18,22,10,12,99,8,83,53,4,3,3,5,0.4,0.5
2023-08-01T23:00:00,2377A,116.3544,27.9831,抚州市,市站,,32,32,22,15,12,84,31,70,49,8,7,4,4,1.0,1.1
2023-08-01T23:00:00,2378A,116.3565,27.963,抚州市,血防站,,33,33,29,13,9,73,25,62,40,8,6,4,4,0.7,0.7
2023-08-01T23:00:00,2379A,116.3564,28.0007,抚州市,采茶剧团,,22,22,22,15,11,78,25,66,46,6,3,6,7,1.0,0.9
2023-08-01T23:00:00,2380A,116.385,27.9647,抚州市,医学分院,,20,20,21,11,8,71,30,62,44,10,8,5,5,0.9,1
2023-08-01T23:00:00,2381A,118.005,28.4572,上饶市,百草园,,35,33,31,24,14,120,68,101,92,9,8,11,5,0.8,0.8
2023-08-01T23:00:00,2382A,117.9756,28.4436,上饶市,市监测站,,35,35,31,18,16,130,70,118,100,13,10,17,11,0.4,0.5
2023-08-01T23:00:00,2383A,117.9519,28.4628,上饶市,凤凰光学,,42,42,31,14,15,130,45,110,86,19,12,27,16,0.7,0.8
2023-08-01T23:00:00,2385A,114.17,35.9019,鹤壁市,市监测站,,40,21,12,28,19,109,40,94,74,14,12,2,3,0.5,0.6
2023-08-01T23:00:00,2386A,114.2956,35.7511,鹤壁市,市交警支队,,24,24,17,13,10,107,62,87,74,16,16,9,4,0.4,0.5
2023-08-01T23:00:00,2387A,114.2878,35.7306,鹤壁市,迎宾馆,,39,22,17,27,20,108,60,95,83,13,10,12,8,0.4,0.5
2023-08-01T23:00:00,2389A,113.836,35.311,新乡市,环保西院,,35,35,22,16,14,85,64,78,77,14,13,4,4,0.6,0.6
2023-08-01T23:00:00,2390A,113.884,35.272,新乡市,开发区,,31,31,24,17,14,106,62,98,88,11,5,2,2,0.6,0.7
2023-08-01T23:00:00,2391A,113.883,35.303,新乡市,环保东院,,40,40,28,14,12,98,69,90,84,10,11,5,5,0.4,0.5
2023-08-01T23:00:00,2392A,115.0312,35.7636,濮阳市,环保局,,28,28,27,11,21,116,62,105,88,9,6,4,3,0.5,0.6
2023-08-01T23:00:00,2394A,115.0574,35.7609,濮阳市,油田运输公司,,24,24,32,11,22,109,54,100,82,8,5,4,4,0.4,0.5
2023-08-01T23:00:00,2395A,115.0866,35.7754,濮阳市,油田物探公司,,25,25,31,9,16,107,53,99,80,6,4,3,3,0.4,0.4
2023-08-01T23:00:00,2396A,113.8276,34.0159,许昌市,监测站,,36,36,28,14,17,106,78,102,96,13,9,3,3,0.5,0.5
2023-08-01T23:00:00,2398A,113.7906,33.9953,许昌市,开发区,,26,25,26,14,22,106,82,102,96,10,8,1,1,0.8,0.8
2023-08-01T23:00:00,2399A,114.051,33.5699,漯河市,三五一五工厂,,32,32,26,14,17,118,80,114,107,12,8,9,8,0.5,0.3
2023-08-01T23:00:00,2400A,114.0055,33.5698,漯河市,漯河大学,,36,36,32,24,21,123,100,117,113,8,8,8,8,0.4,0.4
2023-08-01T23:00:00,2401A,114.0138,33.5828,漯河市,市水利局,,29,29,25,17,16,116,92,112,110,10,8,9,8,0.5,0.5
2023-08-01T23:00:00,2402A,114.0261,33.5698,漯河市,市广电局,,32,32,24,17,17,121,94,117,112,9,8,7,6,0.5,0.5
2023-08-01T23:00:00,2404A,112.5224,33.0122,南阳市,瓦房庄,,17,12,21,6,16,120,52,97,60,11,12,6,6,0.5,0.5
2023-08-01T23:00:00,2405A,112.5003,32.9735,南阳市,汉画馆,,18,18,20,9,19,117,52,100,64,7,6,6,6,0.4,0.4
2023-08-01T23:00:00,2406A,112.5573,33.027,南阳市,气象站,,20,20,24,11,13,123,51,103,66,11,10,4,4,0.2,0.2
2023-08-01T23:00:00,2407A,112.5481,32.9689,南阳市,理工学院,,17,15,20,5,10,116,54,99,64,9,8,5,5,0.4,0.5
2023-08-01T23:00:00,2408A,115.6702,34.4285,商丘市,环境监测站,,27,27,30,10,15,98,38,88,63,15,7,5,5,0.6,0.7
2023-08-01T23:00:00,2409A,115.6458,34.4045,商丘市,粮食局,,20,20,26,8,14,110,43,96,69,14,10,12,14,0.1,0.3
2023-08-01T23:00:00,2410A,115.6293,34.3948,商丘市,睢阳区环保局,,40,40,33,12,16,111,42,97,71,10,6,4,4,0.4,0.5
2023-08-01T23:00:00,2420A,114.0189,32.9656,驻马店市,市一纸厂,,29,29,25,15,9,106,73,100,86,12,9,5,6,0.6,0.4
2023-08-01T23:00:00,2421A,114.0114,33.015,驻马店市,市彩印厂,,25,23,26,15,11,107,78,102,92,7,4,7,7,0.3,0.3
2023-08-01T23:00:00,2422A,113.9976,32.9771,驻马店市,天方二分厂,,39,35,22,27,16,102,74,97,87,12,6,6,5,0.4,0.4
2023-08-01T23:00:00,2423A,115.0601,30.2313,黄石市,沈家营,,36,36,35,6,8,98,56,88,73,10,13,6,10,0.5,0.7
2023-08-01T23:00:00,2424A,115.0817,30.2006,黄石市,陈家湾,,34,34,36,8,11,113,76,102,92,2,4,6,7,0.5,0.4
2023-08-01T23:00:00,2426A,114.8988,30.2019,黄石市,铁山,,28,28,21,8,10,124,51,119,98,18,10,4,6,0.7,0.6
2023-08-01T23:00:00,2427A,115.0307,30.2092,黄石市,团城山,,27,27,28,2,7,110,63,99,87,14,10,6,9,0.6,0.6
2023-08-01T23:00:00,2428A,111.0419,32.395,十堰市,武当山,,18,9,20,12,15,88,54,79,73,5,5,7,8,0.6,0.6
2023-08-01T23:00:00,2429A,110.78,32.6494,十堰市,滨河新村,,31,31,35,15,20,109,83,99,90,3,3,6,5,0.6,0.6
2023-08-01T23:00:00,2430A,110.7258,32.6389,十堰市,刘家沟,,22,18,25,15,20,99,60,92,84,4,4,5,5,0.4,0.4
2023-08-01T23:00:00,2431A,110.8839,32.5714,十堰市,铁二处,,27,27,29,10,16,118,74,107,96,2,3,5,5,0.3,0.3
2023-08-01T23:00:00,2432A,112.155,32.0197,襄阳市,襄城运动路,,20,19,26,11,17,105,63,92,73,11,10,6,6,0.6,0.7
2023-08-01T23:00:00,2433A,112.1392,32.0564,襄阳市,樊城新华路,,,30,30,9,14,104,52,88,71,20,11,5,5,,0.8
2023-08-01T23:00:00,2434A,112.1825,32.1142,襄阳市,高新管委会,,20,14,24,14,23,101,48,89,68,15,9,6,6,0.7,0.7
2023-08-01T23:00:00,2435A,112.2106,32.0903,襄阳市,襄州航空路,,19,6,27,5,14,97,59,88,72,14,9,5,5,0.6,0.6
2023-08-01T23:00:00,2436A,114.8938,30.3994,鄂州市,市政府,,23,23,28,8,7,120,58,103,88,13,6,8,5,0.3,0.2
2023-08-01T23:00:00,2437A,114.8989,30.3714,鄂州市,赵家坝,,36,36,25,11,7,119,55,102,88,12,6,4,4,0.8,0.7
2023-08-01T23:00:00,2439A,112.2014,31.0481,荆门市,竹园小学,,30,28,32,21,20,107,36,91,59,16,14,9,8,0.6,0.7
2023-08-01T23:00:00,2440A,112.1969,30.9891,荆门市,掇刀,,18,10,28,12,19,116,52,94,63,12,13,10,12,0.6,0.6
2023-08-01T23:00:00,2441A,112.2213,31.0386,荆门市,石化一小,,25,25,32,15,20,107,32,94,62,27,16,7,7,0.4,0.5
2023-08-01T23:00:00,2443A,113.9153,30.9285,孝感市,文化路,,16,13,14,11,13,139,51,112,81,12,9,7,6,0.7,0.7
2023-08-01T23:00:00,2444A,113.942,30.9075,孝感市,东城区,,18,15,19,8,9,146,55,117,83,11,9,7,7,0.5,0.6
2023-08-01T23:00:00,2446A,114.9028,30.4742,黄冈市,职工中心,,47,47,29,17,14,117,44,107,86,18,5,12,10,0.6,0.5
2023-08-01T23:00:00,2447A,114.3175,29.8142,咸宁市,森林公园,,21,21,19,5,8,75,54,68,58,5,4,5,5,0.5,0.4
2023-08-01T23:00:00,2448A,114.3107,29.8454,咸宁市,市发改委,,12,12,15,6,11,94,31,84,69,9,5,5,5,0.6,0.6
2023-08-01T23:00:00,2449A,114.2936,29.8566,咸宁市,咸安区政府,,14,14,20,6,12,79,40,74,64,9,11,2,2,0.5,0.4
2023-08-01T23:00:00,2451A,113.3583,31.7275,随州市,市委党校,,18,16,30,12,20,113,48,93,63,5,5,6,8,0.6,0.7
2023-08-01T23:00:00,2452A,113.3833,31.6908,随州市,市林业局,,17,14,28,8,19,109,52,91,60,6,8,4,4,0.6,0.7
2023-08-01T23:00:00,2453A,113.3983,31.7308,随州市,市立交桥水厂,,20,20,27,10,18,109,18,89,54,22,10,6,6,0.5,0.7
2023-08-01T23:00:00,2454A,109.4978,30.2981,恩施土家族苗族自治州,湖北民院,,27,27,24,12,14,114,47,86,68,7,7,9,9,0.7,0.7
2023-08-01T23:00:00,2455A,109.4707,30.2798,恩施土家族苗族自治州,州电力总公司,,22,14,15,15,12,91,38,74,58,8,10,10,10,0.7,0.7
2023-08-01T23:00:00,2456A,112.5003,26.9167,衡阳市,原169医院,,14,0,20,8,12,84,43,66,57,12,11,6,14,0.2,0.4
2023-08-01T23:00:00,2457A,112.6194,26.9258,衡阳市,衡阳化工总厂,,16,16,23,4,13,90,45,74,68,15,10,5,10,0.5,0.5
2023-08-01T23:00:00,2458A,112.6211,26.8956,衡阳市,珠晖区环保局,,,12,23,,,93,42,74,66,15,12,5,7,0.5,0.6
2023-08-01T23:00:00,2459A,112.6197,26.8733,衡阳市,市委党校,,22,8,18,3,9,94,68,78,74,7,8,7,10,0.5,0.6
2023-08-01T23:00:00,2460A,112.6006,26.8919,衡阳市,市监测站,,18,8,21,4,14,91,56,74,71,14,11,6,8,0.7,0.7
2023-08-01T23:00:00,2461A,112.5664,26.9056,衡阳市,真空机电公司,,21,10,18,5,8,91,67,75,73,8,9,5,7,0.5,0.6
2023-08-01T23:00:00,2462A,111.5239,27.3033,邵阳市,市水土所,,26,19,23,18,20,93,32,72,54,9,7,8,8,0.4,0.4
2023-08-01T23:00:00,2463A,111.4733,27.2317,邵阳市,市一中,,,30,32,8,16,53,,50,,8,8,6,7,0.3,0.3
2023-08-01T23:00:00,2464A,111.5283,27.2442,邵阳市,市化工厂,,24,24,23,12,16,92,44,80,66,13,11,22,10,0.5,0.5
2023-08-01T23:00:00,2465A,111.4503,27.2537,邵阳市,市罐头厂,,23,23,31,14,19,89,47,77,67,9,8,12,15,0.4,0.4
2023-08-01T23:00:00,2466A,111.4328,27.2272,邵阳市,市环保局,,22,19,29,15,18,88,46,81,66,9,9,10,15,0.3,0.3
2023-08-01T23:00:00,2467A,112.4067,28.6428,益阳市,甘溪港,,19,15,29,6,6,111,58,85,66,5,5,3,4,0.4,0.5
2023-08-01T23:00:00,2468A,112.3458,28.5808,益阳市,市环保局,,21,10,19,12,11,119,66,103,86,20,10,4,6,0.6,0.7
2023-08-01T23:00:00,2469A,112.3437,28.5531,益阳市,市特殊教育学校,,22,22,26,14,16,107,65,96,86,18,10,2,4,0.6,0.7
2023-08-01T23:00:00,2470A,112.3347,28.6047,益阳市,资阳区政务中心,,24,15,20,9,9,119,76,104,86,6,7,2,5,0.7,0.8
2023-08-01T23:00:00,2471A,112.3744,28.5819,益阳市,赫山环保分局,,26,26,22,1,9,116,44,96,78,27,10,4,7,0.8,1
2023-08-01T23:00:00,2472A,113.0073,25.9061,郴州市,马头岭,,28,28,17,10,8,67,7,58,32,29,14,19,5,0.7,0.4
2023-08-01T23:00:00,2473A,113.0116,25.8226,郴州市,市职中,,13,13,21,4,9,79,10,69,39,20,16,3,4,0.4,0.4
2023-08-01T23:00:00,2474A,113.0161,25.8001,郴州市,兴隆步行街,,20,20,21,6,12,77,32,69,47,22,15,6,8,0.5,0.5
2023-08-01T23:00:00,2475A,113.0383,25.8071,郴州市,市审计局,,13,13,14,4,10,74,34,66,44,16,12,6,9,0.4,0.4
2023-08-01T23:00:00,2476A,113.0348,25.7759,郴州市,市环保局,,,23,20,5,11,77,24,62,40,,15,7,12,0.4,0.4
2023-08-01T23:00:00,2477A,111.6217,26.2081,永州市,零陵南津渡,,23,23,20,11,14,79,27,66,48,9,6,6,6,0.4,0.4
2023-08-01T23:00:00,2478A,111.6156,26.4214,永州市,市环境监测站,,16,16,25,8,15,102,36,80,56,14,11,6,7,0.8,0.7
2023-08-01T23:00:00,2479A,111.6236,26.2331,永州市,零陵区环保局,,26,26,22,15,13,80,23,70,50,18,11,7,9,0.5,0.5
2023-08-01T23:00:00,2480A,111.5992,26.4364,永州市,永州市环保局,,15,15,24,8,14,99,36,78,54,16,12,10,12,0.6,0.6
2023-08-01T23:00:00,2481A,111.5989,26.4519,永州市,冷水滩区环保局,,17,17,27,8,15,103,41,78,57,14,12,7,8,0.5,0.5
2023-08-01T23:00:00,2482A,109.5981,27.5721,怀化市,林科所,,13,12,12,6,6,97,39,83,64,2,2,10,10,0.9,0.8
2023-08-01T23:00:00,2483A,109.9453,27.5444,怀化市,河西地税局,,15,15,20,5,10,98,30,79,62,14,10,5,5,0.5,0.6
2023-08-01T23:00:00,2484A,109.9781,27.5342,怀化市,市四医院,,15,8,15,7,10,92,48,79,65,3,5,4,5,0.6,0.6
2023-08-01T23:00:00,2485A,109.9972,27.5578,怀化市,监测楼,,14,14,22,4,8,94,44,82,68,3,5,5,5,0.6,0.6
2023-08-01T23:00:00,2486A,110.0394,27.583,怀化市,市委党校,,15,7,16,10,11,89,21,82,56,11,6,4,4,0.5,0.5
2023-08-01T23:00:00,2487A,111.9589,27.8901,娄底市,电视发射台,,23,23,31,7,11,81,22,60,41,5,6,3,4,0.6,0.8
2023-08-01T23:00:00,2488A,111.9975,27.725,娄底市,市监测站,,,17,25,24,16,93,,77,77,8,14,9,16,0.3,0.5
2023-08-01T23:00:00,2489A,112.0194,27.7314,娄底市,市委党校,,19,12,21,9,14,78,58,66,66,4,8,6,6,0.6,0.8
2023-08-01T23:00:00,2490A,111.9561,27.7569,娄底市,涟钢,,47,47,34,18,16,84,34,65,53,21,18,12,14,1.4,1.3
2023-08-01T23:00:00,2491A,111.9892,27.7044,娄底市,市政府,,20,13,20,11,12,94,61,78,72,5,6,7,7,0.6,0.6
