timepoint,stationcode,longitude,latitude,area,positionname,primarypollutant,aqi,pm10,pm10_24h,pm2_5,pm2_5_24h,o3,o3_24h,o3_8h,o3_8h_24h,no2,no2_24h,so2,so2_24h,co,co_24h
2024-11-03T0900,2566A,102.1879,31.914,阿坝藏族羌族自治州,州农科所,,31,31,22,19,11,16,,17,16,15,10,11,9,0.1,0.1
2024-11-03T0900,2568A,102.2502,31.8896,阿坝藏族羌族自治州,马师校,,23,,17,16,15,8,,8,6,10,12,4,4,0.4,0.3
2024-11-03T0900,3994A,102.2165,31.9024,阿坝藏族羌族自治州,马尔康中学西区,,25,18,18,17,14,10,,12,11,12,12,6,6,0.5,0.4
2024-11-03T0900,2695A,80.292,41.1694,阿克苏地区,电视台,颗粒物(PM10),68,85,147,28,47,42,,,,27,46,5,8,0.7,1.2
2024-11-03T0900,2696A,80.2613,41.1551,阿克苏地区,艺术中心,颗粒物(PM10),64,77,122,34,44,49,,43,43,18,48,5,4,0.8,1.1
2024-11-03T0900,2204A,105.6467,38.8363,阿拉善盟,西城区西花园,,33,24,38,23,24,83,,96,93,21,16,8,9,0.6,0.7
2024-11-03T0900,2205A,105.6985,38.8411,阿拉善盟,蒙二幼,,29,12,36,3,12,90,,95,95,11,12,7,9,0.5,0.5
2024-11-03T0900,2206A,105.724,38.8516,阿拉善盟,环保局新楼,,30,8,22,3,9,96,,101,99,7,9,8,9,0.5,0.5
2024-11-03T0900,2708A,88.1264,47.8517,阿勒泰地区,市站,,17,6,9,3,6,53,,72,70,14,9,7,7,0.2,0.1
2024-11-03T0900,2630A,80.1161,32.5,阿里地区,阿里监测站,,18,10,19,3,9,55,,45,45,12,24,14,12,0.4,0.6
2024-11-03T0900,3192A,80.0903,32.5028,阿里地区,阿里藏医院,,22,22,14,7,5,44,,49,49,27,14,7,8,0.5,0.4
2024-11-03T0900,2642A,109.0318,32.6537,安康市,香溪洞,,16,16,23,9,13,18,,18,18,8,12,8,8,0.4,0.4
2024-11-03T0900,2644A,109.0072,32.6975,安康市,汉滨区检察院,,49,46,30,34,21,8,,11,11,17,19,7,8,0.5,0.4
2024-11-03T0900,4054A,109.0325,32.6913,安康市,市邮政管理局,颗粒物(PM10),52,54,34,28,17,7,,6,6,16,21,6,7,0.6,0.6
2024-11-03T0900,2291A,117.0809,30.5177,安庆市,环科院,细颗粒物(PM2.5),58,49,51,41,38,38,,45,45,42,31,11,10,1.0,0.7
2024-11-03T0900,2292A,117.0331,30.5119,安庆市,马山宾馆,细颗粒物(PM2.5),65,47,51,47,38,53,,56,56,38,31,10,8,0.9,0.7
2024-11-03T0900,2294A,116.9896,30.6145,安庆市,安庆大学,细颗粒物(PM2.5),57,57,55,40,35,29,,40,40,56,30,12,9,2.5,0.6
2024-11-03T0900,3173A,117.0598,30.5351,安庆市,市人大,细颗粒物(PM2.5),65,49,52,47,40,46,,32,32,44,43,14,12,0.8,0.6
2024-11-03T0900,3122A,105.9606,26.2611,安顺市,伍家关,,,,26,,23,,,83,,,13,,6,,0.7
2024-11-03T0900,3123A,105.9408,26.2431,安顺市,凤凰山,,45,42,33,31,25,85,,71,71,13,11,15,13,0.5,0.6
2024-11-03T0900,3124A,105.9439,26.2564,安顺市,金钟山,,48,40,29,33,24,93,,73,73,9,10,16,11,0.6,0.6
2024-11-03T0900,3125A,105.8983,26.2481,安顺市,娄家坡,,43,39,30,30,24,86,,79,79,12,11,16,14,0.6,0.6
2024-11-03T0900,1818A,114.4839,36.0621,安阳市,棉研所,细颗粒物(PM2.5),156,140,96,119,90,41,,54,50,34,29,7,9,0.7,0.8
2024-11-03T0900,1819A,114.3551,36.1017,安阳市,红庙街,细颗粒物(PM2.5),109,98,81,82,63,43,,46,45,40,29,7,5,0.7,0.6
2024-11-03T0900,1820A,114.361,36.0681,安阳市,银杏小区,细颗粒物(PM2.5),129,106,72,98,74,38,,54,50,36,24,8,4,1.0,0.9
2024-11-03T0900,3141A,114.3922,36.0878,安阳市,信访局,细颗粒物(PM2.5),137,120,82,104,82,52,,58,56,26,21,14,7,0.9,0.8
2024-11-03T0900,3669A,114.4705,36.0637,安阳市,左辅环卫站,细颗粒物(PM2.5),155,159,117,118,83,38,,54,50,25,19,3,5,0.6,0.7
2024-11-03T0900,3703A,114.2917,36.0949,安阳市,安钢职工学校,细颗粒物(PM2.5),107,106,77,80,65,27,,32,28,43,28,3,4,0.8,0.7
2024-11-03T0900,1748A,123.044,41.1196,鞍山市,深沟寺,,42,42,74,17,38,89,,97,97,28,40,15,17,2.1,1.5
2024-11-03T0900,1749A,123.011,41.0931,鞍山市,太阳城,,43,43,69,24,44,84,,93,93,34,39,16,18,1.8,1.4
2024-11-03T0900,1750A,123.0485,41.1442,鞍山市,太平,,46,46,89,23,51,84,,89,89,29,48,17,24,1.2,1.5
2024-11-03T0900,1751A,122.9642,41.0971,鞍山市,铁西三道街,颗粒物(PM10),54,58,117,25,59,76,,79,79,33,58,10,27,0.8,1.6
2024-11-03T0900,1752A,122.9341,41.0833,鞍山市,铁西工业园区,,48,48,108,23,55,90,,91,91,22,50,14,28,0.8,1.4
2024-11-03T0900,1753A,123.022,41.0821,鞍山市,明达新区,,,46,88,18,42,92,,101,101,,35,13,18,1.9,1.1
2024-11-03T0900,1754A,123.1289,41.0228,鞍山市,千山,,,,47,,27,,,54,,,26,,11,,1.1
2024-11-03T0900,2195A,107.4212,40.761,巴彦淖尔市,附二中,,39,39,68,24,28,51,,70,67,31,21,13,7,0.5,0.5
2024-11-03T0900,2196A,107.37,40.7372,巴彦淖尔市,市环保大楼,,44,44,63,26,28,53,,68,65,24,18,4,5,0.6,0.7
2024-11-03T0900,1956A,86.1472,41.7538,巴音郭楞蒙古自治州,孔雀公园,颗粒物(PM10),80,110,128,47,42,31,,49,46,56,44,9,7,0.6,0.5
2024-11-03T0900,1957A,86.1972,41.7166,巴音郭楞蒙古自治州,棉纺厂,颗粒物(PM10),76,102,143,45,44,50,,48,48,31,43,3,3,0.5,0.5
2024-11-03T0900,1958A,86.2357,41.7173,巴音郭楞蒙古自治州,经济开发区,颗粒物(PM10),86,121,134,39,41,56,,68,68,26,22,1,2,0.5,0.4
2024-11-03T0900,2914A,106.7677,31.8794,巴中市,苏山坪,,25,20,16,17,12,53,,68,66,6,8,4,4,0.4,0.3
2024-11-03T0900,3182A,106.7656,31.8545,巴中市,丽阳花园,,32,31,25,22,18,4,,11,11,25,25,4,4,0.7,0.6
2024-11-03T0900,3183A,106.7418,31.8654,巴中市,圣泉水务公司,,21,21,22,14,14,10,,19,19,24,23,3,4,0.5,0.5
2024-11-03T0900,3616A,106.7616,31.8344,巴中市,市中心医院,,28,27,31,19,20,4,,3,3,23,24,3,4,0.6,0.6
2024-11-03T0900,2235A,122.7911,45.6077,白城市,洮北区环保局,,46,,33,32,26,29,,,,27,19,7,6,0.4,0.4
2024-11-03T0900,2236A,122.8738,45.5725,白城市,市环保局,,48,48,33,29,23,33,,44,44,26,16,4,3,0.4,0.4
2024-11-03T0900,2231A,126.4219,41.9171,白山市,喜丰,颗粒物(PM10),89,127,92,60,43,19,,13,13,40,40,46,20,0.8,0.7
2024-11-03T0900,2232A,126.4077,41.9419,白山市,环保局,细颗粒物(PM2.5),73,88,71,53,44,23,,24,24,42,31,30,11,0.9,0.8
2024-11-03T0900,2647A,104.1724,36.5446,白银市,第三小学,颗粒物(PM10),87,124,46,20,27,85,,90,90,13,22,8,19,0.4,0.7
2024-11-03T0900,2648A,104.1465,36.5482,白银市,动力公司,颗粒物(PM10),83,115,41,22,23,79,,88,88,10,19,3,11,0.6,0.7
2024-11-03T0900,2512A,106.6103,23.9011,百色市,市监测站,,35,30,41,24,28,10,,8,8,20,17,9,8,0.7,0.7
2024-11-03T0900,2513A,106.6538,23.8859,百色市,市中心血站,细颗粒物(PM2.5),53,38,61,37,35,31,,18,18,15,24,7,8,0.7,0.8
2024-11-03T0900,3406A,106.6085,23.8798,百色市,祈福高中,,49,37,62,34,33,16,,10,10,19,26,4,5,0.8,0.7
2024-11-03T0900,2270A,117.396,32.939,蚌埠市,工人疗养院,细颗粒物(PM2.5),104,116,85,78,55,33,,62,62,48,39,6,7,0.7,0.6
2024-11-03T0900,2271A,117.3605,32.9427,蚌埠市,百货大楼,,,111,89,71,57,,,,,57,48,7,6,0.9,0.6
2024-11-03T0900,2273A,117.4185,32.8911,蚌埠市,蚌埠学院,细颗粒物(PM2.5),80,88,75,59,54,25,,64,64,42,36,8,8,0.5,0.4
2024-11-03T0900,2274A,117.3533,32.9673,蚌埠市,淮上区政府,细颗粒物(PM2.5),119,139,94,90,67,18,,,,61,47,10,9,1.0,0.6
2024-11-03T0900,2275A,117.3145,32.8977,蚌埠市,高新区,细颗粒物(PM2.5),80,95,88,59,66,51,,,,47,49,9,8,0.6,0.5
2024-11-03T0900,3715A,117.3092,32.9314,蚌埠市,蚌埠田家炳中学,细颗粒物(PM2.5),102,131,106,76,69,62,,49,49,55,51,20,19,0.7,0.6
2024-11-03T0900,1585A,109.8756,40.6532,包头市,市环境监测站,,22,17,52,11,37,70,,61,61,21,38,6,15,0.4,0.9
2024-11-03T0900,1587A,109.9991,40.5842,包头市,包头八中,,24,24,72,3,44,60,,53,53,26,34,10,22,0.5,0.9
2024-11-03T0900,1588A,109.8538,40.6821,包头市,青山宾馆,,,30,48,10,37,46,,46,46,44,43,9,15,,1.3
2024-11-03T0900,1589A,109.8642,40.6288,包头市,惠龙物流,,20,12,50,3,34,62,,64,64,29,32,9,15,0.4,0.7
2024-11-03T0900,1590A,110.0377,40.5546,包头市,东河鸿龙湾,,16,16,58,7,37,44,,45,45,30,28,9,12,0.5,0.8
2024-11-03T0900,3283A,109.9154,40.5685,包头市,滨河大厦,,19,18,52,8,37,60,,58,58,30,31,12,14,0.6,0.8
2024-11-03T0900,3419A,109.9447,40.6261,包头市,包头市委党校,,28,28,57,3,37,50,,53,53,33,35,6,19,0.4,0.9
2024-11-03T0900,3683A,109.8331,40.6576,包头市,昆区政府,,20,18,52,3,37,63,,63,63,26,34,9,15,0.5,0.9
2024-11-03T0900,1930A,107.185,34.3063,宝鸡市,庙沟村,,38,36,43,26,23,22,,30,29,17,14,7,7,0.7,0.7
2024-11-03T0900,1931A,107.0708,34.3017,宝鸡市,竹园沟,细颗粒物(PM2.5),68,57,43,49,37,17,,26,24,20,16,6,7,0.7,0.6
2024-11-03T0900,1932A,107.1906,34.3672,宝鸡市,三陆医院,细颗粒物(PM2.5),89,78,50,66,48,7,,30,24,38,26,6,5,0.9,0.7
2024-11-03T0900,1933A,107.1431,34.3547,宝鸡市,监测站,细颗粒物(PM2.5),79,82,52,58,45,9,,26,22,36,26,8,7,0.9,0.7
2024-11-03T0900,1934A,107.1186,34.3739,宝鸡市,技工学校,细颗粒物(PM2.5),94,71,47,70,46,17,,36,33,32,28,9,6,0.9,0.8
2024-11-03T0900,1935A,107.3906,34.3528,宝鸡市,陈仓区环保局家属楼,细颗粒物(PM2.5),105,,55,79,54,5,,12,8,35,27,8,8,0.9,0.7
2024-11-03T0900,1936A,107.2058,34.3497,宝鸡市,文理学院,颗粒物(PM10),60,69,49,42,31,7,,19,17,34,26,9,8,0.8,0.6
2024-11-03T0900,1937A,107.2386,34.3622,宝鸡市,三迪小学,细颗粒物(PM2.5),95,71,52,71,49,8,,31,26,44,30,8,8,0.8,0.7
2024-11-03T0900,1051A,115.493,38.8632,保定市,游泳馆,细颗粒物(PM2.5),84,84,78,62,69,9,,5,5,34,40,4,4,1.1,1
2024-11-03T0900,1052A,115.5213,38.8959,保定市,华电二区,细颗粒物(PM2.5),62,53,64,44,59,6,,2,2,26,38,6,5,0.9,0.9
2024-11-03T0900,1053A,115.4713,38.9108,保定市,接待中心,细颗粒物(PM2.5),69,59,77,50,62,10,,3,3,27,34,2,2,0.8,0.7
2024-11-03T0900,1054A,115.4612,38.8416,保定市,地表水厂,颗粒物(PM10),66,82,84,39,65,4,,2,2,33,40,3,3,0.9,0.9
2024-11-03T0900,3581A,115.31981,38.95208,保定市,满城区生态环境分局,,39,39,80,22,61,6,,3,3,37,48,4,4,0.9,0.9
2024-11-03T0900,3582A,115.47694,38.76408,保定市,清苑区第二中学,颗粒物(PM10),54,57,77,37,54,7,,4,4,29,38,2,3,1.1,1
2024-11-03T0900,3583A,115.62909,39.02311,保定市,徐水物探局,,42,36,47,29,47,12,,3,3,23,37,5,5,0.9,0.9
2024-11-03T0900,4004A,115.4202,38.8656,保定市,双鹰农机,,50,50,78,25,51,9,,4,4,32,38,3,3,0.9,0.9
2024-11-03T0900,4034A,115.5150,38.8590,保定市,植保所站,细颗粒物(PM2.5),64,73,78,46,58,8,,4,4,28,38,3,2,0.8,0.7
2024-11-03T0900,2594A,99.1678,25.1081,保山市,市环境监测站,,30,30,39,21,16,18,,32,32,13,9,5,5,0.6,0.4
2024-11-03T0900,2595A,99.1711,25.1328,保山市,市环保局,,33,27,37,23,19,27,,39,39,7,7,5,5,0.6,0.6
2024-11-03T0900,1866A,109.2262,21.588,北海市,牛尾岭水库,细颗粒物(PM2.5),62,46,39,44,35,56,,65,62,8,6,5,8,0.7,0.6
2024-11-03T0900,1867A,109.1436,21.4086,北海市,海滩公园,细颗粒物(PM2.5),85,80,56,63,39,86,,90,90,20,14,9,10,0.9,0.8
2024-11-03T0900,1868A,109.0981,21.4661,北海市,新市环保局,细颗粒物(PM2.5),79,62,52,58,42,82,,88,87,14,13,7,9,1.0,0.8
2024-11-03T0900,1869A,109.1778,21.5233,北海市,北海工业园,细颗粒物(PM2.5),85,70,58,63,44,73,,85,84,24,15,11,10,0.8,0.6
2024-11-03T0900,3400A,109.1911,21.4415,北海市,龙潭自来水厂,细颗粒物(PM2.5),92,77,51,68,46,72,,80,79,18,11,9,8,0.8,0.7
2024-11-03T0900,1001A,116.3621,39.8784,北京市,万寿西宫,细颗粒物(PM2.5),149,133,124,114,101,18,,15,15,38,42,1,1,1.1,1.1
2024-11-03T0900,1002A,116.2202,40.2915,北京市,定陵,细颗粒物(PM2.5),125,104,127,95,114,18,,10,10,12,21,3,2,0.8,0.8
2024-11-03T0900,1003A,116.4174,39.9289,北京市,东四,细颗粒物(PM2.5),160,145,131,122,111,22,,22,21,37,38,3,2,1.1,1.1
2024-11-03T0900,1004A,116.4072,39.8863,北京市,天坛,细颗粒物(PM2.5),143,119,110,109,100,10,,11,11,26,34,3,3,1.1,1.1
2024-11-03T0900,1005A,116.462,39.9365,北京市,农展馆,细颗粒物(PM2.5),129,140,121,98,85,16,,8,8,31,41,3,3,1.1,1.1
2024-11-03T0900,1006A,116.3392,39.9295,北京市,官园,细颗粒物(PM2.5),152,143,136,116,109,11,,17,16,46,40,4,3,1.2,1.1
2024-11-03T0900,1007A,116.2878,39.9611,北京市,海淀万柳,细颗粒物(PM2.5),123,132,134,93,101,14,,20,18,39,44,3,3,1.2,1.1
2024-11-03T0900,1008A,116.6636,40.135,北京市,顺义新城,细颗粒物(PM2.5),107,135,110,80,81,7,,2,2,42,40,3,3,1.1,0.9
2024-11-03T0900,1009A,116.6275,40.3275,北京市,怀柔镇,细颗粒物(PM2.5),156,150,120,119,96,27,,16,16,17,30,1,1,1.3,1.2
2024-11-03T0900,1010A,116.2296,40.217,北京市,昌平镇,细颗粒物(PM2.5),123,142,151,93,109,4,,6,6,34,34,3,3,1.0,1
2024-11-03T0900,1011A,116.3966,39.9821,北京市,奥体中心,细颗粒物(PM2.5),148,152,136,113,105,15,,17,15,42,43,2,2,1.3,1.2
2024-11-03T0900,1012A,116.184,39.9136,北京市,古城,细颗粒物(PM2.5),140,126,168,107,134,39,,34,33,20,35,3,3,0.8,0.9
2024-11-03T0900,3281A,115.9718,40.4529,北京市,延庆夏都,细颗粒物(PM2.5),120,138,112,91,86,28,,31,30,23,19,3,3,0.7,0.6
2024-11-03T0900,3417A,117.0709,40.1465,北京市,平谷新城,细颗粒物(PM2.5),118,118,101,89,77,9,,16,16,25,23,3,3,0.8,0.7
2024-11-03T0900,3418A,116.8336,40.4095,北京市,密云新城,细颗粒物(PM2.5),140,145,120,107,84,8,,4,4,41,31,3,3,1.0,0.8
2024-11-03T0900,3671A,116.088,39.9726,北京市,门头沟三家店,细颗粒物(PM2.5),112,96,124,84,108,33,,26,26,18,39,6,5,0.7,0.8
2024-11-03T0900,3672A,116.1541,39.8204,北京市,丰台云岗,细颗粒物(PM2.5),109,121,127,82,100,9,,16,14,24,34,3,3,0.9,1
2024-11-03T0900,3673A,116.6804,39.9081,北京市,通州东关,颗粒物(PM10),111,171,114,81,76,4,,0,0,49,42,1,2,1.2,1.1
2024-11-03T0900,3674A,115.9577,39.7603,北京市,房山燕山,细颗粒物(PM2.5),84,94,118,62,87,14,,18,18,18,32,1,1,0.9,0.9
2024-11-03T0900,3675A,116.4672,39.7733,北京市,大兴旧宫,颗粒物(PM10),84,118,86,60,61,5,,2,2,37,37,3,3,1.0,0.9
2024-11-03T0900,3694A,115.986,40.4563,北京市,延庆石河营,细颗粒物(PM2.5),102,127,102,76,77,20,,26,24,26,19,3,3,0.7,0.6
2024-11-03T0900,3695A,116.6151,40.3053,北京市,怀柔新城,细颗粒物(PM2.5),163,156,124,124,105,28,,9,9,14,28,1,1,0.9,0.9
2024-11-03T0900,3696A,116.2545,39.8768,北京市,丰台小屯,细颗粒物(PM2.5),108,129,126,81,96,7,,13,11,34,40,1,1,1.1,1
2024-11-03T0900,3697A,116.84,40.3844,北京市,密云镇,细颗粒物(PM2.5),142,141,114,108,86,3,,2,2,42,30,1,2,1.0,0.9
2024-11-03T0900,1761A,123.8275,41.3064,本溪市,大峪,颗粒物(PM10),57,64,90,39,56,58,,35,35,40,45,15,16,1.3,1.4
2024-11-03T0900,1762A,123.7567,41.3325,本溪市,溪湖,颗粒物(PM10),67,83,111,39,58,51,,38,38,56,47,49,24,3.4,1.8
2024-11-03T0900,1763A,123.7169,41.3094,本溪市,彩屯,细颗粒物(PM2.5),69,79,91,50,65,48,,43,43,51,43,29,15,2.4,1.4
2024-11-03T0900,1764A,123.7669,41.2864,本溪市,东明,,33,33,96,22,62,92,,74,74,21,54,15,21,0.7,1.5
2024-11-03T0900,1765A,123.7992,41.2664,本溪市,新立屯,,42,42,68,19,35,92,,83,83,28,47,8,14,0.6,1
2024-11-03T0900,1766A,123.8142,41.3472,本溪市,威宁,细颗粒物(PM2.5),115,143,143,87,75,24,,21,21,46,45,12,11,1.6,1.1
2024-11-03T0900,2587A,105.2864,27.3125,毕节市,八中,细颗粒物(PM2.5),63,51,29,45,26,13,,20,20,14,12,7,7,0.8,0.6
2024-11-03T0900,2588A,105.31,27.2944,毕节市,师专,细颗粒物(PM2.5),67,58,29,48,22,24,,24,24,19,13,13,6,0.7,0.5
2024-11-03T0900,3537A,105.3631,27.3533,毕节市,长征村,细颗粒物(PM2.5),83,77,34,61,27,45,,34,33,12,9,7,6,0.6,0.5
2024-11-03T0900,1629A,118.0018,37.3617,滨州市,第二水厂,颗粒物(PM10),78,105,114,56,64,40,,25,25,51,53,16,14,0.8,0.8
2024-11-03T0900,1630A,117.9776,37.393,滨州市,北中新校,颗粒物(PM10),74,97,114,46,61,42,,24,24,62,62,15,10,1.0,0.9
2024-11-03T0900,3514A,117.9378,37.3956,滨州市,中海酒店,细颗粒物(PM2.5),70,88,99,51,60,72,,51,51,40,39,17,11,0.9,0.8
2024-11-03T0900,3515A,117.9378,37.3553,滨州市,开发区一中,颗粒物(PM10),76,102,112,48,61,43,,35,35,67,54,19,16,0.5,0.6
2024-11-03T0900,3516A,118.0917,37.694,滨州市,金海六路,细颗粒物(PM2.5),85,115,103,63,64,30,,18,18,66,51,20,10,0.9,0.7
2024-11-03T0900,4028A,117.9956,37.3753,滨州市,滨州市西街道办事处,细颗粒物(PM2.5),79,105,105,58,70,57,,32,32,48,51,16,12,1.1,0.9
2024-11-03T0900,2311A,115.8072,33.8399,亳州市,污水处理厂,细颗粒物(PM2.5),113,125,92,85,66,,,,,57,37,9,17,0.8,0.7
2024-11-03T0900,2312A,115.7789,33.8518,亳州市,三国揽胜宫,细颗粒物(PM2.5),107,114,110,80,78,105,,35,35,17,27,4,6,0.6,0.7
2024-11-03T0900,3332A,115.7633,33.8034,亳州市,亳州学院,细颗粒物(PM2.5),120,129,98,91,69,103,,64,64,26,30,8,6,0.6,0.6
2024-11-03T0900,2693A,82.0485,44.8556,博尔塔拉蒙古自治州,市党校,细颗粒物(PM2.5),63,50,55,45,32,13,,18,18,18,17,4,6,0.4,0.4
2024-11-03T0900,2694A,82.0806,44.8969,博尔塔拉蒙古自治州,市环保局,颗粒物(PM10),58,66,64,32,24,20,,18,18,16,20,4,6,0.3,0.5
2024-11-03T0900,1071A,116.8842,38.2991,沧州市,沧县城建局,细颗粒物(PM2.5),128,120,73,97,56,68,,67,67,23,23,5,4,0.2,0
2024-11-03T0900,1072A,116.8584,38.3254,沧州市,电视转播站,细颗粒物(PM2.5),125,108,71,95,58,87,,78,78,21,22,8,4,0.6,0.5
2024-11-03T0900,1073A,116.8709,38.3228,沧州市,市环保局,细颗粒物(PM2.5),119,124,79,90,57,80,,64,64,23,23,6,4,0.6,0.5
2024-11-03T0900,3324A,116.8136,38.3004,沧州市,河北水利电力学院,细颗粒物(PM2.5),133,110,70,101,60,71,,60,60,25,25,9,7,0.5,0.3
2024-11-03T0900,2622A,97.1806,31.1273,昌都市,昌都监测站,,15,15,25,10,14,26,,22,22,12,24,7,7,0.6,0.8
2024-11-03T0900,3719A,97.1714,31.1406,昌都市,昌都会议中心,,15,15,16,8,8,34,,39,39,11,12,6,6,0.5,0.5
2024-11-03T0900,2690A,88.1236,43.8886,昌吉回族自治州,天山天池,,30,6,5,3,5,93,,78,78,2,3,8,8,0.4,0.3
2024-11-03T0900,2692A,87.2717,44.0297,昌吉回族自治州,新区政务中心,颗粒物(PM10),62,74,58,29,31,1,,1,1,40,40,7,7,0.8,0.6
2024-11-03T0900,3613A,87.3095,44.0142,昌吉回族自治州,亚心广场,颗粒物(PM10),67,83,65,39,36,5,,5,5,49,44,5,5,1.1,0.8
2024-11-03T0900,1119A,125.3325,43.9166,长春市,食品厂,细颗粒物(PM2.5),97,76,62,72,48,16,,17,16,45,35,12,11,0.8,0.5
2024-11-03T0900,1120A,125.2863,43.9027,长春市,客车厂,细颗粒物(PM2.5),110,,55,83,48,20,,21,21,45,38,17,11,0.8,0.6
2024-11-03T0900,1121A,125.2841,43.8463,长春市,邮电学院,细颗粒物(PM2.5),117,,55,88,47,18,,22,22,51,37,15,12,0.8,0.5
2024-11-03T0900,1122A,125.3716,43.8772,长春市,劳动公园,细颗粒物(PM2.5),109,86,62,82,49,27,,23,23,39,36,11,11,0.8,0.6
2024-11-03T0900,1123A,125.3297,43.8805,长春市,园林处,细颗粒物(PM2.5),98,82,57,73,42,23,,21,20,38,30,12,9,1.0,0.7
2024-11-03T0900,1124A,125.4605,43.79,长春市,净月潭,细颗粒物(PM2.5),84,,57,62,49,23,,30,28,13,15,7,8,0.6,0.4
2024-11-03T0900,1125A,125.7194,43.515,长春市,甩湾子,,,,,,,,,,,,,,,,
2024-11-03T0900,1126A,125.3863,43.8447,长春市,经开区环卫处,细颗粒物(PM2.5),103,,57,77,44,21,,17,17,35,35,11,13,0.7,0.5
2024-11-03T0900,1127A,125.245,43.7783,长春市,高新区管委会,细颗粒物(PM2.5),127,,57,96,51,18,,23,22,31,31,8,8,0.9,0.6
2024-11-03T0900,1128A,125.1761,43.8325,长春市,岱山公园,细颗粒物(PM2.5),117,89,52,88,44,11,,21,19,44,33,9,11,0.8,0.5
2024-11-03T0900,1335A,113.0833,28.2325,长沙市,经开区环保局,细颗粒物(PM2.5),129,132,126,98,87,16,,27,27,57,37,10,5,1.0,0.7
2024-11-03T0900,1336A,112.8872,28.2189,长沙市,高开区环保局,细颗粒物(PM2.5),168,,126,127,118,35,,26,25,51,37,7,7,0.8,0.7
2024-11-03T0900,1337A,113.0792,28.2053,长沙市,马坡岭,细颗粒物(PM2.5),130,,107,99,100,55,,50,47,41,39,7,6,0.8,0.8
2024-11-03T0900,1338A,112.9394,28.19,长沙市,湖南师范大学,细颗粒物(PM2.5),198,173,139,148,105,40,,58,53,40,22,6,7,1.0,0.8
2024-11-03T0900,1339A,113.0178,28.1322,长沙市,雨花区环保局,细颗粒物(PM2.5),147,112,121,112,97,28,,23,17,43,32,7,7,0.7,0.7
2024-11-03T0900,1340A,112.9792,28.2597,长沙市,伍家岭,细颗粒物(PM2.5),158,150,131,120,104,11,,2,2,51,40,5,6,1.0,0.9
2024-11-03T0900,1341A,113.0014,28.1944,长沙市,火车新站,细颗粒物(PM2.5),160,133,117,122,99,22,,21,15,71,39,7,7,1.1,0.9
2024-11-03T0900,1342A,112.9844,28.1178,长沙市,天心区环保局,细颗粒物(PM2.5),145,156,130,111,85,14,,10,10,65,42,6,6,1.1,0.9
2024-11-03T0900,1343A,112.8908,28.1308,长沙市,湖南中医药大学,细颗粒物(PM2.5),173,149,146,131,122,16,,20,17,43,38,6,7,1.0,1
2024-11-03T0900,1344A,112.9581,28.3611,长沙市,沙坪,细颗粒物(PM2.5),107,141,106,80,68,53,,46,46,24,15,10,9,1.0,0.9
2024-11-03T0900,1727A,113.1147,36.1547,长治市,清华站,细颗粒物(PM2.5),67,74,48,48,34,14,,23,18,42,37,9,8,1.0,0.8
2024-11-03T0900,1728A,113.1031,36.1989,长治市,监测站,颗粒物(PM10),54,58,48,31,33,7,,14,10,32,27,11,11,1.0,0.7
2024-11-03T0900,1730A,113.0886,36.2125,长治市,审计局,细颗粒物(PM2.5),64,60,43,46,37,14,,16,13,34,31,7,7,1.1,0.9
2024-11-03T0900,1731A,113.0844,36.1856,长治市,长治八中,颗粒物(PM10),61,72,52,25,28,9,,20,13,39,33,7,8,1.0,0.8
2024-11-03T0900,2845A,113.1569,36.1911,长治市,德盛苑,,49,48,38,34,32,26,,70,61,32,25,5,6,0.8,0.8
2024-11-03T0900,3568A,113.06,36.0464,长治市,向阳小学,,,82,64,50,42,,,65,64,34,28,9,10,1.1,0.8
2024-11-03T0900,3569A,112.8792,36.3144,长治市,屯留一中,,49,40,40,34,28,15,,18,18,35,29,18,16,1.3,0.9
2024-11-03T0900,3570A,113.235,36.3489,长治市,潞城四中,细颗粒物(PM2.5),88,119,83,65,49,31,,14,14,43,50,21,10,3.3,1.8
2024-11-03T0900,1854A,111.6975,28.9703,常德市,市二中,细颗粒物(PM2.5),70,62,106,51,61,15,,29,26,40,34,5,9,0.8,0.8
2024-11-03T0900,1857A,111.7158,29.1456,常德市,白鹤山,,,,,,,,,,,,,,,,
2024-11-03T0900,3138A,111.7153,29.0289,常德市,武陵区永安,细颗粒物(PM2.5),72,89,99,52,64,68,,54,54,20,33,6,9,0.9,0.9
2024-11-03T0900,3139A,111.6892,28.9881,常德市,鼎城区玉霞,细颗粒物(PM2.5),73,77,106,53,62,19,,11,11,32,34,6,8,0.9,0.9
2024-11-03T0900,3140A,111.6625,29.0531,常德市,武陵区长庚,细颗粒物(PM2.5),73,63,101,53,62,44,,44,44,26,36,5,8,0.8,0.9
2024-11-03T0900,1196A,119.9633,31.762,常州市,市监测站,细颗粒物(PM2.5),134,,90,102,53,34,,8,8,71,45,13,9,1.6,1
2024-11-03T0900,1200A,119.9468,31.7069,常州市,武进监测站,细颗粒物(PM2.5),104,147,78,78,44,25,,7,7,65,45,18,10,1.4,0.9
2024-11-03T0900,1201A,119.9255,31.9087,常州市,安家,细颗粒物(PM2.5),120,176,88,91,48,21,,5,5,67,50,13,10,1.2,0.8
2024-11-03T0900,3002A,119.9805,31.8174,常州市,行政中心,细颗粒物(PM2.5),139,145,87,106,59,37,,27,27,52,41,11,7,1.4,0.8
2024-11-03T0900,3003A,120.0522,31.7748,常州市,经开区,细颗粒物(PM2.5),130,105,71,99,54,46,,12,12,54,52,13,10,1.1,0.8
2024-11-03T0900,3010A,119.9025,31.7964,常州市,钟楼,细颗粒物(PM2.5),142,171,92,108,58,19,,6,6,92,57,12,9,1.5,1
2024-11-03T0900,3429A,119.8598,31.7066,常州市,武进经发区,细颗粒物(PM2.5),92,121,67,68,39,21,,8,8,71,45,10,9,1.1,0.8
2024-11-03T0900,3430A,119.5826,31.7245,常州市,金坛城区,细颗粒物(PM2.5),74,76,44,54,29,44,,22,22,35,24,10,8,1.2,0.8
2024-11-03T0900,2220A,120.4318,41.5881,朝阳市,西梁,细颗粒物(PM2.5),110,95,63,83,38,9,,27,27,59,33,22,14,1.7,1
2024-11-03T0900,2221A,120.4521,41.5646,朝阳市,河畔小区,细颗粒物(PM2.5),67,69,61,48,29,33,,36,36,41,28,18,13,1.4,0.9
2024-11-03T0900,2222A,120.4176,41.5648,朝阳市,八里堡,颗粒物(PM10),85,119,64,60,29,11,,27,24,59,34,22,13,1.9,1.1
2024-11-03T0900,2223A,120.3806,41.5969,朝阳市,农业园区,细颗粒物(PM2.5),109,,68,82,45,21,,47,47,47,36,16,14,1.5,1.1
2024-11-03T0900,1705A,116.6367,23.6719,潮州市,西园路,,47,47,26,12,11,40,,43,38,11,10,5,6,0.6,0.5
2024-11-03T0900,3026A,116.6183,23.6608,潮州市,市政府,,48,48,27,19,12,54,,55,52,17,17,10,10,0.8,0.7
2024-11-03T0900,4036A,116.6461,23.6761,潮州市,金山,,42,42,24,21,15,38,,40,35,11,11,8,9,0.7,0.6
2024-11-03T0900,2472A,113.0073,25.9061,郴州市,马头岭,颗粒物(PM10),85,119,101,41,47,25,,32,32,37,24,13,9,0.8,0.7
2024-11-03T0900,2473A,113.0116,25.8226,郴州市,市职中,细颗粒物(PM2.5),108,91,96,81,83,12,,12,12,22,22,7,7,1.0,1
2024-11-03T0900,2474A,113.0161,25.8001,郴州市,兴隆步行街,细颗粒物(PM2.5),92,88,103,68,74,14,,8,8,20,24,5,7,0.9,0.9
2024-11-03T0900,2475A,113.0383,25.8071,郴州市,市审计局,细颗粒物(PM2.5),102,93,96,76,80,22,,28,28,18,19,6,7,0.9,0.8
2024-11-03T0900,2476A,113.0348,25.7759,郴州市,市环保局,细颗粒物(PM2.5),102,88,103,76,77,11,,8,8,27,29,9,10,0.9,0.9
2024-11-03T0900,1431A,103.9728,30.7236,成都市,金泉两河,,,,51,,34,,,52,,,26,,3,,0.6
2024-11-03T0900,1432A,104.176,30.6872,成都市,十里店,,27,27,39,14,25,51,,45,45,21,27,2,2,0.6,0.6
2024-11-03T0900,1433A,104.079,30.5706,成都市,三瓦窑,,35,34,45,24,30,53,,42,42,20,26,2,2,0.6,0.6
2024-11-03T0900,1434A,104.1114,30.63,成都市,沙河铺,,44,44,46,25,31,56,,48,48,19,25,1,2,0.5,0.5
2024-11-03T0900,1437A,104.0786,30.6531,成都市,君平街,,38,36,41,26,26,54,,53,53,17,22,4,4,0.5,0.6
2024-11-03T0900,1438A,103.613,31.0283,成都市,灵岩寺,,,,,,,,,,,,,,,,
2024-11-03T0900,2880A,104.0239,30.65639,成都市,大石西路,,41,41,42,23,27,54,,52,52,12,20,3,4,0.5,0.6
2024-11-03T0900,3136A,104.2725,30.5589,成都市,龙泉驿区区政府,,22,22,31,12,22,46,,38,35,19,16,3,4,0.4,0.4
2024-11-03T0900,3357A,104.0106,30.6931,成都市,金博路,,42,42,45,19,27,41,,47,47,16,22,2,2,0.6,0.7
2024-11-03T0900,3359A,104.0578,30.5225,成都市,华阳,,29,29,39,17,26,50,,34,34,16,20,2,2,0.6,0.6
2024-11-03T0900,3487A,104.2394,30.5319,成都市,车城东七路,,,28,44,21,33,,,,,21,19,2,2,0.6,0.5
2024-11-03T0900,3488A,104.3853,30.7453,成都市,青白江技师分院,,40,40,40,21,24,33,,23,23,21,21,3,3,0.6,0.5
2024-11-03T0900,3489A,104.0789,30.4072,成都市,科学城,,42,36,41,29,32,35,,38,33,26,16,5,5,0.5,0.6
2024-11-03T0900,4011A,103.8506,30.6947,成都市,光华大道三段,,40,40,48,20,31,63,,60,60,12,18,4,5,0.5,0.5
2024-11-03T0900,1062A,117.9531,40.9081,承德市,铁路,"颗粒物(PM10),细颗粒物(PM2.5)",79,107,86,58,52,3,,1,1,51,56,4,5,0.9,0.9
2024-11-03T0900,1063A,117.9392,40.9763,承德市,中国银行,细颗粒物(PM2.5),75,79,79,55,48,5,,2,2,37,45,2,3,0.8,0.8
2024-11-03T0900,1064A,117.9503,40.928,承德市,开发区,颗粒物(PM10),85,120,102,57,50,7,,5,5,44,51,5,6,1.0,0.9
2024-11-03T0900,1065A,117.8051,40.9655,承德市,文化中心,细颗粒物(PM2.5),94,115,112,70,65,14,,6,6,39,51,3,6,0.8,1.4
2024-11-03T0900,1066A,117.9268,41.0026,承德市,离宫,细颗粒物(PM2.5),75,82,80,55,55,9,,10,7,24,23,1,2,0.7,0.7
2024-11-03T0900,2314A,117.47,30.6618,池州市,池州学院,,33,33,54,21,32,49,,22,22,23,31,7,11,0.7,0.7
2024-11-03T0900,3237A,117.4918,30.6617,池州市,展览馆,,28,28,45,18,28,30,,13,13,25,29,4,6,0.7,0.6
2024-11-03T0900,3333A,117.5627,30.695,池州市,第八中学,,31,31,45,20,28,55,,32,32,21,24,5,7,0.7,0.7
2024-11-03T0900,3334A,117.5038,30.6243,池州市,第十二中学,,36,36,47,23,28,25,,6,6,34,36,3,4,1.2,0.8
2024-11-03T0900,1744A,118.9233,42.2816,赤峰市,松山一中,,17,17,42,10,23,42,,60,58,33,30,11,13,0.6,0.6
2024-11-03T0900,1745A,118.9576,42.2728,赤峰市,哈达街,,16,16,46,3,25,43,,61,60,25,23,9,12,0.5,0.6
2024-11-03T0900,1746A,118.8788,42.2554,赤峰市,天义路,,15,11,36,9,22,48,,64,63,24,25,11,8,0.3,0.3
2024-11-03T0900,3058A,119.2658,42.0353,赤峰市,银河街,,35,24,69,24,45,32,,40,40,26,27,12,22,0.6,0.7
2024-11-03T0900,3286A,118.9359,42.3147,赤峰市,桥北物流园区,,29,29,33,19,23,25,,51,48,33,33,7,12,1.0,0.9
2024-11-03T0900,2521A,107.3476,22.4136,崇左市,市环保局江州分局,颗粒物(PM10),51,51,47,34,27,44,,49,49,22,11,5,5,0.6,0.5
2024-11-03T0900,2522A,107.3702,22.3707,崇左市,城南新区,细颗粒物(PM2.5),52,47,40,36,28,67,,70,70,11,10,7,7,0.5,0.4
2024-11-03T0900,2298A,118.3093,32.3153,滁州市,老年大学,细颗粒物(PM2.5),70,69,51,51,37,16,,,,36,28,4,2,0.6,0.4
2024-11-03T0900,2299A,118.3244,32.2786,滁州市,人大宾馆,细颗粒物(PM2.5),95,102,66,71,42,46,,42,42,43,31,10,7,0.6,0.5
2024-11-03T0900,3207A,118.3118,32.3038,滁州市,市政府原办公楼,细颗粒物(PM2.5),89,87,58,66,48,27,,18,18,49,34,8,6,0.8,0.5
2024-11-03T0900,3331A,118.3267,32.2634,滁州市,图书馆,细颗粒物(PM2.5),74,95,68,54,40,48,,38,36,42,30,8,5,0.6,0.4
2024-11-03T0900,2605A,101.5482,25.0441,楚雄彝族自治州,州环境监测站,细颗粒物(PM2.5),54,,31,38,32,14,,14,14,21,22,15,17,0.9,0.9
2024-11-03T0900,2606A,101.538,25.0492,楚雄彝族自治州,市经济开发区,,49,,34,34,30,14,,14,13,15,22,13,17,0.9,0.9
2024-11-03T0900,2548A,107.5277,31.2827,达州市,达州职业技术学院,,44,44,43,29,25,2,,,,29,33,5,6,0.7,0.9
2024-11-03T0900,2549A,107.5086,31.2186,达州市,市环境监测站,,50,50,46,29,21,3,,,,36,38,9,7,0.6,0.6
2024-11-03T0900,2550A,107.4988,31.2132,达州市,凤凰小区,,44,44,43,29,26,8,,,,35,37,12,9,0.6,0.8
2024-11-03T0900,2551A,107.5082,31.1986,达州市,达县机关宾馆,,46,41,42,32,29,15,,,,33,40,11,7,0.6,0.7
2024-11-03T0900,2552A,107.4644,31.2124,达州市,市政中心,,48,48,46,31,22,8,,,,33,40,10,11,0.7,1
2024-11-03T0900,2614A,100.1542,25.7054,大理白族自治州,大理市环境监测站,,32,,27,22,21,38,,41,41,14,13,7,7,0.5,0.5
2024-11-03T0900,2615A,100.2171,25.5811,大理白族自治州,大理古城,,27,27,28,6,18,26,,32,32,22,12,6,7,0.4,0.4
2024-11-03T0900,1109A,121.612,38.9741,大连市,甘井子,颗粒物(PM10),57,63,59,35,34,65,,51,49,49,52,18,13,0.4,0.4
2024-11-03T0900,1110A,121.565,38.9511,大连市,周水子,颗粒物(PM10),58,65,68,39,41,77,,58,58,34,60,13,12,0.8,1
2024-11-03T0900,1111A,121.5637,38.8845,大连市,星海三站,颗粒物(PM10),55,60,49,31,27,75,,54,54,26,33,9,9,0.4,0.4
2024-11-03T0900,1112A,121.6302,38.9117,大连市,青泥洼桥,颗粒物(PM10),53,55,46,29,25,88,,58,58,17,42,10,14,0.8,0.8
2024-11-03T0900,1113A,121.6251,38.8638,大连市,傅家庄,,46,46,35,28,20,92,,63,63,23,27,10,11,0.4,0.4
2024-11-03T0900,1114A,121.5213,38.8661,大连市,七贤岭,颗粒物(PM10),57,64,38,39,22,86,,34,34,27,31,10,9,0.6,0.6
2024-11-03T0900,1115A,121.2529,38.8061,大连市,旅顺,细颗粒物(PM2.5),65,68,54,47,31,83,,75,75,49,45,10,10,0.7,0.7
2024-11-03T0900,1116A,121.7485,39.1311,大连市,金州,细颗粒物(PM2.5),60,57,36,43,26,64,,64,64,42,34,12,15,0.8,0.7
2024-11-03T0900,1117A,121.7811,39.0496,大连市,开发区,颗粒物(PM10),55,60,62,36,34,71,,52,52,33,48,7,8,0.4,0.5
2024-11-03T0900,1118A,121.9762,39.0631,大连市,双D港,,49,47,34,34,18,94,,61,61,27,29,10,9,0.7,0.6
2024-11-03T0900,1789A,124.81117,46.03138,大庆市,大同区,,31,31,48,21,34,32,,42,40,17,20,4,4,0.4,0.5
2024-11-03T0900,1790A,125.129,46.533,大庆市,龙凤区,细颗粒物(PM2.5),83,80,51,61,36,22,,40,37,31,20,5,5,0.7,0.5
2024-11-03T0900,1791A,124.902,46.408,大庆市,红岗区,,49,46,41,34,29,35,,,,18,17,6,6,0.5,0.4
2024-11-03T0900,1792A,125.153,46.586,大庆市,萨尔图区,细颗粒物(PM2.5),78,70,47,57,40,31,,46,43,29,23,9,8,0.3,0.2
2024-11-03T0900,1793A,124.9042,46.6215,大庆市,让胡路区,颗粒物(PM10),51,51,42,35,32,40,,50,50,20,18,6,6,0.3,0.3
2024-11-03T0900,3481A,125.141,46.634,大庆市,萨区政府监测点,颗粒物(PM10),59,67,44,39,31,31,,44,42,29,22,6,6,0.5,0.5
2024-11-03T0900,1721A,113.3819,40.1097,大同市,果树场,细颗粒物(PM2.5),52,50,74,36,49,50,,31,31,20,39,11,14,0.8,0.7
2024-11-03T0900,1723A,113.2994,40.0758,大同市,云冈宾馆,,,72,86,50,54,,,,,32,40,10,17,0.6,1.1
2024-11-03T0900,1724A,113.3444,40.0917,大同市,大同大学,颗粒物(PM10),54,58,71,36,43,50,,42,42,30,39,8,14,0.5,0.7
2024-11-03T0900,1725A,113.2661,40.1269,大同市,安家小村,颗粒物(PM10),52,53,86,21,49,57,,49,49,21,39,13,20,0.3,0.7
2024-11-03T0900,1726A,113.2711,40.0844,大同市,教育学院,颗粒物(PM10),62,74,98,38,50,32,,33,33,38,50,12,19,0.6,1
2024-11-03T0900,3282A,113.3397,40.0597,大同市,大同市卫生学校,细颗粒物(PM2.5),63,69,80,45,48,35,,45,45,37,40,10,16,0.6,0.7
2024-11-03T0900,3565A,113.1367,40.1122,大同市,云冈站,细颗粒物(PM2.5),69,78,71,50,40,35,,26,26,32,33,12,15,0.9,0.9
2024-11-03T0900,3566A,113.1186,40.2556,大同市,图书馆,"颗粒物(PM10),细颗粒物(PM2.5)",59,67,68,42,41,68,,38,38,16,25,8,12,0.4,0.8
2024-11-03T0900,3567A,113.5931,40.0461,大同市,区一中,颗粒物(PM10),67,84,101,26,30,34,,16,16,38,46,20,24,0.7,0.9
2024-11-03T0900,3676A,113.2802,40.0995,大同市,第二人民医院,颗粒物(PM10),63,76,89,30,44,45,,37,37,31,40,13,21,0.6,1
2024-11-03T0900,2269A,124.1069,50.4097,大兴安岭地区,科技局,,36,32,17,25,16,26,,34,33,10,7,5,4,0.3,0.2
2024-11-03T0900,3663A,124.1164,50.4278,大兴安岭地区,红旗社区,,30,,8,21,9,22,,30,30,14,10,5,5,0.5,0.4
2024-11-03T0900,1600A,124.3303,40.0625,丹东市,江湾东路,细颗粒物(PM2.5),103,118,81,77,54,21,,8,8,44,48,21,16,1.9,1.2
2024-11-03T0900,1601A,124.4256,40.1503,丹东市,临江后街,颗粒物(PM10),54,57,72,37,43,26,,27,25,26,34,29,10,0.9,1
2024-11-03T0900,1602A,124.3933,40.1461,丹东市,元宝山,"颗粒物(PM10),细颗粒物(PM2.5)",60,70,45,43,29,24,,36,33,50,25,10,7,1.4,0.8
2024-11-03T0900,1603A,124.3633,40.1092,丹东市,民主桥,细颗粒物(PM2.5),118,108,161,89,61,16,,9,9,55,51,17,8,1.8,1.2
2024-11-03T0900,3541A,109.5726,19.5167,儋州市,第一中学子站,,42,42,41,29,25,56,,77,71,10,7,7,6,0.6,0.5
2024-11-03T0900,3542A,109.5567,19.5187,儋州市,东坡学校子站,,42,,18,29,26,57,,83,76,11,7,7,8,0.8,0.7
2024-11-03T0900,2616A,98.5842,24.428,德宏傣族景颇族自治州,德宏州监测站,,49,49,53,28,33,12,,,,18,17,6,9,0.7,0.6
2024-11-03T0900,3677A,98.5881,24.4368,德宏傣族景颇族自治州,芒市人民政府综合楼,,45,45,47,26,29,8,,22,18,17,13,5,7,0.9,0.7
2024-11-03T0900,1901A,104.4239,31.1208,德阳市,东山公园,,26,26,39,15,18,65,,68,68,15,16,3,2,0.5,0.5
2024-11-03T0900,1902A,104.3826,31.1317,德阳市,西小区,,39,39,46,21,29,58,,57,57,18,20,2,5,0.7,0.7
2024-11-03T0900,1904A,104.3553,31.1091,德阳市,耐火材料厂,,42,35,39,29,26,52,,54,54,14,18,6,5,0.6,0.5
2024-11-03T0900,3639A,104.4019,31.1244,德阳市,市教育局,,28,28,35,17,20,64,,63,63,16,18,1,3,0.6,0.6
2024-11-03T0900,1622A,116.3032,37.4674,德州市,儿童乐园,细颗粒物(PM2.5),132,139,85,100,58,112,,108,108,26,27,10,9,0.7,0.6
2024-11-03T0900,1624A,116.2991,37.4451,德州市,监理站,细颗粒物(PM2.5),134,139,81,102,60,110,,110,110,26,24,12,10,0.7,0.6
2024-11-03T0900,3066A,116.2721,37.4379,德州市,九衢泉纯净水厂,细颗粒物(PM2.5),110,136,84,83,51,108,,96,96,23,26,7,8,0.7,0.6
2024-11-03T0900,3371A,116.3728,37.4403,德州市,开发区人民医院,细颗粒物(PM2.5),117,144,89,88,56,93,,82,82,26,37,8,8,0.7,0.6
2024-11-03T0900,3372A,116.3572,37.4094,德州市,太阳城中学,细颗粒物(PM2.5),132,144,91,100,62,94,,73,73,33,40,6,6,0.7,0.6
2024-11-03T0900,3511A,116.5652,37.3319,德州市,陵城艺术中心,细颗粒物(PM2.5),138,129,78,105,60,86,,82,82,28,27,13,10,0.9,0.7
2024-11-03T0900,2621A,99.7056,27.8317,迪庆藏族自治州,迪庆州站,,44,44,37,28,24,23,,,,15,16,30,18,0.6,0.6
2024-11-03T0900,3180A,99.7136,27.8094,迪庆藏族自治州,质量技术监督局,,33,33,41,21,23,24,,,,14,21,7,9,0.7,0.8
2024-11-03T0900,2663A,104.6241,35.5734,定西市,东关小学,颗粒物(PM10),75,100,46,42,27,12,,,,36,15,18,12,0.8,0.4
2024-11-03T0900,2664A,104.6194,35.5934,定西市,供电公司,颗粒物(PM10),58,65,41,29,28,7,,16,16,48,20,8,8,0.7,0.4
2024-11-03T0900,1389A,113.7547,23.0494,东莞市,莞城梨川,,,40,37,22,21,53,,50,50,34,26,10,9,,0.7
2024-11-03T0900,1390A,113.7944,23.0128,东莞市,东城石井,,30,30,32,19,19,69,,31,31,21,21,12,8,0.7,0.7
2024-11-03T0900,1391A,113.7383,22.9658,东莞市,南城西平,,35,35,40,19,21,52,,13,13,35,43,9,9,0.7,0.8
2024-11-03T0900,3319A,113.7338,23.0381,东莞市,万江金泰,,37,37,37,23,20,58,,56,56,25,20,9,8,0.6,0.6
2024-11-03T0900,3626A,113.7533,23.0202,东莞市,南城元岭,,42,42,36,23,20,58,,46,46,23,18,11,9,0.7,0.7
2024-11-03T0900,3627A,113.7875,23.0457,东莞市,东城主山,,39,39,36,24,21,66,,47,47,23,24,15,9,0.6,0.6
2024-11-03T0900,1666A,118.6614,37.4309,东营市,市环保局,颗粒物(PM10),73,95,78,51,45,55,,42,42,53,41,10,7,0.8,0.7
2024-11-03T0900,3036A,118.6904,37.4338,东营市,开发区管委会,细颗粒物(PM2.5),85,110,74,63,47,56,,42,42,56,38,12,11,0.5,0.4
2024-11-03T0900,3365A,118.5719,37.565,东营市,垦利区民丰路,细颗粒物(PM2.5),73,92,74,53,43,42,,23,23,70,51,10,7,0.9,0.6
2024-11-03T0900,3498A,118.5055,37.8612,东营市,河口城区,细颗粒物(PM2.5),108,124,77,81,47,43,,26,24,63,32,12,8,1.5,0.8
2024-11-03T0900,3646A,118.4978,37.4623,东营市,胜利站,"颗粒物(PM10),细颗粒物(PM2.5)",73,96,78,53,46,40,,26,26,71,45,15,9,1.3,0.9
2024-11-03T0900,3734A,118.35,37.26,东营市,理想之城,细颗粒物(PM2.5),79,100,92,58,52,32,,17,17,54,47,7,8,0.8,0.8
2024-11-03T0900,1591A,110.0023,39.8129,鄂尔多斯市,综合楼,,48,48,60,7,28,69,,75,75,21,27,8,7,0.3,0.5
2024-11-03T0900,1592A,109.9486,39.8261,鄂尔多斯市,巴音孟克林场办事处,,36,36,54,7,35,63,,64,64,18,27,7,9,0.5,0.8
2024-11-03T0900,1593A,109.7736,39.5986,鄂尔多斯市,康泽苑,,29,29,46,9,28,70,,62,62,7,21,6,7,0.2,0.4
2024-11-03T0900,1594A,109.8119,39.5989,鄂尔多斯市,华泰汽车城,,,,44,,30,,,57,,,25,,7,,0.4
2024-11-03T0900,1595A,109.9734,39.7884,鄂尔多斯市,奥林花园,,39,39,60,12,30,65,,64,64,22,31,5,6,0.5,0.7
2024-11-03T0900,2436A,114.8938,30.3994,鄂州市,市政府,细颗粒物(PM2.5),88,103,97,65,72,45,,44,44,46,49,12,9,0.7,0.8
2024-11-03T0900,2437A,114.8989,30.3714,鄂州市,赵家坝,细颗粒物(PM2.5),92,96,101,68,69,50,,45,42,47,43,15,9,0.7,0.8
2024-11-03T0900,3654A,114.8094,30.4089,鄂州市,精准医疗中心,细颗粒物(PM2.5),117,100,108,88,84,43,,33,33,56,49,20,13,1.0,0.9
2024-11-03T0900,2454A,109.4978,30.2981,恩施土家族苗族自治州,湖北民院,细颗粒物(PM2.5),85,,77,63,61,9,,18,18,18,21,6,6,0.7,0.7
2024-11-03T0900,2455A,109.4707,30.2798,恩施土家族苗族自治州,州电力总公司,"颗粒物(PM10),细颗粒物(PM2.5)",64,77,85,46,62,8,,9,9,23,32,8,8,0.7,0.8
2024-11-03T0900,3549A,109.5061,30.3772,恩施土家族苗族自治州,龙凤新区,,50,48,58,35,45,14,,14,13,15,16,6,6,0.9,0.8
2024-11-03T0900,2499A,108.3411,21.6158,防城港市,沙万,细颗粒物(PM2.5),72,64,51,52,45,96,,104,104,18,14,7,6,0.9,0.7
2024-11-03T0900,2500A,108.3514,21.7731,防城港市,防城档案局,细颗粒物(PM2.5),90,100,69,67,45,85,,90,90,25,20,6,6,0.8,0.7
2024-11-03T0900,2501A,108.3506,21.6414,防城港市,大海花园,细颗粒物(PM2.5),74,65,56,54,42,101,,108,108,15,12,5,5,1.0,0.7
2024-11-03T0900,1371A,113.1294,23.0067,佛山市,湾梁,颗粒物(PM10),51,51,44,30,22,61,,60,60,38,33,13,9,0.8,0.7
2024-11-03T0900,1372A,113.1083,23.0478,佛山市,华材职中,颗粒物(PM10),56,61,54,36,30,59,,45,45,38,43,16,11,0.7,0.6
2024-11-03T0900,1373A,113.144,23.0453,佛山市,南海气象局,,42,42,42,26,23,63,,57,57,30,29,14,10,0.7,0.7
2024-11-03T0900,1374A,113.2881,22.8094,佛山市,顺德苏岗,颗粒物(PM10),56,62,48,29,24,49,,29,29,39,39,10,9,0.7,0.7
2024-11-03T0900,1376A,112.8383,22.8678,佛山市,高明孔堂,细颗粒物(PM2.5),57,48,51,40,31,70,,51,51,23,29,12,9,0.8,0.7
2024-11-03T0900,1377A,112.8836,23.1588,佛山市,三水监测站,细颗粒物(PM2.5),59,66,46,42,33,68,,61,61,26,29,13,10,0.7,0.7
2024-11-03T0900,1378A,112.867,23.185,佛山市,三水云东海,细颗粒物(PM2.5),62,62,40,44,31,60,,42,42,26,31,8,6,0.7,0.7
2024-11-03T0900,3625A,113.2544,22.7642,佛山市,容桂街道办,细颗粒物(PM2.5),52,44,43,36,27,53,,31,31,39,37,9,8,0.7,0.7
2024-11-03T0900,1280A,119.3903,26.0543,福州市,鼓山,,,,14,,6,,,75,,,3,,2,,0.4
2024-11-03T0900,1282A,119.2681,26.0504,福州市,师大,,30,30,20,16,8,91,,89,88,8,7,3,2,0.6,0.4
2024-11-03T0900,1283A,119.2984,26.1028,福州市,五四北路,,27,27,18,18,9,86,,82,82,12,12,1,3,0.6,0.4
2024-11-03T0900,1284A,119.2648,26.0768,福州市,杨桥西路,,29,29,20,20,12,90,,86,86,8,7,1,2,0.7,0.4
2024-11-03T0900,1285A,119.317,26.0746,福州市,紫阳,颗粒物(PM10),60,70,32,25,11,74,,79,77,21,12,3,2,0.7,0.5
2024-11-03T0900,3048A,119.5799,26.0936,福州市,九龙,,40,40,19,21,7,82,,85,84,10,5,3,2,0.2,0.2
2024-11-03T0900,3526A,119.5189,25.9664,福州市,吴航,,29,29,18,19,10,91,,79,78,8,8,2,2,0.3,0.3
2024-11-03T0900,1755A,123.7977,41.8491,抚顺市,望花区,细颗粒物(PM2.5),145,229,172,111,115,13,,9,9,75,52,41,11,1.4,1.1
2024-11-03T0900,1756A,123.9161,41.8822,抚顺市,顺城区,细颗粒物(PM2.5),223,231,156,173,124,11,,10,10,66,51,18,11,1.5,0.9
2024-11-03T0900,1757A,124.0436,41.8611,抚顺市,东洲区,细颗粒物(PM2.5),287,269,142,237,122,12,,9,9,58,37,12,12,1.3,0.8
2024-11-03T0900,1758A,123.9247,41.8642,抚顺市,新抚区,细颗粒物(PM2.5),254,256,169,204,144,11,,12,11,62,48,9,7,1.0,0.7
2024-11-03T0900,1759A,124.0972,41.8961,抚顺市,大伙房水库,细颗粒物(PM2.5),271,268,141,221,118,23,,24,24,55,42,13,12,1.4,0.9
2024-11-03T0900,1760A,123.7086,41.8391,抚顺市,沈抚新城,细颗粒物(PM2.5),158,163,156,120,113,14,,9,9,64,51,25,14,1.2,1
2024-11-03T0900,2376A,116.2127,28.0814,抚州市,桐源党溪,颗粒物(PM10),54,58,42,28,20,54,,29,29,12,10,11,6,1.2,1
2024-11-03T0900,2377A,116.3544,27.9831,抚州市,市站,颗粒物(PM10),52,53,41,30,20,61,,44,44,18,15,16,13,1.1,0.8
2024-11-03T0900,2378A,116.3565,27.963,抚州市,血防站,,48,48,42,24,19,46,,25,25,16,17,11,8,0.9,0.7
2024-11-03T0900,2379A,116.3564,28.0007,抚州市,采茶剧团,颗粒物(PM10),52,53,40,33,22,52,,50,50,13,9,6,5,0.9,0.8
2024-11-03T0900,2380A,116.385,27.9647,抚州市,医学分院,颗粒物(PM10),52,53,47,27,21,41,,,,28,14,10,7,0.8,0.7
2024-11-03T0900,2207A,121.6094,41.998,阜新市,工业园区,,39,32,68,27,36,25,,20,19,22,33,9,24,0.6,0.8
2024-11-03T0900,2208A,121.6697,42.0279,阜新市,长青街,,48,43,64,33,38,23,,29,29,26,32,8,25,0.6,0.7
2024-11-03T0900,2209A,121.6673,42.0705,阜新市,农业园区,颗粒物(PM10),53,56,63,27,34,22,,35,32,25,30,8,24,0.5,0.5
2024-11-03T0900,2210A,121.6717,42.0224,阜新市,东苑,,48,48,68,30,41,27,,31,31,31,40,10,31,0.8,0.7
2024-11-03T0900,2211A,121.6506,42.0498,阜新市,玉龙新城,,45,39,71,31,36,16,,24,24,27,38,9,28,0.4,0.6
2024-11-03T0900,2301A,115.8277,32.8929,阜阳市,市监测站,细颗粒物(PM2.5),159,143,111,121,92,56,,,,48,37,8,7,0.7,0.7
2024-11-03T0900,2303A,115.8554,32.8605,阜阳市,开发区,细颗粒物(PM2.5),150,171,138,115,92,50,,,,59,35,9,8,0.8,0.8
2024-11-03T0900,2875A,115.784,32.8892,阜阳市,阜阳职业技术学院,细颗粒物(PM2.5),135,154,106,103,80,39,,,,53,41,7,7,0.8,0.7
2024-11-03T0900,3468A,115.7901,32.8613,阜阳市,市规划展馆,细颗粒物(PM2.5),143,154,93,109,77,48,,100,90,49,22,8,8,0.8,0.6
2024-11-03T0900,3469A,115.836,32.9183,阜阳市,枣园社区,细颗粒物(PM2.5),148,150,99,113,73,19,,7,7,67,60,9,9,0.9,0.7
2024-11-03T0900,2669A,102.9099,34.9841,甘南藏族自治州,州政府,,35,35,30,14,15,31,,12,12,28,30,1,3,0.7,0.8
2024-11-03T0900,3380A,102.8914,34.9617,甘南藏族自治州,甘肃民族师范学院,,35,31,23,24,17,16,,16,16,40,33,8,7,1.3,0.9
2024-11-03T0900,2570A,101.9603,30.0475,甘孜藏族自治州,水桥子,颗粒物(PM10),51,52,17,18,6,5,,,,16,17,7,6,0.5,0.4
2024-11-03T0900,3065A,101.9533,29.9972,甘孜藏族自治州,州环保局,,24,24,12,3,5,14,,,,20,12,4,3,0.2,0.2
2024-11-03T0900,3414A,115.8347,28.932,赣江新区,桑海产业园,颗粒物(PM10),52,53,65,28,36,29,,20,20,48,46,11,11,0.6,0.7
2024-11-03T0900,2362A,114.9017,25.9149,赣州市,通天岩,,46,32,36,32,32,80,,53,53,10,8,4,2,1.0,1
2024-11-03T0900,2363A,114.9367,25.8664,赣州市,地委,颗粒物(PM10),52,54,47,29,30,94,,75,75,14,12,1,1,0.6,0.6
2024-11-03T0900,2364A,114.9461,25.8481,赣州市,气象台,,46,40,39,32,30,95,,75,75,19,16,14,3,0.8,0.8
2024-11-03T0900,2365A,114.9322,25.8333,赣州市,市图书馆,,44,44,42,26,22,98,,88,88,14,12,11,7,0.5,0.6
2024-11-03T0900,2366A,114.8905,25.8471,赣州市,华坚鞋城,,40,40,42,25,25,100,,95,93,13,12,6,5,0.6,0.6
2024-11-03T0900,3109A,115.0093,25.8613,赣州市,赣县区卫计委,,48,48,45,26,27,65,,42,42,18,19,6,5,0.5,0.5
2024-11-03T0900,2683A,106.2319,36.1417,固原市,马园,颗粒物(PM10),53,55,42,29,24,13,,20,20,41,29,9,6,0.7,0.7
2024-11-03T0900,2684A,106.2792,36.0022,固原市,监测站,,42,42,29,17,24,62,,68,68,21,16,9,6,0.4,0.5
2024-11-03T0900,2685A,106.2375,36.0211,固原市,新区,,42,42,31,18,20,62,,63,63,20,17,6,5,0.5,0.5
2024-11-03T0900,3522A,106.2177,35.9959,固原市,原州区十五小,,38,38,36,18,23,57,,66,66,27,21,9,7,0.5,0.6
2024-11-03T0900,2543A,106.6308,30.5278,广安市,小平旧居,,,,,,,,,,,,,,,,
2024-11-03T0900,2544A,106.6303,30.4576,广安市,市委,细颗粒物(PM2.5),53,53,51,37,32,26,,40,40,23,25,6,4,0.6,0.6
2024-11-03T0900,2545A,106.6271,30.4663,广安市,友谊中学,,48,48,43,33,30,19,,33,33,29,24,3,2,0.7,0.6
2024-11-03T0900,2547A,106.6388,30.4551,广安市,广电花园,,43,43,45,30,29,33,,38,38,18,24,3,4,0.5,0.5
2024-11-03T0900,2902A,106.6351,30.4865,广安市,北辰小学,颗粒物(PM10),53,56,45,29,30,13,,45,45,38,17,4,4,0.7,0.6
2024-11-03T0900,2523A,105.8945,32.4535,广元市,黑石坡,,33,26,22,23,14,0,,5,3,18,14,5,4,0.5,0.5
2024-11-03T0900,2524A,105.821,32.4444,广元市,老城,,42,42,31,22,14,4,,4,4,31,29,4,3,1.0,0.9
2024-11-03T0900,2526A,105.8628,32.4287,广元市,监测站,,38,38,28,22,13,6,,,,27,23,2,2,0.9,0.7
2024-11-03T0900,3617A,105.8047,32.4166,广元市,经开区,颗粒物(PM10),55,60,35,31,18,3,,4,4,25,28,5,4,0.9,0.7
2024-11-03T0900,1345A,113.2347,23.1423,广州市,广雅中学,颗粒物(PM10),57,64,59,31,31,66,,42,42,35,45,11,9,0.9,0.9
2024-11-03T0900,1346A,113.2612,23.105,广州市,市五中,,43,35,37,30,32,81,,59,59,26,31,8,7,0.8,0.9
2024-11-03T0900,1348A,113.3478,23.0916,广州市,广东商学院,,37,37,41,24,27,75,,71,71,25,26,9,8,0.6,0.6
2024-11-03T0900,1349A,113.4332,23.1047,广州市,市八十六中,,,,42,,16,,,64,,,14,,4,,0.5
2024-11-03T0900,1350A,113.3505,22.9483,广州市,番禺中学,,43,43,45,26,25,80,,62,62,24,30,8,7,0.6,0.7
2024-11-03T0900,1351A,113.2146,23.3916,广州市,花都师范,,46,46,46,30,27,79,,80,79,22,21,15,10,0.8,0.7
2024-11-03T0900,1352A,113.2597,23.1331,广州市,市监测站,颗粒物(PM10),51,52,53,30,29,65,,39,39,27,39,9,7,0.6,0.6
2024-11-03T0900,1353A,113.5618,23.312,广州市,九龙镇镇龙,,40,40,49,23,30,75,,58,58,18,24,6,6,0.6,0.6
2024-11-03T0900,1354A,113.2765,23.1544,广州市,麓湖,,41,41,44,27,29,72,,37,37,25,41,7,5,0.7,0.7
2024-11-03T0900,1355A,113.443,23.3035,广州市,帽峰山森林公园,,28,22,27,19,18,80,,72,72,14,14,9,8,0.6,0.6
2024-11-03T0900,2846A,113.3221,23.1322,广州市,体育西,,39,39,47,22,29,74,,57,57,17,23,8,7,0.7,0.8
2024-11-03T0900,3298A,113.5717,23.5491,广州市,从化街口,,37,37,45,23,29,91,,67,67,14,24,10,9,0.5,0.6
2024-11-03T0900,3299A,113.3472,23.3692,广州市,白云竹料,,50,50,52,28,30,84,,71,71,16,23,10,8,0.7,0.7
2024-11-03T0900,3300A,113.2981,23.237,广州市,白云嘉禾,颗粒物(PM10),51,51,58,27,31,70,,47,47,37,42,10,8,0.7,0.7
2024-11-03T0900,3301A,113.4256,23.1716,广州市,黄埔科学城,,38,38,40,24,25,61,,53,53,25,23,8,8,0.7,0.7
2024-11-03T0900,3302A,113.3942,23.0483,广州市,番禺大学城,,39,39,35,22,24,66,,44,44,27,33,7,9,0.6,0.4
2024-11-03T0900,3303A,113.4922,22.8168,广州市,南沙黄阁,颗粒物(PM10),53,55,51,32,29,43,,18,18,51,47,13,9,0.8,0.7
2024-11-03T0900,3304A,113.5342,22.7896,广州市,南沙街,,49,49,46,25,24,40,,30,30,44,39,10,10,0.7,0.7
2024-11-03T0900,3443A,113.2902,23.5544,广州市,花都梯面,,43,40,40,30,29,75,,67,66,14,14,19,11,0.8,0.7
2024-11-03T0900,3445A,113.7858,23.7478,广州市,从化良口,,29,27,24,20,18,84,,63,63,11,9,7,6,0.7,0.7
2024-11-03T0900,3446A,113.8051,23.2614,广州市,增城荔城,,28,26,30,19,19,81,,84,84,14,14,9,7,0.6,0.6
2024-11-03T0900,2505A,109.568,23.1478,贵港市,德智高中,,,,,,,,,,,,,,,,
2024-11-03T0900,2506A,109.6047,23.0666,贵港市,江南子站,细颗粒物(PM2.5),100,122,77,75,55,54,,83,83,31,17,12,12,1.0,0.9
2024-11-03T0900,2507A,109.6014,23.0948,贵港市,贵城子站,细颗粒物(PM2.5),82,91,70,60,55,58,,82,82,26,14,10,11,0.9,0.8
2024-11-03T0900,2508A,109.5669,23.1065,贵港市,荷城子站,颗粒物(PM10),64,78,68,44,44,68,,,,22,16,11,13,0.7,0.6
2024-11-03T0900,3405A,109.5886,23.1172,贵港市,新世纪学校,细颗粒物(PM2.5),67,80,73,48,46,63,,86,82,21,14,9,11,0.9,0.8
2024-11-03T0900,1439A,106.6899,26.5998,贵阳市,马鞍山,,35,34,26,24,17,27,,17,17,15,12,4,4,0.9,0.8
2024-11-03T0900,1440A,106.6971,26.5694,贵阳市,市环保站,细颗粒物(PM2.5),63,66,39,45,30,50,,65,63,33,17,6,5,0.5,0.4
2024-11-03T0900,1441A,106.6243,26.6266,贵阳市,鉴湖路,颗粒物(PM10),53,56,34,36,23,48,,61,60,26,11,5,5,0.6,0.5
2024-11-03T0900,1442A,106.7487,26.6343,贵阳市,燕子冲,细颗粒物(PM2.5),58,41,28,41,28,60,,37,37,14,11,7,6,0.5,0.5
2024-11-03T0900,1443A,106.6555,26.4365,贵阳市,碧云窝,颗粒物(PM10),56,61,41,36,22,29,,17,17,22,18,6,6,0.6,0.6
2024-11-03T0900,1444A,106.694,26.5161,贵阳市,中院村,颗粒物(PM10),58,66,41,39,28,29,,36,32,46,23,6,6,0.7,0.6
2024-11-03T0900,1445A,106.7109,26.6027,贵阳市,红边门,细颗粒物(PM2.5),62,48,35,44,29,58,,53,53,22,18,6,6,1.0,0.9
2024-11-03T0900,1446A,106.7164,26.5699,贵阳市,新华路,细颗粒物(PM2.5),58,51,32,41,26,54,,56,56,20,12,4,5,0.6,0.5
2024-11-03T0900,1447A,106.674,26.5424,贵阳市,太慈桥,,49,46,30,34,20,28,,16,16,21,18,3,4,0.6,0.5
2024-11-03T0900,1552A,106.805,26.3003,贵阳市,桐木岭,,,,43,,27,,,101,,,4,,7,,0.6
2024-11-03T0900,1862A,110.4144,25.3167,桂林市,电子科大尧山校区,细颗粒物(PM2.5),70,71,58,51,40,107,,105,103,13,12,10,10,0.7,0.7
2024-11-03T0900,1863A,110.2819,25.2697,桂林市,监测站,细颗粒物(PM2.5),100,93,71,75,58,108,,114,110,24,18,11,14,0.9,0.9
2024-11-03T0900,1864A,110.3089,25.2708,桂林市,龙隐路小学,细颗粒物(PM2.5),93,88,62,69,58,111,,119,116,19,14,19,18,0.8,0.7
2024-11-03T0900,1865A,110.2869,25.2178,桂林市,八中,细颗粒物(PM2.5),89,91,71,66,50,107,,104,102,19,17,14,14,0.9,0.8
2024-11-03T0900,3403A,110.1764,25.2381,桂林市,创业大厦,细颗粒物(PM2.5),104,100,77,78,59,74,,109,100,30,17,54,16,0.6,0.5
2024-11-03T0900,3531A,110.296,25.1253,桂林市,旅游学院,细颗粒物(PM2.5),89,83,67,66,52,44,,92,83,41,19,20,13,0.6,0.6
2024-11-03T0900,2674A,100.2561,34.4714,果洛藏族自治州,玛沁县大武镇,,25,25,32,16,21,40,,,,11,10,12,18,0.5,0.6
2024-11-03T0900,1129A,126.5422,45.755,哈尔滨市,岭北,颗粒物(PM10),51,51,55,30,44,58,,65,65,28,35,10,13,0.2,0.3
2024-11-03T0900,1130A,126.561,45.8167,哈尔滨市,松北商大,颗粒物(PM10),52,53,55,30,38,26,,26,26,28,45,20,10,0.6,0.7
2024-11-03T0900,1131A,126.979,45.5419,哈尔滨市,阿城会宁,,42,,53,29,37,22,,10,10,30,27,7,8,0.6,0.7
2024-11-03T0900,1132A,126.599,45.7222,哈尔滨市,南岗学府路,,44,44,77,22,45,34,,30,30,33,43,12,13,0.7,0.7
2024-11-03T0900,1133A,126.689,45.7733,哈尔滨市,太平宏伟公园,颗粒物(PM10),64,77,86,43,52,11,,20,20,38,47,8,7,0.6,0.7
2024-11-03T0900,1134A,126.635,45.7667,哈尔滨市,道外承德广场,颗粒物(PM10),59,68,68,41,39,17,,30,30,41,44,16,12,0.6,0.3
2024-11-03T0900,1135A,126.685,45.7319,哈尔滨市,香坊红旗大街,颗粒物(PM10),60,70,86,38,57,20,,28,28,42,48,14,16,0.9,0.9
2024-11-03T0900,1136A,126.6411,45.7258,哈尔滨市,动力和平路,,42,42,62,24,47,27,,29,29,34,42,11,14,0.8,0.7
2024-11-03T0900,1137A,126.593,45.7478,哈尔滨市,道里建国路,,42,37,62,29,46,19,,35,35,41,42,17,23,0.1,0.7
2024-11-03T0900,1138A,126.615,45.61,哈尔滨市,平房东轻厂,,48,33,65,33,53,21,,29,29,38,30,10,7,0.5,0.5
2024-11-03T0900,1139A,126.595,45.9855,哈尔滨市,呼兰师专,细颗粒物(PM2.5),100,79,69,75,56,14,,21,21,36,44,8,9,0.7,0.7
2024-11-03T0900,1140A,126.6206,45.6842,哈尔滨市,省农科院,,32,28,99,22,53,28,,24,24,34,45,12,14,0.8,0.8
2024-11-03T0900,2688A,93.5128,42.8172,哈密市,地区监测站,,44,44,65,11,30,56,,,,18,28,3,9,0.2,0.5
2024-11-03T0900,2689A,93.4961,42.8328,哈密市,哈密师范学校,,41,41,58,22,30,56,,69,69,23,31,4,8,0.2,0.5
2024-11-03T0900,2671A,100.9048,36.9639,海北藏族自治州,海晏县西海镇,,16,16,11,11,11,32,,49,46,16,7,7,6,0.3,0.3
2024-11-03T0900,3867A,102.0738,36.5056,海东市,平安区公安北苑,细颗粒物(PM2.5),70,61,59,51,24,25,,30,30,32,31,9,16,0.7,0.8
2024-11-03T0900,1409A,110.576,19.9507,海口市,东寨港,,,,,,,,,,,,,,,,
2024-11-03T0900,1410A,110.3232,20.0574,海口市,海南大学,,42,42,37,22,23,78,,88,86,12,10,5,6,0.5,0.5
2024-11-03T0900,1411A,110.283,20.0053,海口市,秀英海南医院,,33,33,36,22,24,77,,88,86,12,10,7,7,0.5,0.5
2024-11-03T0900,1412A,110.338,19.9969,海口市,海南师范大学,,37,37,38,24,23,76,,89,86,13,10,8,9,0.6,0.5
2024-11-03T0900,1413A,110.33,20.0356,海口市,龙华路环保局宿舍,,35,34,37,24,24,76,,87,84,12,10,6,6,0.4,0.5
2024-11-03T0900,3539A,110.5111,19.9736,海口市,桂林洋子站,,29,29,37,16,23,82,,89,86,9,9,6,7,0.4,0.4
2024-11-03T0900,2673A,100.6188,36.2866,海南藏族自治州,共和县恰卜恰镇,颗粒物(PM10),76,101,28,13,8,7,,39,32,50,17,10,10,0.9,0.4
2024-11-03T0900,2676A,97.3731,37.3753,海西蒙古族藏族自治州,德令哈市,,26,26,24,18,10,54,,65,65,18,8,10,9,0.5,0.5
2024-11-03T0900,1048A,114.5302,36.6116,邯郸市,东污水处理厂,细颗粒物(PM2.5),138,136,81,105,67,45,,51,48,36,28,4,4,0.8,0.8
2024-11-03T0900,1049A,114.4918,36.5713,邯郸市,矿院,细颗粒物(PM2.5),140,122,95,107,70,35,,40,38,28,23,5,5,1.0,1
2024-11-03T0900,1050A,114.484,36.6133,邯郸市,丛台公园,细颗粒物(PM2.5),129,107,81,98,71,40,,46,44,32,23,10,8,1.1,0.7
2024-11-03T0900,3458A,114.7895,36.5593,邯郸市,香泉濮院小区,细颗粒物(PM2.5),120,116,83,91,58,62,,79,77,16,11,5,6,0.4,0.5
2024-11-03T0900,3579A,114.50634,36.77178,邯郸市,永年区实验高中,细颗粒物(PM2.5),127,143,101,96,68,33,,43,40,33,20,9,8,1.4,0.9
2024-11-03T0900,3580A,114.20016,36.44293,邯郸市,峰峰矿区临水派出所,,25,25,43,16,40,65,,64,64,8,12,5,7,0.6,0.7
2024-11-03T0900,2634A,106.9893,33.1842,汉中市,汉川机床厂子校,,36,36,29,17,17,20,,17,16,21,14,6,5,0.6,0.5
2024-11-03T0900,2635A,107.0154,33.0706,汉中市,市监测站,,39,39,34,19,20,9,,11,11,19,15,10,9,0.7,0.7
2024-11-03T0900,2636A,107.0089,33.1138,汉中市,鑫源开发区,,42,42,39,21,22,10,,6,6,21,25,11,10,0.8,0.8
2024-11-03T0900,2637A,107.007,33.0323,汉中市,南郑大河坎水厂,,33,33,30,17,19,11,,12,12,15,17,9,8,0.7,0.6
2024-11-03T0900,1223A,120.2072,30.2111,杭州市,滨江,颗粒物(PM10),51,51,52,28,28,22,,8,8,36,42,6,6,0.8,0.7
2024-11-03T0900,1224A,120.0633,30.2747,杭州市,西溪,,33,33,30,22,22,22,,6,6,34,30,5,5,0.6,0.6
2024-11-03T0900,1226A,120.3461,30.3153,杭州市,下沙,颗粒物(PM10),55,60,61,33,30,26,,12,12,51,56,7,7,0.8,0.8
2024-11-03T0900,1227A,120.1269,30.2456,杭州市,卧龙桥,,49,34,29,34,22,42,,18,18,18,16,6,6,0.6,0.6
2024-11-03T0900,1228A,120.1903,30.2692,杭州市,浙江农大,颗粒物(PM10),55,59,57,36,35,19,,6,6,39,45,4,4,0.8,0.8
2024-11-03T0900,1230A,120.1197,30.3119,杭州市,和睦小学,,39,39,42,27,22,21,,9,9,39,42,7,7,0.6,0.6
2024-11-03T0900,1231A,120.3019,30.4183,杭州市,临平镇,细颗粒物(PM2.5),58,60,56,41,34,22,,19,11,59,42,6,6,0.7,0.7
2024-11-03T0900,1232A,120.2697,30.1819,杭州市,城厢镇,颗粒物(PM10),52,53,40,35,28,27,,14,14,36,37,5,5,0.7,0.7
2024-11-03T0900,1233A,120.0883,30.1808,杭州市,云栖,,36,36,30,16,15,14,,15,15,44,21,8,7,0.7,0.6
2024-11-03T0900,3557A,119.9464,30.0494,杭州市,镇二中,细颗粒物(PM2.5),58,44,38,41,14,16,,12,12,26,26,6,6,0.9,0.9
2024-11-03T0900,3558A,119.7183,30.2367,杭州市,市府大楼,,33,31,33,23,21,21,,19,18,35,28,7,6,0.7,0.6
2024-11-03T0900,3656A,120.1556,30.2864,杭州市,消防大队,细颗粒物(PM2.5),53,50,44,37,29,36,,14,14,33,41,8,7,0.4,0.4
2024-11-03T0900,1270A,117.1959,31.7848,合肥市,明珠广场,细颗粒物(PM2.5),100,102,111,75,74,11,,6,6,70,64,8,8,0.8,0.7
2024-11-03T0900,1271A,117.3072,31.8764,合肥市,三里街,细颗粒物(PM2.5),110,153,109,83,62,2,,2,2,93,68,8,6,1.6,1.1
2024-11-03T0900,1272A,117.2588,31.8707,合肥市,琥珀山庄,细颗粒物(PM2.5),89,95,84,66,52,9,,5,5,67,51,10,9,1.5,1.1
2024-11-03T0900,1273A,117.1604,31.9052,合肥市,董铺水库,颗粒物(PM10),52,53,67,31,37,10,,8,8,41,39,4,4,0.4,0.4
2024-11-03T0900,1274A,117.25,31.8571,合肥市,长江中路,细颗粒物(PM2.5),97,122,105,72,71,4,,1,1,73,56,9,9,1.3,1
2024-11-03T0900,1275A,117.266,31.9436,合肥市,庐阳区,细颗粒物(PM2.5),100,132,94,75,51,13,,8,6,100,65,7,5,1.2,0.9
2024-11-03T0900,1276A,117.336,31.8586,合肥市,瑶海区,细颗粒物(PM2.5),125,173,113,95,68,7,,4,4,109,76,8,6,1.2,0.8
2024-11-03T0900,1277A,117.3027,31.7964,合肥市,包河区,细颗粒物(PM2.5),125,136,111,95,73,6,,3,3,92,76,10,8,1.1,0.9
2024-11-03T0900,1278A,117.2776,31.7385,合肥市,滨湖新区,细颗粒物(PM2.5),85,112,123,63,68,4,,1,1,78,75,10,8,0.8,0.7
2024-11-03T0900,1279A,117.1318,31.8403,合肥市,高新区,细颗粒物(PM2.5),83,80,84,61,61,34,,11,11,55,53,1,2,0.9,0.9
2024-11-03T0900,3464A,117.3803,31.9147,合肥市,高教基地,细颗粒物(PM2.5),98,106,65,73,35,17,,4,4,73,49,6,6,0.7,0.5
2024-11-03T0900,3614A,79.924,37.0877,和田地区,地区环保局,颗粒物(PM10),129,208,205,30,53,44,,58,58,24,22,5,8,0.7,0.8
2024-11-03T0900,3615A,79.9131,37.113,和田地区,市环保局,颗粒物(PM10),115,180,177,59,61,11,,5,4,60,46,9,8,1.1,1.6
2024-11-03T0900,2516A,108.2011,24.715,河池市,东仁乐园,,44,44,42,28,28,24,,31,28,17,12,5,5,0.7,0.6
2024-11-03T0900,2517A,108.0497,24.6947,河池市,市环保站,细颗粒物(PM2.5),55,56,42,39,29,27,,33,33,25,21,50,13,0.6,0.5
2024-11-03T0900,2518A,108.0983,24.6989,河池市,市疾控中心,细颗粒物(PM2.5),58,64,55,41,34,14,,11,11,32,33,15,9,0.6,0.5
2024-11-03T0900,1696A,114.6778,23.7569,河源市,源西,,26,23,26,18,15,79,,78,77,15,13,7,6,0.5,0.5
2024-11-03T0900,1697A,114.6944,23.7586,河源市,东埔,,41,41,25,22,20,79,,86,84,20,12,5,5,0.7,0.7
2024-11-03T0900,1698A,114.6892,23.7233,河源市,老城,,31,31,32,19,21,80,,82,81,13,11,6,4,0.6,0.6
2024-11-03T0900,1718A,115.4208,35.2464,菏泽市,气象局,细颗粒物(PM2.5),172,176,115,130,82,107,,129,124,30,22,6,5,0.7,0.5
2024-11-03T0900,1719A,115.4747,35.2375,菏泽市,市政协,细颗粒物(PM2.5),148,161,110,113,76,112,,132,130,31,27,7,7,0.6,0.5
2024-11-03T0900,3374A,115.5564,35.0891,菏泽市,定陶老年大学,细颗粒物(PM2.5),140,149,119,107,84,98,,91,91,34,30,8,8,0.6,0.4
2024-11-03T0900,3647A,115.4702,35.2706,菏泽市,菏泽医专,细颗粒物(PM2.5),134,151,102,102,68,124,,144,142,32,27,6,8,0.8,0.6
2024-11-03T0900,2514A,111.5264,24.4172,贺州市,环保小区,细颗粒物(PM2.5),82,88,74,60,51,93,,85,85,15,15,8,8,1.0,0.9
2024-11-03T0900,2515A,111.5608,24.4078,贺州市,政协大楼,细颗粒物(PM2.5),82,87,71,60,50,92,,85,85,14,13,10,7,0.8,0.8
2024-11-03T0900,3534A,111.4744,24.4553,贺州市,西湾,细颗粒物(PM2.5),77,71,71,56,54,88,,82,82,14,14,7,6,0.7,0.7
2024-11-03T0900,2385A,114.17,35.9019,鹤壁市,市监测站,细颗粒物(PM2.5),89,97,82,66,61,9,,12,11,38,24,2,4,1.3,0.9
2024-11-03T0900,2386A,114.2956,35.7511,鹤壁市,市交警支队,细颗粒物(PM2.5),115,137,105,87,72,29,,61,53,53,40,6,5,0.7,0.6
2024-11-03T0900,2387A,114.2878,35.7306,鹤壁市,迎宾馆,细颗粒物(PM2.5),112,126,118,84,76,37,,63,55,42,34,9,6,1.0,0.9
2024-11-03T0900,3474A,114.2617,35.6822,鹤壁市,大新区,细颗粒物(PM2.5),123,113,84,93,90,36,,33,32,35,41,10,5,1.0,0.8
2024-11-03T0900,3596A,114.1572,35.9603,鹤壁市,南山宾馆,细颗粒物(PM2.5),88,80,76,65,67,44,,63,60,20,15,9,4,0.5,0.6
2024-11-03T0900,2244A,130.2537,47.3416,鹤岗市,哈啤分公司,,39,39,20,27,18,14,,28,28,27,8,14,11,0.8,0.4
2024-11-03T0900,2245A,130.2684,47.3086,鹤岗市,斯达机电,,49,49,26,31,19,23,,33,33,29,13,19,13,0.5,0.3
2024-11-03T0900,2246A,130.3114,47.3388,鹤岗市,东山纸板厂,,38,38,28,21,18,17,,8,8,32,19,24,17,1.1,0.8
2024-11-03T0900,2247A,130.1097,47.3382,鹤岗市,五号水库,,11,6,8,3,8,34,,36,35,6,5,9,7,0.4,0.4
2024-11-03T0900,2263A,127.4833,50.2524,黑河市,交通局,,19,,21,13,16,36,,27,27,9,16,7,7,0.4,0.4
2024-11-03T0900,2264A,127.5144,50.2341,黑河市,环保局,,15,11,23,10,15,38,,25,25,8,17,4,7,0.3,0.3
2024-11-03T0900,2265A,127.5291,50.2472,黑河市,大黑河岛,,18,12,20,12,19,26,,19,19,9,17,1,2,0.6,0.6
2024-11-03T0900,1074A,115.6838,37.7541,衡水市,电机北厂,细颗粒物(PM2.5),130,120,71,99,56,82,,101,98,20,17,7,8,0.5,0.3
2024-11-03T0900,1075A,115.6303,37.7316,衡水市,市监测站,细颗粒物(PM2.5),104,112,70,78,53,74,,80,80,27,28,3,4,0.5,0.4
2024-11-03T0900,3188A,115.6683,37.7217,衡水市,市城管局,细颗粒物(PM2.5),113,111,67,85,52,67,,84,80,28,23,4,2,0.5,0.4
2024-11-03T0900,3459A,115.5989,37.5491,衡水市,地表水厂,细颗粒物(PM2.5),125,110,65,95,56,69,,58,58,22,35,5,4,0.5,0.4
2024-11-03T0900,2456A,112.5003,26.9167,衡阳市,原169医院,细颗粒物(PM2.5),74,85,81,54,53,41,,43,43,18,21,10,9,0.7,0.7
2024-11-03T0900,2457A,112.6194,26.9258,衡阳市,衡阳化工总厂,细颗粒物(PM2.5),128,,95,97,92,67,,42,37,21,22,10,11,0.8,0.9
2024-11-03T0900,2458A,112.6211,26.8956,衡阳市,珠晖区环保局,细颗粒物(PM2.5),119,96,97,90,95,57,,43,43,39,39,11,10,1.0,1
2024-11-03T0900,2459A,112.6197,26.8733,衡阳市,市委党校,细颗粒物(PM2.5),93,117,101,69,64,49,,82,71,36,24,15,15,1.7,1.2
2024-11-03T0900,2460A,112.6006,26.8919,衡阳市,市监测站,细颗粒物(PM2.5),90,100,106,67,75,72,,62,62,25,28,11,11,0.9,1
2024-11-03T0900,2461A,112.5664,26.9056,衡阳市,真空机电公司,细颗粒物(PM2.5),110,,88,83,93,66,,44,44,24,26,8,8,0.9,1
2024-11-03T0900,3399A,112.6703,26.882,衡阳市,师范学院,细颗粒物(PM2.5),89,81,103,66,72,37,,65,56,32,23,11,12,0.9,1
2024-11-03T0900,2608A,103.3772,23.3993,红河哈尼族彝族自治州,污水处理厂,细颗粒物(PM2.5),65,61,42,47,34,32,,42,42,21,14,127,28,0.8,0.6
2024-11-03T0900,2609A,103.3861,23.35,红河哈尼族彝族自治州,监测站,颗粒物(PM10),74,97,51,51,37,22,,,,33,16,166,18,0.9,0.6
2024-11-03T0900,3038A,103.3758,23.368,红河哈尼族彝族自治州,州图书馆,细颗粒物(PM2.5),67,71,43,48,33,27,,42,42,14,10,171,24,0.7,0.5
2024-11-03T0900,1090A,111.6507,40.7517,呼和浩特市,呼市一监,,27,7,69,3,57,84,,56,56,14,39,8,9,0.4,0.8
2024-11-03T0900,1091A,111.6572,40.8033,呼和浩特市,小召,,23,14,70,3,53,72,,57,57,22,37,8,8,0.3,0.7
2024-11-03T0900,1094A,111.7516,40.8369,呼和浩特市,如意水处理厂,,21,6,72,3,54,65,,51,51,23,37,3,3,0.3,0.7
2024-11-03T0900,1095A,111.7276,40.8062,呼和浩特市,二十九中,,22,7,76,3,58,69,,58,58,20,29,5,6,0.4,0.8
2024-11-03T0900,1096A,111.5512,40.7866,呼和浩特市,工大金川校区,,25,6,79,3,58,79,,48,48,14,44,4,5,0.3,0.8
2024-11-03T0900,1097A,111.717,40.7612,呼和浩特市,化肥厂生活区,,21,6,69,3,55,66,,61,61,24,32,8,8,0.3,0.6
2024-11-03T0900,3698A,111.5968,40.8178,呼和浩特市,红旗小学,,22,12,75,3,58,69,,52,52,20,45,3,6,0.3,0.8
2024-11-03T0900,3699A,111.6518,40.8389,呼和浩特市,海东办,,20,14,70,3,56,61,,50,50,26,41,7,8,0.4,0.8
2024-11-03T0900,2192A,119.7594,49.2261,呼伦贝尔市,区环保局,,23,21,18,16,16,22,,40,37,32,11,5,6,0.5,0.4
2024-11-03T0900,3061A,119.7512,49.1577,呼伦贝尔市,国华电力东,,19,15,18,13,14,39,,42,41,15,6,3,4,0.4,0.3
2024-11-03T0900,1250A,120.0751,30.8669,湖州市,城西水厂,颗粒物(PM10),55,59,60,38,37,15,,13,13,59,59,11,7,0.7,0.7
2024-11-03T0900,2873A,120.0875,30.8955,湖州市,仁皇山新区,颗粒物(PM10),53,56,50,32,29,14,,23,15,58,40,7,6,1.0,0.9
2024-11-03T0900,2907A,120.1844,30.8596,湖州市,吴兴区站,细颗粒物(PM2.5),60,56,59,43,38,11,,18,14,51,40,8,7,0.9,0.8
2024-11-03T0900,3562A,120.4148,30.8538,湖州市,南浔区站,细颗粒物(PM2.5),79,72,59,58,37,32,,29,29,50,37,6,5,1.0,0.6
2024-11-03T0900,1607A,120.9092,40.7136,葫芦岛市,龙港区,细颗粒物(PM2.5),113,,46,85,42,55,,49,49,16,22,16,26,0.9,0.8
2024-11-03T0900,1608A,120.8392,40.7514,葫芦岛市,化工街,细颗粒物(PM2.5),73,90,66,53,31,42,,13,13,48,49,15,13,1.0,0.5
2024-11-03T0900,1609A,120.8341,40.7073,葫芦岛市,新区,细颗粒物(PM2.5),110,,50,83,40,40,,28,28,36,43,12,15,1.0,0.7
2024-11-03T0900,1610A,120.8695,40.7677,葫芦岛市,东城区,细颗粒物(PM2.5),112,,61,84,44,34,,10,10,52,52,17,18,1.2,0.9
2024-11-03T0900,2482A,109.5981,27.5721,怀化市,林科所,细颗粒物(PM2.5),67,56,55,48,47,55,,67,63,22,15,42,23,1.4,1.1
2024-11-03T0900,2483A,109.9453,27.5444,怀化市,河西地税局,细颗粒物(PM2.5),77,65,71,56,56,26,,27,26,21,19,11,12,0.6,0.6
2024-11-03T0900,2484A,109.9781,27.5342,怀化市,市四医院,细颗粒物(PM2.5),84,74,75,62,54,45,,48,48,24,20,21,14,0.8,0.7
2024-11-03T0900,2485A,109.9972,27.5578,怀化市,监测楼,颗粒物(PM10),58,65,82,40,47,38,,20,20,21,23,13,9,0.7,0.6
2024-11-03T0900,2486A,110.0394,27.583,怀化市,市委党校,细颗粒物(PM2.5),77,99,81,56,50,12,,10,10,35,30,26,20,0.8,0.7
2024-11-03T0900,1210A,119.036,33.5981,淮安市,钵池山,细颗粒物(PM2.5),132,107,96,100,76,94,,82,82,33,39,6,6,1.2,1
2024-11-03T0900,1211A,119.007,33.575,淮安市,北京南路,细颗粒物(PM2.5),139,141,134,106,85,105,,31,31,35,51,8,8,0.8,0.8
2024-11-03T0900,1212A,118.989,33.6067,淮安市,市监测站,细颗粒物(PM2.5),119,105,100,90,88,84,,27,27,45,48,9,9,1.3,1.1
2024-11-03T0900,1213A,119.135,33.5039,淮安市,楚州区监测站,细颗粒物(PM2.5),140,,112,107,93,100,,58,58,33,45,8,8,0.9,0.9
2024-11-03T0900,1214A,119.0186,33.6297,淮安市,淮阴区监测站,细颗粒物(PM2.5),153,139,122,117,85,52,,52,52,64,56,10,11,1.3,0.9
2024-11-03T0900,3426A,118.8755,33.2894,淮安市,新华书店,细颗粒物(PM2.5),138,160,121,105,89,55,,57,56,40,41,9,8,0.9,0.9
2024-11-03T0900,2282A,116.8004,33.975,淮北市,监测站,细颗粒物(PM2.5),139,119,81,106,54,69,,84,84,32,22,9,4,0.8,0.6
2024-11-03T0900,2283A,116.8091,33.9007,淮北市,烈山区政府,细颗粒物(PM2.5),199,179,84,149,67,47,,,,59,29,11,4,0.6,0.4
2024-11-03T0900,3330A,116.8873,33.9836,淮北市,杜集区检察院,细颗粒物(PM2.5),120,113,92,91,65,53,,60,60,28,23,5,4,0.7,0.5
2024-11-03T0900,4017A,116.7923,33.9535,淮北市,市博物馆,细颗粒物(PM2.5),149,118,88,114,57,70,,87,87,37,34,12,6,1.0,1
2024-11-03T0900,2277A,116.8305,32.7727,淮南市,潘集区政府,细颗粒物(PM2.5),147,174,123,112,88,33,,,,62,46,15,11,0.5,0.3
2024-11-03T0900,2278A,117.0067,32.6524,淮南市,师范学院,细颗粒物(PM2.5),118,137,113,89,74,27,,,,59,48,12,11,0.8,0.7
2024-11-03T0900,2279A,116.8569,32.5951,淮南市,谢家集区政府,细颗粒物(PM2.5),104,112,81,78,59,77,,,,33,24,10,11,0.6,0.6
2024-11-03T0900,2280A,116.8281,32.633,淮南市,八公山区政府,细颗粒物(PM2.5),94,96,87,70,59,98,,88,88,24,18,10,9,0.5,0.5
2024-11-03T0900,2281A,116.6325,32.6201,淮南市,焦岗湖风景区管理处,细颗粒物(PM2.5),73,73,98,53,63,14,,7,7,68,65,4,5,0.3,0.3
2024-11-03T0900,2894A,117.0566,32.6531,淮南市,经济技术开发区消防队,细颗粒物(PM2.5),124,144,101,94,70,26,,29,29,57,40,8,7,0.6,0.6
2024-11-03T0900,3329A,117.0108,32.5893,淮南市,山南新区,细颗粒物(PM2.5),109,108,79,82,59,68,,79,77,33,27,4,4,0.7,0.6
2024-11-03T0900,2446A,114.9028,30.4742,黄冈市,职工中心,细颗粒物(PM2.5),82,78,100,60,72,66,,56,56,23,29,9,12,0.7,0.7
2024-11-03T0900,2929A,114.8858,30.4519,黄冈市,红卫路,细颗粒物(PM2.5),82,80,98,60,72,64,,49,49,25,41,7,11,0.7,0.8
2024-11-03T0900,3398A,114.9136,30.4445,黄冈市,市林业局,细颗粒物(PM2.5),90,102,118,67,72,61,,62,62,29,40,9,13,0.6,0.7
2024-11-03T0900,2672A,102.0199,35.5102,黄南藏族自治州,同仁县隆务镇,,45,39,39,31,17,48,,48,48,2,8,9,9,0.6,0.5
2024-11-03T0900,2295A,118.2903,29.6963,黄山市,延安路89号,,29,29,30,13,11,11,,8,8,12,9,6,7,0.3,0.3
2024-11-03T0900,2296A,118.327,29.7178,黄山市,黄山东路89号,,40,35,38,28,16,20,,,,12,12,5,5,0.4,0.4
2024-11-03T0900,2297A,118.1371,30.2756,黄山市,黄山区政府5号楼,,18,,28,12,17,23,,,,8,9,7,7,0.4,0.4
2024-11-03T0900,2423A,115.0601,30.2313,黄石市,沈家营,细颗粒物(PM2.5),87,99,97,64,60,42,,34,34,44,40,31,17,0.6,0.9
2024-11-03T0900,2424A,115.0817,30.2006,黄石市,陈家湾,细颗粒物(PM2.5),107,99,88,80,66,36,,30,30,41,34,12,16,0.7,0.8
2024-11-03T0900,2426A,114.8988,30.2019,黄石市,铁山,细颗粒物(PM2.5),129,,79,98,73,43,,,,45,25,10,11,0.6,0.9
2024-11-03T0900,2427A,115.0307,30.2092,黄石市,团城山,细颗粒物(PM2.5),95,98,94,71,61,35,,34,34,42,34,13,12,0.8,0.9
2024-11-03T0900,3149A,115.0235,30.1578,黄石市,笔架山北路,细颗粒物(PM2.5),104,94,77,78,54,51,,46,46,43,34,10,11,0.8,0.9
2024-11-03T0900,1392A,114.4183,23.0528,惠州市,河南岸金山湖子站,,37,37,40,21,20,75,,76,76,13,19,8,7,0.7,0.7
2024-11-03T0900,1393A,114.4053,23.0822,惠州市,下埔横江三路子站,,39,39,36,24,21,74,,75,75,16,18,7,6,0.8,0.8
2024-11-03T0900,1394A,114.4103,23.1142,惠州市,江北云山西路子站,,37,37,35,22,19,81,,82,82,14,17,9,7,0.6,0.6
2024-11-03T0900,1395A,114.4645,22.7833,惠州市,惠阳区承修路船湖子站,颗粒物(PM10),52,54,48,26,22,46,,26,26,22,21,9,8,0.5,0.5
2024-11-03T0900,1396A,114.5317,22.7422,惠州市,大亚湾管委会子站,颗粒物(PM10),51,51,40,28,20,37,,17,17,34,31,11,11,0.7,0.7
2024-11-03T0900,3314A,114.4338,22.8134,惠州市,惠阳秋长,,39,39,33,23,23,66,,40,40,18,23,10,7,0.5,0.6
2024-11-03T0900,3452A,114.6517,22.775,惠州市,大亚湾霞涌,颗粒物(PM10),53,55,36,31,27,33,,27,27,26,16,7,7,0.4,0.6
2024-11-03T0900,2240A,130.9762,45.3001,鸡西市,环保局,颗粒物(PM10),69,87,55,48,33,3,,6,6,44,22,12,8,0.7,0.3
2024-11-03T0900,2243A,130.9429,45.3039,鸡西市,第一中学,颗粒物(PM10),59,68,53,30,31,10,,11,11,34,25,8,8,0.6,0.4
2024-11-03T0900,3707A,131.0207,45.3073,鸡西市,欧美日汽修厂,细颗粒物(PM2.5),88,112,70,65,48,6,,5,5,32,30,14,13,0.7,0.4
2024-11-03T0900,3709A,130.9967,45.3106,鸡西市,市政设施管理处,颗粒物(PM10),73,95,71,51,39,4,,2,2,38,31,11,10,0.8,0.5
2024-11-03T0900,2367A,114.9754,27.0803,吉安市,红声器材厂,颗粒物(PM10),54,57,52,31,29,29,,,,30,26,12,13,0.6,0.5
2024-11-03T0900,2368A,114.9658,27.0999,吉安市,市森林工业局,颗粒物(PM10),53,56,48,35,27,52,,,,30,23,19,17,0.7,0.6
2024-11-03T0900,2369A,114.99,27.1312,吉安市,市环境监测站,,50,50,47,34,28,53,,,,30,25,20,18,0.6,0.6
2024-11-03T0900,2370A,115.0093,27.0968,吉安市,青原区法院,颗粒物(PM10),54,58,46,37,29,46,,39,39,37,28,17,14,0.6,0.5
2024-11-03T0900,1772A,126.54,43.8622,吉林市,哈达湾,,35,35,62,24,48,47,,32,32,20,41,8,10,0.6,0.8
2024-11-03T0900,1773A,126.5844,43.8358,吉林市,东局子,,42,35,53,29,42,53,,36,36,15,37,5,7,0.6,0.7
2024-11-03T0900,1774A,126.5052,43.8245,吉林市,电力学院,,50,,83,35,67,42,,16,16,20,41,6,9,0.7,1
2024-11-03T0900,1775A,126.6133,43.8972,吉林市,江北,细颗粒物(PM2.5),57,54,45,40,38,32,,32,32,39,29,8,9,0.9,0.7
2024-11-03T0900,1776A,126.555,43.8306,吉林市,江南公园,,43,38,67,30,55,43,,34,34,23,41,8,9,0.6,0.8
2024-11-03T0900,1778A,126.7061,43.7133,吉林市,丰满,,36,30,26,25,24,58,,61,60,9,12,8,8,0.8,0.6
2024-11-03T0900,2868A,126.4739,43.953,吉林市,九站,,41,41,80,28,62,38,,22,22,28,40,11,24,0.7,1.2
2024-11-03T0900,1299A,116.9862,36.6114,济南市,科干所,颗粒物(PM10),70,90,55,49,30,132,,138,137,24,23,10,8,0.8,0.7
2024-11-03T0900,1300A,116.9376,36.665,济南市,农科所,颗粒物(PM10),81,112,69,54,31,98,,104,104,30,34,9,7,0.8,0.7
2024-11-03T0900,1301A,117.1265,36.6734,济南市,开发区,颗粒物(PM10),69,88,55,46,33,119,,119,119,33,33,6,5,0.7,0.6
2024-11-03T0900,1303A,117.0624,36.6868,济南市,省种子仓库,细颗粒物(PM2.5),85,95,68,63,36,117,,105,105,26,38,6,3,0.6,0.6
2024-11-03T0900,1304A,116.9489,36.6447,济南市,机床二厂,颗粒物(PM10),83,115,68,54,33,109,,118,118,34,35,8,5,0.6,0.5
2024-11-03T0900,1305A,117.0495,36.663,济南市,市监测站,细颗粒物(PM2.5),89,100,62,66,37,127,,117,117,28,41,8,5,0.8,0.8
2024-11-03T0900,1306A,116.7675,36.5484,济南市,长清党校,细颗粒物(PM2.5),95,110,68,71,44,130,,130,129,26,25,11,8,0.9,0.7
2024-11-03T0900,1616A,117.6795,36.229,济南市,技术学院,细颗粒物(PM2.5),94,102,59,70,38,55,,41,41,59,53,13,9,1.8,1.1
2024-11-03T0900,1961A,117.532,36.6868,济南市,东山小学,"颗粒物(PM10),细颗粒物(PM2.5)",68,85,65,49,33,96,,103,103,30,31,14,9,1.0,0.8
2024-11-03T0900,3059A,117.7161,36.2049,济南市,泰兴公司,细颗粒物(PM2.5),94,119,66,70,37,26,,14,14,85,67,15,10,1.6,0.8
2024-11-03T0900,3064A,117.6867,36.2171,济南市,莱芜战役纪念馆,细颗粒物(PM2.5),98,124,75,73,37,40,,28,28,75,57,11,9,1.7,1
2024-11-03T0900,3494A,117.1673,36.9782,济南市,济阳区政府,细颗粒物(PM2.5),74,95,68,54,37,99,,60,60,38,44,8,7,0.5,0.5
2024-11-03T0900,3495A,117.1171,36.63,济南市,锦屏中学,细颗粒物(PM2.5),68,61,39,49,27,138,,137,137,27,28,8,6,0.6,0.5
2024-11-03T0900,3682A,116.9814,36.6819,济南市,济南四建,细颗粒物(PM2.5),74,80,58,54,35,111,,117,117,26,38,6,3,0.9,0.8
2024-11-03T0900,1653A,116.6251,35.4302,济宁市,火炬城,细颗粒物(PM2.5),110,111,61,83,49,48,,62,57,44,32,12,11,1.1,0.8
2024-11-03T0900,1655A,116.5491,35.4042,济宁市,电化厂,细颗粒物(PM2.5),128,140,90,97,59,57,,49,49,43,39,14,9,1.2,0.9
2024-11-03T0900,3500A,116.5814,35.3707,济宁市,北湖一中,细颗粒物(PM2.5),134,,64,102,56,55,,52,52,44,35,12,8,1.0,0.6
2024-11-03T0900,3501A,116.8249,35.5593,济宁市,服务中心,细颗粒物(PM2.5),114,129,76,86,46,76,,42,42,32,40,14,9,0.9,0.7
2024-11-03T0900,3678A,116.5907,35.4054,济宁市,市第七中学,细颗粒物(PM2.5),128,110,67,97,55,41,,40,39,53,40,9,6,1.2,0.8
2024-11-03T0900,2255A,130.2751,46.8028,佳木斯市,佳纺,细颗粒物(PM2.5),117,119,81,88,59,14,,11,11,37,30,11,8,1.0,0.8
2024-11-03T0900,2256A,130.3995,46.8307,佳木斯市,发电厂,细颗粒物(PM2.5),80,73,56,59,57,12,,5,5,38,27,10,6,0.7,0.7
2024-11-03T0900,2257A,130.3258,46.7975,佳木斯市,环保局,细颗粒物(PM2.5),92,93,71,68,54,6,,4,4,50,31,12,10,1.3,0.7
2024-11-03T0900,2258A,130.3648,46.8032,佳木斯市,十一中,细颗粒物(PM2.5),85,66,63,63,56,15,,11,11,40,32,8,8,0.9,0.8
2024-11-03T0900,2259A,130.3794,46.7588,佳木斯市,四丰,,,,44,,,26,,26,26,,,1,1,0.3,0.3
2024-11-03T0900,1252A,120.7436,30.778,嘉兴市,清河小学,细颗粒物(PM2.5),95,73,65,71,50,32,,15,15,51,45,9,7,0.8,0.6
2024-11-03T0900,1253A,120.726,30.7478,嘉兴市,嘉兴学院,细颗粒物(PM2.5),100,78,53,75,46,12,,4,4,64,45,6,5,1.2,0.8
2024-11-03T0900,2872A,120.7846,30.7525,嘉兴市,南湖区残联,细颗粒物(PM2.5),97,,57,72,48,51,,29,29,44,33,8,7,0.9,0.7
2024-11-03T0900,3407A,120.6916,30.7739,嘉兴市,秀洲住建,细颗粒物(PM2.5),60,61,50,43,32,24,,5,5,45,35,8,8,1.0,0.8
2024-11-03T0900,1945A,98.2908,39.7711,嘉峪关市,气象局,颗粒物(PM10),64,78,62,22,16,28,,79,73,19,14,8,8,0.5,0.3
2024-11-03T0900,2884A,98.2672,39.7978,嘉峪关市,酒钢宾馆,颗粒物(PM10),73,95,93,27,21,23,,60,56,53,22,28,27,0.7,0.6
2024-11-03T0900,3248A,98.2643,39.7724,嘉峪关市,雄关区,颗粒物(PM10),65,79,73,24,22,20,,28,24,52,31,12,11,0.5,0.4
2024-11-03T0900,1383A,113.1064,22.6058,江门市,北街,细颗粒物(PM2.5),53,51,47,37,28,53,,37,37,38,40,12,8,0.7,0.6
2024-11-03T0900,1384A,113.0731,22.5835,江门市,西区,颗粒物(PM10),53,56,49,32,25,44,,33,33,41,38,13,9,0.7,0.6
2024-11-03T0900,1385A,113.0219,22.5311,江门市,圭峰西,,45,40,39,31,25,68,,58,58,28,28,7,6,0.8,0.8
2024-11-03T0900,1386A,113.0828,22.5947,江门市,东湖,颗粒物(PM10),54,57,48,33,26,48,,33,33,36,33,12,8,0.7,0.6
2024-11-03T0900,3311A,113.1075,22.5647,江门市,江海富民,颗粒物(PM10),52,53,52,30,24,52,,35,35,36,37,12,8,0.6,0.5
2024-11-03T0900,3449A,113.05,22.4667,江门市,新会银湖,细颗粒物(PM2.5),55,54,46,39,30,39,,26,26,41,42,10,7,0.5,0.5
2024-11-03T0900,1828A,113.227,35.2125,焦作市,市环保局,细颗粒物(PM2.5),93,96,88,69,60,58,,33,33,27,31,14,6,0.8,0.7
2024-11-03T0900,1830A,113.1992,35.2590,焦作市,影视城,细颗粒物(PM2.5),75,,60,55,52,56,,113,105,28,15,7,8,0.9,0.9
2024-11-03T0900,3169A,113.2725,35.2067,焦作市,太极体育中心,细颗粒物(PM2.5),79,61,82,58,54,60,,32,32,26,36,9,6,0.9,0.9
2024-11-03T0900,3335A,113.3137,35.2641,焦作市,马村街道办,细颗粒物(PM2.5),88,79,73,65,58,54,,41,41,28,24,10,6,0.7,0.7
2024-11-03T0900,3336A,113.2465,35.2373,焦作市,焦作技师学院,"颗粒物(PM10),细颗粒物(PM2.5)",77,103,74,56,50,52,,51,47,28,23,10,6,1.0,0.8
2024-11-03T0900,3477A,113.1656,35.2539,焦作市,中站许衡医院,细颗粒物(PM2.5),65,63,71,47,49,55,,75,70,20,27,6,7,1.0,0.8
2024-11-03T0900,3981A,113.2449,35.1803,焦作市,原李万街道办,细颗粒物(PM2.5),75,58,84,55,53,42,,14,14,28,34,7,7,0.9,0.9
2024-11-03T0900,1708A,116.3701,23.5345,揭阳市,新兴,,46,46,27,19,14,57,,61,58,20,16,18,9,0.7,0.6
2024-11-03T0900,1709A,116.3264,23.5443,揭阳市,西马,,36,36,28,22,14,54,,64,60,18,11,23,10,0.8,0.7
2024-11-03T0900,1710A,116.3611,23.5626,揭阳市,东兴,颗粒物(PM10),56,61,33,21,13,55,,57,54,20,14,24,11,0.8,0.7
2024-11-03T0900,1711A,116.4151,23.5294,揭阳市,渔湖,,42,42,26,16,12,63,,62,60,20,15,19,10,0.7,0.5
2024-11-03T0900,3320A,116.403,23.5699,揭阳市,曲溪,颗粒物(PM10),51,51,27,19,12,64,,60,58,14,13,17,8,0.7,0.6
2024-11-03T0900,1944A,102.1692,38.5167,金昌市,天庆家园,颗粒物(PM10),80,109,64,55,27,33,,78,71,51,12,14,17,1.0,0.6
2024-11-03T0900,3170A,102.1864,38.5253,金昌市,市委党校,颗粒物(PM10),89,127,68,30,15,39,,84,78,49,11,6,11,0.9,0.5
2024-11-03T0900,4022A,102.1647,38.5371,金昌市,金川区人防中心,颗粒物(PM10),97,144,86,63,23,34,,82,75,43,11,8,12,0.9,0.6
2024-11-03T0900,1262A,119.647,29.077,金华市,十五中,颗粒物(PM10),55,60,38,34,19,37,,24,24,39,37,6,4,1.0,0.7
2024-11-03T0900,1263A,119.686,29.1029,金华市,监测站,颗粒物(PM10),55,60,35,36,20,31,,17,17,31,31,4,3,0.8,0.5
2024-11-03T0900,3659A,119.656,29.1131,金华市,气象局,颗粒物(PM10),54,57,40,26,14,30,,14,14,38,43,6,4,1.0,0.6
2024-11-03T0900,1767A,121.1115,41.0879,锦州市,南山,细颗粒物(PM2.5),97,,58,72,43,36,,13,13,55,56,18,15,1.0,0.7
2024-11-03T0900,1768A,121.0533,40.8434,锦州市,开发区,细颗粒物(PM2.5),128,,91,97,55,22,,11,11,66,71,18,21,1.2,0.9
2024-11-03T0900,1769A,121.1836,41.1119,锦州市,百股街道,细颗粒物(PM2.5),62,50,51,44,30,52,,15,15,44,43,15,16,1.2,0.9
2024-11-03T0900,1770A,121.1178,41.1222,锦州市,天安街道,细颗粒物(PM2.5),102,98,70,76,48,34,,12,12,46,46,21,15,1.4,0.9
2024-11-03T0900,1771A,121.1303,41.1386,锦州市,北湖公园,细颗粒物(PM2.5),104,101,60,78,43,29,,9,9,48,47,17,13,1.4,0.8
2024-11-03T0900,2160A,112.85,35.5051,晋城市,自来水公司,细颗粒物(PM2.5),113,99,69,85,49,27,,,,38,42,11,7,3.3,1.3
2024-11-03T0900,2161A,112.8318,35.4936,晋城市,白云商贸,细颗粒物(PM2.5),94,89,68,70,44,28,,21,21,41,35,8,5,2.5,1.3
2024-11-03T0900,2162A,112.8508,35.4887,晋城市,市环保局,细颗粒物(PM2.5),117,111,75,88,48,28,,10,10,43,44,11,7,3.4,1.4
2024-11-03T0900,2163A,112.8676,35.4897,晋城市,技术学院,细颗粒物(PM2.5),98,104,63,73,38,23,,,,45,45,8,7,3.1,1.3
2024-11-03T0900,2165A,112.8453,35.546,晋城市,白马寺,细颗粒物(PM2.5),92,88,60,68,44,72,,89,83,28,21,25,14,3.1,1.3
2024-11-03T0900,3620A,112.8271,35.4828,晋城市,泽州一中,细颗粒物(PM2.5),94,94,64,70,45,32,,34,33,41,30,11,7,2.5,1.3
2024-11-03T0900,2171A,112.7532,37.6945,晋中市,锦纶小区,细颗粒物(PM2.5),110,124,144,83,101,21,,18,17,32,42,11,10,1.0,1.1
2024-11-03T0900,2173A,112.7249,37.7067,晋中市,南都小区,细颗粒物(PM2.5),89,119,158,66,103,27,,15,15,32,49,15,9,1.1,1.1
2024-11-03T0900,2174A,112.6991,37.6982,晋中市,榆次区政府,细颗粒物(PM2.5),98,122,153,73,89,19,,11,11,34,46,14,10,1.3,1.3
2024-11-03T0900,2865A,112.7195,37.6828,晋中市,榆次三中,颗粒物(PM10),92,134,156,66,105,12,,10,9,30,37,12,11,1.2,1.3
2024-11-03T0900,2439A,112.2014,31.0481,荆门市,竹园小学,细颗粒物(PM2.5),147,137,92,112,66,25,,37,35,54,38,13,12,1.5,0.9
2024-11-03T0900,2440A,112.1969,30.9891,荆门市,掇刀,细颗粒物(PM2.5),147,137,104,112,77,55,,53,53,65,48,7,8,0.8,0.8
2024-11-03T0900,2441A,112.2213,31.0386,荆门市,石化一小,细颗粒物(PM2.5),200,220,109,150,74,38,,22,22,69,52,13,18,1.5,0.9
2024-11-03T0900,3012A,112.1849,31.0362,荆门市,西山林语,细颗粒物(PM2.5),144,129,87,110,67,48,,72,68,42,26,8,8,0.8,0.6
2024-11-03T0900,3547A,112.1632,31.0138,荆门市,龙泉中学南校,细颗粒物(PM2.5),140,142,92,107,66,63,,93,91,43,26,11,12,0.8,0.6
2024-11-03T0900,1844A,112.2494,30.3197,荆州市,市图书馆,细颗粒物(PM2.5),93,111,76,69,57,36,,28,24,56,45,8,8,1.1,0.9
2024-11-03T0900,1845A,112.2008,30.3544,荆州市,市委党校,细颗粒物(PM2.5),99,120,78,74,61,37,,21,19,45,45,9,8,1.0,0.9
2024-11-03T0900,3194A,112.2747,30.3122,荆州市,管委会,细颗粒物(PM2.5),109,125,80,82,60,44,,17,16,52,49,12,12,1.0,0.9
2024-11-03T0900,3548A,112.1655,30.3364,荆州市,学苑路,细颗粒物(PM2.5),147,,86,112,80,29,,44,36,40,32,8,9,0.9,0.8
2024-11-03T0900,2342A,117.3102,29.3867,景德镇市,王港中学,,,,,,,,,,,,,,,,
2024-11-03T0900,2343A,117.2117,29.2933,景德镇市,老干部活动中心,,32,32,28,17,19,30,,8,8,14,15,7,7,0.2,0.2
2024-11-03T0900,2344A,117.1894,29.2789,景德镇市,兽医站,,38,38,35,19,14,35,,20,20,14,12,6,6,0.4,0.2
2024-11-03T0900,2345A,117.1547,29.2617,景德镇市,台达陶瓷,,33,28,36,23,21,40,,29,29,8,21,6,18,0.4,0.5
2024-11-03T0900,2346A,117.2461,29.2956,景德镇市,陶研所,,30,30,27,19,14,16,,,,13,15,8,11,0.2,0.2
2024-11-03T0900,1803A,115.9872,29.6815,九江市,十里,细颗粒物(PM2.5),57,62,57,40,38,27,,11,11,47,42,7,7,0.8,0.7
2024-11-03T0900,1804A,115.9584,29.7046,九江市,茅山头,细颗粒物(PM2.5),54,54,52,38,34,27,,24,24,36,32,8,8,0.7,0.7
2024-11-03T0900,1805A,115.9877,29.7295,九江市,西园,细颗粒物(PM2.5),62,63,60,44,40,27,,32,28,49,33,12,12,0.5,0.5
2024-11-03T0900,1806A,116.0172,29.6547,九江市,五七二七厂,,,64,45,53,35,76,,56,55,25,16,12,10,,0.6
2024-11-03T0900,1808A,115.9114,29.6038,九江市,综合工业园,细颗粒物(PM2.5),79,,47,58,37,50,,35,35,40,44,14,14,0.7,0.6
2024-11-03T0900,1809A,116.0721,29.7535,九江市,石化总厂,细颗粒物(PM2.5),87,89,62,64,43,59,,54,54,41,32,14,11,0.9,0.9
2024-11-03T0900,1810A,115.9773,29.5698,九江市,庐山气象台,,36,13,24,11,18,115,,118,118,3,4,7,8,0.9,0.8
2024-11-03T0900,3190A,116.0254,29.6994,九江市,外国语学校,细颗粒物(PM2.5),70,64,62,51,40,37,,23,20,46,34,13,10,0.6,0.5
2024-11-03T0900,2658A,98.5061,39.7443,酒泉市,仓门街子站,颗粒物(PM10),51,51,129,25,27,38,,72,66,35,13,24,10,0.4,0.3
2024-11-03T0900,2659A,98.4989,39.7256,酒泉市,油田生活基地,颗粒物(PM10),64,78,124,26,31,11,,48,39,56,18,15,10,0.5,0.4
2024-11-03T0900,2698A,76.0072,39.4467,喀什地区,巡警大队,颗粒物(PM10),100,150,216,33,58,45,,6,6,33,62,5,7,0.7,1.4
2024-11-03T0900,2699A,75.9755,39.4694,喀什地区,吾办,颗粒物(PM10),116,181,216,67,79,6,,1,1,64,64,3,2,1.3,1.7
2024-11-03T0900,4027A,75.9483,39.4689,喀什地区,老干局,颗粒物(PM10),138,225,216,35,52,8,,8,8,49,52,2,3,1.3,1.5
2024-11-03T0900,1824A,114.3389,34.7781,开封市,肿瘤医院,细颗粒物(PM2.5),198,169,106,148,89,34,,56,50,60,37,4,3,0.8,0.6
2024-11-03T0900,1826A,114.2885,34.7965,开封市,世纪星幼儿园,细颗粒物(PM2.5),140,155,97,107,63,40,,66,59,57,29,2,2,0.7,0.5
2024-11-03T0900,3147A,114.3438,34.8106,开封市,龙亭公园,细颗粒物(PM2.5),162,148,94,123,76,61,,69,65,40,26,3,2,0.7,0.7
2024-11-03T0900,3210A,114.3644,34.7964,开封市,汴京公园,细颗粒物(PM2.5),180,148,95,136,79,54,,66,66,48,32,4,4,0.8,0.6
2024-11-03T0900,3473A,114.2485,34.8306,开封市,技师学院,细颗粒物(PM2.5),129,144,84,98,55,56,,94,86,41,18,6,5,0.7,0.6
2024-11-03T0900,3592A,114.4644,34.7556,开封市,祥符区生态环境局,细颗粒物(PM2.5),169,159,113,128,80,59,,63,63,38,47,4,4,0.7,0.5
2024-11-03T0900,1951A,84.895,45.6094,克拉玛依市,长征新村,,35,35,39,22,13,28,,31,31,19,23,5,6,0.4,0.4
2024-11-03T0900,1952A,84.8988,45.5893,克拉玛依市,南林小区,,31,31,40,18,24,22,,18,18,23,30,3,3,0.7,0.6
2024-11-03T0900,1954A,84.905,44.3396,克拉玛依市,独山子区,细颗粒物(PM2.5),68,58,62,49,46,41,,33,33,15,24,8,10,0.6,0.7
2024-11-03T0900,1955A,85.6979,46.098,克拉玛依市,乌尔禾区商贸楼,,16,16,13,3,7,40,,36,36,5,14,3,3,0.2,0.3
2024-11-03T0900,3612A,85.1045,45.6899,克拉玛依市,白碱滩区新站,,19,19,33,10,14,37,,48,48,20,18,8,8,0.2,0.2
2024-11-03T0900,2697A,76.1454,39.7142,克孜勒苏柯尔克孜自治州,市人民政府,颗粒物(PM10),83,115,145,52,53,64,,74,70,12,18,15,18,0.5,0.5
2024-11-03T0900,3665A,76.1658,39.7157,克孜勒苏柯尔克孜自治州,克州文化中心,颗粒物(PM10),85,119,145,44,49,68,,73,70,37,28,8,21,0.7,0.5
2024-11-03T0900,1450A,102.8204,24.8886,昆明市,呈贡新区,细颗粒物(PM2.5),57,44,30,40,20,10,,13,13,29,21,7,3,1.1,0.8
2024-11-03T0900,1451A,102.6251,24.9608,昆明市,西山森林公园,,,,,,,,,,,,,,,,
2024-11-03T0900,1452A,102.7252,25.0902,昆明市,龙泉镇,,38,32,25,26,17,15,,16,16,17,16,6,6,0.9,0.8
2024-11-03T0900,1453A,102.7266,25.0375,昆明市,东风东路,,42,42,34,25,21,0,,3,3,34,31,8,8,1.0,0.9
2024-11-03T0900,1454A,102.6742,25.0669,昆明市,金鼎山,,43,43,34,24,19,12,,17,16,32,26,4,3,0.8,0.8
2024-11-03T0900,1455A,102.6644,25.0401,昆明市,碧鸡广场,,38,38,32,17,17,12,,11,11,25,28,4,4,0.7,0.7
2024-11-03T0900,3179A,102.7494,25.0119,昆明市,官渡区博物馆,,43,39,38,30,20,5,,2,2,41,35,8,7,0.8,0.8
2024-11-03T0900,3375A,102.8017,24.8336,昆明市,青年创业园,,35,35,25,24,18,15,,8,8,26,22,4,4,0.6,0.6
2024-11-03T0900,3550A,102.7997,24.9786,昆明市,昆明学院,颗粒物(PM10),63,75,45,44,26,4,,3,3,40,33,8,7,0.9,0.7
2024-11-03T0900,3551A,102.5967,24.6736,昆明市,晋宁区生态环境分局,颗粒物(PM10),65,79,37,39,27,31,,21,21,21,21,4,2,1.2,0.8
2024-11-03T0900,3552A,102.6678,24.9856,昆明市,云天化总部,,39,39,31,27,22,17,,15,12,28,28,5,5,0.8,0.8
2024-11-03T0900,1456A,91.1319,29.6514,拉萨市,八廓街,,17,12,21,7,11,52,,63,63,20,22,18,13,0.3,0.4
2024-11-03T0900,1457A,91.1221,29.6747,拉萨市,市环保局,,45,45,37,12,15,33,,44,44,28,23,18,12,0.9,0.9
2024-11-03T0900,1458A,91.0874,29.6475,拉萨市,区监测站,,25,22,23,9,11,24,,39,39,50,35,20,12,0.5,0.5
2024-11-03T0900,1459A,91.1774,29.6541,拉萨市,西藏大学,,14,12,20,7,8,43,,60,58,20,15,15,11,0.4,0.3
2024-11-03T0900,1460A,90.9798,29.6588,拉萨市,区辐射站,,32,32,33,13,15,23,,36,32,46,34,10,11,0.5,0.4
2024-11-03T0900,1461A,91.0834,29.6292,拉萨市,拉萨火车站,,24,17,19,10,10,17,,31,29,47,30,12,9,0.6,0.5
2024-11-03T0900,2520A,109.2203,23.7256,来宾市,来宾技工学校,细颗粒物(PM2.5),69,68,60,50,43,110,,104,104,18,16,12,7,0.9,0.8
2024-11-03T0900,3535A,109.1781,23.7297,来宾市,兴宾区政府,细颗粒物(PM2.5),63,65,58,45,40,115,,106,106,13,11,9,7,0.9,0.7
2024-11-03T0900,4002A,109.2416,23.7461,来宾市,中南小学,细颗粒物(PM2.5),69,58,59,50,43,103,,95,95,15,12,9,5,0.9,0.7
2024-11-03T0900,1476A,103.631,36.1031,兰州市,兰炼宾馆,颗粒物(PM10),85,120,78,36,49,76,,49,49,24,56,8,18,0.3,0.8
2024-11-03T0900,1477A,104.1373,35.9454,兰州市,榆中兰大校区,,,,,,,,,,,,,,,,
2024-11-03T0900,1478A,103.8412,36.0726,兰州市,生物制品所,颗粒物(PM10),79,108,74,32,43,76,,23,23,14,70,10,15,0.3,0.9
2024-11-03T0900,1479A,103.831,36.0464,兰州市,铁路设计院,颗粒物(PM10),72,94,72,28,44,65,,22,22,37,78,7,13,0.2,1.2
2024-11-03T0900,3186A,103.7158,36.1058,兰州市,教育港,颗粒物(PM10),81,111,76,36,48,70,,30,30,28,64,9,16,0.4,0.9
2024-11-03T0900,3241A,103.7439,36.0842,兰州市,百合公园,颗粒物(PM10),83,116,70,26,37,69,,27,27,21,55,6,13,0.5,1
2024-11-03T0900,3242A,103.9611,35.998,兰州市,和平,颗粒物(PM10),61,71,58,22,34,70,,63,63,26,34,27,19,0.5,0.7
2024-11-03T0900,3245A,103.6633,36.533,兰州新区,新区管委会,颗粒物(PM10),84,118,56,36,29,65,,70,67,18,21,10,12,0.4,0.5
2024-11-03T0900,3246A,103.6975,36.4789,兰州新区,舟曲中学,颗粒物(PM10),71,92,42,28,23,51,,76,71,38,24,13,22,0.4,0.5
2024-11-03T0900,1067A,116.6708,39.5111,廊坊市,药材公司,细颗粒物(PM2.5),79,88,80,58,64,6,,2,2,47,45,3,2,1.0,1.1
2024-11-03T0900,1068A,116.7214,39.5589,廊坊市,开发区,颗粒物(PM10),68,85,74,39,49,3,,0,0,44,46,2,2,0.9,1
2024-11-03T0900,1070A,116.7244,39.5269,廊坊市,北华航天学院,细颗粒物(PM2.5),89,99,77,66,63,8,,2,2,40,40,3,3,1.0,1
2024-11-03T0900,2919A,116.7022,39.5453,廊坊市,河北工业大学,细颗粒物(PM2.5),93,82,77,69,65,7,,2,2,43,44,3,3,1.0,1
2024-11-03T0900,2535A,103.7723,29.5462,乐山市,花湖湾,,45,40,40,31,33,36,,45,45,17,12,5,4,0.8,0.8
2024-11-03T0900,2536A,103.7627,29.5844,乐山市,牛耳桥,,50,41,42,35,36,25,,42,42,30,21,6,6,0.7,0.6
2024-11-03T0900,2537A,103.7508,29.6006,乐山市,市第三水厂,细颗粒物(PM2.5),52,40,42,36,34,41,,53,53,20,15,5,5,0.7,0.7
2024-11-03T0900,2538A,103.7571,29.5664,乐山市,市监测站,,50,45,40,35,30,30,,52,47,24,14,6,6,0.8,0.8
2024-11-03T0900,3361A,103.7311,29.5628,乐山市,理工大学,,46,38,40,32,33,30,,52,48,24,14,5,6,0.7,0.7
2024-11-03T0900,2598A,100.2143,26.8576,丽江市,西南郊,,20,20,30,9,18,48,,51,51,13,11,6,7,1.1,1
2024-11-03T0900,2599A,100.2497,26.8802,丽江市,丽江古城,,35,35,35,20,24,42,,,,16,11,10,11,0.5,0.6
2024-11-03T0900,2600A,100.2203,26.8906,丽江市,市中心,,25,19,25,17,19,44,,46,46,16,12,7,9,0.6,0.6
2024-11-03T0900,1267A,119.914,28.4514,丽水市,监测站大楼,,35,31,25,24,11,32,,20,20,19,22,1,1,0.4,0.4
2024-11-03T0900,1268A,119.93,28.4586,丽水市,莲都小学,,38,38,25,25,15,36,,27,27,17,19,4,4,0.5,0.4
2024-11-03T0900,1269A,119.879,28.4231,丽水市,余庄前,,,,21,,14,,,50,,,13,,5,,0.4
2024-11-03T0900,1173A,119.176,34.5885,连云港市,市环境监测站,细颗粒物(PM2.5),138,149,109,105,77,12,,20,19,57,42,9,9,0.9,0.8
2024-11-03T0900,3000A,119.3581,34.6972,连云港市,德源药业,细颗粒物(PM2.5),134,146,77,102,47,22,,17,10,69,41,8,7,0.5,0.4
2024-11-03T0900,3007A,119.178,34.844,连云港市,新城一中,细颗粒物(PM2.5),152,133,121,116,95,72,,16,16,44,67,9,10,1.2,1.3
2024-11-03T0900,3008A,119.3608,34.7519,连云港市,胡沟管理处,细颗粒物(PM2.5),125,136,81,95,56,15,,50,46,53,32,10,12,0.4,0.3
2024-11-03T0900,3009A,119.1478,34.5911,连云港市,矿山设计院,,,,111,,72,8,,,,78,49,,8,1.3,1.1
2024-11-03T0900,3434A,119.2413,34.6539,连云港市,工贸学校,细颗粒物(PM2.5),103,102,52,77,37,39,,74,66,49,22,9,8,0.9,0.6
2024-11-03T0900,3664A,119.4172,34.7341,连云港市,连云街道,细颗粒物(PM2.5),78,92,48,57,30,43,,78,73,70,23,14,8,0.7,0.6
2024-11-03T0900,2571A,102.3431,27.8099,凉山彝族自治州,青龙寺,,15,15,10,9,4,24,,26,26,6,6,9,9,0.8,0.8
2024-11-03T0900,2572A,102.2721,27.8415,凉山彝族自治州,邛海宾馆,,15,13,16,10,8,28,,29,29,9,12,11,11,0.7,0.8
2024-11-03T0900,2573A,102.2625,27.898,凉山彝族自治州,西昌市政府,,25,25,18,17,13,16,,15,15,18,16,10,7,1.0,0.9
2024-11-03T0900,2574A,102.2685,27.8851,凉山彝族自治州,凉山州政府,,21,21,21,12,13,15,,14,14,22,16,7,9,1.0,0.8
2024-11-03T0900,2575A,102.237,27.8914,凉山彝族自治州,长安,,25,25,22,13,12,9,,14,14,25,22,12,13,0.8,0.8
2024-11-03T0900,2212A,123.2,41.1953,辽阳市,宏伟区,,43,38,78,30,61,89,,90,90,21,38,12,19,0.2,0.7
2024-11-03T0900,2213A,123.1683,41.2495,辽阳市,新华园,,49,37,99,34,76,79,,61,61,26,60,14,17,1.2,1.7
2024-11-03T0900,2214A,123.2354,41.2639,辽阳市,滨河路,,44,44,85,28,63,88,,70,70,24,46,15,21,0.7,1
2024-11-03T0900,2215A,123.149,41.2991,辽阳市,铁西工业园,细颗粒物(PM2.5),68,71,112,49,79,66,,61,61,37,50,30,23,1.5,1.2
2024-11-03T0900,2227A,125.1358,42.8845,辽源市,环保局,细颗粒物(PM2.5),147,130,149,112,126,7,,13,13,50,53,8,12,1.5,1.2
2024-11-03T0900,3239A,125.0764,42.9078,辽源市,银鹰制药,细颗粒物(PM2.5),152,129,142,116,124,3,,10,10,57,56,9,16,1.4,1.2
2024-11-03T0900,1625A,115.9848,36.4372,聊城市,区政府,细颗粒物(PM2.5),133,166,98,101,62,98,,100,97,36,26,12,10,0.7,0.5
2024-11-03T0900,2878A,116.0072,36.4343,聊城市,聊大东校,细颗粒物(PM2.5),140,175,106,107,66,88,,101,98,40,27,10,9,0.8,0.6
2024-11-03T0900,3200A,115.9819,36.4978,聊城市,监控中心,细颗粒物(PM2.5),147,155,98,112,72,114,,113,111,33,29,10,9,0.7,0.6
2024-11-03T0900,3513A,116.0445,36.4361,聊城市,九州社区,细颗粒物(PM2.5),132,145,96,100,58,77,,87,84,35,26,10,7,0.8,0.6
2024-11-03T0900,4018A,116.0567,36.4608,聊城市,星美广场,细颗粒物(PM2.5),138,165,100,105,63,94,,109,104,29,22,11,9,0.8,0.6
2024-11-03T0900,2632A,94.3681,29.6376,林芝市,林芝监测站,,15,10,16,10,12,24,,40,40,21,6,7,6,0.3,0.3
2024-11-03T0900,2633A,94.3616,29.6616,林芝市,林芝人民医院,,17,17,15,11,6,29,,45,45,18,4,6,6,0.5,0.4
2024-11-03T0900,2603A,100.0781,23.8982,临沧市,市环保局,,22,22,23,6,13,10,,14,14,11,11,7,7,0.5,0.5
2024-11-03T0900,2604A,100.0894,23.8822,临沧市,市气象局,,25,18,23,17,20,11,,,,10,11,9,8,0.7,0.6
2024-11-03T0900,1733A,111.5531,36.0783,临汾市,临钢医院,"颗粒物(PM10),细颗粒物(PM2.5)",78,105,98,57,64,3,,7,7,33,35,4,5,1.3,1.2
2024-11-03T0900,1734A,111.5028,36.0714,临汾市,技工学校,细颗粒物(PM2.5),88,94,113,65,75,4,,,,34,39,7,9,1.4,1.4
2024-11-03T0900,1736A,111.5018,36.0855,临汾市,市委,细颗粒物(PM2.5),88,105,108,65,72,3,,2,2,33,37,7,8,1.4,1.4
2024-11-03T0900,3018A,111.505,36.1014,临汾市,唐尧大酒店,细颗粒物(PM2.5),98,101,101,73,69,6,,4,4,34,38,7,6,1.4,1.4
2024-11-03T0900,3668A,111.5036,36.0414,临汾市,城南,颗粒物(PM10),70,89,92,42,59,3,,2,2,26,32,6,6,1.5,1.4
2024-11-03T0900,2667A,103.2069,35.5993,临夏回族自治州,环保局,颗粒物(PM10),59,68,63,26,20,6,,2,2,41,36,7,6,1.2,1
2024-11-03T0900,2668A,103.2417,35.6057,临夏回族自治州,建设大厦,颗粒物(PM10),58,66,52,29,25,6,,,,31,28,4,4,1.1,0.8
2024-11-03T0900,1618A,118.3429,35.0532,临沂市,沂河小区,细颗粒物(PM2.5),142,178,102,108,65,42,,14,14,77,44,23,10,1.2,0.9
2024-11-03T0900,1619A,118.295,35.0583,临沂市,鲁南制药厂,细颗粒物(PM2.5),190,202,123,143,63,32,,7,7,102,64,35,12,2.0,1.4
2024-11-03T0900,1620A,118.2794,34.9976,临沂市,新光毛纺厂,细颗粒物(PM2.5),216,246,101,166,70,66,,36,34,86,50,31,13,1.7,1.1
2024-11-03T0900,1621A,118.3956,35.0888,临沂市,河东保险公司,细颗粒物(PM2.5),205,222,116,155,79,14,,6,6,96,60,10,8,1.5,1.1
2024-11-03T0900,3370A,118.3564,35.0215,临沂市,十里堡居委,细颗粒物(PM2.5),153,146,92,117,68,57,,16,16,64,48,14,8,1.1,1
2024-11-03T0900,3496A,118.3604,35.1084,临沂市,南坊新区,细颗粒物(PM2.5),188,171,101,141,76,17,,11,9,92,56,10,9,1.6,1.1
2024-11-03T0900,3860A,118.3920,35.0300,临沂市,皇山花园小区,细颗粒物(PM2.5),189,178,112,142,80,33,,8,8,92,63,12,9,1.5,1.1
2024-11-03T0900,1870A,109.4856,24.3895,柳州市,柳东小学,细颗粒物(PM2.5),85,68,61,63,43,90,,109,109,12,9,10,10,0.8,0.7
2024-11-03T0900,1871A,109.4157,24.3277,柳州市,环保监测站,细颗粒物(PM2.5),68,70,61,49,41,73,,108,103,20,12,15,10,1.0,0.9
2024-11-03T0900,1872A,109.389,24.341,柳州市,河西水厂,细颗粒物(PM2.5),93,101,72,69,46,46,,60,53,26,17,82,15,1.2,1
2024-11-03T0900,1873A,109.4311,24.2921,柳州市,市四中,细颗粒物(PM2.5),54,55,53,38,36,99,,120,118,13,12,11,9,0.8,0.7
2024-11-03T0900,1874A,109.4006,24.3631,柳州市,市九中,细颗粒物(PM2.5),75,94,62,55,39,52,,74,74,31,15,14,7,0.9,0.7
2024-11-03T0900,1875A,109.4958,24.3134,柳州市,古亭山,细颗粒物(PM2.5),59,63,56,42,39,106,,120,119,19,15,12,11,1.0,0.9
2024-11-03T0900,3402A,109.5422,24.3996,柳州市,市二中,细颗粒物(PM2.5),64,54,56,46,44,74,,97,94,31,19,11,10,0.8,0.7
2024-11-03T0900,2307A,116.5079,31.737,六安市,监测大楼,,48,48,79,28,62,52,,,,40,34,7,6,0.6,0.7
2024-11-03T0900,2308A,116.4738,31.7643,六安市,皖西学院,颗粒物(PM10),57,63,86,22,58,45,,,,36,35,5,5,0.7,0.7
2024-11-03T0900,2309A,116.4996,31.7905,六安市,朝阳厂,细颗粒物(PM2.5),53,52,78,37,60,41,,36,36,37,41,2,3,0.7,0.7
2024-11-03T0900,2310A,116.5567,31.7886,六安市,开发区,颗粒物(PM10),63,75,97,42,56,38,,,,37,33,6,6,0.5,0.5
2024-11-03T0900,2576A,104.8,26.5892,六盘水市,窑上,,,,29,,19,,,71,,,6,,6,,0.6
2024-11-03T0900,2577A,104.83,26.5917,六盘水市,黄土坡,,27,27,26,17,19,81,,,,9,13,6,8,0.5,0.6
2024-11-03T0900,2578A,104.89,26.5939,六盘水市,水钢,细颗粒物(PM2.5),52,44,40,36,25,82,,,,11,15,5,13,0.4,0.8
2024-11-03T0900,2579A,104.8475,26.5894,六盘水市,民中,,28,28,24,17,15,73,,90,90,17,15,9,11,0.5,0.6
2024-11-03T0900,2580A,104.9544,26.5506,六盘水市,双水,,32,27,24,22,14,83,,,,8,10,7,10,0.6,0.7
2024-11-03T0900,2335A,117.0189,25.1181,龙岩市,龙岩师专,,,,,,,,,,,,,,,,
2024-11-03T0900,2336A,117.0217,25.1033,龙岩市,龙岩市监测站,,30,30,18,21,14,49,,30,30,14,13,8,8,0.6,0.4
2024-11-03T0900,2337A,117.0258,25.0661,龙岩市,闽西职业技术学院,,44,44,29,17,10,45,,14,14,12,13,10,6,0.7,0.5
2024-11-03T0900,2338A,117.0196,25.0306,龙岩市,龙岩学院,,40,38,17,28,12,29,,17,17,20,14,10,6,0.7,0.5
2024-11-03T0900,2665A,105.0822,33.3261,陇南市,汉王镇固水子,,,,,,,,,,,,,,,,
2024-11-03T0900,2885A,104.9339,33.3826,陇南市,滨江中学,颗粒物(PM10),52,53,43,21,15,10,,21,18,26,15,8,6,0.9,0.7
2024-11-03T0900,3247A,104.955,33.371,陇南市,市总工会,,41,41,31,9,7,18,,33,31,23,9,5,4,1.0,0.7
2024-11-03T0900,2487A,111.9589,27.8901,娄底市,电视发射台,细颗粒物(PM2.5),75,,60,55,61,71,,80,76,15,16,6,7,1.3,1.2
2024-11-03T0900,2488A,111.9975,27.725,娄底市,市监测站,细颗粒物(PM2.5),107,123,108,80,74,35,,44,44,47,29,45,14,1.8,1
2024-11-03T0900,2489A,112.0194,27.7314,娄底市,市委党校,细颗粒物(PM2.5),94,90,96,70,70,14,,30,26,43,30,8,5,1.1,0.8
2024-11-03T0900,2490A,111.9561,27.7569,娄底市,涟钢,细颗粒物(PM2.5),87,82,91,64,63,52,,44,44,21,26,12,10,0.8,1
2024-11-03T0900,2491A,111.9892,27.7044,娄底市,市政府,细颗粒物(PM2.5),95,71,92,71,69,18,,27,27,22,24,8,7,0.8,0.8
2024-11-03T0900,1893A,105.4324,28.9634,泸州市,九狮山,细颗粒物(PM2.5),59,64,50,42,28,6,,7,7,27,19,5,5,0.6,0.5
2024-11-03T0900,1894A,105.4427,28.9063,泸州市,小市上码头,颗粒物(PM10),56,61,38,38,24,21,,29,28,28,19,10,6,0.6,0.5
2024-11-03T0900,1895A,105.4241,28.8573,泸州市,兰田宪桥,,40,32,32,28,27,20,,16,16,20,23,7,5,0.6,0.6
2024-11-03T0900,1896A,105.4379,28.8833,泸州市,市环监站,细颗粒物(PM2.5),55,52,36,39,27,17,,18,18,27,23,8,6,0.6,0.5
2024-11-03T0900,3490A,105.3617,28.7703,泸州市,纳溪区环保局,颗粒物(PM10),51,51,38,32,23,4,,10,9,26,22,4,4,0.7,0.6
2024-11-03T0900,2183A,111.1406,37.5211,吕梁市,环保局,颗粒物(PM10),69,87,61,17,25,4,,2,2,29,36,6,4,0.6,0.7
2024-11-03T0900,2185A,111.1297,37.5136,吕梁市,自来水公司,颗粒物(PM10),84,118,72,21,25,4,,2,2,30,37,7,3,0.3,0.4
2024-11-03T0900,2867A,111.1283,37.51,吕梁市,马茂庄小学,颗粒物(PM10),76,102,71,22,25,6,,3,3,31,41,9,4,0.6,0.6
2024-11-03T0900,1812A,112.3931,34.6516,洛阳市,市委党校,细颗粒物(PM2.5),89,83,68,66,52,35,,7,7,19,37,6,2,0.8,0.8
2024-11-03T0900,1814A,112.4657,34.6871,洛阳市,豫西宾馆,细颗粒物(PM2.5),84,86,72,62,48,21,,3,3,31,46,15,5,0.9,0.8
2024-11-03T0900,1815A,112.494,34.6886,洛阳市,河南林校,细颗粒物(PM2.5),97,89,64,72,54,20,,4,4,30,40,15,4,0.8,0.7
2024-11-03T0900,1816A,112.3844,34.623,洛阳市,开发区管委会,细颗粒物(PM2.5),77,71,59,56,45,23,,22,18,20,19,1,2,0.6,0.6
2024-11-03T0900,1817A,112.4267,34.6258,洛阳市,市委新办公区,,,66,60,53,46,,,18,17,,23,,3,,0.5
2024-11-03T0900,3340A,112.6005,34.6326,洛阳市,伊滨,细颗粒物(PM2.5),55,39,57,39,43,25,,7,7,17,32,3,3,0.4,0.5
2024-11-03T0900,3341A,112.4951,34.6332,洛阳市,中移产业园,细颗粒物(PM2.5),69,54,50,50,41,30,,15,15,18,35,3,3,0.6,0.6
2024-11-03T0900,3593A,112.5736,34.8993,洛阳市,吉利监测站,,50,,49,35,42,36,,28,28,16,31,2,3,0.5,0.7
2024-11-03T0900,3635A,112.3677,34.662,洛阳市,河科大西苑校区,细颗粒物(PM2.5),93,78,72,69,56,39,,8,8,23,41,4,4,0.8,0.9
2024-11-03T0900,3636A,112.4388,34.6781,洛阳市,英才小学,细颗粒物(PM2.5),88,93,82,65,50,25,,4,4,29,45,12,6,0.9,0.9
2024-11-03T0900,2399A,114.051,33.5699,漯河市,三五一五工厂,细颗粒物(PM2.5),150,147,124,115,104,92,,64,64,44,35,8,8,0.7,0.7
2024-11-03T0900,2400A,114.0055,33.5698,漯河市,漯河大学,细颗粒物(PM2.5),140,132,122,107,96,96,,,,34,28,7,8,0.7,0.7
2024-11-03T0900,2401A,114.0138,33.5828,漯河市,市水利局,细颗粒物(PM2.5),128,119,114,97,90,110,,104,104,22,22,7,8,0.8,0.7
2024-11-03T0900,2402A,114.0261,33.5698,漯河市,市广电局,细颗粒物(PM2.5),156,120,106,119,103,96,,93,93,36,31,7,8,0.8,0.7
2024-11-03T0900,3478A,113.9749,33.5664,漯河市,市图书馆,细颗粒物(PM2.5),156,148,123,119,96,80,,103,99,35,19,6,6,0.7,0.7
2024-11-03T0900,3479A,114.0967,33.5906,漯河市,召陵区卫健委,细颗粒物(PM2.5),166,147,134,126,93,105,,65,65,29,32,19,11,0.8,0.7
2024-11-03T0900,1798A,118.5092,31.6837,马鞍山市,湖东路四小,细颗粒物(PM2.5),70,75,64,51,32,38,,10,10,34,44,6,8,1.2,1.1
2024-11-03T0900,1799A,118.5024,31.6449,马鞍山市,开发区,细颗粒物(PM2.5),89,87,67,66,41,21,,4,4,48,56,8,10,1.6,1.2
2024-11-03T0900,1800A,118.5228,31.7231,马鞍山市,慈湖,细颗粒物(PM2.5),100,88,64,75,47,32,,12,11,51,46,11,10,1.2,0.9
2024-11-03T0900,1802A,118.6245,31.7241,马鞍山市,濮塘,细颗粒物(PM2.5),65,56,48,47,32,60,,52,51,17,19,7,7,1.1,1.1
2024-11-03T0900,3633A,118.4918,31.6809,马鞍山市,雨山,细颗粒物(PM2.5),69,61,61,50,35,28,,8,8,40,44,5,9,1.6,1.4
2024-11-03T0900,1686A,111.0286,21.4688,茂名市,电白南海,颗粒物(PM10),54,58,54,29,26,57,,65,64,18,13,12,10,0.9,0.8
2024-11-03T0900,1687A,110.9294,21.6533,茂名市,茂石化七小,颗粒物(PM10),51,51,45,31,31,51,,60,58,17,13,11,13,0.8,0.8
2024-11-03T0900,1688A,110.9107,21.6687,茂名市,健康路,颗粒物(PM10),60,70,44,39,31,53,,58,57,17,12,16,18,0.7,0.6
2024-11-03T0900,1689A,110.8592,21.6828,茂名市,高岭,细颗粒物(PM2.5),62,66,58,44,35,45,,41,41,22,18,42,20,1.4,0.7
2024-11-03T0900,3450A,111.01,21.5165,茂名市,电白水东,,49,48,37,34,28,50,,64,62,25,13,18,14,0.8,0.7
2024-11-03T0900,2539A,104.0308,30.0478,眉山市,黑龙滩水库,细颗粒物(PM2.5),52,,40,36,33,45,,83,78,11,3,4,4,0.5,0.4
2024-11-03T0900,2540A,103.8416,30.0874,眉山市,气象局,细颗粒物(PM2.5),67,53,35,48,32,12,,,,36,19,8,7,0.6,0.6
2024-11-03T0900,3137A,103.8578,30.0744,眉山市,市委党校,颗粒物(PM10),51,51,39,34,25,20,,35,35,35,20,6,6,0.6,0.6
2024-11-03T0900,3148A,103.8291,30.0564,眉山市,区人社局,颗粒物(PM10),54,58,38,31,25,13,,,,40,22,4,4,0.7,0.7
2024-11-03T0900,1690A,116.1231,24.3284,梅州市,梅江月梅,,,34,30,19,17,,,17,15,30,25,13,8,0.6,0.5
2024-11-03T0900,1691A,116.0797,24.2719,梅州市,梅县新城,,23,23,27,15,19,30,,28,26,33,19,8,5,0.5,0.5
2024-11-03T0900,1692A,116.1248,24.2654,梅州市,环境监控中心,,37,37,41,23,23,20,,13,13,29,30,15,18,0.6,0.5
2024-11-03T0900,3315A,116.1233,24.2991,梅州市,梅龙,,27,27,28,16,16,41,,21,21,19,21,8,7,0.7,0.7
2024-11-03T0900,1878A,104.7778,31.4741,绵阳市,富乐山,,36,36,30,23,21,52,,43,43,21,16,2,2,0.6,0.6
2024-11-03T0900,1879A,104.7563,31.4535,绵阳市,市人大,,42,42,35,25,24,27,,48,48,36,29,1,3,0.6,0.5
2024-11-03T0900,1880A,104.6697,31.4668,绵阳市,高新区自来水公司,,29,29,31,12,16,53,,54,54,26,21,3,3,0.6,0.6
2024-11-03T0900,1881A,104.7287,31.5075,绵阳市,三水厂,,40,40,39,28,24,23,,51,51,42,28,5,5,0.6,0.6
2024-11-03T0900,3491A,104.69,31.5322,绵阳市,西科大附属小学,,35,35,40,19,18,43,,52,52,22,24,4,4,0.7,0.6
2024-11-03T0900,3492A,104.5648,31.5343,绵阳市,安州区旅游局,,35,25,27,24,22,63,,67,67,11,13,6,7,0.6,0.6
2024-11-03T0900,1784A,129.61,44.561,牡丹江市,环保大楼,,41,41,37,25,27,16,,7,7,36,29,20,9,0.5,0.4
2024-11-03T0900,1785A,129.6115,44.5782,牡丹江市,文化广场,,50,50,59,26,37,10,,7,7,40,33,15,17,0.8,0.7
2024-11-03T0900,1786A,129.5904,44.5963,牡丹江市,第一医院,,48,40,39,33,39,20,,21,21,31,20,9,7,0.6,0.4
2024-11-03T0900,1787A,129.6364,44.6075,牡丹江市,机车工厂,,44,44,52,27,33,16,,12,11,25,23,15,19,0.4,0.5
2024-11-03T0900,1788A,129.6386,44.5462,牡丹江市,第一中学,,46,42,36,32,29,10,,10,9,38,22,23,6,0.5,0.3
2024-11-03T0900,2531A,105.0703,29.61,内江市,市监测站,细颗粒物(PM2.5),64,,29,46,37,29,,50,50,20,20,8,8,0.6,0.6
2024-11-03T0900,2532A,105.0717,29.5947,内江市,东兴区政府,细颗粒物(PM2.5),57,44,26,40,28,35,,57,57,20,17,8,7,0.8,0.7
2024-11-03T0900,2533A,105.0653,29.5817,内江市,内江二中,细颗粒物(PM2.5),62,54,40,44,31,38,,,,31,21,8,7,0.7,0.6
2024-11-03T0900,2534A,105.0406,29.5822,内江市,内江日报社,细颗粒物(PM2.5),57,50,43,40,33,36,,46,46,24,30,9,9,0.5,0.5
2024-11-03T0900,2628A,92.0657,31.4846,那曲市,那曲监测站,,37,37,54,20,31,23,,22,22,19,24,9,10,0.7,1.1
2024-11-03T0900,3128A,92.0506,31.4797,那曲市,那曲会议中心,颗粒物(PM10),71,92,47,47,21,9,,18,18,28,16,12,5,1.9,1.3
2024-11-03T0900,1290A,115.8931,28.6843,南昌市,省外办,细颗粒物(PM2.5),89,90,66,66,47,82,,85,84,32,27,19,13,0.9,0.6
2024-11-03T0900,1291A,115.8886,28.7003,南昌市,省林业公司,细颗粒物(PM2.5),83,90,67,61,39,73,,76,76,33,33,13,9,0.7,0.6
2024-11-03T0900,1292A,115.8126,28.7442,南昌市,林科所,"颗粒物(PM10),细颗粒物(PM2.5)",62,73,49,44,29,54,,89,81,64,26,12,8,0.5,0.5
2024-11-03T0900,1294A,115.8518,28.687,南昌市,建工学校,颗粒物(PM10),64,78,61,37,33,85,,92,90,30,22,14,11,0.7,0.5
2024-11-03T0900,1295A,115.8921,28.6424,南昌市,象湖,细颗粒物(PM2.5),74,65,54,54,39,92,,93,93,31,28,15,11,0.8,0.6
2024-11-03T0900,1296A,115.7423,28.7996,南昌市,武术学校,,19,19,40,13,15,10,,7,7,10,10,1,2,0.5,0.5
2024-11-03T0900,1298A,115.9314,28.6842,南昌市,省站,细颗粒物(PM2.5),82,91,65,60,43,79,,80,80,35,21,14,10,0.8,0.6
2024-11-03T0900,3046A,115.9084,28.6062,南昌市,机电学校,细颗粒物(PM2.5),77,100,78,56,40,76,,68,68,42,39,12,9,0.6,0.5
2024-11-03T0900,3690A,115.9721,28.7031,南昌市,外国语学校,颗粒物(PM10),74,97,66,52,36,80,,79,79,31,31,16,10,1.0,0.8
2024-11-03T0900,1905A,106.056,30.8064,南充市,西山风景区,,42,32,22,29,22,31,,48,48,22,35,2,3,0.8,0.8
2024-11-03T0900,1906A,106.0789,30.8023,南充市,南充市委,,48,47,34,33,22,19,,19,19,23,27,3,4,0.5,0.5
2024-11-03T0900,1907A,106.1031,30.8217,南充市,南充炼油厂,,50,47,44,35,29,25,,25,25,16,25,3,4,0.5,0.5
2024-11-03T0900,1908A,106.1064,30.7856,南充市,高坪区监测站,,50,43,46,35,30,27,,,,18,32,3,3,0.4,0.5
2024-11-03T0900,1909A,106.0642,30.7636,南充市,嘉陵区环保局,,45,31,39,31,21,26,,26,26,21,35,3,4,0.5,0.6
2024-11-03T0900,1910A,106.1087,30.8388,南充市,市环境监测站,,43,39,39,30,28,24,,24,24,14,19,4,5,0.5,0.4
2024-11-03T0900,1151A,118.8086,32.1065,南京市,迈皋桥,细颗粒物(PM2.5),55,57,46,39,29,40,,13,13,45,44,4,5,0.3,0.4
2024-11-03T0900,1152A,118.7538,32.0551,南京市,草场门,"颗粒物(PM10),细颗粒物(PM2.5)",52,53,52,36,33,39,,23,23,51,50,6,7,0.7,0.8
2024-11-03T0900,1153A,118.7794,32.0745,南京市,山西路,颗粒物(PM10),56,61,53,36,32,92,,34,34,21,36,4,5,0.7,0.8
2024-11-03T0900,1154A,118.7752,32.0023,南京市,中华门,颗粒物(PM10),62,73,54,41,31,39,,12,12,49,49,8,9,0.7,0.8
2024-11-03T0900,1155A,118.8109,32.0309,南京市,瑞金路,颗粒物(PM10),60,70,53,41,31,26,,10,10,56,42,5,8,0.5,0.8
2024-11-03T0900,1156A,118.7997,32.0754,南京市,玄武湖,细颗粒物(PM2.5),52,38,46,36,29,39,,30,30,52,57,5,8,0.8,0.9
2024-11-03T0900,1157A,118.6414,32.0931,南京市,浦口,细颗粒物(PM2.5),60,,43,43,33,20,,59,59,59,18,6,6,0.8,0.6
2024-11-03T0900,1158A,118.7356,31.9996,南京市,奥体中心,颗粒物(PM10),60,70,56,41,33,29,,9,9,64,52,8,7,0.6,0.6
2024-11-03T0900,1159A,118.9125,32.1028,南京市,仙林大学城,细颗粒物(PM2.5),62,56,42,44,27,56,,22,22,28,34,7,7,0.7,0.6
2024-11-03T0900,3422A,118.8436,31.9198,南京市,江宁彩虹桥,,45,40,44,31,27,23,,6,6,55,52,5,6,0.7,0.8
2024-11-03T0900,3423A,119.0138,31.6494,南京市,溧水永阳,颗粒物(PM10),52,53,44,20,24,35,,9,9,38,33,4,4,0.8,0.7
2024-11-03T0900,3424A,118.879,31.3302,南京市,高淳老职中,,39,,38,27,28,28,,25,21,25,22,5,5,0.9,0.8
2024-11-03T0900,3427A,118.8554,32.3578,南京市,六合雄州,颗粒物(PM10),59,67,52,41,33,21,,13,12,36,31,5,4,0.7,0.5
2024-11-03T0900,1401A,108.3103,22.7881,南宁市,二十一中,颗粒物(PM10),63,75,49,39,40,79,,112,104,30,16,17,8,1.0,0.9
2024-11-03T0900,1402A,108.3141,22.8528,南宁市,北湖,颗粒物(PM10),65,80,55,42,37,66,,92,85,40,20,36,12,0.9,0.8
2024-11-03T0900,1403A,108.3206,22.8225,南宁市,市监测站,颗粒物(PM10),54,58,53,36,34,79,,105,99,29,18,21,11,0.8,0.7
2024-11-03T0900,1404A,108.3829,22.8037,南宁市,大自然花园,细颗粒物(PM2.5),55,54,50,39,39,80,,113,106,28,16,16,10,0.8,0.7
2024-11-03T0900,1405A,108.4394,22.7904,南宁市,仙葫,细颗粒物(PM2.5),63,51,48,45,38,75,,95,91,25,15,10,8,0.7,0.6
2024-11-03T0900,1406A,108.2397,22.8467,南宁市,区农职院,"颗粒物(PM10),细颗粒物(PM2.5)",58,66,51,41,32,68,,74,73,21,15,9,10,0.8,0.7
2024-11-03T0900,1407A,108.3275,22.735,南宁市,英华嘉园,细颗粒物(PM2.5),60,57,49,43,39,67,,110,102,32,18,12,9,0.7,0.6
2024-11-03T0900,1408A,108.2257,22.7757,南宁市,沙井镇街道办,细颗粒物(PM2.5),67,70,57,48,33,40,,56,47,28,29,16,9,0.7,0.6
2024-11-03T0900,3401A,108.4834,22.7618,南宁市,红星社区,细颗粒物(PM2.5),54,,51,38,36,101,,101,100,14,14,12,10,0.7,0.7
2024-11-03T0900,2331A,118.0966,26.6761,南平市,茫荡山,,,,,,,,,,,,,,,,
2024-11-03T0900,2332A,118.1681,26.6369,南平市,南平市监测站,,18,18,17,11,10,43,,24,24,8,13,4,3,0.6,0.7
2024-11-03T0900,2333A,118.1825,26.6489,南平市,南平铝业有限公司,,18,17,17,12,12,44,,26,26,10,16,4,3,0.4,0.5
2024-11-03T0900,2334A,118.1756,26.6272,南平市,南平七中,,15,15,15,10,10,40,,10,10,12,17,6,3,0.6,0.5
2024-11-03T0900,1168A,120.9098,31.9663,南通市,狼山街道,颗粒物(PM10),60,69,55,42,36,79,,64,64,24,9,7,6,1.0,0.8
2024-11-03T0900,1169A,120.86,32.0005,南通市,虹桥,细颗粒物(PM2.5),67,65,72,48,53,95,,95,92,26,21,6,7,0.8,0.7
2024-11-03T0900,1170A,120.87,32.02,南通市,城中,细颗粒物(PM2.5),70,78,78,51,45,83,,99,99,33,17,7,7,1.0,0.9
2024-11-03T0900,1171A,120.94,31.93,南通市,星湖花园,细颗粒物(PM2.5),54,45,62,38,43,83,,88,88,28,26,5,5,0.9,0.8
2024-11-03T0900,1172A,120.81,32.0417,南通市,紫琅学院,细颗粒物(PM2.5),64,65,66,46,48,78,,60,60,29,24,4,4,1.0,0.8
2024-11-03T0900,3291A,121.067,32.062,南通市,通州监测站,细颗粒物(PM2.5),52,41,64,36,44,79,,87,85,20,13,2,2,1.0,0.9
2024-11-03T0900,3432A,120.9348,31.9883,南通市,环境教育馆,颗粒物(PM10),64,78,65,44,42,33,,76,65,49,20,4,4,1.0,0.7
2024-11-03T0900,2404A,112.5224,33.0122,南阳市,瓦房庄,细颗粒物(PM2.5),148,128,103,113,90,22,,32,32,55,34,5,6,1.1,1
2024-11-03T0900,2405A,112.5003,32.9735,南阳市,汉画馆,细颗粒物(PM2.5),140,140,100,107,72,29,,11,11,57,42,9,8,0.9,0.8
2024-11-03T0900,2406A,112.5573,33.027,南阳市,气象站,细颗粒物(PM2.5),149,131,101,114,84,16,,44,44,51,34,6,7,1.0,0.9
2024-11-03T0900,2407A,112.5481,32.9689,南阳市,理工学院,细颗粒物(PM2.5),143,137,98,109,80,22,,16,16,63,42,6,6,1.0,0.9
2024-11-03T0900,4008A,112.5234,32.9922,南阳市,卧龙区政府,细颗粒物(PM2.5),144,127,107,110,78,42,,24,24,51,43,6,6,0.9,1
2024-11-03T0900,1234A,121.8358,29.911,宁波市,区环保大楼,颗粒物(PM10),67,84,76,46,44,53,,49,49,37,30,8,9,1.0,0.9
2024-11-03T0900,1235A,121.56,29.82,宁波市,万里学院,细颗粒物(PM2.5),72,58,49,52,43,31,,28,26,43,31,8,7,1.0,0.8
2024-11-03T0900,1236A,121.713,29.9572,宁波市,龙赛医院,颗粒物(PM10),56,62,49,37,32,26,,31,28,52,42,10,10,0.9,0.8
2024-11-03T0900,1239A,121.633,29.7733,宁波市,钱湖水厂,细颗粒物(PM2.5),68,63,53,49,34,37,,47,44,38,25,10,9,0.9,0.8
2024-11-03T0900,1240A,121.5856,29.8635,宁波市,太古小学,颗粒物(PM10),62,74,62,38,29,38,,57,51,41,26,10,9,1.3,1.1
2024-11-03T0900,1241A,121.524,29.8674,宁波市,市环境监测中心,颗粒物(PM10),55,60,56,35,28,38,,48,46,46,31,15,12,1.1,0.9
2024-11-03T0900,2871A,121.6147,29.9017,宁波市,万里国际学校,细颗粒物(PM2.5),62,60,49,44,33,48,,60,59,40,41,9,8,0.9,0.7
2024-11-03T0900,3710A,121.5594,29.8975,宁波市,白沙活动中心,颗粒物(PM10),55,60,42,37,30,54,,62,58,33,24,11,10,1.0,0.9
2024-11-03T0900,2339A,119.5001,26.6946,宁德市,金涵水库,,,,,,,,,,,,,,,,
2024-11-03T0900,2341A,119.5388,26.6612,宁德市,宁德市监测站,,28,23,16,19,9,82,,89,89,13,9,3,2,0.5,0.4
2024-11-03T0900,3209A,119.5231,26.6562,宁德市,宁德一中,,30,24,17,18,10,93,,95,95,9,7,4,3,0.4,0.3
2024-11-03T0900,2618A,98.8601,25.8567,怒江傈僳族自治州,州监测站,,25,25,31,14,20,33,,34,34,7,12,7,6,0.4,0.5
2024-11-03T0900,2619A,98.8546,25.8417,怒江傈僳族自治州,泸水一中,,26,23,28,18,19,8,,16,16,18,16,7,7,0.5,0.5
2024-11-03T0900,1888A,101.6891,26.571,攀枝花市,弄弄坪,颗粒物(PM10),56,61,38,25,20,6,,5,5,26,27,18,11,1.4,1
2024-11-03T0900,1889A,101.5769,26.5928,攀枝花市,河门口,颗粒物(PM10),52,54,36,27,21,8,,11,10,22,25,12,18,1.6,1.6
2024-11-03T0900,1890A,101.7169,26.585,攀枝花市,炳草岗,颗粒物(PM10),55,59,41,27,21,7,,7,7,18,25,19,11,0.9,0.9
2024-11-03T0900,1891A,101.7369,26.5008,攀枝花市,仁和,,18,18,28,12,21,7,,7,6,14,17,4,7,0.7,0.8
2024-11-03T0900,2835A,101.7227,26.567,攀枝花市,四十中小,,44,44,29,20,16,7,,7,7,11,12,23,13,1.2,1.1
2024-11-03T0900,1604A,122.0303,41.1489,盘锦市,开发区,细颗粒物(PM2.5),80,,56,59,48,43,,42,41,22,35,6,8,0.8,0.8
2024-11-03T0900,1605A,122.0485,41.0883,盘锦市,兴隆台,细颗粒物(PM2.5),68,,57,49,47,45,,34,34,25,50,6,9,0.8,0.8
2024-11-03T0900,1606A,121.8297,41.1028,盘锦市,新生街道,细颗粒物(PM2.5),83,,49,61,46,65,,51,51,24,31,9,9,0.8,0.5
2024-11-03T0900,1832A,113.3257,33.742,平顶山市,新华旅馆,细颗粒物(PM2.5),112,133,122,84,78,52,,22,22,44,41,8,9,0.7,0.7
2024-11-03T0900,1833A,113.2919,33.737,平顶山市,规划设计院,细颗粒物(PM2.5),140,149,109,107,80,37,,58,54,61,34,7,8,0.9,0.9
2024-11-03T0900,1834A,113.182,33.774,平顶山市,平顶山工学院,细颗粒物(PM2.5),144,140,93,110,69,32,,49,44,39,22,9,8,0.9,0.8
2024-11-03T0900,3204A,113.3025,33.73,平顶山市,规划局,细颗粒物(PM2.5),148,141,110,113,89,34,,39,36,56,34,7,8,1.2,1.1
2024-11-03T0900,3594A,112.8867,33.9116,平顶山市,石龙区,细颗粒物(PM2.5),94,116,98,70,60,22,,23,16,49,35,10,10,0.9,0.9
2024-11-03T0900,2656A,106.6692,35.5461,平凉市,聚贤嘉苑,颗粒物(PM10),51,51,48,35,32,85,,,,26,37,9,8,0.3,0.5
2024-11-03T0900,2657A,106.7021,35.5307,平凉市,博物馆,颗粒物(PM10),56,61,58,29,35,93,,,,22,28,22,9,0.4,0.6
2024-11-03T0900,2347A,114.0997,27.5002,萍乡市,武功山,,6,6,22,3,4,18,,,,7,8,10,9,0.3,0.3
2024-11-03T0900,2348A,113.8385,27.6434,萍乡市,中医院,颗粒物(PM10),65,79,77,45,50,19,,,,30,31,22,11,1.3,1
2024-11-03T0900,2349A,113.8493,27.6253,萍乡市,市政府车库,颗粒物(PM10),57,63,68,35,50,22,,,,23,21,10,7,2.0,1.1
2024-11-03T0900,2350A,113.8676,27.6435,萍乡市,市环保局,细颗粒物(PM2.5),77,,68,56,47,23,,17,17,29,27,22,12,0.7,0.9
2024-11-03T0900,2351A,113.866,27.6198,萍乡市,安源区政府,颗粒物(PM10),58,65,71,33,41,21,,,,25,20,16,14,1.8,1.1
2024-11-03T0900,2319A,119.0141,25.4325,莆田市,荔城区仓后路,,29,23,19,11,7,91,,88,88,6,8,1,1,0.5,0.5
2024-11-03T0900,2320A,119.0015,25.4553,莆田市,莆田市监测站,,29,16,15,12,7,91,,90,90,3,4,2,2,0.3,0.3
2024-11-03T0900,2321A,119.1119,25.4561,莆田市,涵江区六中,,30,24,20,11,7,96,,95,95,6,6,2,2,0.4,0.4
2024-11-03T0900,2322A,119.1013,25.3215,莆田市,秀屿区政府,,31,30,19,18,7,99,,92,92,9,7,2,3,0.5,0.6
2024-11-03T0900,2323A,118.981,25.4792,莆田市,东圳水库,,,,15,,5,,,,,,6,,3,,0.3
2024-11-03T0900,2392A,115.0312,35.7636,濮阳市,环保局,细颗粒物(PM2.5),134,,59,102,68,94,,108,106,20,15,4,4,0.8,0.7
2024-11-03T0900,2394A,115.0574,35.7609,濮阳市,油田运输公司,细颗粒物(PM2.5),129,136,89,98,67,87,,103,101,32,21,5,5,0.7,0.6
2024-11-03T0900,2395A,115.0866,35.7754,濮阳市,油田物探公司,细颗粒物(PM2.5),150,151,93,115,72,71,,80,80,31,21,3,3,0.7,0.6
2024-11-03T0900,3021A,115,35.7668,濮阳市,濮水河管理处,细颗粒物(PM2.5),143,156,97,109,68,69,,64,64,25,17,3,3,0.7,0.6
2024-11-03T0900,2601A,100.98,22.7633,普洱市,市环保局,,39,32,34,27,25,19,,26,26,12,8,6,6,0.7,0.5
2024-11-03T0900,2602A,100.9817,22.8322,普洱市,普洱第二中学,颗粒物(PM10),51,51,38,14,15,15,,11,10,13,12,8,7,0.6,0.6
2024-11-03T0900,2262A,131.0518,45.8751,七台河市,新一中,细颗粒物(PM2.5),118,101,69,89,56,26,,14,14,29,27,19,10,1.2,1.2
2024-11-03T0900,3345A,131.0577,45.7879,七台河市,中波台,细颗粒物(PM2.5),89,91,62,66,43,16,,10,10,31,31,9,10,1.0,0.8
2024-11-03T0900,3637A,131.0176,45.7761,七台河市,人民广场,细颗粒物(PM2.5),95,128,66,71,46,17,,,,37,32,10,8,1.4,0.8
2024-11-03T0900,3684A,130.8781,45.8222,七台河市,新建矿广场,颗粒物(PM10),104,158,110,64,48,8,,5,5,48,40,18,9,1.0,0.7
2024-11-03T0900,1779A,123.9305,47.3636,齐齐哈尔市,安居小区,颗粒物(PM10),51,51,56,34,34,22,,40,36,18,22,4,5,0.4,0.4
2024-11-03T0900,1780A,123.9488,47.3386,齐齐哈尔市,中心广场,,48,43,54,33,39,18,,38,38,23,21,4,5,0.5,0.4
2024-11-03T0900,1781A,123.9483,47.3227,齐齐哈尔市,农牧车辆厂,颗粒物(PM10),59,68,53,30,29,14,,36,31,29,18,6,6,0.5,0.4
2024-11-03T0900,1783A,123.945,47.2988,齐齐哈尔市,市环境监测站,,46,44,51,32,39,11,,,,31,17,2,4,0.4,0.4
2024-11-03T0900,3662A,123.6333,47.2075,齐齐哈尔市,富区青少年活动中心,颗粒物(PM10),93,135,97,52,63,8,,24,21,39,19,13,8,1.1,0.6
2024-11-03T0900,2591A,107.9783,26.5747,黔东南苗族侗族自治州,市环境监测站,细颗粒物(PM2.5),60,58,48,43,35,18,,40,36,36,26,6,5,0.6,0.4
2024-11-03T0900,2881A,107.8908,26.5311,黔东南苗族侗族自治州,凯里学院,,45,34,36,31,28,26,,38,38,24,20,4,4,0.6,0.5
2024-11-03T0900,2593A,107.5228,26.2403,黔南布依族苗族自治州,小围寨,,42,34,33,29,26,25,,38,38,10,10,3,5,0.3,0.4
2024-11-03T0900,3538A,107.5175,26.2978,黔南布依族苗族自治州,沙坝,细颗粒物(PM2.5),52,46,40,36,27,25,,30,30,13,13,4,4,0.6,0.6
2024-11-03T0900,2589A,104.9022,25.0925,黔西南布依族苗族自治州,场坝街,,37,37,36,24,21,66,,52,52,10,15,6,10,0.5,0.5
2024-11-03T0900,2590A,104.8811,25.0992,黔西南布依族苗族自治州,坪东大道,,36,29,26,25,21,58,,38,38,9,18,6,5,0.5,0.5
2024-11-03T0900,2502A,108.6236,21.9667,钦州市,市环保站,细颗粒物(PM2.5),77,95,78,56,42,81,,,,24,21,12,10,1.0,1
2024-11-03T0900,2503A,108.6549,21.9481,钦州市,沙埠小学,细颗粒物(PM2.5),94,84,79,70,62,85,,97,97,23,20,10,9,0.9,0.8
2024-11-03T0900,2504A,108.5989,21.7431,钦州市,港区一小,细颗粒物(PM2.5),85,108,90,63,47,61,,100,100,47,25,12,9,0.9,0.8
2024-11-03T0900,3404A,108.5959,21.9633,钦州市,北职校,细颗粒物(PM2.5),89,94,72,66,55,80,,92,91,25,19,12,10,1.9,1.2
2024-11-03T0900,1042A,119.5134,39.8207,秦皇岛市,北戴河环保局,颗粒物(PM10),75,100,54,52,26,42,,38,38,24,21,6,5,1.2,0.6
2024-11-03T0900,1043A,119.7493,40.0116,秦皇岛市,第一关,细颗粒物(PM2.5),129,114,59,98,40,24,,6,6,68,65,10,6,1.4,0.6
2024-11-03T0900,1044A,119.5897,39.9499,秦皇岛市,监测站,细颗粒物(PM2.5),98,105,65,73,29,49,,45,45,36,35,10,8,1.3,0.8
2024-11-03T0900,1046A,119.5251,39.9041,秦皇岛市,建设大厦,细颗粒物(PM2.5),109,98,58,82,36,50,,42,42,35,38,5,5,1.3,0.7
2024-11-03T0900,3132A,119.610547,39.943889,秦皇岛市,文明里,细颗粒物(PM2.5),84,106,68,62,38,40,,37,37,44,37,8,6,1.2,0.6
2024-11-03T0900,1307A,120.6659,36.2403,青岛市,仰口,,24,23,53,11,38,74,,95,91,14,12,7,8,0.5,0.6
2024-11-03T0900,1310A,120.4134,36.0658,青岛市,市南区东部子站,,,,108,,50,,,86,,,43,,8,,0.8
2024-11-03T0900,1311A,120.3664,36.1032,青岛市,四方区子站,,46,46,107,22,62,69,,54,54,46,63,10,11,0.5,0.8
2024-11-03T0900,1312A,120.2994,36.054,青岛市,市南区西部子站,颗粒物(PM10),65,80,100,42,49,39,,53,51,78,61,13,11,0.9,0.9
2024-11-03T0900,1313A,120.4581,36.0858,青岛市,崂山区子站,,33,19,82,3,42,104,,74,74,17,43,9,10,0.6,0.9
2024-11-03T0900,1314A,120.1983,35.9608,青岛市,黄岛区子站,颗粒物(PM10),75,100,101,51,50,61,,29,29,60,73,10,11,0.9,0.9
2024-11-03T0900,1315A,120.3999,36.3083,青岛市,城阳区子站,颗粒物(PM10),54,58,96,22,49,34,,38,35,68,59,9,9,0.8,1
2024-11-03T0900,1966A,120.0405,35.8735,青岛市,黄岛区4号,"颗粒物(PM10),细颗粒物(PM2.5)",70,90,80,51,44,56,,57,55,71,52,10,8,0.9,0.8
2024-11-03T0900,3362A,120.5014,36.4034,青岛市,即墨2号,,38,38,89,15,35,68,,89,85,41,36,7,8,0.6,0.7
2024-11-03T0900,3642A,120.3503,36.0736,青岛市,市北区南部,颗粒物(PM10),55,59,89,24,54,71,,73,72,38,55,8,8,0.8,1.1
2024-11-03T0900,3643A,120.3948,36.1805,青岛市,李沧区北部,颗粒物(PM10),54,58,89,24,52,51,,90,84,59,46,10,10,0.9,0.9
2024-11-03T0900,1702A,113.0426,23.691,清远市,环保大楼,,43,38,33,30,27,86,,90,89,15,12,6,5,0.8,0.8
2024-11-03T0900,1703A,113.0208,23.7106,清远市,凤城街办,,43,40,34,30,25,86,,89,88,9,8,8,8,0.8,0.7
