timepoint,stationcode,longitude,latitude,area,positionname,primarypollutant,aqi,pm10,pm10_24h,pm2_5,pm2_5_24h,o3,o3_24h,o3_8h,o3_8h_24h,no2,no2_24h,so2,so2_24h,co,co_24h
2023-10-28T01:00:00,1001A,116.3621,39.8784,北京市,万寿西宫,颗粒物(PM10),74,98,91,44,33,68,0,,,99,69,1,1,1.1,0.7
2023-10-28T01:00:00,1002A,116.2202,40.2915,北京市,定陵,颗粒物(PM10),58,65,69,27,23,26,8,,,26,33,1,2,0.5,0.6
2023-10-28T01:00:00,1003A,116.4174,39.9289,北京市,东四,颗粒物(PM10),82,114,96,45,33,69,0,,,90,58,2,2,1.4,0.8
2023-10-28T01:00:00,1004A,116.4072,39.8863,北京市,天坛,颗粒物(PM10),73,96,80,45,31,63,1,,,62,50,3,3,1.2,0.6
2023-10-28T01:00:00,1005A,116.462,39.9365,北京市,农展馆,颗粒物(PM10),85,119,87,50,32,67,0,,,85,61,5,4,1.5,0.7
2023-10-28T01:00:00,1006A,116.3392,39.9295,北京市,官园,颗粒物(PM10),77,104,93,39,32,71,0,,,83,59,2,3,1.0,0.8
2023-10-28T01:00:00,1007A,116.2878,39.9611,北京市,海淀万柳,颗粒物(PM10),71,92,92,31,31,61,6,,,72,64,3,2,1.0,0.9
2023-10-28T01:00:00,1008A,116.6636,40.135,北京市,顺义新城,颗粒物(PM10),76,102,80,40,27,66,1,,,70,48,3,3,0.6,0.5
2023-10-28T01:00:00,1009A,116.6275,40.3275,北京市,怀柔镇,颗粒物(PM10),52,54,58,23,21,74,32,,,21,29,1,2,0.5,0.5
2023-10-28T01:00:00,1010A,116.2296,40.217,北京市,昌平镇,颗粒物(PM10),61,71,78,29,27,53,29,,,36,48,4,5,0.6,0.6
2023-10-28T01:00:00,1011A,116.3966,39.9821,北京市,奥体中心,颗粒物(PM10),81,111,93,41,33,62,1,,,86,65,3,3,1.0,0.7
2023-10-28T01:00:00,1012A,116.184,39.9136,北京市,古城,颗粒物(PM10),70,89,94,31,30,61,2,,,49,43,2,2,1.1,1
2023-10-28T01:00:00,1015A,117.1444,39.1661,天津市,勤俭道,颗粒物(PM10),99,148,109,64,40,137,4,,,92,58,9,10,1.1,0.8
2023-10-28T01:00:00,1017A,117.237,39.1082,天津市,大直沽八号路,颗粒物(PM10),97,144,99,61,34,123,10,,,94,57,5,6,0.8,0.6
2023-10-28T01:00:00,1018A,117.202,39.0927,天津市,前进道,颗粒物(PM10),90,130,88,58,32,128,3,,,104,60,8,8,0.9,0.7
2023-10-28T01:00:00,1019A,117.1837,39.2133,天津市,淮河道,颗粒物(PM10),97,144,110,64,40,166,4,,,100,59,8,8,1.0,0.7
2023-10-28T01:00:00,1021A,117.307,39.0877,天津市,跃进路,颗粒物(PM10),104,158,98,61,31,132,1,,,90,59,8,9,0.3,0.6
2023-10-28T01:00:00,1023A,117.707,39.0343,天津市,第四大街,颗粒物(PM10),82,114,76,43,22,101,19,,,87,60,7,8,0.7,0.8
2023-10-28T01:00:00,1024A,117.457,38.8394,天津市,永明路,颗粒物(PM10),91,131,76,51,23,98,2,,,102,52,7,7,0.7,0.5
2023-10-28T01:00:00,1026A,117.764,39.1587,天津市,汉北路,颗粒物(PM10),80,109,76,38,23,106,1,,,81,55,8,9,0.9,0.7
2023-10-28T01:00:00,1027A,117.157,38.9194,天津市,团泊洼,颗粒物(PM10),105,159,85,70,30,113,12,,,66,42,6,7,0.9,0.7
2023-10-28T01:00:00,1029A,114.4422,38.0444,石家庄市,职工医院,颗粒物(PM10),80,109,95,49,35,158,12,,,99,60,9,10,1.3,0.9
2023-10-28T01:00:00,1030A,114.6063,38.0266,石家庄市,高新区,颗粒物(PM10),108,166,109,74,38,150,13,,,89,57,3,5,1.1,0.8
2023-10-28T01:00:00,1031A,114.4898,38.1328,石家庄市,西北水源,颗粒物(PM10),86,122,111,48,37,144,14,,,64,57,2,6,1.2,0.9
2023-10-28T01:00:00,1032A,114.4586,38.0058,石家庄市,西南高教,颗粒物(PM10),80,110,94,46,36,162,27,,,77,51,8,8,1.3,0.9
2023-10-28T01:00:00,1033A,114.5331,38.0178,石家庄市,世纪公园,颗粒物(PM10),83,116,88,56,36,149,42,,,50,44,7,8,1.1,0.9
2023-10-28T01:00:00,1034A,114.509,38.0457,石家庄市,人民会堂,颗粒物(PM10),77,103,95,50,45,158,51,,,50,49,8,10,1.2,0.9
2023-10-28T01:00:00,1035A,114.3524,37.8911,石家庄市,封龙山,颗粒物(PM10),57,64,90,34,32,161,112,,,10,14,14,15,0.8,0.9
2023-10-28T01:00:00,1037A,118.131,39.6363,唐山市,雷达站,颗粒物(PM10),84,118,90,50,34,116,0,,,66,52,3,4,0.9,0.8
2023-10-28T01:00:00,1038A,118.1725,39.6334,唐山市,物资局,颗粒物(PM10),82,114,80,52,32,110,2,,,59,46,7,7,0.8,0.6
2023-10-28T01:00:00,1040A,118.1705,39.6506,唐山市,十二中,颗粒物(PM10),110,170,84,56,32,108,0,,,58,44,4,3,1.0,0.7
2023-10-28T01:00:00,1041A,118.1869,39.622,唐山市,小山,颗粒物(PM10),93,136,81,50,22,110,0,,,57,48,4,3,1.0,0.6
2023-10-28T01:00:00,1042A,119.5134,39.8207,秦皇岛市,北戴河环保局,,44,44,63,13,15,87,45,,,33,44,9,17,0.4,0.9
2023-10-28T01:00:00,1043A,119.7493,40.0116,秦皇岛市,第一关,,47,47,71,29,27,97,47,,,34,53,12,14,0.6,0.9
2023-10-28T01:00:00,1044A,119.5897,39.9499,秦皇岛市,监测站,颗粒物(PM10),60,69,67,40,28,84,6,,,70,51,9,15,0.8,1
2023-10-28T01:00:00,1046A,119.5251,39.9041,秦皇岛市,建设大厦,颗粒物(PM10),100,150,76,46,21,77,3,,,62,52,6,10,0.7,0.8
2023-10-28T01:00:00,1048A,114.5302,36.6116,邯郸市,东污水处理厂,细颗粒物(PM2.5),119,122,95,90,55,140,46,,,50,42,6,11,0.9,1.1
2023-10-28T01:00:00,1049A,114.4918,36.5713,邯郸市,矿院,细颗粒物(PM2.5),117,111,88,88,55,141,28,,,54,43,4,8,0.7,1
2023-10-28T01:00:00,1050A,114.484,36.6133,邯郸市,丛台公园,细颗粒物(PM2.5),128,154,101,97,55,142,37,,,59,42,9,11,0.8,1.3
2023-10-28T01:00:00,1051A,115.493,38.8632,保定市,游泳馆,细颗粒物(PM2.5),107,138,113,80,57,148,3,,,89,61,11,11,1.0,0.9
2023-10-28T01:00:00,1052A,115.5213,38.8959,保定市,华电二区,细颗粒物(PM2.5),104,106,90,78,42,134,1,,,80,47,8,10,0.9,0.8
2023-10-28T01:00:00,1053A,115.4713,38.9108,保定市,接待中心,颗粒物(PM10),98,145,115,65,44,136,0,,,84,53,6,9,1.5,1
2023-10-28T01:00:00,1054A,115.4612,38.8416,保定市,地表水厂,颗粒物(PM10),117,183,130,63,42,133,4,,,90,65,10,11,1.7,1.1
2023-10-28T01:00:00,1056A,115.5086,38.8639,保定市,监测站,颗粒物(PM10),91,131,117,65,43,143,2,,,96,65,11,11,1.0,0.9
2023-10-28T01:00:00,1057A,114.8883,40.8336,张家口市,人民公园,,50,50,50,10,11,93,62,,,13,20,1,3,0.5,0.5
2023-10-28T01:00:00,1059A,114.8687,40.8042,张家口市,五金库,,39,39,55,15,17,91,63,,,15,30,3,5,0.2,0.2
2023-10-28T01:00:00,1060A,114.8902,40.762,张家口市,世纪豪园,,45,45,47,20,14,104,65,,,14,24,1,3,0.5,0.5
2023-10-28T01:00:00,1061A,114.8916,40.8661,张家口市,北泵房,颗粒物(PM10),53,55,43,16,16,107,64,,,11,15,7,8,0.2,0.3
2023-10-28T01:00:00,1062A,117.9531,40.9081,承德市,铁路,,30,30,48,12,13,67,8,,,39,42,6,12,0.6,0.7
2023-10-28T01:00:00,1063A,117.9392,40.9763,承德市,中国银行,颗粒物(PM10),51,52,51,18,14,68,1,,,43,40,7,10,0.7,0.7
2023-10-28T01:00:00,1064A,117.9503,40.928,承德市,开发区,颗粒物(PM10),54,57,56,26,18,66,1,,,50,44,6,11,0.9,0.7
2023-10-28T01:00:00,1065A,117.8051,40.9655,承德市,文化中心,颗粒物(PM10),55,60,71,9,15,78,1,,,59,52,4,13,0.6,0.7
2023-10-28T01:00:00,1066A,117.9268,41.0026,承德市,离宫,,42,42,33,25,17,69,1,,,46,31,2,5,0.4,0.5
2023-10-28T01:00:00,1067A,116.6708,39.5111,廊坊市,药材公司,颗粒物(PM10),95,139,103,68,41,110,9,,,87,62,5,6,0.9,0.6
2023-10-28T01:00:00,1068A,116.7214,39.5589,廊坊市,开发区,颗粒物(PM10),75,99,90,52,39,108,0,,,72,54,2,4,0.8,0.5
2023-10-28T01:00:00,1070A,116.7244,39.5269,廊坊市,北华航天学院,细颗粒物(PM2.5),90,128,100,67,40,109,1,,,86,58,6,8,0.8,0.6
2023-10-28T01:00:00,1071A,116.8842,38.2991,沧州市,沧县城建局,颗粒物(PM10),84,118,70,56,24,97,69,,,42,41,12,9,0.7,0.5
2023-10-28T01:00:00,1072A,116.8584,38.3254,沧州市,电视转播站,细颗粒物(PM2.5),92,102,62,68,24,99,66,,,29,37,11,11,0.4,0.4
2023-10-28T01:00:00,1073A,116.8709,38.3228,沧州市,市环保局,颗粒物(PM10),87,124,69,56,30,98,69,,,30,36,9,8,0.6,0.4
2023-10-28T01:00:00,1074A,115.6838,37.7541,衡水市,电机北厂,细颗粒物(PM2.5),128,161,88,97,31,145,115,,,23,29,3,4,0.7,0.4
2023-10-28T01:00:00,1075A,115.6303,37.7316,衡水市,市监测站,细颗粒物(PM2.5),118,144,78,89,31,124,81,,,41,43,9,8,0.7,0.4
2023-10-28T01:00:00,1077A,114.4704,37.0886,邢台市,达活泉,颗粒物(PM10),87,124,106,52,42,136,25,,,69,33,19,11,1.7,1.2
2023-10-28T01:00:00,1078A,114.5062,37.0349,邢台市,邢师高专,颗粒物(PM10),88,126,101,52,42,134,11,,,77,50,8,7,1.0,0.7
2023-10-28T01:00:00,1079A,114.5237,37.0851,邢台市,路桥公司,细颗粒物(PM2.5),105,146,101,79,50,143,23,,,77,48,12,9,1.0,0.9
2023-10-28T01:00:00,1080A,114.4725,37.0719,邢台市,市环保局,颗粒物(PM10),88,125,111,56,43,142,19,,,68,33,16,12,1.4,1
2023-10-28T01:00:00,1081A,112.522,37.8873,太原市,尖草坪,颗粒物(PM10),87,123,90,54,38,115,4,,,92,65,9,13,0.9,0.8
2023-10-28T01:00:00,1083A,112.434,38.0108,太原市,上兰,,,,,,,,,,,,,,,,
2023-10-28T01:00:00,1084A,112.469,37.7124,太原市,晋源,颗粒物(PM10),79,108,83,42,39,122,7,,,78,63,8,11,1.1,1
2023-10-28T01:00:00,1085A,112.5583,37.7394,太原市,小店,颗粒物(PM10),103,155,123,55,46,114,3,,,96,72,14,13,1.1,1
2023-10-28T01:00:00,1086A,112.5369,37.8692,太原市,桃园,颗粒物(PM10),92,134,100,52,38,113,3,,,102,74,10,16,1.1,1
2023-10-28T01:00:00,1087A,112.57,37.8195,太原市,坞城,颗粒物(PM10),88,126,93,60,39,118,4,,,93,70,7,13,0.9,0.9
2023-10-28T01:00:00,1088A,112.549,37.9854,太原市,南寨,颗粒物(PM10),76,102,95,41,33,107,5,,,69,63,4,10,0.6,0.6
2023-10-28T01:00:00,1090A,111.6507,40.7517,呼和浩特市,呼市一监,颗粒物(PM10),65,80,96,36,42,98,17,,,75,60,11,15,0.6,0.7
2023-10-28T01:00:00,1091A,111.6572,40.8033,呼和浩特市,小召,颗粒物(PM10),65,80,99,40,44,83,7,,,93,70,13,16,0.8,0.9
2023-10-28T01:00:00,1094A,111.7516,40.8369,呼和浩特市,如意水处理厂,颗粒物(PM10),65,80,90,31,36,100,3,,,89,64,10,15,0.6,0.7
2023-10-28T01:00:00,1095A,111.7276,40.8062,呼和浩特市,二十九中,颗粒物(PM10),69,87,93,36,41,104,7,,,92,64,17,16,0.6,0.7
2023-10-28T01:00:00,1096A,111.5512,40.7866,呼和浩特市,工大金川校区,颗粒物(PM10),74,97,88,30,35,99,2,,,92,64,10,13,0.6,0.6
2023-10-28T01:00:00,1097A,111.717,40.7612,呼和浩特市,化肥厂生活区,颗粒物(PM10),78,106,109,39,45,103,8,,,77,59,12,17,0.6,0.7
2023-10-28T01:00:00,1098A,123.6836,41.9339,沈阳市,森林路,,,,,,,,,,,,,,,,
2023-10-28T01:00:00,1099A,123.505,41.7406,沈阳市,浑南东路,颗粒物(PM10),68,85,77,39,40,109,4,,,66,42,11,11,0.7,0.9
2023-10-28T01:00:00,1100A,123.4231,41.6989,沈阳市,新秀街,颗粒物(PM10),65,80,75,43,44,106,6,,,78,51,14,15,0.7,0.9
2023-10-28T01:00:00,1102A,123.5903,41.8411,沈阳市,东陵路,细颗粒物(PM2.5),64,72,67,46,37,85,8,,,48,35,9,13,0.6,0.8
2023-10-28T01:00:00,1103A,123.4264,41.8467,沈阳市,陵东街,颗粒物(PM10),81,112,90,55,40,72,5,,,72,58,9,11,1.0,1.1
2023-10-28T01:00:00,1104A,123.4114,41.7653,沈阳市,文化路,细颗粒物(PM2.5),113,135,88,85,45,93,9,,,77,48,17,15,0.9,1
2023-10-28T01:00:00,1105A,123.4678,41.7867,沈阳市,小河沿,细颗粒物(PM2.5),72,91,73,52,37,89,7,,,76,50,11,10,0.8,1
2023-10-28T01:00:00,1106A,123.4017,41.7972,沈阳市,太原街,细颗粒物(PM2.5),94,97,76,70,47,76,5,,,74,57,11,10,1.0,1.1
2023-10-28T01:00:00,1108A,123.3783,41.9228,沈阳市,京沈街,细颗粒物(PM2.5),142,125,70,108,45,75,10,,,73,43,23,17,0.9,0.8
2023-10-28T01:00:00,1109A,121.612,38.9741,大连市,甘井子,,36,36,29,15,11,102,40,,,53,31,5,6,0.6,0.6
2023-10-28T01:00:00,1110A,121.565,38.9511,大连市,周水子,,45,45,34,17,10,97,33,,,49,41,7,8,1.1,0.8
2023-10-28T01:00:00,1111A,121.5637,38.8845,大连市,星海三站,,34,34,30,14,9,104,58,,,25,27,14,7,0.7,0.6
2023-10-28T01:00:00,1112A,121.6302,38.9117,大连市,青泥洼桥,,28,28,27,8,8,88,78,,,16,34,7,8,0.7,0.7
2023-10-28T01:00:00,1113A,121.6251,38.8638,大连市,傅家庄,,34,34,24,11,6,110,88,,,18,19,15,11,0.6,0.4
2023-10-28T01:00:00,1114A,121.5213,38.8661,大连市,七贤岭,,39,39,31,10,8,111,40,,,33,31,5,6,0.6,0.5
2023-10-28T01:00:00,1115A,121.2529,38.8061,大连市,旅顺,,24,24,25,5,6,106,76,,,20,27,8,8,0.6,0.5
2023-10-28T01:00:00,1116A,121.7485,39.1311,大连市,金州,,26,23,29,6,9,91,83,,,12,21,8,9,0.5,0.6
2023-10-28T01:00:00,1117A,121.7811,39.0496,大连市,开发区,,44,44,33,20,11,88,42,,,50,40,8,7,0.6,0.5
2023-10-28T01:00:00,1118A,121.9762,39.0631,大连市,双D港,,26,26,25,9,6,103,64,,,35,26,7,9,0.4,0.5
2023-10-28T01:00:00,1119A,125.3325,43.9166,长春市,食品厂,细颗粒物(PM2.5),142,222,124,108,65,49,8,,,79,58,9,10,1.8,1
2023-10-28T01:00:00,1120A,125.2863,43.9027,长春市,客车厂,细颗粒物(PM2.5),92,99,94,68,56,49,10,,,72,60,8,10,1.3,1
2023-10-28T01:00:00,1121A,125.2841,43.8463,长春市,邮电学院,细颗粒物(PM2.5),85,108,81,63,42,60,10,,,67,50,7,9,1.0,0.6
2023-10-28T01:00:00,1122A,125.3716,43.8772,长春市,劳动公园,颗粒物(PM10),110,170,100,69,47,54,11,,,64,53,8,8,1.4,0.8
2023-10-28T01:00:00,1123A,125.3297,43.8805,长春市,园林处,细颗粒物(PM2.5),95,114,74,71,39,50,10,,,64,51,10,11,1.7,0.9
2023-10-28T01:00:00,1124A,125.4605,43.79,长春市,净月潭,,19,19,28,11,13,68,55,,,8,17,7,8,0.3,0.3
2023-10-28T01:00:00,1125A,125.7194,43.515,长春市,甩湾子,,,,,,,,,,,,,,,,
2023-10-28T01:00:00,1126A,125.3863,43.8447,长春市,经开区环卫处,颗粒物(PM10),130,209,126,52,38,56,6,,,59,51,9,8,0.9,0.7
2023-10-28T01:00:00,1127A,125.245,43.7783,长春市,高新区管委会,细颗粒物(PM2.5),82,104,85,60,46,68,4,,,53,46,9,9,0.9,0.8
2023-10-28T01:00:00,1128A,125.1761,43.8325,长春市,岱山公园,颗粒物(PM10),120,190,111,59,45,60,6,,,82,63,14,11,1.1,0.8
2023-10-28T01:00:00,1129A,126.5422,45.755,哈尔滨市,岭北,颗粒物(PM10),66,82,39,40,17,71,3,,,14,22,16,15,1.2,0.8
2023-10-28T01:00:00,1130A,126.561,45.8167,哈尔滨市,松北商大,"颗粒物(PM10),细颗粒物(PM2.5)",100,150,58,75,25,63,8,,,66,45,9,8,1.2,0.6
2023-10-28T01:00:00,1131A,126.979,45.5419,哈尔滨市,阿城会宁,颗粒物(PM10),68,85,71,34,30,65,6,,,46,33,7,7,0.7,0.7
2023-10-28T01:00:00,1132A,126.599,45.7222,哈尔滨市,南岗学府路,颗粒物(PM10),77,104,57,49,22,64,4,,,66,40,13,10,0.9,0.6
2023-10-28T01:00:00,1133A,126.689,45.7733,哈尔滨市,太平宏伟公园,细颗粒物(PM2.5),123,167,85,93,39,60,6,,,60,45,11,8,0.8,0.8
2023-10-28T01:00:00,1134A,126.635,45.7667,哈尔滨市,道外承德广场,"颗粒物(PM10),细颗粒物(PM2.5)",85,120,55,63,27,65,6,,,65,42,7,5,1.5,0.8
2023-10-28T01:00:00,1135A,126.685,45.7319,哈尔滨市,香坊红旗大街,细颗粒物(PM2.5),139,150,58,106,31,68,12,,,74,47,12,7,1.6,0.7
2023-10-28T01:00:00,1136A,126.6411,45.7258,哈尔滨市,动力和平路,细颗粒物(PM2.5),87,107,76,64,40,62,8,,,76,56,12,11,0.7,0.8
2023-10-28T01:00:00,1137A,126.593,45.7478,哈尔滨市,道里建国路,颗粒物(PM10),63,76,53,37,25,63,6,,,68,43,16,9,2.8,1
2023-10-28T01:00:00,1138A,126.615,45.61,哈尔滨市,平房东轻厂,细颗粒物(PM2.5),52,52,58,36,27,70,9,,,61,45,9,10,0.6,0.6
2023-10-28T01:00:00,1139A,126.595,45.9855,哈尔滨市,呼兰师专,细颗粒物(PM2.5),210,175,82,160,35,72,15,,,74,42,11,8,1.8,0.8
2023-10-28T01:00:00,1140A,126.6206,45.6842,哈尔滨市,省农科院,颗粒物(PM10),96,141,62,50,27,72,11,,,74,49,20,12,0.9,0.6
2023-10-28T01:00:00,1141A,121.4,31.238,上海市,普陀,,24,16,56,8,38,134,40,,,47,42,5,5,0.5,0.7
2023-10-28T01:00:00,1142A,121.478,31.2036,上海市,十五厂,,23,13,55,4,31,138,51,,,45,41,6,6,0.3,0.6
2023-10-28T01:00:00,1143A,121.467,31.3008,上海市,虹口,,39,17,49,8,35,128,24,,,77,56,7,5,0.4,0.6
2023-10-28T01:00:00,1144A,121.412,31.1654,上海市,徐汇上师大,,25,14,57,10,48,151,43,,,49,40,8,9,0.7,0.9
2023-10-28T01:00:00,1145A,121.536,31.2659,上海市,杨浦四漂,,46,23,62,9,39,135,9,,,91,58,9,9,0.4,0.5
2023-10-28T01:00:00,1147A,121.425,31.2261,上海市,静安监测站,,21,14,52,10,44,151,57,,,42,41,5,6,0.4,0.6
2023-10-28T01:00:00,1148A,121.703,31.1907,上海市,浦东川沙,,17,15,47,8,37,139,39,,,34,30,6,7,0.5,0.7
2023-10-28T01:00:00,1149A,121.533,31.2284,上海市,浦东新区监测站,,24,15,50,10,34,126,39,,,48,44,8,7,0.7,0.8
2023-10-28T01:00:00,1150A,121.577,31.2071,上海市,浦东张江,,21,17,51,2,39,134,21,,,41,32,5,5,0.5,0.7
2023-10-28T01:00:00,1151A,118.8086,32.1065,南京市,迈皋桥,,48,48,110,9,59,147,27,,,42,40,3,3,0.5,0.9
2023-10-28T01:00:00,1152A,118.7538,32.0551,南京市,草场门,,39,39,101,17,62,148,20,,,51,40,3,4,0.4,0.8
2023-10-28T01:00:00,1153A,118.7794,32.0745,南京市,山西路,颗粒物(PM10),51,51,111,12,67,154,34,,,35,32,7,7,0.6,0.9
2023-10-28T01:00:00,1154A,118.7752,32.0023,南京市,中华门,颗粒物(PM10),52,53,109,14,61,158,11,,,58,43,4,5,0.8,1.2
2023-10-28T01:00:00,1155A,118.8109,32.0309,南京市,瑞金路,,48,48,117,14,57,141,24,,,45,36,6,6,0.4,0.7
2023-10-28T01:00:00,1156A,118.7997,32.0754,南京市,玄武湖,,32,32,90,13,66,145,33,,,31,32,6,6,0.7,0.7
2023-10-28T01:00:00,1157A,118.6414,32.0931,南京市,浦口,,48,48,92,22,68,133,26,,,57,45,5,6,0.7,1
2023-10-28T01:00:00,1158A,118.7356,31.9996,南京市,奥体中心,颗粒物(PM10),53,56,121,17,67,155,21,,,59,42,8,8,0.4,0.7
2023-10-28T01:00:00,1159A,118.9125,32.1028,南京市,仙林大学城,颗粒物(PM10),52,53,101,17,63,158,32,,,43,36,3,2,0.7,1
2023-10-28T01:00:00,1160A,120.561,31.2472,苏州市,上方山,,29,29,85,14,45,153,41,,,31,34,8,6,0.5,0.8
2023-10-28T01:00:00,1162A,120.591,31.3019,苏州市,彩香,,17,16,76,6,51,161,45,,,33,41,7,8,0.6,0.9
2023-10-28T01:00:00,1163A,120.596,31.3264,苏州市,轧钢厂,,20,20,74,6,45,158,49,,,26,38,9,9,0.6,0.9
2023-10-28T01:00:00,1164A,120.613,31.2703,苏州市,吴中区,,23,16,77,5,46,162,40,,,46,48,8,9,0.6,0.9
2023-10-28T01:00:00,1165A,120.543,31.2994,苏州市,苏州新区,,25,16,79,6,51,164,41,,,49,51,6,7,0.5,0.8
2023-10-28T01:00:00,1166A,120.669,31.3097,苏州市,苏州工业园区,,21,17,71,6,47,149,45,,,41,48,8,10,0.6,0.9
2023-10-28T01:00:00,1167A,120.641,31.3708,苏州市,相城区,,36,25,64,7,48,145,13,,,71,46,10,10,0.7,0.9
2023-10-28T01:00:00,1168A,120.9098,31.9663,南通市,狼山街道,,40,35,57,28,30,130,9,,,61,26,6,6,0.4,0.5
2023-10-28T01:00:00,1169A,120.86,32.0005,南通市,虹桥,,44,44,64,23,39,139,43,,,45,29,6,6,0.4,0.6
2023-10-28T01:00:00,1170A,120.87,32.02,南通市,城中,,30,30,55,21,36,124,47,,,33,23,6,6,0.4,0.5
2023-10-28T01:00:00,1171A,120.94,31.93,南通市,星湖花园,,32,32,63,17,33,154,19,,,43,30,6,6,0.4,0.4
2023-10-28T01:00:00,1172A,120.81,32.0417,南通市,紫琅学院,,41,41,62,14,29,130,13,,,68,32,7,7,0.4,0.5
2023-10-28T01:00:00,1173A,119.176,34.5885,连云港市,市环境监测站,颗粒物(PM10),58,66,40,34,10,104,26,,,44,29,10,8,0.5,0.6
2023-10-28T01:00:00,1177A,117.179,34.2761,徐州市,黄河新村,"颗粒物(PM10),细颗粒物(PM2.5)",62,73,73,44,28,113,49,,,29,37,5,8,0.3,0.5
2023-10-28T01:00:00,1178A,117.1918,34.2384,徐州市,淮塔,"颗粒物(PM10),细颗粒物(PM2.5)",69,88,74,50,28,122,30,,,37,37,7,9,0.4,0.4
2023-10-28T01:00:00,1180A,117.256,34.2153,徐州市,新城区,细颗粒物(PM2.5),72,85,73,52,26,111,45,,,39,39,7,8,0.6,0.6
2023-10-28T01:00:00,1181A,117.244,34.2911,徐州市,桃园路,颗粒物(PM10),63,75,76,44,25,106,49,,,31,36,7,10,0.6,0.6
2023-10-28T01:00:00,1182A,117.2933,34.2778,徐州市,农科院,细颗粒物(PM2.5),87,105,66,64,26,106,20,,,55,38,12,9,0.6,0.6
2023-10-28T01:00:00,1186A,119.389,32.3761,扬州市,邗江监测站,颗粒物(PM10),52,53,93,16,34,134,38,,,41,29,7,8,0.5,0.6
2023-10-28T01:00:00,1188A,120.269,31.4867,无锡市,雪浪,,41,41,89,7,45,155,27,,,48,37,6,7,0.5,0.9
2023-10-28T01:00:00,1189A,120.275,31.6219,无锡市,黄巷,,38,38,106,7,47,142,24,,,63,57,8,10,0.3,1.3
2023-10-28T01:00:00,1190A,120.294,31.56,无锡市,曹张,,37,37,67,14,50,150,31,,,49,42,7,8,0.8,1.1
2023-10-28T01:00:00,1191A,120.242,31.5031,无锡市,漆塘,,36,36,85,12,45,164,35,,,51,40,8,8,0.9,1.3
2023-10-28T01:00:00,1192A,120.3489,31.5863,无锡市,东亭,,36,29,87,14,50,150,18,,,72,55,5,6,0.3,0.6
2023-10-28T01:00:00,1193A,120.354,31.5475,无锡市,旺庄,,27,27,83,12,46,151,29,,,52,51,8,7,0.9,1.3
2023-10-28T01:00:00,1194A,120.245,31.5631,无锡市,荣巷,,24,24,72,7,47,160,36,,,46,37,9,10,0.9,1.3
2023-10-28T01:00:00,1195A,120.299,31.6817,无锡市,堰桥,,46,46,90,24,48,137,39,,,36,35,6,10,0.6,1
2023-10-28T01:00:00,1196A,119.9633,31.762,常州市,市监测站,,36,29,111,25,60,143,29,,,60,45,9,11,0.6,1
2023-10-28T01:00:00,1200A,119.9468,31.7069,常州市,武进监测站,,33,33,112,19,55,158,32,,,47,34,11,12,0.7,1.1
2023-10-28T01:00:00,1201A,119.9255,31.9087,常州市,安家,,25,18,104,16,57,129,23,,,50,35,8,9,0.7,1
2023-10-28T01:00:00,1203A,119.6707,32.1875,镇江市,新区办事处,,45,45,60,16,42,148,19,,,59,30,10,3,0.5,0.5
2023-10-28T01:00:00,1204A,119.4974,32.1968,镇江市,职教中心,,46,46,61,20,59,130,21,,,48,37,11,4,0.7,0.7
2023-10-28T01:00:00,1205A,119.4303,32.1328,镇江市,丹徒区监测站,颗粒物(PM10),51,52,71,19,57,134,22,,,48,29,7,5,0.6,0.5
2023-10-28T01:00:00,1206A,119.905,32.4878,泰州市,公园路,,34,34,67,17,36,128,61,,,21,18,8,8,0.4,0.6
2023-10-28T01:00:00,1207A,119.9189,32.4625,泰州市,莲花,,44,44,73,24,37,137,47,,,26,18,6,6,0.4,0.6
2023-10-28T01:00:00,1209A,119.888,32.4639,泰州市,留学生创业园,,38,38,48,12,36,133,58,,,16,13,8,7,0.5,0.7
2023-10-28T01:00:00,1210A,119.036,33.5981,淮安市,钵池山,,31,31,53,15,41,86,47,,,36,24,10,7,0.7,0.7
2023-10-28T01:00:00,1211A,119.007,33.575,淮安市,北京南路,,34,34,56,17,45,114,37,,,49,28,17,7,0.4,0.6
2023-10-28T01:00:00,1212A,118.989,33.6067,淮安市,市监测站,,31,31,59,9,29,113,53,,,35,28,14,10,0.5,0.6
2023-10-28T01:00:00,1213A,119.135,33.5039,淮安市,楚州区监测站,,44,44,65,16,48,115,0,,,80,34,9,6,0.6,0.7
2023-10-28T01:00:00,1214A,119.0186,33.6297,淮安市,淮阴区监测站,,41,41,68,18,43,92,52,,,34,30,18,10,0.7,0.6
2023-10-28T01:00:00,1215A,120.118,33.4022,盐城市,盐城电厂,,24,24,49,7,20,93,71,,,12,20,7,7,0.4,0.4
2023-10-28T01:00:00,1216A,120.156,33.3942,盐城市,市监测站,,27,22,41,9,18,106,35,,,54,26,10,17,0.4,0.5
2023-10-28T01:00:00,1218A,120.2144,33.38,盐城市,开发区管委会,,38,38,43,9,13,116,56,,,29,20,7,5,0.3,0.3
2023-10-28T01:00:00,1220A,118.293,33.9528,宿迁市,宿迁学院,颗粒物(PM10),54,58,32,30,16,94,7,,,85,48,9,10,0.4,0.4
2023-10-28T01:00:00,1221A,118.2442,33.9592,宿迁市,宿迁中学,,39,39,38,7,11,90,49,,,32,31,7,8,0.7,0.8
2023-10-28T01:00:00,1223A,120.2072,30.2111,杭州市,滨江,,24,13,106,8,53,198,76,,,23,51,7,8,0.4,0.8
2023-10-28T01:00:00,1224A,120.0633,30.2747,杭州市,西溪,,24,21,78,6,63,153,74,,,18,44,6,6,0.5,0.9
2023-10-28T01:00:00,1226A,120.3461,30.3153,杭州市,下沙,,22,22,93,4,58,222,63,,,34,66,7,9,0.3,0.8
2023-10-28T01:00:00,1227A,120.1269,30.2456,杭州市,卧龙桥,,27,24,76,6,62,149,84,,,14,33,6,6,0.4,0.8
2023-10-28T01:00:00,1228A,120.1903,30.2692,杭州市,浙江农大,,33,33,77,6,61,161,64,,,28,51,8,7,0.3,0.7
2023-10-28T01:00:00,1230A,120.1197,30.3119,杭州市,和睦小学,,30,30,88,16,63,163,74,,,20,52,9,10,0.4,0.8
2023-10-28T01:00:00,1231A,120.3019,30.4183,杭州市,临平镇,,18,15,118,2,57,188,55,,,26,55,5,7,0.4,0.8
2023-10-28T01:00:00,1232A,120.2697,30.1819,杭州市,城厢镇,,20,17,86,8,66,192,62,,,27,43,6,7,0.5,0.8
2023-10-28T01:00:00,1233A,120.0883,30.1808,杭州市,云栖,,25,20,82,7,58,178,80,,,17,36,6,7,0.4,0.7
2023-10-28T01:00:00,1234A,121.8358,29.911,宁波市,区环保大楼,,21,21,42,8,31,176,54,,,40,46,7,7,0.5,0.6
2023-10-28T01:00:00,1235A,121.56,29.82,宁波市,万里学院,,38,38,66,8,30,198,50,,,36,35,10,12,0.6,0.8
2023-10-28T01:00:00,1236A,121.713,29.9572,宁波市,龙赛医院,,19,12,52,10,28,184,58,,,32,44,9,9,0.3,0.5
2023-10-28T01:00:00,1239A,121.633,29.7733,宁波市,钱湖水厂,,22,22,62,10,37,182,55,,,15,34,7,9,0.4,0.6
2023-10-28T01:00:00,1240A,121.5856,29.8635,宁波市,太古小学,,29,29,59,7,30,191,59,,,27,46,9,10,0.6,0.8
2023-10-28T01:00:00,1241A,121.524,29.8674,宁波市,市环境监测中心,,20,17,52,10,30,202,64,,,23,40,8,8,0.4,0.6
2023-10-28T01:00:00,1242A,120.634,28.0089,温州市,瓯海,细颗粒物(PM2.5),74,78,54,54,32,174,48,,,60,33,7,7,0.9,0.7
2023-10-28T01:00:00,1243A,120.6748,27.9939,温州市,南浦,细颗粒物(PM2.5),70,76,54,51,38,187,96,,,34,30,6,6,0.7,0.6
2023-10-28T01:00:00,1244A,120.76,27.9747,温州市,龙湾,颗粒物(PM10),63,76,50,41,31,198,57,,,61,37,5,6,0.8,0.7
2023-10-28T01:00:00,1245A,120.6709,28.0167,温州市,市站,颗粒物(PM10),61,72,60,43,34,161,51,,,45,29,7,7,0.9,0.7
2023-10-28T01:00:00,1247A,120.6053,29.9928,绍兴市,城东开发委,,18,17,94,7,64,189,56,,,23,36,9,10,0.5,0.9
2023-10-28T01:00:00,1250A,120.0751,30.8669,湖州市,城西水厂,,18,13,97,4,65,180,57,,,29,46,3,5,0.3,0.8
2023-10-28T01:00:00,1252A,120.7436,30.778,嘉兴市,清河小学,,18,13,71,6,38,182,56,,,23,45,5,6,0.5,0.9
2023-10-28T01:00:00,1253A,120.726,30.7478,嘉兴市,嘉兴学院,,15,15,67,5,47,165,48,,,24,40,6,7,0.4,0.8
2023-10-28T01:00:00,1255A,121.273,28.6459,台州市,黄岩环保大楼,,34,18,57,14,36,177,107,,,8,22,6,7,0.5,0.6
2023-10-28T01:00:00,1256A,121.419,28.6542,台州市,台州环保大楼,,33,31,53,14,37,168,105,,,5,20,5,6,0.4,0.6
2023-10-28T01:00:00,1257A,121.377,28.5773,台州市,路桥田洋王,,30,28,45,20,35,190,95,,,9,23,7,7,0.5,0.6
2023-10-28T01:00:00,1258A,122.122,30.0203,舟山市,定海檀枫,,30,30,48,2,20,174,63,,,11,16,6,7,0.2,0.4
2023-10-28T01:00:00,1259A,122.3094,29.9558,舟山市,普陀东港,,26,14,34,0,16,173,82,,,6,12,5,6,0.2,0.4
2023-10-28T01:00:00,1260A,122.19,29.9944,舟山市,临城新区,,20,14,32,5,17,170,63,,,17,21,5,5,0.2,0.4
2023-10-28T01:00:00,1262A,119.647,29.077,金华市,十五中,细颗粒物(PM2.5),84,102,107,62,61,166,47,,,58,51,6,6,0.8,0.9
2023-10-28T01:00:00,1263A,119.686,29.1029,金华市,监测站,细颗粒物(PM2.5),124,152,106,94,61,174,60,,,62,60,6,6,1.0,0.9
2023-10-28T01:00:00,1264A,118.8692,28.9398,衢州市,环保大楼,细颗粒物(PM2.5),79,87,97,58,65,163,50,,,46,37,6,6,0.7,0.8
2023-10-28T01:00:00,1265A,118.8709,28.9666,衢州市,实验学校,"颗粒物(PM10),细颗粒物(PM2.5)",69,87,91,50,55,172,88,,,27,31,5,6,0.8,0.7
2023-10-28T01:00:00,1266A,118.8621,28.9808,衢州市,衢州学院,细颗粒物(PM2.5),80,92,85,59,62,170,89,,,31,35,7,7,0.8,0.7
2023-10-28T01:00:00,1267A,119.914,28.4514,丽水市,监测站大楼,,36,36,43,20,23,112,30,,,31,21,6,6,0.4,0.6
2023-10-28T01:00:00,1268A,119.93,28.4586,丽水市,莲都小学,,39,39,43,21,24,116,35,,,24,17,5,6,0.4,0.5
2023-10-28T01:00:00,1269A,119.879,28.4231,丽水市,余庄前,,32,32,38,19,22,111,8,,,20,18,5,6,0.4,0.4
2023-10-28T01:00:00,1270A,117.1959,31.7848,合肥市,明珠广场,颗粒物(PM10),111,171,165,83,82,159,82,,,35,64,12,12,1.0,1.1
2023-10-28T01:00:00,1271A,117.3072,31.8764,合肥市,三里街,颗粒物(PM10),111,171,164,83,91,144,66,,,49,58,8,7,0.9,1
2023-10-28T01:00:00,1272A,117.2588,31.8707,合肥市,琥珀山庄,颗粒物(PM10),102,153,143,70,77,153,87,,,36,41,7,7,1.0,1.1
2023-10-28T01:00:00,1273A,117.1604,31.9052,合肥市,董铺水库,颗粒物(PM10),108,166,145,73,73,183,84,,,29,41,2,4,0.7,0.8
2023-10-28T01:00:00,1274A,117.25,31.8571,合肥市,长江中路,细颗粒物(PM2.5),113,161,157,85,89,152,86,,,31,46,12,10,1.1,1.2
2023-10-28T01:00:00,1275A,117.266,31.9436,合肥市,庐阳区,细颗粒物(PM2.5),144,207,172,110,94,146,26,,,69,55,5,6,1.1,1.1
2023-10-28T01:00:00,1276A,117.336,31.8586,合肥市,瑶海区,细颗粒物(PM2.5),140,178,172,107,103,150,72,,,48,56,7,7,1.2,1.4
2023-10-28T01:00:00,1277A,117.3027,31.7964,合肥市,包河区,细颗粒物(PM2.5),140,183,166,107,100,142,16,,,94,84,8,10,1.2,1.3
2023-10-28T01:00:00,1278A,117.2776,31.7385,合肥市,滨湖新区,细颗粒物(PM2.5),117,168,154,88,86,157,87,,,29,55,9,10,1.0,1
2023-10-28T01:00:00,1279A,117.1318,31.8403,合肥市,高新区,细颗粒物(PM2.5),162,175,144,123,98,160,69,,,46,65,10,10,1.1,1
2023-10-28T01:00:00,1280A,119.3903,26.0543,福州市,鼓山,,,,,,,,,,,,,,,,
2023-10-28T01:00:00,1282A,119.2681,26.0504,福州市,师大,,31,31,26,18,17,94,45,,,16,16,6,5,0.6,0.6
2023-10-28T01:00:00,1283A,119.2984,26.1028,福州市,五四北路,,30,30,28,16,17,94,50,,,15,17,4,4,0.6,0.7
2023-10-28T01:00:00,1284A,119.2648,26.0768,福州市,杨桥西路,,32,32,28,16,15,97,42,,,19,16,4,4,0.5,0.6
2023-10-28T01:00:00,1285A,119.317,26.0746,福州市,紫阳,,31,31,26,17,17,96,48,,,16,14,6,6,0.5,0.5
2023-10-28T01:00:00,1286A,118.1608,24.8169,厦门市,溪东,,,,,,,,,,,,,,,,
2023-10-28T01:00:00,1287A,118.1514,24.4767,厦门市,洪文,,28,27,39,19,26,69,69,,,6,16,2,3,0.4,0.4
2023-10-28T01:00:00,1288A,118.0661,24.4444,厦门市,鼓浪屿,,25,24,34,17,22,62,62,,,10,25,2,3,0.3,0.3
2023-10-28T01:00:00,1290A,115.8931,28.6843,南昌市,省外办,细颗粒物(PM2.5),117,127,112,88,71,106,61,,,34,29,8,8,0.7,0.8
2023-10-28T01:00:00,1291A,115.8886,28.7003,南昌市,省林业公司,细颗粒物(PM2.5),104,124,110,78,68,109,56,,,45,46,10,11,0.8,0.7
2023-10-28T01:00:00,1292A,115.8126,28.7442,南昌市,林科所,细颗粒物(PM2.5),73,78,88,53,60,140,106,,,25,35,12,12,0.9,0.9
2023-10-28T01:00:00,1294A,115.8518,28.687,南昌市,建工学校,细颗粒物(PM2.5),103,118,113,77,74,115,86,,,33,36,14,13,1.1,1
2023-10-28T01:00:00,1295A,115.8921,28.6424,南昌市,象湖,细颗粒物(PM2.5),102,114,96,76,66,121,70,,,35,30,10,11,1.1,1
2023-10-28T01:00:00,1296A,115.7423,28.7996,南昌市,武术学校,,40,18,37,28,34,128,10,,,9,11,3,5,0.7,0.7
2023-10-28T01:00:00,1298A,115.9314,28.6842,南昌市,省站,细颗粒物(PM2.5),109,119,105,82,70,111,65,,,32,30,12,11,1.0,0.9
2023-10-28T01:00:00,1299A,116.9862,36.6114,济南市,科干所,颗粒物(PM10),78,105,60,39,16,139,139,,,8,23,10,7,0.6,0.5
2023-10-28T01:00:00,1300A,116.9376,36.665,济南市,农科所,颗粒物(PM10),68,85,77,34,19,107,92,,,28,48,6,7,0.4,0.3
2023-10-28T01:00:00,1301A,117.1265,36.6734,济南市,开发区,颗粒物(PM10),68,85,62,37,18,133,133,,,18,34,9,8,0.5,0.5
2023-10-28T01:00:00,1303A,117.0624,36.6868,济南市,省种子仓库,颗粒物(PM10),75,100,82,41,20,129,129,,,19,53,7,8,0.7,0.7
2023-10-28T01:00:00,1304A,116.9489,36.6447,济南市,机床二厂,颗粒物(PM10),74,98,94,44,25,115,98,,,26,49,6,5,0.5,0.4
2023-10-28T01:00:00,1305A,117.0495,36.663,济南市,市监测站,颗粒物(PM10),77,103,72,39,20,144,144,,,18,55,9,7,0.5,0.7
2023-10-28T01:00:00,1306A,116.7675,36.5484,济南市,长清党校,颗粒物(PM10),79,107,71,39,22,116,111,,,23,38,10,8,0.7,0.5
2023-10-28T01:00:00,1307A,120.6659,36.2403,青岛市,仰口,,25,22,23,9,11,88,77,,,13,14,5,4,0.4,0.3
2023-10-28T01:00:00,1310A,120.4134,36.0658,青岛市,市南区东部子站,,36,36,35,7,7,94,64,,,26,36,14,8,0.7,0.4
2023-10-28T01:00:00,1311A,120.3664,36.1032,青岛市,四方区子站,,39,39,37,7,10,93,42,,,50,41,11,7,0.9,0.5
2023-10-28T01:00:00,1312A,120.2994,36.054,青岛市,市南区西部子站,,48,48,41,12,9,93,44,,,47,38,14,8,0.9,0.4
2023-10-28T01:00:00,1313A,120.4581,36.0858,青岛市,崂山区子站,,24,24,31,7,10,96,47,,,31,29,7,8,0.7,0.4
2023-10-28T01:00:00,1314A,120.1983,35.9608,青岛市,黄岛区子站,,34,34,36,12,10,90,52,,,42,49,17,9,1.2,0.5
2023-10-28T01:00:00,1315A,120.3999,36.3083,青岛市,城阳区子站,,34,34,50,12,16,98,49,,,40,54,8,9,0.9,0.6
2023-10-28T01:00:00,1316A,113.69031,34.76122,郑州市,烟厂,颗粒物(PM10),120,190,128,76,49,125,41,,,68,44,13,10,0.9,0.8
2023-10-28T01:00:00,1317A,113.65724,34.77134,郑州市,郑纺机,颗粒物(PM10),110,169,116,48,24,120,43,,,63,45,13,11,0.9,0.8
2023-10-28T01:00:00,1318A,113.67526,34.80246,郑州市,银行学校,颗粒物(PM10),96,142,100,60,39,126,51,,,54,43,12,9,0.8,0.7
2023-10-28T01:00:00,1319A,113.56746,34.81334,郑州市,供水公司,颗粒物(PM10),108,166,112,62,41,131,23,,,70,48,5,8,0.9,0.9
2023-10-28T01:00:00,1320A,113.7329,34.7178,郑州市,经开区管委,颗粒物(PM10),115,180,119,62,42,137,32,,,75,47,12,11,1.0,0.8
2023-10-28T01:00:00,1321A,113.73961,34.77172,郑州市,四十七中,颗粒物(PM10),114,178,118,66,42,143,49,,,66,44,10,9,0.9,0.7
2023-10-28T01:00:00,1322A,113.60532,34.74838,郑州市,市监测站,颗粒物(PM10),116,182,122,66,39,124,14,,,89,47,13,10,0.9,0.6
2023-10-28T01:00:00,1323A,113.64164,34.7525,郑州市,河医大,颗粒物(PM10),106,162,118,58,37,121,41,,,52,41,17,13,1.0,0.9
2023-10-28T01:00:00,1324A,113.51488,34.91089,郑州市,岗李水库,,,,,,,,,,,,,,,,
2023-10-28T01:00:00,1325A,114.3677,30.5584,武汉市,东湖梨园,细颗粒物(PM2.5),189,199,120,142,87,94,82,,,26,48,10,13,1.0,1.2
2023-10-28T01:00:00,1326A,114.2529,30.558,武汉市,汉阳月湖,细颗粒物(PM2.5),203,224,142,153,95,80,50,,,43,56,8,10,1.0,1.1
2023-10-28T01:00:00,1327A,114.282,30.6189,武汉市,汉口花桥,细颗粒物(PM2.5),165,207,140,125,87,105,69,,,36,55,9,11,1.1,1.1
2023-10-28T01:00:00,1328A,114.3025,30.5332,武汉市,武昌紫阳,颗粒物(PM10),135,220,145,102,67,126,75,,,46,64,10,12,1.1,1.2
2023-10-28T01:00:00,1329A,114.3646,30.6217,武汉市,青山钢花,细颗粒物(PM2.5),185,221,144,139,90,136,58,,,44,64,10,12,1.1,1.1
2023-10-28T01:00:00,1330A,114.1566,30.4825,武汉市,沌口新区,细颗粒物(PM2.5),140,192,137,107,74,97,45,,,65,79,10,11,1.2,1
2023-10-28T01:00:00,1331A,114.3014,30.5944,武汉市,汉口江滩,细颗粒物(PM2.5),132,204,132,100,66,93,67,,,33,52,8,11,1.0,1
2023-10-28T01:00:00,1333A,114.135,30.6319,武汉市,吴家山,细颗粒物(PM2.5),199,202,127,149,86,130,61,,,40,46,10,10,1.0,0.8
2023-10-28T01:00:00,1334A,113.8454,30.2917,武汉市,沉湖七壕,颗粒物(PM10),95,140,96,70,57,111,52,,,19,23,6,7,1.1,1
2023-10-28T01:00:00,1335A,113.0833,28.2325,长沙市,经开区环保局,细颗粒物(PM2.5),67,79,80,48,56,59,35,,,19,23,7,8,0.5,0.7
2023-10-28T01:00:00,1336A,112.8872,28.2189,长沙市,高开区环保局,细颗粒物(PM2.5),53,36,56,37,40,65,38,,,14,17,4,7,0.5,0.6
2023-10-28T01:00:00,1337A,113.0792,28.2053,长沙市,马坡岭,细颗粒物(PM2.5),63,67,81,45,49,69,42,,,21,26,6,6,0.6,0.5
2023-10-28T01:00:00,1338A,112.9394,28.19,长沙市,湖南师范大学,细颗粒物(PM2.5),53,34,52,37,43,68,42,,,12,15,7,8,0.5,0.5
2023-10-28T01:00:00,1339A,113.0178,28.1322,长沙市,雨花区环保局,细颗粒物(PM2.5),60,52,63,43,42,60,39,,,20,25,2,3,0.7,0.8
2023-10-28T01:00:00,1340A,112.9792,28.2597,长沙市,伍家岭,细颗粒物(PM2.5),64,42,58,46,38,75,34,,,17,20,5,6,0.6,0.7
2023-10-28T01:00:00,1341A,113.0014,28.1944,长沙市,火车新站,细颗粒物(PM2.5),64,53,66,46,48,70,41,,,19,22,5,6,0.7,0.7
2023-10-28T01:00:00,1342A,112.9844,28.1178,长沙市,天心区环保局,颗粒物(PM10),51,52,65,34,39,58,37,,,17,23,4,5,0.5,0.5
2023-10-28T01:00:00,1343A,112.8908,28.1308,长沙市,湖南中医药大学,细颗粒物(PM2.5),60,63,64,43,37,69,45,,,12,18,4,5,0.7,0.7
2023-10-28T01:00:00,1344A,112.9581,28.3611,长沙市,沙坪,颗粒物(PM10),63,75,70,35,33,32,17,,,14,14,3,3,0.3,0.4
2023-10-28T01:00:00,1345A,113.2347,23.1423,广州市,广雅中学,颗粒物(PM10),51,51,64,23,36,219,17,,,50,56,5,5,1.0,0.9
2023-10-28T01:00:00,1346A,113.2612,23.105,广州市,市五中,细颗粒物(PM2.5),64,59,67,46,43,249,40,,,35,40,7,8,0.7,0.7
2023-10-28T01:00:00,1348A,113.3478,23.0916,广州市,广东商学院,细颗粒物(PM2.5),59,62,63,42,39,224,18,,,48,47,4,5,0.7,0.7
2023-10-28T01:00:00,1349A,113.4332,23.1047,广州市,市八十六中,颗粒物(PM10),61,72,77,40,38,256,11,,,54,52,4,5,0.9,0.8
2023-10-28T01:00:00,1350A,113.3505,22.9483,广州市,番禺中学,,,20,57,16,34,246,68,,,,43,5,6,0.6,0.8
2023-10-28T01:00:00,1351A,113.2146,23.3916,广州市,花都师范,,35,35,83,23,42,197,39,,,21,55,7,7,0.6,0.8
2023-10-28T01:00:00,1352A,113.2597,23.1331,广州市,市监测站,,47,47,72,32,40,227,23,,,46,53,5,5,0.7,0.7
2023-10-28T01:00:00,1353A,113.5618,23.312,广州市,九龙镇镇龙,颗粒物(PM10),51,51,74,34,45,227,20,,,25,36,5,5,0.7,0.7
2023-10-28T01:00:00,1354A,113.2765,23.1544,广州市,麓湖,细颗粒物(PM2.5),54,53,63,38,40,213,21,,,39,45,5,5,0.7,0.8
2023-10-28T01:00:00,1355A,113.443,23.3035,广州市,帽峰山森林公园,,42,42,51,27,34,239,28,,,23,26,8,8,0.9,0.8
2023-10-28T01:00:00,1356A,114.1063,22.5545,深圳市,通心岭子站,,32,32,24,16,13,102,95,,,4,15,3,3,0.2,0.5
2023-10-28T01:00:00,1357A,114.117,22.5625,深圳市,洪湖,,46,46,29,19,12,104,100,,,5,12,1,1,0.3,0.2
2023-10-28T01:00:00,1358A,113.987,22.5417,深圳市,华侨城,,30,30,26,10,10,124,87,,,10,18,3,2,0.2,0.3
2023-10-28T01:00:00,1359A,113.9181,22.5171,深圳市,南海子站,,34,34,34,17,15,85,84,,,1,18,4,4,0.6,0.6
2023-10-28T01:00:00,1360A,114.2458,22.5689,深圳市,盐田,,38,38,22,21,14,106,102,,,14,21,2,2,0.4,0.4
2023-10-28T01:00:00,1361A,114.2283,22.7244,深圳市,龙岗,,30,30,27,16,14,97,95,,,8,16,7,7,0.4,0.3
2023-10-28T01:00:00,1363A,114.494,22.5422,深圳市,南澳,,39,34,23,27,15,114,97,,,9,11,9,7,0.3,0.3
2023-10-28T01:00:00,1364A,114.41,22.6342,深圳市,葵涌,,31,31,22,18,12,106,99,,,8,12,5,5,0.7,0.7
2023-10-28T01:00:00,1365A,114.297,22.5978,深圳市,梅沙,,41,41,27,23,14,109,101,,,5,6,3,3,0.7,0.7
2023-10-28T01:00:00,1366A,114.0678,22.738,深圳市,观澜,,41,41,50,16,21,90,60,,,18,38,3,4,0.3,0.3
2023-10-28T01:00:00,1367A,113.5814,22.2618,珠海市,吉大,,24,22,20,14,14,99,76,,,8,13,7,6,0.4,0.4
2023-10-28T01:00:00,1368A,113.4881,22.2335,珠海市,前山,,25,5,26,8,17,85,78,,,10,24,6,6,0.4,0.4
2023-10-28T01:00:00,1369A,113.628,22.4251,珠海市,唐家,,25,22,25,17,15,95,51,,,20,18,4,4,0.3,0.3
2023-10-28T01:00:00,1370A,113.299,22.2281,珠海市,斗门,,26,25,26,12,14,91,83,,,6,14,8,8,0.4,0.4
2023-10-28T01:00:00,1371A,113.1294,23.0067,佛山市,湾梁,颗粒物(PM10),63,75,59,34,29,217,11,,,66,37,10,10,0.8,0.6
2023-10-28T01:00:00,1372A,113.1083,23.0478,佛山市,华材职中,颗粒物(PM10),59,68,63,35,37,211,6,,,65,40,8,8,0.7,0.6
2023-10-28T01:00:00,1373A,113.144,23.0453,佛山市,南海气象局,颗粒物(PM10),57,64,55,39,36,205,7,,,67,42,9,8,0.7,0.5
2023-10-28T01:00:00,1374A,113.2881,22.8094,佛山市,顺德苏岗,,28,20,41,19,25,170,35,,,28,28,7,8,0.6,0.6
2023-10-28T01:00:00,1376A,112.8383,22.8678,佛山市,高明孔堂,颗粒物(PM10),55,59,49,35,30,217,31,,,39,24,11,6,0.8,0.7
2023-10-28T01:00:00,1377A,112.8836,23.1588,佛山市,三水监测站,,38,34,80,26,44,288,31,,,27,48,5,6,0.8,0.8
2023-10-28T01:00:00,1378A,112.867,23.185,佛山市,三水云东海,,43,32,68,30,50,258,20,,,30,39,5,6,0.6,0.6
2023-10-28T01:00:00,1379A,113.3769,22.5211,中山市,华柏园,,24,24,28,6,15,114,65,,,10,20,3,3,0.2,0.3
2023-10-28T01:00:00,1380A,113.3881,22.5497,中山市,张溪,,28,16,38,19,20,109,69,,,6,22,3,3,0.4,0.5
2023-10-28T01:00:00,1381A,113.4075,22.5111,中山市,紫马岭,,23,23,25,11,14,108,63,,,7,16,3,4,0.3,0.3
2023-10-28T01:00:00,1382A,113.4411,22.4853,中山市,长江旅游区,,,,,,,,,,,,,,,,
2023-10-28T01:00:00,1383A,113.1064,22.6058,江门市,北街,,27,27,38,16,24,217,57,,,10,19,6,7,0.4,0.5
2023-10-28T01:00:00,1384A,113.0731,22.5835,江门市,西区,,41,41,38,16,19,163,63,,,13,19,6,6,0.4,0.4
2023-10-28T01:00:00,1385A,113.0219,22.5311,江门市,圭峰西,,23,14,33,16,18,130,68,,,13,21,4,4,0.5,0.5
2023-10-28T01:00:00,1386A,113.0828,22.5947,江门市,东湖,,29,29,37,10,17,187,69,,,10,18,6,6,0.4,0.5
2023-10-28T01:00:00,1389A,113.7547,23.0494,东莞市,莞城梨川,细颗粒物(PM2.5),52,51,72,36,45,240,41,,,28,39,7,8,0.7,0.7
2023-10-28T01:00:00,1390A,113.7944,23.0128,东莞市,东城石井,颗粒物(PM10),55,60,66,37,40,204,37,,,23,34,6,6,0.7,0.7
2023-10-28T01:00:00,1391A,113.7383,22.9658,东莞市,南城西平,,44,44,54,27,32,222,39,,,26,39,6,5,0.8,0.8
2023-10-28T01:00:00,1392A,114.4183,23.0528,惠州市,河南岸金山湖子站,,40,40,50,25,30,139,80,,,5,12,6,7,0.5,0.5
2023-10-28T01:00:00,1393A,114.4053,23.0822,惠州市,下埔横江三路子站,,45,43,55,31,34,149,50,,,12,16,10,9,0.7,0.7
2023-10-28T01:00:00,1394A,114.4103,23.1142,惠州市,江北云山西路子站,,43,43,55,26,34,166,53,,,11,16,9,8,0.7,0.6
2023-10-28T01:00:00,1395A,114.4645,22.7833,惠州市,惠阳区承修路船湖子站,,42,42,38,20,18,95,80,,,9,13,6,6,0.8,0.7
2023-10-28T01:00:00,1396A,114.5317,22.7422,惠州市,大亚湾管委会子站,,43,43,44,19,18,107,91,,,12,26,5,6,0.7,0.8
2023-10-28T01:00:00,1397A,112.4267,23.0706,肇庆市,睦岗子站,细颗粒物(PM2.5),67,76,66,48,42,191,36,,,36,39,12,16,0.7,0.6
2023-10-28T01:00:00,1398A,112.4645,23.0475,肇庆市,城中子站,细颗粒物(PM2.5),94,87,75,70,51,200,35,,,44,49,14,16,0.8,0.7
2023-10-28T01:00:00,1399A,112.5544,23.1522,肇庆市,坑口子站,细颗粒物(PM2.5),55,53,50,39,36,229,38,,,32,30,14,14,0.6,0.5
2023-10-28T01:00:00,1400A,112.4753,23.1,肇庆市,七星岩子站,,,,,,,,,,,,,,,,
2023-10-28T01:00:00,1401A,108.3103,22.7881,南宁市,二十一中,,32,24,56,22,36,138,25,,,19,27,10,8,1.0,1.1
2023-10-28T01:00:00,1402A,108.3141,22.8528,南宁市,北湖,,35,32,65,24,40,142,12,,,21,24,14,15,0.9,0.9
2023-10-28T01:00:00,1403A,108.3206,22.8225,南宁市,市监测站,,30,21,56,21,40,141,20,,,22,28,13,12,0.8,0.8
2023-10-28T01:00:00,1404A,108.3829,22.8037,南宁市,大自然花园,,33,27,50,23,37,126,28,,,14,22,11,8,0.8,0.9
2023-10-28T01:00:00,1405A,108.4394,22.7904,南宁市,仙葫,,36,36,56,19,39,124,31,,,12,25,8,6,0.7,0.8
2023-10-28T01:00:00,1406A,108.2397,22.8467,南宁市,区农职院,,50,50,58,19,35,145,17,,,22,25,10,15,0.7,0.8
2023-10-28T01:00:00,1407A,108.3275,22.735,南宁市,英华嘉园,,34,34,63,22,38,119,23,,,17,31,7,7,0.8,0.9
2023-10-28T01:00:00,1408A,108.2257,22.7757,南宁市,沙井镇街道办,,50,50,68,23,43,132,14,,,28,33,2,5,0.9,0.9
2023-10-28T01:00:00,1409A,110.576,19.9507,海口市,东寨港,,,,,,,,,,,,,,,,
2023-10-28T01:00:00,1410A,110.3232,20.0574,海口市,海南大学,,15,14,12,6,5,59,47,,,12,10,6,6,0.4,0.4
2023-10-28T01:00:00,1411A,110.283,20.0053,海口市,秀英海南医院,,13,11,13,9,6,59,39,,,8,10,7,7,0.4,0.4
2023-10-28T01:00:00,1412A,110.338,19.9969,海口市,海南师范大学,,16,16,13,9,6,54,32,,,14,11,5,5,0.4,0.4
2023-10-28T01:00:00,1413A,110.33,20.0356,海口市,龙华路环保局宿舍,,16,16,11,8,6,62,44,,,9,9,8,8,0.2,0.2
2023-10-28T01:00:00,1414A,106.3787,29.8279,重庆市,缙云山,,11,11,6,6,6,90,30,,,19,14,6,6,0.1,0.1
2023-10-28T01:00:00,1416A,106.4213,29.8253,重庆市,天生,,29,20,20,20,14,75,12,,,37,26,5,5,0.9,0.8
2023-10-28T01:00:00,1417A,106.6263,29.7228,重庆市,两路,,35,29,15,24,13,83,14,,,38,32,6,6,0.7,0.7
2023-10-28T01:00:00,1418A,106.2953,29.5983,重庆市,虎溪,,26,26,14,12,9,80,6,,,47,26,5,4,0.5,0.4
2023-10-28T01:00:00,1419A,106.5777,29.5102,重庆市,南坪,,32,32,22,15,13,80,39,,,15,11,6,6,0.6,0.6
2023-10-28T01:00:00,1420A,106.6556,29.6277,重庆市,唐家沱,,17,17,15,10,10,90,8,,,26,32,6,6,0.7,0.7
2023-10-28T01:00:00,1421A,106.6349,29.4906,重庆市,茶园,,21,15,17,8,8,86,18,,,41,22,5,5,0.7,0.6
2023-10-28T01:00:00,1422A,106.3754,29.4572,重庆市,白市驿,,40,26,10,28,16,64,40,,,18,16,8,7,0.5,0.4
2023-10-28T01:00:00,1425A,106.6205,29.7166,重庆市,空港,,32,24,19,22,10,92,18,,,40,30,5,4,0.8,0.8
2023-10-28T01:00:00,1426A,106.4782,29.4875,重庆市,新山村,,32,32,24,16,16,68,6,,,52,31,9,8,0.7,0.6
2023-10-28T01:00:00,1427A,106.5616,29.6453,重庆市,礼嘉,,27,27,17,17,13,91,4,,,53,34,9,8,0.8,0.7
2023-10-28T01:00:00,1428A,106.4522,29.7091,重庆市,蔡家,,24,24,21,14,14,78,21,,,24,26,6,6,0.5,0.5
2023-10-28T01:00:00,1429A,106.5093,29.3917,重庆市,鱼新街,,40,40,22,18,12,65,20,,,35,27,6,6,0.9,0.8
2023-10-28T01:00:00,1431A,103.9728,30.7236,成都市,金泉两河,,29,29,21,8,7,93,35,,,23,16,2,1,0.3,0.3
2023-10-28T01:00:00,1432A,104.176,30.6872,成都市,十里店,,26,26,21,16,11,101,38,,,33,24,3,3,0.5,0.4
2023-10-28T01:00:00,1433A,104.079,30.5706,成都市,三瓦窑,,31,31,20,8,6,90,24,,,30,19,2,2,0.3,0.3
2023-10-28T01:00:00,1434A,104.1114,30.63,成都市,沙河铺,,33,33,26,14,10,90,28,,,16,17,1,1,0.4,0.5
2023-10-28T01:00:00,1437A,104.0786,30.6531,成都市,君平街,,31,31,23,17,14,101,45,,,40,32,2,2,0.4,0.4
2023-10-28T01:00:00,1438A,103.613,31.0283,成都市,灵岩寺,,42,42,19,25,11,90,71,,,12,11,8,15,0.5,0.4
2023-10-28T01:00:00,1439A,106.6899,26.5998,贵阳市,马鞍山,,17,17,15,9,8,56,30,,,9,11,3,4,0.5,0.5
2023-10-28T01:00:00,1440A,106.6971,26.5694,贵阳市,市环保站,,33,24,19,23,13,66,48,,,14,16,6,5,0.2,0.2
2023-10-28T01:00:00,1441A,106.6243,26.6266,贵阳市,鉴湖路,,27,27,17,14,9,60,36,,,11,10,4,3,0.4,0.4
2023-10-28T01:00:00,1442A,106.7487,26.6343,贵阳市,燕子冲,,32,17,19,22,15,60,43,,,10,9,7,5,0.3,0.3
2023-10-28T01:00:00,1443A,106.6555,26.4365,贵阳市,碧云窝,,36,36,27,14,12,58,41,,,15,15,7,7,0.4,0.4
2023-10-28T01:00:00,1444A,106.694,26.5161,贵阳市,中院村,,34,34,23,19,13,56,40,,,17,17,4,3,0.2,0.3
2023-10-28T01:00:00,1445A,106.7109,26.6027,贵阳市,红边门,,25,24,20,17,13,60,44,,,12,14,5,4,0.3,0.4
2023-10-28T01:00:00,1446A,106.7164,26.5699,贵阳市,新华路,,32,31,21,22,14,66,48,,,12,12,7,7,0.4,0.4
2023-10-28T01:00:00,1447A,106.674,26.5424,贵阳市,太慈桥,,20,19,16,14,10,58,46,,,13,16,2,4,0.2,0.3
2023-10-28T01:00:00,1450A,102.8204,24.8886,昆明市,呈贡新区,,40,40,23,20,11,91,4,,,61,26,4,8,0.9,0.8
2023-10-28T01:00:00,1451A,102.6251,24.9608,昆明市,西山森林公园,,16,9,11,7,7,105,36,,,31,10,19,8,0.4,0.5
2023-10-28T01:00:00,1452A,102.7252,25.0902,昆明市,龙泉镇,颗粒物(PM10),69,87,31,25,10,89,3,,,46,28,9,8,0.9,0.8
2023-10-28T01:00:00,1453A,102.7266,25.0375,昆明市,东风东路,,45,45,22,15,11,100,11,,,48,22,13,11,0.6,0.6
2023-10-28T01:00:00,1454A,102.6742,25.0669,昆明市,金鼎山,颗粒物(PM10),52,54,26,14,11,89,6,,,48,24,18,12,0.8,0.5
2023-10-28T01:00:00,1455A,102.6644,25.0401,昆明市,碧鸡广场,颗粒物(PM10),51,52,22,34,15,92,5,,,62,27,8,8,0.7,0.7
2023-10-28T01:00:00,1456A,91.1319,29.6514,拉萨市,八廓街,,29,10,18,6,10,112,90,,,10,14,10,13,0.2,0.2
2023-10-28T01:00:00,1457A,91.1221,29.6747,拉萨市,市环保局,,29,20,21,7,9,113,91,,,11,19,7,9,0.5,0.6
2023-10-28T01:00:00,1458A,91.0874,29.6475,拉萨市,区监测站,,30,12,15,8,7,110,93,,,9,17,8,11,0.3,0.4
2023-10-28T01:00:00,1459A,91.1774,29.6541,拉萨市,西藏大学,,29,17,16,6,7,106,92,,,7,13,9,10,0.4,0.3
2023-10-28T01:00:00,1460A,90.9798,29.6588,拉萨市,区辐射站,,23,13,22,8,10,107,71,,,20,19,6,7,0.4,0.5
2023-10-28T01:00:00,1461A,91.0834,29.6292,拉萨市,拉萨火车站,,29,11,14,6,8,99,91,,,4,17,6,8,0.3,0.6
2023-10-28T01:00:00,1462A,108.882,34.2749,西安市,高压开关厂,颗粒物(PM10),116,181,166,55,54,70,4,,,122,95,13,12,1.1,1
2023-10-28T01:00:00,1463A,108.993,34.2629,西安市,兴庆小区,颗粒物(PM10),53,56,94,25,42,65,4,,,73,78,7,8,0.8,0.8
2023-10-28T01:00:00,1464A,109.06,34.2572,西安市,纺织城,颗粒物(PM10),63,76,99,18,43,65,4,,,67,71,6,7,0.6,0.8
2023-10-28T01:00:00,1465A,108.9356,34.2173,西安市,小寨,颗粒物(PM10),84,118,98,53,42,82,3,,,92,74,12,10,1.6,1
2023-10-28T01:00:00,1466A,108.954,34.2713,西安市,市人民体育场,颗粒物(PM10),106,161,129,74,60,72,5,,,90,82,7,8,1.6,1
2023-10-28T01:00:00,1467A,108.8922,34.2322,西安市,高新西区,颗粒物(PM10),108,166,114,75,59,74,8,,,108,83,9,8,1.4,1.1
2023-10-28T01:00:00,1468A,108.935,34.3474,西安市,经开区,颗粒物(PM10),100,150,124,65,59,92,2,,,116,86,8,9,1.2,0.8
2023-10-28T01:00:00,1469A,108.906,34.1546,西安市,长安区,颗粒物(PM10),87,124,96,53,42,90,4,,,68,57,7,8,0.8,0.7
2023-10-28T01:00:00,1471A,109.2186,34.3731,西安市,临潼区,颗粒物(PM10),82,113,120,49,54,73,29,,,36,56,8,11,0.8,0.8
2023-10-28T01:00:00,1472A,108.869,34.378,西安市,草滩,颗粒物(PM10),98,146,113,49,37,114,0,,,100,70,8,12,0.9,0.7
2023-10-28T01:00:00,1473A,108.985,34.1978,西安市,曲江文化产业集团,颗粒物(PM10),77,104,94,32,65,82,1,,,73,67,5,7,1.0,0.9
2023-10-28T01:00:00,1474A,109.051,34.3213,西安市,广运潭,颗粒物(PM10),93,136,109,48,49,82,1,,,77,64,14,12,1.1,0.9
2023-10-28T01:00:00,1476A,103.631,36.1031,兰州市,兰炼宾馆,细颗粒物(PM2.5),53,49,79,37,48,189,3,,,74,63,6,15,0.6,0.9
2023-10-28T01:00:00,1477A,104.1373,35.9454,兰州市,榆中兰大校区,,,,,,,,,,,,,,,,
2023-10-28T01:00:00,1478A,103.8412,36.0726,兰州市,生物制品所,颗粒物(PM10),61,71,76,31,44,109,1,,,67,61,6,10,0.5,0.9
2023-10-28T01:00:00,1479A,103.831,36.0464,兰州市,铁路设计院,颗粒物(PM10),60,69,79,39,46,105,2,,,82,79,8,12,1.2,1.3
2023-10-28T01:00:00,1483A,101.524,36.6867,西宁市,第五水厂,,,,,,,,,,,,,,,,
2023-10-28T01:00:00,1484A,105.9512,38.6016,银川市,贺兰山马莲口,,31,31,60,8,21,108,96,,,16,26,8,23,0.4,0.7
2023-10-28T01:00:00,1488A,106.2328,38.4975,银川市,贺兰山东路,细颗粒物(PM2.5),97,132,102,72,49,114,8,,,119,76,20,28,1.7,1.1
2023-10-28T01:00:00,1489A,106.1358,38.5036,银川市,学院路,颗粒物(PM10),87,124,103,58,43,108,5,,,99,58,21,45,1.3,1.1
2023-10-28T01:00:00,1490A,87.5801,43.8303,乌鲁木齐市,监测站,颗粒物(PM10),58,66,88,12,23,62,8,,,56,57,5,7,0.4,0.7
2023-10-28T01:00:00,1491A,87.6046,43.768,乌鲁木齐市,收费所,颗粒物(PM10),54,57,90,24,26,77,25,,,43,51,3,4,0.2,0.6
2023-10-28T01:00:00,1492A,87.4754,43.9469,乌鲁木齐市,新疆农科院农场,颗粒物(PM10),69,87,109,28,40,67,4,,,49,53,2,5,0.5,0.8
2023-10-28T01:00:00,1493A,87.5525,43.8711,乌鲁木齐市,铁路局,颗粒物(PM10),77,104,102,37,29,54,7,,,57,58,5,6,0.6,0.8
2023-10-28T01:00:00,1494A,87.6432,43.831,乌鲁木齐市,三十一中学,颗粒物(PM10),70,89,93,17,24,57,20,,,36,44,2,4,0.2,0.5
2023-10-28T01:00:00,1496A,87.7216,44.1747,乌鲁木齐市,米东区环保局,颗粒物(PM10),54,58,89,20,24,97,20,,,32,28,4,7,0.3,0.5
2023-10-28T01:00:00,1508A,112.9433,27.8614,湘潭市,板塘,细颗粒物(PM2.5),67,64,63,48,43,55,44,,,20,24,10,9,0.3,0.3
2023-10-28T01:00:00,1511A,112.9118,27.8403,湘潭市,市监测站,颗粒物(PM10),57,63,63,38,42,58,54,,,15,21,7,6,0.6,0.7
2023-10-28T01:00:00,1512A,112.8937,27.8728,湘潭市,江麓,颗粒物(PM10),58,66,64,34,41,62,52,,,16,21,9,9,0.6,0.6
2023-10-28T01:00:00,1513A,112.9227,27.8159,湘潭市,岳塘,颗粒物(PM10),58,66,62,38,59,59,52,,,17,24,9,11,0.9,0.9
2023-10-28T01:00:00,1514A,112.9074,27.9119,湘潭市,科大,细颗粒物(PM2.5),58,64,61,41,40,56,45,,,18,23,10,9,0.3,0.4
2023-10-28T01:00:00,1515A,113.135,27.8244,株洲市,天台山庄,"颗粒物(PM10),细颗粒物(PM2.5)",54,58,71,38,60,51,45,,,25,31,8,7,0.5,0.7
2023-10-28T01:00:00,1518A,113.095,27.8867,株洲市,株冶医院,颗粒物(PM10),55,60,73,36,45,43,32,,,31,31,7,6,0.7,0.8
2023-10-28T01:00:00,1519A,113.167,27.8667,株洲市,市四中,细颗粒物(PM2.5),62,71,79,44,59,56,43,,,24,30,7,5,0.7,0.8
2023-10-28T01:00:00,1520A,113.143,27.8381,株洲市,火车站,颗粒物(PM10),57,63,78,33,51,57,46,,,25,29,8,6,0.7,0.9
2023-10-28T01:00:00,1524A,113.13,27.8528,株洲市,市监测站,细颗粒物(PM2.5),73,66,82,53,56,52,42,,,24,30,9,6,0.6,0.8
2023-10-28T01:00:00,1552A,106.805,26.3003,贵阳市,桐木岭,,,,,,,,,,,,,,,,
2023-10-28T01:00:00,1559A,113.251,27.8336,株洲市,大京风景区,细颗粒物(PM2.5),90,64,64,67,77,45,11,,,36,20,7,5,0.7,0.7
2023-10-28T01:00:00,1562A,113.0048,27.9153,湘潭市,昭山,颗粒物(PM10),57,63,77,38,42,58,45,,,19,25,7,6,0.5,0.7
2023-10-28T01:00:00,1564A,112.4876,27.9164,湘潭市,韶山,,49,49,44,20,21,78,77,,,11,13,8,8,0.5,0.6
2023-10-28T01:00:00,1585A,109.8756,40.6532,包头市,市环境监测站,颗粒物(PM10),91,131,108,53,46,114,4,,,94,65,15,23,1.1,1.1
2023-10-28T01:00:00,1587A,109.9991,40.5842,包头市,包头八中,细颗粒物(PM2.5),98,134,149,73,58,118,8,,,92,68,21,50,1.3,1.8
2023-10-28T01:00:00,1588A,109.8538,40.6821,包头市,青山宾馆,颗粒物(PM10),85,119,94,36,42,119,17,,,73,64,15,23,1.0,1.3
2023-10-28T01:00:00,1589A,109.8642,40.6288,包头市,惠龙物流,,,,103,56,44,123,3,,,104,67,16,24,1.1,1.1
2023-10-28T01:00:00,1590A,110.0377,40.5546,包头市,东河鸿龙湾,细颗粒物(PM2.5),114,154,135,86,50,126,19,,,73,59,20,28,0.9,1
2023-10-28T01:00:00,1591A,110.0023,39.8129,鄂尔多斯市,综合楼,颗粒物(PM10),64,78,74,19,17,118,46,,,50,43,20,13,0.7,0.7
2023-10-28T01:00:00,1592A,109.9486,39.8261,鄂尔多斯市,巴音孟克林场办事处,颗粒物(PM10),62,73,63,27,22,123,59,,,37,39,21,23,0.5,0.5
2023-10-28T01:00:00,1593A,109.7736,39.5986,鄂尔多斯市,康泽苑,颗粒物(PM10),57,63,44,21,16,126,7,,,73,35,6,7,0.7,0.6
2023-10-28T01:00:00,1594A,109.8119,39.5989,鄂尔多斯市,华泰汽车城,颗粒物(PM10),57,63,48,17,16,126,6,,,83,45,7,7,0.6,0.5
2023-10-28T01:00:00,1595A,109.9734,39.7884,鄂尔多斯市,奥林花园,颗粒物(PM10),75,100,86,29,22,124,6,,,74,49,12,12,1.1,0.7
2023-10-28T01:00:00,1597A,122.2703,40.7094,营口市,大庆路,颗粒物(PM10),132,214,144,60,48,28,9,,,64,53,15,10,1.3,1
2023-10-28T01:00:00,1598A,122.2150,40.6511,营口市,镜湖西路,细颗粒物(PM2.5),73,92,60,53,30,85,3,,,78,48,20,14,1.4,1.1
2023-10-28T01:00:00,1599A,122.1658,40.6789,营口市,西炮台,细颗粒物(PM2.5),80,95,56,59,28,76,8,,,70,51,13,14,1.3,0.9
2023-10-28T01:00:00,1600A,124.3303,40.0625,丹东市,江湾东路,颗粒物(PM10),53,56,50,30,26,88,22,,,37,24,6,7,0.7,0.7
2023-10-28T01:00:00,1601A,124.4256,40.1503,丹东市,临江后街,颗粒物(PM10),52,54,42,27,20,94,10,,,50,26,5,6,0.8,0.7
2023-10-28T01:00:00,1602A,124.3933,40.1461,丹东市,元宝山,,47,47,35,23,19,81,19,,,44,22,5,6,0.6,0.5
2023-10-28T01:00:00,1603A,124.3633,40.1092,丹东市,民主桥,,43,43,41,18,18,81,15,,,44,30,6,7,0.7,0.7
2023-10-28T01:00:00,1604A,122.0303,41.1489,盘锦市,开发区,细颗粒物(PM2.5),67,77,63,48,29,67,15,,,75,65,16,27,0.7,0.9
2023-10-28T01:00:00,1605A,122.0485,41.0883,盘锦市,兴隆台,颗粒物(PM10),52,54,54,35,26,73,38,,,51,53,48,36,0.5,0.8
2023-10-28T01:00:00,1606A,121.8297,41.1028,盘锦市,新生街道,细颗粒物(PM2.5),89,73,58,66,26,71,9,,,60,53,12,16,0.9,1.1
2023-10-28T01:00:00,1607A,120.9092,40.7136,葫芦岛市,龙港区,颗粒物(PM10),71,91,71,48,29,59,5,,,70,58,26,71,1.2,1
2023-10-28T01:00:00,1608A,120.8392,40.7514,葫芦岛市,化工街,颗粒物(PM10),81,112,90,41,33,63,7,,,52,43,22,20,1.1,0.9
2023-10-28T01:00:00,1609A,120.8341,40.7073,葫芦岛市,新区,颗粒物(PM10),62,73,85,41,41,61,7,,,76,59,18,36,1.2,1.2
2023-10-28T01:00:00,1610A,120.8695,40.7677,葫芦岛市,东城区,颗粒物(PM10),63,76,77,36,31,78,3,,,79,46,34,22,1.1,1.1
2023-10-28T01:00:00,1611A,118.5819,24.9117,泉州市,涂山街,,26,19,25,18,19,89,76,,,8,12,4,4,0.5,0.6
2023-10-28T01:00:00,1612A,118.5972,24.8978,泉州市,津头埔,,24,17,27,15,18,83,74,,,12,19,2,3,0.6,0.6
2023-10-28T01:00:00,1613A,118.6663,24.9424,泉州市,万安,,23,16,30,15,20,90,72,,,16,18,4,5,0.5,0.6
2023-10-28T01:00:00,1614A,118.6117,24.9604,泉州市,清源山,,,,,,,,,,,,,,,,
2023-10-28T01:00:00,1616A,117.6795,36.229,济南市,技术学院,颗粒物(PM10),60,70,59,31,19,117,5,,,83,52,10,11,0.8,0.8
2023-10-28T01:00:00,1618A,118.3429,35.0532,临沂市,沂河小区,细颗粒物(PM2.5),79,102,53,58,24,107,8,,,90,43,24,11,0.8,0.4
2023-10-28T01:00:00,1619A,118.295,35.0583,临沂市,鲁南制药厂,颗粒物(PM10),73,95,51,43,17,110,6,,,95,42,24,12,1.1,0.6
2023-10-28T01:00:00,1620A,118.2794,34.9976,临沂市,新光毛纺厂,细颗粒物(PM2.5),72,90,51,52,20,104,11,,,89,44,25,14,0.9,0.7
2023-10-28T01:00:00,1621A,118.3956,35.0888,临沂市,河东保险公司,颗粒物(PM10),80,110,52,52,23,110,6,,,83,46,12,7,0.9,0.7
2023-10-28T01:00:00,1622A,116.3032,37.4674,德州市,儿童乐园,颗粒物(PM10),92,134,96,63,33,133,80,,,35,36,14,15,0.9,0.7
2023-10-28T01:00:00,1624A,116.2991,37.4451,德州市,监理站,颗粒物(PM10),97,144,96,70,33,127,74,,,39,40,16,15,0.9,0.6
2023-10-28T01:00:00,1625A,115.9848,36.4372,聊城市,区政府,颗粒物(PM10),97,144,102,61,36,152,76,,,32,40,8,8,0.8,0.7
2023-10-28T01:00:00,1628A,118.0062,37.3803,滨州市,市环保局,,,,,,,,,,,,,,,,
2023-10-28T01:00:00,1629A,118.0018,37.3617,滨州市,第二水厂,颗粒物(PM10),79,107,88,48,34,131,5,,,105,61,27,18,0.8,0.8
2023-10-28T01:00:00,1630A,117.9776,37.393,滨州市,北中新校,颗粒物(PM10),82,113,79,57,30,119,8,,,99,60,32,16,0.8,0.8
2023-10-28T01:00:00,1631A,118.0414,36.8103,淄博市,人民公园,颗粒物(PM10),69,88,73,41,27,104,10,,,85,57,18,11,0.8,1
2023-10-28T01:00:00,1633A,117.8525,36.4847,淄博市,双山,颗粒物(PM10),60,69,44,30,15,118,47,,,35,30,10,7,0.6,0.5
2023-10-28T01:00:00,1634A,117.9592,36.6331,淄博市,气象站,颗粒物(PM10),53,55,50,27,17,111,59,,,40,40,10,8,0.6,0.3
2023-10-28T01:00:00,1635A,118.3092,36.8194,淄博市,莆田园,颗粒物(PM10),64,78,96,24,28,105,70,,,23,46,13,19,1.1,1.9
2023-10-28T01:00:00,1637A,117.558,34.8438,枣庄市,市中区政府,细颗粒物(PM2.5),70,85,73,51,24,110,21,,,61,48,12,7,0.8,0.6
2023-10-28T01:00:00,1638A,117.2852,34.7837,枣庄市,薛城环保局,颗粒物(PM10),61,71,56,25,19,114,55,,,44,39,7,7,0.6,0.6
2023-10-28T01:00:00,1639A,117.5852,34.7745,枣庄市,峄城区政府,颗粒物(PM10),98,146,64,51,20,109,11,,,68,41,8,9,0.5,0.4
2023-10-28T01:00:00,1640A,117.7276,34.5578,枣庄市,台儿庄区环保局,颗粒物(PM10),58,66,49,36,17,102,4,,,72,52,4,6,0.6,0.5
2023-10-28T01:00:00,1641A,117.4518,35.0992,枣庄市,山亭区环保局,,46,46,37,17,13,119,41,,,36,31,6,6,0.8,0.7
2023-10-28T01:00:00,1642A,121.2514,37.5639,烟台市,开发区,颗粒物(PM10),62,73,45,17,15,102,9,,,56,37,8,12,0.6,0.6
2023-10-28T01:00:00,1643A,121.3719,37.5433,烟台市,轴承厂,,48,48,41,19,14,99,46,,,31,29,5,7,0.2,0.2
2023-10-28T01:00:00,1644A,121.3181,37.5436,烟台市,西郊化工站,,48,48,48,13,13,96,62,,,21,35,6,8,0.3,0.3
2023-10-28T01:00:00,1645A,121.4478,37.4822,烟台市,莱山环保局,,44,44,34,17,8,103,56,,,20,22,7,8,0.4,0.4
2023-10-28T01:00:00,1646A,121.2611,37.4967,烟台市,福山环保局,,,66,64,22,16,93,,,,52,43,5,7,0.6,0.6
2023-10-28T01:00:00,1650A,119.1437,36.7023,潍坊市,环保局,颗粒物(PM10),52,53,44,26,16,109,26,,,59,56,12,8,0.5,0.5
2023-10-28T01:00:00,1653A,116.6251,35.4302,济宁市,火炬城,颗粒物(PM10),65,79,62,36,16,109,36,,,45,38,13,12,0.7,0.5
2023-10-28T01:00:00,1655A,116.5491,35.4042,济宁市,电化厂,颗粒物(PM10),81,111,82,39,21,129,76,,,28,33,12,8,0.7,0.6
2023-10-28T01:00:00,1656A,117.1437,36.1937,泰安市,监测站,颗粒物(PM10),79,107,52,54,19,104,10,,,77,33,12,11,1.2,0.9
2023-10-28T01:00:00,1657A,117.0885,36.2017,泰安市,人口学校,颗粒物(PM10),62,73,49,36,21,102,70,,,38,29,8,7,0.9,0.8
2023-10-28T01:00:00,1658A,117.1089,36.1758,泰安市,电力学校,颗粒物(PM10),73,95,66,42,26,100,11,,,82,45,10,10,0.9,0.6
2023-10-28T01:00:00,1659A,119.471,35.4209,日照市,监测站,颗粒物(PM10),51,51,33,21,10,82,4,,,61,40,10,10,1.2,0.8
2023-10-28T01:00:00,1660A,119.523,35.4216,日照市,市政府广场,,41,41,34,13,7,84,33,,,54,41,13,7,1.0,0.5
2023-10-28T01:00:00,1661A,119.5587,35.4044,日照市,港务局,,44,44,34,14,5,86,14,,,72,47,14,9,1.3,0.8
2023-10-28T01:00:00,1662A,122.1214,37.4236,威海市,华夏技校,,26,24,24,13,6,100,81,,,11,15,3,3,0.4,0.3
2023-10-28T01:00:00,1663A,122.0508,37.5236,威海市,山大分校,,42,42,27,10,7,93,62,,,26,22,6,5,0.4,0.4
2023-10-28T01:00:00,1664A,122.1067,37.5072,威海市,市监测站,,42,42,29,7,8,89,57,,,27,27,8,7,0.6,0.6
2023-10-28T01:00:00,1666A,118.6614,37.4309,东营市,市环保局,颗粒物(PM10),71,92,51,39,16,106,16,,,92,48,19,15,0.8,0.6
2023-10-28T01:00:00,1669A,113.5824,24.7733,韶关市,市八中,,13,12,13,7,8,72,40,,,6,7,8,8,0.6,0.6
2023-10-28T01:00:00,1671A,113.5917,24.7972,韶关市,园林处,,25,16,10,17,8,67,46,,,4,3,10,10,0.5,0.5
2023-10-28T01:00:00,1672A,113.6735,24.7791,韶关市,韶关学院,,22,13,11,15,13,68,32,,,11,9,10,10,0.6,0.5
2023-10-28T01:00:00,1673A,113.5971,24.6863,韶关市,曲江监测站,,19,19,17,10,11,67,40,,,11,10,16,12,0.5,0.5
2023-10-28T01:00:00,1674A,116.6794,23.3667,汕头市,金平子站,,32,31,29,22,19,102,70,,,12,13,6,6,0.6,0.6
2023-10-28T01:00:00,1675A,116.7244,23.3633,汕头市,龙湖子站,,28,28,26,14,15,111,75,,,14,14,6,6,0.5,0.5
2023-10-28T01:00:00,1676A,116.7258,23.2775,汕头市,濠江子站,,28,28,24,19,16,102,80,,,9,9,8,8,0.6,0.6
2023-10-28T01:00:00,1677A,116.7519,23.4714,汕头市,澄海子站,,29,29,29,20,18,99,70,,,14,15,6,7,0.5,0.5
2023-10-28T01:00:00,1678A,116.6092,23.2539,汕头市,潮阳子站,,25,25,29,10,15,97,77,,,6,9,8,8,0.4,0.4
2023-10-28T01:00:00,1680A,110.3539,21.2706,湛江市,湛江影剧院,,23,23,31,11,15,84,65,,,9,9,4,7,0.5,0.5
2023-10-28T01:00:00,1681A,110.3928,21.2228,湛江市,市环境监测站,,20,10,23,14,16,81,62,,,9,9,2,3,0.6,0.6
2023-10-28T01:00:00,1682A,110.4019,21.1997,湛江市,环保局宿舍,,22,13,25,15,17,89,69,,,5,11,2,4,0.6,0.6
2023-10-28T01:00:00,1683A,110.4111,21.2028,湛江市,霞山游泳场,,23,19,25,11,13,86,71,,,3,9,4,4,0.5,0.6
2023-10-28T01:00:00,1684A,110.3316,21.2679,湛江市,麻章区环保局,,25,25,29,17,19,82,63,,,7,10,2,4,0.7,0.7
2023-10-28T01:00:00,1685A,110.4558,21.2567,湛江市,坡头区环保局,,23,18,27,11,15,90,73,,,4,7,3,5,0.4,0.5
2023-10-28T01:00:00,1686A,111.0286,21.4688,茂名市,电白南海,,27,27,38,17,24,99,71,,,8,12,8,10,0.6,0.7
2023-10-28T01:00:00,1687A,110.9294,21.6533,茂名市,茂石化七小,,31,31,41,17,23,89,50,,,11,13,5,7,0.3,0.4
2023-10-28T01:00:00,1688A,110.9107,21.6687,茂名市,健康路,,24,24,34,9,15,96,52,,,11,11,8,15,0.4,0.5
2023-10-28T01:00:00,1689A,110.8592,21.6828,茂名市,高岭,,25,24,46,17,32,101,49,,,20,17,9,11,0.5,0.5
2023-10-28T01:00:00,1690A,116.1231,24.3284,梅州市,梅江月梅,,28,28,27,16,16,74,28,,,23,20,6,5,0.5,0.5
2023-10-28T01:00:00,1691A,116.0797,24.2719,梅州市,梅县新城,,34,34,31,22,21,64,40,,,14,21,7,7,0.7,0.8
2023-10-28T01:00:00,1692A,116.1248,24.2654,梅州市,环境监控中心,,25,25,31,17,20,69,17,,,21,22,8,8,0.6,0.7
2023-10-28T01:00:00,1693A,115.3653,22.775,汕尾市,市环保局,,29,28,28,12,16,119,90,,,7,10,12,13,0.5,0.6
2023-10-28T01:00:00,1694A,115.3706,22.7898,汕尾市,市政府,,31,23,30,13,21,122,97,,,5,9,8,8,0.6,0.7
2023-10-28T01:00:00,1695A,115.3622,22.7925,汕尾市,新城中学,,29,21,36,18,22,113,90,,,6,9,8,13,0.5,0.6
2023-10-28T01:00:00,1696A,114.6778,23.7569,河源市,源西,,29,29,41,20,33,49,10,,,22,16,6,6,0.7,0.6
2023-10-28T01:00:00,1697A,114.6944,23.7586,河源市,东埔,,41,41,56,27,38,47,13,,,20,16,8,8,0.7,0.7
2023-10-28T01:00:00,1698A,114.6892,23.7233,河源市,老城,,34,34,48,23,32,54,12,,,18,15,7,6,0.7,0.8
2023-10-28T01:00:00,1699A,111.9797,21.8593,阳江市,鸳鸯湖,,32,11,26,22,20,84,55,,,7,10,10,11,0.5,0.6
2023-10-28T01:00:00,1701A,111.9491,21.8658,阳江市,马南垌,,34,34,30,20,21,91,49,,,11,14,6,6,0.4,0.5
2023-10-28T01:00:00,1702A,113.0426,23.691,清远市,环保大楼,,18,18,47,11,32,111,36,,,10,11,10,9,0.8,0.8
2023-10-28T01:00:00,1703A,113.0208,23.7106,清远市,凤城街办,,25,24,51,17,34,133,37,,,15,15,10,9,0.6,0.6
2023-10-28T01:00:00,1705A,116.6367,23.6719,潮州市,西园路,,44,44,38,21,27,94,57,,,16,13,7,7,0.4,0.4
2023-10-28T01:00:00,1706A,116.6447,23.6706,潮州市,档案局,,42,42,34,26,21,96,59,,,15,13,7,9,0.6,0.6
2023-10-28T01:00:00,1708A,116.3701,23.5345,揭阳市,新兴,,40,25,44,28,29,105,66,,,11,17,9,12,0.6,0.6
2023-10-28T01:00:00,1709A,116.3264,23.5443,揭阳市,西马,,30,29,46,21,26,107,67,,,12,17,8,11,0.6,0.6
2023-10-28T01:00:00,1710A,116.3611,23.5626,揭阳市,东兴,,33,20,46,23,25,104,71,,,11,16,6,11,0.7,0.7
2023-10-28T01:00:00,1711A,116.4151,23.5294,揭阳市,渔湖,,30,20,45,21,23,101,68,,,13,19,6,9,0.5,0.6
2023-10-28T01:00:00,1712A,112.0392,22.9169,云浮市,新市府,,50,30,41,35,28,123,46,,,12,10,6,8,1.1,1
2023-10-28T01:00:00,1714A,112.0539,22.9539,云浮市,牧羊,颗粒物(PM10),51,51,53,32,29,144,39,,,38,30,14,12,0.6,0.6
2023-10-28T01:00:00,1715A,102.575,24.3711,玉溪市,东风水库,,24,24,19,8,10,82,15,,,21,14,6,6,0.9,0.8
2023-10-28T01:00:00,1718A,115.4208,35.2464,菏泽市,气象局,细颗粒物(PM2.5),165,201,132,125,54,172,78,,,51,43,21,12,0.9,0.6
2023-10-28T01:00:00,1719A,115.4747,35.2375,菏泽市,市政协,细颗粒物(PM2.5),160,174,116,122,52,166,102,,,34,40,33,12,0.7,0.4
2023-10-28T01:00:00,1721A,113.3819,40.1097,大同市,果树场,,,,,,,,,,,,,,,,
2023-10-28T01:00:00,1723A,113.2994,40.0758,大同市,云冈宾馆,颗粒物(PM10),67,83,77,40,28,108,17,,,61,53,17,26,1.2,1
2023-10-28T01:00:00,1724A,113.3444,40.0917,大同市,大同大学,颗粒物(PM10),74,98,77,34,26,113,47,,,36,43,24,28,0.7,0.6
2023-10-28T01:00:00,1725A,113.2661,40.1269,大同市,安家小村,颗粒物(PM10),82,113,83,36,27,119,5,,,74,44,33,35,3.5,1.9
2023-10-28T01:00:00,1726A,113.2711,40.0844,大同市,教育学院,颗粒物(PM10),85,120,93,43,35,109,6,,,81,58,28,31,2.3,1.6
2023-10-28T01:00:00,1727A,113.1147,36.1547,长治市,清华站,颗粒物(PM10),75,100,98,48,52,141,60,,,40,46,10,19,0.7,1
2023-10-28T01:00:00,1728A,113.1031,36.1989,长治市,监测站,细颗粒物(PM2.5),70,72,84,51,53,142,88,,,34,50,15,16,1.1,1.1
2023-10-28T01:00:00,1730A,113.0886,36.2125,长治市,审计局,细颗粒物(PM2.5),64,65,82,46,52,137,93,,,27,44,17,18,1.0,1
2023-10-28T01:00:00,1731A,113.0844,36.1856,长治市,长治八中,颗粒物(PM10),74,98,110,48,47,138,71,,,30,43,15,22,0.8,0.9
2023-10-28T01:00:00,1733A,111.5531,36.0783,临汾市,临钢医院,颗粒物(PM10),69,87,109,34,51,111,19,,,40,41,4,8,0.8,1
2023-10-28T01:00:00,1734A,111.5028,36.0714,临汾市,技工学校,颗粒物(PM10),76,102,103,45,46,115,5,,,76,60,7,14,0.9,1
2023-10-28T01:00:00,1736A,111.5018,36.0855,临汾市,市委,颗粒物(PM10),77,104,100,42,40,108,8,,,75,61,7,15,0.9,1
2023-10-28T01:00:00,1738A,113.5758,37.8572,阳泉市,市中心,颗粒物(PM10),59,67,80,26,31,111,3,,,96,68,13,16,0.6,0.6
2023-10-28T01:00:00,1739A,113.4894,37.8731,阳泉市,赛鱼,颗粒物(PM10),73,95,79,38,32,112,5,,,93,65,10,13,0.7,0.7
2023-10-28T01:00:00,1740A,113.5819,37.8486,阳泉市,南庄,颗粒物(PM10),67,83,100,31,32,118,12,,,69,57,9,14,0.7,0.8
2023-10-28T01:00:00,1742A,113.5614,37.8703,阳泉市,平坦,颗粒物(PM10),56,62,80,27,29,112,5,,,99,68,11,13,0.7,0.9
2023-10-28T01:00:00,1743A,113.5158,37.8392,阳泉市,大阳泉,颗粒物(PM10),53,56,46,29,25,119,98,,,35,35,11,13,0.5,0.6
2023-10-28T01:00:00,1744A,118.9233,42.2816,赤峰市,松山一中,颗粒物(PM10),53,55,52,20,14,79,8,,,46,45,14,13,0.8,0.8
2023-10-28T01:00:00,1745A,118.9576,42.2728,赤峰市,哈达街,颗粒物(PM10),61,72,60,30,25,81,8,,,52,50,24,39,0.9,0.9
2023-10-28T01:00:00,1746A,118.8788,42.2554,赤峰市,天义路,颗粒物(PM10),59,67,44,27,14,89,10,,,35,41,14,23,1.1,1.1
2023-10-28T01:00:00,1748A,123.044,41.1196,鞍山市,深沟寺,,49,49,38,24,18,74,21,,,46,33,16,11,0.8,0.8
2023-10-28T01:00:00,1749A,123.011,41.0931,鞍山市,太阳城,颗粒物(PM10),53,56,38,26,16,77,10,,,62,34,23,17,0.5,0.6
2023-10-28T01:00:00,1750A,123.0485,41.1442,鞍山市,太平,颗粒物(PM10),68,85,76,37,29,67,8,,,53,47,10,16,1.0,0.9
2023-10-28T01:00:00,1751A,122.9642,41.0971,鞍山市,铁西三道街,颗粒物(PM10),78,105,90,48,35,70,7,,,64,48,20,19,1.1,1.1
2023-10-28T01:00:00,1752A,122.9341,41.0833,鞍山市,铁西工业园区,颗粒物(PM10),99,147,105,66,44,69,5,,,53,49,10,18,1.4,1.2
2023-10-28T01:00:00,1753A,123.022,41.0821,鞍山市,明达新区,颗粒物(PM10),51,51,38,24,15,72,6,,,58,39,11,14,0.6,0.5
2023-10-28T01:00:00,1754A,123.1289,41.0228,鞍山市,千山,,,,,,,,,,,,,,,,
2023-10-28T01:00:00,1755A,123.7977,41.8491,抚顺市,望花区,颗粒物(PM10),128,206,130,96,69,84,6,,,55,42,11,10,1.0,0.8
2023-10-28T01:00:00,1756A,123.9161,41.8822,抚顺市,顺城区,细颗粒物(PM2.5),208,174,94,158,54,84,7,,,48,41,7,7,1.1,1
2023-10-28T01:00:00,1757A,124.0436,41.8611,抚顺市,东洲区,细颗粒物(PM2.5),128,115,89,97,70,94,6,,,43,27,16,15,1.0,0.8
2023-10-28T01:00:00,1758A,123.9247,41.8642,抚顺市,新抚区,细颗粒物(PM2.5),173,150,89,131,73,86,5,,,44,37,9,8,0.9,0.7
2023-10-28T01:00:00,1759A,124.0972,41.8961,抚顺市,大伙房水库,细颗粒物(PM2.5),103,100,64,77,49,93,18,,,49,29,11,10,0.9,0.7
2023-10-28T01:00:00,1760A,123.7086,41.8391,抚顺市,沈抚新城,细颗粒物(PM2.5),149,133,83,114,56,90,6,,,50,36,9,14,0.9,0.9
2023-10-28T01:00:00,1761A,123.8275,41.3064,本溪市,大峪,颗粒物(PM10),64,77,61,33,26,76,9,,,62,38,8,10,0.9,0.9
2023-10-28T01:00:00,1762A,123.7567,41.3325,本溪市,溪湖,颗粒物(PM10),86,121,81,36,28,78,7,,,56,42,11,15,0.8,0.8
2023-10-28T01:00:00,1763A,123.7169,41.3094,本溪市,彩屯,颗粒物(PM10),61,71,86,38,40,72,15,,,53,45,8,11,0.7,0.8
2023-10-28T01:00:00,1764A,123.7669,41.2864,本溪市,东明,颗粒物(PM10),83,116,83,44,35,80,8,,,66,51,11,12,1.0,0.9
2023-10-28T01:00:00,1765A,123.7992,41.2664,本溪市,新立屯,,46,46,51,29,25,82,14,,,51,45,10,12,0.9,0.9
2023-10-28T01:00:00,1766A,123.8142,41.3472,本溪市,威宁,颗粒物(PM10),95,140,89,66,39,85,8,,,48,38,6,7,1.4,1
2023-10-28T01:00:00,1767A,121.1115,41.0879,锦州市,南山,细颗粒物(PM2.5),78,83,59,57,34,73,5,,,54,44,10,26,1.4,0.9
2023-10-28T01:00:00,1768A,121.0533,40.8434,锦州市,开发区,颗粒物(PM10),107,164,101,71,44,84,5,,,75,56,23,22,1.1,1
2023-10-28T01:00:00,1769A,121.1836,41.1119,锦州市,百股街道,颗粒物(PM10),68,86,63,48,37,71,4,,,55,47,10,26,1.1,1.1
2023-10-28T01:00:00,1770A,121.1178,41.1222,锦州市,天安街道,颗粒物(PM10),70,90,73,48,40,68,18,,,58,56,13,31,0.9,1.1
2023-10-28T01:00:00,1771A,121.1303,41.1386,锦州市,北湖公园,细颗粒物(PM2.5),59,63,55,42,37,64,32,,,36,47,15,24,0.7,0.9
2023-10-28T01:00:00,1772A,126.54,43.8622,吉林市,哈达湾,颗粒物(PM10),56,61,53,34,27,78,18,,,50,38,11,11,0.8,0.7
2023-10-28T01:00:00,1773A,126.5844,43.8358,吉林市,东局子,颗粒物(PM10),57,63,64,33,29,75,11,,,46,43,10,13,0.8,0.8
2023-10-28T01:00:00,1774A,126.5052,43.8245,吉林市,电力学院,颗粒物(PM10),56,61,63,36,38,80,5,,,46,37,11,14,0.9,0.9
2023-10-28T01:00:00,1775A,126.6133,43.8972,吉林市,江北,,47,47,74,29,38,131,22,,,34,41,12,16,1.0,1
2023-10-28T01:00:00,1776A,126.555,43.8306,吉林市,江南公园,颗粒物(PM10),65,79,62,44,33,71,4,,,52,44,10,12,1.0,0.8
2023-10-28T01:00:00,1778A,126.7061,43.7133,吉林市,丰满,,,,,,,,,,,,,,,,
2023-10-28T01:00:00,1779A,123.9305,47.3636,齐齐哈尔市,安居小区,颗粒物(PM10),63,76,50,43,16,64,11,,,48,32,6,7,0.5,0.5
2023-10-28T01:00:00,1780A,123.9488,47.3386,齐齐哈尔市,中心广场,,48,47,42,33,20,61,33,,,29,33,3,4,0.6,0.7
2023-10-28T01:00:00,1781A,123.9483,47.3227,齐齐哈尔市,农牧车辆厂,颗粒物(PM10),81,112,58,57,17,59,4,,,60,37,9,10,0.6,0.6
2023-10-28T01:00:00,1783A,123.945,47.2988,齐齐哈尔市,市环境监测站,颗粒物(PM10),53,56,51,31,23,65,5,,,60,35,6,7,0.3,0.3
2023-10-28T01:00:00,1784A,129.61,44.561,牡丹江市,环保大楼,,36,36,39,12,18,71,14,,,36,26,8,7,0.5,0.5
2023-10-28T01:00:00,1785A,129.6115,44.5782,牡丹江市,文化广场,颗粒物(PM10),53,56,41,33,28,65,12,,,38,29,9,8,0.5,0.5
2023-10-28T01:00:00,1786A,129.5904,44.5963,牡丹江市,第一医院,细颗粒物(PM2.5),58,46,46,41,28,69,18,,,32,27,10,10,0.6,0.5
2023-10-28T01:00:00,1787A,129.6364,44.6075,牡丹江市,机车工厂,颗粒物(PM10),68,85,80,36,33,67,6,,,39,27,7,8,0.8,0.7
2023-10-28T01:00:00,1788A,129.6386,44.5462,牡丹江市,第一中学,,30,30,38,17,16,72,17,,,29,22,6,7,0.3,0.3
2023-10-28T01:00:00,1789A,124.81117,46.03138,大庆市,大同区,,46,46,51,25,24,64,28,,,24,23,6,8,0.5,0.6
2023-10-28T01:00:00,1790A,125.129,46.533,大庆市,龙凤区,颗粒物(PM10),53,55,46,35,25,60,3,,,45,39,7,7,0.6,0.9
2023-10-28T01:00:00,1791A,124.902,46.408,大庆市,红岗区,,38,38,30,25,14,66,6,,,49,32,5,5,0.5,0.4
2023-10-28T01:00:00,1792A,125.153,46.586,大庆市,萨尔图区,颗粒物(PM10),52,53,42,33,17,55,8,,,51,38,5,5,0.4,0.5
2023-10-28T01:00:00,1793A,124.9042,46.6215,大庆市,让胡路区,颗粒物(PM10),78,105,37,38,15,67,5,,,66,39,10,6,1.2,0.7
2023-10-28T01:00:00,1794A,118.3606,31.3519,芜湖市,监测站,细颗粒物(PM2.5),77,94,101,56,73,147,75,,,42,50,10,10,1.0,1.3
2023-10-28T01:00:00,1795A,118.3714,31.4134,芜湖市,科创中心,细颗粒物(PM2.5),69,80,116,50,77,147,56,,,43,55,8,8,0.9,1.3
2023-10-28T01:00:00,1796A,118.3673,31.3131,芜湖市,四水厂,细颗粒物(PM2.5),92,90,106,68,69,153,101,,,25,43,8,7,1.1,1.3
2023-10-28T01:00:00,1798A,118.5092,31.6837,马鞍山市,湖东路四小,颗粒物(PM10),60,70,87,32,67,148,44,,,41,30,10,9,0.9,1
2023-10-28T01:00:00,1799A,118.5024,31.6449,马鞍山市,开发区,颗粒物(PM10),64,77,117,29,67,146,26,,,53,39,12,10,0.8,1
2023-10-28T01:00:00,1800A,118.5228,31.7231,马鞍山市,慈湖,颗粒物(PM10),64,78,114,38,72,157,43,,,40,36,22,12,0.7,1
2023-10-28T01:00:00,1802A,118.6245,31.7241,马鞍山市,濮塘,颗粒物(PM10),59,67,106,32,47,141,33,,,33,18,8,6,0.6,0.9
2023-10-28T01:00:00,1803A,115.9872,29.6815,九江市,十里,细颗粒物(PM2.5),150,142,110,115,74,133,16,,,59,46,8,11,1.2,1.2
2023-10-28T01:00:00,1804A,115.9584,29.7046,九江市,茅山头,细颗粒物(PM2.5),176,159,111,133,87,126,17,,,71,55,18,15,1.4,1.3
2023-10-28T01:00:00,1805A,115.9877,29.7295,九江市,西园,细颗粒物(PM2.5),185,192,123,139,81,116,7,,,71,61,18,16,1.2,1.2
2023-10-28T01:00:00,1806A,116.0172,29.6547,九江市,五七二七厂,细颗粒物(PM2.5),105,93,92,79,74,127,85,,,18,22,12,14,1.0,1
2023-10-28T01:00:00,1808A,115.9114,29.6038,九江市,综合工业园,细颗粒物(PM2.5),133,135,110,101,80,112,13,,,52,64,15,16,1.1,1.2
2023-10-28T01:00:00,1809A,116.0721,29.7535,九江市,石化总厂,细颗粒物(PM2.5),162,188,128,123,84,117,21,,,80,62,13,15,1.4,1.1
2023-10-28T01:00:00,1810A,115.9773,29.5698,九江市,庐山气象台,,45,36,37,23,30,155,142,,,3,5,6,6,0.6,0.6
2023-10-28T01:00:00,1812A,112.3931,34.6516,洛阳市,市委党校,细颗粒物(PM2.5),147,168,147,112,80,154,2,,,74,60,14,11,1.0,0.9
2023-10-28T01:00:00,1814A,112.4657,34.6871,洛阳市,豫西宾馆,细颗粒物(PM2.5),137,185,162,104,72,152,0,,,91,54,4,7,1.0,0.9
2023-10-28T01:00:00,1815A,112.494,34.6886,洛阳市,河南林校,细颗粒物(PM2.5),125,147,132,95,66,140,2,,,82,49,3,6,0.9,0.8
2023-10-28T01:00:00,1816A,112.3844,34.623,洛阳市,开发区管委会,细颗粒物(PM2.5),169,181,123,128,67,148,17,,,48,36,3,5,1.0,0.8
2023-10-28T01:00:00,1817A,112.4267,34.6258,洛阳市,市委新办公区,细颗粒物(PM2.5),149,167,134,114,75,150,17,,,54,52,4,7,0.9,0.9
2023-10-28T01:00:00,1818A,114.4839,36.0621,安阳市,棉研所,,,,,,,,,,,,,,,,
2023-10-28T01:00:00,1819A,114.3551,36.1017,安阳市,红庙街,细颗粒物(PM2.5),104,154,130,78,59,145,61,,,42,41,33,14,1.3,1.5
2023-10-28T01:00:00,1820A,114.361,36.0681,安阳市,银杏小区,细颗粒物(PM2.5),127,108,98,96,69,141,51,,,40,36,23,12,1.0,1.1
2023-10-28T01:00:00,1824A,114.3389,34.7781,开封市,肿瘤医院,细颗粒物(PM2.5),205,231,145,155,79,137,38,,,60,37,6,3,1.1,0.9
2023-10-28T01:00:00,1826A,114.2885,34.7965,开封市,世纪星幼儿园,颗粒物(PM10),144,237,134,104,61,132,22,,,89,40,8,13,1.3,1
2023-10-28T01:00:00,1828A,113.227,35.2125,焦作市,市环保局,细颗粒物(PM2.5),103,119,128,77,66,150,59,,,34,44,10,13,0.7,0.8
2023-10-28T01:00:00,1830A,113.1992,35.2590,焦作市,影视城,,,,,,,,,,,,,,,,
2023-10-28T01:00:00,1832A,113.3257,33.742,平顶山市,新华旅馆,细颗粒物(PM2.5),127,188,156,96,63,141,9,,,75,39,12,13,0.9,0.8
2023-10-28T01:00:00,1833A,113.2919,33.737,平顶山市,规划设计院,细颗粒物(PM2.5),135,186,149,103,75,133,4,,,87,41,10,14,0.9,0.5
2023-10-28T01:00:00,1834A,113.182,33.774,平顶山市,平顶山工学院,细颗粒物(PM2.5),128,200,184,97,98,147,30,,,,45,7,19,0.7,1
2023-10-28T01:00:00,1835A,111.1922,34.7752,三门峡市,市政府,颗粒物(PM10),62,73,79,40,34,147,3,,,82,44,10,12,0.7,0.8
2023-10-28T01:00:00,1836A,111.1587,34.7942,三门峡市,开发区,颗粒物(PM10),101,151,114,72,52,145,4,,,67,38,8,11,0.8,0.7
2023-10-28T01:00:00,1838A,111.143,34.7955,三门峡市,风景区,,,,,,,,,,,,,,,,
2023-10-28T01:00:00,1840A,111.2992,30.6981,宜昌市,白龙岗,,17,17,22,9,9,67,42,,,25,28,4,5,0.4,0.4
2023-10-28T01:00:00,1841A,111.3549,30.6465,宜昌市,伍家岗,,21,12,20,9,11,69,67,,,16,30,5,5,0.3,0.3
2023-10-28T01:00:00,1842A,111.2628,30.6961,宜昌市,点军区,,25,18,18,17,12,76,46,,,14,18,7,7,0.3,0.3
2023-10-28T01:00:00,1843A,111.3275,30.7819,宜昌市,夷陵区,,19,19,29,12,15,57,24,,,22,28,6,6,0.3,0.4
2023-10-28T01:00:00,1844A,112.2494,30.3197,荆州市,市图书馆,颗粒物(PM10),82,114,58,51,30,64,18,,,46,31,9,9,0.9,0.7
2023-10-28T01:00:00,1845A,112.2008,30.3544,荆州市,市委党校,颗粒物(PM10),87,124,55,54,27,56,24,,,35,30,8,9,0.7,0.7
2023-10-28T01:00:00,1847A,113.1094,29.3578,岳阳市,南湖风景区,细颗粒物(PM2.5),93,100,73,69,52,89,45,,,31,35,10,12,1.0,1
2023-10-28T01:00:00,1848A,113.1493,29.4251,岳阳市,城陵矶,细颗粒物(PM2.5),87,96,86,64,51,81,28,,,34,39,8,10,0.8,0.9
2023-10-28T01:00:00,1849A,113.1497,29.3575,岳阳市,开发区,细颗粒物(PM2.5),138,128,92,105,74,82,47,,,28,34,10,11,0.9,0.9
2023-10-28T01:00:00,1850A,113.2621,29.4758,岳阳市,云溪区,细颗粒物(PM2.5),84,98,74,62,47,79,2,,,73,34,12,11,1.2,1.1
2023-10-28T01:00:00,1851A,112.9943,29.4402,岳阳市,君山区,细颗粒物(PM2.5),99,91,68,74,50,101,37,,,38,32,7,7,0.8,0.7
2023-10-28T01:00:00,1852A,113.2117,29.355,岳阳市,金凤水库,细颗粒物(PM2.5),90,119,84,67,56,91,32,,,32,22,4,6,0.9,0.8
2023-10-28T01:00:00,1854A,111.6975,28.9703,常德市,市二中,,32,24,36,18,19,100,100,,,10,16,7,8,0.4,0.5
2023-10-28T01:00:00,1857A,111.7158,29.1456,常德市,白鹤山,颗粒物(PM10),67,83,41,11,13,96,85,,,5,10,3,3,0.5,0.5
2023-10-28T01:00:00,1858A,110.5319,29.1217,张家界市,永定新区,,32,32,34,17,18,40,34,,,12,17,6,6,0.4,0.5
2023-10-28T01:00:00,1859A,110.4697,29.1242,张家界市,电业局,,34,34,32,11,10,39,39,,,12,16,8,8,0.4,0.5
2023-10-28T01:00:00,1860A,110.5594,29.3547,张家界市,未央路,,22,22,20,15,13,34,24,,,5,13,3,3,0.3,0.3
2023-10-28T01:00:00,1861A,110.4417,29.315,张家界市,袁家界,,28,9,15,14,9,87,87,,,2,8,9,9,0.7,0.7
2023-10-28T01:00:00,1862A,110.4144,25.3167,桂林市,电子科大尧山校区,,24,24,10,8,6,73,42,,,7,7,3,3,0.5,0.6
2023-10-28T01:00:00,1863A,110.2819,25.2697,桂林市,监测站,,,13,14,,13,68,63,,,9,11,5,5,0.5,0.8
2023-10-28T01:00:00,1864A,110.3089,25.2708,桂林市,龙隐路小学,,22,18,10,9,9,73,70,,,6,8,6,6,0.6,0.7
2023-10-28T01:00:00,1865A,110.2869,25.2178,桂林市,八中,,23,15,12,7,5,72,71,,,4,8,4,4,0.6,0.7
2023-10-28T01:00:00,1866A,109.2262,21.588,北海市,牛尾岭水库,,,,,,,,,,,,,,,,
2023-10-28T01:00:00,1867A,109.1436,21.4086,北海市,海滩公园,,41,41,27,22,12,110,32,,,13,9,9,7,0.8,0.8
2023-10-28T01:00:00,1868A,109.0981,21.4661,北海市,新市环保局,,36,36,29,24,20,115,37,,,16,13,17,9,0.7,0.7
2023-10-28T01:00:00,1869A,109.1778,21.5233,北海市,北海工业园,,49,35,40,34,23,116,31,,,17,13,16,12,0.7,0.7
2023-10-28T01:00:00,1870A,109.4856,24.3895,柳州市,柳东小学,,20,2,15,2,10,63,62,,,4,7,8,11,0.4,0.5
2023-10-28T01:00:00,1871A,109.4157,24.3277,柳州市,环保监测站,,18,12,15,5,9,60,57,,,10,11,6,7,0.5,0.7
2023-10-28T01:00:00,1872A,109.389,24.341,柳州市,河西水厂,,18,18,24,12,12,48,41,,,23,17,23,16,1.4,0.9
2023-10-28T01:00:00,1873A,109.4311,24.2921,柳州市,市四中,,20,8,13,2,7,61,61,,,10,12,5,6,0.7,0.9
2023-10-28T01:00:00,1874A,109.4006,24.3631,柳州市,市九中,,17,10,17,6,7,54,54,,,13,16,6,7,0.6,0.9
2023-10-28T01:00:00,1875A,109.4958,24.3134,柳州市,古亭山,,20,18,16,8,12,170,62,,,7,8,7,9,0.3,0.6
2023-10-28T01:00:00,1876A,109.5078,18.2489,三亚市,河东子站,,15,10,10,10,6,61,20,,,13,10,3,3,0.5,0.4
2023-10-28T01:00:00,1877A,109.4964,18.2681,三亚市,河西子站,,18,18,11,7,5,66,13,,,14,10,3,3,0.3,0.3
2023-10-28T01:00:00,1878A,104.7778,31.4741,绵阳市,富乐山,,28,28,30,18,22,102,32,,,12,17,6,7,0.5,0.6
2023-10-28T01:00:00,1879A,104.7563,31.4535,绵阳市,市人大,,39,28,33,27,23,95,42,,,18,23,8,10,0.5,0.5
2023-10-28T01:00:00,1880A,104.6697,31.4668,绵阳市,高新区自来水公司,,20,18,31,14,17,103,50,,,17,26,8,9,0.4,0.5
2023-10-28T01:00:00,1881A,104.7287,31.5075,绵阳市,三水厂,,32,30,35,22,25,99,32,,,28,27,4,7,0.5,0.6
2023-10-28T01:00:00,1882A,104.563,28.793,宜宾市,石马中学,,,,,,,,,,,,,,,,
2023-10-28T01:00:00,1883A,104.6201,28.7728,宜宾市,市委,,35,35,19,20,11,102,9,,,39,21,8,7,0.5,0.4
2023-10-28T01:00:00,1884A,104.6055,28.793,宜宾市,宜宾四中,,40,40,23,24,14,93,2,,,49,27,10,9,0.6,0.4
2023-10-28T01:00:00,1885A,104.639,28.7562,宜宾市,市政府,,35,35,20,24,15,97,11,,,41,21,7,7,0.6,0.4
2023-10-28T01:00:00,1886A,104.5742,28.7199,宜宾市,黄金嘴,,31,31,16,16,9,95,7,,,30,19,6,7,0.5,0.4
2023-10-28T01:00:00,1888A,101.6891,26.571,攀枝花市,弄弄坪,,35,35,42,22,23,113,28,,,28,23,11,27,0.7,0.8
2023-10-28T01:00:00,1889A,101.5769,26.5928,攀枝花市,河门口,"颗粒物(PM10),细颗粒物(PM2.5)",62,74,41,44,24,115,25,,,29,26,13,27,1.3,1.6
2023-10-28T01:00:00,1890A,101.7169,26.585,攀枝花市,炳草岗,颗粒物(PM10),56,62,48,31,23,117,10,,,61,34,22,29,0.7,0.7
2023-10-28T01:00:00,1891A,101.7369,26.5008,攀枝花市,仁和,,27,27,30,18,18,118,26,,,25,20,7,16,0.8,0.8
2023-10-28T01:00:00,1893A,105.4324,28.9634,泸州市,九狮山,,19,19,16,6,12,94,5,,,24,14,5,5,0.4,0.4
2023-10-28T01:00:00,1894A,105.4427,28.9063,泸州市,小市上码头,,35,35,18,20,11,77,28,,,25,18,7,6,0.5,0.4
2023-10-28T01:00:00,1895A,105.4241,28.8573,泸州市,兰田宪桥,,29,28,18,20,12,76,22,,,16,9,5,5,0.6,0.5
2023-10-28T01:00:00,1896A,105.4379,28.8833,泸州市,市环监站,,27,27,17,7,4,71,21,,,32,21,3,4,0.6,0.5
2023-10-28T01:00:00,1901A,104.4239,31.1208,德阳市,东山公园,,43,43,39,20,16,102,45,,,18,21,1,2,0.6,0.5
2023-10-28T01:00:00,1902A,104.3826,31.1317,德阳市,西小区,,46,46,39,28,18,104,32,,,31,23,1,2,0.5,0.5
2023-10-28T01:00:00,1904A,104.3553,31.1091,德阳市,耐火材料厂,颗粒物(PM10),51,52,41,24,18,101,24,,,32,23,9,3,0.3,0.3
2023-10-28T01:00:00,1905A,106.056,30.8064,南充市,西山风景区,,23,20,22,16,18,80,28,,,20,21,6,3,0.9,0.6
2023-10-28T01:00:00,1906A,106.0789,30.8023,南充市,南充市委,,25,25,32,16,24,60,7,,,29,20,4,3,0.4,0.4
2023-10-28T01:00:00,1907A,106.1031,30.8217,南充市,南充炼油厂,,,38,34,14,16,66,17,,,,17,7,3,0.3,0.2
2023-10-28T01:00:00,1908A,106.1064,30.7856,南充市,高坪区监测站,,33,33,33,21,20,60,37,,,21,17,22,6,0.2,0.3
2023-10-28T01:00:00,1909A,106.0642,30.7636,南充市,嘉陵区环保局,,,,30,17,21,57,10,,,27,22,9,7,0.3,0.3
2023-10-28T01:00:00,1910A,106.1087,30.8388,南充市,市环境监测站,,29,25,30,20,27,60,24,,,13,16,7,4,0.4,0.4
2023-10-28T01:00:00,1911A,106.9222,27.6869,遵义市,丁字口,,25,15,16,17,14,69,29,,,24,19,6,5,0.6,0.6
2023-10-28T01:00:00,1912A,106.9242,27.7019,遵义市,凤凰山,,22,19,16,15,15,69,51,,,12,11,8,7,0.4,0.5
2023-10-28T01:00:00,1913A,106.8906,27.6486,遵义市,忠庄,,28,8,17,19,12,63,31,,,17,13,2,2,0.2,0.2
2023-10-28T01:00:00,1914A,106.9231,27.6506,遵义市,舟水桥,,24,24,15,14,9,73,10,,,21,16,2,3,0.3,0.4
2023-10-28T01:00:00,1915A,106.9178,27.72,遵义市,干田坝,,25,20,16,17,15,71,40,,,14,14,5,5,0.4,0.4
2023-10-28T01:00:00,1916A,103.7897,25.5035,曲靖市,环境监测站,,35,35,29,17,13,118,40,,,16,16,5,5,0.9,0.8
2023-10-28T01:00:00,1917A,103.8,25.5364,曲靖市,烟厂办公区,,44,44,25,17,17,116,41,,,19,14,5,5,0.6,0.5
2023-10-28T01:00:00,1918A,108.7197,34.3956,咸阳市,气象站,,,,,,,,,,,,,,,,
2023-10-28T01:00:00,1919A,108.673,34.3155,咸阳市,实验中学,颗粒物(PM10),124,197,138,78,57,107,2,,,84,68,4,6,1.1,0.9
2023-10-28T01:00:00,1920A,108.7233,34.3617,咸阳市,师范学院,细颗粒物(PM2.5),123,141,110,93,63,106,6,,,85,60,7,8,1.0,0.8
2023-10-28T01:00:00,1922A,109.0656,35.0994,铜川市,党校,颗粒物(PM10),78,106,99,42,37,122,3,,,80,58,7,10,1.0,0.8
2023-10-28T01:00:00,1923A,109.0697,35.0697,铜川市,王益区政府,细颗粒物(PM2.5),70,83,72,51,37,118,7,,,52,45,3,6,0.7,0.7
2023-10-28T01:00:00,1924A,108.9344,34.9058,铜川市,新区管委会,颗粒物(PM10),58,65,82,38,40,142,70,,,23,36,6,11,0.5,0.6
2023-10-28T01:00:00,1926A,109.4131,36.6275,延安市,枣园,颗粒物(PM10),55,60,48,23,18,130,4,,,49,37,6,7,0.5,0.5
2023-10-28T01:00:00,1927A,109.4761,36.6028,延安市,延大医附院,颗粒物(PM10),52,53,57,19,18,105,4,,,53,40,3,3,0.7,0.7
2023-10-28T01:00:00,1929A,109.5056,36.6106,延安市,百米大道,颗粒物(PM10),56,61,62,27,22,114,4,,,70,55,3,3,0.9,0.7
2023-10-28T01:00:00,1930A,107.185,34.3063,宝鸡市,庙沟村,颗粒物(PM10),68,86,57,40,32,119,66,,,25,22,10,10,0.4,0.4
2023-10-28T01:00:00,1931A,107.0708,34.3017,宝鸡市,竹园沟,,26,15,42,18,32,139,32,,,15,20,3,4,0.3,0.5
2023-10-28T01:00:00,1932A,107.1906,34.3672,宝鸡市,三陆医院,细颗粒物(PM2.5),133,143,93,101,59,135,6,,,72,52,21,17,0.9,0.7
2023-10-28T01:00:00,1933A,107.1431,34.3547,宝鸡市,监测站,细颗粒物(PM2.5),80,79,70,59,46,131,27,,,36,35,6,8,0.6,0.6
2023-10-28T01:00:00,1934A,107.1186,34.3739,宝鸡市,技工学校,细颗粒物(PM2.5),104,100,76,78,51,135,31,,,37,37,12,9,0.6,0.6
2023-10-28T01:00:00,1935A,107.3906,34.3528,宝鸡市,陈仓区环保局家属楼,细颗粒物(PM2.5),122,127,105,92,69,107,9,,,71,62,10,22,0.8,0.8
2023-10-28T01:00:00,1936A,107.2058,34.3497,宝鸡市,文理学院,细颗粒物(PM2.5),82,82,76,60,45,134,27,,,49,42,5,10,0.6,0.6
2023-10-28T01:00:00,1937A,107.2386,34.3622,宝鸡市,三迪小学,细颗粒物(PM2.5),102,98,84,76,57,133,14,,,62,52,7,12,0.6,0.6
2023-10-28T01:00:00,1938A,109.5293,34.5101,渭南市,农科所,细颗粒物(PM2.5),92,105,114,68,62,5,0,,,44,51,5,11,0.9,1.1
2023-10-28T01:00:00,1939A,109.4974,34.4877,渭南市,日报社,细颗粒物(PM2.5),92,107,103,68,58,96,2,,,74,63,9,15,0.8,0.8
2023-10-28T01:00:00,1940A,109.4636,34.493,渭南市,体育馆,细颗粒物(PM2.5),74,92,108,54,59,91,2,,,79,64,8,12,0.7,0.8
2023-10-28T01:00:00,1941A,109.4259,34.5023,渭南市,高新一小,细颗粒物(PM2.5),104,128,123,78,74,99,2,,,64,57,5,13,0.9,0.8
2023-10-28T01:00:00,1944A,102.1692,38.5167,金昌市,天庆家园,颗粒物(PM10),53,56,69,20,21,126,36,,,46,38,14,15,0.9,0.8
2023-10-28T01:00:00,1945A,98.2908,39.7711,嘉峪关市,气象局,,31,31,46,9,13,99,42,,,33,25,7,15,0,0.1
2023-10-28T01:00:00,1947A,106.3394,38.817,石嘴山市,沙湖旅游区,颗粒物(PM10),142,233,120,67,44,149,8,,,73,55,17,38,0.9,1.3
2023-10-28T01:00:00,1948A,106.3668,39.0145,石嘴山市,大武口朝阳西街,颗粒物(PM10),58,66,90,28,42,143,51,,,65,62,13,50,0.3,1
2023-10-28T01:00:00,1949A,106.7704,39.2282,石嘴山市,惠农南大街,颗粒物(PM10),95,139,111,46,31,140,3,,,91,66,26,27,1.9,1.3
2023-10-28T01:00:00,1950A,106.7099,39.1325,石嘴山市,红果子镇惠新街,颗粒物(PM10),77,103,88,54,32,136,8,,,90,57,33,21,0.8,0.6
2023-10-28T01:00:00,1951A,84.895,45.6094,克拉玛依市,长征新村,,13,0,26,2,4,63,39,,,2,9,9,10,0.1,0.3
2023-10-28T01:00:00,1952A,84.8988,45.5893,克拉玛依市,南林小区,,,,27,10,12,66,42,,,2,13,4,4,0.2,0.3
2023-10-28T01:00:00,1954A,84.905,44.3396,克拉玛依市,独山子区,颗粒物(PM10),63,75,62,19,18,77,27,,,25,24,5,8,0.4,0.4
2023-10-28T01:00:00,1955A,85.6979,46.098,克拉玛依市,乌尔禾区商贸楼,,12,5,32,6,6,66,38,,,3,14,7,8,0.2,0.4
2023-10-28T01:00:00,1956A,86.1472,41.7538,巴音郭楞州,孔雀公园,颗粒物(PM10),111,171,140,44,32,89,1,,,89,56,5,4,1.5,0.8
2023-10-28T01:00:00,1957A,86.1972,41.7166,巴音郭楞州,棉纺厂,颗粒物(PM10),164,278,182,54,38,88,4,,,61,45,2,2,0.4,0.5
2023-10-28T01:00:00,1958A,86.2357,41.7173,巴音郭楞州,经济开发区,颗粒物(PM10),72,94,138,26,34,90,56,,,13,31,3,3,0.2,0.4
2023-10-28T01:00:00,1961A,117.532,36.6868,济南市,东山小学,颗粒物(PM10),61,71,49,22,11,125,104,,,21,37,9,6,0.3,0.2
2023-10-28T01:00:00,1966A,120.0405,35.8735,青岛市,黄岛区4号,,44,44,38,17,7,95,36,,,55,37,12,8,1.0,0.6
2023-10-28T01:00:00,1982A,122.0693,37.2174,威海市,文登开发区,,44,44,43,19,10,104,18,,,30,25,7,8,0.6,0.5
2023-10-28T01:00:00,2031A,113.1817,27.9958,株洲市,云田中学,细颗粒物(PM2.5),69,85,80,50,56,51,38,,,30,31,8,6,0.9,1
2023-10-28T01:00:00,2054A,114.1099,32.1059,信阳市,平桥分局,细颗粒物(PM2.5),139,135,164,106,102,106,34,,,23,34,4,7,1.0,1
2023-10-28T01:00:00,2064A,113.9956,32.1271,信阳市,南湾水厂,细颗粒物(PM2.5),115,126,147,87,81,117,44,,,22,25,4,7,1.2,1.2
2023-10-28T01:00:00,2065A,114.0775,32.1195,信阳市,市酿酒公司,细颗粒物(PM2.5),129,138,152,98,102,104,33,,,31,36,4,7,1.3,1.2
2023-10-28T01:00:00,2066A,114.0609,32.1399,信阳市,审计局,细颗粒物(PM2.5),142,147,165,108,111,113,36,,,37,37,5,9,1.2,1.2
2023-10-28T01:00:00,2067A,114.6613,33.6128,周口市,市环境监测站,细颗粒物(PM2.5),234,266,199,184,127,130,0,,,105,65,9,17,1.1,0.9
2023-10-28T01:00:00,2068A,114.6758,33.6347,周口市,周口师范,细颗粒物(PM2.5),201,256,193,151,111,133,3,,,99,61,6,13,1.3,1
2023-10-28T01:00:00,2069A,114.6546,33.5979,周口市,市运管处,细颗粒物(PM2.5),234,310,214,184,119,136,,,,87,54,11,13,1.3,1.1
2023-10-28T01:00:00,2070A,114.6369,33.6406,周口市,川汇区环保局,细颗粒物(PM2.5),263,242,193,213,138,125,7,,,71,58,7,14,1.4,1
2023-10-28T01:00:00,2075A,117.6336,24.4674,漳州市,九湖,,,,,,,,,,,,,,,,
2023-10-28T01:00:00,2160A,112.85,35.5051,晋城市,自来水公司,颗粒物(PM10),94,137,127,58,66,161,47,,,46,51,8,14,1.0,1.4
2023-10-28T01:00:00,2161A,112.8318,35.4936,晋城市,白云商贸,细颗粒物(PM2.5),92,130,127,68,61,162,49,,,41,40,6,11,1.1,1.5
2023-10-28T01:00:00,2162A,112.8508,35.4887,晋城市,市环保局,颗粒物(PM10),96,141,134,68,66,163,32,,,66,54,7,12,1.2,1.5
2023-10-28T01:00:00,2163A,112.8676,35.4897,晋城市,技术学院,颗粒物(PM10),106,162,128,78,66,160,6,,,92,47,9,13,1.1,1.3
2023-10-28T01:00:00,2165A,112.8453,35.546,晋城市,白马寺,,,,,,,,,,,,,,,,
2023-10-28T01:00:00,2166A,112.4397,39.3522,朔州市,平朔,颗粒物(PM10),104,158,81,44,27,128,4,,,73,42,21,17,0.6,0.7
2023-10-28T01:00:00,2167A,112.4575,39.3617,朔州市,朔唯,颗粒物(PM10),126,201,111,44,29,119,1,,,92,55,37,25,0.8,1
2023-10-28T01:00:00,2168A,112.4258,39.3197,朔州市,区政府,颗粒物(PM10),66,81,65,29,24,121,26,,,52,36,17,14,0.6,0.7
2023-10-28T01:00:00,2169A,112.4072,39.3278,朔州市,市环保局,颗粒物(PM10),67,84,72,29,23,122,35,,,38,32,16,16,0.6,0.6
2023-10-28T01:00:00,2170A,112.4272,39.3681,朔州市,市二中,颗粒物(PM10),108,165,101,40,29,125,3,,,81,50,22,18,0.7,0.6
2023-10-28T01:00:00,2171A,112.7532,37.6945,晋中市,锦纶小区,颗粒物(PM10),53,56,77,24,25,141,36,,,42,44,8,11,0.3,0.5
2023-10-28T01:00:00,2173A,112.7249,37.7067,晋中市,南都小区,颗粒物(PM10),51,51,82,30,35,137,26,,,50,52,8,11,0.3,0.5
2023-10-28T01:00:00,2174A,112.6991,37.6982,晋中市,榆次区政府,颗粒物(PM10),54,58,80,25,34,133,44,,,39,55,9,12,0.4,0.6
2023-10-28T01:00:00,2175A,110.9956,35.0147,运城市,运城中学,细颗粒物(PM2.5),222,263,160,172,96,160,63,,,34,40,26,17,1.7,1.6
2023-10-28T01:00:00,2178A,110.9686,35.0303,运城市,地区技校,细颗粒物(PM2.5),239,318,177,189,94,156,24,,,66,47,15,14,2.3,1.9
2023-10-28T01:00:00,2179A,111.0414,35.1147,运城市,空港新区,细颗粒物(PM2.5),179,248,184,135,102,149,4,,,79,66,7,14,1.2,2
2023-10-28T01:00:00,2181A,112.7383,38.4519,忻州市,开发区,,42,42,63,29,24,122,18,,,64,53,12,13,0.5,0.5
2023-10-28T01:00:00,2182A,112.7003,38.4928,忻州市,会展中心,颗粒物(PM10),61,72,73,41,35,121,8,,,74,50,12,13,0.7,0.7
2023-10-28T01:00:00,2183A,111.1406,37.5211,吕梁市,环保局,颗粒物(PM10),59,67,78,19,20,118,1,,,64,50,3,6,0.4,0.4
2023-10-28T01:00:00,2185A,111.1297,37.5136,吕梁市,自来水公司,颗粒物(PM10),131,211,112,35,28,118,4,,,59,44,8,16,0.5,0.6
2023-10-28T01:00:00,2187A,106.8174,39.6973,乌海市,市林业局,颗粒物(PM10),78,105,104,38,36,120,2,,,96,69,25,48,1.1,1.4
2023-10-28T01:00:00,2188A,106.7907,39.6667,乌海市,中海勃湾学校,颗粒物(PM10),86,121,97,39,38,130,6,,,112,74,47,53,1.1,1.5
2023-10-28T01:00:00,2191A,122.2532,43.6801,通辽市,艺术职业学校,颗粒物(PM10),53,55,45,20,17,82,29,,,42,35,9,8,0.6,0.3
2023-10-28T01:00:00,2192A,119.7594,49.2261,呼伦贝尔市,区环保局,,37,37,39,15,19,70,29,,,22,33,4,4,0.3,0.6
2023-10-28T01:00:00,2195A,107.4212,40.761,巴彦淖尔市,附二中,颗粒物(PM10),71,92,99,42,35,116,12,,,96,51,7,19,0.8,0.9
2023-10-28T01:00:00,2196A,107.37,40.7372,巴彦淖尔市,市环保大楼,颗粒物(PM10),67,83,80,42,28,118,23,,,63,36,4,6,0.7,0.6
2023-10-28T01:00:00,2197A,113.1306,40.9923,乌兰察布市,集宁新区,,50,50,59,31,27,112,33,,,63,36,18,13,0.5,0.5
2023-10-28T01:00:00,2200A,122.0392,46.0656,兴安盟,胜华新制药厂,细颗粒物(PM2.5),64,69,65,46,34,75,6,,,36,28,4,5,0.9,0.7
2023-10-28T01:00:00,2201A,121.9504,46.0741,兴安盟,科右前旗环保局,"颗粒物(PM10),细颗粒物(PM2.5)",59,68,48,42,20,75,5,,,34,27,4,4,1.1,0.8
2023-10-28T01:00:00,2202A,116.1042,43.9317,锡林郭勒盟,市环保监测站,,29,29,30,4,4,97,70,,,5,12,7,8,0.2,0.3
2023-10-28T01:00:00,2203A,116.0781,43.9311,锡林郭勒盟,市政府,颗粒物(PM10),51,52,30,10,8,91,13,,,54,25,10,10,0.3,0.3
2023-10-28T01:00:00,2204A,105.6467,38.8363,阿拉善盟,西城区西花园,,34,34,40,21,19,133,91,,,14,18,10,11,0.9,0.9
2023-10-28T01:00:00,2205A,105.6985,38.8411,阿拉善盟,蒙二幼,,30,12,43,10,18,127,93,,,8,14,9,10,0.3,0.4
2023-10-28T01:00:00,2206A,105.724,38.8516,阿拉善盟,环保局新楼,,32,27,32,10,17,118,101,,,5,9,8,9,0.3,0.3
2023-10-28T01:00:00,2207A,121.6094,41.998,阜新市,工业园区,颗粒物(PM10),73,95,86,31,24,90,2,,,60,45,19,18,1.0,1
2023-10-28T01:00:00,2208A,121.6697,42.0279,阜新市,长青街,颗粒物(PM10),61,71,72,36,30,83,2,,,67,47,17,22,1.9,2.9
2023-10-28T01:00:00,2209A,121.6673,42.0705,阜新市,农业园区,,46,46,47,29,25,84,48,,,28,23,48,35,0.7,0.8
2023-10-28T01:00:00,2210A,121.6717,42.0224,阜新市,东苑,颗粒物(PM10),65,80,81,41,32,78,6,,,64,51,27,28,1.8,3
2023-10-28T01:00:00,2211A,121.6506,42.0498,阜新市,玉龙新城,颗粒物(PM10),64,78,70,26,20,93,8,,,55,41,11,19,1.8,1.5
2023-10-28T01:00:00,2212A,123.2,41.1953,辽阳市,宏伟区,颗粒物(PM10),64,77,64,45,30,72,7,,,60,45,37,19,0.9,0.9
2023-10-28T01:00:00,2213A,123.1683,41.2495,辽阳市,新华园,颗粒物(PM10),71,92,76,46,33,67,1,,,60,46,18,19,1.3,1.2
2023-10-28T01:00:00,2214A,123.2354,41.2639,辽阳市,滨河路,颗粒物(PM10),83,116,78,60,45,72,5,,,55,42,20,15,0.8,0.9
2023-10-28T01:00:00,2215A,123.149,41.2991,辽阳市,铁西工业园,细颗粒物(PM2.5),89,114,79,66,42,70,3,,,60,48,11,16,1.1,1
2023-10-28T01:00:00,2216A,123.8139,42.3022,铁岭市,汇工街西,细颗粒物(PM2.5),389,318,136,339,135,96,10,,,74,44,76,28,1.9,1
2023-10-28T01:00:00,2217A,123.8649,42.2923,铁岭市,水上乐园,细颗粒物(PM2.5),277,293,119,227,81,96,16,,,63,42,8,7,1.5,1
2023-10-28T01:00:00,2218A,123.8486,42.2867,铁岭市,银州路东段,细颗粒物(PM2.5),314,280,123,264,107,80,14,,,64,44,8,7,1.7,0.9
2023-10-28T01:00:00,2219A,123.7153,42.2217,铁岭市,金沙江路北,细颗粒物(PM2.5),113,102,101,85,78,88,8,,,57,41,8,8,1.0,0.8
2023-10-28T01:00:00,2220A,120.4318,41.5881,朝阳市,西梁,颗粒物(PM10),71,92,76,31,29,71,5,,,49,43,17,17,0.8,0.9
2023-10-28T01:00:00,2221A,120.4521,41.5646,朝阳市,河畔小区,颗粒物(PM10),62,74,61,40,28,76,6,,,39,33,26,14,1.3,1.1
2023-10-28T01:00:00,2222A,120.4176,41.5648,朝阳市,八里堡,颗粒物(PM10),71,91,68,27,26,67,4,,,51,39,18,17,0.9,1
2023-10-28T01:00:00,2223A,120.3806,41.5969,朝阳市,农业园区,,49,49,61,27,28,72,6,,,53,44,17,16,1.0,1
2023-10-28T01:00:00,2225A,124.4002,43.1713,四平市,一商场,细颗粒物(PM2.5),88,124,67,65,29,67,21,,,51,43,11,10,0.6,0.5
2023-10-28T01:00:00,2226A,124.388,43.193,四平市,境园,细颗粒物(PM2.5),52,47,60,36,33,73,5,,,48,32,6,7,0.3,0.3
2023-10-28T01:00:00,2227A,125.1358,42.8845,辽源市,环保局,细颗粒物(PM2.5),84,95,62,62,41,84,8,,,32,31,8,12,1.1,0.9
2023-10-28T01:00:00,2229A,125.9358,41.7173,通化市,光明,,45,45,46,25,23,68,13,,,50,52,12,22,0.6,1
2023-10-28T01:00:00,2230A,125.9446,41.7325,通化市,铁路,颗粒物(PM10),58,66,53,32,26,73,5,,,65,48,10,22,0.5,0.9
2023-10-28T01:00:00,2231A,126.4219,41.9171,白山市,喜丰,颗粒物(PM10),52,53,56,27,20,78,27,,,30,31,9,10,0.7,0.7
2023-10-28T01:00:00,2232A,126.4077,41.9419,白山市,环保局,颗粒物(PM10),53,56,54,26,19,81,37,,,19,27,8,11,0.6,0.7
2023-10-28T01:00:00,2233A,124.8006,45.1214,松原市,江南,细颗粒物(PM2.5),98,117,80,73,38,79,16,,,55,28,19,10,0.7,0.8
2023-10-28T01:00:00,2234A,124.7965,45.1722,松原市,江北,细颗粒物(PM2.5),88,81,55,65,31,70,3,,,51,32,3,4,0.6,0.5
2023-10-28T01:00:00,2235A,122.7911,45.6077,白城市,洮北区环保局,颗粒物(PM10),51,51,57,31,30,88,51,,,33,32,5,9,0.6,0.6
2023-10-28T01:00:00,2236A,122.8738,45.5725,白城市,市环保局,颗粒物(PM10),55,59,57,33,16,81,40,,,31,34,5,6,0.4,0.4
2023-10-28T01:00:00,2237A,129.47,42.8883,延边朝鲜族自治州,妇幼医院,,22,22,33,8,11,77,25,,,23,24,7,10,0.5,0.5
2023-10-28T01:00:00,2238A,129.5055,42.9108,延边朝鲜族自治州,延边医院,,26,26,49,13,17,79,14,,,38,30,7,9,0.6,0.6
2023-10-28T01:00:00,2239A,129.3964,42.8881,延边朝鲜族自治州,朝阳川镇医院,,24,24,37,6,8,84,24,,,17,18,6,6,0.5,0.5
2023-10-28T01:00:00,2240A,130.9762,45.3001,鸡西市,环保局,颗粒物(PM10),59,68,41,34,19,58,32,,,20,21,5,5,0.5,0.5
2023-10-28T01:00:00,2243A,130.9429,45.3039,鸡西市,第一中学,,42,42,30,15,13,62,34,,,19,16,8,8,0.2,0.2
2023-10-28T01:00:00,2244A,130.2537,47.3416,鹤岗市,哈啤分公司,,30,30,23,21,15,63,35,,,10,10,11,12,0.3,0.2
2023-10-28T01:00:00,2245A,130.2684,47.3086,鹤岗市,斯达机电,,29,24,27,20,16,62,41,,,15,13,8,11,0.4,0.4
2023-10-28T01:00:00,2246A,130.3114,47.3388,鹤岗市,东山纸板厂,,,,44,33,19,67,12,,,36,20,12,13,1.4,0.7
2023-10-28T01:00:00,2247A,130.1097,47.3382,鹤岗市,五号水库,,32,32,23,21,14,64,40,,,9,11,10,11,0.1,0.4
2023-10-28T01:00:00,2248A,131.1511,46.6937,双鸭山市,双合村,颗粒物(PM10),59,68,45,21,13,65,9,,,28,15,17,12,1.3,0.7
2023-10-28T01:00:00,2249A,131.1652,46.6191,双鸭山市,南小市,,32,29,36,22,16,66,24,,,15,16,7,8,0.6,0.5
2023-10-28T01:00:00,2250A,131.1524,46.6554,双鸭山市,环保局,颗粒物(PM10),58,66,41,27,20,60,4,,,29,18,13,9,1.0,0.5
2023-10-28T01:00:00,2251A,131.12,46.5656,双鸭山市,苗圃,,43,41,31,30,21,72,46,,,10,8,4,3,0.4,0.3
2023-10-28T01:00:00,2252A,128.5159,47.4311,伊春市,环保局,,22,22,20,13,9,57,24,,,13,16,3,4,0.4,0.5
2023-10-28T01:00:00,2253A,128.9102,47.7412,伊春市,电力嘉园,,33,33,26,11,10,58,3,,,28,22,5,6,0.3,0.3
2023-10-28T01:00:00,2254A,129.5029,48.471,伊春市,汤旺河国家公园,,27,27,20,18,12,55,21,,,4,4,4,5,0.2,0.2
2023-10-28T01:00:00,2255A,130.2751,46.8028,佳木斯市,佳纺,颗粒物(PM10),64,77,46,30,17,60,7,,,32,29,3,4,0.5,0.5
2023-10-28T01:00:00,2256A,130.3995,46.8307,佳木斯市,发电厂,,47,47,30,21,15,58,4,,,39,18,8,7,0.7,0.5
2023-10-28T01:00:00,2257A,130.3258,46.7975,佳木斯市,环保局,颗粒物(PM10),57,64,32,27,13,60,5,,,40,26,8,5,0.8,0.5
2023-10-28T01:00:00,2258A,130.3648,46.8032,佳木斯市,十一中,颗粒物(PM10),56,61,31,35,15,50,9,,,44,25,13,4,0.7,0.4
2023-10-28T01:00:00,2259A,130.3794,46.7588,佳木斯市,四丰,,36,36,19,13,11,68,26,,,22,18,1,1,0.3,0.3
2023-10-28T01:00:00,2262A,131.0518,45.8751,七台河市,新一中,,30,30,27,15,13,73,21,,,29,19,13,10,0.6,0.5
2023-10-28T01:00:00,2263A,127.4833,50.2524,黑河市,交通局,,48,45,58,33,34,65,41,,,12,25,3,4,0.4,0.5
2023-10-28T01:00:00,2264A,127.5144,50.2341,黑河市,环保局,,50,47,48,35,36,68,44,,,13,24,3,7,0.4,0.6
2023-10-28T01:00:00,2265A,127.5291,50.2472,黑河市,大黑河岛,,,61,63,45,48,,,,,2,2,1,3,,
2023-10-28T01:00:00,2266A,126.9785,46.6365,绥化市,人和东街,颗粒物(PM10),58,66,45,38,24,65,11,,,47,33,19,5,0.6,0.5
2023-10-28T01:00:00,2267A,126.964,46.6528,绥化市,党政办公中心,颗粒物(PM10),51,52,41,31,22,70,20,,,40,26,23,6,0.5,0.4
2023-10-28T01:00:00,2269A,124.1069,50.4097,大兴安岭地区,科技局,,36,30,19,25,18,63,26,,,12,10,8,7,0.4,0.3
2023-10-28T01:00:00,2270A,117.396,32.939,蚌埠市,工人疗养院,颗粒物(PM10),63,76,130,32,73,131,53,,,40,33,7,6,0.5,0.7
2023-10-28T01:00:00,2271A,117.3605,32.9427,蚌埠市,百货大楼,颗粒物(PM10),61,72,139,30,78,132,66,,,29,33,5,6,0.4,0.7
2023-10-28T01:00:00,2273A,117.4185,32.8911,蚌埠市,蚌埠学院,颗粒物(PM10),63,75,113,35,71,154,46,,,33,33,4,6,0.5,0.7
2023-10-28T01:00:00,2274A,117.3533,32.9673,蚌埠市,淮上区政府,颗粒物(PM10),65,80,129,44,87,128,30,,,52,27,10,7,0.5,0.7
2023-10-28T01:00:00,2275A,117.3145,32.8977,蚌埠市,高新区,颗粒物(PM10),56,61,111,30,74,154,64,,,28,33,6,8,0.5,0.8
2023-10-28T01:00:00,2277A,116.8305,32.7727,淮南市,潘集区政府,细颗粒物(PM2.5),105,149,146,79,88,189,52,,,34,30,9,10,0.8,0.8
2023-10-28T01:00:00,2278A,117.0067,32.6524,淮南市,师范学院,细颗粒物(PM2.5),88,118,147,65,95,158,75,,,22,27,14,12,0.7,0.9
2023-10-28T01:00:00,2279A,116.8569,32.5951,淮南市,谢家集区政府,细颗粒物(PM2.5),77,98,113,56,67,167,87,,,36,42,28,15,0.6,0.7
2023-10-28T01:00:00,2280A,116.8281,32.633,淮南市,八公山区政府,细颗粒物(PM2.5),109,138,147,82,94,146,86,,,22,27,20,13,0.7,0.8
2023-10-28T01:00:00,2281A,116.6325,32.6201,淮南市,焦岗湖风景区管理处,细颗粒物(PM2.5),94,134,117,70,63,201,41,,,37,30,2,6,0.5,1
2023-10-28T01:00:00,2282A,116.8004,33.975,淮北市,监测站,颗粒物(PM10),61,71,86,31,34,126,52,,,33,31,10,11,0.6,0.7
2023-10-28T01:00:00,2283A,116.8091,33.9007,淮北市,烈山区政府,颗粒物(PM10),82,113,120,49,53,139,39,,,52,41,8,10,0.5,0.7
2023-10-28T01:00:00,2285A,117.8177,30.9412,铜陵市,市第四中学,细颗粒物(PM2.5),118,135,117,89,76,192,94,,,17,36,8,9,1.2,1.2
2023-10-28T01:00:00,2286A,117.8059,30.9273,铜陵市,市公路局,颗粒物(PM10),104,158,121,66,50,188,87,,,20,35,11,12,1.3,1.3
2023-10-28T01:00:00,2287A,117.7807,30.9413,铜陵市,市新民污水厂,颗粒物(PM10),120,190,146,69,61,184,38,,,93,51,6,8,1.0,1
2023-10-28T01:00:00,2288A,117.7439,30.8792,铜陵市,市第九中学,细颗粒物(PM2.5),134,203,165,102,78,168,67,,,35,54,4,8,1.4,1.4
2023-10-28T01:00:00,2289A,117.846,30.9413,铜陵市,车站新区,细颗粒物(PM2.5),165,154,122,125,90,199,89,,,18,36,4,6,0.9,0.9
2023-10-28T01:00:00,2290A,117.8483,30.97,铜陵市,市职教基地,细颗粒物(PM2.5),112,149,119,84,71,177,79,,,14,26,6,8,1.2,1.2
2023-10-28T01:00:00,2291A,117.0809,30.5177,安庆市,环科院,细颗粒物(PM2.5),115,124,96,87,69,166,95,,,24,32,11,13,1.7,1.3
2023-10-28T01:00:00,2292A,117.0331,30.5119,安庆市,马山宾馆,细颗粒物(PM2.5),144,129,91,110,74,179,107,,,26,36,10,11,1.6,1.2
2023-10-28T01:00:00,2294A,116.9896,30.6145,安庆市,安庆大学,细颗粒物(PM2.5),144,113,90,110,73,159,80,,,23,32,6,8,1.6,1.3
2023-10-28T01:00:00,2295A,118.2903,29.6963,黄山市,延安路89号,颗粒物(PM10),51,52,64,28,32,126,27,,,14,15,4,5,0.4,0.5
2023-10-28T01:00:00,2296A,118.327,29.7178,黄山市,黄山东路89号,,48,48,59,31,35,132,34,,,13,17,5,5,0.7,0.7
2023-10-28T01:00:00,2297A,118.1371,30.2756,黄山市,黄山区政府5号楼,细颗粒物(PM2.5),57,60,65,40,43,164,28,,,11,12,6,7,0.9,0.9
2023-10-28T01:00:00,2298A,118.3093,32.3153,滁州市,老年大学,颗粒物(PM10),55,60,99,26,70,174,25,,,50,35,9,8,0.4,0.7
2023-10-28T01:00:00,2299A,118.3244,32.2786,滁州市,人大宾馆,颗粒物(PM10),58,65,111,34,82,172,17,,,65,40,9,9,0.4,0.7
2023-10-28T01:00:00,2301A,115.8277,32.8929,阜阳市,市监测站,细颗粒物(PM2.5),186,200,179,140,126,150,36,,,55,45,10,10,1.2,1.1
2023-10-28T01:00:00,2303A,115.8554,32.8605,阜阳市,开发区,细颗粒物(PM2.5),209,195,191,159,138,152,50,,,59,46,11,11,1.1,1
2023-10-28T01:00:00,2307A,116.5079,31.737,六安市,监测大楼,细颗粒物(PM2.5),94,122,89,70,54,152,83,,,20,35,6,7,1.0,0.8
2023-10-28T01:00:00,2308A,116.4738,31.7643,六安市,皖西学院,细颗粒物(PM2.5),115,139,97,87,51,154,95,,,19,27,10,9,1.1,0.8
2023-10-28T01:00:00,2309A,116.4996,31.7905,六安市,朝阳厂,细颗粒物(PM2.5),104,104,89,78,63,152,99,,,15,34,9,10,1.1,0.9
2023-10-28T01:00:00,2310A,116.5567,31.7886,六安市,开发区,颗粒物(PM10),111,171,128,72,65,151,77,,,22,31,11,9,1.1,1
2023-10-28T01:00:00,2311A,115.8072,33.8399,亳州市,污水处理厂,细颗粒物(PM2.5),175,190,138,132,78,167,36,,,57,41,22,19,1.1,0.9
2023-10-28T01:00:00,2312A,115.7789,33.8518,亳州市,三国揽胜宫,细颗粒物(PM2.5),178,134,106,134,77,166,51,,,48,40,14,14,0.9,0.7
2023-10-28T01:00:00,2314A,117.47,30.6618,池州市,池州学院,细颗粒物(PM2.5),117,119,114,88,74,155,98,,,16,41,5,10,1.2,1.1
2023-10-28T01:00:00,2316A,118.7581,30.9454,宣城市,鳌峰子站,细颗粒物(PM2.5),77,83,94,56,67,152,100,,,18,27,4,5,0.8,1
2023-10-28T01:00:00,2317A,118.7385,30.9743,宣城市,敬亭山子站,细颗粒物(PM2.5),77,74,95,56,73,163,66,,,23,37,7,9,0.8,1.1
2023-10-28T01:00:00,2318A,118.7173,30.9427,宣城市,开发区子站,细颗粒物(PM2.5),72,85,94,52,71,158,103,,,19,33,5,7,0.8,1
2023-10-28T01:00:00,2319A,119.0141,25.4325,莆田市,荔城区仓后路,,27,24,24,14,13,86,86,,,8,10,6,6,0.7,0.7
2023-10-28T01:00:00,2320A,119.0015,25.4553,莆田市,莆田市监测站,,30,11,18,12,13,95,93,,,4,5,9,7,0.5,0.6
2023-10-28T01:00:00,2321A,119.1119,25.4561,莆田市,涵江区六中,,31,31,24,20,17,100,82,,,8,9,8,8,0.6,0.6
2023-10-28T01:00:00,2322A,119.1013,25.3215,莆田市,秀屿区政府,,25,24,29,16,16,88,77,,,12,16,8,7,0.6,0.6
2023-10-28T01:00:00,2323A,118.981,25.4792,莆田市,东圳水库,,,,,,,,,,,,,,,,
2023-10-28T01:00:00,2324A,117.6211,26.2625,三明市,三钢,,26,13,15,13,15,86,81,,,7,12,6,7,0.3,0.5
2023-10-28T01:00:00,2325A,117.635,26.2714,三明市,三明二中,,25,7,15,10,14,80,77,,,9,12,3,4,0.3,0.4
2023-10-28T01:00:00,2326A,117.6028,26.2378,三明市,三元区政府,,25,10,16,5,10,84,80,,,10,13,3,4,0.5,0.6
2023-10-28T01:00:00,2327A,117.7275,26.3108,三明市,洋溪,,,,,,,,,,,,,,,,
2023-10-28T01:00:00,2331A,118.0966,26.6761,南平市,茫荡山,,,,,,,,,,,,,,,,
2023-10-28T01:00:00,2332A,118.1681,26.6369,南平市,南平市监测站,,31,6,18,7,16,99,99,,,2,10,3,4,0.3,0.5
2023-10-28T01:00:00,2333A,118.1825,26.6489,南平市,南平铝业有限公司,,26,12,18,7,16,83,82,,,8,14,4,4,0.4,0.6
2023-10-28T01:00:00,2334A,118.1756,26.6272,南平市,南平七中,,27,9,19,5,14,84,84,,,4,9,4,5,0.3,0.5
2023-10-28T01:00:00,2335A,117.0189,25.1181,龙岩市,龙岩师专,,,,,,,,,,,,,,,,
2023-10-28T01:00:00,2336A,117.0217,25.1033,龙岩市,龙岩市监测站,,20,13,26,14,22,54,39,,,15,18,4,6,0.6,0.7
2023-10-28T01:00:00,2337A,117.0258,25.0661,龙岩市,闽西职业技术学院,,15,9,28,10,23,58,47,,,10,16,4,6,0.6,0.7
2023-10-28T01:00:00,2338A,117.0196,25.0306,龙岩市,龙岩学院,,12,12,29,7,17,57,34,,,12,16,5,7,0.5,0.6
2023-10-28T01:00:00,2339A,119.5001,26.6946,宁德市,金涵水库,,,,,,,,,,,,,,,,
2023-10-28T01:00:00,2341A,119.5388,26.6612,宁德市,宁德市监测站,,23,14,24,16,19,82,68,,,9,15,6,6,0.5,0.7
2023-10-28T01:00:00,2342A,117.3102,29.3867,景德镇市,王港中学,,44,44,40,30,30,97,16,,,7,4,2,2,0.4,0.5
2023-10-28T01:00:00,2343A,117.2117,29.2933,景德镇市,老干部活动中心,细颗粒物(PM2.5),70,53,57,51,40,78,42,,,17,18,9,13,0.5,0.6
2023-10-28T01:00:00,2344A,117.1894,29.2789,景德镇市,兽医站,细颗粒物(PM2.5),82,52,52,60,46,80,41,,,17,15,17,6,0.7,0.8
2023-10-28T01:00:00,2345A,117.1547,29.2617,景德镇市,台达陶瓷,"颗粒物(PM10),细颗粒物(PM2.5)",54,57,60,38,41,75,52,,,13,21,11,10,0.6,0.6
2023-10-28T01:00:00,2346A,117.2461,29.2956,景德镇市,陶研所,颗粒物(PM10),56,61,74,37,37,69,36,,,7,16,3,7,0.5,0.6
2023-10-28T01:00:00,2347A,114.0997,27.5002,萍乡市,武功山,,25,23,17,17,12,84,25,,,5,5,6,6,0.3,0.3
2023-10-28T01:00:00,2348A,113.8385,27.6434,萍乡市,中医院,细颗粒物(PM2.5),75,59,49,55,46,60,15,,,13,18,10,15,1.0,1.1
2023-10-28T01:00:00,2349A,113.8493,27.6253,萍乡市,市政府车库,细颗粒物(PM2.5),59,48,43,42,33,63,14,,,17,19,13,12,0.9,0.9
2023-10-28T01:00:00,2350A,113.8676,27.6435,萍乡市,市环保局,,47,47,43,31,35,68,19,,,16,18,11,14,1.0,1
2023-10-28T01:00:00,2351A,113.866,27.6198,萍乡市,安源区政府,细颗粒物(PM2.5),59,55,44,42,32,58,13,,,16,17,10,13,0.8,0.9
2023-10-28T01:00:00,2352A,115.0861,27.9317,新余市,北岗,细颗粒物(PM2.5),69,59,49,50,40,73,33,,,14,16,12,17,1.0,0.7
2023-10-28T01:00:00,2353A,114.9886,27.8431,新余市,飞宇,细颗粒物(PM2.5),73,80,64,53,40,81,11,,,34,30,27,21,1.1,0.9
2023-10-28T01:00:00,2354A,114.9231,27.8246,新余市,第二水厂,细颗粒物(PM2.5),77,80,80,56,43,92,23,,,33,29,22,11,0.6,0.6
2023-10-28T01:00:00,2355A,114.9308,27.8036,新余市,市气象局,细颗粒物(PM2.5),99,92,70,74,55,86,20,,,37,29,10,9,1.2,0.9
2023-10-28T01:00:00,2357A,116.9822,28.1136,鹰潭市,龙虎山,,38,38,61,15,27,133,36,,,3,5,4,8,0.2,0.3
2023-10-28T01:00:00,2358A,117.0564,28.2642,鹰潭市,新监测站,,30,17,74,21,56,177,69,,,3,22,2,21,0.3,0.7
2023-10-28T01:00:00,2359A,117.0311,28.2475,鹰潭市,财苑宾馆,,22,21,78,13,60,188,68,,,4,20,4,27,0.3,0.7
2023-10-28T01:00:00,2360A,117.0222,28.2264,鹰潭市,体育馆,,33,11,80,23,66,174,64,,,5,22,6,25,0.4,0.8
2023-10-28T01:00:00,2361A,117.0017,28.2131,鹰潭市,三川水表,细颗粒物(PM2.5),69,66,90,50,64,173,31,,,19,22,4,17,0.6,0.9
2023-10-28T01:00:00,2362A,114.9017,25.9149,赣州市,通天岩,,,,,,,,,,,,,,,,
2023-10-28T01:00:00,2363A,114.9367,25.8664,赣州市,地委,,38,31,33,26,22,70,49,,,8,10,10,10,1.0,1.1
2023-10-28T01:00:00,2364A,114.9461,25.8481,赣州市,气象台,,36,27,28,25,21,73,58,,,10,14,5,7,1.5,1.5
2023-10-28T01:00:00,2365A,114.9322,25.8333,赣州市,市图书馆,,40,32,35,28,23,70,53,,,11,12,8,9,0.9,1
2023-10-28T01:00:00,2366A,114.8905,25.8471,赣州市,华坚鞋城,,42,31,34,29,24,76,48,,,12,12,7,8,1.3,1.3
2023-10-28T01:00:00,2367A,114.9754,27.0803,吉安市,红声器材厂,细颗粒物(PM2.5),98,83,72,73,47,113,56,,,20,17,14,10,1.0,1
2023-10-28T01:00:00,2368A,114.9658,27.0999,吉安市,市森林工业局,细颗粒物(PM2.5),85,95,65,63,46,111,55,,,19,19,14,13,0.9,0.9
2023-10-28T01:00:00,2369A,114.99,27.1312,吉安市,市环境监测站,细颗粒物(PM2.5),79,82,61,58,43,110,51,,,20,18,12,10,0.8,0.9
2023-10-28T01:00:00,2370A,115.0093,27.0968,吉安市,青原区法院,细颗粒物(PM2.5),92,77,56,68,45,110,56,,,19,17,15,11,1.1,1
2023-10-28T01:00:00,2371A,114.3408,27.8064,宜春市,槟榔水业,细颗粒物(PM2.5),67,59,49,48,35,46,16,,,26,26,2,11,0.6,0.6
2023-10-28T01:00:00,2373A,114.3956,27.7844,宜春市,市石油公司,细颗粒物(PM2.5),62,64,54,44,37,54,34,,,13,19,2,6,0.9,0.8
2023-10-28T01:00:00,2374A,114.3703,27.7914,宜春市,市气象局,细颗粒物(PM2.5),73,64,53,53,38,61,58,,,15,26,3,8,0.9,0.8
2023-10-28T01:00:00,2375A,114.4013,27.8074,宜春市,市广电局,细颗粒物(PM2.5),65,60,51,47,36,64,40,,,18,25,3,11,1.2,1
2023-10-28T01:00:00,2376A,116.2127,28.0814,抚州市,桐源党溪,细颗粒物(PM2.5),65,66,61,47,44,122,43,,,11,9,2,5,0.7,0.9
2023-10-28T01:00:00,2377A,116.3544,27.9831,抚州市,市站,,50,29,67,35,53,126,83,,,9,18,5,10,1.1,1.1
2023-10-28T01:00:00,2378A,116.3565,27.963,抚州市,血防站,细颗粒物(PM2.5),70,34,72,51,55,112,78,,,7,16,3,4,0.6,1.2
2023-10-28T01:00:00,2379A,116.3564,28.0007,抚州市,采茶剧团,细颗粒物(PM2.5),53,50,65,37,50,125,77,,,6,14,4,7,0.7,1.1
2023-10-28T01:00:00,2380A,116.385,27.9647,抚州市,医学分院,,48,46,70,33,49,122,80,,,7,15,6,10,0.8,1.2
2023-10-28T01:00:00,2381A,118.005,28.4572,上饶市,百草园,,,62,62,44,40,160,90,,,13,14,12,10,,
2023-10-28T01:00:00,2382A,117.9756,28.4436,上饶市,市监测站,,,,77,,47,181,92,,,28,25,8,8,0.8,0.8
2023-10-28T01:00:00,2383A,117.9519,28.4628,上饶市,凤凰光学,颗粒物(PM10),60,70,71,41,47,174,65,,,40,29,19,12,0.6,0.6
2023-10-28T01:00:00,2385A,114.17,35.9019,鹤壁市,市监测站,细颗粒物(PM2.5),107,146,110,80,58,145,8,,,78,42,8,16,0.9,0.8
2023-10-28T01:00:00,2386A,114.2956,35.7511,鹤壁市,市交警支队,颗粒物(PM10),101,151,119,73,47,133,78,,,39,46,9,9,0.8,0.8
2023-10-28T01:00:00,2387A,114.2878,35.7306,鹤壁市,迎宾馆,细颗粒物(PM2.5),103,142,108,77,48,136,78,,,45,45,18,16,0.8,0.8
2023-10-28T01:00:00,2389A,113.836,35.311,新乡市,环保西院,细颗粒物(PM2.5),107,144,126,80,60,153,8,,,92,58,11,14,1.0,0.9
2023-10-28T01:00:00,2390A,113.884,35.272,新乡市,开发区,细颗粒物(PM2.5),138,153,115,105,60,162,34,,,61,46,8,12,1.2,1
2023-10-28T01:00:00,2391A,113.883,35.303,新乡市,环保东院,细颗粒物(PM2.5),130,165,125,99,57,152,11,,,88,49,9,14,1.3,0.9
2023-10-28T01:00:00,2392A,115.0312,35.7636,濮阳市,环保局,细颗粒物(PM2.5),145,146,99,111,48,172,85,,,24,23,7,10,1.0,0.8
2023-10-28T01:00:00,2394A,115.0574,35.7609,濮阳市,油田运输公司,细颗粒物(PM2.5),147,191,97,112,42,170,80,,,29,28,6,9,0.9,0.7
2023-10-28T01:00:00,2395A,115.0866,35.7754,濮阳市,油田物探公司,,,,100,,47,178,,,,,22,,11,,0.6
2023-10-28T01:00:00,2396A,113.8276,34.0159,许昌市,监测站,细颗粒物(PM2.5),156,216,143,119,72,145,12,,,82,49,10,11,0.9,0.9
2023-10-28T01:00:00,2398A,113.7906,33.9953,许昌市,开发区,细颗粒物(PM2.5),163,200,132,124,79,144,6,,,87,51,8,10,1.1,0.9
2023-10-28T01:00:00,2399A,114.051,33.5699,漯河市,三五一五工厂,细颗粒物(PM2.5),189,239,190,142,106,121,5,,,96,58,12,13,0.9,0.7
2023-10-28T01:00:00,2400A,114.0055,33.5698,漯河市,漯河大学,细颗粒物(PM2.5),145,219,173,111,81,114,6,,,93,56,11,11,0.9,0.8
2023-10-28T01:00:00,2401A,114.0138,33.5828,漯河市,市水利局,细颗粒物(PM2.5),156,222,180,119,83,118,6,,,84,49,10,12,0.9,0.8
2023-10-28T01:00:00,2402A,114.0261,33.5698,漯河市,市广电局,细颗粒物(PM2.5),153,225,183,117,94,114,24,,,60,48,7,9,0.9,0.8
2023-10-28T01:00:00,2404A,112.5224,33.0122,南阳市,瓦房庄,细颗粒物(PM2.5),122,153,142,92,78,114,36,,,47,47,19,13,0.9,0.8
2023-10-28T01:00:00,2405A,112.5003,32.9735,南阳市,汉画馆,细颗粒物(PM2.5),128,158,137,97,76,128,19,,,60,48,11,9,1.0,0.9
2023-10-28T01:00:00,2406A,112.5573,33.027,南阳市,气象站,细颗粒物(PM2.5),122,155,141,92,70,99,43,,,45,45,5,4,0.8,0.7
2023-10-28T01:00:00,2407A,112.5481,32.9689,南阳市,理工学院,细颗粒物(PM2.5),145,194,166,111,78,122,8,,,74,45,12,9,0.9,0.7
2023-10-28T01:00:00,2408A,115.6702,34.4285,商丘市,环境监测站,细颗粒物(PM2.5),178,162,104,134,65,155,71,,,29,33,6,8,0.8,0.7
2023-10-28T01:00:00,2409A,115.6458,34.4045,商丘市,粮食局,细颗粒物(PM2.5),207,171,111,157,70,157,68,,,40,37,9,8,0.9,0.7
2023-10-28T01:00:00,2410A,115.6293,34.3948,商丘市,睢阳区环保局,细颗粒物(PM2.5),155,175,112,118,60,152,59,,,35,33,8,9,0.8,0.6
2023-10-28T01:00:00,2420A,114.0189,32.9656,驻马店市,市一纸厂,颗粒物(PM10),120,190,166,86,80,86,14,,,59,44,12,11,0.7,0.6
2023-10-28T01:00:00,2421A,114.0114,33.015,驻马店市,市彩印厂,细颗粒物(PM2.5),138,220,204,105,82,75,25,,,50,46,6,8,0.7,0.6
2023-10-28T01:00:00,2422A,113.9976,32.9771,驻马店市,天方二分厂,细颗粒物(PM2.5),142,217,198,108,93,80,24,,,58,50,11,11,0.9,0.8
2023-10-28T01:00:00,2423A,115.0601,30.2313,黄石市,沈家营,细颗粒物(PM2.5),132,181,190,100,107,70,36,,,37,50,6,6,1.2,1.3
2023-10-28T01:00:00,2424A,115.0817,30.2006,黄石市,陈家湾,细颗粒物(PM2.5),133,142,174,101,99,102,57,,,12,35,7,9,0.9,1.2
2023-10-28T01:00:00,2426A,114.8988,30.2019,黄石市,铁山,细颗粒物(PM2.5),163,132,117,124,107,104,4,,,66,49,18,12,2.1,1.6
2023-10-28T01:00:00,2427A,115.0307,30.2092,黄石市,团城山,细颗粒物(PM2.5),143,188,190,109,111,87,29,,,54,54,10,10,1.4,1.4
2023-10-28T01:00:00,2428A,111.0419,32.395,十堰市,武当山,,27,24,30,9,16,95,86,,,5,10,10,11,0.8,0.9
2023-10-28T01:00:00,2429A,110.78,32.6494,十堰市,滨河新村,,46,44,83,32,39,48,6,,,26,39,8,10,0.8,0.9
2023-10-28T01:00:00,2430A,110.7258,32.6389,十堰市,刘家沟,,28,25,59,19,33,67,31,,,3,15,8,9,0.6,0.8
2023-10-28T01:00:00,2431A,110.8839,32.5714,十堰市,铁二处,颗粒物(PM10),55,59,65,24,31,63,17,,,12,30,6,8,0.7,0.8
2023-10-28T01:00:00,2432A,112.155,32.0197,襄阳市,襄城运动路,细颗粒物(PM2.5),130,171,141,99,72,81,40,,,48,32,15,15,1.0,0.9
2023-10-28T01:00:00,2433A,112.1392,32.0564,襄阳市,樊城新华路,细颗粒物(PM2.5),143,184,147,109,85,82,61,,,34,46,14,12,1.0,0.9
2023-10-28T01:00:00,2434A,112.1825,32.1142,襄阳市,高新管委会,细颗粒物(PM2.5),186,180,168,140,105,95,33,,,59,55,13,12,1.2,1.1
2023-10-28T01:00:00,2435A,112.2106,32.0903,襄阳市,襄州航空路,细颗粒物(PM2.5),153,244,201,117,87,83,22,,,60,47,18,13,1.0,1
2023-10-28T01:00:00,2436A,114.8938,30.3994,鄂州市,市政府,细颗粒物(PM2.5),142,174,168,108,98,120,36,,,40,42,6,8,1.1,1.2
2023-10-28T01:00:00,2437A,114.8989,30.3714,鄂州市,赵家坝,细颗粒物(PM2.5),158,168,160,120,115,105,62,,,21,27,9,8,1.2,1.3
2023-10-28T01:00:00,2439A,112.2014,31.0481,荆门市,竹园小学,细颗粒物(PM2.5),112,156,102,84,59,86,48,,,28,30,11,10,0.8,0.9
2023-10-28T01:00:00,2440A,112.1969,30.9891,荆门市,掇刀,细颗粒物(PM2.5),117,151,90,88,42,98,25,,,40,23,8,9,0.8,0.8
2023-10-28T01:00:00,2441A,112.2213,31.0386,荆门市,石化一小,颗粒物(PM10),114,177,112,83,48,92,46,,,34,32,14,13,0.8,0.6
2023-10-28T01:00:00,2443A,113.9153,30.9285,孝感市,文化路,,,120,106,,81,80,58,,,39,32,11,14,1.2,1
2023-10-28T01:00:00,2444A,113.942,30.9075,孝感市,东城区,细颗粒物(PM2.5),150,224,192,115,98,123,54,,,30,30,9,12,1.2,1.2
2023-10-28T01:00:00,2446A,114.9028,30.4742,黄冈市,职工中心,细颗粒物(PM2.5),180,191,162,136,115,134,69,,,17,23,12,12,1.1,1.2
2023-10-28T01:00:00,2447A,114.3175,29.8142,咸宁市,森林公园,细颗粒物(PM2.5),85,65,75,63,54,122,89,,,8,11,8,6,1.2,0.8
2023-10-28T01:00:00,2448A,114.3107,29.8454,咸宁市,市发改委,细颗粒物(PM2.5),109,105,103,82,82,116,32,,,12,19,5,7,1.1,1
2023-10-28T01:00:00,2449A,114.2936,29.8566,咸宁市,咸安区政府,细颗粒物(PM2.5),119,105,104,90,87,109,36,,,19,27,7,8,0.8,0.8
2023-10-28T01:00:00,2451A,113.3583,31.7275,随州市,市委党校,细颗粒物(PM2.5),160,176,154,122,101,121,38,,,28,29,10,11,0.9,0.9
2023-10-28T01:00:00,2452A,113.3833,31.6908,随州市,市林业局,细颗粒物(PM2.5),148,168,140,113,91,127,47,,,32,36,9,11,1.0,1
2023-10-28T01:00:00,2453A,113.3983,31.7308,随州市,市立交桥水厂,细颗粒物(PM2.5),158,156,128,120,95,121,31,,,28,32,8,10,0.9,0.8
2023-10-28T01:00:00,2454A,109.4978,30.2981,恩施土家族苗族自治州,湖北民院,,39,39,33,18,16,48,8,,,11,14,11,11,0.7,0.7
2023-10-28T01:00:00,2455A,109.4707,30.2798,恩施土家族苗族自治州,州电力总公司,,20,19,20,14,12,53,19,,,13,20,8,8,0.6,0.6
2023-10-28T01:00:00,2456A,112.5003,26.9167,衡阳市,原169医院,"颗粒物(PM10),细颗粒物(PM2.5)",52,54,49,36,47,72,44,,,10,11,13,12,0.4,0.5
2023-10-28T01:00:00,2457A,112.6194,26.9258,衡阳市,衡阳化工总厂,颗粒物(PM10),56,62,66,38,49,78,40,,,14,17,10,12,0.7,0.9
2023-10-28T01:00:00,2458A,112.6211,26.8956,衡阳市,珠晖区环保局,颗粒物(PM10),54,58,57,36,43,74,45,,,12,20,9,9,0.8,1
2023-10-28T01:00:00,2459A,112.6197,26.8733,衡阳市,市委党校,细颗粒物(PM2.5),155,50,42,118,46,80,27,,,20,14,8,8,0.9,0.9
2023-10-28T01:00:00,2460A,112.6006,26.8919,衡阳市,市监测站,细颗粒物(PM2.5),69,58,54,50,44,82,38,,,18,17,9,11,0.7,0.9
2023-10-28T01:00:00,2461A,112.5664,26.9056,衡阳市,真空机电公司,,46,46,48,31,31,79,43,,,16,16,10,8,0.7,0.9
2023-10-28T01:00:00,2462A,111.5239,27.3033,邵阳市,市水土所,颗粒物(PM10),51,52,37,32,35,56,21,,,6,6,5,4,0.7,0.7
2023-10-28T01:00:00,2463A,111.4733,27.2317,邵阳市,市一中,细颗粒物(PM2.5),70,55,45,51,33,100,64,,,8,10,8,6,0.4,0.5
