timepoint,stationcode,longitude,latitude,area,positionname,primarypollutant,aqi,pm10,pm10_24h,pm2_5,pm2_5_24h,o3,o3_24h,o3_8h,o3_8h_24h,no2,no2_24h,so2,so2_24h,co,co_24h
2025-10-28T2100,2566A,102.1879,31.914,阿坝藏族羌族自治州,州农科所,,,,,,,,,,,,,,,,
2025-10-28T2100,2568A,102.2502,31.8896,阿坝藏族羌族自治州,马师校,,38,,17,26,13,10,,45,33,25,12,5,4,0.6,0.6
2025-10-28T2100,3994A,102.2165,31.9024,阿坝藏族羌族自治州,马尔康中学西区,,33,,13,23,11,17,,56,47,26,11,5,5,0.6,0.5
2025-10-28T2100,2695A,80.292,41.1694,阿克苏地区,电视台,颗粒物(PM10),146,242,165,79,53,12,,85,81,92,42,10,7,2.5,1.2
2025-10-28T2100,2696A,80.2613,41.1551,阿克苏地区,艺术中心,颗粒物(PM10),105,160,140,48,54,4,,87,81,95,44,3,4,1.1,0.6
2025-10-28T2100,2204A,105.6467,38.8363,阿拉善盟,西城区西花园,,,,,,,,,,,,,,,,
2025-10-28T2100,2205A,105.6985,38.8411,阿拉善盟,蒙二幼,颗粒物(PM10),54,58,42,24,18,88,,108,98,11,11,9,9,0.6,0.6
2025-10-28T2100,2206A,105.724,38.8516,阿拉善盟,环保局新楼,,39,39,34,23,23,94,,104,99,7,7,9,9,0.5,0.5
2025-10-28T2100,2708A,88.1264,47.8517,阿勒泰地区,市站,,30,30,48,13,14,32,,74,60,31,20,4,5,0.6,0.5
2025-10-28T2100,2630A,80.1161,32.5,阿里地区,阿里监测站,,30,,3,3,3,93,,104,104,6,15,17,13,0.3,0.4
2025-10-28T2100,3192A,80.0903,32.5028,阿里地区,阿里藏医院,,31,9,11,3,5,99,,106,106,1,6,8,9,0.3,0.3
2025-10-28T2100,2642A,109.0318,32.6537,安康市,香溪洞,,,,,,,,,,,,,,,,
2025-10-28T2100,2644A,109.0072,32.6975,安康市,汉滨区检察院,,,,,,,,,,,,,,,,
2025-10-28T2100,4054A,109.0325,32.6913,安康市,市邮政管理局,,,,39,,22,2,,29,24,44,26,7,6,,0.9
2025-10-28T2100,2291A,117.0809,30.5177,安庆市,环科院,细颗粒物(PM2.5),103,101,78,77,59,106,,136,134,17,16,10,10,0.7,0.7
2025-10-28T2100,2292A,117.0331,30.5119,安庆市,马山宾馆,细颗粒物(PM2.5),92,88,71,68,61,112,,138,136,23,21,6,6,0.5,0.5
2025-10-28T2100,2294A,116.9896,30.6145,安庆市,安庆大学,,,87,70,53,50,,,138,138,17,15,6,7,0.5,0.5
2025-10-28T2100,3173A,117.0598,30.5351,安庆市,市人大,细颗粒物(PM2.5),87,82,72,64,65,107,,138,134,25,21,10,10,0.5,0.6
2025-10-28T2100,3122A,105.9606,26.2611,安顺市,伍家关,细颗粒物(PM2.5),54,52,44,38,27,68,,69,,13,12,9,14,0.4,0.5
2025-10-28T2100,3123A,105.9408,26.2431,安顺市,凤凰山,细颗粒物(PM2.5),73,53,39,53,34,58,,74,72,15,13,14,18,0.6,0.6
2025-10-28T2100,3124A,105.9439,26.2564,安顺市,金钟山,细颗粒物(PM2.5),57,43,35,40,31,69,,83,81,14,12,11,15,0.9,0.8
2025-10-28T2100,3125A,105.8983,26.2481,安顺市,娄家坡,细颗粒物(PM2.5),57,42,36,40,33,64,,71,71,13,13,8,12,0.7,0.7
2025-10-28T2100,1818A,114.4839,36.0621,安阳市,棉研所,,,,,,,,,,,,,,,,
2025-10-28T2100,1819A,114.3551,36.1017,安阳市,红庙街,细颗粒物(PM2.5),117,102,119,88,119,0,,45,31,56,30,1,2,1.0,0.8
2025-10-28T2100,1820A,114.361,36.0681,安阳市,银杏小区,细颗粒物(PM2.5),122,127,119,92,119,2,,45,30,52,29,2,3,1.3,0.9
2025-10-28T2100,3141A,114.3922,36.0878,安阳市,信访局,细颗粒物(PM2.5),104,124,129,78,106,4,,48,32,49,24,1,2,0.8,0.6
2025-10-28T2100,3669A,114.4705,36.0637,安阳市,左辅环卫站,细颗粒物(PM2.5),109,140,158,82,96,2,,42,29,65,28,1,2,0.7,0.8
2025-10-28T2100,3703A,114.2917,36.0949,安阳市,安钢职工学校,细颗粒物(PM2.5),137,146,127,104,122,5,,50,40,59,27,2,2,0.9,0.8
2025-10-28T2100,1748A,123.044,41.1196,鞍山市,深沟寺,,41,41,30,26,16,58,,62,60,16,24,7,8,0.7,0.9
2025-10-28T2100,1749A,123.011,41.0931,鞍山市,太阳城,细颗粒物(PM2.5),57,52,31,40,19,51,,62,55,19,18,11,13,0.5,0.6
2025-10-28T2100,1750A,123.0485,41.1442,鞍山市,太平,颗粒物(PM10),59,68,55,35,24,60,,56,56,16,28,9,12,0.6,0.9
2025-10-28T2100,1751A,122.9642,41.0971,鞍山市,铁西三道街,细颗粒物(PM2.5),78,100,62,57,28,52,,51,42,25,40,24,16,0.7,1
2025-10-28T2100,1753A,123.022,41.0821,鞍山市,明达新区,细颗粒物(PM2.5),72,68,36,52,23,63,,64,62,13,17,11,12,0.6,0.7
2025-10-28T2100,1754A,123.1289,41.0228,鞍山市,千山,,,,17,,14,,,57,,,11,,4,,0.3
2025-10-28T2100,4201A,122.9446,41.0826,鞍山市,兴盛南路290号,颗粒物(PM10),68,86,77,41,29,54,,54,54,29,44,15,15,0.7,1.1
2025-10-28T2100,2195A,107.4212,40.761,巴彦淖尔市,附二中,颗粒物(PM10),78,106,91,54,38,68,,89,85,23,31,7,8,0.6,0.7
2025-10-28T2100,2196A,107.37,40.7372,巴彦淖尔市,市环保大楼,颗粒物(PM10),133,215,105,91,44,37,,93,79,51,36,9,9,0.8,0.7
2025-10-28T2100,1956A,86.1472,41.7538,巴音郭楞蒙古自治州,孔雀公园,颗粒物(PM10),98,145,119,30,32,2,,78,73,85,53,9,9,1.4,0.8
2025-10-28T2100,1957A,86.1972,41.7166,巴音郭楞蒙古自治州,棉纺厂,颗粒物(PM10),88,125,166,44,32,19,,83,77,69,38,7,7,1.4,0.6
2025-10-28T2100,1958A,86.2357,41.7173,巴音郭楞蒙古自治州,经济开发区,颗粒物(PM10),106,161,106,40,23,20,,79,72,50,23,6,8,1.0,0.8
2025-10-28T2100,2914A,106.7677,31.8794,巴中市,苏山坪,,,,,,,,,,,,,,,,
2025-10-28T2100,3181A,106.7768,31.8526,巴中市,市五中,,,64,37,40,26,,,72,65,13,13,8,8,0.7,0.7
2025-10-28T2100,3183A,106.7418,31.8654,巴中市,圣泉水务公司,,42,42,28,28,20,26,,73,65,26,15,9,8,0.8,0.7
2025-10-28T2100,3616A,106.7616,31.8344,巴中市,市中心医院,颗粒物(PM10),56,62,35,23,24,21,,70,59,33,18,10,10,0.9,0.7
2025-10-28T2100,2235A,122.7911,45.6077,白城市,洮北区环保局,,45,45,29,26,19,22,,59,46,38,16,4,5,0.3,0.4
2025-10-28T2100,2236A,122.8738,45.5725,白城市,市环保局,细颗粒物(PM2.5),55,58,35,39,21,8,,63,37,45,19,7,5,0.4,0.3
2025-10-28T2100,2231A,126.4219,41.9171,白山市,喜丰,颗粒物(PM10),99,148,76,45,30,9,,75,53,61,27,14,13,1.0,1.1
2025-10-28T2100,2232A,126.4077,41.9419,白山市,环保局,颗粒物(PM10),57,64,49,39,30,21,,68,49,35,22,10,10,1.0,1
2025-10-28T2100,2647A,104.1724,36.5446,白银市,第三小学,细颗粒物(PM2.5),79,71,92,58,67,11,,36,35,50,43,15,23,1.0,1
2025-10-28T2100,2648A,104.1465,36.5482,白银市,动力公司,细颗粒物(PM2.5),90,121,94,67,64,12,,66,58,59,37,13,17,0.9,1
2025-10-28T2100,2512A,106.6103,23.9011,百色市,市监测站,,27,27,26,17,16,23,,65,56,20,14,7,7,0.7,0.6
2025-10-28T2100,2513A,106.6538,23.8859,百色市,市中心血站,,45,45,36,26,21,15,,68,58,35,20,5,7,0.8,0.7
2025-10-28T2100,3406A,106.6085,23.8798,百色市,祈福高中,,,71,37,41,18,4,,56,42,35,18,9,11,,0.6
2025-10-28T2100,2270A,117.396,32.939,蚌埠市,工人疗养院,颗粒物(PM10),64,78,64,38,32,98,,121,118,28,24,5,6,0.7,0.6
2025-10-28T2100,2271A,117.3605,32.9427,蚌埠市,百货大楼,颗粒物(PM10),57,64,60,39,37,97,,118,115,30,26,7,8,0.5,0.5
2025-10-28T2100,2273A,117.4185,32.8911,蚌埠市,蚌埠学院,颗粒物(PM10),58,66,57,40,35,88,,124,117,28,23,5,5,0.5,0.5
2025-10-28T2100,2274A,117.3533,32.9673,蚌埠市,淮上区政府,颗粒物(PM10),62,73,64,42,40,90,,124,116,46,38,8,8,0.5,0.4
2025-10-28T2100,2275A,117.3145,32.8977,蚌埠市,高新区,颗粒物(PM10),62,73,65,39,42,96,,119,114,28,28,9,9,0.5,0.5
2025-10-28T2100,3715A,117.3092,32.9314,蚌埠市,蚌埠田家炳中学,细颗粒物(PM2.5),68,76,68,49,43,102,,123,119,22,24,4,6,0.4,0.5
2025-10-28T2100,1585A,109.8756,40.6532,包头市,市环境监测站,颗粒物(PM10),75,100,79,43,38,4,,65,48,89,56,11,16,0.8,1.2
2025-10-28T2100,1587A,109.9991,40.5842,包头市,包头八中,颗粒物(PM10),93,136,88,64,51,2,,62,46,90,60,12,18,1.1,1.6
2025-10-28T2100,1588A,109.8538,40.6821,包头市,青山宾馆,颗粒物(PM10),73,95,83,50,44,3,,66,49,95,59,16,17,1.0,1.2
2025-10-28T2100,1589A,109.8642,40.6288,包头市,惠龙物流,颗粒物(PM10),74,98,71,47,36,2,,71,54,98,57,14,16,1.3,1.5
2025-10-28T2100,1590A,110.0377,40.5546,包头市,东河鸿龙湾,颗粒物(PM10),81,111,84,57,39,5,,68,52,104,61,14,15,1.0,1.5
2025-10-28T2100,3283A,109.9154,40.5685,包头市,滨河大厦,细颗粒物(PM2.5),64,76,60,46,31,4,,72,55,88,55,12,14,0.7,1.1
2025-10-28T2100,3419A,109.9447,40.6261,包头市,包头市委党校,颗粒物(PM10),78,106,63,42,33,3,,69,52,95,60,12,19,1.1,1.4
2025-10-28T2100,3683A,109.8331,40.6576,包头市,昆区政府,细颗粒物(PM2.5),75,97,72,55,44,2,,64,48,100,58,14,18,1.4,1.4
2025-10-28T2100,1930A,107.185,34.3063,宝鸡市,庙沟村,,,,,,,,,,,,,,,,
2025-10-28T2100,1931A,107.0708,34.3017,宝鸡市,竹园沟,,33,33,29,18,22,11,,65,57,31,19,7,8,0.4,0.4
2025-10-28T2100,1932A,107.1906,34.3672,宝鸡市,三陆医院,颗粒物(PM10),67,83,66,44,52,28,,5,,56,43,6,8,0.7,0.9
2025-10-28T2100,1933A,107.1431,34.3547,宝鸡市,监测站,颗粒物(PM10),55,60,46,29,32,12,,63,55,38,22,6,8,0.5,0.5
2025-10-28T2100,1934A,107.1186,34.3739,宝鸡市,技工学校,细颗粒物(PM2.5),60,52,54,43,42,22,,67,60,36,24,6,6,0.6,0.7
2025-10-28T2100,1936A,107.2058,34.3497,宝鸡市,文理学院,颗粒物(PM10),59,67,48,28,32,14,,74,67,53,27,5,7,0.7,0.6
2025-10-28T2100,1937A,107.2386,34.3622,宝鸡市,三迪小学,细颗粒物(PM2.5),75,79,56,55,45,27,,68,64,68,39,5,7,0.8,0.7
2025-10-28T2100,4308A,107.3898,34.3601,宝鸡市,陈仓区北开路21号,"颗粒物(PM10),细颗粒物(PM2.5)",68,85,83,49,53,54,,74,73,30,34,6,8,0.6,0.7
2025-10-28T2100,1051A,115.493,38.8632,保定市,游泳馆,细颗粒物(PM2.5),176,139,126,133,102,27,,53,49,38,52,5,6,0.6,0.5
2025-10-28T2100,1052A,115.5213,38.8959,保定市,华电二区,细颗粒物(PM2.5),173,131,105,131,95,37,,60,56,28,48,1,3,0.7,0.6
2025-10-28T2100,1053A,115.4713,38.9108,保定市,接待中心,细颗粒物(PM2.5),166,136,114,126,92,39,,57,54,25,46,3,4,0.7,0.6
2025-10-28T2100,1054A,115.4612,38.8416,保定市,地表水厂,细颗粒物(PM2.5),166,159,140,126,99,27,,54,48,40,56,7,8,0.7,0.6
2025-10-28T2100,3581A,115.31981,38.95208,保定市,满城区生态环境分局,细颗粒物(PM2.5),178,168,111,134,76,20,,58,54,46,41,3,2,0.6,0.4
2025-10-28T2100,3582A,115.47694,38.76408,保定市,清苑区第二中学,细颗粒物(PM2.5),138,142,138,105,92,28,,53,49,40,54,1,2,0.7,0.7
2025-10-28T2100,3583A,115.62909,39.02311,保定市,徐水物探局,细颗粒物(PM2.5),169,,107,128,97,12,,49,43,51,50,10,11,0.8,0.7
2025-10-28T2100,4004A,115.4202,38.8656,保定市,双鹰农机,细颗粒物(PM2.5),163,161,143,124,91,31,,58,53,42,58,3,2,0.8,0.7
2025-10-28T2100,4034A,115.5150,38.8590,保定市,植保所站,细颗粒物(PM2.5),176,170,140,133,98,23,,57,52,52,56,4,5,0.8,0.8
2025-10-28T2100,2594A,99.1678,25.1081,保山市,市环境监测站,,20,19,20,14,15,60,,68,63,6,7,6,7,0.3,0.3
2025-10-28T2100,2595A,99.1711,25.1328,保山市,市环保局,,24,24,24,11,19,62,,73,67,4,6,7,6,0.4,0.5
2025-10-28T2100,1866A,109.2262,21.588,北海市,牛尾岭水库,,45,33,35,31,29,64,,82,78,8,9,5,4,0.6,0.6
2025-10-28T2100,1867A,109.1436,21.4086,北海市,海滩公园,颗粒物(PM10),53,55,46,34,29,78,,89,88,12,12,8,9,0.8,0.7
2025-10-28T2100,1868A,109.0981,21.4661,北海市,新市环保局,,45,40,44,31,34,82,,92,90,13,13,6,4,0.6,0.6
2025-10-28T2100,1869A,109.1778,21.5233,北海市,北海工业园,细颗粒物(PM2.5),55,,49,39,34,72,,86,84,16,14,11,7,1.0,0.9
2025-10-28T2100,3400A,109.1911,21.4415,北海市,龙潭自来水厂,,,55,48,,36,71,,88,85,14,9,2,9,1.1,0.6
2025-10-28T2100,1001A,116.3621,39.8784,北京市,万寿西宫,细颗粒物(PM2.5),158,151,103,120,69,39,,57,57,39,54,2,3,0.9,0.8
2025-10-28T2100,1002A,116.2202,40.2915,北京市,定陵,,,,,,,,,,,,,,,,
2025-10-28T2100,1003A,116.4174,39.9289,北京市,东四,细颗粒物(PM2.5),158,139,118,120,69,53,,64,64,26,46,2,4,0.8,0.8
2025-10-28T2100,1004A,116.4072,39.8863,北京市,天坛,细颗粒物(PM2.5),147,138,94,112,65,22,,54,52,24,42,1,3,0.7,0.7
2025-10-28T2100,1005A,116.462,39.9365,北京市,农展馆,细颗粒物(PM2.5),195,177,100,146,66,18,,60,57,45,48,3,5,0.9,0.6
2025-10-28T2100,1006A,116.3392,39.9295,北京市,官园,细颗粒物(PM2.5),153,147,103,117,64,50,,61,61,30,49,1,4,0.7,0.6
2025-10-28T2100,1007A,116.2878,39.9611,北京市,海淀万柳,细颗粒物(PM2.5),156,155,98,119,61,33,,47,47,46,55,3,5,0.8,0.7
2025-10-28T2100,1008A,116.6636,40.135,北京市,顺义新城,细颗粒物(PM2.5),215,221,108,165,58,22,,57,50,52,40,3,3,0.8,0.7
2025-10-28T2100,1009A,116.6275,40.3275,北京市,怀柔镇,细颗粒物(PM2.5),190,179,80,143,56,35,,55,52,39,33,4,4,0.8,0.7
2025-10-28T2100,1010A,116.2296,40.217,北京市,昌平镇,细颗粒物(PM2.5),159,167,80,121,49,38,,47,42,49,40,4,6,0.8,0.6
2025-10-28T2100,1011A,116.3966,39.9821,北京市,奥体中心,细颗粒物(PM2.5),145,141,90,111,58,49,,58,58,32,54,4,5,0.7,0.6
2025-10-28T2100,3281A,115.9718,40.4529,北京市,延庆夏都,细颗粒物(PM2.5),142,166,67,108,36,55,,54,54,34,30,3,3,0.8,0.5
2025-10-28T2100,3418A,116.8336,40.4095,北京市,密云新城,细颗粒物(PM2.5),185,177,78,139,50,40,,67,65,40,28,2,2,0.8,0.5
2025-10-28T2100,3671A,116.088,39.9726,北京市,门头沟三家店,细颗粒物(PM2.5),148,161,82,113,48,27,,50,47,36,34,3,3,0.8,0.5
2025-10-28T2100,3672A,116.1541,39.8204,北京市,丰台云岗,细颗粒物(PM2.5),149,158,98,114,60,8,,58,50,61,46,2,3,0.8,0.5
2025-10-28T2100,3673A,116.6804,39.9081,北京市,通州东关,细颗粒物(PM2.5),209,204,134,159,85,6,,48,40,67,55,3,5,0.8,0.7
2025-10-28T2100,3674A,115.9577,39.7603,北京市,房山燕山,细颗粒物(PM2.5),147,144,85,112,55,55,,55,55,29,35,3,4,0.7,0.5
2025-10-28T2100,3675A,116.4672,39.7733,北京市,大兴旧宫,细颗粒物(PM2.5),201,205,119,151,71,28,,59,58,40,45,2,3,1.0,0.8
2025-10-28T2100,3694A,115.986,40.4563,北京市,延庆石河营,细颗粒物(PM2.5),149,171,68,114,37,61,,55,55,28,30,2,2,0.7,0.5
2025-10-28T2100,3695A,116.6151,40.3053,北京市,怀柔新城,细颗粒物(PM2.5),190,173,77,143,53,36,,57,54,38,29,3,4,0.8,0.4
2025-10-28T2100,3696A,116.2545,39.8768,北京市,丰台小屯,细颗粒物(PM2.5),152,155,107,116,63,22,,53,49,45,45,3,4,0.8,0.8
2025-10-28T2100,3697A,116.84,40.3844,北京市,密云镇,细颗粒物(PM2.5),183,180,88,138,56,39,,68,66,37,37,6,6,0.8,0.5
2025-10-28T2100,4182A,116.1942,39.9158,北京市,八角北路9号,细颗粒物(PM2.5),150,159,106,115,62,11,,51,46,68,52,1,3,0.8,0.7
2025-10-28T2100,4194A,117.0790,40.1518,北京市,洳河巡河路,细颗粒物(PM2.5),182,182,102,137,66,32,,71,67,38,23,3,4,1.0,0.7
2025-10-28T2100,1761A,123.8275,41.3064,本溪市,大峪,细颗粒物(PM2.5),70,83,61,51,30,13,,47,36,53,39,9,13,0.8,1.3
2025-10-28T2100,1762A,123.7567,41.3325,本溪市,溪湖,颗粒物(PM10),54,58,80,26,36,42,,44,40,28,41,10,14,0.7,1.9
2025-10-28T2100,1763A,123.7169,41.3094,本溪市,彩屯,颗粒物(PM10),54,58,69,35,40,25,,49,41,47,42,19,19,3.4,2.3
2025-10-28T2100,1764A,123.7669,41.2864,本溪市,东明,颗粒物(PM10),57,64,81,23,37,65,,56,56,16,39,9,13,0.5,1.6
2025-10-28T2100,1765A,123.7992,41.2664,本溪市,新立屯,,48,48,44,21,23,64,,51,47,15,37,8,11,0.2,1.2
2025-10-28T2100,1766A,123.8142,41.3472,本溪市,威宁,细颗粒物(PM2.5),92,122,82,68,39,9,,44,28,54,39,8,10,1.4,1.4
2025-10-28T2100,2587A,105.2864,27.3125,毕节市,八中,细颗粒物(PM2.5),74,56,34,54,33,39,,43,43,15,8,10,10,0.8,0.6
2025-10-28T2100,2588A,105.31,27.2944,毕节市,师专,细颗粒物(PM2.5),54,48,36,38,27,42,,43,43,14,10,10,11,0.7,0.6
2025-10-28T2100,4263A,105.3688,27.3598,毕节市,工业大道,细颗粒物(PM2.5),59,55,32,42,24,51,,52,52,15,10,10,10,0.9,0.7
2025-10-28T2100,1629A,118.0018,37.3617,滨州市,第二水厂,细颗粒物(PM2.5),119,136,144,90,96,26,,69,51,57,60,9,9,0.8,0.8
2025-10-28T2100,1630A,117.9776,37.393,滨州市,北中新校,细颗粒物(PM2.5),122,132,132,92,94,26,,53,41,61,65,8,7,0.8,0.9
2025-10-28T2100,3514A,117.9378,37.3956,滨州市,中海酒店,细颗粒物(PM2.5),119,122,124,90,90,42,,74,62,40,46,5,5,1.0,1.1
2025-10-28T2100,3515A,117.9378,37.3553,滨州市,开发区一中,细颗粒物(PM2.5),132,146,146,100,101,36,,84,66,56,59,8,9,1.2,1.1
2025-10-28T2100,3516A,118.0917,37.694,滨州市,金海六路,细颗粒物(PM2.5),125,134,129,95,83,33,,82,54,58,60,4,8,1.0,1.1
2025-10-28T2100,4028A,117.9956,37.3753,滨州市,滨州市西街道办事处,细颗粒物(PM2.5),138,127,148,105,110,19,,71,49,58,54,6,8,1.0,1.1
2025-10-28T2100,2311A,115.8072,33.8399,亳州市,污水处理厂,细颗粒物(PM2.5),74,76,91,54,62,88,,118,114,32,24,7,8,0.6,0.6
2025-10-28T2100,2312A,115.7789,33.8518,亳州市,三国揽胜宫,颗粒物(PM10),67,83,90,47,65,106,,122,120,17,15,7,7,0.6,0.6
2025-10-28T2100,3332A,115.7633,33.8034,亳州市,亳州学院,"颗粒物(PM10),细颗粒物(PM2.5)",64,78,90,46,65,109,,128,125,21,18,8,7,0.5,0.5
2025-10-28T2100,2693A,82.0485,44.8556,博尔塔拉蒙古自治州,市党校,颗粒物(PM10),60,69,48,32,35,30,,64,62,52,15,6,4,0.1,0.1
2025-10-28T2100,2694A,82.0806,44.8969,博尔塔拉蒙古自治州,市环保局,颗粒物(PM10),78,106,64,31,26,30,,61,59,56,26,7,8,0.7,0.6
2025-10-28T2100,1071A,116.8842,38.2991,沧州市,沧县城建局,细颗粒物(PM2.5),190,174,140,143,120,3,,25,16,65,51,4,6,1.2,0.9
2025-10-28T2100,1072A,116.8584,38.3254,沧州市,电视转播站,细颗粒物(PM2.5),175,143,136,132,114,2,,34,24,54,47,3,4,1.0,0.9
2025-10-28T2100,1073A,116.8709,38.3228,沧州市,市环保局,细颗粒物(PM2.5),185,162,143,139,126,2,,33,23,70,54,5,6,0.9,0.7
2025-10-28T2100,3324A,116.8136,38.3004,沧州市,河北水利电力学院,细颗粒物(PM2.5),153,171,142,117,99,7,,38,27,65,48,6,8,0.9,0.8
2025-10-28T2100,2622A,97.1806,31.1273,昌都市,昌都监测站,细颗粒物(PM2.5),98,85,19,73,12,5,,70,58,63,16,5,2,2.1,0.5
2025-10-28T2100,3719A,97.1714,31.1406,昌都市,昌都会议中心,,20,20,12,11,7,53,,71,71,9,6,3,3,0.4,0.4
2025-10-28T2100,2690A,88.1236,43.8886,昌吉回族自治州,天山天池,,,,,,,,,,,,,,,,
2025-10-28T2100,2692A,87.2717,44.0297,昌吉回族自治州,新区政务中心,颗粒物(PM10),63,75,105,37,39,67,,88,87,27,44,8,9,0.4,0.6
2025-10-28T2100,3613A,87.3095,44.0142,昌吉回族自治州,亚心广场,颗粒物(PM10),75,100,136,22,43,64,,87,86,26,38,9,11,0.4,0.6
2025-10-28T2100,1120A,125.2863,43.9027,长春市,客车厂,细颗粒物(PM2.5),118,100,83,89,71,8,,63,42,75,40,10,12,1.4,0.7
2025-10-28T2100,1121A,125.2841,43.8463,长春市,邮电学院,细颗粒物(PM2.5),90,84,69,67,49,10,,67,49,57,30,6,8,0.8,0.5
2025-10-28T2100,1122A,125.3716,43.8772,长春市,劳动公园,细颗粒物(PM2.5),130,100,60,99,41,15,,61,49,74,28,10,10,1.2,0.6
2025-10-28T2100,1123A,125.3297,43.8805,长春市,园林处,细颗粒物(PM2.5),74,77,56,54,43,8,,58,46,71,32,7,8,0.7,0.4
2025-10-28T2100,1124A,125.4605,43.79,长春市,净月潭,,48,48,54,24,37,51,,67,63,11,18,5,6,0.3,0.4
2025-10-28T2100,1125A,125.7194,43.515,长春市,甩湾子,,,,65,,48,46,,80,69,98,30,13,7,2.5,0.8
2025-10-28T2100,1126A,125.3863,43.8447,长春市,经开区环卫处,颗粒物(PM10),63,76,60,35,36,3,,59,39,71,33,6,7,0.8,0.5
2025-10-28T2100,1127A,125.245,43.7783,长春市,高新区管委会,细颗粒物(PM2.5),196,157,62,147,47,20,,64,43,62,28,7,6,1.2,0.4
2025-10-28T2100,1128A,125.1761,43.8325,长春市,岱山公园,细颗粒物(PM2.5),104,98,57,78,41,7,,67,44,85,29,11,7,1.0,0.4
2025-10-28T2100,4281A,125.3346,43.9164,长春市,北亚泰大街1068号,细颗粒物(PM2.5),109,92,78,82,65,4,,60,42,74,38,9,10,1.2,0.6
2025-10-28T2100,1335A,113.0833,28.2325,长沙市,经开区环保局,细颗粒物(PM2.5),77,87,61,56,50,95,,119,116,27,20,6,6,0.5,0.5
2025-10-28T2100,1336A,112.8872,28.2189,长沙市,高开区环保局,细颗粒物(PM2.5),114,,73,86,62,,,122,121,44,25,7,7,,0.5
2025-10-28T2100,1337A,113.0792,28.2053,长沙市,马坡岭,细颗粒物(PM2.5),73,82,59,53,42,96,,136,130,31,20,6,6,0.5,0.5
2025-10-28T2100,1338A,112.9394,28.19,长沙市,湖南师范大学,颗粒物(PM10),62,73,72,38,41,74,,128,122,51,19,6,6,0.7,0.7
2025-10-28T2100,1339A,113.0178,28.1322,长沙市,雨花区环保局,细颗粒物(PM2.5),88,86,58,65,49,82,,129,123,43,19,8,8,0.7,0.6
2025-10-28T2100,1340A,112.9792,28.2597,长沙市,伍家岭,颗粒物(PM10),70,90,69,47,53,64,,122,116,42,21,5,6,0.7,0.5
2025-10-28T2100,1341A,113.0014,28.1944,长沙市,火车新站,细颗粒物(PM2.5),79,82,67,58,55,102,,132,129,27,20,10,10,0.6,0.5
2025-10-28T2100,1342A,112.9844,28.1178,长沙市,天心区环保局,细颗粒物(PM2.5),73,76,62,53,42,106,,141,138,31,22,6,6,0.7,0.6
2025-10-28T2100,1343A,112.8908,28.1308,长沙市,湖南中医药大学,,,91,67,58,44,,,127,123,53,21,5,6,0.7,1.1
2025-10-28T2100,1344A,112.9581,28.3611,长沙市,沙坪,,,,,,,,,,,,,,,,
2025-10-28T2100,1727A,113.1147,36.1547,长治市,清华站,,,54,53,39,43,,,100,100,15,28,15,12,0.6,0.8
2025-10-28T2100,1730A,113.0886,36.2125,长治市,审计局,,45,39,44,31,46,62,,90,88,19,25,11,9,0.4,0.5
2025-10-28T2100,1731A,113.0844,36.1856,长治市,长治八中,细颗粒物(PM2.5),73,58,67,53,53,59,,90,88,12,17,13,9,0.7,0.7
2025-10-28T2100,2845A,113.1569,36.1911,长治市,德盛苑,细颗粒物(PM2.5),70,62,48,51,40,69,,96,94,14,18,8,7,0.9,0.8
2025-10-28T2100,3568A,113.06,36.0464,长治市,向阳小学,颗粒物(PM10),51,51,78,34,49,72,,102,99,18,29,8,19,0.6,0.9
2025-10-28T2100,3569A,112.8792,36.3144,长治市,屯留一中,,,,65,,50,64,,93,90,,24,,13,1.7,1
2025-10-28T2100,4189A,113.1131,36.19948,长治市,英华南巷50号,"颗粒物(PM10),细颗粒物(PM2.5)",52,53,56,36,49,70,,104,98,12,23,11,8,0.9,1
2025-10-28T2100,4190A,113.2367,36.3344,长治市,学府街1号,细颗粒物(PM2.5),104,92,77,78,55,46,,101,85,34,37,9,12,1.7,1.5
2025-10-28T2100,1854A,111.6975,28.9703,常德市,市二中,"颗粒物(PM10),细颗粒物(PM2.5)",55,59,50,39,37,84,,97,95,20,18,6,7,0.7,0.7
2025-10-28T2100,1857A,111.7158,29.1456,常德市,白鹤山,,,,,,,,,,,,,,,,
2025-10-28T2100,3138A,111.7153,29.0289,常德市,武陵区永安,细颗粒物(PM2.5),55,51,44,39,31,80,,104,102,27,20,5,6,0.7,0.7
2025-10-28T2100,3139A,111.6892,28.9881,常德市,鼎城区玉霞,颗粒物(PM10),55,59,55,38,35,59,,102,96,32,19,5,7,0.9,0.9
2025-10-28T2100,3140A,111.6625,29.0531,常德市,武陵区长庚,"颗粒物(PM10),细颗粒物(PM2.5)",53,56,50,37,35,80,,106,104,28,22,3,4,0.5,0.4
2025-10-28T2100,1196A,119.9633,31.762,常州市,市监测站,,44,44,39,30,23,51,,119,104,48,30,8,9,0.6,0.5
2025-10-28T2100,1200A,119.9468,31.7069,常州市,武进监测站,,36,36,37,17,19,60,,114,104,45,31,9,11,0.8,0.7
2025-10-28T2100,1201A,119.9255,31.9087,常州市,安家,颗粒物(PM10),51,52,43,29,25,39,,108,91,51,34,10,12,0.5,0.6
2025-10-28T2100,3002A,119.9805,31.8174,常州市,行政中心,,45,45,44,25,22,60,,121,108,43,30,6,7,0.6,0.8
2025-10-28T2100,3003A,120.0522,31.7748,常州市,经开区,,49,49,50,21,21,57,,118,102,41,36,11,10,0.6,0.6
2025-10-28T2100,3010A,119.9025,31.7964,常州市,钟楼,,44,44,43,30,21,67,,120,111,38,28,8,10,0.6,0.7
2025-10-28T2100,3429A,119.8598,31.7066,常州市,武进经发区,,37,37,40,22,24,61,,113,100,49,40,11,13,1.0,1.1
2025-10-28T2100,3430A,119.5826,31.7245,常州市,金坛城区,细颗粒物(PM2.5),63,52,37,45,24,87,,119,115,27,27,12,10,0.6,0.7
2025-10-28T2100,2220A,120.4318,41.5881,朝阳市,西梁,颗粒物(PM10),57,63,64,36,26,26,,58,52,45,38,13,9,0.9,0.8
2025-10-28T2100,2221A,120.4521,41.5646,朝阳市,河畔小区,,43,43,44,25,21,47,,64,61,26,28,17,8,0.7,0.6
2025-10-28T2100,2222A,120.4176,41.5648,朝阳市,八里堡,颗粒物(PM10),51,51,51,31,25,38,,59,56,34,36,17,9,0.9,0.7
2025-10-28T2100,2223A,120.3806,41.5969,朝阳市,农业园区,细颗粒物(PM2.5),53,48,40,37,22,24,,63,57,49,33,12,9,0.8,0.5
2025-10-28T2100,1705A,116.6367,23.6719,潮州市,西园路,,,,,,,,,,,,,,,,
2025-10-28T2100,3026A,116.6183,23.6608,潮州市,市政府,,36,,34,25,29,48,,59,54,16,13,3,4,0.4,0.5
2025-10-28T2100,4036A,116.6461,23.6761,潮州市,金山,细颗粒物(PM2.5),52,,36,36,41,49,,60,57,15,9,3,2,0.7,0.7
2025-10-28T2100,2472A,113.0073,25.9061,郴州市,马头岭,,,,,,,,,,,,,,,,
2025-10-28T2100,2473A,113.0116,25.8226,郴州市,市职中,细颗粒物(PM2.5),93,85,72,69,66,10,,75,60,40,27,4,5,0.9,0.8
2025-10-28T2100,2475A,113.0383,25.8071,郴州市,市审计局,细颗粒物(PM2.5),87,82,77,64,64,41,,79,74,22,19,12,13,0.5,0.4
2025-10-28T2100,2476A,113.0348,25.7759,郴州市,市环保局,,,86,84,72,60,,,77,73,42,27,6,5,0.9,0.6
2025-10-28T2100,4252A,113.0138,25.8011,郴州市,好美居路49号,细颗粒物(PM2.5),90,90,69,67,55,12,,78,65,53,32,13,13,1.1,0.9
2025-10-28T2100,1431A,103.9728,30.7236,成都市,金泉两河,,50,,36,35,29,38,,34,34,26,31,2,2,0.6,0.6
2025-10-28T2100,1432A,104.176,30.6872,成都市,十里店,细颗粒物(PM2.5),58,52,47,41,27,36,,33,29,33,38,3,3,0.6,0.5
2025-10-28T2100,1433A,104.079,30.5706,成都市,三瓦窑,细颗粒物(PM2.5),113,104,54,85,48,,,38,33,34,34,3,5,0.9,0.7
2025-10-28T2100,1434A,104.1114,30.63,成都市,沙河铺,细颗粒物(PM2.5),85,66,55,63,44,30,,31,29,40,34,4,4,0.8,0.7
2025-10-28T2100,1437A,104.0786,30.6531,成都市,君平街,细颗粒物(PM2.5),90,,49,67,43,45,,32,32,22,28,3,4,0.6,0.6
2025-10-28T2100,1438A,103.613,31.0283,成都市,灵岩寺,,,,,,,,,,,,,,,,
2025-10-28T2100,2880A,104.0239,30.65639,成都市,大石西路,细颗粒物(PM2.5),63,,38,45,38,42,,34,34,29,34,3,3,0.8,0.7
2025-10-28T2100,3136A,104.2725,30.5589,成都市,龙泉驿区区政府,颗粒物(PM10),51,51,24,34,15,6,,64,45,51,20,5,6,0.7,0.6
2025-10-28T2100,3357A,104.0106,30.6931,成都市,金博路,,36,31,38,25,27,40,,33,33,25,36,5,5,0.6,0.7
2025-10-28T2100,3359A,104.0578,30.5225,成都市,华阳,细颗粒物(PM2.5),67,53,37,48,32,14,,55,40,48,25,4,5,1.1,0.8
2025-10-28T2100,3488A,104.3880,30.7467,成都市,青石路225号,细颗粒物(PM2.5),62,57,38,44,26,27,,46,34,30,24,5,4,0.8,0.7
2025-10-28T2100,3489A,104.0789,30.4072,成都市,科学城,细颗粒物(PM2.5),55,53,31,39,24,18,,67,57,43,16,4,5,0.7,0.6
2025-10-28T2100,4011A,103.8506,30.6947,成都市,光华大道三段,,49,46,43,34,30,60,,46,46,16,24,1,1,0.6,0.7
2025-10-28T2100,4224A,104.2433,30.5353,成都市,鲸龙路1057号,细颗粒物(PM2.5),64,59,28,46,24,5,,69,50,61,26,4,5,0.8,0.6
2025-10-28T2100,1062A,117.9531,40.9081,承德市,铁路,细颗粒物(PM2.5),107,104,49,80,29,66,,68,68,43,30,2,4,0.6,0.5
2025-10-28T2100,1063A,117.9392,40.9763,承德市,中国银行,细颗粒物(PM2.5),104,104,53,78,26,69,,52,47,29,31,2,3,0.7,0.6
2025-10-28T2100,1064A,117.9503,40.928,承德市,开发区,细颗粒物(PM2.5),88,105,61,65,30,86,,74,74,28,32,4,6,0.6,0.5
2025-10-28T2100,1066A,117.9268,41.0026,承德市,离宫,,,,,,,,,,,,,,,,
2025-10-28T2100,4274A,117.7994,40.9605,承德市,滨河大街98号,细颗粒物(PM2.5),87,101,39,64,23,3,,49,38,64,30,4,3,0.9,0.4
2025-10-28T2100,2314A,117.47,30.6618,池州市,池州学院,细颗粒物(PM2.5),99,97,69,74,50,86,,114,110,32,23,9,7,0.8,0.9
2025-10-28T2100,3237A,117.4918,30.6617,池州市,展览馆,细颗粒物(PM2.5),92,96,63,68,46,76,,117,111,34,22,8,6,0.9,1
2025-10-28T2100,3333A,117.5627,30.695,池州市,第八中学,细颗粒物(PM2.5),88,90,64,65,45,80,,115,108,32,23,9,7,0.8,1
2025-10-28T2100,3334A,117.5038,30.6243,池州市,第十二中学,细颗粒物(PM2.5),100,101,61,75,45,90,,117,114,30,27,7,7,0.8,0.9
2025-10-28T2100,1744A,118.9233,42.2816,赤峰市,松山一中,细颗粒物(PM2.5),97,109,56,72,30,19,,50,48,69,44,23,28,1.6,0.9
2025-10-28T2100,1745A,118.9576,42.2728,赤峰市,哈达街,颗粒物(PM10),61,72,54,43,29,48,,62,62,42,37,15,29,0.9,0.8
2025-10-28T2100,1746A,118.8788,42.2554,赤峰市,天义路,细颗粒物(PM2.5),73,63,43,53,34,32,,58,56,53,36,15,17,0.5,0.6
2025-10-28T2100,3058A,119.2658,42.0353,赤峰市,银河街,颗粒物(PM10),59,68,72,40,36,42,,56,54,25,28,17,22,0.5,0.8
2025-10-28T2100,3286A,118.9359,42.3147,赤峰市,桥北物流园区,细颗粒物(PM2.5),108,98,52,81,35,8,,46,37,72,39,28,22,1.2,0.7
2025-10-28T2100,2521A,107.3476,22.4136,崇左市,市环保局江州分局,,48,42,31,33,26,52,,62,62,18,12,1,3,0.7,0.6
2025-10-28T2100,4256A,107.3750,22.3736,崇左市,石景林东路7号,,,24,27,18,18,85,,86,86,11,14,6,8,,0.6
2025-10-28T2100,2298A,118.3093,32.3153,滁州市,老年大学,,,81,52,60,36,,,112,109,43,29,11,11,0.4,0.4
2025-10-28T2100,2299A,118.3244,32.2786,滁州市,人大宾馆,细颗粒物(PM2.5),62,68,51,44,26,80,,116,110,35,27,7,6,0.4,0.4
2025-10-28T2100,3207A,118.3118,32.3038,滁州市,市政府原办公楼,,,86,59,56,34,,,120,118,43,33,7,8,0.6,0.5
2025-10-28T2100,3331A,118.3267,32.2634,滁州市,图书馆,颗粒物(PM10),56,61,52,39,27,95,,120,117,31,33,8,8,0.4,0.5
2025-10-28T2100,2605A,101.5482,25.0441,楚雄彝族自治州,州环境监测站,,23,16,20,16,15,38,,48,46,5,11,8,12,0.6,0.6
2025-10-28T2100,2606A,101.538,25.0492,楚雄彝族自治州,市经济开发区,,,27,24,17,14,,,48,48,8,14,,17,0.7,0.7
2025-10-28T2100,2548A,107.5277,31.2827,达州市,达州职业技术学院,,,,,,,,,,,,,,,,
2025-10-28T2100,2549A,107.5086,31.2186,达州市,市环境监测站,,47,47,35,31,21,3,,51,42,45,28,6,6,0.6,0.5
2025-10-28T2100,2550A,107.4988,31.2132,达州市,凤凰小区,颗粒物(PM10),53,56,39,31,22,4,,57,46,44,25,5,5,0.5,0.4
2025-10-28T2100,2551A,107.5082,31.1986,达州市,达县机关宾馆,颗粒物(PM10),56,61,39,37,10,2,,50,38,49,27,6,5,0.6,0.5
2025-10-28T2100,2552A,107.4644,31.2124,达州市,市政中心,颗粒物(PM10),60,70,54,41,24,3,,55,42,53,30,6,6,0.7,0.5
2025-10-28T2100,2614A,100.1542,25.7054,大理白族自治州,大理市环境监测站,,23,20,18,16,11,59,,62,62,9,8,5,5,0.5,0.5
2025-10-28T2100,2615A,100.2171,25.5811,大理白族自治州,大理古城,,43,40,20,30,13,40,,77,64,20,11,7,7,0.5,0.4
2025-10-28T2100,1109A,121.612,38.9741,大连市,甘井子,细颗粒物(PM2.5),92,108,57,68,36,82,,108,105,42,32,10,9,0.6,0.6
2025-10-28T2100,1110A,121.565,38.9511,大连市,周水子,细颗粒物(PM2.5),117,122,52,88,39,13,,106,90,108,39,6,6,1.2,0.6
2025-10-28T2100,1111A,121.5637,38.8845,大连市,星海三站,细颗粒物(PM2.5),83,78,46,61,39,99,,117,111,17,19,6,6,0.5,0.5
2025-10-28T2100,1112A,121.6302,38.9117,大连市,青泥洼桥,细颗粒物(PM2.5),99,103,55,74,35,43,,106,93,60,27,10,11,0.9,0.6
2025-10-28T2100,1113A,121.6251,38.8638,大连市,傅家庄,细颗粒物(PM2.5),73,72,38,53,28,103,,114,114,14,15,8,8,0.7,0.6
2025-10-28T2100,1114A,121.5213,38.8661,大连市,七贤岭,细颗粒物(PM2.5),94,100,48,70,36,30,,106,87,51,31,6,7,1.0,0.8
2025-10-28T2100,1115A,121.2529,38.8061,大连市,旅顺,细颗粒物(PM2.5),85,76,49,63,36,117,,128,128,12,15,9,9,0.5,0.4
2025-10-28T2100,1116A,121.7485,39.1311,大连市,金州,颗粒物(PM10),57,64,51,27,23,45,,86,78,32,23,8,9,0.7,0.6
2025-10-28T2100,1117A,121.7811,39.0496,大连市,开发区,颗粒物(PM10),56,61,46,33,28,43,,86,79,31,23,7,7,0.6,0.5
2025-10-28T2100,1118A,121.9762,39.0631,大连市,双D港,"颗粒物(PM10),细颗粒物(PM2.5)",54,57,42,38,25,70,,103,98,18,16,8,8,0.8,0.6
2025-10-28T2100,1789A,124.81117,46.03138,大庆市,大同区,颗粒物(PM10),52,54,42,29,22,14,,43,26,36,17,10,8,0.9,0.7
2025-10-28T2100,1790A,125.129,46.533,大庆市,龙凤区,颗粒物(PM10),52,53,48,29,23,30,,48,35,27,22,8,8,0.6,0.6
2025-10-28T2100,1791A,124.902,46.408,大庆市,红岗区,细颗粒物(PM2.5),57,47,32,40,21,22,,52,34,32,21,7,6,0.6,0.5
2025-10-28T2100,1792A,125.153,46.586,大庆市,萨尔图区,颗粒物(PM10),56,62,39,31,21,29,,50,34,36,24,12,11,0.5,0.4
2025-10-28T2100,1793A,124.9042,46.6215,大庆市,让胡路区,,47,47,33,30,24,4,,52,31,65,18,8,6,1.0,0.5
2025-10-28T2100,3481A,125.141,46.634,大庆市,萨区政府监测点,颗粒物(PM10),52,54,32,22,10,22,,55,36,31,14,11,8,0.5,0.4
2025-10-28T2100,1721A,113.3819,40.1097,大同市,果树场,细颗粒物(PM2.5),138,,70,105,25,10,,68,54,75,41,11,13,1.1,1.2
2025-10-28T2100,1723A,113.2994,40.0758,大同市,云冈宾馆,颗粒物(PM10),78,106,89,31,31,35,,71,67,46,33,11,15,1.2,1.7
2025-10-28T2100,1724A,113.3444,40.0917,大同市,大同大学,颗粒物(PM10),75,100,60,42,25,13,,78,70,80,41,12,15,0.8,0.6
2025-10-28T2100,1725A,113.2661,40.1269,大同市,安家小村,颗粒物(PM10),61,72,79,34,29,51,,77,76,42,39,11,14,0.5,1.8
2025-10-28T2100,1726A,113.2711,40.0844,大同市,教育学院,颗粒物(PM10),68,86,86,35,36,35,,68,64,56,49,16,18,0.8,1.8
2025-10-28T2100,3282A,113.3397,40.0597,大同市,大同市卫生学校,颗粒物(PM10),81,112,63,53,29,7,,70,62,88,45,9,13,0.8,0.8
2025-10-28T2100,3565A,113.1367,40.1122,大同市,云冈站,颗粒物(PM10),70,89,75,28,30,9,,80,68,58,31,8,17,0.5,0.6
2025-10-28T2100,3566A,113.1186,40.2556,大同市,图书馆,颗粒物(PM10),77,103,60,26,24,38,,71,62,20,26,4,12,0.4,0.4
2025-10-28T2100,3567A,113.5931,40.0461,大同市,区一中,颗粒物(PM10),73,95,58,44,30,39,,36,,33,28,11,14,1.0,0.8
2025-10-28T2100,4199A,113.2798,40.0997,大同市,魏都大道141号,颗粒物(PM10),75,100,104,35,39,46,,71,69,48,46,16,15,0.6,2
2025-10-28T2100,2269A,124.1069,50.4097,大兴安岭地区,科技局,,45,45,21,24,14,25,,51,36,21,10,8,5,0.4,0.3
2025-10-28T2100,3663A,124.1164,50.4278,大兴安岭地区,红旗社区,,29,24,12,20,11,16,,52,34,33,14,8,4,0.6,0.4
2025-10-28T2100,1600A,124.3303,40.0625,丹东市,江湾东路,细颗粒物(PM2.5),98,109,62,73,34,13,,56,39,49,29,22,13,1.6,1
2025-10-28T2100,1601A,124.4256,40.1503,丹东市,临江后街,颗粒物(PM10),146,242,71,87,29,10,,55,44,59,29,26,13,2.6,1
2025-10-28T2100,1602A,124.3933,40.1461,丹东市,元宝山,颗粒物(PM10),65,80,55,34,28,23,,47,39,46,28,12,11,1.1,0.7
2025-10-28T2100,1603A,124.3633,40.1092,丹东市,民主桥,"颗粒物(PM10),细颗粒物(PM2.5)",84,117,58,62,30,1,,53,38,59,37,9,8,1.8,1.3
2025-10-28T2100,3541A,109.5726,19.5167,儋州市,第一中学子站,,42,42,29,27,20,58,,58,56,7,7,2,2,0.5,0.4
2025-10-28T2100,3542A,109.5567,19.5187,儋州市,东坡学校子站,,39,30,23,27,19,70,,73,66,9,8,2,2,0.3,0.2
2025-10-28T2100,2616A,98.5842,24.428,德宏傣族景颇族自治州,德宏州监测站,,36,31,30,25,22,33,,92,74,26,19,8,11,0.8,0.6
2025-10-28T2100,3677A,98.5881,24.4368,德宏傣族景颇族自治州,芒市人民政府综合楼,,48,48,39,14,20,49,,85,79,14,13,7,8,0.6,0.5
2025-10-28T2100,1901A,104.4239,31.1208,德阳市,东山公园,,43,,33,30,28,41,,40,40,26,16,1,1,0.8,0.8
2025-10-28T2100,1902A,104.3826,31.1317,德阳市,西小区,,50,48,57,35,39,49,,35,35,17,27,1,2,0.9,1
2025-10-28T2100,1904A,104.3553,31.1091,德阳市,耐火材料厂,,,36,53,33,38,,,34,32,18,31,1,2,0.7,0.9
2025-10-28T2100,3639A,104.4019,31.1244,德阳市,市教育局,,40,39,46,28,35,50,,39,39,16,23,2,2,0.7,0.8
2025-10-28T2100,1622A,116.3032,37.4674,德州市,儿童乐园,细颗粒物(PM2.5),153,166,158,117,118,3,,44,34,68,40,10,10,1.1,1
2025-10-28T2100,1624A,116.2991,37.4451,德州市,监理站,细颗粒物(PM2.5),153,153,146,117,116,11,,44,36,70,47,10,12,1.4,1
2025-10-28T2100,3066A,116.2721,37.4379,德州市,九衢泉纯净水厂,细颗粒物(PM2.5),100,129,147,75,86,6,,29,26,64,53,8,11,1.0,0.9
2025-10-28T2100,3371A,116.3728,37.4403,德州市,开发区人民医院,细颗粒物(PM2.5),134,173,145,102,94,4,,36,31,73,52,12,12,2.0,1.2
2025-10-28T2100,3511A,116.5652,37.3319,德州市,陵城艺术中心,细颗粒物(PM2.5),201,178,131,151,108,5,,34,25,78,52,7,11,1.6,1
2025-10-28T2100,4292A,116.3525,37.4209,德州市,新河东路,细颗粒物(PM2.5),113,149,142,85,85,3,,36,31,80,64,7,8,1.4,1
2025-10-28T2100,2621A,99.7056,27.8317,迪庆藏族自治州,迪庆州站,,29,29,26,19,16,71,,74,73,8,8,6,6,0.5,0.6
2025-10-28T2100,3180A,99.7136,27.8094,迪庆藏族自治州,质量技术监督局,,28,22,26,19,15,75,,78,76,9,12,7,7,0.5,0.5
2025-10-28T2100,4257A,104.6092,35.5962,定西市,将台街,,,79,46,58,32,,,73,73,58,15,10,8,,0.5
2025-10-28T2100,4309A,104.6159,35.5701,定西市,正龙路62号,颗粒物(PM10),59,68,53,40,32,36,,66,58,19,10,6,5,0.4,0.4
2025-10-28T2100,1389A,113.7547,23.0494,东莞市,莞城梨川,细颗粒物(PM2.5),60,62,52,43,37,63,,102,89,24,19,6,6,0.8,0.7
2025-10-28T2100,1390A,113.7944,23.0128,东莞市,东城石井,细颗粒物(PM2.5),57,56,52,40,38,62,,92,82,26,20,6,7,0.7,0.7
2025-10-28T2100,1391A,113.7383,22.9658,东莞市,南城西平,细颗粒物(PM2.5),55,55,53,39,39,46,,96,84,42,29,8,9,0.9,0.9
2025-10-28T2100,3319A,113.7338,23.0381,东莞市,万江金泰,细颗粒物(PM2.5),70,65,54,51,40,64,,100,88,20,15,5,5,0.9,0.9
2025-10-28T2100,3626A,113.7533,23.0202,东莞市,南城元岭,,,58,52,45,39,,,106,100,21,17,7,7,0.6,0.6
2025-10-28T2100,3627A,113.7875,23.0457,东莞市,东城主山,细颗粒物(PM2.5),60,61,55,43,41,57,,106,94,34,21,5,5,0.6,0.5
2025-10-28T2100,1666A,118.6614,37.4309,东营市,市环保局,细颗粒物(PM2.5),85,100,97,63,58,60,,86,77,39,47,15,24,0.8,0.8
2025-10-28T2100,3036A,118.6904,37.4338,东营市,开发区管委会,,,,94,,65,62,,92,84,37,45,15,20,,0.7
2025-10-28T2100,3365A,118.5719,37.565,东营市,垦利区民丰路,细颗粒物(PM2.5),85,102,110,63,65,55,,89,79,40,46,8,8,0.8,1.1
2025-10-28T2100,3498A,118.5055,37.8612,东营市,河口城区,细颗粒物(PM2.5),117,127,112,88,65,51,,108,86,45,44,9,11,0.8,0.7
2025-10-28T2100,3646A,118.4978,37.4623,东营市,胜利站,细颗粒物(PM2.5),83,95,111,61,60,51,,84,72,45,59,10,13,0.8,0.9
2025-10-28T2100,3734A,118.35,37.26,东营市,理想之城,细颗粒物(PM2.5),85,105,112,63,67,45,,78,64,46,56,6,8,0.6,0.8
2025-10-28T2100,1591A,110.0023,39.8129,鄂尔多斯市,综合楼,颗粒物(PM10),53,56,55,22,21,59,,110,97,57,41,9,11,0.6,0.6
2025-10-28T2100,1592A,109.9486,39.8261,鄂尔多斯市,巴音孟克林场办事处,颗粒物(PM10),52,53,57,19,24,76,,115,104,36,32,9,13,0.6,0.9
2025-10-28T2100,1593A,109.7736,39.5986,鄂尔多斯市,康泽苑,,46,46,47,24,21,73,,108,102,30,21,4,4,0.5,0.4
2025-10-28T2100,1594A,109.8119,39.5989,鄂尔多斯市,华泰汽车城,颗粒物(PM10),53,56,46,29,20,74,,107,102,36,35,8,6,0.4,0.4
2025-10-28T2100,1595A,109.9734,39.7884,鄂尔多斯市,奥林花园,颗粒物(PM10),57,63,66,24,20,12,,111,84,94,49,7,8,0.5,0.5
2025-10-28T2100,2436A,114.8938,30.3994,鄂州市,市政府,细颗粒物(PM2.5),104,99,78,78,59,87,,125,121,37,37,11,11,0.7,0.7
2025-10-28T2100,2437A,114.8989,30.3714,鄂州市,赵家坝,细颗粒物(PM2.5),84,93,80,62,47,105,,120,119,26,30,10,10,0.9,0.9
2025-10-28T2100,3654A,114.8094,30.4089,鄂州市,精准医疗中心,细颗粒物(PM2.5),119,103,81,90,67,86,,122,119,46,42,18,15,0.8,1
2025-10-28T2100,2454A,109.4978,30.2981,恩施土家族苗族自治州,湖北民院,细颗粒物(PM2.5),63,53,29,45,20,40,,76,71,19,11,6,6,0.7,0.5
2025-10-28T2100,2455A,109.4707,30.2798,恩施土家族苗族自治州,州电力总公司,,49,36,31,34,23,26,,67,59,24,15,6,6,0.4,0.4
2025-10-28T2100,3549A,109.5061,30.3772,恩施土家族苗族自治州,龙凤新区,,,,26,,19,26,,68,64,8,8,,6,,0.4
2025-10-28T2100,2499A,108.3411,21.6158,防城港市,沙万,,,,38,31,27,,,89,89,14,11,1,6,0.5,0.4
2025-10-28T2100,2500A,108.3514,21.7731,防城港市,防城档案局,颗粒物(PM10),66,82,56,30,28,51,,81,75,26,13,6,7,0.7,0.7
2025-10-28T2100,2501A,108.3506,21.6414,防城港市,大海花园,,33,33,37,23,27,84,,96,96,14,9,6,6,0.5,0.5
2025-10-28T2100,1371A,113.1294,23.0067,佛山市,湾梁,颗粒物(PM10),53,56,50,28,26,58,,106,98,28,25,8,9,0.9,0.8
2025-10-28T2100,1372A,113.1083,23.0478,佛山市,华材职中,细颗粒物(PM2.5),70,61,50,51,39,63,,108,100,29,20,7,8,0.9,0.8
2025-10-28T2100,1373A,113.144,23.0453,佛山市,南海气象局,细颗粒物(PM2.5),53,48,47,37,33,60,,110,101,29,23,8,9,0.7,0.7
2025-10-28T2100,1374A,113.2881,22.8094,佛山市,顺德苏岗,细颗粒物(PM2.5),62,68,49,44,32,40,,90,78,47,27,10,8,0.7,0.6
2025-10-28T2100,1376A,112.8383,22.8678,佛山市,高明孔堂,,,63,48,44,35,,,126,126,29,20,6,6,0.7,0.6
2025-10-28T2100,1377A,112.8836,23.1588,佛山市,三水监测站,细颗粒物(PM2.5),64,56,46,46,34,77,,103,99,27,22,6,6,0.8,0.7
2025-10-28T2100,1378A,112.867,23.185,佛山市,三水云东海,细颗粒物(PM2.5),59,49,43,42,35,58,,100,90,29,16,6,7,0.9,0.8
2025-10-28T2100,3625A,113.2544,22.7642,佛山市,容桂街道办,细颗粒物(PM2.5),58,63,49,41,36,44,,87,77,42,28,8,7,0.7,0.8
2025-10-28T2100,1280A,119.3903,26.0543,福州市,鼓山,,30,12,18,6,11,95,,102,89,7,10,1,1,0.9,1.1
2025-10-28T2100,1282A,119.2681,26.0504,福州市,师大,,28,17,23,6,11,87,,98,84,10,11,7,6,0.5,0.5
2025-10-28T2100,1283A,119.2984,26.1028,福州市,五四北路,,26,19,23,6,12,82,,94,79,12,13,6,4,0.5,0.5
2025-10-28T2100,1284A,119.2648,26.0768,福州市,杨桥西路,,27,18,23,3,11,86,,93,83,11,11,5,4,0.4,0.4
2025-10-28T2100,1285A,119.317,26.0746,福州市,紫阳,,26,19,28,7,12,81,,96,78,15,15,8,8,0.5,0.5
2025-10-28T2100,3048A,119.5799,26.0936,福州市,九龙,,27,17,23,3,12,84,,93,89,11,12,4,5,0.4,0.6
2025-10-28T2100,3526A,119.5189,25.9664,福州市,吴航,,27,14,22,9,15,85,,97,91,8,9,6,6,0.4,0.5
2025-10-28T2100,1755A,123.7977,41.8491,抚顺市,望花区,细颗粒物(PM2.5),208,190,120,158,75,14,,53,34,88,47,20,14,1.7,1.5
2025-10-28T2100,1756A,123.9161,41.8822,抚顺市,顺城区,细颗粒物(PM2.5),138,190,149,105,98,14,,51,34,74,54,13,13,1.5,1.7
2025-10-28T2100,1757A,124.0436,41.8611,抚顺市,东洲区,细颗粒物(PM2.5),230,210,105,180,84,25,,75,62,79,34,12,12,,1.2
2025-10-28T2100,1758A,123.9247,41.8642,抚顺市,新抚区,细颗粒物(PM2.5),221,228,156,171,98,13,,55,35,82,46,15,11,1.8,1.4
2025-10-28T2100,1759A,124.0972,41.8961,抚顺市,大伙房水库,细颗粒物(PM2.5),170,146,128,129,96,33,,78,71,63,40,16,15,1.2,1.1
2025-10-28T2100,1760A,123.7086,41.8391,抚顺市,沈抚新城,细颗粒物(PM2.5),186,176,111,140,73,17,,55,38,91,45,18,14,2.2,1.1
2025-10-28T2100,2376A,116.2127,28.0814,抚州市,桐源党溪,,,,,,,,,,,,,,,,
2025-10-28T2100,2377A,116.3544,27.9831,抚州市,市站,细颗粒物(PM2.5),73,79,71,53,50,103,,121,119,18,14,8,7,1.0,1.1
2025-10-28T2100,2378A,116.3565,27.963,抚州市,血防站,颗粒物(PM10),57,64,71,38,47,113,,130,128,20,16,4,5,1.0,0.9
2025-10-28T2100,2379A,116.3564,28.0007,抚州市,采茶剧团,细颗粒物(PM2.5),93,102,79,69,55,98,,124,120,21,11,8,6,1.0,0.9
2025-10-28T2100,2380A,116.385,27.9647,抚州市,医学分院,,,,77,,50,,,130,128,,10,6,11,1.0,1
2025-10-28T2100,2207A,121.6094,41.998,阜新市,工业园区,细颗粒物(PM2.5),175,134,83,132,40,10,,77,57,68,32,38,12,1.4,0.8
2025-10-28T2100,2208A,121.6697,42.0279,阜新市,长青街,细颗粒物(PM2.5),59,56,58,42,31,19,,59,53,45,33,15,16,0.8,1.5
2025-10-28T2100,2209A,121.6673,42.0705,阜新市,农业园区,颗粒物(PM10),51,52,40,31,16,52,,62,59,20,15,11,11,0.6,0.6
2025-10-28T2100,2210A,121.6717,42.0224,阜新市,东苑,细颗粒物(PM2.5),74,73,76,54,31,13,,62,55,60,35,16,18,1.2,1.8
2025-10-28T2100,2211A,121.6506,42.0498,阜新市,玉龙新城,细颗粒物(PM2.5),109,105,70,82,29,7,,60,47,60,34,13,12,0.9,0.8
2025-10-28T2100,2301A,115.8277,32.8929,阜阳市,市监测站,,,96,88,62,66,,,128,127,30,40,6,5,0.5,0.5
2025-10-28T2100,2303A,115.8554,32.8605,阜阳市,开发区,细颗粒物(PM2.5),74,85,100,54,63,114,,128,126,28,29,9,9,0.4,0.4
2025-10-28T2100,2875A,115.784,32.8892,阜阳市,阜阳职业技术学院,颗粒物(PM10),61,72,72,39,55,120,,128,128,20,16,7,7,0.5,0.5
2025-10-28T2100,3468A,115.7901,32.8613,阜阳市,市规划展馆,颗粒物(PM10),69,87,81,40,50,109,,140,136,33,24,6,5,0.6,0.5
2025-10-28T2100,3469A,115.836,32.9183,阜阳市,枣园社区,颗粒物(PM10),69,88,77,41,51,103,,132,127,34,35,9,8,0.6,0.6
2025-10-28T2100,2669A,102.9099,34.9841,甘南藏族自治州,州政府,,43,37,48,30,24,64,,84,83,8,26,6,6,0.5,0.6
2025-10-28T2100,3380A,102.8914,34.9617,甘南藏族自治州,甘肃民族师范学院,颗粒物(PM10),55,59,55,26,22,31,,69,66,32,30,6,7,0.5,0.5
2025-10-28T2100,2570A,101.9603,30.0475,甘孜藏族自治州,水桥子,,11,11,13,3,6,32,,52,50,18,16,7,8,0.5,0.4
2025-10-28T2100,3065A,101.9533,29.9972,甘孜藏族自治州,州环保局,,14,11,14,3,5,17,,58,47,28,21,4,5,0.4,0.4
2025-10-28T2100,3414A,115.8347,28.932,赣江新区,桑海产业园,细颗粒物(PM2.5),100,102,90,75,68,91,,118,115,28,24,11,10,0.4,0.4
2025-10-28T2100,2362A,114.9017,25.9149,赣州市,通天岩,颗粒物(PM10),54,58,51,33,35,48,,96,79,8,8,14,18,0.8,0.8
2025-10-28T2100,2363A,114.9367,25.8664,赣州市,地委,细颗粒物(PM2.5),58,63,58,41,39,104,,96,96,20,16,7,6,0.7,0.7
2025-10-28T2100,2364A,114.9461,25.8481,赣州市,气象台,,,,59,,35,,,95,95,18,14,,7,0.8,0.8
2025-10-28T2100,2365A,114.9322,25.8333,赣州市,市图书馆,细颗粒物(PM2.5),63,65,52,45,39,107,,99,99,17,13,6,4,0.8,0.7
2025-10-28T2100,2366A,114.8905,25.8471,赣州市,华坚鞋城,颗粒物(PM10),59,67,57,40,39,98,,89,89,20,16,7,6,0.7,0.7
2025-10-28T2100,3109A,115.0093,25.8613,赣州市,赣县区卫计委,细颗粒物(PM2.5),80,59,48,59,49,99,,103,103,9,5,7,7,0.7,0.7
2025-10-28T2100,2683A,106.2319,36.1417,固原市,马园,,,,,,,,,,,,,,,,
2025-10-28T2100,2684A,106.2792,36.0022,固原市,监测站,颗粒物(PM10),54,58,56,22,25,27,,72,65,39,31,5,6,0.7,0.7
2025-10-28T2100,2685A,106.2375,36.0211,固原市,新区,颗粒物(PM10),52,53,43,20,22,8,,70,59,50,25,4,4,0.6,0.7
2025-10-28T2100,3522A,106.2177,35.9959,固原市,原州区十五小,,29,29,29,16,16,58,,70,67,12,20,5,5,0.5,0.6
2025-10-28T2100,2543A,106.6308,30.5278,广安市,小平旧居,,,,,,,,,,,,,,,,
2025-10-28T2100,2544A,106.6303,30.4576,广安市,市委,,,49,36,30,25,,,89,88,16,14,4,4,0.6,0.7
2025-10-28T2100,2545A,106.6271,30.4663,广安市,友谊中学,,43,39,35,30,25,64,,90,85,16,14,5,5,0.8,0.9
2025-10-28T2100,2547A,106.6388,30.4551,广安市,广电花园,,38,,28,26,24,59,,86,82,16,14,8,8,0.6,0.6
2025-10-28T2100,2902A,106.6351,30.4865,广安市,北辰小学,,46,46,33,26,22,62,,89,85,13,10,9,9,0.7,0.7
2025-10-28T2100,2523A,105.8945,32.4535,广元市,黑石坡,,,,,,,,,,,,,,,,
2025-10-28T2100,2524A,105.821,32.4444,广元市,老城,,40,40,33,26,30,4,,22,18,36,27,7,8,0.9,0.9
2025-10-28T2100,2526A,105.8628,32.4287,广元市,监测站,,50,,24,35,22,4,,20,16,26,20,1,4,1.0,0.9
2025-10-28T2100,3617A,105.8047,32.4166,广元市,经开区,,43,43,45,25,29,1,,15,12,38,28,3,5,0.8,0.8
2025-10-28T2100,1345A,113.2347,23.1423,广州市,广雅中学,细颗粒物(PM2.5),62,62,55,44,40,65,,104,92,23,27,8,8,0.7,0.7
2025-10-28T2100,1346A,113.2612,23.105,广州市,市五中,细颗粒物(PM2.5),62,65,54,44,39,70,,117,108,31,28,8,9,1.1,1
2025-10-28T2100,1348A,113.3478,23.0916,广州市,广东商学院,细颗粒物(PM2.5),63,68,52,45,39,57,,94,85,28,26,4,5,0.4,0.3
2025-10-28T2100,1349A,113.4332,23.1047,广州市,市八十六中,,,56,47,38,34,43,,88,76,,25,5,6,,0.5
2025-10-28T2100,1350A,113.3505,22.9483,广州市,番禺中学,细颗粒物(PM2.5),63,62,52,45,38,52,,93,83,34,24,6,6,0.7,0.6
2025-10-28T2100,1351A,113.2146,23.3916,广州市,花都师范,细颗粒物(PM2.5),62,63,51,44,36,77,,103,98,21,17,9,8,0.6,0.5
2025-10-28T2100,1352A,113.2597,23.1331,广州市,市监测站,细颗粒物(PM2.5),59,64,55,42,36,60,,109,98,29,24,8,9,0.7,0.6
2025-10-28T2100,1353A,113.5618,23.312,广州市,九龙镇镇龙,细颗粒物(PM2.5),63,57,49,45,38,49,,80,71,23,14,5,5,0.6,0.6
2025-10-28T2100,1354A,113.2765,23.1544,广州市,麓湖,,,56,48,44,38,,,99,86,,22,9,10,0.5,0.4
2025-10-28T2100,1355A,113.443,23.3035,广州市,帽峰山森林公园,,,,,,,,,,,,,,,,
2025-10-28T2100,2846A,113.3221,23.1322,广州市,体育西,细颗粒物(PM2.5),63,62,51,45,38,65,,101,92,19,18,7,8,1.0,0.9
2025-10-28T2100,3298A,113.5717,23.5491,广州市,从化街口,细颗粒物(PM2.5),55,47,44,39,37,67,,86,80,12,10,8,8,0.8,0.7
2025-10-28T2100,3299A,113.3472,23.3692,广州市,白云竹料,细颗粒物(PM2.5),63,57,47,45,38,73,,108,97,16,13,8,9,0.7,0.6
2025-10-28T2100,3300A,113.2981,23.237,广州市,白云嘉禾,,,67,54,46,40,,,109,100,22,17,7,9,0.6,0.6
2025-10-28T2100,3301A,113.4256,23.1716,广州市,黄埔科学城,细颗粒物(PM2.5),65,66,50,47,39,56,,97,81,22,14,6,6,0.7,0.6
2025-10-28T2100,3302A,113.3942,23.0483,广州市,番禺大学城,细颗粒物(PM2.5),60,66,50,43,36,53,,92,81,29,22,6,6,0.7,0.7
2025-10-28T2100,3303A,113.4922,22.8168,广州市,南沙黄阁,细颗粒物(PM2.5),74,79,61,54,45,44,,101,87,49,32,8,10,0.7,0.5
2025-10-28T2100,3304A,113.5342,22.7896,广州市,南沙街,细颗粒物(PM2.5),67,60,60,48,45,52,,107,95,35,27,8,9,0.8,0.7
2025-10-28T2100,3443A,113.2902,23.5544,广州市,花都梯面,细颗粒物(PM2.5),67,60,44,48,35,75,,103,95,15,12,12,11,0.6,0.6
2025-10-28T2100,3445A,113.7858,23.7478,广州市,从化良口,细颗粒物(PM2.5),54,46,42,38,36,56,,87,81,16,12,6,6,0.9,0.8
2025-10-28T2100,3446A,113.8051,23.2614,广州市,增城荔城,细颗粒物(PM2.5),62,52,44,44,36,59,,80,73,15,11,7,8,0.6,0.7
2025-10-28T2100,2505A,109.568,23.1478,贵港市,德智高中,,,,,,,,,,,,,,,,
2025-10-28T2100,2506A,109.6047,23.0666,贵港市,江南子站,颗粒物(PM10),52,53,44,35,31,82,,119,116,17,12,6,6,0.7,0.7
2025-10-28T2100,2508A,109.5669,23.1065,贵港市,荷城子站,,48,48,40,29,25,81,,106,104,15,12,4,4,0.8,0.7
2025-10-28T2100,3405A,109.5886,23.1172,贵港市,新世纪学校,,,68,45,40,30,77,,114,111,21,9,6,3,,0.5
2025-10-28T2100,4260A,109.5933,23.0951,贵港市,中山路155-3号,,46,46,40,30,29,90,,120,118,13,10,4,4,0.8,0.7
2025-10-28T2100,1439A,106.6899,26.5998,贵阳市,马鞍山,,35,34,17,24,8,32,,74,68,25,13,3,4,0.5,0.4
2025-10-28T2100,1441A,106.6243,26.6266,贵阳市,鉴湖路,,41,41,30,19,10,53,,79,76,18,13,5,5,0.4,0.5
2025-10-28T2100,1442A,106.7487,26.6343,贵阳市,燕子冲,,49,39,22,34,20,42,,84,78,19,11,4,6,0.5,0.5
2025-10-28T2100,1443A,106.6555,26.4365,贵阳市,碧云窝,细颗粒物(PM2.5),62,68,36,44,17,40,,94,87,29,12,9,7,0.5,0.3
2025-10-28T2100,1445A,106.7109,26.6027,贵阳市,红边门,,,41,23,29,16,,,89,,28,19,9,6,0.7,0.7
2025-10-28T2100,1446A,106.7164,26.5699,贵阳市,新华路,颗粒物(PM10),54,58,32,27,15,43,,75,68,18,16,11,13,0.5,0.5
2025-10-28T2100,1447A,106.674,26.5424,贵阳市,太慈桥,,39,39,23,27,11,39,,90,85,32,17,2,3,0.7,0.7
2025-10-28T2100,1552A,106.805,26.3003,贵阳市,桐木岭,细颗粒物(PM2.5),58,53,35,41,22,72,,89,86,5,4,6,4,0.7,0.6
2025-10-28T2100,4230A,106.6882,26.5695,贵阳市,花果园大街66号,,46,34,19,32,17,39,,84,79,34,18,4,2,0.6,0.4
2025-10-28T2100,4231A,106.6873,26.5169,贵阳市,漓江路57号,,49,41,21,34,15,40,,85,79,25,14,10,10,0.5,0.5
2025-10-28T2100,1862A,110.4144,25.3167,桂林市,电子科大尧山校区,,,,,,,,,,,,,,,,
2025-10-28T2100,1864A,110.3089,25.2708,桂林市,龙隐路小学,细颗粒物(PM2.5),57,47,42,40,37,70,,93,87,12,10,6,6,0.5,0.5
2025-10-28T2100,1865A,110.2869,25.2178,桂林市,八中,细颗粒物(PM2.5),54,,43,38,38,69,,97,89,16,12,8,8,0.6,0.5
2025-10-28T2100,3531A,110.296,25.1253,桂林市,旅游学院,,49,,36,34,33,78,,101,95,10,11,5,6,0.7,0.7
2025-10-28T2100,4222A,110.1835,25.2444,桂林市,环湖路276号,细颗粒物(PM2.5),55,41,45,39,39,71,,93,88,14,14,6,16,0.4,0.4
2025-10-28T2100,4301A,110.2803,25.2773,桂林市,信义路13号,,43,39,43,30,34,72,,93,87,13,11,8,8,0.5,0.5
2025-10-28T2100,2674A,100.2561,34.4714,果洛藏族自治州,玛沁县大武镇,颗粒物(PM10),52,53,34,23,11,72,,94,91,7,6,22,22,0.4,0.3
2025-10-28T2100,1129A,126.5422,45.755,哈尔滨市,岭北,,,,,,,,,,,,,,,,
2025-10-28T2100,1130A,126.561,45.8167,哈尔滨市,松北商大,细颗粒物(PM2.5),88,,51,65,52,18,,52,37,37,26,4,5,0.8,0.6
2025-10-28T2100,1131A,126.979,45.5419,哈尔滨市,阿城会宁,细颗粒物(PM2.5),117,102,51,88,37,9,,53,40,52,23,7,7,0.9,0.5
2025-10-28T2100,1132A,126.599,45.7222,哈尔滨市,南岗学府路,细颗粒物(PM2.5),90,87,53,67,32,10,,38,35,69,29,12,12,1.1,0.5
2025-10-28T2100,1133A,126.689,45.7733,哈尔滨市,太平宏伟公园,细颗粒物(PM2.5),70,55,43,51,33,11,,63,53,56,18,14,12,0.9,0.6
2025-10-28T2100,1134A,126.635,45.7667,哈尔滨市,道外承德广场,细颗粒物(PM2.5),80,90,59,59,31,4,,59,44,75,23,10,8,1.0,0.6
2025-10-28T2100,1135A,126.685,45.7319,哈尔滨市,香坊红旗大街,细颗粒物(PM2.5),103,117,54,77,35,8,,60,46,71,24,11,6,1.2,0.6
2025-10-28T2100,1136A,126.6411,45.7258,哈尔滨市,动力和平路,细颗粒物(PM2.5),115,,49,87,34,6,,60,48,68,25,10,8,1.1,0.6
2025-10-28T2100,1137A,126.593,45.7478,哈尔滨市,道里建国路,细颗粒物(PM2.5),89,92,44,66,35,9,,55,41,67,26,10,6,0.9,0.4
2025-10-28T2100,1138A,126.615,45.61,哈尔滨市,平房东轻厂,细颗粒物(PM2.5),60,68,47,43,30,6,,47,27,69,36,15,13,0.8,0.5
2025-10-28T2100,1139A,126.595,45.9855,哈尔滨市,呼兰师专,,,256,53,,34,26,,49,36,72,25,16,6,1.5,0.6
2025-10-28T2100,1140A,126.6206,45.6842,哈尔滨市,省农科院,细颗粒物(PM2.5),114,142,89,86,44,9,,38,31,69,37,12,8,0.8,0.5
2025-10-28T2100,2688A,93.5128,42.8172,哈密市,地区监测站,颗粒物(PM10),95,140,126,49,44,34,,78,72,63,40,12,12,0.7,0.4
2025-10-28T2100,2689A,93.4961,42.8328,哈密市,哈密师范学校,细颗粒物(PM2.5),117,116,108,88,39,18,,75,66,71,47,4,14,1.4,0.9
2025-10-28T2100,2671A,100.9048,36.9639,海北藏族自治州,海晏县西海镇,,20,15,15,14,11,39,,88,80,16,7,4,6,0.4,0.4
2025-10-28T2100,3867A,102.0738,36.5056,海东市,平安区公安北苑,颗粒物(PM10),58,65,46,32,33,79,,94,93,23,16,39,18,1.3,0.8
2025-10-28T2100,1409A,110.576,19.9507,海口市,东寨港,,,,,,,,,,,,,,,,
2025-10-28T2100,1410A,110.3232,20.0574,海口市,海南大学,,36,34,33,25,25,97,,99,94,6,6,6,5,0.4,0.4
2025-10-28T2100,1411A,110.283,20.0053,海口市,秀英海南医院,,40,40,31,25,26,90,,91,86,8,8,7,6,0.4,0.4
2025-10-28T2100,1412A,110.338,19.9969,海口市,海南师范大学,,38,37,28,26,24,98,,101,95,7,7,6,6,0.5,0.5
2025-10-28T2100,1413A,110.33,20.0356,海口市,龙华路环保局宿舍,,39,39,29,26,25,98,,100,93,8,8,8,7,0.2,0.1
2025-10-28T2100,3539A,110.5111,19.9736,海口市,桂林洋子站,,42,37,35,29,28,95,,103,99,6,7,6,6,0.4,0.4
2025-10-28T2100,2673A,100.6188,36.2866,海南藏族自治州,共和县恰卜恰镇,颗粒物(PM10),53,56,31,3,12,17,,92,81,46,19,16,11,0.7,0.5
2025-10-28T2100,2676A,97.3731,37.3753,海西蒙古族藏族自治州,德令哈市,,27,27,19,10,11,74,,91,89,3,4,17,18,0.3,0.4
2025-10-28T2100,1048A,114.5302,36.6116,邯郸市,东污水处理厂,细颗粒物(PM2.5),173,,130,131,150,8,,50,43,49,29,3,3,0.9,1.1
2025-10-28T2100,1049A,114.4918,36.5713,邯郸市,矿院,细颗粒物(PM2.5),147,118,141,112,145,13,,51,47,48,34,5,5,0.8,1
2025-10-28T2100,1050A,114.484,36.6133,邯郸市,丛台公园,细颗粒物(PM2.5),147,128,156,112,144,37,,56,54,29,31,5,6,0.8,1.1
2025-10-28T2100,3458A,114.7895,36.5593,邯郸市,香泉濮院小区,细颗粒物(PM2.5),110,147,134,83,102,3,,44,36,49,26,6,5,1.2,0.8
2025-10-28T2100,3579A,114.50634,36.77178,邯郸市,永年区实验高中,细颗粒物(PM2.5),109,120,142,82,100,20,,46,39,40,36,3,2,0.9,1.1
2025-10-28T2100,3580A,114.20016,36.44293,邯郸市,峰峰矿区临水派出所,细颗粒物(PM2.5),119,117,101,90,102,38,,71,62,38,36,4,6,0.8,1.1
2025-10-28T2100,2634A,106.9893,33.1842,汉中市,汉川机床厂子校,,,,,,,,,,,,,,,,
2025-10-28T2100,2635A,107.0154,33.0706,汉中市,市监测站,颗粒物(PM10),60,70,51,40,34,12,,46,38,33,21,4,4,0.9,0.8
2025-10-28T2100,2636A,107.0089,33.1138,汉中市,鑫源开发区,细颗粒物(PM2.5),93,113,75,69,36,18,,46,39,49,24,15,6,1.6,0.6
2025-10-28T2100,2637A,107.007,33.0323,汉中市,南郑大河坎水厂,颗粒物(PM10),67,83,53,39,31,5,,39,31,28,21,8,9,0.9,0.7
2025-10-28T2100,1223A,120.2072,30.2111,杭州市,滨江,,44,44,30,17,16,60,,101,93,46,30,12,11,0.5,0.5
2025-10-28T2100,1224A,120.0633,30.2747,杭州市,西溪,,31,31,33,11,14,66,,102,97,21,25,8,8,0.5,0.5
2025-10-28T2100,1226A,120.3417,30.3150,杭州市,下沙,,28,28,30,11,15,62,,103,94,38,28,6,6,0.2,0.2
2025-10-28T2100,1227A,120.1269,30.2456,杭州市,卧龙桥,,30,30,28,10,12,44,,104,92,22,23,9,10,0.5,0.5
2025-10-28T2100,1228A,120.1903,30.2692,杭州市,浙江农大,,35,35,31,18,16,74,,104,99,33,29,8,7,0.5,0.5
2025-10-28T2100,1230A,120.1197,30.3119,杭州市,和睦小学,,32,32,27,15,18,64,,108,101,33,28,8,8,0.6,0.6
2025-10-28T2100,1231A,120.3019,30.4183,杭州市,临平镇,,35,35,28,14,17,50,,103,93,48,27,7,7,0.3,0.2
2025-10-28T2100,1232A,120.2753,30.1839,杭州市,城厢镇,,,41,38,21,18,62,,104,96,48,32,9,8,,0.5
2025-10-28T2100,1233A,120.0883,30.1808,杭州市,云栖,,28,28,27,11,13,41,,108,94,33,27,6,7,0.5,0.5
2025-10-28T2100,3557A,119.9464,30.0494,杭州市,镇二中,,42,42,35,26,23,76,,97,93,25,28,7,6,0.5,0.5
2025-10-28T2100,3558A,119.7183,30.2367,杭州市,市府大楼,细颗粒物(PM2.5),57,56,41,40,26,53,,110,103,36,24,9,9,0.5,0.4
2025-10-28T2100,3656A,120.1556,30.2864,杭州市,消防大队,,31,31,32,16,18,74,,104,99,33,32,10,10,0.0,0.1
2025-10-28T2100,1270A,117.1959,31.7848,合肥市,明珠广场,细颗粒物(PM2.5),73,85,87,53,55,75,,115,110,47,56,10,8,0.7,0.8
2025-10-28T2100,1271A,117.3072,31.8764,合肥市,三里街,细颗粒物(PM2.5),79,88,92,58,54,61,,102,93,54,54,9,7,0.8,0.9
2025-10-28T2100,1272A,117.2588,31.8707,合肥市,琥珀山庄,颗粒物(PM10),69,88,80,45,44,69,,124,115,39,37,8,6,0.8,0.9
2025-10-28T2100,1273A,117.1604,31.9052,合肥市,董铺水库,,,,,,,,,,,,,,,,
2025-10-28T2100,1274A,117.25,31.8571,合肥市,长江中路,细颗粒物(PM2.5),94,92,96,70,64,78,,120,115,41,41,11,7,0.7,0.7
2025-10-28T2100,1275A,117.266,31.9436,合肥市,庐阳区,细颗粒物(PM2.5),73,90,97,53,55,65,,107,98,63,58,9,8,0.8,0.9
2025-10-28T2100,1276A,117.3453,31.8616,合肥市,瑶海区,,,102,92,63,55,,,107,101,79,61,11,10,0.8,0.8
2025-10-28T2100,1277A,117.3027,31.7964,合肥市,包河区,细颗粒物(PM2.5),98,127,97,73,58,9,,119,100,132,80,12,10,0.9,0.9
2025-10-28T2100,1278A,117.2776,31.7385,合肥市,滨湖新区,细颗粒物(PM2.5),92,95,80,68,57,87,,125,121,32,31,4,5,0.8,0.8
2025-10-28T2100,1279A,117.1318,31.8403,合肥市,高新区,细颗粒物(PM2.5),75,75,81,55,56,80,,120,116,44,45,7,6,0.8,0.8
2025-10-28T2100,3464A,117.3803,31.9147,合肥市,高教基地,颗粒物(PM10),71,92,68,48,30,66,,109,101,38,31,8,7,0.6,0.7
2025-10-28T2100,3614A,79.924,37.0877,和田地区,地区环保局,,,,122,,34,59,,95,92,36,20,3,5,,0.6
2025-10-28T2100,3615A,79.9131,37.113,和田地区,市环保局,颗粒物(PM10),91,132,126,32,36,10,,96,88,96,46,9,5,1.6,0.7
2025-10-28T2100,2516A,108.2011,24.715,河池市,东仁乐园,,,,,,,,,,,,,,,,
2025-10-28T2100,2517A,108.0497,24.6947,河池市,市环保站,,16,13,20,11,13,47,,81,76,17,12,11,8,0.6,0.6
2025-10-28T2100,2518A,108.0983,24.6989,河池市,市疾控中心,颗粒物(PM10),51,51,21,22,15,26,,75,64,36,14,10,9,0.8,0.7
2025-10-28T2100,1696A,114.6778,23.7569,河源市,源西,,,,,,,,,,,,,,,,
2025-10-28T2100,1697A,114.6944,23.7586,河源市,东埔,细颗粒物(PM2.5),60,45,46,43,44,65,,81,78,13,11,6,6,0.6,0.8
2025-10-28T2100,1698A,114.6892,23.7233,河源市,老城,颗粒物(PM10),52,53,50,34,35,66,,84,80,10,8,6,6,0.7,0.7
2025-10-28T2100,1718A,115.4208,35.2464,菏泽市,气象局,细颗粒物(PM2.5),89,107,113,66,83,92,,125,123,31,20,4,4,0.5,0.6
2025-10-28T2100,3374A,115.5564,35.0891,菏泽市,定陶老年大学,细颗粒物(PM2.5),83,97,103,61,75,78,,117,112,34,25,7,8,0.5,0.6
2025-10-28T2100,4184A,115.4797,35.24401,菏泽市,永昌路1号,颗粒物(PM10),79,108,104,56,73,98,,124,120,30,21,4,4,0.4,0.5
2025-10-28T2100,4193A,115.4715,35.2800,菏泽市,长城路999号,颗粒物(PM10),73,95,102,52,75,99,,122,121,36,23,11,10,0.5,0.6
2025-10-28T2100,2514A,111.5264,24.4172,贺州市,环保小区,细颗粒物(PM2.5),59,58,47,42,37,69,,104,92,22,14,4,4,0.7,0.7
2025-10-28T2100,2515A,111.5608,24.4078,贺州市,政协大楼,细颗粒物(PM2.5),57,54,45,40,35,60,,87,78,14,11,5,5,0.8,0.7
2025-10-28T2100,3534A,111.4744,24.4553,贺州市,西湾,细颗粒物(PM2.5),67,60,46,48,38,69,,96,86,14,12,4,4,0.7,0.7
2025-10-28T2100,2385A,114.17,35.9019,鹤壁市,市监测站,细颗粒物(PM2.5),138,145,142,105,113,1,,46,32,42,28,4,3,1.2,1
2025-10-28T2100,2386A,114.2956,35.7511,鹤壁市,市交警支队,细颗粒物(PM2.5),119,144,155,90,116,0,,33,24,64,36,3,4,1.2,0.9
2025-10-28T2100,2387A,114.2878,35.7306,鹤壁市,迎宾馆,细颗粒物(PM2.5),137,162,166,104,116,0,,38,29,67,28,4,5,1.2,0.9
2025-10-28T2100,3474A,114.2617,35.6822,鹤壁市,大新区,细颗粒物(PM2.5),114,114,132,86,117,1,,37,25,53,30,3,3,1.0,0.9
2025-10-28T2100,3596A,114.1572,35.9603,鹤壁市,南山宾馆,细颗粒物(PM2.5),144,160,139,110,102,14,,53,40,41,28,3,3,0.8,0.8
2025-10-28T2100,2244A,130.2537,47.3416,鹤岗市,哈啤分公司,,26,26,29,14,19,66,,70,68,4,4,12,12,0.5,0.4
2025-10-28T2100,2245A,130.2684,47.3086,鹤岗市,斯达机电,,40,33,30,28,23,62,,68,65,7,6,12,12,0.6,0.5
2025-10-28T2100,2246A,130.3114,47.3388,鹤岗市,东山纸板厂,,32,30,32,22,23,68,,72,70,8,7,11,11,0.6,0.5
2025-10-28T2100,2247A,130.1097,47.3382,鹤岗市,五号水库,,,,,,,,,,,,,,,,
2025-10-28T2100,2263A,127.4833,50.2524,黑河市,交通局,,43,43,22,26,15,16,,56,30,34,17,4,4,0.7,0.6
2025-10-28T2100,2264A,127.5144,50.2341,黑河市,环保局,,44,44,27,30,17,36,,55,38,23,14,6,6,0.7,0.6
2025-10-28T2100,2265A,127.5291,50.2472,黑河市,大黑河岛,,,,,,,,,,,,,,,,
2025-10-28T2100,1074A,115.6838,37.7541,衡水市,电机北厂,细颗粒物(PM2.5),185,161,132,139,120,26,,36,36,31,32,6,5,1.0,0.8
2025-10-28T2100,1075A,115.6303,37.7316,衡水市,市监测站,细颗粒物(PM2.5),149,119,112,114,118,25,,35,35,31,34,6,7,1.0,0.8
2025-10-28T2100,3188A,115.6683,37.7217,衡水市,市城管局,细颗粒物(PM2.5),152,,118,116,108,31,,42,41,34,38,7,8,1.0,0.9
2025-10-28T2100,3459A,115.5989,37.5491,衡水市,地表水厂,细颗粒物(PM2.5),117,124,117,88,102,5,,37,32,54,43,5,6,0.7,0.7
2025-10-28T2100,2456A,112.5003,26.9167,衡阳市,原169医院,,,,,,,,,,,,,,,,
2025-10-28T2100,2457A,112.6194,26.9258,衡阳市,衡阳化工总厂,细颗粒物(PM2.5),55,52,62,39,49,56,,96,84,33,21,9,8,0.8,0.8
2025-10-28T2100,2458A,112.6211,26.8956,衡阳市,珠晖区环保局,细颗粒物(PM2.5),63,66,58,45,54,51,,95,84,46,36,11,10,1.3,1.2
2025-10-28T2100,2459A,112.6197,26.8733,衡阳市,市委党校,颗粒物(PM10),54,58,56,35,38,67,,99,90,19,11,4,4,0.9,0.8
2025-10-28T2100,2460A,112.6006,26.8919,衡阳市,市监测站,细颗粒物(PM2.5),69,68,62,50,42,64,,98,88,24,17,8,7,1.1,1
2025-10-28T2100,2461A,112.5664,26.9056,衡阳市,真空机电公司,颗粒物(PM10),58,66,52,38,40,73,,97,89,16,17,8,7,1.0,0.9
2025-10-28T2100,3399A,112.6703,26.882,衡阳市,师范学院,细颗粒物(PM2.5),75,,63,55,46,65,,104,94,23,16,10,10,1.1,1
2025-10-28T2100,2608A,103.3772,23.3993,红河哈尼族彝族自治州,污水处理厂,,33,28,20,23,17,56,,63,62,8,7,9,9,0.2,0.2
2025-10-28T2100,2609A,103.3861,23.35,红河哈尼族彝族自治州,监测站,,39,32,24,27,17,60,,61,61,5,4,10,5,0.3,0.2
2025-10-28T2100,3038A,103.3758,23.368,红河哈尼族彝族自治州,州图书馆,,43,,17,30,22,61,,61,61,6,5,3,3,0.4,0.3
2025-10-28T2100,1090A,111.6507,40.7517,呼和浩特市,呼市一监,颗粒物(PM10),101,151,64,71,30,6,,68,57,83,46,9,8,0.9,0.7
2025-10-28T2100,1091A,111.6572,40.8033,呼和浩特市,小召,颗粒物(PM10),89,127,62,56,31,9,,62,52,94,54,11,9,1.4,0.9
2025-10-28T2100,1094A,111.7516,40.8369,呼和浩特市,如意水处理厂,颗粒物(PM10),78,105,65,46,29,0,,63,46,98,56,14,12,0.8,0.6
2025-10-28T2100,1095A,111.7276,40.8062,呼和浩特市,二十九中,颗粒物(PM10),87,124,65,62,30,4,,65,54,85,48,12,12,1.0,0.7
2025-10-28T2100,1096A,111.5512,40.7866,呼和浩特市,工大金川校区,颗粒物(PM10),77,103,69,35,24,4,,55,41,84,56,7,9,0.7,0.6
2025-10-28T2100,1097A,111.717,40.7612,呼和浩特市,化肥厂生活区,颗粒物(PM10),82,114,71,52,33,4,,63,45,92,55,8,10,0.9,0.7
2025-10-28T2100,3698A,111.5968,40.8178,呼和浩特市,红旗小学,颗粒物(PM10),79,107,67,46,31,3,,61,42,88,61,10,10,0.7,0.5
2025-10-28T2100,3699A,111.6518,40.8389,呼和浩特市,海东办,颗粒物(PM10),80,110,66,45,30,3,,63,49,86,51,8,8,0.9,0.6
2025-10-28T2100,3061A,119.7512,49.1577,呼伦贝尔市,国华电力东,,,26,30,15,16,,,52,52,8,12,8,7,0.1,0.5
2025-10-28T2100,4279A,119.7569,49.2222,呼伦贝尔市,伊敏大街东7号,,27,27,33,12,19,22,,48,45,32,11,6,6,0.5,0.6
2025-10-28T2100,1250A,120.0751,30.8669,湖州市,城西水厂,,35,35,30,15,14,76,,119,111,37,30,9,9,0.5,0.5
2025-10-28T2100,2873A,120.0830,30.8929,湖州市,仁皇山新区,,,21,26,10,15,,,112,109,30,29,7,7,0.3,0.3
2025-10-28T2100,2907A,120.1844,30.8596,湖州市,吴兴区站,,30,30,34,9,14,68,,99,91,33,31,7,7,0.4,0.4
2025-10-28T2100,3562A,120.4148,30.8538,湖州市,南浔区站,,29,29,23,13,12,67,,112,105,38,29,10,10,0.4,0.4
2025-10-28T2100,1607A,120.9049,40.7211,葫芦岛市,龙港区,颗粒物(PM10),94,138,91,69,53,6,,50,34,67,48,20,34,1.8,1.4
2025-10-28T2100,1608A,120.8392,40.7514,葫芦岛市,化工街,颗粒物(PM10),123,195,88,88,40,6,,46,32,80,48,52,26,1.7,1
2025-10-28T2100,1609A,120.8341,40.7073,葫芦岛市,新区,细颗粒物(PM2.5),95,126,72,71,39,4,,44,31,78,52,24,23,1.6,1.3
2025-10-28T2100,1610A,120.8695,40.7677,葫芦岛市,东城区,细颗粒物(PM2.5),147,202,77,112,44,10,,53,38,63,44,59,20,1.9,1.1
2025-10-28T2100,2482A,109.5981,27.5721,怀化市,林科所,,,,,,,,,,,,,,,,
2025-10-28T2100,2483A,109.9453,27.5444,怀化市,河西地税局,,50,46,32,35,25,26,,72,62,23,15,2,2,0.4,0.4
2025-10-28T2100,2484A,109.9781,27.5342,怀化市,市四医院,细颗粒物(PM2.5),67,55,42,48,29,46,,86,77,18,13,8,8,0.5,0.4
2025-10-28T2100,2485A,109.9972,27.5578,怀化市,监测楼,,,87,42,68,29,,,82,78,32,14,3,3,0.5,0.3
2025-10-28T2100,2486A,110.0394,27.583,怀化市,市委党校,细颗粒物(PM2.5),74,70,44,54,30,26,,78,68,31,17,10,10,0.4,0.2
2025-10-28T2100,1210A,119.036,33.5981,淮安市,钵池山,颗粒物(PM10),57,63,34,29,20,58,,95,91,47,26,8,8,0.5,0.4
2025-10-28T2100,1211A,119.007,33.575,淮安市,北京南路,颗粒物(PM10),63,75,39,32,18,56,,97,88,38,23,8,9,0.7,0.5
2025-10-28T2100,1212A,118.989,33.6067,淮安市,市监测站,细颗粒物(PM2.5),58,56,31,41,19,82,,106,104,33,22,7,7,0.8,0.6
2025-10-28T2100,1213A,119.135,33.5039,淮安市,楚州区监测站,"颗粒物(PM10),细颗粒物(PM2.5)",59,68,45,42,22,53,,99,90,49,37,9,10,0.5,0.4
2025-10-28T2100,3426A,118.8755,33.2894,淮安市,新华书店,"颗粒物(PM10),细颗粒物(PM2.5)",62,74,47,44,22,57,,97,90,50,34,9,10,0.6,0.6
2025-10-28T2100,4206A,119.0288,33.6319,淮安市,承德北路606号,颗粒物(PM10),60,70,40,33,22,61,,94,87,42,24,7,7,0.6,0.5
2025-10-28T2100,2282A,116.8004,33.975,淮北市,监测站,颗粒物(PM10),66,81,79,38,50,109,,119,118,26,29,10,10,0.5,0.5
2025-10-28T2100,2283A,116.8091,33.9007,淮北市,烈山区政府,,,,82,53,59,102,,124,122,30,32,14,12,0.6,0.6
2025-10-28T2100,3330A,116.8873,33.9836,淮北市,杜集区检察院,颗粒物(PM10),65,79,79,45,52,119,,132,132,16,19,6,6,0.5,0.5
2025-10-28T2100,4017A,116.7923,33.9535,淮北市,市博物馆,颗粒物(PM10),66,82,74,44,50,103,,120,118,28,28,10,10,0.7,0.7
2025-10-28T2100,2277A,116.8305,32.7727,淮南市,潘集区政府,细颗粒物(PM2.5),89,103,92,66,63,84,,105,100,35,31,4,6,0.5,0.6
2025-10-28T2100,2279A,116.8569,32.5951,淮南市,谢家集区政府,细颗粒物(PM2.5),88,75,75,65,50,84,,117,111,32,26,9,10,0.5,0.5
2025-10-28T2100,2280A,116.8281,32.633,淮南市,八公山区政府,细颗粒物(PM2.5),80,92,80,59,50,95,,123,120,22,21,10,9,0.5,0.5
2025-10-28T2100,2281A,116.6325,32.6201,淮南市,焦岗湖风景区管理处,,,,,,,,,,,,,,,,
2025-10-28T2100,2894A,117.0566,32.6531,淮南市,经济技术开发区消防队,细颗粒物(PM2.5),85,89,77,63,48,85,,112,109,31,31,10,10,0.3,0.4
2025-10-28T2100,3329A,117.0108,32.5893,淮南市,山南新区,细颗粒物(PM2.5),92,106,77,68,48,100,,130,127,30,26,5,5,0.3,0.3
2025-10-28T2100,4209A,117.0031,32.6445,淮南市,国庆中路369号,细颗粒物(PM2.5),72,76,69,52,49,110,,130,128,22,22,10,10,0.5,0.5
2025-10-28T2100,2446A,114.9028,30.4742,黄冈市,职工中心,细颗粒物(PM2.5),88,89,64,65,47,80,,126,117,39,23,8,7,0.7,0.7
2025-10-28T2100,2929A,114.8858,30.4519,黄冈市,红卫路,细颗粒物(PM2.5),89,73,57,66,51,80,,126,116,41,27,12,7,0.9,0.7
2025-10-28T2100,3398A,114.9136,30.4445,黄冈市,市林业局,细颗粒物(PM2.5),84,99,68,62,50,79,,130,122,45,26,7,4,0.9,0.7
2025-10-28T2100,2672A,102.0199,35.5102,黄南藏族自治州,同仁县隆务镇,,40,40,32,9,10,60,,70,70,2,4,10,10,0.2,0.2
2025-10-28T2100,2295A,118.2903,29.6963,黄山市,延安路89号,,48,48,44,25,22,72,,106,97,17,10,4,4,0.4,0.5
2025-10-28T2100,2297A,118.1371,30.2756,黄山市,黄山区政府5号楼,颗粒物(PM10),69,87,41,44,30,14,,91,69,16,8,5,5,0.7,0.6
2025-10-28T2100,4210A,118.3354,29.7203,黄山市,滨江东路7-2号,颗粒物(PM10),51,51,44,23,24,71,,102,96,15,10,4,4,0.4,0.4
2025-10-28T2100,2423A,115.0601,30.2313,黄石市,沈家营,细颗粒物(PM2.5),64,74,76,46,50,103,,129,125,9,27,12,9,0.7,0.7
2025-10-28T2100,2426A,114.8988,30.2019,黄石市,铁山,细颗粒物(PM2.5),100,93,73,75,56,75,,120,113,29,20,9,8,0.4,0.4
2025-10-28T2100,2427A,115.0307,30.2092,黄石市,团城山,细颗粒物(PM2.5),75,85,72,55,52,111,,136,134,14,21,8,8,0.7,0.7
2025-10-28T2100,3149A,115.0235,30.1578,黄石市,笔架山北路,颗粒物(PM10),92,134,96,66,61,103,,130,127,15,18,9,9,0.7,0.6
2025-10-28T2100,4185A,115.0780,30.21118,黄石市,磁湖东路29号,颗粒物(PM10),65,79,79,45,62,105,,127,124,14,24,14,11,0.7,0.7
2025-10-28T2100,1392A,114.4183,23.0528,惠州市,河南岸金山湖子站,,40,37,50,28,38,36,,62,51,16,19,7,9,0.8,0.8
2025-10-28T2100,1393A,114.4053,23.0822,惠州市,下埔横江三路子站,,49,49,58,34,42,36,,72,59,19,13,6,6,0.6,0.6
2025-10-28T2100,1394A,114.4103,23.1142,惠州市,江北云山西路子站,细颗粒物(PM2.5),55,55,51,39,41,41,,77,64,26,17,9,7,0.7,0.6
2025-10-28T2100,1395A,114.4645,22.7833,惠州市,惠阳区承修路船湖子站,细颗粒物(PM2.5),52,46,47,36,35,32,,69,46,25,17,9,9,0.9,0.9
2025-10-28T2100,1396A,114.5317,22.7422,惠州市,大亚湾管委会子站,细颗粒物(PM2.5),55,48,43,39,35,26,,65,43,30,18,10,10,0.8,0.7
2025-10-28T2100,3314A,114.4338,22.8134,惠州市,惠阳秋长,细颗粒物(PM2.5),54,39,43,38,38,45,,78,55,21,15,12,11,0.9,0.9
2025-10-28T2100,3452A,114.6517,22.775,惠州市,大亚湾霞涌,,,31,37,26,32,,,57,52,13,10,6,7,0.6,0.6
2025-10-28T2100,2240A,130.9762,45.3001,鸡西市,环保局,,38,37,46,26,30,51,,62,58,12,8,6,5,0.7,0.6
2025-10-28T2100,2243A,130.9429,45.3039,鸡西市,第一中学,,46,43,30,32,27,53,,64,61,10,5,6,6,0.6,0.6
2025-10-28T2100,3707A,131.0207,45.3073,鸡西市,欧美日汽修厂,,46,44,45,32,29,59,,66,64,10,8,6,6,0.6,0.6
2025-10-28T2100,3709A,130.9967,45.3106,鸡西市,市政设施管理处,,45,36,47,31,27,54,,63,60,13,10,8,7,0.5,0.5
2025-10-28T2100,2367A,114.9754,27.0803,吉安市,红声器材厂,颗粒物(PM10),57,63,64,35,41,117,,135,133,18,20,10,14,0.8,0.8
2025-10-28T2100,2368A,114.9658,27.0999,吉安市,市森林工业局,细颗粒物(PM2.5),62,64,67,44,46,115,,136,134,19,21,12,12,0.6,0.6
2025-10-28T2100,2369A,114.99,27.1312,吉安市,市环境监测站,细颗粒物(PM2.5),68,62,65,49,46,115,,132,129,16,20,10,20,0.6,0.7
2025-10-28T2100,2370A,115.0093,27.0968,吉安市,青原区法院,细颗粒物(PM2.5),63,66,65,45,46,113,,129,127,16,19,10,13,0.6,0.7
2025-10-28T2100,1772A,126.54,43.8622,吉林市,哈达湾,细颗粒物(PM2.5),232,239,59,182,38,40,,76,68,88,20,16,11,1.7,0.6
2025-10-28T2100,1773A,126.5844,43.8358,吉林市,东局子,细颗粒物(PM2.5),178,139,61,134,48,27,,74,61,58,22,12,8,1.3,0.7
2025-10-28T2100,1774A,126.5052,43.8245,吉林市,电力学院,细颗粒物(PM2.5),246,263,90,196,57,11,,73,46,70,25,13,9,2.3,0.7
2025-10-28T2100,1775A,126.6133,43.8972,吉林市,江北,细颗粒物(PM2.5),175,161,68,132,44,49,,68,56,36,24,10,8,1.3,0.9
2025-10-28T2100,1776A,126.555,43.8306,吉林市,江南公园,细颗粒物(PM2.5),183,172,67,138,47,20,,71,58,60,19,10,6,1.1,0.5
2025-10-28T2100,1778A,126.7061,43.7133,吉林市,丰满,细颗粒物(PM2.5),180,,54,136,53,92,,102,101,18,13,9,9,0.7,0.4
2025-10-28T2100,2868A,126.4739,43.953,吉林市,九站,细颗粒物(PM2.5),130,170,72,99,37,23,,64,53,72,23,17,4,0.9,0.6
2025-10-28T2100,1299A,116.9862,36.6114,济南市,科干所,颗粒物(PM10),64,78,86,42,57,118,,103,100,23,23,9,8,0.6,0.7
2025-10-28T2100,1300A,116.9376,36.665,济南市,农科所,细颗粒物(PM2.5),83,112,97,61,51,16,,72,51,69,42,7,7,1.2,0.9
2025-10-28T2100,1301A,117.1265,36.6734,济南市,开发区,细颗粒物(PM2.5),92,115,96,68,68,29,,98,67,74,31,4,3,1.4,0.9
2025-10-28T2100,1303A,117.0624,36.6868,济南市,省种子仓库,细颗粒物(PM2.5),104,149,111,78,72,13,,96,63,96,53,7,7,1.8,1.2
2025-10-28T2100,1304A,116.9489,36.6447,济南市,机床二厂,细颗粒物(PM2.5),95,110,114,71,87,71,,83,64,46,44,10,8,0.5,0.5
2025-10-28T2100,1305A,117.0495,36.663,济南市,市监测站,细颗粒物(PM2.5),74,83,97,54,72,105,,98,72,29,42,4,3,0.9,1
2025-10-28T2100,1306A,116.7675,36.5484,济南市,长清党校,颗粒物(PM10),68,85,103,42,57,122,,99,99,26,31,8,8,0.8,0.8
2025-10-28T2100,1616A,117.6795,36.229,济南市,技术学院,细颗粒物(PM2.5),89,97,110,66,83,69,,102,98,49,44,10,12,0.9,1
2025-10-28T2100,1961A,117.532,36.6868,济南市,东山小学,细颗粒物(PM2.5),98,107,107,73,72,39,,99,75,47,36,7,7,0.8,0.7
2025-10-28T2100,3059A,117.7161,36.2049,济南市,泰兴公司,细颗粒物(PM2.5),85,90,106,63,75,52,,98,85,54,40,10,11,0.7,0.9
2025-10-28T2100,3064A,117.6867,36.2171,济南市,莱芜战役纪念馆,细颗粒物(PM2.5),97,95,108,72,81,74,,99,95,47,43,13,13,0.4,0.5
2025-10-28T2100,3494A,117.1673,36.9782,济南市,济阳区政府,细颗粒物(PM2.5),98,105,112,73,74,62,,76,76,38,37,6,6,0.6,0.7
2025-10-28T2100,3495A,117.1171,36.63,济南市,锦屏中学,颗粒物(PM10),63,76,76,42,52,98,,98,82,23,21,5,4,0.9,0.9
2025-10-28T2100,3682A,116.9814,36.6819,济南市,济南四建,细颗粒物(PM2.5),92,124,103,68,74,20,,90,64,79,48,7,6,1.5,1.2
2025-10-28T2100,1653A,116.6251,35.4302,济宁市,火炬城,细颗粒物(PM2.5),85,97,103,63,90,86,,117,114,29,29,7,7,0.4,0.5
2025-10-28T2100,1655A,116.5491,35.4042,济宁市,电化厂,细颗粒物(PM2.5),73,91,121,53,81,101,,125,124,29,34,4,5,0.4,0.5
2025-10-28T2100,3500A,116.5814,35.3707,济宁市,北湖一中,细颗粒物(PM2.5),73,59,81,53,75,89,,120,118,26,35,5,6,0.5,0.5
2025-10-28T2100,3501A,116.8249,35.5593,济宁市,服务中心,,,92,91,52,60,,,105,,34,31,8,8,0.5,0.6
2025-10-28T2100,3678A,116.5907,35.4054,济宁市,市第七中学,细颗粒物(PM2.5),83,93,101,61,81,82,,119,116,30,32,9,9,0.5,0.6
2025-10-28T2100,2255A,130.2751,46.8028,佳木斯市,佳纺,,45,45,36,21,20,25,,49,37,38,16,8,6,0.6,0.6
2025-10-28T2100,2256A,130.3995,46.8307,佳木斯市,发电厂,,,24,32,19,20,,,58,,15,9,9,6,0.3,0.3
2025-10-28T2100,2257A,130.3258,46.7975,佳木斯市,环保局,,29,29,29,17,22,36,,52,42,20,14,4,4,0.4,0.4
2025-10-28T2100,2258A,130.3648,46.8032,佳木斯市,十一中,,29,28,29,20,20,44,,51,45,15,14,6,7,0.4,0.4
2025-10-28T2100,2259A,130.3794,46.7588,佳木斯市,四丰,,,,,,,,,,,,,,,,
2025-10-28T2100,1252A,120.7436,30.778,嘉兴市,清河小学,,28,28,21,15,12,55,,88,82,31,26,9,8,0.6,0.7
2025-10-28T2100,1253A,120.726,30.7478,嘉兴市,嘉兴学院,,26,26,22,10,9,62,,95,89,30,24,6,6,0.6,0.6
2025-10-28T2100,2872A,120.7846,30.7525,嘉兴市,南湖区残联,,23,23,20,9,9,64,,108,99,32,22,7,6,0.6,0.6
2025-10-28T2100,3407A,120.6916,30.7739,嘉兴市,秀洲住建,,26,26,22,11,11,70,,107,101,29,27,9,9,0.4,0.5
2025-10-28T2100,1945A,98.2908,39.7711,嘉峪关市,气象局,颗粒物(PM10),115,180,86,36,22,52,,94,86,36,27,38,24,1.0,0.8
2025-10-28T2100,2884A,98.2672,39.7978,嘉峪关市,酒钢宾馆,颗粒物(PM10),103,156,100,44,28,66,,86,85,19,19,23,45,0.8,0.9
2025-10-28T2100,3248A,98.2643,39.7724,嘉峪关市,雄关区,颗粒物(PM10),86,121,70,42,31,54,,89,81,37,32,14,13,0.5,0.5
2025-10-28T2100,1383A,113.1064,22.6058,江门市,北街,细颗粒物(PM2.5),65,63,54,47,43,51,,108,96,43,27,9,7,0.7,0.6
2025-10-28T2100,1384A,113.0731,22.5835,江门市,西区,颗粒物(PM10),60,69,58,40,38,52,,106,96,39,29,11,7,0.7,0.6
2025-10-28T2100,1385A,113.0219,22.5311,江门市,圭峰西,颗粒物(PM10),64,77,73,45,42,53,,106,99,42,27,8,6,0.7,0.7
2025-10-28T2100,1386A,113.0828,22.5947,江门市,东湖,细颗粒物(PM2.5),60,64,58,43,39,49,,100,90,36,25,12,7,0.6,0.5
2025-10-28T2100,3311A,113.1075,22.5647,江门市,江海富民,细颗粒物(PM2.5),67,58,58,48,33,56,,101,91,37,31,10,10,0.8,0.7
2025-10-28T2100,3449A,113.05,22.4667,江门市,新会银湖,细颗粒物(PM2.5),94,96,61,70,50,52,,93,84,42,31,6,6,0.8,0.7
2025-10-28T2100,1830A,113.1992,35.2590,焦作市,影视城,,,,142,,86,,,38,,,28,,16,,1.0
2025-10-28T2100,3335A,113.3137,35.2641,焦作市,马村街道办,细颗粒物(PM2.5),114,104,161,86,118,73,,51,51,14,31,5,5,0.8,1
2025-10-28T2100,3336A,113.2465,35.2373,焦作市,焦作技师学院,细颗粒物(PM2.5),149,139,173,114,143,43,,56,49,26,36,5,5,1.1,1.2
2025-10-28T2100,3477A,113.1656,35.2539,焦作市,中站许衡医院,细颗粒物(PM2.5),98,77,156,73,111,76,,58,57,21,31,6,6,0.6,1
2025-10-28T2100,3981A,113.2449,35.1803,焦作市,原李万街道办,细颗粒物(PM2.5),170,151,161,129,132,,,57,56,29,25,8,8,1.2,1.2
2025-10-28T2100,4264A,113.2340,35.2190,焦作市,新安路1731号,细颗粒物(PM2.5),172,162,177,130,146,44,,60,53,25,30,5,5,1.1,1.1
2025-10-28T2100,4295A,113.2722,35.2121,焦作市,人民路3066号,细颗粒物(PM2.5),130,150,160,99,117,43,,64,57,29,31,6,6,1.0,1
2025-10-28T2100,1708A,116.3701,23.5345,揭阳市,新兴,,50,,38,35,41,34,,63,51,34,22,7,7,0.8,0.7
2025-10-28T2100,1709A,116.3264,23.5443,揭阳市,西马,,37,37,39,25,35,27,,61,51,29,19,3,4,1.1,1
2025-10-28T2100,1710A,116.3611,23.5626,揭阳市,东兴,,49,,37,34,37,33,,56,48,27,20,6,6,0.7,0.6
2025-10-28T2100,1711A,116.4151,23.5294,揭阳市,渔湖,,24,24,37,13,23,40,,65,57,23,17,4,4,0.7,0.7
2025-10-28T2100,3320A,116.403,23.5699,揭阳市,曲溪,,,22,34,21,29,,,65,55,21,17,3,3,0.7,0.6
2025-10-28T2100,1944A,102.1692,38.5167,金昌市,天庆家园,颗粒物(PM10),69,88,93,33,31,56,,100,81,31,27,5,16,0.7,0.8
2025-10-28T2100,4022A,102.1647,38.5371,金昌市,金川区人防中心,,49,,70,34,28,62,,97,84,21,20,6,10,0.8,0.6
2025-10-28T2100,4239A,102.1930,38.5319,金昌市,长春路96号,颗粒物(PM10),78,105,82,42,31,32,,91,74,50,29,10,13,0.9,0.8
2025-10-28T2100,1262A,119.647,29.077,金华市,十五中,细颗粒物(PM2.5),60,62,62,43,47,38,,90,79,32,26,3,2,0.6,0.6
2025-10-28T2100,1263A,119.686,29.1029,金华市,监测站,,49,49,62,29,40,41,,92,78,47,43,3,3,0.6,0.6
2025-10-28T2100,3659A,119.656,29.1131,金华市,气象局,细颗粒物(PM2.5),70,61,57,51,50,17,,81,70,61,32,5,5,0.6,0.6
2025-10-28T2100,1767A,121.1115,41.0879,锦州市,南山,细颗粒物(PM2.5),282,,52,232,43,12,,56,44,64,38,17,22,2.9,1
2025-10-28T2100,1768A,121.0604,40.8428,锦州市,开发区,颗粒物(PM10),140,229,88,87,43,4,,54,35,90,46,20,23,1.7,1.2
2025-10-28T2100,1769A,121.1836,41.1119,锦州市,百股街道,细颗粒物(PM2.5),138,138,59,105,39,5,,56,36,63,38,18,26,2.1,1.2
2025-10-28T2100,1770A,121.1178,41.1222,锦州市,天安街道,细颗粒物(PM2.5),110,143,55,83,35,4,,58,40,66,37,13,16,2.0,1.1
2025-10-28T2100,1771A,121.1303,41.1386,锦州市,北湖公园,细颗粒物(PM2.5),114,116,51,86,29,6,,59,42,65,34,13,15,1.2,0.8
2025-10-28T2100,2160A,112.85,35.5051,晋城市,自来水公司,细颗粒物(PM2.5),119,142,114,90,76,61,,87,82,26,36,5,7,0.8,1.1
2025-10-28T2100,2161A,112.8318,35.4936,晋城市,白云商贸,细颗粒物(PM2.5),104,126,120,78,71,52,,87,81,29,30,3,4,0.9,0.9
2025-10-28T2100,2162A,112.8508,35.4887,晋城市,市环保局,颗粒物(PM10),106,161,115,,63,,,89,86,22,30,5,5,1.2,1.3
2025-10-28T2100,2163A,112.8676,35.4897,晋城市,技术学院,细颗粒物(PM2.5),117,138,112,88,67,57,,80,75,22,39,4,6,1.0,1.2
2025-10-28T2100,2165A,112.8453,35.546,晋城市,白马寺,细颗粒物(PM2.5),98,94,92,73,73,80,,100,98,15,15,7,9,1.0,1.2
2025-10-28T2100,3620A,112.8271,35.4828,晋城市,泽州一中,细颗粒物(PM2.5),144,178,134,110,86,56,,94,87,30,29,2,3,0.9,1
2025-10-28T2100,2173A,112.7249,37.7067,晋中市,南都小区,细颗粒物(PM2.5),112,163,87,84,40,5,,107,83,106,55,8,10,1.5,0.9
2025-10-28T2100,2174A,112.6991,37.6982,晋中市,榆次区政府,细颗粒物(PM2.5),107,124,86,80,50,25,,103,86,83,47,10,10,1.2,0.9
2025-10-28T2100,2865A,112.7195,37.6828,晋中市,榆次三中,颗粒物(PM10),80,110,84,53,41,30,,108,91,58,41,10,12,0.6,0.6
2025-10-28T2100,4200A,112.7478,37.6954,晋中市,迎宾街26号,细颗粒物(PM2.5),79,105,77,58,43,32,,111,94,62,38,8,10,0.7,0.7
2025-10-28T2100,2439A,112.2014,31.0481,荆门市,竹园小学,,,116,88,73,66,53,,112,105,42,24,3,2,,0.4
2025-10-28T2100,2440A,112.1969,30.9891,荆门市,掇刀,细颗粒物(PM2.5),115,131,91,87,69,64,,123,114,43,24,3,2,0.8,0.6
2025-10-28T2100,2441A,112.2213,31.0386,荆门市,石化一小,细颗粒物(PM2.5),102,87,91,76,63,71,,109,105,,28,17,7,1.1,1.1
2025-10-28T2100,3012A,112.1849,31.0362,荆门市,西山林语,细颗粒物(PM2.5),94,94,78,70,57,80,,108,105,21,18,6,5,0.8,0.7
2025-10-28T2100,3547A,112.1632,31.0138,荆门市,龙泉中学南校,细颗粒物(PM2.5),74,84,68,54,42,109,,117,117,18,24,13,8,0.4,0.4
2025-10-28T2100,1844A,112.2494,30.3197,荆州市,市图书馆,细颗粒物(PM2.5),95,110,59,71,44,48,,123,116,76,35,7,7,1.3,0.8
2025-10-28T2100,1845A,112.2008,30.3544,荆州市,市委党校,颗粒物(PM10),85,120,71,53,45,13,,108,93,93,35,8,8,1.3,1
2025-10-28T2100,3194A,112.2747,30.3122,荆州市,管委会,"颗粒物(PM10),细颗粒物(PM2.5)",82,114,62,60,47,34,,122,108,86,31,7,9,1.1,0.9
2025-10-28T2100,4268A,112.1722,30.3366,荆州市,学苑路85号,,,73,58,70,56,61,,128,121,,14,6,5,0.7,0.6
2025-10-28T2100,2342A,117.3102,29.3867,景德镇市,王港中学,,,,,,,,,,,,,,,,
2025-10-28T2100,2343A,117.2117,29.2933,景德镇市,老干部活动中心,,45,37,33,31,26,87,,96,96,3,7,3,4,0.5,0.5
2025-10-28T2100,2344A,117.1894,29.2789,景德镇市,兽医站,,38,38,39,26,22,91,,102,102,8,10,6,6,0.7,0.7
2025-10-28T2100,2346A,117.2461,29.2956,景德镇市,陶研所,,43,34,30,30,28,92,,102,102,4,6,7,7,0.7,0.8
2025-10-28T2100,4289A,117.1542,29.2566,景德镇市,青少年活动中心,"颗粒物(PM10),细颗粒物(PM2.5)",54,58,42,38,24,72,,92,76,28,20,15,11,0.8,0.6
2025-10-28T2100,1803A,115.9872,29.6815,九江市,十里,细颗粒物(PM2.5),97,97,74,72,56,89,,132,123,41,25,7,7,0.9,0.7
2025-10-28T2100,1804A,115.9584,29.7046,九江市,茅山头,细颗粒物(PM2.5),143,131,71,109,60,81,,113,107,36,20,9,7,1.0,0.8
2025-10-28T2100,1805A,115.9877,29.7295,九江市,西园,细颗粒物(PM2.5),120,126,69,91,54,91,,133,121,53,34,10,7,1.0,0.7
2025-10-28T2100,1808A,115.9114,29.6038,九江市,综合工业园,细颗粒物(PM2.5),124,97,74,94,70,122,,130,129,34,37,10,5,1.1,0.6
2025-10-28T2100,1809A,116.0721,29.7535,九江市,石化总厂,细颗粒物(PM2.5),223,,82,173,68,83,,123,111,43,29,6,4,0.9,0.7
2025-10-28T2100,1810A,115.9773,29.5698,九江市,庐山气象台,,,,,,,,,,,,,,,,
2025-10-28T2100,3190A,116.0254,29.6994,九江市,外国语学校,细颗粒物(PM2.5),112,106,72,84,56,102,,125,119,38,32,8,7,0.9,0.8
2025-10-28T2100,4253A,116.0102,29.6594,九江市,莲花大道8号,细颗粒物(PM2.5),107,96,79,80,70,96,,117,114,20,15,10,8,0.9,0.6
2025-10-28T2100,4240A,98.4958,39.7339,酒泉市,玉门东路5号,颗粒物(PM10),98,146,87,32,23,67,,93,90,14,13,11,13,0.4,0.4
2025-10-28T2100,4241A,98.5099,39.7506,酒泉市,北大街108号,颗粒物(PM10),93,136,87,31,21,62,,89,84,14,15,7,11,0.3,0.3
2025-10-28T2100,2698A,76.0072,39.4467,喀什地区,巡警大队,颗粒物(PM10),127,204,239,68,89,9,,73,70,108,60,10,8,1.5,1.2
2025-10-28T2100,2699A,75.9755,39.4694,喀什地区,吾办,颗粒物(PM10),139,228,225,71,80,5,,69,66,93,57,9,10,1.6,1.3
2025-10-28T2100,4027A,75.9483,39.4689,喀什地区,老干局,颗粒物(PM10),132,213,223,81,68,11,,82,77,97,54,4,3,1.5,1.2
2025-10-28T2100,1824A,114.3389,34.7781,开封市,肿瘤医院,细颗粒物(PM2.5),125,109,72,95,62,19,,100,90,55,23,8,7,1.1,1.1
2025-10-28T2100,1826A,114.2885,34.7965,开封市,世纪星幼儿园,细颗粒物(PM2.5),123,115,77,93,75,14,,85,70,55,24,5,5,1.0,0.9
2025-10-28T2100,3147A,114.3438,34.8106,开封市,龙亭公园,细颗粒物(PM2.5),127,141,79,96,70,9,,84,70,58,21,9,8,1.1,0.9
2025-10-28T2100,3210A,114.3644,34.7964,开封市,汴京公园,,,,82,,68,14,,92,84,56,24,,8,,0.8
2025-10-28T2100,3473A,114.2485,34.8306,开封市,技师学院,细颗粒物(PM2.5),140,125,81,107,84,10,,88,71,59,22,9,9,1.3,1.2
2025-10-28T2100,3592A,114.4644,34.7556,开封市,祥符区生态环境局,颗粒物(PM10),68,85,63,36,43,37,,86,78,66,31,5,5,0.6,0.8
2025-10-28T2100,1951A,84.895,45.6094,克拉玛依市,长征新村,颗粒物(PM10),70,89,67,34,22,42,,73,72,52,28,4,4,0.6,0.4
2025-10-28T2100,1952A,84.8988,45.5893,克拉玛依市,南林小区,颗粒物(PM10),94,137,77,22,20,11,,66,62,62,26,3,4,1.0,0.8
2025-10-28T2100,1954A,84.905,44.3396,克拉玛依市,独山子区,颗粒物(PM10),96,142,100,37,33,45,,93,88,49,26,6,7,0.6,0.5
2025-10-28T2100,1955A,85.6979,46.098,克拉玛依市,乌尔禾区商贸楼,颗粒物(PM10),63,76,57,21,15,37,,82,78,41,27,6,6,0.5,0.4
2025-10-28T2100,3612A,85.1045,45.6899,克拉玛依市,白碱滩区新站,颗粒物(PM10),67,84,93,28,25,69,,86,86,19,24,7,7,0.5,0.5
2025-10-28T2100,2697A,76.1454,39.7142,克孜勒苏柯尔克孜自治州,市人民政府,颗粒物(PM10),102,153,148,56,59,37,,103,98,74,19,7,11,0.4,0.2
2025-10-28T2100,3665A,76.1658,39.7157,克孜勒苏柯尔克孜自治州,克州文化中心,颗粒物(PM10),104,157,150,56,53,61,,103,101,52,22,10,12,0.6,0.4
2025-10-28T2100,1450A,102.8204,24.8886,昆明市,呈贡新区,,36,35,22,25,26,34,,52,50,31,14,3,3,0.7,0.7
2025-10-28T2100,1451A,102.6251,24.9608,昆明市,西山森林公园,,,,,,,,,,,,,,,,
2025-10-28T2100,1452A,102.7252,25.0902,昆明市,龙泉镇,,49,49,27,21,15,18,,66,60,27,18,3,3,0.8,0.7
2025-10-28T2100,1453A,102.7266,25.0375,昆明市,东风东路,颗粒物(PM10),53,56,36,30,22,15,,74,62,39,22,2,2,0.7,0.5
2025-10-28T2100,1454A,102.6742,25.0669,昆明市,金鼎山,,22,22,33,12,14,36,,78,69,21,15,2,2,0.4,0.4
2025-10-28T2100,1455A,102.6644,25.0401,昆明市,碧鸡广场,,33,33,30,22,18,22,,69,60,35,22,9,9,0.4,0.5
2025-10-28T2100,3179A,102.7494,25.0119,昆明市,官渡区博物馆,,44,44,29,16,17,10,,74,59,51,27,3,2,0.7,0.5
2025-10-28T2100,3375A,102.8017,24.8336,昆明市,青年创业园,,29,29,28,18,19,44,,61,59,13,11,2,1,0.8,0.8
2025-10-28T2100,3550A,102.7997,24.9786,昆明市,昆明学院,,38,38,31,22,20,35,,54,52,24,19,8,8,0.7,0.7
2025-10-28T2100,3551A,102.5967,24.6736,昆明市,晋宁区生态环境分局,,43,43,29,24,19,48,,69,65,10,12,3,2,0.5,0.4
2025-10-28T2100,3552A,102.6678,24.9856,昆明市,云天化总部,,19,19,27,12,17,47,,73,70,13,18,5,5,0.5,0.5
2025-10-28T2100,1456A,91.1319,29.6514,拉萨市,八廓街,,29,29,21,18,12,42,,84,80,45,29,5,5,0.5,0.3
2025-10-28T2100,1457A,91.1221,29.6747,拉萨市,市环保局,,35,35,29,15,14,28,,70,64,35,25,8,9,0.7,0.3
2025-10-28T2100,1458A,91.0874,29.6475,拉萨市,区监测站,,33,17,19,9,11,30,,78,73,66,45,4,4,0.7,0.6
2025-10-28T2100,1459A,91.1774,29.6541,拉萨市,西藏大学,,31,31,22,7,9,59,,85,84,37,28,5,5,0.6,0.5
2025-10-28T2100,1460A,90.9798,29.6588,拉萨市,区辐射站,,38,38,39,23,17,14,,74,68,74,45,6,8,0.6,0.5
2025-10-28T2100,1461A,91.0834,29.6292,拉萨市,拉萨火车站,,24,24,25,10,11,41,,82,80,48,36,5,5,0.5,0.5
2025-10-28T2100,2520A,109.2203,23.7256,来宾市,来宾技工学校,细颗粒物(PM2.5),53,54,33,37,25,102,,114,114,12,8,11,11,0.9,0.8
2025-10-28T2100,3535A,109.1781,23.7297,来宾市,兴宾区政府,,45,44,33,31,23,98,,120,119,12,9,10,10,0.7,0.6
2025-10-28T2100,4002A,109.2416,23.7461,来宾市,中南小学,颗粒物(PM10),53,56,34,23,24,92,,108,107,16,11,10,9,0.9,0.8
2025-10-28T2100,1477A,104.1373,35.9454,兰州市,榆中兰大校区,,,,,,,,,,,,,,,,
2025-10-28T2100,1479A,103.831,36.0464,兰州市,铁路设计院,,,,,,,,,,,,,,,,
2025-10-28T2100,3241A,103.7439,36.0842,兰州市,百合公园,颗粒物(PM10),74,97,66,51,45,3,,72,64,90,44,6,5,1.4,1.1
2025-10-28T2100,3242A,103.9611,35.998,兰州市,和平,颗粒物(PM10),53,55,54,32,30,52,,87,82,26,23,4,6,0.4,0.5
2025-10-28T2100,4236A,103.6293,36.0938,兰州市,庄浪东路808号,细颗粒物(PM2.5),78,93,78,57,52,14,,66,53,91,60,9,11,0.9,0.9
2025-10-28T2100,4237A,103.7251,36.1043,兰州市,安宁西路88号,细颗粒物(PM2.5),90,109,84,67,52,17,,95,88,84,44,5,6,0.9,0.8
2025-10-28T2100,4238A,103.8470,36.0676,兰州市,北滨河东路1号,颗粒物(PM10),75,99,76,52,43,2,,87,74,97,51,9,9,1.1,0.9
2025-10-28T2100,3245A,103.6633,36.533,兰州新区,新区管委会,细颗粒物(PM2.5),102,101,76,76,55,53,,91,89,37,22,20,23,1.0,0.7
2025-10-28T2100,3246A,103.6975,36.4789,兰州新区,舟曲中学,细颗粒物(PM2.5),74,82,78,54,53,123,,101,101,26,30,31,18,0.8,0.7
2025-10-28T2100,1067A,116.6708,39.5111,廊坊市,药材公司,细颗粒物(PM2.5),225,194,159,175,129,6,,44,39,71,61,2,3,1.0,0.9
2025-10-28T2100,1068A,116.7214,39.5589,廊坊市,开发区,细颗粒物(PM2.5),222,203,153,172,123,0,,38,35,67,57,2,3,0.9,0.7
2025-10-28T2100,1070A,116.7244,39.5269,廊坊市,北华航天学院,细颗粒物(PM2.5),228,221,176,178,134,2,,43,36,75,60,4,5,0.9,0.8
2025-10-28T2100,2919A,116.7022,39.5453,廊坊市,河北工业大学,细颗粒物(PM2.5),213,192,161,163,121,8,,40,37,62,58,3,5,0.9,0.8
2025-10-28T2100,2535A,103.7723,29.5462,乐山市,花湖湾,,,,,,,,,,,,,,,,
2025-10-28T2100,2536A,103.7627,29.5844,乐山市,牛耳桥,,50,49,32,35,28,14,,59,51,50,25,6,7,0.8,0.6
2025-10-28T2100,2537A,103.7508,29.6006,乐山市,市第三水厂,,50,50,33,33,26,13,,64,59,47,20,5,6,0.9,0.7
2025-10-28T2100,2538A,103.7571,29.5664,乐山市,市监测站,细颗粒物(PM2.5),52,46,34,36,26,33,,64,61,27,15,5,6,0.7,0.7
2025-10-28T2100,3361A,103.7311,29.5628,乐山市,理工大学,细颗粒物(PM2.5),63,51,30,45,26,28,,65,61,31,14,8,10,0.6,0.6
2025-10-28T2100,2598A,100.2143,26.8576,丽江市,西南郊,,23,10,17,3,9,72,,79,78,3,6,6,7,0.5,0.6
2025-10-28T2100,2599A,100.2497,26.8802,丽江市,丽江古城,,,26,22,,7,56,,73,69,17,12,9,9,0.5,0.5
2025-10-28T2100,2600A,100.2203,26.8906,丽江市,市中心,,23,,16,16,11,56,,80,74,21,13,10,10,0.4,0.5
2025-10-28T2100,1267A,119.914,28.4514,丽水市,监测站大楼,,25,25,41,16,29,32,,56,49,24,22,5,5,0.6,0.6
2025-10-28T2100,1268A,119.93,28.4586,丽水市,莲都小学,,30,30,50,13,26,24,,60,52,31,22,4,4,0.5,0.5
2025-10-28T2100,1269A,119.879,28.4231,丽水市,余庄前,,17,17,41,11,34,13,,43,27,17,20,4,4,0.4,0.5
2025-10-28T2100,1173A,119.176,34.5885,连云港市,市环境监测站,颗粒物(PM10),59,68,41,36,21,66,,103,95,26,20,6,9,0.5,0.5
2025-10-28T2100,3000A,119.3581,34.6972,连云港市,德源药业,颗粒物(PM10),52,53,39,29,16,74,,95,91,23,21,5,5,0.3,0.3
2025-10-28T2100,3007A,119.178,34.844,连云港市,新城一中,细颗粒物(PM2.5),58,53,37,41,18,36,,101,85,77,35,6,7,0.6,0.5
2025-10-28T2100,3008A,119.3608,34.7519,连云港市,胡沟管理处,,44,44,28,14,12,96,,103,103,15,14,10,10,0.4,0.3
2025-10-28T2100,3009A,119.1478,34.5911,连云港市,矿山设计院,颗粒物(PM10),58,66,41,36,20,64,,104,96,22,14,4,6,0.6,0.5
2025-10-28T2100,3434A,119.2413,34.6539,连云港市,工贸学校,颗粒物(PM10),54,57,32,31,16,86,,110,107,17,12,9,9,0.6,0.5
2025-10-28T2100,3664A,119.4172,34.7341,连云港市,连云街道,,,48,32,26,16,,,114,114,14,13,5,4,0.3,0.3
2025-10-28T2100,2571A,102.3431,27.8099,凉山彝族自治州,青龙寺,,,,,,,,,,,,,,,,
2025-10-28T2100,2572A,102.2721,27.8415,凉山彝族自治州,邛海宾馆,,18,14,20,9,12,56,,65,61,10,11,10,11,0.6,0.6
2025-10-28T2100,2573A,102.2625,27.898,凉山彝族自治州,西昌市政府,,43,34,26,30,20,41,,59,57,11,13,5,8,0.5,0.6
2025-10-28T2100,2574A,102.2685,27.8851,凉山彝族自治州,凉山州政府,,38,38,29,18,16,42,,64,62,9,9,7,9,0.6,0.8
2025-10-28T2100,4229A,102.2342,27.8859,凉山彝族自治州,凯乐南路30号,,43,38,32,30,17,46,,67,65,14,18,6,8,0.6,0.7
2025-10-28T2100,2212A,123.2,41.1953,辽阳市,宏伟区,颗粒物(PM10),54,57,72,32,32,64,,68,66,10,25,6,8,0.4,0.7
2025-10-28T2100,2213A,123.1683,41.2495,辽阳市,新华园,,50,45,72,35,40,58,,63,62,16,33,5,9,0.3,0.7
2025-10-28T2100,2214A,123.2354,41.2639,辽阳市,滨河路,,49,49,65,27,34,52,,52,48,11,27,7,8,0.4,0.7
2025-10-28T2100,2215A,123.149,41.2991,辽阳市,铁西工业园,颗粒物(PM10),54,58,81,36,53,55,,54,50,14,38,6,9,0.6,1
2025-10-28T2100,2227A,125.1358,42.8845,辽源市,环保局,细颗粒物(PM2.5),297,346,152,247,77,34,,100,64,63,30,15,8,2.3,0.8
2025-10-28T2100,3239A,125.0764,42.9078,辽源市,银鹰制药,细颗粒物(PM2.5),285,298,123,235,96,14,,95,59,74,38,13,8,2.0,0.8
2025-10-28T2100,1625A,115.9848,36.4372,聊城市,区政府,细颗粒物(PM2.5),118,143,135,89,93,21,,60,42,66,38,9,9,1.0,0.9
2025-10-28T2100,2878A,116.0072,36.4343,聊城市,聊大东校,细颗粒物(PM2.5),133,153,134,101,98,29,,62,46,66,38,6,7,0.9,0.8
2025-10-28T2100,3200A,115.9819,36.4978,聊城市,监控中心,细颗粒物(PM2.5),144,167,137,110,109,8,,54,26,61,36,9,9,1.2,1
2025-10-28T2100,3513A,116.0445,36.4361,聊城市,九州社区,细颗粒物(PM2.5),110,134,123,83,80,31,,64,47,68,33,2,2,0.7,0.7
2025-10-28T2100,4018A,116.0567,36.4608,聊城市,星美广场,细颗粒物(PM2.5),120,150,135,91,85,24,,59,43,89,35,6,5,0.9,0.8
2025-10-28T2100,2632A,94.3681,29.6376,林芝市,林芝监测站,,23,10,10,7,6,71,,64,64,2,2,3,2,0.3,0.3
2025-10-28T2100,2633A,94.3616,29.6616,林芝市,林芝人民医院,,22,11,14,6,7,69,,62,62,2,4,5,4,0.3,0.3
2025-10-28T2100,2603A,100.0781,23.8982,临沧市,市环保局,细颗粒物(PM2.5),95,,24,71,29,37,,60,55,12,7,9,6,0.9,0.7
2025-10-28T2100,2604A,100.0894,23.8822,临沧市,市气象局,,35,30,23,24,22,31,,57,51,11,9,9,7,0.6,0.5
2025-10-28T2100,1733A,111.5531,36.0783,临汾市,临钢医院,颗粒物(PM10),117,183,98,83,49,7,,87,72,69,33,6,9,1.6,1.1
2025-10-28T2100,1734A,111.5028,36.0714,临汾市,技工学校,细颗粒物(PM2.5),119,162,99,90,56,11,,91,76,76,44,7,8,1.6,1
2025-10-28T2100,1736A,111.5018,36.0855,临汾市,市委,"颗粒物(PM10),细颗粒物(PM2.5)",117,183,112,88,55,7,,99,86,79,40,6,8,1.5,1
2025-10-28T2100,3018A,111.505,36.1014,临汾市,唐尧大酒店,细颗粒物(PM2.5),118,167,105,89,53,7,,98,82,75,36,5,5,1.4,1.1
2025-10-28T2100,4244A,111.4879,36.0530,临汾市,启星学校,细颗粒物(PM2.5),107,137,97,80,52,6,,100,84,89,44,6,9,1.2,1.1
2025-10-28T2100,4271A,103.2464,35.6123,临夏回族自治州,滨河东路1号,细颗粒物(PM2.5),118,152,101,89,58,,,85,82,72,29,10,8,1.2,0.8
2025-10-28T2100,4310A,103.2093,35.5995,临夏回族自治州,新华街21号,细颗粒物(PM2.5),125,161,98,95,59,23,,80,73,46,25,9,10,1.3,0.9
2025-10-28T2100,1618A,118.3429,35.0532,临沂市,沂河小区,细颗粒物(PM2.5),124,124,84,94,62,65,,104,98,42,38,12,14,0.6,0.5
2025-10-28T2100,1619A,118.295,35.0583,临沂市,鲁南制药厂,细颗粒物(PM2.5),113,141,83,85,54,61,,113,104,47,39,16,15,0.8,0.7
2025-10-28T2100,1620A,118.2794,34.9976,临沂市,新光毛纺厂,细颗粒物(PM2.5),114,114,82,86,59,60,,111,104,49,43,23,17,0.6,0.5
2025-10-28T2100,1621A,118.3956,35.0888,临沂市,河东保险公司,细颗粒物(PM2.5),104,132,93,78,59,34,,111,93,92,56,9,10,0.8,0.8
2025-10-28T2100,3370A,118.3564,35.0215,临沂市,十里堡居委,细颗粒物(PM2.5),117,127,78,88,45,71,,112,104,40,40,16,16,0.7,0.5
2025-10-28T2100,3496A,118.3604,35.1084,临沂市,南坊新区,细颗粒物(PM2.5),104,122,78,78,52,50,,113,105,81,41,12,14,0.8,0.7
2025-10-28T2100,3860A,118.3920,35.0300,临沂市,皇山花园小区,细颗粒物(PM2.5),73,88,79,53,48,78,,114,108,31,40,15,16,0.6,0.6
2025-10-28T2100,1870A,109.4856,24.3895,柳州市,柳东小学,细颗粒物(PM2.5),54,48,33,38,26,102,,102,102,11,8,6,6,0.5,0.5
2025-10-28T2100,1871A,109.4157,24.3277,柳州市,环保监测站,,42,42,33,20,17,70,,95,90,25,9,8,8,0.7,0.6
2025-10-28T2100,1872A,109.389,24.341,柳州市,河西水厂,,,146,43,,24,68,,97,91,25,15,7,8,,0.4
2025-10-28T2100,1873A,109.4311,24.2921,柳州市,市四中,,46,46,34,29,22,93,,94,93,17,12,9,9,0.6,0.5
2025-10-28T2100,1874A,109.4006,24.3631,柳州市,市九中,颗粒物(PM10),59,68,39,30,27,78,,100,94,18,14,7,4,0.6,0.5
2025-10-28T2100,1875A,109.4958,24.3134,柳州市,古亭山,,46,44,38,32,25,95,,96,90,15,8,9,8,0.7,0.6
2025-10-28T2100,3402A,109.5422,24.3996,柳州市,市二中,,,47,35,37,28,,,108,108,16,13,8,8,0.5,0.5
2025-10-28T2100,2307A,116.5079,31.737,六安市,监测大楼,细颗粒物(PM2.5),74,72,67,54,53,100,,116,115,24,23,4,4,0.5,0.5
2025-10-28T2100,2308A,116.4738,31.7643,六安市,皖西学院,细颗粒物(PM2.5),75,81,72,55,52,107,,122,122,18,19,4,3,0.4,0.5
2025-10-28T2100,2309A,116.4996,31.7905,六安市,朝阳厂,细颗粒物(PM2.5),62,70,68,44,50,105,,110,110,24,28,5,5,0.4,0.5
2025-10-28T2100,2310A,116.5567,31.7886,六安市,开发区,,,101,81,44,54,,,120,120,22,24,2,2,0.5,0.5
2025-10-28T2100,2576A,104.8,26.5892,六盘水市,窑上,细颗粒物(PM2.5),53,50,31,37,21,43,,43,43,6,7,2,2,0.5,0.5
2025-10-28T2100,2577A,104.83,26.5917,六盘水市,黄土坡,,47,47,25,25,15,41,,42,42,12,12,4,3,0.7,0.7
2025-10-28T2100,2578A,104.89,26.5939,六盘水市,水钢,,49,49,27,30,15,48,,46,46,9,7,6,6,0.6,0.6
2025-10-28T2100,2579A,104.8475,26.5894,六盘水市,民中,,45,38,22,31,16,43,,43,43,10,10,3,3,0.6,0.6
2025-10-28T2100,2580A,104.9544,26.5506,六盘水市,双水,,49,46,28,34,18,56,,50,50,9,9,3,3,0.5,0.5
2025-10-28T2100,2335A,117.0189,25.1181,龙岩市,龙岩师专,,,,,,,,,,,,,,,,
2025-10-28T2100,2336A,117.0217,25.1033,龙岩市,龙岩市监测站,,19,16,28,13,23,56,,73,68,15,11,13,11,0.5,0.5
2025-10-28T2100,2337A,117.0258,25.0661,龙岩市,闽西职业技术学院,,22,19,27,15,22,66,,78,73,6,7,6,7,0.6,0.6
2025-10-28T2100,2338A,117.0196,25.0306,龙岩市,龙岩学院,,,47,31,17,23,,,72,67,10,11,6,11,0.5,0.5
2025-10-28T2100,2665A,105.0822,33.3261,陇南市,汉王镇固水子,,,,,,,,,,,,,,,,
2025-10-28T2100,2885A,104.9339,33.3826,陇南市,滨江中学,颗粒物(PM10),51,52,48,19,19,21,,43,40,21,17,6,7,0.7,0.7
2025-10-28T2100,3247A,104.955,33.371,陇南市,市总工会,,44,44,42,15,19,24,,44,43,19,13,8,8,0.5,0.5
2025-10-28T2100,2487A,111.9589,27.8901,娄底市,电视发射台,,,,,,,,,,,,,,,,
2025-10-28T2100,2488A,111.9975,27.725,娄底市,市监测站,细颗粒物(PM2.5),68,71,50,49,35,41,,76,71,37,22,8,10,0.8,0.5
2025-10-28T2100,2489A,112.0194,27.7314,娄底市,市委党校,细颗粒物(PM2.5),87,84,48,64,39,37,,100,84,40,18,2,3,1.0,0.7
2025-10-28T2100,2490A,111.9561,27.7569,娄底市,涟钢,细颗粒物(PM2.5),119,122,56,90,43,51,,94,81,21,16,8,8,1.2,1
2025-10-28T2100,2491A,111.9892,27.7044,娄底市,市政府,细颗粒物(PM2.5),142,117,50,108,39,29,,104,87,41,15,9,8,1.3,0.8
2025-10-28T2100,1893A,105.4324,28.9634,泸州市,九狮山,,,,,,,,,,,,,,,,
2025-10-28T2100,1894A,105.4427,28.9063,泸州市,小市上码头,细颗粒物(PM2.5),87,68,39,64,29,68,,81,80,20,18,10,9,1.0,1
2025-10-28T2100,1895A,105.4241,28.8573,泸州市,兰田宪桥,细颗粒物(PM2.5),53,44,38,37,28,38,,72,67,22,16,6,6,0.6,0.6
2025-10-28T2100,1896A,105.4379,28.8833,泸州市,市环监站,细颗粒物(PM2.5),57,51,39,40,26,63,,72,72,25,23,10,10,0.6,0.5
2025-10-28T2100,4272A,105.3689,28.7783,泸州市,纳溪中医医院,,,58,41,42,30,,,78,78,28,22,6,6,0.8,0.7
2025-10-28T2100,2183A,111.1406,37.5211,吕梁市,环保局,颗粒物(PM10),85,120,74,37,29,8,,79,60,76,46,4,10,0.6,0.5
2025-10-28T2100,2185A,111.1297,37.5136,吕梁市,自来水公司,颗粒物(PM10),70,90,85,41,30,46,,77,74,29,37,2,8,0.6,0.6
2025-10-28T2100,2867A,111.1283,37.51,吕梁市,马茂庄小学,颗粒物(PM10),93,136,92,38,29,3,,74,54,80,50,3,10,0.8,0.6
2025-10-28T2100,1812A,112.3931,34.6516,洛阳市,市委党校,细颗粒物(PM2.5),144,146,101,110,82,39,,79,73,36,24,6,6,1.0,0.9
2025-10-28T2100,1815A,112.494,34.6886,洛阳市,河南林校,细颗粒物(PM2.5),165,138,114,125,113,33,,74,66,37,37,7,7,0.8,0.8
2025-10-28T2100,1816A,112.3844,34.623,洛阳市,开发区管委会,细颗粒物(PM2.5),160,167,109,122,86,40,,81,74,36,22,6,6,1.0,0.9
2025-10-28T2100,1817A,112.4267,34.6258,洛阳市,市委新办公区,细颗粒物(PM2.5),145,164,115,111,76,34,,80,70,39,25,7,7,1.1,0.9
2025-10-28T2100,3340A,112.6005,34.6326,洛阳市,伊滨,细颗粒物(PM2.5),173,136,101,131,102,29,,76,66,39,33,4,4,0.9,0.8
2025-10-28T2100,3341A,112.4951,34.6332,洛阳市,中移产业园,细颗粒物(PM2.5),162,171,116,123,89,31,,81,71,40,28,6,6,1.0,1.1
2025-10-28T2100,3593A,112.5736,34.8993,洛阳市,吉利监测站,细颗粒物(PM2.5),142,119,117,108,107,26,,68,62,33,37,6,7,0.9,0.9
2025-10-28T2100,3635A,112.3677,34.662,洛阳市,河科大西苑校区,细颗粒物(PM2.5),152,150,107,116,84,40,,77,75,36,29,7,7,1.0,1
2025-10-28T2100,3636A,112.4388,34.6781,洛阳市,英才小学,细颗粒物(PM2.5),129,188,148,98,78,26,,70,63,36,31,6,6,1.0,1
2025-10-28T2100,4214A,112.4600,34.6949,洛阳市,春都路1号院,细颗粒物(PM2.5),128,125,99,97,80,25,,66,60,36,35,6,6,1.0,1
2025-10-28T2100,2399A,114.051,33.5699,漯河市,三五一五工厂,颗粒物(PM10),100,149,87,45,59,77,,118,108,22,21,8,7,0.6,0.8
2025-10-28T2100,2400A,114.0055,33.5698,漯河市,漯河大学,颗粒物(PM10),107,163,89,36,59,83,,124,118,20,18,6,6,0.5,0.7
2025-10-28T2100,2401A,114.0138,33.5828,漯河市,市水利局,颗粒物(PM10),109,168,90,41,56,83,,122,116,21,20,7,7,0.4,0.7
2025-10-28T2100,2402A,114.0261,33.5698,漯河市,市广电局,颗粒物(PM10),108,166,92,31,65,76,,122,114,17,17,5,5,0.5,0.5
2025-10-28T2100,3478A,113.9749,33.5664,漯河市,市图书馆,,,,102,,58,69,,107,102,,21,4,5,,0.7
2025-10-28T2100,4250A,114.0892,33.5882,漯河市,韶山路11号,颗粒物(PM10),95,140,88,38,60,58,,109,98,33,25,6,7,0.5,0.6
2025-10-28T2100,1798A,118.5092,31.6837,马鞍山市,湖东路四小,颗粒物(PM10),57,64,51,36,26,84,,113,110,37,34,6,6,0.5,0.5
2025-10-28T2100,1799A,118.5024,31.6449,马鞍山市,开发区,细颗粒物(PM2.5),72,87,65,52,32,77,,115,108,32,33,6,7,0.7,0.7
2025-10-28T2100,1802A,118.6245,31.7241,马鞍山市,濮塘,,,,,,,,,,,,,,,,
2025-10-28T2100,3633A,118.4918,31.6809,马鞍山市,雨山,颗粒物(PM10),58,66,51,34,25,90,,117,115,34,34,6,7,0.6,0.5
2025-10-28T2100,4191A,118.5274,31.72227,马鞍山市,慈湖高新区,颗粒物(PM10),52,54,44,33,29,91,,112,109,34,29,4,4,0.6,0.5
2025-10-28T2100,1686A,111.0286,21.4688,茂名市,电白南海,,,68,51,,37,44,,77,64,33,14,13,9,0.4,0.3
2025-10-28T2100,1687A,110.9294,21.6533,茂名市,茂石化七小,颗粒物(PM10),53,56,47,36,32,66,,71,70,17,15,14,15,0.7,0.7
2025-10-28T2100,1688A,110.9107,21.6687,茂名市,健康路,,,53,39,41,30,,,78,78,18,14,26,20,0.7,1.1
2025-10-28T2100,1689A,110.8592,21.6828,茂名市,高岭,颗粒物(PM10),69,88,53,46,29,42,,68,62,26,17,25,10,1.0,0.9
2025-10-28T2100,3450A,111.01,21.5165,茂名市,电白水东,细颗粒物(PM2.5),55,56,40,39,31,54,,71,67,16,13,13,10,0.9,0.8
2025-10-28T2100,2539A,104.0308,30.0478,眉山市,黑龙滩水库,,,,,,,,,,,,,,,,
2025-10-28T2100,2540A,103.8416,30.0874,眉山市,气象局,细颗粒物(PM2.5),64,71,43,46,25,27,,70,61,29,18,9,8,0.7,0.5
2025-10-28T2100,3137A,103.8578,30.0744,眉山市,市委党校,颗粒物(PM10),54,58,31,31,20,34,,67,61,26,16,6,6,0.7,0.6
2025-10-28T2100,3148A,103.8291,30.0564,眉山市,区人社局,颗粒物(PM10),55,60,44,31,23,39,,71,64,25,10,8,8,1.1,0.9
2025-10-28T2100,1690A,116.1231,24.3284,梅州市,梅江月梅,,49,35,49,34,42,70,,81,76,10,17,7,7,0.7,0.7
2025-10-28T2100,1691A,116.0797,24.2719,梅州市,梅县新城,,40,32,45,28,41,68,,78,71,12,12,8,8,0.6,0.7
2025-10-28T2100,1692A,116.1248,24.2654,梅州市,环境监控中心,,40,32,46,28,40,64,,86,79,12,16,5,6,0.6,0.7
2025-10-28T2100,3315A,116.1233,24.2991,梅州市,梅龙,,36,31,45,25,32,63,,78,72,7,14,6,7,0.8,0.8
2025-10-28T2100,1878A,104.7778,31.4741,绵阳市,富乐山,,43,43,36,30,27,28,,30,28,20,13,8,8,0.6,0.6
2025-10-28T2100,1880A,104.6697,31.4668,绵阳市,高新区自来水公司,,42,,41,29,36,29,,27,27,21,24,8,8,0.6,0.6
2025-10-28T2100,1881A,104.7287,31.5075,绵阳市,三水厂,细颗粒物(PM2.5),64,49,51,46,40,18,,29,23,28,20,6,6,0.5,0.5
2025-10-28T2100,3491A,104.69,31.5322,绵阳市,西科大附属小学,,28,27,40,19,27,19,,23,21,29,26,10,10,0.7,0.6
2025-10-28T2100,3492A,104.5648,31.5343,绵阳市,安州区旅游局,,27,27,34,17,37,41,,27,27,11,22,9,9,0.7,0.7
2025-10-28T2100,4226A,104.7651,31.4531,绵阳市,绵阳市气象局,,50,39,40,35,33,14,,32,28,26,14,8,8,0.6,0.5
2025-10-28T2100,1784A,129.61,44.561,牡丹江市,环保大楼,细颗粒物(PM2.5),230,240,84,180,69,61,,61,58,36,19,8,5,0.8,0.4
2025-10-28T2100,1785A,129.6115,44.5782,牡丹江市,文化广场,细颗粒物(PM2.5),215,190,79,165,64,52,,63,61,48,21,8,6,0.9,0.4
2025-10-28T2100,1786A,129.5904,44.5963,牡丹江市,第一医院,细颗粒物(PM2.5),223,,80,173,73,23,,66,56,51,18,4,3,1.0,0.4
2025-10-28T2100,1787A,129.6364,44.6075,牡丹江市,机车工厂,细颗粒物(PM2.5),216,199,77,166,61,25,,64,51,48,20,9,7,1.0,0.4
2025-10-28T2100,1788A,129.6386,44.5462,牡丹江市,第一中学,细颗粒物(PM2.5),165,156,74,125,61,14,,61,43,51,20,4,3,0.8,0.4
2025-10-28T2100,2531A,105.0703,29.61,内江市,市监测站,颗粒物(PM10),54,57,36,37,23,47,,81,72,29,15,5,4,0.9,0.8
2025-10-28T2100,2532A,105.0717,29.5947,内江市,东兴区政府,细颗粒物(PM2.5),53,38,24,37,18,54,,75,72,23,15,10,9,0.4,0.3
2025-10-28T2100,2533A,105.0653,29.5817,内江市,内江二中,,,,29,56,26,,,77,76,23,16,5,2,0.7,0.6
2025-10-28T2100,2534A,105.0406,29.5822,内江市,内江日报社,颗粒物(PM10),51,51,29,33,21,67,,80,78,21,23,4,4,0.6,0.5
2025-10-28T2100,2628A,92.0657,31.4846,那曲市,那曲监测站,,45,,62,31,34,77,,102,96,22,28,7,11,0.6,0.9
2025-10-28T2100,4243A,92.0515,31.4787,那曲市,那曲市委宣传部,,27,18,36,10,16,86,,105,100,14,25,6,8,0.5,0.8
2025-10-28T2100,1290A,115.8931,28.6843,南昌市,省外办,细颗粒物(PM2.5),119,114,86,90,69,98,,104,102,20,18,11,7,1.2,1
2025-10-28T2100,1291A,115.8886,28.7003,南昌市,省林业公司,细颗粒物(PM2.5),125,110,79,95,68,88,,110,103,33,22,8,6,1.2,1.1
2025-10-28T2100,1292A,115.8126,28.7442,南昌市,林科所,细颗粒物(PM2.5),67,63,69,48,58,105,,119,116,23,17,8,8,0.9,0.9
2025-10-28T2100,1294A,115.8518,28.687,南昌市,建工学校,细颗粒物(PM2.5),102,142,92,76,66,107,,116,114,31,21,14,14,0.8,0.7
2025-10-28T2100,1295A,115.8921,28.6424,南昌市,象湖,细颗粒物(PM2.5),138,137,79,105,67,107,,112,110,26,20,12,10,1.0,0.8
2025-10-28T2100,1296A,115.7423,28.7996,南昌市,武术学校,,,,,,,,,,,,,,,,
2025-10-28T2100,3046A,115.9084,28.6062,南昌市,机电学校,细颗粒物(PM2.5),294,280,101,244,80,109,,117,116,38,21,14,10,1.2,0.7
2025-10-28T2100,3690A,115.9721,28.7031,南昌市,外国语学校,细颗粒物(PM2.5),198,195,98,148,76,109,,114,113,38,28,13,10,0.9,0.7
2025-10-28T2100,4192A,115.9316,28.68677,南昌市,南京东路235号,细颗粒物(PM2.5),175,279,104,132,72,98,,113,109,38,32,11,9,1.1,0.8
2025-10-28T2100,1905A,106.056,30.8064,南充市,西山风景区,,,,,,,,,,,,,,,,
2025-10-28T2100,1906A,106.0789,30.8023,南充市,南充市委,,35,33,38,24,28,37,,76,68,28,22,4,4,0.5,0.5
2025-10-28T2100,1907A,106.1031,30.8217,南充市,南充炼油厂,,43,43,50,25,32,54,,72,71,12,18,6,6,0.5,0.6
2025-10-28T2100,4227A,106.1083,30.7884,南充市,梨树横街98号,,40,40,42,22,27,52,,76,73,19,21,4,4,0.4,0.5
2025-10-28T2100,4304A,106.1172,30.843,南充市,清泉寺北路188号,,,27,32,21,24,,,86,86,10,15,7,6,0.4,0.5
2025-10-28T2100,4305A,106.067,30.7616,南充市,同庆路1号,,35,,37,24,25,51,,78,71,21,22,6,6,0.5,0.4
2025-10-28T2100,1151A,118.8086,32.1065,南京市,迈皋桥,细颗粒物(PM2.5),52,51,36,36,21,65,,110,105,21,21,3,4,0.6,0.7
2025-10-28T2100,1152A,118.7538,32.0551,南京市,草场门,颗粒物(PM10),59,68,43,36,23,74,,110,107,42,30,9,11,0.5,0.5
2025-10-28T2100,1153A,118.7794,32.0745,南京市,山西路,,,,41,,16,,,127,127,26,14,4,4,0.7,0.8
2025-10-28T2100,1154A,118.7752,32.0023,南京市,中华门,颗粒物(PM10),57,63,41,39,23,99,,135,131,33,32,4,4,0.5,0.5
2025-10-28T2100,1155A,118.8109,32.0309,南京市,瑞金路,颗粒物(PM10),56,61,40,39,22,68,,114,108,29,21,7,7,1.0,0.9
2025-10-28T2100,1156A,118.7997,32.0754,南京市,玄武湖,,50,50,37,25,16,94,,117,114,13,20,4,4,0.6,0.7
2025-10-28T2100,1157A,118.6414,32.0931,南京市,浦口,颗粒物(PM10),57,64,47,35,23,79,,105,102,37,35,8,8,0.6,0.7
2025-10-28T2100,1158A,118.7356,31.9996,南京市,奥体中心,颗粒物(PM10),57,63,46,39,24,93,,128,124,40,36,5,6,0.6,0.6
2025-10-28T2100,1159A,118.9125,32.1028,南京市,仙林大学城,,,,45,,19,93,,120,118,,22,,9,0.6,0.6
2025-10-28T2100,3422A,118.8436,31.9198,南京市,江宁彩虹桥,细颗粒物(PM2.5),55,55,42,39,22,96,,122,120,14,17,6,7,0.5,0.5
2025-10-28T2100,3427A,118.8554,32.3578,南京市,六合雄州,颗粒物(PM10),68,85,50,47,29,28,,109,89,65,30,8,7,0.8,0.6
2025-10-28T2100,4249A,118.8708,31.3402,南京市,汶溪路181号,,,62,45,39,27,,,124,124,20,24,6,7,0.6,0.6
2025-10-28T2100,4312A,119.019,31.6512,南京市,中山西路1号,细颗粒物(PM2.5),54,51,38,38,25,81,,102,100,26,20,4,4,0.7,0.6
2025-10-28T2100,1401A,108.3103,22.7881,南宁市,二十一中,,,33,32,30,26,,,88,86,17,13,5,7,0.8,0.7
2025-10-28T2100,1402A,108.3141,22.8528,南宁市,北湖,,46,46,37,32,26,71,,94,91,23,23,8,10,0.7,0.6
2025-10-28T2100,1403A,108.3206,22.8225,南宁市,市监测站,,41,41,34,27,23,69,,84,81,24,19,8,10,0.7,0.6
2025-10-28T2100,1404A,108.3829,22.8037,南宁市,大自然花园,颗粒物(PM10),52,53,36,26,23,80,,91,89,16,11,7,8,0.6,0.5
2025-10-28T2100,1405A,108.4394,22.7904,南宁市,仙葫,,,,,,,,,,,,,,,,
2025-10-28T2100,1406A,108.2397,22.8467,南宁市,区农职院,,46,32,39,32,26,66,,93,87,24,20,6,7,0.4,0.4
2025-10-28T2100,1407A,108.3275,22.735,南宁市,英华嘉园,,42,30,32,29,27,70,,92,88,14,11,3,5,0.6,0.6
2025-10-28T2100,3401A,108.4834,22.7618,南宁市,红星社区,细颗粒物(PM2.5),53,45,31,37,24,73,,97,93,16,12,7,6,0.5,0.4
2025-10-28T2100,4221A,108.2177,22.7774,南宁市,乐贤路16号,,50,50,48,31,31,65,,97,90,27,28,1,5,0.4,0.4
2025-10-28T2100,2331A,118.0966,26.6761,南平市,茫荡山,,,8,22,,,85,,94,89,,,2,2,,
2025-10-28T2100,2332A,118.1681,26.6369,南平市,南平市监测站,,43,34,28,30,20,54,,69,64,11,11,3,4,0.5,0.5
2025-10-28T2100,2333A,118.1825,26.6489,南平市,南平铝业有限公司,,39,30,29,27,20,59,,68,66,10,12,2,3,0.6,0.6
2025-10-28T2100,2334A,118.1756,26.6272,南平市,南平七中,,42,33,28,29,20,48,,70,64,12,10,7,7,0.6,0.6
2025-10-28T2100,1168A,120.9098,31.9663,南通市,狼山街道,,45,39,23,31,13,49,,110,94,29,20,3,4,0.6,0.5
2025-10-28T2100,1169A,120.86,32.0005,南通市,虹桥,,43,36,21,30,12,69,,109,96,23,15,4,4,0.4,0.7
2025-10-28T2100,1170A,120.87,32.02,南通市,城中,,40,40,29,24,12,66,,98,88,24,21,4,5,0.6,0.6
2025-10-28T2100,1171A,120.94,31.93,南通市,星湖花园,,48,46,27,33,13,46,,104,88,33,17,5,4,0.6,0.5
2025-10-28T2100,1172A,120.81,32.0417,南通市,紫琅学院,,31,31,29,16,10,68,,101,89,26,22,4,4,0.5,0.5
2025-10-28T2100,3291A,121.067,32.062,南通市,通州监测站,,39,34,15,27,10,74,,110,99,22,14,2,3,0.4,0.4
2025-10-28T2100,3432A,120.9348,31.9883,南通市,环境教育馆,细颗粒物(PM2.5),58,48,30,41,16,17,,112,86,65,34,4,4,0.5,0.4
2025-10-28T2100,2404A,112.5224,33.0122,南阳市,瓦房庄,细颗粒物(PM2.5),100,131,94,75,64,4,,92,81,68,31,8,8,1.3,1
2025-10-28T2100,2405A,112.5003,32.9735,南阳市,汉画馆,细颗粒物(PM2.5),88,100,75,65,52,21,,86,77,46,33,8,8,1.1,0.9
2025-10-28T2100,2406A,112.5573,33.027,南阳市,气象站,"颗粒物(PM10),细颗粒物(PM2.5)",89,128,97,66,59,20,,100,90,69,38,8,10,1.1,0.8
2025-10-28T2100,2407A,112.5481,32.9689,南阳市,理工学院,细颗粒物(PM2.5),94,130,91,70,52,39,,96,89,58,37,9,9,1.0,0.8
2025-10-28T2100,4008A,112.5234,32.9922,南阳市,卧龙区政府,细颗粒物(PM2.5),99,119,99,74,53,18,,88,78,65,34,8,9,1.4,1.2
2025-10-28T2100,1234A,121.8358,29.911,宁波市,区环保大楼,颗粒物(PM10),56,62,19,18,12,30,,92,83,60,18,5,6,0.4,0.3
2025-10-28T2100,1235A,121.56,29.82,宁波市,万里学院,,40,40,24,24,9,41,,100,90,62,22,7,8,0.4,0.3
2025-10-28T2100,1236A,121.713,29.9572,宁波市,龙赛医院,,25,25,18,3,4,73,,100,94,30,17,5,4,0.4,0.4
2025-10-28T2100,1239A,121.633,29.7733,宁波市,钱湖水厂,,23,22,18,9,8,73,,90,84,14,19,6,7,0.5,0.5
2025-10-28T2100,1240A,121.5856,29.8635,宁波市,太古小学,,38,38,21,17,9,62,,98,91,37,20,4,4,0.5,0.5
2025-10-28T2100,1241A,121.524,29.8674,宁波市,市环境监测中心,,43,43,25,12,9,37,,94,84,48,21,7,7,0.6,0.4
2025-10-28T2100,2871A,121.6147,29.9017,宁波市,万里国际学校,,45,45,23,26,8,32,,100,83,65,20,6,5,0.4,0.3
2025-10-28T2100,3710A,121.5594,29.8975,宁波市,白沙活动中心,,40,40,24,19,9,23,,100,82,64,20,5,6,0.6,0.4
2025-10-28T2100,2339A,119.5001,26.6946,宁德市,金涵水库,,11,7,21,6,17,35,,50,35,5,10,2,3,0.4,0.5
2025-10-28T2100,2341A,119.5388,26.6612,宁德市,宁德市监测站,,22,,24,13,22,68,,69,57,10,17,5,6,0.5,0.7
2025-10-28T2100,3209A,119.5231,26.6562,宁德市,宁德一中,,20,15,25,12,19,61,,79,64,9,12,5,6,0.4,0.5
2025-10-28T2100,2618A,98.8601,25.8567,怒江傈僳族自治州,州监测站,,50,49,28,35,20,34,,61,57,15,9,7,6,0.5,0.4
2025-10-28T2100,2619A,98.8546,25.8417,怒江傈僳族自治州,泸水一中,,39,,23,27,18,15,,45,37,23,15,6,6,0.8,0.6
2025-10-28T2100,1888A,101.6891,26.571,攀枝花市,弄弄坪,颗粒物(PM10),55,59,39,34,24,12,,80,72,48,22,4,13,0.9,1
2025-10-28T2100,1889A,101.5769,26.5928,攀枝花市,河门口,,50,50,40,32,24,53,,88,84,17,16,24,19,1.1,1.2
2025-10-28T2100,1890A,101.7169,26.585,攀枝花市,炳草岗,颗粒物(PM10),61,72,49,33,29,4,,85,74,70,31,11,19,1.1,1.2
2025-10-28T2100,1891A,101.7369,26.5008,攀枝花市,仁和,"颗粒物(PM10),细颗粒物(PM2.5)",54,58,36,38,24,15,,54,47,19,16,7,11,0.7,0.9
2025-10-28T2100,2835A,101.7227,26.567,攀枝花市,四十中小,,,56,43,33,26,,,80,78,50,28,15,28,1.2,1.3
2025-10-28T2100,1604A,122.0303,41.1489,盘锦市,开发区,颗粒物(PM10),74,97,63,51,40,30,,48,39,35,38,5,4,1.0,1.1
2025-10-28T2100,1605A,122.0485,41.0883,盘锦市,兴隆台,颗粒物(PM10),75,100,59,44,30,18,,50,33,49,42,9,9,0.6,0.6
2025-10-28T2100,1606A,121.8297,41.1028,盘锦市,新生街道,细颗粒物(PM2.5),72,82,43,52,22,3,,51,35,73,43,12,11,0.8,0.7
2025-10-28T2100,1832A,113.3257,33.742,平顶山市,新华旅馆,颗粒物(PM10),86,121,99,39,39,20,,95,87,55,33,7,8,0.7,0.9
2025-10-28T2100,1833A,113.2919,33.737,平顶山市,规划设计院,细颗粒物(PM2.5),99,121,97,74,64,8,,92,79,69,35,4,4,2.3,0.9
2025-10-28T2100,1834A,113.182,33.774,平顶山市,平顶山工学院,颗粒物(PM10),65,80,78,44,58,92,,100,100,20,24,6,6,0.6,0.8
2025-10-28T2100,3204A,113.3025,33.73,平顶山市,规划局,颗粒物(PM10),79,107,98,54,65,54,,98,94,40,32,7,7,0.9,0.9
2025-10-28T2100,3594A,112.8867,33.9116,平顶山市,石龙区,细颗粒物(PM2.5),133,135,101,101,74,38,,80,75,53,25,7,6,0.9,0.9
2025-10-28T2100,2656A,106.6692,35.5461,平凉市,聚贤嘉苑,颗粒物(PM10),51,52,40,30,23,30,,70,61,32,28,10,13,0.8,0.6
2025-10-28T2100,2657A,106.7021,35.5307,平凉市,博物馆,颗粒物(PM10),68,85,54,48,28,19,,68,57,35,23,9,10,1.1,0.7
2025-10-28T2100,2347A,114.0997,27.5002,萍乡市,武功山,,,,,,,,,,,,,,,,
2025-10-28T2100,2348A,113.8385,27.6434,萍乡市,中医院,细颗粒物(PM2.5),70,71,57,51,36,78,,116,107,33,31,6,6,0.9,0.8
2025-10-28T2100,2349A,113.8493,27.6253,萍乡市,市政府车库,细颗粒物(PM2.5),72,81,57,52,43,78,,108,105,28,27,7,11,0.7,0.7
2025-10-28T2100,2350A,113.8676,27.6435,萍乡市,市环保局,细颗粒物(PM2.5),74,68,54,54,40,89,,120,114,24,23,6,6,0.6,0.6
2025-10-28T2100,2351A,113.866,27.6198,萍乡市,安源区政府,细颗粒物(PM2.5),85,69,53,63,47,76,,114,108,34,22,13,9,1.1,0.7
2025-10-28T2100,2319A,119.0141,25.4325,莆田市,荔城区仓后路,,26,18,24,18,11,82,,100,80,11,11,5,5,0.6,0.7
2025-10-28T2100,2320A,119.0015,25.4553,莆田市,莆田市监测站,,28,21,20,3,9,88,,106,88,9,9,5,5,0.4,0.6
2025-10-28T2100,2321A,119.1119,25.4561,莆田市,涵江区六中,,29,14,20,3,9,92,,100,94,7,9,5,6,0.5,0.6
2025-10-28T2100,2322A,119.1013,25.3215,莆田市,秀屿区政府,,28,18,24,6,11,88,,98,87,10,12,5,5,0.6,0.7
2025-10-28T2100,2323A,118.981,25.4792,莆田市,东圳水库,,32,10,10,3,12,102,,117,100,3,4,6,6,0.5,0.5
2025-10-28T2100,2392A,115.0312,35.7636,濮阳市,环保局,细颗粒物(PM2.5),129,118,68,98,78,,,56,50,66,31,8,7,1.2,0.8
2025-10-28T2100,2394A,115.0574,35.7609,濮阳市,油田运输公司,细颗粒物(PM2.5),135,143,122,103,80,10,,68,54,66,34,9,8,1.3,1.1
2025-10-28T2100,3021A,115,35.7668,濮阳市,濮水河管理处,颗粒物(PM10),85,119,99,49,42,4,,49,38,30,26,9,9,0.8,0.8
2025-10-28T2100,4216A,115.0924,35.7686,濮阳市,任丘路479号,细颗粒物(PM2.5),120,134,109,91,72,4,,66,52,69,32,7,7,1.4,1.2
2025-10-28T2100,2601A,100.98,22.7633,普洱市,市环保局,,50,48,28,35,20,34,,55,51,11,6,5,4,0.5,0.5
2025-10-28T2100,2602A,100.9817,22.8322,普洱市,普洱第二中学,,42,42,30,29,14,34,,62,54,8,8,4,4,0.3,0.3
2025-10-28T2100,2262A,131.0518,45.8751,七台河市,新一中,,,,,,,,,,,,,,,,
2025-10-28T2100,3345A,131.0577,45.7879,七台河市,中波台,细颗粒物(PM2.5),63,53,40,45,24,39,,49,46,19,10,6,6,0.8,0.6
2025-10-28T2100,3637A,131.0176,45.7761,七台河市,人民广场,细颗粒物(PM2.5),80,66,49,59,28,48,,59,54,22,13,8,7,0.7,0.6
2025-10-28T2100,3684A,130.8781,45.8222,七台河市,新建矿广场,,,68,41,49,32,47,,52,51,10,8,7,6,,0.4
2025-10-28T2100,1779A,123.9305,47.3636,齐齐哈尔市,安居小区,颗粒物(PM10),56,61,43,36,16,35,,56,46,31,15,4,4,0.7,0.4
2025-10-28T2100,1780A,123.9488,47.3386,齐齐哈尔市,中心广场,颗粒物(PM10),52,54,28,27,13,44,,54,47,21,15,7,7,0.5,0.4
2025-10-28T2100,1781A,123.9483,47.3227,齐齐哈尔市,农牧车辆厂,,46,41,33,32,12,42,,54,48,21,13,5,3,0.6,0.5
2025-10-28T2100,1783A,123.945,47.2988,齐齐哈尔市,市环境监测站,,38,38,34,7,16,53,,58,57,12,11,6,6,0.4,0.4
2025-10-28T2100,3662A,123.6333,47.2075,齐齐哈尔市,富区青少年活动中心,颗粒物(PM10),57,64,38,39,21,38,,56,50,25,14,6,9,0.4,0.5
2025-10-28T2100,2591A,107.9783,26.5747,黔东南苗族侗族自治州,市环境监测站,细颗粒物(PM2.5),58,50,24,41,22,13,,85,68,44,13,4,4,0.7,0.5
2025-10-28T2100,2881A,107.8908,26.5311,黔东南苗族侗族自治州,凯里学院,,48,,19,33,18,38,,76,71,23,14,3,3,0.8,0.7
2025-10-28T2100,2593A,107.5228,26.2403,黔南布依族苗族自治州,小围寨,,36,36,17,24,13,43,,75,70,12,5,7,6,0.5,0.4
2025-10-28T2100,3538A,107.5175,26.2978,黔南布依族苗族自治州,沙坝,细颗粒物(PM2.5),58,46,27,41,22,22,,68,60,28,9,5,5,0.7,0.5
2025-10-28T2100,2589A,104.9022,25.0925,黔西南布依族苗族自治州,场坝街,,49,43,38,34,27,40,,58,54,11,12,2,14,0.6,0.6
2025-10-28T2100,2590A,104.8811,25.0992,黔西南布依族苗族自治州,坪东大道,细颗粒物(PM2.5),59,57,35,42,28,18,,54,47,23,13,2,4,1.0,0.7
2025-10-28T2100,2502A,108.6236,21.9667,钦州市,市环保站,颗粒物(PM10),74,97,53,44,25,67,,91,89,30,18,6,5,0.9,0.7
2025-10-28T2100,2503A,108.6549,21.9481,钦州市,沙埠小学,颗粒物(PM10),62,73,52,41,33,90,,102,102,20,13,9,8,0.6,0.6
2025-10-28T2100,2504A,108.5989,21.7431,钦州市,港区一小,颗粒物(PM10),55,59,57,32,30,78,,88,85,37,31,7,6,0.7,0.7
2025-10-28T2100,3404A,108.5959,21.9633,钦州市,北职校,颗粒物(PM10),61,72,48,30,30,70,,94,90,18,12,6,7,0.8,1
2025-10-28T2100,1043A,119.7493,40.0116,秦皇岛市,第一关,,45,40,31,31,22,5,,65,40,78,36,7,7,0.4,0.3
2025-10-28T2100,1044A,119.5897,39.9499,秦皇岛市,监测站,,,86,49,38,18,,,59,48,79,34,8,7,0.8,0.4
2025-10-28T2100,1046A,119.5251,39.9041,秦皇岛市,建设大厦,细颗粒物(PM2.5),109,140,44,82,25,6,,66,47,74,38,7,5,1.1,0.4
2025-10-28T2100,3132A,119.610547,39.943889,秦皇岛市,文明里,颗粒物(PM10),64,77,39,27,14,1,,60,45,81,32,9,9,0.8,0.4
2025-10-28T2100,4198A,119.5090,39.8253,秦皇岛市,北戴河轮滑馆,颗粒物(PM10),53,56,34,27,11,30,,62,57,38,24,3,4,0.6,0.4
2025-10-28T2100,1307A,120.6659,36.2403,青岛市,仰口,,,,,,,,,,,,,,,,
2025-10-28T2100,1310A,120.4134,36.0658,青岛市,市南区东部子站,,44,44,38,24,18,124,,123,123,2,18,7,9,0.3,0.5
2025-10-28T2100,1311A,120.3664,36.1032,青岛市,四方区子站,,42,34,39,29,26,120,,119,119,6,31,3,5,0.2,0.4
2025-10-28T2100,1312A,120.2994,36.054,青岛市,市南区西部子站,,41,41,43,15,18,120,,119,119,13,37,7,11,0.4,0.6
2025-10-28T2100,1313A,120.4581,36.0858,青岛市,崂山区子站,,41,41,35,14,14,130,,128,128,7,22,8,10,0.3,0.5
2025-10-28T2100,1315A,120.3999,36.3083,青岛市,城阳区子站,颗粒物(PM10),56,61,54,27,24,80,,114,106,42,34,5,5,0.5,0.6
2025-10-28T2100,3362A,120.5014,36.4034,青岛市,即墨2号,颗粒物(PM10),56,62,58,28,30,93,,105,102,26,28,4,6,0.4,0.4
2025-10-28T2100,3642A,120.3503,36.0736,青岛市,市北区南部,,40,40,42,19,16,120,,117,117,11,27,3,5,0.2,0.4
2025-10-28T2100,3643A,120.3948,36.1805,青岛市,李沧区北部,颗粒物(PM10),56,61,48,29,27,80,,106,103,42,28,6,8,0.4,0.5
2025-10-28T2100,4290A,120.1969,35.9546,青岛市,珠江路669号,,43,29,36,24,22,137,,136,136,6,20,9,13,0.3,0.6
2025-10-28T2100,4291A,120.0424,35.8656,青岛市,黄岛区人民政府广场,,40,36,46,22,20,126,,122,122,10,31,6,8,0.6,0.9
2025-10-28T2100,1702A,113.0426,23.691,清远市,环保大楼,,,,,,,,,,,,,,,,
2025-10-28T2100,1703A,113.0208,23.7106,清远市,凤城街办,细颗粒物(PM2.5),53,52,38,37,30,78,,97,95,20,13,10,8,0.8,0.7
2025-10-28T2100,3025A,113.0477,23.6344,清远市,技师学院,细颗粒物(PM2.5),57,57,45,40,32,75,,103,99,23,18,9,6,0.9,0.7
2025-10-28T2100,3318A,112.9903,23.7403,清远市,清新太和,,45,41,37,31,27,99,,106,106,12,12,8,5,0.6,0.6
2025-10-28T2100,3455A,113.076,23.7198,清远市,清城东城,细颗粒物(PM2.5),54,56,42,38,30,82,,104,102,18,14,11,7,0.9,0.8
2025-10-28T2100,2661A,107.6325,35.7357,庆阳市,庆阳五中,细颗粒物(PM2.5),87,89,60,64,40,14,,52,45,51,26,1,2,1.3,0.8
2025-10-28T2100,2662A,107.6364,35.7067,庆阳市,市环保局,,,48,39,35,35,,,66,66,27,21,3,4,0.8,0.7
