timepoint,stationcode,longitude,latitude,area,positionname,primarypollutant,aqi,pm10,pm10_24h,pm2_5,pm2_5_24h,o3,o3_24h,o3_8h,o3_8h_24h,no2,no2_24h,so2,so2_24h,co,co_24h
2023-05-10T07:00:00,1001A,116.3621,39.8784,北京市,万寿西宫,,50,50,56,17,21,150,4,38,14,66,39,1,2,0.6,0.5
2023-05-10T07:00:00,1002A,116.2202,40.2915,北京市,定陵,,50,50,84,15,22,163,37,72,49,14,15,2,3,0.4,0.5
2023-05-10T07:00:00,1003A,116.4174,39.9289,北京市,东四,颗粒物(PM10),51,52,62,13,22,171,13,57,18,64,39,3,4,0.5,0.4
2023-05-10T07:00:00,1004A,116.4072,39.8863,北京市,天坛,,49,49,49,13,18,161,5,49,15,54,35,3,3,0.5,0.5
2023-05-10T07:00:00,1005A,116.462,39.9365,北京市,农展馆,,44,44,59,11,21,156,5,38,7,62,41,1,4,0.4,0.4
2023-05-10T07:00:00,1006A,116.3392,39.9295,北京市,官园,,43,43,54,14,24,148,7,44,17,66,37,3,4,0.6,0.4
2023-05-10T07:00:00,1007A,116.2878,39.9611,北京市,海淀万柳,颗粒物(PM10),51,51,60,13,24,130,15,51,24,57,37,2,3,0.4,0.4
2023-05-10T07:00:00,1008A,116.6636,40.135,北京市,顺义新城,颗粒物(PM10),55,59,50,11,23,180,18,33,26,46,28,1,4,0.3,0.4
2023-05-10T07:00:00,1009A,116.6275,40.3275,北京市,怀柔镇,,37,37,53,10,20,180,44,46,44,19,25,1,3,0,0.4
2023-05-10T07:00:00,1010A,116.2296,40.217,北京市,昌平镇,,,,,,,,,,,,,,,,
2023-05-10T07:00:00,1011A,116.3966,39.9821,北京市,奥体中心,,36,36,50,11,24,145,7,56,13,67,40,1,2,0.5,0.4
2023-05-10T07:00:00,1012A,116.184,39.9136,北京市,古城,颗粒物(PM10),53,56,62,14,23,155,19,43,19,56,37,2,3,0.5,0.4
2023-05-10T07:00:00,1015A,117.1444,39.1661,天津市,勤俭道,颗粒物(PM10),68,86,44,39,18,138,44,56,54,49,27,15,11,0.6,0.4
2023-05-10T07:00:00,1017A,117.237,39.1082,天津市,大直沽八号路,颗粒物(PM10),77,103,49,48,19,132,52,52,52,47,29,14,11,0.4,0.4
2023-05-10T07:00:00,1018A,117.202,39.0927,天津市,前进道,颗粒物(PM10),67,83,41,40,19,137,27,48,42,69,35,10,8,0.4,0.2
2023-05-10T07:00:00,1019A,117.1837,39.2133,天津市,淮河道,颗粒物(PM10),65,80,46,38,20,150,44,67,59,56,30,10,8,0.5,0.4
2023-05-10T07:00:00,1021A,117.307,39.0877,天津市,跃进路,颗粒物(PM10),76,101,51,36,19,133,46,45,45,47,32,11,9,0.7,0.5
2023-05-10T07:00:00,1023A,117.707,39.0343,天津市,第四大街,颗粒物(PM10),55,60,35,23,13,75,20,58,35,73,50,12,8,1.3,0.6
2023-05-10T07:00:00,1024A,117.457,38.8394,天津市,永明路,,48,48,32,21,15,120,7,30,22,69,38,11,10,0.5,0.4
2023-05-10T07:00:00,1026A,117.764,39.1587,天津市,汉北路,颗粒物(PM10),51,52,36,15,13,92,3,24,12,69,42,11,11,0.7,0.4
2023-05-10T07:00:00,1027A,117.157,38.9194,天津市,团泊洼,颗粒物(PM10),86,122,52,58,17,161,38,46,41,51,39,8,6,0.6,0.4
2023-05-10T07:00:00,1029A,114.4422,38.0444,石家庄市,职工医院,颗粒物(PM10),69,87,77,33,34,162,12,30,8,77,45,9,11,0.7,0.6
2023-05-10T07:00:00,1030A,114.6063,38.0266,石家庄市,高新区,颗粒物(PM10),62,73,56,34,33,152,36,55,34,54,29,7,13,0.4,0.5
2023-05-10T07:00:00,1031A,114.4898,38.1328,石家庄市,西北水源,颗粒物(PM10),75,99,66,19,26,166,8,59,13,78,42,6,9,0.6,0.6
2023-05-10T07:00:00,1032A,114.4586,38.0058,石家庄市,西南高教,颗粒物(PM10),63,75,72,38,36,159,32,38,13,62,49,9,14,0.6,0.6
2023-05-10T07:00:00,1033A,114.5331,38.0178,石家庄市,世纪公园,颗粒物(PM10),51,51,55,27,27,151,22,42,22,63,37,7,9,0.5,0.6
2023-05-10T07:00:00,1034A,114.509,38.0457,石家庄市,人民会堂,颗粒物(PM10),67,84,61,22,23,159,21,80,31,77,36,8,11,0.7,0.6
2023-05-10T07:00:00,1035A,114.3524,37.8911,石家庄市,封龙山,,42,41,46,24,27,147,132,142,138,9,10,7,11,0.5,0.6
2023-05-10T07:00:00,1037A,118.131,39.6363,唐山市,雷达站,颗粒物(PM10),62,74,52,30,16,142,7,4,3,64,39,6,6,1.0,0.7
2023-05-10T07:00:00,1038A,118.1725,39.6334,唐山市,物资局,颗粒物(PM10),65,80,62,32,25,140,2,19,5,76,42,8,8,1.1,0.8
2023-05-10T07:00:00,1040A,118.1705,39.6506,唐山市,十二中,颗粒物(PM10),63,76,55,38,27,134,6,8,3,66,38,8,6,1.1,0.7
2023-05-10T07:00:00,1041A,118.1869,39.622,唐山市,小山,颗粒物(PM10),83,115,64,32,19,144,0,46,7,85,43,10,8,1.1,0.7
2023-05-10T07:00:00,1042A,119.5134,39.8207,秦皇岛市,北戴河环保局,,45,45,25,16,9,111,57,76,67,28,14,15,7,1.5,0.7
2023-05-10T07:00:00,1043A,119.7493,40.0116,秦皇岛市,第一关,颗粒物(PM10),54,57,32,15,16,111,11,3,3,66,44,4,3,0.6,0.3
2023-05-10T07:00:00,1044A,119.5897,39.9499,秦皇岛市,监测站,颗粒物(PM10),59,67,41,29,16,104,14,9,6,57,28,20,8,0.7,0.3
2023-05-10T07:00:00,1046A,119.5251,39.9041,秦皇岛市,建设大厦,颗粒物(PM10),55,60,43,13,9,113,20,4,4,50,26,18,10,0.7,0.3
2023-05-10T07:00:00,1048A,114.5302,36.6116,邯郸市,东污水处理厂,颗粒物(PM10),66,82,60,33,19,141,23,15,15,77,37,9,7,0.5,0.5
2023-05-10T07:00:00,1049A,114.4918,36.5713,邯郸市,矿院,颗粒物(PM10),67,83,49,46,26,142,14,34,17,78,39,30,9,0.7,0.5
2023-05-10T07:00:00,1050A,114.484,36.6133,邯郸市,丛台公园,颗粒物(PM10),60,70,48,42,26,140,32,64,32,59,28,14,8,0.6,0.4
2023-05-10T07:00:00,1051A,115.493,38.8632,保定市,游泳馆,细颗粒物(PM2.5),95,123,65,71,39,172,10,90,52,78,25,14,14,0.3,0.3
2023-05-10T07:00:00,1052A,115.5213,38.8959,保定市,华电二区,颗粒物(PM10),79,108,66,52,30,158,16,86,56,72,21,6,11,0.5,0.5
2023-05-10T07:00:00,1053A,115.4713,38.9108,保定市,接待中心,颗粒物(PM10),70,89,70,44,28,163,43,84,63,45,17,11,14,0.5,0.5
2023-05-10T07:00:00,1054A,115.4612,38.8416,保定市,地表水厂,颗粒物(PM10),83,115,100,46,32,158,15,40,26,84,41,14,17,0.4,0.4
2023-05-10T07:00:00,1056A,115.5086,38.8639,保定市,监测站,细颗粒物(PM2.5),78,101,73,57,39,167,18,90,53,69,25,11,14,0.4,0.4
2023-05-10T07:00:00,1057A,114.8883,40.8336,张家口市,人民公园,,44,44,54,9,14,178,80,127,98,10,11,3,4,0.4,0.4
2023-05-10T07:00:00,1059A,114.8687,40.8042,张家口市,五金库,,47,47,52,15,22,171,76,129,104,27,19,2,3,0.4,0.3
2023-05-10T07:00:00,1060A,114.8902,40.762,张家口市,世纪豪园,,46,46,56,21,28,178,85,130,109,17,16,3,5,0.3,0.3
2023-05-10T07:00:00,1061A,114.8916,40.8661,张家口市,北泵房,,32,32,44,17,20,189,83,102,92,12,11,8,10,0.4,0.4
2023-05-10T07:00:00,1062A,117.9531,40.9081,承德市,铁路,,45,45,49,30,24,173,58,104,81,29,20,8,11,0.5,0.5
2023-05-10T07:00:00,1063A,117.9392,40.9763,承德市,中国银行,颗粒物(PM10),56,62,58,34,29,184,49,83,65,29,17,6,9,0.5,0.5
2023-05-10T07:00:00,1064A,117.9503,40.928,承德市,开发区,颗粒物(PM10),52,53,52,27,23,182,48,102,77,44,23,6,8,0.6,0.5
2023-05-10T07:00:00,1065A,117.8051,40.9655,承德市,文化中心,颗粒物(PM10),67,83,57,32,26,179,49,86,64,48,19,6,15,0.5,0.5
2023-05-10T07:00:00,1066A,117.9268,41.0026,承德市,离宫,颗粒物(PM10),60,70,44,34,27,181,61,89,72,22,14,4,6,0.4,0.4
2023-05-10T07:00:00,1067A,116.6708,39.5111,廊坊市,药材公司,颗粒物(PM10),63,76,60,35,25,191,12,46,33,61,29,7,8,0.6,0.4
2023-05-10T07:00:00,1068A,116.7214,39.5589,廊坊市,开发区,,34,34,52,18,27,176,7,67,28,53,33,7,10,0.6,0.5
2023-05-10T07:00:00,1070A,116.7244,39.5269,廊坊市,北华航天学院,颗粒物(PM10),60,69,67,26,28,180,6,57,33,69,33,10,11,0.5,0.5
2023-05-10T07:00:00,1071A,116.8842,38.2991,沧州市,沧县城建局,颗粒物(PM10),54,58,47,29,21,167,42,69,56,45,28,12,7,0.4,0.2
2023-05-10T07:00:00,1072A,116.8584,38.3254,沧州市,电视转播站,,49,49,51,29,21,168,41,66,58,34,28,12,10,0.3,0.3
2023-05-10T07:00:00,1073A,116.8709,38.3228,沧州市,市环保局,细颗粒物(PM2.5),62,58,48,44,22,175,48,67,59,49,32,12,9,0.5,0.3
2023-05-10T07:00:00,1074A,115.6838,37.7541,衡水市,电机北厂,颗粒物(PM10),63,75,58,28,23,166,52,89,53,48,24,3,5,0.4,0.2
2023-05-10T07:00:00,1075A,115.6303,37.7316,衡水市,市监测站,颗粒物(PM10),57,63,62,38,22,168,47,67,41,58,33,7,9,0.6,0.4
2023-05-10T07:00:00,1077A,114.4704,37.0886,邢台市,达活泉,颗粒物(PM10),56,61,52,19,18,148,30,82,46,50,28,11,16,0.6,0.7
2023-05-10T07:00:00,1078A,114.5062,37.0349,邢台市,邢师高专,颗粒物(PM10),56,62,57,21,23,143,5,24,9,53,38,6,8,0.6,0.7
2023-05-10T07:00:00,1079A,114.5237,37.0851,邢台市,路桥公司,颗粒物(PM10),55,60,56,22,27,148,7,68,33,58,31,6,11,0.6,0.8
2023-05-10T07:00:00,1080A,114.4725,37.0719,邢台市,市环保局,颗粒物(PM10),53,55,51,27,25,154,28,71,43,51,25,10,14,0.6,0.9
2023-05-10T07:00:00,1081A,112.522,37.8873,太原市,尖草坪,颗粒物(PM10),60,69,75,25,32,149,24,74,39,64,42,15,15,0.6,0.8
2023-05-10T07:00:00,1083A,112.434,38.0108,太原市,上兰,,36,36,51,18,23,126,71,100,83,8,15,9,11,0.6,0.8
2023-05-10T07:00:00,1084A,112.469,37.7124,太原市,晋源,颗粒物(PM10),58,65,66,31,32,156,9,44,35,63,39,6,9,0.5,0.6
2023-05-10T07:00:00,1085A,112.5583,37.7394,太原市,小店,细颗粒物(PM2.5),78,100,82,57,39,158,20,51,38,65,40,18,11,0.7,0.6
2023-05-10T07:00:00,1086A,112.5369,37.8692,太原市,桃园,"颗粒物(PM10),细颗粒物(PM2.5)",75,100,80,55,40,155,38,46,41,48,41,16,13,0.7,0.7
2023-05-10T07:00:00,1087A,112.57,37.8195,太原市,坞城,细颗粒物(PM2.5),77,101,86,56,41,158,41,36,36,49,45,19,14,0.7,0.7
2023-05-10T07:00:00,1088A,112.549,37.9854,太原市,南寨,,,59,67,27,30,126,10,30,13,46,44,4,10,,0.8
2023-05-10T07:00:00,1090A,111.6507,40.7517,呼和浩特市,呼市一监,细颗粒物(PM2.5),68,51,63,49,42,157,43,78,63,33,21,5,9,0.7,0.6
2023-05-10T07:00:00,1091A,111.6572,40.8033,呼和浩特市,小召,细颗粒物(PM2.5),70,39,68,51,39,149,65,83,77,24,25,8,11,0.6,0.5
2023-05-10T07:00:00,1094A,111.7516,40.8369,呼和浩特市,如意水处理厂,细颗粒物(PM2.5),73,75,74,53,35,150,52,89,70,26,20,6,9,0.5,0.5
2023-05-10T07:00:00,1095A,111.7276,40.8062,呼和浩特市,二十九中,细颗粒物(PM2.5),73,66,74,53,41,153,60,89,74,34,27,7,9,0.6,0.5
2023-05-10T07:00:00,1096A,111.5512,40.7866,呼和浩特市,工大金川校区,细颗粒物(PM2.5),77,68,77,56,39,147,40,76,61,34,27,5,9,0.6,0.6
2023-05-10T07:00:00,1097A,111.717,40.7612,呼和浩特市,化肥厂生活区,颗粒物(PM10),59,67,93,40,35,145,64,76,68,27,31,8,10,0.5,0.5
2023-05-10T07:00:00,1098A,123.6836,41.9339,沈阳市,森林路,,,,,,,,,,,,,,,,
2023-05-10T07:00:00,1099A,123.505,41.7406,沈阳市,浑南东路,颗粒物(PM10),70,89,49,36,16,99,8,17,9,55,38,46,28,1.3,0.6
2023-05-10T07:00:00,1100A,123.4231,41.6989,沈阳市,新秀街,颗粒物(PM10),85,120,61,40,14,104,22,20,20,63,35,37,27,1.9,0.7
2023-05-10T07:00:00,1102A,123.5903,41.8411,沈阳市,东陵路,颗粒物(PM10),57,64,57,30,14,100,16,7,7,46,35,27,25,1.3,0.6
2023-05-10T07:00:00,1103A,123.4264,41.8467,沈阳市,陵东街,颗粒物(PM10),74,97,46,51,16,104,40,53,46,42,32,25,12,1.8,0.7
2023-05-10T07:00:00,1104A,123.4114,41.7653,沈阳市,文化路,颗粒物(PM10),98,145,57,72,20,102,43,27,27,47,37,38,14,2.2,0.6
2023-05-10T07:00:00,1105A,123.4678,41.7867,沈阳市,小河沿,颗粒物(PM10),76,101,45,53,18,98,45,36,31,50,38,33,18,1.8,0.6
2023-05-10T07:00:00,1106A,123.4017,41.7972,沈阳市,太原街,颗粒物(PM10),88,126,51,62,17,97,38,34,34,50,38,32,17,1.7,0.6
2023-05-10T07:00:00,1108A,123.3783,41.9228,沈阳市,京沈街,,,103,51,52,17,102,35,42,37,52,30,,8,1.6,0.6
2023-05-10T07:00:00,1109A,121.612,38.9741,大连市,甘井子,,39,39,40,21,16,112,58,78,73,42,29,5,6,0.2,0.3
2023-05-10T07:00:00,1110A,121.565,38.9511,大连市,周水子,颗粒物(PM10),52,53,46,26,16,118,11,43,35,92,46,11,7,0.8,0.6
2023-05-10T07:00:00,1111A,121.5637,38.8845,大连市,星海三站,,40,40,41,13,15,134,55,64,53,37,27,6,5,0.5,0.6
2023-05-10T07:00:00,1112A,121.6302,38.9117,大连市,青泥洼桥,,49,49,43,17,17,114,22,54,50,50,37,6,8,0.6,0.5
2023-05-10T07:00:00,1113A,121.6251,38.8638,大连市,傅家庄,,30,30,41,9,15,137,88,80,80,11,24,10,11,0.6,0.6
2023-05-10T07:00:00,1114A,121.5213,38.8661,大连市,七贤岭,,28,28,39,14,13,136,55,74,66,25,15,6,8,0.5,0.4
2023-05-10T07:00:00,1115A,121.2529,38.8061,大连市,旅顺,,39,36,36,27,14,123,44,74,70,36,18,10,9,0.6,0.5
2023-05-10T07:00:00,1116A,121.7485,39.1311,大连市,金州,,35,35,33,19,15,123,64,70,67,24,20,9,8,0.5,0.5
2023-05-10T07:00:00,1117A,121.7811,39.0496,大连市,开发区,,48,48,58,24,18,100,46,77,57,46,30,17,9,0.6,0.5
2023-05-10T07:00:00,1118A,121.9762,39.0631,大连市,双D港,,22,22,37,10,14,146,58,91,80,22,19,6,9,0.6,0.7
2023-05-10T07:00:00,1119A,125.3325,43.9166,长春市,食品厂,颗粒物(PM10),53,55,38,17,12,88,29,72,48,44,27,10,7,0.4,0.3
2023-05-10T07:00:00,1120A,125.2863,43.9027,长春市,客车厂,,42,42,36,21,11,85,37,76,56,42,27,8,5,0.4,0.3
2023-05-10T07:00:00,1121A,125.2841,43.8463,长春市,邮电学院,,37,37,30,18,13,90,40,67,53,30,17,8,6,0.4,0.3
2023-05-10T07:00:00,1122A,125.3716,43.8772,长春市,劳动公园,颗粒物(PM10),62,73,34,17,12,95,32,67,50,40,20,10,6,0.5,0.4
2023-05-10T07:00:00,1123A,125.3297,43.8805,长春市,园林处,,44,44,34,14,12,87,39,71,55,40,21,5,3,0.4,0.3
2023-05-10T07:00:00,1124A,125.4605,43.79,长春市,净月潭,,22,17,23,6,6,94,68,83,75,10,6,6,4,0.3,0.2
2023-05-10T07:00:00,1125A,125.7194,43.515,长春市,甩湾子,,22,22,26,12,11,107,54,65,63,15,10,5,4,0.3,0.2
2023-05-10T07:00:00,1126A,125.3863,43.8447,长春市,经开区环卫处,,44,44,31,17,17,94,22,66,42,49,23,10,6,0.5,0.3
2023-05-10T07:00:00,1127A,125.245,43.7783,长春市,高新区管委会,,39,39,31,11,9,98,48,73,56,39,21,4,3,0.4,0.4
2023-05-10T07:00:00,1128A,125.1761,43.8325,长春市,岱山公园,,35,35,33,12,12,90,38,62,44,42,26,6,5,0.5,0.3
2023-05-10T07:00:00,1129A,126.5422,45.755,哈尔滨市,岭北,,21,21,26,13,10,96,64,61,55,10,13,18,12,0.3,0.2
2023-05-10T07:00:00,1130A,126.561,45.8167,哈尔滨市,松北商大,,20,20,31,10,9,90,60,46,43,13,27,6,5,0.5,0.5
2023-05-10T07:00:00,1131A,126.979,45.5419,哈尔滨市,阿城会宁,,20,20,59,10,17,90,45,18,18,15,28,5,10,0.4,0.4
2023-05-10T07:00:00,1132A,126.599,45.7222,哈尔滨市,南岗学府路,,22,22,29,5,8,91,62,62,59,9,13,7,6,0.4,0.4
2023-05-10T07:00:00,1133A,126.689,45.7733,哈尔滨市,太平宏伟公园,,24,24,37,7,13,87,57,52,50,14,18,5,5,0.2,0.4
2023-05-10T07:00:00,1134A,126.635,45.7667,哈尔滨市,道外承德广场,,42,32,32,29,13,98,55,60,56,16,15,7,6,0.4,0.4
2023-05-10T07:00:00,1135A,126.685,45.7319,哈尔滨市,香坊红旗大街,,20,17,31,9,6,95,61,67,61,16,15,6,6,0.2,0.2
2023-05-10T07:00:00,1136A,126.6411,45.7258,哈尔滨市,动力和平路,颗粒物(PM10),52,53,31,11,18,91,58,70,62,17,22,13,12,0.6,0.4
2023-05-10T07:00:00,1137A,126.593,45.7478,哈尔滨市,道里建国路,,20,9,24,9,8,89,61,61,58,12,20,6,5,0.3,0.3
2023-05-10T07:00:00,1138A,126.615,45.61,哈尔滨市,平房东轻厂,,20,8,45,11,19,95,61,34,34,12,28,5,6,0.3,0.5
2023-05-10T07:00:00,1139A,126.595,45.9855,哈尔滨市,呼兰师专,,24,24,28,4,10,93,64,59,57,11,12,11,9,0.5,0.4
2023-05-10T07:00:00,1140A,126.6206,45.6842,哈尔滨市,省农科院,,19,16,27,8,9,96,59,55,55,16,20,12,11,0.6,0.4
2023-05-10T07:00:00,1141A,121.4,31.238,上海市,普陀,,38,38,41,22,19,164,98,108,95,29,29,5,5,0.5,0.5
2023-05-10T07:00:00,1142A,121.478,31.2036,上海市,十五厂,,45,30,38,31,24,147,79,82,76,35,36,10,9,0.4,0.4
2023-05-10T07:00:00,1143A,121.467,31.3008,上海市,虹口,,46,46,37,31,23,148,61,81,76,45,28,10,10,0.6,0.5
2023-05-10T07:00:00,1144A,121.412,31.1654,上海市,徐汇上师大,,37,37,39,25,20,145,80,100,78,38,30,7,7,0.5,0.5
2023-05-10T07:00:00,1145A,121.536,31.2659,上海市,杨浦四漂,细颗粒物(PM2.5),57,48,47,40,22,150,70,63,60,40,39,8,7,0.4,0.4
2023-05-10T07:00:00,1147A,121.425,31.2261,上海市,静安监测站,,40,40,37,23,19,155,89,102,90,32,30,6,6,0.6,0.5
2023-05-10T07:00:00,1148A,121.703,31.1907,上海市,浦东川沙,细颗粒物(PM2.5),62,62,37,44,20,138,61,76,56,30,22,8,6,0.4,0.3
2023-05-10T07:00:00,1149A,121.533,31.2284,上海市,浦东新区监测站,,45,45,36,28,18,147,77,90,79,37,28,8,7,0.4,0.3
2023-05-10T07:00:00,1150A,121.577,31.2071,上海市,浦东张江,细颗粒物(PM2.5),59,59,39,42,21,125,44,84,51,46,27,4,4,0.4,0.3
2023-05-10T07:00:00,1151A,118.8086,32.1065,南京市,迈皋桥,,50,50,45,19,18,233,61,94,72,39,26,6,5,0.5,0.4
2023-05-10T07:00:00,1152A,118.7538,32.0551,南京市,草场门,,46,46,40,19,18,212,68,84,72,32,22,12,11,0.7,0.6
2023-05-10T07:00:00,1153A,118.7794,32.0745,南京市,山西路,,48,48,45,22,18,220,76,80,74,25,17,7,6,0.5,0.4
2023-05-10T07:00:00,1154A,118.7752,32.0023,南京市,中华门,,46,46,43,17,18,203,54,77,65,50,33,5,5,0.8,0.7
2023-05-10T07:00:00,1155A,118.8109,32.0309,南京市,瑞金路,颗粒物(PM10),51,52,47,22,20,213,56,83,67,44,30,4,4,1.0,0.9
2023-05-10T07:00:00,1156A,118.7997,32.0754,南京市,玄武湖,,48,48,42,20,19,213,54,70,62,38,26,8,7,0.6,0.5
2023-05-10T07:00:00,1157A,118.6414,32.0931,南京市,浦口,,45,45,48,19,24,224,46,79,62,39,33,6,7,0.7,0.6
2023-05-10T07:00:00,1158A,118.7356,31.9996,南京市,奥体中心,颗粒物(PM10),53,56,52,14,22,207,66,78,67,38,26,10,9,0.6,0.5
2023-05-10T07:00:00,1159A,118.9125,32.1028,南京市,仙林大学城,,34,34,42,19,18,231,68,91,76,31,22,10,10,0.7,0.6
2023-05-10T07:00:00,1160A,120.561,31.2472,苏州市,上方山,,41,41,45,26,21,164,57,45,45,27,31,8,9,0.4,0.5
2023-05-10T07:00:00,1162A,120.591,31.3019,苏州市,彩香,颗粒物(PM10),59,67,43,34,24,184,61,54,54,30,25,7,7,0.5,0.7
2023-05-10T07:00:00,1163A,120.596,31.3264,苏州市,轧钢厂,颗粒物(PM10),60,70,46,36,22,183,56,50,50,34,37,9,9,0.6,0.7
2023-05-10T07:00:00,1164A,120.613,31.2703,苏州市,吴中区,颗粒物(PM10),62,73,46,37,23,180,56,46,46,34,34,9,9,0.6,0.7
2023-05-10T07:00:00,1165A,120.543,31.2994,苏州市,苏州新区,颗粒物(PM10),56,62,38,36,22,178,65,52,52,25,27,6,6,0.5,0.6
2023-05-10T07:00:00,1166A,120.669,31.3097,苏州市,苏州工业园区,颗粒物(PM10),58,65,44,35,24,173,52,52,49,36,32,10,10,0.5,0.6
2023-05-10T07:00:00,1167A,120.641,31.3708,苏州市,相城区,颗粒物(PM10),55,60,41,37,22,178,49,55,46,41,34,12,8,0.6,0.7
2023-05-10T07:00:00,1168A,120.9098,31.9663,南通市,狼山街道,细颗粒物(PM2.5),55,51,36,39,18,155,57,82,63,34,16,7,6,0.4,0.3
2023-05-10T07:00:00,1169A,120.86,32.0005,南通市,虹桥,,43,38,40,30,19,157,83,100,92,21,19,7,7,0.4,0.4
2023-05-10T07:00:00,1170A,120.87,32.02,南通市,城中,颗粒物(PM10),53,56,38,31,17,147,81,103,94,23,16,7,7,0.5,0.5
2023-05-10T07:00:00,1171A,120.94,31.93,南通市,星湖花园,,44,44,36,29,18,171,68,93,83,30,18,3,4,0.5,0.6
2023-05-10T07:00:00,1172A,120.81,32.0417,南通市,紫琅学院,颗粒物(PM10),63,76,40,36,17,142,48,101,72,45,22,7,7,0.4,0.3
2023-05-10T07:00:00,1173A,119.176,34.5885,连云港市,市环境监测站,颗粒物(PM10),52,53,55,17,19,187,75,88,79,25,19,9,8,0.5,0.5
2023-05-10T07:00:00,1177A,117.179,34.2761,徐州市,黄河新村,颗粒物(PM10),64,78,54,37,23,154,16,86,43,77,30,17,12,0.5,0.4
2023-05-10T07:00:00,1178A,117.1918,34.2384,徐州市,淮塔,颗粒物(PM10),61,72,51,31,23,164,30,71,47,52,23,19,14,0.5,0.5
2023-05-10T07:00:00,1180A,117.256,34.2153,徐州市,新城区,颗粒物(PM10),51,52,46,30,24,161,52,76,38,37,27,17,13,0.5,0.5
2023-05-10T07:00:00,1181A,117.244,34.2911,徐州市,桃园路,颗粒物(PM10),63,75,58,27,20,154,26,85,22,62,36,14,11,0.6,0.6
2023-05-10T07:00:00,1182A,117.2933,34.2778,徐州市,农科院,颗粒物(PM10),64,78,60,24,17,156,14,18,8,74,48,12,12,0.5,0.4
2023-05-10T07:00:00,1186A,119.389,32.3761,扬州市,邗江监测站,颗粒物(PM10),52,53,43,27,23,169,52,98,78,41,21,9,8,1.0,0.6
2023-05-10T07:00:00,1188A,120.269,31.4867,无锡市,雪浪,颗粒物(PM10),51,51,44,19,19,188,27,84,58,65,28,12,10,0.7,0.6
2023-05-10T07:00:00,1189A,120.275,31.6219,无锡市,黄巷,颗粒物(PM10),59,68,48,27,19,178,20,80,49,74,38,7,6,0.8,0.7
2023-05-10T07:00:00,1190A,120.294,31.56,无锡市,曹张,颗粒物(PM10),52,53,41,24,20,180,30,86,61,64,28,7,7,0.8,0.8
2023-05-10T07:00:00,1191A,120.242,31.5031,无锡市,漆塘,颗粒物(PM10),51,51,39,27,20,182,26,78,57,66,26,8,7,0.5,0.4
2023-05-10T07:00:00,1192A,120.3489,31.5863,无锡市,东亭,颗粒物(PM10),51,51,40,29,20,177,30,86,59,60,28,11,10,0.8,0.7
2023-05-10T07:00:00,1193A,120.354,31.5475,无锡市,旺庄,颗粒物(PM10),51,51,37,17,18,176,26,79,54,71,35,9,7,0.7,0.6
2023-05-10T07:00:00,1194A,120.245,31.5631,无锡市,荣巷,,44,44,37,22,19,189,36,90,64,52,28,13,12,0.6,0.6
2023-05-10T07:00:00,1195A,120.299,31.6817,无锡市,堰桥,"颗粒物(PM10),细颗粒物(PM2.5)",52,53,46,36,22,192,52,97,75,39,25,8,9,0.6,0.6
2023-05-10T07:00:00,1196A,119.9633,31.762,常州市,市监测站,颗粒物(PM10),63,76,48,40,29,195,33,77,61,62,36,10,9,0.7,0.6
2023-05-10T07:00:00,1200A,119.9468,31.7069,常州市,武进监测站,颗粒物(PM10),55,60,44,30,28,205,46,78,64,58,32,12,8,0.6,0.7
2023-05-10T07:00:00,1201A,119.9255,31.9087,常州市,安家,颗粒物(PM10),60,70,46,39,30,186,35,67,56,53,33,8,10,0.6,0.7
2023-05-10T07:00:00,1203A,119.6707,32.1875,镇江市,新区办事处,颗粒物(PM10),58,66,38,38,21,174,37,83,61,48,21,5,3,1.2,0.5
2023-05-10T07:00:00,1204A,119.4974,32.1968,镇江市,职教中心,细颗粒物(PM2.5),53,54,41,37,24,183,31,74,59,69,28,7,7,1.0,0.6
2023-05-10T07:00:00,1205A,119.4303,32.1328,镇江市,丹徒区监测站,细颗粒物(PM2.5),54,54,48,38,28,209,56,86,66,42,26,7,8,0.9,0.6
2023-05-10T07:00:00,1206A,119.905,32.4878,泰州市,公园路,,42,36,36,29,24,171,86,106,95,20,13,11,10,0.5,0.3
2023-05-10T07:00:00,1207A,119.9189,32.4625,泰州市,莲花,,45,44,37,31,24,174,85,102,91,23,16,10,9,0.4,0.4
2023-05-10T07:00:00,1209A,119.888,32.4639,泰州市,留学生创业园,颗粒物(PM10),56,61,40,28,19,171,87,109,95,20,12,7,7,0.5,0.4
2023-05-10T07:00:00,1210A,119.036,33.5981,淮安市,钵池山,,30,24,25,21,14,127,90,91,91,24,20,15,10,0.6,0.5
2023-05-10T07:00:00,1211A,119.007,33.575,淮安市,北京南路,,33,29,38,15,17,130,103,93,93,24,24,11,9,0.4,0.4
2023-05-10T07:00:00,1212A,118.989,33.6067,淮安市,市监测站,,36,36,39,9,11,131,112,101,101,22,22,10,9,0.4,0.4
2023-05-10T07:00:00,1213A,119.135,33.5039,淮安市,楚州区监测站,,39,39,36,21,16,138,62,71,61,44,26,12,9,0.5,0.4
2023-05-10T07:00:00,1214A,119.0186,33.6297,淮安市,淮阴区监测站,,43,43,39,15,7,128,79,97,94,44,24,10,9,0.4,0.3
2023-05-10T07:00:00,1215A,120.118,33.4022,盐城市,盐城电厂,颗粒物(PM10),54,58,38,19,17,133,47,125,101,43,13,5,6,0.4,0.4
2023-05-10T07:00:00,1216A,120.156,33.3942,盐城市,市监测站,颗粒物(PM10),51,51,37,18,13,124,68,95,83,33,15,5,6,0.4,0.4
2023-05-10T07:00:00,1218A,120.2144,33.38,盐城市,开发区管委会,,50,50,41,19,13,124,86,90,81,18,18,5,8,0.4,0.3
2023-05-10T07:00:00,1220A,118.293,33.9528,宿迁市,宿迁学院,颗粒物(PM10),58,66,41,35,21,145,28,60,51,61,26,10,9,0.5,0.5
2023-05-10T07:00:00,1221A,118.2442,33.9592,宿迁市,宿迁中学,,45,45,38,23,18,148,77,79,73,27,19,12,12,0.3,0.4
2023-05-10T07:00:00,1223A,120.2072,30.2111,杭州市,滨江,颗粒物(PM10),82,113,59,26,30,197,37,96,64,54,34,11,9,0.5,0.4
2023-05-10T07:00:00,1224A,120.0633,30.2747,杭州市,西溪,颗粒物(PM10),51,51,44,26,27,187,19,74,35,44,28,5,7,0.5,0.5
2023-05-10T07:00:00,1226A,120.3461,30.3153,杭州市,下沙,细颗粒物(PM2.5),75,75,50,55,29,178,42,85,46,62,36,10,8,0.7,0.5
2023-05-10T07:00:00,1227A,120.1269,30.2456,杭州市,卧龙桥,细颗粒物(PM2.5),52,52,41,36,27,198,23,42,35,28,24,6,7,0.6,0.5
2023-05-10T07:00:00,1228A,120.1903,30.2692,杭州市,浙江农大,颗粒物(PM10),60,69,53,35,29,186,29,86,53,50,30,9,9,0.4,0.4
2023-05-10T07:00:00,1230A,120.1197,30.3119,杭州市,和睦小学,,46,46,44,26,25,183,18,89,48,62,37,6,7,0.4,0.3
2023-05-10T07:00:00,1231A,120.3019,30.4183,杭州市,临平镇,颗粒物(PM10),64,77,45,45,23,172,38,87,65,43,18,6,6,0.5,0.4
2023-05-10T07:00:00,1232A,120.2697,30.1819,杭州市,城厢镇,细颗粒物(PM2.5),67,70,48,48,31,181,19,66,42,70,36,6,6,0.5,0.4
2023-05-10T07:00:00,1233A,120.0883,30.1808,杭州市,云栖,,40,40,41,28,20,183,12,48,31,32,27,6,7,0.5,0.4
2023-05-10T07:00:00,1234A,121.8358,29.911,宁波市,区环保大楼,,24,24,29,16,19,163,61,58,58,35,44,6,6,0.5,0.5
2023-05-10T07:00:00,1235A,121.56,29.82,宁波市,万里学院,颗粒物(PM10),56,61,45,39,21,188,42,52,37,46,40,10,5,0.5,0.5
2023-05-10T07:00:00,1236A,121.713,29.9572,宁波市,龙赛医院,,44,44,41,25,20,175,45,38,38,53,45,8,8,0.6,0.5
2023-05-10T07:00:00,1239A,121.633,29.7733,宁波市,钱湖水厂,,28,24,27,19,17,189,73,95,80,12,15,5,6,0.2,0.3
2023-05-10T07:00:00,1240A,121.5856,29.8635,宁波市,太古小学,细颗粒物(PM2.5),53,52,43,37,27,173,37,51,33,58,49,8,6,0.6,0.6
2023-05-10T07:00:00,1241A,121.524,29.8674,宁波市,市环境监测中心,,46,46,40,21,21,175,33,31,31,56,40,9,7,0.4,0.4
2023-05-10T07:00:00,1242A,120.634,28.0089,温州市,瓯海,颗粒物(PM10),61,71,48,37,24,156,32,25,25,49,36,11,8,0.4,0.3
2023-05-10T07:00:00,1243A,120.6748,27.9939,温州市,南浦,颗粒物(PM10),51,51,47,24,21,156,56,52,46,28,25,9,7,0.3,0.3
2023-05-10T07:00:00,1244A,120.76,27.9747,温州市,龙湾,,44,44,38,26,18,161,47,54,32,45,37,8,7,0.3,0.3
2023-05-10T07:00:00,1245A,120.6709,28.0167,温州市,市站,,36,33,45,25,24,144,69,53,53,26,37,7,6,0.4,0.3
2023-05-10T07:00:00,1247A,120.6053,29.9928,绍兴市,城东开发委,,41,41,36,25,22,186,48,73,60,34,26,6,7,0.5,0.4
2023-05-10T07:00:00,1250A,120.0751,30.8669,湖州市,城西水厂,,48,38,36,33,24,171,43,88,64,45,34,8,8,0.4,0.4
2023-05-10T07:00:00,1252A,120.7436,30.778,嘉兴市,清河小学,细颗粒物(PM2.5),64,47,41,46,22,168,41,71,51,43,31,5,6,0.4,0.4
2023-05-10T07:00:00,1253A,120.726,30.7478,嘉兴市,嘉兴学院,颗粒物(PM10),54,58,41,35,22,167,34,71,49,42,26,6,7,0.4,0.4
2023-05-10T07:00:00,1255A,121.273,28.6459,台州市,黄岩环保大楼,,31,31,30,12,11,137,79,82,81,16,17,6,6,0.4,0.3
2023-05-10T07:00:00,1256A,121.419,28.6542,台州市,台州环保大楼,细颗粒物(PM2.5),60,65,37,43,16,142,58,91,57,37,19,8,5,0.4,0.3
2023-05-10T07:00:00,1257A,121.377,28.5773,台州市,路桥田洋王,,46,46,38,24,19,143,49,40,40,38,25,10,7,0.4,0.3
2023-05-10T07:00:00,1258A,122.122,30.0203,舟山市,定海檀枫,,28,26,30,19,16,154,74,82,80,13,12,5,6,0.4,0.4
2023-05-10T07:00:00,1259A,122.3094,29.9558,舟山市,普陀东港,,35,34,30,24,16,140,74,113,87,20,14,6,6,0.4,0.3
2023-05-10T07:00:00,1260A,122.19,29.9944,舟山市,临城新区,,23,23,33,9,17,148,70,80,78,16,12,6,6,0.7,0.4
2023-05-10T07:00:00,1262A,119.647,29.077,金华市,十五中,颗粒物(PM10),54,58,47,33,24,183,57,93,67,48,26,6,7,0.4,0.4
2023-05-10T07:00:00,1263A,119.686,29.1029,金华市,监测站,细颗粒物(PM2.5),55,50,47,39,25,180,41,83,66,61,31,7,9,0.4,0.4
2023-05-10T07:00:00,1264A,118.8692,28.9398,衢州市,环保大楼,细颗粒物(PM2.5),58,63,44,41,20,172,76,109,96,30,20,14,10,0.6,0.4
2023-05-10T07:00:00,1265A,118.8709,28.9666,衢州市,实验学校,颗粒物(PM10),59,68,45,35,18,161,65,110,88,41,22,23,9,0.8,0.6
2023-05-10T07:00:00,1266A,118.8621,28.9808,衢州市,衢州学院,颗粒物(PM10),54,57,38,32,21,160,64,111,86,35,21,8,8,0.7,0.5
2023-05-10T07:00:00,1267A,119.914,28.4514,丽水市,监测站大楼,,28,28,39,15,11,147,74,104,82,17,13,5,5,0.1,0.1
2023-05-10T07:00:00,1268A,119.93,28.4586,丽水市,莲都小学,,32,32,40,12,13,150,74,92,79,16,14,5,5,0.2,0.2
2023-05-10T07:00:00,1269A,119.879,28.4231,丽水市,余庄前,,36,35,33,25,23,137,28,91,63,24,15,6,6,0.1,0.1
2023-05-10T07:00:00,1270A,117.1959,31.7848,合肥市,明珠广场,颗粒物(PM10),57,63,55,27,28,164,57,94,82,47,35,7,7,0.7,0.5
2023-05-10T07:00:00,1271A,117.3072,31.8764,合肥市,三里街,细颗粒物(PM2.5),62,63,49,44,26,152,42,98,68,46,36,7,7,0.8,0.6
2023-05-10T07:00:00,1272A,117.2588,31.8707,合肥市,琥珀山庄,颗粒物(PM10),56,61,51,24,25,154,54,116,81,38,25,5,5,0.8,0.6
2023-05-10T07:00:00,1273A,117.1604,31.9052,合肥市,董铺水库,颗粒物(PM10),51,51,49,17,21,150,55,115,82,37,22,6,5,0.5,0.4
2023-05-10T07:00:00,1274A,117.25,31.8571,合肥市,长江中路,颗粒物(PM10),54,58,56,35,32,158,53,115,83,34,25,11,11,0.7,0.6
2023-05-10T07:00:00,1275A,117.266,31.9436,合肥市,庐阳区,,44,44,43,29,24,157,52,110,78,44,32,9,7,0.6,0.4
2023-05-10T07:00:00,1276A,117.336,31.8586,合肥市,瑶海区,颗粒物(PM10),54,58,57,28,26,152,46,102,69,43,32,8,8,0.6,0.4
2023-05-10T07:00:00,1277A,117.3027,31.7964,合肥市,包河区,颗粒物(PM10),59,68,63,34,30,146,18,50,38,68,57,5,5,0.9,0.7
2023-05-10T07:00:00,1278A,117.2776,31.7385,合肥市,滨湖新区,颗粒物(PM10),56,61,50,27,22,152,57,94,77,44,28,8,8,0.8,0.7
2023-05-10T07:00:00,1279A,117.1318,31.8403,合肥市,高新区,颗粒物(PM10),54,58,52,29,24,154,52,112,83,43,28,8,9,0.5,0.4
2023-05-10T07:00:00,1280A,119.3903,26.0543,福州市,鼓山,,,,,,,,,,,,,,,,
2023-05-10T07:00:00,1282A,119.2681,26.0504,福州市,师大,,30,30,35,14,16,136,59,75,63,21,17,4,4,0.5,0.4
2023-05-10T07:00:00,1283A,119.2984,26.1028,福州市,五四北路,,25,23,31,14,18,134,77,91,78,17,15,3,3,0.5,0.4
2023-05-10T07:00:00,1284A,119.2648,26.0768,福州市,杨桥西路,,28,28,34,11,13,136,61,73,65,20,12,3,3,0.6,0.5
2023-05-10T07:00:00,1285A,119.317,26.0746,福州市,紫阳,,31,31,34,13,15,130,69,99,77,17,12,3,3,0.6,0.4
2023-05-10T07:00:00,1286A,118.1608,24.8169,厦门市,溪东,,,,,,,,,,,,,,,,
2023-05-10T07:00:00,1287A,118.1514,24.4767,厦门市,洪文,,36,28,39,13,17,139,114,107,107,11,12,2,2,0.2,0.3
2023-05-10T07:00:00,1288A,118.0661,24.4444,厦门市,鼓浪屿,,28,28,39,13,17,106,80,79,76,8,9,3,3,0.2,0.3
2023-05-10T07:00:00,1290A,115.8931,28.6843,南昌市,省外办,颗粒物(PM10),52,53,60,31,33,148,96,93,93,22,20,9,9,0.6,0.5
2023-05-10T07:00:00,1291A,115.8886,28.7003,南昌市,省林业公司,,49,44,53,34,31,144,67,74,73,36,27,9,8,0.8,0.6
2023-05-10T07:00:00,1292A,115.8126,28.7442,南昌市,林科所,,39,36,35,27,22,143,64,112,100,33,21,7,8,0.7,0.6
2023-05-10T07:00:00,1294A,115.8518,28.687,南昌市,建工学校,细颗粒物(PM2.5),59,61,56,42,27,146,92,114,107,23,16,11,12,0.6,0.5
2023-05-10T07:00:00,1295A,115.8921,28.6424,南昌市,象湖,细颗粒物(PM2.5),53,50,48,37,29,149,99,96,95,23,20,8,7,0.7,0.6
2023-05-10T07:00:00,1296A,115.7423,28.7996,南昌市,武术学校,,36,30,43,25,19,144,47,37,37,2,4,2,3,0.7,0.6
2023-05-10T07:00:00,1298A,115.9314,28.6842,南昌市,省站,颗粒物(PM10),57,64,60,35,31,146,93,87,87,24,21,10,10,0.9,0.7
2023-05-10T07:00:00,1299A,116.9862,36.6114,济南市,科干所,颗粒物(PM10),76,102,73,39,30,199,29,65,34,70,42,9,12,0.6,0.5
2023-05-10T07:00:00,1300A,116.9376,36.665,济南市,农科所,颗粒物(PM10),70,90,76,34,25,200,1,29,7,82,49,6,7,0.4,0.4
2023-05-10T07:00:00,1301A,117.1265,36.6734,济南市,开发区,颗粒物(PM10),75,100,82,37,25,195,19,23,17,93,54,9,13,0.6,0.5
2023-05-10T07:00:00,1303A,117.0624,36.6868,济南市,省种子仓库,颗粒物(PM10),101,151,87,42,32,199,2,19,4,103,56,16,14,0.9,0.6
2023-05-10T07:00:00,1304A,116.9489,36.6447,济南市,机床二厂,颗粒物(PM10),96,142,102,39,30,202,26,25,21,74,44,4,8,0.7,0.4
2023-05-10T07:00:00,1305A,117.0495,36.663,济南市,市监测站,颗粒物(PM10),88,125,81,37,29,205,12,47,37,99,47,11,13,1.0,0.7
2023-05-10T07:00:00,1306A,116.7675,36.5484,济南市,长清党校,颗粒物(PM10),62,73,71,29,30,194,29,27,25,73,43,11,13,0.7,0.6
2023-05-10T07:00:00,1307A,120.6659,36.2403,青岛市,仰口,颗粒物(PM10),60,70,57,34,26,177,95,124,108,20,16,6,5,0.4,0.2
2023-05-10T07:00:00,1310A,120.4134,36.0658,青岛市,市南区东部子站,颗粒物(PM10),98,146,86,44,27,153,36,70,54,61,55,9,12,0.7,0.7
2023-05-10T07:00:00,1311A,120.3664,36.1032,青岛市,四方区子站,颗粒物(PM10),71,92,79,44,31,179,34,89,59,72,60,14,16,0.8,0.7
2023-05-10T07:00:00,1312A,120.2994,36.054,青岛市,市南区西部子站,颗粒物(PM10),67,83,73,29,24,161,41,78,51,69,55,10,10,0.7,0.6
2023-05-10T07:00:00,1313A,120.4581,36.0858,青岛市,崂山区子站,颗粒物(PM10),81,112,74,46,28,162,40,86,63,58,46,10,10,0.6,0.6
2023-05-10T07:00:00,1314A,120.1983,35.9608,青岛市,黄岛区子站,颗粒物(PM10),73,95,66,46,32,154,47,58,56,70,57,10,9,0.5,0.5
2023-05-10T07:00:00,1315A,120.3999,36.3083,青岛市,城阳区子站,颗粒物(PM10),84,117,79,37,24,198,21,55,42,71,42,15,9,0.7,0.6
2023-05-10T07:00:00,1316A,113.69031,34.76122,郑州市,烟厂,颗粒物(PM10),56,62,54,28,23,155,87,111,75,23,24,6,8,0.5,0.4
2023-05-10T07:00:00,1317A,113.65724,34.77134,郑州市,郑纺机,细颗粒物(PM2.5),52,47,56,36,22,172,96,115,83,28,25,5,6,0.7,0.5
2023-05-10T07:00:00,1318A,113.67526,34.80246,郑州市,银行学校,细颗粒物(PM2.5),55,44,49,39,28,163,101,73,66,18,25,6,7,0.6,0.6
2023-05-10T07:00:00,1319A,113.56746,34.81334,郑州市,供水公司,细颗粒物(PM2.5),57,60,57,40,26,166,69,64,64,28,26,8,9,0.6,0.5
2023-05-10T07:00:00,1320A,113.7329,34.7178,郑州市,经开区管委,,46,39,50,32,33,168,87,100,82,28,27,3,4,0.5,0.4
2023-05-10T07:00:00,1321A,113.73961,34.77172,郑州市,四十七中,细颗粒物(PM2.5),59,47,56,42,27,164,95,68,68,28,32,5,7,0.6,0.5
2023-05-10T07:00:00,1322A,113.60532,34.74838,郑州市,市监测站,细颗粒物(PM2.5),57,48,70,40,30,177,77,56,56,33,32,3,4,0.7,0.6
2023-05-10T07:00:00,1323A,113.64164,34.7525,郑州市,河医大,细颗粒物(PM2.5),54,44,58,38,27,166,81,105,71,27,22,7,8,0.6,0.5
2023-05-10T07:00:00,1324A,113.51488,34.91089,郑州市,岗李水库,,50,50,49,35,22,173,64,42,42,26,23,9,8,0.6,0.5
2023-05-10T07:00:00,1325A,114.3677,30.5584,武汉市,东湖梨园,,,,,,,,,,,,,,,,
2023-05-10T07:00:00,1326A,114.2529,30.558,武汉市,汉阳月湖,,37,37,43,22,22,173,100,110,98,26,25,6,9,0.4,0.5
2023-05-10T07:00:00,1327A,114.282,30.6189,武汉市,汉口花桥,,39,33,44,27,25,184,98,105,102,21,20,6,10,0.5,0.6
2023-05-10T07:00:00,1328A,114.3025,30.5332,武汉市,武昌紫阳,,34,34,40,21,21,184,96,107,100,24,23,7,9,0.6,0.6
2023-05-10T07:00:00,1329A,114.3646,30.6217,武汉市,青山钢花,,49,33,48,34,30,212,95,117,103,33,28,7,12,0.5,0.6
2023-05-10T07:00:00,1330A,114.1566,30.4825,武汉市,沌口新区,,42,36,43,29,26,168,76,97,86,27,21,6,9,0.4,0.5
2023-05-10T07:00:00,1331A,114.3014,30.5944,武汉市,汉口江滩,,,35,40,,42,196,107,105,102,18,21,6,10,0.5,0.6
2023-05-10T07:00:00,1333A,114.135,30.6319,武汉市,吴家山,,43,43,50,22,20,178,85,96,90,18,23,6,8,0.6,0.7
2023-05-10T07:00:00,1334A,113.8454,30.2917,武汉市,沉湖七壕,,33,32,35,23,20,188,86,120,106,20,17,5,7,0.4,0.4
2023-05-10T07:00:00,1335A,113.0833,28.2325,长沙市,经开区环保局,细颗粒物(PM2.5),63,47,50,45,34,155,70,87,83,12,15,4,5,0.6,0.5
2023-05-10T07:00:00,1336A,112.8872,28.2189,长沙市,高开区环保局,,49,26,41,34,33,143,89,102,98,3,11,7,8,0.5,0.5
2023-05-10T07:00:00,1337A,113.0792,28.2053,长沙市,马坡岭,细颗粒物(PM2.5),67,46,49,48,37,139,65,87,78,17,19,3,2,0.4,0.4
2023-05-10T07:00:00,1338A,112.9394,28.19,长沙市,湖南师范大学,细颗粒物(PM2.5),72,45,55,52,38,143,83,107,99,9,12,6,7,0.6,0.6
2023-05-10T07:00:00,1339A,113.0178,28.1322,长沙市,雨花区环保局,细颗粒物(PM2.5),54,38,46,38,30,132,74,90,86,16,20,5,7,0.3,0.3
2023-05-10T07:00:00,1340A,112.9792,28.2597,长沙市,伍家岭,,48,27,44,33,34,147,69,92,85,12,14,1,2,0.4,0.4
2023-05-10T07:00:00,1341A,113.0014,28.1944,长沙市,火车新站,细颗粒物(PM2.5),54,39,44,38,35,126,74,93,87,12,18,6,7,0.5,0.5
2023-05-10T07:00:00,1342A,112.9844,28.1178,长沙市,天心区环保局,,45,45,50,31,27,134,71,89,85,8,14,2,3,0.4,0.4
2023-05-10T07:00:00,1343A,112.8908,28.1308,长沙市,湖南中医药大学,细颗粒物(PM2.5),52,39,50,36,34,147,87,105,100,11,21,2,4,0.6,0.6
2023-05-10T07:00:00,1344A,112.9581,28.3611,长沙市,沙坪,细颗粒物(PM2.5),67,53,50,48,33,141,69,97,86,8,10,5,6,0.4,0.4
2023-05-10T07:00:00,1345A,113.2347,23.1423,广州市,广雅中学,,41,41,49,17,31,124,69,48,48,28,41,4,4,0.7,0.8
2023-05-10T07:00:00,1346A,113.2612,23.105,广州市,市五中,,40,40,47,19,31,124,71,52,52,27,37,6,5,0.6,0.7
2023-05-10T07:00:00,1348A,113.3478,23.0916,广州市,广东商学院,,39,39,49,17,28,135,72,49,49,23,33,4,4,0.6,0.8
2023-05-10T07:00:00,1349A,113.4332,23.1047,广州市,市八十六中,颗粒物(PM10),51,52,58,18,28,135,60,53,53,32,42,4,5,0.6,0.7
2023-05-10T07:00:00,1350A,113.3505,22.9483,广州市,番禺中学,,44,44,46,16,27,121,72,61,61,27,37,7,7,0.6,0.7
2023-05-10T07:00:00,1351A,113.2146,23.3916,广州市,花都师范,,40,40,49,21,31,126,52,41,39,34,33,7,7,0.7,0.8
2023-05-10T07:00:00,1352A,113.2597,23.1331,广州市,市监测站,,36,36,40,16,27,136,78,56,56,27,37,6,7,0.7,0.8
2023-05-10T07:00:00,1353A,113.5618,23.312,广州市,九龙镇镇龙,,44,44,46,20,27,109,66,47,47,21,27,5,5,0.5,0.6
2023-05-10T07:00:00,1354A,113.2765,23.1544,广州市,麓湖,,37,37,44,18,27,132,79,59,59,26,32,7,6,0.6,0.7
2023-05-10T07:00:00,1355A,113.443,23.3035,广州市,帽峰山森林公园,,44,44,37,24,23,103,52,51,51,21,18,2,2,0.5,0.6
2023-05-10T07:00:00,1356A,114.1063,22.5545,深圳市,通心岭子站,,40,40,27,18,12,109,93,108,102,9,11,4,3,0.5,0.6
2023-05-10T07:00:00,1357A,114.117,22.5625,深圳市,洪湖,,43,43,30,16,11,123,109,119,115,12,10,9,8,0.4,0.5
2023-05-10T07:00:00,1358A,113.987,22.5417,深圳市,华侨城,,42,42,29,18,14,122,112,122,119,9,11,6,6,0.6,0.6
2023-05-10T07:00:00,1359A,113.9181,22.5171,深圳市,南海子站,,49,49,32,19,13,109,100,109,106,9,10,4,4,0.5,0.6
2023-05-10T07:00:00,1360A,114.2458,22.5689,深圳市,盐田,,39,39,30,17,12,120,80,113,96,28,15,5,4,0.6,0.6
2023-05-10T07:00:00,1361A,114.2283,22.7244,深圳市,龙岗,,40,40,28,17,13,118,107,118,108,10,13,3,3,0.6,0.6
2023-05-10T07:00:00,1363A,114.494,22.5422,深圳市,南澳,,36,36,28,14,13,109,102,100,100,8,7,10,8,0.5,0.6
2023-05-10T07:00:00,1364A,114.41,22.6342,深圳市,葵涌,,39,39,29,17,13,124,99,122,109,3,5,5,5,0.6,0.6
2023-05-10T07:00:00,1365A,114.297,22.5978,深圳市,梅沙,,41,41,32,23,18,129,104,125,114,10,9,5,4,0.6,0.6
2023-05-10T07:00:00,1366A,114.0678,22.738,深圳市,观澜,,43,43,34,19,15,111,102,106,105,16,20,5,5,0.6,0.7
2023-05-10T07:00:00,1367A,113.5814,22.2618,珠海市,吉大,,36,30,24,12,8,129,113,113,112,7,14,6,6,0.6,0.7
2023-05-10T07:00:00,1368A,113.4881,22.2335,珠海市,前山,,35,34,18,24,13,121,111,120,115,15,21,4,4,0.3,0.4
2023-05-10T07:00:00,1369A,113.628,22.4251,珠海市,唐家,,33,25,28,21,15,110,105,106,103,8,17,5,5,0.2,0.4
2023-05-10T07:00:00,1370A,113.299,22.2281,珠海市,斗门,,37,37,22,14,11,116,101,111,106,12,17,5,5,0.4,0.5
2023-05-10T07:00:00,1371A,113.1294,23.0067,佛山市,湾梁,,48,48,59,17,27,103,55,59,58,28,37,6,7,0.6,0.7
2023-05-10T07:00:00,1372A,113.1083,23.0478,佛山市,华材职中,,46,46,53,16,32,108,56,55,55,30,38,6,7,0.5,0.6
2023-05-10T07:00:00,1373A,113.144,23.0453,佛山市,南海气象局,,37,37,46,20,30,78,30,37,36,38,40,5,5,0.7,0.8
2023-05-10T07:00:00,1374A,113.2881,22.8094,佛山市,顺德苏岗,,42,42,35,22,26,82,41,77,65,35,31,4,5,0.6,0.8
2023-05-10T07:00:00,1376A,112.8383,22.8678,佛山市,高明孔堂,,37,37,52,12,27,79,79,68,68,15,29,3,5,0.7,0.8
2023-05-10T07:00:00,1377A,112.8836,23.1588,佛山市,三水监测站,,36,36,58,17,38,93,47,33,33,45,48,5,6,0.6,0.8
2023-05-10T07:00:00,1378A,112.867,23.185,佛山市,三水云东海,颗粒物(PM10),53,56,52,14,31,110,52,30,30,38,36,4,5,0.7,0.8
2023-05-10T07:00:00,1379A,113.3769,22.5211,中山市,华柏园,,41,41,32,18,20,88,81,86,79,18,25,6,6,0.5,0.6
2023-05-10T07:00:00,1380A,113.3881,22.5497,中山市,张溪,,30,30,39,16,19,96,88,90,85,16,22,2,2,0.5,0.6
2023-05-10T07:00:00,1381A,113.4075,22.5111,中山市,紫马岭,,30,30,30,16,16,105,92,96,84,14,18,4,4,0.4,0.5
2023-05-10T07:00:00,1382A,113.4411,22.4853,中山市,长江旅游区,,34,34,28,13,14,97,92,94,84,11,17,7,7,0.4,0.5
2023-05-10T07:00:00,1383A,113.1064,22.6058,江门市,北街,,39,39,50,12,24,74,72,63,63,25,37,6,6,0.5,0.7
2023-05-10T07:00:00,1384A,113.0731,22.5835,江门市,西区,,29,29,45,16,26,86,66,61,61,24,41,7,7,0.6,0.8
2023-05-10T07:00:00,1385A,113.0219,22.5311,江门市,圭峰西,,33,33,47,13,28,72,64,63,63,11,23,5,5,0.7,0.8
2023-05-10T07:00:00,1386A,113.0828,22.5947,江门市,东湖,,,30,51,14,28,87,57,63,62,,31,6,6,0.6,0.9
2023-05-10T07:00:00,1389A,113.7547,23.0494,东莞市,莞城梨川,,47,47,40,21,24,152,82,88,85,20,22,8,8,0.6,0.7
2023-05-10T07:00:00,1390A,113.7944,23.0128,东莞市,东城石井,,45,45,40,20,23,108,81,88,86,28,25,10,10,0.6,0.7
2023-05-10T07:00:00,1391A,113.7383,22.9658,东莞市,南城西平,,43,43,39,21,23,112,85,81,81,17,24,7,9,0.3,0.6
2023-05-10T07:00:00,1392A,114.4183,23.0528,惠州市,河南岸金山湖子站,,48,48,36,12,17,102,92,101,96,13,13,4,5,0.4,0.5
2023-05-10T07:00:00,1393A,114.4053,23.0822,惠州市,下埔横江三路子站,,42,42,34,14,17,115,98,113,107,11,12,6,6,0.5,0.6
2023-05-10T07:00:00,1394A,114.4103,23.1142,惠州市,江北云山西路子站,,35,35,35,17,18,116,97,114,107,7,9,7,6,0.5,0.6
2023-05-10T07:00:00,1395A,114.4645,22.7833,惠州市,惠阳区承修路船湖子站,,34,34,32,18,16,118,88,106,98,17,11,6,5,0.6,0.6
2023-05-10T07:00:00,1396A,114.5317,22.7422,惠州市,大亚湾管委会子站,,44,44,33,16,15,122,88,113,103,21,15,8,9,0.6,0.6
2023-05-10T07:00:00,1397A,112.4267,23.0706,肇庆市,睦岗子站,,36,36,63,17,38,107,57,57,51,26,30,10,11,0.5,0.6
2023-05-10T07:00:00,1398A,112.4645,23.0475,肇庆市,城中子站,,33,33,68,21,50,110,57,38,37,26,37,10,13,0.6,0.7
2023-05-10T07:00:00,1399A,112.5544,23.1522,肇庆市,坑口子站,,35,34,53,24,39,126,25,32,24,38,31,5,8,0.6,0.6
2023-05-10T07:00:00,1400A,112.4753,23.1,肇庆市,七星岩子站,,26,26,44,15,31,110,67,59,59,20,21,7,8,0.6,0.7
2023-05-10T07:00:00,1401A,108.3103,22.7881,南宁市,二十一中,,40,40,33,28,24,66,28,31,31,16,17,4,5,1.0,0.9
2023-05-10T07:00:00,1402A,108.3141,22.8528,南宁市,北湖,,33,28,33,23,26,61,32,32,31,10,15,7,7,0.8,0.8
2023-05-10T07:00:00,1403A,108.3206,22.8225,南宁市,市监测站,,43,41,31,30,27,64,26,34,31,22,26,8,9,0.9,0.9
2023-05-10T07:00:00,1404A,108.3829,22.8037,南宁市,大自然花园,,36,34,29,25,23,59,24,26,26,16,16,5,5,0.9,0.9
2023-05-10T07:00:00,1405A,108.4394,22.7904,南宁市,仙葫,,42,31,30,29,22,66,25,30,28,21,19,5,5,0.7,0.7
2023-05-10T07:00:00,1406A,108.2397,22.8467,南宁市,区农职院,,32,32,36,22,22,58,14,20,19,27,26,6,7,0.9,0.9
2023-05-10T07:00:00,1407A,108.3275,22.735,南宁市,英华嘉园,,34,34,34,23,25,60,24,34,27,18,21,6,6,0.9,0.9
2023-05-10T07:00:00,1408A,108.2257,22.7757,南宁市,沙井镇街道办,,42,34,40,29,26,53,13,15,14,31,34,4,4,1.0,0.9
2023-05-10T07:00:00,1409A,110.576,19.9507,海口市,东寨港,,,38,19,18,7,,,,,,,6,6,0.6,0.6
2023-05-10T07:00:00,1410A,110.3232,20.0574,海口市,海南大学,,40,40,29,12,9,102,88,87,87,3,5,5,6,0.4,0.4
2023-05-10T07:00:00,1411A,110.283,20.0053,海口市,秀英海南医院,,44,44,24,13,9,62,30,34,33,14,13,4,4,0.5,0.5
2023-05-10T07:00:00,1412A,110.338,19.9969,海口市,海南师范大学,,40,40,25,13,9,86,67,70,68,6,6,4,4,0.3,0.4
2023-05-10T07:00:00,1413A,110.33,20.0356,海口市,龙华路环保局宿舍,,39,39,26,11,9,74,61,61,60,4,5,5,5,0.3,0.4
2023-05-10T07:00:00,1414A,106.3787,29.8279,重庆市,缙云山,,15,12,21,10,14,80,35,72,52,13,11,7,7,0.2,0.3
2023-05-10T07:00:00,1416A,106.4213,29.8253,重庆市,天生,,42,34,28,29,23,75,24,42,32,17,17,5,6,0.8,0.8
2023-05-10T07:00:00,1417A,106.6263,29.7228,重庆市,两路,,38,36,27,26,18,62,12,57,43,54,25,6,6,0.9,0.8
2023-05-10T07:00:00,1418A,106.2953,29.5983,重庆市,虎溪,,37,37,32,24,15,73,30,58,49,18,19,4,4,0.6,0.6
2023-05-10T07:00:00,1419A,106.5777,29.5102,重庆市,南坪,,48,41,38,33,27,55,26,36,35,35,32,5,6,0.6,0.6
2023-05-10T07:00:00,1420A,106.6556,29.6277,重庆市,唐家沱,,40,33,33,28,25,73,58,44,44,17,20,6,6,0.7,0.8
2023-05-10T07:00:00,1421A,106.6349,29.4906,重庆市,茶园,,37,37,34,24,20,64,46,59,47,19,27,4,5,0.6,0.7
2023-05-10T07:00:00,1422A,106.3754,29.4572,重庆市,白市驿,,40,20,26,28,22,50,28,35,33,15,25,7,7,0.7,0.8
2023-05-10T07:00:00,1425A,106.6205,29.7166,重庆市,空港,,36,36,26,23,20,74,24,65,49,35,17,6,6,0.8,0.7
2023-05-10T07:00:00,1426A,106.4782,29.4875,重庆市,新山村,,45,45,41,26,21,58,42,45,44,29,31,5,6,0.6,0.6
2023-05-10T07:00:00,1427A,106.5616,29.6453,重庆市,礼嘉,,27,27,27,18,20,69,36,68,55,30,22,6,7,0.8,0.8
2023-05-10T07:00:00,1428A,106.4522,29.7091,重庆市,蔡家,,45,45,36,30,20,69,39,42,35,16,19,6,6,0.6,0.6
2023-05-10T07:00:00,1429A,106.5093,29.3917,重庆市,鱼新街,,33,33,28,11,16,71,45,59,56,26,20,4,5,0.8,0.8
2023-05-10T07:00:00,1431A,103.9728,30.7236,成都市,金泉两河,,15,15,13,8,5,43,8,39,29,16,13,2,1,0.5,0.3
2023-05-10T07:00:00,1432A,104.176,30.6872,成都市,十里店,,20,16,11,14,6,37,30,33,32,14,16,1,1,0.5,0.4
2023-05-10T07:00:00,1433A,104.079,30.5706,成都市,三瓦窑,,26,14,12,18,6,34,31,32,31,15,16,2,1,0.4,0.3
2023-05-10T07:00:00,1434A,104.1114,30.63,成都市,沙河铺,,20,20,17,13,6,33,19,30,26,8,13,2,2,0.5,0.5
2023-05-10T07:00:00,1437A,104.0786,30.6531,成都市,君平街,,26,26,11,16,10,43,33,40,39,22,20,4,2,0.4,0.4
2023-05-10T07:00:00,1438A,103.613,31.0283,成都市,灵岩寺,,17,1,4,4,3,65,54,64,57,8,8,8,2,0.5,0.5
2023-05-10T07:00:00,1439A,106.6899,26.5998,贵阳市,马鞍山,,18,9,11,12,7,40,21,17,17,14,14,4,4,0.6,0.5
2023-05-10T07:00:00,1440A,106.6971,26.5694,贵阳市,市环保站,,16,12,14,11,9,42,28,23,21,16,23,3,3,0.4,0.4
2023-05-10T07:00:00,1441A,106.6243,26.6266,贵阳市,鉴湖路,,10,9,14,0,5,51,31,23,23,8,15,3,3,0.4,0.4
2023-05-10T07:00:00,1442A,106.7487,26.6343,贵阳市,燕子冲,,35,17,15,24,14,37,13,14,14,14,17,5,5,0.6,0.6
2023-05-10T07:00:00,1443A,106.6555,26.4365,贵阳市,碧云窝,,17,17,17,9,4,51,20,21,21,17,17,4,4,0.7,0.6
2023-05-10T07:00:00,1444A,106.694,26.5161,贵阳市,中院村,,17,17,19,5,7,44,28,25,25,14,21,6,6,0.5,0.6
2023-05-10T07:00:00,1445A,106.7109,26.6027,贵阳市,红边门,,12,12,16,2,10,41,31,25,25,10,20,3,4,0.5,0.6
2023-05-10T07:00:00,1446A,106.7164,26.5699,贵阳市,新华路,,10,9,16,7,7,47,25,26,25,14,19,3,4,0.5,0.5
2023-05-10T07:00:00,1447A,106.674,26.5424,贵阳市,太慈桥,,24,24,19,9,4,44,23,18,17,17,18,4,4,0.6,0.5
2023-05-10T07:00:00,1450A,102.8204,24.8886,昆明市,呈贡新区,,44,44,47,29,34,149,95,112,106,19,10,9,7,1.0,0.9
2023-05-10T07:00:00,1451A,102.6251,24.9608,昆明市,西山森林公园,,39,38,38,24,26,166,123,131,125,12,12,6,6,0.9,0.8
2023-05-10T07:00:00,1452A,102.7252,25.0902,昆明市,龙泉镇,颗粒物(PM10),56,62,54,39,33,146,81,103,72,25,20,9,8,0.7,0.5
2023-05-10T07:00:00,1453A,102.7266,25.0375,昆明市,东风东路,颗粒物(PM10),51,51,51,32,34,132,85,102,91,14,13,9,7,0.8,0.7
2023-05-10T07:00:00,1454A,102.6742,25.0669,昆明市,金鼎山,颗粒物(PM10),56,62,54,33,45,144,83,111,100,23,17,6,4,0.7,0.7
2023-05-10T07:00:00,1455A,102.6644,25.0401,昆明市,碧鸡广场,细颗粒物(PM2.5),63,65,62,45,37,147,73,95,86,31,23,9,7,0.7,0.6
2023-05-10T07:00:00,1456A,91.1319,29.6514,拉萨市,八廓街,,49,15,24,5,7,177,156,149,149,7,9,7,6,0.3,0.3
2023-05-10T07:00:00,1457A,91.1221,29.6747,拉萨市,市环保局,,47,14,21,8,7,180,148,155,147,8,8,6,5,0.1,0.3
2023-05-10T07:00:00,1458A,91.0874,29.6475,拉萨市,区监测站,,49,14,23,5,8,174,156,150,150,4,7,7,7,0.2,0.2
2023-05-10T07:00:00,1459A,91.1774,29.6541,拉萨市,西藏大学,,50,16,22,6,8,181,160,156,153,3,4,8,8,0.2,0.2
2023-05-10T07:00:00,1460A,90.9798,29.6588,拉萨市,区辐射站,,40,18,33,6,11,163,128,141,138,16,13,8,7,0.3,0.3
2023-05-10T07:00:00,1461A,91.0834,29.6292,拉萨市,拉萨火车站,,49,15,26,6,7,175,154,151,151,3,5,8,7,0.2,0.2
2023-05-10T07:00:00,1462A,108.882,34.2749,西安市,高压开关厂,颗粒物(PM10),60,69,48,37,30,107,40,77,56,32,30,6,6,0.6,0.5
2023-05-10T07:00:00,1463A,108.993,34.2629,西安市,兴庆小区,,48,44,38,33,26,106,49,85,68,19,18,5,5,0.6,0.8
2023-05-10T07:00:00,1464A,109.06,34.2572,西安市,纺织城,,38,33,45,26,27,93,15,35,32,40,24,4,4,0.5,0.6
2023-05-10T07:00:00,1465A,108.9356,34.2173,西安市,小寨,,48,48,40,26,23,102,53,83,64,15,20,7,7,0.8,0.7
2023-05-10T07:00:00,1466A,108.954,34.2713,西安市,市人民体育场,细颗粒物(PM2.5),54,55,45,38,31,106,37,75,55,28,23,6,6,0.8,0.7
2023-05-10T07:00:00,1467A,108.8922,34.2322,西安市,高新西区,颗粒物(PM10),51,51,42,33,28,112,60,99,66,15,22,7,7,0.6,0.6
2023-05-10T07:00:00,1468A,108.935,34.3474,西安市,经开区,颗粒物(PM10),52,54,45,32,29,104,26,71,41,29,26,3,4,0.5,0.4
2023-05-10T07:00:00,1469A,108.906,34.1546,西安市,长安区,颗粒物(PM10),52,53,51,30,27,98,73,90,64,19,24,6,6,0.5,0.6
2023-05-10T07:00:00,1471A,109.2186,34.3731,西安市,临潼区,颗粒物(PM10),60,70,54,37,32,96,54,94,71,23,23,7,7,1.0,0.9
2023-05-10T07:00:00,1472A,108.869,34.378,西安市,草滩,细颗粒物(PM2.5),72,75,62,52,41,90,16,50,32,42,27,14,8,1.6,0.8
2023-05-10T07:00:00,1473A,108.985,34.1978,西安市,曲江文化产业集团,颗粒物(PM10),59,68,50,39,27,96,58,89,71,25,22,4,4,0.6,0.6
2023-05-10T07:00:00,1474A,109.051,34.3213,西安市,广运潭,,46,46,42,30,31,92,28,52,38,35,27,6,6,0.6,0.6
2023-05-10T07:00:00,1476A,103.631,36.1031,兰州市,兰炼宾馆,颗粒物(PM10),60,69,45,40,32,90,69,84,78,29,23,9,5,0.4,0.4
2023-05-10T07:00:00,1477A,104.1373,35.9454,兰州市,榆中兰大校区,,,,,,,,,,,,,,,,
2023-05-10T07:00:00,1478A,103.8412,36.0726,兰州市,生物制品所,颗粒物(PM10),60,69,46,34,32,96,65,66,39,27,28,8,7,0.7,0.6
2023-05-10T07:00:00,1479A,103.831,36.0464,兰州市,铁路设计院,颗粒物(PM10),53,55,43,32,32,99,67,99,81,28,23,6,5,0.5,0.6
2023-05-10T07:00:00,1483A,101.524,36.6867,西宁市,第五水厂,,,,,,,,,,,,,,,,
2023-05-10T07:00:00,1484A,105.9512,38.6016,银川市,贺兰山马莲口,,36,30,19,25,17,118,70,72,71,10,10,12,11,0.7,0.6
2023-05-10T07:00:00,1488A,106.2328,38.4975,银川市,贺兰山东路,颗粒物(PM10),54,57,37,29,27,114,68,82,70,17,21,6,7,0.4,0.4
2023-05-10T07:00:00,1489A,106.1358,38.5036,银川市,学院路,颗粒物(PM10),55,60,38,33,26,122,64,78,61,17,18,10,9,0.6,0.4
2023-05-10T07:00:00,1490A,87.5801,43.8303,乌鲁木齐市,监测站,颗粒物(PM10),52,54,58,21,16,115,40,60,55,42,36,4,5,0.4,0.5
2023-05-10T07:00:00,1491A,87.6046,43.768,乌鲁木齐市,收费所,颗粒物(PM10),65,80,75,17,19,112,31,30,30,31,34,5,5,0.2,0.3
2023-05-10T07:00:00,1492A,87.4754,43.9469,乌鲁木齐市,新疆农科院农场,细颗粒物(PM2.5),80,101,104,59,65,101,10,28,25,72,43,6,6,0.7,0.7
2023-05-10T07:00:00,1493A,87.5525,43.8711,乌鲁木齐市,铁路局,,39,39,56,15,19,118,52,46,46,25,30,4,4,0.4,0.5
2023-05-10T07:00:00,1494A,87.6432,43.831,乌鲁木齐市,三十一中学,,46,46,52,12,15,121,75,63,63,19,23,8,9,0.3,0.4
2023-05-10T07:00:00,1496A,87.7216,44.1747,乌鲁木齐市,米东区环保局,细颗粒物(PM2.5),77,67,60,56,24,123,43,41,41,22,19,1,7,0.3,0.2
2023-05-10T07:00:00,1508A,112.9433,27.8614,湘潭市,板塘,细颗粒物(PM2.5),57,36,47,40,33,134,72,88,78,17,24,4,8,0.3,0.5
2023-05-10T07:00:00,1511A,112.9118,27.8403,湘潭市,市监测站,细颗粒物(PM2.5),65,37,51,47,42,145,80,98,89,16,21,7,11,0.6,0.7
2023-05-10T07:00:00,1512A,112.8937,27.8728,湘潭市,江麓,细颗粒物(PM2.5),58,32,52,41,45,146,81,90,86,5,13,4,6,0.2,0.3
2023-05-10T07:00:00,1513A,112.9227,27.8159,湘潭市,岳塘,细颗粒物(PM2.5),59,35,53,42,37,135,76,93,81,10,18,6,11,0.3,0.6
2023-05-10T07:00:00,1514A,112.9074,27.9119,湘潭市,科大,,49,40,52,34,40,142,77,90,84,11,18,3,6,0.4,0.5
2023-05-10T07:00:00,1515A,113.135,27.8244,株洲市,天台山庄,细颗粒物(PM2.5),94,68,48,70,40,156,73,88,79,13,16,7,9,0.6,0.6
2023-05-10T07:00:00,1518A,113.095,27.8867,株洲市,株冶医院,细颗粒物(PM2.5),88,58,54,65,44,154,77,83,76,12,24,4,6,0.5,0.5
2023-05-10T07:00:00,1519A,113.167,27.8667,株洲市,市四中,细颗粒物(PM2.5),84,52,48,62,38,148,75,68,67,10,17,8,10,0.6,0.6
2023-05-10T07:00:00,1520A,113.143,27.8381,株洲市,火车站,细颗粒物(PM2.5),89,68,54,66,41,150,68,84,75,16,21,3,7,0.6,0.6
2023-05-10T07:00:00,1524A,113.13,27.8528,株洲市,市监测站,细颗粒物(PM2.5),79,61,50,58,41,152,69,86,76,17,22,2,4,0.7,0.6
2023-05-10T07:00:00,1552A,106.805,26.3003,贵阳市,桐木岭,,16,14,16,7,8,71,49,51,41,2,2,1,2,0.3,0.3
2023-05-10T07:00:00,1559A,113.251,27.8336,株洲市,大京风景区,细颗粒物(PM2.5),60,56,39,43,32,130,63,74,65,10,12,5,6,0.6,0.6
2023-05-10T07:00:00,1562A,113.0048,27.9153,湘潭市,昭山,细颗粒物(PM2.5),60,53,56,43,38,156,74,81,80,12,21,3,5,0.5,0.6
2023-05-10T07:00:00,1564A,112.4876,27.9164,湘潭市,韶山,,36,35,42,25,24,123,87,91,90,9,16,5,7,1.0,1
2023-05-10T07:00:00,1585A,109.8756,40.6532,包头市,市环境监测站,,48,48,52,23,26,164,56,79,50,28,28,11,15,0.8,0.8
2023-05-10T07:00:00,1587A,109.9991,40.5842,包头市,包头八中,细颗粒物(PM2.5),72,58,53,52,27,169,10,100,59,68,31,13,14,1.1,0.7
2023-05-10T07:00:00,1588A,109.8538,40.6821,包头市,青山宾馆,,48,30,47,33,29,166,50,58,41,26,29,8,12,1.0,0.9
2023-05-10T07:00:00,1589A,109.8642,40.6288,包头市,惠龙物流,颗粒物(PM10),55,59,53,37,28,167,49,77,57,38,29,11,12,0.9,0.7
2023-05-10T07:00:00,1590A,110.0377,40.5546,包头市,东河鸿龙湾,颗粒物(PM10),56,61,48,28,26,158,33,99,63,53,22,6,8,0.9,0.8
2023-05-10T07:00:00,1591A,110.0023,39.8129,鄂尔多斯市,综合楼,,39,31,45,27,23,132,92,94,82,28,26,9,10,0.7,0.7
2023-05-10T07:00:00,1592A,109.9486,39.8261,鄂尔多斯市,巴音孟克林场办事处,,46,46,45,29,25,134,48,86,69,47,24,6,8,0.8,0.7
2023-05-10T07:00:00,1593A,109.7736,39.5986,鄂尔多斯市,康泽苑,,33,29,42,23,24,138,36,84,58,18,17,8,10,0.6,0.6
2023-05-10T07:00:00,1594A,109.8119,39.5989,鄂尔多斯市,华泰汽车城,,32,27,44,22,27,134,14,65,31,24,22,6,9,0.6,0.7
2023-05-10T07:00:00,1595A,109.9734,39.7884,鄂尔多斯市,奥林花园,颗粒物(PM10),51,51,47,24,23,136,14,82,42,52,32,6,8,0.9,0.8
2023-05-10T07:00:00,1597A,122.2703,40.7094,营口市,大庆路,,34,34,37,9,10,102,90,85,69,22,19,6,5,0.5,0.5
2023-05-10T07:00:00,1598A,122.2150,40.6511,营口市,镜湖西路,,36,36,27,12,7,109,97,87,82,24,20,8,6,0.4,0.4
2023-05-10T07:00:00,1599A,122.1658,40.6789,营口市,西炮台,,34,34,34,8,7,106,96,98,88,20,18,8,8,0.3,0.3
2023-05-10T07:00:00,1600A,124.3303,40.0625,丹东市,江湾东路,颗粒物(PM10),52,53,44,26,17,128,50,48,42,15,15,17,11,1.1,0.7
2023-05-10T07:00:00,1601A,124.4256,40.1503,丹东市,临江后街,颗粒物(PM10),54,58,35,25,12,118,28,49,41,34,18,10,7,0.7,0.6
2023-05-10T07:00:00,1602A,124.3933,40.1461,丹东市,元宝山,颗粒物(PM10),55,59,36,34,14,104,17,67,45,38,22,10,10,0.5,0.3
2023-05-10T07:00:00,1603A,124.3633,40.1092,丹东市,民主桥,,46,46,37,19,12,113,35,65,47,29,20,11,9,0.7,0.6
2023-05-10T07:00:00,1604A,122.0303,41.1489,盘锦市,开发区,,29,29,35,20,14,104,52,79,69,37,26,8,8,1.0,0.8
2023-05-10T07:00:00,1605A,122.0485,41.0883,盘锦市,兴隆台,,25,25,33,13,8,93,55,67,64,35,30,9,6,0.6,0.5
2023-05-10T07:00:00,1606A,121.8297,41.1028,盘锦市,新生街道,,37,25,30,17,8,107,36,62,56,74,28,15,19,0.7,0.6
2023-05-10T07:00:00,1607A,120.9092,40.7136,葫芦岛市,龙港区,,49,49,35,28,9,125,78,100,94,40,12,31,19,0.8,0.5
2023-05-10T07:00:00,1608A,120.8392,40.7514,葫芦岛市,化工街,颗粒物(PM10),64,78,44,27,16,124,50,73,53,62,34,30,12,0.9,0.5
2023-05-10T07:00:00,1609A,120.8341,40.7073,葫芦岛市,新区,,42,42,35,20,11,125,57,72,70,48,23,18,13,0.8,0.5
2023-05-10T07:00:00,1610A,120.8695,40.7677,葫芦岛市,东城区,颗粒物(PM10),62,74,41,31,16,129,21,74,42,84,39,42,21,1.1,0.7
2023-05-10T07:00:00,1611A,118.5819,24.9117,泉州市,涂山街,,42,42,36,18,18,135,72,115,92,22,13,8,7,0.7,0.6
2023-05-10T07:00:00,1612A,118.5972,24.8978,泉州市,津头埔,,36,36,34,19,16,137,79,116,95,24,18,8,7,0.6,0.5
2023-05-10T07:00:00,1613A,118.6663,24.9424,泉州市,万安,,36,36,36,18,18,150,81,113,93,23,11,12,9,0.5,0.5
2023-05-10T07:00:00,1614A,118.6117,24.9604,泉州市,清源山,,,,,,,,,,,,,,,,
2023-05-10T07:00:00,1616A,117.6795,36.229,济南市,技术学院,颗粒物(PM10),58,66,61,32,32,194,24,92,66,89,39,8,12,0.6,0.7
2023-05-10T07:00:00,1618A,118.3429,35.0532,临沂市,沂河小区,细颗粒物(PM2.5),93,105,63,69,41,162,15,72,24,90,43,16,13,0.6,0.4
2023-05-10T07:00:00,1619A,118.295,35.0583,临沂市,鲁南制药厂,颗粒物(PM10),107,163,80,75,38,173,8,31,12,113,51,22,16,0.9,0.3
2023-05-10T07:00:00,1620A,118.2794,34.9976,临沂市,新光毛纺厂,颗粒物(PM10),93,136,61,55,30,163,7,43,10,106,45,39,13,1.0,0.5
2023-05-10T07:00:00,1621A,118.3956,35.0888,临沂市,河东保险公司,细颗粒物(PM2.5),118,127,66,89,35,174,29,78,26,102,45,24,14,0.8,0.6
2023-05-10T07:00:00,1622A,116.3032,37.4674,德州市,儿童乐园,颗粒物(PM10),65,80,56,31,26,183,12,95,65,73,24,11,9,0.7,0.4
2023-05-10T07:00:00,1624A,116.2991,37.4451,德州市,监理站,颗粒物(PM10),54,57,61,22,21,185,52,101,75,41,25,14,12,0.5,0.4
2023-05-10T07:00:00,1625A,115.9848,36.4372,聊城市,区政府,颗粒物(PM10),77,103,65,36,27,171,8,50,35,112,39,11,11,0.7,0.6
2023-05-10T07:00:00,1628A,118.0062,37.3803,滨州市,市环保局,颗粒物(PM10),61,72,57,28,22,174,6,53,39,76,29,20,12,1.0,0.8
2023-05-10T07:00:00,1629A,118.0018,37.3617,滨州市,第二水厂,颗粒物(PM10),65,80,63,20,22,179,10,43,35,84,39,11,15,0.8,0.7
2023-05-10T07:00:00,1630A,117.9776,37.393,滨州市,北中新校,颗粒物(PM10),56,61,52,23,19,179,5,35,23,67,32,10,10,0.8,0.6
2023-05-10T07:00:00,1631A,118.0414,36.8103,淄博市,人民公园,颗粒物(PM10),93,136,73,50,37,219,9,14,7,72,45,17,14,2.0,0.8
2023-05-10T07:00:00,1633A,117.8525,36.4847,淄博市,双山,颗粒物(PM10),58,66,63,30,32,227,39,68,59,64,33,12,16,0.5,0.4
2023-05-10T07:00:00,1634A,117.9592,36.6331,淄博市,气象站,颗粒物(PM10),78,105,84,39,32,229,41,45,43,56,35,36,15,0.5,0.4
2023-05-10T07:00:00,1635A,118.3092,36.8194,淄博市,莆田园,颗粒物(PM10),79,107,73,44,30,226,17,10,10,69,48,37,20,2.8,1
2023-05-10T07:00:00,1637A,117.558,34.8438,枣庄市,市中区政府,颗粒物(PM10),89,127,65,39,24,179,41,75,57,68,34,17,14,0.5,0.4
2023-05-10T07:00:00,1638A,117.2852,34.7837,枣庄市,薛城环保局,颗粒物(PM10),56,61,60,29,25,164,60,81,36,61,43,14,11,0.5,0.4
2023-05-10T07:00:00,1639A,117.5852,34.7745,枣庄市,峄城区政府,颗粒物(PM10),85,119,73,39,24,177,18,23,16,78,39,18,15,0.4,0.3
2023-05-10T07:00:00,1640A,117.7276,34.5578,枣庄市,台儿庄区环保局,颗粒物(PM10),56,61,52,34,23,167,32,28,28,47,43,13,12,0.6,0.5
2023-05-10T07:00:00,1641A,117.4518,35.0992,枣庄市,山亭区环保局,颗粒物(PM10),51,51,42,24,19,173,68,92,77,30,18,11,10,0.2,0.2
2023-05-10T07:00:00,1642A,121.2514,37.5639,烟台市,开发区,颗粒物(PM10),62,73,64,39,32,169,12,10,10,83,62,6,7,0.9,0.7
2023-05-10T07:00:00,1643A,121.3719,37.5433,烟台市,轴承厂,颗粒物(PM10),58,66,61,33,35,175,39,77,62,49,28,2,5,0.7,0.6
2023-05-10T07:00:00,1644A,121.3181,37.5436,烟台市,西郊化工站,颗粒物(PM10),56,61,72,26,27,168,62,78,74,44,35,8,9,0.6,0.5
2023-05-10T07:00:00,1645A,121.4478,37.4822,烟台市,莱山环保局,颗粒物(PM10),64,78,81,33,39,193,16,38,34,59,48,10,13,0.6,0.6
2023-05-10T07:00:00,1646A,121.2611,37.4967,烟台市,福山环保局,颗粒物(PM10),73,95,82,36,33,180,12,31,25,61,50,11,13,0.5,0.4
2023-05-10T07:00:00,1650A,119.1437,36.7023,潍坊市,环保局,颗粒物(PM10),58,66,53,25,24,204,19,68,40,65,29,10,12,0.8,0.5
2023-05-10T07:00:00,1653A,116.6251,35.4302,济宁市,火炬城,细颗粒物(PM2.5),58,57,51,41,25,185,42,83,67,54,22,15,14,0.8,0.7
2023-05-10T07:00:00,1655A,116.5491,35.4042,济宁市,电化厂,颗粒物(PM10),71,91,69,39,29,176,17,38,28,74,34,9,10,0.8,0.6
2023-05-10T07:00:00,1656A,117.1437,36.1937,泰安市,监测站,颗粒物(PM10),69,88,64,49,41,208,23,82,58,72,31,6,9,0.8,0.6
2023-05-10T07:00:00,1657A,117.0885,36.2017,泰安市,人口学校,颗粒物(PM10),58,66,58,33,27,196,84,108,95,30,22,6,8,0.5,0.4
2023-05-10T07:00:00,1658A,117.1089,36.1758,泰安市,电力学校,颗粒物(PM10),82,114,74,54,34,192,16,70,27,87,40,13,12,0.8,0.6
2023-05-10T07:00:00,1659A,119.471,35.4209,日照市,监测站,,48,48,54,23,26,164,21,6,6,71,57,4,5,0.5,0.5
2023-05-10T07:00:00,1660A,119.523,35.4216,日照市,市政府广场,颗粒物(PM10),58,66,59,23,21,154,30,28,26,70,52,6,9,0.7,0.6
2023-05-10T07:00:00,1661A,119.5587,35.4044,日照市,港务局,颗粒物(PM10),58,66,73,31,24,154,25,17,17,77,68,8,11,0.8,0.7
2023-05-10T07:00:00,1662A,122.1214,37.4236,威海市,华夏技校,,27,27,56,15,31,186,80,130,108,20,28,5,8,0.5,0.6
2023-05-10T07:00:00,1663A,122.0508,37.5236,威海市,山大分校,颗粒物(PM10),53,56,67,22,28,165,73,100,88,45,34,6,6,0.5,0.6
2023-05-10T07:00:00,1664A,122.1067,37.5072,威海市,市监测站,颗粒物(PM10),53,56,70,24,40,176,41,93,72,63,37,8,9,0.6,0.7
2023-05-10T07:00:00,1666A,118.6614,37.4309,东营市,市环保局,,31,31,28,9,10,161,33,60,51,44,25,10,11,0.7,0.6
2023-05-10T07:00:00,1669A,113.5824,24.7733,韶关市,市八中,颗粒物(PM10),55,60,41,33,26,104,16,47,25,23,17,6,8,0.7,0.6
2023-05-10T07:00:00,1671A,113.5917,24.7972,韶关市,园林处,,43,41,36,30,26,100,15,51,25,22,11,32,14,0.7,0.7
2023-05-10T07:00:00,1672A,113.6735,24.7791,韶关市,韶关学院,,48,39,37,33,28,109,6,21,15,30,19,28,18,0.5,0.4
2023-05-10T07:00:00,1673A,113.5971,24.6863,韶关市,曲江监测站,细颗粒物(PM2.5),60,58,44,43,32,120,7,15,14,37,20,10,14,0.8,0.7
2023-05-10T07:00:00,1674A,116.6794,23.3667,汕头市,金平子站,,35,35,34,11,12,155,107,119,113,17,14,7,7,0.6,0.6
2023-05-10T07:00:00,1675A,116.7244,23.3633,汕头市,龙湖子站,,37,35,35,10,8,159,116,125,119,16,13,4,4,0.4,0.5
2023-05-10T07:00:00,1676A,116.7258,23.2775,汕头市,濠江子站,,35,30,34,10,10,145,109,121,115,11,8,9,8,0.5,0.5
2023-05-10T07:00:00,1677A,116.7519,23.4714,汕头市,澄海子站,,37,37,38,16,15,164,103,128,114,22,18,8,8,0.4,0.5
2023-05-10T07:00:00,1678A,116.6092,23.2539,汕头市,潮阳子站,,34,32,34,9,8,147,107,122,116,11,10,10,10,0.4,0.5
2023-05-10T07:00:00,1680A,110.3539,21.2706,湛江市,湛江影剧院,,34,4,26,8,10,125,108,114,111,4,7,5,6,0.5,0.6
2023-05-10T07:00:00,1681A,110.3928,21.2228,湛江市,市环境监测站,,33,10,25,5,14,125,104,110,106,6,8,5,6,0.4,0.5
2023-05-10T07:00:00,1682A,110.4019,21.1997,湛江市,环保局宿舍,,35,18,25,9,16,128,111,114,112,3,7,4,4,0.4,0.5
2023-05-10T07:00:00,1683A,110.4111,21.2028,湛江市,霞山游泳场,,37,11,22,7,14,136,116,118,116,4,7,4,5,0.5,0.6
2023-05-10T07:00:00,1684A,110.3316,21.2679,湛江市,麻章区环保局,,35,6,24,6,12,128,111,116,113,5,8,5,5,0.5,0.6
2023-05-10T07:00:00,1685A,110.4558,21.2567,湛江市,坡头区环保局,,36,9,24,7,13,132,113,118,115,4,6,6,6,0.5,0.6
2023-05-10T07:00:00,1686A,111.0286,21.4688,茂名市,电白南海,,23,22,27,12,20,117,73,103,87,8,8,6,6,0.6,0.6
2023-05-10T07:00:00,1687A,110.9294,21.6533,茂名市,茂石化七小,,26,22,30,11,18,120,81,90,87,7,10,7,5,0.6,0.6
2023-05-10T07:00:00,1688A,110.9107,21.6687,茂名市,健康路,,26,14,23,6,14,122,83,92,90,6,8,8,6,0.7,0.8
2023-05-10T07:00:00,1689A,110.8592,21.6828,茂名市,高岭,,45,36,38,31,30,118,85,92,90,21,16,13,11,0.8,0.8
2023-05-10T07:00:00,1690A,116.1231,24.3284,梅州市,梅江月梅,,39,39,31,26,23,88,72,88,80,7,9,6,6,0.5,0.5
2023-05-10T07:00:00,1691A,116.0797,24.2719,梅州市,梅县新城,,50,50,32,29,19,87,63,86,72,16,14,5,4,0.6,0.6
2023-05-10T07:00:00,1692A,116.1248,24.2654,梅州市,环境监控中心,,43,43,31,24,19,83,37,70,59,20,17,4,4,0.6,0.6
2023-05-10T07:00:00,1693A,115.3653,22.775,汕尾市,市环保局,,41,41,30,21,17,134,102,114,110,9,6,10,9,0.5,0.5
2023-05-10T07:00:00,1694A,115.3706,22.7898,汕尾市,市政府,,44,44,30,13,14,137,99,116,109,12,8,5,5,0.7,0.8
2023-05-10T07:00:00,1695A,115.3622,22.7925,汕尾市,新城中学,,39,39,33,19,16,132,99,114,107,7,6,7,7,0.7,0.7
2023-05-10T07:00:00,1696A,114.6778,23.7569,河源市,源西,,47,47,35,31,29,85,64,31,31,14,18,4,4,0.7,0.8
2023-05-10T07:00:00,1697A,114.6944,23.7586,河源市,东埔,,33,33,35,23,23,91,62,41,41,16,14,5,5,0.6,0.6
2023-05-10T07:00:00,1698A,114.6892,23.7233,河源市,老城,颗粒物(PM10),59,68,48,22,21,95,62,36,36,20,15,5,5,0.6,0.7
2023-05-10T07:00:00,1699A,111.9797,21.8593,阳江市,鸳鸯湖,,40,40,49,14,32,106,75,65,65,12,17,9,9,0.7,0.9
2023-05-10T07:00:00,1701A,111.9491,21.8658,阳江市,马南垌,,36,36,47,18,39,109,80,75,75,14,21,7,7,0.6,0.7
2023-05-10T07:00:00,1702A,113.0426,23.691,清远市,环保大楼,细颗粒物(PM2.5),65,52,44,47,37,114,32,38,37,28,21,7,8,0.7,0.8
2023-05-10T07:00:00,1703A,113.0208,23.7106,清远市,凤城街办,颗粒物(PM10),53,55,51,32,33,107,37,48,45,20,13,6,6,0.7,0.7
2023-05-10T07:00:00,1705A,116.6367,23.6719,潮州市,西园路,,40,40,39,24,21,131,66,103,85,23,16,8,6,0.4,0.5
2023-05-10T07:00:00,1706A,116.6447,23.6706,潮州市,档案局,颗粒物(PM10),51,51,41,21,18,152,80,116,97,17,10,24,9,0.4,0.4
2023-05-10T07:00:00,1708A,116.3701,23.5345,揭阳市,新兴,,47,47,40,28,23,142,91,109,102,16,15,17,10,0.5,0.6
2023-05-10T07:00:00,1709A,116.3264,23.5443,揭阳市,西马,,37,37,42,23,21,142,86,107,98,18,15,9,9,0.5,0.6
2023-05-10T07:00:00,1710A,116.3611,23.5626,揭阳市,东兴,,41,41,42,21,18,144,91,109,98,15,14,11,7,0.5,0.6
2023-05-10T07:00:00,1711A,116.4151,23.5294,揭阳市,渔湖,,47,47,39,27,18,146,82,108,98,18,12,14,9,0.5,0.5
2023-05-10T07:00:00,1712A,112.0392,22.9169,云浮市,新市府,,49,37,46,34,32,81,16,27,23,21,16,3,3,0.9,0.8
2023-05-10T07:00:00,1714A,112.0539,22.9539,云浮市,牧羊,"颗粒物(PM10),细颗粒物(PM2.5)",59,67,63,42,39,89,22,45,34,36,29,10,16,0.7,0.7
2023-05-10T07:00:00,1715A,102.575,24.3711,玉溪市,东风水库,,46,46,55,28,33,138,99,106,105,10,12,11,9,0.7,0.7
2023-05-10T07:00:00,1718A,115.4208,35.2464,菏泽市,气象局,颗粒物(PM10),75,100,78,39,25,165,58,72,54,58,31,16,10,0.6,0.5
2023-05-10T07:00:00,1719A,115.4747,35.2375,菏泽市,市政协,,,,,,,,,,,,,,,,
2023-05-10T07:00:00,1721A,113.3819,40.1097,大同市,果树场,细颗粒物(PM2.5),58,46,69,41,35,156,85,118,100,16,23,60,18,0.8,0.6
2023-05-10T07:00:00,1723A,113.2994,40.0758,大同市,云冈宾馆,颗粒物(PM10),57,64,67,29,27,162,60,117,96,41,26,21,12,0.8,0.6
2023-05-10T07:00:00,1724A,113.3444,40.0917,大同市,大同大学,颗粒物(PM10),54,57,62,19,23,165,60,119,98,37,21,31,13,0.9,0.6
2023-05-10T07:00:00,1725A,113.2661,40.1269,大同市,安家小村,,45,45,67,21,35,169,74,122,95,27,21,13,11,0.6,0.5
2023-05-10T07:00:00,1726A,113.2711,40.0844,大同市,教育学院,颗粒物(PM10),58,65,61,34,28,161,45,121,92,48,23,24,12,0.8,0.5
2023-05-10T07:00:00,1727A,113.1147,36.1547,长治市,清华站,颗粒物(PM10),53,55,48,34,27,156,102,114,99,21,20,13,11,0.9,0.7
2023-05-10T07:00:00,1728A,113.1031,36.1989,长治市,监测站,细颗粒物(PM2.5),67,56,43,48,27,144,92,110,107,24,19,16,10,0.8,0.6
2023-05-10T07:00:00,1730A,113.0886,36.2125,长治市,审计局,细颗粒物(PM2.5),77,64,43,56,31,145,63,102,95,44,22,21,13,0.8,0.6
2023-05-10T07:00:00,1731A,113.0844,36.1856,长治市,长治八中,颗粒物(PM10),59,67,60,35,22,150,98,106,103,19,18,13,10,0.7,0.7
2023-05-10T07:00:00,1733A,111.5531,36.0783,临汾市,临钢医院,细颗粒物(PM2.5),60,41,55,43,36,130,28,34,31,34,32,2,2,0.6,0.6
2023-05-10T07:00:00,1734A,111.5028,36.0714,临汾市,技工学校,颗粒物(PM10),54,57,50,21,26,151,29,54,38,37,28,4,5,0.8,0.8
2023-05-10T07:00:00,1736A,111.5018,36.0855,临汾市,市委,颗粒物(PM10),58,65,59,36,30,143,29,58,37,42,31,2,3,0.6,0.6
2023-05-10T07:00:00,1738A,113.5758,37.8572,阳泉市,市中心,颗粒物(PM10),63,75,55,33,22,159,41,48,47,50,36,19,18,1.0,0.8
2023-05-10T07:00:00,1739A,113.4894,37.8731,阳泉市,赛鱼,颗粒物(PM10),62,73,56,41,25,154,30,40,32,58,41,12,12,0.8,0.8
2023-05-10T07:00:00,1740A,113.5819,37.8486,阳泉市,南庄,颗粒物(PM10),72,94,73,34,32,160,14,96,63,68,30,31,18,1.1,0.7
2023-05-10T07:00:00,1742A,113.5614,37.8703,阳泉市,平坦,颗粒物(PM10),61,72,64,41,28,154,48,33,33,48,43,16,16,0.7,0.7
2023-05-10T07:00:00,1743A,113.5158,37.8392,阳泉市,大阳泉,细颗粒物(PM2.5),60,54,46,43,29,157,82,118,83,23,22,12,12,0.7,0.6
2023-05-10T07:00:00,1744A,118.9233,42.2816,赤峰市,松山一中,,46,46,37,16,17,105,35,50,47,44,39,14,15,0.6,0.6
2023-05-10T07:00:00,1745A,118.9576,42.2728,赤峰市,哈达街,,38,38,35,22,13,111,35,49,47,43,34,17,18,0.6,0.6
2023-05-10T07:00:00,1746A,118.8788,42.2554,赤峰市,天义路,,30,30,33,16,15,124,39,63,59,40,27,14,15,0.6,0.5
2023-05-10T07:00:00,1748A,123.044,41.1196,鞍山市,深沟寺,,46,46,40,18,14,103,90,75,75,23,17,19,14,1.1,0.8
2023-05-10T07:00:00,1749A,123.011,41.0931,鞍山市,太阳城,,49,49,34,19,12,106,83,66,66,29,19,18,13,1.1,0.8
2023-05-10T07:00:00,1750A,123.0485,41.1442,鞍山市,太平,颗粒物(PM10),52,53,43,19,14,100,69,62,62,46,28,26,16,1.3,0.8
2023-05-10T07:00:00,1751A,122.9642,41.0971,鞍山市,铁西三道街,颗粒物(PM10),52,54,52,18,16,102,83,65,65,31,34,15,21,1.1,1.2
2023-05-10T07:00:00,1752A,122.9341,41.0833,鞍山市,铁西工业园区,,48,48,44,15,18,101,87,65,65,25,33,18,15,1.1,0.9
2023-05-10T07:00:00,1753A,123.022,41.0821,鞍山市,明达新区,,48,48,42,18,13,103,84,74,74,32,20,19,13,1.3,0.7
2023-05-10T07:00:00,1754A,123.1289,41.0228,鞍山市,千山,,,,,,,,,,,,,,,,
2023-05-10T07:00:00,1755A,123.7977,41.8491,抚顺市,望花区,颗粒物(PM10),55,59,58,35,28,114,23,11,11,39,27,13,10,0.6,0.5
2023-05-10T07:00:00,1756A,123.9161,41.8822,抚顺市,顺城区,颗粒物(PM10),59,68,52,40,23,118,15,6,6,41,32,9,5,0.9,0.5
2023-05-10T07:00:00,1757A,124.0436,41.8611,抚顺市,东洲区,,45,45,44,24,19,122,24,38,23,25,18,6,5,0.4,0.2
2023-05-10T07:00:00,1758A,123.9247,41.8642,抚顺市,新抚区,细颗粒物(PM2.5),70,52,66,51,21,122,24,11,11,37,31,15,8,0.5,0.3
2023-05-10T07:00:00,1759A,124.0972,41.8961,抚顺市,大伙房水库,,48,42,31,33,17,123,39,49,36,18,16,8,8,0.5,0.4
2023-05-10T07:00:00,1760A,123.7086,41.8391,抚顺市,沈抚新城,细颗粒物(PM2.5),80,101,56,59,20,126,19,15,13,52,30,21,10,1.0,0.5
2023-05-10T07:00:00,1761A,123.8275,41.3064,本溪市,大峪,颗粒物(PM10),64,77,39,24,11,106,21,49,27,37,23,7,7,1.0,0.7
2023-05-10T07:00:00,1762A,123.7567,41.3325,本溪市,溪湖,颗粒物(PM10),66,81,66,33,19,105,16,9,9,42,35,18,11,1.5,0.8
2023-05-10T07:00:00,1763A,123.7169,41.3094,本溪市,彩屯,颗粒物(PM10),65,79,52,38,20,106,16,27,12,50,31,26,15,1.7,1.2
2023-05-10T07:00:00,1764A,123.7669,41.2864,本溪市,东明,颗粒物(PM10),54,57,53,34,20,106,18,13,12,49,40,15,12,1.1,0.6
2023-05-10T07:00:00,1765A,123.7992,41.2664,本溪市,新立屯,颗粒物(PM10),51,51,41,27,14,105,16,23,16,53,38,23,10,1.6,0.6
2023-05-10T07:00:00,1766A,123.8142,41.3472,本溪市,威宁,颗粒物(PM10),55,60,49,29,15,108,30,21,21,26,25,5,6,0.8,0.5
2023-05-10T07:00:00,1767A,121.1115,41.0879,锦州市,南山,细颗粒物(PM2.5),55,47,37,39,17,117,42,76,59,38,19,17,20,1.0,0.8
2023-05-10T07:00:00,1768A,121.0533,40.8434,锦州市,开发区,细颗粒物(PM2.5),102,83,56,76,16,132,70,31,31,54,38,34,16,1.1,0.6
2023-05-10T07:00:00,1769A,121.1836,41.1119,锦州市,百股街道,细颗粒物(PM2.5),67,78,46,48,15,119,40,91,64,47,21,20,14,0.7,0.4
2023-05-10T07:00:00,1770A,121.1178,41.1222,锦州市,天安街道,颗粒物(PM10),56,62,46,38,21,112,52,60,55,45,25,18,13,0.7,0.5
2023-05-10T07:00:00,1771A,121.1303,41.1386,锦州市,北湖公园,颗粒物(PM10),52,54,39,29,14,116,67,87,71,32,18,20,12,0.7,0.4
2023-05-10T07:00:00,1772A,126.54,43.8622,吉林市,哈达湾,颗粒物(PM10),54,58,36,22,11,97,56,85,69,30,10,25,8,0.9,0.5
2023-05-10T07:00:00,1773A,126.5844,43.8358,吉林市,东局子,颗粒物(PM10),59,68,30,19,15,97,35,83,54,36,13,10,7,0.7,0.5
2023-05-10T07:00:00,1774A,126.5052,43.8245,吉林市,电力学院,,39,39,45,14,13,169,56,84,51,31,13,26,8,0.7,0.5
2023-05-10T07:00:00,1775A,126.6133,43.8972,吉林市,江北,颗粒物(PM10),57,64,40,20,11,97,59,74,54,22,10,12,8,0.7,0.5
2023-05-10T07:00:00,1776A,126.555,43.8306,吉林市,江南公园,颗粒物(PM10),56,61,31,18,10,96,31,82,57,44,14,10,7,0.7,0.5
2023-05-10T07:00:00,1778A,126.7061,43.7133,吉林市,丰满,,26,26,26,11,9,96,59,64,58,11,5,7,5,0.4,0.4
2023-05-10T07:00:00,1779A,123.9305,47.3636,齐齐哈尔市,安居小区,,24,24,24,10,11,86,48,69,52,28,9,2,2,0.4,0.3
2023-05-10T07:00:00,1780A,123.9488,47.3386,齐齐哈尔市,中心广场,,35,27,20,24,6,86,59,67,56,15,10,5,5,0.3,0.3
2023-05-10T07:00:00,1781A,123.9483,47.3227,齐齐哈尔市,农牧车辆厂,,48,39,28,33,8,91,64,75,54,21,9,13,5,0.4,0.3
2023-05-10T07:00:00,1783A,123.945,47.2988,齐齐哈尔市,市环境监测站,颗粒物(PM10),53,56,34,33,14,88,54,75,52,22,8,6,3,0.3,0.3
2023-05-10T07:00:00,1784A,129.61,44.561,牡丹江市,环保大楼,,28,28,31,15,15,95,57,62,51,11,9,4,4,0.2,0.2
2023-05-10T07:00:00,1785A,129.6115,44.5782,牡丹江市,文化广场,,28,28,32,19,14,92,54,54,49,13,13,4,3,0.3,0.3
2023-05-10T07:00:00,1786A,129.5904,44.5963,牡丹江市,第一医院,,36,36,37,13,16,95,59,57,51,11,9,6,2,0.2,0.2
2023-05-10T07:00:00,1787A,129.6364,44.6075,牡丹江市,机车工厂,,,42,39,0,0,56,56,47,39,7,17,4,7,,
2023-05-10T07:00:00,1788A,129.6386,44.5462,牡丹江市,第一中学,,19,19,26,10,13,96,49,32,32,14,11,3,1,0.3,0.3
2023-05-10T07:00:00,1789A,124.81117,46.03138,大庆市,大同区,,29,29,25,10,8,93,63,59,57,9,8,5,4,0.2,0.2
2023-05-10T07:00:00,1790A,125.129,46.533,大庆市,龙凤区,,23,14,20,16,11,91,66,66,66,11,8,1,1,0.3,0.3
2023-05-10T07:00:00,1791A,124.902,46.408,大庆市,红岗区,,25,25,18,12,10,95,57,63,55,15,9,6,6,0.3,0.3
2023-05-10T07:00:00,1792A,125.153,46.586,大庆市,萨尔图区,,20,20,17,12,8,82,64,63,63,6,6,6,6,0.4,0.4
2023-05-10T07:00:00,1793A,124.9042,46.6215,大庆市,让胡路区,,19,19,18,12,12,86,55,54,49,14,8,7,6,0.3,0.3
2023-05-10T07:00:00,1794A,118.3606,31.3519,芜湖市,监测站,,43,43,45,24,25,160,79,120,98,40,29,10,9,0.6,0.5
2023-05-10T07:00:00,1795A,118.3714,31.4134,芜湖市,科创中心,,43,43,45,24,26,160,76,120,90,40,27,9,7,0.3,0.3
2023-05-10T07:00:00,1796A,118.3673,31.3131,芜湖市,四水厂,,45,45,52,22,26,165,96,129,105,28,23,11,11,0.5,0.5
2023-05-10T07:00:00,1798A,118.5092,31.6837,马鞍山市,湖东路四小,,45,40,40,31,24,157,56,88,71,36,23,6,5,0.7,0.6
2023-05-10T07:00:00,1799A,118.5024,31.6449,马鞍山市,开发区,,48,47,52,33,27,148,44,61,56,43,31,6,6,0.7,0.6
2023-05-10T07:00:00,1800A,118.5228,31.7231,马鞍山市,慈湖,,46,40,46,32,28,159,47,82,65,46,30,10,13,0.7,0.6
2023-05-10T07:00:00,1802A,118.6245,31.7241,马鞍山市,濮塘,,40,40,36,23,23,167,47,79,61,37,22,7,6,1.2,1
2023-05-10T07:00:00,1803A,115.9872,29.6815,九江市,十里,,40,40,50,25,29,183,99,117,114,22,22,12,14,0.5,0.5
2023-05-10T07:00:00,1804A,115.9584,29.7046,九江市,茅山头,,46,44,47,32,32,181,104,131,120,21,21,9,11,0.5,0.5
2023-05-10T07:00:00,1805A,115.9877,29.7295,九江市,西园,,40,38,43,28,27,176,108,126,115,18,19,8,8,0.5,0.5
2023-05-10T07:00:00,1806A,116.0172,29.6547,九江市,五七二七厂,,45,45,45,31,25,168,89,107,102,16,19,10,12,0.7,0.6
2023-05-10T07:00:00,1808A,115.9114,29.6038,九江市,综合工业园,,45,40,53,31,35,183,86,134,112,46,33,14,15,0.8,0.8
2023-05-10T07:00:00,1809A,116.0721,29.7535,九江市,石化总厂,,46,46,51,14,22,160,85,115,102,28,24,8,9,0.5,0.6
2023-05-10T07:00:00,1810A,115.9773,29.5698,九江市,庐山气象台,,39,39,38,23,29,157,114,124,122,5,10,6,6,0.7,0.9
2023-05-10T07:00:00,1812A,112.3931,34.6516,洛阳市,市委党校,,35,30,55,24,35,163,69,88,79,13,19,1,5,0.5,0.6
2023-05-10T07:00:00,1814A,112.4657,34.6871,洛阳市,豫西宾馆,,35,33,54,24,30,168,71,107,95,20,18,1,5,0.5,0.5
2023-05-10T07:00:00,1815A,112.494,34.6886,洛阳市,河南林校,,32,23,51,22,29,167,66,110,92,19,19,6,9,0.4,0.4
2023-05-10T07:00:00,1816A,112.3844,34.623,洛阳市,开发区管委会,,30,24,48,21,29,175,50,98,78,11,14,2,6,0.2,0.3
2023-05-10T07:00:00,1817A,112.4267,34.6258,洛阳市,市委新办公区,,32,24,50,22,33,174,48,114,86,15,18,5,9,0.2,0.2
2023-05-10T07:00:00,1818A,114.4839,36.0621,安阳市,棉研所,颗粒物(PM10),59,67,56,32,23,145,26,37,15,46,32,10,9,0.5,0.4
2023-05-10T07:00:00,1819A,114.3551,36.1017,安阳市,红庙街,颗粒物(PM10),59,67,67,33,26,154,27,41,31,60,35,4,6,0.6,0.5
2023-05-10T07:00:00,1820A,114.361,36.0681,安阳市,银杏小区,颗粒物(PM10),65,80,63,37,28,142,16,34,23,51,37,7,10,0.5,0.4
2023-05-10T07:00:00,1824A,114.3389,34.7781,开封市,肿瘤医院,细颗粒物(PM2.5),63,59,60,45,32,163,80,77,68,26,19,7,9,0.5,0.5
2023-05-10T07:00:00,1826A,114.2885,34.7965,开封市,世纪星幼儿园,细颗粒物(PM2.5),57,48,52,40,29,158,74,80,68,30,20,4,5,0.5,0.4
2023-05-10T07:00:00,1828A,113.227,35.2125,焦作市,市环保局,细颗粒物(PM2.5),55,57,58,39,28,167,44,104,73,33,21,6,9,0.5,0.4
2023-05-10T07:00:00,1830A,113.1992,35.2590,焦作市,影视城,颗粒物(PM10),51,51,44,35,21,164,68,130,108,21,12,16,10,0.9,0.6
2023-05-10T07:00:00,1832A,113.3257,33.742,平顶山市,新华旅馆,颗粒物(PM10),55,60,61,36,30,154,78,108,97,16,20,8,7,0.5,0.5
2023-05-10T07:00:00,1833A,113.2919,33.737,平顶山市,规划设计院,细颗粒物(PM2.5),58,58,60,41,33,153,60,75,70,15,20,6,8,0.4,0.4
2023-05-10T07:00:00,1834A,113.182,33.774,平顶山市,平顶山工学院,颗粒物(PM10),52,53,61,27,29,158,63,69,67,18,17,12,5,0.4,0.4
2023-05-10T07:00:00,1835A,111.1922,34.7752,三门峡市,市政府,,43,41,52,30,32,143,25,40,30,36,29,6,9,0.6,0.6
2023-05-10T07:00:00,1836A,111.1587,34.7942,三门峡市,开发区,颗粒物(PM10),60,69,69,42,38,140,38,49,47,26,25,6,8,0.5,0.5
2023-05-10T07:00:00,1838A,111.143,34.7955,三门峡市,风景区,,43,32,45,30,36,147,48,66,64,17,19,7,10,0.4,0.5
2023-05-10T07:00:00,1840A,111.2992,30.6981,宜昌市,白龙岗,,31,31,40,19,23,97,61,52,45,18,26,5,5,0.5,0.5
2023-05-10T07:00:00,1841A,111.3549,30.6465,宜昌市,伍家岗,,36,36,40,22,25,100,52,52,52,20,28,5,6,0.5,0.5
2023-05-10T07:00:00,1842A,111.2628,30.6961,宜昌市,点军区,,29,29,37,19,21,97,36,45,38,12,17,7,7,0.5,0.5
2023-05-10T07:00:00,1843A,111.3275,30.7819,宜昌市,夷陵区,,28,19,32,19,22,108,61,52,52,21,19,6,6,0.4,0.5
2023-05-10T07:00:00,1844A,112.2494,30.3197,荆州市,市图书馆,,45,41,43,31,26,160,78,107,88,19,21,6,7,0.5,0.4
2023-05-10T07:00:00,1845A,112.2008,30.3544,荆州市,市委党校,,38,38,42,24,27,164,66,98,78,18,18,7,8,0.6,0.6
2023-05-10T07:00:00,1847A,113.1094,29.3578,岳阳市,南湖风景区,,48,35,40,33,28,160,101,114,112,14,16,10,9,0.4,0.4
2023-05-10T07:00:00,1848A,113.1493,29.4251,岳阳市,城陵矶,,32,32,46,21,28,159,97,107,105,19,24,5,8,0.6,0.6
2023-05-10T07:00:00,1849A,113.1497,29.3575,岳阳市,开发区,,35,35,40,23,25,164,102,113,111,10,15,7,8,0.6,0.5
2023-05-10T07:00:00,1850A,113.2621,29.4758,岳阳市,云溪区,,45,33,44,31,27,173,92,118,107,10,19,10,9,0.6,0.5
2023-05-10T07:00:00,1851A,112.9943,29.4402,岳阳市,君山区,,46,35,43,32,33,164,108,114,111,13,21,6,8,0.4,0.4
2023-05-10T07:00:00,1852A,113.2117,29.355,岳阳市,金凤水库,,33,29,39,23,23,156,85,99,94,6,10,2,3,0.7,0.6
2023-05-10T07:00:00,1854A,111.6975,28.9703,常德市,市二中,,33,26,45,21,33,131,104,102,102,4,9,5,9,0.3,0.3
2023-05-10T07:00:00,1857A,111.7158,29.1456,常德市,白鹤山,,36,26,46,15,26,135,113,107,106,2,6,6,8,0.4,0.5
2023-05-10T07:00:00,1858A,110.5319,29.1217,张家界市,永定新区,,,30,49,24,36,124,99,113,110,14,21,,4,0.2,0.3
2023-05-10T07:00:00,1859A,110.4697,29.1242,张家界市,电业局,,32,29,46,22,34,113,102,101,101,14,20,3,3,0.3,0.3
2023-05-10T07:00:00,1860A,110.5594,29.3547,张家界市,未央路,,33,30,37,23,26,115,100,104,103,9,13,2,3,0.2,0.2
2023-05-10T07:00:00,1861A,110.4417,29.315,张家界市,袁家界,,42,14,26,9,19,142,132,137,135,5,9,7,7,0.4,0.5
2023-05-10T07:00:00,1862A,110.4144,25.3167,桂林市,电子科大尧山校区,,32,20,37,22,28,94,55,51,51,6,8,3,4,0.7,0.7
2023-05-10T07:00:00,1863A,110.2819,25.2697,桂林市,监测站,,28,28,44,12,34,102,67,72,68,12,16,6,9,0.6,0.5
2023-05-10T07:00:00,1864A,110.3089,25.2708,桂林市,龙隐路小学,,33,30,40,23,32,100,61,67,61,10,11,6,12,0.5,0.4
2023-05-10T07:00:00,1865A,110.2869,25.2178,桂林市,八中,,30,30,42,20,32,97,50,70,61,18,16,4,7,0.4,0.4
2023-05-10T07:00:00,1866A,109.2262,21.588,北海市,牛尾岭水库,,15,15,21,7,12,35,26,30,28,9,8,6,7,0.7,0.7
2023-05-10T07:00:00,1867A,109.1436,21.4086,北海市,海滩公园,,30,21,29,7,13,121,96,100,99,5,7,2,3,0.5,0.6
2023-05-10T07:00:00,1868A,109.0981,21.4661,北海市,新市环保局,,30,10,27,14,15,114,95,98,98,5,8,2,2,0.5,0.6
2023-05-10T07:00:00,1869A,109.1778,21.5233,北海市,北海工业园,,30,12,30,5,17,113,93,99,97,5,8,3,5,0.6,0.7
2023-05-10T07:00:00,1870A,109.4856,24.3895,柳州市,柳东小学,,32,22,39,22,33,75,46,52,47,5,7,5,7,0.5,0.5
2023-05-10T07:00:00,1871A,109.4157,24.3277,柳州市,环保监测站,,39,17,49,27,36,66,36,42,39,11,18,3,7,0.6,0.7
2023-05-10T07:00:00,1872A,109.389,24.341,柳州市,河西水厂,,23,23,50,15,33,55,27,33,32,14,18,5,6,1.1,1.2
2023-05-10T07:00:00,1873A,109.4311,24.2921,柳州市,市四中,,39,26,50,27,33,73,33,40,38,10,15,7,9,0.8,0.9
2023-05-10T07:00:00,1874A,109.4006,24.3631,柳州市,市九中,,24,24,52,16,36,73,38,36,36,9,16,4,7,0.5,0.6
2023-05-10T07:00:00,1875A,109.4958,24.3134,柳州市,古亭山,,32,22,44,22,33,75,30,36,35,12,11,2,4,0.6,0.6
2023-05-10T07:00:00,1876A,109.5078,18.2489,三亚市,河东子站,,12,12,14,6,6,76,36,51,44,5,4,2,2,0.5,0.4
2023-05-10T07:00:00,1877A,109.4964,18.2681,三亚市,河西子站,,10,10,12,4,6,73,31,53,42,9,6,2,2,0.3,0.3
2023-05-10T07:00:00,1878A,104.7778,31.4741,绵阳市,富乐山,,12,11,9,8,4,59,8,42,28,12,9,2,3,0.6,0.5
2023-05-10T07:00:00,1879A,104.7563,31.4535,绵阳市,市人大,,14,14,11,8,6,48,21,36,29,19,18,3,2,0.3,0.3
2023-05-10T07:00:00,1880A,104.6697,31.4668,绵阳市,高新区自来水公司,,20,20,10,12,3,58,6,38,30,27,14,5,5,0.5,0.5
2023-05-10T07:00:00,1881A,104.7287,31.5075,绵阳市,三水厂,,23,17,10,16,8,62,2,14,12,30,17,5,4,0.6,0.4
2023-05-10T07:00:00,1882A,104.563,28.793,宜宾市,石马中学,,20,17,17,14,12,72,59,57,57,10,11,2,2,0.5,0.5
2023-05-10T07:00:00,1883A,104.6201,28.7728,宜宾市,市委,,26,21,23,18,19,59,55,51,51,10,14,6,6,0.6,0.6
2023-05-10T07:00:00,1884A,104.6055,28.793,宜宾市,宜宾四中,,29,23,25,20,18,64,44,51,50,23,19,7,5,0.5,0.5
2023-05-10T07:00:00,1885A,104.639,28.7562,宜宾市,市政府,,20,14,23,14,19,68,63,56,56,8,15,6,5,0.5,0.6
2023-05-10T07:00:00,1886A,104.5742,28.7199,宜宾市,黄金嘴,,18,13,16,12,14,75,57,56,55,12,14,6,5,0.4,0.4
2023-05-10T07:00:00,1888A,101.6891,26.571,攀枝花市,弄弄坪,颗粒物(PM10),57,63,52,31,28,135,86,92,91,17,21,10,27,0.8,1.7
2023-05-10T07:00:00,1889A,101.5769,26.5928,攀枝花市,河门口,颗粒物(PM10),52,54,45,35,25,145,77,108,101,18,13,11,10,0.8,0.6
2023-05-10T07:00:00,1890A,101.7169,26.585,攀枝花市,炳草岗,,46,46,40,32,24,140,72,109,83,26,21,8,13,0.8,0.8
2023-05-10T07:00:00,1891A,101.7369,26.5008,攀枝花市,仁和,颗粒物(PM10),55,60,42,36,24,147,69,81,79,20,14,7,6,0.7,0.6
2023-05-10T07:00:00,1893A,105.4324,28.9634,泸州市,九狮山,,38,38,31,24,20,64,20,25,24,12,15,5,7,0.2,0.3
2023-05-10T07:00:00,1894A,105.4427,28.9063,泸州市,小市上码头,颗粒物(PM10),51,51,37,31,24,56,35,44,42,16,17,8,9,0.6,0.6
2023-05-10T07:00:00,1895A,105.4241,28.8573,泸州市,兰田宪桥,颗粒物(PM10),52,54,36,31,23,60,42,43,42,11,13,5,7,0.7,0.7
2023-05-10T07:00:00,1896A,105.4379,28.8833,泸州市,市环监站,,39,39,30,19,16,54,29,37,36,17,20,3,6,0.7,0.6
2023-05-10T07:00:00,1901A,104.4239,31.1208,德阳市,东山公园,,12,8,10,8,7,57,28,47,44,20,11,3,3,0.5,0.5
2023-05-10T07:00:00,1902A,104.3826,31.1317,德阳市,西小区,,28,28,20,13,8,48,18,38,34,22,14,1,3,0.5,0.4
2023-05-10T07:00:00,1904A,104.3553,31.1091,德阳市,耐火材料厂,,22,20,9,15,8,54,23,39,31,18,11,2,2,0.4,0.4
2023-05-10T07:00:00,1905A,106.056,30.8064,南充市,西山风景区,,17,11,14,8,12,60,54,44,44,3,7,4,4,0.4,0.4
2023-05-10T07:00:00,1906A,106.0789,30.8023,南充市,南充市委,,15,14,26,10,14,63,48,43,43,11,14,8,8,0.4,0.5
2023-05-10T07:00:00,1907A,106.1031,30.8217,南充市,南充炼油厂,,23,23,24,9,10,64,46,46,43,9,10,8,8,0.4,0.4
2023-05-10T07:00:00,1908A,106.1064,30.7856,南充市,高坪区监测站,,16,15,22,5,13,65,49,51,47,9,12,7,7,0.4,0.5
2023-05-10T07:00:00,1909A,106.0642,30.7636,南充市,嘉陵区环保局,,20,20,21,12,15,70,48,51,50,15,16,6,6,0.4,0.5
2023-05-10T07:00:00,1910A,106.1087,30.8388,南充市,市环境监测站,,22,20,25,15,19,64,47,33,33,9,14,7,7,0.5,0.5
2023-05-10T07:00:00,1911A,106.9222,27.6869,遵义市,丁字口,,26,8,13,18,19,65,44,57,53,15,15,6,6,0.5,0.6
2023-05-10T07:00:00,1912A,106.9242,27.7019,遵义市,凤凰山,,19,16,21,7,6,78,59,70,67,12,12,6,5,0.5,0.5
2023-05-10T07:00:00,1913A,106.8906,27.6486,遵义市,忠庄,,17,11,17,10,10,64,53,56,55,10,13,2,1,0.2,0.2
2023-05-10T07:00:00,1914A,106.9231,27.6506,遵义市,舟水桥,,19,11,12,8,15,69,58,60,57,3,9,1,1,0.2,0.2
2023-05-10T07:00:00,1915A,106.9178,27.72,遵义市,干田坝,,17,17,19,6,13,79,49,75,64,13,12,4,4,0.6,0.6
2023-05-10T07:00:00,1916A,103.7897,25.5035,曲靖市,环境监测站,,44,41,50,29,27,164,139,133,133,13,12,5,3,0.8,0.7
2023-05-10T07:00:00,1917A,103.8,25.5364,曲靖市,烟厂办公区,,46,46,50,27,24,163,70,104,90,14,9,10,5,0.9,0.7
2023-05-10T07:00:00,1918A,108.7197,34.3956,咸阳市,气象站,,40,38,39,28,26,104,36,70,37,15,27,4,5,0.9,0.8
2023-05-10T07:00:00,1919A,108.673,34.3155,咸阳市,实验中学,颗粒物(PM10),57,64,47,31,26,110,42,92,47,14,21,3,4,0.7,0.8
2023-05-10T07:00:00,1920A,108.7233,34.3617,咸阳市,师范学院,,41,41,42,28,26,100,50,79,49,19,25,6,6,0.8,0.7
2023-05-10T07:00:00,1922A,109.0656,35.0994,铜川市,党校,,34,34,34,23,22,122,20,34,27,25,19,9,9,0.7,0.7
2023-05-10T07:00:00,1923A,109.0697,35.0697,铜川市,王益区政府,,36,35,34,25,24,124,29,64,43,22,14,5,5,0.5,0.5
2023-05-10T07:00:00,1924A,108.9344,34.9058,铜川市,新区管委会,,36,35,39,25,26,106,57,97,74,20,23,7,8,0.6,0.6
2023-05-10T07:00:00,1926A,109.4131,36.6275,延安市,枣园,,23,22,38,16,19,113,51,33,33,18,26,9,10,0.4,0.5
2023-05-10T07:00:00,1927A,109.4761,36.6028,延安市,延大医附院,,36,30,45,25,28,118,40,41,41,29,34,4,5,0.5,0.5
2023-05-10T07:00:00,1929A,109.5056,36.6106,延安市,百米大道,,35,30,46,24,27,106,55,40,40,26,35,7,10,0.6,0.6
2023-05-10T07:00:00,1930A,107.185,34.3063,宝鸡市,庙沟村,,21,12,24,14,16,84,65,83,77,3,10,6,6,0.3,0.4
2023-05-10T07:00:00,1931A,107.0708,34.3017,宝鸡市,竹园沟,,20,15,30,14,18,102,38,102,77,17,18,4,4,0.5,0.5
2023-05-10T07:00:00,1932A,107.1906,34.3672,宝鸡市,三陆医院,,45,42,39,31,26,106,42,104,74,33,23,5,6,0.6,0.6
2023-05-10T07:00:00,1933A,107.1431,34.3547,宝鸡市,监测站,,39,33,35,27,25,106,74,101,90,21,21,5,6,0.5,0.5
2023-05-10T07:00:00,1934A,107.1186,34.3739,宝鸡市,技工学校,,43,25,31,30,26,100,74,99,92,19,20,4,5,0.5,0.6
2023-05-10T07:00:00,1935A,107.3906,34.3528,宝鸡市,陈仓区环保局家属楼,,40,37,37,28,25,96,88,84,84,20,23,4,5,0.6,0.5
2023-05-10T07:00:00,1936A,107.2058,34.3497,宝鸡市,文理学院,,38,38,37,25,24,107,77,98,91,15,20,8,8,0.7,0.7
2023-05-10T07:00:00,1937A,107.2386,34.3622,宝鸡市,三迪小学,细颗粒物(PM2.5),54,32,39,38,36,105,80,102,97,21,23,5,6,0.4,0.5
2023-05-10T07:00:00,1938A,109.5293,34.5101,渭南市,农科所,细颗粒物(PM2.5),67,66,53,48,37,101,24,32,29,38,24,7,6,0.9,0.7
2023-05-10T07:00:00,1939A,109.4974,34.4877,渭南市,日报社,颗粒物(PM10),64,78,56,45,39,118,10,23,17,51,31,5,5,0.7,0.6
2023-05-10T07:00:00,1940A,109.4636,34.493,渭南市,体育馆,细颗粒物(PM2.5),77,73,54,56,39,119,8,22,18,56,29,9,7,0.7,0.6
2023-05-10T07:00:00,1941A,109.4259,34.5023,渭南市,高新一小,细颗粒物(PM2.5),79,73,57,58,38,111,9,40,20,50,24,2,3,0.7,0.6
2023-05-10T07:00:00,1943A,102.1725,38.5339,金昌市,新川苑,颗粒物(PM10),58,66,52,26,14,131,112,107,107,9,14,8,8,0.5,0.5
2023-05-10T07:00:00,1944A,102.1692,38.5167,金昌市,天庆家园,颗粒物(PM10),54,57,36,21,14,136,114,119,113,11,11,5,5,0.7,0.5
2023-05-10T07:00:00,1945A,98.2908,39.7711,嘉峪关市,气象局,颗粒物(PM10),54,58,85,27,24,120,93,107,97,12,10,18,15,0.3,0.4
2023-05-10T07:00:00,1947A,106.3394,38.817,石嘴山市,沙湖旅游区,,43,40,27,30,18,116,63,85,75,21,17,19,17,0.8,0.6
2023-05-10T07:00:00,1948A,106.3668,39.0145,石嘴山市,大武口朝阳西街,,46,30,27,32,19,113,79,84,83,13,17,15,11,0.6,0.5
2023-05-10T07:00:00,1949A,106.7704,39.2282,石嘴山市,惠农南大街,,40,28,28,28,16,119,49,95,80,27,17,10,11,0.6,0.6
2023-05-10T07:00:00,1950A,106.7099,39.1325,石嘴山市,红果子镇惠新街,,38,30,25,26,18,118,40,93,75,31,15,5,6,0.5,0.5
2023-05-10T07:00:00,1951A,84.895,45.6094,克拉玛依市,长征新村,,27,27,31,7,7,120,79,101,84,6,8,7,8,0.2,0.2
2023-05-10T07:00:00,1952A,84.8988,45.5893,克拉玛依市,南林小区,,32,24,32,22,19,118,70,96,76,6,11,3,4,0.2,0.2
2023-05-10T07:00:00,1954A,84.905,44.3396,克拉玛依市,独山子区,,34,18,26,11,12,124,106,110,108,2,5,6,6,0.2,0.3
2023-05-10T07:00:00,1955A,85.6979,46.098,克拉玛依市,乌尔禾区商贸楼,,24,24,33,8,8,120,51,66,64,3,9,6,7,0.1,0.2
2023-05-10T07:00:00,1956A,86.1472,41.7538,巴音郭楞州,孔雀公园,颗粒物(PM10),59,67,74,13,24,136,77,85,84,20,26,4,4,0.4,0.4
2023-05-10T07:00:00,1957A,86.1972,41.7166,巴音郭楞州,棉纺厂,颗粒物(PM10),52,53,81,29,27,128,68,71,71,20,25,3,3,0.4,0.4
2023-05-10T07:00:00,1958A,86.2357,41.7173,巴音郭楞州,经济开发区,,30,20,63,19,23,137,95,92,92,5,14,6,6,0.3,0.3
2023-05-10T07:00:00,1961A,117.532,36.6868,济南市,东山小学,颗粒物(PM10),66,81,87,32,26,218,43,59,32,67,43,7,10,0.6,0.5
2023-05-10T07:00:00,1966A,120.0405,35.8735,青岛市,黄岛区4号,颗粒物(PM10),64,78,61,36,25,173,85,92,91,37,35,11,10,0.7,0.8
2023-05-10T07:00:00,1982A,122.0693,37.2174,威海市,文登开发区,颗粒物(PM10),69,88,84,48,42,201,40,112,79,46,28,7,9,0.7,0.6
2023-05-10T07:00:00,2031A,113.1817,27.9958,株洲市,云田中学,细颗粒物(PM2.5),69,46,48,50,36,149,81,93,80,12,19,5,7,0.5,0.5
2023-05-10T07:00:00,2054A,114.1099,32.1059,信阳市,平桥分局,细颗粒物(PM2.5),55,53,52,39,37,176,73,106,81,25,22,8,9,0.7,0.6
2023-05-10T07:00:00,2064A,113.9956,32.1271,信阳市,南湾水厂,颗粒物(PM10),53,55,55,27,26,167,65,101,81,9,11,6,7,0.6,0.5
2023-05-10T07:00:00,2065A,114.0775,32.1195,信阳市,市酿酒公司,颗粒物(PM10),55,60,55,34,33,179,58,84,69,20,17,7,9,0.6,0.5
2023-05-10T07:00:00,2066A,114.0609,32.1399,信阳市,审计局,,,,,,,,,,,,,,,,
2023-05-10T07:00:00,2067A,114.6613,33.6128,周口市,市环境监测站,细颗粒物(PM2.5),58,63,68,41,32,153,72,98,84,28,16,25,12,0.5,0.4
2023-05-10T07:00:00,2068A,114.6758,33.6347,周口市,周口师范,,39,34,47,27,27,149,91,55,55,22,20,13,14,0.4,0.4
2023-05-10T07:00:00,2069A,114.6546,33.5979,周口市,市运管处,颗粒物(PM10),51,52,52,34,25,154,73,111,94,30,17,31,16,0.3,0.2
2023-05-10T07:00:00,2070A,114.6369,33.6406,周口市,川汇区环保局,颗粒物(PM10),54,58,51,36,27,148,77,57,57,22,19,20,15,0.9,0.6
2023-05-10T07:00:00,2075A,117.6336,24.4674,漳州市,九湖,,,,,,,,,,,,,,,,
2023-05-10T07:00:00,2160A,112.85,35.5051,晋城市,自来水公司,,,56,50,,24,167,85,100,93,27,20,9,8,0.6,0.4
2023-05-10T07:00:00,2161A,112.8318,35.4936,晋城市,白云商贸,颗粒物(PM10),59,68,55,31,24,154,68,93,77,29,20,7,8,0.7,0.5
2023-05-10T07:00:00,2162A,112.8508,35.4887,晋城市,市环保局,颗粒物(PM10),65,79,56,36,25,163,37,112,64,66,28,6,7,0.5,0.4
2023-05-10T07:00:00,2163A,112.8676,35.4897,晋城市,技术学院,颗粒物(PM10),61,72,47,34,23,159,48,108,72,51,24,9,9,0.4,0.4
2023-05-10T07:00:00,2165A,112.8453,35.546,晋城市,白马寺,,,,,,,,,,,,,,,,
2023-05-10T07:00:00,2166A,112.4397,39.3522,朔州市,平朔,细颗粒物(PM2.5),52,41,54,36,25,156,74,71,70,14,19,10,9,0.4,0.4
2023-05-10T07:00:00,2167A,112.4575,39.3617,朔州市,朔唯,颗粒物(PM10),59,68,54,38,27,159,75,89,75,20,21,13,12,0.5,0.5
2023-05-10T07:00:00,2168A,112.4258,39.3197,朔州市,区政府,,49,49,55,29,21,158,73,89,74,13,12,7,6,0.7,0.5
2023-05-10T07:00:00,2169A,112.4072,39.3278,朔州市,市环保局,,45,45,52,30,25,156,65,93,78,22,19,6,7,0.5,0.5
2023-05-10T07:00:00,2170A,112.4272,39.3681,朔州市,市二中,细颗粒物(PM2.5),57,54,62,40,26,158,65,64,64,17,19,8,7,0.4,0.4
2023-05-10T07:00:00,2171A,112.7532,37.6945,晋中市,锦纶小区,颗粒物(PM10),56,61,70,33,32,184,28,64,50,32,32,10,13,0.4,0.5
2023-05-10T07:00:00,2173A,112.7249,37.7067,晋中市,南都小区,颗粒物(PM10),61,71,71,34,32,185,51,74,71,30,28,12,13,0.8,0.9
2023-05-10T07:00:00,2174A,112.6991,37.6982,晋中市,榆次区政府,颗粒物(PM10),68,85,85,35,27,179,52,59,56,29,31,13,14,0.6,0.7
2023-05-10T07:00:00,2175A,110.9956,35.0147,运城市,运城中学,,,,,,,,,,,,,,,,
2023-05-10T07:00:00,2178A,110.9686,35.0303,运城市,地区技校,颗粒物(PM10),65,79,60,32,25,157,72,117,75,23,14,15,7,0.7,0.6
2023-05-10T07:00:00,2179A,111.0414,35.1147,运城市,空港新区,颗粒物(PM10),62,74,66,43,34,151,36,58,40,28,20,14,10,0.8,0.7
2023-05-10T07:00:00,2181A,112.7383,38.4519,忻州市,开发区,颗粒物(PM10),52,54,57,23,25,148,39,74,42,39,34,9,11,0.6,0.6
2023-05-10T07:00:00,2182A,112.7003,38.4928,忻州市,会展中心,,48,48,57,14,24,135,25,48,36,55,40,7,9,0.6,0.6
2023-05-10T07:00:00,2183A,111.1406,37.5211,吕梁市,环保局,,,82,87,,28,101,14,51,28,54,44,7,9,0.4,0.6
2023-05-10T07:00:00,2185A,111.1297,37.5136,吕梁市,自来水公司,颗粒物(PM10),67,83,77,24,22,115,19,45,30,46,35,8,9,0.5,0.6
2023-05-10T07:00:00,2187A,106.8174,39.6973,乌海市,市林业局,颗粒物(PM10),56,62,49,23,20,135,53,96,78,17,19,12,16,0.8,0.6
2023-05-10T07:00:00,2188A,106.7907,39.6667,乌海市,中海勃湾学校,颗粒物(PM10),65,79,45,32,24,135,54,66,57,33,26,14,12,0.7,0.5
2023-05-10T07:00:00,2191A,122.2532,43.6801,通辽市,艺术职业学校,颗粒物(PM10),56,62,44,18,12,105,56,69,56,15,14,5,9,0.3,0.3
2023-05-10T07:00:00,2192A,119.7594,49.2261,呼伦贝尔市,区环保局,,40,40,44,26,34,103,49,73,61,23,11,16,6,0.3,0.3
2023-05-10T07:00:00,2195A,107.4212,40.761,巴彦淖尔市,附二中,,39,39,39,22,16,132,69,104,90,16,14,2,3,0.7,0.6
2023-05-10T07:00:00,2196A,107.37,40.7372,巴彦淖尔市,市环保大楼,,50,50,48,32,26,135,76,111,95,8,9,3,4,0.5,0.5
2023-05-10T07:00:00,2197A,113.1306,40.9923,乌兰察布市,集宁新区,颗粒物(PM10),61,71,48,43,26,170,77,129,111,26,16,13,14,0.5,0.5
2023-05-10T07:00:00,2200A,122.0392,46.0656,兴安盟,胜华新制药厂,颗粒物(PM10),55,60,35,27,19,100,18,32,20,30,16,3,3,0.3,0.4
2023-05-10T07:00:00,2201A,121.9504,46.0741,兴安盟,科右前旗环保局,颗粒物(PM10),72,94,37,31,19,101,18,46,26,53,21,5,4,0.8,0.5
2023-05-10T07:00:00,2202A,116.1042,43.9317,锡林郭勒盟,市环保监测站,,28,28,34,11,12,114,46,52,44,18,13,11,12,0.2,0.2
2023-05-10T07:00:00,2203A,116.0781,43.9311,锡林郭勒盟,市政府,细颗粒物(PM2.5),52,19,20,36,10,115,34,34,33,31,19,10,10,0.2,0.2
2023-05-10T07:00:00,2204A,105.6467,38.8363,阿拉善盟,西城区西花园,,29,23,25,20,21,124,85,116,97,10,9,8,8,0.6,0.6
2023-05-10T07:00:00,2205A,105.6985,38.8411,阿拉善盟,蒙二幼,,30,12,13,16,22,129,95,123,109,7,8,10,10,0.4,0.5
2023-05-10T07:00:00,2206A,105.724,38.8516,阿拉善盟,环保局新楼,,31,17,35,19,22,130,99,128,114,5,7,7,7,0.4,0.5
2023-05-10T07:00:00,2207A,121.6094,41.998,阜新市,工业园区,颗粒物(PM10),62,73,48,42,16,108,25,49,24,30,15,13,12,0.5,0.3
2023-05-10T07:00:00,2208A,121.6697,42.0279,阜新市,长青街,颗粒物(PM10),76,102,42,38,22,108,19,65,30,42,18,13,12,0.9,0.6
2023-05-10T07:00:00,2209A,121.6673,42.0705,阜新市,农业园区,,35,32,33,24,21,106,61,67,66,20,14,19,16,0.8,0.4
2023-05-10T07:00:00,2210A,121.6717,42.0224,阜新市,东苑,颗粒物(PM10),66,82,46,45,21,102,20,65,42,46,17,18,18,1.1,0.7
2023-05-10T07:00:00,2211A,121.6506,42.0498,阜新市,玉龙新城,颗粒物(PM10),83,116,49,29,18,103,12,22,11,36,19,12,10,0.9,0.8
2023-05-10T07:00:00,2212A,123.2,41.1953,辽阳市,宏伟区,,42,42,34,14,10,204,74,65,65,25,18,18,14,0.9,0.6
2023-05-10T07:00:00,2213A,123.1683,41.2495,辽阳市,新华园,颗粒物(PM10),53,56,43,26,17,93,33,40,39,49,26,24,18,1.4,0.6
2023-05-10T07:00:00,2214A,123.2354,41.2639,辽阳市,滨河路,颗粒物(PM10),51,52,36,31,16,94,41,54,49,43,23,11,8,0.8,0.6
2023-05-10T07:00:00,2215A,123.149,41.2991,辽阳市,铁西工业园,颗粒物(PM10),63,75,65,39,29,98,64,30,30,37,37,25,14,1.6,0.9
2023-05-10T07:00:00,2216A,123.8139,42.3022,铁岭市,汇工街西,细颗粒物(PM2.5),83,82,51,61,23,106,19,32,18,51,26,32,14,0.9,0.5
2023-05-10T07:00:00,2217A,123.8649,42.2923,铁岭市,水上乐园,,48,48,38,31,15,105,20,47,36,43,23,14,7,0.7,0.3
2023-05-10T07:00:00,2218A,123.8486,42.2867,铁岭市,银州路东段,颗粒物(PM10),67,84,43,34,17,101,18,44,29,58,28,18,10,0.7,0.4
2023-05-10T07:00:00,2219A,123.7153,42.2217,铁岭市,金沙江路北,"颗粒物(PM10),细颗粒物(PM2.5)",69,88,42,50,22,102,18,46,26,63,30,36,11,0.8,0.4
2023-05-10T07:00:00,2220A,120.4318,41.5881,朝阳市,西梁,"颗粒物(PM10),细颗粒物(PM2.5)",63,76,40,45,15,109,35,83,72,48,16,18,11,1.1,0.6
2023-05-10T07:00:00,2221A,120.4521,41.5646,朝阳市,河畔小区,,50,50,37,22,12,116,80,92,87,28,13,14,13,1.0,0.6
2023-05-10T07:00:00,2222A,120.4176,41.5648,朝阳市,八里堡,细颗粒物(PM2.5),78,64,39,57,17,116,65,83,79,41,20,15,10,1.1,0.7
2023-05-10T07:00:00,2223A,120.3806,41.5969,朝阳市,农业园区,颗粒物(PM10),58,66,44,37,14,118,59,96,81,34,18,14,11,1.0,0.6
2023-05-10T07:00:00,2225A,124.4002,43.1713,四平市,一商场,颗粒物(PM10),60,70,40,24,19,102,28,63,33,38,22,9,7,0.4,0.3
2023-05-10T07:00:00,2226A,124.388,43.193,四平市,境园,颗粒物(PM10),56,62,37,29,16,95,23,66,27,34,17,8,6,0.2,0.2
2023-05-10T07:00:00,2227A,125.1358,42.8845,辽源市,环保局,,40,40,27,28,15,106,40,42,34,31,21,9,9,0.6,0.5
2023-05-10T07:00:00,2229A,125.9358,41.7173,通化市,光明,,32,32,35,16,12,110,20,36,24,29,20,27,13,1.1,0.5
2023-05-10T07:00:00,2230A,125.9446,41.7325,通化市,铁路,颗粒物(PM10),51,51,37,20,15,111,18,22,19,34,26,32,14,1.0,0.3
2023-05-10T07:00:00,2231A,126.4219,41.9171,白山市,喜丰,颗粒物(PM10),59,67,67,20,17,90,18,23,18,34,28,21,13,1.2,1.2
2023-05-10T07:00:00,2232A,126.4077,41.9419,白山市,环保局,颗粒物(PM10),64,77,59,26,16,110,24,36,27,28,17,14,10,0.8,0.7
2023-05-10T07:00:00,2233A,124.8006,45.1214,松原市,江南,,24,19,23,10,9,98,74,57,57,8,10,3,5,0.3,0.3
2023-05-10T07:00:00,2234A,124.7965,45.1722,松原市,江北,,32,32,25,15,11,103,68,50,50,15,12,4,4,0.5,0.3
2023-05-10T07:00:00,2235A,122.7911,45.6077,白城市,洮北区环保局,,20,20,25,11,10,112,49,58,56,27,13,9,6,0.2,0.2
2023-05-10T07:00:00,2236A,122.8738,45.5725,白城市,市环保局,,35,35,32,11,11,105,60,69,63,21,11,5,3,0.3,0.2
2023-05-10T07:00:00,2237A,129.47,42.8883,延边朝鲜族自治州,妇幼医院,,28,28,34,9,6,103,64,91,71,17,9,8,7,0.5,0.4
2023-05-10T07:00:00,2238A,129.5055,42.9108,延边朝鲜族自治州,延边医院,,25,25,54,6,6,97,62,86,69,19,9,7,7,0.4,0.4
2023-05-10T07:00:00,2239A,129.3964,42.8881,延边朝鲜族自治州,朝阳川镇医院,,28,28,34,10,6,104,72,91,67,10,7,7,6,0.5,0.4
2023-05-10T07:00:00,2240A,130.9762,45.3001,鸡西市,环保局,,20,20,31,12,7,86,58,60,57,11,8,6,4,0.1,0.1
2023-05-10T07:00:00,2243A,130.9429,45.3039,鸡西市,第一中学,,23,23,29,6,9,86,55,44,44,7,8,6,4,0.3,0.2
2023-05-10T07:00:00,2244A,130.2537,47.3416,鹤岗市,哈啤分公司,,19,10,17,6,11,75,58,62,60,4,4,9,10,0.2,0.2
2023-05-10T07:00:00,2245A,130.2684,47.3086,鹤岗市,斯达机电,,18,12,20,8,15,73,55,61,59,6,5,6,6,0.1,0.1
2023-05-10T07:00:00,2246A,130.3114,47.3388,鹤岗市,东山纸板厂,,25,25,40,8,11,76,60,63,62,5,4,8,9,0.3,0.2
2023-05-10T07:00:00,2247A,130.1097,47.3382,鹤岗市,五号水库,,22,11,13,7,11,82,68,70,66,4,4,7,9,0.0,0.1
2023-05-10T07:00:00,2248A,131.1511,46.6937,双鸭山市,双合村,,20,7,5,3,1,69,62,60,60,5,5,5,5,0,0
2023-05-10T07:00:00,2249A,131.1652,46.6191,双鸭山市,南小市,,21,17,29,13,10,87,65,52,48,6,6,5,5,0.5,0.5
2023-05-10T07:00:00,2250A,131.1524,46.6554,双鸭山市,环保局,,22,14,17,13,12,96,70,67,67,3,2,6,6,0.4,0.4
2023-05-10T07:00:00,2251A,131.12,46.5656,双鸭山市,苗圃,,19,14,23,12,14,96,60,58,57,13,8,11,5,0.8,0.3
2023-05-10T07:00:00,2252A,128.5159,47.4311,伊春市,环保局,,18,14,14,12,8,90,43,58,44,12,8,6,5,0.3,0.3
2023-05-10T07:00:00,2253A,128.9102,47.7412,伊春市,电力嘉园,,22,22,21,13,14,84,50,50,44,7,5,5,5,0.6,0.5
2023-05-10T07:00:00,2254A,129.5029,48.471,伊春市,汤旺河国家公园,,,24,22,14,18,89,63,50,44,,15,5,5,1.5,1.4
2023-05-10T07:00:00,2255A,130.2751,46.8028,佳木斯市,佳纺,,28,28,22,15,8,81,59,59,49,10,7,3,3,0.5,0.3
2023-05-10T07:00:00,2256A,130.3995,46.8307,佳木斯市,发电厂,,19,13,15,10,6,83,60,61,56,8,6,6,4,0.4,0.3
2023-05-10T07:00:00,2257A,130.3258,46.7975,佳木斯市,环保局,,19,19,23,13,9,80,52,60,47,15,11,4,4,0.4,0.3
2023-05-10T07:00:00,2258A,130.3648,46.8032,佳木斯市,十一中,,19,15,16,13,9,81,59,67,57,12,8,6,5,0.4,0.3
2023-05-10T07:00:00,2259A,130.3794,46.7588,佳木斯市,四丰,,20,20,19,13,10,91,63,70,63,13,7,1,1,0.3,0.2
2023-05-10T07:00:00,2262A,131.0518,45.8751,七台河市,新一中,,22,22,16,10,7,96,59,73,63,7,4,6,6,0.7,0.7
2023-05-10T07:00:00,2263A,127.4833,50.2524,黑河市,交通局,,19,6,13,7,11,81,59,52,52,7,10,4,3,0.4,0.4
2023-05-10T07:00:00,2264A,127.5144,50.2341,黑河市,环保局,,20,6,17,11,12,79,62,64,62,7,9,3,6,0.3,0.3
2023-05-10T07:00:00,2265A,127.5291,50.2472,黑河市,大黑河岛,,22,10,12,4,9,94,70,65,64,1,2,1,3,0.3,0.3
2023-05-10T07:00:00,2266A,126.9785,46.6365,绥化市,人和东街,,32,32,40,13,13,92,56,64,58,8,6,6,5,0.4,0.3
2023-05-10T07:00:00,2267A,126.964,46.6528,绥化市,党政办公中心,,31,31,33,16,13,104,63,72,66,6,3,6,4,0.3,0.3
2023-05-10T07:00:00,2269A,124.1069,50.4097,大兴安岭地区,科技局,,20,11,13,13,10,104,64,70,67,5,4,8,6,0.1,0.1
2023-05-10T07:00:00,2270A,117.396,32.939,蚌埠市,工人疗养院,,45,45,43,16,20,158,66,92,71,38,30,9,10,0.4,0.4
2023-05-10T07:00:00,2271A,117.3605,32.9427,蚌埠市,百货大楼,,31,31,39,16,17,155,57,84,77,48,23,8,6,0.5,0.4
2023-05-10T07:00:00,2273A,117.4185,32.8911,蚌埠市,蚌埠学院,颗粒物(PM10),51,51,42,14,16,144,69,88,83,30,26,7,9,0.5,0.4
2023-05-10T07:00:00,2274A,117.3533,32.9673,蚌埠市,淮上区政府,,44,44,45,17,18,150,67,100,81,29,14,10,8,0.4,0.3
2023-05-10T07:00:00,2275A,117.3145,32.8977,蚌埠市,高新区,,44,44,41,24,17,151,84,106,98,20,15,7,7,0.5,0.4
2023-05-10T07:00:00,2277A,116.8305,32.7727,淮南市,潘集区政府,颗粒物(PM10),52,53,50,32,32,158,52,84,72,22,13,8,9,0.2,0.2
2023-05-10T07:00:00,2278A,117.0067,32.6524,淮南市,师范学院,颗粒物(PM10),58,66,49,37,29,176,63,134,97,27,13,9,7,0.9,0.3
2023-05-10T07:00:00,2279A,116.8569,32.5951,淮南市,谢家集区政府,颗粒物(PM10),55,60,46,26,29,178,74,135,102,28,16,24,12,0.5,0.3
2023-05-10T07:00:00,2280A,116.8281,32.633,淮南市,八公山区政府,颗粒物(PM10),58,66,50,34,24,165,58,119,87,26,13,12,10,0.7,0.3
2023-05-10T07:00:00,2281A,116.6325,32.6201,淮南市,焦岗湖风景区管理处,,43,40,42,30,27,151,34,94,71,39,16,10,11,0.3,0.2
2023-05-10T07:00:00,2282A,116.8004,33.975,淮北市,监测站,细颗粒物(PM2.5),62,58,50,44,24,150,46,119,87,52,17,16,6,0.6,0.5
2023-05-10T07:00:00,2283A,116.8091,33.9007,淮北市,烈山区政府,,38,38,45,23,23,155,93,94,91,17,17,6,7,0.4,0.4
2023-05-10T07:00:00,2284A,116.7856,33.9477,淮北市,职业技术学院,,50,50,47,32,24,141,73,103,93,26,13,6,6,0.5,0.5
2023-05-10T07:00:00,2285A,117.8177,30.9412,铜陵市,市第四中学,颗粒物(PM10),51,52,46,34,24,152,74,133,101,36,16,7,5,0.4,0.3
2023-05-10T07:00:00,2286A,117.8059,30.9273,铜陵市,市公路局,细颗粒物(PM2.5),62,56,48,44,28,158,66,129,94,36,15,7,6,0.7,0.5
2023-05-10T07:00:00,2287A,117.7807,30.9413,铜陵市,市新民污水厂,细颗粒物(PM2.5),58,63,49,41,24,162,57,139,71,44,24,9,8,0.6,0.4
2023-05-10T07:00:00,2288A,117.7439,30.8792,铜陵市,市第九中学,颗粒物(PM10),61,71,54,26,24,151,66,99,77,34,24,10,14,0.6,0.8
2023-05-10T07:00:00,2289A,117.846,30.9413,铜陵市,车站新区,颗粒物(PM10),52,53,41,26,19,149,73,138,91,26,15,6,7,0.4,0.3
2023-05-10T07:00:00,2290A,117.8483,30.97,铜陵市,市职教基地,,49,49,38,28,15,141,81,129,103,22,13,3,3,0.4,0.4
2023-05-10T07:00:00,2291A,117.0809,30.5177,安庆市,环科院,,49,43,49,34,28,187,114,136,128,21,20,8,9,0.5,0.5
2023-05-10T07:00:00,2292A,117.0331,30.5119,安庆市,马山宾馆,颗粒物(PM10),51,51,50,35,28,190,103,138,129,30,20,10,11,0.6,0.5
2023-05-10T07:00:00,2294A,116.9896,30.6145,安庆市,安庆大学,细颗粒物(PM2.5),57,40,42,40,27,176,100,124,113,16,11,8,10,0.4,0.4
2023-05-10T07:00:00,2295A,118.2903,29.6963,黄山市,延安路89号,,38,38,38,18,23,136,46,38,38,13,11,5,5,0.2,0.2
2023-05-10T07:00:00,2296A,118.327,29.7178,黄山市,黄山东路89号,,32,32,35,20,20,127,46,57,52,17,11,4,4,0.5,0.4
2023-05-10T07:00:00,2297A,118.1371,30.2756,黄山市,黄山区政府5号楼,,47,47,41,23,20,142,29,59,43,12,9,6,6,0.5,0.4
2023-05-10T07:00:00,2298A,118.3093,32.3153,滁州市,老年大学,细颗粒物(PM2.5),52,46,48,36,29,209,46,86,63,42,28,8,8,0.5,0.4
2023-05-10T07:00:00,2299A,118.3244,32.2786,滁州市,人大宾馆,,43,42,45,30,25,201,38,83,55,50,29,8,9,0.7,0.5
2023-05-10T07:00:00,2301A,115.8277,32.8929,阜阳市,市监测站,,45,45,44,25,24,158,82,96,91,26,17,14,9,0.5,0.4
2023-05-10T07:00:00,2303A,115.8554,32.8605,阜阳市,开发区,颗粒物(PM10),51,52,49,29,25,166,60,97,82,35,19,10,9,0.6,0.5
2023-05-10T07:00:00,2307A,116.5079,31.737,六安市,监测大楼,颗粒物(PM10),53,55,43,32,28,162,56,98,76,33,17,5,5,0.4,0.3
2023-05-10T07:00:00,2308A,116.4738,31.7643,六安市,皖西学院,颗粒物(PM10),53,55,52,28,21,167,58,87,64,35,21,8,6,0.3,0.3
2023-05-10T07:00:00,2309A,116.4996,31.7905,六安市,朝阳厂,,49,48,47,34,23,182,59,82,71,38,22,7,7,0.4,0.3
2023-05-10T07:00:00,2310A,116.5567,31.7886,六安市,开发区,细颗粒物(PM2.5),57,61,57,40,28,177,50,81,67,34,21,5,7,0.4,0.4
2023-05-10T07:00:00,2311A,115.8072,33.8399,亳州市,污水处理厂,,43,43,40,26,21,172,72,94,74,20,13,10,8,0.4,0.4
2023-05-10T07:00:00,2312A,115.7789,33.8518,亳州市,三国揽胜宫,,45,45,41,21,20,160,74,106,91,23,12,11,8,0.4,0.3
2023-05-10T07:00:00,2314A,117.47,30.6618,池州市,池州学院,细颗粒物(PM2.5),63,62,40,45,28,169,78,124,106,33,20,11,9,0.7,0.5
2023-05-10T07:00:00,2316A,118.7581,30.9454,宣城市,鳌峰子站,细颗粒物(PM2.5),54,48,49,38,29,127,76,89,78,37,21,6,5,0.5,0.5
2023-05-10T07:00:00,2317A,118.7385,30.9743,宣城市,敬亭山子站,细颗粒物(PM2.5),57,58,47,40,25,130,45,86,59,50,26,10,7,0.4,0.3
2023-05-10T07:00:00,2318A,118.7173,30.9427,宣城市,开发区子站,颗粒物(PM10),52,53,46,35,25,136,64,94,74,40,20,10,8,0.6,0.6
2023-05-10T07:00:00,2319A,119.0141,25.4325,莆田市,荔城区仓后路,,30,16,30,11,12,127,95,103,100,10,9,5,5,0.6,0.6
2023-05-10T07:00:00,2320A,119.0015,25.4553,莆田市,莆田市监测站,,28,16,27,16,12,128,87,96,94,5,7,5,5,0.5,0.5
2023-05-10T07:00:00,2321A,119.1119,25.4561,莆田市,涵江区六中,,29,19,33,11,16,128,90,108,91,13,11,7,7,0.5,0.5
2023-05-10T07:00:00,2322A,119.1013,25.3215,莆田市,秀屿区政府,,27,24,36,15,18,132,85,112,96,16,12,6,6,0.5,0.5
2023-05-10T07:00:00,2323A,118.981,25.4792,莆田市,东圳水库,,,,,,,,,,,,,,,,
2023-05-10T07:00:00,2324A,117.6211,26.2625,三明市,三钢,,33,23,22,23,17,101,44,43,39,19,12,13,9,0.5,0.4
2023-05-10T07:00:00,2325A,117.635,26.2714,三明市,三明二中,,24,24,20,13,14,100,47,45,42,17,13,10,5,0.5,0.5
2023-05-10T07:00:00,2326A,117.6028,26.2378,三明市,三元区政府,,35,22,24,24,17,101,47,36,36,17,15,11,7,0.5,0.5
2023-05-10T07:00:00,2327A,117.7275,26.3108,三明市,洋溪,,,,,,,,,,,,,,,,
2023-05-10T07:00:00,2331A,118.0966,26.6761,南平市,茫荡山,,,,,,,,,,,,,,,,
2023-05-10T07:00:00,2332A,118.1681,26.6369,南平市,南平市监测站,,32,32,24,14,12,81,79,77,77,11,10,3,3,0.6,0.6
2023-05-10T07:00:00,2333A,118.1825,26.6489,南平市,南平铝业有限公司,,34,34,26,17,14,90,87,77,77,10,11,6,7,0.6,0.6
2023-05-10T07:00:00,2334A,118.1756,26.6272,南平市,南平七中,,26,21,21,15,13,84,83,79,79,8,7,4,4,0.6,0.6
2023-05-10T07:00:00,2335A,117.0189,25.1181,龙岩市,龙岩师专,,,,,,,,,,,,,,,,
2023-05-10T07:00:00,2336A,117.0217,25.1033,龙岩市,龙岩市监测站,,45,42,28,31,21,81,38,65,52,22,18,19,12,0.5,0.5
2023-05-10T07:00:00,2337A,117.0258,25.0661,龙岩市,闽西职业技术学院,细颗粒物(PM2.5),59,42,32,42,25,86,35,57,51,23,15,26,16,0.5,0.5
2023-05-10T07:00:00,2338A,117.0196,25.0306,龙岩市,龙岩学院,细颗粒物(PM2.5),52,40,32,36,23,95,37,55,50,19,14,8,8,0.4,0.4
2023-05-10T07:00:00,2339A,119.5001,26.6946,宁德市,金涵水库,,,,,,,,,,,,,,,,
2023-05-10T07:00:00,2341A,119.5388,26.6612,宁德市,宁德市监测站,,20,17,30,14,19,134,60,78,69,11,9,17,16,0.4,0.4
2023-05-10T07:00:00,2342A,117.3102,29.3867,景德镇市,王港中学,,23,23,34,12,20,100,47,50,49,5,5,14,14,0.4,0.4
2023-05-10T07:00:00,2343A,117.2117,29.2933,景德镇市,老干部活动中心,颗粒物(PM10),52,54,66,24,26,130,63,50,50,12,16,5,5,0.3,0.3
2023-05-10T07:00:00,2344A,117.1894,29.2789,景德镇市,兽医站,,48,48,51,27,30,139,72,59,59,14,19,6,9,0.4,0.5
2023-05-10T07:00:00,2345A,117.1547,29.2617,景德镇市,台达陶瓷,,36,36,49,12,28,127,68,61,61,11,17,4,18,0.4,0.4
2023-05-10T07:00:00,2346A,117.2461,29.2956,景德镇市,陶研所,颗粒物(PM10),55,60,55,23,21,129,47,37,37,13,11,8,5,0.3,0.4
2023-05-10T07:00:00,2347A,114.0997,27.5002,萍乡市,武功山,,30,26,18,21,17,119,30,52,44,5,6,19,16,0.5,0.4
2023-05-10T07:00:00,2348A,113.8385,27.6434,萍乡市,中医院,,46,42,41,32,29,145,78,72,72,9,17,12,16,0.6,0.7
2023-05-10T07:00:00,2349A,113.8493,27.6253,萍乡市,市政府车库,,39,34,47,27,32,147,80,63,62,8,12,15,22,0.6,0.8
2023-05-10T07:00:00,2350A,113.8676,27.6435,萍乡市,市环保局,,38,35,48,26,27,141,76,69,69,10,13,14,19,0.4,0.5
2023-05-10T07:00:00,2351A,113.866,27.6198,萍乡市,安源区政府,颗粒物(PM10),53,55,53,26,29,141,74,66,63,16,16,13,19,0.6,0.6
2023-05-10T07:00:00,2352A,115.0861,27.9317,新余市,北岗,,39,35,37,27,28,131,44,58,52,11,13,25,18,0.6,0.6
2023-05-10T07:00:00,2353A,114.9886,27.8431,新余市,飞宇,颗粒物(PM10),54,58,55,28,27,144,74,88,83,19,18,16,14,0.4,0.4
2023-05-10T07:00:00,2354A,114.9231,27.8246,新余市,第二水厂,颗粒物(PM10),52,54,43,31,23,142,84,93,88,19,18,12,12,0.2,0.3
2023-05-10T07:00:00,2355A,114.9308,27.8036,新余市,市气象局,,46,44,46,32,28,144,94,96,94,14,14,14,13,0.2,0.2
2023-05-10T07:00:00,2357A,116.9822,28.1136,鹰潭市,龙虎山,,42,42,48,24,25,158,30,42,36,4,6,1,4,0.8,0.6
2023-05-10T07:00:00,2358A,117.0564,28.2642,鹰潭市,新监测站,颗粒物(PM10),52,54,55,26,26,162,93,123,111,11,12,15,21,0.4,0.5
2023-05-10T07:00:00,2359A,117.0311,28.2475,鹰潭市,财苑宾馆,颗粒物(PM10),53,56,55,24,25,169,97,98,97,18,13,15,15,0.4,0.3
2023-05-10T07:00:00,2360A,117.0222,28.2264,鹰潭市,体育馆,颗粒物(PM10),51,51,53,31,28,165,87,85,85,16,15,22,15,0.2,0.3
2023-05-10T07:00:00,2361A,117.0017,28.2131,鹰潭市,三川水表,颗粒物(PM10),51,52,57,23,28,163,70,86,84,32,18,8,10,0.5,0.5
2023-05-10T07:00:00,2362A,114.9017,25.9149,赣州市,通天岩,,33,33,32,19,21,134,44,51,44,5,6,5,7,2.1,2.1
2023-05-10T07:00:00,2363A,114.9367,25.8664,赣州市,地委,,49,49,41,29,27,147,28,63,44,16,10,14,14,1.0,1
2023-05-10T07:00:00,2364A,114.9461,25.8481,赣州市,气象台,,48,48,38,24,23,152,43,82,64,19,13,8,7,0.6,0.6
2023-05-10T07:00:00,2365A,114.9322,25.8333,赣州市,市图书馆,,37,37,41,24,22,145,35,66,51,17,14,4,6,1.0,1.1
2023-05-10T07:00:00,2366A,114.8905,25.8471,赣州市,华坚鞋城,颗粒物(PM10),52,54,43,27,23,147,27,74,55,14,8,7,10,0.8,0.7
2023-05-10T07:00:00,2367A,114.9754,27.0803,吉安市,红声器材厂,颗粒物(PM10),55,60,50,36,27,142,57,109,80,11,11,17,17,0.5,0.5
2023-05-10T07:00:00,2368A,114.9658,27.0999,吉安市,市森林工业局,颗粒物(PM10),51,52,44,35,27,136,53,106,85,9,7,17,20,0.4,0.5
2023-05-10T07:00:00,2369A,114.99,27.1312,吉安市,市环境监测站,颗粒物(PM10),53,55,44,34,24,135,98,116,104,16,13,104,31,0.5,0.4
2023-05-10T07:00:00,2370A,115.0093,27.0968,吉安市,青原区法院,,45,42,44,31,27,140,60,107,84,12,13,16,19,0.6,0.6
2023-05-10T07:00:00,2371A,114.3408,27.8064,宜春市,槟榔水业,颗粒物(PM10),59,68,48,31,30,135,68,87,80,8,9,11,13,0.6,0.6
2023-05-10T07:00:00,2373A,114.3956,27.7844,宜春市,市石油公司,,46,46,58,29,34,154,66,77,74,16,17,5,8,0.7,0.6
2023-05-10T07:00:00,2374A,114.3703,27.7914,宜春市,市气象局,,48,46,54,33,34,148,79,99,94,16,17,8,11,0.9,0.7
2023-05-10T07:00:00,2375A,114.4013,27.8074,宜春市,市广电局,,49,49,52,31,28,147,69,94,88,14,15,12,16,0.7,0.6
2023-05-10T07:00:00,2376A,116.2127,28.0814,抚州市,桐源党溪,,44,44,40,28,24,188,72,77,69,12,3,4,2,0.8,0.6
2023-05-10T07:00:00,2377A,116.3544,27.9831,抚州市,市站,颗粒物(PM10),55,60,54,38,29,146,67,110,87,22,10,8,3,0.8,0.7
2023-05-10T07:00:00,2378A,116.3565,27.963,抚州市,血防站,颗粒物(PM10),56,61,55,37,29,148,63,119,91,22,9,10,6,0.7,0.5
2023-05-10T07:00:00,2379A,116.3564,28.0007,抚州市,采茶剧团,"颗粒物(PM10),细颗粒物(PM2.5)",54,58,50,38,30,162,67,108,88,22,13,15,9,0.8,0.7
2023-05-10T07:00:00,2380A,116.385,27.9647,抚州市,医学分院,颗粒物(PM10),55,60,54,34,26,143,58,108,82,25,11,13,8,0.7,0.6
2023-05-10T07:00:00,2381A,118.005,28.4572,上饶市,百草园,,45,45,45,21,22,161,97,104,95,12,6,8,12,0.3,0.5
2023-05-10T07:00:00,2382A,117.9756,28.4436,上饶市,市监测站,颗粒物(PM10),51,51,51,24,23,155,85,83,83,21,18,13,15,0.5,0.5
2023-05-10T07:00:00,2383A,117.9519,28.4628,上饶市,凤凰光学,颗粒物(PM10),51,52,52,21,23,158,97,73,73,19,19,14,16,0.5,0.5
2023-05-10T07:00:00,2385A,114.17,35.9019,鹤壁市,市监测站,颗粒物(PM10),92,134,56,40,24,157,21,73,65,73,29,7,9,0.5,0.4
2023-05-10T07:00:00,2386A,114.2956,35.7511,鹤壁市,市交警支队,颗粒物(PM10),68,85,58,33,24,150,27,45,40,58,37,9,7,0.6,0.4
2023-05-10T07:00:00,2387A,114.2878,35.7306,鹤壁市,迎宾馆,颗粒物(PM10),62,74,47,42,26,154,16,65,45,60,33,7,10,1.0,0.8
2023-05-10T07:00:00,2389A,113.836,35.311,新乡市,环保西院,颗粒物(PM10),65,79,58,36,23,154,42,32,31,35,28,7,5,0.6,0.5
2023-05-10T07:00:00,2390A,113.884,35.272,新乡市,开发区,颗粒物(PM10),64,78,54,41,23,159,46,82,51,50,23,14,10,0.8,0.6
2023-05-10T07:00:00,2391A,113.883,35.303,新乡市,环保东院,颗粒物(PM10),61,71,51,33,23,163,50,82,71,58,26,8,5,0.5,0.4
2023-05-10T07:00:00,2392A,115.0312,35.7636,濮阳市,环保局,细颗粒物(PM2.5),74,79,54,54,30,167,50,85,64,53,26,17,10,0.7,0.4
2023-05-10T07:00:00,2394A,115.0574,35.7609,濮阳市,油田运输公司,细颗粒物(PM2.5),90,105,67,67,37,173,47,94,70,46,20,20,14,0.6,0.3
2023-05-10T07:00:00,2395A,115.0866,35.7754,濮阳市,油田物探公司,细颗粒物(PM2.5),83,85,62,61,37,166,32,68,53,55,27,11,10,0.6,0.3
2023-05-10T07:00:00,2396A,113.8276,34.0159,许昌市,监测站,细颗粒物(PM2.5),52,52,55,36,28,156,86,65,59,26,23,7,7,0.6,0.8
2023-05-10T07:00:00,2398A,113.7906,33.9953,许昌市,开发区,细颗粒物(PM2.5),65,57,55,47,36,156,86,55,55,17,18,6,6,0.7,0.5
2023-05-10T07:00:00,2399A,114.051,33.5699,漯河市,三五一五工厂,颗粒物(PM10),61,71,68,34,27,149,70,86,84,21,14,9,13,0.4,0.4
2023-05-10T07:00:00,2400A,114.0055,33.5698,漯河市,漯河大学,,48,47,54,33,26,154,78,103,100,25,13,9,11,0.4,0.3
2023-05-10T07:00:00,2401A,114.0138,33.5828,漯河市,市水利局,颗粒物(PM10),58,66,50,36,27,156,68,95,91,26,13,8,10,0.5,0.5
2023-05-10T07:00:00,2402A,114.0261,33.5698,漯河市,市广电局,,46,46,47,23,28,158,75,95,92,20,11,8,10,0.4,0.4
2023-05-10T07:00:00,2404A,112.5224,33.0122,南阳市,瓦房庄,,38,38,45,22,25,138,93,108,102,16,15,5,6,0.4,0.4
2023-05-10T07:00:00,2405A,112.5003,32.9735,南阳市,汉画馆,,38,38,44,23,27,140,92,108,102,9,10,6,6,0.5,0.5
2023-05-10T07:00:00,2406A,112.5573,33.027,南阳市,气象站,,34,34,37,22,24,145,85,106,98,10,12,4,5,0.3,0.3
2023-05-10T07:00:00,2407A,112.5481,32.9689,南阳市,理工学院,,35,30,38,24,26,143,105,103,103,8,10,4,4,0.3,0.4
2023-05-10T07:00:00,2408A,115.6702,34.4285,商丘市,环境监测站,细颗粒物(PM2.5),72,48,46,52,31,168,42,81,68,48,21,9,10,0.5,0.5
2023-05-10T07:00:00,2409A,115.6458,34.4045,商丘市,粮食局,,35,15,37,14,19,183,110,125,123,16,12,5,7,0.7,0.7
2023-05-10T07:00:00,2410A,115.6293,34.3948,商丘市,睢阳区环保局,,26,22,50,16,20,174,61,109,101,52,18,5,7,0.5,0.5
2023-05-10T07:00:00,2420A,114.0189,32.9656,驻马店市,市一纸厂,细颗粒物(PM2.5),60,59,50,43,30,158,58,73,71,14,10,5,5,0.4,0.3
2023-05-10T07:00:00,2421A,114.0114,33.015,驻马店市,市彩印厂,细颗粒物(PM2.5),60,64,55,43,30,162,45,66,61,14,10,5,6,0.4,0.3
2023-05-10T07:00:00,2422A,113.9976,32.9771,驻马店市,天方二分厂,颗粒物(PM10),61,72,52,42,33,154,51,74,70,16,12,7,8,0.3,0.4
2023-05-10T07:00:00,2423A,115.0601,30.2313,黄石市,沈家营,,43,43,49,24,27,181,63,87,67,20,21,5,12,0.3,0.6
2023-05-10T07:00:00,2424A,115.0817,30.2006,黄石市,陈家湾,,45,45,50,27,25,173,73,125,85,10,11,5,9,0.5,0.6
2023-05-10T07:00:00,2426A,114.8988,30.2019,黄石市,铁山,,50,50,53,24,25,175,91,126,93,12,11,3,5,0.7,0.7
2023-05-10T07:00:00,2427A,115.0307,30.2092,黄石市,团城山,,48,48,49,19,20,162,68,118,78,18,12,8,10,0.4,0.5
2023-05-10T07:00:00,2428A,111.0419,32.395,十堰市,武当山,,32,2,20,2,13,116,102,97,96,6,7,8,8,0.5,0.5
2023-05-10T07:00:00,2429A,110.78,32.6494,十堰市,滨河新村,,35,35,48,20,29,109,63,83,78,7,12,5,5,0.6,0.6
2023-05-10T07:00:00,2430A,110.7258,32.6389,十堰市,刘家沟,,35,26,38,24,28,122,61,84,74,8,12,6,7,0.7,0.7
2023-05-10T07:00:00,2431A,110.8839,32.5714,十堰市,铁二处,,26,26,38,18,22,125,76,91,82,8,10,6,8,0.6,0.7
