timepoint,stationcode,longitude,latitude,area,positionname,primarypollutant,aqi,pm10,pm10_24h,pm2_5,pm2_5_24h,o3,o3_24h,o3_8h,o3_8h_24h,no2,no2_24h,so2,so2_24h,co,co_24h
2026-01-14T1600,2568A,102.2503,31.8896,阿坝藏族羌族自治州,马师校,,,56,24,11,18,79,,52,52,4,18,,4,0.4,0.6
2026-01-14T1600,3994A,102.2174,31.9016,阿坝藏族羌族自治州,马尔康中学西区,,37,37,14,6,12,73,,52,52,4,17,5,5,0.4,0.5
2026-01-14T1600,2695A,80.2899,41.1684,阿克苏地区,电视台,颗粒物(PM10),80,109,120,46,65,80,,43,43,26,45,6,3,0.9,1.5
2026-01-14T1600,2696A,80.2592,41.1541,阿克苏地区,艺术中心,细颗粒物(PM2.5),72,83,125,52,83,85,,45,45,24,50,8,6,0.7,1.3
2026-01-14T1600,2205A,105.699,38.8409,阿拉善盟,蒙二幼,颗粒物(PM10),150,249,795,73,144,83,,81,80,5,9,9,9,0.6,0.6
2026-01-14T1600,2206A,105.7198,38.8508,阿拉善盟,环保局新楼,颗粒物(PM10),160,269,623,65,149,76,,75,75,5,5,6,7,0.4,0.5
2026-01-14T1600,2708A,88.1266,47.8515,阿勒泰地区,市站,,,46,46,35,30,,,33,33,,49,,4,,0.9
2026-01-14T1600,4166A,88.1198,47.7931,阿勒泰地区,阿勒泰路33号,细颗粒物(PM2.5),82,73,63,60,48,72,,47,47,19,48,4,4,0.9,0.9
2026-01-14T1600,2630A,80.1171,32.4999,阿里地区,阿里监测站,,25,6,3,3,3,77,,58,58,1,13,5,7,0.4,0.5
2026-01-14T1600,3192A,80.0906,32.5029,阿里地区,阿里藏医院,,29,,14,3,9,90,,66,66,1,10,9,12,0.5,0.7
2026-01-14T1600,2644A,109.0088,32.6974,安康市,汉滨区检察院,细颗粒物(PM2.5),72,73,71,52,55,64,,34,34,16,25,6,6,0.7,0.7
2026-01-14T1600,4054A,109.0324,32.6913,安康市,市邮政管理局,细颗粒物(PM2.5),74,80,86,54,62,55,,27,27,19,39,6,7,0.7,1.1
2026-01-14T1600,2291A,117.0806,30.5181,安庆市,环科院,细颗粒物(PM2.5),55,50,68,39,48,107,,72,72,20,46,8,8,0.4,0.4
2026-01-14T1600,2292A,117.0331,30.5118,安庆市,马山宾馆,细颗粒物(PM2.5),52,50,72,36,51,117,,76,76,18,56,8,7,0.5,0.6
2026-01-14T1600,2294A,116.9897,30.6146,安庆市,安庆大学,,49,45,73,34,50,122,,75,75,15,37,7,8,0.4,0.5
2026-01-14T1600,3173A,117.0598,30.5351,安庆市,市人大,细颗粒物(PM2.5),52,45,73,36,51,119,,76,76,17,45,10,12,0.4,0.4
2026-01-14T1600,3123A,105.9408,26.2431,安顺市,凤凰山,,,,57,,48,78,,92,59,16,17,15,17,0.7,0.6
2026-01-14T1600,3124A,105.9443,26.2567,安顺市,金钟山,细颗粒物(PM2.5),75,60,54,55,50,79,,90,60,13,13,18,17,0.7,0.6
2026-01-14T1600,3125A,105.8983,26.248,安顺市,娄家坡,细颗粒物(PM2.5),77,61,57,56,51,70,,92,58,20,14,11,13,0.9,0.8
2026-01-14T1600,1819A,114.3552,36.1017,安阳市,红庙街,细颗粒物(PM2.5),130,150,135,99,86,23,,29,29,58,58,14,13,1.4,1.2
2026-01-14T1600,1820A,114.361,36.0681,安阳市,银杏小区,细颗粒物(PM2.5),149,148,135,114,95,21,,25,25,58,54,13,14,1.5,1.2
2026-01-14T1600,3141A,114.3921,36.0879,安阳市,信访局,细颗粒物(PM2.5),137,150,137,104,88,24,,29,29,58,58,14,14,1.5,1.3
2026-01-14T1600,3669A,114.4706,36.0634,安阳市,左辅环卫站,细颗粒物(PM2.5),202,196,156,152,118,26,,27,27,58,55,16,14,1.5,1.2
2026-01-14T1600,4117A,114.2918,36.0769,安阳市,钢三路198号,细颗粒物(PM2.5),134,197,181,102,98,23,,25,25,54,59,14,14,1.4,1.5
2026-01-14T1600,1748A,123.0441,41.1201,鞍山市,深沟寺,,32,32,38,19,18,59,,61,61,12,14,6,7,0.7,0.7
2026-01-14T1600,1749A,123.011,41.0931,鞍山市,太阳城,颗粒物(PM10),78,105,40,20,17,66,,69,69,13,12,10,10,0.8,0.6
2026-01-14T1600,1750A,123.0483,41.1445,鞍山市,太平,,42,42,40,20,17,56,,55,55,15,20,8,9,0.7,0.6
2026-01-14T1600,1751A,122.964,41.0968,鞍山市,铁西三道街,颗粒物(PM10),53,56,48,32,22,43,,50,50,39,34,40,23,0.8,0.9
2026-01-14T1600,1753A,123.0219,41.0822,鞍山市,明达新区,,38,35,33,26,18,61,,65,65,14,16,11,12,0.5,0.5
2026-01-14T1600,4201A,122.944647,41.082639,鞍山市,兴盛南路290号,颗粒物(PM10),54,58,57,26,22,60,,57,57,18,30,10,14,0.4,0.9
2026-01-14T1600,2195A,107.4206,40.7609,巴彦淖尔市,附二中,颗粒物(PM10),92,134,170,39,39,74,,70,69,5,6,3,3,0.4,0.4
2026-01-14T1600,2196A,107.37,40.7372,巴彦淖尔市,市环保大楼,颗粒物(PM10),98,145,191,26,38,86,,80,80,3,6,4,4,0.3,0.3
2026-01-14T1600,1956A,86.1476,41.7529,巴音郭楞蒙古自治州,孔雀公园,颗粒物(PM10),65,80,80,36,37,84,,30,30,13,52,10,9,0.5,1
2026-01-14T1600,1957A,86.1971,41.7166,巴音郭楞蒙古自治州,棉纺厂,颗粒物(PM10),81,111,98,18,25,82,,37,37,14,43,/,/,/,/
2026-01-14T1600,1958A,86.236,41.7172,巴音郭楞蒙古自治州,经济开发区,颗粒物(PM10),67,83,64,25,16,69,,31,31,17,34,7,6,0.4,0.5
2026-01-14T1600,3181A,106.776805,31.852614,巴中市,市五中,细颗粒物(PM2.5),68,66,99,49,72,66,,27,27,25,33,5,5,0.8,1
2026-01-14T1600,3183A,106.7419,31.8654,巴中市,圣泉水务公司,细颗粒物(PM2.5),63,54,79,45,65,78,,36,36,14,36,5,5,0.6,0.8
2026-01-14T1600,3616A,106.7617,31.8343,巴中市,市中心医院,细颗粒物(PM2.5),57,48,97,40,76,80,,31,31,12,36,7,7,0.6,0.9
2026-01-14T1600,2235A,122.7909,45.608,白城市,洮北区环保局,,23,19,25,16,16,58,,52,52,9,12,7,6,0.2,0.2
2026-01-14T1600,2236A,122.8741,45.5725,白城市,市环保局,,25,,22,17,17,49,,46,46,15,16,7,7,0.4,0.3
2026-01-14T1600,2231A,126.4219,41.9172,白山市,喜丰,,36,36,65,12,28,20,,29,29,55,34,91,22,1.0,0.9
2026-01-14T1600,2232A,126.4082,41.9416,白山市,环保局,细颗粒物(PM2.5),54,,36,38,30,25,,32,32,41,25,14,10,1.1,1
2026-01-14T1600,2647A,104.1727,36.5448,白银市,第三小学,颗粒物(PM10),133,216,177,48,46,76,,75,64,18,34,8,18,0.4,0.7
2026-01-14T1600,2648A,104.1467,36.5482,白银市,动力公司,颗粒物(PM10),140,229,163,52,45,79,,76,71,13,23,8,15,0.5,0.7
2026-01-14T1600,2512A,106.6102,23.901,百色市,市监测站,细颗粒物(PM2.5),115,121,85,87,67,121,,61,61,,31,22,12,0.9,0.7
2026-01-14T1600,2513A,106.6524,23.8842,百色市,市中心血站,细颗粒物(PM2.5),104,108,110,78,88,142,,64,64,22,45,15,15,1.0,1.2
2026-01-14T1600,4133A,106.6273,23.8798,百色市,龙景西路,细颗粒物(PM2.5),120,161,121,91,82,146,,61,61,28,36,25,14,1.0,0.9
2026-01-14T1600,2270A,117.396,32.9389,蚌埠市,工人疗养院,颗粒物(PM10),74,97,122,48,72,113,,81,81,28,42,8,11,0.7,1
2026-01-14T1600,2271A,117.3606,32.9428,蚌埠市,百货大楼,细颗粒物(PM2.5),78,88,119,57,73,118,,85,85,23,43,8,8,0.5,0.8
2026-01-14T1600,2273A,117.4183,32.8909,蚌埠市,蚌埠学院,细颗粒物(PM2.5),74,78,106,54,73,121,,88,88,24,38,9,9,0.6,0.7
2026-01-14T1600,2274A,117.3534,32.9672,蚌埠市,淮上区政府,细颗粒物(PM2.5),72,75,114,52,76,123,,91,91,20,48,5,6,0.7,0.9
2026-01-14T1600,2275A,117.3143,32.8977,蚌埠市,高新区,细颗粒物(PM2.5),92,95,123,68,87,107,,78,78,24,49,11,10,0.5,0.8
2026-01-14T1600,3715A,117.3091,32.9314,蚌埠市,蚌埠田家炳中学,细颗粒物(PM2.5),85,90,124,63,85,105,,80,80,32,48,7,16,0.6,0.7
2026-01-14T1600,1585A,109.8761,40.6533,包头市,市环境监测站,颗粒物(PM10),239,377,294,43,65,84,,65,65,11,54,4,18,0.3,1.5
2026-01-14T1600,1587A,109.9992,40.5843,包头市,包头八中,颗粒物(PM10),169,287,284,36,85,79,,70,70,12,51,4,18,0.4,1.2
2026-01-14T1600,1589A,109.8641,40.6288,包头市,惠龙物流,颗粒物(PM10),185,320,295,38,69,81,,74,74,11,53,8,22,0.5,1.6
2026-01-14T1600,1590A,110.0376,40.5546,包头市,东河鸿龙湾,颗粒物(PM10),259,391,302,12,63,80,,74,74,6,60,7,20,0.7,1.6
2026-01-14T1600,3283A,109.9154,40.5684,包头市,滨河大厦,颗粒物(PM10),259,391,314,62,81,81,,74,74,3,46,6,18,0.5,1.2
2026-01-14T1600,3419A,109.9449,40.6259,包头市,包头市委党校,颗粒物(PM10),155,260,256,22,59,80,,73,73,8,51,7,17,0.6,1.3
2026-01-14T1600,3683A,109.8332,40.6577,包头市,昆区政府,颗粒物(PM10),164,278,282,35,71,73,,62,62,17,69,8,24,0.8,2.2
2026-01-14T1600,1931A,107.0802,34.3129,宝鸡市,竹园沟,颗粒物(PM10),73,96,54,23,35,90,,52,52,16,23,6,6,0.1,0.4
2026-01-14T1600,1933A,107.1429,34.3549,宝鸡市,监测站,颗粒物(PM10),89,127,75,29,56,84,,47,47,16,35,6,5,0.5,0.6
2026-01-14T1600,1934A,107.1172,34.3759,宝鸡市,技工学校,颗粒物(PM10),84,117,83,28,54,91,,57,57,11,29,4,6,0.4,0.8
2026-01-14T1600,1936A,107.2025,34.3518,宝鸡市,文理学院,颗粒物(PM10),77,104,76,17,58,85,,47,47,12,36,4,6,0.2,0.6
2026-01-14T1600,1937A,107.2396,34.3626,宝鸡市,三迪小学,颗粒物(PM10),98,146,78,28,59,86,,50,50,19,46,4,6,0.3,0.7
2026-01-14T1600,4155A,107.1721,34.3558,宝鸡市,滨河北路,,48,48,78,11,46,90,,46,46,11,35,4,6,0.2,0.7
2026-01-14T1600,4308A,107.3898,34.3601,宝鸡市,陈仓区北开路21号,颗粒物(PM10),96,141,100,26,64,90,,46,46,34,49,6,23,0,0.4
2026-01-14T1600,1051A,115.4803,38.8568,保定市,游泳馆,,,92,64,64,40,22,,25,25,54,43,,4,0.4,0.4
2026-01-14T1600,1052A,115.509,38.8895,保定市,华电二区,细颗粒物(PM2.5),77,77,56,56,40,26,,23,23,39,43,6,4,0.5,0.5
2026-01-14T1600,1053A,115.4588,38.9037,保定市,接待中心,细颗粒物(PM2.5),92,106,68,68,42,26,,24,24,48,45,4,2,0.6,0.5
2026-01-14T1600,1054A,115.4484,38.8344,保定市,地表水厂,细颗粒物(PM2.5),89,101,83,66,43,18,,15,15,55,48,6,5,0.6,0.5
2026-01-14T1600,3581A,115.3136,38.9511,保定市,满城区生态环境分局,细颗粒物(PM2.5),89,102,87,66,50,37,,22,22,44,63,6,4,0.6,0.9
2026-01-14T1600,3582A,115.4709,38.7628,保定市,清苑区第二中学,颗粒物(PM10),86,122,95,59,44,25,,15,15,44,49,5,8,0.6,0.6
2026-01-14T1600,3583A,115.6231,39.0223,保定市,徐水物探局,细颗粒物(PM2.5),84,109,81,62,45,33,,20,20,32,43,8,5,0.6,0.6
2026-01-14T1600,4004A,115.4199,38.8665,保定市,双鹰农机,,,127,83,,48,24,,26,26,54,40,8,6,0.7,0.6
2026-01-14T1600,4034A,115.515,38.8589,保定市,植保所站,细颗粒物(PM2.5),74,75,67,54,49,21,,20,20,48,43,6,3,0.7,0.6
2026-01-14T1600,2594A,99.1589,25.1137,保山市,市环境监测站,,29,20,27,12,18,90,,64,64,6,10,3,4,0.1,0.3
2026-01-14T1600,2595A,99.1616,25.1381,保山市,市环保局,,34,34,29,22,18,92,,71,71,4,6,4,4,0.3,0.4
2026-01-14T1600,1867A,109.1435,21.4085,北海市,海滩公园,臭氧1小时(O3_1h),73,56,85,42,61,178,,128,128,10,24,10,14,0.9,1
2026-01-14T1600,1868A,109.0983,21.466,北海市,新市环保局,臭氧1小时(O3_1h),59,55,77,41,65,167,,128,128,20,29,6,13,0.5,0.7
2026-01-14T1600,1869A,109.1775,21.5232,北海市,北海工业园,臭氧1小时(O3_1h),65,58,100,39,70,172,,134,134,18,34,10,13,0.8,0.9
2026-01-14T1600,3400A,109.1844,21.4396,北海市,龙潭自来水厂,臭氧1小时(O3_1h),69,63,88,45,70,175,,124,124,12,26,13,11,0.5,0.8
2026-01-14T1600,1001A,116.3611,39.8786,北京市,万寿西宫,细颗粒物(PM2.5),73,83,67,53,35,20,,11,11,56,58,4,3,0.7,0.7
2026-01-14T1600,1003A,116.4174,39.9289,北京市,东四,颗粒物(PM10),68,85,67,45,34,18,,12,12,56,54,6,6,0.9,0.9
2026-01-14T1600,1004A,116.4073,39.8858,北京市,天坛,"颗粒物(PM10),细颗粒物(PM2.5)",68,86,60,49,33,20,,12,12,53,53,4,3,0.8,0.7
2026-01-14T1600,1005A,116.4622,39.9364,北京市,农展馆,"颗粒物(PM10),细颗粒物(PM2.5)",68,86,64,49,37,19,,13,13,44,47,6,5,1.0,1
2026-01-14T1600,1006A,116.3399,39.9293,北京市,官园,细颗粒物(PM2.5),72,91,66,52,33,14,,12,12,60,51,6,7,1.0,0.8
2026-01-14T1600,1007A,116.2879,39.9613,北京市,海淀万柳,细颗粒物(PM2.5),69,85,64,50,33,12,,15,15,65,52,5,4,1.0,0.7
2026-01-14T1600,1008A,116.6635,40.1349,北京市,顺义新城,细颗粒物(PM2.5),65,78,65,47,32,44,,29,29,26,39,6,5,0.5,0.6
2026-01-14T1600,1009A,116.6275,40.327,北京市,怀柔镇,细颗粒物(PM2.5),59,64,50,42,29,43,,32,31,34,26,5,6,0.6,0.6
2026-01-14T1600,1010A,116.2295,40.217,北京市,昌平镇,颗粒物(PM10),68,86,52,48,27,26,,26,26,43,33,7,6,0.8,0.8
2026-01-14T1600,1011A,116.3968,39.982,北京市,奥体中心,颗粒物(PM10),71,92,65,50,32,15,,12,12,76,55,5,5,1.1,1
2026-01-14T1600,3418A,116.8336,40.4095,北京市,密云新城,颗粒物(PM10),61,71,55,42,27,48,,33,33,24,34,5,5,0.6,0.7
2026-01-14T1600,3671A,116.0879,39.9725,北京市,门头沟三家店,颗粒物(PM10),70,89,61,46,26,25,,23,23,45,43,4,4,0.6,0.6
2026-01-14T1600,3672A,116.1507,39.8246,北京市,丰台云岗,细颗粒物(PM2.5),70,87,61,51,31,20,,17,17,53,45,4,3,0.8,0.6
2026-01-14T1600,3674A,115.9578,39.7602,北京市,房山燕山,细颗粒物(PM2.5),74,94,62,54,33,23,,18,18,52,39,5,4,0.7,0.6
2026-01-14T1600,3675A,116.4669,39.7734,北京市,大兴旧宫,颗粒物(PM10),61,71,66,32,29,33,,16,16,36,49,5,3,0.7,0.7
2026-01-14T1600,3694A,115.9859,40.4562,北京市,延庆石河营,颗粒物(PM10),59,67,50,37,26,34,,26,26,39,34,6,4,0.7,0.8
2026-01-14T1600,3695A,116.6151,40.3052,北京市,怀柔新城,颗粒物(PM10),106,162,56,39,32,51,,38,38,22,21,6,6,0.5,0.6
2026-01-14T1600,3696A,116.2542,39.8764,北京市,丰台小屯,细颗粒物(PM2.5),72,91,60,52,32,15,,13,13,60,56,4,4,0.9,0.7
2026-01-14T1600,3697A,116.8399,40.3843,北京市,密云镇,颗粒物(PM10),64,77,52,43,25,44,,29,29,25,36,3,3,0.6,0.7
2026-01-14T1600,4057A,115.9423,40.4431,北京市,延庆百泉,颗粒物(PM10),60,70,53,39,28,25,,18,18,43,36,4,2,0.7,0.8
2026-01-14T1600,4058A,116.6598,39.9164,北京市,通州新华,颗粒物(PM10),62,73,64,36,31,31,,15,15,39,53,6,5,0.5,0.6
2026-01-14T1600,4182A,116.1942,39.9158,北京市,石景山八角,,,,58,,27,,,48,20,,47,,2,,0.5
2026-01-14T1600,4194A,117.078628,40.151726,北京市,平谷新城,颗粒物(PM10),55,59,48,33,26,54,,36,36,18,22,2,3,0.6,0.7
2026-01-14T1600,1761A,123.8274146,41.31234549,本溪市,大峪,,46,46,66,21,32,48,,39,39,24,39,11,10,0.6,1.3
2026-01-14T1600,1763A,123.7169,41.3094,本溪市,彩屯,,41,41,64,18,39,40,,36,36,33,41,14,13,2.4,1.9
2026-01-14T1600,1764A,123.7672166,41.28649327,本溪市,东明,,24,24,56,13,31,57,,49,49,12,34,9,9,0.6,1.1
2026-01-14T1600,1765A,123.799345,41.266614,本溪市,新立屯,,21,21,51,13,28,60,,55,55,10,25,10,9,0.5,0.8
2026-01-14T1600,1766A,123.829144,41.336777,本溪市,威宁,,33,33,61,23,29,46,,38,38,20,33,11,8,0.6,1
2026-01-14T1600,2587A,105.287,27.3133,毕节市,八中,细颗粒物(PM2.5),87,68,81,64,72,83,,78,78,10,20,9,12,0.6,0.9
2026-01-14T1600,2588A,105.3079,27.2987,毕节市,师专,细颗粒物(PM2.5),84,72,84,62,70,89,,86,86,11,23,8,9,0.7,0.9
2026-01-14T1600,4263A,105.3688,27.3598,毕节市,工业大道,细颗粒物(PM2.5),85,82,88,63,67,90,,,,18,19,10,11,/,/
2026-01-14T1600,1629A,117.9961,37.3604,滨州市,第二水厂,细颗粒物(PM2.5),149,190,114,114,65,18,,15,15,72,55,24,18,1.3,1.1
2026-01-14T1600,1630A,117.9789,37.3931,滨州市,北中新校,细颗粒物(PM2.5),156,183,104,119,62,24,,16,16,75,56,30,13,1.5,1
2026-01-14T1600,3514A,117.9379,37.3959,滨州市,中海酒店,细颗粒物(PM2.5),185,197,106,139,66,25,,18,18,69,47,33,16,1.5,1
2026-01-14T1600,3515A,117.9381509,37.35547456,滨州市,开发区一中,细颗粒物(PM2.5),168,185,122,127,71,23,,16,16,64,50,30,24,1.1,0.9
2026-01-14T1600,3516A,118.0914,37.6938,滨州市,金海六路,细颗粒物(PM2.5),132,163,98,100,50,37,,29,29,65,44,17,11,1.2,0.9
2026-01-14T1600,4028A,117.9955,37.3752,滨州市,滨州市西街道办事处,细颗粒物(PM2.5),170,183,115,129,72,25,,19,19,61,47,26,16,1.2,1
2026-01-14T1600,2311A,115.8071,33.8399,亳州市,污水处理厂,细颗粒物(PM2.5),110,126,151,83,109,98,,56,56,24,47,,8,,0.8
2026-01-14T1600,2312A,115.7789,33.8519,亳州市,三国揽胜宫,细颗粒物(PM2.5),122,133,166,92,121,94,,65,65,30,53,6,9,0.7,0.9
2026-01-14T1600,3332A,115.7631,33.803,亳州市,亳州学院,细颗粒物(PM2.5),124,118,137,94,103,98,,60,60,23,34,4,5,0.7,0.8
2026-01-14T1600,2693A,82.0482,44.8553,博尔塔拉蒙古自治州,市党校,细颗粒物(PM2.5),69,75,67,50,35,46,,60,51,25,22,2,4,0.6,0.4
2026-01-14T1600,2694A,82.0805,44.8966,博尔塔拉蒙古自治州,市环保局,细颗粒物(PM2.5),83,112,78,61,36,48,,62,46,26,22,7,8,1.1,0.8
2026-01-14T1600,1071A,116.8733,38.2922,沧州市,沧县城建局,细颗粒物(PM2.5),72,86,67,52,43,34,,24,24,44,45,10,7,0.5,0.5
2026-01-14T1600,1072A,116.8462,38.3189,沧州市,电视转播站,细颗粒物(PM2.5),85,96,66,63,41,36,,21,21,41,46,5,3,0.5,0.5
2026-01-14T1600,1073A,116.8588,38.3161,沧州市,市环保局,细颗粒物(PM2.5),78,103,75,57,45,34,,19,19,35,38,8,5,0.6,0.5
2026-01-14T1600,3324A,116.8011,38.294,沧州市,河北水利电力学院,颗粒物(PM10),74,97,68,52,35,34,,20,19,41,38,7,3,0.5,0.5
2026-01-14T1600,2622A,97.1813,31.1289,昌都市,昌都监测站,颗粒物(PM10),58,65,65,13,30,86,,53,53,2,31,3,3,0.3,1.1
2026-01-14T1600,3719A,97.1707,31.1428,昌都市,昌都会议中心,,49,42,22,34,21,79,,56,56,1,10,3,2,0.3,0.5
2026-01-14T1600,2692A,87.2722,44.0298,昌吉回族自治州,新区政务中心,细颗粒物(PM2.5),103,119,102,77,75,63,,47,47,26,42,8,8,1.3,1.3
2026-01-14T1600,3613A,87.3069,44.0093,昌吉回族自治州,亚心广场,细颗粒物(PM2.5),138,134,98,105,74,,,48,48,21,27,8,8,,1.1
2026-01-14T1600,4164A,87.2057,43.9289,昌吉回族自治州,财政所,细颗粒物(PM2.5),88,74,67,65,52,65,,51,51,13,22,6,6,0.7,0.7
2026-01-14T1600,1120A,125.2874,43.9024,长春市,客车厂,细颗粒物(PM2.5),65,,43,47,35,58,,42,42,20,33,12,13,0.5,0.7
2026-01-14T1600,1121A,125.2943,43.8508,长春市,邮电学院,,,,40,,29,,,50,45,,33,,14,,0.7
2026-01-14T1600,1122A,125.3648,43.8745,长春市,劳动公园,,44,44,42,26,36,57,,46,46,20,31,12,13,0.5,0.6
2026-01-14T1600,1123A,125.3233,43.8781,长春市,园林处,细颗粒物(PM2.5),60,,39,43,26,55,,44,44,19,27,11,13,0.5,0.8
2026-01-14T1600,1124A,125.4604,43.7904,长春市,净月潭,,39,39,33,24,20,61,,56,56,11,15,8,6,0.5,0.5
2026-01-14T1600,1126A,125.38,43.8422,长春市,经开区环卫处,,42,40,41,29,22,58,,46,46,21,30,9,8,0.5,0.7
2026-01-14T1600,1127A,125.234,43.7761,长春市,高新区管委会,颗粒物(PM10),51,52,44,30,32,64,,50,50,15,32,8,8,0.4,0.5
2026-01-14T1600,1128A,125.1695,43.83,长春市,岱山公园,颗粒物(PM10),53,56,49,34,34,47,,40,40,31,34,9,9,0.7,0.7
2026-01-14T1600,4281A,125.334645,43.916281,长春市,北亚泰大街1068号,,48,48,39,33,28,50,,40,40,32,37,12,12,0.8,0.8
2026-01-14T1600,1335A,113.082,28.2421,长沙市,经开区环保局,颗粒物(PM10),53,55,77,32,53,126,,94,94,19,44,6,12,0.6,0.7
2026-01-14T1600,1336A,112.8873,28.2202,长沙市,高开区环保局,细颗粒物(PM2.5),58,57,71,41,50,129,,95,95,11,28,11,9,0.8,0.8
2026-01-14T1600,1337A,113.0785,28.2012,长沙市,马坡岭,颗粒物(PM10),52,53,103,34,64,128,,91,91,12,50,8,7,0.6,0.8
2026-01-14T1600,1338A,112.9448,28.1894,长沙市,湖南师范大学,颗粒物(PM10),56,62,66,35,42,139,,93,93,14,30,10,8,0.8,0.8
2026-01-14T1600,1339A,113.0177,28.1322,长沙市,雨花区环保局,颗粒物(PM10),52,53,64,26,41,131,,94,94,16,26,12,12,0.6,0.7
2026-01-14T1600,1340A,112.9795,28.2593,长沙市,伍家岭,细颗粒物(PM2.5),55,57,110,39,70,130,,66,66,19,53,10,7,0.6,1
2026-01-14T1600,1341A,113.002,28.1944,长沙市,火车新站,细颗粒物(PM2.5),55,58,91,39,60,127,,92,92,17,52,12,12,0.7,1
2026-01-14T1600,1342A,112.9846,28.1177,长沙市,天心区环保局,,,,67,,49,137,,101,101,16,33,10,9,0.6,1
2026-01-14T1600,1343A,112.8906,28.1307,长沙市,湖南中医药大学,细颗粒物(PM2.5),57,58,94,40,61,134,,80,80,19,58,12,9,0.8,1.1
2026-01-14T1600,1727A,113.1146,36.1547,长治市,清华站,,,,60,,24,86,,61,61,8,33,11,13,0.4,0.6
2026-01-14T1600,1730A,113.0887,36.2126,长治市,审计局,,45,45,65,14,23,80,,41,41,11,32,9,14,0.5,0.6
2026-01-14T1600,1731A,113.0845,36.1856,长治市,长治八中,,,,88,,31,84,,46,46,7,30,10,15,0.5,0.6
2026-01-14T1600,2845A,113.1561,36.1912,长治市,德盛苑,,39,39,43,19,19,85,,68,68,11,15,10,10,0.5,0.7
2026-01-14T1600,3568A,113.0603,36.0464,长治市,向阳小学,颗粒物(PM10),59,67,66,18,21,91,,63,63,13,20,10,15,0.4,0.4
2026-01-14T1600,3569A,112.8788,36.315,长治市,屯留一中,颗粒物(PM10),52,53,70,22,30,83,,52,52,11,40,9,16,0.6,0.8
2026-01-14T1600,4189A,113.113092,36.199482,长治市,英华南巷50号,颗粒物(PM10),51,52,67,17,25,84,,47,47,12,33,8,12,0.6,0.8
2026-01-14T1600,4190A,113.23666,36.33435,长治市,学府街1号,颗粒物(PM10),53,56,67,23,32,80,,48,48,13,35,10,16,0.6,1
2026-01-14T1600,1854A,111.696,28.9725,常德市,市二中,细颗粒物(PM2.5),60,52,83,43,61,115,,68,68,13,29,6,8,0.8,1
2026-01-14T1600,3138A,111.7152,29.0288,常德市,武陵区永安,细颗粒物(PM2.5),58,54,93,41,75,114,,74,74,10,23,6,6,0.7,1
2026-01-14T1600,3139A,111.6891,28.9881,常德市,鼎城区玉霞,细颗粒物(PM2.5),63,54,87,45,71,116,,68,68,12,28,8,8,0.5,0.7
2026-01-14T1600,3140A,111.6651,29.0526,常德市,武陵区长庚,细颗粒物(PM2.5),59,54,96,42,74,115,,71,71,13,28,6,6,0.6,0.9
2026-01-14T1600,1196A,119.9524,31.7586,常州市,市监测站,,42,42,124,28,76,99,,70,70,26,69,5,9,0.5,0.9
2026-01-14T1600,1200A,119.9351,31.703,常州市,武进监测站,,49,47,109,34,71,100,,68,68,28,53,11,17,0.3,0.4
2026-01-14T1600,3002A,119.9701,31.813,常州市,行政中心,,43,43,111,24,65,97,,69,69,24,58,6,11,0.4,0.9
2026-01-14T1600,3003A,120.0434,31.7726,常州市,经开区,,,41,143,,75,94,,71,71,26,82,3,15,,1
2026-01-14T1600,3010A,119.8919,31.7892,常州市,钟楼,,,74,113,43,68,94,,68,68,,55,11,11,0.5,0.6
2026-01-14T1600,3429A,119.8595,31.706,常州市,武进经发区,"颗粒物(PM10),细颗粒物(PM2.5)",54,58,120,38,116,99,,68,68,38,62,4,12,0.6,0.7
2026-01-14T1600,3430A,119.5812,31.7256,常州市,金坛城区,细颗粒物(PM2.5),62,,95,44,78,87,,63,63,38,47,18,14,0.8,1
2026-01-14T1600,4089A,119.9551,31.863,常州市,崇义南街5-H号,颗粒物(PM10),52,53,102,27,68,96,,73,73,36,66,6,10,0.6,1
2026-01-14T1600,2220A,120.4318,41.588,朝阳市,西梁,细颗粒物(PM2.5),94,122,71,70,42,16,,28,28,50,40,15,13,1.4,1
2026-01-14T1600,2221A,120.452,41.565,朝阳市,河畔小区,细颗粒物(PM2.5),69,61,53,50,42,37,,29,29,35,31,16,12,1.3,1
2026-01-14T1600,2222A,120.4176,41.5648,朝阳市,八里堡,细颗粒物(PM2.5),64,70,60,46,37,18,,28,28,62,41,10,11,1.5,1.1
2026-01-14T1600,3026A,116.6179,23.6608,潮州市,市政府,,,74,76,27,42,131,,94,94,,31,,17,0.3,0.5
2026-01-14T1600,4036A,116.646,23.676,潮州市,金山,,48,48,56,28,38,142,,100,100,10,17,5,5,0.3,0.5
2026-01-14T1600,2473A,113.0116,25.8228,郴州市,市职中,,38,36,65,26,46,121,,74,74,7,30,7,6,0.5,0.8
2026-01-14T1600,2475A,113.0381,25.8074,郴州市,市审计局,,40,35,69,26,51,125,,81,81,8,38,2,4,/,/
2026-01-14T1600,2476A,113.0348,25.7757,郴州市,市环保局,,40,40,75,28,46,121,,90,90,7,38,4,4,0.3,0.5
2026-01-14T1600,4252A,113.0138,25.8011,郴州市,好美居路49号,,43,40,64,30,50,125,,84,84,8,39,4,4,/,/
2026-01-14T1600,1431A,103.9727,30.7242,成都市,金泉两河,细颗粒物(PM2.5),60,62,156,43,128,108,,62,62,22,49,3,3,0.7,1.2
2026-01-14T1600,1432A,104.1423,30.6765,成都市,十里店,颗粒物(PM10),54,57,150,31,118,103,,67,67,14,45,4,4,0.5,1
2026-01-14T1600,1433A,104.0594,30.5765,成都市,三瓦窑,"颗粒物(PM10),细颗粒物(PM2.5)",64,78,150,46,134,116,,66,66,21,53,4,4,0.6,1
2026-01-14T1600,1434A,104.1122,30.6306,成都市,沙河铺,,,,154,,140,98,,54,54,18,56,4,3,,1.1
2026-01-14T1600,2880A,104.0219,30.6561,成都市,大石西路,颗粒物(PM10),53,55,156,31,119,102,,56,56,20,50,6,5,0.8,1.4
2026-01-14T1600,3136A,104.2724,30.559,成都市,龙泉驿区区政府,颗粒物(PM10),54,58,120,36,104,112,,95,95,16,22,7,6,0.5,0.8
2026-01-14T1600,3357A,104.0028,30.6891,成都市,金博路,,47,47,147,28,123,108,,61,61,20,51,5,6,0.7,1.2
2026-01-14T1600,3359A,104.056,30.5228,成都市,华阳,细颗粒物(PM2.5),62,63,147,44,120,105,,70,70,16,50,3,3,0.5,0.9
2026-01-14T1600,3488A,104.387954,30.746684,成都市,青石路225号,细颗粒物(PM2.5),70,67,157,51,134,115,,70,70,17,56,4,2,0.5,1.1
2026-01-14T1600,3489A,104.0788,30.4054,成都市,科学城,细颗粒物(PM2.5),80,67,131,59,115,112,,72,72,15,35,7,6,0.1,0.6
2026-01-14T1600,4011A,103.8505,30.6946,成都市,光华大道三段,细颗粒物(PM2.5),57,62,166,40,139,115,,67,67,16,42,4,4,0.2,0.7
2026-01-14T1600,4144A,104.3257,30.6406,成都市,八角井街185号,细颗粒物(PM2.5),62,60,157,44,122,107,,81,81,17,28,3,3,0.4,1
2026-01-14T1600,4224A,104.2433276,30.53529463,成都市,鲸龙路1057号,细颗粒物(PM2.5),64,53,140,46,127,111,,81,81,14,41,5,5,0.5,0.9
2026-01-14T1600,1062A,117.9531,40.908,承德市,铁路,颗粒物(PM10),53,56,59,25,30,29,,24,24,30,38,9,7,0.7,0.8
2026-01-14T1600,1063A,117.9397,40.9763,承德市,中国银行,颗粒物(PM10),53,55,50,36,24,48,,35,35,18,27,11,5,0.8,0.7
2026-01-14T1600,4073A,117.9462,40.95,承德市,杏林街1号,"颗粒物(PM10),细颗粒物(PM2.5)",55,59,45,39,30,36,,28,28,25,29,8,6,0.7,0.8
2026-01-14T1600,4274A,117.7994,40.9605,承德市,滨河大街98号,细颗粒物(PM2.5),54,43,40,38,25,32,,27,27,29,29,16,7,0.9,0.7
2026-01-14T1600,2314A,117.4698,30.6617,池州市,池州学院,,,,63,,43,,,92,,,30,,12,,1.0
2026-01-14T1600,3237A,117.4918,30.6617,池州市,展览馆,,,70,65,26,40,107,,75,75,,41,12,6,1.1,1.2
2026-01-14T1600,3333A,117.5626,30.695,池州市,第八中学,,49,49,58,32,39,118,,90,90,20,28,11,8,0.9,1
2026-01-14T1600,3334A,117.5037,30.6242,池州市,第十二中学,细颗粒物(PM2.5),58,60,61,41,37,113,,90,90,25,39,14,7,0.6,1.1
2026-01-14T1600,1744A,118.9229,42.2816,赤峰市,松山一中,颗粒物(PM10),65,80,72,31,32,54,,23,23,24,50,9,32,1.0,1.4
2026-01-14T1600,1745A,118.9588,42.2733,赤峰市,哈达街,颗粒物(PM10),69,87,84,31,39,56,,27,27,31,48,6,61,0.7,1.6
2026-01-14T1600,1746A,118.8792,42.2551,赤峰市,天义路,,38,38,56,10,43,67,,33,33,15,46,5,27,0.4,1.3
2026-01-14T1600,3058A,119.2656,42.0356,赤峰市,银河街,颗粒物(PM10),67,83,81,27,45,53,,42,42,19,37,23,23,1.7,1.6
2026-01-14T1600,3286A,118.9359,42.3146,赤峰市,桥北物流园区,细颗粒物(PM2.5),107,98,60,80,46,32,,30,30,45,37,29,27,1.1,1.1
2026-01-14T1600,2521A,107.3473,22.4137,崇左市,市环保局江州分局,细颗粒物(PM2.5),68,75,100,49,72,141,,86,86,13,31,12,9,0.8,0.9
2026-01-14T1600,4256A,107.375,22.3736,崇左市,石景林东路7号,细颗粒物(PM2.5),83,73,77,61,68,145,,89,89,14,33,12,8,0.6,0.7
2026-01-14T1600,3207A,118.31131,32.3033,滁州市,市政府原办公楼,颗粒物(PM10),53,56,106,31,76,110,,69,69,19,44,9,8,0.4,0.6
2026-01-14T1600,3331A,118.3268,32.2633,滁州市,图书馆,,41,41,87,24,53,100,,79,79,24,40,12,12,0.4,0.7
2026-01-14T1600,4101A,118.3196,32.3335,滁州市,银山路666号,细颗粒物(PM2.5),55,52,95,39,81,108,,63,63,16,40,7,19,0.4,0.6
2026-01-14T1600,4102A,118.3426,32.2979,滁州市,黄山路555号,颗粒物(PM10),55,60,112,38,80,116,,85,85,35,53,13,14,0.7,0.9
2026-01-14T1600,2606A,101.5379,25.0492,楚雄彝族自治州,市经济开发区,,24,10,44,8,38,75,,44,44,3,20,2,3,0.4,0.6
2026-01-14T1600,4153A,101.5536,25.0343,楚雄彝族自治州,团结路562号,,,17,31,3,24,,,10,,4,14,3,4,0.5,0.8
2026-01-14T1600,2549A,107.5087,31.2186,达州市,市环境监测站,细颗粒物(PM2.5),228,205,131,178,109,44,,18,18,60,52,8,7,1.0,0.9
2026-01-14T1600,2550A,107.4988,31.2132,达州市,凤凰小区,细颗粒物(PM2.5),228,229,148,178,112,42,,17,17,54,49,7,6,1.1,1
2026-01-14T1600,2551A,107.5081,31.1987,达州市,达县机关宾馆,细颗粒物(PM2.5),205,212,159,155,114,34,,17,17,67,53,4,4,1.2,1.2
2026-01-14T1600,2552A,107.4644,31.2124,达州市,市政中心,细颗粒物(PM2.5),185,186,159,139,114,66,,23,23,32,54,9,7,0.8,1.1
2026-01-14T1600,2614A,100.2168,25.5818,大理白族自治州,大理市环境监测站,,29,25,26,20,22,80,,71,71,8,9,6,6,0.7,0.6
2026-01-14T1600,2615A,100.1542,25.7055,大理白族自治州,大理古城,,32,25,25,12,19,102,,77,77,5,14,8,8,0.6,0.6
2026-01-14T1600,1109A,121.6119,38.974,大连市,甘井子,,47,47,32,28,15,47,,71,63,29,20,7,9,0.2,0.3
2026-01-14T1600,1110A,121.565,38.9509,大连市,周水子,,41,41,28,24,14,45,,67,60,30,20,7,3,0.4,0.3
2026-01-14T1600,1111A,121.5637,38.8849,大连市,星海三站,,34,34,24,23,13,60,,70,65,22,16,6,7,0.4,0.3
2026-01-14T1600,1112A,121.6301,38.9117,大连市,青泥洼桥,,47,47,26,24,13,58,,68,65,23,13,9,8,0.6,0.4
2026-01-14T1600,1113A,121.6248,38.8643,大连市,傅家庄,颗粒物(PM10),53,56,28,20,11,51,,64,61,24,14,8,8,0.2,0.2
2026-01-14T1600,1114A,121.5117,38.8636,大连市,七贤岭,,44,44,29,24,12,53,,65,59,28,16,10,8,0.4,0.6
2026-01-14T1600,1116A,121.7507,39.1339,大连市,金州,颗粒物(PM10),54,58,28,37,17,42,,71,63,24,17,8,9,0.8,0.4
2026-01-14T1600,1117A,121.7811,39.0495,大连市,开发区,,45,45,28,29,15,28,,60,50,33,21,6,5,0.6,0.5
2026-01-14T1600,1118A,121.9762,39.0631,大连市,双D港,,45,45,21,28,10,52,,78,68,18,10,7,7,0.5,0.3
2026-01-14T1600,4082A,121.2548,38.8188,大连市,旅顺,,,,24,,15,,,68,63,,9,,5,,0.4
2026-01-14T1600,1789A,124.8085,46.0381,大庆市,大同区,,,37,32,18,18,54,,51,51,18,17,8,7,,0.6
2026-01-14T1600,1790A,125.1166,46.5255,大庆市,龙凤区,,28,28,36,13,22,40,,40,40,31,27,8,10,0.6,0.7
2026-01-14T1600,1791A,124.8894,46.4007,大庆市,红岗区,,43,,31,30,15,31,,39,39,27,19,6,5,0.6,0.4
2026-01-14T1600,1792A,125.1391,46.578,大庆市,萨尔图区,,30,30,35,10,17,44,,41,41,18,18,11,9,0.4,0.4
2026-01-14T1600,1793A,124.9026,46.6217,大庆市,让胡路区,,28,22,23,19,20,66,,62,62,10,8,8,7,0.4,0.5
2026-01-14T1600,3481A,125.127,46.6277,大庆市,萨区政府监测点,,23,23,27,3,10,59,,51,51,10,18,9,9,0.4,0.5
2026-01-14T1600,1723A,113.2926,40.0759,大同市,云冈宾馆,颗粒物(PM10),191,332,107,62,27,59,,61,61,17,26,6,8,0.5,0.7
2026-01-14T1600,1724A,113.3437,40.0921,大同市,大同大学,细颗粒物(PM2.5),169,267,104,128,37,65,,66,66,15,28,4,6,0.4,0.5
2026-01-14T1600,1725A,113.2637,40.129,大同市,安家小村,颗粒物(PM10),191,331,108,73,34,55,,61,60,14,26,6,9,0.3,0.7
2026-01-14T1600,3282A,113.3399,40.0586,大同市,大同市卫生学校,颗粒物(PM10),180,310,109,89,35,58,,60,60,22,31,5,9,0.3,0.4
2026-01-14T1600,3565A,113.1371,40.1122,大同市,云冈站,颗粒物(PM10),178,306,105,93,28,64,,65,65,13,20,4,6,0.5,0.5
2026-01-14T1600,3566A,113.1186,40.2556,大同市,图书馆,颗粒物(PM10),147,243,86,81,29,75,,71,71,7,15,3,7,0.4,0.6
2026-01-14T1600,3567A,113.5931,40.0459,大同市,区一中,,,,97,,28,,,69,69,,35,,11,,0.5
2026-01-14T1600,4199A,113.2798248,40.09972476,大同市,魏都大道141号,颗粒物(PM10),173,295,123,57,31,60,,62,62,,35,6,7,0.5,0.8
2026-01-14T1600,2269A,124.1068,50.4091,大兴安岭地区,科技局,,18,16,18,11,12,56,,54,54,2,2,5,5,0.3,0.3
2026-01-14T1600,3663A,124.117,50.4279,大兴安岭地区,红旗社区,,17,9,7,6,4,52,,59,53,4,2,5,5,0.2,0.3
2026-01-14T1600,1600A,124.33,40.0625,丹东市,江湾东路,,41,41,45,27,31,44,,35,35,20,26,9,12,0.6,0.9
2026-01-14T1600,1601A,124.4242,40.1513,丹东市,临江后街,,35,35,43,22,26,50,,39,39,14,25,6,12,0.6,0.7
2026-01-14T1600,1602A,124.3935,40.1461,丹东市,元宝山,,39,39,35,25,26,33,,29,29,27,23,18,15,0.6,0.8
2026-01-14T1600,1603A,124.3634,40.1093,丹东市,民主桥,颗粒物(PM10),51,52,46,27,25,26,,30,27,34,27,14,13,0.9,0.8
2026-01-14T1600,3541A,109.5726195,19.51688767,儋州市,第一中学子站,,30,30,50,16,27,90,,80,80,2,6,3,6,0.5,0.6
2026-01-14T1600,3542A,109.5567,19.5187,儋州市,东坡学校子站,,31,26,47,19,31,99,,87,87,2,7,6,7,0.4,0.5
2026-01-14T1600,2616A,98.5611,24.4273,德宏傣族景颇族自治州,德宏州监测站,,34,34,52,22,39,88,,48,48,9,26,7,7,0.5,0.7
2026-01-14T1600,3677A,98.5887,24.4366,德宏傣族景颇族自治州,芒市人民政府综合楼,,45,45,50,29,31,83,,45,45,8,16,5,5,0.5,0.7
2026-01-14T1600,1901A,104.424,31.1209,德阳市,东山公园,颗粒物(PM10),63,76,142,36,133,103,,75,75,14,32,5,5,0.4,0.9
2026-01-14T1600,1902A,104.3827,31.1318,德阳市,西小区,颗粒物(PM10),72,93,169,40,132,100,,52,52,12,54,4,4,0.5,1.2
2026-01-14T1600,1904A,104.3553,31.1091,德阳市,耐火材料厂,细颗粒物(PM2.5),63,56,142,45,135,99,,54,54,18,49,2,2,0.6,1.1
2026-01-14T1600,4145A,104.4144,31.1495,德阳市,市林业局,,,53,158,35,145,,,39,39,,64,,4,,1.3
2026-01-14T1600,1622A,116.3034,37.4675,德州市,儿童乐园,细颗粒物(PM2.5),170,217,119,129,63,32,,21,21,62,49,22,19,1.4,1.1
2026-01-14T1600,1624A,116.2992,37.4449,德州市,监理站,细颗粒物(PM2.5),175,207,110,132,59,40,,29,29,63,49,,18,,1
2026-01-14T1600,3066A,116.2722,37.438,德州市,九衢泉纯净水厂,细颗粒物(PM2.5),180,210,115,136,66,32,,20,20,67,51,16,13,1.3,1
2026-01-14T1600,3371A,116.3693,37.44,德州市,开发区人民医院,细颗粒物(PM2.5),180,222,111,136,60,37,,27,27,72,58,23,18,1.3,0.9
2026-01-14T1600,3511A,116.5687,37.3331,德州市,陵城艺术中心,细颗粒物(PM2.5),175,207,117,132,65,27,,18,18,66,48,22,22,1.4,1
2026-01-14T1600,4292A,116.352738,37.420875,德州市,新河东路,细颗粒物(PM2.5),188,207,107,141,61,30,,21,21,79,55,25,18,1.5,1.1
2026-01-14T1600,2621A,99.7054,27.8319,迪庆藏族自治州,迪庆州站,,28,20,32,3,20,88,,73,73,6,12,4,5,0.3,0.6
2026-01-14T1600,3180A,99.7122,27.8129,迪庆藏族自治州,质量技术监督局,,29,17,26,6,19,92,,72,72,6,14,4,4,0.2,0.4
2026-01-14T1600,4257A,104.6092,35.5962,定西市,将台街,颗粒物(PM10),89,128,99,28,39,96,,65,65,5,33,9,16,0.2,0.7
2026-01-14T1600,4309A,104.6159,35.5701,定西市,正龙路62号,颗粒物(PM10),104,158,118,29,45,96,,66,66,2,15,6,18,0.4,0.9
2026-01-14T1600,1390A,113.7943,23.0132,东莞市,东城石井,臭氧1小时(O3_1h),68,43,93,23,48,174,,130,130,22,60,7,7,0.4,0.6
2026-01-14T1600,1391A,113.7384,22.9659,东莞市,南城西平,,,,86,,51,140,,111,111,23,86,8,11,0.5,0.7
2026-01-14T1600,3319A,113.7283,23.041,东莞市,万江金泰,臭氧1小时(O3_1h),63,57,101,33,61,170,,132,132,24,75,6,7,0.8,1.2
2026-01-14T1600,4129A,113.8666,23.1062,东莞市,裕兴路,臭氧1小时(O3_1h),115,75,109,30,54,230,,142,142,31,72,6,10,0.8,1
2026-01-14T1600,4130A,114.0076,22.9739,东莞市,教育路1号,,49,35,101,18,53,156,,120,120,20,71,4,7,0.5,0.8
2026-01-14T1600,4131A,113.7981,22.8124,东莞市,长怡路1号,颗粒物(PM10),53,56,92,27,48,94,,86,86,40,82,8,9,0.7,0.8
2026-01-14T1600,1666A,118.6612,37.4313,东营市,市环保局,细颗粒物(PM2.5),160,190,98,122,52,29,,24,24,81,46,39,18,1.5,0.9
2026-01-14T1600,3036A,118.6903,37.4337,东营市,开发区管委会,细颗粒物(PM2.5),168,194,104,127,58,33,,30,25,82,41,8,9,1.2,0.6
2026-01-14T1600,3365A,118.5721,37.5654,东营市,垦利区民丰路,细颗粒物(PM2.5),149,193,100,114,53,18,,25,25,84,44,14,9,1.4,0.9
2026-01-14T1600,3498A,118.5063,37.8606,东营市,河口城区,细颗粒物(PM2.5),119,146,96,90,50,32,,30,30,63,40,20,12,1.3,1
2026-01-14T1600,3646A,118.4979,37.4623,东营市,胜利站,细颗粒物(PM2.5),168,179,97,127,58,19,,21,19,89,50,29,23,1.6,1.1
2026-01-14T1600,3734A,118.5753,37.4405,东营市,理想之城,细颗粒物(PM2.5),149,171,95,114,56,18,,20,20,84,51,34,14,1.6,1.1
2026-01-14T1600,1591A,110.0024,39.8127,鄂尔多斯市,综合楼,颗粒物(PM10),276,403,310,41,50,80,,77,75,6,10,4,5,0.3,0.4
2026-01-14T1600,1592A,109.9485,39.8259,鄂尔多斯市,巴音孟克林场办事处,颗粒物(PM10),238,376,283,58,60,85,,82,80,5,8,5,6,0.1,0.2
2026-01-14T1600,1593A,109.7734,39.5987,鄂尔多斯市,康泽苑,颗粒物(PM10),296,417,272,44,52,90,,85,85,4,7,5,5,0.3,0.3
2026-01-14T1600,1594A,109.8121,39.5987,鄂尔多斯市,华泰汽车城,颗粒物(PM10),248,383,264,44,50,90,,84,84,4,7,3,4,0.3,0.3
2026-01-14T1600,1595A,109.9734,39.7884,鄂尔多斯市,奥林花园,颗粒物(PM10),272,400,296,53,50,72,,68,68,17,19,15,15,0.3,0.3
2026-01-14T1600,2436A,114.894,30.3989,鄂州市,市政府,"颗粒物(PM10),细颗粒物(PM2.5)",55,59,68,39,50,99,,90,90,33,30,9,10,0.8,0.8
2026-01-14T1600,2437A,114.8986,30.3714,鄂州市,赵家坝,,,,78,,54,109,,95,95,,19,12,12,1.0,0.9
2026-01-14T1600,3654A,114.8093,30.4091,鄂州市,精准医疗中心,颗粒物(PM10),51,51,97,16,61,119,,92,92,8,41,8,66,0.4,1.8
2026-01-14T1600,2454A,109.4978,30.2979,恩施土家族苗族自治州,湖北民院,细颗粒物(PM2.5),142,,88,108,99,9,,10,10,41,25,7,6,1.3,1.2
2026-01-14T1600,3549A,109.5061,30.3771,恩施土家族苗族自治州,龙凤新区,细颗粒物(PM2.5),128,117,97,97,82,16,,10,10,34,19,7,7,0.8,0.7
2026-01-14T1600,2499A,108.3411,21.6159,防城港市,沙万,颗粒物(PM10),59,67,100,27,68,140,,113,113,20,42,13,13,0.7,1
2026-01-14T1600,2500A,108.3515,21.7733,防城港市,防城档案局,颗粒物(PM10),51,51,93,28,66,140,,104,104,16,25,10,7,0.7,0.8
2026-01-14T1600,2501A,108.3506,21.6414,防城港市,大海花园,细颗粒物(PM2.5),63,73,90,45,65,158,,128,128,18,32,20,14,0.8,1.1
2026-01-14T1600,1371A,113.1293,23.0065,佛山市,湾梁,颗粒物(PM10),51,51,96,21,54,139,,96,96,23,90,/,/,/,/
2026-01-14T1600,1372A,113.1082,23.0477,佛山市,华材职中,,49,48,119,34,67,142,,93,93,20,90,6,7,0.5,1.1
2026-01-14T1600,1373A,113.1439,23.045,佛山市,南海气象局,,,47,92,42,61,,,84,84,25,86,/,/,/,/
2026-01-14T1600,1374A,113.2879,22.8094,佛山市,顺德苏岗,,47,47,88,19,59,120,,81,81,23,82,/,/,0.6,1
2026-01-14T1600,1376A,112.8384,22.8678,佛山市,高明孔堂,,,53,75,39,54,164,,104,104,,47,/,/,/,/
2026-01-14T1600,1377A,112.8835,23.1584,佛山市,三水监测站,颗粒物(PM10),59,68,106,39,68,157,,86,86,40,91,1,8,0.7,1
2026-01-14T1600,1378A,112.8668,23.185,佛山市,三水云东海,臭氧1小时(O3_1h),74,57,95,35,63,179,,95,95,36,71,/,/,/,/
2026-01-14T1600,3625A,113.2568,22.7629,佛山市,容桂街道办,,44,44,120,24,74,126,,87,87,21,101,/,/,/,/
2026-01-14T1600,1282A,119.2681,26.0506,福州市,师大,颗粒物(PM10),54,58,54,24,31,132,,101,101,25,33,4,5,0.5,0.6
2026-01-14T1600,1283A,119.2983,26.1028,福州市,五四北路,颗粒物(PM10),51,51,49,23,29,123,,98,98,22,29,5,5,0.6,0.7
2026-01-14T1600,1284A,119.2648,26.0769,福州市,杨桥西路,颗粒物(PM10),52,54,50,24,29,130,,101,101,17,29,5,5,/,/
2026-01-14T1600,3048A,119.5799,26.0937,福州市,九龙,,43,43,42,16,24,125,,112,112,13,22,5,5,0.6,0.7
2026-01-14T1600,3526A,119.5188,25.9666,福州市,吴航,,40,30,51,13,29,126,,93,93,11,32,5,6,0.6,0.7
2026-01-14T1600,4104A,119.3106,26.0648,福州市,路通桥巷6号,颗粒物(PM10),54,58,53,24,35,125,,94,94,18,27,/,/,/,/
2026-01-14T1600,1755A,123.7974,41.8494,抚顺市,望花区,,46,46,74,27,36,34,,37,37,38,41,7,4,0.7,1
2026-01-14T1600,1756A,123.9161,41.8827,抚顺市,顺城区,,37,37,65,23,36,45,,44,44,29,41,8,9,0.7,0.9
2026-01-14T1600,1757A,124.0437,41.8615,抚顺市,东洲区,,34,34,44,18,24,52,,47,47,12,19,8,9,0.6,0.7
2026-01-14T1600,1758A,123.9246,41.8638,抚顺市,新抚区,,36,36,66,24,35,49,,48,48,31,43,8,8,0.7,0.9
2026-01-14T1600,1759A,124.0972,41.8961,抚顺市,大伙房水库,,28,24,40,19,23,59,,55,55,9,19,10,10,0.7,0.8
2026-01-14T1600,1760A,123.708,41.8386,抚顺市,沈抚新城,细颗粒物(PM2.5),99,84,87,74,45,17,,25,25,63,43,17,17,2.6,2.6
2026-01-14T1600,2377A,116.3544,27.9833,抚州市,市站,,36,33,64,16,44,113,,74,74,10,35,9,8,0.5,0.7
2026-01-14T1600,2378A,116.3562,27.9631,抚州市,血防站,,34,33,61,13,39,106,,70,70,20,45,6,7,0.5,1.3
2026-01-14T1600,2379A,116.3561,28.0007,抚州市,采茶剧团,,40,29,64,10,42,126,,81,81,4,35,5,7,0.9,1.1
2026-01-14T1600,2380A,116.3854,27.9648,抚州市,医学分院,,37,32,61,14,33,116,,76,76,4,26,6,8,0.5,0.6
2026-01-14T1600,2207A,121.6095,41.9978,阜新市,工业园区,细颗粒物(PM2.5),64,66,106,46,69,43,,33,33,26,41,14,26,0.6,1.2
2026-01-14T1600,2208A,121.6567,42.0188,阜新市,长青街,颗粒物(PM10),57,63,83,39,58,40,,30,30,32,40,12,29,0.6,1.2
2026-01-14T1600,2209A,121.6672,42.07,阜新市,农业园区,细颗粒物(PM2.5),70,77,73,51,47,34,,41,41,36,26,18,27,0.7,0.8
2026-01-14T1600,2211A,121.6343,42.0455,阜新市,玉龙新城,颗粒物(PM10),71,92,89,41,50,30,,33,33,41,45,16,17,0.7,1.1
2026-01-14T1600,2301A,115.8276,32.8929,阜阳市,市监测站,颗粒物(PM10),61,71,122,43,84,105,,79,79,22,48,6,7,0.5,0.8
2026-01-14T1600,2303A,115.8551,32.8606,阜阳市,开发区,细颗粒物(PM2.5),57,48,113,40,78,107,,79,79,22,48,6,7,0.5,0.8
2026-01-14T1600,2875A,115.783962,32.889217,阜阳市,阜阳职业技术学院,细颗粒物(PM2.5),59,61,106,42,73,111,,87,87,13,39,8,9,0.6,0.9
2026-01-14T1600,3468A,115.79,32.8614,阜阳市,市规划展馆,细颗粒物(PM2.5),63,56,111,45,81,118,,92,92,18,32,7,9,0.7,0.9
2026-01-14T1600,3469A,115.835101,32.918568,阜阳市,枣园社区,细颗粒物(PM2.5),69,59,123,50,86,111,,78,78,20,56,6,8,0.6,0.8
2026-01-14T1600,2669A,102.9097,34.9841,甘南藏族自治州,州政府,,34,34,51,17,25,100,,68,68,1,19,2,7,0.2,0.6
2026-01-14T1600,3380A,102.8915,34.9618,甘南藏族自治州,甘肃民族师范学院,,46,46,58,10,18,95,,69,69,2,18,6,10,0.4,0.5
2026-01-14T1600,2570A,101.96,30.048,甘孜藏族自治州,水桥子,,32,29,27,22,10,99,,66,66,6,26,6,6,0.7,0.7
2026-01-14T1600,3065A,101.9534,29.9976,甘孜藏族自治州,州环保局,,36,29,19,25,7,100,,73,73,8,11,6,6,0.6,0.5
2026-01-14T1600,2363A,114.9368,25.8663,赣州市,地委,,50,46,55,35,33,156,,86,86,18,44,9,8,0.8,0.8
2026-01-14T1600,2364A,114.946,25.8483,赣州市,气象台,颗粒物(PM10),51,51,76,29,32,142,,91,91,38,65,5,5,0.5,0.7
2026-01-14T1600,2365A,114.932,25.8332,赣州市,市图书馆,颗粒物(PM10),53,56,69,36,35,118,,0,,22,64,4,5,0.9,0.9
2026-01-14T1600,2366A,114.8905,25.8472,赣州市,华坚鞋城,颗粒物(PM10),51,51,73,30,35,121,,77,77,25,54,10,11,0.5,0.6
2026-01-14T1600,3109A,115.0094,25.8614,赣州市,赣县区卫计委,细颗粒物(PM2.5),57,58,53,40,39,131,,72,72,21,37,7,7,0.7,0.7
2026-01-14T1600,2684A,106.2753,36.0057,固原市,监测站,颗粒物(PM10),54,57,185,16,37,88,,79,79,4,20,5,7,0.4,0.7
2026-01-14T1600,2685A,106.2384,36.0189,固原市,新区,颗粒物(PM10),54,57,163,10,29,91,,83,83,3,17,4,3,0.1,0.3
2026-01-14T1600,2544A,106.6307,30.4577,广安市,市委,细颗粒物(PM2.5),165,128,136,125,130,92,,46,46,14,32,10,9,0.9,1.1
2026-01-14T1600,2545A,106.6266,30.4662,广安市,友谊中学,细颗粒物(PM2.5),155,126,123,118,112,89,,44,44,16,29,7,6,1.1,1.2
2026-01-14T1600,2547A,106.6386,30.4551,广安市,广电花园,细颗粒物(PM2.5),162,128,130,123,126,84,,46,46,,32,10,9,0.7,1
2026-01-14T1600,2902A,106.6347,30.4868,广安市,北辰小学,细颗粒物(PM2.5),159,125,117,121,110,90,,41,41,16,20,3,2,1.1,1.1
2026-01-14T1600,2524A,105.8211,32.4444,广元市,老城,,43,43,75,14,58,89,,77,77,12,33,16,16,0.4,0.9
2026-01-14T1600,2526A,105.8629,32.429,广元市,监测站,颗粒物(PM10),51,52,73,14,54,86,,76,76,12,27,1,3,0.5,1
2026-01-14T1600,3617A,105.8047,32.4167,广元市,经开区,,44,44,76,15,57,81,,73,73,10,28,2,4,0.5,0.9
2026-01-14T1600,1345A,113.2346,23.1423,广州市,广雅中学,,44,44,111,26,65,126,,95,95,18,95,3,5,1.0,1.4
2026-01-14T1600,1346A,113.2611,23.105,广州市,市五中,,47,37,99,22,65,148,,118,118,23,107,8,10,/,/
2026-01-14T1600,1348A,113.3477,23.0916,广州市,广东商学院,,43,43,106,25,68,128,,98,98,21,95,6,9,0.4,0.8
2026-01-14T1600,1349A,113.4332,23.105,广州市,市八十六中,臭氧1小时(O3_1h),78,56,91,29,61,182,,124,124,36,102,8,12,/,/
2026-01-14T1600,1350A,113.3506,22.9488,广州市,番禺中学,,45,45,99,23,58,135,,101,101,24,84,4,7,0.6,0.9
2026-01-14T1600,1351A,113.2147,23.3918,广州市,花都师范,臭氧1小时(O3_1h),109,94,95,53,55,218,,104,104,41,87,7,7,0.5,0.9
2026-01-14T1600,1352A,113.2599,23.1329,广州市,市监测站,,41,37,106,22,63,130,,100,100,22,104,2,4,/,/
2026-01-14T1600,1353A,113.5618,23.3119,广州市,九龙镇镇龙,臭氧1小时(O3_1h),121,108,96,66,50,241,,112,112,38,57,8,6,0.6,0.6
2026-01-14T1600,1354A,113.2764,23.1544,广州市,麓湖,,43,43,86,26,55,136,,107,107,22,97,9,11,0.4,0.7
2026-01-14T1600,2846A,113.3209,23.1323,广州市,体育西,,,46,98,24,60,,,93,93,23,96,6,9,0.4,1
2026-01-14T1600,3298A,113.5718,23.5493,广州市,从化街口,,48,42,70,28,49,151,,95,95,16,46,10,10,0.5,0.8
2026-01-14T1600,3299A,113.3463,23.369,广州市,白云竹料,臭氧1小时(O3_1h),114,94,90,54,53,227,,105,105,38,64,6,5,0.6,0.8
2026-01-14T1600,3300A,113.2981,23.2365,广州市,白云嘉禾,臭氧1小时(O3_1h),80,67,110,37,58,184,,118,118,32,96,6,8,/,/
2026-01-14T1600,3301A,113.4256,23.1716,广州市,黄埔科学城,臭氧1小时(O3_1h),110,73,80,44,48,220,,129,129,32,70,8,8,0.6,0.8
2026-01-14T1600,3302A,113.3942,23.0485,广州市,番禺大学城,颗粒物(PM10),52,53,101,23,55,150,,122,122,21,81,11,15,0.4,0.7
2026-01-14T1600,3303A,113.4923,22.8169,广州市,南沙黄阁,,47,42,91,20,48,148,,104,104,26,74,6,8,/,/
2026-01-14T1600,3304A,113.534,22.7893,广州市,南沙街,颗粒物(PM10),52,54,89,20,46,137,,101,101,23,59,5,6,0.5,0.6
2026-01-14T1600,3443A,113.2905,23.5541,广州市,花都梯面,颗粒物(PM10),52,53,56,30,38,144,,98,98,32,48,6,5,/,/
2026-01-14T1600,3445A,113.786,23.7479,广州市,从化良口,,46,39,37,32,29,128,,90,90,10,25,10,9,/,/
2026-01-14T1600,3446A,113.805,23.2614,广州市,增城荔城,臭氧1小时(O3_1h),111,75,58,46,39,221,,121,121,23,29,8,9,0.5,0.6
2026-01-14T1600,2506A,109.604387,23.066791,贵港市,江南子站,臭氧1小时(O3_1h),64,58,137,40,101,171,,112,112,11,53,10,12,0.6,1.1
2026-01-14T1600,2508A,109.5669,23.1065,贵港市,荷城子站,细颗粒物(PM2.5),58,58,105,41,81,153,,108,108,14,41,11,12,0.9,1.3
2026-01-14T1600,3405A,109.5886,23.1172,贵港市,新世纪学校,细颗粒物(PM2.5),62,68,111,44,78,162,,113,113,12,37,/,/,0.5,0.8
2026-01-14T1600,4260A,109.5933,23.095,贵港市,中山路155-3号,臭氧1小时(O3_1h),64,60,109,38,85,171,,112,112,14,49,/,/,0.5,0.9
2026-01-14T1600,1439A,106.6863,26.6035,贵阳市,马鞍山,细颗粒物(PM2.5),104,83,54,78,49,66,,82,66,17,18,8,9,/,/
2026-01-14T1600,1441A,106.6241,26.6266,贵阳市,鉴湖路,细颗粒物(PM2.5),94,97,65,70,41,81,,84,70,19,18,5,8,0.7,0.6
2026-01-14T1600,1442A,106.7468,26.6344,贵阳市,燕子冲,细颗粒物(PM2.5),128,105,64,97,56,69,,76,33,25,27,7,13,0.8,0.7
2026-01-14T1600,1443A,106.6556,26.4362,贵阳市,碧云窝,细颗粒物(PM2.5),117,105,66,88,46,54,,102,75,31,13,11,7,/,/
2026-01-14T1600,1445A,106.6963,26.6063,贵阳市,红边门,细颗粒物(PM2.5),117,107,63,88,50,60,,72,59,29,26,13,12,/,/
2026-01-14T1600,1446A,106.7162383,26.56964667,贵阳市,新华路,细颗粒物(PM2.5),119,112,71,90,48,60,,63,50,25,28,9,12,0.8,0.6
2026-01-14T1600,1447A,106.6742,26.542,贵阳市,太慈桥,细颗粒物(PM2.5),104,85,62,78,46,55,,72,61,31,22,5,6,/,/
2026-01-14T1600,4230A,106.688212,26.56952,贵阳市,花果园大街66号,细颗粒物(PM2.5),137,,53,104,58,55,,68,58,27,23,5,6,/,/
2026-01-14T1600,4231A,106.687268,26.516892,贵阳市,漓江路57号,细颗粒物(PM2.5),117,102,62,88,48,53,,72,59,32,27,13,16,1.3,1
2026-01-14T1600,1864A,110.3091,25.2705,桂林市,龙隐路小学,细颗粒物(PM2.5),70,73,76,51,67,140,,81,81,11,34,10,12,0.7,0.8
2026-01-14T1600,1865A,110.2849361,25.22909545,桂林市,八中,细颗粒物(PM2.5),69,67,92,50,77,106,,65,65,12,33,12,13,0.5,0.7
2026-01-14T1600,3531A,110.296,25.1254,桂林市,旅游学院,细颗粒物(PM2.5),64,58,89,46,71,137,,77,77,9,30,10,8,0.4,0.6
2026-01-14T1600,4222A,110.1835,25.2444,桂林市,环湖路276号,细颗粒物(PM2.5),67,66,91,48,65,129,,64,64,12,42,13,12,0.5,0.8
2026-01-14T1600,4301A,110.2803,25.2773,桂林市,信义路13号,细颗粒物(PM2.5),65,71,87,47,65,144,,77,77,14,41,9,12,0.8,1.1
2026-01-14T1600,2674A,100.2262,34.4854,果洛藏族自治州,玛沁县大武镇,,34,28,45,16,18,108,,95,95,2,3,12,15,0.2,0.3
2026-01-14T1600,1130A,126.5557,45.8109,哈尔滨市,松北商大,,35,33,26,24,15,46,,50,50,25,15,9,7,0.5,0.5
2026-01-14T1600,1132A,126.6162,45.719,哈尔滨市,南岗学府路,细颗粒物(PM2.5),68,62,44,49,28,45,,48,48,27,17,11,9,0.8,0.8
2026-01-14T1600,1133A,126.6894,45.7733,哈尔滨市,太平宏伟公园,细颗粒物(PM2.5),55,57,31,39,22,45,,47,47,30,20,16,16,0.6,0.6
2026-01-14T1600,1134A,126.6361,45.7672,哈尔滨市,道外承德广场,颗粒物(PM10),61,71,44,34,22,38,,43,43,39,29,21,11,0.5,0.5
2026-01-14T1600,1136A,126.644,45.7261,哈尔滨市,动力和平路,细颗粒物(PM2.5),63,59,43,45,27,36,,47,47,37,20,14,11,0.7,0.5
2026-01-14T1600,1137A,126.5933,45.7479,哈尔滨市,道里建国路,细颗粒物(PM2.5),62,45,31,44,26,43,,42,42,31,24,16,9,0.9,0.3
2026-01-14T1600,1138A,126.6127,45.6119,哈尔滨市,平房东轻厂,细颗粒物(PM2.5),72,53,37,52,24,57,,47,47,25,27,5,5,0.8,0.8
2026-01-14T1600,1139A,126.5875,45.9827,哈尔滨市,呼兰师专,,36,34,31,25,28,53,,48,48,14,13,6,7,0.5,0.6
2026-01-14T1600,1140A,126.6299,45.6799,哈尔滨市,省农科院,,,,35,,28,,,48,48,42,26,12,12,0.5,0.5
2026-01-14T1600,4282A,126.6769,45.7379,哈尔滨市,华山路1号,细颗粒物(PM2.5),60,61,34,43,23,34,,40,40,39,22,17,17,0.7,0.7
2026-01-14T1600,4283A,126.9717,45.5356,哈尔滨市,解放大街52号,细颗粒物(PM2.5),67,56,54,48,44,57,,51,51,22,20,13,10,0.8,0.9
2026-01-14T1600,2688A,93.5124,42.8176,哈密市,地区监测站,颗粒物(PM10),500,1059,413,193,89,51,,55,54,17,18,4,3,,0.2
2026-01-14T1600,2689A,93.5014,42.8312,哈密市,哈密师范学校,颗粒物(PM10),500,1046,448,254,92,49,,47,47,20,34,3,3,0.3,0.6
2026-01-14T1600,2671A,100.9016,36.9464,海北藏族自治州,海晏县西海镇,,48,48,106,13,28,88,,80,80,1,4,8,9,0.3,0.4
2026-01-14T1600,3867A,102.074,36.5056,海东市,平安区公安局北苑,,,40,106,10,33,82,,52,52,,36,9,16,0.5,0.9
2026-01-14T1600,4163A,102.0984,36.5119,海东市,滨河路,颗粒物(PM10),54,57,108,18,40,94,,58,58,9,49,5,17,0.4,0.9
2026-01-14T1600,1410A,110.3189,20.0596,海口市,海南大学,臭氧1小时(O3_1h),100,38,60,24,34,200,,196,196,13,17,6,7,0.3,0.3
2026-01-14T1600,1411A,110.2827,20.0051,海口市,秀英海南医院,臭氧1小时(O3_1h),62,53,61,21,34,169,,164,164,11,22,8,9,0.4,0.5
2026-01-14T1600,1412A,110.3391,19.9979,海口市,海南师范大学,臭氧1小时(O3_1h),74,52,59,21,35,179,,186,186,12,18,6,7,0.7,0.6
2026-01-14T1600,1413A,110.3303,20.0359,海口市,龙华路环保局宿舍,臭氧1小时(O3_1h),87,49,58,25,38,189,,177,177,11,15,/,/,0.7,0.6
2026-01-14T1600,3539A,110.5111,19.9737,海口市,桂林洋子站,,46,27,63,18,38,147,,139,139,8,19,/,/,/,/
2026-01-14T1600,4134A,110.1952,20.0451,海口市,长滨二路9号,臭氧1小时(O3_1h),80,35,55,25,39,184,,162,162,15,19,/,/,/,/
2026-01-14T1600,2673A,100.6158,36.2985,海南藏族自治州,共和县恰卜恰镇,细颗粒物(PM2.5),78,,105,57,40,99,,92,92,2,17,9,12,0.3,0.5
2026-01-14T1600,2676A,97.373,37.376,海西蒙古族藏族自治州,德令哈市,颗粒物(PM10),67,83,167,24,23,91,,79,79,2,5,11,12,0.5,0.5
2026-01-14T1600,1049A,114.492,36.5712,邯郸市,矿院,细颗粒物(PM2.5),125,112,98,95,91,29,,22,,53,53,10,10,1.2,1
2026-01-14T1600,1050A,114.4839,36.6136,邯郸市,丛台公园,细颗粒物(PM2.5),147,118,107,112,81,32,,28,28,53,52,13,12,1.4,1
2026-01-14T1600,3458A,114.7893,36.5592,邯郸市,香泉濮院小区,细颗粒物(PM2.5),109,130,127,82,83,45,,32,32,40,60,11,12,0.9,1
2026-01-14T1600,3580A,114.1998,36.4439,邯郸市,峰峰矿区临水派出所,细颗粒物(PM2.5),180,136,111,136,109,39,,34,34,55,58,31,27,2.8,1.7
2026-01-14T1600,4068A,114.5209,36.7697,邯郸市,建安街268号,细颗粒物(PM2.5),143,120,116,109,78,32,,21,21,54,63,26,13,1.8,1
2026-01-14T1600,4069A,114.5488,36.6177,邯郸市,丛台东路558号,细颗粒物(PM2.5),94,125,127,70,87,32,,26,26,47,69,10,14,1.4,1.1
2026-01-14T1600,2635A,107.0155,33.0707,汉中市,市监测站,颗粒物(PM10),68,86,115,48,102,77,,39,39,22,46,6,6,0.6,1.4
2026-01-14T1600,2636A,107.0083,33.114,汉中市,鑫源开发区,细颗粒物(PM2.5),83,87,115,61,101,81,,36,36,27,53,5,8,0.6,1.2
2026-01-14T1600,2637A,107.0072,33.0323,汉中市,南郑大河坎水厂,颗粒物(PM10),72,93,118,35,92,79,,37,37,19,35,5,6,0.5,1.2
2026-01-14T1600,1223A,120.2073,30.2111,杭州市,滨江,颗粒物(PM10),55,59,74,33,46,98,,73,73,35,53,8,8,0.4,0.6
2026-01-14T1600,1224A,120.0625,30.2737,杭州市,西溪,颗粒物(PM10),87,123,62,34,33,100,,59,59,25,33,10,9,0.8,0.9
2026-01-14T1600,1226A,120.3417,30.315,杭州市,下沙,细颗粒物(PM2.5),69,79,85,50,50,82,,78,78,71,72,11,11,0.6,0.7
2026-01-14T1600,1227A,120.1252,30.2465,杭州市,卧龙桥,,46,46,53,27,32,102,,67,67,28,36,10,9,0.2,0.4
2026-01-14T1600,1228A,120.1902,30.2691,杭州市,浙江农大,,42,42,97,25,52,96,,72,72,40,73,6,7,0.4,0.8
2026-01-14T1600,1230A,120.1195,30.3121,杭州市,和睦小学,,50,49,88,35,49,95,,62,62,24,65,6,7,0.6,1
2026-01-14T1600,1231A,120.3076,30.4146,杭州市,临平镇,颗粒物(PM10),53,56,103,28,58,92,,64,64,30,74,8,9,0.4,0.7
2026-01-14T1600,1232A,120.2753,30.1839,杭州市,城厢镇,细颗粒物(PM2.5),64,75,75,46,48,91,,73,73,49,66,9,9,0.6,0.7
2026-01-14T1600,1233A,120.0883,30.1808,杭州市,云栖,颗粒物(PM10),73,95,71,30,39,101,,65,65,34,38,6,4,0.4,0.6
2026-01-14T1600,3557A,119.9463,30.0496,杭州市,镇二中,,44,44,61,27,43,77,,57,57,48,54,6,6,0.7,0.8
2026-01-14T1600,3558A,119.7184,30.2367,杭州市,市府大楼,,41,41,66,20,38,108,,78,78,17,31,12,12,0.5,0.8
2026-01-14T1600,3656A,120.1554,30.2863,杭州市,消防大队,,48,48,77,27,53,89,,55,55,25,64,7,7,0.4,0.7
2026-01-14T1600,1270A,117.1957,31.7845,合肥市,明珠广场,颗粒物(PM10),60,70,97,39,57,74,,46,46,51,82,10,8,0.5,0.8
2026-01-14T1600,1271A,117.307,31.8765,合肥市,三里街,,,,93,31,54,87,,60,60,37,67,7,7,0.6,0.9
2026-01-14T1600,1272A,117.2587,31.8703,合肥市,琥珀山庄,细颗粒物(PM2.5),57,56,88,40,62,89,,67,67,32,74,9,8,0.6,1.1
2026-01-14T1600,1275A,117.2593,31.9376,合肥市,庐阳区,颗粒物(PM10),54,58,100,27,55,78,,61,61,48,79,6,6,0.6,0.8
2026-01-14T1600,1276A,117.345251,31.861615,合肥市,瑶海区,颗粒物(PM10),56,61,78,32,49,111,,78,78,35,48,8,7,0.5,0.7
2026-01-14T1600,1277A,117.3033,31.7967,合肥市,包河区,细颗粒物(PM2.5),52,51,90,36,59,118,,72,72,17,85,12,13,0.7,1
2026-01-14T1600,1278A,117.278,31.7392,合肥市,滨湖新区,,49,48,75,34,57,118,,84,84,17,40,9,7,0.6,0.8
2026-01-14T1600,1279A,117.1324,31.8395,合肥市,高新区,颗粒物(PM10),51,51,79,24,49,81,,49,49,37,64,6,7,0.5,0.8
2026-01-14T1600,3464A,117.3802,31.9148,合肥市,高教基地,细颗粒物(PM2.5),55,56,78,39,56,110,,79,79,22,48,10,9,0.5,0.7
2026-01-14T1600,4098A,117.2518,31.8404,合肥市,中国科学技术大学,细颗粒物(PM2.5),55,58,88,39,55,93,,63,63,37,70,11,10,0.6,0.9
2026-01-14T1600,3614A,79.9241,37.0878,和田地区,地区环保局,颗粒物(PM10),92,134,149,19,20,89,,65,65,4,16,2,4,0.2,0.2
2026-01-14T1600,3615A,79.9132,37.1137,和田地区,市环保局,颗粒物(PM10),81,112,115,16,21,90,,63,63,9,31,2,4,0.0,0.5
2026-01-14T1600,2517A,108.0496,24.6957,河池市,市环保站,细颗粒物(PM2.5),82,98,83,60,67,124,,61,61,15,30,11,6,0.8,1
2026-01-14T1600,4302A,108.0901,24.6945,河池市,上任中路54号,细颗粒物(PM2.5),88,80,96,65,73,118,,57,57,12,40,12,9,0.8,1
2026-01-14T1600,1697A,114.6962,23.7538,河源市,东埔,,44,35,59,24,39,138,,89,89,11,45,7,7,0.7,0.9
2026-01-14T1600,1698A,114.6895,23.7232,河源市,老城,,45,41,50,26,30,143,,88,88,10,30,7,7,0.5,0.6
2026-01-14T1600,3374A,115.5562,35.089,菏泽市,定陶老年大学,细颗粒物(PM2.5),225,276,202,175,124,29,,27,27,59,46,8,7,1.1,0.8
2026-01-14T1600,4114A,115.4239,35.2593,菏泽市,黄河路600号,细颗粒物(PM2.5),212,293,221,162,143,28,,25,25,85,70,11,10,1.1,1.1
2026-01-14T1600,4115A,115.5025,35.2727,菏泽市,菏泽市人社局,细颗粒物(PM2.5),190,239,223,143,149,28,,18,18,63,79,11,10,0.7,0.7
2026-01-14T1600,4184A,115.479691,35.244011,菏泽市,永昌路1号,细颗粒物(PM2.5),222,289,225,172,138,28,,20,20,75,60,10,7,1.0,0.9
2026-01-14T1600,4193A,115.471542,35.280012,菏泽市,长城路999号,细颗粒物(PM2.5),203,259,224,153,141,35,,26,26,76,66,13,10,1.1,1.1
2026-01-14T1600,2514A,111.5264,24.4178,贺州市,环保小区,颗粒物(PM10),70,89,78,50,63,152,,88,88,29,33,9,10,0.4,0.6
2026-01-14T1600,2515A,111.561,24.4074,贺州市,政协大楼,臭氧1小时(O3_1h),85,62,75,45,52,188,,106,106,18,42,14,16,0.8,1
2026-01-14T1600,3534A,111.4744,24.455,贺州市,西湾,,,72,81,41,54,170,,88,88,20,39,,9,0.5,0.8
2026-01-14T1600,2385A,114.17,35.9019,鹤壁市,市监测站,细颗粒物(PM2.5),160,185,146,122,108,20,,22,22,55,55,20,15,1.7,1.6
2026-01-14T1600,2386A,114.2953,35.7512,鹤壁市,市交警支队,细颗粒物(PM2.5),147,182,152,112,95,20,,16,16,59,57,20,15,1.5,1.3
2026-01-14T1600,2387A,114.2877,35.7302,鹤壁市,迎宾馆,细颗粒物(PM2.5),140,191,155,107,92,21,,17,17,56,58,18,17,1.5,1.5
2026-01-14T1600,3474A,114.2616,35.6824,鹤壁市,大新区,细颗粒物(PM2.5),139,164,148,106,97,22,,18,16,65,63,17,15,1.6,1.5
2026-01-14T1600,3596A,114.1573,35.9607,鹤壁市,南山宾馆,细颗粒物(PM2.5),133,200,161,101,98,25,,29,29,53,51,22,20,1.7,1.7
2026-01-14T1600,2244A,130.2537,47.3416,鹤岗市,哈啤分公司,,32,24,26,22,24,66,,62,62,6,6,6,6,0.5,0.5
2026-01-14T1600,2245A,130.2683,47.3087,鹤岗市,斯达机电,,28,24,39,19,27,56,,55,55,9,8,6,7,0.4,0.5
2026-01-14T1600,2246A,130.3114,47.3388,鹤岗市,东山纸板厂,,,22,34,,26,62,,54,54,8,13,,10,0.5,0.6
2026-01-14T1600,2263A,127.4832,50.2524,黑河市,交通局,,45,,18,31,18,44,,54,51,12,6,6,4,0.4,0.4
2026-01-14T1600,2264A,127.5146,50.2339,黑河市,环保局,,32,29,15,22,16,46,,52,51,16,8,8,4,0.2,0.2
2026-01-14T1600,1074A,115.6839,37.754,衡水市,电机北厂,细颗粒物(PM2.5),84,98,87,62,47,35,,16,16,40,44,15,10,0.7,0.6
2026-01-14T1600,1075A,115.6303,37.7318,衡水市,市监测站,,,,76,55,43,30,,21,21,50,44,14,9,,0.7
2026-01-14T1600,3188A,115.6684,37.7216,衡水市,市城管局,细颗粒物(PM2.5),94,100,84,70,52,34,,20,20,48,46,15,11,0.8,0.7
2026-01-14T1600,3459A,115.599,37.5491,衡水市,地表水厂,细颗粒物(PM2.5),92,91,73,68,46,32,,24,24,43,42,13,9,0.7,0.6
2026-01-14T1600,2457A,112.6209,26.9268,衡阳市,衡阳化工总厂,细颗粒物(PM2.5),63,70,80,45,66,120,,73,73,19,29,16,11,0.9,0.9
2026-01-14T1600,2458A,112.621,26.8957,衡阳市,珠晖区环保局,细颗粒物(PM2.5),72,67,89,52,77,120,,71,71,18,45,13,9,0.9,1.3
2026-01-14T1600,2459A,112.628,26.8654,衡阳市,市委党校,颗粒物(PM10),59,68,86,37,70,127,,70,70,11,37,17,15,0.9,1.2
2026-01-14T1600,2460A,112.6007,26.8977,衡阳市,市监测站,细颗粒物(PM2.5),64,71,114,46,79,113,,63,63,20,41,16,10,0.9,1.5
2026-01-14T1600,2461A,112.5658,26.9013,衡阳市,真空机电公司,细颗粒物(PM2.5),73,,106,53,79,110,,57,57,30,52,21,15,1.1,1.4
2026-01-14T1600,3399A,112.6703,26.8817,衡阳市,师范学院,颗粒物(PM10),56,62,86,36,63,130,,77,77,15,35,9,7,0.9,1.1
2026-01-14T1600,3038A,103.3757,23.3679,红河哈尼族彝族自治州,州图书馆,,47,47,50,31,37,83,,78,78,8,11,6,7,0.6,0.6
2026-01-14T1600,4154A,103.401,23.3561,红河哈尼族彝族自治州,蒙自市朝阳路,,49,,40,34,38,84,,71,71,4,12,6,8,0.6,0.6
2026-01-14T1600,1090A,111.6506,40.7517,呼和浩特市,呼市一监,颗粒物(PM10),141,232,155,43,50,68,,32,32,11,44,8,10,0.4,0.8
2026-01-14T1600,1094A,111.7516,40.8369,呼和浩特市,如意水处理厂,颗粒物(PM10),161,271,135,68,46,60,,29,29,18,54,13,15,0.4,0.9
2026-01-14T1600,1095A,111.727798,40.806187,呼和浩特市,二十九中,颗粒物(PM10),285,409,143,62,48,63,,31,31,13,49,12,15,0.5,0.8
2026-01-14T1600,1097A,111.717,40.7617,呼和浩特市,化肥厂生活区,颗粒物(PM10),160,270,141,55,49,68,,34,34,11,49,7,8,,1
2026-01-14T1600,3699A,111.6519,40.8389,呼和浩特市,海东办,颗粒物(PM10),144,237,137,53,47,66,,25,25,14,50,6,9,0.5,0.9
2026-01-14T1600,4275A,111.591512,40.827312,呼和浩特市,成吉思汗西街8号,颗粒物(PM10),129,207,139,51,45,59,,25,25,18,49,6,10,0.5,0.7
2026-01-14T1600,4276A,111.6597,40.8077,呼和浩特市,公园东路75号,颗粒物(PM10),157,263,162,54,50,54,,29,29,23,54,6,10,0.4,0.8
2026-01-14T1600,4277A,111.5427,40.7846,呼和浩特市,金海路35号,颗粒物(PM10),182,314,141,38,46,65,,29,29,16,48,8,12,0.4,0.7
2026-01-14T1600,3061A,119.7511,49.1576,呼伦贝尔市,国华电力东,,22,22,26,13,21,56,,52,52,16,19,6,6,0.4,0.4
2026-01-14T1600,4279A,119.7569,49.2222,呼伦贝尔市,伊敏大街东7号,细颗粒物(PM2.5),52,50,33,36,27,22,,31,28,39,25,8,7,1.1,1.1
2026-01-14T1600,1250A,120.075,30.867,湖州市,城西水厂,细颗粒物(PM2.5),57,60,106,40,69,80,,48,48,44,72,10,9,0.4,0.6
2026-01-14T1600,2873A,120.083,30.8929,湖州市,仁皇山新区,细颗粒物(PM2.5),58,60,99,41,64,72,,44,44,57,83,10,12,0.5,0.7
2026-01-14T1600,2907A,120.1846,30.8592,湖州市,吴兴区站,细颗粒物(PM2.5),60,66,98,43,62,93,,59,59,35,66,8,10,0.8,0.8
2026-01-14T1600,3562A,120.4146,30.8538,湖州市,南浔区站,颗粒物(PM10),56,61,99,33,60,83,,56,56,35,57,8,9,0.6,0.8
2026-01-14T1600,1607A,120.904878,40.721091,葫芦岛市,龙港区,颗粒物(PM10),52,53,30,34,19,51,,53,49,20,14,10,11,0.6,0.5
2026-01-14T1600,1608A,120.8382,40.7521,葫芦岛市,化工街,颗粒物(PM10),53,56,44,31,22,44,,36,36,24,30,21,18,0.5,0.5
2026-01-14T1600,1609A,120.8339,40.7078,葫芦岛市,新区,,49,49,27,25,17,48,,40,40,24,24,14,12,0.7,0.5
2026-01-14T1600,1610A,120.8697,40.7679,葫芦岛市,东城区,,43,,48,30,35,45,,36,36,28,40,18,17,0.7,0.7
2026-01-14T1600,2483A,109.9297,27.5383,怀化市,河西地税局,细颗粒物(PM2.5),67,50,70,48,65,97,,54,54,17,23,4,2,/,/
2026-01-14T1600,2484A,109.9783,27.5342,怀化市,市四医院,"颗粒物(PM10),细颗粒物(PM2.5)",65,79,103,47,80,90,,48,48,17,30,7,10,0.6,1
2026-01-14T1600,2485A,109.9971,27.5579,怀化市,监测楼,细颗粒物(PM2.5),64,50,93,46,81,104,,60,60,14,26,5,4,0,0.4
2026-01-14T1600,1210A,119.0566,33.5991,淮安市,钵池山,细颗粒物(PM2.5),119,95,140,90,101,101,,52,52,26,56,11,11,,1.5
2026-01-14T1600,1211A,119.0083,33.578,淮安市,北京南路,细颗粒物(PM2.5),112,92,150,84,108,98,,44,44,32,54,12,12,0.7,1.1
2026-01-14T1600,1212A,118.9938,33.6083,淮安市,市监测站,细颗粒物(PM2.5),98,102,134,73,97,98,,52,52,33,52,14,14,1.0,1.1
2026-01-14T1600,1213A,119.135,33.5038,淮安市,楚州区监测站,细颗粒物(PM2.5),140,127,154,107,110,79,,44,44,46,55,17,12,0.9,1
2026-01-14T1600,3426A,118.8757,33.2897,淮安市,新华书店,细颗粒物(PM2.5),103,99,145,77,107,99,,53,53,32,61,11,12,1.4,1.6
2026-01-14T1600,4092A,119.119691,33.550006,淮安市,枚皋中路89号,细颗粒物(PM2.5),122,121,158,92,117,110,,51,51,26,48,15,12,0.5,0.7
2026-01-14T1600,4206A,119.028838,33.631911,淮安市,承德北路606号,细颗粒物(PM2.5),120,117,164,91,105,83,,42,42,45,60,15,12,1.2,1.1
2026-01-14T1600,2282A,116.8005,33.9749,淮北市,监测站,细颗粒物(PM2.5),190,201,175,143,119,73,,46,46,51,59,12,13,0.9,1
2026-01-14T1600,2283A,116.8094,33.9008,淮北市,烈山区政府,细颗粒物(PM2.5),180,171,166,136,115,70,,46,46,53,50,17,16,0.8,0.7
2026-01-14T1600,4017A,116.7926,33.9534,淮北市,市博物馆,细颗粒物(PM2.5),203,226,189,153,125,75,,49,49,56,55,9,8,1.1,1.1
2026-01-14T1600,4100A,116.8322,33.9884,淮北市,杜集区第一实验学校,细颗粒物(PM2.5),189,188,181,142,126,66,,41,41,51,57,13,12,0.9,0.8
2026-01-14T1600,2277A,116.8304,32.7726,淮南市,潘集区政府,细颗粒物(PM2.5),74,89,123,54,87,113,,76,76,22,47,10,12,0.8,0.8
2026-01-14T1600,2279A,116.8569,32.5949,淮南市,谢家集区政府,颗粒物(PM10),60,70,90,40,59,100,,80,80,33,41,9,10,0.6,0.7
2026-01-14T1600,2280A,116.8279,32.6333,淮南市,八公山区政府,细颗粒物(PM2.5),59,58,89,42,60,110,,92,92,19,26,11,10,0.5,0.6
2026-01-14T1600,2894A,117.0561,32.6536,淮南市,经济技术开发区消防队,颗粒物(PM10),67,84,113,46,70,110,,74,74,29,54,11,8,0.7,0.7
2026-01-14T1600,3329A,117.011,32.5891,淮南市,山南新区,颗粒物(PM10),62,73,113,39,74,112,,78,78,26,43,5,6,0.7,0.8
2026-01-14T1600,4209A,117.003137,32.644456,淮南市,国庆中路369号,颗粒物(PM10),56,61,90,34,71,90,,58,58,28,48,11,11,0.8,0.9
2026-01-14T1600,2446A,114.9021,30.474,黄冈市,职工中心,颗粒物(PM10),51,52,69,32,50,115,,86,86,21,29,13,11,0.8,0.8
2026-01-14T1600,2929A,114.8858,30.4519,黄冈市,红卫路,细颗粒物(PM2.5),54,49,61,38,51,118,,87,87,21,29,12,12,0.5,0.6
2026-01-14T1600,3398A,114.9134,30.4446,黄冈市,市林业局,颗粒物(PM10),55,59,74,36,51,111,,84,84,30,36,8,8,0.6,0.6
2026-01-14T1600,2672A,102.02,35.5101,黄南藏族自治州,同仁县隆务镇,,39,39,45,18,18,87,,75,75,1,2,8,10,0.2,0.5
2026-01-14T1600,2295A,118.2905,29.6965,黄山市,延安路89号,,46,33,40,32,31,102,,76,76,11,20,4,4,0.5,0.5
2026-01-14T1600,2297A,118.1369,30.2755,黄山市,黄山区政府5号楼,,31,31,47,8,32,93,,71,71,7,9,3,3,0.4,0.5
2026-01-14T1600,4210A,118.335445,29.720283,黄山市,滨江东路7-2号,,42,42,67,21,43,93,,60,60,20,23,/,/,/,/
2026-01-14T1600,2423A,115.0547,30.2332,黄石市,沈家营,,,79,91,46,54,98,,82,82,,49,,14,,1.9
2026-01-14T1600,2426A,114.899,30.211,黄石市,铁山,,50,50,71,34,53,116,,94,94,20,32,14,12,0.5,0.5
2026-01-14T1600,2427A,115.0259,30.2108,黄石市,团城山,细颗粒物(PM2.5),69,77,92,50,56,101,,84,84,37,42,8,10,1.1,1.2
2026-01-14T1600,3149A,115.0174,30.1591,黄石市,笔架山北路,颗粒物(PM10),67,84,108,45,58,107,,89,89,19,27,16,16,1.2,1.3
2026-01-14T1600,4185A,115.078022,30.21118,黄石市,磁湖东路29号,细颗粒物(PM2.5),75,77,89,55,64,96,,76,76,40,49,12,14,1.2,1.5
2026-01-14T1600,1392A,114.4181,23.0528,惠州市,河南岸金山湖子站,颗粒物(PM10),51,51,73,30,42,134,,93,93,30,42,6,8,0.5,0.8
2026-01-14T1600,1393A,114.4055,23.0824,惠州市,下埔横江三路子站,,49,49,82,26,46,154,,105,105,15,51,7,8,0.6,0.8
2026-01-14T1600,1395A,114.4645,22.7832,惠州市,惠阳区承修路船湖子站,,,29,68,17,37,135,,106,106,,43,7,8,0.2,0.4
2026-01-14T1600,1396A,114.5316,22.7423,惠州市,大亚湾管委会子站,,45,40,61,20,30,142,,100,100,7,49,7,7,0.5,0.6
2026-01-14T1600,3314A,114.4334,22.8134,惠州市,惠阳秋长,,48,39,66,15,36,151,,127,127,11,42,/,/,/,/
2026-01-14T1600,3452A,114.6521,22.7755,惠州市,大亚湾霞涌,,48,40,50,21,27,153,,131,131,15,23,/,/,/,/
2026-01-14T1600,4300A,114.4089,23.1147,惠州市,文华一路1号,臭氧1小时(O3_1h),63,47,81,27,47,170,,112,112,18,54,/,/,/,/
2026-01-14T1600,2240A,130.9618,45.2926,鸡西市,环保局,,19,18,29,13,19,56,,57,57,9,6,6,6,0.5,0.5
2026-01-14T1600,2243A,130.9294,45.2959,鸡西市,第一中学,,19,13,23,9,16,59,,57,57,7,6,4,4,0.4,0.4
2026-01-14T1600,3707A,131.0069,45.2988,鸡西市,欧美日汽修厂,,20,20,32,14,18,57,,56,56,10,9,6,8,0.3,0.3
2026-01-14T1600,2367A,114.9753,27.0803,吉安市,红声器材厂,,46,46,62,23,35,122,,76,76,12,36,9,10,0.5,0.7
2026-01-14T1600,2369A,114.9903,27.1313,吉安市,市环境监测站,,44,44,59,28,40,121,,75,75,15,42,10,11,/,/
2026-01-14T1600,2370A,115.009527,27.096792,吉安市,青原区法院,,50,50,66,25,40,117,,69,69,14,47,11,13,0.5,0.7
2026-01-14T1600,1772A,126.54,43.8622,吉林市,哈达湾,,30,30,28,20,17,68,,64,64,14,12,9,8,0.9,1
2026-01-14T1600,1773A,126.5843,43.8358,吉林市,东局子,,,28,26,22,16,61,,54,54,14,18,8,5,,0.9
2026-01-14T1600,1774A,126.5051,43.8243,吉林市,电力学院,,,,35,23,21,65,,57,57,14,16,14,12,,0.9
2026-01-14T1600,1775A,126.6133,43.8971,吉林市,江北,,32,32,29,18,18,63,,55,55,14,17,8,8,0.9,1
2026-01-14T1600,1776A,126.5549,43.8304,吉林市,江南公园,,39,34,28,27,20,58,,57,57,19,13,9,9,0.6,0.6
2026-01-14T1600,2868A,126.4737,43.953,吉林市,九站,颗粒物(PM10),71,92,40,35,21,33,,50,50,55,23,14,7,0.9,0.6
2026-01-14T1600,1299A,116.9866,36.6118,济南市,科干所,颗粒物(PM10),91,132,142,66,72,86,,53,53,32,68,11,21,0.6,1.4
2026-01-14T1600,1300A,116.9379,36.6652,济南市,农科所,细颗粒物(PM2.5),125,181,159,95,68,15,,7,7,87,82,18,23,1.1,1.2
2026-01-14T1600,1301A,117.1265,36.6736,济南市,开发区,细颗粒物(PM2.5),160,249,170,122,86,3,,6,6,105,83,19,14,1.6,1.4
2026-01-14T1600,1303A,117.0616,36.6865,济南市,省种子仓库,细颗粒物(PM2.5),153,246,174,117,81,7,,8,8,92,72,24,24,1.4,1.5
2026-01-14T1600,1304A,116.9495185,36.644937,济南市,机床二厂,细颗粒物(PM2.5),150,171,162,115,88,52,,18,18,63,77,21,30,0.8,1.2
2026-01-14T1600,1305A,117.0496,36.6629,济南市,市监测站,细颗粒物(PM2.5),150,212,172,115,93,5,,7,7,86,70,20,17,1.4,1.4
2026-01-14T1600,1306A,116.7674,36.5458,济南市,长清党校,细颗粒物(PM2.5),135,156,144,103,77,72,,57,57,,70,15,18,1.0,1.2
2026-01-14T1600,1961A,117.5323,36.6865,济南市,东山小学,细颗粒物(PM2.5),158,212,144,120,75,21,,38,38,87,58,16,14,,1.5
2026-01-14T1600,3059A,117.7181,36.205,济南市,泰兴公司,细颗粒物(PM2.5),163,188,144,124,91,19,,24,24,87,71,18,15,1.9,1.5
2026-01-14T1600,3064A,117.6861,36.2172,济南市,莱芜战役纪念馆,细颗粒物(PM2.5),168,188,138,127,87,22,,23,23,81,64,17,15,1.9,1.3
2026-01-14T1600,3494A,117.1673,36.9782,济南市,济阳区政府,细颗粒物(PM2.5),140,193,131,107,67,14,,15,15,78,57,20,17,1.2,1
2026-01-14T1600,3495A,117.1168,36.6299,济南市,锦屏中学,"颗粒物(PM10),细颗粒物(PM2.5)",108,166,135,81,75,36,,25,25,80,60,10,8,1.3,1.1
2026-01-14T1600,4108A,117.7107,36.2385,济南市,山财大街5号,细颗粒物(PM2.5),143,193,130,109,72,31,,30,30,96,69,21,18,2.0,1.3
2026-01-14T1600,4109A,116.9744,36.6889,济南市,无影山路12号,细颗粒物(PM2.5),170,202,156,129,86,7,,10,10,89,73,25,28,1.4,1.3
2026-01-14T1600,1653A,116.6229,35.4288,济宁市,火炬城,细颗粒物(PM2.5),180,160,149,136,113,49,,36,36,43,48,7,8,0.9,0.9
2026-01-14T1600,3500A,116.5808,35.3703,济宁市,北湖一中,细颗粒物(PM2.5),169,168,142,128,108,45,,32,32,43,47,11,12,1.0,1
2026-01-14T1600,3501A,116.8251,35.5592,济宁市,服务中心,细颗粒物(PM2.5),172,184,152,130,92,42,,22,22,63,63,17,15,1.2,1.1
2026-01-14T1600,3678A,116.5907,35.4054,济宁市,市第七中学,,,147,148,,96,50,,39,39,43,47,,14,1.0,1.1
2026-01-14T1600,4111A,116.6075,35.4566,济宁市,任和路,细颗粒物(PM2.5),156,190,180,119,107,39,,22,22,50,60,11,11,1.1,1
2026-01-14T1600,4112A,116.5648,35.3921,济宁市,文体南路1号,细颗粒物(PM2.5),169,199,167,128,110,43,,32,32,48,48,10,11,1.0,1
2026-01-14T1600,2255A,130.2749,46.8028,佳木斯市,佳纺,,25,24,39,17,26,47,,50,50,13,12,7,8,0.4,0.5
2026-01-14T1600,2257A,130.3258,46.7975,佳木斯市,环保局,,21,21,36,14,28,48,,52,52,19,16,9,8,0.4,0.4
2026-01-14T1600,4285A,130.363,46.806,佳木斯市,顺和街,,28,22,42,19,26,44,,45,45,15,15,11,11,0.3,0.5
2026-01-14T1600,4286A,130.3952,46.8268,佳木斯市,长安路196号,,22,16,33,15,23,52,,52,52,13,12,6,6,0.5,0.5
2026-01-14T1600,1252A,120.7439,30.778,嘉兴市,清河小学,颗粒物(PM10),60,70,102,42,61,103,,77,77,40,53,8,8,0.1,0.3
2026-01-14T1600,1253A,120.7261,30.7477,嘉兴市,嘉兴学院,颗粒物(PM10),60,70,99,42,57,101,,78,78,38,46,9,10,0.6,0.7
2026-01-14T1600,2872A,120.7845,30.7524,嘉兴市,南湖区残联,,,67,101,46,62,117,,90,90,36,48,,7,,0.6
2026-01-14T1600,3407A,120.6915,30.7741,嘉兴市,秀洲住建,颗粒物(PM10),61,72,100,42,60,102,,76,76,44,62,8,9,0.5,0.6
2026-01-14T1600,1945A,98.291,39.7705,嘉峪关市,气象局,颗粒物(PM10),73,95,229,22,34,86,,70,66,10,13,13,13,0.4,0.4
2026-01-14T1600,2884A,98.2672,39.7978,嘉峪关市,酒钢宾馆,颗粒物(PM10),71,92,229,22,35,83,,71,63,10,14,24,25,0.6,0.6
2026-01-14T1600,3248A,98.2644,39.7723,嘉峪关市,雄关区,颗粒物(PM10),58,66,155,14,34,85,,65,61,11,17,17,20,0.4,0.5
2026-01-14T1600,1383A,113.1063,22.6058,江门市,北街,,45,38,97,17,70,142,,104,104,13,71,/,/,/,/
2026-01-14T1600,1384A,113.073,22.5835,江门市,西区,,40,26,117,19,62,126,,100,100,18,81,/,/,/,/
2026-01-14T1600,1385A,113.0218,22.531,江门市,圭峰西,,41,35,78,16,64,131,,121,113,8,34,/,/,/,/
2026-01-14T1600,1386A,113.0826,22.5947,江门市,东湖,,44,27,103,20,67,138,,106,106,19,80,8,10,0.7,1
2026-01-14T1600,3311A,113.1077,22.5647,江门市,江海富民,颗粒物(PM10),62,73,135,39,72,143,,113,113,18,82,/,/,0.7,1.1
2026-01-14T1600,3449A,113.0496,22.4669,江门市,新会银湖,,47,47,104,21,95,133,,101,101,11,58,7,8,0.4,0.7
2026-01-14T1600,3335A,113.3137,35.2643,焦作市,马村街道办,细颗粒物(PM2.5),105,129,141,79,84,31,,20,20,51,50,17,16,1.3,1.1
2026-01-14T1600,3336A,113.2464,35.2374,焦作市,焦作技师学院,颗粒物(PM10),96,142,143,68,77,27,,19,19,59,57,20,18,1.5,1.2
2026-01-14T1600,3477A,113.1656,35.2536,焦作市,中站许衡医院,颗粒物(PM10),106,162,132,73,76,30,,26,26,68,54,35,21,1.6,1.1
2026-01-14T1600,3981A,113.2456,35.18,焦作市,原李万街道办,颗粒物(PM10),88,125,154,58,81,43,,20,20,43,54,11,14,0.7,1
2026-01-14T1600,4264A,113.234,35.219,焦作市,新安路1731号,细颗粒物(PM2.5),103,145,147,77,83,24,,18,18,56,55,16,14,1.2,1
2026-01-14T1600,4295A,113.2722,35.2121,焦作市,人民路3066号,细颗粒物(PM2.5),95,130,146,71,77,28,,19,19,58,62,13,14,1.1,1.2
2026-01-14T1600,1708A,116.3701,23.5345,揭阳市,新兴,颗粒物(PM10),57,63,82,25,51,145,,88,88,24,52,12,12,0.6,0.9
2026-01-14T1600,1709A,116.3261,23.5442,揭阳市,西马,颗粒物(PM10),56,61,94,25,53,155,,90,90,16,43,8,8,0.5,0.8
2026-01-14T1600,1710A,116.361,23.5627,揭阳市,东兴,颗粒物(PM10),53,55,79,30,42,147,,83,83,17,47,13,13,/,/
2026-01-14T1600,1711A,116.4151,23.5295,揭阳市,渔湖,颗粒物(PM10),56,61,76,19,45,140,,99,99,19,45,7,11,/,/
2026-01-14T1600,3320A,116.4028,23.5699,揭阳市,曲溪,颗粒物(PM10),52,53,78,33,45,160,,98,98,21,43,5,8,0.6,0.7
2026-01-14T1600,1944A,102.1691,38.5166,金昌市,天庆家园,颗粒物(PM10),70,90,336,22,59,85,,69,69,7,12,17,31,0.5,0.6
2026-01-14T1600,4022A,102.1648,38.5369,金昌市,金川区人防中心,颗粒物(PM10),79,108,310,28,79,84,,71,71,7,9,9,21,0.5,0.6
2026-01-14T1600,4239A,102.193042,38.531887,金昌市,长春路96号,颗粒物(PM10),84,117,290,23,53,83,,68,68,6,8,15,15,0.7,0.7
2026-01-14T1600,1262A,119.6478,29.0773,金华市,十五中,细颗粒物(PM2.5),64,66,93,46,59,133,,83,83,32,63,4,5,0.5,0.7
2026-01-14T1600,1263A,119.6859,29.1032,金华市,监测站,颗粒物(PM10),67,83,93,45,52,85,,57,57,46,56,5,5,0.4,0.5
2026-01-14T1600,3659A,119.656,29.1132,金华市,气象局,颗粒物(PM10),61,71,103,38,57,113,,76,76,33,69,4,6,0.5,0.8
2026-01-14T1600,1767A,121.1114,41.0879,锦州市,南山,细颗粒物(PM2.5),54,,33,38,25,52,,48,48,26,31,8,13,0.5,0.6
2026-01-14T1600,1768A,121.060361,40.842794,锦州市,开发区,,42,40,28,29,15,28,,48,34,38,19,9,8,0.6,0.6
2026-01-14T1600,1769A,121.1836,41.1118,锦州市,百股街道,,42,39,32,29,21,53,,54,54,23,39,7,28,0.8,0.8
2026-01-14T1600,1770A,121.1176,41.1224,锦州市,天安街道,,42,42,34,28,24,49,,44,44,25,34,9,20,0.8,0.8
2026-01-14T1600,1771A,121.1303,41.1385,锦州市,北湖公园,,35,34,43,24,28,46,,37,37,23,32,8,16,0.5,0.7
2026-01-14T1600,2160A,112.8496,35.5051,晋城市,自来水公司,颗粒物(PM10),57,63,85,27,36,62,,42,42,26,46,10,12,1.0,1.3
2026-01-14T1600,2162A,112.8509,35.4886,晋城市,市环保局,颗粒物(PM10),61,72,89,27,33,76,,50,50,24,50,8,10,0.8,1.2
2026-01-14T1600,3620A,112.8258,35.4804,晋城市,泽州一中,颗粒物(PM10),57,64,87,24,32,78,,53,53,22,35,7,6,0.6,0.8
2026-01-14T1600,4078A,112.8246,35.5152,晋城市,前书院路,颗粒物(PM10),62,73,93,10,29,68,,53,53,26,37,9,8,0.7,0.8
2026-01-14T1600,4079A,112.8864,35.4773,晋城市,祥云街666号,颗粒物(PM10),52,53,81,21,36,74,,52,52,12,22,6,8,0.5,0.8
2026-01-14T1600,2174A,112.6992,37.6984,晋中市,榆次区政府,颗粒物(PM10),102,153,129,34,48,80,,34,34,14,51,11,26,0.4,1
2026-01-14T1600,2865A,112.7195,37.683,晋中市,榆次三中,颗粒物(PM10),141,232,130,34,41,77,,32,32,11,47,12,26,0.4,1.1
2026-01-14T1600,4080A,112.7375,37.7215,晋中市,广安街188号,颗粒物(PM10),89,128,139,30,45,79,,39,39,14,53,15,26,0.2,0.7
2026-01-14T1600,4200A,112.7478,37.6954,晋中市,迎宾街26号,颗粒物(PM10),141,232,122,41,44,78,,34,34,14,45,13,28,0.6,1.1
2026-01-14T1600,2439A,112.2012,31.048,荆门市,竹园小学,细颗粒物(PM2.5),160,153,112,122,90,97,,67,67,26,35,5,3,1.5,1.6
2026-01-14T1600,2440A,112.1968,30.9892,荆门市,掇刀,细颗粒物(PM2.5),148,146,108,113,84,106,,78,78,26,32,12,7,0.6,0.6
2026-01-14T1600,3012A,112.1849,31.0361,荆门市,西山林语,细颗粒物(PM2.5),138,143,97,105,76,102,,73,73,27,26,14,8,0.7,0.6
2026-01-14T1600,3547A,112.1631,31.0134,荆门市,龙泉中学南校,细颗粒物(PM2.5),148,153,109,113,84,107,,80,80,20,18,13,7,1.1,1
2026-01-14T1600,4124A,112.2213,31.0654,荆门市,新台西路6号,细颗粒物(PM2.5),179,153,124,135,105,103,,69,69,21,38,15,15,0.8,1.1
2026-01-14T1600,1844A,112.2493,30.3198,荆州市,市图书馆,细颗粒物(PM2.5),87,73,73,64,72,131,,94,94,22,29,11,10,0.9,1
2026-01-14T1600,1845A,112.2009,30.3543,荆州市,市委党校,细颗粒物(PM2.5),94,72,83,70,74,113,,71,71,28,37,6,5,0.9,0.9
2026-01-14T1600,3194A,112.2749,30.3124,荆州市,管委会,细颗粒物(PM2.5),87,73,78,64,75,120,,83,83,23,37,10,9,0.9,1
2026-01-14T1600,4268A,112.1722,30.3366,荆州市,学苑路85号,细颗粒物(PM2.5),90,73,89,67,80,125,,86,86,28,28,14,12,1.0,0.9
2026-01-14T1600,2343A,117.2114,29.2931,景德镇市,老干部活动中心,,36,36,63,19,45,99,,58,58,11,34,11,10,0.5,0.8
2026-01-14T1600,2344A,117.1893,29.2789,景德镇市,兽医站,,39,39,73,20,37,108,,68,68,14,37,10,9,0.5,0.8
2026-01-14T1600,2346A,117.246,29.2958,景德镇市,陶研所,,45,31,52,31,42,103,,58,58,9,31,6,5,0.3,0.5
2026-01-14T1600,4289A,117.154766,29.256967,景德镇市,青少年活动中心,,43,43,71,23,42,92,,54,54,12,44,17,15,/,/
2026-01-14T1600,1803A,115.9873,29.6816,九江市,十里,颗粒物(PM10),51,51,74,35,51,93,,63,63,22,55,9,7,0.7,1
2026-01-14T1600,1804A,115.9583,29.7047,九江市,茅山头,,48,42,80,33,51,102,,75,75,23,60,11,8,0.9,1.2
2026-01-14T1600,1805A,115.9877,29.7295,九江市,西园,,44,44,74,23,50,101,,76,76,39,72,6,5,0.7,1.1
2026-01-14T1600,1808A,115.9112,29.6038,九江市,综合工业园,,36,,71,25,59,114,,90,90,27,40,5,8,0.4,0.7
2026-01-14T1600,3190A,116.0254,29.6995,九江市,外国语学校,,43,37,74,30,50,89,,67,67,29,55,9,11,0.7,1
2026-01-14T1600,4253A,116.010205,29.659402,九江市,莲花大道8号,,45,45,64,20,41,106,,80,80,9,19,7,5,0.4,0.5
2026-01-14T1600,4240A,98.495752,39.733935,酒泉市,玉门东路5号,颗粒物(PM10),76,102,335,21,43,80,,58,58,9,11,12,10,0.3,0.4
2026-01-14T1600,4241A,98.5099,39.7506,酒泉市,北大街108号,颗粒物(PM10),78,105,404,29,55,83,,61,61,8,13,12,9,0.3,0.4
2026-01-14T1600,2698A,76.0071,39.466,喀什地区,巡警大队,颗粒物(PM10),77,104,126,49,64,74,,29,29,25,51,7,11,1.0,2.7
2026-01-14T1600,2699A,75.9756,39.4693,喀什地区,吾办,,,95,109,52,61,32,,14,14,43,57,,6,1.5,2.7
2026-01-14T1600,4027A,75.9485,39.4688,喀什地区,老干局,颗粒物(PM10),87,124,133,41,65,70,,25,25,30,49,7,12,1.3,2.8
2026-01-14T1600,1824A,114.3389,34.778,开封市,肿瘤医院,细颗粒物(PM2.5),134,169,140,102,78,20,,28,28,70,55,12,10,1.1,0.9
2026-01-14T1600,1826A,114.2884,34.7966,开封市,世纪星幼儿园,细颗粒物(PM2.5),156,148,131,119,95,20,,27,27,71,53,12,7,1.0,0.8
2026-01-14T1600,3147A,114.3434,34.8101,开封市,龙亭公园,细颗粒物(PM2.5),139,175,137,106,92,19,,26,26,74,56,13,12,1.2,1
2026-01-14T1600,3210A,114.3645,34.7955,开封市,汴京公园,细颗粒物(PM2.5),138,172,148,105,86,20,,26,26,72,58,10,9,1.1,0.9
2026-01-14T1600,3473A,114.2485,34.8306,开封市,技师学院,细颗粒物(PM2.5),114,148,129,86,78,17,,23,23,75,49,13,11,1.2,1.2
2026-01-14T1600,3592A,114.4518,34.7503,开封市,祥符区生态环境局,细颗粒物(PM2.5),139,199,178,106,89,19,,26,26,68,60,11,12,1.1,0.9
2026-01-14T1600,1951A,84.886,45.6029,克拉玛依市,长征新村,细颗粒物(PM2.5),59,63,82,42,57,54,,70,53,31,29,5,6,0.6,0.6
2026-01-14T1600,1952A,84.8894,45.5827,克拉玛依市,南林小区,,,,81,,50,59,,72,56,,16,3,3,0.8,0.9
2026-01-14T1600,1954A,84.896,44.3328,克拉玛依市,独山子区,细颗粒物(PM2.5),55,51,74,39,43,53,,48,45,17,31,6,6,0.7,0.7
2026-01-14T1600,1955A,85.6888,46.0909,克拉玛依市,乌尔禾区商贸楼,,38,38,89,16,72,68,,51,42,25,36,10,6,0.5,0.9
2026-01-14T1600,3612A,85.1045,45.6895,克拉玛依市,白碱滩区新站,细颗粒物(PM2.5),65,57,91,47,67,64,,75,58,32,28,12,10,0.6,0.7
2026-01-14T1600,2697A,76.1457,39.7143,克孜勒苏柯尔克孜自治州,市人民政府,颗粒物(PM10),87,124,46,48,15,95,,68,68,14,12,4,3,0.5,0.2
2026-01-14T1600,3665A,76.1654,39.7157,克孜勒苏柯尔克孜自治州,克州文化中心,颗粒物(PM10),72,94,43,39,17,89,,55,52,9,20,6,5,0.5,0.7
2026-01-14T1600,1450A,102.8203,24.889,昆明市,呈贡新区,,,27,36,,22,83,,65,65,,17,2,4,0.5,0.7
2026-01-14T1600,1452A,102.7253,25.0904,昆明市,龙泉镇,,,,47,8,25,85,,61,61,,27,5,4,0.3,0.8
2026-01-14T1600,1453A,102.7267,25.0378,昆明市,东风东路,,30,21,43,16,31,93,,72,72,12,19,15,17,0.4,0.5
2026-01-14T1600,1454A,102.6744,25.0671,昆明市,金鼎山,,28,22,51,7,28,87,,63,63,9,25,8,6,0.6,0.8
2026-01-14T1600,1455A,102.6643,25.0401,昆明市,碧鸡广场,,28,16,48,13,33,89,,64,64,9,27,11,9,0.4,0.6
2026-01-14T1600,3179A,102.7491,25.012,昆明市,官渡区博物馆,,32,27,49,10,28,100,,71,71,10,28,18,10,0.1,0.5
2026-01-14T1600,3375A,102.8016,24.8336,昆明市,青年创业园,,29,15,34,10,23,90,,74,74,3,16,6,7,0.4,0.6
2026-01-14T1600,3550A,102.8,24.9787,昆明市,昆明学院,,32,18,42,11,25,100,,72,72,10,21,8,6,0.2,0.5
2026-01-14T1600,3551A,102.5969,24.6738,昆明市,晋宁区生态环境分局,,24,14,37,3,23,76,,61,61,2,14,3,2,0.3,0.6
2026-01-14T1600,3552A,102.6673,24.9861,昆明市,云天化总部,,30,17,38,9,26,95,,73,73,10,22,22,17,0.2,0.5
2026-01-14T1600,1456A,91.132,29.6515,拉萨市,八廓街,,31,29,34,11,23,99,,73,73,6,23,7,8,0.2,0.5
2026-01-14T1600,1457A,91.1221,29.6748,拉萨市,市环保局,,28,22,53,16,35,88,,58,58,11,37,6,10,0.4,1.5
2026-01-14T1600,1458A,91.0874,29.6476,拉萨市,区监测站,,,23,26,8,17,91,,63,63,6,37,,5,0.4,1.1
2026-01-14T1600,1459A,91.1774,29.6541,拉萨市,西藏大学,,29,22,28,7,15,91,,65,65,10,24,4,5,0.2,0.5
2026-01-14T1600,1460A,90.9798,29.6586,拉萨市,区辐射站,,27,23,57,3,32,85,,49,49,16,47,3,7,0.4,1.1
2026-01-14T1600,1461A,91.0831,29.6292,拉萨市,拉萨火车站,,26,24,36,9,20,83,,52,52,12,35,4,5,0.5,0.9
2026-01-14T1600,2520A,109.2203,23.7252,来宾市,来宾技工学校,细颗粒物(PM2.5),75,93,128,55,101,149,,80,80,8,36,16,15,0.8,1.1
2026-01-14T1600,3535A,109.1781,23.7293,来宾市,兴宾区政府,细颗粒物(PM2.5),153,143,136,117,108,168,,103,103,14,24,12,11,0.8,0.9
2026-01-14T1600,4002A,109.2312,23.7428,来宾市,中南小学,细颗粒物(PM2.5),77,88,125,56,97,163,,85,85,13,48,11,8,0.8,1
2026-01-14T1600,1479A,103.8309,36.0467,兰州市,铁路设计院,,,,,,,,,,,,,,,,
2026-01-14T1600,3241A,103.7439,36.0841,兰州市,百合公园,颗粒物(PM10),122,193,134,49,58,73,,33,33,22,75,9,27,0.7,1.9
2026-01-14T1600,3242A,103.9613,35.9985,兰州市,和平,颗粒物(PM10),145,240,157,43,50,86,,64,49,2,33,2,19,0.3,1.2
2026-01-14T1600,4236A,103.629272,36.093822,兰州市,庄浪东路808号,颗粒物(PM10),136,222,138,63,54,81,,47,47,34,75,18,27,0.6,1.2
2026-01-14T1600,4237A,103.7251,36.104344,兰州市,安宁西路88号,颗粒物(PM10),135,219,158,38,50,92,,46,46,26,82,12,27,0.6,1.4
2026-01-14T1600,4238A,103.846982,36.067567,兰州市,北滨河东路1号,颗粒物(PM10),119,188,149,28,58,79,,36,36,37,81,9,22,0.6,1.9
2026-01-14T1600,1067A,116.6712,39.5109,廊坊市,药材公司,细颗粒物(PM2.5),69,68,59,50,34,34,,22,22,32,48,7,5,1.0,0.9
2026-01-14T1600,1068A,116.7215,39.5592,廊坊市,开发区,细颗粒物(PM2.5),74,91,61,54,39,28,,19,19,41,56,7,5,0.7,0.6
2026-01-14T1600,1070A,116.7246,39.5273,廊坊市,北华航天学院,细颗粒物(PM2.5),67,80,68,48,38,33,,20,20,36,52,7,5,0.8,0.8
2026-01-14T1600,2919A,116.7022,39.5454,廊坊市,河北工业大学,细颗粒物(PM2.5),85,84,65,63,38,27,,16,16,41,53,8,6,0.8,0.7
2026-01-14T1600,2536A,103.7629,29.5844,乐山市,牛耳桥,,49,40,157,34,146,99,,47,47,18,52,9,9,0.5,1.2
2026-01-14T1600,2537A,103.7501,29.6002,乐山市,市第三水厂,,46,42,164,32,143,107,,52,52,16,53,8,7,0.4,1.1
2026-01-14T1600,2538A,103.7571,29.5664,乐山市,市监测站,细颗粒物(PM2.5),57,41,157,40,138,99,,51,51,11,36,8,8,0.6,1.2
2026-01-14T1600,3361A,103.7313,29.563,乐山市,理工大学,,43,39,153,30,134,102,,54,54,10,35,6,6,0.2,0.8
2026-01-14T1600,2599A,100.2497,26.8802,丽江市,丽江古城,,28,21,29,9,14,88,,79,79,11,12,10,9,0.4,0.5
2026-01-14T1600,2600A,100.2203,26.8906,丽江市,市中心,,,94,28,3,12,89,,73,71,,15,6,7,0.3,0.4
2026-01-14T1600,1267A,119.9141,28.4513,丽水市,监测站大楼,颗粒物(PM10),58,65,54,32,38,113,,66,66,22,43,6,8,0.4,0.6
2026-01-14T1600,1268A,119.93,28.4589,丽水市,莲都小学,,48,48,57,22,30,117,,68,68,24,45,/,/,/,/
2026-01-14T1600,1269A,119.8794,28.4232,丽水市,余庄前,颗粒物(PM10),56,61,55,33,33,93,,70,70,50,33,7,5,0.4,0.4
2026-01-14T1600,1173A,119.1759,34.5885,连云港市,市环境监测站,细颗粒物(PM2.5),168,171,105,127,65,52,,66,42,52,26,18,14,0.9,0.6
2026-01-14T1600,3000A,119.3577,34.6971,连云港市,德源药业,细颗粒物(PM2.5),160,168,109,122,60,58,,51,38,55,39,8,7,1.1,0.9
2026-01-14T1600,3007A,119.178,34.8442,连云港市,新城一中,细颗粒物(PM2.5),188,166,97,141,56,36,,35,21,66,53,14,11,1.4,0.9
2026-01-14T1600,3008A,119.3607,34.7519,连云港市,胡沟管理处,细颗粒物(PM2.5),119,156,96,90,55,14,,56,27,94,46,16,11,0.9,0.8
2026-01-14T1600,3009A,119.1478,34.5913,连云港市,矿山设计院,细颗粒物(PM2.5),156,171,108,119,58,65,,65,45,50,30,16,11,1.1,0.9
2026-01-14T1600,3434A,119.2414,34.6539,连云港市,工贸学校,细颗粒物(PM2.5),185,183,118,139,73,57,,61,42,52,27,17,14,1.3,1.1
2026-01-14T1600,3664A,119.4171,34.734,连云港市,连云街道,细颗粒物(PM2.5),138,200,118,105,61,3,,64,12,105,46,13,9,1.0,0.8
2026-01-14T1600,2573A,102.2629,27.8981,凉山彝族自治州,西昌市政府,,45,45,45,26,31,97,,53,53,10,21,10,10,0.7,0.9
2026-01-14T1600,2574A,102.2686,27.885,凉山彝族自治州,凉山州政府,,45,37,60,31,37,93,,50,50,12,26,11,10,0.4,0.7
2026-01-14T1600,4229A,102.2342,27.8859,凉山彝族自治州,凯乐南路30号,,41,41,60,23,34,94,,48,48,14,34,9,8,0.4,0.6
2026-01-14T1600,2212A,123.1978,41.2036,辽阳市,宏伟区,,35,35,29,20,15,66,,68,68,6,6,6,6,0.6,0.5
2026-01-14T1600,2213A,123.1684,41.2497,辽阳市,新华园,,26,24,40,18,23,64,,65,65,11,22,7,20,0.3,0.5
2026-01-14T1600,2214A,123.2355,41.2663,辽阳市,滨河路,,23,23,37,16,18,54,,54,54,8,14,6,10,0.1,0.1
2026-01-14T1600,4083A,123.153,41.2874,辽阳市,铁西路150号,,32,32,40,18,16,57,,58,58,13,18,10,12,0.6,0.6
2026-01-14T1600,2227A,125.1359,42.8845,辽源市,环保局,,30,30,52,18,31,45,,41,41,39,33,12,7,0.7,0.7
2026-01-14T1600,4085A,125.0998,42.9134,辽源市,安宁大街333号,,38,38,44,18,32,57,,44,44,17,25,12,7,0.7,0.7
2026-01-14T1600,1625A,115.9789,36.4372,聊城市,区政府,细颗粒物(PM2.5),169,208,180,128,105,37,,28,28,58,72,18,20,1.3,1.4
2026-01-14T1600,3200A,115.9772,36.4986,聊城市,监控中心,细颗粒物(PM2.5),178,205,165,134,101,41,,29,29,57,62,15,21,1.3,1.2
2026-01-14T1600,3513A,116.0443,36.436,聊城市,九州社区,细颗粒物(PM2.5),172,201,170,130,101,47,,37,37,39,52,10,17,1.0,1
2026-01-14T1600,4018A,116.0564,36.4609,聊城市,星美广场,细颗粒物(PM2.5),168,206,175,127,95,38,,31,31,39,58,9,15,1.1,1.1
2026-01-14T1600,4113A,116.0091,36.4495,聊城市,利民路,细颗粒物(PM2.5),182,194,162,137,113,33,,24,24,55,70,14,18,1.2,1.3
2026-01-14T1600,2632A,94.3683,29.6373,林芝市,林芝监测站,,28,10,14,3,7,87,,61,61,3,9,4,4,0.3,0.4
2026-01-14T1600,2633A,94.3616,29.6634,林芝市,林芝人民医院,,,13,18,3,8,,,48,45,4,10,3,2,0.4,0.4
2026-01-14T1600,2603A,100.0779,23.8981,临沧市,市环保局,,,26,43,15,42,88,,57,57,5,12,,4,0.3,0.5
2026-01-14T1600,2604A,100.0894,23.882,临沧市,市气象局,,30,30,69,21,41,91,,56,56,6,12,6,7,0.3,0.5
2026-01-14T1600,1733A,111.5552,36.0791,临汾市,临钢医院,细颗粒物(PM2.5),134,213,164,102,64,55,,31,31,,42,26,12,,1.3
2026-01-14T1600,1734A,111.4984,36.0734,临汾市,技工学校,细颗粒物(PM2.5),132,206,159,100,64,46,,30,30,54,49,28,14,2.5,1.4
2026-01-14T1600,1736A,111.5017,36.0857,临汾市,市委,细颗粒物(PM2.5),140,193,167,107,61,51,,30,30,51,54,30,17,2.6,1.3
2026-01-14T1600,3018A,111.5048,36.1015,临汾市,唐尧大酒店,细颗粒物(PM2.5),142,204,162,108,63,52,,27,27,56,54,26,12,2.7,1.5
2026-01-14T1600,4244A,111.4879,36.053,临汾市,启星学校,细颗粒物(PM2.5),127,182,155,96,63,51,,27,27,56,60,,15,2.5,1.5
2026-01-14T1600,4271A,103.2464,35.6123,临夏回族自治州,滨河东路1号,颗粒物(PM10),89,128,167,21,76,97,,46,46,14,40,6,10,0.4,1.5
2026-01-14T1600,4310A,103.207136,35.599807,临夏回族自治州,新华街21号,,,68,150,,90,79,,45,45,,46,8,15,0.4,1.9
2026-01-14T1600,1618A,118.3429,35.0532,临沂市,沂河小区,细颗粒物(PM2.5),193,219,116,145,74,44,,29,29,80,50,28,16,1.5,1
2026-01-14T1600,1619A,118.2962,35.0568,临沂市,鲁南制药厂,细颗粒物(PM2.5),238,263,132,188,79,26,,17,17,123,60,29,20,1.8,1.4
2026-01-14T1600,1620A,118.2793,34.9976,临沂市,新光毛纺厂,细颗粒物(PM2.5),229,251,123,179,80,30,,26,26,111,64,43,18,1.4,1.2
2026-01-14T1600,1621A,118.3955,35.0889,临沂市,河东保险公司,细颗粒物(PM2.5),163,190,118,124,68,47,,27,27,70,53,25,14,1.5,1.1
2026-01-14T1600,3370A,118.3563,35.0215,临沂市,十里堡居委,细颗粒物(PM2.5),199,234,110,149,54,39,,32,32,87,53,36,16,1.4,1
2026-01-14T1600,3496A,118.359,35.1067,临沂市,南坊新区,细颗粒物(PM2.5),175,197,105,132,59,28,,31,31,106,57,21,14,1.9,1.1
2026-01-14T1600,3860A,118.3915,35.0297,临沂市,皇山花园小区,细颗粒物(PM2.5),183,222,122,138,65,45,,32,32,76,57,24,18,1.6,1.3
2026-01-14T1600,1870A,109.4854,24.3898,柳州市,柳东小学,细颗粒物(PM2.5),95,86,94,71,67,178,,101,101,13,38,14,30,0.6,0.8
2026-01-14T1600,1871A,109.4109,24.3304,柳州市,环保监测站,细颗粒物(PM2.5),85,77,115,63,85,158,,94,94,14,49,9,11,0.8,1.3
2026-01-14T1600,1872A,109.3886,24.3408,柳州市,河西水厂,细颗粒物(PM2.5),89,109,157,66,102,170,,88,88,19,53,10,12,0.7,1.4
2026-01-14T1600,1873A,109.4263,24.2951,柳州市,市四中,细颗粒物(PM2.5),87,101,113,64,88,160,,79,79,23,59,14,14,0.6,1.2
2026-01-14T1600,1874A,109.396,24.3658,柳州市,市九中,细颗粒物(PM2.5),114,,124,86,88,161,,88,88,18,46,16,19,0.8,1.3
2026-01-14T1600,1875A,109.4912,24.3164,柳州市,古亭山,细颗粒物(PM2.5),75,95,80,55,61,164,,87,87,17,50,16,14,0.7,0.8
2026-01-14T1600,3402A,109.5422,24.3994,柳州市,市二中,细颗粒物(PM2.5),67,82,93,48,79,164,,90,90,16,44,15,19,0.7,0.8
2026-01-14T1600,2307A,116.5078,31.7369,六安市,监测大楼,,48,,55,33,43,92,,64,64,17,35,4,5,0.2,0.5
2026-01-14T1600,2308A,116.4738,31.7642,六安市,皖西学院,,33,31,70,21,46,104,,63,63,16,41,5,6,0.4,0.6
2026-01-14T1600,2309A,116.4997,31.7904,六安市,朝阳厂,,31,31,63,19,43,90,,53,53,18,42,6,6,0.3,0.6
2026-01-14T1600,2310A,116.5566,31.7885,六安市,开发区,,37,37,70,23,50,108,,82,82,26,45,5,6,0.3,0.5
2026-01-14T1600,2577A,104.8293,26.592,六盘水市,黄土坡,细颗粒物(PM2.5),65,56,78,47,56,80,,48,48,19,38,22,25,0.9,1.4
2026-01-14T1600,2579A,104.8481,26.5898,六盘水市,民中,细颗粒物(PM2.5),62,53,71,44,60,79,,47,47,18,34,10,12,0.7,1.1
2026-01-14T1600,2580A,104.9541,26.5506,六盘水市,双水,颗粒物(PM10),53,56,69,30,54,91,,56,56,10,17,5,6,0.5,0.4
2026-01-14T1600,4151A,104.8899,26.5685,六盘水市,钟山大道中段564号,细颗粒物(PM2.5),67,74,87,48,59,71,,46,42,24,23,13,15,2.0,1.2
2026-01-14T1600,2336A,117.022,25.1031,龙岩市,龙岩市监测站,,40,36,47,19,30,127,,87,87,13,37,11,31,0.4,0.7
2026-01-14T1600,2337A,117.0257,25.0662,龙岩市,闽西职业技术学院,,42,36,54,16,29,134,,91,91,9,28,9,15,0.4,0.6
2026-01-14T1600,2338A,117.0195,25.0306,龙岩市,龙岩学院,,41,41,41,14,31,126,,94,94,10,19,11,9,/,/
2026-01-14T1600,2885A,104.9344,33.3827,陇南市,滨江中学,颗粒物(PM10),63,76,108,17,55,82,,46,46,16,49,5,17,0.6,2.1
2026-01-14T1600,3247A,104.9551,33.3709,陇南市,市总工会,颗粒物(PM10),62,74,82,24,48,86,,46,46,11,40,8,13,0.5,1.2
2026-01-14T1600,2488A,111.9984,27.7346,娄底市,市监测站,细颗粒物(PM2.5),79,74,97,58,75,135,,77,77,15,47,15,13,0.7,1.3
2026-01-14T1600,2491A,111.9888,27.7035,娄底市,市政府,颗粒物(PM10),56,62,102,36,78,119,,69,69,28,34,14,10,0.8,1
2026-01-14T1600,4127A,111.9812,27.7591,娄底市,涟钢职大,细颗粒物(PM2.5),52,52,101,36,71,131,,70,70,16,45,13,14,0.6,1.5
2026-01-14T1600,4128A,112.0303,27.7457,娄底市,娄底体校,细颗粒物(PM2.5),67,66,80,48,66,121,,61,61,15,29,10,6,0.6,0.8
2026-01-14T1600,1894A,105.4427,28.9063,泸州市,小市上码头,细颗粒物(PM2.5),150,162,180,115,138,98,,51,51,19,46,11,12,1.3,1.6
2026-01-14T1600,1895A,105.4241,28.8573,泸州市,兰田宪桥,细颗粒物(PM2.5),142,153,188,108,132,111,,67,67,25,34,8,8,1.4,1.5
2026-01-14T1600,1896A,105.4378,28.8833,泸州市,市环监站,细颗粒物(PM2.5),150,151,173,115,137,117,,68,68,19,33,10,10,1.2,1.3
2026-01-14T1600,4272A,105.3689,28.7783,泸州市,纳溪中医医院,细颗粒物(PM2.5),153,137,147,117,140,108,,50,50,15,31,9,8,1.1,1.3
2026-01-14T1600,2183A,111.1447,37.5212,吕梁市,环保局,颗粒物(PM10),283,408,127,107,36,60,,29,29,16,44,4,8,0.3,0.5
2026-01-14T1600,2185A,111.1285,37.5338,吕梁市,自来水公司,颗粒物(PM10),299,419,175,99,45,55,,26,26,22,40,4,14,0.6,0.8
2026-01-14T1600,2867A,111.1225,37.5093,吕梁市,马茂庄小学,颗粒物(PM10),392,493,151,120,40,54,,30,30,18,48,4,11,0.2,0.6
2026-01-14T1600,1812A,112.3934,34.6517,洛阳市,市委党校,颗粒物(PM10),65,79,116,40,67,67,,38,38,28,58,12,13,0.7,1.2
2026-01-14T1600,1815A,112.494,34.6883,洛阳市,河南林校,颗粒物(PM10),77,104,126,45,72,63,,28,28,30,61,14,16,0.7,1.1
2026-01-14T1600,1816A,112.3843,34.623,洛阳市,开发区管委会,颗粒物(PM10),63,76,114,33,70,70,,44,44,22,40,14,19,0.7,0.9
2026-01-14T1600,1817A,112.4263,34.6249,洛阳市,市委新办公区,颗粒物(PM10),64,77,107,38,65,72,,51,51,28,49,13,14,0.5,0.9
2026-01-14T1600,3340A,112.6005,34.6323,洛阳市,伊滨,颗粒物(PM10),74,98,121,51,71,60,,34,34,28,45,11,10,0.6,0.7
2026-01-14T1600,3341A,112.495,34.6338,洛阳市,中移产业园,颗粒物(PM10),70,89,101,48,64,60,,35,35,26,47,13,14,0.6,0.9
2026-01-14T1600,3593A,112.5736,34.8993,洛阳市,吉利监测站,颗粒物(PM10),61,72,98,30,52,73,,41,41,25,51,12,12,0.7,0.9
2026-01-14T1600,3635A,112.3678,34.6623,洛阳市,河科大西苑校区,颗粒物(PM10),69,87,128,38,67,71,,41,41,27,57,12,15,0.7,1.2
2026-01-14T1600,3636A,112.4387,34.678,洛阳市,英才小学,颗粒物(PM10),75,99,137,46,77,66,,32,32,31,65,14,19,0.7,1.3
2026-01-14T1600,4214A,112.460027,34.694929,洛阳市,春都路1号院,颗粒物(PM10),81,112,143,43,63,66,,32,32,22,54,11,15,0.8,1.2
2026-01-14T1600,2399A,114.051,33.5721,漯河市,三五一五工厂,细颗粒物(PM2.5),185,195,186,139,140,50,,26,26,48,61,17,10,0.8,0.9
2026-01-14T1600,2400A,114.0055,33.5698,漯河市,漯河大学,细颗粒物(PM2.5),147,172,159,112,122,46,,23,23,47,49,16,9,1.1,1.1
2026-01-14T1600,2401A,114.0134,33.5826,漯河市,市水利局,细颗粒物(PM2.5),149,175,167,114,125,38,,18,18,47,50,15,10,1.0,1
2026-01-14T1600,2402A,114.0261,33.5697,漯河市,市广电局,细颗粒物(PM2.5),145,178,168,111,129,50,,29,29,48,57,16,9,1.0,1.1
2026-01-14T1600,3478A,113.9691,33.568,漯河市,市图书馆,细颗粒物(PM2.5),179,205,190,135,144,38,,28,20,51,45,14,8,1.0,1
2026-01-14T1600,4250A,114.089259,33.588274,漯河市,韶山路11号,细颗粒物(PM2.5),159,200,182,121,131,47,,24,24,46,60,16,11,1.0,1.1
2026-01-14T1600,1798A,118.5084,31.6838,马鞍山市,湖东路四小,颗粒物(PM10),54,58,108,32,64,75,,55,55,43,60,10,10,0.7,1.2
2026-01-14T1600,1799A,118.5019,31.6449,马鞍山市,开发区,细颗粒物(PM2.5),63,72,119,45,75,68,,49,49,55,69,12,10,0.8,1.1
2026-01-14T1600,3633A,118.4914,31.681,马鞍山市,雨山,细颗粒物(PM2.5),55,55,102,39,64,79,,57,57,44,61,12,13,0.8,1.1
2026-01-14T1600,4191A,118.527362,31.722269,马鞍山市,慈湖高新区,颗粒物(PM10),61,71,113,37,70,73,,53,53,51,60,9,11,0.6,1
2026-01-14T1600,1686A,111.0285,21.469,茂名市,电白南海,颗粒物(PM10),57,63,73,36,42,147,,140,140,19,25,10,14,1.0,1.1
2026-01-14T1600,1687A,110.9294,21.6533,茂名市,茂石化七小,颗粒物(PM10),52,53,75,29,39,140,,139,139,14,24,6,15,0.4,0.6
2026-01-14T1600,1688A,110.9108,21.6688,茂名市,健康路,,49,46,68,24,41,154,,151,151,14,28,7,20,0.6,0.8
2026-01-14T1600,1689A,110.8592,21.6826,茂名市,高岭,颗粒物(PM10),59,68,106,17,45,140,,133,133,22,42,7,29,/,/
2026-01-14T1600,3450A,111.0101,21.5165,茂名市,电白水东,颗粒物(PM10),52,53,67,19,37,138,,139,139,13,19,8,16,/,/
2026-01-14T1600,2540A,103.8414,30.0871,眉山市,气象局,,39,39,163,24,140,112,,60,60,11,44,11,13,0.3,0.9
2026-01-14T1600,3148A,103.829,30.0563,眉山市,区人社局,,48,48,149,17,133,108,,58,58,8,46,10,11,0.2,1
2026-01-14T1600,4148A,103.8836,30.0695,眉山市,眉职院,,35,35,170,19,130,106,,53,53,9,35,2,3,0.4,1.1
2026-01-14T1600,1690A,116.1248,24.3307,梅州市,梅江月梅,,46,36,56,32,34,136,,85,85,17,37,/,/,/,/
2026-01-14T1600,1691A,116.0798,24.2719,梅州市,梅县新城,,43,42,59,26,39,136,,82,82,16,40,9,8,0.6,0.7
2026-01-14T1600,3315A,116.1234,24.2994,梅州市,梅龙,,41,36,53,25,36,129,,79,79,12,30,9,9,0.7,0.8
2026-01-14T1600,1878A,104.7775,31.4741,绵阳市,富乐山,,,,137,,110,82,,47,47,20,36,9,11,0.4,0.8
2026-01-14T1600,1880A,104.6698,31.4668,绵阳市,高新区自来水公司,"颗粒物(PM10),细颗粒物(PM2.5)",55,60,164,39,119,81,,39,39,16,53,9,9,0.6,1.1
2026-01-14T1600,3491A,104.6899,31.5324,绵阳市,西科大附属小学,细颗粒物(PM2.5),63,60,139,45,111,94,,50,50,19,50,9,8,0.2,0.8
2026-01-14T1600,3492A,104.5647,31.5343,绵阳市,安州区旅游局,细颗粒物(PM2.5),55,51,130,39,113,94,,52,52,20,44,11,12,0.4,0.9
2026-01-14T1600,4146A,104.7092,31.4972,绵阳市,科技城新区公安局,细颗粒物(PM2.5),55,54,126,39,106,104,,58,58,20,36,9,8,0.5,1
2026-01-14T1600,4226A,104.765114,31.453094,绵阳市,绵阳市气象局,颗粒物(PM10),60,69,144,38,113,77,,35,35,28,59,8,9,0.5,1.1
2026-01-14T1600,1784A,129.61,44.561,牡丹江市,环保大楼,,30,24,31,21,24,55,,59,59,23,13,4,5,0.4,0.3
2026-01-14T1600,1787A,129.6364,44.6075,牡丹江市,机车工厂,,46,40,35,32,22,47,,52,52,25,18,3,3,0.3,0.3
2026-01-14T1600,1788A,129.6386,44.5462,牡丹江市,第一中学,,30,30,29,6,20,54,,56,56,19,11,6,5,0.3,0.4
2026-01-14T1600,4287A,129.5992,44.5964,牡丹江市,东晓云街98号,,36,25,36,25,31,55,,56,56,21,16,5,5,0.5,0.5
2026-01-14T1600,2531A,105.0703,29.61,内江市,市监测站,细颗粒物(PM2.5),85,,96,63,98,125,,78,78,14,27,7,7,0.7,1.1
2026-01-14T1600,2533A,105.0657,29.5807,内江市,内江二中,细颗粒物(PM2.5),89,96,114,66,105,108,,63,63,20,37,5,5,0.8,1
2026-01-14T1600,2534A,105.0407,29.5828,内江市,内江日报社,细颗粒物(PM2.5),83,62,93,61,94,114,,71,71,21,33,2,3,0.6,0.7
2026-01-14T1600,4147A,105.0433,29.6105,内江市,玉峰路西段888号,,,71,99,57,94,119,,77,77,17,35,1,2,,1
2026-01-14T1600,2628A,92.0653,31.4846,那曲市,那曲监测站,,,10,49,3,25,84,,58,58,,22,,8,0.5,1.2
2026-01-14T1600,4243A,92.0515,31.4787,那曲市,那曲市委宣传部,,28,27,40,3,15,88,,56,56,3,14,3,7,0.4,0.7
2026-01-14T1600,1291A,115.8887,28.7006,南昌市,省林业公司,细颗粒物(PM2.5),55,56,98,39,66,101,,49,49,30,74,8,9,0.8,1.3
2026-01-14T1600,1292A,115.813,28.7443,南昌市,林科所,细颗粒物(PM2.5),62,63,83,44,58,107,,64,64,35,59,12,12,0.3,0.6
2026-01-14T1600,1294A,115.8518,28.687,南昌市,建工学校,细颗粒物(PM2.5),69,75,111,50,74,90,,50,50,47,80,18,17,0.8,1.3
2026-01-14T1600,1295A,115.8926,28.6425,南昌市,象湖,细颗粒物(PM2.5),52,49,122,36,84,98,,55,55,34,75,15,14,0.5,1.4
2026-01-14T1600,3046A,115.9084,28.6062,南昌市,机电学校,,,67,135,39,87,111,,69,69,,83,11,12,0.5,1.1
2026-01-14T1600,3690A,115.9718,28.7032,南昌市,外国语学校,细颗粒物(PM2.5),72,,105,52,77,104,,66,66,28,70,16,18,0.6,1
2026-01-14T1600,4106A,115.7923,28.6873,南昌市,工业二路,细颗粒物(PM2.5),68,64,81,49,62,98,,55,55,33,67,9,7,0.7,0.9
2026-01-14T1600,4192A,115.931587,28.686774,南昌市,南京东路235号,颗粒物(PM10),62,74,130,35,89,108,,66,66,34,76,10,11,0.9,1.3
2026-01-14T1600,1906A,106.0791,30.8022,南充市,南充市委,细颗粒物(PM2.5),124,105,95,94,84,65,,31,31,18,36,5,4,0.8,0.9
2026-01-14T1600,1907A,106.1038,30.8215,南充市,南充炼油厂,细颗粒物(PM2.5),114,96,101,86,86,72,,40,40,19,27,6,6,0.9,0.9
2026-01-14T1600,4227A,106.108336,30.788436,南充市,梨树横街98号,细颗粒物(PM2.5),102,100,99,76,77,80,,38,38,23,40,7,6,0.7,0.8
2026-01-14T1600,4304A,106.1172,30.843,南充市,清泉寺北路188号,细颗粒物(PM2.5),112,,84,84,73,79,,41,39,21,20,6,6,0.7,0.6
2026-01-14T1600,4305A,106.067,30.7616,南充市,同庆路1号,细颗粒物(PM2.5),100,84,98,75,87,80,,40,40,15,39,8,6,0.8,1
2026-01-14T1600,1151A,118.8033,32.1085,南京市,迈皋桥,,47,47,80,22,52,94,,74,74,16,39,9,7,0.7,0.8
2026-01-14T1600,1152A,118.7487,32.057,南京市,草场门,,48,48,93,22,53,34,,11,11,31,65,14,12,1.0,0.9
2026-01-14T1600,1154A,118.770105,32.004342,南京市,中华门,,39,39,84,22,54,84,,56,56,34,62,11,9,1.0,0.9
2026-01-14T1600,1155A,118.8059,32.0329,南京市,瑞金路,,44,44,92,22,61,80,,49,49,14,87,4,5,1.1,1.2
2026-01-14T1600,1156A,118.7946,32.0774,南京市,玄武湖,,39,39,84,19,49,88,,55,55,11,12,4,4,1.1,1
2026-01-14T1600,1157A,118.6415,32.0964,南京市,浦口,颗粒物(PM10),57,63,97,34,54,79,,46,46,34,56,11,15,0.6,0.8
2026-01-14T1600,1158A,118.730129,32.000956,南京市,奥体中心,颗粒物(PM10),51,52,97,27,59,85,,54,54,33,74,18,16,1.1,1.1
2026-01-14T1600,1159A,118.9072,32.1047,南京市,仙林大学城,,44,44,88,17,48,87,,59,59,26,51,14,12,1.1,1.1
2026-01-14T1600,3422A,118.8443,31.919,南京市,江宁彩虹桥,颗粒物(PM10),53,55,88,27,55,88,,55,55,29,58,12,6,0.8,0.8
2026-01-14T1600,3427A,118.8497,32.3599,南京市,六合雄州,细颗粒物(PM2.5),67,69,94,48,56,67,,61,61,58,75,20,14,1.6,1.2
2026-01-14T1600,4086A,118.7641,32.0841,南京市,新模范马路66号,颗粒物(PM10),53,56,97,11,59,115,,72,72,29,64,4,5,0.4,0.9
2026-01-14T1600,4249A,118.8707617,31.34017673,南京市,汶溪路181号,,36,27,66,25,56,108,,74,74,19,35,8,11,0.6,0.9
2026-01-14T1600,4312A,119.019,31.6512,南京市,中山西路1号,,,110,75,29,59,94,,72,72,19,47,4,4,,0.9
2026-01-14T1600,1401A,108.3098,22.788,南宁市,二十一中,细颗粒物(PM2.5),69,78,91,50,80,149,,98,98,14,46,6,7,0.7,0.8
2026-01-14T1600,1402A,108.3135,22.8529,南宁市,北湖,细颗粒物(PM2.5),70,72,101,51,79,148,,93,93,19,59,6,7,0.9,1.2
2026-01-14T1600,1403A,108.3205,22.8222,南宁市,市监测站,细颗粒物(PM2.5),73,63,96,53,68,148,,107,107,16,52,10,13,0.8,1.1
2026-01-14T1600,1404A,108.3828,22.8038,南宁市,大自然花园,细颗粒物(PM2.5),72,58,93,52,70,151,,107,107,13,44,8,8,0.8,0.9
2026-01-14T1600,1406A,108.2397,22.8462,南宁市,区农职院,细颗粒物(PM2.5),62,56,87,44,69,148,,90,90,18,43,10,14,1.0,1
2026-01-14T1600,1407A,108.3285,22.7356,南宁市,英华嘉园,颗粒物(PM10),64,77,106,45,83,142,,94,94,23,65,6,6,0.9,1
2026-01-14T1600,3401A,108.4829,22.762,南宁市,红星社区,颗粒物(PM10),56,62,90,36,70,148,,97,97,12,47,7,6,1.0,1
2026-01-14T1600,4132A,108.2927,23.1477,南宁市,起凤路9号,细颗粒物(PM2.5),70,70,103,51,82,162,,94,94,13,38,5,4,0.7,0.8
2026-01-14T1600,4221A,108.2177,22.7774,南宁市,乐贤路16号,细颗粒物(PM2.5),64,69,113,46,68,146,,86,86,17,53,3,3,0.8,0.8
2026-01-14T1600,2332A,118.1682,26.6371,南平市,南平市监测站,,34,26,42,14,28,106,,75,75,9,26,5,6,0.3,0.5
2026-01-14T1600,2334A,118.1757,26.6276,南平市,南平七中,,38,38,36,15,26,102,,74,74,10,25,6,6,0.5,0.6
2026-01-14T1600,1168A,120.9056,31.9669,南通市,狼山街道,细颗粒物(PM2.5),60,63,119,43,80,84,,69,69,42,64,5,6,0.4,0.7
2026-01-14T1600,1170A,120.8635,32.0231,南通市,城中,颗粒物(PM10),68,86,131,46,76,68,,60,60,67,72,8,10,0.7,1
2026-01-14T1600,1171A,120.9376,31.9301,南通市,星湖花园,,,71,122,40,74,88,,70,70,42,70,,10,0.5,0.6
2026-01-14T1600,1172A,120.8053,32.046,南通市,紫琅学院,"颗粒物(PM10),细颗粒物(PM2.5)",72,93,137,52,79,58,,46,46,86,83,19,10,1.1,1
2026-01-14T1600,3291A,121.0631,32.0644,南通市,通州监测站,细颗粒物(PM2.5),62,68,120,44,80,94,,71,71,48,56,9,8,0.9,0.9
2026-01-14T1600,3432A,120.9348,31.9874,南通市,环境教育馆,细颗粒物(PM2.5),62,66,118,44,80,92,,65,65,49,74,6,9,0.7,0.9
2026-01-14T1600,4091A,120.8692,31.9885,南通市,洪江路,细颗粒物(PM2.5),64,67,110,46,84,58,,52,52,62,71,6,8,0.8,1
2026-01-14T1600,2404A,112.5338,33.0086,南阳市,瓦房庄,细颗粒物(PM2.5),90,88,121,67,94,98,,43,43,14,35,10,7,0.7,1
2026-01-14T1600,2405A,112.5002,32.9734,南阳市,汉画馆,细颗粒物(PM2.5),94,97,127,70,90,101,,49,49,14,42,10,7,0.8,0.9
2026-01-14T1600,2406A,112.5778,33.0144,南阳市,气象站,细颗粒物(PM2.5),83,102,135,61,82,100,,46,46,15,38,10,6,0.8,0.9
2026-01-14T1600,2407A,112.548,32.9687,南阳市,理工学院,细颗粒物(PM2.5),75,85,128,55,83,98,,37,37,16,47,8,6,0.7,1
2026-01-14T1600,4008A,112.5233,32.9921,南阳市,卧龙区政府,细颗粒物(PM2.5),98,113,146,73,93,90,,40,40,22,47,9,6,0.7,0.9
2026-01-14T1600,1234A,121.8352,29.9111,宁波市,区环保大楼,,50,50,89,24,47,111,,102,102,36,66,6,7,0.5,0.7
2026-01-14T1600,1235A,121.5595,29.8208,宁波市,万里学院,颗粒物(PM10),52,53,95,21,55,122,,108,108,39,57,5,7,0.4,0.8
2026-01-14T1600,1236A,121.713,29.9564,宁波市,龙赛医院,,47,47,100,22,53,122,,98,98,19,60,4,6,0.6,0.8
2026-01-14T1600,1240A,121.5855,29.8635,宁波市,太古小学,,50,50,91,27,53,132,,112,112,19,45,6,6,0.6,0.8
2026-01-14T1600,1241A,121.5239,29.8673,宁波市,市环境监测中心,颗粒物(PM10),56,61,95,25,53,117,,105,105,22,62,8,9,0.4,0.9
2026-01-14T1600,2871A,121.6156,29.9015,宁波市,万里国际学校,,45,45,81,21,47,140,,118,118,24,43,5,6,0.3,0.5
2026-01-14T1600,3710A,121.5593,29.8976,宁波市,白沙活动中心,颗粒物(PM10),51,51,79,23,49,122,,106,106,24,51,6,7,0.6,0.8
2026-01-14T1600,4095A,121.8962,29.7529,宁波市,中科路88号,,44,36,86,14,54,139,,110,110,12,60,6,7,0.2,0.4
2026-01-14T1600,2341A,119.5387,26.6611,宁德市,宁德市监测站,颗粒物(PM10),52,54,42,16,27,125,,88,88,16,22,8,7,0.4,0.6
2026-01-14T1600,3209A,119.5231,26.6562,宁德市,宁德一中,,50,48,36,35,26,122,,92,92,14,17,7,6,0.4,0.5
2026-01-14T1600,2618A,98.859,25.8541,怒江傈僳族自治州,州监测站,,,34,35,15,22,89,,56,56,,14,8,8,0.3,0.4
2026-01-14T1600,2619A,98.8607,25.8168,怒江傈僳族自治州,泸水一中,,36,36,34,21,22,79,,44,44,7,21,6,6,0.6,0.7
2026-01-14T1600,1888A,101.6891,26.571,攀枝花市,弄弄坪,,,44,71,33,50,109,,57,57,,35,,27,1.0,2
2026-01-14T1600,1889A,101.577,26.5914,攀枝花市,河门口,,47,47,68,32,48,110,,60,60,16,26,25,20,1.7,1.4
2026-01-14T1600,1891A,101.7365,26.4986,攀枝花市,仁和,,38,38,63,25,40,105,,58,58,12,27,18,17,0.7,1.4
2026-01-14T1600,2835A,101.7222,26.567,攀枝花市,四十中小,颗粒物(PM10),56,61,76,39,48,107,,52,52,12,43,24,23,1.1,1.9
2026-01-14T1600,1604A,122.0303,41.1489,盘锦市,开发区,,39,38,42,27,32,46,,51,51,19,20,5,12,0.8,1
2026-01-14T1600,1605A,122.0486,41.0883,盘锦市,兴隆台,,33,25,45,23,29,44,,43,43,31,45,7,15,0.7,1.1
2026-01-14T1600,1606A,121.8297,41.1026,盘锦市,新生街道,,24,24,37,16,28,60,,59,59,18,31,6,9,0.5,0.8
2026-01-14T1600,1832A,113.3257,33.7423,平顶山市,新华旅馆,颗粒物(PM10),72,93,162,46,97,61,,27,27,25,68,8,9,0.3,0.9
2026-01-14T1600,1833A,113.2917,33.737,平顶山市,规划设计院,颗粒物(PM10),85,119,188,41,102,55,,27,27,22,59,9,10,0.6,1.2
2026-01-14T1600,1834A,113.182,33.7738,平顶山市,平顶山工学院,颗粒物(PM10),90,129,150,66,93,43,,36,36,37,40,11,12,0.5,0.6
2026-01-14T1600,3594A,112.8736,33.9068,平顶山市,石龙区,细颗粒物(PM2.5),92,123,125,68,67,57,,42,42,29,55,9,11,0.5,0.6
2026-01-14T1600,4116A,113.284,33.7139,平顶山市,姚电大道23号,细颗粒物(PM2.5),105,151,187,79,103,54,,27,27,32,46,12,10,0.6,0.9
2026-01-14T1600,2656A,106.6633,35.5338,平凉市,聚贤嘉苑,颗粒物(PM10),53,55,113,14,30,99,,91,91,4,20,7,11,0.6,0.7
2026-01-14T1600,2657A,106.7021,35.5307,平凉市,博物馆,颗粒物(PM10),58,66,118,14,31,96,,88,88,6,20,15,10,0.3,0.5
2026-01-14T1600,2348A,113.8384,27.6436,萍乡市,中医院,,47,47,114,23,71,132,,98,98,12,54,5,14,0.8,2
2026-01-14T1600,2350A,113.8677,27.6438,萍乡市,市环保局,,44,42,97,27,70,138,,99,99,11,52,15,25,0.7,1.5
2026-01-14T1600,2351A,113.8663,27.6202,萍乡市,安源区政府,细颗粒物(PM2.5),55,39,113,39,101,110,,71,71,11,41,11,17,0.8,2
2026-01-14T1600,4107A,113.8686,27.6668,萍乡市,联洪村委会,,45,37,99,31,70,126,,95,95,12,47,5,6,0.6,1.2
2026-01-14T1600,2319A,119.0142,25.4324,莆田市,荔城区仓后路,,44,44,46,19,27,127,,108,108,13,18,/,/,/,/
2026-01-14T1600,2320A,119.0016,25.4553,莆田市,莆田市监测站,,48,48,34,16,22,130,,116,116,11,9,3,3,0.5,0.5
2026-01-14T1600,2321A,119.112,25.4561,莆田市,涵江区六中,,41,41,42,18,28,131,,116,116,8,17,/,/,0.5,0.6
2026-01-14T1600,2322A,119.1014,25.3215,莆田市,秀屿区政府,颗粒物(PM10),51,52,48,23,32,128,,116,116,11,15,4,4,0.4,0.6
2026-01-14T1600,2392A,115.0312,35.7636,濮阳市,环保局,细颗粒物(PM2.5),117,160,130,88,73,27,,18,18,56,63,12,12,0.8,0.7
2026-01-14T1600,3021A,115,35.7667,濮阳市,濮水河管理处,颗粒物(PM10),109,167,143,77,68,29,,19,19,53,62,12,10,1.2,1.1
2026-01-14T1600,4118A,115.0552,35.7816,濮阳市,中原东路68号,细颗粒物(PM2.5),120,174,158,91,80,29,,19,19,58,62,12,12,0.8,1.4
2026-01-14T1600,4216A,115.0923632,35.76857718,濮阳市,任丘路479号,细颗粒物(PM2.5),135,185,161,103,91,23,,15,15,61,67,13,12,1.1,1.2
2026-01-14T1600,2601A,100.9801,22.7634,普洱市,市环保局,,43,43,50,6,15,72,,43,43,5,13,4,5,0.3,0.5
2026-01-14T1600,2602A,100.9763,22.8237,普洱市,普洱第二中学,,45,45,42,19,24,68,,37,37,5,20,5,5,0.3,0.4
2026-01-14T1600,3345A,131.0413,45.7795,七台河市,中波台,,19,17,32,12,20,59,,55,55,8,13,6,8,0.3,0.3
2026-01-14T1600,3637A,131.0136,45.7688,七台河市,人民广场,,,22,31,14,24,54,,53,53,17,15,,8,0.4,0.5
2026-01-14T1600,3684A,130.8639,45.8144,七台河市,新建矿广场,,34,34,34,21,28,53,,48,48,9,11,5,7,0.3,0.2
2026-01-14T1600,1779A,123.9307,47.3641,齐齐哈尔市,安居小区,,,,19,,12,57,,53,53,14,11,9,9,,0.6
2026-01-14T1600,1780A,123.9497,47.3389,齐齐哈尔市,中心广场,,20,,15,14,8,52,,48,48,14,11,6,7,0.6,0.6
2026-01-14T1600,1781A,123.9483,47.3229,齐齐哈尔市,农牧车辆厂,,22,22,25,10,12,57,,49,49,9,9,6,8,0.3,0.4
2026-01-14T1600,1783A,123.9442,47.2994,齐齐哈尔市,市环境监测站,,21,21,23,10,10,59,,52,52,10,9,7,7,0.6,0.6
2026-01-14T1600,3662A,123.6341,47.2079,齐齐哈尔市,富区青少年活动中心,,42,42,32,7,16,65,,54,54,8,17,5,8,0.5,0.6
2026-01-14T1600,2591A,107.9765,26.5724,黔东南苗族侗族自治州,市环境监测站,细颗粒物(PM2.5),143,134,77,109,65,16,,18,18,56,37,9,6,1.4,1
2026-01-14T1600,2881A,107.8909,26.531,黔东南苗族侗族自治州,凯里学院,细颗粒物(PM2.5),134,114,69,102,57,41,,57,29,36,22,4,5,0.9,0.7
2026-01-14T1600,2593A,107.5223,26.2371,黔南布依族苗族自治州,小围寨,细颗粒物(PM2.5),100,78,45,75,39,64,,87,82,14,9,9,8,0.9,0.8
2026-01-14T1600,3538A,107.5175,26.2977,黔南布依族苗族自治州,沙坝,细颗粒物(PM2.5),98,80,50,73,40,61,,79,74,16,15,9,6,1.2,0.9
2026-01-14T1600,2589A,104.9022,25.0943,黔西南布依族苗族自治州,场坝街,,46,37,61,32,53,80,,57,57,10,15,6,4,0.6,0.7
2026-01-14T1600,2590A,104.8812,25.0994,黔西南布依族苗族自治州,坪东大道,细颗粒物(PM2.5),64,56,68,46,56,80,,54,54,9,23,6,6,0.7,0.8
2026-01-14T1600,2502A,108.6238,21.9667,钦州市,市环保站,颗粒物(PM10),53,56,135,22,78,152,,110,110,17,46,5,7,0.4,0.8
2026-01-14T1600,2503A,108.655,21.9481,钦州市,沙埠小学,颗粒物(PM10),58,66,130,26,81,157,,113,113,11,57,6,12,0.3,0.8
2026-01-14T1600,2504A,108.5989,21.7435,钦州市,港区一小,颗粒物(PM10),65,79,119,30,70,139,,116,116,29,63,14,11,0.7,1
2026-01-14T1600,3404A,108.5959,21.9634,钦州市,北职校,颗粒物(PM10),54,57,110,20,82,149,,104,104,14,44,10,10,0.6,1
2026-01-14T1600,1046A,119.5247,39.9346,秦皇岛市,建设大厦,细颗粒物(PM2.5),68,81,64,49,38,48,,25,25,24,41,7,6,0.7,0.7
2026-01-14T1600,3132A,119.5979,39.938,秦皇岛市,文明里,颗粒物(PM10),66,82,49,42,22,47,,22,21,33,35,12,10,0.6,0.5
2026-01-14T1600,4066A,119.7458,39.9952,秦皇岛市,南园路157号,细颗粒物(PM2.5),80,92,43,59,22,20,,24,24,54,36,9,8,0.7,0.5
2026-01-14T1600,4067A,119.5131,39.8858,秦皇岛市,翠岛大街1号,颗粒物(PM10),72,94,50,41,19,45,,27,27,20,26,10,9,0.6,0.5
2026-01-14T1600,4198A,119.509013,39.825305,秦皇岛市,北戴河轮滑馆,颗粒物(PM10),71,91,45,47,24,41,,26,26,36,32,7,5,0.7,0.6
2026-01-14T1600,1310A,120.404,36.0625,青岛市,市南区东部子站,颗粒物(PM10),69,88,57,31,21,68,,72,72,24,14,10,9,0.6,0.5
2026-01-14T1600,1311A,120.362344,36.10282,青岛市,四方区子站,细颗粒物(PM2.5),85,110,63,63,26,83,,76,76,16,13,4,4,0.9,0.6
2026-01-14T1600,1312A,120.294373,36.054183,青岛市,市南区西部子站,颗粒物(PM10),68,85,55,46,20,74,,68,68,35,25,9,10,1.0,0.9
2026-01-14T1600,1313A,120.4581,36.0858,青岛市,崂山区子站,颗粒物(PM10),79,107,62,31,16,86,,79,79,14,11,8,10,0.5,0.3
2026-01-14T1600,1315A,120.3945,36.3083,青岛市,城阳区子站,颗粒物(PM10),91,132,74,56,29,68,,74,74,53,34,10,8,1.1,0.9
2026-01-14T1600,3642A,120.3454,36.0735,青岛市,市北区南部,细颗粒物(PM2.5),70,86,61,51,19,84,,77,77,18,11,1,2,0.8,0.6
2026-01-14T1600,3643A,120.3897,36.18,青岛市,李沧区北部,细颗粒物(PM2.5),94,122,61,70,30,64,,68,68,51,21,11,10,1.1,0.8
2026-01-14T1600,4110A,120.5222,36.4089,青岛市,盟旺路653号,细颗粒物(PM2.5),88,118,63,65,26,86,,76,76,49,22,7,4,0.8,0.6
2026-01-14T1600,4290A,120.196923,35.954556,青岛市,珠江路669号,"颗粒物(PM10),细颗粒物(PM2.5)",64,78,48,46,24,75,,81,78,23,13,11,10,0.8,0.6
2026-01-14T1600,4291A,120.0424,35.8656,青岛市,黄岛区人民政府广场,,,90,60,,18,68,,73,64,27,22,7,8,,0.8
2026-01-14T1600,1703A,113.0218,23.7086,清远市,凤城街办,细颗粒物(PM2.5),78,83,64,57,44,174,,109,109,41,40,/,/,/,/
2026-01-14T1600,3025A,113.0479,23.6343,清远市,技师学院,臭氧1小时(O3_1h),58,59,76,38,42,166,,108,108,31,62,8,11,0.5,0.6
2026-01-14T1600,3318A,112.9898,23.7403,清远市,清新太和,臭氧1小时(O3_1h),99,92,62,62,40,199,,120,120,35,33,6,6,0.6,0.6
2026-01-14T1600,3455A,113.076,23.72,清远市,清城东城,臭氧1小时(O3_1h),73,84,60,48,39,178,,110,110,36,33,/,/,/,/
2026-01-14T1600,2661A,107.6325,35.7357,庆阳市,庆阳五中,颗粒物(PM10),83,115,218,35,50,90,,78,78,6,17,4,6,0.2,0.4
2026-01-14T1600,2662A,107.6361,35.7067,庆阳市,市环保局,颗粒物(PM10),79,108,209,18,45,92,,78,78,6,14,4,6,0.4,0.5
2026-01-14T1600,1916A,103.7897,25.5036,曲靖市,环境监测站,,,,32,,16,111,,84,84,11,14,8,5,0.3,0.6
2026-01-14T1600,1917A,103.8013,25.5357,曲靖市,烟厂办公区,,35,32,33,21,16,110,,80,80,10,11,4,4,0.4,0.4
2026-01-14T1600,3376A,103.7926,25.4651,曲靖市,南苑二区,,36,25,26,14,16,113,,84,84,6,7,6,5,0.3,0.3
2026-01-14T1600,3377A,103.7442,25.5259,曲靖市,曲靖师范学院,,35,29,37,18,26,109,,81,81,9,15,6,5,0.3,0.4
2026-01-14T1600,1264A,118.8694,28.94,衢州市,环保大楼,颗粒物(PM10),56,62,70,38,38,113,,79,79,27,55,/,/,/,/
2026-01-14T1600,1266A,118.8622,28.9809,衢州市,衢州学院,颗粒物(PM10),55,60,59,38,29,98,,64,64,28,54,8,8,0.5,0.6
2026-01-14T1600,4097A,118.9646,28.9832,衢州市,衢州三中,颗粒物(PM10),54,57,57,35,33,103,,61,61,25,47,6,6,0.7,0.7
2026-01-14T1600,1611A,118.5818,24.9116,泉州市,涂山街,颗粒物(PM10),51,52,54,22,33,142,,105,105,14,22,5,4,0.4,0.6
2026-01-14T1600,1612A,118.597,24.8976,泉州市,津头埔,,49,49,54,21,34,136,,103,103,16,26,5,5,0.5,0.7
2026-01-14T1600,1613A,118.6669,24.9422,泉州市,万安,细颗粒物(PM2.5),59,58,49,42,33,130,,108,108,13,18,4,4,0.5,0.5
2026-01-14T1600,4105A,118.6355,24.9148,泉州市,霞新路6号,,44,44,46,24,30,136,,116,116,16,29,/,/,0.4,0.5
2026-01-14T1600,2626A,88.8873,29.2723,日喀则市,日喀则监测站,,30,15,53,3,30,95,,48,48,4,26,18,21,0.4,0.8
2026-01-14T1600,3726A,88.8775,29.2425,日喀则市,林业技术推广中心,,33,18,40,8,25,105,,60,60,7,14,10,11,0.4,0.7
2026-01-14T1600,1659A,119.4711,35.421,日照市,监测站,细颗粒物(PM2.5),102,134,99,76,51,34,,22,22,55,59,21,16,1.5,1.4
2026-01-14T1600,1660A,119.523,35.4216,日照市,市政府广场,细颗粒物(PM2.5),97,127,76,72,32,35,,59,24,61,36,20,12,1.4,0.6
2026-01-14T1600,1661A,119.5511,35.4113,日照市,港务局,颗粒物(PM10),106,161,76,75,38,10,,54,27,82,36,12,8,1.3,0.6
2026-01-14T1600,3507A,119.5326,35.4627,日照市,职业技术学院,颗粒物(PM10),96,141,78,66,29,46,,59,29,63,36,19,10,1.9,1
2026-01-14T1600,3604A,119.3267,35.1043,日照市,岚山环保分局,细颗粒物(PM2.5),132,158,91,100,42,38,,64,30,69,43,17,13,1.3,1
2026-01-14T1600,1835A,111.1922,34.7752,三门峡市,市政府,细颗粒物(PM2.5),112,109,98,84,71,52,,23,23,44,57,20,17,0.9,1
2026-01-14T1600,1836A,111.1588,34.794,三门峡市,开发区,细颗粒物(PM2.5),127,156,120,96,71,52,,24,24,46,55,10,8,1.0,0.9
2026-01-14T1600,3039A,111.1911,34.7829,三门峡市,三门峡市第一小学,细颗粒物(PM2.5),127,119,109,96,67,44,,20,20,49,59,18,15,1.0,1
2026-01-14T1600,3598A,111.1031,34.719,三门峡市,富达温泉假日酒店,细颗粒物(PM2.5),119,128,144,90,93,43,,21,21,56,58,15,20,0.9,1.3
2026-01-14T1600,2324A,117.621,26.2626,三明市,三钢,,37,33,42,18,31,117,,75,75,11,33,7,8,0.5,1
2026-01-14T1600,2325A,117.6352,26.2714,三明市,三明二中,,35,26,36,16,27,110,,79,79,9,26,3,9,0.5,0.8
2026-01-14T1600,2326A,117.6028,26.2377,三明市,三元区政府,,46,46,48,24,30,105,,73,73,26,40,18,8,1.7,1
2026-01-14T1600,1877A,109.4962,18.2682,三亚市,河西子站,,48,48,50,24,18,151,,128,128,14,14,3,2,0.4,0.4
2026-01-14T1600,3540A,109.7348,18.3443,三亚市,君悦子站,臭氧1小时(O3_1h),78,52,51,28,25,182,,148,148,8,10,6,5,0.5,0.6
2026-01-14T1600,4135A,109.1714,18.3739,三亚市,城东小学站,颗粒物(PM10),51,51,39,22,27,141,,109,109,9,12,/,/,/,/
2026-01-14T1600,2624A,91.7592,29.234,山南市,山南监测站,,27,20,25,10,19,84,,53,53,4,12,5,5,0.4,0.5
2026-01-14T1600,2625A,91.7701,29.2436,山南市,山南人民医院,,27,9,22,3,12,84,,55,55,3,16,9,8,0.3,0.6
2026-01-14T1600,1674A,116.6795,23.3666,汕头市,金平子站,,45,42,58,18,39,141,,102,102,12,31,5,8,0.6,0.8
2026-01-14T1600,1675A,116.7248,23.3632,汕头市,龙湖子站,,45,45,51,23,30,136,,,,11,21,11,14,/,/
2026-01-14T1600,1676A,116.7257,23.2774,汕头市,濠江子站,,49,49,43,27,31,137,,110,110,14,19,9,10,/,/
2026-01-14T1600,1677A,116.7518,23.4712,汕头市,澄海子站,,,56,58,21,36,140,,104,104,13,26,,11,0.6,0.7
2026-01-14T1600,1678A,116.6088,23.2539,汕头市,潮阳子站,,44,39,47,17,28,140,,104,104,9,19,7,9,0.5,0.6
2026-01-14T1600,3444A,116.4539,23.2684,汕头市,潮南峡山,,45,45,59,23,38,142,,110,110,16,24,10,11,0.6,0.7
2026-01-14T1600,3624A,116.4069,23.2533,汕头市,潮南子站,,48,48,88,24,51,129,,96,96,16,31,9,9,/,/
2026-01-14T1600,1693A,115.3653,22.7751,汕尾市,市环保局,颗粒物(PM10),56,62,51,20,33,113,,102,102,28,19,8,8,0.6,0.7
2026-01-14T1600,1695A,115.362,22.7926,汕尾市,新城中学,颗粒物(PM10),52,53,50,16,33,122,,108,108,23,19,7,7,0.4,0.7
2026-01-14T1600,2645A,109.9155,33.8714,商洛市,监测站,颗粒物(PM10),70,89,59,27,29,84,,60,60,13,34,4,5,0.4,0.6
2026-01-14T1600,3045A,109.9647,33.8486,商洛市,商州区中学,颗粒物(PM10),94,137,65,24,27,87,,55,55,8,38,5,6,0.4,0.7
2026-01-14T1600,2408A,115.6701,34.4283,商丘市,环境监测站,细颗粒物(PM2.5),220,204,174,170,132,57,,40,40,45,64,8,7,0.8,0.8
2026-01-14T1600,2409A,115.6458,34.4047,商丘市,粮食局,细颗粒物(PM2.5),204,205,162,154,121,58,,39,39,36,47,6,6,1.0,0.8
2026-01-14T1600,3171A,115.6069,34.4465,商丘市,梁园区档案局,细颗粒物(PM2.5),229,204,156,179,121,49,,36,36,49,56,8,8,0.9,0.9
2026-01-14T1600,4119A,115.6701,34.3767,商丘市,北海东路185号,细颗粒物(PM2.5),198,222,203,148,120,57,,41,41,37,60,7,4,0.9,0.8
2026-01-14T1600,4120A,115.6172,34.3704,商丘市,中山大街3号,细颗粒物(PM2.5),219,237,203,169,124,55,,41,41,41,59,9,7,0.7,0.6
2026-01-14T1600,1141A,121.401,31.2382,上海市,普陀,细颗粒物(PM2.5),62,60,111,44,69,115,,98,98,34,58,7,10,0.6,0.8
2026-01-14T1600,1142A,121.4774,31.2043,上海市,十五厂,细颗粒物(PM2.5),67,74,116,48,69,120,,90,90,49,69,10,10,0.8,1
2026-01-14T1600,1143A,121.4673,31.3011,上海市,虹口,颗粒物(PM10),61,71,125,42,68,112,,85,85,34,67,9,11,0.5,0.8
2026-01-14T1600,1147A,121.4253,31.226,上海市,静安监测站,"颗粒物(PM10),细颗粒物(PM2.5)",54,58,112,38,65,119,,101,101,35,63,8,10,0.3,0.6
2026-01-14T1600,1148A,121.7029,31.1905,上海市,浦东川沙,颗粒物(PM10),61,71,114,41,59,130,,102,102,28,57,8,9,0.5,0.7
2026-01-14T1600,1149A,121.5339,31.229,上海市,浦东新区监测站,颗粒物(PM10),60,70,113,38,69,135,,100,100,40,66,10,10,0.7,0.9
2026-01-14T1600,1150A,121.5776,31.2038,上海市,浦东张江,颗粒物(PM10),62,74,115,41,63,131,,106,106,34,63,9,10,0.5,0.7
2026-01-14T1600,3265A,121.4242,31.3303,上海市,宝山庙行,颗粒物(PM10),59,67,124,41,68,105,,91,91,38,66,9,11,0.4,0.7
2026-01-14T1600,3266A,121.8789,31.4662,上海市,崇明上实东滩,颗粒物(PM10),56,62,104,32,61,112,,87,87,41,40,6,5,0.5,0.7
