timepoint,stationcode,longitude,latitude,area,positionname,primarypollutant,aqi,pm10,pm10_24h,pm2_5,pm2_5_24h,o3,o3_24h,o3_8h,o3_8h_24h,no2,no2_24h,so2,so2_24h,co,co_24h
2025-01-17T0900,2566A,102.1879,31.914,阿坝藏族羌族自治州,州农科所,颗粒物(PM10),66,82,33,17,11,31,,44,43,28,15,6,6,1.2,1
2025-01-17T0900,2568A,102.2502,31.8896,阿坝藏族羌族自治州,马师校,,26,,11,18,13,10,,33,30,37,15,6,5,0.5,0.4
2025-01-17T0900,3994A,102.2165,31.9024,阿坝藏族羌族自治州,马尔康中学西区,,19,,15,13,13,25,,41,39,22,13,4,4,0.3,0.4
2025-01-17T0900,2695A,80.292,41.1694,阿克苏地区,电视台,细颗粒物(PM2.5),68,74,81,49,51,10,,38,35,50,34,4,4,1.6,0.9
2025-01-17T0900,2696A,80.2613,41.1551,阿克苏地区,艺术中心,细颗粒物(PM2.5),79,93,89,58,58,11,,32,29,43,37,4,4,1.5,1.3
2025-01-17T0900,2204A,105.6467,38.8363,阿拉善盟,西城区西花园,颗粒物(PM10),53,55,33,21,17,48,,81,78,47,22,10,11,1.0,0.6
2025-01-17T0900,2205A,105.6985,38.8411,阿拉善盟,蒙二幼,,22,21,24,11,8,43,,83,78,44,16,5,5,1.0,0.6
2025-01-17T0900,2206A,105.724,38.8516,阿拉善盟,环保局新楼,,28,15,13,8,7,88,,93,92,5,8,8,8,0.5,0.5
2025-01-17T0900,2708A,88.1264,47.8517,阿勒泰地区,市站,,18,18,13,8,8,35,,46,43,30,29,9,11,0.3,0.4
2025-01-17T0900,2630A,80.1161,32.5,阿里地区,阿里监测站,,26,8,15,3,6,83,,101,98,4,6,11,10,0.5,0.5
2025-01-17T0900,3192A,80.0903,32.5028,阿里地区,阿里藏医院,,23,12,16,3,4,73,,99,95,11,5,14,9,0.6,0.6
2025-01-17T0900,2642A,109.0318,32.6537,安康市,香溪洞,细颗粒物(PM2.5),60,59,57,43,36,36,,49,46,18,15,9,10,0.7,0.6
2025-01-17T0900,2644A,109.0072,32.6975,安康市,汉滨区检察院,细颗粒物(PM2.5),64,69,71,46,46,15,,32,30,34,26,5,7,0.7,0.7
2025-01-17T0900,4054A,109.0325,32.6913,安康市,市邮政管理局,颗粒物(PM10),56,61,76,38,46,20,,26,25,31,36,5,7,0.8,0.8
2025-01-17T0900,2291A,117.0809,30.5177,安庆市,环科院,"颗粒物(PM10),细颗粒物(PM2.5)",57,63,63,40,34,6,,2,2,59,56,7,8,1.0,0.6
2025-01-17T0900,2292A,117.0331,30.5119,安庆市,马山宾馆,"颗粒物(PM10),细颗粒物(PM2.5)",59,67,65,42,39,6,,2,2,58,51,8,9,1.0,0.7
2025-01-17T0900,2294A,116.9896,30.6145,安庆市,安庆大学,"颗粒物(PM10),细颗粒物(PM2.5)",57,64,63,40,31,14,,12,12,48,42,7,7,0.6,0.6
2025-01-17T0900,3173A,117.0598,30.5351,安庆市,市人大,"颗粒物(PM10),细颗粒物(PM2.5)",58,65,68,41,40,6,,1,1,50,44,7,8,1.0,0.9
2025-01-17T0900,3122A,105.9606,26.2611,安顺市,伍家关,颗粒物(PM10),57,64,79,38,52,84,,89,89,17,19,11,24,0.7,0.8
2025-01-17T0900,3123A,105.9408,26.2431,安顺市,凤凰山,细颗粒物(PM2.5),64,70,83,46,59,81,,76,76,21,25,17,30,0.5,0.6
2025-01-17T0900,3124A,105.9439,26.2564,安顺市,金钟山,细颗粒物(PM2.5),57,62,79,40,54,83,,80,80,14,18,16,28,0.7,0.8
2025-01-17T0900,3125A,105.8983,26.2481,安顺市,娄家坡,细颗粒物(PM2.5),62,62,78,44,59,73,,75,75,20,18,21,25,0.8,0.8
2025-01-17T0900,1818A,114.4839,36.0621,安阳市,棉研所,细颗粒物(PM2.5),123,130,91,93,64,6,,4,4,48,48,13,15,1.4,0.9
2025-01-17T0900,1819A,114.3551,36.1017,安阳市,红庙街,细颗粒物(PM2.5),88,111,74,65,46,11,,5,5,34,33,6,7,1.5,1.3
2025-01-17T0900,1820A,114.361,36.0681,安阳市,银杏小区,细颗粒物(PM2.5),77,89,73,56,47,8,,5,5,40,38,4,5,1.3,1
2025-01-17T0900,3141A,114.3922,36.0878,安阳市,信访局,细颗粒物(PM2.5),109,106,74,82,47,5,,4,4,48,39,7,7,1.4,0.9
2025-01-17T0900,3669A,114.4705,36.0637,安阳市,左辅环卫站,细颗粒物(PM2.5),127,125,87,96,59,13,,11,11,44,37,11,13,1.2,0.9
2025-01-17T0900,3703A,114.2917,36.0949,安阳市,安钢职工学校,细颗粒物(PM2.5),89,114,87,66,54,11,,8,8,43,40,10,11,1.5,1.1
2025-01-17T0900,1748A,123.044,41.1196,鞍山市,深沟寺,,46,46,51,27,25,56,,49,49,15,23,11,12,0.8,1
2025-01-17T0900,1749A,123.011,41.0931,鞍山市,太阳城,,44,44,45,21,24,59,,51,51,20,22,7,7,0.7,0.9
2025-01-17T0900,1750A,123.0485,41.1442,鞍山市,太平,,46,46,67,17,35,56,,46,46,16,28,14,14,0.9,1.2
2025-01-17T0900,1751A,122.9642,41.0971,鞍山市,铁西三道街,颗粒物(PM10),56,62,80,21,38,53,,36,36,25,39,12,18,1.6,1.6
2025-01-17T0900,1752A,122.9341,41.0833,鞍山市,铁西工业园区,,,,44,,32,,,,,,17,,11,,0.9
2025-01-17T0900,1753A,123.022,41.0821,鞍山市,明达新区,,40,40,46,19,24,66,,61,61,11,15,13,13,0.6,0.8
2025-01-17T0900,1754A,123.1289,41.0228,鞍山市,千山,,,,39,,16,,,43,,,16,,4,,0.5
2025-01-17T0900,2195A,107.4212,40.761,巴彦淖尔市,附二中,细颗粒物(PM2.5),80,107,81,59,38,4,,2,2,47,42,80,21,1.3,0.8
2025-01-17T0900,2196A,107.37,40.7372,巴彦淖尔市,市环保大楼,颗粒物(PM10),96,141,72,49,31,5,,4,4,44,36,5,7,1.8,1
2025-01-17T0900,1956A,86.1472,41.7538,巴音郭楞蒙古自治州,孔雀公园,细颗粒物(PM2.5),85,86,95,63,59,41,,41,41,25,32,3,4,0.7,0.9
2025-01-17T0900,1957A,86.1972,41.7166,巴音郭楞蒙古自治州,棉纺厂,颗粒物(PM10),89,128,118,63,57,18,,25,25,49,50,2,2,0.9,0.9
2025-01-17T0900,1958A,86.2357,41.7173,巴音郭楞蒙古自治州,经济开发区,细颗粒物(PM2.5),84,88,99,62,51,41,,44,42,26,36,2,2,0.8,0.9
2025-01-17T0900,2914A,106.7677,31.8794,巴中市,苏山坪,,,49,48,39,35,,,69,68,11,15,3,3,0.5,0.4
2025-01-17T0900,3182A,106.7656,31.8545,巴中市,丽阳花园,细颗粒物(PM2.5),59,57,66,42,48,4,,10,10,50,41,5,4,0.9,0.8
2025-01-17T0900,3183A,106.7418,31.8654,巴中市,圣泉水务公司,细颗粒物(PM2.5),52,48,56,36,41,18,,27,27,34,34,2,3,0.6,0.6
2025-01-17T0900,3616A,106.7616,31.8344,巴中市,市中心医院,细颗粒物(PM2.5),83,71,75,61,60,3,,3,3,43,41,4,4,0.9,0.7
2025-01-17T0900,2235A,122.7911,45.6077,白城市,洮北区环保局,,34,34,29,16,12,45,,57,55,17,11,6,8,0.4,0.3
2025-01-17T0900,2236A,122.8738,45.5725,白城市,市环保局,,44,44,27,22,14,43,,49,47,14,12,6,3,0.3,0.3
2025-01-17T0900,2231A,126.4219,41.9171,白山市,喜丰,颗粒物(PM10),63,75,57,37,24,21,,21,20,36,30,20,14,1.0,0.8
2025-01-17T0900,2232A,126.4077,41.9419,白山市,环保局,颗粒物(PM10),62,74,66,30,24,19,,19,19,21,17,14,12,1.0,0.8
2025-01-17T0900,2647A,104.1724,36.5446,白银市,第三小学,细颗粒物(PM2.5),125,152,102,95,70,39,,30,30,63,50,524,96,4.9,1.9
2025-01-17T0900,2648A,104.1465,36.5482,白银市,动力公司,颗粒物(PM10),78,106,79,52,54,21,,36,34,42,34,52,26,1.6,1.3
2025-01-17T0900,2512A,106.6103,23.9011,百色市,市监测站,细颗粒物(PM2.5),89,84,72,66,55,12,,10,10,33,28,9,10,0.9,0.8
2025-01-17T0900,2513A,106.6538,23.8859,百色市,市中心血站,细颗粒物(PM2.5),128,118,104,97,76,10,,11,11,39,42,12,12,1.0,0.9
2025-01-17T0900,3406A,106.6085,23.8798,百色市,祈福高中,细颗粒物(PM2.5),74,83,90,54,49,6,,8,8,32,37,5,6,1.1,1
2025-01-17T0900,2270A,117.396,32.939,蚌埠市,工人疗养院,细颗粒物(PM2.5),109,140,94,82,58,10,,7,7,61,51,9,8,1.0,0.8
2025-01-17T0900,2271A,117.3605,32.9427,蚌埠市,百货大楼,细颗粒物(PM2.5),120,146,90,91,56,30,,23,23,59,46,9,9,1.3,0.9
2025-01-17T0900,2273A,117.4185,32.8911,蚌埠市,蚌埠学院,细颗粒物(PM2.5),112,144,104,84,60,15,,8,8,52,47,20,13,0.7,0.5
2025-01-17T0900,2274A,117.3533,32.9673,蚌埠市,淮上区政府,细颗粒物(PM2.5),139,193,110,106,66,9,,10,10,63,51,17,13,1.2,0.7
2025-01-17T0900,2275A,117.3145,32.8977,蚌埠市,高新区,细颗粒物(PM2.5),104,144,108,78,65,7,,5,5,57,48,12,9,0.8,0.7
2025-01-17T0900,3715A,117.3092,32.9314,蚌埠市,蚌埠田家炳中学,细颗粒物(PM2.5),120,159,100,91,63,6,,4,4,65,43,15,10,1.0,0.8
2025-01-17T0900,1585A,109.8756,40.6532,包头市,市环境监测站,颗粒物(PM10),74,97,99,52,50,8,,6,6,65,63,19,24,2.2,1.3
2025-01-17T0900,1587A,109.9991,40.5842,包头市,包头八中,细颗粒物(PM2.5),104,113,115,78,59,9,,8,8,59,52,27,30,2.3,1.9
2025-01-17T0900,1588A,109.8538,40.6821,包头市,青山宾馆,细颗粒物(PM2.5),88,90,107,65,61,6,,6,6,52,59,17,24,2.5,2.1
2025-01-17T0900,1589A,109.8642,40.6288,包头市,惠龙物流,颗粒物(PM10),82,114,103,54,49,8,,7,7,69,61,18,23,4.4,2
2025-01-17T0900,1590A,110.0377,40.5546,包头市,东河鸿龙湾,颗粒物(PM10),75,99,122,53,60,8,,10,9,49,51,16,21,1.3,1.3
2025-01-17T0900,3283A,109.9154,40.5685,包头市,滨河大厦,颗粒物(PM10),67,84,101,40,48,10,,7,7,59,58,17,18,1.4,1.3
2025-01-17T0900,3419A,109.9447,40.6261,包头市,包头市委党校,颗粒物(PM10),67,84,92,36,38,8,,6,6,62,58,14,24,1.4,1
2025-01-17T0900,3683A,109.8331,40.6576,包头市,昆区政府,细颗粒物(PM2.5),97,92,104,72,60,5,,4,4,59,64,23,26,2.5,1.9
2025-01-17T0900,1930A,107.185,34.3063,宝鸡市,庙沟村,细颗粒物(PM2.5),64,,26,46,42,31,,46,45,33,27,5,6,0.7,0.7
2025-01-17T0900,1931A,107.0708,34.3017,宝鸡市,竹园沟,细颗粒物(PM2.5),75,,55,55,41,17,,27,25,26,22,5,6,0.7,0.5
2025-01-17T0900,1932A,107.1906,34.3672,宝鸡市,三陆医院,细颗粒物(PM2.5),79,83,83,58,64,20,,24,23,43,40,6,6,0.8,0.7
2025-01-17T0900,1933A,107.1431,34.3547,宝鸡市,监测站,细颗粒物(PM2.5),67,75,73,48,50,12,,16,15,40,33,7,7,0.9,0.7
2025-01-17T0900,1934A,107.1186,34.3739,宝鸡市,技工学校,细颗粒物(PM2.5),83,86,82,61,52,20,,30,28,33,29,21,10,0.9,0.7
2025-01-17T0900,1935A,107.3906,34.3528,宝鸡市,陈仓区环保局家属楼,细颗粒物(PM2.5),130,108,93,99,70,13,,10,10,46,45,80,25,1.4,0.9
2025-01-17T0900,1936A,107.2058,34.3497,宝鸡市,文理学院,细颗粒物(PM2.5),73,64,73,53,51,18,,29,27,39,29,6,6,0.8,0.7
2025-01-17T0900,1937A,107.2386,34.3622,宝鸡市,三迪小学,细颗粒物(PM2.5),72,62,70,52,53,12,,19,19,48,40,6,7,0.8,0.7
2025-01-17T0900,1051A,115.493,38.8632,保定市,游泳馆,细颗粒物(PM2.5),97,111,81,72,53,14,,8,8,67,58,21,10,1.3,1
2025-01-17T0900,1052A,115.5213,38.8959,保定市,华电二区,细颗粒物(PM2.5),85,107,64,63,43,4,,3,3,66,52,12,5,0.9,0.6
2025-01-17T0900,1053A,115.4713,38.9108,保定市,接待中心,细颗粒物(PM2.5),92,109,74,68,45,12,,9,9,67,52,9,3,1.0,0.7
2025-01-17T0900,1054A,115.4612,38.8416,保定市,地表水厂,细颗粒物(PM2.5),115,133,98,87,51,18,,15,15,66,57,15,5,1.0,0.5
2025-01-17T0900,3581A,115.31981,38.95208,保定市,满城区生态环境分局,细颗粒物(PM2.5),119,132,95,90,56,11,,16,16,57,55,18,12,1.8,0.9
2025-01-17T0900,3582A,115.47694,38.76408,保定市,清苑区第二中学,细颗粒物(PM2.5),120,143,98,91,54,13,,10,10,71,56,16,8,1.0,0.7
2025-01-17T0900,3583A,115.62909,39.02311,保定市,徐水物探局,细颗粒物(PM2.5),132,123,69,100,42,4,,2,2,64,52,14,9,1.1,0.6
2025-01-17T0900,4004A,115.4202,38.8656,保定市,双鹰农机,细颗粒物(PM2.5),115,121,86,87,54,18,,12,12,59,48,5,3,1.2,0.9
2025-01-17T0900,4034A,115.5150,38.8590,保定市,植保所站,细颗粒物(PM2.5),122,132,94,92,61,4,,4,4,67,60,13,7,1.2,0.8
2025-01-17T0900,2594A,99.1678,25.1081,保山市,市环境监测站,,46,,37,32,25,20,,37,32,17,12,4,5,0.8,0.6
2025-01-17T0900,2595A,99.1711,25.1328,保山市,市环保局,,40,29,35,28,25,22,,44,39,14,8,5,5,0.7,0.6
2025-01-17T0900,1866A,109.2262,21.588,北海市,牛尾岭水库,细颗粒物(PM2.5),70,54,62,51,51,20,,31,30,10,11,5,5,0.8,0.7
2025-01-17T0900,1867A,109.1436,21.4086,北海市,海滩公园,细颗粒物(PM2.5),85,114,92,63,58,87,,96,94,27,25,13,11,0.9,0.9
2025-01-17T0900,1868A,109.0981,21.4661,北海市,新市环保局,细颗粒物(PM2.5),92,80,82,68,59,89,,95,94,31,22,10,10,0.8,0.7
2025-01-17T0900,1869A,109.1778,21.5233,北海市,北海工业园,细颗粒物(PM2.5),123,99,91,93,63,68,,89,86,34,20,16,13,0.9,0.7
2025-01-17T0900,3400A,109.1911,21.4415,北海市,龙潭自来水厂,细颗粒物(PM2.5),139,118,90,106,75,53,,54,53,30,25,10,9,1.1,1
2025-01-17T0900,1001A,116.3621,39.8784,北京市,万寿西宫,,45,45,58,14,25,30,,9,9,31,48,5,6,0.5,0.5
2025-01-17T0900,1002A,116.2202,40.2915,北京市,定陵,,,,,,,,,,,,,,,,
2025-01-17T0900,1003A,116.4174,39.9289,北京市,东四,,48,48,56,18,23,15,,5,5,40,34,4,3,0.6,0.5
2025-01-17T0900,1004A,116.4072,39.8863,北京市,天坛,,48,48,51,18,22,11,,4,4,35,34,3,2,0.5,0.4
2025-01-17T0900,1005A,116.462,39.9365,北京市,农展馆,颗粒物(PM10),56,61,60,21,21,7,,5,5,59,48,2,3,0.8,0.7
2025-01-17T0900,1006A,116.3392,39.9295,北京市,官园,,48,48,57,18,22,19,,6,6,40,42,4,5,0.6,0.6
2025-01-17T0900,1007A,116.2878,39.9611,北京市,海淀万柳,颗粒物(PM10),59,67,60,20,19,4,,3,3,51,43,4,4,1.1,0.7
2025-01-17T0900,1008A,116.6636,40.135,北京市,顺义新城,,47,47,59,13,18,22,,10,10,30,30,3,2,0.3,0.4
2025-01-17T0900,1009A,116.6275,40.3275,北京市,怀柔镇,,44,44,51,19,15,16,,33,31,35,14,2,1,0.8,0.6
2025-01-17T0900,1010A,116.2296,40.217,北京市,昌平镇,颗粒物(PM10),52,53,54,23,18,5,,7,5,44,26,2,3,0.9,0.7
2025-01-17T0900,1011A,116.3966,39.9821,北京市,奥体中心,,46,46,53,18,20,31,,15,15,26,40,4,4,0.4,0.5
2025-01-17T0900,3281A,115.9718,40.4529,北京市,延庆夏都,颗粒物(PM10),57,63,59,30,21,10,,7,7,26,25,4,5,1.0,0.7
2025-01-17T0900,3417A,117.0709,40.1465,北京市,平谷新城,,45,45,57,18,18,9,,13,12,31,17,3,2,0.9,0.5
2025-01-17T0900,3418A,116.8336,40.4095,北京市,密云新城,,45,45,51,19,18,23,,21,19,25,17,2,1,0.3,0.2
2025-01-17T0900,3671A,116.088,39.9726,北京市,门头沟三家店,,36,36,50,11,18,25,,16,16,19,27,3,3,0.3,0.3
2025-01-17T0900,3672A,116.1541,39.8204,北京市,丰台云岗,,44,44,52,14,19,19,,17,17,33,30,3,3,0.3,0.3
2025-01-17T0900,3673A,116.6804,39.9081,北京市,通州东关,颗粒物(PM10),73,95,76,33,29,2,,1,1,77,51,4,3,0.8,0.5
2025-01-17T0900,3674A,115.9577,39.7603,北京市,房山燕山,,46,46,46,28,23,17,,17,16,32,29,4,3,0.7,0.6
2025-01-17T0900,3675A,116.4672,39.7733,北京市,大兴旧宫,颗粒物(PM10),70,90,66,44,28,3,,2,2,52,39,1,1,0.8,0.4
2025-01-17T0900,3694A,115.986,40.4563,北京市,延庆石河营,颗粒物(PM10),57,63,67,31,25,8,,4,4,22,26,3,4,1.1,0.8
2025-01-17T0900,3695A,116.6151,40.3053,北京市,怀柔新城,,40,40,50,16,15,27,,32,30,11,9,2,1,0.3,0.2
2025-01-17T0900,3696A,116.2545,39.8768,北京市,丰台小屯,颗粒物(PM10),63,76,66,24,23,3,,2,2,71,51,5,5,0.9,0.6
2025-01-17T0900,3697A,116.84,40.3844,北京市,密云镇,,47,47,58,17,19,7,,2,2,40,33,5,5,0.8,0.5
2025-01-17T0900,4182A,116.1942,39.91583,北京市,八角,颗粒物(PM10),52,54,65,17,21,6,,6,6,43,36,1,2,0.7,0.6
2025-01-17T0900,1761A,123.8275,41.3064,本溪市,大峪,颗粒物(PM10),65,80,53,36,28,13,,8,8,42,32,7,8,1.9,1.2
2025-01-17T0900,1762A,123.7567,41.3325,本溪市,溪湖,细颗粒物(PM2.5),80,103,78,59,40,10,,7,7,46,37,14,7,3.4,1.3
2025-01-17T0900,1763A,123.7169,41.3094,本溪市,彩屯,,,256,71,,38,11,,8,7,59,40,25,9,6.3,1.7
2025-01-17T0900,1764A,123.7669,41.2864,本溪市,东明,,,,,,,,,,,,,,,,
2025-01-17T0900,1765A,123.7992,41.2664,本溪市,新立屯,,49,43,42,34,28,40,,16,16,37,46,4,5,1.1,1
2025-01-17T0900,1766A,123.8142,41.3472,本溪市,威宁,,,122,86,,34,,,10,10,43,36,4,5,1.4,1
2025-01-17T0900,2587A,105.2864,27.3125,毕节市,八中,细颗粒物(PM2.5),113,98,71,85,64,30,,39,38,33,25,13,11,1.2,0.9
2025-01-17T0900,2588A,105.31,27.2944,毕节市,师专,细颗粒物(PM2.5),107,104,76,80,57,25,,48,45,39,25,13,14,0.9,0.7
2025-01-17T0900,3537A,105.3631,27.3533,毕节市,长征村,细颗粒物(PM2.5),107,94,64,80,56,54,,54,54,17,16,15,15,0.7,0.7
2025-01-17T0900,1629A,118.0018,37.3617,滨州市,第二水厂,细颗粒物(PM2.5),83,105,71,61,29,10,,12,12,68,44,15,14,1.1,0.6
2025-01-17T0900,1630A,117.9776,37.393,滨州市,北中新校,颗粒物(PM10),79,107,73,51,29,13,,19,19,68,45,14,12,1.6,0.8
2025-01-17T0900,3514A,117.9378,37.3956,滨州市,中海酒店,颗粒物(PM10),63,75,65,41,32,25,,23,23,44,36,15,13,1.0,0.7
2025-01-17T0900,3515A,117.9378,37.3553,滨州市,开发区一中,细颗粒物(PM2.5),83,110,72,61,32,12,,8,8,75,52,23,16,1.0,0.6
2025-01-17T0900,3516A,118.0917,37.694,滨州市,金海六路,,,90,80,,35,22,,6,6,48,51,13,23,1.0,1
2025-01-17T0900,4028A,117.9956,37.3753,滨州市,滨州市西街道办事处,细颗粒物(PM2.5),107,134,71,80,39,10,,12,12,66,42,15,11,1.3,0.7
2025-01-17T0900,2311A,115.8072,33.8399,亳州市,污水处理厂,细颗粒物(PM2.5),119,127,83,90,45,5,,,,51,39,15,9,1.3,0.8
2025-01-17T0900,2312A,115.7789,33.8518,亳州市,三国揽胜宫,,,,94,,55,,,9,9,62,49,,7,1.4,0.9
2025-01-17T0900,3332A,115.7633,33.8034,亳州市,亳州学院,细颗粒物(PM2.5),107,132,84,80,48,4,,2,2,46,36,6,6,1.3,0.8
2025-01-17T0900,2693A,82.0485,44.8556,博尔塔拉蒙古自治州,市党校,细颗粒物(PM2.5),80,79,76,59,56,36,,52,49,24,22,7,7,1.1,1.2
2025-01-17T0900,2694A,82.0806,44.8969,博尔塔拉蒙古自治州,市环保局,颗粒物(PM10),60,70,82,41,45,59,,50,50,21,29,6,7,1.0,1.4
2025-01-17T0900,1071A,116.8842,38.2991,沧州市,沧县城建局,颗粒物(PM10),70,90,74,47,37,18,,18,17,51,40,25,12,1.2,0.7
2025-01-17T0900,1072A,116.8584,38.3254,沧州市,电视转播站,,,76,67,56,35,13,,21,20,,42,30,14,1.0,0.6
2025-01-17T0900,1073A,116.8709,38.3228,沧州市,市环保局,细颗粒物(PM2.5),65,77,63,47,36,16,,17,17,49,37,28,12,0.9,0.5
2025-01-17T0900,3324A,116.8136,38.3004,沧州市,河北水利电力学院,细颗粒物(PM2.5),78,95,69,57,36,15,,12,12,49,37,32,16,1.0,0.6
2025-01-17T0900,2622A,97.1806,31.1273,昌都市,昌都监测站,,17,17,39,9,15,32,,34,34,14,25,6,7,0.9,1.3
2025-01-17T0900,3719A,97.1714,31.1406,昌都市,昌都会议中心,,13,12,14,9,9,37,,48,46,10,8,3,4,0.5,0.5
2025-01-17T0900,2690A,88.1236,43.8886,昌吉回族自治州,天山天池,,27,6,1,3,4,84,,84,84,1,1,5,6,0.4,0.4
2025-01-17T0900,2692A,87.2717,44.0297,昌吉回族自治州,新区政务中心,细颗粒物(PM2.5),140,157,120,107,77,2,,2,2,61,57,1,2,1.9,1.6
2025-01-17T0900,3613A,87.3095,44.0142,昌吉回族自治州,亚心广场,细颗粒物(PM2.5),128,129,135,97,111,5,,5,5,70,62,9,8,1.8,1.6
2025-01-17T0900,1119A,125.3325,43.9166,长春市,食品厂,"颗粒物(PM10),细颗粒物(PM2.5)",65,80,50,47,27,30,,33,32,40,36,18,11,0.7,0.5
2025-01-17T0900,1120A,125.2863,43.9027,长春市,客车厂,细颗粒物(PM2.5),79,70,44,58,31,34,,37,36,38,35,19,12,0.8,0.6
2025-01-17T0900,1121A,125.2841,43.8463,长春市,邮电学院,"颗粒物(PM10),细颗粒物(PM2.5)",63,75,47,45,33,32,,38,37,43,34,23,15,0.9,0.6
2025-01-17T0900,1122A,125.3716,43.8772,长春市,劳动公园,颗粒物(PM10),60,69,43,38,28,36,,38,37,43,32,20,12,0.9,0.7
2025-01-17T0900,1123A,125.3297,43.8805,长春市,园林处,颗粒物(PM10),59,68,41,39,24,28,,35,33,43,29,29,14,0.8,0.4
2025-01-17T0900,1124A,125.4605,43.79,长春市,净月潭,,36,34,29,25,20,47,,51,50,13,11,9,8,0.4,0.3
2025-01-17T0900,1125A,125.7194,43.515,长春市,甩湾子,,,,,,,,,,,,,,,,
2025-01-17T0900,1126A,125.3863,43.8447,长春市,经开区环卫处,颗粒物(PM10),56,62,55,28,27,19,,26,26,47,36,15,13,1.0,0.8
2025-01-17T0900,1127A,125.245,43.7783,长春市,高新区管委会,细颗粒物(PM2.5),58,56,46,41,34,34,,38,38,40,35,19,11,0.5,0.5
2025-01-17T0900,1128A,125.1761,43.8325,长春市,岱山公园,细颗粒物(PM2.5),73,63,47,53,32,36,,36,36,34,38,17,11,0.8,0.5
2025-01-17T0900,1335A,113.0833,28.2325,长沙市,经开区环保局,颗粒物(PM10),62,74,90,36,44,20,,19,19,49,44,4,3,0.7,0.6
2025-01-17T0900,1336A,112.8872,28.2189,长沙市,高开区环保局,细颗粒物(PM2.5),94,105,96,70,52,7,,6,5,66,56,6,6,1.0,0.7
2025-01-17T0900,1337A,113.0792,28.2053,长沙市,马坡岭,细颗粒物(PM2.5),92,103,94,68,54,7,,6,5,50,49,5,4,0.9,0.9
2025-01-17T0900,1338A,112.9394,28.19,长沙市,湖南师范大学,细颗粒物(PM2.5),83,94,88,61,41,9,,19,16,64,41,3,4,1.0,0.7
2025-01-17T0900,1339A,113.0178,28.1322,长沙市,雨花区环保局,细颗粒物(PM2.5),78,89,91,57,51,15,,5,5,54,59,9,7,0.8,0.8
2025-01-17T0900,1340A,112.9792,28.2597,长沙市,伍家岭,"颗粒物(PM10),细颗粒物(PM2.5)",88,126,117,65,53,2,,0,0,48,55,4,5,0.9,0.7
2025-01-17T0900,1341A,113.0014,28.1944,长沙市,火车新站,细颗粒物(PM2.5),64,72,91,46,50,28,,15,15,54,58,5,4,0.6,0.6
2025-01-17T0900,1342A,112.9844,28.1178,长沙市,天心区环保局,细颗粒物(PM2.5),69,83,87,50,48,30,,12,11,47,54,6,4,0.8,0.8
2025-01-17T0900,1343A,112.8908,28.1308,长沙市,湖南中医药大学,颗粒物(PM10),83,115,103,46,60,3,,2,2,54,60,6,6,1.1,0.9
2025-01-17T0900,1344A,112.9581,28.3611,长沙市,沙坪,细颗粒物(PM2.5),68,69,64,49,43,42,,38,36,24,23,7,8,0.7,0.6
2025-01-17T0900,1727A,113.1147,36.1547,长治市,清华站,颗粒物(PM10),56,62,42,34,20,5,,4,4,46,40,30,19,1.6,1.1
2025-01-17T0900,1728A,113.1031,36.1989,长治市,监测站,,,,,,,,,,,,,,,,
2025-01-17T0900,1730A,113.0886,36.2125,长治市,审计局,颗粒物(PM10),54,58,43,36,25,10,,7,5,43,33,22,17,1.5,0.9
2025-01-17T0900,1731A,113.0844,36.1856,长治市,长治八中,颗粒物(PM10),66,81,68,42,34,9,,4,4,42,40,21,19,1.2,0.9
2025-01-17T0900,2845A,113.1569,36.1911,长治市,德盛苑,颗粒物(PM10),53,56,40,36,18,17,,37,33,38,23,15,13,0.9,0.6
2025-01-17T0900,3568A,113.06,36.0464,长治市,向阳小学,细颗粒物(PM2.5),67,73,54,48,24,19,,44,41,41,21,34,26,1.2,0.6
2025-01-17T0900,3569A,112.8792,36.3144,长治市,屯留一中,,46,46,33,26,20,19,,18,17,49,44,14,13,1.2,0.9
2025-01-17T0900,4190A,113.2367,36.3344,长治市,学府街1号,颗粒物(PM10),100,149,71,54,33,15,,7,7,38,33,23,14,2.8,1.1
2025-01-17T0900,1854A,111.6975,28.9703,常德市,市二中,细颗粒物(PM2.5),128,113,106,97,65,14,,26,23,27,32,2,4,1.1,0.8
2025-01-17T0900,1857A,111.7158,29.1456,常德市,白鹤山,,,,,,,,,,,,,,,,
2025-01-17T0900,3138A,111.7153,29.0289,常德市,武陵区永安,细颗粒物(PM2.5),119,133,106,90,67,28,,40,36,31,22,4,5,0.8,0.6
2025-01-17T0900,3139A,111.6892,28.9881,常德市,鼎城区玉霞,细颗粒物(PM2.5),118,132,112,89,66,7,,19,12,26,24,6,8,0.8,0.6
2025-01-17T0900,3140A,111.6625,29.0531,常德市,武陵区长庚,细颗粒物(PM2.5),113,133,105,85,61,26,,30,30,37,25,1,2,0.7,0.4
2025-01-17T0900,1196A,119.9633,31.762,常州市,市监测站,细颗粒物(PM2.5),97,115,101,72,57,7,,4,4,75,63,12,12,1.4,0.9
2025-01-17T0900,1200A,119.9468,31.7069,常州市,武进监测站,细颗粒物(PM2.5),78,97,82,57,49,10,,5,5,57,54,9,10,0.9,0.7
2025-01-17T0900,1201A,119.9255,31.9087,常州市,安家,细颗粒物(PM2.5),103,125,104,77,60,9,,6,6,79,69,27,18,1.0,0.9
2025-01-17T0900,3002A,119.9805,31.8174,常州市,行政中心,细颗粒物(PM2.5),85,88,71,63,46,8,,4,4,72,55,14,13,1.1,0.8
2025-01-17T0900,3003A,120.0522,31.7748,常州市,经开区,细颗粒物(PM2.5),82,100,86,60,48,10,,5,5,74,63,14,13,1.3,0.7
2025-01-17T0900,3010A,119.9025,31.7964,常州市,钟楼,细颗粒物(PM2.5),95,109,83,71,49,8,,5,5,69,61,11,11,1.1,0.7
2025-01-17T0900,3429A,119.8598,31.7066,常州市,武进经发区,细颗粒物(PM2.5),89,116,98,66,53,11,,6,6,62,60,7,9,0.9,0.6
2025-01-17T0900,3430A,119.5826,31.7245,常州市,金坛城区,细颗粒物(PM2.5),95,115,89,71,49,16,,15,14,44,39,9,9,0.9,0.7
2025-01-17T0900,2220A,120.4318,41.5881,朝阳市,西梁,颗粒物(PM10),63,75,67,44,38,20,,21,21,42,36,23,15,1.4,0.9
2025-01-17T0900,2221A,120.4521,41.5646,朝阳市,河畔小区,颗粒物(PM10),59,68,49,28,25,30,,30,30,30,25,24,12,1.2,0.8
2025-01-17T0900,2222A,120.4176,41.5648,朝阳市,八里堡,颗粒物(PM10),60,69,62,34,36,26,,20,20,37,35,22,13,1.4,1
2025-01-17T0900,2223A,120.3806,41.5969,朝阳市,农业园区,细颗粒物(PM2.5),105,103,47,79,37,16,,14,14,45,31,22,11,1.7,0.9
2025-01-17T0900,1705A,116.6367,23.6719,潮州市,西园路,,35,35,78,24,54,50,,52,49,16,18,5,5,0.2,0.3
2025-01-17T0900,3026A,116.6183,23.6608,潮州市,市政府,颗粒物(PM10),51,51,72,14,40,51,,60,56,16,19,4,4,0.4,0.5
2025-01-17T0900,4036A,116.6461,23.6761,潮州市,金山,,28,28,64,18,45,45,,49,47,14,18,6,6,0.5,0.6
2025-01-17T0900,2472A,113.0073,25.9061,郴州市,马头岭,颗粒物(PM10),76,102,86,39,37,34,,52,48,30,23,11,11,0.9,0.7
2025-01-17T0900,2473A,113.0116,25.8226,郴州市,市职中,细颗粒物(PM2.5),75,85,90,55,49,11,,3,3,33,40,8,8,0.8,0.7
2025-01-17T0900,2474A,113.0161,25.8001,郴州市,兴隆步行街,细颗粒物(PM2.5),79,96,95,58,51,20,,13,13,42,39,7,7,0.8,0.6
2025-01-17T0900,2475A,113.0383,25.8071,郴州市,市审计局,细颗粒物(PM2.5),79,80,82,58,50,10,,6,6,49,35,21,8,0.9,0.7
2025-01-17T0900,2476A,113.0348,25.7759,郴州市,市环保局,细颗粒物(PM2.5),84,79,79,62,52,10,,5,5,52,39,28,13,0.8,0.7
2025-01-17T0900,1431A,103.9728,30.7236,成都市,金泉两河,细颗粒物(PM2.5),105,94,79,79,60,1,,3,3,53,49,2,2,0.8,0.6
2025-01-17T0900,1432A,104.176,30.6872,成都市,十里店,细颗粒物(PM2.5),73,79,74,53,54,4,,5,5,56,47,3,2,0.8,0.6
2025-01-17T0900,1433A,104.079,30.5706,成都市,三瓦窑,细颗粒物(PM2.5),85,86,76,63,53,13,,3,3,46,45,1,2,0.7,0.6
2025-01-17T0900,1434A,104.1114,30.63,成都市,沙河铺,细颗粒物(PM2.5),70,74,72,51,54,6,,10,9,40,37,3,2,0.6,0.6
2025-01-17T0900,1437A,104.0786,30.6531,成都市,君平街,细颗粒物(PM2.5),88,73,73,65,59,21,,20,20,47,45,3,3,0.7,0.7
2025-01-17T0900,1438A,103.613,31.0283,成都市,灵岩寺,,,,,,,,,,,,,,,,
2025-01-17T0900,2880A,104.0239,30.65639,成都市,大石西路,细颗粒物(PM2.5),89,77,76,66,58,24,,24,24,42,40,3,3,1.0,1
2025-01-17T0900,3136A,104.2725,30.5589,成都市,龙泉驿区区政府,细颗粒物(PM2.5),85,80,66,63,53,4,,24,20,40,26,3,3,0.8,0.6
2025-01-17T0900,3357A,104.0106,30.6931,成都市,金博路,细颗粒物(PM2.5),65,70,66,47,44,3,,2,2,50,42,2,2,0.9,0.8
2025-01-17T0900,3359A,104.0578,30.5225,成都市,华阳,细颗粒物(PM2.5),79,70,73,58,58,26,,14,14,31,35,3,3,0.5,0.4
2025-01-17T0900,3487A,104.2394,30.5319,成都市,车城东七路,,,66,71,47,58,,,,,,22,,1,,0.6
2025-01-17T0900,3488A,104.3853,30.7453,成都市,青白江技师分院,细颗粒物(PM2.5),82,72,61,60,48,3,,4,3,36,31,3,3,0.6,0.5
2025-01-17T0900,3489A,104.0789,30.4072,成都市,科学城,细颗粒物(PM2.5),74,62,68,54,58,12,,18,17,28,23,4,4,0.7,0.7
2025-01-17T0900,4011A,103.8506,30.6947,成都市,光华大道三段,细颗粒物(PM2.5),97,94,75,72,52,10,,11,9,37,49,1,2,0.7,0.6
2025-01-17T0900,1062A,117.9531,40.9081,承德市,铁路,细颗粒物(PM2.5),74,93,71,54,32,8,,8,8,42,34,8,8,1.3,0.8
2025-01-17T0900,1063A,117.9392,40.9763,承德市,中国银行,颗粒物(PM10),62,73,76,29,32,8,,4,4,32,32,2,2,0.9,0.7
2025-01-17T0900,1064A,117.9503,40.928,承德市,开发区,颗粒物(PM10),67,84,68,43,33,12,,8,8,41,37,6,5,1.2,0.7
2025-01-17T0900,1065A,117.8051,40.9655,承德市,文化中心,颗粒物(PM10),92,133,88,48,29,9,,5,5,48,38,5,6,1.2,0.7
2025-01-17T0900,1066A,117.9268,41.0026,承德市,离宫,,50,48,58,35,36,18,,8,8,27,26,3,3,0.6,0.4
2025-01-17T0900,2314A,117.47,30.6618,池州市,池州学院,颗粒物(PM10),54,57,53,35,29,18,,18,18,41,32,5,6,1.3,0.8
2025-01-17T0900,3237A,117.4918,30.6617,池州市,展览馆,,49,49,51,31,26,17,,8,8,38,38,5,5,1.0,0.7
2025-01-17T0900,3333A,117.5627,30.695,池州市,第八中学,颗粒物(PM10),64,78,56,44,28,14,,21,21,47,31,15,7,0.9,0.6
2025-01-17T0900,3334A,117.5038,30.6243,池州市,第十二中学,颗粒物(PM10),54,58,52,32,28,12,,7,7,45,40,4,4,1.6,0.9
2025-01-17T0900,1744A,118.9233,42.2816,赤峰市,松山一中,,32,32,30,15,15,19,,44,39,52,27,15,13,1.7,0.8
2025-01-17T0900,1745A,118.9576,42.2728,赤峰市,哈达街,颗粒物(PM10),70,89,34,30,16,8,,43,36,79,32,16,9,2.7,1.1
2025-01-17T0900,1746A,118.8788,42.2554,赤峰市,天义路,,39,39,26,7,8,35,,51,48,32,18,10,8,0.6,0.4
2025-01-17T0900,3058A,119.2658,42.0353,赤峰市,银河街,细颗粒物(PM2.5),95,136,73,71,40,12,,9,9,48,35,26,24,2.8,1.5
2025-01-17T0900,3286A,118.9359,42.3147,赤峰市,桥北物流园区,细颗粒物(PM2.5),52,38,26,36,16,5,,30,24,62,38,16,10,1.3,0.6
2025-01-17T0900,2521A,107.3476,22.4136,崇左市,市环保局江州分局,细颗粒物(PM2.5),82,108,92,60,46,21,,42,34,45,31,6,7,0.9,0.7
2025-01-17T0900,2522A,107.3702,22.3707,崇左市,城南新区,细颗粒物(PM2.5),78,93,80,57,44,17,,63,52,52,27,6,8,1.1,0.8
2025-01-17T0900,2298A,118.3093,32.3153,滁州市,老年大学,颗粒物(PM10),67,83,64,46,36,8,,8,8,40,36,3,3,0.7,0.5
2025-01-17T0900,2299A,118.3244,32.2786,滁州市,人大宾馆,颗粒物(PM10),73,96,68,52,43,10,,17,14,54,39,10,8,1.3,0.7
2025-01-17T0900,3207A,118.3118,32.3038,滁州市,市政府原办公楼,颗粒物(PM10),66,82,60,46,37,10,,8,7,53,43,6,6,0.8,0.4
2025-01-17T0900,3331A,118.3267,32.2634,滁州市,图书馆,颗粒物(PM10),56,62,63,36,31,24,,21,17,42,31,5,6,0.8,0.6
2025-01-17T0900,2605A,101.5482,25.0441,楚雄彝族自治州,州环境监测站,细颗粒物(PM2.5),62,50,50,44,37,5,,3,3,31,25,7,7,1.1,0.8
2025-01-17T0900,2606A,101.538,25.0492,楚雄彝族自治州,市经济开发区,,,,57,42,45,15,,7,7,35,27,,6,0.8,0.8
2025-01-17T0900,2548A,107.5277,31.2827,达州市,达州职业技术学院,细颗粒物(PM2.5),74,81,87,54,60,7,,7,7,39,33,34,13,0.7,0.9
2025-01-17T0900,2549A,107.5086,31.2186,达州市,市环境监测站,颗粒物(PM10),68,85,88,48,57,6,,12,12,60,50,39,10,0.9,1.1
2025-01-17T0900,2550A,107.4988,31.2132,达州市,凤凰小区,细颗粒物(PM2.5),73,70,87,53,60,9,,13,13,57,50,50,16,0.7,1
2025-01-17T0900,2551A,107.5082,31.1986,达州市,达县机关宾馆,颗粒物(PM10),60,70,92,41,57,14,,18,18,55,52,24,10,0.8,1
2025-01-17T0900,2552A,107.4644,31.2124,达州市,市政中心,细颗粒物(PM2.5),73,83,94,53,59,3,,7,7,62,55,22,9,0.8,1.1
2025-01-17T0900,2614A,100.1542,25.7054,大理白族自治州,大理市环境监测站,,28,28,30,16,21,68,,70,70,8,10,7,7,0.6,0.5
2025-01-17T0900,2615A,100.2171,25.5811,大理白族自治州,大理古城,,29,27,31,20,24,51,,66,64,21,15,6,6,0.7,0.7
2025-01-17T0900,1109A,121.612,38.9741,大连市,甘井子,颗粒物(PM10),51,51,77,18,25,26,,33,30,51,34,12,11,0.8,0.7
2025-01-17T0900,1110A,121.565,38.9511,大连市,周水子,颗粒物(PM10),51,52,46,34,26,14,,36,32,78,35,21,14,1.3,0.9
2025-01-17T0900,1111A,121.5637,38.8845,大连市,星海三站,,34,34,44,13,20,37,,41,41,34,23,11,11,0.5,0.5
2025-01-17T0900,1112A,121.6302,38.9117,大连市,青泥洼桥,,41,41,57,20,22,21,,42,41,49,23,27,15,0.7,0.6
2025-01-17T0900,1113A,121.6251,38.8638,大连市,傅家庄,,34,34,47,12,18,53,,62,62,12,12,11,14,0.5,0.6
2025-01-17T0900,1114A,121.5213,38.8661,大连市,七贤岭,,31,31,40,15,18,36,,40,38,36,20,11,9,0.8,0.7
2025-01-17T0900,1115A,121.2529,38.8061,大连市,旅顺,,34,34,32,19,16,33,,67,62,48,12,8,8,0.7,0.6
2025-01-17T0900,1116A,121.7485,39.1311,大连市,金州,细颗粒物(PM2.5),70,73,54,51,29,33,,57,56,51,20,19,10,1.2,0.7
2025-01-17T0900,1117A,121.7811,39.0496,大连市,开发区,细颗粒物(PM2.5),53,53,48,37,27,17,,38,35,69,30,21,11,1.0,0.5
2025-01-17T0900,1118A,121.9762,39.0631,大连市,双D港,,30,30,49,14,23,62,,63,62,22,15,12,12,0.6,0.7
2025-01-17T0900,1789A,124.81117,46.03138,大庆市,大同区,细颗粒物(PM2.5),84,82,50,62,41,22,,29,28,29,20,11,8,0.9,0.5
2025-01-17T0900,1790A,125.129,46.533,大庆市,龙凤区,细颗粒物(PM2.5),55,57,51,39,36,30,,30,29,32,30,11,11,0.7,0.6
2025-01-17T0900,1791A,124.902,46.408,大庆市,红岗区,,38,38,40,16,27,22,,20,20,30,28,11,9,0.5,0.6
2025-01-17T0900,1792A,125.153,46.586,大庆市,萨尔图区,"颗粒物(PM10),细颗粒物(PM2.5)",58,66,48,41,34,21,,27,25,48,32,7,6,1.1,0.6
2025-01-17T0900,1793A,124.9042,46.6215,大庆市,让胡路区,细颗粒物(PM2.5),57,49,42,40,37,14,,22,20,60,36,11,7,1.2,0.6
2025-01-17T0900,3481A,125.141,46.634,大庆市,萨区政府监测点,,47,47,41,27,25,15,,25,23,50,27,12,8,0.7,0.4
2025-01-17T0900,1721A,113.3819,40.1097,大同市,果树场,细颗粒物(PM2.5),128,130,103,97,63,8,,7,7,42,42,21,14,1.6,1.2
2025-01-17T0900,1723A,113.2994,40.0758,大同市,云冈宾馆,颗粒物(PM10),71,92,92,37,36,9,,5,5,42,44,51,23,2.0,1.4
2025-01-17T0900,1724A,113.3444,40.0917,大同市,大同大学,颗粒物(PM10),60,70,79,31,30,14,,11,11,38,38,37,25,1.0,0.9
2025-01-17T0900,1725A,113.2661,40.1269,大同市,安家小村,颗粒物(PM10),102,153,115,45,36,10,,8,8,35,42,37,20,2.9,1.5
2025-01-17T0900,1726A,113.2711,40.0844,大同市,教育学院,颗粒物(PM10),86,121,111,51,47,6,,3,3,46,50,36,23,4.0,1.7
2025-01-17T0900,3282A,113.3397,40.0597,大同市,大同市卫生学校,颗粒物(PM10),59,68,85,23,33,10,,6,6,46,48,33,20,1.0,1
2025-01-17T0900,3565A,113.1367,40.1122,大同市,云冈站,颗粒物(PM10),65,80,109,34,31,9,,6,6,44,43,44,30,1.0,0.7
2025-01-17T0900,3566A,113.1186,40.2556,大同市,图书馆,细颗粒物(PM2.5),54,56,78,38,35,12,,8,8,20,28,14,16,0.9,0.8
2025-01-17T0900,3567A,113.5931,40.0461,大同市,区一中,颗粒物(PM10),109,167,106,79,36,11,,8,8,39,44,43,34,1.8,1.3
2025-01-17T0900,4199A,113.2798,40.0997,大同市,魏都大道141号,颗粒物(PM10),86,121,138,53,46,10,,6,6,37,47,50,30,2.6,1.8
2025-01-17T0900,2269A,124.1069,50.4097,大兴安岭地区,科技局,,43,43,38,30,23,34,,40,38,14,10,8,7,0.5,0.4
2025-01-17T0900,3663A,124.1164,50.4278,大兴安岭地区,红旗社区,细颗粒物(PM2.5),92,92,28,68,24,11,,14,12,38,23,17,5,1.1,0.6
2025-01-17T0900,1600A,124.3303,40.0625,丹东市,江湾东路,颗粒物(PM10),61,71,63,43,36,29,,19,19,25,26,38,16,1.8,1.6
2025-01-17T0900,1601A,124.4256,40.1503,丹东市,临江后街,细颗粒物(PM2.5),63,74,54,45,28,26,,25,24,32,26,20,14,1.1,0.9
2025-01-17T0900,1602A,124.3933,40.1461,丹东市,元宝山,细颗粒物(PM2.5),82,101,46,60,26,10,,22,19,44,20,29,11,2.1,1.1
2025-01-17T0900,1603A,124.3633,40.1092,丹东市,民主桥,颗粒物(PM10),62,74,57,43,32,10,,12,11,54,35,41,14,1.9,1.4
2025-01-17T0900,3541A,109.5726,19.5167,儋州市,第一中学子站,颗粒物(PM10),63,75,67,44,36,114,,124,122,17,14,7,7,0.6,0.6
2025-01-17T0900,3542A,109.5567,19.5187,儋州市,东坡学校子站,,,62,61,42,34,,,132,132,20,12,7,7,,0.7
2025-01-17T0900,2616A,98.5842,24.428,德宏傣族景颇族自治州,德宏州监测站,细颗粒物(PM2.5),60,43,59,43,38,14,,16,14,27,25,8,8,0.9,0.8
2025-01-17T0900,3677A,98.5881,24.4368,德宏傣族景颇族自治州,芒市人民政府综合楼,,48,41,51,33,31,7,,24,20,27,17,6,6,0.9,0.7
2025-01-17T0900,1901A,104.4239,31.1208,德阳市,东山公园,细颗粒物(PM2.5),73,66,50,53,42,29,,46,44,35,20,2,2,0.7,0.6
2025-01-17T0900,1902A,104.3826,31.1317,德阳市,西小区,细颗粒物(PM2.5),70,77,70,51,46,2,,15,11,52,38,3,2,1.0,0.8
2025-01-17T0900,1904A,104.3553,31.1091,德阳市,耐火材料厂,细颗粒物(PM2.5),88,113,70,65,54,5,,7,6,47,36,7,5,1.1,0.8
2025-01-17T0900,3639A,104.4019,31.1244,德阳市,市教育局,细颗粒物(PM2.5),65,63,56,47,42,4,,16,14,58,39,4,4,0.8,0.6
2025-01-17T0900,1622A,116.3032,37.4674,德州市,儿童乐园,颗粒物(PM10),78,105,86,44,37,17,,23,21,63,43,24,18,1.2,0.9
2025-01-17T0900,1624A,116.2991,37.4451,德州市,监理站,细颗粒物(PM2.5),77,102,75,56,41,15,,18,17,65,48,30,18,1.2,0.8
2025-01-17T0900,3066A,116.2721,37.4379,德州市,九衢泉纯净水厂,细颗粒物(PM2.5),89,124,88,66,41,13,,12,11,68,56,34,22,1.1,0.8
2025-01-17T0900,3371A,116.3728,37.4403,德州市,开发区人民医院,颗粒物(PM10),80,110,87,58,38,15,,12,12,60,45,33,21,1.0,0.7
2025-01-17T0900,3372A,116.3572,37.4094,德州市,太阳城中学,细颗粒物(PM2.5),98,117,92,73,47,15,,13,13,65,55,37,21,1.0,0.8
2025-01-17T0900,3511A,116.5652,37.3319,德州市,陵城艺术中心,颗粒物(PM10),73,95,96,46,44,6,,6,5,50,41,27,23,1.1,1
2025-01-17T0900,2621A,99.7056,27.8317,迪庆藏族自治州,迪庆州站,,46,46,33,18,20,50,,72,71,36,17,9,8,0.8,0.6
2025-01-17T0900,3180A,99.7136,27.8094,迪庆藏族自治州,质量技术监督局,,42,42,27,20,10,36,,58,57,46,17,8,7,1.0,0.5
2025-01-17T0900,2663A,104.6241,35.5734,定西市,东关小学,细颗粒物(PM2.5),85,98,70,63,43,6,,10,9,8,11,22,15,1.5,0.9
2025-01-17T0900,2664A,104.6194,35.5934,定西市,供电公司,细颗粒物(PM2.5),84,112,74,62,45,5,,5,5,45,40,20,16,2.2,1.5
2025-01-17T0900,1389A,113.7547,23.0494,东莞市,莞城梨川,颗粒物(PM10),54,57,61,27,29,57,,71,68,38,28,7,7,0.7,0.7
2025-01-17T0900,1390A,113.7944,23.0128,东莞市,东城石井,,45,45,58,22,29,60,,47,45,32,28,9,7,0.6,0.6
2025-01-17T0900,1391A,113.7383,22.9658,东莞市,南城西平,颗粒物(PM10),51,52,63,23,29,47,,19,19,52,55,2,5,0.6,0.6
2025-01-17T0900,3319A,113.7338,23.0381,东莞市,万江金泰,,45,45,55,19,26,58,,69,67,31,24,9,8,0.5,0.6
2025-01-17T0900,3626A,113.7533,23.0202,东莞市,南城元岭,,49,49,58,22,29,54,,74,72,37,22,8,8,0.6,0.6
2025-01-17T0900,3627A,113.7875,23.0457,东莞市,东城主山,颗粒物(PM10),51,51,56,25,30,39,,47,45,46,28,10,9,0.7,0.7
2025-01-17T0900,1666A,118.6614,37.4309,东营市,市环保局,颗粒物(PM10),74,97,51,51,20,12,,14,14,59,38,16,8,1.1,0.6
2025-01-17T0900,3036A,118.6904,37.4338,东营市,开发区管委会,细颗粒物(PM2.5),70,69,52,51,21,14,,12,12,59,39,13,6,1.1,0.7
2025-01-17T0900,3365A,118.5719,37.565,东营市,垦利区民丰路,颗粒物(PM10),62,73,56,31,23,12,,3,3,51,46,20,14,0.9,0.7
2025-01-17T0900,3498A,118.5055,37.8612,东营市,河口城区,颗粒物(PM10),71,92,71,51,24,21,,21,20,44,42,29,13,1.2,1.1
2025-01-17T0900,3646A,118.4978,37.4623,东营市,胜利站,颗粒物(PM10),64,78,66,39,28,16,,9,9,57,46,35,12,1.3,1
2025-01-17T0900,3734A,118.35,37.26,东营市,理想之城,细颗粒物(PM2.5),73,88,70,53,30,10,,7,7,67,53,8,5,1.1,0.7
2025-01-17T0900,1591A,110.0023,39.8129,鄂尔多斯市,综合楼,颗粒物(PM10),63,75,59,31,23,32,,34,34,51,43,20,21,1.0,0.8
2025-01-17T0900,1592A,109.9486,39.8261,鄂尔多斯市,巴音孟克林场办事处,颗粒物(PM10),52,53,39,31,21,41,,36,36,41,35,18,21,0.7,0.4
2025-01-17T0900,1593A,109.7736,39.5986,鄂尔多斯市,康泽苑,颗粒物(PM10),53,56,33,36,19,12,,20,18,45,32,7,8,1.0,0.6
2025-01-17T0900,1594A,109.8119,39.5989,鄂尔多斯市,华泰汽车城,颗粒物(PM10),62,73,43,31,17,8,,6,6,53,45,7,9,1.0,0.6
2025-01-17T0900,1595A,109.9734,39.7884,鄂尔多斯市,奥林花园,颗粒物(PM10),84,117,63,53,28,10,,7,7,69,50,19,18,1.1,0.8
2025-01-17T0900,2436A,114.8938,30.3994,鄂州市,市政府,细颗粒物(PM2.5),102,110,102,76,62,13,,5,5,68,65,16,12,1.0,1.1
2025-01-17T0900,2437A,114.8989,30.3714,鄂州市,赵家坝,细颗粒物(PM2.5),85,103,91,63,52,34,,20,20,30,30,10,9,1.1,0.9
2025-01-17T0900,3654A,114.8094,30.4089,鄂州市,精准医疗中心,细颗粒物(PM2.5),129,139,99,98,63,12,,11,11,56,47,20,11,0.9,0.6
2025-01-17T0900,2454A,109.4978,30.2981,恩施土家族苗族自治州,湖北民院,细颗粒物(PM2.5),83,62,79,61,76,5,,3,3,14,23,7,8,0.8,0.8
2025-01-17T0900,2455A,109.4707,30.2798,恩施土家族苗族自治州,州电力总公司,细颗粒物(PM2.5),104,93,103,78,78,8,,7,7,18,21,7,7,1.3,1.1
2025-01-17T0900,3549A,109.5061,30.3772,恩施土家族苗族自治州,龙凤新区,细颗粒物(PM2.5),57,51,79,40,54,7,,8,8,14,20,6,6,0.9,0.9
2025-01-17T0900,2499A,108.3411,21.6158,防城港市,沙万,细颗粒物(PM2.5),73,74,80,53,53,70,,76,75,27,25,9,11,0.7,0.7
2025-01-17T0900,2500A,108.3514,21.7731,防城港市,防城档案局,细颗粒物(PM2.5),82,111,110,60,50,62,,52,52,29,30,7,7,0.6,0.5
2025-01-17T0900,2501A,108.3506,21.6414,防城港市,大海花园,细颗粒物(PM2.5),74,82,86,54,48,69,,81,79,24,19,7,8,1.1,1
2025-01-17T0900,1371A,113.1294,23.0067,佛山市,湾梁,,46,46,59,17,25,60,,58,57,38,38,7,8,0.4,0.4
2025-01-17T0900,1372A,113.1083,23.0478,佛山市,华材职中,颗粒物(PM10),56,61,70,29,33,43,,48,48,60,50,8,9,0.6,0.6
2025-01-17T0900,1373A,113.144,23.0453,佛山市,南海气象局,,39,39,55,26,31,58,,52,51,35,37,7,7,0.4,0.5
2025-01-17T0900,1374A,113.2881,22.8094,佛山市,顺德苏岗,,49,49,59,22,29,42,,48,48,46,40,9,9,0.5,0.5
2025-01-17T0900,1376A,112.8383,22.8678,佛山市,高明孔堂,,49,49,67,25,35,55,,47,47,31,29,12,9,0.7,0.6
2025-01-17T0900,1377A,112.8836,23.1588,佛山市,三水监测站,颗粒物(PM10),54,58,65,31,38,54,,60,60,38,36,16,12,0.7,0.6
2025-01-17T0900,1378A,112.867,23.185,佛山市,三水云东海,颗粒物(PM10),55,59,60,30,33,43,,56,55,47,35,11,10,0.7,0.6
2025-01-17T0900,3625A,113.2544,22.7642,佛山市,容桂街道办,,41,41,64,22,30,56,,58,58,38,38,8,8,0.5,0.6
2025-01-17T0900,1280A,119.3903,26.0543,福州市,鼓山,,,,51,,26,,,82,,,16,,3,,0.6
2025-01-17T0900,1282A,119.2681,26.0504,福州市,师大,细颗粒物(PM2.5),58,49,54,41,34,46,,56,52,26,25,3,4,0.7,0.6
2025-01-17T0900,1283A,119.2984,26.1028,福州市,五四北路,细颗粒物(PM2.5),54,42,53,38,34,54,,66,62,25,23,1,2,0.5,0.5
2025-01-17T0900,1284A,119.2648,26.0768,福州市,杨桥西路,细颗粒物(PM2.5),58,52,59,41,33,53,,51,48,22,23,1,2,0.6,0.5
2025-01-17T0900,1285A,119.317,26.0746,福州市,紫阳,细颗粒物(PM2.5),55,51,62,39,36,52,,66,62,28,29,5,5,0.6,0.6
2025-01-17T0900,3048A,119.5799,26.0936,福州市,九龙,细颗粒物(PM2.5),53,,49,37,27,63,,61,60,13,15,5,3,0.6,0.5
2025-01-17T0900,3526A,119.5189,25.9664,福州市,吴航,颗粒物(PM10),61,72,62,43,31,45,,58,54,38,21,8,4,1.0,0.5
2025-01-17T0900,1755A,123.7977,41.8491,抚顺市,望花区,细颗粒物(PM2.5),77,93,87,56,50,14,,9,9,46,41,4,6,1.4,1.2
2025-01-17T0900,1756A,123.9161,41.8822,抚顺市,顺城区,细颗粒物(PM2.5),55,57,78,39,47,18,,15,15,48,41,8,9,1.0,1
2025-01-17T0900,1757A,124.0436,41.8611,抚顺市,东洲区,细颗粒物(PM2.5),55,46,56,39,32,34,,33,32,21,19,14,11,0.8,0.8
2025-01-17T0900,1758A,123.9247,41.8642,抚顺市,新抚区,细颗粒物(PM2.5),77,83,76,56,46,16,,14,14,54,49,6,6,0.9,1
2025-01-17T0900,1759A,124.0972,41.8961,抚顺市,大伙房水库,细颗粒物(PM2.5),55,46,45,39,29,36,,20,20,21,22,10,9,0.7,0.7
2025-01-17T0900,1760A,123.7086,41.8391,抚顺市,沈抚新城,细颗粒物(PM2.5),85,97,81,63,46,16,,13,13,52,39,14,7,2.6,1.4
2025-01-17T0900,2376A,116.2127,28.0814,抚州市,桐源党溪,颗粒物(PM10),56,62,53,30,23,8,,25,22,23,6,2,3,0.5,0.4
2025-01-17T0900,2377A,116.3544,27.9831,抚州市,市站,颗粒物(PM10),54,58,59,32,26,24,,13,13,35,34,9,9,1.6,1
2025-01-17T0900,2378A,116.3565,27.963,抚州市,血防站,颗粒物(PM10),56,61,63,28,27,23,,20,20,33,28,5,4,0.9,0.7
2025-01-17T0900,2379A,116.3564,28.0007,抚州市,采茶剧团,颗粒物(PM10),55,60,56,34,26,8,,4,4,38,33,9,7,1.3,1.1
2025-01-17T0900,2380A,116.385,27.9647,抚州市,医学分院,颗粒物(PM10),55,59,57,25,21,30,,12,12,24,25,6,6,0.6,0.6
2025-01-17T0900,2207A,121.6094,41.998,阜新市,工业园区,颗粒物(PM10),110,170,122,62,54,19,,14,14,46,36,37,24,1.1,1
2025-01-17T0900,2208A,121.6697,42.0279,阜新市,长青街,颗粒物(PM10),97,143,84,62,70,7,,6,6,48,35,28,14,2.0,1.3
2025-01-17T0900,2209A,121.6673,42.0705,阜新市,农业园区,颗粒物(PM10),53,56,48,29,25,47,,26,26,24,37,65,32,0.8,0.4
2025-01-17T0900,2210A,121.6717,42.0224,阜新市,东苑,颗粒物(PM10),82,113,74,52,47,15,,13,13,44,32,42,21,1.8,1.1
2025-01-17T0900,2211A,121.6506,42.0498,阜新市,玉龙新城,细颗粒物(PM2.5),113,155,99,85,41,16,,13,13,48,35,23,13,1.4,0.8
2025-01-17T0900,2301A,115.8277,32.8929,阜阳市,市监测站,细颗粒物(PM2.5),112,111,76,84,57,6,,3,3,62,45,8,7,1.2,0.8
2025-01-17T0900,2303A,115.8554,32.8605,阜阳市,开发区,细颗粒物(PM2.5),107,162,98,80,49,8,,6,6,61,42,10,9,1.4,0.9
2025-01-17T0900,2875A,115.784,32.8892,阜阳市,阜阳职业技术学院,细颗粒物(PM2.5),100,103,81,75,54,3,,1,1,53,41,8,10,1.2,0.7
2025-01-17T0900,3468A,115.7901,32.8613,阜阳市,市规划展馆,细颗粒物(PM2.5),97,110,77,72,48,24,,7,7,43,38,10,8,0.9,0.7
2025-01-17T0900,3469A,115.836,32.9183,阜阳市,枣园社区,细颗粒物(PM2.5),95,121,83,71,50,6,,5,5,59,41,6,7,1.4,0.7
2025-01-17T0900,2669A,102.9099,34.9841,甘南藏族自治州,州政府,颗粒物(PM10),56,62,50,29,23,2,,4,4,36,27,16,13,1.5,0.8
2025-01-17T0900,3380A,102.8914,34.9617,甘南藏族自治州,甘肃民族师范学院,颗粒物(PM10),56,62,47,33,15,6,,9,9,45,32,7,8,0.7,0.5
2025-01-17T0900,2570A,101.9603,30.0475,甘孜藏族自治州,水桥子,,23,17,20,16,12,34,,34,34,20,19,2,2,0.3,0.4
2025-01-17T0900,3065A,101.9533,29.9972,甘孜藏族自治州,州环保局,,25,25,21,9,8,43,,44,44,19,16,4,4,0.4,0.4
2025-01-17T0900,3414A,115.8347,28.932,赣江新区,桑海产业园,颗粒物(PM10),64,78,65,39,27,6,,5,5,48,41,15,11,0.4,0.3
2025-01-17T0900,2362A,114.9017,25.9149,赣州市,通天岩,,43,39,43,30,23,47,,52,50,7,4,2,2,0.9,0.8
2025-01-17T0900,2363A,114.9367,25.8664,赣州市,地委,,49,49,53,21,24,35,,41,39,23,18,2,8,1.0,1
2025-01-17T0900,2364A,114.9461,25.8481,赣州市,气象台,颗粒物(PM10),52,54,62,18,20,24,,40,38,40,29,14,9,0.7,0.6
2025-01-17T0900,2365A,114.9322,25.8333,赣州市,市图书馆,,41,41,51,18,22,15,,20,20,43,32,5,4,0.8,0.7
2025-01-17T0900,2366A,114.8905,25.8471,赣州市,华坚鞋城,,49,49,53,33,22,32,,33,30,29,21,6,6,0.5,0.5
2025-01-17T0900,3109A,115.0093,25.8613,赣州市,赣县区卫计委,,46,46,51,24,25,22,,22,22,28,29,4,4,0.5,0.4
2025-01-17T0900,2683A,106.2319,36.1417,固原市,马园,颗粒物(PM10),57,63,52,37,30,14,,33,30,64,33,10,9,0.8,0.6
2025-01-17T0900,2684A,106.2792,36.0022,固原市,监测站,"颗粒物(PM10),细颗粒物(PM2.5)",52,53,43,36,30,52,,35,35,34,38,12,10,0.9,0.9
2025-01-17T0900,2685A,106.2375,36.0211,固原市,新区,颗粒物(PM10),56,61,47,33,24,23,,42,40,57,35,6,7,1.0,0.6
2025-01-17T0900,3522A,106.2177,35.9959,固原市,原州区十五小,,49,49,40,32,23,47,,52,52,37,24,8,7,0.7,0.5
2025-01-17T0900,2543A,106.6308,30.5278,广安市,小平旧居,,,,,,,,,,,,,,,,
2025-01-17T0900,2544A,106.6303,30.4576,广安市,市委,细颗粒物(PM2.5),104,86,98,78,78,22,,31,31,30,31,2,2,1.0,1
2025-01-17T0900,2545A,106.6271,30.4663,广安市,友谊中学,细颗粒物(PM2.5),115,96,102,87,83,12,,23,23,33,31,4,4,1.1,1.1
2025-01-17T0900,2547A,106.6388,30.4551,广安市,广电花园,细颗粒物(PM2.5),102,96,99,76,75,11,,20,20,41,36,3,3,1.1,1.1
2025-01-17T0900,2902A,106.6351,30.4865,广安市,北辰小学,细颗粒物(PM2.5),99,89,90,74,76,9,,24,24,35,25,4,4,1.4,1.1
2025-01-17T0900,2523A,105.8945,32.4535,广元市,黑石坡,颗粒物(PM10),58,65,66,39,28,0,,30,23,52,19,5,4,0.9,0.5
2025-01-17T0900,2524A,105.821,32.4444,广元市,老城,颗粒物(PM10),58,65,59,39,29,4,,3,3,50,46,1,3,1.4,1.1
2025-01-17T0900,2526A,105.8628,32.4287,广元市,监测站,颗粒物(PM10),55,59,54,34,34,5,,9,8,60,40,10,8,0.8,0.6
2025-01-17T0900,3617A,105.8047,32.4166,广元市,经开区,"颗粒物(PM10),细颗粒物(PM2.5)",63,76,68,45,42,4,,4,4,57,47,8,7,1.7,1.2
2025-01-17T0900,1345A,113.2347,23.1423,广州市,广雅中学,,45,45,66,22,35,73,,55,55,29,44,9,9,0.6,0.7
2025-01-17T0900,1346A,113.2612,23.105,广州市,市五中,,46,46,60,22,31,74,,76,76,23,27,5,4,0.6,0.7
2025-01-17T0900,1348A,113.3478,23.0916,广州市,广东商学院,,44,44,56,22,31,74,,75,75,26,28,4,4,0.4,0.5
2025-01-17T0900,1349A,113.4332,23.1047,广州市,市八十六中,颗粒物(PM10),53,56,64,22,28,59,,51,51,42,41,4,4,0.6,0.5
2025-01-17T0900,1350A,113.3505,22.9483,广州市,番禺中学,颗粒物(PM10),51,52,62,21,29,57,,69,68,46,37,3,4,0.5,0.6
2025-01-17T0900,1351A,113.2146,23.3916,广州市,花都师范,,43,43,57,20,28,72,,81,80,25,24,7,8,0.5,0.5
2025-01-17T0900,1352A,113.2597,23.1331,广州市,市监测站,,47,47,58,21,27,81,,77,77,25,34,7,6,0.4,0.5
2025-01-17T0900,1353A,113.5618,23.312,广州市,九龙镇镇龙,颗粒物(PM10),53,56,59,23,28,30,,40,34,51,31,5,6,0.6,0.6
2025-01-17T0900,1354A,113.2765,23.1544,广州市,麓湖,,42,42,55,21,28,75,,64,64,21,32,6,4,0.6,0.6
2025-01-17T0900,1355A,113.443,23.3035,广州市,帽峰山森林公园,,41,41,44,9,15,77,,76,75,16,14,6,6,0.5,0.5
2025-01-17T0900,2846A,113.3221,23.1322,广州市,体育西,,21,,54,11,27,66,,66,65,24,23,6,6,0.6,0.6
2025-01-17T0900,3298A,113.5717,23.5491,广州市,从化街口,,47,47,54,22,26,61,,54,54,30,31,7,7,0.6,0.6
2025-01-17T0900,3299A,113.3472,23.3692,广州市,白云竹料,,50,50,61,22,29,60,,68,68,30,24,8,8,0.5,0.5
2025-01-17T0900,3300A,113.2981,23.237,广州市,白云嘉禾,颗粒物(PM10),53,56,72,22,29,57,,55,55,44,44,8,8,0.8,0.6
2025-01-17T0900,3301A,113.4256,23.1716,广州市,黄埔科学城,,46,46,53,21,26,61,,63,63,29,24,6,7,0.7,0.7
2025-01-17T0900,3302A,113.3942,23.0483,广州市,番禺大学城,,47,47,55,23,26,74,,60,59,36,38,9,10,0.7,0.7
2025-01-17T0900,3303A,113.4922,22.8168,广州市,南沙黄阁,颗粒物(PM10),60,69,77,29,35,52,,60,60,52,48,13,8,0.8,0.7
2025-01-17T0900,3304A,113.5342,22.7896,广州市,南沙街,颗粒物(PM10),55,60,72,26,34,49,,61,59,48,38,6,7,0.7,0.7
2025-01-17T0900,3443A,113.2902,23.5544,广州市,花都梯面,,40,40,50,18,24,80,,88,86,17,16,9,8,0.5,0.5
2025-01-17T0900,3445A,113.7858,23.7478,广州市,从化良口,,32,32,40,16,21,51,,74,71,25,13,5,6,0.4,0.4
2025-01-17T0900,3446A,113.8051,23.2614,广州市,增城荔城,,39,39,53,17,27,75,,76,74,15,16,6,6,0.5,0.6
2025-01-17T0900,2505A,109.568,23.1478,贵港市,德智高中,,,,,,,,,,,,,,,,
2025-01-17T0900,2506A,109.6047,23.0666,贵港市,江南子站,细颗粒物(PM2.5),85,114,103,63,54,50,,41,41,43,34,11,7,1.3,1
2025-01-17T0900,2507A,109.6014,23.0948,贵港市,贵城子站,细颗粒物(PM2.5),85,91,86,63,51,61,,54,54,41,37,14,10,0.9,0.8
2025-01-17T0900,2508A,109.5669,23.1065,贵港市,荷城子站,颗粒物(PM10),68,85,85,46,41,71,,70,68,27,22,14,11,0.7,0.7
2025-01-17T0900,3405A,109.5886,23.1172,贵港市,新世纪学校,颗粒物(PM10),71,92,89,49,45,70,,65,64,30,22,9,6,0.8,0.7
2025-01-17T0900,1439A,106.6899,26.5998,贵阳市,马鞍山,颗粒物(PM10),59,68,94,36,52,31,,29,29,34,43,6,12,0.9,0.9
2025-01-17T0900,1441A,106.6243,26.6266,贵阳市,鉴湖路,颗粒物(PM10),63,75,99,41,58,69,,51,51,28,41,13,15,0.6,0.8
2025-01-17T0900,1442A,106.7487,26.6343,贵阳市,燕子冲,颗粒物(PM10),59,68,83,36,55,33,,57,57,38,33,18,19,0.9,0.8
2025-01-17T0900,1443A,106.6555,26.4365,贵阳市,碧云窝,颗粒物(PM10),65,80,121,36,72,70,,38,38,26,34,20,28,0.7,0.9
2025-01-17T0900,1445A,106.7109,26.6027,贵阳市,红边门,细颗粒物(PM2.5),67,78,108,48,68,42,,52,52,56,56,16,45,0.7,1.1
2025-01-17T0900,1446A,106.7164,26.5699,贵阳市,新华路,颗粒物(PM10),63,75,109,44,55,57,,48,48,40,49,10,27,0.7,1
2025-01-17T0900,1447A,106.674,26.5424,贵阳市,太慈桥,颗粒物(PM10),69,88,109,48,68,33,,14,14,48,46,16,18,0.8,0.8
2025-01-17T0900,1552A,106.805,26.3003,贵阳市,桐木岭,颗粒物(PM10),60,70,106,31,59,90,,85,85,2,4,9,22,0.3,0.5
2025-01-17T0900,4230A,106.6882,26.5695,贵阳市,花果园大街66号,细颗粒物(PM2.5),77,88,114,56,73,32,,40,40,66,70,10,15,0.9,1
2025-01-17T0900,4231A,106.6873,26.5169,贵阳市,漓江路57号,细颗粒物(PM2.5),89,105,112,66,70,26,,24,24,57,62,42,32,1.1,0.9
2025-01-17T0900,1862A,110.4144,25.3167,桂林市,电子科大尧山校区,颗粒物(PM10),63,75,59,39,34,72,,81,78,13,10,7,8,0.6,0.5
2025-01-17T0900,1863A,110.2819,25.2697,桂林市,监测站,细颗粒物(PM2.5),87,86,73,64,42,60,,89,84,39,23,13,13,0.8,0.6
2025-01-17T0900,1864A,110.3089,25.2708,桂林市,龙隐路小学,细颗粒物(PM2.5),74,82,67,54,42,67,,94,89,32,19,17,15,0.9,0.7
2025-01-17T0900,1865A,110.2869,25.2178,桂林市,八中,细颗粒物(PM2.5),75,92,68,55,42,34,,76,68,52,25,13,13,1.0,0.7
2025-01-17T0900,3403A,110.1764,25.2381,桂林市,创业大厦,细颗粒物(PM2.5),89,105,75,66,43,37,,68,60,50,25,56,15,0.8,0.8
2025-01-17T0900,3531A,110.296,25.1253,桂林市,旅游学院,细颗粒物(PM2.5),85,100,73,63,41,18,,58,49,65,30,13,12,1.2,0.9
2025-01-17T0900,2674A,100.2561,34.4714,果洛藏族自治州,玛沁县大武镇,,35,35,33,23,15,28,,26,26,11,11,10,17,0.7,0.6
2025-01-17T0900,1129A,126.5422,45.755,哈尔滨市,岭北,细颗粒物(PM2.5),70,65,52,51,40,37,,36,35,35,31,16,10,1.3,1.1
2025-01-17T0900,1130A,126.561,45.8167,哈尔滨市,松北商大,细颗粒物(PM2.5),62,56,50,44,39,26,,29,27,32,31,8,8,0.9,0.7
2025-01-17T0900,1131A,126.979,45.5419,哈尔滨市,阿城会宁,细颗粒物(PM2.5),63,60,46,45,36,46,,49,48,15,18,3,9,0.9,0.9
2025-01-17T0900,1132A,126.599,45.7222,哈尔滨市,南岗学府路,细颗粒物(PM2.5),99,92,77,74,50,15,,22,22,46,38,13,15,1.0,0.6
2025-01-17T0900,1133A,126.689,45.7733,哈尔滨市,太平宏伟公园,细颗粒物(PM2.5),74,67,60,54,39,14,,14,13,44,37,11,9,0.9,0.7
2025-01-17T0900,1134A,126.635,45.7667,哈尔滨市,道外承德广场,,,76,71,,26,14,,18,17,42,36,20,13,0.8,0.6
2025-01-17T0900,1135A,126.685,45.7319,哈尔滨市,香坊红旗大街,细颗粒物(PM2.5),92,70,60,68,50,18,,18,17,34,30,20,16,0.9,0.8
2025-01-17T0900,1136A,126.6411,45.7258,哈尔滨市,动力和平路,细颗粒物(PM2.5),89,75,64,66,48,11,,9,8,42,37,21,12,1.2,0.7
2025-01-17T0900,1137A,126.593,45.7478,哈尔滨市,道里建国路,细颗粒物(PM2.5),89,68,53,66,46,9,,19,18,51,39,16,12,1.7,0.8
2025-01-17T0900,1138A,126.615,45.61,哈尔滨市,平房东轻厂,细颗粒物(PM2.5),63,47,52,45,40,30,,33,32,24,29,9,8,0.7,0.6
2025-01-17T0900,1139A,126.595,45.9855,哈尔滨市,呼兰师专,细颗粒物(PM2.5),80,76,55,59,48,14,,17,17,43,36,20,12,0.8,0.6
2025-01-17T0900,1140A,126.6206,45.6842,哈尔滨市,省农科院,细颗粒物(PM2.5),108,89,82,81,63,12,,9,9,48,46,13,10,1.3,0.9
2025-01-17T0900,2688A,93.5128,42.8172,哈密市,地区监测站,颗粒物(PM10),64,77,43,14,15,43,,51,50,23,21,3,6,0.1,0.2
2025-01-17T0900,2689A,93.4961,42.8328,哈密市,哈密师范学校,颗粒物(PM10),61,72,39,14,20,41,,27,27,24,34,6,7,0.5,0.6
2025-01-17T0900,2671A,100.9048,36.9639,海北藏族自治州,海晏县西海镇,,14,,12,8,8,44,,47,46,6,4,11,10,0.5,0.4
2025-01-17T0900,3867A,102.0738,36.5056,海东市,平安区公安北苑,"颗粒物(PM10),细颗粒物(PM2.5)",62,74,58,44,37,15,,25,24,45,32,18,20,1.5,1.2
2025-01-17T0900,1409A,110.576,19.9507,海口市,东寨港,细颗粒物(PM2.5),52,51,55,36,37,80,,88,88,11,7,6,6,0.8,0.8
2025-01-17T0900,1410A,110.3232,20.0574,海口市,海南大学,颗粒物(PM10),64,78,72,34,31,100,,122,119,20,15,7,6,0.5,0.5
2025-01-17T0900,1411A,110.283,20.0053,海口市,秀英海南医院,颗粒物(PM10),62,74,68,41,38,103,,115,115,20,15,6,5,0.4,0.4
2025-01-17T0900,1412A,110.338,19.9969,海口市,海南师范大学,颗粒物(PM10),64,77,71,43,41,103,,119,119,19,13,7,7,0.5,0.5
2025-01-17T0900,1413A,110.33,20.0356,海口市,龙华路环保局宿舍,颗粒物(PM10),63,75,68,40,39,102,,123,121,21,16,8,7,0.5,0.5
2025-01-17T0900,3539A,110.5111,19.9736,海口市,桂林洋子站,颗粒物(PM10),61,71,77,40,42,99,,114,112,16,11,7,7,0.4,0.4
2025-01-17T0900,2673A,100.6188,36.2866,海南藏族自治州,共和县恰卜恰镇,,23,20,30,16,15,27,,29,26,26,23,12,11,0.5,0.6
2025-01-17T0900,2676A,97.3731,37.3753,海西蒙古族藏族自治州,德令哈市,,29,23,23,20,11,78,,79,79,6,11,14,15,0.4,0.5
2025-01-17T0900,1048A,114.5302,36.6116,邯郸市,东污水处理厂,细颗粒物(PM2.5),89,106,70,66,45,6,,8,7,53,47,23,12,1.9,1
2025-01-17T0900,1049A,114.4918,36.5713,邯郸市,矿院,细颗粒物(PM2.5),125,129,87,95,52,2,,2,2,63,58,12,11,1.7,1
2025-01-17T0900,1050A,114.484,36.6133,邯郸市,丛台公园,细颗粒物(PM2.5),107,124,80,80,42,5,,4,4,61,49,13,9,1.6,1
2025-01-17T0900,3458A,114.7895,36.5593,邯郸市,香泉濮院小区,细颗粒物(PM2.5),92,114,82,68,42,27,,19,19,48,38,15,12,1.0,0.7
2025-01-17T0900,3579A,114.50634,36.77178,邯郸市,永年区实验高中,细颗粒物(PM2.5),87,114,100,64,52,9,,7,7,59,53,28,15,1.9,1.2
2025-01-17T0900,3580A,114.20016,36.44293,邯郸市,峰峰矿区临水派出所,,50,50,53,30,28,35,,42,40,29,26,19,19,1.0,0.8
2025-01-17T0900,2634A,106.9893,33.1842,汉中市,汉川机床厂子校,细颗粒物(PM2.5),62,52,47,44,33,37,,42,40,13,8,6,7,0.9,0.7
2025-01-17T0900,2635A,107.0154,33.0706,汉中市,市监测站,细颗粒物(PM2.5),107,100,93,80,69,11,,19,17,50,45,6,7,1.6,1.3
2025-01-17T0900,2636A,107.0089,33.1138,汉中市,鑫源开发区,细颗粒物(PM2.5),109,85,96,82,84,9,,23,20,48,44,6,9,1.0,1.2
2025-01-17T0900,2637A,107.007,33.0323,汉中市,南郑大河坎水厂,细颗粒物(PM2.5),120,99,92,91,71,13,,29,25,38,30,2,5,1.5,1.2
2025-01-17T0900,1223A,120.2072,30.2111,杭州市,滨江,颗粒物(PM10),59,67,73,37,35,13,,5,5,43,53,7,7,0.6,0.6
2025-01-17T0900,1224A,120.0633,30.2747,杭州市,西溪,颗粒物(PM10),54,58,54,35,28,10,,4,4,50,41,7,7,0.8,0.7
2025-01-17T0900,1226A,120.3461,30.3153,杭州市,下沙,颗粒物(PM10),61,71,83,32,38,18,,4,4,44,59,9,9,0.7,0.7
2025-01-17T0900,1227A,120.1269,30.2456,杭州市,卧龙桥,,,,46,,23,,,40,,,36,,7,,0.4
2025-01-17T0900,1228A,120.1903,30.2692,杭州市,浙江农大,颗粒物(PM10),60,69,69,41,39,9,,3,3,50,54,9,8,0.7,0.6
2025-01-17T0900,1230A,120.1197,30.3119,杭州市,和睦小学,颗粒物(PM10),51,52,56,34,31,10,,4,4,49,50,8,8,0.9,0.8
2025-01-17T0900,1231A,120.3019,30.4183,杭州市,临平镇,颗粒物(PM10),67,84,80,44,40,8,,4,4,61,54,8,8,0.9,0.8
2025-01-17T0900,1232A,120.2697,30.1819,杭州市,城厢镇,颗粒物(PM10),60,69,73,38,34,17,,4,4,42,55,6,6,1.1,1.1
2025-01-17T0900,1233A,120.0883,30.1808,杭州市,云栖,颗粒物(PM10),56,61,54,32,25,14,,7,7,37,39,5,5,0.7,0.6
2025-01-17T0900,3557A,119.9464,30.0494,杭州市,镇二中,细颗粒物(PM2.5),52,52,56,36,32,12,,5,5,41,44,9,7,0.9,0.6
2025-01-17T0900,3558A,119.7183,30.2367,杭州市,市府大楼,细颗粒物(PM2.5),63,56,60,45,37,23,,21,21,41,36,8,7,0.9,0.8
2025-01-17T0900,3656A,120.1556,30.2864,杭州市,消防大队,颗粒物(PM10),61,71,68,35,33,16,,6,6,53,55,10,10,0.7,0.5
2025-01-17T0900,1270A,117.1959,31.7848,合肥市,明珠广场,"颗粒物(PM10),细颗粒物(PM2.5)",85,119,85,63,45,7,,8,8,62,53,9,11,1.0,0.8
2025-01-17T0900,1271A,117.3072,31.8764,合肥市,三里街,细颗粒物(PM2.5),100,144,96,75,51,2,,2,2,88,60,10,7,1.6,1.1
2025-01-17T0900,1272A,117.2588,31.8707,合肥市,琥珀山庄,细颗粒物(PM2.5),93,129,87,69,46,8,,5,5,56,45,8,7,1.2,0.7
2025-01-17T0900,1273A,117.1604,31.9052,合肥市,董铺水库,细颗粒物(PM2.5),85,112,85,63,36,9,,7,7,56,41,5,5,0.5,0.4
2025-01-17T0900,1274A,117.25,31.8571,合肥市,长江中路,细颗粒物(PM2.5),95,119,93,71,51,6,,4,4,79,58,9,8,1.8,1
2025-01-17T0900,1275A,117.266,31.9436,合肥市,庐阳区,细颗粒物(PM2.5),107,134,91,80,47,12,,8,8,56,40,6,5,0.7,0.5
2025-01-17T0900,1276A,117.336,31.8586,合肥市,瑶海区,颗粒物(PM10),108,166,99,78,45,6,,4,4,106,71,11,9,1.1,0.9
2025-01-17T0900,1277A,117.3027,31.7964,合肥市,包河区,细颗粒物(PM2.5),98,122,87,73,46,6,,4,4,94,76,10,8,1.0,0.7
2025-01-17T0900,1278A,117.2776,31.7385,合肥市,滨湖新区,颗粒物(PM10),89,127,93,58,38,2,,0,0,80,64,16,13,0.8,0.5
2025-01-17T0900,1279A,117.1318,31.8403,合肥市,高新区,细颗粒物(PM2.5),92,124,87,68,47,11,,9,9,68,56,9,8,1.0,0.7
2025-01-17T0900,3464A,117.3803,31.9147,合肥市,高教基地,细颗粒物(PM2.5),107,120,86,80,48,5,,4,3,69,48,9,8,0.7,0.6
2025-01-17T0900,3614A,79.924,37.0877,和田地区,地区环保局,颗粒物(PM10),99,148,163,63,64,31,,29,28,19,23,18,22,0.8,1
2025-01-17T0900,3615A,79.9131,37.113,和田地区,市环保局,颗粒物(PM10),116,182,179,77,78,7,,14,14,65,51,12,14,5.4,2.1
2025-01-17T0900,2516A,108.2011,24.715,河池市,东仁乐园,细颗粒物(PM2.5),87,113,97,64,50,23,,17,17,45,44,16,13,1.0,0.9
2025-01-17T0900,2517A,108.0497,24.6947,河池市,市环保站,颗粒物(PM10),64,78,76,42,42,20,,20,20,38,30,18,9,0.9,0.7
2025-01-17T0900,2518A,108.0983,24.6989,河池市,市疾控中心,细颗粒物(PM2.5),77,92,88,56,46,14,,9,9,42,41,9,7,0.7,0.6
2025-01-17T0900,1696A,114.6778,23.7569,河源市,源西,,40,40,51,20,26,52,,52,51,28,22,6,6,0.5,0.5
2025-01-17T0900,1697A,114.6944,23.7586,河源市,东埔,,38,38,59,25,31,61,,71,68,28,20,5,6,0.9,0.6
2025-01-17T0900,1698A,114.6892,23.7233,河源市,老城,,38,38,53,22,26,59,,54,51,23,20,5,5,0.7,0.7
2025-01-17T0900,1718A,115.4208,35.2464,菏泽市,气象局,细颗粒物(PM2.5),113,138,115,85,63,18,,8,8,70,57,13,13,1.1,1.1
2025-01-17T0900,3374A,115.5564,35.0891,菏泽市,定陶老年大学,细颗粒物(PM2.5),134,146,100,102,59,19,,8,8,,52,17,15,1.2,0.9
2025-01-17T0900,4184A,115.4797,35.24401,菏泽市,永昌路1号,细颗粒物(PM2.5),105,134,102,79,57,22,,10,10,62,54,18,15,1.0,0.9
2025-01-17T0900,4193A,115.4715,35.2800,菏泽市,长城路999号,颗粒物(PM10),88,125,113,64,52,14,,6,6,68,54,11,5,1.4,1.1
2025-01-17T0900,2514A,111.5264,24.4172,贺州市,环保小区,细颗粒物(PM2.5),73,83,82,53,51,27,,45,43,34,24,7,8,1.2,0.9
2025-01-17T0900,2515A,111.5608,24.4078,贺州市,政协大楼,颗粒物(PM10),60,70,80,40,43,11,,28,25,39,26,6,7,1.0,0.8
2025-01-17T0900,3534A,111.4744,24.4553,贺州市,西湾,细颗粒物(PM2.5),80,96,84,59,52,32,,45,41,37,23,9,8,0.9,0.7
2025-01-17T0900,2385A,114.17,35.9019,鹤壁市,市监测站,颗粒物(PM10),75,99,66,45,42,8,,26,24,39,33,4,6,1.1,0.7
2025-01-17T0900,2386A,114.2956,35.7511,鹤壁市,市交警支队,颗粒物(PM10),77,103,76,53,36,5,,4,4,64,55,5,5,1.1,0.9
2025-01-17T0900,2387A,114.2878,35.7306,鹤壁市,迎宾馆,颗粒物(PM10),79,108,66,45,27,4,,6,6,58,48,7,3,1.0,0.7
2025-01-17T0900,3474A,114.2617,35.6822,鹤壁市,大新区,细颗粒物(PM2.5),79,93,67,58,36,5,,8,6,57,43,10,8,0.8,0.5
2025-01-17T0900,3596A,114.1572,35.9603,鹤壁市,南山宾馆,颗粒物(PM10),77,104,66,52,50,43,,50,49,19,22,10,21,0.7,0.8
2025-01-17T0900,2244A,130.2537,47.3416,鹤岗市,哈啤分公司,细颗粒物(PM2.5),109,100,32,82,28,19,,39,36,36,10,17,16,1.6,0.6
2025-01-17T0900,2245A,130.2684,47.3086,鹤岗市,斯达机电,颗粒物(PM10),68,86,40,48,29,15,,38,33,44,16,21,16,1.2,0.5
2025-01-17T0900,2246A,130.3114,47.3388,鹤岗市,东山纸板厂,,,,16,,38,22,,13,13,,28,,15,5.2,1.6
2025-01-17T0900,2247A,130.1097,47.3382,鹤岗市,五号水库,,18,12,26,10,17,57,,51,51,11,10,8,8,0.2,0.2
2025-01-17T0900,2263A,127.4833,50.2524,黑河市,交通局,细颗粒物(PM2.5),69,76,35,50,23,15,,25,22,40,22,13,8,1.2,0.7
2025-01-17T0900,2264A,127.5144,50.2341,黑河市,环保局,细颗粒物(PM2.5),53,48,27,37,23,13,,30,27,41,16,18,8,0.9,0.4
2025-01-17T0900,2265A,127.5291,50.2472,黑河市,大黑河岛,,,65,27,43,23,6,,16,14,12,14,2,2,,
2025-01-17T0900,1074A,115.6838,37.7541,衡水市,电机北厂,颗粒物(PM10),78,105,74,38,32,24,,16,16,44,38,21,11,0.7,0.5
2025-01-17T0900,1075A,115.6303,37.7316,衡水市,市监测站,颗粒物(PM10),76,102,67,49,33,15,,9,8,57,43,20,14,0.9,0.6
2025-01-17T0900,3188A,115.6683,37.7217,衡水市,市城管局,颗粒物(PM10),78,106,74,39,34,15,,10,9,56,44,24,11,0.9,0.6
2025-01-17T0900,3459A,115.5989,37.5491,衡水市,地表水厂,细颗粒物(PM2.5),105,109,73,79,46,9,,7,7,67,58,26,15,1.3,0.8
2025-01-17T0900,2456A,112.5003,26.9167,衡阳市,原169医院,细颗粒物(PM2.5),70,59,74,51,47,19,,22,22,29,39,3,21,0.6,0.6
2025-01-17T0900,2457A,112.6194,26.9258,衡阳市,衡阳化工总厂,细颗粒物(PM2.5),88,72,90,65,62,10,,8,8,40,46,5,9,0.8,0.9
2025-01-17T0900,2458A,112.6211,26.8956,衡阳市,珠晖区环保局,细颗粒物(PM2.5),80,72,88,59,57,11,,7,7,46,54,9,11,0.9,0.9
2025-01-17T0900,2459A,112.6197,26.8733,衡阳市,市委党校,细颗粒物(PM2.5),102,92,94,76,62,8,,6,4,44,40,9,12,1.2,1.1
2025-01-17T0900,2460A,112.6006,26.8919,衡阳市,市监测站,细颗粒物(PM2.5),90,89,106,67,71,9,,14,14,40,45,8,10,0.8,0.9
2025-01-17T0900,2461A,112.5664,26.9056,衡阳市,真空机电公司,细颗粒物(PM2.5),80,86,103,59,57,23,,25,25,34,41,4,8,0.8,1
2025-01-17T0900,3399A,112.6703,26.882,衡阳市,师范学院,细颗粒物(PM2.5),102,105,101,76,64,7,,6,4,36,39,8,11,1.0,0.8
2025-01-17T0900,2608A,103.3772,23.3993,红河哈尼族彝族自治州,污水处理厂,细颗粒物(PM2.5),82,90,74,60,66,99,,104,104,20,12,16,11,0.7,0.5
2025-01-17T0900,2609A,103.3861,23.35,红河哈尼族彝族自治州,监测站,细颗粒物(PM2.5),85,75,74,63,61,100,,104,102,16,11,7,7,0.6,0.5
2025-01-17T0900,3038A,103.3758,23.368,红河哈尼族彝族自治州,州图书馆,细颗粒物(PM2.5),72,71,70,52,59,93,,95,94,15,12,10,9,0.6,0.5
2025-01-17T0900,1090A,111.6507,40.7517,呼和浩特市,呼市一监,颗粒物(PM10),60,70,78,28,36,12,,10,10,52,48,13,14,1.0,0.8
2025-01-17T0900,1091A,111.6572,40.8033,呼和浩特市,小召,颗粒物(PM10),58,66,78,28,35,10,,9,9,62,57,12,13,1.3,0.9
2025-01-17T0900,1094A,111.7516,40.8369,呼和浩特市,如意水处理厂,颗粒物(PM10),61,71,71,34,31,5,,4,4,54,53,15,14,1.2,0.9
2025-01-17T0900,1095A,111.7276,40.8062,呼和浩特市,二十九中,颗粒物(PM10),54,57,70,31,31,6,,5,5,60,50,12,13,1.2,0.7
2025-01-17T0900,1096A,111.5512,40.7866,呼和浩特市,工大金川校区,颗粒物(PM10),57,63,76,33,31,6,,5,4,55,50,10,12,1.1,0.7
2025-01-17T0900,1097A,111.717,40.7612,呼和浩特市,化肥厂生活区,颗粒物(PM10),78,105,81,55,34,7,,3,3,54,53,11,12,2.0,1
2025-01-17T0900,3698A,111.5968,40.8178,呼和浩特市,红旗小学,颗粒物(PM10),71,92,82,42,34,5,,3,3,57,52,13,12,1.4,0.9
2025-01-17T0900,3699A,111.6518,40.8389,呼和浩特市,海东办,细颗粒物(PM2.5),69,83,80,50,38,5,,4,4,58,52,7,9,1.4,0.9
2025-01-17T0900,2192A,119.7594,49.2261,呼伦贝尔市,区环保局,,20,20,18,12,17,49,,63,60,18,11,6,7,0.5,0.4
2025-01-17T0900,3061A,119.7512,49.1577,呼伦贝尔市,国华电力东,,27,27,22,12,11,60,,68,67,7,5,4,5,0.4,0.3
2025-01-17T0900,1250A,120.0751,30.8669,湖州市,城西水厂,细颗粒物(PM2.5),67,79,77,48,39,14,,10,10,57,52,12,10,0.7,0.6
2025-01-17T0900,2873A,120.0875,30.8955,湖州市,仁皇山新区,"颗粒物(PM10),细颗粒物(PM2.5)",70,89,77,51,39,12,,9,9,68,56,10,10,0.8,0.6
2025-01-17T0900,2907A,120.1844,30.8596,湖州市,吴兴区站,颗粒物(PM10),76,102,72,46,37,15,,6,6,60,51,13,8,0.5,0.5
2025-01-17T0900,3562A,120.4148,30.8538,湖州市,南浔区站,,,,71,,38,12,,5,5,57,49,12,11,0.7,0.5
2025-01-17T0900,1607A,120.9092,40.7136,葫芦岛市,龙港区,颗粒物(PM10),53,56,38,32,17,42,,47,45,42,23,24,17,0.5,0.2
2025-01-17T0900,1608A,120.8392,40.7514,葫芦岛市,化工街,颗粒物(PM10),87,124,70,63,31,9,,6,6,85,47,34,19,1.8,1.1
2025-01-17T0900,1609A,120.8341,40.7073,葫芦岛市,新区,,33,33,37,22,15,35,,20,20,41,42,10,16,0.5,0.4
2025-01-17T0900,1610A,120.8695,40.7677,葫芦岛市,东城区,细颗粒物(PM2.5),173,152,69,131,43,13,,10,10,70,46,41,26,2.9,1.4
2025-01-17T0900,2482A,109.5981,27.5721,怀化市,林科所,细颗粒物(PM2.5),55,57,54,39,30,18,,34,30,40,23,14,8,1.6,1.2
2025-01-17T0900,2483A,109.9453,27.5444,怀化市,河西地税局,细颗粒物(PM2.5),77,74,88,56,55,13,,10,10,23,26,2,4,0.8,0.7
2025-01-17T0900,2484A,109.9781,27.5342,怀化市,市四医院,细颗粒物(PM2.5),94,101,91,70,52,13,,11,10,43,34,5,10,1.4,1.1
2025-01-17T0900,2485A,109.9972,27.5578,怀化市,监测楼,细颗粒物(PM2.5),80,100,84,59,50,11,,10,10,40,28,7,3,1.0,0.9
2025-01-17T0900,2486A,110.0394,27.583,怀化市,市委党校,细颗粒物(PM2.5),75,89,86,55,49,6,,3,3,41,34,10,8,0.9,0.8
2025-01-17T0900,1210A,119.036,33.5981,淮安市,钵池山,细颗粒物(PM2.5),109,122,97,82,55,13,,13,13,73,49,12,11,1.0,0.9
2025-01-17T0900,1211A,119.007,33.575,淮安市,北京南路,细颗粒物(PM2.5),119,173,106,90,58,5,,2,2,82,57,14,12,1.5,1.1
2025-01-17T0900,1212A,118.989,33.6067,淮安市,市监测站,细颗粒物(PM2.5),163,178,102,124,74,2,,14,11,81,51,12,11,1.4,0.8
2025-01-17T0900,1213A,119.135,33.5039,淮安市,楚州区监测站,细颗粒物(PM2.5),119,161,115,90,61,5,,3,3,81,58,12,9,1.1,0.7
2025-01-17T0900,1214A,119.0186,33.6297,淮安市,淮阴区监测站,细颗粒物(PM2.5),128,190,110,97,57,1,,8,6,79,56,12,10,1.8,0.9
2025-01-17T0900,3426A,118.8755,33.2894,淮安市,新华书店,细颗粒物(PM2.5),105,139,88,79,58,5,,8,6,61,44,9,9,1.1,0.7
2025-01-17T0900,2282A,116.8004,33.975,淮北市,监测站,细颗粒物(PM2.5),124,129,99,94,58,11,,4,4,55,42,16,10,1.1,0.7
2025-01-17T0900,2283A,116.8091,33.9007,淮北市,烈山区政府,细颗粒物(PM2.5),112,138,110,84,66,21,,10,10,51,50,10,8,0.9,0.9
2025-01-17T0900,3330A,116.8873,33.9836,淮北市,杜集区检察院,细颗粒物(PM2.5),122,124,107,92,70,16,,19,16,29,25,5,7,0.8,0.7
2025-01-17T0900,4017A,116.7923,33.9535,淮北市,市博物馆,细颗粒物(PM2.5),119,121,109,90,74,10,,3,3,55,49,11,9,1.1,0.7
2025-01-17T0900,2277A,116.8305,32.7727,淮南市,潘集区政府,细颗粒物(PM2.5),125,154,110,95,68,12,,9,9,65,44,13,11,0.9,0.6
2025-01-17T0900,2279A,116.8569,32.5951,淮南市,谢家集区政府,细颗粒物(PM2.5),93,112,82,69,41,19,,33,30,55,27,11,9,0.8,0.6
2025-01-17T0900,2280A,116.8281,32.633,淮南市,八公山区政府,细颗粒物(PM2.5),79,94,83,58,41,28,,35,32,46,27,7,6,0.8,0.5
2025-01-17T0900,2281A,116.6325,32.6201,淮南市,焦岗湖风景区管理处,细颗粒物(PM2.5),135,136,83,103,50,6,,7,7,30,24,7,6,0.7,0.4
2025-01-17T0900,2894A,117.0566,32.6531,淮南市,经济技术开发区消防队,颗粒物(PM10),88,126,107,55,56,8,,6,5,45,39,9,9,0.8,0.7
2025-01-17T0900,3329A,117.0108,32.5893,淮南市,山南新区,细颗粒物(PM2.5),102,130,95,76,49,15,,36,33,54,31,11,10,0.8,0.6
2025-01-17T0900,4209A,117.0031,32.6445,淮南市,国庆中路369号,细颗粒物(PM2.5),75,91,91,55,54,8,,2,2,53,43,16,12,1.3,0.9
2025-01-17T0900,2446A,114.9028,30.4742,黄冈市,职工中心,细颗粒物(PM2.5),85,103,96,63,56,20,,30,30,41,41,8,10,0.8,0.7
2025-01-17T0900,2929A,114.8858,30.4519,黄冈市,红卫路,细颗粒物(PM2.5),88,91,98,65,58,34,,30,30,32,46,6,8,0.9,0.8
2025-01-17T0900,3398A,114.9136,30.4445,黄冈市,市林业局,细颗粒物(PM2.5),93,91,89,69,57,23,,26,26,34,41,9,12,0.8,0.8
2025-01-17T0900,2672A,102.0199,35.5102,黄南藏族自治州,同仁县隆务镇,,23,23,67,10,10,49,,54,53,1,5,8,6,0.4,0.5
2025-01-17T0900,2295A,118.2903,29.6963,黄山市,延安路89号,,43,30,37,30,23,16,,14,14,16,17,4,4,0.4,0.3
2025-01-17T0900,2296A,118.327,29.7178,黄山市,黄山东路89号,,47,47,48,25,23,14,,18,16,22,21,6,6,0.5,0.4
2025-01-17T0900,2297A,118.1371,30.2756,黄山市,黄山区政府5号楼,,38,38,41,26,25,27,,24,23,10,10,7,8,0.5,0.5
2025-01-17T0900,2423A,115.0601,30.2313,黄石市,沈家营,细颗粒物(PM2.5),73,83,86,53,45,34,,20,20,39,46,10,11,0.7,0.7
2025-01-17T0900,2426A,114.8988,30.2019,黄石市,铁山,细颗粒物(PM2.5),90,93,77,67,43,27,,20,20,49,43,18,11,0.8,0.7
2025-01-17T0900,2427A,115.0307,30.2092,黄石市,团城山,颗粒物(PM10),72,93,80,50,44,18,,15,14,48,39,7,11,0.8,0.8
2025-01-17T0900,3149A,115.0235,30.1578,黄石市,笔架山北路,细颗粒物(PM2.5),104,100,73,78,47,18,,24,21,50,33,15,12,1.3,0.9
2025-01-17T0900,4185A,115.0780,30.21118,黄石市,磁湖东路29号,细颗粒物(PM2.5),70,81,80,51,48,30,,15,15,41,44,6,10,0.8,0.8
2025-01-17T0900,1392A,114.4183,23.0528,惠州市,河南岸金山湖子站,,44,44,59,18,30,72,,80,78,19,16,10,9,0.5,0.6
2025-01-17T0900,1393A,114.4053,23.0822,惠州市,下埔横江三路子站,,46,46,62,21,31,74,,80,78,20,18,9,9,0.4,0.5
2025-01-17T0900,1394A,114.4103,23.1142,惠州市,江北云山西路子站,,43,43,60,20,29,79,,84,83,19,19,10,9,0.6,0.7
2025-01-17T0900,1395A,114.4645,22.7833,惠州市,惠阳区承修路船湖子站,颗粒物(PM10),53,55,85,21,34,53,,55,55,24,22,10,10,0.4,0.5
2025-01-17T0900,1396A,114.5317,22.7422,惠州市,大亚湾管委会子站,,44,44,67,20,33,63,,63,62,26,32,11,12,0.5,0.6
2025-01-17T0900,3314A,114.4338,22.8134,惠州市,惠阳秋长,,46,46,69,20,31,80,,78,77,16,18,10,11,0.5,0.6
2025-01-17T0900,3452A,114.6517,22.775,惠州市,大亚湾霞涌,,36,36,67,18,38,73,,70,70,14,18,8,9,0.7,0.6
2025-01-17T0900,2240A,130.9762,45.3001,鸡西市,环保局,细颗粒物(PM2.5),52,45,44,36,30,14,,42,37,53,20,17,8,1.6,0.6
2025-01-17T0900,2243A,130.9429,45.3039,鸡西市,第一中学,,33,31,46,23,26,30,,43,40,25,15,11,8,0.3,0.2
2025-01-17T0900,3707A,131.0207,45.3073,鸡西市,欧美日汽修厂,细颗粒物(PM2.5),113,114,77,85,49,12,,22,18,54,32,28,17,1.2,0.6
2025-01-17T0900,3709A,130.9967,45.3106,鸡西市,市政设施管理处,细颗粒物(PM2.5),62,53,54,44,35,12,,20,16,52,33,11,7,1.0,0.5
2025-01-17T0900,2367A,114.9754,27.0803,吉安市,红声器材厂,颗粒物(PM10),60,69,71,35,30,14,,14,14,34,33,13,10,0.7,0.6
2025-01-17T0900,2368A,114.9658,27.0999,吉安市,市森林工业局,颗粒物(PM10),55,59,63,36,31,24,,21,21,34,23,15,13,0.7,0.7
2025-01-17T0900,2369A,114.99,27.1312,吉安市,市环境监测站,颗粒物(PM10),53,56,63,35,36,17,,19,17,33,31,15,16,0.7,0.6
2025-01-17T0900,2370A,115.0093,27.0968,吉安市,青原区法院,颗粒物(PM10),59,67,69,36,35,24,,10,10,40,45,10,11,0.6,0.5
2025-01-17T0900,1772A,126.54,43.8622,吉林市,哈达湾,,37,37,42,21,29,58,,56,56,20,23,11,10,0.8,0.8
2025-01-17T0900,1773A,126.5844,43.8358,吉林市,东局子,,41,41,36,21,21,45,,52,51,28,21,12,8,0.7,0.6
2025-01-17T0900,1774A,126.5052,43.8245,吉林市,电力学院,,35,31,52,24,40,51,,48,48,22,26,11,11,0.8,1
2025-01-17T0900,1775A,126.6133,43.8972,吉林市,江北,,34,34,48,17,28,48,,54,54,28,24,75,23,0.6,0.7
2025-01-17T0900,1776A,126.555,43.8306,吉林市,江南公园,,43,41,41,30,29,42,,50,50,35,24,11,8,0.9,0.9
2025-01-17T0900,1778A,126.7061,43.7133,吉林市,丰满,,,,,,,,,,,,,,,,
2025-01-17T0900,2868A,126.4739,43.953,吉林市,九站,,,,37,,22,,,,,44,32,12,12,0.9,0.8
2025-01-17T0900,1299A,116.9862,36.6114,济南市,科干所,颗粒物(PM10),51,51,61,22,23,31,,33,33,44,38,9,12,0.8,0.7
2025-01-17T0900,1300A,116.9376,36.665,济南市,农科所,颗粒物(PM10),61,71,94,22,30,19,,10,10,54,56,18,18,1.0,0.9
2025-01-17T0900,1301A,117.1265,36.6734,济南市,开发区,颗粒物(PM10),56,61,68,20,31,17,,22,22,69,52,8,11,1.0,0.8
2025-01-17T0900,1303A,117.0624,36.6868,济南市,省种子仓库,颗粒物(PM10),60,70,92,24,30,10,,7,7,57,46,11,11,1.1,0.9
2025-01-17T0900,1304A,116.9489,36.6447,济南市,机床二厂,颗粒物(PM10),68,85,96,27,34,21,,10,10,47,47,37,27,1.2,1.1
2025-01-17T0900,1305A,117.0495,36.663,济南市,市监测站,颗粒物(PM10),57,63,70,20,23,13,,16,16,61,49,10,11,1.2,0.9
2025-01-17T0900,1306A,116.7675,36.5484,济南市,长清党校,颗粒物(PM10),62,73,80,34,38,15,,9,9,55,51,10,12,0.9,0.8
2025-01-17T0900,1616A,117.6795,36.229,济南市,技术学院,颗粒物(PM10),67,83,83,46,38,11,,5,5,49,48,15,16,1.5,1.2
2025-01-17T0900,1961A,117.532,36.6868,济南市,东山小学,,42,42,75,15,26,25,,20,20,50,45,8,10,0.8,0.9
2025-01-17T0900,3059A,117.7161,36.2049,济南市,泰兴公司,"颗粒物(PM10),细颗粒物(PM2.5)",89,127,104,66,52,11,,8,8,60,51,19,18,1.5,1.1
2025-01-17T0900,3064A,117.6867,36.2171,济南市,莱芜战役纪念馆,颗粒物(PM10),82,114,94,51,42,13,,10,10,64,55,16,16,1.4,1
2025-01-17T0900,3494A,117.1673,36.9782,济南市,济阳区政府,颗粒物(PM10),78,105,85,54,34,13,,13,13,54,41,19,18,0.8,0.4
2025-01-17T0900,3495A,117.1171,36.63,济南市,锦屏中学,,24,24,50,12,21,46,,49,49,33,30,7,8,0.7,0.5
2025-01-17T0900,3682A,116.9814,36.6819,济南市,济南四建,颗粒物(PM10),67,83,86,32,33,12,,5,5,62,60,30,18,1.1,0.7
2025-01-17T0900,1653A,116.6251,35.4302,济宁市,火炬城,颗粒物(PM10),81,111,80,58,36,11,,6,6,60,49,5,10,1.3,0.8
2025-01-17T0900,1655A,116.5491,35.4042,济宁市,电化厂,颗粒物(PM10),92,134,107,61,49,8,,4,4,63,56,19,18,1.3,0.9
2025-01-17T0900,3500A,116.5814,35.3707,济宁市,北湖一中,细颗粒物(PM2.5),94,114,83,70,45,12,,9,7,64,53,16,11,1.5,1.1
2025-01-17T0900,3501A,116.8249,35.5593,济宁市,服务中心,细颗粒物(PM2.5),107,154,110,80,53,9,,6,6,68,59,22,18,1.9,1.1
2025-01-17T0900,3678A,116.5907,35.4054,济宁市,市第七中学,细颗粒物(PM2.5),100,115,87,75,46,14,,10,10,62,51,16,10,1.6,1.1
2025-01-17T0900,2255A,130.2751,46.8028,佳木斯市,佳纺,细颗粒物(PM2.5),68,57,55,49,48,20,,34,32,62,29,18,7,1.0,0.8
2025-01-17T0900,2256A,130.3995,46.8307,佳木斯市,发电厂,细颗粒物(PM2.5),64,47,42,46,44,26,,26,26,36,29,12,7,0.9,0.7
2025-01-17T0900,2257A,130.3258,46.7975,佳木斯市,环保局,细颗粒物(PM2.5),58,49,48,41,41,28,,27,26,35,35,12,11,0.8,0.8
2025-01-17T0900,2258A,130.3648,46.8032,佳木斯市,十一中,细颗粒物(PM2.5),53,,42,37,40,23,,32,30,48,35,10,7,1.1,0.8
2025-01-17T0900,2259A,130.3794,46.7588,佳木斯市,四丰,颗粒物(PM10),61,71,56,21,26,49,,54,53,10,11,1,1,0.9,0.8
2025-01-17T0900,1252A,120.7436,30.778,嘉兴市,清河小学,细颗粒物(PM2.5),72,83,77,52,45,8,,4,4,81,74,13,12,1.3,1.1
2025-01-17T0900,1253A,120.726,30.7478,嘉兴市,嘉兴学院,颗粒物(PM10),74,97,78,53,42,8,,4,4,70,54,9,10,1.3,1
2025-01-17T0900,2872A,120.7846,30.7525,嘉兴市,南湖区残联,细颗粒物(PM2.5),77,89,72,56,39,14,,8,8,68,52,11,11,1.0,0.7
2025-01-17T0900,3407A,120.6916,30.7739,嘉兴市,秀洲住建,细颗粒物(PM2.5),78,83,80,57,45,12,,4,4,62,55,9,8,0.7,0.6
2025-01-17T0900,1945A,98.2908,39.7711,嘉峪关市,气象局,,41,41,68,9,37,73,,41,41,11,31,6,33,0.6,1.2
2025-01-17T0900,2884A,98.2672,39.7978,嘉峪关市,酒钢宾馆,,48,48,82,9,37,66,,37,37,16,34,16,51,0.5,1.2
2025-01-17T0900,3248A,98.2643,39.7724,嘉峪关市,雄关区,,33,33,66,18,42,70,,36,36,19,40,5,12,0.2,0.7
2025-01-17T0900,1383A,113.1064,22.6058,江门市,北街,,46,46,64,23,34,55,,44,44,48,53,5,6,0.7,0.7
2025-01-17T0900,1384A,113.0731,22.5835,江门市,西区,颗粒物(PM10),60,70,81,23,35,48,,41,41,44,46,7,8,0.6,0.6
2025-01-17T0900,1385A,113.0219,22.5311,江门市,圭峰西,,32,32,60,20,33,69,,53,53,31,37,6,7,0.4,0.5
2025-01-17T0900,1386A,113.0828,22.5947,江门市,东湖,,46,46,67,30,36,60,,44,44,35,39,6,7,0.4,0.4
2025-01-17T0900,3311A,113.1075,22.5647,江门市,江海富民,颗粒物(PM10),61,72,75,23,30,57,,44,44,41,50,8,9,0.4,0.4
2025-01-17T0900,3449A,113.05,22.4667,江门市,新会银湖,颗粒物(PM10),54,57,69,28,42,35,,10,10,55,55,6,7,0.6,0.6
2025-01-17T0900,1828A,113.227,35.2125,焦作市,市环保局,颗粒物(PM10),79,108,63,57,36,9,,23,19,44,28,13,11,1.4,0.8
2025-01-17T0900,1830A,113.1992,35.2590,焦作市,影视城,,,,43,,27,,,67,,,16,,11,,0.6
2025-01-17T0900,3169A,113.2725,35.2067,焦作市,太极体育中心,颗粒物(PM10),91,131,72,36,17,5,,11,9,63,41,27,16,1.2,0.6
2025-01-17T0900,3335A,113.3137,35.2641,焦作市,马村街道办,颗粒物(PM10),75,100,61,45,30,16,,25,24,39,27,15,12,1.2,0.9
2025-01-17T0900,3336A,113.2465,35.2373,焦作市,焦作技师学院,颗粒物(PM10),63,75,52,31,26,23,,35,33,43,28,10,9,1.2,0.6
2025-01-17T0900,3477A,113.1656,35.2539,焦作市,中站许衡医院,"颗粒物(PM10),细颗粒物(PM2.5)",54,57,45,38,27,37,,37,36,36,26,16,13,0.9,0.7
2025-01-17T0900,3981A,113.2449,35.1803,焦作市,原李万街道办,颗粒物(PM10),86,121,75,63,31,6,,13,10,49,30,35,22,1.5,0.9
2025-01-17T0900,1708A,116.3701,23.5345,揭阳市,新兴,细颗粒物(PM2.5),79,85,81,58,54,39,,63,58,39,26,10,8,0.8,0.7
2025-01-17T0900,1709A,116.3264,23.5443,揭阳市,西马,细颗粒物(PM2.5),74,82,86,54,48,31,,57,50,50,28,11,9,0.8,0.7
2025-01-17T0900,1710A,116.3611,23.5626,揭阳市,东兴,颗粒物(PM10),75,99,93,48,50,33,,42,37,44,35,12,13,1.1,0.9
2025-01-17T0900,1711A,116.4151,23.5294,揭阳市,渔湖,细颗粒物(PM2.5),74,68,87,54,53,28,,53,46,51,33,22,15,0.9,0.9
2025-01-17T0900,3320A,116.403,23.5699,揭阳市,曲溪,细颗粒物(PM2.5),79,87,95,58,61,39,,45,42,37,30,7,9,0.8,0.8
2025-01-17T0900,1944A,102.1692,38.5167,金昌市,天庆家园,细颗粒物(PM2.5),74,,83,54,74,22,,40,38,45,33,14,33,1.8,1.2
2025-01-17T0900,3170A,102.1864,38.5253,金昌市,市委党校,,,,101,,62,,,42,,,33,,27,,1.0
2025-01-17T0900,4022A,102.1647,38.5371,金昌市,金川区人防中心,,38,30,80,26,63,62,,56,56,15,19,14,32,0.7,0.8
2025-01-17T0900,1262A,119.647,29.077,金华市,十五中,细颗粒物(PM2.5),93,101,79,69,42,23,,12,12,42,47,8,4,0.5,0.4
2025-01-17T0900,1263A,119.686,29.1029,金华市,监测站,"颗粒物(PM10),细颗粒物(PM2.5)",73,96,80,53,41,8,,2,2,48,49,7,6,0.7,0.5
2025-01-17T0900,3659A,119.656,29.1131,金华市,气象局,细颗粒物(PM2.5),87,98,102,64,49,10,,2,2,52,59,6,6,0.6,0.7
2025-01-17T0900,1767A,121.1115,41.0879,锦州市,南山,细颗粒物(PM2.5),89,74,67,66,52,26,,17,17,36,42,17,13,1.7,1.2
2025-01-17T0900,1768A,121.0533,40.8434,锦州市,开发区,细颗粒物(PM2.5),150,239,97,115,33,8,,7,7,118,65,37,26,2.1,0.8
2025-01-17T0900,1769A,121.1836,41.1119,锦州市,百股街道,细颗粒物(PM2.5),134,108,80,102,58,12,,8,8,59,46,23,14,2.3,1.4
2025-01-17T0900,1770A,121.1178,41.1222,锦州市,天安街道,细颗粒物(PM2.5),100,95,82,75,61,16,,15,15,41,36,18,20,1.6,1.3
2025-01-17T0900,1771A,121.1303,41.1386,锦州市,北湖公园,细颗粒物(PM2.5),83,82,63,61,46,14,,14,14,53,40,25,26,1.5,1.1
2025-01-17T0900,2160A,112.85,35.5051,晋城市,自来水公司,细颗粒物(PM2.5),70,81,56,51,33,9,,5,5,39,36,29,17,2.0,1
2025-01-17T0900,2161A,112.8318,35.4936,晋城市,白云商贸,颗粒物(PM10),62,74,52,29,15,17,,25,23,44,34,13,12,1.6,0.9
2025-01-17T0900,2162A,112.8508,35.4887,晋城市,市环保局,颗粒物(PM10),83,116,58,53,27,12,,8,8,44,40,28,16,1.9,1
2025-01-17T0900,2163A,112.8676,35.4897,晋城市,技术学院,颗粒物(PM10),67,83,50,44,27,11,,10,10,48,43,32,16,2.0,0.9
2025-01-17T0900,2165A,112.8453,35.546,晋城市,白马寺,颗粒物(PM10),65,80,46,39,25,17,,27,25,31,16,32,20,1.8,0.9
2025-01-17T0900,3620A,112.8271,35.4828,晋城市,泽州一中,细颗粒物(PM2.5),58,62,35,41,22,18,,26,23,44,30,11,12,1.5,0.9
2025-01-17T0900,2173A,112.7249,37.7067,晋中市,南都小区,颗粒物(PM10),83,115,80,42,41,10,,6,6,44,47,20,20,1.3,0.8
2025-01-17T0900,2174A,112.6991,37.6982,晋中市,榆次区政府,颗粒物(PM10),85,119,74,37,34,8,,11,11,44,41,19,20,1.6,1
2025-01-17T0900,2865A,112.7195,37.6828,晋中市,榆次三中,颗粒物(PM10),74,97,76,39,33,9,,9,9,38,44,16,20,1.2,0.9
2025-01-17T0900,4200A,112.7478,37.6954,晋中市,榆次一中,颗粒物(PM10),133,215,83,53,36,13,,14,14,38,40,25,19,1.2,0.8
2025-01-17T0900,2439A,112.2014,31.0481,荆门市,竹园小学,细颗粒物(PM2.5),147,138,120,112,68,6,,21,20,76,48,15,13,1.7,0.8
2025-01-17T0900,2440A,112.1969,30.9891,荆门市,掇刀,细颗粒物(PM2.5),144,156,133,110,77,29,,23,23,72,50,16,14,1.0,0.8
2025-01-17T0900,2441A,112.2213,31.0386,荆门市,石化一小,细颗粒物(PM2.5),165,186,136,125,76,9,,9,8,85,58,17,12,1.6,1
2025-01-17T0900,3012A,112.1849,31.0362,荆门市,西山林语,细颗粒物(PM2.5),130,133,109,99,78,26,,52,46,59,27,3,4,1.2,0.5
2025-01-17T0900,3547A,112.1632,31.0138,荆门市,龙泉中学南校,细颗粒物(PM2.5),134,147,124,102,72,61,,47,46,28,28,13,13,0.9,0.7
2025-01-17T0900,1844A,112.2494,30.3197,荆州市,市图书馆,细颗粒物(PM2.5),140,136,105,107,73,8,,4,4,76,61,7,6,1.4,0.9
2025-01-17T0900,1845A,112.2008,30.3544,荆州市,市委党校,细颗粒物(PM2.5),152,144,113,116,78,6,,4,4,62,57,12,7,1.3,0.8
2025-01-17T0900,3194A,112.2747,30.3122,荆州市,管委会,细颗粒物(PM2.5),155,175,118,118,78,9,,6,6,54,45,9,7,1.7,1
2025-01-17T0900,3548A,112.1655,30.3364,荆州市,学苑路,,,,,,,,,,,,,,,,
2025-01-17T0900,2342A,117.3102,29.3867,景德镇市,王港中学,,,,,,,,,,,,,,,,
2025-01-17T0900,2343A,117.2117,29.2933,景德镇市,老干部活动中心,,48,48,50,28,27,14,,6,6,28,31,3,4,0.5,0.6
2025-01-17T0900,2344A,117.1894,29.2789,景德镇市,兽医站,颗粒物(PM10),56,62,57,24,21,24,,15,15,28,27,3,7,0.7,0.7
2025-01-17T0900,2345A,117.1547,29.2617,景德镇市,台达陶瓷,,42,42,63,17,26,40,,13,13,15,39,3,37,0.3,0.5
2025-01-17T0900,2346A,117.2461,29.2956,景德镇市,陶研所,颗粒物(PM10),52,54,46,26,20,8,,3,3,26,28,4,5,0.7,0.6
2025-01-17T0900,1803A,115.9872,29.6815,九江市,十里,颗粒物(PM10),58,66,62,40,35,7,,4,4,40,40,7,8,1.1,0.7
2025-01-17T0900,1804A,115.9584,29.7046,九江市,茅山头,细颗粒物(PM2.5),65,78,66,47,31,13,,7,7,53,50,7,7,0.9,0.9
2025-01-17T0900,1805A,115.9877,29.7295,九江市,西园,细颗粒物(PM2.5),63,60,60,45,33,9,,5,5,52,55,10,11,0.6,0.6
2025-01-17T0900,1806A,116.0172,29.6547,九江市,五七二七厂,,,,,,,,,,,,,,,,
2025-01-17T0900,1808A,115.9114,29.6038,九江市,综合工业园,细颗粒物(PM2.5),67,66,64,48,39,20,,15,15,46,43,6,8,0.9,0.9
2025-01-17T0900,1809A,116.0721,29.7535,九江市,石化总厂,细颗粒物(PM2.5),80,59,63,59,41,29,,29,29,33,38,10,12,0.6,0.9
2025-01-17T0900,1810A,115.9773,29.5698,九江市,庐山气象台,,30,30,36,21,18,96,,96,96,7,8,6,9,1.2,0.9
2025-01-17T0900,3190A,116.0254,29.6994,九江市,外国语学校,颗粒物(PM10),60,70,68,41,40,21,,8,8,34,42,9,9,1.5,1.3
2025-01-17T0900,2658A,98.5061,39.7443,酒泉市,仓门街子站,颗粒物(PM10),67,83,70,36,39,7,,17,17,48,28,29,20,1.4,0.8
2025-01-17T0900,2659A,98.4989,39.7256,酒泉市,油田生活基地,,,,,,,,,,,,,,,,
2025-01-17T0900,2698A,76.0072,39.4467,喀什地区,巡警大队,颗粒物(PM10),96,142,185,57,74,4,,14,10,54,63,3,8,3.3,2.7
2025-01-17T0900,2699A,75.9755,39.4694,喀什地区,吾办,细颗粒物(PM2.5),88,112,156,65,87,15,,13,12,50,61,3,2,1.9,2
2025-01-17T0900,4027A,75.9483,39.4689,喀什地区,老干局,细颗粒物(PM2.5),117,175,212,88,100,6,,8,8,50,63,3,6,5.3,4.2
2025-01-17T0900,1824A,114.3389,34.7781,开封市,肿瘤医院,细颗粒物(PM2.5),127,134,86,96,51,6,,6,6,65,45,24,9,1.3,0.8
2025-01-17T0900,1826A,114.2885,34.7965,开封市,世纪星幼儿园,细颗粒物(PM2.5),117,92,72,88,55,13,,11,11,60,43,10,8,0.9,0.7
2025-01-17T0900,3147A,114.3438,34.8106,开封市,龙亭公园,细颗粒物(PM2.5),118,121,84,89,53,10,,7,7,62,47,13,8,1.2,0.9
2025-01-17T0900,3210A,114.3644,34.7964,开封市,汴京公园,细颗粒物(PM2.5),129,142,101,98,60,6,,4,4,66,53,10,10,1.3,0.9
2025-01-17T0900,3473A,114.2485,34.8306,开封市,技师学院,"颗粒物(PM10),细颗粒物(PM2.5)",65,80,66,47,32,23,,19,19,58,46,8,7,0.9,0.8
2025-01-17T0900,3592A,114.4644,34.7556,开封市,祥符区生态环境局,细颗粒物(PM2.5),125,125,91,95,52,12,,9,9,59,51,7,14,0.9,0.8
2025-01-17T0900,1951A,84.895,45.6094,克拉玛依市,长征新村,颗粒物(PM10),70,90,77,45,53,37,,41,40,28,29,8,9,0.8,0.9
2025-01-17T0900,1952A,84.8988,45.5893,克拉玛依市,南林小区,细颗粒物(PM2.5),104,110,78,78,58,29,,50,48,26,20,4,6,1.2,1
2025-01-17T0900,1954A,84.905,44.3396,克拉玛依市,独山子区,细颗粒物(PM2.5),119,,101,90,88,56,,27,27,40,62,4,6,0.8,1
2025-01-17T0900,1955A,85.6979,46.098,克拉玛依市,乌尔禾区商贸楼,细颗粒物(PM2.5),95,74,57,71,56,17,,24,21,58,48,4,6,1.2,1.3
2025-01-17T0900,3612A,85.1045,45.6899,克拉玛依市,白碱滩区新站,细颗粒物(PM2.5),95,109,69,71,51,18,,37,34,37,28,6,7,1.4,1.1
2025-01-17T0900,2697A,76.1454,39.7142,克孜勒苏柯尔克孜自治州,市人民政府,颗粒物(PM10),82,114,108,58,54,42,,44,44,15,21,4,5,1.3,1.1
2025-01-17T0900,3665A,76.1658,39.7157,克孜勒苏柯尔克孜自治州,克州文化中心,细颗粒物(PM2.5),77,99,107,56,54,44,,48,48,23,25,8,9,1.0,1
2025-01-17T0900,1450A,102.8204,24.8886,昆明市,呈贡新区,细颗粒物(PM2.5),53,37,50,37,45,60,,50,50,20,25,7,7,0.5,0.7
2025-01-17T0900,1451A,102.6251,24.9608,昆明市,西山森林公园,,,,,,,,,,,,,,,,
2025-01-17T0900,1452A,102.7252,25.0902,昆明市,龙泉镇,颗粒物(PM10),54,58,66,36,49,10,,4,4,44,42,6,7,0.7,0.7
2025-01-17T0900,1453A,102.7266,25.0375,昆明市,东风东路,细颗粒物(PM2.5),58,54,69,41,52,32,,17,17,39,41,10,8,0.7,0.7
2025-01-17T0900,1454A,102.6742,25.0669,昆明市,金鼎山,颗粒物(PM10),57,64,75,33,57,20,,11,11,50,43,8,9,0.8,0.8
2025-01-17T0900,1455A,102.6644,25.0401,昆明市,碧鸡广场,细颗粒物(PM2.5),52,41,69,36,61,62,,31,31,31,40,11,7,0.7,0.8
2025-01-17T0900,3179A,102.7494,25.0119,昆明市,官渡区博物馆,细颗粒物(PM2.5),62,70,66,44,48,3,,16,11,52,33,8,8,1.2,0.7
2025-01-17T0900,3375A,102.8017,24.8336,昆明市,青年创业园,细颗粒物(PM2.5),57,60,67,40,45,19,,12,12,43,32,8,10,0.6,0.7
2025-01-17T0900,3550A,102.7997,24.9786,昆明市,昆明学院,细颗粒物(PM2.5),54,50,63,38,47,42,,51,49,35,27,9,10,0.4,0.5
2025-01-17T0900,3551A,102.5967,24.6736,昆明市,晋宁区生态环境分局,颗粒物(PM10),56,61,59,36,45,50,,61,59,26,23,4,4,0.8,0.7
2025-01-17T0900,3552A,102.6678,24.9856,昆明市,云天化总部,细颗粒物(PM2.5),57,55,59,40,43,21,,17,17,45,35,9,7,0.8,0.7
2025-01-17T0900,1456A,91.1319,29.6514,拉萨市,八廓街,,33,31,23,19,14,26,,76,68,66,27,7,6,1.0,0.5
2025-01-17T0900,1457A,91.1221,29.6747,拉萨市,市环保局,"颗粒物(PM10),细颗粒物(PM2.5)",55,59,28,39,16,8,,74,62,53,24,10,5,1.8,0.8
2025-01-17T0900,1458A,91.0874,29.6475,拉萨市,区监测站,,20,8,15,7,7,62,,94,89,33,18,5,5,0.4,0.4
2025-01-17T0900,1459A,91.1774,29.6541,拉萨市,西藏大学,,18,11,23,6,11,47,,84,78,35,22,5,6,0.8,0.5
2025-01-17T0900,1460A,90.9798,29.6588,拉萨市,区辐射站,,28,,25,19,13,33,,86,77,54,20,8,7,0.7,0.5
2025-01-17T0900,1461A,91.0834,29.6292,拉萨市,拉萨火车站,,25,,14,7,8,77,,107,102,22,13,4,4,0.5,0.5
2025-01-17T0900,2520A,109.2203,23.7256,来宾市,来宾技工学校,细颗粒物(PM2.5),132,134,114,100,72,8,,8,7,48,34,57,15,1.2,0.9
2025-01-17T0900,3535A,109.1781,23.7297,来宾市,兴宾区政府,细颗粒物(PM2.5),85,99,105,63,61,36,,38,36,22,25,6,8,1.0,1
2025-01-17T0900,4002A,109.2416,23.7461,来宾市,中南小学,细颗粒物(PM2.5),169,171,127,128,79,7,,8,7,56,39,12,11,1.4,1
2025-01-17T0900,1476A,103.631,36.1031,兰州市,兰炼宾馆,,,,119,,76,,,47,,,79,,31,,1.4
2025-01-17T0900,1477A,104.1373,35.9454,兰州市,榆中兰大校区,,,,,,,,,,,,,,,,
2025-01-17T0900,1478A,103.8412,36.0726,兰州市,生物制品所,细颗粒物(PM2.5),98,113,109,73,67,4,,3,3,72,80,24,23,2.0,1.7
2025-01-17T0900,1479A,103.831,36.0464,兰州市,铁路设计院,细颗粒物(PM2.5),97,120,122,72,75,4,,4,4,75,89,36,25,2.8,2.3
2025-01-17T0900,3241A,103.7439,36.0842,兰州市,百合公园,细颗粒物(PM2.5),90,104,113,67,70,5,,7,7,60,76,25,20,2.0,1.9
2025-01-17T0900,3242A,103.9611,35.998,兰州市,和平,细颗粒物(PM2.5),83,86,87,61,55,10,,24,19,74,53,26,19,2.0,1.2
2025-01-17T0900,4237A,103.7251,36.1043,兰州市,安宁西路88号,细颗粒物(PM2.5),93,116,120,69,62,2,,1,1,65,73,28,21,1.5,1.3
2025-01-17T0900,3245A,103.6633,36.533,兰州新区,新区管委会,颗粒物(PM10),67,83,65,31,45,8,,18,17,40,31,18,21,1.1,0.9
2025-01-17T0900,3246A,103.6975,36.4789,兰州新区,舟曲中学,细颗粒物(PM2.5),54,56,83,38,51,7,,11,11,50,43,17,19,0.9,1
2025-01-17T0900,1067A,116.6708,39.5111,廊坊市,药材公司,"颗粒物(PM10),细颗粒物(PM2.5)",82,113,65,60,32,8,,4,4,63,50,8,6,1.0,0.6
2025-01-17T0900,1068A,116.7214,39.5589,廊坊市,开发区,"颗粒物(PM10),细颗粒物(PM2.5)",72,93,58,52,26,12,,10,10,61,43,7,5,0.8,0.5
2025-01-17T0900,1070A,116.7244,39.5269,廊坊市,北华航天学院,颗粒物(PM10),82,114,65,56,28,8,,7,7,64,46,10,6,1.2,0.6
2025-01-17T0900,2919A,116.7022,39.5453,廊坊市,河北工业大学,细颗粒物(PM2.5),88,116,71,65,40,6,,4,4,64,50,11,8,1.1,0.5
2025-01-17T0900,2535A,103.7723,29.5462,乐山市,花湖湾,细颗粒物(PM2.5),115,93,96,87,83,9,,20,20,33,32,5,5,0.7,0.7
2025-01-17T0900,2536A,103.7627,29.5844,乐山市,牛耳桥,细颗粒物(PM2.5),110,97,95,83,81,7,,8,8,36,38,5,5,0.6,0.6
2025-01-17T0900,2537A,103.7508,29.6006,乐山市,市第三水厂,细颗粒物(PM2.5),104,94,92,78,78,5,,6,5,36,34,4,4,0.7,0.6
2025-01-17T0900,2538A,103.7571,29.5664,乐山市,市监测站,细颗粒物(PM2.5),77,72,81,56,62,15,,23,23,26,27,4,4,0.6,0.5
2025-01-17T0900,3361A,103.7311,29.5628,乐山市,理工大学,,,,90,,76,,,34,,,33,,7,,0.7
2025-01-17T0900,2598A,100.2143,26.8576,丽江市,西南郊,颗粒物(PM10),52,54,42,35,28,47,,77,75,23,14,4,5,0.9,0.8
2025-01-17T0900,2599A,100.2497,26.8802,丽江市,丽江古城,,36,30,46,25,33,69,,76,75,16,14,8,9,1.0,0.9
2025-01-17T0900,2600A,100.2203,26.8906,丽江市,市中心,,30,28,27,21,24,60,,75,72,18,12,8,10,0.8,0.8
2025-01-17T0900,1267A,119.914,28.4514,丽水市,监测站大楼,,46,33,45,32,30,23,,14,14,27,31,6,6,0.4,0.4
2025-01-17T0900,1268A,119.93,28.4586,丽水市,莲都小学,颗粒物(PM10),52,53,57,26,26,19,,19,16,32,28,6,7,0.6,0.4
2025-01-17T0900,1269A,119.879,28.4231,丽水市,余庄前,,50,44,49,35,30,16,,14,14,27,26,3,4,0.4,0.3
2025-01-17T0900,1173A,119.176,34.5885,连云港市,市环境监测站,颗粒物(PM10),84,117,82,53,43,9,,16,12,60,44,14,15,1.6,1.1
2025-01-17T0900,3000A,119.3581,34.6972,连云港市,德源药业,颗粒物(PM10),80,110,81,48,45,2,,16,11,65,46,8,11,0.7,0.5
2025-01-17T0900,3007A,119.178,34.844,连云港市,新城一中,细颗粒物(PM2.5),82,95,97,60,62,14,,8,8,59,63,20,20,1.3,1.1
2025-01-17T0900,3008A,119.3608,34.7519,连云港市,胡沟管理处,细颗粒物(PM2.5),58,58,62,41,40,17,,16,12,35,38,13,8,0.9,0.7
2025-01-17T0900,3009A,119.1478,34.5911,连云港市,矿山设计院,颗粒物(PM10),81,112,92,48,48,7,,4,4,62,51,12,16,1.3,0.9
2025-01-17T0900,3434A,119.2413,34.6539,连云港市,工贸学校,"颗粒物(PM10),细颗粒物(PM2.5)",65,80,74,47,44,29,,46,42,34,34,18,14,0.9,0.8
2025-01-17T0900,3664A,119.4172,34.7341,连云港市,连云街道,细颗粒物(PM2.5),75,83,94,55,41,21,,28,25,33,27,28,12,1.1,0.9
2025-01-17T0900,2571A,102.3431,27.8099,凉山彝族自治州,青龙寺,,38,38,38,17,16,52,,57,56,7,6,6,6,0.7,0.7
2025-01-17T0900,2572A,102.2721,27.8415,凉山彝族自治州,邛海宾馆,,48,44,46,33,34,41,,45,45,22,20,9,9,0.8,0.8
2025-01-17T0900,2573A,102.2625,27.898,凉山彝族自治州,西昌市政府,细颗粒物(PM2.5),57,48,48,40,41,50,,,,21,15,8,8,0.9,0.8
2025-01-17T0900,2574A,102.2685,27.8851,凉山彝族自治州,凉山州政府,细颗粒物(PM2.5),55,47,50,39,41,41,,53,52,23,15,9,10,0.9,0.7
2025-01-17T0900,2575A,102.237,27.8914,凉山彝族自治州,长安,,,,60,,42,,,49,,,21,,9,,0.7
2025-01-17T0900,2212A,123.2,41.1953,辽阳市,宏伟区,颗粒物(PM10),54,58,54,25,30,48,,43,43,21,23,8,7,0.5,0.6
2025-01-17T0900,2213A,123.1683,41.2495,辽阳市,新华园,颗粒物(PM10),60,69,78,36,48,25,,18,18,47,45,29,20,1.0,1.2
2025-01-17T0900,2214A,123.2354,41.2639,辽阳市,滨河路,,41,41,47,24,30,51,,46,46,17,21,11,18,0.6,0.6
2025-01-17T0900,2215A,123.149,41.2991,辽阳市,铁西工业园,颗粒物(PM10),58,65,88,28,49,43,,28,28,30,39,14,13,0.9,1.1
2025-01-17T0900,2227A,125.1358,42.8845,辽源市,环保局,细颗粒物(PM2.5),62,62,51,44,32,14,,11,11,54,35,22,15,2.0,1.2
2025-01-17T0900,3239A,125.0764,42.9078,辽源市,银鹰制药,颗粒物(PM10),52,54,73,30,36,12,,11,11,49,35,13,7,1.3,1
2025-01-17T0900,1625A,115.9848,36.4372,聊城市,区政府,颗粒物(PM10),79,107,90,53,50,14,,10,10,62,54,20,18,1.3,1.2
2025-01-17T0900,2878A,116.0072,36.4343,聊城市,聊大东校,细颗粒物(PM2.5),103,134,104,77,54,13,,10,10,68,59,19,15,1.2,0.9
2025-01-17T0900,3200A,115.9819,36.4978,聊城市,监控中心,颗粒物(PM10),82,113,120,51,64,13,,10,10,70,65,21,20,1.3,1.2
2025-01-17T0900,3513A,116.0445,36.4361,聊城市,九州社区,细颗粒物(PM2.5),85,107,91,63,49,16,,16,15,51,49,21,17,0.9,0.7
2025-01-17T0900,4018A,116.0567,36.4608,聊城市,星美广场,颗粒物(PM10),85,119,101,59,51,18,,17,17,47,46,19,19,0.9,0.7
2025-01-17T0900,2632A,94.3681,29.6376,林芝市,林芝监测站,,23,8,14,8,7,71,,78,77,2,3,6,6,0.5,0.5
2025-01-17T0900,2633A,94.3616,29.6616,林芝市,林芝人民医院,,21,15,15,8,6,66,,71,70,6,5,6,6,0.6,0.6
2025-01-17T0900,2603A,100.0781,23.8982,临沧市,市环保局,,36,36,38,11,28,11,,26,22,21,14,7,8,0.7,0.6
2025-01-17T0900,2604A,100.0894,23.8822,临沧市,市气象局,,46,38,42,32,32,9,,24,20,19,16,8,9,0.8,0.6
2025-01-17T0900,1733A,111.5531,36.0783,临汾市,临钢医院,颗粒物(PM10),56,61,67,38,38,17,,21,20,34,33,6,8,1.0,1
2025-01-17T0900,1734A,111.5028,36.0714,临汾市,技工学校,细颗粒物(PM2.5),90,108,77,67,49,6,,9,7,41,38,19,14,1.8,1.3
2025-01-17T0900,1736A,111.5018,36.0855,临汾市,市委,"颗粒物(PM10),细颗粒物(PM2.5)",92,134,88,68,45,20,,18,17,43,42,19,12,1.5,0.9
2025-01-17T0900,3018A,111.505,36.1014,临汾市,唐尧大酒店,颗粒物(PM10),80,109,94,51,50,7,,5,5,41,43,16,13,1.4,1
2025-01-17T0900,3668A,111.5036,36.0414,临汾市,城南,,,,,,,,,,,,,,,,
2025-01-17T0900,2667A,103.2069,35.5993,临夏回族自治州,环保局,细颗粒物(PM2.5),119,154,144,90,78,3,,10,9,41,35,14,14,2.8,1.9
2025-01-17T0900,2668A,103.2417,35.6057,临夏回族自治州,建设大厦,颗粒物(PM10),82,114,107,56,59,12,,30,28,34,24,16,16,1.6,1.3
2025-01-17T0900,1618A,118.3429,35.0532,临沂市,沂河小区,颗粒物(PM10),65,80,96,44,53,24,,30,29,46,53,16,24,0.9,0.8
2025-01-17T0900,1619A,118.295,35.0583,临沂市,鲁南制药厂,颗粒物(PM10),59,68,102,32,50,30,,28,28,39,53,15,26,0.7,0.6
2025-01-17T0900,1620A,118.2794,34.9976,临沂市,新光毛纺厂,颗粒物(PM10),60,70,84,38,47,21,,31,28,49,46,15,22,1.0,0.8
2025-01-17T0900,1621A,118.3956,35.0888,临沂市,河东保险公司,,,85,93,48,52,14,,15,14,52,58,,18,1.0,1.1
2025-01-17T0900,3370A,118.3564,35.0215,临沂市,十里堡居委,颗粒物(PM10),63,75,96,39,53,19,,22,21,45,48,17,26,1.1,0.9
2025-01-17T0900,3496A,118.3604,35.1084,临沂市,南坊新区,颗粒物(PM10),59,68,87,34,45,22,,24,24,46,57,11,13,0.9,0.7
2025-01-17T0900,3860A,118.3920,35.0300,临沂市,皇山花园小区,颗粒物(PM10),69,88,98,41,44,13,,10,10,57,62,18,21,0.9,0.7
2025-01-17T0900,1870A,109.4856,24.3895,柳州市,柳东小学,细颗粒物(PM2.5),58,63,77,41,43,88,,87,87,20,23,14,15,0.7,0.7
2025-01-17T0900,1871A,109.4157,24.3277,柳州市,环保监测站,颗粒物(PM10),89,127,92,64,44,37,,69,64,43,32,39,17,1.0,0.7
2025-01-17T0900,1872A,109.389,24.341,柳州市,河西水厂,细颗粒物(PM2.5),89,110,122,66,60,28,,26,26,54,50,45,19,1.2,1
2025-01-17T0900,1873A,109.4311,24.2921,柳州市,市四中,细颗粒物(PM2.5),73,74,83,53,44,68,,76,74,33,34,18,12,0.8,0.9
2025-01-17T0900,1874A,109.4006,24.3631,柳州市,市九中,颗粒物(PM10),109,168,109,78,52,18,,36,34,53,35,36,13,1.1,0.8
2025-01-17T0900,1875A,109.4958,24.3134,柳州市,古亭山,颗粒物(PM10),62,74,70,42,35,49,,71,64,39,33,47,23,0.8,0.7
2025-01-17T0900,3402A,109.5422,24.3996,柳州市,市二中,细颗粒物(PM2.5),73,68,86,53,50,14,,34,34,69,46,13,11,0.9,0.8
2025-01-17T0900,2307A,116.5079,31.737,六安市,监测大楼,颗粒物(PM10),58,66,68,30,37,29,,16,16,45,37,5,6,0.7,0.6
2025-01-17T0900,2308A,116.4738,31.7643,六安市,皖西学院,颗粒物(PM10),61,72,73,35,38,23,,16,16,46,37,5,5,0.7,0.6
2025-01-17T0900,2309A,116.4996,31.7905,六安市,朝阳厂,颗粒物(PM10),54,57,62,37,37,23,,34,33,41,30,1,3,0.5,0.5
2025-01-17T0900,2310A,116.5567,31.7886,六安市,开发区,颗粒物(PM10),90,129,92,60,46,8,,8,8,48,42,6,5,0.9,0.7
2025-01-17T0900,2576A,104.8,26.5892,六盘水市,窑上,细颗粒物(PM2.5),83,78,74,61,59,56,,51,51,15,17,4,5,0.7,0.7
2025-01-17T0900,2577A,104.83,26.5917,六盘水市,黄土坡,细颗粒物(PM2.5),75,74,71,55,54,55,,53,53,16,18,7,9,0.8,0.8
2025-01-17T0900,2578A,104.89,26.5939,六盘水市,水钢,细颗粒物(PM2.5),92,72,90,68,76,65,,57,57,13,16,4,7,0.6,0.6
2025-01-17T0900,2579A,104.8475,26.5894,六盘水市,民中,细颗粒物(PM2.5),77,57,63,56,60,57,,54,54,16,18,8,9,0.7,0.9
2025-01-17T0900,2580A,104.9544,26.5506,六盘水市,双水,细颗粒物(PM2.5),77,66,76,56,62,68,,62,62,17,16,8,9,0.6,0.6
2025-01-17T0900,2335A,117.0189,25.1181,龙岩市,龙岩师专,,,,,,,,,,,,,,,,
2025-01-17T0900,2336A,117.0217,25.1033,龙岩市,龙岩市监测站,,46,46,48,19,27,41,,48,47,32,22,9,6,0.6,0.4
2025-01-17T0900,2337A,117.0258,25.0661,龙岩市,闽西职业技术学院,颗粒物(PM10),60,69,57,23,27,24,,21,20,39,26,9,6,0.6,0.5
2025-01-17T0900,2338A,117.0196,25.0306,龙岩市,龙岩学院,,33,30,47,23,27,35,,41,38,24,20,2,3,0.5,0.4
2025-01-17T0900,2665A,105.0822,33.3261,陇南市,汉王镇固水子,,,,,,,,,,,,,,,,
2025-01-17T0900,2885A,104.9339,33.3826,陇南市,滨江中学,颗粒物(PM10),52,53,60,30,34,11,,23,22,40,38,16,65,1.0,1.3
2025-01-17T0900,3247A,104.955,33.371,陇南市,市总工会,颗粒物(PM10),60,70,55,38,33,24,,39,38,30,23,17,32,1.1,0.9
2025-01-17T0900,2487A,111.9589,27.8901,娄底市,电视发射台,,42,38,44,29,29,68,,69,68,12,14,6,9,0.6,0.8
2025-01-17T0900,2488A,111.9975,27.725,娄底市,市监测站,细颗粒物(PM2.5),89,110,92,66,55,8,,11,10,55,43,20,17,1.3,1
2025-01-17T0900,2489A,112.0194,27.7314,娄底市,市委党校,细颗粒物(PM2.5),79,91,79,58,45,14,,21,20,41,32,12,10,0.9,0.7
2025-01-17T0900,2490A,111.9561,27.7569,娄底市,涟钢,细颗粒物(PM2.5),85,90,106,63,63,18,,25,22,29,33,7,18,0.9,1.1
2025-01-17T0900,2491A,111.9892,27.7044,娄底市,市政府,细颗粒物(PM2.5),75,64,75,55,49,12,,17,16,25,26,5,7,1.2,1
2025-01-17T0900,1893A,105.4324,28.9634,泸州市,九狮山,,,,,,,,,,,,,,,,
2025-01-17T0900,1894A,105.4427,28.9063,泸州市,小市上码头,细颗粒物(PM2.5),143,124,118,109,100,6,,12,11,41,29,3,2,1.0,0.8
2025-01-17T0900,1895A,105.4241,28.8573,泸州市,兰田宪桥,细颗粒物(PM2.5),137,118,114,104,98,7,,12,12,36,27,2,2,0.9,0.9
2025-01-17T0900,1896A,105.4379,28.8833,泸州市,市环监站,细颗粒物(PM2.5),132,117,108,100,90,5,,10,9,36,30,5,5,0.9,0.7
2025-01-17T0900,3490A,105.3617,28.7703,泸州市,纳溪区环保局,细颗粒物(PM2.5),122,104,96,92,84,6,,4,4,31,25,4,4,1.1,1
2025-01-17T0900,2183A,111.1406,37.5211,吕梁市,环保局,颗粒物(PM10),70,89,86,33,30,4,,2,2,40,45,3,7,0.7,0.7
2025-01-17T0900,2185A,111.1297,37.5136,吕梁市,自来水公司,颗粒物(PM10),73,95,100,34,35,7,,4,4,36,42,9,12,0.8,0.7
2025-01-17T0900,2867A,111.1283,37.51,吕梁市,马茂庄小学,颗粒物(PM10),75,99,96,32,34,5,,3,3,41,47,13,14,0.7,0.6
2025-01-17T0900,1812A,112.3931,34.6516,洛阳市,市委党校,颗粒物(PM10),63,76,64,40,31,16,,18,18,44,33,7,7,0.9,0.6
2025-01-17T0900,1815A,112.494,34.6886,洛阳市,河南林校,细颗粒物(PM2.5),78,83,75,57,52,13,,8,8,39,35,7,7,0.9,0.7
2025-01-17T0900,1816A,112.3844,34.623,洛阳市,开发区管委会,细颗粒物(PM2.5),62,65,57,44,37,20,,22,21,28,22,6,6,0.9,0.6
2025-01-17T0900,1817A,112.4267,34.6258,洛阳市,市委新办公区,,,51,60,45,39,,,26,25,26,22,3,4,0.5,0.4
2025-01-17T0900,3340A,112.6005,34.6326,洛阳市,伊滨,细颗粒物(PM2.5),69,77,66,50,36,21,,29,27,36,28,5,6,0.7,0.4
2025-01-17T0900,3341A,112.4951,34.6332,洛阳市,中移产业园,细颗粒物(PM2.5),53,54,53,37,32,23,,32,29,27,22,3,4,0.6,0.5
2025-01-17T0900,3593A,112.5736,34.8993,洛阳市,吉利监测站,细颗粒物(PM2.5),54,45,53,38,28,15,,12,12,46,40,10,7,0.8,0.6
2025-01-17T0900,3635A,112.3677,34.662,洛阳市,河科大西苑校区,细颗粒物(PM2.5),88,111,76,65,43,17,,21,18,46,31,17,11,1.1,0.8
2025-01-17T0900,3636A,112.4388,34.6781,洛阳市,英才小学,细颗粒物(PM2.5),109,137,85,82,50,4,,1,1,62,49,42,16,1.4,0.8
2025-01-17T0900,4214A,112.4600,34.6949,洛阳市,春都路1号院,颗粒物(PM10),90,129,85,58,42,13,,9,9,67,50,22,12,1.3,0.8
2025-01-17T0900,2399A,114.051,33.5699,漯河市,三五一五工厂,细颗粒物(PM2.5),122,134,83,92,50,8,,8,8,67,46,15,11,1.0,0.6
2025-01-17T0900,2400A,114.0055,33.5698,漯河市,漯河大学,细颗粒物(PM2.5),100,107,78,75,45,8,,11,11,66,48,13,9,0.8,0.6
2025-01-17T0900,2401A,114.0138,33.5828,漯河市,市水利局,细颗粒物(PM2.5),98,114,81,73,46,7,,10,10,60,40,12,9,0.9,0.6
2025-01-17T0900,2402A,114.0261,33.5698,漯河市,市广电局,细颗粒物(PM2.5),108,125,82,81,48,5,,6,6,65,44,14,10,1.0,0.7
2025-01-17T0900,3478A,113.9749,33.5664,漯河市,市图书馆,细颗粒物(PM2.5),125,116,76,95,41,,,,,68,45,12,9,0.5,0.4
2025-01-17T0900,3479A,114.0967,33.5906,漯河市,召陵区卫健委,细颗粒物(PM2.5),149,145,88,114,54,4,,16,11,74,44,13,10,1.0,0.5
2025-01-17T0900,1798A,118.5092,31.6837,马鞍山市,湖东路四小,细颗粒物(PM2.5),84,104,83,62,40,10,,5,5,72,52,6,6,1.1,0.7
2025-01-17T0900,1799A,118.5024,31.6449,马鞍山市,开发区,细颗粒物(PM2.5),93,126,103,69,49,6,,4,4,66,55,8,8,1.4,1
2025-01-17T0900,1802A,118.6245,31.7241,马鞍山市,濮塘,细颗粒物(PM2.5),79,85,71,58,43,50,,36,36,34,31,19,14,0.8,0.7
2025-01-17T0900,3633A,118.4918,31.6809,马鞍山市,雨山,,,,76,,41,,,,,,48,,9,,0.8
2025-01-17T0900,4191A,118.5274,31.72227,马鞍山市,慈湖高新区,细颗粒物(PM2.5),90,85,82,67,55,9,,4,4,66,53,13,13,1.3,1
2025-01-17T0900,1686A,111.0286,21.4688,茂名市,电白南海,颗粒物(PM10),67,83,90,41,45,64,,76,71,21,25,15,9,0.9,0.7
2025-01-17T0900,1687A,110.9294,21.6533,茂名市,茂石化七小,颗粒物(PM10),69,88,85,29,38,71,,88,83,30,20,10,17,0.9,0.8
2025-01-17T0900,1688A,110.9107,21.6687,茂名市,健康路,,,,83,41,48,71,,85,78,33,23,16,14,0.8,0.8
2025-01-17T0900,1689A,110.8592,21.6828,茂名市,高岭,颗粒物(PM10),97,144,107,53,54,32,,57,48,52,30,17,16,0.8,0.9
2025-01-17T0900,3450A,111.01,21.5165,茂名市,电白水东,颗粒物(PM10),69,88,83,41,44,69,,86,81,22,19,14,14,0.8,0.8
2025-01-17T0900,2539A,104.0308,30.0478,眉山市,黑龙滩水库,细颗粒物(PM2.5),60,68,79,43,54,34,,36,33,6,7,4,3,0.5,0.5
2025-01-17T0900,2540A,103.8416,30.0874,眉山市,气象局,细颗粒物(PM2.5),117,117,104,88,77,5,,5,5,28,33,2,2,1.0,0.7
2025-01-17T0900,3137A,103.8578,30.0744,眉山市,市委党校,细颗粒物(PM2.5),89,80,80,66,68,5,,6,6,44,34,5,6,0.8,0.6
2025-01-17T0900,3148A,103.8291,30.0564,眉山市,区人社局,细颗粒物(PM2.5),94,76,74,70,72,5,,12,12,44,39,5,4,0.8,0.7
2025-01-17T0900,1690A,116.1231,24.3284,梅州市,梅江月梅,,50,50,50,24,25,16,,28,24,42,29,11,9,0.6,0.5
2025-01-17T0900,1691A,116.0797,24.2719,梅州市,梅县新城,,36,36,49,15,25,23,,11,11,39,34,4,5,0.6,0.5
2025-01-17T0900,1692A,116.1248,24.2654,梅州市,环境监控中心,,49,49,56,27,32,29,,20,20,36,33,19,8,0.7,0.6
2025-01-17T0900,3315A,116.1233,24.2991,梅州市,梅龙,颗粒物(PM10),52,53,50,20,26,26,,39,37,35,25,7,8,0.5,0.5
2025-01-17T0900,1878A,104.7778,31.4741,绵阳市,富乐山,细颗粒物(PM2.5),57,53,44,40,34,8,,25,22,33,23,2,2,1.0,0.9
2025-01-17T0900,1880A,104.6697,31.4668,绵阳市,高新区自来水公司,细颗粒物(PM2.5),73,88,66,53,40,2,,2,2,42,35,5,4,0.8,0.7
2025-01-17T0900,1881A,104.7287,31.5075,绵阳市,三水厂,"颗粒物(PM10),细颗粒物(PM2.5)",70,89,63,51,40,2,,2,2,40,40,5,4,1.2,1.1
2025-01-17T0900,3491A,104.69,31.5322,绵阳市,西科大附属小学,细颗粒物(PM2.5),83,98,63,61,44,7,,7,7,34,35,5,5,1.0,1
2025-01-17T0900,3492A,104.5648,31.5343,绵阳市,安州区旅游局,细颗粒物(PM2.5),83,84,61,61,49,9,,14,13,37,28,10,9,0.9,0.8
2025-01-17T0900,4226A,104.7651,31.4531,绵阳市,绵阳市气象局,细颗粒物(PM2.5),58,63,57,41,33,6,,19,17,44,31,3,7,0.7,0.6
2025-01-17T0900,1784A,129.61,44.561,牡丹江市,环保大楼,颗粒物(PM10),51,51,42,31,29,24,,23,22,28,21,13,8,0.8,0.6
2025-01-17T0900,1785A,129.6115,44.5782,牡丹江市,文化广场,细颗粒物(PM2.5),110,101,52,83,34,20,,24,22,41,26,17,10,1.7,0.9
2025-01-17T0900,1786A,129.5904,44.5963,牡丹江市,第一医院,"颗粒物(PM10),细颗粒物(PM2.5)",72,93,53,52,40,14,,20,18,43,23,11,9,1.0,0.5
2025-01-17T0900,1787A,129.6364,44.6075,牡丹江市,机车工厂,颗粒物(PM10),63,76,57,37,31,22,,13,13,32,24,14,10,1.1,0.8
2025-01-17T0900,1788A,129.6386,44.5462,牡丹江市,第一中学,细颗粒物(PM2.5),55,,35,39,26,24,,20,19,25,20,16,8,0.8,0.6
2025-01-17T0900,2531A,105.0703,29.61,内江市,市监测站,细颗粒物(PM2.5),102,,58,76,70,18,,25,23,33,23,6,5,0.9,0.9
2025-01-17T0900,2532A,105.0717,29.5947,内江市,东兴区政府,细颗粒物(PM2.5),94,70,64,70,60,9,,32,29,44,24,4,4,1.1,0.9
2025-01-17T0900,2533A,105.0653,29.5817,内江市,内江二中,细颗粒物(PM2.5),98,,74,73,64,16,,27,24,42,29,8,8,0.9,0.9
2025-01-17T0900,2534A,105.0406,29.5822,内江市,内江日报社,细颗粒物(PM2.5),94,,66,70,63,18,,20,18,36,27,9,8,0.9,0.9
2025-01-17T0900,2628A,92.0657,31.4846,那曲市,那曲监测站,,25,19,56,17,50,61,,72,72,8,14,7,10,0.8,1.4
2025-01-17T0900,3128A,92.0506,31.4797,那曲市,那曲会议中心,,31,31,51,12,22,55,,82,82,25,15,4,6,0.5,0.9
2025-01-17T0900,1290A,115.8931,28.6843,南昌市,省外办,颗粒物(PM10),62,74,66,41,38,13,,5,5,60,51,9,7,0.6,0.6
2025-01-17T0900,1291A,115.8886,28.7003,南昌市,省林业公司,颗粒物(PM10),68,85,72,36,33,10,,2,2,50,48,11,10,0.6,0.7
2025-01-17T0900,1292A,115.8126,28.7442,南昌市,林科所,颗粒物(PM10),73,95,61,39,28,10,,13,13,60,46,9,9,0.8,0.6
2025-01-17T0900,1294A,115.8518,28.687,南昌市,建工学校,颗粒物(PM10),71,92,74,27,31,11,,4,4,54,50,11,12,0.7,0.7
2025-01-17T0900,1295A,115.8921,28.6424,南昌市,象湖,颗粒物(PM10),73,96,83,46,42,18,,5,5,57,56,8,9,0.8,1
2025-01-17T0900,1296A,115.7423,28.7996,南昌市,武术学校,,29,,26,20,22,11,,17,15,15,17,3,2,0.3,0.2
2025-01-17T0900,3046A,115.9084,28.6062,南昌市,机电学校,颗粒物(PM10),88,126,95,53,38,7,,3,3,57,54,13,11,0.8,0.7
2025-01-17T0900,3690A,115.9721,28.7031,南昌市,外国语学校,颗粒物(PM10),66,82,68,34,29,32,,12,12,31,37,11,8,0.6,0.5
2025-01-17T0900,4192A,115.9316,28.68677,南昌市,南京东路235号,颗粒物(PM10),68,86,81,39,38,23,,8,8,48,52,7,6,0.5,0.4
2025-01-17T0900,1905A,106.056,30.8064,南充市,西山风景区,细颗粒物(PM2.5),69,54,55,50,52,46,,36,34,10,17,2,3,0.7,0.7
2025-01-17T0900,1906A,106.0789,30.8023,南充市,南充市委,细颗粒物(PM2.5),74,67,70,54,58,8,,11,10,27,32,3,3,0.7,0.7
2025-01-17T0900,1907A,106.1031,30.8217,南充市,南充炼油厂,,,,83,55,64,,,10,9,45,38,5,4,0.7,0.7
2025-01-17T0900,1908A,106.1064,30.7856,南充市,高坪区监测站,,,,40,,32,,,25,,,25,,5,,0.6
2025-01-17T0900,1909A,106.0642,30.7636,南充市,嘉陵区环保局,细颗粒物(PM2.5),83,83,80,61,57,6,,10,9,49,41,4,4,0.9,0.8
2025-01-17T0900,1910A,106.1087,30.8388,南充市,市环境监测站,细颗粒物(PM2.5),67,71,84,48,57,6,,8,7,33,36,5,6,0.6,0.7
2025-01-17T0900,1151A,118.8086,32.1065,南京市,迈皋桥,颗粒物(PM10),64,78,55,41,29,8,,7,7,82,56,15,7,0.7,0.5
2025-01-17T0900,1152A,118.7538,32.0551,南京市,草场门,颗粒物(PM10),67,83,66,44,31,8,,3,3,82,61,11,9,0.9,0.4
2025-01-17T0900,1153A,118.7794,32.0745,南京市,山西路,颗粒物(PM10),71,92,76,46,32,6,,7,6,77,66,6,5,1.1,0.5
2025-01-17T0900,1154A,118.7752,32.0023,南京市,中华门,细颗粒物(PM2.5),67,80,68,48,35,8,,5,5,81,67,15,14,1.4,1
2025-01-17T0900,1155A,118.8109,32.0309,南京市,瑞金路,颗粒物(PM10),75,100,74,48,36,5,,4,4,75,58,9,7,1.6,1.3
2025-01-17T0900,1156A,118.7997,32.0754,南京市,玄武湖,颗粒物(PM10),63,75,64,41,27,4,,2,2,42,30,8,8,1.1,0.8
2025-01-17T0900,1157A,118.6414,32.0931,南京市,浦口,"颗粒物(PM10),细颗粒物(PM2.5)",55,60,64,39,30,42,,61,58,24,12,8,8,0.6,0.6
2025-01-17T0900,1158A,118.7356,31.9996,南京市,奥体中心,颗粒物(PM10),74,98,79,48,38,7,,5,5,82,65,10,10,1.1,0.8
2025-01-17T0900,1159A,118.9125,32.1028,南京市,仙林大学城,颗粒物(PM10),65,80,65,44,32,3,,1,1,73,57,9,8,1.1,0.7
2025-01-17T0900,3422A,118.8436,31.9198,南京市,江宁彩虹桥,颗粒物(PM10),73,96,77,36,35,8,,6,6,52,57,4,6,0.9,0.8
2025-01-17T0900,3423A,119.0138,31.6494,南京市,溧水永阳,细颗粒物(PM2.5),63,70,66,45,43,19,,5,5,41,42,4,4,0.8,0.7
2025-01-17T0900,3424A,118.879,31.3302,南京市,高淳老职中,细颗粒物(PM2.5),82,,57,60,41,15,,21,18,44,29,7,6,1.0,0.5
2025-01-17T0900,3427A,118.8554,32.3578,南京市,六合雄州,细颗粒物(PM2.5),69,83,63,50,33,4,,2,2,32,26,7,4,0.9,0.5
2025-01-17T0900,1401A,108.3103,22.7881,南宁市,二十一中,细颗粒物(PM2.5),109,,76,82,49,30,,73,65,64,33,8,8,0.9,0.8
2025-01-17T0900,1402A,108.3141,22.8528,南宁市,北湖,细颗粒物(PM2.5),92,101,86,68,47,31,,17,17,58,42,29,13,0.3,0.4
2025-01-17T0900,1403A,108.3206,22.8225,南宁市,市监测站,细颗粒物(PM2.5),95,97,88,71,52,38,,79,72,63,32,17,15,0.9,0.8
2025-01-17T0900,1404A,108.3829,22.8037,南宁市,大自然花园,细颗粒物(PM2.5),100,86,79,75,49,31,,70,62,54,28,10,10,0.9,0.8
2025-01-17T0900,1405A,108.4394,22.7904,南宁市,仙葫,细颗粒物(PM2.5),114,98,80,86,55,10,,24,16,70,40,7,6,0.7,0.5
2025-01-17T0900,1406A,108.2397,22.8467,南宁市,区农职院,细颗粒物(PM2.5),69,79,83,50,49,28,,31,31,36,35,17,14,0.6,0.6
2025-01-17T0900,1407A,108.3275,22.735,南宁市,英华嘉园,细颗粒物(PM2.5),113,117,80,85,46,17,,46,37,66,34,15,10,1.3,1
2025-01-17T0900,3401A,108.4834,22.7618,南宁市,红星社区,细颗粒物(PM2.5),93,124,79,69,51,14,,30,25,61,38,14,11,1.2,0.9
2025-01-17T0900,4221A,108.2177,22.7774,南宁市,乐贤路16号,细颗粒物(PM2.5),88,110,92,65,49,8,,5,5,45,44,9,6,1.2,0.9
2025-01-17T0900,2331A,118.0966,26.6761,南平市,茫荡山,,,,,,,,,,,,,,,,
2025-01-17T0900,2332A,118.1681,26.6369,南平市,南平市监测站,颗粒物(PM10),51,52,65,31,41,16,,11,11,34,35,5,5,0.7,0.6
2025-01-17T0900,2333A,118.1825,26.6489,南平市,南平铝业有限公司,,41,41,62,25,32,16,,18,16,34,34,7,7,0.8,0.7
2025-01-17T0900,2334A,118.1756,26.6272,南平市,南平七中,,49,38,62,34,41,15,,19,17,27,27,2,3,0.8,0.7
2025-01-17T0900,1168A,120.9098,31.9663,南通市,狼山街道,细颗粒物(PM2.5),80,95,81,59,48,7,,3,3,63,59,7,9,1.3,1.1
2025-01-17T0900,1169A,120.86,32.0005,南通市,虹桥,细颗粒物(PM2.5),84,93,94,62,53,11,,2,2,73,66,10,10,1.1,0.9
2025-01-17T0900,1170A,120.87,32.02,南通市,城中,颗粒物(PM10),86,121,98,60,48,10,,4,4,78,69,10,11,1.5,1.1
2025-01-17T0900,1171A,120.94,31.93,南通市,星湖花园,细颗粒物(PM2.5),93,119,80,69,47,4,,1,1,84,66,11,10,1.7,1.1
2025-01-17T0900,1172A,120.81,32.0417,南通市,紫琅学院,细颗粒物(PM2.5),98,144,95,73,49,6,,3,3,82,67,8,6,1.2,1
2025-01-17T0900,3291A,121.067,32.062,南通市,通州监测站,细颗粒物(PM2.5),94,122,91,70,50,9,,5,5,79,66,9,7,1.6,0.9
2025-01-17T0900,3432A,120.9348,31.9883,南通市,环境教育馆,细颗粒物(PM2.5),90,119,85,67,45,5,,2,2,94,64,11,6,1.4,1
2025-01-17T0900,2404A,112.5224,33.0122,南阳市,瓦房庄,颗粒物(PM10),67,84,92,46,57,38,,31,31,40,37,6,8,0.5,0.6
2025-01-17T0900,2405A,112.5003,32.9735,南阳市,汉画馆,细颗粒物(PM2.5),99,122,84,74,55,14,,16,16,58,41,6,6,1.0,0.8
2025-01-17T0900,2406A,112.5573,33.027,南阳市,气象站,细颗粒物(PM2.5),70,83,92,51,52,54,,51,51,24,33,5,7,0.6,0.6
2025-01-17T0900,2407A,112.5481,32.9689,南阳市,理工学院,细颗粒物(PM2.5),78,91,79,57,52,33,,31,31,43,37,6,7,0.8,0.7
2025-01-17T0900,4008A,112.5234,32.9922,南阳市,卧龙区政府,颗粒物(PM10),65,80,81,42,51,22,,22,22,51,40,5,6,0.9,0.7
2025-01-17T0900,1234A,121.8358,29.911,宁波市,区环保大楼,颗粒物(PM10),61,72,82,33,42,12,,4,4,54,56,9,12,1.2,1
2025-01-17T0900,1235A,121.56,29.82,宁波市,万里学院,细颗粒物(PM2.5),82,86,84,60,46,6,,3,3,47,49,6,6,1.0,0.8
2025-01-17T0900,1236A,121.713,29.9572,宁波市,龙赛医院,颗粒物(PM10),77,104,101,50,42,10,,3,3,53,58,12,11,0.8,0.6
2025-01-17T0900,1239A,121.633,29.7733,宁波市,钱湖水厂,颗粒物(PM10),81,112,89,59,45,17,,5,5,33,46,5,6,0.9,0.7
2025-01-17T0900,1240A,121.5856,29.8635,宁波市,太古小学,颗粒物(PM10),65,79,82,45,43,7,,3,3,53,53,10,9,1.0,0.8
2025-01-17T0900,1241A,121.524,29.8674,宁波市,市环境监测中心,颗粒物(PM10),58,65,74,33,40,8,,1,1,49,48,10,8,0.7,0.7
2025-01-17T0900,2871A,121.6147,29.9017,宁波市,万里国际学校,细颗粒物(PM2.5),69,79,74,50,47,8,,3,3,49,53,8,8,0.9,0.7
2025-01-17T0900,3710A,121.5594,29.8975,宁波市,白沙活动中心,颗粒物(PM10),58,66,66,34,37,14,,6,6,44,46,9,7,0.8,0.6
2025-01-17T0900,2339A,119.5001,26.6946,宁德市,金涵水库,,,,,,,,,,,,,,,,
2025-01-17T0900,2341A,119.5388,26.6612,宁德市,宁德市监测站,细颗粒物(PM2.5),52,,48,36,35,30,,47,44,15,11,3,3,0.5,0.3
2025-01-17T0900,3209A,119.5231,26.6562,宁德市,宁德一中,,50,41,51,35,32,44,,45,44,15,13,2,3,0.6,0.5
2025-01-17T0900,2618A,98.8601,25.8567,怒江傈僳族自治州,州监测站,,34,34,39,22,23,35,,41,40,13,13,3,3,0.5,0.6
2025-01-17T0900,2619A,98.8546,25.8417,怒江傈僳族自治州,泸水一中,,35,,38,24,27,13,,24,23,19,19,8,8,0.6,0.6
2025-01-17T0900,1888A,101.6891,26.571,攀枝花市,弄弄坪,细颗粒物(PM2.5),80,80,83,59,58,5,,15,13,43,44,40,24,2.7,1.5
2025-01-17T0900,1889A,101.5769,26.5928,攀枝花市,河门口,细颗粒物(PM2.5),60,63,64,43,44,16,,19,19,27,27,9,12,1.1,1
2025-01-17T0900,1890A,101.7169,26.585,攀枝花市,炳草岗,细颗粒物(PM2.5),84,95,88,62,62,3,,15,13,38,45,14,20,1.2,1.3
2025-01-17T0900,1891A,101.7369,26.5008,攀枝花市,仁和,细颗粒物(PM2.5),59,56,64,42,49,7,,24,20,28,25,5,12,0.9,1.1
2025-01-17T0900,2835A,101.7227,26.567,攀枝花市,四十中小,细颗粒物(PM2.5),74,90,90,54,57,5,,30,25,46,45,14,38,2.0,1.5
2025-01-17T0900,1604A,122.0303,41.1489,盘锦市,开发区,,,29,60,29,58,30,,38,37,32,34,,18,0.7,0.7
2025-01-17T0900,1605A,122.0485,41.0883,盘锦市,兴隆台,,43,40,63,30,35,26,,34,33,38,35,15,12,0.8,0.7
2025-01-17T0900,1606A,121.8297,41.1028,盘锦市,新生街道,,32,26,44,22,20,25,,31,31,34,37,9,10,1.0,0.6
2025-01-17T0900,1832A,113.3257,33.742,平顶山市,新华旅馆,颗粒物(PM10),115,179,99,59,43,8,,12,11,64,41,10,9,1.1,0.7
2025-01-17T0900,1833A,113.2919,33.737,平顶山市,规划设计院,细颗粒物(PM2.5),122,168,100,92,51,10,,8,8,50,45,9,7,0.7,0.3
2025-01-17T0900,1834A,113.182,33.774,平顶山市,平顶山工学院,细颗粒物(PM2.5),104,149,96,78,43,18,,10,8,41,32,16,9,0.8,0.5
2025-01-17T0900,3204A,113.3025,33.73,平顶山市,规划局,细颗粒物(PM2.5),122,161,102,92,54,6,,3,3,56,44,9,8,1.2,0.6
2025-01-17T0900,3594A,112.8867,33.9116,平顶山市,石龙区,颗粒物(PM10),137,223,96,59,42,4,,8,8,69,35,14,9,0.7,0.6
2025-01-17T0900,2656A,106.6692,35.5461,平凉市,聚贤嘉苑,颗粒物(PM10),51,52,63,30,34,11,,18,17,58,46,30,14,0.9,0.7
2025-01-17T0900,2657A,106.7021,35.5307,平凉市,博物馆,颗粒物(PM10),66,82,76,45,46,16,,20,20,60,49,40,26,1.3,1.1
2025-01-17T0900,2347A,114.0997,27.5002,萍乡市,武功山,细颗粒物(PM2.5),57,,47,40,29,36,,48,46,13,13,10,7,0.7,0.7
2025-01-17T0900,2348A,113.8385,27.6434,萍乡市,中医院,颗粒物(PM10),72,93,108,44,54,25,,20,20,38,39,17,16,1.3,1.4
2025-01-17T0900,2349A,113.8493,27.6253,萍乡市,市政府车库,颗粒物(PM10),72,93,90,47,63,23,,23,23,40,35,16,13,2.8,1.4
2025-01-17T0900,2350A,113.8676,27.6435,萍乡市,市环保局,颗粒物(PM10),81,111,102,50,59,23,,18,18,48,50,18,17,1.3,1.1
2025-01-17T0900,2351A,113.866,27.6198,萍乡市,安源区政府,细颗粒物(PM2.5),77,82,97,56,59,19,,19,19,29,30,16,13,1.5,1.2
2025-01-17T0900,2319A,119.0141,25.4325,莆田市,荔城区仓后路,颗粒物(PM10),51,52,63,32,37,76,,77,77,16,20,3,2,0.7,0.7
2025-01-17T0900,2320A,119.0015,25.4553,莆田市,莆田市监测站,,45,45,57,31,38,80,,79,79,16,18,4,4,0.6,0.6
2025-01-17T0900,2321A,119.1119,25.4561,莆田市,涵江区六中,,,60,65,33,38,71,,76,73,22,21,1,2,,0.4
2025-01-17T0900,2322A,119.1013,25.3215,莆田市,秀屿区政府,,49,48,55,34,35,63,,82,78,36,21,3,3,0.5,0.5
2025-01-17T0900,2323A,118.981,25.4792,莆田市,东圳水库,,,,,,,,,,,,,,,,
2025-01-17T0900,2392A,115.0312,35.7636,濮阳市,环保局,颗粒物(PM10),70,90,73,40,33,25,,17,17,50,50,12,11,1.0,0.9
2025-01-17T0900,2394A,115.0574,35.7609,濮阳市,油田运输公司,颗粒物(PM10),80,109,86,49,35,13,,9,9,58,50,10,10,1.3,1
2025-01-17T0900,2395A,115.0866,35.7754,濮阳市,油田物探公司,,,,,,,,,,,,,,,,
2025-01-17T0900,3021A,115,35.7668,濮阳市,濮水河管理处,颗粒物(PM10),94,137,79,50,35,7,,3,3,56,49,8,8,1.2,0.8
2025-01-17T0900,2601A,100.98,22.7633,普洱市,市环保局,细颗粒物(PM2.5),53,50,49,37,22,21,,32,30,18,10,4,4,0.6,0.6
2025-01-17T0900,2602A,100.9817,22.8322,普洱市,普洱第二中学,颗粒物(PM10),55,59,44,36,25,7,,20,19,33,20,4,4,0.8,0.5
2025-01-17T0900,2262A,131.0518,45.8751,七台河市,新一中,细颗粒物(PM2.5),64,,49,46,37,53,,52,52,17,18,10,11,2.1,2
2025-01-17T0900,3345A,131.0577,45.7879,七台河市,中波台,,,100,53,65,43,29,,33,31,42,32,,8,1.4,1
2025-01-17T0900,3637A,131.0176,45.7761,七台河市,人民广场,细颗粒物(PM2.5),85,102,69,63,50,36,,27,25,35,36,7,8,1.3,1
2025-01-17T0900,3684A,130.8781,45.8222,七台河市,新建矿广场,,,,55,,54,12,,29,25,61,32,102,12,1.2,0.6
2025-01-17T0900,1779A,123.9305,47.3636,齐齐哈尔市,安居小区,细颗粒物(PM2.5),77,65,49,56,32,13,,15,13,38,27,17,18,0.7,0.5
2025-01-17T0900,1780A,123.9488,47.3386,齐齐哈尔市,中心广场,细颗粒物(PM2.5),79,66,40,58,32,10,,17,14,47,29,6,5,1.5,0.7
2025-01-17T0900,1781A,123.9483,47.3227,齐齐哈尔市,农牧车辆厂,颗粒物(PM10),53,56,37,31,21,9,,17,14,50,29,8,8,1.2,0.6
2025-01-17T0900,1783A,123.945,47.2988,齐齐哈尔市,市环境监测站,颗粒物(PM10),82,113,47,47,26,15,,23,20,53,25,2,4,1.0,0.5
2025-01-17T0900,3662A,123.6333,47.2075,齐齐哈尔市,富区青少年活动中心,细颗粒物(PM2.5),67,82,55,48,33,25,,23,23,26,23,9,18,0.8,1
2025-01-17T0900,2591A,107.9783,26.5747,黔东南苗族侗族自治州,市环境监测站,细颗粒物(PM2.5),75,85,84,55,51,8,,32,27,43,29,9,8,1.2,0.9
2025-01-17T0900,2881A,107.8908,26.5311,黔东南苗族侗族自治州,凯里学院,颗粒物(PM10),76,102,79,49,45,12,,27,25,33,20,5,5,0.9,0.7
2025-01-17T0900,2593A,107.5228,26.2403,黔南布依族苗族自治州,小围寨,"颗粒物(PM10),细颗粒物(PM2.5)",52,53,65,36,39,21,,54,48,29,17,8,9,1.0,0.9
2025-01-17T0900,3538A,107.5175,26.2978,黔南布依族苗族自治州,沙坝,细颗粒物(PM2.5),62,63,76,44,42,24,,35,33,22,19,7,9,0.6,0.7
2025-01-17T0900,2589A,104.9022,25.0925,黔西南布依族苗族自治州,场坝街,细颗粒物(PM2.5),87,73,93,64,75,64,,49,49,16,18,14,12,0.5,0.6
2025-01-17T0900,2590A,104.8811,25.0992,黔西南布依族苗族自治州,坪东大道,细颗粒物(PM2.5),88,80,88,65,79,63,,50,50,16,23,5,5,0.6,0.6
2025-01-17T0900,2502A,108.6236,21.9667,钦州市,市环保站,,,122,112,61,52,54,,71,69,,31,12,11,0.9,0.8
2025-01-17T0900,2503A,108.6549,21.9481,钦州市,沙埠小学,细颗粒物(PM2.5),89,115,103,66,53,35,,54,49,49,36,12,11,0.8,0.8
2025-01-17T0900,2504A,108.5989,21.7431,钦州市,港区一小,颗粒物(PM10),95,139,116,68,51,27,,46,43,76,47,18,11,1.0,0.8
2025-01-17T0900,3404A,108.5959,21.9633,钦州市,北职校,细颗粒物(PM2.5),102,112,109,76,64,38,,57,53,50,34,20,16,1.0,0.8
2025-01-17T0900,1042A,119.5134,39.8207,秦皇岛市,北戴河环保局,颗粒物(PM10),61,72,45,23,16,16,,15,15,60,36,20,10,1.7,0.7
2025-01-17T0900,1043A,119.7493,40.0116,秦皇岛市,第一关,颗粒物(PM10),77,103,62,45,27,7,,3,3,65,56,19,12,1.5,1
2025-01-17T0900,1044A,119.5897,39.9499,秦皇岛市,监测站,颗粒物(PM10),68,85,66,41,28,14,,5,5,60,50,19,10,1.5,1
2025-01-17T0900,1046A,119.5251,39.9041,秦皇岛市,建设大厦,颗粒物(PM10),70,89,68,39,32,13,,4,4,64,48,16,11,1.3,0.8
2025-01-17T0900,3132A,119.610547,39.943889,秦皇岛市,文明里,颗粒物(PM10),83,116,79,31,26,12,,4,4,62,50,18,10,1.3,0.7
2025-01-17T0900,1307A,120.6659,36.2403,青岛市,仰口,,24,23,44,11,24,74,,75,75,8,16,4,7,0.6,0.6
2025-01-17T0900,1310A,120.4134,36.0658,青岛市,市南区东部子站,颗粒物(PM10),75,100,82,51,36,14,,14,13,62,50,13,14,1.4,1
2025-01-17T0900,1311A,120.3664,36.1032,青岛市,四方区子站,细颗粒物(PM2.5),79,85,76,58,43,15,,8,8,62,56,16,17,1.5,1.2
2025-01-17T0900,1312A,120.2994,36.054,青岛市,市南区西部子站,,,,,,,,,,,,,,,,
