timepoint,stationcode,longitude,latitude,area,positionname,primarypollutant,aqi,pm10,pm10_24h,pm2_5,pm2_5_24h,o3,o3_24h,o3_8h,o3_8h_24h,no2,no2_24h,so2,so2_24h,co,co_24h
2025-04-01T0400,2566A,102.1879,31.914,阿坝藏族羌族自治州,州农科所,,27,27,49,6,17,36,,,,4,14,12,13,0.4,0.4
2025-04-01T0400,2568A,102.2502,31.8896,阿坝藏族羌族自治州,马师校,,33,,35,23,21,23,,,,8,14,5,5,0.4,0.5
2025-04-01T0400,3994A,102.2165,31.9024,阿坝藏族羌族自治州,马尔康中学西区,,21,21,29,10,13,30,,,,8,11,6,6,0.4,0.4
2025-04-01T0400,2695A,80.292,41.1694,阿克苏地区,电视台,颗粒物(PM10),500,659,744,184,193,12,,,,48,19,3,5,0.9,0.6
2025-04-01T0400,2696A,80.2613,41.1551,阿克苏地区,艺术中心,颗粒物(PM10),500,762,811,192,207,13,,,,44,21,3,4,1.0,0.6
2025-04-01T0400,2204A,105.6467,38.8363,阿拉善盟,西城区西花园,颗粒物(PM10),60,70,39,21,13,105,,,,6,10,11,9,0.5,0.6
2025-04-01T0400,2205A,105.6985,38.8411,阿拉善盟,蒙二幼,,45,45,35,24,12,94,,,,6,9,5,5,0.7,0.7
2025-04-01T0400,2206A,105.724,38.8516,阿拉善盟,环保局新楼,颗粒物(PM10),54,58,28,23,10,104,,,,2,4,8,8,0.8,0.8
2025-04-01T0400,2708A,88.1264,47.8517,阿勒泰地区,市站,,26,,15,6,5,82,,,,2,7,2,3,0.5,0.5
2025-04-01T0400,2630A,80.1161,32.5,阿里地区,阿里监测站,,30,18,13,9,7,95,,,,4,2,11,6,0.5,0.4
2025-04-01T0400,3192A,80.0903,32.5028,阿里地区,阿里藏医院,,32,16,17,7,6,100,,,,1,1,6,6,0.5,0.5
2025-04-01T0400,2642A,109.0318,32.6537,安康市,香溪洞,,31,31,43,20,22,54,,,,7,9,7,8,0.3,0.7
2025-04-01T0400,2644A,109.0072,32.6975,安康市,汉滨区检察院,,44,44,53,18,20,38,,,,10,15,8,8,0.3,0.4
2025-04-01T0400,4054A,109.0325,32.6913,安康市,市邮政管理局,,50,50,58,25,24,32,,,,15,17,19,10,0.4,0.5
2025-04-01T0400,2291A,117.0809,30.5177,安庆市,环科院,,42,42,59,23,31,50,,,,34,24,7,8,0.5,0.5
2025-04-01T0400,2292A,117.0331,30.5119,安庆市,马山宾馆,,49,49,60,25,31,16,,,,66,27,6,6,0.3,0.4
2025-04-01T0400,2294A,116.9896,30.6145,安庆市,安庆大学,颗粒物(PM10),57,64,66,26,35,54,,,,26,29,4,5,0.4,0.5
2025-04-01T0400,3173A,117.0598,30.5351,安庆市,市人大,,50,50,62,30,33,31,,,,40,24,9,8,0.8,0.7
2025-04-01T0400,3122A,105.9606,26.2611,安顺市,伍家关,,17,13,25,10,18,53,,,,5,6,7,10,0.5,0.4
2025-04-01T0400,3123A,105.9408,26.2431,安顺市,凤凰山,,18,18,29,11,20,55,,,,6,7,8,11,0.4,0.4
2025-04-01T0400,3124A,105.9439,26.2564,安顺市,金钟山,,20,20,26,11,20,53,,,,7,8,9,10,0.5,0.5
2025-04-01T0400,3125A,105.8983,26.2481,安顺市,娄家坡,,18,16,25,12,21,56,,,,7,9,8,12,0.5,0.5
2025-04-01T0400,1818A,114.4839,36.0621,安阳市,棉研所,,,,,,,,,,,,,,,,
2025-04-01T0400,1819A,114.3551,36.1017,安阳市,红庙街,颗粒物(PM10),64,78,85,44,42,36,,,,35,19,6,7,0.3,0.3
2025-04-01T0400,1820A,114.361,36.0681,安阳市,银杏小区,颗粒物(PM10),74,98,88,46,46,46,,,,25,20,4,5,0.5,0.4
2025-04-01T0400,3141A,114.3922,36.0878,安阳市,信访局,颗粒物(PM10),71,91,91,51,63,55,,,,24,21,5,6,0.6,0.6
2025-04-01T0400,3669A,114.4705,36.0637,安阳市,左辅环卫站,颗粒物(PM10),68,85,105,45,44,54,,,,16,15,7,5,0.5,0.5
2025-04-01T0400,3703A,114.2917,36.0949,安阳市,安钢职工学校,颗粒物(PM10),80,109,109,54,54,51,,,,20,22,3,5,0.5,0.5
2025-04-01T0400,1748A,123.044,41.1196,鞍山市,深沟寺,颗粒物(PM10),67,84,99,44,51,121,,,,6,14,12,15,0.7,0.9
2025-04-01T0400,1749A,123.011,41.0931,鞍山市,太阳城,颗粒物(PM10),66,81,98,44,52,118,,,,12,19,7,12,0.6,0.9
2025-04-01T0400,1750A,123.0485,41.1442,鞍山市,太平,颗粒物(PM10),67,84,107,40,53,118,,,,10,17,10,14,0.5,0.9
2025-04-01T0400,1751A,122.9642,41.0971,鞍山市,铁西三道街,颗粒物(PM10),71,91,104,44,54,114,,,,21,25,10,11,1.0,0.9
2025-04-01T0400,1753A,123.022,41.0821,鞍山市,明达新区,颗粒物(PM10),63,76,105,44,61,120,,,,9,15,8,12,0.5,0.7
2025-04-01T0400,1754A,123.1289,41.0228,鞍山市,千山,,,,48,,20,,,112,,,14,,8,,0.8
2025-04-01T0400,4201A,122.9446,41.0826,鞍山市,兴盛南路290号,颗粒物(PM10),75,100,117,46,55,102,,,,31,30,19,17,1.1,0.9
2025-04-01T0400,2195A,107.4212,40.761,巴彦淖尔市,附二中,颗粒物(PM10),66,81,50,31,17,83,,,,5,7,7,6,0.4,0.4
2025-04-01T0400,2196A,107.37,40.7372,巴彦淖尔市,市环保大楼,颗粒物(PM10),66,81,53,21,19,68,,,,6,9,4,4,0.2,0.2
2025-04-01T0400,1956A,86.1472,41.7538,巴音郭楞蒙古自治州,孔雀公园,颗粒物(PM10),500,622,675,155,155,3,,,,66,32,6,6,0.6,0.4
2025-04-01T0400,1957A,86.1972,41.7166,巴音郭楞蒙古自治州,棉纺厂,颗粒物(PM10),500,800,825,152,161,49,,,,13,25,2,2,0.3,0.3
2025-04-01T0400,1958A,86.2357,41.7173,巴音郭楞蒙古自治州,经济开发区,颗粒物(PM10),500,694,720,128,144,47,,,,12,15,4,4,0.1,0.2
2025-04-01T0400,2914A,106.7677,31.8794,巴中市,苏山坪,,36,33,29,25,19,46,,,,12,15,3,3,0.4,0.4
2025-04-01T0400,3181A,106.7768,31.8526,巴中市,市五中,,34,34,30,23,18,16,,,,13,16,4,5,0.5,0.6
2025-04-01T0400,3183A,106.7418,31.8654,巴中市,圣泉水务公司,,32,27,26,22,18,7,,,,29,26,7,7,0.6,0.6
2025-04-01T0400,3616A,106.7616,31.8344,巴中市,市中心医院,,43,36,27,30,20,13,,,,17,14,5,6,0.5,0.5
2025-04-01T0400,2235A,122.7911,45.6077,白城市,洮北区环保局,,29,29,35,15,32,63,,,,8,12,6,6,0.6,0.6
2025-04-01T0400,2236A,122.8738,45.5725,白城市,市环保局,,22,,25,15,18,34,,,,28,14,2,6,0.5,0.5
2025-04-01T0400,2231A,126.4219,41.9171,白山市,喜丰,颗粒物(PM10),67,84,60,44,25,68,,,,28,20,6,8,1.0,1
2025-04-01T0400,2232A,126.4077,41.9419,白山市,环保局,颗粒物(PM10),57,63,59,31,22,54,,,,19,20,21,19,0.8,0.7
2025-04-01T0400,2647A,104.1724,36.5446,白银市,第三小学,颗粒物(PM10),196,341,135,90,39,86,,,,6,13,9,9,0.4,0.5
2025-04-01T0400,2648A,104.1465,36.5482,白银市,动力公司,颗粒物(PM10),157,263,128,82,40,68,,,,14,12,2,3,0.4,0.4
2025-04-01T0400,2512A,106.6103,23.9011,百色市,市监测站,,30,30,29,19,16,32,,,,17,13,9,9,0.6,0.5
2025-04-01T0400,2513A,106.6538,23.8859,百色市,市中心血站,,46,43,34,32,26,21,,,,30,14,13,12,0.7,0.6
2025-04-01T0400,3406A,106.6085,23.8798,百色市,祈福高中,,31,31,35,14,14,23,,,,24,18,5,6,0.5,0.5
2025-04-01T0400,2270A,117.396,32.939,蚌埠市,工人疗养院,,44,44,56,20,28,90,,,,13,17,6,5,0.4,0.5
2025-04-01T0400,2271A,117.3605,32.9427,蚌埠市,百货大楼,颗粒物(PM10),54,57,57,32,27,77,,,,30,24,10,7,0.5,0.5
2025-04-01T0400,2273A,117.4185,32.8911,蚌埠市,蚌埠学院,,44,44,50,18,25,86,,,,15,18,5,4,0.4,0.5
2025-04-01T0400,2274A,117.3533,32.9673,蚌埠市,淮上区政府,颗粒物(PM10),52,53,55,33,30,84,,,,22,17,9,6,0.4,0.3
2025-04-01T0400,2275A,117.3145,32.8977,蚌埠市,高新区,,41,41,55,25,29,79,,,,15,17,6,6,0.4,0.4
2025-04-01T0400,3715A,117.3092,32.9314,蚌埠市,蚌埠田家炳中学,颗粒物(PM10),52,53,67,25,29,81,,,,24,26,20,14,0.4,0.4
2025-04-01T0400,1585A,109.8756,40.6532,包头市,市环境监测站,,18,18,50,9,15,47,,,,27,29,10,13,0.5,0.6
2025-04-01T0400,1587A,109.9991,40.5842,包头市,包头八中,,44,44,51,27,24,9,,,,65,39,17,16,0.7,0.8
2025-04-01T0400,1588A,109.8538,40.6821,包头市,青山宾馆,,20,20,39,11,16,43,,,,24,26,8,11,0.5,0.6
2025-04-01T0400,1589A,109.8642,40.6288,包头市,惠龙物流,,34,34,45,18,19,22,,,,58,32,39,16,1.1,0.9
2025-04-01T0400,1590A,110.0377,40.5546,包头市,东河鸿龙湾,,49,49,45,16,13,20,,,,50,26,29,14,0.9,0.7
2025-04-01T0400,3283A,109.9154,40.5685,包头市,滨河大厦,,50,50,41,23,19,46,,,,26,25,20,20,0.6,0.7
2025-04-01T0400,3419A,109.9447,40.6261,包头市,包头市委党校,,39,39,47,8,13,22,,,,56,31,8,12,0.8,0.8
2025-04-01T0400,3683A,109.8331,40.6576,包头市,昆区政府,,23,20,44,16,19,50,,,,27,27,8,12,0.5,0.7
2025-04-01T0400,1930A,107.185,34.3063,宝鸡市,庙沟村,颗粒物(PM10),58,65,77,23,28,85,,,,12,14,6,7,0.3,0.3
2025-04-01T0400,1931A,107.0708,34.3017,宝鸡市,竹园沟,,,,,,,,,,,,,,,,
2025-04-01T0400,1932A,107.1906,34.3672,宝鸡市,三陆医院,颗粒物(PM10),55,60,85,25,36,45,,,,25,28,6,7,0.6,0.6
2025-04-01T0400,1933A,107.1431,34.3547,宝鸡市,监测站,颗粒物(PM10),60,70,96,30,35,47,,,,14,24,8,9,0.4,0.6
2025-04-01T0400,1934A,107.1186,34.3739,宝鸡市,技工学校,,39,38,81,27,35,59,,,,7,17,6,8,0.5,0.5
2025-04-01T0400,1935A,107.3906,34.3528,宝鸡市,陈仓区环保局家属楼,颗粒物(PM10),64,77,89,33,38,52,,,,30,28,68,45,0.6,0.6
2025-04-01T0400,1936A,107.2058,34.3497,宝鸡市,文理学院,颗粒物(PM10),64,78,84,25,33,50,,,,21,23,7,7,0.4,0.5
2025-04-01T0400,1937A,107.2386,34.3622,宝鸡市,三迪小学,颗粒物(PM10),55,60,91,31,43,39,,,,33,33,7,7,0.6,0.6
2025-04-01T0400,1051A,115.493,38.8632,保定市,游泳馆,颗粒物(PM10),80,110,82,55,38,61,,,,29,32,5,5,0.5,0.5
2025-04-01T0400,1052A,115.5213,38.8959,保定市,华电二区,细颗粒物(PM2.5),78,93,63,57,32,66,,,,18,19,2,4,0.5,0.4
2025-04-01T0400,1053A,115.4713,38.9108,保定市,接待中心,细颗粒物(PM2.5),83,98,73,61,44,52,,,,25,22,6,6,0.6,0.5
2025-04-01T0400,1054A,115.4612,38.8416,保定市,地表水厂,颗粒物(PM10),83,116,90,54,42,64,,,,27,30,5,5,0.8,0.5
2025-04-01T0400,3581A,115.31981,38.95208,保定市,满城区生态环境分局,颗粒物(PM10),76,102,79,31,38,48,,,,30,27,4,4,0.6,0.4
2025-04-01T0400,3582A,115.47694,38.76408,保定市,清苑区第二中学,颗粒物(PM10),79,107,85,46,33,59,,,,27,27,4,6,0.4,0.4
2025-04-01T0400,3583A,115.62909,39.02311,保定市,徐水物探局,颗粒物(PM10),81,112,85,48,33,54,,,,31,32,7,7,0.3,0.2
2025-04-01T0400,4004A,115.4202,38.8656,保定市,双鹰农机,颗粒物(PM10),78,105,73,49,35,40,,,,51,34,6,7,0.5,0.5
2025-04-01T0400,4034A,115.5150,38.8590,保定市,植保所站,颗粒物(PM10),78,105,76,56,43,65,,,,20,22,6,4,0.4,0.4
2025-04-01T0400,2594A,99.1678,25.1081,保山市,市环境监测站,细颗粒物(PM2.5),88,90,103,65,71,138,,,,10,15,7,6,0.6,0.7
2025-04-01T0400,2595A,99.1711,25.1328,保山市,市环保局,细颗粒物(PM2.5),103,101,113,77,72,158,,,,8,12,7,6,0.9,0.9
2025-04-01T0400,1866A,109.2262,21.588,北海市,牛尾岭水库,,,,15,,15,,,29,,,5,,6,,0.8
2025-04-01T0400,1867A,109.1436,21.4086,北海市,海滩公园,,18,17,22,12,14,49,,,,9,10,6,6,0.4,0.5
2025-04-01T0400,1868A,109.0981,21.4661,北海市,新市环保局,,25,19,22,17,19,48,,,,9,10,3,3,0.5,0.6
2025-04-01T0400,1869A,109.1778,21.5233,北海市,北海工业园,,25,18,26,17,20,46,,,,9,11,7,8,0.6,0.6
2025-04-01T0400,3400A,109.1911,21.4415,北海市,龙潭自来水厂,,19,19,22,13,20,44,,,,8,10,7,6,0.4,0.4
2025-04-01T0400,1001A,116.3621,39.8784,北京市,万寿西宫,颗粒物(PM10),76,102,89,38,41,21,,,,75,48,3,3,0.5,0.5
2025-04-01T0400,1002A,116.2202,40.2915,北京市,定陵,,,,,,,,,,,,,,,,
2025-04-01T0400,1003A,116.4174,39.9289,北京市,东四,颗粒物(PM10),70,89,86,42,44,38,,,,45,42,8,8,0.5,0.5
2025-04-01T0400,1004A,116.4072,39.8863,北京市,天坛,颗粒物(PM10),66,82,76,39,38,39,,,,41,41,1,2,0.7,0.7
2025-04-01T0400,1005A,116.462,39.9365,北京市,农展馆,颗粒物(PM10),69,87,83,36,40,39,,,,42,41,8,8,0.3,0.4
2025-04-01T0400,1006A,116.3392,39.9295,北京市,官园,颗粒物(PM10),73,96,90,41,45,29,,,,49,42,8,8,0.5,0.6
2025-04-01T0400,1007A,116.2878,39.9611,北京市,海淀万柳,颗粒物(PM10),74,97,85,32,37,23,,,,60,45,5,6,0.6,0.7
2025-04-01T0400,1008A,116.6636,40.135,北京市,顺义新城,颗粒物(PM10),75,99,73,38,33,11,,,,75,45,6,8,0.4,0.4
2025-04-01T0400,1009A,116.6275,40.3275,北京市,怀柔镇,,16,11,45,3,25,51,,,,4,21,2,4,0.2,0.4
2025-04-01T0400,1010A,116.2296,40.217,北京市,昌平镇,,17,17,42,6,18,35,,,,21,26,1,2,0.5,0.6
2025-04-01T0400,1011A,116.3966,39.9821,北京市,奥体中心,颗粒物(PM10),67,83,149,36,38,27,,,,60,47,5,6,0.7,0.7
2025-04-01T0400,3281A,115.9718,40.4529,北京市,延庆夏都,,22,22,35,9,18,35,,,,10,23,5,6,0.4,0.5
2025-04-01T0400,3418A,116.8336,40.4095,北京市,密云新城,,42,42,54,21,28,43,,,,13,25,3,4,0.4,0.5
2025-04-01T0400,3671A,116.088,39.9726,北京市,门头沟三家店,,24,24,81,6,25,47,,,,20,46,4,5,0.2,0.4
2025-04-01T0400,3672A,116.1541,39.8204,北京市,丰台云岗,颗粒物(PM10),58,66,92,15,37,15,,,,63,57,6,6,0.3,0.4
2025-04-01T0400,3673A,116.6804,39.9081,北京市,通州东关,颗粒物(PM10),77,104,90,49,46,55,,,,40,41,8,7,0.4,0.5
2025-04-01T0400,3674A,115.9577,39.7603,北京市,房山燕山,,28,28,62,14,30,48,,,,20,34,4,6,0.3,0.4
2025-04-01T0400,3675A,116.4672,39.7733,北京市,大兴旧宫,颗粒物(PM10),75,100,86,43,38,44,,,,29,38,2,2,0.4,0.4
2025-04-01T0400,3694A,115.986,40.4563,北京市,延庆石河营,,22,22,37,9,14,19,,,,20,26,4,5,0.4,0.4
2025-04-01T0400,3695A,116.6151,40.3053,北京市,怀柔新城,,19,10,41,3,21,60,,,,3,18,4,6,0.4,0.5
2025-04-01T0400,3696A,116.2545,39.8768,北京市,丰台小屯,颗粒物(PM10),74,98,87,49,43,11,,,,75,58,3,4,0.6,0.6
2025-04-01T0400,3697A,116.84,40.3844,北京市,密云镇,颗粒物(PM10),54,58,61,23,28,12,,,,52,42,5,6,0.5,0.6
2025-04-01T0400,4182A,116.1942,39.9158,北京市,八角北路9号,颗粒物(PM10),63,75,90,21,34,8,,,,63,47,1,3,0.1,0.3
2025-04-01T0400,4194A,117.0790,40.1518,北京市,洳河巡河路,颗粒物(PM10),58,65,63,33,36,48,,,,24,28,3,5,0.6,0.5
2025-04-01T0400,1761A,123.8275,41.3064,本溪市,大峪,颗粒物(PM10),68,85,78,48,41,114,,,,13,13,9,10,0.5,0.6
2025-04-01T0400,1762A,123.7567,41.3325,本溪市,溪湖,细颗粒物(PM2.5),80,84,61,59,43,111,,,,20,20,11,8,1.1,0.7
2025-04-01T0400,1763A,123.7169,41.3094,本溪市,彩屯,细颗粒物(PM2.5),89,111,95,66,51,90,,,,34,33,18,21,2.9,2.5
2025-04-01T0400,1764A,123.7669,41.2864,本溪市,东明,细颗粒物(PM2.5),65,70,66,47,33,115,,,,10,14,8,8,0.7,0.6
2025-04-01T0400,1765A,123.7992,41.2664,本溪市,新立屯,细颗粒物(PM2.5),74,73,57,54,40,120,,,,14,15,7,7,0.6,0.6
2025-04-01T0400,1766A,123.8142,41.3472,本溪市,威宁,细颗粒物(PM2.5),102,140,101,76,52,92,,,,10,18,4,6,0.9,0.8
2025-04-01T0400,2587A,105.2864,27.3125,毕节市,八中,,17,13,17,11,13,53,,,,6,7,8,8,0.6,0.6
2025-04-01T0400,2588A,105.31,27.2944,毕节市,师专,,19,14,17,11,15,59,,,,7,9,5,5,0.5,0.5
2025-04-01T0400,4263A,105.3688,27.3598,毕节市,工业大道,,19,8,15,6,11,59,,,,8,9,7,7,0.2,0.2
2025-04-01T0400,1629A,118.0018,37.3617,滨州市,第二水厂,颗粒物(PM10),74,97,106,48,38,56,,,,33,28,12,10,0.8,0.7
2025-04-01T0400,1630A,117.9776,37.393,滨州市,北中新校,,,,,,,,,,,,,,,,
2025-04-01T0400,3514A,117.9378,37.3956,滨州市,中海酒店,颗粒物(PM10),63,75,90,44,41,93,,,,17,18,11,12,0.5,0.5
2025-04-01T0400,3515A,117.9378,37.3553,滨州市,开发区一中,颗粒物(PM10),73,95,107,44,40,61,,,,43,33,15,12,0.4,0.4
2025-04-01T0400,3516A,118.0917,37.694,滨州市,金海六路,颗粒物(PM10),65,80,100,34,37,67,,,,38,36,10,9,0.8,0.8
2025-04-01T0400,4028A,117.9956,37.3753,滨州市,滨州市西街道办事处,细颗粒物(PM2.5),77,100,101,56,45,70,,,,29,23,10,9,0.6,0.6
2025-04-01T0400,2311A,115.8072,33.8399,亳州市,污水处理厂,颗粒物(PM10),54,58,92,32,39,83,,,,17,17,4,4,0.3,0.3
2025-04-01T0400,2312A,115.7789,33.8518,亳州市,三国揽胜宫,颗粒物(PM10),59,68,99,27,39,91,,,,12,13,4,5,0.3,0.4
2025-04-01T0400,3332A,115.7633,33.8034,亳州市,亳州学院,颗粒物(PM10),57,63,94,35,41,76,,,,13,13,5,6,0.4,0.5
2025-04-01T0400,2693A,82.0485,44.8556,博尔塔拉蒙古自治州,市党校,,48,48,61,25,24,74,,,,17,23,1,2,0.2,0.1
2025-04-01T0400,2694A,82.0806,44.8969,博尔塔拉蒙古自治州,市环保局,,,,66,,30,,,,,,21,,2,,0.3
2025-04-01T0400,1071A,116.8842,38.2991,沧州市,沧县城建局,"颗粒物(PM10),细颗粒物(PM2.5)",75,99,101,55,48,66,,,,16,19,4,6,0.4,0.4
2025-04-01T0400,1072A,116.8584,38.3254,沧州市,电视转播站,颗粒物(PM10),74,97,97,51,48,76,,,,19,20,3,6,0.4,0.4
2025-04-01T0400,1073A,116.8709,38.3228,沧州市,市环保局,"颗粒物(PM10),细颗粒物(PM2.5)",68,86,89,49,47,62,,,,20,20,5,10,0.4,0.4
2025-04-01T0400,3324A,116.8136,38.3004,沧州市,河北水利电力学院,颗粒物(PM10),70,90,116,48,50,63,,,,21,24,5,7,0.4,0.4
2025-04-01T0400,2622A,97.1806,31.1273,昌都市,昌都监测站,,23,11,16,9,8,73,,,,4,6,7,7,0.1,0.1
2025-04-01T0400,3719A,97.1714,31.1406,昌都市,昌都会议中心,,,14,18,8,8,82,,,,,7,3,3,0.1,0.2
2025-04-01T0400,2690A,88.1236,43.8886,昌吉回族自治州,天山天池,,27,27,34,3,8,72,,,,10,11,4,5,0.6,0.6
2025-04-01T0400,2692A,87.2717,44.0297,昌吉回族自治州,新区政务中心,,42,42,57,9,16,65,,,,9,22,8,9,0.7,0.8
2025-04-01T0400,3613A,87.3095,44.0142,昌吉回族自治州,亚心广场,颗粒物(PM10),60,70,74,17,22,51,,,,15,25,7,8,0.9,0.6
2025-04-01T0400,1119A,125.3325,43.9166,长春市,食品厂,细颗粒物(PM2.5),87,79,75,64,60,75,,,,20,30,10,11,0.6,0.6
2025-04-01T0400,1120A,125.2863,43.9027,长春市,客车厂,细颗粒物(PM2.5),99,78,70,74,63,65,,,,27,31,8,9,0.7,0.7
2025-04-01T0400,1121A,125.2841,43.8463,长春市,邮电学院,细颗粒物(PM2.5),114,,79,86,63,70,,,,20,23,10,11,0.6,0.6
2025-04-01T0400,1122A,125.3716,43.8772,长春市,劳动公园,细颗粒物(PM2.5),94,,72,70,61,70,,,,17,21,8,10,0.7,0.5
2025-04-01T0400,1123A,125.3297,43.8805,长春市,园林处,细颗粒物(PM2.5),99,,70,74,60,76,,,,16,22,8,11,0.5,0.5
2025-04-01T0400,1124A,125.4605,43.79,长春市,净月潭,细颗粒物(PM2.5),85,72,71,63,57,70,,,,12,15,7,8,0.7,0.6
2025-04-01T0400,1125A,125.7194,43.515,长春市,甩湾子,细颗粒物(PM2.5),70,,83,51,69,61,,,,12,16,2,5,0.7,0.8
2025-04-01T0400,1126A,125.3863,43.8447,长春市,经开区环卫处,细颗粒物(PM2.5),92,74,75,68,55,66,,,,18,30,7,8,0.5,0.5
2025-04-01T0400,1127A,125.245,43.7783,长春市,高新区管委会,细颗粒物(PM2.5),109,,78,82,74,59,,,,21,26,8,10,0.7,0.6
2025-04-01T0400,1128A,125.1761,43.8325,长春市,岱山公园,细颗粒物(PM2.5),114,86,72,86,68,62,,,,30,30,6,8,0.8,0.7
2025-04-01T0400,1335A,113.0833,28.2325,长沙市,经开区环保局,颗粒物(PM10),69,87,80,46,35,6,,,,56,26,4,4,0.5,0.4
2025-04-01T0400,1336A,112.8872,28.2189,长沙市,高开区环保局,颗粒物(PM10),67,84,73,44,36,21,,,,44,21,4,5,0.6,0.5
2025-04-01T0400,1337A,113.0792,28.2053,长沙市,马坡岭,颗粒物(PM10),72,94,84,47,38,8,,,,45,25,5,5,0.6,0.5
2025-04-01T0400,1338A,112.9394,28.19,长沙市,湖南师范大学,颗粒物(PM10),59,68,75,33,32,36,,,,23,17,4,5,0.5,0.5
2025-04-01T0400,1339A,113.0178,28.1322,长沙市,雨花区环保局,颗粒物(PM10),65,79,79,40,38,34,,,,30,27,6,6,0.5,0.5
2025-04-01T0400,1340A,112.9792,28.2597,长沙市,伍家岭,颗粒物(PM10),74,98,86,36,35,22,,,,45,24,3,4,0.6,0.5
2025-04-01T0400,1341A,113.0014,28.1944,长沙市,火车新站,颗粒物(PM10),71,91,83,44,40,13,,,,62,25,6,6,0.7,0.5
2025-04-01T0400,1342A,112.9844,28.1178,长沙市,天心区环保局,颗粒物(PM10),65,79,79,40,38,44,,,,27,25,4,3,0.9,0.8
2025-04-01T0400,1343A,112.8908,28.1308,长沙市,湖南中医药大学,颗粒物(PM10),58,65,73,30,36,9,,,,34,24,3,4,0.4,0.4
2025-04-01T0400,1344A,112.9581,28.3611,长沙市,沙坪,颗粒物(PM10),56,61,60,30,33,38,,,,11,12,5,6,0.4,0.3
2025-04-01T0400,1727A,113.1147,36.1547,长治市,清华站,颗粒物(PM10),52,54,48,22,23,66,,,,28,23,6,8,0.6,0.6
2025-04-01T0400,1730A,113.0886,36.2125,长治市,审计局,颗粒物(PM10),54,57,48,24,27,62,,,,36,25,9,10,0.3,0.4
2025-04-01T0400,1731A,113.0844,36.1856,长治市,长治八中,颗粒物(PM10),60,69,63,36,33,64,,,,25,25,10,10,0.5,0.5
2025-04-01T0400,2845A,113.1569,36.1911,长治市,德盛苑,,40,40,42,19,22,94,,,,11,13,6,7,0.6,0.6
2025-04-01T0400,3568A,113.06,36.0464,长治市,向阳小学,颗粒物(PM10),53,56,60,18,27,69,,,,18,18,13,12,0.5,0.5
2025-04-01T0400,3569A,112.8792,36.3144,长治市,屯留一中,,38,38,48,25,18,76,,,,28,32,7,8,0.5,0.5
2025-04-01T0400,4189A,113.1131,36.19948,长治市,英华南巷50号,颗粒物(PM10),60,70,52,29,26,67,,,,24,23,16,13,1.0,0.9
2025-04-01T0400,4190A,113.2367,36.3344,长治市,学府街1号,颗粒物(PM10),57,63,60,37,33,55,,,,40,26,11,12,0.7,0.8
2025-04-01T0400,1854A,111.6975,28.9703,常德市,市二中,颗粒物(PM10),56,62,55,39,31,22,,,,19,18,4,4,0.6,0.4
2025-04-01T0400,1857A,111.7158,29.1456,常德市,白鹤山,,,,,,,,,,,,,,,,
2025-04-01T0400,3138A,111.7153,29.0289,常德市,武陵区永安,颗粒物(PM10),62,74,62,38,31,54,,,,21,19,6,3,0.6,0.6
2025-04-01T0400,3139A,111.6892,28.9881,常德市,鼎城区玉霞,颗粒物(PM10),57,64,56,34,30,18,,,,22,21,4,5,0.4,0.4
2025-04-01T0400,3140A,111.6625,29.0531,常德市,武陵区长庚,颗粒物(PM10),60,70,61,34,28,22,,,,41,20,5,5,0.5,0.5
2025-04-01T0400,1196A,119.9633,31.762,常州市,市监测站,颗粒物(PM10),60,70,53,33,23,87,,,,6,16,5,6,0.4,0.5
2025-04-01T0400,1200A,119.9468,31.7069,常州市,武进监测站,,47,47,37,19,16,90,,,,21,23,14,13,0.5,0.3
2025-04-01T0400,1201A,119.9255,31.9087,常州市,安家,颗粒物(PM10),59,67,48,34,23,45,,,,31,28,7,8,0.5,0.5
2025-04-01T0400,3002A,119.9805,31.8174,常州市,行政中心,颗粒物(PM10),51,51,41,21,18,88,,,,24,30,7,8,0.4,0.5
2025-04-01T0400,3003A,120.0522,31.7748,常州市,经开区,颗粒物(PM10),56,61,48,26,18,82,,,,26,33,10,9,0.5,0.5
2025-04-01T0400,3010A,119.9025,31.7964,常州市,钟楼,,50,50,43,23,17,92,,,,16,20,6,7,0.7,0.7
2025-04-01T0400,3429A,119.8598,31.7066,常州市,武进经发区,颗粒物(PM10),53,56,42,32,19,87,,,,24,25,7,7,0.6,0.6
2025-04-01T0400,3430A,119.5826,31.7245,常州市,金坛城区,,47,47,40,24,19,101,,,,14,17,8,8,0.6,0.6
2025-04-01T0400,2220A,120.4318,41.5881,朝阳市,西梁,颗粒物(PM10),63,76,62,31,32,5,,,,52,35,11,12,1.0,1
2025-04-01T0400,2221A,120.4521,41.5646,朝阳市,河畔小区,细颗粒物(PM2.5),83,70,56,61,37,17,,,,51,28,8,10,1.2,1.1
2025-04-01T0400,2222A,120.4176,41.5648,朝阳市,八里堡,,44,44,58,23,32,35,,,,21,31,9,9,0.8,0.9
2025-04-01T0400,2223A,120.3806,41.5969,朝阳市,农业园区,"颗粒物(PM10),细颗粒物(PM2.5)",69,88,58,50,36,7,,,,57,30,10,10,0.9,0.7
2025-04-01T0400,1705A,116.6367,23.6719,潮州市,西园路,,,,,,,,,,,,,,,,
2025-04-01T0400,3026A,116.6183,23.6608,潮州市,市政府,,9,6,6,3,3,27,,,,10,11,3,3,0.5,0.6
2025-04-01T0400,4036A,116.6461,23.6761,潮州市,金山,,9,6,6,3,4,26,,,,10,12,6,6,0.5,0.6
2025-04-01T0400,2472A,113.0073,25.9061,郴州市,马头岭,,26,26,41,8,15,8,,,,9,11,7,8,0.6,0.7
2025-04-01T0400,2473A,113.0116,25.8226,郴州市,市职中,,42,42,38,24,26,8,,,,14,13,5,4,0.7,0.6
2025-04-01T0400,2475A,113.0383,25.8071,郴州市,市审计局,,43,43,39,25,27,6,,,,18,13,4,5,0.8,0.7
2025-04-01T0400,2476A,113.0348,25.7759,郴州市,市环保局,细颗粒物(PM2.5),55,52,44,39,32,10,,,,17,13,6,6,0.6,0.5
2025-04-01T0400,4252A,113.0138,25.8011,郴州市,好美居路49号,,41,41,47,27,31,9,,,,14,15,9,7,0.5,0.5
2025-04-01T0400,1431A,103.9728,30.7236,成都市,金泉两河,,50,50,39,17,19,10,,,,25,25,2,2,0.8,0.7
2025-04-01T0400,1432A,104.176,30.6872,成都市,十里店,,42,31,39,29,23,22,,,,23,32,3,3,0.6,0.6
2025-04-01T0400,1433A,104.079,30.5706,成都市,三瓦窑,细颗粒物(PM2.5),62,54,37,44,25,18,,,,29,40,4,4,0.9,0.9
2025-04-01T0400,1434A,104.1114,30.63,成都市,沙河铺,细颗粒物(PM2.5),53,53,40,37,32,15,,,,20,26,5,5,0.6,0.6
2025-04-01T0400,1437A,104.0786,30.6531,成都市,君平街,细颗粒物(PM2.5),54,52,38,38,27,20,,,,27,31,6,5,0.9,0.9
2025-04-01T0400,1438A,103.613,31.0283,成都市,灵岩寺,,,,,,,,,,,,,,,,
2025-04-01T0400,2880A,104.0239,30.65639,成都市,大石西路,细颗粒物(PM2.5),68,58,41,49,28,14,,,,26,30,4,4,0.9,0.8
2025-04-01T0400,3136A,104.2725,30.5589,成都市,龙泉驿区区政府,,18,,26,12,23,28,,,,16,26,3,4,0.7,0.8
2025-04-01T0400,3357A,104.0106,30.6931,成都市,金博路,,40,36,26,28,19,14,,,,23,29,6,5,0.6,0.6
2025-04-01T0400,3359A,104.0578,30.5225,成都市,华阳,细颗粒物(PM2.5),70,61,35,51,32,17,,,,27,30,4,4,0.6,0.5
2025-04-01T0400,3488A,104.3853,30.7453,成都市,青白江技师分院,,38,35,37,26,27,30,,,,18,32,5,5,0.7,0.8
2025-04-01T0400,3489A,104.0789,30.4072,成都市,科学城,细颗粒物(PM2.5),73,63,40,53,30,20,,,,25,23,5,4,0.7,0.6
2025-04-01T0400,4011A,103.8506,30.6947,成都市,光华大道三段,,49,46,32,34,20,15,,,,27,28,4,4,0.8,0.8
2025-04-01T0400,4224A,104.2433,30.5353,成都市,鲸龙路1057号,,23,21,33,16,26,30,,,,18,30,3,3,0.7,0.8
2025-04-01T0400,1062A,117.9531,40.9081,承德市,铁路,,40,40,40,23,15,21,,,,40,26,7,8,0.5,0.4
2025-04-01T0400,1063A,117.9392,40.9763,承德市,中国银行,,42,42,42,26,15,26,,,,26,19,3,6,0.4,0.5
2025-04-01T0400,1064A,117.9503,40.928,承德市,开发区,,47,47,44,19,18,23,,,,33,23,6,7,0.5,0.4
2025-04-01T0400,1065A,117.8051,40.9655,承德市,文化中心,颗粒物(PM10),61,72,60,29,22,28,,,,32,27,9,12,0.6,0.6
2025-04-01T0400,1066A,117.9268,41.0026,承德市,离宫,颗粒物(PM10),51,52,39,31,25,21,,,,25,13,17,16,0.4,0.4
2025-04-01T0400,2314A,117.47,30.6618,池州市,池州学院,,38,38,52,23,29,30,,,,31,19,4,7,0.6,0.5
2025-04-01T0400,3237A,117.4918,30.6617,池州市,展览馆,,30,30,50,18,28,44,,,,23,19,4,6,0.5,0.6
2025-04-01T0400,3333A,117.5627,30.695,池州市,第八中学,,38,38,52,21,27,70,,,,15,16,5,5,0.8,0.8
2025-04-01T0400,3334A,117.5038,30.6243,池州市,第十二中学,,32,32,51,19,28,14,,,,44,25,4,5,1.0,0.7
2025-04-01T0400,1744A,118.9233,42.2816,赤峰市,松山一中,,25,25,33,3,13,20,,,,40,32,8,11,0.6,0.8
2025-04-01T0400,1745A,118.9576,42.2728,赤峰市,哈达街,,26,26,27,7,12,29,,,,30,25,8,8,0.6,0.6
2025-04-01T0400,1746A,118.8788,42.2554,赤峰市,天义路,,21,21,30,14,11,33,,,,24,24,9,9,0.4,0.4
2025-04-01T0400,3058A,119.2658,42.0353,赤峰市,银河街,,28,24,46,19,26,55,,,,17,30,24,22,0.3,0.5
2025-04-01T0400,3286A,118.9359,42.3147,赤峰市,桥北物流园区,,30,,34,21,19,11,,,,53,38,8,9,0.7,0.6
2025-04-01T0400,2521A,107.3476,22.4136,崇左市,市环保局江州分局,,33,33,31,21,17,50,,,,13,11,6,7,0.5,0.4
2025-04-01T0400,4256A,107.3750,22.3736,崇左市,石景林东路7号,,22,22,29,14,15,57,,,,11,10,6,6,0.4,0.5
2025-04-01T0400,2298A,118.3093,32.3153,滁州市,老年大学,颗粒物(PM10),53,55,42,30,21,69,,,,21,18,4,4,0.6,0.5
2025-04-01T0400,2299A,118.3244,32.2786,滁州市,人大宾馆,,46,46,38,31,18,72,,,,27,17,10,9,0.5,0.5
2025-04-01T0400,3207A,118.3118,32.3038,滁州市,市政府原办公楼,,46,46,36,30,20,67,,,,29,20,7,6,0.3,0.3
2025-04-01T0400,3331A,118.3267,32.2634,滁州市,图书馆,颗粒物(PM10),52,53,39,30,24,72,,,,35,25,9,7,0.4,0.4
2025-04-01T0400,2605A,101.5482,25.0441,楚雄彝族自治州,州环境监测站,细颗粒物(PM2.5),72,64,68,52,55,86,,,,20,18,9,9,0.7,0.7
2025-04-01T0400,2606A,101.538,25.0492,楚雄彝族自治州,市经济开发区,细颗粒物(PM2.5),70,67,70,51,54,92,,,,16,15,7,8,0.8,0.8
2025-04-01T0400,2548A,107.5277,31.2827,达州市,达州职业技术学院,,34,34,38,14,16,2,,,,26,22,5,6,0.3,0.3
2025-04-01T0400,2549A,107.5086,31.2186,达州市,市环境监测站,,35,35,36,12,11,18,,,,21,24,4,4,0.5,0.5
2025-04-01T0400,2550A,107.4988,31.2132,达州市,凤凰小区,,29,29,33,19,16,17,,,,27,22,5,6,0.4,0.4
2025-04-01T0400,2551A,107.5082,31.1986,达州市,达县机关宾馆,,29,29,36,3,17,4,,,,31,28,4,5,0.3,0.3
2025-04-01T0400,2552A,107.4644,31.2124,达州市,市政中心,,43,43,41,14,13,21,,,,26,22,2,2,0.5,0.5
2025-04-01T0400,2614A,100.1542,25.7054,大理白族自治州,大理市环境监测站,细颗粒物(PM2.5),78,81,79,57,53,113,,,,19,11,8,8,1.2,1
2025-04-01T0400,2615A,100.2171,25.5811,大理白族自治州,大理古城,,,60,70,53,58,126,,,,,7,8,8,0.7,0.6
2025-04-01T0400,1109A,121.612,38.9741,大连市,甘井子,细颗粒物(PM2.5),82,96,72,60,44,98,,,,26,28,9,9,0.1,0.2
2025-04-01T0400,1110A,121.565,38.9511,大连市,周水子,细颗粒物(PM2.5),88,89,67,65,47,86,,,,23,26,10,11,0.6,0.5
2025-04-01T0400,1111A,121.5637,38.8845,大连市,星海三站,细颗粒物(PM2.5),88,98,72,65,47,98,,,,12,18,8,9,0.7,0.6
2025-04-01T0400,1112A,121.6302,38.9117,大连市,青泥洼桥,细颗粒物(PM2.5),80,102,78,59,46,101,,,,18,22,10,11,0.8,0.7
2025-04-01T0400,1113A,121.6251,38.8638,大连市,傅家庄,细颗粒物(PM2.5),84,100,74,62,50,98,,,,21,28,9,10,0.3,0.4
2025-04-01T0400,1114A,121.5213,38.8661,大连市,七贤岭,细颗粒物(PM2.5),75,97,79,55,44,91,,,,16,19,8,9,0.5,0.5
2025-04-01T0400,1115A,121.2529,38.8061,大连市,旅顺,细颗粒物(PM2.5),72,82,78,52,50,90,,,,25,31,9,10,0.6,0.6
2025-04-01T0400,1116A,121.7485,39.1311,大连市,金州,细颗粒物(PM2.5),83,109,89,61,45,95,,,,30,28,12,12,0.7,0.6
2025-04-01T0400,1117A,121.7811,39.0496,大连市,开发区,细颗粒物(PM2.5),80,90,66,59,45,95,,,,20,28,7,8,0.7,0.7
2025-04-01T0400,1118A,121.9762,39.0631,大连市,双D港,细颗粒物(PM2.5),80,90,83,59,48,102,,,,23,27,8,10,0.7,0.7
2025-04-01T0400,1789A,124.81117,46.03138,大庆市,大同区,细颗粒物(PM2.5),79,63,53,58,43,46,,,,13,13,5,6,0.6,0.6
2025-04-01T0400,1790A,125.129,46.533,大庆市,龙凤区,细颗粒物(PM2.5),80,80,58,59,32,49,,,,13,16,13,10,0.5,0.5
2025-04-01T0400,1791A,124.902,46.408,大庆市,红岗区,细颗粒物(PM2.5),65,65,38,47,27,40,,,,16,11,5,5,0.7,0.5
2025-04-01T0400,1792A,125.153,46.586,大庆市,萨尔图区,细颗粒物(PM2.5),83,71,54,61,34,50,,,,14,18,8,9,0.6,0.6
2025-04-01T0400,1793A,124.9042,46.6215,大庆市,让胡路区,细颗粒物(PM2.5),105,,36,79,31,40,,,,17,12,6,6,0.5,0.3
2025-04-01T0400,3481A,125.141,46.634,大庆市,萨区政府监测点,细颗粒物(PM2.5),77,88,46,56,24,52,,,,13,14,8,8,0.6,0.4
2025-04-01T0400,1721A,113.3819,40.1097,大同市,果树场,细颗粒物(PM2.5),64,66,57,46,27,7,,,,43,39,12,13,1.2,0.8
2025-04-01T0400,1723A,113.2994,40.0758,大同市,云冈宾馆,,44,44,44,14,13,68,,,,17,22,18,13,0.5,0.6
2025-04-01T0400,1724A,113.3444,40.0917,大同市,大同大学,颗粒物(PM10),52,53,48,15,19,44,,,,26,26,21,19,0.5,0.6
2025-04-01T0400,1725A,113.2661,40.1269,大同市,安家小村,颗粒物(PM10),60,69,45,22,18,29,,,,36,20,17,14,2.5,1.4
2025-04-01T0400,1726A,113.2711,40.0844,大同市,教育学院,,46,46,44,15,17,65,,,,17,24,17,14,0.6,0.9
2025-04-01T0400,3282A,113.3397,40.0597,大同市,大同市卫生学校,,44,44,49,15,19,50,,,,27,30,13,12,0.4,0.5
2025-04-01T0400,3565A,113.1367,40.1122,大同市,云冈站,,47,47,48,21,20,31,,,,25,24,22,22,0.6,0.4
2025-04-01T0400,3566A,113.1186,40.2556,大同市,图书馆,,36,36,34,14,17,49,,,,10,10,9,11,0.3,0.4
2025-04-01T0400,3567A,113.5931,40.0461,大同市,区一中,颗粒物(PM10),53,55,56,19,20,35,,,,21,19,18,24,0.8,0.7
2025-04-01T0400,4199A,113.2798,40.0997,大同市,魏都大道141号,颗粒物(PM10),51,52,55,20,20,46,,,,35,29,17,16,0.7,0.9
2025-04-01T0400,2269A,124.1069,50.4097,大兴安岭地区,科技局,,38,27,27,26,21,46,,,,5,6,7,7,0.4,0.4
2025-04-01T0400,3663A,124.1164,50.4278,大兴安岭地区,红旗社区,,23,,19,16,11,30,,,,19,13,4,7,0.4,0.4
2025-04-01T0400,1600A,124.3303,40.0625,丹东市,江湾东路,细颗粒物(PM2.5),68,68,52,49,31,103,,,,8,9,8,8,0.7,0.6
2025-04-01T0400,1601A,124.4256,40.1503,丹东市,临江后街,颗粒物(PM10),70,90,91,49,35,100,,,,10,14,8,9,0.6,0.7
2025-04-01T0400,1602A,124.3933,40.1461,丹东市,元宝山,颗粒物(PM10),66,81,58,43,28,100,,,,13,14,9,9,0.6,0.6
2025-04-01T0400,1603A,124.3633,40.1092,丹东市,民主桥,细颗粒物(PM2.5),62,71,53,44,30,99,,,,10,11,8,9,0.6,0.6
2025-04-01T0400,3541A,109.5726,19.5167,儋州市,第一中学子站,,18,15,14,12,11,30,,,,10,9,4,4,0.8,0.7
2025-04-01T0400,3542A,109.5567,19.5187,儋州市,东坡学校子站,,23,23,15,13,11,33,,,,10,9,5,4,0.8,0.7
2025-04-01T0400,2616A,98.5842,24.428,德宏傣族景颇族自治州,德宏州监测站,细颗粒物(PM2.5),142,133,125,108,95,31,,,,49,34,11,10,1.2,1.1
2025-04-01T0400,3677A,98.5881,24.4368,德宏傣族景颇族自治州,芒市人民政府综合楼,细颗粒物(PM2.5),137,138,146,104,94,84,,,,15,21,10,11,1.1,1
2025-04-01T0400,1901A,104.4239,31.1208,德阳市,东山公园,,,,32,,30,,,37,,,30,,2,,0.6
2025-04-01T0400,1902A,104.3826,31.1317,德阳市,西小区,细颗粒物(PM2.5),63,53,44,45,34,20,,,,30,32,3,3,0.6,0.6
2025-04-01T0400,1904A,104.3553,31.1091,德阳市,耐火材料厂,细颗粒物(PM2.5),70,,38,51,35,11,,,,36,31,5,4,0.5,0.5
2025-04-01T0400,3639A,104.4019,31.1244,德阳市,市教育局,细颗粒物(PM2.5),69,,37,50,37,13,,,,36,30,4,3,0.7,0.5
2025-04-01T0400,1622A,116.3032,37.4674,德州市,儿童乐园,颗粒物(PM10),70,90,121,44,42,80,,,,21,18,7,8,0.7,0.7
2025-04-01T0400,1624A,116.2991,37.4451,德州市,监理站,颗粒物(PM10),70,90,114,46,44,77,,,,18,16,11,10,0.4,0.4
2025-04-01T0400,3066A,116.2721,37.4379,德州市,九衢泉纯净水厂,颗粒物(PM10),70,90,110,41,40,73,,,,25,24,9,10,0.5,0.5
2025-04-01T0400,3371A,116.3728,37.4403,德州市,开发区人民医院,颗粒物(PM10),71,92,119,46,37,69,,,,21,17,8,8,0.6,0.6
2025-04-01T0400,3372A,116.3572,37.4094,德州市,太阳城中学,颗粒物(PM10),73,95,118,46,48,72,,,,20,17,7,7,0.5,0.5
2025-04-01T0400,3511A,116.5652,37.3319,德州市,陵城艺术中心,颗粒物(PM10),68,85,112,44,41,80,,,,20,23,10,12,0.6,0.7
2025-04-01T0400,2621A,99.7056,27.8317,迪庆藏族自治州,迪庆州站,颗粒物(PM10),61,71,63,35,31,131,,,,8,10,8,8,0.6,0.6
2025-04-01T0400,3180A,99.7136,27.8094,迪庆藏族自治州,质量技术监督局,,50,50,56,28,28,132,,,,9,11,9,9,0.8,0.8
2025-04-01T0400,4257A,104.6092,35.5962,定西市,将台街,,,,112,,35,,,75,,,23,,7,,0.2
2025-04-01T0400,4309A,104.6159,35.5701,定西市,正龙路62号,颗粒物(PM10),88,126,128,59,48,45,,,,11,15,9,13,0.7,0.5
2025-04-01T0400,1389A,113.7547,23.0494,东莞市,莞城梨川,,13,13,11,8,6,20,,,,23,16,4,3,0.5,0.5
2025-04-01T0400,1390A,113.7944,23.0128,东莞市,东城石井,,11,7,9,3,4,34,,,,10,15,6,5,0.5,0.6
2025-04-01T0400,1391A,113.7383,22.9658,东莞市,南城西平,,14,9,9,3,5,17,,,,27,24,6,6,0.7,0.7
2025-04-01T0400,3319A,113.7338,23.0381,东莞市,万江金泰,,10,10,11,6,6,23,,,,15,13,4,4,0.6,0.7
2025-04-01T0400,3626A,113.7533,23.0202,东莞市,南城元岭,,9,9,8,6,6,21,,,,18,13,5,5,0.6,0.6
2025-04-01T0400,3627A,113.7875,23.0457,东莞市,东城主山,,9,6,8,3,4,28,,,,14,17,8,9,0.6,0.6
2025-04-01T0400,1666A,118.6614,37.4309,东营市,市环保局,颗粒物(PM10),69,88,96,36,36,73,,,,30,32,10,10,0.7,0.7
2025-04-01T0400,3036A,118.6904,37.4338,东营市,开发区管委会,颗粒物(PM10),76,102,106,51,45,61,,,,42,40,8,8,0.8,0.8
2025-04-01T0400,3365A,118.5719,37.565,东营市,垦利区民丰路,颗粒物(PM10),69,88,98,46,41,74,,,,24,25,13,13,0.8,0.7
2025-04-01T0400,3498A,118.5055,37.8612,东营市,河口城区,颗粒物(PM10),78,105,118,46,43,48,,,,32,28,6,12,0.9,0.9
2025-04-01T0400,3646A,118.4978,37.4623,东营市,胜利站,颗粒物(PM10),78,105,106,46,40,70,,,,40,40,12,12,0.8,0.7
2025-04-01T0400,3734A,118.35,37.26,东营市,理想之城,颗粒物(PM10),75,100,105,46,44,56,,,,37,40,10,9,0.6,0.6
2025-04-01T0400,1591A,110.0023,39.8129,鄂尔多斯市,综合楼,颗粒物(PM10),51,51,38,9,6,89,,,,6,12,6,7,0.2,0.3
2025-04-01T0400,1592A,109.9486,39.8261,鄂尔多斯市,巴音孟克林场办事处,,41,41,35,9,10,88,,,,6,11,6,6,0.2,0.3
2025-04-01T0400,1593A,109.7736,39.5986,鄂尔多斯市,康泽苑,,41,41,43,9,11,70,,,,6,8,3,3,0.2,0.2
2025-04-01T0400,1594A,109.8119,39.5989,鄂尔多斯市,华泰汽车城,,41,41,44,17,15,59,,,,10,13,3,4,0.3,0.3
2025-04-01T0400,1595A,109.9734,39.7884,鄂尔多斯市,奥林花园,颗粒物(PM10),52,53,48,12,10,82,,,,8,16,14,15,0.3,0.4
2025-04-01T0400,2436A,114.8938,30.3994,鄂州市,市政府,细颗粒物(PM2.5),89,106,104,66,57,3,,,,58,28,5,9,1.0,0.9
2025-04-01T0400,2437A,114.8989,30.3714,鄂州市,赵家坝,"颗粒物(PM10),细颗粒物(PM2.5)",87,123,114,64,58,4,,,,63,40,3,6,1.0,0.9
2025-04-01T0400,3654A,114.8094,30.4089,鄂州市,精准医疗中心,细颗粒物(PM2.5),90,121,99,67,54,31,,,,61,29,4,5,1.1,0.8
2025-04-01T0400,2454A,109.4978,30.2981,恩施土家族苗族自治州,湖北民院,,36,36,44,24,22,49,,,,3,14,2,2,0.1,0.2
2025-04-01T0400,2455A,109.4707,30.2798,恩施土家族苗族自治州,州电力总公司,,44,44,45,27,24,10,,,,27,21,5,5,0,0
2025-04-01T0400,3549A,109.5061,30.3772,恩施土家族苗族自治州,龙凤新区,,37,37,40,23,18,16,,,,13,12,7,6,0.3,0.3
2025-04-01T0400,2499A,108.3411,21.6158,防城港市,沙万,,48,,25,33,20,52,,,,14,13,1,4,0.3,0.3
2025-04-01T0400,2500A,108.3514,21.7731,防城港市,防城档案局,,47,47,34,19,18,47,,,,14,12,2,1,0.4,0.4
2025-04-01T0400,2501A,108.3506,21.6414,防城港市,大海花园,,39,28,26,27,20,55,,,,10,9,6,6,0.8,0.7
2025-04-01T0400,1371A,113.1294,23.0067,佛山市,湾梁,,24,24,20,16,8,22,,,,24,27,6,6,1.0,1
2025-04-01T0400,1372A,113.1083,23.0478,佛山市,华材职中,,29,29,25,20,14,15,,,,30,32,6,5,0.6,0.6
2025-04-01T0400,1373A,113.144,23.0453,佛山市,南海气象局,,23,22,17,16,9,15,,,,25,27,5,4,0.8,0.8
2025-04-01T0400,1374A,113.2881,22.8094,佛山市,顺德苏岗,,10,10,12,3,4,29,,,,20,24,4,5,0.5,0.6
2025-04-01T0400,1376A,112.8383,22.8678,佛山市,高明孔堂,,32,29,21,22,15,22,,,,20,19,11,10,0.7,0.7
2025-04-01T0400,1377A,112.8836,23.1588,佛山市,三水监测站,,25,19,11,17,13,20,,,,25,22,2,2,0.5,0.5
2025-04-01T0400,1378A,112.867,23.185,佛山市,三水云东海,,32,,13,22,9,16,,,,24,22,1,3,0.6,0.6
2025-04-01T0400,3625A,113.2544,22.7642,佛山市,容桂街道办,,13,9,10,3,8,24,,,,25,30,6,6,0.6,0.6
2025-04-01T0400,1280A,119.3903,26.0543,福州市,鼓山,,,,4,,3,,,73,,,3,,3,,0.4
2025-04-01T0400,1282A,119.2681,26.0504,福州市,师大,,14,8,8,6,2,44,,,,11,9,3,3,0.3,0.3
2025-04-01T0400,1283A,119.2984,26.1028,福州市,五四北路,,16,8,7,3,2,50,,,,4,10,3,3,0.4,0.4
2025-04-01T0400,1284A,119.2648,26.0768,福州市,杨桥西路,,15,7,8,3,2,47,,,,11,13,3,3,0.3,0.4
2025-04-01T0400,1285A,119.317,26.0746,福州市,紫阳,,16,10,9,3,2,50,,,,12,15,4,4,0.2,0.3
2025-04-01T0400,3048A,119.5799,26.0936,福州市,九龙,,21,6,7,3,3,67,,,,1,5,3,3,0.3,0.4
2025-04-01T0400,3526A,119.5189,25.9664,福州市,吴航,,25,8,8,6,7,78,,,,3,6,4,4,0.6,0.6
2025-04-01T0400,1755A,123.7977,41.8491,抚顺市,望花区,细颗粒物(PM2.5),107,118,86,80,55,92,,,,24,22,21,21,1.1,1
2025-04-01T0400,1756A,123.9161,41.8822,抚顺市,顺城区,细颗粒物(PM2.5),84,90,82,62,45,83,,,,25,26,9,11,0.8,1
2025-04-01T0400,1757A,124.0436,41.8611,抚顺市,东洲区,细颗粒物(PM2.5),109,111,72,82,42,110,,,,12,16,8,10,0.7,0.7
2025-04-01T0400,1758A,123.9247,41.8642,抚顺市,新抚区,细颗粒物(PM2.5),92,92,84,68,51,79,,,,28,26,6,7,0.8,0.9
2025-04-01T0400,1759A,124.0972,41.8961,抚顺市,大伙房水库,细颗粒物(PM2.5),77,78,82,56,43,109,,,,10,12,7,9,0.5,0.6
2025-04-01T0400,1760A,123.7086,41.8391,抚顺市,沈抚新城,细颗粒物(PM2.5),80,88,82,59,51,104,,,,15,22,8,12,0.7,0.9
2025-04-01T0400,2376A,116.2127,28.0814,抚州市,桐源党溪,,43,43,43,16,21,14,,,,5,4,10,5,0.6,0.6
2025-04-01T0400,2377A,116.3544,27.9831,抚州市,市站,,42,42,42,19,22,50,,,,14,14,19,16,0.4,0.6
2025-04-01T0400,2378A,116.3565,27.963,抚州市,血防站,,42,42,48,22,24,54,,,,12,13,4,5,0.8,0.8
2025-04-01T0400,2379A,116.3564,28.0007,抚州市,采茶剧团,,41,41,40,23,22,40,,,,10,8,2,4,1.1,1
2025-04-01T0400,2380A,116.385,27.9647,抚州市,医学分院,,44,44,43,21,23,43,,,,15,13,10,11,0.5,0.6
2025-04-01T0400,2207A,121.6094,41.998,阜新市,工业园区,细颗粒物(PM2.5),147,126,84,112,66,37,,,,44,29,35,20,1.1,0.8
2025-04-01T0400,2208A,121.6697,42.0279,阜新市,长青街,细颗粒物(PM2.5),153,150,76,117,57,51,,,,42,25,22,16,1.3,0.7
2025-04-01T0400,2209A,121.6673,42.0705,阜新市,农业园区,细颗粒物(PM2.5),125,162,81,95,49,68,,,,26,17,23,16,1.6,1
2025-04-01T0400,2210A,121.6717,42.0224,阜新市,东苑,细颗粒物(PM2.5),155,141,80,118,60,53,,,,41,27,38,21,1.3,0.9
2025-04-01T0400,2211A,121.6506,42.0498,阜新市,玉龙新城,细颗粒物(PM2.5),162,172,84,123,60,8,,,,59,36,9,12,1.2,0.8
2025-04-01T0400,2301A,115.8277,32.8929,阜阳市,市监测站,,46,45,83,32,47,77,,,,15,16,7,8,0.3,0.3
2025-04-01T0400,2303A,115.8554,32.8605,阜阳市,开发区,颗粒物(PM10),52,54,99,20,40,78,,,,17,17,6,7,0.4,0.5
2025-04-01T0400,2875A,115.784,32.8892,阜阳市,阜阳职业技术学院,颗粒物(PM10),53,56,84,26,44,83,,,,13,15,6,7,0.4,0.5
2025-04-01T0400,3468A,115.7901,32.8613,阜阳市,市规划展馆,,38,37,90,26,42,77,,,,14,15,6,7,0.3,0.4
2025-04-01T0400,3469A,115.836,32.9183,阜阳市,枣园社区,,40,40,91,25,40,80,,,,17,15,4,6,0.4,0.4
2025-04-01T0400,2669A,102.9099,34.9841,甘南藏族自治州,州政府,颗粒物(PM10),86,121,105,33,35,67,,,,11,7,8,8,0.4,0.4
2025-04-01T0400,3380A,102.8914,34.9617,甘南藏族自治州,甘肃民族师范学院,颗粒物(PM10),82,113,112,37,34,90,,,,7,11,8,10,0.6,0.6
2025-04-01T0400,2570A,101.9603,30.0475,甘孜藏族自治州,水桥子,,21,6,10,3,8,66,,,,12,19,3,3,0.5,0.5
2025-04-01T0400,3065A,101.9533,29.9972,甘孜藏族自治州,州环保局,,22,9,14,3,6,70,,,,8,15,4,4,0.4,0.4
2025-04-01T0400,3414A,115.8347,28.932,赣江新区,桑海产业园,颗粒物(PM10),57,63,66,36,31,28,,,,26,25,7,6,0.4,0.4
2025-04-01T0400,2362A,114.9017,25.9149,赣州市,通天岩,,29,29,28,7,5,24,,,,3,3,14,15,1.5,1.3
2025-04-01T0400,2363A,114.9367,25.8664,赣州市,地委,,37,37,35,20,19,19,,,,10,9,6,7,0.8,0.8
2025-04-01T0400,2364A,114.9461,25.8481,赣州市,气象台,,48,48,44,20,17,20,,,,17,17,7,7,0.4,0.4
2025-04-01T0400,2365A,114.9322,25.8333,赣州市,市图书馆,,38,33,31,26,21,22,,,,16,14,4,4,0.6,0.6
2025-04-01T0400,2366A,114.8905,25.8471,赣州市,华坚鞋城,,36,36,36,22,20,28,,,,15,16,8,8,0.4,0.3
2025-04-01T0400,3109A,115.0093,25.8613,赣州市,赣县区卫计委,,33,31,29,23,21,14,,,,17,10,3,3,0.4,0.4
2025-04-01T0400,2683A,106.2319,36.1417,固原市,马园,颗粒物(PM10),68,85,98,24,30,14,,,,48,36,5,6,0.9,0.8
2025-04-01T0400,2684A,106.2792,36.0022,固原市,监测站,颗粒物(PM10),54,58,83,21,29,56,,,,20,20,7,10,0.9,0.8
2025-04-01T0400,2685A,106.2375,36.0211,固原市,新区,颗粒物(PM10),52,53,74,19,24,79,,,,15,23,7,8,0.3,0.4
2025-04-01T0400,3522A,106.2177,35.9959,固原市,原州区十五小,颗粒物(PM10),56,62,72,16,22,86,,,,8,15,6,6,0.3,0.4
2025-04-01T0400,2543A,106.6308,30.5278,广安市,小平旧居,,,,,,,,,,,,,,,,
2025-04-01T0400,2544A,106.6303,30.4576,广安市,市委,,40,31,30,28,22,38,,,,14,14,4,3,0.3,0.4
2025-04-01T0400,2545A,106.6271,30.4663,广安市,友谊中学,,38,28,29,26,20,36,,,,16,15,4,2,0.4,0.4
2025-04-01T0400,2547A,106.6388,30.4551,广安市,广电花园,,36,28,26,25,21,32,,,,13,16,5,5,0.4,0.5
2025-04-01T0400,2902A,106.6351,30.4865,广安市,北辰小学,,36,27,24,25,20,28,,,,18,15,2,3,0.5,0.5
2025-04-01T0400,2523A,105.8945,32.4535,广元市,黑石坡,,38,38,46,15,25,25,,,,8,15,6,9,0.4,0.4
2025-04-01T0400,2524A,105.821,32.4444,广元市,老城,颗粒物(PM10),51,52,55,25,27,3,,,,26,24,1,7,0.7,0.8
2025-04-01T0400,2526A,105.8628,32.4287,广元市,监测站,细颗粒物(PM2.5),53,47,45,37,26,12,,,,19,18,6,12,0.5,0.6
2025-04-01T0400,3617A,105.8047,32.4166,广元市,经开区,细颗粒物(PM2.5),65,62,54,47,38,16,,,,21,25,4,10,0.6,0.7
2025-04-01T0400,1345A,113.2347,23.1423,广州市,广雅中学,,29,29,21,20,11,23,,,,24,29,3,3,0.5,0.5
2025-04-01T0400,1346A,113.2612,23.105,广州市,市五中,,26,25,16,18,10,26,,,,18,21,2,1,0.7,0.8
2025-04-01T0400,1348A,113.3478,23.0916,广州市,广东商学院,,15,15,12,10,7,39,,,,17,20,4,4,0.4,0.4
2025-04-01T0400,1349A,113.4332,23.1047,广州市,市八十六中,,12,10,11,7,6,37,,,,19,24,3,3,0.8,0.8
2025-04-01T0400,1350A,113.3505,22.9483,广州市,番禺中学,,14,13,14,6,5,42,,,,19,25,3,3,0.4,0.5
2025-04-01T0400,1351A,113.2146,23.3916,广州市,花都师范,,29,27,17,20,11,30,,,,13,16,4,4,0.6,0.6
2025-04-01T0400,1352A,113.2597,23.1331,广州市,市监测站,,23,23,16,15,8,23,,,,30,31,4,4,0.4,0.5
2025-04-01T0400,1353A,113.5618,23.312,广州市,九龙镇镇龙,,16,11,8,11,7,42,,,,11,12,4,4,0.4,0.5
2025-04-01T0400,1354A,113.2765,23.1544,广州市,麓湖,,22,21,14,15,9,16,,,,31,26,4,3,0.6,0.5
2025-04-01T0400,1355A,113.443,23.3035,广州市,帽峰山森林公园,,11,,3,3,5,35,,,,8,10,4,5,0.6,0.7
2025-04-01T0400,2846A,113.3221,23.1322,广州市,体育西,,18,18,15,11,8,36,,,,14,16,4,4,0.4,0.5
2025-04-01T0400,3298A,113.5717,23.5491,广州市,从化街口,,16,13,9,8,5,50,,,,8,8,7,7,0.5,0.5
2025-04-01T0400,3299A,113.3472,23.3692,广州市,白云竹料,,23,19,10,16,7,43,,,,14,13,6,6,0.4,0.4
2025-04-01T0400,3300A,113.2981,23.237,广州市,白云嘉禾,,25,25,16,15,9,19,,,,27,24,3,4,0.4,0.4
2025-04-01T0400,3301A,113.4256,23.1716,广州市,黄埔科学城,,13,11,9,7,6,40,,,,10,14,5,5,0.4,0.5
2025-04-01T0400,3302A,113.3942,23.0483,广州市,番禺大学城,,13,11,11,6,5,40,,,,23,26,6,6,0.3,0.4
2025-04-01T0400,3303A,113.4922,22.8168,广州市,南沙黄阁,,11,8,13,7,8,33,,,,22,31,4,4,0.6,0.7
2025-04-01T0400,3304A,113.5342,22.7896,广州市,南沙街,,13,11,14,8,9,23,,,,26,32,4,3,0.7,0.7
2025-04-01T0400,3443A,113.2902,23.5544,广州市,花都梯面,,25,18,10,17,8,28,,,,13,11,4,4,0.5,0.5
2025-04-01T0400,3445A,113.7858,23.7478,广州市,从化良口,,20,17,5,12,2,61,,,,6,7,6,6,0.4,0.4
2025-04-01T0400,3446A,113.8051,23.2614,广州市,增城荔城,,10,6,6,3,4,32,,,,9,10,6,7,0.3,0.4
2025-04-01T0400,2505A,109.568,23.1478,贵港市,德智高中,,,,,,,,,,,,,,,,
2025-04-01T0400,2506A,109.6047,23.0666,贵港市,江南子站,,46,46,31,29,20,13,,,,26,12,8,2,1.0,0.8
2025-04-01T0400,2507A,109.6014,23.0948,贵港市,贵城子站,,,,,,,,,,,,,,,,
2025-04-01T0400,2508A,109.5669,23.1065,贵港市,荷城子站,,36,36,31,24,17,24,,,,21,16,7,4,0.4,0.4
2025-04-01T0400,3405A,109.5886,23.1172,贵港市,新世纪学校,,42,41,35,29,23,21,,,,17,11,5,2,0.8,0.7
2025-04-01T0400,1439A,106.6899,26.5998,贵阳市,马鞍山,,20,17,32,14,20,50,,,,12,17,4,6,0.4,0.4
2025-04-01T0400,1441A,106.6243,26.6266,贵阳市,鉴湖路,,27,27,42,14,23,49,,,,7,8,6,9,0.3,0.4
2025-04-01T0400,1442A,106.7487,26.6343,贵阳市,燕子冲,,35,27,37,24,26,49,,,,10,12,8,8,0.3,0.3
2025-04-01T0400,1443A,106.6555,26.4365,贵阳市,碧云窝,,29,29,47,12,20,53,,,,8,12,7,9,0.4,0.4
2025-04-01T0400,1445A,106.7109,26.6027,贵阳市,红边门,,22,22,40,14,25,51,,,,8,14,6,7,0.2,0.2
2025-04-01T0400,1446A,106.7164,26.5699,贵阳市,新华路,,32,29,42,22,26,52,,,,5,9,6,9,0.3,0.4
2025-04-01T0400,1447A,106.674,26.5424,贵阳市,太慈桥,,20,19,37,14,22,54,,,,11,13,6,8,0.4,0.4
2025-04-01T0400,1552A,106.805,26.3003,贵阳市,桐木岭,颗粒物(PM10),51,52,52,32,31,45,,,,8,7,1,1,0.8,0.7
2025-04-01T0400,4230A,106.6882,26.5695,贵阳市,花果园大街66号,,35,,31,24,28,51,,,,10,12,4,7,0.2,0.2
2025-04-01T0400,4231A,106.6873,26.5169,贵阳市,漓江路57号,,22,22,38,14,22,56,,,,9,13,10,12,0.3,0.3
2025-04-01T0400,1862A,110.4144,25.3167,桂林市,电子科大尧山校区,,,,,,,,,,,,,,,,
2025-04-01T0400,1864A,110.3089,25.2708,桂林市,龙隐路小学,细颗粒物(PM2.5),54,46,34,38,30,68,,,,7,7,12,13,0.6,0.5
2025-04-01T0400,1865A,110.2869,25.2178,桂林市,八中,,,,,,,,,,,,,,,,
2025-04-01T0400,3531A,110.296,25.1253,桂林市,旅游学院,,45,44,21,31,18,59,,,,10,7,9,9,0.5,0.4
2025-04-01T0400,4222A,110.1835,25.2444,桂林市,环湖路276号,"颗粒物(PM10),细颗粒物(PM2.5)",58,66,34,41,25,50,,,,20,17,40,10,0.5,0.4
2025-04-01T0400,4301A,110.2803,25.2773,桂林市,信义路13号,,45,42,32,31,23,67,,,,10,11,16,13,0.6,0.6
2025-04-01T0400,2674A,100.2561,34.4714,果洛藏族自治州,玛沁县大武镇,颗粒物(PM10),98,145,159,44,44,100,,,,1,2,13,14,0.4,0.4
2025-04-01T0400,1129A,126.5422,45.755,哈尔滨市,岭北,细颗粒物(PM2.5),98,,80,73,63,74,,,,22,23,15,12,0.7,0.7
2025-04-01T0400,1130A,126.561,45.8167,哈尔滨市,松北商大,细颗粒物(PM2.5),102,90,72,76,57,57,,,,22,20,6,8,0.9,0.9
2025-04-01T0400,1131A,126.979,45.5419,哈尔滨市,阿城会宁,细颗粒物(PM2.5),77,64,75,56,63,85,,,,13,17,13,14,0.5,0.6
2025-04-01T0400,1132A,126.599,45.7222,哈尔滨市,南岗学府路,颗粒物(PM10),80,110,96,58,65,63,,,,26,26,9,9,0.7,0.8
2025-04-01T0400,1133A,126.689,45.7733,哈尔滨市,太平宏伟公园,细颗粒物(PM2.5),102,78,86,76,73,68,,,,19,22,8,9,0.8,0.8
2025-04-01T0400,1134A,126.635,45.7667,哈尔滨市,道外承德广场,细颗粒物(PM2.5),110,128,105,83,71,61,,,,29,29,10,10,0.6,0.7
2025-04-01T0400,1135A,126.685,45.7319,哈尔滨市,香坊红旗大街,细颗粒物(PM2.5),100,80,96,75,74,67,,,,22,28,15,13,0.8,0.8
2025-04-01T0400,1136A,126.6411,45.7258,哈尔滨市,动力和平路,细颗粒物(PM2.5),100,89,92,75,83,62,,,,27,28,13,11,0.6,0.7
2025-04-01T0400,1137A,126.593,45.7478,哈尔滨市,道里建国路,细颗粒物(PM2.5),97,85,80,72,70,61,,,,28,24,17,13,0.9,0.7
2025-04-01T0400,1138A,126.615,45.61,哈尔滨市,平房东轻厂,细颗粒物(PM2.5),97,78,93,72,69,76,,,,11,17,10,10,0.7,0.8
2025-04-01T0400,1139A,126.595,45.9855,哈尔滨市,呼兰师专,细颗粒物(PM2.5),124,102,78,94,70,54,,,,33,27,10,11,0.7,0.6
2025-04-01T0400,1140A,126.6206,45.6842,哈尔滨市,省农科院,细颗粒物(PM2.5),99,98,107,74,73,62,,,,29,32,9,9,0.7,0.7
2025-04-01T0400,2688A,93.5128,42.8172,哈密市,地区监测站,,,,96,,46,,,63,,,16,,5,,0.3
2025-04-01T0400,2689A,93.4961,42.8328,哈密市,哈密师范学校,颗粒物(PM10),80,109,95,33,30,9,,,,77,39,5,6,0.3,0.3
2025-04-01T0400,2671A,100.9048,36.9639,海北藏族自治州,海晏县西海镇,颗粒物(PM10),86,121,133,41,44,100,,,,10,9,18,17,0.7,0.7
2025-04-01T0400,3867A,102.0738,36.5056,海东市,平安区公安北苑,颗粒物(PM10),113,176,143,56,51,76,,,,10,13,11,11,1.3,1.1
2025-04-01T0400,1409A,110.576,19.9507,海口市,东寨港,,16,12,11,11,8,12,,,,8,6,4,4,0.7,0.6
2025-04-01T0400,1410A,110.3232,20.0574,海口市,海南大学,,25,23,22,17,17,21,,,,11,10,2,2,0.6,0.6
2025-04-01T0400,1411A,110.283,20.0053,海口市,秀英海南医院,,23,22,18,16,15,21,,,,15,15,4,4,0.5,0.5
2025-04-01T0400,1412A,110.338,19.9969,海口市,海南师范大学,,26,26,21,17,15,24,,,,9,9,3,3,0.5,0.5
2025-04-01T0400,1413A,110.33,20.0356,海口市,龙华路环保局宿舍,,25,25,21,16,16,23,,,,10,9,4,4,0.5,0.5
2025-04-01T0400,3539A,110.5111,19.9736,海口市,桂林洋子站,,16,16,15,10,9,25,,,,10,7,3,2,0.5,0.4
2025-04-01T0400,2673A,100.6188,36.2866,海南藏族自治州,共和县恰卜恰镇,颗粒物(PM10),133,215,174,74,107,106,,,,7,12,20,15,0.5,0.6
2025-04-01T0400,2676A,97.3731,37.3753,海西蒙古族藏族自治州,德令哈市,颗粒物(PM10),97,143,219,36,56,90,,,,4,4,6,7,0.4,0.4
2025-04-01T0400,1048A,114.5302,36.6116,邯郸市,东污水处理厂,颗粒物(PM10),61,72,70,31,27,49,,,,29,23,5,4,0.6,0.5
2025-04-01T0400,1049A,114.4918,36.5713,邯郸市,矿院,颗粒物(PM10),64,78,81,31,28,37,,,,31,19,4,6,0.5,0.4
2025-04-01T0400,1050A,114.484,36.6133,邯郸市,丛台公园,颗粒物(PM10),70,89,75,46,36,40,,,,35,21,13,10,0.6,0.5
2025-04-01T0400,3458A,114.7895,36.5593,邯郸市,香泉濮院小区,颗粒物(PM10),60,70,82,31,26,62,,,,15,12,4,6,0.3,0.4
2025-04-01T0400,3579A,114.50634,36.77178,邯郸市,永年区实验高中,颗粒物(PM10),80,110,91,38,36,46,,,,32,25,16,13,1.5,1
2025-04-01T0400,3580A,114.20016,36.44293,邯郸市,峰峰矿区临水派出所,,42,42,71,18,35,91,,,,10,20,19,13,0.7,0.9
2025-04-01T0400,2634A,106.9893,33.1842,汉中市,汉川机床厂子校,,30,30,34,13,20,37,,,,5,5,6,9,0.4,0.7
2025-04-01T0400,2635A,107.0154,33.0706,汉中市,市监测站,,40,40,40,25,20,22,,,,22,18,5,6,0.9,0.9
2025-04-01T0400,2636A,107.0089,33.1138,汉中市,鑫源开发区,颗粒物(PM10),51,51,43,34,28,19,,,,43,28,29,12,0.8,0.6
2025-04-01T0400,2637A,107.007,33.0323,汉中市,南郑大河坎水厂,,30,30,35,20,20,26,,,,19,16,10,9,0.6,0.6
2025-04-01T0400,1223A,120.2072,30.2111,杭州市,滨江,细颗粒物(PM2.5),57,60,44,40,21,76,,,,21,22,9,8,0.3,0.2
2025-04-01T0400,1224A,120.0633,30.2747,杭州市,西溪,颗粒物(PM10),52,54,41,26,22,32,,,,37,20,6,7,0.3,0.3
2025-04-01T0400,1226A,120.3417,30.3150,杭州市,下沙,,43,43,40,23,16,65,,,,38,29,6,7,0.3,0.3
2025-04-01T0400,1227A,120.1269,30.2456,杭州市,卧龙桥,,47,47,38,28,18,41,,,,16,16,6,7,0.6,0.6
2025-04-01T0400,1228A,120.1903,30.2692,杭州市,浙江农大,颗粒物(PM10),61,71,42,42,21,64,,,,21,19,4,4,0.5,0.4
2025-04-01T0400,1230A,120.1197,30.3119,杭州市,和睦小学,,44,44,38,22,18,77,,,,19,18,7,8,0.4,0.4
2025-04-01T0400,1231A,120.3019,30.4183,杭州市,临平镇,,42,42,39,21,15,68,,,,28,25,5,6,0.4,0.4
2025-04-01T0400,1232A,120.2753,30.1839,杭州市,城厢镇,颗粒物(PM10),61,71,48,33,20,56,,,,37,30,10,9,0.4,0.3
2025-04-01T0400,1233A,120.0883,30.1808,杭州市,云栖,,45,45,36,25,18,25,,,,24,21,8,8,0.5,0.5
2025-04-01T0400,3557A,119.9464,30.0494,杭州市,镇二中,颗粒物(PM10),55,60,38,35,20,35,,,,35,28,6,6,0.5,0.5
2025-04-01T0400,3558A,119.7183,30.2367,杭州市,市府大楼,颗粒物(PM10),54,57,41,32,20,43,,,,24,22,7,8,0.7,0.7
2025-04-01T0400,3656A,120.1556,30.2864,杭州市,消防大队,颗粒物(PM10),56,62,43,38,21,77,,,,29,26,4,4,0.4,0.3
2025-04-01T0400,1270A,117.1959,31.7848,合肥市,明珠广场,,39,39,47,27,25,61,,,,38,26,4,5,0.3,0.4
2025-04-01T0400,1271A,117.3072,31.8764,合肥市,三里街,颗粒物(PM10),56,61,56,31,26,42,,,,45,31,8,7,0.6,0.6
2025-04-01T0400,1272A,117.2588,31.8707,合肥市,琥珀山庄,,46,46,50,28,28,50,,,,41,26,3,4,0.5,0.5
2025-04-01T0400,1273A,117.1604,31.9052,合肥市,董铺水库,,44,44,53,14,19,54,,,,43,22,3,4,0.4,0.3
2025-04-01T0400,1274A,117.25,31.8571,合肥市,长江中路,,46,46,52,30,26,54,,,,33,22,9,9,0.6,0.5
2025-04-01T0400,1275A,117.266,31.9436,合肥市,庐阳区,颗粒物(PM10),52,53,56,22,27,60,,,,35,29,6,6,0.4,0.4
2025-04-01T0400,1276A,117.3453,31.8616,合肥市,瑶海区,颗粒物(PM10),56,61,58,27,25,36,,,,54,34,7,7,0.5,0.5
2025-04-01T0400,1277A,117.3027,31.7964,合肥市,包河区,颗粒物(PM10),51,51,50,27,24,26,,,,64,22,6,6,0.6,0.6
2025-04-01T0400,1278A,117.2776,31.7385,合肥市,滨湖新区,,39,39,46,27,25,45,,,,40,20,3,3,0.6,0.5
2025-04-01T0400,1279A,117.1318,31.8403,合肥市,高新区,,48,48,53,25,22,84,,,,23,24,3,3,0.3,0.3
2025-04-01T0400,3464A,117.3803,31.9147,合肥市,高教基地,颗粒物(PM10),52,54,51,29,25,39,,,,44,28,5,5,0.4,0.4
2025-04-01T0400,3614A,79.924,37.0877,和田地区,地区环保局,颗粒物(PM10),500,874,1301,264,352,24,,,,13,15,2,2,0.3,0.3
2025-04-01T0400,3615A,79.9131,37.113,和田地区,市环保局,颗粒物(PM10),500,731,1255,211,294,0,,,,62,19,3,1,0.5,0.2
2025-04-01T0400,2516A,108.2011,24.715,河池市,东仁乐园,,35,35,28,20,16,45,,,,23,9,8,8,0.7,0.7
2025-04-01T0400,2517A,108.0497,24.6947,河池市,市环保站,,33,31,29,23,18,44,,,,17,6,6,7,0.5,0.4
2025-04-01T0400,2518A,108.0983,24.6989,河池市,市疾控中心,,29,25,24,20,17,50,,,,12,4,8,8,0.5,0.4
2025-04-01T0400,1696A,114.6778,23.7569,河源市,源西,,19,19,6,10,5,32,,,,12,11,4,4,0.6,0.6
2025-04-01T0400,1697A,114.6944,23.7586,河源市,东埔,,16,,7,11,5,34,,,,13,13,4,4,0.6,0.5
2025-04-01T0400,1698A,114.6892,23.7233,河源市,老城,,46,,7,32,10,33,,,,12,12,3,3,0.5,0.5
2025-04-01T0400,1718A,115.4208,35.2464,菏泽市,气象局,颗粒物(PM10),76,102,116,51,46,70,,,,17,15,6,6,0.4,0.4
2025-04-01T0400,3374A,115.5564,35.0891,菏泽市,定陶老年大学,颗粒物(PM10),73,95,101,41,38,79,,,,18,18,7,6,0.6,0.5
2025-04-01T0400,4184A,115.4797,35.24401,菏泽市,永昌路1号,颗粒物(PM10),79,108,112,50,47,73,,,,17,16,7,6,0.3,0.3
2025-04-01T0400,4193A,115.4715,35.2800,菏泽市,长城路999号,颗粒物(PM10),73,96,107,38,37,78,,,,17,17,8,9,0.6,0.6
2025-04-01T0400,2514A,111.5264,24.4172,贺州市,环保小区,,39,38,28,27,17,55,,,,12,14,6,5,0.5,0.5
2025-04-01T0400,2515A,111.5608,24.4078,贺州市,政协大楼,,45,45,32,25,17,43,,,,13,14,6,6,0.5,0.4
2025-04-01T0400,3534A,111.4744,24.4553,贺州市,西湾,,39,36,25,27,18,51,,,,10,13,7,6,0.5,0.5
2025-04-01T0400,2385A,114.17,35.9019,鹤壁市,市监测站,颗粒物(PM10),75,100,93,40,41,38,,,,23,21,8,9,0.9,0.8
2025-04-01T0400,2386A,114.2956,35.7511,鹤壁市,市交警支队,颗粒物(PM10),74,98,80,37,36,49,,,,34,27,9,9,0.5,0.6
2025-04-01T0400,2387A,114.2878,35.7306,鹤壁市,迎宾馆,颗粒物(PM10),70,90,104,34,35,47,,,,27,22,3,6,0.5,0.5
2025-04-01T0400,3474A,114.2617,35.6822,鹤壁市,大新区,颗粒物(PM10),70,90,96,47,44,29,,,,39,31,7,8,0.5,0.5
2025-04-01T0400,3596A,114.1572,35.9603,鹤壁市,南山宾馆,颗粒物(PM10),80,110,106,52,48,54,,,,29,26,8,7,0.6,0.6
2025-04-01T0400,2244A,130.2537,47.3416,鹤岗市,哈啤分公司,,42,39,40,29,28,59,,,,7,10,14,15,0.5,0.5
2025-04-01T0400,2245A,130.2684,47.3086,鹤岗市,斯达机电,细颗粒物(PM2.5),64,56,52,46,34,52,,,,16,15,15,15,0.8,0.5
2025-04-01T0400,2246A,130.3114,47.3388,鹤岗市,东山纸板厂,细颗粒物(PM2.5),62,68,74,44,38,51,,,,15,20,14,16,1.0,0.9
2025-04-01T0400,2247A,130.1097,47.3382,鹤岗市,五号水库,,,,,,,,,,,,,,,,
2025-04-01T0400,2263A,127.4833,50.2524,黑河市,交通局,,27,27,29,16,17,62,,,,5,10,7,7,0.5,0.5
2025-04-01T0400,2264A,127.5144,50.2341,黑河市,环保局,,33,,19,23,18,64,,,,4,7,4,5,0.3,0.3
2025-04-01T0400,2265A,127.5291,50.2472,黑河市,大黑河岛,,18,12,21,12,12,51,,,,6,6,2,2,0.3,0.3
2025-04-01T0400,1074A,115.6838,37.7541,衡水市,电机北厂,颗粒物(PM10),63,76,89,41,44,83,,,,15,16,6,7,0.3,0.4
2025-04-01T0400,1075A,115.6303,37.7316,衡水市,市监测站,颗粒物(PM10),57,64,79,34,31,80,,,,17,18,8,10,0.3,0.4
2025-04-01T0400,3188A,115.6683,37.7217,衡水市,市城管局,细颗粒物(PM2.5),64,63,83,46,36,74,,,,18,18,9,11,0.3,0.4
2025-04-01T0400,3459A,115.5989,37.5491,衡水市,地表水厂,颗粒物(PM10),64,77,88,32,38,64,,,,25,21,8,10,0.3,0.3
2025-04-01T0400,2456A,112.5003,26.9167,衡阳市,原169医院,颗粒物(PM10),52,54,48,29,21,18,,,,14,11,8,7,0.6,0.5
2025-04-01T0400,2457A,112.6194,26.9258,衡阳市,衡阳化工总厂,"颗粒物(PM10),细颗粒物(PM2.5)",57,63,59,40,35,4,,,,36,20,5,5,0.8,0.7
2025-04-01T0400,2458A,112.6211,26.8956,衡阳市,珠晖区环保局,细颗粒物(PM2.5),59,59,53,42,32,14,,,,31,20,7,8,1.3,0.9
2025-04-01T0400,2459A,112.6197,26.8733,衡阳市,市委党校,细颗粒物(PM2.5),55,53,54,39,35,7,,,,36,23,9,9,0.7,0.7
2025-04-01T0400,2460A,112.6006,26.8919,衡阳市,市监测站,颗粒物(PM10),54,57,62,34,37,33,,,,26,21,11,8,0.8,0.8
2025-04-01T0400,2461A,112.5664,26.9056,衡阳市,真空机电公司,颗粒物(PM10),57,64,60,35,29,47,,,,12,16,11,6,0.5,0.5
2025-04-01T0400,3399A,112.6703,26.882,衡阳市,师范学院,细颗粒物(PM2.5),58,58,58,41,35,15,,,,23,20,8,10,0.7,0.6
2025-04-01T0400,2608A,103.3772,23.3993,红河哈尼族彝族自治州,污水处理厂,,28,27,36,19,29,40,,,,11,10,8,10,0.4,0.5
2025-04-01T0400,2609A,103.3861,23.35,红河哈尼族彝族自治州,监测站,,28,28,33,15,24,64,,,,4,8,8,9,0.4,0.5
2025-04-01T0400,3038A,103.3758,23.368,红河哈尼族彝族自治州,州图书馆,,22,,18,15,22,60,,,,6,10,6,6,0.3,0.4
2025-04-01T0400,1090A,111.6507,40.7517,呼和浩特市,呼市一监,,36,36,40,21,19,40,,,,16,15,9,10,0.4,0.5
2025-04-01T0400,1091A,111.6572,40.8033,呼和浩特市,小召,,34,34,41,12,17,45,,,,27,24,8,6,0.5,0.5
2025-04-01T0400,1094A,111.7516,40.8369,呼和浩特市,如意水处理厂,,44,44,34,21,15,26,,,,33,24,6,8,0.7,0.5
2025-04-01T0400,1095A,111.7276,40.8062,呼和浩特市,二十九中,,45,45,40,25,18,28,,,,33,19,4,5,1.0,0.9
2025-04-01T0400,1096A,111.5512,40.7866,呼和浩特市,工大金川校区,,32,32,35,12,16,31,,,,41,23,10,8,0.6,0.6
2025-04-01T0400,1097A,111.717,40.7612,呼和浩特市,化肥厂生活区,颗粒物(PM10),54,57,42,28,19,31,,,,30,22,7,8,0.5,0.5
2025-04-01T0400,3698A,111.5968,40.8178,呼和浩特市,红旗小学,,18,7,33,3,14,57,,,,24,24,3,5,0.4,0.5
2025-04-01T0400,3699A,111.6518,40.8389,呼和浩特市,海东办,,17,12,32,3,18,53,,,,16,17,6,7,0.5,0.5
2025-04-01T0400,2192A,119.7594,49.2261,呼伦贝尔市,区环保局,,28,25,29,19,22,57,,,,11,12,5,6,0.3,0.3
2025-04-01T0400,3061A,119.7512,49.1577,呼伦贝尔市,国华电力东,,24,24,27,13,15,51,,,,5,5,3,4,0.4,0.3
2025-04-01T0400,1250A,120.0751,30.8669,湖州市,城西水厂,颗粒物(PM10),55,60,42,28,17,68,,,,28,21,7,7,0.2,0.3
2025-04-01T0400,2873A,120.0830,30.8929,湖州市,仁皇山新区,颗粒物(PM10),52,53,40,30,18,60,,,,24,19,4,5,0.4,0.4
2025-04-01T0400,2907A,120.1844,30.8596,湖州市,吴兴区站,颗粒物(PM10),53,55,40,28,18,84,,,,14,18,6,7,0.2,0.2
2025-04-01T0400,3562A,120.4148,30.8538,湖州市,南浔区站,颗粒物(PM10),65,80,44,40,19,71,,,,25,18,3,4,0.4,0.4
2025-04-01T0400,1607A,120.9049,40.7211,葫芦岛市,龙港区,细颗粒物(PM2.5),77,90,97,56,56,86,,,,15,29,9,13,0.8,0.9
2025-04-01T0400,1608A,120.8392,40.7514,葫芦岛市,化工街,细颗粒物(PM2.5),85,112,111,63,54,64,,,,29,44,11,14,0.5,0.8
2025-04-01T0400,1609A,120.8341,40.7073,葫芦岛市,新区,细颗粒物(PM2.5),88,104,91,65,55,82,,,,21,37,8,14,0.6,0.8
2025-04-01T0400,1610A,120.8695,40.7677,葫芦岛市,东城区,细颗粒物(PM2.5),112,84,95,84,71,63,,,,30,51,7,11,0.8,1
2025-04-01T0400,2482A,109.5981,27.5721,怀化市,林科所,,47,47,36,22,18,30,,,,30,15,5,7,0.1,0.2
2025-04-01T0400,2483A,109.9453,27.5444,怀化市,河西地税局,,37,37,40,19,21,25,,,,11,12,10,10,0.3,0.3
2025-04-01T0400,2484A,109.9781,27.5342,怀化市,市四医院,颗粒物(PM10),67,83,51,24,23,6,,,,37,17,6,8,0.1,0.1
2025-04-01T0400,2485A,109.9972,27.5578,怀化市,监测楼,颗粒物(PM10),52,54,44,23,22,9,,,,39,13,8,12,0.4,0.4
2025-04-01T0400,2486A,110.0394,27.583,怀化市,市委党校,,50,50,44,30,23,9,,,,27,17,9,8,0.5,0.4
2025-04-01T0400,1210A,119.036,33.5981,淮安市,钵池山,"颗粒物(PM10),细颗粒物(PM2.5)",57,63,51,40,31,39,,,,37,22,11,11,0.8,0.6
2025-04-01T0400,1211A,119.007,33.575,淮安市,北京南路,颗粒物(PM10),56,61,49,37,30,42,,,,35,28,10,10,0.7,0.6
2025-04-01T0400,1212A,118.989,33.6067,淮安市,市监测站,细颗粒物(PM2.5),62,56,51,44,33,52,,,,29,26,10,12,0.5,0.5
2025-04-01T0400,1213A,119.135,33.5039,淮安市,楚州区监测站,颗粒物(PM10),57,63,55,34,30,13,,,,62,34,16,10,0.8,0.7
2025-04-01T0400,3426A,118.8755,33.2894,淮安市,新华书店,细颗粒物(PM2.5),57,55,52,40,30,60,,,,29,25,10,9,0.6,0.6
2025-04-01T0400,4206A,119.0288,33.6319,淮安市,承德北路606号,颗粒物(PM10),60,70,60,34,31,51,,,,28,26,8,10,0.6,0.5
2025-04-01T0400,2282A,116.8004,33.975,淮北市,监测站,颗粒物(PM10),54,58,86,24,42,85,,,,20,20,8,8,0.6,0.7
2025-04-01T0400,2283A,116.8091,33.9007,淮北市,烈山区政府,颗粒物(PM10),54,58,78,30,44,74,,,,32,26,11,7,0.7,0.7
2025-04-01T0400,3330A,116.8873,33.9836,淮北市,杜集区检察院,颗粒物(PM10),59,67,84,31,44,73,,,,27,25,9,9,0.7,0.8
2025-04-01T0400,4017A,116.7923,33.9535,淮北市,市博物馆,颗粒物(PM10),53,56,82,25,42,82,,,,22,21,10,10,0.7,0.8
2025-04-01T0400,2277A,116.8305,32.7727,淮南市,潘集区政府,颗粒物(PM10),51,52,76,29,43,75,,,,26,25,4,6,0.3,0.4
2025-04-01T0400,2279A,116.8569,32.5951,淮南市,谢家集区政府,颗粒物(PM10),53,56,67,25,35,52,,,,35,27,7,7,0.2,0.3
2025-04-01T0400,2280A,116.8281,32.633,淮南市,八公山区政府,,44,44,64,19,31,80,,,,14,16,6,7,0.2,0.3
2025-04-01T0400,2281A,116.6325,32.6201,淮南市,焦岗湖风景区管理处,,30,30,59,14,29,64,,,,11,12,5,6,0.4,0.5
2025-04-01T0400,2894A,117.0566,32.6531,淮南市,经济技术开发区消防队,颗粒物(PM10),52,53,61,34,33,48,,,,41,19,9,7,0.5,0.4
2025-04-01T0400,3329A,117.0108,32.5893,淮南市,山南新区,颗粒物(PM10),60,70,63,28,29,45,,,,57,30,8,8,0.4,0.4
2025-04-01T0400,4209A,117.0031,32.6445,淮南市,国庆中路369号,颗粒物(PM10),51,52,60,28,34,63,,,,30,19,8,7,0.3,0.4
2025-04-01T0400,2446A,114.9028,30.4742,黄冈市,职工中心,细颗粒物(PM2.5),89,108,94,66,54,39,,,,35,29,6,8,0.9,0.8
2025-04-01T0400,2929A,114.8858,30.4519,黄冈市,红卫路,细颗粒物(PM2.5),84,111,102,62,49,28,,,,34,25,5,8,1.2,1
2025-04-01T0400,3398A,114.9136,30.4445,黄冈市,市林业局,细颗粒物(PM2.5),94,109,105,70,53,36,,,,33,32,7,11,1.1,1
2025-04-01T0400,2672A,102.0199,35.5102,黄南藏族自治州,同仁县隆务镇,颗粒物(PM10),84,118,129,41,42,86,,,,5,9,19,20,0.3,0.4
2025-04-01T0400,2295A,118.2903,29.6963,黄山市,延安路89号,,33,33,26,14,18,18,,,,9,7,4,4,0.2,0.3
2025-04-01T0400,2297A,118.1371,30.2756,黄山市,黄山区政府5号楼,,29,22,37,20,21,26,,,,2,4,7,7,0.2,0.2
2025-04-01T0400,4210A,118.3354,29.7203,黄山市,滨江东路7-2号,,33,33,38,9,16,21,,,,6,6,4,4,0.3,0.3
2025-04-01T0400,2423A,115.0601,30.2313,黄石市,沈家营,细颗粒物(PM2.5),80,108,98,59,47,20,,,,38,23,6,8,1.1,0.7
2025-04-01T0400,2426A,114.8988,30.2019,黄石市,铁山,细颗粒物(PM2.5),83,96,94,61,56,33,,,,28,34,8,9,0.8,1.1
2025-04-01T0400,2427A,115.0307,30.2092,黄石市,团城山,细颗粒物(PM2.5),82,110,93,60,45,32,,,,38,28,7,9,0.9,0.8
2025-04-01T0400,3149A,115.0235,30.1578,黄石市,笔架山北路,细颗粒物(PM2.5),95,97,80,71,50,29,,,,29,25,20,11,1.1,0.9
2025-04-01T0400,4185A,115.0780,30.21118,黄石市,磁湖东路29号,细颗粒物(PM2.5),83,108,102,61,51,40,,,,24,20,7,10,0.8,0.7
2025-04-01T0400,1392A,114.4183,23.0528,惠州市,河南岸金山湖子站,,15,15,9,8,5,39,,,,13,15,9,9,0.5,0.7
2025-04-01T0400,1393A,114.4053,23.0822,惠州市,下埔横江三路子站,,20,20,9,11,5,42,,,,10,13,8,8,0.4,0.5
2025-04-01T0400,1394A,114.4103,23.1142,惠州市,江北云山西路子站,,17,17,8,10,4,42,,,,11,15,9,9,0.4,0.4
2025-04-01T0400,1395A,114.4645,22.7833,惠州市,惠阳区承修路船湖子站,,15,14,9,10,6,32,,,,11,14,8,8,0.5,0.5
2025-04-01T0400,1396A,114.5317,22.7422,惠州市,大亚湾管委会子站,,11,10,7,3,3,33,,,,9,12,7,6,0.4,0.6
2025-04-01T0400,3314A,114.4338,22.8134,惠州市,惠阳秋长,,15,,8,10,4,40,,,,4,8,3,3,0.6,0.6
2025-04-01T0400,3452A,114.6517,22.775,惠州市,大亚湾霞涌,,11,,4,3,2,33,,,,10,12,5,5,0.4,0.4
2025-04-01T0400,2240A,130.9762,45.3001,鸡西市,环保局,细颗粒物(PM2.5),118,111,49,89,33,6,,,,59,19,7,7,1.2,0.7
2025-04-01T0400,2243A,130.9429,45.3039,鸡西市,第一中学,,40,36,38,28,27,70,,,,16,8,7,7,0.5,0.5
2025-04-01T0400,3707A,131.0207,45.3073,鸡西市,欧美日汽修厂,细颗粒物(PM2.5),105,130,74,79,45,16,,,,37,18,19,12,1.1,0.7
2025-04-01T0400,3709A,130.9967,45.3106,鸡西市,市政设施管理处,细颗粒物(PM2.5),104,123,68,78,39,7,,,,40,22,7,7,1.0,0.6
2025-04-01T0400,2367A,114.9754,27.0803,吉安市,红声器材厂,,47,47,46,28,24,25,,,,14,18,14,14,0.5,0.5
2025-04-01T0400,2368A,114.9658,27.0999,吉安市,市森林工业局,,45,45,41,30,26,27,,,,14,18,12,12,0.4,0.4
2025-04-01T0400,2369A,114.99,27.1312,吉安市,市环境监测站,,47,47,43,32,26,29,,,,10,13,24,20,0.3,0.4
2025-04-01T0400,2370A,115.0093,27.0968,吉安市,青原区法院,,49,44,43,34,28,36,,,,12,19,19,12,0.4,0.4
2025-04-01T0400,1772A,126.54,43.8622,吉林市,哈达湾,细颗粒物(PM2.5),64,59,65,46,46,86,,,,11,16,6,9,0.7,0.7
2025-04-01T0400,1773A,126.5844,43.8358,吉林市,东局子,细颗粒物(PM2.5),68,74,65,49,45,96,,,,7,14,6,8,0.7,0.7
2025-04-01T0400,1774A,126.5052,43.8245,吉林市,电力学院,细颗粒物(PM2.5),59,55,76,42,57,80,,,,13,20,5,8,0.6,0.7
2025-04-01T0400,1775A,126.6133,43.8972,吉林市,江北,颗粒物(PM10),54,58,77,36,54,86,,,,15,23,2,9,0.2,0.4
2025-04-01T0400,1776A,126.555,43.8306,吉林市,江南公园,细颗粒物(PM2.5),64,59,64,46,50,87,,,,9,14,6,8,0.3,0.4
2025-04-01T0400,1778A,126.7061,43.7133,吉林市,丰满,细颗粒物(PM2.5),65,54,44,47,37,89,,,,8,9,5,7,0.7,0.5
2025-04-01T0400,2868A,126.4739,43.953,吉林市,九站,细颗粒物(PM2.5),64,64,87,46,59,83,,,,12,19,10,12,0.7,0.9
2025-04-01T0400,1299A,116.9862,36.6114,济南市,科干所,颗粒物(PM10),59,68,91,34,34,110,,,,12,13,7,7,0.5,0.5
2025-04-01T0400,1300A,116.9376,36.665,济南市,农科所,颗粒物(PM10),78,105,107,29,32,102,,,,17,17,8,8,0.4,0.4
2025-04-01T0400,1301A,117.1265,36.6734,济南市,开发区,颗粒物(PM10),59,68,84,29,36,117,,,,10,12,7,8,0.5,0.5
2025-04-01T0400,1303A,117.0624,36.6868,济南市,省种子仓库,颗粒物(PM10),67,83,100,34,34,115,,,,6,10,5,5,0.6,0.7
2025-04-01T0400,1304A,116.9489,36.6447,济南市,机床二厂,颗粒物(PM10),72,93,115,37,42,85,,,,14,17,8,9,0.4,0.4
2025-04-01T0400,1305A,117.0495,36.663,济南市,市监测站,颗粒物(PM10),62,73,96,27,33,108,,,,12,14,8,8,0.4,0.4
2025-04-01T0400,1306A,116.7675,36.5484,济南市,长清党校,颗粒物(PM10),73,95,104,32,37,106,,,,20,20,7,6,0.8,0.7
2025-04-01T0400,1616A,117.6795,36.229,济南市,技术学院,颗粒物(PM10),60,70,83,36,36,102,,,,22,22,14,11,0.5,0.6
2025-04-01T0400,1961A,117.532,36.6868,济南市,东山小学,颗粒物(PM10),72,93,96,44,34,111,,,,12,12,8,8,0.7,0.7
2025-04-01T0400,3059A,117.7161,36.2049,济南市,泰兴公司,细颗粒物(PM2.5),70,85,89,51,49,53,,,,47,33,15,10,0.7,0.6
2025-04-01T0400,3064A,117.6867,36.2171,济南市,莱芜战役纪念馆,颗粒物(PM10),65,80,89,36,36,104,,,,25,27,9,6,0.5,0.5
2025-04-01T0400,3494A,117.1673,36.9782,济南市,济阳区政府,颗粒物(PM10),67,83,110,29,36,97,,,,15,14,9,10,0.3,0.4
2025-04-01T0400,3495A,117.1171,36.63,济南市,锦屏中学,颗粒物(PM10),59,68,84,24,29,110,,,,10,13,9,9,0.3,0.3
2025-04-01T0400,3682A,116.9814,36.6819,济南市,济南四建,颗粒物(PM10),69,88,102,49,48,110,,,,7,12,5,6,0.3,0.3
2025-04-01T0400,1653A,116.6251,35.4302,济宁市,火炬城,颗粒物(PM10),61,71,83,41,48,89,,,,14,14,10,10,0.4,0.4
2025-04-01T0400,1655A,116.5491,35.4042,济宁市,电化厂,颗粒物(PM10),72,94,111,48,53,90,,,,20,21,10,8,0.6,0.6
2025-04-01T0400,3500A,116.5814,35.3707,济宁市,北湖一中,颗粒物(PM10),84,117,87,41,40,90,,,,18,19,16,14,0.4,0.4
2025-04-01T0400,3501A,116.8249,35.5593,济宁市,服务中心,颗粒物(PM10),72,94,118,40,44,77,,,,27,24,9,7,0.6,0.7
2025-04-01T0400,3678A,116.5907,35.4054,济宁市,市第七中学,颗粒物(PM10),62,73,88,31,38,93,,,,13,14,10,8,0.3,0.3
2025-04-01T0400,2255A,130.2751,46.8028,佳木斯市,佳纺,细颗粒物(PM2.5),78,89,52,57,34,3,,,,41,21,4,5,0.8,0.5
2025-04-01T0400,2256A,130.3995,46.8307,佳木斯市,发电厂,细颗粒物(PM2.5),79,82,49,58,34,21,,,,37,26,2,4,0.8,0.7
2025-04-01T0400,2257A,130.3258,46.7975,佳木斯市,环保局,细颗粒物(PM2.5),87,101,53,64,32,5,,,,62,29,6,3,0.8,0.5
2025-04-01T0400,2258A,130.3648,46.8032,佳木斯市,十一中,细颗粒物(PM2.5),97,88,56,72,39,7,,,,62,35,6,6,0.8,0.6
2025-04-01T0400,2259A,130.3794,46.7588,佳木斯市,四丰,,46,46,31,30,20,50,,,,15,5,1,1,0.9,0.8
2025-04-01T0400,1252A,120.7436,30.778,嘉兴市,清河小学,,,,38,,12,,,93,,,18,,8,,0.5
2025-04-01T0400,1253A,120.726,30.7478,嘉兴市,嘉兴学院,颗粒物(PM10),52,54,37,29,16,72,,,,20,19,8,8,0.7,0.7
2025-04-01T0400,2872A,120.7846,30.7525,嘉兴市,南湖区残联,,,,34,,16,,,97,,,18,,8,,0.7
2025-04-01T0400,3407A,120.6916,30.7739,嘉兴市,秀洲住建,,,,41,,16,,,102,,,17,,6,,0.5
2025-04-01T0400,1945A,98.2908,39.7711,嘉峪关市,气象局,颗粒物(PM10),400,500,527,117,124,72,,,,6,8,4,11,0.4,0.4
2025-04-01T0400,2884A,98.2672,39.7978,嘉峪关市,酒钢宾馆,颗粒物(PM10),367,473,545,117,121,58,,,,8,9,3,8,0.3,0.3
2025-04-01T0400,3248A,98.2643,39.7724,嘉峪关市,雄关区,颗粒物(PM10),304,423,442,104,102,66,,,,11,13,4,4,0.5,0.5
2025-04-01T0400,1383A,113.1064,22.6058,江门市,北街,,22,21,19,15,11,27,,,,18,26,2,2,0.6,0.6
2025-04-01T0400,1384A,113.0731,22.5835,江门市,西区,,17,17,19,8,9,25,,,,17,25,6,6,0.6,0.7
2025-04-01T0400,1385A,113.0219,22.5311,江门市,圭峰西,,23,,14,16,10,28,,,,17,24,4,4,0.6,0.6
2025-04-01T0400,1386A,113.0828,22.5947,江门市,东湖,,26,26,18,14,12,24,,,,18,24,7,7,0.5,0.6
2025-04-01T0400,3311A,113.1075,22.5647,江门市,江海富民,,25,24,19,17,11,29,,,,18,26,6,6,0.5,0.6
2025-04-01T0400,3449A,113.05,22.4667,江门市,新会银湖,,22,18,17,15,13,26,,,,18,26,3,3,0.8,0.8
2025-04-01T0400,1830A,113.1992,35.2590,焦作市,影视城,,,,41,,32,,,,,,10,,4,,0.7
2025-04-01T0400,3169A,113.2725,35.2067,焦作市,太极体育中心,细颗粒物(PM2.5),75,91,89,55,44,23,,,,52,30,9,10,1.0,0.8
2025-04-01T0400,3335A,113.3137,35.2641,焦作市,马村街道办,颗粒物(PM10),72,93,88,50,44,58,,,,27,29,10,10,0.7,0.7
2025-04-01T0400,3336A,113.2465,35.2373,焦作市,焦作技师学院,颗粒物(PM10),64,78,84,34,33,48,,,,30,24,7,9,0.7,0.6
2025-04-01T0400,3477A,113.1656,35.2539,焦作市,中站许衡医院,颗粒物(PM10),54,58,72,37,36,94,,,,18,30,10,11,0.8,0.7
2025-04-01T0400,3981A,113.2449,35.1803,焦作市,原李万街道办,颗粒物(PM10),81,112,93,46,33,15,,,,64,34,18,11,0.8,0.5
2025-04-01T0400,4264A,113.2340,35.2190,焦作市,新安路1731号,颗粒物(PM10),70,89,90,43,42,37,,,,37,30,9,11,0.7,0.7
2025-04-01T0400,1708A,116.3701,23.5345,揭阳市,新兴,,10,,9,7,8,18,,,,13,17,6,6,0.5,0.6
2025-04-01T0400,1709A,116.3264,23.5443,揭阳市,西马,,7,,7,3,3,20,,,,9,14,8,7,0.5,0.6
2025-04-01T0400,1710A,116.3611,23.5626,揭阳市,东兴,,7,6,10,3,6,15,,,,14,19,6,6,0.6,0.7
2025-04-01T0400,1711A,116.4151,23.5294,揭阳市,渔湖,,7,,10,3,6,16,,,,14,21,4,4,0.6,0.7
2025-04-01T0400,3320A,116.403,23.5699,揭阳市,曲溪,,14,10,13,3,9,10,,,,27,30,4,4,0.6,0.6
2025-04-01T0400,1944A,102.1692,38.5167,金昌市,天庆家园,颗粒物(PM10),84,118,198,44,63,92,,,,3,6,8,8,0.7,0.7
2025-04-01T0400,4022A,102.1647,38.5371,金昌市,金川区人防中心,颗粒物(PM10),95,139,256,38,75,92,,,,3,16,7,7,0.4,0.5
2025-04-01T0400,4239A,102.1930,38.5319,金昌市,长春路96号,颗粒物(PM10),74,98,232,40,62,89,,,,3,6,18,14,0.5,0.6
2025-04-01T0400,1262A,119.647,29.077,金华市,十五中,,41,41,39,20,20,26,,,,26,26,5,5,0.5,0.5
2025-04-01T0400,1263A,119.686,29.1029,金华市,监测站,,50,50,45,28,27,13,,,,36,27,6,5,0.5,0.5
2025-04-01T0400,3659A,119.656,29.1131,金华市,气象局,,48,48,43,22,24,3,,,,50,28,5,5,0.3,0.3
2025-04-01T0400,1767A,121.1115,41.0879,锦州市,南山,细颗粒物(PM2.5),134,127,92,102,83,6,,,,72,44,11,14,1.2,1
2025-04-01T0400,1768A,121.0604,40.8428,锦州市,开发区,细颗粒物(PM2.5),87,113,114,64,65,80,,,,29,43,21,24,0.7,1
2025-04-01T0400,1769A,121.1836,41.1119,锦州市,百股街道,细颗粒物(PM2.5),98,128,101,73,61,4,,,,73,47,10,12,1.0,0.9
2025-04-01T0400,1770A,121.1178,41.1222,锦州市,天安街道,细颗粒物(PM2.5),156,133,95,119,81,6,,,,69,44,39,19,0.9,0.9
2025-04-01T0400,1771A,121.1303,41.1386,锦州市,北湖公园,细颗粒物(PM2.5),132,130,94,100,72,23,,,,43,38,16,14,0.9,0.9
2025-04-01T0400,2160A,112.85,35.5051,晋城市,自来水公司,颗粒物(PM10),66,82,68,34,25,64,,,,106,66,8,10,0.7,0.8
2025-04-01T0400,2161A,112.8318,35.4936,晋城市,白云商贸,颗粒物(PM10),64,78,72,27,20,62,,,,30,27,6,8,0.7,0.7
2025-04-01T0400,2162A,112.8508,35.4887,晋城市,市环保局,颗粒物(PM10),67,84,71,34,24,66,,,,29,28,5,6,0.5,0.7
2025-04-01T0400,2163A,112.8676,35.4897,晋城市,技术学院,颗粒物(PM10),61,71,71,24,21,63,,,,27,27,7,8,0.7,0.7
2025-04-01T0400,2165A,112.8453,35.546,晋城市,白马寺,,,,73,,38,,,86,,,17,,11,,1.0
2025-04-01T0400,3620A,112.8271,35.4828,晋城市,泽州一中,颗粒物(PM10),62,73,63,29,24,57,,,,33,22,11,12,0.8,0.8
2025-04-01T0400,2173A,112.7249,37.7067,晋中市,南都小区,颗粒物(PM10),62,74,65,35,23,23,,,,46,31,32,16,0.7,0.5
2025-04-01T0400,2174A,112.6991,37.6982,晋中市,榆次区政府,颗粒物(PM10),64,78,67,25,19,17,,,,53,31,28,16,0.7,0.6
2025-04-01T0400,2865A,112.7195,37.6828,晋中市,榆次三中,颗粒物(PM10),73,95,70,27,20,10,,,,62,34,24,14,0.5,0.5
2025-04-01T0400,4200A,112.7478,37.6954,晋中市,迎宾街26号,颗粒物(PM10),71,92,74,31,22,17,,,,50,28,28,14,0.4,0.4
2025-04-01T0400,2439A,112.2014,31.0481,荆门市,竹园小学,颗粒物(PM10),66,81,97,41,37,90,,,,15,14,8,5,0.1,0.1
2025-04-01T0400,2440A,112.1969,30.9891,荆门市,掇刀,颗粒物(PM10),67,84,95,38,36,72,,,,18,14,7,6,0.3,0.3
2025-04-01T0400,2441A,112.2213,31.0386,荆门市,石化一小,颗粒物(PM10),64,77,93,36,38,83,,,,14,15,12,9,0.1,0.1
2025-04-01T0400,3012A,112.1849,31.0362,荆门市,西山林语,颗粒物(PM10),59,68,83,36,34,78,,,,15,12,6,5,0.2,0.2
2025-04-01T0400,3547A,112.1632,31.0138,荆门市,龙泉中学南校,颗粒物(PM10),67,84,95,41,40,67,,,,17,18,8,7,0.3,0.4
2025-04-01T0400,1844A,112.2494,30.3197,荆州市,市图书馆,颗粒物(PM10),64,77,73,44,39,34,,,,47,24,17,5,0.5,0.5
2025-04-01T0400,1845A,112.2008,30.3544,荆州市,市委党校,颗粒物(PM10),65,79,79,42,38,32,,,,42,26,6,6,0.4,0.4
2025-04-01T0400,3194A,112.2747,30.3122,荆州市,管委会,颗粒物(PM10),73,95,80,48,39,32,,,,47,23,9,7,0.5,0.4
2025-04-01T0400,4268A,112.1722,30.3366,荆州市,学苑路85号,细颗粒物(PM2.5),60,62,66,43,36,9,,,,62,28,7,7,0.5,0.5
2025-04-01T0400,2342A,117.3102,29.3867,景德镇市,王港中学,,,,,,,,,,,,,,,,
2025-04-01T0400,2343A,117.2117,29.2933,景德镇市,老干部活动中心,,38,38,33,14,19,30,,,,11,12,5,5,0.3,0.2
2025-04-01T0400,2344A,117.1894,29.2789,景德镇市,兽医站,,33,33,42,20,18,34,,,,6,11,5,4,0.7,0.5
2025-04-01T0400,2345A,117.1547,29.2617,景德镇市,台达陶瓷,,48,48,46,32,24,4,,,,48,27,79,27,0.9,0.6
2025-04-01T0400,2346A,117.2461,29.2956,景德镇市,陶研所,,36,30,34,25,26,32,,,,9,13,5,5,0.6,0.5
2025-04-01T0400,1803A,115.9872,29.6815,九江市,十里,颗粒物(PM10),56,62,68,39,37,51,,,,25,26,3,3,0.6,0.6
2025-04-01T0400,1804A,115.9584,29.7046,九江市,茅山头,细颗粒物(PM2.5),62,65,76,44,39,43,,,,33,23,6,8,0.4,0.4
2025-04-01T0400,1805A,115.9877,29.7295,九江市,西园,颗粒物(PM10),59,68,68,39,33,53,,,,30,28,9,7,0.6,0.6
2025-04-01T0400,1808A,115.9114,29.6038,九江市,综合工业园,细颗粒物(PM2.5),57,50,67,40,37,45,,,,53,35,6,7,0.7,0.6
2025-04-01T0400,1809A,116.0721,29.7535,九江市,石化总厂,细颗粒物(PM2.5),85,88,79,63,49,34,,,,38,31,9,6,0.7,0.6
2025-04-01T0400,1810A,115.9773,29.5698,九江市,庐山气象台,,33,33,51,20,28,87,,,,5,9,6,6,0.6,0.7
2025-04-01T0400,3190A,116.0254,29.6994,九江市,外国语学校,细颗粒物(PM2.5),62,66,65,44,35,48,,,,36,35,14,12,0.9,0.8
2025-04-01T0400,4253A,116.0102,29.6594,九江市,莲花大道8号,"颗粒物(PM10),细颗粒物(PM2.5)",65,79,73,47,40,64,,,,8,13,6,7,0.5,0.5
2025-04-01T0400,4240A,98.4958,39.7339,酒泉市,玉门东路5号,颗粒物(PM10),425,525,557,113,108,56,,,,7,8,6,8,0.2,0.2
2025-04-01T0400,4241A,98.5099,39.7506,酒泉市,北大街108号,颗粒物(PM10),403,503,545,95,104,51,,,,8,11,7,10,0.2,0.3
2025-04-01T0400,2698A,76.0072,39.4467,喀什地区,巡警大队,颗粒物(PM10),500,670,756,178,203,7,,,,72,38,4,4,1.8,1
2025-04-01T0400,2699A,75.9755,39.4694,喀什地区,吾办,颗粒物(PM10),500,617,745,213,244,2,,,,65,37,3,3,1.8,1
2025-04-01T0400,4027A,75.9483,39.4689,喀什地区,老干局,颗粒物(PM10),500,640,746,156,184,24,,,,41,28,2,2,1.2,0.9
2025-04-01T0400,1824A,114.3389,34.7781,开封市,肿瘤医院,颗粒物(PM10),66,82,92,34,36,62,,,,22,18,8,8,0.6,0.5
2025-04-01T0400,1826A,114.2885,34.7965,开封市,世纪星幼儿园,"颗粒物(PM10),细颗粒物(PM2.5)",69,88,96,50,51,69,,,,27,23,7,8,0.7,0.7
2025-04-01T0400,3147A,114.3438,34.8106,开封市,龙亭公园,颗粒物(PM10),61,72,101,43,39,72,,,,28,23,6,4,0.1,0.3
2025-04-01T0400,3210A,114.3644,34.7964,开封市,汴京公园,颗粒物(PM10),71,91,98,44,42,63,,,,31,24,4,4,0.6,0.5
2025-04-01T0400,3473A,114.2485,34.8306,开封市,技师学院,颗粒物(PM10),70,90,95,50,45,72,,,,27,23,15,13,0.7,0.6
2025-04-01T0400,3592A,114.4644,34.7556,开封市,祥符区生态环境局,颗粒物(PM10),73,95,107,45,46,68,,,,27,25,5,6,0.8,0.7
2025-04-01T0400,1951A,84.895,45.6094,克拉玛依市,长征新村,,34,34,38,15,11,80,,,,13,19,7,7,0.2,0.3
2025-04-01T0400,1952A,84.8988,45.5893,克拉玛依市,南林小区,,37,37,41,16,13,80,,,,5,17,3,4,0.5,0.6
2025-04-01T0400,1954A,84.905,44.3396,克拉玛依市,独山子区,,43,43,54,24,24,84,,,,6,10,6,7,0.4,0.4
2025-04-01T0400,1955A,85.6979,46.098,克拉玛依市,乌尔禾区商贸楼,,24,,22,7,8,76,,,,4,10,5,5,0.5,0.5
2025-04-01T0400,3612A,85.1045,45.6899,克拉玛依市,白碱滩区新站,,32,32,33,3,9,90,,,,4,11,8,8,0.2,0.1
2025-04-01T0400,2697A,76.1454,39.7142,克孜勒苏柯尔克孜自治州,市人民政府,颗粒物(PM10),500,657,939,191,275,60,,,,7,10,13,8,0.5,0.5
2025-04-01T0400,3665A,76.1658,39.7157,克孜勒苏柯尔克孜自治州,克州文化中心,颗粒物(PM10),500,723,918,202,280,60,,,,10,14,26,9,0.4,0.4
2025-04-01T0400,1450A,102.8204,24.8886,昆明市,呈贡新区,,11,10,43,6,36,34,,,,14,18,5,6,0.6,0.8
2025-04-01T0400,1451A,102.6251,24.9608,昆明市,西山森林公园,,,,,,,,,,,,,,,,
2025-04-01T0400,1452A,102.7252,25.0902,昆明市,龙泉镇,,29,25,59,20,40,32,,,,15,23,6,7,0.8,0.7
2025-04-01T0400,1453A,102.7266,25.0375,昆明市,东风东路,,29,29,63,20,44,27,,,,22,31,7,7,0.7,0.7
2025-04-01T0400,1454A,102.6742,25.0669,昆明市,金鼎山,,33,,62,23,44,32,,,,20,27,3,3,0.8,0.7
2025-04-01T0400,1455A,102.6644,25.0401,昆明市,碧鸡广场,,48,35,67,33,48,34,,,,20,31,6,5,0.7,0.8
2025-04-01T0400,3179A,102.7494,25.0119,昆明市,官渡区博物馆,,28,27,39,19,36,23,,,,24,24,6,5,0.8,0.9
2025-04-01T0400,3375A,102.8017,24.8336,昆明市,青年创业园,,13,13,59,7,40,35,,,,12,18,6,7,0.6,0.7
2025-04-01T0400,3550A,102.7997,24.9786,昆明市,昆明学院,,23,23,58,15,36,33,,,,18,25,4,4,0.6,0.7
2025-04-01T0400,3551A,102.5967,24.6736,昆明市,晋宁区生态环境分局,,28,24,62,19,49,40,,,,11,14,6,7,0.6,0.8
2025-04-01T0400,3552A,102.6678,24.9856,昆明市,云天化总部,,35,35,68,23,43,30,,,,24,31,6,6,0.7,0.7
2025-04-01T0400,1456A,91.1319,29.6514,拉萨市,八廓街,,36,31,23,16,9,113,,,,6,8,5,5,0.8,0.6
2025-04-01T0400,1457A,91.1221,29.6747,拉萨市,市环保局,,33,32,25,23,12,105,,,,8,10,4,3,0.2,0.2
2025-04-01T0400,1458A,91.0874,29.6475,拉萨市,区监测站,,36,28,23,18,11,113,,,,5,9,6,6,0.4,0.4
2025-04-01T0400,1459A,91.1774,29.6541,拉萨市,西藏大学,,32,32,25,17,11,97,,,,11,10,7,8,0.4,0.4
2025-04-01T0400,1460A,90.9798,29.6588,拉萨市,区辐射站,颗粒物(PM10),57,64,33,29,14,78,,,,20,11,7,7,0.5,0.5
2025-04-01T0400,1461A,91.0834,29.6292,拉萨市,拉萨火车站,,35,33,23,15,10,111,,,,3,4,4,3,0.6,0.5
2025-04-01T0400,2520A,109.2203,23.7256,来宾市,来宾技工学校,,46,,26,32,21,47,,,,17,11,5,7,0.4,0.5
2025-04-01T0400,3535A,109.1781,23.7297,来宾市,兴宾区政府,,40,40,26,28,18,34,,,,14,9,7,7,0.6,0.6
2025-04-01T0400,4002A,109.2416,23.7461,来宾市,中南小学,,40,39,29,28,19,41,,,,14,10,8,8,0.5,0.6
2025-04-01T0400,1477A,104.1373,35.9454,兰州市,榆中兰大校区,,,,,,,,,,,,,,,,
2025-04-01T0400,1479A,103.831,36.0464,兰州市,铁路设计院,颗粒物(PM10),96,142,118,43,33,18,,,,71,43,12,12,0.7,0.7
2025-04-01T0400,3241A,103.7439,36.0842,兰州市,百合公园,颗粒物(PM10),91,131,115,40,34,28,,,,44,26,11,10,0.6,0.6
2025-04-01T0400,3242A,103.9611,35.998,兰州市,和平,颗粒物(PM10),106,162,131,50,44,65,,,,17,24,11,14,0.5,0.5
2025-04-01T0400,4236A,103.6293,36.0938,兰州市,庄浪东路808号,颗粒物(PM10),125,199,132,74,50,68,,,,21,34,9,15,0.3,0.5
2025-04-01T0400,4237A,103.7251,36.1043,兰州市,安宁西路88号,颗粒物(PM10),114,177,143,54,47,36,,,,48,22,12,10,0.5,0.4
2025-04-01T0400,4238A,103.8470,36.0676,兰州市,北滨河东路1号,颗粒物(PM10),106,161,113,52,41,26,,,,53,40,14,14,0.7,0.7
2025-04-01T0400,3245A,103.6633,36.533,兰州新区,新区管委会,颗粒物(PM10),184,318,141,109,50,84,,,,5,14,7,13,0.3,0.5
2025-04-01T0400,3246A,103.6975,36.4789,兰州新区,舟曲中学,细颗粒物(PM2.5),202,320,164,152,75,78,,,,13,20,38,13,0.5,0.6
2025-04-01T0400,1067A,116.6708,39.5111,廊坊市,药材公司,细颗粒物(PM2.5),92,87,84,68,53,63,,,,21,25,4,7,0.5,0.4
2025-04-01T0400,1068A,116.7214,39.5589,廊坊市,开发区,颗粒物(PM10),79,108,91,51,45,71,,,,24,28,5,6,0.4,0.4
2025-04-01T0400,1070A,116.7244,39.5269,廊坊市,北华航天学院,颗粒物(PM10),70,90,80,47,44,64,,,,22,25,7,7,0.4,0.4
2025-04-01T0400,2919A,116.7022,39.5453,廊坊市,河北工业大学,颗粒物(PM10),74,98,81,51,49,68,,,,21,25,8,9,0.4,0.4
2025-04-01T0400,2535A,103.7723,29.5462,乐山市,花湖湾,细颗粒物(PM2.5),53,46,42,37,33,8,,,,17,18,3,3,0.6,0.5
2025-04-01T0400,2536A,103.7627,29.5844,乐山市,牛耳桥,细颗粒物(PM2.5),69,54,45,50,36,12,,,,31,34,7,7,0.5,0.5
2025-04-01T0400,2537A,103.7508,29.6006,乐山市,市第三水厂,细颗粒物(PM2.5),53,45,40,37,29,13,,,,18,19,4,4,0.5,0.5
2025-04-01T0400,2538A,103.7571,29.5664,乐山市,市监测站,细颗粒物(PM2.5),64,,38,46,34,8,,,,22,21,6,6,0.9,0.7
2025-04-01T0400,3361A,103.7311,29.5628,乐山市,理工大学,细颗粒物(PM2.5),60,55,44,43,32,9,,,,30,25,7,4,0.7,0.5
2025-04-01T0400,2598A,100.2143,26.8576,丽江市,西南郊,细颗粒物(PM2.5),73,64,66,53,46,109,,,,7,6,4,5,1.0,0.9
2025-04-01T0400,2599A,100.2497,26.8802,丽江市,丽江古城,细颗粒物(PM2.5),63,68,63,45,40,110,,,,10,12,9,8,0.7,0.7
2025-04-01T0400,2600A,100.2203,26.8906,丽江市,市中心,细颗粒物(PM2.5),62,48,50,44,43,107,,,,16,15,9,10,1.0,0.9
2025-04-01T0400,1267A,119.914,28.4514,丽水市,监测站大楼,,35,,23,24,19,28,,,,18,17,3,3,0.3,0.3
2025-04-01T0400,1268A,119.93,28.4586,丽水市,莲都小学,,31,31,27,20,18,32,,,,15,16,4,4,0.3,0.3
2025-04-01T0400,1269A,119.879,28.4231,丽水市,余庄前,,26,24,25,18,18,14,,,,21,18,3,3,0.5,0.5
2025-04-01T0400,1173A,119.176,34.5885,连云港市,市环境监测站,颗粒物(PM10),51,51,70,34,39,65,,,,21,21,12,12,0.6,0.6
2025-04-01T0400,3000A,119.3581,34.6972,连云港市,德源药业,颗粒物(PM10),52,53,67,29,36,81,,,,16,19,10,10,0.4,0.5
2025-04-01T0400,3007A,119.178,34.844,连云港市,新城一中,颗粒物(PM10),54,58,71,36,44,67,,,,24,29,12,10,0.6,0.6
2025-04-01T0400,3008A,119.3608,34.7519,连云港市,胡沟管理处,,44,44,53,24,31,87,,,,18,20,9,8,0.7,0.7
2025-04-01T0400,3009A,119.1478,34.5911,连云港市,矿山设计院,颗粒物(PM10),56,61,71,31,36,65,,,,26,23,13,11,0.5,0.5
2025-04-01T0400,3434A,119.2413,34.6539,连云港市,工贸学校,,49,,17,34,41,79,,,,22,20,13,10,0.7,0.8
2025-04-01T0400,3664A,119.4172,34.7341,连云港市,连云街道,颗粒物(PM10),51,51,64,26,34,86,,,,21,21,9,8,0.3,0.3
2025-04-01T0400,2571A,102.3431,27.8099,凉山彝族自治州,青龙寺,,20,12,28,3,10,61,,,,3,6,6,6,0.6,0.6
2025-04-01T0400,2572A,102.2721,27.8415,凉山彝族自治州,邛海宾馆,,25,14,29,7,16,78,,,,5,9,2,3,0.4,0.4
2025-04-01T0400,2573A,102.2625,27.898,凉山彝族自治州,西昌市政府,,23,13,29,3,17,72,,,,4,7,6,6,0.1,0.3
2025-04-01T0400,2574A,102.2685,27.8851,凉山彝族自治州,凉山州政府,,26,15,30,9,16,82,,,,8,10,4,4,0.2,0.4
2025-04-01T0400,4229A,102.2342,27.8859,凉山彝族自治州,凯乐南路30号,,22,18,33,6,14,68,,,,12,11,12,11,0.5,0.5
2025-04-01T0400,2212A,123.2,41.1953,辽阳市,宏伟区,细颗粒物(PM2.5),65,55,76,47,44,122,,,,9,15,12,14,0.7,0.9
2025-04-01T0400,2213A,123.1683,41.2495,辽阳市,新华园,细颗粒物(PM2.5),72,69,86,52,54,118,,,,16,25,12,17,1.0,1.2
2025-04-01T0400,2214A,123.2354,41.2639,辽阳市,滨河路,细颗粒物(PM2.5),72,55,66,52,43,110,,,,11,19,8,15,0.6,0.7
2025-04-01T0400,2215A,123.149,41.2991,辽阳市,铁西工业园,细颗粒物(PM2.5),70,77,97,51,50,116,,,,16,26,10,17,0.8,1.2
2025-04-01T0400,2227A,125.1358,42.8845,辽源市,环保局,颗粒物(PM10),58,66,72,28,36,95,,,,20,21,6,7,0.7,0.8
2025-04-01T0400,3239A,125.0764,42.9078,辽源市,银鹰制药,,48,48,49,28,32,98,,,,19,22,6,9,0.7,0.9
2025-04-01T0400,1625A,115.9848,36.4372,聊城市,区政府,颗粒物(PM10),73,95,109,44,40,72,,,,30,23,9,9,0.6,0.6
2025-04-01T0400,2878A,116.0072,36.4343,聊城市,聊大东校,颗粒物(PM10),76,102,119,48,45,71,,,,23,20,8,9,0.5,0.6
2025-04-01T0400,3200A,115.9819,36.4978,聊城市,监控中心,颗粒物(PM10),73,96,118,44,41,82,,,,18,17,12,13,0.6,0.6
2025-04-01T0400,3513A,116.0445,36.4361,聊城市,九州社区,颗粒物(PM10),71,92,111,44,39,71,,,,25,20,11,12,0.6,0.6
2025-04-01T0400,4018A,116.0567,36.4608,聊城市,星美广场,颗粒物(PM10),74,97,110,41,36,71,,,,19,15,10,10,0.7,0.7
2025-04-01T0400,2632A,94.3681,29.6376,林芝市,林芝监测站,,44,12,10,12,8,139,,,,4,6,5,5,0.4,0.4
2025-04-01T0400,2633A,94.3616,29.6616,林芝市,林芝人民医院,,41,16,14,12,7,131,,,,2,3,7,7,0.3,0.3
2025-04-01T0400,2603A,100.0781,23.8982,临沧市,市环保局,细颗粒物(PM2.5),110,108,112,83,87,90,,,,16,17,9,11,1.0,0.9
2025-04-01T0400,2604A,100.0894,23.8822,临沧市,市气象局,细颗粒物(PM2.5),125,,98,95,87,88,,,,18,17,7,8,0.8,0.8
2025-04-01T0400,1733A,111.5531,36.0783,临汾市,临钢医院,颗粒物(PM10),74,98,95,35,33,40,,,,29,28,4,8,0.8,0.9
2025-04-01T0400,1734A,111.5028,36.0714,临汾市,技工学校,颗粒物(PM10),70,89,79,45,40,21,,,,47,30,8,12,0.7,0.8
2025-04-01T0400,1736A,111.5018,36.0855,临汾市,市委,颗粒物(PM10),76,101,91,38,34,22,,,,52,34,4,7,0.7,1.1
2025-04-01T0400,3018A,111.505,36.1014,临汾市,唐尧大酒店,颗粒物(PM10),76,102,96,29,35,15,,,,51,30,7,11,0.8,0.8
2025-04-01T0400,4244A,111.4879,36.0530,临汾市,启星学校,颗粒物(PM10),72,93,90,46,42,15,,,,47,30,4,9,0.8,0.9
2025-04-01T0400,4271A,103.2464,35.6123,临夏回族自治州,滨河东路1号,颗粒物(PM10),123,196,157,76,59,25,,,,16,19,4,7,0.9,0.7
2025-04-01T0400,4310A,103.2093,35.5995,临夏回族自治州,新华街21号,颗粒物(PM10),120,189,151,87,59,8,,,,54,27,11,13,1.2,0.7
2025-04-01T0400,1618A,118.3429,35.0532,临沂市,沂河小区,细颗粒物(PM2.5),63,70,87,45,51,61,,,,32,22,14,13,0.7,0.6
2025-04-01T0400,1619A,118.295,35.0583,临沂市,鲁南制药厂,颗粒物(PM10),81,112,85,44,44,45,,,,61,30,37,16,0.7,0.5
2025-04-01T0400,1620A,118.2794,34.9976,临沂市,新光毛纺厂,颗粒物(PM10),73,95,80,45,46,35,,,,64,35,32,17,0.9,0.7
2025-04-01T0400,1621A,118.3956,35.0888,临沂市,河东保险公司,细颗粒物(PM2.5),68,68,74,49,40,76,,,,36,29,18,9,0.6,0.4
2025-04-01T0400,3370A,118.3564,35.0215,临沂市,十里堡居委,细颗粒物(PM2.5),83,92,79,61,42,57,,,,38,30,13,9,0.8,0.7
2025-04-01T0400,3496A,118.3604,35.1084,临沂市,南坊新区,细颗粒物(PM2.5),55,51,80,39,42,74,,,,28,23,14,12,0.6,0.6
2025-04-01T0400,3860A,118.3920,35.0300,临沂市,皇山花园小区,颗粒物(PM10),56,61,80,37,40,66,,,,31,23,13,12,0.4,0.4
2025-04-01T0400,1870A,109.4856,24.3895,柳州市,柳东小学,,35,31,22,24,17,59,,,,12,11,10,11,0.5,0.5
2025-04-01T0400,1871A,109.4157,24.3277,柳州市,环保监测站,,,,15,,12,,,52,,,7,,10,,0.6
2025-04-01T0400,1872A,109.389,24.341,柳州市,河西水厂,,33,30,24,23,17,60,,,,8,11,6,7,0.6,0.7
2025-04-01T0400,1873A,109.4311,24.2921,柳州市,市四中,,30,26,23,21,15,63,,,,6,9,8,9,0.6,0.6
2025-04-01T0400,1874A,109.4006,24.3631,柳州市,市九中,,,,20,,10,,,52,,,7,,8,,0.3
2025-04-01T0400,1875A,109.4958,24.3134,柳州市,古亭山,,26,26,21,17,13,73,,,,5,7,8,10,0.5,0.6
2025-04-01T0400,3402A,109.5422,24.3996,柳州市,市二中,,35,28,21,24,18,64,,,,7,9,11,13,0.3,0.3
2025-04-01T0400,2307A,116.5079,31.737,六安市,监测大楼,,31,31,51,8,23,67,,,,18,13,5,6,0.4,0.4
2025-04-01T0400,2308A,116.4738,31.7643,六安市,皖西学院,,39,39,63,16,26,91,,,,17,17,5,5,0.5,0.5
2025-04-01T0400,2309A,116.4996,31.7905,六安市,朝阳厂,,26,20,54,16,26,82,,,,20,22,4,4,0.6,0.6
2025-04-01T0400,2310A,116.5567,31.7886,六安市,开发区,,47,47,72,30,35,70,,,,55,25,6,5,0.5,0.6
2025-04-01T0400,2576A,104.8,26.5892,六盘水市,窑上,,18,18,31,9,22,57,,,,7,7,5,5,0.5,0.5
2025-04-01T0400,2577A,104.83,26.5917,六盘水市,黄土坡,,18,10,23,10,16,55,,,,7,11,9,10,0.5,0.5
2025-04-01T0400,2578A,104.89,26.5939,六盘水市,水钢,,19,19,29,3,16,48,,,,18,14,8,10,0.6,0.4
2025-04-01T0400,2579A,104.8475,26.5894,六盘水市,民中,,17,10,23,3,14,52,,,,10,12,8,8,0.5,0.4
2025-04-01T0400,2580A,104.9544,26.5506,六盘水市,双水,,17,12,22,9,15,54,,,,9,9,9,9,0.5,0.4
2025-04-01T0400,2335A,117.0189,25.1181,龙岩市,龙岩师专,,,,,,,,,,,,,,,,
2025-04-01T0400,2336A,117.0217,25.1033,龙岩市,龙岩市监测站,,13,13,7,9,4,39,,,,12,12,5,4,0.4,0.3
2025-04-01T0400,2337A,117.0258,25.0661,龙岩市,闽西职业技术学院,,14,14,7,6,5,40,,,,10,11,5,4,0.7,0.6
2025-04-01T0400,2338A,117.0196,25.0306,龙岩市,龙岩学院,,18,13,7,12,8,40,,,,9,11,3,3,0.6,0.5
2025-04-01T0400,2665A,105.0822,33.3261,陇南市,汉王镇固水子,,,,,,,,,,,,,,,,
2025-04-01T0400,2885A,104.9339,33.3826,陇南市,滨江中学,颗粒物(PM10),65,79,76,25,29,38,,,,16,15,9,8,0.6,0.6
2025-04-01T0400,3247A,104.955,33.371,陇南市,市总工会,颗粒物(PM10),53,55,65,24,26,48,,,,11,13,6,8,0.6,0.5
2025-04-01T0400,2487A,111.9589,27.8901,娄底市,电视发射台,,50,50,49,23,19,39,,,,5,5,6,6,0.6,0.6
2025-04-01T0400,2488A,111.9975,27.725,娄底市,市监测站,"颗粒物(PM10),细颗粒物(PM2.5)",53,56,51,37,30,36,,,,20,15,11,12,0.7,0.8
2025-04-01T0400,2489A,112.0194,27.7314,娄底市,市委党校,"颗粒物(PM10),细颗粒物(PM2.5)",55,59,54,39,32,48,,,,7,9,3,4,0.6,0.7
2025-04-01T0400,2490A,111.9561,27.7569,娄底市,涟钢,颗粒物(PM10),53,56,55,31,29,34,,,,19,13,4,7,0.7,0.7
2025-04-01T0400,2491A,111.9892,27.7044,娄底市,市政府,颗粒物(PM10),51,51,48,28,28,42,,,,7,8,7,8,0.7,0.7
2025-04-01T0400,1893A,105.4324,28.9634,泸州市,九狮山,,,,,,,,,,,,,,,,
2025-04-01T0400,1894A,105.4427,28.9063,泸州市,小市上码头,细颗粒物(PM2.5),58,50,41,41,32,14,,,,26,24,5,6,0.6,0.5
2025-04-01T0400,1895A,105.4241,28.8573,泸州市,兰田宪桥,细颗粒物(PM2.5),63,70,56,45,37,11,,,,12,20,4,5,0.5,0.5
2025-04-01T0400,1896A,105.4379,28.8833,泸州市,市环监站,,,,,,,,,,,,,,,,
2025-04-01T0400,4272A,105.3689,28.7783,泸州市,纳溪中医医院,细颗粒物(PM2.5),54,38,43,38,28,12,,,,16,21,4,4,0.5,0.6
2025-04-01T0400,2183A,111.1406,37.5211,吕梁市,环保局,颗粒物(PM10),63,76,69,14,19,5,,,,57,40,5,4,0.3,0.3
2025-04-01T0400,2185A,111.1297,37.5136,吕梁市,自来水公司,颗粒物(PM10),103,155,97,36,19,4,,,,54,36,8,4,0.4,0.4
2025-04-01T0400,2867A,111.1283,37.51,吕梁市,马茂庄小学,颗粒物(PM10),63,76,79,21,18,4,,,,61,41,1,4,0.4,0.4
2025-04-01T0400,1812A,112.3931,34.6516,洛阳市,市委党校,颗粒物(PM10),60,69,80,31,37,62,,,,18,26,4,8,0.5,0.6
2025-04-01T0400,1815A,112.494,34.6886,洛阳市,河南林校,颗粒物(PM10),65,80,94,36,39,62,,,,22,29,5,8,0.6,0.7
2025-04-01T0400,1816A,112.3844,34.623,洛阳市,开发区管委会,颗粒物(PM10),68,85,77,44,35,44,,,,30,25,8,7,0.3,0.3
2025-04-01T0400,1817A,112.4267,34.6258,洛阳市,市委新办公区,颗粒物(PM10),64,78,72,38,31,58,,,,26,23,5,6,0.3,0.3
2025-04-01T0400,3340A,112.6005,34.6326,洛阳市,伊滨,细颗粒物(PM2.5),82,91,80,60,52,47,,,,32,21,13,9,0.6,0.5
2025-04-01T0400,3341A,112.4951,34.6332,洛阳市,中移产业园,颗粒物(PM10),81,112,95,44,48,62,,,,20,19,8,9,0.4,0.4
2025-04-01T0400,3593A,112.5736,34.8993,洛阳市,吉利监测站,颗粒物(PM10),60,70,66,31,32,5,,,,63,23,7,9,0.5,0.4
2025-04-01T0400,3635A,112.3677,34.662,洛阳市,河科大西苑校区,颗粒物(PM10),63,75,86,34,34,52,,,,24,23,8,12,0.4,0.5
2025-04-01T0400,3636A,112.4388,34.6781,洛阳市,英才小学,颗粒物(PM10),63,75,91,33,38,64,,,,17,29,7,13,0.3,0.5
2025-04-01T0400,4214A,112.4600,34.6949,洛阳市,春都路1号院,颗粒物(PM10),74,97,108,33,35,49,,,,29,29,8,13,0.6,0.7
2025-04-01T0400,2399A,114.051,33.5699,漯河市,三五一五工厂,颗粒物(PM10),74,98,97,50,43,74,,,,18,16,6,6,0.6,0.5
2025-04-01T0400,2400A,114.0055,33.5698,漯河市,漯河大学,颗粒物(PM10),71,91,96,36,39,78,,,,15,14,7,7,0.4,0.4
2025-04-01T0400,2401A,114.0138,33.5828,漯河市,市水利局,颗粒物(PM10),68,85,94,39,44,84,,,,13,14,5,6,0.5,0.5
2025-04-01T0400,2402A,114.0261,33.5698,漯河市,市广电局,颗粒物(PM10),70,90,94,41,41,79,,,,15,13,6,6,0.5,0.5
2025-04-01T0400,3478A,113.9749,33.5664,漯河市,市图书馆,颗粒物(PM10),71,92,99,43,43,78,,,,17,18,4,5,0.5,0.5
2025-04-01T0400,4250A,114.0892,33.5882,漯河市,韶山路11号,颗粒物(PM10),80,109,102,52,45,71,,,,22,14,7,5,0.6,0.4
2025-04-01T0400,1798A,118.5092,31.6837,马鞍山市,湖东路四小,,42,42,40,24,16,80,,,,22,18,14,8,0.5,0.5
2025-04-01T0400,1799A,118.5024,31.6449,马鞍山市,开发区,颗粒物(PM10),60,70,51,23,17,69,,,,29,25,5,5,0.5,0.5
2025-04-01T0400,1802A,118.6245,31.7241,马鞍山市,濮塘,,37,37,34,22,18,82,,,,12,9,10,9,0.3,0.2
2025-04-01T0400,3633A,118.4918,31.6809,马鞍山市,雨山,,41,41,44,24,18,82,,,,15,15,9,8,0.5,0.5
2025-04-01T0400,4191A,118.5274,31.72227,马鞍山市,慈湖高新区,颗粒物(PM10),52,54,45,29,21,66,,,,37,25,10,7,0.6,0.6
2025-04-01T0400,1686A,111.0286,21.4688,茂名市,电白南海,,12,12,27,7,16,25,,,,10,13,6,6,0.9,1
2025-04-01T0400,1687A,110.9294,21.6533,茂名市,茂石化七小,,12,12,19,7,10,16,,,,4,7,2,2,0.9,1
2025-04-01T0400,1688A,110.9107,21.6687,茂名市,健康路,,14,14,20,9,13,24,,,,9,12,14,11,0.8,0.9
2025-04-01T0400,1689A,110.8592,21.6828,茂名市,高岭,,17,17,20,7,6,20,,,,9,10,14,13,0.6,0.6
2025-04-01T0400,3450A,111.01,21.5165,茂名市,电白水东,,8,6,20,3,11,20,,,,15,16,3,12,0.6,0.7
2025-04-01T0400,2539A,104.0308,30.0478,眉山市,黑龙滩水库,细颗粒物(PM2.5),58,50,35,41,24,19,,,,7,9,3,3,0.7,0.6
2025-04-01T0400,2540A,103.8416,30.0874,眉山市,气象局,细颗粒物(PM2.5),73,68,56,53,39,20,,,,21,27,6,6,0.6,0.6
2025-04-01T0400,3137A,103.8578,30.0744,眉山市,市委党校,细颗粒物(PM2.5),77,,40,56,36,20,,,,15,20,3,3,0.6,0.6
2025-04-01T0400,3148A,103.8291,30.0564,眉山市,区人社局,细颗粒物(PM2.5),73,56,43,53,34,20,,,,22,29,2,2,0.6,0.6
2025-04-01T0400,1690A,116.1231,24.3284,梅州市,梅江月梅,,16,,5,11,5,19,,,,13,17,3,3,0.5,0.5
2025-04-01T0400,1691A,116.0797,24.2719,梅州市,梅县新城,,13,10,5,9,4,28,,,,7,10,4,4,0.5,0.5
2025-04-01T0400,1692A,116.1248,24.2654,梅州市,环境监控中心,,8,,4,3,4,22,,,,13,16,5,5,0.5,0.5
2025-04-01T0400,3315A,116.1233,24.2991,梅州市,梅龙,,10,,6,7,4,25,,,,9,14,5,6,0.4,0.5
2025-04-01T0400,1878A,104.7778,31.4741,绵阳市,富乐山,,46,40,38,32,29,14,,,,26,26,2,2,0.5,0.5
2025-04-01T0400,1880A,104.6697,31.4668,绵阳市,高新区自来水公司,,45,45,44,31,29,14,,,,25,28,2,3,0.6,0.6
2025-04-01T0400,1881A,104.7287,31.5075,绵阳市,三水厂,细颗粒物(PM2.5),55,49,50,39,37,16,,,,27,28,5,6,0.7,0.6
2025-04-01T0400,3491A,104.69,31.5322,绵阳市,西科大附属小学,,43,43,50,30,35,18,,,,34,28,7,7,0.8,0.6
2025-04-01T0400,3492A,104.5648,31.5343,绵阳市,安州区旅游局,,39,35,39,27,31,0,,,,47,22,8,10,0.7,0.4
2025-04-01T0400,4226A,104.7651,31.4531,绵阳市,绵阳市气象局,细颗粒物(PM2.5),65,,39,47,31,9,,,,23,25,2,4,0.7,0.6
2025-04-01T0400,1784A,129.61,44.561,牡丹江市,环保大楼,,36,32,49,25,30,57,,,,16,14,6,6,0.4,0.4
2025-04-01T0400,1785A,129.6115,44.5782,牡丹江市,文化广场,,42,42,47,25,33,53,,,,20,13,10,10,0.5,0.5
2025-04-01T0400,1786A,129.5904,44.5963,牡丹江市,第一医院,,48,43,49,33,34,38,,,,20,17,10,10,0.4,0.4
2025-04-01T0400,1787A,129.6364,44.6075,牡丹江市,机车工厂,,50,50,49,34,25,30,,,,22,17,20,13,0.6,0.5
2025-04-01T0400,1788A,129.6386,44.5462,牡丹江市,第一中学,,36,29,46,25,31,45,,,,17,12,8,8,0.5,0.5
2025-04-01T0400,2531A,105.0703,29.61,内江市,市监测站,,39,,25,27,22,16,,,,26,20,2,2,0.4,0.4
2025-04-01T0400,2532A,105.0717,29.5947,内江市,东兴区政府,,32,32,25,19,15,15,,,,23,21,2,3,0.5,0.5
2025-04-01T0400,2533A,105.0653,29.5817,内江市,内江二中,,28,25,27,19,16,16,,,,27,24,8,6,0.5,0.4
2025-04-01T0400,2534A,105.0406,29.5822,内江市,内江日报社,,38,36,28,26,18,16,,,,27,21,5,2,0.5,0.5
2025-04-01T0400,2628A,92.0657,31.4846,那曲市,那曲监测站,,23,23,31,12,14,49,,,,12,12,5,8,1.1,0.8
2025-04-01T0400,4243A,92.0515,31.4787,那曲市,那曲市委宣传部,,39,39,39,22,16,37,,,,21,11,6,4,1.1,0.4
2025-04-01T0400,1290A,115.8931,28.6843,南昌市,省外办,细颗粒物(PM2.5),58,55,55,41,36,27,,,,44,28,5,6,0.6,0.6
2025-04-01T0400,1291A,115.8886,28.7003,南昌市,省林业公司,颗粒物(PM10),54,58,56,34,32,14,,,,50,20,7,7,0.3,0.2
2025-04-01T0400,1292A,115.8126,28.7442,南昌市,林科所,,41,41,49,24,27,58,,,,28,30,3,4,0.4,0.4
2025-04-01T0400,1294A,115.8518,28.687,南昌市,建工学校,细颗粒物(PM2.5),63,55,67,45,50,17,,,,55,26,3,3,0.6,0.4
2025-04-01T0400,1295A,115.8921,28.6424,南昌市,象湖,颗粒物(PM10),55,60,49,36,30,16,,,,49,21,8,7,0.7,0.6
2025-04-01T0400,1296A,115.7423,28.7996,南昌市,武术学校,,49,49,43,27,25,12,,,,4,7,4,5,0.5,0.5
2025-04-01T0400,3046A,115.9084,28.6062,南昌市,机电学校,颗粒物(PM10),52,54,60,31,30,31,,,,37,27,3,3,0.6,0.6
2025-04-01T0400,3690A,115.9721,28.7031,南昌市,外国语学校,颗粒物(PM10),55,60,59,30,30,40,,,,34,21,6,6,0.1,0
2025-04-01T0400,4192A,115.9316,28.68677,南昌市,南京东路235号,颗粒物(PM10),61,72,61,40,33,21,,,,59,25,8,9,0.6,0.4
2025-04-01T0400,1905A,106.056,30.8064,南充市,西山风景区,,22,22,19,14,15,17,,,,11,8,3,3,0.5,0.5
2025-04-01T0400,1906A,106.0789,30.8023,南充市,南充市委,,29,28,28,20,19,23,,,,14,16,4,4,0.5,0.5
2025-04-01T0400,1907A,106.1031,30.8217,南充市,南充炼油厂,,36,,32,25,22,22,,,,15,15,4,4,0.4,0.4
2025-04-01T0400,1909A,106.0642,30.7636,南充市,嘉陵区环保局,,,,24,,16,,,16,,,19,,3,,0.2
2025-04-01T0400,4227A,106.1083,30.7884,南充市,梨树横街98号,,28,28,28,14,18,24,,,,15,17,5,5,0.3,0.3
2025-04-01T0400,4304A,106.1172,30.843,南充市,清泉寺北路188号,,39,39,36,21,23,26,,,,18,18,7,7,0.3,0.3
2025-04-01T0400,1151A,118.8086,32.1065,南京市,迈皋桥,,39,39,35,19,15,86,,,,17,13,4,4,0.3,0.2
2025-04-01T0400,1152A,118.7538,32.0551,南京市,草场门,,36,36,35,19,15,80,,,,26,25,6,5,0.5,0.4
2025-04-01T0400,1153A,118.7794,32.0745,南京市,山西路,,46,46,46,19,14,75,,,,4,6,4,3,0.2,0.1
2025-04-01T0400,1154A,118.7752,32.0023,南京市,中华门,,34,34,34,22,16,69,,,,23,18,9,7,0.4,0.3
2025-04-01T0400,1155A,118.8109,32.0309,南京市,瑞金路,,46,46,38,19,15,73,,,,15,14,6,6,0.7,0.7
2025-04-01T0400,1156A,118.7997,32.0754,南京市,玄武湖,,40,40,34,17,11,76,,,,15,11,5,4,0.5,0.6
2025-04-01T0400,1157A,118.6414,32.0931,南京市,浦口,,50,50,41,19,15,83,,,,26,24,8,7,0.1,0.1
2025-04-01T0400,1158A,118.7356,31.9996,南京市,奥体中心,,42,42,39,19,16,82,,,,22,19,7,7,0.3,0.3
2025-04-01T0400,1159A,118.9125,32.1028,南京市,仙林大学城,,48,48,39,29,21,76,,,,17,14,10,9,0.6,0.6
2025-04-01T0400,3422A,118.8436,31.9198,南京市,江宁彩虹桥,,48,48,40,19,16,73,,,,14,12,5,4,0.4,0.4
2025-04-01T0400,3427A,118.8554,32.3578,南京市,六合雄州,颗粒物(PM10),51,52,33,23,20,57,,,,28,19,6,5,0.3,0.2
2025-04-01T0400,4249A,118.8708,31.3402,南京市,汶溪路181号,颗粒物(PM10),51,51,40,28,29,77,,,,20,19,6,5,0.6,0.5
2025-04-01T0400,4312A,119.019,31.6512,南京市,中山西路1号,,43,34,31,30,19,68,,,,4,4,6,6,0.4,0.4
2025-04-01T0400,1401A,108.3103,22.7881,南宁市,二十一中,,43,38,25,30,17,24,,,,34,16,7,7,0.7,0.6
2025-04-01T0400,1402A,108.3141,22.8528,南宁市,北湖,,46,34,24,32,19,24,,,,38,17,15,11,0.7,0.6
2025-04-01T0400,1403A,108.3206,22.8225,南宁市,市监测站,,40,40,26,20,13,38,,,,25,18,19,10,0.7,0.6
2025-04-01T0400,1404A,108.3829,22.8037,南宁市,大自然花园,,31,31,24,19,13,45,,,,12,10,8,6,0.7,0.6
2025-04-01T0400,1405A,108.4394,22.7904,南宁市,仙葫,,38,34,22,26,14,33,,,,25,10,9,7,0.6,0.5
2025-04-01T0400,1406A,108.2397,22.8467,南宁市,区农职院,,35,28,26,24,14,34,,,,16,13,11,5,0.6,0.6
2025-04-01T0400,1407A,108.3275,22.735,南宁市,英华嘉园,,40,40,23,25,14,22,,,,32,12,10,8,0.6,0.5
2025-04-01T0400,3401A,108.4834,22.7618,南宁市,红星社区,,33,29,21,23,16,69,,,,8,7,14,10,0.6,0.5
2025-04-01T0400,4221A,108.2177,22.7774,南宁市,乐贤路16号,,38,38,30,19,14,29,,,,21,16,20,12,0.7,0.6
2025-04-01T0400,2331A,118.0966,26.6761,南平市,茫荡山,,,,,,,,,,,,,,,,
2025-04-01T0400,2332A,118.1681,26.6369,南平市,南平市监测站,,12,9,10,8,8,29,,,,10,12,4,4,0.5,0.5
2025-04-01T0400,2333A,118.1825,26.6489,南平市,南平铝业有限公司,,10,,10,7,8,31,,,,7,9,4,4,0.7,0.7
2025-04-01T0400,2334A,118.1756,26.6272,南平市,南平七中,,12,10,9,8,9,30,,,,7,9,3,5,0.6,0.7
2025-04-01T0400,1168A,120.9098,31.9663,南通市,狼山街道,,30,30,38,14,16,91,,,,15,21,6,7,0.3,0.2
2025-04-01T0400,1169A,120.86,32.0005,南通市,虹桥,,33,32,40,23,18,100,,,,19,28,6,7,0.7,0.7
2025-04-01T0400,1170A,120.87,32.02,南通市,城中,,40,40,42,19,16,107,,,,19,26,7,8,0.5,0.5
2025-04-01T0400,1171A,120.94,31.93,南通市,星湖花园,,32,32,35,22,18,97,,,,17,22,6,7,0.4,0.4
2025-04-01T0400,1172A,120.81,32.0417,南通市,紫琅学院,,38,38,36,17,14,75,,,,31,27,4,4,0.2,0.3
2025-04-01T0400,3291A,121.067,32.062,南通市,通州监测站,,44,44,38,27,18,99,,,,15,16,5,5,0.5,0.5
2025-04-01T0400,3432A,120.9348,31.9883,南通市,环境教育馆,,38,36,36,26,17,55,,,,34,19,5,6,0.3,0.3
2025-04-01T0400,2404A,112.5224,33.0122,南阳市,瓦房庄,颗粒物(PM10),67,84,95,41,44,59,,,,14,16,5,6,0.4,0.4
2025-04-01T0400,2405A,112.5003,32.9735,南阳市,汉画馆,颗粒物(PM10),63,75,85,38,40,58,,,,19,24,5,5,0.4,0.4
2025-04-01T0400,2406A,112.5573,33.027,南阳市,气象站,颗粒物(PM10),70,89,99,36,39,66,,,,13,18,7,7,0.2,0.3
2025-04-01T0400,2407A,112.5481,32.9689,南阳市,理工学院,颗粒物(PM10),64,77,89,37,37,60,,,,20,20,5,4,0.4,0.4
2025-04-01T0400,4008A,112.5234,32.9922,南阳市,卧龙区政府,颗粒物(PM10),70,90,101,42,43,58,,,,18,16,5,5,0.6,0.5
2025-04-01T0400,1234A,121.8358,29.911,宁波市,区环保大楼,,49,49,43,23,15,77,,,,27,27,7,8,0.4,0.4
2025-04-01T0400,1235A,121.56,29.82,宁波市,万里学院,,45,45,42,20,17,85,,,,18,26,7,7,0.4,0.5
2025-04-01T0400,1236A,121.713,29.9572,宁波市,龙赛医院,,42,42,39,15,13,101,,,,12,17,7,8,0.4,0.5
2025-04-01T0400,1239A,121.633,29.7733,宁波市,钱湖水厂,颗粒物(PM10),53,55,35,30,15,43,,,,26,18,6,6,0.5,0.5
2025-04-01T0400,1240A,121.5856,29.8635,宁波市,太古小学,,42,42,41,17,16,93,,,,16,25,9,9,0.4,0.4
2025-04-01T0400,1241A,121.524,29.8674,宁波市,市环境监测中心,颗粒物(PM10),51,52,38,26,16,45,,,,36,29,8,8,0.6,0.6
2025-04-01T0400,2871A,121.6147,29.9017,宁波市,万里国际学校,,38,38,33,22,13,56,,,,44,22,7,8,0.5,0.4
2025-04-01T0400,3710A,121.5594,29.8975,宁波市,白沙活动中心,,40,40,33,23,15,57,,,,25,23,6,7,0.3,0.3
2025-04-01T0400,2339A,119.5001,26.6946,宁德市,金涵水库,,,,,,,,,,,,,,,,
2025-04-01T0400,2341A,119.5388,26.6612,宁德市,宁德市监测站,,16,,11,9,8,50,,,,8,18,4,4,0.3,0.4
2025-04-01T0400,3209A,119.5231,26.6562,宁德市,宁德一中,,18,,7,7,9,55,,,,3,8,5,5,0.2,0.3
2025-04-01T0400,2618A,98.8601,25.8567,怒江傈僳族自治州,州监测站,细颗粒物(PM2.5),87,89,83,64,57,100,,,,7,8,6,7,0.6,0.6
2025-04-01T0400,2619A,98.8546,25.8417,怒江傈僳族自治州,泸水一中,细颗粒物(PM2.5),85,70,77,63,63,78,,,,12,15,8,7,0.8,0.8
2025-04-01T0400,1888A,101.6891,26.571,攀枝花市,弄弄坪,,49,49,89,26,56,77,,,,10,26,9,34,0.6,1.5
2025-04-01T0400,1889A,101.5769,26.5928,攀枝花市,河门口,颗粒物(PM10),55,59,83,22,51,76,,,,14,19,13,11,1.1,0.8
2025-04-01T0400,1890A,101.7169,26.585,攀枝花市,炳草岗,颗粒物(PM10),52,54,84,28,44,79,,,,8,27,11,15,0.8,1
2025-04-01T0400,1891A,101.7369,26.5008,攀枝花市,仁和,,45,42,66,31,46,81,,,,10,17,10,9,0.6,0.7
2025-04-01T0400,2835A,101.7227,26.567,攀枝花市,四十中小,颗粒物(PM10),62,74,83,25,45,81,,,,7,21,10,13,0.5,0.6
2025-04-01T0400,1604A,122.0303,41.1489,盘锦市,开发区,细颗粒物(PM2.5),80,,59,59,53,100,,,,16,19,6,7,0.6,0.7
2025-04-01T0400,1605A,122.0485,41.0883,盘锦市,兴隆台,细颗粒物(PM2.5),89,66,66,66,54,92,,,,18,23,5,6,0.7,0.7
2025-04-01T0400,1606A,121.8297,41.1028,盘锦市,新生街道,细颗粒物(PM2.5),85,,50,63,56,92,,,,20,22,7,8,0.7,0.8
2025-04-01T0400,1832A,113.3257,33.742,平顶山市,新华旅馆,颗粒物(PM10),79,107,95,38,35,70,,,,21,18,5,5,0.4,0.5
2025-04-01T0400,1833A,113.2919,33.737,平顶山市,规划设计院,颗粒物(PM10),71,91,92,40,39,34,,,,35,17,4,6,0.5,0.4
2025-04-01T0400,1834A,113.182,33.774,平顶山市,平顶山工学院,颗粒物(PM10),65,80,78,31,30,91,,,,10,13,1,1,0.3,0.3
2025-04-01T0400,3204A,113.3025,33.73,平顶山市,规划局,颗粒物(PM10),69,88,90,40,38,64,,,,24,17,4,5,0.6,0.6
2025-04-01T0400,3594A,112.8867,33.9116,平顶山市,石龙区,颗粒物(PM10),96,141,117,37,39,5,,,,86,35,4,6,0.3,0.3
2025-04-01T0400,2656A,106.6692,35.5461,平凉市,聚贤嘉苑,颗粒物(PM10),57,64,95,27,30,63,,,,18,26,7,8,0.3,0.4
2025-04-01T0400,2657A,106.7021,35.5307,平凉市,博物馆,颗粒物(PM10),58,66,94,23,28,58,,,,20,22,16,16,0.5,0.6
2025-04-01T0400,2347A,114.0997,27.5002,萍乡市,武功山,,24,24,37,13,24,29,,,,7,7,5,5,0.7,0.7
2025-04-01T0400,2348A,113.8385,27.6434,萍乡市,中医院,细颗粒物(PM2.5),59,62,69,42,36,47,,,,11,15,10,11,0.7,0.7
2025-04-01T0400,2349A,113.8493,27.6253,萍乡市,市政府车库,细颗粒物(PM2.5),54,54,61,38,38,36,,,,17,17,7,8,0.6,0.5
2025-04-01T0400,2350A,113.8676,27.6435,萍乡市,市环保局,细颗粒物(PM2.5),60,61,67,43,38,44,,,,12,13,7,7,0.6,0.6
2025-04-01T0400,2351A,113.866,27.6198,萍乡市,安源区政府,颗粒物(PM10),55,59,67,33,36,30,,,,18,15,1,4,0.6,0.6
2025-04-01T0400,2319A,119.0141,25.4325,莆田市,荔城区仓后路,,23,6,11,3,0,73,,,,6,11,2,2,0.5,0.5
2025-04-01T0400,2320A,119.0015,25.4553,莆田市,莆田市监测站,,25,9,7,3,0,77,,,,5,6,3,3,0.4,0.4
2025-04-01T0400,2321A,119.1119,25.4561,莆田市,涵江区六中,,24,6,7,3,2,76,,,,8,14,2,2,0.6,0.5
2025-04-01T0400,2322A,119.1013,25.3215,莆田市,秀屿区政府,,23,8,6,3,2,73,,,,10,14,3,3,0.6,0.5
2025-04-01T0400,2323A,118.981,25.4792,莆田市,东圳水库,,,,,,,,,,,,,,,,
2025-04-01T0400,2392A,115.0312,35.7636,濮阳市,环保局,颗粒物(PM10),60,70,83,36,36,88,,,,13,15,4,5,0.9,0.9
2025-04-01T0400,2394A,115.0574,35.7609,濮阳市,油田运输公司,颗粒物(PM10),64,78,91,32,36,88,,,,13,15,4,5,0.5,0.5
2025-04-01T0400,3021A,115,35.7668,濮阳市,濮水河管理处,颗粒物(PM10),62,73,95,33,35,76,,,,20,20,3,6,0.5,0.6
2025-04-01T0400,4216A,115.0924,35.7686,濮阳市,任丘路479号,颗粒物(PM10),66,81,98,35,38,88,,,,11,15,4,5,0.8,0.7
2025-04-01T0400,2601A,100.98,22.7633,普洱市,市环保局,颗粒物(PM10),69,87,115,9,57,61,,,,7,12,4,5,1.1,1.1
2025-04-01T0400,2602A,100.9817,22.8322,普洱市,普洱第二中学,颗粒物(PM10),75,99,93,53,61,42,,,,27,25,6,7,0.9,0.9
2025-04-01T0400,2262A,131.0518,45.8751,七台河市,新一中,颗粒物(PM10),52,53,39,31,23,58,,,,12,11,11,12,0.9,0.8
2025-04-01T0400,3345A,131.0577,45.7879,七台河市,中波台,,45,41,43,31,26,74,,,,15,15,7,6,0.6,0.6
2025-04-01T0400,3637A,131.0176,45.7761,七台河市,人民广场,细颗粒物(PM2.5),53,43,48,37,33,89,,,,8,13,8,7,0.8,0.7
2025-04-01T0400,3684A,130.8781,45.8222,七台河市,新建矿广场,颗粒物(PM10),70,90,58,50,33,18,,,,54,20,16,9,1.0,0.7
2025-04-01T0400,1779A,123.9305,47.3636,齐齐哈尔市,安居小区,细颗粒物(PM2.5),70,63,52,51,29,41,,,,19,22,6,4,0.5,0.5
2025-04-01T0400,1780A,123.9488,47.3386,齐齐哈尔市,中心广场,颗粒物(PM10),59,68,55,36,28,28,,,,24,21,6,7,0.5,0.5
2025-04-01T0400,1781A,123.9483,47.3227,齐齐哈尔市,农牧车辆厂,颗粒物(PM10),52,53,46,24,22,27,,,,22,16,5,6,0.4,0.4
2025-04-01T0400,1783A,123.945,47.2988,齐齐哈尔市,市环境监测站,,47,47,45,31,28,37,,,,14,14,4,4,0.5,0.5
2025-04-01T0400,3662A,123.6333,47.2075,齐齐哈尔市,富区青少年活动中心,细颗粒物(PM2.5),64,74,77,46,37,26,,,,15,19,6,11,0.6,0.7
2025-04-01T0400,2591A,107.9783,26.5747,黔东南苗族侗族自治州,市环境监测站,,29,29,27,18,17,56,,,,16,10,4,4,0.3,0.3
2025-04-01T0400,2881A,107.8908,26.5311,黔东南苗族侗族自治州,凯里学院,,27,27,28,18,16,63,,,,2,3,2,2,0.3,0.4
2025-04-01T0400,2593A,107.5228,26.2403,黔南布依族苗族自治州,小围寨,,25,19,27,17,15,56,,,,10,8,3,6,0.3,0.3
2025-04-01T0400,3538A,107.5175,26.2978,黔南布依族苗族自治州,沙坝,,28,27,33,19,17,54,,,,10,10,6,8,0.5,0.5
2025-04-01T0400,2589A,104.9022,25.0925,黔西南布依族苗族自治州,场坝街,,31,31,34,21,20,51,,,,9,11,3,7,0.2,0.2
2025-04-01T0400,2590A,104.8811,25.0992,黔西南布依族苗族自治州,坪东大道,,35,34,29,24,22,45,,,,13,13,3,4,0.3,0.3
2025-04-01T0400,2502A,108.6236,21.9667,钦州市,市环保站,,36,36,33,22,14,36,,,,21,15,14,8,0.7,0.6
2025-04-01T0400,2503A,108.6549,21.9481,钦州市,沙埠小学,,48,42,30,33,20,34,,,,22,16,7,6,0.5,0.4
2025-04-01T0400,2504A,108.5989,21.7431,钦州市,港区一小,,48,48,33,26,16,32,,,,25,18,10,9,0.7,0.6
2025-04-01T0400,3404A,108.5959,21.9633,钦州市,北职校,,45,36,28,31,19,41,,,,14,11,10,8,0.6,0.6
2025-04-01T0400,1043A,119.7493,40.0116,秦皇岛市,第一关,颗粒物(PM10),88,126,122,58,56,30,,,,53,39,7,9,0.6,0.6
2025-04-01T0400,1044A,119.5897,39.9499,秦皇岛市,监测站,颗粒物(PM10),72,93,103,47,46,69,,,,30,32,14,10,0.8,0.7
2025-04-01T0400,1046A,119.5251,39.9041,秦皇岛市,建设大厦,颗粒物(PM10),81,111,111,53,48,70,,,,34,34,14,12,0.7,0.7
2025-04-01T0400,3132A,119.610547,39.943889,秦皇岛市,文明里,颗粒物(PM10),88,125,111,45,40,63,,,,27,34,10,10,0.7,0.6
2025-04-01T0400,4198A,119.5090,39.8253,秦皇岛市,北戴河轮滑馆,颗粒物(PM10),79,107,101,52,41,61,,,,28,25,8,10,0.5,0.6
2025-04-01T0400,1307A,120.6659,36.2403,青岛市,仰口,颗粒物(PM10),52,53,73,30,39,122,,,,11,12,5,6,0.6,0.6
2025-04-01T0400,1310A,120.4134,36.0658,青岛市,市南区东部子站,颗粒物(PM10),53,56,85,29,41,76,,,,18,24,7,8,0.5,0.6
2025-04-01T0400,1311A,120.3664,36.1032,青岛市,四方区子站,颗粒物(PM10),54,58,81,34,46,73,,,,23,27,7,8,0.6,0.7
2025-04-01T0400,1312A,120.2994,36.054,青岛市,市南区西部子站,颗粒物(PM10),58,66,86,22,38,52,,,,36,38,7,9,0.7,0.8
2025-04-01T0400,1313A,120.4581,36.0858,青岛市,崂山区子站,颗粒物(PM10),53,56,81,22,37,81,,,,16,23,7,9,0.6,0.7
2025-04-01T0400,1315A,120.3999,36.3083,青岛市,城阳区子站,颗粒物(PM10),52,53,84,29,36,79,,,,22,29,9,10,0.6,0.6
2025-04-01T0400,1966A,120.0405,35.8735,青岛市,黄岛区4号,,48,48,76,31,36,75,,,,29,28,12,11,0.9,0.8
2025-04-01T0400,3362A,120.5014,36.4034,青岛市,即墨2号,颗粒物(PM10),54,58,97,30,44,87,,,,21,25,11,10,0.7,0.7
2025-04-01T0400,3642A,120.3503,36.0736,青岛市,市北区南部,颗粒物(PM10),59,67,85,34,41,55,,,,18,21,6,8,0.8,0.8
2025-04-01T0400,3643A,120.3948,36.1805,青岛市,李沧区北部,颗粒物(PM10),53,56,82,34,43,75,,,,25,35,7,9,0.6,0.7
2025-04-01T0400,4290A,120.1969,35.9546,青岛市,珠江路669号,细颗粒物(PM2.5),55,58,82,39,48,68,,,,24,25,7,9,0.8,0.9
2025-04-01T0400,1702A,113.0426,23.691,清远市,环保大楼,,21,21,8,13,5,40,,,,3,7,11,11,0.6,0.7
2025-04-01T0400,1703A,113.0208,23.7106,清远市,凤城街办,,18,18,9,11,5,36,,,,9,12,5,6,0.4,0.4
2025-04-01T0400,3025A,113.0477,23.6344,清远市,技师学院,,28,28,15,17,9,27,,,,14,15,7,6,0.4,0.5
2025-04-01T0400,3318A,112.9903,23.7403,清远市,清新太和,,18,18,9,11,5,40,,,,11,16,7,6,0.5,0.5
2025-04-01T0400,3455A,113.076,23.7198,清远市,清城东城,,22,19,9,15,6,35,,,,9,12,6,7,0.7,0.6
2025-04-01T0400,2661A,107.6325,35.7357,庆阳市,庆阳五中,,48,48,65,10,18,89,,,,3,10,2,3,0.1,0.2
2025-04-01T0400,2662A,107.6364,35.7067,庆阳市,市环保局,颗粒物(PM10),54,58,65,12,16,88,,,,4,10,2,4,0.3,0.3
2025-04-01T0400,1916A,103.7897,25.5035,曲靖市,环境监测站,,19,19,25,11,14,53,,,,9,17,4,4,0.4,0.5
2025-04-01T0400,1917A,103.8,25.5364,曲靖市,烟厂办公区,,21,21,23,3,12,54,,,,7,15,3,4,0.5,0.6
2025-04-01T0400,3376A,103.7947,25.462,曲靖市,南苑二区,,24,24,24,8,16,45,,,,13,17,7,7,0.6,0.6
2025-04-01T0400,3377A,103.7444,25.5261,曲靖市,曲靖师范学院,,35,28,25,24,16,50,,,,11,16,6,6,0.5,0.5
2025-04-01T0400,1264A,118.8692,28.9398,衢州市,环保大楼,,38,38,42,21,26,17,,,,38,25,3,3,0.3,0.3
2025-04-01T0400,1265A,118.8709,28.9666,衢州市,实验学校,,43,43,41,20,27,9,,,,48,25,3,5,0.4,0.4
2025-04-01T0400,1266A,118.8621,28.9808,衢州市,衢州学院,,37,37,43,20,24,11,,,,41,29,4,4,0.2,0.4
2025-04-01T0400,1611A,118.5819,24.9117,泉州市,涂山街,,17,,7,3,6,54,,,,5,9,2,2,0.4,0.5
2025-04-01T0400,1612A,118.5972,24.8978,泉州市,津头埔,,17,,7,3,6,53,,,,7,14,2,2,0.6,0.7
2025-04-01T0400,1613A,118.6663,24.9424,泉州市,万安,,16,6,9,3,6,51,,,,5,12,2,2,0.4,0.5
2025-04-01T0400,1614A,118.6117,24.9604,泉州市,清源山,,,,,,,,,,,,,,,,
2025-04-01T0400,3529A,118.6333,24.9264,泉州市,城华南路,,18,6,7,3,4,56,,,,1,6,2,2,0.4,0.4
2025-04-01T0400,2626A,88.8876,29.2718,日喀则市,日喀则监测站,,,22,21,12,8,123,,,,2,2,,,0.4,0.4
2025-04-01T0400,3726A,88.8781,29.2426,日喀则市,林业技术推广中心,,38,21,32,13,9,121,,,,2,2,5,5,0.3,0.3
2025-04-01T0400,1659A,119.471,35.4209,日照市,监测站,细颗粒物(PM2.5),62,66,86,44,40,44,,,,52,35,8,10,0.8,0.8
2025-04-01T0400,1660A,119.523,35.4216,日照市,市政府广场,颗粒物(PM10),51,51,85,34,33,55,,,,39,35,12,11,1.1,1
2025-04-01T0400,1661A,119.5587,35.4044,日照市,港务局,颗粒物(PM10),57,63,99,38,47,54,,,,48,40,12,10,1.0,0.8
2025-04-01T0400,3507A,119.5328,35.4625,日照市,职业技术学院,颗粒物(PM10),57,63,88,31,37,63,,,,33,29,10,11,0.8,0.9
2025-04-01T0400,3604A,119.3266,35.1044,日照市,岚山环保分局,颗粒物(PM10),51,51,77,35,44,68,,,,32,29,8,7,0.6,0.6
2025-04-01T0400,1835A,111.1922,34.7752,三门峡市,市政府,颗粒物(PM10),59,68,69,37,33,30,,,,55,46,8,7,0.5,0.5
2025-04-01T0400,1836A,111.1587,34.7942,三门峡市,开发区,颗粒物(PM10),74,98,77,40,35,45,,,,28,28,1,5,0.6,0.6
2025-04-01T0400,1838A,111.143,34.7955,三门峡市,风景区,颗粒物(PM10),60,70,68,32,30,47,,,,25,27,10,14,0.4,0.4
2025-04-01T0400,3039A,111.1911,34.7829,三门峡市,三门峡市第一小学,颗粒物(PM10),62,74,77,35,48,42,,,,43,32,8,8,0.5,0.6
2025-04-01T0400,3598A,111.1,34.7167,三门峡市,富达温泉假日酒店,细颗粒物(PM2.5),74,93,80,54,44,28,,,,39,39,18,12,0.9,0.7
2025-04-01T0400,2324A,117.6211,26.2625,三明市,三钢,,18,,7,12,8,46,,,,5,9,3,3,0.5,0.5
2025-04-01T0400,2325A,117.635,26.2714,三明市,三明二中,,14,11,6,8,6,44,,,,5,8,2,2,0.4,0.5
2025-04-01T0400,2326A,117.6028,26.2378,三明市,三元区政府,,13,10,6,7,5,41,,,,7,10,4,4,0.3,0.4
2025-04-01T0400,2327A,117.7275,26.3108,三明市,洋溪,,,,,,,,,,,,,,,,
2025-04-01T0400,1876A,109.5078,18.2489,三亚市,河东子站,,14,8,12,7,4,43,,,,9,10,3,4,0.8,0.7
2025-04-01T0400,1877A,109.4964,18.2681,三亚市,河西子站,,13,12,11,6,3,41,,,,7,8,3,3,0.6,0.6
2025-04-01T0400,3540A,109.7348,18.3443,三亚市,君悦子站,,15,15,24,3,4,47,,,,6,8,3,4,0.5,0.5
2025-04-01T0400,2624A,91.7608,29.2313,山南市,山南监测站,,32,22,127,14,30,101,,,,3,3,6,6,0.4,0.3
2025-04-01T0400,2625A,91.7706,29.2436,山南市,山南人民医院,,33,28,172,18,39,103,,,,2,2,4,4,0.5,0.4
2025-04-01T0400,1674A,116.6794,23.3667,汕头市,金平子站,,13,11,11,6,9,14,,,,26,30,9,7,0.7,0.8
2025-04-01T0400,1675A,116.7244,23.3633,汕头市,龙湖子站,,8,6,9,3,7,21,,,,15,19,4,4,0.6,0.7
2025-04-01T0400,1676A,116.7258,23.2775,汕头市,濠江子站,,12,8,9,8,9,16,,,,18,17,4,3,0.7,0.8
2025-04-01T0400,1677A,116.7519,23.4714,汕头市,澄海子站,,,,7,4,5,27,,,,9,15,2,3,0.7,0.7
2025-04-01T0400,1678A,116.6092,23.2539,汕头市,潮阳子站,,11,11,10,3,5,16,,,,16,18,7,7,0.7,0.7
2025-04-01T0400,3444A,116.454,23.2684,汕头市,潮南峡山,,10,10,9,3,4,16,,,,13,16,7,7,0.6,0.6
2025-04-01T0400,3624A,116.4069,23.2533,汕头市,潮南子站,,15,14,16,10,10,18,,,,13,19,7,7,0.7,0.7
2025-04-01T0400,1693A,115.3653,22.775,汕尾市,市环保局,,11,6,5,3,4,34,,,,3,6,6,6,0.5,0.6
2025-04-01T0400,1694A,115.3706,22.7898,汕尾市,市政府,,10,6,4,3,2,31,,,,5,8,4,4,0.5,0.6
2025-04-01T0400,1695A,115.3622,22.7925,汕尾市,新城中学,,10,,4,3,3,32,,,,3,5,8,8,0.5,0.6
2025-04-01T0400,2645A,109.9154,33.8715,商洛市,监测站,颗粒物(PM10),59,67,82,27,32,52,,,,19,20,5,7,0.2,0.3
2025-04-01T0400,3045A,109.9643,33.8471,商洛市,商州区中学,颗粒物(PM10),55,60,90,29,32,39,,,,30,28,4,4,0.4,0.4
2025-04-01T0400,2408A,115.6702,34.4285,商丘市,环境监测站,颗粒物(PM10),71,92,95,47,45,99,,,,14,15,5,5,0.4,0.4
2025-04-01T0400,2409A,115.6458,34.4045,商丘市,粮食局,颗粒物(PM10),71,92,90,46,44,89,,,,12,12,5,4,0.2,0.3
2025-04-01T0400,2410A,115.6293,34.3948,商丘市,睢阳区环保局,颗粒物(PM10),73,96,92,47,45,82,,,,13,13,3,3,0.3,0.3
2025-04-01T0400,3171A,115.6071,34.4465,商丘市,梁园区档案局,颗粒物(PM10),72,94,92,49,43,81,,,,13,13,5,4,0.4,0.4
2025-04-01T0400,1141A,121.4,31.238,上海市,普陀,颗粒物(PM10),52,53,42,24,18,93,,,,21,19,6,6,0.5,0.5
2025-04-01T0400,1142A,121.478,31.2036,上海市,十五厂,颗粒物(PM10),51,51,44,25,19,85,,,,26,23,7,7,0.7,0.7
2025-04-01T0400,1143A,121.467,31.3008,上海市,虹口,,40,40,36,22,19,102,,,,24,24,9,10,0.5,0.5
2025-04-01T0400,1147A,121.425,31.2261,上海市,静安监测站,,47,47,41,24,17,92,,,,29,26,8,8,0.6,0.6
2025-04-01T0400,1148A,121.703,31.1907,上海市,浦东川沙,,50,50,43,23,18,84,,,,31,26,7,8,0.6,0.6
2025-04-01T0400,1149A,121.533,31.2284,上海市,浦东新区监测站,,45,45,37,28,16,88,,,,31,26,7,7,0.5,0.5
2025-04-01T0400,1150A,121.577,31.2071,上海市,浦东张江,,48,48,41,24,18,85,,,,26,24,6,6,0.4,0.4
2025-04-01T0400,3265A,121.4316,31.3322,上海市,宝山庙行,,42,42,38,24,18,88,,,,22,22,9,9,0.6,0.5
2025-04-01T0400,3266A,121.8791,31.4662,上海市,崇明上实东滩,,31,31,32,15,14,96,,,,10,10,4,4,0.3,0.3
2025-04-01T0400,3268A,121.3162,31.2838,上海市,嘉定南翔,,50,50,39,25,24,69,,,,30,27,7,7,0.6,0.5
2025-04-01T0400,3269A,121.3359,30.7456,上海市,金山新城,颗粒物(PM10),52,53,36,23,13,74,,,,26,16,6,6,0.5,0.5
2025-04-01T0400,3270A,121.4996,31.0739,上海市,闵行浦江,,,,39,,18,,,86,,,29,,5,,0.4
2025-04-01T0400,3271A,121.2886,31.1663,上海市,青浦徐泾,,46,46,41,24,18,76,,,,30,25,6,6,0.5,0.5
2025-04-01T0400,3272A,121.2186,31.0378,上海市,松江图书馆,,49,49,41,21,18,81,,,,27,27,7,7,0.7,0.6
