timepoint,stationcode,longitude,latitude,area,positionname,primarypollutant,aqi,pm10,pm10_24h,pm2_5,pm2_5_24h,o3,o3_24h,o3_8h,o3_8h_24h,no2,no2_24h,so2,so2_24h,co,co_24h
2025-03-22T2300,2566A,102.1879,31.914,阿坝藏族羌族自治州,州农科所,,36,36,21,16,8,67,,63,56,8,12,10,10,0.2,0.2
2025-03-22T2300,2568A,102.2502,31.8896,阿坝藏族羌族自治州,马师校,,26,23,13,18,13,57,,73,62,11,13,5,5,0.5,0.5
2025-03-22T2300,2695A,80.292,41.1694,阿克苏地区,电视台,颗粒物(PM10),144,237,295,67,81,95,,134,125,33,35,9,8,0.7,0.8
2025-03-22T2300,2696A,80.2613,41.1551,阿克苏地区,艺术中心,颗粒物(PM10),157,264,304,82,84,78,,125,116,47,39,7,7,0.9,1.1
2025-03-22T2300,2204A,105.6467,38.8363,阿拉善盟,西城区西花园,颗粒物(PM10),165,280,144,77,37,101,,117,114,8,10,10,10,0.7,0.7
2025-03-22T2300,2205A,105.6985,38.8411,阿拉善盟,蒙二幼,颗粒物(PM10),154,258,131,91,39,96,,110,107,10,9,6,6,0.5,0.5
2025-03-22T2300,2206A,105.724,38.8516,阿拉善盟,环保局新楼,颗粒物(PM10),185,320,129,90,41,105,,112,111,6,4,8,8,0.8,0.7
2025-03-22T2300,2708A,88.1264,47.8517,阿勒泰地区,市站,,35,35,30,17,9,79,,108,92,8,7,2,3,0.5,0.4
2025-03-22T2300,2630A,80.1161,32.5,阿里地区,阿里监测站,,,6,17,3,7,,,102,102,4,4,6,8,0.4,0.5
2025-03-22T2300,2642A,109.0318,32.6537,安康市,香溪洞,,41,41,47,26,27,88,,112,108,12,11,9,11,0.1,0.2
2025-03-22T2300,2644A,109.0072,32.6975,安康市,汉滨区检察院,颗粒物(PM10),58,65,52,27,26,36,,106,84,43,20,9,11,0.6,0.4
2025-03-22T2300,4054A,109.0325,32.6913,安康市,市邮政管理局,颗粒物(PM10),64,78,59,38,29,20,,106,76,49,21,8,14,1.1,0.5
2025-03-22T2300,2291A,117.0809,30.5177,安庆市,环科院,颗粒物(PM10),60,69,51,39,29,88,,143,121,40,44,12,10,0.6,0.4
2025-03-22T2300,2292A,117.0331,30.5119,安庆市,马山宾馆,颗粒物(PM10),63,76,52,44,30,101,,133,115,22,43,13,7,0.7,0.5
2025-03-22T2300,2294A,116.9896,30.6145,安庆市,安庆大学,颗粒物(PM10),60,70,55,33,28,128,,155,143,22,26,19,11,0.5,0.4
2025-03-22T2300,3173A,117.0598,30.5351,安庆市,市人大,颗粒物(PM10),61,72,49,36,27,108,,150,130,24,27,28,11,0.9,0.5
2025-03-22T2300,3123A,105.9408,26.2431,安顺市,凤凰山,细颗粒物(PM2.5),89,74,56,66,48,94,,138,116,28,19,32,25,0.8,0.6
2025-03-22T2300,3124A,105.9439,26.2564,安顺市,金钟山,细颗粒物(PM2.5),84,72,55,62,46,111,,138,126,16,12,22,21,0.6,0.6
2025-03-22T2300,3125A,105.8983,26.2481,安顺市,娄家坡,细颗粒物(PM2.5),87,77,60,64,49,97,,138,121,26,14,28,20,0.8,0.7
2025-03-22T2300,1819A,114.3551,36.1017,安阳市,红庙街,颗粒物(PM10),83,115,81,34,25,51,,115,89,34,15,6,6,0.8,0.6
2025-03-22T2300,1820A,114.361,36.0681,安阳市,银杏小区,颗粒物(PM10),74,98,77,33,27,67,,124,100,29,18,5,5,0.5,0.4
2025-03-22T2300,3141A,114.3922,36.0878,安阳市,信访局,颗粒物(PM10),73,95,80,43,27,65,,127,103,34,22,8,8,0.7,0.5
2025-03-22T2300,3669A,114.4705,36.0637,安阳市,左辅环卫站,颗粒物(PM10),89,128,89,44,28,39,,132,99,64,20,8,8,0.4,0.5
2025-03-22T2300,3703A,114.2917,36.0949,安阳市,安钢职工学校,颗粒物(PM10),77,104,89,33,33,65,,117,97,26,18,4,5,0.7,0.6
2025-03-22T2300,1748A,123.044,41.1196,鞍山市,深沟寺,颗粒物(PM10),78,106,84,56,38,80,,116,101,26,31,18,27,1.0,1.3
2025-03-22T2300,1749A,123.011,41.0931,鞍山市,太阳城,颗粒物(PM10),82,113,80,59,39,71,,120,104,28,28,18,23,1.5,1.3
2025-03-22T2300,1750A,123.0485,41.1442,鞍山市,太平,颗粒物(PM10),84,118,102,58,46,67,,109,70,33,43,17,26,1.1,1.4
2025-03-22T2300,1751A,122.9642,41.0971,鞍山市,铁西三道街,细颗粒物(PM2.5),166,218,100,126,53,15,,118,71,87,44,24,21,2.0,1.2
2025-03-22T2300,1753A,123.022,41.0821,鞍山市,明达新区,细颗粒物(PM2.5),108,144,88,81,46,58,,117,93,35,27,17,22,1.3,1.1
2025-03-22T2300,4201A,122.9446,41.0826,鞍山市,兴盛南路290号,细颗粒物(PM2.5),123,194,112,93,53,27,,118,78,85,45,23,25,1.5,1.1
2025-03-22T2300,2195A,107.4212,40.761,巴彦淖尔市,附二中,颗粒物(PM10),176,301,166,67,36,83,,102,93,10,8,5,5,0.4,0.3
2025-03-22T2300,2196A,107.37,40.7372,巴彦淖尔市,市环保大楼,颗粒物(PM10),156,262,151,71,38,85,,108,95,8,7,4,4,0.3,0.3
2025-03-22T2300,1956A,86.1472,41.7538,巴音郭楞蒙古自治州,孔雀公园,颗粒物(PM10),500,1537,604,228,100,80,,104,98,11,41,4,7,0.3,0.6
2025-03-22T2300,1957A,86.1972,41.7166,巴音郭楞蒙古自治州,棉纺厂,颗粒物(PM10),500,1703,756,219,120,90,,100,98,14,18,2,3,0.4,0.3
2025-03-22T2300,1958A,86.2357,41.7173,巴音郭楞蒙古自治州,经济开发区,颗粒物(PM10),500,1372,701,194,100,92,,101,100,11,18,4,5,0.3,0.2
2025-03-22T2300,2914A,106.7677,31.8794,巴中市,苏山坪,,42,40,53,29,39,76,,84,64,12,22,4,5,0.3,0.4
2025-03-22T2300,3181A,106.7768,31.8526,巴中市,市五中,细颗粒物(PM2.5),125,134,70,95,47,5,,48,24,42,38,5,5,0.9,0.7
2025-03-22T2300,3183A,106.7418,31.8654,巴中市,圣泉水务公司,细颗粒物(PM2.5),57,57,54,40,37,14,,46,24,43,39,7,7,0.5,0.5
2025-03-22T2300,3616A,106.7616,31.8344,巴中市,市中心医院,细颗粒物(PM2.5),80,74,60,59,48,4,,57,26,47,39,6,7,0.7,0.6
2025-03-22T2300,2235A,122.7911,45.6077,白城市,洮北区环保局,,36,33,61,25,44,67,,89,78,16,18,11,6,0.5,0.6
2025-03-22T2300,2236A,122.8738,45.5725,白城市,市环保局,,39,36,52,27,30,40,,93,76,33,16,6,2,0.6,0.6
2025-03-22T2300,2231A,126.4219,41.9171,白山市,喜丰,,,135,91,,27,106,,151,145,36,30,12,15,1.2,1.2
2025-03-22T2300,2232A,126.4077,41.9419,白山市,环保局,细颗粒物(PM2.5),118,154,84,89,47,72,,134,115,19,16,10,13,1.3,1.2
2025-03-22T2300,2647A,104.1724,36.5446,白银市,第三小学,颗粒物(PM10),74,98,90,32,31,95,,112,106,11,22,13,28,0.2,0.2
2025-03-22T2300,2648A,104.1465,36.5482,白银市,动力公司,颗粒物(PM10),71,91,80,35,31,105,,113,110,10,16,8,6,0.3,0.4
2025-03-22T2300,2512A,106.6103,23.9011,百色市,市监测站,细颗粒物(PM2.5),72,85,86,52,56,118,,184,172,26,22,25,19,1.1,0.9
2025-03-22T2300,2513A,106.6538,23.8859,百色市,市中心血站,细颗粒物(PM2.5),70,86,100,51,67,166,,184,179,17,24,24,23,0.8,0.9
2025-03-22T2300,3406A,106.6085,23.8798,百色市,祈福高中,颗粒物(PM10),75,99,107,52,52,108,,176,165,43,35,28,17,1.0,0.9
2025-03-22T2300,2270A,117.396,32.939,蚌埠市,工人疗养院,颗粒物(PM10),66,82,69,36,27,73,,137,115,46,26,7,6,0.6,0.5
2025-03-22T2300,2271A,117.3605,32.9427,蚌埠市,百货大楼,颗粒物(PM10),63,75,70,30,28,86,,130,113,38,28,8,7,0.3,0.3
2025-03-22T2300,2273A,117.4185,32.8911,蚌埠市,蚌埠学院,颗粒物(PM10),78,105,78,45,31,59,,140,111,46,30,6,5,0.4,0.4
2025-03-22T2300,2274A,117.3533,32.9673,蚌埠市,淮上区政府,颗粒物(PM10),60,70,71,25,32,94,,136,113,35,26,6,7,0.4,0.5
2025-03-22T2300,2275A,117.3145,32.8977,蚌埠市,高新区,细颗粒物(PM2.5),83,107,74,61,37,50,,136,98,55,31,6,6,0.4,0.4
2025-03-22T2300,3715A,117.3092,32.9314,蚌埠市,蚌埠田家炳中学,颗粒物(PM10),69,87,73,35,32,65,,142,116,54,33,10,14,0.3,0.3
2025-03-22T2300,1585A,109.8756,40.6532,包头市,市环境监测站,颗粒物(PM10),123,196,131,63,47,40,,112,80,63,57,64,24,4.0,1.5
2025-03-22T2300,1587A,109.9991,40.5842,包头市,包头八中,颗粒物(PM10),119,188,137,72,56,65,,111,88,26,48,6,28,0.4,1
2025-03-22T2300,1588A,109.8538,40.6821,包头市,青山宾馆,颗粒物(PM10),109,167,106,65,43,39,,106,82,49,37,16,12,1.0,0.9
2025-03-22T2300,1589A,109.8642,40.6288,包头市,惠龙物流,颗粒物(PM10),124,197,144,62,60,49,,116,89,46,48,28,33,1.3,1.4
2025-03-22T2300,1590A,110.0377,40.5546,包头市,东河鸿龙湾,颗粒物(PM10),108,165,125,49,41,64,,112,94,21,36,7,41,0.5,0.9
2025-03-22T2300,3283A,109.9154,40.5685,包头市,滨河大厦,颗粒物(PM10),102,154,107,58,39,78,,114,96,12,29,8,36,0.6,0.9
2025-03-22T2300,3419A,109.9447,40.6261,包头市,包头市委党校,颗粒物(PM10),118,186,114,64,45,57,,114,91,38,46,20,24,1.0,1.1
2025-03-22T2300,3683A,109.8331,40.6576,包头市,昆区政府,颗粒物(PM10),115,180,122,83,55,4,,104,70,96,54,77,30,4.9,1.9
2025-03-22T2300,1930A,107.185,34.3063,宝鸡市,庙沟村,颗粒物(PM10),58,65,47,37,29,89,,124,108,26,15,7,7,0.3,0.3
2025-03-22T2300,1931A,107.0708,34.3017,宝鸡市,竹园沟,颗粒物(PM10),56,62,55,33,26,64,,124,100,27,18,6,7,0.3,0.3
2025-03-22T2300,1932A,107.1906,34.3672,宝鸡市,三陆医院,细颗粒物(PM2.5),103,89,68,77,38,57,,113,93,34,26,8,6,0.7,0.6
2025-03-22T2300,1933A,107.1431,34.3547,宝鸡市,监测站,颗粒物(PM10),61,72,69,39,33,41,,114,90,41,27,7,8,0.6,0.6
2025-03-22T2300,1934A,107.1186,34.3739,宝鸡市,技工学校,细颗粒物(PM2.5),69,86,67,50,34,64,,115,99,28,20,10,7,0.6,0.5
2025-03-22T2300,1935A,107.3906,34.3528,宝鸡市,陈仓区环保局家属楼,细颗粒物(PM2.5),115,128,78,87,47,18,,111,73,59,26,8,30,0.9,0.7
2025-03-22T2300,1936A,107.2058,34.3497,宝鸡市,文理学院,细颗粒物(PM2.5),74,93,66,54,35,57,,121,97,37,21,7,6,0.5,0.5
2025-03-22T2300,1937A,107.2386,34.3622,宝鸡市,三迪小学,"颗粒物(PM10),细颗粒物(PM2.5)",75,100,68,55,38,31,,116,92,60,32,7,7,0.6,0.4
2025-03-22T2300,1051A,115.493,38.8632,保定市,游泳馆,颗粒物(PM10),63,75,61,28,19,48,,110,83,56,24,11,10,0.4,0.3
2025-03-22T2300,1052A,115.5213,38.8959,保定市,华电二区,颗粒物(PM10),51,52,45,24,18,88,,115,101,9,9,2,2,0.2,0.3
2025-03-22T2300,1053A,115.4713,38.9108,保定市,接待中心,颗粒物(PM10),52,54,52,22,21,89,,111,98,15,16,3,3,0.2,0.2
2025-03-22T2300,1054A,115.4612,38.8416,保定市,地表水厂,颗粒物(PM10),83,116,78,31,19,59,,112,90,38,21,6,5,0.4,0.3
2025-03-22T2300,3581A,115.31981,38.95208,保定市,满城区生态环境分局,,46,46,44,17,13,109,,116,106,6,7,3,3,0.2,0.2
2025-03-22T2300,3582A,115.47694,38.76408,保定市,清苑区第二中学,颗粒物(PM10),74,98,81,31,20,67,,108,81,25,17,11,10,0.3,0.3
2025-03-22T2300,3583A,115.62909,39.02311,保定市,徐水物探局,颗粒物(PM10),76,101,77,19,23,60,,119,95,33,26,13,12,0.1,0.1
2025-03-22T2300,4004A,115.4202,38.8656,保定市,双鹰农机,颗粒物(PM10),60,69,59,24,18,81,,111,93,20,22,4,5,0.2,0.2
2025-03-22T2300,4034A,115.5150,38.8590,保定市,植保所站,颗粒物(PM10),63,75,58,35,23,68,,110,95,21,10,3,3,0.4,0.3
2025-03-22T2300,2594A,99.1678,25.1081,保山市,市环境监测站,细颗粒物(PM2.5),59,42,47,42,44,85,,118,105,8,11,5,5,0.5,0.6
2025-03-22T2300,2595A,99.1711,25.1328,保山市,市环保局,,50,48,53,35,37,94,,120,111,5,8,4,4,0.6,0.7
2025-03-22T2300,1867A,109.1436,21.4086,北海市,海滩公园,,46,36,48,24,30,146,,172,160,13,16,6,8,0.5,0.6
2025-03-22T2300,1868A,109.0981,21.4661,北海市,新市环保局,细颗粒物(PM2.5),58,44,45,41,33,120,,149,136,28,24,4,5,0.7,0.6
2025-03-22T2300,1869A,109.1778,21.5233,北海市,北海工业园,,46,37,65,32,45,129,,157,148,15,26,8,12,0.5,0.6
2025-03-22T2300,3400A,109.1911,21.4415,北海市,龙潭自来水厂,,49,42,49,34,40,81,,157,126,18,24,6,7,0.5,0.5
2025-03-22T2300,1001A,116.3621,39.8784,北京市,万寿西宫,颗粒物(PM10),56,61,54,19,18,70,,107,87,35,20,2,2,0.1,0
2025-03-22T2300,1003A,116.4174,39.9289,北京市,东四,颗粒物(PM10),51,52,50,19,18,86,,107,96,20,12,4,5,0.4,0.4
2025-03-22T2300,1004A,116.4072,39.8863,北京市,天坛,,49,49,50,21,17,57,,102,77,21,16,3,2,0.5,0.4
2025-03-22T2300,1005A,116.462,39.9365,北京市,农展馆,,50,50,50,18,18,76,,99,82,16,10,6,6,0.5,0.4
2025-03-22T2300,1006A,116.3392,39.9295,北京市,官园,颗粒物(PM10),54,57,52,18,17,73,,96,89,24,13,7,8,0.4,0.4
2025-03-22T2300,1007A,116.2878,39.9611,北京市,海淀万柳,,49,49,48,15,15,78,,88,86,15,14,4,4,0.5,0.4
2025-03-22T2300,1008A,116.6636,40.135,北京市,顺义新城,颗粒物(PM10),58,65,60,21,19,54,,103,84,48,26,6,6,0.0,0
2025-03-22T2300,1009A,116.6275,40.3275,北京市,怀柔镇,,44,44,42,15,15,77,,91,84,3,4,3,3,0.4,0.4
2025-03-22T2300,1010A,116.2296,40.217,北京市,昌平镇,颗粒物(PM10),60,69,58,21,18,86,,101,86,20,17,2,2,0.5,0.5
2025-03-22T2300,1011A,116.3966,39.9821,北京市,奥体中心,,48,48,49,18,18,90,,100,85,19,23,3,3,0.1,0.2
2025-03-22T2300,3281A,115.9718,40.4529,北京市,延庆夏都,颗粒物(PM10),66,82,66,28,22,79,,100,93,16,10,7,7,0.5,0.4
2025-03-22T2300,3418A,116.8336,40.4095,北京市,密云新城,颗粒物(PM10),51,51,38,20,14,18,,90,63,40,14,3,3,0.5,0.4
2025-03-22T2300,3671A,116.088,39.9726,北京市,门头沟三家店,颗粒物(PM10),147,244,97,31,25,19,,78,59,74,29,5,5,0.4,0.8
2025-03-22T2300,3672A,116.1541,39.8204,北京市,丰台云岗,颗粒物(PM10),55,59,52,9,15,91,,112,98,14,7,5,4,0.3,0.3
2025-03-22T2300,3673A,116.6804,39.9081,北京市,通州东关,颗粒物(PM10),59,68,51,12,8,64,,104,85,36,20,4,4,0.7,0.6
2025-03-22T2300,3674A,115.9577,39.7603,北京市,房山燕山,,43,43,43,19,16,88,,96,91,3,4,5,5,0.2,0.2
2025-03-22T2300,3675A,116.4672,39.7733,北京市,大兴旧宫,颗粒物(PM10),58,65,51,23,17,49,,93,68,29,20,2,1,0.2,0.2
2025-03-22T2300,3694A,115.986,40.4563,北京市,延庆石河营,颗粒物(PM10),63,75,58,27,21,80,,100,92,16,13,6,6,0.4,0.3
2025-03-22T2300,3695A,116.6151,40.3053,北京市,怀柔新城,,47,47,39,15,13,80,,94,87,1,2,5,5,0.3,0.4
2025-03-22T2300,3696A,116.2545,39.8768,北京市,丰台小屯,颗粒物(PM10),66,81,60,37,25,35,,95,76,65,28,2,2,0.2,0.2
2025-03-22T2300,3697A,116.84,40.3844,北京市,密云镇,颗粒物(PM10),54,58,47,18,16,8,,92,49,48,31,5,5,0.4,0.3
2025-03-22T2300,4182A,116.1942,39.9158,北京市,八角北路9号,颗粒物(PM10),57,64,58,18,17,85,,113,102,18,13,11,6,0.3,0.3
2025-03-22T2300,4194A,117.0790,40.1518,北京市,洳河巡河路,颗粒物(PM10),60,69,44,33,19,35,,99,78,29,26,2,2,0.5,0.4
2025-03-22T2300,1761A,123.8275,41.3064,本溪市,大峪,颗粒物(PM10),72,93,85,49,48,36,,120,96,61,40,13,23,0.7,1.6
2025-03-22T2300,1762A,123.7567,41.3325,本溪市,溪湖,颗粒物(PM10),93,135,90,68,47,21,,124,,75,50,11,21,1.1,1.8
2025-03-22T2300,1763A,123.7169,41.3094,本溪市,彩屯,细颗粒物(PM2.5),95,120,110,71,61,46,,121,85,40,40,11,21,1.3,2
2025-03-22T2300,1764A,123.7669,41.2864,本溪市,东明,细颗粒物(PM2.5),83,96,113,61,52,9,,108,68,88,55,11,27,1.1,2
2025-03-22T2300,1765A,123.7992,41.2664,本溪市,新立屯,,37,37,71,20,44,42,,114,58,56,50,7,18,0.5,1.2
2025-03-22T2300,1766A,123.8142,41.3472,本溪市,威宁,颗粒物(PM10),94,138,106,62,47,25,,113,72,43,35,6,11,0.9,1.2
2025-03-22T2300,2587A,105.2864,27.3125,毕节市,八中,,33,31,46,23,32,94,,107,102,7,10,10,11,0.4,0.5
2025-03-22T2300,2588A,105.31,27.2944,毕节市,师专,,34,31,42,22,31,107,,118,115,8,11,8,9,0.5,0.6
2025-03-22T2300,4263A,105.3688,27.3598,毕节市,工业大道,,40,40,41,24,28,114,,118,115,8,12,9,11,0.4,0.5
2025-03-22T2300,1629A,118.0018,37.3617,滨州市,第二水厂,颗粒物(PM10),71,92,96,27,29,77,,106,96,24,27,9,11,1.2,1.1
2025-03-22T2300,1630A,117.9776,37.393,滨州市,北中新校,颗粒物(PM10),75,100,93,36,31,83,,112,103,27,27,32,29,0.7,0.6
2025-03-22T2300,3514A,117.9378,37.3956,滨州市,中海酒店,颗粒物(PM10),75,100,87,34,36,83,,113,102,27,28,13,14,0.4,0.5
2025-03-22T2300,3515A,117.9378,37.3553,滨州市,开发区一中,颗粒物(PM10),71,92,99,29,31,77,,108,96,30,34,11,13,0.3,0.3
2025-03-22T2300,3516A,118.0917,37.694,滨州市,金海六路,颗粒物(PM10),79,107,96,36,29,54,,106,83,35,29,6,8,0.6,0.7
2025-03-22T2300,4028A,117.9956,37.3753,滨州市,滨州市西街道办事处,颗粒物(PM10),68,85,90,29,35,95,,113,106,17,25,8,12,0.2,0.2
2025-03-22T2300,2311A,115.8072,33.8399,亳州市,污水处理厂,颗粒物(PM10),61,71,69,26,23,85,,126,109,24,19,5,5,0.2,0.2
2025-03-22T2300,2312A,115.7789,33.8518,亳州市,三国揽胜宫,颗粒物(PM10),66,82,75,31,25,87,,121,111,16,15,7,7,0.3,0.2
2025-03-22T2300,3332A,115.7633,33.8034,亳州市,亳州学院,颗粒物(PM10),64,77,65,27,26,83,,120,107,19,16,9,6,0.3,0.2
2025-03-22T2300,2693A,82.0485,44.8556,博尔塔拉蒙古自治州,市党校,颗粒物(PM10),69,87,54,19,22,115,,129,126,10,11,12,11,0.2,0.2
2025-03-22T2300,2694A,82.0806,44.8969,博尔塔拉蒙古自治州,市环保局,颗粒物(PM10),81,111,68,25,23,98,,115,112,16,26,5,5,0.4,0.7
2025-03-22T2300,1071A,116.8842,38.2991,沧州市,沧县城建局,颗粒物(PM10),68,86,72,31,24,72,,108,94,24,20,3,4,0.3,0.4
2025-03-22T2300,1072A,116.8584,38.3254,沧州市,电视转播站,颗粒物(PM10),51,51,64,19,23,77,,112,100,24,23,5,6,0.4,0.4
2025-03-22T2300,1073A,116.8709,38.3228,沧州市,市环保局,颗粒物(PM10),57,64,64,29,25,82,,107,98,19,20,9,9,0.3,0.4
2025-03-22T2300,3324A,116.8136,38.3004,沧州市,河北水利电力学院,颗粒物(PM10),62,73,81,36,27,63,,99,84,30,27,5,6,0.2,0.2
2025-03-22T2300,2622A,97.1806,31.1273,昌都市,昌都监测站,,19,14,9,8,9,59,,88,74,5,5,6,7,0.7,0.6
2025-03-22T2300,3719A,97.1714,31.1406,昌都市,昌都会议中心,,,14,12,12,9,87,,97,96,,,3,3,0.1,0.1
2025-03-22T2300,2690A,88.1236,43.8886,昌吉回族自治州,天山天池,,25,23,13,12,10,77,,94,88,5,4,6,6,0.5,0.4
2025-03-22T2300,2692A,87.2717,44.0297,昌吉回族自治州,新区政务中心,颗粒物(PM10),65,80,102,35,23,63,,102,91,21,25,11,9,0.7,0.7
2025-03-22T2300,3613A,87.3095,44.0142,昌吉回族自治州,亚心广场,颗粒物(PM10),73,95,144,34,29,62,,106,92,22,20,8,8,0.5,0.6
2025-03-22T2300,1119A,125.3325,43.9166,长春市,食品厂,细颗粒物(PM2.5),271,,125,221,122,60,,139,105,44,31,16,11,1.0,0.7
2025-03-22T2300,1120A,125.2863,43.9027,长春市,客车厂,细颗粒物(PM2.5),239,,117,189,124,66,,128,101,47,36,14,9,0.9,0.7
2025-03-22T2300,1121A,125.2841,43.8463,长春市,邮电学院,细颗粒物(PM2.5),178,151,114,134,97,79,,136,111,29,26,13,11,0.7,0.6
2025-03-22T2300,1122A,125.3716,43.8772,长春市,劳动公园,细颗粒物(PM2.5),196,149,116,147,105,62,,128,101,40,28,17,13,0.8,0.7
2025-03-22T2300,1123A,125.3297,43.8805,长春市,园林处,细颗粒物(PM2.5),211,,110,161,97,73,,130,106,37,27,18,11,0.8,0.6
2025-03-22T2300,1124A,125.4605,43.79,长春市,净月潭,细颗粒物(PM2.5),172,153,139,130,107,85,,125,106,20,20,12,9,0.7,0.7
2025-03-22T2300,1126A,125.3863,43.8447,长春市,经开区环卫处,细颗粒物(PM2.5),147,123,120,112,98,64,,121,93,38,33,9,9,0.7,0.7
2025-03-22T2300,1127A,125.245,43.7783,长春市,高新区管委会,细颗粒物(PM2.5),128,102,101,97,91,82,,124,106,22,33,11,10,0.6,0.6
2025-03-22T2300,1128A,125.1761,43.8325,长春市,岱山公园,细颗粒物(PM2.5),145,,132,111,119,68,,133,100,40,47,13,9,0.8,0.9
2025-03-22T2300,1335A,113.0833,28.2325,长沙市,经开区环保局,细颗粒物(PM2.5),72,81,71,52,35,47,,154,133,116,48,7,10,1.0,0.6
2025-03-22T2300,1336A,112.8872,28.2189,长沙市,高开区环保局,细颗粒物(PM2.5),79,102,96,58,48,53,,157,126,71,53,7,8,1.0,0.9
2025-03-22T2300,1337A,113.0792,28.2053,长沙市,马坡岭,细颗粒物(PM2.5),97,128,79,72,40,3,,155,101,112,45,19,8,1.1,0.5
2025-03-22T2300,1338A,112.9394,28.19,长沙市,湖南师范大学,细颗粒物(PM2.5),78,93,70,57,36,65,,150,124,41,36,8,8,1.3,0.9
2025-03-22T2300,1339A,113.0178,28.1322,长沙市,雨花区环保局,细颗粒物(PM2.5),88,109,76,65,37,11,,152,114,126,55,9,9,1.1,0.7
2025-03-22T2300,1340A,112.9792,28.2597,长沙市,伍家岭,颗粒物(PM10),114,178,100,83,42,14,,139,82,96,58,6,6,1.1,0.8
2025-03-22T2300,1341A,113.0014,28.1944,长沙市,火车新站,细颗粒物(PM2.5),125,147,98,95,50,13,,153,104,125,66,8,9,2.0,0.9
2025-03-22T2300,1342A,112.9844,28.1178,长沙市,天心区环保局,细颗粒物(PM2.5),74,94,82,54,43,52,,160,120,86,60,8,7,1.1,1
2025-03-22T2300,1343A,112.8908,28.1308,长沙市,湖南中医药大学,颗粒物(PM10),75,99,84,48,39,5,,142,77,93,55,5,7,0.7,0.5
2025-03-22T2300,1344A,112.9581,28.3611,长沙市,沙坪,,42,39,45,29,32,111,,141,135,6,16,7,9,0.7,0.7
2025-03-22T2300,1727A,113.1147,36.1547,长治市,清华站,颗粒物(PM10),57,63,56,29,20,64,,109,89,25,23,5,7,0.3,0.3
2025-03-22T2300,1730A,113.0886,36.2125,长治市,审计局,颗粒物(PM10),57,63,53,22,20,65,,112,94,30,25,8,10,0.3,0.3
2025-03-22T2300,1731A,113.0844,36.1856,长治市,长治八中,颗粒物(PM10),63,76,71,32,29,50,,113,95,43,24,9,12,0.8,0.9
2025-03-22T2300,2845A,113.1569,36.1911,长治市,德盛苑,颗粒物(PM10),54,58,50,22,18,76,,112,97,21,13,6,6,0.3,0.3
2025-03-22T2300,3568A,113.06,36.0464,长治市,向阳小学,颗粒物(PM10),61,72,73,27,31,72,,111,89,22,19,10,10,0.3,0.4
2025-03-22T2300,3569A,112.8792,36.3144,长治市,屯留一中,颗粒物(PM10),63,75,54,22,17,46,,115,90,51,29,9,8,0.6,0.6
2025-03-22T2300,4189A,113.1131,36.19948,长治市,英华南巷50号,颗粒物(PM10),56,62,65,27,23,62,,115,96,34,25,12,15,0.4,0.7
2025-03-22T2300,4190A,113.2367,36.3344,长治市,学府街1号,颗粒物(PM10),77,104,77,39,27,56,,116,94,35,29,25,20,1.2,0.6
2025-03-22T2300,1854A,111.6975,28.9703,常德市,市二中,细颗粒物(PM2.5),78,76,53,57,35,25,,106,75,39,17,5,7,0.6,0.5
2025-03-22T2300,3138A,111.7153,29.0289,常德市,武陵区永安,细颗粒物(PM2.5),54,54,52,38,30,67,,106,90,21,20,5,7,0.5,0.5
2025-03-22T2300,3139A,111.6892,28.9881,常德市,鼎城区玉霞,颗粒物(PM10),65,80,59,45,33,32,,115,78,45,26,4,7,0.6,0.5
2025-03-22T2300,3140A,111.6625,29.0531,常德市,武陵区长庚,"颗粒物(PM10),细颗粒物(PM2.5)",58,65,56,41,32,65,,112,88,16,17,6,6,0.5,0.5
2025-03-22T2300,1196A,119.9633,31.762,常州市,市监测站,颗粒物(PM10),76,102,65,51,33,14,,152,100,106,46,7,12,1.3,0.7
2025-03-22T2300,1200A,119.9468,31.7069,常州市,武进监测站,细颗粒物(PM2.5),63,64,53,45,32,81,,151,116,47,42,20,18,0.8,0.7
2025-03-22T2300,1201A,119.9255,31.9087,常州市,安家,颗粒物(PM10),72,94,80,50,41,50,,145,93,78,63,23,16,0.6,0.6
2025-03-22T2300,3002A,119.9805,31.8174,常州市,行政中心,颗粒物(PM10),56,61,47,35,28,80,,143,121,49,32,12,15,0.6,0.5
2025-03-22T2300,3003A,120.0522,31.7748,常州市,经开区,颗粒物(PM10),62,74,59,41,28,71,,161,132,56,38,14,18,0.8,0.6
2025-03-22T2300,3010A,119.9025,31.7964,常州市,钟楼,颗粒物(PM10),62,73,61,38,32,62,,148,116,61,38,8,12,0.9,0.8
2025-03-22T2300,3429A,119.8598,31.7066,常州市,武进经发区,颗粒物(PM10),66,82,62,42,32,78,,156,129,58,40,17,16,0.9,0.8
2025-03-22T2300,3430A,119.5826,31.7245,常州市,金坛城区,颗粒物(PM10),69,88,64,46,34,84,,160,139,44,27,11,15,0.6,0.6
2025-03-22T2300,2220A,120.4318,41.5881,朝阳市,西梁,细颗粒物(PM2.5),93,109,72,69,33,6,,104,56,69,26,19,16,1.2,0.7
2025-03-22T2300,2221A,120.4521,41.5646,朝阳市,河畔小区,"颗粒物(PM10),细颗粒物(PM2.5)",55,59,71,39,24,13,,103,61,62,23,12,10,0.8,0.7
2025-03-22T2300,2222A,120.4176,41.5648,朝阳市,八里堡,颗粒物(PM10),68,86,75,47,29,7,,98,55,60,26,10,11,0.9,0.6
2025-03-22T2300,2223A,120.3806,41.5969,朝阳市,农业园区,,50,50,60,20,22,47,,106,69,29,18,10,11,0.5,0.5
2025-03-22T2300,1705A,116.6367,23.6719,潮州市,西园路,颗粒物(PM10),72,93,60,51,38,78,,170,130,31,23,6,5,0.4,0.4
2025-03-22T2300,3026A,116.6183,23.6608,潮州市,市政府,颗粒物(PM10),63,76,68,38,33,70,,158,123,39,36,6,11,0.8,0.6
2025-03-22T2300,4036A,116.6461,23.6761,潮州市,金山,"颗粒物(PM10),细颗粒物(PM2.5)",65,80,54,47,31,67,,173,130,33,23,10,9,0.7,0.5
2025-03-22T2300,2472A,113.0073,25.9061,郴州市,马头岭,颗粒物(PM10),51,51,48,27,18,70,,121,105,17,17,9,14,0.5,0.4
2025-03-22T2300,2473A,113.0116,25.8226,郴州市,市职中,颗粒物(PM10),72,93,75,45,34,12,,137,86,60,36,7,12,0.6,0.5
2025-03-22T2300,2475A,113.0383,25.8071,郴州市,市审计局,颗粒物(PM10),56,61,52,34,29,40,,139,100,41,33,7,8,0.6,0.5
2025-03-22T2300,2476A,113.0348,25.7759,郴州市,市环保局,颗粒物(PM10),62,73,56,43,31,21,,122,80,69,37,7,8,0.6,0.4
2025-03-22T2300,4252A,113.0138,25.8011,郴州市,好美居路49号,细颗粒物(PM2.5),73,92,60,53,35,4,,136,84,72,38,7,12,0.8,0.5
2025-03-22T2300,1431A,103.9728,30.7236,成都市,金泉两河,细颗粒物(PM2.5),73,94,77,53,41,1,,55,38,70,54,2,3,1.2,0.8
2025-03-22T2300,1432A,104.176,30.6872,成都市,十里店,细颗粒物(PM2.5),85,97,80,63,49,8,,48,39,88,66,4,4,1.1,0.7
2025-03-22T2300,1433A,104.079,30.5706,成都市,三瓦窑,细颗粒物(PM2.5),79,105,81,58,47,4,,58,42,97,69,9,6,1.1,0.9
2025-03-22T2300,1434A,104.1114,30.63,成都市,沙河铺,细颗粒物(PM2.5),89,88,77,66,54,3,,45,32,68,52,5,5,1.2,0.8
2025-03-22T2300,1437A,104.0786,30.6531,成都市,君平街,细颗粒物(PM2.5),74,92,77,54,50,8,,49,39,91,66,8,8,1.4,0.9
2025-03-22T2300,2880A,104.0239,30.65639,成都市,大石西路,细颗粒物(PM2.5),79,97,80,58,49,3,,54,39,81,63,4,5,1.3,0.9
2025-03-22T2300,3136A,104.2725,30.5589,成都市,龙泉驿区区政府,细颗粒物(PM2.5),79,83,62,58,39,33,,71,62,36,30,4,5,0.9,0.8
2025-03-22T2300,3357A,104.0106,30.6931,成都市,金博路,颗粒物(PM10),71,92,69,30,38,1,,52,38,79,56,6,7,1.1,0.9
2025-03-22T2300,3359A,104.0578,30.5225,成都市,华阳,细颗粒物(PM2.5),94,95,76,70,51,5,,53,42,89,60,6,7,1.4,0.6
2025-03-22T2300,3488A,104.3853,30.7453,成都市,青白江技师分院,颗粒物(PM10),60,69,67,40,45,10,,54,46,71,55,7,8,0.7,0.6
2025-03-22T2300,3489A,104.0789,30.4072,成都市,科学城,细颗粒物(PM2.5),75,78,64,55,45,11,,66,54,59,39,5,6,0.8,0.7
2025-03-22T2300,4011A,103.8506,30.6947,成都市,光华大道三段,细颗粒物(PM2.5),97,114,74,72,46,6,,75,57,81,49,5,5,1.5,0.9
2025-03-22T2300,4224A,104.2433,30.5353,成都市,鲸龙路1057号,细颗粒物(PM2.5),85,96,73,63,45,5,,69,57,65,39,5,6,1.0,0.8
2025-03-22T2300,1062A,117.9531,40.9081,承德市,铁路,,25,25,38,6,10,37,,83,60,18,23,6,8,0.3,0.4
2025-03-22T2300,1063A,117.9392,40.9763,承德市,中国银行,,41,41,43,22,11,23,,82,55,26,22,2,3,0.4,0.3
2025-03-22T2300,1064A,117.9503,40.928,承德市,开发区,颗粒物(PM10),51,52,46,24,17,15,,88,57,38,27,7,7,0.4,0.4
2025-03-22T2300,1065A,117.8051,40.9655,承德市,文化中心,颗粒物(PM10),63,75,54,12,12,6,,89,46,48,28,3,4,0.3,0.3
2025-03-22T2300,1066A,117.9268,41.0026,承德市,离宫,,44,44,38,27,17,44,,77,64,12,10,4,5,0.2,0.2
2025-03-22T2300,2314A,117.47,30.6618,池州市,池州学院,细颗粒物(PM2.5),64,76,52,46,29,90,,144,125,31,22,17,12,0.8,0.7
2025-03-22T2300,3237A,117.4918,30.6617,池州市,展览馆,颗粒物(PM10),61,72,50,42,27,87,,142,108,31,24,10,10,0.6,0.6
2025-03-22T2300,3333A,117.5627,30.695,池州市,第八中学,颗粒物(PM10),65,80,46,43,24,82,,146,121,34,17,35,8,0.5,0.4
2025-03-22T2300,3334A,117.5038,30.6243,池州市,第十二中学,颗粒物(PM10),54,58,46,30,24,88,,145,114,28,17,8,8,0.4,0.5
2025-03-22T2300,1744A,118.9233,42.2816,赤峰市,松山一中,,43,43,32,10,7,18,,83,64,56,24,16,10,1.0,0.5
2025-03-22T2300,1745A,118.9576,42.2728,赤峰市,哈达街,,46,46,31,22,8,38,,75,64,29,15,21,12,0.8,0.6
2025-03-22T2300,1746A,118.8788,42.2554,赤峰市,天义路,,42,42,31,23,11,43,,76,61,26,16,7,7,0.4,0.3
2025-03-22T2300,3058A,119.2658,42.0353,赤峰市,银河街,,49,49,56,22,18,40,,80,69,31,21,17,17,0.8,0.6
2025-03-22T2300,3286A,118.9359,42.3147,赤峰市,桥北物流园区,颗粒物(PM10),54,57,35,3,13,28,,75,50,45,23,6,27,0.4,0.4
2025-03-22T2300,2521A,107.3476,22.4136,崇左市,市环保局江州分局,颗粒物(PM10),64,78,84,42,52,116,,183,157,38,22,12,9,0.7,0.7
2025-03-22T2300,4256A,107.3750,22.3736,崇左市,石景林东路7号,"颗粒物(PM10),细颗粒物(PM2.5)",52,54,50,36,50,114,,188,162,23,19,7,7,0.6,0.5
2025-03-22T2300,2298A,118.3093,32.3153,滁州市,老年大学,颗粒物(PM10),60,69,55,39,31,52,,150,121,33,22,5,5,0.7,0.5
2025-03-22T2300,2299A,118.3244,32.2786,滁州市,人大宾馆,颗粒物(PM10),61,71,62,34,31,91,,149,128,38,23,9,9,0.6,0.5
2025-03-22T2300,3207A,118.3118,32.3038,滁州市,市政府原办公楼,颗粒物(PM10),54,58,50,33,30,127,,150,138,16,19,6,6,0.3,0.3
2025-03-22T2300,3331A,118.3267,32.2634,滁州市,图书馆,颗粒物(PM10),57,64,57,38,26,95,,144,125,34,22,8,8,0.5,0.4
2025-03-22T2300,2605A,101.5482,25.0441,楚雄彝族自治州,州环境监测站,细颗粒物(PM2.5),69,,40,50,37,106,,118,114,9,10,7,7,0.7,0.7
2025-03-22T2300,2606A,101.538,25.0492,楚雄彝族自治州,市经济开发区,细颗粒物(PM2.5),67,50,43,48,38,102,,114,111,11,12,7,6,0.7,0.8
2025-03-22T2300,2548A,107.5277,31.2827,达州市,达州职业技术学院,细颗粒物(PM2.5),93,122,97,69,55,5,,38,18,54,48,8,7,1.1,0.7
2025-03-22T2300,2549A,107.5086,31.2186,达州市,市环境监测站,细颗粒物(PM2.5),107,131,94,80,52,2,,28,17,71,63,9,9,2.6,1
2025-03-22T2300,2550A,107.4988,31.2132,达州市,凤凰小区,细颗粒物(PM2.5),107,127,95,80,57,5,,29,20,74,60,12,11,1.7,0.9
2025-03-22T2300,2551A,107.5082,31.1986,达州市,达县机关宾馆,细颗粒物(PM2.5),92,112,99,68,53,2,,26,16,55,60,7,8,1.0,0.9
2025-03-22T2300,2552A,107.4644,31.2124,达州市,市政中心,细颗粒物(PM2.5),110,134,109,83,58,6,,20,14,66,64,7,24,1.2,1.3
2025-03-22T2300,2614A,100.1542,25.7054,大理白族自治州,大理市环境监测站,细颗粒物(PM2.5),52,37,36,36,33,118,,116,116,5,9,7,7,0.6,0.5
2025-03-22T2300,2615A,100.2171,25.5811,大理白族自治州,大理古城,,38,30,32,25,24,119,,115,115,5,7,6,6,0.6,0.6
2025-03-22T2300,1109A,121.612,38.9741,大连市,甘井子,细颗粒物(PM2.5),74,91,64,54,29,34,,92,67,76,40,14,12,1.2,1.1
2025-03-22T2300,1110A,121.565,38.9511,大连市,周水子,颗粒物(PM10),76,101,65,53,29,7,,90,55,105,40,15,15,0.7,0.7
2025-03-22T2300,1111A,121.5637,38.8845,大连市,星海三站,颗粒物(PM10),60,70,63,38,34,88,,72,64,23,27,8,10,0.8,0.9
2025-03-22T2300,1112A,121.6302,38.9117,大连市,青泥洼桥,颗粒物(PM10),66,82,65,39,26,71,,87,58,30,31,11,14,0.6,0.7
2025-03-22T2300,1113A,121.6251,38.8638,大连市,傅家庄,颗粒物(PM10),59,68,66,31,38,97,,79,79,29,36,10,12,0.6,0.6
2025-03-22T2300,1114A,121.5213,38.8661,大连市,七贤岭,颗粒物(PM10),59,68,57,26,22,91,,90,90,18,18,8,9,0.5,0.6
2025-03-22T2300,1115A,121.2529,38.8061,大连市,旅顺,颗粒物(PM10),58,65,72,28,36,75,,81,81,39,43,6,8,0.4,0.6
2025-03-22T2300,1116A,121.7485,39.1311,大连市,金州,颗粒物(PM10),67,83,104,33,37,95,,73,73,27,43,10,13,0.7,0.9
2025-03-22T2300,1117A,121.7811,39.0496,大连市,开发区,颗粒物(PM10),79,107,86,46,37,66,,67,55,46,47,16,17,0.7,0.8
2025-03-22T2300,1118A,121.9762,39.0631,大连市,双D港,颗粒物(PM10),68,86,77,39,25,89,,97,92,35,34,8,10,0.7,0.8
2025-03-22T2300,1789A,124.81117,46.03138,大庆市,大同区,颗粒物(PM10),52,54,28,35,21,28,,77,56,48,16,7,5,0.7,0.5
2025-03-22T2300,1790A,125.129,46.533,大庆市,龙凤区,,27,27,24,17,14,59,,78,66,12,12,5,6,0.4,0.3
2025-03-22T2300,1791A,124.902,46.408,大庆市,红岗区,细颗粒物(PM2.5),52,,20,36,17,59,,84,69,15,14,5,5,0.5,0.5
2025-03-22T2300,1792A,125.153,46.586,大庆市,萨尔图区,,23,20,18,9,6,73,,78,73,7,8,6,6,0.2,0.2
2025-03-22T2300,1793A,124.9042,46.6215,大庆市,让胡路区,,28,,17,19,14,58,,80,65,20,13,8,7,0.4,0.2
2025-03-22T2300,3481A,125.141,46.634,大庆市,萨区政府监测点,,21,20,17,3,0,65,,86,80,12,4,5,5,0.3,0.3
2025-03-22T2300,1723A,113.2994,40.0758,大同市,云冈宾馆,颗粒物(PM10),68,85,78,21,20,89,,113,107,22,22,16,12,0.5,0.6
2025-03-22T2300,1724A,113.3444,40.0917,大同市,大同大学,颗粒物(PM10),63,76,73,29,25,97,,110,105,13,20,18,16,0.4,0.5
2025-03-22T2300,1725A,113.2661,40.1269,大同市,安家小村,颗粒物(PM10),104,158,104,25,28,101,,113,112,14,23,10,15,0.3,1.6
2025-03-22T2300,1726A,113.2711,40.0844,大同市,教育学院,颗粒物(PM10),66,82,77,28,27,94,,114,108,18,21,14,11,0.5,0.6
2025-03-22T2300,3282A,113.3397,40.0597,大同市,大同市卫生学校,颗粒物(PM10),67,83,81,24,26,82,,107,99,27,28,11,10,0.4,0.4
2025-03-22T2300,3565A,113.1367,40.1122,大同市,云冈站,颗粒物(PM10),67,83,73,25,24,54,,110,93,30,14,26,15,0.4,0.4
2025-03-22T2300,3566A,113.1186,40.2556,大同市,图书馆,颗粒物(PM10),61,72,65,22,25,58,,105,88,7,12,8,11,0.5,0.6
2025-03-22T2300,3567A,113.5931,40.0461,大同市,区一中,颗粒物(PM10),76,101,97,27,18,54,,108,89,22,22,24,24,0.9,0.5
2025-03-22T2300,4199A,113.2798,40.0997,大同市,魏都大道141号,颗粒物(PM10),65,80,83,29,26,94,,115,108,21,27,17,15,0.4,0.8
2025-03-22T2300,2269A,124.1069,50.4097,大兴安岭地区,科技局,,22,17,20,14,14,68,,85,72,5,5,7,8,0.3,0.3
2025-03-22T2300,3663A,124.1164,50.4278,大兴安岭地区,红旗社区,,18,17,7,7,4,55,,86,71,11,4,6,5,0.5,0.4
2025-03-22T2300,1600A,124.3303,40.0625,丹东市,江湾东路,细颗粒物(PM2.5),108,115,80,81,62,27,,124,83,51,29,10,13,1.4,1.3
2025-03-22T2300,1601A,124.4256,40.1503,丹东市,临江后街,细颗粒物(PM2.5),109,145,85,82,54,26,,122,84,50,30,11,11,1.9,1.4
2025-03-22T2300,1602A,124.3933,40.1461,丹东市,元宝山,细颗粒物(PM2.5),80,99,87,59,58,62,,118,89,34,34,10,9,1.4,1.3
2025-03-22T2300,1603A,124.3633,40.1092,丹东市,民主桥,细颗粒物(PM2.5),108,112,90,81,61,9,,128,84,75,34,10,10,1.1,1.4
2025-03-22T2300,3541A,109.5726,19.5167,儋州市,第一中学子站,,35,32,41,18,23,112,,134,130,8,12,4,5,0.6,0.6
2025-03-22T2300,3542A,109.5567,19.5187,儋州市,东坡学校子站,,42,42,39,17,23,116,,144,141,5,8,4,6,0.6,0.6
2025-03-22T2300,2616A,98.5842,24.428,德宏傣族景颇族自治州,德宏州监测站,细颗粒物(PM2.5),108,112,91,81,70,50,,116,98,32,23,7,8,1.1,0.9
2025-03-22T2300,3677A,98.5881,24.4368,德宏傣族景颇族自治州,芒市人民政府综合楼,细颗粒物(PM2.5),92,113,100,68,69,74,,121,111,16,17,8,9,0.7,0.7
2025-03-22T2300,1901A,104.4239,31.1208,德阳市,东山公园,细颗粒物(PM2.5),114,114,83,86,58,29,,75,65,61,45,6,6,0.7,0.6
2025-03-22T2300,1904A,104.3553,31.1091,德阳市,耐火材料厂,细颗粒物(PM2.5),118,147,107,89,72,4,,61,51,94,68,13,10,0.8,0.7
2025-03-22T2300,3639A,104.4019,31.1244,德阳市,市教育局,细颗粒物(PM2.5),118,106,86,89,65,3,,78,45,84,63,6,7,0.9,0.7
2025-03-22T2300,1622A,116.3032,37.4674,德州市,儿童乐园,颗粒物(PM10),73,95,88,29,25,93,,114,108,23,25,8,14,0.6,0.7
2025-03-22T2300,1624A,116.2991,37.4451,德州市,监理站,颗粒物(PM10),76,102,86,36,27,64,,114,94,40,29,19,23,0.7,0.6
2025-03-22T2300,3066A,116.2721,37.4379,德州市,九衢泉纯净水厂,颗粒物(PM10),79,107,86,44,26,37,,109,77,67,42,12,11,0.7,0.6
2025-03-22T2300,3371A,116.3728,37.4403,德州市,开发区人民医院,颗粒物(PM10),75,100,82,29,23,84,,109,102,28,26,7,10,0.4,0.4
2025-03-22T2300,3372A,116.3572,37.4094,德州市,太阳城中学,颗粒物(PM10),75,100,88,36,27,72,,109,92,33,29,7,10,0.3,0.5
2025-03-22T2300,3511A,116.5652,37.3319,德州市,陵城艺术中心,颗粒物(PM10),78,105,84,36,24,73,,103,92,39,36,7,11,0.6,0.6
2025-03-22T2300,2621A,99.7056,27.8317,迪庆藏族自治州,迪庆州站,,32,14,23,10,15,101,,103,99,9,9,8,8,0.5,0.5
2025-03-22T2300,3180A,99.7136,27.8094,迪庆藏族自治州,质量技术监督局,,34,,21,19,13,106,,105,101,8,10,9,9,0.5,0.5
2025-03-22T2300,4257A,104.6092,35.5962,定西市,将台街,颗粒物(PM10),63,76,77,35,36,103,,117,115,15,25,11,11,0.6,0.8
2025-03-22T2300,4309A,104.6159,35.5701,定西市,正龙路62号,颗粒物(PM10),60,70,77,39,46,116,,125,124,7,12,10,11,0.4,0.5
2025-03-22T2300,1389A,113.7547,23.0494,东莞市,莞城梨川,颗粒物(PM10),55,59,68,27,40,130,,216,174,27,33,5,7,0.7,0.7
2025-03-22T2300,1390A,113.7944,23.0128,东莞市,东城石井,,48,48,58,22,34,110,,231,178,30,25,6,8,0.6,0.7
2025-03-22T2300,1391A,113.7383,22.9658,东莞市,南城西平,,48,48,69,19,36,137,,226,184,26,60,6,8,0.7,0.8
2025-03-22T2300,3319A,113.7338,23.0381,东莞市,万江金泰,颗粒物(PM10),54,58,63,29,36,134,,231,190,30,29,6,8,0.7,0.7
2025-03-22T2300,3626A,113.7533,23.0202,东莞市,南城元岭,,47,47,62,24,35,132,,210,171,26,28,7,8,0.5,0.6
2025-03-22T2300,3627A,113.7875,23.0457,东莞市,东城主山,颗粒物(PM10),58,65,69,32,36,110,,208,172,42,34,9,11,0.6,0.6
2025-03-22T2300,1666A,118.6614,37.4309,东营市,市环保局,颗粒物(PM10),76,102,92,34,28,68,,122,99,37,36,7,8,0.5,0.6
2025-03-22T2300,3036A,118.6904,37.4338,东营市,开发区管委会,颗粒物(PM10),82,113,99,39,34,66,,116,95,47,44,6,8,0.6,0.7
2025-03-22T2300,3365A,118.5719,37.565,东营市,垦利区民丰路,颗粒物(PM10),75,100,88,31,28,70,,120,95,32,31,5,13,1.4,0.8
2025-03-22T2300,3498A,118.5055,37.8612,东营市,河口城区,颗粒物(PM10),75,100,90,32,30,60,,118,96,30,27,5,9,0.8,0.9
2025-03-22T2300,3646A,118.4978,37.4623,东营市,胜利站,颗粒物(PM10),72,93,88,22,27,88,,109,98,26,35,10,11,0.7,0.8
2025-03-22T2300,3734A,118.35,37.26,东营市,理想之城,颗粒物(PM10),81,112,92,39,31,68,,116,94,33,33,7,8,0.5,0.5
2025-03-22T2300,1591A,110.0023,39.8129,鄂尔多斯市,综合楼,颗粒物(PM10),117,183,135,48,29,93,,105,98,12,10,5,5,0.3,0.3
2025-03-22T2300,1592A,109.9486,39.8261,鄂尔多斯市,巴音孟克林场办事处,颗粒物(PM10),107,163,121,44,30,92,,108,99,9,9,6,6,0.3,0.3
2025-03-22T2300,1593A,109.7736,39.5986,鄂尔多斯市,康泽苑,颗粒物(PM10),111,171,110,44,27,82,,108,98,9,7,3,3,0.3,0.2
2025-03-22T2300,1594A,109.8119,39.5989,鄂尔多斯市,华泰汽车城,颗粒物(PM10),106,161,108,56,32,82,,106,94,11,13,3,3,0.3,0.3
2025-03-22T2300,1595A,109.9734,39.7884,鄂尔多斯市,奥林花园,颗粒物(PM10),117,183,130,41,28,72,,103,88,26,17,38,8,0.5,0.3
2025-03-22T2300,2436A,114.8938,30.3994,鄂州市,市政府,,,,76,,43,83,,143,111,24,43,9,10,0.9,1
2025-03-22T2300,2437A,114.8989,30.3714,鄂州市,赵家坝,颗粒物(PM10),66,81,77,38,35,105,,152,120,18,31,7,11,0.9,0.9
2025-03-22T2300,3654A,114.8094,30.4089,鄂州市,精准医疗中心,颗粒物(PM10),69,87,82,37,41,109,,172,142,23,43,4,8,0.7,0.9
2025-03-22T2300,2454A,109.4978,30.2981,恩施土家族苗族自治州,湖北民院,细颗粒物(PM2.5),78,66,58,57,48,16,,45,33,43,33,2,2,0.5,0.4
2025-03-22T2300,2455A,109.4707,30.2798,恩施土家族苗族自治州,州电力总公司,细颗粒物(PM2.5),67,64,65,48,48,5,,36,22,30,34,4,6,0.4,0.4
2025-03-22T2300,3549A,109.5061,30.3772,恩施土家族苗族自治州,龙凤新区,细颗粒物(PM2.5),70,67,62,51,44,11,,44,21,21,23,6,6,0.6,0.5
2025-03-22T2300,2499A,108.3411,21.6158,防城港市,沙万,细颗粒物(PM2.5),57,50,57,40,36,124,,141,132,17,27,10,12,0.3,0.3
2025-03-22T2300,2500A,108.3514,21.7731,防城港市,防城档案局,,40,40,77,28,41,124,,139,134,12,32,3,7,0.4,0.7
2025-03-22T2300,2501A,108.3506,21.6414,防城港市,大海花园,,46,44,60,32,36,123,,149,138,13,19,10,10,0.6,0.6
2025-03-22T2300,1371A,113.1294,23.0067,佛山市,湾梁,颗粒物(PM10),67,83,77,21,30,114,,202,185,41,35,8,8,0.8,0.7
2025-03-22T2300,1372A,113.1083,23.0478,佛山市,华材职中,颗粒物(PM10),73,95,71,37,36,124,,225,196,53,40,6,7,0.6,0.5
2025-03-22T2300,1373A,113.144,23.0453,佛山市,南海气象局,颗粒物(PM10),72,93,69,41,40,113,,200,186,48,40,6,7,0.7,0.6
2025-03-22T2300,1374A,113.2881,22.8094,佛山市,顺德苏岗,颗粒物(PM10),68,85,72,31,40,78,,207,160,46,42,7,8,1.0,0.9
2025-03-22T2300,1376A,112.8383,22.8678,佛山市,高明孔堂,颗粒物(PM10),62,73,53,40,34,166,,223,209,26,22,6,6,0.4,0.4
2025-03-22T2300,1377A,112.8836,23.1588,佛山市,三水监测站,颗粒物(PM10),97,144,93,62,51,10,,174,118,181,81,5,3,0.7,0.6
2025-03-22T2300,1378A,112.867,23.185,佛山市,三水云东海,颗粒物(PM10),60,70,80,37,48,87,,223,172,70,61,3,6,0.6,0.6
2025-03-22T2300,3625A,113.2544,22.7642,佛山市,容桂街道办,颗粒物(PM10),57,63,77,31,44,94,,210,162,44,52,7,9,0.7,0.7
2025-03-22T2300,1282A,119.2681,26.0504,福州市,师大,颗粒物(PM10),69,88,45,43,24,32,,148,118,72,22,4,6,0.6,0.3
2025-03-22T2300,1283A,119.2984,26.1028,福州市,五四北路,颗粒物(PM10),56,62,43,31,25,54,,141,107,55,28,4,5,0.6,0.5
2025-03-22T2300,1284A,119.2648,26.0768,福州市,杨桥西路,颗粒物(PM10),61,71,48,31,24,70,,148,118,42,27,4,6,0.5,0.4
2025-03-22T2300,1285A,119.317,26.0746,福州市,紫阳,颗粒物(PM10),57,64,52,36,26,62,,133,100,54,35,5,5,0.5,0.4
2025-03-22T2300,3048A,119.5799,26.0936,福州市,九龙,,38,32,34,26,17,59,,138,109,27,17,4,4,0.2,0.2
2025-03-22T2300,3526A,119.5189,25.9664,福州市,吴航,,33,33,40,16,20,90,,144,119,18,29,4,6,0.5,0.4
2025-03-22T2300,1755A,123.7977,41.8491,抚顺市,望花区,细颗粒物(PM2.5),243,298,157,193,87,20,,126,95,94,54,19,24,1.8,1.4
2025-03-22T2300,1756A,123.9161,41.8822,抚顺市,顺城区,细颗粒物(PM2.5),262,319,148,212,84,12,,118,78,106,63,17,17,1.7,1.3
2025-03-22T2300,1757A,124.0436,41.8611,抚顺市,东洲区,细颗粒物(PM2.5),168,189,120,127,70,79,,126,116,30,35,8,10,1.0,1
2025-03-22T2300,1758A,123.9247,41.8642,抚顺市,新抚区,细颗粒物(PM2.5),262,297,135,212,84,17,,112,84,94,56,10,12,1.5,1.2
2025-03-22T2300,1759A,124.0972,41.8961,抚顺市,大伙房水库,细颗粒物(PM2.5),158,155,106,120,71,83,,132,124,27,29,12,13,1.1,1
2025-03-22T2300,1760A,123.7086,41.8391,抚顺市,沈抚新城,细颗粒物(PM2.5),244,250,124,194,79,19,,128,98,104,54,17,18,1.7,1.3
2025-03-22T2300,2376A,116.2127,28.0814,抚州市,桐源党溪,颗粒物(PM10),52,54,47,18,24,30,,118,86,14,10,7,21,0.3,0.1
2025-03-22T2300,2377A,116.3544,27.9831,抚州市,市站,颗粒物(PM10),70,89,55,47,27,28,,100,69,80,32,5,6,0.9,0.6
2025-03-22T2300,2378A,116.3565,27.963,抚州市,血防站,颗粒物(PM10),58,66,48,30,22,23,,115,82,75,25,7,7,0.8,0.6
2025-03-22T2300,2379A,116.3564,28.0007,抚州市,采茶剧团,颗粒物(PM10),56,62,47,32,23,23,,104,82,43,20,3,3,1.2,0.8
2025-03-22T2300,2380A,116.385,27.9647,抚州市,医学分院,颗粒物(PM10),71,91,54,31,21,9,,95,68,91,32,7,6,1.5,0.7
2025-03-22T2300,2207A,121.6094,41.998,阜新市,工业园区,细颗粒物(PM2.5),199,164,118,149,58,10,,101,54,69,37,29,20,2.1,0.7
2025-03-22T2300,2208A,121.6697,42.0279,阜新市,长青街,颗粒物(PM10),54,58,78,37,40,37,,106,60,34,32,45,15,0.9,0.7
2025-03-22T2300,2209A,121.6673,42.0705,阜新市,农业园区,,48,48,52,31,16,84,,104,86,18,15,62,36,1.1,0.5
2025-03-22T2300,2210A,121.6717,42.0224,阜新市,东苑,颗粒物(PM10),58,66,84,34,38,48,,104,65,37,36,31,24,0.9,0.6
2025-03-22T2300,2211A,121.6506,42.0498,阜新市,玉龙新城,颗粒物(PM10),55,60,82,26,31,46,,100,57,41,35,20,12,2.1,0.7
2025-03-22T2300,2301A,115.8277,32.8929,阜阳市,市监测站,细颗粒物(PM2.5),82,89,62,60,35,25,,124,75,72,24,8,8,1.0,0.5
2025-03-22T2300,2303A,115.8554,32.8605,阜阳市,开发区,颗粒物(PM10),89,127,77,47,31,46,,131,99,50,22,8,8,0.6,0.3
2025-03-22T2300,2875A,115.784,32.8892,阜阳市,阜阳职业技术学院,颗粒物(PM10),64,77,68,33,30,27,,125,75,75,26,8,8,0.6,0.4
2025-03-22T2300,3468A,115.7901,32.8613,阜阳市,市规划展馆,颗粒物(PM10),61,72,65,34,32,68,,133,111,41,17,8,8,0.4,0.3
2025-03-22T2300,3469A,115.836,32.9183,阜阳市,枣园社区,颗粒物(PM10),70,90,67,41,34,37,,133,89,65,24,8,7,0.7,0.4
2025-03-22T2300,2669A,102.9099,34.9841,甘南藏族自治州,州政府,颗粒物(PM10),60,70,54,34,29,51,,92,85,41,18,5,6,0.6,0.4
2025-03-22T2300,3380A,102.8914,34.9617,甘南藏族自治州,甘肃民族师范学院,颗粒物(PM10),58,66,54,39,28,16,,104,89,81,21,8,9,0.6,0.5
2025-03-22T2300,2570A,101.9603,30.0475,甘孜藏族自治州,水桥子,,17,10,14,3,10,52,,73,67,24,19,3,3,0.5,0.5
2025-03-22T2300,3065A,101.9533,29.9972,甘孜藏族自治州,州环保局,,18,9,17,8,8,57,,80,75,24,14,4,4,0.3,0.3
2025-03-22T2300,3414A,115.8347,28.932,赣江新区,桑海产业园,颗粒物(PM10),69,88,65,29,28,24,,128,90,99,47,13,13,0.4,0.4
2025-03-22T2300,2363A,114.9367,25.8664,赣州市,地委,颗粒物(PM10),61,72,49,32,24,31,,132,86,48,23,2,5,0.9,0.8
2025-03-22T2300,2364A,114.9461,25.8481,赣州市,气象台,颗粒物(PM10),66,81,55,32,23,22,,149,93,80,42,10,13,0.8,0.6
2025-03-22T2300,2365A,114.9322,25.8333,赣州市,市图书馆,颗粒物(PM10),65,80,52,36,24,20,,146,95,78,39,6,6,1.0,0.7
2025-03-22T2300,2366A,114.8905,25.8471,赣州市,华坚鞋城,颗粒物(PM10),80,110,61,49,29,9,,142,75,93,43,11,14,1.0,0.7
2025-03-22T2300,3109A,115.0093,25.8613,赣州市,赣县区卫计委,颗粒物(PM10),58,65,46,34,26,46,,132,86,40,24,8,9,0.5,0.4
2025-03-22T2300,2683A,106.2319,36.1417,固原市,马园,颗粒物(PM10),111,172,96,63,37,15,,98,64,70,41,8,6,0.9,0.8
2025-03-22T2300,2684A,106.2792,36.0022,固原市,监测站,颗粒物(PM10),95,140,83,50,35,37,,108,85,49,26,10,9,0.7,0.7
2025-03-22T2300,2685A,106.2375,36.0211,固原市,新区,颗粒物(PM10),102,154,109,44,33,68,,107,84,28,41,9,7,0.6,0.7
2025-03-22T2300,3522A,106.2177,35.9959,固原市,原州区十五小,颗粒物(PM10),97,144,77,48,30,72,,107,92,29,21,8,7,0.4,0.5
2025-03-22T2300,2544A,106.6303,30.4576,广安市,市委,细颗粒物(PM2.5),173,151,116,131,86,10,,21,12,60,52,10,7,0.9,0.7
2025-03-22T2300,2545A,106.6271,30.4663,广安市,友谊中学,细颗粒物(PM2.5),128,149,112,97,76,4,,24,12,63,51,5,6,1.2,0.9
2025-03-22T2300,2547A,106.6388,30.4551,广安市,广电花园,细颗粒物(PM2.5),158,143,110,120,82,4,,16,6,60,51,10,7,0.9,0.7
2025-03-22T2300,2902A,106.6351,30.4865,广安市,北辰小学,细颗粒物(PM2.5),135,125,101,103,78,4,,26,18,56,42,8,11,0.9,0.7
2025-03-22T2300,2523A,105.8945,32.4535,广元市,黑石坡,颗粒物(PM10),54,57,60,22,29,66,,69,69,16,24,5,17,0.5,0.5
2025-03-22T2300,2524A,105.821,32.4444,广元市,老城,颗粒物(PM10),58,65,64,30,32,10,,55,40,66,54,1,8,0.7,0.8
2025-03-22T2300,2526A,105.8628,32.4287,广元市,监测站,,45,41,46,31,27,45,,60,52,30,34,5,9,0.5,0.7
2025-03-22T2300,3617A,105.8047,32.4166,广元市,经开区,细颗粒物(PM2.5),59,64,71,42,48,6,,47,31,67,55,5,14,0.8,0.9
2025-03-22T2300,1345A,113.2347,23.1423,广州市,广雅中学,细颗粒物(PM2.5),107,144,86,80,47,58,,192,158,122,57,6,5,0.8,0.5
2025-03-22T2300,1346A,113.2612,23.105,广州市,市五中,细颗粒物(PM2.5),74,95,76,54,43,84,,195,162,79,42,7,4,0.8,0.6
2025-03-22T2300,1348A,113.3478,23.0916,广州市,广东商学院,颗粒物(PM10),90,129,80,57,45,35,,210,163,132,58,6,6,0.9,0.7
2025-03-22T2300,1349A,113.4332,23.1047,广州市,市八十六中,颗粒物(PM10),58,65,83,28,41,55,,205,159,91,83,5,6,0.5,0.6
2025-03-22T2300,1350A,113.3505,22.9483,广州市,番禺中学,颗粒物(PM10),61,71,73,32,42,72,,234,179,63,50,5,7,0.6,0.6
2025-03-22T2300,1351A,113.2146,23.3916,广州市,花都师范,颗粒物(PM10),91,131,97,66,51,22,,214,175,136,65,6,6,1.1,0.5
2025-03-22T2300,1352A,113.2597,23.1331,广州市,市监测站,颗粒物(PM10),72,94,70,48,36,96,,195,175,82,46,10,6,0.8,0.6
2025-03-22T2300,1353A,113.5618,23.312,广州市,九龙镇镇龙,细颗粒物(PM2.5),84,114,86,62,46,67,,192,142,66,58,5,6,0.7,0.6
2025-03-22T2300,1354A,113.2765,23.1544,广州市,麓湖,二氧化氮,87,90,70,49,39,12,,193,131,174,65,5,5,1.0,0.6
2025-03-22T2300,1355A,113.443,23.3035,广州市,帽峰山森林公园,臭氧1小时,77,71,59,23,22,181,,237,227,30,32,8,8,0.5,0.5
2025-03-22T2300,2846A,113.3221,23.1322,广州市,体育西,颗粒物(PM10),102,154,84,64,46,12,,200,138,145,39,6,6,1.1,0.6
2025-03-22T2300,3298A,113.5717,23.5491,广州市,从化街口,细颗粒物(PM2.5),78,94,68,57,42,82,,221,172,60,43,8,8,0.9,0.7
2025-03-22T2300,3299A,113.3472,23.3692,广州市,白云竹料,细颗粒物(PM2.5),152,231,97,116,48,43,,217,163,80,59,8,8,0.9,0.7
2025-03-22T2300,3300A,113.2981,23.237,广州市,白云嘉禾,细颗粒物(PM2.5),92,128,85,68,46,31,,220,153,134,61,5,6,0.8,0.5
2025-03-22T2300,3301A,113.4256,23.1716,广州市,黄埔科学城,颗粒物(PM10),72,94,68,49,38,36,,222,164,89,48,7,8,0.7,0.5
2025-03-22T2300,3302A,113.3942,23.0483,广州市,番禺大学城,颗粒物(PM10),64,77,77,31,36,56,,233,196,89,56,9,11,0.5,0.4
2025-03-22T2300,3303A,113.4922,22.8168,广州市,南沙黄阁,,49,49,69,19,38,106,,233,178,33,51,5,7,0.6,0.6
2025-03-22T2300,3304A,113.5342,22.7896,广州市,南沙街,颗粒物(PM10),53,55,64,21,35,115,,243,188,31,45,5,5,0.6,0.6
2025-03-22T2300,3443A,113.2902,23.5544,广州市,花都梯面,颗粒物(PM10),59,67,70,38,39,29,,217,138,93,58,4,6,0.7,0.7
2025-03-22T2300,3445A,113.7858,23.7478,广州市,从化良口,,45,45,39,26,27,122,,193,167,18,15,7,7,0.5,0.4
2025-03-22T2300,3446A,113.8051,23.2614,广州市,增城荔城,颗粒物(PM10),70,89,60,49,35,55,,192,139,42,24,7,9,0.8,0.6
2025-03-22T2300,2506A,109.6047,23.0666,贵港市,江南子站,细颗粒物(PM2.5),119,168,124,90,70,102,,195,157,50,44,8,14,1.1,1.1
2025-03-22T2300,2507A,109.6014,23.0948,贵港市,贵城子站,细颗粒物(PM2.5),109,123,98,82,63,103,,194,164,50,37,12,16,1.1,0.9
2025-03-22T2300,2508A,109.5669,23.1065,贵港市,荷城子站,细颗粒物(PM2.5),117,139,99,88,58,86,,170,134,59,42,13,14,1.0,0.8
2025-03-22T2300,3405A,109.5886,23.1172,贵港市,新世纪学校,细颗粒物(PM2.5),117,129,99,88,60,100,,184,142,46,40,7,10,0.8,0.7
2025-03-22T2300,1439A,106.6899,26.5998,贵阳市,马鞍山,细颗粒物(PM2.5),64,70,60,46,42,112,,151,133,10,16,12,11,0.4,0.5
2025-03-22T2300,1441A,106.6243,26.6266,贵阳市,鉴湖路,细颗粒物(PM2.5),79,90,76,58,45,109,,144,131,14,16,14,12,0.5,0.5
2025-03-22T2300,1442A,106.7487,26.6343,贵阳市,燕子冲,细颗粒物(PM2.5),73,75,64,53,49,134,,168,155,16,22,12,13,0.6,0.6
2025-03-22T2300,1443A,106.6555,26.4365,贵阳市,碧云窝,细颗粒物(PM2.5),73,88,85,53,50,129,,155,138,20,29,15,18,0.4,0.7
2025-03-22T2300,1445A,106.7109,26.6027,贵阳市,红边门,细颗粒物(PM2.5),79,80,73,58,52,128,,156,142,16,23,14,17,0.5,0.5
2025-03-22T2300,1446A,106.7164,26.5699,贵阳市,新华路,,,70,67,51,45,127,,151,137,13,18,,47,0.5,0.5
2025-03-22T2300,1447A,106.674,26.5424,贵阳市,太慈桥,细颗粒物(PM2.5),70,80,73,51,46,130,,148,137,19,35,14,15,0.5,0.6
2025-03-22T2300,4230A,106.6882,26.5695,贵阳市,花果园大街66号,细颗粒物(PM2.5),93,70,64,69,52,117,,146,131,17,23,13,13,0.7,0.7
2025-03-22T2300,4231A,106.6873,26.5169,贵阳市,漓江路57号,细颗粒物(PM2.5),77,75,74,56,48,117,,138,125,18,28,17,19,0.5,0.6
2025-03-22T2300,1864A,110.3089,25.2708,桂林市,龙隐路小学,细颗粒物(PM2.5),99,82,72,74,57,33,,167,120,62,31,10,24,1.3,1
2025-03-22T2300,1865A,110.2869,25.2178,桂林市,八中,颗粒物(PM10),82,114,78,57,54,57,,166,119,46,32,10,15,0.9,0.7
2025-03-22T2300,3531A,110.296,25.1253,桂林市,旅游学院,细颗粒物(PM2.5),104,107,70,78,50,93,,170,143,37,28,12,11,0.7,0.6
2025-03-22T2300,4222A,110.1835,25.2444,桂林市,环湖路276号,细颗粒物(PM2.5),98,112,81,73,55,65,,163,126,52,48,10,16,0.8,0.5
2025-03-22T2300,4301A,110.2803,25.2773,桂林市,信义路13号,细颗粒物(PM2.5),82,89,75,60,64,5,,169,114,101,37,13,23,1.3,0.7
2025-03-22T2300,2674A,100.2561,34.4714,果洛藏族自治州,玛沁县大武镇,颗粒物(PM10),56,61,51,26,20,101,,107,101,1,1,10,13,0.3,0.4
2025-03-22T2300,1129A,126.5422,45.755,哈尔滨市,岭北,,23,15,9,13,8,71,,90,80,16,13,18,17,1.1,1
2025-03-22T2300,1130A,126.561,45.8167,哈尔滨市,松北商大,,26,26,15,10,9,64,,86,68,18,16,9,5,0.5,0.5
2025-03-22T2300,1131A,126.979,45.5419,哈尔滨市,阿城会宁,细颗粒物(PM2.5),62,50,22,44,15,16,,86,58,55,16,6,11,1.0,0.9
2025-03-22T2300,1132A,126.599,45.7222,哈尔滨市,南岗学府路,,30,30,20,8,4,77,,84,76,16,11,9,8,0.6,0.6
2025-03-22T2300,1133A,126.689,45.7733,哈尔滨市,太平宏伟公园,,29,29,15,16,11,60,,86,72,20,10,6,6,0.8,0.7
2025-03-22T2300,1134A,126.635,45.7667,哈尔滨市,道外承德广场,,39,39,27,22,12,63,,84,75,21,12,7,7,0.9,0.6
2025-03-22T2300,1135A,126.685,45.7319,哈尔滨市,香坊红旗大街,,32,22,15,22,7,64,,86,76,18,10,8,8,0.5,0.4
2025-03-22T2300,1136A,126.6411,45.7258,哈尔滨市,动力和平路,,22,21,14,7,9,68,,86,78,14,10,7,10,0.4,0.4
2025-03-22T2300,1137A,126.593,45.7478,哈尔滨市,道里建国路,,28,,12,19,9,72,,81,73,7,10,7,10,0.3,0.3
2025-03-22T2300,1138A,126.615,45.61,哈尔滨市,平房东轻厂,颗粒物(PM10),66,81,28,34,22,7,,78,38,75,36,15,10,1.0,0.7
2025-03-22T2300,1139A,126.595,45.9855,哈尔滨市,呼兰师专,,20,13,13,12,11,61,,79,71,17,12,6,7,0.4,0.4
2025-03-22T2300,1140A,126.6206,45.6842,哈尔滨市,省农科院,,20,18,17,14,12,52,,84,72,33,15,12,9,0.6,0.5
2025-03-22T2300,2688A,93.5128,42.8172,哈密市,地区监测站,颗粒物(PM10),178,306,213,69,48,15,,84,61,81,46,9,9,0.5,0.6
2025-03-22T2300,2689A,93.4961,42.8328,哈密市,哈密师范学校,颗粒物(PM10),156,262,167,84,55,5,,85,56,86,52,5,7,1.1,0.6
2025-03-22T2300,2671A,100.9048,36.9639,海北藏族自治州,海晏县西海镇,颗粒物(PM10),57,64,66,21,21,115,,109,109,1,3,10,9,0.4,0.4
2025-03-22T2300,3867A,102.0738,36.5056,海东市,平安区公安北苑,颗粒物(PM10),69,88,89,31,34,93,,106,101,11,13,13,10,0.6,0.7
2025-03-22T2300,1410A,110.3232,20.0574,海口市,海南大学,颗粒物(PM10),51,51,49,27,28,123,,147,138,12,12,3,3,0.4,0.4
2025-03-22T2300,1411A,110.283,20.0053,海口市,秀英海南医院,,42,42,45,23,25,123,,138,130,9,16,4,5,0.4,0.4
2025-03-22T2300,1412A,110.338,19.9969,海口市,海南师范大学,,42,42,44,24,25,130,,153,140,6,8,3,4,0.5,0.5
2025-03-22T2300,1413A,110.33,20.0356,海口市,龙华路环保局宿舍,,42,42,45,26,27,133,,151,142,4,7,4,4,0.4,0.4
2025-03-22T2300,3539A,110.5111,19.9736,海口市,桂林洋子站,颗粒物(PM10),51,51,46,28,27,112,,150,120,6,10,3,4,0.3,0.4
2025-03-22T2300,2673A,100.6188,36.2866,海南藏族自治州,共和县恰卜恰镇,颗粒物(PM10),57,64,77,30,24,118,,115,114,3,6,12,10,0.3,0.4
2025-03-22T2300,2676A,97.3731,37.3753,海西蒙古族藏族自治州,德令哈市,颗粒物(PM10),62,73,74,18,19,87,,114,102,8,5,9,12,0.6,0.4
2025-03-22T2300,1048A,114.5302,36.6116,邯郸市,东污水处理厂,颗粒物(PM10),63,76,53,24,20,63,,110,97,36,24,8,9,0.8,0.7
2025-03-22T2300,1049A,114.4918,36.5713,邯郸市,矿院,颗粒物(PM10),62,74,64,19,14,70,,105,92,22,17,8,11,0.7,0.8
2025-03-22T2300,1050A,114.484,36.6133,邯郸市,丛台公园,颗粒物(PM10),65,79,52,22,18,68,,113,96,23,19,7,8,0.5,0.7
2025-03-22T2300,3458A,114.7895,36.5593,邯郸市,香泉濮院小区,颗粒物(PM10),75,99,68,30,15,69,,122,108,24,16,7,9,0,0.2
2025-03-22T2300,3579A,114.50634,36.77178,邯郸市,永年区实验高中,颗粒物(PM10),76,102,74,34,23,63,,120,103,31,19,18,23,0.9,1.5
2025-03-22T2300,3580A,114.20016,36.44293,邯郸市,峰峰矿区临水派出所,,29,,18,19,16,92,,118,108,8,7,12,12,0.5,0.5
2025-03-22T2300,2634A,106.9893,33.1842,汉中市,汉川机床厂子校,,42,42,41,25,25,83,,91,78,11,9,8,9,0.5,0.5
2025-03-22T2300,2635A,107.0154,33.0706,汉中市,市监测站,细颗粒物(PM2.5),67,72,66,48,39,49,,78,72,32,26,7,9,0.9,0.9
2025-03-22T2300,2636A,107.0089,33.1138,汉中市,鑫源开发区,细颗粒物(PM2.5),68,79,58,49,37,26,,84,61,58,31,8,12,1.0,0.9
2025-03-22T2300,2637A,107.007,33.0323,汉中市,南郑大河坎水厂,细颗粒物(PM2.5),77,81,60,56,37,21,,80,62,58,29,5,9,0.9,0.7
2025-03-22T2300,1223A,120.2072,30.2111,杭州市,滨江,细颗粒物(PM2.5),92,88,56,68,35,41,,165,127,91,41,8,8,0.8,0.5
2025-03-22T2300,1224A,120.0633,30.2747,杭州市,西溪,颗粒物(PM10),52,53,46,25,27,10,,152,98,46,30,6,7,0.4,0.4
2025-03-22T2300,1226A,120.3417,30.3150,杭州市,下沙,二氧化氮,85,102,63,49,29,3,,146,100,170,57,7,7,0.6,0.4
2025-03-22T2300,1227A,120.1269,30.2456,杭州市,卧龙桥,,40,40,39,24,23,53,,144,100,33,30,6,6,0.3,0.2
2025-03-22T2300,1228A,120.1903,30.2692,杭州市,浙江农大,细颗粒物(PM2.5),108,147,66,81,36,10,,150,98,116,52,4,4,1.1,0.5
2025-03-22T2300,1230A,120.1197,30.3119,杭州市,和睦小学,颗粒物(PM10),78,106,57,54,33,12,,155,102,91,48,8,8,1.2,0.7
2025-03-22T2300,1231A,120.3019,30.4183,杭州市,临平镇,颗粒物(PM10),83,115,73,60,32,5,,158,102,138,65,8,7,0.9,0.5
2025-03-22T2300,1232A,120.2753,30.1839,杭州市,城厢镇,颗粒物(PM10),70,90,59,47,32,54,,165,132,85,45,9,9,0.7,0.5
2025-03-22T2300,1233A,120.0883,30.1808,杭州市,云栖,,42,42,39,20,20,53,,148,102,46,36,8,8,0.4,0.4
2025-03-22T2300,3557A,119.9464,30.0494,杭州市,镇二中,细颗粒物(PM2.5),62,68,44,44,30,12,,136,86,74,47,7,8,0.8,0.6
2025-03-22T2300,3558A,119.7183,30.2367,杭州市,市府大楼,颗粒物(PM10),54,58,43,32,25,60,,138,95,34,28,8,9,0.6,0.5
2025-03-22T2300,3656A,120.1556,30.2864,杭州市,消防大队,颗粒物(PM10),55,60,53,38,33,94,,158,121,43,45,7,7,0.5,0.5
2025-03-22T2300,1270A,117.1959,31.7848,合肥市,明珠广场,颗粒物(PM10),67,83,66,36,30,19,,140,103,102,43,6,6,0.6,0.3
2025-03-22T2300,1271A,117.3072,31.8764,合肥市,三里街,颗粒物(PM10),96,141,83,66,37,2,,134,80,114,68,8,7,1.3,0.7
2025-03-22T2300,1272A,117.2588,31.8707,合肥市,琥珀山庄,颗粒物(PM10),78,105,70,53,38,15,,133,90,88,43,3,3,1.4,0.6
2025-03-22T2300,1273A,117.1604,31.9052,合肥市,董铺水库,颗粒物(PM10),62,73,64,27,22,46,,136,118,74,34,3,3,0.4,0.3
2025-03-22T2300,1274A,117.25,31.8571,合肥市,长江中路,细颗粒物(PM2.5),78,102,66,57,35,19,,140,106,100,42,9,9,0.9,0.3
2025-03-22T2300,1275A,117.266,31.9436,合肥市,庐阳区,颗粒物(PM10),68,85,64,34,26,80,,140,120,53,39,6,6,0.4,0.4
2025-03-22T2300,1276A,117.3453,31.8616,合肥市,瑶海区,颗粒物(PM10),69,88,75,42,30,18,,128,91,111,68,8,8,0.6,0.5
2025-03-22T2300,1277A,117.3027,31.7964,合肥市,包河区,颗粒物(PM10),76,102,71,46,33,2,,127,73,148,69,6,5,0.8,0.6
2025-03-22T2300,1278A,117.2776,31.7385,合肥市,滨湖新区,颗粒物(PM10),79,107,72,51,34,1,,130,92,130,63,12,10,0.8,0.4
2025-03-22T2300,1279A,117.1318,31.8403,合肥市,高新区,颗粒物(PM10),64,78,60,40,25,56,,138,112,62,29,3,3,0.7,0.5
2025-03-22T2300,3464A,117.3803,31.9147,合肥市,高教基地,颗粒物(PM10),72,94,77,42,35,39,,141,105,55,52,8,8,0.5,0.4
2025-03-22T2300,3614A,79.924,37.0877,和田地区,地区环保局,颗粒物(PM10),79,107,159,36,34,60,,93,84,32,13,1,2,0.6,0.7
2025-03-22T2300,3615A,79.9131,37.113,和田地区,市环保局,颗粒物(PM10),70,89,136,14,28,68,,101,92,31,15,1,2,0.7,0.6
2025-03-22T2300,2516A,108.2011,24.715,河池市,东仁乐园,,,,101,71,47,19,,166,,84,47,8,10,0.9,0.7
2025-03-22T2300,2517A,108.0497,24.6947,河池市,市环保站,细颗粒物(PM2.5),85,72,65,63,43,58,,166,139,42,27,7,10,0.8,0.7
2025-03-22T2300,2518A,108.0983,24.6989,河池市,市疾控中心,细颗粒物(PM2.5),95,100,74,71,51,56,,168,130,56,40,9,11,0.8,0.7
2025-03-22T2300,1696A,114.6778,23.7569,河源市,源西,颗粒物(PM10),72,94,61,41,33,18,,149,74,87,43,5,6,1.0,0.8
2025-03-22T2300,1697A,114.6944,23.7586,河源市,东埔,颗粒物(PM10),83,115,65,38,31,69,,159,96,44,37,6,5,0.8,0.7
2025-03-22T2300,1698A,114.6892,23.7233,河源市,老城,颗粒物(PM10),55,59,51,38,31,70,,162,127,36,21,10,5,0.6,0.5
2025-03-22T2300,1718A,115.4208,35.2464,菏泽市,气象局,颗粒物(PM10),87,123,88,48,33,83,,128,109,34,25,6,5,0.5,0.4
2025-03-22T2300,3374A,115.5564,35.0891,菏泽市,定陶老年大学,颗粒物(PM10),80,110,88,44,32,87,,118,104,26,26,10,6,0.4,0.4
2025-03-22T2300,4184A,115.4797,35.24401,菏泽市,永昌路1号,颗粒物(PM10),88,125,90,50,31,92,,127,113,26,26,7,10,0.3,0.2
2025-03-22T2300,4193A,115.4715,35.2800,菏泽市,长城路999号,颗粒物(PM10),82,113,84,33,25,88,,112,103,32,26,8,7,0.5,0.5
2025-03-22T2300,2514A,111.5264,24.4172,贺州市,环保小区,,,142,69,65,47,,,195,186,78,31,10,12,1.1,0.8
2025-03-22T2300,2515A,111.5608,24.4078,贺州市,政协大楼,细颗粒物(PM2.5),122,110,64,92,43,37,,182,144,82,31,16,22,1.0,0.7
2025-03-22T2300,3534A,111.4744,24.4553,贺州市,西湾,细颗粒物(PM2.5),90,101,73,67,49,62,,182,143,62,42,10,10,1.0,0.7
2025-03-22T2300,2385A,114.17,35.9019,鹤壁市,市监测站,颗粒物(PM10),72,93,66,23,21,82,,118,99,21,21,6,6,0.4,0.4
2025-03-22T2300,2386A,114.2956,35.7511,鹤壁市,市交警支队,颗粒物(PM10),65,80,68,11,15,84,,112,90,15,26,10,7,0.1,0.4
2025-03-22T2300,2387A,114.2878,35.7306,鹤壁市,迎宾馆,颗粒物(PM10),63,75,74,16,15,86,,118,96,8,16,3,3,0.4,0.4
2025-03-22T2300,3474A,114.2617,35.6822,鹤壁市,大新区,颗粒物(PM10),77,104,74,22,26,81,,110,78,21,38,7,7,0.4,0.5
2025-03-22T2300,3596A,114.1572,35.9603,鹤壁市,南山宾馆,颗粒物(PM10),68,85,66,25,24,95,,121,110,6,8,8,6,0.4,0.4
2025-03-22T2300,2244A,130.2537,47.3416,鹤岗市,哈啤分公司,,24,16,16,14,16,74,,79,78,2,2,14,15,0.3,0.3
2025-03-22T2300,2245A,130.2684,47.3086,鹤岗市,斯达机电,,32,32,22,16,15,74,,77,76,1,2,14,14,0.3,0.3
2025-03-22T2300,2246A,130.3114,47.3388,鹤岗市,东山纸板厂,,25,20,31,17,16,72,,78,77,6,4,22,20,0.3,0.3
2025-03-22T2300,2263A,127.4833,50.2524,黑河市,交通局,,26,26,16,16,13,64,,83,70,8,5,8,7,0.3,0.4
2025-03-22T2300,2264A,127.5144,50.2341,黑河市,环保局,,38,35,19,26,14,59,,82,68,16,7,3,4,0.3,0.3
2025-03-22T2300,2265A,127.5291,50.2472,黑河市,大黑河岛,,,,22,11,8,5,,9,6,15,18,3,2,,
2025-03-22T2300,1074A,115.6838,37.7541,衡水市,电机北厂,颗粒物(PM10),72,94,78,43,31,97,,114,107,19,21,13,14,0.4,0.3
2025-03-22T2300,1075A,115.6303,37.7316,衡水市,市监测站,颗粒物(PM10),65,79,68,25,23,95,,111,104,20,24,12,12,0.4,0.4
2025-03-22T2300,3188A,115.6683,37.7217,衡水市,市城管局,颗粒物(PM10),66,82,75,42,29,72,,110,94,29,26,9,11,0.4,0.4
2025-03-22T2300,3459A,115.5989,37.5491,衡水市,地表水厂,颗粒物(PM10),70,90,85,35,28,83,,116,87,29,32,11,13,0.4,0.4
2025-03-22T2300,2456A,112.5003,26.9167,衡阳市,原169医院,颗粒物(PM10),58,65,69,40,35,63,,94,72,32,43,18,16,0.5,0.5
2025-03-22T2300,2457A,112.6194,26.9258,衡阳市,衡阳化工总厂,细颗粒物(PM2.5),73,77,77,53,46,69,,140,109,28,27,9,12,0.7,0.7
2025-03-22T2300,2458A,112.6211,26.8956,衡阳市,珠晖区环保局,细颗粒物(PM2.5),88,96,69,65,43,27,,144,99,59,34,10,14,0.9,0.8
2025-03-22T2300,2459A,112.6197,26.8733,衡阳市,市委党校,细颗粒物(PM2.5),88,82,68,65,41,49,,143,121,53,29,12,14,1.0,0.7
2025-03-22T2300,2460A,112.6006,26.8919,衡阳市,市监测站,细颗粒物(PM2.5),120,126,84,91,55,9,,133,78,73,40,10,16,1.6,1
2025-03-22T2300,2461A,112.5664,26.9056,衡阳市,真空机电公司,细颗粒物(PM2.5),85,108,86,63,48,20,,141,97,86,50,7,18,1.2,1.2
2025-03-22T2300,3399A,112.6703,26.882,衡阳市,师范学院,细颗粒物(PM2.5),87,94,68,64,45,38,,141,108,40,21,11,14,0.9,0.6
2025-03-22T2300,2608A,103.3772,23.3993,红河哈尼族彝族自治州,污水处理厂,细颗粒物(PM2.5),104,96,76,78,62,109,,130,119,17,13,24,12,0.6,0.6
2025-03-22T2300,2609A,103.3861,23.35,红河哈尼族彝族自治州,监测站,细颗粒物(PM2.5),92,96,85,68,54,132,,133,128,10,11,10,10,0.5,0.4
2025-03-22T2300,3038A,103.3758,23.368,红河哈尼族彝族自治州,州图书馆,细颗粒物(PM2.5),95,90,75,71,53,124,,129,124,13,12,9,9,0.5,0.5
2025-03-22T2300,1090A,111.6507,40.7517,呼和浩特市,呼市一监,颗粒物(PM10),111,171,111,56,49,52,,101,86,31,23,16,13,0.8,0.8
2025-03-22T2300,1091A,111.6572,40.8033,呼和浩特市,小召,颗粒物(PM10),114,178,112,54,44,15,,99,76,78,34,12,8,0.6,0.5
2025-03-22T2300,1094A,111.7516,40.8369,呼和浩特市,如意水处理厂,颗粒物(PM10),97,144,96,57,38,17,,100,82,79,36,10,11,0.8,0.5
2025-03-22T2300,1095A,111.7276,40.8062,呼和浩特市,二十九中,颗粒物(PM10),102,154,104,57,42,40,,101,84,59,32,10,8,0.6,0.5
2025-03-22T2300,1096A,111.5512,40.7866,呼和浩特市,工大金川校区,颗粒物(PM10),97,143,104,51,42,8,,105,73,83,42,12,12,0.7,0.6
2025-03-22T2300,1097A,111.717,40.7612,呼和浩特市,化肥厂生活区,颗粒物(PM10),116,182,119,58,45,49,,107,86,43,32,14,12,0.6,0.6
2025-03-22T2300,3698A,111.5968,40.8178,呼和浩特市,红旗小学,颗粒物(PM10),90,129,104,30,38,30,,108,78,76,45,4,9,0.5,0.6
2025-03-22T2300,3699A,111.6518,40.8389,呼和浩特市,海东办,颗粒物(PM10),81,112,100,36,39,16,,103,78,74,33,5,9,0.7,0.6
2025-03-22T2300,2192A,119.7594,49.2261,呼伦贝尔市,区环保局,,29,,24,20,23,62,,89,81,16,13,4,5,0.3,0.3
2025-03-22T2300,3061A,119.7512,49.1577,呼伦贝尔市,国华电力东,,32,32,25,13,14,64,,94,85,11,6,4,5,0.4,0.4
2025-03-22T2300,1250A,120.0751,30.8669,湖州市,城西水厂,颗粒物(PM10),59,67,58,30,28,18,,126,62,103,78,8,10,0.3,0.3
2025-03-22T2300,2873A,120.0830,30.8929,湖州市,仁皇山新区,颗粒物(PM10),52,53,53,25,26,54,,150,106,65,54,5,7,0.5,0.5
2025-03-22T2300,2907A,120.1844,30.8596,湖州市,吴兴区站,颗粒物(PM10),54,58,50,31,29,64,,144,104,54,55,9,8,0.2,0.3
2025-03-22T2300,3562A,120.4148,30.8538,湖州市,南浔区站,颗粒物(PM10),62,74,65,38,36,108,,148,125,27,49,6,6,0.3,0.4
2025-03-22T2300,1607A,120.9049,40.7211,葫芦岛市,龙港区,颗粒物(PM10),105,160,56,35,13,20,,93,68,73,28,399,28,1.7,0.5
2025-03-22T2300,1608A,120.8392,40.7514,葫芦岛市,化工街,颗粒物(PM10),117,183,72,83,26,6,,92,56,94,41,52,17,1.2,0.6
2025-03-22T2300,1609A,120.8341,40.7073,葫芦岛市,新区,细颗粒物(PM2.5),63,56,48,45,15,7,,94,70,89,24,25,12,1.1,0.4
2025-03-22T2300,1610A,120.8695,40.7677,葫芦岛市,东城区,颗粒物(PM10),110,170,74,49,24,4,,92,49,96,46,20,26,1.1,0.7
2025-03-22T2300,2483A,109.9453,27.5444,怀化市,河西地税局,细颗粒物(PM2.5),60,60,57,43,41,42,,95,88,27,21,10,10,0.5,0.5
2025-03-22T2300,2484A,109.9781,27.5342,怀化市,市四医院,细颗粒物(PM2.5),68,67,86,49,50,46,,91,84,29,36,24,13,0.6,0.6
2025-03-22T2300,2485A,109.9972,27.5578,怀化市,监测楼,颗粒物(PM10),65,79,74,46,45,30,,81,72,38,34,25,17,0.6,0.5
2025-03-22T2300,2486A,110.0394,27.583,怀化市,市委党校,细颗粒物(PM2.5),68,74,68,49,43,24,,89,79,46,31,33,15,0.5,0.5
2025-03-22T2300,1210A,119.036,33.5981,淮安市,钵池山,颗粒物(PM10),62,73,65,30,30,89,,127,114,26,22,10,15,0.6,1
2025-03-22T2300,1211A,119.007,33.575,淮安市,北京南路,颗粒物(PM10),67,83,70,30,32,50,,122,95,60,35,9,19,0.6,1.3
2025-03-22T2300,1212A,118.989,33.6067,淮安市,市监测站,颗粒物(PM10),59,68,58,24,28,78,,134,119,50,23,11,10,0.7,0.8
2025-03-22T2300,1213A,119.135,33.5039,淮安市,楚州区监测站,颗粒物(PM10),68,85,71,31,30,59,,126,94,39,28,9,9,0.4,0.4
2025-03-22T2300,3426A,118.8755,33.2894,淮安市,新华书店,颗粒物(PM10),59,67,61,28,30,95,,133,116,22,19,9,9,0.8,0.8
2025-03-22T2300,4206A,119.0288,33.6319,淮安市,承德北路606号,细颗粒物(PM2.5),129,,78,98,98,92,,111,108,30,29,11,10,0.5,0.6
2025-03-22T2300,2282A,116.8004,33.975,淮北市,监测站,颗粒物(PM10),75,99,76,42,34,69,,123,100,42,26,8,9,0.7,0.6
2025-03-22T2300,2283A,116.8091,33.9007,淮北市,烈山区政府,颗粒物(PM10),85,120,89,51,40,41,,132,100,78,36,15,11,0.8,0.8
2025-03-22T2300,3330A,116.8873,33.9836,淮北市,杜集区检察院,颗粒物(PM10),85,119,90,49,37,70,,132,114,41,26,12,10,0.7,0.7
2025-03-22T2300,4017A,116.7923,33.9535,淮北市,市博物馆,颗粒物(PM10),93,135,85,63,38,58,,128,95,50,25,13,11,1.1,0.8
2025-03-22T2300,2277A,116.8305,32.7727,淮南市,潘集区政府,颗粒物(PM10),70,89,81,44,39,82,,138,107,36,24,10,7,0.5,0.4
2025-03-22T2300,2279A,116.8569,32.5951,淮南市,谢家集区政府,颗粒物(PM10),54,57,72,20,33,120,,141,125,12,17,8,8,0.4,0.4
2025-03-22T2300,2280A,116.8281,32.633,淮南市,八公山区政府,颗粒物(PM10),57,63,63,20,29,125,,133,123,6,8,8,7,0.2,0.3
2025-03-22T2300,2281A,116.6325,32.6201,淮南市,焦岗湖风景区管理处,,,72,55,29,26,,,88,75,21,14,7,7,0.6,0.5
2025-03-22T2300,2894A,117.0566,32.6531,淮南市,经济技术开发区消防队,颗粒物(PM10),65,79,71,21,30,103,,148,120,22,15,10,8,0.4,0.3
2025-03-22T2300,3329A,117.0108,32.5893,淮南市,山南新区,颗粒物(PM10),61,72,77,27,35,105,,144,120,14,12,10,8,0.5,0.6
2025-03-22T2300,4209A,117.0031,32.6445,淮南市,国庆中路369号,颗粒物(PM10),61,71,73,30,32,111,,143,114,17,21,13,10,0.6,0.6
2025-03-22T2300,2446A,114.9028,30.4742,黄冈市,职工中心,细颗粒物(PM2.5),54,55,61,38,42,97,,154,121,35,38,7,10,0.7,0.7
2025-03-22T2300,2929A,114.8858,30.4519,黄冈市,红卫路,颗粒物(PM10),54,58,65,34,38,109,,156,140,28,34,8,10,0.6,0.7
2025-03-22T2300,3398A,114.9136,30.4445,黄冈市,市林业局,细颗粒物(PM2.5),62,72,67,44,39,61,,169,130,56,35,18,13,1.0,0.7
2025-03-22T2300,2672A,102.0199,35.5102,黄南藏族自治州,同仁县隆务镇,颗粒物(PM10),88,126,72,34,28,103,,103,101,2,5,15,14,0.2,0.3
2025-03-22T2300,2295A,118.2903,29.6963,黄山市,延安路89号,细颗粒物(PM2.5),52,52,38,36,25,58,,138,109,22,12,6,5,0.4,0.2
2025-03-22T2300,2297A,118.1371,30.2756,黄山市,黄山区政府5号楼,细颗粒物(PM2.5),77,94,55,56,31,38,,135,96,16,7,8,8,0.8,0.6
2025-03-22T2300,4210A,118.3354,29.7203,黄山市,滨江东路7-2号,颗粒物(PM10),55,60,45,35,25,40,,134,89,23,12,5,5,0.5,0.4
2025-03-22T2300,2423A,115.0601,30.2313,黄石市,沈家营,颗粒物(PM10),62,73,69,35,39,108,,159,133,18,38,7,13,0.7,0.7
2025-03-22T2300,2426A,114.8988,30.2019,黄石市,铁山,颗粒物(PM10),81,112,68,54,35,50,,159,104,33,28,10,10,0.4,0.4
2025-03-22T2300,2427A,115.0307,30.2092,黄石市,团城山,颗粒物(PM10),53,55,62,31,32,97,,150,132,35,46,13,15,0.7,0.8
2025-03-22T2300,3149A,115.0235,30.1578,黄石市,笔架山北路,颗粒物(PM10),51,52,51,34,32,70,,161,129,39,22,14,15,1.0,0.8
2025-03-22T2300,4185A,115.0780,30.21118,黄石市,磁湖东路29号,细颗粒物(PM2.5),57,62,74,40,42,76,,157,123,35,50,7,13,0.7,0.8
2025-03-22T2300,1392A,114.4183,23.0528,惠州市,河南岸金山湖子站,,50,50,50,24,30,106,,144,121,24,26,10,10,0.6,0.7
2025-03-22T2300,1393A,114.4053,23.0822,惠州市,下埔横江三路子站,颗粒物(PM10),51,52,55,28,32,106,,164,136,30,25,11,10,0.5,0.6
2025-03-22T2300,1394A,114.4103,23.1142,惠州市,江北云山西路子站,颗粒物(PM10),52,54,56,25,29,114,,183,151,32,27,14,11,0.3,0.5
2025-03-22T2300,1395A,114.4645,22.7833,惠州市,惠阳区承修路船湖子站,,42,42,50,18,26,98,,161,127,34,30,10,12,0.7,0.6
2025-03-22T2300,1396A,114.5317,22.7422,惠州市,大亚湾管委会子站,,49,49,45,21,21,104,,160,131,33,36,8,9,0.5,0.5
2025-03-22T2300,3314A,114.4338,22.8134,惠州市,惠阳秋长,,46,46,53,16,26,107,,180,144,34,26,14,13,0.5,0.6
2025-03-22T2300,3452A,114.6517,22.775,惠州市,大亚湾霞涌,,39,39,38,19,20,100,,159,138,23,19,5,6,0.3,0.3
2025-03-22T2300,2240A,130.9762,45.3001,鸡西市,环保局,,25,25,11,8,4,75,,87,78,8,5,8,6,0.2,0.2
2025-03-22T2300,2243A,130.9429,45.3039,鸡西市,第一中学,,24,13,8,6,4,74,,86,82,9,4,6,5,0.2,0.1
2025-03-22T2300,3707A,131.0207,45.3073,鸡西市,欧美日汽修厂,,32,32,16,13,9,74,,100,85,12,7,9,6,0.4,0.3
2025-03-22T2300,3709A,130.9967,45.3106,鸡西市,市政设施管理处,,31,31,17,8,6,59,,83,67,17,12,7,5,0.3,0.3
2025-03-22T2300,2367A,114.9754,27.0803,吉安市,红声器材厂,颗粒物(PM10),67,84,54,37,25,32,,137,96,73,28,13,15,0.6,0.5
2025-03-22T2300,2368A,114.9658,27.0999,吉安市,市森林工业局,颗粒物(PM10),67,84,52,36,25,10,,133,85,100,40,10,15,0.8,0.4
2025-03-22T2300,2369A,114.99,27.1312,吉安市,市环境监测站,颗粒物(PM10),66,82,50,27,26,13,,138,94,76,29,39,24,0.5,0.2
2025-03-22T2300,2370A,115.0093,27.0968,吉安市,青原区法院,颗粒物(PM10),59,67,49,31,26,23,,151,99,61,35,11,14,0.4,0.3
2025-03-22T2300,1772A,126.54,43.8622,吉林市,哈达湾,细颗粒物(PM2.5),120,125,94,91,58,72,,95,84,25,22,10,14,0.8,0.7
2025-03-22T2300,1773A,126.5844,43.8358,吉林市,东局子,细颗粒物(PM2.5),114,104,66,86,43,54,,99,82,34,19,10,9,0.8,0.6
2025-03-22T2300,1774A,126.5052,43.8245,吉林市,电力学院,细颗粒物(PM2.5),159,133,87,121,67,64,,96,78,28,24,10,12,0.6,0.5
2025-03-22T2300,1775A,126.6133,43.8972,吉林市,江北,细颗粒物(PM2.5),89,80,74,66,51,70,,94,72,24,22,5,4,0.5,0.5
2025-03-22T2300,1776A,126.555,43.8306,吉林市,江南公园,细颗粒物(PM2.5),109,96,69,82,48,58,,95,79,34,22,10,11,0.7,0.6
2025-03-22T2300,1778A,126.7061,43.7133,吉林市,丰满,,23,23,41,12,30,60,,102,88,8,13,5,7,0.7,0.6
2025-03-22T2300,2868A,126.4739,43.953,吉林市,九站,,,261,110,,77,51,,92,74,45,28,19,23,1.0,0.7
2025-03-22T2300,1299A,116.9862,36.6114,济南市,科干所,颗粒物(PM10),67,83,72,29,22,122,,120,120,16,25,12,9,0.5,0.5
2025-03-22T2300,1300A,116.9376,36.665,济南市,农科所,颗粒物(PM10),78,105,82,27,21,82,,108,96,48,36,11,10,0.8,0.7
2025-03-22T2300,1301A,117.1265,36.6734,济南市,开发区,颗粒物(PM10),66,81,65,27,22,128,,118,118,15,20,12,9,0.5,0.5
2025-03-22T2300,1303A,117.0624,36.6868,济南市,省种子仓库,颗粒物(PM10),73,95,82,31,24,114,,110,109,19,24,9,7,0.7,0.7
2025-03-22T2300,1304A,116.9489,36.6447,济南市,机床二厂,颗粒物(PM10),74,98,99,29,27,107,,104,99,22,34,14,11,0.8,0.8
2025-03-22T2300,1305A,117.0495,36.663,济南市,市监测站,颗粒物(PM10),67,83,75,32,23,119,,106,106,17,24,13,10,0.5,0.5
2025-03-22T2300,1306A,116.7675,36.5484,济南市,长清党校,颗粒物(PM10),57,63,66,22,25,118,,122,122,34,34,10,9,0.8,0.8
2025-03-22T2300,1616A,117.6795,36.229,济南市,技术学院,颗粒物(PM10),67,83,94,44,44,102,,114,110,24,49,13,18,0.5,1.3
2025-03-22T2300,1961A,117.532,36.6868,济南市,东山小学,颗粒物(PM10),62,73,70,24,20,114,,112,108,10,14,8,8,0.6,0.7
2025-03-22T2300,3059A,117.7161,36.2049,济南市,泰兴公司,颗粒物(PM10),81,112,95,56,45,24,,110,80,77,53,10,12,0.8,0.9
2025-03-22T2300,3064A,117.6867,36.2171,济南市,莱芜战役纪念馆,颗粒物(PM10),75,100,95,41,40,100,,114,110,27,47,9,13,0.5,1.1
2025-03-22T2300,3494A,117.1673,36.9782,济南市,济阳区政府,颗粒物(PM10),77,103,88,27,26,79,,103,95,35,23,10,15,0.3,0.4
2025-03-22T2300,3495A,117.1171,36.63,济南市,锦屏中学,,,71,58,24,18,,,117,117,15,17,11,11,0.3,0.3
2025-03-22T2300,3682A,116.9814,36.6819,济南市,济南四建,颗粒物(PM10),71,92,84,37,28,104,,106,103,26,27,11,8,0.4,0.3
2025-03-22T2300,1653A,116.6251,35.4302,济宁市,火炬城,颗粒物(PM10),78,106,76,53,35,76,,128,118,34,26,12,12,0.4,0.3
2025-03-22T2300,1655A,116.5491,35.4042,济宁市,电化厂,颗粒物(PM10),98,145,107,63,42,34,,122,100,84,38,16,13,0.6,0.5
2025-03-22T2300,3500A,116.5814,35.3707,济宁市,北湖一中,颗粒物(PM10),74,98,77,36,30,67,,122,104,47,34,25,14,0.4,0.4
2025-03-22T2300,3501A,116.8249,35.5593,济宁市,服务中心,颗粒物(PM10),88,125,95,43,32,33,,124,101,86,54,8,9,0.6,0.7
2025-03-22T2300,3678A,116.5907,35.4054,济宁市,市第七中学,颗粒物(PM10),80,110,85,48,33,78,,130,115,36,33,10,9,0.4,0.6
2025-03-22T2300,2255A,130.2751,46.8028,佳木斯市,佳纺,,23,23,19,12,7,60,,83,72,12,10,5,5,0.6,0.5
2025-03-22T2300,2256A,130.3995,46.8307,佳木斯市,发电厂,,22,16,15,11,8,68,,87,79,5,5,2,3,0.5,0.5
2025-03-22T2300,2257A,130.3258,46.7975,佳木斯市,环保局,,24,24,15,9,8,67,,85,73,18,15,4,3,0.3,0.2
2025-03-22T2300,2258A,130.3648,46.8032,佳木斯市,十一中,,23,17,15,10,8,73,,85,78,11,9,5,4,0.3,0.3
2025-03-22T2300,2259A,130.3794,46.7588,佳木斯市,四丰,,19,17,15,7,6,58,,78,64,10,6,1,1,0.7,0.7
2025-03-22T2300,1252A,120.7436,30.778,嘉兴市,清河小学,细颗粒物(PM2.5),93,118,71,69,39,48,,140,94,81,68,6,7,0.8,0.5
2025-03-22T2300,1253A,120.726,30.7478,嘉兴市,嘉兴学院,细颗粒物(PM2.5),105,127,75,79,43,45,,155,103,90,55,9,10,1.0,0.8
2025-03-22T2300,2872A,120.7846,30.7525,嘉兴市,南湖区残联,细颗粒物(PM2.5),68,82,68,49,38,83,,165,133,56,46,10,10,0.4,0.3
2025-03-22T2300,3407A,120.6916,30.7739,嘉兴市,秀洲住建,细颗粒物(PM2.5),74,93,78,54,46,3,,168,92,124,70,7,8,0.6,0.3
2025-03-22T2300,1945A,98.2908,39.7711,嘉峪关市,气象局,颗粒物(PM10),183,315,222,73,40,,,110,107,9,7,3,3,0.2,0.2
2025-03-22T2300,2884A,98.2672,39.7978,嘉峪关市,酒钢宾馆,颗粒物(PM10),245,381,289,75,40,89,,108,103,6,6,3,4,0.2,0.2
2025-03-22T2300,3248A,98.2643,39.7724,嘉峪关市,雄关区,颗粒物(PM10),157,264,171,58,35,84,,107,100,13,12,4,4,0.5,0.4
2025-03-22T2300,1383A,113.1064,22.6058,江门市,北街,颗粒物(PM10),52,54,66,22,40,90,,255,198,33,33,4,5,0.6,0.6
2025-03-22T2300,1384A,113.0731,22.5835,江门市,西区,颗粒物(PM10),54,57,75,21,41,114,,266,204,42,42,9,9,0.6,0.6
2025-03-22T2300,1385A,113.0219,22.5311,江门市,圭峰西,,37,28,59,18,35,118,,230,180,28,29,7,7,0.4,0.5
2025-03-22T2300,1386A,113.0828,22.5947,江门市,东湖,,49,42,66,34,41,119,,267,208,31,32,9,9,0.5,0.5
2025-03-22T2300,3311A,113.1075,22.5647,江门市,江海富民,颗粒物(PM10),68,85,81,29,41,104,,253,191,29,32,8,8,0.6,0.5
2025-03-22T2300,3449A,113.05,22.4667,江门市,新会银湖,,38,38,61,20,39,108,,206,161,29,38,3,3,0.4,0.5
2025-03-22T2300,3169A,113.2725,35.2067,焦作市,太极体育中心,颗粒物(PM10),64,78,82,30,28,73,,122,98,31,16,10,9,0.6,0.5
2025-03-22T2300,3335A,113.3137,35.2641,焦作市,马村街道办,颗粒物(PM10),74,97,78,31,28,75,,119,103,25,13,13,9,0.5,0.5
2025-03-22T2300,3336A,113.2465,35.2373,焦作市,焦作技师学院,颗粒物(PM10),74,98,82,27,27,73,,124,102,30,18,9,8,0.6,0.4
2025-03-22T2300,3477A,113.1656,35.2539,焦作市,中站许衡医院,颗粒物(PM10),84,117,67,45,29,36,,119,97,68,18,26,11,0.8,0.7
2025-03-22T2300,3981A,113.2449,35.1803,焦作市,原李万街道办,颗粒物(PM10),77,104,77,27,20,76,,117,95,32,23,12,11,0.6,0.5
2025-03-22T2300,4264A,113.2340,35.2190,焦作市,新安路1731号,颗粒物(PM10),73,95,90,32,28,72,,114,,27,16,10,10,0.7,0.5
2025-03-22T2300,1708A,116.3701,23.5345,揭阳市,新兴,,46,43,59,32,38,100,,154,128,34,33,14,10,1.3,0.7
2025-03-22T2300,1709A,116.3264,23.5443,揭阳市,西马,,47,47,62,26,36,106,,147,131,25,29,13,12,1.2,0.7
2025-03-22T2300,1710A,116.3611,23.5626,揭阳市,东兴,颗粒物(PM10),56,61,68,39,32,65,,94,,43,32,25,9,0.9,0.7
2025-03-22T2300,1711A,116.4151,23.5294,揭阳市,渔湖,,47,47,53,25,36,79,,155,131,42,29,12,8,0.9,0.6
2025-03-22T2300,3320A,116.403,23.5699,揭阳市,曲溪,颗粒物(PM10),72,94,63,39,35,51,,173,135,75,39,28,11,0.9,0.6
2025-03-22T2300,1944A,102.1692,38.5167,金昌市,天庆家园,颗粒物(PM10),72,94,88,27,32,97,,105,103,8,10,12,9,0.8,0.8
2025-03-22T2300,4022A,102.1647,38.5371,金昌市,金川区人防中心,颗粒物(PM10),82,113,140,26,30,99,,105,101,11,20,11,13,0.6,0.4
2025-03-22T2300,4239A,102.1930,38.5319,金昌市,长春路96号,颗粒物(PM10),96,142,130,28,32,94,,108,103,12,10,14,18,0.6,0.6
2025-03-22T2300,1262A,119.647,29.077,金华市,十五中,颗粒物(PM10),53,55,53,30,29,61,,150,104,44,35,5,7,0.6,0.4
2025-03-22T2300,1263A,119.686,29.1029,金华市,监测站,颗粒物(PM10),55,59,48,33,26,68,,153,118,46,28,7,7,0.3,0.3
2025-03-22T2300,3659A,119.656,29.1131,金华市,气象局,,40,40,43,27,27,68,,152,106,35,43,5,7,0.5,0.5
2025-03-22T2300,1767A,121.1115,41.0879,锦州市,南山,细颗粒物(PM2.5),108,108,66,81,38,14,,100,56,74,33,34,25,1.2,0.8
2025-03-22T2300,1768A,121.0604,40.8428,锦州市,开发区,,48,48,79,28,30,39,,80,45,49,56,10,18,0.9,0.7
2025-03-22T2300,1769A,121.1836,41.1119,锦州市,百股街道,颗粒物(PM10),95,139,78,66,34,6,,94,29,75,35,139,24,1.3,0.8
2025-03-22T2300,1770A,121.1178,41.1222,锦州市,天安街道,细颗粒物(PM2.5),105,99,70,79,33,15,,101,48,69,33,17,15,1.2,0.8
2025-03-22T2300,1771A,121.1303,41.1386,锦州市,北湖公园,颗粒物(PM10),70,90,64,49,30,28,,98,50,46,28,15,18,0.9,0.7
2025-03-22T2300,2160A,112.85,35.5051,晋城市,自来水公司,颗粒物(PM10),63,76,63,19,18,87,,110,100,17,18,7,8,0.4,0.6
2025-03-22T2300,2161A,112.8318,35.4936,晋城市,白云商贸,颗粒物(PM10),60,69,70,14,10,93,,112,100,17,15,5,6,0.3,0.3
2025-03-22T2300,2162A,112.8508,35.4887,晋城市,市环保局,颗粒物(PM10),63,76,67,17,17,89,,112,100,17,14,4,5,0.4,0.4
2025-03-22T2300,2163A,112.8676,35.4897,晋城市,技术学院,颗粒物(PM10),57,64,66,14,14,82,,103,90,11,14,6,7,0.4,0.5
2025-03-22T2300,3620A,112.8271,35.4828,晋城市,泽州一中,颗粒物(PM10),51,51,45,19,15,97,,113,105,11,11,4,8,0.3,0.3
2025-03-22T2300,2173A,112.7249,37.7067,晋中市,南都小区,,,119,105,34,37,,,107,93,84,36,7,21,0.8,0.7
2025-03-22T2300,2174A,112.6991,37.6982,晋中市,榆次区政府,颗粒物(PM10),87,124,113,26,32,25,,110,83,68,37,6,20,0.5,0.7
2025-03-22T2300,2865A,112.7195,37.6828,晋中市,榆次三中,颗粒物(PM10),82,114,114,31,34,43,,110,86,56,39,4,16,0.4,0.6
2025-03-22T2300,4200A,112.7478,37.6954,晋中市,迎宾街26号,颗粒物(PM10),87,124,114,41,36,22,,112,84,64,34,6,17,0.4,0.4
2025-03-22T2300,2439A,112.2014,31.0481,荆门市,竹园小学,颗粒物(PM10),60,70,75,36,42,122,,151,139,15,20,6,8,0.3,0.4
2025-03-22T2300,2440A,112.1969,30.9891,荆门市,掇刀,颗粒物(PM10),65,79,72,39,40,96,,148,128,25,26,7,10,0.4,0.4
2025-03-22T2300,2441A,112.2213,31.0386,荆门市,石化一小,颗粒物(PM10),60,70,79,42,40,97,,133,121,24,28,13,12,0.3,0.5
2025-03-22T2300,3012A,112.1849,31.0362,荆门市,西山林语,颗粒物(PM10),57,64,63,36,36,112,,152,135,17,17,6,8,0.3,0.2
2025-03-22T2300,3547A,112.1632,31.0138,荆门市,龙泉中学南校,颗粒物(PM10),65,80,75,42,41,84,,146,120,22,21,7,9,0.4,0.4
2025-03-22T2300,1844A,112.2494,30.3197,荆州市,市图书馆,细颗粒物(PM2.5),72,76,63,52,49,77,,130,108,39,36,10,10,0.6,0.5
2025-03-22T2300,1845A,112.2008,30.3544,荆州市,市委党校,细颗粒物(PM2.5),70,76,70,51,46,64,,126,104,51,28,10,10,0.4,0.4
2025-03-22T2300,3194A,112.2747,30.3122,荆州市,管委会,细颗粒物(PM2.5),72,89,69,52,46,85,,131,109,31,28,15,11,0.5,0.5
2025-03-22T2300,4268A,112.1722,30.3366,荆州市,学苑路85号,细颗粒物(PM2.5),75,64,62,55,48,39,,129,84,57,31,9,9,0.6,0.5
2025-03-22T2300,2343A,117.2117,29.2933,景德镇市,老干部活动中心,颗粒物(PM10),63,76,55,40,31,42,,148,101,46,32,7,9,0.5,0.4
2025-03-22T2300,2344A,117.1894,29.2789,景德镇市,兽医站,颗粒物(PM10),64,78,60,36,27,39,,135,94,41,26,5,8,0.6,0.5
2025-03-22T2300,2345A,117.1547,29.2617,景德镇市,台达陶瓷,颗粒物(PM10),100,150,74,59,33,33,,136,85,58,42,31,26,0.9,0.7
2025-03-22T2300,2346A,117.2461,29.2956,景德镇市,陶研所,细颗粒物(PM2.5),60,58,47,43,33,36,,142,101,40,26,5,4,0.8,0.8
2025-03-22T2300,1803A,115.9872,29.6815,九江市,十里,细颗粒物(PM2.5),70,82,49,51,31,26,,150,98,81,42,1,3,0.8,0.6
2025-03-22T2300,1804A,115.9584,29.7046,九江市,茅山头,颗粒物(PM10),62,73,58,39,29,62,,146,114,54,39,8,7,0.5,0.5
2025-03-22T2300,1805A,115.9877,29.7295,九江市,西园,颗粒物(PM10),61,71,51,42,27,50,,148,122,74,56,7,9,0.9,0.6
2025-03-22T2300,1808A,115.9114,29.6038,九江市,综合工业园,颗粒物(PM10),65,80,58,38,33,84,,157,122,60,49,11,10,0.7,0.6
2025-03-22T2300,1809A,116.0721,29.7535,九江市,石化总厂,细颗粒物(PM2.5),64,50,42,46,35,99,,146,129,28,28,13,14,0.6,0.5
2025-03-22T2300,1810A,115.9773,29.5698,九江市,庐山气象台,,48,48,33,28,23,140,,147,147,6,5,6,7,0.5,0.7
2025-03-22T2300,3190A,116.0254,29.6994,九江市,外国语学校,颗粒物(PM10),62,74,50,40,28,43,,141,100,69,45,2,6,0.7,0.6
2025-03-22T2300,4253A,116.0102,29.6594,九江市,莲花大道8号,,46,46,40,32,24,96,,142,126,11,14,6,12,0.4,0.4
2025-03-22T2300,4240A,98.4958,39.7339,酒泉市,玉门东路5号,颗粒物(PM10),202,351,246,73,40,77,,102,92,10,7,7,9,0.2,0.2
2025-03-22T2300,4241A,98.5099,39.7506,酒泉市,北大街108号,颗粒物(PM10),196,342,265,81,47,77,,100,91,10,11,8,10,0.2,0.3
2025-03-22T2300,2698A,76.0072,39.4467,喀什地区,巡警大队,细颗粒物(PM2.5),122,179,207,92,57,38,,115,104,116,46,14,6,2.2,0.7
2025-03-22T2300,2699A,75.9755,39.4694,喀什地区,吾办,颗粒物(PM10),106,161,204,61,71,28,,110,95,86,50,3,3,1.4,1
2025-03-22T2300,4027A,75.9483,39.4689,喀什地区,老干局,颗粒物(PM10),118,185,197,86,57,28,,81,74,99,48,9,4,1.7,0.9
2025-03-22T2300,1824A,114.3389,34.7781,开封市,肿瘤医院,颗粒物(PM10),78,106,90,33,29,59,,121,89,42,35,8,8,0.7,0.6
2025-03-22T2300,1826A,114.2885,34.7965,开封市,世纪星幼儿园,颗粒物(PM10),78,105,90,32,36,80,,129,97,40,45,6,6,0.6,0.6
2025-03-22T2300,3147A,114.3438,34.8106,开封市,龙亭公园,颗粒物(PM10),83,116,86,42,27,85,,124,100,32,37,5,5,1.0,0.9
2025-03-22T2300,3210A,114.3644,34.7964,开封市,汴京公园,颗粒物(PM10),79,108,94,30,30,81,,129,100,39,41,7,7,0.6,0.6
2025-03-22T2300,3473A,114.2485,34.8306,开封市,技师学院,颗粒物(PM10),71,92,76,34,28,81,,118,102,33,30,11,12,0.6,0.6
2025-03-22T2300,3592A,114.4644,34.7556,开封市,祥符区生态环境局,颗粒物(PM10),89,127,106,40,40,44,,121,91,59,42,11,10,0.9,0.7
2025-03-22T2300,1951A,84.895,45.6094,克拉玛依市,长征新村,颗粒物(PM10),76,101,72,22,22,67,,81,66,18,30,7,8,0.3,0.4
2025-03-22T2300,1952A,84.8988,45.5893,克拉玛依市,南林小区,颗粒物(PM10),76,101,81,12,27,74,,71,70,7,24,3,4,0.2,0.4
2025-03-22T2300,1954A,84.905,44.3396,克拉玛依市,独山子区,细颗粒物(PM2.5),79,90,72,58,44,98,,107,91,12,16,10,13,0.6,0.6
2025-03-22T2300,1955A,85.6979,46.098,克拉玛依市,乌尔禾区商贸楼,,26,,72,11,22,81,,90,89,7,20,5,6,0.3,0.5
2025-03-22T2300,3612A,85.1045,45.6899,克拉玛依市,白碱滩区新站,,48,48,79,8,21,76,,61,61,4,32,8,9,0.2,0.4
2025-03-22T2300,2697A,76.1454,39.7142,克孜勒苏柯尔克孜自治州,市人民政府,颗粒物(PM10),101,151,188,49,57,54,,131,117,65,12,6,5,0.7,0.5
2025-03-22T2300,3665A,76.1658,39.7157,克孜勒苏柯尔克孜自治州,克州文化中心,颗粒物(PM10),105,159,192,54,57,63,,130,119,,10,7,5,,0.5
2025-03-22T2300,1450A,102.8204,24.8886,昆明市,呈贡新区,细颗粒物(PM2.5),89,73,53,66,47,89,,119,109,27,17,5,7,0.6,0.6
2025-03-22T2300,1452A,102.7252,25.0902,昆明市,龙泉镇,细颗粒物(PM2.5),72,66,57,52,43,61,,116,102,43,33,8,7,0.8,0.8
2025-03-22T2300,1453A,102.7266,25.0375,昆明市,东风东路,细颗粒物(PM2.5),79,68,60,58,47,94,,112,102,22,33,8,8,0.6,0.7
2025-03-22T2300,1454A,102.6742,25.0669,昆明市,金鼎山,细颗粒物(PM2.5),75,64,58,55,42,67,,110,100,43,28,6,5,0.7,0.7
2025-03-22T2300,1455A,102.6644,25.0401,昆明市,碧鸡广场,细颗粒物(PM2.5),79,77,55,58,44,58,,115,99,52,31,8,8,0.6,0.6
2025-03-22T2300,3179A,102.7494,25.0119,昆明市,官渡区博物馆,细颗粒物(PM2.5),82,71,62,60,42,85,,118,105,26,28,8,8,0.5,0.7
2025-03-22T2300,3375A,102.8017,24.8336,昆明市,青年创业园,细颗粒物(PM2.5),77,76,56,56,47,83,,122,114,28,19,7,8,0.7,0.6
2025-03-22T2300,3550A,102.7997,24.9786,昆明市,昆明学院,细颗粒物(PM2.5),79,80,62,58,46,96,,119,110,19,21,5,5,0.6,0.6
2025-03-22T2300,3551A,102.5967,24.6736,昆明市,晋宁区生态环境分局,细颗粒物(PM2.5),85,68,48,63,45,87,,125,113,17,13,6,10,0.8,0.6
2025-03-22T2300,3552A,102.6678,24.9856,昆明市,云天化总部,细颗粒物(PM2.5),69,65,51,50,39,111,,126,121,12,23,7,7,0.4,0.5
2025-03-22T2300,1456A,91.1319,29.6514,拉萨市,八廓街,,35,13,23,8,9,110,,123,117,7,7,6,6,0.4,0.4
2025-03-22T2300,1457A,91.1221,29.6747,拉萨市,市环保局,,32,19,28,8,10,100,,116,110,12,13,7,7,0.6,0.5
2025-03-22T2300,1458A,91.0874,29.6475,拉萨市,区监测站,,31,10,21,6,8,98,,118,112,7,9,5,5,0.3,0.3
2025-03-22T2300,1459A,91.1774,29.6541,拉萨市,西藏大学,,31,9,23,7,8,99,,116,111,8,8,5,5,0.6,0.5
2025-03-22T2300,1460A,90.9798,29.6588,拉萨市,区辐射站,,30,19,28,8,10,93,,116,108,16,14,7,7,0.5,0.4
2025-03-22T2300,1461A,91.0834,29.6292,拉萨市,拉萨火车站,,35,13,23,7,9,110,,121,117,3,4,3,3,0.3,0.2
2025-03-22T2300,2520A,109.2203,23.7256,来宾市,来宾技工学校,细颗粒物(PM2.5),78,96,98,57,63,92,,175,146,40,35,11,13,0.8,0.7
2025-03-22T2300,3535A,109.1781,23.7297,来宾市,兴宾区政府,细颗粒物(PM2.5),72,84,84,52,51,128,,179,163,26,20,10,11,0.8,0.8
2025-03-22T2300,4002A,109.2416,23.7461,来宾市,中南小学,颗粒物(PM10),77,104,98,54,56,94,,164,136,37,41,18,14,0.9,0.8
2025-03-22T2300,1479A,103.831,36.0464,兰州市,铁路设计院,颗粒物(PM10),67,83,82,36,33,43,,101,77,80,64,12,23,0.9,1.2
2025-03-22T2300,3241A,103.7439,36.0842,兰州市,百合公园,颗粒物(PM10),70,90,81,49,36,11,,105,78,83,45,14,19,0.9,0.8
2025-03-22T2300,3242A,103.9611,35.998,兰州市,和平,颗粒物(PM10),70,89,77,40,37,86,,110,104,28,25,14,19,0.5,0.7
2025-03-22T2300,4236A,103.6293,36.0938,兰州市,庄浪东路808号,颗粒物(PM10),78,105,86,42,42,64,,115,96,47,40,13,24,0.7,0.6
2025-03-22T2300,4237A,103.7251,36.1043,兰州市,安宁西路88号,细颗粒物(PM2.5),75,96,94,55,49,14,,115,88,90,47,11,20,0.6,0.6
2025-03-22T2300,4238A,103.8470,36.0676,兰州市,北滨河东路1号,颗粒物(PM10),80,109,82,48,42,8,,113,78,105,62,14,21,0.9,1.1
2025-03-22T2300,3245A,103.6633,36.533,兰州新区,新区管委会,颗粒物(PM10),69,88,73,42,34,80,,119,110,24,14,7,11,0.5,0.4
2025-03-22T2300,3246A,103.6975,36.4789,兰州新区,舟曲中学,颗粒物(PM10),90,130,95,36,32,91,,119,111,14,16,14,11,0.4,0.5
2025-03-22T2300,1067A,116.6708,39.5111,廊坊市,药材公司,颗粒物(PM10),72,94,58,25,18,45,,103,85,43,27,4,3,0.4,0.3
2025-03-22T2300,1068A,116.7214,39.5589,廊坊市,开发区,颗粒物(PM10),74,98,64,29,20,51,,107,88,46,27,3,2,0.3,0.2
2025-03-22T2300,1070A,116.7244,39.5269,廊坊市,北华航天学院,颗粒物(PM10),64,78,57,19,16,53,,102,86,39,24,6,4,0.3,0.3
2025-03-22T2300,2919A,116.7022,39.5453,廊坊市,河北工业大学,颗粒物(PM10),67,83,54,28,19,55,,107,90,34,18,7,6,0.4,0.3
2025-03-22T2300,2535A,103.7723,29.5462,乐山市,花湖湾,细颗粒物(PM2.5),88,82,70,65,51,10,,49,46,61,37,7,7,0.7,0.5
2025-03-22T2300,2536A,103.7627,29.5844,乐山市,牛耳桥,细颗粒物(PM2.5),82,85,77,60,52,2,,35,21,52,45,7,7,1.0,0.8
2025-03-22T2300,2537A,103.7508,29.6006,乐山市,市第三水厂,细颗粒物(PM2.5),72,72,69,52,47,4,,47,30,54,41,4,5,0.8,0.6
2025-03-22T2300,2538A,103.7571,29.5664,乐山市,市监测站,细颗粒物(PM2.5),78,75,65,57,51,4,,35,30,69,42,7,7,1.0,0.7
2025-03-22T2300,3361A,103.7311,29.5628,乐山市,理工大学,细颗粒物(PM2.5),72,78,67,52,46,9,,38,29,61,44,6,5,0.8,0.7
2025-03-22T2300,2599A,100.2497,26.8802,丽江市,丽江古城,,28,25,26,15,19,87,,96,91,12,13,8,8,0.5,0.8
2025-03-22T2300,2600A,100.2203,26.8906,丽江市,市中心,,29,,17,9,15,91,,94,88,16,15,8,8,0.6,0.6
2025-03-22T2300,1267A,119.914,28.4514,丽水市,监测站大楼,"颗粒物(PM10),细颗粒物(PM2.5)",54,57,40,38,25,36,,137,99,53,31,3,5,0.6,0.5
2025-03-22T2300,1268A,119.93,28.4586,丽水市,莲都小学,,40,40,43,21,20,75,,118,101,31,35,4,4,0.4,0.4
2025-03-22T2300,1269A,119.879,28.4231,丽水市,余庄前,,39,39,36,25,23,42,,138,97,24,20,4,5,0.4,0.3
2025-03-22T2300,1173A,119.176,34.5885,连云港市,市环境监测站,颗粒物(PM10),73,95,71,41,30,94,,121,112,26,21,23,19,0.6,0.6
2025-03-22T2300,3000A,119.3581,34.6972,连云港市,德源药业,颗粒物(PM10),68,85,71,34,26,93,,124,118,34,24,19,15,0.5,0.5
2025-03-22T2300,3007A,119.178,34.844,连云港市,新城一中,颗粒物(PM10),68,86,80,46,43,87,,114,106,33,34,26,21,0.8,0.8
2025-03-22T2300,3008A,119.3608,34.7519,连云港市,胡沟管理处,颗粒物(PM10),64,78,56,36,25,69,,113,96,57,35,24,17,0.6,0.6
2025-03-22T2300,3009A,119.1478,34.5911,连云港市,矿山设计院,颗粒物(PM10),78,105,80,44,32,90,,117,108,33,27,36,21,0.5,0.5
2025-03-22T2300,3434A,119.2413,34.6539,连云港市,工贸学校,颗粒物(PM10),69,87,67,46,35,98,,119,111,25,24,18,16,0.7,0.7
2025-03-22T2300,3664A,119.4172,34.7341,连云港市,连云街道,颗粒物(PM10),71,91,66,35,25,126,,126,126,18,19,13,11,0.7,0.7
2025-03-22T2300,2571A,102.3431,27.8099,凉山彝族自治州,青龙寺,,43,43,55,16,23,52,,94,87,15,16,6,6,0.8,0.9
2025-03-22T2300,2572A,102.2721,27.8415,凉山彝族自治州,邛海宾馆,,41,41,60,24,41,67,,91,86,17,27,9,8,0.6,0.8
2025-03-22T2300,2573A,102.2625,27.898,凉山彝族自治州,西昌市政府,细颗粒物(PM2.5),72,72,70,52,51,34,,80,66,27,28,8,9,1.0,1
2025-03-22T2300,2574A,102.2685,27.8851,凉山彝族自治州,凉山州政府,细颗粒物(PM2.5),70,75,70,51,49,38,,87,71,33,31,7,6,0.8,0.8
2025-03-22T2300,4229A,102.2342,27.8859,凉山彝族自治州,凯乐南路30号,,47,47,72,23,44,53,,76,66,24,36,12,8,0.7,0.9
2025-03-22T2300,2212A,123.2,41.1953,辽阳市,宏伟区,细颗粒物(PM2.5),127,174,90,96,44,49,,132,104,47,29,24,24,1.6,1.2
2025-03-22T2300,2213A,123.1683,41.2495,辽阳市,新华园,颗粒物(PM10),144,238,102,105,49,32,,116,77,62,49,31,32,1.6,1.5
2025-03-22T2300,2214A,123.2354,41.2639,辽阳市,滨河路,细颗粒物(PM2.5),124,130,95,94,48,60,,125,91,46,45,21,23,0.9,1.2
2025-03-22T2300,2215A,123.149,41.2991,辽阳市,铁西工业园,细颗粒物(PM2.5),268,242,123,218,63,10,,125,84,82,51,22,33,1.8,1.8
2025-03-22T2300,2227A,125.1358,42.8845,辽源市,环保局,细颗粒物(PM2.5),365,350,184,315,145,74,,181,146,51,41,15,12,1.7,1.1
2025-03-22T2300,3239A,125.0764,42.9078,辽源市,银鹰制药,细颗粒物(PM2.5),319,298,162,269,129,77,,188,151,45,38,13,12,1.5,1
2025-03-22T2300,1625A,115.9848,36.4372,聊城市,区政府,颗粒物(PM10),75,99,86,39,32,92,,114,104,28,33,13,14,0.5,0.6
2025-03-22T2300,2878A,116.0072,36.4343,聊城市,聊大东校,颗粒物(PM10),76,102,93,40,36,90,,110,100,27,33,13,14,0.7,0.8
2025-03-22T2300,3200A,115.9819,36.4978,聊城市,监控中心,颗粒物(PM10),68,85,89,29,31,92,,113,107,28,31,15,17,0.6,0.8
2025-03-22T2300,3513A,116.0445,36.4361,聊城市,九州社区,颗粒物(PM10),75,100,88,42,32,81,,120,108,35,33,11,15,0.5,0.7
2025-03-22T2300,4018A,116.0567,36.4608,聊城市,星美广场,颗粒物(PM10),79,107,88,40,28,98,,118,113,31,32,12,13,0.5,0.6
2025-03-22T2300,2632A,94.3681,29.6376,林芝市,林芝监测站,,28,10,10,10,6,88,,114,107,10,8,5,5,0.3,0.4
2025-03-22T2300,2633A,94.3616,29.6616,林芝市,林芝人民医院,,26,22,14,7,4,83,,113,104,6,5,7,7,0.3,0.3
2025-03-22T2300,2603A,100.0781,23.8982,临沧市,市环保局,细颗粒物(PM2.5),75,67,61,55,53,42,,90,83,20,18,9,9,1.0,1
2025-03-22T2300,2604A,100.0894,23.8822,临沧市,市气象局,,,56,59,56,56,40,,95,86,19,17,8,8,,0.7
2025-03-22T2300,1733A,111.5531,36.0783,临汾市,临钢医院,颗粒物(PM10),80,110,89,39,22,70,,110,,24,24,11,6,0.7,0.5
2025-03-22T2300,1734A,111.5028,36.0714,临汾市,技工学校,颗粒物(PM10),80,110,79,45,27,47,,107,91,39,30,11,8,0.7,0.5
2025-03-22T2300,1736A,111.5018,36.0855,临汾市,市委,颗粒物(PM10),88,125,89,37,23,56,,106,91,38,30,11,4,0.5,0.4
2025-03-22T2300,3018A,111.505,36.1014,临汾市,唐尧大酒店,颗粒物(PM10),84,117,89,35,23,59,,103,87,32,29,16,7,0.5,0.4
2025-03-22T2300,4244A,111.4879,36.0530,临汾市,启星学校,颗粒物(PM10),87,124,86,42,33,41,,106,88,47,28,13,6,0.6,0.5
2025-03-22T2300,4271A,103.2464,35.6123,临夏回族自治州,滨河东路1号,颗粒物(PM10),79,107,103,32,43,72,,110,95,28,23,6,7,0.7,0.7
2025-03-22T2300,4310A,103.2093,35.5995,临夏回族自治州,新华街21号,细颗粒物(PM2.5),72,92,118,52,52,70,,109,101,26,28,12,12,0.7,0.9
2025-03-22T2300,1618A,118.3429,35.0532,临沂市,沂河小区,颗粒物(PM10),75,100,85,44,39,79,,111,100,38,30,12,14,0.7,0.7
2025-03-22T2300,1619A,118.295,35.0583,临沂市,鲁南制药厂,颗粒物(PM10),91,132,90,47,37,47,,125,100,83,47,23,17,0.6,0.4
2025-03-22T2300,1620A,118.2794,34.9976,临沂市,新光毛纺厂,颗粒物(PM10),86,122,85,41,37,43,,114,95,80,46,32,17,0.9,0.7
2025-03-22T2300,1621A,118.3956,35.0888,临沂市,河东保险公司,颗粒物(PM10),69,88,75,38,31,101,,121,113,37,37,8,10,0.4,0.4
2025-03-22T2300,3370A,118.3564,35.0215,临沂市,十里堡居委,颗粒物(PM10),82,114,87,44,34,67,,117,102,48,37,19,18,0.8,0.7
2025-03-22T2300,3496A,118.3604,35.1084,临沂市,南坊新区,颗粒物(PM10),74,97,86,34,33,91,,115,106,34,31,9,10,0.6,0.6
2025-03-22T2300,3860A,118.3920,35.0300,临沂市,皇山花园小区,颗粒物(PM10),79,107,85,45,35,76,,118,107,39,33,14,15,0.5,0.5
2025-03-22T2300,1870A,109.4856,24.3895,柳州市,柳东小学,细颗粒物(PM2.5),73,75,77,53,58,94,,179,160,52,36,48,21,0.6,0.5
2025-03-22T2300,1871A,109.4157,24.3277,柳州市,环保监测站,细颗粒物(PM2.5),100,126,101,75,67,74,,174,138,62,43,12,13,1.1,0.9
2025-03-22T2300,1872A,109.389,24.341,柳州市,河西水厂,细颗粒物(PM2.5),104,124,119,78,62,50,,183,144,87,53,10,10,1.4,0.9
2025-03-22T2300,1873A,109.4311,24.2921,柳州市,市四中,细颗粒物(PM2.5),107,143,97,80,60,22,,184,120,113,57,11,12,1.6,0.9
2025-03-22T2300,1874A,109.4006,24.3631,柳州市,市九中,细颗粒物(PM2.5),84,115,111,62,62,56,,179,134,56,44,9,13,1.2,1
2025-03-22T2300,1875A,109.4958,24.3134,柳州市,古亭山,"颗粒物(PM10),细颗粒物(PM2.5)",60,69,65,43,46,80,,181,145,50,50,9,14,0.6,0.5
2025-03-22T2300,3402A,109.5422,24.3996,柳州市,市二中,细颗粒物(PM2.5),104,134,87,78,60,22,,189,128,108,49,30,26,0.6,0.4
2025-03-22T2300,2307A,116.5079,31.737,六安市,监测大楼,颗粒物(PM10),54,58,52,37,29,86,,137,120,31,24,6,6,0.6,0.6
2025-03-22T2300,2308A,116.4738,31.7643,六安市,皖西学院,细颗粒物(PM2.5),68,69,59,49,28,90,,137,117,24,22,6,5,0.5,0.5
2025-03-22T2300,2309A,116.4996,31.7905,六安市,朝阳厂,颗粒物(PM10),60,69,52,37,26,81,,134,111,34,19,5,4,0.7,0.6
2025-03-22T2300,2310A,116.5567,31.7886,六安市,开发区,颗粒物(PM10),68,86,70,44,31,59,,140,94,53,33,8,5,0.6,0.5
2025-03-22T2300,2577A,104.83,26.5917,六盘水市,黄土坡,细颗粒物(PM2.5),92,95,75,68,51,53,,137,121,37,22,11,16,0.8,0.7
2025-03-22T2300,2578A,104.89,26.5939,六盘水市,水钢,细颗粒物(PM2.5),79,93,82,58,52,84,,138,129,37,18,14,15,0.8,0.6
2025-03-22T2300,2579A,104.8475,26.5894,六盘水市,民中,细颗粒物(PM2.5),94,86,70,70,51,67,,132,121,47,25,15,15,1.3,0.7
2025-03-22T2300,2580A,104.9544,26.5506,六盘水市,双水,细颗粒物(PM2.5),85,85,75,63,47,76,,137,123,29,24,11,15,0.7,0.7
2025-03-22T2300,2336A,117.0217,25.1033,龙岩市,龙岩市监测站,颗粒物(PM10),54,58,48,25,28,52,,151,107,36,27,21,11,0.6,0.5
2025-03-22T2300,2337A,117.0258,25.0661,龙岩市,闽西职业技术学院,颗粒物(PM10),57,64,60,31,30,82,,148,112,36,30,69,27,0.4,0.4
2025-03-22T2300,2338A,117.0196,25.0306,龙岩市,龙岩学院,细颗粒物(PM2.5),88,71,57,65,43,16,,80,,26,18,1,4,0.8,0.5
2025-03-22T2300,2885A,104.9339,33.3826,陇南市,滨江中学,颗粒物(PM10),54,58,54,27,25,60,,79,76,18,16,6,8,0.5,0.5
2025-03-22T2300,3247A,104.955,33.371,陇南市,市总工会,颗粒物(PM10),58,66,44,22,19,54,,86,82,25,11,7,7,0.4,0.3
2025-03-22T2300,2487A,111.9589,27.8901,娄底市,电视发射台,,50,50,48,31,28,84,,138,112,5,7,7,10,0.9,0.9
2025-03-22T2300,2488A,111.9975,27.725,娄底市,市监测站,细颗粒物(PM2.5),73,94,92,53,55,83,,144,118,33,38,24,22,1.0,1.2
2025-03-22T2300,2489A,112.0194,27.7314,娄底市,市委党校,细颗粒物(PM2.5),100,120,80,75,51,24,,140,99,76,36,4,6,1.4,0.8
2025-03-22T2300,2490A,111.9561,27.7569,娄底市,涟钢,细颗粒物(PM2.5),84,110,87,62,48,80,,137,123,22,24,7,14,0.7,0.8
2025-03-22T2300,2491A,111.9892,27.7044,娄底市,市政府,细颗粒物(PM2.5),102,134,86,76,55,53,,139,94,34,24,8,8,0.7,0.6
2025-03-22T2300,1894A,105.4427,28.9063,泸州市,小市上码头,细颗粒物(PM2.5),110,108,98,83,70,7,,51,42,81,61,7,10,0.9,0.7
2025-03-22T2300,1895A,105.4241,28.8573,泸州市,兰田宪桥,细颗粒物(PM2.5),120,126,94,91,68,2,,44,26,67,46,7,8,0.9,0.7
2025-03-22T2300,4272A,105.3689,28.7783,泸州市,纳溪中医医院,细颗粒物(PM2.5),94,134,96,70,56,6,,51,36,61,41,6,8,0.9,0.7
2025-03-22T2300,2183A,111.1406,37.5211,吕梁市,环保局,颗粒物(PM10),118,186,124,39,31,3,,101,68,78,41,1,3,0.4,0.4
2025-03-22T2300,2185A,111.1297,37.5136,吕梁市,自来水公司,颗粒物(PM10),97,143,141,43,30,18,,94,78,57,33,2,5,0.5,0.5
2025-03-22T2300,2867A,111.1283,37.51,吕梁市,马茂庄小学,颗粒物(PM10),105,159,123,40,30,5,,101,71,85,41,4,6,0.4,0.4
2025-03-22T2300,1812A,112.3931,34.6516,洛阳市,市委党校,颗粒物(PM10),61,72,68,30,27,84,,109,104,30,21,6,6,0.5,0.4
2025-03-22T2300,1815A,112.494,34.6886,洛阳市,河南林校,颗粒物(PM10),74,97,86,41,37,76,,116,106,34,23,6,8,0.6,0.8
2025-03-22T2300,1816A,112.3844,34.623,洛阳市,开发区管委会,颗粒物(PM10),71,91,71,42,29,72,,112,106,25,18,6,6,0.4,0.3
2025-03-22T2300,1817A,112.4267,34.6258,洛阳市,市委新办公区,颗粒物(PM10),67,83,68,39,30,83,,122,116,25,16,7,6,0.8,0.7
2025-03-22T2300,3340A,112.6005,34.6326,洛阳市,伊滨,颗粒物(PM10),60,70,69,34,32,110,,119,117,15,15,7,6,0.5,0.4
2025-03-22T2300,3341A,112.4951,34.6332,洛阳市,中移产业园,颗粒物(PM10),66,81,78,41,40,98,,111,109,21,18,9,8,0.5,0.5
2025-03-22T2300,3593A,112.5736,34.8993,洛阳市,吉利监测站,颗粒物(PM10),70,90,73,30,29,93,,119,112,24,15,8,9,0.5,0.4
2025-03-22T2300,3635A,112.3677,34.662,洛阳市,河科大西苑校区,颗粒物(PM10),65,80,73,28,28,87,,111,106,28,22,8,9,0.6,0.6
2025-03-22T2300,3636A,112.4388,34.6781,洛阳市,英才小学,颗粒物(PM10),66,81,76,36,35,78,,114,107,37,28,11,14,0.4,0.4
2025-03-22T2300,4214A,112.4600,34.6949,洛阳市,春都路1号院,颗粒物(PM10),81,112,101,36,33,74,,119,109,40,29,11,14,0.5,0.6
2025-03-22T2300,2399A,114.051,33.5699,漯河市,三五一五工厂,颗粒物(PM10),66,81,68,38,30,88,,120,108,20,15,8,6,0.6,0.4
2025-03-22T2300,2400A,114.0055,33.5698,漯河市,漯河大学,颗粒物(PM10),62,73,68,29,26,75,,117,103,32,22,8,7,0.4,0.4
2025-03-22T2300,2401A,114.0138,33.5828,漯河市,市水利局,颗粒物(PM10),64,78,66,34,27,77,,119,108,26,16,5,5,0.4,0.4
2025-03-22T2300,2402A,114.0261,33.5698,漯河市,市广电局,颗粒物(PM10),63,76,67,33,27,90,,118,109,16,14,8,6,0.4,0.3
2025-03-22T2300,3478A,113.9749,33.5664,漯河市,市图书馆,颗粒物(PM10),64,77,67,36,32,95,,117,109,17,14,10,6,0.5,0.4
2025-03-22T2300,4250A,114.0892,33.5882,漯河市,韶山路11号,颗粒物(PM10),64,78,70,32,26,107,,127,119,18,15,5,4,0.3,0.3
2025-03-22T2300,1798A,118.5092,31.6837,马鞍山市,湖东路四小,颗粒物(PM10),68,85,58,42,27,18,,151,114,95,40,12,10,1.1,0.6
2025-03-22T2300,1799A,118.5024,31.6449,马鞍山市,开发区,颗粒物(PM10),73,96,69,44,33,5,,144,91,125,63,6,7,0.7,0.6
2025-03-22T2300,1802A,118.6245,31.7241,马鞍山市,濮塘,颗粒物(PM10),58,66,59,38,31,96,,164,138,27,24,20,13,1.1,0.6
2025-03-22T2300,3633A,118.4918,31.6809,马鞍山市,雨山,颗粒物(PM10),66,82,63,41,31,43,,147,114,78,52,11,11,1.1,0.7
2025-03-22T2300,4191A,118.5274,31.72227,马鞍山市,慈湖高新区,颗粒物(PM10),81,112,64,51,33,41,,142,105,76,47,15,10,1.2,0.8
2025-03-22T2300,1686A,111.0286,21.4688,茂名市,电白南海,细颗粒物(PM2.5),55,53,63,39,41,106,,133,121,26,16,2,5,0.7,0.7
2025-03-22T2300,1687A,110.9294,21.6533,茂名市,茂石化七小,颗粒物(PM10),51,51,61,24,35,124,,168,141,13,17,2,9,0.5,0.5
2025-03-22T2300,1688A,110.9107,21.6687,茂名市,健康路,,48,48,60,24,37,125,,172,142,14,18,3,13,0.6,0.6
2025-03-22T2300,1689A,110.8592,21.6828,茂名市,高岭,颗粒物(PM10),58,66,86,29,45,98,,168,134,22,23,5,14,0.6,0.6
2025-03-22T2300,3450A,111.01,21.5165,茂名市,电白水东,,39,39,51,24,26,118,,134,126,4,8,2,7,0.5,0.5
2025-03-22T2300,2539A,104.0308,30.0478,眉山市,黑龙滩水库,颗粒物(PM10),61,71,53,39,34,20,,59,47,17,13,3,4,0.8,0.7
2025-03-22T2300,2540A,103.8416,30.0874,眉山市,气象局,细颗粒物(PM2.5),92,121,107,68,64,6,,23,17,66,54,9,11,1.4,0.9
2025-03-22T2300,3137A,103.8578,30.0744,眉山市,市委党校,细颗粒物(PM2.5),107,114,91,80,60,3,,21,12,76,62,12,13,1.7,0.9
2025-03-22T2300,3148A,103.8291,30.0564,眉山市,区人社局,细颗粒物(PM2.5),85,68,80,63,62,4,,19,12,73,64,10,13,1.3,0.9
2025-03-22T2300,1690A,116.1231,24.3284,梅州市,梅江月梅,细颗粒物(PM2.5),58,63,52,41,33,46,,161,127,54,30,4,6,0.5,0.5
2025-03-22T2300,1691A,116.0797,24.2719,梅州市,梅县新城,颗粒物(PM10),68,86,57,48,34,23,,156,100,66,35,6,7,0.6,0.5
2025-03-22T2300,1692A,116.1248,24.2654,梅州市,环境监控中心,细颗粒物(PM2.5),63,59,59,45,34,28,,155,98,76,44,8,13,0.6,0.6
2025-03-22T2300,3315A,116.1233,24.2991,梅州市,梅龙,细颗粒物(PM2.5),59,63,51,42,31,44,,153,106,42,32,7,10,0.9,0.7
2025-03-22T2300,1878A,104.7778,31.4741,绵阳市,富乐山,细颗粒物(PM2.5),82,84,73,60,46,24,,57,49,68,47,2,3,0.8,0.7
2025-03-22T2300,1880A,104.6697,31.4668,绵阳市,高新区自来水公司,颗粒物(PM10),93,136,94,66,47,3,,62,45,84,57,6,4,1.0,0.7
2025-03-22T2300,1881A,104.7287,31.5075,绵阳市,三水厂,细颗粒物(PM2.5),98,115,88,73,50,3,,60,40,71,55,6,6,1.0,0.8
2025-03-22T2300,3491A,104.69,31.5322,绵阳市,西科大附属小学,细颗粒物(PM2.5),84,110,87,62,46,18,,68,53,84,57,7,7,0.8,0.7
2025-03-22T2300,3492A,104.5648,31.5343,绵阳市,安州区旅游局,细颗粒物(PM2.5),98,124,78,73,45,10,,78,56,70,40,10,10,0.9,0.6
2025-03-22T2300,4226A,104.7651,31.4531,绵阳市,绵阳市气象局,细颗粒物(PM2.5),85,104,85,63,48,6,,51,40,97,61,3,5,1.1,0.7
2025-03-22T2300,1784A,129.61,44.561,牡丹江市,环保大楼,,46,,25,32,20,59,,86,77,20,9,6,6,0.3,0.2
2025-03-22T2300,1785A,129.6115,44.5782,牡丹江市,文化广场,,32,23,19,22,19,67,,89,80,17,8,9,9,0.3,0.2
2025-03-22T2300,1786A,129.5904,44.5963,牡丹江市,第一医院,,22,22,19,15,14,60,,89,81,14,9,10,9,0.2,0.1
2025-03-22T2300,1787A,129.6364,44.6075,牡丹江市,机车工厂,颗粒物(PM10),54,57,23,31,16,63,,90,77,14,8,29,23,0.7,0.4
2025-03-22T2300,1788A,129.6386,44.5462,牡丹江市,第一中学,,38,32,19,26,14,39,,93,80,22,6,10,7,0.4,0.3
2025-03-22T2300,2531A,105.0703,29.61,内江市,市监测站,细颗粒物(PM2.5),98,96,71,73,65,8,,46,35,58,51,7,7,0.5,0.3
2025-03-22T2300,2532A,105.0717,29.5947,内江市,东兴区政府,细颗粒物(PM2.5),89,76,73,66,54,18,,50,43,50,49,5,6,0.9,0.8
2025-03-22T2300,2533A,105.0653,29.5817,内江市,内江二中,细颗粒物(PM2.5),99,93,78,74,64,6,,56,46,66,46,9,10,1.1,1
2025-03-22T2300,2534A,105.0406,29.5822,内江市,内江日报社,细颗粒物(PM2.5),92,114,81,68,63,5,,49,35,74,49,12,12,0.9,0.7
2025-03-22T2300,2628A,92.0657,31.4846,那曲市,那曲监测站,颗粒物(PM10),63,75,21,18,9,105,,106,106,6,6,7,6,0.5,0.4
2025-03-22T2300,1290A,115.8931,28.6843,南昌市,省外办,细颗粒物(PM2.5),125,144,85,95,53,10,,131,76,96,72,7,9,1.8,1.1
2025-03-22T2300,1291A,115.8886,28.7003,南昌市,省林业公司,,,97,70,56,39,12,,121,89,93,63,9,10,,0.3
2025-03-22T2300,1292A,115.8126,28.7442,南昌市,林科所,颗粒物(PM10),69,88,59,39,30,14,,138,93,135,76,10,11,0.7,0.6
2025-03-22T2300,1294A,115.8518,28.687,南昌市,建工学校,颗粒物(PM10),89,127,71,61,41,11,,129,89,112,65,11,14,1.3,0.6
2025-03-22T2300,1295A,115.8921,28.6424,南昌市,象湖,颗粒物(PM10),74,98,78,39,38,2,,146,83,91,63,7,10,1.0,0.8
2025-03-22T2300,1296A,115.7423,28.7996,南昌市,武术学校,,35,,26,24,14,73,,138,111,8,10,6,8,0.5,0.5
2025-03-22T2300,3046A,115.9084,28.6062,南昌市,机电学校,颗粒物(PM10),74,98,81,39,43,6,,142,90,111,60,7,10,0.7,0.6
2025-03-22T2300,3690A,115.9721,28.7031,南昌市,外国语学校,颗粒物(PM10),68,86,88,40,45,23,,146,114,66,52,5,8,0.7,0.7
2025-03-22T2300,4192A,115.9316,28.68677,南昌市,南京东路235号,颗粒物(PM10),100,150,108,72,52,13,,134,87,102,73,10,9,1.1,0.8
2025-03-22T2300,1905A,106.056,30.8064,南充市,西山风景区,细颗粒物(PM2.5),100,81,64,75,51,39,,75,37,24,31,9,8,1.0,0.9
2025-03-22T2300,1906A,106.0789,30.8023,南充市,南充市委,细颗粒物(PM2.5),107,116,84,80,56,2,,30,18,74,51,7,6,1.2,0.8
2025-03-22T2300,1907A,106.1031,30.8217,南充市,南充炼油厂,细颗粒物(PM2.5),127,140,101,96,64,1,,25,20,83,62,8,6,1.1,0.7
2025-03-22T2300,1909A,106.0642,30.7636,南充市,嘉陵区环保局,细颗粒物(PM2.5),94,116,97,70,58,5,,24,17,62,60,10,7,1.2,1
2025-03-22T2300,4227A,106.1083,30.7884,南充市,梨树横街98号,细颗粒物(PM2.5),109,144,100,82,46,6,,28,24,68,55,15,8,0.8,0.6
2025-03-22T2300,4304A,106.1172,30.843,南充市,清泉寺北路188号,细颗粒物(PM2.5),104,129,97,78,58,5,,37,29,84,49,9,8,0.8,0.4
2025-03-22T2300,1151A,118.8086,32.1065,南京市,迈皋桥,颗粒物(PM10),53,56,46,34,27,43,,143,106,65,39,4,5,0.4,0.4
2025-03-22T2300,1152A,118.7538,32.0551,南京市,草场门,颗粒物(PM10),59,68,55,29,25,78,,123,108,56,42,7,10,0.5,0.4
2025-03-22T2300,1153A,118.7794,32.0745,南京市,山西路,颗粒物(PM10),65,80,61,34,24,40,,136,112,70,29,3,6,1.0,0.7
2025-03-22T2300,1154A,118.7752,32.0023,南京市,中华门,颗粒物(PM10),58,66,56,36,26,65,,122,98,62,53,8,18,0.6,0.7
2025-03-22T2300,1155A,118.8109,32.0309,南京市,瑞金路,颗粒物(PM10),78,105,65,48,30,8,,132,72,109,62,7,8,1.4,1
2025-03-22T2300,1156A,118.7997,32.0754,南京市,玄武湖,颗粒物(PM10),69,88,59,39,23,3,,135,91,56,28,6,7,1.1,0.7
2025-03-22T2300,1157A,118.6414,32.0931,南京市,浦口,颗粒物(PM10),56,62,60,21,21,139,,153,146,9,18,7,9,0.2,0.4
2025-03-22T2300,1158A,118.7356,31.9996,南京市,奥体中心,细颗粒物(PM2.5),77,91,63,56,28,12,,138,103,108,53,7,15,0.9,0.7
2025-03-22T2300,1159A,118.9125,32.1028,南京市,仙林大学城,颗粒物(PM10),63,75,62,39,25,25,,133,90,71,39,9,11,1.0,0.8
2025-03-22T2300,3422A,118.8436,31.9198,南京市,江宁彩虹桥,颗粒物(PM10),64,78,66,34,26,13,,148,107,113,42,4,7,0.6,0.6
2025-03-22T2300,3423A,119.0138,31.6494,南京市,溧水永阳,细颗粒物(PM2.5),60,56,46,43,32,51,,147,98,59,33,6,7,0.6,0.6
2025-03-22T2300,3427A,118.8554,32.3578,南京市,六合雄州,颗粒物(PM10),60,69,55,30,22,99,,141,116,26,17,6,6,0.3,0.3
2025-03-22T2300,4249A,118.8708,31.3402,南京市,汶溪路181号,颗粒物(PM10),61,72,47,42,31,98,,154,135,30,22,9,5,0.6,0.5
2025-03-22T2300,1401A,108.3103,22.7881,南宁市,二十一中,臭氧1小时,73,49,60,35,43,178,,201,198,24,28,9,10,0.5,0.7
2025-03-22T2300,1402A,108.3141,22.8528,南宁市,北湖,颗粒物(PM10),51,52,65,32,47,160,,174,172,23,36,15,13,0.4,0.6
2025-03-22T2300,1403A,108.3206,22.8225,南宁市,市监测站,臭氧1小时,60,45,65,36,43,168,,184,182,23,29,22,14,0.7,0.8
2025-03-22T2300,1404A,108.3829,22.8037,南宁市,大自然花园,臭氧1小时,70,44,63,30,42,176,,197,193,16,23,8,10,0.4,0.6
2025-03-22T2300,1405A,108.4394,22.7904,南宁市,仙葫,颗粒物(PM10),60,70,64,36,47,148,,173,168,19,34,5,6,0.3,0.6
2025-03-22T2300,1406A,108.2397,22.8467,南宁市,区农职院,臭氧1小时,62,59,74,38,44,169,,188,181,23,35,6,11,0.7,0.9
2025-03-22T2300,1407A,108.3275,22.735,南宁市,英华嘉园,颗粒物(PM10),54,57,68,35,43,159,,195,188,36,35,10,12,0.5,0.6
2025-03-22T2300,3401A,108.4834,22.7618,南宁市,红星社区,颗粒物(PM10),53,55,60,26,42,145,,180,172,17,30,12,12,0.5,0.7
2025-03-22T2300,4221A,108.2177,22.7774,南宁市,乐贤路16号,颗粒物(PM10),56,62,79,34,46,122,,175,160,51,51,10,13,0.5,0.7
2025-03-22T2300,2332A,118.1681,26.6369,南平市,南平市监测站,,37,37,38,24,22,27,,133,86,50,22,3,3,0.8,0.6
2025-03-22T2300,2333A,118.1825,26.6489,南平市,南平铝业有限公司,,45,45,35,30,23,26,,129,80,48,20,10,8,0.8,0.6
2025-03-22T2300,2334A,118.1756,26.6272,南平市,南平七中,,36,,34,25,23,50,,128,93,27,22,4,5,0.5,0.5
2025-03-22T2300,1168A,120.9098,31.9663,南通市,狼山街道,颗粒物(PM10),61,72,65,34,36,16,,130,70,103,76,8,11,0.8,0.7
2025-03-22T2300,1169A,120.86,32.0005,南通市,虹桥,细颗粒物(PM2.5),70,88,71,51,41,9,,112,62,137,90,15,16,1.1,0.9
2025-03-22T2300,1170A,120.87,32.02,南通市,城中,颗粒物(PM10),73,96,84,41,38,8,,132,82,134,81,11,17,1.0,1
2025-03-22T2300,1171A,120.94,31.93,南通市,星湖花园,"二氧化氮,颗粒物(PM10)",67,84,66,45,36,0,,136,90,133,69,10,14,0.5,0.7
2025-03-22T2300,1172A,120.81,32.0417,南通市,紫琅学院,颗粒物(PM10),74,97,79,41,37,2,,146,80,129,76,9,11,0.7,0.9
2025-03-22T2300,3291A,121.067,32.062,南通市,通州监测站,颗粒物(PM10),71,92,75,51,38,26,,154,101,104,58,8,12,0.9,1
2025-03-22T2300,3432A,120.9348,31.9883,南通市,环境教育馆,颗粒物(PM10),63,75,72,39,35,35,,144,91,88,64,9,14,0.7,0.8
2025-03-22T2300,2404A,112.5224,33.0122,南阳市,瓦房庄,颗粒物(PM10),69,87,81,33,33,67,,114,96,31,29,2,2,0.5,0.5
2025-03-22T2300,2405A,112.5003,32.9735,南阳市,汉画馆,颗粒物(PM10),65,79,75,35,32,57,,105,89,40,40,4,5,0.4,0.4
2025-03-22T2300,2406A,112.5573,33.027,南阳市,气象站,颗粒物(PM10),71,92,84,36,29,59,,112,96,37,32,6,6,0.6,0.6
2025-03-22T2300,2407A,112.5481,32.9689,南阳市,理工学院,颗粒物(PM10),63,76,77,28,29,69,,108,95,34,38,4,4,0.4,0.4
2025-03-22T2300,4008A,112.5234,32.9922,南阳市,卧龙区政府,颗粒物(PM10),65,80,84,33,35,68,,107,91,29,38,4,5,0.4,0.5
2025-03-22T2300,1234A,121.8358,29.911,宁波市,区环保大楼,二氧化氮,81,96,66,45,33,2,,152,88,162,75,12,10,0.7,0.6
2025-03-22T2300,1235A,121.56,29.82,宁波市,万里学院,颗粒物(PM10),52,54,47,28,28,89,,162,142,50,31,9,10,0.4,0.4
2025-03-22T2300,1236A,121.713,29.9572,宁波市,龙赛医院,颗粒物(PM10),66,82,73,34,32,46,,164,120,97,52,9,9,0.6,0.5
2025-03-22T2300,1239A,121.633,29.7733,宁波市,钱湖水厂,,44,41,41,22,24,140,,162,156,17,19,8,8,0.6,0.6
2025-03-22T2300,1240A,121.5856,29.8635,宁波市,太古小学,颗粒物(PM10),54,57,54,29,29,102,,162,142,43,38,9,10,0.6,0.5
2025-03-22T2300,1241A,121.524,29.8674,宁波市,市环境监测中心,细颗粒物(PM2.5),72,75,51,52,28,62,,158,126,98,50,8,10,1.0,0.8
2025-03-22T2300,2871A,121.6147,29.9017,宁波市,万里国际学校,,47,47,45,22,27,124,,167,153,26,28,8,9,0.5,0.5
2025-03-22T2300,3710A,121.5594,29.8975,宁波市,白沙活动中心,颗粒物(PM10),53,56,47,32,27,82,,171,142,60,40,7,8,0.7,0.7
2025-03-22T2300,2341A,119.5388,26.6612,宁德市,宁德市监测站,,40,35,34,28,23,93,,140,121,14,20,5,5,0.6,0.6
2025-03-22T2300,3209A,119.5231,26.6562,宁德市,宁德一中,,41,41,33,24,25,89,,135,120,13,16,6,6,0.6,0.6
2025-03-22T2300,2618A,98.8601,25.8567,怒江傈僳族自治州,州监测站,,24,20,30,12,21,74,,79,79,3,5,4,4,0.4,0.4
2025-03-22T2300,2619A,98.8546,25.8417,怒江傈僳族自治州,泸水一中,,21,,29,12,25,65,,70,69,8,11,6,6,0.4,0.4
2025-03-22T2300,1888A,101.6891,26.571,攀枝花市,弄弄坪,颗粒物(PM10),53,56,85,34,57,79,,127,111,25,33,21,18,0.9,1.1
2025-03-22T2300,1889A,101.5769,26.5928,攀枝花市,河门口,颗粒物(PM10),55,60,84,38,60,76,,130,112,23,31,12,19,0.9,1.6
2025-03-22T2300,1890A,101.7169,26.585,攀枝花市,炳草岗,颗粒物(PM10),72,94,84,49,53,18,,126,94,84,48,18,18,1.2,1
2025-03-22T2300,1891A,101.7369,26.5008,攀枝花市,仁和,细颗粒物(PM2.5),54,49,81,38,60,62,,132,106,23,26,9,13,0.7,1
2025-03-22T2300,2835A,101.7227,26.567,攀枝花市,四十中小,细颗粒物(PM2.5),67,80,92,48,53,78,,119,102,35,42,21,18,2.2,1.3
2025-03-22T2300,1604A,122.0303,41.1489,盘锦市,开发区,细颗粒物(PM2.5),105,82,69,79,31,24,,98,71,65,44,15,38,1.4,0.7
2025-03-22T2300,1605A,122.0485,41.0883,盘锦市,兴隆台,颗粒物(PM10),69,88,73,49,32,27,,98,60,66,54,8,33,1.3,0.8
2025-03-22T2300,1606A,121.8297,41.1028,盘锦市,新生街道,细颗粒物(PM2.5),64,60,53,46,25,17,,73,47,68,40,9,24,1.1,0.7
2025-03-22T2300,1832A,113.3257,33.742,平顶山市,新华旅馆,颗粒物(PM10),61,72,84,36,28,54,,119,100,51,31,5,5,0.4,0.3
2025-03-22T2300,1833A,113.2919,33.737,平顶山市,规划设计院,颗粒物(PM10),73,95,85,39,32,38,,113,91,55,34,6,6,0.7,0.5
2025-03-22T2300,1834A,113.182,33.774,平顶山市,平顶山工学院,颗粒物(PM10),67,84,68,31,26,82,,121,113,23,15,6,6,0.5,0.5
2025-03-22T2300,3204A,113.3025,33.73,平顶山市,规划局,颗粒物(PM10),69,88,82,40,36,68,,120,103,39,31,5,6,0.6,0.6
2025-03-22T2300,3594A,112.8867,33.9116,平顶山市,石龙区,颗粒物(PM10),70,89,87,23,25,89,,121,107,27,24,6,9,0.1,0.3
2025-03-22T2300,2657A,106.7021,35.5307,平凉市,博物馆,颗粒物(PM10),76,102,75,39,30,54,,123,104,44,22,22,12,0.6,0.4
2025-03-22T2300,2347A,114.0997,27.5002,萍乡市,武功山,,34,34,28,23,15,72,,121,104,11,9,8,7,1.2,1.1
2025-03-22T2300,2348A,113.8385,27.6434,萍乡市,中医院,颗粒物(PM10),60,69,61,37,30,45,,133,100,45,31,10,14,0.9,0.9
2025-03-22T2300,2349A,113.8493,27.6253,萍乡市,市政府车库,颗粒物(PM10),53,56,52,36,35,69,,137,101,28,31,7,11,0.6,0.9
2025-03-22T2300,2350A,113.8676,27.6435,萍乡市,市环保局,"颗粒物(PM10),细颗粒物(PM2.5)",63,76,59,45,34,54,,137,99,44,37,11,13,0.8,0.9
2025-03-22T2300,2351A,113.866,27.6198,萍乡市,安源区政府,颗粒物(PM10),56,62,59,32,29,60,,135,102,23,27,9,12,0.6,1.3
2025-03-22T2300,2319A,119.0141,25.4325,莆田市,荔城区仓后路,细颗粒物(PM2.5),62,69,48,44,27,77,,155,116,30,21,4,3,0.8,0.7
2025-03-22T2300,2320A,119.0015,25.4553,莆田市,莆田市监测站,,39,38,34,27,20,105,,160,134,13,12,4,4,0.4,0.4
2025-03-22T2300,2321A,119.1119,25.4561,莆田市,涵江区六中,颗粒物(PM10),63,76,42,36,23,93,,159,116,31,26,4,4,0.6,0.5
2025-03-22T2300,2322A,119.1013,25.3215,莆田市,秀屿区政府,细颗粒物(PM2.5),89,89,54,66,35,28,,159,117,83,29,5,6,0.7,0.5
2025-03-22T2300,2392A,115.0312,35.7636,濮阳市,环保局,颗粒物(PM10),63,75,66,27,26,79,,125,116,25,36,7,7,0.6,0.6
2025-03-22T2300,2394A,115.0574,35.7609,濮阳市,油田运输公司,颗粒物(PM10),68,86,78,25,25,80,,128,114,27,33,5,6,0.8,0.8
2025-03-22T2300,3021A,115,35.7668,濮阳市,濮水河管理处,颗粒物(PM10),72,93,86,31,26,65,,124,108,36,45,5,6,0.7,0.7
2025-03-22T2300,4216A,115.0924,35.7686,濮阳市,任丘路479号,颗粒物(PM10),69,88,80,32,22,81,,136,121,26,30,6,8,0.6,0.5
2025-03-22T2300,2601A,100.98,22.7633,普洱市,市环保局,颗粒物(PM10),68,85,71,31,20,53,,102,93,21,15,3,4,0.9,0.8
2025-03-22T2300,2602A,100.9817,22.8322,普洱市,普洱第二中学,,,,,38,29,46,,88,75,15,18,6,6,0.8,0.8
2025-03-22T2300,2262A,131.0518,45.8751,七台河市,新一中,,26,13,9,6,4,82,,89,82,6,6,11,11,0.7,0.8
2025-03-22T2300,3345A,131.0577,45.7879,七台河市,中波台,,21,14,13,7,4,65,,80,72,12,11,6,7,0.5,0.4
2025-03-22T2300,3637A,131.0176,45.7761,七台河市,人民广场,,30,23,22,21,13,54,,79,68,14,11,7,7,0.7,0.5
2025-03-22T2300,3684A,130.8781,45.8222,七台河市,新建矿广场,,29,,11,20,14,48,,80,69,15,9,10,8,0.6,0.4
2025-03-22T2300,1779A,123.9305,47.3636,齐齐哈尔市,安居小区,,38,38,32,20,17,70,,80,68,24,19,7,10,0.4,0.3
2025-03-22T2300,1780A,123.9488,47.3386,齐齐哈尔市,中心广场,颗粒物(PM10),52,53,35,28,15,63,,74,68,23,16,6,7,0.4,0.4
2025-03-22T2300,1781A,123.9483,47.3227,齐齐哈尔市,农牧车辆厂,,49,39,30,34,16,74,,80,77,19,15,5,7,0.4,0.3
2025-03-22T2300,1783A,123.945,47.2988,齐齐哈尔市,市环境监测站,,29,26,26,20,13,78,,80,80,11,12,4,4,0.3,0.3
2025-03-22T2300,3662A,123.6333,47.2075,齐齐哈尔市,富区青少年活动中心,,32,31,25,22,15,74,,79,77,11,10,5,8,0.4,0.4
2025-03-22T2300,2591A,107.9783,26.5747,黔东南苗族侗族自治州,市环境监测站,细颗粒物(PM2.5),73,66,52,53,39,76,,146,118,40,30,5,6,0.6,0.5
2025-03-22T2300,2881A,107.8908,26.5311,黔东南苗族侗族自治州,凯里学院,细颗粒物(PM2.5),67,66,50,48,34,104,,169,150,17,14,4,5,0.7,0.6
2025-03-22T2300,2593A,107.5228,26.2403,黔南布依族苗族自治州,小围寨,细颗粒物(PM2.5),67,61,46,48,34,132,,179,166,13,13,11,9,0.9,0.7
2025-03-22T2300,3538A,107.5175,26.2978,黔南布依族苗族自治州,沙坝,细颗粒物(PM2.5),79,83,58,58,40,81,,169,137,29,21,8,8,0.9,0.6
2025-03-22T2300,2589A,104.9022,25.0925,黔西南布依族苗族自治州,场坝街,细颗粒物(PM2.5),94,85,53,70,58,116,,150,146,26,12,7,6,0.7,0.5
2025-03-22T2300,2590A,104.8811,25.0992,黔西南布依族苗族自治州,坪东大道,细颗粒物(PM2.5),95,97,52,71,45,80,,134,120,41,18,4,5,0.7,0.4
2025-03-22T2300,2502A,108.6236,21.9667,钦州市,市环保站,颗粒物(PM10),73,95,86,46,40,75,,163,130,58,42,11,13,0.8,0.6
2025-03-22T2300,2503A,108.6549,21.9481,钦州市,沙埠小学,颗粒物(PM10),80,110,85,53,48,45,,162,117,72,49,13,16,0.7,0.7
2025-03-22T2300,2504A,108.5989,21.7431,钦州市,港区一小,颗粒物(PM10),101,151,92,44,41,9,,158,114,136,59,27,13,1.0,0.8
2025-03-22T2300,3404A,108.5959,21.9633,钦州市,北职校,细颗粒物(PM2.5),74,77,82,54,47,82,,166,132,41,40,11,16,0.8,0.7
2025-03-22T2300,1043A,119.7493,40.0116,秦皇岛市,第一关,,40,40,42,23,17,12,,93,46,71,37,5,6,0.3,0.3
2025-03-22T2300,1044A,119.5897,39.9499,秦皇岛市,监测站,颗粒物(PM10),60,69,53,22,16,54,,96,73,29,28,10,9,0.5,0.6
2025-03-22T2300,1046A,119.5251,39.9041,秦皇岛市,建设大厦,颗粒物(PM10),67,84,63,33,21,58,,94,66,31,33,10,11,0.6,0.8
2025-03-22T2300,3132A,119.610547,39.943889,秦皇岛市,文明里,颗粒物(PM10),62,74,55,27,19,54,,90,66,26,32,9,9,0.4,0.5
2025-03-22T2300,4198A,119.5090,39.8253,秦皇岛市,北戴河轮滑馆,颗粒物(PM10),68,86,58,24,15,50,,93,80,29,22,19,13,1.0,0.7
2025-03-22T2300,1307A,120.6659,36.2403,青岛市,仰口,颗粒物(PM10),72,94,60,31,23,106,,143,127,13,11,7,6,0.3,0.3
2025-03-22T2300,1310A,120.4134,36.0658,青岛市,市南区东部子站,颗粒物(PM10),106,161,100,73,38,11,,83,48,111,63,15,14,1.6,0.8
2025-03-22T2300,1311A,120.3664,36.1032,青岛市,四方区子站,颗粒物(PM10),87,124,81,51,34,8,,122,57,128,67,16,11,1.2,0.9
2025-03-22T2300,1312A,120.2994,36.054,青岛市,市南区西部子站,颗粒物(PM10),123,195,97,76,35,5,,76,45,140,79,28,14,1.0,0.9
2025-03-22T2300,1313A,120.4581,36.0858,青岛市,崂山区子站,颗粒物(PM10),79,107,95,41,36,44,,81,54,58,49,13,14,0.9,1
2025-03-22T2300,1315A,120.3999,36.3083,青岛市,城阳区子站,颗粒物(PM10),102,153,86,51,28,7,,133,75,126,60,14,11,1.3,0.8
2025-03-22T2300,1966A,120.0405,35.8735,青岛市,黄岛区4号,颗粒物(PM10),62,73,64,24,24,92,,120,111,24,34,11,11,0.7,0.7
2025-03-22T2300,3362A,120.5014,36.4034,青岛市,即墨2号,颗粒物(PM10),102,154,95,55,37,40,,122,89,60,41,17,12,0.9,0.8
2025-03-22T2300,3642A,120.3503,36.0736,青岛市,市北区南部,颗粒物(PM10),69,87,74,34,29,35,,80,72,65,43,9,10,0.7,0.6
2025-03-22T2300,3643A,120.3948,36.1805,青岛市,李沧区北部,颗粒物(PM10),84,117,71,41,28,17,,128,87,103,47,12,12,0.9,0.7
2025-03-22T2300,4290A,120.1969,35.9546,青岛市,珠江路669号,颗粒物(PM10),68,85,92,37,38,76,,95,84,38,44,11,10,0.9,0.9
2025-03-22T2300,1702A,113.0426,23.691,清远市,环保大楼,细颗粒物(PM2.5),73,81,61,53,47,100,,239,191,43,28,15,16,0.9,0.7
2025-03-22T2300,1703A,113.0208,23.7106,清远市,凤城街办,颗粒物(PM10),74,97,70,47,42,85,,202,147,61,39,11,13,0.9,0.6
