timepoint,stationcode,longitude,latitude,area,positionname,primarypollutant,aqi,pm10,pm10_24h,pm2_5,pm2_5_24h,o3,o3_24h,o3_8h,o3_8h_24h,no2,no2_24h,so2,so2_24h,co,co_24h
2025-03-22T1700,2566A,102.1879,31.914,阿坝藏族羌族自治州,州农科所,,21,21,23,7,7,65,,63,63,14,13,10,10,0.2,0.2
2025-03-22T1700,2568A,102.2502,31.8896,阿坝藏族羌族自治州,马师校,,25,,15,8,13,78,,68,68,9,13,5,5,0.4,0.5
2025-03-22T1700,3994A,102.2165,31.9024,阿坝藏族羌族自治州,马尔康中学西区,,27,11,13,11,13,86,,76,76,5,9,5,5,0.4,0.4
2025-03-22T1700,2695A,80.292,41.1694,阿克苏地区,电视台,颗粒物(PM10),249,384,321,54,87,139,,96,96,7,39,10,8,0.4,0.8
2025-03-22T1700,2696A,80.2613,41.1551,阿克苏地区,艺术中心,颗粒物(PM10),155,259,325,80,87,129,,90,90,10,42,6,6,0.4,1.1
2025-03-22T1700,2204A,105.6467,38.8363,阿拉善盟,西城区西花园,颗粒物(PM10),133,215,90,41,24,120,,108,108,7,11,10,10,0.7,0.8
2025-03-22T1700,2205A,105.6985,38.8411,阿拉善盟,蒙二幼,颗粒物(PM10),128,206,75,49,25,114,,103,103,8,9,6,6,0.5,0.5
2025-03-22T1700,2206A,105.724,38.8516,阿拉善盟,环保局新楼,颗粒物(PM10),112,174,72,52,26,115,,106,106,4,4,8,8,0.7,0.7
2025-03-22T1700,2708A,88.1264,47.8517,阿勒泰地区,市站,,36,36,25,19,7,100,,108,96,9,7,3,2,0.4,0.4
2025-03-22T1700,2630A,80.1161,32.5,阿里地区,阿里监测站,,32,23,15,9,6,102,,94,92,2,4,7,8,0.5,0.5
2025-03-22T1700,3192A,80.0903,32.5028,阿里地区,阿里藏医院,,,,8,,2,,,113,,,1,,6,,0.4
2025-03-22T1700,2642A,109.0318,32.6537,安康市,香溪洞,颗粒物(PM10),59,67,49,27,28,112,,91,91,5,11,6,11,0.2,0.2
2025-03-22T1700,2644A,109.0072,32.6975,安康市,汉滨区检察院,颗粒物(PM10),52,53,53,31,25,100,,92,92,23,20,8,11,0.4,0.4
2025-03-22T1700,4054A,109.0325,32.6913,安康市,市邮政管理局,颗粒物(PM10),56,62,61,29,30,99,,94,94,24,23,7,14,0.7,0.6
2025-03-22T1700,2291A,117.0809,30.5177,安庆市,环科院,颗粒物(PM10),54,57,47,24,27,149,,134,134,21,46,10,10,0.4,0.4
2025-03-22T1700,2292A,117.0331,30.5119,安庆市,马山宾馆,,48,48,48,24,28,134,,123,123,27,45,6,6,0.5,0.5
2025-03-22T1700,2294A,116.9896,30.6145,安庆市,安庆大学,臭氧1小时,55,57,48,22,24,164,,148,148,16,26,8,11,0.4,0.4
2025-03-22T1700,3173A,117.0598,30.5351,安庆市,市人大,颗粒物(PM10),51,52,45,22,26,154,,141,141,12,26,9,11,0.4,0.5
2025-03-22T1700,3122A,105.9606,26.2611,安顺市,伍家关,细颗粒物(PM2.5),64,58,54,46,36,123,,117,117,8,13,8,20,0.6,0.5
2025-03-22T1700,3123A,105.9408,26.2431,安顺市,凤凰山,细颗粒物(PM2.5),64,55,53,46,42,137,,132,132,13,18,9,24,0.6,0.5
2025-03-22T1700,3124A,105.9439,26.2564,安顺市,金钟山,细颗粒物(PM2.5),59,54,50,42,42,137,,132,132,9,12,9,21,0.6,0.6
2025-03-22T1700,3125A,105.8983,26.2481,安顺市,娄家坡,细颗粒物(PM2.5),69,58,55,50,44,136,,130,130,8,13,7,20,0.7,0.6
2025-03-22T1700,1818A,114.4839,36.0621,安阳市,棉研所,,,,,,,,,,,,,,,,
2025-03-22T1700,1819A,114.3551,36.1017,安阳市,红庙街,颗粒物(PM10),65,80,75,30,24,128,,107,107,5,14,4,6,0.2,0.5
2025-03-22T1700,1820A,114.361,36.0681,安阳市,银杏小区,颗粒物(PM10),63,75,72,35,25,138,,116,116,9,19,4,5,0.3,0.4
2025-03-22T1700,3141A,114.3922,36.0878,安阳市,信访局,颗粒物(PM10),72,93,75,47,20,139,,119,119,18,22,6,9,0.2,0.4
2025-03-22T1700,3669A,114.4705,36.0637,安阳市,左辅环卫站,颗粒物(PM10),75,100,84,32,26,148,,128,128,8,19,7,9,0.3,0.5
2025-03-22T1700,3703A,114.2917,36.0949,安阳市,安钢职工学校,颗粒物(PM10),65,80,84,29,30,130,,110,110,10,19,4,6,0.5,0.6
2025-03-22T1700,1748A,123.044,41.1196,鞍山市,深沟寺,颗粒物(PM10),64,78,72,40,31,143,,102,102,20,30,18,28,0.7,1.4
2025-03-22T1700,1749A,123.011,41.0931,鞍山市,太阳城,颗粒物(PM10),69,87,70,44,33,146,,108,108,18,28,13,23,0.7,1.3
2025-03-22T1700,1750A,123.0485,41.1442,鞍山市,太平,颗粒物(PM10),69,87,75,40,31,139,,103,103,20,34,14,26,0.6,1.2
2025-03-22T1700,1751A,122.9642,41.0971,鞍山市,铁西三道街,细颗粒物(PM2.5),78,82,72,57,36,148,,110,110,28,32,10,21,0.6,1.1
2025-03-22T1700,1753A,123.022,41.0821,鞍山市,明达新区,颗粒物(PM10),65,80,67,45,32,148,,114,114,18,23,15,22,0.5,1
2025-03-22T1700,1754A,123.1289,41.0228,鞍山市,千山,,,,48,,14,,,87,,,13,,9,,0.7
2025-03-22T1700,4201A,122.9446,41.0826,鞍山市,兴盛南路290号,颗粒物(PM10),75,99,82,49,36,149,,110,110,30,35,14,26,0.4,1.1
2025-03-22T1700,2195A,107.4212,40.761,巴彦淖尔市,附二中,颗粒物(PM10),113,175,123,34,27,104,,95,95,4,8,4,4,0.3,0.3
2025-03-22T1700,2196A,107.37,40.7372,巴彦淖尔市,市环保大楼,颗粒物(PM10),113,175,112,38,30,111,,102,102,3,7,4,4,0.3,0.3
2025-03-22T1700,1956A,86.1472,41.7538,巴音郭楞蒙古自治州,孔雀公园,颗粒物(PM10),500,1253,420,143,80,107,,81,81,5,43,6,7,0.2,0.6
2025-03-22T1700,1957A,86.1972,41.7166,巴音郭楞蒙古自治州,棉纺厂,颗粒物(PM10),500,1373,483,237,89,104,,86,86,8,19,3,3,0.3,0.3
2025-03-22T1700,1958A,86.2357,41.7173,巴音郭楞蒙古自治州,经济开发区,颗粒物(PM10),500,1492,445,189,71,105,,91,91,8,19,5,5,0.2,0.2
2025-03-22T1700,2914A,106.7677,31.8794,巴中市,苏山坪,细颗粒物(PM2.5),77,77,49,56,34,55,,84,54,33,19,5,5,0.5,0.3
2025-03-22T1700,3181A,106.7768,31.8526,巴中市,市五中,细颗粒物(PM2.5),69,73,60,50,39,53,,45,45,38,33,6,5,0.7,0.7
2025-03-22T1700,3183A,106.7418,31.8654,巴中市,圣泉水务公司,细颗粒物(PM2.5),60,62,51,43,35,42,,46,46,40,40,8,7,0.6,0.5
2025-03-22T1700,3616A,106.7616,31.8344,巴中市,市中心医院,"颗粒物(PM10),细颗粒物(PM2.5)",60,70,55,43,43,51,,55,55,42,36,8,7,0.6,0.6
2025-03-22T1700,2235A,122.7911,45.6077,白城市,洮北区环保局,,37,37,83,19,54,87,,88,88,13,20,6,6,0.4,0.6
2025-03-22T1700,2236A,122.8738,45.5725,白城市,市环保局,,34,34,79,17,36,95,,93,93,8,22,2,3,0.5,0.6
2025-03-22T1700,2231A,126.4219,41.9171,白山市,喜丰,颗粒物(PM10),77,103,77,17,28,179,,128,128,22,26,12,15,1.2,1.2
2025-03-22T1700,2232A,126.4077,41.9419,白山市,环保局,细颗粒物(PM2.5),79,94,68,58,30,159,,109,109,8,13,14,12,1.2,1.2
2025-03-22T1700,2647A,104.1724,36.5446,白银市,第三小学,颗粒物(PM10),81,111,79,37,31,117,,96,96,9,23,61,33,0.1,0.3
2025-03-22T1700,2648A,104.1465,36.5482,白银市,动力公司,颗粒物(PM10),83,115,70,35,30,120,,102,102,10,17,11,7,0.2,0.4
2025-03-22T1700,2512A,106.6103,23.9011,百色市,市监测站,臭氧1小时,85,74,83,39,54,188,,142,142,13,22,17,19,0.7,0.9
2025-03-22T1700,2513A,106.6538,23.8859,百色市,市中心血站,臭氧1小时,83,78,96,46,65,186,,143,143,14,25,16,23,0.7,0.9
2025-03-22T1700,3406A,106.6085,23.8798,百色市,祈福高中,臭氧1小时,75,96,106,37,52,180,,135,135,12,36,15,17,0.8,0.9
2025-03-22T1700,2270A,117.396,32.939,蚌埠市,工人疗养院,颗粒物(PM10),60,70,64,27,26,144,,132,132,21,26,6,6,0.5,0.5
2025-03-22T1700,2271A,117.3605,32.9427,蚌埠市,百货大楼,颗粒物(PM10),65,79,65,27,28,138,,126,126,18,29,6,7,0.2,0.3
2025-03-22T1700,2273A,117.4185,32.8911,蚌埠市,蚌埠学院,颗粒物(PM10),60,70,74,24,30,150,,134,134,8,31,4,5,0.3,0.4
2025-03-22T1700,2274A,117.3533,32.9673,蚌埠市,淮上区政府,颗粒物(PM10),62,73,67,24,32,141,,133,133,15,27,6,7,0.4,0.5
2025-03-22T1700,2275A,117.3145,32.8977,蚌埠市,高新区,颗粒物(PM10),58,66,69,27,36,143,,132,132,8,30,6,6,0.3,0.4
2025-03-22T1700,3715A,117.3092,32.9314,蚌埠市,蚌埠田家炳中学,颗粒物(PM10),64,77,71,26,32,147,,134,134,17,36,7,14,0.2,0.3
2025-03-22T1700,1585A,109.8756,40.6532,包头市,市环境监测站,颗粒物(PM10),84,117,110,19,45,117,,102,102,10,58,10,19,0.5,1.3
2025-03-22T1700,1587A,109.9991,40.5842,包头市,包头八中,颗粒物(PM10),78,106,121,31,54,113,,108,108,12,56,8,28,0.4,1.1
2025-03-22T1700,1588A,109.8538,40.6821,包头市,青山宾馆,颗粒物(PM10),84,118,88,30,38,116,,99,99,7,43,7,11,0.5,0.8
2025-03-22T1700,1589A,109.8642,40.6288,包头市,惠龙物流,颗粒物(PM10),73,95,126,18,59,117,,106,106,11,51,9,33,0.5,1.5
2025-03-22T1700,1590A,110.0377,40.5546,包头市,东河鸿龙湾,颗粒物(PM10),76,101,109,19,39,119,,106,106,6,41,8,42,0.5,1
2025-03-22T1700,3283A,109.9154,40.5685,包头市,滨河大厦,颗粒物(PM10),75,100,92,21,37,118,,107,107,6,33,8,41,0.5,0.9
2025-03-22T1700,3419A,109.9447,40.6261,包头市,包头市委党校,颗粒物(PM10),75,100,92,17,39,114,,104,104,8,51,7,20,0.4,1
2025-03-22T1700,3683A,109.8331,40.6576,包头市,昆区政府,颗粒物(PM10),74,98,103,31,52,114,,98,98,10,51,6,23,0.4,1.5
2025-03-22T1700,1930A,107.185,34.3063,宝鸡市,庙沟村,,49,49,47,27,30,131,,112,112,10,14,8,7,0.2,0.2
2025-03-22T1700,1931A,107.0708,34.3017,宝鸡市,竹园沟,颗粒物(PM10),54,57,53,23,26,137,,108,108,10,17,7,6,0.3,0.3
2025-03-22T1700,1932A,107.1906,34.3672,宝鸡市,三陆医院,颗粒物(PM10),57,64,78,29,39,129,,94,94,13,26,6,6,0.5,0.6
2025-03-22T1700,1933A,107.1431,34.3547,宝鸡市,监测站,颗粒物(PM10),59,67,67,28,32,125,,94,94,20,26,9,8,0.5,0.6
2025-03-22T1700,1934A,107.1186,34.3739,宝鸡市,技工学校,颗粒物(PM10),57,64,67,29,33,127,,94,94,18,20,7,7,0.4,0.5
2025-03-22T1700,1935A,107.3906,34.3528,宝鸡市,陈仓区环保局家属楼,颗粒物(PM10),55,59,75,22,47,125,,97,97,7,23,7,31,0.5,0.7
2025-03-22T1700,1936A,107.2058,34.3497,宝鸡市,文理学院,,,,65,,33,133,,103,103,14,20,7,6,0.3,0.5
2025-03-22T1700,1937A,107.2386,34.3622,宝鸡市,三迪小学,颗粒物(PM10),54,58,68,29,39,128,,98,98,20,31,8,7,0.4,0.4
2025-03-22T1700,1051A,115.493,38.8632,保定市,游泳馆,,47,47,57,13,18,111,,108,108,10,23,9,10,0.3,0.3
2025-03-22T1700,1052A,115.5213,38.8959,保定市,华电二区,,44,44,40,17,17,113,,113,113,4,10,3,2,0.1,0.3
2025-03-22T1700,1053A,115.4713,38.9108,保定市,接待中心,,43,43,50,13,19,112,,109,109,10,17,3,3,0.1,0.2
2025-03-22T1700,1054A,115.4612,38.8416,保定市,地表水厂,颗粒物(PM10),62,73,67,9,16,115,,110,110,9,20,3,4,0.3,0.3
2025-03-22T1700,3581A,115.31981,38.95208,保定市,满城区生态环境分局,,39,39,39,9,11,118,,115,115,6,6,2,3,0.1,0.2
2025-03-22T1700,3582A,115.47694,38.76408,保定市,清苑区第二中学,颗粒物(PM10),62,73,72,8,18,110,,107,107,8,13,10,10,0.3,0.3
2025-03-22T1700,3583A,115.62909,39.02311,保定市,徐水物探局,颗粒物(PM10),55,60,71,22,23,123,,114,114,8,33,12,12,0.0,0.1
2025-03-22T1700,4004A,115.4202,38.8656,保定市,双鹰农机,颗粒物(PM10),51,52,56,3,18,112,,110,110,5,29,4,6,0.2,0.2
2025-03-22T1700,4034A,115.5150,38.8590,保定市,植保所站,,39,39,54,20,21,111,,107,107,3,13,2,3,0.2,0.3
2025-03-22T1700,2594A,99.1678,25.1081,保山市,市环境监测站,,49,44,50,34,45,118,,101,101,9,12,6,5,0.5,0.6
2025-03-22T1700,2595A,99.1711,25.1328,保山市,市环保局,细颗粒物(PM2.5),57,54,55,40,39,120,,104,104,6,8,5,4,0.5,0.7
2025-03-22T1700,1866A,109.2262,21.588,北海市,牛尾岭水库,,,39,43,24,41,148,,146,146,,,7,10,0.6,0.7
2025-03-22T1700,1867A,109.1436,21.4086,北海市,海滩公园,臭氧1小时,73,54,47,24,29,178,,169,169,14,18,9,8,0.6,0.6
2025-03-22T1700,1868A,109.0981,21.4661,北海市,新市环保局,,42,39,46,22,34,133,,149,149,36,28,5,5,0.5,0.6
2025-03-22T1700,1869A,109.1778,21.5233,北海市,北海工业园,颗粒物(PM10),53,56,67,27,46,152,,154,154,23,30,8,12,0.5,0.6
2025-03-22T1700,3400A,109.1911,21.4415,北海市,龙潭自来水厂,,49,40,50,26,40,154,,156,156,24,28,7,8,0.4,0.5
2025-03-22T1700,1001A,116.3621,39.8784,北京市,万寿西宫,颗粒物(PM10),51,51,47,21,16,114,,105,105,7,19,3,2,0,0
2025-03-22T1700,1002A,116.2202,40.2915,北京市,定陵,,,,,,,,,,,,,,,,
2025-03-22T1700,1003A,116.4174,39.9289,北京市,东四,,47,47,43,15,16,112,,104,104,7,11,5,4,0.3,0.4
2025-03-22T1700,1004A,116.4072,39.8863,北京市,天坛,颗粒物(PM10),52,53,44,17,15,107,,100,100,7,16,1,2,0.3,0.4
2025-03-22T1700,1005A,116.462,39.9365,北京市,农展馆,,48,48,41,17,14,105,,97,97,1,8,6,6,0.3,0.4
2025-03-22T1700,1006A,116.3392,39.9295,北京市,官园,颗粒物(PM10),54,57,46,17,15,102,,93,93,10,12,7,7,0.4,0.4
2025-03-22T1700,1007A,116.2878,39.9611,北京市,海淀万柳,,50,50,43,18,14,92,,86,86,12,15,4,4,0.3,0.4
2025-03-22T1700,1008A,116.6636,40.135,北京市,顺义新城,,49,49,55,17,18,106,,101,101,7,29,5,6,0,0.1
2025-03-22T1700,1009A,116.6275,40.3275,北京市,怀柔镇,,31,31,37,10,14,90,,89,89,1,5,2,3,0.4,0.4
2025-03-22T1700,1010A,116.2296,40.217,北京市,昌平镇,颗粒物(PM10),52,54,52,14,17,103,,99,99,8,21,2,2,0.4,0.5
2025-03-22T1700,1011A,116.3966,39.9821,北京市,奥体中心,,41,41,44,16,16,105,,98,98,12,21,3,3,0,0.2
2025-03-22T1700,3281A,115.9718,40.4529,北京市,延庆夏都,颗粒物(PM10),52,53,55,16,19,103,,94,94,4,9,5,7,0.4,0.4
2025-03-22T1700,3418A,116.8336,40.4095,北京市,密云新城,,41,41,33,17,12,94,,83,83,7,11,4,3,0.4,0.4
2025-03-22T1700,3671A,116.088,39.9726,北京市,门头沟三家店,颗粒物(PM10),52,53,72,20,24,109,,78,,3,19,5,5,0.4,0.8
2025-03-22T1700,3672A,116.1541,39.8204,北京市,丰台云岗,,46,46,41,27,15,119,,110,110,2,2,4,4,0.3,0.3
2025-03-22T1700,3673A,116.6804,39.9081,北京市,通州东关,,45,45,42,8,7,106,,60,,5,17,3,4,0.5,0.5
2025-03-22T1700,3674A,115.9577,39.7603,北京市,房山燕山,颗粒物(PM10),53,55,36,17,16,101,,94,94,4,5,5,5,0.2,0.2
2025-03-22T1700,3675A,116.4672,39.7733,北京市,大兴旧宫,,47,47,48,16,17,98,,91,91,4,21,1,1,0.1,0.2
2025-03-22T1700,3694A,115.986,40.4563,北京市,延庆石河营,,49,49,49,14,18,103,,95,95,4,12,5,5,0.3,0.3
2025-03-22T1700,3695A,116.6151,40.3053,北京市,怀柔新城,,31,31,32,11,11,95,,92,92,2,2,4,5,0.3,0.4
2025-03-22T1700,3696A,116.2545,39.8768,北京市,丰台小屯,颗粒物(PM10),51,52,55,22,22,100,,94,94,5,30,2,2,0.2,0.2
2025-03-22T1700,3697A,116.84,40.3844,北京市,密云镇,,44,44,39,15,13,100,,85,85,2,25,5,5,0.2,0.3
2025-03-22T1700,4182A,116.1942,39.9158,北京市,八角北路9号,颗粒物(PM10),54,57,53,16,16,119,,110,110,4,15,8,5,0.3,0.3
2025-03-22T1700,4194A,117.0790,40.1518,北京市,洳河巡河路,,38,38,38,13,16,106,,94,94,21,26,2,2,0.3,0.4
2025-03-22T1700,1761A,123.8275,41.3064,本溪市,大峪,颗粒物(PM10),57,64,80,39,45,131,,106,106,18,40,15,23,0.5,1.7
2025-03-22T1700,1762A,123.7567,41.3325,本溪市,溪湖,颗粒物(PM10),60,70,76,34,34,129,,108,108,23,39,16,20,0.7,1.7
2025-03-22T1700,1763A,123.7169,41.3094,本溪市,彩屯,颗粒物(PM10),57,63,92,32,50,134,,113,113,18,33,14,20,0.8,1.9
2025-03-22T1700,1764A,123.7669,41.2864,本溪市,东明,颗粒物(PM10),51,52,108,35,45,120,,99,99,20,48,14,30,0.6,2.1
2025-03-22T1700,1765A,123.7992,41.2664,本溪市,新立屯,细颗粒物(PM2.5),54,49,64,38,35,132,,114,114,16,41,13,18,0.6,1.2
2025-03-22T1700,1766A,123.8142,41.3472,本溪市,威宁,颗粒物(PM10),58,65,98,36,38,133,,104,104,12,30,10,11,0.5,1.2
2025-03-22T1700,2587A,105.2864,27.3125,毕节市,八中,细颗粒物(PM2.5),52,49,50,36,35,110,,98,98,11,11,12,11,0.5,0.5
2025-03-22T1700,2588A,105.31,27.2944,毕节市,师专,细颗粒物(PM2.5),52,47,46,36,33,122,,106,106,11,12,10,9,0.6,0.6
2025-03-22T1700,4263A,105.3688,27.3598,毕节市,工业大道,,,47,44,30,31,123,,111,111,,12,12,11,0.5,0.5
2025-03-22T1700,1629A,118.0018,37.3617,滨州市,第二水厂,颗粒物(PM10),85,119,88,24,28,120,,95,95,14,27,12,11,1.1,1.1
2025-03-22T1700,1630A,117.9776,37.393,滨州市,北中新校,颗粒物(PM10),73,95,85,24,28,126,,102,102,15,27,12,29,0.2,0.6
2025-03-22T1700,3514A,117.9378,37.3956,滨州市,中海酒店,颗粒物(PM10),74,97,79,27,33,129,,106,106,13,27,10,14,0.3,0.5
2025-03-22T1700,3515A,117.9378,37.3553,滨州市,开发区一中,颗粒物(PM10),84,117,95,34,31,123,,98,98,22,35,17,13,0.3,0.3
2025-03-22T1700,3516A,118.0917,37.694,滨州市,金海六路,颗粒物(PM10),75,100,88,12,29,114,,100,100,15,29,6,9,0.5,0.7
2025-03-22T1700,4028A,117.9956,37.3753,滨州市,滨州市西街道办事处,颗粒物(PM10),78,105,82,34,33,128,,102,102,14,25,11,11,0.2,0.2
2025-03-22T1700,2311A,115.8072,33.8399,亳州市,污水处理厂,颗粒物(PM10),64,77,62,18,20,139,,122,122,14,17,4,5,0.1,0.2
2025-03-22T1700,2312A,115.7789,33.8518,亳州市,三国揽胜宫,颗粒物(PM10),71,92,65,24,22,131,,114,114,9,14,5,6,0.2,0.2
2025-03-22T1700,3332A,115.7633,33.8034,亳州市,亳州学院,颗粒物(PM10),57,64,57,23,24,132,,113,113,9,15,5,6,0.2,0.2
2025-03-22T1700,2693A,82.0485,44.8556,博尔塔拉蒙古自治州,市党校,颗粒物(PM10),58,65,54,28,26,134,,99,99,10,12,11,15,0.3,0.2
2025-03-22T1700,2694A,82.0806,44.8969,博尔塔拉蒙古自治州,市环保局,颗粒物(PM10),70,90,65,28,25,120,,80,80,16,31,5,5,0.8,0.7
2025-03-22T1700,1071A,116.8842,38.2991,沧州市,沧县城建局,颗粒物(PM10),55,59,69,16,22,115,,102,102,7,21,3,3,0.3,0.4
2025-03-22T1700,1072A,116.8584,38.3254,沧州市,电视转播站,,46,46,61,9,22,116,,103,103,9,24,2,7,0.4,0.4
2025-03-22T1700,1073A,116.8709,38.3228,沧州市,市环保局,颗粒物(PM10),52,53,61,17,24,112,,100,100,7,20,8,9,0.3,0.4
2025-03-22T1700,3324A,116.8136,38.3004,沧州市,河北水利电力学院,颗粒物(PM10),52,53,76,14,27,102,,93,93,8,27,5,6,0.1,0.2
2025-03-22T1700,2622A,97.1806,31.1273,昌都市,昌都监测站,,26,6,9,3,10,82,,88,86,4,6,7,7,0.7,0.7
2025-03-22T1700,3719A,97.1714,31.1406,昌都市,昌都会议中心,,,16,11,9,9,97,,95,93,,,3,3,0.1,0.1
2025-03-22T1700,2690A,88.1236,43.8886,昌吉回族自治州,天山天池,,33,19,15,7,11,104,,89,89,6,4,9,5,0.5,0.4
2025-03-22T1700,2692A,87.2717,44.0297,昌吉回族自治州,新区政务中心,,,57,103,18,22,92,,95,95,,30,8,10,,0.7
2025-03-22T1700,3613A,87.3095,44.0142,昌吉回族自治州,亚心广场,颗粒物(PM10),68,85,143,27,30,95,,100,100,8,26,7,9,0.4,0.6
2025-03-22T1700,1119A,125.3325,43.9166,长春市,食品厂,细颗粒物(PM2.5),176,,122,133,99,149,,136,136,21,32,12,10,0.7,0.7
2025-03-22T1700,1120A,125.2863,43.9027,长春市,客车厂,细颗粒物(PM2.5),179,,116,135,103,138,,123,123,26,35,10,8,0.7,0.7
2025-03-22T1700,1121A,125.2841,43.8463,长春市,邮电学院,细颗粒物(PM2.5),115,109,111,87,80,143,,132,132,19,25,11,11,0.6,0.6
2025-03-22T1700,1122A,125.3716,43.8772,长春市,劳动公园,细颗粒物(PM2.5),123,103,110,93,89,138,,124,124,21,25,12,11,0.6,0.6
2025-03-22T1700,1123A,125.3297,43.8805,长春市,园林处,细颗粒物(PM2.5),115,96,103,87,77,137,,126,126,22,25,10,9,0.5,0.5
2025-03-22T1700,1124A,125.4605,43.79,长春市,净月潭,细颗粒物(PM2.5),89,67,136,66,95,130,,123,123,14,20,9,8,0.5,0.6
2025-03-22T1700,1125A,125.7194,43.515,长春市,甩湾子,,,,,,,,,,,,,,,,
2025-03-22T1700,1126A,125.3863,43.8447,长春市,经开区环卫处,细颗粒物(PM2.5),87,97,119,64,86,126,,121,121,17,30,9,9,0.5,0.6
2025-03-22T1700,1127A,125.245,43.7783,长春市,高新区管委会,细颗粒物(PM2.5),89,86,102,66,80,130,,120,120,23,32,11,10,0.5,0.6
2025-03-22T1700,1128A,125.1761,43.8325,长春市,岱山公园,细颗粒物(PM2.5),104,99,134,78,111,130,,126,126,43,44,8,8,0.8,0.9
2025-03-22T1700,1335A,113.0833,28.2325,长沙市,经开区环保局,臭氧1小时,70,52,67,28,32,176,,132,132,14,46,7,14,0.5,0.5
2025-03-22T1700,1336A,112.8872,28.2189,长沙市,高开区环保局,臭氧1小时,74,63,93,24,46,179,,135,135,7,54,8,8,0.5,0.9
2025-03-22T1700,1337A,113.0792,28.2053,长沙市,马坡岭,臭氧1小时,80,56,76,28,37,184,,136,136,10,43,9,6,0.4,0.5
2025-03-22T1700,1338A,112.9394,28.19,长沙市,湖南师范大学,臭氧1小时,57,55,67,25,33,165,,135,135,9,36,8,8,0.6,0.8
2025-03-22T1700,1339A,113.0178,28.1322,长沙市,雨花区环保局,臭氧1小时,64,57,71,25,33,171,,130,130,12,51,12,8,0.6,0.6
2025-03-22T1700,1340A,112.9792,28.2597,长沙市,伍家岭,臭氧1小时,72,66,93,24,40,177,,128,128,14,58,8,5,0.6,0.7
2025-03-22T1700,1341A,113.0014,28.1944,长沙市,火车新站,颗粒物(PM10),67,84,96,34,50,170,,130,130,18,64,12,8,0.7,0.9
2025-03-22T1700,1342A,112.9844,28.1178,长沙市,天心区环保局,臭氧1小时,73,46,80,27,42,178,,142,142,13,59,9,6,0.7,0.9
2025-03-22T1700,1343A,112.8908,28.1308,长沙市,湖南中医药大学,细颗粒物(PM2.5),55,48,82,39,40,162,,130,130,7,53,6,7,0.2,0.5
2025-03-22T1700,1344A,112.9581,28.3611,长沙市,沙坪,臭氧1小时,63,49,43,30,30,170,,125,125,9,17,11,8,0.7,0.6
2025-03-22T1700,1727A,113.1147,36.1547,长治市,清华站,颗粒物(PM10),51,51,51,14,19,118,,105,105,8,23,3,7,0.3,0.3
2025-03-22T1700,1730A,113.0886,36.2125,长治市,审计局,,47,47,48,14,18,120,,104,104,11,25,6,10,0.2,0.3
2025-03-22T1700,1731A,113.0844,36.1856,长治市,长治八中,颗粒物(PM10),62,73,68,20,28,122,,107,107,9,24,6,12,0.7,0.9
2025-03-22T1700,2845A,113.1569,36.1911,长治市,德盛苑,颗粒物(PM10),54,58,45,17,15,118,,106,106,8,12,4,5,0.2,0.3
2025-03-22T1700,3568A,113.06,36.0464,长治市,向阳小学,颗粒物(PM10),77,103,67,35,29,107,,108,108,18,18,10,10,0.3,0.4
2025-03-22T1700,3569A,112.8792,36.3144,长治市,屯留一中,颗粒物(PM10),52,54,48,23,15,119,,110,110,15,31,7,8,0.6,0.6
2025-03-22T1700,4189A,113.1131,36.19948,长治市,英华南巷50号,颗粒物(PM10),53,56,60,12,21,122,,108,108,12,25,9,15,0.3,0.7
2025-03-22T1700,4190A,113.2367,36.3344,长治市,学府街1号,颗粒物(PM10),59,67,68,22,25,124,,110,110,3,28,3,20,0.3,0.6
2025-03-22T1700,1854A,111.6975,28.9703,常德市,市二中,,40,37,49,28,32,112,,95,95,8,13,5,9,0.4,0.5
2025-03-22T1700,1857A,111.7158,29.1456,常德市,白鹤山,,,,,,,,,,,,,,,,
2025-03-22T1700,3138A,111.7153,29.0289,常德市,武陵区永安,,38,38,54,23,31,111,,98,98,11,19,5,7,0.4,0.5
2025-03-22T1700,3139A,111.6892,28.9881,常德市,鼎城区玉霞,,49,49,53,22,29,125,,110,110,12,22,5,7,0.4,0.5
2025-03-22T1700,3140A,111.6625,29.0531,常德市,武陵区长庚,,46,46,54,24,29,120,,106,106,7,14,6,6,0.4,0.4
2025-03-22T1700,1196A,119.9633,31.762,常州市,市监测站,颗粒物(PM10),54,58,57,28,30,158,,144,144,19,41,6,13,0.5,0.7
2025-03-22T1700,1200A,119.9468,31.7069,常州市,武进监测站,,49,46,50,23,30,154,,146,146,23,43,5,20,0.5,0.6
2025-03-22T1700,1201A,119.9255,31.9087,常州市,安家,颗粒物(PM10),51,51,76,18,39,146,,140,140,24,62,9,17,0.3,0.6
2025-03-22T1700,3002A,119.9805,31.8174,常州市,行政中心,,46,37,43,20,26,146,,137,137,17,32,13,14,0.4,0.5
2025-03-22T1700,3003A,120.0522,31.7748,常州市,经开区,臭氧1小时,63,57,56,20,26,170,,154,154,21,37,11,19,0.5,0.7
2025-03-22T1700,3010A,119.9025,31.7964,常州市,钟楼,颗粒物(PM10),52,54,57,21,30,150,,143,143,18,40,8,12,0.6,0.8
2025-03-22T1700,3429A,119.8598,31.7066,常州市,武进经发区,臭氧1小时,53,51,56,23,29,162,,151,151,19,40,9,16,0.7,0.8
2025-03-22T1700,3430A,119.5826,31.7245,常州市,金坛城区,臭氧1小时,52,44,59,22,32,161,,152,152,14,26,8,15,0.4,0.6
2025-03-22T1700,2220A,120.4318,41.5881,朝阳市,西梁,,35,30,69,14,27,111,,102,102,6,20,12,15,0.4,0.7
2025-03-22T1700,2221A,120.4521,41.5646,朝阳市,河畔小区,,35,35,69,12,20,109,,100,100,8,17,8,10,0.4,0.6
2025-03-22T1700,2222A,120.4176,41.5648,朝阳市,八里堡,,33,24,75,12,29,104,,96,96,6,22,8,11,0.3,0.5
2025-03-22T1700,2223A,120.3806,41.5969,朝阳市,农业园区,,36,36,60,15,19,108,,105,105,6,12,9,10,0.4,0.5
2025-03-22T1700,1705A,116.6367,23.6719,潮州市,西园路,臭氧1小时,75,73,58,38,38,180,,159,159,28,23,6,6,0.4,0.4
2025-03-22T1700,3026A,116.6183,23.6608,潮州市,市政府,颗粒物(PM10),66,81,67,33,32,157,,146,146,37,39,6,12,0.5,0.6
2025-03-22T1700,4036A,116.6461,23.6761,潮州市,金山,臭氧1小时,70,85,54,48,32,176,,158,158,28,23,11,9,0.5,0.6
2025-03-22T1700,2472A,113.0073,25.9061,郴州市,马头岭,,48,48,46,26,17,126,,108,108,10,16,10,15,0.4,0.4
2025-03-22T1700,2473A,113.0116,25.8226,郴州市,市职中,颗粒物(PM10),66,82,75,21,34,150,,123,123,9,37,7,11,0.4,0.5
2025-03-22T1700,2475A,113.0383,25.8071,郴州市,市审计局,,46,33,50,22,29,146,,124,124,11,35,6,8,0.3,0.5
2025-03-22T1700,2476A,113.0348,25.7759,郴州市,市环保局,,44,37,53,24,29,139,,110,110,8,36,7,8,0.4,0.4
2025-03-22T1700,4252A,113.0138,25.8011,郴州市,好美居路49号,,46,46,60,21,34,142,,118,118,12,39,8,12,0.4,0.5
2025-03-22T1700,1431A,103.9728,30.7236,成都市,金泉两河,颗粒物(PM10),66,81,68,28,36,78,,44,44,32,51,4,3,0.7,0.8
2025-03-22T1700,1432A,104.176,30.6872,成都市,十里店,细颗粒物(PM2.5),69,86,72,50,42,49,,31,31,74,59,4,4,0.7,0.7
2025-03-22T1700,1433A,104.079,30.5706,成都市,三瓦窑,细颗粒物(PM2.5),68,66,74,49,42,77,,40,40,40,65,6,6,0.7,0.9
2025-03-22T1700,1434A,104.1114,30.63,成都市,沙河铺,颗粒物(PM10),65,80,71,46,48,65,,35,35,44,47,6,5,0.6,0.7
2025-03-22T1700,1437A,104.0786,30.6531,成都市,君平街,细颗粒物(PM2.5),75,87,70,55,47,62,,38,38,56,60,8,7,0.8,0.8
2025-03-22T1700,1438A,103.613,31.0283,成都市,灵岩寺,,,,,,,,,,,,,,,,
2025-03-22T1700,2880A,104.0239,30.65639,成都市,大石西路,细颗粒物(PM2.5),69,86,71,50,46,71,,40,40,52,59,6,5,0.7,0.9
2025-03-22T1700,3136A,104.2725,30.5589,成都市,龙泉驿区区政府,细颗粒物(PM2.5),55,58,54,39,33,90,,60,56,22,28,6,5,0.6,0.7
2025-03-22T1700,3357A,104.0106,30.6931,成都市,金博路,细颗粒物(PM2.5),65,64,61,47,35,69,,36,36,38,53,8,7,0.7,0.8
2025-03-22T1700,3359A,104.0578,30.5225,成都市,华阳,细颗粒物(PM2.5),62,68,67,44,45,74,,37,37,33,55,8,7,0.3,0.5
2025-03-22T1700,3488A,104.3853,30.7453,成都市,青白江技师分院,细颗粒物(PM2.5),68,70,64,49,42,58,,32,32,46,53,8,7,0.6,0.6
2025-03-22T1700,3489A,104.0789,30.4072,成都市,科学城,细颗粒物(PM2.5),63,63,57,45,39,79,,46,46,21,35,7,6,0.6,0.7
2025-03-22T1700,4011A,103.8506,30.6947,成都市,光华大道三段,颗粒物(PM10),59,68,68,40,43,101,,54,54,29,47,6,5,0.6,0.8
2025-03-22T1700,4224A,104.2433,30.5353,成都市,鲸龙路1057号,细颗粒物(PM2.5),62,70,64,44,38,83,,47,46,24,38,6,6,0.7,0.8
2025-03-22T1700,1062A,117.9531,40.9081,承德市,铁路,,28,26,35,3,9,89,,76,76,5,22,5,8,0.2,0.4
2025-03-22T1700,1063A,117.9392,40.9763,承德市,中国银行,,28,27,40,3,9,89,,82,82,4,23,2,3,0.2,0.3
2025-03-22T1700,1064A,117.9503,40.928,承德市,开发区,,30,30,43,9,16,91,,79,79,6,26,6,7,0.2,0.4
2025-03-22T1700,1065A,117.8051,40.9655,承德市,文化中心,,29,23,51,3,12,92,,83,83,6,28,3,4,0.2,0.3
2025-03-22T1700,1066A,117.9268,41.0026,承德市,离宫,,26,21,35,6,16,81,,72,72,3,10,5,5,0.2,0.2
2025-03-22T1700,2314A,117.47,30.6618,池州市,池州学院,,48,48,45,24,24,143,,137,137,13,22,8,12,0.4,0.6
2025-03-22T1700,3237A,117.4918,30.6617,池州市,展览馆,,46,46,43,21,23,142,,136,136,11,26,6,9,0.4,0.6
2025-03-22T1700,3333A,117.5627,30.695,池州市,第八中学,,45,44,40,20,21,143,,141,141,9,18,5,7,0.2,0.4
2025-03-22T1700,3334A,117.5038,30.6243,池州市,第十二中学,,46,46,41,24,21,142,,142,142,9,17,7,8,0.2,0.5
2025-03-22T1700,1744A,118.9233,42.2816,赤峰市,松山一中,,26,24,34,12,7,81,,82,82,15,22,9,10,0.4,0.5
2025-03-22T1700,1745A,118.9576,42.2728,赤峰市,哈达街,,24,24,33,3,8,73,,74,74,14,14,11,12,0.6,0.6
2025-03-22T1700,1746A,118.8788,42.2554,赤峰市,天义路,,25,15,36,3,10,77,,75,75,11,15,6,8,0.3,0.3
2025-03-22T1700,3058A,119.2658,42.0353,赤峰市,银河街,,26,26,58,3,16,80,,80,80,11,19,11,17,0.4,0.6
2025-03-22T1700,3286A,118.9359,42.3147,赤峰市,桥北物流园区,,45,,37,31,12,76,,74,74,14,19,5,28,0.3,0.4
2025-03-22T1700,2521A,107.3476,22.4136,崇左市,市环保局江州分局,臭氧1小时,83,55,87,36,51,186,,164,164,8,19,8,8,0.5,0.7
2025-03-22T1700,4256A,107.3750,22.3736,崇左市,石景林东路7号,臭氧1小时,88,64,44,43,47,190,,170,170,14,17,8,7,0.4,0.5
2025-03-22T1700,2298A,118.3093,32.3153,滁州市,老年大学,颗粒物(PM10),56,61,47,26,26,157,,148,148,13,21,5,5,0.5,0.5
2025-03-22T1700,2299A,118.3244,32.2786,滁州市,人大宾馆,颗粒物(PM10),55,60,56,28,28,154,,140,140,10,20,8,9,0.4,0.5
2025-03-22T1700,3207A,118.3118,32.3038,滁州市,市政府原办公楼,,50,50,45,26,26,157,,148,148,9,18,6,5,0.3,0.3
2025-03-22T1700,3331A,118.3267,32.2634,滁州市,图书馆,颗粒物(PM10),53,55,51,17,21,147,,138,138,15,21,7,8,0.3,0.4
2025-03-22T1700,2605A,101.5482,25.0441,楚雄彝族自治州,州环境监测站,,49,42,37,34,34,121,,101,101,6,10,6,6,0.5,0.7
2025-03-22T1700,2606A,101.538,25.0492,楚雄彝族自治州,市经济开发区,,50,,40,35,35,117,,100,100,9,12,6,6,0.7,0.8
2025-03-22T1700,2548A,107.5277,31.2827,达州市,达州职业技术学院,细颗粒物(PM2.5),98,130,85,73,48,43,,36,36,57,46,11,7,0.7,0.6
2025-03-22T1700,2549A,107.5086,31.2186,达州市,市环境监测站,细颗粒物(PM2.5),85,110,81,63,43,43,,27,27,65,59,18,7,1.5,0.9
2025-03-22T1700,2550A,107.4988,31.2132,达州市,凤凰小区,细颗粒物(PM2.5),94,119,87,70,51,34,,29,29,68,60,20,9,1.3,0.9
2025-03-22T1700,2551A,107.5082,31.1986,达州市,达县机关宾馆,细颗粒物(PM2.5),84,105,91,62,46,42,,22,22,60,62,11,7,1.0,0.9
2025-03-22T1700,2552A,107.4644,31.2124,达州市,市政中心,细颗粒物(PM2.5),94,130,96,70,47,17,,18,18,73,64,18,22,1.0,1.2
2025-03-22T1700,2614A,100.1542,25.7054,大理白族自治州,大理市环境监测站,,,41,39,30,30,,,110,110,11,10,7,7,0.4,0.5
2025-03-22T1700,2615A,100.2171,25.5811,大理白族自治州,大理古城,,45,31,33,31,26,115,,114,114,6,8,7,6,0.6,0.6
2025-03-22T1700,1109A,121.612,38.9741,大连市,甘井子,颗粒物(PM10),56,61,57,26,22,94,,90,90,27,31,9,11,1.2,1
2025-03-22T1700,1110A,121.565,38.9511,大连市,周水子,颗粒物(PM10),57,64,56,24,22,90,,86,86,25,30,14,14,0.6,0.6
2025-03-22T1700,1111A,121.5637,38.8845,大连市,星海三站,颗粒物(PM10),63,75,56,42,29,52,,72,55,38,26,8,11,0.9,0.9
2025-03-22T1700,1112A,121.6302,38.9117,大连市,青泥洼桥,颗粒物(PM10),52,53,52,20,18,88,,87,87,21,25,10,15,0.5,0.7
2025-03-22T1700,1113A,121.6251,38.8638,大连市,傅家庄,颗粒物(PM10),67,83,57,41,34,55,,71,59,54,36,10,12,0.6,0.6
2025-03-22T1700,1114A,121.5213,38.8661,大连市,七贤岭,颗粒物(PM10),62,74,38,27,15,84,,84,84,20,16,8,8,0.6,0.6
2025-03-22T1700,1115A,121.2529,38.8061,大连市,旅顺,颗粒物(PM10),70,89,64,45,32,58,,53,44,54,43,7,8,0.6,0.6
2025-03-22T1700,1116A,121.7485,39.1311,大连市,金州,颗粒物(PM10),92,133,92,37,32,62,,61,61,51,44,11,14,0.7,0.9
2025-03-22T1700,1117A,121.7811,39.0496,大连市,开发区,颗粒物(PM10),72,94,77,34,31,70,,67,67,52,45,24,16,0.7,0.8
2025-03-22T1700,1118A,121.9762,39.0631,大连市,双D港,颗粒物(PM10),63,75,68,21,19,111,,92,92,36,33,7,10,0.6,0.8
2025-03-22T1700,1789A,124.81117,46.03138,大庆市,大同区,,25,15,22,13,18,80,,77,77,8,13,4,5,0.4,0.4
2025-03-22T1700,1790A,125.129,46.533,大庆市,龙凤区,,25,20,24,10,13,80,,78,78,8,11,5,6,0.3,0.3
2025-03-22T1700,1791A,124.902,46.408,大庆市,红岗区,,28,22,19,12,14,87,,84,84,8,15,4,5,0.4,0.5
2025-03-22T1700,1792A,125.153,46.586,大庆市,萨尔图区,,25,18,18,6,6,79,,78,78,6,8,6,6,0.2,0.2
2025-03-22T1700,1793A,124.9042,46.6215,大庆市,让胡路区,,25,16,17,9,14,80,,80,80,7,14,7,7,0.1,0.2
2025-03-22T1700,3481A,125.141,46.634,大庆市,萨区政府监测点,,28,19,17,3,2,87,,86,86,3,4,5,5,0.2,0.3
2025-03-22T1700,1721A,113.3819,40.1097,大同市,果树场,颗粒物(PM10),57,63,75,28,34,110,,92,92,7,36,8,13,0.3,0.7
2025-03-22T1700,1723A,113.2994,40.0758,大同市,云冈宾馆,颗粒物(PM10),55,59,74,17,20,118,,99,99,8,22,7,11,0.4,0.6
2025-03-22T1700,1724A,113.3444,40.0917,大同市,大同大学,颗粒物(PM10),61,71,70,19,24,116,,98,98,5,22,11,16,0.3,0.5
2025-03-22T1700,1725A,113.2661,40.1269,大同市,安家小村,颗粒物(PM10),68,86,94,13,29,115,,99,99,4,25,8,16,0.2,1.8
2025-03-22T1700,1726A,113.2711,40.0844,大同市,教育学院,颗粒物(PM10),57,63,75,14,26,119,,102,102,8,21,6,11,0.4,0.6
2025-03-22T1700,3282A,113.3397,40.0597,大同市,大同市卫生学校,颗粒物(PM10),56,62,78,15,26,113,,94,94,8,28,7,10,0.2,0.4
2025-03-22T1700,3565A,113.1367,40.1122,大同市,云冈站,颗粒物(PM10),58,66,71,22,23,116,,105,105,6,12,8,14,0.3,0.4
2025-03-22T1700,3566A,113.1186,40.2556,大同市,图书馆,颗粒物(PM10),53,55,62,24,26,109,,101,101,4,13,8,12,0.4,0.6
2025-03-22T1700,3567A,113.5931,40.0461,大同市,区一中,颗粒物(PM10),61,72,92,6,18,117,,102,102,8,23,15,25,0.3,0.5
2025-03-22T1700,4199A,113.2798,40.0997,大同市,魏都大道141号,颗粒物(PM10),57,64,80,16,26,122,,102,102,7,28,10,15,0.3,0.8
2025-03-22T1700,2269A,124.1069,50.4097,大兴安岭地区,科技局,,27,,18,15,13,85,,85,85,2,3,5,6,0.3,0.3
2025-03-22T1700,3663A,124.1164,50.4278,大兴安岭地区,红旗社区,,27,6,4,3,3,86,,86,86,2,2,4,4,0.4,0.3
2025-03-22T1700,1600A,124.3303,40.0625,丹东市,江湾东路,细颗粒物(PM2.5),64,71,77,46,61,122,,119,119,21,26,21,13,0.6,1.3
2025-03-22T1700,1601A,124.4256,40.1503,丹东市,临江后街,颗粒物(PM10),66,82,85,42,57,122,,115,115,20,28,13,11,0.8,1.4
2025-03-22T1700,1602A,124.3933,40.1461,丹东市,元宝山,细颗粒物(PM2.5),62,64,88,44,64,127,,111,111,19,33,10,8,0.6,1.3
2025-03-22T1700,1603A,124.3633,40.1092,丹东市,民主桥,颗粒物(PM10),67,83,90,45,64,128,,122,122,19,31,15,10,0.6,1.4
2025-03-22T1700,3541A,109.5726,19.5167,儋州市,第一中学子站,,45,44,40,23,23,142,,129,129,12,12,4,5,0.6,0.6
2025-03-22T1700,3542A,109.5567,19.5187,儋州市,东坡学校子站,,49,25,40,22,23,156,,136,136,8,8,5,6,0.6,0.6
2025-03-22T1700,2616A,98.5842,24.428,德宏傣族景颇族自治州,德宏州监测站,细颗粒物(PM2.5),93,87,94,69,73,140,,86,86,12,24,10,8,0.7,0.9
2025-03-22T1700,3677A,98.5881,24.4368,德宏傣族景颇族自治州,芒市人民政府综合楼,细颗粒物(PM2.5),83,112,100,61,73,143,,97,97,12,17,11,8,0.6,0.8
2025-03-22T1700,1901A,104.4239,31.1208,德阳市,东山公园,细颗粒物(PM2.5),77,72,73,56,51,95,,62,62,38,41,6,5,0.5,0.6
2025-03-22T1700,1902A,104.3826,31.1317,德阳市,西小区,细颗粒物(PM2.5),84,90,89,62,62,86,,55,55,43,56,10,6,0.7,0.8
2025-03-22T1700,1904A,104.3553,31.1091,德阳市,耐火材料厂,细颗粒物(PM2.5),92,86,100,68,68,98,,42,42,34,61,12,9,0.5,0.6
2025-03-22T1700,3639A,104.4019,31.1244,德阳市,市教育局,细颗粒物(PM2.5),79,72,77,58,58,92,,54,54,40,56,8,6,0.5,0.7
2025-03-22T1700,1622A,116.3032,37.4674,德州市,儿童乐园,颗粒物(PM10),57,63,83,12,24,125,,106,106,9,25,18,14,0.5,0.7
2025-03-22T1700,1624A,116.2991,37.4451,德州市,监理站,颗粒物(PM10),54,58,81,9,26,126,,108,108,11,28,18,23,0.5,0.6
2025-03-22T1700,3066A,116.2721,37.4379,德州市,九衢泉纯净水厂,颗粒物(PM10),56,61,80,12,25,120,,102,102,16,43,9,11,0.5,0.6
2025-03-22T1700,3371A,116.3728,37.4403,德州市,开发区人民医院,颗粒物(PM10),54,58,74,12,21,122,,106,106,8,27,5,10,0.3,0.3
2025-03-22T1700,3372A,116.3572,37.4094,德州市,太阳城中学,颗粒物(PM10),58,66,82,14,26,118,,103,103,11,29,5,10,0.6,0.5
2025-03-22T1700,3511A,116.5652,37.3319,德州市,陵城艺术中心,颗粒物(PM10),56,61,79,9,23,113,,94,94,17,35,8,10,0.4,0.6
2025-03-22T1700,2621A,99.7056,27.8317,迪庆藏族自治州,迪庆州站,,31,17,26,13,16,98,,103,102,9,9,8,8,0.4,0.5
2025-03-22T1700,3180A,99.7136,27.8094,迪庆藏族自治州,质量技术监督局,,32,19,23,11,16,102,,105,105,9,10,9,9,0.5,0.6
2025-03-22T1700,4257A,104.6092,35.5962,定西市,将台街,颗粒物(PM10),53,56,78,22,37,120,,87,87,10,30,8,12,1.1,1
2025-03-22T1700,4309A,104.6159,35.5701,定西市,正龙路62号,颗粒物(PM10),56,61,77,28,43,127,,95,95,6,15,8,13,0.3,0.9
2025-03-22T1700,1389A,113.7547,23.0494,东莞市,莞城梨川,臭氧1小时,107,50,65,32,39,213,,196,196,16,34,6,7,0.6,0.7
2025-03-22T1700,1390A,113.7944,23.0128,东莞市,东城石井,臭氧1小时,127,55,57,36,33,254,,216,216,17,23,8,8,0.6,0.7
2025-03-22T1700,1391A,113.7383,22.9658,东莞市,南城西平,臭氧1小时,119,50,69,39,35,238,,201,201,23,61,8,8,0.7,0.7
2025-03-22T1700,3319A,113.7338,23.0381,东莞市,万江金泰,臭氧1小时,122,54,60,35,34,243,,204,204,15,29,7,8,0.6,0.7
2025-03-22T1700,3626A,113.7533,23.0202,东莞市,南城元岭,臭氧1小时,105,50,62,31,34,210,,192,192,17,31,7,8,0.4,0.6
2025-03-22T1700,3627A,113.7875,23.0457,东莞市,东城主山,臭氧1小时,105,71,68,30,35,210,,192,192,20,36,10,12,0.5,0.6
2025-03-22T1700,1666A,118.6614,37.4309,东营市,市环保局,颗粒物(PM10),67,83,82,19,24,132,,114,114,14,34,5,8,0.5,0.5
2025-03-22T1700,3036A,118.6904,37.4338,东营市,开发区管委会,颗粒物(PM10),80,109,88,27,30,127,,108,108,26,42,4,7,0.6,0.7
2025-03-22T1700,3365A,118.5719,37.565,东营市,垦利区民丰路,颗粒物(PM10),68,85,78,22,25,122,,120,120,16,32,9,14,0.4,0.5
2025-03-22T1700,3498A,118.5055,37.8612,东营市,河口城区,颗粒物(PM10),74,97,77,20,26,132,,110,110,16,26,8,9,0.7,0.8
2025-03-22T1700,3646A,118.4978,37.4623,东营市,胜利站,颗粒物(PM10),69,88,78,19,24,117,,102,102,25,35,8,11,0.6,0.8
2025-03-22T1700,3734A,118.35,37.26,东营市,理想之城,颗粒物(PM10),63,75,81,24,27,124,,110,110,15,32,7,8,0.4,0.5
2025-03-22T1700,1591A,110.0023,39.8129,鄂尔多斯市,综合楼,颗粒物(PM10),117,183,90,31,20,106,,102,102,9,12,5,5,0.3,0.3
2025-03-22T1700,1592A,109.9486,39.8261,鄂尔多斯市,巴音孟克林场办事处,颗粒物(PM10),117,183,83,39,22,110,,106,106,6,10,6,6,0.3,0.3
2025-03-22T1700,1593A,109.7736,39.5986,鄂尔多斯市,康泽苑,颗粒物(PM10),111,171,83,34,22,107,,104,104,5,8,2,2,0.2,0.3
2025-03-22T1700,1594A,109.8119,39.5989,鄂尔多斯市,华泰汽车城,颗粒物(PM10),111,171,83,39,27,106,,102,102,6,14,3,3,0.3,0.3
2025-03-22T1700,1595A,109.9734,39.7884,鄂尔多斯市,奥林花园,颗粒物(PM10),124,197,91,36,21,106,,101,101,13,16,6,6,0.3,0.3
2025-03-22T1700,2436A,114.8938,30.3994,鄂州市,市政府,,46,45,77,24,42,147,,115,115,9,47,6,10,1.0,1
2025-03-22T1700,2437A,114.8989,30.3714,鄂州市,赵家坝,颗粒物(PM10),57,64,75,20,33,159,,135,135,2,34,5,11,0.8,0.9
2025-03-22T1700,3654A,114.8094,30.4089,鄂州市,精准医疗中心,臭氧1小时,73,40,78,16,39,178,,154,154,1,43,4,8,0.5,0.8
2025-03-22T1700,2454A,109.4978,30.2981,恩施土家族苗族自治州,湖北民院,细颗粒物(PM2.5),80,60,55,59,43,46,,42,42,37,28,2,2,0.5,0.4
2025-03-22T1700,2455A,109.4707,30.2798,恩施土家族苗族自治州,州电力总公司,细颗粒物(PM2.5),67,67,63,48,44,40,,34,34,39,31,6,6,0.3,0.4
2025-03-22T1700,3549A,109.5061,30.3772,恩施土家族苗族自治州,龙凤新区,颗粒物(PM10),60,69,61,42,40,29,,44,44,35,23,6,6,0.6,0.5
2025-03-22T1700,2499A,108.3411,21.6158,防城港市,沙万,,43,43,62,16,36,134,,126,126,15,30,10,12,0.2,0.3
2025-03-22T1700,2500A,108.3514,21.7731,防城港市,防城档案局,,47,47,78,17,42,148,,128,128,14,33,5,8,0.3,0.7
2025-03-22T1700,2501A,108.3506,21.6414,防城港市,大海花园,颗粒物(PM10),54,57,60,21,36,140,,132,132,14,20,9,11,0.5,0.6
2025-03-22T1700,1371A,113.1294,23.0067,佛山市,湾梁,臭氧1小时,107,88,79,32,31,214,,171,171,30,39,8,8,0.8,0.7
2025-03-22T1700,1372A,113.1083,23.0478,佛山市,华材职中,臭氧1小时,123,73,69,38,36,246,,114,,35,41,7,7,0.5,0.5
2025-03-22T1700,1373A,113.144,23.0453,佛山市,南海气象局,臭氧1小时,111,107,69,44,39,221,,157,157,31,41,6,7,0.5,0.6
2025-03-22T1700,1374A,113.2881,22.8094,佛山市,顺德苏岗,臭氧1小时,116,72,74,44,41,232,,192,192,28,43,9,8,0.8,0.8
2025-03-22T1700,1376A,112.8383,22.8678,佛山市,高明孔堂,臭氧1小时,122,56,58,41,37,243,,195,195,27,24,7,7,0.4,0.4
2025-03-22T1700,1377A,112.8836,23.1588,佛山市,三水监测站,臭氧1小时,102,75,94,41,54,204,,149,149,32,86,2,3,0.5,0.6
2025-03-22T1700,1378A,112.867,23.185,佛山市,三水云东海,臭氧1小时,126,58,76,37,48,252,,197,197,32,61,4,5,0.5,0.6
2025-03-22T1700,3625A,113.2544,22.7642,佛山市,容桂街道办,臭氧1小时,131,78,76,48,45,262,,184,184,38,52,10,9,0.6,0.7
2025-03-22T1700,1280A,119.3903,26.0543,福州市,鼓山,,,,31,,15,,,133,,,7,,2,,0.3
2025-03-22T1700,1282A,119.2681,26.0504,福州市,师大,颗粒物(PM10),52,54,45,20,24,158,,138,138,17,22,5,5,0.3,0.3
2025-03-22T1700,1283A,119.2984,26.1028,福州市,五四北路,,47,47,38,24,23,148,,130,130,24,26,6,5,0.4,0.4
2025-03-22T1700,1284A,119.2648,26.0768,福州市,杨桥西路,颗粒物(PM10),60,70,46,25,22,154,,137,137,22,24,6,6,0.3,0.3
2025-03-22T1700,1285A,119.317,26.0746,福州市,紫阳,颗粒物(PM10),61,71,49,20,23,139,,120,120,29,31,6,5,0.3,0.4
2025-03-22T1700,3048A,119.5799,26.0936,福州市,九龙,,45,27,32,10,15,142,,131,131,6,17,4,4,0.2,0.2
2025-03-22T1700,3526A,119.5189,25.9664,福州市,吴航,,48,26,39,11,20,151,,132,132,8,29,4,6,0.2,0.4
2025-03-22T1700,1755A,123.7977,41.8491,抚顺市,望花区,细颗粒物(PM2.5),74,69,126,54,62,154,,113,113,18,46,13,23,0.6,1.2
2025-03-22T1700,1756A,123.9161,41.8822,抚顺市,顺城区,细颗粒物(PM2.5),68,79,113,49,56,155,,106,106,28,49,12,16,0.6,1.2
2025-03-22T1700,1757A,124.0436,41.8611,抚顺市,东洲区,细颗粒物(PM2.5),62,68,100,44,51,140,,104,104,25,33,7,11,0.6,1
2025-03-22T1700,1758A,123.9247,41.8642,抚顺市,新抚区,细颗粒物(PM2.5),74,70,105,54,55,145,,100,100,25,46,10,11,0.7,1.1
2025-03-22T1700,1759A,124.0972,41.8961,抚顺市,大伙房水库,细颗粒物(PM2.5),75,75,87,55,51,146,,110,110,24,28,13,13,0.7,1
2025-03-22T1700,1760A,123.7086,41.8391,抚顺市,沈抚新城,细颗粒物(PM2.5),63,69,101,45,52,152,,109,109,20,45,9,17,0.7,1.2
2025-03-22T1700,2376A,116.2127,28.0814,抚州市,桐源党溪,,,43,47,19,24,127,,108,108,6,10,,19,0,0.1
2025-03-22T1700,2377A,116.3544,27.9831,抚州市,市站,,40,40,53,15,26,110,,98,98,19,30,7,7,0.5,0.6
2025-03-22T1700,2378A,116.3565,27.963,抚州市,血防站,,42,42,49,14,22,123,,105,105,2,26,9,7,0.5,0.5
2025-03-22T1700,2379A,116.3564,28.0007,抚州市,采茶剧团,,36,33,48,11,25,113,,97,97,2,21,4,4,0.7,0.9
2025-03-22T1700,2380A,116.385,27.9647,抚州市,医学分院,,36,36,53,9,21,102,,83,83,4,31,6,6,0.6,0.7
2025-03-22T1700,2207A,121.6094,41.998,阜新市,工业园区,,30,29,119,9,52,96,,98,98,8,38,5,19,0.2,0.6
2025-03-22T1700,2208A,121.6697,42.0279,阜新市,长青街,,32,21,83,3,42,102,,102,102,5,33,4,11,0.3,0.7
2025-03-22T1700,2209A,121.6673,42.0705,阜新市,农业园区,,32,24,59,3,17,101,,103,103,4,15,6,15,0.3,0.5
2025-03-22T1700,2210A,121.6717,42.0224,阜新市,东苑,,32,26,90,6,39,100,,99,99,7,38,6,17,0.2,0.6
2025-03-22T1700,2211A,121.6506,42.0498,阜新市,玉龙新城,,31,24,95,6,31,97,,97,97,7,36,6,10,0.2,0.6
2025-03-22T1700,2301A,115.8277,32.8929,阜阳市,市监测站,,46,46,52,19,29,125,,122,122,9,21,7,8,0.3,0.4
2025-03-22T1700,2303A,115.8554,32.8605,阜阳市,开发区,颗粒物(PM10),58,66,72,21,31,131,,128,128,9,23,7,9,0.2,0.3
2025-03-22T1700,2875A,115.784,32.8892,阜阳市,阜阳职业技术学院,颗粒物(PM10),57,64,59,19,27,125,,121,121,10,21,8,9,0.3,0.4
2025-03-22T1700,3468A,115.7901,32.8613,阜阳市,市规划展馆,颗粒物(PM10),55,59,58,28,29,131,,130,130,8,17,7,8,0.2,0.3
2025-03-22T1700,3469A,115.836,32.9183,阜阳市,枣园社区,,50,50,59,18,30,134,,130,130,7,19,6,7,0.3,0.4
2025-03-22T1700,2669A,102.9099,34.9841,甘南藏族自治州,州政府,,35,33,48,24,27,96,,86,86,5,15,6,6,0.3,0.4
2025-03-22T1700,3380A,102.8914,34.9617,甘南藏族自治州,甘肃民族师范学院,,33,24,50,19,24,105,,92,92,2,17,12,10,0.3,0.5
2025-03-22T1700,2570A,101.9603,30.0475,甘孜藏族自治州,水桥子,,25,20,14,12,9,78,,58,58,8,18,4,3,0.4,0.4
2025-03-22T1700,3065A,101.9533,29.9972,甘孜藏族自治州,州环保局,,27,21,18,3,9,84,,70,70,8,14,4,4,0.2,0.3
2025-03-22T1700,3414A,115.8347,28.932,赣江新区,桑海产业园,颗粒物(PM10),65,80,60,28,27,149,,118,118,26,43,13,13,0.4,0.4
2025-03-22T1700,2362A,114.9017,25.9149,赣州市,通天岩,臭氧1小时,69,49,38,9,7,175,,154,154,5,7,16,13,0.4,0.5
2025-03-22T1700,2363A,114.9367,25.8664,赣州市,地委,,43,40,48,22,23,135,,118,118,6,23,1,5,0.7,0.7
2025-03-22T1700,2364A,114.9461,25.8481,赣州市,气象台,,48,35,53,19,22,152,,134,134,18,38,8,14,0.5,0.6
2025-03-22T1700,2365A,114.9322,25.8333,赣州市,市图书馆,,48,40,51,14,24,151,,128,128,10,38,3,6,0.8,0.7
2025-03-22T1700,2366A,114.8905,25.8471,赣州市,华坚鞋城,,46,37,61,13,29,147,,135,135,13,41,9,14,0.5,0.7
2025-03-22T1700,3109A,115.0093,25.8613,赣州市,赣县区卫计委,,46,40,44,20,24,147,,124,124,3,23,5,9,0.4,0.4
2025-03-22T1700,2683A,106.2319,36.1417,固原市,马园,颗粒物(PM10),62,74,84,21,34,107,,92,92,10,40,5,6,0.5,0.7
2025-03-22T1700,2684A,106.2792,36.0022,固原市,监测站,颗粒物(PM10),57,63,77,21,34,112,,100,100,8,28,7,9,0.2,0.7
2025-03-22T1700,2685A,106.2375,36.0211,固原市,新区,颗粒物(PM10),63,76,101,27,33,111,,98,98,6,45,7,7,0.4,0.7
2025-03-22T1700,3522A,106.2177,35.9959,固原市,原州区十五小,颗粒物(PM10),59,68,70,26,30,110,,102,102,9,22,6,7,0.4,0.6
2025-03-22T1700,2543A,106.6308,30.5278,广安市,小平旧居,,,,,,,,,,,,,,,,
2025-03-22T1700,2544A,106.6303,30.4576,广安市,市委,细颗粒物(PM2.5),122,135,97,92,74,15,,21,16,61,43,8,6,0.7,0.6
2025-03-22T1700,2545A,106.6271,30.4663,广安市,友谊中学,细颗粒物(PM2.5),115,134,96,87,68,19,,24,10,59,42,9,5,0.8,0.8
2025-03-22T1700,2547A,106.6388,30.4551,广安市,广电花园,细颗粒物(PM2.5),119,120,94,90,72,10,,16,7,61,41,9,6,0.7,0.6
2025-03-22T1700,2902A,106.6351,30.4865,广安市,北辰小学,细颗粒物(PM2.5),114,109,87,86,67,34,,26,16,46,35,15,11,0.7,0.6
2025-03-22T1700,2523A,105.8945,32.4535,广元市,黑石坡,颗粒物(PM10),54,58,57,37,29,65,,66,46,33,25,14,21,0.6,0.5
2025-03-22T1700,2524A,105.821,32.4444,广元市,老城,颗粒物(PM10),67,84,59,31,30,54,,46,46,43,53,27,8,1.1,0.8
2025-03-22T1700,2526A,105.8628,32.4287,广元市,监测站,颗粒物(PM10),55,59,43,29,26,64,,50,50,38,30,17,8,0.8,0.7
2025-03-22T1700,3617A,105.8047,32.4166,广元市,经开区,细颗粒物(PM2.5),60,62,65,43,44,59,,40,40,33,50,10,13,0.7,0.8
2025-03-22T1700,1345A,113.2347,23.1423,广州市,广雅中学,臭氧1小时,108,78,80,40,43,216,,156,156,31,56,5,5,0.5,0.5
2025-03-22T1700,1346A,113.2612,23.105,广州市,市五中,臭氧1小时,104,63,71,34,40,208,,160,160,24,41,4,4,0.5,0.6
2025-03-22T1700,1348A,113.3478,23.0916,广州市,广东商学院,臭氧1小时,111,59,74,30,43,221,,172,172,22,56,6,6,0.5,0.7
2025-03-22T1700,1349A,113.4332,23.1047,广州市,市八十六中,臭氧1小时,117,60,81,29,41,234,,171,171,44,83,7,6,0.4,0.6
2025-03-22T1700,1350A,113.3505,22.9483,广州市,番禺中学,臭氧1小时,134,72,70,34,40,268,,188,188,30,49,8,7,,0.6
2025-03-22T1700,1351A,113.2146,23.3916,广州市,花都师范,臭氧1小时,110,82,90,44,47,219,,164,164,25,70,9,6,0.4,0.6
2025-03-22T1700,1352A,113.2597,23.1331,广州市,市监测站,臭氧1小时,107,71,66,32,32,213,,162,162,26,45,6,6,0.4,0.6
2025-03-22T1700,1353A,113.5618,23.312,广州市,九龙镇镇龙,臭氧1小时,111,71,79,38,42,221,,173,173,25,58,6,6,0.4,0.6
2025-03-22T1700,1354A,113.2765,23.1544,广州市,麓湖,臭氧1小时,107,67,68,37,38,214,,181,181,22,61,5,5,0.5,0.6
2025-03-22T1700,1355A,113.443,23.3035,广州市,帽峰山森林公园,臭氧1小时,133,70,55,21,20,266,,199,199,25,33,8,8,0.5,0.5
2025-03-22T1700,2846A,113.3221,23.1322,广州市,体育西,臭氧1小时,117,71,80,35,44,234,,176,176,12,32,6,6,0.5,0.6
2025-03-22T1700,3298A,113.5717,23.5491,广州市,从化街口,臭氧1小时,122,60,61,40,38,243,,192,192,17,43,9,8,0.5,0.6
2025-03-22T1700,3299A,113.3472,23.3692,广州市,白云竹料,,,,85,,44,227,,182,182,,62,8,8,0.5,0.7
2025-03-22T1700,3300A,113.2981,23.237,广州市,白云嘉禾,臭氧1小时,132,74,80,37,43,263,,190,190,35,61,6,6,0.4,0.5
2025-03-22T1700,3301A,113.4256,23.1716,广州市,黄埔科学城,臭氧1小时,126,68,63,37,36,251,,199,199,26,48,9,8,0.4,0.5
2025-03-22T1700,3302A,113.3942,23.0483,广州市,番禺大学城,臭氧1小时,132,68,75,34,35,263,,188,188,31,54,12,10,0.4,0.4
2025-03-22T1700,3303A,113.4922,22.8168,广州市,南沙黄阁,臭氧1小时,127,69,68,33,38,254,,209,209,35,49,8,7,0.5,0.6
2025-03-22T1700,3304A,113.5342,22.7896,广州市,南沙街,臭氧1小时,138,75,62,32,34,276,,213,213,31,44,7,6,0.6,0.6
2025-03-22T1700,3443A,113.2902,23.5544,广州市,花都梯面,臭氧1小时,128,76,59,43,34,255,,186,186,26,50,7,6,0.6,0.7
2025-03-22T1700,3445A,113.7858,23.7478,广州市,从化良口,臭氧1小时,105,57,33,43,23,210,,170,170,13,14,8,7,0.4,0.3
2025-03-22T1700,3446A,113.8051,23.2614,广州市,增城荔城,臭氧1小时,103,56,59,34,36,205,,180,180,13,23,8,9,0.5,0.6
2025-03-22T1700,2505A,109.568,23.1478,贵港市,德智高中,,,,,,,,,,,,,,,,
2025-03-22T1700,2506A,109.6047,23.0666,贵港市,江南子站,臭氧1小时,105,61,125,36,71,210,,172,172,15,47,7,15,0.7,1.2
2025-03-22T1700,2507A,109.6014,23.0948,贵港市,贵城子站,臭氧1小时,106,57,99,36,65,212,,174,174,15,40,10,16,0.6,0.9
2025-03-22T1700,2508A,109.5669,23.1065,贵港市,荷城子站,臭氧1小时,80,63,98,36,57,184,,152,152,14,42,12,14,0.6,0.8
2025-03-22T1700,3405A,109.5886,23.1172,贵港市,新世纪学校,臭氧1小时,98,68,101,40,60,198,,166,166,14,43,8,10,0.5,0.7
2025-03-22T1700,1439A,106.6899,26.5998,贵阳市,马鞍山,细颗粒物(PM2.5),58,61,56,41,38,160,,136,136,12,18,10,10,0.4,0.5
2025-03-22T1700,1441A,106.6243,26.6266,贵阳市,鉴湖路,颗粒物(PM10),63,75,74,44,43,151,,127,127,11,22,10,12,0.5,0.5
2025-03-22T1700,1442A,106.7487,26.6343,贵阳市,燕子冲,"细颗粒物(PM2.5),臭氧1小时",70,66,61,51,47,176,,147,147,14,24,3,13,0.6,0.6
2025-03-22T1700,1443A,106.6555,26.4365,贵阳市,碧云窝,颗粒物(PM10),59,68,84,36,50,157,,135,135,13,31,9,19,0.5,0.7
2025-03-22T1700,1445A,106.7109,26.6027,贵阳市,红边门,细颗粒物(PM2.5),62,66,75,44,52,165,,138,138,16,36,8,24,0.5,0.7
2025-03-22T1700,1446A,106.7164,26.5699,贵阳市,新华路,,,61,72,39,45,157,,133,133,10,30,,47,0.5,0.6
2025-03-22T1700,1447A,106.674,26.5424,贵阳市,太慈桥,颗粒物(PM10),64,78,73,39,43,150,,135,135,23,44,12,15,0.4,0.6
2025-03-22T1700,1552A,106.805,26.3003,贵阳市,桐木岭,细颗粒物(PM2.5),70,84,71,51,46,146,,141,141,8,7,29,21,0.6,0.5
2025-03-22T1700,4230A,106.6882,26.5695,贵阳市,花果园大街66号,细颗粒物(PM2.5),70,61,66,51,50,142,,127,127,18,35,8,15,0.6,0.7
2025-03-22T1700,4231A,106.6873,26.5169,贵阳市,漓江路57号,,,,75,,48,139,,122,122,16,37,13,21,0.4,0.6
2025-03-22T1700,1862A,110.4144,25.3167,桂林市,电子科大尧山校区,,,,,,,,,,,,,,,,
2025-03-22T1700,1864A,110.3089,25.2708,桂林市,龙隐路小学,,,69,72,42,55,185,,150,150,,30,11,25,0.9,1
2025-03-22T1700,1865A,110.2869,25.2178,桂林市,八中,臭氧1小时,78,53,72,44,52,182,,145,145,12,32,11,15,0.6,0.7
2025-03-22T1700,3531A,110.296,25.1253,桂林市,旅游学院,臭氧1小时,84,56,59,36,40,187,,148,148,10,26,11,11,0.5,0.5
2025-03-22T1700,4222A,110.1835,25.2444,桂林市,环湖路276号,臭氧1小时,65,58,76,46,51,172,,132,132,12,49,7,17,0.3,0.5
2025-03-22T1700,4301A,110.2803,25.2773,桂林市,信义路13号,臭氧1小时,82,52,72,46,62,185,,145,145,12,37,14,23,0.6,0.7
2025-03-22T1700,2674A,100.2561,34.4714,果洛藏族自治州,玛沁县大武镇,颗粒物(PM10),54,57,47,25,20,103,,107,107,1,1,14,13,0.4,0.4
2025-03-22T1700,1129A,126.5422,45.755,哈尔滨市,岭北,,29,6,10,3,10,91,,90,90,7,14,13,19,0.7,0.9
2025-03-22T1700,1130A,126.561,45.8167,哈尔滨市,松北商大,,27,12,12,8,12,84,,86,86,9,16,4,6,0.4,0.5
2025-03-22T1700,1131A,126.979,45.5419,哈尔滨市,阿城会宁,,27,27,24,12,13,84,,86,86,10,13,6,11,0.8,0.9
2025-03-22T1700,1132A,126.599,45.7222,哈尔滨市,南岗学府路,,26,21,20,3,4,83,,84,84,7,12,6,8,0.6,0.5
2025-03-22T1700,1133A,126.689,45.7733,哈尔滨市,太平宏伟公园,,27,,13,8,15,85,,86,86,8,11,5,6,0.6,0.7
2025-03-22T1700,1134A,126.635,45.7667,哈尔滨市,道外承德广场,,27,26,29,9,12,85,,84,84,11,13,6,7,0.3,0.6
2025-03-22T1700,1135A,126.685,45.7319,哈尔滨市,香坊红旗大街,,27,14,14,8,7,86,,86,86,8,12,8,8,0.4,0.4
2025-03-22T1700,1136A,126.6411,45.7258,哈尔滨市,动力和平路,,28,11,14,9,13,87,,86,86,7,12,6,9,0.4,0.4
2025-03-22T1700,1137A,126.593,45.7478,哈尔滨市,道里建国路,,26,8,12,7,11,82,,81,81,8,11,8,11,0.2,0.3
2025-03-22T1700,1138A,126.615,45.61,哈尔滨市,平房东轻厂,,25,25,21,13,25,75,,78,78,12,31,7,9,0.6,0.6
2025-03-22T1700,1139A,126.595,45.9855,哈尔滨市,呼兰师专,,26,,11,12,11,81,,79,79,9,14,6,7,0.3,0.4
2025-03-22T1700,1140A,126.6206,45.6842,哈尔滨市,省农科院,,25,24,20,12,16,80,,84,84,12,17,7,10,0.5,0.5
2025-03-22T1700,2688A,93.5128,42.8172,哈密市,地区监测站,颗粒物(PM10),170,289,182,56,42,85,,71,71,5,40,7,8,0.1,0.6
2025-03-22T1700,2689A,93.4961,42.8328,哈密市,哈密师范学校,颗粒物(PM10),130,209,135,62,46,88,,69,69,7,46,6,7,0,0.5
2025-03-22T1700,2671A,100.9048,36.9639,海北藏族自治州,海晏县西海镇,颗粒物(PM10),62,74,57,15,22,108,,105,105,2,5,8,10,0.4,0.5
2025-03-22T1700,3867A,102.0738,36.5056,海东市,平安区公安北苑,颗粒物(PM10),74,97,74,21,33,108,,92,92,3,14,7,10,0.6,0.7
2025-03-22T1700,1409A,110.576,19.9507,海口市,东寨港,,,,41,,34,,,108,,,11,,5,,0.4
2025-03-22T1700,1410A,110.3232,20.0574,海口市,海南大学,,47,40,52,21,30,149,,146,146,8,14,2,3,0.3,0.4
2025-03-22T1700,1411A,110.283,20.0053,海口市,秀英海南医院,,44,42,48,17,28,138,,138,138,8,18,5,5,0.4,0.4
2025-03-22T1700,1412A,110.338,19.9969,海口市,海南师范大学,,48,38,46,16,27,151,,152,152,6,10,4,4,0.5,0.5
2025-03-22T1700,1413A,110.33,20.0356,海口市,龙华路环保局宿舍,,48,39,47,20,29,153,,151,151,4,8,4,5,0.4,0.4
2025-03-22T1700,3539A,110.5111,19.9736,海口市,桂林洋子站,,,31,48,17,28,142,,150,150,9,12,,5,0.3,0.4
2025-03-22T1700,2673A,100.6188,36.2866,海南藏族自治州,共和县恰卜恰镇,颗粒物(PM10),92,133,62,23,23,113,,115,115,1,7,12,10,0.4,0.4
2025-03-22T1700,2676A,97.3731,37.3753,海西蒙古族藏族自治州,德令哈市,,,74,71,20,20,114,,111,111,,5,,13,0.4,0.4
2025-03-22T1700,1048A,114.5302,36.6116,邯郸市,东污水处理厂,,44,44,49,12,19,118,,103,103,15,26,4,10,0.3,0.7
2025-03-22T1700,1049A,114.4918,36.5713,邯郸市,矿院,颗粒物(PM10),61,71,64,9,13,110,,97,97,7,18,4,11,0.3,0.8
2025-03-22T1700,1050A,114.484,36.6133,邯郸市,丛台公园,,37,34,43,10,16,117,,103,103,10,19,1,8,0.3,0.7
2025-03-22T1700,3458A,114.7895,36.5593,邯郸市,香泉濮院小区,,42,40,62,3,13,132,,113,113,3,16,4,9,0,0.3
2025-03-22T1700,3579A,114.50634,36.77178,邯郸市,永年区实验高中,颗粒物(PM10),51,52,67,14,21,128,,111,111,7,19,9,23,0.7,1.5
2025-03-22T1700,3580A,114.20016,36.44293,邯郸市,峰峰矿区临水派出所,,38,14,16,3,14,121,,112,112,4,8,8,12,0.4,0.6
2025-03-22T1700,2634A,106.9893,33.1842,汉中市,汉川机床厂子校,,40,38,41,28,25,91,,89,89,11,7,10,8,0.8,0.5
2025-03-22T1700,2635A,107.0154,33.0706,汉中市,市监测站,颗粒物(PM10),55,59,76,33,42,91,,70,70,17,30,7,10,0.7,0.9
2025-03-22T1700,2636A,107.0089,33.1138,汉中市,鑫源开发区,颗粒物(PM10),53,56,59,34,35,83,,81,81,26,30,9,12,0.8,0.8
2025-03-22T1700,2637A,107.007,33.0323,汉中市,南郑大河坎水厂,颗粒物(PM10),52,53,61,30,36,92,,72,72,18,29,8,9,0.5,0.7
2025-03-22T1700,1223A,120.2072,30.2111,杭州市,滨江,臭氧1小时,57,45,51,19,30,165,,145,145,13,40,8,8,0.3,0.5
2025-03-22T1700,1224A,120.0633,30.2747,杭州市,西溪,臭氧1小时,58,47,40,24,24,166,,140,140,10,30,8,7,0.3,0.4
2025-03-22T1700,1226A,120.3417,30.3150,杭州市,下沙,臭氧1小时,52,47,59,21,28,161,,134,134,18,64,8,7,0.4,0.4
2025-03-22T1700,1227A,120.1269,30.2456,杭州市,卧龙桥,臭氧1小时,54,42,35,26,20,163,,135,135,12,30,7,6,0.1,0.2
2025-03-22T1700,1228A,120.1903,30.2692,杭州市,浙江农大,臭氧1小时,54,36,63,20,34,163,,134,134,12,53,4,4,0.3,0.6
2025-03-22T1700,1230A,120.1197,30.3119,杭州市,和睦小学,臭氧1小时,54,42,55,25,31,163,,141,141,15,48,8,8,0.5,0.7
2025-03-22T1700,1231A,120.3019,30.4183,杭州市,临平镇,臭氧1小时,69,56,69,20,30,175,,144,144,21,67,7,7,0.3,0.5
2025-03-22T1700,1232A,120.2753,30.1839,杭州市,城厢镇,臭氧1小时,62,45,55,23,30,169,,146,146,22,46,8,9,0.3,0.5
2025-03-22T1700,1233A,120.0883,30.1808,杭州市,云栖,,45,39,36,21,18,144,,140,140,30,34,8,8,0.3,0.4
2025-03-22T1700,3557A,119.9464,30.0494,杭州市,镇二中,,47,36,39,22,27,150,,124,124,19,48,7,8,0.4,0.6
2025-03-22T1700,3558A,119.7183,30.2367,杭州市,市府大楼,,44,35,41,17,24,138,,133,133,12,30,8,9,0.3,0.5
2025-03-22T1700,3656A,120.1556,30.2864,杭州市,消防大队,臭氧1小时,65,40,51,23,31,172,,143,143,17,45,7,7,0.3,0.5
2025-03-22T1700,1270A,117.1959,31.7848,合肥市,明珠广场,颗粒物(PM10),52,53,62,22,29,142,,129,129,16,46,5,6,0.2,0.4
2025-03-22T1700,1271A,117.3072,31.8764,合肥市,三里街,颗粒物(PM10),53,56,79,19,35,137,,118,118,11,71,5,8,0.3,0.8
2025-03-22T1700,1272A,117.2588,31.8707,合肥市,琥珀山庄,颗粒物(PM10),53,56,65,26,35,133,,127,127,14,47,3,3,0.2,0.6
2025-03-22T1700,1273A,117.1604,31.9052,合肥市,董铺水库,颗粒物(PM10),52,53,57,14,20,137,,130,130,9,36,2,3,0.3,0.3
2025-03-22T1700,1274A,117.25,31.8571,合肥市,长江中路,颗粒物(PM10),52,53,62,23,33,139,,131,131,16,44,8,9,0,0.3
2025-03-22T1700,1275A,117.266,31.9436,合肥市,庐阳区,颗粒物(PM10),52,53,58,22,24,142,,132,132,12,41,6,6,0.3,0.4
2025-03-22T1700,1276A,117.3453,31.8616,合肥市,瑶海区,颗粒物(PM10),52,53,69,17,26,132,,128,128,11,67,7,7,0.3,0.5
2025-03-22T1700,1277A,117.3027,31.7964,合肥市,包河区,颗粒物(PM10),54,58,64,19,29,134,,122,122,15,68,4,5,0.4,0.5
2025-03-22T1700,1278A,117.2776,31.7385,合肥市,滨湖新区,颗粒物(PM10),57,63,64,27,31,139,,120,120,17,64,10,10,0.3,0.4
2025-03-22T1700,1279A,117.1318,31.8403,合肥市,高新区,颗粒物(PM10),52,53,55,15,23,140,,132,132,12,33,2,3,0.4,0.5
2025-03-22T1700,3464A,117.3803,31.9147,合肥市,高教基地,颗粒物(PM10),62,73,71,24,31,131,,127,127,25,56,8,8,0.3,0.4
2025-03-22T1700,3614A,79.924,37.0877,和田地区,地区环保局,,41,41,189,11,44,93,,82,82,4,14,2,2,0.7,0.7
2025-03-22T1700,3615A,79.9131,37.113,和田地区,市环保局,,37,37,163,8,36,104,,84,84,2,15,1,2,0.4,0.6
2025-03-22T1700,2516A,108.2011,24.715,河池市,东仁乐园,,,126,87,51,43,177,,126,126,14,45,14,10,,0.6
2025-03-22T1700,2517A,108.0497,24.6947,河池市,市环保站,臭氧1小时,74,83,58,42,38,179,,128,128,12,26,14,9,0.7,0.6
2025-03-22T1700,2518A,108.0983,24.6989,河池市,市疾控中心,臭氧1小时,85,59,68,46,45,188,,130,130,8,40,13,10,0.6,0.6
2025-03-22T1700,1696A,114.6778,23.7569,河源市,源西,,48,39,56,23,31,152,,143,143,6,36,5,5,0.6,0.8
2025-03-22T1700,1697A,114.6944,23.7586,河源市,东埔,臭氧1小时,53,34,62,22,30,162,,147,147,10,34,5,5,0.5,0.7
2025-03-22T1700,1698A,114.6892,23.7233,河源市,老城,臭氧1小时,53,40,47,19,28,162,,151,151,9,20,5,5,0.4,0.5
2025-03-22T1700,1718A,115.4208,35.2464,菏泽市,气象局,颗粒物(PM10),62,74,79,28,31,138,,117,117,13,26,4,5,0.3,0.4
2025-03-22T1700,3374A,115.5564,35.0891,菏泽市,定陶老年大学,颗粒物(PM10),65,80,77,24,28,133,,108,108,15,25,5,6,0.3,0.4
2025-03-22T1700,4184A,115.4797,35.24401,菏泽市,永昌路1号,颗粒物(PM10),65,80,82,24,30,130,,113,113,15,27,9,10,0.1,0.2
2025-03-22T1700,4193A,115.4715,35.2800,菏泽市,长城路999号,颗粒物(PM10),61,72,76,19,22,117,,102,102,15,26,5,7,0.4,0.5
2025-03-22T1700,2514A,111.5264,24.4172,贺州市,环保小区,臭氧1小时,104,58,67,36,46,207,,163,163,,27,,12,0.7,0.8
2025-03-22T1700,2515A,111.5608,24.4078,贺州市,政协大楼,臭氧1小时,101,45,60,32,39,202,,155,155,14,31,11,21,0.6,0.6
2025-03-22T1700,3534A,111.4744,24.4553,贺州市,西湾,臭氧1小时,89,54,68,36,46,191,,152,152,20,43,10,9,0.6,0.7
2025-03-22T1700,2385A,114.17,35.9019,鹤壁市,市监测站,颗粒物(PM10),65,79,62,24,19,129,,114,114,20,21,10,6,0.4,0.4
2025-03-22T1700,2386A,114.2956,35.7511,鹤壁市,市交警支队,颗粒物(PM10),55,60,64,24,14,128,,103,103,12,26,5,7,0.3,0.4
2025-03-22T1700,2387A,114.2878,35.7306,鹤壁市,迎宾馆,颗粒物(PM10),65,80,70,21,14,135,,104,104,3,16,1,4,0.3,0.4
2025-03-22T1700,3474A,114.2617,35.6822,鹤壁市,大新区,颗粒物(PM10),57,63,66,25,23,123,,100,100,17,37,6,6,0.4,0.4
2025-03-22T1700,3596A,114.1572,35.9603,鹤壁市,南山宾馆,颗粒物(PM10),69,88,60,35,22,129,,117,117,15,8,8,6,0.4,0.4
2025-03-22T1700,2244A,130.2537,47.3416,鹤岗市,哈啤分公司,,26,,16,18,15,78,,78,78,2,2,14,15,0.3,0.3
2025-03-22T1700,2245A,130.2684,47.3086,鹤岗市,斯达机电,,24,21,20,16,14,75,,75,75,3,2,13,14,0.3,0.3
2025-03-22T1700,2246A,130.3114,47.3388,鹤岗市,东山纸板厂,,47,47,29,24,15,76,,76,76,5,4,21,20,0.2,0.3
2025-03-22T1700,2247A,130.1097,47.3382,鹤岗市,五号水库,,,,,,,,,,,,,,,,
2025-03-22T1700,2263A,127.4833,50.2524,黑河市,交通局,,26,18,15,14,13,82,,83,83,5,3,6,7,0.2,0.4
2025-03-22T1700,2264A,127.5144,50.2341,黑河市,环保局,,25,25,18,16,13,74,,82,80,12,6,9,5,0.3,0.3
2025-03-22T1700,2265A,127.5291,50.2472,黑河市,大黑河岛,,,21,23,8,7,9,,9,9,17,19,1,2,,
2025-03-22T1700,1074A,115.6838,37.7541,衡水市,电机北厂,颗粒物(PM10),51,51,73,14,30,124,,107,107,8,21,12,12,0.2,0.4
2025-03-22T1700,1075A,115.6303,37.7316,衡水市,市监测站,,41,41,66,14,21,124,,105,105,7,23,9,12,0.2,0.4
2025-03-22T1700,3188A,115.6683,37.7217,衡水市,市城管局,,46,46,71,28,29,121,,104,104,9,26,9,12,0.3,0.4
2025-03-22T1700,3459A,115.5989,37.5491,衡水市,地表水厂,颗粒物(PM10),52,54,78,12,26,127,,110,110,9,31,8,14,0.2,0.4
2025-03-22T1700,2456A,112.5003,26.9167,衡阳市,原169医院,颗粒物(PM10),68,85,67,31,34,101,,89,89,10,38,10,16,0.3,0.5
2025-03-22T1700,2457A,112.6194,26.9258,衡阳市,衡阳化工总厂,,49,47,78,27,46,156,,127,127,8,28,10,12,0.5,0.7
2025-03-22T1700,2458A,112.6211,26.8956,衡阳市,珠晖区环保局,臭氧1小时,53,48,69,29,41,162,,127,127,10,33,13,14,0.8,0.8
2025-03-22T1700,2459A,112.6197,26.8733,衡阳市,市委党校,,49,49,71,23,42,151,,122,122,7,33,10,14,0.5,0.8
2025-03-22T1700,2460A,112.6006,26.8919,衡阳市,市监测站,,50,50,79,33,51,157,,124,124,13,38,15,16,0.7,0.9
2025-03-22T1700,2461A,112.5664,26.9056,衡阳市,真空机电公司,臭氧1小时,55,57,85,36,46,164,,129,129,12,48,14,18,0.7,1.2
2025-03-22T1700,3399A,112.6703,26.882,衡阳市,师范学院,,50,48,67,28,45,157,,129,129,12,21,13,14,0.5,0.6
2025-03-22T1700,2608A,103.3772,23.3993,红河哈尼族彝族自治州,污水处理厂,细颗粒物(PM2.5),83,80,68,61,57,133,,127,127,10,12,8,12,0.6,0.5
2025-03-22T1700,2609A,103.3861,23.35,红河哈尼族彝族自治州,监测站,细颗粒物(PM2.5),88,96,78,65,50,136,,132,132,12,11,13,10,0.5,0.3
2025-03-22T1700,3038A,103.3758,23.368,红河哈尼族彝族自治州,州图书馆,细颗粒物(PM2.5),85,80,67,63,49,130,,127,127,14,12,8,8,0.5,0.5
2025-03-22T1700,1090A,111.6507,40.7517,呼和浩特市,呼市一监,颗粒物(PM10),78,105,104,35,47,116,,90,90,10,23,12,14,0.7,0.8
2025-03-22T1700,1091A,111.6572,40.8033,呼和浩特市,小召,颗粒物(PM10),80,110,100,32,42,115,,89,89,17,32,7,8,0.5,0.5
2025-03-22T1700,1094A,111.7516,40.8369,呼和浩特市,如意水处理厂,颗粒物(PM10),65,80,90,27,36,110,,86,86,10,34,11,11,0.4,0.5
2025-03-22T1700,1095A,111.7276,40.8062,呼和浩特市,二十九中,颗粒物(PM10),71,91,95,26,40,115,,89,89,15,31,9,8,0.5,0.4
2025-03-22T1700,1096A,111.5512,40.7866,呼和浩特市,工大金川校区,颗粒物(PM10),71,91,94,30,39,113,,90,90,13,40,11,12,0.5,0.6
2025-03-22T1700,1097A,111.717,40.7612,呼和浩特市,化肥厂生活区,颗粒物(PM10),73,95,111,32,43,121,,95,95,15,33,11,12,0.5,0.6
2025-03-22T1700,3698A,111.5968,40.8178,呼和浩特市,红旗小学,颗粒物(PM10),91,132,99,37,38,121,,95,95,18,43,12,9,0.6,0.6
2025-03-22T1700,3699A,111.6518,40.8389,呼和浩特市,海东办,颗粒物(PM10),84,117,95,31,39,115,,87,87,11,31,11,9,0.6,0.6
2025-03-22T1700,2192A,119.7594,49.2261,呼伦贝尔市,区环保局,,33,27,26,23,23,91,,89,89,8,15,6,6,0.3,0.3
2025-03-22T1700,3061A,119.7512,49.1577,呼伦贝尔市,国华电力东,,32,32,25,11,13,95,,94,94,5,8,7,5,0.4,0.4
2025-03-22T1700,1250A,120.0751,30.8669,湖州市,城西水厂,,40,40,57,18,27,121,,119,119,40,80,8,10,0.2,0.3
2025-03-22T1700,2873A,120.0830,30.8929,湖州市,仁皇山新区,,46,40,51,17,26,147,,148,148,16,58,6,7,0.4,0.5
2025-03-22T1700,2907A,120.1844,30.8596,湖州市,吴兴区站,,45,36,48,20,28,142,,128,128,9,54,6,8,0.1,0.3
2025-03-22T1700,3562A,120.4148,30.8538,湖州市,南浔区站,,50,38,63,18,35,158,,140,140,14,50,4,6,0.1,0.4
2025-03-22T1700,1607A,120.9049,40.7211,葫芦岛市,龙港区,,32,,52,16,11,100,,90,90,9,26,8,10,0.4,0.4
2025-03-22T1700,1608A,120.8392,40.7514,葫芦岛市,化工街,,31,31,60,7,20,95,,90,90,11,36,11,16,0.4,0.5
2025-03-22T1700,1609A,120.8341,40.7073,葫芦岛市,新区,,44,44,43,12,12,98,,93,93,15,19,8,11,0.4,0.3
2025-03-22T1700,1610A,120.8695,40.7677,葫芦岛市,东城区,,42,42,63,12,17,96,,90,90,17,44,4,24,0.4,0.7
2025-03-22T1700,2482A,109.5981,27.5721,怀化市,林科所,,,,37,,24,,,69,,,22,,12,,0.5
2025-03-22T1700,2483A,109.9453,27.5444,怀化市,河西地税局,细颗粒物(PM2.5),58,57,57,41,41,128,,62,62,17,24,11,10,0.5,0.5
2025-03-22T1700,2484A,109.9781,27.5342,怀化市,市四医院,颗粒物(PM10),64,78,84,43,48,117,,65,65,17,39,14,10,0.5,0.6
2025-03-22T1700,2485A,109.9972,27.5578,怀化市,监测楼,细颗粒物(PM2.5),52,46,72,36,42,107,,59,59,17,37,17,15,0.4,0.5
2025-03-22T1700,2486A,110.0394,27.583,怀化市,市委党校,颗粒物(PM10),55,60,67,30,41,115,,63,63,15,33,8,9,0.4,0.5
2025-03-22T1700,1210A,119.036,33.5981,淮安市,钵池山,颗粒物(PM10),59,68,62,25,30,134,,122,122,10,23,10,16,0.5,1
2025-03-22T1700,1211A,119.007,33.575,淮安市,北京南路,颗粒物(PM10),58,66,67,27,33,130,,119,119,17,34,10,23,0.6,1.6
2025-03-22T1700,1212A,118.989,33.6067,淮安市,市监测站,颗粒物(PM10),60,70,54,22,28,141,,129,129,18,24,10,10,0.7,0.8
2025-03-22T1700,1213A,119.135,33.5039,淮安市,楚州区监测站,,,73,65,24,30,126,,122,122,,26,9,9,0.3,0.4
2025-03-22T1700,3426A,118.8755,33.2894,淮安市,新华书店,颗粒物(PM10),55,59,58,17,30,134,,130,130,12,18,9,9,0.7,0.8
2025-03-22T1700,4206A,119.0288,33.6319,淮安市,承德北路606号,,,,,,,134,,,,,,,,0.5,0.5
2025-03-22T1700,2282A,116.8004,33.975,淮北市,监测站,颗粒物(PM10),56,62,68,27,30,132,,115,115,15,23,8,9,0.6,0.6
2025-03-22T1700,2283A,116.8091,33.9007,淮北市,烈山区政府,颗粒物(PM10),62,73,83,28,37,140,,126,126,14,32,6,10,0.6,0.8
2025-03-22T1700,3330A,116.8873,33.9836,淮北市,杜集区检察院,颗粒物(PM10),68,85,82,29,34,141,,123,123,16,26,8,10,0.6,0.7
2025-03-22T1700,4017A,116.7923,33.9535,淮北市,市博物馆,颗粒物(PM10),66,82,71,29,31,137,,118,118,14,21,10,11,0.7,0.7
2025-03-22T1700,2277A,116.8305,32.7727,淮南市,潘集区政府,颗粒物(PM10),65,79,73,32,36,140,,136,136,12,22,7,7,0.4,0.4
2025-03-22T1700,2279A,116.8569,32.5951,淮南市,谢家集区政府,,,,60,,32,,,111,,,19,,7,,0.3
2025-03-22T1700,2280A,116.8281,32.633,淮南市,八公山区政府,颗粒物(PM10),60,69,55,26,27,133,,130,130,6,7,7,7,0.2,0.3
2025-03-22T1700,2281A,116.6325,32.6201,淮南市,焦岗湖风景区管理处,颗粒物(PM10),54,57,46,21,22,87,,86,86,6,12,7,7,0.4,0.5
2025-03-22T1700,2894A,117.0566,32.6531,淮南市,经济技术开发区消防队,颗粒物(PM10),63,75,65,30,27,151,,145,145,8,16,7,7,0.3,0.3
2025-03-22T1700,3329A,117.0108,32.5893,淮南市,山南新区,颗粒物(PM10),66,82,67,26,30,148,,138,138,4,10,8,8,0.5,0.5
2025-03-22T1700,4209A,117.0031,32.6445,淮南市,国庆中路369号,颗粒物(PM10),68,85,63,28,28,144,,140,140,14,21,10,9,0.5,0.6
2025-03-22T1700,2446A,114.9028,30.4742,黄冈市,职工中心,,48,37,60,26,41,152,,144,144,26,36,7,9,0.5,0.7
2025-03-22T1700,2929A,114.8858,30.4519,黄冈市,红卫路,臭氧1小时,54,45,64,24,37,163,,144,144,4,37,7,10,0.5,0.7
2025-03-22T1700,3398A,114.9136,30.4445,黄冈市,市林业局,臭氧1小时,72,41,66,22,38,177,,154,154,12,37,9,13,0.6,0.7
2025-03-22T1700,2672A,102.0199,35.5102,黄南藏族自治州,同仁县隆务镇,颗粒物(PM10),54,58,58,15,28,104,,97,97,2,5,12,14,0.2,0.3
2025-03-22T1700,2295A,118.2903,29.6963,黄山市,延安路89号,,44,40,34,23,23,139,,124,124,2,12,6,5,0.1,0.2
2025-03-22T1700,2297A,118.1371,30.2756,黄山市,黄山区政府5号楼,,49,49,50,16,28,143,,126,126,3,7,9,8,0.4,0.5
2025-03-22T1700,4210A,118.3354,29.7203,黄山市,滨江东路7-2号,,44,44,45,18,25,136,,125,125,3,14,6,5,0.3,0.4
2025-03-22T1700,2423A,115.0601,30.2313,黄石市,沈家营,臭氧1小时,62,42,68,20,36,169,,138,138,10,41,7,13,0.5,0.7
2025-03-22T1700,2426A,114.8988,30.2019,黄石市,铁山,臭氧1小时,62,44,64,24,32,169,,151,151,13,27,9,10,0.5,0.3
2025-03-22T1700,2427A,115.0307,30.2092,黄石市,团城山,,48,43,63,13,31,153,,118,118,10,46,11,14,0.5,0.7
2025-03-22T1700,3149A,115.0235,30.1578,黄石市,笔架山北路,臭氧1小时,57,30,50,14,30,165,,148,148,6,21,10,15,0.6,0.7
2025-03-22T1700,4185A,115.0780,30.21118,黄石市,磁湖东路29号,,50,47,76,24,45,160,,131,131,7,51,7,13,0.6,0.9
2025-03-22T1700,1392A,114.4183,23.0528,惠州市,河南岸金山湖子站,,49,37,48,27,29,155,,144,144,13,25,10,10,0.5,0.7
2025-03-22T1700,1393A,114.4053,23.0822,惠州市,下埔横江三路子站,臭氧1小时,73,36,53,19,30,178,,153,153,12,23,10,10,0.4,0.5
2025-03-22T1700,1394A,114.4103,23.1142,惠州市,江北云山西路子站,,,35,55,17,28,182,,165,165,13,26,,11,0.7,0.6
2025-03-22T1700,1395A,114.4645,22.7833,惠州市,惠阳区承修路船湖子站,,50,35,54,15,29,160,,159,159,31,27,11,12,0.5,0.6
2025-03-22T1700,1396A,114.5317,22.7422,惠州市,大亚湾管委会子站,,49,37,49,13,24,154,,150,150,18,34,8,9,0.4,0.6
2025-03-22T1700,3314A,114.4338,22.8134,惠州市,惠阳秋长,臭氧1小时,85,61,56,24,29,188,,169,169,29,22,11,13,0.6,0.6
2025-03-22T1700,3452A,114.6517,22.775,惠州市,大亚湾霞涌,臭氧1小时,60,30,42,15,23,168,,144,144,15,18,5,6,0.3,0.3
2025-03-22T1700,2240A,130.9762,45.3001,鸡西市,环保局,,27,14,12,3,4,86,,87,87,4,4,7,5,0.2,0.2
2025-03-22T1700,2243A,130.9429,45.3039,鸡西市,第一中学,,27,,11,7,4,86,,86,86,4,4,8,6,0.2,0.1
2025-03-22T1700,3707A,131.0207,45.3073,鸡西市,欧美日汽修厂,,31,,13,11,8,97,,100,100,1,6,5,5,0.3,0.3
2025-03-22T1700,3709A,130.9967,45.3106,鸡西市,市政设施管理处,,26,17,19,3,6,81,,83,83,6,10,4,4,0.2,0.3
2025-03-22T1700,2367A,114.9754,27.0803,吉安市,红声器材厂,,45,38,53,12,25,143,,124,124,10,29,9,15,0.4,0.5
2025-03-22T1700,2368A,114.9658,27.0999,吉安市,市森林工业局,,44,37,48,12,24,139,,122,122,12,36,10,15,0.3,0.4
2025-03-22T1700,2369A,114.99,27.1312,吉安市,市环境监测站,,46,46,51,20,26,147,,125,125,5,27,15,20,0.1,0.2
2025-03-22T1700,2370A,115.0093,27.0968,吉安市,青原区法院,,,35,46,11,24,161,,140,140,,32,,14,0.2,0.3
2025-03-22T1700,1772A,126.54,43.8622,吉林市,哈达湾,,40,40,85,23,45,94,,93,93,14,20,10,13,0.5,0.7
2025-03-22T1700,1773A,126.5844,43.8358,吉林市,东局子,,38,32,67,26,34,99,,97,97,14,17,7,9,0.5,0.5
2025-03-22T1700,1774A,126.5052,43.8245,吉林市,电力学院,,30,26,78,19,48,95,,94,94,14,20,8,11,0.3,0.5
2025-03-22T1700,1775A,126.6133,43.8972,吉林市,江北,,39,39,73,23,40,96,,93,93,14,22,4,5,0.4,0.4
2025-03-22T1700,1776A,126.555,43.8306,吉林市,江南公园,,43,40,67,30,40,94,,93,93,17,19,14,10,0.5,0.5
2025-03-22T1700,1778A,126.7061,43.7133,吉林市,丰满,,34,,56,19,39,107,,101,101,8,15,6,8,0.4,0.6
2025-03-22T1700,2868A,126.4739,43.953,吉林市,九站,颗粒物(PM10),53,56,112,36,72,99,,89,89,14,31,21,23,0.4,0.6
2025-03-22T1700,1299A,116.9862,36.6114,济南市,科干所,颗粒物(PM10),65,80,65,22,20,123,,104,104,13,25,8,9,0.5,0.5
2025-03-22T1700,1300A,116.9376,36.665,济南市,农科所,颗粒物(PM10),68,85,76,12,19,120,,98,98,16,37,8,10,0.7,0.8
2025-03-22T1700,1301A,117.1265,36.6734,济南市,开发区,颗粒物(PM10),59,68,59,22,21,122,,104,104,15,21,8,9,0.5,0.5
2025-03-22T1700,1303A,117.0624,36.6868,济南市,省种子仓库,颗粒物(PM10),68,85,75,19,22,122,,102,102,9,24,6,7,0.6,0.7
2025-03-22T1700,1304A,116.9489,36.6447,济南市,机床二厂,颗粒物(PM10),73,95,93,20,25,116,,97,97,17,35,9,11,0.7,0.8
2025-03-22T1700,1305A,117.0495,36.663,济南市,市监测站,颗粒物(PM10),67,83,69,24,19,117,,99,99,13,24,9,10,0.5,0.5
2025-03-22T1700,1306A,116.7675,36.5484,济南市,长清党校,颗粒物(PM10),63,76,59,29,23,127,,107,107,21,33,6,9,0.8,0.8
2025-03-22T1700,1616A,117.6795,36.229,济南市,技术学院,颗粒物(PM10),57,63,88,19,42,121,,109,109,13,51,12,19,0.4,1.7
2025-03-22T1700,1961A,117.532,36.6868,济南市,东山小学,颗粒物(PM10),68,85,63,20,18,122,,106,106,7,15,8,8,0.6,0.6
2025-03-22T1700,3059A,117.7161,36.2049,济南市,泰兴公司,颗粒物(PM10),57,63,88,19,40,118,,101,101,16,55,9,12,0.4,0.9
2025-03-22T1700,3064A,117.6867,36.2171,济南市,莱芜战役纪念馆,颗粒物(PM10),57,63,90,17,38,117,,102,102,19,48,8,13,0.7,1.1
2025-03-22T1700,3494A,117.1673,36.9782,济南市,济阳区政府,,,90,82,24,23,113,,92,92,10,22,,14,0.3,0.4
2025-03-22T1700,3495A,117.1171,36.63,济南市,锦屏中学,颗粒物(PM10),62,73,52,17,15,123,,107,107,14,17,9,10,0.3,0.3
2025-03-22T1700,3682A,116.9814,36.6819,济南市,济南四建,颗粒物(PM10),65,80,78,22,25,118,,97,97,11,27,6,8,0.3,0.3
2025-03-22T1700,1653A,116.6251,35.4302,济宁市,火炬城,颗粒物(PM10),58,65,70,22,32,147,,109,109,11,26,13,12,0.2,0.3
2025-03-22T1700,1655A,116.5491,35.4042,济宁市,电化厂,颗粒物(PM10),65,79,99,27,39,142,,105,105,11,37,13,13,0.4,0.5
2025-03-22T1700,3500A,116.5814,35.3707,济宁市,北湖一中,颗粒物(PM10),60,69,71,17,28,140,,103,103,13,34,14,13,0.3,0.4
2025-03-22T1700,3501A,116.8249,35.5593,济宁市,服务中心,颗粒物(PM10),60,69,87,21,29,135,,103,103,19,54,7,9,0.6,0.7
2025-03-22T1700,3678A,116.5907,35.4054,济宁市,市第七中学,,,82,76,,30,149,,113,113,17,34,,9,0.6,0.7
2025-03-22T1700,2255A,130.2751,46.8028,佳木斯市,佳纺,,26,17,21,3,8,81,,83,83,6,13,4,5,0.5,0.6
2025-03-22T1700,2256A,130.3995,46.8307,佳木斯市,发电厂,,27,21,14,6,6,85,,87,87,3,7,2,3,0.4,0.5
2025-03-22T1700,2257A,130.3258,46.7975,佳木斯市,环保局,,26,12,16,8,8,82,,85,85,9,17,2,4,0.3,0.2
2025-03-22T1700,2258A,130.3648,46.8032,佳木斯市,十一中,,26,13,17,11,8,83,,85,85,7,11,3,4,0.3,0.3
2025-03-22T1700,2259A,130.3794,46.7588,佳木斯市,四丰,,24,9,16,3,6,76,,78,78,5,5,1,1,0.7,0.7
2025-03-22T1700,1252A,120.7436,30.778,嘉兴市,清河小学,,49,45,66,20,36,156,,126,126,20,70,6,7,0.2,0.6
2025-03-22T1700,1253A,120.726,30.7478,嘉兴市,嘉兴学院,,,53,68,25,38,167,,138,138,23,44,,10,,0.9
2025-03-22T1700,2872A,120.7846,30.7525,嘉兴市,南湖区残联,臭氧1小时,79,54,64,26,35,183,,146,146,12,49,9,10,0.2,0.4
2025-03-22T1700,3407A,120.6916,30.7739,嘉兴市,秀洲住建,,,,73,,39,,,152,152,14,66,7,8,,0.3
2025-03-22T1700,1945A,98.2908,39.7711,嘉峪关市,气象局,颗粒物(PM10),191,332,159,31,30,110,,107,107,2,8,2,3,0.1,0.2
2025-03-22T1700,2884A,98.2672,39.7978,嘉峪关市,酒钢宾馆,颗粒物(PM10),432,532,197,44,31,109,,106,106,1,7,2,5,0.2,0.2
2025-03-22T1700,3248A,98.2643,39.7724,嘉峪关市,雄关区,颗粒物(PM10),140,230,128,17,27,106,,103,103,6,13,5,4,0.4,0.4
2025-03-22T1700,1383A,113.1064,22.6058,江门市,北街,臭氧1小时,143,88,63,51,39,286,,220,220,33,32,7,5,0.5,0.5
2025-03-22T1700,1384A,113.0731,22.5835,江门市,西区,臭氧1小时,147,88,74,49,40,294,,233,233,36,42,10,9,0.5,0.6
2025-03-22T1700,1385A,113.0219,22.5311,江门市,圭峰西,臭氧1小时,127,102,59,44,37,253,,209,209,36,29,8,7,0.4,0.4
2025-03-22T1700,1386A,113.0828,22.5947,江门市,东湖,臭氧1小时,150,76,64,42,41,300,,236,236,29,31,10,9,0.4,0.5
2025-03-22T1700,3311A,113.1075,22.5647,江门市,江海富民,臭氧1小时,138,91,78,48,41,275,,222,222,32,32,9,8,0.5,0.5
2025-03-22T1700,3449A,113.05,22.4667,江门市,新会银湖,臭氧1小时,112,99,62,31,41,223,,187,187,25,39,4,3,0.4,0.4
2025-03-22T1700,1830A,113.1992,35.2590,焦作市,影视城,,,,71,,21,,,,,,20,,15,,0.7
2025-03-22T1700,3169A,113.2725,35.2067,焦作市,太极体育中心,颗粒物(PM10),68,85,77,22,27,125,,118,118,10,16,8,10,0.4,0.5
2025-03-22T1700,3335A,113.3137,35.2641,焦作市,马村街道办,颗粒物(PM10),70,89,73,44,25,122,,115,115,10,13,8,10,0.5,0.5
2025-03-22T1700,3336A,113.2465,35.2373,焦作市,焦作技师学院,颗粒物(PM10),60,70,76,17,26,128,,121,121,9,18,5,8,0.3,0.4
2025-03-22T1700,3477A,113.1656,35.2539,焦作市,中站许衡医院,,,,57,,25,,,115,115,,15,8,11,0.5,0.7
2025-03-22T1700,3981A,113.2449,35.1803,焦作市,原李万街道办,颗粒物(PM10),71,91,72,12,19,120,,114,114,16,27,10,10,0.4,0.5
2025-03-22T1700,4264A,113.2340,35.2190,焦作市,新安路1731号,,,,83,,26,,,102,,,15,,10,,0.5
2025-03-22T1700,1708A,116.3701,23.5345,揭阳市,新兴,臭氧1小时,57,60,57,30,37,165,,145,145,23,33,9,10,0.5,0.6
2025-03-22T1700,1709A,116.3264,23.5443,揭阳市,西马,臭氧1小时,58,63,59,23,33,166,,137,137,14,29,9,11,0.6,0.7
2025-03-22T1700,1710A,116.3611,23.5626,揭阳市,东兴,,,,64,,31,,,94,,,33,,9,,0.6
2025-03-22T1700,1711A,116.4151,23.5294,揭阳市,渔湖,"颗粒物(PM10),臭氧1小时",59,67,56,27,37,167,,143,143,14,31,7,9,0.5,0.6
2025-03-22T1700,3320A,116.403,23.5699,揭阳市,曲溪,臭氧1小时,80,48,60,31,35,184,,155,155,24,39,13,10,0.8,0.6
2025-03-22T1700,1944A,102.1692,38.5167,金昌市,天庆家园,颗粒物(PM10),75,100,82,24,33,114,,102,102,4,12,12,7,0.7,0.7
2025-03-22T1700,4022A,102.1647,38.5371,金昌市,金川区人防中心,颗粒物(PM10),124,197,134,27,31,112,,97,97,17,27,11,14,0.4,0.4
2025-03-22T1700,4239A,102.1930,38.5319,金昌市,长春路96号,颗粒物(PM10),89,128,123,22,33,113,,104,104,6,11,12,18,0.6,0.7
2025-03-22T1700,1262A,119.647,29.077,金华市,十五中,臭氧1小时,58,45,51,17,26,166,,136,136,14,33,8,7,0.3,0.4
2025-03-22T1700,1263A,119.686,29.1029,金华市,监测站,臭氧1小时,67,43,47,21,25,173,,138,138,12,28,8,7,0.2,0.3
2025-03-22T1700,3659A,119.656,29.1131,金华市,气象局,臭氧1小时,73,33,42,20,26,178,,136,136,13,43,8,7,0.3,0.4
2025-03-22T1700,1767A,121.1115,41.0879,锦州市,南山,,35,34,63,21,35,109,,100,100,9,25,8,34,0.5,0.8
2025-03-22T1700,1768A,121.0604,40.8428,锦州市,开发区,,50,42,80,35,24,55,,80,73,37,56,8,19,0.8,0.6
2025-03-22T1700,1769A,121.1836,41.1119,锦州市,百股街道,颗粒物(PM10),62,73,66,27,26,52,,94,92,42,24,6,20,0.6,0.8
2025-03-22T1700,1770A,121.1178,41.1222,锦州市,天安街道,,35,30,61,6,23,109,,101,101,10,24,9,16,0.5,0.8
2025-03-22T1700,1771A,121.1303,41.1386,锦州市,北湖公园,,33,27,55,13,20,104,,98,98,11,20,6,20,0.4,0.6
2025-03-22T1700,2160A,112.85,35.5051,晋城市,自来水公司,颗粒物(PM10),61,71,54,19,17,116,,107,107,13,19,7,8,0.6,0.7
2025-03-22T1700,2161A,112.8318,35.4936,晋城市,白云商贸,颗粒物(PM10),61,72,65,14,8,118,,110,110,13,15,6,6,0.3,0.3
2025-03-22T1700,2162A,112.8508,35.4887,晋城市,市环保局,颗粒物(PM10),65,80,61,17,15,118,,109,109,9,14,5,5,0.4,0.4
2025-03-22T1700,2163A,112.8676,35.4897,晋城市,技术学院,颗粒物(PM10),60,70,63,12,12,109,,100,100,6,14,6,7,0.4,0.5
2025-03-22T1700,2165A,112.8453,35.546,晋城市,白马寺,,,,,,,,,,,,,,,,
2025-03-22T1700,3620A,112.8271,35.4828,晋城市,泽州一中,,38,36,39,14,14,120,,110,110,10,11,9,9,0.3,0.3
2025-03-22T1700,2173A,112.7249,37.7067,晋中市,南都小区,,,76,97,16,35,113,,99,99,5,34,,20,0.2,0.6
2025-03-22T1700,2174A,112.6991,37.6982,晋中市,榆次区政府,颗粒物(PM10),62,73,105,17,31,116,,100,100,6,35,4,20,0.3,0.7
2025-03-22T1700,2865A,112.7195,37.6828,晋中市,榆次三中,颗粒物(PM10),63,75,107,12,32,117,,99,99,3,36,2,16,0.2,0.6
2025-03-22T1700,4200A,112.7478,37.6954,晋中市,迎宾街26号,颗粒物(PM10),59,68,107,17,33,118,,102,102,4,32,3,17,0.2,0.4
2025-03-22T1700,2439A,112.2014,31.0481,荆门市,竹园小学,颗粒物(PM10),59,67,73,31,41,158,,140,140,11,20,7,8,0.2,0.4
2025-03-22T1700,2440A,112.1969,30.9891,荆门市,掇刀,颗粒物(PM10),53,56,70,31,39,151,,141,141,8,25,9,10,0.3,0.4
2025-03-22T1700,2441A,112.2213,31.0386,荆门市,石化一小,颗粒物(PM10),58,65,76,26,39,137,,124,124,12,29,9,13,0.1,0.5
2025-03-22T1700,3012A,112.1849,31.0362,荆门市,西山林语,颗粒物(PM10),64,77,62,32,34,160,,138,138,9,17,8,8,0.2,0.2
2025-03-22T1700,3547A,112.1632,31.0138,荆门市,龙泉中学南校,,,,73,,40,152,,134,134,,20,9,10,0.3,0.4
2025-03-22T1700,1844A,112.2494,30.3197,荆州市,市图书馆,细颗粒物(PM2.5),55,43,61,39,47,131,,117,117,14,33,5,9,0.4,0.5
2025-03-22T1700,1845A,112.2008,30.3544,荆州市,市委党校,细颗粒物(PM2.5),52,48,68,36,45,127,,118,118,12,25,6,10,0.3,0.4
2025-03-22T1700,3194A,112.2747,30.3122,荆州市,管委会,细颗粒物(PM2.5),54,42,64,38,45,138,,120,120,8,24,7,11,0.3,0.4
2025-03-22T1700,4268A,112.1722,30.3366,荆州市,学苑路85号,,42,42,62,26,46,131,,122,122,6,26,5,10,0.4,0.5
2025-03-22T1700,2342A,117.3102,29.3867,景德镇市,王港中学,,,,,,,,,,,,,,,,
2025-03-22T1700,2343A,117.2117,29.2933,景德镇市,老干部活动中心,,50,41,53,25,31,157,,133,133,11,31,11,9,0.3,0.4
2025-03-22T1700,2344A,117.1894,29.2789,景德镇市,兽医站,颗粒物(PM10),60,70,59,19,26,145,,125,125,8,24,10,9,0.4,0.5
2025-03-22T1700,2345A,117.1547,29.2617,景德镇市,台达陶瓷,颗粒物(PM10),60,70,69,31,30,142,,123,123,19,40,22,25,0.6,0.7
2025-03-22T1700,2346A,117.2461,29.2956,景德镇市,陶研所,,48,41,47,30,34,152,,133,133,14,27,4,4,0.8,0.8
2025-03-22T1700,1803A,115.9872,29.6815,九江市,十里,臭氧1小时,52,36,46,24,29,161,,132,132,10,41,2,2,0.4,0.6
2025-03-22T1700,1804A,115.9584,29.7046,九江市,茅山头,颗粒物(PM10),51,52,52,28,27,158,,133,133,14,40,9,7,0.4,0.5
2025-03-22T1700,1805A,115.9877,29.7295,九江市,西园,,50,37,47,13,26,159,,121,121,11,58,7,8,0.4,0.6
2025-03-22T1700,1808A,115.9114,29.6038,九江市,综合工业园,,,37,52,25,30,169,,148,148,,48,11,10,0.4,0.6
2025-03-22T1700,1809A,116.0721,29.7535,九江市,石化总厂,,49,34,39,22,34,154,,129,129,17,28,12,13,0.5,0.5
2025-03-22T1700,1810A,115.9773,29.5698,九江市,庐山气象台,,48,36,28,27,20,153,,135,135,7,5,6,6,0.6,0.7
2025-03-22T1700,3190A,116.0254,29.6994,九江市,外国语学校,,48,47,45,20,24,152,,128,128,13,45,3,6,0.5,0.6
2025-03-22T1700,4253A,116.0102,29.6594,九江市,莲花大道8号,,50,36,36,24,22,158,,124,124,5,14,8,12,0.4,0.4
2025-03-22T1700,4240A,98.4958,39.7339,酒泉市,玉门东路5号,颗粒物(PM10),286,410,173,33,33,102,,99,99,2,7,8,7,0.2,0.2
2025-03-22T1700,4241A,98.5099,39.7506,酒泉市,北大街108号,颗粒物(PM10),500,639,185,60,35,102,,96,96,5,12,10,9,0.5,0.3
2025-03-22T1700,2698A,76.0072,39.4467,喀什地区,巡警大队,颗粒物(PM10),90,129,228,25,61,118,,78,78,10,44,3,5,0.5,0.6
2025-03-22T1700,2699A,75.9755,39.4694,喀什地区,吾办,,,131,228,45,79,,,68,68,16,50,2,3,0.5,1
2025-03-22T1700,4027A,75.9483,39.4689,喀什地区,老干局,颗粒物(PM10),89,127,221,33,63,82,,58,58,35,46,3,4,0.5,0.9
2025-03-22T1700,1824A,114.3389,34.7781,开封市,肿瘤医院,颗粒物(PM10),62,74,83,23,27,129,,117,117,9,34,7,8,0.5,0.6
2025-03-22T1700,1826A,114.2885,34.7965,开封市,世纪星幼儿园,颗粒物(PM10),61,72,81,30,34,137,,126,126,19,46,5,6,0.4,0.5
2025-03-22T1700,3147A,114.3438,34.8106,开封市,龙亭公园,颗粒物(PM10),66,81,77,26,25,132,,119,119,18,39,5,5,0.8,0.8
2025-03-22T1700,3210A,114.3644,34.7964,开封市,汴京公园,颗粒物(PM10),65,80,85,26,28,138,,125,125,20,41,6,7,0.4,0.6
2025-03-22T1700,3473A,114.2485,34.8306,开封市,技师学院,颗粒物(PM10),68,85,69,17,27,122,,112,112,18,30,11,13,0.5,0.6
2025-03-22T1700,3592A,114.4644,34.7556,开封市,祥符区生态环境局,颗粒物(PM10),73,95,97,41,36,129,,116,116,15,40,5,10,0.5,0.7
2025-03-22T1700,1951A,84.895,45.6094,克拉玛依市,长征新村,颗粒物(PM10),64,77,72,14,23,75,,81,60,36,29,8,8,0.3,0.4
2025-03-22T1700,1952A,84.8988,45.5893,克拉玛依市,南林小区,颗粒物(PM10),69,87,76,20,26,78,,68,61,22,26,4,5,0.4,0.5
2025-03-22T1700,1954A,84.905,44.3396,克拉玛依市,独山子区,颗粒物(PM10),76,102,68,39,40,75,,107,105,21,19,12,13,0.6,0.6
2025-03-22T1700,1955A,85.6979,46.098,克拉玛依市,乌尔禾区商贸楼,颗粒物(PM10),58,65,81,13,22,95,,67,67,16,21,7,6,0.4,0.5
2025-03-22T1700,3612A,85.1045,45.6899,克拉玛依市,白碱滩区新站,颗粒物(PM10),75,99,80,22,21,56,,60,39,40,29,12,9,0.4,0.4
2025-03-22T1700,2697A,76.1454,39.7142,克孜勒苏柯尔克孜自治州,市人民政府,颗粒物(PM10),101,152,218,50,67,137,,110,110,,9,6,5,0.5,0.5
2025-03-22T1700,3665A,76.1658,39.7157,克孜勒苏柯尔克孜自治州,克州文化中心,颗粒物(PM10),101,151,223,53,65,134,,107,107,4,12,6,5,0.4,0.5
2025-03-22T1700,1450A,102.8204,24.8886,昆明市,呈贡新区,,50,42,52,35,45,120,,108,108,11,18,6,7,0.4,0.6
2025-03-22T1700,1451A,102.6251,24.9608,昆明市,西山森林公园,,,,,,,,,,,,,,,,
2025-03-22T1700,1452A,102.7252,25.0902,昆明市,龙泉镇,,37,28,57,25,43,116,,99,99,8,34,7,7,0.5,0.8
2025-03-22T1700,1453A,102.7266,25.0375,昆明市,东风东路,,40,38,60,28,46,109,,96,96,14,33,8,8,0.5,0.7
2025-03-22T1700,1454A,102.6742,25.0669,昆明市,金鼎山,,39,39,58,18,41,109,,98,98,14,27,3,5,0.5,0.7
2025-03-22T1700,1455A,102.6644,25.0401,昆明市,碧鸡广场,,36,30,54,25,43,115,,104,104,12,29,7,8,0.4,0.6
2025-03-22T1700,3179A,102.7494,25.0119,昆明市,官渡区博物馆,,50,50,62,26,40,116,,104,104,11,27,7,8,0.3,0.8
2025-03-22T1700,3375A,102.8017,24.8336,昆明市,青年创业园,细颗粒物(PM2.5),57,44,55,40,45,124,,112,112,7,21,7,8,0.5,0.7
2025-03-22T1700,3550A,102.7997,24.9786,昆明市,昆明学院,,38,34,62,26,46,118,,109,109,8,21,4,5,0.4,0.6
2025-03-22T1700,3551A,102.5967,24.6736,昆明市,晋宁区生态环境分局,,,46,45,44,43,126,,114,114,8,14,,7,0.4,0.6
2025-03-22T1700,3552A,102.6678,24.9856,昆明市,云天化总部,,39,31,50,22,38,124,,110,110,9,25,6,7,0.3,0.5
2025-03-22T1700,1456A,91.1319,29.6514,拉萨市,八廓街,,42,17,28,7,10,132,,121,121,6,9,6,6,0.4,0.4
2025-03-22T1700,1457A,91.1221,29.6747,拉萨市,市环保局,,40,22,38,7,13,126,,113,113,11,15,7,7,0.5,0.5
2025-03-22T1700,1458A,91.0874,29.6475,拉萨市,区监测站,,40,15,30,6,9,126,,116,116,7,12,5,5,0.3,0.3
2025-03-22T1700,1459A,91.1774,29.6541,拉萨市,西藏大学,,39,15,27,7,9,124,,111,111,7,10,5,5,0.5,0.5
2025-03-22T1700,1460A,90.9798,29.6588,拉萨市,区辐射站,,38,34,39,7,13,121,,112,112,12,16,7,7,0.4,0.5
2025-03-22T1700,1461A,91.0834,29.6292,拉萨市,拉萨火车站,,40,14,29,6,9,128,,120,120,5,5,3,3,0.2,0.2
2025-03-22T1700,2520A,109.2203,23.7256,来宾市,来宾技工学校,臭氧1小时,75,60,97,39,63,180,,156,156,14,35,13,14,0.6,0.7
2025-03-22T1700,3535A,109.1781,23.7297,来宾市,兴宾区政府,臭氧1小时,88,57,84,42,51,190,,150,150,9,19,10,11,0.7,0.8
2025-03-22T1700,4002A,109.2416,23.7461,来宾市,中南小学,细颗粒物(PM2.5),65,68,102,47,58,170,,146,146,10,41,10,13,0.6,0.8
2025-03-22T1700,1477A,104.1373,35.9454,兰州市,榆中兰大校区,,,,,,,,,,,,,,,,
2025-03-22T1700,1479A,103.831,36.0464,兰州市,铁路设计院,颗粒物(PM10),64,78,81,27,33,116,,83,83,23,65,13,22,0.5,1.2
2025-03-22T1700,3241A,103.7439,36.0842,兰州市,百合公园,颗粒物(PM10),58,65,76,26,35,116,,88,88,8,43,16,17,0.4,0.8
2025-03-22T1700,3242A,103.9611,35.998,兰州市,和平,颗粒物(PM10),59,68,73,41,35,129,,86,86,12,23,12,17,0.3,0.6
2025-03-22T1700,4236A,103.6293,36.0938,兰州市,庄浪东路808号,颗粒物(PM10),63,76,81,36,41,117,,99,99,18,42,21,23,0.5,0.6
2025-03-22T1700,4237A,103.7251,36.1043,兰州市,安宁西路88号,细颗粒物(PM2.5),67,76,90,48,47,126,,102,102,11,43,17,18,0.4,0.6
2025-03-22T1700,4238A,103.8470,36.0676,兰州市,北滨河东路1号,颗粒物(PM10),54,58,79,35,42,130,,87,87,15,61,16,19,0.6,1
2025-03-22T1700,3245A,103.6633,36.533,兰州新区,新区管委会,颗粒物(PM10),67,84,67,25,34,124,,107,107,7,15,10,15,0.5,0.5
2025-03-22T1700,3246A,103.6975,36.4789,兰州新区,舟曲中学,颗粒物(PM10),79,108,82,34,31,125,,105,105,6,17,10,12,0.5,0.5
2025-03-22T1700,1067A,116.6708,39.5111,廊坊市,药材公司,,39,39,53,13,17,111,,100,100,8,26,2,3,0.3,0.3
2025-03-22T1700,1068A,116.7214,39.5589,廊坊市,开发区,,47,47,58,16,18,116,,104,104,9,26,3,2,0.2,0.2
2025-03-22T1700,1070A,116.7244,39.5269,廊坊市,北华航天学院,,44,44,51,10,16,109,,99,99,10,23,4,4,0.2,0.3
2025-03-22T1700,2919A,116.7022,39.5453,廊坊市,河北工业大学,,44,44,49,15,18,116,,104,104,3,17,5,6,0.2,0.3
2025-03-22T1700,2535A,103.7723,29.5462,乐山市,花湖湾,细颗粒物(PM2.5),74,70,66,54,45,56,,26,26,28,39,7,8,0.5,0.5
2025-03-22T1700,2536A,103.7627,29.5844,乐山市,牛耳桥,细颗粒物(PM2.5),73,73,72,53,48,40,,29,29,35,46,8,8,0.8,0.7
2025-03-22T1700,2537A,103.7508,29.6006,乐山市,市第三水厂,细颗粒物(PM2.5),62,68,66,44,44,70,,40,40,26,38,5,5,0.3,0.5
2025-03-22T1700,2538A,103.7571,29.5664,乐山市,市监测站,细颗粒物(PM2.5),79,65,62,58,48,46,,26,26,36,38,7,7,0.6,0.6
2025-03-22T1700,3361A,103.7311,29.5628,乐山市,理工大学,细颗粒物(PM2.5),68,75,65,49,45,60,,32,32,34,39,5,6,0.6,0.7
2025-03-22T1700,2598A,100.2143,26.8576,丽江市,西南郊,,,,,,,,,,,,,,,,
2025-03-22T1700,2599A,100.2497,26.8802,丽江市,丽江古城,,31,21,29,9,21,97,,93,93,9,14,8,8,0.8,0.8
2025-03-22T1700,2600A,100.2203,26.8906,丽江市,市中心,,30,,20,12,18,96,,90,90,11,15,8,8,0.6,0.6
2025-03-22T1700,1267A,119.914,28.4514,丽水市,监测站大楼,,48,46,39,24,24,151,,124,124,13,29,4,5,0.3,0.5
2025-03-22T1700,1268A,119.93,28.4586,丽水市,莲都小学,颗粒物(PM10),52,53,40,16,19,126,,108,108,18,35,5,4,0.4,0.4
2025-03-22T1700,1269A,119.879,28.4231,丽水市,余庄前,臭氧1小时,52,28,35,18,21,161,,130,130,7,20,5,5,0.3,0.3
2025-03-22T1700,1173A,119.176,34.5885,连云港市,市环境监测站,颗粒物(PM10),57,63,68,17,29,123,,109,109,9,21,12,17,0.6,0.6
2025-03-22T1700,3000A,119.3581,34.6972,连云港市,德源药业,颗粒物(PM10),59,68,68,17,25,124,,110,110,13,24,14,14,0.3,0.5
2025-03-22T1700,3007A,119.178,34.844,连云港市,新城一中,颗粒物(PM10),60,69,78,25,42,120,,106,106,15,36,10,20,0.7,0.8
2025-03-22T1700,3008A,119.3608,34.7519,连云港市,胡沟管理处,,46,46,53,19,25,120,,106,106,21,34,16,17,0.5,0.7
2025-03-22T1700,3009A,119.1478,34.5911,连云港市,矿山设计院,颗粒物(PM10),59,68,74,19,30,123,,108,108,17,26,12,20,0.4,0.5
2025-03-22T1700,3434A,119.2413,34.6539,连云港市,工贸学校,,45,45,65,21,33,122,,108,108,15,24,12,15,0.5,0.7
2025-03-22T1700,3664A,119.4172,34.7341,连云港市,连云街道,颗粒物(PM10),53,56,61,21,23,125,,118,118,18,19,12,11,0.6,0.7
2025-03-22T1700,2571A,102.3431,27.8099,凉山彝族自治州,青龙寺,,45,45,59,16,24,115,,70,70,9,17,6,6,0.8,0.9
2025-03-22T1700,2572A,102.2721,27.8415,凉山彝族自治州,邛海宾馆,颗粒物(PM10),52,54,70,34,49,107,,68,68,13,32,8,8,0.7,0.9
2025-03-22T1700,2573A,102.2625,27.898,凉山彝族自治州,西昌市政府,"颗粒物(PM10),细颗粒物(PM2.5)",55,59,77,39,58,97,,61,61,13,30,9,9,0.7,1.1
2025-03-22T1700,2574A,102.2685,27.8851,凉山彝族自治州,凉山州政府,细颗粒物(PM2.5),62,61,79,44,55,105,,66,66,14,34,6,6,0.5,0.9
2025-03-22T1700,4229A,102.2342,27.8859,凉山彝族自治州,凯乐南路30号,颗粒物(PM10),53,56,88,31,56,95,,61,61,15,42,7,8,0.6,1
2025-03-22T1700,2212A,123.2,41.1953,辽阳市,宏伟区,臭氧1小时,52,47,71,35,25,161,,119,119,10,24,16,24,0.7,1.1
2025-03-22T1700,2213A,123.1683,41.2495,辽阳市,新华园,颗粒物(PM10),57,64,86,37,31,144,,104,104,18,46,19,32,0.9,1.6
2025-03-22T1700,2214A,123.2354,41.2639,辽阳市,滨河路,颗粒物(PM10),53,56,90,36,34,147,,113,113,18,42,12,23,0.6,1.3
2025-03-22T1700,2215A,123.149,41.2991,辽阳市,铁西工业园,,,,102,39,41,156,,115,115,22,47,15,33,0.6,1.8
2025-03-22T1700,2227A,125.1358,42.8845,辽源市,环保局,,,,95,,47,,,102,,,29,,7,,0.7
2025-03-22T1700,3239A,125.0764,42.9078,辽源市,银鹰制药,细颗粒物(PM2.5),225,195,108,175,74,210,,168,168,42,32,16,10,1.4,0.8
2025-03-22T1700,1625A,115.9848,36.4372,聊城市,区政府,颗粒物(PM10),53,56,77,18,29,125,,100,100,12,33,8,13,0.4,0.6
2025-03-22T1700,2878A,116.0072,36.4343,聊城市,聊大东校,颗粒物(PM10),59,68,85,22,33,123,,97,97,13,33,9,13,0.6,0.8
2025-03-22T1700,3200A,115.9819,36.4978,聊城市,监控中心,颗粒物(PM10),57,64,81,17,29,122,,101,101,10,32,12,17,0.5,0.8
2025-03-22T1700,3513A,116.0445,36.4361,聊城市,九州社区,颗粒物(PM10),57,64,81,14,29,130,,104,104,12,32,10,15,0.5,0.7
2025-03-22T1700,4018A,116.0567,36.4608,聊城市,星美广场,颗粒物(PM10),53,56,80,8,25,126,,101,101,17,32,9,13,0.5,0.6
2025-03-22T1700,2632A,94.3681,29.6376,林芝市,林芝监测站,,37,30,11,3,6,116,,114,105,6,7,5,5,0.3,0.4
2025-03-22T1700,2633A,94.3616,29.6616,林芝市,林芝人民医院,,36,17,13,3,4,114,,113,100,2,5,7,7,0.2,0.3
2025-03-22T1700,2603A,100.0781,23.8982,临沧市,市环保局,细颗粒物(PM2.5),72,92,57,52,51,111,,66,66,18,20,9,8,1.0,1
2025-03-22T1700,2604A,100.0894,23.8822,临沧市,市气象局,细颗粒物(PM2.5),92,73,58,68,56,114,,70,70,14,20,7,8,0.5,0.8
2025-03-22T1700,1733A,111.5531,36.0783,临汾市,临钢医院,颗粒物(PM10),65,79,80,11,19,116,,92,92,1,25,3,5,0.2,0.5
2025-03-22T1700,1734A,111.5028,36.0714,临汾市,技工学校,颗粒物(PM10),56,62,72,10,26,111,,84,84,5,29,5,7,0.3,0.5
2025-03-22T1700,1736A,111.5018,36.0855,临汾市,市委,颗粒物(PM10),53,55,80,14,20,114,,85,85,3,28,1,4,0.2,0.4
2025-03-22T1700,3018A,111.505,36.1014,临汾市,唐尧大酒店,颗粒物(PM10),56,62,83,14,22,111,,81,81,4,29,4,7,0.2,0.4
2025-03-22T1700,4244A,111.4879,36.0530,临汾市,启星学校,颗粒物(PM10),54,58,78,28,32,110,,85,85,3,27,2,5,0.3,0.5
2025-03-22T1700,4271A,103.2464,35.6123,临夏回族自治州,滨河东路1号,颗粒物(PM10),52,53,107,34,45,114,,91,91,7,29,8,7,0.4,0.8
2025-03-22T1700,4310A,103.2093,35.5995,临夏回族自治州,新华街21号,,,57,124,,48,112,,93,93,,28,12,12,0.4,0.9
2025-03-22T1700,1618A,118.3429,35.0532,临沂市,沂河小区,颗粒物(PM10),60,70,79,18,37,116,,104,104,11,29,8,13,0.5,0.7
2025-03-22T1700,1619A,118.295,35.0583,临沂市,鲁南制药厂,颗粒物(PM10),58,66,85,21,36,127,,118,118,16,48,9,17,0.4,0.3
2025-03-22T1700,1620A,118.2794,34.9976,临沂市,新光毛纺厂,颗粒物(PM10),54,58,80,22,37,122,,106,106,19,46,8,19,0.5,0.7
2025-03-22T1700,1621A,118.3956,35.0888,临沂市,河东保险公司,颗粒物(PM10),53,56,70,22,30,126,,113,113,15,38,7,11,0.2,0.4
2025-03-22T1700,3370A,118.3564,35.0215,临沂市,十里堡居委,颗粒物(PM10),56,61,84,14,34,123,,109,109,13,38,11,19,0.4,0.7
2025-03-22T1700,3496A,118.3604,35.1084,临沂市,南坊新区,颗粒物(PM10),62,73,82,19,32,121,,108,108,15,32,8,10,0.4,0.7
2025-03-22T1700,3860A,118.3920,35.0300,临沂市,皇山花园小区,颗粒物(PM10),62,73,82,17,34,122,,108,108,11,34,8,16,0.2,0.5
2025-03-22T1700,1870A,109.4856,24.3895,柳州市,柳东小学,臭氧1小时,87,60,72,42,55,189,,148,148,17,33,14,19,0.5,0.5
2025-03-22T1700,1871A,109.4157,24.3277,柳州市,环保监测站,臭氧1小时,84,67,95,51,65,187,,150,150,16,43,14,13,0.7,0.9
2025-03-22T1700,1872A,109.389,24.341,柳州市,河西水厂,臭氧1小时,97,69,120,35,61,197,,150,150,19,56,11,10,0.6,0.9
2025-03-22T1700,1873A,109.4311,24.2921,柳州市,市四中,臭氧1小时,97,73,93,45,59,197,,160,160,17,54,12,12,0.5,0.9
2025-03-22T1700,1874A,109.4006,24.3631,柳州市,市九中,臭氧1小时,94,78,111,44,62,195,,152,152,15,46,13,14,0.8,1
2025-03-22T1700,1875A,109.4958,24.3134,柳州市,古亭山,臭氧1小时,93,69,63,51,45,194,,153,153,12,52,11,14,0.5,0.5
2025-03-22T1700,3402A,109.5422,24.3996,柳州市,市二中,臭氧1小时,100,58,79,36,57,200,,162,162,14,42,14,24,0.3,0.4
2025-03-22T1700,2307A,116.5079,31.737,六安市,监测大楼,颗粒物(PM10),51,51,47,25,27,142,,132,132,14,27,6,6,0.5,0.6
2025-03-22T1700,2308A,116.4738,31.7643,六安市,皖西学院,颗粒物(PM10),53,56,56,23,26,140,,132,132,10,27,4,5,0.4,0.5
2025-03-22T1700,2309A,116.4996,31.7905,六安市,朝阳厂,颗粒物(PM10),52,54,47,22,23,138,,131,131,12,23,4,4,0.5,0.6
2025-03-22T1700,2310A,116.5567,31.7886,六安市,开发区,颗粒物(PM10),58,65,72,23,32,141,,138,138,14,34,4,5,0.4,0.5
2025-03-22T1700,2576A,104.8,26.5892,六盘水市,窑上,"颗粒物(PM10),细颗粒物(PM2.5)",68,86,65,49,50,131,,97,97,13,12,8,8,0.7,0.6
2025-03-22T1700,2577A,104.83,26.5917,六盘水市,黄土坡,细颗粒物(PM2.5),65,78,76,47,50,143,,105,105,16,24,13,17,0.6,0.7
2025-03-22T1700,2578A,104.89,26.5939,六盘水市,水钢,细颗粒物(PM2.5),65,77,82,47,51,145,,111,111,13,19,12,15,0.6,0.6
2025-03-22T1700,2579A,104.8475,26.5894,六盘水市,民中,细颗粒物(PM2.5),67,67,76,48,51,138,,100,100,14,33,13,19,0.6,0.8
2025-03-22T1700,2580A,104.9544,26.5506,六盘水市,双水,细颗粒物(PM2.5),63,73,70,45,43,146,,111,111,14,23,13,15,0.6,0.6
2025-03-22T1700,2335A,117.0189,25.1181,龙岩市,龙岩师专,,,,,,,,,,,,,,,,
2025-03-22T1700,2336A,117.0217,25.1033,龙岩市,龙岩市监测站,,50,48,48,25,27,160,,140,140,12,26,5,11,0.4,0.5
2025-03-22T1700,2337A,117.0258,25.0661,龙岩市,闽西职业技术学院,,50,42,64,23,36,157,,138,138,13,29,6,23,0.3,0.5
2025-03-22T1700,2338A,117.0196,25.0306,龙岩市,龙岩学院,,,,42,,26,,,110,,,15,,4,,0.4
2025-03-22T1700,2665A,105.0822,33.3261,陇南市,汉王镇固水子,,,,,,,,,,,,,,,,
2025-03-22T1700,2885A,104.9339,33.3826,陇南市,滨江中学,,44,44,50,27,24,93,,64,64,6,14,6,8,0.4,0.5
2025-03-22T1700,3247A,104.955,33.371,陇南市,市总工会,,36,36,41,17,18,98,,70,70,3,8,7,7,0.3,0.3
2025-03-22T1700,2487A,111.9589,27.8901,娄底市,电视发射台,颗粒物(PM10),52,53,46,27,26,147,,134,134,6,7,11,10,0.9,0.9
2025-03-22T1700,2488A,111.9975,27.725,娄底市,市监测站,"颗粒物(PM10),细颗粒物(PM2.5)",65,79,86,47,51,157,,121,121,8,38,13,19,0.5,1.2
2025-03-22T1700,2489A,112.0194,27.7314,娄底市,市委党校,颗粒物(PM10),54,57,73,37,47,158,,123,123,13,33,3,6,0.4,0.7
2025-03-22T1700,2490A,111.9561,27.7569,娄底市,涟钢,"颗粒物(PM10),细颗粒物(PM2.5)",60,70,90,43,48,146,,113,113,18,32,17,16,1.3,1
2025-03-22T1700,2491A,111.9892,27.7044,娄底市,市政府,细颗粒物(PM2.5),52,51,81,36,52,157,,128,128,9,23,8,8,0.3,0.5
2025-03-22T1700,1893A,105.4324,28.9634,泸州市,九狮山,,,,,,,,,,,,,,,,
2025-03-22T1700,1894A,105.4427,28.9063,泸州市,小市上码头,细颗粒物(PM2.5),90,85,89,67,62,57,,36,36,50,62,10,9,0.6,0.7
2025-03-22T1700,1895A,105.4241,28.8573,泸州市,兰田宪桥,细颗粒物(PM2.5),95,115,81,71,60,42,,34,34,51,43,10,7,0.6,0.6
2025-03-22T1700,1896A,105.4379,28.8833,泸州市,市环监站,,,,,,,,,,,,,,,,
2025-03-22T1700,4272A,105.3689,28.7783,泸州市,纳溪中医医院,细颗粒物(PM2.5),75,84,89,55,50,62,,38,38,33,41,9,8,0.6,0.6
2025-03-22T1700,2183A,111.1406,37.5211,吕梁市,环保局,颗粒物(PM10),65,80,118,33,30,102,,78,78,12,43,4,3,0.3,0.4
2025-03-22T1700,2185A,111.1297,37.5136,吕梁市,自来水公司,颗粒物(PM10),66,82,136,26,29,97,,74,74,14,34,4,5,0.4,0.5
2025-03-22T1700,2867A,111.1283,37.51,吕梁市,马茂庄小学,颗粒物(PM10),74,98,116,27,28,106,,80,80,12,43,6,6,0.2,0.4
2025-03-22T1700,1812A,112.3931,34.6516,洛阳市,市委党校,颗粒物(PM10),60,70,65,23,26,113,,102,102,10,22,4,5,0.4,0.4
2025-03-22T1700,1815A,112.494,34.6886,洛阳市,河南林校,,,,83,,34,124,,107,107,7,24,,9,5.1,0.8
2025-03-22T1700,1816A,112.3844,34.623,洛阳市,开发区管委会,颗粒物(PM10),61,72,66,21,29,114,,102,102,8,20,6,6,0.2,0.3
2025-03-22T1700,1817A,112.4267,34.6258,洛阳市,市委新办公区,颗粒物(PM10),60,70,63,28,30,123,,110,110,9,17,5,6,0.7,0.7
2025-03-22T1700,3340A,112.6005,34.6326,洛阳市,伊滨,颗粒物(PM10),69,88,63,29,32,122,,110,110,10,16,5,6,0.3,0.4
2025-03-22T1700,3341A,112.4951,34.6332,洛阳市,中移产业园,颗粒物(PM10),72,93,72,37,39,115,,100,100,11,19,8,7,0.4,0.5
2025-03-22T1700,3593A,112.5736,34.8993,洛阳市,吉利监测站,颗粒物(PM10),73,96,66,34,26,127,,114,114,11,15,8,9,0.4,0.4
2025-03-22T1700,3635A,112.3677,34.662,洛阳市,河科大西苑校区,,,87,67,23,26,115,,105,105,,22,7,9,0.5,0.6
2025-03-22T1700,3636A,112.4388,34.6781,洛阳市,英才小学,颗粒物(PM10),60,69,73,22,32,119,,106,106,11,28,9,14,0.3,0.4
2025-03-22T1700,4214A,112.4600,34.6949,洛阳市,春都路1号院,颗粒物(PM10),70,89,98,25,32,126,,112,112,12,30,7,15,0.4,0.6
2025-03-22T1700,2399A,114.051,33.5699,漯河市,三五一五工厂,颗粒物(PM10),58,66,64,22,28,121,,116,116,7,15,5,6,0.4,0.5
2025-03-22T1700,2400A,114.0055,33.5698,漯河市,漯河大学,颗粒物(PM10),60,69,64,24,24,119,,114,114,10,23,6,7,0.3,0.4
2025-03-22T1700,2401A,114.0138,33.5828,漯河市,市水利局,颗粒物(PM10),62,73,59,22,26,119,,113,113,10,16,4,5,0.4,0.4
2025-03-22T1700,2402A,114.0261,33.5698,漯河市,市广电局,颗粒物(PM10),62,73,62,22,26,120,,114,114,6,15,5,6,0.3,0.3
2025-03-22T1700,3478A,113.9749,33.5664,漯河市,市图书馆,颗粒物(PM10),60,69,62,26,30,119,,112,112,10,15,4,6,0.4,0.4
2025-03-22T1700,4250A,114.0892,33.5882,漯河市,韶山路11号,颗粒物(PM10),59,68,62,20,25,127,,124,124,11,15,3,4,0.2,0.3
2025-03-22T1700,1798A,118.5092,31.6837,马鞍山市,湖东路四小,臭氧1小时,58,61,52,16,24,166,,144,144,14,37,6,9,0.5,0.6
2025-03-22T1700,1799A,118.5024,31.6449,马鞍山市,开发区,颗粒物(PM10),63,75,64,25,30,155,,137,137,30,60,5,7,0.4,0.6
2025-03-22T1700,1802A,118.6245,31.7241,马鞍山市,濮塘,臭氧1小时,72,60,54,26,27,177,,155,155,9,23,10,12,0.5,0.6
2025-03-22T1700,3633A,118.4918,31.6809,马鞍山市,雨山,颗粒物(PM10),55,60,56,23,28,162,,142,142,20,51,8,11,0.4,0.6
2025-03-22T1700,4191A,118.5274,31.72227,马鞍山市,慈湖高新区,颗粒物(PM10),53,55,56,28,30,150,,134,134,26,46,12,11,1.0,0.9
2025-03-22T1700,1686A,111.0286,21.4688,茂名市,电白南海,颗粒物(PM10),52,53,66,29,43,131,,131,131,7,17,2,6,0.7,0.7
2025-03-22T1700,1687A,110.9294,21.6533,茂名市,茂石化七小,臭氧1小时,63,51,65,22,38,170,,162,162,14,18,4,10,0.4,0.5
2025-03-22T1700,1688A,110.9107,21.6687,茂名市,健康路,,,70,63,44,39,176,,165,165,,20,7,14,,0.5
2025-03-22T1700,1689A,110.8592,21.6828,茂名市,高岭,细颗粒物(PM2.5),107,127,86,80,44,174,,162,162,20,25,12,14,0.7,0.6
2025-03-22T1700,3450A,111.01,21.5165,茂名市,电白水东,,42,39,54,17,28,133,,132,132,3,9,3,7,0.4,0.6
2025-03-22T1700,2539A,104.0308,30.0478,眉山市,黑龙滩水库,细颗粒物(PM2.5),60,55,43,43,28,65,,49,49,22,8,5,4,0.8,0.6
2025-03-22T1700,2540A,103.8416,30.0874,眉山市,气象局,细颗粒物(PM2.5),94,120,91,70,56,30,,18,18,65,48,15,10,0.9,0.8
2025-03-22T1700,3137A,103.8578,30.0744,眉山市,市委党校,细颗粒物(PM2.5),92,102,76,68,50,27,,19,19,73,54,17,12,0.9,0.7
2025-03-22T1700,3148A,103.8291,30.0564,眉山市,区人社局,细颗粒物(PM2.5),94,98,71,70,54,27,,17,17,72,57,17,12,0.9,0.8
2025-03-22T1700,1690A,116.1231,24.3284,梅州市,梅江月梅,臭氧1小时,53,37,50,25,31,162,,144,144,11,28,5,6,0.4,0.5
2025-03-22T1700,1691A,116.0797,24.2719,梅州市,梅县新城,臭氧1小时,54,47,53,25,32,163,,146,146,10,33,6,7,0.4,0.5
2025-03-22T1700,1692A,116.1248,24.2654,梅州市,环境监控中心,臭氧1小时,53,45,54,29,30,162,,148,148,12,40,7,12,0.4,0.5
2025-03-22T1700,3315A,116.1233,24.2991,梅州市,梅龙,臭氧1小时,53,39,48,22,29,162,,140,140,9,28,8,10,0.5,0.6
2025-03-22T1700,1878A,104.7778,31.4741,绵阳市,富乐山,颗粒物(PM10),66,82,61,46,38,51,,48,48,43,42,11,3,0.7,0.6
2025-03-22T1700,1880A,104.6697,31.4668,绵阳市,高新区自来水公司,颗粒物(PM10),67,84,80,46,42,80,,52,52,32,58,4,4,0.5,0.6
2025-03-22T1700,1881A,104.7287,31.5075,绵阳市,三水厂,,50,50,81,27,44,72,,51,51,35,56,6,6,0.6,0.7
2025-03-22T1700,3491A,104.69,31.5322,绵阳市,西科大附属小学,颗粒物(PM10),67,84,77,45,41,88,,58,58,33,55,8,8,0.5,0.6
2025-03-22T1700,3492A,104.5648,31.5343,绵阳市,安州区旅游局,颗粒物(PM10),58,66,73,36,42,88,,68,68,38,38,10,9,0.5,0.6
2025-03-22T1700,4226A,104.7651,31.4531,绵阳市,绵阳市气象局,细颗粒物(PM2.5),70,79,80,51,46,49,,35,35,37,61,10,5,0.6,0.7
2025-03-22T1700,1784A,129.61,44.561,牡丹江市,环保大楼,,27,24,42,17,33,86,,86,86,8,12,5,6,0.2,0.3
2025-03-22T1700,1785A,129.6115,44.5782,牡丹江市,文化广场,,29,12,34,8,32,90,,89,89,5,12,9,10,0.2,0.3
2025-03-22T1700,1786A,129.5904,44.5963,牡丹江市,第一医院,,29,,33,17,27,90,,89,89,4,12,8,10,0.0,0.2
2025-03-22T1700,1787A,129.6364,44.6075,牡丹江市,机车工厂,,29,23,37,13,28,90,,90,90,2,14,9,16,0.4,0.4
2025-03-22T1700,1788A,129.6386,44.5462,牡丹江市,第一中学,,30,21,34,14,27,93,,93,93,2,10,6,7,0.3,0.4
2025-03-22T1700,2531A,105.0703,29.61,内江市,市监测站,细颗粒物(PM2.5),74,59,71,54,62,70,,38,38,45,50,7,7,0.2,0.4
2025-03-22T1700,2532A,105.0717,29.5947,内江市,东兴区政府,细颗粒物(PM2.5),63,70,71,45,52,84,,40,40,31,50,7,6,0.6,0.8
2025-03-22T1700,2533A,105.0653,29.5817,内江市,内江二中,细颗粒物(PM2.5),74,,77,54,60,88,,44,44,22,48,11,10,0.8,1
2025-03-22T1700,2534A,105.0406,29.5822,内江市,内江日报社,细颗粒物(PM2.5),83,77,77,61,60,67,,39,39,36,51,12,12,0.7,0.8
2025-03-22T1700,2628A,92.0657,31.4846,那曲市,那曲监测站,,34,17,16,8,9,108,,98,98,4,6,5,6,0.3,0.4
2025-03-22T1700,3128A,92.0506,31.4797,那曲市,那曲会议中心,,,,,,,,,,,,,,,,
2025-03-22T1700,1290A,115.8931,28.6843,南昌市,省外办,颗粒物(PM10),52,53,79,34,51,146,,109,109,13,70,10,9,0.7,1
2025-03-22T1700,1291A,115.8886,28.7003,南昌市,省林业公司,,,63,70,46,41,136,,19,,,63,11,10,0.0,0.4
2025-03-22T1700,1292A,115.8126,28.7442,南昌市,林科所,臭氧1小时,58,48,55,27,29,166,,122,122,21,74,10,11,0.6,0.7
2025-03-22T1700,1294A,115.8518,28.687,南昌市,建工学校,,48,42,70,31,39,151,,106,106,21,64,16,14,0.4,0.6
2025-03-22T1700,1295A,115.8921,28.6424,南昌市,象湖,颗粒物(PM10),51,52,81,27,40,159,,126,126,17,63,11,10,0.5,0.8
2025-03-22T1700,1296A,115.7423,28.7996,南昌市,武术学校,颗粒物(PM10),53,56,25,19,13,159,,132,132,14,10,13,8,0.5,0.5
2025-03-22T1700,3046A,115.9084,28.6062,南昌市,机电学校,颗粒物(PM10),55,60,83,29,44,150,,124,124,14,59,10,10,0.4,0.6
2025-03-22T1700,3690A,115.9721,28.7031,南昌市,外国语学校,颗粒物(PM10),60,69,87,33,45,166,,115,115,13,53,10,8,0.6,0.7
2025-03-22T1700,4192A,115.9316,28.68677,南昌市,南京东路235号,颗粒物(PM10),59,68,106,29,51,150,,108,108,24,70,12,9,0.4,0.8
2025-03-22T1700,1905A,106.056,30.8064,南充市,西山风景区,细颗粒物(PM2.5),74,64,53,54,42,62,,75,33,29,21,7,7,0.8,0.8
2025-03-22T1700,1906A,106.0789,30.8023,南充市,南充市委,细颗粒物(PM2.5),94,105,70,70,47,36,,26,26,56,47,8,5,0.8,0.8
2025-03-22T1700,1907A,106.1031,30.8217,南充市,南充炼油厂,细颗粒物(PM2.5),88,95,89,65,56,37,,16,16,58,55,8,6,0.6,0.6
2025-03-22T1700,1909A,106.0642,30.7636,南充市,嘉陵区环保局,颗粒物(PM10),85,119,85,61,50,27,,19,19,66,58,7,6,1.0,1
2025-03-22T1700,4227A,106.1083,30.7884,南充市,梨树横街98号,颗粒物(PM10),81,111,82,54,39,43,,20,20,51,45,9,6,0.6,0.6
2025-03-22T1700,4304A,106.1172,30.843,南充市,清泉寺北路188号,,,99,84,63,51,48,,32,32,41,40,10,8,,0.3
2025-03-22T1700,1151A,118.8086,32.1065,南京市,迈皋桥,,,44,41,,24,146,,136,136,12,37,4,5,0.1,0.3
2025-03-22T1700,1152A,118.7538,32.0551,南京市,草场门,颗粒物(PM10),51,51,50,17,22,123,,112,112,16,42,6,11,0.2,0.4
2025-03-22T1700,1153A,118.7794,32.0745,南京市,山西路,颗粒物(PM10),58,66,54,17,21,139,,127,127,6,27,4,6,0.5,0.6
2025-03-22T1700,1154A,118.7752,32.0023,南京市,中华门,,46,46,51,17,24,124,,114,114,13,49,4,18,0.4,0.7
2025-03-22T1700,1155A,118.8109,32.0309,南京市,瑞金路,颗粒物(PM10),53,56,56,9,26,134,,124,124,5,55,7,8,0.6,0.9
2025-03-22T1700,1156A,118.7997,32.0754,南京市,玄武湖,颗粒物(PM10),53,55,51,14,20,137,,124,124,8,24,4,7,0.4,0.6
2025-03-22T1700,1157A,118.6414,32.0931,南京市,浦口,颗粒物(PM10),51,51,53,19,20,157,,143,143,7,18,7,9,0.1,0.5
2025-03-22T1700,1158A,118.7356,31.9996,南京市,奥体中心,,50,50,57,12,24,139,,124,124,13,50,6,15,0.2,0.6
2025-03-22T1700,1159A,118.9125,32.1028,南京市,仙林大学城,,48,48,56,14,22,136,,130,130,11,36,8,11,0.5,0.8
2025-03-22T1700,3422A,118.8436,31.9198,南京市,江宁彩虹桥,颗粒物(PM10),56,61,59,22,24,155,,138,138,7,35,4,7,0.4,0.6
2025-03-22T1700,3423A,119.0138,31.6494,南京市,溧水永阳,臭氧1小时,52,41,40,24,29,161,,135,135,12,27,5,7,0.3,0.6
2025-03-22T1700,3427A,118.8554,32.3578,南京市,六合雄州,,46,46,47,18,19,142,,140,140,9,16,5,6,0.3,0.3
2025-03-22T1700,4249A,118.8708,31.3402,南京市,汶溪路181号,臭氧1小时,53,52,41,22,28,162,,147,147,14,22,6,6,0.4,0.5
2025-03-22T1700,1401A,108.3103,22.7881,南宁市,二十一中,臭氧1小时,104,53,62,27,45,208,,178,178,17,31,9,11,0.6,0.7
2025-03-22T1700,1402A,108.3141,22.8528,南宁市,北湖,臭氧1小时,84,51,71,30,52,187,,161,161,17,40,10,13,0.5,0.7
2025-03-22T1700,1403A,108.3206,22.8225,南宁市,市监测站,臭氧1小时,83,64,68,38,45,186,,164,164,28,33,11,14,0.8,0.8
2025-03-22T1700,1404A,108.3829,22.8037,南宁市,大自然花园,臭氧1小时,97,53,66,35,45,197,,178,178,16,25,9,10,0.5,0.6
2025-03-22T1700,1405A,108.4394,22.7904,南宁市,仙葫,臭氧1小时,68,36,64,30,51,174,,156,156,14,36,6,6,0.5,0.7
2025-03-22T1700,1406A,108.2397,22.8467,南宁市,区农职院,臭氧1小时,72,56,78,30,48,177,,166,166,28,40,7,11,0.7,0.9
2025-03-22T1700,1407A,108.3275,22.735,南宁市,英华嘉园,臭氧1小时,102,52,74,28,45,204,,178,178,23,45,11,12,0.6,0.7
2025-03-22T1700,3401A,108.4834,22.7618,南宁市,红星社区,臭氧1小时,85,75,64,33,47,188,,162,162,16,31,12,12,0.6,0.7
2025-03-22T1700,4221A,108.2177,22.7774,南宁市,乐贤路16号,臭氧1小时,69,59,84,34,49,175,,160,160,19,58,12,13,0.6,0.7
2025-03-22T1700,2331A,118.0966,26.6761,南平市,茫荡山,,,,,,,,,,,,,,,,
2025-03-22T1700,2332A,118.1681,26.6369,南平市,南平市监测站,,45,33,36,23,22,144,,127,127,6,21,4,3,0.5,0.6
2025-03-22T1700,2333A,118.1825,26.6489,南平市,南平铝业有限公司,,43,30,34,16,22,136,,123,123,5,19,6,8,0.4,0.6
2025-03-22T1700,2334A,118.1756,26.6272,南平市,南平七中,,45,31,32,20,21,142,,123,123,6,21,5,5,0.4,0.4
2025-03-22T1700,1168A,120.9098,31.9663,南通市,狼山街道,颗粒物(PM10),59,68,63,30,35,138,,126,126,45,69,9,11,0.4,0.7
2025-03-22T1700,1169A,120.86,32.0005,南通市,虹桥,颗粒物(PM10),56,62,67,30,40,109,,111,111,75,85,10,15,0.6,0.9
2025-03-22T1700,1170A,120.87,32.02,南通市,城中,颗粒物(PM10),64,77,81,25,36,142,,122,122,36,86,10,17,0.6,1
2025-03-22T1700,1171A,120.94,31.93,南通市,星湖花园,颗粒物(PM10),52,54,63,23,35,141,,130,130,45,62,8,13,0.4,0.7
2025-03-22T1700,1172A,120.81,32.0417,南通市,紫琅学院,颗粒物(PM10),59,67,73,24,36,154,,139,139,30,76,5,11,0.5,0.9
2025-03-22T1700,3291A,121.067,32.062,南通市,通州监测站,"颗粒物(PM10),臭氧1小时",60,70,71,31,37,168,,142,142,20,55,6,12,0.6,1
2025-03-22T1700,3432A,120.9348,31.9883,南通市,环境教育馆,颗粒物(PM10),56,61,67,32,34,163,,137,137,29,56,9,14,0.5,0.8
2025-03-22T1700,2404A,112.5224,33.0122,南阳市,瓦房庄,颗粒物(PM10),59,67,82,20,34,127,,104,104,10,33,3,2,0.3,0.5
2025-03-22T1700,2405A,112.5003,32.9735,南阳市,汉画馆,颗粒物(PM10),54,58,71,22,31,125,,96,96,16,40,5,5,0.2,0.4
2025-03-22T1700,2406A,112.5573,33.027,南阳市,气象站,颗粒物(PM10),60,69,81,19,29,125,,104,104,14,35,6,6,0.4,0.5
2025-03-22T1700,2407A,112.5481,32.9689,南阳市,理工学院,颗粒物(PM10),54,58,74,14,29,128,,99,99,16,42,5,5,0.3,0.5
2025-03-22T1700,4008A,112.5234,32.9922,南阳市,卧龙区政府,,,63,82,20,33,122,,96,96,12,40,6,5,,0.5
2025-03-22T1700,1234A,121.8358,29.911,宁波市,区环保大楼,颗粒物(PM10),56,61,61,24,33,150,,148,148,50,61,9,9,0.5,0.6
2025-03-22T1700,1235A,121.56,29.82,宁波市,万里学院,臭氧1小时,77,62,46,36,28,181,,154,154,27,32,11,10,0.3,0.4
2025-03-22T1700,1236A,121.713,29.9572,宁波市,龙赛医院,臭氧1小时,69,82,75,34,31,175,,153,153,43,52,22,9,0.5,0.5
2025-03-22T1700,1239A,121.633,29.7733,宁波市,钱湖水厂,臭氧1小时,74,42,40,27,24,179,,151,151,22,19,8,8,0.5,0.6
2025-03-22T1700,1240A,121.5856,29.8635,宁波市,太古小学,臭氧1小时,73,54,53,29,28,178,,157,157,30,39,10,10,0.4,0.5
2025-03-22T1700,1241A,121.524,29.8674,宁波市,市环境监测中心,臭氧1小时,67,44,47,22,25,173,,149,149,35,49,9,10,0.7,0.8
2025-03-22T1700,2871A,121.6147,29.9017,宁波市,万里国际学校,臭氧1小时,72,47,44,32,25,177,,159,159,29,29,10,8,0.4,0.5
2025-03-22T1700,3710A,121.5594,29.8975,宁波市,白沙活动中心,臭氧1小时,85,46,46,30,26,188,,162,162,27,39,8,8,0.6,0.7
2025-03-22T1700,2339A,119.5001,26.6946,宁德市,金涵水库,,,,,,,,,,,,,,,,
2025-03-22T1700,2341A,119.5388,26.6612,宁德市,宁德市监测站,,48,43,32,23,21,152,,126,126,25,20,8,6,0.9,0.7
2025-03-22T1700,3209A,119.5231,26.6562,宁德市,宁德一中,,50,48,30,35,21,154,,123,123,21,15,10,6,1.0,0.5
2025-03-22T1700,2618A,98.8601,25.8567,怒江傈僳族自治州,州监测站,,,,37,,26,87,,72,71,,7,5,5,0.4,0.4
2025-03-22T1700,2619A,98.8546,25.8417,怒江傈僳族自治州,泸水一中,,43,36,37,30,31,76,,59,59,11,14,6,6,0.4,0.4
2025-03-22T1700,1888A,101.6891,26.571,攀枝花市,弄弄坪,"颗粒物(PM10),细颗粒物(PM2.5)",57,64,91,40,60,137,,95,95,20,32,17,16,0.8,1.1
2025-03-22T1700,1889A,101.5769,26.5928,攀枝花市,河门口,细颗粒物(PM2.5),59,57,90,42,64,138,,106,106,21,31,30,20,1.7,1.6
2025-03-22T1700,1890A,101.7169,26.585,攀枝花市,炳草岗,颗粒物(PM10),60,69,84,29,56,127,,95,95,39,46,21,15,0.8,1
2025-03-22T1700,1891A,101.7369,26.5008,攀枝花市,仁和,细颗粒物(PM2.5),58,56,87,41,64,144,,108,108,19,26,20,12,0.8,1
2025-03-22T1700,2835A,101.7227,26.567,攀枝花市,四十中小,颗粒物(PM10),60,69,92,42,52,126,,99,99,31,39,20,16,1.0,1.1
2025-03-22T1700,1604A,122.0303,41.1489,盘锦市,开发区,颗粒物(PM10),70,90,64,27,25,113,,94,94,19,41,16,38,0.6,0.7
2025-03-22T1700,1605A,122.0485,41.0883,盘锦市,兴隆台,颗粒物(PM10),67,84,64,30,25,105,,98,98,28,47,9,33,0.7,0.8
2025-03-22T1700,1606A,121.8297,41.1028,盘锦市,新生街道,颗粒物(PM10),51,52,52,20,22,64,,73,73,34,40,10,30,0.7,0.6
2025-03-22T1700,1832A,113.3257,33.742,平顶山市,新华旅馆,颗粒物(PM10),57,64,80,15,28,128,,109,109,14,31,4,5,0.2,0.3
2025-03-22T1700,1833A,113.2919,33.737,平顶山市,规划设计院,颗粒物(PM10),62,74,82,25,31,122,,105,105,7,39,6,6,0.4,0.5
2025-03-22T1700,1834A,113.182,33.774,平顶山市,平顶山工学院,,,73,60,29,24,126,,110,110,6,15,,6,0.4,0.5
2025-03-22T1700,3204A,113.3025,33.73,平顶山市,规划局,颗粒物(PM10),65,80,77,26,35,127,,109,109,12,31,5,5,0.4,0.6
2025-03-22T1700,3594A,112.8867,33.9116,平顶山市,石龙区,颗粒物(PM10),69,88,81,22,24,126,,116,116,9,26,6,9,0.2,0.3
2025-03-22T1700,2656A,106.6692,35.5461,平凉市,聚贤嘉苑,颗粒物(PM10),61,72,72,23,28,123,,116,116,10,25,17,11,0.3,0.3
2025-03-22T1700,2657A,106.7021,35.5307,平凉市,博物馆,,,69,74,26,30,126,,114,114,9,27,,11,0.2,0.4
2025-03-22T1700,2347A,114.0997,27.5002,萍乡市,武功山,,43,40,24,21,13,137,,117,117,9,8,11,6,1.2,1
2025-03-22T1700,2348A,113.8385,27.6434,萍乡市,中医院,,46,40,60,26,29,146,,118,118,10,31,12,13,0.7,0.8
2025-03-22T1700,2349A,113.8493,27.6253,萍乡市,市政府车库,,47,43,49,27,32,149,,118,118,12,31,9,10,0.6,0.9
2025-03-22T1700,2350A,113.8676,27.6435,萍乡市,市环保局,,47,40,56,22,31,149,,121,121,6,38,8,12,0.6,0.8
2025-03-22T1700,2351A,113.866,27.6198,萍乡市,安源区政府,,49,49,55,20,26,148,,114,114,8,26,10,12,0.6,1.3
2025-03-22T1700,2319A,119.0141,25.4325,莆田市,荔城区仓后路,颗粒物(PM10),54,57,45,31,24,157,,149,149,18,20,3,3,0.6,0.6
2025-03-22T1700,2320A,119.0015,25.4553,莆田市,莆田市监测站,臭氧1小时,55,49,31,26,17,164,,154,154,17,12,7,4,0.4,0.3
2025-03-22T1700,2321A,119.1119,25.4561,莆田市,涵江区六中,,50,35,39,22,22,158,,159,159,15,24,3,4,0.3,0.5
2025-03-22T1700,2322A,119.1013,25.3215,莆田市,秀屿区政府,颗粒物(PM10),53,56,47,18,29,159,,155,155,11,26,4,5,0.4,0.5
2025-03-22T1700,2323A,118.981,25.4792,莆田市,东圳水库,,,,,,,,,,,,,,,,
2025-03-22T1700,2392A,115.0312,35.7636,濮阳市,环保局,颗粒物(PM10),58,65,59,26,23,131,,109,109,16,36,6,6,0.5,0.6
2025-03-22T1700,2394A,115.0574,35.7609,濮阳市,油田运输公司,颗粒物(PM10),64,77,70,23,21,137,,115,115,16,32,5,6,0.7,0.8
2025-03-22T1700,3021A,115,35.7668,濮阳市,濮水河管理处,颗粒物(PM10),65,80,79,20,23,134,,113,113,22,45,6,6,0.6,0.6
2025-03-22T1700,4216A,115.0924,35.7686,濮阳市,任丘路479号,颗粒物(PM10),62,74,72,22,19,146,,122,122,12,29,6,8,0.4,0.5
2025-03-22T1700,2601A,100.98,22.7633,普洱市,市环保局,颗粒物(PM10),66,81,69,12,15,115,,75,75,8,15,4,4,0.7,0.7
2025-03-22T1700,2602A,100.9817,22.8322,普洱市,普洱第二中学,,,,,28,30,98,,68,68,8,19,6,6,0.7,0.8
2025-03-22T1700,2262A,131.0518,45.8751,七台河市,新一中,,28,14,8,3,4,88,,89,89,6,6,11,11,0.7,0.8
2025-03-22T1700,3345A,131.0577,45.7879,七台河市,中波台,,25,20,13,3,4,79,,80,80,11,11,6,7,0.5,0.4
2025-03-22T1700,3637A,131.0176,45.7761,七台河市,人民广场,,36,36,20,12,11,76,,79,79,13,11,7,7,0.4,0.5
2025-03-22T1700,3684A,130.8781,45.8222,七台河市,新建矿广场,,30,,10,21,15,78,,80,80,10,9,8,8,0.5,0.4
2025-03-22T1700,1779A,123.9305,47.3636,齐齐哈尔市,安居小区,,49,49,25,20,11,77,,80,80,20,15,10,10,0.4,0.3
2025-03-22T1700,1780A,123.9488,47.3386,齐齐哈尔市,中心广场,,40,40,29,15,10,72,,74,74,18,13,9,7,0.4,0.3
2025-03-22T1700,1781A,123.9483,47.3227,齐齐哈尔市,农牧车辆厂,,39,39,24,17,10,79,,80,80,17,13,8,6,0.3,0.2
2025-03-22T1700,1783A,123.945,47.2988,齐齐哈尔市,市环境监测站,,41,41,22,14,9,78,,78,78,12,12,4,4,0.3,0.3
2025-03-22T1700,3662A,123.6333,47.2075,齐齐哈尔市,富区青少年活动中心,,28,28,22,14,9,80,,79,79,8,9,6,8,0.4,0.4
2025-03-22T1700,2591A,107.9783,26.5747,黔东南苗族侗族自治州,市环境监测站,细颗粒物(PM2.5),58,56,47,41,34,153,,116,116,11,33,6,5,0.4,0.5
2025-03-22T1700,2881A,107.8908,26.5311,黔东南苗族侗族自治州,凯里学院,臭氧1小时,65,63,45,40,30,172,,135,135,4,15,6,4,0.7,0.6
2025-03-22T1700,2593A,107.5228,26.2403,黔南布依族苗族自治州,小围寨,臭氧1小时,73,51,39,39,28,178,,164,164,7,13,11,9,0.8,0.7
2025-03-22T1700,3538A,107.5175,26.2978,黔南布依族苗族自治州,沙坝,臭氧1小时,64,58,51,39,34,171,,146,146,11,21,8,7,0.7,0.6
2025-03-22T1700,2589A,104.9022,25.0925,黔西南布依族苗族自治州,场坝街,颗粒物(PM10),51,52,46,3,55,148,,138,138,10,11,4,6,0.5,0.4
2025-03-22T1700,2590A,104.8811,25.0992,黔西南布依族苗族自治州,坪东大道,细颗粒物(PM2.5),52,41,44,36,38,133,,130,130,12,16,4,5,0.4,0.4
2025-03-22T1700,2502A,108.6236,21.9667,钦州市,市环保站,臭氧1小时,58,53,86,17,40,166,,157,157,20,40,10,13,0.4,0.5
2025-03-22T1700,2503A,108.6549,21.9481,钦州市,沙埠小学,臭氧1小时,55,48,88,23,45,164,,156,156,17,49,9,17,0.5,0.7
2025-03-22T1700,2504A,108.5989,21.7431,钦州市,港区一小,颗粒物(PM10),60,69,92,22,40,151,,142,142,19,57,8,13,0.7,0.8
2025-03-22T1700,3404A,108.5959,21.9633,钦州市,北职校,,50,46,85,18,47,158,,153,153,19,40,10,15,0.6,0.7
2025-03-22T1700,1043A,119.7493,40.0116,秦皇岛市,第一关,,40,40,39,21,17,96,,92,92,7,32,4,5,0.2,0.3
2025-03-22T1700,1044A,119.5897,39.9499,秦皇岛市,监测站,,41,41,48,3,16,100,,94,94,1,28,3,9,0.2,0.6
2025-03-22T1700,1046A,119.5251,39.9041,秦皇岛市,建设大厦,,42,42,57,9,19,98,,92,92,10,33,5,11,0.3,0.8
2025-03-22T1700,3132A,119.610547,39.943889,秦皇岛市,文明里,,31,31,49,13,17,92,,87,87,15,34,4,9,0,0.6
2025-03-22T1700,4198A,119.5090,39.8253,秦皇岛市,北戴河轮滑馆,,44,44,53,7,17,100,,89,89,2,22,6,13,0.2,0.6
2025-03-22T1700,1307A,120.6659,36.2403,青岛市,仰口,颗粒物(PM10),52,53,54,20,22,140,,140,140,9,11,5,6,0.3,0.3
2025-03-22T1700,1310A,120.4134,36.0658,青岛市,市南区东部子站,颗粒物(PM10),90,129,93,39,35,88,,83,83,67,60,16,13,1.0,0.7
2025-03-22T1700,1311A,120.3664,36.1032,青岛市,四方区子站,颗粒物(PM10),58,66,69,17,26,136,,114,114,36,61,12,11,0.7,0.8
2025-03-22T1700,1312A,120.2994,36.054,青岛市,市南区西部子站,颗粒物(PM10),81,112,85,42,27,92,,76,76,76,75,14,12,1.3,0.8
2025-03-22T1700,1313A,120.4581,36.0858,青岛市,崂山区子站,颗粒物(PM10),89,127,84,51,29,85,,79,79,59,45,16,14,1.3,0.8
2025-03-22T1700,1315A,120.3999,36.3083,青岛市,城阳区子站,颗粒物(PM10),60,70,78,12,25,135,,127,127,20,59,8,11,0.7,0.7
2025-03-22T1700,1966A,120.0405,35.8735,青岛市,黄岛区4号,,46,46,58,12,21,138,,92,92,15,34,10,11,0.6,0.7
2025-03-22T1700,3362A,120.5014,36.4034,青岛市,即墨2号,颗粒物(PM10),64,77,89,20,36,128,,116,116,19,43,9,12,0.6,0.8
2025-03-22T1700,3642A,120.3503,36.0736,青岛市,市北区南部,颗粒物(PM10),76,102,66,31,26,94,,75,,45,43,11,9,1.0,0.6
