timepoint,stationcode,longitude,latitude,area,positionname,primarypollutant,aqi,pm10,pm10_24h,pm2_5,pm2_5_24h,o3,o3_24h,o3_8h,o3_8h_24h,no2,no2_24h,so2,so2_24h,co,co_24h
2026-02-04T1600,2568A,102.2503,31.8896,阿坝藏族羌族自治州,马师校,,32,32,17,8,11,85,,54,54,3,10,4,4,0.3,0.4
2026-02-04T1600,3994A,102.2174,31.9016,阿坝藏族羌族自治州,马尔康中学西区,颗粒物(PM10),51,51,26,8,10,81,,55,55,4,8,7,7,0.4,0.5
2026-02-04T1600,2695A,80.2899,41.1684,阿克苏地区,电视台,颗粒物(PM10),137,223,222,100,88,56,,40,40,37,38,16,12,1.5,2
2026-02-04T1600,2696A,80.2592,41.1541,阿克苏地区,艺术中心,颗粒物(PM10),116,181,193,82,80,71,,46,46,30,45,9,5,0.8,0.9
2026-02-04T1600,2205A,105.699,38.8409,阿拉善盟,蒙二幼,颗粒物(PM10),61,71,71,20,20,96,,86,86,8,12,10,11,0.5,0.6
2026-02-04T1600,2206A,105.7198,38.8508,阿拉善盟,环保局新楼,颗粒物(PM10),56,62,64,34,22,89,,84,84,6,7,9,9,0.5,0.5
2026-02-04T1600,2708A,88.1266,47.8515,阿勒泰地区,市站,,28,18,14,3,4,88,,80,74,10,19,6,5,0.3,0.3
2026-02-04T1600,4166A,88.1198,47.7931,阿勒泰地区,阿勒泰路33号,,28,21,18,7,5,89,,82,74,2,15,7,8,0.3,0.4
2026-02-04T1600,2630A,80.1171,32.4999,阿里地区,阿里监测站,,31,,3,3,5,98,,87,84,2,4,6,8,0.2,0.3
2026-02-04T1600,3192A,80.0906,32.5029,阿里地区,阿里藏医院,,32,6,8,3,3,102,,95,89,1,3,7,9,0.3,0.3
2026-02-04T1600,2644A,109.0088,32.6974,安康市,汉滨区检察院,细颗粒物(PM2.5),75,82,79,55,50,42,,42,42,39,31,8,8,0.9,0.7
2026-02-04T1600,4054A,109.0324,32.6913,安康市,市邮政管理局,细颗粒物(PM2.5),74,94,89,54,49,46,,42,42,35,34,6,6,0.9,0.8
2026-02-04T1600,2291A,117.0806,30.5181,安庆市,环科院,颗粒物(PM10),62,74,87,42,55,84,,55,55,19,52,8,9,0.7,0.8
2026-02-04T1600,2292A,117.0331,30.5118,安庆市,马山宾馆,"颗粒物(PM10),细颗粒物(PM2.5)",62,73,87,44,58,70,,55,55,34,50,8,8,0.9,1
2026-02-04T1600,2294A,116.9897,30.6146,安庆市,安庆大学,颗粒物(PM10),51,51,91,28,53,92,,69,69,19,50,8,7,0.6,0.7
2026-02-04T1600,3173A,117.0598,30.5351,安庆市,市人大,颗粒物(PM10),59,68,89,32,47,91,,61,61,16,46,9,8,0.5,0.6
2026-02-04T1600,3123A,105.9408,26.2431,安顺市,凤凰山,细颗粒物(PM2.5),55,43,19,39,12,70,,43,43,11,13,16,12,0.7,0.8
2026-02-04T1600,3124A,105.9443,26.2567,安顺市,金钟山,,49,,13,34,15,64,,39,39,9,11,12,13,0.7,0.8
2026-02-04T1600,3125A,105.8983,26.248,安顺市,娄家坡,,39,29,18,27,13,64,,41,41,10,12,11,13,0.7,0.8
2026-02-04T1600,1819A,114.3552,36.1017,安阳市,红庙街,细颗粒物(PM2.5),114,115,131,86,114,120,,75,75,19,35,9,8,0.9,1
2026-02-04T1600,1820A,114.361,36.0681,安阳市,银杏小区,细颗粒物(PM2.5),95,105,132,71,96,123,,71,71,18,36,11,10,0.9,1
2026-02-04T1600,3141A,114.3921,36.0879,安阳市,信访局,细颗粒物(PM2.5),112,128,133,84,101,126,,76,76,14,28,12,8,0.9,0.9
2026-02-04T1600,3669A,114.4706,36.0634,安阳市,左辅环卫站,细颗粒物(PM2.5),118,141,149,89,104,122,,74,74,21,32,14,7,0.8,0.7
2026-02-04T1600,4117A,114.2918,36.0769,安阳市,钢三路198号,细颗粒物(PM2.5),108,136,162,81,106,109,,61,61,21,30,10,8,0.8,1
2026-02-04T1600,1748A,123.0441,41.1201,鞍山市,深沟寺,细颗粒物(PM2.5),183,178,132,138,93,42,,85,37,50,34,13,14,1.4,1.4
2026-02-04T1600,1749A,123.011,41.0931,鞍山市,太阳城,细颗粒物(PM2.5),210,189,135,160,101,36,,82,28,53,34,17,21,1.4,1.6
2026-02-04T1600,1750A,123.0483,41.1445,鞍山市,太平,细颗粒物(PM2.5),163,180,157,124,103,37,,30,30,48,38,15,17,1.2,1.4
2026-02-04T1600,1751A,122.964,41.0968,鞍山市,铁西三道街,细颗粒物(PM2.5),190,186,156,143,105,32,,72,25,65,50,25,27,1.5,1.4
2026-02-04T1600,1753A,123.0219,41.0822,鞍山市,明达新区,细颗粒物(PM2.5),212,196,137,162,97,34,,83,34,54,33,14,17,1.5,1.5
2026-02-04T1600,4201A,122.944647,41.082639,鞍山市,兴盛南路290号,细颗粒物(PM2.5),195,188,168,146,109,22,,70,17,75,51,30,24,1.5,1.4
2026-02-04T1600,2195A,107.4206,40.7609,巴彦淖尔市,附二中,颗粒物(PM10),56,62,81,24,26,89,,75,75,4,13,8,7,0.4,0.4
2026-02-04T1600,2196A,107.37,40.7372,巴彦淖尔市,市环保大楼,颗粒物(PM10),72,93,85,14,25,92,,76,76,4,12,5,5,0.3,0.3
2026-02-04T1600,1956A,86.1476,41.7529,巴音郭楞蒙古自治州,孔雀公园,颗粒物(PM10),111,172,158,47,45,72,,40,40,4,45,9,9,0.5,0.8
2026-02-04T1600,1957A,86.1971,41.7166,巴音郭楞蒙古自治州,棉纺厂,颗粒物(PM10),117,184,200,36,42,77,,54,54,1,19,/,/,/,/
2026-02-04T1600,1958A,86.236,41.7172,巴音郭楞蒙古自治州,经济开发区,,,145,153,27,22,69,,46,46,7,19,,6,0.4,0.5
2026-02-04T1600,3181A,106.776805,31.852614,巴中市,市五中,细颗粒物(PM2.5),77,85,85,56,59,23,,12,12,37,28,6,6,1.2,1.1
2026-02-04T1600,3183A,106.7419,31.8654,巴中市,圣泉水务公司,细颗粒物(PM2.5),78,75,74,57,57,23,,12,12,33,33,6,6,1.3,1.3
2026-02-04T1600,3616A,106.7617,31.8343,巴中市,市中心医院,细颗粒物(PM2.5),80,86,86,59,66,25,,10,10,36,33,6,6,1.2,1.3
2026-02-04T1600,2235A,122.7909,45.608,白城市,洮北区环保局,,25,24,37,7,20,78,,73,73,8,13,5,5,0.2,0.3
2026-02-04T1600,2236A,122.8741,45.5725,白城市,市环保局,,23,22,38,7,20,72,,69,69,5,23,7,6,0.2,0.4
2026-02-04T1600,2231A,126.4219,41.9172,白山市,喜丰,细颗粒物(PM2.5),102,102,67,76,51,82,,60,60,15,35,17,18,1.0,1.3
2026-02-04T1600,2232A,126.4082,41.9416,白山市,环保局,细颗粒物(PM2.5),100,,59,75,55,86,,59,59,14,31,15,16,1.1,1.3
2026-02-04T1600,2647A,104.1727,36.5448,白银市,第三小学,颗粒物(PM10),69,88,79,46,37,76,,64,64,38,29,24,28,1.0,1
2026-02-04T1600,2648A,104.1467,36.5482,白银市,动力公司,颗粒物(PM10),70,90,74,48,34,100,,69,69,22,21,20,15,0.7,0.6
2026-02-04T1600,2512A,106.6102,23.901,百色市,市监测站,细颗粒物(PM2.5),74,66,79,54,65,104,,61,61,14,29,12,18,0.9,1.1
2026-02-04T1600,2513A,106.6524,23.8842,百色市,市中心血站,细颗粒物(PM2.5),85,80,93,63,73,106,,61,61,12,29,11,18,0.9,1
2026-02-04T1600,4133A,106.6273,23.8798,百色市,龙景西路,细颗粒物(PM2.5),79,78,104,58,73,111,,58,58,14,28,14,21,0.7,0.8
2026-02-04T1600,2270A,117.396,32.9389,蚌埠市,工人疗养院,颗粒物(PM10),67,84,110,43,76,119,,87,87,21,34,5,7,0.6,0.8
2026-02-04T1600,2271A,117.3606,32.9428,蚌埠市,百货大楼,颗粒物(PM10),61,71,108,37,73,118,,89,89,21,32,6,6,0.5,0.7
2026-02-04T1600,2273A,117.4183,32.8909,蚌埠市,蚌埠学院,细颗粒物(PM2.5),59,61,97,42,70,122,,88,88,19,35,6,6,0.6,0.7
2026-02-04T1600,2274A,117.3534,32.9672,蚌埠市,淮上区政府,细颗粒物(PM2.5),70,73,105,51,78,120,,92,92,20,39,6,7,0.5,0.7
2026-02-04T1600,2275A,117.3143,32.8977,蚌埠市,高新区,细颗粒物(PM2.5),62,70,101,44,77,114,,79,79,12,31,8,8,0.5,0.7
2026-02-04T1600,3715A,117.3091,32.9314,蚌埠市,蚌埠田家炳中学,细颗粒物(PM2.5),67,70,112,48,80,117,,84,84,21,34,6,9,0.5,0.8
2026-02-04T1600,1585A,109.8761,40.6533,包头市,市环境监测站,颗粒物(PM10),89,128,98,37,54,88,,51,51,20,60,8,18,0.7,1.8
2026-02-04T1600,1587A,109.9992,40.5843,包头市,包头八中,颗粒物(PM10),89,127,108,55,63,98,,54,54,24,62,14,20,1.5,2.3
2026-02-04T1600,1589A,109.8641,40.6288,包头市,惠龙物流,颗粒物(PM10),79,108,101,40,51,86,,55,55,26,67,15,23,1.0,2.2
2026-02-04T1600,1590A,110.0376,40.5546,包头市,东河鸿龙湾,颗粒物(PM10),81,111,102,42,55,100,,55,55,22,76,15,16,1.1,2.2
2026-02-04T1600,3283A,109.9154,40.5684,包头市,滨河大厦,颗粒物(PM10),74,98,89,36,50,88,,53,53,17,69,10,16,0.7,1.8
2026-02-04T1600,3419A,109.9449,40.6259,包头市,包头市委党校,颗粒物(PM10),85,120,85,47,41,87,,60,60,30,67,18,21,1.3,1.8
2026-02-04T1600,3683A,109.8332,40.6577,包头市,昆区政府,颗粒物(PM10),82,114,90,39,54,86,,58,58,21,64,10,21,0.7,1.9
2026-02-04T1600,1931A,107.0802,34.3129,宝鸡市,竹园沟,颗粒物(PM10),54,58,86,21,52,88,,52,52,12,25,6,7,0.5,0.7
2026-02-04T1600,1933A,107.1429,34.3549,宝鸡市,监测站,颗粒物(PM10),62,74,110,25,73,86,,47,47,16,34,5,6,0.5,0.7
2026-02-04T1600,1934A,107.1172,34.3759,宝鸡市,技工学校,颗粒物(PM10),65,80,113,29,72,90,,51,51,12,24,3,6,0.6,0.7
2026-02-04T1600,1936A,107.2025,34.3518,宝鸡市,文理学院,颗粒物(PM10),60,70,106,27,69,84,,45,45,15,35,5,6,0.7,0.9
2026-02-04T1600,1937A,107.2396,34.3626,宝鸡市,三迪小学,颗粒物(PM10),69,88,114,26,72,85,,44,44,18,43,4,6,0.6,0.8
2026-02-04T1600,4155A,107.1721,34.3558,宝鸡市,滨河北路,颗粒物(PM10),51,52,111,29,67,77,,53,53,16,28,4,8,0.5,0.9
2026-02-04T1600,4308A,107.3898,34.3601,宝鸡市,陈仓区北开路21号,颗粒物(PM10),65,80,129,39,82,90,,68,68,19,39,8,54,0.4,0.8
2026-02-04T1600,1051A,115.4803,38.8568,保定市,游泳馆,细颗粒物(PM2.5),124,98,136,94,123,,,34,,37,77,12,14,0.7,1.2
2026-02-04T1600,1052A,115.509,38.8895,保定市,华电二区,细颗粒物(PM2.5),109,104,127,82,113,88,,45,45,32,66,4,6,0.8,1.2
2026-02-04T1600,1053A,115.4588,38.9037,保定市,接待中心,细颗粒物(PM2.5),109,97,131,82,109,79,,50,50,26,58,6,6,0.6,0.9
2026-02-04T1600,1054A,115.4484,38.8344,保定市,地表水厂,细颗粒物(PM2.5),93,120,170,69,116,82,,46,46,31,84,10,11,0.6,1.2
2026-02-04T1600,3581A,115.3136,38.9511,保定市,满城区生态环境分局,细颗粒物(PM2.5),83,114,149,61,106,80,,56,56,31,60,7,8,0.6,1.4
2026-02-04T1600,3582A,115.4709,38.7628,保定市,清苑区第二中学,细颗粒物(PM2.5),85,112,202,63,133,88,,45,45,26,71,13,16,0.7,1.3
2026-02-04T1600,3583A,115.6231,39.0223,保定市,徐水物探局,细颗粒物(PM2.5),140,171,177,107,120,86,,48,48,36,66,14,12,0.8,1.2
2026-02-04T1600,4004A,115.4199,38.8665,保定市,双鹰农机,细颗粒物(PM2.5),109,129,167,82,110,88,,62,62,50,64,12,11,0.8,1.2
2026-02-04T1600,4034A,115.515,38.8589,保定市,植保所站,细颗粒物(PM2.5),95,96,144,71,116,90,,49,49,29,80,5,7,0.9,1.4
2026-02-04T1600,2594A,99.1589,25.1137,保山市,市环境监测站,,28,14,27,3,16,89,,77,77,6,10,4,4,0.1,0.3
2026-02-04T1600,2595A,99.1616,25.1381,保山市,市环保局,,31,31,31,7,15,90,,78,78,3,7,3,3,0.4,0.4
2026-02-04T1600,1867A,109.1435,21.4085,北海市,海滩公园,颗粒物(PM10),51,51,44,22,19,137,,104,104,11,11,7,8,0.9,0.9
2026-02-04T1600,1868A,109.0983,21.466,北海市,新市环保局,,37,37,40,12,19,111,,96,96,10,14,6,7,0.5,0.5
2026-02-04T1600,1869A,109.1775,21.5232,北海市,北海工业园,,34,24,60,19,31,108,,88,88,7,15,6,8,0.5,0.8
2026-02-04T1600,3400A,109.1844,21.4396,北海市,龙潭自来水厂,,41,41,42,21,23,122,,96,96,8,10,4,6,0.5,0.6
2026-02-04T1600,1001A,116.3611,39.8786,北京市,万寿西宫,细颗粒物(PM2.5),87,105,113,64,81,76,,42,42,38,71,5,5,0.7,0.9
2026-02-04T1600,1003A,116.4174,39.9289,北京市,东四,细颗粒物(PM2.5),74,95,110,54,73,70,,42,42,35,61,7,7,0.6,0.9
2026-02-04T1600,1004A,116.4073,39.8858,北京市,天坛,细颗粒物(PM2.5),82,103,111,60,78,71,,38,38,36,62,5,3,0.6,0.9
2026-02-04T1600,1005A,116.4622,39.9364,北京市,农展馆,细颗粒物(PM2.5),79,94,150,58,94,73,,40,40,30,59,6,6,0.5,0.9
2026-02-04T1600,1006A,116.3399,39.9293,北京市,官园,细颗粒物(PM2.5),82,95,103,60,68,67,,34,34,35,65,5,5,0.6,0.8
2026-02-04T1600,1007A,116.2879,39.9613,北京市,海淀万柳,细颗粒物(PM2.5),84,91,88,62,59,66,,5,,36,70,5,4,0.6,0.8
2026-02-04T1600,1008A,116.6635,40.1349,北京市,顺义新城,,30,28,103,13,63,94,,64,64,10,53,6,6,0.3,0.7
2026-02-04T1600,1009A,116.6275,40.327,北京市,怀柔镇,,30,30,68,16,47,84,,54,54,13,25,5,5,0.5,0.7
2026-02-04T1600,1010A,116.2295,40.217,北京市,昌平镇,,38,38,64,18,36,85,,62,62,11,43,4,3,0.5,0.8
2026-02-04T1600,1011A,116.3968,39.982,北京市,奥体中心,细颗粒物(PM2.5),74,89,98,54,64,67,,41,41,36,71,6,6,0.6,0.8
2026-02-04T1600,3418A,116.8336,40.4095,北京市,密云新城,颗粒物(PM10),54,57,99,36,64,77,,60,60,22,45,6,5,0.4,0.6
2026-02-04T1600,3671A,116.0879,39.9725,北京市,门头沟三家店,细颗粒物(PM2.5),69,86,77,50,43,68,,51,51,31,46,6,4,0.7,0.7
2026-02-04T1600,3672A,116.1507,39.8246,北京市,丰台云岗,细颗粒物(PM2.5),95,97,98,71,61,77,,52,52,40,62,6,4,0.7,0.8
2026-02-04T1600,3674A,115.9578,39.7602,北京市,房山燕山,细颗粒物(PM2.5),78,88,81,57,53,66,,51,51,36,44,7,6,0.6,0.9
2026-02-04T1600,3675A,116.4669,39.7734,北京市,大兴旧宫,细颗粒物(PM2.5),98,101,138,73,88,73,,36,36,38,75,6,5,0.8,1.1
2026-02-04T1600,3694A,115.9859,40.4562,北京市,延庆石河营,,40,40,65,19,40,89,,48,48,11,43,5,5,0.5,0.9
2026-02-04T1600,3695A,116.6151,40.3052,北京市,怀柔新城,,30,30,69,14,46,84,,52,52,15,37,5,5,0.4,0.6
2026-02-04T1600,3696A,116.2542,39.8764,北京市,丰台小屯,细颗粒物(PM2.5),92,108,119,68,74,59,,30,30,42,72,6,5,0.7,1
2026-02-04T1600,3697A,116.8399,40.3843,北京市,密云镇,颗粒物(PM10),59,67,97,36,63,81,,54,54,18,54,5,4,0.5,0.8
2026-02-04T1600,4057A,115.9423,40.4431,北京市,延庆百泉,,39,39,62,20,42,83,,42,42,8,39,5,4,0.4,0.8
2026-02-04T1600,4058A,116.6598,39.9164,北京市,通州新华,细颗粒物(PM2.5),79,103,119,58,82,49,,34,34,46,79,4,12,0.7,1.1
2026-02-04T1600,4182A,116.1942,39.9158,北京市,石景山八角,颗粒物(PM10),74,97,100,53,56,65,,38,38,38,66,2,2,0.5,0.7
2026-02-04T1600,4194A,117.078628,40.151726,北京市,平谷新城,,43,43,143,25,106,77,,51,51,18,44,5,5,0.6,1.1
2026-02-04T1600,1761A,123.8274146,41.31234549,本溪市,大峪,细颗粒物(PM2.5),117,139,111,88,71,62,,64,64,44,31,10,11,1.0,0.9
2026-02-04T1600,1763A,123.7169,41.3094,本溪市,彩屯,细颗粒物(PM2.5),137,132,101,104,75,56,,55,55,38,42,20,22,2.1,3
2026-02-04T1600,1764A,123.7672166,41.28649327,本溪市,东明,细颗粒物(PM2.5),78,89,70,57,121,78,,76,73,24,22,10,12,1.0,0.9
2026-02-04T1600,1765A,123.799345,41.266614,本溪市,新立屯,细颗粒物(PM2.5),114,107,78,86,65,78,,81,77,31,23,11,13,,0.9
2026-02-04T1600,1766A,123.829144,41.336777,本溪市,威宁,细颗粒物(PM2.5),115,123,95,87,64,44,,52,52,48,34,14,11,1.1,1
2026-02-04T1600,2587A,105.287,27.3133,毕节市,八中,颗粒物(PM10),55,60,39,36,24,77,,43,43,13,14,12,10,0.9,1
2026-02-04T1600,2588A,105.3079,27.2987,毕节市,师专,颗粒物(PM10),52,54,33,34,21,82,,44,44,16,15,18,11,0.9,0.9
2026-02-04T1600,4263A,105.3688,27.3598,毕节市,工业大道,细颗粒物(PM2.5),64,54,33,46,25,58,,45,45,12,13,11,10,/,/
2026-02-04T1600,1629A,117.9961,37.3604,滨州市,第二水厂,细颗粒物(PM2.5),144,141,134,110,103,96,,66,66,25,44,18,15,0.9,0.8
2026-02-04T1600,1630A,117.9789,37.3931,滨州市,北中新校,细颗粒物(PM2.5),149,156,139,114,101,100,,74,74,24,33,17,12,1.0,0.9
2026-02-04T1600,3514A,117.9379,37.3959,滨州市,中海酒店,细颗粒物(PM2.5),145,149,136,111,104,110,,86,86,27,34,20,18,1.1,1
2026-02-04T1600,3515A,117.9381509,37.35547456,滨州市,开发区一中,细颗粒物(PM2.5),142,166,149,108,105,90,,67,67,20,39,22,19,1.0,1
2026-02-04T1600,3516A,118.0914,37.6938,滨州市,金海六路,细颗粒物(PM2.5),159,156,148,121,115,106,,73,73,22,54,16,13,0.9,1
2026-02-04T1600,4028A,117.9955,37.3752,滨州市,滨州市西街道办事处,细颗粒物(PM2.5),138,153,133,105,98,101,,74,74,22,35,19,14,0.8,0.8
2026-02-04T1600,2311A,115.8071,33.8399,亳州市,污水处理厂,细颗粒物(PM2.5),113,106,96,85,68,116,,91,91,22,26,6,6,0.7,0.5
2026-02-04T1600,2312A,115.7789,33.8519,亳州市,三国揽胜宫,细颗粒物(PM2.5),99,115,112,74,69,107,,78,78,31,32,6,6,0.6,0.6
2026-02-04T1600,3332A,115.7631,33.803,亳州市,亳州学院,细颗粒物(PM2.5),102,100,102,76,71,115,,82,82,22,26,4,4,,0.8
2026-02-04T1600,2693A,82.0482,44.8553,博尔塔拉蒙古自治州,市党校,颗粒物(PM10),60,69,96,29,55,84,,59,59,20,26,9,5,0.1,0.5
2026-02-04T1600,2694A,82.0805,44.8966,博尔塔拉蒙古自治州,市环保局,细颗粒物(PM2.5),65,74,120,47,75,75,,47,47,34,38,13,7,1.0,1.3
2026-02-04T1600,1071A,116.8733,38.2922,沧州市,沧县城建局,细颗粒物(PM2.5),94,127,149,70,120,91,,63,63,27,34,3,7,0.6,0.8
2026-02-04T1600,1072A,116.8462,38.3189,沧州市,电视转播站,细颗粒物(PM2.5),124,119,150,94,131,98,,65,65,23,34,6,6,0.7,0.9
2026-02-04T1600,1073A,116.8588,38.3161,沧州市,市环保局,细颗粒物(PM2.5),112,121,152,84,118,84,,55,55,25,35,8,8,0.7,0.9
2026-02-04T1600,3324A,116.8011,38.294,沧州市,河北水利电力学院,细颗粒物(PM2.5),133,136,164,101,125,84,,54,54,21,33,10,9,0.6,0.8
2026-02-04T1600,2622A,97.1813,31.1289,昌都市,昌都监测站,,31,6,19,3,8,98,,72,72,1,10,3,3,0.1,0.3
2026-02-04T1600,3719A,97.1707,31.1428,昌都市,昌都会议中心,,26,6,10,3,8,81,,64,64,1,3,4,4,0.1,0.2
2026-02-04T1600,2692A,87.2722,44.0298,昌吉回族自治州,新区政务中心,细颗粒物(PM2.5),83,91,139,61,104,96,,69,69,27,37,8,8,1.0,1.4
2026-02-04T1600,3613A,87.3069,44.0093,昌吉回族自治州,亚心广场,细颗粒物(PM2.5),102,105,144,76,112,,,80,69,21,22,8,8,,1.3
2026-02-04T1600,4164A,87.2057,43.9289,昌吉回族自治州,财政所,细颗粒物(PM2.5),110,105,125,83,99,124,,94,94,11,16,8,5,0.9,1.1
2026-02-04T1600,1120A,125.2874,43.9024,长春市,客车厂,,39,39,104,22,90,73,,59,59,30,57,9,13,0.5,1.3
2026-02-04T1600,1121A,125.2943,43.8508,长春市,邮电学院,,29,25,98,20,80,79,,57,57,15,48,9,13,0.4,1.1
2026-02-04T1600,1122A,125.3648,43.8745,长春市,劳动公园,,,,153,,97,81,,65,65,,52,6,8,0.4,1.6
2026-02-04T1600,1123A,125.3233,43.8781,长春市,园林处,,28,24,101,19,88,81,,62,62,13,44,7,15,0.3,1.2
2026-02-04T1600,1124A,125.4604,43.7904,长春市,净月潭,细颗粒物(PM2.5),73,58,93,53,71,80,,56,56,18,29,8,9,0.6,0.9
2026-02-04T1600,1126A,125.38,43.8422,长春市,经开区环卫处,,48,46,101,33,77,81,,57,57,17,54,6,9,0.4,1.1
2026-02-04T1600,1127A,125.234,43.7761,长春市,高新区管委会,,48,48,104,28,82,80,,53,53,23,57,10,10,0.4,1.2
2026-02-04T1600,1128A,125.1695,43.83,长春市,岱山公园,,42,41,97,29,83,58,,55,55,43,52,10,10,0.3,0.9
2026-02-04T1600,4281A,125.334645,43.916281,长春市,北亚泰大街1068号,,45,43,127,31,115,80,,59,59,16,53,8,13,0.3,1.3
2026-02-04T1600,1335A,113.082,28.2421,长沙市,经开区环保局,细颗粒物(PM2.5),75,91,75,55,41,27,,32,20,48,33,5,4,0.8,0.7
2026-02-04T1600,1336A,112.8873,28.2202,长沙市,高开区环保局,,,95,89,56,51,22,,19,19,,51,,6,1.0,1
2026-02-04T1600,1337A,113.0785,28.2012,长沙市,马坡岭,细颗粒物(PM2.5),72,82,84,52,47,59,,35,35,22,36,6,6,0.9,0.9
2026-02-04T1600,1338A,112.9448,28.1894,长沙市,湖南师范大学,颗粒物(PM10),73,95,85,51,42,32,,26,26,43,45,6,5,1.0,1
2026-02-04T1600,1339A,113.0177,28.1322,长沙市,雨花区环保局,细颗粒物(PM2.5),73,83,80,53,44,28,,24,24,49,50,9,9,0.8,0.8
2026-02-04T1600,1340A,112.9795,28.2593,长沙市,伍家岭,细颗粒物(PM2.5),82,109,100,60,50,20,,17,17,52,52,6,6,1.0,0.9
2026-02-04T1600,1341A,113.002,28.1944,长沙市,火车新站,细颗粒物(PM2.5),85,105,88,63,50,27,,25,25,58,53,4,4,1.2,1
2026-02-04T1600,1342A,112.9846,28.1177,长沙市,天心区环保局,细颗粒物(PM2.5),79,88,80,58,44,25,,32,32,51,47,7,6,0.7,0.7
2026-02-04T1600,1343A,112.8906,28.1307,长沙市,湖南中医药大学,颗粒物(PM10),72,93,96,50,47,30,,19,19,49,59,8,6,0.9,1
2026-02-04T1600,1727A,113.1146,36.1547,长治市,清华站,颗粒物(PM10),55,59,70,30,56,109,,78,78,19,26,11,12,0.6,0.9
2026-02-04T1600,1730A,113.0887,36.2126,长治市,审计局,颗粒物(PM10),54,58,75,32,58,109,,81,81,14,24,12,13,0.6,0.9
2026-02-04T1600,1731A,113.0845,36.1856,长治市,长治八中,颗粒物(PM10),60,70,90,40,63,112,,78,78,10,23,12,15,0.5,1.1
2026-02-04T1600,2845A,113.1561,36.1912,长治市,德盛苑,颗粒物(PM10),52,54,63,31,56,115,,91,91,9,16,10,15,0.5,0.9
2026-02-04T1600,3568A,113.0603,36.0464,长治市,向阳小学,颗粒物(PM10),62,74,104,36,62,110,,99,99,28,34,14,15,0.6,0.9
2026-02-04T1600,3569A,112.8788,36.315,长治市,屯留一中,,,72,78,39,57,118,,82,82,16,28,9,17,,0.6
2026-02-04T1600,4189A,113.113092,36.199482,长治市,英华南巷50号,颗粒物(PM10),54,57,77,35,56,113,,80,80,23,24,10,13,0.5,1
2026-02-04T1600,4190A,113.23666,36.33435,长治市,学府街1号,颗粒物(PM10),67,84,76,41,56,113,,80,80,29,28,18,15,1.2,1.2
2026-02-04T1600,1854A,111.696,28.9725,常德市,市二中,细颗粒物(PM2.5),95,114,144,71,97,56,,31,31,17,33,5,7,1.2,1.2
2026-02-04T1600,3138A,111.7152,29.0288,常德市,武陵区永安,细颗粒物(PM2.5),115,111,155,87,101,50,,31,31,24,37,5,7,1.2,1.3
2026-02-04T1600,3139A,111.6891,28.9881,常德市,鼎城区玉霞,细颗粒物(PM2.5),93,110,149,69,99,56,,30,30,23,39,7,10,1.1,1.2
2026-02-04T1600,3140A,111.6651,29.0526,常德市,武陵区长庚,细颗粒物(PM2.5),114,101,142,86,99,48,,29,29,22,36,5,6,1.0,1
2026-02-04T1600,1196A,119.9524,31.7586,常州市,市监测站,细颗粒物(PM2.5),73,86,83,53,56,118,,77,77,22,37,10,9,0.6,0.6
2026-02-04T1600,1200A,119.9351,31.703,常州市,武进监测站,细颗粒物(PM2.5),67,72,74,48,53,111,,75,75,19,28,8,9,0.4,0.4
2026-02-04T1600,3002A,119.9701,31.813,常州市,行政中心,细颗粒物(PM2.5),90,94,86,67,59,111,,72,72,23,36,8,9,0.8,0.9
2026-02-04T1600,3003A,120.0434,31.7726,常州市,经开区,细颗粒物(PM2.5),79,97,94,58,54,113,,74,74,17,34,8,8,0.9,0.7
2026-02-04T1600,3010A,119.8919,31.7892,常州市,钟楼,细颗粒物(PM2.5),82,98,85,60,58,105,,70,70,25,31,10,9,0.8,0.7
2026-02-04T1600,3429A,119.8595,31.706,常州市,武进经发区,细颗粒物(PM2.5),83,81,81,61,64,110,,78,78,21,32,9,8,1.0,0.9
2026-02-04T1600,3430A,119.5812,31.7256,常州市,金坛城区,,50,45,91,35,70,105,,71,71,9,25,8,8,0.5,0.7
2026-02-04T1600,4089A,119.9551,31.863,常州市,崇义南街5-H号,,,84,82,63,58,120,,82,82,19,47,,8,0.8,0.9
2026-02-04T1600,2220A,120.4318,41.588,朝阳市,西梁,,38,38,55,26,36,83,,80,80,15,23,13,12,0.4,0.8
2026-02-04T1600,2221A,120.452,41.565,朝阳市,河畔小区,,32,32,43,10,30,84,,81,81,9,20,11,12,0.4,0.7
2026-02-04T1600,2222A,120.4176,41.5648,朝阳市,八里堡,,39,39,51,25,36,81,,76,76,13,25,12,12,0.4,0.8
2026-02-04T1600,3026A,116.6179,23.6608,潮州市,市政府,,,86,75,37,44,166,,123,123,17,15,,9,0.5,0.5
2026-02-04T1600,4036A,116.646,23.676,潮州市,金山,臭氧1小时(O3_1h),70,66,61,32,40,176,,123,123,18,16,7,5,0.6,0.6
2026-02-04T1600,2473A,113.0116,25.8228,郴州市,市职中,,39,39,58,21,41,106,,70,70,13,27,10,9,0.4,0.7
2026-02-04T1600,2475A,113.0381,25.8074,郴州市,市审计局,,31,27,61,18,40,98,,63,63,12,36,3,5,/,/
2026-02-04T1600,2476A,113.0348,25.7757,郴州市,市环保局,,39,39,78,22,45,112,,76,76,13,39,7,8,0.3,0.6
2026-02-04T1600,4252A,113.0138,25.8011,郴州市,好美居路49号,,33,27,57,19,30,105,,83,83,14,35,6,7,/,/
2026-02-04T1600,1431A,103.9727,30.7242,成都市,金泉两河,细颗粒物(PM2.5),79,96,110,58,75,98,,61,61,24,36,2,2,0.9,1
2026-02-04T1600,1432A,104.1423,30.6765,成都市,十里店,细颗粒物(PM2.5),82,95,116,60,70,85,,44,44,34,42,4,4,0.8,0.8
2026-02-04T1600,1433A,104.0594,30.5765,成都市,三瓦窑,细颗粒物(PM2.5),82,103,114,60,74,84,,36,36,34,46,4,4,1.1,1.2
2026-02-04T1600,1434A,104.1122,30.6306,成都市,沙河铺,细颗粒物(PM2.5),79,100,113,58,71,78,,28,28,35,48,3,3,0.9,1
2026-02-04T1600,2880A,104.0219,30.6561,成都市,大石西路,细颗粒物(PM2.5),99,114,114,74,82,92,,55,55,29,33,5,5,1.0,1
2026-02-04T1600,3136A,104.2724,30.559,成都市,龙泉驿区区政府,细颗粒物(PM2.5),73,68,94,53,69,95,,51,51,12,27,7,6,0.9,0.9
2026-02-04T1600,3357A,104.0028,30.6891,成都市,金博路,细颗粒物(PM2.5),82,95,104,60,73,96,,58,58,24,39,5,5,0.9,1
2026-02-04T1600,3359A,104.056,30.5228,成都市,华阳,细颗粒物(PM2.5),88,92,106,65,74,82,,37,37,32,43,3,3,1.1,1.2
2026-02-04T1600,3488A,104.387954,30.746684,成都市,青石路225号,细颗粒物(PM2.5),92,122,116,68,77,74,,43,43,27,41,1,2,1.0,1.1
2026-02-04T1600,3489A,104.0788,30.4054,成都市,科学城,细颗粒物(PM2.5),112,106,115,84,74,56,,24,24,22,29,7,7,1.0,1.1
2026-02-04T1600,4011A,103.8505,30.6946,成都市,光华大道三段,颗粒物(PM10),79,108,124,56,75,99,,69,69,23,33,3,8,0.8,0.9
2026-02-04T1600,4144A,104.3257,30.6406,成都市,八角井街185号,细颗粒物(PM2.5),78,94,111,57,72,85,,44,44,19,35,4,4,0.7,0.8
2026-02-04T1600,4224A,104.2433276,30.53529463,成都市,鲸龙路1057号,细颗粒物(PM2.5),68,75,101,49,67,101,,43,43,12,33,5,6,0.8,0.9
2026-02-04T1600,1062A,117.9531,40.908,承德市,铁路,颗粒物(PM10),71,92,85,51,56,50,,12,,44,43,19,10,0.9,1.2
2026-02-04T1600,1063A,117.9397,40.9763,承德市,中国银行,颗粒物(PM10),70,90,82,38,47,63,,40,40,33,44,16,6,0.9,1.2
2026-02-04T1600,4073A,117.9462,40.95,承德市,杏林街1号,"颗粒物(PM10),细颗粒物(PM2.5)",64,77,77,46,52,68,,44,44,27,41,15,8,0.9,1.2
2026-02-04T1600,4274A,117.7994,40.9605,承德市,滨河大街98号,颗粒物(PM10),64,77,74,43,52,70,,38,38,30,45,56,29,1.4,1.5
2026-02-04T1600,2314A,117.4698,30.6617,池州市,池州学院,细颗粒物(PM2.5),68,68,73,49,50,80,,64,64,27,38,14,7,1.5,1.2
2026-02-04T1600,3237A,117.4918,30.6617,池州市,展览馆,细颗粒物(PM2.5),63,73,77,45,46,79,,62,62,27,38,12,4,1.2,1.1
2026-02-04T1600,3333A,117.5626,30.695,池州市,第八中学,细颗粒物(PM2.5),59,66,74,42,43,80,,66,66,25,34,10,5,0.9,0.9
2026-02-04T1600,3334A,117.5037,30.6242,池州市,第十二中学,颗粒物(PM10),66,82,81,47,46,77,,67,67,32,41,11,4,0.9,1.1
2026-02-04T1600,1744A,118.9229,42.2816,赤峰市,松山一中,,43,43,43,19,26,55,,51,51,25,38,8,8,1.0,1.1
2026-02-04T1600,1745A,118.9588,42.2733,赤峰市,哈达街,,48,48,40,16,21,60,,58,58,31,26,15,17,0.8,1.1
2026-02-04T1600,1746A,118.8792,42.2551,赤峰市,天义路,,31,31,27,20,19,56,,55,55,27,34,29,25,0.7,0.8
2026-02-04T1600,3058A,119.2656,42.0356,赤峰市,银河街,,32,23,46,22,24,82,,73,73,8,14,12,15,0.8,0.9
2026-02-04T1600,3286A,118.9359,42.3146,赤峰市,桥北物流园区,,29,25,35,20,21,77,,70,70,12,30,4,5,0.6,0.9
2026-02-04T1600,2521A,107.3473,22.4137,崇左市,市环保局江州分局,细颗粒物(PM2.5),57,62,96,40,77,107,,54,54,11,26,5,5,0.8,1.1
2026-02-04T1600,4256A,107.375,22.3736,崇左市,石景林东路7号,细颗粒物(PM2.5),64,53,89,46,84,71,,39,39,16,31,3,7,0.7,0.9
2026-02-04T1600,3207A,118.31131,32.3033,滁州市,市政府原办公楼,细颗粒物(PM2.5),60,57,87,43,76,108,,36,,12,34,5,5,0.4,0.5
2026-02-04T1600,3331A,118.3268,32.2633,滁州市,图书馆,颗粒物(PM10),51,52,83,25,58,115,,83,83,28,37,8,8,0.4,0.6
2026-02-04T1600,4101A,118.3196,32.3335,滁州市,银山路666号,,47,47,84,32,79,121,,92,92,9,30,21,12,0.5,0.7
2026-02-04T1600,4102A,118.3426,32.2979,滁州市,黄山路555号,颗粒物(PM10),57,63,104,39,77,128,,90,90,29,41,7,6,0.5,0.6
2026-02-04T1600,2606A,101.5379,25.0492,楚雄彝族自治州,市经济开发区,,26,9,28,6,22,82,,60,60,4,28,2,4,0.4,0.6
2026-02-04T1600,4153A,101.5536,25.0343,楚雄彝族自治州,团结路562号,,26,14,29,3,18,81,,57,57,3,16,3,4,0.4,0.6
2026-02-04T1600,2549A,107.5087,31.2186,达州市,市环境监测站,细颗粒物(PM2.5),99,116,105,74,61,16,,9,9,54,44,12,8,1.0,1
2026-02-04T1600,2550A,107.4988,31.2132,达州市,凤凰小区,细颗粒物(PM2.5),107,127,108,80,62,13,,10,10,62,47,12,8,0.9,0.8
2026-02-04T1600,2551A,107.5081,31.1987,达州市,达县机关宾馆,细颗粒物(PM2.5),99,124,120,74,67,17,,10,10,59,51,11,7,1.0,1
2026-02-04T1600,2552A,107.4644,31.2124,达州市,市政中心,细颗粒物(PM2.5),105,150,115,79,61,11,,8,8,66,52,11,7,1.1,1
2026-02-04T1600,2614A,100.2168,25.5818,大理白族自治州,大理市环境监测站,,25,16,21,3,13,78,,74,74,9,8,7,7,0.4,0.4
2026-02-04T1600,2615A,100.1542,25.7055,大理白族自治州,大理古城,,27,14,24,3,16,84,,76,76,4,9,7,8,0.5,0.6
2026-02-04T1600,1109A,121.6119,38.974,大连市,甘井子,细颗粒物(PM2.5),165,165,134,125,103,65,,61,61,59,44,10,13,0.5,0.6
2026-02-04T1600,1110A,121.565,38.9509,大连市,周水子,细颗粒物(PM2.5),158,156,120,120,98,70,,60,60,38,36,2,10,1.9,1.2
2026-02-04T1600,1111A,121.5637,38.8849,大连市,星海三站,细颗粒物(PM2.5),163,144,113,124,99,77,,64,64,26,26,9,8,0.9,0.9
2026-02-04T1600,1112A,121.6301,38.9117,大连市,青泥洼桥,细颗粒物(PM2.5),158,142,120,120,99,86,,75,75,31,30,12,11,0.9,0.9
2026-02-04T1600,1113A,121.6248,38.8643,大连市,傅家庄,细颗粒物(PM2.5),152,150,131,116,94,80,,68,68,26,29,10,9,1.1,1.1
2026-02-04T1600,1114A,121.5117,38.8636,大连市,七贤岭,细颗粒物(PM2.5),155,150,120,118,96,78,,69,69,34,33,15,13,1.0,0.9
2026-02-04T1600,1116A,121.7507,39.1339,大连市,金州,细颗粒物(PM2.5),149,145,126,114,99,101,,63,63,28,38,14,15,,0.8
2026-02-04T1600,1117A,121.7811,39.0495,大连市,开发区,细颗粒物(PM2.5),158,154,116,120,95,68,,64,64,37,28,8,8,0.9,0.8
2026-02-04T1600,1118A,121.9762,39.0631,大连市,双D港,细颗粒物(PM2.5),163,137,111,124,94,71,,66,66,48,36,13,12,1.1,1
2026-02-04T1600,4082A,121.2548,38.8188,大连市,旅顺,细颗粒物(PM2.5),149,148,125,114,98,86,,72,72,25,25,11,11,0.9,0.8
2026-02-04T1600,1789A,124.8085,46.0381,大庆市,大同区,,28,28,35,16,21,74,,71,71,5,13,6,8,0.3,0.5
2026-02-04T1600,1790A,125.1166,46.5255,大庆市,龙凤区,,30,30,39,16,22,70,,64,64,15,22,8,9,0.5,0.6
2026-02-04T1600,1791A,124.8894,46.4007,大庆市,红岗区,,22,19,32,7,20,68,,63,63,10,17,6,6,0.5,0.6
2026-02-04T1600,1792A,125.1391,46.578,大庆市,萨尔图区,,39,39,37,10,20,67,,53,53,12,24,9,10,0.3,0.4
2026-02-04T1600,1793A,124.9026,46.6217,大庆市,让胡路区,,24,15,26,10,16,75,,69,69,8,16,7,8,0.3,0.4
2026-02-04T1600,3481A,125.127,46.6277,大庆市,萨区政府监测点,,,,37,,21,75,,65,65,,18,7,8,0.5,0.7
2026-02-04T1600,1723A,113.2926,40.0759,大同市,云冈宾馆,颗粒物(PM10),55,60,82,13,34,76,,52,52,17,48,5,13,0.3,0.9
2026-02-04T1600,1724A,113.3437,40.0921,大同市,大同大学,颗粒物(PM10),59,67,83,25,32,82,,59,59,15,42,4,15,0.4,0.9
2026-02-04T1600,1725A,113.2637,40.129,大同市,安家小村,颗粒物(PM10),65,80,106,19,43,79,,55,55,13,48,5,18,0.3,2.5
2026-02-04T1600,3282A,113.3399,40.0586,大同市,大同市卫生学校,颗粒物(PM10),63,75,87,18,34,86,,20,,21,51,4,12,0.4,0.9
2026-02-04T1600,3565A,113.1371,40.1122,大同市,云冈站,颗粒物(PM10),60,70,80,14,31,84,,58,58,12,44,6,22,0.4,0.7
2026-02-04T1600,3566A,113.1186,40.2556,大同市,图书馆,颗粒物(PM10),58,66,68,16,34,87,,63,63,11,26,4,13,0.5,0.9
2026-02-04T1600,3567A,113.5931,40.0459,大同市,区一中,颗粒物(PM10),68,86,200,22,77,86,,59,59,12,49,10,32,0.4,1.3
2026-02-04T1600,4199A,113.2798248,40.09972476,大同市,魏都大道141号,颗粒物(PM10),61,71,106,13,42,84,,58,58,16,53,4,13,0.5,1.5
2026-02-04T1600,2269A,124.1068,50.4091,大兴安岭地区,科技局,,23,23,22,11,12,66,,62,62,4,4,5,5,0.2,0.2
2026-02-04T1600,3663A,124.117,50.4279,大兴安岭地区,红旗社区,,25,9,22,3,16,78,,68,68,5,18,4,6,0.1,0.2
2026-02-04T1600,1600A,124.33,40.0625,丹东市,江湾东路,细颗粒物(PM2.5),109,116,78,82,55,79,,69,69,20,20,8,10,0.8,1
2026-02-04T1600,1601A,124.4242,40.1513,丹东市,临江后街,细颗粒物(PM2.5),117,118,90,88,65,84,,65,65,15,32,11,11,0.8,0.9
2026-02-04T1600,1602A,124.3935,40.1461,丹东市,元宝山,细颗粒物(PM2.5),107,121,79,80,51,78,,63,63,26,21,15,13,1.1,0.9
2026-02-04T1600,1603A,124.3634,40.1093,丹东市,民主桥,细颗粒物(PM2.5),114,124,96,86,66,79,,55,55,20,39,11,13,0.8,1.3
2026-02-04T1600,3541A,109.5726195,19.51688767,儋州市,第一中学子站,,24,11,26,3,11,75,,64,64,4,5,4,5,0.6,0.6
2026-02-04T1600,3542A,109.5567,19.5187,儋州市,东坡学校子站,,28,6,26,3,10,88,,78,78,3,7,4,5,0.5,0.6
2026-02-04T1600,2616A,98.5611,24.4273,德宏傣族景颇族自治州,德宏州监测站,,49,49,70,30,49,104,,58,58,14,29,7,6,0.9,1.1
2026-02-04T1600,3677A,98.5887,24.4366,德宏傣族景颇族自治州,芒市人民政府综合楼,颗粒物(PM10),62,73,65,30,38,100,,53,53,12,17,5,4,0.7,0.8
2026-02-04T1600,1901A,104.424,31.1209,德阳市,东山公园,细颗粒物(PM2.5),82,77,88,60,76,90,,44,44,11,29,2,2,0.9,0.9
2026-02-04T1600,1902A,104.3827,31.1318,德阳市,西小区,细颗粒物(PM2.5),84,88,106,62,79,94,,42,42,17,33,5,5,1.1,1.2
2026-02-04T1600,1904A,104.3553,31.1091,德阳市,耐火材料厂,细颗粒物(PM2.5),87,79,96,64,82,83,,42,42,23,35,3,5,0.7,1
2026-02-04T1600,4145A,104.4144,31.1495,德阳市,市林业局,细颗粒物(PM2.5),82,83,98,60,75,94,,42,42,14,43,4,6,0.8,1
2026-02-04T1600,1622A,116.3034,37.4675,德州市,儿童乐园,细颗粒物(PM2.5),132,146,156,100,106,108,,73,73,36,36,16,14,1.3,1.3
2026-02-04T1600,1624A,116.2992,37.4449,德州市,监理站,细颗粒物(PM2.5),135,158,158,103,104,110,,73,73,38,42,17,14,1.1,1
2026-02-04T1600,3066A,116.2722,37.438,德州市,九衢泉纯净水厂,细颗粒物(PM2.5),153,161,151,117,114,99,,64,64,40,44,14,8,1.0,1
2026-02-04T1600,3371A,116.3693,37.44,德州市,开发区人民医院,细颗粒物(PM2.5),132,153,159,100,109,112,,76,76,25,27,16,14,1.0,1
2026-02-04T1600,3511A,116.5687,37.3331,德州市,陵城艺术中心,细颗粒物(PM2.5),143,141,145,109,111,92,,56,56,41,39,18,14,1.3,1.3
2026-02-04T1600,4292A,116.352738,37.420875,德州市,新河东路,细颗粒物(PM2.5),135,144,146,103,101,104,,65,65,31,37,16,14,1.0,1
2026-02-04T1600,2621A,99.7054,27.8319,迪庆藏族自治州,迪庆州站,,27,14,20,3,10,85,,74,74,4,8,4,5,0.4,0.6
2026-02-04T1600,3180A,99.7122,27.8129,迪庆藏族自治州,质量技术监督局,,29,24,18,7,9,90,,75,75,4,9,5,4,0.3,0.4
2026-02-04T1600,4257A,104.6092,35.5962,定西市,将台街,颗粒物(PM10),52,54,105,22,52,109,,61,61,6,26,11,13,0.4,1
2026-02-04T1600,4309A,104.6159,35.5701,定西市,正龙路62号,颗粒物(PM10),51,51,102,29,50,106,,69,69,7,14,7,8,0.7,0.9
2026-02-04T1600,1390A,113.7943,23.0132,东莞市,东城石井,臭氧1小时(O3_1h),112,73,71,43,42,224,,138,138,32,40,6,7,0.7,0.7
2026-02-04T1600,1391A,113.7384,22.9659,东莞市,南城西平,臭氧1小时(O3_1h),105,58,65,35,46,209,,124,124,35,43,7,6,0.6,0.6
2026-02-04T1600,3319A,113.7283,23.041,东莞市,万江金泰,臭氧1小时(O3_1h),67,43,82,30,48,173,,124,124,19,39,6,6,0.8,0.9
2026-02-04T1600,4129A,113.8666,23.1062,东莞市,裕兴路,,,54,73,25,37,185,,124,124,18,33,6,6,,0.9
2026-02-04T1600,4130A,114.0076,22.9739,东莞市,教育路1号,,,58,69,33,38,198,,126,126,22,33,4,5,,0.7
2026-02-04T1600,4131A,113.7981,22.8124,东莞市,长怡路1号,臭氧1小时(O3_1h),106,80,69,45,35,211,,118,118,34,38,7,7,0.8,0.8
2026-02-04T1600,1666A,118.6612,37.4313,东营市,市环保局,细颗粒物(PM2.5),137,141,131,104,102,110,,84,84,31,50,20,20,0.9,1
2026-02-04T1600,3036A,118.6903,37.4337,东营市,开发区管委会,细颗粒物(PM2.5),133,140,131,101,103,111,,86,86,25,47,15,16,0.8,0.8
2026-02-04T1600,3365A,118.5721,37.5654,东营市,垦利区民丰路,细颗粒物(PM2.5),149,136,124,114,104,111,,82,82,33,49,14,14,0.9,0.9
2026-02-04T1600,3498A,118.5063,37.8606,东营市,河口城区,细颗粒物(PM2.5),149,153,148,114,109,114,,85,85,32,51,11,14,1.1,1.2
2026-02-04T1600,3646A,118.4979,37.4623,东营市,胜利站,细颗粒物(PM2.5),120,126,128,91,91,97,,72,72,32,54,14,15,1.2,1.2
2026-02-04T1600,3734A,118.5753,37.4405,东营市,理想之城,细颗粒物(PM2.5),125,144,129,95,90,111,,82,82,33,62,13,13,0.9,1
2026-02-04T1600,1591A,110.0024,39.8127,鄂尔多斯市,综合楼,颗粒物(PM10),89,127,84,19,21,96,,78,78,8,20,7,10,0.4,0.5
2026-02-04T1600,1592A,109.9485,39.8259,鄂尔多斯市,巴音孟克林场办事处,颗粒物(PM10),87,124,76,24,24,99,,91,91,6,15,6,9,0.3,0.4
2026-02-04T1600,1593A,109.7734,39.5987,鄂尔多斯市,康泽苑,,,139,70,,22,100,,77,77,,18,6,4,,0.5
2026-02-04T1600,1594A,109.8121,39.5987,鄂尔多斯市,华泰汽车城,颗粒物(PM10),75,100,65,17,20,112,,76,76,6,23,7,7,0.4,0.6
2026-02-04T1600,1595A,109.9734,39.7884,鄂尔多斯市,奥林花园,颗粒物(PM10),93,136,82,22,20,91,,74,74,16,29,8,6,0.3,0.4
2026-02-04T1600,2436A,114.894,30.3989,鄂州市,市政府,颗粒物(PM10),63,75,86,41,59,58,,39,39,33,45,7,7,0.8,0.8
2026-02-04T1600,2437A,114.8986,30.3714,鄂州市,赵家坝,颗粒物(PM10),60,70,87,32,60,65,,45,45,26,34,9,10,1.1,1.1
2026-02-04T1600,3654A,114.8093,30.4091,鄂州市,精准医疗中心,颗粒物(PM10),62,74,100,31,66,78,,42,42,24,53,29,24,0.6,0.8
2026-02-04T1600,2454A,109.4978,30.2979,恩施土家族苗族自治州,湖北民院,细颗粒物(PM2.5),88,77,103,65,60,60,,30,30,2,16,6,6,0.9,0.9
2026-02-04T1600,3549A,109.5061,30.3771,恩施土家族苗族自治州,龙凤新区,细颗粒物(PM2.5),73,84,75,53,50,48,,24,24,21,16,7,7,0.7,0.7
2026-02-04T1600,2499A,108.3411,21.6159,防城港市,沙万,,38,37,51,26,28,58,,65,52,42,33,8,8,0.6,1.2
2026-02-04T1600,2500A,108.3515,21.7733,防城港市,防城档案局,,42,,55,29,41,86,,48,48,15,18,7,5,0.9,0.9
2026-02-04T1600,2501A,108.3506,21.6414,防城港市,大海花园,,49,38,40,34,32,73,,74,65,35,23,10,10,1.2,1
2026-02-04T1600,1371A,113.1293,23.0065,佛山市,湾梁,,,53,68,26,40,,,79,79,25,51,/,/,/,/
2026-02-04T1600,1372A,113.1082,23.0477,佛山市,华材职中,细颗粒物(PM2.5),69,61,69,50,53,140,,92,92,21,37,6,6,0.7,0.8
2026-02-04T1600,1373A,113.1439,23.045,佛山市,南海气象局,,49,49,60,32,48,123,,84,84,32,52,/,/,/,/
2026-02-04T1600,1374A,113.2879,22.8094,佛山市,顺德苏岗,颗粒物(PM10),55,60,59,33,37,145,,96,96,31,38,/,/,0.6,0.6
2026-02-04T1600,1376A,112.8384,22.8678,佛山市,高明孔堂,细颗粒物(PM2.5),59,45,54,42,41,124,,80,80,21,30,/,/,/,/
2026-02-04T1600,1377A,112.8835,23.1584,佛山市,三水监测站,细颗粒物(PM2.5),90,102,108,67,62,133,,72,72,43,91,1,5,0.6,0.7
2026-02-04T1600,1378A,112.8668,23.185,佛山市,三水云东海,细颗粒物(PM2.5),92,92,83,68,53,139,,74,74,46,66,/,/,/,/
2026-02-04T1600,3625A,113.2568,22.7629,佛山市,容桂街道办,颗粒物(PM10),58,66,69,35,40,148,,93,93,29,37,/,/,/,/
2026-02-04T1600,1282A,119.2681,26.0506,福州市,师大,,37,37,46,13,26,112,,84,84,15,20,3,4,0.4,0.5
2026-02-04T1600,1283A,119.2983,26.1028,福州市,五四北路,,30,25,38,11,23,95,,78,78,14,19,4,5,0.5,0.5
2026-02-04T1600,1284A,119.2648,26.0769,福州市,杨桥西路,,35,31,41,13,23,110,,82,82,11,18,4,5,/,/
2026-02-04T1600,3048A,119.5799,26.0937,福州市,九龙,,36,36,36,16,18,96,,79,79,15,19,5,5,0.5,0.5
2026-02-04T1600,3526A,119.5188,25.9666,福州市,吴航,,31,26,35,12,19,97,,79,79,18,21,5,5,0.5,0.6
2026-02-04T1600,4104A,119.3106,26.0648,福州市,路通桥巷6号,,32,29,45,12,27,102,,74,74,10,18,/,/,/,/
2026-02-04T1600,1755A,123.7974,41.8494,抚顺市,望花区,细颗粒物(PM2.5),168,174,115,127,91,29,,39,39,68,45,26,26,1.4,1.3
2026-02-04T1600,1756A,123.9161,41.8827,抚顺市,顺城区,细颗粒物(PM2.5),172,146,112,130,97,28,,38,38,79,58,25,19,2.0,1.5
2026-02-04T1600,1757A,124.0437,41.8615,抚顺市,东洲区,细颗粒物(PM2.5),142,152,114,108,80,36,,46,46,62,32,23,24,1.2,1
2026-02-04T1600,1758A,123.9246,41.8638,抚顺市,新抚区,细颗粒物(PM2.5),179,140,104,135,95,30,,32,32,80,54,21,13,2.1,1.4
2026-02-04T1600,1759A,124.0972,41.8961,抚顺市,大伙房水库,细颗粒物(PM2.5),132,128,91,100,72,56,,63,54,47,29,16,14,1.3,1
2026-02-04T1600,1760A,123.708,41.8386,抚顺市,沈抚新城,细颗粒物(PM2.5),150,138,117,115,89,41,,46,41,65,53,18,17,1.1,1.4
2026-02-04T1600,2377A,116.3544,27.9833,抚州市,市站,细颗粒物(PM2.5),62,69,62,44,43,102,,60,60,20,22,16,8,1.2,1.1
2026-02-04T1600,2378A,116.3562,27.9631,抚州市,血防站,,,64,63,46,43,102,,53,53,26,30,15,9,,1.7
2026-02-04T1600,2379A,116.3561,28.0007,抚州市,采茶剧团,颗粒物(PM10),61,71,61,39,42,92,,51,51,14,19,8,6,1.2,1.1
2026-02-04T1600,2380A,116.3854,27.9648,抚州市,医学分院,颗粒物(PM10),56,62,68,39,40,99,,54,54,17,22,8,9,1.2,1
2026-02-04T1600,2207A,121.6095,41.9978,阜新市,工业园区,颗粒物(PM10),63,76,125,31,74,70,,64,64,18,44,11,22,0.6,1.1
2026-02-04T1600,2208A,121.6567,42.0188,阜新市,长青街,颗粒物(PM10),51,52,83,33,62,78,,74,74,16,40,10,16,0.5,1
2026-02-04T1600,2209A,121.6672,42.07,阜新市,农业园区,颗粒物(PM10),65,80,88,32,46,73,,66,66,14,28,8,16,0.3,0.6
2026-02-04T1600,2211A,121.6343,42.0455,阜新市,玉龙新城,颗粒物(PM10),65,80,101,31,56,74,,71,71,18,40,11,17,0.5,1
2026-02-04T1600,2301A,115.8276,32.8929,阜阳市,市监测站,细颗粒物(PM2.5),77,89,101,56,63,114,,90,90,15,22,6,5,0.6,0.7
2026-02-04T1600,2303A,115.8551,32.8606,阜阳市,开发区,细颗粒物(PM2.5),63,72,95,45,59,114,,81,81,21,32,6,6,0.5,0.5
2026-02-04T1600,2875A,115.783962,32.889217,阜阳市,阜阳职业技术学院,细颗粒物(PM2.5),65,75,89,47,56,122,,93,93,12,19,8,7,0.6,0.6
2026-02-04T1600,3468A,115.79,32.8614,阜阳市,市规划展馆,细颗粒物(PM2.5),74,87,96,54,61,123,,94,94,13,19,7,7,0.8,0.8
2026-02-04T1600,3469A,115.835101,32.918568,阜阳市,枣园社区,细颗粒物(PM2.5),78,90,98,57,61,115,,90,90,13,24,7,7,0.7,0.7
2026-02-04T1600,2669A,102.9097,34.9841,甘南藏族自治州,州政府,,,86,81,,59,85,,54,54,5,22,8,9,0.3,0.8
2026-02-04T1600,3380A,102.8915,34.9618,甘南藏族自治州,甘肃民族师范学院,,38,38,88,18,43,89,,58,58,11,30,10,11,0.2,0.6
2026-02-04T1600,2570A,101.96,30.048,甘孜藏族自治州,水桥子,,25,21,17,3,11,79,,51,51,7,21,7,7,0.8,0.9
2026-02-04T1600,3065A,101.9534,29.9976,甘孜藏族自治州,州环保局,颗粒物(PM10),65,80,23,3,8,95,,65,65,2,17,7,6,0.3,0.5
2026-02-04T1600,2363A,114.9368,25.8663,赣州市,地委,,,,56,20,29,141,,98,98,18,34,8,10,1.1,1.1
2026-02-04T1600,2364A,114.946,25.8483,赣州市,气象台,,46,40,67,28,36,147,,98,98,18,50,8,9,0.5,0.6
2026-02-04T1600,2365A,114.932,25.8332,赣州市,市图书馆,,50,50,61,19,33,114,,76,76,18,44,6,6,0.7,1
2026-02-04T1600,2366A,114.8905,25.8472,赣州市,华坚鞋城,,45,45,68,13,39,114,,94,94,13,45,6,9,0.5,0.7
2026-02-04T1600,3109A,115.0094,25.8614,赣州市,赣县区卫计委,颗粒物(PM10),52,54,61,34,30,152,,87,87,16,36,7,7,0.8,0.8
2026-02-04T1600,2684A,106.2753,36.0057,固原市,监测站,,,38,102,,48,97,,68,68,6,39,,10,0.5,1.3
2026-02-04T1600,2685A,106.2384,36.0189,固原市,新区,,,33,89,16,36,97,,77,77,,29,7,8,0.3,0.7
2026-02-04T1600,2544A,106.6307,30.4577,广安市,市委,细颗粒物(PM2.5),67,81,94,48,66,89,,46,46,15,26,8,7,0.8,1
2026-02-04T1600,2545A,106.6266,30.4662,广安市,友谊中学,颗粒物(PM10),66,82,89,35,54,94,,48,48,15,24,7,7,0.9,1.1
2026-02-04T1600,2547A,106.6386,30.4551,广安市,广电花园,"颗粒物(PM10),细颗粒物(PM2.5)",67,84,83,48,69,88,,45,45,14,23,7,7,0.7,0.9
2026-02-04T1600,2902A,106.6347,30.4868,广安市,北辰小学,"颗粒物(PM10),细颗粒物(PM2.5)",64,77,88,46,65,91,,46,46,11,18,9,7,0.8,0.9
2026-02-04T1600,2524A,105.8211,32.4444,广元市,老城,细颗粒物(PM2.5),93,118,79,69,52,30,,16,16,41,46,11,11,1.3,1.2
2026-02-04T1600,2526A,105.8629,32.429,广元市,监测站,细颗粒物(PM2.5),83,68,76,61,52,32,,10,10,33,36,9,7,1.2,1.2
2026-02-04T1600,3617A,105.8047,32.4167,广元市,经开区,细颗粒物(PM2.5),78,88,85,57,54,29,,11,11,42,45,8,6,1.3,1.2
2026-02-04T1600,1345A,113.2346,23.1423,广州市,广雅中学,,47,47,75,25,41,129,,94,94,23,48,3,4,1.1,1.1
2026-02-04T1600,1346A,113.2611,23.105,广州市,市五中,颗粒物(PM10),52,54,74,26,40,160,,119,119,28,45,7,9,/,/
2026-02-04T1600,1348A,113.3477,23.0916,广州市,广东商学院,,49,48,68,32,47,155,,108,108,21,52,5,7,0.6,0.7
2026-02-04T1600,1349A,113.4332,23.105,广州市,市八十六中,,50,45,56,28,36,158,,104,104,27,62,8,11,/,/
2026-02-04T1600,1350A,113.3506,22.9488,广州市,番禺中学,颗粒物(PM10),55,59,85,26,35,127,,94,94,20,36,2,3,0.7,0.8
2026-02-04T1600,1351A,113.2147,23.3918,广州市,花都师范,细颗粒物(PM2.5),63,69,93,45,49,135,,90,90,35,83,8,6,0.7,0.9
2026-02-04T1600,1352A,113.2599,23.1329,广州市,市监测站,颗粒物(PM10),56,62,76,34,43,140,,102,102,25,41,2,3,/,/
2026-02-04T1600,1353A,113.5618,23.3119,广州市,九龙镇镇龙,,38,38,77,24,42,116,,98,98,20,47,4,5,0.6,0.7
2026-02-04T1600,1354A,113.2764,23.1544,广州市,麓湖,颗粒物(PM10),55,60,67,33,40,144,,97,97,27,63,4,5,0.7,0.8
2026-02-04T1600,2846A,113.3209,23.1323,广州市,体育西,颗粒物(PM10),55,59,76,30,43,146,,106,106,25,49,6,8,0.7,0.9
2026-02-04T1600,3298A,113.5718,23.5493,广州市,从化街口,,43,41,62,27,39,135,,89,89,14,43,6,6,0.5,0.7
2026-02-04T1600,3299A,113.3463,23.369,广州市,白云竹料,细颗粒物(PM2.5),64,75,92,46,49,134,,99,99,31,67,4,4,0.6,0.7
2026-02-04T1600,3300A,113.2981,23.2365,广州市,白云嘉禾,颗粒物(PM10),52,53,85,27,49,138,,97,97,27,71,5,6,/,/
2026-02-04T1600,3301A,113.4256,23.1716,广州市,黄埔科学城,臭氧1小时(O3_1h),58,51,71,33,44,166,,109,109,23,58,3,4,0.6,0.8
2026-02-04T1600,3302A,113.3942,23.0485,广州市,番禺大学城,颗粒物(PM10),54,58,86,22,41,149,,115,115,18,41,7,10,0.5,0.6
2026-02-04T1600,3303A,113.4923,22.8169,广州市,南沙黄阁,,48,44,60,33,38,114,,75,75,24,35,5,5,/,/
2026-02-04T1600,3304A,113.534,22.7893,广州市,南沙街,颗粒物(PM10),52,53,58,31,35,127,,92,92,26,34,4,4,0.6,0.7
2026-02-04T1600,3443A,113.2905,23.5541,广州市,花都梯面,颗粒物(PM10),54,58,62,35,36,137,,86,86,17,42,4,5,/,/
2026-02-04T1600,3445A,113.786,23.7479,广州市,从化良口,,35,28,36,22,25,111,,84,84,10,19,7,7,/,/
2026-02-04T1600,3446A,113.805,23.2614,广州市,增城荔城,,45,42,62,25,37,143,,112,112,14,30,6,6,0.4,0.6
2026-02-04T1600,2506A,109.604387,23.066791,贵港市,江南子站,,41,41,118,24,69,103,,78,78,9,48,5,8,0.6,1.1
2026-02-04T1600,2508A,109.5669,23.1065,贵港市,荷城子站,颗粒物(PM10),51,51,93,31,53,69,,71,71,33,50,8,8,1.0,1.3
2026-02-04T1600,3405A,109.5886,23.1172,贵港市,新世纪学校,颗粒物(PM10),59,68,104,28,66,94,,78,78,23,49,/,/,0.6,0.9
2026-02-04T1600,4260A,109.5933,23.095,贵港市,中山路155-3号,,44,44,91,30,72,100,,82,82,14,47,/,/,0.7,1.2
2026-02-04T1600,1439A,106.6863,26.6035,贵阳市,马鞍山,,,,23,,19,,,25,,,23,,4,,
2026-02-04T1600,1441A,106.6241,26.6266,贵阳市,鉴湖路,,,36,27,19,15,39,,31,19,,28,4,3,0.7,0.7
2026-02-04T1600,1442A,106.7468,26.6344,贵阳市,燕子冲,,43,41,29,30,23,30,,21,14,24,20,12,10,0.7,0.8
2026-02-04T1600,1443A,106.6556,26.4362,贵阳市,碧云窝,,34,34,33,19,18,44,,42,22,10,20,6,14,/,/
2026-02-04T1600,1445A,106.6963,26.6063,贵阳市,红边门,,43,39,31,30,26,27,,14,8,29,31,11,12,/,/
2026-02-04T1600,1446A,106.7162383,26.56964667,贵阳市,新华路,,41,41,39,28,26,34,,15,15,24,35,9,7,0.7,0.9
2026-02-04T1600,1447A,106.6742,26.542,贵阳市,太慈桥,,29,29,27,19,23,37,,19,17,20,30,4,4,/,/
2026-02-04T1600,4230A,106.688212,26.56952,贵阳市,花果园大街66号,,42,,27,29,26,27,,7,7,20,33,2,2,/,/
2026-02-04T1600,4231A,106.687268,26.516892,贵阳市,漓江路57号,,34,34,31,21,22,42,,11,11,14,30,11,9,0.6,0.9
2026-02-04T1600,1864A,110.3091,25.2705,桂林市,龙隐路小学,细颗粒物(PM2.5),107,88,95,80,77,41,,21,21,42,46,10,10,0.9,0.9
2026-02-04T1600,1865A,110.2849361,25.22909545,桂林市,八中,,,102,105,58,55,34,,18,18,44,48,,12,1.0,1.1
2026-02-04T1600,3531A,110.296,25.1254,桂林市,旅游学院,细颗粒物(PM2.5),147,113,98,112,78,35,,26,26,38,36,10,10,0.7,0.7
2026-02-04T1600,4222A,110.1835,25.2444,桂林市,环湖路276号,细颗粒物(PM2.5),103,95,101,77,66,31,,17,17,38,49,13,22,1.2,1.4
2026-02-04T1600,4301A,110.2803,25.2773,桂林市,信义路13号,细颗粒物(PM2.5),105,89,90,79,57,43,,23,23,37,50,24,18,1.3,1.4
2026-02-04T1600,2674A,100.2262,34.4854,果洛藏族自治州,玛沁县大武镇,,30,30,48,8,18,74,,48,48,2,8,15,16,0.6,0.4
2026-02-04T1600,1130A,126.5557,45.8109,哈尔滨市,松北商大,,46,42,83,32,72,83,,70,70,12,51,6,8,0.6,1.1
2026-02-04T1600,1132A,126.6162,45.719,哈尔滨市,南岗学府路,,42,42,81,25,55,78,,68,68,12,43,8,12,0.6,1.1
2026-02-04T1600,1133A,126.6894,45.7733,哈尔滨市,太平宏伟公园,细颗粒物(PM2.5),64,56,85,46,71,97,,80,80,10,42,7,14,0.5,0.9
2026-02-04T1600,1134A,126.6361,45.7672,哈尔滨市,道外承德广场,细颗粒物(PM2.5),63,72,114,45,67,80,,69,69,22,49,10,17,0.1,0.7
2026-02-04T1600,1136A,126.644,45.7261,哈尔滨市,动力和平路,,48,48,74,24,56,77,,65,65,15,40,9,15,0.6,1
2026-02-04T1600,1137A,126.5933,45.7479,哈尔滨市,道里建国路,细颗粒物(PM2.5),52,42,80,36,72,80,,63,63,22,61,20,30,0.1,0.7
2026-02-04T1600,1138A,126.6127,45.6119,哈尔滨市,平房东轻厂,,,38,103,30,92,66,,50,50,27,68,5,28,,1.3
2026-02-04T1600,1139A,126.5875,45.9827,哈尔滨市,呼兰师专,细颗粒物(PM2.5),67,61,87,48,79,80,,64,64,16,35,14,14,0.8,1.2
2026-02-04T1600,1140A,126.6299,45.6799,哈尔滨市,省农科院,,49,49,96,29,73,70,,62,62,18,52,17,23,0.7,1.2
2026-02-04T1600,4282A,126.6769,45.7379,哈尔滨市,华山路1号,,46,46,76,28,55,85,,66,66,14,46,5,22,0.6,1.1
2026-02-04T1600,4283A,126.9717,45.5356,哈尔滨市,解放大街52号,颗粒物(PM10),65,79,119,44,88,81,,55,55,22,50,22,29,1.1,2
2026-02-04T1600,2688A,93.5124,42.8176,哈密市,地区监测站,颗粒物(PM10),61,71,71,29,32,75,,60,60,8,22,10,9,0.1,0.5
2026-02-04T1600,2689A,93.5014,42.8312,哈密市,哈密师范学校,,,83,82,21,25,71,,53,53,,37,,8,0.4,0.7
2026-02-04T1600,2671A,100.9016,36.9464,海北藏族自治州,海晏县西海镇,,30,21,31,7,12,93,,73,73,1,5,5,8,0.4,0.4
2026-02-04T1600,3867A,102.074,36.5056,海东市,平安区公安局北苑,细颗粒物(PM2.5),87,108,111,64,67,95,,64,64,16,21,30,24,1.3,1.3
2026-02-04T1600,4163A,102.0984,36.5119,海东市,滨河路,,,104,110,69,61,101,,71,71,,40,39,25,1.2,1.1
2026-02-04T1600,1410A,110.3189,20.0596,海口市,海南大学,,38,32,36,18,17,119,,97,97,7,7,5,5,0.5,0.5
2026-02-04T1600,1411A,110.2827,20.0051,海口市,秀英海南医院,,38,38,39,16,17,104,,91,91,7,10,8,7,0.4,0.4
2026-02-04T1600,1412A,110.3391,19.9979,海口市,海南师范大学,,36,36,42,18,17,111,,92,92,7,9,5,6,0.6,0.6
2026-02-04T1600,1413A,110.3303,20.0359,海口市,龙华路环保局宿舍,,39,32,40,24,18,123,,103,103,9,7,/,/,0.8,0.8
2026-02-04T1600,3539A,110.5111,19.9737,海口市,桂林洋子站,,34,26,37,16,20,106,,91,91,7,8,/,/,/,/
2026-02-04T1600,4134A,110.1952,20.0451,海口市,长滨二路9号,,,31,33,17,18,114,,73,,,10,/,/,/,/
2026-02-04T1600,2673A,100.6158,36.2985,海南藏族自治州,共和县恰卜恰镇,,,,38,,22,86,,63,63,6,20,14,13,0.3,0.6
2026-02-04T1600,2676A,97.373,37.376,海西蒙古族藏族自治州,德令哈市,,,24,21,7,10,101,,94,94,8,5,,14,0.4,0.4
2026-02-04T1600,1049A,114.492,36.5712,邯郸市,矿院,细颗粒物(PM2.5),99,103,124,74,102,130,,67,67,24,34,12,8,0.9,1
2026-02-04T1600,1050A,114.4839,36.6136,邯郸市,丛台公园,细颗粒物(PM2.5),97,101,131,72,102,128,,85,85,18,34,13,12,0.8,1
2026-02-04T1600,3458A,114.7893,36.5592,邯郸市,香泉濮院小区,细颗粒物(PM2.5),109,150,145,82,93,108,,74,74,24,29,12,8,0.9,1
2026-02-04T1600,3580A,114.1998,36.4439,邯郸市,峰峰矿区临水派出所,细颗粒物(PM2.5),85,96,97,63,73,124,,88,88,12,17,14,15,1.0,1
2026-02-04T1600,4068A,114.5209,36.7697,邯郸市,建安街268号,细颗粒物(PM2.5),115,111,131,87,108,120,,78,78,29,44,12,8,0.8,1.1
2026-02-04T1600,4069A,114.5488,36.6177,邯郸市,丛台东路558号,细颗粒物(PM2.5),117,115,133,88,115,136,,99,99,12,43,11,7,1.0,1.1
2026-02-04T1600,2635A,107.0155,33.0707,汉中市,市监测站,颗粒物(PM10),72,94,104,50,68,79,,35,35,19,38,11,8,1.0,1.3
2026-02-04T1600,2636A,107.0083,33.114,汉中市,鑫源开发区,颗粒物(PM10),71,91,89,50,59,89,,46,46,18,36,15,7,0.9,0.9
2026-02-04T1600,2637A,107.0072,33.0323,汉中市,南郑大河坎水厂,细颗粒物(PM2.5),77,97,115,56,73,77,,33,33,18,38,10,8,0.8,1.1
2026-02-04T1600,1223A,120.2073,30.2111,杭州市,滨江,细颗粒物(PM2.5),69,69,102,50,74,74,,47,47,45,48,8,8,0.8,0.8
2026-02-04T1600,1224A,120.0625,30.2737,杭州市,西溪,细颗粒物(PM2.5),73,92,96,53,71,78,,43,43,39,45,10,9,0.8,0.7
2026-02-04T1600,1226A,120.3417,30.315,杭州市,下沙,细颗粒物(PM2.5),65,71,92,47,69,93,,56,56,24,53,10,9,0.6,0.3
2026-02-04T1600,1227A,120.1252,30.2465,杭州市,卧龙桥,细颗粒物(PM2.5),69,69,89,50,68,90,,49,49,29,35,10,10,0.4,0.4
2026-02-04T1600,1228A,120.1902,30.2691,杭州市,浙江农大,细颗粒物(PM2.5),62,66,101,44,70,91,,55,55,44,53,7,7,0.7,0.7
2026-02-04T1600,1230A,120.1195,30.3121,杭州市,和睦小学,细颗粒物(PM2.5),85,96,110,63,76,74,,50,50,40,39,7,6,0.9,0.8
2026-02-04T1600,1231A,120.3076,30.4146,杭州市,临平镇,细颗粒物(PM2.5),82,89,94,60,67,75,,39,39,35,49,8,8,0.8,0.7
2026-02-04T1600,1232A,120.2753,30.1839,杭州市,城厢镇,颗粒物(PM10),65,80,102,41,68,89,,60,60,34,48,8,9,0.6,0.6
2026-02-04T1600,1233A,120.0883,30.1808,杭州市,云栖,颗粒物(PM10),56,62,90,32,56,84,,50,50,38,40,5,5,0.5,0.8
2026-02-04T1600,3557A,119.9463,30.0496,杭州市,镇二中,细颗粒物(PM2.5),59,,77,42,74,82,,48,48,35,50,6,6,0.8,0.9
2026-02-04T1600,3558A,119.7184,30.2367,杭州市,市府大楼,,,44,89,33,74,97,,72,72,18,35,11,11,,0.9
2026-02-04T1600,3656A,120.1554,30.2863,杭州市,消防大队,细颗粒物(PM2.5),80,81,101,59,76,78,,46,46,31,42,8,7,0.8,0.7
2026-02-04T1600,1270A,117.1957,31.7845,合肥市,明珠广场,颗粒物(PM10),53,56,99,29,64,88,,63,63,26,43,6,6,0.5,0.7
2026-02-04T1600,1271A,117.307,31.8765,合肥市,三里街,颗粒物(PM10),51,51,106,23,68,85,,50,50,26,56,5,6,0.6,0.9
2026-02-04T1600,1272A,117.2587,31.8703,合肥市,琥珀山庄,,48,48,93,33,66,95,,63,63,18,42,6,7,0.7,0.9
2026-02-04T1600,1275A,117.2593,31.9376,合肥市,庐阳区,颗粒物(PM10),52,53,103,29,65,93,,60,60,27,48,5,5,0.7,0.9
2026-02-04T1600,1276A,117.345251,31.861615,合肥市,瑶海区,,,,103,,61,93,,62,62,23,52,,5,0.4,0.6
2026-02-04T1600,1277A,117.3033,31.7967,合肥市,包河区,,44,44,98,19,57,91,,67,67,12,38,7,8,0.7,0.8
2026-02-04T1600,1278A,117.278,31.7392,合肥市,滨湖新区,,46,46,87,21,53,99,,67,67,10,36,3,4,0.6,0.8
2026-02-04T1600,1279A,117.1324,31.8395,合肥市,高新区,,48,48,91,22,60,98,,66,66,18,38,4,5,0.7,0.8
2026-02-04T1600,3464A,117.3802,31.9148,合肥市,高教基地,,48,48,96,19,59,98,,68,68,20,38,7,8,0.6,0.7
2026-02-04T1600,4098A,117.2518,31.8404,合肥市,中国科学技术大学,,46,46,92,22,58,102,,67,67,16,39,8,9,0.7,0.9
2026-02-04T1600,3614A,79.9241,37.0878,和田地区,地区环保局,颗粒物(PM10),155,259,380,69,96,83,,48,48,13,29,5,5,0.6,1.1
2026-02-04T1600,3615A,79.9132,37.1137,和田地区,市环保局,颗粒物(PM10),179,307,384,80,80,103,,56,56,9,26,3,4,0.2,0.8
2026-02-04T1600,2517A,108.0496,24.6957,河池市,市环保站,细颗粒物(PM2.5),114,97,78,86,59,50,,102,57,20,28,6,7,1.1,1
2026-02-04T1600,4302A,108.0901,24.6945,河池市,上任中路54号,细颗粒物(PM2.5),102,121,90,76,61,58,,36,36,,28,8,8,1.3,1.2
2026-02-04T1600,1697A,114.6962,23.7538,河源市,东埔,,45,38,58,28,39,143,,104,104,14,34,6,6,0.6,0.8
2026-02-04T1600,1698A,114.6895,23.7232,河源市,老城,颗粒物(PM10),53,55,52,27,35,136,,108,108,12,21,6,7,0.6,0.7
2026-02-04T1600,3374A,115.5562,35.089,菏泽市,定陶老年大学,细颗粒物(PM2.5),124,129,116,94,82,99,,69,69,20,22,7,6,0.6,0.5
2026-02-04T1600,4114A,115.4239,35.2593,菏泽市,黄河路600号,细颗粒物(PM2.5),123,142,128,93,84,102,,74,74,30,27,8,6,0.8,0.6
2026-02-04T1600,4115A,115.5025,35.2727,菏泽市,菏泽市人社局,细颗粒物(PM2.5),129,140,123,98,83,96,,70,70,30,27,12,10,0.9,0.7
2026-02-04T1600,4184A,115.479691,35.244011,菏泽市,永昌路1号,颗粒物(PM10),139,228,128,96,79,104,,75,75,24,31,6,5,0.7,0.8
2026-02-04T1600,4193A,115.471542,35.280012,菏泽市,长城路999号,细颗粒物(PM2.5),119,133,121,90,77,98,,71,71,30,27,12,7,1.0,0.8
2026-02-04T1600,2514A,111.5264,24.4178,贺州市,环保小区,颗粒物(PM10),56,62,67,37,42,97,,60,60,36,37,4,4,0.6,0.7
2026-02-04T1600,2515A,111.561,24.4074,贺州市,政协大楼,,40,40,61,22,41,112,,71,71,16,37,11,12,0.7,0.9
2026-02-04T1600,3534A,111.4744,24.455,贺州市,西湾,,,62,68,36,40,105,,66,66,30,43,,8,0.8,1
2026-02-04T1600,2385A,114.17,35.9019,鹤壁市,市监测站,细颗粒物(PM2.5),114,123,124,86,79,112,,76,76,25,33,15,7,,1.1
2026-02-04T1600,2386A,114.2953,35.7512,鹤壁市,市交警支队,细颗粒物(PM2.5),117,132,166,88,115,103,,60,60,29,41,16,10,0.9,1
2026-02-04T1600,2387A,114.2877,35.7302,鹤壁市,迎宾馆,细颗粒物(PM2.5),119,124,156,90,107,112,,66,66,35,40,8,9,0.9,1.1
2026-02-04T1600,3474A,114.2616,35.6824,鹤壁市,大新区,细颗粒物(PM2.5),130,110,145,99,114,104,,61,61,26,49,13,11,1.1,1.2
2026-02-04T1600,3596A,114.1573,35.9607,鹤壁市,南山宾馆,细颗粒物(PM2.5),97,122,113,72,76,115,,86,86,20,22,13,11,0.8,0.8
2026-02-04T1600,2244A,130.2537,47.3416,鹤岗市,哈啤分公司,,30,28,34,16,27,94,,87,87,4,9,5,7,0.4,0.5
2026-02-04T1600,2245A,130.2683,47.3087,鹤岗市,斯达机电,,32,32,37,19,24,80,,78,78,8,12,6,6,0.5,0.6
2026-02-04T1600,2246A,130.3114,47.3388,鹤岗市,东山纸板厂,颗粒物(PM10),53,56,54,31,38,75,,74,74,23,20,10,12,0.4,0.9
2026-02-04T1600,2263A,127.4832,50.2524,黑河市,交通局,,23,20,30,16,21,63,,69,69,16,16,9,7,0.5,0.4
2026-02-04T1600,2264A,127.5146,50.2339,黑河市,环保局,,31,31,25,21,20,65,,69,68,15,19,8,7,0.6,0.6
2026-02-04T1600,1074A,115.6839,37.754,衡水市,电机北厂,细颗粒物(PM2.5),155,153,157,118,112,86,,62,62,37,36,10,9,0.7,0.7
2026-02-04T1600,1075A,115.6303,37.7318,衡水市,市监测站,细颗粒物(PM2.5),176,165,147,133,110,80,,57,57,38,37,13,9,1.1,0.9
2026-02-04T1600,3188A,115.6684,37.7216,衡水市,市城管局,细颗粒物(PM2.5),159,184,156,121,100,82,,58,58,39,38,16,12,1.3,0.9
2026-02-04T1600,3459A,115.599,37.5491,衡水市,地表水厂,细颗粒物(PM2.5),152,145,148,116,121,93,,67,67,26,39,14,9,1.1,0.9
2026-02-04T1600,2457A,112.6209,26.9268,衡阳市,衡阳化工总厂,细颗粒物(PM2.5),102,110,89,76,57,52,,39,39,40,34,23,15,1.2,1.1
2026-02-04T1600,2458A,112.621,26.8957,衡阳市,珠晖区环保局,细颗粒物(PM2.5),90,112,87,67,53,56,,38,38,40,47,12,11,1.3,1.4
2026-02-04T1600,2459A,112.628,26.8654,衡阳市,市委党校,细颗粒物(PM2.5),98,113,80,73,53,46,,43,39,45,29,18,16,1.8,1.4
2026-02-04T1600,2460A,112.6007,26.8977,衡阳市,市监测站,"颗粒物(PM10),细颗粒物(PM2.5)",87,124,111,64,58,46,,33,33,43,44,12,12,1.4,1.5
2026-02-04T1600,2461A,112.5658,26.9013,衡阳市,真空机电公司,细颗粒物(PM2.5),107,117,100,80,64,43,,27,27,44,51,13,10,1.3,1.4
2026-02-04T1600,3399A,112.6703,26.8817,衡阳市,师范学院,细颗粒物(PM2.5),83,107,86,61,48,62,,43,43,46,37,13,8,1.3,0.5
2026-02-04T1600,3038A,103.3757,23.3679,红河哈尼族彝族自治州,州图书馆,,30,29,37,21,27,95,,75,75,6,11,7,9,0.5,0.7
2026-02-04T1600,4154A,103.401,23.3561,红河哈尼族彝族自治州,蒙自市朝阳路,,40,,29,28,26,91,,74,74,3,12,7,10,0.3,0.5
2026-02-04T1600,1090A,111.6506,40.7517,呼和浩特市,呼市一监,颗粒物(PM10),102,153,94,62,50,74,,42,42,34,46,20,13,0.9,1
2026-02-04T1600,1094A,111.7516,40.8369,呼和浩特市,如意水处理厂,颗粒物(PM10),79,108,76,52,40,62,,40,40,36,52,23,15,0.8,0.7
2026-02-04T1600,1095A,111.727798,40.806187,呼和浩特市,二十九中,颗粒物(PM10),82,114,78,56,41,56,,37,37,35,48,26,17,0.9,0.8
2026-02-04T1600,1097A,111.717,40.7617,呼和浩特市,化肥厂生活区,颗粒物(PM10),85,120,89,53,46,70,,42,42,33,49,15,10,0.8,0.9
2026-02-04T1600,3699A,111.6519,40.8389,呼和浩特市,海东办,颗粒物(PM10),97,144,86,52,41,59,,36,36,32,50,13,11,0.8,0.9
2026-02-04T1600,4275A,111.591512,40.827312,呼和浩特市,成吉思汗西街8号,颗粒物(PM10),98,146,81,54,38,55,,35,35,38,50,13,10,0.8,0.7
2026-02-04T1600,4276A,111.6597,40.8077,呼和浩特市,公园东路75号,颗粒物(PM10),97,144,92,55,44,55,,38,38,39,53,17,13,1.0,1
2026-02-04T1600,4277A,111.5427,40.7846,呼和浩特市,金海路35号,"颗粒物(PM10),细颗粒物(PM2.5)",88,126,86,65,44,59,,36,36,36,55,17,11,0.9,0.9
2026-02-04T1600,3061A,119.7511,49.1576,呼伦贝尔市,国华电力东,,27,17,27,12,13,84,,78,78,12,13,6,6,0.2,0.3
2026-02-04T1600,4279A,119.7569,49.2222,呼伦贝尔市,伊敏大街东7号,,26,26,26,7,12,82,,72,72,1,8,7,7,0.5,0.5
2026-02-04T1600,1250A,120.075,30.867,湖州市,城西水厂,细颗粒物(PM2.5),55,51,77,39,57,101,,58,58,28,41,6,6,0.5,0.5
2026-02-04T1600,2873A,120.083,30.8929,湖州市,仁皇山新区,细颗粒物(PM2.5),67,59,78,48,59,94,,57,57,33,42,6,7,0.7,0.7
2026-02-04T1600,2907A,120.1846,30.8592,湖州市,吴兴区站,,,72,98,49,65,94,,53,53,18,34,,6,0.5,0.5
2026-02-04T1600,3562A,120.4146,30.8538,湖州市,南浔区站,细颗粒物(PM2.5),69,67,77,50,55,99,,54,54,25,40,8,8,0.6,0.6
2026-02-04T1600,1607A,120.904878,40.721091,葫芦岛市,龙港区,细颗粒物(PM2.5),79,96,124,58,92,79,,62,62,29,52,74,29,0.7,1.3
2026-02-04T1600,1608A,120.8382,40.7521,葫芦岛市,化工街,颗粒物(PM10),71,92,132,51,90,68,,61,61,31,68,20,27,0.5,1
2026-02-04T1600,1609A,120.8339,40.7078,葫芦岛市,新区,细颗粒物(PM2.5),80,94,108,59,101,74,,62,62,34,59,56,23,1.7,1.3
2026-02-04T1600,1610A,120.8697,40.7679,葫芦岛市,东城区,细颗粒物(PM2.5),88,,111,65,97,73,,64,64,26,65,15,26,0.6,1.4
2026-02-04T1600,2483A,109.9297,27.5383,怀化市,河西地税局,细颗粒物(PM2.5),85,118,100,63,55,69,,51,51,31,26,2,3,/,/
2026-02-04T1600,2484A,109.9783,27.5342,怀化市,市四医院,颗粒物(PM10),94,137,102,59,59,70,,45,45,24,21,9,10,0.9,0.6
2026-02-04T1600,2485A,109.9971,27.5579,怀化市,监测楼,细颗粒物(PM2.5),97,130,104,72,67,71,,45,45,25,26,5,5,0.5,0.4
2026-02-04T1600,1210A,119.0566,33.5991,淮安市,钵池山,,,95,98,75,78,101,,70,70,20,44,,11,0.6,0.6
2026-02-04T1600,1211A,119.0083,33.578,淮安市,北京南路,细颗粒物(PM2.5),108,92,100,81,79,104,,71,71,24,46,10,10,0.8,0.8
2026-02-04T1600,1212A,118.9938,33.6083,淮安市,市监测站,细颗粒物(PM2.5),108,92,98,81,83,105,,73,73,22,41,11,12,0.6,0.8
2026-02-04T1600,1213A,119.135,33.5038,淮安市,楚州区监测站,细颗粒物(PM2.5),94,90,106,70,82,106,,70,70,14,47,8,7,0.7,0.8
2026-02-04T1600,3426A,118.8757,33.2897,淮安市,新华书店,细颗粒物(PM2.5),92,95,108,68,83,103,,68,68,19,47,10,10,0.8,0.9
2026-02-04T1600,4092A,119.119691,33.550006,淮安市,枚皋中路89号,细颗粒物(PM2.5),105,83,111,79,86,107,,73,73,14,39,10,11,0.5,0.7
2026-02-04T1600,4206A,119.028838,33.631911,淮安市,承德北路606号,细颗粒物(PM2.5),98,105,114,73,79,114,,81,81,21,43,9,10,0.6,0.8
2026-02-04T1600,2282A,116.8005,33.9749,淮北市,监测站,细颗粒物(PM2.5),99,110,118,74,75,116,,84,84,16,26,6,6,0.7,0.8
2026-02-04T1600,2283A,116.8094,33.9008,淮北市,烈山区政府,细颗粒物(PM2.5),97,95,114,72,76,114,,79,79,22,33,6,6,0.5,0.6
2026-02-04T1600,4017A,116.7926,33.9534,淮北市,市博物馆,细颗粒物(PM2.5),109,107,121,82,79,114,,86,86,19,23,6,7,0.7,0.8
2026-02-04T1600,4100A,116.8322,33.9884,淮北市,杜集区第一实验学校,细颗粒物(PM2.5),97,104,117,72,80,116,,83,83,15,23,4,5,0.6,0.6
2026-02-04T1600,2277A,116.8304,32.7726,淮南市,潘集区政府,颗粒物(PM10),67,84,112,42,66,119,,85,85,14,31,7,7,0.5,0.6
2026-02-04T1600,2279A,116.8569,32.5949,淮南市,谢家集区政府,颗粒物(PM10),53,55,95,29,65,116,,74,74,12,29,7,8,0.7,0.8
2026-02-04T1600,2280A,116.8279,32.6333,淮南市,八公山区政府,,,59,89,33,62,120,,90,90,14,26,4,4,,0.7
2026-02-04T1600,2894A,117.0561,32.6536,淮南市,经济技术开发区消防队,颗粒物(PM10),53,55,95,25,63,105,,77,77,15,36,6,6,0.4,0.5
2026-02-04T1600,3329A,117.011,32.5891,淮南市,山南新区,颗粒物(PM10),51,51,95,24,63,106,,76,76,23,35,8,8,0.5,0.6
2026-02-04T1600,4209A,117.003137,32.644456,淮南市,国庆中路369号,,39,39,89,26,63,98,,79,79,12,27,14,14,0.4,0.6
2026-02-04T1600,2446A,114.9021,30.474,黄冈市,职工中心,细颗粒物(PM2.5),62,61,72,44,58,68,,53,53,28,31,7,7,0.7,0.7
2026-02-04T1600,2929A,114.8858,30.4519,黄冈市,红卫路,颗粒物(PM10),53,55,70,26,55,74,,61,61,28,31,7,7,0.7,0.7
2026-02-04T1600,3398A,114.9134,30.4446,黄冈市,市林业局,颗粒物(PM10),61,72,84,32,60,61,,39,39,22,33,4,4,0.8,0.8
2026-02-04T1600,2672A,102.02,35.5101,黄南藏族自治州,同仁县隆务镇,细颗粒物(PM2.5),68,81,86,49,54,89,,81,74,12,12,13,12,0.8,0.8
2026-02-04T1600,2295A,118.2905,29.6965,黄山市,延安路89号,,44,44,51,28,40,98,,71,71,12,19,5,4,0.5,0.7
2026-02-04T1600,2297A,118.1369,30.2755,黄山市,黄山区政府5号楼,,,43,43,17,26,98,,65,65,8,13,3,2,,0.6
2026-02-04T1600,4210A,118.335445,29.720283,黄山市,滨江东路7-2号,颗粒物(PM10),55,59,77,29,43,100,,64,64,14,22,/,/,/,/
2026-02-04T1600,2423A,115.0547,30.2332,黄石市,沈家营,,,101,90,41,54,40,,32,32,32,41,,10,1.2,1.1
2026-02-04T1600,2426A,114.899,30.211,黄石市,铁山,"颗粒物(PM10),细颗粒物(PM2.5)",62,73,70,44,58,64,,44,44,35,33,11,8,0.9,1
2026-02-04T1600,2427A,115.0259,30.2108,黄石市,团城山,细颗粒物(PM2.5),85,103,98,63,68,31,,20,20,41,34,7,8,1.1,1.2
2026-02-04T1600,3149A,115.0174,30.1591,黄石市,笔架山北路,细颗粒物(PM2.5),123,147,138,93,78,15,,22,22,52,39,10,11,1.4,1.3
2026-02-04T1600,4185A,115.078022,30.21118,黄石市,磁湖东路29号,细颗粒物(PM2.5),105,107,94,79,69,29,,23,23,37,36,7,7,1.3,1.3
2026-02-04T1600,1392A,114.4181,23.0528,惠州市,河南岸金山湖子站,,48,48,60,29,36,126,,93,93,20,18,4,5,0.7,0.8
2026-02-04T1600,1393A,114.4055,23.0824,惠州市,下埔横江三路子站,,48,41,62,21,34,151,,107,107,13,20,6,7,0.5,0.5
2026-02-04T1600,1395A,114.4645,22.7832,惠州市,惠阳区承修路船湖子站,,,38,59,21,34,,,110,110,19,20,6,7,0.6,0.6
2026-02-04T1600,1396A,114.5316,22.7423,惠州市,大亚湾管委会子站,,42,42,57,22,31,127,,110,110,17,19,7,7,0.5,0.6
2026-02-04T1600,3314A,114.4334,22.8134,惠州市,惠阳秋长,臭氧1小时(O3_1h),97,63,65,24,32,197,,135,135,21,21,/,/,/,/
2026-02-04T1600,3452A,114.6521,22.7755,惠州市,大亚湾霞涌,,48,48,55,21,28,150,,124,124,13,14,/,/,/,/
2026-02-04T1600,4300A,114.4089,23.1147,惠州市,文华一路1号,,47,34,57,19,33,148,,105,105,16,21,/,/,/,/
2026-02-04T1600,2240A,130.9618,45.2926,鸡西市,环保局,,,,76,,50,,,81,,,39,,11,,0.7
2026-02-04T1600,2243A,130.9294,45.2959,鸡西市,第一中学,,29,22,45,19,30,91,,75,75,7,19,4,6,0.4,0.5
2026-02-04T1600,3707A,131.0069,45.2988,鸡西市,欧美日汽修厂,,,,99,,57,81,,56,56,12,41,8,18,,1.2
2026-02-04T1600,2367A,114.9753,27.0803,吉安市,红声器材厂,颗粒物(PM10),61,72,70,39,51,128,,80,80,16,22,10,11,0.7,0.7
2026-02-04T1600,2369A,114.9903,27.1313,吉安市,市环境监测站,颗粒物(PM10),60,70,66,38,50,128,,86,86,18,26,9,8,/,/
2026-02-04T1600,2370A,115.009527,27.096792,吉安市,青原区法院,颗粒物(PM10),57,63,71,36,54,128,,78,78,20,24,11,12,0.6,0.7
2026-02-04T1600,1772A,126.54,43.8622,吉林市,哈达湾,细颗粒物(PM2.5),145,130,90,111,79,66,,81,63,44,30,24,15,2.2,1.4
2026-02-04T1600,1773A,126.5843,43.8358,吉林市,东局子,细颗粒物(PM2.5),145,133,112,111,80,41,,44,36,48,46,17,12,2.2,1.6
2026-02-04T1600,1774A,126.5051,43.8243,吉林市,电力学院,细颗粒物(PM2.5),107,95,128,80,94,69,,59,59,36,47,62,17,,1.7
2026-02-04T1600,1775A,126.6133,43.8971,吉林市,江北,细颗粒物(PM2.5),125,113,108,95,81,66,,48,43,27,40,11,15,1.1,1.4
2026-02-04T1600,1776A,126.5549,43.8304,吉林市,江南公园,细颗粒物(PM2.5),155,147,94,118,70,35,,57,36,54,34,21,14,2.0,1
2026-02-04T1600,2868A,126.4737,43.953,吉林市,九站,细颗粒物(PM2.5),59,52,90,42,71,77,,50,50,29,53,27,15,0.7,1.1
2026-02-04T1600,1299A,116.9866,36.6118,济南市,科干所,细颗粒物(PM2.5),113,129,111,85,68,118,,99,99,21,12,12,9,0.9,0.7
2026-02-04T1600,1300A,116.9379,36.6652,济南市,农科所,细颗粒物(PM2.5),127,132,120,96,88,106,,88,88,28,23,13,10,1.0,0.8
2026-02-04T1600,1301A,117.1265,36.6736,济南市,开发区,细颗粒物(PM2.5),113,117,100,85,73,130,,109,109,26,22,11,6,0.8,0.7
2026-02-04T1600,1303A,117.0616,36.6865,济南市,省种子仓库,细颗粒物(PM2.5),114,129,110,86,71,117,,99,99,24,20,12,7,0.8,0.7
2026-02-04T1600,1304A,116.9495185,36.644937,济南市,机床二厂,细颗粒物(PM2.5),113,132,115,85,81,110,,90,90,29,20,17,12,0.6,0.4
2026-02-04T1600,1305A,117.0496,36.6629,济南市,市监测站,细颗粒物(PM2.5),125,129,104,95,73,119,,93,,21,16,11,6,,0.8
2026-02-04T1600,1306A,116.7674,36.5458,济南市,长清党校,细颗粒物(PM2.5),123,139,129,93,87,109,,88,88,32,32,10,6,1.0,0.9
2026-02-04T1600,1961A,117.5323,36.6865,济南市,东山小学,细颗粒物(PM2.5),104,144,128,78,81,115,,108,108,32,25,13,8,0.8,0.7
2026-02-04T1600,3059A,117.7181,36.205,济南市,泰兴公司,细颗粒物(PM2.5),107,127,153,80,107,120,,86,86,21,60,9,10,1.0,1.4
2026-02-04T1600,3064A,117.6861,36.2172,济南市,莱芜战役纪念馆,细颗粒物(PM2.5),105,119,147,79,104,117,,82,82,23,47,13,13,0.9,1.1
2026-02-04T1600,3494A,117.1673,36.9782,济南市,济阳区政府,细颗粒物(PM2.5),110,120,129,83,92,106,,80,80,21,37,10,9,1.0,0.9
2026-02-04T1600,3495A,117.1168,36.6299,济南市,锦屏中学,细颗粒物(PM2.5),113,117,99,85,73,120,,104,104,23,18,11,6,0.7,0.5
2026-02-04T1600,4108A,117.7107,36.2385,济南市,山财大街5号,细颗粒物(PM2.5),93,117,132,69,96,120,,91,91,44,50,14,15,1.2,1.3
2026-02-04T1600,4109A,116.9744,36.6889,济南市,无影山路12号,细颗粒物(PM2.5),124,134,113,94,83,102,,85,85,20,16,14,9,1.1,1
2026-02-04T1600,1653A,116.6229,35.4288,济宁市,火炬城,细颗粒物(PM2.5),114,113,120,86,94,109,,76,76,19,25,6,4,0.8,0.8
2026-02-04T1600,3500A,116.5808,35.3703,济宁市,北湖一中,细颗粒物(PM2.5),112,102,108,84,88,112,,82,82,18,21,8,6,0.6,0.8
2026-02-04T1600,3501A,116.8251,35.5592,济宁市,服务中心,细颗粒物(PM2.5),115,131,152,87,99,101,,77,77,15,22,4,4,0.8,0.9
2026-02-04T1600,3678A,116.5907,35.4054,济宁市,市第七中学,细颗粒物(PM2.5),114,107,107,86,91,117,,84,84,18,25,12,11,0.7,0.7
2026-02-04T1600,4111A,116.6075,35.4566,济宁市,任和路,细颗粒物(PM2.5),113,150,139,85,88,115,,82,82,21,24,8,7,0.8,0.8
2026-02-04T1600,4112A,116.5648,35.3921,济宁市,文体南路1号,细颗粒物(PM2.5),110,132,131,83,87,117,,84,84,19,22,6,5,0.7,0.7
2026-02-04T1600,2255A,130.2749,46.8028,佳木斯市,佳纺,细颗粒物(PM2.5),57,48,66,40,53,58,,53,53,29,30,9,11,0.5,0.7
2026-02-04T1600,2257A,130.3258,46.7975,佳木斯市,环保局,细颗粒物(PM2.5),59,53,57,42,43,48,,41,38,39,35,10,10,0.4,0.5
2026-02-04T1600,4285A,130.363,46.806,佳木斯市,顺和街,,,45,49,40,42,59,,46,46,30,35,,13,0.4,0.6
2026-02-04T1600,4286A,130.3952,46.8268,佳木斯市,长安路196号,,48,37,45,33,35,78,,64,64,14,22,6,7,0.6,0.7
2026-02-04T1600,1252A,120.7439,30.778,嘉兴市,清河小学,细颗粒物(PM2.5),83,84,74,61,51,90,,53,53,39,42,8,7,0.1,0.2
2026-02-04T1600,1253A,120.7261,30.7477,嘉兴市,嘉兴学院,细颗粒物(PM2.5),79,91,77,58,48,91,,52,52,34,39,6,7,0.7,0.7
2026-02-04T1600,2872A,120.7845,30.7524,嘉兴市,南湖区残联,细颗粒物(PM2.5),83,78,66,61,48,102,,73,73,32,34,6,6,0.4,0.4
2026-02-04T1600,3407A,120.6915,30.7741,嘉兴市,秀洲住建,细颗粒物(PM2.5),68,79,77,49,49,85,,55,55,39,42,10,8,0.5,0.5
2026-02-04T1600,1945A,98.291,39.7705,嘉峪关市,气象局,颗粒物(PM10),84,117,118,49,37,81,,73,58,22,18,36,12,1.4,0.5
2026-02-04T1600,2884A,98.2672,39.7978,嘉峪关市,酒钢宾馆,颗粒物(PM10),96,141,127,43,38,67,,70,58,38,20,104,24,3.1,1.1
2026-02-04T1600,3248A,98.2644,39.7723,嘉峪关市,雄关区,,,91,94,40,35,76,,65,59,,31,40,16,1.6,0.6
2026-02-04T1600,1383A,113.1063,22.6058,江门市,北街,,49,40,54,34,39,156,,111,111,17,28,/,/,/,/
2026-02-04T1600,1384A,113.073,22.5835,江门市,西区,颗粒物(PM10),54,57,59,32,38,143,,107,107,20,27,/,/,/,/
2026-02-04T1600,1385A,113.0218,22.531,江门市,圭峰西,,42,39,52,26,34,133,,104,104,12,24,/,/,/,/
2026-02-04T1600,1386A,113.0826,22.5947,江门市,东湖,颗粒物(PM10),54,58,63,30,39,154,,109,109,18,26,7,7,0.5,0.6
2026-02-04T1600,3311A,113.1077,22.5647,江门市,江海富民,颗粒物(PM10),66,81,74,26,37,140,,107,107,18,32,/,/,0.5,0.6
2026-02-04T1600,3449A,113.0496,22.4669,江门市,新会银湖,,41,37,52,23,35,129,,99,99,12,30,7,7,0.5,0.6
2026-02-04T1600,3335A,113.3137,35.2643,焦作市,马村街道办,颗粒物(PM10),79,107,134,55,85,91,,62,62,22,33,10,10,0.7,1
2026-02-04T1600,3336A,113.2464,35.2374,焦作市,焦作技师学院,颗粒物(PM10),70,90,129,49,86,93,,56,56,23,39,9,11,0.8,1.1
2026-02-04T1600,3477A,113.1656,35.2536,焦作市,中站许衡医院,,,84,105,57,72,95,,68,64,,29,10,12,0.8,1
2026-02-04T1600,3981A,113.2456,35.18,焦作市,原李万街道办,细颗粒物(PM2.5),77,77,127,56,85,102,,74,74,20,41,12,17,0.7,0.9
2026-02-04T1600,4264A,113.234,35.219,焦作市,新安路1731号,颗粒物(PM10),75,99,134,44,82,103,,64,64,18,34,9,12,0.5,0.7
2026-02-04T1600,4295A,113.2722,35.2121,焦作市,人民路3066号,细颗粒物(PM2.5),75,91,127,55,86,93,,58,58,22,35,9,11,0.7,0.9
2026-02-04T1600,1708A,116.3701,23.5345,揭阳市,新兴,,,70,67,40,38,154,,106,106,20,24,,9,0.8,0.7
2026-02-04T1600,1709A,116.3261,23.5442,揭阳市,西马,,,,69,,40,161,,110,110,,19,7,6,,0.7
2026-02-04T1600,1710A,116.361,23.5627,揭阳市,东兴,颗粒物(PM10),61,71,66,38,38,162,,112,112,17,19,10,9,/,/
2026-02-04T1600,1711A,116.4151,23.5295,揭阳市,渔湖,臭氧1小时(O3_1h),77,82,66,39,39,181,,122,122,19,21,7,7,/,/
2026-02-04T1600,3320A,116.4028,23.5699,揭阳市,曲溪,,,55,68,31,39,173,,123,123,14,18,,3,0.7,0.7
2026-02-04T1600,1944A,102.1691,38.5166,金昌市,天庆家园,,48,48,98,21,35,95,,72,72,6,20,12,18,0.7,0.9
2026-02-04T1600,4022A,102.1648,38.5369,金昌市,金川区人防中心,颗粒物(PM10),53,55,102,16,35,96,,80,80,6,15,13,25,0.3,0.6
2026-02-04T1600,4239A,102.193042,38.531887,金昌市,长春路96号,,39,39,107,13,37,90,,65,65,4,21,8,27,0.6,0.9
2026-02-04T1600,1262A,119.6478,29.0773,金华市,十五中,细颗粒物(PM2.5),60,65,95,43,60,118,,72,72,21,56,3,3,0.7,0.7
2026-02-04T1600,1263A,119.6859,29.1032,金华市,监测站,颗粒物(PM10),63,75,105,39,65,80,,42,42,31,69,4,4,0.6,0.6
2026-02-04T1600,3659A,119.656,29.1132,金华市,气象局,颗粒物(PM10),63,76,95,41,60,99,,56,56,32,71,5,5,0.8,0.8
2026-02-04T1600,1767A,121.1114,41.0879,锦州市,南山,颗粒物(PM10),57,63,113,30,85,91,,75,75,18,65,11,22,0.4,1.3
2026-02-04T1600,1768A,121.060361,40.842794,锦州市,开发区,细颗粒物(PM2.5),104,94,128,78,103,72,,63,63,23,63,10,26,0.9,1.3
2026-02-04T1600,1769A,121.1836,41.1118,锦州市,百股街道,细颗粒物(PM2.5),64,60,116,46,93,85,,75,75,23,62,9,20,0.8,1.4
2026-02-04T1600,1770A,121.1176,41.1224,锦州市,天安街道,,49,47,125,34,99,90,,71,71,17,59,8,18,0.6,1.7
2026-02-04T1600,1771A,121.1303,41.1385,锦州市,北湖公园,颗粒物(PM10),53,56,121,36,94,87,,69,69,16,61,10,22,0.5,1.3
2026-02-04T1600,2160A,112.8496,35.5051,晋城市,自来水公司,,,61,118,35,63,107,,78,78,,35,,10,0.5,1.3
2026-02-04T1600,2162A,112.8509,35.4886,晋城市,市环保局,细颗粒物(PM2.5),64,72,110,46,73,111,,81,81,15,36,6,8,0.4,0.9
2026-02-04T1600,3620A,112.8258,35.4804,晋城市,泽州一中,颗粒物(PM10),70,89,122,27,69,117,,86,86,10,24,5,7,0.6,1.2
2026-02-04T1600,4078A,112.8246,35.5152,晋城市,前书院路,颗粒物(PM10),66,81,129,31,59,113,,78,78,12,28,8,9,0.4,0.9
2026-02-04T1600,4079A,112.8864,35.4773,晋城市,祥云街666号,颗粒物(PM10),63,76,115,42,78,113,,83,83,16,29,9,12,0.5,0.9
2026-02-04T1600,2174A,112.6992,37.6984,晋中市,榆次区政府,细颗粒物(PM2.5),78,102,129,57,69,91,,45,45,26,57,16,25,0.7,1.3
2026-02-04T1600,2865A,112.7195,37.683,晋中市,榆次三中,颗粒物(PM10),90,129,122,64,64,86,,55,55,29,59,18,25,1.1,1
2026-02-04T1600,4080A,112.7375,37.7215,晋中市,广安街188号,颗粒物(PM10),78,106,125,49,67,90,,50,50,25,61,20,20,0.5,1
2026-02-04T1600,4200A,112.7478,37.6954,晋中市,迎宾街26号,颗粒物(PM10),82,114,117,52,64,91,,50,50,27,52,18,26,0.8,1.1
2026-02-04T1600,2439A,112.2012,31.048,荆门市,竹园小学,细颗粒物(PM2.5),173,189,155,131,110,58,,53,53,43,43,1,2,1.0,1
2026-02-04T1600,2440A,112.1968,30.9892,荆门市,掇刀,细颗粒物(PM2.5),170,179,163,129,120,61,,51,51,32,43,4,6,1.0,1.1
2026-02-04T1600,3012A,112.1849,31.0361,荆门市,西山林语,细颗粒物(PM2.5),165,173,139,125,94,64,,58,58,37,33,2,2,1.2,1.1
2026-02-04T1600,3547A,112.1631,31.0134,荆门市,龙泉中学南校,细颗粒物(PM2.5),149,187,158,114,104,69,,62,62,33,32,6,9,0.1,0.2
2026-02-04T1600,4124A,112.2213,31.0654,荆门市,新台西路6号,细颗粒物(PM2.5),168,170,173,127,125,44,,30,30,37,53,10,9,0.9,1.4
2026-02-04T1600,1844A,112.2493,30.3198,荆州市,市图书馆,细颗粒物(PM2.5),149,148,116,114,93,12,,9,9,66,49,7,9,1.3,1.3
2026-02-04T1600,1845A,112.2009,30.3543,荆州市,市委党校,细颗粒物(PM2.5),192,180,140,144,110,10,,6,6,71,52,7,10,1.4,1.4
2026-02-04T1600,3194A,112.2749,30.3124,荆州市,管委会,细颗粒物(PM2.5),180,155,122,136,99,10,,4,4,60,48,8,8,1.1,1.1
2026-02-04T1600,4268A,112.1722,30.3366,荆州市,学苑路85号,细颗粒物(PM2.5),180,175,130,136,110,26,,14,14,64,40,12,13,1.0,1
2026-02-04T1600,2343A,117.2114,29.2931,景德镇市,老干部活动中心,细颗粒物(PM2.5),62,59,52,44,31,64,,45,45,23,26,10,4,0.8,0.7
2026-02-04T1600,2344A,117.1893,29.2789,景德镇市,兽医站,细颗粒物(PM2.5),60,55,57,43,35,70,,51,51,34,31,4,4,0.6,0.6
2026-02-04T1600,2346A,117.246,29.2958,景德镇市,陶研所,,49,45,38,34,25,70,,50,50,19,20,4,4,0.6,0.6
2026-02-04T1600,4289A,117.154766,29.256967,景德镇市,青少年活动中心,细颗粒物(PM2.5),62,56,59,44,36,72,,50,50,33,36,20,10,/,/
2026-02-04T1600,1803A,115.9873,29.6816,九江市,十里,颗粒物(PM10),60,69,79,39,50,36,,34,34,53,56,7,8,0.9,1.1
2026-02-04T1600,1804A,115.9583,29.7047,九江市,茅山头,颗粒物(PM10),60,69,75,42,43,26,,38,38,56,57,4,5,0.6,0.8
2026-02-04T1600,1805A,115.9877,29.7295,九江市,西园,细颗粒物(PM2.5),72,80,75,52,45,27,,39,39,79,63,8,8,0.9,0.9
2026-02-04T1600,1808A,115.9112,29.6038,九江市,综合工业园,颗粒物(PM10),60,70,70,37,46,11,,37,37,83,53,5,4,0.6,0.5
2026-02-04T1600,3190A,116.0254,29.6995,九江市,外国语学校,细颗粒物(PM2.5),64,64,63,46,48,25,,33,33,65,53,7,8,0.8,0.9
2026-02-04T1600,4253A,116.010205,29.659402,九江市,莲花大道8号,颗粒物(PM10),65,79,66,44,42,26,,43,41,61,33,7,4,0.6,0.6
2026-02-04T1600,4240A,98.495752,39.733935,酒泉市,玉门东路5号,细颗粒物(PM2.5),98,105,124,73,52,84,,58,58,10,19,24,14,0.7,0.6
2026-02-04T1600,4241A,98.5099,39.7506,酒泉市,北大街108号,颗粒物(PM10),73,95,121,43,48,87,,59,59,7,19,23,18,0.7,0.8
2026-02-04T1600,2698A,76.0071,39.466,喀什地区,巡警大队,颗粒物(PM10),105,160,238,49,109,77,,25,25,29,53,6,9,0.8,2.4
2026-02-04T1600,2699A,75.9756,39.4693,喀什地区,吾办,,,,220,,102,87,,34,34,23,53,,12,0.6,1.8
2026-02-04T1600,4027A,75.9485,39.4688,喀什地区,老干局,颗粒物(PM10),85,120,254,9,105,91,,35,35,8,46,4,8,0.3,2.5
2026-02-04T1600,1824A,114.3389,34.778,开封市,肿瘤医院,细颗粒物(PM2.5),83,89,115,61,88,111,,65,65,24,38,10,9,0.9,0.9
2026-02-04T1600,1826A,114.2884,34.7966,开封市,世纪星幼儿园,,,68,111,63,89,102,,68,68,22,38,9,6,,0.9
2026-02-04T1600,3147A,114.3434,34.8101,开封市,龙亭公园,颗粒物(PM10),73,95,112,50,80,113,,65,65,24,40,12,9,0.7,0.7
2026-02-04T1600,3210A,114.3645,34.7955,开封市,汴京公园,细颗粒物(PM2.5),74,90,120,54,75,113,,63,63,22,35,10,6,0.6,0.7
2026-02-04T1600,3473A,114.2485,34.8306,开封市,技师学院,细颗粒物(PM2.5),70,87,101,51,80,113,,76,76,20,33,9,8,1.3,1
2026-02-04T1600,3592A,114.4518,34.7503,开封市,祥符区生态环境局,,,,136,,90,,,101,57,,39,,6,,0.9
2026-02-04T1600,1951A,84.886,45.6029,克拉玛依市,长征新村,细颗粒物(PM2.5),198,189,156,148,118,44,,36,29,48,43,6,6,1.6,1.5
2026-02-04T1600,1952A,84.8894,45.5827,克拉玛依市,南林小区,细颗粒物(PM2.5),201,194,161,151,130,43,,32,28,23,19,3,2,1.5,1.4
2026-02-04T1600,1954A,84.896,44.3328,克拉玛依市,独山子区,颗粒物(PM10),71,91,173,42,122,79,,92,70,29,28,3,3,0.7,1.1
2026-02-04T1600,1955A,85.6888,46.0909,克拉玛依市,乌尔禾区商贸楼,细颗粒物(PM2.5),193,155,146,145,125,66,,55,55,29,38,8,8,1.5,1.5
2026-02-04T1600,3612A,85.1045,45.6895,克拉玛依市,白碱滩区新站,细颗粒物(PM2.5),209,200,164,159,141,35,,41,26,43,38,10,9,1.5,1.5
2026-02-04T1600,2697A,76.1457,39.7143,克孜勒苏柯尔克孜自治州,市人民政府,颗粒物(PM10),133,216,201,23,66,98,,65,65,14,16,4,4,0.3,0.5
2026-02-04T1600,3665A,76.1654,39.7157,克孜勒苏柯尔克孜自治州,克州文化中心,颗粒物(PM10),119,188,185,85,72,99,,64,55,17,19,7,5,0.9,0.8
2026-02-04T1600,1450A,102.8203,24.889,昆明市,呈贡新区,,29,29,36,15,24,90,,77,77,7,16,4,4,0.3,0.5
2026-02-04T1600,1452A,102.7253,25.0904,昆明市,龙泉镇,,29,,38,3,24,90,,72,72,7,23,4,4,0.3,0.5
2026-02-04T1600,1453A,102.7267,25.0378,昆明市,东风东路,,29,17,37,3,23,90,,76,76,10,18,6,8,0.3,0.5
2026-02-04T1600,1454A,102.6744,25.0671,昆明市,金鼎山,,,,2,2,2,88,,,,,7,4,3,0.5,0.7
2026-02-04T1600,1455A,102.6643,25.0401,昆明市,碧鸡广场,,29,17,44,6,27,90,,70,70,9,29,4,6,0.3,0.6
2026-02-04T1600,3179A,102.7491,25.012,昆明市,官渡区博物馆,,29,21,43,10,28,92,,74,74,9,26,3,5,0.2,0.7
2026-02-04T1600,3375A,102.8016,24.8336,昆明市,青年创业园,,30,18,38,10,23,93,,79,79,3,20,4,6,0.4,0.6
2026-02-04T1600,3550A,102.8,24.9787,昆明市,昆明学院,,32,18,41,10,23,101,,84,84,8,16,3,4,0.5,0.6
2026-02-04T1600,3551A,102.5969,24.6738,昆明市,晋宁区生态环境分局,,28,13,35,11,27,87,,71,71,1,10,2,2,0.3,0.5
2026-02-04T1600,3552A,102.6673,24.9861,昆明市,云天化总部,,29,15,40,3,23,91,,71,71,9,25,7,8,0.3,0.6
2026-02-04T1600,1456A,91.132,29.6515,拉萨市,八廓街,,30,7,17,6,8,94,,88,83,4,7,8,7,0.3,0.3
2026-02-04T1600,1457A,91.1221,29.6748,拉萨市,市环保局,,29,10,25,6,12,90,,81,72,6,12,7,7,0.3,0.4
2026-02-04T1600,1458A,91.0874,29.6476,拉萨市,区监测站,,29,6,13,3,7,90,,84,77,5,8,4,4,0.8,0.8
2026-02-04T1600,1459A,91.1774,29.6541,拉萨市,西藏大学,,27,8,19,3,10,86,,79,72,6,12,4,5,0.5,0.6
2026-02-04T1600,1460A,90.9798,29.6586,拉萨市,区辐射站,,27,8,25,6,13,86,,84,71,6,10,4,4,0.2,0.3
2026-02-04T1600,1461A,91.0831,29.6292,拉萨市,拉萨火车站,,28,6,14,3,6,88,,85,81,2,4,4,4,0.3,0.3
2026-02-04T1600,2520A,109.2203,23.7252,来宾市,来宾技工学校,细颗粒物(PM2.5),246,,137,196,111,50,,31,31,25,36,11,18,1.4,1.3
2026-02-04T1600,3535A,109.1781,23.7293,来宾市,兴宾区政府,细颗粒物(PM2.5),250,247,148,200,116,48,,34,34,28,36,5,9,1.4,1.3
2026-02-04T1600,4002A,109.2312,23.7428,来宾市,中南小学,细颗粒物(PM2.5),228,,134,178,116,51,,32,32,27,40,4,11,1.4,1.4
2026-02-04T1600,1479A,103.8309,36.0467,兰州市,铁路设计院,,,,,,,,,,,,,,,,
2026-02-04T1600,3241A,103.7439,36.0841,兰州市,百合公园,细颗粒物(PM2.5),99,103,105,74,58,75,,46,46,44,49,17,11,1.1,1.1
2026-02-04T1600,3242A,103.9613,35.9985,兰州市,和平,细颗粒物(PM2.5),82,103,111,60,54,100,,61,61,18,33,14,14,1.0,1.2
2026-02-04T1600,4236A,103.629272,36.093822,兰州市,庄浪东路808号,细颗粒物(PM2.5),93,124,113,69,57,84,,54,54,49,47,23,16,1.7,0.9
2026-02-04T1600,4237A,103.7251,36.104344,兰州市,安宁西路88号,颗粒物(PM10),81,111,119,59,55,96,,56,56,40,43,21,14,0.9,0.8
2026-02-04T1600,4238A,103.846982,36.067567,兰州市,北滨河东路1号,颗粒物(PM10),76,102,111,55,55,84,,45,45,52,60,16,14,1.2,1.4
2026-02-04T1600,1067A,116.6712,39.5109,廊坊市,药材公司,细颗粒物(PM2.5),105,115,177,79,142,82,,45,45,40,71,5,9,0.7,1.3
2026-02-04T1600,1068A,116.7215,39.5592,廊坊市,开发区,细颗粒物(PM2.5),98,114,166,73,127,76,,42,42,47,80,5,7,0.7,1.2
2026-02-04T1600,1070A,116.7246,39.5273,廊坊市,北华航天学院,细颗粒物(PM2.5),109,107,180,82,138,76,,46,46,43,77,6,11,0.7,1.3
2026-02-04T1600,2919A,116.7022,39.5454,廊坊市,河北工业大学,细颗粒物(PM2.5),105,118,181,79,129,81,,46,46,38,72,5,9,0.7,1.2
2026-02-04T1600,2536A,103.7629,29.5844,乐山市,牛耳桥,细颗粒物(PM2.5),114,108,120,86,88,91,,77,77,,34,5,7,,1.2
2026-02-04T1600,2537A,103.7501,29.6002,乐山市,市第三水厂,细颗粒物(PM2.5),104,116,123,78,90,96,,61,61,21,34,4,5,0.9,1
2026-02-04T1600,2538A,103.7571,29.5664,乐山市,市监测站,细颗粒物(PM2.5),108,112,117,81,84,87,,58,58,18,25,6,8,0.9,1
2026-02-04T1600,3361A,103.7313,29.563,乐山市,理工大学,细颗粒物(PM2.5),108,111,116,81,83,88,,56,56,15,22,3,3,0.9,1
2026-02-04T1600,2599A,100.2497,26.8802,丽江市,丽江古城,,26,19,19,3,7,83,,79,79,8,11,5,9,0.3,0.5
2026-02-04T1600,2600A,100.2203,26.8906,丽江市,市中心,,26,21,12,6,8,82,,78,78,9,10,5,5,0.3,0.3
2026-02-04T1600,1267A,119.9141,28.4513,丽水市,监测站大楼,,49,49,42,22,25,89,,81,79,15,14,6,5,0.4,0.3
2026-02-04T1600,1268A,119.93,28.4589,丽水市,莲都小学,,39,39,42,20,23,88,,80,79,20,15,/,/,/,/
2026-02-04T1600,1269A,119.8794,28.4232,丽水市,余庄前,,,40,43,23,24,83,,44,,21,17,6,5,,0.4
2026-02-04T1600,1173A,119.1759,34.5885,连云港市,市环境监测站,细颗粒物(PM2.5),73,78,107,53,87,106,,77,77,14,28,11,12,0.5,0.7
2026-02-04T1600,3000A,119.3577,34.6971,连云港市,德源药业,,,88,114,61,81,106,,70,70,,37,7,7,0.4,1
2026-02-04T1600,3007A,119.178,34.8442,连云港市,新城一中,细颗粒物(PM2.5),98,105,115,73,92,110,,77,77,32,40,11,11,0.9,1
2026-02-04T1600,3008A,119.3607,34.7519,连云港市,胡沟管理处,细颗粒物(PM2.5),122,127,107,92,80,44,,74,46,70,31,13,10,0.7,0.8
2026-02-04T1600,3009A,119.1478,34.5913,连云港市,矿山设计院,细颗粒物(PM2.5),79,80,111,58,80,105,,77,77,17,31,9,9,0.8,1
2026-02-04T1600,3434A,119.2414,34.6539,连云港市,工贸学校,细颗粒物(PM2.5),93,84,108,69,85,112,,88,88,23,28,12,13,0.5,0.7
2026-02-04T1600,3664A,119.4171,34.734,连云港市,连云街道,细颗粒物(PM2.5),119,140,122,90,84,43,,74,31,67,42,9,10,0.9,0.9
2026-02-04T1600,2573A,102.2629,27.8981,凉山彝族自治州,西昌市政府,,30,30,27,12,11,88,,76,76,7,9,15,12,0.5,0.6
2026-02-04T1600,2574A,102.2686,27.885,凉山彝族自治州,凉山州政府,,31,31,29,10,11,84,,66,66,6,11,16,14,0.4,0.7
2026-02-04T1600,4229A,102.2342,27.8859,凉山彝族自治州,凯乐南路30号,,40,40,34,11,8,83,,67,67,9,9,16,12,1.1,0.7
2026-02-04T1600,2212A,123.1978,41.2036,辽阳市,宏伟区,细颗粒物(PM2.5),149,146,100,114,81,38,,76,47,35,19,12,11,1.2,1
2026-02-04T1600,2213A,123.1684,41.2497,辽阳市,新华园,细颗粒物(PM2.5),138,131,106,105,90,46,,74,40,40,30,9,12,0.8,0.8
2026-02-04T1600,2214A,123.2355,41.2663,辽阳市,滨河路,细颗粒物(PM2.5),133,117,92,101,78,39,,67,40,39,27,9,15,1.2,1
2026-02-04T1600,4083A,123.153,41.2874,辽阳市,铁西路150号,细颗粒物(PM2.5),129,126,114,98,92,48,,63,38,34,33,13,16,1.0,1.1
2026-02-04T1600,2227A,125.1359,42.8845,辽源市,环保局,细颗粒物(PM2.5),119,,96,90,86,82,,66,66,25,39,7,10,1.2,1.4
2026-02-04T1600,4085A,125.0998,42.9134,辽源市,安宁大街333号,细颗粒物(PM2.5),148,135,108,113,83,86,,77,75,24,23,6,11,1.0,0.8
2026-02-04T1600,1625A,115.9789,36.4372,聊城市,区政府,细颗粒物(PM2.5),128,141,138,97,98,99,,69,69,22,28,18,14,1.1,1
2026-02-04T1600,3200A,115.9772,36.4986,聊城市,监控中心,细颗粒物(PM2.5),128,152,139,97,96,102,,72,72,27,28,12,10,1.1,1
2026-02-04T1600,3513A,116.0443,36.436,聊城市,九州社区,细颗粒物(PM2.5),128,146,138,97,100,113,,82,82,13,15,9,4,0.9,0.7
2026-02-04T1600,4018A,116.0564,36.4609,聊城市,星美广场,细颗粒物(PM2.5),139,156,142,106,102,102,,76,76,19,19,11,6,1.0,0.9
2026-02-04T1600,4113A,116.0091,36.4495,聊城市,利民路,细颗粒物(PM2.5),120,144,137,91,94,99,,70,70,34,28,15,11,1.2,1
2026-02-04T1600,2632A,94.3683,29.6373,林芝市,林芝监测站,颗粒物(PM10),57,63,20,13,14,93,,89,89,1,2,6,5,0.3,0.4
2026-02-04T1600,2633A,94.3616,29.6634,林芝市,林芝人民医院,颗粒物(PM10),63,75,22,10,15,91,,85,83,1,2,7,5,0.2,0.3
2026-02-04T1600,2603A,100.0779,23.8981,临沧市,市环保局,颗粒物(PM10),51,51,46,17,32,114,,77,77,8,15,9,8,0.5,0.6
2026-02-04T1600,2604A,100.0894,23.882,临沧市,市气象局,,38,38,57,18,35,104,,66,66,6,12,11,11,0.4,0.6
2026-02-04T1600,1733A,111.5552,36.0791,临汾市,临钢医院,细颗粒物(PM2.5),98,138,131,73,76,102,,57,57,32,45,15,10,1.6,1.5
2026-02-04T1600,1734A,111.4984,36.0734,临汾市,技工学校,细颗粒物(PM2.5),117,121,129,88,91,106,,64,64,36,47,19,11,,1.9
2026-02-04T1600,1736A,111.5017,36.0857,临汾市,市委,细颗粒物(PM2.5),114,131,133,86,83,100,,54,54,27,47,18,12,1.5,1.2
2026-02-04T1600,3018A,111.5048,36.1015,临汾市,唐尧大酒店,细颗粒物(PM2.5),107,133,128,80,74,102,,54,54,33,49,17,10,2.0,1.8
2026-02-04T1600,4244A,111.4879,36.053,临汾市,启星学校,细颗粒物(PM2.5),105,121,125,79,86,110,,57,57,29,54,24,12,1.7,1.4
2026-02-04T1600,4271A,103.2464,35.6123,临夏回族自治州,滨河东路1号,细颗粒物(PM2.5),94,128,183,70,99,97,,51,51,19,37,15,10,0.9,1.6
2026-02-04T1600,4310A,103.207136,35.599807,临夏回族自治州,新华街21号,细颗粒物(PM2.5),103,130,174,77,106,95,,52,52,20,34,13,14,0.8,1.5
2026-02-04T1600,1618A,118.3429,35.0532,临沂市,沂河小区,细颗粒物(PM2.5),88,105,128,65,88,99,,74,74,20,35,12,16,0.5,0.7
2026-02-04T1600,1619A,118.2962,35.0568,临沂市,鲁南制药厂,细颗粒物(PM2.5),88,102,123,65,90,92,,70,70,31,46,14,17,0.5,0.7
2026-02-04T1600,1620A,118.2793,34.9976,临沂市,新光毛纺厂,细颗粒物(PM2.5),94,88,122,70,94,100,,71,71,20,40,12,17,0.6,0.8
2026-02-04T1600,1621A,118.3955,35.0889,临沂市,河东保险公司,细颗粒物(PM2.5),88,90,118,65,92,108,,78,78,28,38,15,14,0.7,0.9
2026-02-04T1600,3370A,118.3563,35.0215,临沂市,十里堡居委,细颗粒物(PM2.5),87,88,125,64,93,102,,75,75,29,41,14,18,0.7,0.8
2026-02-04T1600,3496A,118.359,35.1067,临沂市,南坊新区,,,,113,,85,105,,82,82,,40,12,14,0.8,0.9
2026-02-04T1600,3860A,118.3915,35.0297,临沂市,皇山花园小区,细颗粒物(PM2.5),93,83,122,69,101,107,,81,81,24,38,15,18,0.7,0.9
2026-02-04T1600,1870A,109.4854,24.3898,柳州市,柳东小学,细颗粒物(PM2.5),156,,103,119,87,21,,20,15,39,22,8,9,1.5,1.1
2026-02-04T1600,1871A,109.4109,24.3304,柳州市,环保监测站,细颗粒物(PM2.5),155,120,138,118,101,21,,14,14,,57,7,16,2.5,1.6
2026-02-04T1600,1872A,109.3886,24.3408,柳州市,河西水厂,细颗粒物(PM2.5),204,,186,154,133,11,,11,11,56,50,9,16,1.8,1.1
2026-02-04T1600,1873A,109.4263,24.2951,柳州市,市四中,细颗粒物(PM2.5),206,,131,156,108,26,,12,12,,56,,10,2.0,1.7
2026-02-04T1600,1874A,109.396,24.3658,柳州市,市九中,细颗粒物(PM2.5),183,159,157,138,114,18,,13,13,49,48,12,21,2.2,1.5
2026-02-04T1600,1875A,109.4912,24.3164,柳州市,古亭山,细颗粒物(PM2.5),182,144,101,137,79,32,,19,19,51,50,6,8,1.1,0.8
2026-02-04T1600,3402A,109.5422,24.3994,柳州市,市二中,细颗粒物(PM2.5),175,,95,132,91,41,,30,30,43,34,9,10,1.2,1
2026-02-04T1600,2307A,116.5078,31.7369,六安市,监测大楼,,32,29,70,18,48,101,,76,76,10,27,3,4,0.3,0.5
2026-02-04T1600,2308A,116.4738,31.7642,六安市,皖西学院,,47,47,79,19,52,112,,79,79,11,30,5,5,0.4,0.5
2026-02-04T1600,2309A,116.4997,31.7904,六安市,朝阳厂,,35,35,73,20,51,103,,77,77,11,26,6,6,0.4,0.6
2026-02-04T1600,2310A,116.5566,31.7885,六安市,开发区,,,47,80,22,56,113,,80,80,,31,5,5,0.5,0.6
2026-02-04T1600,2577A,104.8293,26.592,六盘水市,黄土坡,,50,50,46,35,36,73,,47,47,24,24,16,10,1.0,1.6
2026-02-04T1600,2579A,104.8481,26.5898,六盘水市,民中,,46,46,49,27,39,76,,49,49,16,22,8,6,0.8,1.8
2026-02-04T1600,2580A,104.9541,26.5506,六盘水市,双水,,44,44,30,24,19,69,,49,49,10,12,6,4,0.6,0.8
2026-02-04T1600,4151A,104.8899,26.5685,六盘水市,钟山大道中段564号,,50,50,47,27,30,75,,47,47,9,15,7,8,1.1,2
2026-02-04T1600,2336A,117.022,25.1031,龙岩市,龙岩市监测站,,31,25,40,6,31,99,,88,88,5,24,6,13,0.5,0.7
2026-02-04T1600,2337A,117.0257,25.0662,龙岩市,闽西职业技术学院,,31,17,41,6,28,99,,92,92,6,20,4,8,0.5,0.7
2026-02-04T1600,2338A,117.0195,25.0306,龙岩市,龙岩学院,,32,13,34,9,24,100,,84,84,7,16,3,5,/,/
2026-02-04T1600,2885A,104.9344,33.3827,陇南市,滨江中学,颗粒物(PM10),71,92,76,40,40,73,,48,48,18,22,6,6,1.1,1.2
2026-02-04T1600,3247A,104.9551,33.3709,陇南市,市总工会,颗粒物(PM10),63,76,64,41,36,70,,48,48,20,18,4,3,1.1,1.1
2026-02-04T1600,2488A,111.9984,27.7346,娄底市,市监测站,细颗粒物(PM2.5),112,120,112,84,78,54,,27,27,34,40,14,10,1.5,1.3
2026-02-04T1600,2491A,111.9888,27.7035,娄底市,市政府,细颗粒物(PM2.5),104,111,99,78,66,45,,26,26,45,38,11,6,,0.7
2026-02-04T1600,4127A,111.9812,27.7591,娄底市,涟钢职大,细颗粒物(PM2.5),78,104,106,57,63,60,,26,24,34,34,13,10,1.6,1.3
2026-02-04T1600,4128A,112.0303,27.7457,娄底市,娄底体校,细颗粒物(PM2.5),104,106,93,78,67,53,,29,29,25,24,6,3,0.8,0.6
2026-02-04T1600,1894A,105.4427,28.9063,泸州市,小市上码头,细颗粒物(PM2.5),64,60,84,46,69,95,,56,56,4,23,6,6,1.1,1.2
2026-02-04T1600,1895A,105.4241,28.8573,泸州市,兰田宪桥,,,60,79,37,52,88,,55,55,,25,8,8,,1
2026-02-04T1600,1896A,105.4378,28.8833,泸州市,市环监站,细颗粒物(PM2.5),85,67,92,63,61,86,,54,54,16,28,10,10,0.8,0.9
2026-02-04T1600,4272A,105.3689,28.7783,泸州市,纳溪中医医院,细颗粒物(PM2.5),68,60,64,49,62,90,,48,48,14,23,8,8,0.9,1.1
2026-02-04T1600,2183A,111.1447,37.5212,吕梁市,环保局,颗粒物(PM10),70,89,83,37,37,56,,34,34,41,50,11,12,0.6,0.6
2026-02-04T1600,2185A,111.1285,37.5338,吕梁市,自来水公司,颗粒物(PM10),70,90,95,43,41,55,,33,33,39,42,11,13,0.6,0.6
2026-02-04T1600,2867A,111.1225,37.5093,吕梁市,马茂庄小学,,,,95,,36,58,,32,32,,56,,12,0.5,0.6
2026-02-04T1600,1812A,112.3934,34.6517,洛阳市,市委党校,细颗粒物(PM2.5),84,102,113,62,81,97,,47,47,27,46,11,9,0.8,1.1
2026-02-04T1600,1815A,112.494,34.6883,洛阳市,河南林校,细颗粒物(PM2.5),100,116,120,75,88,92,,49,49,35,47,16,12,0.9,1
2026-02-04T1600,1816A,112.3843,34.623,洛阳市,开发区管委会,颗粒物(PM10),87,124,129,46,76,108,,56,56,18,34,14,11,0.6,0.8
2026-02-04T1600,1817A,112.4263,34.6249,洛阳市,市委新办公区,,,115,124,74,84,94,,58,58,31,41,,10,0.7,0.8
2026-02-04T1600,3340A,112.6005,34.6323,洛阳市,伊滨,细颗粒物(PM2.5),95,124,156,71,94,95,,62,62,30,44,12,10,0.8,0.9
2026-02-04T1600,3341A,112.495,34.6338,洛阳市,中移产业园,细颗粒物(PM2.5),92,103,112,68,86,94,,57,57,28,38,11,15,0.9,1
2026-02-04T1600,3593A,112.5736,34.8993,洛阳市,吉利监测站,颗粒物(PM10),68,85,92,47,65,105,,71,71,28,40,12,10,0.7,0.8
2026-02-04T1600,3635A,112.3678,34.6623,洛阳市,河科大西苑校区,颗粒物(PM10),79,107,123,49,85,111,,53,53,19,45,13,10,0.8,1
2026-02-04T1600,3636A,112.4387,34.678,洛阳市,英才小学,细颗粒物(PM2.5),97,135,151,72,94,95,,47,47,41,66,14,13,1.0,1.3
2026-02-04T1600,4214A,112.460027,34.694929,洛阳市,春都路1号院,细颗粒物(PM2.5),110,150,151,83,91,84,,46,46,34,52,12,10,0.9,1.1
2026-02-04T1600,2399A,114.051,33.5721,漯河市,三五一五工厂,颗粒物(PM10),82,114,128,56,78,112,,79,79,12,28,6,6,0.8,0.9
2026-02-04T1600,2400A,114.0055,33.5698,漯河市,漯河大学,细颗粒物(PM2.5),84,90,109,62,76,115,,78,78,8,25,7,7,0.8,0.8
2026-02-04T1600,2401A,114.0134,33.5826,漯河市,市水利局,细颗粒物(PM2.5),84,90,113,62,77,92,,68,68,16,26,6,6,0.7,0.7
2026-02-04T1600,2402A,114.0261,33.5697,漯河市,市广电局,细颗粒物(PM2.5),82,88,110,60,83,107,,74,74,7,19,8,7,0.5,0.6
2026-02-04T1600,3478A,113.9691,33.568,漯河市,市图书馆,细颗粒物(PM2.5),82,111,120,60,76,105,,71,71,12,24,7,8,0.9,1
2026-02-04T1600,4250A,114.089259,33.588274,漯河市,韶山路11号,颗粒物(PM10),72,93,122,50,72,108,,77,77,12,24,7,7,0.7,0.7
2026-02-04T1600,1798A,118.5084,31.6838,马鞍山市,湖东路四小,,48,45,101,33,70,95,,64,64,18,35,5,8,0.5,0.7
2026-02-04T1600,1799A,118.5019,31.6449,马鞍山市,开发区,颗粒物(PM10),52,53,112,35,75,100,,64,64,16,42,6,9,0.5,0.8
2026-02-04T1600,3633A,118.4914,31.681,马鞍山市,雨山,颗粒物(PM10),52,53,107,34,70,97,,65,65,16,36,8,10,0.6,0.8
2026-02-04T1600,4191A,118.527362,31.722269,马鞍山市,慈湖高新区,"颗粒物(PM10),细颗粒物(PM2.5)",54,58,105,38,72,90,,63,63,22,44,7,8,0.5,0.9
2026-02-04T1600,1686A,111.0285,21.469,茂名市,电白南海,颗粒物(PM10),56,61,50,28,24,119,,93,93,12,14,8,10,1.1,1.1
2026-02-04T1600,1687A,110.9294,21.6533,茂名市,茂石化七小,,41,41,46,12,22,98,,88,88,9,13,5,6,0.5,0.5
2026-02-04T1600,1688A,110.9108,21.6688,茂名市,健康路,,35,29,39,12,21,111,,97,97,11,15,4,7,0.5,0.6
2026-02-04T1600,1689A,110.8592,21.6826,茂名市,高岭,颗粒物(PM10),53,56,61,17,25,104,,91,91,7,15,3,11,/,/
2026-02-04T1600,3450A,111.0101,21.5165,茂名市,电白水东,,48,48,43,26,23,111,,93,93,23,22,8,10,/,/
2026-02-04T1600,2540A,103.8414,30.0871,眉山市,气象局,细颗粒物(PM2.5),95,104,120,71,82,89,,60,60,19,29,13,13,0.9,1
2026-02-04T1600,3148A,103.829,30.0563,眉山市,区人社局,细颗粒物(PM2.5),119,104,109,90,95,78,,52,52,20,28,13,13,0.9,1
2026-02-04T1600,4148A,103.8836,30.0695,眉山市,眉职院,细颗粒物(PM2.5),98,106,126,73,85,77,,51,51,18,26,6,5,0.9,1
2026-02-04T1600,1690A,116.1248,24.3307,梅州市,梅江月梅,,37,35,54,20,38,118,,111,111,13,21,/,/,/,/
2026-02-04T1600,1691A,116.0798,24.2719,梅州市,梅县新城,,33,33,56,15,36,104,,88,88,11,35,8,8,0.6,0.7
2026-02-04T1600,3315A,116.1234,24.2994,梅州市,梅龙,,33,27,64,15,38,103,,104,104,11,21,8,10,0.6,0.8
2026-02-04T1600,1878A,104.7775,31.4741,绵阳市,富乐山,细颗粒物(PM2.5),70,82,93,51,62,79,,37,37,13,35,8,8,0.8,0.9
2026-02-04T1600,1880A,104.6698,31.4668,绵阳市,高新区自来水公司,细颗粒物(PM2.5),74,90,110,54,71,82,,33,33,20,43,9,9,0.9,1
2026-02-04T1600,3491A,104.6899,31.5324,绵阳市,西科大附属小学,细颗粒物(PM2.5),94,105,114,70,71,84,,38,38,24,43,9,9,0.5,0.8
2026-02-04T1600,3492A,104.5647,31.5343,绵阳市,安州区旅游局,,,50,96,48,61,79,,52,52,42,34,10,11,,1.3
2026-02-04T1600,4146A,104.7092,31.4972,绵阳市,科技城新区公安局,细颗粒物(PM2.5),74,91,113,54,64,89,,39,39,23,48,5,5,0.9,1
2026-02-04T1600,4226A,104.765114,31.453094,绵阳市,绵阳市气象局,细颗粒物(PM2.5),79,75,103,58,66,78,,31,31,12,41,8,8,0.9,1
2026-02-04T1600,1784A,129.61,44.561,牡丹江市,环保大楼,细颗粒物(PM2.5),104,101,70,78,48,84,,66,66,20,37,3,8,0.6,0.7
2026-02-04T1600,1787A,129.6364,44.6075,牡丹江市,机车工厂,细颗粒物(PM2.5),102,100,96,76,65,81,,56,56,17,43,9,14,0.7,0.9
2026-02-04T1600,1788A,129.6386,44.5462,牡丹江市,第一中学,细颗粒物(PM2.5),99,85,53,74,39,80,,66,66,18,35,6,9,0.8,0.6
2026-02-04T1600,4287A,129.5992,44.5964,牡丹江市,东晓云街98号,细颗粒物(PM2.5),93,85,93,69,64,83,,56,56,23,45,7,14,0.4,0.8
2026-02-04T1600,2531A,105.0703,29.61,内江市,市监测站,细颗粒物(PM2.5),74,81,78,54,69,100,,70,70,18,24,6,6,1.0,1.1
2026-02-04T1600,2533A,105.0657,29.5807,内江市,内江二中,细颗粒物(PM2.5),73,57,96,53,71,91,,50,50,18,28,7,7,0.7,0.8
2026-02-04T1600,2534A,105.0407,29.5828,内江市,内江日报社,细颗粒物(PM2.5),70,58,78,51,71,93,,60,60,34,34,8,8,0.9,1
2026-02-04T1600,4147A,105.0433,29.6105,内江市,玉峰路西段888号,细颗粒物(PM2.5),68,80,78,49,68,96,,64,64,20,27,6,5,0.6,0.7
2026-02-04T1600,2628A,92.0653,31.4846,那曲市,那曲监测站,,27,14,20,12,15,84,,77,77,2,9,6,6,0.6,0.8
2026-02-04T1600,4243A,92.0515,31.4787,那曲市,那曲市委宣传部,,29,9,15,8,13,91,,85,85,1,6,6,6,0.4,0.6
2026-02-04T1600,1291A,115.8887,28.7006,南昌市,省林业公司,细颗粒物(PM2.5),73,88,61,53,40,38,,26,26,68,57,7,5,0.9,0.6
2026-02-04T1600,1292A,115.813,28.7443,南昌市,林科所,颗粒物(PM10),69,88,63,49,41,40,,32,32,49,46,11,9,0.4,0.5
2026-02-04T1600,1294A,115.8518,28.687,南昌市,建工学校,颗粒物(PM10),69,87,70,49,40,39,,30,30,65,42,11,9,1.1,0.8
2026-02-04T1600,1295A,115.8926,28.6425,南昌市,象湖,细颗粒物(PM2.5),75,70,62,55,43,49,,32,32,46,42,10,9,1.0,0.9
2026-02-04T1600,3046A,115.9084,28.6062,南昌市,机电学校,颗粒物(PM10),71,91,74,46,40,52,,38,38,53,48,8,6,0.7,0.6
2026-02-04T1600,3690A,115.9718,28.7032,南昌市,外国语学校,颗粒物(PM10),70,89,70,50,41,55,,34,34,45,45,17,14,1.0,0.8
2026-02-04T1600,4106A,115.7923,28.6873,南昌市,工业二路,,,98,75,50,42,51,,35,35,49,45,6,4,,0.7
2026-02-04T1600,4192A,115.931587,28.686774,南昌市,南京东路235号,"颗粒物(PM10),细颗粒物(PM2.5)",74,97,74,54,42,46,,30,30,51,45,12,9,0.7,0.6
2026-02-04T1600,1906A,106.0791,30.8022,南充市,南充市委,细颗粒物(PM2.5),69,73,80,50,57,56,,30,30,13,32,10,5,0.7,0.8
2026-02-04T1600,1907A,106.1038,30.8215,南充市,南充炼油厂,"颗粒物(PM10),细颗粒物(PM2.5)",59,68,87,42,54,63,,39,39,12,25,12,7,0.7,0.8
2026-02-04T1600,4227A,106.108336,30.788436,南充市,梨树横街98号,细颗粒物(PM2.5),62,68,87,44,58,70,,40,40,17,31,15,7,0.5,0.7
2026-02-04T1600,4304A,106.1172,30.843,南充市,清泉寺北路188号,颗粒物(PM10),58,65,71,39,52,74,,47,47,7,16,8,4,0.5,0.6
2026-02-04T1600,4305A,106.067,30.7616,南充市,同庆路1号,细颗粒物(PM2.5),70,70,75,51,55,65,,33,33,20,37,12,7,0.7,0.9
2026-02-04T1600,1151A,118.8033,32.1085,南京市,迈皋桥,颗粒物(PM10),56,61,80,34,59,96,,71,71,27,32,7,8,0.3,0.4
2026-02-04T1600,1152A,118.7487,32.057,南京市,草场门,,44,44,78,29,58,73,,54,54,22,35,5,8,0.8,0.8
2026-02-04T1600,1154A,118.770105,32.004342,南京市,中华门,,46,46,85,23,61,99,,68,68,17,23,5,4,0.7,0.7
2026-02-04T1600,1155A,118.8059,32.0329,南京市,瑞金路,,,48,86,27,63,105,,95,84,1,14,4,4,,1.1
2026-02-04T1600,1156A,118.7946,32.0774,南京市,玄武湖,细颗粒物(PM2.5),52,44,82,36,59,107,,75,75,16,26,6,7,0.4,0.6
2026-02-04T1600,1157A,118.6415,32.0964,南京市,浦口,颗粒物(PM10),51,52,95,28,67,108,,73,73,16,34,5,5,0.3,0.4
2026-02-04T1600,1158A,118.730129,32.000956,南京市,奥体中心,颗粒物(PM10),51,51,82,23,60,109,,103,103,13,28,10,7,0.7,0.6
2026-02-04T1600,1159A,118.9072,32.1047,南京市,仙林大学城,颗粒物(PM10),56,61,87,30,50,98,,75,75,20,29,7,7,0.5,0.7
2026-02-04T1600,3422A,118.8443,31.919,南京市,江宁彩虹桥,,,51,95,,63,96,,66,66,22,39,6,4,1.0,0.8
2026-02-04T1600,3427A,118.8497,32.3599,南京市,六合雄州,颗粒物(PM10),55,60,92,34,62,117,,80,80,14,41,9,10,0.7,0.7
2026-02-04T1600,4086A,118.7641,32.0841,南京市,新模范马路66号,颗粒物(PM10),56,61,90,25,61,127,,90,90,14,24,4,4,0.4,0.8
2026-02-04T1600,4249A,118.8707617,31.34017673,南京市,汶溪路181号,颗粒物(PM10),51,51,103,32,66,102,,79,79,20,30,9,7,0.8,0.8
2026-02-04T1600,4312A,119.019,31.6512,南京市,中山西路1号,,41,41,77,19,58,93,,74,74,20,26,4,4,0.9,0.8
2026-02-04T1600,1401A,108.3098,22.788,南宁市,二十一中,细颗粒物(PM2.5),64,,79,46,70,56,,42,42,21,55,4,5,0.6,0.8
2026-02-04T1600,1402A,108.3135,22.8529,南宁市,北湖,细颗粒物(PM2.5),65,,92,47,73,59,,33,33,24,62,2,6,0.7,0.9
2026-02-04T1600,1403A,108.3205,22.8222,南宁市,市监测站,细颗粒物(PM2.5),65,,88,47,66,55,,43,43,26,58,5,8,0.9,1.2
2026-02-04T1600,1404A,108.3828,22.8038,南宁市,大自然花园,细颗粒物(PM2.5),74,73,86,54,58,53,,53,53,21,37,6,6,0.9,1
2026-02-04T1600,1406A,108.2397,22.8462,南宁市,区农职院,细颗粒物(PM2.5),59,56,75,42,50,40,,27,27,40,47,4,6,1.2,1.2
2026-02-04T1600,1407A,108.3285,22.7356,南宁市,英华嘉园,细颗粒物(PM2.5),54,47,85,38,64,65,,42,42,20,55,2,4,0.6,0.8
2026-02-04T1600,3401A,108.4829,22.762,南宁市,红星社区,细颗粒物(PM2.5),77,59,90,56,75,31,,32,32,32,50,4,5,1.1,1.2
2026-02-04T1600,4132A,108.2927,23.1477,南宁市,起凤路9号,细颗粒物(PM2.5),52,52,111,36,85,70,,47,47,17,42,2,3,0.6,0.9
2026-02-04T1600,4221A,108.2177,22.7774,南宁市,乐贤路16号,,34,34,93,22,63,70,,45,45,17,47,2,4,0.9,1.1
2026-02-04T1600,2332A,118.1682,26.6371,南平市,南平市监测站,,43,43,45,25,31,120,,83,83,13,19,4,5,0.6,0.6
2026-02-04T1600,2334A,118.1757,26.6276,南平市,南平七中,颗粒物(PM10),53,56,45,27,32,119,,83,83,10,18,3,4,0.6,0.7
2026-02-04T1600,1168A,120.9056,31.9669,南通市,狼山街道,细颗粒物(PM2.5),74,90,56,54,36,88,,64,64,38,43,5,5,0.6,0.5
2026-02-04T1600,1170A,120.8635,32.0231,南通市,城中,颗粒物(PM10),77,103,63,52,35,71,,65,65,51,34,18,7,1.5,0.6
2026-02-04T1600,1171A,120.9376,31.9301,南通市,星湖花园,颗粒物(PM10),63,75,57,41,34,95,,69,69,37,47,7,7,0.6,0.6
2026-02-04T1600,1172A,120.8053,32.046,南通市,紫琅学院,细颗粒物(PM2.5),82,101,63,60,38,79,,59,59,53,45,9,7,1.1,0.8
2026-02-04T1600,3291A,121.0631,32.0644,南通市,通州监测站,颗粒物(PM10),68,85,55,44,34,93,,70,70,48,38,8,5,0.8,0.5
2026-02-04T1600,3432A,120.9348,31.9874,南通市,环境教育馆,细颗粒物(PM2.5),77,68,60,56,37,92,,68,68,52,53,6,6,0.9,0.7
2026-02-04T1600,4091A,120.8692,31.9885,南通市,洪江路,细颗粒物(PM2.5),73,78,52,53,35,55,,52,52,71,47,11,7,0.9,0.6
2026-02-04T1600,2404A,112.5338,33.0086,南阳市,瓦房庄,细颗粒物(PM2.5),98,123,123,73,74,100,,62,62,15,27,5,5,0.8,1
2026-02-04T1600,2405A,112.5002,32.9734,南阳市,汉画馆,,,,133,,110,102,,58,58,21,40,8,7,,1.1
2026-02-04T1600,2406A,112.5778,33.0144,南阳市,气象站,颗粒物(PM10),98,145,144,70,74,94,,59,59,21,30,7,6,0.8,1
2026-02-04T1600,2407A,112.548,32.9687,南阳市,理工学院,细颗粒物(PM2.5),107,129,127,80,80,101,,58,58,19,37,7,6,0.8,0.9
2026-02-04T1600,4008A,112.5233,32.9921,南阳市,卧龙区政府,细颗粒物(PM2.5),104,143,148,78,81,95,,55,55,18,32,7,6,0.8,1
2026-02-04T1600,1234A,121.8352,29.9111,宁波市,区环保大楼,颗粒物(PM10),54,58,27,17,9,43,,76,54,82,40,12,6,0.6,0.4
2026-02-04T1600,1235A,121.5595,29.8208,宁波市,万里学院,,37,37,31,20,14,99,,81,81,24,30,4,3,0.8,0.7
2026-02-04T1600,1236A,121.713,29.9564,宁波市,龙赛医院,颗粒物(PM10),58,66,33,29,13,71,,57,57,63,38,8,4,0.6,0.5
2026-02-04T1600,1240A,121.5855,29.8635,宁波市,太古小学,,40,40,29,18,14,106,,82,82,14,21,3,3,0.4,0.4
2026-02-04T1600,1241A,121.5239,29.8673,宁波市,市环境监测中心,,44,44,41,21,16,94,,70,70,20,24,3,6,0.4,0.5
2026-02-04T1600,2871A,121.6156,29.9015,宁波市,万里国际学校,,36,36,33,24,14,104,,79,79,22,23,4,4,0.4,0.3
2026-02-04T1600,3710A,121.5593,29.8976,宁波市,白沙活动中心,,36,34,35,25,17,99,,78,78,23,25,4,4,0.3,0.3
2026-02-04T1600,4095A,121.8962,29.7529,宁波市,中科路88号,,33,28,26,13,14,103,,79,79,13,24,6,7,0.3,0.3
2026-02-04T1600,2341A,119.5387,26.6611,宁德市,宁德市监测站,,41,41,33,22,17,84,,65,65,24,21,5,4,0.8,0.6
2026-02-04T1600,3209A,119.5231,26.6562,宁德市,宁德一中,,38,32,32,26,20,87,,70,70,22,15,4,3,0.6,0.4
2026-02-04T1600,2618A,98.859,25.8541,怒江傈僳族自治州,州监测站,,40,40,33,20,18,91,,58,58,7,13,6,5,0.1,0.4
2026-02-04T1600,2619A,98.8607,25.8168,怒江傈僳族自治州,泸水一中,,33,32,30,23,21,84,,52,52,10,20,4,4,0.5,0.7
2026-02-04T1600,1888A,101.6891,26.571,攀枝花市,弄弄坪,,36,36,83,19,29,93,,55,55,14,42,14,71,0.6,2.1
2026-02-04T1600,1889A,101.577,26.5914,攀枝花市,河门口,,34,34,46,16,19,86,,54,54,16,28,30,27,1.4,1.4
2026-02-04T1600,1891A,101.7365,26.4986,攀枝花市,仁和,,28,24,34,14,20,87,,60,60,8,22,8,9,0.5,0.7
2026-02-04T1600,2835A,101.7222,26.567,攀枝花市,四十中小,,45,45,54,15,30,84,,52,52,20,50,14,25,0.6,1.5
2026-02-04T1600,1604A,122.0303,41.1489,盘锦市,开发区,细颗粒物(PM2.5),133,126,76,101,75,75,,65,65,22,22,8,8,0.7,0.3
2026-02-04T1600,1605A,122.0486,41.0883,盘锦市,兴隆台,细颗粒物(PM2.5),149,,66,114,69,55,,58,53,39,30,7,6,0.8,0.7
2026-02-04T1600,1606A,121.8297,41.1026,盘锦市,新生街道,细颗粒物(PM2.5),108,106,66,81,66,76,,61,61,26,31,7,6,0.5,0.5
2026-02-04T1600,1832A,113.3257,33.7423,平顶山市,新华旅馆,细颗粒物(PM2.5),80,101,118,59,79,107,,80,80,19,24,7,6,0.5,0.6
2026-02-04T1600,1833A,113.2917,33.737,平顶山市,规划设计院,颗粒物(PM10),78,106,130,56,80,104,,76,76,14,22,8,7,0.7,0.7
2026-02-04T1600,1834A,113.182,33.7738,平顶山市,平顶山工学院,细颗粒物(PM2.5),80,95,111,59,80,111,,84,84,12,16,9,8,0.6,0.7
2026-02-04T1600,3594A,112.8736,33.9068,平顶山市,石龙区,,,,118,,72,114,,68,68,7,40,6,7,0.7,0.8
2026-02-04T1600,4116A,113.284,33.7139,平顶山市,姚电大道23号,细颗粒物(PM2.5),72,90,140,52,85,112,,75,75,17,29,10,8,0.6,0.8
2026-02-04T1600,2656A,106.6633,35.5338,平凉市,聚贤嘉苑,,44,44,82,17,36,94,,72,72,12,17,11,10,0.3,0.8
2026-02-04T1600,2657A,106.7021,35.5307,平凉市,博物馆,,,47,88,,48,90,,63,63,15,26,15,10,0.5,0.8
2026-02-04T1600,2348A,113.8384,27.6436,萍乡市,中医院,细颗粒物(PM2.5),78,91,92,57,47,70,,62,61,34,23,12,18,1.3,1
2026-02-04T1600,2350A,113.8677,27.6438,萍乡市,市环保局,,,98,82,65,52,,,60,57,26,21,13,18,0.8,0.7
2026-02-04T1600,2351A,113.8663,27.6202,萍乡市,安源区政府,细颗粒物(PM2.5),90,110,91,67,53,49,,39,39,36,30,17,12,1.1,0.9
2026-02-04T1600,4107A,113.8686,27.6668,萍乡市,联洪村委会,细颗粒物(PM2.5),80,91,83,59,48,61,,52,52,28,21,8,15,0.7,0.5
2026-02-04T1600,2319A,119.0142,25.4324,莆田市,荔城区仓后路,,38,38,44,10,20,108,,91,91,12,13,/,/,/,/
2026-02-04T1600,2320A,119.0016,25.4553,莆田市,莆田市监测站,,47,47,37,11,17,113,,94,94,12,10,4,3,0.4,0.4
2026-02-04T1600,2321A,119.112,25.4561,莆田市,涵江区六中,,35,27,40,9,17,109,,93,93,9,12,/,/,0.5,0.5
2026-02-04T1600,2322A,119.1014,25.3215,莆田市,秀屿区政府,,37,37,40,11,18,110,,103,103,6,10,3,3,0.5,0.6
2026-02-04T1600,2392A,115.0312,35.7636,濮阳市,环保局,细颗粒物(PM2.5),107,98,94,80,77,113,,70,70,23,21,16,8,1.1,0.9
2026-02-04T1600,3021A,115,35.7667,濮阳市,濮水河管理处,细颗粒物(PM2.5),108,135,121,81,79,115,,70,70,20,20,17,9,1.0,0.8
2026-02-04T1600,4118A,115.0552,35.7816,濮阳市,中原东路68号,细颗粒物(PM2.5),114,145,127,86,74,118,,73,73,28,26,17,8,1.0,1
2026-02-04T1600,4216A,115.0923632,35.76857718,濮阳市,任丘路479号,细颗粒物(PM2.5),107,129,124,80,80,110,,63,63,32,33,19,9,1.0,0.8
2026-02-04T1600,2601A,100.9801,22.7634,普洱市,市环保局,颗粒物(PM10),52,54,55,21,26,96,,66,66,7,10,5,4,0.5,0.6
2026-02-04T1600,2602A,100.9763,22.8237,普洱市,普洱第二中学,颗粒物(PM10),51,52,56,22,31,97,,69,69,6,18,5,5,0.5,0.6
2026-02-04T1600,3345A,131.0413,45.7795,七台河市,中波台,,28,24,59,16,46,87,,68,68,4,20,6,10,0.4,0.7
2026-02-04T1600,3637A,131.0136,45.7688,七台河市,人民广场,,30,30,69,20,45,82,,68,68,13,32,8,11,0.4,0.8
2026-02-04T1600,3684A,130.8639,45.8144,七台河市,新建矿广场,颗粒物(PM10),65,80,75,25,51,78,,63,63,15,22,3,6,0.3,0.6
2026-02-04T1600,1779A,123.9307,47.3641,齐齐哈尔市,安居小区,,24,18,37,8,16,76,,73,73,7,22,8,11,0.3,0.5
2026-02-04T1600,1780A,123.9497,47.3389,齐齐哈尔市,中心广场,,23,17,24,3,13,73,,69,69,10,17,5,7,0.5,0.5
2026-02-04T1600,1781A,123.9483,47.3229,齐齐哈尔市,农牧车辆厂,,24,12,27,8,12,74,,70,70,6,12,3,5,0.3,0.3
2026-02-04T1600,1783A,123.9442,47.2994,齐齐哈尔市,市环境监测站,,25,21,32,6,11,77,,73,73,8,18,3,5,0.3,0.4
2026-02-04T1600,3662A,123.6341,47.2079,齐齐哈尔市,富区青少年活动中心,,27,27,41,3,15,75,,74,74,9,14,3,6,0.4,0.4
2026-02-04T1600,2591A,107.9765,26.5724,黔东南苗族侗族自治州,市环境监测站,细颗粒物(PM2.5),77,97,77,56,44,25,,42,22,29,18,7,6,1.2,0.8
2026-02-04T1600,2881A,107.8909,26.531,黔东南苗族侗族自治州,凯里学院,细颗粒物(PM2.5),75,80,66,55,39,25,,47,27,24,16,3,4,0.9,0.8
2026-02-04T1600,2593A,107.5223,26.2371,黔南布依族苗族自治州,小围寨,,49,36,44,34,33,40,,18,18,9,16,7,6,0.9,1
2026-02-04T1600,3538A,107.5175,26.2977,黔南布依族苗族自治州,沙坝,,50,44,50,35,35,41,,22,22,8,20,4,5,1.0,1
2026-02-04T1600,2589A,104.9022,25.0943,黔西南布依族苗族自治州,场坝街,,42,42,33,29,24,41,,31,31,9,9,2,3,0.8,0.8
2026-02-04T1600,2590A,104.8812,25.0994,黔西南布依族苗族自治州,坪东大道,,48,34,29,33,25,38,,30,30,9,8,5,4,0.9,1
2026-02-04T1600,2502A,108.6238,21.9667,钦州市,市环保站,"颗粒物(PM10),细颗粒物(PM2.5)",53,56,66,37,38,69,,68,51,21,24,2,4,0.6,0.8
2026-02-04T1600,2503A,108.655,21.9481,钦州市,沙埠小学,颗粒物(PM10),58,66,75,29,42,53,,46,46,16,37,4,6,0.4,0.6
2026-02-04T1600,2504A,108.5989,21.7435,钦州市,港区一小,颗粒物(PM10),56,62,65,37,27,102,,82,72,24,30,4,3,1.4,0.8
2026-02-04T1600,3404A,108.5959,21.9634,钦州市,北职校,,45,45,55,30,37,85,,57,46,16,26,2,4,0.6,0.7
2026-02-04T1600,1046A,119.5247,39.9346,秦皇岛市,建设大厦,颗粒物(PM10),56,61,173,33,124,67,,44,44,24,49,11,18,0.4,1.5
2026-02-04T1600,3132A,119.5979,39.938,秦皇岛市,文明里,,,68,175,,116,73,,48,48,22,57,,19,0.1,1.2
2026-02-04T1600,4066A,119.7458,39.9952,秦皇岛市,南园路157号,细颗粒物(PM2.5),58,62,161,41,113,71,,47,47,28,63,14,17,0.5,1.4
2026-02-04T1600,4067A,119.5131,39.8858,秦皇岛市,翠岛大街1号,颗粒物(PM10),52,53,151,31,120,73,,44,44,17,55,11,17,0.4,1.4
2026-02-04T1600,4198A,119.509013,39.825305,秦皇岛市,北戴河轮滑馆,颗粒物(PM10),69,88,157,46,103,74,,49,49,29,61,10,13,0.5,1.2
2026-02-04T1600,1310A,120.404,36.0625,青岛市,市南区东部子站,细颗粒物(PM2.5),100,100,89,75,65,71,,76,74,34,24,12,10,0.8,0.6
2026-02-04T1600,1311A,120.362344,36.10282,青岛市,四方区子站,,,,82,89,79,108,,92,92,37,28,8,5,0.9,1
2026-02-04T1600,1312A,120.294373,36.054183,青岛市,市南区西部子站,细颗粒物(PM2.5),108,95,87,81,76,93,,80,80,38,32,6,5,0.9,0.8
2026-02-04T1600,1313A,120.4581,36.0858,青岛市,崂山区子站,细颗粒物(PM2.5),89,97,84,66,56,88,,80,80,29,30,11,10,0.8,0.7
2026-02-04T1600,1315A,120.3945,36.3083,青岛市,城阳区子站,细颗粒物(PM2.5),102,102,103,76,83,129,,98,98,34,36,9,9,0.9,0.9
2026-02-04T1600,3642A,120.3454,36.0735,青岛市,市北区南部,细颗粒物(PM2.5),104,100,91,78,69,94,,82,82,28,23,3,2,0.9,0.8
2026-02-04T1600,3643A,120.3897,36.18,青岛市,李沧区北部,细颗粒物(PM2.5),99,97,93,74,76,119,,92,92,41,42,11,10,0.8,0.9
2026-02-04T1600,4110A,120.5222,36.4089,青岛市,盟旺路653号,细颗粒物(PM2.5),78,102,113,57,76,131,,103,103,21,27,5,5,0.8,1
2026-02-04T1600,4290A,120.196923,35.954556,青岛市,珠江路669号,细颗粒物(PM2.5),102,90,80,76,68,102,,78,78,29,22,7,5,0.7,0.7
2026-02-04T1600,4291A,120.0424,35.8656,青岛市,黄岛区人民政府广场,细颗粒物(PM2.5),103,97,103,77,78,92,,71,71,,42,,9,1.1,1.2
2026-02-04T1600,1703A,113.0218,23.7086,清远市,凤城街办,细颗粒物(PM2.5),99,101,74,74,46,125,,76,76,37,43,/,/,/,/
2026-02-04T1600,3025A,113.0479,23.6343,清远市,技师学院,颗粒物(PM10),66,82,84,43,42,122,,70,70,34,60,6,8,0.6,0.7
2026-02-04T1600,3318A,112.9898,23.7403,清远市,清新太和,细颗粒物(PM2.5),83,86,70,61,42,139,,79,79,32,39,12,10,0.7,0.7
2026-02-04T1600,3455A,113.076,23.72,清远市,清城东城,,,,73,,36,,,66,66,,43,/,/,/,/
2026-02-04T1600,2661A,107.6325,35.7357,庆阳市,庆阳五中,颗粒物(PM10),55,59,93,27,42,98,,83,83,12,19,5,7,0.4,0.7
2026-02-04T1600,2662A,107.6361,35.7067,庆阳市,市环保局,颗粒物(PM10),56,62,93,32,43,99,,83,82,11,17,4,6,0.7,0.8
2026-02-04T1600,1916A,103.7897,25.5036,曲靖市,环境监测站,,,23,31,3,19,113,,89,89,7,13,,5,0.4,0.6
2026-02-04T1600,1917A,103.8013,25.5357,曲靖市,烟厂办公区,,33,27,34,3,16,105,,87,87,5,10,5,4,0.2,0.4
2026-02-04T1600,3376A,103.7926,25.4651,曲靖市,南苑二区,,31,19,29,6,17,99,,93,93,8,7,4,4,0.1,0.3
2026-02-04T1600,3377A,103.7442,25.5259,曲靖市,曲靖师范学院,,31,15,36,3,21,98,,84,84,5,13,3,5,0.2,0.4
2026-02-04T1600,1264A,118.8694,28.94,衢州市,环保大楼,细颗粒物(PM2.5),60,62,79,43,60,104,,60,60,24,51,/,/,/,/
2026-02-04T1600,1266A,118.8622,28.9809,衢州市,衢州学院,细颗粒物(PM2.5),68,72,67,49,49,104,,58,58,24,48,6,6,0.4,0.8
2026-02-04T1600,4097A,118.9646,28.9832,衢州市,衢州三中,颗粒物(PM10),55,60,71,36,45,96,,53,53,27,53,6,6,0.5,0.5
2026-02-04T1600,1611A,118.5818,24.9116,泉州市,涂山街,颗粒物(PM10),52,54,45,17,26,115,,95,95,19,14,3,3,0.5,0.5
2026-02-04T1600,1612A,118.597,24.8976,泉州市,津头埔,颗粒物(PM10),54,57,48,14,27,107,,92,92,17,15,3,3,0.5,0.5
2026-02-04T1600,1613A,118.6669,24.9422,泉州市,万安,颗粒物(PM10),52,53,48,19,22,107,,87,87,14,16,4,3,0.5,0.5
2026-02-04T1600,4105A,118.6355,24.9148,泉州市,霞新路6号,,35,30,39,15,24,110,,91,91,14,16,/,/,0.5,0.5
2026-02-04T1600,2626A,88.8873,29.2723,日喀则市,日喀则监测站,,32,10,20,3,9,100,,77,77,1,4,8,7,0.3,0.3
2026-02-04T1600,3726A,88.8775,29.2425,日喀则市,林业技术推广中心,,,13,26,3,6,89,,70,68,3,5,6,5,,0.5
2026-02-04T1600,1659A,119.4711,35.421,日照市,监测站,细颗粒物(PM2.5),135,139,141,103,104,85,,51,51,52,71,14,14,1.2,1.5
2026-02-04T1600,1660A,119.523,35.4216,日照市,市政府广场,细颗粒物(PM2.5),137,166,139,104,97,53,,45,45,72,69,,14,0.8,1
2026-02-04T1600,1661A,119.5511,35.4113,日照市,港务局,细颗粒物(PM2.5),127,141,145,96,90,72,,50,50,59,73,10,10,0.9,1.1
2026-02-04T1600,3507A,119.5326,35.4627,日照市,职业技术学院,细颗粒物(PM2.5),134,149,130,102,96,70,,54,54,61,59,13,12,1.3,1.4
2026-02-04T1600,3604A,119.3267,35.1043,日照市,岚山环保分局,细颗粒物(PM2.5),125,146,133,95,91,72,,57,57,58,65,14,14,1.0,1.1
2026-02-04T1600,1835A,111.1922,34.7752,三门峡市,市政府,细颗粒物(PM2.5),108,110,95,81,71,73,,33,33,38,54,14,15,0.8,0.9
2026-02-04T1600,1836A,111.1588,34.794,三门峡市,开发区,细颗粒物(PM2.5),122,130,111,92,71,80,,37,37,32,40,11,10,0.7,0.8
2026-02-04T1600,3039A,111.1911,34.7829,三门峡市,三门峡市第一小学,细颗粒物(PM2.5),122,129,102,92,72,70,,31,31,43,54,19,15,0.9,1
2026-02-04T1600,3598A,111.1031,34.719,三门峡市,富达温泉假日酒店,细颗粒物(PM2.5),142,145,92,108,84,73,,35,35,47,47,15,16,0.9,1.1
2026-02-04T1600,2324A,117.621,26.2626,三明市,三钢,,,42,39,,34,107,,83,83,12,21,12,8,,1.2
2026-02-04T1600,2325A,117.6352,26.2714,三明市,三明二中,,34,34,36,20,29,102,,78,78,16,21,8,4,1.1,0.7
2026-02-04T1600,2326A,117.6028,26.2377,三明市,三元区政府,,35,34,42,19,30,112,,70,70,9,24,8,9,0.7,1.2
2026-02-04T1600,1877A,109.4962,18.2682,三亚市,河西子站,,30,30,33,10,14,89,,86,86,6,9,1,2,0.4,0.4
2026-02-04T1600,3540A,109.7348,18.3443,三亚市,君悦子站,,49,49,38,17,15,91,,78,78,4,8,3,5,0.5,0.3
2026-02-04T1600,4135A,109.1714,18.3739,三亚市,城东小学站,,34,34,29,10,18,103,,98,98,6,9,/,/,/,/
2026-02-04T1600,2624A,91.7592,29.234,山南市,山南监测站,,26,7,17,3,4,81,,77,69,2,3,5,4,0.3,0.3
2026-02-04T1600,2625A,91.7701,29.2436,山南市,山南人民医院,,25,6,23,3,9,80,,77,70,3,3,9,8,0.4,0.4
2026-02-04T1600,1674A,116.6795,23.3666,汕头市,金平子站,颗粒物(PM10),51,51,52,22,29,137,,106,106,14,15,5,5,0.5,0.6
2026-02-04T1600,1675A,116.7248,23.3632,汕头市,龙湖子站,,50,50,50,22,30,127,,100,100,14,12,10,10,/,/
2026-02-04T1600,1676A,116.7257,23.2774,汕头市,濠江子站,颗粒物(PM10),53,56,50,23,28,127,,98,98,19,16,8,8,/,/
2026-02-04T1600,1677A,116.7518,23.4712,汕头市,澄海子站,,,61,59,24,33,129,,102,102,,13,7,7,,0.8
2026-02-04T1600,1678A,116.6088,23.2539,汕头市,潮阳子站,,49,49,48,25,31,132,,104,104,11,11,7,6,0.6,0.6
2026-02-04T1600,3444A,116.4539,23.2684,汕头市,潮南峡山,,50,50,55,30,32,138,,116,116,16,13,7,6,0.6,0.7
2026-02-04T1600,3624A,116.4069,23.2533,汕头市,潮南子站,颗粒物(PM10),62,74,69,34,32,137,,108,108,18,14,8,7,/,/
2026-02-04T1600,1693A,115.3653,22.7751,汕尾市,市环保局,,,53,56,24,33,135,,109,109,12,12,,12,0.7,0.7
2026-02-04T1600,1695A,115.362,22.7926,汕尾市,新城中学,,50,50,53,25,32,139,,113,113,15,12,6,6,0.7,0.7
2026-02-04T1600,2645A,109.9155,33.8714,商洛市,监测站,"颗粒物(PM10),细颗粒物(PM2.5)",52,54,75,36,49,102,,67,67,14,24,4,9,0.7,1
2026-02-04T1600,3045A,109.9647,33.8486,商洛市,商州区中学,颗粒物(PM10),70,90,74,23,41,103,,59,59,11,36,4,6,0.5,0.7
2026-02-04T1600,2408A,115.6701,34.4283,商丘市,环境监测站,细颗粒物(PM2.5),109,96,102,82,80,108,,79,79,16,18,1,2,0.4,0.4
2026-02-04T1600,2409A,115.6458,34.4047,商丘市,粮食局,细颗粒物(PM2.5),112,113,99,84,78,101,,73,73,19,23,2,2,,0.2
2026-02-04T1600,3171A,115.6069,34.4465,商丘市,梁园区档案局,细颗粒物(PM2.5),112,94,90,84,76,104,,77,77,15,17,2,1,0.6,0.6
2026-02-04T1600,4119A,115.6701,34.3767,商丘市,北海东路185号,细颗粒物(PM2.5),102,121,121,76,78,106,,73,73,15,30,5,3,0.7,0.7
2026-02-04T1600,4120A,115.6172,34.3704,商丘市,中山大街3号,细颗粒物(PM2.5),112,134,132,84,82,105,,72,72,20,30,1,2,0.5,0.5
2026-02-04T1600,1141A,121.401,31.2382,上海市,普陀,颗粒物(PM10),56,61,42,30,26,85,,75,75,33,34,6,6,0.6,0.5
2026-02-04T1600,1142A,121.4774,31.2043,上海市,十五厂,颗粒物(PM10),58,65,46,32,23,87,,68,68,37,41,6,6,0.7,0.6
2026-02-04T1600,1143A,121.4673,31.3011,上海市,虹口,细颗粒物(PM2.5),58,62,43,41,28,75,,69,69,38,33,8,7,0.3,0.3
2026-02-04T1600,1147A,121.4253,31.226,上海市,静安监测站,细颗粒物(PM2.5),55,56,39,39,26,86,,79,79,32,34,8,7,0.6,0.6
2026-02-04T1600,1148A,121.7029,31.1905,上海市,浦东川沙,细颗粒物(PM2.5),58,64,41,41,27,90,,78,78,31,29,8,9,0.6,0.4
2026-02-04T1600,1149A,121.5339,31.229,上海市,浦东新区监测站,细颗粒物(PM2.5),65,65,39,47,28,87,,70,70,43,34,6,6,0.8,0.7
2026-02-04T1600,1150A,121.5776,31.2038,上海市,浦东张江,颗粒物(PM10),60,70,42,37,25,98,,79,79,38,35,7,7,0.3,0.3
2026-02-04T1600,3265A,121.4242,31.3303,上海市,宝山庙行,颗粒物(PM10),56,62,44,38,32,84,,70,70,32,33,9,8,0.5,0.5
2026-02-04T1600,3266A,121.8789,31.4662,上海市,崇明上实东滩,细颗粒物(PM2.5),68,72,30,49,22,80,,68,68,50,28,6,5,0.7,0.6
