timepoint,stationcode,longitude,latitude,area,positionname,primarypollutant,aqi,pm10,pm10_24h,pm2_5,pm2_5_24h,o3,o3_24h,o3_8h,o3_8h_24h,no2,no2_24h,so2,so2_24h,co,co_24h
2026-02-04T1500,2568A,102.2503,31.8896,阿坝藏族羌族自治州,马师校,,,,16,,11,85,,46,46,3,10,4,4,,0.4
2026-02-04T1500,3994A,102.2174,31.9016,阿坝藏族羌族自治州,马尔康中学西区,颗粒物(PM10),66,82,24,9,10,80,,50,50,5,8,7,7,0.4,0.5
2026-02-04T1500,2695A,80.2899,41.1684,阿克苏地区,电视台,颗粒物(PM10),113,175,221,70,86,51,,37,37,30,37,15,12,1.5,2
2026-02-04T1500,2696A,80.2592,41.1541,阿克苏地区,艺术中心,颗粒物(PM10),100,150,194,71,80,62,,43,43,24,45,7,5,0.7,0.9
2026-02-04T1500,2205A,105.699,38.8409,阿拉善盟,蒙二幼,颗粒物(PM10),61,72,71,19,20,95,,84,84,8,12,11,11,0.5,0.6
2026-02-04T1500,2206A,105.7198,38.8508,阿拉善盟,环保局新楼,颗粒物(PM10),59,67,65,26,22,87,,83,83,6,7,9,9,0.5,0.5
2026-02-04T1500,2708A,88.1266,47.8515,阿勒泰地区,市站,,25,19,14,3,4,78,,80,74,22,20,23,5,0.2,0.3
2026-02-04T1500,4166A,88.1198,47.7931,阿勒泰地区,阿勒泰路33号,,25,22,18,6,4,80,,82,73,11,16,9,8,0.4,0.4
2026-02-04T1500,2630A,80.1171,32.4999,阿里地区,阿里监测站,,31,6,3,3,5,98,,87,83,1,4,6,8,0.2,0.3
2026-02-04T1500,3192A,80.0906,32.5029,阿里地区,阿里藏医院,,32,6,8,3,3,102,,95,88,1,3,7,9,0.3,0.3
2026-02-04T1500,2644A,109.0088,32.6974,安康市,汉滨区检察院,细颗粒物(PM2.5),74,75,77,54,49,49,,38,38,29,30,8,8,0.8,0.7
2026-02-04T1500,4054A,109.0324,32.6913,安康市,市邮政管理局,细颗粒物(PM2.5),73,92,88,53,48,52,,38,38,30,33,5,6,0.8,0.7
2026-02-04T1500,2291A,117.0806,30.5181,安庆市,环科院,细颗粒物(PM2.5),68,82,87,49,55,81,,43,43,22,53,9,9,0.8,0.8
2026-02-04T1500,2292A,117.0331,30.5118,安庆市,马山宾馆,细颗粒物(PM2.5),64,73,88,46,59,90,,47,47,18,50,8,7,0.9,1
2026-02-04T1500,2294A,116.9897,30.6146,安庆市,安庆大学,,50,50,93,26,54,103,,59,59,12,52,7,8,0.6,0.7
2026-02-04T1500,3173A,117.0598,30.5351,安庆市,市人大,颗粒物(PM10),61,72,90,36,48,96,,50,50,14,47,9,8,0.5,0.6
2026-02-04T1500,3123A,105.9408,26.2431,安顺市,凤凰山,,41,41,17,25,11,58,,37,37,12,13,18,12,0.7,0.8
2026-02-04T1500,3124A,105.9443,26.2567,安顺市,金钟山,,40,,12,28,14,56,,34,34,9,11,12,13,0.7,0.8
2026-02-04T1500,3125A,105.8983,26.248,安顺市,娄家坡,,39,,17,27,13,62,,36,36,8,12,10,13,0.7,0.8
2026-02-04T1500,1819A,114.3552,36.1017,安阳市,红庙街,细颗粒物(PM2.5),125,102,131,95,114,110,,64,64,22,36,10,8,1.0,1
2026-02-04T1500,1820A,114.361,36.0681,安阳市,银杏小区,细颗粒物(PM2.5),92,129,132,68,95,111,,58,58,22,36,11,10,0.9,1
2026-02-04T1500,3141A,114.3921,36.0879,安阳市,信访局,细颗粒物(PM2.5),115,,133,87,101,118,,61,61,16,28,12,8,0.9,0.9
2026-02-04T1500,3669A,114.4706,36.0634,安阳市,左辅环卫站,细颗粒物(PM2.5),119,139,149,90,104,115,,61,61,21,32,15,7,0.9,0.7
2026-02-04T1500,4117A,114.2918,36.0769,安阳市,钢三路198号,细颗粒物(PM2.5),120,154,162,91,107,95,,47,47,26,30,12,8,0.9,1
2026-02-04T1500,1748A,123.0441,41.1201,鞍山市,深沟寺,细颗粒物(PM2.5),193,186,131,145,90,43,,85,37,50,33,14,14,1.6,1.4
2026-02-04T1500,1749A,123.011,41.0931,鞍山市,太阳城,细颗粒物(PM2.5),192,172,133,144,97,32,,82,28,53,33,22,20,1.8,1.5
2026-02-04T1500,1750A,123.0483,41.1445,鞍山市,太平,细颗粒物(PM2.5),182,197,157,137,102,44,,26,26,42,37,15,17,1.3,1.4
2026-02-04T1500,1751A,122.964,41.0968,鞍山市,铁西三道街,细颗粒物(PM2.5),175,171,156,132,102,34,,72,23,66,49,46,26,2.5,1.3
2026-02-04T1500,1753A,123.0219,41.0822,鞍山市,明达新区,细颗粒物(PM2.5),195,181,136,146,94,34,,83,34,50,32,18,17,2.0,1.5
2026-02-04T1500,4201A,122.944647,41.082639,鞍山市,兴盛南路290号,细颗粒物(PM2.5),188,179,170,141,107,27,,70,15,71,49,58,23,3.1,1.3
2026-02-04T1500,2195A,107.4206,40.7609,巴彦淖尔市,附二中,颗粒物(PM10),79,108,82,24,25,88,,72,72,4,14,8,7,0.4,0.4
2026-02-04T1500,2196A,107.37,40.7372,巴彦淖尔市,市环保大楼,颗粒物(PM10),75,99,84,20,25,91,,72,72,4,12,4,5,0.3,0.3
2026-02-04T1500,1956A,86.1476,41.7529,巴音郭楞蒙古自治州,孔雀公园,颗粒物(PM10),103,156,159,46,45,70,,31,31,2,45,9,9,0.4,0.8
2026-02-04T1500,1957A,86.1971,41.7166,巴音郭楞蒙古自治州,棉纺厂,颗粒物(PM10),111,172,202,33,42,72,,51,51,1,19,/,/,/,/
2026-02-04T1500,1958A,86.236,41.7172,巴音郭楞蒙古自治州,经济开发区,,,128,155,20,22,60,,44,44,,19,6,6,0.5,0.5
2026-02-04T1500,3181A,106.776805,31.852614,巴中市,市五中,,,98,84,67,59,18,,8,8,,28,7,6,1.3,1.1
2026-02-04T1500,3183A,106.7419,31.8654,巴中市,圣泉水务公司,细颗粒物(PM2.5),75,70,74,55,57,23,,9,9,28,33,6,6,1.2,1.3
2026-02-04T1500,3616A,106.7617,31.8343,巴中市,市中心医院,细颗粒物(PM2.5),83,86,86,61,66,22,,7,7,34,33,6,6,1.2,1.3
2026-02-04T1500,2235A,122.7909,45.608,白城市,洮北区环保局,,25,24,37,8,20,78,,69,69,6,13,5,5,0.2,0.3
2026-02-04T1500,2236A,122.8741,45.5725,白城市,市环保局,,23,14,37,7,20,72,,67,67,5,23,7,6,0.2,0.4
2026-02-04T1500,2231A,126.4219,41.9172,白山市,喜丰,细颗粒物(PM2.5),98,83,65,73,48,84,,50,50,15,35,19,17,1.0,1.3
2026-02-04T1500,2232A,126.4082,41.9416,白山市,环保局,细颗粒物(PM2.5),94,72,58,70,52,90,,50,50,14,32,15,16,1.1,1.2
2026-02-04T1500,2647A,104.1727,36.5448,白银市,第三小学,细颗粒物(PM2.5),68,78,79,49,37,98,,56,56,19,28,17,27,1.0,0.9
2026-02-04T1500,2648A,104.1467,36.5482,白银市,动力公司,颗粒物(PM10),76,102,75,43,34,107,,60,60,17,20,22,15,0.7,0.6
2026-02-04T1500,2512A,106.6102,23.901,百色市,市监测站,细颗粒物(PM2.5),68,69,78,49,65,101,,50,50,14,29,13,18,0.9,1.1
2026-02-04T1500,2513A,106.6524,23.8842,百色市,市中心血站,细颗粒物(PM2.5),87,71,92,64,72,105,,48,48,11,29,12,19,0.9,1
2026-02-04T1500,4133A,106.6273,23.8798,百色市,龙景西路,细颗粒物(PM2.5),80,92,104,59,73,108,,44,44,14,28,16,21,0.7,0.8
2026-02-04T1500,2270A,117.396,32.9389,蚌埠市,工人疗养院,"颗粒物(PM10),细颗粒物(PM2.5)",65,80,110,47,76,120,,76,76,20,34,6,7,0.6,0.8
2026-02-04T1500,2271A,117.3606,32.9428,蚌埠市,百货大楼,颗粒物(PM10),65,79,109,41,74,118,,79,79,21,32,6,6,0.5,0.7
2026-02-04T1500,2273A,117.4183,32.8909,蚌埠市,蚌埠学院,细颗粒物(PM2.5),64,70,98,46,70,123,,78,78,19,36,7,6,0.6,0.7
2026-02-04T1500,2274A,117.3534,32.9672,蚌埠市,淮上区政府,细颗粒物(PM2.5),69,78,106,50,79,121,,83,83,16,39,7,7,0.5,0.7
2026-02-04T1500,2275A,117.3143,32.8977,蚌埠市,高新区,细颗粒物(PM2.5),68,70,101,49,77,111,,67,67,12,31,8,8,0.5,0.7
2026-02-04T1500,3715A,117.3091,32.9314,蚌埠市,蚌埠田家炳中学,细颗粒物(PM2.5),69,80,113,50,80,115,,73,73,21,34,6,9,0.5,0.8
2026-02-04T1500,1585A,109.8761,40.6533,包头市,市环境监测站,颗粒物(PM10),92,134,95,46,54,81,,40,40,37,62,20,19,1.6,1.9
2026-02-04T1500,1587A,109.9992,40.5843,包头市,包头八中,颗粒物(PM10),83,115,105,54,62,105,,42,42,19,62,15,20,1.2,2.2
2026-02-04T1500,1589A,109.8641,40.6288,包头市,惠龙物流,颗粒物(PM10),82,113,99,47,51,98,,44,44,24,68,20,24,1.7,2.2
2026-02-04T1500,1590A,110.0376,40.5546,包头市,东河鸿龙湾,颗粒物(PM10),72,94,100,36,54,97,,43,43,20,76,19,16,1.0,2.1
2026-02-04T1500,3283A,109.9154,40.5684,包头市,滨河大厦,颗粒物(PM10),70,90,87,37,50,91,,42,42,16,71,13,17,0.6,1.8
2026-02-04T1500,3419A,109.9449,40.6259,包头市,包头市委党校,颗粒物(PM10),85,119,83,55,41,104,,48,48,23,67,19,21,1.7,1.8
2026-02-04T1500,3683A,109.8332,40.6577,包头市,昆区政府,颗粒物(PM10),91,132,88,63,53,80,,47,47,37,66,19,22,1.3,2
2026-02-04T1500,1931A,107.0802,34.3129,宝鸡市,竹园沟,颗粒物(PM10),55,60,89,21,53,86,,43,43,10,25,6,7,0.5,0.7
2026-02-04T1500,1933A,107.1429,34.3549,宝鸡市,监测站,颗粒物(PM10),76,101,113,36,75,83,,38,38,19,35,5,6,0.5,0.7
2026-02-04T1500,1934A,107.1172,34.3759,宝鸡市,技工学校,颗粒物(PM10),76,102,115,37,74,84,,43,43,16,25,4,6,0.5,0.7
2026-02-04T1500,1936A,107.2025,34.3518,宝鸡市,文理学院,颗粒物(PM10),67,83,108,34,71,77,,36,36,18,35,7,6,0.7,0.9
2026-02-04T1500,1937A,107.2396,34.3626,宝鸡市,三迪小学,颗粒物(PM10),79,108,116,41,74,75,,33,33,24,43,6,6,0.6,0.8
2026-02-04T1500,4155A,107.1721,34.3558,宝鸡市,滨河北路,颗粒物(PM10),56,62,113,33,69,71,,45,45,22,29,5,8,0.5,0.9
2026-02-04T1500,4308A,107.3898,34.3601,宝鸡市,陈仓区北开路21号,颗粒物(PM10),74,97,129,48,83,85,,62,62,22,39,10,54,0.5,0.8
2026-02-04T1500,1051A,115.4803,38.8568,保定市,游泳馆,细颗粒物(PM2.5),152,,136,116,123,,,34,34,44,77,12,14,0.8,1.2
2026-02-04T1500,1052A,115.509,38.8895,保定市,华电二区,细颗粒物(PM2.5),133,119,126,101,113,68,,34,34,53,66,6,6,1.1,1.2
2026-02-04T1500,1053A,115.4588,38.9037,保定市,接待中心,细颗粒物(PM2.5),122,119,131,92,108,80,,40,40,31,58,7,6,0.7,0.9
2026-02-04T1500,1054A,115.4484,38.8344,保定市,地表水厂,细颗粒物(PM2.5),112,124,171,84,117,82,,36,36,36,84,10,11,0.7,1.2
2026-02-04T1500,3581A,115.3136,38.9511,保定市,满城区生态环境分局,细颗粒物(PM2.5),117,134,149,88,107,82,,47,47,34,59,8,8,0.7,1.4
2026-02-04T1500,3582A,115.4709,38.7628,保定市,清苑区第二中学,细颗粒物(PM2.5),112,126,203,84,134,91,,34,34,31,71,14,16,0.8,1.3
2026-02-04T1500,3583A,115.6231,39.0223,保定市,徐水物探局,细颗粒物(PM2.5),150,190,175,115,120,78,,38,38,40,66,15,12,0.9,1.2
2026-02-04T1500,4004A,115.4199,38.8665,保定市,双鹰农机,细颗粒物(PM2.5),112,143,166,84,110,90,,52,52,48,64,12,12,1.0,1.2
2026-02-04T1500,4034A,115.515,38.8589,保定市,植保所站,细颗粒物(PM2.5),130,119,144,99,117,76,,38,38,43,80,7,8,1.0,1.4
2026-02-04T1500,2594A,99.1589,25.1137,保山市,市环境监测站,,30,20,27,3,16,94,,72,72,7,10,4,4,0.2,0.3
2026-02-04T1500,2595A,99.1616,25.1381,保山市,市环保局,,34,34,30,14,15,96,,74,74,6,7,3,3,0.4,0.4
2026-02-04T1500,1867A,109.1435,21.4085,北海市,海滩公园,,49,49,45,14,19,132,,96,96,10,11,8,8,0.9,0.9
2026-02-04T1500,1868A,109.0983,21.466,北海市,新市环保局,,41,41,40,14,19,114,,91,91,10,15,6,7,0.5,0.6
2026-02-04T1500,1869A,109.1775,21.5232,北海市,北海工业园,颗粒物(PM10),53,56,61,17,31,112,,78,78,7,15,6,8,0.5,0.8
2026-02-04T1500,3400A,109.1844,21.4396,北海市,龙潭自来水厂,,44,44,42,21,23,119,,88,88,8,10,7,6,0.5,0.6
2026-02-04T1500,1001A,116.3611,39.8786,北京市,万寿西宫,,,102,113,,83,70,,33,33,40,72,5,5,0.7,0.9
2026-02-04T1500,1003A,116.4174,39.9289,北京市,东四,细颗粒物(PM2.5),74,95,111,54,74,55,,33,33,47,61,7,7,0.6,0.9
2026-02-04T1500,1004A,116.4073,39.8858,北京市,天坛,细颗粒物(PM2.5),82,103,113,60,79,59,,29,29,45,62,5,3,0.6,0.9
2026-02-04T1500,1005A,116.4622,39.9364,北京市,农展馆,细颗粒物(PM2.5),72,87,153,52,95,54,,31,31,43,60,6,6,0.6,0.9
2026-02-04T1500,1006A,116.3399,39.9293,北京市,官园,细颗粒物(PM2.5),92,106,103,68,68,53,,26,26,46,65,5,5,0.6,0.8
2026-02-04T1500,1007A,116.2879,39.9613,北京市,海淀万柳,细颗粒物(PM2.5),93,98,88,69,58,56,,5,,47,71,5,4,0.6,0.8
2026-02-04T1500,1008A,116.6635,40.1349,北京市,顺义新城,,30,30,105,13,64,92,,53,53,10,54,5,6,0.3,0.7
2026-02-04T1500,1009A,116.6275,40.327,北京市,怀柔镇,,46,46,70,26,48,79,,46,46,17,24,5,5,0.5,0.7
2026-02-04T1500,1010A,116.2295,40.217,北京市,昌平镇,,34,34,64,15,37,86,,50,50,9,44,3,3,0.5,0.8
2026-02-04T1500,1011A,116.3968,39.982,北京市,奥体中心,细颗粒物(PM2.5),69,83,98,50,64,57,,33,33,15,72,6,6,0.6,0.8
2026-02-04T1500,3418A,116.8336,40.4095,北京市,密云新城,细颗粒物(PM2.5),59,63,100,42,64,76,,55,55,22,45,6,5,0.5,0.6
2026-02-04T1500,3671A,116.0879,39.9725,北京市,门头沟三家店,颗粒物(PM10),62,74,77,43,42,70,,44,44,26,47,5,4,0.6,0.7
2026-02-04T1500,3672A,116.1507,39.8246,北京市,丰台云岗,细颗粒物(PM2.5),99,99,97,74,61,75,,44,44,40,63,6,4,0.8,0.8
2026-02-04T1500,3674A,115.9578,39.7602,北京市,房山燕山,细颗粒物(PM2.5),79,89,80,58,53,66,,44,44,34,46,8,6,0.6,0.9
2026-02-04T1500,3675A,116.4669,39.7734,北京市,大兴旧宫,细颗粒物(PM2.5),95,100,140,71,88,69,,27,27,42,75,6,5,0.8,1.1
2026-02-04T1500,3694A,115.9859,40.4562,北京市,延庆石河营,,39,39,66,19,41,85,,37,37,13,44,6,5,0.4,1
2026-02-04T1500,3695A,116.6151,40.3052,北京市,怀柔新城,,45,45,70,24,47,77,,44,44,20,38,5,6,0.4,0.6
2026-02-04T1500,3696A,116.2542,39.8764,北京市,丰台小屯,细颗粒物(PM2.5),89,106,120,66,74,59,,23,23,40,72,6,5,0.7,1
2026-02-04T1500,3697A,116.8399,40.3843,北京市,密云镇,颗粒物(PM10),63,75,96,40,62,78,,44,44,20,55,5,4,0.5,0.8
2026-02-04T1500,4057A,115.9423,40.4431,北京市,延庆百泉,,37,37,63,19,42,81,,32,32,8,40,5,4,0.4,0.8
2026-02-04T1500,4058A,116.6598,39.9164,北京市,通州新华,颗粒物(PM10),64,77,122,41,83,50,,28,28,41,79,4,12,0.7,1.1
2026-02-04T1500,4182A,116.1942,39.9158,北京市,石景山八角,细颗粒物(PM2.5),77,98,100,56,56,63,,30,30,36,67,2,2,0.5,0.7
2026-02-04T1500,4194A,117.078628,40.151726,北京市,平谷新城,颗粒物(PM10),52,53,146,34,109,74,,43,43,20,46,5,5,0.7,1.1
2026-02-04T1500,1761A,123.8274146,41.31234549,本溪市,大峪,细颗粒物(PM2.5),124,142,109,94,69,69,,64,61,40,30,10,11,1.0,0.9
2026-02-04T1500,1763A,123.7169,41.3094,本溪市,彩屯,细颗粒物(PM2.5),138,134,98,105,73,56,,54,54,36,43,18,22,2.5,3
2026-02-04T1500,1764A,123.7672166,41.28649327,本溪市,东明,细颗粒物(PM2.5),83,91,69,61,120,73,,76,72,26,22,11,12,1.0,0.9
2026-02-04T1500,1765A,123.799345,41.266614,本溪市,新立屯,细颗粒物(PM2.5),120,133,76,91,63,77,,81,76,33,23,11,13,1.0,0.9
2026-02-04T1500,1766A,123.829144,41.336777,本溪市,威宁,细颗粒物(PM2.5),113,121,92,85,62,58,,50,50,34,33,15,11,1.1,1
2026-02-04T1500,2587A,105.287,27.3133,毕节市,八中,细颗粒物(PM2.5),60,68,39,43,23,74,,37,37,16,14,19,10,0.9,1
2026-02-04T1500,2588A,105.3079,27.2987,毕节市,师专,颗粒物(PM10),52,53,33,30,21,77,,37,37,16,15,21,10,0.8,0.9
2026-02-04T1500,4263A,105.3688,27.3598,毕节市,工业大道,颗粒物(PM10),52,54,33,33,24,79,,42,42,13,13,12,10,/,/
2026-02-04T1500,1629A,117.9961,37.3604,滨州市,第二水厂,细颗粒物(PM2.5),145,149,131,111,100,87,,56,56,26,44,19,15,0.9,0.8
2026-02-04T1500,1630A,117.9789,37.3931,滨州市,北中新校,细颗粒物(PM2.5),147,153,135,112,99,92,,66,66,24,32,18,12,1.0,0.9
2026-02-04T1500,3514A,117.9379,37.3959,滨州市,中海酒店,细颗粒物(PM2.5),142,151,133,108,102,104,,79,79,27,34,21,18,1.0,0.9
2026-02-04T1500,3515A,117.9381509,37.35547456,滨州市,开发区一中,细颗粒物(PM2.5),142,163,145,108,103,82,,61,61,23,39,24,19,1.1,1
2026-02-04T1500,3516A,118.0914,37.6938,滨州市,金海六路,细颗粒物(PM2.5),159,151,145,121,112,103,,62,62,20,55,16,13,0.8,1
2026-02-04T1500,4028A,117.9955,37.3752,滨州市,滨州市西街道办事处,细颗粒物(PM2.5),140,153,130,107,96,93,,65,65,23,34,20,14,0.8,0.8
2026-02-04T1500,2311A,115.8071,33.8399,亳州市,污水处理厂,细颗粒物(PM2.5),109,106,95,82,67,112,,79,79,20,26,6,6,0.6,0.5
2026-02-04T1500,2312A,115.7789,33.8519,亳州市,三国揽胜宫,细颗粒物(PM2.5),103,116,111,77,68,104,,69,69,31,31,6,6,0.6,0.6
2026-02-04T1500,3332A,115.7631,33.803,亳州市,亳州学院,细颗粒物(PM2.5),100,103,101,75,70,113,,71,71,20,26,4,4,1.0,0.8
2026-02-04T1500,2693A,82.0482,44.8553,博尔塔拉蒙古自治州,市党校,颗粒物(PM10),59,68,97,30,57,66,,57,56,28,27,12,5,0.3,0.5
2026-02-04T1500,2694A,82.0805,44.8966,博尔塔拉蒙古自治州,市环保局,细颗粒物(PM2.5),75,78,122,55,77,54,,43,43,45,37,24,7,1.1,1.3
2026-02-04T1500,1071A,116.8733,38.2922,沧州市,沧县城建局,细颗粒物(PM2.5),122,119,149,92,120,89,,55,55,29,33,4,7,0.7,0.8
2026-02-04T1500,1072A,116.8462,38.3189,沧州市,电视转播站,细颗粒物(PM2.5),139,120,152,106,131,96,,56,56,23,34,6,6,0.7,0.9
2026-02-04T1500,1073A,116.8588,38.3161,沧州市,市环保局,,,141,153,,117,80,,47,47,29,35,9,8,0.8,0.9
2026-02-04T1500,3324A,116.8011,38.294,沧州市,河北水利电力学院,细颗粒物(PM2.5),144,127,165,110,125,82,,47,47,22,32,10,9,0.6,0.8
2026-02-04T1500,2622A,97.1813,31.1289,昌都市,昌都监测站,,30,12,19,3,8,96,,64,64,1,10,3,3,0.1,0.3
2026-02-04T1500,3719A,97.1707,31.1428,昌都市,昌都会议中心,,25,6,10,3,8,79,,59,59,1,3,4,4,0.1,0.2
2026-02-04T1500,2692A,87.2722,44.0298,昌吉回族自治州,新区政务中心,细颗粒物(PM2.5),90,96,142,67,107,87,,65,65,31,37,9,8,1.1,1.5
2026-02-04T1500,3613A,87.3069,44.0093,昌吉回族自治州,亚心广场,细颗粒物(PM2.5),110,112,147,83,115,98,,80,70,16,22,10,8,1.0,1.3
2026-02-04T1500,4164A,87.2057,43.9289,昌吉回族自治州,财政所,,,96,130,,103,130,,90,90,10,17,8,5,1.2,1.1
2026-02-04T1500,1120A,125.2874,43.9024,长春市,客车厂,,43,43,105,26,91,73,,51,51,29,57,10,13,0.5,1.3
2026-02-04T1500,1121A,125.2943,43.8508,长春市,邮电学院,,40,38,100,28,81,77,,54,54,18,49,10,14,0.4,1.2
2026-02-04T1500,1122A,125.3648,43.8745,长春市,劳动公园,,,,150,23,95,82,,56,56,,51,6,8,0.5,1.6
2026-02-04T1500,1123A,125.3233,43.8781,长春市,园林处,,38,35,102,26,89,80,,52,52,14,45,8,16,0.4,1.2
2026-02-04T1500,1124A,125.4604,43.7904,长春市,净月潭,细颗粒物(PM2.5),77,65,92,56,71,79,,50,50,19,30,8,9,0.6,0.9
2026-02-04T1500,1126A,125.38,43.8422,长春市,经开区环卫处,,49,49,101,34,77,80,,48,48,17,55,7,9,0.4,1.1
2026-02-04T1500,1127A,125.234,43.7761,长春市,高新区管委会,颗粒物(PM10),51,51,105,30,83,78,,45,45,25,57,10,10,0.4,1.2
2026-02-04T1500,1128A,125.1695,43.83,长春市,岱山公园,,42,39,98,29,83,72,,49,49,30,52,9,10,0.3,0.9
2026-02-04T1500,4281A,125.334645,43.916281,长春市,北亚泰大街1068号,,45,43,128,31,116,78,,50,50,17,54,9,13,0.4,1.3
2026-02-04T1500,1335A,113.082,28.2421,长沙市,经开区环保局,细颗粒物(PM2.5),75,96,74,55,40,32,,32,20,37,32,5,4,0.7,0.6
2026-02-04T1500,1336A,112.8873,28.2202,长沙市,高开区环保局,,,91,87,58,51,30,,17,17,43,49,7,6,,1
2026-02-04T1500,1337A,113.0785,28.2012,长沙市,马坡岭,细颗粒物(PM2.5),73,90,83,53,46,59,,31,31,20,35,6,6,0.8,0.8
2026-02-04T1500,1338A,112.9448,28.1894,长沙市,湖南师范大学,细颗粒物(PM2.5),72,92,84,52,41,33,,22,22,41,44,5,4,1.0,0.9
2026-02-04T1500,1339A,113.0177,28.1322,长沙市,雨花区环保局,细颗粒物(PM2.5),70,83,79,51,43,32,,21,21,39,49,9,9,0.8,0.7
2026-02-04T1500,1340A,112.9795,28.2593,长沙市,伍家岭,细颗粒物(PM2.5),82,106,99,60,50,27,,15,15,45,51,6,6,0.9,0.9
2026-02-04T1500,1341A,113.002,28.1944,长沙市,火车新站,细颗粒物(PM2.5),85,102,87,63,49,32,,24,24,51,51,4,4,1.2,1
2026-02-04T1500,1342A,112.9846,28.1177,长沙市,天心区环保局,细颗粒物(PM2.5),77,85,79,56,44,37,,29,29,39,46,7,6,0.7,0.7
2026-02-04T1500,1343A,112.8906,28.1307,长沙市,湖南中医药大学,颗粒物(PM10),70,90,95,50,47,34,,16,16,43,58,8,6,0.9,1
2026-02-04T1500,1727A,113.1146,36.1547,长治市,清华站,颗粒物(PM10),57,64,70,33,56,104,,66,66,21,26,13,12,0.6,0.9
2026-02-04T1500,1730A,113.0887,36.2126,长治市,审计局,"颗粒物(PM10),细颗粒物(PM2.5)",57,64,75,40,58,106,,71,71,14,24,13,13,0.6,0.9
2026-02-04T1500,1731A,113.0845,36.1856,长治市,长治八中,"颗粒物(PM10),细颗粒物(PM2.5)",69,88,90,50,63,106,,66,66,10,23,13,15,0.6,1.1
2026-02-04T1500,2845A,113.1561,36.1912,长治市,德盛苑,颗粒物(PM10),56,61,62,34,56,111,,85,85,12,16,11,15,0.6,0.9
2026-02-04T1500,3568A,113.0603,36.0464,长治市,向阳小学,颗粒物(PM10),66,82,105,38,63,113,,86,86,26,34,13,15,0.7,0.9
2026-02-04T1500,3569A,112.8788,36.315,长治市,屯留一中,颗粒物(PM10),65,80,78,43,58,113,,71,71,16,28,10,17,0.0,0.6
2026-02-04T1500,4189A,113.113092,36.199482,长治市,英华南巷50号,颗粒物(PM10),58,66,76,35,56,111,,70,70,19,24,11,13,0.6,1
2026-02-04T1500,4190A,113.23666,36.33435,长治市,学府街1号,颗粒物(PM10),68,85,75,45,56,106,,69,69,33,28,19,15,1.5,1.1
2026-02-04T1500,1854A,111.696,28.9725,常德市,市二中,细颗粒物(PM2.5),108,144,145,81,97,50,,26,26,21,34,6,7,1.2,1.2
2026-02-04T1500,3138A,111.7152,29.0288,常德市,武陵区永安,细颗粒物(PM2.5),105,135,156,79,100,60,,26,26,20,38,5,7,1.1,1.2
2026-02-04T1500,3139A,111.6891,28.9881,常德市,鼎城区玉霞,细颗粒物(PM2.5),103,141,150,77,99,54,,24,24,25,39,8,10,1.2,1.2
2026-02-04T1500,3140A,111.6651,29.0526,常德市,武陵区长庚,细颗粒物(PM2.5),113,116,144,85,99,52,,24,24,21,36,5,6,0.9,1
2026-02-04T1500,1196A,119.9524,31.7586,常州市,市监测站,细颗粒物(PM2.5),87,98,84,64,57,110,,66,66,28,38,12,8,0.7,0.6
2026-02-04T1500,1200A,119.9351,31.703,常州市,武进监测站,细颗粒物(PM2.5),80,86,76,59,54,100,,64,64,26,28,11,8,0.5,0.4
2026-02-04T1500,3002A,119.9701,31.813,常州市,行政中心,细颗粒物(PM2.5),87,87,86,64,60,104,,62,62,24,36,8,9,0.8,0.9
2026-02-04T1500,3003A,120.0434,31.7726,常州市,经开区,细颗粒物(PM2.5),77,89,95,56,55,110,,63,63,15,34,6,8,0.9,0.7
2026-02-04T1500,3010A,119.8919,31.7892,常州市,钟楼,细颗粒物(PM2.5),85,99,86,63,59,104,,60,60,24,30,10,9,0.8,0.7
2026-02-04T1500,3429A,119.8595,31.706,常州市,武进经发区,细颗粒物(PM2.5),95,94,82,71,64,106,,66,66,26,32,10,8,1.1,0.9
2026-02-04T1500,3430A,119.5812,31.7256,常州市,金坛城区,,,43,93,33,71,104,,61,61,8,25,9,8,,0.6
2026-02-04T1500,4089A,119.9551,31.863,常州市,崇义南街5-H号,细颗粒物(PM2.5),87,84,82,64,59,114,,65,65,20,47,8,8,0.8,0.9
2026-02-04T1500,2220A,120.4318,41.588,朝阳市,西梁,,39,39,56,15,36,89,,77,77,14,23,8,11,0.4,0.8
2026-02-04T1500,2221A,120.452,41.565,朝阳市,河畔小区,,28,25,43,10,30,87,,78,78,8,20,10,12,0.4,0.7
2026-02-04T1500,2222A,120.4176,41.5648,朝阳市,八里堡,,30,30,51,17,36,84,,74,74,13,26,10,12,0.4,0.8
2026-02-04T1500,3026A,116.6179,23.6608,潮州市,市政府,颗粒物(PM10),65,79,74,34,44,168,,109,109,14,15,8,8,0.5,0.5
2026-02-04T1500,4036A,116.646,23.676,潮州市,金山,臭氧1小时(O3_1h),57,58,61,28,40,165,,107,107,15,16,6,4,0.6,0.6
2026-02-04T1500,2473A,113.0116,25.8228,郴州市,市职中,,35,34,58,21,42,109,,56,56,11,27,10,10,0.4,0.7
2026-02-04T1500,2475A,113.0381,25.8074,郴州市,市审计局,,30,29,62,17,40,94,,51,51,12,36,3,5,/,/
2026-02-04T1500,2476A,113.0348,25.7757,郴州市,市环保局,,40,40,78,19,45,106,,62,62,11,39,4,8,0.2,0.6
2026-02-04T1500,4252A,113.0138,25.8011,郴州市,好美居路49号,,36,36,60,22,31,110,,79,79,12,37,6,7,/,/
2026-02-04T1500,1431A,103.9727,30.7242,成都市,金泉两河,细颗粒物(PM2.5),84,92,111,62,76,90,,50,50,24,36,2,2,1.0,1
2026-02-04T1500,1432A,104.1423,30.6765,成都市,十里店,细颗粒物(PM2.5),88,117,117,65,70,82,,34,34,34,42,4,4,0.8,0.8
2026-02-04T1500,1433A,104.0594,30.5765,成都市,三瓦窑,细颗粒物(PM2.5),94,124,114,70,74,60,,26,26,49,46,4,4,1.4,1.2
2026-02-04T1500,1434A,104.1122,30.6306,成都市,沙河铺,细颗粒物(PM2.5),89,92,114,66,71,63,,20,19,44,48,4,3,1.0,1
2026-02-04T1500,2880A,104.0219,30.6561,成都市,大石西路,细颗粒物(PM2.5),94,101,114,70,82,89,,46,46,21,33,5,5,0.9,1
2026-02-04T1500,3136A,104.2724,30.559,成都市,龙泉驿区区政府,细颗粒物(PM2.5),80,85,93,59,69,87,,40,40,15,27,7,6,0.9,0.9
2026-02-04T1500,3357A,104.0028,30.6891,成都市,金博路,细颗粒物(PM2.5),64,74,105,46,74,92,,52,52,21,40,5,5,0.9,1
2026-02-04T1500,3359A,104.056,30.5228,成都市,华阳,细颗粒物(PM2.5),105,114,106,79,74,71,,28,28,41,43,3,3,1.3,1.2
2026-02-04T1500,3488A,104.387954,30.746684,成都市,青石路225号,细颗粒物(PM2.5),72,74,116,52,76,97,,34,34,16,41,1,2,0.9,1.1
2026-02-04T1500,3489A,104.0788,30.4054,成都市,科学城,细颗粒物(PM2.5),120,116,116,91,74,43,,18,18,26,29,7,7,1.1,1.1
2026-02-04T1500,4011A,103.8505,30.6946,成都市,光华大道三段,,,105,125,62,76,90,,57,57,25,33,3,8,,1
2026-02-04T1500,4144A,104.3257,30.6406,成都市,八角井街185号,细颗粒物(PM2.5),82,88,111,60,71,78,,35,35,22,35,5,4,0.7,0.8
2026-02-04T1500,4224A,104.2433276,30.53529463,成都市,鲸龙路1057号,细颗粒物(PM2.5),79,88,101,58,67,86,,32,32,18,33,6,6,0.9,0.9
2026-02-04T1500,1062A,117.9531,40.908,承德市,铁路,颗粒物(PM10),66,82,84,22,54,58,,12,,33,43,14,10,0.7,1.2
2026-02-04T1500,1063A,117.9397,40.9763,承德市,中国银行,颗粒物(PM10),64,78,80,33,46,61,,33,33,31,43,11,6,0.9,1.1
2026-02-04T1500,4073A,117.9462,40.95,承德市,杏林街1号,细颗粒物(PM2.5),65,75,75,47,51,66,,36,36,29,41,14,8,0.9,1.2
2026-02-04T1500,4274A,117.7994,40.9605,承德市,滨河大街98号,细颗粒物(PM2.5),88,86,73,65,51,58,,30,30,50,45,125,28,2.6,1.5
2026-02-04T1500,2314A,117.4698,30.6617,池州市,池州学院,细颗粒物(PM2.5),65,66,73,47,50,81,,55,55,24,37,8,6,1.2,1.2
2026-02-04T1500,3237A,117.4918,30.6617,池州市,展览馆,"颗粒物(PM10),细颗粒物(PM2.5)",59,67,77,42,45,81,,53,53,24,38,8,4,1.1,1
2026-02-04T1500,3333A,117.5626,30.695,池州市,第八中学,细颗粒物(PM2.5),58,64,73,41,43,85,,57,57,21,34,9,5,1.0,0.9
2026-02-04T1500,3334A,117.5037,30.6242,池州市,第十二中学,颗粒物(PM10),63,76,80,42,46,83,,57,57,24,41,12,4,0.9,1.1
2026-02-04T1500,1744A,118.9229,42.2816,赤峰市,松山一中,,41,41,43,15,25,54,,45,45,28,38,20,8,1.4,1.1
2026-02-04T1500,1745A,118.9588,42.2733,赤峰市,哈达街,,47,47,40,21,20,50,,55,54,40,26,56,17,1.5,1.1
2026-02-04T1500,1746A,118.8792,42.2551,赤峰市,天义路,,23,22,26,16,19,61,,48,48,20,33,27,24,0.5,0.8
2026-02-04T1500,3058A,119.2656,42.0356,赤峰市,银河街,,25,16,46,10,23,77,,70,70,7,14,12,15,0.7,0.9
2026-02-04T1500,3286A,118.9359,42.3146,赤峰市,桥北物流园区,,25,24,35,14,21,78,,62,62,12,30,6,5,0.8,0.9
2026-02-04T1500,2521A,107.3473,22.4137,崇左市,市环保局江州分局,细颗粒物(PM2.5),65,74,98,47,78,104,,41,41,10,26,5,5,0.8,1.1
2026-02-04T1500,4256A,107.375,22.3736,崇左市,石景林东路7号,细颗粒物(PM2.5),68,67,90,49,84,69,,30,30,15,31,3,8,0.7,0.9
2026-02-04T1500,3207A,118.31131,32.3033,滁州市,市政府原办公楼,细颗粒物(PM2.5),70,65,88,51,77,104,,36,,13,35,5,5,0.4,0.5
2026-02-04T1500,3331A,118.3268,32.2633,滁州市,图书馆,颗粒物(PM10),54,57,84,29,58,114,,72,72,27,37,9,8,0.5,0.6
2026-02-04T1500,4101A,118.3196,32.3335,滁州市,银山路666号,细颗粒物(PM2.5),60,51,85,43,80,122,,80,80,10,30,20,12,0.6,0.7
2026-02-04T1500,4102A,118.3426,32.2979,滁州市,黄山路555号,细颗粒物(PM2.5),65,68,105,47,78,126,,77,77,29,40,8,6,0.5,0.6
2026-02-04T1500,2606A,101.5379,25.0492,楚雄彝族自治州,市经济开发区,,25,8,29,3,23,79,,53,53,4,29,2,4,0.4,0.6
2026-02-04T1500,4153A,101.5536,25.0343,楚雄彝族自治州,团结路562号,,25,14,29,3,18,79,,50,50,3,16,3,4,0.4,0.6
2026-02-04T1500,2549A,107.5087,31.2186,达州市,市环境监测站,细颗粒物(PM2.5),93,116,105,69,61,18,,7,7,50,45,14,8,0.9,1
2026-02-04T1500,2550A,107.4988,31.2132,达州市,凤凰小区,细颗粒物(PM2.5),92,114,108,68,62,22,,8,8,48,47,15,7,0.7,0.8
2026-02-04T1500,2551A,107.5081,31.1987,达州市,达县机关宾馆,颗粒物(PM10),76,102,119,50,67,28,,8,8,44,51,11,7,0.9,1.1
2026-02-04T1500,2552A,107.4644,31.2124,达州市,市政中心,,,137,114,70,61,13,,7,7,58,52,12,7,,1
2026-02-04T1500,2614A,100.2168,25.5818,大理白族自治州,大理市环境监测站,,25,17,21,7,13,80,,73,72,8,8,7,7,0.4,0.4
2026-02-04T1500,2615A,100.1542,25.7055,大理白族自治州,大理古城,,26,13,24,3,16,83,,74,74,4,10,7,8,0.4,0.6
2026-02-04T1500,1109A,121.6119,38.974,大连市,甘井子,细颗粒物(PM2.5),163,162,130,124,99,79,,56,56,45,43,12,13,0.5,0.6
2026-02-04T1500,1110A,121.565,38.9509,大连市,周水子,细颗粒物(PM2.5),160,156,115,122,95,73,,56,56,35,35,6,11,3.5,1.1
2026-02-04T1500,1111A,121.5637,38.8849,大连市,星海三站,细颗粒物(PM2.5),163,142,110,124,96,76,,58,58,24,26,8,8,0.9,0.9
2026-02-04T1500,1112A,121.6301,38.9117,大连市,青泥洼桥,细颗粒物(PM2.5),158,141,117,120,96,88,,70,70,28,30,12,11,0.9,0.9
2026-02-04T1500,1113A,121.6248,38.8643,大连市,傅家庄,细颗粒物(PM2.5),152,148,129,116,91,80,,62,62,24,29,11,9,1.1,1.1
2026-02-04T1500,1114A,121.5117,38.8636,大连市,七贤岭,细颗粒物(PM2.5),148,144,116,113,93,86,,64,64,32,32,16,13,1.0,0.9
2026-02-04T1500,1116A,121.7507,39.1339,大连市,金州,细颗粒物(PM2.5),159,153,123,121,97,100,,53,53,27,38,14,15,0.8,0.7
2026-02-04T1500,1117A,121.7811,39.0495,大连市,开发区,细颗粒物(PM2.5),159,152,113,121,92,74,,59,59,30,27,9,8,0.9,0.8
2026-02-04T1500,1118A,121.9762,39.0631,大连市,双D港,细颗粒物(PM2.5),163,131,108,124,91,74,,63,63,46,36,13,12,1.1,1
2026-02-04T1500,4082A,121.2548,38.8188,大连市,旅顺,细颗粒物(PM2.5),147,144,121,112,96,91,,66,66,22,24,12,11,0.9,0.8
2026-02-04T1500,1789A,124.8085,46.0381,大庆市,大同区,,24,21,35,14,21,76,,70,70,4,13,7,8,0.3,0.5
2026-02-04T1500,1790A,125.1166,46.5255,大庆市,龙凤区,,23,22,40,15,22,72,,62,62,12,22,8,9,0.5,0.6
2026-02-04T1500,1791A,124.8894,46.4007,大庆市,红岗区,,22,17,33,8,21,69,,61,61,8,17,6,6,0.5,0.6
2026-02-04T1500,1792A,125.1391,46.578,大庆市,萨尔图区,,31,31,37,11,21,66,,49,48,13,24,10,10,0.3,0.4
2026-02-04T1500,1793A,124.9026,46.6217,大庆市,让胡路区,,25,15,27,7,17,77,,67,66,6,16,6,8,0.3,0.4
2026-02-04T1500,3481A,125.127,46.6277,大庆市,萨区政府监测点,,24,23,40,9,21,74,,62,62,8,18,8,8,0.5,0.7
2026-02-04T1500,1723A,113.2926,40.0759,大同市,云冈宾馆,颗粒物(PM10),55,60,84,9,35,81,,43,43,14,50,5,14,0.3,1
2026-02-04T1500,1724A,113.3437,40.0921,大同市,大同大学,颗粒物(PM10),61,71,84,14,32,88,,50,50,11,44,4,16,0.4,0.9
2026-02-04T1500,1725A,113.2637,40.129,大同市,安家小村,颗粒物(PM10),62,74,106,12,44,81,,45,45,12,49,5,18,0.3,2.5
2026-02-04T1500,3282A,113.3399,40.0586,大同市,大同市卫生学校,颗粒物(PM10),60,69,87,18,35,95,,20,,16,52,4,13,0.4,0.9
2026-02-04T1500,3565A,113.1371,40.1122,大同市,云冈站,颗粒物(PM10),59,68,81,17,32,82,,48,48,13,46,5,22,0.4,0.7
2026-02-04T1500,3566A,113.1186,40.2556,大同市,图书馆,颗粒物(PM10),61,71,68,18,34,82,,55,55,15,28,4,14,0.5,0.9
2026-02-04T1500,3567A,113.5931,40.0459,大同市,区一中,颗粒物(PM10),70,89,199,37,78,88,,50,50,10,50,10,33,0.4,1.3
2026-02-04T1500,4199A,113.2798248,40.09972476,大同市,魏都大道141号,颗粒物(PM10),63,76,106,21,44,89,,49,49,13,55,4,14,0.5,1.5
2026-02-04T1500,2269A,124.1068,50.4091,大兴安岭地区,科技局,,21,17,22,12,12,66,,61,61,2,4,5,5,0.2,0.2
2026-02-04T1500,3663A,124.117,50.4279,大兴安岭地区,红旗社区,,25,17,22,7,16,78,,61,61,5,18,4,6,0.1,0.2
2026-02-04T1500,1600A,124.33,40.0625,丹东市,江湾东路,细颗粒物(PM2.5),103,110,75,77,53,74,,67,67,19,20,9,10,0.8,1
2026-02-04T1500,1601A,124.4242,40.1513,丹东市,临江后街,细颗粒物(PM2.5),115,116,87,87,62,79,,52,52,15,32,12,11,0.8,0.9
2026-02-04T1500,1602A,124.3935,40.1461,丹东市,元宝山,细颗粒物(PM2.5),108,120,76,81,49,76,,59,59,24,20,16,13,1.1,0.9
2026-02-04T1500,1603A,124.3634,40.1093,丹东市,民主桥,细颗粒物(PM2.5),113,123,93,85,63,73,,45,45,21,39,14,13,0.9,1.3
2026-02-04T1500,3541A,109.5726195,19.51688767,儋州市,第一中学子站,,23,11,26,3,11,72,,60,60,3,5,4,5,0.6,0.6
2026-02-04T1500,3542A,109.5567,19.5187,儋州市,东坡学校子站,,28,8,26,3,10,87,,74,74,3,7,4,5,0.5,0.6
2026-02-04T1500,2616A,98.5611,24.4273,德宏傣族景颇族自治州,德宏州监测站,颗粒物(PM10),54,58,70,36,49,100,,45,45,14,29,7,6,0.9,1
2026-02-04T1500,3677A,98.5887,24.4366,德宏傣族景颇族自治州,芒市人民政府综合楼,颗粒物(PM10),67,83,64,37,38,94,,43,43,13,17,5,4,0.8,0.8
2026-02-04T1500,1901A,104.424,31.1209,德阳市,东山公园,细颗粒物(PM2.5),89,83,88,66,76,80,,36,36,18,30,2,2,0.9,0.9
2026-02-04T1500,1902A,104.3827,31.1318,德阳市,西小区,细颗粒物(PM2.5),92,105,106,68,79,83,,31,31,26,34,5,5,1.1,1.2
2026-02-04T1500,1904A,104.3553,31.1091,德阳市,耐火材料厂,细颗粒物(PM2.5),102,93,97,76,83,70,,30,30,36,36,4,4,0.8,1
2026-02-04T1500,4145A,104.4144,31.1495,德阳市,市林业局,细颗粒物(PM2.5),83,79,98,61,76,87,,31,31,20,44,5,6,0.8,1
2026-02-04T1500,1622A,116.3034,37.4675,德州市,儿童乐园,细颗粒物(PM2.5),143,156,156,109,105,112,,63,63,30,36,16,14,1.3,1.2
2026-02-04T1500,1624A,116.2992,37.4449,德州市,监理站,细颗粒物(PM2.5),138,163,157,105,103,111,,65,65,34,41,16,14,1.1,1
2026-02-04T1500,3066A,116.2722,37.438,德州市,九衢泉纯净水厂,细颗粒物(PM2.5),165,173,150,125,112,93,,54,54,43,43,14,8,1.1,1
2026-02-04T1500,3371A,116.3693,37.44,德州市,开发区人民医院,细颗粒物(PM2.5),135,156,159,103,107,115,,67,67,20,26,16,14,0.9,1
2026-02-04T1500,3511A,116.5687,37.3331,德州市,陵城艺术中心,细颗粒物(PM2.5),155,151,145,118,111,88,,49,49,40,38,18,14,1.4,1.3
2026-02-04T1500,4292A,116.352738,37.420875,德州市,新河东路,细颗粒物(PM2.5),143,134,144,109,99,98,,54,54,34,37,18,14,1.0,1
2026-02-04T1500,2621A,99.7054,27.8319,迪庆藏族自治州,迪庆州站,,27,10,20,3,10,84,,72,72,4,8,4,5,0.4,0.6
2026-02-04T1500,3180A,99.7122,27.8129,迪庆藏族自治州,质量技术监督局,,29,19,18,3,9,90,,75,71,4,9,4,4,0.4,0.4
2026-02-04T1500,4257A,104.6092,35.5962,定西市,将台街,颗粒物(PM10),59,67,106,32,53,108,,48,48,6,26,12,13,0.4,1
2026-02-04T1500,4309A,104.6159,35.5701,定西市,正龙路62号,颗粒物(PM10),65,80,103,36,49,102,,57,57,8,14,10,8,0.7,0.9
2026-02-04T1500,1390A,113.7943,23.0132,东莞市,东城石井,臭氧1小时(O3_1h),103,75,71,43,42,205,,117,117,38,40,6,7,0.7,0.7
2026-02-04T1500,1391A,113.7384,22.9659,东莞市,南城西平,臭氧1小时(O3_1h),95,62,65,40,46,196,,101,101,34,43,6,6,0.6,0.7
2026-02-04T1500,3319A,113.7283,23.041,东莞市,万江金泰,臭氧1小时(O3_1h),85,61,82,40,48,188,,110,110,22,38,5,6,0.8,0.9
2026-02-04T1500,4129A,113.8666,23.1062,东莞市,裕兴路,,,44,73,20,37,159,,110,110,,33,6,6,,0.9
2026-02-04T1500,4130A,114.0076,22.9739,东莞市,教育路1号,,,,69,,38,188,,108,108,,33,4,5,0.6,0.7
2026-02-04T1500,4131A,113.7981,22.8124,东莞市,长怡路1号,臭氧1小时(O3_1h),70,66,68,37,34,176,,101,101,28,38,7,7,0.8,0.8
2026-02-04T1500,1666A,118.6612,37.4313,东营市,市环保局,细颗粒物(PM2.5),127,122,128,96,100,112,,73,73,29,50,20,20,0.9,1
2026-02-04T1500,3036A,118.6903,37.4337,东营市,开发区管委会,细颗粒物(PM2.5),124,132,129,94,100,112,,78,78,23,47,15,16,0.7,0.8
2026-02-04T1500,3365A,118.5721,37.5654,东营市,垦利区民丰路,细颗粒物(PM2.5),140,119,121,107,101,112,,69,69,31,48,13,13,0.8,0.9
2026-02-04T1500,3498A,118.5063,37.8606,东营市,河口城区,细颗粒物(PM2.5),148,151,145,113,106,109,,74,74,30,51,12,14,1.1,1.2
2026-02-04T1500,3646A,118.4979,37.4623,东营市,胜利站,细颗粒物(PM2.5),118,128,125,89,89,101,,62,62,29,54,14,14,1.1,1.1
2026-02-04T1500,3734A,118.5753,37.4405,东营市,理想之城,细颗粒物(PM2.5),117,129,126,88,88,112,,70,70,30,61,13,12,0.9,0.9
2026-02-04T1500,1591A,110.0024,39.8127,鄂尔多斯市,综合楼,颗粒物(PM10),87,124,81,14,22,97,,75,73,7,20,7,10,0.4,0.5
2026-02-04T1500,1592A,109.9485,39.8259,鄂尔多斯市,巴音孟克林场办事处,颗粒物(PM10),76,102,74,24,24,100,,89,89,6,15,7,9,0.3,0.4
2026-02-04T1500,1593A,109.7734,39.5987,鄂尔多斯市,康泽苑,,,78,69,14,22,100,,69,69,7,18,,5,0.3,0.5
2026-02-04T1500,1594A,109.8121,39.5987,鄂尔多斯市,华泰汽车城,颗粒物(PM10),65,80,65,18,21,112,,62,62,7,24,7,7,0.4,0.6
2026-02-04T1500,1595A,109.9734,39.7884,鄂尔多斯市,奥林花园,颗粒物(PM10),80,110,79,14,20,92,,64,64,13,29,7,6,0.3,0.4
2026-02-04T1500,2436A,114.894,30.3989,鄂州市,市政府,细颗粒物(PM2.5),72,72,86,52,60,58,,33,33,30,45,7,7,0.7,0.8
2026-02-04T1500,2437A,114.8986,30.3714,鄂州市,赵家坝,细颗粒物(PM2.5),64,75,87,46,60,54,,39,39,33,34,10,10,1.0,1.1
2026-02-04T1500,3654A,114.8093,30.4091,鄂州市,精准医疗中心,,,80,99,53,66,64,,31,31,37,53,,23,0.5,0.8
2026-02-04T1500,2454A,109.4978,30.2979,恩施土家族苗族自治州,湖北民院,细颗粒物(PM2.5),78,84,103,57,58,50,,24,24,2,16,6,6,0.8,0.9
2026-02-04T1500,3549A,109.5061,30.3771,恩施土家族苗族自治州,龙凤新区,细颗粒物(PM2.5),79,84,74,58,49,47,,19,19,20,16,7,7,0.7,0.7
2026-02-04T1500,2499A,108.3411,21.6159,防城港市,沙万,,45,39,52,31,28,40,,65,52,52,32,8,8,1.1,1.2
2026-02-04T1500,2500A,108.3515,21.7733,防城港市,防城档案局,,40,33,57,28,41,73,,42,42,16,18,5,6,0.8,0.9
2026-02-04T1500,2501A,108.3506,21.6414,防城港市,大海花园,细颗粒物(PM2.5),60,,41,43,32,52,,74,66,53,22,11,9,1.7,0.9
2026-02-04T1500,1371A,113.1293,23.0065,佛山市,湾梁,颗粒物(PM10),54,58,69,27,40,121,,74,74,26,52,/,/,/,/
2026-02-04T1500,1372A,113.1082,23.0477,佛山市,华材职中,细颗粒物(PM2.5),74,68,69,54,52,128,,80,80,20,38,6,6,0.7,0.8
2026-02-04T1500,1373A,113.1439,23.045,佛山市,南海气象局,,49,46,61,34,48,119,,73,73,27,52,/,/,/,/
2026-02-04T1500,1374A,113.2879,22.8094,佛山市,顺德苏岗,颗粒物(PM10),55,59,58,34,37,134,,83,83,28,39,/,/,0.6,0.6
2026-02-04T1500,1376A,112.8384,22.8678,佛山市,高明孔堂,细颗粒物(PM2.5),58,44,54,41,40,120,,67,67,22,30,/,/,/,/
2026-02-04T1500,1377A,112.8835,23.1584,佛山市,三水监测站,细颗粒物(PM2.5),98,107,106,73,61,121,,55,55,50,90,2,5,0.6,0.7
2026-02-04T1500,1378A,112.8668,23.185,佛山市,三水云东海,细颗粒物(PM2.5),92,91,81,68,52,125,,57,57,49,65,/,/,/,/
2026-02-04T1500,3625A,113.2568,22.7629,佛山市,容桂街道办,颗粒物(PM10),62,73,69,38,41,131,,81,81,32,37,/,/,/,/
2026-02-04T1500,1282A,119.2681,26.0506,福州市,师大,,36,36,48,13,27,108,,76,76,14,20,3,4,0.4,0.5
2026-02-04T1500,1283A,119.2983,26.1028,福州市,五四北路,,33,29,39,16,24,103,,71,71,15,19,4,5,0.5,0.5
2026-02-04T1500,1284A,119.2648,26.0769,福州市,杨桥西路,,34,29,42,12,24,107,,73,73,10,18,4,5,/,/
2026-02-04T1500,3048A,119.5799,26.0937,福州市,九龙,,43,43,36,27,19,105,,72,72,16,19,5,5,0.6,0.5
2026-02-04T1500,3526A,119.5188,25.9666,福州市,吴航,,32,23,36,11,20,101,,72,72,17,21,5,5,0.5,0.6
2026-02-04T1500,4104A,119.3106,26.0648,福州市,路通桥巷6号,,32,30,47,13,28,100,,66,66,10,18,/,/,/,/
2026-02-04T1500,1755A,123.7974,41.8494,抚顺市,望花区,细颗粒物(PM2.5),189,166,112,142,87,31,,37,36,66,43,29,26,1.6,1.3
2026-02-04T1500,1756A,123.9161,41.8827,抚顺市,顺城区,细颗粒物(PM2.5),155,124,109,118,93,46,,36,36,60,56,25,18,1.5,1.5
2026-02-04T1500,1757A,124.0437,41.8615,抚顺市,东洲区,细颗粒物(PM2.5),132,155,110,100,77,36,,45,44,63,30,23,24,1.1,1
2026-02-04T1500,1758A,123.9246,41.8638,抚顺市,新抚区,细颗粒物(PM2.5),162,,100,123,91,50,,30,30,59,52,19,12,1.6,1.3
2026-02-04T1500,1759A,124.0972,41.8961,抚顺市,大伙房水库,细颗粒物(PM2.5),132,139,88,100,69,61,,63,51,44,28,17,14,1.5,1
2026-02-04T1500,1760A,123.708,41.8386,抚顺市,沈抚新城,细颗粒物(PM2.5),140,155,115,107,86,43,,46,38,63,51,18,17,1.1,1.4
2026-02-04T1500,2377A,116.3544,27.9833,抚州市,市站,细颗粒物(PM2.5),63,72,62,45,43,91,,51,51,21,22,11,8,1.3,1.1
2026-02-04T1500,2378A,116.3562,27.9631,抚州市,血防站,,,63,62,45,43,89,,42,42,,30,8,9,,1.7
2026-02-04T1500,2379A,116.3561,28.0007,抚州市,采茶剧团,颗粒物(PM10),60,69,59,38,41,85,,42,42,22,19,10,6,1.4,1.1
2026-02-04T1500,2380A,116.3854,27.9648,抚州市,医学分院,颗粒物(PM10),57,64,68,38,39,89,,44,44,17,22,7,9,1.1,1
2026-02-04T1500,2207A,121.6095,41.9978,阜新市,工业园区,颗粒物(PM10),56,62,126,27,74,71,,61,61,17,45,11,22,0.8,1.1
2026-02-04T1500,2208A,121.6567,42.0188,阜新市,长青街,,48,48,84,28,62,76,,72,72,15,41,8,16,0.6,1
2026-02-04T1500,2209A,121.6672,42.07,阜新市,农业园区,颗粒物(PM10),65,80,89,34,46,69,,65,65,15,28,11,17,0.6,0.6
2026-02-04T1500,2211A,121.6343,42.0455,阜新市,玉龙新城,颗粒物(PM10),62,74,101,29,56,73,,67,67,15,41,12,17,0.7,1
2026-02-04T1500,2301A,115.8276,32.8929,阜阳市,市监测站,细颗粒物(PM2.5),82,87,101,60,63,113,,81,81,14,22,6,5,0.7,0.7
2026-02-04T1500,2303A,115.8551,32.8606,阜阳市,开发区,细颗粒物(PM2.5),67,78,95,48,59,112,,69,69,23,32,6,6,0.5,0.5
2026-02-04T1500,2875A,115.783962,32.889217,阜阳市,阜阳职业技术学院,细颗粒物(PM2.5),70,78,88,51,56,119,,84,84,12,19,8,7,0.6,0.6
2026-02-04T1500,3468A,115.79,32.8614,阜阳市,市规划展馆,细颗粒物(PM2.5),77,86,96,56,61,121,,84,84,12,19,7,7,0.8,0.8
2026-02-04T1500,3469A,115.835101,32.918568,阜阳市,枣园社区,细颗粒物(PM2.5),80,88,98,59,61,114,,79,79,12,24,7,7,0.7,0.7
2026-02-04T1500,2669A,102.9097,34.9841,甘南藏族自治州,州政府,细颗粒物(PM2.5),60,44,82,43,57,84,,44,44,7,22,8,9,0.4,0.8
2026-02-04T1500,3380A,102.8915,34.9618,甘南藏族自治州,甘肃民族师范学院,,42,42,89,14,43,92,,48,48,12,29,7,10,0.3,0.7
2026-02-04T1500,2570A,101.96,30.048,甘孜藏族自治州,水桥子,,24,15,17,3,11,76,,43,43,7,21,7,7,0.8,0.8
2026-02-04T1500,3065A,101.9534,29.9976,甘孜藏族自治州,州环保局,颗粒物(PM10),54,58,21,3,8,95,,58,58,3,17,7,6,0.3,0.5
2026-02-04T1500,2363A,114.9368,25.8663,赣州市,地委,,,,54,28,29,169,,82,82,20,34,9,10,1.2,1.1
2026-02-04T1500,2364A,114.946,25.8483,赣州市,气象台,臭氧1小时(O3_1h),58,44,67,35,37,166,,80,80,21,50,8,9,0.5,0.6
2026-02-04T1500,2365A,114.932,25.8332,赣州市,市图书馆,,,49,62,29,33,134,,62,62,22,44,,6,0.8,1
2026-02-04T1500,2366A,114.8905,25.8472,赣州市,华坚鞋城,颗粒物(PM10),53,55,69,23,40,134,,82,82,19,45,8,9,0.6,0.7
2026-02-04T1500,3109A,115.0094,25.8614,赣州市,赣县区卫计委,颗粒物(PM10),58,66,61,34,30,148,,70,70,18,35,7,7,0.8,0.8
2026-02-04T1500,2684A,106.2753,36.0057,固原市,监测站,,,35,105,,48,96,,58,58,6,40,,10,0.5,1.3
2026-02-04T1500,2685A,106.2384,36.0189,固原市,新区,,,44,93,16,37,95,,66,66,,28,7,8,0.3,0.7
2026-02-04T1500,2544A,106.6307,30.4577,广安市,市委,细颗粒物(PM2.5),70,84,94,51,66,81,,36,36,17,26,8,7,0.9,1
2026-02-04T1500,2545A,106.6266,30.4662,广安市,友谊中学,颗粒物(PM10),66,81,89,35,55,91,,38,38,13,24,7,7,0.9,1.1
2026-02-04T1500,2547A,106.6386,30.4551,广安市,广电花园,颗粒物(PM10),71,92,83,51,69,79,,36,36,16,23,7,7,0.8,0.9
2026-02-04T1500,2902A,106.6347,30.4868,广安市,北辰小学,细颗粒物(PM2.5),68,81,89,49,66,86,,36,35,12,19,10,7,0.8,1
2026-02-04T1500,2524A,105.8211,32.4444,广元市,老城,细颗粒物(PM2.5),113,114,76,85,51,20,,12,12,47,46,27,11,1.5,1.2
2026-02-04T1500,2526A,105.8629,32.429,广元市,监测站,细颗粒物(PM2.5),88,84,76,65,51,15,,10,7,47,36,11,7,1.5,1.2
2026-02-04T1500,3617A,105.8047,32.4167,广元市,经开区,细颗粒物(PM2.5),85,95,84,63,53,19,,7,7,41,44,23,6,1.4,1.2
2026-02-04T1500,1345A,113.2346,23.1423,广州市,广雅中学,,49,49,76,26,42,125,,80,80,23,48,3,4,1.1,1.1
2026-02-04T1500,1346A,113.2611,23.105,广州市,市五中,颗粒物(PM10),55,60,75,29,41,159,,104,104,28,45,8,9,/,/
2026-02-04T1500,1348A,113.3477,23.0916,广州市,广东商学院,颗粒物(PM10),52,53,68,35,47,150,,94,94,23,52,6,7,0.7,0.7
2026-02-04T1500,1349A,113.4332,23.105,广州市,市八十六中,,50,48,56,29,36,158,,90,90,25,63,9,11,/,/
2026-02-04T1500,1350A,113.3506,22.9488,广州市,番禺中学,颗粒物(PM10),57,63,85,26,35,122,,82,82,20,36,2,4,0.7,0.8
2026-02-04T1500,1351A,113.2147,23.3918,广州市,花都师范,"颗粒物(PM10),细颗粒物(PM2.5)",59,67,92,42,48,141,,73,73,29,83,7,6,0.7,0.9
2026-02-04T1500,1352A,113.2599,23.1329,广州市,市监测站,颗粒物(PM10),56,61,76,34,43,132,,87,87,24,41,3,3,/,/
2026-02-04T1500,1353A,113.5618,23.3119,广州市,九龙镇镇龙,,41,41,77,25,42,114,,88,88,18,46,5,5,0.6,0.7
2026-02-04T1500,1354A,113.2764,23.1544,广州市,麓湖,颗粒物(PM10),57,64,67,36,40,141,,80,80,25,63,5,5,0.7,0.8
2026-02-04T1500,2846A,113.3209,23.1323,广州市,体育西,颗粒物(PM10),55,60,76,33,44,147,,87,87,23,49,7,8,0.8,0.9
2026-02-04T1500,3298A,113.5718,23.5493,广州市,从化街口,,40,33,62,22,39,127,,72,72,11,43,6,6,0.5,0.7
2026-02-04T1500,3299A,113.3463,23.369,广州市,白云竹料,"颗粒物(PM10),细颗粒物(PM2.5)",62,74,92,44,48,135,,81,81,26,66,3,4,0.6,0.7
2026-02-04T1500,3300A,113.2981,23.2365,广州市,白云嘉禾,颗粒物(PM10),55,59,86,31,50,126,,81,81,30,71,6,6,/,/
2026-02-04T1500,3301A,113.4256,23.1716,广州市,黄埔科学城,,49,49,72,33,44,147,,94,94,24,58,3,4,0.6,0.8
2026-02-04T1500,3302A,113.3942,23.0485,广州市,番禺大学城,颗粒物(PM10),58,66,86,29,42,154,,104,104,22,41,8,10,0.5,0.6
2026-02-04T1500,3303A,113.4923,22.8169,广州市,南沙黄阁,细颗粒物(PM2.5),54,52,61,38,39,103,,67,67,29,35,4,5,/,/
2026-02-04T1500,3304A,113.534,22.7893,广州市,南沙街,细颗粒物(PM2.5),54,56,59,38,35,119,,83,83,36,34,4,4,0.7,0.7
2026-02-04T1500,3443A,113.2905,23.5541,广州市,花都梯面,颗粒物(PM10),51,52,61,31,35,122,,69,69,17,41,4,5,/,/
2026-02-04T1500,3445A,113.786,23.7479,广州市,从化良口,,46,40,36,32,25,116,,73,73,11,19,7,7,/,/
2026-02-04T1500,3446A,113.805,23.2614,广州市,增城荔城,,44,40,62,23,38,140,,103,103,14,30,6,6,0.5,0.6
2026-02-04T1500,2506A,109.604387,23.066791,贵港市,江南子站,细颗粒物(PM2.5),54,46,119,38,69,109,,66,66,8,48,6,8,0.6,1.1
2026-02-04T1500,2508A,109.5669,23.1065,贵港市,荷城子站,颗粒物(PM10),54,58,94,37,54,95,,68,68,20,49,11,8,1.1,1.3
2026-02-04T1500,3405A,109.5886,23.1172,贵港市,新世纪学校,颗粒物(PM10),64,78,104,44,66,104,,72,72,23,48,/,/,0.8,0.9
2026-02-04T1500,4260A,109.5933,23.095,贵港市,中山路155-3号,细颗粒物(PM2.5),59,65,92,42,73,111,,74,74,14,47,/,/,0.8,1.2
2026-02-04T1500,1439A,106.6863,26.6035,贵阳市,马鞍山,,,,24,,19,,,25,,,23,,4,,
2026-02-04T1500,1441A,106.6241,26.6266,贵阳市,鉴湖路,,,44,27,26,15,19,,31,16,33,28,,3,,0.8
2026-02-04T1500,1442A,106.7468,26.6344,贵阳市,燕子冲,,45,44,29,31,23,12,,21,12,30,20,12,10,0.9,0.8
2026-02-04T1500,1443A,106.6556,26.4362,贵阳市,碧云窝,,36,36,34,22,19,39,,42,20,10,21,9,14,/,/
2026-02-04T1500,1445A,106.6963,26.6063,贵阳市,红边门,细颗粒物(PM2.5),59,58,30,42,26,3,,14,6,47,31,13,12,/,/
2026-02-04T1500,1446A,106.7162383,26.56964667,贵阳市,新华路,颗粒物(PM10),51,51,39,32,26,19,,15,12,40,36,11,7,0.9,0.9
2026-02-04T1500,1447A,106.6742,26.542,贵阳市,太慈桥,,35,34,27,24,23,26,,19,15,24,30,6,4,/,/
2026-02-04T1500,4230A,106.688212,26.56952,贵阳市,花果园大街66号,,42,34,28,29,26,7,,7,4,35,33,4,2,/,/
2026-02-04T1500,4231A,106.687268,26.516892,贵阳市,漓江路57号,,42,31,31,29,22,37,,7,6,15,30,14,9,0.7,0.9
2026-02-04T1500,1864A,110.3091,25.2705,桂林市,龙隐路小学,细颗粒物(PM2.5),105,101,94,79,76,36,,16,16,44,45,8,10,0.9,0.9
2026-02-04T1500,1865A,110.2849361,25.22909545,桂林市,八中,,,95,104,53,54,34,,14,14,44,47,,12,1.0,1.1
2026-02-04T1500,3531A,110.296,25.1254,桂林市,旅游学院,细颗粒物(PM2.5),134,112,96,102,75,41,,22,22,31,35,12,10,0.7,0.6
2026-02-04T1500,4222A,110.1835,25.2444,桂林市,环湖路276号,细颗粒物(PM2.5),100,100,100,75,65,39,,14,14,34,48,18,23,1.2,1.4
2026-02-04T1500,4301A,110.2803,25.2773,桂林市,信义路13号,细颗粒物(PM2.5),87,89,88,64,55,40,,18,18,40,50,16,18,1.3,1.4
2026-02-04T1500,2674A,100.2262,34.4854,果洛藏族自治州,玛沁县大武镇,,26,23,48,18,18,74,,43,43,1,8,16,16,0.5,0.4
2026-02-04T1500,1130A,126.5557,45.8109,哈尔滨市,松北商大,细颗粒物(PM2.5),55,44,83,39,72,85,,61,61,13,51,6,8,0.7,1.1
2026-02-04T1500,1132A,126.6162,45.719,哈尔滨市,南岗学府路,颗粒物(PM10),53,55,82,29,55,70,,62,62,12,43,8,12,0.6,1.1
2026-02-04T1500,1133A,126.6894,45.7733,哈尔滨市,太平宏伟公园,细颗粒物(PM2.5),62,49,85,44,70,96,,73,73,8,42,8,15,0.5,0.9
2026-02-04T1500,1134A,126.6361,45.7672,哈尔滨市,道外承德广场,颗粒物(PM10),57,64,114,36,66,78,,64,64,21,49,10,17,0,0.7
2026-02-04T1500,1136A,126.644,45.7261,哈尔滨市,动力和平路,,48,48,75,33,57,78,,60,60,16,41,10,15,0.7,1.1
2026-02-04T1500,1137A,126.5933,45.7479,哈尔滨市,道里建国路,细颗粒物(PM2.5),59,,80,42,72,80,,56,56,21,61,22,30,0.1,0.7
2026-02-04T1500,1138A,126.6127,45.6119,哈尔滨市,平房东轻厂,,,38,103,33,92,63,,43,43,,67,7,28,0.6,1.3
2026-02-04T1500,1139A,126.5875,45.9827,哈尔滨市,呼兰师专,细颗粒物(PM2.5),67,63,88,48,78,82,,57,57,13,36,12,14,0.8,1.2
2026-02-04T1500,1140A,126.6299,45.6799,哈尔滨市,省农科院,颗粒物(PM10),55,60,97,34,73,72,,55,55,19,52,22,23,0.7,1.2
2026-02-04T1500,4282A,126.6769,45.7379,哈尔滨市,华山路1号,,46,41,76,32,56,88,,59,59,12,46,7,22,0.6,1.1
2026-02-04T1500,4283A,126.9717,45.5356,哈尔滨市,解放大街52号,细颗粒物(PM2.5),63,62,118,45,87,83,,46,46,20,51,25,29,1.0,2
2026-02-04T1500,2688A,93.5124,42.8176,哈密市,地区监测站,颗粒物(PM10),64,77,70,33,31,71,,57,57,8,22,12,9,0.1,0.5
2026-02-04T1500,2689A,93.5014,42.8312,哈密市,哈密师范学校,,,77,82,18,25,66,,50,50,13,36,,8,0.4,0.7
2026-02-04T1500,2671A,100.9016,36.9464,海北藏族自治州,海晏县西海镇,,29,14,31,6,12,92,,68,68,2,5,6,8,0.4,0.4
2026-02-04T1500,3867A,102.074,36.5056,海东市,平安区公安局北苑,细颗粒物(PM2.5),89,101,110,66,67,89,,60,57,21,21,26,24,1.4,1.3
2026-02-04T1500,4163A,102.0984,36.5119,海东市,滨河路,,,,109,,61,106,,61,61,,39,25,24,1.2,1.1
2026-02-04T1500,1410A,110.3189,20.0596,海口市,海南大学,,34,30,36,16,18,107,,92,92,7,7,5,5,0.4,0.5
2026-02-04T1500,1411A,110.2827,20.0051,海口市,秀英海南医院,,38,38,39,15,17,102,,85,85,6,11,8,7,0.4,0.4
2026-02-04T1500,1412A,110.3391,19.9979,海口市,海南师范大学,,40,40,42,17,17,106,,89,89,6,9,6,6,0.5,0.6
2026-02-04T1500,1413A,110.3303,20.0359,海口市,龙华路环保局宿舍,,37,33,41,22,17,116,,97,97,8,7,/,/,0.8,0.8
2026-02-04T1500,3539A,110.5111,19.9737,海口市,桂林洋子站,,32,27,37,16,19,101,,86,86,8,8,/,/,/,/
2026-02-04T1500,4134A,110.1952,20.0451,海口市,长滨二路9号,,,,34,17,18,107,,73,,,10,/,/,/,/
2026-02-04T1500,2673A,100.6158,36.2985,海南藏族自治州,共和县恰卜恰镇,,,,38,,22,87,,54,54,1,20,14,13,0.3,0.6
2026-02-04T1500,2676A,97.373,37.376,海西蒙古族藏族自治州,德令哈市,,30,29,21,8,10,95,,93,93,9,5,15,14,0.6,0.4
2026-02-04T1500,1049A,114.492,36.5712,邯郸市,矿院,细颗粒物(PM2.5),99,86,125,74,103,116,,51,51,25,34,18,8,1.1,1
2026-02-04T1500,1050A,114.4839,36.6136,邯郸市,丛台公园,细颗粒物(PM2.5),82,91,133,60,104,118,,73,73,20,34,14,12,0.9,1
2026-02-04T1500,3458A,114.7893,36.5592,邯郸市,香泉濮院小区,细颗粒物(PM2.5),99,127,144,74,92,116,,62,62,21,29,12,7,0.9,1
2026-02-04T1500,3580A,114.1998,36.4439,邯郸市,峰峰矿区临水派出所,细颗粒物(PM2.5),100,102,98,75,74,117,,80,80,17,17,16,15,1.1,1
2026-02-04T1500,4068A,114.5209,36.7697,邯郸市,建安街268号,细颗粒物(PM2.5),108,108,132,81,108,121,,63,63,26,44,12,8,0.9,1.1
2026-02-04T1500,4069A,114.5488,36.6177,邯郸市,丛台东路558号,细颗粒物(PM2.5),102,97,134,76,115,137,,79,79,10,43,11,7,1.0,1.1
2026-02-04T1500,2635A,107.0155,33.0707,汉中市,市监测站,细颗粒物(PM2.5),78,95,103,57,67,68,,26,26,22,38,17,7,1.1,1.2
2026-02-04T1500,2636A,107.0083,33.114,汉中市,鑫源开发区,细颗粒物(PM2.5),80,101,88,59,58,71,,36,36,23,36,16,7,1.0,0.9
2026-02-04T1500,2637A,107.0072,33.0323,汉中市,南郑大河坎水厂,,,100,115,58,72,69,,22,22,20,38,17,7,,1.1
2026-02-04T1500,1223A,120.2073,30.2111,杭州市,滨江,细颗粒物(PM2.5),67,65,103,48,75,88,,39,39,28,47,8,8,0.7,0.8
2026-02-04T1500,1224A,120.0625,30.2737,杭州市,西溪,细颗粒物(PM2.5),84,97,96,62,71,70,,34,34,42,44,10,9,0.9,0.7
2026-02-04T1500,1226A,120.3417,30.315,杭州市,下沙,,,80,92,56,69,88,,47,47,29,53,10,9,,0.3
2026-02-04T1500,1227A,120.1252,30.2465,杭州市,卧龙桥,细颗粒物(PM2.5),73,71,90,53,69,85,,39,39,29,34,10,10,0.4,0.4
2026-02-04T1500,1228A,120.1902,30.2691,杭州市,浙江农大,细颗粒物(PM2.5),70,73,102,51,70,89,,45,45,42,52,7,7,0.7,0.7
2026-02-04T1500,1230A,120.1195,30.3121,杭州市,和睦小学,细颗粒物(PM2.5),88,97,111,65,76,73,,42,42,36,38,7,6,0.9,0.8
2026-02-04T1500,1231A,120.3076,30.4146,杭州市,临平镇,细颗粒物(PM2.5),88,95,94,65,67,71,,30,30,38,48,8,8,0.8,0.7
2026-02-04T1500,1232A,120.2753,30.1839,杭州市,城厢镇,颗粒物(PM10),66,82,104,43,69,89,,52,52,33,48,8,9,0.6,0.6
2026-02-04T1500,1233A,120.0883,30.1808,杭州市,云栖,颗粒物(PM10),59,68,92,40,57,90,,45,45,36,40,5,5,0.5,0.8
2026-02-04T1500,3557A,119.9463,30.0496,杭州市,镇二中,细颗粒物(PM2.5),67,,79,48,75,80,,38,38,32,49,6,6,0.8,0.9
2026-02-04T1500,3558A,119.7184,30.2367,杭州市,市府大楼,细颗粒物(PM2.5),55,46,90,39,75,97,,61,61,17,35,11,11,0.6,0.9
2026-02-04T1500,3656A,120.1554,30.2863,杭州市,消防大队,细颗粒物(PM2.5),90,89,101,67,76,71,,37,37,35,41,8,7,0.8,0.7
2026-02-04T1500,1270A,117.1957,31.7845,合肥市,明珠广场,颗粒物(PM10),52,53,101,31,65,89,,52,52,23,43,6,6,0.5,0.7
2026-02-04T1500,1271A,117.307,31.8765,合肥市,三里街,,39,39,107,23,69,89,,39,39,19,56,5,6,0.6,0.9
2026-02-04T1500,1272A,117.2587,31.8703,合肥市,琥珀山庄,,48,48,94,30,67,93,,52,52,15,42,6,7,0.7,0.9
2026-02-04T1500,1275A,117.2593,31.9376,合肥市,庐阳区,颗粒物(PM10),53,56,104,30,65,88,,50,50,28,48,5,5,0.7,0.9
2026-02-04T1500,1276A,117.345251,31.861615,合肥市,瑶海区,,,39,102,16,60,91,,51,51,25,52,,5,0.3,0.6
2026-02-04T1500,1277A,117.3033,31.7967,合肥市,包河区,颗粒物(PM10),59,68,100,18,58,93,,55,55,5,39,7,8,0.7,0.8
2026-02-04T1500,1278A,117.278,31.7392,合肥市,滨湖新区,,39,39,88,21,54,94,,54,54,8,36,4,4,0.6,0.8
2026-02-04T1500,1279A,117.1324,31.8395,合肥市,高新区,,44,44,93,24,61,93,,55,55,18,38,4,5,0.7,0.8
2026-02-04T1500,3464A,117.3802,31.9148,合肥市,高教基地,,44,44,97,18,60,98,,58,58,17,39,8,8,0.5,0.7
2026-02-04T1500,4098A,117.2518,31.8404,合肥市,中国科学技术大学,,36,36,93,22,59,100,,55,55,13,39,8,9,0.6,0.9
2026-02-04T1500,3614A,79.9241,37.0878,和田地区,地区环保局,颗粒物(PM10),195,339,387,87,97,72,,41,41,17,30,4,5,0.7,1.1
2026-02-04T1500,3615A,79.9132,37.1137,和田地区,市环保局,颗粒物(PM10),236,375,389,80,81,91,,48,48,12,26,3,4,0.3,0.8
2026-02-04T1500,2517A,108.0496,24.6957,河池市,市环保站,细颗粒物(PM2.5),109,100,77,82,57,44,,102,64,23,27,7,8,1.1,1
2026-02-04T1500,4302A,108.0901,24.6945,河池市,上任中路54号,,,117,88,75,60,60,,29,29,22,28,,8,1.3,1.2
2026-02-04T1500,1697A,114.6962,23.7538,河源市,东埔,,49,45,58,34,39,153,,95,95,15,34,6,6,0.7,0.8
2026-02-04T1500,1698A,114.6895,23.7232,河源市,老城,,48,37,50,30,35,152,,99,99,12,20,6,7,0.7,0.7
2026-02-04T1500,3374A,115.5562,35.089,菏泽市,定陶老年大学,细颗粒物(PM2.5),128,134,116,97,81,93,,61,61,21,22,8,6,0.6,0.5
2026-02-04T1500,4114A,115.4239,35.2593,菏泽市,黄河路600号,细颗粒物(PM2.5),124,139,126,94,83,98,,66,66,28,27,7,5,0.8,0.6
2026-02-04T1500,4115A,115.5025,35.2727,菏泽市,菏泽市人社局,细颗粒物(PM2.5),134,150,121,102,82,91,,63,63,31,26,11,10,0.8,0.7
2026-02-04T1500,4184A,115.479691,35.244011,菏泽市,永昌路1号,细颗粒物(PM2.5),124,129,123,94,77,102,,67,67,25,31,4,5,0.7,0.8
2026-02-04T1500,4193A,115.471542,35.280012,菏泽市,长城路999号,细颗粒物(PM2.5),120,140,120,91,75,92,,64,64,30,26,10,7,1.0,0.8
2026-02-04T1500,2514A,111.5264,24.4178,贺州市,环保小区,颗粒物(PM10),54,57,67,37,42,94,,49,49,41,37,3,4,0.6,0.7
2026-02-04T1500,2515A,111.561,24.4074,贺州市,政协大楼,细颗粒物(PM2.5),52,44,61,36,41,129,,58,58,18,37,12,12,0.7,0.9
2026-02-04T1500,3534A,111.4744,24.455,贺州市,西湾,,,63,68,40,39,112,,53,53,25,42,,8,0.8,1
2026-02-04T1500,2385A,114.17,35.9019,鹤壁市,市监测站,细颗粒物(PM2.5),117,147,124,88,79,108,,64,64,,33,17,7,,1.1
2026-02-04T1500,2386A,114.2953,35.7512,鹤壁市,市交警支队,细颗粒物(PM2.5),128,134,166,97,115,99,,48,48,30,41,16,9,1.0,1
2026-02-04T1500,2387A,114.2877,35.7302,鹤壁市,迎宾馆,细颗粒物(PM2.5),112,136,157,84,110,108,,52,52,33,40,10,9,1.1,1.1
2026-02-04T1500,3474A,114.2616,35.6824,鹤壁市,大新区,细颗粒物(PM2.5),118,135,147,89,114,101,,48,48,28,49,14,10,1.2,1.1
2026-02-04T1500,3596A,114.1573,35.9607,鹤壁市,南山宾馆,细颗粒物(PM2.5),94,122,114,70,77,118,,81,81,19,22,14,11,0.8,0.8
2026-02-04T1500,2244A,130.2537,47.3416,鹤岗市,哈啤分公司,,29,29,34,14,27,89,,82,82,9,9,7,7,0.4,0.5
2026-02-04T1500,2245A,130.2683,47.3087,鹤岗市,斯达机电,颗粒物(PM10),65,79,38,37,24,80,,75,75,14,12,9,6,0.6,0.6
2026-02-04T1500,2246A,130.3114,47.3388,鹤岗市,东山纸板厂,,48,36,53,33,38,79,,68,68,18,19,12,12,0.3,1
2026-02-04T1500,2263A,127.4832,50.2524,黑河市,交通局,,25,,30,17,21,69,,69,69,9,16,4,7,0.4,0.4
2026-02-04T1500,2264A,127.5146,50.2339,黑河市,环保局,,22,20,25,15,20,65,,69,68,14,19,7,7,0.6,0.6
2026-02-04T1500,1074A,115.6839,37.754,衡水市,电机北厂,细颗粒物(PM2.5),149,160,157,114,111,88,,55,55,34,35,11,9,0.7,0.7
2026-02-04T1500,1075A,115.6303,37.7318,衡水市,市监测站,细颗粒物(PM2.5),139,146,146,106,108,81,,47,47,36,36,14,9,1.0,0.9
2026-02-04T1500,3188A,115.6684,37.7216,衡水市,市城管局,细颗粒物(PM2.5),117,150,154,88,98,86,,51,51,35,37,16,11,1.1,0.9
2026-02-04T1500,3459A,115.599,37.5491,衡水市,地表水厂,细颗粒物(PM2.5),150,139,147,115,120,94,,58,58,25,38,14,9,1.1,0.8
2026-02-04T1500,2457A,112.6209,26.9268,衡阳市,衡阳化工总厂,细颗粒物(PM2.5),99,107,88,74,55,47,,34,34,41,33,21,15,1.3,1
2026-02-04T1500,2458A,112.621,26.8957,衡阳市,珠晖区环保局,细颗粒物(PM2.5),98,124,85,73,52,45,,32,32,48,46,13,11,1.5,1.4
2026-02-04T1500,2459A,112.628,26.8654,衡阳市,市委党校,细颗粒物(PM2.5),103,114,78,77,51,45,,43,36,44,28,18,16,1.9,1.4
2026-02-04T1500,2460A,112.6007,26.8977,衡阳市,市监测站,细颗粒物(PM2.5),99,142,109,74,57,36,,31,31,52,44,14,12,1.7,1.5
2026-02-04T1500,2461A,112.5658,26.9013,衡阳市,真空机电公司,细颗粒物(PM2.5),103,117,99,77,63,44,,23,23,42,50,11,10,1.3,1.4
2026-02-04T1500,3399A,112.6703,26.8817,衡阳市,师范学院,颗粒物(PM10),74,97,85,52,47,62,,38,38,41,37,9,8,1.2,0.4
2026-02-04T1500,3038A,103.3757,23.3679,红河哈尼族彝族自治州,州图书馆,,32,25,37,18,27,100,,65,65,4,11,7,9,0.5,0.7
2026-02-04T1500,4154A,103.401,23.3561,红河哈尼族彝族自治州,蒙自市朝阳路,,,,29,,25,91,,72,72,2,12,7,10,,0.6
2026-02-04T1500,1090A,111.6506,40.7517,呼和浩特市,呼市一监,颗粒物(PM10),86,122,90,58,49,71,,32,32,33,46,23,13,1.1,1
2026-02-04T1500,1094A,111.7516,40.8369,呼和浩特市,如意水处理厂,"颗粒物(PM10),细颗粒物(PM2.5)",80,110,73,59,39,59,,32,32,32,51,22,15,0.9,0.7
2026-02-04T1500,1095A,111.727798,40.806187,呼和浩特市,二十九中,细颗粒物(PM2.5),74,91,75,54,39,58,,30,30,30,48,23,17,0.9,0.8
2026-02-04T1500,1097A,111.717,40.7617,呼和浩特市,化肥厂生活区,颗粒物(PM10),80,109,86,51,45,65,,32,32,34,49,17,10,0.9,0.8
2026-02-04T1500,3699A,111.6519,40.8389,呼和浩特市,海东办,颗粒物(PM10),78,105,82,47,40,57,,29,29,32,50,18,11,0.9,0.9
2026-02-04T1500,4275A,111.591512,40.827312,呼和浩特市,成吉思汗西街8号,颗粒物(PM10),91,132,78,49,37,54,,30,30,34,50,13,10,0.8,0.7
2026-02-04T1500,4276A,111.6597,40.8077,呼和浩特市,公园东路75号,颗粒物(PM10),87,124,88,55,43,51,,32,32,39,53,18,13,1.1,1
2026-02-04T1500,4277A,111.5427,40.7846,呼和浩特市,金海路35号,颗粒物(PM10),82,113,83,58,42,57,,27,27,31,56,15,11,0.9,0.9
2026-02-04T1500,3061A,119.7511,49.1576,呼伦贝尔市,国华电力东,,26,19,27,14,14,83,,76,76,11,13,6,6,0.2,0.3
2026-02-04T1500,4279A,119.7569,49.2222,呼伦贝尔市,伊敏大街东7号,,25,25,26,8,12,80,,66,66,2,8,7,7,0.5,0.5
2026-02-04T1500,1250A,120.075,30.867,湖州市,城西水厂,细颗粒物(PM2.5),68,65,78,49,58,86,,49,47,37,41,7,6,0.5,0.5
2026-02-04T1500,2873A,120.083,30.8929,湖州市,仁皇山新区,细颗粒物(PM2.5),73,66,78,53,59,89,,47,47,32,41,6,7,0.7,0.7
2026-02-04T1500,2907A,120.1846,30.8592,湖州市,吴兴区站,细颗粒物(PM2.5),80,85,98,59,65,89,,42,42,23,34,8,6,0.5,0.5
2026-02-04T1500,3562A,120.4146,30.8538,湖州市,南浔区站,细颗粒物(PM2.5),74,70,77,54,55,93,,42,42,26,40,8,8,0.5,0.6
2026-02-04T1500,1607A,120.904878,40.721091,葫芦岛市,龙港区,颗粒物(PM10),74,97,127,52,94,73,,54,54,31,53,101,27,0.7,1.3
2026-02-04T1500,1608A,120.8382,40.7521,葫芦岛市,化工街,颗粒物(PM10),70,90,138,42,91,65,,57,57,30,69,27,28,0.5,1.1
2026-02-04T1500,1609A,120.8339,40.7078,葫芦岛市,新区,细颗粒物(PM2.5),70,85,110,51,102,71,,55,55,34,60,63,22,1.6,1.3
2026-02-04T1500,1610A,120.8697,40.7679,葫芦岛市,东城区,细颗粒物(PM2.5),58,46,114,41,98,67,,57,57,24,66,19,26,0.6,1.5
2026-02-04T1500,2483A,109.9297,27.5383,怀化市,河西地税局,颗粒物(PM10),84,117,99,60,54,69,,45,45,29,25,2,3,/,/
2026-02-04T1500,2484A,109.9783,27.5342,怀化市,市四医院,颗粒物(PM10),90,129,100,61,59,63,,40,40,25,21,10,10,0.8,0.6
2026-02-04T1500,2485A,109.9971,27.5579,怀化市,监测楼,细颗粒物(PM2.5),105,134,101,79,65,62,,,,29,26,6,5,0.5,0.4
2026-02-04T1500,1210A,119.0566,33.5991,淮安市,钵池山,细颗粒物(PM2.5),94,88,98,70,78,98,,59,59,19,44,13,11,0.7,0.6
2026-02-04T1500,1211A,119.0083,33.578,淮安市,北京南路,细颗粒物(PM2.5),99,83,100,74,79,101,,58,58,21,46,11,10,0.8,0.8
2026-02-04T1500,1212A,118.9938,33.6083,淮安市,市监测站,细颗粒物(PM2.5),97,80,97,72,83,102,,61,61,20,41,12,12,0.6,0.8
2026-02-04T1500,1213A,119.135,33.5038,淮安市,楚州区监测站,细颗粒物(PM2.5),78,76,105,57,81,101,,57,57,10,47,9,7,0.6,0.8
2026-02-04T1500,3426A,118.8757,33.2897,淮安市,新华书店,细颗粒物(PM2.5),102,100,108,76,83,96,,56,56,22,47,10,10,0.8,0.8
2026-02-04T1500,4092A,119.119691,33.550006,淮安市,枚皋中路89号,细颗粒物(PM2.5),80,90,111,59,86,104,,61,61,9,39,10,11,0.5,0.8
2026-02-04T1500,4206A,119.028838,33.631911,淮安市,承德北路606号,细颗粒物(PM2.5),92,95,114,68,79,111,,69,69,18,43,10,10,0.6,0.8
2026-02-04T1500,2282A,116.8005,33.9749,淮北市,监测站,细颗粒物(PM2.5),97,112,118,72,74,110,,72,72,16,26,6,6,0.7,0.8
2026-02-04T1500,2283A,116.8094,33.9008,淮北市,烈山区政府,细颗粒物(PM2.5),89,93,114,66,75,112,,67,67,19,33,6,6,0.5,0.6
2026-02-04T1500,4017A,116.7926,33.9534,淮北市,市博物馆,细颗粒物(PM2.5),102,108,121,76,79,109,,73,73,17,23,6,8,0.6,0.8
2026-02-04T1500,4100A,116.8322,33.9884,淮北市,杜集区第一实验学校,细颗粒物(PM2.5),99,112,117,74,79,113,,73,73,14,22,5,5,0.6,0.6
2026-02-04T1500,2277A,116.8304,32.7726,淮南市,潘集区政府,颗粒物(PM10),67,83,112,40,67,116,,74,74,13,32,7,7,0.6,0.6
2026-02-04T1500,2279A,116.8569,32.5949,淮南市,谢家集区政府,,49,49,96,24,66,108,,62,62,10,29,7,8,0.7,0.8
2026-02-04T1500,2280A,116.8279,32.6333,淮南市,八公山区政府,,,54,91,30,63,114,,85,85,,26,5,4,0.6,0.7
2026-02-04T1500,2894A,117.0561,32.6536,淮南市,经济技术开发区消防队,,47,47,96,29,64,104,,65,65,15,36,6,6,0.4,0.5
2026-02-04T1500,3329A,117.011,32.5891,淮南市,山南新区,,49,49,96,28,64,105,,65,65,21,35,8,8,0.5,0.6
2026-02-04T1500,4209A,117.003137,32.644456,淮南市,国庆中路369号,,47,47,91,26,65,97,,68,68,13,27,14,13,0.5,0.6
2026-02-04T1500,2446A,114.9021,30.474,黄冈市,职工中心,"颗粒物(PM10),细颗粒物(PM2.5)",59,67,72,42,58,71,,47,47,26,31,7,7,0.6,0.7
2026-02-04T1500,2929A,114.8858,30.4519,黄冈市,红卫路,细颗粒物(PM2.5),57,55,70,40,55,70,,55,55,26,31,8,7,0.7,0.7
2026-02-04T1500,3398A,114.9134,30.4446,黄冈市,市林业局,细颗粒物(PM2.5),63,69,83,45,60,43,,32,32,26,33,4,4,0.6,0.8
2026-02-04T1500,2672A,102.02,35.5101,黄南藏族自治州,同仁县隆务镇,细颗粒物(PM2.5),72,74,85,52,53,88,,81,72,12,12,14,12,1.0,0.8
2026-02-04T1500,2295A,118.2905,29.6965,黄山市,延安路89号,,44,44,51,29,41,97,,58,58,10,19,5,4,0.5,0.7
2026-02-04T1500,2297A,118.1369,30.2755,黄山市,黄山区政府5号楼,,,35,43,16,26,97,,54,54,7,13,4,2,,0.6
2026-02-04T1500,4210A,118.335445,29.720283,黄山市,滨江东路7-2号,颗粒物(PM10),59,67,78,31,44,100,,52,52,13,22,/,/,/,/
2026-02-04T1500,2423A,115.0547,30.2332,黄石市,沈家营,,,109,89,56,54,34,,27,27,35,40,,10,1.2,1.1
2026-02-04T1500,2426A,114.899,30.211,黄石市,铁山,细颗粒物(PM2.5),84,75,70,62,58,46,,40,40,48,32,12,8,1.0,1
2026-02-04T1500,2427A,115.0259,30.2108,黄石市,团城山,细颗粒物(PM2.5),107,110,97,80,67,29,,16,16,41,34,8,8,1.2,1.2
2026-02-04T1500,3149A,115.0174,30.1591,黄石市,笔架山北路,细颗粒物(PM2.5),125,156,135,95,76,16,,22,22,52,38,10,11,1.4,1.3
2026-02-04T1500,4185A,115.078022,30.21118,黄石市,磁湖东路29号,细颗粒物(PM2.5),117,109,92,88,68,23,,20,20,41,35,7,7,1.3,1.3
2026-02-04T1500,1392A,114.4181,23.0528,惠州市,河南岸金山湖子站,颗粒物(PM10),51,51,60,31,36,120,,86,86,20,18,4,5,0.7,0.8
2026-02-04T1500,1393A,114.4055,23.0824,惠州市,下埔横江三路子站,,45,40,62,21,34,141,,98,98,13,20,6,7,0.5,0.5
2026-02-04T1500,1395A,114.4645,22.7832,惠州市,惠阳区承修路船湖子站,,,44,59,26,34,172,,105,105,19,20,,7,0.6,0.6
2026-02-04T1500,1396A,114.5316,22.7423,惠州市,大亚湾管委会子站,,44,44,58,23,31,131,,104,104,17,19,7,7,0.6,0.6
2026-02-04T1500,3314A,114.4334,22.8134,惠州市,惠阳秋长,臭氧1小时(O3_1h),89,61,64,29,32,191,,121,121,22,21,/,/,/,/
2026-02-04T1500,3452A,114.6521,22.7755,惠州市,大亚湾霞涌,,48,44,54,25,28,151,,115,115,19,14,/,/,/,/
2026-02-04T1500,4300A,114.4089,23.1147,惠州市,文华一路1号,,44,35,58,21,33,140,,96,96,16,21,/,/,/,/
2026-02-04T1500,2240A,130.9618,45.2926,鸡西市,环保局,,,,76,,49,,,81,42,,37,,11,,0.7
2026-02-04T1500,2243A,130.9294,45.2959,鸡西市,第一中学,,39,30,46,27,30,92,,66,66,8,19,4,6,0.4,0.5
2026-02-04T1500,3707A,131.0069,45.2988,鸡西市,欧美日汽修厂,,,42,97,32,56,86,,47,47,10,41,8,18,,1.2
2026-02-04T1500,2367A,114.9753,27.0803,吉安市,红声器材厂,细颗粒物(PM2.5),72,85,68,52,51,122,,66,66,19,22,11,11,0.8,0.7
2026-02-04T1500,2369A,114.9903,27.1313,吉安市,市环境监测站,细颗粒物(PM2.5),63,73,64,45,49,120,,70,70,20,26,8,8,/,/
2026-02-04T1500,2370A,115.009527,27.096792,吉安市,青原区法院,细颗粒物(PM2.5),63,69,71,45,53,118,,64,64,19,24,12,12,0.6,0.7
2026-02-04T1500,1772A,126.54,43.8622,吉林市,哈达湾,细颗粒物(PM2.5),189,155,86,142,76,63,,81,63,44,29,33,14,2.5,1.3
2026-02-04T1500,1773A,126.5843,43.8358,吉林市,东局子,细颗粒物(PM2.5),178,161,108,134,77,36,,44,32,50,44,13,11,2.5,1.5
2026-02-04T1500,1774A,126.5051,43.8243,吉林市,电力学院,细颗粒物(PM2.5),129,121,125,98,92,64,,57,57,38,46,81,15,,1.7
2026-02-04T1500,1775A,126.6133,43.8971,吉林市,江北,细颗粒物(PM2.5),156,145,105,119,78,58,,48,40,31,40,12,15,1.4,1.3
2026-02-04T1500,1776A,126.5549,43.8304,吉林市,江南公园,细颗粒物(PM2.5),166,159,90,126,66,35,,57,36,49,32,20,13,2.1,0.9
2026-02-04T1500,2868A,126.4737,43.953,吉林市,九站,细颗粒物(PM2.5),75,70,89,55,71,68,,45,45,36,52,45,14,0.8,1.1
2026-02-04T1500,1299A,116.9866,36.6118,济南市,科干所,,,124,110,,66,116,,95,95,20,12,14,9,0.9,0.7
2026-02-04T1500,1300A,116.9379,36.6652,济南市,农科所,细颗粒物(PM2.5),119,129,120,90,87,102,,83,83,27,22,14,10,0.9,0.8
2026-02-04T1500,1301A,117.1265,36.6736,济南市,开发区,细颗粒物(PM2.5),115,125,99,87,72,125,,106,104,26,22,11,6,0.8,0.7
2026-02-04T1500,1303A,117.0616,36.6865,济南市,省种子仓库,细颗粒物(PM2.5),109,127,109,82,70,110,,94,94,24,20,13,7,0.8,0.7
2026-02-04T1500,1304A,116.9495185,36.644937,济南市,机床二厂,细颗粒物(PM2.5),112,122,115,84,81,106,,85,85,28,20,16,11,0.6,0.4
2026-02-04T1500,1305A,117.0496,36.6629,济南市,市监测站,细颗粒物(PM2.5),123,125,103,93,72,114,,93,,,16,12,6,1.0,0.8
2026-02-04T1500,1306A,116.7674,36.5458,济南市,长清党校,细颗粒物(PM2.5),130,139,129,99,87,101,,83,83,32,32,9,6,1.0,0.9
2026-02-04T1500,1961A,117.5323,36.6865,济南市,东山小学,细颗粒物(PM2.5),107,132,127,80,81,118,,102,102,27,24,12,8,0.7,0.7
2026-02-04T1500,3059A,117.7181,36.205,济南市,泰兴公司,细颗粒物(PM2.5),108,114,153,81,107,119,,72,72,20,60,10,10,1.0,1.4
2026-02-04T1500,3064A,117.6861,36.2172,济南市,莱芜战役纪念馆,细颗粒物(PM2.5),107,119,148,80,105,117,,71,71,21,47,13,13,0.9,1.1
2026-02-04T1500,3494A,117.1673,36.9782,济南市,济阳区政府,细颗粒物(PM2.5),119,125,129,90,92,101,,74,74,22,37,11,9,1.0,0.9
2026-02-04T1500,3495A,117.1168,36.6299,济南市,锦屏中学,细颗粒物(PM2.5),109,117,98,82,72,114,,100,100,23,17,11,6,0.7,0.5
2026-02-04T1500,4108A,117.7107,36.2385,济南市,山财大街5号,细颗粒物(PM2.5),95,107,132,71,97,121,,83,83,40,50,15,15,1.0,1.3
2026-02-04T1500,4109A,116.9744,36.6889,济南市,无影山路12号,细颗粒物(PM2.5),118,132,113,89,82,98,,81,81,21,15,14,9,1.1,0.9
2026-02-04T1500,1653A,116.6229,35.4288,济宁市,火炬城,细颗粒物(PM2.5),115,118,120,87,95,107,,66,66,17,25,5,4,0.7,0.8
2026-02-04T1500,3500A,116.5808,35.3703,济宁市,北湖一中,细颗粒物(PM2.5),114,112,108,86,89,109,,72,72,19,21,8,6,0.6,0.8
2026-02-04T1500,3501A,116.8251,35.5592,济宁市,服务中心,细颗粒物(PM2.5),119,130,154,90,100,98,,69,69,16,22,4,4,0.9,0.9
2026-02-04T1500,3678A,116.5907,35.4054,济宁市,市第七中学,细颗粒物(PM2.5),119,117,107,90,91,113,,73,73,18,25,12,11,0.7,0.7
2026-02-04T1500,4111A,116.6075,35.4566,济宁市,任和路,细颗粒物(PM2.5),113,112,139,85,89,114,,73,73,19,24,8,7,0.8,0.8
2026-02-04T1500,4112A,116.5648,35.3921,济宁市,文体南路1号,细颗粒物(PM2.5),113,137,132,85,88,113,,75,75,20,22,7,5,0.7,0.7
2026-02-04T1500,2255A,130.2749,46.8028,佳木斯市,佳纺,颗粒物(PM10),56,61,66,32,52,73,,48,48,16,29,7,11,0.4,0.7
2026-02-04T1500,2257A,130.3258,46.7975,佳木斯市,环保局,颗粒物(PM10),57,64,56,29,42,64,,41,33,23,34,9,10,0.3,0.5
2026-02-04T1500,4285A,130.363,46.806,佳木斯市,顺和街,细颗粒物(PM2.5),53,48,49,37,42,58,,41,40,29,35,13,13,0.4,0.6
2026-02-04T1500,4286A,130.3952,46.8268,佳木斯市,长安路196号,细颗粒物(PM2.5),52,39,45,36,35,78,,58,58,14,22,7,7,0.6,0.7
2026-02-04T1500,1252A,120.7439,30.778,嘉兴市,清河小学,细颗粒物(PM2.5),94,94,73,70,50,80,,51,45,44,41,10,7,0.2,0.2
2026-02-04T1500,1253A,120.7261,30.7477,嘉兴市,嘉兴学院,细颗粒物(PM2.5),92,104,77,68,47,82,,48,42,44,38,10,7,0.8,0.7
2026-02-04T1500,2872A,120.7845,30.7524,嘉兴市,南湖区残联,细颗粒物(PM2.5),87,84,66,64,48,101,,66,66,32,34,6,6,0.5,0.4
2026-02-04T1500,3407A,120.6915,30.7741,嘉兴市,秀洲住建,细颗粒物(PM2.5),98,112,77,73,49,74,,45,45,54,41,14,8,0.6,0.5
2026-02-04T1500,1945A,98.291,39.7705,嘉峪关市,气象局,颗粒物(PM10),78,105,118,42,37,84,,73,54,16,17,16,11,0.6,0.4
2026-02-04T1500,2884A,98.2672,39.7978,嘉峪关市,酒钢宾馆,颗粒物(PM10),91,132,126,42,38,68,,70,56,33,19,56,21,2.6,1
2026-02-04T1500,3248A,98.2644,39.7723,嘉峪关市,雄关区,,,89,95,31,35,80,,65,55,,30,23,14,0.8,0.6
2026-02-04T1500,1383A,113.1063,22.6058,江门市,北街,"颗粒物(PM10),细颗粒物(PM2.5)",55,60,55,39,39,160,,98,98,19,28,/,/,/,/
2026-02-04T1500,1384A,113.073,22.5835,江门市,西区,细颗粒物(PM2.5),55,51,59,39,38,143,,95,95,22,28,/,/,/,/
2026-02-04T1500,1385A,113.0218,22.531,江门市,圭峰西,,45,45,53,26,35,132,,94,94,13,24,/,/,/,/
2026-02-04T1500,1386A,113.0826,22.5947,江门市,东湖,颗粒物(PM10),61,71,63,37,39,149,,96,96,21,26,8,8,0.5,0.6
2026-02-04T1500,3311A,113.1077,22.5647,江门市,江海富民,颗粒物(PM10),67,84,73,31,38,145,,96,96,19,33,/,/,0.5,0.6
2026-02-04T1500,3449A,113.0496,22.4669,江门市,新会银湖,,45,45,52,24,36,124,,87,87,12,30,6,7,0.5,0.6
2026-02-04T1500,3335A,113.3137,35.2643,焦作市,马村街道办,颗粒物(PM10),74,98,134,50,85,88,,54,54,22,33,10,10,0.7,1
2026-02-04T1500,3336A,113.2464,35.2374,焦作市,焦作技师学院,细颗粒物(PM2.5),69,83,130,50,87,86,,48,48,26,40,10,12,0.8,1.1
2026-02-04T1500,3477A,113.1656,35.2536,焦作市,中站许衡医院,,,80,106,62,73,91,,68,62,,29,11,12,0.9,1
2026-02-04T1500,3981A,113.2456,35.18,焦作市,原李万街道办,颗粒物(PM10),71,92,128,51,86,95,,,,22,41,14,17,0.8,0.9
2026-02-04T1500,4264A,113.234,35.219,焦作市,新安路1731号,颗粒物(PM10),70,90,135,48,84,96,,56,56,19,34,10,12,0.5,0.7
2026-02-04T1500,4295A,113.2722,35.2121,焦作市,人民路3066号,细颗粒物(PM2.5),75,80,128,55,87,83,,50,50,26,35,10,11,0.8,0.9
2026-02-04T1500,1708A,116.3701,23.5345,揭阳市,新兴,,,65,67,40,37,145,,93,93,19,24,,9,0.7,0.7
2026-02-04T1500,1709A,116.3261,23.5442,揭阳市,西马,颗粒物(PM10),54,57,68,35,39,156,,96,96,15,19,6,6,0.7,0.7
2026-02-04T1500,1710A,116.361,23.5627,揭阳市,东兴,颗粒物(PM10),59,68,66,31,37,152,,98,98,15,19,9,9,/,/
2026-02-04T1500,1711A,116.4151,23.5295,揭阳市,渔湖,颗粒物(PM10),57,64,66,36,38,162,,106,106,15,21,7,7,/,/
2026-02-04T1500,3320A,116.4028,23.5699,揭阳市,曲溪,,,74,68,29,39,169,,108,108,15,18,,3,0.7,0.7
2026-02-04T1500,1944A,102.1691,38.5166,金昌市,天庆家园,颗粒物(PM10),60,70,99,22,35,96,,64,64,8,20,54,18,0.7,0.9
2026-02-04T1500,4022A,102.1648,38.5369,金昌市,金川区人防中心,颗粒物(PM10),51,51,103,18,36,95,,75,75,7,15,21,25,0.3,0.6
2026-02-04T1500,4239A,102.193042,38.531887,金昌市,长春路96号,,44,44,108,15,38,88,,55,55,5,22,14,27,0.6,0.9
2026-02-04T1500,1262A,119.6478,29.0773,金华市,十五中,细颗粒物(PM2.5),62,66,95,44,60,116,,58,58,19,56,4,3,0.7,0.7
2026-02-04T1500,1263A,119.6859,29.1032,金华市,监测站,颗粒物(PM10),67,84,105,45,65,76,,32,32,37,69,5,4,0.6,0.6
2026-02-04T1500,3659A,119.656,29.1132,金华市,气象局,颗粒物(PM10),68,85,95,47,60,93,,44,44,39,71,6,5,0.9,0.8
2026-02-04T1500,1767A,121.1114,41.0879,锦州市,南山,颗粒物(PM10),55,59,118,28,87,93,,72,72,16,67,14,22,0.4,1.3
2026-02-04T1500,1768A,121.060361,40.842794,锦州市,开发区,,,98,137,39,104,79,,54,54,,65,12,26,0.8,1.3
2026-02-04T1500,1769A,121.1836,41.1118,锦州市,百股街道,颗粒物(PM10),60,69,120,33,95,87,,69,69,18,63,8,20,0.7,1.5
2026-02-04T1500,1770A,121.1176,41.1224,锦州市,天安街道,,42,36,127,29,101,90,,61,61,16,60,11,18,0.6,1.7
2026-02-04T1500,1771A,121.1303,41.1385,锦州市,北湖公园,,50,50,122,27,96,84,,60,60,16,62,14,22,0.5,1.3
2026-02-04T1500,2160A,112.8496,35.5051,晋城市,自来水公司,,,76,118,24,63,100,,68,68,19,34,,10,0.6,1.3
2026-02-04T1500,2162A,112.8509,35.4886,晋城市,市环保局,颗粒物(PM10),58,66,110,34,73,103,,71,71,18,36,7,8,0.4,0.9
2026-02-04T1500,3620A,112.8258,35.4804,晋城市,泽州一中,颗粒物(PM10),72,94,121,34,69,115,,75,75,11,24,6,7,0.6,1.2
2026-02-04T1500,4078A,112.8246,35.5152,晋城市,前书院路,颗粒物(PM10),68,85,129,17,58,109,,69,69,14,28,8,9,0.5,0.9
2026-02-04T1500,4079A,112.8864,35.4773,晋城市,祥云街666号,颗粒物(PM10),68,85,115,36,78,111,,75,75,16,29,9,12,0.5,0.9
2026-02-04T1500,2174A,112.6992,37.6984,晋中市,榆次区政府,细颗粒物(PM2.5),99,136,128,74,68,65,,34,34,43,57,25,25,1.1,1.3
2026-02-04T1500,2865A,112.7195,37.683,晋中市,榆次三中,颗粒物(PM10),103,156,120,69,63,66,,44,44,41,59,29,24,1.8,1
2026-02-04T1500,4080A,112.7375,37.7215,晋中市,广安街188号,颗粒物(PM10),84,117,123,60,66,67,,38,38,42,60,31,20,0.9,1
2026-02-04T1500,4200A,112.7478,37.6954,晋中市,迎宾街26号,颗粒物(PM10),97,144,116,70,63,68,,40,40,42,52,31,26,1.2,1.1
2026-02-04T1500,2439A,112.2012,31.048,荆门市,竹园小学,细颗粒物(PM2.5),189,180,152,142,108,63,,46,46,37,42,1,2,0.9,1
2026-02-04T1500,2440A,112.1968,30.9892,荆门市,掇刀,细颗粒物(PM2.5),192,178,161,144,118,68,,44,44,29,42,6,6,1.0,1.1
2026-02-04T1500,3012A,112.1849,31.0361,荆门市,西山林语,细颗粒物(PM2.5),159,169,137,121,92,71,,52,52,33,32,2,2,1.1,1.1
2026-02-04T1500,3547A,112.1631,31.0134,荆门市,龙泉中学南校,细颗粒物(PM2.5),152,185,155,116,102,74,,56,56,31,31,7,9,0.1,0.2
2026-02-04T1500,4124A,112.2213,31.0654,荆门市,新台西路6号,细颗粒物(PM2.5),173,163,170,131,123,37,,25,25,42,53,10,9,1.0,1.4
2026-02-04T1500,1844A,112.2493,30.3198,荆州市,市图书馆,细颗粒物(PM2.5),148,141,114,113,92,11,,8,8,71,47,7,9,1.2,1.3
2026-02-04T1500,1845A,112.2009,30.3543,荆州市,市委党校,细颗粒物(PM2.5),193,175,138,145,108,4,,5,5,64,50,8,11,1.5,1.4
2026-02-04T1500,3194A,112.2749,30.3124,荆州市,管委会,细颗粒物(PM2.5),166,152,119,126,97,8,,3,3,73,46,7,9,1.2,1.1
2026-02-04T1500,4268A,112.1722,30.3366,荆州市,学苑路85号,细颗粒物(PM2.5),195,175,127,146,108,16,,11,11,62,39,11,14,1.2,1
2026-02-04T1500,2343A,117.2114,29.2931,景德镇市,老干部活动中心,细颗粒物(PM2.5),55,48,51,39,31,66,,37,37,20,26,8,4,0.8,0.7
2026-02-04T1500,2344A,117.1893,29.2789,景德镇市,兽医站,细颗粒物(PM2.5),57,48,57,40,34,70,,43,43,35,30,3,4,0.6,0.6
2026-02-04T1500,2346A,117.246,29.2958,景德镇市,陶研所,细颗粒物(PM2.5),53,42,37,37,25,76,,42,42,16,20,4,4,0.7,0.6
2026-02-04T1500,4289A,117.154766,29.256967,景德镇市,青少年活动中心,细颗粒物(PM2.5),77,63,59,56,36,68,,41,41,38,35,36,9,/,/
2026-02-04T1500,1803A,115.9873,29.6816,九江市,十里,颗粒物(PM10),59,68,79,36,51,43,,30,30,48,56,7,8,0.9,1.1
2026-02-04T1500,1804A,115.9583,29.7047,九江市,茅山头,颗粒物(PM10),58,66,76,40,43,36,,36,36,48,56,5,5,0.7,0.8
2026-02-04T1500,1805A,115.9877,29.7295,九江市,西园,细颗粒物(PM2.5),63,66,75,45,45,33,,38,38,70,62,8,8,0.8,0.9
2026-02-04T1500,1808A,115.9112,29.6038,九江市,综合工业园,颗粒物(PM10),54,58,70,33,47,19,,37,37,69,52,4,4,0.5,0.5
2026-02-04T1500,3190A,116.0254,29.6995,九江市,外国语学校,细颗粒物(PM2.5),63,60,63,45,49,32,,32,32,59,53,8,8,0.8,0.9
2026-02-04T1500,4253A,116.010205,29.659402,九江市,莲花大道8号,颗粒物(PM10),63,76,67,42,42,34,,43,42,57,32,6,4,0.5,0.6
2026-02-04T1500,4240A,98.495752,39.733935,酒泉市,玉门东路5号,细颗粒物(PM2.5),132,119,126,100,50,85,,50,50,10,19,18,13,0.7,0.6
2026-02-04T1500,4241A,98.5099,39.7506,酒泉市,北大街108号,颗粒物(PM10),85,119,123,47,48,86,,52,52,9,19,23,17,0.8,0.8
2026-02-04T1500,2698A,76.0071,39.466,喀什地区,巡警大队,颗粒物(PM10),138,225,241,72,110,54,,16,16,57,53,12,9,1.4,2.4
2026-02-04T1500,2699A,75.9756,39.4693,喀什地区,吾办,颗粒物(PM10),136,222,220,65,101,76,,25,25,34,53,,12,1.0,1.8
2026-02-04T1500,4027A,75.9485,39.4688,喀什地区,老干局,颗粒物(PM10),125,200,257,38,107,78,,27,27,20,46,6,8,0.7,2.5
2026-02-04T1500,1824A,114.3389,34.778,开封市,肿瘤医院,细颗粒物(PM2.5),77,86,116,56,88,101,,52,52,25,38,11,9,0.9,0.9
2026-02-04T1500,1826A,114.2884,34.7966,开封市,世纪星幼儿园,,,66,113,63,90,97,,62,62,21,38,,6,,0.9
2026-02-04T1500,3147A,114.3434,34.8101,开封市,龙亭公园,细颗粒物(PM2.5),74,81,112,54,81,101,,52,52,26,40,12,9,0.7,0.7
2026-02-04T1500,3210A,114.3645,34.7955,开封市,汴京公园,颗粒物(PM10),78,106,120,52,75,100,,50,50,24,35,10,6,0.7,0.7
2026-02-04T1500,3473A,114.2485,34.8306,开封市,技师学院,,,94,102,52,81,102,,62,62,22,33,10,8,,1
2026-02-04T1500,3592A,114.4518,34.7503,开封市,祥符区生态环境局,细颗粒物(PM2.5),104,108,134,78,89,88,,51,51,30,38,15,6,1.0,0.9
2026-02-04T1500,1951A,84.886,45.6029,克拉玛依市,长征新村,细颗粒物(PM2.5),183,189,155,138,115,34,,36,26,51,43,6,6,1.6,1.5
2026-02-04T1500,1952A,84.8894,45.5827,克拉玛依市,南林小区,细颗粒物(PM2.5),206,179,159,156,128,35,,32,27,24,19,3,2,1.5,1.4
2026-02-04T1500,1954A,84.896,44.3328,克拉玛依市,独山子区,颗粒物(PM10),59,68,185,40,130,93,,92,72,15,28,3,3,0.7,1.1
2026-02-04T1500,1955A,85.6888,46.0909,克拉玛依市,乌尔禾区商贸楼,细颗粒物(PM2.5),196,161,144,147,123,66,,53,53,30,38,7,8,1.5,1.5
2026-02-04T1500,3612A,85.1045,45.6895,克拉玛依市,白碱滩区新站,细颗粒物(PM2.5),220,193,160,170,138,29,,41,27,45,37,10,9,1.6,1.4
2026-02-04T1500,2697A,76.1457,39.7143,克孜勒苏柯尔克孜自治州,市人民政府,颗粒物(PM10),135,220,200,92,68,87,,61,60,32,16,7,4,0.8,0.5
2026-02-04T1500,3665A,76.1654,39.7157,克孜勒苏柯尔克孜自治州,克州文化中心,颗粒物(PM10),128,206,184,91,72,87,,64,50,24,18,8,5,1.0,0.8
2026-02-04T1500,1450A,102.8203,24.889,昆明市,呈贡新区,,28,24,36,10,23,87,,73,73,10,17,5,4,0.3,0.5
2026-02-04T1500,1452A,102.7253,25.0904,昆明市,龙泉镇,,28,6,38,3,24,88,,64,64,7,23,3,4,0.3,0.5
2026-02-04T1500,1453A,102.7267,25.0378,昆明市,东风东路,,28,15,37,3,24,88,,70,70,9,18,7,8,0.3,0.5
2026-02-04T1500,1454A,102.6744,25.0671,昆明市,金鼎山,,,,2,2,2,86,,,,,7,3,3,0.5,0.7
2026-02-04T1500,1455A,102.6643,25.0401,昆明市,碧鸡广场,,28,15,44,3,27,89,,61,61,7,29,5,6,0.3,0.6
2026-02-04T1500,3179A,102.7491,25.012,昆明市,官渡区博物馆,,30,30,44,8,28,90,,62,62,10,26,6,5,0.3,0.7
2026-02-04T1500,3375A,102.8016,24.8336,昆明市,青年创业园,,29,15,38,9,23,92,,69,69,3,20,4,6,0.4,0.6
2026-02-04T1500,3550A,102.8,24.9787,昆明市,昆明学院,,33,17,41,3,23,103,,78,78,7,16,4,4,0.5,0.6
2026-02-04T1500,3551A,102.5969,24.6738,昆明市,晋宁区生态环境分局,,27,,35,13,27,85,,65,65,2,10,2,2,0.3,0.5
2026-02-04T1500,3552A,102.6673,24.9861,昆明市,云天化总部,,28,17,40,3,23,88,,61,61,11,25,9,8,0.3,0.6
2026-02-04T1500,1456A,91.132,29.6515,拉萨市,八廓街,,30,7,17,3,8,96,,88,79,3,7,7,7,0.3,0.3
2026-02-04T1500,1457A,91.1221,29.6748,拉萨市,市环保局,,29,12,26,3,12,92,,81,68,5,12,8,7,0.3,0.4
2026-02-04T1500,1458A,91.0874,29.6476,拉萨市,区监测站,,29,7,13,3,7,92,,84,75,4,8,4,4,0.8,0.8
2026-02-04T1500,1459A,91.1774,29.6541,拉萨市,西藏大学,,27,8,19,3,10,86,,79,69,6,12,4,5,0.4,0.6
2026-02-04T1500,1460A,90.9798,29.6586,拉萨市,区辐射站,,28,,25,8,13,87,,84,71,5,10,3,4,0.2,0.3
2026-02-04T1500,1461A,91.0831,29.6292,拉萨市,拉萨火车站,,28,7,14,3,6,87,,85,80,3,4,4,4,0.3,0.3
2026-02-04T1500,2520A,109.2203,23.7252,来宾市,来宾技工学校,细颗粒物(PM2.5),212,169,134,162,105,52,,27,27,25,36,11,18,1.3,1.3
2026-02-04T1500,3535A,109.1781,23.7293,来宾市,兴宾区政府,细颗粒物(PM2.5),265,236,141,215,109,53,,28,28,30,36,6,9,1.5,1.2
2026-02-04T1500,4002A,109.2312,23.7428,来宾市,中南小学,细颗粒物(PM2.5),195,169,131,146,110,59,,25,25,23,39,4,11,1.3,1.4
2026-02-04T1500,1479A,103.8309,36.0467,兰州市,铁路设计院,,,,,,,,,,,,,,,,
2026-02-04T1500,3241A,103.7439,36.0841,兰州市,百合公园,细颗粒物(PM2.5),84,94,105,62,57,86,,36,36,30,48,21,12,1.0,1.1
2026-02-04T1500,3242A,103.9613,35.9985,兰州市,和平,颗粒物(PM10),80,110,111,53,54,94,,50,50,23,33,20,14,1.3,1.2
2026-02-04T1500,4236A,103.629272,36.093822,兰州市,庄浪东路808号,细颗粒物(PM2.5),97,139,114,72,57,93,,45,45,51,46,22,16,1.2,0.9
2026-02-04T1500,4237A,103.7251,36.104344,兰州市,安宁西路88号,颗粒物(PM10),78,105,120,54,55,102,,44,44,30,42,23,14,0.9,0.8
2026-02-04T1500,4238A,103.846982,36.067567,兰州市,北滨河东路1号,细颗粒物(PM2.5),80,96,111,59,55,75,,34,34,56,59,20,14,1.5,1.4
2026-02-04T1500,1067A,116.6712,39.5109,廊坊市,药材公司,细颗粒物(PM2.5),114,117,178,86,143,68,,35,35,48,70,4,9,0.7,1.3
2026-02-04T1500,1068A,116.7215,39.5592,廊坊市,开发区,细颗粒物(PM2.5),84,104,167,62,129,68,,33,33,46,80,4,8,0.6,1.2
2026-02-04T1500,1070A,116.7246,39.5273,廊坊市,北华航天学院,细颗粒物(PM2.5),112,113,182,84,139,67,,36,36,46,76,7,11,0.7,1.3
2026-02-04T1500,2919A,116.7022,39.5454,廊坊市,河北工业大学,细颗粒物(PM2.5),94,109,182,70,130,70,,36,36,40,71,4,9,0.7,1.2
2026-02-04T1500,2536A,103.7629,29.5844,乐山市,牛耳桥,细颗粒物(PM2.5),118,110,119,89,87,90,,66,66,19,33,6,7,,1.2
2026-02-04T1500,2537A,103.7501,29.6002,乐山市,市第三水厂,细颗粒物(PM2.5),110,123,122,83,89,90,,52,52,21,34,4,5,1.0,1
2026-02-04T1500,2538A,103.7571,29.5664,乐山市,市监测站,细颗粒物(PM2.5),107,110,116,80,83,88,,51,51,18,25,6,8,0.9,1
2026-02-04T1500,3361A,103.7313,29.563,乐山市,理工大学,细颗粒物(PM2.5),114,116,114,86,82,84,,49,49,17,22,3,3,1.0,1
2026-02-04T1500,2599A,100.2497,26.8802,丽江市,丽江古城,,26,19,18,3,7,83,,74,74,7,10,6,9,0.3,0.5
2026-02-04T1500,2600A,100.2203,26.8906,丽江市,市中心,,26,16,12,7,8,82,,76,76,8,10,5,5,0.3,0.3
2026-02-04T1500,1267A,119.9141,28.4513,丽水市,监测站大楼,,34,34,43,22,25,94,,81,76,13,14,5,4,0.4,0.3
2026-02-04T1500,1268A,119.93,28.4589,丽水市,莲都小学,,38,38,42,20,24,94,,80,76,14,15,/,/,/,/
2026-02-04T1500,1269A,119.8794,28.4232,丽水市,余庄前,,,40,43,24,24,88,,44,,16,17,,5,0.4,0.4
2026-02-04T1500,1173A,119.1759,34.5885,连云港市,市环境监测站,细颗粒物(PM2.5),85,80,109,63,88,106,,68,68,15,28,12,12,0.5,0.7
2026-02-04T1500,3000A,119.3577,34.6971,连云港市,德源药业,,,85,115,58,82,103,,57,57,,36,7,7,0.5,1.1
2026-02-04T1500,3007A,119.178,34.8442,连云港市,新城一中,细颗粒物(PM2.5),100,106,115,75,92,105,,68,68,32,40,11,11,0.9,1
2026-02-04T1500,3008A,119.3607,34.7519,连云港市,胡沟管理处,细颗粒物(PM2.5),117,119,105,88,79,60,,74,47,51,29,11,10,0.8,0.8
2026-02-04T1500,3009A,119.1478,34.5913,连云港市,矿山设计院,细颗粒物(PM2.5),83,88,113,61,81,107,,68,68,17,32,8,9,0.8,1
2026-02-04T1500,3434A,119.2414,34.6539,连云港市,工贸学校,细颗粒物(PM2.5),100,92,109,75,85,112,,81,81,25,28,12,13,0.6,0.7
2026-02-04T1500,3664A,119.4171,34.734,连云港市,连云街道,细颗粒物(PM2.5),118,139,121,89,83,37,,74,29,72,40,9,9,0.9,0.9
2026-02-04T1500,2573A,102.2629,27.8981,凉山彝族自治州,西昌市政府,,29,29,27,12,11,87,,72,72,7,9,12,12,0.5,0.6
2026-02-04T1500,2574A,102.2686,27.885,凉山彝族自治州,凉山州政府,,28,28,29,10,11,83,,59,59,6,11,14,14,0.5,0.7
2026-02-04T1500,4229A,102.2342,27.8859,凉山彝族自治州,凯乐南路30号,,38,38,34,10,8,82,,66,64,9,9,16,12,1.1,0.6
2026-02-04T1500,2212A,123.1978,41.2036,辽阳市,宏伟区,细颗粒物(PM2.5),148,157,102,113,79,40,,76,50,33,18,11,11,1.2,1
2026-02-04T1500,2213A,123.1684,41.2497,辽阳市,新华园,细颗粒物(PM2.5),137,135,108,104,89,48,,74,41,38,30,9,12,0.8,0.8
2026-02-04T1500,2214A,123.2355,41.2663,辽阳市,滨河路,细颗粒物(PM2.5),135,123,94,103,77,43,,67,38,34,26,10,15,1.2,1
2026-02-04T1500,4083A,123.153,41.2874,辽阳市,铁西路150号,细颗粒物(PM2.5),125,118,117,95,91,51,,63,36,32,32,13,16,1.0,1.1
2026-02-04T1500,2227A,125.1359,42.8845,辽源市,环保局,细颗粒物(PM2.5),107,81,94,80,83,86,,59,59,17,38,11,10,1.0,1.4
2026-02-04T1500,4085A,125.0998,42.9134,辽源市,安宁大街333号,细颗粒物(PM2.5),109,97,105,82,80,93,,77,71,18,23,8,11,0.8,0.8
2026-02-04T1500,1625A,115.9789,36.4372,聊城市,区政府,细颗粒物(PM2.5),130,144,140,99,100,95,,61,61,24,28,19,14,,1
2026-02-04T1500,3200A,115.9772,36.4986,聊城市,监控中心,细颗粒物(PM2.5),132,147,138,100,98,100,,64,64,27,29,10,10,1.1,1
2026-02-04T1500,3513A,116.0443,36.436,聊城市,九州社区,细颗粒物(PM2.5),133,154,140,101,102,109,,74,74,13,15,8,4,0.9,0.7
2026-02-04T1500,4018A,116.0564,36.4609,聊城市,星美广场,细颗粒物(PM2.5),140,157,143,107,103,102,,70,70,17,19,9,5,1.1,0.9
2026-02-04T1500,4113A,116.0091,36.4495,聊城市,利民路,细颗粒物(PM2.5),123,139,138,93,95,96,,63,63,32,28,17,11,1.2,1
2026-02-04T1500,2632A,94.3683,29.6373,林芝市,林芝监测站,,30,22,18,3,14,95,,89,88,2,2,5,5,0.4,0.4
2026-02-04T1500,2633A,94.3616,29.6634,林芝市,林芝人民医院,,30,23,20,6,15,93,,85,82,1,2,7,5,0.3,0.3
2026-02-04T1500,2603A,100.0779,23.8981,临沧市,市环保局,,44,44,46,19,32,114,,66,66,8,15,8,8,0.5,0.6
2026-02-04T1500,2604A,100.0894,23.882,临沧市,市气象局,,34,34,58,20,35,102,,56,56,6,12,12,11,0.4,0.6
2026-02-04T1500,1733A,111.5552,36.0791,临汾市,临钢医院,细颗粒物(PM2.5),119,145,129,90,74,87,,47,47,37,45,16,10,1.8,1.4
2026-02-04T1500,1734A,111.4984,36.0734,临汾市,技工学校,细颗粒物(PM2.5),134,124,127,102,90,88,,49,49,39,47,,11,,1.9
2026-02-04T1500,1736A,111.5017,36.0857,临汾市,市委,细颗粒物(PM2.5),125,139,130,95,82,83,,42,42,32,46,17,12,1.4,1.2
2026-02-04T1500,3018A,111.5048,36.1015,临汾市,唐尧大酒店,细颗粒物(PM2.5),117,142,126,88,73,85,,42,42,37,49,15,9,2.0,1.7
2026-02-04T1500,4244A,111.4879,36.053,临汾市,启星学校,细颗粒物(PM2.5),112,117,123,84,85,99,,44,44,30,54,21,12,1.6,1.4
2026-02-04T1500,4271A,103.2464,35.6123,临夏回族自治州,滨河东路1号,颗粒物(PM10),94,137,183,63,99,87,,41,41,19,37,14,10,0.9,1.6
2026-02-04T1500,4310A,103.207136,35.599807,临夏回族自治州,新华街21号,细颗粒物(PM2.5),99,123,173,74,105,89,,43,43,20,33,14,14,0.8,1.5
2026-02-04T1500,1618A,118.3429,35.0532,临沂市,沂河小区,细颗粒物(PM2.5),84,92,129,62,89,99,,63,63,18,35,12,16,0.6,0.7
2026-02-04T1500,1619A,118.2962,35.0568,临沂市,鲁南制药厂,细颗粒物(PM2.5),88,92,124,65,91,94,,61,61,28,46,15,17,0.5,0.7
2026-02-04T1500,1620A,118.2793,34.9976,临沂市,新光毛纺厂,细颗粒物(PM2.5),92,83,124,68,95,100,,60,60,18,40,12,17,0.6,0.8
2026-02-04T1500,1621A,118.3955,35.0889,临沂市,河东保险公司,细颗粒物(PM2.5),88,88,120,65,94,110,,66,66,26,38,16,14,0.7,0.9
2026-02-04T1500,3370A,118.3563,35.0215,临沂市,十里堡居委,细颗粒物(PM2.5),89,85,126,66,95,102,,64,64,27,41,14,18,0.7,0.8
2026-02-04T1500,3496A,118.359,35.1067,临沂市,南坊新区,,,,114,,86,106,,71,71,,40,12,14,0.8,0.9
2026-02-04T1500,3860A,118.3915,35.0297,临沂市,皇山花园小区,细颗粒物(PM2.5),94,88,124,70,102,107,,71,71,23,38,16,18,0.8,0.9
2026-02-04T1500,1870A,109.4854,24.3898,柳州市,柳东小学,细颗粒物(PM2.5),155,,101,118,85,15,,20,15,41,21,8,9,1.6,1.1
2026-02-04T1500,1871A,109.4109,24.3304,柳州市,环保监测站,细颗粒物(PM2.5),150,122,137,115,98,20,,12,12,,56,,16,2.3,1.6
2026-02-04T1500,1872A,109.3886,24.3408,柳州市,河西水厂,细颗粒物(PM2.5),198,156,188,148,131,11,,10,10,60,50,11,16,1.6,1.1
2026-02-04T1500,1873A,109.4263,24.2951,柳州市,市四中,细颗粒物(PM2.5),208,165,128,158,103,25,,9,9,58,55,,10,1.9,1.7
2026-02-04T1500,1874A,109.396,24.3658,柳州市,市九中,细颗粒物(PM2.5),178,155,154,134,110,19,,10,10,48,47,14,21,2.1,1.5
2026-02-04T1500,1875A,109.4912,24.3164,柳州市,古亭山,细颗粒物(PM2.5),185,141,100,139,75,38,,15,15,52,50,6,8,1.1,0.8
2026-02-04T1500,3402A,109.5422,24.3994,柳州市,市二中,细颗粒物(PM2.5),162,,93,123,87,44,,25,25,38,33,9,10,1.2,1
2026-02-04T1500,2307A,116.5078,31.7369,六安市,监测大楼,,40,40,72,19,49,99,,65,65,11,28,3,4,0.3,0.5
2026-02-04T1500,2308A,116.4738,31.7642,六安市,皖西学院,,40,40,80,16,52,108,,65,65,8,30,4,5,0.4,0.6
2026-02-04T1500,2309A,116.4997,31.7904,六安市,朝阳厂,,36,36,74,20,52,104,,67,67,7,27,6,6,0.4,0.6
2026-02-04T1500,2310A,116.5566,31.7885,六安市,开发区,,35,35,81,19,57,109,,66,66,30,31,5,5,0.5,0.6
2026-02-04T1500,2577A,104.8293,26.592,六盘水市,黄土坡,,49,48,45,34,36,72,,39,39,22,24,15,9,1.1,1.6
2026-02-04T1500,2579A,104.8481,26.5898,六盘水市,民中,细颗粒物(PM2.5),53,49,49,37,39,73,,40,40,17,22,9,6,0.8,1.8
2026-02-04T1500,2580A,104.9541,26.5506,六盘水市,双水,,41,41,29,25,19,64,,43,43,11,12,6,4,0.6,0.8
2026-02-04T1500,4151A,104.8899,26.5685,六盘水市,钟山大道中段564号,颗粒物(PM10),51,52,46,28,30,68,,40,40,11,15,10,8,1.1,2
2026-02-04T1500,2336A,117.022,25.1031,龙岩市,龙岩市监测站,,33,28,40,9,32,105,,82,82,6,24,6,13,0.5,0.8
2026-02-04T1500,2337A,117.0257,25.0662,龙岩市,闽西职业技术学院,,34,28,42,8,28,106,,85,85,6,20,5,8,0.5,0.7
2026-02-04T1500,2338A,117.0195,25.0306,龙岩市,龙岩学院,,34,21,34,9,24,106,,76,76,6,16,4,5,/,/
2026-02-04T1500,2885A,104.9344,33.3827,陇南市,滨江中学,颗粒物(PM10),65,80,75,34,39,77,,41,41,15,21,5,6,1.1,1.2
2026-02-04T1500,3247A,104.9551,33.3709,陇南市,市总工会,颗粒物(PM10),65,79,65,41,36,73,,41,41,18,18,3,3,1.1,1.1
2026-02-04T1500,2488A,111.9984,27.7346,娄底市,市监测站,细颗粒物(PM2.5),107,112,111,80,75,54,,20,20,29,39,13,9,1.3,1.3
2026-02-04T1500,2491A,111.9888,27.7035,娄底市,市政府,,,125,97,72,64,49,,21,21,,38,11,6,0.9,0.7
2026-02-04T1500,4127A,111.9812,27.7591,娄底市,涟钢职大,细颗粒物(PM2.5),82,94,105,60,62,63,,26,18,30,34,15,10,1.5,1.3
2026-02-04T1500,4128A,112.0303,27.7457,娄底市,娄底体校,细颗粒物(PM2.5),104,109,92,78,65,52,,24,24,24,23,6,3,0.7,0.6
2026-02-04T1500,1894A,105.4427,28.9063,泸州市,小市上码头,细颗粒物(PM2.5),62,57,83,44,68,92,,46,46,8,24,6,5,1.1,1.2
2026-02-04T1500,1895A,105.4241,28.8573,泸州市,兰田宪桥,,,60,79,38,51,86,,45,45,14,25,,8,0.9,1
2026-02-04T1500,1896A,105.4378,28.8833,泸州市,市环监站,细颗粒物(PM2.5),89,67,91,66,60,80,,47,47,19,28,10,10,0.8,0.9
2026-02-04T1500,4272A,105.3689,28.7783,泸州市,纳溪中医医院,细颗粒物(PM2.5),68,62,63,49,62,88,,38,38,10,23,8,8,0.9,1.1
2026-02-04T1500,2183A,111.1447,37.5212,吕梁市,环保局,颗粒物(PM10),65,80,81,40,36,51,,27,27,38,49,11,11,0.6,0.6
2026-02-04T1500,2185A,111.1285,37.5338,吕梁市,自来水公司,颗粒物(PM10),72,93,93,31,41,54,,26,26,34,41,10,12,0.6,0.6
2026-02-04T1500,2867A,111.1225,37.5093,吕梁市,马茂庄小学,,,98,93,43,35,45,,24,24,,54,10,11,0.5,0.6
2026-02-04T1500,1812A,112.3934,34.6517,洛阳市,市委党校,细颗粒物(PM2.5),99,116,113,74,81,75,,37,37,39,45,11,9,1.0,1.1
2026-02-04T1500,1815A,112.494,34.6883,洛阳市,河南林校,细颗粒物(PM2.5),110,120,119,83,88,77,,38,38,44,46,16,12,1.0,1
2026-02-04T1500,1816A,112.3843,34.623,洛阳市,开发区管委会,颗粒物(PM10),87,123,128,56,76,80,,44,44,28,34,13,11,0.7,0.8
2026-02-04T1500,1817A,112.4263,34.6249,洛阳市,市委新办公区,,,115,124,66,84,79,,48,48,32,41,,10,0.7,0.8
2026-02-04T1500,3340A,112.6005,34.6323,洛阳市,伊滨,颗粒物(PM10),89,128,157,61,95,86,,51,51,32,45,12,10,0.8,0.9
2026-02-04T1500,3341A,112.495,34.6338,洛阳市,中移产业园,细颗粒物(PM2.5),102,104,112,76,87,84,,48,48,29,38,11,16,0.9,1
2026-02-04T1500,3593A,112.5736,34.8993,洛阳市,吉利监测站,细颗粒物(PM2.5),78,85,92,57,66,102,,60,60,26,40,13,10,0.7,0.8
2026-02-04T1500,3635A,112.3678,34.6623,洛阳市,河科大西苑校区,颗粒物(PM10),80,109,122,52,86,100,,40,40,22,45,13,10,0.8,1
2026-02-04T1500,3636A,112.4387,34.678,洛阳市,英才小学,细颗粒物(PM2.5),117,153,150,88,95,77,,35,35,52,66,15,12,1.1,1.2
2026-02-04T1500,4214A,112.460027,34.694929,洛阳市,春都路1号院,细颗粒物(PM2.5),113,163,150,85,91,73,,36,36,39,51,14,10,0.9,1.1
2026-02-04T1500,2399A,114.051,33.5721,漯河市,三五一五工厂,颗粒物(PM10),89,128,127,60,79,104,,70,70,13,28,6,6,0.8,0.9
2026-02-04T1500,2400A,114.0055,33.5698,漯河市,漯河大学,细颗粒物(PM2.5),90,102,109,67,75,106,,68,68,9,25,7,7,0.8,0.8
2026-02-04T1500,2401A,114.0134,33.5826,漯河市,市水利局,细颗粒物(PM2.5),83,105,113,61,76,88,,59,59,16,26,6,6,0.7,0.7
2026-02-04T1500,2402A,114.0261,33.5697,漯河市,市广电局,细颗粒物(PM2.5),88,98,110,65,83,99,,66,66,7,19,8,7,0.5,0.6
2026-02-04T1500,3478A,113.9691,33.568,漯河市,市图书馆,细颗粒物(PM2.5),92,122,120,68,76,96,,63,63,13,24,7,8,0.9,0.9
2026-02-04T1500,4250A,114.089259,33.588274,漯河市,韶山路11号,细颗粒物(PM2.5),92,128,122,68,73,101,,69,69,13,24,7,7,0.7,0.7
2026-02-04T1500,1798A,118.5084,31.6838,马鞍山市,湖东路四小,颗粒物(PM10),52,53,102,33,71,91,,54,54,17,35,5,8,0.5,0.7
2026-02-04T1500,1799A,118.5019,31.6449,马鞍山市,开发区,颗粒物(PM10),51,52,113,34,76,91,,52,52,18,43,6,9,0.5,0.8
2026-02-04T1500,3633A,118.4914,31.681,马鞍山市,雨山,颗粒物(PM10),57,63,108,36,71,94,,55,55,16,36,8,10,0.6,0.8
2026-02-04T1500,4191A,118.527362,31.722269,马鞍山市,慈湖高新区,颗粒物(PM10),54,57,106,37,72,87,,52,52,22,44,7,8,0.5,0.9
2026-02-04T1500,1686A,111.0285,21.469,茂名市,电白南海,颗粒物(PM10),53,56,50,26,24,112,,84,84,12,15,8,10,1.1,1.1
2026-02-04T1500,1687A,110.9294,21.6533,茂名市,茂石化七小,,32,31,46,11,22,100,,84,84,8,13,5,6,0.5,0.5
2026-02-04T1500,1688A,110.9108,21.6688,茂名市,健康路,,35,29,40,11,21,112,,89,89,10,15,3,7,0.5,0.6
2026-02-04T1500,1689A,110.8592,21.6826,茂名市,高岭,颗粒物(PM10),52,53,62,16,25,106,,82,82,7,15,3,11,/,/
2026-02-04T1500,3450A,111.0101,21.5165,茂名市,电白水东,,41,41,43,24,22,110,,86,86,22,22,8,10,/,/
2026-02-04T1500,2540A,103.8414,30.0871,眉山市,气象局,细颗粒物(PM2.5),105,111,120,79,82,80,,50,50,25,29,14,13,1.0,1
2026-02-04T1500,3148A,103.829,30.0563,眉山市,区人社局,细颗粒物(PM2.5),130,113,109,99,95,70,,44,44,27,28,13,13,0.9,1
2026-02-04T1500,4148A,103.8836,30.0695,眉山市,眉职院,细颗粒物(PM2.5),107,114,125,80,84,77,,44,44,18,26,6,5,0.9,1
2026-02-04T1500,1690A,116.1248,24.3307,梅州市,梅江月梅,,42,42,54,26,38,126,,105,105,16,21,/,/,/,/
2026-02-04T1500,1691A,116.0798,24.2719,梅州市,梅县新城,,33,30,56,18,36,105,,78,78,11,35,8,8,0.6,0.7
2026-02-04T1500,3315A,116.1234,24.2994,梅州市,梅龙,,44,44,65,21,38,116,,101,101,12,21,8,10,0.7,0.8
2026-02-04T1500,1878A,104.7775,31.4741,绵阳市,富乐山,细颗粒物(PM2.5),79,88,93,58,62,70,,27,27,16,35,9,8,0.8,0.9
2026-02-04T1500,1880A,104.6698,31.4668,绵阳市,高新区自来水公司,细颗粒物(PM2.5),78,94,110,57,71,72,,23,23,24,44,9,9,1.0,1
2026-02-04T1500,3491A,104.6899,31.5324,绵阳市,西科大附属小学,细颗粒物(PM2.5),85,100,114,63,70,78,,27,27,25,43,9,9,0.5,0.8
2026-02-04T1500,3492A,104.5647,31.5343,绵阳市,安州区旅游局,,,,98,,61,83,,39,39,,32,9,11,1.1,1.3
2026-02-04T1500,4146A,104.7092,31.4972,绵阳市,科技城新区公安局,细颗粒物(PM2.5),75,98,113,55,64,77,,28,28,29,48,5,5,0.9,1
2026-02-04T1500,4226A,104.765114,31.453094,绵阳市,绵阳市气象局,细颗粒物(PM2.5),88,82,102,65,66,66,,22,22,19,41,9,8,0.9,1
2026-02-04T1500,1784A,129.61,44.561,牡丹江市,环保大楼,细颗粒物(PM2.5),102,94,67,76,46,80,,58,58,22,36,6,8,0.7,0.7
2026-02-04T1500,1787A,129.6364,44.6075,牡丹江市,机车工厂,细颗粒物(PM2.5),103,87,94,77,63,78,,48,48,16,43,9,14,0.7,0.9
2026-02-04T1500,1788A,129.6386,44.5462,牡丹江市,第一中学,细颗粒物(PM2.5),97,75,51,72,37,75,,60,60,20,35,8,9,0.8,0.6
2026-02-04T1500,4287A,129.5992,44.5964,牡丹江市,东晓云街98号,细颗粒物(PM2.5),85,78,91,63,62,79,,47,47,23,45,8,14,0.4,0.8
2026-02-04T1500,2531A,105.0703,29.61,内江市,市监测站,细颗粒物(PM2.5),74,,79,54,69,104,,60,60,17,24,6,6,1.0,1.1
2026-02-04T1500,2533A,105.0657,29.5807,内江市,内江二中,细颗粒物(PM2.5),72,53,97,52,71,92,,38,38,15,28,7,7,0.6,0.8
2026-02-04T1500,2534A,105.0407,29.5828,内江市,内江日报社,细颗粒物(PM2.5),70,60,79,51,71,102,,50,50,18,34,7,7,0.9,1
2026-02-04T1500,4147A,105.0433,29.6105,内江市,玉峰路西段888号,细颗粒物(PM2.5),67,52,77,48,68,96,,55,55,20,28,6,5,0.6,0.7
2026-02-04T1500,2628A,92.0653,31.4846,那曲市,那曲监测站,,27,14,20,10,15,84,,76,76,2,9,5,6,0.5,0.8
2026-02-04T1500,4243A,92.0515,31.4787,那曲市,那曲市委宣传部,,29,7,15,3,13,92,,84,84,1,6,6,6,0.4,0.6
2026-02-04T1500,1291A,115.8887,28.7006,南昌市,省林业公司,细颗粒物(PM2.5),80,92,60,59,40,44,,21,21,61,54,8,5,0.9,0.6
2026-02-04T1500,1292A,115.813,28.7443,南昌市,林科所,细颗粒物(PM2.5),64,73,61,46,40,53,,28,28,37,45,12,9,0.3,0.5
2026-02-04T1500,1294A,115.8518,28.687,南昌市,建工学校,颗粒物(PM10),66,82,70,43,39,57,,25,25,40,39,12,9,0.9,0.7
2026-02-04T1500,1295A,115.8926,28.6425,南昌市,象湖,细颗粒物(PM2.5),64,72,61,46,42,61,,26,26,34,41,11,9,1.0,0.9
2026-02-04T1500,3046A,115.9084,28.6062,南昌市,机电学校,颗粒物(PM10),67,84,74,47,40,60,,32,32,43,47,8,6,0.7,0.6
2026-02-04T1500,3690A,115.9718,28.7032,南昌市,外国语学校,颗粒物(PM10),76,101,69,54,40,58,,27,27,45,44,19,14,1.0,0.8
2026-02-04T1500,4106A,115.7923,28.6873,南昌市,工业二路,,,77,74,46,42,59,,29,29,,44,7,4,0.7,0.7
2026-02-04T1500,4192A,115.931587,28.686774,南昌市,南京东路235号,细颗粒物(PM2.5),75,92,73,55,41,55,,24,24,45,43,12,9,0.8,0.6
2026-02-04T1500,1906A,106.0791,30.8022,南充市,南充市委,细颗粒物(PM2.5),73,72,80,53,57,61,,25,25,13,32,9,5,0.7,0.8
2026-02-04T1500,1907A,106.1038,30.8215,南充市,南充炼油厂,颗粒物(PM10),68,86,88,46,54,68,,31,31,13,25,12,7,0.7,0.8
2026-02-04T1500,4227A,106.108336,30.788436,南充市,梨树横街98号,细颗粒物(PM2.5),67,74,87,48,58,76,,33,33,18,31,13,7,0.6,0.7
2026-02-04T1500,4304A,106.1172,30.843,南充市,清泉寺北路188号,细颗粒物(PM2.5),58,62,71,41,52,77,,40,40,8,16,11,3,0.6,0.6
2026-02-04T1500,4305A,106.067,30.7616,南充市,同庆路1号,,,60,75,50,55,71,,26,26,22,37,10,7,,0.9
2026-02-04T1500,1151A,118.8033,32.1085,南京市,迈皋桥,,,56,80,39,59,94,,64,64,,31,8,8,0.3,0.4
2026-02-04T1500,1152A,118.7487,32.057,南京市,草场门,颗粒物(PM10),51,51,78,31,58,70,,49,49,23,35,5,8,0.7,0.8
2026-02-04T1500,1154A,118.770105,32.004342,南京市,中华门,颗粒物(PM10),54,58,86,32,62,92,,57,57,21,23,4,4,0.9,0.6
2026-02-04T1500,1155A,118.8059,32.0329,南京市,瑞金路,颗粒物(PM10),51,51,87,32,64,97,,95,80,3,14,6,4,1.2,1.1
2026-02-04T1500,1156A,118.7946,32.0774,南京市,玄武湖,,43,38,83,30,59,101,,68,68,17,27,3,7,0.5,0.6
2026-02-04T1500,1157A,118.6415,32.0964,南京市,浦口,"颗粒物(PM10),细颗粒物(PM2.5)",53,56,96,37,68,101,,64,64,20,34,5,5,0.3,0.4
2026-02-04T1500,1158A,118.730129,32.000956,南京市,奥体中心,颗粒物(PM10),57,64,83,29,60,101,,93,93,16,28,12,7,0.8,0.6
2026-02-04T1500,1159A,118.9072,32.1047,南京市,仙林大学城,,46,46,87,21,51,100,,66,66,15,28,7,7,0.6,0.7
2026-02-04T1500,3422A,118.8443,31.919,南京市,江宁彩虹桥,颗粒物(PM10),57,64,95,28,62,90,,57,57,30,38,6,4,1.1,0.8
2026-02-04T1500,3427A,118.8497,32.3599,南京市,六合雄州,颗粒物(PM10),59,67,92,39,62,116,,67,67,15,41,10,10,0.7,0.7
2026-02-04T1500,4086A,118.7641,32.0841,南京市,新模范马路66号,颗粒物(PM10),57,63,90,28,61,118,,80,80,17,24,3,4,0.5,0.8
2026-02-04T1500,4249A,118.8707617,31.34017673,南京市,汶溪路181号,颗粒物(PM10),52,54,105,33,67,101,,70,70,19,29,8,7,0.8,0.8
2026-02-04T1500,4312A,119.019,31.6512,南京市,中山西路1号,"颗粒物(PM10),细颗粒物(PM2.5)",52,53,78,36,60,87,,64,64,22,27,4,4,1.0,0.8
2026-02-04T1500,1401A,108.3098,22.788,南宁市,二十一中,细颗粒物(PM2.5),60,52,80,43,70,42,,38,38,26,55,4,5,0.7,0.8
2026-02-04T1500,1402A,108.3135,22.8529,南宁市,北湖,细颗粒物(PM2.5),60,43,93,43,72,56,,27,27,23,62,2,6,0.7,0.9
2026-02-04T1500,1403A,108.3205,22.8222,南宁市,市监测站,细颗粒物(PM2.5),59,50,89,42,66,50,,37,37,26,58,5,8,0.9,1.2
2026-02-04T1500,1404A,108.3828,22.8038,南宁市,大自然花园,细颗粒物(PM2.5),64,56,86,46,57,57,,50,50,15,36,5,6,0.9,1
2026-02-04T1500,1406A,108.2397,22.8462,南宁市,区农职院,细颗粒物(PM2.5),69,85,75,50,50,28,,23,23,51,46,4,6,1.2,1.2
2026-02-04T1500,1407A,108.3285,22.7356,南宁市,英华嘉园,细颗粒物(PM2.5),54,46,85,38,65,53,,38,38,25,55,3,4,0.6,0.8
2026-02-04T1500,3401A,108.4829,22.762,南宁市,红星社区,细颗粒物(PM2.5),75,80,90,55,75,36,,29,29,26,49,4,5,1.1,1.2
2026-02-04T1500,4132A,108.2927,23.1477,南宁市,起凤路9号,细颗粒物(PM2.5),64,64,111,46,85,75,,39,39,17,42,2,3,0.6,0.9
2026-02-04T1500,4221A,108.2177,22.7774,南宁市,乐贤路16号,,33,33,94,22,64,64,,36,36,19,47,2,4,0.8,1.1
2026-02-04T1500,2332A,118.1682,26.6371,南平市,南平市监测站,,40,40,44,24,31,114,,71,71,10,19,4,5,0.6,0.6
2026-02-04T1500,2334A,118.1757,26.6276,南平市,南平七中,颗粒物(PM10),57,63,45,31,32,116,,72,72,10,17,3,4,0.6,0.7
2026-02-04T1500,1168A,120.9056,31.9669,南通市,狼山街道,细颗粒物(PM2.5),79,79,53,58,35,94,,55,55,32,42,5,5,0.6,0.5
2026-02-04T1500,1170A,120.8635,32.0231,南通市,城中,细颗粒物(PM2.5),69,86,60,50,33,92,,60,60,30,34,8,6,0.8,0.6
2026-02-04T1500,1171A,120.9376,31.9301,南通市,星湖花园,颗粒物(PM10),66,82,56,47,34,102,,60,60,35,46,9,7,0.7,0.6
2026-02-04T1500,1172A,120.8053,32.046,南通市,紫琅学院,细颗粒物(PM2.5),80,97,60,59,37,73,,53,53,57,45,14,7,1.2,0.7
2026-02-04T1500,3291A,121.0631,32.0644,南通市,通州监测站,颗粒物(PM10),54,58,53,33,33,97,,61,61,33,37,8,5,0.8,0.5
2026-02-04T1500,3432A,120.9348,31.9874,南通市,环境教育馆,细颗粒物(PM2.5),70,75,58,51,36,97,,57,57,49,52,7,6,0.8,0.7
2026-02-04T1500,4091A,120.8692,31.9885,南通市,洪江路,细颗粒物(PM2.5),75,79,51,55,33,79,,48,48,50,45,9,6,0.8,0.5
2026-02-04T1500,2404A,112.5338,33.0086,南阳市,瓦房庄,细颗粒物(PM2.5),89,125,122,66,74,90,,50,50,17,27,5,5,0.8,1
2026-02-04T1500,2405A,112.5002,32.9734,南阳市,汉画馆,细颗粒物(PM2.5),139,122,132,106,109,93,,46,46,20,40,8,7,1.0,1.1
2026-02-04T1500,2406A,112.5778,33.0144,南阳市,气象站,细颗粒物(PM2.5),104,149,143,78,73,87,,48,48,21,29,6,6,0.8,1
2026-02-04T1500,2407A,112.548,32.9687,南阳市,理工学院,细颗粒物(PM2.5),98,120,126,73,79,90,,46,46,21,37,7,6,0.7,0.9
2026-02-04T1500,4008A,112.5233,32.9921,南阳市,卧龙区政府,细颗粒物(PM2.5),102,144,148,76,81,86,,44,44,18,32,7,6,0.8,1
2026-02-04T1500,1234A,121.8352,29.9111,宁波市,区环保大楼,颗粒物(PM10),52,54,27,16,9,41,,76,55,82,38,11,6,0.5,0.4
2026-02-04T1500,1235A,121.5595,29.8208,宁波市,万里学院,,34,34,33,18,16,100,,75,75,20,29,4,3,0.8,0.7
2026-02-04T1500,1236A,121.713,29.9564,宁波市,龙赛医院,颗粒物(PM10),60,70,32,30,14,66,,51,51,67,37,10,4,0.6,0.5
2026-02-04T1500,1240A,121.5855,29.8635,宁波市,太古小学,,38,38,31,18,15,103,,75,75,14,21,3,3,0.4,0.4
2026-02-04T1500,1241A,121.5239,29.8673,宁波市,市环境监测中心,,43,43,42,20,17,95,,63,63,17,24,3,7,0.4,0.5
2026-02-04T1500,2871A,121.6156,29.9015,宁波市,万里国际学校,,34,34,34,21,15,102,,74,73,19,23,4,4,0.4,0.3
2026-02-04T1500,3710A,121.5593,29.8976,宁波市,白沙活动中心,,33,31,37,22,18,104,,72,72,17,25,4,4,0.3,0.3
2026-02-04T1500,4095A,121.8962,29.7529,宁波市,中科路88号,,30,22,26,9,14,94,,67,67,14,23,6,7,0.3,0.3
2026-02-04T1500,2341A,119.5387,26.6611,宁德市,宁德市监测站,,40,40,34,19,18,86,,57,57,19,21,5,4,0.7,0.6
2026-02-04T1500,3209A,119.5231,26.6562,宁德市,宁德一中,,35,35,32,24,20,87,,62,62,21,14,4,3,0.5,0.4
2026-02-04T1500,2618A,98.859,25.8541,怒江傈僳族自治州,州监测站,,,,32,,17,,,50,50,,13,,5,,0.4
2026-02-04T1500,2619A,98.8607,25.8168,怒江傈僳族自治州,泸水一中,,39,39,30,12,21,82,,44,44,7,20,5,4,0.5,0.7
2026-02-04T1500,1888A,101.6891,26.571,攀枝花市,弄弄坪,,37,37,83,22,29,93,,50,50,14,42,17,71,0.6,2.1
2026-02-04T1500,1889A,101.577,26.5914,攀枝花市,河门口,,40,40,46,20,19,86,,45,45,20,28,28,27,2.0,1.3
2026-02-04T1500,1891A,101.7365,26.4986,攀枝花市,仁和,,,,33,15,20,88,,51,51,7,22,9,9,0.5,0.7
2026-02-04T1500,2835A,101.7222,26.567,攀枝花市,四十中小,,48,48,54,15,29,85,,42,42,17,49,15,25,0.6,1.5
2026-02-04T1500,1604A,122.0303,41.1489,盘锦市,开发区,细颗粒物(PM2.5),117,113,77,88,75,72,,60,60,20,22,8,8,0.6,0.3
2026-02-04T1500,1605A,122.0486,41.0883,盘锦市,兴隆台,细颗粒物(PM2.5),118,95,65,89,67,59,,58,52,33,30,7,6,0.7,0.7
2026-02-04T1500,1606A,121.8297,41.1026,盘锦市,新生街道,细颗粒物(PM2.5),139,,66,106,66,72,,55,55,28,32,8,6,0.6,0.5
2026-02-04T1500,1832A,113.3257,33.7423,平顶山市,新华旅馆,细颗粒物(PM2.5),85,91,118,63,79,101,,71,71,18,24,6,6,0.5,0.6
2026-02-04T1500,1833A,113.2917,33.737,平顶山市,规划设计院,细颗粒物(PM2.5),84,104,131,62,80,100,,66,66,13,22,8,7,0.7,0.7
2026-02-04T1500,1834A,113.182,33.7738,平顶山市,平顶山工学院,细颗粒物(PM2.5),95,103,111,71,80,105,,75,75,15,16,8,8,0.7,0.7
2026-02-04T1500,3594A,112.8736,33.9068,平顶山市,石龙区,,,,117,,71,100,,58,58,8,41,6,7,0.7,0.8
2026-02-04T1500,4116A,113.284,33.7139,平顶山市,姚电大道23号,细颗粒物(PM2.5),97,130,141,72,85,102,,63,63,20,29,10,8,0.7,0.8
2026-02-04T1500,2656A,106.6633,35.5338,平凉市,聚贤嘉苑,,44,44,83,18,36,96,,62,62,11,17,10,10,0.4,0.9
2026-02-04T1500,2657A,106.7021,35.5307,平凉市,博物馆,颗粒物(PM10),51,51,88,26,47,92,,55,55,12,26,8,10,0.4,0.8
2026-02-04T1500,2348A,113.8384,27.6436,萍乡市,中医院,颗粒物(PM10),87,123,91,57,46,69,,62,58,30,23,16,17,1.6,0.9
2026-02-04T1500,2350A,113.8677,27.6438,萍乡市,市环保局,细颗粒物(PM2.5),89,101,81,66,51,65,,60,55,32,20,15,18,1.3,0.7
2026-02-04T1500,2351A,113.8663,27.6202,萍乡市,安源区政府,细颗粒物(PM2.5),93,115,89,69,52,48,,38,37,35,29,16,12,1.5,0.9
2026-02-04T1500,4107A,113.8686,27.6668,萍乡市,联洪村委会,细颗粒物(PM2.5),73,88,82,53,47,65,,51,50,25,20,8,15,0.7,0.5
2026-02-04T1500,2319A,119.0142,25.4324,莆田市,荔城区仓后路,,36,34,45,10,21,113,,84,84,10,14,/,/,/,/
2026-02-04T1500,2320A,119.0016,25.4553,莆田市,莆田市监测站,,44,44,38,11,18,117,,90,90,11,10,3,3,0.4,0.4
2026-02-04T1500,2321A,119.112,25.4561,莆田市,涵江区六中,,36,36,41,11,18,113,,87,87,9,12,/,/,0.4,0.5
2026-02-04T1500,2322A,119.1014,25.3215,莆田市,秀屿区政府,,37,37,41,11,19,118,,96,96,7,10,4,3,0.5,0.6
2026-02-04T1500,2392A,115.0312,35.7636,濮阳市,环保局,细颗粒物(PM2.5),112,108,93,84,76,107,,60,60,23,20,16,8,1.1,0.9
2026-02-04T1500,3021A,115,35.7667,濮阳市,濮水河管理处,细颗粒物(PM2.5),110,133,120,83,78,110,,58,58,21,20,17,9,1.0,0.8
2026-02-04T1500,4118A,115.0552,35.7816,濮阳市,中原东路68号,细颗粒物(PM2.5),128,146,126,97,72,111,,61,61,27,26,17,8,1.0,1
2026-02-04T1500,4216A,115.0923632,35.76857718,濮阳市,任丘路479号,细颗粒物(PM2.5),122,140,123,92,79,107,,52,52,31,33,20,9,1.1,0.8
2026-02-04T1500,2601A,100.9801,22.7634,普洱市,市环保局,,50,50,55,20,27,100,,56,56,6,10,5,4,0.5,0.6
2026-02-04T1500,2602A,100.9763,22.8237,普洱市,普洱第二中学,颗粒物(PM10),51,51,55,20,31,100,,57,57,6,18,5,5,0.5,0.6
2026-02-04T1500,3345A,131.0413,45.7795,七台河市,中波台,,27,25,59,11,46,86,,62,62,6,20,9,11,0.4,0.7
2026-02-04T1500,3637A,131.0136,45.7688,七台河市,人民广场,,35,35,70,19,45,81,,58,58,14,32,11,11,0.4,0.8
2026-02-04T1500,3684A,130.8639,45.8144,七台河市,新建矿广场,颗粒物(PM10),53,56,76,19,51,80,,58,58,13,22,6,6,0.3,0.6
2026-02-04T1500,1779A,123.9307,47.3641,齐齐哈尔市,安居小区,,27,27,37,6,16,77,,69,69,6,22,8,11,0.2,0.5
2026-02-04T1500,1780A,123.9497,47.3389,齐齐哈尔市,中心广场,,23,18,25,7,13,72,,69,68,10,17,4,7,0.5,0.5
2026-02-04T1500,1781A,123.9483,47.3229,齐齐哈尔市,农牧车辆厂,,24,14,27,6,12,74,,68,68,5,13,4,5,0.2,0.3
2026-02-04T1500,1783A,123.9442,47.2994,齐齐哈尔市,市环境监测站,,24,12,32,3,11,75,,72,72,8,18,3,5,0.3,0.4
2026-02-04T1500,3662A,123.6341,47.2079,齐齐哈尔市,富区青少年活动中心,,25,25,41,6,15,77,,73,73,7,14,3,6,0.4,0.4
2026-02-04T1500,2591A,107.9765,26.5724,黔东南苗族侗族自治州,市环境监测站,颗粒物(PM10),69,87,76,49,43,21,,42,23,33,18,5,6,1.0,0.8
2026-02-04T1500,2881A,107.8909,26.531,黔东南苗族侗族自治州,凯里学院,细颗粒物(PM2.5),68,63,67,49,38,25,,47,29,23,16,3,4,0.9,0.8
2026-02-04T1500,2593A,107.5223,26.2371,黔南布依族苗族自治州,小围寨,,36,36,46,24,34,35,,14,14,10,16,7,6,0.9,1
2026-02-04T1500,3538A,107.5175,26.2977,黔南布依族苗族自治州,沙坝,,,,52,,35,38,,19,19,11,21,4,5,,1
2026-02-04T1500,2589A,104.9022,25.0943,黔西南布依族苗族自治州,场坝街,,42,31,33,29,23,32,,31,30,9,9,3,3,0.8,0.8
2026-02-04T1500,2590A,104.8812,25.0994,黔西南布依族苗族自治州,坪东大道,,46,,29,32,25,34,,30,29,8,8,5,4,0.9,1
2026-02-04T1500,2502A,108.6238,21.9667,钦州市,市环保站,颗粒物(PM10),62,73,67,39,38,54,,68,47,26,24,3,4,0.7,0.8
2026-02-04T1500,2503A,108.655,21.9481,钦州市,沙埠小学,颗粒物(PM10),66,82,74,42,42,36,,44,44,31,37,5,6,0.6,0.6
2026-02-04T1500,2504A,108.5989,21.7435,钦州市,港区一小,颗粒物(PM10),51,52,65,18,27,100,,82,67,20,30,2,3,0.8,0.8
2026-02-04T1500,3404A,108.5959,21.9634,钦州市,北职校,颗粒物(PM10),61,72,56,39,37,56,,57,38,22,26,3,4,0.7,0.7
2026-02-04T1500,1046A,119.5247,39.9346,秦皇岛市,建设大厦,颗粒物(PM10),58,66,177,35,127,63,,37,37,25,50,11,18,0.5,1.5
2026-02-04T1500,3132A,119.5979,39.938,秦皇岛市,文明里,颗粒物(PM10),63,76,179,33,115,69,,39,39,25,58,15,19,0.1,1.2
2026-02-04T1500,4066A,119.7458,39.9952,秦皇岛市,南园路157号,颗粒物(PM10),59,67,162,38,115,65,,39,39,33,64,14,17,0.5,1.4
2026-02-04T1500,4067A,119.5131,39.8858,秦皇岛市,翠岛大街1号,颗粒物(PM10),54,58,155,22,123,69,,36,36,20,56,12,17,0.5,1.4
2026-02-04T1500,4198A,119.509013,39.825305,秦皇岛市,北戴河轮滑馆,颗粒物(PM10),55,60,158,33,105,72,,41,41,30,62,12,13,0.4,1.2
2026-02-04T1500,1310A,120.404,36.0625,青岛市,市南区东部子站,细颗粒物(PM2.5),97,95,89,72,65,78,,76,73,25,24,12,10,0.7,0.6
2026-02-04T1500,1311A,120.362344,36.10282,青岛市,四方区子站,,,,82,94,78,113,,84,84,28,29,9,6,1.0,1
2026-02-04T1500,1312A,120.294373,36.054183,青岛市,市南区西部子站,细颗粒物(PM2.5),122,110,87,92,76,97,,77,77,52,33,8,5,1.1,0.8
2026-02-04T1500,1313A,120.4581,36.0858,青岛市,崂山区子站,细颗粒物(PM2.5),85,90,84,63,56,81,,78,78,32,31,12,10,0.7,0.7
2026-02-04T1500,1315A,120.3945,36.3083,青岛市,城阳区子站,细颗粒物(PM2.5),104,105,104,78,83,128,,89,89,32,37,10,9,0.9,0.9
2026-02-04T1500,3642A,120.3454,36.0735,青岛市,市北区南部,细颗粒物(PM2.5),108,97,90,81,69,93,,78,78,33,24,4,2,0.9,0.8
2026-02-04T1500,3643A,120.3897,36.18,青岛市,李沧区北部,细颗粒物(PM2.5),99,100,93,74,76,123,,83,83,34,43,12,10,0.8,0.9
2026-02-04T1500,4110A,120.5222,36.4089,青岛市,盟旺路653号,细颗粒物(PM2.5),85,101,113,63,77,128,,94,94,22,28,6,5,0.9,1
2026-02-04T1500,4290A,120.196923,35.954556,青岛市,珠江路669号,细颗粒物(PM2.5),104,92,80,78,68,104,,75,73,26,23,7,5,0.7,0.7
2026-02-04T1500,4291A,120.0424,35.8656,青岛市,黄岛区人民政府广场,细颗粒物(PM2.5),112,105,103,84,77,107,,61,61,34,42,14,9,1.5,1.2
2026-02-04T1500,1703A,113.0218,23.7086,清远市,凤城街办,细颗粒物(PM2.5),109,110,71,82,44,115,,64,64,41,42,/,/,/,/
2026-02-04T1500,3025A,113.0479,23.6343,清远市,技师学院,颗粒物(PM10),65,80,83,44,41,114,,56,56,32,60,6,8,0.6,0.7
2026-02-04T1500,3318A,112.9898,23.7403,清远市,清新太和,细颗粒物(PM2.5),87,89,68,64,41,136,,62,62,31,39,13,10,0.7,0.7
2026-02-04T1500,3455A,113.076,23.72,清远市,清城东城,,,,72,,35,,,113,60,,42,,,,
2026-02-04T1500,2661A,107.6325,35.7357,庆阳市,庆阳五中,颗粒物(PM10),60,69,93,26,42,97,,80,79,13,19,6,8,0.4,0.7
2026-02-04T1500,2662A,107.6361,35.7067,庆阳市,市环保局,颗粒物(PM10),61,72,93,32,43,96,,83,80,14,17,7,6,0.7,0.8
2026-02-04T1500,1916A,103.7897,25.5036,曲靖市,环境监测站,,33,,32,7,19,104,,81,81,7,13,5,5,0.4,0.6
2026-02-04T1500,1917A,103.8013,25.5357,曲靖市,烟厂办公区,,31,22,33,3,16,98,,82,82,5,10,3,4,0.2,0.4
2026-02-04T1500,3376A,103.7926,25.4651,曲靖市,南苑二区,,,23,28,8,17,102,,90,90,,7,4,4,0.2,0.3
2026-02-04T1500,3377A,103.7442,25.5259,曲靖市,曲靖师范学院,,30,8,36,3,21,95,,79,79,5,13,2,6,0.2,0.4
2026-02-04T1500,1264A,118.8694,28.94,衢州市,环保大楼,细颗粒物(PM2.5),67,69,79,48,60,90,,48,48,29,50,/,/,/,/
2026-02-04T1500,1266A,118.8622,28.9809,衢州市,衢州学院,,,64,67,44,48,92,,44,44,25,47,,6,,0.8
2026-02-04T1500,4097A,118.9646,28.9832,衢州市,衢州三中,"颗粒物(PM10),细颗粒物(PM2.5)",59,68,71,42,46,84,,41,41,34,53,6,6,0.5,0.5
2026-02-04T1500,1611A,118.5818,24.9116,泉州市,涂山街,颗粒物(PM10),51,51,46,22,27,126,,88,88,17,14,3,3,0.5,0.5
2026-02-04T1500,1612A,118.597,24.8976,泉州市,津头埔,颗粒物(PM10),51,52,48,17,28,123,,86,86,15,14,3,3,0.5,0.5
2026-02-04T1500,1613A,118.6669,24.9422,泉州市,万安,颗粒物(PM10),51,52,48,16,23,108,,80,80,15,16,3,3,0.4,0.5
2026-02-04T1500,4105A,118.6355,24.9148,泉州市,霞新路6号,,38,30,40,15,25,121,,84,84,14,16,/,/,0.5,0.5
2026-02-04T1500,2626A,88.8873,29.2723,日喀则市,日喀则监测站,,31,8,20,3,9,99,,73,73,1,4,7,7,0.3,0.3
2026-02-04T1500,3726A,88.8775,29.2425,日喀则市,林业技术推广中心,,,,27,9,6,90,,70,63,3,5,,5,0.5,0.5
2026-02-04T1500,1659A,119.4711,35.421,日照市,监测站,细颗粒物(PM2.5),145,151,140,111,103,73,,41,41,62,71,19,14,1.4,1.5
2026-02-04T1500,1660A,119.523,35.4216,日照市,市政府广场,细颗粒物(PM2.5),147,166,137,112,96,57,,40,40,69,70,16,14,0.9,1
2026-02-04T1500,1661A,119.5511,35.4113,日照市,港务局,细颗粒物(PM2.5),135,158,145,103,89,73,,42,42,51,73,9,10,1.0,1.1
2026-02-04T1500,3507A,119.5326,35.4627,日照市,职业技术学院,细颗粒物(PM2.5),143,166,129,109,95,71,,48,48,63,59,16,12,1.6,1.4
2026-02-04T1500,3604A,119.3267,35.1043,日照市,岚山环保分局,细颗粒物(PM2.5),130,146,132,99,90,82,,51,51,50,65,14,14,1.0,1.1
2026-02-04T1500,1835A,111.1922,34.7752,三门峡市,市政府,细颗粒物(PM2.5),117,130,93,88,69,61,,24,24,41,53,20,15,0.9,0.9
2026-02-04T1500,1836A,111.1588,34.794,三门峡市,开发区,细颗粒物(PM2.5),120,135,110,91,70,65,,27,27,36,39,13,10,0.8,0.8
2026-02-04T1500,3039A,111.1911,34.7829,三门峡市,三门峡市第一小学,细颗粒物(PM2.5),125,148,99,95,70,59,,22,22,46,52,23,15,1.0,1
2026-02-04T1500,3598A,111.1031,34.719,三门峡市,富达温泉假日酒店,细颗粒物(PM2.5),134,149,89,102,82,72,,26,26,47,46,17,16,0.9,1
2026-02-04T1500,2324A,117.621,26.2626,三明市,三钢,,,48,39,,33,108,,67,67,,21,12,8,,1.2
2026-02-04T1500,2325A,117.6352,26.2714,三明市,三明二中,颗粒物(PM10),52,53,36,21,29,107,,66,66,16,21,12,4,1.5,0.7
2026-02-04T1500,2326A,117.6028,26.2377,三明市,三元区政府,,42,42,42,25,30,111,,57,57,14,24,8,9,1.1,1.2
2026-02-04T1500,1877A,109.4962,18.2682,三亚市,河西子站,,34,34,34,10,14,90,,85,85,6,9,1,2,0.4,0.4
2026-02-04T1500,3540A,109.7348,18.3443,三亚市,君悦子站,,46,46,38,16,15,90,,70,70,4,8,3,5,0.5,0.3
2026-02-04T1500,4135A,109.1714,18.3739,三亚市,城东小学站,,37,34,28,14,18,116,,89,89,8,9,/,/,/,/
2026-02-04T1500,2624A,91.7592,29.234,山南市,山南监测站,,26,10,17,3,4,81,,77,67,2,3,5,4,0.3,0.3
2026-02-04T1500,2625A,91.7701,29.2436,山南市,山南人民医院,,26,6,23,3,9,81,,77,68,2,3,9,8,0.4,0.4
2026-02-04T1500,1674A,116.6795,23.3666,汕头市,金平子站,,42,42,52,20,29,124,,96,96,14,15,6,5,0.5,0.6
2026-02-04T1500,1675A,116.7248,23.3632,汕头市,龙湖子站,,42,42,50,21,30,122,,92,92,9,12,10,10,/,/
2026-02-04T1500,1676A,116.7257,23.2774,汕头市,濠江子站,,46,46,50,24,28,120,,89,89,20,16,9,8,/,/
2026-02-04T1500,1677A,116.7518,23.4712,汕头市,澄海子站,,,57,59,24,33,122,,94,94,10,13,,7,0.7,0.8
2026-02-04T1500,1678A,116.6088,23.2539,汕头市,潮阳子站,,45,45,48,29,31,125,,97,97,10,11,7,6,0.6,0.6
2026-02-04T1500,3444A,116.4539,23.2684,汕头市,潮南峡山,颗粒物(PM10),55,60,56,38,33,154,,107,107,14,13,7,6,0.7,0.7
2026-02-04T1500,3624A,116.4069,23.2533,汕头市,潮南子站,颗粒物(PM10),69,87,69,42,32,149,,98,98,20,14,9,7,/,/
2026-02-04T1500,1693A,115.3653,22.7751,汕尾市,市环保局,,47,47,56,27,32,133,,104,104,12,12,103,12,0.7,0.7
2026-02-04T1500,1695A,115.362,22.7926,汕尾市,新城中学,颗粒物(PM10),53,56,52,29,32,137,,107,107,12,12,6,6,0.7,0.7
2026-02-04T1500,2645A,109.9155,33.8714,商洛市,监测站,颗粒物(PM10),53,56,76,35,50,102,,57,57,9,24,4,9,0.7,1
2026-02-04T1500,3045A,109.9647,33.8486,商洛市,商州区中学,颗粒物(PM10),69,88,73,25,42,102,,48,48,11,36,4,6,0.5,0.8
2026-02-04T1500,2408A,115.6701,34.4283,商丘市,环境监测站,细颗粒物(PM2.5),115,117,102,87,79,107,,70,70,14,18,2,3,0.4,0.4
2026-02-04T1500,2409A,115.6458,34.4047,商丘市,粮食局,细颗粒物(PM2.5),107,115,97,80,77,97,,65,65,20,22,2,2,,0.2
2026-02-04T1500,3171A,115.6069,34.4465,商丘市,梁园区档案局,细颗粒物(PM2.5),105,99,90,79,75,102,,68,68,12,16,2,1,0.6,0.6
2026-02-04T1500,4119A,115.6701,34.3767,商丘市,北海东路185号,细颗粒物(PM2.5),95,122,120,71,77,105,,62,62,14,30,5,3,0.7,0.7
2026-02-04T1500,4120A,115.6172,34.3704,商丘市,中山大街3号,细颗粒物(PM2.5),117,137,131,88,82,103,,62,62,18,30,1,3,0.5,0.5
2026-02-04T1500,1141A,121.401,31.2382,上海市,普陀,颗粒物(PM10),59,67,41,33,26,86,,71,71,36,33,7,6,0.6,0.5
2026-02-04T1500,1142A,121.4774,31.2043,上海市,十五厂,颗粒物(PM10),61,71,45,35,23,92,,58,58,37,40,6,6,0.8,0.6
2026-02-04T1500,1143A,121.4673,31.3011,上海市,虹口,细颗粒物(PM2.5),58,63,41,41,27,80,,63,63,33,32,8,7,0.3,0.3
2026-02-04T1500,1147A,121.4253,31.226,上海市,静安监测站,细颗粒物(PM2.5),55,56,38,39,25,91,,73,73,28,34,8,7,0.6,0.5
2026-02-04T1500,1148A,121.7029,31.1905,上海市,浦东川沙,细颗粒物(PM2.5),58,62,40,41,26,91,,72,72,28,29,8,9,0.5,0.4
2026-02-04T1500,1149A,121.5339,31.229,上海市,浦东新区监测站,细颗粒物(PM2.5),73,72,37,53,27,92,,64,64,42,33,6,6,0.8,0.7
2026-02-04T1500,1150A,121.5776,31.2038,上海市,浦东张江,颗粒物(PM10),63,75,41,39,24,99,,70,70,37,34,7,7,0.3,0.2
2026-02-04T1500,3265A,121.4242,31.3303,上海市,宝山庙行,颗粒物(PM10),57,64,43,39,30,82,,64,64,32,33,9,8,0.5,0.5
