timepoint,stationcode,longitude,latitude,area,positionname,primarypollutant,aqi,pm10,pm10_24h,pm2_5,pm2_5_24h,o3,o3_24h,o3_8h,o3_8h_24h,no2,no2_24h,so2,so2_24h,co,co_24h
2025-05-05T1700,2566A,102.1879,31.914,阿坝藏族羌族自治州,州农科所,,33,10,35,3,11,104,,93,93,12,8,12,11,0.6,0.6
2025-05-05T1700,2568A,102.2502,31.8896,阿坝藏族羌族自治州,马师校,,35,14,25,6,14,111,,97,97,4,7,5,5,0.4,0.5
2025-05-05T1700,3994A,102.2165,31.9024,阿坝藏族羌族自治州,马尔康中学西区,,,,31,,17,,,99,99,,3,,5,,0.2
2025-05-05T1700,2695A,80.292,41.1694,阿克苏地区,电视台,颗粒物(PM10),493,593,536,187,154,101,,75,75,5,12,8,7,0.4,0.5
2025-05-05T1700,2696A,80.2613,41.1551,阿克苏地区,艺术中心,颗粒物(PM10),500,659,594,178,167,99,,72,72,2,12,3,4,0.4,0.4
2025-05-05T1700,2204A,105.6467,38.8363,阿拉善盟,西城区西花园,颗粒物(PM10),128,206,483,78,129,117,,115,115,7,8,5,5,0.6,0.6
2025-05-05T1700,2205A,105.6985,38.8411,阿拉善盟,蒙二幼,颗粒物(PM10),445,545,590,78,124,103,,98,98,7,7,8,9,0.4,0.4
2025-05-05T1700,2206A,105.724,38.8516,阿拉善盟,环保局新楼,颗粒物(PM10),198,345,562,85,129,110,,102,102,3,4,8,9,0.4,0.5
2025-05-05T1700,2708A,88.1264,47.8517,阿勒泰地区,市站,,29,28,28,3,6,92,,75,75,6,6,4,3,0.2,0.2
2025-05-05T1700,2630A,80.1161,32.5,阿里地区,阿里监测站,,40,11,12,7,10,128,,115,115,3,5,6,6,0.4,0.4
2025-05-05T1700,3192A,80.0903,32.5028,阿里地区,阿里藏医院,,42,16,23,9,8,132,,118,118,1,4,6,7,0.4,0.4
2025-05-05T1700,2642A,109.0318,32.6537,安康市,香溪洞,颗粒物(PM10),70,90,39,21,16,123,,114,114,4,6,7,7,0.6,0.7
2025-05-05T1700,2644A,109.0072,32.6975,安康市,汉滨区检察院,颗粒物(PM10),61,71,47,18,19,130,,114,114,4,9,7,16,0.3,0.4
2025-05-05T1700,4054A,109.0325,32.6913,安康市,市邮政管理局,颗粒物(PM10),61,71,45,21,19,127,,115,115,4,7,6,8,0.5,0.6
2025-05-05T1700,2291A,117.0809,30.5177,安庆市,环科院,,45,40,39,28,28,142,,109,109,17,18,12,3,1.3,0.9
2025-05-05T1700,2292A,117.0331,30.5119,安庆市,马山宾馆,,43,35,36,27,30,135,,110,110,21,15,10,6,1.1,0.8
2025-05-05T1700,2294A,116.9896,30.6145,安庆市,安庆大学,,49,37,38,34,38,140,,125,125,14,15,3,4,0.5,0.6
2025-05-05T1700,3173A,117.0598,30.5351,安庆市,市人大,,48,44,38,28,27,151,,120,120,18,18,18,8,1.0,0.6
2025-05-05T1700,3122A,105.9606,26.2611,安顺市,伍家关,,31,13,26,12,19,98,,100,100,5,6,1,3,0.4,0.4
2025-05-05T1700,3123A,105.9408,26.2431,安顺市,凤凰山,,32,21,31,8,26,100,,100,100,5,6,5,7,0.5,0.5
2025-05-05T1700,3124A,105.9439,26.2564,安顺市,金钟山,,31,20,32,10,24,99,,98,98,5,6,4,6,0.3,0.3
2025-05-05T1700,3125A,105.8983,26.2481,安顺市,娄家坡,,33,19,22,12,29,105,,100,100,6,7,8,8,0.7,0.6
2025-05-05T1700,1818A,114.4839,36.0621,安阳市,棉研所,,,,,,,,,,,,,,,,
2025-05-05T1700,1819A,114.3551,36.1017,安阳市,红庙街,颗粒物(PM10),500,611,187,152,51,109,,100,100,2,4,3,4,0.3,0.4
2025-05-05T1700,1820A,114.361,36.0681,安阳市,银杏小区,颗粒物(PM10),500,639,174,163,53,115,,107,104,4,7,3,4,0.2,0.4
2025-05-05T1700,3141A,114.3922,36.0878,安阳市,信访局,颗粒物(PM10),500,734,174,170,58,116,,107,106,5,9,2,3,0.3,0.4
2025-05-05T1700,3669A,114.4705,36.0637,安阳市,左辅环卫站,颗粒物(PM10),426,526,139,248,51,111,,106,105,9,12,3,3,0.5,0.6
2025-05-05T1700,3703A,114.2917,36.0949,安阳市,安钢职工学校,颗粒物(PM10),478,578,193,138,51,106,,97,97,4,9,4,4,0.3,0.6
2025-05-05T1700,1748A,123.044,41.1196,鞍山市,深沟寺,,35,25,26,14,10,112,,106,106,7,10,6,6,0.5,0.5
2025-05-05T1700,1749A,123.011,41.0931,鞍山市,太阳城,,32,31,25,16,11,100,,95,95,5,10,5,6,0.5,0.6
2025-05-05T1700,1750A,123.0485,41.1442,鞍山市,太平,,44,44,38,16,14,95,,91,91,13,14,8,9,0.6,0.6
2025-05-05T1700,1751A,122.9642,41.0971,鞍山市,铁西三道街,,38,38,45,15,19,103,,100,100,16,24,3,5,0.5,0.6
2025-05-05T1700,1753A,123.022,41.0821,鞍山市,明达新区,,35,29,26,11,11,112,,105,105,5,9,6,7,0.2,0.3
2025-05-05T1700,1754A,123.1289,41.0228,鞍山市,千山,,,,17,,7,,,62,,,9,,4,,0.4
2025-05-05T1700,4201A,122.9446,41.0826,鞍山市,兴盛南路290号,,38,38,50,16,18,105,,101,101,11,26,6,7,0.5,0.6
2025-05-05T1700,2195A,107.4212,40.761,巴彦淖尔市,附二中,颗粒物(PM10),83,115,656,33,139,95,,103,103,4,5,7,6,0.6,0.6
2025-05-05T1700,2196A,107.37,40.7372,巴彦淖尔市,市环保大楼,颗粒物(PM10),83,115,632,37,154,104,,109,109,4,6,4,4,0.4,0.4
2025-05-05T1700,1956A,86.1472,41.7538,巴音郭楞蒙古自治州,孔雀公园,颗粒物(PM10),500,812,672,181,157,77,,64,64,3,20,7,7,0.2,0.3
2025-05-05T1700,1957A,86.1972,41.7166,巴音郭楞蒙古自治州,棉纺厂,颗粒物(PM10),500,1174,966,229,226,75,,68,68,5,9,3,3,0.2,0.2
2025-05-05T1700,1958A,86.2357,41.7173,巴音郭楞蒙古自治州,经济开发区,颗粒物(PM10),500,955,844,198,182,71,,66,66,5,11,7,7,0.3,0.3
2025-05-05T1700,2914A,106.7677,31.8794,巴中市,苏山坪,,43,22,21,8,12,135,,120,120,5,6,2,2,0.1,0.2
2025-05-05T1700,3181A,106.7768,31.8526,巴中市,市五中,,42,20,28,8,11,134,,116,116,4,8,6,6,0.3,0.4
2025-05-05T1700,3183A,106.7418,31.8654,巴中市,圣泉水务公司,,42,21,24,9,11,133,,117,117,4,8,6,7,0.2,0.3
2025-05-05T1700,3616A,106.7616,31.8344,巴中市,市中心医院,,42,19,23,3,19,134,,118,118,4,8,4,4,0.2,0.3
2025-05-05T1700,2235A,122.7911,45.6077,白城市,洮北区环保局,,31,18,24,6,9,99,,92,92,6,12,2,2,0.4,0.4
2025-05-05T1700,2236A,122.8738,45.5725,白城市,市环保局,,33,12,16,12,12,103,,93,93,2,8,3,2,0.3,0.3
2025-05-05T1700,2231A,126.4219,41.9171,白山市,喜丰,,28,18,39,6,13,89,,80,80,9,22,5,7,0.4,0.4
2025-05-05T1700,2232A,126.4077,41.9419,白山市,环保局,,27,18,30,6,11,84,,76,76,9,16,3,6,0.3,0.4
2025-05-05T1700,2647A,104.1724,36.5446,白银市,第三小学,颗粒物(PM10),500,639,84,133,42,106,,88,88,6,12,9,19,0.2,0.5
2025-05-05T1700,2648A,104.1465,36.5482,白银市,动力公司,颗粒物(PM10),453,553,81,123,43,104,,89,89,7,13,7,19,0.2,0.7
2025-05-05T1700,2512A,106.6103,23.9011,百色市,市监测站,,44,44,35,24,20,126,,104,104,14,16,10,11,0.5,0.5
2025-05-05T1700,2513A,106.6538,23.8859,百色市,市中心血站,,,71,43,40,24,114,,108,108,,14,13,10,0.7,0.7
2025-05-05T1700,3406A,106.6085,23.8798,百色市,祈福高中,颗粒物(PM10),55,60,42,21,18,113,,99,99,15,16,10,8,0.8,0.7
2025-05-05T1700,2270A,117.396,32.939,蚌埠市,工人疗养院,颗粒物(PM10),60,70,53,33,23,166,,134,134,9,16,4,5,0.7,0.7
2025-05-05T1700,2271A,117.3605,32.9427,蚌埠市,百货大楼,细颗粒物(PM2.5),60,65,52,43,27,163,,134,134,11,16,6,6,0.6,0.6
2025-05-05T1700,2273A,117.4185,32.8911,蚌埠市,蚌埠学院,细颗粒物(PM2.5),54,48,39,38,27,159,,130,130,8,13,4,4,0.7,0.6
2025-05-05T1700,2274A,117.3533,32.9673,蚌埠市,淮上区政府,臭氧1小时,65,61,48,39,28,172,,136,136,11,17,5,6,0.5,0.4
2025-05-05T1700,2275A,117.3145,32.8977,蚌埠市,高新区,臭氧1小时,52,48,44,30,28,161,,130,130,8,14,5,6,0.5,0.5
2025-05-05T1700,3715A,117.3092,32.9314,蚌埠市,蚌埠田家炳中学,臭氧1小时,60,62,54,35,27,168,,140,140,10,14,5,6,0.4,0.4
2025-05-05T1700,1585A,109.8756,40.6532,包头市,市环境监测站,,,,291,,85,93,,93,90,,14,8,13,0.4,0.6
2025-05-05T1700,1587A,109.9991,40.5842,包头市,包头八中,,37,37,241,22,83,91,,94,92,17,15,12,11,0.7,0.6
2025-05-05T1700,1588A,109.8538,40.6821,包头市,青山宾馆,,31,28,270,19,97,98,,94,94,6,12,10,15,0.4,0.7
2025-05-05T1700,1589A,109.8642,40.6288,包头市,惠龙物流,,32,23,274,7,70,100,,94,91,10,14,9,15,0.4,0.6
2025-05-05T1700,1590A,110.0377,40.5546,包头市,东河鸿龙湾,,32,32,206,16,46,88,,94,91,14,12,10,8,0.6,0.4
2025-05-05T1700,3283A,109.9154,40.5685,包头市,滨河大厦,,32,26,240,22,77,93,,91,88,8,10,14,12,0.5,0.5
2025-05-05T1700,3419A,109.9447,40.6261,包头市,包头市委党校,,30,27,263,16,70,94,,95,93,8,9,7,10,0.4,0.4
2025-05-05T1700,3683A,109.8331,40.6576,包头市,昆区政府,,36,34,271,25,87,101,,96,92,8,20,6,14,0.4,0.9
2025-05-05T1700,1930A,107.185,34.3063,宝鸡市,庙沟村,颗粒物(PM10),137,223,104,88,38,110,,92,92,1,3,7,7,0.4,0.4
2025-05-05T1700,1931A,107.0708,34.3017,宝鸡市,竹园沟,颗粒物(PM10),128,205,105,69,30,107,,87,87,3,4,8,8,0.3,0.3
2025-05-05T1700,1932A,107.1906,34.3672,宝鸡市,三陆医院,颗粒物(PM10),155,260,106,78,34,100,,89,89,11,14,5,5,0.3,0.3
2025-05-05T1700,1933A,107.1431,34.3547,宝鸡市,监测站,颗粒物(PM10),168,285,116,75,43,94,,82,82,7,9,4,4,0.3,0.3
2025-05-05T1700,1934A,107.1186,34.3739,宝鸡市,技工学校,颗粒物(PM10),158,266,109,86,31,104,,91,91,4,5,7,6,0.3,0.4
2025-05-05T1700,1935A,107.3906,34.3528,宝鸡市,陈仓区环保局家属楼,颗粒物(PM10),163,275,116,70,32,103,,91,91,10,10,7,19,0.4,0.4
2025-05-05T1700,1936A,107.2058,34.3497,宝鸡市,文理学院,颗粒物(PM10),167,284,100,88,40,103,,90,90,5,8,6,6,0.3,0.2
2025-05-05T1700,1937A,107.2386,34.3622,宝鸡市,三迪小学,颗粒物(PM10),167,284,120,90,33,99,,88,88,9,8,5,6,0.4,0.4
2025-05-05T1700,1051A,115.493,38.8632,保定市,游泳馆,颗粒物(PM10),84,118,77,44,41,71,,77,77,18,19,9,7,0.2,0.2
2025-05-05T1700,1052A,115.5213,38.8959,保定市,华电二区,颗粒物(PM10),63,75,56,39,32,71,,78,77,14,14,5,4,0.5,0.4
2025-05-05T1700,1053A,115.4713,38.9108,保定市,接待中心,颗粒物(PM10),68,85,60,45,35,62,,66,64,15,13,2,3,0.7,0.5
2025-05-05T1700,1054A,115.4612,38.8416,保定市,地表水厂,颗粒物(PM10),80,110,77,43,31,71,,75,75,18,18,4,4,0.4,0.4
2025-05-05T1700,3581A,115.31981,38.95208,保定市,满城区生态环境分局,颗粒物(PM10),63,75,53,44,28,70,,89,89,22,11,3,3,0.5,0.3
2025-05-05T1700,3582A,115.47694,38.76408,保定市,清苑区第二中学,颗粒物(PM10),90,130,85,33,32,69,,80,80,12,12,6,6,0.4,0.4
2025-05-05T1700,3583A,115.62909,39.02311,保定市,徐水物探局,"颗粒物(PM10),细颗粒物(PM2.5)",64,78,66,46,30,80,,74,74,13,22,3,2,0.7,0.4
2025-05-05T1700,4004A,115.4202,38.8656,保定市,双鹰农机,颗粒物(PM10),66,81,58,33,30,64,,72,72,18,15,3,4,0.4,0.3
2025-05-05T1700,4034A,115.5150,38.8590,保定市,植保所站,颗粒物(PM10),72,93,66,37,31,65,,74,73,17,14,1,2,0.6,0.5
2025-05-05T1700,2594A,99.1678,25.1081,保山市,市环境监测站,,32,23,21,12,19,101,,95,95,6,8,3,4,0.4,0.5
2025-05-05T1700,2595A,99.1711,25.1328,保山市,市环保局,,34,23,23,12,10,106,,99,99,4,5,5,7,0.3,0.4
2025-05-05T1700,1866A,109.2262,21.588,北海市,牛尾岭水库,,,,24,,15,,,39,,,5,,9,,0.5
2025-05-05T1700,1867A,109.1436,21.4086,北海市,海滩公园,,38,38,35,7,7,52,,63,62,4,5,5,5,0.6,0.6
2025-05-05T1700,1868A,109.0981,21.4661,北海市,新市环保局,,26,26,26,7,11,57,,61,61,6,8,3,3,0.3,0.4
2025-05-05T1700,1869A,109.1778,21.5233,北海市,北海工业园,,35,35,30,10,15,55,,64,64,4,10,7,7,0.3,0.4
2025-05-05T1700,3400A,109.1911,21.4415,北海市,龙潭自来水厂,,20,19,23,7,15,61,,71,71,4,7,6,7,0.3,0.4
2025-05-05T1700,1001A,116.3621,39.8784,北京市,万寿西宫,,43,43,46,28,30,103,,108,108,13,11,6,6,0.7,0.7
2025-05-05T1700,1002A,116.2202,40.2915,北京市,定陵,,,,,,,,,,,,,,,,
2025-05-05T1700,1003A,116.4174,39.9289,北京市,东四,,47,47,64,30,33,104,,108,108,16,16,3,3,0.6,0.5
2025-05-05T1700,1004A,116.4072,39.8863,北京市,天坛,,40,38,44,28,30,90,,100,100,15,13,2,2,0.7,0.7
2025-05-05T1700,1005A,116.462,39.9365,北京市,农展馆,,43,43,50,28,31,97,,101,101,16,17,2,2,0.6,0.8
2025-05-05T1700,1006A,116.3392,39.9295,北京市,官园,,50,50,55,29,30,92,,95,95,21,16,4,5,0.5,0.4
2025-05-05T1700,1007A,116.2878,39.9611,北京市,海淀万柳,,41,41,48,25,27,72,,83,83,15,11,4,5,0.4,0.4
2025-05-05T1700,1008A,116.6636,40.135,北京市,顺义新城,颗粒物(PM10),57,63,51,38,40,103,,103,103,14,11,6,7,0.6,0.4
2025-05-05T1700,1009A,116.6275,40.3275,北京市,怀柔镇,细颗粒物(PM2.5),60,55,51,43,30,97,,88,88,14,11,2,2,0.7,0.4
2025-05-05T1700,1010A,116.2296,40.217,北京市,昌平镇,细颗粒物(PM2.5),60,54,45,43,29,62,,76,76,18,10,2,2,0.5,0.3
2025-05-05T1700,1011A,116.3966,39.9821,北京市,奥体中心,,43,43,48,27,30,97,,99,99,21,22,3,3,0.4,0.4
2025-05-05T1700,3281A,115.9718,40.4529,北京市,延庆夏都,,,,38,62,23,83,,76,72,9,12,3,3,0.3,0.4
2025-05-05T1700,3418A,116.8336,40.4095,北京市,密云新城,颗粒物(PM10),52,53,51,34,27,98,,93,93,13,11,3,3,0.6,0.5
2025-05-05T1700,3671A,116.088,39.9726,北京市,门头沟三家店,,,,,,,,,,,,,,,,
2025-05-05T1700,3672A,116.1541,39.8204,北京市,丰台云岗,,49,49,55,33,26,59,,94,93,22,16,4,4,0.4,0.4
2025-05-05T1700,3673A,116.6804,39.9081,北京市,通州东关,细颗粒物(PM2.5),77,64,61,56,42,101,,111,111,17,13,6,6,0.9,0.7
2025-05-05T1700,3674A,115.9577,39.7603,北京市,房山燕山,细颗粒物(PM2.5),54,50,51,38,31,84,,94,94,18,15,2,8,0.4,0.3
2025-05-05T1700,3675A,116.4672,39.7733,北京市,大兴旧宫,,43,43,59,25,32,85,,102,102,15,14,3,3,0.3,0.3
2025-05-05T1700,3694A,115.986,40.4563,北京市,延庆石河营,颗粒物(PM10),100,149,43,58,23,76,,68,68,6,7,2,2,0.4,0.4
2025-05-05T1700,3695A,116.6151,40.3053,北京市,怀柔新城,细颗粒物(PM2.5),57,50,50,40,32,95,,88,88,10,8,2,2,0.8,0.6
2025-05-05T1700,3696A,116.2545,39.8768,北京市,丰台小屯,,48,48,49,31,27,65,,88,88,26,16,2,2,0.4,0.4
2025-05-05T1700,3697A,116.84,40.3844,北京市,密云镇,细颗粒物(PM2.5),54,47,43,38,27,106,,95,95,13,12,6,6,0.7,0.5
2025-05-05T1700,4182A,116.1942,39.9158,北京市,八角北路9号,颗粒物(PM10),52,54,51,30,28,77,,91,91,25,19,3,4,0.3,0.3
2025-05-05T1700,4194A,117.0790,40.1518,北京市,洳河巡河路,细颗粒物(PM2.5),63,53,49,45,35,113,,112,112,8,8,4,4,0.7,0.5
2025-05-05T1700,1761A,123.8275,41.3064,本溪市,大峪,,35,20,50,11,22,112,,96,96,5,31,6,7,0.5,0.6
2025-05-05T1700,1762A,123.7567,41.3325,本溪市,溪湖,,34,33,61,13,30,106,,93,93,9,26,4,4,0.6,0.8
2025-05-05T1700,1763A,123.7169,41.3094,本溪市,彩屯,,49,49,61,26,32,93,,93,93,24,33,17,13,1.7,1.3
2025-05-05T1700,1764A,123.7669,41.2864,本溪市,东明,,35,22,49,15,20,110,,106,106,9,30,7,8,0.7,0.8
2025-05-05T1700,1765A,123.7992,41.2664,本溪市,新立屯,,34,21,28,16,13,107,,105,105,12,29,4,6,0.5,0.5
2025-05-05T1700,1766A,123.8142,41.3472,本溪市,威宁,,34,16,59,9,26,106,,85,85,3,23,5,6,0.5,0.7
2025-05-05T1700,2587A,105.2864,27.3125,毕节市,八中,颗粒物(PM10),51,52,38,14,26,90,,112,84,11,7,6,6,0.5,0.5
2025-05-05T1700,2588A,105.31,27.2944,毕节市,师专,,,,63,9,25,96,,114,86,8,7,3,7,0.5,0.6
2025-05-05T1700,4263A,105.3688,27.3598,毕节市,工业大道,,26,18,33,10,23,83,,103,86,8,10,6,7,0.6,0.7
2025-05-05T1700,1629A,118.0018,37.3617,滨州市,第二水厂,颗粒物(PM10),82,114,64,36,26,138,,139,139,6,11,9,10,0.7,0.6
2025-05-05T1700,1630A,117.9776,37.393,滨州市,北中新校,细颗粒物(PM2.5),67,78,52,48,26,139,,142,142,10,15,10,9,0.3,0.2
2025-05-05T1700,3514A,117.9378,37.3956,滨州市,中海酒店,颗粒物(PM10),57,63,41,36,27,136,,140,140,9,12,10,10,0.7,0.7
2025-05-05T1700,3515A,117.9378,37.3553,滨州市,开发区一中,颗粒物(PM10),97,144,70,34,22,133,,137,137,13,17,9,8,0.5,0.5
2025-05-05T1700,3516A,118.0917,37.694,滨州市,金海六路,颗粒物(PM10),65,80,53,41,43,138,,140,140,8,15,8,14,0.1,0.2
2025-05-05T1700,4028A,117.9956,37.3753,滨州市,滨州市西街道办事处,颗粒物(PM10),89,127,52,41,28,148,,151,151,8,12,7,8,0.2,0.3
2025-05-05T1700,2311A,115.8072,33.8399,亳州市,污水处理厂,颗粒物(PM10),60,70,48,19,22,142,,144,144,8,11,2,3,0.3,0.5
2025-05-05T1700,2312A,115.7789,33.8518,亳州市,三国揽胜宫,颗粒物(PM10),53,55,45,15,24,147,,149,149,4,8,4,5,0.4,0.5
2025-05-05T1700,3332A,115.7633,33.8034,亳州市,亳州学院,,,,43,8,21,146,,146,146,7,11,3,3,0.5,0.7
2025-05-05T1700,2693A,82.0485,44.8556,博尔塔拉蒙古自治州,市党校,,40,23,27,12,9,127,,96,96,16,13,5,5,0.6,0.6
2025-05-05T1700,2694A,82.0806,44.8969,博尔塔拉蒙古自治州,市环保局,,39,31,38,12,11,124,,95,95,12,20,3,2,0.7,0.8
2025-05-05T1700,1071A,116.8842,38.2991,沧州市,沧县城建局,颗粒物(PM10),59,68,45,38,29,116,,113,113,11,18,1,3,0.4,0.4
2025-05-05T1700,1072A,116.8584,38.3254,沧州市,电视转播站,颗粒物(PM10),62,74,52,29,29,108,,109,109,14,20,6,4,0.2,0.2
2025-05-05T1700,1073A,116.8709,38.3228,沧州市,市环保局,细颗粒物(PM2.5),99,87,57,74,33,116,,115,115,12,17,7,3,0.3,0.3
2025-05-05T1700,3324A,116.8136,38.3004,沧州市,河北水利电力学院,颗粒物(PM10),64,78,42,34,27,120,,119,119,9,15,4,4,0.2,0.3
2025-05-05T1700,2622A,97.1806,31.1273,昌都市,昌都监测站,,34,8,17,3,11,107,,102,102,2,7,3,3,0.2,0.2
2025-05-05T1700,3719A,97.1714,31.1406,昌都市,昌都会议中心,,38,,17,10,11,121,,111,111,2,4,3,3,0.2,0.2
2025-05-05T1700,2690A,88.1236,43.8886,昌吉回族自治州,天山天池,,33,29,18,10,10,103,,86,86,6,4,6,5,0.5,0.5
2025-05-05T1700,2692A,87.2717,44.0297,昌吉回族自治州,新区政务中心,,,22,33,7,12,138,,87,87,,33,9,7,0.4,0.6
2025-05-05T1700,3613A,87.3095,44.0142,昌吉回族自治州,亚心广场,,41,31,46,9,13,129,,84,84,7,34,11,9,0.3,0.5
2025-05-05T1700,1119A,125.3325,43.9166,长春市,食品厂,颗粒物(PM10),58,66,38,35,20,87,,85,85,18,27,5,6,0.4,0.4
2025-05-05T1700,1120A,125.2863,43.9027,长春市,客车厂,颗粒物(PM10),60,69,37,41,20,91,,87,87,15,24,5,6,0.4,0.4
2025-05-05T1700,1121A,125.2841,43.8463,长春市,邮电学院,,50,50,31,30,19,93,,94,94,16,20,6,7,0.7,0.6
2025-05-05T1700,1122A,125.3716,43.8772,长春市,劳动公园,颗粒物(PM10),55,60,36,30,19,93,,92,92,13,18,8,8,0.4,0.3
2025-05-05T1700,1123A,125.3297,43.8805,长春市,园林处,颗粒物(PM10),53,55,32,28,18,91,,89,89,16,18,6,7,0.4,0.3
2025-05-05T1700,1124A,125.4605,43.79,长春市,净月潭,颗粒物(PM10),52,54,30,30,17,89,,91,91,13,11,7,7,0.5,0.3
2025-05-05T1700,1125A,125.7194,43.515,长春市,甩湾子,,,,,,,,,,,,,,,,
2025-05-05T1700,1126A,125.3863,43.8447,长春市,经开区环卫处,颗粒物(PM10),61,72,44,24,13,88,,88,88,15,21,6,7,0.5,0.4
2025-05-05T1700,1127A,125.245,43.7783,长春市,高新区管委会,细颗粒物(PM2.5),52,46,33,36,22,88,,92,92,17,19,6,7,0.4,0.3
2025-05-05T1700,1128A,125.1761,43.8325,长春市,岱山公园,细颗粒物(PM2.5),54,,34,38,22,89,,91,91,13,20,5,6,0.5,0.4
2025-05-05T1700,1335A,113.0833,28.2325,长沙市,经开区环保局,颗粒物(PM10),68,85,51,21,44,143,,118,118,12,14,5,5,0.6,0.7
2025-05-05T1700,1336A,112.8872,28.2189,长沙市,高开区环保局,颗粒物(PM10),51,52,48,27,45,160,,125,125,4,7,6,5,0.6,0.6
2025-05-05T1700,1337A,113.0792,28.2053,长沙市,马坡岭,,45,33,49,19,38,144,,121,121,11,14,3,4,0.5,0.6
2025-05-05T1700,1338A,112.9394,28.19,长沙市,湖南师范大学,,49,44,46,19,31,155,,125,125,8,11,3,3,0.5,0.5
2025-05-05T1700,1339A,113.0178,28.1322,长沙市,雨花区环保局,,48,43,49,22,40,151,,130,130,8,13,4,4,0.5,0.6
2025-05-05T1700,1340A,112.9792,28.2597,长沙市,伍家岭,,47,43,51,26,46,150,,120,120,8,11,3,3,0.5,0.6
2025-05-05T1700,1341A,113.0014,28.1944,长沙市,火车新站,,46,39,48,27,31,145,,117,117,13,15,6,6,0.6,0.6
2025-05-05T1700,1342A,112.9844,28.1178,长沙市,天心区环保局,,47,34,52,19,34,150,,124,124,11,15,3,3,0.9,0.9
2025-05-05T1700,1343A,112.8908,28.1308,长沙市,湖南中医药大学,,49,45,50,29,39,156,,120,120,6,12,3,3,0.5,0.6
2025-05-05T1700,1344A,112.9581,28.3611,长沙市,沙坪,,45,23,65,14,23,143,,112,112,7,9,5,5,0.6,0.7
2025-05-05T1700,1727A,113.1147,36.1547,长治市,清华站,颗粒物(PM10),191,332,106,73,36,115,,104,104,9,13,6,7,0.5,0.6
2025-05-05T1700,1730A,113.0886,36.2125,长治市,审计局,颗粒物(PM10),154,258,100,73,35,117,,103,103,12,16,8,8,0.4,0.3
2025-05-05T1700,1731A,113.0844,36.1856,长治市,长治八中,颗粒物(PM10),174,298,122,100,44,114,,102,102,11,15,7,8,0.4,0.4
2025-05-05T1700,2845A,113.1569,36.1911,长治市,德盛苑,颗粒物(PM10),185,320,116,75,39,114,,102,102,8,10,5,6,0.4,0.4
2025-05-05T1700,3568A,113.06,36.0464,长治市,向阳小学,颗粒物(PM10),157,264,123,70,38,118,,108,108,11,16,11,11,0.2,0.2
2025-05-05T1700,3569A,112.8792,36.3144,长治市,屯留一中,颗粒物(PM10),128,205,99,67,35,113,,102,102,4,8,8,8,0.2,0.2
2025-05-05T1700,4189A,113.1131,36.19948,长治市,英华南巷50号,颗粒物(PM10),181,311,121,85,39,119,,105,105,4,9,5,6,0.5,0.5
2025-05-05T1700,4190A,113.2367,36.3344,长治市,学府街1号,颗粒物(PM10),283,408,126,96,36,113,,104,104,9,16,6,4,0.6,0.6
2025-05-05T1700,1854A,111.6975,28.9703,常德市,市二中,,,68,51,28,40,152,,123,123,,12,6,6,0.8,0.9
2025-05-05T1700,1857A,111.7158,29.1456,常德市,白鹤山,,,,,,,,,,,,,,,,
2025-05-05T1700,3138A,111.7153,29.0289,常德市,武陵区永安,颗粒物(PM10),57,63,57,18,32,153,,122,122,6,9,6,7,0.5,0.7
2025-05-05T1700,3139A,111.6892,28.9881,常德市,鼎城区玉霞,颗粒物(PM10),54,57,57,20,32,155,,125,125,4,7,5,5,0.5,0.7
2025-05-05T1700,3140A,111.6625,29.0531,常德市,武陵区长庚,颗粒物(PM10),61,71,52,20,33,160,,127,127,6,9,8,9,0.7,0.9
2025-05-05T1700,1196A,119.9633,31.762,常州市,市监测站,颗粒物(PM10),74,98,58,40,18,139,,85,85,16,23,8,8,0.9,0.8
2025-05-05T1700,1200A,119.9468,31.7069,常州市,武进监测站,颗粒物(PM10),61,72,43,27,13,147,,95,95,25,26,6,8,0.8,0.6
2025-05-05T1700,1201A,119.9255,31.9087,常州市,安家,颗粒物(PM10),74,98,58,39,18,125,,81,81,23,25,9,9,0.5,0.2
2025-05-05T1700,3002A,119.9805,31.8174,常州市,行政中心,颗粒物(PM10),79,107,61,41,17,122,,77,77,28,25,16,16,0.6,0.5
2025-05-05T1700,3003A,120.0522,31.7748,常州市,经开区,细颗粒物(PM2.5),60,55,40,43,15,125,,85,85,25,27,9,9,0.7,0.5
2025-05-05T1700,3010A,119.9025,31.7964,常州市,钟楼,颗粒物(PM10),67,84,47,32,14,134,,84,84,20,20,6,7,0.7,0.5
2025-05-05T1700,3429A,119.8598,31.7066,常州市,武进经发区,颗粒物(PM10),54,57,41,30,18,136,,88,88,13,18,8,9,0.9,0.8
2025-05-05T1700,3430A,119.5826,31.7245,常州市,金坛城区,颗粒物(PM10),52,53,45,26,17,143,,95,95,15,18,7,8,0.6,0.5
2025-05-05T1700,2220A,120.4318,41.5881,朝阳市,西梁,,40,30,28,28,20,88,,72,72,22,15,10,9,0.6,0.6
2025-05-05T1700,2221A,120.4521,41.5646,朝阳市,河畔小区,,40,,23,28,20,91,,82,74,12,9,6,7,0.5,0.4
2025-05-05T1700,2222A,120.4176,41.5648,朝阳市,八里堡,,35,,27,24,16,84,,73,73,18,15,4,6,0.5,0.4
2025-05-05T1700,2223A,120.3806,41.5969,朝阳市,农业园区,,49,,26,34,25,93,,72,72,17,16,6,7,0.5,0.4
2025-05-05T1700,1705A,116.6367,23.6719,潮州市,西园路,颗粒物(PM10),51,52,42,32,28,118,,101,101,10,7,4,5,0.5,0.5
2025-05-05T1700,3026A,116.6183,23.6608,潮州市,市政府,颗粒物(PM10),57,64,43,23,23,106,,97,97,11,8,6,5,0.8,0.7
2025-05-05T1700,4036A,116.6461,23.6761,潮州市,金山,,49,49,42,24,24,107,,96,96,14,11,8,8,0.8,0.6
2025-05-05T1700,2472A,113.0073,25.9061,郴州市,马头岭,,25,14,16,6,6,79,,64,64,6,9,6,8,0.6,0.4
2025-05-05T1700,2473A,113.0116,25.8226,郴州市,市职中,,27,12,14,12,10,86,,70,70,7,7,3,4,0.7,0.6
2025-05-05T1700,2475A,113.0383,25.8071,郴州市,市审计局,,25,11,12,10,9,80,,71,71,9,7,1,2,0.7,0.5
2025-05-05T1700,2476A,113.0348,25.7759,郴州市,市环保局,,23,10,13,9,7,71,,67,67,10,7,3,3,0.7,0.5
2025-05-05T1700,4252A,113.0138,25.8011,郴州市,好美居路49号,,27,16,12,6,9,84,,72,72,10,7,8,7,0.8,0.6
2025-05-05T1700,1431A,103.9728,30.7236,成都市,金泉两河,,45,32,37,27,16,143,,112,112,6,7,2,2,0.6,0.7
2025-05-05T1700,1432A,104.176,30.6872,成都市,十里店,,46,25,35,13,15,147,,124,124,7,8,4,4,0.4,0.4
2025-05-05T1700,1433A,104.079,30.5706,成都市,三瓦窑,,40,,47,15,18,126,,114,114,14,15,4,4,0.4,0.5
2025-05-05T1700,1434A,104.1114,30.63,成都市,沙河铺,,36,35,38,11,17,113,,96,96,9,10,7,7,0.5,0.5
2025-05-05T1700,1437A,104.0786,30.6531,成都市,君平街,,38,38,40,21,21,101,,93,93,10,13,7,6,0.5,0.6
2025-05-05T1700,1438A,103.613,31.0283,成都市,灵岩寺,,,,,,,,,,,,,,,,
2025-05-05T1700,2880A,104.0239,30.65639,成都市,大石西路,,45,45,44,27,20,132,,110,110,14,14,4,5,0.2,0.3
2025-05-05T1700,3136A,104.2725,30.5589,成都市,龙泉驿区区政府,,45,19,27,7,7,143,,115,115,10,10,4,4,0.3,0.4
2025-05-05T1700,3357A,104.0106,30.6931,成都市,金博路,,40,32,31,12,13,127,,102,102,8,9,7,7,0.2,0.3
2025-05-05T1700,3359A,104.0578,30.5225,成都市,华阳,,37,24,31,19,24,118,,101,101,8,14,6,6,0.5,0.6
2025-05-05T1700,3488A,104.3853,30.7453,成都市,青白江技师分院,,47,20,34,3,15,150,,123,123,12,15,1,2,0.1,0.2
2025-05-05T1700,3489A,104.0789,30.4072,成都市,科学城,,35,20,26,12,15,109,,94,94,6,8,3,4,0.4,0.4
2025-05-05T1700,4011A,103.8506,30.6947,成都市,光华大道三段,,49,32,39,14,20,155,,126,126,10,11,1,1,0.5,0.5
2025-05-05T1700,4224A,104.2433,30.5353,成都市,鲸龙路1057号,,,17,28,12,14,134,,107,107,,19,4,5,0.4,0.4
2025-05-05T1700,1062A,117.9531,40.9081,承德市,铁路,颗粒物(PM10),67,83,39,38,21,90,,101,98,12,15,1,2,0.4,0.4
2025-05-05T1700,1063A,117.9392,40.9763,承德市,中国银行,颗粒物(PM10),51,52,34,31,18,90,,101,98,7,9,3,3,0.4,0.5
2025-05-05T1700,1064A,117.9503,40.928,承德市,开发区,,50,49,31,35,23,78,,106,98,17,12,5,5,0.5,0.5
2025-05-05T1700,1065A,117.8051,40.9655,承德市,文化中心,颗粒物(PM10),53,56,47,26,21,91,,110,96,9,12,3,5,0.3,0.4
2025-05-05T1700,1066A,117.9268,41.0026,承德市,离宫,,48,48,38,28,37,86,,87,87,6,9,1,2,0.3,0.4
2025-05-05T1700,2314A,117.47,30.6618,池州市,池州学院,,48,34,41,22,24,153,,106,106,9,16,11,6,0.6,0.7
2025-05-05T1700,3237A,117.4918,30.6617,池州市,展览馆,,48,32,41,24,22,152,,105,105,7,13,11,6,0.6,0.7
2025-05-05T1700,3333A,117.5627,30.695,池州市,第八中学,,45,36,41,24,22,144,,101,101,6,13,4,5,0.5,0.6
2025-05-05T1700,3334A,117.5038,30.6243,池州市,第十二中学,,48,31,37,23,26,151,,106,106,8,14,7,4,0.6,0.8
2025-05-05T1700,1744A,118.9233,42.2816,赤峰市,松山一中,,30,18,25,10,11,93,,89,89,17,26,11,17,0.6,0.7
2025-05-05T1700,1745A,118.9576,42.2728,赤峰市,哈达街,,27,23,31,14,16,86,,92,92,24,33,11,28,0.5,0.6
2025-05-05T1700,1746A,118.8788,42.2554,赤峰市,天义路,,27,20,25,17,18,86,,92,91,17,25,6,30,0.5,0.5
2025-05-05T1700,3058A,119.2658,42.0353,赤峰市,银河街,,38,,36,26,18,83,,88,88,14,14,12,14,0.6,0.6
2025-05-05T1700,3286A,118.9359,42.3147,赤峰市,桥北物流园区,,29,24,21,7,13,92,,89,89,2,15,8,11,0.5,0.5
2025-05-05T1700,2521A,107.3476,22.4136,崇左市,市环保局江州分局,,48,48,52,27,34,133,,124,124,2,8,6,8,0.5,0.5
2025-05-05T1700,4256A,107.3750,22.3736,崇左市,石景林东路7号,,44,40,46,22,33,138,,130,130,6,9,4,7,0.4,0.5
2025-05-05T1700,2298A,118.3093,32.3153,滁州市,老年大学,,48,34,35,28,27,152,,106,106,7,11,2,2,0.4,0.4
2025-05-05T1700,2299A,118.3244,32.2786,滁州市,人大宾馆,,49,32,32,28,24,156,,113,113,10,13,8,8,0.3,0.3
2025-05-05T1700,3207A,118.3118,32.3038,滁州市,市政府原办公楼,,48,,29,33,24,149,,107,107,8,12,4,4,0.4,0.3
2025-05-05T1700,3331A,118.3267,32.2634,滁州市,图书馆,,45,39,38,28,24,144,,106,106,5,10,7,7,0.4,0.4
2025-05-05T1700,2605A,101.5482,25.0441,楚雄彝族自治州,州环境监测站,,35,12,17,3,12,111,,108,108,6,11,5,7,0.4,0.4
2025-05-05T1700,2606A,101.538,25.0492,楚雄彝族自治州,市经济开发区,,34,,22,7,14,107,,105,105,6,12,6,8,0.5,0.6
2025-05-05T1700,2548A,107.5277,31.2827,达州市,达州职业技术学院,颗粒物(PM10),53,56,57,15,17,126,,103,103,9,20,6,6,0.5,0.5
2025-05-05T1700,2549A,107.5086,31.2186,达州市,市环境监测站,,45,45,54,9,15,131,,100,100,11,26,5,5,0.3,0.4
2025-05-05T1700,2550A,107.4988,31.2132,达州市,凤凰小区,,46,46,52,14,17,128,,101,101,12,23,6,7,0.3,0.4
2025-05-05T1700,2551A,107.5082,31.1986,达州市,达县机关宾馆,颗粒物(PM10),51,51,51,9,13,125,,100,100,14,26,5,5,0.3,0.4
2025-05-05T1700,2552A,107.4644,31.2124,达州市,市政中心,,48,48,57,9,13,124,,100,100,9,23,3,3,0.3,0.4
2025-05-05T1700,2614A,100.1542,25.7054,大理白族自治州,大理市环境监测站,,33,,14,23,21,98,,92,92,5,7,7,7,0.3,0.3
2025-05-05T1700,2615A,100.2171,25.5811,大理白族自治州,大理古城,,30,15,20,3,13,96,,99,99,6,9,8,8,0.4,0.4
2025-05-05T1700,1109A,121.612,38.9741,大连市,甘井子,,37,37,52,6,26,108,,104,104,18,28,4,6,0.2,0.4
2025-05-05T1700,1110A,121.565,38.9511,大连市,周水子,,35,30,45,6,24,109,,103,103,13,21,6,8,0.2,0.4
2025-05-05T1700,1111A,121.5637,38.8845,大连市,星海三站,,36,23,43,7,24,113,,105,105,12,16,3,5,0.2,0.3
2025-05-05T1700,1112A,121.6302,38.9117,大连市,青泥洼桥,,38,15,40,7,23,119,,112,112,8,15,6,8,0.2,0.2
2025-05-05T1700,1113A,121.6251,38.8638,大连市,傅家庄,,38,27,40,7,20,119,,111,111,13,16,5,6,0.1,0.2
2025-05-05T1700,1114A,121.5213,38.8661,大连市,七贤岭,,36,21,50,7,25,113,,107,107,14,20,6,7,0.4,0.5
2025-05-05T1700,1115A,121.2529,38.8061,大连市,旅顺,,26,26,42,6,24,82,,83,83,17,27,4,5,0.2,0.3
2025-05-05T1700,1116A,121.7485,39.1311,大连市,金州,,38,12,34,6,18,119,,114,114,12,16,6,7,0.2,0.3
2025-05-05T1700,1117A,121.7811,39.0496,大连市,开发区,,36,35,47,6,22,113,,99,99,12,25,4,5,0.4,0.5
2025-05-05T1700,1118A,121.9762,39.0631,大连市,双D港,,41,18,35,7,24,129,,108,108,5,20,6,8,0.3,0.4
2025-05-05T1700,1789A,124.81117,46.03138,大庆市,大同区,,30,19,27,17,17,93,,85,85,2,7,3,11,0.3,0.4
2025-05-05T1700,1790A,125.129,46.533,大庆市,龙凤区,,30,9,17,8,12,95,,87,87,4,9,4,4,0.3,0.4
2025-05-05T1700,1791A,124.902,46.408,大庆市,红岗区,,33,20,18,17,11,104,,96,96,1,7,6,6,0.1,0.2
2025-05-05T1700,1792A,125.153,46.586,大庆市,萨尔图区,,27,22,26,6,9,84,,79,79,7,8,6,5,0.3,0.3
2025-05-05T1700,1793A,124.9042,46.6215,大庆市,让胡路区,,30,14,18,9,12,94,,86,86,3,5,6,6,0.3,0.3
2025-05-05T1700,3481A,125.141,46.634,大庆市,萨区政府监测点,,31,18,21,3,2,98,,90,90,1,6,5,5,0.3,0.3
2025-05-05T1700,1721A,113.3819,40.1097,大同市,果树场,颗粒物(PM10),77,104,70,36,23,80,,67,67,13,20,5,5,0.6,0.4
2025-05-05T1700,1723A,113.2994,40.0758,大同市,云冈宾馆,,,,80,,31,95,,77,77,,22,8,9,0.5,0.6
2025-05-05T1700,1724A,113.3444,40.0917,大同市,大同大学,颗粒物(PM10),73,96,70,44,28,93,,77,77,13,21,6,9,0.3,0.5
2025-05-05T1700,1725A,113.2661,40.1269,大同市,安家小村,颗粒物(PM10),76,101,85,30,28,99,,79,79,8,20,19,20,0.1,0.3
2025-05-05T1700,1726A,113.2711,40.0844,大同市,教育学院,颗粒物(PM10),81,112,84,39,32,97,,74,74,10,21,9,10,0.3,0.4
2025-05-05T1700,3282A,113.3397,40.0597,大同市,大同市卫生学校,颗粒物(PM10),73,95,83,45,31,86,,66,66,11,17,6,7,0.6,0.7
2025-05-05T1700,3565A,113.1367,40.1122,大同市,云冈站,颗粒物(PM10),75,100,90,38,35,101,,84,84,7,14,10,10,0.1,0.3
2025-05-05T1700,3566A,113.1186,40.2556,大同市,图书馆,颗粒物(PM10),72,94,93,43,33,96,,83,83,5,13,9,10,0.2,0.4
2025-05-05T1700,3567A,113.5931,40.0461,大同市,区一中,,45,36,75,31,25,87,,76,76,11,16,13,14,0.4,0.5
2025-05-05T1700,4199A,113.2798,40.0997,大同市,魏都大道141号,颗粒物(PM10),87,124,88,33,29,105,,84,84,8,19,13,14,0.5,0.7
2025-05-05T1700,2269A,124.1069,50.4097,大兴安岭地区,科技局,,26,24,19,13,13,81,,81,81,3,2,5,4,0.3,0.3
2025-05-05T1700,3663A,124.1164,50.4278,大兴安岭地区,红旗社区,,26,,4,3,5,82,,81,81,1,2,4,4,0.3,0.3
2025-05-05T1700,1600A,124.3303,40.0625,丹东市,江湾东路,,49,49,56,21,26,106,,96,96,8,18,8,9,0.6,0.8
2025-05-05T1700,1601A,124.4256,40.1503,丹东市,临江后街,颗粒物(PM10),64,78,45,37,22,85,,92,92,20,14,9,7,1.0,0.8
2025-05-05T1700,1602A,124.3933,40.1461,丹东市,元宝山,颗粒物(PM10),53,55,37,26,17,90,,88,88,16,15,10,9,0.8,0.6
2025-05-05T1700,1603A,124.3633,40.1092,丹东市,民主桥,颗粒物(PM10),53,56,47,26,22,97,,91,91,11,23,9,8,1.0,0.9
2025-05-05T1700,3541A,109.5726,19.5167,儋州市,第一中学子站,,24,21,22,8,13,75,,60,60,4,4,5,6,0.4,0.5
2025-05-05T1700,3542A,109.5567,19.5187,儋州市,东坡学校子站,,25,23,23,10,13,77,,63,63,3,4,4,4,0.6,0.6
2025-05-05T1700,2616A,98.5842,24.428,德宏傣族景颇族自治州,德宏州监测站,,30,24,31,11,17,96,,88,88,9,11,8,8,0.5,0.6
2025-05-05T1700,3677A,98.5881,24.4368,德宏傣族景颇族自治州,芒市人民政府综合楼,,40,40,39,12,18,111,,96,96,8,11,6,5,0.3,0.5
2025-05-05T1700,1901A,104.4239,31.1208,德阳市,东山公园,,46,17,35,12,17,146,,108,108,7,8,4,4,0.6,0.7
2025-05-05T1700,1902A,104.3826,31.1317,德阳市,西小区,,46,20,40,9,19,145,,109,109,13,14,5,4,0.5,0.7
2025-05-05T1700,1904A,104.3553,31.1091,德阳市,耐火材料厂,,46,28,44,11,19,147,,117,117,7,12,5,5,0.3,0.5
2025-05-05T1700,3639A,104.4019,31.1244,德阳市,市教育局,,49,20,39,12,20,154,,116,116,9,10,5,5,0.4,0.5
2025-05-05T1700,1622A,116.3032,37.4674,德州市,儿童乐园,颗粒物(PM10),108,166,61,27,26,118,,123,123,4,11,5,8,0.3,0.4
2025-05-05T1700,1624A,116.2991,37.4451,德州市,监理站,颗粒物(PM10),113,175,56,31,31,116,,122,122,4,10,6,8,0.3,0.4
2025-05-05T1700,3066A,116.2721,37.4379,德州市,九衢泉纯净水厂,,,144,56,34,27,102,,114,112,10,16,,7,0.7,0.7
2025-05-05T1700,3371A,116.3728,37.4403,德州市,开发区人民医院,颗粒物(PM10),112,173,63,31,20,114,,116,116,7,12,4,6,0.5,0.6
2025-05-05T1700,3372A,116.3572,37.4094,德州市,太阳城中学,颗粒物(PM10),111,171,62,36,30,127,,131,131,8,14,4,5,0.3,0.4
2025-05-05T1700,3511A,116.5652,37.3319,德州市,陵城艺术中心,颗粒物(PM10),97,144,62,46,26,144,,136,136,12,14,7,4,0.7,0.6
2025-05-05T1700,2621A,99.7056,27.8317,迪庆藏族自治州,迪庆州站,,30,10,21,7,13,93,,90,90,6,9,5,5,0.2,0.3
2025-05-05T1700,3180A,99.7136,27.8094,迪庆藏族自治州,质量技术监督局,,30,21,16,11,8,93,,90,90,6,9,3,4,0.6,0.6
2025-05-05T1700,4257A,104.6092,35.5962,定西市,将台街,颗粒物(PM10),144,237,67,40,24,116,,103,103,5,11,4,4,0.3,0.3
2025-05-05T1700,4309A,104.6159,35.5701,定西市,正龙路62号,颗粒物(PM10),140,230,61,44,23,114,,100,100,3,6,9,9,0.4,0.2
2025-05-05T1700,1389A,113.7547,23.0494,东莞市,莞城梨川,,29,29,22,16,15,62,,73,72,10,10,6,6,0.5,0.5
2025-05-05T1700,1390A,113.7944,23.0128,东莞市,东城石井,,23,23,21,13,11,53,,67,66,14,13,3,3,0.5,0.6
2025-05-05T1700,1391A,113.7383,22.9658,东莞市,南城西平,,21,21,19,13,10,57,,75,75,11,13,3,3,0.4,0.4
2025-05-05T1700,3319A,113.7338,23.0381,东莞市,万江金泰,,26,26,23,14,12,45,,64,64,7,9,5,5,0.5,0.6
2025-05-05T1700,3626A,113.7533,23.0202,东莞市,南城元岭,,24,24,20,11,12,58,,75,75,13,13,2,2,0.6,0.6
2025-05-05T1700,3627A,113.7875,23.0457,东莞市,东城主山,,22,22,21,11,11,64,,80,80,12,14,4,4,0.4,0.4
2025-05-05T1700,1666A,118.6614,37.4309,东营市,市环保局,颗粒物(PM10),98,146,51,56,20,155,,139,139,18,21,5,10,0.4,0.5
2025-05-05T1700,3036A,118.6904,37.4338,东营市,开发区管委会,颗粒物(PM10),120,189,63,58,21,156,,137,137,17,19,6,11,0.5,0.5
2025-05-05T1700,3365A,118.5719,37.565,东营市,垦利区民丰路,颗粒物(PM10),70,90,51,31,20,148,,142,142,19,23,6,6,0.7,0.7
2025-05-05T1700,3498A,118.5055,37.8612,东营市,河口城区,臭氧1小时,60,56,53,29,19,168,,155,155,17,19,6,8,0.8,0.9
2025-05-05T1700,3646A,118.4978,37.4623,东营市,胜利站,颗粒物(PM10),81,112,57,39,23,137,,133,133,19,22,8,10,0.8,0.8
2025-05-05T1700,3734A,118.35,37.26,东营市,理想之城,颗粒物(PM10),86,122,53,36,24,154,,144,144,12,16,5,7,0.6,0.6
2025-05-05T1700,1591A,110.0023,39.8129,鄂尔多斯市,综合楼,,46,46,310,9,64,103,,109,109,9,11,4,5,0.3,0.3
2025-05-05T1700,1592A,109.9486,39.8261,鄂尔多斯市,巴音孟克林场办事处,,,41,292,19,68,105,,111,111,10,10,7,6,,0.3
2025-05-05T1700,1593A,109.7736,39.5986,鄂尔多斯市,康泽苑,颗粒物(PM10),59,68,330,22,75,105,,110,110,5,7,7,8,0.2,0.2
2025-05-05T1700,1594A,109.8119,39.5989,鄂尔多斯市,华泰汽车城,颗粒物(PM10),60,70,325,19,77,99,,105,105,7,9,6,6,0.3,0.3
2025-05-05T1700,1595A,109.9734,39.7884,鄂尔多斯市,奥林花园,,44,44,267,9,52,105,,109,109,9,12,4,3,0.5,0.5
2025-05-05T1700,2436A,114.8938,30.3994,鄂州市,市政府,颗粒物(PM10),54,58,72,22,32,147,,144,144,12,14,7,7,1.0,1
2025-05-05T1700,2437A,114.8989,30.3714,鄂州市,赵家坝,颗粒物(PM10),52,53,54,18,27,155,,150,150,9,10,4,5,0.6,0.9
2025-05-05T1700,3654A,114.8094,30.4089,鄂州市,精准医疗中心,,,40,58,22,30,155,,150,150,,15,4,4,0.4,0.9
2025-05-05T1700,2454A,109.4978,30.2981,恩施土家族苗族自治州,湖北民院,,36,28,36,6,21,115,,95,95,2,10,8,6,0.6,0.6
2025-05-05T1700,2455A,109.4707,30.2798,恩施土家族苗族自治州,州电力总公司,,39,24,35,14,27,123,,96,96,3,12,8,5,0.4,0.5
2025-05-05T1700,3549A,109.5061,30.3772,恩施土家族苗族自治州,龙凤新区,,38,22,26,16,18,120,,100,100,5,8,6,6,0.5,0.6
2025-05-05T1700,2499A,108.3411,21.6158,防城港市,沙万,,29,29,27,16,12,42,,31,30,2,7,3,2,0.4,0.5
2025-05-05T1700,2500A,108.3514,21.7731,防城港市,防城档案局,,26,24,26,18,16,60,,50,50,2,3,1,2,0.4,0.4
2025-05-05T1700,2501A,108.3506,21.6414,防城港市,大海花园,,30,30,24,12,10,58,,47,47,2,4,2,2,0.3,0.3
2025-05-05T1700,1371A,113.1294,23.0067,佛山市,湾梁,,24,24,25,11,14,60,,79,79,16,16,7,7,0.6,0.6
2025-05-05T1700,1372A,113.1083,23.0478,佛山市,华材职中,,27,27,22,15,14,60,,82,82,18,16,7,8,0.4,0.4
2025-05-05T1700,1373A,113.144,23.0453,佛山市,南海气象局,,36,36,27,15,15,49,,72,72,13,15,1,1,0.5,0.5
2025-05-05T1700,1374A,113.2881,22.8094,佛山市,顺德苏岗,,23,23,27,12,12,44,,66,63,14,10,6,6,0.6,0.5
2025-05-05T1700,1376A,112.8383,22.8678,佛山市,高明孔堂,,39,39,26,16,15,39,,58,58,14,8,5,5,0.6,0.5
2025-05-05T1700,1377A,112.8836,23.1588,佛山市,三水监测站,,18,12,23,12,16,45,,54,54,26,27,2,3,0.4,0.4
2025-05-05T1700,1378A,112.867,23.185,佛山市,三水云东海,,34,34,39,7,13,56,,68,68,23,25,3,2,0.4,0.5
2025-05-05T1700,3625A,113.2544,22.7642,佛山市,容桂街道办,,28,27,22,19,16,43,,61,61,17,14,5,5,0.7,0.7
2025-05-05T1700,1280A,119.3903,26.0543,福州市,鼓山,,,,27,,14,,,99,,,3,,3,,0.2
2025-05-05T1700,1282A,119.2681,26.0504,福州市,师大,,50,50,36,21,19,144,,120,120,18,13,4,4,0.5,0.4
2025-05-05T1700,1283A,119.2984,26.1028,福州市,五四北路,,45,41,36,26,18,141,,119,119,16,13,4,4,0.5,0.4
2025-05-05T1700,1284A,119.2648,26.0768,福州市,杨桥西路,颗粒物(PM10),54,58,40,23,18,151,,123,123,14,12,4,4,0.4,0.3
2025-05-05T1700,1285A,119.317,26.0746,福州市,紫阳,颗粒物(PM10),58,65,42,28,18,128,,101,101,30,20,6,6,0.4,0.4
2025-05-05T1700,3048A,119.5799,26.0936,福州市,九龙,颗粒物(PM10),59,67,34,29,17,121,,116,116,11,9,4,4,0.4,0.3
2025-05-05T1700,3526A,119.5189,25.9664,福州市,吴航,颗粒物(PM10),52,53,38,30,20,149,,124,124,13,12,5,4,0.8,0.7
2025-05-05T1700,1755A,123.7977,41.8491,抚顺市,望花区,,25,,63,17,35,80,,80,80,27,31,9,11,0.8,0.7
2025-05-05T1700,1756A,123.9161,41.8822,抚顺市,顺城区,,28,28,51,17,25,75,,78,78,28,35,7,8,0.5,0.6
2025-05-05T1700,1757A,124.0436,41.8611,抚顺市,东洲区,,,,31,12,18,75,,84,84,22,16,6,6,0.5,0.4
2025-05-05T1700,1758A,123.9247,41.8642,抚顺市,新抚区,,21,,48,10,26,67,,72,72,24,29,7,8,0.6,0.5
2025-05-05T1700,1759A,124.0972,41.8961,抚顺市,大伙房水库,,,,26,14,18,85,,90,90,,10,,8,0.6,0.5
2025-05-05T1700,1760A,123.7086,41.8391,抚顺市,沈抚新城,,28,19,54,14,31,88,,82,82,19,34,7,13,0.6,0.9
2025-05-05T1700,2376A,116.2127,28.0814,抚州市,桐源党溪,,35,21,39,8,23,109,,86,86,4,3,3,4,0.5,0.6
2025-05-05T1700,2377A,116.3544,27.9831,抚州市,市站,,29,21,35,6,22,92,,72,72,4,6,1,3,1.0,0.8
2025-05-05T1700,2378A,116.3565,27.963,抚州市,血防站,,31,18,36,10,21,98,,76,76,2,5,3,2,0.4,0.2
2025-05-05T1700,2379A,116.3564,28.0007,抚州市,采茶剧团,,30,19,35,10,18,93,,69,69,2,3,3,3,0.9,1
2025-05-05T1700,2380A,116.385,27.9647,抚州市,医学分院,,30,14,31,10,19,93,,72,72,2,3,4,4,1.0,1.2
2025-05-05T1700,2207A,121.6094,41.998,阜新市,工业园区,,29,13,26,13,19,90,,87,87,14,19,10,17,0.5,0.5
2025-05-05T1700,2208A,121.6697,42.0279,阜新市,长青街,,26,,20,12,14,82,,82,82,14,18,8,13,0.5,0.5
2025-05-05T1700,2209A,121.6673,42.0705,阜新市,农业园区,,27,14,25,14,13,84,,82,82,9,12,9,12,0.5,0.5
2025-05-05T1700,2210A,121.6717,42.0224,阜新市,东苑,,29,,30,15,21,92,,90,90,15,17,10,19,0.5,0.5
2025-05-05T1700,2211A,121.6506,42.0498,阜新市,玉龙新城,颗粒物(PM10),75,100,41,15,22,87,,82,82,13,25,10,13,0.6,0.6
2025-05-05T1700,2301A,115.8277,32.8929,阜阳市,市监测站,,46,40,48,26,29,146,,142,142,9,13,9,9,0.3,0.4
2025-05-05T1700,2303A,115.8554,32.8605,阜阳市,开发区,,49,49,59,16,28,154,,148,148,10,15,8,8,0.2,0.3
2025-05-05T1700,2875A,115.784,32.8892,阜阳市,阜阳职业技术学院,,50,45,50,18,28,159,,156,156,7,10,5,6,0.3,0.4
2025-05-05T1700,3468A,115.7901,32.8613,阜阳市,市规划展馆,颗粒物(PM10),51,52,51,13,32,160,,154,154,6,9,8,8,0.3,0.4
2025-05-05T1700,3469A,115.836,32.9183,阜阳市,枣园社区,,47,27,52,15,31,150,,144,144,6,11,5,6,0.5,0.6
2025-05-05T1700,2669A,102.9099,34.9841,甘南藏族自治州,州政府,,33,26,44,13,21,105,,84,84,1,15,5,6,0.2,0.3
2025-05-05T1700,3380A,102.8914,34.9617,甘南藏族自治州,甘肃民族师范学院,,36,23,51,3,16,114,,90,90,2,20,7,7,0.3,0.4
2025-05-05T1700,2570A,101.9603,30.0475,甘孜藏族自治州,水桥子,,19,,16,8,10,60,,86,82,18,14,4,4,0.2,0.3
2025-05-05T1700,3065A,101.9533,29.9972,甘孜藏族自治州,州环保局,,17,9,20,3,8,53,,92,90,26,19,1,1,0.1,0.1
2025-05-05T1700,3414A,115.8347,28.932,赣江新区,桑海产业园,,42,17,24,11,15,132,,120,120,2,4,4,4,0.4,0.4
2025-05-05T1700,2362A,114.9017,25.9149,赣州市,通天岩,,19,11,19,3,4,60,,61,48,7,5,3,2,1.1,1.1
2025-05-05T1700,2363A,114.9367,25.8664,赣州市,地委,,16,16,25,6,13,46,,56,55,14,8,1,3,1.4,1.1
2025-05-05T1700,2364A,114.9461,25.8481,赣州市,气象台,,16,9,21,6,9,51,,55,50,14,11,7,7,0.5,0.4
2025-05-05T1700,2365A,114.9322,25.8333,赣州市,市图书馆,,16,,15,11,11,46,,48,45,11,8,5,4,0.5,0.5
2025-05-05T1700,2366A,114.8905,25.8471,赣州市,华坚鞋城,,14,9,20,3,11,44,,50,48,14,8,4,5,0.6,0.5
2025-05-05T1700,3109A,115.0093,25.8613,赣州市,赣县区卫计委,,14,12,15,7,13,42,,54,50,25,7,3,3,0.9,1.3
2025-05-05T1700,2683A,106.2319,36.1417,固原市,马园,颗粒物(PM10),500,1081,237,232,74,110,,108,108,2,3,5,5,0.4,0.5
2025-05-05T1700,2684A,106.2792,36.0022,固原市,监测站,颗粒物(PM10),500,644,226,202,77,100,,101,101,4,10,5,5,0.3,0.3
2025-05-05T1700,2685A,106.2375,36.0211,固原市,新区,颗粒物(PM10),395,496,200,119,44,98,,98,98,2,11,5,5,0.3,0.4
2025-05-05T1700,3522A,106.2177,35.9959,固原市,原州区十五小,颗粒物(PM10),327,441,252,118,60,101,,102,102,3,7,8,8,0.2,0.2
2025-05-05T1700,2543A,106.6308,30.5278,广安市,小平旧居,,,,,,,,,,,,,,,,
2025-05-05T1700,2544A,106.6303,30.4576,广安市,市委,颗粒物(PM10),53,55,39,13,15,115,,99,99,5,6,5,4,0.3,0.3
2025-05-05T1700,2545A,106.6271,30.4663,广安市,友谊中学,,47,47,29,16,14,129,,105,105,10,11,3,3,0.5,0.7
2025-05-05T1700,2547A,106.6388,30.4551,广安市,广电花园,颗粒物(PM10),51,52,30,18,9,119,,99,99,6,8,6,6,0.4,0.4
2025-05-05T1700,2902A,106.6351,30.4865,广安市,北辰小学,颗粒物(PM10),55,59,34,21,13,125,,101,101,8,9,7,6,0.4,0.4
2025-05-05T1700,2523A,105.8945,32.4535,广元市,黑石坡,,39,26,44,8,15,122,,97,97,6,8,3,3,0.3,0.3
2025-05-05T1700,2524A,105.821,32.4444,广元市,老城,,42,19,42,6,12,133,,107,107,3,5,1,2,0.3,0.4
2025-05-05T1700,2526A,105.8628,32.4287,广元市,监测站,,42,26,38,9,15,133,,108,108,5,5,8,3,0.3,0.3
2025-05-05T1700,3617A,105.8047,32.4166,广元市,经开区,,43,37,39,16,16,135,,108,108,9,9,16,6,0.6,0.5
2025-05-05T1700,1345A,113.2347,23.1423,广州市,广雅中学,,34,34,27,13,11,70,,92,92,23,16,3,3,0.5,0.4
2025-05-05T1700,1346A,113.2612,23.105,广州市,市五中,,31,31,25,19,14,62,,86,86,14,10,1,1,0.9,0.8
2025-05-05T1700,1348A,113.3478,23.0916,广州市,广东商学院,,35,32,22,24,14,68,,84,84,20,18,4,4,0.6,0.6
2025-05-05T1700,1349A,113.4332,23.1047,广州市,市八十六中,,31,31,22,13,11,54,,62,62,32,27,2,2,0.6,0.6
2025-05-05T1700,1350A,113.3505,22.9483,广州市,番禺中学,,34,34,26,23,14,66,,83,83,21,15,5,5,0.7,0.6
2025-05-05T1700,1351A,113.2146,23.3916,广州市,花都师范,,30,29,26,18,17,94,,97,97,13,19,4,4,0.6,0.7
2025-05-05T1700,1352A,113.2597,23.1331,广州市,市监测站,,33,33,25,16,14,74,,88,88,18,17,4,4,0.3,0.3
2025-05-05T1700,1353A,113.5618,23.312,广州市,九龙镇镇龙,,39,39,28,24,17,86,,78,78,24,22,6,5,0.4,0.4
2025-05-05T1700,1354A,113.2765,23.1544,广州市,麓湖,,30,30,23,17,13,74,,88,88,16,14,4,4,0.5,0.5
2025-05-05T1700,1355A,113.443,23.3035,广州市,帽峰山森林公园,,30,,17,17,4,94,,82,82,13,14,6,6,0.6,0.6
2025-05-05T1700,2846A,113.3221,23.1322,广州市,体育西,,32,32,29,20,21,69,,83,83,20,17,4,4,0.5,0.4
2025-05-05T1700,3298A,113.5717,23.5491,广州市,从化街口,,36,36,28,25,17,109,,83,83,11,15,6,6,0.5,0.5
2025-05-05T1700,3299A,113.3472,23.3692,广州市,白云竹料,,48,48,26,21,15,99,,95,95,17,16,2,3,0.6,0.6
2025-05-05T1700,3300A,113.2981,23.237,广州市,白云嘉禾,,36,36,25,19,15,78,,88,88,25,24,5,5,0.7,0.7
2025-05-05T1700,3301A,113.4256,23.1716,广州市,黄埔科学城,,39,39,25,18,13,57,,64,64,21,17,2,2,0.6,0.5
2025-05-05T1700,3302A,113.3942,23.0483,广州市,番禺大学城,,28,28,24,16,12,66,,84,84,20,15,6,6,0.6,0.6
2025-05-05T1700,3303A,113.4922,22.8168,广州市,南沙黄阁,,29,29,25,17,11,58,,70,70,12,8,5,5,0.7,0.7
2025-05-05T1700,3304A,113.5342,22.7896,广州市,南沙街,,37,37,25,11,11,58,,67,67,11,12,5,5,0.7,0.7
2025-05-05T1700,3443A,113.2902,23.5544,广州市,花都梯面,,33,33,25,14,13,94,,82,82,13,17,4,4,0.6,0.6
2025-05-05T1700,3445A,113.7858,23.7478,广州市,从化良口,,35,32,18,24,11,67,,63,63,7,10,6,6,0.7,0.7
2025-05-05T1700,3446A,113.8051,23.2614,广州市,增城荔城,,31,31,30,20,17,89,,85,85,9,13,7,7,0.2,0.2
2025-05-05T1700,2505A,109.568,23.1478,贵港市,德智高中,,,,,,,,,,,,,,,,
2025-05-05T1700,2506A,109.6047,23.0666,贵港市,江南子站,,34,34,30,17,18,100,,85,85,6,10,4,4,0.5,0.6
2025-05-05T1700,2508A,109.5669,23.1065,贵港市,荷城子站,,28,26,31,17,14,89,,76,76,9,11,4,5,0.3,0.2
2025-05-05T1700,3405A,109.5886,23.1172,贵港市,新世纪学校,,30,29,30,19,19,96,,82,82,7,10,7,8,1.0,0.9
2025-05-05T1700,4260A,109.5933,23.0951,贵港市,中山路155-3号,,38,38,37,22,20,104,,86,86,7,12,3,3,0.4,0.5
2025-05-05T1700,1439A,106.6899,26.5998,贵阳市,马鞍山,,27,27,24,7,8,82,,72,72,8,8,3,4,0.7,0.7
2025-05-05T1700,1441A,106.6243,26.6266,贵阳市,鉴湖路,,34,34,34,17,17,81,,81,81,11,12,6,6,0.5,0.5
2025-05-05T1700,1442A,106.7487,26.6343,贵阳市,燕子冲,,45,31,31,31,24,88,,75,75,10,11,2,2,0.3,0.4
2025-05-05T1700,1443A,106.6555,26.4365,贵阳市,碧云窝,,41,41,35,22,16,94,,87,87,10,11,5,4,0.4,0.4
2025-05-05T1700,1445A,106.7109,26.6027,贵阳市,红边门,,30,29,28,19,22,94,,81,81,4,6,2,2,0.2,0.3
2025-05-05T1700,1446A,106.7164,26.5699,贵阳市,新华路,,45,31,24,31,21,87,,78,78,8,8,17,12,0.5,0.4
2025-05-05T1700,1447A,106.674,26.5424,贵阳市,太慈桥,,32,24,22,22,15,89,,83,83,11,14,4,4,0.3,0.2
2025-05-05T1700,1552A,106.805,26.3003,贵阳市,桐木岭,细颗粒物(PM2.5),52,48,32,36,20,91,,85,85,2,2,1,1,0.8,0.8
2025-05-05T1700,4230A,106.6882,26.5695,贵阳市,花果园大街66号,,43,,24,30,23,82,,78,78,10,11,4,4,0.3,0.3
2025-05-05T1700,4231A,106.6873,26.5169,贵阳市,漓江路57号,,39,34,26,27,17,84,,74,74,8,9,8,8,0.3,0.3
2025-05-05T1700,1862A,110.4144,25.3167,桂林市,电子科大尧山校区,,,,,,,,,,,,,,,,
2025-05-05T1700,1864A,110.3089,25.2708,桂林市,龙隐路小学,,28,28,37,12,22,86,,65,65,3,12,8,22,0.7,0.8
2025-05-05T1700,1865A,110.2869,25.2178,桂林市,八中,,25,15,38,12,22,79,,67,67,10,19,3,6,0.8,0.8
2025-05-05T1700,3531A,110.296,25.1253,桂林市,旅游学院,,25,9,26,3,18,80,,69,69,5,15,3,5,0.7,0.7
2025-05-05T1700,4222A,110.1835,25.2444,桂林市,环湖路276号,,22,14,36,9,23,69,,60,60,8,16,9,24,0.4,0.4
2025-05-05T1700,4301A,110.2803,25.2773,桂林市,信义路13号,,28,11,41,6,23,89,,70,70,7,18,2,12,0.5,0.6
2025-05-05T1700,2674A,100.2561,34.4714,果洛藏族自治州,玛沁县大武镇,,39,25,46,8,17,122,,109,109,1,3,13,22,0.3,0.4
2025-05-05T1700,1129A,126.5422,45.755,哈尔滨市,岭北,,33,15,17,8,11,104,,96,96,6,12,10,13,0.7,0.7
2025-05-05T1700,1130A,126.561,45.8167,哈尔滨市,松北商大,,30,19,18,9,10,94,,87,87,6,13,5,6,0.4,0.4
2025-05-05T1700,1131A,126.979,45.5419,哈尔滨市,阿城会宁,,30,17,14,11,11,96,,90,90,10,11,7,6,0.4,0.4
2025-05-05T1700,1132A,126.599,45.7222,哈尔滨市,南岗学府路,,,38,24,,8,95,,87,87,6,13,4,7,0.3,0.3
2025-05-05T1700,1133A,126.689,45.7733,哈尔滨市,太平宏伟公园,,32,28,22,14,11,101,,92,92,8,15,4,4,0.4,0.5
2025-05-05T1700,1134A,126.635,45.7667,哈尔滨市,道外承德广场,,31,14,20,14,16,97,,88,88,6,18,5,6,0.3,0.5
2025-05-05T1700,1135A,126.685,45.7319,哈尔滨市,香坊红旗大街,,31,27,26,11,17,99,,92,92,8,18,9,9,0.4,0.4
2025-05-05T1700,1136A,126.6411,45.7258,哈尔滨市,动力和平路,,29,29,21,17,16,89,,83,83,10,15,6,7,0.3,0.3
2025-05-05T1700,1137A,126.593,45.7478,哈尔滨市,道里建国路,,30,24,21,10,14,95,,88,88,9,16,2,3,0.4,0.5
2025-05-05T1700,1138A,126.615,45.61,哈尔滨市,平房东轻厂,,36,36,23,23,13,103,,96,96,11,16,8,8,0.1,0.3
2025-05-05T1700,1139A,126.595,45.9855,哈尔滨市,呼兰师专,,28,18,27,15,16,87,,79,79,9,17,6,6,0.2,0.3
2025-05-05T1700,1140A,126.6206,45.6842,哈尔滨市,省农科院,,36,36,27,15,15,86,,82,82,11,20,4,8,0.4,0.6
2025-05-05T1700,2688A,93.5128,42.8172,哈密市,地区监测站,,38,32,84,26,29,106,,95,95,8,14,3,3,0.2,0.3
2025-05-05T1700,2689A,93.4961,42.8328,哈密市,哈密师范学校,,32,26,69,9,15,100,,91,91,7,10,4,4,0.3,0.4
2025-05-05T1700,2671A,100.9048,36.9639,海北藏族自治州,海晏县西海镇,,36,19,59,18,22,114,,116,116,1,2,6,7,0.3,0.3
2025-05-05T1700,3867A,102.0738,36.5056,海东市,平安区公安北苑,颗粒物(PM10),76,101,46,26,28,94,,82,82,5,9,11,6,0.6,0.4
2025-05-05T1700,1409A,110.576,19.9507,海口市,东寨港,,24,24,16,8,9,48,,52,52,3,3,1,3,0.5,0.5
2025-05-05T1700,1410A,110.3232,20.0574,海口市,海南大学,,27,20,21,15,12,84,,69,69,10,7,3,2,0.4,0.4
2025-05-05T1700,1411A,110.283,20.0053,海口市,秀英海南医院,,29,23,23,14,12,91,,73,73,12,11,5,4,0.2,0.3
2025-05-05T1700,1412A,110.338,19.9969,海口市,海南师范大学,,38,38,24,13,12,97,,76,76,8,7,4,3,0.4,0.3
2025-05-05T1700,1413A,110.33,20.0356,海口市,龙华路环保局宿舍,,28,23,21,13,11,89,,75,75,11,8,4,4,0.3,0.3
2025-05-05T1700,3539A,110.5111,19.9736,海口市,桂林洋子站,,22,22,19,12,10,55,,63,63,8,8,4,4,0.2,0.2
2025-05-05T1700,2673A,100.6188,36.2866,海南藏族自治州,共和县恰卜恰镇,,38,24,53,8,21,121,,120,120,1,6,11,10,0.4,0.3
2025-05-05T1700,2676A,97.3731,37.3753,海西蒙古族藏族自治州,德令哈市,,39,39,52,6,17,114,,110,110,8,6,16,15,0.4,0.4
2025-05-05T1700,1048A,114.5302,36.6116,邯郸市,东污水处理厂,颗粒物(PM10),443,543,127,168,33,89,,96,90,10,14,4,4,0.2,0.4
2025-05-05T1700,1049A,114.4918,36.5713,邯郸市,矿院,颗粒物(PM10),338,450,110,183,41,87,,89,86,8,12,4,4,0.3,0.4
2025-05-05T1700,1050A,114.484,36.6133,邯郸市,丛台公园,颗粒物(PM10),471,571,150,192,40,95,,104,95,8,11,6,7,0.2,0.4
2025-05-05T1700,3458A,114.7895,36.5593,邯郸市,香泉濮院小区,颗粒物(PM10),500,710,151,153,31,88,,94,91,7,8,4,4,0.3,0.5
2025-05-05T1700,3579A,114.50634,36.77178,邯郸市,永年区实验高中,颗粒物(PM10),500,649,153,188,52,85,,88,84,8,16,5,5,0.2,0.4
2025-05-05T1700,3580A,114.20016,36.44293,邯郸市,峰峰矿区临水派出所,细颗粒物(PM2.5),377,426,171,327,62,93,,86,86,5,6,9,8,0.4,0.6
2025-05-05T1700,2634A,106.9893,33.1842,汉中市,汉川机床厂子校,颗粒物(PM10),64,78,47,39,27,124,,106,106,5,5,7,7,0.5,0.5
2025-05-05T1700,2635A,107.0154,33.0706,汉中市,市监测站,颗粒物(PM10),64,77,49,18,19,130,,114,114,4,6,6,6,0.3,0.5
2025-05-05T1700,2636A,107.0089,33.1138,汉中市,鑫源开发区,颗粒物(PM10),62,73,48,24,19,124,,108,108,6,8,5,6,0.3,0.5
2025-05-05T1700,2637A,107.007,33.0323,汉中市,南郑大河坎水厂,颗粒物(PM10),57,64,46,25,22,132,,112,112,6,7,6,6,0.5,0.5
2025-05-05T1700,1223A,120.2072,30.2111,杭州市,滨江,,,16,38,15,15,112,,83,83,17,28,6,6,,0.7
2025-05-05T1700,1224A,120.0633,30.2747,杭州市,西溪,,31,22,28,21,26,97,,67,67,6,17,4,5,0.4,0.4
2025-05-05T1700,1226A,120.3417,30.3150,杭州市,下沙,,42,39,48,29,26,112,,77,77,19,38,9,9,0.5,0.4
2025-05-05T1700,1227A,120.1269,30.2456,杭州市,卧龙桥,,32,19,35,9,18,101,,69,69,9,19,6,6,0.7,0.7
2025-05-05T1700,1228A,120.1903,30.2692,杭州市,浙江农大,,30,15,35,11,16,95,,64,64,18,33,9,9,0.3,0.3
2025-05-05T1700,1230A,120.1197,30.3119,杭州市,和睦小学,,32,,32,19,18,102,,76,76,10,22,7,7,0.4,0.4
2025-05-05T1700,1231A,120.3019,30.4183,杭州市,临平镇,,45,45,44,25,20,111,,82,82,13,26,5,6,0.5,0.4
2025-05-05T1700,1232A,120.2753,30.1839,杭州市,城厢镇,,36,29,48,14,21,115,,78,78,11,25,7,8,0.6,0.6
2025-05-05T1700,1233A,120.0883,30.1808,杭州市,云栖,,31,14,32,10,16,98,,64,64,14,30,5,5,0.6,0.6
2025-05-05T1700,3557A,119.9464,30.0494,杭州市,镇二中,,27,18,38,16,27,84,,60,60,17,29,3,4,0.6,0.6
2025-05-05T1700,3558A,119.7183,30.2367,杭州市,市府大楼,,31,23,46,12,23,99,,76,76,11,18,7,8,0.6,0.5
2025-05-05T1700,3656A,120.1556,30.2864,杭州市,消防大队,,33,31,40,12,20,105,,76,76,14,28,4,4,0.6,0.5
2025-05-05T1700,1270A,117.1959,31.7848,合肥市,明珠广场,臭氧1小时,65,48,39,27,23,172,,144,144,14,16,4,6,0.4,0.4
2025-05-05T1700,1271A,117.3072,31.8764,合肥市,三里街,颗粒物(PM10),52,53,40,29,21,156,,137,137,16,16,4,5,0.6,0.5
2025-05-05T1700,1272A,117.2588,31.8707,合肥市,琥珀山庄,臭氧1小时,59,41,45,32,27,167,,138,138,12,16,3,4,0.6,0.6
2025-05-05T1700,1273A,117.1604,31.9052,合肥市,董铺水库,臭氧1小时,58,53,47,27,19,166,,139,139,7,12,3,3,0.5,0.4
2025-05-05T1700,1274A,117.25,31.8571,合肥市,长江中路,臭氧1小时,62,56,46,32,27,169,,142,142,11,15,8,9,0.6,0.5
2025-05-05T1700,1275A,117.266,31.9436,合肥市,庐阳区,臭氧1小时,63,51,44,27,21,170,,154,154,7,12,6,8,0.5,0.3
2025-05-05T1700,1276A,117.3453,31.8616,合肥市,瑶海区,臭氧1小时,53,53,45,27,21,162,,139,139,10,17,6,7,0.4,0.3
2025-05-05T1700,1277A,117.3027,31.7964,合肥市,包河区,臭氧1小时,55,51,44,31,26,164,,140,140,13,18,6,7,0.5,0.4
2025-05-05T1700,1278A,117.2776,31.7385,合肥市,滨湖新区,臭氧1小时,57,51,40,34,28,165,,140,140,14,16,8,8,0.7,0.6
2025-05-05T1700,1279A,117.1318,31.8403,合肥市,高新区,臭氧1小时,67,63,44,31,23,173,,144,144,11,16,2,3,0.6,0.5
2025-05-05T1700,3464A,117.3803,31.9147,合肥市,高教基地,臭氧1小时,52,51,42,28,27,161,,142,142,25,24,6,7,0.5,0.4
2025-05-05T1700,3614A,79.924,37.0877,和田地区,地区环保局,细颗粒物(PM2.5),135,207,865,103,328,92,,68,68,3,10,3,2,0.3,0.3
2025-05-05T1700,3615A,79.9131,37.113,和田地区,市环保局,颗粒物(PM10),165,280,838,99,381,104,,71,71,5,16,3,3,0.1,0.1
2025-05-05T1700,2516A,108.2011,24.715,河池市,东仁乐园,,,,,,,,,,,,,,,,
2025-05-05T1700,2517A,108.0497,24.6947,河池市,市环保站,,31,31,31,17,19,74,,86,86,7,7,6,7,0.6,0.6
2025-05-05T1700,2518A,108.0983,24.6989,河池市,市疾控中心,,36,36,28,16,21,69,,85,85,15,13,7,9,0.7,0.7
2025-05-05T1700,1696A,114.6778,23.7569,河源市,源西,,50,50,26,30,24,99,,80,80,9,9,4,3,0.6,0.7
2025-05-05T1700,1697A,114.6944,23.7586,河源市,东埔,颗粒物(PM10),55,60,29,20,24,111,,87,87,12,13,4,4,0.3,0.4
2025-05-05T1700,1698A,114.6892,23.7233,河源市,老城,,43,43,30,25,24,91,,80,80,10,14,4,4,0.5,0.5
2025-05-05T1700,1718A,115.4208,35.2464,菏泽市,气象局,颗粒物(PM10),471,571,129,149,45,125,,129,129,10,16,3,7,0.3,0.4
2025-05-05T1700,3374A,115.5564,35.0891,菏泽市,定陶老年大学,颗粒物(PM10),279,405,90,92,28,124,,131,131,10,14,4,5,0.5,0.5
2025-05-05T1700,4184A,115.4797,35.24401,菏泽市,永昌路1号,颗粒物(PM10),330,444,121,161,73,122,,127,127,8,13,5,6,0.2,0.3
2025-05-05T1700,4193A,115.4715,35.2800,菏泽市,长城路999号,颗粒物(PM10),443,543,126,101,36,121,,124,124,12,19,11,9,0.2,0.3
2025-05-05T1700,2514A,111.5264,24.4172,贺州市,环保小区,,29,28,23,20,16,82,,69,69,12,10,3,4,0.9,0.9
2025-05-05T1700,2515A,111.5608,24.4078,贺州市,政协大楼,,27,20,22,3,14,85,,72,72,10,10,6,8,0.6,0.7
2025-05-05T1700,3534A,111.4744,24.4553,贺州市,西湾,,23,20,20,14,12,73,,72,72,9,13,8,7,0.5,0.6
2025-05-05T1700,2385A,114.17,35.9019,鹤壁市,市监测站,颗粒物(PM10),166,282,137,125,53,118,,101,101,7,14,3,3,0.4,0.7
2025-05-05T1700,2386A,114.2956,35.7511,鹤壁市,市交警支队,颗粒物(PM10),198,345,136,97,39,125,,103,103,10,18,4,5,0.4,0.8
2025-05-05T1700,2387A,114.2878,35.7306,鹤壁市,迎宾馆,颗粒物(PM10),220,364,153,151,58,131,,107,107,5,11,1,3,0.4,0.6
2025-05-05T1700,3474A,114.2617,35.6822,鹤壁市,大新区,颗粒物(PM10),317,433,107,100,50,126,,100,100,7,16,8,8,0.3,0.5
2025-05-05T1700,3596A,114.1572,35.9603,鹤壁市,南山宾馆,颗粒物(PM10),352,461,185,112,56,121,,104,104,1,9,5,6,0.3,0.5
2025-05-05T1700,2244A,130.2537,47.3416,鹤岗市,哈啤分公司,,24,14,12,8,11,76,,76,76,2,2,13,14,0.2,0.3
2025-05-05T1700,2245A,130.2684,47.3086,鹤岗市,斯达机电,,25,18,15,11,12,78,,77,77,2,2,11,11,0.0,0.1
2025-05-05T1700,2246A,130.3114,47.3388,鹤岗市,东山纸板厂,,33,33,30,13,15,78,,75,75,4,6,11,12,0.1,0.3
2025-05-05T1700,2247A,130.1097,47.3382,鹤岗市,五号水库,,,,,,,,,,,,,,,,
2025-05-05T1700,2263A,127.4833,50.2524,黑河市,交通局,,24,23,17,12,12,75,,78,78,6,6,7,7,0.4,0.3
2025-05-05T1700,2264A,127.5144,50.2341,黑河市,环保局,,26,19,12,12,14,83,,84,84,4,5,3,4,0.2,0.2
2025-05-05T1700,2265A,127.5291,50.2472,黑河市,大黑河岛,,,,,6,5,75,,47,47,5,11,1,2,0.2,0.2
2025-05-05T1700,1074A,115.6838,37.7541,衡水市,电机北厂,颗粒物(PM10),186,322,99,96,41,106,,103,103,8,10,4,5,0.3,0.4
2025-05-05T1700,1075A,115.6303,37.7316,衡水市,市监测站,颗粒物(PM10),180,309,95,91,31,96,,102,102,12,11,8,7,0.3,0.3
2025-05-05T1700,3188A,115.6683,37.7217,衡水市,市城管局,颗粒物(PM10),200,350,95,91,36,102,,104,104,9,10,4,6,0.2,0.4
2025-05-05T1700,3459A,115.5989,37.5491,衡水市,地表水厂,颗粒物(PM10),402,502,115,137,35,99,,101,101,17,17,8,8,0.3,0.4
2025-05-05T1700,2456A,112.5003,26.9167,衡阳市,原169医院,,37,,43,21,35,116,,120,120,9,7,2,2,0.5,0.6
2025-05-05T1700,2457A,112.6194,26.9258,衡阳市,衡阳化工总厂,,43,43,57,29,40,90,,98,97,10,12,5,5,0.5,0.6
2025-05-05T1700,2458A,112.6211,26.8956,衡阳市,珠晖区环保局,,,30,53,,39,101,,107,106,12,18,6,7,0.7,0.8
2025-05-05T1700,2459A,112.6197,26.8733,衡阳市,市委党校,,,24,56,,,94,,100,98,10,15,1,2,0.5,0.8
2025-05-05T1700,2460A,112.6006,26.8919,衡阳市,市监测站,,36,36,49,20,34,90,,99,98,13,16,8,8,0.7,0.8
2025-05-05T1700,2461A,112.5664,26.9056,衡阳市,真空机电公司,,36,31,51,25,36,90,,104,104,10,9,4,5,0.7,0.7
2025-05-05T1700,3399A,112.6703,26.882,衡阳市,师范学院,,45,45,53,26,34,94,,104,101,11,14,6,6,0.8,0.9
2025-05-05T1700,2608A,103.3772,23.3993,红河哈尼族彝族自治州,污水处理厂,,32,20,23,18,18,101,,104,104,6,7,5,7,0.4,0.4
2025-05-05T1700,2609A,103.3861,23.35,红河哈尼族彝族自治州,监测站,,39,39,34,19,17,114,,108,108,5,6,9,10,0.3,0.4
2025-05-05T1700,3038A,103.3758,23.368,红河哈尼族彝族自治州,州图书馆,,,,17,19,15,91,,88,88,,6,,6,0.2,0.2
2025-05-05T1700,1090A,111.6507,40.7517,呼和浩特市,呼市一监,,29,29,87,18,32,91,,90,90,6,12,6,5,0.4,0.6
2025-05-05T1700,1091A,111.6572,40.8033,呼和浩特市,小召,,29,29,82,18,33,70,,79,79,24,21,9,10,0.9,0.9
2025-05-05T1700,1094A,111.7516,40.8369,呼和浩特市,如意水处理厂,颗粒物(PM10),54,58,96,25,37,84,,81,81,16,22,4,5,0.4,0.5
2025-05-05T1700,1095A,111.7276,40.8062,呼和浩特市,二十九中,,42,42,88,27,36,85,,87,87,13,16,4,4,0.6,0.6
2025-05-05T1700,1096A,111.5512,40.7866,呼和浩特市,工大金川校区,,32,32,68,22,32,88,,84,84,16,26,6,6,0.5,0.6
2025-05-05T1700,1097A,111.717,40.7612,呼和浩特市,化肥厂生活区,颗粒物(PM10),58,65,103,27,37,90,,91,91,18,23,8,8,0.4,0.5
2025-05-05T1700,3698A,111.5968,40.8178,呼和浩特市,红旗小学,,36,36,75,16,32,95,,87,87,21,32,4,5,0.5,0.5
2025-05-05T1700,3699A,111.6518,40.8389,呼和浩特市,海东办,,31,31,74,19,33,83,,83,83,16,23,6,7,0.4,0.5
2025-05-05T1700,2192A,119.7594,49.2261,呼伦贝尔市,区环保局,,35,28,32,24,26,92,,90,90,9,19,4,4,0.4,0.4
2025-05-05T1700,3061A,119.7512,49.1577,呼伦贝尔市,国华电力东,,30,24,29,12,16,96,,94,94,5,10,7,5,0.3,0.3
2025-05-05T1700,1250A,120.0751,30.8669,湖州市,城西水厂,细颗粒物(PM2.5),68,69,45,49,26,81,,70,70,32,27,6,7,0.5,0.5
2025-05-05T1700,2873A,120.0830,30.8929,湖州市,仁皇山新区,细颗粒物(PM2.5),69,66,41,50,24,77,,70,70,29,27,5,5,0.8,0.7
2025-05-05T1700,2907A,120.1844,30.8596,湖州市,吴兴区站,细颗粒物(PM2.5),68,60,39,49,24,84,,76,76,18,20,6,7,0.5,0.4
2025-05-05T1700,3562A,120.4148,30.8538,湖州市,南浔区站,,50,50,36,32,20,102,,89,89,18,18,4,5,0.6,0.5
2025-05-05T1700,1607A,120.9049,40.7211,葫芦岛市,龙港区,,40,,29,28,18,104,,101,101,15,20,8,21,0.6,0.5
2025-05-05T1700,1608A,120.8392,40.7514,葫芦岛市,化工街,,35,,34,24,18,98,,95,95,22,37,8,15,0.6,0.5
2025-05-05T1700,1609A,120.8341,40.7073,葫芦岛市,新区,,40,,29,28,19,101,,96,96,17,28,7,12,0.6,0.5
2025-05-05T1700,1610A,120.8695,40.7677,葫芦岛市,东城区,细颗粒物(PM2.5),53,,35,37,26,95,,92,92,20,36,5,19,0.6,0.6
2025-05-05T1700,2482A,109.5981,27.5721,怀化市,林科所,,,30,36,20,21,95,,90,90,,7,4,4,0.8,0.7
2025-05-05T1700,2483A,109.9453,27.5444,怀化市,河西地税局,,38,38,33,26,22,94,,86,86,11,8,5,5,0.5,0.5
2025-05-05T1700,2484A,109.9781,27.5342,怀化市,市四医院,,49,49,37,27,26,107,,100,100,5,5,4,6,0.8,0.8
2025-05-05T1700,2485A,109.9972,27.5578,怀化市,监测楼,,43,43,38,26,25,106,,100,100,4,5,3,2,0.3,0.3
2025-05-05T1700,2486A,110.0394,27.583,怀化市,市委党校,,50,42,35,35,24,100,,92,92,6,5,5,7,0.5,0.5
2025-05-05T1700,1210A,119.036,33.5981,淮安市,钵池山,,,22,22,,16,124,,101,101,10,12,7,7,,0.3
2025-05-05T1700,1211A,119.007,33.575,淮安市,北京南路,,40,,22,25,16,125,,103,103,8,8,7,8,0.5,0.4
2025-05-05T1700,1212A,118.989,33.6067,淮安市,市监测站,,37,,21,24,18,117,,98,98,12,12,7,8,0.5,0.4
2025-05-05T1700,1213A,119.135,33.5039,淮安市,楚州区监测站,,38,32,27,20,18,121,,100,100,7,8,6,7,0.4,0.4
2025-05-05T1700,3426A,118.8755,33.2894,淮安市,新华书店,,40,31,30,23,22,127,,101,101,9,14,7,9,0.5,0.5
2025-05-05T1700,4206A,119.0288,33.6319,淮安市,承德北路606号,,38,27,28,19,16,120,,100,100,6,9,6,7,0.4,0.4
2025-05-05T1700,2282A,116.8004,33.975,淮北市,监测站,臭氧1小时,69,56,44,43,54,175,,151,151,16,14,8,7,0.8,0.8
2025-05-05T1700,2283A,116.8091,33.9007,淮北市,烈山区政府,臭氧1小时,57,48,40,33,29,165,,141,141,9,12,5,5,0.8,0.7
2025-05-05T1700,3330A,116.8873,33.9836,淮北市,杜集区检察院,臭氧1小时,68,51,46,31,32,174,,147,147,15,14,8,7,0.8,0.7
2025-05-05T1700,4017A,116.7923,33.9535,淮北市,市博物馆,臭氧1小时,69,64,49,35,31,175,,150,150,14,13,8,7,0.7,0.7
2025-05-05T1700,2277A,116.8305,32.7727,淮南市,潘集区政府,臭氧1小时,64,68,51,40,32,171,,135,135,10,14,4,3,0.5,0.4
2025-05-05T1700,2279A,116.8569,32.5951,淮南市,谢家集区政府,臭氧1小时,65,54,49,46,33,172,,143,143,14,15,4,5,0.3,0.3
2025-05-05T1700,2280A,116.8281,32.633,淮南市,八公山区政府,臭氧1小时,67,76,58,45,33,173,,144,144,7,8,5,6,0.4,0.4
2025-05-05T1700,2281A,116.6325,32.6201,淮南市,焦岗湖风景区管理处,,,,,,,,,,,,,,,,
2025-05-05T1700,2894A,117.0566,32.6531,淮南市,经济技术开发区消防队,细颗粒物(PM2.5),72,62,47,52,30,166,,132,132,11,15,6,6,0.4,0.4
2025-05-05T1700,3329A,117.0108,32.5893,淮南市,山南新区,细颗粒物(PM2.5),77,82,54,56,29,178,,149,149,11,13,8,8,0.5,0.5
2025-05-05T1700,4209A,117.0031,32.6445,淮南市,国庆中路369号,细颗粒物(PM2.5),59,58,51,42,34,162,,131,131,8,10,9,9,0.4,0.4
2025-05-05T1700,2446A,114.9028,30.4742,黄冈市,职工中心,,,,,,,,,,,,,,,,
2025-05-05T1700,2929A,114.8858,30.4519,黄冈市,红卫路,,49,40,50,18,35,155,,151,151,5,4,6,6,0.6,0.7
2025-05-05T1700,3398A,114.9136,30.4445,黄冈市,市林业局,,48,45,51,23,40,152,,147,147,4,9,7,7,0.7,0.8
2025-05-05T1700,2672A,102.0199,35.5102,黄南藏族自治州,同仁县隆务镇,,37,37,60,9,22,111,,100,100,1,6,5,4,0.1,0.2
2025-05-05T1700,2295A,118.2903,29.6963,黄山市,延安路89号,,27,8,26,7,14,85,,76,75,6,7,5,5,0.5,0.4
2025-05-05T1700,2297A,118.1371,30.2756,黄山市,黄山区政府5号楼,,41,19,32,14,15,129,,96,96,7,7,3,3,0.9,0.8
2025-05-05T1700,4210A,118.3354,29.7203,黄山市,滨江东路7-2号,,28,24,31,8,14,88,,75,75,5,8,4,4,0.5,0.5
2025-05-05T1700,2423A,115.0601,30.2313,黄石市,沈家营,臭氧1小时,62,50,64,24,28,169,,159,159,6,9,7,7,0.7,0.8
2025-05-05T1700,2426A,114.8988,30.2019,黄石市,铁山,颗粒物(PM10),57,64,61,26,37,162,,149,149,4,10,9,7,0.3,0.2
2025-05-05T1700,2427A,115.0307,30.2092,黄石市,团城山,颗粒物(PM10),52,54,55,23,23,158,,146,146,9,11,8,8,0.5,0.6
2025-05-05T1700,3149A,115.0235,30.1578,黄石市,笔架山北路,臭氧1小时,68,39,48,27,24,174,,158,158,6,7,7,7,0.6,0.8
2025-05-05T1700,4185A,115.0780,30.21118,黄石市,磁湖东路29号,臭氧1小时,54,52,63,28,33,163,,156,156,13,14,7,8,0.7,0.7
2025-05-05T1700,1392A,114.4183,23.0528,惠州市,河南岸金山湖子站,,44,44,35,23,17,80,,81,81,8,10,8,8,0.4,0.5
2025-05-05T1700,1393A,114.4053,23.0822,惠州市,下埔横江三路子站,,,,29,,15,91,,90,90,9,9,8,8,0.5,0.5
2025-05-05T1700,1394A,114.4103,23.1142,惠州市,江北云山西路子站,,33,33,30,16,15,98,,97,97,7,6,10,10,0.5,0.5
2025-05-05T1700,1395A,114.4645,22.7833,惠州市,惠阳区承修路船湖子站,,42,42,36,19,17,75,,82,82,9,8,7,8,0.2,0.3
2025-05-05T1700,1396A,114.5317,22.7422,惠州市,大亚湾管委会子站,,44,44,37,20,19,77,,84,83,7,7,9,9,0.5,0.5
2025-05-05T1700,3314A,114.4338,22.8134,惠州市,惠阳秋长,,39,39,33,22,16,80,,89,89,9,8,8,10,0.6,0.6
2025-05-05T1700,3452A,114.6517,22.775,惠州市,大亚湾霞涌,,37,37,29,25,18,79,,78,78,7,7,8,7,0.4,0.4
2025-05-05T1700,2240A,130.9762,45.3001,鸡西市,环保局,,30,16,14,12,9,94,,93,93,5,6,5,5,0.4,0.4
2025-05-05T1700,2243A,130.9429,45.3039,鸡西市,第一中学,,29,18,13,15,8,92,,91,91,4,4,6,6,0.4,0.3
2025-05-05T1700,3707A,131.0207,45.3073,鸡西市,欧美日汽修厂,,29,9,15,8,9,91,,89,89,7,8,5,4,0.4,0.4
2025-05-05T1700,3709A,130.9967,45.3106,鸡西市,市政设施管理处,,28,18,19,8,9,88,,88,88,6,8,7,6,0.3,0.4
2025-05-05T1700,2367A,114.9754,27.0803,吉安市,红声器材厂,,27,23,32,10,17,86,,75,75,3,5,10,11,0.7,0.6
2025-05-05T1700,2368A,114.9658,27.0999,吉安市,市森林工业局,,28,22,28,11,18,87,,75,75,2,5,8,10,0.4,0.4
2025-05-05T1700,2369A,114.99,27.1312,吉安市,市环境监测站,,27,22,27,12,14,84,,75,75,2,3,8,13,0.6,0.6
2025-05-05T1700,2370A,115.0093,27.0968,吉安市,青原区法院,,29,18,25,10,18,90,,77,77,4,6,13,15,0.5,0.5
2025-05-05T1700,1772A,126.54,43.8622,吉林市,哈达湾,,32,29,30,16,15,102,,96,96,9,13,6,6,0.3,0.3
2025-05-05T1700,1773A,126.5844,43.8358,吉林市,东局子,,33,33,25,19,16,105,,101,101,12,14,6,6,0.3,0.3
2025-05-05T1700,1774A,126.5052,43.8245,吉林市,电力学院,,35,33,31,24,20,108,,104,104,8,12,6,5,0.3,0.4
2025-05-05T1700,1775A,126.6133,43.8972,吉林市,江北,,35,35,32,14,17,104,,100,100,13,15,8,7,0.1,0.2
2025-05-05T1700,1776A,126.555,43.8306,吉林市,江南公园,,33,32,25,23,17,98,,95,95,10,12,6,6,0.3,0.3
2025-05-05T1700,1778A,126.7061,43.7133,吉林市,丰满,,,,,,,,,,,,,,,,
2025-05-05T1700,2868A,126.4739,43.953,吉林市,九站,,32,30,30,12,16,102,,95,95,8,14,11,10,0.3,0.4
2025-05-05T1700,1299A,116.9862,36.6114,济南市,科干所,颗粒物(PM10),140,229,71,83,27,151,,144,144,9,11,4,4,0.5,0.4
2025-05-05T1700,1300A,116.9376,36.665,济南市,农科所,颗粒物(PM10),133,215,67,66,29,140,,136,136,13,17,7,7,0.4,0.4
2025-05-05T1700,1301A,117.1265,36.6734,济南市,开发区,颗粒物(PM10),177,303,79,88,34,142,,135,135,11,12,7,8,0.6,0.5
2025-05-05T1700,1303A,117.0624,36.6868,济南市,省种子仓库,细颗粒物(PM2.5),113,158,46,85,28,147,,143,143,10,15,4,5,0.5,0.4
2025-05-05T1700,1304A,116.9489,36.6447,济南市,机床二厂,颗粒物(PM10),145,239,76,71,29,138,,132,132,16,19,8,9,0.5,0.5
2025-05-05T1700,1305A,117.0495,36.663,济南市,市监测站,颗粒物(PM10),147,244,73,73,29,144,,139,139,14,16,8,9,0.5,0.5
2025-05-05T1700,1306A,116.7675,36.5484,济南市,长清党校,颗粒物(PM10),118,186,52,3,22,146,,139,139,13,15,5,6,0.7,0.6
2025-05-05T1700,1616A,117.6795,36.229,济南市,技术学院,颗粒物(PM10),79,107,46,36,26,154,,139,139,14,17,10,11,0.5,0.6
2025-05-05T1700,1961A,117.532,36.6868,济南市,东山小学,颗粒物(PM10),117,183,60,49,23,156,,145,145,10,12,7,8,0.3,0.4
2025-05-05T1700,3059A,117.7161,36.2049,济南市,泰兴公司,颗粒物(PM10),74,97,51,31,28,153,,138,138,16,18,6,6,0.2,0.4
2025-05-05T1700,3064A,117.6867,36.2171,济南市,莱芜战役纪念馆,颗粒物(PM10),67,83,50,29,22,152,,136,136,17,20,6,6,0.5,0.7
2025-05-05T1700,3494A,117.1673,36.9782,济南市,济阳区政府,颗粒物(PM10),92,134,64,49,26,148,,146,146,14,19,5,5,0.5,0.4
2025-05-05T1700,3495A,117.1171,36.63,济南市,锦屏中学,颗粒物(PM10),173,295,69,88,29,141,,139,139,12,13,5,6,0.5,0.5
2025-05-05T1700,3682A,116.9814,36.6819,济南市,济南四建,颗粒物(PM10),136,222,71,71,30,151,,144,144,9,15,5,5,0.5,0.5
2025-05-05T1700,1653A,116.6251,35.4302,济宁市,火炬城,颗粒物(PM10),53,55,40,27,28,150,,136,136,5,7,8,7,0.4,0.4
2025-05-05T1700,1655A,116.5491,35.4042,济宁市,电化厂,,50,50,43,29,26,150,,136,136,6,7,3,4,0.6,0.5
2025-05-05T1700,3500A,116.5814,35.3707,济宁市,北湖一中,,50,50,47,22,18,149,,133,133,8,10,6,5,0.4,0.4
2025-05-05T1700,3501A,116.8249,35.5593,济宁市,服务中心,,49,47,45,30,20,155,,141,141,11,15,2,3,0.4,0.3
2025-05-05T1700,3678A,116.5907,35.4054,济宁市,市第七中学,颗粒物(PM10),52,54,54,27,20,151,,134,134,8,11,5,6,0.4,0.4
2025-05-05T1700,2255A,130.2751,46.8028,佳木斯市,佳纺,,,,25,4,11,82,,80,80,5,9,4,5,,0.4
2025-05-05T1700,2256A,130.3995,46.8307,佳木斯市,发电厂,,26,25,21,9,13,82,,81,81,6,6,4,4,0.2,0.2
2025-05-05T1700,2257A,130.3258,46.7975,佳木斯市,环保局,,27,18,20,3,11,85,,85,85,7,9,6,6,0.0,0.1
2025-05-05T1700,2258A,130.3648,46.8032,佳木斯市,十一中,,26,12,21,8,12,83,,81,81,6,9,4,5,0.3,0.3
2025-05-05T1700,2259A,130.3794,46.7588,佳木斯市,四丰,,23,16,23,3,8,72,,74,74,9,6,1,1,0.2,0.2
2025-05-05T1700,1252A,120.7436,30.778,嘉兴市,清河小学,,39,39,35,21,12,102,,91,91,19,16,4,5,0.8,0.7
2025-05-05T1700,1253A,120.726,30.7478,嘉兴市,嘉兴学院,,40,40,34,28,17,110,,95,95,15,14,5,6,0.7,0.7
2025-05-05T1700,2872A,120.7846,30.7525,嘉兴市,南湖区残联,,46,41,29,32,17,114,,103,103,11,10,5,6,0.6,0.5
2025-05-05T1700,3407A,120.6916,30.7739,嘉兴市,秀洲住建,颗粒物(PM10),51,52,42,18,12,113,,95,95,9,8,6,7,0.6,0.5
2025-05-05T1700,1945A,98.2908,39.7711,嘉峪关市,气象局,颗粒物(PM10),184,317,273,75,56,114,,104,104,8,5,14,8,1.2,1
2025-05-05T1700,2884A,98.2672,39.7978,嘉峪关市,酒钢宾馆,颗粒物(PM10),165,280,300,66,61,101,,109,99,17,7,28,11,0.8,0.5
2025-05-05T1700,3248A,98.2643,39.7724,嘉峪关市,雄关区,颗粒物(PM10),139,227,209,59,41,114,,106,102,12,8,13,9,1.0,0.8
2025-05-05T1700,1383A,113.1064,22.6058,江门市,北街,,22,,26,15,14,40,,58,57,11,6,2,2,0.3,0.4
2025-05-05T1700,1384A,113.0731,22.5835,江门市,西区,,32,32,27,17,14,39,,58,56,9,8,6,6,0.4,0.4
2025-05-05T1700,1385A,113.0219,22.5311,江门市,圭峰西,,33,33,26,14,14,36,,47,46,9,8,3,3,0.4,0.4
2025-05-05T1700,1386A,113.0828,22.5947,江门市,东湖,,24,24,23,9,15,41,,61,60,10,9,7,9,0.4,0.5
2025-05-05T1700,3311A,113.1075,22.5647,江门市,江海富民,,30,29,31,21,15,45,,61,60,6,7,7,7,0.4,0.4
2025-05-05T1700,3449A,113.05,22.4667,江门市,新会银湖,,21,21,26,10,13,48,,50,50,5,9,1,1,0.4,0.5
2025-05-05T1700,1830A,113.1992,35.2590,焦作市,影视城,,,,17,,10,,,,,,10,,9,,0.7
2025-05-05T1700,3169A,113.2725,35.2067,焦作市,太极体育中心,颗粒物(PM10),122,194,124,38,28,111,,103,103,8,8,3,4,0,0
2025-05-05T1700,3335A,113.3137,35.2641,焦作市,马村街道办,颗粒物(PM10),114,178,116,51,32,123,,112,112,10,11,6,7,0.0,0.2
2025-05-05T1700,3336A,113.2465,35.2373,焦作市,焦作技师学院,颗粒物(PM10),119,187,116,31,29,123,,113,113,8,9,6,7,0.1,0.4
2025-05-05T1700,3477A,113.1656,35.2539,焦作市,中站许衡医院,颗粒物(PM10),150,249,103,48,37,117,,111,111,9,9,10,6,0.4,0.4
2025-05-05T1700,3981A,113.2449,35.1803,焦作市,原李万街道办,颗粒物(PM10),151,252,116,61,28,123,,116,116,10,11,10,10,0.2,0.3
2025-05-05T1700,4264A,113.2340,35.2190,焦作市,新安路1731号,颗粒物(PM10),110,170,110,69,38,118,,112,112,9,9,,6,0.5,0.7
2025-05-05T1700,1708A,116.3701,23.5345,揭阳市,新兴,,46,46,45,22,26,100,,92,92,10,9,7,6,0.6,0.6
2025-05-05T1700,1709A,116.3264,23.5443,揭阳市,西马,,42,36,49,29,11,92,,86,86,5,4,6,7,0.8,0.8
2025-05-05T1700,1710A,116.3611,23.5626,揭阳市,东兴,颗粒物(PM10),53,56,51,18,26,95,,87,87,4,5,5,5,0.6,0.6
2025-05-05T1700,1711A,116.4151,23.5294,揭阳市,渔湖,颗粒物(PM10),72,93,50,21,21,114,,96,96,9,10,4,4,0.7,0.6
2025-05-05T1700,3320A,116.403,23.5699,揭阳市,曲溪,,39,39,44,17,21,115,,102,102,10,13,5,23,0.7,0.6
2025-05-05T1700,1944A,102.1692,38.5167,金昌市,天庆家园,颗粒物(PM10),150,249,584,74,122,113,,112,110,2,3,8,8,0.6,0.7
2025-05-05T1700,4022A,102.1647,38.5371,金昌市,金川区人防中心,颗粒物(PM10),160,270,772,52,122,117,,113,112,3,4,4,4,0.5,0.3
2025-05-05T1700,4239A,102.1930,38.5319,金昌市,长春路96号,颗粒物(PM10),178,305,637,66,142,108,,104,103,1,2,22,12,0.6,0.5
2025-05-05T1700,1262A,119.647,29.077,金华市,十五中,,32,32,48,19,25,92,,101,101,16,20,5,3,0.6,0.4
2025-05-05T1700,1263A,119.686,29.1029,金华市,监测站,,29,23,51,16,26,90,,98,98,11,17,5,5,0.5,0.4
2025-05-05T1700,3659A,119.656,29.1131,金华市,气象局,,28,26,46,15,23,88,,97,97,13,20,2,2,0.7,0.6
2025-05-05T1700,1767A,121.1115,41.0879,锦州市,南山,细颗粒物(PM2.5),65,,28,47,23,84,,83,83,22,24,7,14,0.7,0.7
2025-05-05T1700,1768A,121.0604,40.8428,锦州市,开发区,细颗粒物(PM2.5),55,,38,39,23,101,,97,97,22,39,7,15,0.7,0.5
2025-05-05T1700,1769A,121.1836,41.1119,锦州市,百股街道,,49,,28,34,16,82,,87,87,24,25,4,10,0.7,0.6
2025-05-05T1700,1770A,121.1178,41.1222,锦州市,天安街道,,49,,39,34,22,94,,81,81,24,29,6,11,0.7,0.9
2025-05-05T1700,1771A,121.1303,41.1386,锦州市,北湖公园,细颗粒物(PM2.5),52,,34,36,24,91,,80,80,20,21,8,15,0.7,0.9
2025-05-05T1700,2160A,112.85,35.5051,晋城市,自来水公司,颗粒物(PM10),230,371,136,68,27,113,,108,108,12,11,6,7,0.4,0.5
2025-05-05T1700,2161A,112.8318,35.4936,晋城市,白云商贸,颗粒物(PM10),289,412,132,83,40,119,,113,113,12,12,5,6,0.4,0.4
2025-05-05T1700,2162A,112.8508,35.4887,晋城市,市环保局,颗粒物(PM10),242,379,132,90,33,110,,104,104,8,9,4,6,0.2,0.3
2025-05-05T1700,2163A,112.8676,35.4897,晋城市,技术学院,颗粒物(PM10),288,411,130,85,23,104,,98,98,8,11,5,6,0.4,0.4
2025-05-05T1700,2165A,112.8453,35.546,晋城市,白马寺,颗粒物(PM10),169,288,101,94,38,123,,114,114,5,7,4,5,0.3,0.3
2025-05-05T1700,3620A,112.8271,35.4828,晋城市,泽州一中,颗粒物(PM10),216,361,117,105,36,118,,110,110,8,10,4,4,0.2,0.3
2025-05-05T1700,2173A,112.7249,37.7067,晋中市,南都小区,颗粒物(PM10),169,288,120,47,31,100,,91,91,10,15,4,8,0.3,0.6
2025-05-05T1700,2174A,112.6991,37.6982,晋中市,榆次区政府,颗粒物(PM10),169,288,119,38,26,103,,92,92,12,18,4,7,0.3,0.6
2025-05-05T1700,2865A,112.7195,37.6828,晋中市,榆次三中,颗粒物(PM10),198,346,141,56,32,106,,95,95,8,15,2,6,0.2,0.6
2025-05-05T1700,4200A,112.7478,37.6954,晋中市,迎宾街26号,颗粒物(PM10),164,278,130,58,30,97,,90,90,11,18,3,7,0.2,0.5
2025-05-05T1700,2439A,112.2014,31.0481,荆门市,竹园小学,,45,40,52,16,22,144,,122,122,10,11,6,4,0,0.2
2025-05-05T1700,2440A,112.1969,30.9891,荆门市,掇刀,,46,46,46,16,25,141,,118,118,8,11,7,4,0.2,0.3
2025-05-05T1700,2441A,112.2213,31.0386,荆门市,石化一小,,44,41,45,20,26,140,,117,117,7,10,12,7,0,0.2
2025-05-05T1700,3012A,112.1849,31.0362,荆门市,西山林语,,44,37,39,12,23,138,,117,117,3,5,8,7,0.3,0.4
2025-05-05T1700,3547A,112.1632,31.0138,荆门市,龙泉中学南校,,44,40,42,13,22,138,,118,118,1,4,2,2,0.3,0.4
2025-05-05T1700,1844A,112.2494,30.3197,荆州市,市图书馆,,44,39,38,23,26,138,,119,119,10,11,6,5,0.3,0.6
2025-05-05T1700,1845A,112.2008,30.3544,荆州市,市委党校,,40,39,40,17,26,127,,109,109,8,9,7,6,0.5,0.6
2025-05-05T1700,3194A,112.2747,30.3122,荆州市,管委会,,43,39,38,19,26,137,,116,116,9,11,6,6,0.6,0.7
2025-05-05T1700,4268A,112.1722,30.3366,荆州市,学苑路85号,,43,34,34,17,27,137,,116,116,4,8,2,2,0.4,0.5
2025-05-05T1700,2342A,117.3102,29.3867,景德镇市,王港中学,,,,,,,,,,,,,,,,
2025-05-05T1700,2343A,117.2117,29.2933,景德镇市,老干部活动中心,,31,22,24,3,12,98,,92,81,7,10,6,7,0.5,0.5
2025-05-05T1700,2344A,117.1894,29.2789,景德镇市,兽医站,,30,22,30,3,15,94,,88,78,9,10,5,6,0.5,0.6
2025-05-05T1700,2345A,117.1547,29.2617,景德镇市,台达陶瓷,,34,29,31,14,19,106,,90,86,6,11,14,11,0.4,0.6
2025-05-05T1700,2346A,117.2461,29.2956,景德镇市,陶研所,,30,20,25,9,17,96,,96,71,9,9,10,6,0.5,0.5
2025-05-05T1700,1803A,115.9872,29.6815,九江市,十里,,44,44,47,26,31,117,,122,122,13,18,2,4,0.8,0.8
2025-05-05T1700,1804A,115.9584,29.7046,九江市,茅山头,,41,41,47,22,29,124,,123,123,16,24,4,7,0.6,0.6
2025-05-05T1700,1805A,115.9877,29.7295,九江市,西园,,49,49,39,30,22,132,,126,126,46,33,10,10,0.8,0.9
2025-05-05T1700,1808A,115.9114,29.6038,九江市,综合工业园,,48,48,52,19,27,121,,111,111,11,25,8,10,0.8,0.9
2025-05-05T1700,1809A,116.0721,29.7535,九江市,石化总厂,颗粒物(PM10),51,52,41,25,26,146,,118,118,17,15,12,10,0.9,0.8
2025-05-05T1700,1810A,115.9773,29.5698,九江市,庐山气象台,,36,,13,13,7,115,,104,104,7,6,6,6,0.7,0.8
2025-05-05T1700,3190A,116.0254,29.6994,九江市,外国语学校,,40,31,27,28,21,120,,112,112,17,14,6,7,0.9,0.8
2025-05-05T1700,4253A,116.0102,29.6594,九江市,莲花大道8号,,38,32,37,23,31,119,,109,109,5,10,4,5,0.7,0.8
2025-05-05T1700,4240A,98.4958,39.7339,酒泉市,玉门东路5号,颗粒物(PM10),169,288,522,60,63,113,,,,3,2,11,16,0.3,0.3
2025-05-05T1700,4241A,98.5099,39.7506,酒泉市,北大街108号,颗粒物(PM10),158,266,386,42,46,110,,103,103,6,5,10,13,0.3,0.2
2025-05-05T1700,2698A,76.0072,39.4467,喀什地区,巡警大队,颗粒物(PM10),192,333,383,75,93,134,,90,90,8,35,4,5,0.4,0.7
2025-05-05T1700,2699A,75.9755,39.4694,喀什地区,吾办,细颗粒物(PM2.5),195,321,351,146,180,134,,84,84,9,63,6,4,0.3,0.5
2025-05-05T1700,4027A,75.9483,39.4689,喀什地区,老干局,颗粒物(PM10),184,318,331,97,98,128,,85,85,6,27,7,6,0.3,0.3
2025-05-05T1700,1824A,114.3389,34.7781,开封市,肿瘤医院,颗粒物(PM10),500,791,190,221,55,106,,105,105,6,11,6,8,0.1,0.4
2025-05-05T1700,1826A,114.2885,34.7965,开封市,世纪星幼儿园,颗粒物(PM10),500,716,189,250,67,116,,112,112,15,16,8,6,0.6,0.7
2025-05-05T1700,3147A,114.3438,34.8106,开封市,龙亭公园,颗粒物(PM10),500,800,210,340,97,112,,110,110,12,16,2,3,0.4,0.7
2025-05-05T1700,3210A,114.3644,34.7964,开封市,汴京公园,颗粒物(PM10),500,893,240,213,59,116,,116,116,11,16,4,4,0.3,0.6
2025-05-05T1700,3473A,114.2485,34.8306,开封市,技师学院,颗粒物(PM10),449,549,159,242,57,112,,105,105,9,16,5,5,0.4,0.7
2025-05-05T1700,3592A,114.4644,34.7556,开封市,祥符区生态环境局,颗粒物(PM10),458,558,142,227,58,109,,111,111,13,18,6,7,0.4,0.6
2025-05-05T1700,1951A,84.895,45.6094,克拉玛依市,长征新村,,29,25,25,9,11,91,,88,88,7,12,8,8,0.2,0.3
2025-05-05T1700,1952A,84.8988,45.5893,克拉玛依市,南林小区,,31,18,29,3,15,98,,88,88,2,12,4,5,0.1,0.2
2025-05-05T1700,1954A,84.905,44.3396,克拉玛依市,独山子区,,45,36,28,16,12,141,,121,121,9,15,9,10,0.5,0.5
2025-05-05T1700,1955A,85.6979,46.098,克拉玛依市,乌尔禾区商贸楼,,37,,25,21,10,118,,101,101,2,4,8,7,0.3,0.2
2025-05-05T1700,3612A,85.1045,45.6899,克拉玛依市,白碱滩区新站,,35,28,24,11,6,109,,96,96,9,6,14,11,0.3,0.1
2025-05-05T1700,2697A,76.1454,39.7142,克孜勒苏柯尔克孜自治州,市人民政府,颗粒物(PM10),182,314,360,105,114,134,,103,103,5,12,4,9,0.3,0.3
2025-05-05T1700,3665A,76.1658,39.7157,克孜勒苏柯尔克孜自治州,克州文化中心,颗粒物(PM10),189,327,357,116,113,125,,96,96,6,13,6,10,0.3,0.3
2025-05-05T1700,1450A,102.8204,24.8886,昆明市,呈贡新区,,40,14,24,3,15,125,,121,121,7,12,4,6,0.4,0.5
2025-05-05T1700,1451A,102.6251,24.9608,昆明市,西山森林公园,,,,,,,,,,,,,,,,
2025-05-05T1700,1452A,102.7252,25.0902,昆明市,龙泉镇,,43,18,24,11,15,136,,124,124,9,29,9,9,0.3,0.4
2025-05-05T1700,1453A,102.7266,25.0375,昆明市,东风东路,,44,20,23,14,17,140,,135,135,10,17,9,11,0.4,0.4
2025-05-05T1700,1454A,102.6742,25.0669,昆明市,金鼎山,,43,31,26,6,16,135,,125,125,11,20,3,5,0.4,0.5
2025-05-05T1700,1455A,102.6644,25.0401,昆明市,碧鸡广场,,41,,25,20,21,129,,125,125,10,19,7,9,0.3,0.5
2025-05-05T1700,3179A,102.7494,25.0119,昆明市,官渡区博物馆,,43,24,24,10,13,137,,131,131,7,15,6,8,0.3,0.4
2025-05-05T1700,3375A,102.8017,24.8336,昆明市,青年创业园,,40,,21,10,14,127,,124,124,5,15,7,9,0.2,0.3
2025-05-05T1700,3550A,102.7997,24.9786,昆明市,昆明学院,,42,15,27,7,15,132,,125,125,6,15,5,6,0.2,0.4
2025-05-05T1700,3551A,102.5967,24.6736,昆明市,晋宁区生态环境分局,,38,,13,9,10,119,,110,110,7,8,9,7,0.4,0.4
2025-05-05T1700,3552A,102.6678,24.9856,昆明市,云天化总部,,40,10,22,3,12,125,,122,122,9,17,7,10,0.3,0.4
2025-05-05T1700,1456A,91.1319,29.6514,拉萨市,八廓街,,45,14,15,6,8,144,,125,125,6,10,6,6,0.3,0.3
2025-05-05T1700,1457A,91.1221,29.6747,拉萨市,市环保局,,46,14,16,3,8,145,,123,123,6,11,4,4,0.4,0.5
2025-05-05T1700,1458A,91.0874,29.6475,拉萨市,区监测站,,46,13,12,7,7,145,,125,125,7,10,6,6,0.4,0.4
2025-05-05T1700,1459A,91.1774,29.6541,拉萨市,西藏大学,,44,6,11,3,6,140,,123,123,7,8,6,6,0.4,0.4
2025-05-05T1700,1460A,90.9798,29.6588,拉萨市,区辐射站,,46,11,16,8,8,147,,126,126,9,13,9,9,0.3,0.3
2025-05-05T1700,1461A,91.0834,29.6292,拉萨市,拉萨火车站,,46,7,10,3,7,146,,124,124,5,7,3,3,0.3,0.4
2025-05-05T1700,2520A,109.2203,23.7256,来宾市,来宾技工学校,,42,42,37,22,21,125,,107,107,6,6,6,6,0.6,0.6
2025-05-05T1700,3535A,109.1781,23.7297,来宾市,兴宾区政府,,35,32,35,20,23,111,,95,95,5,8,4,4,0.5,0.5
2025-05-05T1700,4002A,109.2416,23.7461,来宾市,中南小学,,38,34,36,13,19,121,,104,104,6,5,6,7,0.5,0.5
2025-05-05T1700,1477A,104.1373,35.9454,兰州市,榆中兰大校区,,,,,,,,,,,,,,,,
2025-05-05T1700,1479A,103.831,36.0464,兰州市,铁路设计院,颗粒物(PM10),122,194,55,39,23,111,,92,92,19,25,13,9,0.4,0.6
2025-05-05T1700,3241A,103.7439,36.0842,兰州市,百合公园,颗粒物(PM10),104,158,52,26,21,110,,106,106,5,13,12,4,0.2,0.4
2025-05-05T1700,3242A,103.9611,35.998,兰州市,和平,颗粒物(PM10),117,183,59,82,34,116,,98,98,3,12,13,12,0.5,0.7
2025-05-05T1700,4236A,103.6293,36.0938,兰州市,庄浪东路808号,颗粒物(PM10),114,178,66,48,30,116,,112,112,13,20,12,8,0.3,0.3
2025-05-05T1700,4237A,103.7251,36.1043,兰州市,安宁西路88号,颗粒物(PM10),134,218,70,51,35,129,,123,123,5,14,12,5,0.3,0.3
2025-05-05T1700,4238A,103.8470,36.0676,兰州市,北滨河东路1号,颗粒物(PM10),141,232,69,61,27,124,,101,101,9,19,17,11,0.5,0.6
2025-05-05T1700,3245A,103.6633,36.533,兰州新区,新区管委会,颗粒物(PM10),126,201,60,63,37,116,,97,97,4,9,8,9,0.2,0.3
2025-05-05T1700,3246A,103.6975,36.4789,兰州新区,舟曲中学,颗粒物(PM10),170,290,70,58,30,123,,107,107,8,10,7,5,0.3,0.4
2025-05-05T1700,1067A,116.6708,39.5111,廊坊市,药材公司,颗粒物(PM10),68,85,54,35,34,106,,107,107,18,13,3,3,0.4,0.4
2025-05-05T1700,1068A,116.7214,39.5589,廊坊市,开发区,颗粒物(PM10),63,76,56,38,34,99,,105,105,19,16,2,3,0.4,0.4
2025-05-05T1700,1070A,116.7244,39.5269,廊坊市,北华航天学院,颗粒物(PM10),67,83,71,41,40,103,,102,102,20,16,4,5,0.5,0.4
2025-05-05T1700,2919A,116.7022,39.5453,廊坊市,河北工业大学,颗粒物(PM10),64,77,60,38,36,104,,106,106,21,17,5,6,0.4,0.4
2025-05-05T1700,2535A,103.7723,29.5462,乐山市,花湖湾,,35,26,32,16,18,109,,89,89,6,8,6,7,0.5,0.6
2025-05-05T1700,2536A,103.7627,29.5844,乐山市,牛耳桥,,34,32,33,17,21,108,,91,91,7,9,6,6,0.2,0.3
2025-05-05T1700,2537A,103.7508,29.6006,乐山市,市第三水厂,,34,32,32,15,17,106,,91,91,3,6,4,5,0.5,0.6
2025-05-05T1700,2538A,103.7571,29.5664,乐山市,市监测站,,33,27,33,14,16,103,,88,88,5,8,6,6,0.6,0.7
2025-05-05T1700,3361A,103.7311,29.5628,乐山市,理工大学,,37,29,31,17,18,117,,98,98,5,9,4,6,0.5,0.6
2025-05-05T1700,2598A,100.2143,26.8576,丽江市,西南郊,,35,10,12,6,5,109,,120,120,8,3,6,13,0.8,0.6
2025-05-05T1700,2599A,100.2497,26.8802,丽江市,丽江古城,,34,29,14,22,10,106,,99,99,11,8,10,9,0.5,0.4
2025-05-05T1700,2600A,100.2203,26.8906,丽江市,市中心,,32,20,10,11,7,102,,92,92,5,4,8,6,0.4,0.3
2025-05-05T1700,1267A,119.914,28.4514,丽水市,监测站大楼,,29,29,30,12,13,85,,91,78,15,14,4,3,0.5,0.4
2025-05-05T1700,1268A,119.93,28.4586,丽水市,莲都小学,,28,22,30,10,17,87,,94,79,12,12,4,4,0.5,0.4
2025-05-05T1700,1269A,119.879,28.4231,丽水市,余庄前,,24,23,34,12,18,75,,78,69,15,12,4,4,0.4,0.3
2025-05-05T1700,1173A,119.176,34.5885,连云港市,市环境监测站,,34,31,22,17,11,108,,108,108,8,9,5,5,0.4,0.4
2025-05-05T1700,3000A,119.3581,34.6972,连云港市,德源药业,,33,31,21,19,9,104,,103,103,8,9,8,9,0.5,0.5
2025-05-05T1700,3007A,119.178,34.844,连云港市,新城一中,,31,26,33,9,10,97,,104,103,7,14,6,7,0.4,0.5
2025-05-05T1700,3008A,119.3608,34.7519,连云港市,胡沟管理处,,31,31,20,14,9,91,,94,94,20,20,14,15,0.5,0.6
2025-05-05T1700,3009A,119.1478,34.5911,连云港市,矿山设计院,,34,34,29,14,10,106,,105,105,12,14,8,8,0.5,0.4
2025-05-05T1700,3434A,119.2413,34.6539,连云港市,工贸学校,,34,17,19,14,13,106,,104,104,9,12,7,8,0.4,0.4
2025-05-05T1700,3664A,119.4172,34.7341,连云港市,连云街道,,33,33,29,13,11,98,,106,102,17,14,6,8,0.4,0.5
2025-05-05T1700,2571A,102.3431,27.8099,凉山彝族自治州,青龙寺,,36,7,22,3,5,114,,94,94,2,10,3,3,0.6,0.7
2025-05-05T1700,2572A,102.2721,27.8415,凉山彝族自治州,邛海宾馆,,37,20,26,7,13,116,,95,95,5,15,9,10,0.6,0.7
2025-05-05T1700,2573A,102.2625,27.898,凉山彝族自治州,西昌市政府,,35,15,21,3,12,111,,92,92,5,10,9,10,0.6,0.7
2025-05-05T1700,2574A,102.2685,27.8851,凉山彝族自治州,凉山州政府,,35,12,19,3,11,110,,86,86,6,13,7,6,0.7,0.6
2025-05-05T1700,4229A,102.2342,27.8859,凉山彝族自治州,凯乐南路30号,,32,14,23,7,12,101,,87,87,6,17,15,15,0.8,0.9
2025-05-05T1700,2212A,123.2,41.1953,辽阳市,宏伟区,,37,16,23,8,5,116,,109,109,5,7,6,7,0.5,0.4
2025-05-05T1700,2213A,123.1683,41.2495,辽阳市,新华园,,34,22,34,12,13,108,,100,100,5,14,2,4,0.4,0.4
2025-05-05T1700,2214A,123.2354,41.2639,辽阳市,滨河路,,35,18,27,11,15,109,,98,98,8,17,6,7,0.3,0.3
2025-05-05T1700,2215A,123.149,41.2991,辽阳市,铁西工业园,,34,29,38,13,19,107,,96,96,4,16,10,10,0.3,0.3
2025-05-05T1700,2227A,125.1358,42.8845,辽源市,环保局,,36,36,39,12,14,94,,104,104,14,17,6,7,0.5,0.4
2025-05-05T1700,3239A,125.0764,42.9078,辽源市,银鹰制药,,30,19,26,17,16,95,,110,110,14,21,3,4,0.5,0.4
2025-05-05T1700,1625A,115.9848,36.4372,聊城市,区政府,颗粒物(PM10),126,201,67,38,24,124,,128,128,7,10,8,6,0.7,0.6
2025-05-05T1700,2878A,116.0072,36.4343,聊城市,聊大东校,颗粒物(PM10),125,200,65,47,33,124,,127,127,7,9,7,7,0.4,0.4
2025-05-05T1700,3200A,115.9819,36.4978,聊城市,监控中心,颗粒物(PM10),131,212,66,44,27,132,,130,130,9,11,10,7,0.5,0.5
2025-05-05T1700,3513A,116.0445,36.4361,聊城市,九州社区,颗粒物(PM10),99,148,57,30,22,133,,137,137,7,9,1,5,0.6,0.5
2025-05-05T1700,4018A,116.0567,36.4608,聊城市,星美广场,颗粒物(PM10),94,137,58,20,17,130,,133,133,15,17,9,9,0.6,0.6
2025-05-05T1700,2632A,94.3681,29.6376,林芝市,林芝监测站,,,13,10,3,4,88,,78,78,,4,5,5,0.2,0.2
2025-05-05T1700,2633A,94.3616,29.6616,林芝市,林芝人民医院,,29,6,14,3,5,91,,80,80,2,2,6,5,0.3,0.3
2025-05-05T1700,2603A,100.0781,23.8982,临沧市,市环保局,,38,,25,26,23,104,,88,88,5,8,10,6,0.3,0.6
2025-05-05T1700,2604A,100.0894,23.8822,临沧市,市气象局,,35,23,23,15,19,110,,94,94,11,10,8,8,0.6,0.7
2025-05-05T1700,1733A,111.5531,36.0783,临汾市,临钢医院,颗粒物(PM10),174,297,102,61,20,110,,97,97,9,13,7,7,0.4,0.5
2025-05-05T1700,1734A,111.5028,36.0714,临汾市,技工学校,颗粒物(PM10),172,294,95,70,28,116,,102,102,6,10,8,9,0.4,0.5
2025-05-05T1700,1736A,111.5018,36.0855,临汾市,市委,颗粒物(PM10),195,339,112,68,21,115,,101,101,7,8,8,11,0.6,0.7
2025-05-05T1700,3018A,111.505,36.1014,临汾市,唐尧大酒店,颗粒物(PM10),172,293,106,62,21,111,,97,97,9,10,6,7,0.4,0.5
2025-05-05T1700,4244A,111.4879,36.0530,临汾市,启星学校,颗粒物(PM10),162,273,99,62,26,111,,99,99,8,10,8,9,0.4,0.5
2025-05-05T1700,4271A,103.2464,35.6123,临夏回族自治州,滨河东路1号,,48,48,56,24,24,124,,92,92,2,7,7,4,0.4,0.4
2025-05-05T1700,4310A,103.2093,35.5995,临夏回族自治州,新华街21号,,50,50,45,25,23,119,,87,87,10,14,6,3,0.3,0.3
2025-05-05T1700,1618A,118.3429,35.0532,临沂市,沂河小区,细颗粒物(PM2.5),60,48,36,43,25,143,,129,129,12,9,9,9,0.2,0.2
2025-05-05T1700,1619A,118.295,35.0583,临沂市,鲁南制药厂,颗粒物(PM10),51,51,30,32,27,149,,134,134,23,17,5,6,0.4,0.5
2025-05-05T1700,1620A,118.2794,34.9976,临沂市,新光毛纺厂,,46,29,21,27,23,146,,136,136,13,18,8,7,0.3,0.3
2025-05-05T1700,1621A,118.3956,35.0888,临沂市,河东保险公司,,45,36,28,22,16,142,,135,135,12,10,5,5,0.3,0.3
2025-05-05T1700,3370A,118.3564,35.0215,临沂市,十里堡居委,,45,34,30,31,18,142,,125,125,14,17,4,3,0.4,0.4
2025-05-05T1700,3496A,118.3604,35.1084,临沂市,南坊新区,细颗粒物(PM2.5),58,,25,41,19,147,,130,130,14,12,6,6,0.2,0.2
2025-05-05T1700,3860A,118.3920,35.0300,临沂市,皇山花园小区,,45,34,30,28,21,144,,129,129,16,15,7,7,0.5,0.4
2025-05-05T1700,1870A,109.4856,24.3895,柳州市,柳东小学,,30,24,30,21,20,93,,95,95,7,7,9,10,0.7,0.7
2025-05-05T1700,1871A,109.4157,24.3277,柳州市,环保监测站,,30,,35,21,22,92,,91,91,8,8,8,9,0.4,0.4
2025-05-05T1700,1872A,109.389,24.341,柳州市,河西水厂,,,32,36,20,22,76,,78,78,6,6,,4,0.6,0.6
2025-05-05T1700,1873A,109.4311,24.2921,柳州市,市四中,,30,,36,21,19,92,,91,91,9,8,7,7,0.7,0.7
2025-05-05T1700,1874A,109.4006,24.3631,柳州市,市九中,,38,,36,26,20,97,,97,97,5,6,7,8,0.6,0.6
2025-05-05T1700,1875A,109.4958,24.3134,柳州市,古亭山,,,,35,24,18,90,,91,91,5,6,6,6,0.7,0.7
2025-05-05T1700,3402A,109.5422,24.3996,柳州市,市二中,,27,,30,13,18,85,,88,88,13,8,10,11,0.5,0.5
2025-05-05T1700,2307A,116.5079,31.737,六安市,监测大楼,颗粒物(PM10),52,53,38,26,25,152,,139,139,5,9,5,5,0.4,0.4
2025-05-05T1700,2308A,116.4738,31.7643,六安市,皖西学院,颗粒物(PM10),53,56,43,24,25,155,,144,144,8,11,5,5,0.4,0.4
2025-05-05T1700,2309A,116.4996,31.7905,六安市,朝阳厂,颗粒物(PM10),53,56,38,30,25,145,,133,133,12,14,4,4,0.3,0.3
2025-05-05T1700,2310A,116.5567,31.7886,六安市,开发区,,,,43,,26,,,137,,,13,,5,,0.4
2025-05-05T1700,2576A,104.8,26.5892,六盘水市,窑上,,,,38,15,25,109,,105,105,6,6,5,5,0.4,0.4
2025-05-05T1700,2577A,104.83,26.5917,六盘水市,黄土坡,,36,14,30,3,21,114,,115,111,8,9,9,9,0.5,0.5
2025-05-05T1700,2578A,104.89,26.5939,六盘水市,水钢,,35,20,37,3,20,111,,106,104,10,11,11,10,0.7,0.5
2025-05-05T1700,2579A,104.8475,26.5894,六盘水市,民中,,35,12,32,3,17,110,,110,105,8,9,12,9,0.5,0.4
2025-05-05T1700,2580A,104.9544,26.5506,六盘水市,双水,,34,24,34,8,16,108,,112,104,10,10,12,9,0.5,0.4
2025-05-05T1700,2335A,117.0189,25.1181,龙岩市,龙岩师专,,,,,,,,,,,,,,,,
2025-05-05T1700,2336A,117.0217,25.1033,龙岩市,龙岩市监测站,,26,26,19,17,15,71,,70,70,9,12,3,4,0.5,0.6
2025-05-05T1700,2337A,117.0258,25.0661,龙岩市,闽西职业技术学院,,22,22,20,12,14,61,,64,64,7,10,3,7,0.5,0.5
2025-05-05T1700,2338A,117.0196,25.0306,龙岩市,龙岩学院,,24,24,21,12,14,72,,72,72,4,8,11,12,0.5,0.5
2025-05-05T1700,2665A,105.0822,33.3261,陇南市,汉王镇固水子,,,,,,,,,,,,,,,,
2025-05-05T1700,2885A,104.9339,33.3826,陇南市,滨江中学,,38,38,72,20,28,105,,86,86,3,4,8,9,0.3,0.3
2025-05-05T1700,3247A,104.955,33.371,陇南市,市总工会,,36,36,60,15,20,112,,91,91,4,4,6,7,0.2,0.2
2025-05-05T1700,2487A,111.9589,27.8901,娄底市,电视发射台,,40,35,46,21,22,125,,116,116,4,4,5,5,0.5,0.5
2025-05-05T1700,2488A,111.9975,27.725,娄底市,市监测站,,49,49,46,27,30,129,,120,120,11,13,6,8,0.8,0.8
2025-05-05T1700,2489A,112.0194,27.7314,娄底市,市委党校,,40,34,44,26,31,128,,119,119,6,7,4,3,0.5,0.5
2025-05-05T1700,2490A,111.9561,27.7569,娄底市,涟钢,细颗粒物(PM2.5),52,50,47,36,29,118,,113,113,8,11,12,14,0.9,0.9
2025-05-05T1700,2491A,111.9892,27.7044,娄底市,市政府,,40,37,38,15,28,128,,121,121,6,7,4,5,0.4,0.4
2025-05-05T1700,1893A,105.4324,28.9634,泸州市,九狮山,,,,,,,,,,,,,,,,
2025-05-05T1700,1894A,105.4427,28.9063,泸州市,小市上码头,,35,32,41,17,19,111,,99,99,8,11,6,7,0.4,0.5
2025-05-05T1700,1895A,105.4241,28.8573,泸州市,兰田宪桥,,33,33,40,13,25,98,,94,94,4,8,8,8,0.3,0.4
2025-05-05T1700,1896A,105.4379,28.8833,泸州市,市环监站,,,,,,,,,,,,,,,,
2025-05-05T1700,4272A,105.3689,28.7783,泸州市,纳溪中医医院,,43,43,43,19,26,87,,86,86,11,14,7,7,0.3,0.4
2025-05-05T1700,2183A,111.1406,37.5211,吕梁市,环保局,颗粒物(PM10),259,391,150,169,43,92,,82,82,6,20,3,3,0.3,0.5
2025-05-05T1700,2185A,111.1297,37.5136,吕梁市,自来水公司,颗粒物(PM10),242,379,128,159,39,94,,76,76,7,18,2,3,0.4,0.6
2025-05-05T1700,2867A,111.1283,37.51,吕梁市,马茂庄小学,颗粒物(PM10),428,528,166,167,42,96,,75,75,6,28,4,5,0.2,0.5
2025-05-05T1700,1812A,112.3931,34.6516,洛阳市,市委党校,颗粒物(PM10),111,172,79,64,27,99,,96,96,3,5,4,5,0.4,0.4
2025-05-05T1700,1815A,112.494,34.6886,洛阳市,河南林校,颗粒物(PM10),120,190,103,64,28,107,,105,105,6,10,4,7,0.2,0.3
2025-05-05T1700,1816A,112.3844,34.623,洛阳市,开发区管委会,颗粒物(PM10),107,163,73,63,31,101,,100,100,12,11,5,5,0.3,0.3
2025-05-05T1700,1817A,112.4267,34.6258,洛阳市,市委新办公区,颗粒物(PM10),110,169,77,39,26,104,,102,102,7,10,4,5,0.2,0.2
2025-05-05T1700,3340A,112.6005,34.6326,洛阳市,伊滨,颗粒物(PM10),125,200,99,45,28,114,,110,110,7,10,4,6,0.5,0.5
2025-05-05T1700,3341A,112.4951,34.6332,洛阳市,中移产业园,颗粒物(PM10),125,199,102,50,28,111,,109,109,9,10,5,6,0.3,0.4
2025-05-05T1700,3593A,112.5736,34.8993,洛阳市,吉利监测站,颗粒物(PM10),208,355,105,117,35,113,,111,111,8,10,7,8,0.3,0.3
2025-05-05T1700,3635A,112.3677,34.662,洛阳市,河科大西苑校区,颗粒物(PM10),126,201,90,42,23,109,,108,108,8,9,5,7,0.3,0.4
2025-05-05T1700,3636A,112.4388,34.6781,洛阳市,英才小学,颗粒物(PM10),110,169,89,42,26,112,,110,110,11,15,4,5,0.4,0.5
2025-05-05T1700,4214A,112.4600,34.6949,洛阳市,春都路1号院,颗粒物(PM10),127,203,101,71,31,115,,112,112,7,9,3,5,0.4,0.4
2025-05-05T1700,2399A,114.051,33.5699,漯河市,三五一五工厂,颗粒物(PM10),439,539,133,132,42,120,,115,115,7,10,5,6,0.5,0.6
2025-05-05T1700,2400A,114.0055,33.5698,漯河市,漯河大学,颗粒物(PM10),393,494,139,141,46,121,,115,115,6,9,5,6,0.3,0.4
2025-05-05T1700,2401A,114.0138,33.5828,漯河市,市水利局,颗粒物(PM10),471,571,172,156,37,120,,113,113,6,9,4,6,0.6,0.8
2025-05-05T1700,2402A,114.0261,33.5698,漯河市,市广电局,颗粒物(PM10),432,532,148,119,41,122,,114,114,6,8,4,5,0.2,0.4
2025-05-05T1700,3478A,113.9749,33.5664,漯河市,市图书馆,颗粒物(PM10),425,525,143,172,48,117,,113,113,10,13,2,5,0.4,0.5
2025-05-05T1700,4250A,114.0892,33.5882,漯河市,韶山路11号,颗粒物(PM10),427,527,135,159,43,122,,116,116,8,12,4,5,,0.6
2025-05-05T1700,1798A,118.5092,31.6837,马鞍山市,湖东路四小,,45,38,39,21,23,144,,104,104,12,16,10,9,0.9,0.7
2025-05-05T1700,1799A,118.5024,31.6449,马鞍山市,开发区,,47,30,40,28,26,148,,107,107,15,19,7,8,0.7,0.6
2025-05-05T1700,1802A,118.6245,31.7241,马鞍山市,濮塘,,46,40,34,24,20,146,,111,111,7,10,8,8,0.8,0.6
2025-05-05T1700,3633A,118.4918,31.6809,马鞍山市,雨山,,45,34,48,26,23,142,,109,109,14,17,14,9,1.3,0.7
2025-05-05T1700,4191A,118.5274,31.72227,马鞍山市,慈湖高新区,,42,39,49,25,23,134,,102,102,11,16,11,9,0.7,0.7
2025-05-05T1700,1686A,111.0286,21.4688,茂名市,电白南海,,25,24,27,17,17,28,,52,,4,5,1,1,0.8,0.8
2025-05-05T1700,1687A,110.9294,21.6533,茂名市,茂石化七小,,,36,31,12,11,24,,31,30,5,5,,2,0.8,0.8
2025-05-05T1700,1688A,110.9107,21.6687,茂名市,健康路,,22,22,17,3,8,42,,45,45,2,2,3,2,0.7,0.7
2025-05-05T1700,1689A,110.8592,21.6828,茂名市,高岭,,41,41,34,3,7,40,,41,41,4,4,2,3,0.6,0.6
2025-05-05T1700,3450A,111.01,21.5165,茂名市,电白水东,,19,19,16,7,8,38,,40,40,7,8,3,2,0.7,0.7
2025-05-05T1700,2539A,104.0308,30.0478,眉山市,黑龙滩水库,,46,12,25,3,14,147,,110,110,1,3,2,2,0.3,0.4
2025-05-05T1700,2540A,103.8416,30.0874,眉山市,气象局,,42,28,38,9,16,133,,109,109,10,11,14,15,0.2,0.3
2025-05-05T1700,3137A,103.8578,30.0744,眉山市,市委党校,,40,19,30,7,11,125,,102,102,7,11,8,8,0.3,0.4
2025-05-05T1700,3148A,103.8291,30.0564,眉山市,区人社局,,40,21,36,3,11,127,,104,104,11,14,7,8,0.3,0.3
2025-05-05T1700,1690A,116.1231,24.3284,梅州市,梅江月梅,,28,26,21,19,20,66,,64,64,7,8,5,6,0.7,0.7
2025-05-05T1700,1691A,116.0797,24.2719,梅州市,梅县新城,,23,,21,14,21,73,,70,70,4,10,6,6,0.6,0.6
2025-05-05T1700,1692A,116.1248,24.2654,梅州市,环境监控中心,,25,25,24,14,21,67,,67,67,6,16,7,7,0.7,0.7
2025-05-05T1700,3315A,116.1233,24.2991,梅州市,梅龙,,23,17,20,14,17,72,,69,69,2,6,6,7,0.7,0.7
2025-05-05T1700,1878A,104.7778,31.4741,绵阳市,富乐山,,47,33,42,15,22,150,,107,107,9,9,8,7,0.3,0.4
2025-05-05T1700,1880A,104.6697,31.4668,绵阳市,高新区自来水公司,,48,22,32,14,21,151,,106,106,10,10,4,3,0.4,0.4
2025-05-05T1700,1881A,104.7287,31.5075,绵阳市,三水厂,臭氧1小时,55,18,43,14,21,164,,108,108,12,10,8,7,0.4,0.5
2025-05-05T1700,3491A,104.69,31.5322,绵阳市,西科大附属小学,臭氧1小时,58,28,51,15,24,166,,108,108,10,11,7,6,0.4,0.5
2025-05-05T1700,3492A,104.5648,31.5343,绵阳市,安州区旅游局,臭氧1小时,53,33,46,9,19,162,,114,114,10,9,10,9,0.4,0.4
2025-05-05T1700,4226A,104.7651,31.4531,绵阳市,绵阳市气象局,,43,27,38,17,19,135,,98,98,12,9,2,2,0.4,0.4
2025-05-05T1700,1784A,129.61,44.561,牡丹江市,环保大楼,,29,18,16,15,14,91,,87,87,9,9,5,5,0.2,0.2
2025-05-05T1700,1785A,129.6115,44.5782,牡丹江市,文化广场,,30,20,20,16,15,95,,87,87,8,10,8,8,0.3,0.4
2025-05-05T1700,1786A,129.5904,44.5963,牡丹江市,第一医院,,,30,20,21,16,,,90,90,5,7,6,6,0.3,0.3
2025-05-05T1700,1787A,129.6364,44.6075,牡丹江市,机车工厂,,29,20,21,7,12,92,,86,86,4,12,6,6,0.3,0.4
2025-05-05T1700,1788A,129.6386,44.5462,牡丹江市,第一中学,,32,27,17,19,11,100,,93,93,7,13,6,6,0.4,0.4
2025-05-05T1700,2531A,105.0703,29.61,内江市,市监测站,,44,30,31,17,15,139,,115,115,9,7,12,11,0.5,0.6
2025-05-05T1700,2532A,105.0717,29.5947,内江市,东兴区政府,,45,26,31,12,8,143,,119,119,10,9,16,15,0.3,0.3
2025-05-05T1700,2533A,105.0653,29.5817,内江市,内江二中,,43,29,33,19,11,136,,110,110,14,12,8,7,0.4,0.4
2025-05-05T1700,2534A,105.0406,29.5822,内江市,内江日报社,,44,33,32,23,13,140,,113,113,6,6,15,13,0.4,0.4
2025-05-05T1700,2628A,92.0657,31.4846,那曲市,那曲监测站,,35,30,26,17,14,110,,100,100,22,14,10,7,0.5,0.4
2025-05-05T1700,4243A,92.0515,31.4787,那曲市,那曲市委宣传部,,39,31,30,15,18,124,,107,107,8,6,6,5,0.4,0.3
2025-05-05T1700,1290A,115.8931,28.6843,南昌市,省外办,,39,17,26,12,19,123,,106,106,13,16,5,5,0.7,0.8
2025-05-05T1700,1291A,115.8886,28.7003,南昌市,省林业公司,,39,,16,12,16,124,,108,108,6,9,7,7,0.7,0.8
2025-05-05T1700,1292A,115.8126,28.7442,南昌市,林科所,,41,,16,7,13,130,,113,113,7,13,4,4,0.7,0.5
2025-05-05T1700,1294A,115.8518,28.687,南昌市,建工学校,,37,25,23,11,21,116,,102,102,11,14,4,4,0.6,0.8
2025-05-05T1700,1295A,115.8921,28.6424,南昌市,象湖,,39,22,22,7,13,124,,108,108,8,11,7,7,0.6,0.7
2025-05-05T1700,1296A,115.7423,28.7996,南昌市,武术学校,,38,23,26,11,20,120,,112,112,4,4,4,5,0.6,0.7
2025-05-05T1700,3046A,115.9084,28.6062,南昌市,机电学校,,40,17,25,12,16,128,,113,113,14,15,4,4,0.5,0.5
2025-05-05T1700,3690A,115.9721,28.7031,南昌市,外国语学校,,40,18,22,8,17,125,,111,111,7,10,7,7,0.4,0.4
2025-05-05T1700,4192A,115.9316,28.68677,南昌市,南京东路235号,,41,18,34,7,15,130,,116,116,10,13,9,9,0.8,0.9
2025-05-05T1700,1905A,106.056,30.8064,南充市,西山风景区,,,,,,,,,,,,,,,,
2025-05-05T1700,1906A,106.0789,30.8023,南充市,南充市委,,43,40,30,19,14,137,,115,115,9,10,5,4,0.4,0.4
2025-05-05T1700,1907A,106.1031,30.8217,南充市,南充炼油厂,,45,45,39,13,16,135,,110,110,8,7,5,4,0.4,0.4
2025-05-05T1700,4227A,106.1083,30.7884,南充市,梨树横街98号,,44,44,33,15,14,134,,112,112,8,8,4,3,0.2,0.2
2025-05-05T1700,4304A,106.1172,30.843,南充市,清泉寺北路188号,,44,31,37,14,9,138,,111,111,11,8,6,4,0.2,0.1
2025-05-05T1700,4305A,106.067,30.7616,南充市,同庆路1号,,41,41,37,19,16,121,,108,108,8,10,4,3,0.3,0.2
2025-05-05T1700,1151A,118.8086,32.1065,南京市,迈皋桥,,40,28,30,24,19,126,,89,89,5,15,4,4,0.6,0.6
2025-05-05T1700,1152A,118.7538,32.0551,南京市,草场门,,45,34,34,31,19,130,,93,93,17,20,3,3,0.2,0.2
2025-05-05T1700,1153A,118.7794,32.0745,南京市,山西路,,44,44,37,27,18,135,,96,96,21,21,3,4,0.3,0.3
2025-05-05T1700,1154A,118.7752,32.0023,南京市,中华门,,42,36,35,29,18,131,,98,98,12,14,4,5,0.6,0.5
2025-05-05T1700,1155A,118.8109,32.0309,南京市,瑞金路,,46,46,37,27,19,129,,96,96,20,10,6,6,0.3,0.4
2025-05-05T1700,1156A,118.7997,32.0754,南京市,玄武湖,,36,34,35,21,16,113,,79,79,7,9,6,6,0.4,0.5
2025-05-05T1700,1157A,118.6414,32.0931,南京市,浦口,,45,26,36,18,15,144,,101,101,14,20,6,6,0.5,0.6
2025-05-05T1700,1158A,118.7356,31.9996,南京市,奥体中心,,45,42,38,31,18,143,,108,108,12,14,3,3,0.4,0.3
2025-05-05T1700,1159A,118.9125,32.1028,南京市,仙林大学城,,49,39,33,34,17,122,,102,102,18,17,12,10,0.8,0.5
2025-05-05T1700,3422A,118.8436,31.9198,南京市,江宁彩虹桥,,47,32,42,27,18,148,,115,115,12,18,4,3,0.5,0.4
2025-05-05T1700,3427A,118.8554,32.3578,南京市,六合雄州,,42,40,39,29,17,116,,92,92,27,25,4,5,0.5,0.4
2025-05-05T1700,4249A,118.8708,31.3402,南京市,汶溪路181号,,41,40,27,27,20,129,,98,98,22,23,4,4,0.6,0.4
2025-05-05T1700,4312A,119.019,31.6512,南京市,中山西路1号,,45,41,26,28,17,142,,111,111,18,19,4,6,0.9,0.6
2025-05-05T1700,1401A,108.3103,22.7881,南宁市,二十一中,,34,33,33,20,21,108,,109,109,6,7,2,2,0.6,0.6
2025-05-05T1700,1402A,108.3141,22.8528,南宁市,北湖,,,60,37,28,22,117,,117,117,8,8,,5,0.6,0.7
2025-05-05T1700,1403A,108.3206,22.8225,南宁市,市监测站,,42,42,32,23,20,96,,99,99,6,6,4,5,0.4,0.4
2025-05-05T1700,1404A,108.3829,22.8037,南宁市,大自然花园,,39,39,32,21,18,104,,110,110,3,4,5,5,0.5,0.5
2025-05-05T1700,1405A,108.4394,22.7904,南宁市,仙葫,,28,28,32,17,21,86,,93,93,4,5,6,6,0.5,0.6
2025-05-05T1700,1406A,108.2397,22.8467,南宁市,区农职院,颗粒物(PM10),53,56,38,24,23,118,,113,113,9,9,4,3,0.2,0.4
2025-05-05T1700,1407A,108.3275,22.735,南宁市,英华嘉园,,30,27,32,20,21,94,,104,104,12,11,7,7,0.4,0.4
2025-05-05T1700,3401A,108.4834,22.7618,南宁市,红星社区,,38,38,32,22,21,103,,109,109,3,4,8,8,0.4,0.5
2025-05-05T1700,4221A,108.2177,22.7774,南宁市,乐贤路16号,,43,43,41,25,20,99,,106,106,4,11,4,4,0.5,0.5
2025-05-05T1700,2331A,118.0966,26.6761,南平市,茫荡山,,,,,,,,,,,,,,,,
2025-05-05T1700,2332A,118.1681,26.6369,南平市,南平市监测站,,24,24,26,16,17,65,,79,71,11,8,4,4,1.0,0.8
2025-05-05T1700,2333A,118.1825,26.6489,南平市,南平铝业有限公司,,26,25,27,18,19,67,,76,73,7,5,4,4,0.8,0.7
2025-05-05T1700,2334A,118.1756,26.6272,南平市,南平七中,,31,31,26,14,16,64,,80,68,10,7,4,4,0.8,0.7
2025-05-05T1700,1168A,120.9098,31.9663,南通市,狼山街道,,46,40,20,32,9,61,,72,68,26,21,3,4,0.9,0.5
2025-05-05T1700,1169A,120.86,32.0005,南通市,虹桥,细颗粒物(PM2.5),60,44,19,43,12,72,,74,72,24,23,1,2,1.0,0.7
2025-05-05T1700,1170A,120.87,32.02,南通市,城中,细颗粒物(PM2.5),53,49,24,37,9,75,,75,72,24,24,1,2,0.9,0.5
2025-05-05T1700,1171A,120.94,31.93,南通市,星湖花园,细颗粒物(PM2.5),60,,15,43,10,34,,70,58,63,26,2,2,1.0,0.5
2025-05-05T1700,1172A,120.81,32.0417,南通市,紫琅学院,细颗粒物(PM2.5),58,43,15,41,7,72,,67,64,18,20,3,4,0.7,0.6
2025-05-05T1700,3291A,121.067,32.062,南通市,通州监测站,,32,29,17,22,8,76,,81,75,11,10,4,5,0.7,0.5
2025-05-05T1700,3432A,120.9348,31.9883,南通市,环境教育馆,颗粒物(PM10),57,63,21,38,10,72,,72,70,18,16,2,2,0.4,0.2
2025-05-05T1700,2404A,112.5224,33.0122,南阳市,瓦房庄,颗粒物(PM10),63,75,129,39,42,123,,118,118,8,12,4,7,0.4,0.6
2025-05-05T1700,2405A,112.5003,32.9735,南阳市,汉画馆,颗粒物(PM10),56,62,111,29,37,118,,113,113,8,12,5,6,0.2,0.3
2025-05-05T1700,2406A,112.5573,33.027,南阳市,气象站,颗粒物(PM10),64,78,150,31,46,125,,118,118,6,10,4,6,0.1,0.2
2025-05-05T1700,2407A,112.5481,32.9689,南阳市,理工学院,颗粒物(PM10),63,76,111,33,41,122,,116,116,8,12,4,5,0.3,0.5
2025-05-05T1700,4008A,112.5234,32.9922,南阳市,卧龙区政府,颗粒物(PM10),71,91,125,38,42,125,,119,119,9,13,4,5,0.4,0.5
2025-05-05T1700,1234A,121.8358,29.911,宁波市,区环保大楼,,48,48,26,10,7,91,,98,64,8,13,8,9,0.5,0.4
2025-05-05T1700,1235A,121.56,29.82,宁波市,万里学院,,35,30,21,24,12,95,,97,90,15,15,5,5,0.6,0.4
2025-05-05T1700,1236A,121.713,29.9572,宁波市,龙赛医院,颗粒物(PM10),51,51,26,19,10,91,,100,83,15,10,6,5,0.4,0.5
2025-05-05T1700,1239A,121.633,29.7733,宁波市,钱湖水厂,,29,29,18,17,9,92,,90,90,12,9,8,8,0.5,0.4
2025-05-05T1700,1240A,121.5856,29.8635,宁波市,太古小学,,40,40,26,21,9,87,,90,82,14,13,6,6,0.8,0.7
2025-05-05T1700,1241A,121.524,29.8674,宁波市,市环境监测中心,,30,30,20,14,7,84,,90,80,20,20,11,9,0.7,0.5
2025-05-05T1700,2871A,121.6147,29.9017,宁波市,万里国际学校,,33,30,24,23,11,90,,101,86,19,12,8,8,0.7,0.5
2025-05-05T1700,3710A,121.5594,29.8975,宁波市,白沙活动中心,,27,21,28,15,7,84,,91,83,14,12,7,7,0.5,0.4
2025-05-05T1700,2339A,119.5001,26.6946,宁德市,金涵水库,,,,,,,,,,,,,,,,
2025-05-05T1700,2341A,119.5388,26.6612,宁德市,宁德市监测站,颗粒物(PM10),59,68,30,35,19,120,,99,99,24,16,8,6,0.8,0.4
2025-05-05T1700,3209A,119.5231,26.6562,宁德市,宁德一中,颗粒物(PM10),51,51,28,35,17,121,,105,105,17,10,4,5,0.7,0.3
2025-05-05T1700,2618A,98.8601,25.8567,怒江傈僳族自治州,州监测站,,35,22,26,11,15,112,,88,88,6,7,7,7,0.2,0.3
2025-05-05T1700,2619A,98.8546,25.8417,怒江傈僳族自治州,泸水一中,,41,41,25,17,14,85,,70,70,15,12,7,6,0.3,0.3
2025-05-05T1700,1888A,101.6891,26.571,攀枝花市,弄弄坪,,40,26,23,18,12,127,,120,120,7,13,9,10,0.4,0.6
2025-05-05T1700,1889A,101.5769,26.5928,攀枝花市,河门口,,40,21,25,12,12,125,,122,122,6,15,8,14,0.5,0.7
2025-05-05T1700,1890A,101.7169,26.585,攀枝花市,炳草岗,,38,23,33,13,14,120,,119,119,21,19,14,14,0.3,0.5
2025-05-05T1700,1891A,101.7369,26.5008,攀枝花市,仁和,,36,11,16,8,10,115,,120,120,7,9,8,9,0.3,0.4
2025-05-05T1700,2835A,101.7227,26.567,攀枝花市,四十中小,,41,22,20,15,12,131,,131,131,7,12,8,10,0.4,0.5
2025-05-05T1700,1604A,122.0303,41.1489,盘锦市,开发区,,,30,28,,,113,,106,106,11,20,8,9,0.4,0.4
2025-05-05T1700,1605A,122.0485,41.0883,盘锦市,兴隆台,,38,38,32,12,17,100,,94,94,15,28,8,9,0.5,0.5
2025-05-05T1700,1606A,121.8297,41.1028,盘锦市,新生街道,,38,27,21,11,13,119,,108,108,10,17,8,9,0.3,0.4
2025-05-05T1700,1832A,113.3257,33.742,平顶山市,新华旅馆,颗粒物(PM10),279,405,175,69,33,119,,114,114,8,11,4,6,0.3,0.4
2025-05-05T1700,1833A,113.2919,33.737,平顶山市,规划设计院,颗粒物(PM10),314,431,150,136,50,118,,112,112,6,11,4,5,0.4,0.6
2025-05-05T1700,1834A,113.182,33.774,平顶山市,平顶山工学院,颗粒物(PM10),289,412,141,119,44,120,,114,114,2,8,4,6,0,0.1
2025-05-05T1700,3204A,113.3025,33.73,平顶山市,规划局,颗粒物(PM10),343,454,159,104,39,117,,112,112,5,7,5,7,0.3,0.4
2025-05-05T1700,3594A,112.8867,33.9116,平顶山市,石龙区,颗粒物(PM10),359,467,187,143,51,116,,112,112,8,14,6,7,0.3,0.2
2025-05-05T1700,2656A,106.6692,35.5461,平凉市,聚贤嘉苑,颗粒物(PM10),293,415,232,80,51,102,,102,102,84,26,16,12,0.8,0.7
2025-05-05T1700,2657A,106.7021,35.5307,平凉市,博物馆,颗粒物(PM10),360,468,215,82,43,106,,103,103,4,12,7,8,0.4,0.5
2025-05-05T1700,2347A,114.0997,27.5002,萍乡市,武功山,,33,24,34,16,25,104,,95,95,6,9,14,15,0.5,0.7
2025-05-05T1700,2348A,113.8385,27.6434,萍乡市,中医院,,40,40,67,26,47,104,,102,102,8,7,13,13,1.1,1
2025-05-05T1700,2349A,113.8493,27.6253,萍乡市,市政府车库,,49,,51,34,47,107,,100,100,8,13,6,8,0.5,1
2025-05-05T1700,2350A,113.8676,27.6435,萍乡市,市环保局,,33,29,52,21,37,103,,102,102,11,10,7,9,0.7,0.9
2025-05-05T1700,2351A,113.866,27.6198,萍乡市,安源区政府,,40,40,54,23,47,100,,91,91,9,14,3,6,0.6,0.9
2025-05-05T1700,2319A,119.0141,25.4325,莆田市,荔城区仓后路,颗粒物(PM10),64,78,46,36,26,131,,123,123,20,13,4,4,0.7,0.5
2025-05-05T1700,2320A,119.0015,25.4553,莆田市,莆田市监测站,颗粒物(PM10),57,63,40,38,23,145,,124,124,17,10,6,5,0.5,0.4
2025-05-05T1700,2321A,119.1119,25.4561,莆田市,涵江区六中,细颗粒物(PM2.5),54,56,44,38,27,145,,145,145,24,16,7,5,0.5,0.4
2025-05-05T1700,2322A,119.1013,25.3215,莆田市,秀屿区政府,,44,44,40,24,27,128,,139,139,12,12,8,6,0.5,0.5
2025-05-05T1700,2323A,118.981,25.4792,莆田市,东圳水库,,,,,,,,,,,,,,,,
2025-05-05T1700,2392A,115.0312,35.7636,濮阳市,环保局,颗粒物(PM10),486,586,111,125,37,103,,108,108,10,15,6,7,0.6,0.7
2025-05-05T1700,2394A,115.0574,35.7609,濮阳市,油田运输公司,颗粒物(PM10),492,592,138,102,36,109,,122,120,11,14,6,6,0.6,0.7
2025-05-05T1700,3021A,115,35.7668,濮阳市,濮水河管理处,颗粒物(PM10),500,703,134,133,37,109,,115,115,8,13,5,5,0.6,0.7
2025-05-05T1700,4216A,115.0924,35.7686,濮阳市,任丘路479号,颗粒物(PM10),500,632,138,124,39,111,,121,121,8,12,5,6,0.5,0.7
2025-05-05T1700,2601A,100.98,22.7633,普洱市,市环保局,,33,28,32,10,15,103,,92,92,3,6,7,7,0.3,0.4
2025-05-05T1700,2602A,100.9817,22.8322,普洱市,普洱第二中学,,32,11,21,7,17,102,,92,92,5,13,6,6,0.4,0.5
2025-05-05T1700,2262A,131.0518,45.8751,七台河市,新一中,,34,13,14,3,8,107,,106,106,7,7,10,11,0.6,0.7
2025-05-05T1700,3345A,131.0577,45.7879,七台河市,中波台,,26,14,16,3,7,82,,84,84,11,12,6,6,0.5,0.4
2025-05-05T1700,3637A,131.0176,45.7761,七台河市,人民广场,,33,,22,23,16,91,,92,92,10,12,9,10,0.4,0.5
2025-05-05T1700,3684A,130.8781,45.8222,七台河市,新建矿广场,,29,29,33,17,13,81,,80,80,11,12,10,11,0.5,0.5
2025-05-05T1700,1779A,123.9305,47.3636,齐齐哈尔市,安居小区,,29,15,20,3,7,92,,88,88,6,8,3,2,0.3,0.3
2025-05-05T1700,1780A,123.9488,47.3386,齐齐哈尔市,中心广场,,30,15,19,7,7,93,,88,88,8,9,8,8,0.2,0.3
2025-05-05T1700,1781A,123.9483,47.3227,齐齐哈尔市,农牧车辆厂,,,24,19,,8,92,,89,89,5,6,4,4,0.4,0.3
2025-05-05T1700,1783A,123.945,47.2988,齐齐哈尔市,市环境监测站,,30,22,21,9,8,93,,89,89,3,5,2,2,0.4,0.4
2025-05-05T1700,3662A,123.6333,47.2075,齐齐哈尔市,富区青少年活动中心,,28,19,24,7,12,87,,83,83,5,7,2,2,0.3,0.5
2025-05-05T1700,2591A,107.9783,26.5747,黔东南苗族侗族自治州,市环境监测站,,20,17,25,13,17,61,,49,49,6,7,3,3,0.4,0.4
2025-05-05T1700,2881A,107.8908,26.5311,黔东南苗族侗族自治州,凯里学院,,21,19,19,13,15,66,,54,54,5,4,1,1,0.4,0.4
2025-05-05T1700,2593A,107.5228,26.2403,黔南布依族苗族自治州,小围寨,,29,29,16,19,10,72,,56,56,7,7,2,2,0.2,0.2
2025-05-05T1700,3538A,107.5175,26.2978,黔南布依族苗族自治州,沙坝,,41,41,21,19,13,74,,59,59,6,6,4,3,0.4,0.4
2025-05-05T1700,2589A,104.9022,25.0925,黔西南布依族苗族自治州,场坝街,,38,21,33,10,19,121,,117,117,10,13,3,18,0.5,0.4
2025-05-05T1700,2590A,104.8811,25.0992,黔西南布依族苗族自治州,坪东大道,,37,25,29,15,13,118,,115,115,10,16,3,5,0.3,0.3
2025-05-05T1700,2502A,108.6236,21.9667,钦州市,市环保站,,29,29,24,12,10,78,,56,56,8,11,3,3,0.6,0.6
2025-05-05T1700,2503A,108.6549,21.9481,钦州市,沙埠小学,,41,41,31,26,16,74,,57,57,10,10,8,7,0.7,0.6
2025-05-05T1700,2504A,108.5989,21.7431,钦州市,港区一小,颗粒物(PM10),51,51,46,15,14,54,,46,46,7,9,7,9,0.5,0.5
2025-05-05T1700,3404A,108.5959,21.9633,钦州市,北职校,,32,32,29,16,14,70,,52,52,9,10,8,7,0.6,0.6
2025-05-05T1700,1043A,119.7493,40.0116,秦皇岛市,第一关,,38,33,38,26,23,94,,82,82,18,43,4,5,0.3,0.3
2025-05-05T1700,1044A,119.5897,39.9499,秦皇岛市,监测站,颗粒物(PM10),55,59,50,27,23,87,,86,86,25,25,4,6,0.3,0.4
2025-05-05T1700,1046A,119.5251,39.9041,秦皇岛市,建设大厦,颗粒物(PM10),51,52,50,32,26,94,,92,92,25,31,3,5,0.4,0.4
2025-05-05T1700,3132A,119.610547,39.943889,秦皇岛市,文明里,颗粒物(PM10),52,53,46,31,21,92,,90,90,20,23,3,5,0.3,0.3
2025-05-05T1700,4198A,119.5090,39.8253,秦皇岛市,北戴河轮滑馆,,39,39,30,27,21,92,,93,89,17,16,3,5,0.3,0.3
2025-05-05T1700,1307A,120.6659,36.2403,青岛市,仰口,,38,20,19,12,14,120,,120,120,6,6,6,6,0.4,0.5
2025-05-05T1700,1310A,120.4134,36.0658,青岛市,市南区东部子站,,36,29,26,9,10,113,,116,116,9,8,7,7,0.4,0.3
2025-05-05T1700,1311A,120.3664,36.1032,青岛市,四方区子站,,41,24,20,9,9,129,,129,129,13,13,4,3,0.5,0.6
2025-05-05T1700,1312A,120.2994,36.054,青岛市,市南区西部子站,,34,17,17,10,8,108,,115,114,28,19,7,7,0.6,0.6
2025-05-05T1700,1313A,120.4581,36.0858,青岛市,崂山区子站,,39,19,17,3,5,124,,124,124,7,8,8,8,0.4,0.4
2025-05-05T1700,1315A,120.3999,36.3083,青岛市,城阳区子站,,37,19,21,3,9,117,,117,117,9,12,4,5,0.3,0.3
2025-05-05T1700,1966A,120.0405,35.8735,青岛市,黄岛区4号,,37,27,18,3,6,118,,120,120,10,10,8,8,0.4,0.4
2025-05-05T1700,3362A,120.5014,36.4034,青岛市,即墨2号,,41,27,26,7,9,130,,127,127,2,6,7,7,0.5,0.5
2025-05-05T1700,3642A,120.3503,36.0736,青岛市,市北区南部,,35,20,22,12,9,109,,110,110,7,5,8,8,0.7,0.7
2025-05-05T1700,3643A,120.3948,36.1805,青岛市,李沧区北部,,35,22,20,14,12,112,,111,111,12,14,8,8,0.4,0.5
2025-05-05T1700,4290A,120.1969,35.9546,青岛市,珠江路669号,,39,22,19,12,13,122,,121,121,7,7,6,6,0.5,0.5
2025-05-05T1700,1702A,113.0426,23.691,清远市,环保大楼,,39,28,31,24,16,124,,78,78,13,19,5,6,0.7,0.8
2025-05-05T1700,1703A,113.0208,23.7106,清远市,凤城街办,,33,25,26,19,16,103,,71,71,15,23,4,6,0.5,0.6
2025-05-05T1700,3025A,113.0477,23.6344,清远市,技师学院,,31,29,25,19,15,97,,73,73,14,19,6,7,0.5,0.5
2025-05-05T1700,3318A,112.9903,23.7403,清远市,清新太和,,44,44,28,23,19,107,,78,78,11,16,7,7,0.6,0.6
2025-05-05T1700,3455A,113.076,23.7198,清远市,清城东城,,35,22,30,12,16,109,,73,73,10,14,7,7,0.4,0.5
2025-05-05T1700,2661A,107.6325,35.7357,庆阳市,庆阳五中,颗粒物(PM10),500,636,238,125,51,101,,96,96,3,6,2,4,0.4,0.4
2025-05-05T1700,2662A,107.6364,35.7067,庆阳市,市环保局,颗粒物(PM10),468,568,214,120,49,104,,99,99,4,6,5,9,0.3,0.4
2025-05-05T1700,1916A,103.7897,25.5035,曲靖市,环境监测站,,44,44,27,22,12,123,,125,125,16,16,10,8,0.5,0.4
2025-05-05T1700,1917A,103.8,25.5364,曲靖市,烟厂办公区,,38,21,29,17,14,119,,120,120,13,16,6,8,0.5,0.5
2025-05-05T1700,3376A,103.7947,25.462,曲靖市,南苑二区,,42,32,22,14,11,132,,131,131,13,11,6,5,0.5,0.4
2025-05-05T1700,3377A,103.7444,25.5261,曲靖市,曲靖师范学院,,43,42,33,30,20,120,,122,122,12,17,9,15,0.5,0.5
2025-05-05T1700,1264A,118.8692,28.9398,衢州市,环保大楼,,29,29,41,15,22,82,,75,75,7,12,3,3,0.5,0.5
2025-05-05T1700,1265A,118.8709,28.9666,衢州市,实验学校,,35,27,39,24,27,99,,82,82,11,15,6,6,0.5,0.4
2025-05-05T1700,1266A,118.8621,28.9808,衢州市,衢州学院,,40,36,45,28,29,92,,76,76,11,18,3,4,0.5,0.4
2025-05-05T1700,1611A,118.5819,24.9117,泉州市,涂山街,,42,42,42,22,25,131,,128,128,9,12,4,6,0.6,0.5
2025-05-05T1700,1612A,118.5972,24.8978,泉州市,津头埔,,44,44,42,21,25,126,,123,123,15,17,3,4,0.6,0.6
2025-05-05T1700,1613A,118.6663,24.9424,泉州市,万安,,47,47,40,22,21,130,,133,133,13,12,5,4,0.6,0.5
2025-05-05T1700,1614A,118.6117,24.9604,泉州市,清源山,,,,,,,,,,,,,,,,
2025-05-05T1700,3529A,118.6333,24.9264,泉州市,城华南路,,40,39,39,20,22,126,,129,129,15,13,4,4,0.6,0.5
2025-05-05T1700,2626A,88.8876,29.2718,日喀则市,日喀则监测站,,46,8,12,3,4,146,,134,134,3,6,10,8,0.4,0.4
2025-05-05T1700,3726A,88.8781,29.2426,日喀则市,林业技术推广中心,,47,6,14,3,3,149,,136,136,2,3,6,6,0.2,0.3
2025-05-05T1700,1659A,119.471,35.4209,日照市,监测站,,36,31,31,12,12,115,,118,118,11,12,5,5,0.4,0.4
2025-05-05T1700,1660A,119.523,35.4216,日照市,市政府广场,,,27,24,16,8,110,,112,112,7,8,,4,0.4,0.4
2025-05-05T1700,1661A,119.5587,35.4044,日照市,港务局,,39,31,22,18,16,124,,124,124,7,8,8,7,0.6,0.6
2025-05-05T1700,3507A,119.5328,35.4625,日照市,职业技术学院,,38,27,21,9,7,121,,123,123,3,4,3,4,0.4,0.4
2025-05-05T1700,3604A,119.3266,35.1044,日照市,岚山环保分局,,41,41,24,15,14,114,,116,116,11,14,5,6,0.5,0.5
2025-05-05T1700,1835A,111.1922,34.7752,三门峡市,市政府,颗粒物(PM10),275,402,101,111,43,111,,108,108,14,14,7,6,0.5,0.6
2025-05-05T1700,1836A,111.1587,34.7942,三门峡市,开发区,颗粒物(PM10),179,307,93,89,36,110,,103,103,9,10,6,7,0.5,0.6
2025-05-05T1700,1838A,111.143,34.7955,三门峡市,风景区,颗粒物(PM10),198,345,121,84,39,108,,,,7,8,,8,0.3,0.4
2025-05-05T1700,3039A,111.1911,34.7829,三门峡市,三门峡市第一小学,颗粒物(PM10),329,443,108,95,27,114,,111,111,13,10,11,9,0.4,0.5
2025-05-05T1700,3598A,111.1,34.7167,三门峡市,富达温泉假日酒店,颗粒物(PM10),374,479,137,90,35,118,,111,111,8,10,5,6,0.6,0.7
2025-05-05T1700,2324A,117.6211,26.2625,三明市,三钢,,24,19,35,14,23,75,,60,60,10,15,14,8,1.4,1.4
2025-05-05T1700,2325A,117.635,26.2714,三明市,三明二中,,23,17,31,11,27,73,,60,60,10,15,6,6,0.6,0.6
2025-05-05T1700,2326A,117.6028,26.2378,三明市,三元区政府,,24,17,37,11,22,74,,59,59,9,18,6,4,0.5,0.7
2025-05-05T1700,2327A,117.7275,26.3108,三明市,洋溪,,,,,,,,,,,,,,,,
2025-05-05T1700,1876A,109.5078,18.2489,三亚市,河东子站,,16,16,16,8,8,34,,37,37,2,4,4,4,0.1,0.2
2025-05-05T1700,1877A,109.4964,18.2681,三亚市,河西子站,,15,12,15,10,9,36,,38,38,2,5,2,2,0.1,0.2
2025-05-05T1700,3540A,109.7348,18.3443,三亚市,君悦子站,,15,15,15,6,7,44,,42,42,3,7,3,3,0.2,0.2
2025-05-05T1700,2624A,91.7608,29.2313,山南市,山南监测站,,43,11,12,3,6,135,,120,120,3,3,3,3,0.3,0.4
2025-05-05T1700,2625A,91.7706,29.2436,山南市,山南人民医院,,49,49,27,17,12,141,,123,123,5,6,4,4,0.4,0.4
