timepoint,stationcode,longitude,latitude,area,positionname,primarypollutant,aqi,pm10,pm10_24h,pm2_5,pm2_5_24h,o3,o3_24h,o3_8h,o3_8h_24h,no2,no2_24h,so2,so2_24h,co,co_24h
2023-06-16T09:00:00,1001A,116.3621,39.8784,北京市,万寿西宫,颗粒物(PM10),52,54,80,25,42,292,152,170,122,22,23,5,4,1.3,1
2023-06-16T09:00:00,1002A,116.2202,40.2915,北京市,定陵,臭氧1小时,97,107,84,36,37,326,197,189,169,10,9,7,3,1.0,0.8
2023-06-16T09:00:00,1003A,116.4174,39.9289,北京市,东四,臭氧1小时,65,65,85,34,40,327,172,191,148,21,21,6,5,1.2,0.9
2023-06-16T09:00:00,1004A,116.4072,39.8863,北京市,天坛,颗粒物(PM10),60,70,80,28,40,319,162,191,118,24,29,8,6,1.3,0.8
2023-06-16T09:00:00,1005A,116.462,39.9365,北京市,农展馆,颗粒物(PM10),60,69,84,42,42,309,166,180,126,22,28,8,6,1.2,0.9
2023-06-16T09:00:00,1006A,116.3392,39.9295,北京市,官园,颗粒物(PM10),54,57,80,36,42,297,159,185,141,24,25,9,7,1.1,0.7
2023-06-16T09:00:00,1007A,116.2878,39.9611,北京市,海淀万柳,颗粒物(PM10),63,76,86,43,44,283,168,177,103,23,34,7,4,1.0,0.7
2023-06-16T09:00:00,1008A,116.6636,40.135,北京市,顺义新城,,,,,,,,,,,,,,,,
2023-06-16T09:00:00,1009A,116.6275,40.3275,北京市,怀柔镇,臭氧1小时,82,86,79,51,43,304,185,242,189,19,19,7,5,0.9,0.8
2023-06-16T09:00:00,1010A,116.2296,40.217,北京市,昌平镇,臭氧1小时,79,61,78,40,41,317,183,240,182,28,19,6,4,0.9,0.7
2023-06-16T09:00:00,1011A,116.3966,39.9821,北京市,奥体中心,颗粒物(PM10),58,65,78,33,38,279,153,182,127,24,25,8,6,1.2,0.8
2023-06-16T09:00:00,1012A,116.184,39.9136,北京市,古城,颗粒物(PM10),64,77,93,43,42,283,165,184,129,24,28,8,6,1.1,0.9
2023-06-16T09:00:00,1015A,117.1444,39.1661,天津市,勤俭道,颗粒物(PM10),66,82,94,46,47,345,100,145,81,44,29,10,12,0.9,0.8
2023-06-16T09:00:00,1017A,117.237,39.1082,天津市,大直沽八号路,细颗粒物(PM2.5),62,72,93,44,45,315,112,119,72,47,28,8,8,0.9,0.9
2023-06-16T09:00:00,1018A,117.202,39.0927,天津市,前进道,颗粒物(PM10),59,67,90,37,45,341,139,143,83,44,31,10,8,1.0,0.9
2023-06-16T09:00:00,1019A,117.1837,39.2133,天津市,淮河道,颗粒物(PM10),78,105,95,51,50,334,90,131,76,39,26,12,13,1.1,0.9
2023-06-16T09:00:00,1021A,117.307,39.0877,天津市,跃进路,颗粒物(PM10),64,77,98,40,45,354,130,136,71,42,33,12,12,0.9,0.9
2023-06-16T09:00:00,1023A,117.707,39.0343,天津市,第四大街,颗粒物(PM10),64,77,89,45,42,299,124,113,61,59,62,10,7,0.9,0.8
2023-06-16T09:00:00,1024A,117.457,38.8394,天津市,永明路,颗粒物(PM10),53,56,104,28,52,327,144,113,86,47,36,13,12,0.7,0.9
2023-06-16T09:00:00,1026A,117.764,39.1587,天津市,汉北路,细颗粒物(PM2.5),62,65,70,44,41,306,85,146,72,42,21,8,8,1.5,0.8
2023-06-16T09:00:00,1027A,117.157,38.9194,天津市,团泊洼,颗粒物(PM10),52,53,67,30,49,331,134,56,56,32,34,9,5,1.1,1.1
2023-06-16T09:00:00,1029A,114.4422,38.0444,石家庄市,职工医院,,48,44,56,19,21,318,151,133,84,27,29,5,7,0.6,0.6
2023-06-16T09:00:00,1030A,114.6063,38.0266,石家庄市,高新区,,,,62,33,26,316,,117,72,51,32,14,7,,0.7
2023-06-16T09:00:00,1031A,114.4898,38.1328,石家庄市,西北水源,臭氧1小时,58,54,68,22,27,324,166,146,99,20,26,12,9,0.5,0.6
2023-06-16T09:00:00,1032A,114.4586,38.0058,石家庄市,西南高教,颗粒物(PM10),56,61,65,27,23,315,120,130,63,46,32,4,6,0.7,0.6
2023-06-16T09:00:00,1033A,114.5331,38.0178,石家庄市,世纪公园,颗粒物(PM10),53,55,59,23,25,299,115,92,65,51,30,11,10,0.8,0.7
2023-06-16T09:00:00,1034A,114.509,38.0457,石家庄市,人民会堂,颗粒物(PM10),59,67,52,22,22,331,119,148,107,63,29,5,7,0.6,0.6
2023-06-16T09:00:00,1035A,114.3524,37.8911,石家庄市,封龙山,臭氧1小时,90,38,50,16,21,271,192,214,200,9,11,2,5,0.5,0.6
2023-06-16T09:00:00,1037A,118.131,39.6363,唐山市,雷达站,颗粒物(PM10),73,96,81,47,43,318,108,129,102,36,19,14,11,2.9,1.3
2023-06-16T09:00:00,1038A,118.1725,39.6334,唐山市,物资局,颗粒物(PM10),81,112,91,42,37,318,103,119,94,38,23,19,13,3.8,1.4
2023-06-16T09:00:00,1040A,118.1705,39.6506,唐山市,十二中,颗粒物(PM10),76,102,81,48,45,292,92,108,89,34,22,9,10,2.3,1.3
2023-06-16T09:00:00,1041A,118.1869,39.622,唐山市,小山,,,,,,,,,,,,,,,,
2023-06-16T09:00:00,1042A,119.5134,39.8207,秦皇岛市,北戴河环保局,,43,43,43,14,18,185,110,112,105,8,13,3,2,0.6,0.5
2023-06-16T09:00:00,1043A,119.7493,40.0116,秦皇岛市,第一关,颗粒物(PM10),51,51,47,7,23,184,102,42,42,20,39,1,2,0.3,0.4
2023-06-16T09:00:00,1044A,119.5897,39.9499,秦皇岛市,监测站,,39,39,54,15,25,172,93,41,26,14,39,2,2,0.4,0.4
2023-06-16T09:00:00,1046A,119.5251,39.9041,秦皇岛市,建设大厦,颗粒物(PM10),53,55,61,18,25,188,108,56,40,10,32,2,2,0.3,0.4
2023-06-16T09:00:00,1048A,114.5302,36.6116,邯郸市,东污水处理厂,颗粒物(PM10),56,62,37,36,24,236,94,138,80,41,30,13,8,1.1,0.7
2023-06-16T09:00:00,1049A,114.4918,36.5713,邯郸市,矿院,颗粒物(PM10),67,83,60,24,25,130,76,106,68,38,34,12,9,0.8,0.5
2023-06-16T09:00:00,1050A,114.484,36.6133,邯郸市,丛台公园,颗粒物(PM10),61,72,44,31,20,246,105,133,103,32,17,18,11,1.1,0.7
2023-06-16T09:00:00,1051A,115.493,38.8632,保定市,游泳馆,细颗粒物(PM2.5),84,85,75,62,42,351,148,158,104,23,24,10,12,0.6,0.4
2023-06-16T09:00:00,1052A,115.5213,38.8959,保定市,华电二区,颗粒物(PM10),81,112,82,41,30,325,126,163,100,18,18,8,10,0.9,0.7
2023-06-16T09:00:00,1053A,115.4713,38.9108,保定市,接待中心,颗粒物(PM10),84,118,96,55,38,313,134,120,97,16,16,2,5,0.9,0.7
2023-06-16T09:00:00,1054A,115.4612,38.8416,保定市,地表水厂,,,,,,,,,,,,,,,,
2023-06-16T09:00:00,1056A,115.5086,38.8639,保定市,监测站,颗粒物(PM10),75,99,91,44,43,329,142,152,99,30,34,10,11,1.0,0.7
2023-06-16T09:00:00,1057A,114.8883,40.8336,张家口市,人民公园,臭氧1小时,65,48,38,7,9,221,172,145,136,8,8,5,5,0.4,0.3
2023-06-16T09:00:00,1059A,114.8687,40.8042,张家口市,五金库,臭氧1小时,64,62,50,22,20,210,171,163,139,24,20,4,4,0.7,0.5
2023-06-16T09:00:00,1060A,114.8902,40.762,张家口市,世纪豪园,臭氧1小时,101,78,50,50,30,214,201,191,153,18,10,9,6,0.5,0.4
2023-06-16T09:00:00,1061A,114.8916,40.8661,张家口市,北泵房,臭氧1小时,65,42,39,14,13,212,172,142,142,6,8,12,12,0.7,0.6
2023-06-16T09:00:00,1062A,117.9531,40.9081,承德市,铁路,,,,66,,31,232,199,208,159,,21,10,10,0.9,0.8
2023-06-16T09:00:00,1063A,117.9392,40.9763,承德市,中国银行,臭氧1小时,89,68,58,30,26,251,191,130,125,23,16,8,8,0.7,0.6
2023-06-16T09:00:00,1064A,117.9503,40.928,承德市,开发区,臭氧1小时,109,72,58,36,29,251,217,230,162,25,18,10,10,1.0,0.8
2023-06-16T09:00:00,1065A,117.8051,40.9655,承德市,文化中心,臭氧1小时,95,81,68,29,26,242,196,134,134,26,26,9,16,0.8,0.9
2023-06-16T09:00:00,1066A,117.9268,41.0026,承德市,离宫,臭氧1小时,113,55,52,34,27,230,226,154,148,13,13,10,9,0.7,0.6
2023-06-16T09:00:00,1067A,116.6708,39.5111,廊坊市,药材公司,细颗粒物(PM2.5),79,103,93,58,41,323,115,134,106,32,25,10,8,1.3,0.7
2023-06-16T09:00:00,1068A,116.7214,39.5589,廊坊市,开发区,细颗粒物(PM2.5),80,97,84,59,52,339,116,141,103,29,31,13,11,1.5,0.9
2023-06-16T09:00:00,1070A,116.7244,39.5269,廊坊市,北华航天学院,颗粒物(PM10),77,104,101,50,47,322,109,136,100,27,23,10,9,1.3,0.8
2023-06-16T09:00:00,1071A,116.8842,38.2991,沧州市,沧县城建局,颗粒物(PM10),74,97,84,46,39,281,151,143,120,34,29,13,10,0.7,0.6
2023-06-16T09:00:00,1072A,116.8584,38.3254,沧州市,电视转播站,颗粒物(PM10),60,70,65,31,26,284,160,180,146,31,21,11,12,0.5,0.5
2023-06-16T09:00:00,1073A,116.8709,38.3228,沧州市,市环保局,颗粒物(PM10),68,86,73,30,30,276,136,140,125,45,35,10,7,0.5,0.4
2023-06-16T09:00:00,1074A,115.6838,37.7541,衡水市,电机北厂,颗粒物(PM10),62,73,70,15,22,263,148,148,127,18,15,14,7,0.9,0.5
2023-06-16T09:00:00,1075A,115.6303,37.7316,衡水市,市监测站,颗粒物(PM10),64,77,80,36,23,257,126,130,109,24,19,11,7,0.9,0.6
2023-06-16T09:00:00,1077A,114.4704,37.0886,邢台市,达活泉,颗粒物(PM10),83,116,62,41,17,255,104,125,102,49,18,68,12,3.7,0.9
2023-06-16T09:00:00,1078A,114.5062,37.0349,邢台市,邢师高专,颗粒物(PM10),88,125,72,44,25,246,74,87,65,62,31,31,12,3.0,0.9
2023-06-16T09:00:00,1079A,114.5237,37.0851,邢台市,路桥公司,颗粒物(PM10),73,95,60,40,23,269,104,127,93,47,22,45,14,3.3,0.9
2023-06-16T09:00:00,1080A,114.4725,37.0719,邢台市,市环保局,颗粒物(PM10),90,129,66,36,21,261,100,116,104,55,27,59,18,3.5,1.2
2023-06-16T09:00:00,1081A,112.522,37.8873,太原市,尖草坪,颗粒物(PM10),65,80,59,32,24,224,109,144,63,34,33,9,9,0.7,0.7
2023-06-16T09:00:00,1083A,112.434,38.0108,太原市,上兰,,,,,,,,,,,,,,,,
2023-06-16T09:00:00,1084A,112.469,37.7124,太原市,晋源,颗粒物(PM10),65,79,57,40,28,219,123,93,93,34,40,13,10,0.8,0.6
2023-06-16T09:00:00,1085A,112.5583,37.7394,太原市,小店,颗粒物(PM10),66,81,62,33,25,216,144,109,96,25,31,11,10,0.7,0.5
2023-06-16T09:00:00,1086A,112.5369,37.8692,太原市,桃园,颗粒物(PM10),63,75,52,36,26,212,111,130,73,38,32,10,10,0.7,0.6
2023-06-16T09:00:00,1087A,112.57,37.8195,太原市,坞城,颗粒物(PM10),63,76,55,36,26,212,147,122,122,25,25,11,10,0.8,0.7
2023-06-16T09:00:00,1088A,112.549,37.9854,太原市,南寨,颗粒物(PM10),61,71,54,32,25,215,102,78,39,39,33,12,9,1.1,0.7
2023-06-16T09:00:00,1090A,111.6507,40.7517,呼和浩特市,呼市一监,,,,,,,,,,,,,,,,
2023-06-16T09:00:00,1091A,111.6572,40.8033,呼和浩特市,小召,颗粒物(PM10),60,70,60,32,26,222,137,110,89,30,31,14,13,0.6,0.5
2023-06-16T09:00:00,1094A,111.7516,40.8369,呼和浩特市,如意水处理厂,颗粒物(PM10),57,64,64,23,22,239,153,95,95,25,30,13,11,0.6,0.6
2023-06-16T09:00:00,1095A,111.7276,40.8062,呼和浩特市,二十九中,颗粒物(PM10),120,190,76,35,27,229,130,90,82,44,37,15,10,0.8,0.5
2023-06-16T09:00:00,1096A,111.5512,40.7866,呼和浩特市,工大金川校区,颗粒物(PM10),72,93,67,40,26,210,120,53,53,34,43,18,9,0.7,0.5
2023-06-16T09:00:00,1097A,111.717,40.7612,呼和浩特市,化肥厂生活区,,,78,91,,28,199,,86,70,49,37,13,11,0.7,0.6
2023-06-16T09:00:00,1098A,123.6836,41.9339,沈阳市,森林路,,,,,,,,,,,,,,,,
2023-06-16T09:00:00,1099A,123.505,41.7406,沈阳市,浑南东路,,40,32,35,11,15,235,128,69,69,25,35,16,16,0.7,0.9
2023-06-16T09:00:00,1100A,123.4231,41.6989,沈阳市,新秀街,,41,41,41,13,16,226,125,90,90,24,30,24,30,0.6,0.8
2023-06-16T09:00:00,1102A,123.5903,41.8411,沈阳市,东陵路,颗粒物(PM10),54,58,42,11,15,241,116,72,72,25,27,18,17,1.0,1.1
2023-06-16T09:00:00,1103A,123.4264,41.8467,沈阳市,陵东街,,42,28,27,12,13,222,133,122,107,23,21,21,14,0.7,0.8
2023-06-16T09:00:00,1104A,123.4114,41.7653,沈阳市,文化路,,,40,34,11,15,233,,110,101,21,22,28,22,0.7,0.8
2023-06-16T09:00:00,1105A,123.4678,41.7867,沈阳市,小河沿,,,33,31,13,14,224,,98,87,29,29,24,18,0.7,0.8
2023-06-16T09:00:00,1106A,123.4017,41.7972,沈阳市,太原街,,44,33,33,11,13,233,140,121,109,23,24,24,19,0.6,0.7
2023-06-16T09:00:00,1108A,123.3783,41.9228,沈阳市,京沈街,颗粒物(PM10),61,72,42,15,17,221,139,120,115,22,22,14,16,0.5,0.6
2023-06-16T09:00:00,1109A,121.612,38.9741,大连市,甘井子,,37,37,26,17,11,137,98,101,94,20,16,5,4,0.5,0.3
2023-06-16T09:00:00,1110A,121.565,38.9511,大连市,周水子,,33,29,28,14,11,148,104,98,86,19,18,3,3,0.4,0.4
2023-06-16T09:00:00,1111A,121.5637,38.8845,大连市,星海三站,,31,23,28,18,14,138,99,101,82,15,16,4,7,0.3,0.3
2023-06-16T09:00:00,1112A,121.6302,38.9117,大连市,青泥洼桥,,,23,13,12,10,149,,106,91,8,12,5,5,,0.5
2023-06-16T09:00:00,1113A,121.6251,38.8638,大连市,傅家庄,,37,28,27,18,15,146,116,111,94,9,16,8,8,0.6,0.5
2023-06-16T09:00:00,1114A,121.5213,38.8661,大连市,七贤岭,,35,26,26,17,15,157,112,108,99,9,12,5,6,0.2,0.2
2023-06-16T09:00:00,1115A,121.2529,38.8061,大连市,旅顺,,33,20,20,14,12,146,103,91,90,24,21,7,6,0.4,0.4
2023-06-16T09:00:00,1116A,121.7485,39.1311,大连市,金州,,46,25,21,13,11,158,147,127,123,10,13,5,6,0.5,0.5
2023-06-16T09:00:00,1117A,121.7811,39.0496,大连市,开发区,,,24,28,14,11,152,,97,85,7,10,5,6,0.5,0.5
2023-06-16T09:00:00,1118A,121.9762,39.0631,大连市,双D港,,29,23,20,15,14,144,91,82,59,15,16,7,7,0.4,0.4
2023-06-16T09:00:00,1119A,125.3325,43.9166,长春市,食品厂,颗粒物(PM10),53,56,51,22,25,212,114,152,102,33,34,11,9,0.4,0.4
2023-06-16T09:00:00,1120A,125.2863,43.9027,长春市,客车厂,,47,47,47,18,23,217,119,150,106,28,31,9,6,0.7,0.7
2023-06-16T09:00:00,1121A,125.2841,43.8463,长春市,邮电学院,,50,50,45,16,19,204,116,143,94,24,26,9,6,0.7,0.7
2023-06-16T09:00:00,1122A,125.3716,43.8772,长春市,劳动公园,,40,33,43,12,17,227,127,161,103,25,28,12,8,0.9,0.8
2023-06-16T09:00:00,1123A,125.3297,43.8805,长春市,园林处,颗粒物(PM10),56,61,52,14,18,209,114,151,98,30,29,11,8,0.7,0.6
2023-06-16T09:00:00,1124A,125.4605,43.79,长春市,净月潭,,39,24,32,12,19,230,123,110,96,20,22,5,5,0.6,0.6
2023-06-16T09:00:00,1125A,125.7194,43.515,长春市,甩湾子,,,,,,,,,,,,,,,,
2023-06-16T09:00:00,1126A,125.3863,43.8447,长春市,经开区环卫处,,,31,42,10,17,207,,130,91,28,31,11,8,0.6,0.6
2023-06-16T09:00:00,1127A,125.245,43.7783,长春市,高新区管委会,,38,38,41,13,21,210,120,131,76,21,34,10,6,0.7,0.6
2023-06-16T09:00:00,1128A,125.1761,43.8325,长春市,岱山公园,,,,47,,20,222,,129,81,26,44,10,7,0.5,0.6
2023-06-16T09:00:00,1129A,126.5422,45.755,哈尔滨市,岭北,,45,26,41,13,20,234,143,139,129,14,21,12,15,0.4,0.4
2023-06-16T09:00:00,1130A,126.561,45.8167,哈尔滨市,松北商大,,42,30,43,17,23,207,133,127,100,15,27,7,8,0.5,0.6
2023-06-16T09:00:00,1131A,126.979,45.5419,哈尔滨市,阿城会宁,,40,36,52,16,21,226,128,78,77,32,38,12,10,0.5,0.5
2023-06-16T09:00:00,1132A,126.599,45.7222,哈尔滨市,南岗学府路,颗粒物(PM10),52,53,57,18,23,228,128,107,107,23,32,13,13,0.5,0.5
2023-06-16T09:00:00,1133A,126.689,45.7733,哈尔滨市,太平宏伟公园,,49,49,50,16,24,237,141,138,125,25,31,9,9,0.6,0.7
2023-06-16T09:00:00,1134A,126.635,45.7667,哈尔滨市,道外承德广场,,44,43,49,11,14,229,140,128,115,22,37,6,7,0.6,0.7
2023-06-16T09:00:00,1135A,126.685,45.7319,哈尔滨市,香坊红旗大街,,42,38,52,16,26,224,134,114,98,26,45,8,9,0.6,0.6
2023-06-16T09:00:00,1136A,126.6411,45.7258,哈尔滨市,动力和平路,,,46,53,,13,225,130,122,100,28,40,8,9,0.5,0.6
2023-06-16T09:00:00,1137A,126.593,45.7478,哈尔滨市,道里建国路,,41,24,48,16,22,222,131,113,101,25,39,8,9,0.5,0.8
2023-06-16T09:00:00,1138A,126.615,45.61,哈尔滨市,平房东轻厂,,,,52,,20,238,,106,87,20,34,8,8,0.6,0.7
2023-06-16T09:00:00,1139A,126.595,45.9855,哈尔滨市,呼兰师专,,37,32,43,14,22,224,116,163,124,24,23,5,6,0.4,0.5
2023-06-16T09:00:00,1140A,126.6206,45.6842,哈尔滨市,省农科院,,44,35,56,12,21,240,138,127,92,22,45,12,13,0.5,0.6
2023-06-16T09:00:00,1141A,121.4,31.238,上海市,普陀,,,,41,,37,212,,111,111,33,26,8,7,0.8,0.7
2023-06-16T09:00:00,1142A,121.478,31.2036,上海市,十五厂,细颗粒物(PM2.5),75,35,52,55,50,209,123,83,81,38,33,9,9,0.8,0.8
2023-06-16T09:00:00,1143A,121.467,31.3008,上海市,虹口,细颗粒物(PM2.5),60,68,52,43,41,183,122,109,89,38,28,6,8,0.7,0.7
2023-06-16T09:00:00,1144A,121.412,31.1654,上海市,徐汇上师大,细颗粒物(PM2.5),80,40,47,59,48,221,136,89,88,39,31,10,10,0.8,0.8
2023-06-16T09:00:00,1145A,121.536,31.2659,上海市,杨浦四漂,细颗粒物(PM2.5),57,46,44,40,46,199,103,79,72,44,34,8,9,0.9,0.9
2023-06-16T09:00:00,1147A,121.425,31.2261,上海市,静安监测站,细颗粒物(PM2.5),62,39,40,44,34,207,136,101,101,34,27,8,7,0.8,0.8
2023-06-16T09:00:00,1148A,121.703,31.1907,上海市,浦东川沙,细颗粒物(PM2.5),60,23,41,43,47,178,100,92,66,28,22,7,7,0.6,0.5
2023-06-16T09:00:00,1149A,121.533,31.2284,上海市,浦东新区监测站,细颗粒物(PM2.5),68,26,53,49,43,215,137,100,91,33,22,10,9,0.6,0.6
2023-06-16T09:00:00,1150A,121.577,31.2071,上海市,浦东张江,细颗粒物(PM2.5),67,30,48,48,48,189,118,87,77,31,24,6,6,0.8,0.7
2023-06-16T09:00:00,1151A,118.8086,32.1065,南京市,迈皋桥,,,80,62,41,31,272,,164,126,22,11,3,3,0.5,0.5
2023-06-16T09:00:00,1152A,118.7538,32.0551,南京市,草场门,颗粒物(PM10),60,70,56,36,31,263,149,173,135,31,20,4,6,0.8,0.7
2023-06-16T09:00:00,1153A,118.7794,32.0745,南京市,山西路,颗粒物(PM10),60,70,61,36,29,257,141,158,140,23,13,6,6,0.6,0.5
2023-06-16T09:00:00,1154A,118.7752,32.0023,南京市,中华门,颗粒物(PM10),60,70,54,39,31,248,143,152,125,26,14,5,4,0.9,0.9
2023-06-16T09:00:00,1155A,118.8109,32.0309,南京市,瑞金路,,,,59,,32,249,,162,119,21,16,,5,0.6,0.6
2023-06-16T09:00:00,1156A,118.7997,32.0754,南京市,玄武湖,细颗粒物(PM2.5),58,61,55,41,31,242,160,148,147,13,11,8,8,0.7,0.6
2023-06-16T09:00:00,1157A,118.6414,32.0931,南京市,浦口,细颗粒物(PM2.5),55,48,59,39,31,236,108,129,117,43,20,7,9,1.3,1.3
2023-06-16T09:00:00,1158A,118.7356,31.9996,南京市,奥体中心,颗粒物(PM10),66,81,62,44,37,250,142,166,128,28,18,7,9,0.9,0.9
2023-06-16T09:00:00,1159A,118.9125,32.1028,南京市,仙林大学城,细颗粒物(PM2.5),58,61,61,41,37,260,141,149,126,21,18,7,7,0.9,0.9
2023-06-16T09:00:00,1160A,120.561,31.2472,苏州市,上方山,颗粒物(PM10),66,81,62,32,32,243,107,87,73,30,23,8,7,0.6,0.6
2023-06-16T09:00:00,1162A,120.591,31.3019,苏州市,彩香,颗粒物(PM10),56,61,53,36,34,274,120,112,88,32,17,8,8,1.0,0.8
2023-06-16T09:00:00,1163A,120.596,31.3264,苏州市,轧钢厂,,,60,54,39,33,285,,116,82,32,18,,6,0.9,0.8
2023-06-16T09:00:00,1164A,120.613,31.2703,苏州市,吴中区,细颗粒物(PM2.5),55,57,46,39,30,286,113,102,82,31,22,10,10,0.8,0.8
2023-06-16T09:00:00,1165A,120.543,31.2994,苏州市,苏州新区,颗粒物(PM10),52,53,51,35,36,273,116,113,91,33,20,9,8,0.9,0.9
2023-06-16T09:00:00,1166A,120.669,31.3097,苏州市,苏州工业园区,颗粒物(PM10),54,58,49,25,30,265,98,118,84,39,21,14,11,0.8,0.8
2023-06-16T09:00:00,1167A,120.641,31.3708,苏州市,相城区,,,,,,,,,,,,,,,,
2023-06-16T09:00:00,1168A,120.9098,31.9663,南通市,狼山街道,颗粒物(PM10),52,54,34,31,24,208,72,60,41,29,19,12,9,0.6,0.6
2023-06-16T09:00:00,1169A,120.86,32.0005,南通市,虹桥,细颗粒物(PM2.5),58,44,40,41,30,220,71,69,53,39,27,12,10,0.8,0.7
2023-06-16T09:00:00,1170A,120.87,32.02,南通市,城中,,,46,36,44,29,196,,74,48,35,17,11,9,0.5,0.5
2023-06-16T09:00:00,1171A,120.94,31.93,南通市,星湖花园,,42,42,34,22,19,214,66,62,43,34,24,9,7,0.5,0.4
2023-06-16T09:00:00,1172A,120.81,32.0417,南通市,紫琅学院,细颗粒物(PM2.5),55,55,39,39,23,210,58,62,47,47,27,8,6,0.7,0.6
2023-06-16T09:00:00,1173A,119.176,34.5885,连云港市,市环境监测站,颗粒物(PM10),64,78,56,36,20,246,95,102,86,21,15,10,9,0.4,0.4
2023-06-16T09:00:00,1177A,117.179,34.2761,徐州市,黄河新村,细颗粒物(PM2.5),72,90,71,52,33,232,98,103,80,31,21,10,10,0.9,0.7
2023-06-16T09:00:00,1178A,117.1918,34.2384,徐州市,淮塔,颗粒物(PM10),89,127,75,50,31,235,84,144,78,43,20,14,12,0.8,0.6
2023-06-16T09:00:00,1180A,117.256,34.2153,徐州市,新城区,颗粒物(PM10),85,120,90,52,35,226,72,67,66,51,29,10,9,0.7,0.5
2023-06-16T09:00:00,1181A,117.244,34.2911,徐州市,桃园路,颗粒物(PM10),78,105,72,50,29,223,90,101,67,28,20,11,10,0.6,0.5
2023-06-16T09:00:00,1182A,117.2933,34.2778,徐州市,农科院,颗粒物(PM10),75,100,75,53,35,229,78,101,64,44,34,10,10,0.7,0.6
2023-06-16T09:00:00,1186A,119.389,32.3761,扬州市,邗江监测站,细颗粒物(PM2.5),68,83,61,49,36,273,132,128,121,41,28,10,8,1.0,0.7
2023-06-16T09:00:00,1188A,120.269,31.4867,无锡市,雪浪,颗粒物(PM10),65,80,54,36,31,284,118,143,91,37,20,7,4,0.9,0.8
2023-06-16T09:00:00,1189A,120.275,31.6219,无锡市,黄巷,,,,62,,29,309,97,137,76,,38,9,7,1.1,1.1
2023-06-16T09:00:00,1190A,120.294,31.56,无锡市,曹张,,49,46,50,34,29,298,114,116,89,39,24,8,5,1.0,1
2023-06-16T09:00:00,1191A,120.242,31.5031,无锡市,漆塘,颗粒物(PM10),64,78,52,36,31,264,116,138,90,29,16,8,6,0.8,0.8
2023-06-16T09:00:00,1192A,120.3489,31.5863,无锡市,东亭,颗粒物(PM10),62,73,57,36,34,333,94,121,88,51,28,13,12,1.0,0.9
2023-06-16T09:00:00,1193A,120.354,31.5475,无锡市,旺庄,颗粒物(PM10),65,80,55,31,31,320,80,114,76,66,32,12,10,0.9,0.8
2023-06-16T09:00:00,1194A,120.245,31.5631,无锡市,荣巷,颗粒物(PM10),57,63,51,36,32,274,120,151,94,42,22,11,9,0.7,0.7
2023-06-16T09:00:00,1195A,120.299,31.6817,无锡市,堰桥,颗粒物(PM10),64,78,59,39,33,280,110,128,94,45,33,11,9,0.9,0.9
2023-06-16T09:00:00,1196A,119.9633,31.762,常州市,市监测站,细颗粒物(PM2.5),62,69,70,44,37,277,139,164,124,50,28,11,9,0.8,0.7
2023-06-16T09:00:00,1200A,119.9468,31.7069,常州市,武进监测站,颗粒物(PM10),63,76,69,42,35,273,130,168,129,38,19,11,10,0.8,0.7
2023-06-16T09:00:00,1201A,119.9255,31.9087,常州市,安家,颗粒物(PM10),70,89,82,48,43,280,109,124,101,42,25,12,9,1.1,0.8
2023-06-16T09:00:00,1203A,119.6707,32.1875,镇江市,新区办事处,细颗粒物(PM2.5),73,59,64,53,43,296,132,88,85,47,35,6,2,1.4,1
2023-06-16T09:00:00,1204A,119.4974,32.1968,镇江市,职教中心,细颗粒物(PM2.5),100,68,57,75,49,304,139,158,134,38,23,6,6,1.2,1
2023-06-16T09:00:00,1205A,119.4303,32.1328,镇江市,丹徒区监测站,细颗粒物(PM2.5),95,85,59,71,44,255,133,140,134,34,17,3,4,0.9,0.7
2023-06-16T09:00:00,1206A,119.905,32.4878,泰州市,公园路,,,83,68,63,49,284,,72,57,32,22,12,11,1.3,1
2023-06-16T09:00:00,1207A,119.9189,32.4625,泰州市,莲花,细颗粒物(PM2.5),77,95,75,56,44,292,115,70,60,31,23,13,12,1.0,0.8
2023-06-16T09:00:00,1209A,119.888,32.4639,泰州市,留学生创业园,细颗粒物(PM2.5),84,55,57,62,45,292,123,77,77,26,21,12,11,0.8,0.7
2023-06-16T09:00:00,1210A,119.036,33.5981,淮安市,钵池山,细颗粒物(PM2.5),110,85,55,83,40,238,118,96,73,36,22,12,10,1.2,0.9
2023-06-16T09:00:00,1211A,119.007,33.575,淮安市,北京南路,细颗粒物(PM2.5),119,90,56,90,44,238,121,82,68,35,25,12,11,1.2,0.8
2023-06-16T09:00:00,1212A,118.989,33.6067,淮安市,市监测站,颗粒物(PM10),78,105,64,56,32,245,129,99,86,33,22,12,11,1.1,0.7
2023-06-16T09:00:00,1213A,119.135,33.5039,淮安市,楚州区监测站,细颗粒物(PM2.5),104,103,60,78,37,246,129,74,59,30,23,11,9,1.3,0.9
2023-06-16T09:00:00,1214A,119.0186,33.6297,淮安市,淮阴区监测站,细颗粒物(PM2.5),88,92,64,65,34,242,136,105,87,30,21,12,10,0.9,0.6
2023-06-16T09:00:00,1215A,120.118,33.4022,盐城市,盐城电厂,颗粒物(PM10),59,68,47,26,21,233,163,121,108,14,9,7,5,0.7,0.5
2023-06-16T09:00:00,1216A,120.156,33.3942,盐城市,市监测站,颗粒物(PM10),67,83,46,27,19,215,138,97,80,16,12,9,7,0.6,0.4
2023-06-16T09:00:00,1218A,120.2144,33.38,盐城市,开发区管委会,细颗粒物(PM2.5),84,63,37,62,28,227,125,105,83,23,14,9,8,0.6,0.5
2023-06-16T09:00:00,1220A,118.293,33.9528,宿迁市,宿迁学院,细颗粒物(PM2.5),69,65,62,50,42,284,152,147,121,18,22,8,8,0.6,0.6
2023-06-16T09:00:00,1221A,118.2442,33.9592,宿迁市,宿迁中学,臭氧1小时,65,62,69,39,36,300,172,153,144,21,18,12,11,0.5,0.4
2023-06-16T09:00:00,1223A,120.2072,30.2111,杭州市,滨江,颗粒物(PM10),57,64,68,36,32,253,106,144,108,44,27,9,8,0.7,0.6
2023-06-16T09:00:00,1224A,120.0633,30.2747,杭州市,西溪,细颗粒物(PM2.5),93,103,60,69,34,216,60,108,40,47,26,8,8,0.7,0.6
2023-06-16T09:00:00,1226A,120.3461,30.3153,杭州市,下沙,细颗粒物(PM2.5),69,80,71,50,40,246,105,92,70,59,36,9,6,0.9,0.7
2023-06-16T09:00:00,1227A,120.1269,30.2456,杭州市,卧龙桥,细颗粒物(PM2.5),63,53,46,45,33,247,104,64,63,24,22,6,6,0.6,0.6
2023-06-16T09:00:00,1228A,120.1903,30.2692,杭州市,浙江农大,,43,43,62,29,44,243,103,96,68,41,32,7,8,0.7,0.6
2023-06-16T09:00:00,1230A,120.1197,30.3119,杭州市,和睦小学,,,72,70,48,41,237,,97,50,66,35,7,7,0.8,0.7
2023-06-16T09:00:00,1231A,120.3019,30.4183,杭州市,临平镇,颗粒物(PM10),98,145,96,70,48,234,90,122,80,51,22,6,5,0.8,0.6
2023-06-16T09:00:00,1232A,120.2697,30.1819,杭州市,城厢镇,,,70,63,50,43,263,,127,85,62,37,6,6,0.8,0.6
2023-06-16T09:00:00,1233A,120.0883,30.1808,杭州市,云栖,细颗粒物(PM2.5),60,64,54,43,30,216,80,80,49,38,31,4,4,0.8,0.7
2023-06-16T09:00:00,1234A,121.8358,29.911,宁波市,区环保大楼,,47,47,40,30,30,215,24,114,15,91,48,6,6,0.9,0.7
2023-06-16T09:00:00,1235A,121.56,29.82,宁波市,万里学院,细颗粒物(PM2.5),72,60,52,52,44,265,92,130,105,53,29,5,5,0.7,0.6
2023-06-16T09:00:00,1236A,121.713,29.9572,宁波市,龙赛医院,,50,43,44,35,30,259,32,121,57,90,34,9,8,0.9,0.7
2023-06-16T09:00:00,1239A,121.633,29.7733,宁波市,钱湖水厂,,46,37,40,32,34,250,123,134,121,15,12,8,7,0.7,0.7
2023-06-16T09:00:00,1240A,121.5856,29.8635,宁波市,太古小学,细颗粒物(PM2.5),63,50,48,45,40,267,96,154,102,43,24,5,7,1.0,0.9
2023-06-16T09:00:00,1241A,121.524,29.8674,宁波市,市环境监测中心,颗粒物(PM10),57,63,53,30,33,275,58,148,112,65,25,4,5,0.8,0.6
2023-06-16T09:00:00,1242A,120.634,28.0089,温州市,瓯海,,28,28,44,18,32,206,82,62,62,31,22,6,7,0.5,0.5
2023-06-16T09:00:00,1243A,120.6748,27.9939,温州市,南浦,,29,28,45,20,29,211,84,91,71,30,18,4,5,0.6,0.5
2023-06-16T09:00:00,1244A,120.76,27.9747,温州市,龙湾,,26,24,46,14,27,199,82,88,72,46,25,6,6,0.6,0.5
2023-06-16T09:00:00,1245A,120.6709,28.0167,温州市,市站,,27,24,53,18,35,180,85,76,73,24,24,4,5,0.5,0.5
2023-06-16T09:00:00,1247A,120.6053,29.9928,绍兴市,城东开发委,细颗粒物(PM2.5),57,54,54,40,38,235,104,134,106,26,21,8,9,0.8,0.7
2023-06-16T09:00:00,1250A,120.0751,30.8669,湖州市,城西水厂,细颗粒物(PM2.5),69,74,47,50,28,222,97,139,86,48,31,10,7,0.8,0.6
2023-06-16T09:00:00,1252A,120.7436,30.778,嘉兴市,清河小学,颗粒物(PM10),58,66,46,33,26,241,80,102,71,45,28,10,8,1.2,0.7
2023-06-16T09:00:00,1253A,120.726,30.7478,嘉兴市,嘉兴学院,细颗粒物(PM2.5),64,63,47,46,33,249,122,114,82,37,28,7,6,0.8,0.6
2023-06-16T09:00:00,1255A,121.273,28.6459,台州市,黄岩环保大楼,细颗粒物(PM2.5),67,54,53,48,38,226,101,120,91,27,16,8,7,0.6,0.5
2023-06-16T09:00:00,1256A,121.419,28.6542,台州市,台州环保大楼,细颗粒物(PM2.5),67,69,49,48,36,243,94,118,81,30,16,5,4,0.7,0.6
2023-06-16T09:00:00,1257A,121.377,28.5773,台州市,路桥田洋王,细颗粒物(PM2.5),79,75,64,58,45,225,82,80,62,36,23,7,7,0.7,0.6
2023-06-16T09:00:00,1258A,122.122,30.0203,舟山市,定海檀枫,,39,37,43,27,28,199,70,47,47,27,19,6,7,0.5,0.6
2023-06-16T09:00:00,1259A,122.3094,29.9558,舟山市,普陀东港,,38,30,41,26,32,216,96,56,56,10,15,5,6,0.5,0.5
2023-06-16T09:00:00,1260A,122.19,29.9944,舟山市,临城新区,细颗粒物(PM2.5),54,52,42,38,34,220,72,73,52,19,13,4,5,0.4,0.5
2023-06-16T09:00:00,1262A,119.647,29.077,金华市,十五中,颗粒物(PM10),55,59,55,38,32,248,145,116,115,19,26,5,6,0.5,0.5
2023-06-16T09:00:00,1263A,119.686,29.1029,金华市,监测站,颗粒物(PM10),61,72,57,43,33,227,102,90,71,40,35,6,7,0.6,0.6
2023-06-16T09:00:00,1264A,118.8692,28.9398,衢州市,环保大楼,,,68,53,46,31,217,,106,64,27,21,11,5,1.0,0.7
2023-06-16T09:00:00,1265A,118.8709,28.9666,衢州市,实验学校,细颗粒物(PM2.5),63,74,51,45,31,222,76,117,81,29,18,6,5,0.9,0.6
2023-06-16T09:00:00,1266A,118.8621,28.9808,衢州市,衢州学院,细颗粒物(PM2.5),79,80,45,58,24,219,67,116,82,34,25,8,6,0.7,0.5
2023-06-16T09:00:00,1267A,119.914,28.4514,丽水市,监测站大楼,,48,45,43,33,23,175,79,151,104,30,14,5,5,0.4,0.3
2023-06-16T09:00:00,1268A,119.93,28.4586,丽水市,莲都小学,,39,34,45,27,23,187,103,160,108,19,14,5,6,0.5,0.4
2023-06-16T09:00:00,1269A,119.879,28.4231,丽水市,余庄前,颗粒物(PM10),57,64,42,39,24,178,41,100,38,34,15,6,5,0.5,0.4
2023-06-16T09:00:00,1270A,117.1959,31.7848,合肥市,明珠广场,,,70,56,41,31,199,,157,124,34,23,11,6,0.7,0.6
2023-06-16T09:00:00,1271A,117.3072,31.8764,合肥市,三里街,颗粒物(PM10),65,80,63,36,31,212,116,153,117,36,26,8,6,0.6,0.5
2023-06-16T09:00:00,1272A,117.2588,31.8707,合肥市,琥珀山庄,颗粒物(PM10),59,68,54,36,31,211,137,150,134,31,20,7,6,0.6,0.6
2023-06-16T09:00:00,1273A,117.1604,31.9052,合肥市,董铺水库,颗粒物(PM10),65,80,50,36,25,176,125,122,107,29,15,5,3,0.5,0.4
2023-06-16T09:00:00,1274A,117.25,31.8571,合肥市,长江中路,颗粒物(PM10),65,80,61,44,33,202,127,164,127,27,17,14,12,0.7,0.6
2023-06-16T09:00:00,1275A,117.266,31.9436,合肥市,庐阳区,颗粒物(PM10),68,85,65,39,33,185,120,142,106,39,25,11,8,0.7,0.6
2023-06-16T09:00:00,1276A,117.336,31.8586,合肥市,瑶海区,颗粒物(PM10),69,88,78,38,32,203,114,121,107,37,28,12,9,0.7,0.7
2023-06-16T09:00:00,1277A,117.3027,31.7964,合肥市,包河区,颗粒物(PM10),59,68,68,36,36,202,122,127,87,26,33,9,7,0.7,0.6
2023-06-16T09:00:00,1278A,117.2776,31.7385,合肥市,滨湖新区,颗粒物(PM10),59,68,55,36,27,207,116,167,122,20,12,12,8,0.8,0.6
2023-06-16T09:00:00,1279A,117.1318,31.8403,合肥市,高新区,颗粒物(PM10),58,66,55,38,30,185,119,167,126,29,18,13,9,0.7,0.5
2023-06-16T09:00:00,1280A,119.3903,26.0543,福州市,鼓山,,,,,,,,,,,,,,,,
2023-06-16T09:00:00,1282A,119.2681,26.0504,福州市,师大,,39,39,33,26,17,128,78,73,66,8,9,4,4,0.5,0.5
2023-06-16T09:00:00,1283A,119.2984,26.1028,福州市,五四北路,,44,44,28,19,20,125,70,76,61,13,16,4,3,0.4,0.5
2023-06-16T09:00:00,1284A,119.2648,26.0768,福州市,杨桥西路,,36,36,31,21,20,118,67,75,59,12,12,3,3,0.4,0.4
2023-06-16T09:00:00,1285A,119.317,26.0746,福州市,紫阳,,42,42,33,23,20,118,61,80,61,15,16,2,2,0.5,0.5
2023-06-16T09:00:00,1286A,118.1608,24.8169,厦门市,溪东,,,,,,,,,,,,,,,,
2023-06-16T09:00:00,1287A,118.1514,24.4767,厦门市,洪文,,20,15,26,7,13,156,64,90,78,13,9,3,2,0.4,0.5
2023-06-16T09:00:00,1288A,118.0661,24.4444,厦门市,鼓浪屿,,19,14,25,8,15,155,59,93,79,16,8,1,2,0.5,0.6
2023-06-16T09:00:00,1290A,115.8931,28.6843,南昌市,省外办,,,32,45,14,27,170,,93,93,,15,,7,,0.6
2023-06-16T09:00:00,1291A,115.8886,28.7003,南昌市,省林业公司,,30,22,39,17,29,165,94,89,89,5,11,7,7,0.4,0.5
2023-06-16T09:00:00,1292A,115.8126,28.7442,南昌市,林科所,,32,19,39,12,23,168,101,67,67,12,35,10,10,0.7,0.8
2023-06-16T09:00:00,1294A,115.8518,28.687,南昌市,建工学校,,32,28,50,8,24,174,100,91,91,8,13,12,12,0.5,0.6
2023-06-16T09:00:00,1295A,115.8921,28.6424,南昌市,象湖,,30,28,42,14,29,172,94,86,86,10,12,6,6,0.4,0.6
2023-06-16T09:00:00,1296A,115.7423,28.7996,南昌市,武术学校,,31,19,22,8,24,164,97,36,36,7,5,14,12,0.5,0.6
2023-06-16T09:00:00,1298A,115.9314,28.6842,南昌市,省站,,34,34,51,12,28,157,90,92,83,12,11,8,8,0.6,0.6
2023-06-16T09:00:00,1299A,116.9862,36.6114,济南市,科干所,臭氧1小时,67,63,50,27,23,245,173,226,182,18,14,8,7,0.5,0.5
2023-06-16T09:00:00,1300A,116.9376,36.665,济南市,农科所,颗粒物(PM10),59,68,50,17,16,238,147,172,146,25,19,7,5,0.4,0.4
2023-06-16T09:00:00,1301A,117.1265,36.6734,济南市,开发区,臭氧1小时,67,46,44,17,19,238,173,209,170,15,15,7,7,0.6,0.5
2023-06-16T09:00:00,1303A,117.0624,36.6868,济南市,省种子仓库,臭氧1小时,68,46,45,17,19,240,174,225,174,15,13,6,4,0.5,0.5
2023-06-16T09:00:00,1304A,116.9489,36.6447,济南市,机床二厂,颗粒物(PM10),58,66,59,22,21,239,160,198,160,20,15,8,7,0.4,0.4
2023-06-16T09:00:00,1305A,117.0495,36.663,济南市,市监测站,臭氧1小时,82,49,45,54,21,248,185,238,191,21,19,9,9,0.3,0.2
2023-06-16T09:00:00,1306A,116.7675,36.5484,济南市,长清党校,臭氧1小时,62,61,61,29,28,257,169,203,167,16,17,10,9,0.4,0.4
2023-06-16T09:00:00,1307A,120.6659,36.2403,青岛市,仰口,,31,31,25,14,14,96,85,87,83,16,12,4,4,0.3,0.3
2023-06-16T09:00:00,1310A,120.4134,36.0658,青岛市,市南区东部子站,,36,24,20,12,10,115,113,112,112,7,7,8,7,0.3,0.2
2023-06-16T09:00:00,1311A,120.3664,36.1032,青岛市,四方区子站,,40,22,19,14,14,129,126,127,124,14,12,5,5,0.5,0.5
2023-06-16T09:00:00,1312A,120.2994,36.054,青岛市,市南区西部子站,,35,27,22,20,12,117,110,114,114,11,12,6,6,0.5,0.5
2023-06-16T09:00:00,1313A,120.4581,36.0858,青岛市,崂山区子站,,39,22,17,12,12,127,124,124,124,7,6,7,7,0.3,0.3
2023-06-16T09:00:00,1314A,120.1983,35.9608,青岛市,黄岛区子站,,38,22,21,17,14,120,119,118,117,9,8,5,5,0.5,0.4
2023-06-16T09:00:00,1315A,120.3999,36.3083,青岛市,城阳区子站,,46,46,29,15,11,147,134,136,136,19,15,5,5,0.9,0.4
2023-06-16T09:00:00,1316A,113.69031,34.76122,郑州市,烟厂,颗粒物(PM10),64,78,48,34,21,217,111,130,115,41,22,13,6,0.7,0.5
2023-06-16T09:00:00,1317A,113.65724,34.77134,郑州市,郑纺机,颗粒物(PM10),56,61,50,31,20,198,108,123,112,44,22,13,6,0.8,0.5
2023-06-16T09:00:00,1318A,113.67526,34.80246,郑州市,银行学校,颗粒物(PM10),54,57,42,24,18,212,120,140,124,42,18,13,7,0.7,0.4
2023-06-16T09:00:00,1319A,113.56746,34.81334,郑州市,供水公司,颗粒物(PM10),52,54,48,25,20,191,127,115,103,35,22,10,9,0.5,0.4
2023-06-16T09:00:00,1320A,113.7329,34.7178,郑州市,经开区管委,细颗粒物(PM2.5),69,81,48,50,27,199,84,124,97,43,19,13,5,0.7,0.4
2023-06-16T09:00:00,1321A,113.73961,34.77172,郑州市,四十七中,颗粒物(PM10),64,77,46,3,13,205,92,131,110,36,15,20,9,0.7,0.4
2023-06-16T09:00:00,1322A,113.60532,34.74838,郑州市,市监测站,颗粒物(PM10),62,74,57,25,23,201,117,115,105,45,25,4,5,0.7,0.5
2023-06-16T09:00:00,1323A,113.64164,34.7525,郑州市,河医大,颗粒物(PM10),60,70,50,25,18,192,113,121,105,35,17,14,9,0.6,0.4
2023-06-16T09:00:00,1324A,113.51488,34.91089,郑州市,岗李水库,颗粒物(PM10),56,61,42,28,17,204,79,59,45,38,22,6,6,0.6,0.4
2023-06-16T09:00:00,1325A,114.3677,30.5584,武汉市,东湖梨园,颗粒物(PM10),61,71,51,39,29,206,77,131,92,41,21,7,8,0.9,0.8
2023-06-16T09:00:00,1326A,114.2529,30.558,武汉市,汉阳月湖,颗粒物(PM10),56,62,50,31,26,191,47,128,78,62,31,8,10,1.1,0.8
2023-06-16T09:00:00,1327A,114.282,30.6189,武汉市,汉口花桥,颗粒物(PM10),63,75,61,42,33,197,66,124,92,58,31,11,12,1.0,0.8
2023-06-16T09:00:00,1328A,114.3025,30.5332,武汉市,武昌紫阳,颗粒物(PM10),55,59,49,35,26,205,72,135,92,47,25,9,10,1.4,1
2023-06-16T09:00:00,1329A,114.3646,30.6217,武汉市,青山钢花,颗粒物(PM10),63,75,61,44,40,227,105,128,108,32,23,13,14,0.9,0.9
2023-06-16T09:00:00,1330A,114.1566,30.4825,武汉市,沌口新区,颗粒物(PM10),59,67,53,38,33,182,75,122,78,46,29,6,8,0.9,0.7
2023-06-16T09:00:00,1331A,114.3014,30.5944,武汉市,汉口江滩,细颗粒物(PM2.5),58,56,52,41,30,214,88,123,80,38,33,10,11,0.9,0.8
2023-06-16T09:00:00,1333A,114.135,30.6319,武汉市,吴家山,颗粒物(PM10),57,63,45,29,27,193,80,135,93,47,26,5,7,0.8,0.7
2023-06-16T09:00:00,1334A,113.8454,30.2917,武汉市,沉湖七壕,,50,50,43,22,21,188,55,104,87,31,13,5,6,0.7,0.6
2023-06-16T09:00:00,1335A,113.0833,28.2325,长沙市,经开区环保局,细颗粒物(PM2.5),54,51,46,38,29,131,54,56,48,23,21,8,6,0.7,0.7
2023-06-16T09:00:00,1336A,112.8872,28.2189,长沙市,高开区环保局,细颗粒物(PM2.5),57,44,50,40,32,159,70,57,57,13,25,8,6,0.7,0.7
2023-06-16T09:00:00,1337A,113.0792,28.2053,长沙市,马坡岭,细颗粒物(PM2.5),64,52,52,46,37,143,67,54,54,19,27,8,5,0.4,0.4
2023-06-16T09:00:00,1338A,112.9394,28.19,长沙市,湖南师范大学,,,45,38,44,34,150,76,52,52,,22,4,3,0.7,0.5
2023-06-16T09:00:00,1339A,113.0178,28.1322,长沙市,雨花区环保局,,48,41,45,33,29,138,77,58,56,20,23,6,5,0.5,0.5
2023-06-16T09:00:00,1340A,112.9792,28.2597,长沙市,伍家岭,颗粒物(PM10),51,51,55,30,32,142,48,17,17,34,34,4,3,0.4,0.4
2023-06-16T09:00:00,1341A,113.0014,28.1944,长沙市,火车新站,,46,46,45,31,30,139,68,44,44,24,30,4,5,0.9,0.7
2023-06-16T09:00:00,1342A,112.9844,28.1178,长沙市,天心区环保局,,43,38,36,30,26,142,77,70,63,19,17,3,3,0.6,0.5
2023-06-16T09:00:00,1343A,112.8908,28.1308,长沙市,湖南中医药大学,"颗粒物(PM10),细颗粒物(PM2.5)",52,53,57,36,33,152,81,24,24,10,36,3,3,0.8,0.9
2023-06-16T09:00:00,1344A,112.9581,28.3611,长沙市,沙坪,颗粒物(PM10),54,57,42,31,26,131,65,59,59,11,4,7,5,0.6,0.6
2023-06-16T09:00:00,1345A,113.2347,23.1423,广州市,广雅中学,,29,29,29,16,19,150,25,18,18,40,31,5,4,1.0,0.9
2023-06-16T09:00:00,1346A,113.2612,23.105,广州市,市五中,,27,27,29,17,21,184,29,30,26,32,22,6,5,0.7,0.7
2023-06-16T09:00:00,1348A,113.3478,23.0916,广州市,广东商学院,,25,25,28,13,16,132,19,23,20,37,28,9,7,0.8,0.8
2023-06-16T09:00:00,1349A,113.4332,23.1047,广州市,市八十六中,,26,26,26,13,16,105,18,17,13,28,22,7,4,0.8,0.7
2023-06-16T09:00:00,1350A,113.3505,22.9483,广州市,番禺中学,,29,29,31,17,19,167,53,35,35,33,30,8,8,0.9,0.9
2023-06-16T09:00:00,1351A,113.2146,23.3916,广州市,花都师范,,24,24,25,12,18,135,33,42,35,27,17,6,6,0.6,0.6
2023-06-16T09:00:00,1352A,113.2597,23.1331,广州市,市监测站,,27,27,26,16,17,173,34,28,22,39,28,8,6,1.0,0.9
2023-06-16T09:00:00,1353A,113.5618,23.312,广州市,九龙镇镇龙,,32,32,22,14,13,89,16,37,27,24,13,5,5,0.8,0.8
2023-06-16T09:00:00,1354A,113.2765,23.1544,广州市,麓湖,,27,27,28,12,15,159,29,24,22,31,26,7,5,0.8,0.7
2023-06-16T09:00:00,1355A,113.443,23.3035,广州市,帽峰山森林公园,,15,15,22,8,11,122,36,37,29,13,12,8,7,0.5,0.6
2023-06-16T09:00:00,1356A,114.1063,22.5545,深圳市,通心岭子站,,20,5,15,7,12,75,62,44,43,8,19,3,4,0.7,0.8
2023-06-16T09:00:00,1357A,114.117,22.5625,深圳市,洪湖,,21,21,23,10,13,83,53,30,29,18,24,5,5,0.9,0.9
2023-06-16T09:00:00,1358A,113.987,22.5417,深圳市,华侨城,,16,16,32,6,21,90,44,48,44,20,25,6,6,0.8,0.9
2023-06-16T09:00:00,1359A,113.9181,22.5171,深圳市,南海子站,,16,12,40,7,27,164,51,78,63,27,31,4,4,0.9,0.9
2023-06-16T09:00:00,1360A,114.2458,22.5689,深圳市,盐田,,15,15,14,9,4,80,36,40,40,26,26,4,4,0.7,0.6
2023-06-16T09:00:00,1361A,114.2283,22.7244,深圳市,龙岗,,15,14,14,8,7,111,48,43,40,20,22,9,9,1.0,0.9
2023-06-16T09:00:00,1363A,114.494,22.5422,深圳市,南澳,,18,13,8,12,2,85,51,64,56,10,7,4,4,0.8,0.7
2023-06-16T09:00:00,1364A,114.41,22.6342,深圳市,葵涌,,14,14,9,3,3,84,30,46,28,18,11,4,4,0.7,0.6
2023-06-16T09:00:00,1365A,114.297,22.5978,深圳市,梅沙,,21,16,15,14,4,98,65,55,55,7,6,4,4,0.7,0.7
2023-06-16T09:00:00,1366A,114.0678,22.738,深圳市,观澜,,20,18,24,14,14,114,46,37,37,33,22,8,8,0.8,0.8
2023-06-16T09:00:00,1367A,113.5814,22.2618,珠海市,吉大,,19,15,24,6,15,176,59,77,70,14,16,2,5,0.4,0.5
2023-06-16T09:00:00,1368A,113.4881,22.2335,珠海市,前山,细颗粒物(PM2.5),72,5,13,52,47,141,49,83,73,28,17,5,4,0.4,1.2
2023-06-16T09:00:00,1369A,113.628,22.4251,珠海市,唐家,,23,23,31,6,19,154,66,92,66,6,13,6,6,0.4,0.5
2023-06-16T09:00:00,1370A,113.299,22.2281,珠海市,斗门,,20,6,17,8,16,173,62,80,68,10,12,6,7,0.5,0.6
2023-06-16T09:00:00,1371A,113.1294,23.0067,佛山市,湾梁,,,27,34,13,18,215,,22,21,26,27,5,4,0.5,0.5
2023-06-16T09:00:00,1372A,113.1083,23.0478,佛山市,华材职中,,25,24,32,17,21,198,46,22,22,26,28,6,6,0.6,0.7
2023-06-16T09:00:00,1373A,113.144,23.0453,佛山市,南海气象局,,23,16,36,16,20,161,30,12,12,28,30,5,5,0.6,0.6
2023-06-16T09:00:00,1374A,113.2881,22.8094,佛山市,顺德苏岗,,25,22,30,17,23,171,62,54,54,23,30,5,5,0.7,0.7
2023-06-16T09:00:00,1376A,112.8383,22.8678,佛山市,高明孔堂,颗粒物(PM10),52,54,50,31,33,214,73,139,94,21,17,5,5,0.8,0.8
2023-06-16T09:00:00,1377A,112.8836,23.1588,佛山市,三水监测站,,26,24,29,18,23,160,21,52,25,34,24,4,4,0.7,0.6
2023-06-16T09:00:00,1378A,112.867,23.185,佛山市,三水云东海,,31,31,28,15,20,151,21,64,24,25,17,5,4,0.6,0.6
2023-06-16T09:00:00,1379A,113.3769,22.5211,中山市,华柏园,,21,11,35,12,23,189,66,110,79,12,23,4,5,0.4,0.6
2023-06-16T09:00:00,1380A,113.3881,22.5497,中山市,张溪,,36,36,51,0,34,194,75,99,67,7,23,4,4,0.4,0.6
2023-06-16T09:00:00,1381A,113.4075,22.5111,中山市,紫马岭,,23,2,34,2,25,172,71,80,62,1,13,4,4,0.4,0.7
2023-06-16T09:00:00,1382A,113.4411,22.4853,中山市,长江旅游区,,25,5,34,5,21,167,78,80,61,4,14,8,9,0.4,0.6
2023-06-16T09:00:00,1383A,113.1064,22.6058,江门市,北街,,26,26,41,12,21,201,50,96,57,17,20,6,5,0.7,0.7
2023-06-16T09:00:00,1384A,113.0731,22.5835,江门市,西区,,20,16,38,11,22,200,62,100,66,14,18,5,5,0.8,0.8
2023-06-16T09:00:00,1385A,113.0219,22.5311,江门市,圭峰西,,42,42,40,14,24,196,56,84,51,18,16,4,4,0.9,0.8
2023-06-16T09:00:00,1386A,113.0828,22.5947,江门市,东湖,,21,21,46,10,26,188,66,106,66,11,17,6,5,0.8,0.8
2023-06-16T09:00:00,1389A,113.7547,23.0494,东莞市,莞城梨川,,21,21,23,12,13,123,51,60,52,22,15,9,9,0.6,0.6
2023-06-16T09:00:00,1390A,113.7944,23.0128,东莞市,东城石井,,26,26,21,12,12,138,49,51,49,21,16,7,8,0.8,0.8
2023-06-16T09:00:00,1391A,113.7383,22.9658,东莞市,南城西平,,22,22,26,10,14,138,34,40,26,23,24,2,2,0.8,0.8
2023-06-16T09:00:00,1392A,114.4183,23.0528,惠州市,河南岸金山湖子站,,,,22,7,12,99,48,68,47,7,10,2,2,0.7,0.8
2023-06-16T09:00:00,1393A,114.4053,23.0822,惠州市,下埔横江三路子站,,17,17,15,4,7,111,45,66,50,12,9,4,4,0.7,0.7
2023-06-16T09:00:00,1394A,114.4103,23.1142,惠州市,江北云山西路子站,,20,20,19,3,10,114,36,63,49,14,6,8,7,0.7,0.6
2023-06-16T09:00:00,1395A,114.4645,22.7833,惠州市,惠阳区承修路船湖子站,,20,12,13,7,9,105,62,59,44,17,14,3,3,1.0,1
2023-06-16T09:00:00,1396A,114.5317,22.7422,惠州市,大亚湾管委会子站,,22,22,10,8,7,103,53,58,56,31,15,2,2,0.6,0.5
2023-06-16T09:00:00,1397A,112.4267,23.0706,肇庆市,睦岗子站,颗粒物(PM10),51,51,49,30,27,178,32,84,50,34,20,12,14,0.7,0.6
2023-06-16T09:00:00,1398A,112.4645,23.0475,肇庆市,城中子站,细颗粒物(PM2.5),59,62,45,42,32,171,36,106,59,42,25,18,14,0.8,0.7
2023-06-16T09:00:00,1399A,112.5544,23.1522,肇庆市,坑口子站,,39,35,33,27,23,157,28,82,43,32,19,7,7,0.6,0.6
2023-06-16T09:00:00,1400A,112.4753,23.1,肇庆市,七星岩子站,,40,36,35,28,22,154,40,109,48,25,17,7,8,0.6,0.6
2023-06-16T09:00:00,1401A,108.3103,22.7881,南宁市,二十一中,,22,19,34,15,23,146,61,68,62,9,11,4,5,0.6,0.7
2023-06-16T09:00:00,1402A,108.3141,22.8528,南宁市,北湖,,26,26,36,13,26,129,56,75,62,10,9,6,6,0.6,0.7
2023-06-16T09:00:00,1403A,108.3206,22.8225,南宁市,市监测站,,28,28,35,15,27,134,60,70,64,14,19,5,6,0.6,0.7
2023-06-16T09:00:00,1404A,108.3829,22.8037,南宁市,大自然花园,,,,,,,,,,,,,,,,
2023-06-16T09:00:00,1405A,108.4394,22.7904,南宁市,仙葫,,24,24,34,15,22,138,58,61,57,10,12,4,5,0.4,0.5
2023-06-16T09:00:00,1406A,108.2397,22.8467,南宁市,区农职院,,26,26,37,16,25,147,58,76,61,11,11,5,6,0.7,0.8
2023-06-16T09:00:00,1407A,108.3275,22.735,南宁市,英华嘉园,,25,25,40,15,25,144,53,54,50,10,14,5,5,0.7,0.8
2023-06-16T09:00:00,1408A,108.2257,22.7757,南宁市,沙井镇街道办,,25,25,38,15,28,149,49,43,43,18,22,7,8,0.7,0.8
2023-06-16T09:00:00,1409A,110.576,19.9507,海口市,东寨港,,,,,,,,,,,,,,,,
2023-06-16T09:00:00,1410A,110.3232,20.0574,海口市,海南大学,,27,27,24,11,14,76,33,46,42,12,19,4,4,0.5,0.5
2023-06-16T09:00:00,1411A,110.283,20.0053,海口市,秀英海南医院,,26,26,24,10,13,70,34,49,37,12,26,5,5,0.4,0.4
2023-06-16T09:00:00,1412A,110.338,19.9969,海口市,海南师范大学,,27,27,22,8,12,57,29,42,34,9,14,5,5,0.4,0.4
2023-06-16T09:00:00,1413A,110.33,20.0356,海口市,龙华路环保局宿舍,,27,27,23,10,13,76,33,51,43,13,18,6,6,0.4,0.4
2023-06-16T09:00:00,1414A,106.3787,29.8279,重庆市,缙云山,,26,8,11,5,7,132,81,126,100,14,10,7,7,0.1,0
2023-06-16T09:00:00,1416A,106.4213,29.8253,重庆市,天生,,27,27,26,14,20,94,67,62,62,15,18,5,5,0.7,0.7
2023-06-16T09:00:00,1417A,106.6263,29.7228,重庆市,两路,,20,13,14,9,13,87,46,86,61,39,28,6,6,0.8,0.7
2023-06-16T09:00:00,1418A,106.2953,29.5983,重庆市,虎溪,,28,28,24,17,13,103,55,74,65,24,20,4,4,0.5,0.5
2023-06-16T09:00:00,1419A,106.5777,29.5102,重庆市,南坪,,36,23,29,25,20,102,56,84,68,21,23,2,3,0.6,0.6
2023-06-16T09:00:00,1420A,106.6556,29.6277,重庆市,唐家沱,,26,13,19,18,19,99,51,71,60,32,24,6,5,0.8,0.7
2023-06-16T09:00:00,1421A,106.6349,29.4906,重庆市,茶园,,29,29,30,18,19,93,58,82,68,30,26,4,4,0.8,0.9
2023-06-16T09:00:00,1422A,106.3754,29.4572,重庆市,白市驿,,17,17,20,10,17,83,54,53,52,10,19,6,6,0.6,0.8
2023-06-16T09:00:00,1425A,106.6205,29.7166,重庆市,空港,,25,18,20,17,19,102,61,94,77,27,18,6,6,0.7,0.6
2023-06-16T09:00:00,1426A,106.4782,29.4875,重庆市,新山村,,33,33,32,14,16,91,43,76,66,40,31,6,6,0.4,0.4
2023-06-16T09:00:00,1427A,106.5616,29.6453,重庆市,礼嘉,,24,23,22,11,13,105,36,87,56,48,28,5,5,0.9,0.8
2023-06-16T09:00:00,1428A,106.4522,29.7091,重庆市,蔡家,,24,24,30,8,14,89,42,65,53,30,20,5,5,0.6,0.5
2023-06-16T09:00:00,1429A,106.5093,29.3917,重庆市,鱼新街,,28,24,26,19,16,83,33,60,45,22,21,5,5,0.8,0.8
2023-06-16T09:00:00,1431A,103.9728,30.7236,成都市,金泉两河,,22,22,34,5,18,83,37,72,67,20,14,2,2,0.4,0.3
2023-06-16T09:00:00,1432A,104.176,30.6872,成都市,十里店,,42,37,29,29,17,114,63,78,58,13,12,2,2,0.5,0.5
2023-06-16T09:00:00,1433A,104.079,30.5706,成都市,三瓦窑,,29,27,28,20,16,116,69,78,60,16,17,3,3,0.3,0.3
2023-06-16T09:00:00,1434A,104.1114,30.63,成都市,沙河铺,,41,41,30,24,11,113,52,81,61,21,12,3,3,0.4,0.4
2023-06-16T09:00:00,1437A,104.0786,30.6531,成都市,君平街,,36,36,30,22,22,114,44,72,67,26,20,3,3,0.7,0.5
2023-06-16T09:00:00,1438A,103.613,31.0283,成都市,灵岩寺,,23,4,24,4,17,111,73,83,71,4,10,5,4,0.8,0.8
2023-06-16T09:00:00,1439A,106.6899,26.5998,贵阳市,马鞍山,,27,27,27,14,18,55,43,31,31,19,14,4,5,0.5,0.5
2023-06-16T09:00:00,1440A,106.6971,26.5694,贵阳市,市环保站,,35,29,31,24,24,83,26,34,33,38,29,3,4,0.4,0.3
2023-06-16T09:00:00,1441A,106.6243,26.6266,贵阳市,鉴湖路,,28,22,34,19,22,65,59,55,55,12,19,4,4,0.5,0.5
2023-06-16T09:00:00,1442A,106.7487,26.6343,贵阳市,燕子冲,,39,29,32,27,28,82,20,26,12,37,16,6,5,0.8,0.6
2023-06-16T09:00:00,1443A,106.6555,26.4365,贵阳市,碧云窝,,24,24,35,9,19,79,65,62,62,10,15,4,4,0.4,0.4
2023-06-16T09:00:00,1444A,106.694,26.5161,贵阳市,中院村,,36,36,42,19,24,70,38,42,41,32,28,5,6,0.7,0.6
2023-06-16T09:00:00,1445A,106.7109,26.6027,贵阳市,红边门,,42,39,41,29,30,76,16,26,25,52,29,5,3,0.8,0.6
2023-06-16T09:00:00,1446A,106.7164,26.5699,贵阳市,新华路,颗粒物(PM10),52,53,39,31,26,80,25,22,22,44,32,3,2,0.6,0.5
2023-06-16T09:00:00,1447A,106.674,26.5424,贵阳市,太慈桥,,31,31,36,14,17,63,48,27,27,15,21,4,4,0.5,0.5
2023-06-16T09:00:00,1450A,102.8204,24.8886,昆明市,呈贡新区,,43,43,25,14,10,90,61,52,52,11,12,8,6,0.8,0.7
2023-06-16T09:00:00,1451A,102.6251,24.9608,昆明市,西山森林公园,,24,15,14,5,9,99,75,77,67,4,6,5,6,0.5,0.5
2023-06-16T09:00:00,1452A,102.7252,25.0902,昆明市,龙泉镇,,32,32,26,14,14,89,61,31,31,12,22,8,7,0.7,0.8
2023-06-16T09:00:00,1453A,102.7266,25.0375,昆明市,东风东路,,28,28,20,15,13,90,54,48,42,21,19,5,5,0.5,0.6
2023-06-16T09:00:00,1454A,102.6742,25.0669,昆明市,金鼎山,,39,39,27,20,13,92,48,52,44,23,17,6,6,0.6,0.6
2023-06-16T09:00:00,1455A,102.6644,25.0401,昆明市,碧鸡广场,,34,34,23,14,13,92,51,46,44,20,18,6,5,0.5,0.5
2023-06-16T09:00:00,1456A,91.1319,29.6514,拉萨市,八廓街,,42,9,11,4,5,168,134,158,148,11,8,4,5,0.4,0.5
2023-06-16T09:00:00,1457A,91.1221,29.6747,拉萨市,市环保局,,39,12,10,8,5,168,123,159,143,28,15,5,5,0.4,0.3
2023-06-16T09:00:00,1458A,91.0874,29.6475,拉萨市,区监测站,,36,6,7,0,3,164,115,154,138,32,15,7,7,0.3,0.3
2023-06-16T09:00:00,1459A,91.1774,29.6541,拉萨市,西藏大学,,46,6,7,5,8,162,147,162,153,7,9,5,6,0.3,0.3
2023-06-16T09:00:00,1460A,90.9798,29.6588,拉萨市,区辐射站,,37,19,14,7,7,155,117,148,135,25,14,8,8,0.2,0.1
2023-06-16T09:00:00,1461A,91.0834,29.6292,拉萨市,拉萨火车站,,38,3,9,5,6,165,120,156,141,20,11,8,8,0.3,0.3
2023-06-16T09:00:00,1462A,108.882,34.2749,西安市,高压开关厂,细颗粒物(PM2.5),52,50,40,36,23,197,128,133,132,20,21,7,8,0.4,0.4
2023-06-16T09:00:00,1463A,108.993,34.2629,西安市,兴庆小区,,45,45,37,19,15,181,125,131,130,2,5,5,6,0.8,0.7
2023-06-16T09:00:00,1464A,109.06,34.2572,西安市,纺织城,,48,48,37,23,19,176,124,137,137,19,16,5,5,0.4,0.4
2023-06-16T09:00:00,1465A,108.9356,34.2173,西安市,小寨,,39,39,37,27,18,174,121,127,127,12,12,8,8,0.5,0.3
2023-06-16T09:00:00,1466A,108.954,34.2713,西安市,市人民体育场,细颗粒物(PM2.5),52,39,37,36,21,181,119,131,129,15,14,7,7,0.4,0.4
2023-06-16T09:00:00,1467A,108.8922,34.2322,西安市,高新西区,,40,35,33,26,18,185,128,132,131,11,15,6,6,0.5,0.5
2023-06-16T09:00:00,1468A,108.935,34.3474,西安市,经开区,,48,44,38,33,19,173,125,130,130,11,11,2,2,0.3,0.2
2023-06-16T09:00:00,1469A,108.906,34.1546,西安市,长安区,颗粒物(PM10),51,51,37,23,17,192,117,128,126,18,14,5,5,0.4,0.3
2023-06-16T09:00:00,1471A,109.2186,34.3731,西安市,临潼区,细颗粒物(PM2.5),55,52,39,39,18,177,99,159,150,33,14,7,7,0.5,0.4
2023-06-16T09:00:00,1472A,108.869,34.378,西安市,草滩,,43,31,40,18,13,196,136,142,142,17,20,6,9,0.6,0.5
2023-06-16T09:00:00,1473A,108.985,34.1978,西安市,曲江文化产业集团,,44,44,36,29,18,180,129,133,133,12,13,4,5,0.5,0.4
2023-06-16T09:00:00,1474A,109.051,34.3213,西安市,广运潭,颗粒物(PM10),51,51,39,34,20,161,130,129,129,6,10,6,8,0.4,0.4
2023-06-16T09:00:00,1476A,103.631,36.1031,兰州市,兰炼宾馆,,36,35,41,25,22,167,74,92,71,19,15,5,5,0.4,0.4
2023-06-16T09:00:00,1477A,104.1373,35.9454,兰州市,榆中兰大校区,,,,,,,,,,,,,,,,
2023-06-16T09:00:00,1478A,103.8412,36.0726,兰州市,生物制品所,,32,30,43,22,24,164,80,103,86,22,16,6,7,0.8,0.7
2023-06-16T09:00:00,1479A,103.831,36.0464,兰州市,铁路设计院,,36,36,40,21,23,154,72,97,83,24,15,4,4,1.0,0.7
2023-06-16T09:00:00,1483A,101.524,36.6867,西宁市,第五水厂,,,,,,,,,,,,,,,,
2023-06-16T09:00:00,1484A,105.9512,38.6016,银川市,贺兰山马莲口,,40,17,38,18,13,184,128,124,117,8,8,11,11,0.4,0.4
2023-06-16T09:00:00,1488A,106.2328,38.4975,银川市,贺兰山东路,,37,36,52,8,16,165,118,126,118,13,14,9,7,0.3,0.2
2023-06-16T09:00:00,1489A,106.1358,38.5036,银川市,学院路,,37,32,52,13,16,169,118,128,102,9,12,8,7,0.4,0.4
2023-06-16T09:00:00,1490A,87.5801,43.8303,乌鲁木齐市,监测站,,27,26,34,9,13,109,84,91,79,16,25,6,7,0.6,0.5
2023-06-16T09:00:00,1491A,87.6046,43.768,乌鲁木齐市,收费所,,35,35,35,9,13,118,83,91,83,21,20,5,6,0.3,0.3
2023-06-16T09:00:00,1492A,87.4754,43.9469,乌鲁木齐市,新疆农科院农场,,31,31,60,13,26,98,79,36,36,16,42,7,9,0.7,0.7
2023-06-16T09:00:00,1493A,87.5525,43.8711,乌鲁木齐市,铁路局,,30,30,33,8,12,112,86,89,71,14,25,7,7,0.3,0.4
2023-06-16T09:00:00,1494A,87.6432,43.831,乌鲁木齐市,三十一中学,,,,39,20,15,119,81,103,86,12,17,13,13,0.4,0.4
2023-06-16T09:00:00,1496A,87.7216,44.1747,乌鲁木齐市,米东区环保局,颗粒物(PM10),56,62,62,10,22,136,93,46,46,7,28,5,6,0.2,0.3
2023-06-16T09:00:00,1508A,112.9433,27.8614,湘潭市,板塘,颗粒物(PM10),59,67,56,36,45,161,32,43,34,37,25,7,8,0.5,0.6
2023-06-16T09:00:00,1511A,112.9118,27.8403,湘潭市,市监测站,细颗粒物(PM2.5),58,61,50,41,32,186,51,56,51,32,22,4,6,0.6,0.5
2023-06-16T09:00:00,1512A,112.8937,27.8728,湘潭市,江麓,细颗粒物(PM2.5),59,53,53,42,31,174,49,49,41,22,16,8,9,0.4,0.4
2023-06-16T09:00:00,1513A,112.9227,27.8159,湘潭市,岳塘,颗粒物(PM10),54,57,56,36,31,176,56,78,60,28,15,6,6,1.1,1
2023-06-16T09:00:00,1514A,112.9074,27.9119,湘潭市,科大,细颗粒物(PM2.5),59,56,56,42,34,171,58,57,42,29,24,6,7,0.6,0.6
2023-06-16T09:00:00,1515A,113.135,27.8244,株洲市,天台山庄,颗粒物(PM10),51,51,58,32,35,158,66,70,66,24,15,7,7,0.8,0.8
2023-06-16T09:00:00,1518A,113.095,27.8867,株洲市,株冶医院,,50,50,55,29,33,151,74,66,66,10,16,5,5,0.8,0.8
2023-06-16T09:00:00,1519A,113.167,27.8667,株洲市,市四中,,50,50,54,30,34,146,64,59,59,16,15,7,6,0.8,0.7
2023-06-16T09:00:00,1520A,113.143,27.8381,株洲市,火车站,,50,50,58,33,35,142,77,67,67,16,13,9,7,0.8,0.7
2023-06-16T09:00:00,1524A,113.13,27.8528,株洲市,市监测站,颗粒物(PM10),51,51,59,33,40,155,53,66,61,29,17,7,7,0.9,0.9
2023-06-16T09:00:00,1552A,106.805,26.3003,贵阳市,桐木岭,,,,,,,,,,,,,,,,
2023-06-16T09:00:00,1559A,113.251,27.8336,株洲市,大京风景区,颗粒物(PM10),51,51,44,35,29,123,51,46,42,9,6,8,7,0.6,0.5
2023-06-16T09:00:00,1562A,113.0048,27.9153,湘潭市,昭山,,,53,54,33,31,162,,53,45,23,23,3,3,1.0,0.9
2023-06-16T09:00:00,1564A,112.4876,27.9164,湘潭市,韶山,颗粒物(PM10),55,59,49,28,20,118,52,33,33,9,11,9,7,0.5,0.4
2023-06-16T09:00:00,1585A,109.8756,40.6532,包头市,市环境监测站,颗粒物(PM10),53,56,57,25,19,222,143,110,96,20,24,24,17,0.7,0.6
2023-06-16T09:00:00,1587A,109.9991,40.5842,包头市,包头八中,颗粒物(PM10),58,65,68,20,21,238,142,103,103,23,30,30,20,0.9,0.8
2023-06-16T09:00:00,1588A,109.8538,40.6821,包头市,青山宾馆,颗粒物(PM10),53,56,47,18,18,224,145,115,93,23,23,21,15,0.7,0.6
2023-06-16T09:00:00,1589A,109.8642,40.6288,包头市,惠龙物流,颗粒物(PM10),52,53,56,17,18,220,139,98,97,18,19,22,14,0.6,0.5
2023-06-16T09:00:00,1590A,110.0377,40.5546,包头市,东河鸿龙湾,颗粒物(PM10),64,78,66,25,19,228,128,88,88,21,24,24,17,0.9,0.9
2023-06-16T09:00:00,1591A,110.0023,39.8129,鄂尔多斯市,综合楼,,,88,80,19,15,181,,117,110,21,22,16,13,0.7,0.6
2023-06-16T09:00:00,1592A,109.9486,39.8261,鄂尔多斯市,巴音孟克林场办事处,颗粒物(PM10),58,66,69,22,18,196,146,129,128,19,17,18,13,0.7,0.5
2023-06-16T09:00:00,1593A,109.7736,39.5986,鄂尔多斯市,康泽苑,颗粒物(PM10),54,58,51,7,9,189,135,119,104,19,19,19,12,0.8,0.7
2023-06-16T09:00:00,1594A,109.8119,39.5989,鄂尔多斯市,华泰汽车城,,48,48,52,17,17,182,123,112,88,17,20,17,10,0.6,0.5
2023-06-16T09:00:00,1595A,109.9734,39.7884,鄂尔多斯市,奥林花园,颗粒物(PM10),59,68,76,22,19,190,138,110,105,18,17,17,12,1.1,0.8
2023-06-16T09:00:00,1597A,122.2703,40.7094,营口市,大庆路,,43,29,23,13,10,178,136,129,121,31,17,19,6,1.2,0.7
2023-06-16T09:00:00,1598A,122.2150,40.6511,营口市,镜湖西路,,45,32,26,14,10,195,143,121,121,25,15,18,9,0.7,0.5
2023-06-16T09:00:00,1599A,122.1658,40.6789,营口市,西炮台,,49,23,21,8,11,182,156,115,115,12,15,9,9,0.5,0.5
2023-06-16T09:00:00,1600A,124.3303,40.0625,丹东市,江湾东路,,,23,26,15,16,133,,73,58,6,10,8,11,0.5,0.6
2023-06-16T09:00:00,1601A,124.4256,40.1503,丹东市,临江后街,,34,23,28,13,15,152,107,75,68,2,7,7,7,0.6,0.6
2023-06-16T09:00:00,1602A,124.3933,40.1461,丹东市,元宝山,,36,36,36,14,16,142,103,87,76,8,14,8,8,0.6,0.6
2023-06-16T09:00:00,1603A,124.3633,40.1092,丹东市,民主桥,,31,25,26,13,14,129,97,70,70,4,11,8,8,0.5,0.5
2023-06-16T09:00:00,1604A,122.0303,41.1489,盘锦市,开发区,,41,29,26,15,13,175,130,131,124,21,18,6,6,0.5,0.5
2023-06-16T09:00:00,1605A,122.0485,41.0883,盘锦市,兴隆台,,41,32,25,18,13,173,130,129,122,18,18,6,5,0.6,0.5
2023-06-16T09:00:00,1606A,121.8297,41.1028,盘锦市,新生街道,,39,35,23,12,12,165,122,123,113,14,14,5,4,0.6,0.6
2023-06-16T09:00:00,1607A,120.9092,40.7136,葫芦岛市,龙港区,,40,36,29,13,13,201,127,143,118,9,10,8,9,0.5,0.5
2023-06-16T09:00:00,1608A,120.8392,40.7514,葫芦岛市,化工街,,41,41,38,17,20,192,117,112,104,14,16,7,7,0.5,0.5
2023-06-16T09:00:00,1609A,120.8341,40.7073,葫芦岛市,新区,,37,27,34,20,22,191,116,140,112,14,11,6,6,0.5,0.5
2023-06-16T09:00:00,1610A,120.8695,40.7677,葫芦岛市,东城区,,37,29,33,15,19,196,117,125,108,15,15,9,9,0.5,0.4
2023-06-16T09:00:00,1611A,118.5819,24.9117,泉州市,涂山街,,32,32,21,14,14,134,73,105,82,18,11,8,9,0.6,0.6
2023-06-16T09:00:00,1612A,118.5972,24.8978,泉州市,津头埔,,39,39,22,12,13,129,63,110,83,24,16,8,8,0.7,0.6
2023-06-16T09:00:00,1613A,118.6663,24.9424,泉州市,万安,,34,34,24,13,13,137,68,120,95,20,13,8,9,0.6,0.6
2023-06-16T09:00:00,1614A,118.6117,24.9604,泉州市,清源山,,,,,,,,,,,,,,,,
2023-06-16T09:00:00,1616A,117.6795,36.229,济南市,技术学院,颗粒物(PM10),73,95,66,34,25,274,150,186,134,40,29,23,15,1.5,0.9
2023-06-16T09:00:00,1618A,118.3429,35.0532,临沂市,沂河小区,颗粒物(PM10),67,83,59,40,22,251,90,69,66,27,19,30,15,0.5,0.3
2023-06-16T09:00:00,1619A,118.295,35.0583,临沂市,鲁南制药厂,,,,,,,,,,,,,,,,
2023-06-16T09:00:00,1620A,118.2794,34.9976,临沂市,新光毛纺厂,颗粒物(PM10),67,83,59,40,25,256,82,71,63,33,27,22,12,0.5,0.4
2023-06-16T09:00:00,1621A,118.3956,35.0888,临沂市,河东保险公司,颗粒物(PM10),60,70,49,39,23,255,85,68,52,26,23,22,14,0.4,0.4
2023-06-16T09:00:00,1622A,116.3032,37.4674,德州市,儿童乐园,颗粒物(PM10),69,88,77,36,27,272,156,143,131,26,22,13,11,0.5,0.5
2023-06-16T09:00:00,1624A,116.2991,37.4451,德州市,监理站,颗粒物(PM10),76,101,91,31,24,261,148,140,123,23,22,12,10,0.5,0.5
2023-06-16T09:00:00,1625A,115.9848,36.4372,聊城市,区政府,颗粒物(PM10),66,81,75,38,27,272,119,143,107,24,18,15,14,0.6,0.5
2023-06-16T09:00:00,1628A,118.0062,37.3803,滨州市,市环保局,颗粒物(PM10),78,105,75,51,32,258,160,145,108,43,32,22,11,0.8,0.5
2023-06-16T09:00:00,1629A,118.0018,37.3617,滨州市,第二水厂,颗粒物(PM10),76,102,81,46,29,265,166,153,96,43,34,21,10,0.9,0.7
2023-06-16T09:00:00,1630A,117.9776,37.393,滨州市,北中新校,颗粒物(PM10),71,92,71,40,30,271,165,144,117,40,31,12,9,0.8,0.6
2023-06-16T09:00:00,1631A,118.0414,36.8103,淄博市,人民公园,臭氧1小时,90,78,48,34,23,234,192,212,180,26,17,24,15,0.8,0.5
2023-06-16T09:00:00,1633A,117.8525,36.4847,淄博市,双山,臭氧1小时,69,73,51,36,25,228,175,199,158,23,16,28,15,1.5,0.7
2023-06-16T09:00:00,1634A,117.9592,36.6331,淄博市,气象站,臭氧1小时,83,74,52,29,24,224,186,212,186,17,12,13,8,0.4,0.2
2023-06-16T09:00:00,1635A,118.3092,36.8194,淄博市,莆田园,臭氧1小时,105,80,60,36,30,257,209,194,194,32,29,26,16,1.1,0.9
2023-06-16T09:00:00,1637A,117.558,34.8438,枣庄市,市中区政府,颗粒物(PM10),86,122,85,51,34,288,93,116,80,40,28,35,20,0.7,0.5
2023-06-16T09:00:00,1638A,117.2852,34.7837,枣庄市,薛城环保局,颗粒物(PM10),81,112,87,46,36,259,92,133,70,43,34,19,15,0.8,0.6
2023-06-16T09:00:00,1639A,117.5852,34.7745,枣庄市,峄城区政府,,,,82,,29,282,,114,59,,28,53,23,0.7,0.7
2023-06-16T09:00:00,1640A,117.7276,34.5578,枣庄市,台儿庄区环保局,颗粒物(PM10),65,80,67,44,34,270,74,70,47,40,33,16,13,0.7,0.6
2023-06-16T09:00:00,1641A,117.4518,35.0992,枣庄市,山亭区环保局,颗粒物(PM10),65,80,64,44,32,273,122,150,113,26,20,19,15,0.6,0.4
2023-06-16T09:00:00,1642A,121.2514,37.5639,烟台市,开发区,臭氧1小时,52,46,23,17,12,161,161,126,126,16,16,4,3,0.6,0.6
2023-06-16T09:00:00,1643A,121.3719,37.5433,烟台市,轴承厂,,47,34,28,8,8,171,148,125,125,9,7,1,2,0.4,0.4
2023-06-16T09:00:00,1644A,121.3181,37.5436,烟台市,西郊化工站,,48,44,33,14,11,173,151,133,133,7,9,3,3,0.5,0.5
2023-06-16T09:00:00,1645A,121.4478,37.4822,烟台市,莱山环保局,,48,48,25,13,12,160,117,103,103,12,5,4,4,0.4,0.4
2023-06-16T09:00:00,1646A,121.2611,37.4967,烟台市,福山环保局,臭氧1小时,54,53,35,14,12,167,163,116,116,12,14,5,5,0.2,0.1
2023-06-16T09:00:00,1650A,119.1437,36.7023,潍坊市,环保局,颗粒物(PM10),64,78,50,32,22,240,111,101,96,24,16,11,9,0.8,0.4
2023-06-16T09:00:00,1653A,116.6251,35.4302,济宁市,火炬城,颗粒物(PM10),73,95,61,36,27,269,113,124,106,26,17,15,13,0.9,0.6
2023-06-16T09:00:00,1655A,116.5491,35.4042,济宁市,电化厂,颗粒物(PM10),68,86,74,39,31,270,132,120,110,18,20,15,13,0.9,0.6
2023-06-16T09:00:00,1656A,117.1437,36.1937,泰安市,监测站,颗粒物(PM10),71,92,63,40,30,273,141,151,122,18,14,16,11,0.7,0.4
2023-06-16T09:00:00,1657A,117.0885,36.2017,泰安市,人口学校,颗粒物(PM10),71,92,61,31,27,262,148,197,137,23,15,17,13,0.7,0.4
2023-06-16T09:00:00,1658A,117.1089,36.1758,泰安市,电力学校,颗粒物(PM10),71,92,62,36,25,249,134,177,112,19,14,17,14,0.6,0.3
2023-06-16T09:00:00,1659A,119.471,35.4209,日照市,监测站,,36,36,26,21,15,164,91,112,90,36,25,8,6,0.6,0.6
2023-06-16T09:00:00,1660A,119.523,35.4216,日照市,市政府广场,,41,41,24,20,15,149,109,114,105,11,8,6,6,0.4,0.4
2023-06-16T09:00:00,1661A,119.5587,35.4044,日照市,港务局,,40,24,22,11,11,137,125,123,112,5,6,6,6,0.4,0.4
2023-06-16T09:00:00,1662A,122.1214,37.4236,威海市,华夏技校,,40,34,24,15,16,151,125,110,110,15,11,5,4,0.3,0.3
2023-06-16T09:00:00,1663A,122.0508,37.5236,威海市,山大分校,,46,39,25,12,10,158,146,141,134,8,5,7,6,0.3,0.2
2023-06-16T09:00:00,1664A,122.1067,37.5072,威海市,市监测站,臭氧1小时,52,27,23,17,15,161,161,149,149,8,10,2,6,0.4,0.4
2023-06-16T09:00:00,1666A,118.6614,37.4309,东营市,市环保局,颗粒物(PM10),65,80,65,29,24,279,131,99,99,22,14,32,14,0.6,0.6
2023-06-16T09:00:00,1669A,113.5824,24.7733,韶关市,市八中,,18,9,28,10,20,113,56,77,50,8,7,15,9,0.7,0.7
2023-06-16T09:00:00,1671A,113.5917,24.7972,韶关市,园林处,,17,8,25,9,18,94,53,69,53,3,3,12,8,0.7,0.6
2023-06-16T09:00:00,1672A,113.6735,24.7791,韶关市,韶关学院,,19,11,29,5,19,113,58,66,44,11,11,29,9,0.6,0.6
2023-06-16T09:00:00,1673A,113.5971,24.6863,韶关市,曲江监测站,,21,13,34,10,21,122,67,76,36,11,11,17,11,0.7,0.6
2023-06-16T09:00:00,1674A,116.6794,23.3667,汕头市,金平子站,,21,0,21,7,14,123,66,99,84,9,4,3,4,0.9,0.7
2023-06-16T09:00:00,1675A,116.7244,23.3633,汕头市,龙湖子站,,24,9,19,2,10,134,75,110,96,17,10,3,3,0.9,0.8
2023-06-16T09:00:00,1676A,116.7258,23.2775,汕头市,濠江子站,,,,19,1,11,126,,106,88,10,7,7,7,0.8,0.7
2023-06-16T09:00:00,1677A,116.7519,23.4714,汕头市,澄海子站,,23,13,19,9,16,135,72,106,89,20,11,4,4,0.7,0.6
2023-06-16T09:00:00,1678A,116.6092,23.2539,汕头市,潮阳子站,,22,4,30,2,7,124,70,107,85,14,7,9,8,0.7,0.6
2023-06-16T09:00:00,1680A,110.3539,21.2706,湛江市,湛江影剧院,,30,30,23,11,11,70,56,49,49,12,16,7,9,0.8,0.7
2023-06-16T09:00:00,1681A,110.3928,21.2228,湛江市,市环境监测站,,20,13,17,10,10,74,64,55,52,9,17,6,7,0.5,0.5
2023-06-16T09:00:00,1682A,110.4019,21.1997,湛江市,环保局宿舍,,20,20,19,9,10,76,59,50,50,11,20,7,7,0.6,0.5
2023-06-16T09:00:00,1683A,110.4111,21.2028,湛江市,霞山游泳场,,23,12,14,10,9,78,71,77,66,7,13,6,8,0.7,0.7
2023-06-16T09:00:00,1684A,110.3316,21.2679,湛江市,麻章区环保局,,22,22,25,12,13,67,42,42,42,23,18,6,7,0.8,0.6
2023-06-16T09:00:00,1685A,110.4558,21.2567,湛江市,坡头区环保局,,21,14,16,11,8,83,67,74,63,6,11,6,7,0.4,0.4
2023-06-16T09:00:00,1686A,111.0286,21.4688,茂名市,电白南海,,24,24,22,12,15,83,68,83,76,7,9,4,4,0.6,0.6
2023-06-16T09:00:00,1687A,110.9294,21.6533,茂名市,茂石化七小,,30,26,21,21,14,86,34,67,42,17,11,7,7,1.0,0.7
2023-06-16T09:00:00,1688A,110.9107,21.6687,茂名市,健康路,,22,22,12,6,6,85,35,76,47,18,8,6,5,1.2,0.7
2023-06-16T09:00:00,1689A,110.8592,21.6828,茂名市,高岭,,28,27,24,19,16,81,44,52,37,18,16,5,4,0.6,0.6
2023-06-16T09:00:00,1690A,116.1231,24.3284,梅州市,梅江月梅,,25,25,15,4,6,76,47,75,61,10,6,4,2,0.5,0.5
2023-06-16T09:00:00,1691A,116.0797,24.2719,梅州市,梅县新城,,18,18,15,9,7,81,53,67,59,14,12,6,5,0.8,0.6
2023-06-16T09:00:00,1692A,116.1248,24.2654,梅州市,环境监控中心,,,,16,,9,76,54,72,63,,11,4,3,,0.6
2023-06-16T09:00:00,1693A,115.3653,22.775,汕尾市,市环保局,,,,8,4,3,87,67,72,72,12,6,7,7,0.8,0.6
2023-06-16T09:00:00,1694A,115.3706,22.7898,汕尾市,市政府,,21,6,8,2,5,92,65,70,70,11,7,4,4,0.6,0.5
2023-06-16T09:00:00,1695A,115.3622,22.7925,汕尾市,新城中学,,25,10,7,4,5,95,77,76,76,6,4,5,5,0.7,0.6
2023-06-16T09:00:00,1696A,114.6778,23.7569,河源市,源西,,17,3,12,6,9,64,53,28,28,8,14,4,4,0.8,0.7
2023-06-16T09:00:00,1697A,114.6944,23.7586,河源市,东埔,,17,0,14,0,7,67,52,49,46,9,10,5,4,0.8,0.7
2023-06-16T09:00:00,1698A,114.6892,23.7233,河源市,老城,,16,10,24,1,8,68,49,45,44,7,8,4,4,0.7,0.7
2023-06-16T09:00:00,1699A,111.9797,21.8593,阳江市,鸳鸯湖,,21,0,21,8,14,121,67,57,56,8,11,8,10,0.7,0.8
2023-06-16T09:00:00,1701A,111.9491,21.8658,阳江市,马南垌,,20,0,25,11,14,126,63,54,46,14,15,4,6,0.8,0.6
2023-06-16T09:00:00,1702A,113.0426,23.691,清远市,环保大楼,,22,22,23,13,17,116,47,51,47,9,6,7,7,0.6,0.6
2023-06-16T09:00:00,1703A,113.0208,23.7106,清远市,凤城街办,,25,25,26,16,18,106,41,50,43,12,6,5,4,0.7,0.6
2023-06-16T09:00:00,1705A,116.6367,23.6719,潮州市,西园路,,20,6,18,4,12,105,62,92,75,7,6,4,5,0.4,0.2
2023-06-16T09:00:00,1706A,116.6447,23.6706,潮州市,档案局,,23,5,18,2,10,118,71,100,82,7,5,5,5,0.6,0.4
2023-06-16T09:00:00,1708A,116.3701,23.5345,揭阳市,新兴,,19,5,23,9,16,114,59,90,72,12,11,7,6,0.8,0.7
2023-06-16T09:00:00,1709A,116.3264,23.5443,揭阳市,西马,,22,22,23,6,15,115,60,89,70,11,9,8,8,0.9,0.8
2023-06-16T09:00:00,1710A,116.3611,23.5626,揭阳市,东兴,,22,22,27,8,14,116,62,86,71,15,14,4,6,0.9,0.8
2023-06-16T09:00:00,1711A,116.4151,23.5294,揭阳市,渔湖,,,12,22,17,14,115,53,93,69,,8,5,4,0.8,0.8
2023-06-16T09:00:00,1712A,112.0392,22.9169,云浮市,新市府,,28,28,28,18,18,108,77,69,48,7,4,3,3,0.7,0.7
2023-06-16T09:00:00,1714A,112.0539,22.9539,云浮市,牧羊,颗粒物(PM10),58,66,38,24,19,124,30,100,34,30,18,8,12,0.8,0.6
2023-06-16T09:00:00,1715A,102.575,24.3711,玉溪市,东风水库,,17,17,19,10,7,80,47,44,44,13,10,10,8,0.8,0.7
2023-06-16T09:00:00,1718A,115.4208,35.2464,菏泽市,气象局,颗粒物(PM10),67,83,71,39,30,223,101,121,102,22,19,15,9,0.6,0.4
2023-06-16T09:00:00,1719A,115.4747,35.2375,菏泽市,市政协,,,,60,,26,225,86,133,105,,14,14,10,0.4,0.2
2023-06-16T09:00:00,1721A,113.3819,40.1097,大同市,果树场,颗粒物(PM10),62,73,53,33,28,197,153,123,100,32,28,14,13,0.6,0.4
2023-06-16T09:00:00,1723A,113.2994,40.0758,大同市,云冈宾馆,颗粒物(PM10),67,84,82,26,28,205,162,141,76,34,34,16,12,1.0,0.7
2023-06-16T09:00:00,1724A,113.3444,40.0917,大同市,大同大学,臭氧1小时,77,81,57,20,19,200,181,134,127,20,21,15,14,0.6,0.5
2023-06-16T09:00:00,1725A,113.2661,40.1269,大同市,安家小村,细颗粒物(PM2.5),120,108,114,91,31,198,,100,100,28,25,23,16,1.5,0.6
2023-06-16T09:00:00,1726A,113.2711,40.0844,大同市,教育学院,颗粒物(PM10),77,104,91,43,32,195,160,101,70,33,39,20,15,1.1,0.7
2023-06-16T09:00:00,1727A,113.1147,36.1547,长治市,清华站,,44,36,34,12,14,196,140,140,133,13,12,6,7,0.6,0.6
2023-06-16T09:00:00,1728A,113.1031,36.1989,长治市,监测站,,,52,39,22,16,201,,160,116,22,16,10,10,1.7,1.1
2023-06-16T09:00:00,1730A,113.0886,36.2125,长治市,审计局,,42,42,36,19,16,191,131,154,130,20,15,12,12,1.0,0.9
2023-06-16T09:00:00,1731A,113.0844,36.1856,长治市,长治八中,颗粒物(PM10),54,57,42,28,16,201,123,160,130,22,12,8,9,0.6,0.6
2023-06-16T09:00:00,1733A,111.5531,36.0783,临汾市,临钢医院,颗粒物(PM10),78,105,63,36,26,210,105,85,69,19,22,2,2,0.8,0.8
2023-06-16T09:00:00,1734A,111.5028,36.0714,临汾市,技工学校,颗粒物(PM10),60,70,60,22,18,215,118,100,100,20,20,6,5,0.6,0.5
2023-06-16T09:00:00,1736A,111.5018,36.0855,临汾市,市委,颗粒物(PM10),54,58,56,32,19,222,125,105,105,18,19,4,4,0.7,0.7
2023-06-16T09:00:00,1738A,113.5758,37.8572,阳泉市,市中心,颗粒物(PM10),58,66,60,18,21,240,86,30,30,67,57,19,16,1.1,0.9
2023-06-16T09:00:00,1739A,113.4894,37.8731,阳泉市,赛鱼,,46,46,51,15,19,227,106,29,29,48,68,10,10,0.7,0.7
2023-06-16T09:00:00,1740A,113.5819,37.8486,阳泉市,南庄,颗粒物(PM10),69,88,75,23,26,241,104,89,78,59,32,24,19,0.9,0.8
2023-06-16T09:00:00,1742A,113.5614,37.8703,阳泉市,平坦,颗粒物(PM10),58,65,56,36,22,235,103,42,40,57,61,19,15,0.9,0.8
2023-06-16T09:00:00,1743A,113.5158,37.8392,阳泉市,大阳泉,,50,50,36,22,23,244,136,174,166,25,13,14,12,0.7,0.6
2023-06-16T09:00:00,1744A,118.9233,42.2816,赤峰市,松山一中,臭氧1小时,116,59,43,23,20,231,231,178,178,41,36,16,16,0.9,0.7
2023-06-16T09:00:00,1745A,118.9576,42.2728,赤峰市,哈达街,臭氧1小时,125,78,60,45,26,249,249,194,194,38,33,22,20,1.1,0.9
2023-06-16T09:00:00,1746A,118.8788,42.2554,赤峰市,天义路,臭氧1小时,123,65,37,20,18,246,246,214,210,30,26,16,15,0.8,0.5
2023-06-16T09:00:00,1748A,123.044,41.1196,鞍山市,深沟寺,,46,24,31,13,17,230,145,128,128,10,12,8,10,0.4,0.5
2023-06-16T09:00:00,1749A,123.011,41.0931,鞍山市,太阳城,臭氧1小时,55,24,26,12,13,229,164,148,148,11,14,10,11,0.6,0.8
2023-06-16T09:00:00,1750A,123.0485,41.1442,鞍山市,太平,,39,32,31,12,15,208,124,123,116,22,20,8,10,0.6,0.8
2023-06-16T09:00:00,1751A,122.9642,41.0971,鞍山市,铁西三道街,,50,48,42,14,17,232,158,129,129,16,21,6,8,0.8,0.8
2023-06-16T09:00:00,1752A,122.9341,41.0833,鞍山市,铁西工业园区,,47,33,43,12,17,219,149,117,117,10,22,9,12,0.7,0.9
2023-06-16T09:00:00,1753A,123.022,41.0821,鞍山市,明达新区,,48,22,32,13,15,223,153,150,150,15,14,7,9,0.4,0.6
2023-06-16T09:00:00,1754A,123.1289,41.0228,鞍山市,千山,,,,,,,,,,,,,,,,
2023-06-16T09:00:00,1755A,123.7977,41.8491,抚顺市,望花区,,44,42,49,12,21,219,140,103,103,15,26,10,15,0.4,0.6
2023-06-16T09:00:00,1756A,123.9161,41.8822,抚顺市,顺城区,,42,35,49,11,25,219,134,96,65,16,29,7,12,0.6,0.9
2023-06-16T09:00:00,1757A,124.0436,41.8611,抚顺市,东洲区,,44,35,45,13,23,242,138,109,109,10,18,5,10,0.6,0.7
2023-06-16T09:00:00,1758A,123.9247,41.8642,抚顺市,新抚区,,45,42,50,12,24,230,142,72,72,13,24,10,12,0.4,0.8
2023-06-16T09:00:00,1759A,124.0972,41.8961,抚顺市,大伙房水库,,41,22,38,10,21,222,130,90,90,5,15,5,9,0.3,0.7
2023-06-16T09:00:00,1760A,123.7086,41.8391,抚顺市,沈抚新城,,38,32,40,13,18,224,120,85,85,16,25,14,16,0.6,0.7
2023-06-16T09:00:00,1761A,123.8275,41.3064,本溪市,大峪,,43,26,24,9,10,166,136,96,96,14,17,6,6,0.3,0.4
2023-06-16T09:00:00,1762A,123.7567,41.3325,本溪市,溪湖,,41,25,27,7,14,194,130,117,108,14,24,8,20,0.6,1.1
2023-06-16T09:00:00,1763A,123.7169,41.3094,本溪市,彩屯,颗粒物(PM10),52,54,43,26,24,181,80,69,58,52,43,66,31,3.1,2.6
2023-06-16T09:00:00,1764A,123.7669,41.2864,本溪市,东明,,42,39,28,10,12,167,132,130,127,11,13,9,10,0.5,0.6
2023-06-16T09:00:00,1765A,123.7992,41.2664,本溪市,新立屯,,39,34,27,10,13,152,124,122,119,8,17,7,8,0.6,0.6
2023-06-16T09:00:00,1766A,123.8142,41.3472,本溪市,威宁,,36,31,33,8,13,156,115,66,66,14,18,7,6,0.4,0.5
2023-06-16T09:00:00,1767A,121.1115,41.0879,锦州市,南山,,35,35,36,24,25,193,101,118,100,18,17,9,15,0.6,0.6
2023-06-16T09:00:00,1768A,121.0533,40.8434,锦州市,开发区,,40,35,49,13,20,199,128,139,113,15,19,7,29,0.5,0.5
2023-06-16T09:00:00,1769A,121.1836,41.1119,锦州市,百股街道,,42,42,31,22,18,197,110,134,109,19,15,40,16,0.6,0.5
2023-06-16T09:00:00,1770A,121.1178,41.1222,锦州市,天安街道,,43,43,39,14,17,183,96,115,98,26,21,10,15,0.8,0.7
2023-06-16T09:00:00,1771A,121.1303,41.1386,锦州市,北湖公园,颗粒物(PM10),52,53,36,21,22,193,98,122,103,17,15,8,14,0.7,0.6
2023-06-16T09:00:00,1772A,126.54,43.8622,吉林市,哈达湾,,43,20,47,14,26,220,137,81,74,20,35,7,6,0.6,0.7
2023-06-16T09:00:00,1773A,126.5844,43.8358,吉林市,东局子,,44,23,37,13,23,212,138,113,93,21,28,6,6,0.8,0.8
2023-06-16T09:00:00,1774A,126.5052,43.8245,吉林市,电力学院,,42,23,51,12,31,220,132,37,37,24,49,8,8,0.6,0.7
2023-06-16T09:00:00,1775A,126.6133,43.8972,吉林市,江北,,43,31,46,13,22,215,136,115,93,25,27,7,7,0.7,0.8
2023-06-16T09:00:00,1776A,126.555,43.8306,吉林市,江南公园,,44,22,36,15,25,217,140,103,86,21,28,5,5,0.6,0.7
2023-06-16T09:00:00,1778A,126.7061,43.7133,吉林市,丰满,,,,,,,,,,,,,,,,
2023-06-16T09:00:00,1779A,123.9305,47.3636,齐齐哈尔市,安居小区,,,22,26,8,11,153,,37,35,8,11,2,3,0.3,0.4
2023-06-16T09:00:00,1780A,123.9488,47.3386,齐齐哈尔市,中心广场,,15,8,18,8,5,148,45,39,37,16,12,7,8,0.4,0.3
2023-06-16T09:00:00,1781A,123.9483,47.3227,齐齐哈尔市,农牧车辆厂,,27,27,28,2,8,149,46,41,38,16,12,6,6,0.2,0.2
2023-06-16T09:00:00,1783A,123.945,47.2988,齐齐哈尔市,市环境监测站,,18,18,19,2,14,152,51,42,39,12,11,6,7,0.4,0.4
2023-06-16T09:00:00,1784A,129.61,44.561,牡丹江市,环保大楼,,28,21,28,14,15,164,88,43,40,26,26,5,5,0.4,0.4
2023-06-16T09:00:00,1785A,129.6115,44.5782,牡丹江市,文化广场,,34,34,41,23,29,153,75,51,40,30,36,4,5,0.5,0.6
2023-06-16T09:00:00,1786A,129.5904,44.5963,牡丹江市,第一医院,,32,32,33,6,17,161,65,58,44,34,24,4,4,0.4,0.5
2023-06-16T09:00:00,1787A,129.6364,44.6075,牡丹江市,机车工厂,,,,32,,11,162,,60,44,28,19,3,4,0.6,0.6
2023-06-16T09:00:00,1788A,129.6386,44.5462,牡丹江市,第一中学,,33,32,31,9,12,160,103,39,39,19,27,4,4,0.4,0.4
2023-06-16T09:00:00,1789A,124.81117,46.03138,大庆市,大同区,,38,38,44,13,18,171,64,127,62,18,14,6,7,0.3,0.4
2023-06-16T09:00:00,1790A,125.129,46.533,大庆市,龙凤区,,,28,35,12,12,166,,91,33,,16,,6,,0.3
2023-06-16T09:00:00,1791A,124.902,46.408,大庆市,红岗区,,28,28,30,13,19,181,55,105,36,16,15,4,4,0.3,0.4
2023-06-16T09:00:00,1792A,125.153,46.586,大庆市,萨尔图区,,23,18,33,16,19,163,54,90,36,21,19,5,6,0.2,0.3
2023-06-16T09:00:00,1793A,124.9042,46.6215,大庆市,让胡路区,,,18,28,5,12,173,,64,29,,15,,6,,0.3
2023-06-16T09:00:00,1794A,118.3606,31.3519,芜湖市,监测站,细颗粒物(PM2.5),69,70,56,50,37,255,139,147,117,34,28,7,7,1.0,0.9
2023-06-16T09:00:00,1795A,118.3714,31.4134,芜湖市,科创中心,细颗粒物(PM2.5),68,76,68,49,40,252,123,94,94,30,35,10,11,1.0,1
2023-06-16T09:00:00,1796A,118.3673,31.3131,芜湖市,四水厂,细颗粒物(PM2.5),65,65,60,47,35,253,135,132,101,28,27,15,12,1.0,0.8
2023-06-16T09:00:00,1798A,118.5092,31.6837,马鞍山市,湖东路四小,细颗粒物(PM2.5),65,57,56,47,39,232,156,138,138,25,18,9,10,0.8,0.8
2023-06-16T09:00:00,1799A,118.5024,31.6449,马鞍山市,开发区,细颗粒物(PM2.5),65,73,75,47,42,229,118,112,112,41,26,8,8,0.7,0.6
2023-06-16T09:00:00,1800A,118.5228,31.7231,马鞍山市,慈湖,颗粒物(PM10),71,92,67,39,37,231,134,147,136,36,23,12,12,0.8,0.9
2023-06-16T09:00:00,1802A,118.6245,31.7241,马鞍山市,濮塘,,43,42,47,30,33,241,128,168,134,14,12,8,8,0.7,0.8
2023-06-16T09:00:00,1803A,115.9872,29.6815,九江市,十里,,50,45,46,35,27,177,83,147,99,18,19,9,11,0.7,0.7
2023-06-16T09:00:00,1804A,115.9584,29.7046,九江市,茅山头,,50,50,46,29,26,179,49,104,76,50,27,10,11,0.9,0.7
2023-06-16T09:00:00,1805A,115.9877,29.7295,九江市,西园,颗粒物(PM10),52,54,54,32,29,191,85,88,86,20,34,9,13,0.7,0.6
2023-06-16T09:00:00,1806A,116.0172,29.6547,九江市,五七二七厂,,,35,37,24,24,164,,106,97,,13,,9,,0.6
2023-06-16T09:00:00,1808A,115.9114,29.6038,九江市,综合工业园,颗粒物(PM10),55,60,43,34,28,177,39,67,53,58,44,12,11,1.0,0.8
2023-06-16T09:00:00,1809A,116.0721,29.7535,九江市,石化总厂,,48,48,57,29,26,158,50,42,42,23,38,15,14,0.7,0.7
2023-06-16T09:00:00,1810A,115.9773,29.5698,九江市,庐山气象台,颗粒物(PM10),52,54,30,29,22,174,104,154,136,6,4,6,6,0.9,0.7
2023-06-16T09:00:00,1812A,112.3931,34.6516,洛阳市,市委党校,,48,45,37,29,24,197,151,141,141,11,9,4,4,0.4,0.3
2023-06-16T09:00:00,1814A,112.4657,34.6871,洛阳市,豫西宾馆,,47,43,41,19,20,196,148,122,121,8,13,1,5,0.6,0.4
2023-06-16T09:00:00,1815A,112.494,34.6886,洛阳市,河南林校,,45,40,32,21,18,191,141,135,118,13,13,6,8,0.4,0.4
2023-06-16T09:00:00,1816A,112.3844,34.623,洛阳市,开发区管委会,,46,46,37,22,20,182,131,115,112,18,13,5,5,0.4,0.3
2023-06-16T09:00:00,1817A,112.4267,34.6258,洛阳市,市委新办公区,,45,39,36,29,22,200,142,130,130,14,14,1,5,0.4,0.4
2023-06-16T09:00:00,1818A,114.4839,36.0621,安阳市,棉研所,细颗粒物(PM2.5),108,77,60,81,27,230,67,84,48,44,29,18,10,0.7,0.5
2023-06-16T09:00:00,1819A,114.3551,36.1017,安阳市,红庙街,,,100,59,23,18,222,,126,76,56,19,11,10,0.6,0.4
2023-06-16T09:00:00,1820A,114.361,36.0681,安阳市,银杏小区,颗粒物(PM10),73,96,61,47,26,217,39,102,53,67,27,9,14,0.7,0.5
2023-06-16T09:00:00,1824A,114.3389,34.7781,开封市,肿瘤医院,颗粒物(PM10),80,110,57,37,24,217,109,96,70,20,18,10,8,0.5,0.3
2023-06-16T09:00:00,1826A,114.2885,34.7965,开封市,世纪星幼儿园,颗粒物(PM10),63,76,56,38,25,208,112,100,81,33,22,6,4,0.7,0.5
2023-06-16T09:00:00,1828A,113.227,35.2125,焦作市,市环保局,颗粒物(PM10),60,69,45,24,20,216,104,124,112,39,23,28,12,0.9,0.4
2023-06-16T09:00:00,1830A,113.1992,35.2590,焦作市,影视城,,40,14,26,12,16,206,126,136,127,10,10,14,9,0.8,0.6
2023-06-16T09:00:00,1832A,113.3257,33.742,平顶山市,新华旅馆,颗粒物(PM10),78,105,56,39,26,197,83,131,102,53,19,10,4,1.1,0.5
2023-06-16T09:00:00,1833A,113.2919,33.737,平顶山市,规划设计院,颗粒物(PM10),69,88,45,37,22,202,113,134,132,50,16,12,8,0.9,0.4
2023-06-16T09:00:00,1834A,113.182,33.774,平顶山市,平顶山工学院,颗粒物(PM10),62,73,39,29,18,201,122,132,122,34,13,5,4,0.6,0.4
2023-06-16T09:00:00,1835A,111.1922,34.7752,三门峡市,市政府,颗粒物(PM10),54,58,37,20,15,175,120,100,78,17,23,10,7,0.7,0.5
2023-06-16T09:00:00,1836A,111.1587,34.7942,三门峡市,开发区,,,57,41,20,16,179,112,101,90,18,19,,8,0.6,0.5
2023-06-16T09:00:00,1838A,111.143,34.7955,三门峡市,风景区,,48,48,35,31,18,182,114,96,96,13,11,14,10,0.5,0.3
2023-06-16T09:00:00,1840A,111.2992,30.6981,宜昌市,白龙岗,,22,22,39,12,24,161,66,70,62,27,30,5,6,0.3,0.4
2023-06-16T09:00:00,1841A,111.3549,30.6465,宜昌市,伍家岗,,36,23,40,12,27,172,114,75,75,15,35,6,7,0.5,0.6
2023-06-16T09:00:00,1842A,111.2628,30.6961,宜昌市,点军区,,,,44,,22,154,,55,47,18,26,7,7,0.4,0.5
2023-06-16T09:00:00,1843A,111.3275,30.7819,宜昌市,夷陵区,,25,24,49,17,28,168,72,67,61,15,24,3,4,0.4,0.5
2023-06-16T09:00:00,1844A,112.2494,30.3197,荆州市,市图书馆,,37,32,55,12,38,211,116,88,88,18,21,6,6,0.8,0.8
2023-06-16T09:00:00,1845A,112.2008,30.3544,荆州市,市委党校,,36,27,57,20,35,196,114,91,91,13,14,8,9,0.6,0.7
2023-06-16T09:00:00,1847A,113.1094,29.3578,岳阳市,南湖风景区,细颗粒物(PM2.5),52,37,40,36,34,167,85,120,100,17,10,8,7,0.9,0.7
2023-06-16T09:00:00,1848A,113.1493,29.4251,岳阳市,城陵矶,,44,44,38,27,28,154,75,80,80,25,20,5,6,0.7,0.7
2023-06-16T09:00:00,1849A,113.1497,29.3575,岳阳市,开发区,,45,45,42,27,27,161,79,124,96,20,9,7,8,0.8,0.7
2023-06-16T09:00:00,1850A,113.2621,29.4758,岳阳市,云溪区,,41,41,37,15,27,149,69,55,55,17,16,6,6,0.7,0.6
2023-06-16T09:00:00,1851A,112.9943,29.4402,岳阳市,君山区,,48,37,40,33,34,168,78,94,87,12,16,5,6,0.5,0.5
2023-06-16T09:00:00,1852A,113.2117,29.355,岳阳市,金凤水库,,50,45,40,35,29,146,71,64,64,7,9,2,3,0.9,0.8
2023-06-16T09:00:00,1854A,111.6975,28.9703,常德市,市二中,,35,11,38,12,31,153,110,94,94,7,8,6,6,0.3,0.5
2023-06-16T09:00:00,1857A,111.7158,29.1456,常德市,白鹤山,,32,0,34,8,27,175,100,108,92,2,4,3,5,0.4,0.5
2023-06-16T09:00:00,1858A,110.5319,29.1217,张家界市,永定新区,,33,5,19,6,14,136,103,118,116,9,10,4,4,0.1,0.2
2023-06-16T09:00:00,1859A,110.4697,29.1242,张家界市,电业局,,31,25,28,10,19,141,98,118,115,17,10,4,4,0.2,0.1
2023-06-16T09:00:00,1860A,110.5594,29.3547,张家界市,未央路,,24,19,32,7,15,124,74,95,89,16,12,3,3,0.2,0.2
2023-06-16T09:00:00,1861A,110.4417,29.315,张家界市,袁家界,,33,9,18,4,14,130,103,108,101,3,10,7,7,0.6,0.6
2023-06-16T09:00:00,1862A,110.4144,25.3167,桂林市,电子科大尧山校区,颗粒物(PM10),56,61,40,37,28,127,101,104,94,8,6,30,12,0.8,0.7
2023-06-16T09:00:00,1863A,110.2819,25.2697,桂林市,监测站,颗粒物(PM10),51,51,42,18,21,152,81,103,94,12,9,6,7,0.6,0.6
2023-06-16T09:00:00,1864A,110.3089,25.2708,桂林市,龙隐路小学,,43,40,36,30,38,134,82,94,82,12,7,6,7,0.6,0.5
2023-06-16T09:00:00,1865A,110.2869,25.2178,桂林市,八中,颗粒物(PM10),51,51,38,32,26,130,79,90,81,12,9,22,7,0.6,0.6
2023-06-16T09:00:00,1866A,109.2262,21.588,北海市,牛尾岭水库,,21,21,15,6,5,89,46,46,41,5,5,4,4,0.5,0.5
2023-06-16T09:00:00,1867A,109.1436,21.4086,北海市,海滩公园,,32,32,19,7,4,104,61,84,63,4,4,3,3,0.7,0.6
2023-06-16T09:00:00,1868A,109.0981,21.4661,北海市,新市环保局,,,,17,9,5,96,,78,62,7,5,1,1,0.5,0.5
2023-06-16T09:00:00,1869A,109.1778,21.5233,北海市,北海工业园,,27,27,19,12,10,103,52,71,53,6,6,4,4,0.5,0.5
2023-06-16T09:00:00,1870A,109.4856,24.3895,柳州市,柳东小学,,43,43,31,25,30,135,48,78,38,18,12,18,10,0.7,0.6
2023-06-16T09:00:00,1871A,109.4157,24.3277,柳州市,环保监测站,,45,45,38,29,24,132,52,77,68,21,13,4,5,0.8,0.7
2023-06-16T09:00:00,1872A,109.389,24.341,柳州市,河西水厂,,35,35,35,16,22,129,61,84,73,15,13,8,8,0.8,0.6
2023-06-16T09:00:00,1873A,109.4311,24.2921,柳州市,市四中,,37,37,37,18,19,125,51,66,63,18,12,9,8,0.9,0.8
2023-06-16T09:00:00,1874A,109.4006,24.3631,柳州市,市九中,,48,48,41,19,25,131,60,82,77,18,12,7,8,0.8,0.7
2023-06-16T09:00:00,1875A,109.4958,24.3134,柳州市,古亭山,,31,31,33,17,21,118,58,60,47,13,14,2,3,0.7,0.6
2023-06-16T09:00:00,1876A,109.5078,18.2489,三亚市,河东子站,,,28,23,10,10,69,,52,31,13,10,3,2,0.5,0.4
2023-06-16T09:00:00,1877A,109.4964,18.2681,三亚市,河西子站,,25,25,24,10,9,71,27,38,22,17,12,4,2,0.4,0.4
2023-06-16T09:00:00,1878A,104.7778,31.4741,绵阳市,富乐山,,29,22,20,20,15,125,64,86,66,7,8,3,3,0.5,0.4
2023-06-16T09:00:00,1879A,104.7563,31.4535,绵阳市,市人大,,28,25,22,19,15,118,62,94,82,16,10,9,8,0.4,0.4
2023-06-16T09:00:00,1880A,104.6697,31.4668,绵阳市,高新区自来水公司,,48,28,22,33,22,125,68,93,84,18,12,6,6,0.6,0.5
2023-06-16T09:00:00,1881A,104.7287,31.5075,绵阳市,三水厂,,28,22,23,19,17,135,68,98,86,10,10,5,5,0.5,0.4
2023-06-16T09:00:00,1882A,104.563,28.793,宜宾市,石马中学,,30,30,23,16,13,105,38,76,57,29,11,2,2,0.6,0.5
2023-06-16T09:00:00,1883A,104.6201,28.7728,宜宾市,市委,,24,18,26,15,20,92,76,68,61,19,23,6,6,0.5,0.4
2023-06-16T09:00:00,1884A,104.6055,28.793,宜宾市,宜宾四中,,29,25,30,20,24,100,56,74,60,26,16,8,5,0.6,0.5
2023-06-16T09:00:00,1885A,104.639,28.7562,宜宾市,市政府,,22,18,25,15,21,99,66,81,65,22,16,8,6,0.6,0.5
2023-06-16T09:00:00,1886A,104.5742,28.7199,宜宾市,黄金嘴,,28,22,24,19,19,106,59,65,54,19,16,4,4,0.5,0.5
2023-06-16T09:00:00,1888A,101.6891,26.571,攀枝花市,弄弄坪,颗粒物(PM10),64,77,44,41,24,100,18,34,18,30,17,21,11,2.3,0.9
2023-06-16T09:00:00,1889A,101.5769,26.5928,攀枝花市,河门口,颗粒物(PM10),58,66,44,39,28,112,26,30,20,27,27,20,21,1.8,1.9
2023-06-16T09:00:00,1890A,101.7169,26.585,攀枝花市,炳草岗,颗粒物(PM10),68,85,44,43,23,105,12,7,4,39,31,8,7,2.0,1.3
2023-06-16T09:00:00,1891A,101.7369,26.5008,攀枝花市,仁和,,50,50,40,32,26,121,24,21,11,17,15,9,9,1.1,0.9
2023-06-16T09:00:00,1893A,105.4324,28.9634,泸州市,九狮山,,36,36,29,15,15,78,32,52,42,19,20,5,5,0.6,0.6
2023-06-16T09:00:00,1894A,105.4427,28.9063,泸州市,小市上码头,,39,39,35,24,21,76,39,62,51,15,14,5,5,0.8,0.7
2023-06-16T09:00:00,1895A,105.4241,28.8573,泸州市,兰田宪桥,,46,45,40,32,25,79,36,55,46,17,13,9,7,0.8,0.8
2023-06-16T09:00:00,1896A,105.4379,28.8833,泸州市,市环监站,,,,36,,19,72,,57,52,24,21,6,4,0.7,0.6
2023-06-16T09:00:00,1901A,104.4239,31.1208,德阳市,东山公园,,,,16,,13,115,68,70,65,8,7,1,1,,0.4
2023-06-16T09:00:00,1902A,104.3826,31.1317,德阳市,西小区,,34,34,30,22,17,111,72,99,79,8,7,3,3,0.5,0.4
2023-06-16T09:00:00,1904A,104.3553,31.1091,德阳市,耐火材料厂,,32,25,22,22,19,124,77,100,85,7,6,3,3,0.4,0.4
2023-06-16T09:00:00,1905A,106.056,30.8064,南充市,西山风景区,,45,45,39,13,15,111,70,78,77,8,7,5,5,0.4,0.4
2023-06-16T09:00:00,1906A,106.0789,30.8023,南充市,南充市委,,27,27,23,5,14,115,67,94,82,21,12,8,8,0.5,0.4
2023-06-16T09:00:00,1907A,106.1031,30.8217,南充市,南充炼油厂,,,29,29,15,12,125,,93,80,,10,8,10,0.3,0.3
2023-06-16T09:00:00,1908A,106.1064,30.7856,南充市,高坪区监测站,,29,28,28,20,14,114,70,89,81,20,12,8,8,0.5,0.4
2023-06-16T09:00:00,1909A,106.0642,30.7636,南充市,嘉陵区环保局,,35,25,23,24,17,110,65,93,81,29,17,8,7,0.5,0.3
2023-06-16T09:00:00,1910A,106.1087,30.8388,南充市,市环境监测站,,33,33,23,14,19,124,62,90,76,19,13,8,9,0.3,0.2
2023-06-16T09:00:00,1911A,106.9222,27.6869,遵义市,丁字口,,22,22,18,11,14,87,63,78,74,26,18,3,3,0.9,0.8
2023-06-16T09:00:00,1912A,106.9242,27.7019,遵义市,凤凰山,,22,17,19,9,18,106,69,86,79,22,14,7,7,0.5,0.5
2023-06-16T09:00:00,1913A,106.8906,27.6486,遵义市,忠庄,,32,22,22,22,18,96,61,92,76,25,12,2,2,0.8,0.6
2023-06-16T09:00:00,1914A,106.9231,27.6506,遵义市,舟水桥,,33,21,21,23,19,92,50,87,72,27,10,1,2,0.7,0.5
2023-06-16T09:00:00,1915A,106.9178,27.72,遵义市,干田坝,,25,24,23,6,16,100,77,98,93,15,13,5,5,0.6,0.7
2023-06-16T09:00:00,1916A,103.7897,25.5035,曲靖市,环境监测站,,30,30,24,12,12,76,48,35,31,17,14,7,8,0.9,0.9
2023-06-16T09:00:00,1917A,103.8,25.5364,曲靖市,烟厂办公区,,29,29,20,10,11,81,49,42,41,15,12,4,4,0.6,0.6
2023-06-16T09:00:00,1918A,108.7197,34.3956,咸阳市,气象站,,,,,,,,,,,,,,,,
2023-06-16T09:00:00,1919A,108.673,34.3155,咸阳市,实验中学,,36,36,41,19,19,207,111,89,89,21,24,4,5,0.6,0.5
2023-06-16T09:00:00,1920A,108.7233,34.3617,咸阳市,师范学院,,,42,51,26,21,208,,87,87,,30,3,5,0.5,0.5
2023-06-16T09:00:00,1922A,109.0656,35.0994,铜川市,党校,,40,34,49,19,19,170,127,73,73,16,23,8,7,0.8,0.8
2023-06-16T09:00:00,1923A,109.0697,35.0697,铜川市,王益区政府,,39,32,47,26,23,175,123,53,53,12,19,8,7,0.5,0.5
2023-06-16T09:00:00,1924A,108.9344,34.9058,铜川市,新区管委会,,47,47,43,22,17,177,106,64,64,23,24,9,9,0.5,0.4
2023-06-16T09:00:00,1926A,109.4131,36.6275,延安市,枣园,,38,38,30,16,13,165,52,34,31,34,29,7,6,0.7,0.6
2023-06-16T09:00:00,1927A,109.4761,36.6028,延安市,延大医附院,,46,46,32,20,14,173,54,29,29,41,34,6,4,0.5,0.4
2023-06-16T09:00:00,1929A,109.5056,36.6106,延安市,百米大道,颗粒物(PM10),62,73,43,34,18,155,78,36,36,62,42,17,9,0.8,0.5
2023-06-16T09:00:00,1930A,107.185,34.3063,宝鸡市,庙沟村,,,,16,,12,131,,99,82,,7,10,8,0.3,0.3
2023-06-16T09:00:00,1931A,107.0708,34.3017,宝鸡市,竹园沟,,18,10,13,11,11,129,55,86,69,15,11,5,5,0.5,0.5
2023-06-16T09:00:00,1932A,107.1906,34.3672,宝鸡市,三陆医院,,46,46,28,12,10,144,46,90,52,36,25,10,7,0.7,0.4
2023-06-16T09:00:00,1933A,107.1431,34.3547,宝鸡市,监测站,,20,18,24,14,14,149,62,98,68,22,17,8,8,0.4,0.4
2023-06-16T09:00:00,1934A,107.1186,34.3739,宝鸡市,技工学校,,21,21,21,13,11,148,66,108,79,18,14,6,6,0.4,0.4
2023-06-16T09:00:00,1935A,107.3906,34.3528,宝鸡市,陈仓区环保局家属楼,颗粒物(PM10),51,51,25,19,13,168,38,50,43,42,24,8,8,0.7,0.5
2023-06-16T09:00:00,1936A,107.2058,34.3497,宝鸡市,文理学院,,25,23,25,17,17,139,59,91,58,27,19,8,7,0.7,0.5
2023-06-16T09:00:00,1937A,107.2386,34.3622,宝鸡市,三迪小学,,,31,27,18,15,144,,96,50,,22,,6,,0.4
2023-06-16T09:00:00,1938A,109.5293,34.5101,渭南市,农科所,颗粒物(PM10),58,66,42,29,23,161,84,161,74,21,17,6,5,0.7,0.6
2023-06-16T09:00:00,1939A,109.4974,34.4877,渭南市,日报社,颗粒物(PM10),53,56,39,35,23,174,91,123,81,26,25,8,6,0.6,0.5
2023-06-16T09:00:00,1940A,109.4636,34.493,渭南市,体育馆,颗粒物(PM10),53,56,38,24,14,174,91,123,78,26,25,8,5,0.5,0.4
2023-06-16T09:00:00,1941A,109.4259,34.5023,渭南市,高新一小,颗粒物(PM10),58,65,47,27,18,171,93,154,96,20,18,8,13,0.5,0.6
2023-06-16T09:00:00,1943A,102.1725,38.5339,金昌市,新川苑,颗粒物(PM10),84,118,70,37,20,186,91,100,95,16,15,13,15,0.6,0.6
2023-06-16T09:00:00,1944A,102.1692,38.5167,金昌市,天庆家园,颗粒物(PM10),76,101,53,25,13,191,92,83,83,13,14,11,16,0.7,0.6
2023-06-16T09:00:00,1945A,98.2908,39.7711,嘉峪关市,气象局,颗粒物(PM10),62,73,60,34,22,181,108,128,98,29,21,30,9,0.4,0.3
2023-06-16T09:00:00,1947A,106.3394,38.817,石嘴山市,沙湖旅游区,,29,24,54,20,25,126,87,84,79,8,10,18,19,0.5,0.5
2023-06-16T09:00:00,1948A,106.3668,39.0145,石嘴山市,大武口朝阳西街,颗粒物(PM10),51,52,59,19,22,201,123,130,112,2,2,9,12,0.4,0.5
2023-06-16T09:00:00,1949A,106.7704,39.2282,石嘴山市,惠农南大街,颗粒物(PM10),51,52,82,17,19,161,112,114,102,16,14,8,7,0.3,0.2
2023-06-16T09:00:00,1950A,106.7099,39.1325,石嘴山市,红果子镇惠新街,,44,44,87,17,22,145,98,92,86,10,14,10,12,0.3,0.2
2023-06-16T09:00:00,1951A,84.895,45.6094,克拉玛依市,长征新村,,22,21,26,3,6,117,70,109,98,16,8,8,8,0.3,0.2
2023-06-16T09:00:00,1952A,84.8988,45.5893,克拉玛依市,南林小区,,35,35,34,12,10,115,58,108,94,24,16,5,6,0.1,0.2
2023-06-16T09:00:00,1954A,84.905,44.3396,克拉玛依市,独山子区,,29,14,26,14,13,122,90,110,100,10,7,9,10,0.3,0.3
2023-06-16T09:00:00,1955A,85.6979,46.098,克拉玛依市,乌尔禾区商贸楼,,42,42,26,10,8,108,92,91,81,4,4,10,11,0.4,0.3
2023-06-16T09:00:00,1956A,86.1472,41.7538,巴音郭楞州,孔雀公园,颗粒物(PM10),51,51,56,16,17,130,127,126,126,3,4,4,5,0.2,0.2
2023-06-16T09:00:00,1957A,86.1972,41.7166,巴音郭楞州,棉纺厂,,40,40,73,13,24,130,123,122,122,5,6,3,4,0.4,0.4
2023-06-16T09:00:00,1958A,86.2357,41.7173,巴音郭楞州,经济开发区,,39,38,67,15,17,138,124,120,120,3,3,3,3,0.2,0.2
2023-06-16T09:00:00,1961A,117.532,36.6868,济南市,东山小学,臭氧1小时,70,76,61,29,22,245,176,216,167,22,18,11,9,0.6,0.6
2023-06-16T09:00:00,1966A,120.0405,35.8735,青岛市,黄岛区4号,,39,22,22,17,13,131,124,126,125,6,4,6,6,0.5,0.5
2023-06-16T09:00:00,1982A,122.0693,37.2174,威海市,文登开发区,,36,34,25,12,13,134,115,103,103,17,7,6,6,0.2,0.2
2023-06-16T09:00:00,2031A,113.1817,27.9958,株洲市,云田中学,,47,47,52,27,37,143,64,97,65,14,12,6,7,0.5,0.5
2023-06-16T09:00:00,2054A,114.1099,32.1059,信阳市,平桥分局,,48,39,32,33,26,199,88,114,83,32,19,8,9,0.7,0.6
2023-06-16T09:00:00,2064A,113.9956,32.1271,信阳市,南湾水厂,,35,33,41,24,20,210,86,134,103,8,8,7,8,0.5,0.5
2023-06-16T09:00:00,2065A,114.0775,32.1195,信阳市,市酿酒公司,,49,38,43,34,29,200,113,123,100,22,17,9,10,0.7,0.6
2023-06-16T09:00:00,2066A,114.0609,32.1399,信阳市,审计局,,42,29,38,29,28,208,123,165,121,23,15,8,8,0.9,0.8
2023-06-16T09:00:00,2067A,114.6613,33.6128,周口市,市环境监测站,颗粒物(PM10),90,130,57,48,32,224,87,135,98,46,21,14,7,0.8,0.6
2023-06-16T09:00:00,2068A,114.6758,33.6347,周口市,周口师范,颗粒物(PM10),72,94,54,41,24,218,86,131,109,38,19,13,6,0.8,0.5
2023-06-16T09:00:00,2069A,114.6546,33.5979,周口市,市运管处,颗粒物(PM10),79,108,52,41,24,220,76,130,101,48,19,11,4,0.9,0.6
2023-06-16T09:00:00,2070A,114.6369,33.6406,周口市,川汇区环保局,颗粒物(PM10),63,76,48,36,22,205,93,122,112,28,14,12,7,0.7,0.5
2023-06-16T09:00:00,2075A,117.6336,24.4674,漳州市,九湖,,,,,,,,,,,,,,,,
2023-06-16T09:00:00,2160A,112.85,35.5051,晋城市,自来水公司,,44,44,37,22,15,203,120,77,77,27,23,10,9,0.8,0.7
2023-06-16T09:00:00,2161A,112.8318,35.4936,晋城市,白云商贸,,48,48,45,14,14,187,110,73,72,28,24,9,7,0.4,0.3
2023-06-16T09:00:00,2162A,112.8508,35.4887,晋城市,市环保局,,48,48,39,27,21,186,109,66,66,22,20,8,7,0.6,0.5
2023-06-16T09:00:00,2163A,112.8676,35.4897,晋城市,技术学院,颗粒物(PM10),51,52,43,22,13,188,88,85,68,40,23,8,8,0.9,0.8
2023-06-16T09:00:00,2165A,112.8453,35.546,晋城市,白马寺,,43,35,34,16,18,195,135,144,137,19,15,6,7,0.7,0.7
2023-06-16T09:00:00,2166A,112.4397,39.3522,朔州市,平朔,颗粒物(PM10),70,90,67,40,28,193,113,94,70,44,28,22,7,0.8,0.4
2023-06-16T09:00:00,2167A,112.4575,39.3617,朔州市,朔唯,颗粒物(PM10),69,88,78,42,28,203,133,122,68,31,30,34,14,0.8,0.6
2023-06-16T09:00:00,2168A,112.4258,39.3197,朔州市,区政府,颗粒物(PM10),77,103,65,36,27,207,138,124,102,28,19,11,6,0.6,0.5
2023-06-16T09:00:00,2169A,112.4072,39.3278,朔州市,市环保局,颗粒物(PM10),96,142,67,42,26,193,116,122,89,38,21,17,8,0.8,0.5
2023-06-16T09:00:00,2170A,112.4272,39.3681,朔州市,市二中,颗粒物(PM10),79,108,75,36,24,193,122,108,73,30,22,18,8,0.7,0.6
2023-06-16T09:00:00,2171A,112.7532,37.6945,晋中市,锦纶小区,臭氧1小时,53,42,41,22,20,243,162,132,125,16,20,11,11,0.5,0.5
2023-06-16T09:00:00,2173A,112.7249,37.7067,晋中市,南都小区,,,62,49,22,20,230,156,139,139,15,18,,11,,0.5
2023-06-16T09:00:00,2174A,112.6991,37.6982,晋中市,榆次区政府,颗粒物(PM10),54,57,48,18,19,227,146,130,130,20,22,12,11,0.5,0.4
2023-06-16T09:00:00,2175A,110.9956,35.0147,运城市,运城中学,,42,42,31,23,17,173,133,142,134,8,7,7,6,0.4,0.4
2023-06-16T09:00:00,2178A,110.9686,35.0303,运城市,地区技校,,42,33,29,21,17,176,134,154,148,9,5,6,5,0.4,0.4
2023-06-16T09:00:00,2179A,111.0414,35.1147,运城市,空港新区,颗粒物(PM10),53,56,41,20,17,171,128,123,110,9,12,7,7,0.4,0.4
2023-06-16T09:00:00,2181A,112.7383,38.4519,忻州市,开发区,,,63,48,17,18,246,141,136,106,,32,25,14,0.6,0.5
2023-06-16T09:00:00,2182A,112.7003,38.4928,忻州市,会展中心,,45,44,51,31,20,212,132,104,104,22,28,16,11,0.7,0.5
2023-06-16T09:00:00,2183A,111.1406,37.5211,吕梁市,环保局,颗粒物(PM10),63,76,69,6,13,184,90,62,62,36,38,25,10,0.6,0.5
2023-06-16T09:00:00,2185A,111.1297,37.5136,吕梁市,自来水公司,颗粒物(PM10),74,98,100,15,16,180,93,49,43,31,33,21,14,0.6,0.5
2023-06-16T09:00:00,2187A,106.8174,39.6973,乌海市,市林业局,颗粒物(PM10),65,79,86,19,17,184,125,140,126,19,11,16,18,0.7,0.6
2023-06-16T09:00:00,2188A,106.7907,39.6667,乌海市,中海勃湾学校,颗粒物(PM10),57,63,82,13,16,180,123,139,129,20,11,21,17,0.5,0.4
2023-06-16T09:00:00,2191A,122.2532,43.6801,通辽市,艺术职业学校,颗粒物(PM10),51,52,55,35,21,200,146,157,149,21,18,8,7,0.7,0.6
2023-06-16T09:00:00,2192A,119.7594,49.2261,呼伦贝尔市,区环保局,,29,29,25,14,18,82,45,54,49,9,14,5,5,0.3,0.4
2023-06-16T09:00:00,2195A,107.4212,40.761,巴彦淖尔市,附二中,,46,40,55,10,14,186,145,140,128,8,8,4,4,0.6,0.5
2023-06-16T09:00:00,2196A,107.37,40.7372,巴彦淖尔市,市环保大楼,,45,42,58,31,29,185,140,145,129,8,7,5,4,0.5,0.4
2023-06-16T09:00:00,2197A,113.1306,40.9923,乌兰察布市,集宁新区,臭氧1小时,65,50,42,24,20,215,172,147,113,21,17,25,18,0.9,0.5
2023-06-16T09:00:00,2200A,122.0392,46.0656,兴安盟,胜华新制药厂,,29,26,35,20,23,128,59,77,47,12,13,3,5,0.3,0.5
2023-06-16T09:00:00,2201A,121.9504,46.0741,兴安盟,科右前旗环保局,,,,,,,,,,,,,,,,
2023-06-16T09:00:00,2202A,116.1042,43.9317,锡林郭勒盟,市环保监测站,,43,43,30,10,8,175,126,86,81,12,6,8,8,0.4,0.2
2023-06-16T09:00:00,2203A,116.0781,43.9311,锡林郭勒盟,市政府,,41,33,36,6,8,139,130,82,79,12,9,10,12,0.4,0.2
2023-06-16T09:00:00,2204A,105.6467,38.8363,阿拉善盟,西城区西花园,,40,34,56,16,20,183,125,129,125,6,8,6,7,0.4,0.4
2023-06-16T09:00:00,2205A,105.6985,38.8411,阿拉善盟,蒙二幼,,44,44,77,10,16,205,132,144,144,7,7,10,10,0.6,0.5
2023-06-16T09:00:00,2206A,105.724,38.8516,阿拉善盟,环保局新楼,,43,34,48,21,24,197,135,141,140,5,6,9,9,0.5,0.4
2023-06-16T09:00:00,2207A,121.6094,41.998,阜新市,工业园区,,,53,52,10,9,177,,133,107,,14,,9,,0.6
2023-06-16T09:00:00,2208A,121.6697,42.0279,阜新市,长青街,,48,48,37,15,11,179,121,142,117,17,13,23,16,0.6,0.6
2023-06-16T09:00:00,2209A,121.6673,42.0705,阜新市,农业园区,,49,49,35,26,15,193,125,152,121,17,13,23,14,0.9,0.8
2023-06-16T09:00:00,2210A,121.6717,42.0224,阜新市,东苑,,49,49,36,26,14,170,117,138,113,19,15,25,17,0.7,0.6
2023-06-16T09:00:00,2211A,121.6506,42.0498,阜新市,玉龙新城,,44,44,44,12,11,193,120,148,116,16,13,24,12,0.7,0.6
2023-06-16T09:00:00,2212A,123.2,41.1953,辽阳市,宏伟区,,38,23,28,6,12,189,120,119,116,7,12,10,12,0.4,0.6
2023-06-16T09:00:00,2213A,123.1683,41.2495,辽阳市,新华园,,41,34,33,8,14,198,131,125,121,8,14,2,5,0.4,0.6
2023-06-16T09:00:00,2214A,123.2354,41.2639,辽阳市,滨河路,,35,29,34,9,14,195,110,109,104,12,17,6,9,0.3,0.4
2023-06-16T09:00:00,2215A,123.149,41.2991,辽阳市,铁西工业园,,,43,43,11,34,222,,126,118,,20,,13,,0.8
2023-06-16T09:00:00,2216A,123.8139,42.3022,铁岭市,汇工街西,颗粒物(PM10),55,59,46,10,14,253,142,122,116,16,25,12,12,0.6,0.7
2023-06-16T09:00:00,2217A,123.8649,42.2923,铁岭市,水上乐园,臭氧1小时,167,40,39,12,19,334,334,130,130,20,30,13,12,,0.7
2023-06-16T09:00:00,2218A,123.8486,42.2867,铁岭市,银州路东段,,45,45,36,9,13,225,141,112,112,23,29,8,8,0.5,0.6
2023-06-16T09:00:00,2219A,123.7153,42.2217,铁岭市,金沙江路北,,40,30,41,11,16,240,128,94,94,24,36,14,14,0.6,0.8
2023-06-16T09:00:00,2220A,120.4318,41.5881,朝阳市,西梁,臭氧1小时,77,41,40,22,22,195,181,164,164,17,10,14,13,1.0,0.9
2023-06-16T09:00:00,2221A,120.4521,41.5646,朝阳市,河畔小区,臭氧1小时,104,49,41,22,23,215,208,195,195,11,7,10,8,0.9,0.8
2023-06-16T09:00:00,2222A,120.4176,41.5648,朝阳市,八里堡,臭氧1小时,101,33,44,21,25,210,202,175,175,14,12,10,9,0.9,0.8
2023-06-16T09:00:00,2223A,120.3806,41.5969,朝阳市,农业园区,臭氧1小时,78,76,45,30,31,212,182,151,151,28,14,20,10,1.4,0.9
2023-06-16T09:00:00,2225A,124.4002,43.1713,四平市,一商场,,45,45,48,15,25,255,135,120,111,22,31,14,12,0.5,0.6
2023-06-16T09:00:00,2226A,124.388,43.193,四平市,境园,,42,39,43,14,22,257,134,128,111,22,28,14,11,0.6,0.6
2023-06-16T09:00:00,2227A,125.1358,42.8845,辽源市,环保局,臭氧1小时,58,16,31,14,24,214,166,96,96,8,35,6,7,0.6,0.8
2023-06-16T09:00:00,2229A,125.9358,41.7173,通化市,光明,,41,41,27,17,16,174,114,39,39,8,23,8,12,0.3,0.5
2023-06-16T09:00:00,2230A,125.9446,41.7325,通化市,铁路,,35,35,30,18,17,181,106,34,33,25,27,11,19,0.2,0.5
2023-06-16T09:00:00,2231A,126.4219,41.9171,白山市,喜丰,,,72,50,25,18,171,,22,20,,26,,14,,0.6
2023-06-16T09:00:00,2232A,126.4077,41.9419,白山市,环保局,,50,50,50,20,21,168,67,33,33,27,21,20,12,0.7,0.8
2023-06-16T09:00:00,2233A,124.8006,45.1214,松原市,江南,,41,39,35,17,15,198,130,137,125,13,13,5,5,0.5,0.5
2023-06-16T09:00:00,2234A,124.7965,45.1722,松原市,江北,,37,28,28,18,18,188,117,135,118,24,15,5,5,0.5,0.5
2023-06-16T09:00:00,2235A,122.7911,45.6077,白城市,洮北区环保局,,29,29,39,6,11,192,56,115,54,13,12,4,5,0.1,0.2
2023-06-16T09:00:00,2236A,122.8738,45.5725,白城市,市环保局,,21,21,28,11,16,161,54,94,52,14,13,4,4,0.0,0.1
2023-06-16T09:00:00,2237A,129.47,42.8883,延边朝鲜族自治州,妇幼医院,,26,26,26,18,18,147,45,15,15,35,27,10,8,0.7,0.6
2023-06-16T09:00:00,2238A,129.5055,42.9108,延边朝鲜族自治州,延边医院,颗粒物(PM10),51,52,31,19,17,150,52,41,31,36,25,10,8,0.6,0.5
2023-06-16T09:00:00,2239A,129.3964,42.8881,延边朝鲜族自治州,朝阳川镇医院,,27,27,23,13,11,162,53,17,17,26,26,11,8,0.6,0.6
2023-06-16T09:00:00,2240A,130.9762,45.3001,鸡西市,环保局,,46,46,49,16,21,89,60,24,21,30,29,5,4,0.5,0.4
2023-06-16T09:00:00,2243A,130.9429,45.3039,鸡西市,第一中学,,29,28,41,20,19,85,60,21,18,19,23,5,5,0.4,0.4
2023-06-16T09:00:00,2244A,130.2537,47.3416,鹤岗市,哈啤分公司,,34,34,24,10,13,84,34,35,31,30,17,12,10,0.4,0.2
2023-06-16T09:00:00,2245A,130.2684,47.3086,鹤岗市,斯达机电,,31,31,25,11,12,88,40,56,34,23,16,12,10,0.3,0.2
2023-06-16T09:00:00,2246A,130.3114,47.3388,鹤岗市,东山纸板厂,,35,35,53,10,15,81,31,21,21,24,22,10,10,0.3,0.4
2023-06-16T09:00:00,2247A,130.1097,47.3382,鹤岗市,五号水库,,13,13,10,4,8,135,39,28,28,15,12,8,8,0.2,0.4
2023-06-16T09:00:00,2248A,131.1511,46.6937,双鸭山市,双合村,,,42,39,29,18,125,125,65,65,13,18,15,16,,0.7
2023-06-16T09:00:00,2249A,131.1652,46.6191,双鸭山市,南小市,,36,34,28,25,16,111,111,57,57,9,14,5,7,0.1,0.2
2023-06-16T09:00:00,2250A,131.1524,46.6554,双鸭山市,环保局,,34,13,21,6,10,107,107,75,75,17,16,14,11,0.7,0.5
2023-06-16T09:00:00,2251A,131.12,46.5656,双鸭山市,苗圃,,39,7,14,5,9,122,122,67,67,6,6,4,4,0.4,0.4
2023-06-16T09:00:00,2252A,128.5159,47.4311,伊春市,环保局,,29,19,13,14,5,90,90,51,48,18,12,6,6,0.5,0.4
2023-06-16T09:00:00,2253A,128.9102,47.7412,伊春市,电力嘉园,,40,40,18,15,10,96,96,60,60,16,9,8,7,0.5,0.3
2023-06-16T09:00:00,2254A,129.5029,48.471,伊春市,汤旺河国家公园,,23,15,13,16,14,67,58,36,36,4,2,11,9,0.0,0.1
2023-06-16T09:00:00,2255A,130.2751,46.8028,佳木斯市,佳纺,,45,45,32,24,14,119,119,32,32,16,30,8,7,0.5,0.4
2023-06-16T09:00:00,2256A,130.3995,46.8307,佳木斯市,发电厂,,39,36,33,18,12,122,122,29,29,18,30,8,9,0.3,0.3
2023-06-16T09:00:00,2257A,130.3258,46.7975,佳木斯市,环保局,,,46,26,29,15,120,120,22,22,,33,,6,0.5,0.4
2023-06-16T09:00:00,2258A,130.3648,46.8032,佳木斯市,十一中,,41,41,28,27,19,123,123,36,36,22,37,8,7,0.6,0.5
2023-06-16T09:00:00,2259A,130.3794,46.7588,佳木斯市,四丰,,50,32,18,35,12,150,150,60,60,15,24,1,1,0.4,0.3
2023-06-16T09:00:00,2262A,131.0518,45.8751,七台河市,新一中,,48,48,35,18,22,117,114,51,51,13,20,10,10,0.9,0.8
2023-06-16T09:00:00,2263A,127.4833,50.2524,黑河市,交通局,,19,16,19,10,8,76,60,44,44,14,11,31,8,0.4,0.4
2023-06-16T09:00:00,2264A,127.5144,50.2341,黑河市,环保局,,21,21,18,14,9,77,59,48,48,14,9,30,9,0.4,0.4
2023-06-16T09:00:00,2265A,127.5291,50.2472,黑河市,大黑河岛,,25,15,12,7,8,95,77,52,52,4,3,33,17,0.3,0.3
2023-06-16T09:00:00,2266A,126.9785,46.6365,绥化市,人和东街,,36,21,32,17,22,127,113,94,94,19,26,8,8,0.5,0.5
2023-06-16T09:00:00,2267A,126.964,46.6528,绥化市,党政办公中心,细颗粒物(PM2.5),55,24,35,39,29,119,115,119,102,15,22,9,10,0.4,0.5
2023-06-16T09:00:00,2269A,124.1069,50.4097,大兴安岭地区,科技局,,11,5,11,7,8,72,34,48,33,4,4,5,6,0.2,0.1
2023-06-16T09:00:00,2270A,117.396,32.939,蚌埠市,工人疗养院,,,,59,,32,214,,135,135,15,12,,12,0.6,0.5
2023-06-16T09:00:00,2271A,117.3605,32.9427,蚌埠市,百货大楼,颗粒物(PM10),57,64,60,32,31,219,159,152,152,13,11,6,8,0.6,0.5
2023-06-16T09:00:00,2273A,117.4185,32.8911,蚌埠市,蚌埠学院,颗粒物(PM10),58,66,58,36,32,209,132,126,120,19,18,10,10,0.6,0.5
2023-06-16T09:00:00,2274A,117.3533,32.9673,蚌埠市,淮上区政府,颗粒物(PM10),56,61,62,32,33,215,160,142,142,18,14,8,10,0.6,0.5
2023-06-16T09:00:00,2275A,117.3145,32.8977,蚌埠市,高新区,颗粒物(PM10),57,63,66,33,35,217,152,138,138,13,14,8,11,0.6,0.5
2023-06-16T09:00:00,2277A,116.8305,32.7727,淮南市,潘集区政府,,,79,59,40,32,208,100,144,96,,12,10,8,0.6,0.4
2023-06-16T09:00:00,2278A,117.0067,32.6524,淮南市,师范学院,细颗粒物(PM2.5),65,72,60,47,33,196,135,162,139,15,11,10,9,0.5,0.4
2023-06-16T09:00:00,2279A,116.8569,32.5951,淮南市,谢家集区政府,颗粒物(PM10),55,60,49,26,23,193,126,124,115,22,18,7,8,0.4,0.3
2023-06-16T09:00:00,2280A,116.8281,32.633,淮南市,八公山区政府,颗粒物(PM10),62,74,64,43,32,193,125,131,118,22,13,19,9,0.6,0.5
2023-06-16T09:00:00,2281A,116.6325,32.6201,淮南市,焦岗湖风景区管理处,细颗粒物(PM2.5),59,56,44,42,24,182,122,127,92,18,13,5,4,0.4,0.4
2023-06-16T09:00:00,2282A,116.8004,33.975,淮北市,监测站,颗粒物(PM10),62,73,61,39,24,217,128,127,111,28,23,11,8,0.6,0.6
2023-06-16T09:00:00,2283A,116.8091,33.9007,淮北市,烈山区政府,颗粒物(PM10),65,79,63,46,32,216,103,101,86,32,24,13,9,0.6,0.4
2023-06-16T09:00:00,2285A,117.8177,30.9412,铜陵市,市第四中学,颗粒物(PM10),55,59,59,34,36,215,97,141,89,25,18,8,12,0.5,0.7
2023-06-16T09:00:00,2286A,117.8059,30.9273,铜陵市,市公路局,颗粒物(PM10),53,56,59,36,30,227,98,130,104,30,18,6,18,0.6,0.8
2023-06-16T09:00:00,2287A,117.7807,30.9413,铜陵市,市新民污水厂,颗粒物(PM10),58,65,58,27,27,213,107,133,85,19,27,9,9,0.5,0.5
2023-06-16T09:00:00,2288A,117.7439,30.8792,铜陵市,市第九中学,颗粒物(PM10),71,92,80,44,31,203,12,54,12,90,59,16,41,1.3,0.9
2023-06-16T09:00:00,2289A,117.846,30.9413,铜陵市,车站新区,颗粒物(PM10),52,54,49,29,22,220,85,137,64,30,23,5,5,0.5,0.5
2023-06-16T09:00:00,2290A,117.8483,30.97,铜陵市,市职教基地,,48,48,54,23,25,217,104,124,87,17,17,6,6,0.7,0.9
2023-06-16T09:00:00,2291A,117.0809,30.5177,安庆市,环科院,,,67,54,41,32,234,,112,74,,30,,14,,0.7
2023-06-16T09:00:00,2292A,117.0331,30.5119,安庆市,马山宾馆,细颗粒物(PM2.5),63,52,48,45,31,239,55,117,84,57,24,9,8,1.2,0.9
2023-06-16T09:00:00,2294A,116.9896,30.6145,安庆市,安庆大学,颗粒物(PM10),54,58,53,37,30,248,59,98,75,36,23,11,12,0.7,0.6
2023-06-16T09:00:00,2295A,118.2903,29.6963,黄山市,延安路89号,,,51,43,25,14,174,71,58,58,19,11,6,5,,0.2
2023-06-16T09:00:00,2296A,118.327,29.7178,黄山市,黄山东路89号,,45,36,33,31,17,162,96,79,68,15,11,7,6,0.4,0.4
2023-06-16T09:00:00,2297A,118.1371,30.2756,黄山市,黄山区政府5号楼,颗粒物(PM10),52,53,47,29,25,192,70,59,51,15,9,7,7,0.6,0.5
2023-06-16T09:00:00,2298A,118.3093,32.3153,滁州市,老年大学,,,75,51,37,30,210,137,148,96,,19,7,8,0.5,0.4
2023-06-16T09:00:00,2299A,118.3244,32.2786,滁州市,人大宾馆,细颗粒物(PM2.5),68,71,57,49,42,211,126,113,101,43,27,8,8,0.6,0.5
2023-06-16T09:00:00,2301A,115.8277,32.8929,阜阳市,市监测站,颗粒物(PM10),60,69,43,27,18,192,111,136,104,31,20,10,8,0.6,0.5
2023-06-16T09:00:00,2303A,115.8554,32.8605,阜阳市,开发区,颗粒物(PM10),62,73,49,22,15,200,125,148,119,29,18,12,9,0.6,0.5
2023-06-16T09:00:00,2307A,116.5079,31.737,六安市,监测大楼,颗粒物(PM10),52,54,40,34,20,203,94,148,105,15,9,6,2,0.7,0.4
2023-06-16T09:00:00,2308A,116.4738,31.7643,六安市,皖西学院,颗粒物(PM10),61,72,49,21,18,211,113,173,125,24,22,11,7,0.7,0.4
2023-06-16T09:00:00,2309A,116.4996,31.7905,六安市,朝阳厂,颗粒物(PM10),52,54,38,22,20,213,118,146,121,15,10,11,6,0.8,0.5
2023-06-16T09:00:00,2310A,116.5567,31.7886,六安市,开发区,颗粒物(PM10),69,87,62,38,29,212,118,110,108,17,14,12,8,0.8,0.5
2023-06-16T09:00:00,2311A,115.8072,33.8399,亳州市,污水处理厂,颗粒物(PM10),64,77,47,39,23,212,95,154,108,19,13,11,9,0.5,0.4
2023-06-16T09:00:00,2312A,115.7789,33.8518,亳州市,三国揽胜宫,,,,48,29,22,221,,155,113,19,11,9,9,0.8,0.7
2023-06-16T09:00:00,2314A,117.47,30.6618,池州市,池州学院,,46,46,47,30,29,229,110,94,93,17,15,5,6,1.0,0.8
2023-06-16T09:00:00,2316A,118.7581,30.9454,宣城市,鳌峰子站,细颗粒物(PM2.5),60,59,57,43,35,145,99,91,91,19,17,3,5,0.6,0.5
2023-06-16T09:00:00,2317A,118.7385,30.9743,宣城市,敬亭山子站,细颗粒物(PM2.5),60,61,54,43,33,165,95,76,70,30,20,7,8,0.6,0.6
2023-06-16T09:00:00,2318A,118.7173,30.9427,宣城市,开发区子站,细颗粒物(PM2.5),59,52,55,42,33,150,100,97,87,17,13,6,8,0.5,0.5
2023-06-16T09:00:00,2319A,119.0141,25.4325,莆田市,荔城区仓后路,,30,30,21,11,9,108,68,102,85,12,7,6,6,0.7,0.6
2023-06-16T09:00:00,2320A,119.0015,25.4553,莆田市,莆田市监测站,,25,22,19,3,7,119,79,113,90,2,2,5,6,0.5,0.4
2023-06-16T09:00:00,2321A,119.1119,25.4561,莆田市,涵江区六中,,26,26,25,13,11,114,66,98,71,10,8,7,7,0.7,0.7
2023-06-16T09:00:00,2322A,119.1013,25.3215,莆田市,秀屿区政府,,45,45,29,18,14,114,58,97,75,16,8,7,7,0.8,0.8
2023-06-16T09:00:00,2323A,118.981,25.4792,莆田市,东圳水库,,,,,,,,,,,,,,,,
2023-06-16T09:00:00,2324A,117.6211,26.2625,三明市,三钢,,32,29,25,22,22,114,90,90,81,10,10,9,7,0.5,0.5
2023-06-16T09:00:00,2325A,117.635,26.2714,三明市,三明二中,,28,24,23,14,17,110,88,98,86,13,11,7,4,0.5,0.5
2023-06-16T09:00:00,2326A,117.6028,26.2378,三明市,三元区政府,,29,24,23,13,14,113,92,104,89,14,12,7,5,0.6,0.7
2023-06-16T09:00:00,2327A,117.7275,26.3108,三明市,洋溪,,,,,,,,,,,,,,,,
2023-06-16T09:00:00,2331A,118.0966,26.6761,南平市,茫荡山,,,,,,,,,,,,,,,,
2023-06-16T09:00:00,2332A,118.1681,26.6369,南平市,南平市监测站,,37,37,28,20,17,117,58,62,56,11,7,6,4,0.9,0.7
2023-06-16T09:00:00,2333A,118.1825,26.6489,南平市,南平铝业有限公司,,38,35,29,26,19,115,53,56,52,14,13,8,6,0.8,0.6
2023-06-16T09:00:00,2334A,118.1756,26.6272,南平市,南平七中,,32,32,28,21,15,119,60,51,48,9,5,7,4,0.8,0.6
2023-06-16T09:00:00,2335A,117.0189,25.1181,龙岩市,龙岩师专,,,,,,,,,,,,,,,,
2023-06-16T09:00:00,2336A,117.0217,25.1033,龙岩市,龙岩市监测站,,25,19,14,2,7,80,80,74,72,8,9,7,7,0.6,0.6
2023-06-16T09:00:00,2337A,117.0258,25.0661,龙岩市,闽西职业技术学院,,25,12,16,5,9,78,78,71,71,6,7,6,6,0.5,0.6
2023-06-16T09:00:00,2338A,117.0196,25.0306,龙岩市,龙岩学院,,22,8,17,3,8,68,68,64,64,6,9,5,3,0.4,0.5
2023-06-16T09:00:00,2339A,119.5001,26.6946,宁德市,金涵水库,,,,,,,,,,,,,,,,
2023-06-16T09:00:00,2341A,119.5388,26.6612,宁德市,宁德市监测站,,35,23,28,24,22,150,83,56,50,6,10,7,9,0.8,0.9
2023-06-16T09:00:00,2342A,117.3102,29.3867,景德镇市,王港中学,,35,35,37,18,22,150,62,45,45,16,7,4,2,1.0,1
2023-06-16T09:00:00,2343A,117.2117,29.2933,景德镇市,老干部活动中心,,42,42,55,15,33,140,119,121,112,11,12,6,5,0.2,0.2
2023-06-16T09:00:00,2344A,117.1894,29.2789,景德镇市,兽医站,,36,35,38,25,27,142,112,134,121,9,13,10,8,0.5,0.4
2023-06-16T09:00:00,2345A,117.1547,29.2617,景德镇市,台达陶瓷,,44,44,37,30,28,141,112,111,111,13,12,5,8,0.5,0.6
2023-06-16T09:00:00,2346A,117.2461,29.2956,景德镇市,陶研所,,38,38,46,22,21,146,114,116,112,8,7,5,6,0.3,0.2
2023-06-16T09:00:00,2347A,114.0997,27.5002,萍乡市,武功山,,23,19,26,16,20,140,53,57,41,8,7,25,24,0.4,0.5
2023-06-16T09:00:00,2348A,113.8385,27.6434,萍乡市,中医院,,36,36,61,21,41,148,54,94,71,9,10,14,20,0.8,0.9
2023-06-16T09:00:00,2349A,113.8493,27.6253,萍乡市,市政府车库,,43,43,65,20,43,162,56,77,59,8,9,16,21,0.7,0.9
2023-06-16T09:00:00,2350A,113.8676,27.6435,萍乡市,市环保局,,38,38,59,23,40,152,57,93,73,7,8,21,26,0.5,0.6
2023-06-16T09:00:00,2351A,113.866,27.6198,萍乡市,安源区政府,颗粒物(PM10),51,51,60,25,35,152,55,76,44,19,17,24,18,1.0,0.8
2023-06-16T09:00:00,2352A,115.0861,27.9317,新余市,北岗,,45,36,50,31,40,133,39,34,29,6,8,10,13,0.7,0.7
2023-06-16T09:00:00,2353A,114.9886,27.8431,新余市,飞宇,,39,39,72,21,43,148,38,54,40,12,16,10,14,0.5,0.7
2023-06-16T09:00:00,2354A,114.9231,27.8246,新余市,第二水厂,,32,29,75,22,44,145,42,74,47,14,17,9,13,0.2,0.5
2023-06-16T09:00:00,2355A,114.9308,27.8036,新余市,市气象局,,32,32,61,18,42,147,49,76,53,8,11,10,13,0.6,0.8
2023-06-16T09:00:00,2357A,116.9822,28.1136,鹰潭市,龙虎山,,36,34,37,25,30,141,32,27,19,10,5,3,3,0.9,0.8
2023-06-16T09:00:00,2358A,117.0564,28.2642,鹰潭市,新监测站,,31,31,49,17,31,180,83,62,62,11,14,6,12,0.3,0.5
2023-06-16T09:00:00,2359A,117.0311,28.2475,鹰潭市,财苑宾馆,,33,33,49,20,31,188,81,64,64,10,10,6,14,0.4,0.4
2023-06-16T09:00:00,2360A,117.0222,28.2264,鹰潭市,体育馆,,31,31,43,17,29,167,87,74,74,8,10,3,7,0.4,0.4
2023-06-16T09:00:00,2361A,117.0017,28.2131,鹰潭市,三川水表,,31,31,52,11,24,164,88,73,73,10,11,2,6,0.4,0.5
2023-06-16T09:00:00,2362A,114.9017,25.9149,赣州市,通天岩,,,,,,,,,,,,,,,,
2023-06-16T09:00:00,2363A,114.9367,25.8664,赣州市,地委,,17,17,27,11,16,88,41,55,49,12,7,21,17,1.1,1.1
2023-06-16T09:00:00,2364A,114.9461,25.8481,赣州市,气象台,,21,11,26,9,14,103,65,72,66,12,9,6,8,0.7,0.7
2023-06-16T09:00:00,2365A,114.9322,25.8333,赣州市,市图书馆,,18,8,25,5,16,94,56,62,56,11,9,4,5,1.2,1.2
2023-06-16T09:00:00,2366A,114.8905,25.8471,赣州市,华坚鞋城,,15,15,38,8,17,80,23,45,39,18,7,9,8,1.1,1.1
2023-06-16T09:00:00,2367A,114.9754,27.0803,吉安市,红声器材厂,,21,19,44,9,26,133,67,63,63,6,9,4,9,0.6,0.7
2023-06-16T09:00:00,2368A,114.9658,27.0999,吉安市,市森林工业局,,21,15,47,10,25,127,66,94,60,5,6,7,8,0.3,0.8
2023-06-16T09:00:00,2369A,114.99,27.1312,吉安市,市环境监测站,,24,14,34,9,21,141,74,72,70,6,8,10,12,0.6,0.7
2023-06-16T09:00:00,2370A,115.0093,27.0968,吉安市,青原区法院,,23,16,35,9,24,133,72,67,60,6,9,12,18,0.5,0.6
2023-06-16T09:00:00,2371A,114.3408,27.8064,宜春市,槟榔水业,,,17,51,12,33,146,57,87,58,5,8,3,7,,0.7
2023-06-16T09:00:00,2373A,114.3956,27.7844,宜春市,市石油公司,,22,20,56,15,38,163,63,78,65,11,13,6,10,0.6,0.7
2023-06-16T09:00:00,2374A,114.3703,27.7914,宜春市,市气象局,,20,20,56,10,35,156,64,94,68,15,18,3,9,0.7,0.9
2023-06-16T09:00:00,2375A,114.4013,27.8074,宜春市,市广电局,,21,21,61,9,37,159,61,84,67,10,13,12,14,0.9,1
2023-06-16T09:00:00,2376A,116.2127,28.0814,抚州市,桐源党溪,,42,22,43,14,29,198,132,105,105,3,5,1,4,0.5,0.8
2023-06-16T09:00:00,2377A,116.3544,27.9831,抚州市,市站,,37,30,48,19,31,138,116,94,94,5,7,3,9,0.5,0.6
2023-06-16T09:00:00,2378A,116.3565,27.963,抚州市,血防站,,,40,54,14,31,135,58,86,84,,11,8,9,0.6,0.7
2023-06-16T09:00:00,2379A,116.3564,28.0007,抚州市,采茶剧团,,36,29,47,16,31,140,114,92,92,8,8,10,10,0.7,0.9
2023-06-16T09:00:00,2380A,116.385,27.9647,抚州市,医学分院,,37,34,47,14,28,147,117,93,93,7,9,11,10,0.7,0.9
2023-06-16T09:00:00,2381A,118.005,28.4572,上饶市,百草园,,35,35,36,22,23,211,105,107,107,3,4,1,3,0.3,0.4
2023-06-16T09:00:00,2382A,117.9756,28.4436,上饶市,市监测站,,33,33,43,22,25,201,103,102,102,6,8,5,8,0.4,0.4
2023-06-16T09:00:00,2383A,117.9519,28.4628,上饶市,凤凰光学,,42,42,45,22,26,183,89,97,89,17,11,13,11,0.7,0.7
2023-06-16T09:00:00,2385A,114.17,35.9019,鹤壁市,市监测站,颗粒物(PM10),61,72,52,35,25,221,100,119,81,42,26,20,6,0.9,0.5
2023-06-16T09:00:00,2386A,114.2956,35.7511,鹤壁市,市交警支队,颗粒物(PM10),71,91,51,29,19,221,45,82,40,56,37,15,10,0.7,0.5
2023-06-16T09:00:00,2387A,114.2878,35.7306,鹤壁市,迎宾馆,颗粒物(PM10),80,109,49,36,23,226,32,86,51,64,34,23,7,1.0,0.6
2023-06-16T09:00:00,2389A,113.836,35.311,新乡市,环保西院,颗粒物(PM10),54,58,45,27,18,201,104,70,66,37,26,10,9,0.6,0.5
2023-06-16T09:00:00,2390A,113.884,35.272,新乡市,开发区,颗粒物(PM10),54,58,39,22,15,207,81,79,66,39,25,4,4,0.7,0.6
2023-06-16T09:00:00,2391A,113.883,35.303,新乡市,环保东院,颗粒物(PM10),55,60,40,20,16,205,94,97,80,38,22,9,7,0.6,0.5
2023-06-16T09:00:00,2392A,115.0312,35.7636,濮阳市,环保局,颗粒物(PM10),65,79,45,31,18,219,83,125,90,37,19,8,7,0.6,0.5
2023-06-16T09:00:00,2394A,115.0574,35.7609,濮阳市,油田运输公司,颗粒物(PM10),67,84,55,38,21,213,84,128,82,30,21,10,5,0.5,0.3
2023-06-16T09:00:00,2395A,115.0866,35.7754,濮阳市,油田物探公司,,,,46,,21,226,,141,90,42,19,7,5,0.5,0.3
2023-06-16T09:00:00,2396A,113.8276,34.0159,许昌市,监测站,颗粒物(PM10),72,94,51,38,23,194,96,132,109,40,16,7,3,0.6,0.3
2023-06-16T09:00:00,2398A,113.7906,33.9953,许昌市,开发区,颗粒物(PM10),61,72,53,37,25,188,83,49,49,45,19,6,3,0.7,0.4
2023-06-16T09:00:00,2399A,114.051,33.5699,漯河市,三五一五工厂,颗粒物(PM10),67,83,51,39,25,197,80,149,95,38,15,10,8,0.6,0.5
2023-06-16T09:00:00,2400A,114.0055,33.5698,漯河市,漯河大学,颗粒物(PM10),61,71,43,32,23,197,105,135,102,36,21,10,7,0.6,0.4
2023-06-16T09:00:00,2401A,114.0138,33.5828,漯河市,市水利局,颗粒物(PM10),64,78,48,36,21,193,91,135,103,40,18,13,8,0.8,0.5
2023-06-16T09:00:00,2402A,114.0261,33.5698,漯河市,市广电局,颗粒物(PM10),67,83,46,44,28,199,78,158,98,39,13,10,4,0.6,0.4
2023-06-16T09:00:00,2404A,112.5224,33.0122,南阳市,瓦房庄,,41,41,37,27,25,192,109,129,117,24,17,4,4,0.5,0.5
2023-06-16T09:00:00,2405A,112.5003,32.9735,南阳市,汉画馆,,39,38,41,27,26,192,109,126,110,19,16,4,5,0.6,0.5
2023-06-16T09:00:00,2406A,112.5573,33.027,南阳市,气象站,,50,50,47,26,22,193,113,120,107,21,19,4,5,0.6,0.5
2023-06-16T09:00:00,2407A,112.5481,32.9689,南阳市,理工学院,,42,35,41,29,24,196,119,132,115,15,17,4,5,0.4,0.3
2023-06-16T09:00:00,2408A,115.6702,34.4285,商丘市,环境监测站,"颗粒物(PM10),细颗粒物(PM2.5)",62,74,49,44,26,216,95,143,106,36,18,17,10,0.6,0.4
2023-06-16T09:00:00,2409A,115.6458,34.4045,商丘市,粮食局,颗粒物(PM10),63,76,56,41,25,232,124,150,122,27,14,8,7,0.9,0.6
2023-06-16T09:00:00,2410A,115.6293,34.3948,商丘市,睢阳区环保局,颗粒物(PM10),70,89,56,43,29,220,109,118,102,39,28,8,6,0.6,0.5
2023-06-16T09:00:00,2420A,114.0189,32.9656,驻马店市,市一纸厂,颗粒物(PM10),60,69,48,31,23,174,64,103,100,50,18,18,5,1.2,0.6
2023-06-16T09:00:00,2421A,114.0114,33.015,驻马店市,市彩印厂,颗粒物(PM10),72,94,45,35,24,178,108,146,141,40,8,11,7,1.0,0.4
2023-06-16T09:00:00,2422A,113.9976,32.9771,驻马店市,天方二分厂,,,58,47,,23,172,113,124,124,28,16,,7,0.8,0.5
2023-06-16T09:00:00,2423A,115.0601,30.2313,黄石市,沈家营,颗粒物(PM10),63,76,66,36,35,218,71,67,67,38,29,18,16,0.8,0.7
2023-06-16T09:00:00,2424A,115.0817,30.2006,黄石市,陈家湾,,47,47,61,25,30,230,91,163,130,19,12,6,12,0.5,0.7
2023-06-16T09:00:00,2426A,114.8988,30.2019,黄石市,铁山,,,,,,,,,,,,,,,,
2023-06-16T09:00:00,2427A,115.0307,30.2092,黄石市,团城山,颗粒物(PM10),53,55,61,32,28,225,84,105,102,35,20,18,16,1.3,0.7
2023-06-16T09:00:00,2428A,111.0419,32.395,十堰市,武当山,,32,16,24,10,17,141,100,135,124,5,6,7,8,0.6,0.7
2023-06-16T09:00:00,2429A,110.78,32.6494,十堰市,滨河新村,颗粒物(PM10),57,63,48,38,27,162,71,116,74,14,7,9,7,0.8,0.7
2023-06-16T09:00:00,2430A,110.7258,32.6389,十堰市,刘家沟,颗粒物(PM10),56,61,45,28,25,187,65,102,57,16,8,12,10,0.6,0.5
2023-06-16T09:00:00,2431A,110.8839,32.5714,十堰市,铁二处,,38,28,38,26,23,191,56,80,51,14,6,8,9,0.8,0.7
2023-06-16T09:00:00,2432A,112.155,32.0197,襄阳市,襄城运动路,,49,49,62,20,35,197,121,135,123,13,11,8,9,0.6,0.8
2023-06-16T09:00:00,2433A,112.1392,32.0564,襄阳市,樊城新华路,,42,18,60,29,38,196,127,134,123,11,11,8,8,0.6,0.7
2023-06-16T09:00:00,2434A,112.1825,32.1142,襄阳市,高新管委会,细颗粒物(PM2.5),63,51,61,45,41,205,118,144,125,14,10,9,10,0.8,0.8
2023-06-16T09:00:00,2435A,112.2106,32.0903,襄阳市,襄州航空路,,,42,57,30,36,196,120,137,122,12,10,,7,0.7,0.8
2023-06-16T09:00:00,2436A,114.8938,30.3994,鄂州市,市政府,细颗粒物(PM2.5),57,59,70,40,32,215,78,114,81,38,26,15,12,0.6,0.7
2023-06-16T09:00:00,2437A,114.8989,30.3714,鄂州市,赵家坝,颗粒物(PM10),55,60,72,29,32,219,69,109,73,38,27,4,8,0.7,0.7
