timepoint,stationcode,longitude,latitude,area,positionname,primarypollutant,aqi,pm10,pm10_24h,pm2_5,pm2_5_24h,o3,o3_24h,o3_8h,o3_8h_24h,no2,no2_24h,so2,so2_24h,co,co_24h
2026-02-27T1000,2568A,102.2503,31.8896,阿坝藏族羌族自治州,马师校,,18,14,18,10,8,57,,45,45,5,5,6,5,0.3,0.3
2026-02-27T1000,3994A,102.2174,31.9016,阿坝藏族羌族自治州,马尔康中学西区,,17,,22,8,6,52,,41,41,6,5,6,6,0.4,0.4
2026-02-27T1000,2695A,80.2899,41.1684,阿克苏地区,电视台,颗粒物(PM10),500,695,759,189,215,33,,20,20,23,27,3,2,1.1,1.2
2026-02-27T1000,2696A,80.2592,41.1541,阿克苏地区,艺术中心,颗粒物(PM10),500,678,731,197,233,31,,27,27,30,29,4,4,0.8,0.8
2026-02-27T1000,2205A,105.699,38.8409,阿拉善盟,蒙二幼,颗粒物(PM10),58,65,92,6,20,71,,88,87,24,9,10,11,0.6,0.5
2026-02-27T1000,2206A,105.7198,38.8508,阿拉善盟,环保局新楼,,46,46,82,6,20,75,,90,89,13,5,10,10,0.5,0.5
2026-02-27T1000,2708A,88.1266,47.8515,阿勒泰地区,市站,,24,24,19,14,11,38,,58,54,39,25,2,5,0.5,0.3
2026-02-27T1000,4166A,88.1198,47.7931,阿勒泰地区,阿勒泰路33号,,27,27,24,15,13,58,,76,73,28,18,4,5,0.5,0.5
2026-02-27T1000,2630A,80.1171,32.4999,阿里地区,阿里监测站,,30,21,14,7,3,96,,93,92,11,3,8,7,0.3,0.3
2026-02-27T1000,3192A,80.0906,32.5029,阿里地区,阿里藏医院,,34,19,14,3,4,106,,112,110,10,4,9,8,0.5,0.3
2026-02-27T1000,2644A,109.0088,32.6974,安康市,汉滨区检察院,,32,25,22,22,14,34,,30,30,7,10,3,3,0.6,0.6
2026-02-27T1000,4054A,109.0324,32.6913,安康市,市邮政管理局,,29,28,23,20,16,26,,29,29,11,11,4,4,0.6,0.6
2026-02-27T1000,2291A,117.0806,30.5181,安庆市,环科院,,29,29,14,17,10,55,,48,48,6,9,6,6,0.6,0.6
2026-02-27T1000,2292A,117.0331,30.5118,安庆市,马山宾馆,,29,23,13,20,10,56,,49,49,8,11,4,4,0.8,0.9
2026-02-27T1000,2294A,116.9897,30.6146,安庆市,安庆大学,,19,17,12,9,7,60,,50,50,4,7,4,3,0.5,0.5
2026-02-27T1000,3173A,117.0598,30.5351,安庆市,市人大,,28,28,15,18,9,55,,47,47,8,12,4,5,0.5,0.5
2026-02-27T1000,3123A,105.9408,26.2431,安顺市,凤凰山,,25,,34,17,28,33,,54,44,6,7,7,11,0.5,0.4
2026-02-27T1000,3124A,105.9443,26.2567,安顺市,金钟山,,21,21,33,13,29,32,,51,41,5,7,8,11,0.5,0.5
2026-02-27T1000,3125A,105.8983,26.248,安顺市,娄家坡,,30,,38,21,33,29,,49,39,7,8,11,14,0.5,0.5
2026-02-27T1000,1819A,114.3552,36.1017,安阳市,红庙街,细颗粒物(PM2.5),87,82,62,64,52,25,,34,29,22,20,3,3,0.4,0.4
2026-02-27T1000,1820A,114.361,36.0681,安阳市,银杏小区,,,,61,,54,24,,34,29,,12,3,3,0.5,0.5
2026-02-27T1000,3141A,114.3921,36.0879,安阳市,信访局,细颗粒物(PM2.5),95,81,64,71,56,30,,32,29,16,13,2,2,0.6,0.6
2026-02-27T1000,3669A,114.4706,36.0634,安阳市,左辅环卫站,细颗粒物(PM2.5),89,103,80,66,55,29,,27,24,9,10,3,3,0.3,0.4
2026-02-27T1000,4117A,114.2918,36.0769,安阳市,钢三路198号,,,124,78,74,55,,,33,31,17,15,4,2,0.5,0.4
2026-02-27T1000,1748A,123.0441,41.1201,鞍山市,深沟寺,细颗粒物(PM2.5),110,106,107,83,72,43,,39,39,30,30,12,10,0.8,0.8
2026-02-27T1000,1749A,123.011,41.0931,鞍山市,太阳城,细颗粒物(PM2.5),110,104,100,83,72,42,,37,37,26,28,13,13,0.8,0.8
2026-02-27T1000,1750A,123.0483,41.1445,鞍山市,太平,细颗粒物(PM2.5),105,100,109,79,71,43,,39,38,26,29,14,14,0.4,0.5
2026-02-27T1000,1751A,122.964,41.0968,鞍山市,铁西三道街,细颗粒物(PM2.5),120,117,113,91,78,27,,26,26,48,41,18,19,1.7,1.4
2026-02-27T1000,1753A,123.0219,41.0822,鞍山市,明达新区,细颗粒物(PM2.5),123,110,100,93,71,41,,36,36,29,30,12,12,0.9,0.8
2026-02-27T1000,4201A,122.944647,41.082639,鞍山市,兴盛南路290号,细颗粒物(PM2.5),115,111,108,87,75,25,,24,24,49,46,25,23,2.2,1.9
2026-02-27T1000,2195A,107.4206,40.7609,巴彦淖尔市,附二中,颗粒物(PM10),82,113,88,38,31,23,,22,20,25,20,24,11,0.8,0.5
2026-02-27T1000,2196A,107.37,40.7372,巴彦淖尔市,市环保大楼,颗粒物(PM10),72,93,80,33,29,30,,19,19,28,25,13,7,0.8,0.5
2026-02-27T1000,1956A,86.1476,41.7529,巴音郭楞蒙古自治州,孔雀公园,颗粒物(PM10),83,116,236,28,65,64,,57,57,10,15,9,9,0.5,0.5
2026-02-27T1000,1957A,86.1971,41.7166,巴音郭楞蒙古自治州,棉纺厂,颗粒物(PM10),78,105,249,28,63,61,,53,53,15,24,/,/,/,/
2026-02-27T1000,1958A,86.236,41.7172,巴音郭楞蒙古自治州,经济开发区,颗粒物(PM10),64,77,202,16,37,61,,59,59,7,9,7,7,0.4,0.4
2026-02-27T1000,3181A,106.776805,31.852614,巴中市,市五中,,,,30,27,21,12,,20,18,22,13,8,7,1.1,0.8
2026-02-27T1000,3183A,106.7419,31.8654,巴中市,圣泉水务公司,,32,32,31,20,20,9,,9,9,18,19,9,8,0.9,0.8
2026-02-27T1000,3616A,106.7617,31.8343,巴中市,市中心医院,,42,38,31,29,22,5,,2,2,23,18,8,8,0.9,0.7
2026-02-27T1000,2235A,122.7909,45.608,白城市,洮北区环保局,,49,44,27,34,18,51,,43,38,18,15,8,6,0.3,0.3
2026-02-27T1000,2236A,122.8741,45.5725,白城市,市环保局,,26,24,23,18,13,61,,49,49,8,11,9,5,0.3,0.3
2026-02-27T1000,2231A,126.4219,41.9172,白山市,喜丰,颗粒物(PM10),52,54,56,15,15,57,,60,59,10,10,6,8,0.7,0.6
2026-02-27T1000,2232A,126.4082,41.9416,白山市,环保局,,47,47,41,17,15,44,,50,47,19,11,10,8,0.8,0.6
2026-02-27T1000,2647A,104.1727,36.5448,白银市,第三小学,颗粒物(PM10),80,110,119,34,38,52,,47,41,25,20,32,19,0.8,0.6
2026-02-27T1000,2648A,104.1467,36.5482,白银市,动力公司,,,106,106,30,33,,,43,36,,14,,10,,0.6
2026-02-27T1000,2512A,106.6102,23.901,百色市,市监测站,,50,47,30,35,22,24,,20,16,17,13,24,12,0.4,0.3
2026-02-27T1000,2513A,106.6524,23.8842,百色市,市中心血站,细颗粒物(PM2.5),59,58,35,42,26,22,,22,17,21,15,30,14,0.8,0.7
2026-02-27T1000,4133A,106.6273,23.8798,百色市,龙景西路,颗粒物(PM10),53,55,36,34,26,23,,21,17,16,13,22,15,0.5,0.5
2026-02-27T1000,2270A,117.396,32.9389,蚌埠市,工人疗养院,,48,48,21,31,11,53,,57,54,14,13,3,3,0.5,0.5
2026-02-27T1000,2271A,117.3606,32.9428,蚌埠市,百货大楼,细颗粒物(PM2.5),54,55,20,38,12,50,,57,54,11,11,5,5,0.5,0.5
2026-02-27T1000,2273A,117.4183,32.8909,蚌埠市,蚌埠学院,,42,31,8,29,9,54,,59,56,9,10,3,3,0.4,0.5
2026-02-27T1000,2274A,117.3534,32.9672,蚌埠市,淮上区政府,细颗粒物(PM2.5),53,46,15,37,12,54,,57,56,9,10,4,4,0.5,0.5
2026-02-27T1000,2275A,117.3143,32.8977,蚌埠市,高新区,,44,44,13,29,11,46,,51,49,16,13,5,5,0.5,0.5
2026-02-27T1000,3715A,117.3091,32.9314,蚌埠市,蚌埠田家炳中学,细颗粒物(PM2.5),53,53,20,37,13,49,,52,50,12,14,3,4,0.4,0.4
2026-02-27T1000,1585A,109.8761,40.6533,包头市,市环境监测站,细颗粒物(PM2.5),74,90,76,54,36,23,,10,10,48,40,15,10,1.2,0.8
2026-02-27T1000,1587A,109.9992,40.5843,包头市,包头八中,,,111,104,64,54,,,14,14,49,44,,11,2.6,1.2
2026-02-27T1000,1589A,109.8641,40.6288,包头市,惠龙物流,颗粒物(PM10),73,96,75,48,33,31,,12,12,44,41,25,14,1.8,1.1
2026-02-27T1000,1590A,110.0376,40.5546,包头市,东河鸿龙湾,细颗粒物(PM2.5),79,87,92,58,48,23,,6,6,50,61,15,12,1.1,1
2026-02-27T1000,3283A,109.9154,40.5684,包头市,滨河大厦,颗粒物(PM10),75,99,80,50,38,21,,6,6,57,49,19,10,1.7,0.9
2026-02-27T1000,3419A,109.9449,40.6259,包头市,包头市委党校,颗粒物(PM10),77,104,78,49,35,19,,20,19,54,41,24,13,1.7,0.8
2026-02-27T1000,3683A,109.8332,40.6577,包头市,昆区政府,细颗粒物(PM2.5),79,85,74,58,40,34,,19,19,40,45,20,13,1.4,1.1
2026-02-27T1000,1931A,107.0802,34.3129,宝鸡市,竹园沟,细颗粒物(PM2.5),89,,103,66,54,26,,31,30,15,17,6,6,0.6,0.5
2026-02-27T1000,1933A,107.1429,34.3549,宝鸡市,监测站,"颗粒物(PM10),细颗粒物(PM2.5)",63,75,103,45,52,20,,33,27,20,16,5,6,0.7,0.6
2026-02-27T1000,1934A,107.1172,34.3759,宝鸡市,技工学校,细颗粒物(PM2.5),65,63,105,47,52,23,,38,31,17,18,3,4,0.7,0.6
2026-02-27T1000,1936A,107.2025,34.3518,宝鸡市,文理学院,细颗粒物(PM2.5),64,58,96,46,54,22,,36,30,15,12,4,5,0.8,0.7
2026-02-27T1000,1937A,107.2396,34.3626,宝鸡市,三迪小学,细颗粒物(PM2.5),63,56,100,45,55,23,,35,30,19,18,4,5,0.7,0.6
2026-02-27T1000,4155A,107.1721,34.3558,宝鸡市,滨河北路,细颗粒物(PM2.5),67,62,114,48,56,18,,33,27,20,15,5,6,0.7,0.6
2026-02-27T1000,4308A,107.3898,34.3601,宝鸡市,陈仓区北开路21号,,,,99,41,58,28,,32,29,6,12,,11,0.8,0.7
2026-02-27T1000,1051A,115.4803,38.8568,保定市,游泳馆,细颗粒物(PM2.5),53,50,72,37,53,35,,43,40,16,18,5,4,0.6,0.4
2026-02-27T1000,1052A,115.509,38.8895,保定市,华电二区,,49,44,60,34,41,26,,35,32,17,15,3,3,0.7,0.7
2026-02-27T1000,1053A,115.4588,38.9037,保定市,接待中心,颗粒物(PM10),52,53,67,32,47,28,,38,36,15,13,2,2,0.3,0.3
2026-02-27T1000,1054A,115.4484,38.8344,保定市,地表水厂,颗粒物(PM10),52,53,78,21,42,43,,46,45,14,16,5,5,0.4,0.4
2026-02-27T1000,3581A,115.3136,38.9511,保定市,满城区生态环境分局,颗粒物(PM10),54,58,76,30,38,38,,39,38,18,17,3,4,0.3,0.2
2026-02-27T1000,3582A,115.4709,38.7628,保定市,清苑区第二中学,颗粒物(PM10),56,61,76,36,48,39,,40,37,18,21,7,7,0.5,0.5
2026-02-27T1000,3583A,115.6231,39.0223,保定市,徐水物探局,,,54,75,31,46,,,38,34,,17,6,6,0.7,0.6
2026-02-27T1000,4004A,115.4199,38.8665,保定市,双鹰农机,颗粒物(PM10),52,54,78,35,44,44,,51,49,17,18,2,3,0.6,0.6
2026-02-27T1000,4034A,115.515,38.8589,保定市,植保所站,颗粒物(PM10),55,60,80,24,44,28,,40,36,24,22,3,3,0.5,0.5
2026-02-27T1000,2594A,99.1589,25.1137,保山市,市环境监测站,细颗粒物(PM2.5),58,44,47,41,35,38,,69,62,22,11,8,7,0.7,0.4
2026-02-27T1000,2595A,99.1616,25.1381,保山市,市环保局,细颗粒物(PM2.5),55,49,52,39,36,61,,94,85,18,8,4,4,0.7,0.5
2026-02-27T1000,1867A,109.1435,21.4085,北海市,海滩公园,,43,43,32,15,14,44,,55,51,14,12,3,3,1.3,1
2026-02-27T1000,1868A,109.0983,21.466,北海市,新市环保局,,24,24,28,11,12,54,,55,53,10,11,4,4,0.8,0.8
2026-02-27T1000,1869A,109.1775,21.5232,北海市,北海工业园,颗粒物(PM10),53,55,40,29,19,40,,44,37,12,9,6,5,0.6,0.5
2026-02-27T1000,3400A,109.1844,21.4396,北海市,龙潭自来水厂,细颗粒物(PM2.5),79,,29,58,20,40,,45,37,9,5,6,5,1.2,1
2026-02-27T1000,1001A,116.3611,39.8786,北京市,万寿西宫,,27,27,47,14,28,41,,51,50,23,13,2,2,0.6,0.6
2026-02-27T1000,1003A,116.4174,39.9289,北京市,东四,,26,26,48,13,27,47,,44,44,16,19,6,5,0.2,0.3
2026-02-27T1000,1004A,116.4073,39.8858,北京市,天坛,,22,22,47,13,28,38,,34,34,15,16,2,3,0.5,0.6
2026-02-27T1000,1005A,116.4622,39.9364,北京市,农展馆,,27,27,48,14,29,52,,51,51,13,12,6,5,0.5,0.6
2026-02-27T1000,1006A,116.3399,39.9293,北京市,官园,,21,21,43,13,29,42,,47,46,21,14,5,4,0.5,0.6
2026-02-27T1000,1007A,116.2879,39.9613,北京市,海淀万柳,,23,23,46,13,29,42,,45,44,24,20,3,3,0.5,0.5
2026-02-27T1000,1008A,116.6635,40.1349,北京市,顺义新城,,32,32,54,19,32,36,,,,28,13,5,5,0.5,0.5
2026-02-27T1000,1009A,116.6275,40.327,北京市,怀柔镇,,36,36,43,25,25,33,,41,38,24,18,4,4,0.7,0.6
2026-02-27T1000,1010A,116.2295,40.217,北京市,昌平镇,,34,34,47,21,29,43,,42,40,17,16,2,2,0.7,0.7
2026-02-27T1000,1011A,116.3968,39.982,北京市,奥体中心,,28,28,51,13,28,46,,45,45,19,16,5,5,0.7,0.8
2026-02-27T1000,3418A,116.8336,40.4095,北京市,密云新城,,39,39,47,24,26,39,,42,40,19,16,3,3,0.4,0.4
2026-02-27T1000,3671A,116.0879,39.9725,北京市,门头沟三家店,颗粒物(PM10),51,51,50,27,29,48,,50,50,15,19,3,3,0.6,0.6
2026-02-27T1000,3672A,116.1507,39.8246,北京市,丰台云岗,,24,24,45,12,27,50,,53,51,17,18,5,5,0.6,0.7
2026-02-27T1000,3674A,115.9578,39.7602,北京市,房山燕山,,36,36,54,22,34,44,,47,47,13,15,3,3,0.6,0.6
2026-02-27T1000,3675A,116.4669,39.7734,北京市,大兴旧宫,,30,30,48,16,29,49,,45,45,16,16,4,4,0.5,0.6
2026-02-27T1000,3694A,115.9859,40.4562,北京市,延庆石河营,,35,32,43,24,27,57,,54,54,13,14,1,1,0.5,0.5
2026-02-27T1000,3695A,116.6151,40.3052,北京市,怀柔新城,,43,38,42,30,27,32,,42,38,23,16,3,3,0.5,0.5
2026-02-27T1000,3696A,116.2542,39.8764,北京市,丰台小屯,,24,24,48,13,28,47,,47,47,20,21,4,4,0.4,0.5
2026-02-27T1000,3697A,116.8399,40.3843,北京市,密云镇,,38,38,42,22,26,43,,45,42,15,12,3,3,0.6,0.5
2026-02-27T1000,4057A,115.9423,40.4431,北京市,延庆百泉,,34,34,45,21,26,49,,44,44,14,14,3,2,0.4,0.5
2026-02-27T1000,4058A,116.6598,39.9164,北京市,通州新华,,30,30,47,16,27,53,,51,50,17,17,2,2,0.7,0.6
2026-02-27T1000,4182A,116.1942,39.9158,北京市,石景山八角,,27,27,50,12,27,48,,49,49,8,11,5,4,0.4,0.5
2026-02-27T1000,4194A,117.078628,40.151726,北京市,平谷新城,,46,40,53,32,37,42,,44,42,19,20,2,3,0.3,0.4
2026-02-27T1000,1761A,123.8274146,41.31234549,本溪市,大峪,细颗粒物(PM2.5),82,98,84,60,43,39,,29,29,20,25,9,9,1.2,1.1
2026-02-27T1000,1763A,123.7169,41.3094,本溪市,彩屯,细颗粒物(PM2.5),114,100,79,86,52,37,,36,36,24,23,8,8,1.3,1.1
2026-02-27T1000,1764A,123.7672166,41.28649327,本溪市,东明,细颗粒物(PM2.5),122,97,79,92,51,28,,27,25,26,24,8,9,1.4,1.1
2026-02-27T1000,1765A,123.799345,41.266614,本溪市,新立屯,细颗粒物(PM2.5),108,,67,81,46,27,,27,27,26,20,6,6,1.3,1.1
2026-02-27T1000,1766A,123.829144,41.336777,本溪市,威宁,细颗粒物(PM2.5),95,100,83,71,47,37,,24,24,21,28,5,6,0.8,0.7
2026-02-27T1000,2587A,105.287,27.3133,毕节市,八中,,33,32,45,23,32,79,,75,75,6,7,9,10,0.6,0.6
2026-02-27T1000,2588A,105.3079,27.2987,毕节市,师专,,32,30,46,22,30,79,,75,75,8,8,9,10,0.5,0.5
2026-02-27T1000,4263A,105.3688,27.3598,毕节市,工业大道,,38,38,52,18,31,85,,78,78,7,8,9,10,/,/
2026-02-27T1000,1629A,117.9961,37.3604,滨州市,第二水厂,细颗粒物(PM2.5),95,107,90,71,42,48,,46,45,16,16,8,8,0.4,0.5
2026-02-27T1000,1630A,117.9789,37.3931,滨州市,北中新校,,,107,89,67,39,45,,44,43,,20,7,7,,0.4
2026-02-27T1000,3514A,117.9379,37.3959,滨州市,中海酒店,细颗粒物(PM2.5),93,110,91,69,40,48,,51,49,22,20,7,7,0.8,0.7
2026-02-27T1000,3515A,117.9381509,37.35547456,滨州市,开发区一中,细颗粒物(PM2.5),84,110,100,62,41,45,,48,47,15,13,10,11,0.6,0.6
2026-02-27T1000,3516A,118.0914,37.6938,滨州市,金海六路,颗粒物(PM10),56,61,75,35,36,65,,56,56,9,13,5,5,0.6,0.6
2026-02-27T1000,4028A,117.9955,37.3752,滨州市,滨州市西街道办事处,细颗粒物(PM2.5),104,107,89,78,46,54,,51,50,13,13,8,8,0.3,0.3
2026-02-27T1000,2311A,115.8071,33.8399,亳州市,污水处理厂,细颗粒物(PM2.5),114,125,74,86,52,25,,34,28,20,15,3,3,0.4,0.3
2026-02-27T1000,2312A,115.7789,33.8519,亳州市,三国揽胜宫,,,,83,,61,22,,34,28,17,11,,4,,0.5
2026-02-27T1000,3332A,115.7631,33.803,亳州市,亳州学院,细颗粒物(PM2.5),119,135,81,90,53,27,,39,32,16,13,3,3,0.5,0.4
2026-02-27T1000,2693A,82.0482,44.8553,博尔塔拉蒙古自治州,市党校,颗粒物(PM10),56,62,49,20,19,56,,62,62,16,11,1,2,0.5,0.4
2026-02-27T1000,2694A,82.0805,44.8966,博尔塔拉蒙古自治州,市环保局,颗粒物(PM10),56,61,53,21,15,52,,61,59,16,12,1,2,0.7,0.5
2026-02-27T1000,1071A,116.8733,38.2922,沧州市,沧县城建局,颗粒物(PM10),52,54,57,15,26,58,,58,57,13,12,6,5,0.4,0.3
2026-02-27T1000,1072A,116.8462,38.3189,沧州市,电视转播站,,50,50,54,22,29,56,,58,57,18,15,3,2,0.3,0.3
2026-02-27T1000,1073A,116.8588,38.3161,沧州市,市环保局,颗粒物(PM10),53,56,57,22,27,50,,52,51,15,12,4,2,0.4,0.3
2026-02-27T1000,3324A,116.8011,38.294,沧州市,河北水利电力学院,,,53,50,21,27,,,58,57,12,11,7,5,0.3,0.3
2026-02-27T1000,2622A,97.1813,31.1289,昌都市,昌都监测站,,32,32,21,10,9,50,,53,52,10,8,5,4,0.5,0.5
2026-02-27T1000,3719A,97.1707,31.1428,昌都市,昌都会议中心,,19,18,12,11,8,58,,67,63,3,2,6,6,0.5,0.4
2026-02-27T1000,2692A,87.2722,44.0298,昌吉回族自治州,新区政务中心,,40,40,58,26,36,51,,64,59,20,18,4,5,0.6,0.6
2026-02-27T1000,3613A,87.3069,44.0093,昌吉回族自治州,亚心广场,颗粒物(PM10),60,70,70,38,49,47,,63,59,24,16,9,10,0.5,0.5
2026-02-27T1000,4164A,87.2057,43.9289,昌吉回族自治州,财政所,细颗粒物(PM2.5),79,84,80,58,51,45,,56,53,20,13,6,7,0.6,0.6
2026-02-27T1000,1120A,125.2874,43.9024,长春市,客车厂,,50,50,35,30,25,50,,47,46,17,15,7,7,0.5,0.4
2026-02-27T1000,1121A,125.2943,43.8508,长春市,邮电学院,,42,32,34,29,24,55,,54,53,12,10,10,9,0.5,0.4
2026-02-27T1000,1122A,125.3648,43.8745,长春市,劳动公园,颗粒物(PM10),52,53,44,31,27,54,,50,49,16,16,9,8,0.8,0.6
2026-02-27T1000,1123A,125.3233,43.8781,长春市,园林处,,48,48,35,31,26,51,,50,49,16,13,8,7,0.4,0.3
2026-02-27T1000,1124A,125.4604,43.7904,长春市,净月潭,,39,35,34,27,24,52,,55,53,11,10,6,7,0.4,0.4
2026-02-27T1000,1126A,125.38,43.8422,长春市,经开区环卫处,,41,41,38,28,23,50,,51,49,14,14,5,6,0.6,0.6
2026-02-27T1000,1127A,125.234,43.7761,长春市,高新区管委会,,36,36,32,25,21,49,,55,52,21,15,10,9,0.5,0.4
2026-02-27T1000,1128A,125.1695,43.83,长春市,岱山公园,,,52,35,52,26,47,,50,48,,19,6,6,,0.6
2026-02-27T1000,4281A,125.334645,43.916281,长春市,北亚泰大街1068号,,45,45,37,24,27,53,,48,48,13,13,8,7,0.5,0.4
2026-02-27T1000,1335A,113.082,28.2421,长沙市,经开区环保局,,22,,17,15,12,37,,38,38,15,13,2,2,0.4,0.5
2026-02-27T1000,1336A,112.8873,28.2202,长沙市,高开区环保局,,33,,16,23,16,46,,43,43,12,10,4,4,0.5,0.6
2026-02-27T1000,1337A,113.0785,28.2012,长沙市,马坡岭,,25,18,17,17,13,41,,39,39,13,13,4,4,0.7,0.7
2026-02-27T1000,1338A,112.9448,28.1894,长沙市,湖南师范大学,,29,,17,20,14,48,,46,46,11,10,3,3,0.8,0.9
2026-02-27T1000,1339A,113.0177,28.1322,长沙市,雨花区环保局,,24,24,16,16,13,36,,36,36,17,15,7,7,0.8,0.8
2026-02-27T1000,1340A,112.9795,28.2593,长沙市,伍家岭,,30,23,20,21,15,39,,38,38,12,10,4,4,0.6,0.7
2026-02-27T1000,1341A,113.002,28.1944,长沙市,火车新站,,29,23,15,20,14,42,,40,40,12,11,2,2,0.6,0.7
2026-02-27T1000,1342A,112.9846,28.1177,长沙市,天心区环保局,,25,20,16,17,13,43,,41,41,13,11,4,4,0.4,0.4
2026-02-27T1000,1343A,112.8906,28.1307,长沙市,湖南中医药大学,,25,23,16,17,14,47,,45,45,9,9,5,5,0.6,0.6
2026-02-27T1000,1727A,113.1146,36.1547,长治市,清华站,细颗粒物(PM2.5),58,,27,41,25,40,,32,32,11,12,6,5,1.2,0.9
2026-02-27T1000,1730A,113.0887,36.2126,长治市,审计局,,38,29,25,26,24,29,,29,29,16,10,6,6,0.9,0.8
2026-02-27T1000,1731A,113.0845,36.1856,长治市,长治八中,,43,42,32,30,27,29,,29,29,14,8,8,8,1.0,0.9
2026-02-27T1000,2845A,113.1561,36.1912,长治市,德盛苑,,50,,33,35,27,38,,31,31,9,9,7,6,0.9,0.8
2026-02-27T1000,3568A,113.0603,36.0464,长治市,向阳小学,,42,41,51,29,27,35,,34,34,17,15,12,10,0.9,1.2
2026-02-27T1000,3569A,112.8788,36.315,长治市,屯留一中,,38,,34,26,28,28,,26,25,13,19,6,5,0.6,0.8
2026-02-27T1000,4189A,113.113092,36.199482,长治市,英华南巷50号,,39,33,28,27,25,38,,31,31,13,12,6,5,1.2,1
2026-02-27T1000,4190A,113.23666,36.33435,长治市,学府街1号,,,,29,,29,,,,,,17,,3,,0.7
2026-02-27T1000,1854A,111.696,28.9725,常德市,市二中,,32,31,25,22,16,40,,39,37,6,8,6,5,0.7,0.8
2026-02-27T1000,3138A,111.7152,29.0288,常德市,武陵区永安,,33,33,23,21,17,38,,38,37,11,11,4,4,0.6,0.7
2026-02-27T1000,3139A,111.6891,28.9881,常德市,鼎城区玉霞,,29,26,22,20,15,42,,40,39,10,12,6,5,0.3,0.6
2026-02-27T1000,3140A,111.6651,29.0526,常德市,武陵区长庚,,35,,20,24,17,45,,36,36,7,9,6,5,0.7,0.8
2026-02-27T1000,1196A,119.9524,31.7586,常州市,市监测站,,17,16,37,3,14,52,,38,38,20,30,11,11,0.5,0.6
2026-02-27T1000,1200A,119.9351,31.703,常州市,武进监测站,,17,13,28,3,12,53,,33,33,17,23,9,9,0.7,0.7
2026-02-27T1000,3002A,119.9701,31.813,常州市,行政中心,,17,16,26,3,14,52,,49,49,21,30,4,5,0.3,0.6
2026-02-27T1000,3003A,120.0434,31.7726,常州市,经开区,,15,14,35,3,15,44,,44,44,30,32,10,9,0.8,0.9
2026-02-27T1000,3010A,119.8919,31.7892,常州市,钟楼,,12,12,29,3,12,30,,6,6,15,22,6,6,0.5,0.6
2026-02-27T1000,3429A,119.8595,31.706,常州市,武进经发区,,15,10,22,8,17,46,,34,34,24,27,5,5,0.6,0.6
2026-02-27T1000,3430A,119.5812,31.7256,常州市,金坛城区,,25,,17,17,19,57,,38,38,12,16,6,6,0.5,0.6
2026-02-27T1000,4089A,119.9551,31.863,常州市,崇义南街5-H号,,18,6,15,3,12,57,,56,56,15,26,4,4,0.3,0.4
2026-02-27T1000,2220A,120.4318,41.588,朝阳市,西梁,,,,30,19,11,65,,66,65,16,8,,6,0.4,0.4
2026-02-27T1000,2221A,120.452,41.565,朝阳市,河畔小区,,43,43,25,25,10,71,,72,71,10,6,8,8,0.5,0.4
2026-02-27T1000,2222A,120.4176,41.5648,朝阳市,八里堡,,44,44,35,28,11,68,,70,69,19,11,11,9,0.4,0.3
2026-02-27T1000,3026A,116.6179,23.6608,潮州市,市政府,细颗粒物(PM2.5),77,56,64,56,47,27,,29,25,13,11,3,5,0.7,0.6
2026-02-27T1000,4036A,116.646,23.676,潮州市,金山,细颗粒物(PM2.5),75,62,60,55,47,23,,19,17,15,14,2,4,0.8,0.8
2026-02-27T1000,2473A,113.0116,25.8228,郴州市,市职中,,13,11,13,9,9,14,,15,15,10,12,3,4,0.6,0.8
2026-02-27T1000,2475A,113.0381,25.8074,郴州市,市审计局,,10,8,14,7,10,15,,14,14,8,11,3,3,/,/
2026-02-27T1000,2476A,113.0348,25.7757,郴州市,市环保局,,27,27,23,9,10,14,,17,17,8,14,5,4,0.4,0.6
2026-02-27T1000,4252A,113.0138,25.8011,郴州市,好美居路49号,,18,,12,12,11,21,,23,22,11,13,2,2,/,/
2026-02-27T1000,1431A,103.9727,30.7242,成都市,金泉两河,细颗粒物(PM2.5),67,66,70,48,41,36,,22,21,20,18,9,3,0.5,0.5
2026-02-27T1000,1432A,104.1423,30.6765,成都市,十里店,细颗粒物(PM2.5),79,90,74,58,41,15,,41,31,42,21,6,5,0.7,0.6
2026-02-27T1000,1433A,104.0594,30.5765,成都市,三瓦窑,,50,44,60,35,34,59,,56,56,20,16,10,5,0.7,0.4
2026-02-27T1000,1434A,104.1122,30.6306,成都市,沙河铺,,50,38,62,35,33,56,,40,39,28,26,5,4,0.7,0.5
2026-02-27T1000,2880A,104.0219,30.6561,成都市,大石西路,细颗粒物(PM2.5),75,94,74,55,39,26,,43,38,36,22,7,6,0.6,0.4
2026-02-27T1000,3136A,104.2724,30.559,成都市,龙泉驿区区政府,,,,46,,30,68,,62,62,,10,,6,0.5,0.4
2026-02-27T1000,3357A,104.0028,30.6891,成都市,金博路,颗粒物(PM10),52,54,59,27,28,26,,35,31,35,24,11,6,0.7,0.5
2026-02-27T1000,3359A,104.056,30.5228,成都市,华阳,,45,44,53,31,29,76,,68,68,15,20,8,4,0.6,0.5
2026-02-27T1000,3488A,104.387954,30.746684,成都市,青石路225号,细颗粒物(PM2.5),59,42,67,42,36,48,,24,24,24,27,4,4,0.7,0.5
2026-02-27T1000,3489A,104.0788,30.4054,成都市,科学城,,48,48,52,28,25,70,,57,57,9,14,8,8,0.8,0.7
2026-02-27T1000,4011A,103.8505,30.6946,成都市,光华大道三段,颗粒物(PM10),66,81,75,47,37,22,,37,29,37,24,6,4,0.7,0.5
2026-02-27T1000,4144A,104.3257,30.6406,成都市,八角井街185号,,49,,63,34,29,69,,56,56,11,8,6,4,0.7,0.5
2026-02-27T1000,4224A,104.2433276,30.53529463,成都市,鲸龙路1057号,,48,48,58,32,29,72,,57,57,13,15,7,6,0.8,0.6
2026-02-27T1000,1062A,117.9531,40.908,承德市,铁路,,25,25,46,12,18,39,,54,49,23,11,1,2,0.4,0.4
2026-02-27T1000,1063A,117.9397,40.9763,承德市,中国银行,,18,14,45,8,15,57,,63,60,9,7,3,2,0.3,0.3
2026-02-27T1000,4073A,117.9462,40.95,承德市,杏林街1号,,30,29,45,21,21,54,,62,57,9,6,3,4,0.4,0.3
2026-02-27T1000,4274A,117.7994,40.9605,承德市,滨河大街98号,,32,,41,22,28,56,,62,59,10,8,3,4,0.3,0.3
2026-02-27T1000,2314A,117.4698,30.6617,池州市,池州学院,,28,21,21,19,14,46,,38,38,15,19,3,3,0.6,0.7
2026-02-27T1000,3237A,117.4918,30.6617,池州市,展览馆,,,21,16,20,15,,,37,37,12,17,,2,0.6,0.7
2026-02-27T1000,3333A,117.5626,30.695,池州市,第八中学,,19,16,13,13,11,40,,37,37,18,20,3,3,0.5,0.5
2026-02-27T1000,3334A,117.5037,30.6242,池州市,第十二中学,,19,17,15,13,11,42,,39,39,21,20,4,4,0.8,0.9
2026-02-27T1000,1744A,118.9229,42.2816,赤峰市,松山一中,,36,28,25,25,11,37,,51,46,29,14,27,5,1.1,0.6
2026-02-27T1000,1745A,118.9588,42.2733,赤峰市,哈达街,,,,33,26,11,43,,57,53,32,13,47,11,0.9,0.7
2026-02-27T1000,1746A,118.8792,42.2551,赤峰市,天义路,,30,30,21,20,11,40,,60,51,30,12,58,15,0.6,0.6
2026-02-27T1000,3058A,119.2656,42.0356,赤峰市,银河街,,31,31,52,11,17,59,,62,62,7,6,10,8,0.6,0.5
2026-02-27T1000,3286A,118.9359,42.3146,赤峰市,桥北物流园区,,20,9,14,3,9,62,,68,66,5,3,4,4,0.6,0.5
2026-02-27T1000,2521A,107.3473,22.4137,崇左市,市环保局江州分局,,33,33,35,19,24,9,,3,3,16,15,7,7,0.6,0.6
2026-02-27T1000,4256A,107.375,22.3736,崇左市,石景林东路7号,,25,21,24,17,18,10,,5,5,16,15,3,2,0.6,0.6
2026-02-27T1000,3207A,118.31131,32.3033,滁州市,市政府原办公楼,,19,15,18,10,14,59,,46,45,14,12,4,4,0.5,0.4
2026-02-27T1000,3331A,118.3268,32.2633,滁州市,图书馆,,20,10,12,6,9,64,,51,50,10,10,8,8,0.2,0.3
2026-02-27T1000,4101A,118.3196,32.3335,滁州市,银山路666号,,22,,12,10,13,69,,50,50,6,8,5,5,0.4,0.4
2026-02-27T1000,4102A,118.3426,32.2979,滁州市,黄山路555号,,21,18,23,8,13,67,,51,51,9,9,6,6,0.3,0.4
2026-02-27T1000,2606A,101.5379,25.0492,楚雄彝族自治州,市经济开发区,细颗粒物(PM2.5),52,43,48,36,35,49,,39,38,16,13,4,3,0.6,0.6
2026-02-27T1000,4153A,101.5536,25.0343,楚雄彝族自治州,团结路562号,,43,36,36,30,32,47,,61,46,16,9,6,5,0.9,0.7
2026-02-27T1000,2549A,107.5087,31.2186,达州市,市环境监测站,,33,33,38,16,20,10,,8,8,30,29,11,8,0.3,0.2
2026-02-27T1000,2550A,107.4988,31.2132,达州市,凤凰小区,,,31,35,16,19,,,10,10,28,30,11,8,0.4,0.4
2026-02-27T1000,2551A,107.5081,31.1987,达州市,达县机关宾馆,,29,29,34,8,19,23,,12,12,24,31,10,7,0.5,0.5
2026-02-27T1000,2552A,107.4644,31.2124,达州市,市政中心,,40,40,41,14,18,10,,6,6,32,31,11,7,0.6,0.5
2026-02-27T1000,2614A,100.2168,25.5818,大理白族自治州,大理市环境监测站,,46,35,38,32,34,95,,102,100,12,8,7,7,0.9,0.8
2026-02-27T1000,2615A,100.1542,25.7055,大理白族自治州,大理古城,,38,38,38,24,29,95,,81,79,8,9,8,8,0.8,0.8
2026-02-27T1000,1109A,121.6119,38.974,大连市,甘井子,细颗粒物(PM2.5),85,86,105,63,64,46,,37,37,25,30,11,9,0.3,0.6
2026-02-27T1000,1110A,121.565,38.9509,大连市,周水子,细颗粒物(PM2.5),84,88,101,62,60,50,,38,38,19,28,7,8,0.6,0.9
2026-02-27T1000,1111A,121.5637,38.8849,大连市,星海三站,细颗粒物(PM2.5),78,80,93,57,61,46,,36,36,20,24,6,6,0.9,1.1
2026-02-27T1000,1112A,121.6301,38.9117,大连市,青泥洼桥,细颗粒物(PM2.5),85,89,115,63,63,40,,30,30,33,37,15,12,0.7,1
2026-02-27T1000,1113A,121.6248,38.8643,大连市,傅家庄,细颗粒物(PM2.5),79,84,114,58,58,49,,37,37,26,34,11,11,0.8,0.9
2026-02-27T1000,1114A,121.5117,38.8636,大连市,七贤岭,细颗粒物(PM2.5),79,82,98,58,56,59,,45,45,16,23,7,7,0.7,1
2026-02-27T1000,1116A,121.7507,39.1339,大连市,金州,细颗粒物(PM2.5),109,113,104,82,63,35,,33,33,31,27,20,14,0.9,0.8
2026-02-27T1000,1117A,121.7811,39.0495,大连市,开发区,细颗粒物(PM2.5),107,101,108,80,68,33,,30,30,38,33,10,6,1.0,1
2026-02-27T1000,1118A,121.9762,39.0631,大连市,双D港,细颗粒物(PM2.5),97,102,112,72,61,59,,43,43,23,26,14,10,0.8,0.9
2026-02-27T1000,4082A,121.2548,38.8188,大连市,旅顺,细颗粒物(PM2.5),95,95,94,71,56,50,,41,41,17,20,12,11,0.7,0.9
2026-02-27T1000,1789A,124.8085,46.0381,大庆市,大同区,,,,29,,16,,,76,50,,12,,9,,0.5
2026-02-27T1000,1790A,125.1166,46.5255,大庆市,龙凤区,,,,31,,16,,,73,53,,16,,3,,0.1
2026-02-27T1000,1791A,124.8894,46.4007,大庆市,红岗区,,33,33,31,22,20,46,,36,36,16,15,8,10,0.3,0.5
2026-02-27T1000,1792A,125.1391,46.578,大庆市,萨尔图区,,23,,24,16,11,63,,57,57,8,16,4,5,0.5,0.5
2026-02-27T1000,1793A,124.9026,46.6217,大庆市,让胡路区,,21,21,26,9,18,55,,30,30,19,30,7,7,0.5,0.6
2026-02-27T1000,3481A,125.127,46.6277,大庆市,萨区政府监测点,,21,20,26,9,14,66,,61,60,1,3,9,8,0.3,0.3
2026-02-27T1000,1723A,113.2926,40.0759,大同市,云冈宾馆,细颗粒物(PM2.5),117,125,104,88,57,31,,43,37,26,20,5,6,1.0,0.7
2026-02-27T1000,1724A,113.3437,40.0921,大同市,大同大学,细颗粒物(PM2.5),108,94,96,81,70,31,,46,40,37,23,7,6,0.9,0.6
2026-02-27T1000,1725A,113.2637,40.129,大同市,安家小村,细颗粒物(PM2.5),108,112,110,81,69,37,,45,41,25,18,6,7,1.0,0.7
2026-02-27T1000,3282A,113.3399,40.0586,大同市,大同市卫生学校,细颗粒物(PM2.5),105,97,99,79,62,34,,47,43,31,20,3,5,1.0,0.7
2026-02-27T1000,3565A,113.1371,40.1122,大同市,云冈站,细颗粒物(PM2.5),113,102,109,85,63,28,,38,34,30,22,5,7,0.9,0.7
2026-02-27T1000,3566A,113.1186,40.2556,大同市,图书馆,细颗粒物(PM2.5),119,117,93,90,62,47,,43,41,19,20,6,11,0.9,0.8
2026-02-27T1000,3567A,113.5931,40.0459,大同市,区一中,细颗粒物(PM2.5),90,116,110,67,68,53,,40,40,16,17,9,10,0.8,0.7
2026-02-27T1000,4199A,113.2798248,40.09972476,大同市,魏都大道141号,细颗粒物(PM2.5),109,117,106,82,68,29,,41,36,26,20,8,9,1.0,0.8
2026-02-27T1000,2269A,124.1068,50.4091,大兴安岭地区,科技局,,20,11,23,3,12,62,,62,62,4,5,5,4,0.3,0.3
2026-02-27T1000,3663A,124.117,50.4279,大兴安岭地区,红旗社区,,19,14,18,6,14,58,,54,52,17,17,6,6,0.3,0.3
2026-02-27T1000,1600A,124.33,40.0625,丹东市,江湾东路,颗粒物(PM10),59,67,83,37,41,45,,51,48,22,17,11,9,0.8,0.7
2026-02-27T1000,1601A,124.4242,40.1513,丹东市,临江后街,细颗粒物(PM2.5),67,59,84,48,50,32,,35,32,31,21,21,14,0.8,0.7
2026-02-27T1000,1602A,124.3935,40.1461,丹东市,元宝山,细颗粒物(PM2.5),67,70,80,48,44,26,,34,32,31,21,14,11,0.8,0.7
2026-02-27T1000,1603A,124.3634,40.1093,丹东市,民主桥,颗粒物(PM10),59,68,84,38,44,36,,37,36,21,16,11,10,0.6,0.6
2026-02-27T1000,3541A,109.5726195,19.51688767,儋州市,第一中学子站,,34,34,33,23,20,47,,42,41,5,4,6,6,0.4,0.3
2026-02-27T1000,3542A,109.5567,19.5187,儋州市,东坡学校子站,,30,26,30,21,20,53,,43,42,4,3,4,5,0.5,0.4
2026-02-27T1000,2616A,98.5611,24.4273,德宏傣族景颇族自治州,德宏州监测站,细颗粒物(PM2.5),64,57,59,46,53,18,,14,14,32,26,8,6,1.0,0.9
2026-02-27T1000,3677A,98.5887,24.4366,德宏傣族景颇族自治州,芒市人民政府综合楼,"颗粒物(PM10),细颗粒物(PM2.5)",57,64,68,40,48,17,,31,24,27,14,4,4,0.7,0.6
2026-02-27T1000,1901A,104.424,31.1209,德阳市,东山公园,,,65,58,51,37,,,60,55,18,11,3,4,,0.6
2026-02-27T1000,1902A,104.3827,31.1318,德阳市,西小区,细颗粒物(PM2.5),77,92,76,56,44,14,,22,16,43,24,5,7,1.0,0.8
2026-02-27T1000,1904A,104.3553,31.1091,德阳市,耐火材料厂,"颗粒物(PM10),细颗粒物(PM2.5)",74,98,70,54,47,14,,18,12,45,23,4,4,0.9,0.6
2026-02-27T1000,4145A,104.4144,31.1495,德阳市,市林业局,细颗粒物(PM2.5),74,86,67,54,44,36,,26,22,22,20,8,9,0.8,0.7
2026-02-27T1000,1622A,116.3034,37.4675,德州市,儿童乐园,颗粒物(PM10),76,102,98,49,43,51,,52,51,18,17,9,10,0.6,0.6
2026-02-27T1000,1624A,116.2992,37.4449,德州市,监理站,,,107,106,50,42,,,60,60,16,15,14,15,0.8,0.9
2026-02-27T1000,3066A,116.2722,37.438,德州市,九衢泉纯净水厂,颗粒物(PM10),70,90,90,50,43,52,,54,53,19,17,5,4,0.7,0.6
2026-02-27T1000,3371A,116.3693,37.44,德州市,开发区人民医院,颗粒物(PM10),78,105,103,53,45,52,,48,48,13,15,9,9,0.5,0.5
2026-02-27T1000,3511A,116.5687,37.3331,德州市,陵城艺术中心,颗粒物(PM10),75,100,98,48,45,51,,50,47,14,15,2,2,0.7,0.5
2026-02-27T1000,4292A,116.352738,37.420875,德州市,新河东路,颗粒物(PM10),74,97,99,43,40,52,,49,49,15,15,10,10,0.8,0.7
2026-02-27T1000,2621A,99.7054,27.8319,迪庆藏族自治州,迪庆州站,,36,36,26,17,18,66,,78,70,11,7,6,5,0.8,0.6
2026-02-27T1000,3180A,99.7122,27.8129,迪庆藏族自治州,质量技术监督局,,28,28,21,16,16,68,,82,71,15,9,5,5,0.8,0.6
2026-02-27T1000,4257A,104.6092,35.5962,定西市,将台街,颗粒物(PM10),102,153,127,56,49,30,,37,30,25,13,20,13,1.0,0.7
2026-02-27T1000,4309A,104.6159,35.5701,定西市,正龙路62号,颗粒物(PM10),95,139,134,43,45,46,,43,40,9,7,11,10,0.8,0.6
2026-02-27T1000,4071A,114.9883,38.5232,定州市,交通局,,40,40,77,14,42,53,,51,49,18,19,8,8,0.4,0.6
2026-02-27T1000,4072A,115.0045,38.5136,定州市,第五中学,,47,47,89,28,42,48,,43,41,12,14,7,7,0.4,0.5
2026-02-27T1000,1390A,113.7943,23.0132,东莞市,东城石井,,36,36,27,21,15,53,,38,38,23,20,5,5,0.6,0.5
2026-02-27T1000,1391A,113.7384,22.9659,东莞市,南城西平,,38,38,29,26,16,40,,26,26,28,29,7,7,0.5,0.5
2026-02-27T1000,3319A,113.7283,23.041,东莞市,万江金泰,,41,41,38,25,19,44,,36,36,19,21,6,6,0.7,0.9
2026-02-27T1000,4129A,113.8666,23.1062,东莞市,裕兴路,,43,43,32,25,16,54,,49,48,17,16,6,6,0.8,0.7
2026-02-27T1000,4130A,114.0076,22.9739,东莞市,教育路1号,,26,26,27,15,14,62,,60,58,16,14,4,4,0.5,0.5
2026-02-27T1000,4131A,113.7981,22.8124,东莞市,长怡路1号,,41,41,33,23,17,53,,43,41,22,25,5,6,0.6,0.6
2026-02-27T1000,1666A,118.6612,37.4313,东营市,市环保局,细颗粒物(PM2.5),74,83,81,54,37,60,,60,58,13,14,6,7,0.7,0.6
2026-02-27T1000,3036A,118.6903,37.4337,东营市,开发区管委会,细颗粒物(PM2.5),70,80,81,51,31,62,,61,59,18,19,6,6,0.6,0.6
2026-02-27T1000,3365A,118.5721,37.5654,东营市,垦利区民丰路,细颗粒物(PM2.5),68,63,75,49,35,69,,64,64,13,15,8,8,0.7,0.7
2026-02-27T1000,3498A,118.5063,37.8606,东营市,河口城区,颗粒物(PM10),54,58,70,26,28,68,,67,67,15,15,6,4,0.8,0.8
2026-02-27T1000,3646A,118.4979,37.4623,东营市,胜利站,颗粒物(PM10),73,95,79,49,34,59,,59,57,15,15,6,6,0.8,0.8
2026-02-27T1000,3734A,118.5753,37.4405,东营市,理想之城,"颗粒物(PM10),细颗粒物(PM2.5)",69,88,84,50,36,65,,63,63,11,12,4,4,0.7,0.7
2026-02-27T1000,1591A,110.0024,39.8127,鄂尔多斯市,综合楼,颗粒物(PM10),74,97,85,24,21,45,,41,41,37,29,20,11,0.6,0.5
2026-02-27T1000,1592A,109.9485,39.8259,鄂尔多斯市,巴音孟克林场办事处,颗粒物(PM10),70,90,76,24,25,58,,48,48,24,24,20,8,0.6,0.5
2026-02-27T1000,1593A,109.7734,39.5987,鄂尔多斯市,康泽苑,颗粒物(PM10),65,80,69,16,21,39,,38,35,21,18,7,7,0.6,0.4
2026-02-27T1000,1594A,109.8121,39.5987,鄂尔多斯市,华泰汽车城,颗粒物(PM10),63,75,67,14,19,40,,24,24,20,22,7,6,0.4,0.4
2026-02-27T1000,1595A,109.9734,39.7884,鄂尔多斯市,奥林花园,颗粒物(PM10),70,90,82,22,21,44,,20,20,36,34,19,9,0.7,0.4
2026-02-27T1000,2436A,114.894,30.3989,鄂州市,市政府,,33,29,18,23,11,32,,36,35,25,21,6,6,0.8,0.7
2026-02-27T1000,2437A,114.8986,30.3714,鄂州市,赵家坝,,40,,22,28,10,44,,44,44,12,6,9,10,0.8,0.7
2026-02-27T1000,3654A,114.8093,30.4091,鄂州市,精准医疗中心,,42,42,22,23,12,54,,50,50,8,7,5,6,0.8,0.8
2026-02-27T1000,2454A,109.4978,30.2979,恩施土家族苗族自治州,湖北民院,,16,16,21,3,9,15,,23,22,17,12,6,6,0.6,0.7
2026-02-27T1000,3549A,109.5061,30.3771,恩施土家族苗族自治州,龙凤新区,,16,,11,11,7,24,,11,11,7,8,7,7,0.5,0.5
2026-02-27T1000,2499A,108.3411,21.6159,防城港市,沙万,颗粒物(PM10),52,53,46,22,24,17,,44,36,34,18,6,7,0.6,0.6
2026-02-27T1000,2500A,108.3515,21.7733,防城港市,防城档案局,,46,43,38,32,28,18,,39,33,8,6,5,5,0.6,0.6
2026-02-27T1000,2501A,108.3506,21.6414,防城港市,大海花园,,40,40,38,23,26,28,,50,43,22,15,7,7,0.5,0.5
2026-02-27T1000,1371A,113.1293,23.0065,佛山市,湾梁,,31,31,25,20,14,38,,50,43,20,12,/,/,/,/
2026-02-27T1000,1372A,113.1082,23.0477,佛山市,华材职中,,27,27,24,18,16,42,,54,48,20,13,6,6,0.4,0.3
2026-02-27T1000,1373A,113.1439,23.045,佛山市,南海气象局,,44,44,30,28,19,36,,48,42,26,16,/,/,/,/
2026-02-27T1000,1374A,113.2879,22.8094,佛山市,顺德苏岗,,45,45,28,22,15,51,,50,50,14,12,/,/,0.6,0.6
2026-02-27T1000,1376A,112.8384,22.8678,佛山市,高明孔堂,,38,38,28,21,15,32,,36,29,10,6,/,/,/,/
2026-02-27T1000,1377A,112.8835,23.1584,佛山市,三水监测站,,32,31,25,22,20,36,,32,31,22,18,3,3,0.4,0.4
2026-02-27T1000,1378A,112.8668,23.185,佛山市,三水云东海,,44,44,42,20,17,47,,35,34,17,18,/,/,/,/
2026-02-27T1000,3625A,113.2568,22.7629,佛山市,容桂街道办,,28,24,21,19,14,41,,43,43,15,11,/,/,/,/
2026-02-27T1000,1282A,119.2681,26.0506,福州市,师大,,15,15,17,9,15,15,,14,13,19,21,4,3,0.6,0.6
2026-02-27T1000,1283A,119.2983,26.1028,福州市,五四北路,,22,22,16,14,15,14,,13,11,22,23,4,4,0.6,0.5
2026-02-27T1000,1284A,119.2648,26.0769,福州市,杨桥西路,,,,14,13,13,,,14,12,,21,,3,/,/
2026-02-27T1000,3048A,119.5799,26.0937,福州市,九龙,,29,,24,20,19,16,,7,7,19,25,4,4,0.6,0.6
2026-02-27T1000,3526A,119.5188,25.9666,福州市,吴航,,19,15,19,13,14,18,,22,20,19,24,4,4,0.7,0.7
2026-02-27T1000,4104A,119.3106,26.0648,福州市,路通桥巷6号,,28,19,22,19,18,13,,13,11,21,22,/,/,/,/
2026-02-27T1000,1755A,123.7974,41.8494,抚顺市,望花区,细颗粒物(PM2.5),62,68,83,44,53,53,,60,57,16,14,11,9,0.7,0.7
2026-02-27T1000,1756A,123.9161,41.8827,抚顺市,顺城区,,49,49,70,30,53,56,,58,56,18,18,12,10,0.5,0.6
2026-02-27T1000,1757A,124.0437,41.8615,抚顺市,东洲区,,43,43,84,29,53,53,,54,52,13,15,9,9,0.7,0.7
2026-02-27T1000,1758A,123.9246,41.8638,抚顺市,新抚区,颗粒物(PM10),53,55,85,33,52,56,,60,56,13,15,11,9,0.6,0.6
2026-02-27T1000,1759A,124.0972,41.8961,抚顺市,大伙房水库,,38,36,84,26,55,61,,60,59,9,13,12,11,0.5,0.7
2026-02-27T1000,1760A,123.708,41.8386,抚顺市,沈抚新城,,,102,82,48,49,56,,61,57,13,14,8,7,,0.7
2026-02-27T1000,2377A,116.3544,27.9833,抚州市,市站,,17,17,18,11,12,45,,40,39,5,8,5,5,1.6,1.6
2026-02-27T1000,2378A,116.3562,27.9631,抚州市,血防站,,,19,23,3,9,42,,36,36,10,13,,54,1.1,1
2026-02-27T1000,2379A,116.3561,28.0007,抚州市,采茶剧团,,17,17,18,6,8,39,,35,34,6,6,20,19,1.4,1.5
2026-02-27T1000,2380A,116.3854,27.9648,抚州市,医学分院,,30,30,22,11,8,39,,36,35,8,9,4,4,1.1,1.2
2026-02-27T1000,2207A,121.6095,41.9978,阜新市,工业园区,,46,46,28,29,11,68,,67,66,12,7,9,8,0.4,0.3
2026-02-27T1000,2208A,121.6567,42.0188,阜新市,长青街,,40,37,24,28,12,63,,61,60,10,8,8,7,0.4,0.4
2026-02-27T1000,2209A,121.6672,42.07,阜新市,农业园区,,43,40,28,30,11,57,,60,60,8,6,8,6,0.7,0.5
2026-02-27T1000,2211A,121.6343,42.0455,阜新市,玉龙新城,,48,46,28,33,10,67,,66,66,11,8,8,6,0.7,0.5
2026-02-27T1000,2301A,115.8276,32.8929,阜阳市,市监测站,细颗粒物(PM2.5),57,51,52,40,34,31,,42,39,20,16,4,4,0.5,0.5
2026-02-27T1000,2303A,115.8551,32.8606,阜阳市,开发区,细颗粒物(PM2.5),59,60,55,42,36,32,,38,37,18,16,4,4,0.5,0.5
2026-02-27T1000,2875A,115.783962,32.889217,阜阳市,阜阳职业技术学院,细颗粒物(PM2.5),53,45,45,37,33,44,,50,49,11,11,5,5,0.5,0.5
2026-02-27T1000,3468A,115.79,32.8614,阜阳市,市规划展馆,细颗粒物(PM2.5),53,54,50,37,34,40,,48,46,12,11,6,6,0.5,0.5
2026-02-27T1000,3469A,115.835101,32.918568,阜阳市,枣园社区,细颗粒物(PM2.5),57,58,46,40,37,36,,44,42,14,14,6,6,0.6,0.5
2026-02-27T1000,2669A,102.9097,34.9841,甘南藏族自治州,州政府,颗粒物(PM10),78,105,67,53,40,22,,19,18,35,22,9,7,1.6,0.7
2026-02-27T1000,3380A,102.8915,34.9618,甘南藏族自治州,甘肃民族师范学院,颗粒物(PM10),74,97,70,35,22,30,,26,26,32,22,16,10,0.7,0.4
2026-02-27T1000,2570A,101.96,30.048,甘孜藏族自治州,水桥子,,14,9,6,3,5,24,,35,29,27,11,7,7,0.2,0.3
2026-02-27T1000,3065A,101.9534,29.9976,甘孜藏族自治州,州环保局,,16,15,6,3,6,50,,42,40,12,8,6,6,0.3,0.2
2026-02-27T1000,2363A,114.9368,25.8663,赣州市,地委,,18,,19,12,10,20,,24,23,12,25,3,3,1.0,1.1
2026-02-27T1000,2364A,114.946,25.8483,赣州市,气象台,,15,14,26,10,14,15,,20,19,18,30,5,6,0.7,0.7
2026-02-27T1000,2365A,114.932,25.8332,赣州市,市图书馆,,14,14,16,6,9,21,,28,27,13,21,4,4,0.8,0.8
2026-02-27T1000,2366A,114.8905,25.8472,赣州市,华坚鞋城,,,24,20,3,9,,,18,17,15,22,,7,1.0,0.8
2026-02-27T1000,3109A,115.0094,25.8614,赣州市,赣县区卫计委,,8,6,15,3,12,21,,28,26,16,27,4,4,0.7,0.6
2026-02-27T1000,2684A,106.2753,36.0057,固原市,监测站,颗粒物(PM10),83,115,135,38,44,60,,68,68,13,16,8,10,0.5,0.5
2026-02-27T1000,2685A,106.2384,36.0189,固原市,新区,颗粒物(PM10),86,122,133,39,40,65,,73,73,18,17,8,8,0.6,0.5
2026-02-27T1000,2544A,106.6307,30.4577,广安市,市委,,48,40,55,33,47,32,,30,26,11,15,7,8,0.7,0.7
2026-02-27T1000,2545A,106.6266,30.4662,广安市,友谊中学,,40,37,51,28,37,30,,34,29,14,14,11,11,0.7,0.7
2026-02-27T1000,2547A,106.6386,30.4551,广安市,广电花园,细颗粒物(PM2.5),54,41,47,38,48,25,,27,23,13,14,7,8,0.7,0.7
2026-02-27T1000,2902A,106.6347,30.4868,广安市,北辰小学,细颗粒物(PM2.5),53,48,52,37,44,25,,34,28,16,12,13,14,0.9,0.8
2026-02-27T1000,2524A,105.8211,32.4444,广元市,老城,颗粒物(PM10),51,51,63,30,27,20,,45,36,32,18,12,9,1.2,0.7
2026-02-27T1000,2526A,105.8629,32.429,广元市,监测站,颗粒物(PM10),54,58,63,35,28,8,,37,27,33,17,7,5,1.1,0.6
2026-02-27T1000,3617A,105.8047,32.4167,广元市,经开区,颗粒物(PM10),52,53,72,30,28,22,,36,27,27,19,4,3,0.8,0.6
2026-02-27T1000,1345A,113.2346,23.1423,广州市,广雅中学,,30,30,27,18,15,35,,38,37,20,16,2,2,0.2,0.3
2026-02-27T1000,1346A,113.2611,23.105,广州市,市五中,,26,26,26,17,14,42,,41,40,20,18,6,6,/,/
2026-02-27T1000,1348A,113.3477,23.0916,广州市,广东商学院,,26,24,24,18,16,38,,36,32,17,16,4,5,0.6,0.6
2026-02-27T1000,1349A,113.4332,23.105,广州市,市八十六中,,24,24,20,12,10,39,,29,27,29,31,4,4,/,/
2026-02-27T1000,1350A,113.3506,22.9488,广州市,番禺中学,颗粒物(PM10),51,51,40,18,14,45,,50,48,16,13,3,3,0.6,0.6
2026-02-27T1000,1351A,113.2147,23.3918,广州市,花都师范,,37,37,32,17,16,37,,36,33,23,19,5,5,0.9,0.8
2026-02-27T1000,1352A,113.2599,23.1329,广州市,市监测站,,32,32,28,17,16,40,,39,38,18,16,3,2,/,/
2026-02-27T1000,1353A,113.5618,23.3119,广州市,九龙镇镇龙,,41,41,35,24,19,34,,22,22,19,23,6,6,0.5,0.5
2026-02-27T1000,1354A,113.2764,23.1544,广州市,麓湖,,28,28,27,17,16,47,,40,39,12,14,3,3,0.5,0.4
2026-02-27T1000,2846A,113.3209,23.1323,广州市,体育西,,27,27,29,14,12,45,,43,42,17,18,4,4,0.6,0.6
2026-02-27T1000,3298A,113.5718,23.5493,广州市,从化街口,,43,40,44,30,30,36,,20,18,16,20,8,8,0.6,0.5
2026-02-27T1000,3299A,113.3463,23.369,广州市,白云竹料,,30,30,32,18,18,47,,39,38,16,19,3,3,0.5,0.5
2026-02-27T1000,3300A,113.2981,23.2365,广州市,白云嘉禾,,28,28,29,18,17,47,,40,39,18,21,7,7,/,/
2026-02-27T1000,3301A,113.4256,23.1716,广州市,黄埔科学城,,24,24,28,16,16,52,,39,38,14,18,4,4,0.6,0.6
2026-02-27T1000,3302A,113.3942,23.0485,广州市,番禺大学城,,26,26,28,18,14,40,,49,45,19,13,6,7,0.5,0.5
2026-02-27T1000,3303A,113.4923,22.8169,广州市,南沙黄阁,,31,31,22,14,14,46,,60,56,21,16,5,5,/,/
2026-02-27T1000,3304A,113.534,22.7893,广州市,南沙街,颗粒物(PM10),62,74,35,12,14,46,,54,51,18,17,5,5,0.5,0.5
2026-02-27T1000,3443A,113.2905,23.5541,广州市,花都梯面,细颗粒物(PM2.5),58,63,28,41,15,25,,36,30,18,15,5,5,/,/
2026-02-27T1000,3445A,113.786,23.7479,广州市,从化良口,,25,21,25,17,18,17,,15,15,9,11,4,4,/,/
2026-02-27T1000,3446A,113.805,23.2614,广州市,增城荔城,,40,40,37,28,21,51,,35,34,17,17,7,7,0.5,0.5
2026-02-27T1000,2506A,109.604387,23.066791,贵港市,江南子站,细颗粒物(PM2.5),52,36,32,36,26,19,,21,17,15,18,6,7,0.7,0.7
2026-02-27T1000,2508A,109.5669,23.1065,贵港市,荷城子站,,,,26,25,23,,,28,28,19,21,7,6,0.7,0.7
2026-02-27T1000,3405A,109.5886,23.1172,贵港市,新世纪学校,,35,24,27,24,25,26,,26,26,22,23,/,/,0.8,0.7
2026-02-27T1000,4260A,109.5933,23.095,贵港市,中山路155-3号,,49,44,44,34,29,21,,24,22,17,18,/,/,0.8,0.8
2026-02-27T1000,1439A,106.6863,26.6035,贵阳市,马鞍山,,10,6,30,3,22,29,,36,32,8,8,4,5,/,/
2026-02-27T1000,1441A,106.6241,26.6266,贵阳市,鉴湖路,,20,,38,14,24,29,,34,31,7,9,5,7,0.4,0.4
2026-02-27T1000,1442A,106.7468,26.6344,贵阳市,燕子冲,,13,,33,9,22,36,,45,41,10,10,5,4,0.5,0.4
2026-02-27T1000,1443A,106.6556,26.4362,贵阳市,碧云窝,,14,14,36,3,24,32,,39,35,9,9,6,8,/,/
2026-02-27T1000,1445A,106.6963,26.6063,贵阳市,红边门,,10,,34,6,22,31,,40,36,12,12,4,6,/,/
2026-02-27T1000,1446A,106.7162383,26.56964667,贵阳市,新华路,,14,14,41,3,23,26,,31,28,11,12,1,6,0.2,0.4
2026-02-27T1000,1447A,106.6742,26.542,贵阳市,太慈桥,,12,,30,3,24,37,,46,42,14,13,4,4,/,/
2026-02-27T1000,4230A,106.688212,26.56952,贵阳市,花果园大街66号,,,,29,2,23,31,,38,34,11,12,3,3,/,/
2026-02-27T1000,4231A,106.687268,26.516892,贵阳市,漓江路57号,,10,,34,6,24,30,,35,32,12,12,4,6,0.6,0.6
2026-02-27T1000,1864A,110.3091,25.2705,桂林市,龙隐路小学,,11,,31,3,26,33,,30,30,10,17,2,3,0.7,0.9
2026-02-27T1000,1865A,110.2849361,25.22909545,桂林市,八中,,9,6,32,3,18,26,,24,24,15,22,2,3,0.7,0.8
2026-02-27T1000,3531A,110.296,25.1254,桂林市,旅游学院,,16,16,28,3,26,38,,29,29,6,10,4,8,0.8,0.9
2026-02-27T1000,4222A,110.1835,25.2444,桂林市,环湖路276号,,12,12,30,3,28,34,,29,29,7,18,3,6,0.8,1
2026-02-27T1000,4301A,110.2803,25.2773,桂林市,信义路13号,,10,8,31,3,25,30,,27,27,8,16,3,3,0.8,1
2026-02-27T1000,2674A,100.2262,34.4854,果洛藏族自治州,玛沁县大武镇,颗粒物(PM10),56,61,51,17,17,46,,49,46,6,3,21,17,0.6,0.4
2026-02-27T1000,1130A,126.5557,45.8109,哈尔滨市,松北商大,颗粒物(PM10),61,71,27,9,15,56,,48,48,15,9,46,13,0.6,0.6
2026-02-27T1000,1132A,126.6162,45.719,哈尔滨市,南岗学府路,,31,31,28,11,9,68,,63,63,12,10,9,9,0.2,0.1
2026-02-27T1000,1133A,126.6894,45.7733,哈尔滨市,太平宏伟公园,,34,34,26,3,14,63,,52,52,8,11,7,8,0.6,0.6
2026-02-27T1000,1134A,126.6361,45.7672,哈尔滨市,道外承德广场,,46,46,47,18,12,48,,40,40,22,18,21,21,0.4,0.2
2026-02-27T1000,1136A,126.644,45.7261,哈尔滨市,动力和平路,,39,39,27,10,11,61,,57,57,11,9,9,11,0.8,0.7
2026-02-27T1000,1137A,126.5933,45.7479,哈尔滨市,道里建国路,,23,23,20,7,11,57,,56,55,18,16,7,14,0.7,0.5
2026-02-27T1000,1138A,126.6127,45.6119,哈尔滨市,平房东轻厂,,35,35,40,16,18,53,,45,45,24,32,5,6,0.5,0.5
2026-02-27T1000,1139A,126.5875,45.9827,哈尔滨市,呼兰师专,,42,42,45,10,17,59,,48,48,9,13,9,11,0.4,0.5
2026-02-27T1000,1140A,126.6299,45.6799,哈尔滨市,省农科院,,,43,26,12,13,55,,55,55,18,12,,8,0.5,0.4
2026-02-27T1000,4282A,126.6769,45.7379,哈尔滨市,华山路1号,,41,41,32,17,15,63,,51,51,10,13,8,12,0.6,0.5
2026-02-27T1000,4283A,126.9717,45.5356,哈尔滨市,解放大街52号,,30,30,35,12,10,59,,54,52,10,11,2,6,0.7,0.6
2026-02-27T1000,2688A,93.5124,42.8176,哈密市,地区监测站,颗粒物(PM10),53,55,48,20,23,53,,54,53,14,13,10,9,0.4,0.5
2026-02-27T1000,2689A,93.5014,42.8312,哈密市,哈密师范学校,,38,38,42,15,19,55,,53,52,18,17,12,18,0.7,0.7
2026-02-27T1000,2671A,100.9016,36.9464,海北藏族自治州,海晏县西海镇,颗粒物(PM10),55,59,48,19,20,44,,61,54,10,3,7,7,0.6,0.3
2026-02-27T1000,3867A,102.074,36.5056,海东市,平安区公安局北苑,颗粒物(PM10),88,126,122,43,45,43,,67,59,25,9,11,14,0.9,0.7
2026-02-27T1000,4163A,102.0984,36.5119,海东市,滨河路,颗粒物(PM10),91,132,135,36,47,37,,46,38,30,25,11,15,1.1,0.7
2026-02-27T1000,1410A,110.3189,20.0596,海口市,海南大学,,47,47,34,29,18,18,,6,4,25,20,6,6,0.5,0.3
2026-02-27T1000,1411A,110.2827,20.0051,海口市,秀英海南医院,,45,36,34,31,23,6,,12,8,45,23,8,8,0.4,0.3
2026-02-27T1000,1412A,110.3391,19.9979,海口市,海南师范大学,,45,42,34,31,21,27,,28,27,14,10,5,6,0.5,0.4
2026-02-27T1000,1413A,110.3303,20.0359,海口市,龙华路环保局宿舍,,45,37,32,31,18,15,,9,4,33,20,/,/,0.4,0.2
2026-02-27T1000,3539A,110.5111,19.9737,海口市,桂林洋子站,,49,49,38,29,21,16,,23,22,25,9,/,/,/,/
2026-02-27T1000,4134A,110.1952,20.0451,海口市,长滨二路9号,,38,33,35,26,22,24,,6,6,23,22,/,/,/,/
2026-02-27T1000,2673A,100.6158,36.2985,海南藏族自治州,共和县恰卜恰镇,细颗粒物(PM2.5),58,53,47,41,28,49,,59,52,32,11,14,13,0.6,0.3
2026-02-27T1000,2676A,97.373,37.376,海西蒙古族藏族自治州,德令哈市,,34,34,49,7,17,92,,92,92,1,4,19,20,0.3,0.4
2026-02-27T1000,1049A,114.492,36.5712,邯郸市,矿院,细颗粒物(PM2.5),75,79,71,55,52,30,,32,28,10,11,3,3,0.4,0.4
2026-02-27T1000,1050A,114.4839,36.6136,邯郸市,丛台公园,颗粒物(PM10),69,87,82,48,53,30,,30,28,10,10,5,5,0.4,0.5
2026-02-27T1000,3458A,114.7893,36.5592,邯郸市,香泉濮院小区,,,81,79,43,45,,,26,26,7,10,3,3,,0.4
2026-02-27T1000,3580A,114.1998,36.4439,邯郸市,峰峰矿区临水派出所,颗粒物(PM10),81,112,68,59,42,16,,24,22,7,5,3,3,0.5,0.5
2026-02-27T1000,4068A,114.5209,36.7697,邯郸市,建安街268号,细颗粒物(PM2.5),79,86,73,58,51,28,,26,26,8,9,3,2,0.3,0.3
2026-02-27T1000,4069A,114.5488,36.6177,邯郸市,丛台东路558号,细颗粒物(PM2.5),72,74,63,52,50,33,,30,29,9,10,3,3,0.3,0.4
2026-02-27T1000,2635A,107.0155,33.0707,汉中市,市监测站,,31,31,36,19,20,44,,38,35,14,13,5,4,0.8,0.8
2026-02-27T1000,2636A,107.0083,33.114,汉中市,鑫源开发区,,25,25,33,17,21,44,,45,41,12,11,5,4,0.5,0.5
2026-02-27T1000,2637A,107.0072,33.0323,汉中市,南郑大河坎水厂,颗粒物(PM10),56,62,43,30,24,9,,6,6,28,17,4,4,0.9,0.7
2026-02-27T1000,1223A,120.2073,30.2111,杭州市,滨江,,15,14,17,10,12,22,,21,18,20,24,6,6,1.0,0.7
2026-02-27T1000,1224A,120.0625,30.2737,杭州市,西溪,,11,11,23,3,8,23,,16,14,12,16,8,8,1.0,0.9
2026-02-27T1000,1226A,120.3417,30.315,杭州市,下沙,,14,14,24,9,12,24,,19,18,22,29,7,7,0.7,0.5
2026-02-27T1000,1227A,120.1252,30.2465,杭州市,卧龙桥,,10,10,19,6,9,26,,21,19,13,15,7,7,0.8,0.6
2026-02-27T1000,1228A,120.1902,30.2691,杭州市,浙江农大,,22,22,16,6,8,24,,21,18,19,23,5,5,1.0,0.8
2026-02-27T1000,1230A,120.1195,30.3121,杭州市,和睦小学,,11,11,21,6,11,28,,22,20,14,19,4,4,0.8,0.6
2026-02-27T1000,1231A,120.3076,30.4146,杭州市,临平镇,,13,13,18,8,12,28,,22,22,14,17,6,6,0.9,0.7
2026-02-27T1000,1232A,120.2753,30.1839,杭州市,城厢镇,,16,16,28,8,12,28,,23,21,19,24,8,7,1.2,0.8
2026-02-27T1000,1233A,120.0883,30.1808,杭州市,云栖,,,11,22,3,8,,,21,17,17,20,5,4,1.0,0.8
2026-02-27T1000,3557A,119.9463,30.0496,杭州市,镇二中,,11,9,14,7,12,24,,24,21,16,20,4,4,1.1,0.9
2026-02-27T1000,3558A,119.7184,30.2367,杭州市,市府大楼,,15,10,14,10,11,23,,24,23,14,13,6,6,0.9,0.7
2026-02-27T1000,3656A,120.1554,30.2863,杭州市,消防大队,,14,14,26,9,14,25,,19,17,15,22,7,6,1.1,0.8
2026-02-27T1000,1270A,117.1957,31.7845,合肥市,明珠广场,,,44,20,34,16,,,52,50,15,13,5,5,1.0,0.8
2026-02-27T1000,1271A,117.307,31.8765,合肥市,三里街,,23,22,17,16,14,36,,54,49,17,15,5,5,0.8,0.6
2026-02-27T1000,1272A,117.2587,31.8703,合肥市,琥珀山庄,,30,29,19,21,15,36,,,,17,19,6,6,1.3,0.8
2026-02-27T1000,1275A,117.2593,31.9376,合肥市,庐阳区,,24,24,19,16,14,42,,57,53,10,12,4,4,0.8,0.7
2026-02-27T1000,1276A,117.345251,31.861615,合肥市,瑶海区,,20,19,15,14,12,38,,55,51,20,20,4,5,0.8,0.6
2026-02-27T1000,1277A,117.3033,31.7967,合肥市,包河区,,29,29,19,17,14,31,,50,46,25,23,8,9,0.8,0.7
2026-02-27T1000,1278A,117.278,31.7392,合肥市,滨湖新区,,29,29,18,20,13,33,,50,47,17,15,4,4,0.7,0.6
2026-02-27T1000,1279A,117.1324,31.8395,合肥市,高新区,,48,41,24,33,19,39,,54,50,10,8,4,4,0.8,0.7
2026-02-27T1000,3464A,117.3802,31.9148,合肥市,高教基地,,27,27,15,14,12,40,,58,53,17,14,7,8,0.7,0.5
2026-02-27T1000,4098A,117.2518,31.8404,合肥市,中国科学技术大学,,29,29,16,19,13,39,,57,52,9,9,7,7,0.9,0.7
2026-02-27T1000,3614A,79.9241,37.0878,和田地区,地区环保局,颗粒物(PM10),500,1753,2216,418,501,46,,45,45,6,9,2,2,0.4,0.4
2026-02-27T1000,3615A,79.9132,37.1137,和田地区,市环保局,颗粒物(PM10),500,1892,2139,468,502,21,,52,45,42,16,1,2,1.2,0.9
2026-02-27T1000,2517A,108.0496,24.6957,河池市,市环保站,,36,36,35,22,27,39,,33,33,6,6,5,3,0.6,0.8
2026-02-27T1000,4302A,108.0901,24.6945,河池市,上任中路54号,,33,33,33,19,23,35,,39,38,11,12,6,5,0.5,0.6
2026-02-27T1000,1697A,114.6962,23.7538,河源市,东埔,,32,32,30,21,16,48,,45,44,14,12,5,5,0.7,0.7
2026-02-27T1000,1698A,114.6895,23.7232,河源市,老城,,35,,34,24,23,46,,43,42,14,11,6,6,0.6,0.6
2026-02-27T1000,3374A,115.5562,35.089,菏泽市,定陶老年大学,细颗粒物(PM2.5),107,146,119,80,75,27,,26,22,18,18,4,4,0.5,0.6
2026-02-27T1000,4114A,115.4239,35.2593,菏泽市,黄河路600号,"颗粒物(PM10),细颗粒物(PM2.5)",108,165,123,81,68,19,,22,19,16,15,1,2,0.6,0.5
2026-02-27T1000,4115A,115.5025,35.2727,菏泽市,菏泽市人社局,细颗粒物(PM2.5),135,179,127,103,74,21,,23,20,18,17,4,4,0.6,0.6
2026-02-27T1000,4184A,115.479691,35.244011,菏泽市,永昌路1号,细颗粒物(PM2.5),128,172,127,97,74,31,,33,29,17,15,2,2,0.4,0.5
2026-02-27T1000,4193A,115.471542,35.280012,菏泽市,长城路999号,细颗粒物(PM2.5),117,156,117,88,66,25,,28,25,18,17,3,5,0.5,0.5
2026-02-27T1000,2514A,111.5264,24.4178,贺州市,环保小区,,10,6,28,3,22,25,,26,26,8,17,4,4,1.0,0.9
2026-02-27T1000,2515A,111.561,24.4074,贺州市,政协大楼,,9,9,22,3,20,23,,24,22,15,24,6,5,0.6,0.6
2026-02-27T1000,3534A,111.4744,24.455,贺州市,西湾,,10,6,38,3,19,19,,19,19,8,17,4,4,1.0,0.9
2026-02-27T1000,2385A,114.17,35.9019,鹤壁市,市监测站,细颗粒物(PM2.5),114,126,73,86,50,18,,26,25,16,11,3,4,1.0,0.6
2026-02-27T1000,2386A,114.2953,35.7512,鹤壁市,市交警支队,细颗粒物(PM2.5),94,116,68,70,46,10,,27,20,23,16,3,3,0.6,0.5
2026-02-27T1000,2387A,114.2877,35.7302,鹤壁市,迎宾馆,细颗粒物(PM2.5),102,106,69,76,50,14,,29,23,17,12,2,3,0.8,0.7
2026-02-27T1000,3474A,114.2616,35.6824,鹤壁市,大新区,细颗粒物(PM2.5),97,92,60,72,57,27,,36,33,19,15,7,7,0.9,0.8
2026-02-27T1000,3596A,114.1573,35.9607,鹤壁市,南山宾馆,,,,70,,48,22,,26,25,,12,,2,0.8,0.6
2026-02-27T1000,2244A,130.2537,47.3416,鹤岗市,哈啤分公司,,25,24,25,17,14,79,,72,71,3,5,8,7,0.3,0.4
2026-02-27T1000,2245A,130.2683,47.3087,鹤岗市,斯达机电,,26,26,26,3,9,75,,80,77,9,6,5,5,0.4,0.4
2026-02-27T1000,2246A,130.3114,47.3388,鹤岗市,东山纸板厂,,49,49,58,7,16,69,,45,43,12,12,9,7,0.5,0.7
2026-02-27T1000,2263A,127.4832,50.2524,黑河市,交通局,,18,14,17,12,12,52,,69,64,25,12,6,5,0.5,0.4
2026-02-27T1000,2264A,127.5146,50.2339,黑河市,环保局,,19,,15,13,10,58,,67,64,14,7,7,7,0.4,0.3
2026-02-27T1000,1074A,115.6839,37.754,衡水市,电机北厂,颗粒物(PM10),58,66,78,32,42,53,,47,47,12,15,3,5,0.5,0.5
2026-02-27T1000,1075A,115.6303,37.7318,衡水市,市监测站,颗粒物(PM10),57,63,78,23,38,52,,48,48,14,17,4,4,0.4,0.4
2026-02-27T1000,3188A,115.6684,37.7216,衡水市,市城管局,颗粒物(PM10),60,70,81,26,40,48,,45,45,16,18,5,4,0.4,0.4
2026-02-27T1000,3459A,115.599,37.5491,衡水市,地表水厂,,,59,74,32,38,,,46,45,10,10,,4,0.4,0.4
2026-02-27T1000,2457A,112.6209,26.9268,衡阳市,衡阳化工总厂,,20,19,12,14,6,40,,29,29,6,7,8,9,0.8,1
2026-02-27T1000,2458A,112.621,26.8957,衡阳市,珠晖区环保局,,23,23,17,16,7,34,,26,26,17,14,5,6,0.9,1
2026-02-27T1000,2459A,112.628,26.8654,衡阳市,市委党校,,25,17,15,17,8,36,,26,26,9,10,6,6,0.8,1
2026-02-27T1000,2460A,112.6007,26.8977,衡阳市,市监测站,,21,21,20,13,10,34,,30,30,12,12,5,6,1.0,1.1
2026-02-27T1000,2461A,112.5658,26.9013,衡阳市,真空机电公司,,22,19,17,15,10,33,,34,34,13,12,6,8,1.0,1
2026-02-27T1000,3399A,112.6703,26.8817,衡阳市,师范学院,,19,19,15,11,9,47,,32,32,6,8,3,3,0.8,1
2026-02-27T1000,3038A,103.3757,23.3679,红河哈尼族彝族自治州,州图书馆,,43,36,28,30,24,78,,79,78,10,5,7,5,0.4,0.3
2026-02-27T1000,4154A,103.401,23.3561,红河哈尼族彝族自治州,蒙自市朝阳路,细颗粒物(PM2.5),60,50,20,43,22,73,,83,82,17,6,11,8,0.2,0.1
2026-02-27T1000,1090A,111.6506,40.7517,呼和浩特市,呼市一监,颗粒物(PM10),58,66,47,25,22,49,,25,24,25,23,10,8,0.9,0.7
2026-02-27T1000,1094A,111.7516,40.8369,呼和浩特市,如意水处理厂,颗粒物(PM10),55,60,48,28,20,41,,26,26,37,28,13,10,0.9,0.5
2026-02-27T1000,1095A,111.727798,40.806187,呼和浩特市,二十九中,颗粒物(PM10),64,77,48,33,20,43,,32,32,25,18,13,11,1.2,0.6
2026-02-27T1000,1097A,111.717,40.7617,呼和浩特市,化肥厂生活区,颗粒物(PM10),58,65,53,30,22,50,,28,28,22,18,7,5,0.9,0.4
2026-02-27T1000,3699A,111.6519,40.8389,呼和浩特市,海东办,颗粒物(PM10),56,61,42,30,18,42,,33,33,26,23,6,4,0.8,0.5
2026-02-27T1000,4275A,111.591512,40.827312,呼和浩特市,成吉思汗西街8号,颗粒物(PM10),56,61,43,31,17,36,,38,33,32,27,8,5,0.7,0.5
2026-02-27T1000,4276A,111.6597,40.8077,呼和浩特市,公园东路75号,颗粒物(PM10),59,68,45,32,22,45,,38,38,27,22,10,7,1.0,0.7
2026-02-27T1000,4277A,111.5427,40.7846,呼和浩特市,金海路35号,颗粒物(PM10),55,60,49,34,18,44,,41,38,25,22,8,6,0.6,0.3
2026-02-27T1000,3061A,119.7511,49.1576,呼伦贝尔市,国华电力东,,45,45,30,9,15,67,,72,70,19,16,6,5,0.5,0.5
2026-02-27T1000,4279A,119.7569,49.2222,呼伦贝尔市,伊敏大街东7号,,34,34,32,12,18,59,,33,33,20,24,9,8,0.7,0.6
2026-02-27T1000,1250A,120.075,30.867,湖州市,城西水厂,,20,18,20,14,16,40,,37,37,18,24,5,5,0.8,0.5
2026-02-27T1000,2873A,120.083,30.8929,湖州市,仁皇山新区,,22,19,20,15,15,37,,26,26,18,30,5,4,0.7,0.6
2026-02-27T1000,2907A,120.1846,30.8592,湖州市,吴兴区站,,22,22,25,13,15,25,,19,19,14,18,4,4,0.8,0.6
2026-02-27T1000,3562A,120.4146,30.8538,湖州市,南浔区站,,19,19,34,10,15,34,,25,25,13,18,7,7,0.6,0.5
2026-02-27T1000,1607A,120.904878,40.721091,葫芦岛市,龙港区,,38,38,53,23,20,62,,60,60,13,16,11,20,0.5,0.6
2026-02-27T1000,1608A,120.8382,40.7521,葫芦岛市,化工街,,25,24,39,17,17,59,,64,62,16,16,14,11,0.4,0.3
2026-02-27T1000,1609A,120.8339,40.7078,葫芦岛市,新区,,29,29,37,19,14,53,,62,60,23,16,9,11,0.7,0.6
2026-02-27T1000,1610A,120.8697,40.7679,葫芦岛市,东城区,,35,35,37,18,17,51,,63,60,22,17,12,12,0.5,0.5
2026-02-27T1000,2483A,109.9297,27.5383,怀化市,河西地税局,,15,,13,10,9,27,,33,32,9,8,2,2,/,/
2026-02-27T1000,2484A,109.9783,27.5342,怀化市,市四医院,,20,17,15,14,9,24,,27,25,10,9,5,6,0.5,0.5
2026-02-27T1000,2485A,109.9971,27.5579,怀化市,监测楼,,23,,12,16,10,30,,33,31,11,10,3,3,0.3,0.3
2026-02-27T1000,1210A,119.0566,33.5991,淮安市,钵池山,,48,48,17,21,10,53,,62,56,12,10,9,9,0.5,0.4
2026-02-27T1000,1211A,119.0083,33.578,淮安市,北京南路,颗粒物(PM10),53,56,17,22,10,49,,59,54,11,8,6,6,0.4,0.3
2026-02-27T1000,1212A,118.9938,33.6083,淮安市,市监测站,,39,39,10,23,11,53,,64,58,12,8,9,9,0.4,0.3
2026-02-27T1000,1213A,119.135,33.5038,淮安市,楚州区监测站,,42,42,11,19,8,57,,66,62,9,6,5,5,0.4,0.2
2026-02-27T1000,3426A,118.8757,33.2897,淮安市,新华书店,,37,37,16,18,11,54,,60,56,9,12,6,6,0.3,0.4
2026-02-27T1000,4092A,119.119691,33.550006,淮安市,枚皋中路89号,颗粒物(PM10),53,55,17,18,10,60,,68,64,8,9,9,9,0.5,0.4
2026-02-27T1000,4206A,119.028838,33.631911,淮安市,承德北路606号,颗粒物(PM10),56,61,20,22,10,52,,62,56,13,9,6,6,0.4,0.3
2026-02-27T1000,2282A,116.8005,33.9749,淮北市,监测站,颗粒物(PM10),72,93,50,51,39,42,,43,42,20,16,5,5,0.7,0.6
2026-02-27T1000,2283A,116.8094,33.9008,淮北市,烈山区政府,颗粒物(PM10),72,93,57,50,36,46,,45,44,17,16,4,4,0.6,0.5
2026-02-27T1000,4017A,116.7926,33.9534,淮北市,市博物馆,细颗粒物(PM2.5),79,96,52,58,43,41,,42,41,18,16,3,2,0.8,0.7
2026-02-27T1000,4100A,116.8322,33.9884,淮北市,杜集区第一实验学校,颗粒物(PM10),75,100,56,50,38,38,,38,37,19,15,7,6,0.7,0.6
2026-02-27T1000,2277A,116.8304,32.7726,淮南市,潘集区政府,,42,42,27,24,14,42,,47,45,18,12,4,5,0.4,0.4
2026-02-27T1000,2279A,116.8569,32.5949,淮南市,谢家集区政府,,32,25,17,22,16,50,,46,44,12,14,6,6,0.5,0.5
2026-02-27T1000,2280A,116.8279,32.6333,淮南市,八公山区政府,,30,24,22,21,18,54,,46,45,7,9,6,6,0.4,0.5
2026-02-27T1000,2894A,117.0561,32.6536,淮南市,经济技术开发区消防队,,35,35,28,24,18,47,,48,46,11,12,5,4,0.2,0.3
2026-02-27T1000,3329A,117.011,32.5891,淮南市,山南新区,,35,,13,24,17,53,,53,50,9,11,6,6,0.3,0.4
2026-02-27T1000,4209A,117.003137,32.644456,淮南市,国庆中路369号,,32,26,25,22,17,41,,41,39,8,9,8,8,0.3,0.4
2026-02-27T1000,2446A,114.9021,30.474,黄冈市,职工中心,,35,32,19,24,12,44,,43,43,10,6,4,4,0.7,0.6
2026-02-27T1000,2929A,114.8858,30.4519,黄冈市,红卫路,,38,32,20,26,13,42,,41,41,7,8,3,2,0.6,0.5
2026-02-27T1000,3398A,114.9134,30.4446,黄冈市,市林业局,,49,34,19,34,14,49,,50,50,10,9,3,4,0.5,0.4
2026-02-27T1000,2672A,102.02,35.5101,黄南藏族自治州,同仁县隆务镇,颗粒物(PM10),68,85,58,35,26,48,,65,58,17,3,15,9,0.7,0.3
2026-02-27T1000,2295A,118.2905,29.6965,黄山市,延安路89号,,10,8,7,3,4,30,,29,28,8,9,4,4,0.8,0.7
2026-02-27T1000,2297A,118.1369,30.2755,黄山市,黄山区政府5号楼,,18,17,7,12,1,35,,33,33,8,9,2,2,0.5,0.6
2026-02-27T1000,4210A,118.335445,29.720283,黄山市,滨江东路7-2号,,29,29,19,3,3,29,,28,27,8,10,/,/,/,/
2026-02-27T1000,2423A,115.0547,30.2332,黄石市,沈家营,,35,35,21,18,10,64,,60,60,9,5,10,35,0.6,0.7
2026-02-27T1000,2426A,114.899,30.211,黄石市,铁山,,36,36,26,25,15,41,,41,40,8,6,6,6,1.2,1
2026-02-27T1000,2427A,115.0259,30.2108,黄石市,团城山,,30,29,24,21,12,30,,28,28,9,9,8,6,0.8,0.8
2026-02-27T1000,3149A,115.0174,30.1591,黄石市,笔架山北路,,36,36,27,15,12,26,,,,11,13,7,6,1.1,1.2
2026-02-27T1000,4185A,115.078022,30.21118,黄石市,磁湖东路29号,,32,29,25,22,12,40,,37,37,1,3,6,7,1.0,1
2026-02-27T1000,1392A,114.4181,23.0528,惠州市,河南岸金山湖子站,,35,33,30,24,19,70,,52,52,12,11,6,6,0.6,0.6
2026-02-27T1000,1393A,114.4055,23.0824,惠州市,下埔横江三路子站,,38,38,33,24,19,72,,56,56,13,13,7,7,0.7,0.7
2026-02-27T1000,1395A,114.4645,22.7832,惠州市,惠阳区承修路船湖子站,,40,40,31,24,16,65,,71,68,12,9,6,6,0.6,0.5
2026-02-27T1000,1396A,114.5316,22.7423,惠州市,大亚湾管委会子站,,38,38,29,26,16,65,,72,69,10,9,7,7,0.5,0.5
2026-02-27T1000,3314A,114.4334,22.8134,惠州市,惠阳秋长,,33,31,24,23,15,79,,82,79,11,10,/,/,/,/
2026-02-27T1000,3452A,114.6521,22.7755,惠州市,大亚湾霞涌,,32,26,25,22,15,61,,68,63,15,13,/,/,/,/
2026-02-27T1000,4300A,114.4089,23.1147,惠州市,文华一路1号,,31,31,29,21,17,73,,54,54,14,13,/,/,/,/
2026-02-27T1000,2240A,130.9618,45.2926,鸡西市,环保局,,46,46,61,25,27,55,,51,48,19,14,25,8,0.2,0.3
2026-02-27T1000,2243A,130.9294,45.2959,鸡西市,第一中学,颗粒物(PM10),51,51,53,27,25,40,,50,48,30,17,18,6,0.5,0.4
2026-02-27T1000,3707A,131.0069,45.2988,鸡西市,欧美日汽修厂,颗粒物(PM10),60,70,70,22,38,58,,28,27,14,19,10,12,0.7,0.8
2026-02-27T1000,2367A,114.9753,27.0803,吉安市,红声器材厂,,20,20,27,3,12,22,,15,15,13,19,9,9,0.5,0.6
2026-02-27T1000,2369A,114.9903,27.1313,吉安市,市环境监测站,,13,13,20,3,11,25,,17,17,10,17,7,7,/,/
2026-02-27T1000,2370A,115.009527,27.096792,吉安市,青原区法院,,,18,19,8,11,,,20,19,13,15,4,5,0.9,0.9
2026-02-27T1000,1772A,126.54,43.8622,吉林市,哈达湾,细颗粒物(PM2.5),62,45,51,44,29,46,,48,43,21,14,11,9,0.6,0.6
2026-02-27T1000,1773A,126.5843,43.8358,吉林市,东局子,颗粒物(PM10),57,64,45,34,24,48,,58,54,21,12,5,5,0.6,0.6
2026-02-27T1000,1774A,126.5051,43.8243,吉林市,电力学院,细颗粒物(PM2.5),52,48,46,36,27,45,,46,42,29,17,17,16,0.8,0.7
2026-02-27T1000,1775A,126.6133,43.8971,吉林市,江北,,40,40,48,27,22,59,,55,53,8,7,6,7,0.8,0.8
2026-02-27T1000,1776A,126.5549,43.8304,吉林市,江南公园,,49,49,44,34,25,42,,52,46,25,14,9,8,0.7,0.7
2026-02-27T1000,2868A,126.4737,43.953,吉林市,九站,颗粒物(PM10),51,51,60,30,35,39,,34,34,21,15,33,17,1.7,0.8
2026-02-27T1000,1299A,116.9866,36.6118,济南市,科干所,颗粒物(PM10),85,119,137,54,65,28,,28,27,25,28,6,6,0.7,0.8
2026-02-27T1000,1300A,116.9379,36.6652,济南市,农科所,颗粒物(PM10),81,112,129,53,66,27,,28,26,23,28,5,5,0.7,0.8
2026-02-27T1000,1301A,117.1265,36.6736,济南市,开发区,颗粒物(PM10),86,122,133,52,67,29,,34,32,27,26,5,4,0.7,0.7
2026-02-27T1000,1303A,117.0616,36.6865,济南市,省种子仓库,颗粒物(PM10),86,122,140,52,65,33,,36,33,20,24,7,5,0.5,0.6
2026-02-27T1000,1304A,116.9495185,36.644937,济南市,机床二厂,颗粒物(PM10),81,112,124,52,72,32,,31,30,18,24,6,5,0.6,0.6
2026-02-27T1000,1305A,117.0496,36.6629,济南市,市监测站,颗粒物(PM10),85,120,141,52,67,28,,30,27,26,29,4,4,0.6,0.6
2026-02-27T1000,1306A,116.7674,36.5458,济南市,长清党校,颗粒物(PM10),84,117,139,48,66,31,,26,26,17,26,4,4,0.6,0.7
2026-02-27T1000,1961A,117.5323,36.6865,济南市,东山小学,颗粒物(PM10),105,159,149,62,60,28,,30,28,31,30,5,4,0.7,0.6
2026-02-27T1000,3059A,117.7181,36.205,济南市,泰兴公司,细颗粒物(PM2.5),95,110,112,71,64,40,,34,32,25,25,10,8,0.7,0.7
2026-02-27T1000,3064A,117.6861,36.2172,济南市,莱芜战役纪念馆,细颗粒物(PM2.5),92,110,115,68,62,41,,31,29,24,25,6,5,0.5,0.5
2026-02-27T1000,3494A,117.1673,36.9782,济南市,济阳区政府,细颗粒物(PM2.5),82,107,115,60,55,38,,39,38,16,16,8,7,0.4,0.4
2026-02-27T1000,3495A,117.1168,36.6299,济南市,锦屏中学,颗粒物(PM10),83,115,143,50,74,30,,31,30,22,23,5,6,0.9,0.9
2026-02-27T1000,4108A,117.7107,36.2385,济南市,山财大街5号,细颗粒物(PM2.5),79,85,107,58,60,44,,31,31,27,31,10,9,0.6,0.6
2026-02-27T1000,4109A,116.9744,36.6889,济南市,无影山路12号,,,95,121,51,64,,,30,28,20,24,5,5,0.6,0.7
2026-02-27T1000,1653A,116.6229,35.4288,济宁市,火炬城,细颗粒物(PM2.5),117,136,122,88,76,11,,5,5,27,26,,3,1.1,0.8
2026-02-27T1000,3500A,116.5808,35.3703,济宁市,北湖一中,细颗粒物(PM2.5),117,128,116,88,80,14,,7,7,25,24,8,6,1.0,0.7
2026-02-27T1000,3501A,116.8251,35.5592,济宁市,服务中心,细颗粒物(PM2.5),133,170,131,101,84,10,,5,5,33,30,4,2,1.0,0.7
2026-02-27T1000,3678A,116.5907,35.4054,济宁市,市第七中学,细颗粒物(PM2.5),115,137,125,87,79,17,,9,9,27,27,8,6,1.1,0.8
2026-02-27T1000,4111A,116.6075,35.4566,济宁市,任和路,细颗粒物(PM2.5),109,158,135,82,74,,,4,4,24,25,7,5,1.4,1.1
2026-02-27T1000,4112A,116.5648,35.3921,济宁市,文体南路1号,细颗粒物(PM2.5),113,161,140,85,80,12,,6,6,27,26,5,3,0.6,0.5
2026-02-27T1000,4122A,112.6071,35.1015,济源市,市委党校,颗粒物(PM10),70,90,62,50,36,24,,29,28,18,16,4,4,0.5,0.5
2026-02-27T1000,4123A,112.596,35.0702,济源市,沁园中路1号,细颗粒物(PM2.5),59,62,44,42,34,26,,38,34,17,16,3,3,0.5,0.5
2026-02-27T1000,2255A,130.2749,46.8028,佳木斯市,佳纺,,44,44,37,22,20,60,,47,47,14,14,11,6,0.6,0.4
2026-02-27T1000,2257A,130.3258,46.7975,佳木斯市,环保局,,35,35,26,13,16,59,,53,50,18,14,9,8,0.4,0.3
2026-02-27T1000,4285A,130.363,46.806,佳木斯市,顺和街,,29,29,22,8,18,59,,64,59,19,13,9,7,0.4,0.3
2026-02-27T1000,4286A,130.3952,46.8268,佳木斯市,长安路196号,,22,19,19,8,13,69,,64,64,7,8,4,4,0.4,0.3
2026-02-27T1000,1252A,120.7439,30.778,嘉兴市,清河小学,,25,,16,17,10,25,,22,22,22,25,5,6,0.5,0.5
2026-02-27T1000,1253A,120.7261,30.7477,嘉兴市,嘉兴学院,,15,10,17,10,12,29,,24,24,20,25,4,5,0.4,0.6
2026-02-27T1000,2872A,120.7845,30.7524,嘉兴市,南湖区残联,,16,,12,11,14,27,,22,22,17,22,3,3,0.6,0.5
2026-02-27T1000,3407A,120.6915,30.7741,嘉兴市,秀洲住建,,12,12,16,7,10,30,,25,25,16,22,6,6,0.6,0.6
2026-02-27T1000,1945A,98.291,39.7705,嘉峪关市,气象局,颗粒物(PM10),80,110,110,20,32,72,,65,65,12,16,3,24,0.4,0.9
2026-02-27T1000,2884A,98.2672,39.7978,嘉峪关市,酒钢宾馆,颗粒物(PM10),81,112,116,21,30,57,,55,55,12,17,3,25,0.5,1
2026-02-27T1000,3248A,98.2644,39.7723,嘉峪关市,雄关区,颗粒物(PM10),71,91,92,19,30,66,,58,58,16,19,1,14,0.3,0.7
2026-02-27T1000,1383A,113.1063,22.6058,江门市,北街,,33,33,27,22,17,39,,50,46,23,15,/,/,/,/
2026-02-27T1000,1384A,113.073,22.5835,江门市,西区,,32,31,28,22,16,47,,56,53,18,13,/,/,/,/
2026-02-27T1000,1385A,113.0218,22.531,江门市,圭峰西,,43,43,32,24,20,46,,53,50,12,11,/,/,/,/
2026-02-27T1000,1386A,113.0826,22.5947,江门市,东湖,,44,44,40,20,17,46,,53,50,12,10,7,7,0.4,0.4
2026-02-27T1000,3311A,113.1077,22.5647,江门市,江海富民,,42,42,38,22,18,51,,56,54,18,15,/,/,0.3,0.4
2026-02-27T1000,3449A,113.0496,22.4669,江门市,新会银湖,,45,45,32,26,19,41,,45,42,20,18,6,6,0.4,0.4
2026-02-27T1000,3335A,113.3137,35.2643,焦作市,马村街道办,细颗粒物(PM2.5),115,143,61,87,43,18,,30,27,19,15,6,7,0.6,0.5
2026-02-27T1000,3336A,113.2464,35.2374,焦作市,焦作技师学院,细颗粒物(PM2.5),87,110,48,64,36,15,,28,26,17,15,6,7,0.8,0.7
2026-02-27T1000,3477A,113.1656,35.2536,焦作市,中站许衡医院,细颗粒物(PM2.5),82,82,64,60,40,20,,33,32,18,16,7,8,0.7,0.7
2026-02-27T1000,3981A,113.2456,35.18,焦作市,原李万街道办,细颗粒物(PM2.5),93,104,58,69,37,19,,29,26,18,15,6,6,0.6,0.6
2026-02-27T1000,4264A,113.234,35.219,焦作市,新安路1731号,颗粒物(PM10),104,157,64,69,38,24,,35,33,17,16,7,7,,0.4
2026-02-27T1000,4295A,113.2722,35.2121,焦作市,人民路3066号,颗粒物(PM10),96,142,54,63,36,25,,36,33,17,16,5,5,0.7,0.6
2026-02-27T1000,1708A,116.3701,23.5345,揭阳市,新兴,细颗粒物(PM2.5),89,66,52,66,39,39,,37,36,24,22,9,8,0.8,0.7
2026-02-27T1000,1709A,116.3261,23.5442,揭阳市,西马,细颗粒物(PM2.5),72,54,60,52,44,42,,34,34,12,12,8,8,0.7,0.7
2026-02-27T1000,1710A,116.361,23.5627,揭阳市,东兴,细颗粒物(PM2.5),85,67,59,63,45,36,,32,31,23,21,10,7,/,/
2026-02-27T1000,1711A,116.4151,23.5295,揭阳市,渔湖,细颗粒物(PM2.5),98,,51,73,43,36,,38,35,21,18,4,4,/,/
2026-02-27T1000,3320A,116.4028,23.5699,揭阳市,曲溪,细颗粒物(PM2.5),90,81,56,67,41,35,,41,37,25,21,12,11,0.9,0.8
2026-02-27T1000,1944A,102.1691,38.5166,金昌市,天庆家园,颗粒物(PM10),130,210,103,87,31,35,,34,31,38,14,55,18,1.3,0.6
2026-02-27T1000,4022A,102.1648,38.5369,金昌市,金川区人防中心,颗粒物(PM10),109,168,89,72,32,32,,36,34,31,9,25,15,1.1,0.6
2026-02-27T1000,4239A,102.193042,38.531887,金昌市,长春路96号,颗粒物(PM10),106,161,100,59,32,42,,39,35,20,12,25,25,0.8,0.6
2026-02-27T1000,1262A,119.6478,29.0773,金华市,十五中,,14,12,20,8,12,42,,39,39,14,21,4,3,0.6,0.6
2026-02-27T1000,1263A,119.6859,29.1032,金华市,监测站,,13,13,22,7,14,28,,26,26,13,21,2,2,0.7,0.6
2026-02-27T1000,3659A,119.656,29.1132,金华市,气象局,,15,14,22,10,14,25,,20,20,16,24,2,2,0.7,0.6
2026-02-27T1000,1767A,121.1114,41.0879,锦州市,南山,细颗粒物(PM2.5),64,46,34,46,18,64,,70,68,17,11,21,9,0.7,0.5
2026-02-27T1000,1768A,121.060361,40.842794,锦州市,开发区,细颗粒物(PM2.5),55,,42,39,20,60,,61,61,12,12,15,7,0.6,0.5
2026-02-27T1000,1769A,121.1836,41.1118,锦州市,百股街道,细颗粒物(PM2.5),69,52,43,50,22,67,,64,64,14,10,6,7,0.6,0.5
2026-02-27T1000,1770A,121.1176,41.1224,锦州市,天安街道,细颗粒物(PM2.5),58,47,37,41,18,70,,68,68,14,12,5,6,0.6,0.5
2026-02-27T1000,1771A,121.1303,41.1385,锦州市,北湖公园,细颗粒物(PM2.5),54,51,36,38,20,72,,72,72,10,8,5,6,0.5,0.5
2026-02-27T1000,2160A,112.8496,35.5051,晋城市,自来水公司,,37,37,36,16,16,37,,40,40,13,10,4,4,0.6,0.5
2026-02-27T1000,2162A,112.8509,35.4886,晋城市,市环保局,,49,47,33,34,19,40,,42,42,14,12,3,4,0.5,0.5
2026-02-27T1000,3620A,112.8258,35.4804,晋城市,泽州一中,细颗粒物(PM2.5),53,43,37,37,24,44,,45,45,13,11,2,2,0.5,0.6
2026-02-27T1000,4078A,112.8246,35.5152,晋城市,前书院路,,,,31,,17,,,39,39,13,12,5,5,0.7,0.5
2026-02-27T1000,4079A,112.8864,35.4773,晋城市,祥云街666号,,35,30,28,24,24,37,,38,37,12,9,5,5,0.5,0.4
2026-02-27T1000,2174A,112.6992,37.6984,晋中市,榆次区政府,细颗粒物(PM2.5),82,85,61,60,43,21,,38,32,29,18,14,7,0.7,0.4
2026-02-27T1000,2865A,112.7195,37.683,晋中市,榆次三中,细颗粒物(PM2.5),80,97,61,59,39,18,,40,34,32,14,14,7,0.6,0.4
2026-02-27T1000,4080A,112.7375,37.7215,晋中市,广安街188号,细颗粒物(PM2.5),69,79,70,50,44,18,,34,28,26,18,10,9,0.7,0.5
2026-02-27T1000,4200A,112.7478,37.6954,晋中市,迎宾街26号,细颗粒物(PM2.5),93,97,62,69,44,20,,40,35,30,18,10,7,0.3,0.2
2026-02-27T1000,2439A,112.2012,31.048,荆门市,竹园小学,,48,48,33,32,23,43,,37,37,14,14,1,3,0.9,1.2
2026-02-27T1000,2440A,112.1968,30.9892,荆门市,掇刀,细颗粒物(PM2.5),53,43,32,37,25,52,,46,46,9,10,6,5,0.5,0.6
2026-02-27T1000,3012A,112.1849,31.0361,荆门市,西山林语,,46,44,35,32,22,45,,41,41,11,11,3,3,0.5,0.6
2026-02-27T1000,3547A,112.1631,31.0134,荆门市,龙泉中学南校,,,,,,,,,,,,,,,,
2026-02-27T1000,4124A,112.2213,31.0654,荆门市,新台西路6号,细颗粒物(PM2.5),54,48,33,38,28,42,,36,36,9,8,8,8,0.4,0.4
2026-02-27T1000,1844A,112.2493,30.3198,荆州市,市图书馆,,46,,20,32,19,47,,36,36,9,12,6,6,0.6,0.7
2026-02-27T1000,1845A,112.2009,30.3543,荆州市,市委党校,,46,39,26,32,22,42,,32,32,13,16,6,6,0.5,0.5
2026-02-27T1000,3194A,112.2749,30.3124,荆州市,管委会,,49,,21,34,18,48,,39,39,9,13,8,8,0.5,0.5
2026-02-27T1000,4268A,112.1722,30.3366,荆州市,学苑路85号,细颗粒物(PM2.5),52,,25,36,23,52,,40,40,9,9,1,1,0.6,0.6
2026-02-27T1000,2343A,117.2114,29.2931,景德镇市,老干部活动中心,,9,6,8,3,4,22,,22,21,7,8,4,4,0.9,0.9
2026-02-27T1000,2344A,117.1893,29.2789,景德镇市,兽医站,,9,9,15,3,3,26,,25,24,8,9,4,3,0.4,0.5
2026-02-27T1000,2346A,117.246,29.2958,景德镇市,陶研所,,,,7,,5,18,,23,22,16,17,4,3,0.7,0.7
2026-02-27T1000,4289A,117.154766,29.256967,景德镇市,青少年活动中心,,6,6,8,3,5,19,,18,18,9,13,3,3,/,/
2026-02-27T1000,1803A,115.9873,29.6816,九江市,十里,,26,21,17,18,16,31,,30,30,20,22,5,6,0.5,0.7
2026-02-27T1000,1804A,115.9583,29.7047,九江市,茅山头,,19,14,23,13,10,27,,28,28,18,16,4,4,0.6,0.7
2026-02-27T1000,1805A,115.9877,29.7295,九江市,西园,,21,21,17,11,8,33,,29,28,17,24,3,3,0.5,0.6
2026-02-27T1000,1808A,115.9112,29.6038,九江市,综合工业园,,17,11,11,3,5,21,,24,23,34,26,5,6,0.6,0.6
2026-02-27T1000,3190A,116.0254,29.6995,九江市,外国语学校,,20,20,14,14,9,30,,24,23,13,17,4,4,0.2,0.5
2026-02-27T1000,4253A,116.010205,29.659402,九江市,莲花大道8号,,17,17,17,3,2,28,,25,24,20,19,3,3,0.4,0.6
2026-02-27T1000,4240A,98.495752,39.733935,酒泉市,玉门东路5号,颗粒物(PM10),107,163,114,38,38,19,,33,33,35,16,10,12,1.0,0.7
2026-02-27T1000,4241A,98.5099,39.7506,酒泉市,北大街108号,颗粒物(PM10),103,156,109,57,42,26,,24,24,29,19,16,16,0.9,0.7
2026-02-27T1000,2698A,76.0071,39.466,喀什地区,巡警大队,颗粒物(PM10),500,1159,1246,395,406,24,,32,32,30,20,4,4,0.9,0.7
2026-02-27T1000,2699A,75.9756,39.4693,喀什地区,吾办,颗粒物(PM10),500,1131,1171,383,391,24,,38,36,28,16,2,3,0.8,0.5
2026-02-27T1000,4027A,75.9485,39.4688,喀什地区,老干局,颗粒物(PM10),500,1156,1232,342,348,12,,22,22,25,17,4,4,1.0,0.8
2026-02-27T1000,1824A,114.3389,34.778,开封市,肿瘤医院,细颗粒物(PM2.5),112,113,63,84,50,38,,43,40,18,15,7,7,0.9,0.7
2026-02-27T1000,1826A,114.2884,34.7966,开封市,世纪星幼儿园,细颗粒物(PM2.5),108,117,60,81,50,37,,40,38,19,15,7,7,0.9,0.7
2026-02-27T1000,3147A,114.3434,34.8101,开封市,龙亭公园,细颗粒物(PM2.5),105,120,61,79,46,34,,36,33,21,18,8,8,0.9,0.7
2026-02-27T1000,3210A,114.3645,34.7955,开封市,汴京公园,细颗粒物(PM2.5),104,120,66,78,41,32,,37,34,22,17,4,4,0.8,0.5
2026-02-27T1000,3473A,114.2485,34.8306,开封市,技师学院,细颗粒物(PM2.5),120,111,59,91,47,35,,37,34,15,13,8,7,1.0,0.8
2026-02-27T1000,3592A,114.4518,34.7503,开封市,祥符区生态环境局,细颗粒物(PM2.5),128,157,77,97,51,25,,38,34,25,17,11,6,1.2,0.8
2026-02-27T1000,1951A,84.886,45.6029,克拉玛依市,长征新村,,20,20,20,7,11,64,,70,68,6,3,6,6,0.6,0.5
2026-02-27T1000,1952A,84.8894,45.5827,克拉玛依市,南林小区,,21,21,21,3,4,66,,76,73,5,2,1,1,0.5,0.4
2026-02-27T1000,1954A,84.896,44.3328,克拉玛依市,独山子区,细颗粒物(PM2.5),72,,72,52,45,55,,55,55,19,17,3,3,0.5,0.6
2026-02-27T1000,1955A,85.6888,46.0909,克拉玛依市,乌尔禾区商贸楼,,29,26,25,20,9,73,,76,76,7,5,9,9,0.4,0.3
2026-02-27T1000,3612A,85.1045,45.6895,克拉玛依市,白碱滩区新站,,28,28,26,8,7,72,,64,64,9,10,11,10,0.2,0.2
2026-02-27T1000,2697A,76.1457,39.7143,克孜勒苏柯尔克孜自治州,市人民政府,颗粒物(PM10),500,1000,1126,275,306,41,,55,52,20,8,4,4,0.5,0.3
2026-02-27T1000,3665A,76.1654,39.7157,克孜勒苏柯尔克孜自治州,克州文化中心,颗粒物(PM10),500,1147,1141,300,320,39,,54,48,22,11,6,6,0.9,0.5
2026-02-27T1000,1450A,102.8203,24.889,昆明市,呈贡新区,,33,29,31,19,26,105,,93,93,10,10,7,5,0.7,0.5
2026-02-27T1000,1452A,102.7253,25.0904,昆明市,龙泉镇,,34,34,35,23,28,88,,51,51,12,15,4,4,0.4,0.5
2026-02-27T1000,1453A,102.7267,25.0378,昆明市,东风东路,,40,33,32,28,28,88,,92,89,17,12,15,8,0.8,0.6
2026-02-27T1000,1454A,102.6744,25.0671,昆明市,金鼎山,,39,,37,27,27,83,,83,75,25,16,5,6,0.7,0.6
2026-02-27T1000,1455A,102.6643,25.0401,昆明市,碧鸡广场,,40,38,33,28,28,81,,73,71,22,17,12,7,0.7,0.6
2026-02-27T1000,3179A,102.7491,25.012,昆明市,官渡区博物馆,,40,38,31,28,26,90,,86,81,18,12,20,5,0.9,0.5
2026-02-27T1000,3375A,102.8016,24.8336,昆明市,青年创业园,,33,24,29,23,26,103,,96,96,4,7,5,5,0.6,0.7
2026-02-27T1000,3550A,102.8,24.9787,昆明市,昆明学院,,32,32,32,14,23,95,,94,92,10,8,7,5,0.6,0.5
2026-02-27T1000,3551A,102.5969,24.6738,昆明市,晋宁区生态环境分局,,40,36,36,28,30,86,,86,80,20,8,2,1,0.5,0.5
2026-02-27T1000,3552A,102.6673,24.9861,昆明市,云天化总部,,40,40,33,26,24,98,,82,78,14,11,21,9,0.8,0.5
2026-02-27T1000,1456A,91.132,29.6515,拉萨市,八廓街,,21,14,15,6,8,66,,68,68,14,13,8,8,0.6,0.6
2026-02-27T1000,1457A,91.1221,29.6748,拉萨市,市环保局,,17,17,22,9,12,48,,55,54,25,20,5,5,0.9,1
2026-02-27T1000,1458A,91.0874,29.6476,拉萨市,区监测站,,19,14,11,9,7,60,,58,58,23,20,5,5,0.8,0.7
2026-02-27T1000,1459A,91.1774,29.6541,拉萨市,西藏大学,,20,11,13,7,8,63,,70,68,11,12,4,4,0.4,0.7
2026-02-27T1000,1460A,90.9798,29.6586,拉萨市,区辐射站,,20,15,16,14,12,41,,56,52,32,16,5,4,0.5,0.4
2026-02-27T1000,1461A,91.0831,29.6292,拉萨市,拉萨火车站,,33,17,11,16,7,13,,50,40,66,20,7,4,0.9,0.7
2026-02-27T1000,2520A,109.2203,23.7252,来宾市,来宾技工学校,,39,36,28,27,20,22,,10,10,12,15,31,15,0.9,0.8
2026-02-27T1000,3535A,109.1781,23.7293,来宾市,兴宾区政府,,36,28,27,25,19,35,,14,14,6,12,7,6,0.7,0.8
2026-02-27T1000,4002A,109.2312,23.7428,来宾市,中南小学,,48,,31,33,25,15,,8,8,18,17,10,5,0.9,0.8
2026-02-27T1000,1479A,103.8309,36.0467,兰州市,铁路设计院,,,,,,,,,,,,,,,,
2026-02-27T1000,3241A,103.7439,36.0841,兰州市,百合公园,颗粒物(PM10),72,93,123,42,45,25,,24,23,40,30,12,15,0.9,0.8
2026-02-27T1000,3242A,103.9613,35.9985,兰州市,和平,颗粒物(PM10),100,149,142,52,45,52,,56,52,25,16,13,17,1.0,0.9
2026-02-27T1000,4236A,103.629272,36.093822,兰州市,庄浪东路808号,颗粒物(PM10),102,153,133,38,43,34,,56,48,45,25,20,11,0.9,0.6
2026-02-27T1000,4237A,103.7251,36.104344,兰州市,安宁西路88号,颗粒物(PM10),92,134,153,38,44,38,,34,28,37,26,27,18,0.7,0.6
2026-02-27T1000,4238A,103.846982,36.067567,兰州市,北滨河东路1号,颗粒物(PM10),93,135,130,47,46,21,,23,19,44,37,25,14,1.9,0.9
2026-02-27T1000,1067A,116.6712,39.5109,廊坊市,药材公司,,38,38,52,25,30,37,,49,44,19,16,2,2,0.6,0.5
2026-02-27T1000,1068A,116.7215,39.5592,廊坊市,开发区,,38,38,50,24,31,41,,47,39,20,19,3,2,0.6,0.5
2026-02-27T1000,1070A,116.7246,39.5273,廊坊市,北华航天学院,,41,41,53,21,28,40,,43,36,20,20,4,4,0.6,0.5
2026-02-27T1000,2919A,116.7022,39.5454,廊坊市,河北工业大学,,39,39,55,27,30,39,,42,34,14,15,2,2,0.6,0.5
2026-02-27T1000,2536A,103.7629,29.5844,乐山市,牛耳桥,,45,40,43,31,25,23,,55,45,26,17,6,6,0.8,0.6
2026-02-27T1000,2537A,103.7501,29.6002,乐山市,市第三水厂,,48,39,45,33,25,20,,59,49,30,17,4,4,0.9,0.7
2026-02-27T1000,2538A,103.7571,29.5664,乐山市,市监测站,,50,45,44,35,25,30,,50,44,21,12,7,7,1.0,0.8
2026-02-27T1000,3361A,103.7313,29.563,乐山市,理工大学,,45,34,41,31,24,39,,46,40,11,9,5,5,0.9,0.7
2026-02-27T1000,2599A,100.2497,26.8802,丽江市,丽江古城,,33,33,25,12,14,96,,105,101,16,10,10,9,0.6,0.5
2026-02-27T1000,2600A,100.2203,26.8906,丽江市,市中心,,34,26,18,18,17,107,,105,103,12,9,6,6,0.5,0.5
2026-02-27T1000,1267A,119.9141,28.4513,丽水市,监测站大楼,,9,6,10,3,6,28,,20,20,10,12,4,4,0.4,0.4
2026-02-27T1000,1268A,119.93,28.4589,丽水市,莲都小学,,11,6,9,3,6,33,,24,24,9,13,/,/,/,/
2026-02-27T1000,1269A,119.8794,28.4232,丽水市,余庄前,,7,6,12,3,6,22,,14,14,10,14,3,4,0.5,0.4
2026-02-27T1000,1173A,119.1759,34.5885,连云港市,市环境监测站,细颗粒物(PM2.5),64,68,25,46,15,46,,62,56,25,18,7,6,0.5,0.3
2026-02-27T1000,3000A,119.3577,34.6971,连云港市,德源药业,细颗粒物(PM2.5),89,85,24,66,13,40,,65,58,23,12,6,5,0.8,0.4
2026-02-27T1000,3007A,119.178,34.8442,连云港市,新城一中,细颗粒物(PM2.5),95,77,48,71,26,48,,58,50,26,18,8,7,0.7,0.5
2026-02-27T1000,3008A,119.3607,34.7519,连云港市,胡沟管理处,细颗粒物(PM2.5),89,105,31,66,20,38,,60,50,21,12,13,11,1.1,0.6
2026-02-27T1000,3009A,119.1478,34.5913,连云港市,矿山设计院,,,,23,51,13,45,,63,58,24,17,8,7,0.6,0.4
2026-02-27T1000,3434A,119.2414,34.6539,连云港市,工贸学校,细颗粒物(PM2.5),85,98,34,63,19,38,,64,58,18,11,9,9,0.9,0.5
2026-02-27T1000,3664A,119.4171,34.734,连云港市,连云街道,颗粒物(PM10),127,203,59,70,21,30,,66,52,31,17,10,7,1.1,0.6
2026-02-27T1000,2573A,102.2629,27.8981,凉山彝族自治州,西昌市政府,,,,37,44,63,,,78,74,24,7,22,11,,0.6
2026-02-27T1000,2574A,102.2686,27.885,凉山彝族自治州,凉山州政府,细颗粒物(PM2.5),62,45,39,44,35,55,,66,60,20,9,16,10,0.8,0.5
2026-02-27T1000,4229A,102.2342,27.8859,凉山彝族自治州,凯乐南路30号,细颗粒物(PM2.5),62,56,45,44,32,49,,60,52,35,18,23,15,0.9,0.6
2026-02-27T1000,2212A,123.1978,41.2036,辽阳市,宏伟区,细颗粒物(PM2.5),107,102,90,80,66,44,,42,42,20,20,10,9,0.8,0.7
2026-02-27T1000,2213A,123.1684,41.2497,辽阳市,新华园,细颗粒物(PM2.5),99,79,91,74,71,42,,39,39,26,29,13,11,1.0,1
2026-02-27T1000,2214A,123.2355,41.2663,辽阳市,滨河路,细颗粒物(PM2.5),99,86,92,74,69,40,,35,35,26,27,12,8,0.8,0.8
2026-02-27T1000,4083A,123.153,41.2874,辽阳市,铁西路150号,细颗粒物(PM2.5),93,,87,69,69,45,,43,43,23,27,14,10,1.1,0.9
2026-02-27T1000,2227A,125.1359,42.8845,辽源市,环保局,颗粒物(PM10),52,53,58,31,37,57,,65,62,17,11,6,7,1.0,0.8
2026-02-27T1000,4085A,125.0998,42.9134,辽源市,安宁大街333号,细颗粒物(PM2.5),52,46,58,36,41,58,,61,59,10,9,3,4,0.7,0.7
2026-02-27T1000,1625A,115.9789,36.4372,聊城市,区政府,颗粒物(PM10),93,135,131,65,62,36,,34,33,15,16,11,11,0.9,0.8
2026-02-27T1000,3200A,115.9772,36.4986,聊城市,监控中心,颗粒物(PM10),89,127,124,60,59,37,,36,36,11,14,9,8,0.6,0.6
2026-02-27T1000,3513A,116.0443,36.436,聊城市,九州社区,颗粒物(PM10),98,146,133,71,62,31,,35,34,17,10,1,2,1.1,0.9
2026-02-27T1000,4018A,116.0564,36.4609,聊城市,星美广场,,,138,132,70,62,,,34,34,13,14,3,3,0.7,0.7
2026-02-27T1000,4113A,116.0091,36.4495,聊城市,利民路,颗粒物(PM10),86,121,120,56,61,37,,34,34,15,17,7,7,0.8,0.8
2026-02-27T1000,2632A,94.3683,29.6373,林芝市,林芝监测站,,31,15,12,13,8,98,,109,107,4,2,4,4,0.4,0.4
2026-02-27T1000,2633A,94.3616,29.6634,林芝市,林芝人民医院,,33,20,16,10,10,103,,110,109,4,1,7,7,0.4,0.3
2026-02-27T1000,2603A,100.0779,23.8981,临沧市,市环保局,,40,38,42,28,38,36,,28,27,6,8,6,6,0.9,1
2026-02-27T1000,2604A,100.0894,23.882,临沧市,市气象局,细颗粒物(PM2.5),57,49,47,40,39,32,,37,35,14,10,8,8,0.9,0.9
2026-02-27T1000,1733A,111.5552,36.0791,临汾市,临钢医院,,,,70,,51,32,,31,31,15,19,,10,,1.3
2026-02-27T1000,1734A,111.4984,36.0734,临汾市,技工学校,,46,33,62,32,55,33,,32,32,17,18,14,12,1.0,1
2026-02-27T1000,1736A,111.5017,36.0857,临汾市,市委,,38,38,73,23,44,32,,32,32,19,18,11,11,1.4,1.4
2026-02-27T1000,3018A,111.5048,36.1015,临汾市,唐尧大酒店,,39,39,73,24,46,29,,31,31,26,22,12,11,1.0,1.1
2026-02-27T1000,4244A,111.4879,36.053,临汾市,启星学校,,40,39,61,28,50,29,,27,27,22,22,12,11,1.3,1.2
2026-02-27T1000,4271A,103.2464,35.6123,临夏回族自治州,滨河东路1号,颗粒物(PM10),112,174,188,64,72,28,,30,28,28,23,11,12,1.3,0.9
2026-02-27T1000,4310A,103.207136,35.599807,临夏回族自治州,新华街21号,颗粒物(PM10),123,196,188,68,63,34,,38,29,22,16,12,12,1.2,0.9
2026-02-27T1000,1618A,118.3429,35.0532,临沂市,沂河小区,颗粒物(PM10),74,97,69,50,36,49,,41,41,16,17,10,9,0.5,0.5
2026-02-27T1000,1619A,118.2962,35.0568,临沂市,鲁南制药厂,,,,62,,35,51,,44,44,20,21,,11,0.5,0.5
2026-02-27T1000,1620A,118.2793,34.9976,临沂市,新光毛纺厂,细颗粒物(PM2.5),72,88,55,52,39,50,,43,42,18,17,10,9,0.7,0.7
2026-02-27T1000,1621A,118.3955,35.0889,临沂市,河东保险公司,细颗粒物(PM2.5),82,102,70,60,39,42,,40,40,25,22,8,8,0.6,0.5
2026-02-27T1000,3370A,118.3563,35.0215,临沂市,十里堡居委,细颗粒物(PM2.5),75,88,63,55,37,47,,43,43,22,20,9,8,0.8,0.7
2026-02-27T1000,3496A,118.359,35.1067,临沂市,南坊新区,颗粒物(PM10),73,95,66,50,35,51,,43,43,16,19,9,9,0.7,0.6
2026-02-27T1000,3860A,118.3915,35.0297,临沂市,皇山花园小区,细颗粒物(PM2.5),77,95,64,56,38,48,,41,41,24,24,13,12,0.8,0.8
2026-02-27T1000,1870A,109.4854,24.3898,柳州市,柳东小学,,24,24,28,3,23,24,,15,14,8,17,3,3,0.7,0.7
2026-02-27T1000,1871A,109.4109,24.3304,柳州市,环保监测站,,31,31,31,9,24,18,,10,10,13,24,3,3,0.9,0.9
2026-02-27T1000,1872A,109.3886,24.3408,柳州市,河西水厂,,20,20,31,9,24,20,,9,9,10,21,7,8,0.6,0.7
2026-02-27T1000,1873A,109.4263,24.2951,柳州市,市四中,,26,25,38,18,28,12,,7,7,18,24,5,6,0.9,0.9
2026-02-27T1000,1874A,109.396,24.3658,柳州市,市九中,,10,10,29,6,23,19,,13,13,8,18,6,7,0.7,0.7
2026-02-27T1000,1875A,109.4912,24.3164,柳州市,古亭山,,16,14,26,11,21,18,,15,15,12,18,5,5,0.7,0.7
2026-02-27T1000,3402A,109.5422,24.3994,柳州市,市二中,,14,14,31,6,24,22,,10,10,10,20,5,5,0.5,0.5
2026-02-27T1000,2307A,116.5078,31.7369,六安市,监测大楼,细颗粒物(PM2.5),62,58,27,44,21,39,,50,47,14,13,3,3,0.6,0.4
2026-02-27T1000,2308A,116.4738,31.7642,六安市,皖西学院,细颗粒物(PM2.5),63,56,28,45,21,42,,50,46,13,12,4,4,0.6,0.4
2026-02-27T1000,2309A,116.4997,31.7904,六安市,朝阳厂,细颗粒物(PM2.5),64,,21,46,21,44,,52,49,12,13,3,4,0.7,0.5
2026-02-27T1000,2310A,116.5566,31.7885,六安市,开发区,细颗粒物(PM2.5),58,54,20,41,22,43,,53,49,10,11,4,4,0.6,0.4
2026-02-27T1000,2577A,104.8293,26.592,六盘水市,黄土坡,细颗粒物(PM2.5),52,46,46,36,36,73,,73,73,12,13,11,9,0.6,0.6
2026-02-27T1000,2579A,104.8481,26.5898,六盘水市,民中,细颗粒物(PM2.5),60,48,48,43,37,63,,71,71,14,15,4,7,0.6,0.7
2026-02-27T1000,2580A,104.9541,26.5506,六盘水市,双水,细颗粒物(PM2.5),59,56,53,42,34,71,,73,73,13,13,5,5,0.6,0.6
2026-02-27T1000,4151A,104.8899,26.5685,六盘水市,钟山大道中段564号,颗粒物(PM10),61,71,66,39,39,64,,59,59,10,18,7,11,0.7,0.8
2026-02-27T1000,2336A,117.022,25.1031,龙岩市,龙岩市监测站,,14,9,11,3,9,42,,37,37,9,8,3,4,0.7,0.7
2026-02-27T1000,2337A,117.0257,25.0662,龙岩市,闽西职业技术学院,,19,,10,13,8,43,,38,38,8,8,4,4,0.7,0.7
2026-02-27T1000,2338A,117.0195,25.0306,龙岩市,龙岩学院,,15,6,12,3,8,47,,44,44,9,7,1,2,/,/
2026-02-27T1000,2885A,104.9344,33.3827,陇南市,滨江中学,颗粒物(PM10),72,94,101,40,43,45,,32,32,16,19,9,9,0.8,0.9
2026-02-27T1000,3247A,104.9551,33.3709,陇南市,市总工会,颗粒物(PM10),78,106,91,45,37,30,,40,34,23,15,8,5,1.0,0.8
2026-02-27T1000,2488A,111.9984,27.7346,娄底市,市监测站,,33,,11,23,8,49,,43,43,11,15,3,7,0.5,0.6
2026-02-27T1000,2491A,111.9888,27.7035,娄底市,市政府,,28,20,12,19,7,49,,42,42,8,9,3,4,0.3,0.4
2026-02-27T1000,4127A,111.9812,27.7591,娄底市,涟钢职大,,28,28,11,19,6,52,,47,47,8,9,1,2,0.3,0.5
2026-02-27T1000,4128A,112.0303,27.7457,娄底市,娄底体校,,32,32,15,20,8,43,,39,39,3,4,2,2,0.4,0.4
2026-02-27T1000,1894A,105.4427,28.9063,泸州市,小市上码头,细颗粒物(PM2.5),84,81,44,62,38,35,,41,35,19,15,8,7,0.9,0.7
2026-02-27T1000,1895A,105.4241,28.8573,泸州市,兰田宪桥,,,72,55,,26,,,40,34,17,13,8,6,0.9,0.8
2026-02-27T1000,1896A,105.4378,28.8833,泸州市,市环监站,细颗粒物(PM2.5),84,90,52,62,36,29,,38,31,18,15,11,8,0.7,0.5
2026-02-27T1000,4272A,105.3689,28.7783,泸州市,纳溪中医医院,细颗粒物(PM2.5),87,77,55,64,36,19,,26,22,24,18,7,6,0.9,0.7
2026-02-27T1000,2183A,111.1447,37.5212,吕梁市,环保局,细颗粒物(PM2.5),95,109,117,71,72,14,,12,12,41,34,8,6,0.7,0.6
2026-02-27T1000,2185A,111.1285,37.5338,吕梁市,自来水公司,细颗粒物(PM2.5),105,142,122,79,73,12,,8,4,36,31,13,7,0.9,0.7
2026-02-27T1000,2867A,111.1225,37.5093,吕梁市,马茂庄小学,细颗粒物(PM2.5),94,132,128,70,73,12,,7,6,35,34,12,8,1.0,0.9
2026-02-27T1000,1812A,112.3934,34.6517,洛阳市,市委党校,细颗粒物(PM2.5),65,54,36,47,34,29,,35,31,21,19,6,6,0.7,0.7
2026-02-27T1000,1815A,112.494,34.6883,洛阳市,河南林校,细颗粒物(PM2.5),70,58,42,51,34,22,,30,26,22,19,8,13,0.6,0.6
2026-02-27T1000,1816A,112.3843,34.623,洛阳市,开发区管委会,细颗粒物(PM2.5),65,60,46,47,32,35,,36,32,17,16,9,8,0.6,0.6
2026-02-27T1000,1817A,112.4263,34.6249,洛阳市,市委新办公区,细颗粒物(PM2.5),60,61,43,43,34,21,,36,32,25,20,8,7,0.5,0.5
2026-02-27T1000,3340A,112.6005,34.6323,洛阳市,伊滨,细颗粒物(PM2.5),65,64,40,47,31,29,,33,28,21,18,8,8,0.7,0.6
2026-02-27T1000,3341A,112.495,34.6338,洛阳市,中移产业园,细颗粒物(PM2.5),64,56,39,46,32,20,,34,29,25,19,8,8,1.0,0.7
2026-02-27T1000,3593A,112.5736,34.8993,洛阳市,吉利监测站,细颗粒物(PM2.5),69,54,39,50,32,25,,27,23,21,20,7,7,0.6,0.6
2026-02-27T1000,3635A,112.3678,34.6623,洛阳市,河科大西苑校区,细颗粒物(PM2.5),60,51,37,43,31,30,,35,31,27,24,7,7,0.8,0.7
2026-02-27T1000,3636A,112.4387,34.678,洛阳市,英才小学,细颗粒物(PM2.5),62,65,43,44,33,22,,34,29,27,21,8,8,0.7,0.6
2026-02-27T1000,4214A,112.460027,34.694929,洛阳市,春都路1号院,细颗粒物(PM2.5),60,64,42,43,31,21,,30,26,25,21,7,7,0.7,0.6
2026-02-27T1000,2399A,114.051,33.5721,漯河市,三五一五工厂,细颗粒物(PM2.5),88,102,57,65,39,40,,41,38,14,14,4,4,0.8,0.7
2026-02-27T1000,2400A,114.0055,33.5698,漯河市,漯河大学,细颗粒物(PM2.5),99,90,50,74,45,39,,42,39,13,13,5,5,0.6,0.5
2026-02-27T1000,2401A,114.0134,33.5826,漯河市,市水利局,细颗粒物(PM2.5),90,92,57,67,41,39,,42,39,14,14,4,4,0.6,0.5
2026-02-27T1000,2402A,114.0261,33.5697,漯河市,市广电局,细颗粒物(PM2.5),90,93,49,67,38,36,,39,36,11,10,5,5,0.6,0.5
2026-02-27T1000,3478A,113.9691,33.568,漯河市,市图书馆,细颗粒物(PM2.5),88,96,56,65,39,37,,39,37,10,11,6,6,0.7,0.6
2026-02-27T1000,4250A,114.089259,33.588274,漯河市,韶山路11号,细颗粒物(PM2.5),84,103,55,62,39,37,,35,33,14,15,6,6,0.9,0.8
2026-02-27T1000,1798A,118.5084,31.6838,马鞍山市,湖东路四小,,31,31,18,20,15,17,,40,32,32,22,8,7,1.3,0.7
2026-02-27T1000,1799A,118.5019,31.6449,马鞍山市,开发区,,20,14,18,14,16,33,,48,46,21,23,4,5,0.4,0.7
2026-02-27T1000,3633A,118.4914,31.681,马鞍山市,雨山,,42,42,24,24,15,17,,35,30,34,29,10,8,2.0,1
2026-02-27T1000,4191A,118.527362,31.722269,马鞍山市,慈湖高新区,,27,27,20,17,12,29,,47,42,22,18,5,6,0.4,0.4
2026-02-27T1000,1686A,111.0285,21.469,茂名市,电白南海,颗粒物(PM10),56,61,39,32,17,33,,44,39,18,10,5,5,0.9,0.8
2026-02-27T1000,1687A,110.9294,21.6533,茂名市,茂石化七小,颗粒物(PM10),52,53,40,30,17,31,,36,33,17,13,8,7,0.5,0.4
2026-02-27T1000,1688A,110.9108,21.6688,茂名市,健康路,,38,34,30,26,15,37,,44,40,17,11,5,5,0.6,0.5
2026-02-27T1000,1689A,110.8592,21.6826,茂名市,高岭,颗粒物(PM10),52,53,68,23,17,32,,42,38,20,17,5,3,/,/
2026-02-27T1000,3450A,111.0101,21.5165,茂名市,电白水东,,39,39,29,25,14,38,,45,40,19,17,3,3,/,/
2026-02-27T1000,2540A,103.8414,30.0871,眉山市,气象局,,44,44,54,23,23,63,,65,59,17,13,8,6,0.7,0.4
2026-02-27T1000,3148A,103.829,30.0563,眉山市,区人社局,,49,49,55,24,24,58,,54,51,15,17,10,9,1.6,1.3
2026-02-27T1000,4148A,103.8836,30.0695,眉山市,眉职院,,45,45,49,31,23,61,,52,49,9,11,7,6,0.9,0.6
2026-02-27T1000,1690A,116.1248,24.3307,梅州市,梅江月梅,,15,15,30,8,20,28,,26,25,11,12,/,/,/,/
2026-02-27T1000,1691A,116.0798,24.2719,梅州市,梅县新城,,23,19,36,16,20,22,,27,24,18,14,7,8,0.7,0.6
2026-02-27T1000,3315A,116.1234,24.2994,梅州市,梅龙,,26,,24,18,22,26,,30,28,9,10,5,5,0.7,0.7
2026-02-27T1000,1878A,104.7775,31.4741,绵阳市,富乐山,颗粒物(PM10),53,56,52,30,29,40,,48,42,13,11,9,9,0.6,0.5
2026-02-27T1000,1880A,104.6698,31.4668,绵阳市,高新区自来水公司,颗粒物(PM10),58,65,63,33,32,32,,27,27,27,27,9,9,0.6,0.6
2026-02-27T1000,3491A,104.6899,31.5324,绵阳市,西科大附属小学,颗粒物(PM10),63,75,66,38,34,31,,27,27,30,28,8,8,0.5,0.5
2026-02-27T1000,3492A,104.5647,31.5343,绵阳市,安州区旅游局,颗粒物(PM10),58,65,59,29,30,50,,50,50,18,20,6,4,0.7,0.7
2026-02-27T1000,4146A,104.7092,31.4972,绵阳市,科技城新区公安局,颗粒物(PM10),61,71,62,34,32,25,,22,19,31,26,6,6,0.9,0.8
2026-02-27T1000,4226A,104.765114,31.453094,绵阳市,绵阳市气象局,颗粒物(PM10),55,59,59,32,30,29,,32,30,22,21,8,8,1.0,0.9
2026-02-27T1000,1784A,129.61,44.561,牡丹江市,环保大楼,,47,47,53,18,23,59,,56,56,13,13,6,4,0.4,0.3
2026-02-27T1000,1787A,129.6364,44.6075,牡丹江市,机车工厂,,,45,59,17,20,58,,44,44,11,18,,8,0.4,0.4
2026-02-27T1000,1788A,129.6386,44.5462,牡丹江市,第一中学,,35,35,48,13,24,59,,47,47,11,14,4,4,0.4,0.5
2026-02-27T1000,4287A,129.5992,44.5964,牡丹江市,东晓云街98号,,29,29,48,12,21,64,,54,54,13,11,11,9,0.5,0.5
2026-02-27T1000,2531A,105.0703,29.61,内江市,市监测站,细颗粒物(PM2.5),58,41,42,41,30,19,,40,29,24,12,7,7,0.7,0.4
2026-02-27T1000,2533A,105.0657,29.5807,内江市,内江二中,细颗粒物(PM2.5),59,44,42,42,29,33,,44,35,23,16,7,7,0.6,0.5
2026-02-27T1000,2534A,105.0407,29.5828,内江市,内江日报社,细颗粒物(PM2.5),57,46,36,40,28,38,,42,34,26,18,8,9,0.6,0.4
2026-02-27T1000,4147A,105.0433,29.6105,内江市,玉峰路西段888号,细颗粒物(PM2.5),62,45,38,44,27,24,,48,35,26,15,10,9,0.7,0.4
2026-02-27T1000,2628A,92.0653,31.4846,那曲市,那曲监测站,细颗粒物(PM2.5),54,46,29,38,24,38,,45,44,21,17,17,9,0.8,0.8
2026-02-27T1000,4243A,92.0515,31.4787,那曲市,那曲市委宣传部,细颗粒物(PM2.5),74,,18,54,15,33,,45,41,19,9,12,5,1.2,0.7
2026-02-27T1000,1291A,115.8887,28.7006,南昌市,省林业公司,,,,3,12,7,31,,31,30,8,13,,3,0.7,0.9
2026-02-27T1000,1292A,115.813,28.7443,南昌市,林科所,,12,,5,8,4,29,,30,29,12,15,8,7,0.9,1
2026-02-27T1000,1294A,115.8518,28.687,南昌市,建工学校,,30,30,18,11,7,28,,30,28,16,17,6,6,0.2,0.2
2026-02-27T1000,1295A,115.8926,28.6425,南昌市,象湖,,20,,6,14,8,30,,31,30,16,16,7,7,0.9,1
2026-02-27T1000,3046A,115.9084,28.6062,南昌市,机电学校,,19,19,15,10,8,31,,34,32,14,14,4,4,0.6,0.6
2026-02-27T1000,3690A,115.9718,28.7032,南昌市,外国语学校,,18,14,11,12,8,30,,30,29,15,16,7,7,0.8,0.8
2026-02-27T1000,4106A,115.7923,28.6873,南昌市,工业二路,,17,16,16,9,8,52,,51,51,16,18,4,4,0.7,0.8
2026-02-27T1000,4192A,115.931587,28.686774,南昌市,南京东路235号,,17,17,16,10,8,34,,33,32,13,15,5,4,0.6,0.6
2026-02-27T1000,1906A,106.0791,30.8022,南充市,南充市委,,48,48,37,32,26,20,,30,23,28,19,7,6,0.6,0.5
2026-02-27T1000,1907A,106.1038,30.8215,南充市,南充炼油厂,颗粒物(PM10),51,51,44,29,25,17,,33,25,27,17,5,5,0.7,0.6
2026-02-27T1000,4227A,106.108336,30.788436,南充市,梨树横街98号,,,,40,,29,24,,35,27,18,17,,6,0.5,0.4
2026-02-27T1000,4304A,106.1172,30.843,南充市,清泉寺北路188号,,42,34,35,29,24,31,,43,37,12,10,5,6,0.5,0.5
2026-02-27T1000,4305A,106.067,30.7616,南充市,同庆路1号,,40,37,38,28,26,28,,30,24,22,18,7,6,0.6,0.5
2026-02-27T1000,1151A,118.8033,32.1085,南京市,迈皋桥,,23,13,15,9,13,72,,62,62,23,24,4,3,0.2,0.4
2026-02-27T1000,1152A,118.7487,32.057,南京市,草场门,,21,7,9,7,10,66,,52,52,20,23,5,6,0.3,0.3
2026-02-27T1000,1154A,118.770105,32.004342,南京市,中华门,,17,6,7,3,5,52,,43,40,15,13,4,4,0.4,0.4
2026-02-27T1000,1155A,118.8059,32.0329,南京市,瑞金路,,20,6,8,3,6,62,,47,47,27,27,4,4,0.4,0.5
2026-02-27T1000,1156A,118.7946,32.0774,南京市,玄武湖,,18,15,16,3,7,55,,41,41,26,30,6,6,0.4,0.5
2026-02-27T1000,1157A,118.6415,32.0964,南京市,浦口,,18,12,13,3,4,57,,44,44,12,14,4,4,0.3,0.4
2026-02-27T1000,1158A,118.730129,32.000956,南京市,奥体中心,,19,11,11,3,4,58,,47,45,22,21,7,7,0.2,0.3
2026-02-27T1000,1159A,118.9072,32.1047,南京市,仙林大学城,,20,9,14,3,5,64,,45,45,14,23,6,6,0.5,0.6
2026-02-27T1000,3422A,118.8443,31.919,南京市,江宁彩虹桥,,18,18,13,3,5,49,,52,48,24,17,4,4,0.4,0.5
2026-02-27T1000,3427A,118.8497,32.3599,南京市,六合雄州,,21,6,11,3,5,65,,58,58,9,14,4,4,0.6,0.7
2026-02-27T1000,4086A,118.7641,32.0841,南京市,新模范马路66号,,28,14,11,3,5,89,,64,64,16,21,4,4,0.4,0.5
2026-02-27T1000,4249A,118.8707617,31.34017673,南京市,汶溪路181号,,20,20,18,11,8,39,,45,44,16,18,5,5,0.8,0.8
2026-02-27T1000,4312A,119.019,31.6512,南京市,中山西路1号,,17,17,12,10,7,30,,39,36,12,13,4,4,0.9,0.8
2026-02-27T1000,1401A,108.3098,22.788,南宁市,二十一中,细颗粒物(PM2.5),52,39,29,36,25,15,,16,13,18,18,4,4,0.7,0.7
2026-02-27T1000,1402A,108.3135,22.8529,南宁市,北湖,细颗粒物(PM2.5),53,39,36,37,29,16,,12,12,18,24,2,1,0.7,0.7
2026-02-27T1000,1403A,108.3205,22.8222,南宁市,市监测站,,45,37,32,31,22,19,,26,23,21,17,5,5,0.7,0.7
2026-02-27T1000,1404A,108.3828,22.8038,南宁市,大自然花园,细颗粒物(PM2.5),55,43,30,39,24,22,,20,16,14,10,5,5,0.8,0.8
2026-02-27T1000,1406A,108.2397,22.8462,南宁市,区农职院,,46,37,34,32,24,8,,1,1,22,26,4,4,0.6,0.5
2026-02-27T1000,1407A,108.3285,22.7356,南宁市,英华嘉园,,49,46,37,34,24,24,,12,11,11,18,3,3,0.5,0.5
2026-02-27T1000,3401A,108.4829,22.762,南宁市,红星社区,细颗粒物(PM2.5),52,36,32,36,22,20,,8,7,11,15,4,4,0.7,0.6
2026-02-27T1000,4132A,108.2927,23.1477,南宁市,起凤路9号,细颗粒物(PM2.5),55,47,31,39,26,24,,24,21,11,12,3,2,0.6,0.6
2026-02-27T1000,4221A,108.2177,22.7774,南宁市,乐贤路16号,,,48,28,38,22,14,,3,3,24,25,,1,0.7,0.6
2026-02-27T1000,2332A,118.1682,26.6371,南平市,南平市监测站,,20,20,13,14,9,15,,17,14,12,10,6,4,0.6,0.4
2026-02-27T1000,2334A,118.1757,26.6276,南平市,南平七中,,22,16,9,15,7,16,,14,13,11,8,4,2,0.6,0.5
2026-02-27T1000,1168A,120.9056,31.9669,南通市,狼山街道,,22,8,11,6,5,69,,68,68,12,15,3,3,0.5,0.5
2026-02-27T1000,1170A,120.8635,32.0231,南通市,城中,,23,10,16,10,5,73,,73,72,9,12,4,4,0.4,0.5
2026-02-27T1000,1171A,120.9376,31.9301,南通市,星湖花园,,22,11,11,7,6,69,,69,68,12,14,3,3,0.3,0.4
2026-02-27T1000,1172A,120.8053,32.046,南通市,紫琅学院,,23,12,10,6,8,72,,73,72,11,15,4,4,0.4,0.5
2026-02-27T1000,3291A,121.0631,32.0644,南通市,通州监测站,,26,14,10,9,5,81,,81,81,12,13,2,4,0.5,0.6
2026-02-27T1000,3432A,120.9348,31.9874,南通市,环境教育馆,,24,17,13,3,4,74,,71,71,2,10,4,4,0.3,0.3
2026-02-27T1000,4091A,120.8692,31.9885,南通市,洪江路,,22,8,12,6,6,68,,68,67,12,15,4,4,0.5,0.5
2026-02-27T1000,2404A,112.5338,33.0086,南阳市,瓦房庄,颗粒物(PM10),51,51,37,26,19,49,,52,52,9,9,4,4,0.6,0.6
2026-02-27T1000,2405A,112.5002,32.9734,南阳市,汉画馆,细颗粒物(PM2.5),58,54,41,41,31,50,,53,53,10,10,4,4,0.7,0.6
2026-02-27T1000,2406A,112.5778,33.0144,南阳市,气象站,,,55,38,25,20,48,,53,53,,13,,4,0.6,0.6
2026-02-27T1000,2407A,112.548,32.9687,南阳市,理工学院,,45,45,38,23,22,50,,51,51,8,9,5,4,0.6,0.6
2026-02-27T1000,4008A,112.5233,32.9921,南阳市,卧龙区政府,,48,48,34,26,21,50,,52,52,9,10,5,5,0.6,0.6
2026-02-27T1000,1234A,121.8352,29.9111,宁波市,区环保大楼,,,14,15,9,6,15,,16,16,,23,,5,0.5,0.4
2026-02-27T1000,1235A,121.5595,29.8208,宁波市,万里学院,,13,6,14,6,5,13,,21,16,26,18,3,4,0.6,0.4
2026-02-27T1000,1236A,121.713,29.9564,宁波市,龙赛医院,,15,10,13,6,7,14,,22,14,30,17,4,4,0.6,0.4
2026-02-27T1000,1240A,121.5855,29.8635,宁波市,太古小学,,10,8,14,3,5,20,,21,18,20,15,2,2,0.6,0.5
2026-02-27T1000,1241A,121.5239,29.8673,宁波市,市环境监测中心,,12,12,19,6,7,11,,18,14,23,20,3,3,0.7,0.5
2026-02-27T1000,2871A,121.6156,29.9015,宁波市,万里国际学校,,16,16,17,3,6,17,,19,15,22,16,3,3,0.7,0.6
2026-02-27T1000,3710A,121.5593,29.8976,宁波市,白沙活动中心,,9,9,16,3,6,22,,20,18,17,14,4,4,0.7,0.6
2026-02-27T1000,4095A,121.8962,29.7529,宁波市,中科路88号,,11,6,13,3,5,23,,32,26,21,13,5,5,0.6,0.5
2026-02-27T1000,2341A,119.5387,26.6611,宁德市,宁德市监测站,,26,,18,18,18,15,,4,4,23,32,4,3,0.7,0.6
2026-02-27T1000,3209A,119.5231,26.6562,宁德市,宁德一中,,29,20,19,20,20,27,,12,12,15,20,4,4,0.6,0.5
2026-02-27T1000,2618A,98.859,25.8541,怒江傈僳族自治州,州监测站,,,6,33,3,30,56,,,,,8,,6,0.7,0.4
2026-02-27T1000,2619A,98.8607,25.8168,怒江傈僳族自治州,泸水一中,,43,,35,30,34,44,,44,43,16,14,5,5,0.6,0.5
2026-02-27T1000,1888A,101.6891,26.571,攀枝花市,弄弄坪,细颗粒物(PM2.5),74,92,68,54,46,38,,41,33,42,24,19,15,0.8,0.8
2026-02-27T1000,1889A,101.577,26.5914,攀枝花市,河门口,细颗粒物(PM2.5),63,67,53,45,39,34,,47,40,25,15,15,27,0.9,0.8
2026-02-27T1000,1891A,101.7365,26.4986,攀枝花市,仁和,细颗粒物(PM2.5),65,52,43,47,37,46,,59,54,25,9,7,7,0.9,0.7
2026-02-27T1000,2835A,101.7222,26.567,攀枝花市,四十中小,细颗粒物(PM2.5),107,96,61,80,48,40,,47,40,37,21,29,22,1.1,0.9
2026-02-27T1000,1604A,122.0303,41.1489,盘锦市,开发区,细颗粒物(PM2.5),68,,52,49,30,53,,60,57,12,10,4,4,0.5,0.4
2026-02-27T1000,1605A,122.0486,41.0883,盘锦市,兴隆台,细颗粒物(PM2.5),73,,54,53,33,50,,61,58,21,14,5,6,0.5,0.4
2026-02-27T1000,1606A,121.8297,41.1026,盘锦市,新生街道,细颗粒物(PM2.5),63,45,48,45,29,58,,59,59,16,12,7,7,0.5,0.4
2026-02-27T1000,1832A,113.3257,33.7423,平顶山市,新华旅馆,细颗粒物(PM2.5),77,89,49,56,36,35,,40,37,18,11,5,5,0.6,0.5
2026-02-27T1000,1833A,113.2917,33.737,平顶山市,规划设计院,细颗粒物(PM2.5),68,72,49,49,34,42,,42,41,13,11,5,4,0.5,0.6
2026-02-27T1000,1834A,113.182,33.7738,平顶山市,平顶山工学院,细颗粒物(PM2.5),63,54,41,45,32,50,,42,42,9,11,3,3,0.4,0.3
2026-02-27T1000,3594A,112.8736,33.9068,平顶山市,石龙区,细颗粒物(PM2.5),63,64,44,45,32,45,,43,40,7,9,5,5,0.7,0.7
2026-02-27T1000,4116A,113.284,33.7139,平顶山市,姚电大道23号,细颗粒物(PM2.5),75,77,54,55,37,42,,46,42,16,12,4,4,0.6,0.5
2026-02-27T1000,2656A,106.6633,35.5338,平凉市,聚贤嘉苑,颗粒物(PM10),83,115,140,47,51,37,,34,32,23,20,15,8,0.9,0.6
2026-02-27T1000,2657A,106.7021,35.5307,平凉市,博物馆,"颗粒物(PM10),细颗粒物(PM2.5)",87,123,132,64,55,26,,31,25,28,20,11,9,1.0,0.7
2026-02-27T1000,2348A,113.8384,27.6436,萍乡市,中医院,,9,6,21,6,12,28,,24,24,9,14,3,3,0.3,0.6
2026-02-27T1000,2350A,113.8677,27.6438,萍乡市,市环保局,,18,,15,12,13,33,,32,32,10,13,6,7,0.5,0.6
2026-02-27T1000,2351A,113.8663,27.6202,萍乡市,安源区政府,,14,14,19,3,10,27,,25,25,7,11,4,4,0.4,0.5
2026-02-27T1000,4107A,113.8686,27.6668,萍乡市,联洪村委会,,10,10,21,7,11,24,,20,20,8,12,1,2,0.3,0.6
2026-02-27T1000,2319A,119.0142,25.4324,莆田市,荔城区仓后路,,37,37,47,23,43,21,,12,12,18,20,/,/,/,/
2026-02-27T1000,2320A,119.0016,25.4553,莆田市,莆田市监测站,,25,23,31,17,28,20,,16,16,10,11,2,2,0.6,0.6
2026-02-27T1000,2321A,119.112,25.4561,莆田市,涵江区六中,,39,,49,27,56,16,,9,9,16,23,/,/,0.7,0.7
2026-02-27T1000,2322A,119.1014,25.3215,莆田市,秀屿区政府,细颗粒物(PM2.5),73,82,53,53,58,24,,21,20,16,17,3,3,0.7,0.7
2026-02-27T1000,2392A,115.0312,35.7636,濮阳市,环保局,颗粒物(PM10),109,167,85,58,53,,,28,26,,20,,6,,0.9
2026-02-27T1000,3021A,115,35.7667,濮阳市,濮水河管理处,颗粒物(PM10),92,133,92,64,52,24,,27,24,12,12,6,6,0.7,0.7
2026-02-27T1000,4118A,115.0552,35.7816,濮阳市,中原东路68号,颗粒物(PM10),106,161,94,60,51,24,,27,25,22,22,4,4,0.9,0.9
2026-02-27T1000,4216A,115.0923632,35.76857718,濮阳市,任丘路479号,颗粒物(PM10),100,150,105,65,54,23,,27,24,18,18,4,4,1.0,0.9
2026-02-27T1000,2601A,100.9801,22.7634,普洱市,市环保局,颗粒物(PM10),54,58,42,24,19,23,,20,18,17,9,6,5,1.0,0.8
2026-02-27T1000,2602A,100.9763,22.8237,普洱市,普洱第二中学,,48,48,37,18,21,18,,11,10,15,13,6,6,0.8,0.7
2026-02-27T1000,3345A,131.0413,45.7795,七台河市,中波台,颗粒物(PM10),61,71,69,41,46,63,,48,46,17,15,9,6,0.4,0.4
2026-02-27T1000,3637A,131.0136,45.7688,七台河市,人民广场,颗粒物(PM10),65,79,85,45,57,61,,47,47,21,25,10,10,0.5,0.6
2026-02-27T1000,3684A,130.8639,45.8144,七台河市,新建矿广场,细颗粒物(PM2.5),99,132,191,74,137,42,,27,27,25,34,11,9,0.4,0.7
2026-02-27T1000,1779A,123.9307,47.3641,齐齐哈尔市,安居小区,,34,34,33,11,13,75,,40,40,11,17,3,3,0.3,0.3
2026-02-27T1000,1780A,123.9497,47.3389,齐齐哈尔市,中心广场,,31,31,29,9,14,67,,40,40,17,19,10,10,0.4,0.4
2026-02-27T1000,1781A,123.9483,47.3229,齐齐哈尔市,农牧车辆厂,,,34,28,8,11,,,40,39,16,16,12,7,0.3,0.3
2026-02-27T1000,1783A,123.9442,47.2994,齐齐哈尔市,市环境监测站,,37,37,30,3,10,63,,38,38,20,18,16,5,0.3,0.3
2026-02-27T1000,3662A,123.6341,47.2079,齐齐哈尔市,富区青少年活动中心,,37,37,42,19,18,63,,37,37,16,12,7,4,0.5,0.5
2026-02-27T1000,2591A,107.9765,26.5724,黔东南苗族侗族自治州,市环境监测站,,13,7,16,3,13,39,,36,36,7,6,6,3,0.5,0.7
2026-02-27T1000,2881A,107.8909,26.531,黔东南苗族侗族自治州,凯里学院,,14,6,13,3,12,42,,37,37,11,9,3,3,0.3,0.5
2026-02-27T1000,2593A,107.5223,26.2371,黔南布依族苗族自治州,小围寨,,10,,14,6,16,32,,34,32,4,6,4,5,0.4,0.5
2026-02-27T1000,3538A,107.5175,26.2977,黔南布依族苗族自治州,沙坝,,12,7,15,6,11,37,,35,35,4,5,3,3,1.0,1.1
2026-02-27T1000,2589A,104.9022,25.0943,黔西南布依族苗族自治州,场坝街,,42,32,35,29,25,74,,55,52,14,8,3,6,0.6,0.5
2026-02-27T1000,2590A,104.8812,25.0994,黔西南布依族苗族自治州,坪东大道,,45,,32,31,26,78,,46,46,14,11,5,5,0.6,0.6
2026-02-27T1000,2502A,108.6238,21.9667,钦州市,市环保站,颗粒物(PM10),51,51,41,23,23,8,,18,16,29,20,4,5,0.6,0.5
2026-02-27T1000,2503A,108.655,21.9481,钦州市,沙埠小学,,50,50,40,23,19,13,,14,13,23,20,4,5,0.6,0.5
2026-02-27T1000,2504A,108.5989,21.7435,钦州市,港区一小,,48,48,40,19,19,14,,36,30,40,20,3,3,0.8,0.7
2026-02-27T1000,3404A,108.5959,21.9634,钦州市,北职校,,44,44,36,19,17,7,,15,11,21,21,4,7,0.7,0.7
2026-02-27T1000,1046A,119.5247,39.9346,秦皇岛市,建设大厦,,17,11,44,7,10,52,,65,64,14,11,4,5,0.4,0.3
2026-02-27T1000,3132A,119.5979,39.938,秦皇岛市,文明里,,22,22,44,3,10,60,,66,65,13,13,8,9,0.3,0.3
2026-02-27T1000,4066A,119.7458,39.9952,秦皇岛市,南园路157号,,,8,37,3,10,,,69,69,8,16,5,6,0.3,0.3
2026-02-27T1000,4067A,119.5131,39.8858,秦皇岛市,翠岛大街1号,,20,20,40,14,10,59,,65,65,13,14,7,8,0.3,0.3
2026-02-27T1000,4198A,119.509013,39.825305,秦皇岛市,北戴河轮滑馆,,20,14,45,3,9,62,,69,69,12,13,5,6,0.3,0.2
2026-02-27T1000,1310A,120.404,36.0625,青岛市,市南区东部子站,细颗粒物(PM2.5),95,117,68,71,39,42,,32,32,24,25,9,9,0.8,0.7
2026-02-27T1000,1311A,120.362344,36.10282,青岛市,四方区子站,细颗粒物(PM2.5),107,134,73,80,42,35,,29,29,24,31,6,5,0.8,0.7
2026-02-27T1000,1312A,120.294373,36.054183,青岛市,市南区西部子站,细颗粒物(PM2.5),103,114,65,77,42,35,,33,31,22,23,2,3,0.8,0.7
2026-02-27T1000,1313A,120.4581,36.0858,青岛市,崂山区子站,细颗粒物(PM2.5),77,95,65,56,35,54,,38,38,23,20,8,7,0.7,0.5
2026-02-27T1000,1315A,120.3945,36.3083,青岛市,城阳区子站,细颗粒物(PM2.5),100,139,86,75,46,46,,32,29,32,24,8,7,0.8,0.7
2026-02-27T1000,3642A,120.3454,36.0735,青岛市,市北区南部,细颗粒物(PM2.5),105,103,72,79,41,34,,27,27,18,23,6,4,1.0,0.9
2026-02-27T1000,3643A,120.3897,36.18,青岛市,李沧区北部,细颗粒物(PM2.5),109,132,81,82,46,,,21,20,30,32,10,8,0.8,0.7
2026-02-27T1000,4110A,120.5222,36.4089,青岛市,盟旺路653号,颗粒物(PM10),96,142,84,66,40,62,,44,44,25,14,6,1,1.2,0.9
2026-02-27T1000,4290A,120.196923,35.954556,青岛市,珠江路669号,细颗粒物(PM2.5),92,122,64,68,36,28,,24,24,41,36,9,8,0.7,0.5
2026-02-27T1000,4291A,120.0424,35.8656,青岛市,黄岛区人民政府广场,颗粒物(PM10),75,100,61,53,31,44,,38,34,23,22,7,7,0.7,0.6
2026-02-27T1000,1703A,113.0218,23.7086,清远市,凤城街办,,30,26,40,21,30,19,,22,18,23,21,/,/,/,/
2026-02-27T1000,3025A,113.0479,23.6343,清远市,技师学院,,24,24,45,14,27,17,,20,17,20,19,4,4,0.4,0.5
2026-02-27T1000,3318A,112.9898,23.7403,清远市,清新太和,,29,29,38,18,23,26,,28,26,16,19,9,9,0.6,0.5
2026-02-27T1000,3455A,113.076,23.72,清远市,清城东城,,41,41,49,24,29,9,,14,10,30,28,/,/,/,/
2026-02-27T1000,2661A,107.6325,35.7357,庆阳市,庆阳五中,,,,107,,51,,,68,68,,13,,5,0.5,0.6
2026-02-27T1000,2662A,107.6361,35.7067,庆阳市,市环保局,颗粒物(PM10),73,95,105,52,52,74,,66,66,13,12,4,5,0.6,0.5
2026-02-27T1000,1916A,103.7897,25.5036,曲靖市,环境监测站,,33,32,36,23,25,87,,86,85,13,9,6,5,0.5,0.4
2026-02-27T1000,1917A,103.8013,25.5357,曲靖市,烟厂办公区,"颗粒物(PM10),细颗粒物(PM2.5)",54,57,39,38,27,79,,71,69,12,13,6,4,0.5,0.5
2026-02-27T1000,3376A,103.7926,25.4651,曲靖市,南苑二区,,33,33,30,21,22,82,,78,78,13,11,3,4,0.5,0.5
2026-02-27T1000,3377A,103.7442,25.5259,曲靖市,曲靖师范学院,细颗粒物(PM2.5),52,52,41,36,32,82,,70,69,15,13,7,4,0.3,0.3
2026-02-27T1000,1264A,118.8694,28.94,衢州市,环保大楼,,11,11,19,7,13,25,,11,11,15,23,/,/,/,/
2026-02-27T1000,1266A,118.8622,28.9809,衢州市,衢州学院,,10,8,15,7,13,24,,12,12,9,20,3,3,0.7,0.6
2026-02-27T1000,4097A,118.9646,28.9832,衢州市,衢州三中,,9,7,17,6,14,23,,13,13,13,22,5,5,0.6,0.6
2026-02-27T1000,1611A,118.5818,24.9116,泉州市,涂山街,,19,14,26,13,28,16,,20,17,13,19,2,3,0.8,0.7
2026-02-27T1000,1612A,118.597,24.8976,泉州市,津头埔,,23,17,27,16,30,15,,20,16,15,19,2,2,0.8,0.7
2026-02-27T1000,1613A,118.6669,24.9422,泉州市,万安,,25,20,28,17,31,6,,10,8,26,21,3,3,0.8,0.6
2026-02-27T1000,4105A,118.6355,24.9148,泉州市,霞新路6号,,,,29,,28,,,14,13,16,23,/,/,,0.5
2026-02-27T1000,2626A,88.8873,29.2723,日喀则市,日喀则监测站,,35,29,25,24,11,46,,56,45,18,14,10,12,0.7,0.6
2026-02-27T1000,3726A,88.8775,29.2425,日喀则市,林业技术推广中心,,41,41,22,18,12,52,,64,58,12,7,10,9,0.6,0.4
2026-02-27T1000,1659A,119.4711,35.421,日照市,监测站,细颗粒物(PM2.5),84,100,62,62,35,40,,35,33,25,25,6,7,0.8,0.7
2026-02-27T1000,1660A,119.523,35.4216,日照市,市政府广场,细颗粒物(PM2.5),103,112,65,77,36,31,,38,32,24,19,6,6,0.8,0.6
2026-02-27T1000,1661A,119.5511,35.4113,日照市,港务局,细颗粒物(PM2.5),88,105,65,65,32,37,,46,40,28,23,5,5,0.9,0.7
2026-02-27T1000,3507A,119.5326,35.4627,日照市,职业技术学院,,,,62,,36,,,40,36,28,22,6,6,1.0,0.8
2026-02-27T1000,3604A,119.3267,35.1043,日照市,岚山环保分局,细颗粒物(PM2.5),95,124,55,71,29,26,,49,34,40,24,32,15,3.3,1.4
2026-02-27T1000,1835A,111.1922,34.7752,三门峡市,市政府,,46,41,37,32,32,40,,47,46,16,14,6,6,0.3,0.3
2026-02-27T1000,1836A,111.1588,34.794,三门峡市,开发区,,46,44,46,32,39,43,,48,47,14,14,7,7,0.6,0.6
2026-02-27T1000,3039A,111.1911,34.7829,三门峡市,三门峡市第一小学,细颗粒物(PM2.5),59,51,44,42,37,42,,48,47,13,13,10,8,0.5,0.5
2026-02-27T1000,3598A,111.1031,34.719,三门峡市,富达温泉假日酒店,细颗粒物(PM2.5),59,53,45,42,35,35,,45,44,15,9,9,9,0.3,0.4
2026-02-27T1000,2324A,117.621,26.2626,三明市,三钢,,19,,16,13,10,31,,30,30,17,15,6,8,0.8,1.2
2026-02-27T1000,2325A,117.6352,26.2714,三明市,三明二中,,13,,11,8,7,40,,31,31,10,14,5,4,0.6,0.8
2026-02-27T1000,2326A,117.6028,26.2377,三明市,三元区政府,,16,,13,11,7,37,,29,29,14,14,6,4,0.8,1
2026-02-27T1000,1877A,109.4962,18.2682,三亚市,河西子站,,26,26,23,16,14,22,,26,24,10,6,1,2,0.3,0.3
2026-02-27T1000,3540A,109.7348,18.3443,三亚市,君悦子站,,32,27,31,22,16,15,,22,17,11,6,3,2,0.4,0.3
2026-02-27T1000,4135A,109.1714,18.3739,三亚市,城东小学站,,45,31,28,31,14,14,,12,10,9,9,/,/,/,/
2026-02-27T1000,2624A,91.7592,29.234,山南市,山南监测站,,24,18,14,16,6,75,,97,90,11,4,12,11,0.5,0.4
2026-02-27T1000,2625A,91.7701,29.2436,山南市,山南人民医院,,28,28,16,14,8,81,,94,89,4,3,12,11,0.4,0.4
2026-02-27T1000,1674A,116.6795,23.3666,汕头市,金平子站,,49,,24,34,21,47,,54,50,17,14,5,5,0.8,0.6
2026-02-27T1000,1675A,116.7248,23.3632,汕头市,龙湖子站,,48,,23,33,22,50,,55,51,19,15,5,5,/,/
2026-02-27T1000,1676A,116.7257,23.2774,汕头市,濠江子站,,46,38,24,32,20,48,,56,52,19,15,8,8,/,/
2026-02-27T1000,1677A,116.7518,23.4712,汕头市,澄海子站,,48,34,31,33,24,44,,50,47,12,10,9,8,0.8,0.6
2026-02-27T1000,1678A,116.6088,23.2539,汕头市,潮阳子站,,43,,24,30,22,50,,54,48,10,9,6,6,0.5,0.4
2026-02-27T1000,3444A,116.4539,23.2684,汕头市,潮南峡山,细颗粒物(PM2.5),54,53,43,38,29,46,,57,49,12,9,6,6,0.7,0.6
2026-02-27T1000,3624A,116.4069,23.2533,汕头市,潮南子站,细颗粒物(PM2.5),72,63,42,52,27,43,,53,48,14,11,7,6,/,/
2026-02-27T1000,1693A,115.3653,22.7751,汕尾市,市环保局,,43,,24,30,19,59,,69,65,12,10,6,5,0.8,0.7
2026-02-27T1000,1695A,115.362,22.7926,汕尾市,新城中学,,50,,28,35,20,49,,63,57,11,9,6,6,0.8,0.7
2026-02-27T1000,2645A,109.9155,33.8714,商洛市,监测站,,16,16,27,10,22,26,,31,29,15,11,9,6,0.9,0.8
2026-02-27T1000,3045A,109.9647,33.8486,商洛市,商州区中学,,,11,29,10,18,,,33,32,11,8,5,5,1.0,0.9
2026-02-27T1000,2408A,115.6701,34.4283,商丘市,环境监测站,细颗粒物(PM2.5),173,198,119,131,84,13,,23,18,23,17,2,2,0.8,0.6
2026-02-27T1000,2409A,115.6458,34.4047,商丘市,粮食局,细颗粒物(PM2.5),163,184,115,124,84,14,,25,20,19,15,1,1,0.8,0.6
2026-02-27T1000,3171A,115.6069,34.4465,商丘市,梁园区档案局,细颗粒物(PM2.5),148,173,102,113,73,16,,26,20,21,18,1,3,0.7,0.6
2026-02-27T1000,4119A,115.6701,34.3767,商丘市,北海东路185号,细颗粒物(PM2.5),155,194,117,118,75,15,,25,20,21,16,3,2,0.8,0.7
2026-02-27T1000,4120A,115.6172,34.3704,商丘市,中山大街3号,细颗粒物(PM2.5),147,199,123,112,78,19,,30,25,22,17,4,4,0.7,0.6
2026-02-27T1000,1141A,121.401,31.2382,上海市,普陀,,21,,12,12,10,65,,62,62,19,24,5,5,0.5,0.5
2026-02-27T1000,1142A,121.4774,31.2043,上海市,十五厂,,23,17,17,16,11,59,,65,62,27,26,8,8,0.6,0.6
2026-02-27T1000,1143A,121.4673,31.3011,上海市,虹口,,22,15,14,15,10,59,,59,59,22,22,5,5,0.3,0.3
2026-02-27T1000,1147A,121.4253,31.226,上海市,静安监测站,,21,,13,11,10,66,,64,64,21,23,6,6,0.6,0.8
2026-02-27T1000,1148A,121.7029,31.1905,上海市,浦东川沙,,21,13,15,11,9,65,,64,64,18,24,4,5,0.2,0.2
2026-02-27T1000,1149A,121.5339,31.229,上海市,浦东新区监测站,,20,14,15,6,10,62,,61,60,22,22,5,5,0.8,0.4
2026-02-27T1000,1150A,121.5776,31.2038,上海市,浦东张江,,19,12,14,10,8,59,,64,62,28,25,6,6,0.5,0.5
2026-02-27T1000,3265A,121.4242,31.3303,上海市,宝山庙行,,23,,15,16,6,59,,55,55,20,29,9,9,0.3,0.3
2026-02-27T1000,3266A,121.8789,31.4662,上海市,崇明上实东滩,,26,15,15,12,9,83,,78,78,5,14,6,5,0,0.1
2026-02-27T1000,3268A,121.316,31.2839,上海市,嘉定南翔,,23,16,16,16,11,54,,55,55,28,29,3,3,0.7,0.5
2026-02-27T1000,3269A,121.3357,30.7455,上海市,金山新城,,16,,15,11,12,47,,58,53,24,19,4,3,0.5,0.4
2026-02-27T1000,3270A,121.4996,31.0741,上海市,闵行浦江,,18,11,14,9,9,55,,62,61,25,21,6,6,0.3,0.3
2026-02-27T1000,3271A,121.2886,31.1663,上海市,青浦徐泾,,18,10,16,9,11,56,,54,54,25,27,4,4,0.3,0.3
2026-02-27T1000,3272A,121.2193,31.0382,上海市,松江图书馆,,17,9,17,9,12,52,,56,56,28,25,6,6,0.4,0.4
2026-02-27T1000,3273A,121.3904,31.206,上海市,长宁仙霞,,20,9,14,8,8,62,,60,60,20,23,7,7,0.2,0.2
2026-02-27T1000,3274A,121.7964,31.0507,上海市,浦东惠南,,21,9,14,9,9,67,,60,60,20,20,4,4,0.7,0.6
2026-02-27T1000,3544A,121.4891,30.925,上海市,奉贤南桥新城,,19,8,14,8,10,60,,62,62,18,17,2,2,0.4,0.4
2026-02-27T1000,4183A,121.417401,31.16637,上海市,冠生园路458号,,23,16,15,16,11,55,,58,58,26,25,6,6,0.5,0.5
2026-02-27T1000,4205A,121.541914,31.268301,上海市,宁武路151号,,22,17,14,15,9,52,,56,54,28,27,6,6,0.3,0.3
2026-02-27T1000,2382A,117.9758,28.4439,上饶市,市监测站,,15,14,15,3,5,27,,29,29,30,31,10,7,/,/
2026-02-27T1000,2383A,117.9521,28.4637,上饶市,凤凰光学,,23,23,17,6,8,20,,20,20,15,22,12,8,0.9,0.8
2026-02-27T1000,3685A,117.897,28.4316,上饶市,双创科技城,,,13,18,3,8,,,32,32,,20,,6,,0.9
2026-02-27T1000,4211A,118.190438,28.444845,上饶市,裕丰大道,,21,21,18,13,7,20,,18,18,13,16,11,10,0.8,0.8
2026-02-27T1000,1669A,113.5821,24.7733,韶关市,市八中,,7,6,22,3,14,18,,16,16,12,20,7,6,0.7,0.8
2026-02-27T1000,1671A,113.5916,24.7973,韶关市,园林处,,6,6,16,3,14,18,,18,18,10,15,7,5,/,/
2026-02-27T1000,1673A,113.5971,24.6864,韶关市,曲江监测站,,8,6,33,3,20,14,,26,23,13,23,7,12,0.8,1.3
2026-02-27T1000,2809A,113.6668,24.7756,韶关市,大学路288号,,7,6,17,3,13,18,,16,16,13,18,4,5,/,/
2026-02-27T1000,3622A,113.5556,24.8082,韶关市,碧湖山庄,,9,6,18,3,12,17,,16,16,12,13,5,6,0.9,0.9
2026-02-27T1000,2464A,111.5277,27.2442,邵阳市,市化工厂,,26,19,18,18,17,33,,43,39,10,7,4,5,0.7,0.8
2026-02-27T1000,2466A,111.4327,27.2276,邵阳市,市环保局,,25,,14,17,16,34,,43,41,10,9,5,11,0.9,0.9
2026-02-27T1000,4218A,111.446,27.2472,邵阳市,北塔二期4-26地块,,12,9,13,3,10,38,,39,38,6,6,7,7,0.6,0.7
2026-02-27T1000,4219A,111.4739,27.2282,邵阳市,邵水西路287号,,22,,14,15,16,30,,41,39,9,6,4,4,0.8,0.8
2026-02-27T1000,1247A,120.6053,29.9927,绍兴市,城东开发委,,16,13,18,11,16,16,,22,19,28,25,7,7,0.8,0.5
2026-02-27T1000,2921A,120.5482,30.0003,绍兴市,树下王站,,15,11,19,10,14,18,,21,17,22,23,6,6,0.7,0.5
2026-02-27T1000,3408A,120.5685,29.936,绍兴市,绍兴中专,,15,14,17,10,13,21,,26,23,20,19,5,5,0.8,0.7
2026-02-27T1000,3409A,120.4905,30.086,绍兴市,柯桥区政府,,20,18,18,14,14,23,,22,19,21,23,5,5,0.7,0.5
2026-02-27T1000,3410A,120.8751,30.0249,绍兴市,重华小学,,23,21,18,16,16,22,,20,18,21,22,6,6,0.6,0.4
2026-02-27T1000,3411A,120.837,30.0137,绍兴市,上虞中学,,26,23,20,18,17,21,,21,18,22,22,6,6,0.5,0.4
2026-02-27T1000,3560A,120.4715,30.0414,绍兴市,柯桥妇保,,26,,20,18,15,21,,22,18,19,23,5,5,0.8,0.6
2026-02-27T1000,3658A,120.6156,30.0762,绍兴市,袍江中学,,16,13,21,11,16,23,,20,18,18,22,6,6,0.9,0.6
2026-02-27T1000,1356A,114.0948,22.5506,深圳市,通心岭子站,,20,19,23,10,13,63,,70,66,8,6,6,6,0.4,0.4
2026-02-27T1000,1357A,114.1153,22.5713,深圳市,洪湖,,20,19,24,10,13,62,,70,64,14,8,5,5,0.5,0.5
2026-02-27T1000,1358A,113.9823,22.5398,深圳市,华侨城,,19,19,24,10,13,60,,64,62,11,13,/,/,/,/
2026-02-27T1000,1359A,113.9181,22.517,深圳市,南海子站,,21,21,24,12,14,61,,64,63,11,14,6,6,0.4,0.3
2026-02-27T1000,1360A,114.2345,22.565,深圳市,盐田,,30,30,27,17,14,20,,55,39,58,22,9,7,0.5,0.4
2026-02-27T1000,1363A,114.4911,22.5381,深圳市,南澳,,30,30,25,16,11,64,,69,66,7,8,/,/,/,/
2026-02-27T1000,1364A,114.41,22.6346,深圳市,葵涌,,35,35,23,21,12,61,,67,65,9,10,7,8,0.6,0.5
2026-02-27T1000,1365A,114.2967,22.5978,深圳市,梅沙,,36,36,25,19,12,63,,68,68,17,15,/,/,/,/
2026-02-27T1000,1366A,114.0563,22.7353,深圳市,观澜,,25,25,30,16,16,63,,51,51,14,18,8,8,0.6,0.6
2026-02-27T1000,3305A,114.0614,22.556,深圳市,莲花,,20,17,24,11,15,62,,66,62,11,12,/,/,/,/
2026-02-27T1000,3306A,114.0144,22.6163,深圳市,民治,,16,16,26,10,14,37,,44,40,10,9,/,/,/,/
2026-02-27T1000,3307A,114.1756,22.6421,深圳市,横岗,,20,20,26,14,17,63,,55,52,13,19,/,/,/,/
2026-02-27T1000,3447A,114.344,22.7115,深圳市,坪山,,28,28,26,18,14,64,,68,67,8,10,9,9,0.6,0.5
2026-02-27T1000,3623A,113.8952,22.586,深圳市,西乡,,21,21,26,10,13,55,,56,55,12,18,6,7,0.5,0.5
2026-02-27T1000,4220A,114.214113,22.713717,深圳市,黄阁路,,22,19,21,13,12,70,,60,60,9,11,6,6,0.9,0.8
2026-02-27T1000,1099A,123.5058,41.7084,沈阳市,浑南东路,细颗粒物(PM2.5),73,81,100,53,67,43,,43,40,27,27,11,12,0.7,0.7
2026-02-27T1000,1100A,123.4238,41.6992,沈阳市,新秀街,细颗粒物(PM2.5),65,62,95,47,71,45,,46,44,28,27,14,12,0.7,0.7
2026-02-27T1000,1102A,123.5903,41.8412,沈阳市,东陵路,细颗粒物(PM2.5),63,51,76,45,54,57,,47,47,10,15,7,6,0.6,0.6
2026-02-27T1000,1103A,123.4267,41.8466,沈阳市,陵东街,细颗粒物(PM2.5),73,75,90,53,61,50,,46,46,21,20,11,10,0.9,0.8
