timepoint,stationcode,longitude,latitude,area,positionname,primarypollutant,aqi,pm10,pm10_24h,pm2_5,pm2_5_24h,o3,o3_24h,o3_8h,o3_8h_24h,no2,no2_24h,so2,so2_24h,co,co_24h
2022-06-14T16:00:00,1001A,116.3621,39.8784,北京市,万寿西宫,,35,8,34,6,21,135,111,117,117,11,13,3,2,0.5,0.7
2022-06-14T16:00:00,1002A,116.2202,40.2915,北京市,定陵(对照点),,30,6,25,2,12,109,95,99,99,13,13,3,3,0.2,0.4
2022-06-14T16:00:00,1003A,116.4174,39.9289,北京市,东四,,40,10,38,5,19,137,127,122,122,9,20,2,2,0.3,0.6
2022-06-14T16:00:00,1004A,116.4072,39.8863,北京市,天坛,,34,6,34,4,18,125,108,107,107,8,15,3,3,0.3,0.6
2022-06-14T16:00:00,1005A,116.462,39.9365,北京市,农展馆,,40,9,40,6,18,135,128,118,118,9,24,3,3,0.4,0.6
2022-06-14T16:00:00,1006A,116.3392,39.9295,北京市,官园,,35,11,38,6,19,134,109,116,116,11,12,2,2,0.5,0.6
2022-06-14T16:00:00,1007A,116.2878,39.9611,北京市,海淀万柳,,30,16,37,8,18,126,94,106,106,15,23,3,3,0.4,0.5
2022-06-14T16:00:00,1008A,116.6636,40.135,北京市,顺义新城,,34,11,30,9,15,110,108,95,95,7,13,3,3,0.3,0.4
2022-06-14T16:00:00,1009A,116.6275,40.3275,北京市,怀柔镇,,33,12,26,6,14,117,104,99,99,5,8,3,3,0.3,0.4
2022-06-14T16:00:00,1010A,116.2296,40.217,北京市,昌平镇,,24,9,30,4,17,105,76,85,85,13,12,3,3,0.3,0.4
2022-06-14T16:00:00,1011A,116.3966,39.9821,北京市,奥体中心,,35,15,36,7,19,125,110,109,109,12,18,2,2,0.3,0.5
2022-06-14T16:00:00,1012A,116.184,39.9136,北京市,古城,,33,12,37,6,17,138,105,116,116,16,17,3,3,0.3,0.5
2022-06-14T16:00:00,1015A,117.1444,39.1661,天津市,勤俭道,臭氧1小时,58,38,46,25,27,166,166,121,121,8,15,5,8,0.7,0.8
2022-06-14T16:00:00,1017A,117.237,39.1082,天津市,大直沽八号路,臭氧1小时,65,42,42,24,25,172,172,120,120,9,14,10,10,0.5,0.6
2022-06-14T16:00:00,1019A,117.1837,39.2133,天津市,淮河道,臭氧1小时,58,35,52,22,31,166,166,122,122,6,15,8,10,0.8,0.9
2022-06-14T16:00:00,1021A,117.307,39.0877,天津市,跃进路,臭氧1小时,63,23,48,20,25,170,170,124,124,11,17,8,8,0.5,0.7
2022-06-14T16:00:00,1023A,117.707,39.0343,天津市,第四大街,,38,10,41,6,23,126,119,104,104,13,18,6,6,0.5,0.8
2022-06-14T16:00:00,1024A,117.457,38.8394,天津市,永明路,,47,20,40,12,24,150,149,120,120,5,13,12,9,0.5,0.6
2022-06-14T16:00:00,1026A,117.764,39.1587,天津市,汉北路,,46,21,35,14,22,145,145,117,117,7,12,6,6,0.8,0.8
2022-06-14T16:00:00,1027A,117.157,38.9194,天津市,团泊洼(对照点),臭氧1小时,84,30,49,22,27,187,187,132,132,12,19,7,9,1.0,1.1
2022-06-14T16:00:00,1029A,114.4422,38.0444,石家庄市,职工医院,臭氧1小时,72,53,55,21,26,182,177,154,154,7,25,5,3,0.4,0.5
2022-06-14T16:00:00,1030A,114.6063,38.0266,石家庄市,高新区,颗粒物(PM10),63,76,62,23,30,167,165,147,147,11,28,6,5,0.4,0.5
2022-06-14T16:00:00,1031A,114.4898,38.1328,石家庄市,西北水源,臭氧1小时,65,47,56,26,28,172,172,149,149,12,24,4,4,0.6,0.7
2022-06-14T16:00:00,1032A,114.4586,38.0058,石家庄市,西南高教,臭氧1小时,63,56,49,42,42,177,170,143,143,8,24,5,5,0.7,0.8
2022-06-14T16:00:00,1033A,114.5331,38.0178,石家庄市,世纪公园,颗粒物(PM10),56,61,64,34,35,169,160,148,148,10,21,6,5,0.4,0.5
2022-06-14T16:00:00,1034A,114.509,38.0457,石家庄市,人民会堂,,,55,51,32,28,178,174,155,155,,26,7,5,0.5,0.6
2022-06-14T16:00:00,1035A,114.3524,37.8911,石家庄市,封龙山(对照点),,43,43,37,25,22,314,136,161,161,13,7,4,13,0.5,0.7
2022-06-14T16:00:00,1037A,118.131,39.6363,唐山市,雷达站,,37,37,59,9,22,122,110,95,95,10,17,2,7,0.7,1
2022-06-14T16:00:00,1038A,118.1725,39.6334,唐山市,物资局,,36,36,50,17,25,123,109,94,94,6,16,4,10,0.5,1
2022-06-14T16:00:00,1040A,118.1705,39.6506,唐山市,十二中,,39,35,44,27,32,116,99,86,86,12,22,5,8,0.6,1
2022-06-14T16:00:00,1041A,118.1869,39.622,唐山市,小山,,33,33,50,16,30,121,103,91,91,9,18,2,10,0.6,1
2022-06-14T16:00:00,1042A,119.5134,39.8207,秦皇岛市,北戴河环保局,,22,0,32,4,9,128,70,93,85,4,6,6,6,0.2,0.3
2022-06-14T16:00:00,1043A,119.7493,40.0116,秦皇岛市,第一关,,14,13,25,0,10,107,42,91,81,24,13,10,12,0.1,0.1
2022-06-14T16:00:00,1044A,119.5897,39.9499,秦皇岛市,监测站,,19,19,30,7,11,112,47,87,75,21,22,6,6,0.1,0.2
2022-06-14T16:00:00,1046A,119.5251,39.9041,秦皇岛市,建设大厦,,17,17,28,8,10,99,53,83,80,10,14,4,5,0.3,0.3
2022-06-14T16:00:00,1048A,114.5302,36.6116,邯郸市,东污水处理厂,臭氧1小时,102,39,41,18,19,203,203,148,148,4,16,12,11,1.1,1
2022-06-14T16:00:00,1049A,114.4918,36.5713,邯郸市,矿院,臭氧1小时,102,45,40,25,23,203,203,148,148,8,20,12,14,0.8,1.1
2022-06-14T16:00:00,1050A,114.484,36.6133,邯郸市,丛台公园,臭氧1小时,102,37,41,20,20,203,203,147,147,10,18,10,11,0.8,1
2022-06-14T16:00:00,1051A,115.493,38.8632,保定市,游泳馆,臭氧1小时,64,41,46,21,27,171,171,137,137,10,15,8,9,0.4,0.4
2022-06-14T16:00:00,1052A,115.5213,38.8959,保定市,华电二区,臭氧1小时,60,38,59,15,27,168,168,134,134,7,15,6,8,0.5,0.6
2022-06-14T16:00:00,1053A,115.4713,38.9108,保定市,接待中心,臭氧1小时,72,44,59,25,38,177,177,139,139,12,21,8,7,0.7,0.7
2022-06-14T16:00:00,1054A,115.4612,38.8416,保定市,地表水厂,臭氧1小时,54,52,58,19,33,163,163,133,133,13,13,11,11,0.6,0.6
2022-06-14T16:00:00,1055A,115.4323,38.8697,保定市,胶片厂,臭氧1小时,70,51,50,23,30,176,176,144,144,8,14,5,5,0.6,0.7
2022-06-14T16:00:00,1056A,115.5086,38.8639,保定市,监测站,臭氧1小时,65,51,63,27,32,173,172,138,138,10,17,7,8,0.5,0.5
2022-06-14T16:00:00,1057A,114.8883,40.8336,张家口市,人民公园,,38,12,14,2,2,121,120,110,110,6,8,4,4,0.3,0.3
2022-06-14T16:00:00,1059A,114.8687,40.8042,张家口市,五金库,,38,7,15,5,5,120,120,108,108,9,11,5,5,0.2,0.2
2022-06-14T16:00:00,1060A,114.8902,40.762,张家口市,世纪豪园,,38,6,13,6,5,120,120,108,108,8,13,5,5,0.2,0.2
2022-06-14T16:00:00,1061A,114.8916,40.8661,张家口市,北泵房(对照点),,39,6,11,3,5,123,123,111,111,4,6,6,6,0.6,0.5
2022-06-14T16:00:00,1062A,117.9531,40.9081,承德市,铁路,,40,24,28,28,17,113,99,91,91,11,22,2,2,0.3,0.3
2022-06-14T16:00:00,1063A,117.9392,40.9763,承德市,中国银行,,30,19,19,17,16,118,96,98,98,7,14,3,3,0.3,0.4
2022-06-14T16:00:00,1064A,117.9503,40.928,承德市,开发区,,33,24,25,12,18,123,105,102,102,10,21,5,4,0.4,0.5
2022-06-14T16:00:00,1065A,117.8051,40.9655,承德市,文化中心,,33,31,23,23,19,119,99,94,94,12,18,17,5,0.5,0.4
2022-06-14T16:00:00,1066A,117.9268,41.0026,承德市,离宫(对照点),,36,31,22,25,12,118,95,95,95,5,9,7,6,0.3,0.3
2022-06-14T16:00:00,1067A,116.6708,39.5111,廊坊市,药材公司,,46,42,45,27,29,147,147,127,127,12,23,3,7,0.5,0.8
2022-06-14T16:00:00,1068A,116.7214,39.5589,廊坊市,开发区,,48,29,43,25,28,151,151,127,127,12,24,6,7,0.5,0.7
2022-06-14T16:00:00,1070A,116.7244,39.5269,廊坊市,北华航天学院,,46,39,56,21,31,145,145,120,120,16,28,8,9,0.5,0.7
2022-06-14T16:00:00,1071A,116.8842,38.2991,沧州市,沧县城建局,臭氧1小时,57,30,42,20,24,165,165,123,123,18,23,5,7,0.7,0.6
2022-06-14T16:00:00,1072A,116.8584,38.3254,沧州市,电视转播站,臭氧1小时,73,42,46,22,26,178,178,134,134,13,17,5,10,0.4,0.4
2022-06-14T16:00:00,1073A,116.8709,38.3228,沧州市,市环保局,臭氧1小时,67,60,68,14,24,173,173,131,131,16,20,6,8,0.7,0.7
2022-06-14T16:00:00,1074A,115.6838,37.7541,衡水市,电机北厂,臭氧1小时,55,46,46,15,24,212,164,134,134,9,15,11,11,0.4,0.5
2022-06-14T16:00:00,1075A,115.6303,37.7316,衡水市,市监测站,臭氧1小时,54,36,67,18,20,208,163,130,130,6,12,16,15,0.3,0.5
2022-06-14T16:00:00,1077A,114.4704,37.0886,邢台市,达活泉,臭氧1小时,88,55,39,27,12,190,190,146,146,5,12,6,15,0.5,0.3
2022-06-14T16:00:00,1078A,114.5062,37.0349,邢台市,邢师高专,臭氧1小时,97,45,40,24,16,197,197,156,156,7,19,6,7,0.5,0.6
2022-06-14T16:00:00,1079A,114.5237,37.0851,邢台市,路桥公司,臭氧1小时,85,50,45,29,16,188,188,146,146,10,20,1,3,0.6,0.6
2022-06-14T16:00:00,1081A,112.5139,37.8873,太原市,尖草坪,,46,26,37,11,13,146,146,104,104,13,32,7,6,0.8,0.4
2022-06-14T16:00:00,1083A,112.434,38.0108,太原市,上兰(对照点),,45,19,19,4,5,143,143,107,107,7,10,6,7,0.2,0.6
2022-06-14T16:00:00,1084A,112.469,37.7124,太原市,晋源,,42,17,36,12,13,134,134,103,103,11,39,5,8,0.2,0.4
2022-06-14T16:00:00,1085A,112.5583,37.7394,太原市,小店,,44,10,35,2,14,148,140,109,109,13,49,3,7,0.2,0.4
2022-06-14T16:00:00,1086A,112.5369,37.8692,太原市,桃园,,46,20,40,6,11,146,146,104,104,10,34,6,6,0.4,0.4
2022-06-14T16:00:00,1087A,112.57,37.8195,太原市,坞城,,45,27,43,4,13,144,144,106,106,8,37,5,8,0.3,0.6
2022-06-14T16:00:00,1088A,112.549,37.9854,太原市,南寨,,46,35,40,13,10,147,147,104,104,14,37,10,8,0.3,0.5
2022-06-14T16:00:00,1090A,111.6507,40.7517,呼和浩特市,呼市一监,,38,7,27,4,10,120,120,109,109,4,20,4,4,0.2,0.3
2022-06-14T16:00:00,1091A,111.6572,40.8033,呼和浩特市,小召,,37,7,23,3,11,117,117,104,104,13,23,6,6,0.3,0.4
2022-06-14T16:00:00,1094A,111.7516,40.8369,呼和浩特市,如意水处理厂,,38,8,26,3,9,121,121,114,114,5,21,8,8,0.2,0.3
2022-06-14T16:00:00,1095A,111.7276,40.8062,呼和浩特市,二十九中,,37,13,22,0,4,118,118,108,108,4,20,7,7,0.3,0.4
2022-06-14T16:00:00,1096A,111.5512,40.7866,呼和浩特市,工大金川校区,,38,7,35,2,12,120,120,107,107,6,26,5,8,0.3,0.4
2022-06-14T16:00:00,1097A,111.717,40.7612,呼和浩特市,化肥厂生活区,,38,11,30,5,12,120,119,108,108,5,19,8,9,0.3,0.4
2022-06-14T16:00:00,1098A,123.6836,41.9339,沈阳市,森林路(对照点),,26,13,21,6,13,83,83,73,73,6,11,6,7,0.2,0.5
2022-06-14T16:00:00,1099A,123.505,41.7406,沈阳市,浑南东路,,24,13,20,9,14,75,75,64,64,12,22,14,9,0.7,0.6
2022-06-14T16:00:00,1100A,123.4231,41.6989,沈阳市,新秀街,,22,20,19,8,11,90,69,66,66,18,29,7,6,0.7,0.7
2022-06-14T16:00:00,1102A,123.5903,41.8411,沈阳市,东陵路,,25,13,28,9,15,78,78,64,64,10,18,7,8,0.5,0.8
2022-06-14T16:00:00,1103A,123.4264,41.8467,沈阳市,陵东街,,18,15,21,7,12,80,57,63,60,16,28,6,6,0.8,0.8
2022-06-14T16:00:00,1104A,123.4114,41.7653,沈阳市,文化路,,24,15,22,5,14,93,75,80,70,11,16,7,6,0.5,0.5
2022-06-14T16:00:00,1105A,123.4678,41.7867,沈阳市,小河沿,,22,22,30,5,15,68,57,55,55,21,24,8,5,0.6,0.5
2022-06-14T16:00:00,1106A,123.4017,41.7972,沈阳市,太原街,,46,46,34,6,14,96,75,75,72,21,26,7,6,0.5,0.5
2022-06-14T16:00:00,1108A,123.3783,41.9228,沈阳市,京沈街,,24,22,25,6,15,99,76,72,70,12,21,11,11,0.8,0.8
2022-06-14T16:00:00,1109A,121.612,38.9741,大连市,甘井子,,19,13,20,9,12,98,60,90,67,21,16,7,7,0.5,0.5
2022-06-14T16:00:00,1110A,121.565,38.9511,大连市,周水子,,18,18,21,7,13,90,55,90,58,10,10,5,6,0.8,0.8
2022-06-14T16:00:00,1111A,121.5637,38.8845,大连市,星海三站,,25,7,25,9,14,113,78,110,83,11,10,4,5,0.4,0.4
2022-06-14T16:00:00,1112A,121.6302,38.9117,大连市,青泥洼桥,,20,13,18,6,11,96,64,96,68,13,12,6,6,0.4,0.4
2022-06-14T16:00:00,1113A,121.6251,38.8638,大连市,傅家庄,,25,18,21,7,10,101,79,96,75,4,6,5,6,0.6,0.6
2022-06-14T16:00:00,1115A,121.2529,38.8061,大连市,旅顺,,25,12,17,6,10,102,79,93,84,8,9,6,5,0.7,0.7
2022-06-14T16:00:00,1116A,121.7485,39.1311,大连市,金州,,22,6,16,10,8,105,70,101,69,8,7,5,3,0.4,0.4
2022-06-14T16:00:00,1117A,121.7811,39.0496,大连市,开发区,,19,14,22,7,11,102,59,98,58,21,15,4,4,0.6,0.6
2022-06-14T16:00:00,1118A,121.9762,39.0631,大连市,双D港,,22,16,19,7,7,118,70,102,71,7,5,6,6,0.5,0.5
2022-06-14T16:00:00,1119A,125.3325,43.9166,长春市,食品厂,,35,18,26,9,9,110,110,90,90,9,20,5,5,0.6,0.6
2022-06-14T16:00:00,1120A,125.2863,43.9027,长春市,客车厂,,33,31,19,6,8,109,105,92,91,12,17,4,4,0.4,0.4
2022-06-14T16:00:00,1121A,125.2841,43.8463,长春市,邮电学院,,32,22,23,9,10,110,102,90,90,6,13,4,4,0.6,0.7
2022-06-14T16:00:00,1122A,125.3716,43.8772,长春市,劳动公园,,33,20,19,7,8,112,105,89,89,14,16,2,2,0.3,0.3
2022-06-14T16:00:00,1123A,125.3297,43.8805,长春市,园林处,,33,16,20,9,10,108,103,89,89,12,17,4,4,0.3,0.5
2022-06-14T16:00:00,1124A,125.4605,43.79,长春市,净月潭,,32,17,17,8,7,102,101,79,79,5,4,3,3,0.4,0.5
2022-06-14T16:00:00,1125A,125.7194,43.515,长春市,甩湾子(对照点),,31,9,16,4,8,104,97,82,82,4,14,6,6,0.2,0.3
2022-06-14T16:00:00,1126A,125.3863,43.8447,长春市,经开区环卫处,,33,13,17,7,9,108,104,87,87,6,12,5,4,0.4,0.3
2022-06-14T16:00:00,1127A,125.245,43.7783,长春市,高新区管委会,,33,23,18,0,5,113,104,89,89,7,10,5,5,0.3,0.4
2022-06-14T16:00:00,1128A,125.1761,43.8325,长春市,岱山公园,,30,20,20,9,10,96,94,80,78,9,16,5,5,0.3,0.3
2022-06-14T16:00:00,1129A,126.5422,45.755,哈尔滨市,岭北(对照点),,37,18,15,12,10,116,116,92,92,14,15,15,15,0.6,0.5
2022-06-14T16:00:00,1130A,126.561,45.8167,哈尔滨市,松北商大,,40,22,18,14,8,130,126,102,102,5,10,5,4,0.7,0.7
2022-06-14T16:00:00,1131A,126.979,45.5419,哈尔滨市,阿城会宁,,,18,19,6,8,123,123,98,98,8,12,9,10,,0.6
2022-06-14T16:00:00,1132A,126.599,45.7222,哈尔滨市,南岗学府路,,,,15,,7,126,124,101,101,8,15,9,15,0.6,0.6
2022-06-14T16:00:00,1133A,126.689,45.7733,哈尔滨市,太平宏伟公园,,42,42,23,8,9,121,106,93,93,24,20,15,16,0.5,0.5
2022-06-14T16:00:00,1134A,126.635,45.7667,哈尔滨市,道外承德广场,,40,40,20,6,8,119,119,94,94,21,21,13,13,0.5,0.6
2022-06-14T16:00:00,1135A,126.685,45.7319,哈尔滨市,香坊红旗大街,,37,33,26,11,11,121,117,94,94,17,22,11,11,0.5,0.5
2022-06-14T16:00:00,1136A,126.6411,45.7258,哈尔滨市,动力和平路,颗粒物(PM10),51,51,26,21,11,119,114,90,90,18,18,10,9,0.5,0.5
2022-06-14T16:00:00,1137A,126.593,45.7478,哈尔滨市,道里建国路,颗粒物(PM10),61,71,48,15,13,109,108,85,85,19,20,13,14,1.3,1.3
2022-06-14T16:00:00,1138A,126.615,45.61,哈尔滨市,平房东轻厂,,37,24,16,10,7,119,118,91,91,8,9,3,36,0.6,0.6
2022-06-14T16:00:00,1139A,126.595,45.9855,哈尔滨市,呼兰师专,,39,39,26,14,13,120,111,93,93,12,16,13,13,0.5,0.5
2022-06-14T16:00:00,1140A,126.6206,45.6842,哈尔滨市,省农科院,,40,24,17,10,8,127,127,102,102,9,14,8,12,0.5,0.5
2022-06-14T16:00:00,1141A,121.4,31.238,上海市,普陀,臭氧1小时,88,56,35,45,28,194,190,155,155,15,26,3,2,0.8,0.7
2022-06-14T16:00:00,1142A,121.478,31.2036,上海市,十五厂,臭氧1小时,93,53,32,39,27,197,194,160,160,16,28,5,4,0.5,0.4
2022-06-14T16:00:00,1143A,121.467,31.3008,上海市,虹口,臭氧1小时,78,48,28,37,23,185,182,148,148,19,31,2,2,0.4,0.3
2022-06-14T16:00:00,1144A,121.412,31.1654,上海市,徐汇上师大,臭氧1小时,87,57,34,39,27,194,189,155,155,13,24,3,3,1.0,0.9
2022-06-14T16:00:00,1145A,121.536,31.2659,上海市,杨浦四漂,,,56,26,42,25,198,,151,151,26,24,4,4,0.4,0.5
2022-06-14T16:00:00,1147A,121.425,31.2261,上海市,静安监测站,臭氧1小时,84,54,35,39,26,188,187,151,151,16,26,4,3,0.3,0.3
2022-06-14T16:00:00,1148A,121.703,31.1907,上海市,浦东川沙,臭氧1小时,110,84,35,37,24,220,220,145,145,19,22,5,4,0.5,0.4
2022-06-14T16:00:00,1149A,121.533,31.2284,上海市,浦东新区监测站,臭氧1小时,94,55,36,42,26,195,195,153,153,15,25,6,6,0.7,0.6
2022-06-14T16:00:00,1150A,121.577,31.2071,上海市,浦东张江,臭氧1小时,99,59,27,41,25,199,199,144,144,25,29,4,3,0.8,0.7
2022-06-14T16:00:00,1151A,118.8086,32.1065,南京市,迈皋桥,,50,12,27,2,9,211,159,143,143,7,18,5,4,0.3,0.3
2022-06-14T16:00:00,1152A,118.7538,32.0551,南京市,草场门,臭氧1小时,62,17,27,7,11,205,169,152,152,10,18,1,2,0.2,0.3
2022-06-14T16:00:00,1153A,118.7794,32.0745,南京市,山西路,,50,36,34,12,18,219,157,142,142,4,10,3,3,0.2,0.4
2022-06-14T16:00:00,1154A,118.7752,32.0023,南京市,中华门,臭氧1小时,54,19,29,0,7,200,163,152,152,3,8,4,4,0.4,0.6
2022-06-14T16:00:00,1155A,118.8109,32.0309,南京市,瑞金路,臭氧1小时,55,17,29,5,13,212,164,147,147,9,17,3,4,0.4,0.4
2022-06-14T16:00:00,1156A,118.7997,32.0754,南京市,玄武湖,,48,22,25,12,14,215,152,140,140,8,13,5,4,0.7,0.8
2022-06-14T16:00:00,1157A,118.6414,32.0931,南京市,浦口,,50,9,25,4,9,160,160,141,141,7,13,2,2,0.2,0.3
2022-06-14T16:00:00,1158A,118.7356,31.9996,南京市,奥体中心,,49,14,28,7,11,178,156,144,144,13,19,2,3,0.0,0.2
2022-06-14T16:00:00,1159A,118.9125,32.1028,南京市,仙林大学城,臭氧1小时,68,19,27,7,12,228,174,157,157,2,8,6,6,0.4,0.5
2022-06-14T16:00:00,1160A,120.561,31.2472,苏州市,上方山(对照点),臭氧1小时,68,52,40,16,17,174,174,138,138,13,22,6,5,0.7,0.6
2022-06-14T16:00:00,1162A,120.591,31.3019,苏州市,彩香,臭氧1小时,68,33,25,10,22,189,174,148,148,9,21,6,5,0.5,0.6
2022-06-14T16:00:00,1163A,120.596,31.3264,苏州市,轧钢厂,臭氧1小时,60,14,32,10,14,176,168,140,140,5,19,5,6,0.6,0.6
2022-06-14T16:00:00,1164A,120.613,31.2703,苏州市,吴中区,臭氧1小时,72,21,28,12,20,184,177,146,146,6,19,5,5,0.5,0.6
2022-06-14T16:00:00,1165A,120.543,31.2994,苏州市,苏州新区,臭氧1小时,68,18,24,10,34,188,174,149,149,7,16,6,6,0.5,0.6
2022-06-14T16:00:00,1166A,120.669,31.3097,苏州市,苏州工业园区,臭氧1小时,57,34,25,25,18,165,165,135,135,12,21,6,5,0.6,0.6
2022-06-14T16:00:00,1167A,120.641,31.3708,苏州市,相城区,臭氧1小时,62,26,24,15,30,176,169,143,143,8,24,6,7,0.5,0.6
2022-06-14T16:00:00,1168A,120.9098,31.9663,南通市,狼山街道,臭氧1小时,94,17,26,14,23,269,195,191,191,16,17,12,12,0.5,0.7
2022-06-14T16:00:00,1169A,120.86,32.0005,南通市,虹桥,臭氧1小时,99,37,28,6,31,224,199,175,175,15,21,9,10,0.3,0.6
2022-06-14T16:00:00,1170A,120.87,32.02,南通市,城中,臭氧1小时,88,40,30,9,31,230,190,169,169,16,25,14,11,0.5,0.8
2022-06-14T16:00:00,1171A,120.94,31.93,南通市,星湖花园,臭氧1小时,87,56,25,19,20,260,189,199,199,44,26,11,8,0.6,0.8
2022-06-14T16:00:00,1172A,120.81,32.0417,南通市,紫琅学院,臭氧1小时,102,19,26,12,16,212,204,163,163,16,25,10,10,0.4,0.7
2022-06-14T16:00:00,1173A,119.176,34.5885,连云港市,市环境监测站,臭氧1小时,85,36,40,24,15,188,188,134,134,12,15,8,7,0.5,0.5
2022-06-14T16:00:00,1177A,117.179,34.2761,徐州市,黄河新村,臭氧1小时,78,29,53,11,14,186,182,149,149,11,13,5,6,0.3,0.4
2022-06-14T16:00:00,1178A,117.1918,34.2384,徐州市,淮塔,臭氧1小时,75,4,43,9,16,190,180,153,153,16,14,10,10,0.4,0.4
2022-06-14T16:00:00,1180A,117.256,34.2153,徐州市,新城区,臭氧1小时,69,32,43,15,20,176,175,148,148,10,15,6,7,0.5,0.6
2022-06-14T16:00:00,1181A,117.244,34.2911,徐州市,桃园路,,,41,50,,11,199,199,157,157,13,15,11,11,0.5,0.6
2022-06-14T16:00:00,1182A,117.2933,34.2778,徐州市,农科院,臭氧1小时,90,22,44,7,12,192,192,154,154,15,16,6,6,0.5,0.5
2022-06-14T16:00:00,1186A,119.389,32.3761,扬州市,邗江监测站,,50,22,36,9,15,168,158,150,150,7,12,7,8,0.4,0.6
2022-06-14T16:00:00,1188A,120.269,31.4867,无锡市,雪浪,臭氧1小时,103,46,37,24,23,206,206,166,166,4,18,10,9,0.5,0.6
2022-06-14T16:00:00,1189A,120.275,31.6219,无锡市,黄巷,臭氧1小时,90,40,39,22,25,197,192,167,167,14,32,7,7,0.6,0.8
2022-06-14T16:00:00,1190A,120.294,31.56,无锡市,曹张,臭氧1小时,98,27,38,19,18,198,198,166,166,12,33,7,6,0.8,0.9
2022-06-14T16:00:00,1191A,120.242,31.5031,无锡市,漆塘,臭氧1小时,106,51,34,31,18,212,212,170,170,6,18,5,5,0.6,0.7
2022-06-14T16:00:00,1192A,120.3489,31.5863,无锡市,东亭,臭氧1小时,99,41,35,19,23,208,199,173,173,9,26,8,7,0.8,0.9
2022-06-14T16:00:00,1193A,120.354,31.5475,无锡市,旺庄,臭氧1小时,106,39,33,17,21,214,212,177,177,5,25,9,8,0.4,0.5
2022-06-14T16:00:00,1194A,120.245,31.5631,无锡市,荣巷,臭氧1小时,100,44,37,29,25,200,200,168,168,5,18,11,10,0.3,0.4
2022-06-14T16:00:00,1195A,120.299,31.6817,无锡市,堰桥,臭氧1小时,67,39,39,17,23,183,173,150,150,17,29,8,7,0.8,1
2022-06-14T16:00:00,1196A,119.9633,31.762,常州市,市监测站,臭氧1小时,101,12,38,9,20,201,201,166,166,10,31,7,7,0.4,0.6
2022-06-14T16:00:00,1200A,119.9468,31.7069,常州市,武进监测站,臭氧1小时,106,12,48,7,30,211,211,180,180,3,18,6,6,0.6,0.8
2022-06-14T16:00:00,1201A,119.9255,31.9087,常州市,安家,臭氧1小时,105,12,41,10,28,209,209,179,179,8,25,5,5,0.7,0.9
2022-06-14T16:00:00,1203A,119.6707,32.1875,镇江市,新区办事处,臭氧1小时,85,17,27,9,16,205,188,171,171,16,28,8,9,0.5,0.6
2022-06-14T16:00:00,1204A,119.4974,32.1968,镇江市,职教中心,臭氧1小时,59,15,28,7,19,195,167,166,166,13,22,2,5,0.5,0.6
2022-06-14T16:00:00,1205A,119.4303,32.1328,镇江市,丹徒区监测站,臭氧1小时,93,16,31,5,25,220,194,179,179,8,17,4,6,0.2,0.4
2022-06-14T16:00:00,1206A,119.905,32.4878,泰州市,公园路,,43,14,20,2,11,138,136,129,129,18,21,9,6,0.4,0.6
2022-06-14T16:00:00,1207A,119.9189,32.4625,泰州市,莲花,,47,17,22,9,16,155,150,140,140,10,15,6,7,0.5,0.6
2022-06-14T16:00:00,1209A,119.888,32.4639,泰州市,留学生创业园,臭氧1小时,53,8,18,5,12,172,162,156,156,5,10,7,8,0.2,0.5
2022-06-14T16:00:00,1210A,119.036,33.5981,淮安市,钵池山,臭氧1小时,105,27,38,20,18,210,210,168,168,12,12,7,7,0.5,0.6
2022-06-14T16:00:00,1211A,119.007,33.575,淮安市,北京南路,臭氧1小时,100,41,34,62,27,200,200,163,163,16,15,5,6,0.5,0.6
2022-06-14T16:00:00,1212A,118.989,33.6067,淮安市,市监测站,臭氧1小时,103,41,42,20,18,206,206,163,163,16,17,6,7,0.4,0.5
2022-06-14T16:00:00,1213A,119.135,33.5039,淮安市,楚州区监测站,臭氧1小时,85,29,35,17,19,188,188,152,152,12,14,9,9,0.6,0.6
2022-06-14T16:00:00,1214A,119.0186,33.6297,淮安市,淮阴区监测站,臭氧1小时,102,35,35,24,19,204,204,159,159,12,14,8,9,0.6,0.7
2022-06-14T16:00:00,1215A,120.118,33.4022,盐城市,盐城电厂,臭氧1小时,103,34,23,22,10,205,205,172,172,9,11,5,5,0.4,0.3
2022-06-14T16:00:00,1216A,120.156,33.3942,盐城市,市监测站,臭氧1小时,101,24,17,10,6,201,201,167,167,8,9,15,15,0.2,0.2
2022-06-14T16:00:00,1218A,120.2144,33.38,盐城市,开发区管委会,臭氧1小时,83,33,22,29,9,186,186,151,151,8,10,2,6,0.3,0.3
2022-06-14T16:00:00,1220A,118.293,33.9528,宿迁市,宿迁学院,臭氧1小时,101,32,40,16,18,202,202,151,151,8,11,7,6,0.3,0.4
2022-06-14T16:00:00,1221A,118.2442,33.9592,宿迁市,宿迁中学,臭氧1小时,88,40,38,17,16,190,190,144,144,9,10,6,5,0.4,0.4
2022-06-14T16:00:00,1223A,120.2072,30.2111,杭州市,滨江,臭氧1小时,68,31,34,17,18,174,174,125,125,12,35,3,2,0.6,0.7
2022-06-14T16:00:00,1224A,120.0633,30.2747,杭州市,西溪,,48,48,40,21,16,158,136,118,118,8,19,6,6,0.5,0.6
2022-06-14T16:00:00,1226A,120.3461,30.3153,杭州市,下沙,臭氧1小时,109,39,41,24,23,217,217,153,153,16,41,5,5,0.6,0.7
2022-06-14T16:00:00,1227A,120.1269,30.2456,杭州市,卧龙桥,,49,32,27,16,15,165,156,112,112,11,17,5,5,0.6,0.6
2022-06-14T16:00:00,1228A,120.1903,30.2692,杭州市,浙江农大,臭氧1小时,78,25,30,18,20,182,182,128,128,9,30,4,4,0.5,0.7
2022-06-14T16:00:00,1230A,120.1197,30.3119,杭州市,和睦小学,臭氧1小时,70,37,38,23,22,176,176,131,131,13,34,3,3,0.7,0.8
2022-06-14T16:00:00,1231A,120.3019,30.4183,杭州市,临平镇,臭氧1小时,108,40,51,19,21,215,215,147,147,17,37,3,4,0.7,0.8
2022-06-14T16:00:00,1232A,120.2697,30.1819,杭州市,城厢镇,臭氧1小时,58,36,37,16,20,168,166,122,122,12,31,4,4,0.5,0.6
2022-06-14T16:00:00,1233A,120.0883,30.1808,杭州市,云栖,,,33,34,14,13,171,148,124,124,10,17,8,8,,0.7
2022-06-14T16:00:00,1234A,121.8358,29.911,宁波市,区环保大楼,,50,38,27,26,23,174,158,107,107,19,47,9,8,0.6,0.7
2022-06-14T16:00:00,1235A,121.56,29.82,宁波市,万里学院,,,36,26,31,23,229,184,140,140,14,34,,13,0.6,0.7
2022-06-14T16:00:00,1236A,121.713,29.9572,宁波市,龙赛医院,臭氧1小时,78,42,22,25,17,200,182,133,133,39,40,12,5,0.7,0.7
2022-06-14T16:00:00,1239A,121.633,29.7733,宁波市,钱湖水厂,,43,20,24,17,19,191,137,124,124,9,20,8,9,0.7,0.7
2022-06-14T16:00:00,1240A,121.5856,29.8635,宁波市,太古小学,臭氧1小时,83,33,24,40,20,222,186,134,134,19,34,10,10,0.6,0.7
2022-06-14T16:00:00,1241A,121.524,29.8674,宁波市,市环境监测中心,臭氧1小时,112,47,27,27,15,224,224,130,130,26,30,10,10,0.5,0.5
2022-06-14T16:00:00,1242A,120.634,28.0089,温州市,瓯海,,49,39,19,34,16,110,95,71,71,28,25,6,5,0.6,0.6
2022-06-14T16:00:00,1243A,120.6748,27.9939,温州市,南浦,,41,41,20,20,10,118,103,84,84,22,21,6,5,0.6,0.5
2022-06-14T16:00:00,1244A,120.76,27.9747,温州市,龙湾,,38,38,26,19,11,90,75,57,57,26,25,5,4,0.8,0.8
2022-06-14T16:00:00,1245A,120.6709,28.0167,温州市,市站,,41,41,24,21,14,104,95,68,68,28,25,5,5,0.5,0.5
2022-06-14T16:00:00,1247A,120.6053,29.9928,绍兴市,城东开发委,臭氧1小时,65,38,29,20,19,178,172,135,135,7,17,6,6,0.5,0.6
2022-06-14T16:00:00,1250A,120.0751,30.8669,湖州市,城西水厂,颗粒物(PM10),51,52,40,17,19,148,144,114,114,19,38,5,5,0.5,0.5
2022-06-14T16:00:00,1252A,120.7436,30.778,嘉兴市,清河小学,臭氧1小时,95,27,26,16,12,196,196,145,145,14,22,7,6,0.6,0.7
2022-06-14T16:00:00,1253A,120.726,30.7478,嘉兴市,嘉兴学院,臭氧1小时,93,29,26,16,18,194,194,151,151,16,28,5,4,0.5,0.4
2022-06-14T16:00:00,1255A,121.273,28.6459,台州市,黄岩环保大楼,,43,41,22,25,12,137,137,84,84,20,20,5,5,0.5,0.5
2022-06-14T16:00:00,1256A,121.419,28.6542,台州市,台州环保大楼,,35,27,26,24,17,135,108,83,83,13,23,4,4,0.5,0.6
2022-06-14T16:00:00,1257A,121.377,28.5773,台州市,路桥田洋王,,36,22,17,25,18,134,105,85,85,15,23,5,5,0.4,0.5
2022-06-14T16:00:00,1258A,122.122,30.0203,舟山市,定海檀枫,,49,35,20,24,14,158,154,98,98,7,12,2,2,0.5,0.4
2022-06-14T16:00:00,1259A,122.3094,29.9558,舟山市,普陀东港,,37,23,14,24,12,121,118,77,77,10,16,3,3,0.5,0.4
2022-06-14T16:00:00,1260A,122.19,29.9944,舟山市,临城新区,,45,37,22,22,10,144,144,87,87,15,22,10,3,0.5,0.4
2022-06-14T16:00:00,1262A,119.647,29.077,金华市,十五中,,45,35,33,28,27,152,143,110,110,13,24,5,6,0.5,0.6
2022-06-14T16:00:00,1263A,119.686,29.1029,金华市,监测站,,48,33,30,27,22,164,152,116,116,9,22,3,4,0.4,0.5
2022-06-14T16:00:00,1264A,118.8692,28.9398,衢州市,环保大楼,,42,30,33,16,18,141,134,109,109,4,16,4,8,0.4,0.7
2022-06-14T16:00:00,1265A,118.8709,28.9666,衢州市,实验学校,,41,33,32,24,22,145,130,101,101,8,16,5,6,0.4,0.6
2022-06-14T16:00:00,1266A,118.8621,28.9808,衢州市,衢州学院,,40,26,35,19,19,142,128,101,101,6,15,5,7,0.6,0.6
2022-06-14T16:00:00,1267A,119.914,28.4514,丽水市,监测站大楼,,39,31,17,24,20,123,122,86,86,8,11,5,5,0.4,0.4
2022-06-14T16:00:00,1268A,119.93,28.4586,丽水市,莲都小学,,41,22,20,28,11,131,131,89,89,6,12,6,5,0.4,0.4
2022-06-14T16:00:00,1269A,119.879,28.4231,丽水市,余庄前,,,23,17,12,8,128,127,88,88,7,11,4,5,,0.3
2022-06-14T16:00:00,1270A,117.1959,31.7848,合肥市,明珠广场,,48,34,40,12,11,154,152,138,138,10,17,5,5,0.3,0.3
2022-06-14T16:00:00,1271A,117.3072,31.8764,合肥市,三里街,,43,34,36,9,11,156,136,137,128,9,15,11,11,0.3,0.4
2022-06-14T16:00:00,1272A,117.2588,31.8707,合肥市,琥珀山庄,,46,31,31,7,9,163,147,139,139,9,14,10,10,0.5,0.5
2022-06-14T16:00:00,1273A,117.1604,31.9052,合肥市,董铺水库(对照点),,45,27,38,19,17,145,142,132,126,7,11,10,10,0.4,0.4
2022-06-14T16:00:00,1274A,117.25,31.8571,合肥市,长江中路,,50,27,35,17,15,168,159,149,145,12,19,7,7,0.3,0.4
2022-06-14T16:00:00,1275A,117.266,31.9436,合肥市,庐阳区,,47,44,41,12,13,165,150,149,149,7,13,9,10,0.3,0.4
2022-06-14T16:00:00,1276A,117.336,31.8586,合肥市,瑶海区,,48,31,35,15,14,169,152,145,144,5,13,7,7,0.4,0.5
2022-06-14T16:00:00,1277A,117.3027,31.7964,合肥市,包河区,,48,34,35,14,11,164,152,144,144,12,16,5,5,0.4,0.4
2022-06-14T16:00:00,1278A,117.2776,31.7385,合肥市,滨湖新区,臭氧1小时,55,29,32,7,10,166,164,147,147,5,8,10,10,0.4,0.4
2022-06-14T16:00:00,1279A,117.1318,31.8403,合肥市,高新区,,47,39,43,17,14,156,149,137,134,7,13,8,8,0.6,0.6
2022-06-14T16:00:00,1282A,119.2681,26.0504,福州市,师大,,14,14,17,6,9,61,44,44,44,27,24,2,2,0.4,0.5
2022-06-14T16:00:00,1283A,119.2984,26.1028,福州市,五四北路,,15,11,18,3,9,55,47,40,40,11,25,2,3,0.4,0.7
2022-06-14T16:00:00,1284A,119.2648,26.0768,福州市,杨桥西路,,16,9,16,6,9,60,49,42,42,14,25,2,3,0.4,0.5
2022-06-14T16:00:00,1285A,119.317,26.0746,福州市,紫阳,,14,7,31,8,14,50,44,33,33,23,30,3,3,0.5,0.9
2022-06-14T16:00:00,1286A,118.1608,24.8169,厦门市,溪东(对照点),,20,8,22,14,29,44,38,35,35,1,6,2,2,0.5,0.5
2022-06-14T16:00:00,1287A,118.1514,24.4767,厦门市,洪文,,32,32,18,17,11,44,35,30,30,23,17,4,3,0.6,0.5
2022-06-14T16:00:00,1288A,118.0661,24.4444,厦门市,鼓浪屿,,46,39,22,32,12,44,16,23,22,59,28,10,5,0.4,0.1
2022-06-14T16:00:00,1290A,115.8931,28.6843,南昌市,省外办,,48,48,42,27,24,141,141,72,72,8,19,8,10,0.7,0.7
2022-06-14T16:00:00,1291A,115.8886,28.7003,南昌市,省林业公司,颗粒物(PM10),53,55,42,22,20,154,154,83,83,2,14,9,13,0.7,0.7
2022-06-14T16:00:00,1292A,115.8126,28.7442,南昌市,林科所,,49,48,38,34,23,146,146,87,87,4,14,10,9,0.7,0.7
2022-06-14T16:00:00,1294A,115.8518,28.687,南昌市,建工学校,颗粒物(PM10),56,62,47,19,26,140,140,72,72,17,25,12,13,0.6,0.6
2022-06-14T16:00:00,1295A,115.8921,28.6424,南昌市,象湖,,44,41,36,26,21,139,139,72,72,6,19,8,13,0.7,0.7
2022-06-14T16:00:00,1296A,115.7423,28.7996,南昌市,武术学校(对照点),,45,43,28,23,13,143,143,108,108,3,4,8,4,0.6,0.6
2022-06-14T16:00:00,1298A,115.9314,28.6842,南昌市,省站,颗粒物(PM10),56,62,54,32,25,153,153,82,82,9,25,13,16,0.6,0.7
2022-06-14T16:00:00,1299A,116.9862,36.6114,济南市,科干所,,43,36,22,22,9,159,137,132,132,15,15,8,8,0.5,0.4
2022-06-14T16:00:00,1300A,116.9376,36.665,济南市,农科所,,37,37,28,17,6,144,104,111,111,17,17,7,7,0.2,0.2
2022-06-14T16:00:00,1301A,117.1265,36.6734,济南市,开发区,臭氧1小时,63,44,28,23,12,176,170,136,136,14,14,9,9,0.4,0.4
2022-06-14T16:00:00,1303A,117.0624,36.6868,济南市,省种子仓库,臭氧1小时,55,44,29,29,14,169,164,130,130,12,17,9,9,0.6,0.5
2022-06-14T16:00:00,1304A,116.9489,36.6447,济南市,机床二厂,,43,39,32,17,8,152,137,120,120,14,15,5,5,0.4,0.3
2022-06-14T16:00:00,1305A,117.0495,36.663,济南市,市监测站,,48,34,31,25,10,162,152,128,128,8,14,7,8,0.5,0.5
2022-06-14T16:00:00,1306A,116.7675,36.5484,济南市,长清党校,,50,29,22,17,9,163,158,134,134,6,10,10,10,0.3,0.3
2022-06-14T16:00:00,1307A,120.6659,36.2403,青岛市,仰口(对照点),,31,29,21,12,14,112,98,102,102,2,3,4,5,0.3,0.3
2022-06-14T16:00:00,1310A,120.4134,36.0658,青岛市,市南区东部子站,,40,12,16,7,5,128,128,101,101,8,7,6,6,0.3,0.2
2022-06-14T16:00:00,1311A,120.3664,36.1032,青岛市,四方区子站,,45,22,14,9,8,143,143,116,116,16,12,6,5,0.9,0.6
2022-06-14T16:00:00,1312A,120.2994,36.054,青岛市,市南区西部子站,臭氧1小时,55,9,15,2,4,164,164,125,125,15,16,9,7,0.9,0.5
2022-06-14T16:00:00,1313A,120.4581,36.0858,青岛市,崂山区子站,,41,17,18,7,4,134,129,106,106,8,9,7,7,0.4,0.3
2022-06-14T16:00:00,1314A,120.1983,35.9608,青岛市,黄岛区子站,,45,29,12,20,9,165,144,127,127,35,21,15,6,1.4,0.4
2022-06-14T16:00:00,1315A,120.3999,36.3083,青岛市,城阳区子站,,34,22,18,10,9,114,107,100,100,12,10,5,4,0.4,0.4
2022-06-14T16:00:00,1316A,113.69031,34.76122,郑州市,烟厂,臭氧1小时,97,37,57,8,16,200,197,166,166,9,16,7,7,0.2,0.4
2022-06-14T16:00:00,1317A,113.65724,34.77134,郑州市,郑纺机,臭氧1小时,78,37,59,12,14,193,182,156,156,8,12,8,8,0.5,0.6
2022-06-14T16:00:00,1318A,113.67526,34.80246,郑州市,银行学校,臭氧1小时,106,37,48,8,14,212,212,175,175,16,18,7,7,0.5,0.6
2022-06-14T16:00:00,1319A,113.56746,34.81334,郑州市,供水公司,臭氧1小时,65,30,57,8,12,173,172,152,152,11,15,7,7,0.4,0.5
2022-06-14T16:00:00,1320A,113.7329,34.7178,郑州市,经开区管委,臭氧1小时,93,29,56,8,15,194,194,160,160,15,18,6,6,0.3,0.5
2022-06-14T16:00:00,1321A,113.73961,34.77172,郑州市,四十七中,臭氧1小时,100,33,52,9,12,200,200,167,167,16,18,8,8,0.4,0.5
2022-06-14T16:00:00,1322A,113.60532,34.74838,郑州市,市监测站,臭氧1小时,69,31,54,8,14,184,175,154,154,10,19,7,7,0.3,0.4
2022-06-14T16:00:00,1323A,113.64164,34.7525,郑州市,河医大,臭氧1小时,70,25,63,4,12,188,176,153,153,6,15,5,6,0.4,0.5
2022-06-14T16:00:00,1324A,113.51488,34.91089,郑州市,岗李水库(对照点),臭氧1小时,70,44,50,18,15,176,176,153,153,12,16,6,6,0.2,0.4
2022-06-14T16:00:00,1325A,114.3677,30.5584,武汉市,东湖梨园,,46,25,34,10,19,172,146,136,136,10,16,8,8,0.7,0.7
2022-06-14T16:00:00,1326A,114.2529,30.558,武汉市,汉阳月湖,,43,26,32,12,14,162,136,126,126,10,18,7,8,0.7,0.8
2022-06-14T16:00:00,1327A,114.282,30.6189,武汉市,汉口花桥,,40,29,36,15,19,150,128,116,116,13,17,8,9,0.6,0.6
2022-06-14T16:00:00,1328A,114.3025,30.5332,武汉市,武昌紫阳,,42,26,41,17,17,145,132,122,122,9,18,9,9,0.7,0.8
2022-06-14T16:00:00,1329A,114.3646,30.6217,武汉市,青山钢花,,47,28,36,24,25,174,149,136,136,12,18,7,8,0.6,0.7
2022-06-14T16:00:00,1330A,114.1566,30.4825,武汉市,沌口新区,,43,29,37,22,21,139,137,115,115,15,30,7,8,0.8,0.8
2022-06-14T16:00:00,1331A,114.3014,30.5944,武汉市,汉口江滩,,35,34,40,18,19,153,112,118,118,31,30,7,7,0.7,0.7
2022-06-14T16:00:00,1333A,114.135,30.6319,武汉市,吴家山,,45,24,40,17,18,148,142,116,116,6,13,7,8,0.8,0.8
2022-06-14T16:00:00,1335A,113.0833,28.2325,长沙市,经开区环保局,臭氧1小时,54,19,23,25,24,163,163,97,97,8,17,5,5,0.6,0.7
2022-06-14T16:00:00,1336A,112.8872,28.2189,长沙市,高开区环保局,臭氧1小时,59,31,24,34,26,167,167,96,96,9,17,12,10,0.8,0.6
2022-06-14T16:00:00,1337A,113.0792,28.2053,长沙市,马坡岭,臭氧1小时,58,20,28,17,19,166,166,106,106,5,17,4,4,0.6,0.9
2022-06-14T16:00:00,1338A,112.9394,28.19,长沙市,湖南师范大学,臭氧1小时,52,36,30,22,20,161,161,98,98,7,13,8,8,0.9,0.9
2022-06-14T16:00:00,1339A,113.0178,28.1322,长沙市,雨花区环保局,,44,23,23,20,22,140,138,92,92,6,14,5,7,0.4,0.6
2022-06-14T16:00:00,1340A,112.9792,28.2597,长沙市,伍家岭,,50,29,38,24,18,159,159,98,98,11,21,3,3,0.7,0.7
2022-06-14T16:00:00,1341A,113.0014,28.1944,长沙市,火车新站,,47,42,31,23,29,149,149,96,96,7,16,6,8,0.3,0.5
2022-06-14T16:00:00,1342A,112.9844,28.1178,长沙市,天心区环保局,,42,33,32,17,22,135,134,91,91,4,16,4,5,0.3,0.5
2022-06-14T16:00:00,1343A,112.8908,28.1308,长沙市,湖南中医药大学,,50,42,35,32,23,160,160,91,91,4,19,9,5,1.4,1
2022-06-14T16:00:00,1344A,112.9581,28.3611,长沙市,沙坪(对照点),臭氧1小时,67,38,27,22,19,173,173,100,100,10,12,9,7,0.8,0.7
2022-06-14T16:00:00,1345A,113.2347,23.1423,广州市,广雅中学,,18,14,26,9,17,66,33,18,18,36,39,4,5,0.8,0.7
2022-06-14T16:00:00,1346A,113.2612,23.105,广州市,市五中,,14,11,24,8,17,70,42,31,24,22,28,4,5,0.7,0.7
2022-06-14T16:00:00,1348A,113.3478,23.0916,广州市,广东商学院,,15,14,26,10,17,67,32,24,24,29,34,3,3,0.7,0.7
2022-06-14T16:00:00,1349A,113.4332,23.1047,广州市,市八十六中,,14,13,31,9,15,69,22,12,12,28,37,6,6,0.5,0.5
2022-06-14T16:00:00,1350A,113.3505,22.9483,广州市,番禺中学,,13,13,26,9,13,68,36,26,26,22,23,5,5,0.6,0.6
2022-06-14T16:00:00,1351A,113.2146,23.3916,广州市,花都师范,,13,6,25,3,18,49,40,26,26,19,30,5,5,0.8,0.8
2022-06-14T16:00:00,1352A,113.2597,23.1331,广州市,市监测站,,,,27,,16,76,32,32,24,27,27,5,6,0.8,0.7
2022-06-14T16:00:00,1353A,113.5618,23.312,广州市,九龙镇镇龙,,14,4,19,3,10,78,44,30,30,15,28,5,5,0.7,0.6
2022-06-14T16:00:00,1354A,113.2765,23.1544,广州市,麓湖,,13,13,26,8,15,73,29,20,20,25,26,3,3,0.8,0.8
2022-06-14T16:00:00,1355A,113.443,23.3035,广州市,帽峰山森林公园(对照点),,18,3,18,2,9,90,56,43,43,7,17,4,4,0.8,0.7
2022-06-14T16:00:00,1356A,114.1063,22.5545,深圳市,通心岭子站,,17,17,22,7,9,48,24,36,35,22,13,2,3,0.6,0.6
2022-06-14T16:00:00,1357A,114.117,22.5625,深圳市,洪湖,,17,17,24,10,10,49,22,42,34,27,17,6,6,0.5,0.5
2022-06-14T16:00:00,1358A,113.987,22.5417,深圳市,华侨城,,22,22,26,9,9,46,11,37,34,30,14,4,4,0.6,0.5
2022-06-14T16:00:00,1359A,113.9181,22.5171,深圳市,南海子站,,25,21,29,12,10,46,16,32,28,50,24,4,3,0.7,0.8
2022-06-14T16:00:00,1360A,114.2458,22.5689,深圳市,盐田,,16,16,22,6,10,49,36,30,27,16,15,2,2,0.8,0.8
2022-06-14T16:00:00,1361A,114.2283,22.7244,深圳市,龙岗,,19,19,27,8,12,44,35,32,31,37,31,2,4,0.6,0.6
2022-06-14T16:00:00,1363A,114.494,22.5422,深圳市,南澳,,17,15,22,7,8,62,54,57,57,9,7,6,5,0.8,0.7
2022-06-14T16:00:00,1364A,114.41,22.6342,深圳市,葵涌,,19,19,23,9,9,47,20,36,34,21,10,6,6,0.6,0.5
2022-06-14T16:00:00,1365A,114.297,22.5978,深圳市,梅沙,,15,13,27,4,11,47,47,32,32,14,23,5,6,0.5,0.5
2022-06-14T16:00:00,1366A,114.0678,22.738,深圳市,观澜,,26,22,28,10,10,41,11,25,22,51,21,4,4,0.6,0.5
2022-06-14T16:00:00,1367A,113.5814,22.2618,珠海市,吉大,,17,17,19,5,9,57,36,50,48,11,5,7,8,0.5,0.5
2022-06-14T16:00:00,1368A,113.4881,22.2335,珠海市,前山,,,14,19,3,10,56,28,50,46,36,14,8,8,,0.3
2022-06-14T16:00:00,1369A,113.628,22.4251,珠海市,唐家,,,14,19,5,11,67,62,55,55,,7,8,9,0.4,0.4
2022-06-14T16:00:00,1370A,113.299,22.2281,珠海市,斗门,,15,7,22,5,13,67,46,58,57,14,4,9,8,0.4,0.4
2022-06-14T16:00:00,1371A,113.1294,23.0067,佛山市,湾梁,,19,17,25,13,13,65,38,22,22,22,23,5,5,0.6,0.5
2022-06-14T16:00:00,1372A,113.1083,23.0478,佛山市,华材职中,,14,9,24,9,16,62,35,20,17,27,30,6,6,0.8,0.7
2022-06-14T16:00:00,1373A,113.144,23.0453,佛山市,南海气象局,,15,11,25,10,14,70,37,24,24,23,25,5,5,0.8,0.7
2022-06-14T16:00:00,1374A,113.2881,22.8094,佛山市,顺德苏岗,,16,5,14,5,10,60,31,32,32,32,20,4,5,0.5,0.5
2022-06-14T16:00:00,1376A,112.8383,22.8678,佛山市,高明孔堂,,12,12,22,7,11,62,35,33,33,22,9,9,5,0.7,0.6
2022-06-14T16:00:00,1377A,112.8836,23.1588,佛山市,三水监测站,,19,5,23,13,21,44,44,21,21,17,33,5,6,0.7,0.7
2022-06-14T16:00:00,1378A,112.867,23.185,佛山市,三水云东海,,15,11,28,2,10,45,45,22,22,16,26,5,5,0.6,0.6
2022-06-14T16:00:00,1379A,113.3769,22.5211,中山市,华柏园,,15,3,22,7,11,58,47,49,49,8,7,2,3,0.5,0.5
2022-06-14T16:00:00,1380A,113.3881,22.5497,中山市,张溪,,14,4,25,8,11,63,43,56,54,20,7,4,3,0.5,0.6
2022-06-14T16:00:00,1381A,113.4075,22.5111,中山市,紫马岭,,12,12,22,7,12,58,37,50,48,16,8,3,3,0.8,0.6
2022-06-14T16:00:00,1382A,113.4411,22.4853,中山市,长江旅游区(对照点),,16,0,19,7,10,64,50,59,58,4,4,3,3,0.6,0.5
2022-06-14T16:00:00,1383A,113.1064,22.6058,江门市,北街,,19,13,23,10,8,60,35,47,47,37,11,4,4,0.5,0.5
2022-06-14T16:00:00,1384A,113.0731,22.5835,江门市,西区,,18,14,25,12,14,61,41,49,49,23,15,5,5,0.7,0.5
2022-06-14T16:00:00,1385A,113.0219,22.5311,江门市,圭峰西,,,,28,13,14,56,34,45,45,21,11,4,4,0.5,0.4
2022-06-14T16:00:00,1386A,113.0828,22.5947,江门市,东湖,,22,22,29,11,15,65,38,50,50,18,12,6,6,0.6,0.5
2022-06-14T16:00:00,1389A,113.7547,23.0494,东莞市,莞城梨川,,13,5,24,5,15,81,41,38,38,23,26,6,7,0.7,0.7
2022-06-14T16:00:00,1390A,113.7944,23.0128,东莞市,东城石井,,21,1,21,0,10,89,67,48,48,8,20,1,1,0.4,0.5
2022-06-14T16:00:00,1391A,113.7383,22.9658,东莞市,南城西平,,15,10,21,3,10,86,46,44,44,27,28,2,2,0.6,0.6
2022-06-14T16:00:00,1392A,114.4183,23.0528,惠州市,河南岸金山湖子站,,11,10,22,6,8,61,33,34,22,20,15,2,2,0.6,0.5
2022-06-14T16:00:00,1393A,114.4053,23.0822,惠州市,下埔横江三路子站,,12,6,19,4,7,66,37,42,23,20,19,2,3,0.4,0.4
2022-06-14T16:00:00,1394A,114.4103,23.1142,惠州市,江北云山西路子站,,11,11,17,6,9,75,34,44,22,18,15,6,7,0.5,0.6
2022-06-14T16:00:00,1395A,114.4645,22.7833,惠州市,惠阳区承修路船湖子站,,33,33,28,6,12,60,31,37,37,35,25,3,3,0.6,0.6
2022-06-14T16:00:00,1396A,114.5317,22.7422,惠州市,大亚湾管委会子站,,16,16,23,8,9,66,22,35,32,30,19,4,4,0.3,0.2
2022-06-14T16:00:00,1397A,112.4267,23.0706,肇庆市,睦岗子站,,14,5,22,2,12,53,35,33,33,28,23,7,9,0.5,0.5
2022-06-14T16:00:00,1398A,112.4645,23.0475,肇庆市,城中子站,,14,4,23,3,13,42,38,26,26,27,27,9,12,0.6,0.6
2022-06-14T16:00:00,1399A,112.5544,23.1522,肇庆市,坑口子站,,15,0,20,2,11,47,47,30,30,14,13,7,7,0.6,0.6
2022-06-14T16:00:00,1400A,112.4753,23.1,肇庆市,七星岩子站(对照点),,14,4,16,1,8,58,42,31,31,18,20,13,14,0.7,0.7
2022-06-14T16:00:00,1401A,108.3103,22.7881,南宁市,二十一中,,23,12,19,12,11,71,71,41,41,13,20,5,6,0.7,0.7
2022-06-14T16:00:00,1402A,108.3141,22.8528,南宁市,北湖,,35,26,22,24,12,69,60,53,53,18,17,5,9,0.8,0.8
2022-06-14T16:00:00,1403A,108.3206,22.8225,南宁市,市监测站,,22,17,18,15,13,59,59,41,41,25,23,7,9,0.6,0.6
2022-06-14T16:00:00,1404A,108.3829,22.8037,南宁市,大自然花园,,24,10,15,11,10,75,75,46,46,9,14,6,7,0.6,0.7
2022-06-14T16:00:00,1405A,108.4394,22.7904,南宁市,仙葫(对照点),,,6,15,10,10,66,66,41,41,12,17,4,4,,0.5
2022-06-14T16:00:00,1406A,108.2397,22.8467,南宁市,区农职院,,20,13,15,9,8,64,62,45,45,7,15,6,6,0.6,0.6
2022-06-14T16:00:00,1407A,108.3275,22.735,南宁市,英华嘉园,,20,9,23,10,12,64,64,37,37,16,24,5,5,0.6,0.7
2022-06-14T16:00:00,1408A,108.2257,22.7757,南宁市,沙井镇街道办,,28,28,20,11,11,61,61,43,43,21,20,6,5,0.8,0.8
2022-06-14T16:00:00,1409A,110.576,19.9507,海口市,东寨港(对照点),,12,11,23,8,11,36,31,29,29,2,3,6,5,0.1,0.1
2022-06-14T16:00:00,1410A,110.3232,20.0574,海口市,海南大学,,41,41,39,3,10,101,82,84,84,2,3,6,6,0.3,0.5
2022-06-14T16:00:00,1411A,110.283,20.0053,海口市,秀英海南医院,,28,28,29,14,12,81,70,68,68,22,21,4,4,0.4,0.3
2022-06-14T16:00:00,1412A,110.338,19.9969,海口市,海南师范大学,,24,24,30,9,12,76,66,64,64,7,10,3,3,0.4,0.4
2022-06-14T16:00:00,1413A,110.33,20.0356,海口市,龙华路环保局宿舍,,29,29,28,17,13,82,76,76,76,6,10,5,5,0.4,0.5
2022-06-14T16:00:00,1414A,106.3787,29.8279,重庆市,缙云山(对照点),,,21,23,11,15,153,153,120,99,15,14,8,7,,0.5
2022-06-14T16:00:00,1416A,106.4213,29.8253,重庆市,天生,臭氧1小时,62,39,52,19,22,169,169,98,98,10,29,6,6,0.6,0.8
2022-06-14T16:00:00,1417A,106.6263,29.7228,重庆市,两路,臭氧1小时,77,29,47,17,32,181,181,92,92,32,63,8,10,0.6,0.8
2022-06-14T16:00:00,1418A,106.2953,29.5983,重庆市,虎溪,臭氧1小时,65,40,52,37,38,172,172,104,104,6,23,6,6,0.7,0.9
2022-06-14T16:00:00,1419A,106.5777,29.5102,重庆市,南坪,,,,50,,26,203,203,107,107,19,27,,13,0.5,0.7
2022-06-14T16:00:00,1420A,106.6556,29.6277,重庆市,唐家沱,臭氧1小时,78,22,40,15,23,182,182,108,108,16,36,6,7,0.3,0.7
2022-06-14T16:00:00,1422A,106.3754,29.4572,重庆市,白市驿,臭氧1小时,102,54,40,18,30,204,204,110,110,18,16,5,7,0.6,0.7
2022-06-14T16:00:00,1425A,106.6205,29.7166,重庆市,空港,臭氧1小时,78,34,48,7,32,182,182,95,95,25,55,6,7,0,0.4
2022-06-14T16:00:00,1426A,106.4782,29.4875,重庆市,新山村,臭氧1小时,104,36,47,12,24,207,207,110,110,29,45,5,10,0.6,0.8
2022-06-14T16:00:00,1427A,106.5616,29.6453,重庆市,礼嘉,臭氧1小时,78,47,53,20,30,182,182,89,89,36,65,11,11,0.8,1
2022-06-14T16:00:00,1428A,106.4522,29.7091,重庆市,蔡家,臭氧1小时,70,24,32,13,25,176,176,104,104,13,27,7,7,0.4,0.6
2022-06-14T16:00:00,1429A,106.5093,29.3917,重庆市,鱼新街,,,6,40,8,25,126,,62,62,,40,5,8,0,0.7
2022-06-14T16:00:00,1431A,103.9728,30.7236,成都市,金泉两河,,41,20,41,11,27,156,131,104,104,6,31,3,4,0.4,0.7
2022-06-14T16:00:00,1432A,104.1419,30.6764,成都市,十里店,,47,32,48,17,28,158,150,107,107,7,34,5,7,0.5,0.7
2022-06-14T16:00:00,1433A,104.0594,30.5767,成都市,三瓦窑,,35,21,44,12,28,142,110,92,92,23,49,4,7,0.6,0.8
2022-06-14T16:00:00,1434A,104.1122,30.6306,成都市,沙河铺,,40,17,43,9,21,155,126,94,94,10,36,3,3,0.5,0.7
2022-06-14T16:00:00,1437A,104.0431,30.6556,成都市,君平街,臭氧1小时,62,26,50,15,33,184,169,117,117,17,47,4,7,0.4,0.7
2022-06-14T16:00:00,1438A,103.6202,31.0201,成都市,灵岩寺(对照点),,42,30,32,19,21,150,133,128,128,4,10,2,8,0.7,0.7
2022-06-14T16:00:00,1439A,106.6899,26.5998,贵阳市,马鞍山,,34,34,19,14,9,92,92,52,52,19,14,8,5,0.6,0.5
2022-06-14T16:00:00,1440A,106.6971,26.5694,贵阳市,市环保站,,,34,22,15,13,82,82,48,48,24,26,18,8,,0.5
2022-06-14T16:00:00,1441A,106.6243,26.6266,贵阳市,鉴湖路,,34,34,24,14,9,100,100,85,85,12,12,5,3,0.4,0.6
2022-06-14T16:00:00,1442A,106.7487,26.6343,贵阳市,燕子冲,颗粒物(PM10),51,51,31,31,20,100,100,45,45,17,17,6,6,0.6,0.6
2022-06-14T16:00:00,1443A,106.6555,26.4365,贵阳市,碧云窝,,41,41,27,12,11,118,118,75,75,10,12,14,4,0.5,0.6
2022-06-14T16:00:00,1444A,106.694,26.5161,贵阳市,中院村,,31,31,28,14,11,95,95,57,57,14,21,9,2,0.6,0.6
2022-06-14T16:00:00,1445A,106.7109,26.6027,贵阳市,红边门,,39,39,27,24,17,96,96,53,51,18,16,3,2,0.6,0.6
2022-06-14T16:00:00,1446A,106.7164,26.5699,贵阳市,新华路,,31,29,23,19,17,97,97,51,51,16,22,8,6,0.5,0.5
2022-06-14T16:00:00,1447A,106.674,26.5424,贵阳市,太慈桥,,34,34,27,9,6,79,79,50,50,18,19,16,8,0.5,0.4
2022-06-14T16:00:00,1450A,102.8204,24.8886,昆明市,呈贡新区,,29,13,16,9,8,108,90,100,96,14,11,9,8,0.4,0.4
2022-06-14T16:00:00,1451A,102.6251,24.9608,昆明市,西山森林公园(对照点),,31,4,11,18,6,118,97,112,107,11,9,6,6,0.3,0.3
2022-06-14T16:00:00,1452A,102.7252,25.0902,昆明市,龙泉镇,,30,21,19,9,7,107,96,99,92,8,9,9,8,0.3,0.3
2022-06-14T16:00:00,1453A,102.7266,25.0375,昆明市,东风东路,,31,15,14,10,7,109,99,102,99,7,9,5,4,0.3,0.3
2022-06-14T16:00:00,1454A,102.6742,25.0669,昆明市,金鼎山,,34,15,12,9,8,109,106,101,98,5,10,6,6,0.2,0.3
2022-06-14T16:00:00,1455A,102.6644,25.0401,昆明市,碧鸡广场,,32,18,12,5,10,116,102,104,98,13,13,8,7,0.4,0.4
2022-06-14T16:00:00,1456A,91.1319,29.6514,拉萨市,八廓街,,44,26,32,16,10,143,140,122,122,3,9,6,6,0.1,0.2
2022-06-14T16:00:00,1457A,91.1221,29.6747,拉萨市,市环保局,,45,12,29,7,11,141,141,122,122,8,16,7,7,0.2,0.3
2022-06-14T16:00:00,1458A,91.0874,29.6475,拉萨市,区监测站,,45,12,28,4,6,142,141,125,125,8,12,7,7,0.2,0.2
2022-06-14T16:00:00,1459A,91.1774,29.6541,拉萨市,西藏大学,,45,10,17,5,6,142,142,119,119,4,8,9,8,0.3,0.3
2022-06-14T16:00:00,1460A,90.9798,29.6588,拉萨市,区辐射站,,40,11,21,4,8,134,125,114,114,9,12,8,8,0.1,0.2
2022-06-14T16:00:00,1461A,91.0834,29.6292,拉萨市,拉萨火车站,,41,12,28,8,10,134,131,121,119,7,12,8,8,0.2,0.2
2022-06-14T16:00:00,1462A,108.882,34.2749,西安市,高压开关厂,,,35,59,8,11,195,160,137,137,9,38,,10,0.1,0.2
2022-06-14T16:00:00,1463A,108.993,34.2629,西安市,兴庆小区,臭氧1小时,57,49,52,15,10,184,165,130,130,13,41,5,7,0.8,0.5
2022-06-14T16:00:00,1464A,109.06,34.2572,西安市,纺织城,臭氧1小时,63,40,51,10,15,183,170,137,137,15,44,7,8,0.2,0.3
2022-06-14T16:00:00,1465A,108.9356,34.2173,西安市,小寨,,,,46,,11,178,166,130,130,8,40,5,6,0.2,0.4
2022-06-14T16:00:00,1466A,108.954,34.2713,西安市,市人民体育场,,50,44,50,9,12,188,159,130,130,13,38,5,6,0.1,0.3
2022-06-14T16:00:00,1467A,108.8922,34.2322,西安市,高新西区,臭氧1小时,55,39,45,15,14,184,164,136,136,5,29,6,7,0.2,0.3
2022-06-14T16:00:00,1468A,108.935,34.3474,西安市,经开区,臭氧1小时,59,45,63,10,12,191,167,139,139,5,44,4,4,0.2,0.3
2022-06-14T16:00:00,1469A,108.906,34.1546,西安市,长安区,,47,32,44,12,10,171,150,135,135,6,23,6,7,0.3,0.5
2022-06-14T16:00:00,1471A,109.2186,34.3731,西安市,临潼区,臭氧1小时,64,47,49,18,15,196,171,153,153,12,26,4,5,0.4,0.5
2022-06-14T16:00:00,1472A,108.869,34.378,西安市,草滩(对照点),颗粒物(PM10),54,57,70,13,17,180,155,130,130,11,50,8,7,0.5,0.8
2022-06-14T16:00:00,1473A,108.985,34.1978,西安市,曲江文化产业集团,,49,43,43,12,10,182,156,138,138,10,39,5,6,0.0,0.2
2022-06-14T16:00:00,1474A,109.051,34.3213,西安市,广运潭,臭氧1小时,64,40,49,11,10,190,171,135,135,10,36,6,7,0.2,0.3
2022-06-14T16:00:00,1476A,103.631,36.1031,兰州市,兰炼宾馆,臭氧1小时,84,30,49,10,17,200,187,139,139,10,46,9,17,0.4,0.5
2022-06-14T16:00:00,1478A,103.8412,36.0726,兰州市,生物制品所,臭氧1小时,79,28,50,11,17,183,183,116,116,12,45,8,14,0.5,0.7
2022-06-14T16:00:00,1479A,103.831,36.0464,兰州市,铁路设计院,臭氧1小时,63,31,57,6,18,172,170,104,104,25,59,8,26,0.6,1
2022-06-14T16:00:00,1483A,101.524,36.6867,西宁市,第五水厂(对照点),臭氧1小时,59,16,23,4,9,167,167,132,132,9,12,10,9,0.4,0.6
2022-06-14T16:00:00,1484A,105.9512,38.6016,银川市,贺兰山马莲口(对照点),臭氧1小时,55,26,34,10,13,164,164,122,122,7,7,10,9,0.4,0.4
2022-06-14T16:00:00,1488A,106.2328,38.4975,银川市,贺兰山东路,,47,32,39,8,12,149,149,121,121,9,22,6,9,0.3,0.5
2022-06-14T16:00:00,1489A,106.1358,38.5036,银川市,学院路,,50,22,51,10,13,157,157,117,117,8,27,8,12,0.5,0.6
2022-06-14T16:00:00,1490A,87.5801,43.8303,乌鲁木齐市,监测站,,44,44,69,13,21,198,119,95,95,6,34,11,12,0.5,0.6
2022-06-14T16:00:00,1491A,87.6046,43.768,乌鲁木齐市,收费所,颗粒物(PM10),51,52,89,18,27,207,125,98,98,18,52,8,8,0.4,0.4
2022-06-14T16:00:00,1492A,87.4754,43.9469,乌鲁木齐市,新疆农科院农场(对照点),,45,45,113,24,33,192,126,108,108,20,38,9,12,0.2,0.3
2022-06-14T16:00:00,1493A,87.5525,43.8711,乌鲁木齐市,铁路局,,41,41,72,22,28,196,123,99,99,6,34,9,10,0.4,0.6
2022-06-14T16:00:00,1494A,87.6432,43.831,乌鲁木齐市,三十一中学,,47,47,78,20,22,197,122,98,98,7,36,5,6,0.2,0.4
2022-06-14T16:00:00,1496A,87.7216,44.1747,乌鲁木齐市,米东区环保局,,,29,73,12,23,183,110,86,86,3,28,,14,0.3,0.5
2022-06-14T16:00:00,1508A,112.9433,27.8614,湘潭市,板塘,,38,27,35,14,22,120,120,89,89,7,15,6,8,0.7,0.7
2022-06-14T16:00:00,1511A,112.9118,27.8403,湘潭市,市监测站,,34,22,27,16,25,108,108,84,84,10,16,13,13,0.6,0.9
2022-06-14T16:00:00,1512A,112.8937,27.8728,湘潭市,江麓,,,,37,,22,116,,78,78,,15,,12,,0.7
2022-06-14T16:00:00,1513A,112.9227,27.8159,湘潭市,岳塘,,36,32,37,16,22,114,114,91,91,6,12,1,3,0.5,0.6
2022-06-14T16:00:00,1514A,112.9074,27.9119,湘潭市,科大,,40,40,40,23,26,126,126,86,86,14,19,11,7,1.1,0.9
2022-06-14T16:00:00,1515A,113.135,27.8244,株洲市,天台山庄,,35,17,20,18,19,110,110,92,92,6,13,5,5,0.4,0.4
2022-06-14T16:00:00,1518A,113.095,27.8867,株洲市,株冶医院,,35,14,26,16,17,112,112,87,87,9,17,6,7,0.6,0.7
2022-06-14T16:00:00,1519A,113.167,27.8667,株洲市,市四中,,39,18,21,17,21,122,122,93,93,2,9,5,5,0.5,0.6
2022-06-14T16:00:00,1520A,113.143,27.8381,株洲市,火车站,,35,31,28,23,20,111,111,88,88,5,10,4,4,0.3,0.4
2022-06-14T16:00:00,1524A,113.13,27.8528,株洲市,市监测站,,37,19,27,16,18,117,117,98,98,5,11,5,7,0.3,0.4
2022-06-14T16:00:00,1559A,113.251,27.8336,株洲市,大京风景区(对照点),,30,16,28,14,17,93,93,77,77,4,5,5,5,0.3,0.4
2022-06-14T16:00:00,1562A,113.0048,27.9153,湘潭市,昭山,,37,14,21,15,16,118,118,84,84,2,12,6,5,0.4,0.4
2022-06-14T16:00:00,1564A,112.4876,27.9164,湘潭市,韶山(对照点),,32,32,29,11,11,105,101,73,73,8,9,8,5,0.6,0.7
2022-06-14T16:00:00,1585A,109.8756,40.6532,包头市,市环境监测站,,30,17,22,6,7,109,96,99,99,5,13,6,7,0.4,0.4
2022-06-14T16:00:00,1587A,109.9991,40.5842,包头市,包头八中,,33,20,32,6,9,116,105,102,102,5,21,10,11,0.3,0.3
2022-06-14T16:00:00,1588A,109.8538,40.6821,包头市,青山宾馆,,30,16,21,8,9,107,95,97,97,6,13,9,10,0.3,0.3
2022-06-14T16:00:00,1589A,109.8642,40.6288,包头市,惠龙物流,,32,18,21,8,8,113,101,103,103,6,12,6,8,0.4,0.4
2022-06-14T16:00:00,1590A,110.0377,40.5546,包头市,东河鸿龙湾,,31,17,30,6,11,106,97,92,92,5,17,8,15,0.2,0.4
2022-06-14T16:00:00,1591A,110.0023,39.8129,鄂尔多斯市,综合楼,,40,22,33,5,7,130,126,112,112,10,26,8,10,0.5,0.5
2022-06-14T16:00:00,1592A,109.9486,39.8261,鄂尔多斯市,巴音孟克林场办事处,,40,34,41,7,10,128,125,112,112,5,16,6,9,0.3,0.4
2022-06-14T16:00:00,1593A,109.7736,39.5986,鄂尔多斯市,康泽苑,,42,24,34,5,8,134,134,116,116,5,11,5,5,0.3,0.3
2022-06-14T16:00:00,1594A,109.8119,39.5989,鄂尔多斯市,华泰汽车城,,42,19,37,7,11,133,133,117,117,2,21,6,7,0.4,0.5
2022-06-14T16:00:00,1595A,109.9734,39.7884,鄂尔多斯市,奥林花园,,40,34,48,12,12,127,125,111,111,8,33,6,8,0.4,0.6
2022-06-14T16:00:00,1597A,122.2703,40.7094,营口市,大庆路,,30,14,19,21,13,128,59,71,63,15,13,7,5,1.0,0.6
2022-06-14T16:00:00,1598A,122.215,40.6511,营口市,镜湖西路,,22,20,20,4,8,133,68,106,67,6,8,2,4,0.4,0.5
2022-06-14T16:00:00,1599A,122.167,40.6655,营口市,西炮台,,23,14,24,5,9,139,71,103,71,17,16,8,5,0.4,0.4
2022-06-14T16:00:00,1600A,124.3303,40.0625,丹东市,江湾东路,,22,7,11,5,7,89,69,66,66,7,10,6,7,0.3,0.4
2022-06-14T16:00:00,1601A,124.4256,40.1503,丹东市,临江后街,,,,,2,4,104,78,72,72,3,5,11,11,1.0,1.1
2022-06-14T16:00:00,1602A,124.3933,40.1461,丹东市,元宝山,,23,12,12,5,7,88,73,68,67,4,6,8,8,0.4,0.5
2022-06-14T16:00:00,1603A,124.3633,40.1092,丹东市,民主桥,,24,9,10,5,7,102,76,73,73,2,5,10,11,0.7,0.8
2022-06-14T16:00:00,1604A,122.0303,41.1489,盘锦市,开发区,,23,14,22,5,13,125,71,90,66,12,16,5,5,0.6,0.7
2022-06-14T16:00:00,1605A,122.0485,41.0883,盘锦市,兴隆台,,22,20,26,13,13,127,68,83,64,16,17,5,5,0.7,0.6
2022-06-14T16:00:00,1606A,121.8297,41.1028,盘锦市,新生街道,,22,5,9,4,8,127,68,76,67,11,13,4,3,0.4,0.5
2022-06-14T16:00:00,1607A,120.9092,40.7136,葫芦岛市,龙港区,,24,11,19,6,9,128,74,105,78,10,10,5,2,0.4,0.4
2022-06-14T16:00:00,1608A,120.8392,40.7514,葫芦岛市,化工街,,22,18,22,15,19,125,69,105,74,9,10,5,5,0.2,0.3
2022-06-14T16:00:00,1609A,120.8341,40.7073,葫芦岛市,新区,,23,18,21,6,14,126,72,101,73,10,11,6,6,0.3,0.4
2022-06-14T16:00:00,1610A,120.8695,40.7677,葫芦岛市,东城区,,24,24,24,11,16,117,68,99,71,9,11,30,10,0.3,0.3
2022-06-14T16:00:00,1611A,118.5819,24.9117,泉州市,涂山街,,20,20,22,10,9,55,35,44,44,25,17,6,5,0.3,0.2
2022-06-14T16:00:00,1612A,118.5972,24.8978,泉州市,津头埔,,36,36,28,15,13,48,35,37,37,23,18,4,4,0.4,0.3
2022-06-14T16:00:00,1613A,118.6663,24.9424,泉州市,万安,,23,23,23,16,11,57,20,36,36,35,17,5,4,0.5,0.5
2022-06-14T16:00:00,1616A,117.6795,36.229,济南市,技术学院,,40,36,33,24,20,163,125,120,120,14,14,10,13,1.9,1.1
2022-06-14T16:00:00,1618A,118.3429,35.0532,临沂市,沂河小区,,44,24,47,13,18,171,139,129,129,10,12,9,8,0.3,0.3
2022-06-14T16:00:00,1619A,118.295,35.0583,临沂市,鲁南制药厂,,48,29,41,8,15,189,151,148,148,26,23,7,6,0.4,0.4
2022-06-14T16:00:00,1620A,118.2794,34.9976,临沂市,新光毛纺厂,,45,36,44,10,15,183,143,140,140,24,19,7,5,0.6,0.6
2022-06-14T16:00:00,1621A,118.3956,35.0888,临沂市,河东保险公司,,,24,39,6,16,183,136,132,132,16,17,,5,,0.2
2022-06-14T16:00:00,1622A,116.3032,37.4674,德州市,儿童乐园,臭氧1小时,55,38,44,17,19,186,164,127,127,5,10,5,6,0.5,0.6
2022-06-14T16:00:00,1624A,116.2991,37.4451,德州市,监理站,,50,31,41,14,18,187,158,123,123,5,12,6,8,0.4,0.5
2022-06-14T16:00:00,1625A,115.9848,36.4372,聊城市,区政府,臭氧1小时,60,22,28,7,12,170,168,134,134,2,8,10,9,0.6,0.6
2022-06-14T16:00:00,1628A,118.0062,37.3803,滨州市,市环保局,细颗粒物(PM2.5),110,113,58,83,39,196,196,126,126,11,12,13,10,0.4,0.3
2022-06-14T16:00:00,1629A,118.0018,37.3617,滨州市,第二水厂,细颗粒物(PM2.5),87,92,47,64,31,167,167,115,115,15,17,16,13,0.6,0.5
2022-06-14T16:00:00,1630A,117.9776,37.393,滨州市,北中新校,细颗粒物(PM2.5),93,91,45,69,33,191,191,118,118,12,14,17,12,0.7,0.5
2022-06-14T16:00:00,1631A,118.0414,36.8103,淄博市,人民公园,细颗粒物(PM2.5),74,78,48,54,36,151,151,105,105,13,21,19,12,0.5,0.3
2022-06-14T16:00:00,1633A,117.8525,36.4847,淄博市,双山,臭氧1小时,59,42,27,24,19,167,167,123,123,12,16,8,9,0.2,0.3
2022-06-14T16:00:00,1634A,117.9592,36.6331,淄博市,气象站,,49,45,32,24,13,156,155,121,121,13,17,8,11,0.2,0.2
2022-06-14T16:00:00,1635A,118.3092,36.8194,淄博市,莆田园,细颗粒物(PM2.5),55,51,51,39,26,142,142,102,98,11,24,10,11,0.2,0.4
2022-06-14T16:00:00,1637A,117.558,34.8438,枣庄市,市中区政府,臭氧1小时,101,34,38,17,10,205,201,175,175,10,14,11,13,0.3,0.3
2022-06-14T16:00:00,1638A,117.2852,34.7837,枣庄市,薛城环保局,臭氧1小时,74,37,41,9,14,212,179,158,158,14,17,12,13,0.5,0.5
2022-06-14T16:00:00,1639A,117.5852,34.7745,枣庄市,峄城区政府,臭氧1小时,85,27,35,24,18,188,188,163,163,16,19,11,14,0.4,0.4
2022-06-14T16:00:00,1640A,117.7276,34.5578,枣庄市,台儿庄区环保局,臭氧1小时,58,14,46,5,12,179,166,146,146,13,19,10,12,0.5,0.6
2022-06-14T16:00:00,1641A,117.4518,35.0992,枣庄市,山亭区环保局,臭氧1小时,94,22,21,15,12,205,195,169,169,12,14,10,9,0.3,0.4
2022-06-14T16:00:00,1642A,121.2514,37.5639,烟台市,开发区,,,5,22,,8,105,99,94,80,9,10,6,6,0.3,0.3
2022-06-14T16:00:00,1643A,121.3719,37.5433,烟台市,轴承厂,,30,7,18,3,9,106,96,92,88,11,7,4,4,0.3,0.2
2022-06-14T16:00:00,1644A,121.3181,37.5436,烟台市,西郊化工站,,,,18,2,7,99,89,88,88,13,5,4,4,0.2,0.2
2022-06-14T16:00:00,1645A,121.4478,37.4822,烟台市,莱山环保局,,32,0,15,3,8,102,102,91,91,5,7,5,7,0.2,0.2
2022-06-14T16:00:00,1646A,121.2611,37.4967,烟台市,福山环保局,,26,7,29,2,9,94,82,80,72,17,13,1,2,0.2,0.3
2022-06-14T16:00:00,1650A,119.1437,36.7023,潍坊市,环保局,细颗粒物(PM2.5),84,95,38,62,25,142,142,120,120,15,14,7,8,0.8,0.8
2022-06-14T16:00:00,1653A,116.6251,35.4302,济宁市,火炬城,,50,12,30,5,8,170,160,140,140,6,9,6,7,0.2,0.4
2022-06-14T16:00:00,1655A,116.5491,35.4042,济宁市,电化厂,,50,15,36,2,8,165,157,132,130,12,12,8,7,0.4,0.5
2022-06-14T16:00:00,1656A,117.1437,36.1937,泰安市,监测站,,50,37,26,23,12,160,160,120,120,6,11,9,9,0.4,0.3
2022-06-14T16:00:00,1657A,117.0885,36.2017,泰安市,人口学校,臭氧1小时,60,41,27,23,14,168,168,126,126,10,12,7,6,0.3,0.2
2022-06-14T16:00:00,1658A,117.1089,36.1758,泰安市,电力学校,,50,48,25,18,15,158,158,118,118,5,11,5,5,0.5,0.4
2022-06-14T16:00:00,1659A,119.471,35.4209,日照市,监测站,,46,27,20,15,16,149,147,126,126,12,13,8,7,0.3,0.4
2022-06-14T16:00:00,1660A,119.523,35.4216,日照市,市政府广场,,,,19,,10,141,,121,121,,9,,8,,0.6
2022-06-14T16:00:00,1661A,119.5587,35.4044,日照市,港务局,臭氧1小时,82,58,27,31,12,185,185,135,135,15,17,6,6,0.6,0.7
2022-06-14T16:00:00,1662A,122.1214,37.4236,威海市,华夏技校,,20,9,15,12,15,105,62,85,82,17,9,4,4,0.4,0.4
2022-06-14T16:00:00,1663A,122.0508,37.5236,威海市,山大分校,,24,12,16,5,9,120,75,93,89,8,8,6,6,0.3,0.3
2022-06-14T16:00:00,1664A,122.1067,37.5072,威海市,市监测站,,22,17,17,12,15,110,68,93,85,15,12,7,7,0.2,0.3
2022-06-14T16:00:00,1666A,118.6614,37.4309,东营市,市环保局,臭氧1小时,101,102,39,75,28,201,201,148,148,11,13,17,20,0.6,0.6
2022-06-14T16:00:00,1669A,113.5824,24.7733,韶关市,市八中,,29,0,12,2,4,91,91,60,60,4,13,10,9,0.4,0.6
2022-06-14T16:00:00,1671A,113.5917,24.7972,韶关市,园林处,,27,8,10,5,8,85,85,56,56,4,9,10,8,0.5,0.6
2022-06-14T16:00:00,1672A,113.6735,24.7791,韶关市,韶关学院,,26,17,11,0,3,82,82,56,56,5,9,10,9,0.4,0.6
2022-06-14T16:00:00,1673A,113.5971,24.6863,韶关市,曲江监测站,,,,12,2,4,83,83,49,49,3,12,7,8,0.5,0.7
2022-06-14T16:00:00,1674A,116.6794,23.3667,汕头市,金平子站,,28,28,23,9,10,51,42,45,45,6,6,7,7,0.5,0.5
2022-06-14T16:00:00,1675A,116.7244,23.3633,汕头市,龙湖子站,,24,24,22,10,7,59,48,52,52,10,8,7,7,0.4,0.4
2022-06-14T16:00:00,1676A,116.7258,23.2775,汕头市,濠江子站,,17,17,26,8,8,60,46,50,50,7,7,9,9,0.5,0.4
2022-06-14T16:00:00,1677A,116.7519,23.4714,汕头市,澄海子站,,26,26,25,11,11,55,46,47,47,10,13,4,5,0.5,0.6
2022-06-14T16:00:00,1678A,116.6092,23.2539,汕头市,潮阳子站,,,14,21,4,6,49,42,44,44,4,4,,7,0.5,0.5
2022-06-14T16:00:00,1680A,110.3539,21.2706,湛江市,湛江影剧院,,19,19,27,12,10,87,58,68,68,9,10,6,8,0.6,0.5
2022-06-14T16:00:00,1681A,110.3928,21.2228,湛江市,市环境监测站,,21,21,33,14,17,93,62,71,71,14,13,5,12,0.7,0.6
2022-06-14T16:00:00,1682A,110.4019,21.1997,湛江市,环保局宿舍,,22,21,32,15,16,93,61,71,71,13,11,4,10,0.6,0.5
2022-06-14T16:00:00,1683A,110.4111,21.2028,湛江市,霞山游泳场,,19,12,28,13,16,89,60,70,70,14,12,6,10,0.6,0.4
2022-06-14T16:00:00,1684A,110.3316,21.2679,湛江市,麻章区环保局,,21,21,34,12,17,90,59,67,67,14,14,5,10,0.7,0.5
2022-06-14T16:00:00,1685A,110.4558,21.2567,湛江市,坡头区环保局,,23,14,29,16,15,99,65,76,76,11,15,6,8,0.7,0.5
2022-06-14T16:00:00,1686A,111.0286,21.4688,茂名市,电白南海,,,,34,,14,72,35,55,55,,16,1,3,0.6,0.6
2022-06-14T16:00:00,1687A,110.9294,21.6533,茂名市,茂石化七小,,18,12,33,12,18,91,50,69,69,17,14,7,5,0.5,0.5
2022-06-14T16:00:00,1688A,110.9107,21.6687,茂名市,健康路,,17,8,29,3,12,89,54,63,63,8,10,5,4,0.5,0.6
2022-06-14T16:00:00,1689A,110.8592,21.6828,茂名市,高岭,,10,0,19,0,8,81,32,50,50,17,11,12,9,0.5,0.5
2022-06-14T16:00:00,1690A,116.1231,24.3284,梅州市,梅江月梅,,17,3,12,2,5,52,52,46,42,10,12,1,1,0.6,0.6
2022-06-14T16:00:00,1691A,116.0797,24.2719,梅州市,梅县新城,,13,6,14,2,5,51,40,51,34,17,18,4,5,0.6,0.7
2022-06-14T16:00:00,1692A,116.1248,24.2654,梅州市,环境监控中心,,13,2,14,1,7,54,39,46,39,22,17,5,6,0.6,0.5
2022-06-14T16:00:00,1693A,115.3653,22.775,汕尾市,市环保局,,14,14,22,9,9,59,44,42,42,8,7,4,5,0.5,0.4
2022-06-14T16:00:00,1694A,115.3706,22.7898,汕尾市,市政府,,16,5,19,5,7,66,51,46,46,6,6,5,5,0.5,0.4
2022-06-14T16:00:00,1695A,115.3622,22.7925,汕尾市,新城中学,,16,11,21,6,7,72,50,49,49,6,5,5,5,0.5,0.4
2022-06-14T16:00:00,1696A,114.6778,23.7569,河源市,源西(对照点),,14,3,9,2,5,70,43,38,26,8,13,3,4,0.4,0.4
2022-06-14T16:00:00,1697A,114.6944,23.7586,河源市,东埔,,14,5,8,1,6,62,42,42,28,12,14,3,3,0.6,0.7
2022-06-14T16:00:00,1698A,114.6892,23.7233,河源市,老城,,15,8,9,1,5,64,46,41,35,9,12,2,2,0.5,0.6
2022-06-14T16:00:00,1701A,111.9491,21.8658,阳江市,马南垌,,25,25,31,6,16,88,68,70,70,5,8,2,3,0.5,0.7
2022-06-14T16:00:00,1702A,113.0426,23.691,清远市,环保大楼(对照点),,25,2,11,3,10,78,78,47,47,3,12,3,4,0.4,0.5
2022-06-14T16:00:00,1703A,113.0208,23.7106,清远市,凤城街办,,19,3,13,2,8,60,60,38,38,7,14,4,4,0.6,0.6
2022-06-14T16:00:00,1705A,116.6367,23.6719,潮州市,西园路(对照点),,22,22,24,4,13,66,57,54,54,6,12,3,4,0.6,0.9
2022-06-14T16:00:00,1706A,116.6447,23.6706,潮州市,档案局,,17,13,27,0,10,71,53,48,48,7,13,6,8,0.6,0.8
2022-06-14T16:00:00,1708A,116.3701,23.5345,揭阳市,新兴,,16,4,28,7,12,62,50,48,48,7,13,5,5,0.2,0.4
2022-06-14T16:00:00,1709A,116.3264,23.5443,揭阳市,西马,,15,9,27,4,10,68,46,48,48,10,13,8,8,0.6,0.7
2022-06-14T16:00:00,1710A,116.3611,23.5626,揭阳市,东兴,,16,10,27,8,10,74,50,50,50,8,14,3,4,0.4,0.6
2022-06-14T16:00:00,1711A,116.4151,23.5294,揭阳市,渔湖,,23,10,27,16,11,62,51,47,47,2,6,4,4,0.5,0.6
2022-06-14T16:00:00,1714A,112.0539,22.9539,云浮市,牧羊,,16,9,30,9,10,42,35,24,24,23,20,46,19,0.6,0.6
2022-06-14T16:00:00,1715A,102.575,24.3711,玉溪市,东风水库,,26,5,13,3,8,93,82,84,84,5,6,6,6,0.6,0.6
2022-06-14T16:00:00,1718A,115.4208,35.2464,菏泽市,气象局,臭氧1小时,69,23,46,14,17,175,175,152,152,10,16,9,11,0.3,0.3
2022-06-14T16:00:00,1719A,115.4747,35.2375,菏泽市,市政协,臭氧1小时,77,18,34,7,11,182,181,152,152,8,13,6,9,0.1,0.1
2022-06-14T16:00:00,1721A,113.3819,40.1097,大同市,果树场(对照点),,40,13,19,4,14,125,125,114,114,9,27,12,22,0.4,0.5
2022-06-14T16:00:00,1723A,113.2994,40.0758,大同市,云冈宾馆,,39,11,35,2,12,122,122,108,108,7,26,7,25,0.3,0.6
2022-06-14T16:00:00,1724A,113.3444,40.0917,大同市,大同大学,,38,14,28,0,8,121,121,109,109,6,22,4,25,0.4,0.6
2022-06-14T16:00:00,1725A,113.2661,40.1269,大同市,安家小村,,41,13,47,2,11,129,129,118,118,6,29,9,16,0.3,0.6
2022-06-14T16:00:00,1726A,113.2711,40.0844,大同市,教育学院,,38,15,36,6,9,121,121,106,106,8,27,5,22,0.3,0.4
2022-06-14T16:00:00,1727A,113.1147,36.1547,长治市,清华站,,46,17,38,5,7,152,145,118,118,12,24,9,11,0.3,0.5
2022-06-14T16:00:00,1728A,113.1031,36.1989,长治市,监测站,,47,22,39,7,10,151,148,127,127,6,22,9,10,0.2,0.4
2022-06-14T16:00:00,1730A,113.0886,36.2125,长治市,审计局,,43,12,30,2,9,148,136,112,112,7,21,16,18,0.3,0.5
2022-06-14T16:00:00,1731A,113.0844,36.1856,长治市,长治八中,,,15,35,3,9,156,148,120,120,,31,15,19,0,0.2
2022-06-14T16:00:00,1733A,111.5531,36.0783,临汾市,临钢医院,,,34,45,2,9,211,174,142,142,12,32,8,7,,0.8
2022-06-14T16:00:00,1734A,111.5028,36.0714,临汾市,技工学校,,43,10,38,2,15,199,136,132,132,2,18,3,8,0.8,0.9
2022-06-14T16:00:00,1736A,111.5018,36.0855,临汾市,市委,,46,16,38,9,15,215,147,138,138,7,24,4,6,0.2,0.5
2022-06-14T16:00:00,1738A,113.5758,37.8572,阳泉市,市中心,臭氧1小时,63,36,34,11,12,170,170,113,113,14,23,14,11,0.5,0.5
2022-06-14T16:00:00,1739A,113.4894,37.8731,阳泉市,赛鱼,臭氧1小时,72,53,36,14,12,177,177,115,115,19,37,14,11,0.7,0.6
2022-06-14T16:00:00,1740A,113.5819,37.8486,阳泉市,南庄,臭氧1小时,65,56,35,16,15,172,172,117,117,15,25,11,12,0.6,0.6
2022-06-14T16:00:00,1742A,113.5614,37.8703,阳泉市,平坦,臭氧1小时,89,91,37,5,11,191,191,122,122,21,28,15,10,0.7,0.6
2022-06-14T16:00:00,1743A,113.5158,37.8392,阳泉市,大阳泉,臭氧1小时,58,38,14,15,14,166,166,110,110,16,25,15,10,0.6,0.5
2022-06-14T16:00:00,1744A,118.9233,42.2816,赤峰市,松山一中,,25,8,15,6,10,110,78,86,85,28,21,9,13,0.6,0.7
2022-06-14T16:00:00,1745A,118.9576,42.2728,赤峰市,哈达街,,21,18,19,4,6,116,67,86,86,31,20,15,18,0.6,0.6
2022-06-14T16:00:00,1746A,118.8788,42.2554,赤峰市,天义路,,26,7,13,10,6,111,81,88,87,24,14,9,12,0.6,0.5
2022-06-14T16:00:00,1748A,123.044,41.1196,鞍山市,深沟寺,,17,12,13,8,9,111,52,74,54,7,5,6,6,0.5,0.5
2022-06-14T16:00:00,1749A,123.011,41.0931,鞍山市,太阳城,,20,20,16,10,10,111,56,70,54,14,10,7,7,0.6,0.6
2022-06-14T16:00:00,1750A,123.0485,41.1442,鞍山市,太平,,24,24,16,12,11,118,70,92,66,16,10,8,8,0.5,0.6
2022-06-14T16:00:00,1751A,122.9642,41.0971,鞍山市,铁西三道街,,22,22,21,12,11,118,70,89,64,16,13,6,5,0.6,0.5
2022-06-14T16:00:00,1752A,122.9341,41.0833,鞍山市,铁西工业园区,,23,20,22,9,11,116,72,85,67,8,11,7,7,0.3,0.3
2022-06-14T16:00:00,1753A,123.022,41.0821,鞍山市,明达新区,,23,18,17,8,10,114,72,88,70,14,7,4,4,0.4,0.4
2022-06-14T16:00:00,1754A,123.1289,41.0228,鞍山市,千山(对照点),,,,19,,13,86,,75,17,,10,,3,,0.8
2022-06-14T16:00:00,1755A,123.7977,41.8491,抚顺市,望花区,,27,15,31,8,19,86,86,70,70,6,21,3,7,0.3,0.5
2022-06-14T16:00:00,1756A,123.9161,41.8822,抚顺市,顺城区,,26,17,28,13,15,83,83,65,65,15,23,10,8,0.5,0.4
2022-06-14T16:00:00,1757A,124.0436,41.8611,抚顺市,东洲区,,30,23,20,12,11,102,96,77,71,8,6,6,5,0.3,0.2
2022-06-14T16:00:00,1758A,123.9247,41.8642,抚顺市,新抚区,,29,20,28,10,15,90,90,71,71,9,18,6,4,0.5,0.6
2022-06-14T16:00:00,1759A,124.0972,41.8961,抚顺市,大伙房水库,,32,16,17,7,10,115,100,87,78,5,6,7,6,0.2,0.2
2022-06-14T16:00:00,1760A,123.7086,41.8391,抚顺市,沈抚新城,,27,12,29,6,16,86,86,76,76,4,19,6,7,0.1,0.5
2022-06-14T16:00:00,1761A,123.8275,41.3064,本溪市,大峪,,25,18,22,2,6,111,80,77,67,8,9,6,5,0.3,0.4
2022-06-14T16:00:00,1762A,123.7567,41.3325,本溪市,溪湖,,26,20,18,6,8,100,82,72,70,8,10,9,8,0.5,0.5
2022-06-14T16:00:00,1763A,123.7169,41.3094,本溪市,彩屯,,26,25,38,8,18,87,83,57,57,11,38,13,23,0.6,1.6
2022-06-14T16:00:00,1764A,123.7669,41.2864,本溪市,东明,,27,17,16,5,8,115,86,87,72,8,9,9,9,0.4,0.5
2022-06-14T16:00:00,1765A,123.7992,41.2664,本溪市,新立屯,,28,10,12,5,8,110,87,85,67,2,2,4,3,0.6,0.7
2022-06-14T16:00:00,1766A,123.8142,41.3472,本溪市,威宁,,29,14,24,5,8,118,90,75,75,1,7,8,17,0.2,0.3
2022-06-14T16:00:00,1767A,121.1115,41.0879,锦州市,南山,,18,12,20,12,18,105,56,82,57,6,9,5,6,0.6,0.6
2022-06-14T16:00:00,1768A,121.0533,40.8434,锦州市,开发区,,,,24,14,15,106,64,83,68,5,15,5,6,0.6,0.7
2022-06-14T16:00:00,1769A,121.1836,41.1119,锦州市,百股街道,,21,12,17,10,12,113,67,100,71,11,10,6,5,0.7,0.6
2022-06-14T16:00:00,1770A,121.1178,41.1222,锦州市,天安街道,,20,20,25,10,19,117,62,97,66,12,14,5,8,0.5,0.7
2022-06-14T16:00:00,1771A,121.1303,41.1386,锦州市,北湖公园,颗粒物(PM10),69,88,20,10,18,114,64,92,69,13,13,5,6,0.6,0.6
2022-06-14T16:00:00,1772A,126.54,43.8622,吉林市,哈达湾,,29,8,15,4,7,107,92,76,75,5,7,3,3,0.4,0.4
2022-06-14T16:00:00,1773A,126.5844,43.8358,吉林市,东局子,,29,6,12,5,8,108,90,72,72,6,7,4,5,0.5,0.5
2022-06-14T16:00:00,1774A,126.5052,43.8245,吉林市,电力学院,,29,12,16,11,10,106,92,75,75,5,8,5,3,0.6,0.5
2022-06-14T16:00:00,1775A,126.6133,43.8972,吉林市,江北,,28,9,16,2,8,109,89,73,73,4,9,8,8,0.6,0.6
2022-06-14T16:00:00,1776A,126.555,43.8306,吉林市,江南公园,,29,8,13,5,8,103,91,73,73,4,6,4,4,0.4,0.5
2022-06-14T16:00:00,1778A,126.7061,43.7133,吉林市,丰满(对照点),,30,7,12,6,9,114,94,74,74,4,3,4,4,0.5,0.5
2022-06-14T16:00:00,1779A,123.9305,47.3636,齐齐哈尔市,安居小区,颗粒物(PM10),53,56,36,14,14,118,103,112,95,17,17,6,6,0.5,0.6
2022-06-14T16:00:00,1780A,123.9488,47.3386,齐齐哈尔市,中心广场,,38,38,30,24,15,118,105,111,95,20,16,4,4,0.5,0.5
2022-06-14T16:00:00,1781A,123.9483,47.3227,齐齐哈尔市,农牧车辆厂,,41,41,36,18,13,127,113,113,103,12,9,3,3,0.3,0.3
2022-06-14T16:00:00,1783A,123.945,47.2988,齐齐哈尔市,市环境监测站,,39,31,26,18,13,134,122,117,111,9,8,7,6,0.5,0.4
2022-06-14T16:00:00,1784A,129.61,44.561,牡丹江市,环保大楼,,25,13,13,4,5,78,77,72,72,10,5,3,3,0.4,0.4
2022-06-14T16:00:00,1785A,129.6115,44.5782,牡丹江市,文化广场,,26,15,11,4,6,81,81,70,70,7,6,2,2,0.2,0.2
2022-06-14T16:00:00,1786A,129.5904,44.5963,牡丹江市,第一医院,,23,5,5,4,8,73,73,64,64,6,6,2,2,0.5,0.5
2022-06-14T16:00:00,1787A,129.6364,44.6075,牡丹江市,机车工厂,,26,16,14,6,9,81,81,71,71,8,5,8,3,0.2,0.2
2022-06-14T16:00:00,1788A,129.6386,44.5462,牡丹江市,第一中学,,27,10,15,5,7,84,84,71,71,6,8,2,2,0.4,0.3
2022-06-14T16:00:00,1789A,124.81117,46.03138,大庆市,大同区,,,,23,,17,130,121,108,108,11,10,5,5,0.4,0.5
2022-06-14T16:00:00,1790A,125.129,46.533,大庆市,龙凤区,,39,16,16,10,10,124,122,110,110,11,10,8,7,0.3,0.3
2022-06-14T16:00:00,1791A,124.902,46.408,大庆市,红岗区,,37,17,22,22,15,118,118,107,107,10,7,2,3,0.3,0.4
2022-06-14T16:00:00,1792A,125.153,46.586,大庆市,萨尔图区,,38,37,32,12,17,121,121,109,109,9,8,5,5,0.4,0.4
2022-06-14T16:00:00,1793A,124.9042,46.6215,大庆市,让胡路区,,36,26,20,22,21,116,115,106,106,7,8,2,2,0.5,0.5
2022-06-14T16:00:00,1794A,118.3606,31.3519,芜湖市,监测站,臭氧1小时,52,38,35,10,6,172,161,143,143,19,27,9,9,0.6,0.6
2022-06-14T16:00:00,1795A,118.3714,31.4134,芜湖市,科创中心,臭氧1小时,59,42,34,16,13,180,167,152,152,13,31,6,7,0.7,0.7
2022-06-14T16:00:00,1796A,118.3673,31.3131,芜湖市,四水厂,臭氧1小时,82,40,37,22,13,185,185,153,153,20,22,9,8,0.7,0.6
2022-06-14T16:00:00,1798A,118.5092,31.6837,马鞍山市,湖东路四小,臭氧1小时,83,14,32,6,15,186,186,159,159,4,17,7,9,0.4,0.7
2022-06-14T16:00:00,1799A,118.5024,31.6449,马鞍山市,开发区,臭氧1小时,73,27,34,7,19,181,178,157,157,7,18,7,9,0.5,0.7
2022-06-14T16:00:00,1800A,118.5228,31.7231,马鞍山市,慈湖,臭氧1小时,57,14,38,11,16,168,165,148,148,17,23,13,8,0.9,0.7
2022-06-14T16:00:00,1802A,118.6245,31.7241,马鞍山市,濮塘(对照点),臭氧1小时,65,21,29,9,14,182,172,160,160,16,8,16,10,0.8,0.6
2022-06-14T16:00:00,1803A,115.9872,29.6815,九江市,十里,,41,34,45,26,28,170,129,131,131,7,23,8,9,0.4,0.7
2022-06-14T16:00:00,1804A,115.9584,29.7046,九江市,茅山头,,39,34,41,17,26,174,124,125,125,7,17,4,7,0.5,0.7
2022-06-14T16:00:00,1805A,115.9877,29.7295,九江市,西园,,40,38,51,21,27,166,127,129,129,18,28,7,8,1.1,1.1
2022-06-14T16:00:00,1806A,116.0172,29.6547,九江市,五七二七厂,,42,36,42,15,22,163,132,132,132,10,6,6,6,0.7,0.6
2022-06-14T16:00:00,1808A,115.9114,29.6038,九江市,综合工业园,,42,38,44,19,24,155,133,128,128,8,20,7,9,0.6,0.6
2022-06-14T16:00:00,1809A,116.0721,29.7535,九江市,石化总厂,,45,45,51,17,25,159,131,112,112,9,31,8,8,0.6,0.6
2022-06-14T16:00:00,1810A,115.9773,29.5698,九江市,庐山气象台(对照点),,39,20,38,15,28,160,122,160,117,4,5,13,12,0.1,0.5
2022-06-14T16:00:00,1812A,112.3931,34.6516,洛阳市,市委党校,,46,30,51,10,15,177,145,151,151,3,14,5,7,0.1,0.5
2022-06-14T16:00:00,1814A,112.4657,34.6871,洛阳市,豫西宾馆,臭氧1小时,58,44,55,10,18,194,166,164,164,5,17,2,3,0.1,0.5
2022-06-14T16:00:00,1815A,112.494,34.6886,洛阳市,河南林校,臭氧1小时,52,24,49,10,15,190,161,159,159,9,18,6,6,0.2,0.3
2022-06-14T16:00:00,1816A,112.3844,34.623,洛阳市,开发区管委会,,49,35,48,11,16,182,154,160,160,7,14,3,4,0.1,0.3
2022-06-14T16:00:00,1817A,112.4267,34.6258,洛阳市,市委新办公区,,47,28,48,8,15,177,150,154,154,12,19,4,6,0.2,0.4
2022-06-14T16:00:00,1818A,114.4839,36.0621,安阳市,棉研所(对照点),臭氧1小时,62,29,41,7,7,169,169,137,137,9,20,6,7,0.4,0.6
2022-06-14T16:00:00,1819A,114.3551,36.1017,安阳市,红庙街,臭氧1小时,64,25,44,5,14,172,171,145,145,12,23,8,11,0.3,0.8
2022-06-14T16:00:00,1820A,114.361,36.0681,安阳市,银杏小区,臭氧1小时,54,25,46,8,18,166,163,144,144,8,21,6,9,0.2,0.6
2022-06-14T16:00:00,1824A,114.3389,34.7781,开封市,肿瘤医院,臭氧1小时,94,40,56,16,16,200,195,166,166,6,9,7,7,0.3,0.4
2022-06-14T16:00:00,1826A,114.2885,34.7965,开封市,世纪星幼儿园,臭氧1小时,85,32,52,8,14,188,188,160,160,8,13,5,5,0.4,0.5
2022-06-14T16:00:00,1828A,113.2269,35.2127,焦作市,市环保局,臭氧1小时,87,25,40,7,11,189,189,146,146,11,16,5,6,0.3,0.4
2022-06-14T16:00:00,1829A,113.2467,35.176,焦作市,高新区政府,臭氧1小时,67,38,58,14,14,175,173,141,141,14,16,4,5,0.3,0.4
2022-06-14T16:00:00,1830A,113.1987,35.2703,焦作市,影视城(对照点),臭氧1小时,82,19,29,10,15,185,185,141,141,8,12,9,9,0.4,0.6
2022-06-14T16:00:00,1832A,113.3257,33.742,平顶山市,新华旅馆,臭氧1小时,87,37,52,8,12,198,189,162,162,11,17,10,6,0.3,0.4
2022-06-14T16:00:00,1833A,113.2919,33.737,平顶山市,规划设计院,臭氧1小时,93,29,52,11,12,201,194,169,169,12,19,12,8,0.3,0.3
2022-06-14T16:00:00,1834A,113.182,33.774,平顶山市,平顶山工学院,,47,28,57,12,18,157,149,143,143,10,17,4,7,0.3,0.4
2022-06-14T16:00:00,1835A,111.1922,34.7752,三门峡市,市政府,臭氧1小时,79,34,47,8,14,186,183,140,140,11,29,11,10,0.3,0.5
2022-06-14T16:00:00,1836A,111.1587,34.7942,三门峡市,开发区,臭氧1小时,63,48,50,14,21,174,170,122,122,4,18,6,7,0.3,0.5
2022-06-14T16:00:00,1838A,111.143,34.7955,三门峡市,风景区(对照点),臭氧1小时,77,41,49,5,10,185,181,144,144,5,16,5,6,0.2,0.3
2022-06-14T16:00:00,1840A,111.2992,30.6981,宜昌市,白龙岗,臭氧1小时,53,48,38,19,16,175,162,124,124,23,27,6,5,0.5,0.5
2022-06-14T16:00:00,1841A,111.3549,30.6465,宜昌市,伍家岗,,50,44,38,27,19,165,160,112,112,16,32,6,6,0.5,0.5
2022-06-14T16:00:00,1842A,111.2628,30.6961,宜昌市,点军区,臭氧1小时,70,43,41,22,17,192,176,114,114,23,27,7,6,0.5,0.4
2022-06-14T16:00:00,1843A,111.3275,30.7819,宜昌市,夷陵区,,,42,38,17,15,169,158,124,124,,23,,6,0.4,0.4
2022-06-14T16:00:00,1844A,112.2494,30.3197,荆州市,市图书馆,,46,44,35,24,20,151,145,116,116,9,14,8,9,0.5,0.6
2022-06-14T16:00:00,1845A,112.2008,30.3544,荆州市,市委党校,颗粒物(PM10),58,66,35,19,26,144,143,110,110,7,13,8,9,0.5,0.7
2022-06-14T16:00:00,1847A,113.1094,29.3578,岳阳市,南湖风景区,,,28,26,10,16,154,150,124,124,8,13,13,11,,0.5
2022-06-14T16:00:00,1848A,113.1493,29.4251,岳阳市,城陵矶,,35,19,28,17,19,126,112,105,105,28,17,7,10,0.7,0.7
2022-06-14T16:00:00,1849A,113.1497,29.3575,岳阳市,开发区,臭氧1小时,64,24,30,14,13,171,171,130,130,5,14,7,8,0.6,0.6
2022-06-14T16:00:00,1850A,113.2621,29.4758,岳阳市,云溪区,,47,22,28,14,18,148,148,116,116,12,15,9,11,0.6,0.6
2022-06-14T16:00:00,1851A,112.9943,29.4402,岳阳市,君山区,,42,26,25,15,17,135,132,114,114,4,7,5,6,0.6,0.5
2022-06-14T16:00:00,1852A,113.2117,29.355,岳阳市,金凤水库(对照点),,45,12,26,10,19,142,142,109,109,3,11,6,7,0.7,0.7
2022-06-14T16:00:00,1854A,111.6975,28.9703,常德市,市二中,,30,14,21,16,13,126,93,81,81,11,9,6,5,0.4,0.4
2022-06-14T16:00:00,1857A,111.7158,29.1456,常德市,白鹤山(对照点),,43,24,20,10,9,136,136,86,86,4,3,6,6,0.3,0.3
2022-06-14T16:00:00,1858A,110.5319,29.1217,张家界市,永定新区,,34,22,20,12,12,108,108,80,80,5,7,1,1,0.3,0.4
2022-06-14T16:00:00,1859A,110.4697,29.1242,张家界市,电业局,,30,11,10,7,7,105,96,74,74,5,8,3,3,0.0,0.1
2022-06-14T16:00:00,1860A,110.5594,29.3547,张家界市,未央路,,30,18,15,2,4,99,94,78,78,4,6,2,2,0.3,0.3
2022-06-14T16:00:00,1861A,110.4417,29.315,张家界市,袁家界(对照点),,39,18,18,9,6,129,123,114,114,6,5,1,1,0.3,0.3
2022-06-14T16:00:00,1862A,110.4144,25.3167,桂林市,电子科大尧山校区(对照点),,34,22,13,13,5,108,108,86,86,6,5,7,7,0.6,0.6
2022-06-14T16:00:00,1863A,110.2819,25.2697,桂林市,监测站,,37,27,32,19,18,117,117,86,86,6,13,7,21,0.6,0.7
2022-06-14T16:00:00,1864A,110.3089,25.2708,桂林市,龙隐路小学,,36,27,23,18,14,113,113,84,84,10,11,7,12,0.5,0.5
2022-06-14T16:00:00,1865A,110.2869,25.2178,桂林市,八中,,34,31,33,17,15,108,107,84,84,9,15,8,17,0.6,0.8
2022-06-14T16:00:00,1866A,109.2262,21.588,北海市,牛尾岭水库(对照点),,13,9,17,7,11,73,41,39,39,4,7,3,3,0.5,0.5
2022-06-14T16:00:00,1867A,109.1436,21.4086,北海市,海滩公园,,18,8,27,2,9,89,56,55,55,4,5,3,3,0.6,0.5
2022-06-14T16:00:00,1868A,109.0981,21.4661,北海市,新市环保局,,20,10,17,5,11,84,61,57,57,3,4,3,4,0.6,0.6
2022-06-14T16:00:00,1869A,109.1778,21.5233,北海市,北海工业园,,16,14,21,5,10,86,50,51,51,9,7,5,6,0.5,0.5
2022-06-14T16:00:00,1870A,109.4856,24.3895,柳州市,柳东小学,,,12,18,9,14,84,84,63,63,,4,6,10,0.5,0.6
2022-06-14T16:00:00,1871A,109.4157,24.3277,柳州市,环保监测站,,29,20,21,8,10,90,90,56,56,6,12,6,10,0.7,0.9
2022-06-14T16:00:00,1872A,109.389,24.341,柳州市,河西水厂,,29,27,22,17,13,92,90,57,57,11,14,14,14,0.9,1
2022-06-14T16:00:00,1873A,109.4311,24.2921,柳州市,市四中,,27,22,22,18,15,86,84,55,55,5,11,7,10,0.5,0.6
2022-06-14T16:00:00,1874A,109.4006,24.3631,柳州市,市九中,,40,40,28,20,14,85,81,56,56,14,14,12,15,1.0,0.9
2022-06-14T16:00:00,1875A,109.4958,24.3134,柳州市,古亭山,,29,29,20,14,9,77,77,55,55,8,7,4,5,0.6,0.6
2022-06-14T16:00:00,1876A,109.5078,18.2489,三亚市,河东子站,,24,24,20,8,9,72,60,70,63,6,5,2,2,0.4,0.4
2022-06-14T16:00:00,1878A,104.7778,31.4741,绵阳市,富乐山,臭氧1小时,62,48,58,31,36,205,169,148,148,10,23,7,6,0.6,0.7
2022-06-14T16:00:00,1879A,104.7563,31.4535,绵阳市,市人大,臭氧1小时,60,58,96,39,50,198,168,142,142,10,35,7,9,0.4,0.6
2022-06-14T16:00:00,1880A,104.6697,31.4668,绵阳市,高新区自来水公司,臭氧1小时,73,56,85,34,54,178,178,126,126,12,34,7,8,0.6,0.8
2022-06-14T16:00:00,1881A,104.7287,31.5075,绵阳市,三水厂,,,,93,,62,238,170,144,144,16,32,7,8,0.5,0.7
2022-06-14T16:00:00,1882A,104.563,28.793,宜宾市,石马中学(对照点),,43,29,19,11,10,148,136,106,106,12,9,8,5,0.4,0.4
2022-06-14T16:00:00,1883A,104.6201,28.7728,宜宾市,市委,,44,33,32,13,14,138,138,96,96,13,25,16,7,0.4,0.5
2022-06-14T16:00:00,1884A,104.6055,28.793,宜宾市,宜宾四中,,42,30,27,15,14,140,133,105,105,17,20,20,8,0.4,0.5
2022-06-14T16:00:00,1885A,104.639,28.7562,宜宾市,市政府,,48,47,36,15,16,151,151,102,102,18,28,11,7,0.4,0.6
2022-06-14T16:00:00,1886A,104.5742,28.7199,宜宾市,黄金嘴,,44,29,24,12,11,147,138,106,106,20,17,9,8,0.5,0.5
2022-06-14T16:00:00,1888A,101.6891,26.571,攀枝花市,弄弄坪,,31,19,17,19,11,99,99,74,58,17,20,8,7,1.6,1.2
2022-06-14T16:00:00,1889A,101.5769,26.5928,攀枝花市,河门口,,30,20,16,10,8,102,96,75,75,13,20,4,8,0.7,1.1
2022-06-14T16:00:00,1890A,101.7169,26.585,攀枝花市,炳草岗,,,31,27,13,19,93,93,64,49,,25,25,16,1.6,1
2022-06-14T16:00:00,1891A,101.7369,26.5008,攀枝花市,仁和,,33,16,13,13,10,105,104,82,82,15,13,6,8,0.7,0.7
2022-06-14T16:00:00,1893A,105.4324,28.9634,泸州市,九狮山(对照点),臭氧1小时,60,15,29,4,10,178,168,110,110,15,17,7,7,0.3,0.4
2022-06-14T16:00:00,1894A,105.4427,28.9063,泸州市,小市上码头,,45,17,37,8,18,160,142,110,110,14,17,6,12,0.6,0.8
2022-06-14T16:00:00,1895A,105.4241,28.8573,泸州市,兰田宪桥,,,23,38,6,15,144,140,104,104,,17,5,9,0.4,0.6
2022-06-14T16:00:00,1896A,105.4379,28.8833,泸州市,市环监站,,46,20,37,6,12,156,145,100,100,11,23,5,11,0.5,0.6
2022-06-14T16:00:00,1901A,104.4239,31.1208,德阳市,东山公园,臭氧1小时,111,52,58,28,28,221,221,142,142,17,31,8,9,0.5,0.6
2022-06-14T16:00:00,1902A,104.3826,31.1317,德阳市,西小区,臭氧1小时,124,74,81,36,30,247,247,147,147,23,44,11,11,0.6,0.7
2022-06-14T16:00:00,1904A,104.3553,31.1091,德阳市,耐火材料厂,臭氧1小时,118,77,88,30,31,236,236,138,138,19,46,8,9,0.5,0.6
2022-06-14T16:00:00,1905A,106.056,30.8064,南充市,西山风景区(对照点),,37,27,32,22,24,122,118,106,106,8,9,2,3,0.6,0.6
2022-06-14T16:00:00,1906A,106.0789,30.8023,南充市,南充市委,,32,27,37,22,22,110,100,92,92,8,16,3,3,0.6,0.6
2022-06-14T16:00:00,1907A,106.1031,30.8217,南充市,南充炼油厂,,41,38,41,22,22,137,129,115,115,6,9,6,8,0.5,0.6
2022-06-14T16:00:00,1908A,106.1064,30.7856,南充市,高坪区监测站,,35,26,31,21,24,120,112,104,104,5,13,3,9,0.5,0.6
2022-06-14T16:00:00,1909A,106.0642,30.7636,南充市,嘉陵区环保局,,30,25,35,13,25,103,94,93,93,3,7,5,9,0.4,0.5
2022-06-14T16:00:00,1910A,106.1087,30.8388,南充市,市环境监测站,,35,34,37,21,25,119,111,104,104,7,13,2,4,0.5,0.5
2022-06-14T16:00:00,1911A,106.9222,27.6869,遵义市,丁字口,臭氧1小时,85,45,23,9,14,188,188,121,121,11,18,6,6,0.5,0.6
2022-06-14T16:00:00,1912A,106.9242,27.7019,遵义市,凤凰山,臭氧1小时,77,23,17,2,11,181,181,105,105,9,11,5,5,0.4,0.6
2022-06-14T16:00:00,1913A,106.8906,27.6486,遵义市,忠庄,臭氧1小时,69,37,24,17,14,175,175,107,107,13,18,1,2,0.4,0.5
2022-06-14T16:00:00,1914A,106.9231,27.6506,遵义市,舟水桥,臭氧1小时,52,24,32,11,10,166,161,104,104,8,18,2,2,0.4,0.6
2022-06-14T16:00:00,1915A,106.9178,27.72,遵义市,干田坝,臭氧1小时,75,32,19,17,12,180,180,115,115,9,13,6,5,0.6,0.6
2022-06-14T16:00:00,1916A,103.7897,25.5035,曲靖市,环境监测站,,39,8,17,13,13,123,122,108,108,12,16,6,8,0.4,0.5
2022-06-14T16:00:00,1917A,103.8,25.5364,曲靖市,烟厂办公区,,40,16,18,7,8,127,127,108,108,6,10,4,6,0.3,0.5
2022-06-14T16:00:00,1918A,108.7197,34.3956,咸阳市,气象站(对照点),臭氧1小时,74,77,88,13,19,195,179,147,147,11,44,6,7,0.6,0.8
2022-06-14T16:00:00,1919A,108.673,34.3155,咸阳市,实验中学,,47,45,60,13,18,192,149,133,133,9,31,4,5,0.3,0.4
2022-06-14T16:00:00,1920A,108.7233,34.3617,咸阳市,师范学院,颗粒物(PM10),57,63,73,12,17,202,163,146,146,14,39,10,7,0.2,0.4
2022-06-14T16:00:00,1922A,109.0656,35.0994,铜川市,党校(对照点),,48,39,63,22,13,153,153,113,113,10,33,9,8,0.6,0.6
2022-06-14T16:00:00,1923A,109.0697,35.0697,铜川市,王益区政府,颗粒物(PM10),59,68,64,14,10,162,162,131,131,14,25,5,9,0.4,0.5
2022-06-14T16:00:00,1924A,108.9344,34.9058,铜川市,新区管委会,,44,37,60,11,18,146,138,125,125,8,15,5,12,0.2,0.2
2022-06-14T16:00:00,1926A,109.4131,36.6275,延安市,枣园(对照点),,46,26,69,7,13,146,146,112,112,4,21,5,4,0.2,0.3
2022-06-14T16:00:00,1927A,109.4761,36.6028,延安市,延大医附院,,46,26,77,4,13,147,147,109,109,5,29,5,4,0.2,0.3
2022-06-14T16:00:00,1929A,109.5056,36.6106,延安市,百米大道,,45,34,78,11,16,143,143,102,102,6,29,4,4,0.3,0.4
2022-06-14T16:00:00,1930A,107.185,34.3063,宝鸡市,庙沟村(对照点),颗粒物(PM10),51,52,28,14,8,142,136,115,115,4,13,5,5,0.4,0.4
2022-06-14T16:00:00,1931A,107.0708,34.3017,宝鸡市,竹园沟,,44,36,29,11,8,149,139,122,122,6,14,5,5,0.3,0.3
2022-06-14T16:00:00,1932A,107.1906,34.3672,宝鸡市,三陆医院,,50,50,38,19,10,147,142,113,113,11,24,5,8,0.2,0.3
2022-06-14T16:00:00,1933A,107.1431,34.3547,宝鸡市,监测站,颗粒物(PM10),51,52,36,14,11,153,140,117,117,11,21,5,5,0.2,0.3
2022-06-14T16:00:00,1934A,107.1186,34.3739,宝鸡市,技工学校,颗粒物(PM10),56,62,45,12,13,149,144,120,120,13,16,4,5,0.3,0.3
2022-06-14T16:00:00,1935A,107.3906,34.3528,宝鸡市,陈仓区环保局家属楼,,46,40,53,14,21,150,147,116,116,9,29,6,28,0.4,0.6
2022-06-14T16:00:00,1936A,107.2058,34.3497,宝鸡市,文理学院,,48,45,38,7,7,154,151,121,121,11,20,7,8,0.1,0.2
2022-06-14T16:00:00,1937A,107.2386,34.3622,宝鸡市,三迪小学,颗粒物(PM10),55,60,43,18,12,157,157,118,118,12,27,7,8,0.1,0.2
2022-06-14T16:00:00,1938A,109.5293,34.5101,渭南市,农科所(对照点),,49,48,50,17,22,171,156,131,131,9,30,8,12,0.4,0.4
2022-06-14T16:00:00,1939A,109.4974,34.4877,渭南市,日报社,颗粒物(PM10),51,51,58,9,15,167,149,130,130,14,42,6,9,0.3,0.5
2022-06-14T16:00:00,1940A,109.4636,34.493,渭南市,体育馆,臭氧1小时,75,56,58,7,11,200,180,151,151,13,43,6,11,0.4,0.5
2022-06-14T16:00:00,1941A,109.4259,34.5023,渭南市,高新一小,臭氧1小时,65,55,69,7,16,187,172,143,143,10,39,4,8,0.3,0.5
2022-06-14T16:00:00,1943A,102.1725,38.5339,金昌市,新川苑,,41,27,35,1,7,131,131,119,119,10,22,4,16,0.4,0.5
2022-06-14T16:00:00,1944A,102.1692,38.5167,金昌市,天庆家园,,44,15,28,4,12,140,140,125,125,5,20,13,24,0.5,0.6
2022-06-14T16:00:00,1945A,98.2908,39.7711,嘉峪关市,气象局,,47,39,36,5,9,149,148,117,117,5,27,1,5,0.2,0.6
2022-06-14T16:00:00,1947A,106.3394,38.817,石嘴山市,沙湖旅游区(对照点),臭氧1小时,79,32,86,9,19,183,183,129,129,12,27,26,20,0.5,0.4
2022-06-14T16:00:00,1948A,106.3668,39.0145,石嘴山市,大武口朝阳西街,,,49,52,18,18,189,165,161,161,,28,20,24,0.6,0.9
2022-06-14T16:00:00,1949A,106.7704,39.2282,石嘴山市,惠农南大街,,39,39,57,17,21,167,115,110,110,15,34,10,16,0.4,0.6
2022-06-14T16:00:00,1950A,106.7099,39.1325,石嘴山市,红果子镇惠新街,,38,24,67,17,16,166,120,114,114,11,34,13,23,0.3,0.6
2022-06-14T16:00:00,1951A,84.895,45.6094,克拉玛依市,长征新村,,33,21,34,6,5,129,105,100,100,4,6,6,6,0.1,0.1
2022-06-14T16:00:00,1952A,84.8988,45.5893,克拉玛依市,南林小区,,35,30,30,15,11,124,111,107,104,5,10,8,8,0.3,0.3
2022-06-14T16:00:00,1954A,84.905,44.3396,克拉玛依市,独山子区,,36,36,38,22,15,129,109,102,102,4,5,6,6,0.3,0.3
2022-06-14T16:00:00,1955A,85.6979,46.098,克拉玛依市,乌尔禾区商贸楼,,33,1,44,5,12,124,104,94,94,2,2,10,10,0.1,0.1
2022-06-14T16:00:00,1956A,86.1472,41.7538,巴音郭楞州,孔雀公园,,33,22,62,4,16,134,103,100,100,4,29,3,4,0.4,0.6
2022-06-14T16:00:00,1957A,86.1972,41.7166,巴音郭楞州,棉纺厂,,36,34,87,10,24,133,115,99,99,8,27,5,5,0.3,0.4
2022-06-14T16:00:00,1958A,86.2357,41.7173,巴音郭楞州,经济开发区,,37,10,61,2,23,140,116,111,111,5,12,4,4,0.5,0.5
2022-06-14T16:00:00,1961A,117.532,36.6868,济南市,东山小学,臭氧1小时,67,54,31,22,10,173,173,128,128,9,18,9,8,0.2,0.2
2022-06-14T16:00:00,1966A,120.0405,35.8735,青岛市,黄岛区4号,颗粒物(PM10),51,51,20,29,9,146,129,120,115,35,16,15,7,1.6,0.5
2022-06-14T16:00:00,1982A,122.0693,37.2174,威海市,文登开发区,,27,7,18,9,12,110,85,96,96,22,15,4,4,0.3,0.3
2022-06-14T16:00:00,2031A,113.1817,27.9958,株洲市,云田中学,,43,29,32,17,23,135,135,93,93,6,13,5,3,0.6,0.7
2022-06-14T16:00:00,2054A,114.1099,32.1059,信阳市,平桥分局,臭氧1小时,64,50,36,11,22,174,171,150,150,7,8,9,8,0.4,0.4
2022-06-14T16:00:00,2064A,113.9956,32.1271,信阳市,南湾水厂,,49,38,34,21,19,159,156,139,139,3,4,4,5,0.2,0.3
2022-06-14T16:00:00,2065A,114.0775,32.1195,信阳市,市酿酒公司,臭氧1小时,60,36,38,15,21,181,168,153,153,6,6,8,7,0.3,0.3
2022-06-14T16:00:00,2066A,114.0609,32.1399,信阳市,审计局,臭氧1小时,57,42,41,10,21,179,165,154,154,3,6,6,6,0.3,0.4
2022-06-14T16:00:00,2067A,114.6613,33.6128,周口市,市环境监测站,臭氧1小时,88,30,36,7,11,190,190,159,159,9,11,5,5,0.2,0.6
2022-06-14T16:00:00,2068A,114.6758,33.6347,周口市,周口师范,臭氧1小时,88,26,37,6,8,190,190,159,159,16,17,4,4,0.2,0.4
2022-06-14T16:00:00,2069A,114.6546,33.5979,周口市,市运管处,臭氧1小时,87,35,34,3,9,189,189,157,157,15,15,4,4,0.3,0.5
2022-06-14T16:00:00,2070A,114.6369,33.6406,周口市,川汇区环保局,臭氧1小时,95,30,40,12,14,196,196,163,163,14,14,2,2,0.2,0.3
2022-06-14T16:00:00,2075A,117.6336,24.4674,漳州市,九湖(对照点),,,,,,,93,28,37,37,13,13,7,14,0.5,0.6
2022-06-14T16:00:00,2160A,112.85,35.5051,晋城市,自来水公司,,50,21,36,5,5,160,159,128,128,10,21,6,9,0.4,0.6
2022-06-14T16:00:00,2161A,112.8318,35.4936,晋城市,白云商贸,,,27,38,2,6,168,158,131,131,,20,1,5,0.2,0.5
2022-06-14T16:00:00,2162A,112.8508,35.4887,晋城市,市环保局,,50,12,35,5,11,165,159,129,129,7,19,6,8,0.3,0.6
2022-06-14T16:00:00,2163A,112.8676,35.4897,晋城市,技术学院,,48,30,41,5,8,164,152,127,127,9,21,4,6,0.2,0.6
2022-06-14T16:00:00,2165A,112.8453,35.546,晋城市,白马寺 (对照点),臭氧1小时,85,29,43,5,8,194,188,148,148,10,16,6,11,0.6,0.9
2022-06-14T16:00:00,2166A,112.4397,39.3522,朔州市,平朔,,40,27,40,19,14,128,125,102,102,14,32,10,11,0.4,0.4
2022-06-14T16:00:00,2167A,112.4575,39.3617,朔州市,朔唯,,40,22,47,19,16,126,125,100,100,16,41,5,8,0.6,0.5
2022-06-14T16:00:00,2168A,112.4258,39.3197,朔州市,区政府,,,24,44,,8,129,129,115,115,15,29,6,8,,0.6
2022-06-14T16:00:00,2169A,112.4072,39.3278,朔州市,市环保局,,42,34,49,7,10,135,134,120,120,12,28,6,8,0.5,0.5
2022-06-14T16:00:00,2170A,112.4272,39.3681,朔州市,市二中,,37,31,45,21,17,125,117,103,103,16,36,13,11,0.4,0.4
2022-06-14T16:00:00,2171A,112.7532,37.6945,晋中市,锦纶小区,,,,36,4,11,161,152,124,124,7,30,6,9,,0.4
2022-06-14T16:00:00,2173A,112.7249,37.7067,晋中市,南都小区,,45,13,41,4,13,154,143,116,116,6,28,4,8,0.1,0.4
2022-06-14T16:00:00,2174A,112.6991,37.6982,晋中市,榆次区政府,,45,15,38,10,15,152,141,114,114,5,27,5,8,0.1,0.6
2022-06-14T16:00:00,2175A,110.9956,35.0147,运城市,运城中学,臭氧1小时,68,41,52,13,24,188,174,151,151,8,19,6,9,0.2,0.5
2022-06-14T16:00:00,2178A,110.9686,35.0303,运城市,地区技校,,50,44,51,16,15,176,160,141,141,8,21,5,7,0.3,0.6
2022-06-14T16:00:00,2179A,111.0414,35.1147,运城市,空港新区,臭氧1小时,60,49,59,17,18,180,168,146,146,7,20,9,12,0.3,0.6
2022-06-14T16:00:00,2181A,112.7383,38.4519,忻州市,开发区,,46,24,28,8,11,146,146,110,110,9,27,10,12,0.4,0.5
2022-06-14T16:00:00,2182A,112.7003,38.4928,忻州市,会展中心,,,16,21,5,7,127,,87,87,12,28,9,11,0.4,0.5
2022-06-14T16:00:00,2183A,111.1406,37.5211,吕梁市,环保局,,48,35,47,6,6,151,151,106,106,6,32,8,4,0.3,0.2
2022-06-14T16:00:00,2185A,111.1297,37.5136,吕梁市,自来水公司,,47,42,63,4,8,148,148,106,106,13,31,1,6,0.4,0.2
2022-06-14T16:00:00,2187A,106.8174,39.6973,乌海市,市林业局,,40,19,61,6,19,134,128,107,107,5,30,7,36,0.5,0.9
2022-06-14T16:00:00,2188A,106.7907,39.6667,乌海市,中海勃湾学校,,42,14,54,7,18,135,134,114,114,9,37,10,34,0.3,0.9
2022-06-14T16:00:00,2191A,122.2532,43.6801,通辽市,艺术职业学校,,35,21,32,5,11,129,112,108,102,14,15,5,6,1.0,0.4
2022-06-14T16:00:00,2192A,119.7594,49.2261,呼伦贝尔市,区环保局,,33,33,25,22,20,97,80,79,79,20,14,5,5,0.5,0.4
2022-06-14T16:00:00,2195A,107.4212,40.761,巴彦淖尔市,附二中,,39,25,52,6,16,123,122,103,103,5,26,3,13,0.4,0.5
2022-06-14T16:00:00,2196A,107.37,40.7372,巴彦淖尔市,市环保大楼,,38,26,39,15,22,124,119,105,105,8,18,3,8,0.3,0.4
2022-06-14T16:00:00,2197A,113.1306,40.9923,乌兰察布市,集宁新区,,37,10,17,8,10,121,116,113,113,6,8,5,6,0.3,0.3
2022-06-14T16:00:00,2200A,122.0392,46.0656,兴安盟,胜华新制药厂,,31,29,34,17,26,109,98,98,98,7,9,4,4,0.2,0.6
2022-06-14T16:00:00,2201A,121.9504,46.0741,兴安盟,科右前旗环保局,,16,0,30,0,26,132,51,93,93,2,9,2,3,0.7,0.3
2022-06-14T16:00:00,2202A,116.1042,43.9317,锡林郭勒盟,市环保监测站,,31,10,8,11,4,104,98,94,94,10,7,12,12,0.4,0.5
2022-06-14T16:00:00,2203A,116.0781,43.9311,锡林郭勒盟,市政府,,31,10,8,2,4,109,99,101,101,15,10,10,8,0.5,0.4
2022-06-14T16:00:00,2204A,105.6467,38.8363,阿拉善盟,西城区西花园(对照点),,39,13,26,7,13,126,124,121,121,5,6,6,7,0.3,0.3
2022-06-14T16:00:00,2205A,105.6985,38.8411,阿拉善盟,蒙二幼,,40,16,26,14,16,127,127,121,121,4,5,8,8,0.3,0.3
2022-06-14T16:00:00,2206A,105.724,38.8516,阿拉善盟,环保局新楼,,38,7,22,5,14,121,119,116,116,6,6,7,8,0.2,0.3
2022-06-14T16:00:00,2207A,121.6094,41.998,阜新市,工业园区,,24,24,25,12,12,130,68,94,70,11,14,10,12,0.5,0.6
2022-06-14T16:00:00,2208A,121.6697,42.0279,阜新市,长青街,,30,30,30,18,15,118,62,91,63,13,12,14,14,0.6,0.6
2022-06-14T16:00:00,2209A,121.6673,42.0705,阜新市,农业园区,,36,33,24,25,15,126,68,107,73,10,9,10,11,0.6,0.6
2022-06-14T16:00:00,2210A,121.6717,42.0224,阜新市,东苑,,40,40,35,24,18,121,64,101,68,18,18,10,13,0.7,0.4
2022-06-14T16:00:00,2211A,121.6506,42.0498,阜新市,玉龙新城,,26,26,23,13,11,119,60,86,68,11,11,10,10,0.4,0.4
2022-06-14T16:00:00,2212A,123.2,41.1953,辽阳市,宏伟区,,25,25,18,7,8,101,76,72,69,8,6,10,7,0.3,0.4
2022-06-14T16:00:00,2213A,123.1683,41.2495,辽阳市,新华园,,33,33,22,7,10,100,73,87,69,16,11,10,6,0.1,0.2
2022-06-14T16:00:00,2214A,123.2354,41.2639,辽阳市,滨河路,,23,11,27,9,18,89,71,75,60,10,17,16,10,0.3,0.4
2022-06-14T16:00:00,2215A,123.149,41.2991,辽阳市,铁西工业园,,25,25,30,15,21,93,43,67,52,45,21,10,8,0.5,0.5
2022-06-14T16:00:00,2216A,123.8139,42.3022,铁岭市,汇工街西,,34,13,28,8,14,107,107,90,85,15,22,8,12,0.3,0.3
2022-06-14T16:00:00,2217A,123.8649,42.2923,铁岭市,水上乐园,,30,17,27,9,19,96,96,76,74,15,21,5,5,0.3,0.3
2022-06-14T16:00:00,2218A,123.8486,42.2867,铁岭市,银州路东段,,,,32,3,12,95,82,70,70,16,20,,6,0.3,0.3
2022-06-14T16:00:00,2219A,123.7153,42.2217,铁岭市,金沙江路北,,28,20,24,7,11,92,88,87,68,18,25,6,5,0.4,0.4
2022-06-14T16:00:00,2220A,120.4318,41.5881,朝阳市,西梁,,20,2,24,5,14,108,61,101,69,8,7,6,7,0.6,0.6
2022-06-14T16:00:00,2221A,120.4521,41.5646,朝阳市,河畔小区,,20,11,27,8,16,108,63,105,73,7,6,7,10,0.4,0.5
2022-06-14T16:00:00,2222A,120.4176,41.5648,朝阳市,八里堡,,21,12,22,11,17,106,67,99,75,8,10,6,7,0.6,0.6
2022-06-14T16:00:00,2223A,120.3806,41.5969,朝阳市,农业园区,,,8,26,8,15,115,69,94,72,8,8,8,8,,0.6
2022-06-14T16:00:00,2225A,124.4002,43.1713,四平市,一商场,,33,17,26,4,11,112,104,88,88,15,17,8,8,0.2,0.3
2022-06-14T16:00:00,2226A,124.388,43.193,四平市,境园,,30,13,27,2,7,95,94,81,81,11,15,4,4,0.4,0.2
2022-06-14T16:00:00,2227A,125.1358,42.8845,辽源市,环保局,,29,17,25,12,17,113,91,85,83,13,11,7,18,0.5,0.5
2022-06-14T16:00:00,2229A,125.9358,41.7173,通化市,光明,,29,10,21,8,10,100,92,80,80,7,11,8,9,0.5,0.8
2022-06-14T16:00:00,2230A,125.9446,41.7325,通化市,铁路,,28,12,20,4,10,97,89,83,83,9,13,7,8,0.6,0.7
2022-06-14T16:00:00,2231A,126.4219,41.9171,白山市,喜丰,,26,20,33,8,10,94,82,70,70,6,19,8,11,0.5,0.6
2022-06-14T16:00:00,2232A,126.4077,41.9419,白山市,环保局,,29,29,29,3,8,105,89,76,76,10,14,8,8,0.6,0.6
2022-06-14T16:00:00,2233A,124.8006,45.1214,松原市,江南,,35,23,18,16,13,120,110,101,101,11,14,2,7,0.4,0.5
2022-06-14T16:00:00,2234A,124.7965,45.1722,松原市,江北,,46,46,21,11,12,138,115,110,110,9,10,3,3,0.5,0.5
2022-06-14T16:00:00,2235A,122.7911,45.6077,白城市,洮北区环保局,,39,27,30,12,13,123,123,110,110,9,12,8,8,0.1,0.1
2022-06-14T16:00:00,2236A,122.8738,45.5725,白城市,市环保局,,36,23,34,12,21,114,114,101,101,8,10,4,5,0.0,0.1
2022-06-14T16:00:00,2237A,129.47,42.8883,延边朝鲜族自治州,妇幼医院,,39,39,11,3,3,65,62,61,61,6,6,6,6,0.4,0.5
2022-06-14T16:00:00,2238A,129.5055,42.9108,延边朝鲜族自治州,延边医院,,21,20,12,3,4,69,66,64,64,5,6,6,6,0.5,0.5
2022-06-14T16:00:00,2239A,129.3964,42.8881,延边朝鲜族自治州,朝阳川镇医院,,23,23,11,2,2,67,63,62,62,5,6,5,5,0.4,0.4
2022-06-14T16:00:00,2240A,130.9762,45.3001,鸡西市,环保局,,22,17,17,3,5,71,69,64,64,16,21,2,4,0.2,0.2
2022-06-14T16:00:00,2243A,130.9429,45.3039,鸡西市,第一中学,,25,25,19,2,4,79,72,73,73,16,17,5,6,0.2,0.2
2022-06-14T16:00:00,2244A,130.2537,47.3416,鹤岗市,哈啤分公司,,40,14,19,4,9,135,127,95,95,7,18,6,7,0.3,0.3
2022-06-14T16:00:00,2245A,130.2684,47.3086,鹤岗市,斯达机电,,38,15,22,8,9,131,120,93,93,5,13,10,10,0.3,0.3
2022-06-14T16:00:00,2246A,130.3114,47.3388,鹤岗市,东山纸板厂,,35,22,23,9,12,122,112,90,90,9,19,9,10,0.2,0.3
2022-06-14T16:00:00,2247A,130.1097,47.3382,鹤岗市,五号水库(对照点),,37,17,13,6,6,122,116,91,91,7,12,6,7,0.2,0.3
2022-06-14T16:00:00,2248A,131.1511,46.6937,双鸭山市,双合村,,34,12,17,4,6,108,108,95,95,8,11,6,7,0.1,0.2
2022-06-14T16:00:00,2249A,131.1652,46.6191,双鸭山市,南小市,,33,22,23,4,6,103,103,87,87,4,8,4,4,0.0,0
2022-06-14T16:00:00,2250A,131.1524,46.6554,双鸭山市,环保局,,35,12,17,10,9,110,110,92,92,4,9,2,4,0,0.2
2022-06-14T16:00:00,2251A,131.12,46.5656,双鸭山市,苗圃(对照点),,,18,14,11,11,107,107,93,93,3,5,,,0.4,0.4
2022-06-14T16:00:00,2252A,128.5159,47.4311,伊春市,环保局,,33,11,13,4,13,108,104,95,95,4,6,6,6,0.2,0.3
2022-06-14T16:00:00,2253A,128.9102,47.7412,伊春市,电力嘉园,,34,9,21,4,10,118,106,102,102,9,10,5,6,0.4,0.5
2022-06-14T16:00:00,2254A,129.5029,48.471,伊春市,汤旺河国家公园(对照点),,37,13,14,4,11,123,117,108,108,5,4,5,5,0.3,0.3
2022-06-14T16:00:00,2255A,130.2751,46.8028,佳木斯市,佳纺,,32,29,18,16,15,116,101,95,95,6,12,2,3,0.3,0.3
2022-06-14T16:00:00,2256A,130.3995,46.8307,佳木斯市,发电厂,,35,24,22,12,11,133,109,93,93,9,15,10,6,0.3,0.3
2022-06-14T16:00:00,2257A,130.3258,46.7975,佳木斯市,环保局,,34,25,23,9,11,135,106,92,92,6,10,3,2,0.4,0.4
2022-06-14T16:00:00,2258A,130.3648,46.8032,佳木斯市,十一中,,32,28,23,10,13,123,100,87,87,10,16,8,8,0.4,0.4
2022-06-14T16:00:00,2259A,130.3794,46.7588,佳木斯市,四丰(对照点),,34,21,16,11,8,130,106,93,93,6,11,5,5,0.4,0.4
2022-06-14T16:00:00,2262A,131.0518,45.8751,七台河市,新一中(对照点),,32,14,16,6,6,103,101,90,90,8,17,7,7,0.5,0.6
2022-06-14T16:00:00,2263A,127.4833,50.2524,黑河市,交通局,,36,12,18,6,14,116,115,104,104,5,13,6,4,0.4,1
2022-06-14T16:00:00,2264A,127.5144,50.2341,黑河市,环保局,,40,28,20,10,13,126,126,112,112,8,11,2,3,0.4,0.4
2022-06-14T16:00:00,2265A,127.5291,50.2472,黑河市,大黑河岛(对照点),,43,19,14,9,12,135,135,120,120,5,8,5,5,0.6,0.6
2022-06-14T16:00:00,2266A,126.9785,46.6365,绥化市,人和东街,,38,30,22,10,14,137,119,106,106,15,20,10,10,0.3,0.2
2022-06-14T16:00:00,2267A,126.964,46.6528,绥化市,党政办公中心,,39,30,20,12,14,129,122,101,101,10,16,9,11,0.4,0.4
2022-06-14T16:00:00,2269A,124.1069,50.4097,大兴安岭地区,科技局,,34,7,13,9,11,106,106,101,101,5,10,4,4,0.4,0.4
2022-06-14T16:00:00,2270A,117.396,32.939,蚌埠市,工人疗养院,臭氧1小时,64,20,39,14,15,186,171,149,149,5,9,6,6,0.2,0.2
2022-06-14T16:00:00,2271A,117.3605,32.9427,蚌埠市,百货大楼,臭氧1小时,75,26,45,6,8,181,180,150,150,8,12,6,6,0.3,0.3
2022-06-14T16:00:00,2273A,117.4185,32.8911,蚌埠市,蚌埠学院,臭氧1小时,58,22,31,9,11,172,166,144,144,5,9,8,7,0.2,0.2
2022-06-14T16:00:00,2274A,117.3533,32.9673,蚌埠市,淮上区政府,臭氧1小时,70,34,38,12,11,177,176,147,147,5,8,9,9,0.3,0.3
2022-06-14T16:00:00,2275A,117.3145,32.8977,蚌埠市,高新区,臭氧1小时,68,27,34,12,13,181,174,151,151,11,12,6,7,0.3,0.3
2022-06-14T16:00:00,2277A,116.8305,32.7727,淮南市,潘集区政府,臭氧1小时,60,36,36,17,17,168,168,141,141,10,10,6,5,0.0,0.2
2022-06-14T16:00:00,2278A,117.0067,32.6524,淮南市,师范学院,,50,38,42,9,16,160,160,128,128,10,9,7,5,0.2,0.2
2022-06-14T16:00:00,2279A,116.8569,32.5951,淮南市,谢家集区政府,,50,27,36,16,12,158,158,132,132,5,7,4,4,0.2,0.1
2022-06-14T16:00:00,2280A,116.8281,32.633,淮南市,八公山区政府,,50,31,40,11,14,160,160,131,131,6,8,7,5,0.2,0.2
2022-06-14T16:00:00,2281A,116.6325,32.6201,淮南市,焦岗湖风景区管理处(对照点),臭氧1小时,63,29,34,17,15,170,170,136,136,8,10,10,10,0.2,0.2
2022-06-14T16:00:00,2282A,116.8004,33.975,淮北市,监测站,,48,16,35,8,15,179,152,140,140,4,7,6,5,0.3,0.4
2022-06-14T16:00:00,2283A,116.8091,33.9007,淮北市,烈山区政府,臭氧1小时,62,17,23,18,21,188,169,151,151,6,8,6,6,0.3,0.4
2022-06-14T16:00:00,2284A,116.7856,33.9477,淮北市,职业技术学院,,47,23,45,11,17,173,149,142,142,4,6,6,5,0.3,0.5
2022-06-14T16:00:00,2285A,117.8177,30.9412,铜陵市,市第四中学,臭氧1小时,67,49,39,25,12,179,173,156,156,10,16,9,7,0.5,0.5
2022-06-14T16:00:00,2286A,117.8059,30.9273,铜陵市,市公路局,,50,50,44,17,14,163,154,142,142,16,16,10,9,0.7,0.6
2022-06-14T16:00:00,2287A,117.7807,30.9413,铜陵市,市新民污水厂,颗粒物(PM10),56,61,56,37,27,165,160,143,143,12,28,8,10,0.5,0.6
2022-06-14T16:00:00,2288A,117.7439,30.8792,铜陵市,市第九中学,颗粒物(PM10),51,52,54,32,18,162,155,138,138,24,25,5,4,0.7,0.7
2022-06-14T16:00:00,2289A,117.846,30.9413,铜陵市,车站新区,臭氧1小时,59,57,47,34,18,173,167,150,150,14,17,12,9,0.8,0.7
2022-06-14T16:00:00,2290A,117.8483,30.97,铜陵市,市职教基地,臭氧1小时,60,51,38,16,13,171,168,148,148,9,14,5,6,0.5,0.4
2022-06-14T16:00:00,2291A,117.0809,30.5177,安庆市,环科院,臭氧1小时,75,54,42,35,25,180,180,140,140,9,25,7,8,0.8,0.8
2022-06-14T16:00:00,2292A,117.0331,30.5119,安庆市,马山宾馆,臭氧1小时,77,50,38,35,26,181,181,142,142,15,18,4,4,0.7,0.6
2022-06-14T16:00:00,2294A,116.9896,30.6145,安庆市,安庆大学,臭氧1小时,60,51,42,21,25,171,168,145,145,10,24,5,5,0.7,0.7
2022-06-14T16:00:00,2295A,118.2903,29.6963,黄山市,延安路89号,,37,37,30,9,7,140,111,107,107,2,4,7,7,0.3,0.4
2022-06-14T16:00:00,2296A,118.327,29.7178,黄山市,黄山东路89号,,35,17,13,3,6,146,112,109,109,2,5,6,6,0.4,0.4
2022-06-14T16:00:00,2297A,118.1371,30.2756,黄山市,黄山区政府5号楼,,37,26,27,2,10,136,116,110,110,3,4,6,6,0.3,0.4
2022-06-14T16:00:00,2298A,118.3093,32.3153,滁州市,老年大学,臭氧1小时,53,23,30,8,13,175,162,151,144,10,12,10,10,0.2,0.3
2022-06-14T16:00:00,2299A,118.3244,32.2786,滁州市,人大宾馆,,,16,35,3,12,164,163,147,147,,10,5,5,0.2,0.3
2022-06-14T16:00:00,2301A,115.8277,32.8929,阜阳市,市监测站,臭氧1小时,74,26,28,8,12,179,179,153,153,8,10,5,4,0.3,0.3
2022-06-14T16:00:00,2303A,115.8554,32.8605,阜阳市,开发区,臭氧1小时,60,32,23,13,12,168,168,141,141,16,13,6,6,0.4,0.4
2022-06-14T16:00:00,2307A,116.5079,31.737,六安市,监测大楼,,45,27,40,12,9,166,141,136,136,1,6,5,6,0.2,0.3
2022-06-14T16:00:00,2308A,116.4738,31.7643,六安市,皖西学院,,47,35,44,13,16,165,149,141,141,6,9,8,9,0.3,0.3
2022-06-14T16:00:00,2309A,116.4996,31.7905,六安市,朝阳厂,,44,22,40,14,13,159,139,132,132,1,6,7,7,0.2,0.3
2022-06-14T16:00:00,2310A,116.5567,31.7886,六安市,开发区,,46,44,45,14,18,170,145,139,139,4,6,10,7,0.5,0.4
2022-06-14T16:00:00,2311A,115.8072,33.8399,亳州市,污水处理厂,臭氧1小时,79,18,30,16,17,193,183,156,156,4,6,7,6,0.2,0.2
2022-06-14T16:00:00,2312A,115.7789,33.8518,亳州市,三国揽胜宫,臭氧1小时,59,28,37,11,12,180,167,142,142,4,6,5,4,0.4,0.5
2022-06-14T16:00:00,2314A,117.47,30.6618,池州市,池州学院,臭氧1小时,60,68,40,33,19,192,168,154,154,5,12,6,7,0.5,0.6
2022-06-14T16:00:00,2316A,118.7581,30.9454,宣城市,鳌峰子站,,43,34,36,21,18,137,137,115,115,8,18,4,5,0.6,0.5
2022-06-14T16:00:00,2317A,118.7385,30.9743,宣城市,敬亭山子站,,46,45,39,20,17,148,146,127,127,12,20,4,5,0.5,0.4
2022-06-14T16:00:00,2318A,118.7173,30.9427,宣城市,开发区子站,,43,39,34,21,17,139,136,119,119,6,18,5,5,0.6,0.5
2022-06-14T16:00:00,2319A,119.0141,25.4325,莆田市,荔城区仓后路,,23,22,36,16,19,57,57,43,43,17,24,2,2,0.7,1
2022-06-14T16:00:00,2320A,119.0015,25.4553,莆田市,莆田市监测站,,,18,29,15,13,66,66,48,48,9,17,5,4,,0.9
2022-06-14T16:00:00,2321A,119.1119,25.4561,莆田市,涵江区六中,,15,14,25,8,15,52,47,41,41,24,16,2,5,0.4,0.6
2022-06-14T16:00:00,2322A,119.1013,25.3215,莆田市,秀屿区政府,,15,6,18,7,9,55,48,41,41,8,10,2,3,0.7,0.6
2022-06-14T16:00:00,2324A,117.6211,26.2625,三明市,三钢,,15,6,7,4,5,51,48,43,43,17,18,2,2,0.6,0.6
2022-06-14T16:00:00,2325A,117.635,26.2714,三明市,三明二中,,16,11,8,11,4,54,42,50,49,21,16,2,2,0.8,0.7
2022-06-14T16:00:00,2326A,117.6028,26.2378,三明市,三元区政府,,,5,8,5,6,57,54,47,47,,19,4,3,0.7,0.9
2022-06-14T16:00:00,2327A,117.7275,26.3108,三明市,洋溪(对照点),,19,6,10,4,6,61,60,56,56,8,9,4,5,0.5,0.8
2022-06-14T16:00:00,2331A,118.0966,26.6761,南平市,茫荡山(对照点),,20,9,3,8,5,82,63,72,72,1,2,4,4,0.8,0.8
2022-06-14T16:00:00,2332A,118.1681,26.6369,南平市,南平市监测站,,23,12,6,5,5,75,72,59,59,7,8,5,5,0.5,0.5
2022-06-14T16:00:00,2333A,118.1825,26.6489,南平市,南平铝业有限公司,,23,11,8,5,4,71,71,59,59,6,8,5,4,0.7,0.7
2022-06-14T16:00:00,2334A,118.1756,26.6272,南平市,南平七中,,24,14,6,8,9,74,74,57,57,5,6,4,4,0.6,0.6
2022-06-14T16:00:00,2335A,117.0189,25.1181,龙岩市,龙岩师专(对照点),,11,9,10,4,7,58,35,52,38,18,11,5,7,0.8,0.6
2022-06-14T16:00:00,2336A,117.0217,25.1033,龙岩市,龙岩市监测站,,17,17,11,4,5,59,41,53,42,17,11,4,4,0.8,0.6
2022-06-14T16:00:00,2337A,117.0258,25.0661,龙岩市,闽西职业技术学院,,30,10,12,21,7,62,46,56,48,10,8,5,4,0.6,0.5
2022-06-14T16:00:00,2338A,117.0196,25.0306,龙岩市,龙岩学院,,,,9,8,4,61,40,55,46,17,6,3,2,0.5,0.3
2022-06-14T16:00:00,2339A,119.5001,26.6946,宁德市,金涵水库(对照点),,25,5,8,17,16,65,65,50,50,13,16,7,7,0.6,0.7
2022-06-14T16:00:00,2341A,119.5388,26.6612,宁德市,宁德市监测站,,23,7,15,3,8,71,71,49,49,10,24,5,6,0.5,1.1
2022-06-14T16:00:00,2342A,117.3102,29.3867,景德镇市,王港中学(对照点),,,61,36,39,18,170,,99,79,7,8,3,4,0.8,0.8
2022-06-14T16:00:00,2343A,117.2117,29.2933,景德镇市,老干部活动中心,颗粒物(PM10),53,56,54,34,27,143,139,121,121,8,13,5,12,0.3,0.3
2022-06-14T16:00:00,2344A,117.1894,29.2789,景德镇市,兽医站,细颗粒物(PM2.5),52,52,40,36,23,132,132,112,112,5,12,5,14,0.6,0.7
2022-06-14T16:00:00,2345A,117.1547,29.2617,景德镇市,台达陶瓷,颗粒物(PM10),54,58,45,34,24,128,128,105,105,17,17,21,23,0.8,0.6
2022-06-14T16:00:00,2346A,117.2461,29.2956,景德镇市,陶研所,细颗粒物(PM2.5),59,63,48,42,23,153,140,131,131,8,10,13,8,0.5,0.5
2022-06-14T16:00:00,2347A,114.0997,27.5002,萍乡市,武功山(对照点),,26,4,3,3,3,81,81,72,72,2,2,16,18,0.2,0.1
2022-06-14T16:00:00,2348A,113.8385,27.6434,萍乡市,中医院,,39,22,22,10,18,146,123,109,109,13,16,10,10,0.9,0.9
2022-06-14T16:00:00,2349A,113.8493,27.6253,萍乡市,市政府车库,,38,34,23,20,13,132,119,109,109,16,16,11,8,0.7,0.7
2022-06-14T16:00:00,2350A,113.8676,27.6435,萍乡市,市环保局,,41,28,26,23,20,141,129,110,110,10,15,12,12,0.6,0.6
2022-06-14T16:00:00,2351A,113.866,27.6198,萍乡市,安源区政府,,40,27,23,23,16,133,126,109,109,8,9,14,9,0.5,0.4
2022-06-14T16:00:00,2352A,115.0861,27.9317,新余市,北岗(对照点),,31,31,25,18,16,118,97,83,83,4,13,6,8,0.5,0.7
2022-06-14T16:00:00,2353A,114.9886,27.8431,新余市,飞宇,,34,34,37,20,21,102,89,79,79,2,14,2,6,0.4,0.6
2022-06-14T16:00:00,2354A,114.9231,27.8246,新余市,第二水厂,,33,33,30,20,15,97,92,82,82,11,17,6,6,0.9,1
2022-06-14T16:00:00,2355A,114.9308,27.8036,新余市,市气象局,,29,25,31,16,19,92,90,77,77,9,18,4,11,0.5,0.9
2022-06-14T16:00:00,2357A,116.9822,28.1136,鹰潭市,龙虎山(对照点),,39,29,24,16,11,122,122,97,97,2,2,2,2,0.4,0.4
2022-06-14T16:00:00,2358A,117.0564,28.2642,鹰潭市,新监测站,,43,27,26,17,13,137,135,109,109,2,10,1,2,0.3,0.5
2022-06-14T16:00:00,2359A,117.0311,28.2475,鹰潭市,财苑宾馆,,38,27,25,9,12,121,121,102,102,2,5,3,3,0.5,0.3
2022-06-14T16:00:00,2360A,117.0222,28.2264,鹰潭市,体育馆,,40,29,24,12,11,127,127,103,103,2,3,3,5,0.2,0.4
2022-06-14T16:00:00,2361A,117.0017,28.2131,鹰潭市,三川水表,,40,30,24,12,11,125,125,99,99,1,3,5,5,0.3,0.5
2022-06-14T16:00:00,2362A,114.9017,25.9149,赣州市,通天岩(对照点),,28,18,14,4,5,89,89,76,76,8,5,1,6,0.5,0.4
2022-06-14T16:00:00,2363A,114.9367,25.8664,赣州市,地委,,30,15,14,9,8,96,96,68,68,7,9,6,7,0.7,0.7
2022-06-14T16:00:00,2364A,114.9461,25.8481,赣州市,气象台,,34,17,13,7,8,108,108,78,78,7,11,5,6,0.6,0.7
2022-06-14T16:00:00,2365A,114.9322,25.8333,赣州市,市图书馆,,32,16,10,12,9,102,102,72,72,10,13,4,4,0.7,0.8
2022-06-14T16:00:00,2366A,114.8905,25.8471,赣州市,华坚鞋城,,32,24,17,18,10,102,102,75,75,10,13,3,6,0.6,0.8
2022-06-14T16:00:00,2367A,114.9754,27.0803,吉安市,红声器材厂,,34,34,31,17,16,102,102,85,85,6,7,4,6,0.4,0.4
2022-06-14T16:00:00,2368A,114.9658,27.0999,吉安市,市森林工业局,,38,31,26,22,18,121,121,97,97,4,8,5,5,0.4,0.4
2022-06-14T16:00:00,2369A,114.99,27.1312,吉安市,市环境监测站,,36,32,25,19,15,114,114,97,97,6,10,7,7,0.3,0.4
2022-06-14T16:00:00,2370A,115.0093,27.0968,吉安市,青原区法院,,32,29,26,17,15,101,101,87,87,5,9,10,11,0.4,0.4
2022-06-14T16:00:00,2371A,114.3408,27.8064,宜春市,槟榔水业(对照点),,44,25,30,16,16,138,138,103,103,6,11,8,10,0.6,0.6
2022-06-14T16:00:00,2373A,114.3956,27.7844,宜春市,市石油公司,,32,31,26,18,12,128,102,98,98,6,15,6,6,0.8,0.8
2022-06-14T16:00:00,2374A,114.3703,27.7914,宜春市,市气象局,,41,41,32,17,14,138,129,109,109,8,13,5,7,0.7,0.8
2022-06-14T16:00:00,2375A,114.4013,27.8074,宜春市,市广电局,,32,28,29,16,19,130,100,100,100,5,12,3,5,0.4,0.6
2022-06-14T16:00:00,2376A,116.2127,28.0814,抚州市,桐源党溪(对照点),,37,23,28,14,13,116,116,90,90,2,8,2,2,0.8,0.8
2022-06-14T16:00:00,2377A,116.3544,27.9831,抚州市,市站,,38,26,31,13,18,119,119,101,101,4,9,6,6,0.5,0.7
2022-06-14T16:00:00,2378A,116.3565,27.963,抚州市,血防站,,,22,29,12,15,124,124,100,100,,11,5,5,0.5,0.6
2022-06-14T16:00:00,2379A,116.3564,28.0007,抚州市,采茶剧团,,38,33,29,14,16,126,119,104,104,6,9,3,8,0.7,0.7
2022-06-14T16:00:00,2380A,116.385,27.9647,抚州市,医学分院,,42,32,29,14,15,134,134,111,111,5,9,4,6,0.5,0.5
2022-06-14T16:00:00,2381A,118.005,28.4572,上饶市,百草园(对照点),,42,33,31,24,21,146,134,109,109,4,10,6,10,0.5,0.6
2022-06-14T16:00:00,2382A,117.9756,28.4436,上饶市,市监测站,,50,42,38,26,22,159,159,115,115,7,12,5,9,0.5,0.6
2022-06-14T16:00:00,2383A,117.9519,28.4628,上饶市,凤凰光学,,48,35,33,25,21,153,153,112,112,4,16,4,9,0.7,0.8
2022-06-14T16:00:00,2385A,114.17,35.9019,鹤壁市,市监测站,臭氧1小时,69,30,44,15,18,175,175,145,145,10,21,6,9,0.5,0.8
2022-06-14T16:00:00,2386A,114.2956,35.7511,鹤壁市,市交警支队,,50,39,46,4,17,160,160,137,137,5,19,8,8,0.5,0.8
2022-06-14T16:00:00,2387A,114.2878,35.7306,鹤壁市,迎宾馆,臭氧1小时,54,27,40,5,15,163,163,140,140,12,20,7,7,0.4,0.6
2022-06-14T16:00:00,2389A,113.836,35.311,新乡市,环保西院,臭氧1小时,62,27,46,7,13,169,169,147,147,7,13,7,10,0.3,0.4
2022-06-14T16:00:00,2390A,113.884,35.272,新乡市,开发区,,,22,41,7,11,164,164,143,143,,19,6,8,0.3,0.6
2022-06-14T16:00:00,2391A,113.883,35.303,新乡市,环保东院,臭氧1小时,68,22,41,5,16,174,174,152,152,9,17,6,9,0.3,0.4
2022-06-14T16:00:00,2392A,115.0312,35.7636,濮阳市,环保局,臭氧1小时,53,26,52,7,21,162,162,145,145,10,17,8,9,0.3,0.4
2022-06-14T16:00:00,2394A,115.0574,35.7609,濮阳市,油田运输公司,臭氧1小时,64,33,58,8,22,171,171,149,149,14,22,7,12,0.3,0.4
2022-06-14T16:00:00,2395A,115.0866,35.7754,濮阳市,油田物探公司,臭氧1小时,70,34,60,15,17,176,176,150,150,8,14,10,14,0.2,0.3
2022-06-14T16:00:00,2396A,113.8276,34.0159,许昌市,监测站,臭氧1小时,78,35,66,28,23,192,182,165,165,7,14,6,5,0.2,0.3
2022-06-14T16:00:00,2398A,113.7906,33.9953,许昌市,开发区,臭氧1小时,87,36,49,15,14,189,189,157,157,7,12,6,7,0.5,0.5
2022-06-14T16:00:00,2399A,114.051,33.5699,漯河市,三五一五工厂,臭氧1小时,90,37,48,14,15,192,192,168,168,4,9,8,8,0.4,0.4
2022-06-14T16:00:00,2400A,114.0055,33.5698,漯河市,漯河大学,臭氧1小时,93,26,45,8,14,194,194,168,168,5,14,3,3,0.3,0.3
2022-06-14T16:00:00,2401A,114.0138,33.5828,漯河市,市水利局,臭氧1小时,94,27,43,9,13,195,195,169,169,7,10,10,10,0.5,0.5
2022-06-14T16:00:00,2402A,114.0261,33.5698,漯河市,市广电局,臭氧1小时,89,22,41,12,16,194,191,169,169,4,7,7,7,0.3,0.4
2022-06-14T16:00:00,2403A,112.5192,32.9917,南阳市,环保局,,,48,53,16,20,186,184,174,174,7,11,3,3,,0.2
2022-06-14T16:00:00,2404A,112.5339,33.0086,南阳市,瓦房庄,臭氧1小时,87,49,55,27,27,192,189,172,172,8,15,5,4,0.4,0.4
2022-06-14T16:00:00,2405A,112.5003,32.9735,南阳市,汉画馆,臭氧1小时,80,44,47,22,20,184,184,167,167,2,8,5,5,0.3,0.3
2022-06-14T16:00:00,2406A,112.5779,33.0144,南阳市,气象站,臭氧1小时,89,44,52,14,17,203,191,176,176,8,14,6,6,0.2,0.2
2022-06-14T16:00:00,2407A,112.548,32.9692,南阳市,理工学院,臭氧1小时,85,40,47,21,22,196,188,172,172,7,14,2,2,0.2,0.3
2022-06-14T16:00:00,2408A,115.6702,34.4285,商丘市,环境监测站,臭氧1小时,68,18,50,10,14,188,174,148,148,11,15,7,7,0.4,0.4
2022-06-14T16:00:00,2409A,115.6458,34.4045,商丘市,粮食局,臭氧1小时,68,20,57,7,12,192,174,162,162,9,13,7,7,0.4,0.4
2022-06-14T16:00:00,2410A,115.6293,34.3948,商丘市,睢阳区环保局,,,16,41,10,15,182,171,148,148,9,15,5,5,,0.5
2022-06-14T16:00:00,2420A,114.0189,32.9656,驻马店市,市一纸厂,臭氧1小时,58,23,39,15,17,168,166,150,150,6,11,6,7,0.1,0.2
2022-06-14T16:00:00,2421A,114.0114,33.015,驻马店市,市彩印厂,臭氧1小时,67,25,48,5,14,176,173,157,157,5,12,6,7,0.1,0.2
2022-06-14T16:00:00,2422A,113.9976,32.9771,驻马店市,天方二分厂,臭氧1小时,60,20,40,9,16,169,168,153,153,7,12,2,3,0.6,0.5
2022-06-14T16:00:00,2423A,115.0601,30.2313,黄石市,沈家营,颗粒物(PM10),55,60,60,27,28,206,161,161,161,6,16,9,14,0.6,0.8
2022-06-14T16:00:00,2424A,115.0817,30.2006,黄石市,陈家湾,臭氧1小时,55,45,58,30,28,194,164,147,147,21,18,6,7,0.7,0.9
2022-06-14T16:00:00,2426A,114.8988,30.2019,黄石市,铁山,,45,45,60,12,26,191,142,153,153,6,24,5,11,0.4,0.8
2022-06-14T16:00:00,2427A,115.0307,30.2092,黄石市,团城山,,45,38,56,22,24,174,141,142,142,36,30,8,17,0.5,0.9
2022-06-14T16:00:00,2428A,111.0419,32.395,十堰市,武当山(对照点),,,39,26,,11,157,,140,127,5,7,6,10,0.4,0.6
2022-06-14T16:00:00,2429A,110.78,32.6494,十堰市,滨河新村,,48,40,55,19,19,166,151,139,139,8,23,8,9,0.3,0.6
2022-06-14T16:00:00,2430A,110.7258,32.6389,十堰市,刘家沟,,49,26,36,19,13,164,154,142,142,6,10,8,9,0.5,0.6
2022-06-14T16:00:00,2432A,112.155,32.0197,襄阳市,襄城运动路,臭氧1小时,109,31,54,11,29,217,217,165,165,10,14,6,8,0.5,0.6
2022-06-14T16:00:00,2433A,112.1392,32.0564,襄阳市,樊城新华路,臭氧1小时,104,23,56,18,28,208,208,157,157,10,12,7,7,0.5,0.7
2022-06-14T16:00:00,2434A,112.1825,32.1142,襄阳市,高新管委会,臭氧1小时,98,48,60,19,27,198,198,151,151,8,13,5,6,0.6,0.6
2022-06-14T16:00:00,2435A,112.2106,32.0903,襄阳市,襄州航空路,臭氧1小时,106,42,53,11,24,211,211,164,164,7,12,6,6,0.6,0.7
2022-06-14T16:00:00,2436A,114.8938,30.3994,鄂州市,市政府,,46,26,50,9,20,160,145,132,132,11,14,9,12,0.6,0.8
2022-06-14T16:00:00,2437A,114.8989,30.3714,鄂州市,赵家坝,,45,31,46,7,19,163,141,132,132,6,18,5,7,0.6,0.9
2022-06-14T16:00:00,2439A,112.2014,31.0481,荆门市,竹园小学,臭氧1小时,80,17,52,10,34,184,184,129,129,5,8,9,7,0.3,0.4
2022-06-14T16:00:00,2440A,112.1969,30.9891,荆门市,掇刀,臭氧1小时,65,48,44,14,28,172,172,153,153,6,10,14,7,0.6,0.5
2022-06-14T16:00:00,2441A,112.2213,31.0386,荆门市,石化一小,臭氧1小时,74,35,45,13,26,181,179,129,129,6,9,10,9,0.6,0.8
2022-06-14T16:00:00,2443A,113.9153,30.9285,孝感市,文化路,,48,48,48,18,20,138,122,99,99,4,8,4,4,0.4,0.6
2022-06-14T16:00:00,2444A,113.942,30.9075,孝感市,东城区,,36,36,42,16,19,131,115,96,96,8,8,4,5,0.4,0.5
2022-06-14T16:00:00,2446A,114.9028,30.4742,黄冈市,职工中心,,50,28,52,11,20,195,160,138,138,6,17,6,9,0.5,0.8
2022-06-14T16:00:00,2447A,114.3175,29.8142,咸宁市,森林公园(对照点),颗粒物(PM10),52,54,35,10,14,162,147,136,121,2,2,6,5,0.5,0.5
2022-06-14T16:00:00,2448A,114.3107,29.8454,咸宁市,市发改委,颗粒物(PM10),56,61,39,14,20,152,148,125,125,5,8,8,7,0.3,0.4
2022-06-14T16:00:00,2449A,114.2936,29.8566,咸宁市,咸安区政府,颗粒物(PM10),62,73,39,11,19,155,155,128,128,6,8,5,5,0.5,0.6
2022-06-14T16:00:00,2451A,113.3583,31.7275,随州市,市委党校,,48,32,34,18,19,152,152,132,132,2,6,6,7,0.5,0.6
2022-06-14T16:00:00,2452A,113.3833,31.6908,随州市,市林业局,,49,16,35,15,20,156,156,131,131,4,5,4,4,0.6,0.6
2022-06-14T16:00:00,2453A,113.3983,31.7308,随州市,市立交桥水厂,,46,29,40,18,20,147,147,128,128,6,9,8,8,0.6,0.7
2022-06-14T16:00:00,2454A,109.4978,30.2981,恩施土家族苗族自治州,湖北民院,,49,38,40,20,20,154,154,91,91,4,9,8,8,0.7,0.8
2022-06-14T16:00:00,2455A,109.4707,30.2798,恩施土家族苗族自治州,州电力总公司,,44,33,39,11,14,140,140,88,88,2,12,4,8,1.1,0.7
2022-06-14T16:00:00,2456A,112.5003,26.9167,衡阳市,原169医院(对照点),,29,25,23,14,10,92,92,70,70,7,10,3,3,0.7,0.8
2022-06-14T16:00:00,2457A,112.6194,26.9258,衡阳市,衡阳化工总厂,,38,33,30,20,19,120,120,89,89,6,13,4,4,0.6,0.6
2022-06-14T16:00:00,2458A,112.6211,26.8956,衡阳市,珠晖区环保局,,,21,24,,,119,118,90,90,6,14,3,3,0.7,0.9
2022-06-14T16:00:00,2459A,112.6197,26.8733,衡阳市,市委党校,,34,21,23,12,12,108,108,84,84,4,11,4,4,0.5,0.6
2022-06-14T16:00:00,2460A,112.6006,26.8919,衡阳市,市监测站,,38,27,24,10,15,120,120,91,91,8,13,9,7,0.6,0.6
2022-06-14T16:00:00,2461A,112.5664,26.9056,衡阳市,真空机电公司,,,36,26,,11,129,128,92,92,7,11,8,6,0.6,0.6
2022-06-14T16:00:00,2462A,111.5239,27.3033,邵阳市,市水土所(对照点),,44,43,28,14,14,139,139,77,77,7,6,8,7,0.3,0.4
2022-06-14T16:00:00,2463A,111.4733,27.2317,邵阳市,市一中,,37,37,32,18,20,112,112,59,59,12,14,8,9,0.3,0.5
