timepoint,stationcode,longitude,latitude,area,positionname,primarypollutant,aqi,pm10,pm10_24h,pm2_5,pm2_5_24h,o3,o3_24h,o3_8h,o3_8h_24h,no2,no2_24h,so2,so2_24h,co,co_24h
2025-10-02T1100,2566A,102.1879,31.914,阿坝藏族羌族自治州,州农科所,,34,34,22,11,9,34,,23,21,4,6,2,2,0.4,0.4
2025-10-02T1100,2568A,102.2502,31.8896,阿坝藏族羌族自治州,马师校,,18,18,16,8,11,27,,11,11,4,7,6,5,0.6,0.6
2025-10-02T1100,3994A,102.2165,31.9024,阿坝藏族羌族自治州,马尔康中学西区,,19,,19,13,12,34,,17,16,2,4,4,4,0.5,0.5
2025-10-02T1100,2695A,80.292,41.1694,阿克苏地区,电视台,颗粒物(PM10),106,161,127,45,39,14,,38,38,29,23,6,6,1.0,0.8
2025-10-02T1100,2696A,80.2613,41.1551,阿克苏地区,艺术中心,颗粒物(PM10),89,127,116,38,43,13,,36,35,17,21,3,4,0.9,0.8
2025-10-02T1100,2204A,105.6467,38.8363,阿拉善盟,西城区西花园,,34,29,38,18,18,108,,108,108,12,11,8,9,0.4,0.3
2025-10-02T1100,2205A,105.6985,38.8411,阿拉善盟,蒙二幼,,,27,32,10,11,103,,117,117,5,6,8,8,,0.6
2025-10-02T1100,2206A,105.724,38.8516,阿拉善盟,环保局新楼,,33,22,31,10,13,104,,112,111,6,7,9,9,0.5,0.5
2025-10-02T1100,2708A,88.1264,47.8517,阿勒泰地区,市站,,17,13,5,3,4,52,,63,58,12,13,3,3,0.4,0.4
2025-10-02T1100,2630A,80.1161,32.5,阿里地区,阿里监测站,,31,6,3,3,3,99,,98,85,12,10,4,2,0.3,0.3
2025-10-02T1100,3192A,80.0903,32.5028,阿里地区,阿里藏医院,,31,23,11,10,4,97,,120,106,15,3,8,7,0.4,0.3
2025-10-02T1100,2642A,109.0318,32.6537,安康市,香溪洞,,17,6,10,3,6,54,,41,41,5,6,6,6,0.3,0.3
2025-10-02T1100,2644A,109.0072,32.6975,安康市,汉滨区检察院,,14,,12,7,7,44,,29,29,6,10,5,5,0.4,0.4
2025-10-02T1100,4054A,109.0325,32.6913,安康市,市邮政管理局,,14,6,12,3,7,43,,28,28,8,12,5,5,0.6,0.6
2025-10-02T1100,2291A,117.0809,30.5177,安庆市,环科院,,46,38,36,32,25,71,,32,25,18,22,9,10,0.9,0.9
2025-10-02T1100,2292A,117.0331,30.5119,安庆市,马山宾馆,,45,37,33,31,24,72,,36,24,30,24,7,7,0.8,0.8
2025-10-02T1100,2294A,116.9896,30.6145,安庆市,安庆大学,,40,40,36,13,16,98,,35,35,10,17,7,5,0.6,0.7
2025-10-02T1100,3173A,117.0598,30.5351,安庆市,市人大,,38,38,38,26,23,80,,43,36,17,16,8,8,0.8,0.8
2025-10-02T1100,3122A,105.9606,26.2611,安顺市,伍家关,,13,7,7,6,6,40,,38,38,2,2,6,6,0.4,0.3
2025-10-02T1100,3123A,105.9408,26.2431,安顺市,凤凰山,,12,8,8,3,7,36,,36,35,3,2,5,5,0.5,0.4
2025-10-02T1100,3124A,105.9439,26.2564,安顺市,金钟山,,13,8,8,3,4,40,,39,38,2,2,8,7,0.6,0.5
2025-10-02T1100,3125A,105.8983,26.2481,安顺市,娄家坡,,,,5,7,7,36,,34,34,,2,,7,0.4,0.4
2025-10-02T1100,1818A,114.4839,36.0621,安阳市,棉研所,,,,,,,,,,,,,,,,
2025-10-02T1100,1819A,114.3551,36.1017,安阳市,红庙街,,30,23,33,12,13,93,,86,84,8,10,3,3,0.5,0.5
2025-10-02T1100,1820A,114.361,36.0681,安阳市,银杏小区,,33,13,32,12,14,104,,96,94,11,15,4,4,0.3,0.4
2025-10-02T1100,3141A,114.3922,36.0878,安阳市,信访局,,32,18,30,8,10,101,,94,92,12,10,1,2,0.4,0.5
2025-10-02T1100,3669A,114.4705,36.0637,安阳市,左辅环卫站,,,24,30,10,12,97,,94,91,15,19,,4,0.4,0.5
2025-10-02T1100,3703A,114.2917,36.0949,安阳市,安钢职工学校,,31,25,35,13,17,98,,86,86,13,16,4,4,0.5,0.7
2025-10-02T1100,1748A,123.044,41.1196,鞍山市,深沟寺,,41,33,56,19,35,130,,112,112,10,13,7,7,0.7,0.8
2025-10-02T1100,1749A,123.011,41.0931,鞍山市,太阳城,,40,30,55,18,37,126,,90,90,11,11,7,8,0.6,0.8
2025-10-02T1100,1750A,123.0485,41.1442,鞍山市,太平,,40,40,70,21,41,121,,108,108,9,12,8,9,0.8,0.9
2025-10-02T1100,1751A,122.9642,41.0971,鞍山市,铁西三道街,,,36,71,19,40,121,,67,67,,27,8,7,,1
2025-10-02T1100,1753A,123.022,41.0821,鞍山市,明达新区,,42,30,48,18,31,133,,108,108,7,9,8,9,0.7,0.9
2025-10-02T1100,1754A,123.1289,41.0228,鞍山市,千山,,,,42,,30,,,70,,,4,,5,,0.4
2025-10-02T1100,4201A,122.9446,41.0826,鞍山市,兴盛南路290号,,47,47,78,18,41,125,,88,88,19,24,10,10,1.0,0.9
2025-10-02T1100,2195A,107.4212,40.761,巴彦淖尔市,附二中,,28,28,56,18,24,83,,66,66,4,15,8,10,0.3,0.4
2025-10-02T1100,2196A,107.37,40.7372,巴彦淖尔市,市环保大楼,,34,34,49,23,23,81,,69,69,4,13,9,11,0.3,0.4
2025-10-02T1100,1956A,86.1472,41.7538,巴音郭楞蒙古自治州,孔雀公园,颗粒物(PM10),87,123,108,25,29,58,,32,32,11,33,6,7,0.2,0.4
2025-10-02T1100,1957A,86.1972,41.7166,巴音郭楞蒙古自治州,棉纺厂,,,,124,,30,65,,44,44,,21,,5,0.2,0.2
2025-10-02T1100,1958A,86.2357,41.7173,巴音郭楞蒙古自治州,经济开发区,颗粒物(PM10),85,119,96,16,17,66,,56,56,2,9,7,6,0.3,0.3
2025-10-02T1100,2914A,106.7677,31.8794,巴中市,苏山坪,,12,,6,3,5,37,,40,38,4,3,4,4,0.4,0.4
2025-10-02T1100,3181A,106.7768,31.8526,巴中市,市五中,,10,7,12,3,8,30,,30,28,13,14,7,7,0.7,0.7
2025-10-02T1100,3183A,106.7418,31.8654,巴中市,圣泉水务公司,,12,6,8,3,7,38,,42,40,6,9,7,6,0.5,0.6
2025-10-02T1100,3616A,106.7616,31.8344,巴中市,市中心医院,,16,,11,11,15,32,,30,30,9,15,9,9,0.6,0.7
2025-10-02T1100,2235A,122.7911,45.6077,白城市,洮北区环保局,,28,28,31,10,9,46,,27,27,5,7,4,4,0.3,0.3
2025-10-02T1100,2236A,122.8738,45.5725,白城市,市环保局,,36,36,34,9,12,33,,18,18,8,7,5,4,0.3,0.3
2025-10-02T1100,2231A,126.4219,41.9171,白山市,喜丰,颗粒物(PM10),55,60,78,22,28,88,,24,24,12,22,9,7,0.6,0.7
2025-10-02T1100,2232A,126.4077,41.9419,白山市,环保局,,,45,48,29,31,97,,29,29,9,14,9,8,,0.8
2025-10-02T1100,2647A,104.1724,36.5446,白银市,第三小学,,,,27,,20,35,,17,17,38,33,,10,,1.1
2025-10-02T1100,2648A,104.1465,36.5482,白银市,动力公司,,48,38,29,33,22,53,,24,24,29,22,9,8,0.7,0.7
2025-10-02T1100,2512A,106.6103,23.9011,百色市,市监测站,,49,49,39,16,19,50,,11,11,12,11,15,9,0.7,0.7
2025-10-02T1100,2513A,106.6538,23.8859,百色市,市中心血站,,48,48,43,16,23,50,,11,11,12,17,10,6,0.7,0.8
2025-10-02T1100,3406A,106.6085,23.8798,百色市,祈福高中,,47,47,38,18,26,43,,9,9,12,13,12,5,0.8,0.8
2025-10-02T1100,2270A,117.396,32.939,蚌埠市,工人疗养院,,49,49,39,24,17,47,,58,58,14,13,5,5,0.9,0.6
2025-10-02T1100,2271A,117.3605,32.9427,蚌埠市,百货大楼,,38,38,32,24,19,44,,56,55,15,17,7,7,1.0,0.7
2025-10-02T1100,2273A,117.4185,32.8911,蚌埠市,蚌埠学院,,46,41,28,32,21,50,,63,55,10,9,6,6,0.8,0.6
2025-10-02T1100,2274A,117.3533,32.9673,蚌埠市,淮上区政府,,50,48,38,35,24,50,,66,60,18,13,8,7,0.9,0.6
2025-10-02T1100,2275A,117.3145,32.8977,蚌埠市,高新区,,48,48,32,27,18,32,,61,50,25,12,7,7,1.1,0.7
2025-10-02T1100,3715A,117.3092,32.9314,蚌埠市,蚌埠田家炳中学,,48,48,37,33,20,40,,66,54,21,13,6,6,1.0,0.6
2025-10-02T1100,1585A,109.8756,40.6532,包头市,市环境监测站,,31,28,63,21,19,98,,56,56,13,35,9,15,0.6,0.8
2025-10-02T1100,1587A,109.9991,40.5842,包头市,包头八中,,,,61,,26,81,,24,22,20,39,9,13,0.5,0.6
2025-10-02T1100,1588A,109.8538,40.6821,包头市,青山宾馆,,30,30,49,15,27,96,,38,38,13,43,8,14,0.5,0.8
2025-10-02T1100,1589A,109.8642,40.6288,包头市,惠龙物流,,38,38,49,12,20,92,,54,54,13,27,9,13,0.5,0.6
2025-10-02T1100,1590A,110.0377,40.5546,包头市,东河鸿龙湾,,,41,54,12,20,83,,32,32,20,39,11,11,,0.6
2025-10-02T1100,3283A,109.9154,40.5685,包头市,滨河大厦,,31,24,41,8,17,98,,58,58,12,24,10,9,0.5,0.5
2025-10-02T1100,3419A,109.9447,40.6261,包头市,包头市委党校,,29,10,42,3,19,90,,53,50,21,35,12,18,0.5,0.7
2025-10-02T1100,3683A,109.8331,40.6576,包头市,昆区政府,,34,34,53,17,29,92,,57,57,14,31,9,19,0.4,0.7
2025-10-02T1100,1930A,107.185,34.3063,宝鸡市,庙沟村,,28,28,8,6,9,82,,88,86,11,9,5,5,0.5,0.4
2025-10-02T1100,1931A,107.0708,34.3017,宝鸡市,竹园沟,,27,27,11,6,7,82,,89,86,8,6,8,8,0.5,0.4
2025-10-02T1100,1932A,107.1906,34.3672,宝鸡市,三陆医院,,29,29,13,18,8,88,,88,88,10,14,7,6,0.6,0.5
2025-10-02T1100,1933A,107.1431,34.3547,宝鸡市,监测站,,37,37,13,12,11,86,,89,88,8,8,5,5,0.8,0.6
2025-10-02T1100,1934A,107.1186,34.3739,宝鸡市,技工学校,,42,42,12,18,10,86,,87,86,12,11,6,6,0.7,0.6
2025-10-02T1100,1936A,107.2058,34.3497,宝鸡市,文理学院,,31,31,13,12,10,86,,91,90,11,10,6,5,0.7,0.5
2025-10-02T1100,1937A,107.2386,34.3622,宝鸡市,三迪小学,,32,31,12,22,10,87,,86,86,10,10,5,5,0.7,0.6
2025-10-02T1100,4308A,107.3898,34.3601,宝鸡市,陈仓区北开路21号,,28,27,6,12,7,88,,88,88,8,7,6,6,0.4,0.3
2025-10-02T1100,1051A,115.493,38.8632,保定市,游泳馆,,,41,69,15,25,114,,95,93,11,26,2,8,,0.2
2025-10-02T1100,1052A,115.5213,38.8959,保定市,华电二区,,35,22,53,10,29,110,,100,96,14,27,3,4,0.3,0.4
2025-10-02T1100,1053A,115.4713,38.9108,保定市,接待中心,,32,32,67,17,28,89,,,,14,36,4,3,0.3,0.4
2025-10-02T1100,1054A,115.4612,38.8416,保定市,地表水厂,,35,32,93,6,24,110,,83,82,14,35,7,8,0.1,0.3
2025-10-02T1100,3581A,115.31981,38.95208,保定市,满城区生态环境分局,,36,36,81,14,30,101,,85,79,11,28,2,2,0.3,0.4
2025-10-02T1100,3582A,115.47694,38.76408,保定市,清苑区第二中学,,36,29,90,14,31,115,,91,90,9,32,3,3,0.2,0.4
2025-10-02T1100,3583A,115.62909,39.02311,保定市,徐水物探局,,37,37,67,15,29,103,,87,80,15,30,6,8,0.4,0.4
2025-10-02T1100,4004A,115.4202,38.8656,保定市,双鹰农机,,,,117,16,37,108,,90,85,16,29,6,7,,0.2
2025-10-02T1100,4034A,115.5150,38.8590,保定市,植保所站,,38,38,73,11,32,109,,94,92,15,31,12,10,0.3,0.4
2025-10-02T1100,2594A,99.1678,25.1081,保山市,市环境监测站,,,,12,14,17,29,,11,11,,7,9,8,,0.3
2025-10-02T1100,2595A,99.1711,25.1328,保山市,市环保局,,14,14,14,3,8,37,,20,20,9,5,8,8,0.6,0.5
2025-10-02T1100,1866A,109.2262,21.588,北海市,牛尾岭水库,,18,,13,12,8,52,,30,30,2,5,2,3,0.2,0.3
2025-10-02T1100,1867A,109.1436,21.4086,北海市,海滩公园,,,21,17,7,4,62,,58,58,4,8,5,4,,0.7
2025-10-02T1100,1868A,109.0981,21.4661,北海市,新市环保局,,19,11,13,7,10,59,,54,54,4,9,5,6,0.4,0.4
2025-10-02T1100,1869A,109.1778,21.5233,北海市,北海工业园,,19,16,19,3,9,60,,35,35,2,10,3,4,0.2,0.4
2025-10-02T1100,3400A,109.1911,21.4415,北海市,龙潭自来水厂,,20,,12,9,13,64,,54,54,4,8,4,5,0.4,0.4
2025-10-02T1100,1001A,116.3621,39.8784,北京市,万寿西宫,颗粒物(PM10),52,54,64,26,27,71,,44,44,15,42,3,3,0.4,0.7
2025-10-02T1100,1002A,116.2202,40.2915,北京市,定陵,,42,42,33,21,15,77,,48,48,9,4,6,6,0.3,0.3
2025-10-02T1100,1003A,116.4174,39.9289,北京市,东四,颗粒物(PM10),64,78,66,36,29,72,,44,44,22,34,5,5,0.5,0.6
2025-10-02T1100,1004A,116.4072,39.8863,北京市,天坛,颗粒物(PM10),63,76,53,35,25,63,,40,40,32,31,4,4,0.6,0.6
2025-10-02T1100,1005A,116.462,39.9365,北京市,农展馆,颗粒物(PM10),63,75,62,38,29,56,,42,42,27,38,4,4,0.6,0.6
2025-10-02T1100,1006A,116.3392,39.9295,北京市,官园,颗粒物(PM10),60,70,66,30,26,68,,29,29,24,44,4,6,0.5,0.6
2025-10-02T1100,1007A,116.2878,39.9611,北京市,海淀万柳,颗粒物(PM10),53,56,52,26,22,47,,13,13,29,48,5,4,0.2,0.3
2025-10-02T1100,1008A,116.6636,40.135,北京市,顺义新城,颗粒物(PM10),55,59,51,19,24,80,,22,22,18,24,4,4,0.4,0.4
2025-10-02T1100,1009A,116.6275,40.3275,北京市,怀柔镇,,38,38,32,18,16,77,,39,39,13,12,3,2,0.5,0.8
2025-10-02T1100,1010A,116.2296,40.217,北京市,昌平镇,颗粒物(PM10),52,53,38,23,17,66,,51,48,24,19,3,3,0.6,0.5
2025-10-02T1100,1011A,116.3966,39.9821,北京市,奥体中心,颗粒物(PM10),57,63,57,27,26,57,,28,28,23,50,3,4,0.5,0.7
2025-10-02T1100,3281A,115.9718,40.4529,北京市,延庆夏都,颗粒物(PM10),52,54,49,20,19,35,,11,11,30,27,2,2,0.4,0.5
2025-10-02T1100,3418A,116.8336,40.4095,北京市,密云新城,,36,36,32,19,14,87,,42,42,5,7,4,4,0.4,0.3
2025-10-02T1100,3671A,116.088,39.9726,北京市,门头沟三家店,,46,46,44,20,18,67,,35,35,15,19,3,4,0.5,0.5
2025-10-02T1100,3672A,116.1541,39.8204,北京市,丰台云岗,颗粒物(PM10),58,66,61,24,21,58,,26,26,25,35,3,3,0.4,0.4
2025-10-02T1100,3673A,116.6804,39.9081,北京市,通州东关,颗粒物(PM10),55,59,69,22,26,65,,54,54,31,53,6,5,0.5,0.6
2025-10-02T1100,3674A,115.9577,39.7603,北京市,房山燕山,颗粒物(PM10),55,59,47,24,21,76,,44,44,21,18,3,3,0.4,0.4
2025-10-02T1100,3675A,116.4672,39.7733,北京市,大兴旧宫,颗粒物(PM10),53,56,59,20,20,68,,71,71,25,28,4,3,0.5,0.6
2025-10-02T1100,3694A,115.986,40.4563,北京市,延庆石河营,颗粒物(PM10),51,52,49,20,20,40,,12,12,24,21,3,2,0.4,0.4
2025-10-02T1100,3695A,116.6151,40.3053,北京市,怀柔新城,,42,42,30,20,16,74,,42,42,11,7,5,4,0.4,0.4
2025-10-02T1100,3696A,116.2545,39.8768,北京市,丰台小屯,颗粒物(PM10),52,53,62,23,24,59,,22,22,20,44,3,2,0.5,0.6
2025-10-02T1100,3697A,116.84,40.3844,北京市,密云镇,,35,35,35,16,16,83,,28,28,10,24,5,5,0.4,0.4
2025-10-02T1100,4182A,116.1942,39.9158,北京市,八角北路9号,颗粒物(PM10),51,51,56,20,19,56,,26,26,20,45,3,2,0.3,0.4
2025-10-02T1100,4194A,117.0790,40.1518,北京市,洳河巡河路,,31,31,39,12,19,90,,45,45,12,12,3,2,0.4,0.5
2025-10-02T1100,1761A,123.8275,41.3064,本溪市,大峪,,34,34,50,20,24,99,,32,32,14,16,8,8,0.8,0.7
2025-10-02T1100,1762A,123.7567,41.3325,本溪市,溪湖,,41,41,45,25,30,105,,36,36,22,18,10,7,1.4,1.2
2025-10-02T1100,1763A,123.7169,41.3094,本溪市,彩屯,"颗粒物(PM10),细颗粒物(PM2.5)",53,56,55,37,38,77,,22,22,42,24,30,12,3.8,2.1
2025-10-02T1100,1764A,123.7669,41.2864,本溪市,东明,颗粒物(PM10),57,63,57,30,32,99,,38,38,20,23,8,6,1.1,1
2025-10-02T1100,1765A,123.7992,41.2664,本溪市,新立屯,,46,46,43,24,22,83,,36,36,16,14,7,7,0.8,0.7
2025-10-02T1100,1766A,123.8142,41.3472,本溪市,威宁,颗粒物(PM10),53,56,49,20,30,100,,32,32,9,17,5,5,1.0,0.8
2025-10-02T1100,2587A,105.2864,27.3125,毕节市,八中,,12,8,12,7,7,38,,16,16,3,5,10,9,0.5,0.5
2025-10-02T1100,2588A,105.31,27.2944,毕节市,师专,,18,18,14,11,7,37,,24,24,5,6,7,7,0.5,0.4
2025-10-02T1100,4263A,105.3688,27.3598,毕节市,工业大道,,13,6,10,3,7,41,,23,23,6,7,9,11,0.6,0.5
2025-10-02T1100,1629A,118.0018,37.3617,滨州市,第二水厂,,27,,48,18,26,84,,73,67,9,13,6,6,0.3,0.4
2025-10-02T1100,1630A,117.9776,37.393,滨州市,北中新校,,27,22,44,17,25,84,,76,68,14,14,7,8,0.1,0.2
2025-10-02T1100,3514A,117.9378,37.3956,滨州市,中海酒店,,28,22,49,19,28,82,,73,71,12,15,4,5,0.4,0.5
2025-10-02T1100,3515A,117.9378,37.3553,滨州市,开发区一中,,30,24,59,19,32,93,,76,76,14,18,7,7,0.5,0.6
2025-10-02T1100,3516A,118.0917,37.694,滨州市,金海六路,,30,22,56,9,24,95,,90,78,10,22,4,6,0.3,0.5
2025-10-02T1100,4028A,117.9956,37.3753,滨州市,滨州市西街道办事处,,28,,42,14,27,88,,74,69,12,15,5,5,0.5,0.5
2025-10-02T1100,2311A,115.8072,33.8399,亳州市,污水处理厂,,22,6,10,3,9,70,,75,74,5,5,4,4,0.3,0.3
2025-10-02T1100,2312A,115.7789,33.8518,亳州市,三国揽胜宫,,23,6,12,3,7,72,,79,78,5,4,4,4,0.3,0.3
2025-10-02T1100,3332A,115.7633,33.8034,亳州市,亳州学院,,,8,11,3,8,80,,82,82,4,3,3,4,,0.4
2025-10-02T1100,2693A,82.0485,44.8556,博尔塔拉蒙古自治州,市党校,,32,27,28,22,16,41,,48,40,8,6,2,2,0.2,0.2
2025-10-02T1100,2694A,82.0806,44.8969,博尔塔拉蒙古自治州,市环保局,,33,33,40,12,13,38,,51,44,10,8,5,5,0.2,0.3
2025-10-02T1100,1071A,116.8842,38.2991,沧州市,沧县城建局,,34,34,76,15,39,75,,93,83,34,29,5,5,0.2,0.5
2025-10-02T1100,1072A,116.8584,38.3254,沧州市,电视转播站,,42,42,74,17,37,65,,80,66,28,22,3,4,0.3,0.5
2025-10-02T1100,1073A,116.8709,38.3228,沧州市,市环保局,,49,49,84,25,46,73,,86,72,26,23,4,4,0.2,0.4
2025-10-02T1100,3324A,116.8136,38.3004,沧州市,河北水利电力学院,,41,41,75,18,37,73,,80,68,28,31,3,4,0.2,0.4
2025-10-02T1100,2622A,97.1806,31.1273,昌都市,昌都监测站,,15,15,10,8,7,31,,22,20,8,6,6,5,0.2,0.1
2025-10-02T1100,3719A,97.1714,31.1406,昌都市,昌都会议中心,,,8,9,3,6,30,,27,24,5,3,4,4,,0.1
2025-10-02T1100,2690A,88.1236,43.8886,昌吉回族自治州,天山天池,,19,,34,3,11,59,,62,62,10,12,5,6,0.3,0.2
2025-10-02T1100,2692A,87.2717,44.0297,昌吉回族自治州,新区政务中心,,15,6,46,3,9,48,,62,57,9,8,4,6,0.3,0.3
2025-10-02T1100,3613A,87.3095,44.0142,昌吉回族自治州,亚心广场,,17,6,43,3,7,53,,69,66,9,7,6,8,0.2,0.3
2025-10-02T1100,1120A,125.2863,43.9027,长春市,客车厂,颗粒物(PM10),60,69,62,31,37,121,,67,67,14,28,7,6,0.9,0.7
2025-10-02T1100,1121A,125.2841,43.8463,长春市,邮电学院,颗粒物(PM10),60,70,59,27,34,126,,62,62,11,18,7,6,1.0,0.7
2025-10-02T1100,1122A,125.3716,43.8772,长春市,劳动公园,细颗粒物(PM2.5),77,84,75,56,56,124,,55,55,10,21,9,8,1.1,0.8
2025-10-02T1100,1123A,125.3297,43.8805,长春市,园林处,细颗粒物(PM2.5),59,65,59,42,47,124,,72,72,17,27,4,3,1.0,0.7
2025-10-02T1100,1124A,125.4605,43.79,长春市,净月潭,颗粒物(PM10),55,59,55,35,32,121,,56,56,7,10,6,4,0.9,0.6
2025-10-02T1100,1125A,125.7194,43.515,长春市,甩湾子,细颗粒物(PM2.5),53,51,52,37,45,131,,52,52,3,7,6,4,0.8,0.6
2025-10-02T1100,1126A,125.3863,43.8447,长春市,经开区环卫处,颗粒物(PM10),62,74,61,34,39,118,,46,46,12,29,6,5,1.0,0.8
2025-10-02T1100,1127A,125.245,43.7783,长春市,高新区管委会,颗粒物(PM10),61,72,62,33,35,123,,61,61,9,22,6,4,0.9,0.7
2025-10-02T1100,1128A,125.1761,43.8325,长春市,岱山公园,,,83,64,46,42,120,,58,58,,29,7,5,1.0,0.7
2025-10-02T1100,4281A,125.3346,43.9164,长春市,北亚泰大街1068号,颗粒物(PM10),51,52,66,32,38,118,,52,52,13,28,11,9,1.2,0.9
2025-10-02T1100,1335A,113.0833,28.2325,长沙市,经开区环保局,,,69,59,24,34,108,,52,52,5,11,8,7,,0.7
2025-10-02T1100,1336A,112.8872,28.2189,长沙市,高开区环保局,,49,49,67,17,33,96,,57,57,5,12,6,8,0.3,0.7
2025-10-02T1100,1337A,113.0792,28.2053,长沙市,马坡岭,,40,40,60,22,32,108,,50,50,4,10,4,4,0.6,0.6
2025-10-02T1100,1338A,112.9394,28.19,长沙市,湖南师范大学,,,,62,,35,101,,53,53,4,15,4,6,,1
2025-10-02T1100,1339A,113.0178,28.1322,长沙市,雨花区环保局,颗粒物(PM10),51,52,56,22,24,108,,60,60,7,12,11,9,0.8,0.8
2025-10-02T1100,1340A,112.9792,28.2597,长沙市,伍家岭,颗粒物(PM10),51,51,66,19,31,107,,52,52,6,22,5,5,0.5,0.7
2025-10-02T1100,1341A,113.0014,28.1944,长沙市,火车新站,颗粒物(PM10),56,61,62,19,43,101,,45,45,4,20,9,9,0.6,0.8
2025-10-02T1100,1342A,112.9844,28.1178,长沙市,天心区环保局,颗粒物(PM10),51,52,57,19,34,113,,67,67,10,16,6,8,0.5,0.8
2025-10-02T1100,1343A,112.8908,28.1308,长沙市,湖南中医药大学,,48,48,67,20,38,101,,51,51,2,21,5,6,0.6,1.1
2025-10-02T1100,1344A,112.9581,28.3611,长沙市,沙坪,,48,,57,33,34,115,,47,47,8,20,6,5,0.7,0.8
2025-10-02T1100,1727A,113.1147,36.1547,长治市,清华站,,35,17,31,9,13,109,,105,104,7,14,8,9,0.6,0.7
2025-10-02T1100,1730A,113.0886,36.2125,长治市,审计局,,,,28,,18,95,,99,96,,17,,7,,0.7
2025-10-02T1100,1731A,113.0844,36.1856,长治市,长治八中,,33,22,30,22,22,104,,100,100,4,11,7,9,0.6,0.7
2025-10-02T1100,2845A,113.1569,36.1911,长治市,德盛苑,,,23,33,12,16,105,,99,99,,13,8,11,,0.6
2025-10-02T1100,3568A,113.06,36.0464,长治市,向阳小学,,35,19,39,15,21,111,,104,104,9,13,8,9,0.7,0.8
2025-10-02T1100,3569A,112.8792,36.3144,长治市,屯留一中,,31,26,33,10,23,98,,70,70,8,17,13,11,0.4,0.6
2025-10-02T1100,4189A,113.1131,36.19948,长治市,英华南巷50号,,31,17,33,12,18,99,,94,94,9,16,8,11,0.8,0.8
2025-10-02T1100,4190A,113.2367,36.3344,长治市,学府街1号,,34,16,44,13,20,107,,110,109,5,15,7,13,0.5,0.8
2025-10-02T1100,1854A,111.6975,28.9703,常德市,市二中,,50,50,59,24,44,70,,22,22,6,15,6,6,0.8,1.1
2025-10-02T1100,1857A,111.7158,29.1456,常德市,白鹤山,,,,,,,,,,,,,,,,
2025-10-02T1100,3138A,111.7153,29.0289,常德市,武陵区永安,颗粒物(PM10),54,57,62,20,42,73,,23,23,4,15,4,3,0.3,0.6
2025-10-02T1100,3139A,111.6892,28.9881,常德市,鼎城区玉霞,,,44,64,22,46,69,,18,18,,15,5,6,,0.9
2025-10-02T1100,3140A,111.6625,29.0531,常德市,武陵区长庚,,48,48,59,25,41,72,,23,23,4,11,4,2,0.6,0.8
2025-10-02T1100,1196A,119.9633,31.762,常州市,市监测站,,32,28,40,22,27,96,,81,77,11,17,12,13,0.7,0.9
2025-10-02T1100,1200A,119.9468,31.7069,常州市,武进监测站,,35,,30,24,23,95,,82,80,5,10,8,8,0.8,0.9
2025-10-02T1100,1201A,119.9255,31.9087,常州市,安家,,29,21,42,16,24,92,,79,79,10,19,7,8,0.9,0.8
2025-10-02T1100,3002A,119.9805,31.8174,常州市,行政中心,,32,27,32,17,23,100,,85,82,9,15,1,2,0.8,0.8
2025-10-02T1100,3003A,120.0522,31.7748,常州市,经开区,,29,24,34,20,21,92,,80,76,12,16,12,9,1.4,1
2025-10-02T1100,3010A,119.9025,31.7964,常州市,钟楼,,38,38,40,16,22,105,,95,90,11,16,8,9,0.8,1
2025-10-02T1100,3429A,119.8598,31.7066,常州市,武进经发区,,,26,31,16,19,95,,85,79,,15,10,9,,1
2025-10-02T1100,3430A,119.5826,31.7245,常州市,金坛城区,,37,37,27,24,19,93,,83,76,11,10,12,10,1.1,0.9
2025-10-02T1100,2220A,120.4318,41.5881,朝阳市,西梁,细颗粒物(PM2.5),92,78,50,68,24,79,,18,18,27,32,9,9,0.9,0.6
2025-10-02T1100,2221A,120.4521,41.5646,朝阳市,河畔小区,细颗粒物(PM2.5),68,72,46,49,21,77,,22,22,26,26,11,9,1.0,0.6
2025-10-02T1100,2222A,120.4176,41.5648,朝阳市,八里堡,细颗粒物(PM2.5),85,78,51,63,20,102,,26,26,20,34,7,7,1.0,0.6
2025-10-02T1100,2223A,120.3806,41.5969,朝阳市,农业园区,细颗粒物(PM2.5),108,82,39,81,22,108,,34,34,18,23,6,6,0.9,0.5
2025-10-02T1100,1705A,116.6367,23.6719,潮州市,西园路,,26,,26,18,22,79,,46,46,4,8,4,5,0.1,0.2
2025-10-02T1100,3026A,116.6183,23.6608,潮州市,市政府,,30,30,29,10,16,87,,58,58,4,7,9,10,0.3,0.4
2025-10-02T1100,4036A,116.6461,23.6761,潮州市,金山,,40,40,30,8,15,76,,40,40,2,4,6,6,0.5,0.6
2025-10-02T1100,2472A,113.0073,25.9061,郴州市,马头岭,,43,43,49,13,23,111,,34,34,11,18,6,7,0.4,0.4
2025-10-02T1100,2473A,113.0116,25.8226,郴州市,市职中,,35,35,41,21,31,105,,32,32,5,9,4,6,0.4,0.6
2025-10-02T1100,2475A,113.0383,25.8071,郴州市,市审计局,,38,38,43,23,34,112,,56,56,7,10,6,8,0.5,0.7
2025-10-02T1100,2476A,113.0348,25.7759,郴州市,市环保局,,35,28,46,17,32,111,,60,60,4,11,5,8,0.4,0.5
2025-10-02T1100,4252A,113.0138,25.8011,郴州市,好美居路49号,,35,29,38,22,25,110,,52,52,6,12,4,6,0.4,0.5
2025-10-02T1100,1431A,103.9728,30.7236,成都市,金泉两河,,18,,29,12,15,57,,19,19,13,15,3,3,0.5,0.6
2025-10-02T1100,1432A,104.176,30.6872,成都市,十里店,,22,,22,8,12,69,,40,40,12,16,3,3,0.7,0.7
2025-10-02T1100,1433A,104.079,30.5706,成都市,三瓦窑,,28,,24,19,18,66,,48,48,20,21,4,4,0.5,0.5
2025-10-02T1100,1434A,104.1114,30.63,成都市,沙河铺,,22,22,31,3,16,48,,17,17,24,25,4,3,0.5,0.7
2025-10-02T1100,1437A,104.0786,30.6531,成都市,君平街,,21,21,32,9,20,58,,35,35,19,16,5,4,0.6,0.6
2025-10-02T1100,1438A,103.613,31.0283,成都市,灵岩寺,,,,,,,,,,,,,,,,
2025-10-02T1100,2880A,104.0239,30.65639,成都市,大石西路,,,21,31,14,23,42,,23,23,27,18,2,2,,0.6
2025-10-02T1100,3136A,104.2725,30.5589,成都市,龙泉驿区区政府,,20,,20,9,8,62,,47,44,15,15,6,4,0.5,0.5
2025-10-02T1100,3357A,104.0106,30.6931,成都市,金博路,,18,16,26,3,13,57,,20,20,18,18,7,6,0.6,0.6
2025-10-02T1100,3359A,104.0578,30.5225,成都市,华阳,,35,27,21,24,18,69,,49,49,16,16,5,4,0.5,0.5
2025-10-02T1100,3488A,104.3853,30.7453,成都市,青白江技师分院,,24,6,19,3,10,74,,26,26,11,17,6,5,0.6,0.7
2025-10-02T1100,3489A,104.0789,30.4072,成都市,科学城,,24,24,22,14,15,57,,51,51,13,15,6,4,0.6,0.5
2025-10-02T1100,4011A,103.8506,30.6947,成都市,光华大道三段,,32,32,39,14,35,74,,23,23,11,18,2,2,0.6,0.6
2025-10-02T1100,4224A,104.2433,30.5353,成都市,鲸龙路1057号,,21,15,19,8,11,65,,48,47,15,18,5,4,0.5,0.5
2025-10-02T1100,1062A,117.9531,40.9081,承德市,铁路,,36,36,37,11,11,36,,12,12,24,25,11,5,0.6,0.6
2025-10-02T1100,1063A,117.9392,40.9763,承德市,中国银行,,17,14,38,7,12,53,,15,15,11,23,2,6,0.3,0.8
2025-10-02T1100,1064A,117.9503,40.928,承德市,开发区,颗粒物(PM10),52,54,43,23,20,38,,11,11,22,25,12,5,0.6,0.7
2025-10-02T1100,1066A,117.9268,41.0026,承德市,离宫,,20,20,28,6,14,53,,20,20,12,20,2,6,0.3,0.7
2025-10-02T1100,4274A,117.7994,40.9605,承德市,滨河大街98号,颗粒物(PM10),62,74,38,21,14,34,,12,12,37,21,117,22,2.3,1.2
2025-10-02T1100,2314A,117.47,30.6618,池州市,池州学院,,,38,34,27,22,52,,35,24,,13,,6,1.1,0.9
2025-10-02T1100,3237A,117.4918,30.6617,池州市,展览馆,,47,47,34,28,22,56,,35,26,14,14,29,7,1.2,0.9
2025-10-02T1100,3333A,117.5627,30.695,池州市,第八中学,,43,43,35,29,22,47,,42,30,13,9,16,7,1.2,1
2025-10-02T1100,3334A,117.5038,30.6243,池州市,第十二中学,,36,36,36,21,21,54,,22,19,14,17,7,5,1.0,1.2
2025-10-02T1100,1744A,118.9233,42.2816,赤峰市,松山一中,,34,34,51,11,21,37,,9,9,39,39,8,9,0.5,0.6
2025-10-02T1100,1745A,118.9576,42.2728,赤峰市,哈达街,,,,52,,19,46,,25,25,,32,12,14,0.5,0.5
2025-10-02T1100,1746A,118.8788,42.2554,赤峰市,天义路,,29,24,33,20,26,55,,19,19,27,32,10,8,0.4,0.4
2025-10-02T1100,3058A,119.2658,42.0353,赤峰市,银河街,颗粒物(PM10),79,108,56,45,20,67,,23,23,23,26,37,19,1.6,0.6
2025-10-02T1100,3286A,118.9359,42.3147,赤峰市,桥北物流园区,,40,40,44,21,20,45,,18,18,30,35,8,10,0.5,0.4
2025-10-02T1100,2521A,107.3476,22.4136,崇左市,市环保局江州分局,,16,16,25,10,10,51,,14,14,3,8,2,3,0.7,0.8
2025-10-02T1100,4256A,107.3750,22.3736,崇左市,石景林东路7号,,,31,21,13,11,56,,14,14,5,8,,4,0.4,0.5
2025-10-02T1100,2298A,118.3093,32.3153,滁州市,老年大学,,39,39,38,23,29,69,,63,63,12,12,8,6,0.8,0.6
2025-10-02T1100,2299A,118.3244,32.2786,滁州市,人大宾馆,,28,24,30,19,27,72,,62,62,11,11,8,6,0.9,0.7
2025-10-02T1100,3207A,118.3118,32.3038,滁州市,市政府原办公楼,,49,38,36,34,36,71,,70,69,15,13,9,7,0.9,0.6
2025-10-02T1100,3331A,118.3267,32.2634,滁州市,图书馆,,32,32,32,20,27,69,,67,67,11,10,11,9,0.9,0.7
2025-10-02T1100,2605A,101.5482,25.0441,楚雄彝族自治州,州环境监测站,,8,,5,3,4,22,,20,19,1,2,6,6,0.6,0.5
2025-10-02T1100,2606A,101.538,25.0492,楚雄彝族自治州,市经济开发区,,8,8,7,3,5,21,,18,17,5,5,4,4,0.7,0.6
2025-10-02T1100,2548A,107.5277,31.2827,达州市,达州职业技术学院,,14,14,19,3,3,26,,24,24,8,8,9,10,0.2,0.3
2025-10-02T1100,2549A,107.5086,31.2186,达州市,市环境监测站,,20,20,13,3,1,13,,14,14,22,16,6,7,0.4,0.4
2025-10-02T1100,2550A,107.4988,31.2132,达州市,凤凰小区,,14,14,13,3,2,16,,15,15,19,14,6,6,0.4,0.3
2025-10-02T1100,2551A,107.5082,31.1986,达州市,达县机关宾馆,,10,,11,7,4,18,,13,13,16,16,5,6,0.4,0.3
2025-10-02T1100,2552A,107.4644,31.2124,达州市,市政中心,,27,27,23,3,1,10,,11,11,18,15,6,7,0.4,0.3
2025-10-02T1100,2614A,100.1542,25.7054,大理白族自治州,大理市环境监测站,,22,,3,15,11,40,,38,37,5,6,4,4,0.7,0.7
2025-10-02T1100,2615A,100.2171,25.5811,大理白族自治州,大理古城,,11,9,8,3,6,35,,26,26,7,7,6,6,0.8,0.7
2025-10-02T1100,1109A,121.612,38.9741,大连市,甘井子,,31,24,64,9,34,99,,122,112,15,22,6,9,0.4,0.5
2025-10-02T1100,1110A,121.565,38.9511,大连市,周水子,,35,25,54,8,34,109,,114,108,10,16,1,4,0.4,0.6
2025-10-02T1100,1111A,121.5637,38.8845,大连市,星海三站,,37,28,60,8,40,118,,101,101,4,9,4,5,0.4,0.7
2025-10-02T1100,1112A,121.6302,38.9117,大连市,青泥洼桥,,36,18,60,8,40,113,,102,102,8,12,8,9,0.6,0.9
2025-10-02T1100,1113A,121.6251,38.8638,大连市,傅家庄,,39,21,43,9,38,123,,131,122,10,14,11,13,0.6,0.9
2025-10-02T1100,1114A,121.5213,38.8661,大连市,七贤岭,,36,24,50,8,37,113,,89,89,13,12,4,6,0.5,0.7
2025-10-02T1100,1115A,121.2529,38.8061,大连市,旅顺,,33,14,46,10,33,103,,127,115,20,16,8,9,0.3,0.5
2025-10-02T1100,1116A,121.7485,39.1311,大连市,金州,,36,22,69,13,35,113,,128,118,21,14,11,12,0.3,0.5
2025-10-02T1100,1117A,121.7811,39.0496,大连市,开发区,,33,30,52,17,40,103,,118,110,22,17,4,5,0.5,0.7
2025-10-02T1100,1118A,121.9762,39.0631,大连市,双D港,,39,28,50,13,31,123,,123,123,16,11,12,11,0.7,0.9
2025-10-02T1100,1789A,124.81117,46.03138,大庆市,大同区,,36,36,29,3,10,40,,26,26,9,10,10,10,0.5,0.5
2025-10-02T1100,1790A,125.129,46.533,大庆市,龙凤区,,30,30,30,8,13,42,,31,31,9,8,9,8,0.6,0.6
2025-10-02T1100,1791A,124.902,46.408,大庆市,红岗区,,20,20,27,10,12,46,,30,30,10,10,6,7,0.4,0.4
2025-10-02T1100,1792A,125.153,46.586,大庆市,萨尔图区,,39,39,26,12,7,38,,32,32,13,8,11,10,0.5,0.5
2025-10-02T1100,1793A,124.9042,46.6215,大庆市,让胡路区,,29,29,28,14,14,41,,28,28,14,11,8,6,0.4,0.3
2025-10-02T1100,3481A,125.141,46.634,大庆市,萨区政府监测点,,38,38,24,14,7,43,,35,35,13,5,10,8,0.6,0.5
2025-10-02T1100,1721A,113.3819,40.1097,大同市,果树场,,44,44,61,29,35,66,,18,18,23,38,12,8,0.9,0.7
2025-10-02T1100,1723A,113.2994,40.0758,大同市,云冈宾馆,颗粒物(PM10),58,66,93,26,30,73,,22,22,27,46,10,10,1.5,1.6
2025-10-02T1100,1724A,113.3444,40.0917,大同市,大同大学,颗粒物(PM10),55,60,76,24,27,72,,29,29,27,47,15,13,1.1,1
2025-10-02T1100,1725A,113.2661,40.1269,大同市,安家小村,颗粒物(PM10),60,70,87,25,28,77,,26,26,25,41,9,9,1.0,1.6
2025-10-02T1100,1726A,113.2711,40.0844,大同市,教育学院,颗粒物(PM10),54,57,105,25,35,79,,24,24,20,51,13,14,0.8,1.5
2025-10-02T1100,3282A,113.3397,40.0597,大同市,大同市卫生学校,颗粒物(PM10),56,61,80,21,28,70,,29,29,27,49,14,14,1.2,1.2
2025-10-02T1100,3565A,113.1367,40.1122,大同市,云冈站,,43,43,88,23,27,84,,27,27,17,31,14,10,0.8,0.7
2025-10-02T1100,3566A,113.1186,40.2556,大同市,图书馆,颗粒物(PM10),53,56,75,27,30,87,,29,29,14,19,8,5,0.4,0.6
2025-10-02T1100,3567A,113.5931,40.0461,大同市,区一中,颗粒物(PM10),69,88,73,36,27,80,,31,31,27,25,29,20,1.0,0.8
2025-10-02T1100,4199A,113.2798,40.0997,大同市,魏都大道141号,颗粒物(PM10),63,75,111,25,36,73,,20,20,32,54,10,10,1.3,1.6
2025-10-02T1100,2269A,124.1069,50.4097,大兴安岭地区,科技局,,,11,22,6,10,48,,37,37,,10,,6,0.2,0.1
2025-10-02T1100,3663A,124.1164,50.4278,大兴安岭地区,红旗社区,,16,7,9,3,6,50,,43,43,4,11,4,5,0.3,0.3
2025-10-02T1100,1600A,124.3303,40.0625,丹东市,江湾东路,,47,47,39,31,24,75,,42,42,15,22,9,6,1.0,0.9
2025-10-02T1100,1601A,124.4256,40.1503,丹东市,临江后街,,35,35,36,17,18,65,,26,26,14,25,7,7,0.7,0.8
2025-10-02T1100,1602A,124.3933,40.1461,丹东市,元宝山,,31,31,31,17,18,69,,25,25,10,16,7,7,0.8,0.8
2025-10-02T1100,1603A,124.3633,40.1092,丹东市,民主桥,,39,39,35,22,18,82,,38,38,14,24,6,4,0.9,0.8
2025-10-02T1100,3541A,109.5726,19.5167,儋州市,第一中学子站,,15,15,13,8,8,31,,29,25,2,3,8,7,0.3,0.2
2025-10-02T1100,3542A,109.5567,19.5187,儋州市,东坡学校子站,,18,18,13,6,6,34,,31,26,4,5,4,4,0.3,0.2
2025-10-02T1100,2616A,98.5842,24.428,德宏傣族景颇族自治州,德宏州监测站,,16,16,14,9,8,20,,16,13,9,8,9,9,0.7,0.7
2025-10-02T1100,3677A,98.5881,24.4368,德宏傣族景颇族自治州,芒市人民政府综合楼,,19,15,18,13,6,22,,15,13,7,6,7,8,0.7,0.7
2025-10-02T1100,1901A,104.4239,31.1208,德阳市,东山公园,,20,11,9,7,7,61,,30,30,12,8,2,3,0.6,0.6
2025-10-02T1100,1902A,104.3826,31.1317,德阳市,西小区,,28,28,23,10,9,61,,25,25,12,14,1,3,0.5,0.6
2025-10-02T1100,1904A,104.3553,31.1091,德阳市,耐火材料厂,,27,27,25,6,9,64,,20,20,9,16,3,2,0.7,0.8
2025-10-02T1100,3639A,104.4019,31.1244,德阳市,市教育局,,21,21,15,7,8,56,,22,22,10,10,8,6,0.8,0.8
2025-10-02T1100,1622A,116.3032,37.4674,德州市,儿童乐园,,39,24,52,9,20,124,,93,89,8,18,9,10,0.4,0.5
2025-10-02T1100,1624A,116.2991,37.4451,德州市,监理站,,39,9,40,9,19,124,,92,87,8,21,12,13,0.4,0.5
2025-10-02T1100,3066A,116.2721,37.4379,德州市,九衢泉纯净水厂,,37,12,52,9,20,116,,74,74,8,28,10,12,0.3,0.4
2025-10-02T1100,3371A,116.3728,37.4403,德州市,开发区人民医院,,34,19,46,12,20,107,,75,74,6,17,10,11,0.4,0.5
2025-10-02T1100,3511A,116.5652,37.3319,德州市,陵城艺术中心,,35,24,48,3,16,109,,81,78,11,19,9,10,0.8,0.7
2025-10-02T1100,4292A,116.3525,37.4209,德州市,新河东路,,37,17,48,14,21,116,,79,79,12,24,9,9,0.6,0.6
2025-10-02T1100,2621A,99.7056,27.8317,迪庆藏族自治州,迪庆州站,,,,17,15,16,45,,29,29,,7,7,7,,0.6
2025-10-02T1100,3180A,99.7136,27.8094,迪庆藏族自治州,质量技术监督局,,19,19,15,7,8,48,,33,33,8,7,8,7,0.5,0.5
2025-10-02T1100,4257A,104.6092,35.5962,定西市,将台街,,28,21,24,19,16,87,,70,70,8,14,8,8,0.4,0.3
2025-10-02T1100,4309A,104.6159,35.5701,定西市,正龙路62号,,25,24,28,16,18,78,,62,62,8,6,6,6,0.2,0.2
2025-10-02T1100,1389A,113.7547,23.0494,东莞市,莞城梨川,,26,17,26,3,12,81,,46,46,7,18,6,6,0.5,0.5
2025-10-02T1100,1390A,113.7944,23.0128,东莞市,东城石井,,27,20,24,11,13,84,,38,38,8,16,6,6,0.4,0.4
2025-10-02T1100,1391A,113.7383,22.9658,东莞市,南城西平,,25,21,23,14,12,79,,36,36,10,23,3,4,0.4,0.5
2025-10-02T1100,3319A,113.7338,23.0381,东莞市,万江金泰,,25,17,26,10,13,78,,46,46,7,17,6,6,0.5,0.5
2025-10-02T1100,3626A,113.7533,23.0202,东莞市,南城元岭,,28,18,25,11,14,87,,46,46,9,20,5,5,0.4,0.5
2025-10-02T1100,3627A,113.7875,23.0457,东莞市,东城主山,,27,26,28,14,16,85,,45,45,12,21,3,3,0.5,0.5
2025-10-02T1100,1666A,118.6614,37.4309,东营市,市环保局,,35,7,42,7,19,111,,85,85,11,20,5,8,0.3,0.4
2025-10-02T1100,3036A,118.6904,37.4338,东营市,开发区管委会,,35,12,53,9,20,111,,91,91,10,21,5,9,0.2,0.5
2025-10-02T1100,3365A,118.5719,37.565,东营市,垦利区民丰路,,31,17,62,12,32,98,,89,80,15,19,6,7,0.8,0.9
2025-10-02T1100,3498A,118.5055,37.8612,东营市,河口城区,,34,14,61,3,29,108,,104,97,9,17,5,7,0.4,0.7
2025-10-02T1100,3646A,118.4978,37.4623,东营市,胜利站,,33,29,61,3,24,103,,88,83,20,26,7,9,0.4,0.6
2025-10-02T1100,3734A,118.35,37.26,东营市,理想之城,,32,,51,17,27,101,,69,69,14,26,2,5,0.3,0.5
2025-10-02T1100,1591A,110.0023,39.8129,鄂尔多斯市,综合楼,,34,31,39,9,13,106,,91,90,12,21,8,10,0.4,0.5
2025-10-02T1100,1592A,109.9486,39.8261,鄂尔多斯市,巴音孟克林场办事处,,35,34,40,9,13,110,,107,104,11,17,6,8,0.3,0.4
2025-10-02T1100,1593A,109.7736,39.5986,鄂尔多斯市,康泽苑,,44,44,40,17,16,83,,46,38,18,18,7,9,0.3,0.4
2025-10-02T1100,1594A,109.8119,39.5989,鄂尔多斯市,华泰汽车城,,41,41,32,22,17,83,,29,28,16,20,6,6,0.4,0.4
2025-10-02T1100,1595A,109.9734,39.7884,鄂尔多斯市,奥林花园,,39,39,42,14,14,100,,56,56,11,25,7,8,0.5,0.5
2025-10-02T1100,2436A,114.8938,30.3994,鄂州市,市政府,,47,47,47,19,23,72,,56,53,21,17,9,9,1.0,1
2025-10-02T1100,2437A,114.8989,30.3714,鄂州市,赵家坝,颗粒物(PM10),55,60,54,25,24,80,,51,51,13,14,12,9,0.9,1
2025-10-02T1100,3654A,114.8094,30.4089,鄂州市,精准医疗中心,颗粒物(PM10),54,58,49,31,30,74,,55,51,14,13,10,17,1.0,1.4
2025-10-02T1100,2454A,109.4978,30.2981,恩施土家族苗族自治州,湖北民院,,29,29,20,15,14,0,,2,1,10,8,6,6,0.7,0.6
2025-10-02T1100,2455A,109.4707,30.2798,恩施土家族苗族自治州,州电力总公司,,30,30,19,16,10,2,,1,1,14,11,6,6,0.6,0.5
2025-10-02T1100,3549A,109.5061,30.3772,恩施土家族苗族自治州,龙凤新区,,20,20,18,8,9,3,,1,1,10,5,5,6,0.7,0.5
2025-10-02T1100,2499A,108.3411,21.6158,防城港市,沙万,,36,36,25,8,11,28,,17,14,17,14,6,6,0.6,0.7
2025-10-02T1100,2500A,108.3514,21.7731,防城港市,防城档案局,,33,33,35,14,15,50,,14,14,11,9,6,5,0.6,0.7
2025-10-02T1100,2501A,108.3506,21.6414,防城港市,大海花园,,48,48,22,12,11,48,,32,26,15,10,9,11,0.6,0.5
2025-10-02T1100,1371A,113.1294,23.0067,佛山市,湾梁,,,,23,6,10,50,,35,35,,17,,7,0.2,0.3
2025-10-02T1100,1372A,113.1083,23.0478,佛山市,华材职中,,19,12,21,6,15,58,,42,42,6,9,5,6,0.5,0.5
2025-10-02T1100,1373A,113.144,23.0453,佛山市,南海气象局,,17,16,25,10,17,54,,38,38,9,14,6,7,0.5,0.6
2025-10-02T1100,1374A,113.2881,22.8094,佛山市,顺德苏岗,,27,27,29,7,11,38,,31,30,14,12,7,7,0.6,0.7
2025-10-02T1100,1376A,112.8383,22.8678,佛山市,高明孔堂,,20,,25,10,14,61,,38,38,8,10,2,3,0.3,0.4
2025-10-02T1100,1377A,112.8836,23.1588,佛山市,三水监测站,,,,28,13,22,51,,19,19,,18,6,6,,0.6
2025-10-02T1100,1378A,112.867,23.185,佛山市,三水云东海,,26,26,40,9,25,60,,26,26,12,20,3,2,0.5,0.6
2025-10-02T1100,3625A,113.2544,22.7642,佛山市,容桂街道办,,18,14,14,12,12,43,,40,38,14,13,7,7,0.7,0.7
2025-10-02T1100,1280A,119.3903,26.0543,福州市,鼓山,,,,,,,,,,,,,,,,
2025-10-02T1100,1282A,119.2681,26.0504,福州市,师大,,24,16,19,3,7,74,,42,42,8,10,6,6,0.4,0.3
2025-10-02T1100,1283A,119.2984,26.1028,福州市,五四北路,,37,37,28,3,8,66,,41,41,5,8,4,4,0.4,0.3
2025-10-02T1100,1284A,119.2648,26.0768,福州市,杨桥西路,,24,21,18,8,9,74,,42,42,6,8,4,4,0.5,0.3
2025-10-02T1100,1285A,119.317,26.0746,福州市,紫阳,,27,27,21,7,7,64,,43,43,6,9,6,6,0.5,0.3
2025-10-02T1100,3048A,119.5799,26.0936,福州市,九龙,,19,9,13,3,2,59,,42,42,2,4,3,4,0.2,0.3
2025-10-02T1100,3526A,119.5189,25.9664,福州市,吴航,,,9,12,3,7,60,,37,37,2,4,4,4,,0.4
2025-10-02T1100,1755A,123.7977,41.8491,抚顺市,望花区,细颗粒物(PM2.5),62,62,63,44,37,90,,35,35,16,18,14,10,1.2,0.9
2025-10-02T1100,1756A,123.9161,41.8822,抚顺市,顺城区,,,,52,31,30,96,,44,44,14,19,8,7,0.9,1
2025-10-02T1100,1757A,124.0436,41.8611,抚顺市,东洲区,颗粒物(PM10),52,53,41,25,29,88,,51,51,8,13,4,6,0.7,0.8
2025-10-02T1100,1758A,123.9247,41.8642,抚顺市,新抚区,,48,48,51,29,31,96,,31,31,12,17,9,8,1.0,1
2025-10-02T1100,1759A,124.0972,41.8961,抚顺市,大伙房水库,,33,,39,23,31,86,,52,52,6,11,8,8,0.7,0.8
2025-10-02T1100,1760A,123.7086,41.8391,抚顺市,沈抚新城,颗粒物(PM10),52,54,62,29,37,127,,46,46,14,26,7,10,0.9,1.4
2025-10-02T1100,2376A,116.2127,28.0814,抚州市,桐源党溪,,38,38,45,25,26,80,,46,46,5,12,3,3,0.6,0.7
2025-10-02T1100,2377A,116.3544,27.9831,抚州市,市站,,34,34,42,18,23,86,,57,57,3,7,4,6,0.6,0.7
2025-10-02T1100,2378A,116.3565,27.963,抚州市,血防站,,35,32,39,24,24,84,,51,51,4,8,6,7,0.7,0.8
2025-10-02T1100,2379A,116.3564,28.0007,抚州市,采茶剧团,,37,37,43,12,23,84,,57,57,2,5,6,9,0.7,0.8
2025-10-02T1100,2380A,116.385,27.9647,抚州市,医学分院,,36,36,47,20,26,86,,53,53,2,6,5,6,0.7,0.8
2025-10-02T1100,2207A,121.6094,41.998,阜新市,工业园区,颗粒物(PM10),91,132,78,67,34,133,,40,40,18,28,16,12,1.0,0.7
2025-10-02T1100,2208A,121.6697,42.0279,阜新市,长青街,细颗粒物(PM2.5),124,120,64,94,40,128,,51,51,18,23,17,12,1.1,1.7
2025-10-02T1100,2209A,121.6673,42.0705,阜新市,农业园区,细颗粒物(PM2.5),122,113,72,92,38,120,,82,82,17,12,10,7,1.1,1
2025-10-02T1100,2210A,121.6717,42.0224,阜新市,东苑,细颗粒物(PM2.5),100,113,86,75,35,123,,51,51,20,31,22,16,1.2,2
2025-10-02T1100,2211A,121.6506,42.0498,阜新市,玉龙新城,细颗粒物(PM2.5),94,109,74,70,30,113,,34,34,18,31,15,10,1.0,0.8
2025-10-02T1100,2301A,115.8277,32.8929,阜阳市,市监测站,,21,17,28,3,14,66,,54,54,10,14,4,4,0.3,0.5
2025-10-02T1100,2303A,115.8554,32.8605,阜阳市,开发区,,20,6,24,3,11,64,,52,52,8,10,7,7,0.3,0.5
2025-10-02T1100,2875A,115.784,32.8892,阜阳市,阜阳职业技术学院,,24,,26,3,13,76,,61,61,8,12,4,5,0.4,0.5
2025-10-02T1100,3468A,115.7901,32.8613,阜阳市,市规划展馆,,,,30,,18,69,,50,50,,10,4,4,0.2,0.3
2025-10-02T1100,3469A,115.836,32.9183,阜阳市,枣园社区,,23,6,30,3,18,72,,57,57,9,14,6,6,0.4,0.6
2025-10-02T1100,2669A,102.9099,34.9841,甘南藏族自治州,州政府,,36,,24,25,20,26,,9,9,24,25,8,5,0.5,0.5
2025-10-02T1100,3380A,102.8914,34.9617,甘南藏族自治州,甘肃民族师范学院,,37,37,28,6,12,28,,13,13,31,23,6,5,0.4,0.4
2025-10-02T1100,2570A,101.9603,30.0475,甘孜藏族自治州,水桥子,,14,14,9,6,4,11,,7,7,8,11,8,7,0.7,0.6
2025-10-02T1100,3065A,101.9533,29.9972,甘孜藏族自治州,州环保局,,15,15,10,9,5,23,,15,15,5,8,4,5,0.3,0.3
2025-10-02T1100,3414A,115.8347,28.932,赣江新区,桑海产业园,,34,34,33,23,20,102,,44,44,9,20,10,7,0.3,0.3
2025-10-02T1100,2362A,114.9017,25.9149,赣州市,通天岩,,37,37,47,19,21,112,,74,74,4,4,16,15,0.8,0.8
2025-10-02T1100,2363A,114.9367,25.8664,赣州市,地委,,30,29,35,21,25,90,,70,70,8,10,6,7,0.5,0.6
2025-10-02T1100,2364A,114.9461,25.8481,赣州市,气象台,,32,22,35,15,19,101,,78,78,4,5,7,7,0.5,0.6
2025-10-02T1100,2365A,114.9322,25.8333,赣州市,市图书馆,,29,27,30,15,21,92,,68,68,6,6,6,6,0.5,0.6
2025-10-02T1100,2366A,114.8905,25.8471,赣州市,华坚鞋城,,33,33,37,13,22,85,,66,66,7,11,5,6,0.5,0.5
2025-10-02T1100,3109A,115.0093,25.8613,赣州市,赣县区卫计委,,32,32,30,15,25,98,,65,65,4,8,7,6,0.5,0.5
2025-10-02T1100,2683A,106.2319,36.1417,固原市,马园,,,,,,,,,,,,,,,,
2025-10-02T1100,2684A,106.2792,36.0022,固原市,监测站,,,,7,,8,76,,86,80,8,6,5,5,0.4,0.3
2025-10-02T1100,2685A,106.2375,36.0211,固原市,新区,,24,6,7,3,2,74,,83,82,8,6,6,6,0.4,0.4
2025-10-02T1100,3522A,106.2177,35.9959,固原市,原州区十五小,,25,9,9,3,6,80,,78,78,7,7,8,8,0.5,0.5
2025-10-02T1100,2543A,106.6308,30.5278,广安市,小平旧居,,,,,,,,,,,,,,,,
2025-10-02T1100,2544A,106.6303,30.4576,广安市,市委,,9,9,19,3,13,26,,30,,8,7,6,7,0.4,0.6
2025-10-02T1100,2545A,106.6271,30.4663,广安市,友谊中学,,10,9,17,7,10,28,,33,27,11,9,6,6,1.0,1
2025-10-02T1100,2547A,106.6388,30.4551,广安市,广电花园,,12,8,15,8,9,27,,28,22,8,8,6,7,0.5,0.6
2025-10-02T1100,2902A,106.6351,30.4865,广安市,北辰小学,,10,,12,6,10,31,,32,27,7,6,8,8,0.8,0.8
2025-10-02T1100,2523A,105.8945,32.4535,广元市,黑石坡,,19,6,7,6,8,59,,61,60,2,4,10,10,0.4,0.4
2025-10-02T1100,2524A,105.821,32.4444,广元市,老城,,25,9,12,3,2,80,,76,76,7,11,4,5,0.5,0.6
2025-10-02T1100,2526A,105.8628,32.4287,广元市,监测站,,23,10,12,6,8,72,,70,70,6,10,6,6,0.6,0.7
2025-10-02T1100,3617A,105.8047,32.4166,广元市,经开区,,23,14,5,3,2,72,,67,67,6,9,2,2,0.5,0.5
2025-10-02T1100,1345A,113.2347,23.1423,广州市,广雅中学,,24,24,28,12,16,38,,42,39,21,15,5,4,0.5,0.5
2025-10-02T1100,1346A,113.2612,23.105,广州市,市五中,,20,20,24,11,14,46,,44,41,22,14,6,6,0.3,0.4
2025-10-02T1100,1348A,113.3478,23.0916,广州市,广东商学院,,27,27,26,18,19,57,,32,32,24,21,5,4,0.3,0.3
2025-10-02T1100,1349A,113.4332,23.1047,广州市,市八十六中,,20,20,21,9,13,64,,30,30,23,31,8,5,0.5,0.4
2025-10-02T1100,1350A,113.3505,22.9483,广州市,番禺中学,,26,19,20,18,12,58,,42,40,12,19,6,6,0.6,0.6
2025-10-02T1100,1351A,113.2146,23.3916,广州市,花都师范,,37,37,36,14,19,36,,30,27,29,23,6,5,0.7,0.6
2025-10-02T1100,1352A,113.2597,23.1331,广州市,市监测站,,24,24,26,11,13,47,,41,39,18,14,6,6,0.5,0.5
2025-10-02T1100,1353A,113.5618,23.312,广州市,九龙镇镇龙,,26,26,34,13,21,60,,20,20,13,26,8,8,0.4,0.5
2025-10-02T1100,1354A,113.2765,23.1544,广州市,麓湖,,17,17,24,11,16,45,,20,20,18,20,5,4,0.4,0.4
2025-10-02T1100,1355A,113.443,23.3035,广州市,帽峰山森林公园,,18,18,25,12,16,56,,24,24,17,22,8,8,0.6,0.6
2025-10-02T1100,2846A,113.3221,23.1322,广州市,体育西,,24,24,23,13,16,56,,33,32,21,19,5,5,0.4,0.5
2025-10-02T1100,3298A,113.5717,23.5491,广州市,从化街口,,,,32,9,22,65,,23,23,,18,6,10,0.6,0.7
2025-10-02T1100,3299A,113.3472,23.3692,广州市,白云竹料,,36,36,34,18,19,62,,29,29,20,22,6,5,0.4,0.5
2025-10-02T1100,3300A,113.2981,23.237,广州市,白云嘉禾,,25,25,31,14,18,49,,22,22,24,24,6,5,0.4,0.4
2025-10-02T1100,3301A,113.4256,23.1716,广州市,黄埔科学城,,,37,32,19,18,63,,22,22,22,18,7,6,,0.2
2025-10-02T1100,3302A,113.3942,23.0483,广州市,番禺大学城,,25,25,30,8,13,65,,34,34,18,19,6,6,0.4,0.4
2025-10-02T1100,3303A,113.4922,22.8168,广州市,南沙黄阁,,20,20,23,9,12,54,,25,24,14,20,7,7,0.3,0.3
2025-10-02T1100,3304A,113.5342,22.7896,广州市,南沙街,,18,17,20,7,10,57,,24,24,11,17,6,6,0.3,0.3
2025-10-02T1100,3443A,113.2902,23.5544,广州市,花都梯面,,19,15,32,8,19,58,,21,21,16,19,7,6,0.4,0.5
2025-10-02T1100,3445A,113.7858,23.7478,广州市,从化良口,,21,13,25,11,20,66,,35,35,7,11,6,5,0.7,0.8
2025-10-02T1100,3446A,113.8051,23.2614,广州市,增城荔城,,22,12,28,9,18,69,,32,32,7,14,5,6,0.4,0.5
2025-10-02T1100,2505A,109.568,23.1478,贵港市,德智高中,,,,,,,,,,,,,,,,
2025-10-02T1100,2506A,109.6047,23.0666,贵港市,江南子站,,25,17,41,17,25,62,,38,38,3,12,4,4,0.5,0.6
2025-10-02T1100,2508A,109.5669,23.1065,贵港市,荷城子站,,,12,29,3,17,54,,36,36,8,15,4,4,,0.6
2025-10-02T1100,3405A,109.5886,23.1172,贵港市,新世纪学校,,20,19,29,11,17,62,,48,48,8,15,7,6,0.4,0.5
2025-10-02T1100,4260A,109.5933,23.0951,贵港市,中山路155-3号,,25,24,33,17,20,68,,48,48,4,10,4,4,0.5,0.6
2025-10-02T1100,1439A,106.6899,26.5998,贵阳市,马鞍山,,12,7,7,7,7,37,,33,32,6,6,3,3,0.5,0.5
2025-10-02T1100,1441A,106.6243,26.6266,贵阳市,鉴湖路,,,17,16,3,6,38,,32,32,,5,,5,0.4,0.3
2025-10-02T1100,1442A,106.7487,26.6343,贵阳市,燕子冲,,18,,8,12,10,38,,35,35,7,7,2,2,0.3,0.3
2025-10-02T1100,1443A,106.6555,26.4365,贵阳市,碧云窝,,19,19,20,3,2,41,,34,34,3,4,5,6,0.2,0.2
2025-10-02T1100,1445A,106.7109,26.6027,贵阳市,红边门,,19,19,15,9,10,36,,32,32,5,5,4,3,0.2,0.2
2025-10-02T1100,1446A,106.7164,26.5699,贵阳市,新华路,,,12,12,9,3,43,,38,38,8,8,,4,0.4,0.3
2025-10-02T1100,1447A,106.674,26.5424,贵阳市,太慈桥,,14,9,8,3,2,43,,38,38,11,11,5,3,0,0
2025-10-02T1100,1552A,106.805,26.3003,贵阳市,桐木岭,,29,29,24,9,11,43,,42,42,4,4,5,4,1.1,1
2025-10-02T1100,4230A,106.6882,26.5695,贵阳市,花果园大街66号,,12,6,4,3,5,38,,35,35,6,6,1,1,0.4,0.4
2025-10-02T1100,4231A,106.6873,26.5169,贵阳市,漓江路57号,,14,14,11,3,3,40,,36,36,3,4,6,7,0.5,0.5
2025-10-02T1100,1862A,110.4144,25.3167,桂林市,电子科大尧山校区,,,,,,,,,,,,,,,,
2025-10-02T1100,1864A,110.3089,25.2708,桂林市,龙隐路小学,,36,36,33,14,17,78,,41,41,6,10,5,7,0.3,0.3
2025-10-02T1100,1865A,110.2869,25.2178,桂林市,八中,,,35,35,15,16,82,,33,33,5,12,,7,0.5,0.5
2025-10-02T1100,3531A,110.296,25.1253,桂林市,旅游学院,,27,27,27,17,19,86,,34,34,6,12,7,6,0.5,0.5
2025-10-02T1100,4222A,110.1835,25.2444,桂林市,环湖路276号,,31,31,32,17,16,80,,32,32,11,22,5,6,0.3,0.3
2025-10-02T1100,4301A,110.2803,25.2773,桂林市,信义路13号,,37,37,34,15,15,82,,40,40,6,12,7,9,0.4,0.4
2025-10-02T1100,2674A,100.2561,34.4714,果洛藏族自治州,玛沁县大武镇,,25,25,24,7,7,42,,32,30,17,4,18,14,0.5,0.5
2025-10-02T1100,1129A,126.5422,45.755,哈尔滨市,岭北,,,,23,,15,,,90,,,17,,7,,0.5
2025-10-02T1100,1130A,126.561,45.8167,哈尔滨市,松北商大,颗粒物(PM10),118,185,44,16,11,48,,15,15,,18,8,8,0.7,0.5
2025-10-02T1100,1131A,126.979,45.5419,哈尔滨市,阿城会宁,细颗粒物(PM2.5),75,84,49,55,26,83,,19,19,11,16,8,6,0.7,0.6
2025-10-02T1100,1132A,126.599,45.7222,哈尔滨市,南岗学府路,颗粒物(PM10),54,58,42,29,15,70,,18,18,18,20,10,10,0.7,0.5
2025-10-02T1100,1133A,126.689,45.7733,哈尔滨市,太平宏伟公园,,,100,40,30,15,63,,18,18,,17,10,9,0.6,0.5
2025-10-02T1100,1134A,126.635,45.7667,哈尔滨市,道外承德广场,颗粒物(PM10),58,66,48,27,19,59,,17,17,25,18,8,8,0.7,0.6
2025-10-02T1100,1135A,126.685,45.7319,哈尔滨市,香坊红旗大街,颗粒物(PM10),62,73,44,38,19,67,,19,19,27,23,11,9,0.7,0.5
2025-10-02T1100,1136A,126.6411,45.7258,哈尔滨市,动力和平路,颗粒物(PM10),67,84,40,30,15,66,,18,18,25,19,8,8,0.7,0.5
2025-10-02T1100,1137A,126.593,45.7478,哈尔滨市,道里建国路,颗粒物(PM10),65,79,32,16,17,68,,19,19,23,18,7,6,1.2,0.6
2025-10-02T1100,1138A,126.615,45.61,哈尔滨市,平房东轻厂,颗粒物(PM10),55,60,43,19,15,73,,18,18,12,23,9,10,0.6,0.5
2025-10-02T1100,1139A,126.595,45.9855,哈尔滨市,呼兰师专,颗粒物(PM10),54,57,33,30,19,42,,19,19,29,15,6,6,0.7,0.5
2025-10-02T1100,1140A,126.6206,45.6842,哈尔滨市,省农科院,颗粒物(PM10),84,118,59,36,17,70,,17,17,20,20,5,6,0.7,0.5
2025-10-02T1100,2688A,93.5128,42.8172,哈密市,地区监测站,颗粒物(PM10),60,69,79,21,28,69,,41,41,10,22,3,7,0.1,0.2
2025-10-02T1100,2689A,93.4961,42.8328,哈密市,哈密师范学校,颗粒物(PM10),53,55,77,18,19,69,,28,28,12,31,7,6,0.2,0.4
2025-10-02T1100,2671A,100.9048,36.9639,海北藏族自治州,海晏县西海镇,,22,19,19,15,16,69,,50,50,13,7,11,13,0.6,0.4
2025-10-02T1100,3867A,102.0738,36.5056,海东市,平安区公安北苑,细颗粒物(PM2.5),52,,23,36,17,40,,23,19,21,12,26,8,1.5,0.8
2025-10-02T1100,1409A,110.576,19.9507,海口市,东寨港,,25,,12,17,8,8,,6,6,2,3,5,5,0.1,0.1
2025-10-02T1100,1410A,110.3232,20.0574,海口市,海南大学,,14,8,10,6,6,44,,51,49,2,3,4,4,0.1,0.2
2025-10-02T1100,1411A,110.283,20.0053,海口市,秀英海南医院,,23,23,15,3,6,41,,42,41,5,6,6,6,0.2,0.2
2025-10-02T1100,1412A,110.338,19.9969,海口市,海南师范大学,,15,8,13,3,6,45,,49,48,3,5,4,4,0.3,0.3
2025-10-02T1100,1413A,110.33,20.0356,海口市,龙华路环保局宿舍,,14,12,14,6,5,44,,51,48,4,4,6,6,0.1,0.2
2025-10-02T1100,3539A,110.5111,19.9736,海口市,桂林洋子站,,11,11,12,3,5,34,,34,34,2,6,5,6,0.2,0.2
2025-10-02T1100,2673A,100.6188,36.2866,海南藏族自治州,共和县恰卜恰镇,,26,22,26,18,8,83,,56,52,11,11,12,12,0.6,0.6
2025-10-02T1100,2676A,97.3731,37.3753,海西蒙古族藏族自治州,德令哈市,,32,32,28,6,13,89,,89,89,11,6,16,14,0.7,0.5
2025-10-02T1100,1048A,114.5302,36.6116,邯郸市,东污水处理厂,,35,,40,21,25,110,,98,98,5,12,7,9,0.3,0.5
2025-10-02T1100,1049A,114.4918,36.5713,邯郸市,矿院,,37,,30,22,26,116,,106,106,5,12,4,6,0.3,0.4
2025-10-02T1100,1050A,114.484,36.6133,邯郸市,丛台公园,,37,,32,9,19,118,,106,106,10,18,8,10,0.2,0.4
2025-10-02T1100,3458A,114.7895,36.5593,邯郸市,香泉濮院小区,,33,,43,18,20,104,,83,83,5,12,4,5,0.1,0.2
2025-10-02T1100,3579A,114.50634,36.77178,邯郸市,永年区实验高中,,35,22,44,8,20,109,,90,90,8,18,3,5,0.5,0.8
2025-10-02T1100,3580A,114.20016,36.44293,邯郸市,峰峰矿区临水派出所,,,,37,,18,105,,120,118,5,12,,7,0.3,0.6
2025-10-02T1100,2634A,106.9893,33.1842,汉中市,汉川机床厂子校,,21,21,13,12,7,31,,33,31,11,8,4,4,0.6,0.5
2025-10-02T1100,2635A,107.0154,33.0706,汉中市,市监测站,,,,8,,7,60,,42,42,6,7,4,4,0.5,0.5
2025-10-02T1100,2636A,107.0089,33.1138,汉中市,鑫源开发区,,17,17,11,3,6,50,,27,27,8,9,4,4,0.6,0.5
2025-10-02T1100,2637A,107.007,33.0323,汉中市,南郑大河坎水厂,,19,10,9,10,7,58,,32,32,6,9,3,2,0.5,0.5
2025-10-02T1100,1223A,120.2072,30.2111,杭州市,滨江,,33,29,40,18,25,103,,60,60,15,20,8,8,0.6,0.7
2025-10-02T1100,1224A,120.0633,30.2747,杭州市,西溪,,34,34,39,20,33,90,,39,39,17,20,6,6,0.6,0.7
2025-10-02T1100,1226A,120.3417,30.3150,杭州市,下沙,,33,24,28,16,19,105,,57,57,8,15,8,9,0.5,0.6
2025-10-02T1100,1227A,120.1269,30.2456,杭州市,卧龙桥,,32,32,38,21,31,89,,34,34,11,15,9,9,0.7,0.7
2025-10-02T1100,1228A,120.1903,30.2692,杭州市,浙江农大,,34,34,42,16,25,88,,55,55,14,24,6,7,0.7,0.8
2025-10-02T1100,1230A,120.1197,30.3119,杭州市,和睦小学,,35,29,32,24,25,94,,59,59,12,18,5,6,0.8,0.9
2025-10-02T1100,1231A,120.3019,30.4183,杭州市,临平镇,,33,29,35,17,18,103,,55,55,16,19,6,6,0.7,0.8
2025-10-02T1100,1232A,120.2753,30.1839,杭州市,城厢镇,,,50,40,20,33,98,,52,52,15,23,,6,0.6,0.8
2025-10-02T1100,1233A,120.0883,30.1808,杭州市,云栖,,32,31,40,22,30,96,,33,33,16,20,6,6,0.8,0.9
2025-10-02T1100,3557A,119.9464,30.0494,杭州市,镇二中,,30,,37,21,39,89,,43,43,8,16,5,6,0.7,0.8
2025-10-02T1100,3558A,119.7183,30.2367,杭州市,市府大楼,,33,30,41,23,35,98,,60,60,12,15,9,8,0.4,0.5
2025-10-02T1100,3656A,120.1556,30.2864,杭州市,消防大队,,31,31,38,16,26,94,,58,58,12,20,8,9,0.7,0.8
2025-10-02T1100,1270A,117.1959,31.7848,合肥市,明珠广场,,39,39,32,27,25,45,,67,55,28,15,7,7,0.9,0.9
2025-10-02T1100,1271A,117.3072,31.8764,合肥市,三里街,颗粒物(PM10),53,56,39,29,24,42,,50,42,26,19,5,5,1.0,0.9
2025-10-02T1100,1272A,117.2588,31.8707,合肥市,琥珀山庄,颗粒物(PM10),51,51,36,26,26,52,,67,58,18,12,7,8,0.9,0.8
2025-10-02T1100,1273A,117.1604,31.9052,合肥市,董铺水库,,39,39,37,24,23,42,,57,49,14,10,5,5,0.6,0.6
2025-10-02T1100,1274A,117.25,31.8571,合肥市,长江中路,颗粒物(PM10),52,53,41,27,24,54,,69,59,26,13,8,8,0.9,0.9
2025-10-02T1100,1275A,117.266,31.9436,合肥市,庐阳区,,46,46,40,27,22,60,,67,60,19,18,8,7,1.0,0.9
2025-10-02T1100,1276A,117.3453,31.8616,合肥市,瑶海区,,46,46,37,22,23,50,,56,49,22,19,9,9,0.9,0.9
2025-10-02T1100,1277A,117.3027,31.7964,合肥市,包河区,,,34,35,27,23,58,,74,,14,15,,11,0.9,0.9
2025-10-02T1100,1278A,117.2776,31.7385,合肥市,滨湖新区,,42,34,33,29,28,71,,76,66,8,8,7,7,0.8,1
2025-10-02T1100,1279A,117.1318,31.8403,合肥市,高新区,,44,44,34,30,24,48,,76,63,24,14,6,6,0.9,0.9
2025-10-02T1100,3464A,117.3803,31.9147,合肥市,高教基地,,44,44,35,19,26,57,,64,58,16,16,7,7,0.7,0.7
2025-10-02T1100,3614A,79.924,37.0877,和田地区,地区环保局,颗粒物(PM10),100,149,136,39,34,75,,83,81,9,8,4,4,0.2,0.1
2025-10-02T1100,3615A,79.9131,37.113,和田地区,市环保局,颗粒物(PM10),101,152,135,37,36,73,,65,65,16,29,4,5,0.2,0.5
2025-10-02T1100,2516A,108.2011,24.715,河池市,东仁乐园,,,,,,,,,,,,,,,,
2025-10-02T1100,2517A,108.0497,24.6947,河池市,市环保站,,30,30,23,10,9,66,,18,18,6,10,9,6,0.6,0.6
2025-10-02T1100,2518A,108.0983,24.6989,河池市,市疾控中心,,22,22,22,11,10,61,,21,21,10,13,12,8,0.6,0.6
2025-10-02T1100,1696A,114.6778,23.7569,河源市,源西,,24,18,24,7,15,75,,36,36,5,9,4,4,0.7,0.8
2025-10-02T1100,1697A,114.6944,23.7586,河源市,东埔,,22,,23,13,17,68,,38,38,6,10,5,5,0.3,0.4
2025-10-02T1100,1698A,114.6892,23.7233,河源市,老城,,23,13,32,7,17,73,,37,37,4,8,6,6,0.4,0.5
2025-10-02T1100,1718A,115.4208,35.2464,菏泽市,气象局,,29,10,16,8,10,92,,93,90,11,11,2,2,0.3,0.3
2025-10-02T1100,3374A,115.5564,35.0891,菏泽市,定陶老年大学,,,6,13,3,5,86,,77,77,,5,4,4,,0.3
2025-10-02T1100,4184A,115.4797,35.24401,菏泽市,永昌路1号,,30,,16,9,12,94,,89,87,6,8,7,7,0.1,0.1
2025-10-02T1100,4193A,115.4715,35.2800,菏泽市,长城路999号,,28,11,15,3,7,87,,85,82,18,17,6,7,0.2,0.2
2025-10-02T1100,2514A,111.5264,24.4172,贺州市,环保小区,,33,32,34,22,21,104,,58,58,5,10,19,19,0.7,0.7
2025-10-02T1100,2515A,111.5608,24.4078,贺州市,政协大楼,,35,35,32,19,22,90,,51,51,7,9,12,13,0.7,0.7
2025-10-02T1100,3534A,111.4744,24.4553,贺州市,西湾,,36,34,35,25,24,99,,47,47,7,15,9,9,0.5,0.5
2025-10-02T1100,2385A,114.17,35.9019,鹤壁市,市监测站,,36,36,32,25,21,97,,92,92,12,12,12,6,0.9,0.7
2025-10-02T1100,2386A,114.2956,35.7511,鹤壁市,市交警支队,,36,36,39,16,12,91,,84,84,14,13,6,6,0.9,0.7
2025-10-02T1100,2387A,114.2878,35.7306,鹤壁市,迎宾馆,,30,29,29,16,16,93,,91,89,17,12,6,4,0.9,0.6
2025-10-02T1100,3474A,114.2617,35.6822,鹤壁市,大新区,,31,31,28,12,8,91,,89,87,10,9,9,7,0.8,0.5
2025-10-02T1100,3596A,114.1572,35.9603,鹤壁市,南山宾馆,,,28,33,,28,94,,89,89,11,11,8,7,,0.9
2025-10-02T1100,2244A,130.2537,47.3416,鹤岗市,哈啤分公司,,16,16,18,9,7,48,,61,58,17,3,20,12,0.4,0.3
2025-10-02T1100,2245A,130.2684,47.3086,鹤岗市,斯达机电,,20,18,20,8,14,62,,64,61,8,4,12,12,0.3,0.3
2025-10-02T1100,2246A,130.3114,47.3388,鹤岗市,东山纸板厂,,21,16,24,6,12,67,,65,65,6,3,12,12,0.2,0.2
2025-10-02T1100,2247A,130.1097,47.3382,鹤岗市,五号水库,,16,9,17,6,7,49,,45,44,7,6,6,6,0.2,0.2
2025-10-02T1100,2263A,127.4833,50.2524,黑河市,交通局,,15,14,20,3,11,48,,38,38,10,11,5,5,0.3,0.2
2025-10-02T1100,2264A,127.5144,50.2341,黑河市,环保局,,16,12,24,6,13,50,,37,37,8,12,4,6,0.3,0.3
2025-10-02T1100,2265A,127.5291,50.2472,黑河市,大黑河岛,,15,10,19,3,4,48,,40,40,6,7,10,10,0.3,0.2
2025-10-02T1100,1074A,115.6838,37.7541,衡水市,电机北厂,,34,27,69,3,29,108,,100,89,10,18,6,5,0.2,0.4
2025-10-02T1100,1075A,115.6303,37.7316,衡水市,市监测站,,33,33,70,3,24,105,,91,86,11,20,4,5,0.2,0.3
2025-10-02T1100,3188A,115.6683,37.7217,衡水市,市城管局,,,,67,,29,104,,103,96,,16,6,7,0.3,0.4
2025-10-02T1100,3459A,115.5989,37.5491,衡水市,地表水厂,,31,22,64,12,24,97,,81,81,12,20,3,4,0.2,0.3
2025-10-02T1100,2456A,112.5003,26.9167,衡阳市,原169医院,,49,49,79,17,48,104,,36,36,5,18,5,5,0.7,1
2025-10-02T1100,2457A,112.6194,26.9258,衡阳市,衡阳化工总厂,颗粒物(PM10),54,58,79,24,50,103,,46,46,7,13,12,7,0.9,1.2
2025-10-02T1100,2458A,112.6211,26.8956,衡阳市,珠晖区环保局,,48,48,68,33,44,108,,45,45,6,16,14,9,1.1,1.4
2025-10-02T1100,2459A,112.6197,26.8733,衡阳市,市委党校,,45,45,72,22,43,103,,45,45,5,11,13,7,0.6,0.8
2025-10-02T1100,2460A,112.6006,26.8919,衡阳市,市监测站,,50,50,67,30,48,102,,45,45,9,13,3,3,0.9,1.2
2025-10-02T1100,2461A,112.5664,26.9056,衡阳市,真空机电公司,,31,,57,21,68,97,,43,43,3,14,4,4,1.3,1.8
2025-10-02T1100,3399A,112.6703,26.882,衡阳市,师范学院,颗粒物(PM10),55,60,66,24,44,100,,50,50,11,10,7,6,0.9,1.2
2025-10-02T1100,2608A,103.3772,23.3993,红河哈尼族彝族自治州,污水处理厂,,,16,11,3,8,35,,29,29,4,5,,8,0.2,0.1
2025-10-02T1100,2609A,103.3861,23.35,红河哈尼族彝族自治州,监测站,,16,16,16,3,9,37,,32,32,2,3,10,11,0.3,0.3
2025-10-02T1100,3038A,103.3758,23.368,红河哈尼族彝族自治州,州图书馆,,20,,6,14,19,38,,34,34,4,5,2,2,0.2,0.2
2025-10-02T1100,1090A,111.6507,40.7517,呼和浩特市,呼市一监,,36,36,65,21,29,88,,35,35,15,30,10,9,0.3,0.5
2025-10-02T1100,1091A,111.6572,40.8033,呼和浩特市,小召,,,48,71,30,30,74,,29,29,24,45,10,9,,0.6
2025-10-02T1100,1094A,111.7516,40.8369,呼和浩特市,如意水处理厂,,,46,81,24,30,82,,21,21,,52,12,10,0.4,0.6
2025-10-02T1100,1095A,111.7276,40.8062,呼和浩特市,二十九中,,43,43,73,26,32,81,,24,24,17,48,11,10,0.6,0.7
2025-10-02T1100,1096A,111.5512,40.7866,呼和浩特市,工大金川校区,颗粒物(PM10),54,57,82,34,32,65,,22,22,27,50,10,8,0.3,0.5
2025-10-02T1100,1097A,111.717,40.7612,呼和浩特市,化肥厂生活区,,34,34,77,20,34,81,,27,27,24,47,10,9,0.5,0.6
2025-10-02T1100,3698A,111.5968,40.8178,呼和浩特市,红旗小学,颗粒物(PM10),54,58,76,33,32,72,,23,23,24,50,9,9,0.4,0.5
2025-10-02T1100,3699A,111.6518,40.8389,呼和浩特市,海东办,颗粒物(PM10),53,56,77,28,32,81,,29,29,17,42,10,8,0.4,0.6
2025-10-02T1100,2192A,119.7594,49.2261,呼伦贝尔市,区环保局,,,21,34,10,19,48,,33,33,8,12,,6,0.4,0.6
2025-10-02T1100,3061A,119.7512,49.1577,呼伦贝尔市,国华电力东,,20,20,21,9,10,51,,41,41,2,6,6,6,0,0
2025-10-02T1100,1250A,120.0751,30.8669,湖州市,城西水厂,,34,26,33,19,26,108,,66,66,12,16,8,8,0.3,0.4
2025-10-02T1100,2873A,120.0830,30.8929,湖州市,仁皇山新区,,33,27,32,19,26,105,,64,64,14,13,6,6,0.5,0.5
2025-10-02T1100,2907A,120.1844,30.8596,湖州市,吴兴区站,,,32,28,19,21,98,,58,58,11,13,,10,0.6,0.7
2025-10-02T1100,3562A,120.4148,30.8538,湖州市,南浔区站,,35,,23,21,26,109,,72,72,6,8,9,10,0.6,0.6
2025-10-02T1100,1607A,120.9049,40.7211,葫芦岛市,龙港区,细颗粒物(PM2.5),60,,80,43,63,151,,148,143,7,14,8,15,0.8,1.1
2025-10-02T1100,1608A,120.8392,40.7514,葫芦岛市,化工街,,,53,78,36,43,139,,77,77,,46,6,22,0.7,0.9
2025-10-02T1100,1609A,120.8341,40.7073,葫芦岛市,新区,细颗粒物(PM2.5),70,,73,51,69,139,,136,136,8,30,5,7,1.0,1.3
2025-10-02T1100,1610A,120.8695,40.7677,葫芦岛市,东城区,细颗粒物(PM2.5),90,69,74,67,58,143,,64,64,10,46,7,24,0.9,1.1
2025-10-02T1100,2482A,109.5981,27.5721,怀化市,林科所,,24,19,20,13,9,74,,67,67,5,9,4,4,0.4,0.6
2025-10-02T1100,2483A,109.9453,27.5444,怀化市,河西地税局,,20,20,25,11,18,64,,59,59,3,8,3,2,0.3,0.4
2025-10-02T1100,2484A,109.9781,27.5342,怀化市,市四医院,,39,39,34,14,17,86,,68,68,21,24,6,7,0.2,0.2
2025-10-02T1100,2485A,109.9972,27.5578,怀化市,监测楼,,28,28,33,12,20,83,,67,67,2,8,4,5,0.0,0.2
2025-10-02T1100,2486A,110.0394,27.583,怀化市,市委党校,,22,12,31,3,20,69,,38,38,4,11,7,8,0.2,0.3
2025-10-02T1100,1210A,119.036,33.5981,淮安市,钵池山,,50,36,33,35,34,70,,84,80,16,16,7,8,0.8,0.7
2025-10-02T1100,1211A,119.007,33.575,淮安市,北京南路,细颗粒物(PM2.5),55,,37,39,38,63,,84,78,12,12,8,8,0.8,0.7
2025-10-02T1100,1212A,118.989,33.6067,淮安市,市监测站,,49,39,40,34,31,72,,98,91,21,20,6,6,0.8,0.7
2025-10-02T1100,1213A,119.135,33.5039,淮安市,楚州区监测站,,46,46,43,30,29,61,,80,76,12,13,8,8,0.9,0.7
2025-10-02T1100,3426A,118.8755,33.2894,淮安市,新华书店,,,37,33,24,22,58,,66,62,13,12,7,7,,0.7
2025-10-02T1100,4206A,119.0288,33.6319,淮安市,承德北路606号,,40,39,46,28,31,64,,84,79,10,13,7,8,0.6,0.5
2025-10-02T1100,2282A,116.8004,33.975,淮北市,监测站,,26,8,18,3,9,81,,77,77,14,13,7,7,0.7,0.6
2025-10-02T1100,2283A,116.8091,33.9007,淮北市,烈山区政府,,26,6,12,3,7,83,,77,77,11,10,8,8,0.4,0.4
2025-10-02T1100,3330A,116.8873,33.9836,淮北市,杜集区检察院,,26,13,17,3,12,81,,77,77,7,5,9,10,0.3,0.3
2025-10-02T1100,4017A,116.7923,33.9535,淮北市,市博物馆,,,6,18,3,10,83,,78,78,,12,,8,0.5,0.4
2025-10-02T1100,2277A,116.8305,32.7727,淮南市,潘集区政府,,49,45,35,34,22,30,,61,47,11,6,6,7,0.8,0.6
2025-10-02T1100,2279A,116.8569,32.5951,淮南市,谢家集区政府,,31,31,24,19,12,34,,54,45,12,11,7,8,0.7,0.5
2025-10-02T1100,2280A,116.8281,32.633,淮南市,八公山区政府,,37,37,33,24,19,40,,60,51,9,11,5,8,0.7,0.6
2025-10-02T1100,2281A,116.6325,32.6201,淮南市,焦岗湖风景区管理处,,,,,,,,,,,,,,,,
2025-10-02T1100,2894A,117.0566,32.6531,淮南市,经济技术开发区消防队,,35,35,30,23,11,45,,61,51,13,11,8,8,0.6,0.5
2025-10-02T1100,3329A,117.0108,32.5893,淮南市,山南新区,,35,35,23,18,13,32,,65,52,23,12,5,5,0.6,0.4
2025-10-02T1100,4209A,117.0031,32.6445,淮南市,国庆中路369号,,,58,37,32,26,39,,66,56,,10,,7,0.8,0.6
2025-10-02T1100,2446A,114.9028,30.4742,黄冈市,职工中心,颗粒物(PM10),58,65,54,34,29,70,,59,57,25,16,10,7,0.8,0.7
2025-10-02T1100,2929A,114.8858,30.4519,黄冈市,红卫路,,,,43,37,28,71,,55,55,,15,8,10,0.5,0.6
2025-10-02T1100,3398A,114.9136,30.4445,黄冈市,市林业局,颗粒物(PM10),51,51,44,34,27,67,,55,52,24,16,10,8,0.7,0.6
2025-10-02T1100,2672A,102.0199,35.5102,黄南藏族自治州,同仁县隆务镇,,26,20,16,18,5,57,,43,43,12,4,10,10,0.3,0.3
2025-10-02T1100,2295A,118.2903,29.6963,黄山市,延安路89号,,46,46,28,19,12,96,,37,37,5,6,5,5,0.7,0.6
2025-10-02T1100,2297A,118.1371,30.2756,黄山市,黄山区政府5号楼,,32,32,22,17,13,55,,16,16,4,4,5,4,0.6,0.6
2025-10-02T1100,4210A,118.3354,29.7203,黄山市,滨江东路7-2号,,31,31,29,16,10,78,,39,39,5,7,3,3,0.6,0.5
2025-10-02T1100,2423A,115.0601,30.2313,黄石市,沈家营,,,85,70,,27,57,,45,37,32,17,11,12,0.9,1
2025-10-02T1100,2426A,114.8988,30.2019,黄石市,铁山,,50,50,45,28,26,81,,79,78,16,10,9,5,0.7,0.7
2025-10-02T1100,2427A,115.0307,30.2092,黄石市,团城山,,42,42,51,24,24,86,,70,66,7,8,8,9,0.8,0.9
2025-10-02T1100,3149A,115.0235,30.1578,黄石市,笔架山北路,,46,46,46,20,22,76,,48,48,4,4,7,7,0.3,0.4
2025-10-02T1100,4185A,115.0780,30.21118,黄石市,磁湖东路29号,颗粒物(PM10),57,63,72,24,30,78,,53,50,12,15,11,13,0.7,0.9
2025-10-02T1100,1392A,114.4183,23.0528,惠州市,河南岸金山湖子站,,20,14,20,9,12,63,,39,39,6,10,8,10,0.5,0.5
2025-10-02T1100,1393A,114.4053,23.0822,惠州市,下埔横江三路子站,,21,16,22,8,12,67,,48,48,4,8,7,8,0.7,0.7
2025-10-02T1100,1394A,114.4103,23.1142,惠州市,江北云山西路子站,,23,13,20,8,12,72,,48,48,6,12,9,11,0.5,0.5
2025-10-02T1100,1395A,114.4645,22.7833,惠州市,惠阳区承修路船湖子站,,24,22,23,13,12,75,,40,40,10,12,8,8,0.5,0.5
2025-10-02T1100,1396A,114.5317,22.7422,惠州市,大亚湾管委会子站,,22,13,14,8,8,70,,46,46,7,13,10,10,0.4,0.4
2025-10-02T1100,3314A,114.4338,22.8134,惠州市,惠阳秋长,,,,21,10,10,68,,39,39,,10,10,12,0.5,0.5
2025-10-02T1100,3452A,114.6517,22.775,惠州市,大亚湾霞涌,,23,23,14,9,7,67,,39,39,6,10,6,7,0.6,0.6
2025-10-02T1100,2240A,130.9762,45.3001,鸡西市,环保局,,46,46,30,26,15,30,,16,13,24,20,13,9,0.9,0.8
2025-10-02T1100,2243A,130.9429,45.3039,鸡西市,第一中学,细颗粒物(PM2.5),60,64,29,43,16,20,,21,12,27,16,10,10,0.9,0.7
2025-10-02T1100,3707A,131.0207,45.3073,鸡西市,欧美日汽修厂,,,66,29,16,14,39,,14,14,14,15,,10,,0.8
2025-10-02T1100,3709A,130.9967,45.3106,鸡西市,市政设施管理处,,37,37,28,23,14,30,,15,13,23,22,18,11,0.8,0.8
2025-10-02T1100,2367A,114.9754,27.0803,吉安市,红声器材厂,,46,46,51,23,30,89,,44,44,3,8,8,8,0.6,0.8
2025-10-02T1100,2368A,114.9658,27.0999,吉安市,市森林工业局,,42,42,49,25,32,96,,46,46,5,10,9,10,0.6,0.7
2025-10-02T1100,2369A,114.99,27.1312,吉安市,市环境监测站,,38,38,42,22,30,94,,52,52,2,4,7,10,0.6,0.8
2025-10-02T1100,2370A,115.0093,27.0968,吉安市,青原区法院,,37,37,46,18,30,96,,55,55,3,5,9,10,0.7,0.9
2025-10-02T1100,1772A,126.54,43.8622,吉林市,哈达湾,颗粒物(PM10),55,59,53,36,30,124,,70,70,10,17,6,4,0.7,0.5
2025-10-02T1100,1773A,126.5844,43.8358,吉林市,东局子,细颗粒物(PM2.5),58,54,44,41,32,109,,69,69,11,13,6,6,1.0,0.9
2025-10-02T1100,1774A,126.5052,43.8245,吉林市,电力学院,细颗粒物(PM2.5),52,49,61,36,41,119,,44,44,8,19,6,5,0.9,0.8
2025-10-02T1100,1775A,126.6133,43.8972,吉林市,江北,,,62,48,40,33,105,,46,46,13,10,4,6,,0.8
2025-10-02T1100,1776A,126.555,43.8306,吉林市,江南公园,细颗粒物(PM2.5),65,58,49,47,36,115,,60,60,10,13,4,4,0.9,0.8
2025-10-02T1100,1778A,126.7061,43.7133,吉林市,丰满,,43,,29,30,31,84,,61,61,12,6,6,6,1.4,1.3
2025-10-02T1100,2868A,126.4739,43.953,吉林市,九站,颗粒物(PM10),55,60,62,34,38,106,,36,36,10,32,7,8,0.7,0.6
2025-10-02T1100,1299A,116.9862,36.6114,济南市,科干所,,24,24,37,15,17,57,,78,77,23,14,6,7,0.5,0.4
2025-10-02T1100,1300A,116.9376,36.665,济南市,农科所,,29,24,35,20,17,62,,67,67,24,19,8,9,0.5,0.4
2025-10-02T1100,1301A,117.1265,36.6734,济南市,开发区,,29,22,31,20,19,61,,71,69,22,14,2,3,0.7,0.6
2025-10-02T1100,1303A,117.0624,36.6868,济南市,省种子仓库,,35,29,41,24,19,58,,66,65,24,16,4,6,0.7,0.6
2025-10-02T1100,1304A,116.9489,36.6447,济南市,机床二厂,,32,24,41,22,19,59,,69,69,23,19,7,8,0.4,0.3
2025-10-02T1100,1305A,117.0495,36.663,济南市,市监测站,,29,27,34,20,19,63,,76,75,24,16,2,3,0.8,0.7
2025-10-02T1100,1306A,116.7675,36.5484,济南市,长清党校,,29,24,36,20,20,62,,74,74,26,21,6,7,0.6,0.6
2025-10-02T1100,1616A,117.6795,36.229,济南市,技术学院,,30,,32,7,22,93,,84,84,9,13,7,9,0.5,0.6
2025-10-02T1100,1961A,117.532,36.6868,济南市,东山小学,,25,20,39,15,21,79,,65,65,19,18,6,7,0.4,0.4
2025-10-02T1100,3059A,117.7161,36.2049,济南市,泰兴公司,,29,12,36,3,20,92,,85,85,7,15,7,9,0.2,0.4
2025-10-02T1100,3064A,117.6867,36.2171,济南市,莱芜战役纪念馆,,29,6,33,3,25,91,,82,82,12,17,4,6,0.5,0.7
2025-10-02T1100,3494A,117.1673,36.9782,济南市,济阳区政府,,29,22,51,20,19,69,,66,66,12,18,7,7,0.4,0.4
2025-10-02T1100,3495A,117.1171,36.63,济南市,锦屏中学,,19,15,28,10,12,60,,78,76,16,14,4,5,0.8,0.7
2025-10-02T1100,3682A,116.9814,36.6819,济南市,济南四建,,32,22,33,22,19,66,,70,70,19,15,5,6,0.7,0.7
2025-10-02T1100,1653A,116.6251,35.4302,济宁市,火炬城,,,,34,2,13,94,,89,89,9,18,6,5,,0.3
2025-10-02T1100,1655A,116.5491,35.4042,济宁市,电化厂,,31,14,25,3,16,99,,97,97,11,13,1,2,0.3,0.3
2025-10-02T1100,3500A,116.5814,35.3707,济宁市,北湖一中,,29,7,23,6,15,90,,89,89,5,7,4,4,0.2,0.2
2025-10-02T1100,3501A,116.8249,35.5593,济宁市,服务中心,,26,17,28,3,8,83,,82,82,5,11,5,6,0.1,0.2
2025-10-02T1100,3678A,116.5907,35.4054,济宁市,市第七中学,,28,10,31,3,6,88,,90,90,10,8,7,8,0.3,0.3
2025-10-02T1100,2255A,130.2751,46.8028,佳木斯市,佳纺,,25,25,22,3,9,42,,40,39,14,12,3,4,0.4,0.4
2025-10-02T1100,2256A,130.3995,46.8307,佳木斯市,发电厂,,27,27,20,3,9,46,,50,48,17,10,7,6,0.3,0.3
2025-10-02T1100,2257A,130.3258,46.7975,佳木斯市,环保局,,12,11,20,3,9,38,,46,42,18,12,6,6,0.6,0.6
2025-10-02T1100,2258A,130.3648,46.8032,佳木斯市,十一中,,12,7,19,7,8,29,,45,39,23,7,10,9,0.5,0.5
2025-10-02T1100,2259A,130.3794,46.7588,佳木斯市,四丰,二氧化硫,89,,10,18,8,31,,39,36,15,13,418,40,0.1,0.1
2025-10-02T1100,1252A,120.7436,30.778,嘉兴市,清河小学,,32,19,19,9,11,100,,79,79,10,13,7,7,1.0,1.1
2025-10-02T1100,1253A,120.726,30.7478,嘉兴市,嘉兴学院,,,20,18,10,13,98,,77,77,,15,,5,0.7,0.8
2025-10-02T1100,2872A,120.7846,30.7525,嘉兴市,南湖区残联,,34,17,18,10,13,106,,85,85,4,8,6,6,0.8,0.8
2025-10-02T1100,3407A,120.6916,30.7739,嘉兴市,秀洲住建,,33,19,19,12,13,105,,82,82,8,13,6,7,0.8,0.8
2025-10-02T1100,1945A,98.2908,39.7711,嘉峪关市,气象局,颗粒物(PM10),78,105,64,27,14,86,,85,84,32,20,61,13,1.3,0.5
2025-10-02T1100,2884A,98.2672,39.7978,嘉峪关市,酒钢宾馆,颗粒物(PM10),119,188,82,36,20,86,,78,75,34,15,114,25,1.9,0.6
2025-10-02T1100,3248A,98.2643,39.7724,嘉峪关市,雄关区,颗粒物(PM10),66,81,50,23,13,80,,76,74,40,23,94,18,1.6,0.5
2025-10-02T1100,1383A,113.1064,22.6058,江门市,北街,,20,17,20,8,13,61,,42,42,9,10,6,5,0.5,0.5
2025-10-02T1100,1384A,113.0731,22.5835,江门市,西区,,18,,19,9,12,56,,51,47,6,9,3,6,0.4,0.5
2025-10-02T1100,1385A,113.0219,22.5311,江门市,圭峰西,,19,17,21,8,13,59,,49,47,9,10,5,5,0.5,0.6
2025-10-02T1100,1386A,113.0828,22.5947,江门市,东湖,,19,,20,13,13,57,,46,44,9,10,2,2,0.4,0.4
2025-10-02T1100,3311A,113.1075,22.5647,江门市,江海富民,,,28,33,6,11,63,,44,44,,15,7,7,,0.5
2025-10-02T1100,3449A,113.05,22.4667,江门市,新会银湖,,17,15,22,9,14,54,,22,22,6,13,3,4,0.4,0.5
2025-10-02T1100,1830A,113.1992,35.2590,焦作市,影视城,,,,20,,9,,,87,,,6,,10,,0.4
2025-10-02T1100,3335A,113.3137,35.2641,焦作市,马村街道办,,,,26,,12,84,,77,77,11,10,6,4,,0.3
2025-10-02T1100,3336A,113.2465,35.2373,焦作市,焦作技师学院,,23,13,18,7,7,72,,77,77,15,10,9,7,0.8,0.5
2025-10-02T1100,3477A,113.1656,35.2539,焦作市,中站许衡医院,,36,,21,25,22,64,,78,75,23,12,8,6,0.8,0.4
2025-10-02T1100,3981A,113.2449,35.1803,焦作市,原李万街道办,,29,28,28,3,4,91,,85,85,11,11,8,8,0.5,0.4
2025-10-02T1100,4264A,113.2340,35.2190,焦作市,新安路1731号,,28,,22,7,9,89,,84,83,11,9,5,5,0.9,0.6
2025-10-02T1100,4295A,113.2722,35.2121,焦作市,人民路3066号,,31,31,30,3,6,96,,86,86,6,5,3,3,0.5,0.4
2025-10-02T1100,1708A,116.3701,23.5345,揭阳市,新兴,,43,43,37,24,27,96,,48,48,10,14,8,8,0.7,0.7
2025-10-02T1100,1709A,116.3264,23.5443,揭阳市,西马,,37,37,42,21,23,99,,41,41,7,10,5,4,0.8,0.8
2025-10-02T1100,1710A,116.3611,23.5626,揭阳市,东兴,,,,33,16,22,89,,47,47,10,11,,9,0.6,0.8
2025-10-02T1100,1711A,116.4151,23.5294,揭阳市,渔湖,,43,43,37,20,16,99,,46,46,6,9,10,9,0.7,0.7
2025-10-02T1100,3320A,116.403,23.5699,揭阳市,曲溪,,40,36,34,28,23,99,,50,50,4,9,4,5,0.6,0.7
2025-10-02T1100,1944A,102.1692,38.5167,金昌市,天庆家园,颗粒物(PM10),73,95,62,47,22,62,,49,49,17,11,37,14,0.8,0.7
2025-10-02T1100,4022A,102.1647,38.5371,金昌市,金川区人防中心,细颗粒物(PM2.5),52,50,55,36,26,53,,46,44,13,9,31,11,0.4,0.5
2025-10-02T1100,4239A,102.1930,38.5319,金昌市,长春路96号,颗粒物(PM10),58,66,65,27,22,47,,40,38,11,9,41,37,0.5,0.5
2025-10-02T1100,1262A,119.647,29.077,金华市,十五中,,44,44,41,18,23,84,,50,50,9,18,3,3,0.5,0.8
2025-10-02T1100,1263A,119.686,29.1029,金华市,监测站,,30,21,38,12,23,95,,50,50,8,21,3,3,0.5,0.7
2025-10-02T1100,3659A,119.656,29.1131,金华市,气象局,,29,22,36,10,21,91,,47,47,9,22,3,3,0.4,0.5
2025-10-02T1100,1767A,121.1115,41.0879,锦州市,南山,细颗粒物(PM2.5),78,,60,57,53,154,,87,87,11,25,7,10,0.9,1
2025-10-02T1100,1768A,121.0604,40.8428,锦州市,开发区,,,,85,44,57,135,,123,123,,31,,13,0.9,1.1
2025-10-02T1100,1769A,121.1836,41.1119,锦州市,百股街道,,,59,65,56,53,159,,76,76,,28,,12,0.9,0.9
2025-10-02T1100,1770A,121.1178,41.1222,锦州市,天安街道,细颗粒物(PM2.5),105,,75,79,65,160,,97,97,14,37,6,13,1.1,1.3
2025-10-02T1100,1771A,121.1303,41.1386,锦州市,北湖公园,细颗粒物(PM2.5),83,81,78,61,59,151,,73,73,10,23,5,8,1.0,1.1
2025-10-02T1100,2160A,112.85,35.5051,晋城市,自来水公司,,45,45,42,9,16,66,,57,54,16,14,5,4,1.3,1
2025-10-02T1100,2161A,112.8318,35.4936,晋城市,白云商贸,,29,29,35,3,6,72,,69,66,16,11,8,4,1.6,0.8
2025-10-02T1100,2162A,112.8508,35.4887,晋城市,市环保局,,23,13,25,9,13,71,,63,60,15,14,4,3,1.2,1
2025-10-02T1100,2163A,112.8676,35.4897,晋城市,技术学院,,23,23,29,3,10,67,,60,57,15,13,4,4,0.7,0.8
2025-10-02T1100,2165A,112.8453,35.546,晋城市,白马寺,,27,27,25,16,18,81,,80,77,13,8,11,7,1.5,0.9
2025-10-02T1100,3620A,112.8271,35.4828,晋城市,泽州一中,,25,20,32,9,10,79,,76,74,18,12,7,3,1.3,0.6
2025-10-02T1100,2173A,112.7249,37.7067,晋中市,南都小区,,31,31,51,15,26,87,,69,69,19,33,6,9,0.3,0.7
2025-10-02T1100,2174A,112.6991,37.6982,晋中市,榆次区政府,,24,24,45,15,22,71,,52,52,23,38,7,10,0.3,0.7
2025-10-02T1100,2865A,112.7195,37.6828,晋中市,榆次三中,,27,27,46,9,20,75,,66,63,18,29,8,11,0.3,0.7
2025-10-02T1100,4200A,112.7478,37.6954,晋中市,迎宾街26号,,,14,43,7,18,83,,70,70,,27,6,9,0.2,0.6
2025-10-02T1100,2439A,112.2014,31.0481,荆门市,竹园小学,,,12,47,7,32,62,,61,61,8,15,,2,0.5,0.9
2025-10-02T1100,2440A,112.1969,30.9891,荆门市,掇刀,,21,,43,14,43,65,,61,61,6,11,1,1,0.3,0.5
2025-10-02T1100,2441A,112.2213,31.0386,荆门市,石化一小,,19,8,41,3,35,58,,57,57,8,15,3,7,0.2,0.4
2025-10-02T1100,3012A,112.1849,31.0362,荆门市,西山林语,,21,,43,11,30,67,,64,64,4,10,2,3,0.3,0.5
2025-10-02T1100,3547A,112.1632,31.0138,荆门市,龙泉中学南校,,21,,36,3,23,67,,62,62,6,15,3,5,0.3,0.6
2025-10-02T1100,1844A,112.2494,30.3197,荆州市,市图书馆,,23,20,54,16,32,52,,46,43,8,16,4,4,0.4,0.8
2025-10-02T1100,1845A,112.2008,30.3544,荆州市,市委党校,,22,,58,15,31,50,,39,35,9,15,6,7,0.4,0.7
2025-10-02T1100,3194A,112.2747,30.3122,荆州市,管委会,,23,23,50,16,33,50,,47,41,5,12,7,8,0.4,0.7
2025-10-02T1100,4268A,112.1722,30.3366,荆州市,学苑路85号,,34,34,50,7,40,56,,41,40,13,17,4,4,0.4,0.7
2025-10-02T1100,2342A,117.3102,29.3867,景德镇市,王港中学,,,,,,,,,,,,,,,,
2025-10-02T1100,2343A,117.2117,29.2933,景德镇市,老干部活动中心,,38,,26,26,21,88,,59,59,8,11,6,4,1.0,1
2025-10-02T1100,2344A,117.1894,29.2789,景德镇市,兽医站,,,35,34,18,17,81,,60,60,,8,24,7,0.9,0.9
2025-10-02T1100,2346A,117.2461,29.2956,景德镇市,陶研所,,32,32,29,22,22,89,,59,59,5,8,6,5,0.6,0.7
2025-10-02T1100,4289A,117.1542,29.2566,景德镇市,青少年活动中心,,42,42,32,26,25,94,,50,50,6,11,7,8,0.7,0.7
2025-10-02T1100,1803A,115.9872,29.6815,九江市,十里,细颗粒物(PM2.5),53,38,62,37,49,105,,40,40,14,25,7,7,0.7,0.9
2025-10-02T1100,1804A,115.9584,29.7046,九江市,茅山头,,46,46,51,27,39,103,,37,37,11,21,4,4,0.8,0.9
2025-10-02T1100,1805A,115.9877,29.7295,九江市,西园,,38,38,42,21,28,101,,37,37,38,36,6,5,0.9,0.9
2025-10-02T1100,1808A,115.9114,29.6038,九江市,综合工业园,,39,39,46,20,31,105,,49,49,8,24,9,9,0.8,1.1
2025-10-02T1100,1809A,116.0721,29.7535,九江市,石化总厂,,,33,48,30,36,103,,35,35,,34,,5,0.8,0.9
2025-10-02T1100,1810A,115.9773,29.5698,九江市,庐山气象台,,,,,,,,,,,,,,,,
2025-10-02T1100,3190A,116.0254,29.6994,九江市,外国语学校,,43,39,40,30,36,94,,35,35,10,23,8,9,0.7,0.8
2025-10-02T1100,4253A,116.0102,29.6594,九江市,莲花大道8号,,45,45,44,25,29,83,,34,34,6,10,7,7,0.8,0.9
2025-10-02T1100,4240A,98.4958,39.7339,酒泉市,玉门东路5号,颗粒物(PM10),85,119,72,28,27,66,,71,60,22,14,28,19,0.5,0.4
2025-10-02T1100,4241A,98.5099,39.7506,酒泉市,北大街108号,颗粒物(PM10),74,97,59,25,19,67,,62,52,14,11,37,10,0.5,0.3
2025-10-02T1100,2698A,76.0072,39.4467,喀什地区,巡警大队,颗粒物(PM10),115,179,150,43,40,35,,70,64,52,38,6,6,0.7,0.5
2025-10-02T1100,2699A,75.9755,39.4694,喀什地区,吾办,颗粒物(PM10),136,222,136,61,54,17,,54,47,59,34,9,8,1.3,0.7
2025-10-02T1100,4027A,75.9483,39.4689,喀什地区,老干局,颗粒物(PM10),97,144,124,34,32,28,,64,58,40,30,3,3,0.3,0.3
2025-10-02T1100,1824A,114.3389,34.7781,开封市,肿瘤医院,,24,17,11,16,8,76,,81,80,11,10,5,5,0.6,0.5
2025-10-02T1100,1826A,114.2885,34.7965,开封市,世纪星幼儿园,,28,,11,19,6,78,,84,84,13,12,4,4,0.6,0.5
2025-10-02T1100,3147A,114.3438,34.8106,开封市,龙亭公园,,23,18,11,14,2,71,,76,76,9,7,6,6,0.8,0.7
2025-10-02T1100,3210A,114.3644,34.7964,开封市,汴京公园,,25,17,12,17,6,75,,79,79,10,10,6,6,0.5,0.4
2025-10-02T1100,3473A,114.2485,34.8306,开封市,技师学院,,28,,11,19,10,74,,78,78,8,7,6,6,0.7,0.7
2025-10-02T1100,3592A,114.4644,34.7556,开封市,祥符区生态环境局,,22,19,12,10,5,69,,71,71,10,14,4,4,0.5,0.5
2025-10-02T1100,1951A,84.895,45.6094,克拉玛依市,长征新村,,17,6,6,3,5,53,,49,49,2,2,2,3,0.1,0.2
2025-10-02T1100,1952A,84.8988,45.5893,克拉玛依市,南林小区,,18,,8,12,6,48,,50,48,9,3,6,5,0.2,0.2
2025-10-02T1100,1954A,84.905,44.3396,克拉玛依市,独山子区,,15,14,35,6,9,45,,57,51,4,5,4,5,0.2,0.3
2025-10-02T1100,1955A,85.6979,46.098,克拉玛依市,乌尔禾区商贸楼,,22,,10,15,6,63,,57,57,2,3,4,4,0.4,0.3
2025-10-02T1100,3612A,85.1045,45.6899,克拉玛依市,白碱滩区新站,,,,28,,9,61,,56,55,2,2,4,5,0.1,0.3
2025-10-02T1100,2697A,76.1454,39.7142,克孜勒苏柯尔克孜自治州,市人民政府,颗粒物(PM10),102,153,101,26,36,108,,106,105,4,12,5,13,0.1,0.1
2025-10-02T1100,3665A,76.1658,39.7157,克孜勒苏柯尔克孜自治州,克州文化中心,颗粒物(PM10),131,212,118,37,34,104,,106,106,3,14,8,14,0.1,0.2
2025-10-02T1100,1450A,102.8204,24.8886,昆明市,呈贡新区,,13,,5,3,4,39,,26,26,4,9,1,4,0.4,0.4
2025-10-02T1100,1451A,102.6251,24.9608,昆明市,西山森林公园,,,,,,,,,,,,,,,,
2025-10-02T1100,1452A,102.7252,25.0902,昆明市,龙泉镇,,12,12,10,3,4,26,,13,13,8,9,2,2,0.4,0.4
2025-10-02T1100,1453A,102.7266,25.0375,昆明市,东风东路,,9,7,9,3,5,28,,19,19,10,11,4,3,0.3,0.3
2025-10-02T1100,1454A,102.6742,25.0669,昆明市,金鼎山,,14,14,11,3,3,28,,24,24,4,6,2,2,0.4,0.4
2025-10-02T1100,1455A,102.6644,25.0401,昆明市,碧鸡广场,,11,11,9,3,6,26,,20,20,7,11,8,8,0.5,0.5
2025-10-02T1100,3179A,102.7494,25.0119,昆明市,官渡区博物馆,,10,10,8,3,6,28,,23,23,9,8,2,2,0.4,0.4
2025-10-02T1100,3375A,102.8017,24.8336,昆明市,青年创业园,,12,6,7,3,4,37,,23,23,3,8,2,4,0.5,0.5
2025-10-02T1100,3550A,102.7997,24.9786,昆明市,昆明学院,,10,8,8,3,4,30,,24,24,5,6,8,7,0.3,0.3
2025-10-02T1100,3551A,102.5967,24.6736,昆明市,晋宁区生态环境分局,,13,10,15,3,3,39,,30,30,5,7,2,2,0.3,0.4
2025-10-02T1100,3552A,102.6678,24.9856,昆明市,云天化总部,,,7,7,3,5,29,,22,22,,7,5,4,0.3,0.4
2025-10-02T1100,1456A,91.1319,29.6514,拉萨市,八廓街,,19,10,11,7,8,59,,69,61,8,7,5,6,0.2,0.2
2025-10-02T1100,1457A,91.1221,29.6747,拉萨市,市环保局,,19,,11,10,7,60,,68,58,9,8,9,8,0.5,0.4
2025-10-02T1100,1458A,91.0874,29.6475,拉萨市,区监测站,,19,9,9,7,7,58,,70,59,12,10,5,4,0.2,0.2
2025-10-02T1100,1459A,91.1774,29.6541,拉萨市,西藏大学,,17,9,9,3,6,52,,64,57,15,11,8,8,0.5,0.4
2025-10-02T1100,1460A,90.9798,29.6588,拉萨市,区辐射站,,,12,10,6,6,51,,62,53,,10,5,5,0.4,0.4
2025-10-02T1100,1461A,91.0834,29.6292,拉萨市,拉萨火车站,,22,22,11,6,6,60,,71,62,6,6,6,6,0.3,0.3
2025-10-02T1100,2520A,109.2203,23.7256,来宾市,来宾技工学校,,,,35,,16,62,,13,13,4,12,,13,0.5,0.7
2025-10-02T1100,3535A,109.1781,23.7297,来宾市,兴宾区政府,,30,24,24,21,12,62,,27,27,4,6,5,4,0.9,0.9
2025-10-02T1100,4002A,109.2416,23.7461,来宾市,中南小学,,27,27,38,18,17,63,,18,18,6,16,9,10,0.6,0.6
2025-10-02T1100,1477A,104.1373,35.9454,兰州市,榆中兰大校区,,,,,,,,,,,,,,,,
2025-10-02T1100,1479A,103.831,36.0464,兰州市,铁路设计院,,,,,,,,,,,,,,,,
2025-10-02T1100,3241A,103.7439,36.0842,兰州市,百合公园,颗粒物(PM10),54,58,40,17,18,41,,17,17,22,28,8,4,1.5,1.1
2025-10-02T1100,3242A,103.9611,35.998,兰州市,和平,,29,29,18,13,10,58,,44,44,11,13,3,2,0.4,0.4
2025-10-02T1100,4236A,103.6293,36.0938,兰州市,庄浪东路808号,颗粒物(PM10),57,63,30,35,22,58,,23,23,50,35,12,11,0.9,0.4
2025-10-02T1100,4237A,103.7251,36.1043,兰州市,安宁西路88号,,45,42,37,31,29,52,,26,26,18,25,8,5,0.7,0.5
2025-10-02T1100,4238A,103.8470,36.0676,兰州市,北滨河东路1号,,36,36,30,20,22,49,,18,18,25,33,21,9,1.2,0.8
2025-10-02T1100,3245A,103.6633,36.533,兰州新区,新区管委会,,36,30,25,25,21,60,,38,38,11,16,22,6,0.6,0.4
2025-10-02T1100,3246A,103.6975,36.4789,兰州新区,舟曲中学,,29,29,27,20,17,66,,34,34,12,22,16,8,0.6,0.5
2025-10-02T1100,1067A,116.6708,39.5111,廊坊市,药材公司,,30,29,82,14,29,94,,80,80,17,34,8,7,0.3,0.5
2025-10-02T1100,1068A,116.7214,39.5589,廊坊市,开发区,,40,40,51,10,19,101,,93,93,15,26,4,2,0.3,0.4
2025-10-02T1100,1070A,116.7244,39.5269,廊坊市,北华航天学院,,43,43,68,13,24,103,,95,95,12,30,7,8,0.2,0.4
2025-10-02T1100,2919A,116.7022,39.5453,廊坊市,河北工业大学,,38,38,60,8,22,97,,92,92,14,35,5,3,0.2,0.5
2025-10-02T1100,2535A,103.7723,29.5462,乐山市,花湖湾,,,15,23,14,21,,,36,28,15,13,7,6,0.5,0.6
2025-10-02T1100,2536A,103.7627,29.5844,乐山市,牛耳桥,,20,,27,14,27,48,,28,24,10,16,6,6,0.6,0.7
2025-10-02T1100,2537A,103.7508,29.6006,乐山市,市第三水厂,,16,12,27,9,24,51,,31,28,10,15,5,5,0.6,0.7
2025-10-02T1100,2538A,103.7571,29.5664,乐山市,市监测站,,,17,31,10,19,49,,38,35,,14,4,4,,0.7
2025-10-02T1100,3361A,103.7311,29.5628,乐山市,理工大学,,17,13,23,8,19,53,,35,31,6,12,8,8,0.6,0.8
2025-10-02T1100,2598A,100.2143,26.8576,丽江市,西南郊,,14,7,8,3,3,44,,28,28,2,4,6,6,0.3,0.5
2025-10-02T1100,2599A,100.2497,26.8802,丽江市,丽江古城,,13,12,14,3,4,40,,27,27,8,9,10,10,0.5,0.5
2025-10-02T1100,2600A,100.2203,26.8906,丽江市,市中心,,18,18,8,3,7,37,,27,27,8,10,9,9,0.6,0.6
2025-10-02T1100,1267A,119.914,28.4514,丽水市,监测站大楼,,25,,22,9,13,79,,69,69,8,10,4,4,0.4,0.4
2025-10-02T1100,1268A,119.93,28.4586,丽水市,莲都小学,,25,14,26,6,12,79,,57,57,4,9,3,3,0.3,0.4
2025-10-02T1100,1269A,119.879,28.4231,丽水市,余庄前,,27,14,25,7,16,84,,37,37,5,9,4,4,0.4,0.4
2025-10-02T1100,1173A,119.176,34.5885,连云港市,市环境监测站,,37,7,27,7,18,118,,103,103,9,11,6,6,0.7,0.6
2025-10-02T1100,3000A,119.3581,34.6972,连云港市,德源药业,,37,17,32,9,16,116,,100,100,7,17,5,5,0.7,0.7
2025-10-02T1100,3007A,119.178,34.844,连云港市,新城一中,,38,31,39,11,18,120,,112,112,4,10,3,4,0.4,0.6
2025-10-02T1100,3008A,119.3608,34.7519,连云港市,胡沟管理处,,35,24,29,7,13,110,,101,101,9,17,8,9,0.6,0.6
2025-10-02T1100,3009A,119.1478,34.5911,连云港市,矿山设计院,,38,14,27,3,19,121,,107,107,8,10,7,8,0.8,0.7
2025-10-02T1100,3434A,119.2413,34.6539,连云港市,工贸学校,,41,6,27,3,14,129,,112,112,5,9,7,8,0.9,0.8
2025-10-02T1100,3664A,119.4172,34.7341,连云港市,连云街道,,39,14,30,6,14,122,,107,107,7,13,3,2,0.5,0.5
2025-10-02T1100,2571A,102.3431,27.8099,凉山彝族自治州,青龙寺,,12,10,12,3,3,38,,18,18,5,6,9,6,0.3,0.3
2025-10-02T1100,2572A,102.2721,27.8415,凉山彝族自治州,邛海宾馆,,14,10,13,8,8,43,,19,19,3,7,15,11,0.5,0.5
2025-10-02T1100,2573A,102.2625,27.898,凉山彝族自治州,西昌市政府,,16,16,12,10,6,35,,20,20,8,9,21,17,0.5,0.5
2025-10-02T1100,2574A,102.2685,27.8851,凉山彝族自治州,凉山州政府,,18,15,13,12,12,36,,18,18,4,7,15,12,0.7,0.8
2025-10-02T1100,4229A,102.2342,27.8859,凉山彝族自治州,凯乐南路30号,,17,17,13,8,5,28,,18,18,16,10,16,14,0.8,0.8
2025-10-02T1100,2212A,123.2,41.1953,辽阳市,宏伟区,颗粒物(PM10),51,51,46,19,27,130,,113,113,7,8,4,3,0.7,0.7
2025-10-02T1100,2213A,123.1683,41.2495,辽阳市,新华园,,44,33,48,20,29,140,,120,120,10,11,6,7,0.7,0.8
2025-10-02T1100,2214A,123.2354,41.2639,辽阳市,滨河路,,,,52,23,29,113,,90,90,7,9,,7,,0.7
2025-10-02T1100,2215A,123.149,41.2991,辽阳市,铁西工业园,,40,25,53,17,27,125,,99,99,10,11,6,7,0.7,0.9
2025-10-02T1100,2227A,125.1358,42.8845,辽源市,环保局,颗粒物(PM10),81,111,77,29,34,153,,40,40,8,27,8,6,0.8,0.8
2025-10-02T1100,3239A,125.0764,42.9078,辽源市,银鹰制药,颗粒物(PM10),58,66,63,37,42,133,,38,38,8,30,8,6,0.8,0.8
2025-10-02T1100,1625A,115.9848,36.4372,聊城市,区政府,,26,24,39,18,18,56,,74,71,19,19,8,10,0.7,0.6
2025-10-02T1100,2878A,116.0072,36.4343,聊城市,聊大东校,,48,,44,33,23,63,,79,77,21,21,9,10,0.7,0.6
2025-10-02T1100,3200A,115.9819,36.4978,聊城市,监控中心,,24,24,46,14,18,65,,70,69,16,20,8,10,0.4,0.5
2025-10-02T1100,3513A,116.0445,36.4361,聊城市,九州社区,,35,34,45,24,18,54,,71,70,17,11,5,5,0.4,0.3
2025-10-02T1100,4018A,116.0567,36.4608,聊城市,星美广场,,32,32,46,20,18,59,,74,73,15,14,5,7,0.5,0.4
2025-10-02T1100,2632A,94.3681,29.6376,林芝市,林芝监测站,,,,,,,,,,,,,,,,
2025-10-02T1100,2633A,94.3616,29.6616,林芝市,林芝人民医院,,13,8,8,3,4,41,,37,37,6,3,2,3,0.5,0.5
2025-10-02T1100,2603A,100.0781,23.8982,临沧市,市环保局,,19,14,14,13,20,22,,9,9,6,6,4,4,0.6,0.6
2025-10-02T1100,2604A,100.0894,23.8822,临沧市,市气象局,,19,,13,13,15,25,,12,12,6,7,7,7,0.5,0.5
2025-10-02T1100,1733A,111.5531,36.0783,临汾市,临钢医院,颗粒物(PM10),54,57,48,18,22,39,,52,40,20,18,10,9,0.9,0.9
2025-10-02T1100,1734A,111.5028,36.0714,临汾市,技工学校,,47,47,41,27,31,42,,52,41,18,16,13,8,1.0,0.8
2025-10-02T1100,1736A,111.5018,36.0855,临汾市,市委,细颗粒物(PM2.5),55,53,54,39,27,45,,54,43,22,18,14,8,1.0,0.9
2025-10-02T1100,3018A,111.505,36.1014,临汾市,唐尧大酒店,颗粒物(PM10),58,65,52,38,24,40,,50,40,22,19,12,9,1.0,1
2025-10-02T1100,4244A,111.4879,36.0530,临汾市,启星学校,,50,50,37,28,33,49,,53,42,21,17,10,7,0.9,0.8
2025-10-02T1100,4271A,103.2464,35.6123,临夏回族自治州,滨河东路1号,,,60,33,15,16,28,,10,10,,15,11,10,0.4,0.5
2025-10-02T1100,4310A,103.2093,35.5995,临夏回族自治州,新华街21号,,40,33,32,28,22,48,,15,15,16,17,7,6,0.5,0.5
2025-10-02T1100,1618A,118.3429,35.0532,临沂市,沂河小区,,29,,36,10,26,90,,95,93,11,16,7,10,0.3,0.4
2025-10-02T1100,1619A,118.295,35.0583,临沂市,鲁南制药厂,,31,,32,8,23,97,,102,100,13,17,7,10,0.5,0.7
2025-10-02T1100,1620A,118.2794,34.9976,临沂市,新光毛纺厂,,28,,32,11,25,87,,95,92,17,21,7,10,0.3,0.4
2025-10-02T1100,1621A,118.3956,35.0888,临沂市,河东保险公司,,32,9,31,3,18,100,,101,101,12,15,6,9,0.4,0.5
2025-10-02T1100,3370A,118.3564,35.0215,临沂市,十里堡居委,,,,31,,18,93,,104,100,,20,6,9,,0.4
2025-10-02T1100,3496A,118.3604,35.1084,临沂市,南坊新区,,31,6,32,3,17,99,,100,99,10,17,8,10,0.3,0.5
2025-10-02T1100,3860A,118.3920,35.0300,临沂市,皇山花园小区,,,,31,2,13,90,,100,97,11,13,,11,0.5,0.7
2025-10-02T1100,1870A,109.4856,24.3895,柳州市,柳东小学,,37,37,29,25,19,83,,27,27,6,11,6,5,0.4,0.5
2025-10-02T1100,1871A,109.4157,24.3277,柳州市,环保监测站,,42,42,30,23,17,76,,42,42,6,11,9,8,0.6,0.6
2025-10-02T1100,1872A,109.389,24.341,柳州市,河西水厂,,30,30,40,17,20,75,,28,28,7,15,7,8,0.4,0.5
2025-10-02T1100,1873A,109.4311,24.2921,柳州市,市四中,,35,35,35,16,21,74,,37,37,10,16,9,10,0.5,0.5
2025-10-02T1100,1874A,109.4006,24.3631,柳州市,市九中,,,,47,,21,74,,24,24,8,17,,5,0.3,0.5
2025-10-02T1100,1875A,109.4958,24.3134,柳州市,古亭山,,38,38,28,17,14,79,,22,22,6,19,7,6,0.2,0.2
2025-10-02T1100,3402A,109.5422,24.3996,柳州市,市二中,,40,40,35,14,17,85,,22,22,7,19,9,8,0.5,0.6
2025-10-02T1100,2307A,116.5079,31.737,六安市,监测大楼,,50,43,24,35,21,33,,54,42,8,8,5,5,0.6,0.6
2025-10-02T1100,2308A,116.4738,31.7643,六安市,皖西学院,,39,39,21,25,19,36,,60,47,3,4,3,3,0.5,0.6
2025-10-02T1100,2309A,116.4996,31.7905,六安市,朝阳厂,,,33,22,33,21,34,,48,39,7,11,4,1,,0.6
2025-10-02T1100,2310A,116.5567,31.7886,六安市,开发区,,35,35,17,18,17,37,,47,38,4,7,2,2,0.6,0.7
2025-10-02T1100,2576A,104.8,26.5892,六盘水市,窑上,,15,15,23,9,13,34,,27,27,2,4,3,2,0.3,0.3
2025-10-02T1100,2577A,104.83,26.5917,六盘水市,黄土坡,,15,10,9,10,5,36,,25,25,4,7,3,2,0.3,0.3
2025-10-02T1100,2578A,104.89,26.5939,六盘水市,水钢,,,,11,18,6,33,,27,27,,3,3,2,0.2,0.2
2025-10-02T1100,2579A,104.8475,26.5894,六盘水市,民中,,10,10,10,3,6,29,,24,24,4,7,3,2,0.2,0.3
2025-10-02T1100,2580A,104.9544,26.5506,六盘水市,双水,,17,17,10,10,7,27,,27,26,5,4,3,3,0.2,0.2
2025-10-02T1100,2335A,117.0189,25.1181,龙岩市,龙岩师专,,,,,,,,,,,,,,,,
2025-10-02T1100,2336A,117.0217,25.1033,龙岩市,龙岩市监测站,,42,42,33,20,26,97,,38,38,7,15,6,6,0.5,0.5
2025-10-02T1100,2337A,117.0258,25.0661,龙岩市,闽西职业技术学院,,39,39,36,24,22,99,,50,50,5,7,6,7,0.4,0.4
2025-10-02T1100,2338A,117.0196,25.0306,龙岩市,龙岩学院,,29,25,32,20,24,90,,50,50,4,9,6,6,0.5,0.5
2025-10-02T1100,2665A,105.0822,33.3261,陇南市,汉王镇固水子,,,,,,,,,,,,,,,,
2025-10-02T1100,2885A,104.9339,33.3826,陇南市,滨江中学,,,28,32,9,15,45,,37,37,7,11,,6,,0.9
2025-10-02T1100,3247A,104.955,33.371,陇南市,市总工会,,40,40,36,15,9,50,,30,30,8,10,8,7,0.7,0.7
2025-10-02T1100,2487A,111.9589,27.8901,娄底市,电视发射台,,49,49,78,27,40,80,,25,25,8,7,6,5,0.3,0.7
2025-10-02T1100,2488A,111.9975,27.725,娄底市,市监测站,颗粒物(PM10),51,51,63,33,43,93,,61,61,8,12,10,12,0.6,0.8
2025-10-02T1100,2489A,112.0194,27.7314,娄底市,市委党校,,42,42,58,24,48,93,,68,68,9,11,9,9,0.5,0.8
2025-10-02T1100,2490A,111.9561,27.7569,娄底市,涟钢,,35,26,69,24,46,70,,40,40,20,17,9,5,0.5,1
2025-10-02T1100,2491A,111.9892,27.7044,娄底市,市政府,细颗粒物(PM2.5),62,,56,44,45,95,,62,62,4,9,7,6,0.6,0.9
2025-10-02T1100,1893A,105.4324,28.9634,泸州市,九狮山,,34,34,31,12,11,40,,30,30,5,5,6,6,0.4,0.4
2025-10-02T1100,1894A,105.4427,28.9063,泸州市,小市上码头,,26,26,24,11,10,28,,22,22,8,9,5,5,0.8,0.8
2025-10-02T1100,1895A,105.4241,28.8573,泸州市,兰田宪桥,,27,27,28,12,12,43,,27,27,5,7,5,5,0.8,0.7
2025-10-02T1100,1896A,105.4379,28.8833,泸州市,市环监站,,36,36,32,23,20,37,,32,31,14,14,6,6,0.6,0.5
2025-10-02T1100,4272A,105.3689,28.7783,泸州市,纳溪中医医院,,49,49,23,20,14,54,,29,27,12,10,9,5,0.8,0.8
2025-10-02T1100,2183A,111.1406,37.5211,吕梁市,环保局,,33,33,35,12,15,65,,24,24,19,29,8,8,0.4,0.4
2025-10-02T1100,2185A,111.1297,37.5136,吕梁市,自来水公司,,34,34,42,3,15,62,,26,26,18,27,5,4,0.4,0.4
2025-10-02T1100,2867A,111.1283,37.51,吕梁市,马茂庄小学,,35,35,42,16,15,72,,29,29,18,28,7,5,0.6,0.4
2025-10-02T1100,1812A,112.3931,34.6516,洛阳市,市委党校,,23,13,12,11,10,73,,69,67,17,13,6,6,0.7,0.5
2025-10-02T1100,1815A,112.494,34.6886,洛阳市,河南林校,,25,19,18,11,11,80,,76,74,15,11,6,5,0.7,0.5
2025-10-02T1100,1816A,112.3844,34.623,洛阳市,开发区管委会,,29,10,11,8,9,91,,83,83,12,10,7,6,0.6,0.4
2025-10-02T1100,1817A,112.4267,34.6258,洛阳市,市委新办公区,,27,,14,13,10,84,,76,75,11,10,7,6,0.6,0.4
2025-10-02T1100,3340A,112.6005,34.6326,洛阳市,伊滨,,25,,13,8,7,79,,69,69,11,10,5,5,0.7,0.5
2025-10-02T1100,3341A,112.4951,34.6332,洛阳市,中移产业园,,23,15,13,6,8,73,,77,70,12,11,5,5,0.7,0.5
2025-10-02T1100,3593A,112.5736,34.8993,洛阳市,吉利监测站,,23,19,15,16,12,73,,61,58,10,12,6,6,0.7,0.5
2025-10-02T1100,3635A,112.3677,34.662,洛阳市,河科大西苑校区,,26,13,12,8,7,81,,68,68,14,17,6,6,0.7,0.5
2025-10-02T1100,3636A,112.4388,34.6781,洛阳市,英才小学,颗粒物(PM10),51,51,28,10,11,72,,68,66,14,11,6,6,0.8,0.6
2025-10-02T1100,4214A,112.4600,34.6949,洛阳市,春都路1号院,,21,12,13,6,7,67,,62,62,14,12,5,5,0.6,0.5
2025-10-02T1100,2399A,114.051,33.5699,漯河市,三五一五工厂,,24,6,10,3,6,76,,82,81,8,6,5,6,0.5,0.5
2025-10-02T1100,2400A,114.0055,33.5698,漯河市,漯河大学,,22,11,10,3,5,70,,82,78,9,9,5,5,0.4,0.3
2025-10-02T1100,2401A,114.0138,33.5828,漯河市,市水利局,,22,,6,3,5,70,,79,77,8,7,5,5,0.4,0.4
2025-10-02T1100,2402A,114.0261,33.5698,漯河市,市广电局,,24,,7,3,7,74,,83,80,5,4,3,3,0.5,0.5
2025-10-02T1100,3478A,113.9749,33.5664,漯河市,市图书馆,,21,6,10,3,6,66,,76,74,13,11,4,4,0.3,0.2
2025-10-02T1100,4250A,114.0892,33.5882,漯河市,韶山路11号,,,17,12,8,6,68,,77,74,6,8,,5,,0.4
2025-10-02T1100,1798A,118.5092,31.6837,马鞍山市,湖东路四小,,43,43,36,21,23,85,,80,74,8,11,7,8,0.7,0.8
2025-10-02T1100,1799A,118.5024,31.6449,马鞍山市,开发区,,40,40,34,24,21,86,,75,72,6,12,6,7,0.7,0.8
2025-10-02T1100,1802A,118.6245,31.7241,马鞍山市,濮塘,,38,33,27,26,23,87,,94,86,10,10,9,9,0.7,0.8
2025-10-02T1100,3633A,118.4918,31.6809,马鞍山市,雨山,,36,36,35,16,22,84,,77,70,8,12,5,6,0.7,0.7
2025-10-02T1100,4191A,118.5274,31.72227,马鞍山市,慈湖高新区,,34,34,37,20,22,80,,76,69,13,16,6,7,0.7,0.7
2025-10-02T1100,1686A,111.0286,21.4688,茂名市,电白南海,,22,22,26,3,14,58,,30,30,7,9,5,7,0.6,0.7
2025-10-02T1100,1687A,110.9294,21.6533,茂名市,茂石化七小,,20,19,24,14,13,60,,35,35,5,9,7,8,0.4,0.5
2025-10-02T1100,1688A,110.9107,21.6687,茂名市,健康路,,20,14,20,12,15,62,,41,41,6,10,6,9,0.5,0.4
2025-10-02T1100,1689A,110.8592,21.6828,茂名市,高岭,,24,24,30,3,9,59,,35,35,8,13,8,13,0.5,0.5
2025-10-02T1100,3450A,111.01,21.5165,茂名市,电白水东,,18,12,11,7,9,56,,35,35,7,9,8,8,0.8,0.8
2025-10-02T1100,2539A,104.0308,30.0478,眉山市,黑龙滩水库,,18,10,19,3,12,55,,48,48,5,5,4,3,0.3,0.3
2025-10-02T1100,2540A,103.8416,30.0874,眉山市,气象局,,29,29,44,9,22,56,,34,34,18,17,13,12,0.4,0.4
2025-10-02T1100,3137A,103.8578,30.0744,眉山市,市委党校,,,27,32,9,17,56,,40,40,,16,,8,0.7,0.7
2025-10-02T1100,3148A,103.8291,30.0564,眉山市,区人社局,,39,39,47,9,18,60,,43,43,18,18,19,11,0.9,0.9
2025-10-02T1100,1690A,116.1231,24.3284,梅州市,梅江月梅,,33,29,32,23,23,94,,52,52,8,11,10,15,0.6,0.6
2025-10-02T1100,1691A,116.0797,24.2719,梅州市,梅县新城,,28,23,37,13,23,87,,48,48,4,10,7,7,0.5,0.6
2025-10-02T1100,1692A,116.1248,24.2654,梅州市,环境监控中心,,31,31,34,15,23,78,,42,42,6,13,5,6,0.6,0.6
2025-10-02T1100,3315A,116.1233,24.2991,梅州市,梅龙,,27,22,31,16,25,84,,56,56,6,9,9,10,0.7,0.7
2025-10-02T1100,1878A,104.7778,31.4741,绵阳市,富乐山,,22,22,13,12,6,45,,14,14,9,8,11,9,0.7,0.6
2025-10-02T1100,1880A,104.6697,31.4668,绵阳市,高新区自来水公司,,21,21,15,7,6,42,,13,13,17,14,10,8,0.6,0.6
2025-10-02T1100,1881A,104.7287,31.5075,绵阳市,三水厂,,22,15,13,15,9,42,,12,12,11,12,14,12,0.7,0.7
2025-10-02T1100,3491A,104.69,31.5322,绵阳市,西科大附属小学,,31,31,17,16,8,43,,16,16,15,15,11,9,0.6,0.5
2025-10-02T1100,3492A,104.5648,31.5343,绵阳市,安州区旅游局,,19,14,12,7,6,58,,19,19,6,10,10,8,0.5,0.6
2025-10-02T1100,4226A,104.7651,31.4531,绵阳市,绵阳市气象局,,24,24,12,16,8,33,,13,11,16,11,10,8,0.5,0.5
2025-10-02T1100,1784A,129.61,44.561,牡丹江市,环保大楼,,23,18,22,7,14,72,,32,32,10,15,7,7,0.4,0.3
2025-10-02T1100,1785A,129.6115,44.5782,牡丹江市,文化广场,,29,28,35,20,27,59,,29,29,13,22,7,8,0.5,0.6
2025-10-02T1100,1786A,129.5904,44.5963,牡丹江市,第一医院,,32,32,33,19,27,65,,30,30,12,20,8,7,0.2,0.3
2025-10-02T1100,1787A,129.6364,44.6075,牡丹江市,机车工厂,,,13,31,10,18,63,,10,,13,17,,6,0.4,0.4
2025-10-02T1100,1788A,129.6386,44.5462,牡丹江市,第一中学,,34,34,24,18,18,84,,30,30,6,16,5,5,0.4,0.3
2025-10-02T1100,2531A,105.0703,29.61,内江市,市监测站,,14,8,14,7,10,42,,32,32,7,8,2,2,0.6,0.7
2025-10-02T1100,2532A,105.0717,29.5947,内江市,东兴区政府,,14,7,11,3,6,44,,32,32,7,9,5,5,0.3,0.4
2025-10-02T1100,2533A,105.0653,29.5817,内江市,内江二中,,14,10,19,3,12,42,,31,31,9,10,1,2,0.5,0.5
2025-10-02T1100,2534A,105.0406,29.5822,内江市,内江日报社,,15,7,16,3,11,47,,36,36,7,10,3,4,0.4,0.5
2025-10-02T1100,2628A,92.0657,31.4846,那曲市,那曲监测站,细颗粒物(PM2.5),54,38,19,38,11,54,,83,72,46,14,5,5,0.7,0.3
2025-10-02T1100,4243A,92.0515,31.4787,那曲市,那曲市委宣传部,,22,14,8,13,5,57,,93,83,44,9,3,3,0.6,0.5
2025-10-02T1100,1290A,115.8931,28.6843,南昌市,省外办,,45,44,40,31,29,98,,56,56,13,16,4,3,0.7,0.9
2025-10-02T1100,1291A,115.8886,28.7003,南昌市,省林业公司,,46,46,40,24,25,92,,46,46,4,7,6,3,0.4,0.6
2025-10-02T1100,1292A,115.8126,28.7442,南昌市,林科所,,48,48,30,29,19,100,,44,44,14,16,14,9,0.7,0.6
2025-10-02T1100,1294A,115.8518,28.687,南昌市,建工学校,,41,41,43,27,27,93,,51,51,10,19,14,9,0.7,0.9
2025-10-02T1100,1295A,115.8921,28.6424,南昌市,象湖,,43,43,35,27,21,100,,59,59,12,18,10,8,0.9,1
2025-10-02T1100,1296A,115.7423,28.7996,南昌市,武术学校,,45,,19,31,13,90,,28,28,9,9,12,8,0.5,0.5
2025-10-02T1100,3046A,115.9084,28.6062,南昌市,机电学校,颗粒物(PM10),52,53,45,27,26,107,,54,54,6,11,9,7,0.5,0.6
2025-10-02T1100,3690A,115.9721,28.7031,南昌市,外国语学校,,50,50,40,30,22,101,,58,58,13,14,10,8,0.3,0.4
2025-10-02T1100,4192A,115.9316,28.68677,南昌市,南京东路235号,颗粒物(PM10),53,55,43,27,23,101,,60,60,14,16,6,4,0.9,1
2025-10-02T1100,1905A,106.056,30.8064,南充市,西山风景区,,,,,,,,,,,,,,,,
2025-10-02T1100,1906A,106.0789,30.8023,南充市,南充市委,,11,6,12,3,10,33,,28,28,10,11,3,3,0.4,0.4
2025-10-02T1100,1907A,106.1031,30.8217,南充市,南充炼油厂,,17,17,20,3,9,39,,34,34,6,7,5,5,0.2,0.3
2025-10-02T1100,4227A,106.1083,30.7884,南充市,梨树横街98号,,13,,13,9,10,37,,35,35,10,8,4,4,0.3,0.3
2025-10-02T1100,4304A,106.1172,30.843,南充市,清泉寺北路188号,,15,6,12,3,10,45,,36,36,5,6,5,5,0.3,0.3
2025-10-02T1100,4305A,106.067,30.7616,南充市,同庆路1号,,19,19,9,3,6,41,,32,32,10,12,5,5,0.3,0.4
2025-10-02T1100,1151A,118.8086,32.1065,南京市,迈皋桥,,28,28,28,19,20,78,,80,76,2,3,3,4,0.4,0.5
2025-10-02T1100,1152A,118.7538,32.0551,南京市,草场门,,39,36,31,27,21,75,,75,69,13,13,5,4,0.7,0.7
2025-10-02T1100,1153A,118.7794,32.0745,南京市,山西路,,44,44,30,19,14,85,,90,83,13,9,3,4,0.7,0.7
2025-10-02T1100,1154A,118.7752,32.0023,南京市,中华门,,29,29,22,17,17,75,,75,71,7,5,4,4,0.6,0.6
2025-10-02T1100,1155A,118.8109,32.0309,南京市,瑞金路,,32,31,24,22,19,75,,79,70,14,8,7,7,0.4,0.4
2025-10-02T1100,1156A,118.7997,32.0754,南京市,玄武湖,,38,38,29,11,11,80,,81,76,13,14,7,6,0.4,0.3
2025-10-02T1100,1157A,118.6414,32.0931,南京市,浦口,,35,35,30,17,16,71,,80,73,16,16,6,7,0.5,0.9
2025-10-02T1100,1158A,118.7356,31.9996,南京市,奥体中心,,30,30,28,14,21,92,,93,89,9,10,8,8,0.6,0.6
2025-10-02T1100,1159A,118.9125,32.1028,南京市,仙林大学城,,39,39,38,14,18,85,,80,76,7,8,10,9,0.9,0.9
2025-10-02T1100,3422A,118.8436,31.9198,南京市,江宁彩虹桥,,41,41,28,17,19,85,,77,75,10,7,6,5,0.7,0.8
2025-10-02T1100,3427A,118.8554,32.3578,南京市,六合雄州,,27,25,42,12,28,86,,74,74,13,19,8,7,1.1,1.1
2025-10-02T1100,4249A,118.8708,31.3402,南京市,汶溪路181号,,42,,25,29,24,81,,79,73,12,12,6,7,0.6,0.7
2025-10-02T1100,4312A,119.019,31.6512,南京市,中山西路1号,,31,31,28,16,18,72,,65,62,16,16,8,4,0.9,0.8
2025-10-02T1100,1401A,108.3103,22.7881,南宁市,二十一中,,28,28,19,8,11,61,,20,20,8,11,7,6,0.7,0.6
2025-10-02T1100,1402A,108.3141,22.8528,南宁市,北湖,,23,21,24,14,16,72,,19,19,10,15,9,7,0.6,0.6
2025-10-02T1100,1403A,108.3206,22.8225,南宁市,市监测站,,34,34,18,12,11,67,,28,28,9,10,8,6,0.4,0.4
2025-10-02T1100,1404A,108.3829,22.8037,南宁市,大自然花园,,22,20,19,14,13,68,,26,26,6,9,6,6,0.5,0.5
2025-10-02T1100,1405A,108.4394,22.7904,南宁市,仙葫,,24,24,20,10,10,66,,24,24,5,10,5,5,0.5,0.6
2025-10-02T1100,1406A,108.2397,22.8467,南宁市,区农职院,,26,25,27,18,12,72,,20,20,13,18,6,5,0.7,0.6
2025-10-02T1100,1407A,108.3275,22.735,南宁市,英华嘉园,,32,32,24,16,14,67,,19,19,8,16,3,3,0.5,0.5
2025-10-02T1100,3401A,108.4834,22.7618,南宁市,红星社区,,,21,27,19,16,62,,17,17,5,11,4,4,,0.3
2025-10-02T1100,4221A,108.2177,22.7774,南宁市,乐贤路16号,,26,19,30,18,15,74,,17,17,9,22,6,5,0.4,0.4
2025-10-02T1100,2331A,118.0966,26.6761,南平市,茫荡山,,,,21,,12,,,79,,,,,2,,0.3
2025-10-02T1100,2332A,118.1681,26.6369,南平市,南平市监测站,,23,11,21,10,15,72,,53,52,3,5,3,3,0.4,0.5
2025-10-02T1100,2333A,118.1825,26.6489,南平市,南平铝业有限公司,,25,,23,8,14,80,,55,55,2,5,5,5,0.4,0.6
2025-10-02T1100,2334A,118.1756,26.6272,南平市,南平七中,,23,13,23,8,14,72,,52,52,2,3,4,4,0.5,0.5
2025-10-02T1100,1168A,120.9098,31.9663,南通市,狼山街道,,29,29,29,13,19,90,,83,77,17,14,4,4,0.4,0.5
2025-10-02T1100,1169A,120.86,32.0005,南通市,虹桥,,30,21,27,13,21,94,,90,82,24,21,4,4,0.5,0.6
2025-10-02T1100,1170A,120.87,32.02,南通市,城中,,30,28,31,13,19,95,,89,82,20,16,4,5,0.5,0.6
2025-10-02T1100,1171A,120.94,31.93,南通市,星湖花园,,30,25,22,11,19,95,,84,80,15,10,4,3,0.7,0.8
2025-10-02T1100,1172A,120.81,32.0417,南通市,紫琅学院,,,22,26,10,18,96,,84,79,15,14,4,4,,0.8
2025-10-02T1100,3291A,121.067,32.062,南通市,通州监测站,,34,34,27,12,21,106,,96,93,10,8,3,2,0.7,0.6
2025-10-02T1100,3432A,120.9348,31.9883,南通市,环境教育馆,,,36,31,13,22,104,,84,77,,11,,4,0.4,0.5
2025-10-02T1100,2404A,112.5224,33.0122,南阳市,瓦房庄,,,,14,,6,77,,77,75,,4,7,7,0.5,0.4
2025-10-02T1100,2405A,112.5003,32.9735,南阳市,汉画馆,,23,11,14,3,6,72,,77,73,6,6,7,7,0.5,0.4
2025-10-02T1100,2406A,112.5573,33.027,南阳市,气象站,,24,6,9,3,2,76,,78,76,4,3,7,7,0.5,0.4
2025-10-02T1100,2407A,112.5481,32.9689,南阳市,理工学院,,25,,13,9,7,78,,83,80,7,5,8,8,0.6,0.5
2025-10-02T1100,4008A,112.5234,32.9922,南阳市,卧龙区政府,,24,,7,3,7,74,,78,74,8,6,6,6,0.5,0.4
2025-10-02T1100,1234A,121.8358,29.911,宁波市,区环保大楼,,31,12,22,7,12,99,,81,81,6,20,5,6,0.5,0.6
2025-10-02T1100,1235A,121.56,29.82,宁波市,万里学院,,,20,25,8,20,102,,76,76,,12,7,7,0.5,0.7
2025-10-02T1100,1236A,121.713,29.9572,宁波市,龙赛医院,,31,12,23,11,13,98,,66,66,5,19,6,6,0.5,0.6
2025-10-02T1100,1239A,121.633,29.7733,宁波市,钱湖水厂,,32,12,20,8,15,100,,72,72,3,8,6,6,0.6,0.8
2025-10-02T1100,1240A,121.5856,29.8635,宁波市,太古小学,,,,25,13,16,101,,78,78,,11,24,4,,0.9
2025-10-02T1100,1241A,121.524,29.8674,宁波市,市环境监测中心,,30,20,26,9,14,94,,76,76,6,14,7,7,0.5,0.7
2025-10-02T1100,2871A,121.6147,29.9017,宁波市,万里国际学校,,34,13,24,9,15,107,,87,87,3,11,5,5,0.5,0.7
2025-10-02T1100,3710A,121.5594,29.8975,宁波市,白沙活动中心,,32,13,20,6,12,102,,82,82,10,16,1,1,0.3,0.5
2025-10-02T1100,2339A,119.5001,26.6946,宁德市,金涵水库,,,,,,10,,,40,,,4,,2,,0.5
2025-10-02T1100,2341A,119.5388,26.6612,宁德市,宁德市监测站,,34,34,16,11,9,64,,36,36,6,7,5,4,0.4,0.4
2025-10-02T1100,3209A,119.5231,26.6562,宁德市,宁德一中,,21,18,16,3,8,66,,37,37,5,4,7,6,0.3,0.3
2025-10-02T1100,2618A,98.8601,25.8567,怒江傈僳族自治州,州监测站,,21,21,17,12,12,17,,15,13,6,6,7,6,0.5,0.4
2025-10-02T1100,2619A,98.8546,25.8417,怒江傈僳族自治州,泸水一中,,,,10,19,10,7,,7,4,7,9,5,4,,0.5
2025-10-02T1100,1888A,101.6891,26.571,攀枝花市,弄弄坪,,44,44,37,20,11,30,,8,8,15,18,30,12,1.9,1.1
2025-10-02T1100,1889A,101.5769,26.5928,攀枝花市,河门口,,32,32,16,11,6,30,,8,8,8,10,13,13,1.0,1
2025-10-02T1100,1890A,101.7169,26.585,攀枝花市,炳草岗,,48,48,35,25,11,30,,6,6,17,18,24,11,1.7,0.9
2025-10-02T1100,1891A,101.7369,26.5008,攀枝花市,仁和,,43,42,19,30,10,26,,6,6,25,11,41,12,3.3,0.9
2025-10-02T1100,2835A,101.7227,26.567,攀枝花市,四十中小,,38,38,28,18,16,26,,8,8,17,13,27,18,2.5,1.3
2025-10-02T1100,1604A,122.0303,41.1489,盘锦市,开发区,颗粒物(PM10),56,62,54,38,54,134,,84,84,17,19,14,12,1.0,1.1
2025-10-02T1100,1605A,122.0485,41.0883,盘锦市,兴隆台,颗粒物(PM10),57,64,59,34,43,139,,74,74,16,21,10,5,0.7,1
2025-10-02T1100,1606A,121.8297,41.1028,盘锦市,新生街道,,45,44,48,29,41,141,,72,72,13,25,7,7,0.8,1
2025-10-02T1100,1832A,113.3257,33.742,平顶山市,新华旅馆,,24,,9,6,13,74,,70,70,10,10,5,5,0.4,0.3
2025-10-02T1100,1833A,113.2919,33.737,平顶山市,规划设计院,,24,7,10,3,7,76,,67,67,10,11,4,4,0.6,0.6
2025-10-02T1100,1834A,113.182,33.774,平顶山市,平顶山工学院,,27,7,10,3,7,84,,69,69,9,10,6,6,0.5,0.5
2025-10-02T1100,3204A,113.3025,33.73,平顶山市,规划局,,,7,9,3,9,77,,67,67,,10,5,4,,0.4
2025-10-02T1100,3594A,112.8867,33.9116,平顶山市,石龙区,,26,,6,8,6,82,,81,80,7,6,5,5,0.6,0.4
2025-10-02T1100,2656A,106.6692,35.5461,平凉市,聚贤嘉苑,,45,45,33,25,23,47,,79,69,21,10,8,9,0.6,0.5
2025-10-02T1100,2657A,106.7021,35.5307,平凉市,博物馆,,49,49,37,18,16,47,,82,71,20,9,12,8,0.6,0.6
2025-10-02T1100,2347A,114.0997,27.5002,萍乡市,武功山,,31,,27,20,7,98,,46,46,4,5,14,16,0.4,0.6
2025-10-02T1100,2348A,113.8385,27.6434,萍乡市,中医院,,42,42,63,27,36,117,,50,50,14,19,5,12,0.8,1.3
2025-10-02T1100,2349A,113.8493,27.6253,萍乡市,市政府车库,细颗粒物(PM2.5),54,,53,38,49,118,,36,36,10,18,12,16,0.6,1.1
2025-10-02T1100,2350A,113.8676,27.6435,萍乡市,市环保局,,40,40,56,24,39,117,,48,48,6,15,7,19,0.5,0.8
2025-10-02T1100,2351A,113.866,27.6198,萍乡市,安源区政府,,36,28,55,25,43,110,,38,38,9,18,10,15,0.5,1
2025-10-02T1100,2319A,119.0141,25.4325,莆田市,荔城区仓后路,,,35,23,7,5,59,,45,45,7,9,7,7,,0.6
2025-10-02T1100,2320A,119.0015,25.4553,莆田市,莆田市监测站,,25,25,19,3,6,60,,44,44,4,6,6,7,0.4,0.5
2025-10-02T1100,2321A,119.1119,25.4561,莆田市,涵江区六中,,21,15,18,3,5,66,,45,45,5,8,5,6,0.2,0.2
2025-10-02T1100,2322A,119.1013,25.3215,莆田市,秀屿区政府,,27,27,22,3,4,71,,49,49,5,8,5,6,0.4,0.4
2025-10-02T1100,2323A,118.981,25.4792,莆田市,东圳水库,,,,15,,9,,,74,,,5,,3,,0.3
2025-10-02T1100,2392A,115.0312,35.7636,濮阳市,环保局,,22,18,27,14,17,68,,70,70,15,15,4,4,0.8,0.7
2025-10-02T1100,2394A,115.0574,35.7609,濮阳市,油田运输公司,,24,16,29,12,14,75,,74,74,12,15,7,7,0.8,0.8
2025-10-02T1100,3021A,115,35.7668,濮阳市,濮水河管理处,,22,17,30,11,13,69,,72,72,12,15,8,8,0.6,0.6
2025-10-02T1100,4216A,115.0924,35.7686,濮阳市,任丘路479号,,,18,33,11,16,71,,72,72,,12,,4,0.7,0.6
2025-10-02T1100,2601A,100.98,22.7633,普洱市,市环保局,,32,,21,22,21,32,,35,32,3,3,7,7,0.4,0.3
2025-10-02T1100,2602A,100.9817,22.8322,普洱市,普洱第二中学,,24,24,22,6,12,31,,31,30,4,4,6,6,0.3,0.3
2025-10-02T1100,2262A,131.0518,45.8751,七台河市,新一中,,19,6,16,3,7,60,,39,39,9,13,16,13,0.7,0.8
2025-10-02T1100,3345A,131.0577,45.7879,七台河市,中波台,,,36,17,15,8,45,,39,39,16,14,14,9,,0.6
2025-10-02T1100,3637A,131.0176,45.7761,七台河市,人民广场,,50,50,27,18,12,53,,49,49,18,15,13,8,0.6,0.6
2025-10-02T1100,3684A,130.8781,45.8222,七台河市,新建矿广场,,27,27,20,16,15,46,,22,22,14,15,15,10,0.2,0.5
2025-10-02T1100,1779A,123.9305,47.3636,齐齐哈尔市,安居小区,,46,46,26,3,4,39,,29,28,13,9,2,2,0.4,0.3
2025-10-02T1100,1780A,123.9488,47.3386,齐齐哈尔市,中心广场,,,,20,,4,45,,32,32,12,10,,4,0.3,0.2
2025-10-02T1100,1781A,123.9483,47.3227,齐齐哈尔市,农牧车辆厂,,31,31,27,6,6,41,,32,32,12,8,5,4,0.5,0.5
2025-10-02T1100,1783A,123.945,47.2988,齐齐哈尔市,市环境监测站,,24,24,23,6,6,44,,30,30,8,9,7,6,0.3,0.3
2025-10-02T1100,3662A,123.6333,47.2075,齐齐哈尔市,富区青少年活动中心,,27,27,25,7,6,38,,19,19,5,7,4,3,0.4,0.4
2025-10-02T1100,2591A,107.9783,26.5747,黔东南苗族侗族自治州,市环境监测站,,17,14,12,8,7,52,,53,53,3,2,3,3,0.4,0.4
2025-10-02T1100,2881A,107.8908,26.5311,黔东南苗族侗族自治州,凯里学院,,16,12,7,10,10,51,,53,53,6,6,2,3,0.4,0.4
2025-10-02T1100,2593A,107.5228,26.2403,黔南布依族苗族自治州,小围寨,,13,9,8,3,1,40,,38,38,2,2,2,3,0.3,0.3
2025-10-02T1100,3538A,107.5175,26.2978,黔南布依族苗族自治州,沙坝,,,14,11,3,5,37,,29,29,3,3,3,4,,0.2
2025-10-02T1100,2589A,104.9022,25.0925,黔西南布依族苗族自治州,场坝街,,13,13,13,7,6,26,,22,22,5,4,3,3,0.3,0.3
2025-10-02T1100,2590A,104.8811,25.0992,黔西南布依族苗族自治州,坪东大道,,,14,16,9,6,26,,21,21,3,4,2,2,,0.3
2025-10-02T1100,2502A,108.6236,21.9667,钦州市,市环保站,,20,19,23,7,8,64,,32,32,6,12,2,4,0.4,0.4
2025-10-02T1100,2503A,108.6549,21.9481,钦州市,沙埠小学,,21,21,29,10,13,66,,25,25,3,12,3,4,0.4,0.5
2025-10-02T1100,2504A,108.5989,21.7431,钦州市,港区一小,,28,28,34,8,9,58,,25,25,12,17,6,5,0.5,0.5
2025-10-02T1100,3404A,108.5959,21.9633,钦州市,北职校,,21,13,24,7,11,67,,19,19,4,10,4,5,0.4,0.5
2025-10-02T1100,1043A,119.7493,40.0116,秦皇岛市,第一关,细颗粒物(PM2.5),84,80,101,62,53,89,,53,53,19,57,6,8,0.8,0.9
2025-10-02T1100,1044A,119.5897,39.9499,秦皇岛市,监测站,细颗粒物(PM2.5),97,139,91,72,36,66,,30,30,39,60,12,9,1.0,0.9
2025-10-02T1100,1046A,119.5251,39.9041,秦皇岛市,建设大厦,,,122,92,,20,58,,30,30,35,43,,7,1.1,0.8
2025-10-02T1100,3132A,119.610547,39.943889,秦皇岛市,文明里,细颗粒物(PM2.5),97,117,106,72,40,59,,21,21,39,60,13,11,0.8,0.6
2025-10-02T1100,4198A,119.5090,39.8253,秦皇岛市,北戴河轮滑馆,,,94,128,44,48,65,,37,22,,27,,4,0.9,0.9
2025-10-02T1100,1307A,120.6659,36.2403,青岛市,仰口,,34,26,36,10,18,107,,99,96,6,9,12,12,0.7,0.8
2025-10-02T1100,1310A,120.4134,36.0658,青岛市,市南区东部子站,,38,19,43,12,22,119,,90,90,2,12,6,9,0.2,0.3
2025-10-02T1100,1311A,120.3664,36.1032,青岛市,四方区子站,,,,48,,29,117,,97,97,,18,,11,0.2,0.6
2025-10-02T1100,1312A,120.2994,36.054,青岛市,市南区西部子站,,39,24,48,10,23,122,,96,96,4,23,7,9,0.4,0.8
2025-10-02T1100,1313A,120.4581,36.0858,青岛市,崂山区子站,,41,22,39,9,21,129,,97,97,3,16,8,11,0.2,0.5
2025-10-02T1100,1315A,120.3999,36.3083,青岛市,城阳区子站,,38,19,47,7,21,121,,107,107,4,20,3,6,0.4,0.7
2025-10-02T1100,3362A,120.5014,36.4034,青岛市,即墨2号,,35,14,47,8,21,112,,97,97,6,18,3,6,0.3,0.5
2025-10-02T1100,3642A,120.3503,36.0736,青岛市,市北区南部,,37,19,45,9,24,118,,92,92,7,21,7,10,0.5,0.8
2025-10-02T1100,3643A,120.3948,36.1805,青岛市,李沧区北部,,31,,43,12,28,99,,90,90,14,23,5,7,0.3,0.6
2025-10-02T1100,4290A,120.1969,35.9546,青岛市,珠江路669号,,46,46,43,10,27,119,,92,92,6,15,8,10,0.3,0.6
2025-10-02T1100,4291A,120.0424,35.8656,青岛市,黄岛区人民政府广场,,39,19,44,3,21,122,,97,97,7,19,5,7,0.4,0.8
2025-10-02T1100,1702A,113.0426,23.691,清远市,环保大楼,,32,32,59,19,31,70,,43,35,16,18,10,12,0.6,0.7
2025-10-02T1100,1703A,113.0208,23.7106,清远市,凤城街办,,23,22,40,12,27,72,,48,41,15,19,10,11,0.6,0.7
2025-10-02T1100,3025A,113.0477,23.6344,清远市,技师学院,,22,17,41,10,25,69,,33,29,11,20,4,5,0.4,0.5
2025-10-02T1100,3318A,112.9903,23.7403,清远市,清新太和,,27,27,40,18,28,78,,52,45,15,16,8,8,0.6,0.6
2025-10-02T1100,3455A,113.076,23.7198,清远市,清城东城,,20,17,43,10,28,63,,39,32,15,19,8,8,0.7,0.8
2025-10-02T1100,2661A,107.6325,35.7357,庆阳市,庆阳五中,,26,24,22,11,14,83,,76,74,10,6,8,8,0.4,0.4
2025-10-02T1100,2662A,107.6364,35.7067,庆阳市,市环保局,,,34,27,11,11,87,,84,79,,7,4,3,0.5,0.4
2025-10-02T1100,1916A,103.7897,25.5035,曲靖市,环境监测站,,11,,13,3,5,34,,26,26,3,5,2,3,0.4,0.4
2025-10-02T1100,1917A,103.8,25.5364,曲靖市,烟厂办公区,,,6,7,,6,35,,26,26,3,6,,4,0.3,0.4
2025-10-02T1100,3376A,103.7947,25.462,曲靖市,南苑二区,,12,6,6,3,3,37,,28,28,2,4,4,4,0.2,0.2
2025-10-02T1100,3377A,103.7444,25.5261,曲靖市,曲靖师范学院,,11,7,9,3,5,35,,28,28,5,5,1,1,0.3,0.3
2025-10-02T1100,1264A,118.8692,28.9398,衢州市,环保大楼,,35,34,40,23,26,111,,62,62,13,12,10,5,1.2,0.8
2025-10-02T1100,1265A,118.8709,28.9666,衢州市,实验学校,,34,24,34,17,24,106,,58,58,9,12,7,6,0.7,0.6
2025-10-02T1100,1266A,118.8621,28.9808,衢州市,衢州学院,,33,29,36,20,24,104,,58,58,9,13,6,5,0.6,0.6
2025-10-02T1100,1611A,118.5819,24.9117,泉州市,涂山街,,23,10,20,3,13,72,,49,49,3,7,2,2,0.4,0.5
2025-10-02T1100,1612A,118.5972,24.8978,泉州市,津头埔,,23,11,19,6,10,73,,48,48,5,7,3,4,0.4,0.5
2025-10-02T1100,1613A,118.6663,24.9424,泉州市,万安,,24,20,20,7,9,76,,42,42,4,8,2,2,0.4,0.4
2025-10-02T1100,1614A,118.6117,24.9604,泉州市,清源山,,,,13,,13,,,93,,,4,,2,,0.4
2025-10-02T1100,3529A,118.6333,24.9264,泉州市,城华南路,,23,12,15,7,9,72,,48,48,4,6,3,3,0.4,0.5
2025-10-02T1100,2626A,88.8876,29.2718,日喀则市,日喀则监测站,,22,22,8,3,1,60,,67,64,12,5,13,14,0.5,0.4
2025-10-02T1100,3726A,88.8781,29.2426,日喀则市,林业技术推广中心,颗粒物(PM10),51,51,11,10,2,49,,61,55,23,4,7,7,0.5,0.4
2025-10-02T1100,1659A,119.471,35.4209,日照市,监测站,,33,14,38,3,22,103,,98,98,11,22,6,9,0.6,0.7
2025-10-02T1100,1660A,119.523,35.4216,日照市,市政府广场,,35,19,37,3,21,111,,104,104,4,19,4,8,0.5,0.8
2025-10-02T1100,1661A,119.5587,35.4044,日照市,港务局,,36,27,50,12,29,114,,106,106,4,23,2,7,0.4,0.7
2025-10-02T1100,3507A,119.5328,35.4625,日照市,职业技术学院,,,17,45,12,21,104,,101,101,,20,5,8,,0.9
2025-10-02T1100,3604A,119.3266,35.1044,日照市,岚山环保分局,,37,22,36,10,17,118,,111,111,10,18,7,11,0.5,0.8
2025-10-02T1100,1835A,111.1922,34.7752,三门峡市,市政府,,19,14,13,13,10,54,,64,56,18,13,5,4,0.7,0.3
2025-10-02T1100,1836A,111.1587,34.7942,三门峡市,开发区,,29,29,19,13,10,55,,71,64,18,13,7,5,0.4,0.2
2025-10-02T1100,1838A,111.143,34.7955,三门峡市,风景区,,26,21,12,18,7,70,,74,70,8,6,10,6,0.5,0.4
2025-10-02T1100,3039A,111.1911,34.7829,三门峡市,三门峡市第一小学,,29,24,13,20,9,57,,70,61,11,7,4,3,0.7,0.4
2025-10-02T1100,3598A,111.1,34.7167,三门峡市,富达温泉假日酒店,,24,24,16,15,14,66,,64,64,10,11,8,7,0.4,0.2
2025-10-02T1100,2324A,117.6211,26.2625,三明市,三钢,,30,27,30,18,27,93,,37,37,6,11,5,4,0.6,0.7
2025-10-02T1100,2325A,117.635,26.2714,三明市,三明二中,,,,,,,,,,,,,,,,
2025-10-02T1100,2326A,117.6028,26.2378,三明市,三元区政府,,33,25,28,23,17,100,,31,31,9,11,8,4,1.0,0.6
2025-10-02T1100,2327A,117.7275,26.3108,三明市,洋溪,,,,22,,18,,,66,,,10,,7,,1.0
2025-10-02T1100,1876A,109.5078,18.2489,三亚市,河东子站,,21,21,13,7,7,48,,29,28,8,7,3,3,0.5,0.5
2025-10-02T1100,1877A,109.4964,18.2681,三亚市,河西子站,,15,8,13,3,2,48,,29,29,6,7,5,5,0.4,0.4
2025-10-02T1100,3540A,109.7348,18.3443,三亚市,君悦子站,,16,12,12,3,5,51,,28,28,5,5,3,3,0.5,0.4
2025-10-02T1100,2624A,91.7608,29.2313,山南市,山南监测站,,18,18,10,12,5,54,,38,38,8,7,6,6,0.3,0.3
2025-10-02T1100,2625A,91.7706,29.2436,山南市,山南人民医院,,17,14,11,6,5,52,,47,43,8,6,6,5,0.3,0.3
2025-10-02T1100,1674A,116.6794,23.3667,汕头市,金平子站,,37,37,21,19,13,107,,76,76,10,9,6,3,0.6,0.5
2025-10-02T1100,1675A,116.7244,23.3633,汕头市,龙湖子站,,32,32,21,15,10,92,,82,81,9,6,8,7,0.6,0.5
2025-10-02T1100,1676A,116.7258,23.2775,汕头市,濠江子站,,31,31,23,16,11,84,,68,68,3,5,6,6,0.7,0.7
2025-10-02T1100,1677A,116.7519,23.4714,汕头市,澄海子站,,29,22,23,14,12,91,,72,70,6,6,6,4,0.6,0.6
2025-10-02T1100,1678A,116.6092,23.2539,汕头市,潮阳子站,,28,23,23,15,12,89,,68,68,8,9,6,6,0.7,0.6
2025-10-02T1100,3444A,116.454,23.2684,汕头市,潮南峡山,,27,14,32,12,22,86,,48,48,6,8,7,7,0.6,0.6
2025-10-02T1100,3624A,116.4069,23.2533,汕头市,潮南子站,,38,38,38,21,22,84,,46,46,5,8,5,6,0.6,0.6
2025-10-02T1100,1693A,115.3653,22.775,汕尾市,市环保局,,23,23,14,10,10,70,,50,50,4,5,4,4,0.5,0.5
2025-10-02T1100,1694A,115.3706,22.7898,汕尾市,市政府,,21,20,14,13,7,66,,48,48,5,6,5,6,0.5,0.5
2025-10-02T1100,1695A,115.3622,22.7925,汕尾市,新城中学,,22,20,15,6,11,68,,51,51,5,6,6,6,0.5,0.5
2025-10-02T1100,2645A,109.9154,33.8715,商洛市,监测站,,24,6,10,3,4,76,,51,51,5,8,7,7,0.5,0.6
2025-10-02T1100,3045A,109.9643,33.8471,商洛市,商州区中学,,20,11,12,8,10,64,,44,44,10,15,3,3,0.3,0.3
2025-10-02T1100,2408A,115.6702,34.4285,商丘市,环境监测站,,26,12,12,7,9,82,,95,93,9,7,2,2,0.2,0.2
2025-10-02T1100,2409A,115.6458,34.4045,商丘市,粮食局,,25,9,11,3,3,78,,92,89,12,8,2,2,0.4,0.4
2025-10-02T1100,2410A,115.6293,34.3948,商丘市,睢阳区环保局,,26,10,12,6,10,83,,93,91,7,6,3,3,0.3,0.3
2025-10-02T1100,3171A,115.6071,34.4465,商丘市,梁园区档案局,,26,11,10,7,9,81,,92,89,7,6,3,2,0.5,0.5
2025-10-02T1100,1141A,121.4,31.238,上海市,普陀,,34,17,23,12,22,108,,96,90,9,15,5,5,0.6,0.7
2025-10-02T1100,1142A,121.478,31.2036,上海市,十五厂,,34,18,28,14,24,107,,90,87,11,16,7,6,0.9,0.9
2025-10-02T1100,1143A,121.467,31.3008,上海市,虹口,,35,14,22,12,22,109,,99,94,6,11,8,7,0.7,0.7
2025-10-02T1100,1147A,121.425,31.2261,上海市,静安监测站,,,,24,,22,117,,100,96,,18,4,4,0.7,0.7
2025-10-02T1100,1148A,121.703,31.1907,上海市,浦东川沙,,35,17,29,10,20,110,,90,90,8,17,8,9,0.6,0.7
2025-10-02T1100,1149A,121.533,31.2284,上海市,浦东新区监测站,,35,18,23,10,22,112,,99,97,6,12,5,5,0.4,0.6
2025-10-02T1100,1150A,121.577,31.2071,上海市,浦东张江,,,17,25,6,18,113,,107,103,6,14,,6,,0.8
2025-10-02T1100,3265A,121.4316,31.3322,上海市,宝山庙行,,,16,28,6,23,109,,100,95,8,13,6,6,,0.6
2025-10-02T1100,3266A,121.8791,31.4662,上海市,崇明上实东滩,,36,16,24,10,19,114,,111,107,8,8,5,5,0.3,0.4
2025-10-02T1100,3268A,121.3162,31.2838,上海市,嘉定南翔,,34,18,21,13,20,106,,93,89,10,16,4,4,0.5,0.5
2025-10-02T1100,3269A,121.3359,30.7456,上海市,金山新城,,42,15,10,15,17,132,,94,94,5,5,7,6,1.0,0.9
2025-10-02T1100,3270A,121.4996,31.0739,上海市,闵行浦江,,37,14,24,13,21,116,,84,84,4,9,4,4,1.5,1.3
2025-10-02T1100,3271A,121.2886,31.1663,上海市,青浦徐泾,,37,15,17,12,16,116,,92,92,4,11,7,8,0.4,0.4
2025-10-02T1100,3272A,121.2186,31.0378,上海市,松江图书馆,,38,19,18,7,16,120,,87,87,9,15,5,4,0.4,0.5
2025-10-02T1100,3273A,121.3902,31.2059,上海市,长宁仙霞,,33,20,21,9,19,103,,91,87,12,15,5,4,0.8,0.8
2025-10-02T1100,3274A,121.7965,31.0507,上海市,浦东惠南,,36,13,23,12,20,115,,95,95,7,9,7,7,0.8,0.9
2025-10-02T1100,3544A,121.4891,30.925,上海市,奉贤南桥新城,,38,15,19,14,21,121,,101,101,9,12,6,5,0.6,0.7
2025-10-02T1100,4183A,121.4174,31.16637,上海市,冠生园路458号,,22,22,23,13,20,47,,51,41,14,16,4,5,0.7,0.9
2025-10-02T1100,4205A,121.5419,31.2683,上海市,宁武路151号,,31,21,28,21,22,97,,84,82,18,20,5,5,0.8,0.8
2025-10-02T1100,2381A,118.005,28.4572,上饶市,百草园,,,,,,,,,,,,,,,,
2025-10-02T1100,2382A,117.9756,28.4436,上饶市,市监测站,,40,40,40,24,23,107,,74,74,8,10,8,7,0.6,0.6
2025-10-02T1100,2383A,117.9519,28.4628,上饶市,凤凰光学,,40,40,43,26,24,104,,63,63,7,12,12,12,0.5,0.6
2025-10-02T1100,3685A,117.897,28.4315,上饶市,双创科技城,,42,42,38,23,25,108,,74,74,12,17,8,7,0.6,0.6
2025-10-02T1100,4211A,118.1904,28.4448,上饶市,裕丰大道,,,35,44,17,21,80,,51,48,,13,11,14,0.4,0.6
2025-10-02T1100,1669A,113.5824,24.7733,韶关市,市八中,,25,17,46,9,30,79,,56,56,6,11,10,9,0.5,0.7
2025-10-02T1100,1671A,113.5917,24.7972,韶关市,园林处,,26,13,41,10,40,82,,51,51,8,16,10,10,0.6,0.9
2025-10-02T1100,1673A,113.5971,24.6863,韶关市,曲江监测站,,,12,40,7,28,74,,58,58,9,12,8,9,,0.9
2025-10-02T1100,2809A,113.6668,24.7756,韶关市,大学路288号,,24,17,41,10,30,76,,56,56,14,10,21,8,1.1,0.8
2025-10-02T1100,3622A,113.5556,24.8082,韶关市,碧湖山庄,,29,17,48,10,31,91,,49,49,10,13,7,6,0.6,0.8
2025-10-02T1100,2462A,111.5239,27.3033,邵阳市,市水土所,,,,,,,,,,,,,,,,
2025-10-02T1100,2464A,111.5283,27.2442,邵阳市,市化工厂,,39,39,51,14,37,94,,41,41,10,15,10,9,0.5,0.7
2025-10-02T1100,2466A,111.4328,27.2272,邵阳市,市环保局,,,,66,15,45,90,,32,32,,14,10,10,0.2,0.7
