timepoint,stationcode,longitude,latitude,area,positionname,primarypollutant,aqi,pm10,pm10_24h,pm2_5,pm2_5_24h,o3,o3_24h,o3_8h,o3_8h_24h,no2,no2_24h,so2,so2_24h,co,co_24h
2026-04-12T2100,2568A,102.2503,31.8896,阿坝藏族羌族自治州,马师校,,29,29,20,7,7,65,65,117,113,7,6,6,6,0.3,0.3
2026-04-12T2100,3994A,102.2174,31.9016,阿坝藏族羌族自治州,马尔康中学西区,,24,10,10,10,6,75,75,114,111,8,6,4,5,0.3,0.3
2026-04-12T2100,2695A,80.2899,41.1684,阿克苏地区,电视台,颗粒物(PM10),95,112,183,52,83,113,113,111,111,8,6,2,2,0.5,0.5
2026-04-12T2100,2696A,80.2592,41.1541,阿克苏地区,艺术中心,细颗粒物(PM2.5),74,80,167,47,72,118,118,118,118,9,7,5,4,0.4,0.3
2026-04-12T2100,2205A,105.699,38.8409,阿拉善盟,蒙二幼,颗粒物(PM10),124,182,145,47,41,106,106,112,112,6,4,10,9,0.6,0.5
2026-04-12T2100,2206A,105.7198,38.8508,阿拉善盟,环保局新楼,颗粒物(PM10),124,182,144,50,42,107,107,110,110,6,4,10,9,0.6,0.5
2026-04-12T2100,2708A,88.1266,47.8515,阿勒泰地区,市站,,28,14,26,9,3,88,88,91,91,4,6,5,5,0.2,0.2
2026-04-12T2100,4166A,88.1198,47.7931,阿勒泰地区,阿勒泰路33号,,32,32,33,3,4,85,85,90,90,3,4,6,6,0.2,0.2
2026-04-12T2100,2630A,80.1171,32.4999,阿里地区,阿里监测站,,46,19,16,3,9,147,147,141,141,1,4,6,6,0.4,0.4
2026-04-12T2100,3192A,80.0906,32.5029,阿里地区,阿里藏医院,,47,27,16,3,4,150,150,146,146,1,3,6,7,0.4,0.4
2026-04-12T2100,2644A,109.0088,32.6974,安康市,汉滨区检察院,,42,42,28,16,16,17,17,81,72,16,10,5,4,0.5,0.4
2026-04-12T2100,4054A,109.0324,32.6913,安康市,市邮政管理局,,41,41,30,20,17,35,35,86,76,16,9,4,4,0.7,0.6
2026-04-12T2100,2291A,117.0806,30.5181,安庆市,环科院,,39,29,20,27,10,76,76,102,95,13,8,6,6,0.5,0.5
2026-04-12T2100,2292A,117.0331,30.5118,安庆市,马山宾馆,,43,NA,22,30,12,67,67,98,90,10,4,4,4,0.5,0.4
2026-04-12T2100,2294A,116.9897,30.6146,安庆市,安庆大学,,29,26,21,20,9,76,76,103,95,7,4,2,2,0.5,0.4
2026-04-12T2100,3173A,117.0598,30.5351,安庆市,市人大,,40,33,22,28,9,64,64,99,89,14,6,6,6,0.6,0.5
2026-04-12T2100,3123A,105.9408,26.2431,安顺市,凤凰山,细颗粒物(PM2.5),72,61,50,46,32,112,112,127,127,10,7,15,7,0.5,0.5
2026-04-12T2100,3124A,105.9443,26.2567,安顺市,金钟山,细颗粒物(PM2.5),70,53,45,45,34,98,98,113,113,11,5,9,7,0.6,0.5
2026-04-12T2100,3125A,105.8983,26.248,安顺市,娄家坡,细颗粒物(PM2.5),68,52,41,44,33,100,100,116,116,10,6,24,17,0.7,0.6
2026-04-12T2100,1819A,114.3552,36.1017,安阳市,红庙街,颗粒物(PM10),57,59,66,30,44,111,111,136,133,15,16,3,5,0.2,0.3
2026-04-12T2100,1820A,114.361,36.0681,安阳市,银杏小区,,49,49,70,31,46,109,109,135,132,13,14,4,5,0.0,0.2
2026-04-12T2100,3141A,114.3921,36.0879,安阳市,信访局,,42,42,66,28,46,116,116,141,138,10,13,2,4,0.3,0.5
2026-04-12T2100,3669A,114.4706,36.0634,安阳市,左辅环卫站,颗粒物(PM10),55,56,80,37,48,85,85,132,122,22,17,3,2,0.3,0.4
2026-04-12T2100,4117A,114.2918,36.0769,安阳市,钢三路198号,细颗粒物(PM2.5),90,68,74,55,48,94,94,127,124,20,15,3,4,0.5,0.5
2026-04-12T2100,1748A,123.0441,41.1201,鞍山市,深沟寺,细颗粒物(PM2.5),107,127,90,67,43,78,78,160,144,31,17,11,12,1.0,0.8
2026-04-12T2100,1749A,123.011,41.0931,鞍山市,太阳城,细颗粒物(PM2.5),111,121,86,72,47,88,88,153,139,24,14,11,10,1.1,0.8
2026-04-12T2100,1750A,123.0483,41.1445,鞍山市,太平,颗粒物(PM10),107,137,97,65,45,60,60,142,111,39,22,11,12,1.1,0.9
2026-04-12T2100,1751A,122.964,41.0968,鞍山市,铁西三道街,细颗粒物(PM2.5),120,152,103,81,55,44,44,151,122,72,31,29,10,2.9,1
2026-04-12T2100,1753A,123.0219,41.0822,鞍山市,明达新区,细颗粒物(PM2.5),110,125,84,71,43,83,83,152,133,25,16,10,11,1.0,0.7
2026-04-12T2100,4201A,122.944647,41.082639,鞍山市,兴盛南路290号,细颗粒物(PM2.5),130,169,120,93,55,66,66,152,134,56,29,16,10,1.5,0.8
2026-04-12T2100,2195A,107.4206,40.7609,巴彦淖尔市,附二中,颗粒物(PM10),104,130,346,44,76,59,59,107,100,38,7,13,10,0.6,0.4
2026-04-12T2100,2196A,107.37,40.7372,巴彦淖尔市,市环保大楼,颗粒物(PM10),65,70,282,26,67,71,71,107,101,23,7,7,6,0.4,0.3
2026-04-12T2100,1956A,86.1476,41.7529,巴音郭楞蒙古自治州,孔雀公园,颗粒物(PM10),54,55,93,36,36,85,85,93,92,10,8,10,10,0.2,0.2
2026-04-12T2100,1957A,86.1971,41.7166,巴音郭楞蒙古自治州,棉纺厂,颗粒物(PM10),62,66,116,32,28,71,71,96,94,20,7,/,/,/,/
2026-04-12T2100,1958A,86.236,41.7172,巴音郭楞蒙古自治州,经济开发区,颗粒物(PM10),56,58,97,20,27,78,78,89,88,11,6,7,7,0.3,0.3
2026-04-12T2100,3181A,106.776805,31.852614,巴中市,市五中,NA,NA,23,22,14,10,36,36,75,70,18,10,NA,8,0.7,0.7
2026-04-12T2100,3183A,106.7419,31.8654,巴中市,圣泉水务公司,,24,24,18,16,9,26,26,81,75,32,11,9,8,0.7,0.6
2026-04-12T2100,3616A,106.7617,31.8343,巴中市,市中心医院,,23,23,17,11,10,44,44,89,84,19,10,8,8,0.6,0.5
2026-04-12T2100,2235A,122.7909,45.608,白城市,洮北区环保局,,46,46,62,18,25,74,74,104,95,16,27,4,6,0.1,0.1
2026-04-12T2100,2236A,122.8741,45.5725,白城市,市环保局,,34,34,57,6,21,69,69,91,85,9,14,3,4,0,0.1
2026-04-12T2100,2231A,126.4219,41.9172,白山市,喜丰,颗粒物(PM10),100,119,81,15,23,109,109,124,121,9,18,8,9,0.5,0.6
2026-04-12T2100,2232A,126.4082,41.9416,白山市,环保局,颗粒物(PM10),80,91,57,14,19,115,115,131,128,9,14,10,8,0.4,0.6
2026-04-12T2100,2647A,104.1727,36.5448,白银市,第三小学,颗粒物(PM10),53,53,57,25,21,102,102,102,102,3,6,6,11,0.3,0.4
2026-04-12T2100,2648A,104.1467,36.5482,白银市,动力公司,颗粒物(PM10),52,52,52,24,17,86,86,103,101,17,7,6,6,0.2,0.2
2026-04-12T2100,2512A,106.6102,23.901,百色市,市监测站,NA,NA,NA,58,NA,35,NA,NA,150,150,20,23,12,12,0.8,0.5
2026-04-12T2100,2513A,106.6524,23.8842,百色市,市中心血站,细颗粒物(PM2.5),112,80,71,73,47,112,112,159,154,21,25,13,16,1.1,0.9
2026-04-12T2100,4133A,106.6273,23.8798,百色市,龙景西路,细颗粒物(PM2.5),117,96,65,78,46,120,120,164,160,24,25,20,16,0.9,0.6
2026-04-12T2100,2270A,117.396,32.9389,蚌埠市,工人疗养院,,38,38,63,14,35,86,86,92,91,12,21,4,5,0.3,0.5
2026-04-12T2100,2271A,117.3606,32.9428,蚌埠市,百货大楼,,25,24,53,13,32,78,78,88,85,14,19,4,6,0.5,0.6
2026-04-12T2100,2273A,117.4183,32.8909,蚌埠市,蚌埠学院,,23,19,45,14,38,71,71,80,77,25,32,5,7,0.4,0.6
2026-04-12T2100,2274A,117.3534,32.9672,蚌埠市,淮上区政府,,31,31,54,14,34,90,90,97,95,12,19,4,5,0.3,0.5
2026-04-12T2100,2275A,117.3143,32.8977,蚌埠市,高新区,,27,27,48,16,32,75,75,83,82,12,19,6,8,0.4,0.6
2026-04-12T2100,3715A,117.3091,32.9314,蚌埠市,蚌埠田家炳中学,,31,31,61,17,38,87,87,93,93,10,19,4,6,0.3,0.5
2026-04-12T2100,1585A,109.8761,40.6533,包头市,市环境监测站,颗粒物(PM10),73,81,97,22,25,98,98,122,120,25,28,11,7,0.5,0.4
2026-04-12T2100,1587A,109.9992,40.5843,包头市,包头八中,颗粒物(PM10),79,90,93,32,26,90,90,118,113,23,18,21,10,0.6,0.5
2026-04-12T2100,1589A,109.8641,40.6288,包头市,惠龙物流,颗粒物(PM10),66,72,83,28,25,90,90,116,115,22,16,10,8,0.5,0.4
2026-04-12T2100,1590A,110.0376,40.5546,包头市,东河鸿龙湾,颗粒物(PM10),75,84,79,40,21,73,73,119,111,37,19,23,11,0.6,0.4
2026-04-12T2100,3283A,109.9154,40.5684,包头市,滨河大厦,颗粒物(PM10),68,74,78,28,21,85,85,122,118,23,17,12,10,0.6,0.5
2026-04-12T2100,3419A,109.9449,40.6259,包头市,包头市委党校,颗粒物(PM10),55,57,79,16,19,97,97,119,117,21,20,11,8,0.3,0.3
2026-04-12T2100,3683A,109.8332,40.6577,包头市,昆区政府,颗粒物(PM10),60,63,84,24,25,97,97,119,118,27,30,7,6,0.7,0.6
2026-04-12T2100,1931A,107.0802,34.3129,宝鸡市,竹园沟,,47,47,51,24,27,70,70,128,116,15,17,7,8,0.5,0.5
2026-04-12T2100,1933A,107.1429,34.3549,宝鸡市,监测站,,37,37,63,23,32,79,79,121,113,25,22,6,7,0.3,0.4
2026-04-12T2100,1934A,107.1172,34.3759,宝鸡市,技工学校,,42,42,65,29,34,85,85,124,118,21,16,4,6,0.6,0.6
2026-04-12T2100,1936A,107.2025,34.3518,宝鸡市,文理学院,,41,41,64,26,34,92,92,118,114,17,20,5,7,0.5,0.6
2026-04-12T2100,1937A,107.2396,34.3626,宝鸡市,三迪小学,,43,41,67,30,37,83,83,120,114,23,22,6,7,0.6,0.6
2026-04-12T2100,4155A,107.1721,34.3558,宝鸡市,滨河北路,颗粒物(PM10),51,51,66,23,34,83,83,116,110,20,18,7,8,0.6,0.6
2026-04-12T2100,4308A,107.3898,34.3601,宝鸡市,陈仓区北开路21号,颗粒物(PM10),51,51,77,34,43,83,83,116,110,18,20,9,14,0.5,0.6
2026-04-12T2100,1051A,115.4803,38.8568,保定市,游泳馆,细颗粒物(PM2.5),127,120,109,89,55,124,124,140,140,25,31,2,3,0.4,0.4
2026-04-12T2100,1052A,115.509,38.8895,保定市,华电二区,细颗粒物(PM2.5),120,111,96,82,49,116,116,138,138,25,31,4,3,0.5,0.4
2026-04-12T2100,1053A,115.4588,38.9037,保定市,接待中心,细颗粒物(PM2.5),119,122,98,80,48,100,100,132,132,33,29,1,3,0.4,0.2
2026-04-12T2100,1054A,115.4484,38.8344,保定市,地表水厂,细颗粒物(PM2.5),114,148,108,75,50,126,126,151,151,28,29,5,5,0.4,0.3
2026-04-12T2100,3581A,115.3136,38.9511,保定市,满城区生态环境分局,细颗粒物(PM2.5),118,158,134,79,44,98,98,136,136,33,36,4,4,0.6,0.4
2026-04-12T2100,3582A,115.4709,38.7628,保定市,清苑区第二中学,细颗粒物(PM2.5),125,165,133,87,54,118,118,149,149,30,35,13,6,0.6,0.5
2026-04-12T2100,3583A,115.6231,39.0223,保定市,徐水物探局,颗粒物(PM10),120,170,134,79,49,101,101,129,128,37,33,3,3,0.6,0.5
2026-04-12T2100,4004A,115.4199,38.8665,保定市,双鹰农机,细颗粒物(PM2.5),124,134,117,86,52,121,121,147,147,24,30,4,4,0.4,0.3
2026-04-12T2100,4034A,115.515,38.8589,保定市,植保所站,细颗粒物(PM2.5),119,144,115,80,48,122,122,137,137,24,33,5,4,0.5,0.4
2026-04-12T2100,2594A,99.1589,25.1137,保山市,市环境监测站,细颗粒物(PM2.5),60,60,33,40,21,136,136,135,135,7,8,5,5,0.3,0.2
2026-04-12T2100,2595A,99.1616,25.1381,保山市,市环保局,细颗粒物(PM2.5),68,56,37,44,24,126,126,137,136,4,5,6,6,0.4,0.3
2026-04-12T2100,1867A,109.1435,21.4085,北海市,海滩公园,细颗粒物(PM2.5),62,52,55,41,36,114,114,109,109,8,10,6,7,0.6,0.6
2026-04-12T2100,1868A,109.0983,21.466,北海市,新市环保局,细颗粒物(PM2.5),54,46,53,37,30,106,106,113,113,11,11,10,11,0.6,0.6
2026-04-12T2100,1869A,109.1775,21.5232,北海市,北海工业园,颗粒物(PM10),63,67,65,40,36,102,102,112,112,12,14,6,8,0.8,0.8
2026-04-12T2100,3400A,109.1844,21.4396,北海市,龙潭自来水厂,细颗粒物(PM2.5),56,53,48,38,29,102,102,104,104,6,9,5,6,0.7,0.7
2026-04-12T2100,1001A,116.3611,39.8786,北京市,万寿西宫,颗粒物(PM10),113,152,103,54,35,70,70,122,115,62,31,5,5,0.7,0.5
2026-04-12T2100,1003A,116.4174,39.9289,北京市,东四,颗粒物(PM10),100,119,104,43,31,85,85,134,129,56,28,4,5,0.7,0.4
2026-04-12T2100,1004A,116.4073,39.8858,北京市,天坛,颗粒物(PM10),69,76,90,31,32,46,46,107,98,35,26,4,5,0.9,0.7
2026-04-12T2100,1005A,116.4622,39.9364,北京市,农展馆,颗粒物(PM10),85,98,95,35,31,47,47,129,117,58,31,4,6,1.0,0.6
2026-04-12T2100,1006A,116.3399,39.9293,北京市,官园,颗粒物(PM10),100,119,105,54,32,89,89,111,109,46,29,5,5,0.6,0.5
2026-04-12T2100,1007A,116.2879,39.9613,北京市,海淀万柳,颗粒物(PM10),95,112,96,47,31,38,38,94,84,67,38,4,5,0.8,0.5
2026-04-12T2100,1008A,116.6635,40.1349,北京市,顺义新城,颗粒物(PM10),103,126,102,47,29,47,47,128,110,51,21,5,7,0.7,0.6
2026-04-12T2100,1009A,116.6275,40.327,北京市,怀柔镇,颗粒物(PM10),90,105,90,42,30,58,58,123,112,42,16,6,7,0.8,0.7
2026-04-12T2100,1010A,116.2295,40.217,北京市,昌平镇,颗粒物(PM10),63,68,88,21,26,96,96,111,111,16,28,3,4,0.5,0.6
2026-04-12T2100,1011A,116.3968,39.982,北京市,奥体中心,颗粒物(PM10),76,86,94,27,27,14,14,115,97,98,39,4,6,1.1,0.7
2026-04-12T2100,3418A,116.8336,40.4095,北京市,密云新城,颗粒物(PM10),55,56,89,12,26,62,62,122,103,27,18,3,5,0.3,0.4
2026-04-12T2100,3671A,116.0879,39.9725,北京市,门头沟三家店,细颗粒物(PM2.5),70,NA,104,45,34,49,49,100,95,53,34,3,3,0.6,0.5
2026-04-12T2100,3672A,116.1507,39.8246,北京市,丰台云岗,颗粒物(PM10),107,138,102,55,34,68,68,120,114,62,33,3,4,0.6,0.5
2026-04-12T2100,3674A,115.9578,39.7602,北京市,房山燕山,颗粒物(PM10),80,91,101,31,32,101,101,114,114,22,28,4,4,0.6,0.5
2026-04-12T2100,3675A,116.4669,39.7734,北京市,大兴旧宫,颗粒物(PM10),99,118,106,39,33,75,75,120,117,36,30,4,6,0.7,0.7
2026-04-12T2100,3694A,115.9859,40.4562,北京市,延庆石河营,,49,49,76,17,22,79,79,102,98,22,18,1,2,0.3,0.4
2026-04-12T2100,3695A,116.6151,40.3052,北京市,怀柔新城,颗粒物(PM10),83,96,81,28,23,55,55,124,114,49,16,4,6,0.6,0.6
2026-04-12T2100,3696A,116.2542,39.8764,北京市,丰台小屯,颗粒物(PM10),99,118,95,46,32,39,39,115,105,93,39,3,4,0.6,0.4
2026-04-12T2100,3697A,116.8399,40.3843,北京市,密云镇,颗粒物(PM10),76,86,87,24,27,33,33,122,98,61,25,5,6,0.6,0.5
2026-04-12T2100,4057A,115.9423,40.4431,北京市,延庆百泉,颗粒物(PM10),53,54,84,17,25,91,91,97,97,14,17,1,2,0.3,0.4
2026-04-12T2100,4058A,116.6598,39.9164,北京市,通州新华,颗粒物(PM10),118,166,112,73,37,127,127,124,124,27,28,6,6,0.7,0.6
2026-04-12T2100,4182A,116.1942,39.9158,北京市,石景山八角,颗粒物(PM10),112,151,110,51,32,63,63,104,101,70,43,1,3,0.7,0.5
2026-04-12T2100,4194A,117.078628,40.151726,北京市,平谷新城,颗粒物(PM10),108,140,102,65,35,114,114,132,130,29,19,6,6,0.8,0.5
2026-04-12T2100,1761A,123.8274146,41.31234549,本溪市,大峪,颗粒物(PM10),76,86,62,30,23,89,89,144,133,16,15,7,8,0.7,0.7
2026-04-12T2100,1763A,123.7169,41.3094,本溪市,彩屯,颗粒物(PM10),88,102,66,52,34,67,67,152,131,38,27,22,15,0.9,1.6
2026-04-12T2100,1764A,123.7672166,41.28649327,本溪市,东明,颗粒物(PM10),114,156,72,42,28,68,68,145,129,41,23,9,12,0.7,0.6
2026-04-12T2100,1765A,123.799345,41.266614,本溪市,新立屯,颗粒物(PM10),72,80,57,32,23,12,12,142,108,71,26,8,9,0.7,0.7
2026-04-12T2100,1766A,123.829144,41.336777,本溪市,威宁,颗粒物(PM10),110,145,73,34,25,61,61,141,121,41,21,7,8,0.7,0.6
2026-04-12T2100,2587A,105.287,27.3133,毕节市,八中,,43,43,26,21,19,68,68,86,83,10,6,12,11,0.5,0.5
2026-04-12T2100,2588A,105.3079,27.2987,毕节市,师专,,30,29,24,21,17,73,73,89,87,5,4,10,9,0.5,0.4
2026-04-12T2100,4263A,105.3688,27.3598,毕节市,工业大道,,33,33,27,20,18,86,86,102,99,6,5,16,10,/,/
2026-04-12T2100,1629A,117.9961,37.3604,滨州市,第二水厂,颗粒物(PM10),70,78,61,26,28,93,93,144,137,39,25,14,12,0.6,0.5
2026-04-12T2100,1630A,117.9789,37.3931,滨州市,北中新校,颗粒物(PM10),65,70,58,30,27,77,77,140,130,48,27,17,16,0.7,0.6
2026-04-12T2100,3514A,117.9379,37.3959,滨州市,中海酒店,颗粒物(PM10),65,70,59,28,28,73,73,145,134,44,27,11,14,0.5,0.5
2026-04-12T2100,3515A,117.9381509,37.35547456,滨州市,开发区一中,NA,NA,73,71,26,35,NA,NA,133,133,27,28,12,14,0.8,0.7
2026-04-12T2100,3516A,118.0914,37.6938,滨州市,金海六路,细颗粒物(PM2.5),90,78,64,55,40,151,151,147,147,26,27,10,10,0.7,0.5
2026-04-12T2100,4028A,117.9955,37.3752,滨州市,滨州市西街道办事处,颗粒物(PM10),70,78,62,27,26,79,79,144,134,38,20,14,12,0.6,0.5
2026-04-12T2100,2311A,115.8071,33.8399,亳州市,污水处理厂,,29,29,58,12,32,84,84,114,109,12,14,5,7,0.0,0.1
2026-04-12T2100,2312A,115.7789,33.8519,亳州市,三国揽胜宫,,27,25,48,11,30,84,84,106,102,9,16,6,7,0.0,0.2
2026-04-12T2100,3332A,115.7631,33.803,亳州市,亳州学院,,27,26,63,11,33,85,85,110,106,8,10,6,8,0.1,0.3
2026-04-12T2100,2693A,82.0482,44.8553,博尔塔拉蒙古自治州,市党校,颗粒物(PM10),107,138,71,14,7,98,98,102,102,2,4,2,2,0.1,0.1
2026-04-12T2100,2694A,82.0805,44.8966,博尔塔拉蒙古自治州,市环保局,颗粒物(PM10),79,90,68,18,8,89,89,94,94,8,15,4,3,0.3,0.3
2026-04-12T2100,1071A,116.8733,38.2922,沧州市,沧县城建局,细颗粒物(PM2.5),107,102,83,67,56,123,123,154,152,36,33,6,6,0.7,0.6
2026-04-12T2100,1072A,116.8462,38.3189,沧州市,电视转播站,细颗粒物(PM2.5),113,110,83,74,51,125,125,160,158,28,30,6,7,0.5,0.5
2026-04-12T2100,1073A,116.8588,38.3161,沧州市,市环保局,颗粒物(PM10),107,136,92,66,44,125,125,165,162,33,32,7,6,0.6,0.6
2026-04-12T2100,3324A,116.8011,38.294,沧州市,河北水利电力学院,细颗粒物(PM2.5),113,95,87,74,58,123,123,144,142,32,32,7,8,0.5,0.5
2026-04-12T2100,2622A,97.1813,31.1289,昌都市,昌都监测站,,40,18,18,11,4,125,125,141,139,6,11,6,5,0.3,0.2
2026-04-12T2100,3719A,97.1707,31.1428,昌都市,昌都会议中心,,42,11,17,3,5,133,133,148,147,3,5,5,5,0.1,0.1
2026-04-12T2100,2692A,87.2722,44.0298,昌吉回族自治州,新区政务中心,,41,41,38,11,11,84,84,98,98,9,10,5,5,0.2,0.2
2026-04-12T2100,3613A,87.3069,44.0093,昌吉回族自治州,亚心广场,,48,48,51,10,8,95,95,103,103,6,8,5,6,0.2,0.2
2026-04-12T2100,4164A,87.2057,43.9289,昌吉回族自治州,财政所,颗粒物(PM10),68,74,47,15,6,83,83,100,100,10,4,6,7,0.2,0.1
2026-04-12T2100,1120A,125.2874,43.9024,长春市,客车厂,颗粒物(PM10),136,212,87,17,22,72,72,116,104,12,18,6,7,0.3,0.4
2026-04-12T2100,1121A,125.2943,43.8508,长春市,邮电学院,颗粒物(PM10),142,227,98,21,23,72,72,124,110,9,14,6,7,0.1,0.2
2026-04-12T2100,1122A,125.3648,43.8745,长春市,劳动公园,颗粒物(PM10),130,196,76,19,24,74,74,122,110,9,17,6,7,0.2,0.4
2026-04-12T2100,1123A,125.3233,43.8781,长春市,园林处,颗粒物(PM10),137,216,81,19,24,77,77,127,114,10,16,6,7,0,0.2
2026-04-12T2100,1124A,125.4604,43.7904,长春市,净月潭,颗粒物(PM10),149,245,78,18,22,78,78,124,113,10,12,6,9,0.3,0.4
2026-04-12T2100,1126A,125.38,43.8422,长春市,经开区环卫处,颗粒物(PM10),136,213,95,21,23,75,75,123,111,9,18,5,6,0.3,0.4
2026-04-12T2100,1127A,125.234,43.7761,长春市,高新区管委会,颗粒物(PM10),147,242,91,17,23,74,74,119,106,6,13,6,7,0.4,0.6
2026-04-12T2100,1128A,125.1695,43.83,长春市,岱山公园,颗粒物(PM10),150,250,103,20,24,75,75,122,108,9,20,4,5,0.3,0.4
2026-04-12T2100,4281A,125.334645,43.916281,长春市,北亚泰大街1068号,颗粒物(PM10),129,194,91,15,24,73,73,118,105,14,24,6,8,0.2,0.4
2026-04-12T2100,1335A,113.082,28.2421,长沙市,经开区环保局,,37,37,37,23,22,64,64,79,76,19,10,4,4,0.6,0.6
2026-04-12T2100,1336A,112.8873,28.2202,长沙市,高开区环保局,,36,36,37,22,24,63,63,84,80,15,5,6,5,0.6,0.6
2026-04-12T2100,1337A,113.0785,28.2012,长沙市,马坡岭,,46,46,40,24,25,53,53,80,74,17,4,4,4,0.9,0.8
2026-04-12T2100,1338A,112.9448,28.1894,长沙市,湖南师范大学,,37,37,37,21,23,54,54,87,78,14,6,5,5,0.8,0.7
2026-04-12T2100,1339A,113.0177,28.1322,长沙市,雨花区环保局,,39,39,34,23,22,62,62,81,77,17,6,3,3,1.0,0.9
2026-04-12T2100,1340A,112.9795,28.2593,长沙市,伍家岭,,39,39,41,25,24,34,34,76,67,31,11,3,3,0.6,0.4
2026-04-12T2100,1341A,113.002,28.1944,长沙市,火车新站,,43,43,38,27,27,67,67,82,78,13,5,4,3,0.6,0.5
2026-04-12T2100,1342A,112.9846,28.1177,长沙市,天心区环保局,,48,48,38,28,27,55,55,84,78,28,10,5,4,0.7,0.6
2026-04-12T2100,1343A,112.8906,28.1307,长沙市,湖南中医药大学,,41,41,35,21,22,38,38,90,80,33,9,5,5,0.7,0.7
2026-04-12T2100,1727A,113.1146,36.1547,长治市,清华站,,37,37,45,11,22,113,113,180,162,1,10,8,10,0.3,0.5
2026-04-12T2100,1730A,113.0887,36.2126,长治市,审计局,,48,48,48,17,31,118,118,187,162,12,17,8,11,0.3,0.6
2026-04-12T2100,1731A,113.0845,36.1856,长治市,长治八中,颗粒物(PM10),52,52,59,21,28,116,116,182,161,13,20,10,13,0.4,0.7
2026-04-12T2100,2845A,113.1561,36.1912,长治市,德盛苑,,45,45,39,27,24,114,114,165,153,13,12,9,10,0.5,0.7
2026-04-12T2100,3568A,113.0603,36.0464,长治市,向阳小学,NA,NA,NA,74,16,26,118,118,178,159,14,25,7,10,0.4,0.7
2026-04-12T2100,3569A,112.8788,36.315,长治市,屯留一中,颗粒物(PM10),53,54,45,25,24,129,129,162,155,16,30,10,13,0.6,0.4
2026-04-12T2100,4189A,113.113092,36.199482,长治市,英华南巷50号,,39,39,57,16,25,118,118,177,162,10,14,8,10,0.6,0.9
2026-04-12T2100,4190A,113.23666,36.33435,长治市,学府街1号,颗粒物(PM10),55,57,51,21,22,129,129,149,137,13,29,8,6,0.6,0.7
2026-04-12T2100,1854A,111.696,28.9725,常德市,市二中,,39,36,37,27,21,91,91,111,108,11,6,8,8,0.8,0.8
2026-04-12T2100,3138A,111.7152,29.0288,常德市,武陵区永安,,43,42,40,30,21,96,96,117,114,10,6,6,6,0.7,0.7
2026-04-12T2100,3139A,111.6891,28.9881,常德市,鼎城区玉霞,,42,42,36,29,21,81,81,116,110,16,6,8,8,0.7,0.7
2026-04-12T2100,3140A,111.6651,29.0526,常德市,武陵区长庚,,40,40,38,26,21,102,102,117,116,9,4,8,8,0.8,0.7
2026-04-12T2100,1196A,119.9524,31.7586,常州市,市监测站,,28,28,31,8,8,74,74,86,85,16,14,8,8,0.6,0.7
2026-04-12T2100,1200A,119.9351,31.703,常州市,武进监测站,,36,36,33,12,8,73,73,93,81,18,15,7,6,0.6,0.6
2026-04-12T2100,3002A,119.9701,31.813,常州市,行政中心,,24,9,28,3,9,75,75,85,73,17,20,5,5,0.3,0.3
2026-04-12T2100,3003A,120.0434,31.7726,常州市,经开区,,25,23,36,3,9,78,78,90,87,15,11,1,3,0.7,0.7
2026-04-12T2100,3010A,119.8919,31.7892,常州市,钟楼,,20,18,28,8,9,63,63,100,80,21,18,6,7,0.2,0.2
2026-04-12T2100,3429A,119.8595,31.706,常州市,武进经发区,,30,30,24,16,12,63,63,94,78,28,22,4,4,0.7,0.7
2026-04-12T2100,3430A,119.5812,31.7256,常州市,金坛城区,,24,24,22,14,11,71,71,101,73,10,10,7,7,0.6,0.6
2026-04-12T2100,4089A,119.9551,31.863,常州市,崇义南街5-H号,,23,9,24,3,10,72,72,80,73,19,24,5,6,0.5,0.6
2026-04-12T2100,2220A,120.4318,41.588,朝阳市,西梁,,50,50,55,11,14,83,83,115,98,15,14,8,10,0.4,0.5
2026-04-12T2100,2221A,120.452,41.565,朝阳市,河畔小区,,45,45,53,20,16,92,92,122,102,11,12,8,11,0.4,0.5
2026-04-12T2100,2222A,120.4176,41.5648,朝阳市,八里堡,颗粒物(PM10),58,60,58,22,16,88,88,113,101,14,16,8,12,0.4,0.6
2026-04-12T2100,3026A,116.6179,23.6608,潮州市,市政府,,23,22,34,16,18,37,37,71,62,14,10,4,4,0.4,0.4
2026-04-12T2100,4036A,116.646,23.676,潮州市,金山,,23,22,36,16,21,40,40,72,64,10,14,3,2,0.4,0.4
2026-04-12T2100,2473A,113.0116,25.8228,郴州市,市职中,,20,16,16,14,14,13,13,50,29,15,12,6,6,0.6,0.7
2026-04-12T2100,2475A,113.0381,25.8074,郴州市,市审计局,,42,42,22,17,15,25,25,63,41,5,5,1,2,/,/
2026-04-12T2100,2476A,113.0348,25.7757,郴州市,市环保局,,37,37,27,25,18,24,24,60,40,15,13,6,7,0.6,0.5
2026-04-12T2100,4252A,113.0138,25.8011,郴州市,好美居路49号,,22,22,20,12,14,21,21,62,38,14,12,8,8,/,/
2026-04-12T2100,1431A,103.9727,30.7242,成都市,金泉两河,,39,39,31,27,25,38,38,65,60,21,16,2,2,0.4,0.3
2026-04-12T2100,1432A,104.1423,30.6765,成都市,十里店,颗粒物(PM10),59,62,37,31,27,48,48,64,63,29,19,4,4,0.7,0.6
2026-04-12T2100,1433A,104.0594,30.5765,成都市,三瓦窑,细颗粒物(PM2.5),64,50,35,42,27,40,40,63,63,39,15,2,2,0.7,0.6
2026-04-12T2100,1434A,104.1122,30.6306,成都市,沙河铺,颗粒物(PM10),58,61,38,36,27,35,35,52,51,34,24,2,2,0.5,0.4
2026-04-12T2100,2880A,104.0219,30.6561,成都市,大石西路,细颗粒物(PM2.5),60,48,37,40,30,42,42,60,57,30,19,4,4,0.6,0.5
2026-04-12T2100,3136A,104.2724,30.559,成都市,龙泉驿区区政府,颗粒物(PM10),53,53,27,34,23,39,39,73,66,29,12,6,6,0.6,0.4
2026-04-12T2100,3357A,104.0028,30.6891,成都市,金博路,,46,44,25,32,25,42,42,61,59,32,23,6,6,0.7,0.6
2026-04-12T2100,3359A,104.056,30.5228,成都市,华阳,颗粒物(PM10),56,58,35,37,24,49,49,73,73,35,18,4,4,0.5,0.2
2026-04-12T2100,3488A,104.387954,30.746684,成都市,青石路225号,颗粒物(PM10),61,65,32,34,22,39,39,84,78,42,17,7,7,0.7,0.5
2026-04-12T2100,3489A,104.0788,30.4054,成都市,科学城,细颗粒物(PM2.5),86,58,38,53,31,50,50,79,77,32,12,7,7,0.6,0.7
2026-04-12T2100,4011A,103.8505,30.6946,成都市,光华大道三段,,48,48,32,26,25,52,52,65,63,23,19,3,3,0.5,0.4
2026-04-12T2100,4144A,104.3257,30.6406,成都市,八角井街185号,颗粒物(PM10),58,60,38,26,22,23,23,66,59,31,17,4,5,0.6,0.5
2026-04-12T2100,4224A,104.2433276,30.53529463,成都市,鲸龙路1057号,细颗粒物(PM2.5),72,62,39,46,22,48,48,78,74,30,16,6,6,0.7,0.6
2026-04-12T2100,1062A,117.9531,40.908,承德市,铁路,,50,50,65,8,19,65,65,109,92,21,21,2,6,0.2,0.4
2026-04-12T2100,1063A,117.9397,40.9763,承德市,中国银行,,29,29,64,13,19,50,50,108,90,18,14,3,3,0.3,0.4
2026-04-12T2100,4073A,117.9462,40.95,承德市,杏林街1号,,28,28,63,9,24,76,76,111,99,15,14,1,3,0.2,0.4
2026-04-12T2100,4274A,117.7994,40.9605,承德市,滨河大街98号,,24,23,52,14,15,76,76,108,98,5,12,4,11,0.2,0.4
2026-04-12T2100,2314A,117.4698,30.6617,池州市,池州学院,,49,46,19,34,14,52,52,91,83,35,19,6,4,0.7,0.7
2026-04-12T2100,3237A,117.4918,30.6617,池州市,展览馆,颗粒物(PM10),51,51,19,32,14,48,48,94,86,37,16,4,2,0.5,0.5
2026-04-12T2100,3333A,117.5626,30.695,池州市,第八中学,颗粒物(PM10),52,52,20,35,12,35,35,86,77,41,19,4,3,0.7,0.6
2026-04-12T2100,3334A,117.5037,30.6242,池州市,第十二中学,,41,41,21,26,10,57,57,88,83,27,15,2,2,0.7,0.7
2026-04-12T2100,1744A,118.9229,42.2816,赤峰市,松山一中,,43,43,46,10,15,79,79,118,87,11,13,5,6,0.4,0.5
2026-04-12T2100,1745A,118.9588,42.2733,赤峰市,哈达街,,41,41,46,16,18,86,86,115,92,10,13,8,10,0.5,0.5
2026-04-12T2100,1746A,118.8792,42.2551,赤峰市,天义路,,42,42,49,11,17,86,86,123,96,8,9,4,5,0.2,0.2
2026-04-12T2100,3058A,119.2656,42.0356,赤峰市,银河街,颗粒物(PM10),68,74,75,30,29,82,82,106,96,4,11,6,15,0.2,0.5
2026-04-12T2100,3286A,118.9359,42.3146,赤峰市,桥北物流园区,,44,44,42,6,16,83,83,112,89,4,8,3,4,0.2,0.4
2026-04-12T2100,2521A,107.3473,22.4137,崇左市,市环保局江州分局,细颗粒物(PM2.5),134,130,112,97,80,154,154,181,180,12,14,2,6,1.1,1.1
2026-04-12T2100,4256A,107.375,22.3736,崇左市,石景林东路7号,细颗粒物(PM2.5),130,108,101,92,82,162,162,182,182,14,16,6,6,1.2,1.2
2026-04-12T2100,3207A,118.31131,32.3033,滁州市,市政府原办公楼,,26,17,32,17,32,83,83,91,89,10,14,4,4,0.4,0.5
2026-04-12T2100,3331A,118.3268,32.2633,滁州市,图书馆,,26,17,40,10,22,82,82,92,90,12,13,9,10,0.3,0.4
2026-04-12T2100,4101A,118.3196,32.3335,滁州市,银山路666号,,27,19,38,12,24,84,84,91,90,10,13,5,5,0.5,0.6
2026-04-12T2100,4102A,118.3426,32.2979,滁州市,黄山路555号,,26,26,43,13,25,78,78,92,89,16,17,5,6,0.5,0.6
2026-04-12T2100,2606A,101.5379,25.0492,楚雄彝族自治州,市经济开发区,,40,40,30,20,16,121,121,122,122,8,8,3,2,0.4,0.4
2026-04-12T2100,4153A,101.5536,25.0343,楚雄彝族自治州,团结路562号,,40,32,27,27,16,127,127,127,127,6,6,2,2,0.3,0.2
2026-04-12T2100,2549A,107.5087,31.2186,达州市,市环境监测站,,45,45,31,16,13,13,13,62,56,38,25,6,6,0.5,0.2
2026-04-12T2100,2550A,107.4988,31.2132,达州市,凤凰小区,颗粒物(PM10),53,53,28,30,16,8,8,68,62,53,24,5,5,0.7,0.3
2026-04-12T2100,2551A,107.5081,31.1987,达州市,达县机关宾馆,颗粒物(PM10),51,51,28,29,19,5,5,71,63,45,28,4,5,0.5,0.3
2026-04-12T2100,2552A,107.4644,31.2124,达州市,市政中心,颗粒物(PM10),60,63,36,23,15,8,8,73,66,59,27,5,5,0.7,0.4
2026-04-12T2100,2614A,100.2168,25.5818,大理白族自治州,大理市环境监测站,,41,41,25,26,17,112,112,109,109,10,10,4,4,0.2,0.2
2026-04-12T2100,2615A,100.1542,25.7055,大理白族自治州,大理古城,,40,40,27,24,15,118,118,118,116,3,6,2,2,0.2,0.6
2026-04-12T2100,1109A,121.6119,38.974,大连市,甘井子,颗粒物(PM10),101,121,69,59,27,75,75,130,104,49,28,9,9,0.5,0.5
2026-04-12T2100,1110A,121.565,38.9509,大连市,周水子,细颗粒物(PM2.5),158,NA,89,120,47,89,89,119,105,45,28,6,6,0.7,0.6
2026-04-12T2100,1111A,121.5637,38.8849,大连市,星海三站,细颗粒物(PM2.5),100,82,63,60,29,84,84,110,97,38,27,5,5,0.6,0.4
2026-04-12T2100,1112A,121.6301,38.9117,大连市,青泥洼桥,细颗粒物(PM2.5),74,72,63,47,27,90,90,126,115,31,18,4,6,0.7,0.5
2026-04-12T2100,1113A,121.6248,38.8643,大连市,傅家庄,颗粒物(PM10),61,65,72,40,32,125,125,112,112,16,22,7,8,0.6,0.5
2026-04-12T2100,1114A,121.5117,38.8636,大连市,七贤岭,颗粒物(PM10),83,95,68,50,28,85,85,121,93,38,23,7,7,0.6,0.4
2026-04-12T2100,1116A,121.7507,39.1339,大连市,金州,颗粒物(PM10),108,139,67,59,25,64,64,129,114,60,21,5,5,0.6,0.5
2026-04-12T2100,1117A,121.7811,39.0495,大连市,开发区,细颗粒物(PM2.5),107,89,64,67,31,27,27,110,82,92,37,11,10,0.6,0.4
2026-04-12T2100,1118A,121.9762,39.0631,大连市,双D港,细颗粒物(PM2.5),76,60,66,48,33,58,58,100,87,40,29,7,6,1.0,0.7
2026-04-12T2100,4082A,121.2548,38.8188,大连市,旅顺,细颗粒物(PM2.5),90,76,56,55,24,99,99,115,108,27,20,5,5,0.5,0.4
2026-04-12T2100,1789A,124.8085,46.0381,大庆市,大同区,颗粒物(PM10),51,51,56,16,22,83,83,113,107,6,14,2,4,0.3,0.4
2026-04-12T2100,1790A,125.1166,46.5255,大庆市,龙凤区,,25,20,50,12,21,77,77,93,91,8,17,4,4,0.1,0.2
2026-04-12T2100,1791A,124.8894,46.4007,大庆市,红岗区,,45,45,41,16,20,75,75,96,91,2,7,13,14,0.2,0.2
2026-04-12T2100,1792A,125.1391,46.578,大庆市,萨尔图区,,28,28,49,16,18,78,78,94,92,7,13,6,8,0.3,0.4
2026-04-12T2100,1793A,124.9026,46.6217,大庆市,让胡路区,,44,44,55,8,25,69,69,87,85,4,14,5,10,0.4,0.5
2026-04-12T2100,3481A,125.127,46.6277,大庆市,萨区政府监测点,,41,41,42,7,15,73,73,87,86,2,5,8,9,0.2,0.4
2026-04-12T2100,1723A,113.2926,40.0759,大同市,云冈宾馆,,31,31,67,15,29,84,84,98,96,16,22,5,9,0.2,0.4
2026-04-12T2100,1724A,113.3437,40.0921,大同市,大同大学,,34,34,75,8,16,90,90,104,102,15,25,5,6,0.4,0.6
2026-04-12T2100,1725A,113.2637,40.129,大同市,安家小村,,33,33,76,8,19,92,92,99,99,12,18,9,15,0.3,0.5
2026-04-12T2100,3282A,113.3399,40.0586,大同市,大同市卫生学校,,36,36,71,11,16,98,98,115,113,11,17,4,9,0.3,0.5
2026-04-12T2100,3565A,113.1371,40.1122,大同市,云冈站,,33,33,61,7,13,96,96,104,103,8,18,5,11,0.3,0.5
2026-04-12T2100,3566A,113.1186,40.2556,大同市,图书馆,,40,40,65,18,15,78,78,101,97,13,13,4,10,0.3,0.4
2026-04-12T2100,3567A,113.5931,40.0459,大同市,区一中,,29,29,68,7,19,90,90,113,108,9,13,6,11,0.4,0.4
2026-04-12T2100,4199A,113.2798248,40.09972476,大同市,魏都大道141号,,30,30,86,3,21,83,83,102,99,17,21,6,11,0.4,0.7
2026-04-12T2100,2269A,124.1068,50.4091,大兴安岭地区,科技局,,26,26,20,8,7,72,72,77,76,3,4,8,8,0.1,0.1
2026-04-12T2100,3663A,124.117,50.4279,大兴安岭地区,红旗社区,,24,NA,19,7,12,76,76,86,84,3,12,9,9,0.2,0.3
2026-04-12T2100,1600A,124.33,40.0625,丹东市,江湾东路,颗粒物(PM10),73,82,66,41,27,76,76,126,113,13,17,6,13,0.8,0.8
2026-04-12T2100,1601A,124.4242,40.1513,丹东市,临江后街,颗粒物(PM10),58,60,55,32,25,82,82,117,108,12,14,6,8,0.7,0.7
2026-04-12T2100,1602A,124.3935,40.1461,丹东市,元宝山,颗粒物(PM10),59,62,65,28,27,79,79,116,108,18,18,20,11,1.2,0.9
2026-04-12T2100,1603A,124.3634,40.1093,丹东市,民主桥,颗粒物(PM10),68,74,66,37,31,83,83,120,113,17,24,12,8,0.9,0.7
2026-04-12T2100,3541A,109.5726195,19.51688767,儋州市,第一中学子站,"颗粒物(PM10),细颗粒物(PM2.5)",58,60,54,39,36,105,105,122,120,5,5,8,10,0.5,0.4
2026-04-12T2100,3542A,109.5567,19.5187,儋州市,东坡学校子站,细颗粒物(PM2.5),64,56,51,42,36,106,106,122,119,4,3,8,7,0.6,0.6
2026-04-12T2100,2616A,98.5611,24.4273,德宏傣族景颇族自治州,德宏州监测站,细颗粒物(PM2.5),111,75,38,72,34,89,89,132,128,23,15,5,5,0.5,0.2
2026-04-12T2100,3677A,98.5887,24.4366,德宏傣族景颇族自治州,芒市人民政府综合楼,细颗粒物(PM2.5),102,106,62,62,34,89,89,118,115,16,13,9,8,0.6,0.5
2026-04-12T2100,1901A,104.424,31.1209,德阳市,东山公园,,32,31,21,22,16,63,63,86,84,25,11,3,4,0.5,0.4
2026-04-12T2100,1902A,104.3827,31.1318,德阳市,西小区,,43,43,32,25,17,61,61,76,76,16,13,3,4,0.5,0.4
2026-04-12T2100,1904A,104.3553,31.1091,德阳市,耐火材料厂,细颗粒物(PM2.5),58,56,33,39,18,64,64,87,85,21,15,2,3,0.4,0.3
2026-04-12T2100,4145A,104.4144,31.1495,德阳市,市林业局,,35,33,26,24,17,75,75,88,88,14,13,4,6,0.5,0.4
2026-04-12T2100,1622A,116.3034,37.4675,德州市,儿童乐园,颗粒物(PM10),83,95,88,41,45,121,121,159,155,24,17,7,10,1.0,0.7
2026-04-12T2100,1624A,116.2992,37.4449,德州市,监理站,颗粒物(PM10),90,105,84,37,42,114,114,160,154,37,23,8,11,0.7,0.6
2026-04-12T2100,3066A,116.2722,37.438,德州市,九衢泉纯净水厂,颗粒物(PM10),80,92,82,47,44,108,108,147,138,27,19,5,8,0.8,0.7
2026-04-12T2100,3371A,116.3693,37.44,德州市,开发区人民医院,颗粒物(PM10),79,90,87,37,47,101,101,159,153,46,20,10,13,0.7,0.6
2026-04-12T2100,3511A,116.5687,37.3331,德州市,陵城艺术中心,细颗粒物(PM2.5),100,107,78,60,49,101,101,152,147,31,20,10,12,1.1,0.9
2026-04-12T2100,4292A,116.352738,37.420875,德州市,新河东路,颗粒物(PM10),86,100,82,37,48,61,61,150,140,65,22,8,11,1.0,0.8
2026-04-12T2100,2621A,99.7054,27.8319,迪庆藏族自治州,迪庆州站,,37,21,18,9,8,116,116,118,118,11,10,9,9,0.5,0.4
2026-04-12T2100,3180A,99.7122,27.8129,迪庆藏族自治州,质量技术监督局,,39,18,18,16,8,124,124,126,126,11,10,6,6,0.6,0.4
2026-04-12T2100,4257A,104.6092,35.5962,定西市,将台街,颗粒物(PM10),63,68,64,28,24,104,104,123,120,12,21,8,7,0.1,0.1
2026-04-12T2100,4309A,104.6159,35.5701,定西市,正龙路62号,颗粒物(PM10),75,84,67,22,23,108,108,120,118,7,12,4,3,0.2,0.3
2026-04-12T2100,4071A,114.9883,38.5232,定州市,交通局,细颗粒物(PM2.5),125,178,135,87,62,136,136,143,143,25,34,9,8,0.7,0.6
2026-04-12T2100,4072A,115.0045,38.5136,定州市,第五中学,细颗粒物(PM2.5),125,166,142,87,59,132,132,140,140,26,32,5,5,0.5,0.5
2026-04-12T2100,1390A,113.7943,23.0132,东莞市,东城石井,,24,24,30,14,16,44,44,64,62,12,16,2,2,0.5,0.5
2026-04-12T2100,1391A,113.7384,22.9659,东莞市,南城西平,,22,22,25,9,13,46,46,60,57,8,8,3,3,0.5,0.5
2026-04-12T2100,3319A,113.7283,23.041,东莞市,万江金泰,,28,28,29,12,18,43,43,60,57,10,11,6,6,0.6,0.6
2026-04-12T2100,4129A,113.8666,23.1062,东莞市,裕兴路,,39,39,40,14,17,39,39,57,57,18,19,5,5,0.7,0.7
2026-04-12T2100,4130A,114.0076,22.9739,东莞市,教育路1号,,32,32,37,14,19,47,47,69,64,15,17,6,6,0.6,0.6
2026-04-12T2100,4131A,113.7981,22.8124,东莞市,长怡路1号,,30,30,35,11,13,39,39,56,52,17,14,5,5,0.7,0.7
2026-04-12T2100,1666A,118.6612,37.4313,东营市,市环保局,,41,41,49,14,27,100,100,155,150,24,21,9,12,0.4,0.5
2026-04-12T2100,3036A,118.6903,37.4337,东营市,开发区管委会,,37,37,55,11,27,104,104,166,161,23,25,8,14,0.5,0.8
2026-04-12T2100,3365A,118.5721,37.5654,东营市,垦利区民丰路,,37,36,43,12,22,117,117,177,171,27,27,5,6,0.5,0.7
2026-04-12T2100,3498A,118.5063,37.8606,东营市,河口城区,颗粒物(PM10),55,56,68,32,38,125,125,192,186,26,23,11,15,0.8,0.9
2026-04-12T2100,3646A,118.4979,37.4623,东营市,胜利站,,29,27,51,12,24,90,90,156,148,24,24,9,11,0.7,0.8
2026-04-12T2100,3734A,118.5753,37.4405,东营市,理想之城,,39,39,50,8,23,100,100,170,162,31,33,6,8,0.4,0.6
2026-04-12T2100,1591A,110.0024,39.8127,鄂尔多斯市,综合楼,颗粒物(PM10),96,114,130,52,26,114,114,120,120,27,20,7,8,0.4,0.3
2026-04-12T2100,1592A,109.9485,39.8259,鄂尔多斯市,巴音孟克林场办事处,颗粒物(PM10),90,105,109,23,18,110,110,120,120,23,16,5,7,0.5,0.4
2026-04-12T2100,1593A,109.7734,39.5987,鄂尔多斯市,康泽苑,颗粒物(PM10),93,110,105,28,19,106,106,126,125,18,15,7,9,0.3,0.3
2026-04-12T2100,1594A,109.8121,39.5987,鄂尔多斯市,华泰汽车城,颗粒物(PM10),88,102,99,32,19,104,104,116,116,17,18,8,9,0.4,0.4
2026-04-12T2100,1595A,109.9734,39.7884,鄂尔多斯市,奥林花园,颗粒物(PM10),83,95,118,20,16,110,110,115,115,24,27,4,6,0.5,0.4
2026-04-12T2100,2436A,114.894,30.3989,鄂州市,市政府,NA,NA,66,45,24,21,77,77,98,96,NA,17,10,10,0.7,0.5
2026-04-12T2100,2437A,114.8986,30.3714,鄂州市,赵家坝,颗粒物(PM10),52,52,42,31,23,85,85,113,111,13,8,8,9,0.7,0.6
2026-04-12T2100,3654A,114.8093,30.4091,鄂州市,精准医疗中心,,44,44,41,28,23,89,89,116,114,11,8,4,5,0.8,0.8
2026-04-12T2100,2454A,109.4978,30.2979,恩施土家族苗族自治州,湖北民院,,35,28,27,24,19,25,25,80,70,18,15,7,7,0.7,0.6
2026-04-12T2100,3549A,109.5061,30.3771,恩施土家族苗族自治州,龙凤新区,,27,27,21,15,15,14,14,68,56,8,7,7,6,0.5,0.5
2026-04-12T2100,2499A,108.3411,21.6159,防城港市,沙万,颗粒物(PM10),62,66,66,36,34,87,87,94,93,12,19,7,7,0.8,0.8
2026-04-12T2100,2500A,108.3515,21.7733,防城港市,防城档案局,NA,NA,58,55,40,35,80,80,100,96,NA,5,8,7,0.8,0.7
2026-04-12T2100,2501A,108.3506,21.6414,防城港市,大海花园,细颗粒物(PM2.5),62,45,55,41,39,97,97,106,104,17,20,8,8,0.6,0.6
2026-04-12T2100,1371A,113.1293,23.0065,佛山市,湾梁,,24,24,32,16,22,42,42,61,60,8,13,/,/,/,/
2026-04-12T2100,1372A,113.1082,23.0477,佛山市,华材职中,,27,27,32,15,23,42,42,63,63,11,15,4,4,0.3,0.4
2026-04-12T2100,1373A,113.1439,23.045,佛山市,南海气象局,,32,32,41,18,26,37,37,58,58,15,16,/,/,/,/
2026-04-12T2100,1374A,113.2879,22.8094,佛山市,顺德苏岗,,42,42,38,12,18,40,40,59,58,6,9,/,/,0.6,0.6
2026-04-12T2100,1376A,112.8384,22.8678,佛山市,高明孔堂,,31,31,31,13,19,51,51,65,63,5,6,/,/,/,/
2026-04-12T2100,1377A,112.8835,23.1584,佛山市,三水监测站,,34,34,33,20,24,30,30,52,50,25,22,4,4,0.3,0.4
2026-04-12T2100,1378A,112.8668,23.185,佛山市,三水云东海,颗粒物(PM10),54,55,52,20,23,38,38,58,58,18,20,/,/,/,/
2026-04-12T2100,3625A,113.2568,22.7629,佛山市,容桂街道办,,24,24,25,14,19,33,33,54,52,13,13,/,/,/,/
2026-04-12T2100,1282A,119.2681,26.0506,福州市,师大,颗粒物(PM10),53,53,45,27,25,44,44,89,79,23,18,4,4,0.3,0.4
2026-04-12T2100,1283A,119.2983,26.1028,福州市,五四北路,颗粒物(PM10),53,53,44,29,28,54,54,92,86,19,18,4,4,0.2,0.3
2026-04-12T2100,1284A,119.2648,26.0769,福州市,杨桥西路,,50,50,44,28,27,49,49,94,86,22,17,4,4,/,/
2026-04-12T2100,3048A,119.5799,26.0937,福州市,九龙,,35,35,30,22,19,26,26,89,74,15,13,5,4,0.2,0.4
2026-04-12T2100,3526A,119.5188,25.9666,福州市,吴航,,42,42,34,23,21,42,42,83,73,15,15,5,6,0.4,0.6
2026-04-12T2100,4104A,119.3106,26.0648,福州市,路通桥巷6号,,43,41,37,30,26,48,48,88,80,16,14,/,/,/,/
2026-04-12T2100,1755A,123.7974,41.8494,抚顺市,望花区,颗粒物(PM10),137,216,91,22,31,93,93,142,128,9,23,8,11,0.5,0.8
2026-04-12T2100,1756A,123.9161,41.8827,抚顺市,顺城区,颗粒物(PM10),129,193,71,14,23,83,83,131,113,13,25,8,11,0.4,0.6
2026-04-12T2100,1757A,124.0437,41.8615,抚顺市,东洲区,颗粒物(PM10),120,170,69,17,21,87,87,139,122,11,16,8,10,0.4,0.5
2026-04-12T2100,1758A,123.9246,41.8638,抚顺市,新抚区,颗粒物(PM10),140,224,82,17,28,93,93,143,127,11,23,7,9,0.5,0.7
2026-04-12T2100,1759A,124.0972,41.8961,抚顺市,大伙房水库,颗粒物(PM10),118,166,64,14,20,92,92,154,125,6,12,8,10,0.3,0.4
2026-04-12T2100,1760A,123.708,41.8386,抚顺市,沈抚新城,颗粒物(PM10),145,237,102,15,32,86,86,137,120,12,33,10,17,0.5,1.2
2026-04-12T2100,2377A,116.3544,27.9833,抚州市,市站,,32,32,26,22,19,63,63,89,83,14,9,4,3,1.1,1.1
2026-04-12T2100,2378A,116.3562,27.9631,抚州市,血防站,,35,31,26,24,19,56,56,81,75,13,8,6,7,0.9,0.8
2026-04-12T2100,2379A,116.3561,28.0007,抚州市,采茶剧团,,34,34,28,21,15,56,56,81,75,6,3,8,7,1.0,0.9
2026-04-12T2100,2380A,116.3854,27.9648,抚州市,医学分院,,37,37,30,12,15,55,55,81,75,11,7,6,8,1.4,1.3
2026-04-12T2100,2207A,121.6095,41.9978,阜新市,工业园区,颗粒物(PM10),85,98,82,10,23,85,85,105,103,8,14,11,19,0.3,0.4
2026-04-12T2100,2208A,121.6567,42.0188,阜新市,长青街,颗粒物(PM10),65,71,68,9,20,89,89,106,103,9,16,5,12,0.3,0.4
2026-04-12T2100,2209A,121.6672,42.07,阜新市,农业园区,颗粒物(PM10),78,89,85,7,21,85,85,106,101,9,14,3,9,0.3,0.5
2026-04-12T2100,2211A,121.6343,42.0455,阜新市,玉龙新城,颗粒物(PM10),81,93,75,8,21,83,83,105,102,9,16,4,11,0.3,0.4
2026-04-12T2100,2301A,115.8276,32.8929,阜阳市,市监测站,颗粒物(PM10),52,52,61,27,37,67,67,92,83,17,17,5,6,0.4,0.4
2026-04-12T2100,2303A,115.8551,32.8606,阜阳市,开发区,颗粒物(PM10),62,66,70,26,37,65,65,90,84,15,15,5,6,0.5,0.6
2026-04-12T2100,2875A,115.783962,32.889217,阜阳市,阜阳职业技术学院,颗粒物(PM10),53,54,59,29,34,72,72,97,89,12,11,7,8,0.6,0.6
2026-04-12T2100,3468A,115.79,32.8614,阜阳市,市规划展馆,,46,46,64,30,43,73,73,97,90,14,13,7,8,0.6,0.7
2026-04-12T2100,3469A,115.835101,32.918568,阜阳市,枣园社区,,46,46,63,31,43,66,66,95,86,13,15,6,7,0.5,0.5
2026-04-12T2100,2669A,102.9097,34.9841,甘南藏族自治州,州政府,,32,32,52,14,23,73,73,87,82,10,12,2,2,0.3,0.3
2026-04-12T2100,3380A,102.8915,34.9618,甘南藏族自治州,甘肃民族师范学院,,32,24,68,7,22,102,102,110,107,2,13,1,3,0.4,0.3
2026-04-12T2100,2570A,101.96,30.048,甘孜藏族自治州,水桥子,,21,6,9,6,4,65,65,86,82,13,8,6,6,0.2,0.2
2026-04-12T2100,3065A,101.9534,29.9976,甘孜藏族自治州,州环保局,,26,10,11,9,4,82,82,92,90,14,12,4,4,0.3,0.2
2026-04-12T2100,2363A,114.9368,25.8663,赣州市,地委,,30,28,35,21,23,75,75,88,84,8,9,1,2,0.9,0.9
2026-04-12T2100,2364A,114.946,25.8483,赣州市,气象台,,34,34,38,21,24,78,78,91,85,16,11,6,6,0.8,0.7
2026-04-12T2100,2365A,114.932,25.8332,赣州市,市图书馆,,43,31,33,30,25,77,77,89,88,18,10,5,4,0.8,0.8
2026-04-12T2100,2366A,114.8905,25.8472,赣州市,华坚鞋城,,30,30,35,21,24,70,70,90,81,18,12,5,6,0.9,0.8
2026-04-12T2100,3109A,115.0094,25.8614,赣州市,赣县区卫计委,NA,NA,NA,28,16,21,NA,NA,98,94,7,8,3,3,0.7,0.6
2026-04-12T2100,2684A,106.2753,36.0057,固原市,监测站,,38,32,54,19,20,120,120,127,127,8,18,5,5,0.3,0.4
2026-04-12T2100,2685A,106.2384,36.0189,固原市,新区,,37,16,61,10,20,117,117,124,124,10,18,5,5,0.4,0.4
2026-04-12T2100,2544A,106.6307,30.4577,广安市,市委,,46,35,24,32,18,86,86,98,98,14,8,7,6,0.4,0.4
2026-04-12T2100,2545A,106.6266,30.4662,广安市,友谊中学,,42,33,22,29,14,78,78,95,95,17,8,9,8,0.5,0.4
2026-04-12T2100,2547A,106.6386,30.4551,广安市,广电花园,,45,38,31,31,19,70,70,87,87,21,12,6,5,0.5,0.4
2026-04-12T2100,2902A,106.6347,30.4868,广安市,北辰小学,,46,37,26,32,17,78,78,98,97,17,8,14,10,0.6,0.4
2026-04-12T2100,2524A,105.8211,32.4444,广元市,老城,,44,44,26,3,8,55,55,108,102,31,16,1,2,0.6,0.6
2026-04-12T2100,2526A,105.8629,32.429,广元市,监测站,,46,46,30,3,8,67,67,106,103,18,14,2,3,0.4,0.5
2026-04-12T2100,3617A,105.8047,32.4167,广元市,经开区,,25,15,26,8,13,80,80,105,103,11,16,2,5,0.3,0.4
2026-04-12T2100,1345A,113.2346,23.1423,广州市,广雅中学,,35,35,33,17,18,23,23,40,39,22,17,1,1,0.6,0.6
2026-04-12T2100,1346A,113.2611,23.105,广州市,市五中,,34,34,31,22,22,27,27,50,48,25,19,2,2,/,/
2026-04-12T2100,1348A,113.3477,23.0916,广州市,广东商学院,,30,30,30,15,17,28,28,40,40,19,18,4,4,0.1,0.3
2026-04-12T2100,1349A,113.4332,23.105,广州市,市八十六中,,21,21,25,10,13,23,23,37,36,27,26,6,6,/,/
2026-04-12T2100,1350A,113.3506,22.9488,广州市,番禺中学,,32,32,33,14,17,32,32,46,46,17,17,4,4,0.5,0.5
2026-04-12T2100,1351A,113.2147,23.3918,广州市,花都师范,,40,40,36,19,20,32,32,44,43,23,24,6,6,0.7,0.7
2026-04-12T2100,1352A,113.2599,23.1329,广州市,市监测站,,26,26,25,13,10,28,28,44,42,14,12,2,2,/,/
2026-04-12T2100,1353A,113.5618,23.3119,广州市,九龙镇镇龙,,32,32,38,15,20,28,28,40,40,19,22,6,5,0.4,0.4
2026-04-12T2100,1354A,113.2764,23.1544,广州市,麓湖,,30,30,31,15,16,31,31,46,45,18,14,4,4,0.5,0.5
2026-04-12T2100,2846A,113.3209,23.1323,广州市,体育西,,35,35,35,14,16,23,23,38,37,25,19,5,4,0.5,0.5
2026-04-12T2100,3298A,113.5718,23.5493,广州市,从化街口,,31,31,38,16,21,43,43,51,51,11,13,7,7,0.6,0.6
2026-04-12T2100,3299A,113.3463,23.369,广州市,白云竹料,,44,44,39,19,20,27,27,42,39,24,21,3,3,0.6,0.6
2026-04-12T2100,3300A,113.2981,23.2365,广州市,白云嘉禾,,32,32,33,13,17,21,21,39,36,31,25,10,10,/,/
2026-04-12T2100,3301A,113.4256,23.1716,广州市,黄埔科学城,,29,29,34,12,16,23,23,35,35,28,27,6,6,0.5,0.5
2026-04-12T2100,3302A,113.3942,23.0485,广州市,番禺大学城,,22,22,26,8,11,40,40,50,50,17,16,4,4,0.5,0.5
2026-04-12T2100,3303A,113.4923,22.8169,广州市,南沙黄阁,,25,25,30,10,13,43,43,52,51,9,8,5,6,/,/
2026-04-12T2100,3304A,113.534,22.7893,广州市,南沙街,,26,26,29,10,12,37,37,48,46,15,12,5,5,0.3,0.3
2026-04-12T2100,3443A,113.2905,23.5541,广州市,花都梯面,,31,31,33,15,18,34,34,47,45,17,15,8,7,/,/
2026-04-12T2100,3445A,113.786,23.7479,广州市,从化良口,,30,30,32,18,22,56,56,75,73,19,11,4,4,/,/
2026-04-12T2100,3446A,113.805,23.2614,广州市,增城荔城,,33,33,43,16,22,38,38,58,58,16,21,5,5,0.4,0.5
2026-04-12T2100,2506A,109.604387,23.066791,贵港市,江南子站,细颗粒物(PM2.5),78,68,77,49,45,85,85,105,105,10,18,10,13,0.8,0.9
2026-04-12T2100,2508A,109.5669,23.1065,贵港市,荷城子站,细颗粒物(PM2.5),84,70,65,52,44,82,82,100,100,15,18,10,14,1.0,1
2026-04-12T2100,3405A,109.5886,23.1172,贵港市,新世纪学校,细颗粒物(PM2.5),92,75,66,56,45,76,76,99,98,21,19,/,/,0.8,0.8
2026-04-12T2100,4260A,109.5933,23.095,贵港市,中山路155-3号,颗粒物(PM10),86,100,81,44,49,80,80,104,104,16,17,/,/,0.9,0.9
2026-04-12T2100,1439A,106.6863,26.6035,贵阳市,马鞍山,颗粒物(PM10),51,51,29,34,23,70,70,96,95,18,10,4,3,/,/
2026-04-12T2100,1441A,106.6241,26.6266,贵阳市,鉴湖路,颗粒物(PM10),56,58,41,32,22,84,84,106,106,9,9,6,6,0.9,0.7
2026-04-12T2100,1442A,106.7468,26.6344,贵阳市,燕子冲,颗粒物(PM10),60,63,37,31,21,73,73,92,92,11,9,7,5,1.2,1.1
2026-04-12T2100,1443A,106.6556,26.4362,贵阳市,碧云窝,颗粒物(PM10),56,58,51,19,25,79,79,116,113,13,8,7,7,/,/
2026-04-12T2100,1445A,106.6963,26.6063,贵阳市,红边门,颗粒物(PM10),60,63,39,33,25,54,54,99,96,13,8,2,6,/,/
2026-04-12T2100,1446A,106.7162383,26.56964667,贵阳市,新华路,颗粒物(PM10),55,56,40,34,25,75,75,99,98,10,9,11,17,0.4,0.3
2026-04-12T2100,1447A,106.6742,26.542,贵阳市,太慈桥,颗粒物(PM10),55,56,34,28,24,74,74,97,97,11,9,3,3,/,/
2026-04-12T2100,4230A,106.688212,26.56952,贵阳市,花果园大街66号,,48,44,25,33,23,78,78,100,100,11,8,4,2,/,/
2026-04-12T2100,4231A,106.687268,26.516892,贵阳市,漓江路57号,,39,39,27,26,25,71,71,102,101,13,10,6,6,0.8,0.7
2026-04-12T2100,1864A,110.3091,25.2705,桂林市,龙隐路小学,,18,18,33,11,20,48,48,58,49,10,11,3,3,0.6,0.8
2026-04-12T2100,1865A,110.2849361,25.22909545,桂林市,八中,,24,24,34,11,16,42,42,57,46,13,14,3,4,0.7,0.7
2026-04-12T2100,3531A,110.296,25.1254,桂林市,旅游学院,,29,29,38,15,28,46,46,51,48,10,13,6,7,0.8,0.7
2026-04-12T2100,4222A,110.1835,25.2444,桂林市,环湖路276号,,20,12,24,11,24,61,61,63,60,7,10,3,13,0.5,0.5
2026-04-12T2100,4301A,110.2803,25.2773,桂林市,信义路13号,,29,29,30,12,21,50,50,68,55,13,13,4,4,0.8,0.8
2026-04-12T2100,2674A,100.2262,34.4854,果洛藏族自治州,玛沁县大武镇,,36,36,22,17,11,108,108,114,108,1,3,18,20,0.4,0.4
2026-04-12T2100,1130A,126.5557,45.8109,哈尔滨市,松北商大,颗粒物(PM10),78,89,39,32,22,46,46,81,62,34,21,7,8,0.4,0.4
2026-04-12T2100,1132A,126.6162,45.719,哈尔滨市,南岗学府路,颗粒物(PM10),63,68,55,32,22,46,46,85,68,32,27,5,5,0.8,0.7
2026-04-12T2100,1133A,126.6894,45.7733,哈尔滨市,太平宏伟公园,颗粒物(PM10),68,75,54,38,22,45,45,80,62,39,32,6,7,0.5,0.4
2026-04-12T2100,1134A,126.6361,45.7672,哈尔滨市,道外承德广场,颗粒物(PM10),81,93,67,37,20,41,41,77,58,44,33,9,9,0.5,0.6
2026-04-12T2100,1136A,126.644,45.7261,哈尔滨市,动力和平路,颗粒物(PM10),60,64,52,37,19,49,49,79,65,35,27,6,5,0.8,0.7
2026-04-12T2100,1137A,126.5933,45.7479,哈尔滨市,道里建国路,颗粒物(PM10),61,65,51,40,22,52,52,84,68,37,38,3,5,0,0.7
2026-04-12T2100,1138A,126.6127,45.6119,哈尔滨市,平房东轻厂,颗粒物(PM10),78,88,36,47,14,12,12,64,56,123,80,6,5,0.8,0.6
2026-04-12T2100,1139A,126.5875,45.9827,哈尔滨市,呼兰师专,,41,41,40,23,18,72,72,69,65,16,28,9,10,0.2,0.2
2026-04-12T2100,1140A,126.6299,45.6799,哈尔滨市,省农科院,颗粒物(PM10),77,87,85,40,25,26,26,72,54,57,35,10,8,0.6,0.5
2026-04-12T2100,4282A,126.6769,45.7379,哈尔滨市,华山路1号,NA,NA,NA,55,NA,18,NA,NA,88,73,NA,25,NA,5,NA,0.4
2026-04-12T2100,4283A,126.9717,45.5356,哈尔滨市,解放大街52号,颗粒物(PM10),91,107,47,47,11,44,44,90,73,34,19,8,8,0.8,0.6
2026-04-12T2100,2688A,93.5124,42.8176,哈密市,地区监测站,,31,18,20,18,8,99,99,101,101,6,6,11,11,0.1,0.2
2026-04-12T2100,2689A,93.5014,42.8312,哈密市,哈密师范学校,,30,29,26,21,8,93,93,101,101,9,7,8,8,0.1,0.1
2026-04-12T2100,2671A,100.9016,36.9464,海北藏族自治州,海晏县西海镇,,34,28,42,22,18,106,106,113,112,2,2,10,9,0.9,0.4
2026-04-12T2100,3867A,102.074,36.5056,海东市,平安区公安局北苑,颗粒物(PM10),59,62,62,32,23,79,79,114,109,22,13,11,14,0.5,0.5
2026-04-12T2100,4163A,102.0984,36.5119,海东市,滨河路,颗粒物(PM10),53,54,62,36,24,73,73,94,87,26,32,9,12,0.6,0.6
2026-04-12T2100,1410A,110.3189,20.0596,海口市,海南大学,,40,40,44,21,27,72,72,101,93,7,6,5,5,0.4,0.4
2026-04-12T2100,1411A,110.2827,20.0051,海口市,秀英海南医院,,32,32,36,20,27,59,59,94,86,12,7,8,8,0.3,0.4
2026-04-12T2100,1412A,110.3391,19.9979,海口市,海南师范大学,,42,42,43,22,27,64,64,102,92,8,7,6,6,0.4,0.4
2026-04-12T2100,1413A,110.3303,20.0359,海口市,龙华路环保局宿舍,NA,NA,42,40,21,27,NA,NA,102,97,NA,8,/,/,NA,0.5
2026-04-12T2100,3539A,110.5111,19.9737,海口市,桂林洋子站,,35,35,38,20,23,51,51,86,72,10,8,/,/,/,/
2026-04-12T2100,4134A,110.1952,20.0451,海口市,长滨二路9号,,40,40,49,24,32,75,75,128,118,7,7,/,/,/,/
2026-04-12T2100,2673A,100.6158,36.2985,海南藏族自治州,共和县恰卜恰镇,,46,46,56,24,23,111,111,119,118,4,2,7,11,0.5,0.3
2026-04-12T2100,2676A,97.373,37.376,海西蒙古族藏族自治州,德令哈市,,39,39,25,16,12,116,116,135,124,25,8,13,14,0.6,0.4
2026-04-12T2100,1049A,114.492,36.5712,邯郸市,矿院,颗粒物(PM10),57,59,59,37,35,110,110,141,137,14,10,6,5,0.4,0.4
2026-04-12T2100,1050A,114.4839,36.6136,邯郸市,丛台公园,颗粒物(PM10),57,59,55,30,39,117,117,138,137,12,11,8,9,0.4,0.4
2026-04-12T2100,3458A,114.7893,36.5592,邯郸市,香泉濮院小区,颗粒物(PM10),60,64,77,31,50,105,105,143,136,18,13,1,2,0.3,0.5
2026-04-12T2100,3580A,114.1998,36.4439,邯郸市,峰峰矿区临水派出所,颗粒物(PM10),60,64,57,35,35,116,116,149,145,12,13,8,12,0.4,0.6
2026-04-12T2100,4068A,114.5209,36.7697,邯郸市,建安街268号,细颗粒物(PM2.5),64,63,62,42,38,109,109,142,138,17,12,3,2,0.5,0.4
2026-04-12T2100,4069A,114.5488,36.6177,邯郸市,丛台东路558号,颗粒物(PM10),65,71,69,37,47,102,102,142,138,19,13,1,3,0.4,0.5
2026-04-12T2100,2635A,107.0155,33.0707,汉中市,市监测站,,24,21,37,8,21,75,75,97,96,4,8,4,5,0.4,0.4
2026-04-12T2100,2636A,107.0083,33.114,汉中市,鑫源开发区,,23,10,38,7,23,71,71,99,98,10,16,4,6,0.2,0.4
2026-04-12T2100,2637A,107.0072,33.0323,汉中市,南郑大河坎水厂,,22,19,35,8,19,69,69,93,90,12,12,3,4,0.4,0.5
2026-04-12T2100,1223A,120.2073,30.2111,杭州市,滨江,颗粒物(PM10),65,70,40,40,22,48,48,88,55,28,21,6,7,0.8,0.7
2026-04-12T2100,1224A,120.0625,30.2737,杭州市,西溪,"颗粒物(PM10),细颗粒物(PM2.5)",52,52,29,36,17,49,49,78,62,25,14,8,8,0.8,0.8
2026-04-12T2100,1226A,120.3417,30.315,杭州市,下沙,颗粒物(PM10),85,98,42,47,19,50,50,85,65,20,15,6,7,0.7,0.7
2026-04-12T2100,1227A,120.1252,30.2465,杭州市,卧龙桥,颗粒物(PM10),62,66,34,39,18,44,44,84,57,35,24,7,7,0.3,0.3
2026-04-12T2100,1228A,120.1902,30.2691,杭州市,浙江农大,细颗粒物(PM2.5),58,51,30,39,20,44,44,85,53,32,26,7,7,0.2,0.2
2026-04-12T2100,1230A,120.1195,30.3121,杭州市,和睦小学,颗粒物(PM10),75,85,45,42,20,44,44,90,61,31,19,6,6,0.6,0.5
2026-04-12T2100,1231A,120.3076,30.4146,杭州市,临平镇,细颗粒物(PM2.5),76,74,33,48,17,67,67,100,78,21,18,6,6,0.4,0.5
2026-04-12T2100,1232A,120.2753,30.1839,杭州市,城厢镇,细颗粒物(PM2.5),58,58,33,39,21,48,48,82,56,30,25,5,5,0.6,0.5
2026-04-12T2100,1233A,120.0883,30.1808,杭州市,云栖,,35,34,30,24,17,13,13,78,39,24,20,6,6,0.7,0.6
2026-04-12T2100,3557A,119.9463,30.0496,杭州市,镇二中,细颗粒物(PM2.5),56,51,26,38,20,50,50,85,52,21,16,4,4,0.7,0.6
2026-04-12T2100,3558A,119.7184,30.2367,杭州市,市府大楼,,39,28,27,27,20,53,53,80,63,15,12,6,6,0.5,0.5
2026-04-12T2100,3656A,120.1554,30.2863,杭州市,消防大队,颗粒物(PM10),69,76,40,41,21,48,48,86,59,31,24,4,4,0.7,0.6
2026-04-12T2100,1270A,117.1957,31.7845,合肥市,明珠广场,,31,31,32,15,15,73,73,75,75,20,14,6,6,0.6,0.6
2026-04-12T2100,1271A,117.307,31.8765,合肥市,三里街,,29,29,35,13,17,67,67,70,70,23,20,6,6,0.6,0.6
2026-04-12T2100,1272A,117.2587,31.8703,合肥市,琥珀山庄,,24,22,31,13,16,75,75,77,77,22,20,6,6,0.6,0.6
2026-04-12T2100,1275A,117.2593,31.9376,合肥市,庐阳区,,27,27,37,11,16,79,79,83,83,18,18,6,5,0.8,0.8
2026-04-12T2100,1276A,117.345251,31.861615,合肥市,瑶海区,,31,31,37,13,15,73,73,78,77,21,17,6,7,0.8,0.8
2026-04-12T2100,1277A,117.3033,31.7967,合肥市,包河区,,29,29,36,12,13,62,62,58,56,32,32,8,8,0.8,0.8
2026-04-12T2100,1278A,117.278,31.7392,合肥市,滨湖新区,,29,29,33,12,13,75,75,74,74,14,12,5,6,0.6,0.6
2026-04-12T2100,1279A,117.1324,31.8395,合肥市,高新区,,31,31,40,13,17,77,77,76,76,12,12,5,5,0.6,0.6
2026-04-12T2100,3464A,117.3802,31.9148,合肥市,高教基地,,25,24,34,11,13,80,80,81,81,13,13,7,8,0.5,0.6
2026-04-12T2100,4098A,117.2518,31.8404,合肥市,中国科学技术大学,,27,24,30,14,14,84,84,82,82,13,11,5,5,0.6,0.7
2026-04-12T2100,3614A,79.9241,37.0878,和田地区,地区环保局,颗粒物(PM10),500,649,299,296,92,112,112,120,120,1,4,3,3,0.3,0.3
2026-04-12T2100,3615A,79.9132,37.1137,和田地区,市环保局,颗粒物(PM10),500,754,259,198,69,99,99,106,106,4,10,3,6,0.3,0.3
2026-04-12T2100,2517A,108.0496,24.6957,河池市,市环保站,细颗粒物(PM2.5),105,93,68,65,53,84,84,104,104,8,9,5,8,1.0,0.9
2026-04-12T2100,4302A,108.0901,24.6945,河池市,上任中路54号,细颗粒物(PM2.5),96,83,70,58,49,101,101,112,112,8,13,7,9,0.9,0.9
2026-04-12T2100,1697A,114.6962,23.7538,河源市,东埔,,31,31,32,18,21,49,49,62,62,12,10,5,6,0.5,0.5
2026-04-12T2100,1698A,114.6895,23.7232,河源市,老城,,48,48,35,21,22,41,41,58,56,16,11,6,6,0.6,0.5
2026-04-12T2100,3374A,115.5562,35.089,菏泽市,定陶老年大学,颗粒物(PM10),55,56,65,21,36,104,104,133,131,19,20,5,6,0.3,0.4
2026-04-12T2100,4114A,115.4239,35.2593,菏泽市,黄河路600号,颗粒物(PM10),58,61,70,18,31,114,114,134,131,14,13,4,4,0.4,0.4
2026-04-12T2100,4115A,115.5025,35.2727,菏泽市,菏泽市人社局,,48,48,62,18,34,103,103,130,125,15,13,8,8,0.3,0.4
2026-04-12T2100,4184A,115.479691,35.244011,菏泽市,永昌路1号,颗粒物(PM10),53,53,68,17,33,119,119,151,144,17,17,4,4,0.2,0.4
2026-04-12T2100,4193A,115.471542,35.280012,菏泽市,长城路999号,颗粒物(PM10),55,57,64,18,32,121,121,146,140,14,13,6,6,0.3,0.3
2026-04-12T2100,2514A,111.5264,24.4178,贺州市,环保小区,颗粒物(PM10),53,54,52,36,35,46,46,72,69,18,15,7,7,0.7,0.5
2026-04-12T2100,2515A,111.561,24.4074,贺州市,政协大楼,NA,NA,NA,46,NA,40,NA,NA,87,NA,NA,12,NA,9,NA,0.7
2026-04-12T2100,3534A,111.4744,24.455,贺州市,西湾,颗粒物(PM10),71,79,64,29,35,41,41,77,66,15,14,9,8,0.8,0.6
2026-04-12T2100,2385A,114.17,35.9019,鹤壁市,市监测站,细颗粒物(PM2.5),82,78,67,51,48,112,112,136,135,15,15,6,7,0.6,0.7
2026-04-12T2100,2386A,114.2953,35.7512,鹤壁市,市交警支队,细颗粒物(PM2.5),60,57,79,40,50,90,90,130,124,23,21,8,8,0.6,0.7
2026-04-12T2100,2387A,114.2877,35.7302,鹤壁市,迎宾馆,颗粒物(PM10),56,58,89,30,51,89,89,133,128,18,16,6,5,0.5,0.6
2026-04-12T2100,3474A,114.2616,35.6824,鹤壁市,大新区,颗粒物(PM10),53,54,75,35,56,70,70,132,120,37,29,7,8,0.7,0.8
2026-04-12T2100,3596A,114.1573,35.9607,鹤壁市,南山宾馆,细颗粒物(PM2.5),88,96,97,54,47,114,114,134,132,14,14,7,11,0.6,0.6
2026-04-12T2100,2244A,130.2537,47.3416,鹤岗市,哈啤分公司,,25,25,24,8,15,79,79,85,83,8,9,9,9,0.2,0.2
2026-04-12T2100,2245A,130.2683,47.3087,鹤岗市,斯达机电,,25,21,32,7,19,80,80,82,81,6,7,10,11,0.3,0.3
2026-04-12T2100,2246A,130.3114,47.3388,鹤岗市,东山纸板厂,,37,37,34,8,19,84,84,91,89,7,9,7,8,0.4,0.4
2026-04-12T2100,2263A,127.4832,50.2524,黑河市,交通局,,22,13,21,12,14,70,70,79,76,2,9,5,6,0.4,0.3
2026-04-12T2100,2264A,127.5146,50.2339,黑河市,环保局,,23,17,18,11,13,71,71,80,71,10,11,8,7,0.3,0.2
2026-04-12T2100,1074A,115.6839,37.754,衡水市,电机北厂,颗粒物(PM10),100,119,81,58,40,103,103,155,148,33,20,5,5,0.4,0.5
2026-04-12T2100,1075A,115.6303,37.7318,衡水市,市监测站,颗粒物(PM10),80,91,77,44,36,117,117,151,147,24,19,6,6,0.6,0.5
2026-04-12T2100,3188A,115.6684,37.7216,衡水市,市城管局,细颗粒物(PM2.5),90,94,74,55,40,113,113,160,153,31,19,4,6,0.5,0.4
2026-04-12T2100,3459A,115.599,37.5491,衡水市,地表水厂,颗粒物(PM10),86,100,75,40,36,60,60,151,136,63,23,5,5,0.4,0.4
2026-04-12T2100,2457A,112.6209,26.9268,衡阳市,衡阳化工总厂,NA,NA,NA,37,31,16,46,46,57,54,12,6,40,7,0.9,0.7
2026-04-12T2100,2458A,112.621,26.8957,衡阳市,珠晖区环保局,,38,37,24,26,16,40,40,53,51,24,11,24,11,1.0,0.9
2026-04-12T2100,2459A,112.628,26.8654,衡阳市,市委党校,,40,30,21,28,18,51,51,58,57,9,4,24,11,1.0,0.9
2026-04-12T2100,2460A,112.6007,26.8977,衡阳市,市监测站,细颗粒物(PM2.5),52,49,27,36,18,46,46,55,54,17,11,36,9,1.0,0.8
2026-04-12T2100,2461A,112.5658,26.9013,衡阳市,真空机电公司,,45,45,27,29,22,49,49,56,55,17,10,34,11,1.2,1
2026-04-12T2100,3399A,112.6703,26.8817,衡阳市,师范学院,,35,35,25,23,18,54,54,60,59,13,8,18,10,0.8,0.8
2026-04-12T2100,3038A,103.3757,23.3679,红河哈尼族彝族自治州,州图书馆,,45,45,45,23,28,125,125,144,137,6,7,5,9,0.2,0.2
2026-04-12T2100,4154A,103.401,23.3561,红河哈尼族彝族自治州,蒙自市朝阳路,,39,31,34,26,27,123,123,146,137,8,9,5,8,0.4,0.4
2026-04-12T2100,1090A,111.6506,40.7517,呼和浩特市,呼市一监,,46,39,56,32,21,87,87,107,104,16,14,6,8,0.4,0.4
2026-04-12T2100,1094A,111.7516,40.8369,呼和浩特市,如意水处理厂,,42,42,48,22,16,69,69,106,98,33,17,9,8,0.3,0.2
2026-04-12T2100,1095A,111.727798,40.806187,呼和浩特市,二十九中,NA,NA,94,50,NA,17,73,73,103,98,25,10,13,10,0.7,0.4
2026-04-12T2100,1097A,111.717,40.7617,呼和浩特市,化肥厂生活区,颗粒物(PM10),68,75,58,42,30,89,89,110,106,19,14,8,9,0.5,0.3
2026-04-12T2100,3699A,111.6519,40.8389,呼和浩特市,海东办,,31,31,47,13,12,75,75,103,99,22,10,7,5,0.3,0.2
2026-04-12T2100,4275A,111.591512,40.827312,呼和浩特市,成吉思汗西街8号,,31,31,54,13,12,73,73,101,96,24,15,7,7,0.4,0.3
2026-04-12T2100,4276A,111.6597,40.8077,呼和浩特市,公园东路75号,细颗粒物(PM2.5),62,56,54,41,16,81,81,99,97,19,12,6,5,0.4,0.3
2026-04-12T2100,4277A,111.5427,40.7846,呼和浩特市,金海路35号,,38,38,52,19,15,79,79,107,103,23,15,6,6,0.3,0.3
2026-04-12T2100,3061A,119.7511,49.1576,呼伦贝尔市,国华电力东,,23,23,20,12,11,70,70,77,76,6,8,5,5,0.2,0.3
2026-04-12T2100,4279A,119.7569,49.2222,呼伦贝尔市,伊敏大街东7号,,34,34,29,13,11,76,76,87,86,6,11,5,5,0.4,0.4
2026-04-12T2100,1250A,120.075,30.867,湖州市,城西水厂,,39,39,28,27,17,86,86,102,89,19,15,4,4,0.4,0.4
2026-04-12T2100,2873A,120.083,30.8929,湖州市,仁皇山新区,,39,39,27,26,16,78,78,100,88,16,13,4,4,0.5,0.5
2026-04-12T2100,2907A,120.1846,30.8592,湖州市,吴兴区站,,46,45,33,32,16,67,67,98,84,21,15,5,5,0.3,0.3
2026-04-12T2100,3562A,120.4146,30.8538,湖州市,南浔区站,细颗粒物(PM2.5),58,51,34,39,19,61,61,96,79,19,11,4,4,0.6,0.5
2026-04-12T2100,1607A,120.904878,40.721091,葫芦岛市,龙港区,细颗粒物(PM2.5),149,222,98,113,53,44,44,120,97,83,27,123,42,1.2,0.6
2026-04-12T2100,1608A,120.8382,40.7521,葫芦岛市,化工街,细颗粒物(PM2.5),195,259,114,146,62,10,10,96,74,118,47,17,16,1.2,0.8
2026-04-12T2100,1609A,120.8339,40.7078,葫芦岛市,新区,细颗粒物(PM2.5),231,222,91,181,66,29,29,117,98,98,31,99,23,1.9,0.9
2026-04-12T2100,1610A,120.8697,40.7679,葫芦岛市,东城区,细颗粒物(PM2.5),182,210,92,137,61,18,18,103,76,103,48,13,14,1.4,1
2026-04-12T2100,2483A,109.9297,27.5383,怀化市,河西地税局,,36,36,24,16,13,45,45,62,57,12,6,5,4,/,/
2026-04-12T2100,2484A,109.9783,27.5342,怀化市,市四医院,,42,42,30,20,13,48,48,63,58,9,6,5,3,0.4,0.4
2026-04-12T2100,2485A,109.9971,27.5579,怀化市,监测楼,NA,NA,NA,NA,NA,NA,NA,NA,NA,NA,NA,NA,NA,NA,NA,NA
2026-04-12T2100,1210A,119.0566,33.5991,淮安市,钵池山,,31,29,43,18,30,98,98,97,96,10,14,7,8,0.5,0.6
2026-04-12T2100,1211A,119.0083,33.578,淮安市,北京南路,,32,29,39,22,34,89,89,90,89,9,12,7,8,0.4,0.5
2026-04-12T2100,1212A,118.9938,33.6083,淮安市,市监测站,,33,NA,35,22,34,105,105,104,103,6,11,5,6,0.6,0.7
2026-04-12T2100,1213A,119.135,33.5038,淮安市,楚州区监测站,,29,24,41,18,33,90,90,94,92,10,13,5,6,0.2,0.3
2026-04-12T2100,3426A,118.8757,33.2897,淮安市,新华书店,,25,18,49,7,20,77,77,94,92,14,13,6,7,0.4,0.6
2026-04-12T2100,4092A,119.119691,33.550006,淮安市,枚皋中路89号,,31,25,42,15,31,99,99,95,95,9,12,10,11,0.6,0.7
2026-04-12T2100,4206A,119.028838,33.631911,淮安市,承德北路606号,,30,27,51,19,30,96,96,95,95,8,13,7,8,0.2,0.3
2026-04-12T2100,2282A,116.8005,33.9749,淮北市,监测站,,35,35,49,19,30,89,89,116,110,12,13,6,7,0.4,0.4
2026-04-12T2100,2283A,116.8094,33.9008,淮北市,烈山区政府,,43,43,53,15,28,89,89,111,106,10,11,7,6,0.4,0.4
2026-04-12T2100,4017A,116.7926,33.9534,淮北市,市博物馆,NA,NA,NA,44,18,31,86,86,115,107,12,10,4,5,0.5,0.5
2026-04-12T2100,4100A,116.8322,33.9884,淮北市,杜集区第一实验学校,,36,36,58,15,26,79,79,105,100,10,12,6,7,0.3,0.4
2026-04-12T2100,2277A,116.8304,32.7726,淮南市,潘集区政府,,26,26,49,16,34,62,62,80,76,19,22,6,7,0.4,0.5
2026-04-12T2100,2279A,116.8569,32.5949,淮南市,谢家集区政府,,24,17,46,10,38,75,75,79,77,11,17,7,9,0.4,0.5
2026-04-12T2100,2280A,116.8279,32.6333,淮南市,八公山区政府,,23,18,55,15,41,72,72,76,76,10,14,8,10,0.5,0.6
2026-04-12T2100,2894A,117.0561,32.6536,淮南市,经济技术开发区消防队,,23,9,47,9,33,72,72,78,77,14,19,6,7,0.4,0.5
2026-04-12T2100,3329A,117.011,32.5891,淮南市,山南新区,,24,11,42,9,34,76,76,83,80,12,16,6,8,0.5,0.6
2026-04-12T2100,4209A,117.003137,32.644456,淮南市,国庆中路369号,,25,25,61,8,31,70,70,74,74,12,18,4,6,0.1,0.3
2026-04-12T2100,2446A,114.9021,30.474,黄冈市,职工中心,,49,49,40,22,23,103,103,120,119,9,8,7,7,0.7,0.5
2026-04-12T2100,2929A,114.8858,30.4519,黄冈市,红卫路,,47,47,36,32,23,92,92,121,118,12,6,5,5,0.6,0.3
2026-04-12T2100,3398A,114.9134,30.4446,黄冈市,市林业局,颗粒物(PM10),56,58,43,20,26,99,99,115,114,7,4,4,4,0.6,0.4
2026-04-12T2100,2672A,102.02,35.5101,黄南藏族自治州,同仁县隆务镇,,39,39,53,22,22,102,102,129,123,3,2,10,10,0.3,0.3
2026-04-12T2100,2295A,118.2905,29.6965,黄山市,延安路89号,,16,16,14,9,7,37,37,64,55,9,8,4,4,0.7,0.7
2026-04-12T2100,2297A,118.1369,30.2755,黄山市,黄山区政府5号楼,,20,19,12,14,4,56,56,54,54,7,7,3,2,0.6,0.6
2026-04-12T2100,4210A,118.335445,29.720283,黄山市,滨江东路7-2号,,39,39,32,7,8,38,38,64,56,7,8,/,/,/,/
2026-04-12T2100,2423A,115.0547,30.2332,黄石市,沈家营,颗粒物(PM10),56,58,58,22,24,69,69,91,88,8,9,8,8,1.1,0.9
2026-04-12T2100,2426A,114.899,30.211,黄石市,铁山,颗粒物(PM10),60,63,51,16,26,59,59,98,92,8,11,7,10,0.6,0.3
2026-04-12T2100,2427A,115.0259,30.2108,黄石市,团城山,颗粒物(PM10),51,51,50,34,31,52,52,83,78,11,8,12,10,0.8,0.8
2026-04-12T2100,3149A,115.0174,30.1591,黄石市,笔架山北路,颗粒物(PM10),60,64,63,20,26,74,74,94,92,8,9,10,10,0.9,0.9
2026-04-12T2100,4185A,115.078022,30.21118,黄石市,磁湖东路29号,颗粒物(PM10),65,71,57,38,30,49,49,104,98,26,10,4,5,1.2,1
2026-04-12T2100,1392A,114.4181,23.0528,惠州市,河南岸金山湖子站,,36,36,31,14,16,35,35,64,57,14,11,6,6,0.5,0.5
2026-04-12T2100,1393A,114.4055,23.0824,惠州市,下埔横江三路子站,,40,40,37,16,17,27,27,65,56,13,10,4,5,0.7,0.6
2026-04-12T2100,1395A,114.4645,22.7832,惠州市,惠阳区承修路船湖子站,,32,32,31,14,14,39,39,49,47,7,9,5,5,0.4,0.4
2026-04-12T2100,1396A,114.5316,22.7423,惠州市,大亚湾管委会子站,,29,29,33,11,13,31,31,47,44,10,10,4,4,0.5,0.5
2026-04-12T2100,3314A,114.4334,22.8134,惠州市,惠阳秋长,,27,27,28,12,14,48,48,59,57,6,8,/,/,/,/
2026-04-12T2100,3452A,114.6521,22.7755,惠州市,大亚湾霞涌,,15,NA,23,10,11,44,44,55,53,6,7,/,/,/,/
2026-04-12T2100,4300A,114.4089,23.1147,惠州市,文华一路1号,,31,31,32,15,16,39,39,66,58,11,10,/,/,/,/
2026-04-12T2100,2240A,130.9618,45.2926,鸡西市,环保局,细颗粒物(PM2.5),74,77,28,47,20,31,31,89,68,43,12,11,7,0.5,0.3
2026-04-12T2100,2243A,130.9294,45.2959,鸡西市,第一中学,颗粒物(PM10),83,96,27,41,19,24,24,88,66,50,11,6,5,0.4,0.2
2026-04-12T2100,3707A,131.0069,45.2988,鸡西市,欧美日汽修厂,颗粒物(PM10),108,139,38,55,22,29,29,81,57,32,16,7,3,0.7,0.5
2026-04-12T2100,2367A,114.9753,27.0803,吉安市,红声器材厂,,43,43,29,17,11,40,40,70,54,13,13,6,6,1.3,1.1
2026-04-12T2100,2369A,114.9903,27.1313,吉安市,市环境监测站,,34,34,25,23,14,44,44,66,54,11,11,10,11,/,/
2026-04-12T2100,2370A,115.009527,27.096792,吉安市,青原区法院,,37,37,26,18,12,44,44,74,55,14,14,8,8,0.9,0.7
2026-04-12T2100,1772A,126.54,43.8622,吉林市,哈达湾,颗粒物(PM10),102,125,58,32,22,95,95,131,126,11,10,6,6,0.3,0.3
2026-04-12T2100,1773A,126.5843,43.8358,吉林市,东局子,颗粒物(PM10),112,151,68,32,20,93,93,126,121,16,10,4,4,0.9,0.8
2026-04-12T2100,1774A,126.5051,43.8243,吉林市,电力学院,颗粒物(PM10),113,152,67,28,22,97,97,139,133,11,15,5,6,0.7,0.8
2026-04-12T2100,1775A,126.6133,43.8971,吉林市,江北,颗粒物(PM10),105,133,69,36,24,66,66,110,102,20,13,12,10,0.6,0.6
2026-04-12T2100,1776A,126.5549,43.8304,吉林市,江南公园,颗粒物(PM10),98,117,54,29,20,91,91,125,120,14,11,7,7,0.5,0.5
2026-04-12T2100,2868A,126.4737,43.953,吉林市,九站,颗粒物(PM10),109,141,67,31,22,82,82,125,118,14,17,7,9,0.6,0.6
2026-04-12T2100,1299A,116.9866,36.6118,济南市,科干所,,41,41,41,15,18,102,102,139,134,15,12,7,8,0.4,0.3
2026-04-12T2100,1300A,116.9379,36.6652,济南市,农科所,,46,46,52,17,21,95,95,132,126,22,21,6,7,0.3,0.3
2026-04-12T2100,1301A,117.1265,36.6736,济南市,开发区,颗粒物(PM10),73,81,47,24,19,89,89,143,137,32,22,6,6,0.6,0.4
2026-04-12T2100,1303A,117.0616,36.6865,济南市,省种子仓库,颗粒物(PM10),67,73,72,29,26,96,96,142,136,31,47,10,9,0.8,0.7
2026-04-12T2100,1304A,116.9495185,36.644937,济南市,机床二厂,颗粒物(PM10),58,61,58,20,25,87,87,140,133,36,24,6,7,1.2,0.5
2026-04-12T2100,1305A,117.0496,36.6629,济南市,市监测站,颗粒物(PM10),65,71,48,33,17,95,95,136,131,33,26,5,4,1.0,0.8
2026-04-12T2100,1306A,116.7674,36.5458,济南市,长清党校,,49,49,50,11,21,100,100,128,123,16,11,4,6,0.5,0.5
2026-04-12T2100,1961A,117.5323,36.6865,济南市,东山小学,颗粒物(PM10),63,68,42,18,13,86,86,137,132,38,16,5,6,0.4,0.4
2026-04-12T2100,3059A,117.7181,36.205,济南市,泰兴公司,,30,24,41,6,17,94,94,135,126,28,32,8,9,0.4,0.4
2026-04-12T2100,3064A,117.6861,36.2172,济南市,莱芜战役纪念馆,,34,34,43,6,16,107,107,138,134,18,22,5,6,0.4,0.5
2026-04-12T2100,3494A,117.1673,36.9782,济南市,济阳区政府,颗粒物(PM10),62,66,84,26,36,104,104,128,127,28,44,7,9,0.6,0.6
2026-04-12T2100,3495A,117.1168,36.6299,济南市,锦屏中学,颗粒物(PM10),53,54,38,17,15,74,74,133,121,22,16,6,6,0.3,0.2
2026-04-12T2100,4108A,117.7107,36.2385,济南市,山财大街5号,,34,31,35,6,13,108,108,139,133,21,23,6,6,0.5,0.6
2026-04-12T2100,4109A,116.9744,36.6889,济南市,无影山路12号,颗粒物(PM10),60,63,51,25,25,74,74,131,122,41,25,9,6,0.9,0.7
2026-04-12T2100,1653A,116.6229,35.4288,济宁市,火炬城,,33,26,51,9,36,103,103,133,129,9,12,8,11,0.5,0.7
2026-04-12T2100,3500A,116.5808,35.3703,济宁市,北湖一中,,37,34,55,3,32,117,117,150,145,12,17,6,9,0.1,0.4
2026-04-12T2100,3501A,116.8251,35.5592,济宁市,服务中心,,46,46,61,15,34,102,102,143,138,16,19,3,3,0.6,0.6
2026-04-12T2100,3678A,116.5907,35.4054,济宁市,市第七中学,,39,34,58,7,29,123,123,154,150,14,17,4,7,0.5,0.7
2026-04-12T2100,4111A,116.6075,35.4566,济宁市,任和路,,47,47,70,3,29,117,117,148,144,10,14,7,10,0.3,0.5
2026-04-12T2100,4112A,116.5648,35.3921,济宁市,文体南路1号,,41,41,65,3,31,118,118,151,146,8,14,4,7,0.5,0.6
2026-04-12T2100,4122A,112.6071,35.1015,济源市,市委党校,颗粒物(PM10),78,88,93,34,40,131,131,155,149,18,19,10,11,0.5,0.6
2026-04-12T2100,4123A,112.596,35.0702,济源市,沁园中路1号,颗粒物(PM10),73,81,78,41,45,131,131,151,149,16,23,7,8,0.6,0.8
2026-04-12T2100,2255A,130.2749,46.8028,佳木斯市,佳纺,,38,38,25,21,19,56,56,94,79,17,9,6,5,0.5,0.4
2026-04-12T2100,2257A,130.3258,46.7975,佳木斯市,环保局,,32,28,23,22,19,38,38,92,76,32,10,7,6,0.4,0.3
2026-04-12T2100,4285A,130.363,46.806,佳木斯市,顺和街,,28,25,22,19,20,54,54,88,75,23,13,3,2,0.5,0.4
2026-04-12T2100,4286A,130.3952,46.8268,佳木斯市,长安路196号,,22,20,21,15,17,67,67,93,84,16,10,5,5,0.4,0.4
2026-04-12T2100,1252A,120.7439,30.778,嘉兴市,清河小学,,46,45,25,32,12,62,62,102,82,20,11,6,6,0.5,0.4
2026-04-12T2100,1253A,120.7261,30.7477,嘉兴市,嘉兴学院,,48,46,22,33,14,63,63,100,80,22,17,5,5,0.5,0.4
2026-04-12T2100,2872A,120.7845,30.7524,嘉兴市,南湖区残联,,49,47,22,34,10,66,66,106,83,21,15,3,4,0.6,0.6
2026-04-12T2100,3407A,120.6915,30.7741,嘉兴市,秀洲住建,,50,44,25,35,13,65,65,107,82,16,12,5,5,0.3,0.3
2026-04-12T2100,1945A,98.291,39.7705,嘉峪关市,气象局,,33,27,29,17,10,104,104,107,107,9,12,13,20,1.1,0.8
2026-04-12T2100,2884A,98.2672,39.7978,嘉峪关市,酒钢宾馆,,34,34,36,14,13,106,106,104,104,4,14,29,52,0.7,1.3
2026-04-12T2100,3248A,98.2644,39.7723,嘉峪关市,雄关区,,47,47,43,14,10,103,103,106,106,10,16,22,22,0.7,0.7
2026-04-12T2100,1383A,113.1063,22.6058,江门市,北街,,21,21,31,14,17,37,37,56,52,9,8,/,/,/,/
2026-04-12T2100,1384A,113.073,22.5835,江门市,西区,,27,27,32,13,17,39,39,58,54,11,10,/,/,/,/
2026-04-12T2100,1385A,113.0218,22.531,江门市,圭峰西,,18,12,29,12,15,38,38,55,49,8,9,/,/,/,/
2026-04-12T2100,1386A,113.0826,22.5947,江门市,东湖,,29,29,31,15,17,40,40,58,54,8,8,5,6,0.4,0.4
2026-04-12T2100,3311A,113.1077,22.5647,江门市,江海富民,,44,44,45,12,16,41,41,59,56,8,8,/,/,0.3,0.4
2026-04-12T2100,3449A,113.0496,22.4669,江门市,新会银湖,,26,26,30,10,13,39,39,53,49,10,9,7,6,0.3,0.3
2026-04-12T2100,3335A,113.3137,35.2643,焦作市,马村街道办,颗粒物(PM10),60,63,65,30,36,104,104,136,132,15,14,8,10,0.4,0.6
2026-04-12T2100,3336A,113.2464,35.2374,焦作市,焦作技师学院,颗粒物(PM10),60,63,66,36,35,110,110,139,134,16,13,9,9,0.8,0.8
2026-04-12T2100,3477A,113.1656,35.2536,焦作市,中站许衡医院,颗粒物(PM10),52,52,60,30,35,132,132,147,146,14,12,10,11,0.5,0.6
2026-04-12T2100,3981A,113.2456,35.18,焦作市,原李万街道办,颗粒物(PM10),68,75,70,33,37,108,108,140,136,14,14,11,10,0.5,0.5
2026-04-12T2100,4264A,113.234,35.219,焦作市,新安路1731号,颗粒物(PM10),71,79,71,32,35,116,116,154,147,20,16,10,10,0.8,0.8
2026-04-12T2100,4295A,113.2722,35.2121,焦作市,人民路3066号,颗粒物(PM10),77,87,78,36,38,107,107,144,138,15,12,7,6,0.5,0.6
2026-04-12T2100,1708A,116.3701,23.5345,揭阳市,新兴,颗粒物(PM10),69,76,34,17,17,35,35,58,51,8,8,6,7,0.5,0.5
2026-04-12T2100,1709A,116.3261,23.5442,揭阳市,西马,,48,48,33,18,17,34,34,62,54,14,10,6,5,0.5,0.5
2026-04-12T2100,1710A,116.361,23.5627,揭阳市,东兴,,25,25,31,17,17,37,37,66,58,11,9,2,2,/,/
2026-04-12T2100,1711A,116.4151,23.5295,揭阳市,渔湖,,25,20,31,17,21,47,47,70,62,10,13,2,3,/,/
2026-04-12T2100,3320A,116.4028,23.5699,揭阳市,曲溪,颗粒物(PM10),53,53,32,15,19,38,38,67,59,6,8,12,10,0.5,0.5
2026-04-12T2100,1944A,102.1691,38.5166,金昌市,天庆家园,颗粒物(PM10),51,51,49,24,18,110,110,121,119,8,5,18,18,0.6,0.5
2026-04-12T2100,4022A,102.1648,38.5369,金昌市,金川区人防中心,颗粒物(PM10),58,61,62,19,18,113,113,122,120,9,6,8,7,0.3,0.3
2026-04-12T2100,4239A,102.193042,38.531887,金昌市,长春路96号,,38,38,50,23,18,109,109,116,115,6,4,8,9,0.4,0.3
2026-04-12T2100,1262A,119.6478,29.0773,金华市,十五中,细颗粒物(PM2.5),62,61,31,41,20,52,52,68,60,27,20,3,3,1.0,0.8
2026-04-12T2100,1263A,119.6859,29.1032,金华市,监测站,细颗粒物(PM2.5),54,51,26,37,17,45,45,65,58,29,23,4,4,0.9,0.7
2026-04-12T2100,3659A,119.656,29.1132,金华市,气象局,细颗粒物(PM2.5),60,57,28,40,18,39,39,62,51,32,26,3,3,1.0,0.8
2026-04-12T2100,1767A,121.1114,41.0879,锦州市,南山,细颗粒物(PM2.5),170,161,86,129,59,38,38,80,65,67,46,32,16,1.3,0.7
2026-04-12T2100,1768A,121.060361,40.842794,锦州市,开发区,细颗粒物(PM2.5),159,NA,126,121,65,93,93,103,100,37,40,9,16,1.0,0.7
2026-04-12T2100,1769A,121.1836,41.1118,锦州市,百股街道,细颗粒物(PM2.5),163,152,96,124,71,46,46,88,65,65,39,23,21,1.2,0.8
2026-04-12T2100,1770A,121.1176,41.1224,锦州市,天安街道,细颗粒物(PM2.5),133,148,89,96,59,59,59,74,60,42,45,10,9,1.2,0.8
2026-04-12T2100,1771A,121.1303,41.1385,锦州市,北湖公园,细颗粒物(PM2.5),143,137,88,107,59,64,64,79,69,39,39,11,11,0.9,0.6
2026-04-12T2100,2160A,112.8496,35.5051,晋城市,自来水公司,细颗粒物(PM2.5),66,68,65,43,25,160,160,157,157,10,13,5,6,0.6,0.7
2026-04-12T2100,2162A,112.8509,35.4886,晋城市,市环保局,颗粒物(PM10),56,58,68,33,30,147,147,151,151,8,13,6,7,0.4,0.5
2026-04-12T2100,3620A,112.8258,35.4804,晋城市,泽州一中,颗粒物(PM10),58,61,64,31,29,157,157,156,156,13,15,4,5,0.5,0.6
2026-04-12T2100,4078A,112.8246,35.5152,晋城市,前书院路,颗粒物(PM10),63,67,63,33,25,147,147,146,146,10,21,8,8,0.4,0.6
2026-04-12T2100,4079A,112.8864,35.4773,晋城市,祥云街666号,NA,NA,66,58,53,30,NA,NA,148,148,9,10,8,8,NA,0.6
2026-04-12T2100,2174A,112.6992,37.6984,晋中市,榆次区政府,颗粒物(PM10),90,105,66,51,32,149,149,163,160,17,24,8,9,0.8,0.5
2026-04-12T2100,2865A,112.7195,37.683,晋中市,榆次三中,颗粒物(PM10),88,102,72,53,27,155,155,168,166,13,23,8,8,0.7,0.6
2026-04-12T2100,4080A,112.7375,37.7215,晋中市,广安街188号,颗粒物(PM10),92,108,67,53,27,153,153,157,157,19,26,7,7,0.6,0.4
2026-04-12T2100,4200A,112.7478,37.6954,晋中市,迎宾街26号,颗粒物(PM10),84,97,66,49,29,152,152,165,163,16,22,8,6,0.7,0.5
2026-04-12T2100,2439A,112.2012,31.048,荆门市,竹园小学,颗粒物(PM10),73,81,62,38,37,58,58,119,112,32,14,6,3,0.4,0.3
2026-04-12T2100,2440A,112.1968,30.9892,荆门市,掇刀,颗粒物(PM10),51,51,63,33,36,85,85,130,121,24,10,7,8,0.7,0.6
2026-04-12T2100,3012A,112.1849,31.0361,荆门市,西山林语,,45,45,59,30,33,59,59,125,114,15,10,5,6,0.5,0.5
2026-04-12T2100,3547A,112.1631,31.0134,荆门市,龙泉中学南校,颗粒物(PM10),57,59,60,24,28,94,94,136,131,14,9,5,5,0.6,0.6
2026-04-12T2100,4124A,112.2213,31.0654,荆门市,新台西路6号,,47,47,59,29,39,75,75,128,121,26,8,7,7,0.6,0.5
2026-04-12T2100,1844A,112.2493,30.3198,荆州市,市图书馆,,43,38,38,30,29,46,46,126,115,52,16,6,6,0.6,0.5
2026-04-12T2100,1845A,112.2009,30.3543,荆州市,市委党校,颗粒物(PM10),55,56,44,36,30,66,66,117,107,24,12,7,9,0.9,0.8
2026-04-12T2100,3194A,112.2749,30.3124,荆州市,管委会,颗粒物(PM10),51,51,40,35,30,62,62,117,108,33,12,10,6,0.7,0.6
2026-04-12T2100,4268A,112.1722,30.3366,荆州市,学苑路85号,细颗粒物(PM2.5),54,50,39,37,27,66,66,143,127,22,6,1,2,0.5,0.5
2026-04-12T2100,2343A,117.2114,29.2931,景德镇市,老干部活动中心,,45,31,14,31,16,42,42,82,81,21,7,12,5,0.7,0.6
2026-04-12T2100,2344A,117.1893,29.2789,景德镇市,兽医站,,37,37,39,10,9,54,54,77,77,18,10,4,4,0.6,0.6
2026-04-12T2100,2346A,117.246,29.2958,景德镇市,陶研所,,28,26,16,19,11,34,34,69,67,18,15,5,4,0.8,0.7
2026-04-12T2100,4289A,117.154766,29.256967,景德镇市,青少年活动中心,,34,34,19,19,12,41,41,72,70,19,11,28,13,/,/
2026-04-12T2100,1803A,115.9873,29.6816,九江市,十里,,50,50,38,15,17,76,76,92,91,24,16,8,8,0.9,0.9
2026-04-12T2100,1804A,115.9583,29.7047,九江市,茅山头,,48,48,37,14,16,90,90,102,102,12,11,4,4,0.6,0.6
2026-04-12T2100,1805A,115.9877,29.7295,九江市,西园,,38,38,33,13,14,77,77,102,97,38,26,3,3,0.6,0.6
2026-04-12T2100,1808A,115.9112,29.6038,九江市,综合工业园,,41,41,35,15,18,70,70,94,87,28,26,7,7,0.5,0.6
2026-04-12T2100,3190A,116.0254,29.6995,九江市,外国语学校,,36,36,31,16,17,66,66,86,83,31,17,8,8,0.7,0.8
2026-04-12T2100,4253A,116.010205,29.659402,九江市,莲花大道8号,,47,47,41,18,19,74,74,87,87,12,14,7,4,0.6,0.6
2026-04-12T2100,4240A,98.495752,39.733935,酒泉市,玉门东路5号,,41,41,33,12,12,96,96,97,97,6,6,5,6,0.1,0.1
2026-04-12T2100,4241A,98.5099,39.7506,酒泉市,北大街108号,,29,29,30,16,14,90,90,91,91,4,6,7,7,0.1,0.2
2026-04-12T2100,2698A,76.0071,39.466,喀什地区,巡警大队,颗粒物(PM10),173,296,182,64,50,114,114,120,120,9,11,3,3,0.3,0.3
2026-04-12T2100,2699A,75.9756,39.4693,喀什地区,吾办,颗粒物(PM10),167,283,177,68,48,113,113,112,112,3,9,3,3,0.3,0.3
2026-04-12T2100,4027A,75.9485,39.4688,喀什地区,老干局,颗粒物(PM10),175,299,175,53,39,115,115,117,117,6,7,2,2,0.2,0.1
2026-04-12T2100,1824A,114.3389,34.778,开封市,肿瘤医院,,48,33,62,33,47,107,107,142,133,22,23,8,8,0.7,0.8
2026-04-12T2100,1826A,114.2884,34.7966,开封市,世纪星幼儿园,,42,42,60,20,42,112,112,142,134,20,20,7,8,0.4,0.6
2026-04-12T2100,3147A,114.3434,34.8101,开封市,龙亭公园,,38,38,68,21,44,110,110,143,134,18,24,7,8,0.6,0.9
2026-04-12T2100,3210A,114.3645,34.7955,开封市,汴京公园,,48,48,78,23,44,108,108,148,137,19,20,5,6,0.5,0.7
2026-04-12T2100,3473A,114.2485,34.8306,开封市,技师学院,,39,34,52,19,42,124,124,146,140,12,21,5,5,0.4,0.6
2026-04-12T2100,3592A,114.4518,34.7503,开封市,祥符区生态环境局,,49,39,61,34,48,89,89,129,121,31,33,6,7,0.6,0.7
2026-04-12T2100,1951A,84.886,45.6029,克拉玛依市,长征新村,,34,21,14,6,6,107,107,110,110,4,2,5,6,0.3,0.2
2026-04-12T2100,1952A,84.8894,45.5827,克拉玛依市,南林小区,,36,15,10,3,0,114,114,117,117,2,2,4,4,0.8,0.7
2026-04-12T2100,1954A,84.896,44.3328,克拉玛依市,独山子区,颗粒物(PM10),68,74,50,15,6,95,95,98,98,9,6,4,5,0.3,0.3
2026-04-12T2100,1955A,85.6888,46.0909,克拉玛依市,乌尔禾区商贸楼,,36,36,30,3,7,115,115,105,105,6,9,2,2,0.3,0.3
2026-04-12T2100,3612A,85.1045,45.6895,克拉玛依市,白碱滩区新站,,41,24,33,8,4,130,130,126,126,2,2,6,6,0.1,0.1
2026-04-12T2100,2697A,76.1457,39.7143,克孜勒苏柯尔克孜自治州,市人民政府,颗粒物(PM10),152,253,119,66,32,122,122,124,124,4,6,4,9,0.2,0.2
2026-04-12T2100,3665A,76.1654,39.7157,克孜勒苏柯尔克孜自治州,克州文化中心,颗粒物(PM10),130,198,126,69,38,118,118,120,120,4,2,7,9,0.2,0.1
2026-04-12T2100,1450A,102.8203,24.889,昆明市,呈贡新区,,39,28,28,16,18,122,122,144,133,6,8,4,4,0.4,0.5
2026-04-12T2100,1452A,102.7253,25.0904,昆明市,龙泉镇,,43,43,34,14,17,112,112,131,125,6,16,5,5,0.5,0.5
2026-04-12T2100,1453A,102.7267,25.0378,昆明市,东风东路,,36,32,33,18,16,113,113,138,130,13,12,3,4,0.5,0.5
2026-04-12T2100,1454A,102.6744,25.0671,昆明市,金鼎山,,37,35,35,18,17,117,117,137,130,9,8,2,3,0.4,0.5
2026-04-12T2100,1455A,102.6643,25.0401,昆明市,碧鸡广场,,35,33,34,17,18,110,110,131,124,11,10,4,7,0.4,0.4
2026-04-12T2100,3179A,102.7491,25.012,昆明市,官渡区博物馆,,36,27,36,14,18,114,114,135,127,10,10,4,6,0.4,0.5
2026-04-12T2100,3375A,102.8016,24.8336,昆明市,青年创业园,,38,36,32,22,18,121,121,138,130,4,6,4,6,0.4,0.4
2026-04-12T2100,3550A,102.8,24.9787,昆明市,昆明学院,,35,34,34,15,15,112,112,138,128,9,8,5,7,0.5,0.6
2026-04-12T2100,3551A,102.5969,24.6738,昆明市,晋宁区生态环境分局,,40,33,31,28,19,122,122,133,129,5,5,3,3,0.5,0.4
2026-04-12T2100,3552A,102.6673,24.9861,昆明市,云天化总部,,39,29,34,19,16,122,122,139,132,7,11,4,8,0.4,0.5
2026-04-12T2100,1456A,91.132,29.6515,拉萨市,八廓街,,47,23,30,6,9,148,148,146,146,9,8,4,5,0.3,0.3
2026-04-12T2100,1457A,91.1221,29.6748,拉萨市,市环保局,,41,16,32,3,10,131,131,132,132,15,11,5,6,0.3,0.3
2026-04-12T2100,1458A,91.0874,29.6476,拉萨市,区监测站,,47,18,25,7,9,148,148,142,142,12,11,5,6,0.2,0.2
2026-04-12T2100,1459A,91.1774,29.6541,拉萨市,西藏大学,,46,21,28,7,10,147,147,142,142,9,9,4,5,0.2,0.2
2026-04-12T2100,1460A,90.9798,29.6586,拉萨市,区辐射站,,40,22,35,6,11,125,125,128,128,24,17,4,5,0.4,0.3
2026-04-12T2100,1461A,91.0831,29.6292,拉萨市,拉萨火车站,,49,18,26,10,11,156,156,146,146,4,5,4,5,0.2,0.2
2026-04-12T2100,2520A,109.2203,23.7252,来宾市,来宾技工学校,细颗粒物(PM2.5),78,81,75,49,52,100,100,129,127,8,8,5,7,0.7,0.8
2026-04-12T2100,3535A,109.1781,23.7293,来宾市,兴宾区政府,细颗粒物(PM2.5),86,84,73,53,53,110,110,142,140,8,8,23,14,0.8,0.8
2026-04-12T2100,4002A,109.2312,23.7428,来宾市,中南小学,细颗粒物(PM2.5),88,72,74,54,55,102,102,132,131,11,12,6,7,0.6,0.8
2026-04-12T2100,1479A,103.8309,36.0467,兰州市,铁路设计院,颗粒物(PM10),68,75,87,38,34,92,92,111,109,30,36,5,6,0.4,0.5
2026-04-12T2100,3241A,103.7439,36.0841,兰州市,百合公园,颗粒物(PM10),71,79,83,39,36,84,84,118,111,27,37,5,7,0.5,0.7
2026-04-12T2100,3242A,103.9613,35.9985,兰州市,和平,颗粒物(PM10),56,58,82,32,25,97,97,119,116,16,11,6,8,0.3,0.4
2026-04-12T2100,4236A,103.629272,36.093822,兰州市,庄浪东路808号,颗粒物(PM10),79,90,79,37,29,83,83,128,116,40,25,9,11,0.3,0.3
2026-04-12T2100,4237A,103.7251,36.104344,兰州市,安宁西路88号,颗粒物(PM10),80,92,84,39,30,102,102,137,129,23,24,10,12,0.3,0.3
2026-04-12T2100,4238A,103.846982,36.067567,兰州市,北滨河东路1号,颗粒物(PM10),68,74,78,34,33,77,77,115,111,40,42,9,10,0.5,0.6
2026-04-12T2100,1067A,116.6712,39.5109,廊坊市,药材公司,细颗粒物(PM2.5),117,141,100,78,41,107,107,129,127,36,29,4,5,0.7,0.6
2026-04-12T2100,1068A,116.7215,39.5592,廊坊市,开发区,细颗粒物(PM2.5),120,136,103,81,43,118,118,135,135,25,26,3,4,0.7,0.5
2026-04-12T2100,1070A,116.7246,39.5273,廊坊市,北华航天学院,细颗粒物(PM2.5),117,152,105,78,46,74,74,133,128,59,31,5,6,0.8,0.5
2026-04-12T2100,2919A,116.7022,39.5454,廊坊市,河北工业大学,细颗粒物(PM2.5),129,148,105,91,43,121,121,136,136,33,29,5,6,0.7,0.5
2026-04-12T2100,2536A,103.7629,29.5844,乐山市,牛耳桥,,36,36,30,22,17,52,52,72,69,23,18,5,5,0.5,0.5
2026-04-12T2100,2537A,103.7501,29.6002,乐山市,市第三水厂,,31,31,27,21,17,55,55,70,70,25,20,3,3,0.5,0.5
2026-04-12T2100,2538A,103.7571,29.5664,乐山市,市监测站,,32,32,29,18,17,61,61,65,65,18,17,2,2,0.5,0.5
2026-04-12T2100,3361A,103.7313,29.563,乐山市,理工大学,,32,32,25,21,17,45,45,68,66,22,16,2,3,0.5,0.5
2026-04-12T2100,2599A,100.2497,26.8802,丽江市,丽江古城,,39,30,23,16,7,122,122,126,126,7,8,9,8,0.5,0.5
2026-04-12T2100,2600A,100.2203,26.8906,丽江市,市中心,NA,NA,NA,132,17,7,117,117,126,126,14,10,8,7,0.4,0.4
2026-04-12T2100,1267A,119.9141,28.4513,丽水市,监测站大楼,,29,29,13,14,5,18,18,65,53,22,13,4,4,0.8,0.6
2026-04-12T2100,1268A,119.93,28.4589,丽水市,莲都小学,,37,37,11,15,3,5,5,63,45,43,15,/,/,/,/
2026-04-12T2100,1269A,119.8794,28.4232,丽水市,余庄前,,27,27,13,11,4,10,10,54,37,10,13,4,5,0.7,0.7
2026-04-12T2100,1173A,119.1759,34.5885,连云港市,市环境监测站,,35,19,41,17,33,112,112,109,107,11,15,7,8,0.4,0.6
2026-04-12T2100,3000A,119.3577,34.6971,连云港市,德源药业,,35,29,58,19,34,110,110,111,107,17,31,7,7,0.4,0.5
2026-04-12T2100,3007A,119.178,34.8442,连云港市,新城一中,,46,46,67,16,38,81,81,117,107,34,30,8,5,0.7,0.6
2026-04-12T2100,3008A,119.3607,34.7519,连云港市,胡沟管理处,,34,9,28,9,23,107,107,102,102,12,36,12,15,0.4,0.4
2026-04-12T2100,3009A,119.1478,34.5913,连云港市,矿山设计院,,36,19,45,9,28,114,114,110,108,8,13,7,8,0.5,0.7
2026-04-12T2100,3434A,119.2414,34.6539,连云港市,工贸学校,,36,27,40,18,25,114,114,112,109,7,12,9,10,0.3,0.5
2026-04-12T2100,3664A,119.4171,34.734,连云港市,连云街道,,34,31,37,18,21,107,107,121,118,10,15,4,5,0.5,0.5
2026-04-12T2100,2573A,102.2629,27.8981,凉山彝族自治州,西昌市政府,,39,27,27,13,15,122,122,137,135,8,7,10,7,0.5,0.6
2026-04-12T2100,2574A,102.2686,27.885,凉山彝族自治州,凉山州政府,,34,30,25,10,14,106,106,119,117,6,8,14,7,0.7,0.7
2026-04-12T2100,4229A,102.2342,27.8859,凉山彝族自治州,凯乐南路30号,,35,29,28,9,9,110,110,123,120,14,15,8,7,0.6,0.5
2026-04-12T2100,2212A,123.1978,41.2036,辽阳市,宏伟区,颗粒物(PM10),117,162,74,39,39,82,82,164,145,16,11,6,7,0.7,0.7
2026-04-12T2100,2213A,123.1684,41.2497,辽阳市,新华园,颗粒物(PM10),115,158,83,38,48,82,82,160,141,17,19,9,11,0.5,0.7
2026-04-12T2100,2214A,123.2355,41.2663,辽阳市,滨河路,颗粒物(PM10),110,144,68,32,39,69,69,156,127,23,22,7,9,0.5,0.7
2026-04-12T2100,4083A,123.153,41.2874,辽阳市,铁西路150号,颗粒物(PM10),115,158,82,41,46,64,64,137,119,25,20,10,9,0.6,0.7
2026-04-12T2100,2227A,125.1359,42.8845,辽源市,环保局,颗粒物(PM10),82,94,64,8,21,81,81,125,109,6,15,5,7,0.3,0.3
2026-04-12T2100,4085A,125.0998,42.9134,辽源市,安宁大街333号,颗粒物(PM10),119,167,92,8,18,84,84,132,115,6,13,4,7,0.3,0.4
2026-04-12T2100,1625A,115.9789,36.4372,聊城市,区政府,,50,50,76,9,36,133,133,153,152,11,15,6,9,0.7,0.8
2026-04-12T2100,3200A,115.9772,36.4986,聊城市,监控中心,颗粒物(PM10),55,56,76,14,36,125,125,160,156,28,19,7,10,0.4,0.6
2026-04-12T2100,3513A,116.0443,36.436,聊城市,九州社区,颗粒物(PM10),63,67,85,21,48,123,123,160,155,24,20,7,10,0.4,0.5
2026-04-12T2100,4018A,116.0564,36.4609,聊城市,星美广场,颗粒物(PM10),56,58,80,16,43,128,128,151,148,20,19,8,11,0.6,0.7
2026-04-12T2100,4113A,116.0091,36.4495,聊城市,利民路,,42,42,66,15,46,133,133,158,156,17,16,8,8,0.5,0.5
2026-04-12T2100,2632A,94.3683,29.6373,林芝市,林芝监测站,,33,13,8,8,5,104,104,112,111,6,5,5,5,0.4,0.4
2026-04-12T2100,2633A,94.3616,29.6634,林芝市,林芝人民医院,,34,13,9,12,7,108,108,111,111,2,4,5,5,0.4,0.4
2026-04-12T2100,2603A,100.0779,23.8981,临沧市,市环保局,细颗粒物(PM2.5),92,NA,40,56,28,116,116,139,136,17,7,10,6,0.7,0.5
2026-04-12T2100,2604A,100.0894,23.882,临沧市,市气象局,NA,NA,48,41,44,29,134,134,137,137,6,7,NA,10,0.5,0.4
2026-04-12T2100,1733A,111.5552,36.0791,临汾市,临钢医院,颗粒物(PM10),89,104,68,36,24,130,130,166,158,22,21,17,8,1.2,0.9
2026-04-12T2100,1734A,111.4984,36.0734,临汾市,技工学校,颗粒物(PM10),90,106,60,50,29,98,98,156,145,35,22,14,9,0.9,0.7
2026-04-12T2100,1736A,111.5017,36.0857,临汾市,市委,颗粒物(PM10),85,98,64,40,26,108,108,162,153,30,21,15,10,1.0,0.8
2026-04-12T2100,3018A,111.5048,36.1015,临汾市,唐尧大酒店,颗粒物(PM10),95,112,76,36,25,115,115,161,155,28,22,14,9,0.9,0.7
2026-04-12T2100,4244A,111.4879,36.053,临汾市,启星学校,颗粒物(PM10),86,100,65,40,25,81,81,150,137,52,29,15,9,1.0,0.7
2026-04-12T2100,4271A,103.2464,35.6123,临夏回族自治州,滨河东路1号,颗粒物(PM10),63,68,99,25,34,72,72,94,90,29,29,9,10,0.3,0.4
2026-04-12T2100,4310A,103.207136,35.599807,临夏回族自治州,新华街21号,颗粒物(PM10),61,65,83,26,34,72,72,88,86,15,16,7,7,0.1,0.3
2026-04-12T2100,1618A,118.3429,35.0532,临沂市,沂河小区,,41,41,59,21,35,83,83,124,116,16,20,10,11,0.3,0.5
2026-04-12T2100,1619A,118.2962,35.0568,临沂市,鲁南制药厂,,30,29,52,19,34,94,94,134,125,15,19,11,11,0.1,0.3
2026-04-12T2100,1620A,118.2793,34.9976,临沂市,新光毛纺厂,,28,27,53,17,37,88,88,124,117,17,19,8,10,0.2,0.3
2026-04-12T2100,1621A,118.3955,35.0889,临沂市,河东保险公司,细颗粒物(PM2.5),74,73,63,47,38,80,80,129,119,31,30,9,12,0.3,0.5
2026-04-12T2100,3370A,118.3563,35.0215,临沂市,十里堡居委,,29,29,50,18,36,92,92,129,122,18,26,11,10,0.5,0.6
2026-04-12T2100,3496A,118.359,35.1067,临沂市,南坊新区,细颗粒物(PM2.5),62,58,59,41,38,78,78,126,116,29,27,10,12,0.4,0.6
2026-04-12T2100,3860A,118.3915,35.0297,临沂市,皇山花园小区,,42,41,52,29,36,81,81,131,121,30,31,8,10,0.4,0.5
2026-04-12T2100,1870A,109.4854,24.3898,柳州市,柳东小学,细颗粒物(PM2.5),76,66,62,48,51,141,141,130,130,8,14,3,5,1.0,0.9
2026-04-12T2100,1871A,109.4109,24.3304,柳州市,环保监测站,,49,49,72,34,54,75,75,122,119,19,23,4,7,1.1,1
2026-04-12T2100,1872A,109.3886,24.3408,柳州市,河西水厂,颗粒物(PM10),69,76,98,39,81,81,81,128,126,12,23,8,12,1.1,1
2026-04-12T2100,1873A,109.4263,24.2951,柳州市,市四中,颗粒物(PM10),60,64,77,34,54,73,73,119,117,14,19,6,7,1.1,0.9
2026-04-12T2100,1874A,109.396,24.3658,柳州市,市九中,细颗粒物(PM2.5),68,NA,92,44,61,86,86,123,122,11,18,5,11,1.1,0.9
2026-04-12T2100,1875A,109.4912,24.3164,柳州市,古亭山,细颗粒物(PM2.5),68,69,69,44,54,131,131,132,132,8,20,4,7,1.0,0.8
2026-04-12T2100,3402A,109.5422,24.3994,柳州市,市二中,细颗粒物(PM2.5),70,60,64,45,51,122,122,112,112,7,14,7,9,1.0,0.9
2026-04-12T2100,2307A,116.5078,31.7369,六安市,监测大楼,,23,15,27,10,27,71,71,67,67,12,11,4,4,0.3,0.4
2026-04-12T2100,2308A,116.4738,31.7642,六安市,皖西学院,,25,11,31,11,25,78,78,72,72,9,9,4,4,0.3,0.5
2026-04-12T2100,2309A,116.4997,31.7904,六安市,朝阳厂,,21,NA,26,11,26,67,67,67,67,17,14,5,6,0.3,0.4
2026-04-12T2100,2310A,116.5566,31.7885,六安市,开发区,,25,NA,24,9,25,77,77,74,74,14,14,4,4,0.4,0.5
2026-04-12T2100,2577A,104.8293,26.592,六盘水市,黄土坡,,50,50,41,29,25,117,117,125,125,13,10,6,5,0.5,0.5
2026-04-12T2100,2579A,104.8481,26.5898,六盘水市,民中,,43,38,38,30,23,111,111,117,117,10,9,4,4,0.4,0.4
2026-04-12T2100,2580A,104.9541,26.5506,六盘水市,双水,,48,48,36,29,24,114,114,119,119,12,8,4,4,0.3,0.3
2026-04-12T2100,4151A,104.8899,26.5685,六盘水市,钟山大道中段564号,,45,45,47,26,25,118,118,120,120,7,6,2,2,0.6,0.6
2026-04-12T2100,2336A,117.022,25.1031,龙岩市,龙岩市监测站,细颗粒物(PM2.5),64,48,30,42,26,18,18,65,48,30,8,12,7,0.8,0.5
2026-04-12T2100,2337A,117.0257,25.0662,龙岩市,闽西职业技术学院,颗粒物(PM10),62,66,31,29,22,23,23,66,52,22,6,5,5,0.7,0.6
2026-04-12T2100,2338A,117.0195,25.0306,龙岩市,龙岩学院,,42,31,32,29,21,46,46,72,60,6,5,3,3,/,/
2026-04-12T2100,2885A,104.9344,33.3827,陇南市,滨江中学,颗粒物(PM10),65,70,63,26,22,73,73,89,89,18,15,8,9,0.7,0.7
2026-04-12T2100,3247A,104.9551,33.3709,陇南市,市总工会,颗粒物(PM10),68,74,60,35,22,76,76,95,95,17,12,8,8,0.5,0.5
2026-04-12T2100,2488A,111.9984,27.7346,娄底市,市监测站,,39,39,18,24,11,71,71,72,72,11,9,3,3,0.7,0.7
2026-04-12T2100,2491A,111.9888,27.7035,娄底市,市政府,,37,37,17,25,12,80,80,80,80,8,6,2,3,0.4,0.4
2026-04-12T2100,4127A,111.9812,27.7591,娄底市,涟钢职大,,39,39,18,26,9,79,79,85,85,12,8,2,2,0.4,0.4
2026-04-12T2100,4128A,112.0303,27.7457,娄底市,娄底体校,,46,46,21,21,10,69,69,74,74,1,2,3,3,0.5,0.5
2026-04-12T2100,1894A,105.4427,28.9063,泸州市,小市上码头,,33,25,37,23,36,84,84,103,103,13,13,8,10,0.7,0.7
2026-04-12T2100,1895A,105.4241,28.8573,泸州市,兰田宪桥,,28,28,52,18,33,77,77,101,100,18,15,6,6,1.0,1
2026-04-12T2100,1896A,105.4378,28.8833,泸州市,市环监站,,32,32,60,17,35,79,79,101,100,13,14,8,9,0.6,0.7
2026-04-12T2100,4272A,105.3689,28.7783,泸州市,纳溪中医医院,,38,35,45,26,42,85,85,105,105,11,14,8,8,0.7,0.7
2026-04-12T2100,2183A,111.1447,37.5212,吕梁市,环保局,颗粒物(PM10),90,106,62,42,15,34,34,135,115,70,36,9,8,0.5,0.3
2026-04-12T2100,2185A,111.1285,37.5338,吕梁市,自来水公司,颗粒物(PM10),70,78,82,32,24,68,68,134,122,44,36,8,9,0.6,0.5
2026-04-12T2100,2867A,111.1225,37.5093,吕梁市,马茂庄小学,颗粒物(PM10),82,94,73,32,17,47,47,130,117,57,39,9,7,0.6,0.5
2026-04-12T2100,1812A,112.3934,34.6517,洛阳市,市委党校,颗粒物(PM10),65,70,69,38,38,130,130,152,150,16,27,9,10,0.7,0.7
2026-04-12T2100,1815A,112.494,34.6883,洛阳市,河南林校,颗粒物(PM10),75,84,74,35,35,124,124,156,152,24,24,13,12,0.6,0.6
2026-04-12T2100,1816A,112.3843,34.623,洛阳市,开发区管委会,颗粒物(PM10),74,83,72,38,38,124,124,152,149,14,19,13,15,0.7,0.7
2026-04-12T2100,1817A,112.4263,34.6249,洛阳市,市委新办公区,颗粒物(PM10),68,74,69,37,44,134,134,154,153,13,21,9,10,0.5,0.6
2026-04-12T2100,3340A,112.6005,34.6323,洛阳市,伊滨,颗粒物(PM10),64,69,70,30,40,125,125,148,146,12,25,9,9,0.6,0.6
2026-04-12T2100,3341A,112.495,34.6338,洛阳市,中移产业园,颗粒物(PM10),63,67,78,37,43,126,126,150,148,18,29,11,11,0.8,0.8
2026-04-12T2100,3593A,112.5736,34.8993,洛阳市,吉利监测站,颗粒物(PM10),75,85,67,39,34,135,135,160,158,21,25,10,12,0.4,0.5
2026-04-12T2100,3635A,112.3678,34.6623,洛阳市,河科大西苑校区,颗粒物(PM10),70,78,70,35,38,140,140,163,162,15,25,10,12,0.5,0.6
2026-04-12T2100,3636A,112.4387,34.678,洛阳市,英才小学,颗粒物(PM10),77,87,81,41,40,126,126,154,152,25,31,12,12,0.7,0.7
2026-04-12T2100,4214A,112.460027,34.694929,洛阳市,春都路1号院,颗粒物(PM10),80,92,76,46,39,126,126,166,160,29,26,11,10,0.8,0.8
2026-04-12T2100,2399A,114.051,33.5721,漯河市,三五一五工厂,,42,42,62,28,44,102,102,131,128,19,19,5,6,0.2,0.4
2026-04-12T2100,2400A,114.0055,33.5698,漯河市,漯河大学,,49,44,62,34,51,104,104,129,126,18,17,6,6,0.4,0.5
2026-04-12T2100,2401A,114.0134,33.5826,漯河市,市水利局,,48,48,65,21,44,107,107,130,128,16,17,4,5,0.5,0.7
2026-04-12T2100,2402A,114.0261,33.5697,漯河市,市广电局,颗粒物(PM10),55,56,65,31,43,107,107,135,132,16,16,5,6,0.5,0.7
2026-04-12T2100,3478A,113.9691,33.568,漯河市,市图书馆,,43,43,62,24,39,106,106,130,126,19,18,6,7,0.3,0.5
2026-04-12T2100,4250A,114.089259,33.588274,漯河市,韶山路11号,颗粒物(PM10),88,102,73,35,45,94,94,123,119,19,22,6,7,0.6,0.8
2026-04-12T2100,1798A,118.5084,31.6838,马鞍山市,湖东路四小,,23,18,25,13,15,71,71,96,78,14,12,7,8,0.4,0.4
2026-04-12T2100,1799A,118.5019,31.6449,马鞍山市,开发区,,23,14,23,11,12,73,73,97,79,16,16,4,5,0.5,0.5
2026-04-12T2100,3633A,118.4914,31.681,马鞍山市,雨山,,24,15,21,3,9,74,74,98,79,14,13,6,6,0.5,0.5
2026-04-12T2100,4191A,118.527362,31.722269,马鞍山市,慈湖高新区,,23,16,23,11,14,71,71,96,78,10,10,7,7,0.3,0.3
2026-04-12T2100,1686A,111.0285,21.469,茂名市,电白南海,,36,36,38,11,14,48,48,62,53,4,5,4,4,0.6,0.9
2026-04-12T2100,1687A,110.9294,21.6533,茂名市,茂石化七小,,31,31,40,15,19,44,44,63,53,10,8,6,6,0.6,0.6
2026-04-12T2100,1688A,110.9108,21.6688,茂名市,健康路,,27,27,31,15,18,47,47,65,55,8,7,4,4,0.6,0.6
2026-04-12T2100,1689A,110.8592,21.6826,茂名市,高岭,,36,36,49,16,20,51,51,68,58,5,7,5,4,/,/
2026-04-12T2100,3450A,111.0101,21.5165,茂名市,电白水东,,29,29,30,15,16,48,48,60,52,6,6,2,1,/,/
2026-04-12T2100,2540A,103.8414,30.0871,眉山市,气象局,细颗粒物(PM2.5),60,42,36,40,22,44,44,79,76,24,13,9,8,0.7,0.6
2026-04-12T2100,3148A,103.829,30.0563,眉山市,区人社局,细颗粒物(PM2.5),66,57,44,43,25,58,58,69,69,25,19,7,7,0.6,0.5
2026-04-12T2100,4148A,103.8836,30.0695,眉山市,眉职院,颗粒物(PM10),82,94,45,48,19,60,60,71,71,15,12,8,7,0.7,0.6
2026-04-12T2100,1690A,116.1248,24.3307,梅州市,梅江月梅,细颗粒物(PM2.5),68,NA,35,44,24,33,33,72,58,10,9,/,/,/,/
2026-04-12T2100,1691A,116.0798,24.2719,梅州市,梅县新城,,39,34,33,27,22,43,43,71,64,12,7,8,8,0.4,0.4
2026-04-12T2100,3315A,116.1234,24.2994,梅州市,梅龙,,36,36,32,19,22,43,43,80,68,17,11,7,7,0.5,0.5
2026-04-12T2100,1878A,104.7775,31.4741,绵阳市,富乐山,,34,34,25,22,17,74,74,102,99,17,14,7,8,0.7,0.6
2026-04-12T2100,1880A,104.6698,31.4668,绵阳市,高新区自来水公司,,46,46,28,30,15,69,69,95,93,19,13,7,8,0.7,0.6
2026-04-12T2100,3491A,104.6899,31.5324,绵阳市,西科大附属小学,,48,46,27,33,19,82,82,102,100,16,14,8,10,0.5,0.4
2026-04-12T2100,3492A,104.5647,31.5343,绵阳市,安州区旅游局,,49,37,34,34,21,75,75,99,97,20,11,16,13,0.6,0.4
2026-04-12T2100,4146A,104.7092,31.4972,绵阳市,科技城新区公安局,,39,32,30,27,16,73,73,95,93,20,12,7,10,0.6,0.5
2026-04-12T2100,4226A,104.765114,31.453094,绵阳市,绵阳市气象局,,38,38,32,24,15,67,67,92,91,22,16,9,9,0.4,0.4
2026-04-12T2100,1784A,129.61,44.561,牡丹江市,环保大楼,颗粒物(PM10),63,67,39,26,15,46,46,80,68,34,18,4,2,0.6,0.4
2026-04-12T2100,1787A,129.6364,44.6075,牡丹江市,机车工厂,颗粒物(PM10),75,84,45,36,20,34,34,73,64,31,24,12,8,0.7,0.5
2026-04-12T2100,1788A,129.6386,44.5462,牡丹江市,第一中学,颗粒物(PM10),73,81,34,42,14,14,14,84,64,40,18,5,4,0.7,0.4
2026-04-12T2100,4287A,129.5992,44.5964,牡丹江市,东晓云街98号,颗粒物(PM10),72,80,43,30,17,31,31,80,68,28,15,4,3,0.9,0.6
2026-04-12T2100,2531A,105.0703,29.61,内江市,市监测站,,24,24,33,16,21,75,75,85,84,13,8,8,8,0.4,0.4
2026-04-12T2100,2533A,105.0657,29.5807,内江市,内江二中,,44,44,37,14,20,67,67,85,85,20,10,6,6,0.3,0.3
2026-04-12T2100,2534A,105.0407,29.5828,内江市,内江日报社,,25,25,33,16,21,79,79,92,92,14,11,8,7,0.4,0.3
2026-04-12T2100,4147A,105.0433,29.6105,内江市,玉峰路西段888号,,33,33,27,17,22,76,76,95,94,16,9,8,7,0.2,0.2
2026-04-12T2100,2628A,92.0653,31.4846,那曲市,那曲监测站,细颗粒物(PM2.5),52,47,46,36,27,127,127,138,138,16,21,6,6,0.7,0.9
2026-04-12T2100,4243A,92.0515,31.4787,那曲市,那曲市委宣传部,,41,39,28,26,19,131,131,142,141,4,10,10,10,0.5,0.6
2026-04-12T2100,1291A,115.8887,28.7006,南昌市,省林业公司,,34,34,25,12,14,46,46,93,82,22,8,4,4,0.4,0.4
2026-04-12T2100,1292A,115.813,28.7443,南昌市,林科所,,21,19,19,11,13,66,66,112,96,19,7,7,7,0.9,0.9
2026-04-12T2100,1294A,115.8518,28.687,南昌市,建工学校,,40,40,30,13,15,61,61,93,86,20,10,9,9,0.8,0.8
2026-04-12T2100,1295A,115.8926,28.6425,南昌市,象湖,,32,24,21,22,21,58,58,96,89,18,7,8,8,0.9,0.9
2026-04-12T2100,3046A,115.9084,28.6062,南昌市,机电学校,颗粒物(PM10),54,55,37,32,19,63,63,95,86,27,12,4,4,0.8,0.6
2026-04-12T2100,3690A,115.9718,28.7032,南昌市,外国语学校,,38,32,28,26,20,83,83,94,92,13,13,8,8,0.6,0.6
2026-04-12T2100,4106A,115.7923,28.6873,南昌市,工业二路,,45,45,34,15,15,63,63,93,86,18,11,5,5,0.7,0.7
2026-04-12T2100,4192A,115.931587,28.686774,南昌市,南京东路235号,,36,36,31,19,16,58,58,98,89,17,7,5,5,0.4,0.4
2026-04-12T2100,1906A,106.0791,30.8022,南充市,南充市委,,36,36,23,22,14,42,42,97,90,47,14,7,7,0.5,0.3
2026-04-12T2100,1907A,106.1038,30.8215,南充市,南充炼油厂,,27,27,25,17,13,50,50,94,89,34,12,6,5,0.3,0.2
2026-04-12T2100,4227A,106.108336,30.788436,南充市,梨树横街98号,,30,30,23,18,13,69,69,98,96,20,11,6,6,0.3,0.2
2026-04-12T2100,4304A,106.1172,30.843,南充市,清泉寺北路188号,,30,30,25,17,14,80,80,100,98,8,8,10,6,0.2,0.2
2026-04-12T2100,4305A,106.067,30.7616,南充市,同庆路1号,,23,23,23,16,13,64,64,101,97,28,14,6,6,0.4,0.3
2026-04-12T2100,1151A,118.8033,32.1085,南京市,迈皋桥,,23,14,24,12,13,73,73,84,80,28,24,3,4,1.2,1.1
2026-04-12T2100,1152A,118.7487,32.057,南京市,草场门,,24,17,26,10,12,74,74,83,81,23,22,8,8,0.4,0.4
2026-04-12T2100,1154A,118.770105,32.004342,南京市,中华门,,20,17,23,10,10,61,61,84,72,20,16,7,6,0.5,0.4
2026-04-12T2100,1155A,118.8059,32.0329,南京市,瑞金路,,22,22,28,13,12,68,68,84,77,8,5,6,6,0.5,0.5
2026-04-12T2100,1156A,118.7946,32.0774,南京市,玄武湖,,21,20,27,7,10,65,65,75,70,15,12,4,4,0.5,0.4
2026-04-12T2100,1157A,118.6415,32.0964,南京市,浦口,,20,17,25,8,15,63,63,71,70,14,16,4,4,0.5,0.6
2026-04-12T2100,1158A,118.730129,32.000956,南京市,奥体中心,,21,21,27,8,8,55,55,73,64,22,18,6,7,0.4,0.3
2026-04-12T2100,1159A,118.9072,32.1047,南京市,仙林大学城,,24,17,28,8,12,74,74,84,81,18,16,7,8,0.6,0.6
2026-04-12T2100,3422A,118.8443,31.919,南京市,江宁彩虹桥,,23,11,22,3,7,72,72,98,88,28,20,4,4,0.7,0.7
2026-04-12T2100,3427A,118.8497,32.3599,南京市,六合雄州,,27,15,30,9,21,84,84,89,87,14,19,4,4,0.6,0.7
2026-04-12T2100,4086A,118.7641,32.0841,南京市,新模范马路66号,,24,19,27,9,9,74,74,84,82,18,16,3,4,0.4,0.4
2026-04-12T2100,4249A,118.8707617,31.34017673,南京市,汶溪路181号,,19,16,26,12,6,59,59,111,76,18,13,6,6,0.6,0.2
2026-04-12T2100,4312A,119.019,31.6512,南京市,中山西路1号,,22,NA,17,3,6,69,69,92,68,15,15,4,4,0.4,0.4
2026-04-12T2100,1401A,108.3098,22.788,南宁市,二十一中,细颗粒物(PM2.5),76,51,63,48,46,102,102,118,114,10,11,1,2,0.8,0.8
2026-04-12T2100,1402A,108.3135,22.8529,南宁市,北湖,细颗粒物(PM2.5),90,68,65,55,51,102,102,122,119,9,9,4,3,0.9,0.8
2026-04-12T2100,1403A,108.3205,22.8222,南宁市,市监测站,细颗粒物(PM2.5),72,68,62,46,43,103,103,124,120,8,7,3,3,0.7,0.6
2026-04-12T2100,1404A,108.3828,22.8038,南宁市,大自然花园,细颗粒物(PM2.5),78,69,63,49,44,103,103,119,117,10,9,6,6,0.8,0.6
2026-04-12T2100,1406A,108.2397,22.8462,南宁市,区农职院,颗粒物(PM10),77,87,68,46,43,99,99,119,113,10,10,6,5,0.6,0.6
2026-04-12T2100,1407A,108.3285,22.7356,南宁市,英华嘉园,细颗粒物(PM2.5),74,77,70,47,44,101,101,120,118,15,11,5,6,0.7,0.7
2026-04-12T2100,3401A,108.4829,22.762,南宁市,红星社区,颗粒物(PM10),98,117,64,37,43,111,111,128,127,12,14,7,6,0.9,0.8
2026-04-12T2100,4132A,108.2927,23.1477,南宁市,起凤路9号,细颗粒物(PM2.5),100,85,77,60,56,113,113,141,139,9,9,5,5,0.8,0.8
2026-04-12T2100,4221A,108.2177,22.7774,南宁市,乐贤路16号,细颗粒物(PM2.5),74,68,66,47,46,90,90,112,106,17,15,8,6,0.5,0.6
2026-04-12T2100,2332A,118.1682,26.6371,南平市,南平市监测站,,25,23,32,15,23,78,78,94,89,6,9,3,5,0.5,0.5
2026-04-12T2100,2334A,118.1757,26.6276,南平市,南平七中,,28,28,34,17,22,64,64,90,84,10,9,2,2,0.5,0.5
2026-04-12T2100,1168A,120.9056,31.9669,南通市,狼山街道,,31,6,14,3,6,98,98,104,103,7,14,2,3,0.3,0.4
2026-04-12T2100,1170A,120.8635,32.0231,南通市,城中,,29,10,20,3,9,90,90,95,94,12,15,3,3,0.3,0.4
2026-04-12T2100,1171A,120.9376,31.9301,南通市,星湖花园,,30,6,15,3,7,95,95,100,99,9,13,3,4,0.4,0.5
2026-04-12T2100,1172A,120.8053,32.046,南通市,紫琅学院,,30,NA,13,3,9,94,94,104,103,16,19,4,4,0.6,0.7
2026-04-12T2100,3291A,121.0631,32.0644,南通市,通州监测站,,33,6,18,3,9,105,105,105,105,2,6,3,3,0.5,0.6
2026-04-12T2100,3432A,120.9348,31.9874,南通市,环境教育馆,,30,6,17,3,7,96,96,98,98,14,19,3,4,0.4,0.5
2026-04-12T2100,4091A,120.8692,31.9885,南通市,洪江路,,31,7,17,3,8,97,97,100,99,12,16,4,4,0.6,0.7
2026-04-12T2100,2404A,112.5338,33.0086,南阳市,瓦房庄,,44,44,63,23,34,109,109,131,127,13,13,4,4,0.5,0.7
2026-04-12T2100,2405A,112.5002,32.9734,南阳市,汉画馆,,44,44,70,21,32,103,103,129,125,12,12,6,6,0.6,0.7
2026-04-12T2100,2406A,112.5778,33.0144,南阳市,气象站,,39,39,67,16,32,111,111,138,135,14,13,6,5,0.4,0.6
2026-04-12T2100,2407A,112.548,32.9687,南阳市,理工学院,,47,47,67,22,38,98,98,133,128,15,11,5,5,0.5,0.6
2026-04-12T2100,4008A,112.5233,32.9921,南阳市,卧龙区政府,,36,36,67,18,37,106,106,133,130,14,11,7,7,0.5,0.7
2026-04-12T2100,1234A,121.8352,29.9111,宁波市,区环保大楼,,35,35,25,19,12,80,80,92,70,28,38,8,7,0.4,0.5
2026-04-12T2100,1235A,121.5595,29.8208,宁波市,万里学院,细颗粒物(PM2.5),64,43,24,42,14,61,61,103,76,25,15,7,7,0.7,0.5
2026-04-12T2100,1236A,121.713,29.9564,宁波市,龙赛医院,,28,28,22,14,10,89,89,84,84,16,24,6,6,0.3,0.4
2026-04-12T2100,1240A,121.5855,29.8635,宁波市,太古小学,颗粒物(PM10),53,54,25,36,14,60,60,99,76,27,17,3,3,0.6,0.5
2026-04-12T2100,1241A,121.5239,29.8673,宁波市,市环境监测中心,细颗粒物(PM2.5),80,NA,24,50,16,67,67,89,69,20,16,6,6,0.5,0.4
2026-04-12T2100,2871A,121.6156,29.9015,宁波市,万里国际学校,,46,37,23,32,14,63,63,98,77,27,18,4,4,0.6,0.6
2026-04-12T2100,3710A,121.5593,29.8976,宁波市,白沙活动中心,,46,NA,21,32,12,60,60,99,81,24,15,5,4,0.5,0.4
2026-04-12T2100,4095A,121.8962,29.7529,宁波市,中科路88号,细颗粒物(PM2.5),54,45,22,37,10,78,78,111,74,16,15,7,6,0.5,0.4
2026-04-12T2100,2341A,119.5387,26.6611,宁德市,宁德市监测站,,49,49,27,32,21,14,14,71,56,17,10,7,4,1.3,0.8
2026-04-12T2100,3209A,119.5231,26.6562,宁德市,宁德一中,,46,45,25,32,20,22,22,74,58,21,14,4,4,1.1,0.5
2026-04-12T2100,2618A,98.859,25.8541,怒江傈僳族自治州,州监测站,,44,44,35,30,24,100,100,111,111,17,18,9,9,0.2,0.2
2026-04-12T2100,2619A,98.8607,25.8168,怒江傈僳族自治州,泸水一中,细颗粒物(PM2.5),74,50,30,47,23,57,57,97,92,38,22,6,6,0.8,0.5
2026-04-12T2100,1888A,101.6891,26.571,攀枝花市,弄弄坪,颗粒物(PM10),59,62,30,12,17,108,108,126,122,27,11,56,16,2.8,0.8
2026-04-12T2100,1889A,101.577,26.5914,攀枝花市,河门口,,39,38,36,16,17,122,122,131,126,5,14,6,13,0.4,0.8
2026-04-12T2100,1891A,101.7365,26.4986,攀枝花市,仁和,,38,28,28,15,19,120,120,124,123,5,8,5,7,0.5,0.6
2026-04-12T2100,2835A,101.7222,26.567,攀枝花市,四十中小,,38,24,25,8,16,121,121,129,126,9,10,6,12,0.6,0.6
2026-04-12T2100,1604A,122.0303,41.1489,盘锦市,开发区,细颗粒物(PM2.5),153,120,71,117,71,94,94,132,120,22,18,9,7,0.6,0.5
2026-04-12T2100,1605A,122.0486,41.0883,盘锦市,兴隆台,细颗粒物(PM2.5),146,110,62,110,59,77,77,122,108,38,25,13,10,1.0,0.6
2026-04-12T2100,1606A,121.8297,41.1026,盘锦市,新生街道,细颗粒物(PM2.5),145,NA,58,109,49,47,47,122,109,58,27,7,7,1.0,0.6
2026-04-12T2100,1832A,113.3257,33.7423,平顶山市,新华旅馆,颗粒物(PM10),65,71,88,32,44,98,98,128,121,15,22,4,6,0.5,0.6
2026-04-12T2100,1833A,113.2917,33.737,平顶山市,规划设计院,"颗粒物(PM10),细颗粒物(PM2.5)",72,80,93,46,49,100,100,126,121,13,17,6,7,0.7,0.7
2026-04-12T2100,1834A,113.182,33.7738,平顶山市,平顶山工学院,颗粒物(PM10),60,64,78,34,43,104,104,137,131,14,15,8,9,0.4,0.4
2026-04-12T2100,3594A,112.8736,33.9068,平顶山市,石龙区,颗粒物(PM10),58,60,84,35,46,89,89,132,125,14,21,7,8,0.6,0.6
2026-04-12T2100,4116A,113.284,33.7139,平顶山市,姚电大道23号,颗粒物(PM10),59,62,95,36,48,99,99,133,126,22,22,6,8,0.5,0.6
2026-04-12T2100,2656A,106.6633,35.5338,平凉市,聚贤嘉苑,颗粒物(PM10),58,61,58,24,21,91,91,130,125,25,24,6,7,0.4,0.3
2026-04-12T2100,2657A,106.7021,35.5307,平凉市,博物馆,颗粒物(PM10),60,63,60,17,21,89,89,126,120,22,20,10,11,0.3,0.4
2026-04-12T2100,2348A,113.8384,27.6436,萍乡市,中医院,,48,48,32,29,22,25,25,50,41,23,15,6,5,1.1,1.1
2026-04-12T2100,2350A,113.8677,27.6438,萍乡市,市环保局,,49,48,30,34,26,27,27,52,44,28,17,3,2,1.3,1.2
2026-04-12T2100,2351A,113.8663,27.6202,萍乡市,安源区政府,,46,37,28,32,20,26,26,45,38,12,8,6,6,0.5,0.4
2026-04-12T2100,4107A,113.8686,27.6668,萍乡市,联洪村委会,,38,38,38,24,23,22,22,44,42,23,11,2,3,0.4,0.6
2026-04-12T2100,2319A,119.0142,25.4324,莆田市,荔城区仓后路,,48,41,36,33,23,30,30,72,61,19,12,/,/,/,/
2026-04-12T2100,2320A,119.0016,25.4553,莆田市,莆田市监测站,,35,31,29,24,16,26,26,80,66,17,11,4,4,0.4,0.8
2026-04-12T2100,2321A,119.112,25.4561,莆田市,涵江区六中,,40,40,36,26,22,30,30,70,57,19,15,/,/,0.5,0.5
2026-04-12T2100,2322A,119.1014,25.3215,莆田市,秀屿区政府,,33,26,28,23,20,38,38,61,55,9,8,4,4,0.3,0.3
2026-04-12T2100,2392A,115.0312,35.7636,濮阳市,环保局,,44,44,53,19,31,105,105,126,123,16,14,5,5,0.6,0.7
2026-04-12T2100,3021A,115,35.7667,濮阳市,濮水河管理处,,44,44,66,22,34,119,119,143,140,10,12,4,5,0.8,0.8
2026-04-12T2100,4118A,115.0552,35.7816,濮阳市,中原东路68号,颗粒物(PM10),59,62,70,21,32,117,117,141,138,14,14,4,4,0.5,0.5
2026-04-12T2100,4216A,115.0923632,35.76857718,濮阳市,任丘路479号,颗粒物(PM10),58,60,67,28,33,115,115,145,140,31,24,4,5,0.5,0.6
2026-04-12T2100,2601A,100.9801,22.7634,普洱市,市环保局,颗粒物(PM10),73,82,75,40,33,127,127,158,154,17,9,4,4,0.8,0.7
2026-04-12T2100,2602A,100.9763,22.8237,普洱市,普洱第二中学,颗粒物(PM10),69,76,72,42,34,133,133,152,150,15,10,6,6,0.7,0.6
2026-04-12T2100,3345A,131.0413,45.7795,七台河市,中波台,,36,36,24,20,20,73,73,91,82,17,14,4,4,0.4,0.4
2026-04-12T2100,3637A,131.0136,45.7688,七台河市,人民广场,颗粒物(PM10),55,57,33,17,18,66,66,93,85,28,17,10,10,0.6,0.6
2026-04-12T2100,3684A,130.8639,45.8144,七台河市,新建矿广场,,36,36,27,24,18,47,47,79,67,24,14,10,9,0.5,0.3
2026-04-12T2100,1779A,123.9307,47.3641,齐齐哈尔市,安居小区,,27,27,39,3,18,79,79,89,86,1,16,3,5,0.2,0.3
2026-04-12T2100,1780A,123.9497,47.3389,齐齐哈尔市,中心广场,,26,26,42,7,13,75,75,84,80,2,12,2,4,0.3,0.4
2026-04-12T2100,1781A,123.9483,47.3229,齐齐哈尔市,农牧车辆厂,,31,31,37,3,15,79,79,90,86,2,14,6,8,0.1,0.2
2026-04-12T2100,1783A,123.9442,47.2994,齐齐哈尔市,市环境监测站,,28,28,35,3,15,76,76,87,83,5,17,2,3,0.2,0.3
2026-04-12T2100,3662A,123.6341,47.2079,齐齐哈尔市,富区青少年活动中心,,24,14,41,8,18,76,76,84,81,4,14,2,4,0.2,0.3
2026-04-12T2100,2591A,107.9765,26.5724,黔东南苗族侗族自治州,市环境监测站,,26,24,25,18,16,49,49,70,52,4,5,2,2,0.5,0.4
2026-04-12T2100,2881A,107.8909,26.531,黔东南苗族侗族自治州,凯里学院,,36,36,27,18,14,51,51,74,59,8,5,3,2,0.7,0.6
2026-04-12T2100,2593A,107.5223,26.2371,黔南布依族苗族自治州,小围寨,,40,31,17,28,15,54,54,80,77,6,5,4,5,0.8,0.7
2026-04-12T2100,3538A,107.5175,26.2977,黔南布依族苗族自治州,沙坝,,40,31,23,28,14,48,48,76,72,7,5,4,4,1.0,1
2026-04-12T2100,2589A,104.9022,25.0943,黔西南布依族苗族自治州,场坝街,细颗粒物(PM2.5),60,57,30,40,22,116,116,142,137,17,8,9,10,0.6,0.3
2026-04-12T2100,2590A,104.8812,25.0994,黔西南布依族苗族自治州,坪东大道,,49,49,30,34,23,89,89,139,129,33,10,5,4,0.5,0.4
2026-04-12T2100,2502A,108.6238,21.9667,钦州市,市环保站,颗粒物(PM10),60,63,60,39,35,94,94,119,114,14,11,8,7,0.8,0.8
2026-04-12T2100,2503A,108.655,21.9481,钦州市,沙埠小学,颗粒物(PM10),64,69,63,32,38,89,89,116,110,12,11,7,5,0.6,0.7
2026-04-12T2100,2504A,108.5989,21.7435,钦州市,港区一小,颗粒物(PM10),69,76,76,39,39,96,96,106,106,11,13,2,3,0.6,0.7
2026-04-12T2100,3404A,108.5959,21.9634,钦州市,北职校,细颗粒物(PM2.5),78,66,64,49,38,92,92,113,108,11,11,7,7,0.6,0.7
2026-04-12T2100,1046A,119.5247,39.9346,秦皇岛市,建设大厦,细颗粒物(PM2.5),173,166,106,131,57,112,112,143,137,38,43,8,10,0.8,0.8
2026-04-12T2100,3132A,119.5979,39.938,秦皇岛市,文明里,细颗粒物(PM2.5),166,174,109,126,55,90,90,135,129,69,46,13,12,0.7,0.7
2026-04-12T2100,4066A,119.7458,39.9952,秦皇岛市,南园路157号,细颗粒物(PM2.5),168,145,101,127,57,106,106,129,128,38,45,10,11,0.8,0.6
2026-04-12T2100,4067A,119.5131,39.8858,秦皇岛市,翠岛大街1号,细颗粒物(PM2.5),152,144,94,116,50,120,120,143,140,31,28,10,11,0.6,0.7
2026-04-12T2100,4198A,119.509013,39.825305,秦皇岛市,北戴河轮滑馆,细颗粒物(PM2.5),148,127,90,112,51,113,113,136,136,38,32,9,10,0.7,0.6
2026-04-12T2100,1310A,120.404,36.0625,青岛市,市南区东部子站,细颗粒物(PM2.5),88,66,79,54,56,122,122,114,114,18,24,5,7,0.5,0.5
2026-04-12T2100,1311A,120.362344,36.10282,青岛市,四方区子站,细颗粒物(PM2.5),82,58,67,51,51,132,132,132,132,18,18,6,6,0.8,0.8
2026-04-12T2100,1312A,120.294373,36.054183,青岛市,市南区西部子站,细颗粒物(PM2.5),92,66,71,56,56,103,103,94,94,38,33,4,5,0.7,0.7
2026-04-12T2100,1313A,120.4581,36.0858,青岛市,崂山区子站,细颗粒物(PM2.5),58,53,77,39,48,118,118,114,114,24,24,8,10,0.6,0.7
2026-04-12T2100,1315A,120.3945,36.3083,青岛市,城阳区子站,颗粒物(PM10),53,53,76,31,47,122,122,137,132,24,26,6,6,0.7,0.8
2026-04-12T2100,3642A,120.3454,36.0735,青岛市,市北区南部,细颗粒物(PM2.5),78,53,65,49,48,135,135,133,133,14,18,4,5,0.7,0.7
2026-04-12T2100,3643A,120.3897,36.18,青岛市,李沧区北部,细颗粒物(PM2.5),62,56,62,41,42,116,116,122,121,23,21,9,9,0.6,0.6
2026-04-12T2100,4110A,120.5222,36.4089,青岛市,盟旺路653号,,40,36,58,15,39,125,125,139,139,10,11,4,4,0.6,0.7
2026-04-12T2100,4290A,120.196923,35.954556,青岛市,珠江路669号,细颗粒物(PM2.5),80,73,83,50,54,117,117,117,117,19,18,5,5,0.7,0.8
2026-04-12T2100,4291A,120.0424,35.8656,青岛市,黄岛区人民政府广场,细颗粒物(PM2.5),56,56,63,38,40,118,118,113,113,19,17,8,8,0.6,0.7
2026-04-12T2100,1703A,113.0218,23.7086,清远市,凤城街办,,33,33,38,16,22,35,35,50,46,23,20,/,/,/,/
2026-04-12T2100,3025A,113.0479,23.6343,清远市,技师学院,,40,40,42,18,22,30,30,54,47,26,21,5,5,0.3,0.3
2026-04-12T2100,3318A,112.9898,23.7403,清远市,清新太和,,39,39,44,18,24,39,39,54,49,21,18,7,7,0.5,0.5
2026-04-12T2100,3455A,113.076,23.72,清远市,清城东城,,43,43,44,17,23,36,36,54,49,23,20,/,/,/,/
2026-04-12T2100,2661A,107.6325,35.7357,庆阳市,庆阳五中,,38,38,38,16,17,112,112,112,109,11,11,6,5,0.3,0.3
2026-04-12T2100,2662A,107.6361,35.7067,庆阳市,市环保局,,37,37,37,20,16,108,108,120,112,15,13,17,7,0.4,0.3
2026-04-12T2100,1916A,103.7897,25.5036,曲靖市,环境监测站,,39,36,41,15,22,123,123,152,148,9,12,6,9,0.5,0.6
2026-04-12T2100,1917A,103.8013,25.5357,曲靖市,烟厂办公区,,37,37,38,15,17,111,111,134,132,6,13,4,7,0.3,0.4
2026-04-12T2100,3376A,103.7926,25.4651,曲靖市,南苑二区,,37,30,36,18,16,116,116,143,139,9,9,4,4,0.3,0.4
2026-04-12T2100,3377A,103.7442,25.5259,曲靖市,曲靖师范学院,,49,49,42,14,21,124,124,148,146,6,11,3,6,0.2,0.3
2026-04-12T2100,1264A,118.8694,28.94,衢州市,环保大楼,细颗粒物(PM2.5),60,58,29,40,21,42,42,73,54,18,15,/,/,/,/
2026-04-12T2100,1266A,118.8622,28.9809,衢州市,衢州学院,,40,40,23,28,18,17,17,75,48,39,21,5,5,0.7,0.6
2026-04-12T2100,4097A,118.9646,28.9832,衢州市,衢州三中,细颗粒物(PM2.5),56,56,28,38,21,14,14,70,48,36,18,7,6,0.9,0.6
2026-04-12T2100,1611A,118.5818,24.9116,泉州市,涂山街,,38,33,32,26,19,32,32,54,47,15,11,3,3,0.5,0.5
2026-04-12T2100,1612A,118.597,24.8976,泉州市,津头埔,NA,NA,36,29,25,18,NA,NA,55,50,14,11,2,2,0.4,0.4
2026-04-12T2100,1613A,118.6669,24.9422,泉州市,万安,,39,34,30,27,21,30,30,54,46,10,8,3,3,0.4,0.4
2026-04-12T2100,4105A,118.6355,24.9148,泉州市,霞新路6号,,32,30,27,22,18,29,29,50,44,13,12,/,/,0.4,0.4
2026-04-12T2100,2626A,88.8873,29.2723,日喀则市,日喀则监测站,,48,22,18,9,5,152,152,154,154,14,5,10,8,0.4,0.3
2026-04-12T2100,3726A,88.8775,29.2425,日喀则市,林业技术推广中心,,49,33,22,3,4,154,154,154,154,7,3,6,5,0.3,0.3
2026-04-12T2100,1659A,119.4711,35.421,日照市,监测站,,46,46,58,24,38,105,105,119,118,29,34,8,8,0.6,0.7
2026-04-12T2100,1660A,119.523,35.4216,日照市,市政府广场,,44,44,58,29,44,110,110,128,128,23,15,7,6,0.6,0.7
2026-04-12T2100,1661A,119.5511,35.4113,日照市,港务局,颗粒物(PM10),60,63,65,25,46,112,112,125,125,19,16,4,4,0.7,0.8
2026-04-12T2100,3507A,119.5326,35.4627,日照市,职业技术学院,,38,34,51,24,40,121,121,133,133,20,18,6,7,0.6,0.7
2026-04-12T2100,3604A,119.3267,35.1043,日照市,岚山环保分局,,37,31,55,17,37,116,116,123,123,18,22,9,11,0.6,0.8
2026-04-12T2100,1835A,111.1922,34.7752,三门峡市,市政府,颗粒物(PM10),59,62,60,25,32,125,125,132,132,17,20,11,13,0.6,0.6
2026-04-12T2100,1836A,111.1588,34.794,三门峡市,开发区,颗粒物(PM10),60,64,66,34,33,131,131,133,133,18,16,12,15,0.5,0.6
2026-04-12T2100,3039A,111.1911,34.7829,三门峡市,三门峡市第一小学,颗粒物(PM10),57,59,61,31,31,131,131,137,137,16,16,16,18,0.5,0.5
2026-04-12T2100,3598A,111.1031,34.719,三门峡市,富达温泉假日酒店,颗粒物(PM10),71,79,70,28,33,128,128,133,133,20,21,16,18,0.5,0.5
2026-04-12T2100,2324A,117.621,26.2626,三明市,三钢,,33,33,39,15,29,80,80,84,78,4,16,3,11,0.5,1.4
2026-04-12T2100,2325A,117.6352,26.2714,三明市,三明二中,,23,16,38,16,30,73,73,80,74,7,17,3,5,0.5,0.8
2026-04-12T2100,2326A,117.6028,26.2377,三明市,三元区政府,NA,NA,NA,40,16,31,80,80,86,69,12,18,6,7,1.0,0.6
2026-04-12T2100,1877A,109.4962,18.2682,三亚市,河西子站,,40,40,33,25,18,86,86,80,80,3,3,4,4,0.5,0.4
2026-04-12T2100,3540A,109.7348,18.3443,三亚市,君悦子站,,39,39,32,18,14,74,74,69,69,4,5,3,3,0.4,0.4
2026-04-12T2100,4135A,109.1714,18.3739,三亚市,城东小学站,,37,37,34,24,21,84,84,79,79,6,5,/,/,/,/
2026-04-12T2100,2624A,91.7592,29.234,山南市,山南监测站,,46,38,31,12,6,146,146,149,149,4,3,10,9,0.2,0.1
2026-04-12T2100,2625A,91.7701,29.2436,山南市,山南人民医院,颗粒物(PM10),51,51,43,23,10,140,140,147,147,7,3,8,8,0.3,0.3
2026-04-12T2100,1674A,116.6795,23.3666,汕头市,金平子站,,25,25,26,14,15,50,50,61,58,10,9,4,4,0.6,0.5
2026-04-12T2100,1675A,116.7248,23.3632,汕头市,龙湖子站,,31,31,24,19,16,49,49,56,55,6,7,6,7,/,/
2026-04-12T2100,1676A,116.7257,23.2774,汕头市,濠江子站,,24,24,26,15,17,41,41,57,54,22,18,8,8,/,/
2026-04-12T2100,1677A,116.7518,23.4712,汕头市,澄海子站,NA,NA,36,30,17,16,45,45,62,57,9,7,NA,7,0.6,0.6
2026-04-12T2100,1678A,116.6088,23.2539,汕头市,潮阳子站,,27,27,24,17,19,53,53,60,59,5,9,6,6,0.5,0.5
2026-04-12T2100,3444A,116.4539,23.2684,汕头市,潮南峡山,,25,25,24,15,14,46,46,60,56,4,3,7,6,0.5,0.5
2026-04-12T2100,3624A,116.4069,23.2533,汕头市,潮南子站,,27,27,29,13,16,43,43,56,52,5,3,6,6,/,/
2026-04-12T2100,1693A,115.3653,22.7751,汕尾市,市环保局,,23,23,23,13,12,45,45,51,50,7,4,5,5,0.4,0.4
2026-04-12T2100,1695A,115.362,22.7926,汕尾市,新城中学,,25,25,21,12,11,51,51,54,54,7,5,7,6,0.2,0.2
2026-04-12T2100,2645A,109.9155,33.8714,商洛市,监测站,颗粒物(PM10),51,51,33,22,15,33,33,106,90,43,18,7,7,0.8,0.5
2026-04-12T2100,3045A,109.9647,33.8486,商洛市,商州区中学,颗粒物(PM10),63,68,39,20,16,29,29,106,90,46,22,5,5,0.6,0.5
2026-04-12T2100,2408A,115.6701,34.4283,商丘市,环境监测站,,39,39,59,19,37,99,99,127,122,7,14,3,5,0.3,0.5
2026-04-12T2100,2409A,115.6458,34.4047,商丘市,粮食局,,40,NA,50,28,38,97,97,124,120,6,11,5,6,0.3,0.5
2026-04-12T2100,3171A,115.6069,34.4465,商丘市,梁园区档案局,,34,34,49,22,36,102,102,134,128,10,14,5,6,0.3,0.5
2026-04-12T2100,4119A,115.6701,34.3767,商丘市,北海东路185号,,34,34,61,16,34,97,97,124,120,9,15,5,6,0.3,0.5
2026-04-12T2100,4120A,115.6172,34.3704,商丘市,中山大街3号,,42,37,60,29,38,89,89,120,115,13,16,6,7,0.3,0.4
2026-04-12T2100,1141A,121.401,31.2382,上海市,普陀,,27,16,13,10,8,85,85,111,96,21,17,5,5,0.4,0.4
2026-04-12T2100,1142A,121.4774,31.2043,上海市,十五厂,,24,20,16,12,11,76,76,105,92,26,18,4,5,0.4,0.6
2026-04-12T2100,1143A,121.4673,31.3011,上海市,虹口,,22,17,12,15,10,64,64,102,85,29,14,4,3,0.5,0.5
2026-04-12T2100,1147A,121.4253,31.226,上海市,静安监测站,,26,14,12,12,8,83,83,108,94,25,21,7,7,0.6,0.5
2026-04-12T2100,1148A,121.7029,31.1905,上海市,浦东川沙,,29,12,10,8,7,91,91,108,103,21,24,7,7,0.4,0.4
2026-04-12T2100,1149A,121.5339,31.229,上海市,浦东新区监测站,,25,11,11,9,8,80,80,102,91,19,16,5,5,0.4,0.4
2026-04-12T2100,1150A,121.5776,31.2038,上海市,浦东张江,,26,10,10,9,8,83,83,112,101,18,18,6,6,0,0
2026-04-12T2100,3265A,121.4242,31.3303,上海市,宝山庙行,,21,13,14,10,8,67,67,104,83,37,23,5,6,0.4,0.3
2026-04-12T2100,3266A,121.8789,31.4662,上海市,崇明上实东滩,,36,6,7,3,6,115,115,116,114,8,11,8,8,0.2,0.2
2026-04-12T2100,3268A,121.316,31.2839,上海市,嘉定南翔,,20,19,12,14,9,64,64,96,79,25,16,4,4,0.3,0.3
2026-04-12T2100,3269A,121.3357,30.7455,上海市,金山新城,,43,37,16,30,12,71,71,113,84,18,10,3,4,0.6,0.5
2026-04-12T2100,3270A,121.4996,31.0741,上海市,闵行浦江,,26,14,12,11,9,83,83,106,89,18,16,5,5,0.4,0.3
