timepoint,stationcode,longitude,latitude,area,positionname,primarypollutant,aqi,pm10,pm10_24h,pm2_5,pm2_5_24h,o3,o3_24h,o3_8h,o3_8h_24h,no2,no2_24h,so2,so2_24h,co,co_24h
2025-10-22T0000,2566A,102.1879,31.914,阿坝藏族羌族自治州,州农科所,,,,,,,,,,,,,,,,
2025-10-22T0000,2568A,102.2502,31.8896,阿坝藏族羌族自治州,马师校,,28,,15,19,11,9,,48,17,13,10,5,5,0.5,0.5
2025-10-22T0000,3994A,102.2165,31.9024,阿坝藏族羌族自治州,马尔康中学西区,,31,31,17,12,10,16,,58,26,12,10,5,5,0.6,0.6
2025-10-22T0000,2695A,80.292,41.1694,阿克苏地区,电视台,颗粒物(PM10),156,261,184,69,50,5,,84,50,76,35,7,6,1.5,1
2025-10-22T0000,2696A,80.2613,41.1551,阿克苏地区,艺术中心,颗粒物(PM10),138,226,174,81,58,6,,79,45,90,44,4,4,1.8,0.8
2025-10-22T0000,2204A,105.6467,38.8363,阿拉善盟,西城区西花园,,,,,,,,,,,,,,,,
2025-10-22T0000,2205A,105.6985,38.8411,阿拉善盟,蒙二幼,颗粒物(PM10),58,65,52,32,27,38,,64,34,23,20,11,10,1.0,0.8
2025-10-22T0000,2206A,105.724,38.8516,阿拉善盟,环保局新楼,,48,48,50,32,35,43,,65,42,19,17,10,10,0.8,0.7
2025-10-22T0000,2708A,88.1264,47.8517,阿勒泰地区,市站,颗粒物(PM10),61,72,41,3,10,34,,80,28,22,21,3,4,0.5,0.4
2025-10-22T0000,2630A,80.1161,32.5,阿里地区,阿里监测站,,35,6,3,3,3,111,,118,118,2,13,15,13,0.4,0.4
2025-10-22T0000,3192A,80.0903,32.5028,阿里地区,阿里藏医院,,37,11,15,3,8,116,,125,125,1,6,8,9,0.2,0.3
2025-10-22T0000,2642A,109.0318,32.6537,安康市,香溪洞,,,,,,,,,,,,,,,,
2025-10-22T0000,2644A,109.0072,32.6975,安康市,汉滨区检察院,,19,11,3,7,4,59,,58,58,4,6,5,5,0.4,0.5
2025-10-22T0000,4054A,109.0325,32.6913,安康市,市邮政管理局,,18,12,6,7,4,56,,53,53,4,6,6,6,0.4,0.5
2025-10-22T0000,2291A,117.0809,30.5177,安庆市,环科院,,25,19,21,17,15,46,,62,54,16,13,7,6,0.3,0.3
2025-10-22T0000,2292A,117.0331,30.5119,安庆市,马山宾馆,,,,20,,10,,,65,,,9,,6,,0.2
2025-10-22T0000,2294A,116.9896,30.6145,安庆市,安庆大学,,26,23,21,18,14,52,,64,57,11,11,5,5,0.2,0.2
2025-10-22T0000,3173A,117.0598,30.5351,安庆市,市人大,,28,24,23,19,14,47,,62,55,14,11,6,6,0.3,0.3
2025-10-22T0000,3122A,105.9606,26.2611,安顺市,伍家关,,16,13,20,11,10,33,,51,43,9,6,7,6,0.5,0.5
2025-10-22T0000,3123A,105.9408,26.2431,安顺市,凤凰山,,22,20,20,15,14,27,,46,40,11,7,8,8,0.7,0.6
2025-10-22T0000,3124A,105.9439,26.2564,安顺市,金钟山,,23,19,20,16,16,25,,47,40,10,6,12,10,0.6,0.5
2025-10-22T0000,3125A,105.8983,26.2481,安顺市,娄家坡,,26,23,18,18,15,19,,40,34,11,8,15,14,0.6,0.6
2025-10-22T0000,1818A,114.4839,36.0621,安阳市,棉研所,,,,,,,,,,,,,,,,
2025-10-22T0000,1819A,114.3551,36.1017,安阳市,红庙街,颗粒物(PM10),57,64,42,38,24,9,,57,37,47,28,1,4,0.4,0.4
2025-10-22T0000,1820A,114.361,36.0681,安阳市,银杏小区,细颗粒物(PM2.5),57,62,42,40,24,8,,64,42,44,25,2,5,0.4,0.3
2025-10-22T0000,3141A,114.3922,36.0878,安阳市,信访局,颗粒物(PM10),54,57,40,37,26,19,,66,42,43,26,4,5,0.4,0.3
2025-10-22T0000,3669A,114.4705,36.0637,安阳市,左辅环卫站,颗粒物(PM10),60,69,58,33,24,32,,64,42,30,27,2,3,0.6,0.5
2025-10-22T0000,3703A,114.2917,36.0949,安阳市,安钢职工学校,颗粒物(PM10),66,82,47,39,26,2,,57,34,44,26,2,6,0.5,0.4
2025-10-22T0000,1748A,123.044,41.1196,鞍山市,深沟寺,,33,33,42,19,26,22,,62,33,30,32,6,9,0.6,0.8
2025-10-22T0000,1749A,123.011,41.0931,鞍山市,太阳城,,30,30,37,19,24,28,,62,45,27,27,10,12,0.3,0.6
2025-10-22T0000,1750A,123.0485,41.1442,鞍山市,太平,,50,50,62,22,29,15,,60,21,42,36,9,10,0.7,1
2025-10-22T0000,1751A,122.9642,41.0971,鞍山市,铁西三道街,颗粒物(PM10),88,125,69,61,31,3,,58,18,51,38,8,12,1.2,1.1
2025-10-22T0000,1753A,123.022,41.0821,鞍山市,明达新区,,40,40,40,21,23,12,,59,30,29,23,9,13,0.6,0.9
2025-10-22T0000,1754A,123.1289,41.0228,鞍山市,千山,,,,16,,14,,,69,46,,15,,4,,0.3
2025-10-22T0000,4201A,122.9446,41.0826,鞍山市,兴盛南路290号,颗粒物(PM10),95,140,94,53,34,2,,59,15,53,44,12,15,1.1,1.1
2025-10-22T0000,2195A,107.4212,40.761,巴彦淖尔市,附二中,颗粒物(PM10),90,130,69,53,39,39,,54,38,29,22,12,12,0.8,0.6
2025-10-22T0000,2196A,107.37,40.7372,巴彦淖尔市,市环保大楼,颗粒物(PM10),82,114,61,44,32,44,,55,40,29,24,13,14,0.7,0.7
2025-10-22T0000,1956A,86.1472,41.7538,巴音郭楞蒙古自治州,孔雀公园,颗粒物(PM10),108,166,110,48,32,0,,86,48,88,35,8,9,1.1,0.7
2025-10-22T0000,1957A,86.1972,41.7166,巴音郭楞蒙古自治州,棉纺厂,颗粒物(PM10),120,190,126,22,24,13,,88,54,56,29,5,7,0.7,0.7
2025-10-22T0000,1958A,86.2357,41.7173,巴音郭楞蒙古自治州,经济开发区,颗粒物(PM10),80,109,106,20,22,30,,83,52,31,18,5,7,0.6,0.6
2025-10-22T0000,2914A,106.7677,31.8794,巴中市,苏山坪,,,,,,,,,,,,,,,,
2025-10-22T0000,3181A,106.7768,31.8526,巴中市,市五中,,15,15,9,8,6,13,,50,27,8,8,7,7,0.6,0.7
2025-10-22T0000,3183A,106.7418,31.8654,巴中市,圣泉水务公司,,8,8,6,3,4,25,,52,28,8,8,8,7,0.6,0.6
2025-10-22T0000,3616A,106.7616,31.8344,巴中市,市中心医院,,13,13,6,3,4,4,,52,21,21,13,10,10,0.8,0.6
2025-10-22T0000,2235A,122.7911,45.6077,白城市,洮北区环保局,,26,26,27,14,15,37,,66,38,13,17,4,4,0.3,0.4
2025-10-22T0000,2236A,122.8738,45.5725,白城市,市环保局,,35,27,24,24,17,29,,68,24,22,20,4,4,0.6,0.5
2025-10-22T0000,2231A,126.4219,41.9171,白山市,喜丰,颗粒物(PM10),93,136,86,25,23,14,,66,33,45,30,10,11,0.7,0.6
2025-10-22T0000,2232A,126.4077,41.9419,白山市,环保局,,42,42,38,28,24,32,,70,44,17,18,7,9,0.5,0.5
2025-10-22T0000,2647A,104.1724,36.5446,白银市,第三小学,细颗粒物(PM2.5),69,53,61,50,46,28,,51,40,19,23,9,21,0.7,0.8
2025-10-22T0000,2648A,104.1465,36.5482,白银市,动力公司,细颗粒物(PM2.5),64,61,57,46,42,36,,87,48,19,22,8,13,0.6,0.6
2025-10-22T0000,2512A,106.6103,23.9011,百色市,市监测站,,15,11,10,3,4,46,,52,50,11,9,6,6,0.3,0.4
2025-10-22T0000,2513A,106.6538,23.8859,百色市,市中心血站,,16,6,12,3,4,49,,51,50,13,12,5,6,0.5,0.6
2025-10-22T0000,3406A,106.6085,23.8798,百色市,祈福高中,,,14,11,6,6,,,49,48,15,11,6,5,0.7,0.5
2025-10-22T0000,2270A,117.396,32.939,蚌埠市,工人疗养院,,38,38,27,17,13,56,,65,62,14,10,5,5,0.3,0.3
2025-10-22T0000,2271A,117.3605,32.9427,蚌埠市,百货大楼,,40,40,22,19,14,54,,62,55,17,13,7,7,0.3,0.3
2025-10-22T0000,2273A,117.4185,32.8911,蚌埠市,蚌埠学院,,30,27,22,21,15,58,,65,62,17,12,4,4,0.2,0.2
2025-10-22T0000,2274A,117.3533,32.9673,蚌埠市,淮上区政府,,34,34,26,22,16,40,,67,51,25,14,6,6,0.3,0.2
2025-10-22T0000,2275A,117.3145,32.8977,蚌埠市,高新区,,43,34,22,30,17,41,,62,47,26,19,9,8,0.4,0.3
2025-10-22T0000,3715A,117.3092,32.9314,蚌埠市,蚌埠田家炳中学,颗粒物(PM10),51,51,33,25,16,34,,63,42,29,17,4,3,0.3,0.3
2025-10-22T0000,1585A,109.8756,40.6532,包头市,市环境监测站,颗粒物(PM10),53,56,40,25,14,14,,45,22,44,35,11,13,0.8,0.7
2025-10-22T0000,1587A,109.9991,40.5842,包头市,包头八中,细颗粒物(PM2.5),70,67,58,51,34,22,,49,32,46,42,14,14,0.9,1.1
2025-10-22T0000,1588A,109.8538,40.6821,包头市,青山宾馆,细颗粒物(PM2.5),60,52,31,43,23,15,,47,28,49,36,16,14,1.1,0.8
2025-10-22T0000,1589A,109.8642,40.6288,包头市,惠龙物流,颗粒物(PM10),59,67,37,34,17,16,,50,28,44,32,14,12,1.0,0.9
2025-10-22T0000,1590A,110.0377,40.5546,包头市,东河鸿龙湾,颗粒物(PM10),64,77,49,37,23,14,,53,28,71,46,22,14,1.1,0.9
2025-10-22T0000,3283A,109.9154,40.5685,包头市,滨河大厦,颗粒物(PM10),53,55,39,34,19,14,,51,29,45,37,10,11,0.7,0.7
2025-10-22T0000,3419A,109.9447,40.6261,包头市,包头市委党校,颗粒物(PM10),53,55,48,32,21,16,,49,28,46,42,19,16,1.1,0.8
2025-10-22T0000,3683A,109.8331,40.6576,包头市,昆区政府,细颗粒物(PM2.5),63,51,38,45,24,15,,47,29,40,31,13,14,0.9,0.8
2025-10-22T0000,1930A,107.185,34.3063,宝鸡市,庙沟村,,,,,,,,,,,,,,,,
2025-10-22T0000,1931A,107.0708,34.3017,宝鸡市,竹园沟,,38,,12,26,20,25,,39,26,12,14,7,7,0.4,0.4
2025-10-22T0000,1932A,107.1906,34.3672,宝鸡市,三陆医院,细颗粒物(PM2.5),57,,32,40,27,17,,40,23,24,18,5,6,0.5,0.5
2025-10-22T0000,1933A,107.1431,34.3547,宝鸡市,监测站,,49,,31,34,28,16,,41,23,22,16,6,6,0.5,0.5
2025-10-22T0000,1934A,107.1186,34.3739,宝鸡市,技工学校,细颗粒物(PM2.5),53,40,29,37,30,26,,39,23,18,18,4,4,0.5,0.6
2025-10-22T0000,1936A,107.2058,34.3497,宝鸡市,文理学院,,50,,29,35,25,15,,41,24,28,20,4,5,0.5,0.5
2025-10-22T0000,1937A,107.2386,34.3622,宝鸡市,三迪小学,细颗粒物(PM2.5),63,,30,45,31,14,,39,22,30,20,4,4,0.7,0.7
2025-10-22T0000,4308A,107.3898,34.3601,宝鸡市,陈仓区北开路21号,细颗粒物(PM2.5),57,44,34,40,31,21,,39,24,23,18,5,5,0.5,0.5
2025-10-22T0000,1051A,115.493,38.8632,保定市,游泳馆,细颗粒物(PM2.5),69,74,50,50,25,0,,40,15,63,40,3,2,0.4,0.3
2025-10-22T0000,1052A,115.5213,38.8959,保定市,华电二区,细颗粒物(PM2.5),58,59,45,41,29,1,,41,21,54,33,6,5,0.4,0.1
2025-10-22T0000,1053A,115.4713,38.9108,保定市,接待中心,"颗粒物(PM10),细颗粒物(PM2.5)",52,54,43,36,23,2,,39,18,49,34,4,4,0.2,0.1
2025-10-22T0000,1054A,115.4612,38.8416,保定市,地表水厂,颗粒物(PM10),67,83,56,39,23,1,,38,11,55,38,9,7,0.3,0.2
2025-10-22T0000,3581A,115.31981,38.95208,保定市,满城区生态环境分局,颗粒物(PM10),60,70,51,27,19,2,,48,19,40,33,3,3,0.6,0.5
2025-10-22T0000,3582A,115.47694,38.76408,保定市,清苑区第二中学,颗粒物(PM10),62,74,55,29,23,4,,42,17,62,41,3,3,0.5,0.4
2025-10-22T0000,3583A,115.62909,39.02311,保定市,徐水物探局,细颗粒物(PM2.5),53,47,37,37,26,2,,46,10,50,36,3,2,0.5,0.4
2025-10-22T0000,4004A,115.4202,38.8656,保定市,双鹰农机,颗粒物(PM10),72,93,54,37,27,5,,45,18,56,37,2,2,0.5,0.4
2025-10-22T0000,4034A,115.5150,38.8590,保定市,植保所站,颗粒物(PM10),67,83,62,47,34,0,,35,14,54,37,5,4,0.7,0.5
2025-10-22T0000,2594A,99.1678,25.1081,保山市,市环境监测站,,13,13,16,3,14,27,,68,43,7,6,6,7,0.5,0.5
2025-10-22T0000,2595A,99.1711,25.1328,保山市,市环保局,,17,17,16,10,8,39,,69,49,2,3,6,6,0.5,0.5
2025-10-22T0000,1866A,109.2262,21.588,北海市,牛尾岭水库,颗粒物(PM10),51,52,33,6,6,44,,65,58,12,10,2,3,0.6,0.6
2025-10-22T0000,1867A,109.1436,21.4086,北海市,海滩公园,,24,24,23,3,7,55,,80,71,8,8,7,7,0.5,0.5
2025-10-22T0000,1868A,109.0981,21.4661,北海市,新市环保局,,21,21,22,12,10,52,,82,72,8,8,5,5,0.4,0.4
2025-10-22T0000,1869A,109.1778,21.5233,北海市,北海工业园,,22,22,22,3,9,54,,79,70,10,9,6,6,0.2,0.2
2025-10-22T0000,3400A,109.1911,21.4415,北海市,龙潭自来水厂,,22,22,21,3,11,56,,77,70,7,7,6,6,0.5,0.5
2025-10-22T0000,1001A,116.3621,39.8784,北京市,万寿西宫,颗粒物(PM10),52,53,28,26,14,2,,56,25,62,32,1,2,0.5,0.4
2025-10-22T0000,1002A,116.2202,40.2915,北京市,定陵,,,,,,,,,,,,,,,,
2025-10-22T0000,1003A,116.4174,39.9289,北京市,东四,颗粒物(PM10),53,56,27,26,13,12,,58,31,48,24,2,2,0.6,0.4
2025-10-22T0000,1004A,116.4072,39.8863,北京市,天坛,,41,41,21,24,12,1,,56,18,42,24,1,1,0.5,0.4
2025-10-22T0000,1005A,116.462,39.9365,北京市,农展馆,,43,43,26,26,12,4,,57,27,41,24,3,3,0.4,0.2
2025-10-22T0000,1006A,116.3392,39.9295,北京市,官园,,47,47,28,23,14,0,,52,30,55,28,6,6,0.5,0.2
2025-10-22T0000,1007A,116.2878,39.9611,北京市,海淀万柳,,45,45,32,18,14,1,,48,13,49,37,3,4,0.5,0.4
2025-10-22T0000,1008A,116.6636,40.135,北京市,顺义新城,颗粒物(PM10),52,53,21,13,6,2,,64,20,46,26,2,4,0.5,0.2
2025-10-22T0000,1009A,116.6275,40.3275,北京市,怀柔镇,,19,17,12,13,8,29,,59,42,15,9,3,3,0.4,0.4
2025-10-22T0000,1010A,116.2296,40.217,北京市,昌平镇,,26,26,20,16,11,26,,57,31,20,20,4,4,0.4,0.3
2025-10-22T0000,1011A,116.3966,39.9821,北京市,奥体中心,,45,45,24,23,12,1,,53,26,57,30,5,4,0.5,0.2
2025-10-22T0000,3281A,115.9718,40.4529,北京市,延庆夏都,,26,26,26,15,14,30,,54,35,14,23,2,2,0.5,0.5
2025-10-22T0000,3418A,116.8336,40.4095,北京市,密云新城,,25,25,16,12,7,11,,66,28,12,10,1,1,0.3,0.3
2025-10-22T0000,3671A,116.088,39.9726,北京市,门头沟三家店,,42,42,29,15,13,3,,46,13,33,24,3,2,0.3,0.3
2025-10-22T0000,3672A,116.1541,39.8204,北京市,丰台云岗,,49,49,33,16,14,2,,52,12,48,29,2,2,0.2,0.2
2025-10-22T0000,3673A,116.6804,39.9081,北京市,通州东关,颗粒物(PM10),61,72,34,27,14,1,,57,19,65,37,5,4,0.4,0.3
2025-10-22T0000,3674A,115.9577,39.7603,北京市,房山燕山,,30,30,24,16,12,15,,43,26,18,15,1,2,0.3,0.3
2025-10-22T0000,3675A,116.4672,39.7733,北京市,大兴旧宫,颗粒物(PM10),53,56,29,19,10,1,,58,20,30,28,4,4,0.5,0.4
2025-10-22T0000,3694A,115.986,40.4563,北京市,延庆石河营,,29,29,28,17,15,22,,49,30,18,23,2,3,0.3,0.3
2025-10-22T0000,3695A,116.6151,40.3053,北京市,怀柔新城,,19,17,12,13,8,36,,63,47,6,4,3,3,0.2,0.2
2025-10-22T0000,3696A,116.2545,39.8768,北京市,丰台小屯,颗粒物(PM10),54,57,33,22,14,1,,49,13,45,33,3,3,0.5,0.4
2025-10-22T0000,3697A,116.84,40.3844,北京市,密云镇,,29,29,18,11,8,6,,71,24,37,21,4,5,0.3,0.3
2025-10-22T0000,4182A,116.1942,39.9158,北京市,八角北路9号,颗粒物(PM10),57,64,36,20,15,1,,45,14,42,29,3,2,0.3,0.1
2025-10-22T0000,4194A,117.0790,40.1518,北京市,洳河巡河路,,28,28,16,18,10,14,,69,30,15,16,3,3,0.3,0.2
2025-10-22T0000,1761A,123.8275,41.3064,本溪市,大峪,,49,49,41,32,20,2,,55,27,49,28,8,10,0.5,0.9
2025-10-22T0000,1762A,123.7567,41.3325,本溪市,溪湖,颗粒物(PM10),67,84,66,28,26,2,,53,17,46,38,4,8,0.7,0.9
2025-10-22T0000,1763A,123.7169,41.3094,本溪市,彩屯,,45,45,49,25,30,14,,49,18,30,33,6,9,0.6,1
2025-10-22T0000,1764A,123.7669,41.2864,本溪市,东明,颗粒物(PM10),57,63,56,36,29,2,,52,16,52,40,7,11,1.1,1.4
2025-10-22T0000,1765A,123.7992,41.2664,本溪市,新立屯,,24,22,39,16,20,8,,54,14,47,37,6,9,0.1,0.8
2025-10-22T0000,1766A,123.8142,41.3472,本溪市,威宁,颗粒物(PM10),60,69,54,40,27,2,,52,10,39,30,9,10,0.9,0.8
2025-10-22T0000,2587A,105.2864,27.3125,毕节市,八中,,9,8,6,6,5,19,,25,23,4,5,8,8,0.6,0.6
2025-10-22T0000,2588A,105.31,27.2944,毕节市,师专,,12,9,8,8,5,27,,32,31,7,7,8,7,0.7,0.7
2025-10-22T0000,4263A,105.3688,27.3598,毕节市,工业大道,,15,10,6,10,4,27,,35,33,5,7,9,8,0.6,0.7
2025-10-22T0000,1629A,118.0018,37.3617,滨州市,第二水厂,,34,34,32,19,15,26,,63,41,44,31,14,11,0.3,0.1
2025-10-22T0000,1630A,117.9776,37.393,滨州市,北中新校,,36,36,31,7,13,7,,68,33,38,35,5,8,0.6,0.5
2025-10-22T0000,3514A,117.9378,37.3956,滨州市,中海酒店,,27,27,28,17,17,29,,65,42,26,34,3,7,0.6,0.6
2025-10-22T0000,3515A,117.9378,37.3553,滨州市,开发区一中,,34,34,34,19,16,47,,80,58,28,32,6,6,0.6,0.6
2025-10-22T0000,3516A,118.0917,37.694,滨州市,金海六路,,22,22,28,12,9,35,,74,42,30,30,4,6,0.6,0.6
2025-10-22T0000,4028A,117.9956,37.3753,滨州市,滨州市西街道办事处,,41,41,33,19,19,34,,71,45,34,33,17,10,0.7,0.4
2025-10-22T0000,2311A,115.8072,33.8399,亳州市,污水处理厂,细颗粒物(PM2.5),72,73,59,52,40,38,,68,49,34,24,11,8,0.5,0.4
2025-10-22T0000,2312A,115.7789,33.8518,亳州市,三国揽胜宫,"颗粒物(PM10),细颗粒物(PM2.5)",55,59,50,39,33,46,,73,63,26,20,6,5,0.6,0.5
2025-10-22T0000,3332A,115.7633,33.8034,亳州市,亳州学院,"颗粒物(PM10),细颗粒物(PM2.5)",58,65,61,41,43,57,,77,72,21,19,8,6,0.4,0.4
2025-10-22T0000,2693A,82.0485,44.8556,博尔塔拉蒙古自治州,市党校,,50,36,68,35,48,35,,63,58,18,24,6,9,0.2,0.5
2025-10-22T0000,2694A,82.0806,44.8969,博尔塔拉蒙古自治州,市环保局,颗粒物(PM10),55,59,77,29,31,23,,57,49,32,27,7,9,0.7,0.7
2025-10-22T0000,1071A,116.8842,38.2991,沧州市,沧县城建局,颗粒物(PM10),69,88,54,38,33,3,,57,23,61,43,4,10,0.5,0.5
2025-10-22T0000,1072A,116.8584,38.3254,沧州市,电视转播站,颗粒物(PM10),57,64,51,34,31,2,,62,28,50,35,3,4,0.5,0.6
2025-10-22T0000,1073A,116.8709,38.3228,沧州市,市环保局,细颗粒物(PM2.5),67,72,56,48,40,2,,61,27,62,42,2,6,0.7,0.6
2025-10-22T0000,3324A,116.8136,38.3004,沧州市,河北水利电力学院,颗粒物(PM10),60,70,53,31,29,6,,63,28,58,35,2,9,0.5,0.6
2025-10-22T0000,2622A,97.1806,31.1273,昌都市,昌都监测站,颗粒物(PM10),55,59,29,27,16,9,,75,25,59,31,3,3,0.8,0.7
2025-10-22T0000,3719A,97.1714,31.1406,昌都市,昌都会议中心,,34,34,20,15,10,48,,86,66,26,13,3,3,0.5,0.3
2025-10-22T0000,2690A,88.1236,43.8886,昌吉回族自治州,天山天池,,,,,,,,,,,,,,,,
2025-10-22T0000,2692A,87.2717,44.0297,昌吉回族自治州,新区政务中心,颗粒物(PM10),79,107,79,33,27,2,,72,38,74,41,7,10,1.0,0.6
2025-10-22T0000,3613A,87.3095,44.0142,昌吉回族自治州,亚心广场,颗粒物(PM10),101,151,109,53,36,6,,77,51,72,39,9,11,0.9,0.6
2025-10-22T0000,1120A,125.2863,43.9027,长春市,客车厂,细颗粒物(PM2.5),83,83,43,61,29,6,,50,12,62,42,9,20,1.1,0.6
2025-10-22T0000,1121A,125.2841,43.8463,长春市,邮电学院,细颗粒物(PM2.5),73,89,42,53,23,6,,60,18,58,39,7,9,0.8,0.5
2025-10-22T0000,1122A,125.3716,43.8772,长春市,劳动公园,细颗粒物(PM2.5),97,76,43,72,29,3,,61,,58,41,9,11,1.0,0.5
2025-10-22T0000,1123A,125.3297,43.8805,长春市,园林处,细颗粒物(PM2.5),67,76,35,48,21,6,,53,16,62,42,5,5,0.8,0.4
2025-10-22T0000,1124A,125.4605,43.79,长春市,净月潭,颗粒物(PM10),54,58,32,37,23,25,,54,31,27,24,6,6,0.4,0.3
2025-10-22T0000,1125A,125.7194,43.515,长春市,甩湾子,细颗粒物(PM2.5),74,69,34,54,28,7,,68,32,38,21,4,4,0.8,0.5
2025-10-22T0000,1126A,125.3863,43.8447,长春市,经开区环卫处,细颗粒物(PM2.5),85,95,41,63,21,4,,50,13,55,40,7,7,0.8,0.5
2025-10-22T0000,1127A,125.245,43.7783,长春市,高新区管委会,细颗粒物(PM2.5),85,83,44,63,30,9,,62,18,56,37,7,8,0.6,0.4
2025-10-22T0000,1128A,125.1761,43.8325,长春市,岱山公园,细颗粒物(PM2.5),95,104,43,71,30,4,,52,12,71,39,11,6,0.8,0.4
2025-10-22T0000,4281A,125.3346,43.9164,长春市,北亚泰大街1068号,细颗粒物(PM2.5),82,93,42,60,28,2,,52,9,67,45,9,16,1.0,0.5
2025-10-22T0000,1335A,113.0833,28.2325,长沙市,经开区环保局,,20,18,18,14,13,44,,38,38,14,15,4,4,0.4,0.5
2025-10-22T0000,1336A,112.8872,28.2189,长沙市,高开区环保局,,28,26,19,19,13,48,,43,43,13,14,5,5,0.3,0.3
2025-10-22T0000,1337A,113.0792,28.2053,长沙市,马坡岭,,20,20,17,13,12,49,,43,43,6,10,4,4,0.4,0.5
2025-10-22T0000,1338A,112.9394,28.19,长沙市,湖南师范大学,,23,18,17,16,14,48,,42,42,10,11,3,3,0.5,0.5
2025-10-22T0000,1339A,113.0178,28.1322,长沙市,雨花区环保局,,26,20,18,18,15,38,,33,33,16,17,7,6,0.3,0.4
2025-10-22T0000,1340A,112.9792,28.2597,长沙市,伍家岭,,26,21,18,18,9,46,,39,39,12,14,4,4,0.3,0.4
2025-10-22T0000,1341A,113.0014,28.1944,长沙市,火车新站,,25,20,18,17,13,43,,37,36,17,17,8,8,0.3,0.3
2025-10-22T0000,1342A,112.9844,28.1178,长沙市,天心区环保局,,23,21,17,16,14,48,,43,43,12,13,4,5,0.1,0.2
2025-10-22T0000,1343A,112.8908,28.1308,长沙市,湖南中医药大学,,25,25,18,15,8,46,,42,42,12,13,4,4,0.4,0.6
2025-10-22T0000,1344A,112.9581,28.3611,长沙市,沙坪,,,,,,,,,,,,,,,,
2025-10-22T0000,1727A,113.1147,36.1547,长治市,清华站,,45,41,65,31,50,48,,36,36,20,27,15,11,0.5,1
2025-10-22T0000,1730A,113.0886,36.2125,长治市,审计局,细颗粒物(PM2.5),52,,47,36,51,46,,34,34,24,24,9,7,0.3,0.7
2025-10-22T0000,1731A,113.0844,36.1856,长治市,长治八中,,49,47,74,34,54,42,,30,30,22,22,10,8,0.5,0.8
2025-10-22T0000,2845A,113.1569,36.1911,长治市,德盛苑,,49,38,62,34,47,48,,31,31,17,23,6,4,0.7,1.1
2025-10-22T0000,3568A,113.06,36.0464,长治市,向阳小学,颗粒物(PM10),52,53,77,22,48,42,,42,42,30,26,3,6,0.5,1
2025-10-22T0000,3569A,112.8792,36.3144,长治市,屯留一中,,43,43,58,25,37,46,,34,28,18,21,10,8,0.8,0.9
2025-10-22T0000,4189A,113.1131,36.19948,长治市,英华南巷50号,细颗粒物(PM2.5),52,42,66,36,54,38,,30,30,26,26,13,6,0.8,1.1
2025-10-22T0000,4190A,113.2367,36.3344,长治市,学府街1号,,46,46,45,31,28,32,,35,26,23,29,10,14,0.7,1
2025-10-22T0000,1854A,111.6975,28.9703,常德市,市二中,,,,19,,16,53,,56,50,5,9,4,4,0.4,0.4
2025-10-22T0000,1857A,111.7158,29.1456,常德市,白鹤山,,,,,,,,,,,,,,,,
2025-10-22T0000,3138A,111.7153,29.0289,常德市,武陵区永安,,32,32,20,20,14,50,,58,48,13,13,4,4,0.4,0.5
2025-10-22T0000,3139A,111.6892,28.9881,常德市,鼎城区玉霞,,38,26,18,26,16,57,,60,53,4,5,5,5,0.5,0.5
2025-10-22T0000,3140A,111.6625,29.0531,常德市,武陵区长庚,,36,36,20,19,12,51,,57,50,8,7,3,2,0.5,0.5
2025-10-22T0000,1196A,119.9633,31.762,常州市,市监测站,,21,21,24,8,12,61,,61,61,13,13,8,8,0.4,0.4
2025-10-22T0000,1200A,119.9468,31.7069,常州市,武进监测站,,19,18,23,3,7,58,,59,59,15,16,8,4,0.3,0.3
2025-10-22T0000,1201A,119.9255,31.9087,常州市,安家,,22,21,26,6,9,69,,65,65,19,22,10,10,0.5,0.5
2025-10-22T0000,3002A,119.9805,31.8174,常州市,行政中心,,22,22,28,13,13,63,,62,62,14,15,6,6,0.5,0.5
2025-10-22T0000,3003A,120.0522,31.7748,常州市,经开区,,22,22,28,3,8,57,,62,55,20,18,9,8,0.4,0.4
2025-10-22T0000,3010A,119.9025,31.7964,常州市,钟楼,,23,23,28,3,10,67,,58,58,14,20,8,8,0.5,0.5
2025-10-22T0000,3429A,119.8598,31.7066,常州市,武进经发区,,32,32,28,15,14,34,,52,40,32,27,11,11,0.6,0.6
2025-10-22T0000,3430A,119.5826,31.7245,常州市,金坛城区,,18,18,24,9,13,54,,59,51,14,15,10,10,0.4,0.6
2025-10-22T0000,2220A,120.4318,41.5881,朝阳市,西梁,细颗粒物(PM2.5),82,,30,60,24,2,,68,20,49,33,2,3,1.2,0.7
2025-10-22T0000,2221A,120.4521,41.5646,朝阳市,河畔小区,,43,42,40,30,25,2,,68,28,48,28,4,6,0.7,0.5
2025-10-22T0000,2222A,120.4176,41.5648,朝阳市,八里堡,,45,35,50,31,28,1,,70,20,51,35,6,7,0.8,0.7
2025-10-22T0000,2223A,120.3806,41.5969,朝阳市,农业园区,,30,30,36,17,22,19,,74,35,36,27,4,4,0.4,0.5
2025-10-22T0000,1705A,116.6367,23.6719,潮州市,西园路,,,,,,,,,,,,,,,,
2025-10-22T0000,3026A,116.6183,23.6608,潮州市,市政府,,,,11,0,5,37,,44,38,2,2,5,5,0.1,0.2
2025-10-22T0000,4036A,116.6461,23.6761,潮州市,金山,,10,,14,3,6,32,,37,32,2,4,2,4,0.4,0.6
2025-10-22T0000,2472A,113.0073,25.9061,郴州市,马头岭,,,,,,,,,,,,,,,,
2025-10-22T0000,2473A,113.0116,25.8226,郴州市,市职中,,13,,6,9,6,15,,20,18,12,12,2,2,0.7,0.7
2025-10-22T0000,2475A,113.0383,25.8071,郴州市,市审计局,,9,,7,6,6,14,,23,20,15,11,9,9,0.3,0.2
2025-10-22T0000,2476A,113.0348,25.7759,郴州市,市环保局,,10,,11,7,4,16,,25,21,14,11,1,2,0.3,0.5
2025-10-22T0000,4252A,113.0138,25.8011,郴州市,好美居路49号,,8,6,6,3,4,25,,29,27,15,14,6,6,0.5,0.5
2025-10-22T0000,1431A,103.9728,30.7236,成都市,金泉两河,,16,16,14,3,3,21,,36,29,22,17,2,2,0.4,0.5
2025-10-22T0000,1432A,104.176,30.6872,成都市,十里店,,14,14,10,3,4,32,,43,34,15,17,3,3,0.5,0.6
2025-10-22T0000,1433A,104.079,30.5706,成都市,三瓦窑,,25,25,15,14,5,30,,47,37,19,15,4,4,0.5,0.6
2025-10-22T0000,1434A,104.1114,30.63,成都市,沙河铺,,19,19,18,12,11,25,,39,28,33,27,4,3,0.5,0.5
2025-10-22T0000,1437A,104.0786,30.6531,成都市,君平街,,,18,17,11,7,,,38,33,13,14,4,4,0.4,0.5
2025-10-22T0000,1438A,103.613,31.0283,成都市,灵岩寺,,,,,,,,,,,,,,,,
2025-10-22T0000,2880A,104.0239,30.65639,成都市,大石西路,,22,17,15,15,8,29,,40,36,20,18,2,2,0.4,0.4
2025-10-22T0000,3136A,104.2725,30.5589,成都市,龙泉驿区区政府,,12,6,3,3,1,38,,47,43,10,12,5,5,0.5,0.5
2025-10-22T0000,3357A,104.0106,30.6931,成都市,金博路,,11,6,6,3,3,28,,37,34,21,19,6,6,0.5,0.5
2025-10-22T0000,3359A,104.0578,30.5225,成都市,华阳,,12,12,9,7,8,36,,40,33,15,16,4,4,0.5,0.5
2025-10-22T0000,3488A,104.3880,30.7467,成都市,青石路225号,,20,20,13,3,6,24,,44,32,17,13,2,3,0.6,0.6
2025-10-22T0000,3489A,104.0789,30.4072,成都市,科学城,,11,8,9,6,6,35,,44,38,10,12,4,4,0.5,0.5
2025-10-22T0000,4011A,103.8506,30.6947,成都市,光华大道三段,,29,29,15,3,7,18,,42,24,30,22,2,2,0.7,0.6
2025-10-22T0000,4224A,104.2433,30.5353,成都市,鲸龙路1057号,,13,9,9,8,5,41,,45,40,13,16,5,5,0.5,0.5
2025-10-22T0000,1062A,117.9531,40.9081,承德市,铁路,,24,24,31,9,11,19,,53,23,19,21,2,4,0.5,0.4
2025-10-22T0000,1063A,117.9392,40.9763,承德市,中国银行,,39,36,30,27,12,5,,59,21,33,24,2,2,0.7,0.4
2025-10-22T0000,1064A,117.9503,40.928,承德市,开发区,,42,42,37,17,17,3,,58,23,39,25,3,3,0.5,0.3
2025-10-22T0000,1066A,117.9268,41.0026,承德市,离宫,,,,,,,,,,,,,,,,
2025-10-22T0000,4274A,117.7994,40.9605,承德市,滨河大街98号,,34,34,23,10,12,12,,69,28,34,20,3,5,0.3,0.3
2025-10-22T0000,2314A,117.47,30.6618,池州市,池州学院,,26,25,24,18,15,51,,57,54,12,14,6,6,0.3,0.3
2025-10-22T0000,3237A,117.4918,30.6617,池州市,展览馆,,28,28,28,16,16,51,,56,54,16,19,11,10,0.5,0.5
2025-10-22T0000,3333A,117.5627,30.695,池州市,第八中学,,28,28,29,14,14,46,,55,50,13,17,8,8,0.4,0.6
2025-10-22T0000,3334A,117.5038,30.6243,池州市,第十二中学,,26,26,27,15,14,49,,55,52,17,20,7,8,0.6,0.6
2025-10-22T0000,1744A,118.9233,42.2816,赤峰市,松山一中,颗粒物(PM10),59,68,44,38,21,3,,71,20,52,37,11,11,0.8,0.7
2025-10-22T0000,1745A,118.9576,42.2728,赤峰市,哈达街,细颗粒物(PM2.5),70,84,38,51,22,8,,74,32,48,31,8,9,0.9,0.5
2025-10-22T0000,1746A,118.8788,42.2554,赤峰市,天义路,细颗粒物(PM2.5),68,57,30,49,27,8,,63,20,45,30,11,10,0.6,0.5
2025-10-22T0000,3058A,119.2658,42.0353,赤峰市,银河街,颗粒物(PM10),63,76,52,27,27,2,,53,19,48,30,17,18,1.0,0.8
2025-10-22T0000,3286A,118.9359,42.3147,赤峰市,桥北物流园区,颗粒物(PM10),51,52,31,25,21,4,,68,21,45,32,10,9,0.5,0.4
2025-10-22T0000,2521A,107.3476,22.4136,崇左市,市环保局江州分局,,13,10,15,6,7,40,,48,43,4,6,1,2,0.5,0.5
2025-10-22T0000,4256A,107.3750,22.3736,崇左市,石景林东路7号,,14,8,8,3,4,44,,58,54,9,7,5,5,0.5,0.5
2025-10-22T0000,2298A,118.3093,32.3153,滁州市,老年大学,,,,24,21,18,30,,60,47,13,8,3,2,0.2,0.2
2025-10-22T0000,2299A,118.3244,32.2786,滁州市,人大宾馆,,29,29,23,15,15,42,,60,51,10,6,4,4,0.2,0.2
2025-10-22T0000,3207A,118.3118,32.3038,滁州市,市政府原办公楼,,30,30,24,18,18,37,,59,48,16,10,5,5,0.2,0.2
2025-10-22T0000,3331A,118.3267,32.2634,滁州市,图书馆,,25,22,19,17,15,43,,62,53,14,10,5,6,0.3,0.3
2025-10-22T0000,2605A,101.5482,25.0441,楚雄彝族自治州,州环境监测站,,26,,15,18,13,17,,39,19,12,9,8,16,0.8,0.8
2025-10-22T0000,2606A,101.538,25.0492,楚雄彝族自治州,市经济开发区,,28,28,20,16,13,17,,37,21,17,12,7,8,0.9,0.8
2025-10-22T0000,2548A,107.5277,31.2827,达州市,达州职业技术学院,,,,,,,,,,,,,,,,
2025-10-22T0000,2549A,107.5086,31.2186,达州市,市环境监测站,,14,12,15,3,1,3,,28,12,28,18,5,8,0.4,0.4
2025-10-22T0000,2550A,107.4988,31.2132,达州市,凤凰小区,,14,12,9,3,2,8,,48,28,27,16,5,5,0.4,0.3
2025-10-22T0000,2551A,107.5082,31.1986,达州市,达县机关宾馆,,17,7,8,3,5,0,,43,20,33,21,6,5,0.4,0.4
2025-10-22T0000,2552A,107.4644,31.2124,达州市,市政中心,,23,23,17,3,1,17,,48,28,21,16,10,8,0.4,0.4
2025-10-22T0000,2614A,100.1542,25.7054,大理白族自治州,大理市环境监测站,,25,23,11,17,10,3,,67,31,40,14,5,5,0.7,0.7
2025-10-22T0000,2615A,100.2171,25.5811,大理白族自治州,大理古城,,22,22,14,11,10,31,,68,45,15,9,6,6,0.7,0.7
2025-10-22T0000,1109A,121.612,38.9741,大连市,甘井子,,24,24,20,16,11,58,,71,63,21,21,7,8,0.7,0.6
2025-10-22T0000,1110A,121.565,38.9511,大连市,周水子,,20,19,21,13,11,62,,76,69,22,27,9,9,0.3,0.3
2025-10-22T0000,1111A,121.5637,38.8845,大连市,星海三站,,25,19,18,17,12,59,,72,65,11,10,8,6,0.3,0.3
2025-10-22T0000,1112A,121.6302,38.9117,大连市,青泥洼桥,,31,31,23,18,10,58,,68,62,17,16,11,11,0.3,0.2
2025-10-22T0000,1113A,121.6251,38.8638,大连市,傅家庄,,22,20,16,15,9,61,,70,65,13,12,5,5,1.0,0.9
2025-10-22T0000,1114A,121.5213,38.8661,大连市,七贤岭,,21,20,19,11,9,66,,75,70,14,16,7,7,0.5,0.3
2025-10-22T0000,1115A,121.2529,38.8061,大连市,旅顺,,20,15,14,12,9,62,,68,64,8,9,9,9,0.3,0.2
2025-10-22T0000,1116A,121.7485,39.1311,大连市,金州,,23,23,20,14,11,64,,76,69,20,18,11,8,0.4,0.3
2025-10-22T0000,1117A,121.7811,39.0496,大连市,开发区,,23,17,15,7,9,72,,69,68,6,10,4,5,0.4,0.4
2025-10-22T0000,1118A,121.9762,39.0631,大连市,双D港,,26,26,22,13,9,72,,79,73,9,10,8,8,1.1,1
2025-10-22T0000,1789A,124.81117,46.03138,大庆市,大同区,,41,41,29,18,15,17,,54,26,27,18,9,7,0.5,0.5
2025-10-22T0000,1790A,125.129,46.533,大庆市,龙凤区,颗粒物(PM10),57,64,42,15,15,7,,58,28,59,27,11,11,0.8,0.6
2025-10-22T0000,1791A,124.902,46.408,大庆市,红岗区,,48,48,33,21,18,38,,64,31,10,9,6,6,0.8,0.5
2025-10-22T0000,1792A,125.153,46.586,大庆市,萨尔图区,颗粒物(PM10),55,60,43,37,19,15,,58,19,57,33,10,10,0.6,0.4
2025-10-22T0000,1793A,124.9042,46.6215,大庆市,让胡路区,颗粒物(PM10),51,51,35,31,23,24,,60,20,38,24,6,7,0.5,0.5
2025-10-22T0000,3481A,125.141,46.634,大庆市,萨区政府监测点,,44,44,31,17,8,25,,61,24,36,20,9,8,0.6,0.4
2025-10-22T0000,1721A,113.3819,40.1097,大同市,果树场,颗粒物(PM10),52,54,41,18,23,11,,59,17,25,31,6,7,0.9,0.7
2025-10-22T0000,1723A,113.2994,40.0758,大同市,云冈宾馆,颗粒物(PM10),64,78,46,39,23,3,,53,26,52,30,6,11,0.8,0.8
2025-10-22T0000,1724A,113.3444,40.0917,大同市,大同大学,,,,40,,20,,,,,,32,,19,,0.6
2025-10-22T0000,1725A,113.2661,40.1269,大同市,安家小村,,49,49,55,34,26,29,,60,,35,33,6,8,0.4,0.8
2025-10-22T0000,1726A,113.2711,40.0844,大同市,教育学院,颗粒物(PM10),61,72,47,39,25,2,,55,25,53,36,6,8,0.9,0.9
2025-10-22T0000,3282A,113.3397,40.0597,大同市,大同市卫生学校,颗粒物(PM10),56,62,37,28,19,3,,57,21,63,35,4,8,0.5,0.5
2025-10-22T0000,3565A,113.1367,40.1122,大同市,云冈站,颗粒物(PM10),75,100,57,45,27,2,,56,19,32,29,7,12,0.6,0.7
2025-10-22T0000,3566A,113.1186,40.2556,大同市,图书馆,颗粒物(PM10),63,76,60,33,30,7,,58,24,29,25,5,8,0.7,0.7
2025-10-22T0000,3567A,113.5931,40.0461,大同市,区一中,,42,42,29,24,16,53,,68,55,14,14,4,6,0.5,0.5
2025-10-22T0000,4199A,113.2798,40.0997,大同市,魏都大道141号,颗粒物(PM10),80,110,54,54,29,6,,60,31,61,35,7,8,1.0,0.8
2025-10-22T0000,2269A,124.1069,50.4097,大兴安岭地区,科技局,,23,19,21,16,14,39,,63,44,4,6,3,4,0.2,0.3
2025-10-22T0000,3663A,124.1164,50.4278,大兴安岭地区,红旗社区,,35,29,12,24,8,10,,65,28,21,11,4,4,0.5,0.4
2025-10-22T0000,1600A,124.3303,40.0625,丹东市,江湾东路,,35,34,25,24,16,59,,63,52,17,19,9,10,0.5,0.6
2025-10-22T0000,1601A,124.4256,40.1503,丹东市,临江后街,,29,29,23,18,11,64,,63,55,10,15,6,7,0.4,0.4
2025-10-22T0000,1602A,124.3933,40.1461,丹东市,元宝山,,28,28,23,18,11,61,,65,50,13,14,10,10,0.4,0.4
2025-10-22T0000,1603A,124.3633,40.1092,丹东市,民主桥,,33,33,26,20,13,59,,60,47,14,21,6,7,0.5,0.5
2025-10-22T0000,3541A,109.5726,19.5167,儋州市,第一中学子站,,18,18,20,7,9,45,,52,48,5,6,3,3,0.8,0.7
2025-10-22T0000,3542A,109.5567,19.5187,儋州市,东坡学校子站,,18,18,20,8,8,54,,63,58,6,7,5,5,0.4,0.4
2025-10-22T0000,2616A,98.5842,24.428,德宏傣族景颇族自治州,德宏州监测站,,30,30,27,20,16,21,,63,44,17,13,7,10,0.5,0.5
2025-10-22T0000,3677A,98.5881,24.4368,德宏傣族景颇族自治州,芒市人民政府综合楼,,29,29,30,15,12,24,,66,42,9,10,8,9,0.5,0.6
2025-10-22T0000,1901A,104.4239,31.1208,德阳市,东山公园,,13,9,6,9,7,30,,46,41,9,7,2,2,0.7,0.6
2025-10-22T0000,1902A,104.3826,31.1317,德阳市,西小区,,25,21,17,17,7,34,,46,43,13,9,3,3,0.1,0.6
2025-10-22T0000,1904A,104.3553,31.1091,德阳市,耐火材料厂,,22,19,13,15,8,34,,47,43,13,15,3,2,0.7,0.7
2025-10-22T0000,3639A,104.4019,31.1244,德阳市,市教育局,,15,15,10,9,7,29,,46,39,13,9,3,3,0.7,0.7
2025-10-22T0000,1622A,116.3032,37.4674,德州市,儿童乐园,颗粒物(PM10),62,73,59,27,24,4,,60,20,67,48,9,12,0.5,0.6
2025-10-22T0000,1624A,116.2991,37.4451,德州市,监理站,颗粒物(PM10),52,53,44,17,20,11,,66,36,74,51,10,13,0.4,0.5
2025-10-22T0000,3066A,116.2721,37.4379,德州市,九衢泉纯净水厂,,46,46,45,19,20,16,,56,29,49,38,8,12,0.2,0.4
2025-10-22T0000,3371A,116.3728,37.4403,德州市,开发区人民医院,颗粒物(PM10),60,70,48,34,22,3,,56,21,73,49,16,13,0.7,0.7
2025-10-22T0000,3511A,116.5652,37.3319,德州市,陵城艺术中心,颗粒物(PM10),58,66,57,36,24,0,,51,16,52,38,15,9,0.7,0.5
2025-10-22T0000,4292A,116.3525,37.4209,德州市,新河东路,,,,,,,,,,,,,,,,
2025-10-22T0000,2621A,99.7056,27.8317,迪庆藏族自治州,迪庆州站,,26,24,19,18,14,43,,90,71,14,7,6,6,0.4,0.3
2025-10-22T0000,3180A,99.7136,27.8094,迪庆藏族自治州,质量技术监督局,,23,19,20,16,16,53,,95,77,14,11,7,8,0.5,0.4
2025-10-22T0000,4257A,104.6092,35.5962,定西市,将台街,,27,27,26,17,14,40,,54,47,16,10,7,7,0.4,0.4
2025-10-22T0000,4309A,104.6159,35.5701,定西市,正龙路62号,,36,36,30,25,16,36,,51,45,9,6,4,4,0.3,0.4
2025-10-22T0000,1389A,113.7547,23.0494,东莞市,莞城梨川,,15,6,5,3,3,48,,52,50,9,9,5,5,0.4,0.5
2025-10-22T0000,1390A,113.7944,23.0128,东莞市,东城石井,,15,6,7,3,3,46,,50,47,10,10,6,6,0.5,0.5
2025-10-22T0000,1391A,113.7383,22.9658,东莞市,南城西平,,13,6,8,3,2,40,,51,45,21,16,7,7,0.5,0.5
2025-10-22T0000,3319A,113.7338,23.0381,东莞市,万江金泰,,15,6,6,3,3,46,,49,48,8,9,4,5,0.5,0.7
2025-10-22T0000,3626A,113.7533,23.0202,东莞市,南城元岭,,16,6,6,3,2,50,,56,53,8,11,5,5,0.3,0.4
2025-10-22T0000,3627A,113.7875,23.0457,东莞市,东城主山,,16,6,6,3,1,49,,54,50,11,12,2,2,0.3,0.4
2025-10-22T0000,1666A,118.6614,37.4309,东营市,市环保局,,24,24,27,9,8,38,,76,52,34,26,7,9,0.8,0.7
2025-10-22T0000,3036A,118.6904,37.4338,东营市,开发区管委会,,30,30,32,17,13,34,,78,58,30,21,6,7,0.5,0.4
2025-10-22T0000,3365A,118.5719,37.565,东营市,垦利区民丰路,,19,19,25,9,11,47,,75,51,23,25,3,3,0.5,0.6
2025-10-22T0000,3498A,118.5055,37.8612,东营市,河口城区,,20,14,24,3,7,61,,82,64,24,26,6,6,0.2,0.3
2025-10-22T0000,3646A,118.4978,37.4623,东营市,胜利站,颗粒物(PM10),52,54,47,14,14,31,,74,42,45,37,8,11,0.5,0.4
2025-10-22T0000,3734A,118.35,37.26,东营市,理想之城,,46,46,36,24,16,5,,69,24,57,38,2,5,0.6,0.5
2025-10-22T0000,1591A,110.0023,39.8129,鄂尔多斯市,综合楼,颗粒物(PM10),51,51,55,27,26,10,,22,10,38,43,8,12,0.9,0.8
2025-10-22T0000,1592A,109.9486,39.8261,鄂尔多斯市,巴音孟克林场办事处,,49,44,63,34,33,20,,21,11,26,41,11,12,0.9,0.9
2025-10-22T0000,1593A,109.7736,39.5986,鄂尔多斯市,康泽苑,颗粒物(PM10),52,53,75,31,39,4,,12,7,37,42,4,5,0.6,0.7
2025-10-22T0000,1594A,109.8119,39.5989,鄂尔多斯市,华泰汽车城,,46,46,69,29,37,5,,8,4,37,45,6,7,0.8,0.7
2025-10-22T0000,1595A,109.9734,39.7884,鄂尔多斯市,奥林花园,颗粒物(PM10),56,61,64,29,29,9,,16,7,35,43,6,8,0.8,0.8
2025-10-22T0000,2436A,114.8938,30.3994,鄂州市,市政府,,27,27,33,12,9,31,,44,41,19,15,8,7,0.2,0.2
2025-10-22T0000,2437A,114.8989,30.3714,鄂州市,赵家坝,,18,18,16,7,5,45,,54,52,9,9,7,7,0.4,0.4
2025-10-22T0000,3654A,114.8094,30.4089,鄂州市,精准医疗中心,,18,17,16,12,7,43,,51,47,11,11,6,5,0.5,0.6
2025-10-22T0000,2454A,109.4978,30.2981,恩施土家族苗族自治州,湖北民院,,17,11,25,8,4,54,,60,58,6,7,7,6,0.3,0.4
2025-10-22T0000,2455A,109.4707,30.2798,恩施土家族苗族自治州,州电力总公司,,18,6,8,3,3,55,,50,49,6,6,5,5,0.5,0.6
2025-10-22T0000,3549A,109.5061,30.3772,恩施土家族苗族自治州,龙凤新区,,15,13,6,10,5,41,,49,26,2,4,6,6,0.3,0.4
2025-10-22T0000,2499A,108.3411,21.6158,防城港市,沙万,,16,12,21,8,10,51,,65,60,5,6,4,4,0.3,0.5
2025-10-22T0000,2500A,108.3514,21.7731,防城港市,防城档案局,,26,26,36,3,7,53,,62,59,7,8,5,5,0.5,0.5
2025-10-22T0000,2501A,108.3506,21.6414,防城港市,大海花园,,19,12,21,10,9,58,,69,65,6,6,4,4,0.5,0.5
2025-10-22T0000,1371A,113.1294,23.0067,佛山市,湾梁,,15,7,14,3,3,47,,50,50,23,22,7,7,0.4,0.5
2025-10-22T0000,1372A,113.1083,23.0478,佛山市,华材职中,,17,14,16,3,4,52,,54,54,9,12,6,6,0.5,0.6
2025-10-22T0000,1373A,113.144,23.0453,佛山市,南海气象局,,17,8,12,6,6,53,,55,55,16,16,8,7,0.6,0.7
2025-10-22T0000,1374A,113.2881,22.8094,佛山市,顺德苏岗,,12,,13,3,2,38,,44,41,18,16,6,7,0.4,0.5
2025-10-22T0000,1376A,112.8383,22.8678,佛山市,高明孔堂,,17,8,14,3,4,52,,54,52,13,13,3,2,0.2,0.3
2025-10-22T0000,1377A,112.8836,23.1588,佛山市,三水监测站,,16,7,11,3,3,50,,48,48,16,17,7,7,0.5,0.5
2025-10-22T0000,1378A,112.867,23.185,佛山市,三水云东海,,18,9,16,3,6,56,,54,54,10,13,5,5,0.4,0.5
2025-10-22T0000,3625A,113.2544,22.7642,佛山市,容桂街道办,,13,6,8,3,5,41,,48,44,18,17,5,6,0.6,0.8
2025-10-22T0000,1280A,119.3903,26.0543,福州市,鼓山,,,5,8,,3,61,,65,63,8,8,1,1,0.5,0.5
2025-10-22T0000,1282A,119.2681,26.0504,福州市,师大,,13,7,10,3,1,40,,52,40,16,13,5,5,0.4,0.4
2025-10-22T0000,1283A,119.2984,26.1028,福州市,五四北路,,14,9,14,3,1,43,,59,39,12,12,4,4,0.3,0.4
2025-10-22T0000,1284A,119.2648,26.0768,福州市,杨桥西路,,14,8,10,3,1,42,,53,41,10,10,3,3,0.3,0.3
2025-10-22T0000,1285A,119.317,26.0746,福州市,紫阳,,20,6,14,3,3,61,,59,50,7,11,7,6,0.3,0.3
2025-10-22T0000,3048A,119.5799,26.0936,福州市,九龙,,19,8,10,3,2,59,,62,58,10,10,4,4,0.4,0.4
2025-10-22T0000,3526A,119.5189,25.9664,福州市,吴航,,19,7,11,3,6,60,,66,61,8,8,4,5,0.5,0.5
2025-10-22T0000,1755A,123.7977,41.8491,抚顺市,望花区,颗粒物(PM10),95,139,76,69,40,2,,53,15,51,37,10,12,1.2,1.1
2025-10-22T0000,1756A,123.9161,41.8822,抚顺市,顺城区,"颗粒物(PM10),细颗粒物(PM2.5)",59,68,61,42,37,2,,56,17,47,37,8,8,0.8,0.8
2025-10-22T0000,1757A,124.0436,41.8611,抚顺市,东洲区,细颗粒物(PM2.5),72,74,59,52,43,24,,58,32,24,28,8,11,0.8,0.9
2025-10-22T0000,1758A,123.9247,41.8642,抚顺市,新抚区,细颗粒物(PM2.5),77,87,68,56,39,2,,57,16,43,33,7,9,1.0,1
2025-10-22T0000,1759A,124.0972,41.8961,抚顺市,大伙房水库,细颗粒物(PM2.5),62,64,63,44,44,5,,62,32,60,38,10,12,0.6,0.7
2025-10-22T0000,1760A,123.7086,41.8391,抚顺市,沈抚新城,细颗粒物(PM2.5),82,71,54,60,36,2,,57,19,42,30,8,8,0.8,0.6
2025-10-22T0000,2376A,116.2127,28.0814,抚州市,桐源党溪,,,,,,,,,,,,,,,,
2025-10-22T0000,2377A,116.3544,27.9831,抚州市,市站,,18,18,31,12,12,46,,70,56,7,6,2,2,0.7,0.5
2025-10-22T0000,2378A,116.3565,27.963,抚州市,血防站,,25,25,32,14,12,47,,73,57,8,8,6,7,0.4,0.3
2025-10-22T0000,2379A,116.3564,28.0007,抚州市,采茶剧团,,25,25,30,11,10,46,,74,57,6,4,6,6,0.3,0.3
2025-10-22T0000,2380A,116.385,27.9647,抚州市,医学分院,,,,42,16,13,,,74,,5,4,4,9,0.6,0.4
2025-10-22T0000,2207A,121.6094,41.998,阜新市,工业园区,颗粒物(PM10),56,61,44,35,24,4,,68,16,46,30,7,9,0.5,0.4
2025-10-22T0000,2208A,121.6697,42.0279,阜新市,长青街,细颗粒物(PM2.5),88,93,36,65,19,2,,70,23,49,25,15,8,2.7,0.6
2025-10-22T0000,2209A,121.6673,42.0705,阜新市,农业园区,,35,,17,24,6,44,,69,56,16,10,7,4,0.6,0.3
2025-10-22T0000,2210A,121.6717,42.0224,阜新市,东苑,颗粒物(PM10),89,128,56,55,20,2,,68,20,53,28,22,9,3.1,0.7
2025-10-22T0000,2211A,121.6506,42.0498,阜新市,玉龙新城,颗粒物(PM10),54,57,47,23,18,3,,70,16,46,31,8,8,0.6,0.4
2025-10-22T0000,2301A,115.8277,32.8929,阜阳市,市监测站,,,59,37,37,25,4,,70,46,78,31,6,5,,0.3
2025-10-22T0000,2303A,115.8554,32.8605,阜阳市,开发区,,46,46,43,24,26,21,,68,40,35,22,8,8,0.5,0.5
2025-10-22T0000,2875A,115.784,32.8892,阜阳市,阜阳职业技术学院,,45,45,29,28,27,3,,65,44,58,27,6,6,0.5,0.3
2025-10-22T0000,3468A,115.7901,32.8613,阜阳市,市规划展馆,,28,28,29,11,17,66,,76,68,17,16,6,5,0.4,0.4
2025-10-22T0000,3469A,115.836,32.9183,阜阳市,枣园社区,颗粒物(PM10),58,65,33,39,22,8,,68,33,64,28,16,8,0.4,0.3
2025-10-22T0000,2669A,102.9099,34.9841,甘南藏族自治州,州政府,,24,24,25,15,18,40,,67,56,15,12,3,4,0.3,0.2
2025-10-22T0000,3380A,102.8914,34.9617,甘南藏族自治州,甘肃民族师范学院,,37,37,22,12,13,18,,66,49,43,16,4,5,0.4,0.3
2025-10-22T0000,2570A,101.9603,30.0475,甘孜藏族自治州,水桥子,,16,6,7,3,5,15,,60,44,31,12,7,8,0.7,0.6
2025-10-22T0000,3065A,101.9533,29.9972,甘孜藏族自治州,州环保局,,12,,7,8,5,29,,65,46,24,12,5,5,0.6,0.6
2025-10-22T0000,3414A,115.8347,28.932,赣江新区,桑海产业园,,29,29,31,14,14,49,,55,52,12,11,4,3,0.1,0.2
2025-10-22T0000,2362A,114.9017,25.9149,赣州市,通天岩,,28,28,22,19,12,53,,51,51,5,6,16,16,0.4,0.5
2025-10-22T0000,2363A,114.9367,25.8664,赣州市,地委,,38,38,32,18,12,45,,44,44,10,11,5,5,0.5,0.5
2025-10-22T0000,2364A,114.9461,25.8481,赣州市,气象台,颗粒物(PM10),65,80,38,14,11,51,,47,47,7,11,6,5,0.5,0.6
2025-10-22T0000,2365A,114.9322,25.8333,赣州市,市图书馆,,23,23,22,14,13,51,,49,49,10,12,5,5,0.6,0.7
2025-10-22T0000,2366A,114.8905,25.8471,赣州市,华坚鞋城,,27,27,22,16,13,48,,48,48,10,12,4,4,0.5,0.5
2025-10-22T0000,3109A,115.0093,25.8613,赣州市,赣县区卫计委,,29,,13,20,15,50,,48,48,4,6,7,7,0.5,0.5
2025-10-22T0000,2683A,106.2319,36.1417,固原市,马园,,,,,,,,,,,,,,,,
2025-10-22T0000,2684A,106.2792,36.0022,固原市,监测站,,15,10,11,10,9,38,,40,40,11,10,4,4,0.6,0.6
2025-10-22T0000,2685A,106.2375,36.0211,固原市,新区,,12,11,13,8,9,34,,34,34,11,11,3,3,0.4,0.5
2025-10-22T0000,3522A,106.2177,35.9959,固原市,原州区十五小,,16,13,14,11,10,26,,36,34,15,11,5,5,0.7,0.7
2025-10-22T0000,2543A,106.6308,30.5278,广安市,小平旧居,,,,,,,,,,,,,,,,
2025-10-22T0000,2544A,106.6303,30.4576,广安市,市委,,17,17,11,11,7,34,,49,42,8,9,3,3,0.5,0.5
2025-10-22T0000,2545A,106.6271,30.4663,广安市,友谊中学,,14,14,10,3,6,36,,51,41,9,9,5,5,0.7,0.7
2025-10-22T0000,2547A,106.6388,30.4551,广安市,广电花园,,10,10,12,7,6,31,,46,38,11,11,8,8,0.5,0.5
2025-10-22T0000,2902A,106.6351,30.4865,广安市,北辰小学,,15,15,11,10,6,34,,50,41,9,8,6,6,0.5,0.5
2025-10-22T0000,2523A,105.8945,32.4535,广元市,黑石坡,,,,,,,,,,,,,,,,
2025-10-22T0000,2524A,105.821,32.4444,广元市,老城,,14,12,12,3,4,42,,55,43,9,11,4,4,0.6,0.6
2025-10-22T0000,2526A,105.8628,32.4287,广元市,监测站,,36,,13,25,11,29,,50,35,15,11,4,3,0.7,0.7
2025-10-22T0000,3617A,105.8047,32.4166,广元市,经开区,,11,8,7,3,3,33,,49,36,12,12,2,2,0.6,0.5
2025-10-22T0000,1345A,113.2347,23.1423,广州市,广雅中学,,15,14,16,8,7,46,,52,51,15,15,6,6,0.2,0.2
2025-10-22T0000,1346A,113.2612,23.105,广州市,市五中,,18,7,9,3,5,56,,60,60,15,14,6,7,0.7,0.7
2025-10-22T0000,1348A,113.3478,23.0916,广州市,广东商学院,,16,6,8,3,4,50,,54,53,16,14,4,4,0.2,0.3
2025-10-22T0000,1349A,113.4332,23.1047,广州市,市八十六中,,16,8,15,3,3,49,,51,50,16,16,4,5,0.3,0.5
2025-10-22T0000,1350A,113.3505,22.9483,广州市,番禺中学,,15,7,10,3,1,46,,54,51,16,12,5,6,0.4,0.5
2025-10-22T0000,1351A,113.2146,23.3916,广州市,花都师范,,19,12,22,3,4,58,,56,56,11,13,4,5,0.4,0.5
2025-10-22T0000,1352A,113.2597,23.1331,广州市,市监测站,,17,10,13,3,4,52,,58,56,13,12,6,7,0.7,0.7
2025-10-22T0000,1353A,113.5618,23.312,广州市,九龙镇镇龙,,14,6,4,3,1,44,,46,46,10,11,4,4,0.5,0.6
2025-10-22T0000,1354A,113.2765,23.1544,广州市,麓湖,,,11,11,3,4,,,54,51,,12,,8,,0.5
2025-10-22T0000,1355A,113.443,23.3035,广州市,帽峰山森林公园,,,,,,,,,,,,,,,,
2025-10-22T0000,2846A,113.3221,23.1322,广州市,体育西,,16,6,7,3,6,49,,53,52,11,11,5,5,0.3,0.4
2025-10-22T0000,3298A,113.5717,23.5491,广州市,从化街口,,16,6,4,3,2,50,,51,51,8,9,7,7,0.4,0.5
2025-10-22T0000,3299A,113.3472,23.3692,广州市,白云竹料,,18,8,8,3,4,55,,59,58,8,8,7,7,0.4,0.4
2025-10-22T0000,3300A,113.2981,23.237,广州市,白云嘉禾,,17,16,14,3,4,53,,58,57,12,11,7,7,0.3,0.5
2025-10-22T0000,3301A,113.4256,23.1716,广州市,黄埔科学城,,17,6,7,3,2,54,,57,56,7,8,3,4,0.6,0.6
2025-10-22T0000,3302A,113.3942,23.0483,广州市,番禺大学城,,16,6,8,3,2,49,,53,52,20,20,3,4,0.4,0.5
2025-10-22T0000,3303A,113.4922,22.8168,广州市,南沙黄阁,,15,10,16,3,3,47,,48,44,16,21,10,8,0.2,0.4
2025-10-22T0000,3304A,113.5342,22.7896,广州市,南沙街,,14,7,15,3,4,43,,50,43,15,15,7,7,0.3,0.4
2025-10-22T0000,3443A,113.2902,23.5544,广州市,花都梯面,,17,7,8,3,5,53,,56,56,10,9,7,9,0.3,0.4
2025-10-22T0000,3445A,113.7858,23.7478,广州市,从化良口,,17,6,3,3,1,52,,54,53,8,8,5,6,0.2,0.3
2025-10-22T0000,3446A,113.8051,23.2614,广州市,增城荔城,,15,6,4,3,2,47,,50,49,9,10,6,6,0.4,0.5
2025-10-22T0000,2505A,109.568,23.1478,贵港市,德智高中,,,,,,,,,,,,,,,,
2025-10-22T0000,2506A,109.6047,23.0666,贵港市,江南子站,,19,12,17,8,6,58,,74,68,8,8,3,4,0.5,0.5
2025-10-22T0000,2508A,109.5669,23.1065,贵港市,荷城子站,,,,17,2,2,52,,66,61,8,8,2,3,0.5,0.6
2025-10-22T0000,3405A,109.5886,23.1172,贵港市,新世纪学校,,19,19,21,6,10,56,,71,65,4,4,1,2,0.4,0.5
2025-10-22T0000,4260A,109.5933,23.0951,贵港市,中山路155-3号,,17,13,15,3,6,53,,70,65,6,5,3,3,0.5,0.5
2025-10-22T0000,1439A,106.6899,26.5998,贵阳市,马鞍山,,13,,4,9,7,25,,40,33,8,6,3,3,0.3,0.3
2025-10-22T0000,1441A,106.6243,26.6266,贵阳市,鉴湖路,,14,14,17,7,4,23,,35,29,7,7,3,3,0.4,0.4
2025-10-22T0000,1442A,106.7487,26.6343,贵阳市,燕子冲,,25,,7,17,9,28,,40,31,9,8,5,4,0.2,0.2
2025-10-22T0000,1443A,106.6555,26.4365,贵阳市,碧云窝,,29,29,21,7,6,25,,39,30,8,9,4,4,0.3,0.2
2025-10-22T0000,1445A,106.7109,26.6027,贵阳市,红边门,,22,22,10,12,7,41,,50,42,13,12,3,2,0.5,0.4
2025-10-22T0000,1446A,106.7164,26.5699,贵阳市,新华路,,17,17,13,9,4,30,,34,28,7,8,3,3,0.4,0.4
2025-10-22T0000,1447A,106.674,26.5424,贵阳市,太慈桥,,17,17,9,7,3,30,,35,29,9,9,2,2,0.3,0.3
2025-10-22T0000,1552A,106.805,26.3003,贵阳市,桐木岭,,17,17,23,7,12,44,,48,43,2,2,1,1,1.0,1
2025-10-22T0000,4230A,106.6882,26.5695,贵阳市,花果园大街66号,,23,,4,16,7,30,,36,28,7,7,3,3,0.4,0.4
2025-10-22T0000,4231A,106.6873,26.5169,贵阳市,漓江路57号,,10,9,8,7,6,29,,41,31,7,6,7,6,0.4,0.3
2025-10-22T0000,1862A,110.4144,25.3167,桂林市,电子科大尧山校区,,,,,,,,,,,,,,,,
2025-10-22T0000,1864A,110.3089,25.2708,桂林市,龙隐路小学,,15,11,10,3,6,45,,46,44,7,7,5,5,0.3,0.3
2025-10-22T0000,1865A,110.2869,25.2178,桂林市,八中,,15,15,11,7,6,47,,47,45,7,7,7,6,0.3,0.4
2025-10-22T0000,3531A,110.296,25.1253,桂林市,旅游学院,,16,6,6,3,5,51,,56,54,8,7,3,3,0.5,0.5
2025-10-22T0000,4222A,110.1835,25.2444,桂林市,环湖路276号,,20,17,10,14,10,42,,43,41,9,8,5,5,0.2,0.2
2025-10-22T0000,4301A,110.2803,25.2773,桂林市,信义路13号,,23,21,13,16,8,44,,44,43,7,7,7,6,0.3,0.3
2025-10-22T0000,2674A,100.2561,34.4714,果洛藏族自治州,玛沁县大武镇,,43,39,36,30,22,70,,94,85,8,6,16,20,0.4,0.3
2025-10-22T0000,1129A,126.5422,45.755,哈尔滨市,岭北,,,,,,,,,,,,,,,,
2025-10-22T0000,1130A,126.561,45.8167,哈尔滨市,松北商大,,38,26,27,26,21,25,,51,22,24,26,5,5,0.5,0.5
2025-10-22T0000,1131A,126.979,45.5419,哈尔滨市,阿城会宁,颗粒物(PM10),53,55,37,34,24,12,,59,26,36,26,11,10,0.5,0.5
2025-10-22T0000,1132A,126.599,45.7222,哈尔滨市,南岗学府路,颗粒物(PM10),51,52,36,18,14,25,,61,36,40,29,11,9,0.3,0.3
2025-10-22T0000,1133A,126.689,45.7733,哈尔滨市,太平宏伟公园,,28,28,25,16,14,24,,63,47,38,20,11,9,0.6,0.4
2025-10-22T0000,1134A,126.635,45.7667,哈尔滨市,道外承德广场,颗粒物(PM10),51,52,38,23,16,9,,60,41,60,28,11,7,0.8,0.6
2025-10-22T0000,1135A,126.685,45.7319,哈尔滨市,香坊红旗大街,颗粒物(PM10),54,58,40,28,17,9,,62,35,56,32,12,11,0.7,0.5
2025-10-22T0000,1136A,126.6411,45.7258,哈尔滨市,动力和平路,,46,46,27,23,18,19,,62,34,47,30,10,8,0.5,0.4
2025-10-22T0000,1137A,126.593,45.7478,哈尔滨市,道里建国路,颗粒物(PM10),52,53,28,32,19,6,,56,28,59,33,12,10,0.5,0.3
2025-10-22T0000,1138A,126.615,45.61,哈尔滨市,平房东轻厂,,31,29,32,16,17,6,,54,10,61,41,13,13,0.5,0.5
2025-10-22T0000,1139A,126.595,45.9855,哈尔滨市,呼兰师专,,42,41,29,29,24,15,,56,27,41,23,4,4,0.4,0.4
2025-10-22T0000,1140A,126.6206,45.6842,哈尔滨市,省农科院,颗粒物(PM10),53,56,69,28,36,11,,40,12,49,46,13,11,0.6,0.8
2025-10-22T0000,2688A,93.5128,42.8172,哈密市,地区监测站,颗粒物(PM10),94,137,94,65,36,7,,60,34,73,39,9,9,1.0,0.5
2025-10-22T0000,2689A,93.4961,42.8328,哈密市,哈密师范学校,颗粒物(PM10),86,121,104,50,38,4,,56,24,72,47,11,12,1.5,1.1
2025-10-22T0000,2671A,100.9048,36.9639,海北藏族自治州,海晏县西海镇,,38,34,38,26,27,58,,89,67,16,11,7,6,0.6,0.5
2025-10-22T0000,3867A,102.0738,36.5056,海东市,平安区公安北苑,细颗粒物(PM2.5),52,51,55,36,36,76,,97,88,5,15,13,14,0.7,0.9
2025-10-22T0000,1409A,110.576,19.9507,海口市,东寨港,,,,,,,,,,,,,,,,
2025-10-22T0000,1410A,110.3232,20.0574,海口市,海南大学,,24,24,22,9,9,53,,71,61,6,6,6,6,0.4,0.4
2025-10-22T0000,1411A,110.283,20.0053,海口市,秀英海南医院,,26,26,25,10,10,53,,67,59,6,9,7,8,0.3,0.4
2025-10-22T0000,1412A,110.338,19.9969,海口市,海南师范大学,,23,23,22,8,9,55,,74,63,6,7,6,7,0.5,0.5
2025-10-22T0000,1413A,110.33,20.0356,海口市,龙华路环保局宿舍,,24,24,23,9,10,56,,72,62,7,8,7,8,0.3,0.3
2025-10-22T0000,3539A,110.5111,19.9736,海口市,桂林洋子站,,28,28,21,3,10,54,,68,62,6,6,6,6,0.4,0.3
2025-10-22T0000,2673A,100.6188,36.2866,海南藏族自治州,共和县恰卜恰镇,,49,49,43,16,20,23,,106,55,32,18,17,12,0.6,0.5
2025-10-22T0000,2676A,97.3731,37.3753,海西蒙古族藏族自治州,德令哈市,,18,17,21,12,12,56,,104,78,12,6,18,17,0.6,0.4
2025-10-22T0000,1048A,114.5302,36.6116,邯郸市,东污水处理厂,细颗粒物(PM2.5),69,60,36,50,34,5,,56,28,57,33,4,6,0.6,0.4
2025-10-22T0000,1049A,114.4918,36.5713,邯郸市,矿院,细颗粒物(PM2.5),64,49,34,46,34,3,,56,29,55,33,5,6,0.6,0.4
2025-10-22T0000,1050A,114.484,36.6133,邯郸市,丛台公园,细颗粒物(PM2.5),55,51,34,39,29,8,,57,33,55,35,4,5,0.5,0.3
2025-10-22T0000,3458A,114.7895,36.5593,邯郸市,香泉濮院小区,颗粒物(PM10),61,72,44,41,29,13,,58,32,37,30,6,6,0.6,0.5
2025-10-22T0000,3579A,114.50634,36.77178,邯郸市,永年区实验高中,颗粒物(PM10),66,82,47,32,19,10,,58,26,62,44,4,5,0.5,0.3
2025-10-22T0000,3580A,114.20016,36.44293,邯郸市,峰峰矿区临水派出所,细颗粒物(PM2.5),64,47,36,46,30,43,,65,53,33,27,6,13,0.7,0.6
2025-10-22T0000,2634A,106.9893,33.1842,汉中市,汉川机床厂子校,,,,,,,,,,,,,,,,
2025-10-22T0000,2635A,107.0154,33.0706,汉中市,市监测站,,20,,6,7,6,62,,60,60,3,6,4,4,0.4,0.5
2025-10-22T0000,2636A,107.0089,33.1138,汉中市,鑫源开发区,,20,,6,3,2,61,,60,60,4,7,4,4,0.6,0.7
2025-10-22T0000,2637A,107.007,33.0323,汉中市,南郑大河坎水厂,,19,6,8,3,3,58,,53,52,6,8,8,7,0.6,0.7
2025-10-22T0000,1223A,120.2072,30.2111,杭州市,滨江,,36,36,38,14,11,44,,55,44,25,24,10,9,0.6,0.5
2025-10-22T0000,1224A,120.0633,30.2747,杭州市,西溪,,31,31,28,20,15,50,,55,47,18,21,7,7,0.4,0.4
2025-10-22T0000,1226A,120.3417,30.3150,杭州市,下沙,,27,27,28,9,6,63,,61,53,14,15,10,9,0.3,0.3
2025-10-22T0000,1227A,120.1269,30.2456,杭州市,卧龙桥,,41,41,37,18,16,44,,51,42,18,20,9,9,0.5,0.4
2025-10-22T0000,1228A,120.1903,30.2692,杭州市,浙江农大,,37,37,38,16,14,41,,54,43,24,25,7,7,0.4,0.4
2025-10-22T0000,1230A,120.1197,30.3119,杭州市,和睦小学,,30,30,30,16,11,48,,52,45,19,21,7,7,0.5,0.5
2025-10-22T0000,1231A,120.3019,30.4183,杭州市,临平镇,,27,27,29,11,11,63,,64,59,12,14,7,6,0.2,0.2
2025-10-22T0000,1232A,120.2753,30.1839,杭州市,城厢镇,,36,36,31,13,15,58,,61,53,21,22,6,6,0.3,0.3
2025-10-22T0000,1233A,120.0883,30.1808,杭州市,云栖,,33,33,32,15,14,52,,57,49,20,21,6,6,0.5,0.5
2025-10-22T0000,3557A,119.9464,30.0494,杭州市,镇二中,,34,34,28,19,12,41,,59,47,16,15,5,5,0.5,0.5
2025-10-22T0000,3558A,119.7183,30.2367,杭州市,市府大楼,,30,30,26,16,14,59,,65,61,11,11,8,8,0.3,0.2
2025-10-22T0000,3656A,120.1556,30.2864,杭州市,消防大队,,38,38,31,19,13,45,,54,45,25,24,11,10,0.3,0.3
2025-10-22T0000,1270A,117.1959,31.7848,合肥市,明珠广场,,34,34,22,17,15,53,,55,51,15,14,7,6,0.5,0.5
2025-10-22T0000,1271A,117.3072,31.8764,合肥市,三里街,,29,29,21,12,10,45,,52,46,19,18,6,5,0.4,0.4
2025-10-22T0000,1272A,117.2588,31.8707,合肥市,琥珀山庄,,29,29,21,16,15,48,,66,51,16,13,5,6,0.3,0.3
2025-10-22T0000,1273A,117.1604,31.9052,合肥市,董铺水库,,,,,,,,,,,,,,,,
2025-10-22T0000,1274A,117.25,31.8571,合肥市,长江中路,,31,31,25,19,15,47,,57,52,12,10,6,5,0.5,0.5
2025-10-22T0000,1275A,117.266,31.9436,合肥市,庐阳区,,31,31,20,9,11,48,,56,48,16,16,4,4,0.4,0.4
2025-10-22T0000,1276A,117.3453,31.8616,合肥市,瑶海区,,27,27,17,12,10,45,,54,47,20,16,7,7,0.4,0.3
2025-10-22T0000,1277A,117.3027,31.7964,合肥市,包河区,,31,31,22,14,11,34,,45,35,34,26,5,4,0.4,0.4
2025-10-22T0000,1278A,117.2776,31.7385,合肥市,滨湖新区,,31,31,21,19,16,51,,56,50,16,12,3,3,0.4,0.4
2025-10-22T0000,1279A,117.1318,31.8403,合肥市,高新区,,36,36,24,17,15,44,,56,46,19,15,4,4,0.5,0.5
2025-10-22T0000,3464A,117.3803,31.9147,合肥市,高教基地,,27,27,18,13,11,44,,54,47,18,16,6,5,0.5,0.4
2025-10-22T0000,3614A,79.924,37.0877,和田地区,地区环保局,颗粒物(PM10),161,271,180,108,67,24,,95,68,64,19,6,6,1.4,0.5
2025-10-22T0000,3615A,79.9131,37.113,和田地区,市环保局,颗粒物(PM10),161,271,193,102,61,5,,95,51,82,34,5,6,1.1,0.5
2025-10-22T0000,2516A,108.2011,24.715,河池市,东仁乐园,,,,,,,,,,,,,,,,
2025-10-22T0000,2517A,108.0497,24.6947,河池市,市环保站,,16,,6,3,2,49,,52,49,7,6,6,6,0.6,0.6
2025-10-22T0000,2518A,108.0983,24.6989,河池市,市疾控中心,,16,,6,3,3,50,,50,48,6,6,8,8,0.6,0.6
2025-10-22T0000,1696A,114.6778,23.7569,河源市,源西,,,,,,,,,,,,,,,,
2025-10-22T0000,1697A,114.6944,23.7586,河源市,东埔,,15,,3,3,4,46,,49,46,8,10,4,4,0.6,0.6
2025-10-22T0000,1698A,114.6892,23.7233,河源市,老城,,16,6,7,3,1,49,,48,48,5,6,5,5,0.4,0.5
2025-10-22T0000,1718A,115.4208,35.2464,菏泽市,气象局,颗粒物(PM10),59,68,59,38,30,50,,84,69,24,21,5,6,0.4,0.4
2025-10-22T0000,3374A,115.5564,35.0891,菏泽市,定陶老年大学,颗粒物(PM10),57,63,44,36,23,30,,80,55,45,25,13,9,0.4,0.4
2025-10-22T0000,4184A,115.4797,35.24401,菏泽市,永昌路1号,颗粒物(PM10),56,62,50,38,30,47,,85,70,26,20,10,5,0.3,0.3
2025-10-22T0000,4193A,115.4715,35.2800,菏泽市,长城路999号,颗粒物(PM10),60,70,55,29,24,42,,80,62,28,25,13,11,0.4,0.6
2025-10-22T0000,2514A,111.5264,24.4172,贺州市,环保小区,,17,17,16,10,7,40,,46,39,6,8,6,6,0.4,0.4
2025-10-22T0000,2515A,111.5608,24.4078,贺州市,政协大楼,,13,13,20,6,6,34,,40,34,10,11,4,4,0.3,0.4
2025-10-22T0000,3534A,111.4744,24.4553,贺州市,西湾,,13,12,9,3,4,40,,47,44,7,7,3,3,0.8,0.7
2025-10-22T0000,2385A,114.17,35.9019,鹤壁市,市监测站,细颗粒物(PM2.5),59,55,47,42,28,10,,58,35,36,26,3,7,0.8,0.6
2025-10-22T0000,2386A,114.2956,35.7511,鹤壁市,市交警支队,颗粒物(PM10),59,68,46,30,19,18,,56,38,34,26,7,5,0.6,0.5
2025-10-22T0000,2387A,114.2878,35.7306,鹤壁市,迎宾馆,细颗粒物(PM2.5),85,97,54,63,27,14,,59,38,34,26,8,6,0.6,0.5
2025-10-22T0000,3474A,114.2617,35.6822,鹤壁市,大新区,颗粒物(PM10),52,53,45,31,27,26,,57,40,26,26,5,5,0.5,0.3
2025-10-22T0000,3596A,114.1572,35.9603,鹤壁市,南山宾馆,颗粒物(PM10),55,60,47,29,29,43,,59,48,20,20,6,6,0.9,0.7
2025-10-22T0000,2244A,130.2537,47.3416,鹤岗市,哈啤分公司,,29,29,28,17,18,49,,79,60,10,8,10,12,0.5,0.5
2025-10-22T0000,2245A,130.2684,47.3086,鹤岗市,斯达机电,,33,31,26,23,17,61,,77,61,11,10,12,12,0.5,0.5
2025-10-22T0000,2246A,130.3114,47.3388,鹤岗市,东山纸板厂,颗粒物(PM10),68,85,35,44,21,24,,82,52,34,14,13,13,0.8,0.9
2025-10-22T0000,2247A,130.1097,47.3382,鹤岗市,五号水库,,,,,,,,,,,,,,,,
2025-10-22T0000,2263A,127.4833,50.2524,黑河市,交通局,,26,18,21,18,16,49,,63,43,10,13,5,5,0.4,0.5
2025-10-22T0000,2264A,127.5144,50.2341,黑河市,环保局,,22,15,23,15,13,56,,59,47,8,12,5,5,0.4,0.4
2025-10-22T0000,2265A,127.5291,50.2472,黑河市,大黑河岛,,,,,,,,,,,,,,,,
2025-10-22T0000,1074A,115.6838,37.7541,衡水市,电机北厂,颗粒物(PM10),53,55,48,26,27,2,,44,12,52,41,10,9,0.4,0.4
2025-10-22T0000,1075A,115.6303,37.7316,衡水市,市监测站,,48,48,42,24,19,4,,42,10,63,40,8,7,0.5,0.4
2025-10-22T0000,3188A,115.6683,37.7217,衡水市,市城管局,,38,37,46,26,23,11,,55,27,55,36,6,8,0.6,0.5
2025-10-22T0000,3459A,115.5989,37.5491,衡水市,地表水厂,,39,37,44,27,25,2,,46,21,46,41,4,5,0.4,0.3
2025-10-22T0000,2456A,112.5003,26.9167,衡阳市,原169医院,,,,,,,,,,,,,,,,
2025-10-22T0000,2457A,112.6194,26.9258,衡阳市,衡阳化工总厂,,13,,7,9,4,39,,37,37,13,15,5,6,0.7,0.7
2025-10-22T0000,2458A,112.6211,26.8956,衡阳市,珠晖区环保局,,13,10,7,9,9,38,,37,35,17,16,8,8,0.8,0.8
2025-10-22T0000,2459A,112.6197,26.8733,衡阳市,市委党校,,13,9,6,3,3,40,,39,39,9,8,12,12,0.5,0.4
2025-10-22T0000,2460A,112.6006,26.8919,衡阳市,市监测站,,13,7,10,3,6,40,,39,38,12,11,4,4,0.7,0.6
2025-10-22T0000,2461A,112.5664,26.9056,衡阳市,真空机电公司,,16,11,8,11,5,40,,38,38,9,9,5,5,0.6,0.6
2025-10-22T0000,3399A,112.6703,26.882,衡阳市,师范学院,,14,14,11,3,8,35,,37,34,16,14,7,7,1.0,0.8
2025-10-22T0000,2608A,103.3772,23.3993,红河哈尼族彝族自治州,污水处理厂,,19,17,21,13,16,60,,62,56,5,8,8,10,0.2,0.3
2025-10-22T0000,2609A,103.3861,23.35,红河哈尼族彝族自治州,监测站,,28,27,21,19,16,61,,65,59,4,4,11,10,0.2,0.2
2025-10-22T0000,3038A,103.3758,23.368,红河哈尼族彝族自治州,州图书馆,,23,,14,16,22,60,,63,,4,5,3,3,0.3,0.3
2025-10-22T0000,1090A,111.6507,40.7517,呼和浩特市,呼市一监,颗粒物(PM10),68,85,45,44,25,3,,62,23,55,27,3,4,0.8,0.7
2025-10-22T0000,1091A,111.6572,40.8033,呼和浩特市,小召,颗粒物(PM10),60,70,46,41,23,6,,60,26,74,38,9,8,0.7,0.4
2025-10-22T0000,1094A,111.7516,40.8369,呼和浩特市,如意水处理厂,颗粒物(PM10),60,69,44,32,20,0,,65,21,63,34,10,11,0.5,0.3
2025-10-22T0000,1095A,111.7276,40.8062,呼和浩特市,二十九中,颗粒物(PM10),66,81,46,37,22,5,,70,28,63,32,13,10,0.8,0.6
2025-10-22T0000,1096A,111.5512,40.7866,呼和浩特市,工大金川校区,颗粒物(PM10),62,73,49,29,20,1,,54,18,66,42,7,8,0.5,0.4
2025-10-22T0000,1097A,111.717,40.7612,呼和浩特市,化肥厂生活区,颗粒物(PM10),59,67,52,33,24,2,,65,20,65,32,6,7,0.5,0.6
2025-10-22T0000,3698A,111.5968,40.8178,呼和浩特市,红旗小学,颗粒物(PM10),60,70,46,35,24,1,,55,18,66,36,12,9,0.6,0.5
2025-10-22T0000,3699A,111.6518,40.8389,呼和浩特市,海东办,颗粒物(PM10),69,88,44,42,22,5,,64,23,62,39,7,7,0.9,0.5
2025-10-22T0000,2192A,119.7594,49.2261,呼伦贝尔市,区环保局,,,,,,,,,,,,,,,,
2025-10-22T0000,3061A,119.7512,49.1577,呼伦贝尔市,国华电力东,,25,23,24,17,15,32,,58,39,11,11,6,6,0.6,0.6
2025-10-22T0000,1250A,120.0751,30.8669,湖州市,城西水厂,,32,32,30,20,17,59,,70,63,19,20,8,8,0.5,0.4
2025-10-22T0000,2873A,120.0830,30.8929,湖州市,仁皇山新区,,32,32,27,16,13,51,,62,59,18,16,7,6,0.2,0.2
2025-10-22T0000,2907A,120.1844,30.8596,湖州市,吴兴区站,,29,29,25,15,13,52,,59,57,24,21,7,7,0.5,0.4
2025-10-22T0000,3562A,120.4148,30.8538,湖州市,南浔区站,,26,26,26,12,12,59,,65,60,19,18,10,9,0.5,0.4
2025-10-22T0000,1607A,120.9049,40.7211,葫芦岛市,龙港区,颗粒物(PM10),54,58,55,24,20,2,,67,17,53,37,12,12,0.9,0.7
2025-10-22T0000,1608A,120.8392,40.7514,葫芦岛市,化工街,颗粒物(PM10),64,78,60,31,25,2,,64,18,56,40,63,21,0.8,0.6
2025-10-22T0000,1609A,120.8341,40.7073,葫芦岛市,新区,颗粒物(PM10),62,74,37,22,19,0,,66,16,61,39,11,9,0.5,0.4
2025-10-22T0000,1610A,120.8695,40.7677,葫芦岛市,东城区,颗粒物(PM10),54,57,46,20,17,8,,71,20,53,39,24,27,0.8,0.6
2025-10-22T0000,2482A,109.5981,27.5721,怀化市,林科所,,,,,,,,,,,,,,,,
2025-10-22T0000,2483A,109.9453,27.5444,怀化市,河西地税局,,15,12,7,6,5,45,,45,44,5,7,1,2,0.2,0.2
2025-10-22T0000,2484A,109.9781,27.5342,怀化市,市四医院,,15,13,10,9,5,48,,49,48,3,4,6,6,0.1,0.1
2025-10-22T0000,2485A,109.9972,27.5578,怀化市,监测楼,,15,10,6,8,4,45,,47,44,2,4,1,1,0.1,0.1
2025-10-22T0000,2486A,110.0394,27.583,怀化市,市委党校,,13,10,8,9,6,40,,45,39,8,9,7,7,0.0,0.1
2025-10-22T0000,1210A,119.036,33.5981,淮安市,钵池山,,29,29,23,13,13,60,,55,53,19,18,7,6,0.4,0.5
2025-10-22T0000,1211A,119.007,33.575,淮安市,北京南路,,29,29,24,12,10,32,,61,57,45,18,8,8,0.4,0.5
2025-10-22T0000,1212A,118.989,33.6067,淮安市,市监测站,,35,34,19,24,15,29,,61,55,49,23,6,6,0.6,0.7
2025-10-22T0000,1213A,119.135,33.5039,淮安市,楚州区监测站,,29,29,24,14,11,55,,60,59,25,20,8,8,0.4,0.5
2025-10-22T0000,3426A,118.8755,33.2894,淮安市,新华书店,,33,33,24,19,13,42,,52,51,32,20,10,9,0.7,0.5
2025-10-22T0000,4206A,119.0288,33.6319,淮安市,承德北路606号,,36,36,24,12,12,40,,56,52,35,18,7,6,0.4,0.5
2025-10-22T0000,2282A,116.8004,33.975,淮北市,监测站,,38,38,36,22,20,34,,75,50,31,24,8,9,0.7,0.7
2025-10-22T0000,2283A,116.8091,33.9007,淮北市,烈山区政府,,46,43,19,32,20,40,,81,59,24,19,8,8,0.5,0.5
2025-10-22T0000,3330A,116.8873,33.9836,淮北市,杜集区检察院,,50,50,38,30,23,29,,78,53,20,13,4,4,0.3,0.2
2025-10-22T0000,4017A,116.7923,33.9535,淮北市,市博物馆,颗粒物(PM10),51,52,35,31,23,30,,79,52,36,24,7,7,0.5,0.4
2025-10-22T0000,2277A,116.8305,32.7727,淮南市,潘集区政府,,42,42,30,28,20,11,,64,39,56,27,5,5,0.3,0.3
2025-10-22T0000,2279A,116.8569,32.5951,淮南市,谢家集区政府,,33,33,16,16,11,40,,62,53,16,11,9,7,0.3,0.3
2025-10-22T0000,2280A,116.8281,32.633,淮南市,八公山区政府,,40,40,26,20,14,39,,64,48,18,13,11,6,0.4,0.3
2025-10-22T0000,2281A,116.6325,32.6201,淮南市,焦岗湖风景区管理处,,,,,,,,,,,,,,,,
2025-10-22T0000,2894A,117.0566,32.6531,淮南市,经济技术开发区消防队,,43,43,29,17,13,39,,56,46,21,20,8,9,0.2,0.1
2025-10-22T0000,3329A,117.0108,32.5893,淮南市,山南新区,,25,25,22,3,8,54,,60,55,18,17,4,4,0.1,0
2025-10-22T0000,4209A,117.0031,32.6445,淮南市,国庆中路369号,,48,37,25,33,17,34,,58,46,22,15,5,4,0.2,0.1
2025-10-22T0000,2446A,114.9028,30.4742,黄冈市,职工中心,,23,23,20,12,10,38,,48,43,12,11,3,5,0.3,0.3
2025-10-22T0000,2929A,114.8858,30.4519,黄冈市,红卫路,,22,22,16,14,11,42,,53,47,10,10,4,4,0.2,0.2
2025-10-22T0000,3398A,114.9136,30.4445,黄冈市,市林业局,,24,24,16,14,9,36,,50,43,11,11,3,4,0.3,0.3
2025-10-22T0000,2672A,102.0199,35.5102,黄南藏族自治州,同仁县隆务镇,,39,39,40,20,18,46,,71,53,1,4,10,10,0.3,0.3
2025-10-22T0000,2295A,118.2903,29.6963,黄山市,延安路89号,,21,21,21,3,7,57,,65,58,6,6,3,3,0.3,0.2
2025-10-22T0000,2297A,118.1371,30.2756,黄山市,黄山区政府5号楼,,19,,18,13,10,46,,51,44,7,6,5,5,0.3,0.3
2025-10-22T0000,4210A,118.3354,29.7203,黄山市,滨江东路7-2号,,23,23,22,3,7,54,,60,55,8,8,3,3,0.3,0.2
2025-10-22T0000,2423A,115.0601,30.2313,黄石市,沈家营,,17,17,14,6,4,46,,58,50,8,5,6,8,0.3,0.3
2025-10-22T0000,2426A,114.8988,30.2019,黄石市,铁山,,24,24,19,6,6,50,,55,52,9,8,3,3,0.7,0.7
2025-10-22T0000,2427A,115.0307,30.2092,黄石市,团城山,,20,20,15,9,6,37,,56,50,12,6,6,7,0.6,0.6
2025-10-22T0000,3149A,115.0235,30.1578,黄石市,笔架山北路,,22,22,20,3,3,40,,50,43,9,7,5,5,0.3,0.3
2025-10-22T0000,4185A,115.0780,30.21118,黄石市,磁湖东路29号,,21,21,16,9,9,47,,53,48,10,8,8,8,0.4,0.4
2025-10-22T0000,1392A,114.4183,23.0528,惠州市,河南岸金山湖子站,,14,7,12,3,2,43,,43,41,11,14,8,9,0.5,0.5
2025-10-22T0000,1393A,114.4053,23.0822,惠州市,下埔横江三路子站,,14,6,7,3,2,44,,47,43,14,16,6,4,0.4,0.4
2025-10-22T0000,1394A,114.4103,23.1142,惠州市,江北云山西路子站,,15,6,6,3,2,45,,49,45,10,11,4,5,0.6,0.6
2025-10-22T0000,1395A,114.4645,22.7833,惠州市,惠阳区承修路船湖子站,,14,6,10,3,4,44,,45,43,8,10,8,8,0.5,0.6
2025-10-22T0000,1396A,114.5317,22.7422,惠州市,大亚湾管委会子站,,13,6,5,3,6,40,,41,40,12,13,9,9,0.6,0.7
2025-10-22T0000,3314A,114.4338,22.8134,惠州市,惠阳秋长,,15,6,12,3,3,48,,51,49,6,7,15,15,0.6,0.6
2025-10-22T0000,3452A,114.6517,22.775,惠州市,大亚湾霞涌,,12,7,12,3,3,37,,38,37,8,8,5,6,0.5,0.7
2025-10-22T0000,2240A,130.9762,45.3001,鸡西市,环保局,,26,26,27,14,10,49,,67,50,14,10,6,6,0.4,0.4
2025-10-22T0000,2243A,130.9429,45.3039,鸡西市,第一中学,,28,28,32,18,11,52,,68,54,11,7,6,6,0.6,0.6
2025-10-22T0000,3707A,131.0207,45.3073,鸡西市,欧美日汽修厂,,40,40,25,23,12,45,,66,42,20,14,8,8,0.6,0.5
2025-10-22T0000,3709A,130.9967,45.3106,鸡西市,市政设施管理处,,45,45,25,21,12,38,,71,38,29,17,11,8,0.7,0.6
2025-10-22T0000,2367A,114.9754,27.0803,吉安市,红声器材厂,,31,31,37,13,14,51,,63,58,14,13,12,10,0.4,0.5
2025-10-22T0000,2368A,114.9658,27.0999,吉安市,市森林工业局,,29,29,35,18,17,50,,62,57,13,13,8,8,0.3,0.4
2025-10-22T0000,2369A,114.99,27.1312,吉安市,市环境监测站,,26,26,34,15,17,49,,61,56,10,10,15,11,0.3,0.3
2025-10-22T0000,2370A,115.0093,27.0968,吉安市,青原区法院,,30,30,35,13,15,50,,61,56,12,12,9,8,0.7,0.7
2025-10-22T0000,1772A,126.54,43.8622,吉林市,哈达湾,,50,50,31,29,19,27,,65,40,34,22,8,8,0.6,0.4
2025-10-22T0000,1773A,126.5844,43.8358,吉林市,东局子,,45,43,30,31,22,34,,64,33,26,22,8,8,0.7,0.6
2025-10-22T0000,1774A,126.5052,43.8245,吉林市,电力学院,细颗粒物(PM2.5),60,57,48,43,33,8,,64,15,38,27,7,8,0.9,0.7
2025-10-22T0000,1775A,126.6133,43.8972,吉林市,江北,细颗粒物(PM2.5),54,49,44,38,30,27,,60,26,19,22,5,6,0.6,0.8
2025-10-22T0000,1776A,126.555,43.8306,吉林市,江南公园,细颗粒物(PM2.5),55,52,35,39,26,16,,62,28,34,21,6,5,0.6,0.4
2025-10-22T0000,1778A,126.7061,43.7133,吉林市,丰满,,22,19,17,15,17,69,,93,76,10,9,7,8,0.5,0.3
2025-10-22T0000,2868A,126.4739,43.953,吉林市,九站,颗粒物(PM10),58,65,39,40,23,10,,59,32,49,32,17,7,0.6,0.5
2025-10-22T0000,1299A,116.9862,36.6114,济南市,科干所,,46,46,39,27,20,36,,68,47,33,28,8,11,0.4,0.4
2025-10-22T0000,1300A,116.9376,36.665,济南市,农科所,颗粒物(PM10),58,66,46,32,16,0,,60,22,66,39,8,9,0.8,0.8
2025-10-22T0000,1301A,117.1265,36.6734,济南市,开发区,颗粒物(PM10),67,83,48,32,26,3,,66,29,57,35,3,6,0.8,0.7
2025-10-22T0000,1303A,117.0624,36.6868,济南市,省种子仓库,颗粒物(PM10),71,92,60,39,25,6,,70,32,67,38,8,11,0.9,0.9
2025-10-22T0000,1304A,116.9489,36.6447,济南市,机床二厂,颗粒物(PM10),70,90,55,42,26,2,,62,28,72,39,9,11,1.0,0.8
2025-10-22T0000,1305A,117.0495,36.663,济南市,市监测站,颗粒物(PM10),56,61,49,27,23,2,,65,29,62,38,3,6,1.0,0.9
2025-10-22T0000,1306A,116.7675,36.5484,济南市,长清党校,颗粒物(PM10),56,61,48,27,20,4,,67,33,69,42,7,10,0.8,0.7
2025-10-22T0000,1616A,117.6795,36.229,济南市,技术学院,细颗粒物(PM2.5),67,61,41,48,29,13,,86,53,55,31,9,12,0.8,0.6
2025-10-22T0000,1961A,117.532,36.6868,济南市,东山小学,颗粒物(PM10),58,66,45,32,21,2,,63,26,58,35,9,11,0.6,0.5
2025-10-22T0000,3059A,117.7161,36.2049,济南市,泰兴公司,细颗粒物(PM2.5),55,58,45,39,30,3,,86,35,61,35,8,9,0.6,0.4
2025-10-22T0000,3064A,117.6867,36.2171,济南市,莱芜战役纪念馆,细颗粒物(PM2.5),72,88,54,52,35,3,,90,51,60,32,10,9,0.4,0.5
2025-10-22T0000,3494A,117.1673,36.9782,济南市,济阳区政府,,34,34,49,17,20,44,,73,41,21,33,13,15,0.6,0.5
2025-10-22T0000,3495A,117.1171,36.63,济南市,锦屏中学,,32,32,32,17,16,30,,68,39,22,25,3,7,0.7,0.7
2025-10-22T0000,3682A,116.9814,36.6819,济南市,济南四建,颗粒物(PM10),57,63,45,32,22,9,,63,30,60,36,8,9,0.7,0.7
2025-10-22T0000,1653A,116.6251,35.4302,济宁市,火炬城,颗粒物(PM10),70,89,45,44,26,18,,85,56,45,23,7,6,0.3,0.1
2025-10-22T0000,1655A,116.5491,35.4042,济宁市,电化厂,颗粒物(PM10),68,85,55,44,27,28,,85,54,43,27,6,5,0.2,0.1
2025-10-22T0000,3500A,116.5814,35.3707,济宁市,北湖一中,细颗粒物(PM2.5),59,66,36,42,26,33,,81,59,34,21,2,2,0.3,0.2
2025-10-22T0000,3501A,116.8249,35.5593,济宁市,服务中心,颗粒物(PM10),59,68,42,32,18,13,,80,47,45,21,9,9,0.4,0.3
2025-10-22T0000,3678A,116.5907,35.4054,济宁市,市第七中学,颗粒物(PM10),61,72,46,39,19,34,,86,60,34,21,10,9,0.4,0.3
2025-10-22T0000,2255A,130.2751,46.8028,佳木斯市,佳纺,,34,34,28,16,12,41,,55,39,19,20,7,5,0.5,0.5
2025-10-22T0000,2256A,130.3995,46.8307,佳木斯市,发电厂,,22,22,31,12,12,48,,62,46,19,16,12,7,0.4,0.3
2025-10-22T0000,2257A,130.3258,46.7975,佳木斯市,环保局,,26,26,20,16,13,41,,63,37,18,15,4,4,0.4,0.4
2025-10-22T0000,2258A,130.3648,46.8032,佳木斯市,十一中,,27,27,21,16,13,52,,54,42,12,14,6,6,0.4,0.4
2025-10-22T0000,2259A,130.3794,46.7588,佳木斯市,四丰,,,,,,,,,,,,,,,,
2025-10-22T0000,1252A,120.7436,30.778,嘉兴市,清河小学,,25,25,27,9,10,61,,56,56,13,18,7,8,0.4,0.5
2025-10-22T0000,1253A,120.726,30.7478,嘉兴市,嘉兴学院,,24,24,27,8,10,65,,59,59,15,20,6,6,0.7,0.8
2025-10-22T0000,2872A,120.7846,30.7525,嘉兴市,南湖区残联,,25,25,26,9,11,71,,67,67,14,17,6,6,0.5,0.6
2025-10-22T0000,3407A,120.6916,30.7739,嘉兴市,秀洲住建,,23,22,30,8,12,73,,66,66,7,13,7,8,0.7,0.8
2025-10-22T0000,1945A,98.2908,39.7711,嘉峪关市,气象局,颗粒物(PM10),68,85,92,34,33,60,,95,73,28,27,4,19,0.6,0.8
2025-10-22T0000,2884A,98.2672,39.7978,嘉峪关市,酒钢宾馆,颗粒物(PM10),64,78,99,34,34,67,,88,80,18,25,14,34,0.8,1
2025-10-22T0000,3248A,98.2643,39.7724,嘉峪关市,雄关区,颗粒物(PM10),60,69,74,37,33,57,,90,72,34,37,15,26,1.0,0.7
2025-10-22T0000,1383A,113.1064,22.6058,江门市,北街,,16,10,16,3,6,49,,55,52,18,18,5,6,0.5,0.5
2025-10-22T0000,1384A,113.0731,22.5835,江门市,西区,,15,10,15,3,5,48,,52,50,16,17,5,5,0.4,0.5
2025-10-22T0000,1385A,113.0219,22.5311,江门市,圭峰西,,16,8,14,3,4,51,,55,53,15,16,5,5,0.4,0.5
2025-10-22T0000,1386A,113.0828,22.5947,江门市,东湖,,,,11,,6,,,46,,,16,,4,,0.4
2025-10-22T0000,3311A,113.1075,22.5647,江门市,江海富民,,15,13,21,7,8,48,,53,49,19,20,7,8,0.5,0.5
2025-10-22T0000,3449A,113.05,22.4667,江门市,新会银湖,,15,8,17,3,5,45,,50,46,17,17,4,4,0.4,0.5
2025-10-22T0000,1830A,113.1992,35.2590,焦作市,影视城,,,,34,,18,,,72,66,,15,,10,,0.4
2025-10-22T0000,3335A,113.3137,35.2641,焦作市,马村街道办,,48,48,49,27,29,50,,68,54,16,21,6,7,0.5,0.2
2025-10-22T0000,3336A,113.2465,35.2373,焦作市,焦作技师学院,颗粒物(PM10),51,51,46,27,27,45,,67,54,24,25,10,12,0.1,0.2
2025-10-22T0000,3477A,113.1656,35.2539,焦作市,中站许衡医院,细颗粒物(PM2.5),58,57,44,41,32,53,,72,64,18,17,5,6,0.4,0.4
2025-10-22T0000,3981A,113.2449,35.1803,焦作市,原李万街道办,颗粒物(PM10),54,57,55,27,23,46,,71,56,20,21,6,5,0.7,0.6
2025-10-22T0000,4264A,113.2340,35.2190,焦作市,新安路1731号,颗粒物(PM10),51,51,52,33,30,50,,67,56,16,19,6,10,0.4,0.4
2025-10-22T0000,4295A,113.2722,35.2121,焦作市,人民路3066号,颗粒物(PM10),53,56,52,24,21,41,,75,60,29,28,7,10,0.5,0.7
2025-10-22T0000,1708A,116.3701,23.5345,揭阳市,新兴,,13,,14,9,11,30,,50,30,13,10,5,5,0.4,0.5
2025-10-22T0000,1709A,116.3264,23.5443,揭阳市,西马,,8,,21,3,11,25,,35,,10,12,2,3,0.5,0.6
2025-10-22T0000,1710A,116.3611,23.5626,揭阳市,东兴,,12,12,14,3,8,22,,44,24,16,11,6,5,0.4,0.4
2025-10-22T0000,1711A,116.4151,23.5294,揭阳市,渔湖,,11,8,14,3,8,33,,43,38,13,12,6,9,0.6,0.7
2025-10-22T0000,3320A,116.403,23.5699,揭阳市,曲溪,,11,6,10,3,8,35,,50,42,10,7,2,2,0.4,0.4
2025-10-22T0000,1944A,102.1692,38.5167,金昌市,天庆家园,,,107,89,55,44,24,,59,40,,17,,12,1.0,0.9
2025-10-22T0000,4022A,102.1647,38.5371,金昌市,金川区人防中心,颗粒物(PM10),81,111,85,58,46,27,,58,40,26,17,13,9,0.9,0.7
2025-10-22T0000,4239A,102.1930,38.5319,金昌市,长春路96号,颗粒物(PM10),79,107,86,50,38,23,,53,35,25,20,30,22,1.1,0.7
2025-10-22T0000,1262A,119.647,29.077,金华市,十五中,,42,42,32,21,12,38,,68,55,26,17,3,2,0.5,0.4
2025-10-22T0000,1263A,119.686,29.1029,金华市,监测站,,36,36,33,16,13,49,,68,53,24,20,5,5,0.5,0.4
2025-10-22T0000,3659A,119.656,29.1131,金华市,气象局,,28,28,29,15,11,52,,59,48,19,23,3,4,0.5,0.5
2025-10-22T0000,1767A,121.1115,41.0879,锦州市,南山,细颗粒物(PM2.5),124,106,36,94,27,2,,72,24,46,27,7,9,1.6,0.8
2025-10-22T0000,1768A,121.0604,40.8428,锦州市,开发区,细颗粒物(PM2.5),84,116,57,62,27,3,,66,21,67,35,27,22,1.4,0.8
2025-10-22T0000,1769A,121.1836,41.1119,锦州市,百股街道,细颗粒物(PM2.5),52,50,38,36,22,12,,71,27,31,22,7,11,1.0,0.8
2025-10-22T0000,1770A,121.1178,41.1222,锦州市,天安街道,细颗粒物(PM2.5),97,111,37,72,21,2,,73,24,49,46,10,12,2.1,0.8
2025-10-22T0000,1771A,121.1303,41.1386,锦州市,北湖公园,,46,46,35,26,18,4,,68,24,41,23,7,11,0.7,0.4
2025-10-22T0000,2160A,112.85,35.5051,晋城市,自来水公司,颗粒物(PM10),54,58,47,27,22,62,,72,66,18,17,6,6,0.7,0.8
2025-10-22T0000,2161A,112.8318,35.4936,晋城市,白云商贸,,50,50,56,14,11,65,,72,68,14,14,3,4,0.3,0.4
2025-10-22T0000,2162A,112.8508,35.4887,晋城市,市环保局,,43,43,45,22,18,61,,73,64,9,10,5,5,0.5,0.5
2025-10-22T0000,2163A,112.8676,35.4897,晋城市,技术学院,颗粒物(PM10),53,56,41,27,17,55,,64,58,16,17,6,6,0.6,0.6
2025-10-22T0000,2165A,112.8453,35.546,晋城市,白马寺,,45,45,41,31,25,68,,80,76,13,12,7,8,0.5,0.5
2025-10-22T0000,3620A,112.8271,35.4828,晋城市,泽州一中,颗粒物(PM10),53,55,46,27,20,65,,75,69,17,16,3,4,0.3,0.3
2025-10-22T0000,2173A,112.7249,37.7067,晋中市,南都小区,"颗粒物(PM10),细颗粒物(PM2.5)",54,58,66,38,38,7,,23,15,41,35,8,6,0.8,0.7
2025-10-22T0000,2174A,112.6991,37.6982,晋中市,榆次区政府,细颗粒物(PM2.5),67,63,66,48,48,5,,18,10,38,33,7,7,0.8,0.7
2025-10-22T0000,2865A,112.7195,37.6828,晋中市,榆次三中,颗粒物(PM10),65,80,70,44,40,3,,20,12,46,33,12,9,0.8,0.6
2025-10-22T0000,4200A,112.7478,37.6954,晋中市,迎宾街26号,细颗粒物(PM2.5),70,75,68,51,44,4,,23,14,46,34,10,7,0.8,0.6
2025-10-22T0000,2439A,112.2014,31.0481,荆门市,竹园小学,,48,47,41,33,31,52,,59,58,18,17,1,1,0.1,0.2
2025-10-22T0000,2440A,112.1969,30.9891,荆门市,掇刀,,49,48,41,34,28,58,,63,62,10,9,2,1,0.3,0.3
2025-10-22T0000,2441A,112.2213,31.0386,荆门市,石化一小,细颗粒物(PM2.5),59,56,40,42,30,43,,50,49,13,12,4,4,0.4,0.4
2025-10-22T0000,3012A,112.1849,31.0362,荆门市,西山林语,,46,45,36,32,27,55,,60,59,14,13,4,3,0.3,0.3
2025-10-22T0000,3547A,112.1632,31.0138,荆门市,龙泉中学南校,细颗粒物(PM2.5),57,50,34,40,28,60,,64,64,15,12,6,4,1.2,0.9
2025-10-22T0000,1844A,112.2494,30.3197,荆州市,市图书馆,,45,36,23,31,18,41,,46,42,19,19,8,6,0.3,0.3
2025-10-22T0000,1845A,112.2008,30.3544,荆州市,市委党校,,43,42,28,30,21,39,,43,40,23,19,8,7,0.5,0.4
2025-10-22T0000,3194A,112.2747,30.3122,荆州市,管委会,,50,50,26,32,20,43,,47,45,13,17,8,7,0.4,0.3
2025-10-22T0000,4268A,112.1722,30.3366,荆州市,学苑路85号,,49,40,27,34,25,50,,51,51,16,13,19,14,0.3,0.2
2025-10-22T0000,2342A,117.3102,29.3867,景德镇市,王港中学,,,,,,,,,,,,,,,,
2025-10-22T0000,2343A,117.2117,29.2933,景德镇市,老干部活动中心,,19,12,14,10,9,58,,60,55,1,2,4,4,0.7,0.6
2025-10-22T0000,2344A,117.1894,29.2789,景德镇市,兽医站,,22,22,22,3,6,58,,63,56,6,6,5,5,0.5,0.5
2025-10-22T0000,2346A,117.2461,29.2956,景德镇市,陶研所,,18,,12,11,11,57,,66,56,2,4,6,5,0.2,0.4
2025-10-22T0000,4289A,117.1542,29.2566,景德镇市,青少年活动中心,,19,,18,8,9,58,,64,56,5,5,2,2,0.7,0.6
2025-10-22T0000,1803A,115.9872,29.6815,九江市,十里,,25,18,22,17,13,61,,71,68,14,14,3,3,0.4,0.4
2025-10-22T0000,1804A,115.9584,29.7046,九江市,茅山头,,18,18,23,12,17,54,,65,60,9,9,4,4,0.5,0.4
2025-10-22T0000,1805A,115.9877,29.7295,九江市,西园,,21,21,21,9,9,63,,74,69,14,13,4,4,0.4,0.4
2025-10-22T0000,1808A,115.9114,29.6038,九江市,综合工业园,,33,,20,23,17,59,,70,66,10,9,2,1,0.4,0.3
2025-10-22T0000,1809A,116.0721,29.7535,九江市,石化总厂,,25,25,24,10,10,57,,68,64,13,14,2,3,0.4,0.3
2025-10-22T0000,1810A,115.9773,29.5698,九江市,庐山气象台,,,,,,,,,,,,,,,,
2025-10-22T0000,3190A,116.0254,29.6994,九江市,外国语学校,,23,23,26,9,16,52,,62,58,18,17,1,2,0.5,0.4
2025-10-22T0000,4253A,116.0102,29.6594,九江市,莲花大道8号,,28,28,27,17,14,52,,63,60,9,7,5,4,0.3,0.3
2025-10-22T0000,4240A,98.4958,39.7339,酒泉市,玉门东路5号,颗粒物(PM10),92,134,80,63,28,10,,84,60,60,18,9,10,1.3,0.5
2025-10-22T0000,4241A,98.5099,39.7506,酒泉市,北大街108号,颗粒物(PM10),76,102,68,44,24,25,,82,67,35,11,7,8,0.9,0.4
2025-10-22T0000,2698A,76.0072,39.4467,喀什地区,巡警大队,颗粒物(PM10),334,447,364,142,115,2,,80,50,86,50,7,6,1.1,0.8
2025-10-22T0000,2699A,75.9755,39.4694,喀什地区,吾办,颗粒物(PM10),235,374,296,162,100,2,,72,47,84,43,8,7,1.6,0.8
2025-10-22T0000,4027A,75.9483,39.4689,喀什地区,老干局,颗粒物(PM10),282,407,335,110,87,3,,74,49,78,42,3,3,1.5,0.8
2025-10-22T0000,1824A,114.3389,34.7781,开封市,肿瘤医院,"颗粒物(PM10),细颗粒物(PM2.5)",63,76,51,45,26,27,,83,58,44,25,9,10,0.7,0.6
2025-10-22T0000,1826A,114.2885,34.7965,开封市,世纪星幼儿园,细颗粒物(PM2.5),59,65,43,42,27,26,,86,62,47,26,8,8,0.7,0.6
2025-10-22T0000,3147A,114.3438,34.8106,开封市,龙亭公园,细颗粒物(PM2.5),75,90,55,55,30,18,,81,41,50,28,10,11,0.5,0.7
2025-10-22T0000,3210A,114.3644,34.7964,开封市,汴京公园,颗粒物(PM10),71,92,53,43,29,16,,82,55,53,26,8,9,0.6,0.5
2025-10-22T0000,3473A,114.2485,34.8306,开封市,技师学院,颗粒物(PM10),65,79,44,43,27,11,,78,49,60,30,10,10,0.7,0.7
2025-10-22T0000,3592A,114.4644,34.7556,开封市,祥符区生态环境局,颗粒物(PM10),71,91,61,46,30,16,,71,42,47,26,7,8,0.6,0.5
2025-10-22T0000,1951A,84.895,45.6094,克拉玛依市,长征新村,,49,49,54,13,12,45,,59,49,24,18,3,3,0.2,0.3
2025-10-22T0000,1952A,84.8988,45.5893,克拉玛依市,南林小区,颗粒物(PM10),61,71,57,22,14,12,,56,35,43,22,4,4,0.6,0.4
2025-10-22T0000,1954A,84.905,44.3396,克拉玛依市,独山子区,颗粒物(PM10),73,96,87,31,32,46,,76,48,21,24,5,6,0.4,0.4
2025-10-22T0000,1955A,85.6979,46.098,克拉玛依市,乌尔禾区商贸楼,颗粒物(PM10),52,53,43,9,8,46,,64,48,21,17,5,5,0.3,0.4
2025-10-22T0000,3612A,85.1045,45.6899,克拉玛依市,白碱滩区新站,,48,48,70,10,15,71,,70,70,4,12,5,5,0.3,0.3
2025-10-22T0000,2697A,76.1454,39.7142,克孜勒苏柯尔克孜自治州,市人民政府,颗粒物(PM10),157,264,276,102,107,42,,88,63,33,21,10,15,0.3,0.2
2025-10-22T0000,3665A,76.1658,39.7157,克孜勒苏柯尔克孜自治州,克州文化中心,颗粒物(PM10),154,257,270,100,99,28,,89,66,53,24,8,16,0.4,0.4
2025-10-22T0000,1450A,102.8204,24.8886,昆明市,呈贡新区,,29,,15,20,12,38,,42,35,8,9,7,4,0.7,0.6
2025-10-22T0000,1451A,102.6251,24.9608,昆明市,西山森林公园,,,,,,,,,,,,,,,,
2025-10-22T0000,1452A,102.7252,25.0902,昆明市,龙泉镇,,17,17,13,8,7,20,,30,26,26,11,2,2,0.8,0.7
2025-10-22T0000,1453A,102.7266,25.0375,昆明市,东风东路,,16,16,16,10,10,31,,33,26,15,14,1,2,0.5,0.6
2025-10-22T0000,1454A,102.6742,25.0669,昆明市,金鼎山,,,,16,6,8,32,,32,31,10,11,1,2,0.5,0.5
2025-10-22T0000,1455A,102.6644,25.0401,昆明市,碧鸡广场,,16,,10,11,12,35,,30,27,12,16,8,8,0.6,0.6
2025-10-22T0000,3179A,102.7494,25.0119,昆明市,官渡区博物馆,,16,16,14,9,11,26,,26,20,19,18,2,2,0.6,0.6
2025-10-22T0000,3375A,102.8017,24.8336,昆明市,青年创业园,,18,18,16,11,9,34,,45,32,9,9,1,1,0.6,0.6
2025-10-22T0000,3550A,102.7997,24.9786,昆明市,昆明学院,,18,18,16,12,10,39,,37,28,11,13,7,7,0.7,0.7
2025-10-22T0000,3551A,102.5967,24.6736,昆明市,晋宁区生态环境分局,,15,15,19,9,9,42,,32,31,11,13,5,2,0.6,0.7
2025-10-22T0000,3552A,102.6678,24.9856,昆明市,云天化总部,,18,18,14,11,9,30,,42,23,18,15,3,4,0.6,0.7
2025-10-22T0000,1456A,91.1319,29.6514,拉萨市,八廓街,,30,27,20,16,11,33,,122,92,59,19,5,9,0.5,0.2
2025-10-22T0000,1457A,91.1221,29.6747,拉萨市,市环保局,,30,30,22,18,11,34,,116,85,33,19,7,10,0.6,0.5
2025-10-22T0000,1458A,91.0874,29.6475,拉萨市,区监测站,,47,31,16,18,9,12,,118,79,94,35,5,7,0.8,0.4
2025-10-22T0000,1459A,91.1774,29.6541,拉萨市,西藏大学,,33,33,18,12,8,58,,122,103,45,20,6,10,0.3,0.2
2025-10-22T0000,1460A,90.9798,29.6588,拉萨市,区辐射站,颗粒物(PM10),55,60,29,22,14,19,,101,74,80,34,8,9,0.6,0.4
2025-10-22T0000,1461A,91.0834,29.6292,拉萨市,拉萨火车站,,25,21,18,13,9,58,,120,102,49,25,5,7,0.4,0.3
2025-10-22T0000,2520A,109.2203,23.7256,来宾市,来宾技工学校,,15,15,18,3,2,37,,60,46,8,6,8,8,0.6,0.6
2025-10-22T0000,3535A,109.1781,23.7297,来宾市,兴宾区政府,,12,12,14,8,6,37,,58,45,7,7,7,8,0.4,0.5
2025-10-22T0000,4002A,109.2416,23.7461,来宾市,中南小学,,14,14,18,6,4,36,,57,43,8,7,6,6,0.5,0.6
2025-10-22T0000,1477A,104.1373,35.9454,兰州市,榆中兰大校区,,,,,,,,,,,,,,,,
2025-10-22T0000,1479A,103.831,36.0464,兰州市,铁路设计院,,,,,,,,,,,,,,,,
2025-10-22T0000,3241A,103.7439,36.0842,兰州市,百合公园,,36,36,43,20,26,41,,67,55,7,14,4,7,0.8,0.8
2025-10-22T0000,3242A,103.9611,35.998,兰州市,和平,,23,23,26,7,9,34,,56,41,13,14,2,2,0.5,0.5
2025-10-22T0000,4236A,103.6293,36.0938,兰州市,庄浪东路808号,,46,45,52,32,33,44,,75,59,25,28,17,10,0.8,0.6
2025-10-22T0000,4237A,103.7251,36.1043,兰州市,安宁西路88号,颗粒物(PM10),61,71,50,39,37,43,,87,63,15,13,6,6,0.6,0.5
2025-10-22T0000,4238A,103.8470,36.0676,兰州市,北滨河东路1号,,31,31,43,21,28,38,,67,53,19,21,23,9,1.0,0.8
2025-10-22T0000,3245A,103.6633,36.533,兰州新区,新区管委会,细颗粒物(PM2.5),65,71,50,47,34,42,,75,58,16,13,13,12,0.6,0.6
2025-10-22T0000,3246A,103.6975,36.4789,兰州新区,舟曲中学,细颗粒物(PM2.5),65,76,52,47,33,43,,76,60,24,20,3,13,0.5,0.5
2025-10-22T0000,1067A,116.6708,39.5111,廊坊市,药材公司,颗粒物(PM10),53,56,34,31,17,1,,55,21,59,37,1,3,0.6,0.4
2025-10-22T0000,1068A,116.7214,39.5589,廊坊市,开发区,,47,47,30,28,16,1,,58,16,38,32,2,2,0.6,0.3
2025-10-22T0000,1070A,116.7244,39.5269,廊坊市,北华航天学院,颗粒物(PM10),65,80,38,45,18,2,,58,18,40,33,6,7,0.7,0.4
2025-10-22T0000,2919A,116.7022,39.5453,廊坊市,河北工业大学,颗粒物(PM10),55,59,34,33,17,3,,60,22,59,37,2,3,0.6,0.4
2025-10-22T0000,2535A,103.7723,29.5462,乐山市,花湖湾,,,,,,,,,,,,,,,,
2025-10-22T0000,2536A,103.7627,29.5844,乐山市,牛耳桥,,9,8,11,3,6,27,,39,34,14,17,6,7,0.6,0.6
2025-10-22T0000,2537A,103.7508,29.6006,乐山市,市第三水厂,,10,9,10,3,4,30,,40,35,13,16,5,5,0.5,0.5
2025-10-22T0000,2538A,103.7571,29.5664,乐山市,市监测站,,9,7,10,3,6,28,,37,33,9,13,5,5,0.5,0.5
2025-10-22T0000,3361A,103.7311,29.5628,乐山市,理工大学,,10,7,11,3,7,30,,42,38,10,14,6,7,0.6,0.6
2025-10-22T0000,2598A,100.2143,26.8576,丽江市,西南郊,,33,33,13,16,6,35,,84,62,15,6,6,7,1.3,1.2
2025-10-22T0000,2599A,100.2497,26.8802,丽江市,丽江古城,,29,29,18,7,6,36,,79,57,16,11,10,9,0.5,0.5
2025-10-22T0000,2600A,100.2203,26.8906,丽江市,市中心,,20,,14,14,8,51,,87,68,11,11,11,11,0.4,0.5
2025-10-22T0000,1267A,119.914,28.4514,丽水市,监测站大楼,,24,24,24,13,10,46,,54,49,12,12,4,4,0.1,0.1
2025-10-22T0000,1268A,119.93,28.4586,丽水市,莲都小学,,28,28,30,13,10,50,,60,47,12,14,4,4,0.3,0.3
2025-10-22T0000,1269A,119.879,28.4231,丽水市,余庄前,,28,28,30,17,13,32,,45,29,16,17,4,4,0.3,0.2
2025-10-22T0000,1173A,119.176,34.5885,连云港市,市环境监测站,,39,39,26,22,9,42,,71,48,37,30,8,8,0.9,0.7
2025-10-22T0000,3000A,119.3581,34.6972,连云港市,德源药业,,27,27,30,3,6,64,,63,51,17,24,6,5,0.3,0.3
2025-10-22T0000,3007A,119.178,34.844,连云港市,新城一中,,43,40,30,30,15,43,,70,49,38,34,8,10,1.0,0.9
2025-10-22T0000,3008A,119.3608,34.7519,连云港市,胡沟管理处,,22,19,16,7,3,68,,81,77,14,13,11,11,0.7,0.7
2025-10-22T0000,3009A,119.1478,34.5911,连云港市,矿山设计院,,44,44,28,27,9,50,,73,41,24,24,4,5,0.8,0.7
2025-10-22T0000,3434A,119.2413,34.6539,连云港市,工贸学校,,36,36,22,19,9,61,,74,55,24,18,18,9,1.7,0.6
2025-10-22T0000,3664A,119.4172,34.7341,连云港市,连云街道,,35,35,22,12,7,73,,77,75,16,13,3,2,0.3,0.2
2025-10-22T0000,2571A,102.3431,27.8099,凉山彝族自治州,青龙寺,,,,,,,,,,,,,,,,
2025-10-22T0000,2572A,102.2721,27.8415,凉山彝族自治州,邛海宾馆,,16,7,8,3,4,51,,54,54,5,5,8,9,0.6,0.6
2025-10-22T0000,2573A,102.2625,27.898,凉山彝族自治州,西昌市政府,,15,6,7,3,5,45,,49,46,5,7,5,6,0.3,0.4
2025-10-22T0000,2574A,102.2685,27.8851,凉山彝族自治州,凉山州政府,,,22,11,,13,48,,49,47,2,5,7,7,0.7,0.9
2025-10-22T0000,4229A,102.2342,27.8859,凉山彝族自治州,凯乐南路30号,,17,10,10,3,3,53,,55,54,2,7,5,6,0.6,0.6
2025-10-22T0000,2212A,123.2,41.1953,辽阳市,宏伟区,颗粒物(PM10),72,93,64,44,28,4,,56,18,38,31,5,6,1.2,0.6
2025-10-22T0000,2213A,123.1683,41.2495,辽阳市,新华园,细颗粒物(PM2.5),72,73,65,52,40,3,,58,21,46,36,8,9,0.5,0.8
2025-10-22T0000,2214A,123.2354,41.2639,辽阳市,滨河路,颗粒物(PM10),66,82,62,41,32,0,,58,13,40,32,6,6,0.6,0.6
2025-10-22T0000,2215A,123.149,41.2991,辽阳市,铁西工业园,细颗粒物(PM2.5),114,140,73,86,42,0,,55,6,42,35,6,6,1.3,0.6
2025-10-22T0000,2227A,125.1358,42.8845,辽源市,环保局,细颗粒物(PM2.5),104,143,94,78,35,4,,69,23,44,30,4,6,1.0,0.8
2025-10-22T0000,3239A,125.0764,42.9078,辽源市,银鹰制药,细颗粒物(PM2.5),119,106,61,90,40,7,,68,19,46,30,7,9,1.0,0.7
2025-10-22T0000,1625A,115.9848,36.4372,聊城市,区政府,颗粒物(PM10),61,72,49,38,23,9,,74,37,69,36,9,15,0.5,0.5
2025-10-22T0000,2878A,116.0072,36.4343,聊城市,聊大东校,颗粒物(PM10),63,75,53,38,27,11,,74,41,68,34,8,14,0.5,0.5
2025-10-22T0000,3200A,115.9819,36.4978,聊城市,监控中心,颗粒物(PM10),65,80,56,41,26,6,,74,26,63,38,10,15,0.7,0.7
2025-10-22T0000,3513A,116.0445,36.4361,聊城市,九州社区,颗粒物(PM10),59,68,54,31,23,10,,71,35,63,32,10,13,0.6,0.6
2025-10-22T0000,4018A,116.0567,36.4608,聊城市,星美广场,颗粒物(PM10),64,77,60,33,21,11,,71,30,72,35,8,13,0.5,0.5
2025-10-22T0000,2632A,94.3681,29.6376,林芝市,林芝监测站,,19,11,12,7,6,58,,76,67,5,6,4,4,0.3,0.3
2025-10-22T0000,2633A,94.3616,29.6616,林芝市,林芝人民医院,,19,19,16,9,7,51,,76,66,5,5,4,4,0.4,0.4
2025-10-22T0000,2603A,100.0781,23.8982,临沧市,市环保局,细颗粒物(PM2.5),59,,18,42,27,20,,51,32,4,5,3,7,0.9,0.8
2025-10-22T0000,2604A,100.0894,23.8822,临沧市,市气象局,,23,23,19,14,15,14,,46,31,11,7,6,6,0.6,0.6
2025-10-22T0000,1733A,111.5531,36.0783,临汾市,临钢医院,细颗粒物(PM2.5),64,71,53,46,29,40,,51,30,31,23,11,7,0.9,0.7
2025-10-22T0000,1734A,111.5028,36.0714,临汾市,技工学校,细颗粒物(PM2.5),72,78,50,52,33,38,,50,32,34,26,12,7,0.8,0.7
2025-10-22T0000,1736A,111.5018,36.0855,临汾市,市委,颗粒物(PM10),67,84,58,41,29,35,,57,34,33,24,11,6,0.6,0.5
2025-10-22T0000,3018A,111.505,36.1014,临汾市,唐尧大酒店,颗粒物(PM10),66,81,59,40,29,34,,57,30,32,23,8,4,0.8,0.8
2025-10-22T0000,4244A,111.4879,36.0530,临汾市,启星学校,细颗粒物(PM2.5),74,76,53,54,37,42,,53,29,34,28,11,6,0.8,0.8
2025-10-22T0000,4271A,103.2464,35.6123,临夏回族自治州,滨河东路1号,,33,33,40,16,21,22,,46,33,12,14,6,6,0.4,0.4
2025-10-22T0000,4310A,103.2093,35.5995,临夏回族自治州,新华街21号,,30,30,39,16,22,32,,47,46,15,14,7,8,0.5,0.5
2025-10-22T0000,1618A,118.3429,35.0532,临沂市,沂河小区,细颗粒物(PM2.5),60,61,37,43,22,42,,76,58,32,19,7,7,0.5,0.3
2025-10-22T0000,1619A,118.295,35.0583,临沂市,鲁南制药厂,颗粒物(PM10),52,53,30,35,20,52,,83,66,33,23,8,8,0.7,0.4
2025-10-22T0000,1620A,118.2794,34.9976,临沂市,新光毛纺厂,颗粒物(PM10),51,51,27,32,20,53,,78,64,30,21,8,8,0.5,0.3
2025-10-22T0000,1621A,118.3956,35.0888,临沂市,河东保险公司,细颗粒物(PM2.5),62,68,36,44,18,29,,78,45,48,29,6,7,0.7,0.5
2025-10-22T0000,3370A,118.3564,35.0215,临沂市,十里堡居委,颗粒物(PM10),59,68,32,31,12,32,,81,55,53,29,8,8,0.5,0.3
2025-10-22T0000,3496A,118.3604,35.1084,临沂市,南坊新区,"颗粒物(PM10),细颗粒物(PM2.5)",58,66,33,41,16,34,,80,51,43,25,9,9,0.8,0.5
2025-10-22T0000,3860A,118.3920,35.0300,临沂市,皇山花园小区,颗粒物(PM10),60,70,36,41,18,21,,80,52,55,22,8,9,0.6,0.4
2025-10-22T0000,1870A,109.4856,24.3895,柳州市,柳东小学,,14,14,13,7,6,42,,53,45,5,5,5,5,0.4,0.4
2025-10-22T0000,1871A,109.4157,24.3277,柳州市,环保监测站,,,,13,,2,39,,47,41,5,5,7,7,0.6,0.6
2025-10-22T0000,1872A,109.389,24.341,柳州市,河西水厂,,16,16,19,9,8,21,,41,26,23,19,14,12,1.6,1.4
2025-10-22T0000,1873A,109.4311,24.2921,柳州市,市四中,,18,,13,12,3,26,,40,27,7,7,7,8,0.7,0.7
2025-10-22T0000,1874A,109.4006,24.3631,柳州市,市九中,,15,15,17,6,5,37,,48,41,12,11,3,3,0.4,0.5
2025-10-22T0000,1875A,109.4958,24.3134,柳州市,古亭山,,12,6,11,3,3,36,,51,41,4,4,6,6,0.4,0.4
2025-10-22T0000,3402A,109.5422,24.3996,柳州市,市二中,,15,10,10,10,6,43,,53,43,8,9,7,7,0.3,0.4
2025-10-22T0000,2307A,116.5079,31.737,六安市,监测大楼,,28,28,24,18,17,43,,54,48,15,13,3,3,0.3,0.3
2025-10-22T0000,2308A,116.4738,31.7643,六安市,皖西学院,,25,21,16,17,17,51,,60,54,12,10,3,2,0.3,0.3
2025-10-22T0000,2309A,116.4996,31.7905,六安市,朝阳厂,,25,23,20,17,16,48,,53,48,16,15,2,1,0.3,0.3
2025-10-22T0000,2310A,116.5567,31.7886,六安市,开发区,,33,33,21,16,16,39,,54,44,13,10,1,1,0.3,0.2
2025-10-22T0000,2576A,104.8,26.5892,六盘水市,窑上,,24,24,21,16,11,22,,40,28,5,4,2,2,0.5,0.5
2025-10-22T0000,2577A,104.83,26.5917,六盘水市,黄土坡,,15,,8,10,5,31,,36,34,8,9,5,5,0.7,0.7
2025-10-22T0000,2578A,104.89,26.5939,六盘水市,水钢,,25,20,16,17,6,38,,35,34,6,9,3,3,0.6,0.7
2025-10-22T0000,2579A,104.8475,26.5894,六盘水市,民中,,10,10,7,7,4,32,,33,29,6,9,2,2,0.5,0.5
2025-10-22T0000,2580A,104.9544,26.5506,六盘水市,双水,,19,19,11,12,8,34,,34,33,4,7,3,3,0.5,0.5
2025-10-22T0000,2335A,117.0189,25.1181,龙岩市,龙岩师专,,,,,,,,,,,,,,,,
2025-10-22T0000,2336A,117.0217,25.1033,龙岩市,龙岩市监测站,,17,6,3,3,1,52,,52,50,6,7,4,4,0.3,0.4
2025-10-22T0000,2337A,117.0258,25.0661,龙岩市,闽西职业技术学院,,,,5,2,3,55,,55,54,3,4,3,3,0.5,0.5
2025-10-22T0000,2338A,117.0196,25.0306,龙岩市,龙岩学院,,19,,6,3,3,59,,56,56,3,5,7,8,0.4,0.4
2025-10-22T0000,2665A,105.0822,33.3261,陇南市,汉王镇固水子,,,,,,,,,,,,,,,,
2025-10-22T0000,2885A,104.9339,33.3826,陇南市,滨江中学,,28,28,33,14,13,37,,46,38,4,6,6,6,0.6,0.6
2025-10-22T0000,3247A,104.955,33.371,陇南市,市总工会,,29,29,29,9,11,37,,46,36,7,10,6,6,0.9,0.9
2025-10-22T0000,2487A,111.9589,27.8901,娄底市,电视发射台,,,,,,,,,,,,,,,,
2025-10-22T0000,2488A,111.9975,27.725,娄底市,市监测站,,19,,9,13,8,51,,50,48,13,12,10,16,0.3,0.3
2025-10-22T0000,2489A,112.0194,27.7314,娄底市,市委党校,,18,13,9,9,6,57,,55,53,6,7,3,2,0,0
2025-10-22T0000,2490A,111.9561,27.7569,娄底市,涟钢,,15,6,15,3,10,46,,47,44,7,7,3,4,0.3,0.3
2025-10-22T0000,2491A,111.9892,27.7044,娄底市,市政府,,18,15,9,9,8,55,,52,50,9,9,5,6,0.4,0.4
2025-10-22T0000,1893A,105.4324,28.9634,泸州市,九狮山,,,,,,,,,,,,,,,,
2025-10-22T0000,1894A,105.4427,28.9063,泸州市,小市上码头,,32,32,11,17,5,23,,32,30,16,13,8,7,0.7,0.6
2025-10-22T0000,1895A,105.4241,28.8573,泸州市,兰田宪桥,,30,30,12,15,5,13,,25,16,15,11,5,5,0.4,0.4
2025-10-22T0000,1896A,105.4379,28.8833,泸州市,市环监站,,36,36,16,14,6,16,,22,19,17,14,8,8,0.5,0.5
2025-10-22T0000,4272A,105.3689,28.7783,泸州市,纳溪中医医院,,21,21,9,14,6,18,,29,24,19,13,6,5,0.6,0.6
2025-10-22T0000,2183A,111.1406,37.5211,吕梁市,环保局,细颗粒物(PM2.5),70,70,46,51,35,17,,29,21,41,35,3,3,0.9,0.8
2025-10-22T0000,2185A,111.1297,37.5136,吕梁市,自来水公司,颗粒物(PM10),79,107,50,57,33,8,,26,,41,33,3,5,1.4,1.4
2025-10-22T0000,2867A,111.1283,37.51,吕梁市,马茂庄小学,细颗粒物(PM2.5),77,88,58,56,37,10,,25,15,47,37,5,7,1.1,1.3
2025-10-22T0000,1812A,112.3931,34.6516,洛阳市,市委党校,颗粒物(PM10),55,59,41,37,31,40,,74,56,37,26,6,6,0.4,0.4
2025-10-22T0000,1815A,112.494,34.6886,洛阳市,河南林校,颗粒物(PM10),56,61,49,30,29,28,,77,49,45,28,8,8,0.4,0.3
2025-10-22T0000,1816A,112.3844,34.623,洛阳市,开发区管委会,颗粒物(PM10),53,56,41,29,28,41,,79,61,30,22,8,7,0.5,0.4
2025-10-22T0000,1817A,112.4267,34.6258,洛阳市,市委新办公区,颗粒物(PM10),55,60,42,38,28,35,,73,52,35,25,9,8,0.5,0.5
2025-10-22T0000,3340A,112.6005,34.6326,洛阳市,伊滨,细颗粒物(PM2.5),67,,48,48,39,11,,72,40,47,24,4,4,0.4,0.3
2025-10-22T0000,3341A,112.4951,34.6332,洛阳市,中移产业园,细颗粒物(PM2.5),88,91,50,65,38,19,,70,46,44,28,8,7,0.3,0.2
2025-10-22T0000,3593A,112.5736,34.8993,洛阳市,吉利监测站,颗粒物(PM10),57,64,49,32,27,21,,80,56,40,23,7,8,0.5,0.4
2025-10-22T0000,3635A,112.3677,34.662,洛阳市,河科大西苑校区,颗粒物(PM10),56,62,44,34,29,34,,79,60,42,28,9,8,0.6,0.6
2025-10-22T0000,3636A,112.4388,34.6781,洛阳市,英才小学,颗粒物(PM10),60,70,52,29,23,34,,77,53,39,28,7,7,0.4,0.3
2025-10-22T0000,4214A,112.4600,34.6949,洛阳市,春都路1号院,颗粒物(PM10),59,67,52,27,22,30,,68,46,33,27,8,8,0.5,0.5
2025-10-22T0000,2399A,114.051,33.5699,漯河市,三五一五工厂,细颗粒物(PM2.5),79,98,65,58,43,23,,80,52,32,21,7,7,0.6,0.4
2025-10-22T0000,2400A,114.0055,33.5698,漯河市,漯河大学,颗粒物(PM10),71,92,63,51,39,33,,84,60,33,24,6,6,0.5,0.4
2025-10-22T0000,2401A,114.0138,33.5828,漯河市,市水利局,细颗粒物(PM2.5),73,78,56,53,42,36,,78,56,30,22,7,7,0.8,0.7
2025-10-22T0000,2402A,114.0261,33.5698,漯河市,市广电局,细颗粒物(PM2.5),74,76,58,54,39,34,,82,58,27,18,6,6,0.6,0.5
2025-10-22T0000,3478A,113.9749,33.5664,漯河市,市图书馆,细颗粒物(PM2.5),79,89,65,58,39,20,,74,56,39,23,3,4,0.6,0.5
2025-10-22T0000,4250A,114.0892,33.5882,漯河市,韶山路11号,细颗粒物(PM2.5),77,87,59,56,37,15,,70,38,48,27,7,7,0.6,0.6
2025-10-22T0000,1798A,118.5092,31.6837,马鞍山市,湖东路四小,,27,27,26,13,16,45,,52,44,22,20,5,5,0.6,0.5
2025-10-22T0000,1799A,118.5024,31.6449,马鞍山市,开发区,,27,27,26,12,15,45,,54,46,24,23,8,7,0.7,0.6
2025-10-22T0000,1802A,118.6245,31.7241,马鞍山市,濮塘,,,,,,,,,,,,,,,,
2025-10-22T0000,3633A,118.4918,31.6809,马鞍山市,雨山,,35,35,26,14,15,42,,54,43,28,22,10,7,0.9,0.7
2025-10-22T0000,4191A,118.5274,31.72227,马鞍山市,慈湖高新区,,30,30,34,14,17,41,,48,40,22,17,5,4,0.7,0.7
2025-10-22T0000,1686A,111.0286,21.4688,茂名市,电白南海,,19,19,22,7,8,49,,58,55,8,7,7,7,0.9,0.8
2025-10-22T0000,1687A,110.9294,21.6533,茂名市,茂石化七小,,24,24,21,7,10,51,,50,47,8,10,20,10,0.3,0.4
2025-10-22T0000,1688A,110.9107,21.6687,茂名市,健康路,,15,12,18,7,10,45,,54,50,13,11,17,16,0.7,0.7
2025-10-22T0000,1689A,110.8592,21.6828,茂名市,高岭,,19,19,24,3,3,46,,53,51,11,11,8,7,0.6,0.6
2025-10-22T0000,3450A,111.01,21.5165,茂名市,电白水东,,16,7,14,3,6,49,,61,59,8,10,7,8,0.5,0.6
2025-10-22T0000,2539A,104.0308,30.0478,眉山市,黑龙滩水库,,,,,,,,,,,,,,,,
2025-10-22T0000,2540A,103.8416,30.0874,眉山市,气象局,,20,20,20,3,5,36,,38,37,9,15,6,7,0.3,0.4
2025-10-22T0000,3137A,103.8578,30.0744,眉山市,市委党校,,11,6,8,3,1,34,,37,36,11,16,5,6,0.5,0.5
2025-10-22T0000,3148A,103.8291,30.0564,眉山市,区人社局,,,20,22,3,1,,,35,34,12,18,2,3,0.8,0.8
2025-10-22T0000,1690A,116.1231,24.3284,梅州市,梅江月梅,,12,,5,3,5,37,,38,36,12,12,5,5,0.3,0.3
2025-10-22T0000,1691A,116.0797,24.2719,梅州市,梅县新城,,14,6,7,3,0,44,,41,41,5,7,6,7,0.4,0.5
2025-10-22T0000,1692A,116.1248,24.2654,梅州市,环境监控中心,,13,6,6,3,3,39,,36,35,9,10,4,4,0.5,0.6
2025-10-22T0000,3315A,116.1233,24.2991,梅州市,梅龙,,10,6,6,3,2,32,,32,29,9,10,6,7,0.5,0.6
2025-10-22T0000,1878A,104.7778,31.4741,绵阳市,富乐山,,13,13,7,9,3,22,,48,28,13,7,7,7,0.6,0.5
2025-10-22T0000,1880A,104.6697,31.4668,绵阳市,高新区自来水公司,,20,20,9,12,7,24,,44,30,15,12,7,7,0.5,0.6
2025-10-22T0000,1881A,104.7287,31.5075,绵阳市,三水厂,,18,15,8,12,7,23,,47,36,15,9,5,5,0.4,0.5
2025-10-22T0000,3491A,104.69,31.5322,绵阳市,西科大附属小学,,23,23,9,9,2,20,,51,35,22,13,9,10,0.6,0.5
2025-10-22T0000,3492A,104.5648,31.5343,绵阳市,安州区旅游局,,12,11,7,7,6,38,,52,43,7,10,9,10,0.6,0.6
2025-10-22T0000,4226A,104.7651,31.4531,绵阳市,绵阳市气象局,,19,16,7,13,4,23,,45,34,14,8,7,6,0.4,0.4
2025-10-22T0000,1784A,129.61,44.561,牡丹江市,环保大楼,,40,40,34,23,17,15,,69,37,41,20,9,7,0.4,0.3
2025-10-22T0000,1785A,129.6115,44.5782,牡丹江市,文化广场,,,52,35,52,28,19,,68,30,41,25,8,4,,0.3
2025-10-22T0000,1786A,129.5904,44.5963,牡丹江市,第一医院,,41,41,43,24,28,35,,69,38,21,21,6,4,0.5,0.4
2025-10-22T0000,1787A,129.6364,44.6075,牡丹江市,机车工厂,,50,47,39,35,26,18,,68,28,29,21,4,5,0.4,0.3
2025-10-22T0000,1788A,129.6386,44.5462,牡丹江市,第一中学,,46,46,38,17,20,16,,71,20,34,24,4,3,0.3,0.3
2025-10-22T0000,2531A,105.0703,29.61,内江市,市监测站,,24,24,20,12,6,20,,32,22,10,11,4,4,0.4,0.6
2025-10-22T0000,2532A,105.0717,29.5947,内江市,东兴区政府,,10,10,6,3,2,24,,34,25,8,9,8,8,0.3,0.3
2025-10-22T0000,2533A,105.0653,29.5817,内江市,内江二中,,30,,9,21,7,23,,33,24,9,9,1,2,0.6,0.6
2025-10-22T0000,2534A,105.0406,29.5822,内江市,内江日报社,,20,16,12,14,5,26,,35,27,14,12,4,4,0.5,0.5
2025-10-22T0000,2628A,92.0657,31.4846,那曲市,那曲监测站,,,,56,,28,,,141,101,,28,,7,,1
2025-10-22T0000,4243A,92.0515,31.4787,那曲市,那曲市委宣传部,,,6,30,3,17,,,,,,29,2,5,1.0,0.7
2025-10-22T0000,1290A,115.8931,28.6843,南昌市,省外办,,28,25,31,19,19,48,,56,51,16,14,5,4,0.6,0.5
2025-10-22T0000,1291A,115.8886,28.7003,南昌市,省林业公司,,25,19,19,17,16,51,,64,56,10,9,2,2,0.5,0.4
2025-10-22T0000,1292A,115.8126,28.7442,南昌市,林科所,,24,24,26,12,14,49,,54,51,12,11,5,7,0.4,0.3
2025-10-22T0000,1294A,115.8518,28.687,南昌市,建工学校,,29,29,40,17,19,46,,56,48,12,9,9,11,0.2,0.2
2025-10-22T0000,1295A,115.8921,28.6424,南昌市,象湖,,28,26,40,19,17,48,,58,51,11,11,7,7,0.3,0.3
2025-10-22T0000,1296A,115.7423,28.7996,南昌市,武术学校,,,,,,,,,,,,,,,,
2025-10-22T0000,3046A,115.9084,28.6062,南昌市,机电学校,,30,30,35,17,17,51,,62,53,10,10,6,6,0.3,0.3
2025-10-22T0000,3690A,115.9721,28.7031,南昌市,外国语学校,,29,27,33,20,21,50,,61,52,14,16,7,7,0.3,0.3
2025-10-22T0000,4192A,115.9316,28.68677,南昌市,南京东路235号,,26,26,36,16,16,51,,61,54,15,15,4,4,0.4,0.4
2025-10-22T0000,1905A,106.056,30.8064,南充市,西山风景区,,,,,,,,,,,,,,,,
2025-10-22T0000,1906A,106.0789,30.8023,南充市,南充市委,,14,14,10,7,5,8,,32,18,19,13,4,4,0.4,0.4
2025-10-22T0000,1907A,106.1031,30.8217,南充市,南充炼油厂,,24,24,20,10,9,20,,33,25,6,7,5,6,0.3,0.3
2025-10-22T0000,4227A,106.1083,30.7884,南充市,梨树横街98号,,13,11,10,9,7,24,,38,30,8,8,4,4,0.3,0.3
2025-10-22T0000,4304A,106.1172,30.843,南充市,清泉寺北路188号,,15,15,8,3,3,21,,38,28,6,6,6,6,0.4,0.3
2025-10-22T0000,4305A,106.067,30.7616,南充市,同庆路1号,,9,,10,3,4,13,,28,19,18,13,6,5,0.4,0.4
2025-10-22T0000,1151A,118.8086,32.1065,南京市,迈皋桥,,19,,14,12,8,59,,56,47,5,8,4,4,0.7,0.7
2025-10-22T0000,1152A,118.7538,32.0551,南京市,草场门,,16,14,20,9,12,50,,50,41,22,25,4,4,0.2,0.5
2025-10-22T0000,1153A,118.7794,32.0745,南京市,山西路,,17,17,21,3,7,49,,58,,7,14,3,4,0.5,0.5
2025-10-22T0000,1154A,118.7752,32.0023,南京市,中华门,,20,14,17,7,9,61,,53,44,11,16,3,4,0.3,0.4
2025-10-22T0000,1155A,118.8109,32.0309,南京市,瑞金路,,20,17,18,9,10,61,,56,49,6,8,6,6,0.5,0.6
2025-10-22T0000,1156A,118.7997,32.0754,南京市,玄武湖,,18,15,20,3,5,57,,52,43,12,15,4,4,0.4,0.5
2025-10-22T0000,1157A,118.6414,32.0931,南京市,浦口,,24,24,22,8,9,42,,54,47,22,18,6,6,0.6,0.6
2025-10-22T0000,1158A,118.7356,31.9996,南京市,奥体中心,,20,18,22,7,12,62,,61,51,20,23,6,5,0.2,0.4
2025-10-22T0000,1159A,118.9125,32.1028,南京市,仙林大学城,,27,27,21,7,7,49,,54,42,17,17,7,6,0.4,0.4
2025-10-22T0000,3422A,118.8436,31.9198,南京市,江宁彩虹桥,,21,21,20,7,9,53,,54,49,17,16,6,5,0.4,0.4
2025-10-22T0000,3427A,118.8554,32.3578,南京市,六合雄州,,19,19,21,9,8,59,,66,53,15,17,5,4,0.1,0.2
2025-10-22T0000,4249A,118.8708,31.3402,南京市,汶溪路181号,,22,22,17,13,11,43,,63,52,26,20,7,5,0.5,0.4
2025-10-22T0000,4312A,119.019,31.6512,南京市,中山西路1号,,19,19,17,13,12,37,,52,42,16,12,4,4,0.5,0.5
2025-10-22T0000,1401A,108.3103,22.7881,南宁市,二十一中,,16,,8,3,4,51,,56,55,7,8,6,6,0.7,0.7
2025-10-22T0000,1402A,108.3141,22.8528,南宁市,北湖,,16,,13,7,7,51,,56,55,15,15,6,6,0.5,0.5
2025-10-22T0000,1403A,108.3206,22.8225,南宁市,市监测站,,15,,12,7,7,46,,51,50,12,12,5,5,0.5,0.5
2025-10-22T0000,1404A,108.3829,22.8037,南宁市,大自然花园,,17,7,13,7,7,52,,57,56,7,7,5,5,0.5,0.6
2025-10-22T0000,1405A,108.4394,22.7904,南宁市,仙葫,,,,,,,,,,,,,,,,
2025-10-22T0000,1406A,108.2397,22.8467,南宁市,区农职院,,16,14,16,11,6,39,,54,48,16,12,6,4,0.6,0.5
2025-10-22T0000,1407A,108.3275,22.735,南宁市,英华嘉园,,17,7,13,3,6,53,,58,56,7,7,2,2,0.4,0.4
2025-10-22T0000,3401A,108.4834,22.7618,南宁市,红星社区,,18,,11,12,7,53,,61,58,6,7,3,4,0.2,0.3
2025-10-22T0000,4221A,108.2177,22.7774,南宁市,乐贤路16号,,15,15,16,9,8,44,,54,51,10,10,10,8,0.3,0.3
2025-10-22T0000,2331A,118.0966,26.6761,南平市,茫荡山,,,8,8,,,73,,79,79,,,1,2,,0.3
2025-10-22T0000,2332A,118.1681,26.6369,南平市,南平市监测站,,13,13,6,6,4,37,,49,46,12,8,3,2,0.3,0.5
2025-10-22T0000,2333A,118.1825,26.6489,南平市,南平铝业有限公司,,17,17,7,3,3,40,,50,49,10,8,2,2,0.5,0.5
2025-10-22T0000,2334A,118.1756,26.6272,南平市,南平七中,,12,6,7,3,4,38,,50,48,9,7,6,4,0.6,0.5
2025-10-22T0000,1168A,120.9098,31.9663,南通市,狼山街道,,20,19,19,6,7,64,,70,65,10,10,2,3,0.5,0.5
2025-10-22T0000,1169A,120.86,32.0005,南通市,虹桥,,22,18,17,3,5,68,,70,68,9,9,3,3,0.4,0.5
2025-10-22T0000,1170A,120.87,32.02,南通市,城中,,21,20,22,3,7,67,,68,66,14,15,3,4,0.4,0.4
2025-10-22T0000,1171A,120.94,31.93,南通市,星湖花园,,22,22,23,3,8,68,,72,68,12,12,4,4,0.7,0.7
2025-10-22T0000,1172A,120.81,32.0417,南通市,紫琅学院,,22,15,20,3,5,68,,70,68,10,11,6,4,0.6,0.6
2025-10-22T0000,3291A,121.067,32.062,南通市,通州监测站,,22,7,10,3,5,68,,77,73,8,8,1,1,0.1,0.1
2025-10-22T0000,3432A,120.9348,31.9883,南通市,环境教育馆,,27,27,26,3,7,71,,76,70,11,12,4,4,0.2,0.3
2025-10-22T0000,2404A,112.5224,33.0122,南阳市,瓦房庄,颗粒物(PM10),51,51,51,28,29,47,,60,56,15,18,8,9,0.6,0.6
2025-10-22T0000,2405A,112.5003,32.9735,南阳市,汉画馆,,38,37,39,26,29,42,,56,47,18,19,8,9,0.4,0.4
2025-10-22T0000,2406A,112.5573,33.027,南阳市,气象站,颗粒物(PM10),53,56,44,29,26,38,,62,54,25,21,8,9,0.6,0.5
2025-10-22T0000,2407A,112.5481,32.9689,南阳市,理工学院,,49,49,48,21,17,52,,61,58,14,16,11,12,0.5,0.5
2025-10-22T0000,4008A,112.5234,32.9922,南阳市,卧龙区政府,,42,42,37,7,15,49,,57,52,15,19,7,9,0.6,0.6
2025-10-22T0000,1234A,121.8358,29.911,宁波市,区环保大楼,,34,34,34,7,9,77,,76,70,14,19,5,6,0.4,0.4
2025-10-22T0000,1235A,121.56,29.82,宁波市,万里学院,,29,29,28,12,10,82,,86,81,7,8,7,7,0.4,0.4
2025-10-22T0000,1236A,121.713,29.9572,宁波市,龙赛医院,,32,32,33,3,3,77,,76,76,7,10,6,6,0.3,0.3
2025-10-22T0000,1239A,121.633,29.7733,宁波市,钱湖水厂,,31,31,28,9,9,77,,83,78,8,9,6,6,0.3,0.4
2025-10-22T0000,1240A,121.5856,29.8635,宁波市,太古小学,,30,30,29,8,6,80,,84,79,6,8,3,4,0.3,0.3
2025-10-22T0000,1241A,121.524,29.8674,宁波市,市环境监测中心,,29,29,26,16,7,73,,79,73,12,13,6,9,0.4,0.4
2025-10-22T0000,2871A,121.6147,29.9017,宁波市,万里国际学校,,25,25,24,10,6,79,,87,82,8,8,5,5,0.3,0.2
2025-10-22T0000,3710A,121.5594,29.8975,宁波市,白沙活动中心,,26,20,21,7,7,82,,86,81,2,3,4,4,0.3,0.3
2025-10-22T0000,2339A,119.5001,26.6946,宁德市,金涵水库,,7,6,2,3,2,22,,32,24,2,2,2,2,0.3,0.4
2025-10-22T0000,2341A,119.5388,26.6612,宁德市,宁德市监测站,,16,,8,6,7,50,,51,46,10,12,5,4,0.4,0.4
2025-10-22T0000,3209A,119.5231,26.6562,宁德市,宁德一中,,14,8,12,3,5,44,,54,48,9,9,4,4,0.3,0.3
2025-10-22T0000,2618A,98.8601,25.8567,怒江傈僳族自治州,州监测站,,28,28,23,17,11,26,,54,39,9,7,6,6,0.4,0.4
2025-10-22T0000,2619A,98.8546,25.8417,怒江傈僳族自治州,泸水一中,,10,10,23,3,8,8,,34,16,14,12,5,6,0.6,0.6
2025-10-22T0000,1888A,101.6891,26.571,攀枝花市,弄弄坪,,39,39,35,9,16,20,,50,33,24,16,35,18,0.9,0.8
2025-10-22T0000,1889A,101.5769,26.5928,攀枝花市,河门口,,14,11,21,6,12,31,,57,45,18,13,27,14,1.4,1.2
2025-10-22T0000,1890A,101.7169,26.585,攀枝花市,炳草岗,,48,48,38,16,14,18,,53,32,28,20,59,28,1.2,0.9
2025-10-22T0000,1891A,101.7369,26.5008,攀枝花市,仁和,,10,10,16,6,11,20,,47,27,13,11,5,7,0.7,0.7
2025-10-22T0000,2835A,101.7227,26.567,攀枝花市,四十中小,,21,21,33,11,21,32,,58,45,15,14,53,33,1.0,1
2025-10-22T0000,1604A,122.0303,41.1489,盘锦市,开发区,细颗粒物(PM2.5),92,81,38,68,25,7,,59,21,56,31,4,3,1.0,0.4
2025-10-22T0000,1605A,122.0485,41.0883,盘锦市,兴隆台,细颗粒物(PM2.5),67,70,31,48,18,3,,60,16,51,33,6,6,1.7,0.6
2025-10-22T0000,1606A,121.8297,41.1028,盘锦市,新生街道,,40,,24,28,12,1,,63,22,54,37,7,11,0.3,0.3
2025-10-22T0000,1832A,113.3257,33.742,平顶山市,新华旅馆,颗粒物(PM10),62,74,46,30,27,56,,80,,22,18,7,7,0.5,0.5
2025-10-22T0000,1833A,113.2919,33.737,平顶山市,规划设计院,细颗粒物(PM2.5),67,68,46,48,33,52,,78,64,29,21,5,5,0.3,0.3
2025-10-22T0000,1834A,113.182,33.774,平顶山市,平顶山工学院,颗粒物(PM10),54,58,40,34,28,59,,76,71,25,21,7,7,0.5,0.4
2025-10-22T0000,3204A,113.3025,33.73,平顶山市,规划局,颗粒物(PM10),69,88,54,44,27,66,,82,74,18,17,9,8,0.5,0.5
2025-10-22T0000,3594A,112.8867,33.9116,平顶山市,石龙区,颗粒物(PM10),55,60,42,34,28,39,,83,60,24,18,6,7,0.5,0.5
2025-10-22T0000,2656A,106.6692,35.5461,平凉市,聚贤嘉苑,,29,29,31,20,21,36,,47,41,12,11,6,10,0.9,0.9
2025-10-22T0000,2657A,106.7021,35.5307,平凉市,博物馆,,30,30,30,12,17,34,,54,48,13,11,8,10,1.1,0.8
2025-10-22T0000,2347A,114.0997,27.5002,萍乡市,武功山,,,,,,,,,,,,,,,,
2025-10-22T0000,2348A,113.8385,27.6434,萍乡市,中医院,,20,20,20,7,10,46,,41,39,12,15,2,2,0.4,0.5
2025-10-22T0000,2349A,113.8493,27.6253,萍乡市,市政府车库,,,,19,10,12,43,,40,39,,17,11,12,0.5,0.6
2025-10-22T0000,2350A,113.8676,27.6435,萍乡市,市环保局,,20,19,16,14,11,47,,45,45,6,8,2,3,0.3,0.3
2025-10-22T0000,2351A,113.866,27.6198,萍乡市,安源区政府,,22,22,24,13,14,47,,44,44,10,15,6,7,0.4,0.7
2025-10-22T0000,2319A,119.0141,25.4325,莆田市,荔城区仓后路,,20,7,14,3,2,64,,67,65,6,7,7,7,0.6,0.6
2025-10-22T0000,2320A,119.0015,25.4553,莆田市,莆田市监测站,,22,7,14,3,1,69,,73,72,5,5,4,5,0.5,0.5
2025-10-22T0000,2321A,119.1119,25.4561,莆田市,涵江区六中,,22,7,11,3,2,70,,72,72,8,8,5,5,0.5,0.5
2025-10-22T0000,2322A,119.1013,25.3215,莆田市,秀屿区政府,,20,13,14,3,4,63,,71,68,9,9,7,6,0.9,0.8
2025-10-22T0000,2323A,118.981,25.4792,莆田市,东圳水库,,26,6,6,3,2,81,,84,84,6,5,5,5,0.3,0.3
2025-10-22T0000,2392A,115.0312,35.7636,濮阳市,环保局,细颗粒物(PM2.5),80,78,47,59,31,27,,69,50,42,31,10,11,0.6,0.6
2025-10-22T0000,2394A,115.0574,35.7609,濮阳市,油田运输公司,细颗粒物(PM2.5),78,90,53,57,28,26,,75,55,41,28,10,10,0.7,0.6
2025-10-22T0000,3021A,115,35.7668,濮阳市,濮水河管理处,细颗粒物(PM2.5),139,127,61,106,35,7,,55,30,28,23,8,9,0.6,0.5
2025-10-22T0000,4216A,115.0924,35.7686,濮阳市,任丘路479号,细颗粒物(PM2.5),78,92,55,57,29,13,,68,47,48,28,8,10,0.6,0.4
2025-10-22T0000,2601A,100.98,22.7633,普洱市,市环保局,,47,47,39,24,21,25,,58,24,6,9,3,2,0.6,0.6
2025-10-22T0000,2602A,100.9817,22.8322,普洱市,普洱第二中学,,36,36,33,14,14,4,,52,23,18,12,4,4,0.5,0.4
2025-10-22T0000,2262A,131.0518,45.8751,七台河市,新一中,,,,,,,,,,,,,,,,
2025-10-22T0000,3345A,131.0577,45.7879,七台河市,中波台,,30,30,25,15,9,45,,60,42,22,16,7,7,0.5,0.5
2025-10-22T0000,3637A,131.0176,45.7761,七台河市,人民广场,,38,38,29,16,15,51,,68,44,17,16,8,7,0.5,0.5
2025-10-22T0000,3684A,130.8781,45.8222,七台河市,新建矿广场,,32,,27,22,21,39,,58,43,13,9,7,6,0.4,0.4
2025-10-22T0000,1779A,123.9305,47.3636,齐齐哈尔市,安居小区,,25,23,31,17,14,42,,63,38,13,15,3,3,0.5,0.5
2025-10-22T0000,1780A,123.9488,47.3386,齐齐哈尔市,中心广场,,23,23,22,9,8,54,,63,41,11,16,2,2,0.2,0.3
2025-10-22T0000,1781A,123.9483,47.3227,齐齐哈尔市,农牧车辆厂,,22,19,29,15,11,47,,60,34,9,15,4,4,0.5,0.5
2025-10-22T0000,1783A,123.945,47.2988,齐齐哈尔市,市环境监测站,,27,27,30,17,12,50,,60,31,10,18,7,6,0.4,0.4
2025-10-22T0000,3662A,123.6333,47.2075,齐齐哈尔市,富区青少年活动中心,,39,39,41,14,18,41,,60,24,12,18,6,6,0.5,0.6
2025-10-22T0000,2591A,107.9783,26.5747,黔东南苗族侗族自治州,市环境监测站,,18,13,8,9,7,55,,50,50,4,5,3,4,0.4,0.5
2025-10-22T0000,2881A,107.8908,26.5311,黔东南苗族侗族自治州,凯里学院,,16,,3,11,7,48,,40,40,8,8,2,2,0.7,0.8
2025-10-22T0000,2593A,107.5228,26.2403,黔南布依族苗族自治州,小围寨,,16,7,4,3,2,51,,39,38,4,4,3,3,0.6,0.7
2025-10-22T0000,3538A,107.5175,26.2978,黔南布依族苗族自治州,沙坝,,15,9,7,7,6,46,,38,38,4,5,3,3,0.5,0.5
2025-10-22T0000,2589A,104.9022,25.0925,黔西南布依族苗族自治州,场坝街,,17,17,20,9,9,45,,47,47,9,8,3,5,0.5,0.5
2025-10-22T0000,2590A,104.8811,25.0992,黔西南布依族苗族自治州,坪东大道,,29,29,16,13,10,44,,45,45,8,7,5,4,0.6,0.6
2025-10-22T0000,2502A,108.6236,21.9667,钦州市,市环保站,,22,22,26,7,5,46,,69,59,9,9,4,4,0.8,1
2025-10-22T0000,2503A,108.6549,21.9481,钦州市,沙埠小学,,17,16,21,3,7,52,,71,65,9,8,3,3,0.5,0.4
2025-10-22T0000,2504A,108.5989,21.7431,钦州市,港区一小,,28,28,36,11,13,38,,60,48,20,18,8,7,0.6,0.7
2025-10-22T0000,3404A,108.5959,21.9633,钦州市,北职校,,17,15,17,6,7,52,,68,63,5,5,4,4,0.6,0.6
2025-10-22T0000,1043A,119.7493,40.0116,秦皇岛市,第一关,,41,32,25,21,25,6,,74,23,81,38,8,6,0.4,0.4
2025-10-22T0000,1044A,119.5897,39.9499,秦皇岛市,监测站,,44,44,35,24,14,6,,65,25,46,29,5,6,0.4,0.3
2025-10-22T0000,1046A,119.5251,39.9041,秦皇岛市,建设大厦,,47,47,45,31,19,7,,64,26,43,29,4,4,0.4,0.3
2025-10-22T0000,3132A,119.610547,39.943889,秦皇岛市,文明里,,45,45,30,25,13,2,,62,24,52,26,7,8,0.5,0.4
2025-10-22T0000,4198A,119.5090,39.8253,秦皇岛市,北戴河轮滑馆,颗粒物(PM10),53,55,27,27,11,3,,64,31,50,23,2,3,0.7,0.3
2025-10-22T0000,1307A,120.6659,36.2403,青岛市,仰口,,,,,,,,,,,,,,,,
2025-10-22T0000,1310A,120.4134,36.0658,青岛市,市南区东部子站,,25,7,19,3,8,78,,76,66,4,12,6,6,0.3,0.3
2025-10-22T0000,1311A,120.3664,36.1032,青岛市,四方区子站,,24,,20,14,13,75,,78,68,2,7,3,2,0.2,0.2
2025-10-22T0000,1312A,120.2994,36.054,青岛市,市南区西部子站,,22,22,25,10,9,64,,80,64,20,23,8,8,0.3,0.3
2025-10-22T0000,1313A,120.4581,36.0858,青岛市,崂山区子站,,27,7,15,3,4,84,,83,74,4,10,8,8,0.2,0.2
2025-10-22T0000,1315A,120.3999,36.3083,青岛市,城阳区子站,,29,29,24,12,11,64,,89,72,12,10,4,4,0.3,0.3
2025-10-22T0000,3362A,120.5014,36.4034,青岛市,即墨2号,,36,28,25,25,18,60,,81,63,17,16,6,4,0.3,0.3
2025-10-22T0000,3642A,120.3503,36.0736,青岛市,市北区南部,,22,22,28,3,8,70,,71,66,8,14,3,4,0.2,0.2
2025-10-22T0000,3643A,120.3948,36.1805,青岛市,李沧区北部,,25,17,21,17,15,73,,80,70,6,11,6,6,0.2,0.2
2025-10-22T0000,4290A,120.1969,35.9546,青岛市,珠江路669号,,22,22,18,12,11,65,,76,61,21,20,10,9,0.2,0.2
2025-10-22T0000,4291A,120.0424,35.8656,青岛市,黄岛区人民政府广场,,22,22,20,9,4,65,,81,65,13,12,6,6,0.4,0.4
2025-10-22T0000,1702A,113.0426,23.691,清远市,环保大楼,,,,,,,,,,,,,,,,
2025-10-22T0000,1703A,113.0208,23.7106,清远市,凤城街办,,15,6,6,3,2,47,,49,47,13,13,6,6,0.5,0.5
2025-10-22T0000,3025A,113.0477,23.6344,清远市,技师学院,,18,13,13,3,4,55,,54,54,13,14,4,4,0.5,0.5
2025-10-22T0000,3318A,112.9903,23.7403,清远市,清新太和,,16,6,6,3,3,49,,55,50,14,14,6,5,0.5,0.6
2025-10-22T0000,3455A,113.076,23.7198,清远市,清城东城,,18,12,9,3,3,55,,54,54,13,11,5,4,0.5,0.6
2025-10-22T0000,2661A,107.6325,35.7357,庆阳市,庆阳五中,,29,25,21,20,13,44,,50,49,10,11,1,1,0.5,0.5
2025-10-22T0000,2662A,107.6364,35.7067,庆阳市,市环保局,,27,27,21,14,10,47,,56,55,11,11,3,3,0.6,0.6
2025-10-22T0000,1916A,103.7897,25.5035,曲靖市,环境监测站,,15,15,17,3,8,37,,38,37,6,9,4,7,0.4,0.5
2025-10-22T0000,1917A,103.8,25.5364,曲靖市,烟厂办公区,,13,6,12,3,8,39,,36,36,5,9,4,6,0.5,0.7
2025-10-22T0000,3376A,103.7947,25.462,曲靖市,南苑二区,,14,7,11,3,8,44,,41,39,5,9,4,4,0.4,0.5
2025-10-22T0000,3377A,103.7444,25.5261,曲靖市,曲靖师范学院,,13,11,11,3,7,40,,39,39,6,10,2,2,0.5,0.6
2025-10-22T0000,1264A,118.8692,28.9398,衢州市,环保大楼,,33,33,31,15,12,50,,64,54,17,14,4,4,0.4,0.3
2025-10-22T0000,1265A,118.8709,28.9666,衢州市,实验学校,,28,28,28,13,12,58,,65,57,14,14,3,3,0.2,0.2
2025-10-22T0000,1266A,118.8621,28.9808,衢州市,衢州学院,,29,29,29,15,12,52,,65,56,16,17,5,5,0.3,0.3
2025-10-22T0000,1611A,118.5819,24.9117,泉州市,涂山街,,23,6,11,3,6,72,,70,70,4,5,3,2,0.4,0.4
2025-10-22T0000,1612A,118.5972,24.8978,泉州市,津头埔,,22,6,12,3,7,69,,66,66,6,11,2,2,0.4,0.4
2025-10-22T0000,1613A,118.6663,24.9424,泉州市,万安,,22,7,15,3,6,69,,69,68,3,6,2,2,0.3,0.5
2025-10-22T0000,1614A,118.6117,24.9604,泉州市,清源山,,23,6,8,3,5,72,,70,70,3,3,2,2,0.5,0.5
2025-10-22T0000,3529A,118.6333,24.9264,泉州市,城华南路,,21,7,11,3,6,67,,69,67,10,10,3,3,0.4,0.4
2025-10-22T0000,2626A,88.8876,29.2718,日喀则市,日喀则监测站,颗粒物(PM10),60,69,25,31,8,11,,128,84,77,22,14,12,1.0,0.4
2025-10-22T0000,3726A,88.8781,29.2426,日喀则市,林业技术推广中心,,26,14,20,6,6,83,,125,110,4,9,5,5,0.3,0.4
2025-10-22T0000,1659A,119.471,35.4209,日照市,监测站,,24,24,20,11,9,61,,79,64,17,17,7,7,0.6,0.5
2025-10-22T0000,1660A,119.523,35.4216,日照市,市政府广场,,21,17,17,7,7,67,,81,71,10,9,6,6,0.5,0.5
2025-10-22T0000,1661A,119.5587,35.4044,日照市,港务局,,29,24,21,20,17,73,,83,76,17,19,4,4,0.5,0.5
2025-10-22T0000,3507A,119.5328,35.4625,日照市,职业技术学院,,27,27,20,7,5,69,,82,76,13,12,5,6,0.5,0.5
2025-10-22T0000,3604A,119.3266,35.1044,日照市,岚山环保分局,细颗粒物(PM2.5),57,44,32,40,23,52,,77,68,31,21,52,21,3.0,1.7
2025-10-22T0000,1835A,111.1922,34.7752,三门峡市,市政府,,48,43,25,33,22,58,,73,68,21,16,8,8,0.3,0.2
2025-10-22T0000,1836A,111.1587,34.7942,三门峡市,开发区,细颗粒物(PM2.5),57,48,28,40,23,58,,70,66,24,17,10,7,0.5,0.3
2025-10-22T0000,1838A,111.143,34.7955,三门峡市,风景区,,50,50,23,30,19,60,,74,70,20,14,11,9,0.5,0.4
2025-10-22T0000,3039A,111.1911,34.7829,三门峡市,三门峡市第一小学,细颗粒物(PM2.5),53,39,28,37,21,58,,71,67,21,15,9,8,0.5,0.4
2025-10-22T0000,3598A,111.1,34.7167,三门峡市,富达温泉假日酒店,颗粒物(PM10),51,51,28,33,23,60,,73,70,23,15,8,7,0.7,0.6
2025-10-22T0000,2324A,117.6211,26.2625,三明市,三钢,,22,,7,15,7,54,,55,55,8,8,1,2,0.3,0.4
2025-10-22T0000,2325A,117.635,26.2714,三明市,三明二中,,,9,6,6,7,52,,54,54,,,2,1,0.3,0.4
2025-10-22T0000,2326A,117.6028,26.2378,三明市,三元区政府,,19,13,6,3,3,58,,60,60,8,8,2,2,0.4,0.4
2025-10-22T0000,2327A,117.7275,26.3108,三明市,洋溪,,16,9,7,7,4,50,,57,56,7,7,7,7,0.9,1
2025-10-22T0000,1876A,109.5078,18.2489,三亚市,河东子站,,18,,8,3,5,56,,63,62,7,8,4,3,0.5,0.5
2025-10-22T0000,1877A,109.4964,18.2681,三亚市,河西子站,,19,6,10,3,4,58,,68,60,4,7,6,6,0.6,0.6
2025-10-22T0000,3540A,109.7348,18.3443,三亚市,君悦子站,,18,12,10,3,5,56,,69,66,7,7,4,4,0.5,0.5
2025-10-22T0000,2624A,91.7608,29.2313,山南市,山南监测站,,32,14,19,3,10,100,,116,99,8,15,4,4,0.3,0.3
2025-10-22T0000,2625A,91.7706,29.2436,山南市,山南人民医院,,35,13,15,3,7,110,,108,,2,7,2,4,0.3,0.2
2025-10-22T0000,1674A,116.6794,23.3667,汕头市,金平子站,,17,17,19,3,7,28,,59,30,17,14,5,4,0.6,0.6
2025-10-22T0000,1675A,116.7244,23.3633,汕头市,龙湖子站,,14,14,16,3,8,33,,57,33,8,10,8,8,0.3,0.6
2025-10-22T0000,1676A,116.7258,23.2775,汕头市,濠江子站,,10,10,17,6,8,26,,63,29,12,9,7,6,0.5,0.5
2025-10-22T0000,1677A,116.7519,23.4714,汕头市,澄海子站,,10,10,15,3,6,32,,50,31,9,12,4,5,0.5,0.6
2025-10-22T0000,1678A,116.6092,23.2539,汕头市,潮阳子站,,11,8,15,6,7,35,,61,34,6,8,8,6,0.5,0.6
2025-10-22T0000,3444A,116.454,23.2684,汕头市,潮南峡山,,10,10,19,3,10,28,,46,31,11,10,7,9,0.7,0.7
2025-10-22T0000,3624A,116.4069,23.2533,汕头市,潮南子站,,,14,23,,12,27,,43,24,12,14,5,5,0.5,0.6
2025-10-22T0000,1693A,115.3653,22.775,汕尾市,市环保局,,14,,9,3,7,42,,48,42,6,7,5,5,0.6,0.7
2025-10-22T0000,1694A,115.3706,22.7898,汕尾市,市政府,,14,7,7,3,0,44,,45,43,8,9,6,6,0.4,0.5
2025-10-22T0000,1695A,115.3622,22.7925,汕尾市,新城中学,,14,6,9,3,5,43,,46,44,7,8,6,6,0.7,0.8
2025-10-22T0000,2645A,109.9154,33.8715,商洛市,监测站,,22,20,10,15,9,44,,53,52,20,12,3,4,0.4,0.5
2025-10-22T0000,3045A,109.9643,33.8471,商洛市,商州区中学,,18,18,11,12,6,39,,52,49,21,13,4,4,0.6,0.6
2025-10-22T0000,2408A,115.6702,34.4285,商丘市,环境监测站,细颗粒物(PM2.5),52,45,49,36,32,32,,92,64,40,24,1,2,0.4,0.5
2025-10-22T0000,2409A,115.6458,34.4045,商丘市,粮食局,,49,49,46,27,29,40,,86,62,28,21,4,4,0.5,0.3
2025-10-22T0000,2410A,115.6293,34.3948,商丘市,睢阳区环保局,,49,49,50,24,28,44,,86,64,28,23,6,6,0.4,0.5
2025-10-22T0000,3171A,115.6071,34.4465,商丘市,梁园区档案局,,48,42,44,33,28,31,,79,47,39,29,5,6,0.4,0.5
2025-10-22T0000,1141A,121.4,31.238,上海市,普陀,,25,24,28,3,7,77,,78,77,13,13,5,5,0.3,0.3
2025-10-22T0000,1142A,121.478,31.2036,上海市,十五厂,,25,25,29,7,8,75,,76,74,9,10,7,7,0.6,0.6
2025-10-22T0000,1143A,121.467,31.3008,上海市,虹口,,24,24,27,7,8,75,,74,74,7,9,8,8,0.4,0.4
2025-10-22T0000,1147A,121.425,31.2261,上海市,静安监测站,,25,25,29,6,9,77,,76,75,9,10,4,4,0.1,0.1
2025-10-22T0000,1148A,121.703,31.1907,上海市,浦东川沙,,26,26,32,3,7,78,,78,78,7,8,9,9,0.2,0.2
2025-10-22T0000,1149A,121.533,31.2284,上海市,浦东新区监测站,,24,24,28,9,12,69,,71,69,12,11,6,6,0.4,0.5
2025-10-22T0000,1150A,121.577,31.2071,上海市,浦东张江,,27,25,27,3,7,86,,85,85,4,5,6,5,0.2,0.2
2025-10-22T0000,3265A,121.4316,31.3322,上海市,宝山庙行,,26,26,27,8,7,74,,74,74,13,13,8,8,0.5,0.5
2025-10-22T0000,3266A,121.8791,31.4662,上海市,崇明上实东滩,,26,21,26,8,8,83,,83,83,3,4,4,4,0.4,0.4
2025-10-22T0000,3268A,121.3162,31.2838,上海市,嘉定南翔,,24,22,27,7,8,74,,75,74,15,16,5,5,0.2,0.2
2025-10-22T0000,3269A,121.3359,30.7456,上海市,金山新城,,27,27,29,6,8,69,,71,66,10,11,5,6,0.3,0.3
2025-10-22T0000,3270A,121.4996,31.0739,上海市,闵行浦江,,24,24,29,6,7,75,,76,75,9,10,5,5,0.5,0.9
2025-10-22T0000,3271A,121.2886,31.1663,上海市,青浦徐泾,,26,26,27,3,3,73,,77,74,8,7,8,8,0.5,0.5
2025-10-22T0000,3272A,121.2186,31.0378,上海市,松江图书馆,,23,18,25,6,6,73,,73,71,14,20,5,5,0.3,0.3
2025-10-22T0000,3273A,121.3902,31.2059,上海市,长宁仙霞,,25,25,29,7,7,78,,78,78,9,10,4,4,0.4,0.5
2025-10-22T0000,3274A,121.7965,31.0507,上海市,浦东惠南,,26,26,27,6,8,80,,81,80,10,10,7,8,0.3,0.4
2025-10-22T0000,3544A,121.4891,30.925,上海市,奉贤南桥新城,,27,27,30,9,10,78,,79,77,11,12,4,4,0.4,0.4
2025-10-22T0000,4183A,121.4174,31.16637,上海市,冠生园路458号,,26,23,28,10,8,82,,81,81,11,12,5,5,0.4,0.4
2025-10-22T0000,4205A,121.5419,31.2683,上海市,宁武路151号,,25,25,30,8,10,73,,74,73,12,12,5,5,0.3,0.3
2025-10-22T0000,2381A,118.005,28.4572,上饶市,百草园,,,,,,,,,,,,,,,,
2025-10-22T0000,2382A,117.9756,28.4436,上饶市,市监测站,,28,28,32,14,12,58,,77,65,11,8,5,4,0.3,0.2
2025-10-22T0000,2383A,117.9519,28.4628,上饶市,凤凰光学,,26,26,31,16,12,48,,78,57,16,8,8,7,0.4,0.4
2025-10-22T0000,3685A,117.897,28.4315,上饶市,双创科技城,,26,26,32,15,16,58,,76,66,18,14,5,5,0.3,0.3
