timepoint,stationcode,longitude,latitude,area,positionname,primarypollutant,aqi,pm10,pm10_24h,pm2_5,pm2_5_24h,o3,o3_24h,o3_8h,o3_8h_24h,no2,no2_24h,so2,so2_24h,co,co_24h
2025-03-12T0100,2566A,102.1879,31.914,阿坝藏族羌族自治州,州农科所,,24,18,42,6,10,76,,,,1,8,9,9,0,0
2025-03-12T0100,2568A,102.2502,31.8896,阿坝藏族羌族自治州,马师校,,29,,20,19,17,90,,,,2,13,4,4,0.5,0.5
2025-03-12T0100,3994A,102.2165,31.9024,阿坝藏族羌族自治州,马尔康中学西区,,32,20,17,17,10,100,,,,2,10,5,5,0.4,0.3
2025-03-12T0100,2695A,80.292,41.1694,阿克苏地区,电视台,颗粒物(PM10),500,996,636,188,113,64,,,,6,12,4,6,0.5,0.5
2025-03-12T0100,2696A,80.2613,41.1551,阿克苏地区,艺术中心,颗粒物(PM10),500,1122,685,199,115,67,,,,15,23,3,5,0.5,0.6
2025-03-12T0100,2204A,105.6467,38.8363,阿拉善盟,西城区西花园,颗粒物(PM10),60,70,786,19,80,88,,,,9,11,15,11,0.6,0.7
2025-03-12T0100,2205A,105.6985,38.8411,阿拉善盟,蒙二幼,,46,46,472,17,93,84,,,,7,9,5,5,0.6,0.6
2025-03-12T0100,2206A,105.724,38.8516,阿拉善盟,环保局新楼,颗粒物(PM10),52,54,519,17,103,94,,,,3,4,7,8,0.9,0.9
2025-03-12T0100,2708A,88.1264,47.8517,阿勒泰地区,市站,,21,14,11,9,6,65,,,,12,10,2,2,0.5,0.4
2025-03-12T0100,2630A,80.1161,32.5,阿里地区,阿里监测站,,28,6,8,3,5,88,,,,5,4,7,7,0.5,0.5
2025-03-12T0100,3192A,80.0903,32.5028,阿里地区,阿里藏医院,,30,7,9,3,5,96,,,,2,2,6,7,0.3,0.3
2025-03-12T0100,2642A,109.0318,32.6537,安康市,香溪洞,,48,48,33,25,22,59,,,,8,10,10,9,0.4,0.4
2025-03-12T0100,2644A,109.0072,32.6975,安康市,汉滨区检察院,,42,42,37,26,23,33,,,,21,19,7,9,0.5,0.5
2025-03-12T0100,4054A,109.0325,32.6913,安康市,市邮政管理局,,48,48,42,33,26,22,,,,31,22,13,13,0.5,0.6
2025-03-12T0100,2291A,117.0809,30.5177,安庆市,环科院,颗粒物(PM10),52,54,45,34,38,1,,,,59,46,8,8,1.0,0.8
2025-03-12T0100,2292A,117.0331,30.5119,安庆市,马山宾馆,,48,44,40,33,36,2,,,,54,45,5,4,0.9,0.7
2025-03-12T0100,2294A,116.9896,30.6145,安庆市,安庆大学,,40,38,41,28,29,46,,,,7,16,7,8,0.7,0.6
2025-03-12T0100,3173A,117.0598,30.5351,安庆市,市人大,,50,47,42,35,38,0,,,,50,39,7,9,0.9,0.8
2025-03-12T0100,3122A,105.9606,26.2611,安顺市,伍家关,,36,32,42,25,29,82,,,,8,9,4,7,0.6,0.7
2025-03-12T0100,3123A,105.9408,26.2431,安顺市,凤凰山,细颗粒物(PM2.5),55,41,34,39,30,80,,,,9,11,10,13,0.7,0.7
2025-03-12T0100,3124A,105.9439,26.2564,安顺市,金钟山,细颗粒物(PM2.5),53,41,31,37,28,78,,,,8,8,9,11,0.6,0.6
2025-03-12T0100,3125A,105.8983,26.2481,安顺市,娄家坡,细颗粒物(PM2.5),59,49,32,42,29,74,,,,8,8,14,7,0.8,0.7
2025-03-12T0100,1818A,114.4839,36.0621,安阳市,棉研所,,,,,,,,,,,,,,,,
2025-03-12T0100,1819A,114.3551,36.1017,安阳市,红庙街,细颗粒物(PM2.5),149,131,94,114,84,38,,,,27,23,7,6,0.7,0.5
2025-03-12T0100,1820A,114.361,36.0681,安阳市,银杏小区,细颗粒物(PM2.5),152,,86,116,89,44,,,,22,23,6,3,0.8,0.6
2025-03-12T0100,3141A,114.3922,36.0878,安阳市,信访局,细颗粒物(PM2.5),147,136,94,112,88,59,,,,26,23,2,2,0.8,0.6
2025-03-12T0100,3669A,114.4705,36.0637,安阳市,左辅环卫站,细颗粒物(PM2.5),130,148,123,99,91,34,,,,51,30,3,3,0.5,0.5
2025-03-12T0100,3703A,114.2917,36.0949,安阳市,安钢职工学校,细颗粒物(PM2.5),142,112,92,108,89,31,,,,38,27,2,6,0.8,0.7
2025-03-12T0100,1748A,123.044,41.1196,鞍山市,深沟寺,,49,49,54,32,43,104,,,,10,11,11,9,0.7,0.7
2025-03-12T0100,1749A,123.011,41.0931,鞍山市,太阳城,颗粒物(PM10),52,54,60,33,43,107,,,,11,11,7,6,1.0,0.8
2025-03-12T0100,1750A,123.0485,41.1442,鞍山市,太平,颗粒物(PM10),52,53,57,30,38,110,,,,10,12,8,7,0.7,0.6
2025-03-12T0100,1751A,122.9642,41.0971,鞍山市,铁西三道街,颗粒物(PM10),52,54,72,29,48,101,,,,18,34,7,32,0.7,0.8
2025-03-12T0100,1753A,123.022,41.0821,鞍山市,明达新区,,48,48,54,30,41,106,,,,8,12,6,6,0.7,0.6
2025-03-12T0100,1754A,123.1289,41.0228,鞍山市,千山,,,,50,,28,,,106,,,9,,5,,0.6
2025-03-12T0100,4201A,122.9446,41.0826,鞍山市,兴盛南路290号,颗粒物(PM10),51,52,76,28,44,96,,,,12,21,10,11,0.7,0.9
2025-03-12T0100,2195A,107.4212,40.761,巴彦淖尔市,附二中,颗粒物(PM10),94,137,540,39,84,74,,,,8,8,8,8,0.5,0.5
2025-03-12T0100,2196A,107.37,40.7372,巴彦淖尔市,市环保大楼,颗粒物(PM10),93,136,508,29,91,68,,,,10,7,4,5,0.2,0.2
2025-03-12T0100,1956A,86.1472,41.7538,巴音郭楞蒙古自治州,孔雀公园,颗粒物(PM10),259,391,667,74,106,2,,,,75,15,7,5,0.9,0.4
2025-03-12T0100,1957A,86.1972,41.7166,巴音郭楞蒙古自治州,棉纺厂,颗粒物(PM10),299,419,697,62,101,3,,,,73,20,3,2,0.6,0.4
2025-03-12T0100,1958A,86.2357,41.7173,巴音郭楞蒙古自治州,经济开发区,颗粒物(PM10),210,357,633,47,93,39,,,,19,17,4,4,0.4,0.3
2025-03-12T0100,2914A,106.7677,31.8794,巴中市,苏山坪,,34,34,28,21,20,79,,,,9,12,4,4,0.3,0.3
2025-03-12T0100,3181A,106.7768,31.8526,巴中市,市五中,细颗粒物(PM2.5),52,49,42,36,31,15,,,,35,27,5,5,0.7,0.7
2025-03-12T0100,3183A,106.7418,31.8654,巴中市,圣泉水务公司,,39,37,36,27,27,21,,,,36,30,6,7,0.6,0.7
2025-03-12T0100,3616A,106.7616,31.8344,巴中市,市中心医院,细颗粒物(PM2.5),67,54,44,48,37,3,,,,48,31,6,6,0.7,0.6
2025-03-12T0100,2235A,122.7911,45.6077,白城市,洮北区环保局,颗粒物(PM10),141,231,149,47,83,61,,,,8,21,6,8,0.3,0.8
2025-03-12T0100,2236A,122.8738,45.5725,白城市,市环保局,颗粒物(PM10),198,346,160,55,85,54,,,,7,29,5,9,0.6,0.8
2025-03-12T0100,2231A,126.4219,41.9171,白山市,喜丰,,33,33,58,18,29,93,,,,7,17,6,8,0.8,0.9
2025-03-12T0100,2232A,126.4077,41.9419,白山市,环保局,,42,42,59,16,34,102,,,,6,14,5,6,0.9,1
2025-03-12T0100,2647A,104.1724,36.5446,白银市,第三小学,颗粒物(PM10),90,129,260,30,44,26,,,,41,13,23,30,1.2,0.8
2025-03-12T0100,2648A,104.1465,36.5482,白银市,动力公司,颗粒物(PM10),76,101,415,35,83,40,,,,23,12,13,6,1.3,0.6
2025-03-12T0100,2512A,106.6103,23.9011,百色市,市监测站,,36,36,54,16,33,29,,,,18,19,12,16,1.0,1.1
2025-03-12T0100,2513A,106.6538,23.8859,百色市,市中心血站,,36,35,57,25,40,42,,,,19,19,17,16,0.9,1.1
2025-03-12T0100,3406A,106.6085,23.8798,百色市,祈福高中,颗粒物(PM10),58,66,60,17,34,19,,,,33,22,8,12,0.8,1
2025-03-12T0100,2270A,117.396,32.939,蚌埠市,工人疗养院,细颗粒物(PM2.5),192,175,129,144,98,58,,,,35,36,3,6,0.8,0.7
2025-03-12T0100,2271A,117.3605,32.9427,蚌埠市,百货大楼,细颗粒物(PM2.5),176,170,125,133,93,66,,,,35,39,5,6,0.7,0.6
2025-03-12T0100,2273A,117.4185,32.8911,蚌埠市,蚌埠学院,细颗粒物(PM2.5),176,149,104,133,94,62,,,,36,31,4,5,0.9,0.7
2025-03-12T0100,2274A,117.3533,32.9673,蚌埠市,淮上区政府,细颗粒物(PM2.5),189,156,117,142,99,68,,,,31,35,5,6,1.1,0.9
2025-03-12T0100,2275A,117.3145,32.8977,蚌埠市,高新区,细颗粒物(PM2.5),192,149,103,144,95,84,,,,30,31,4,5,0.8,0.7
2025-03-12T0100,3715A,117.3092,32.9314,蚌埠市,蚌埠田家炳中学,细颗粒物(PM2.5),196,172,121,147,95,77,,,,33,33,5,6,0.8,0.7
2025-03-12T0100,1585A,109.8756,40.6532,包头市,市环境监测站,颗粒物(PM10),143,236,323,55,69,27,,,,56,29,9,10,0.6,0.6
2025-03-12T0100,1587A,109.9991,40.5842,包头市,包头八中,颗粒物(PM10),138,226,336,57,79,36,,,,43,34,11,17,0.5,0.8
2025-03-12T0100,1588A,109.8538,40.6821,包头市,青山宾馆,颗粒物(PM10),129,207,317,62,76,8,,,,66,30,7,8,0.6,0.7
2025-03-12T0100,1589A,109.8642,40.6288,包头市,惠龙物流,颗粒物(PM10),176,302,328,30,53,65,,,,29,30,10,11,,0.7
2025-03-12T0100,1590A,110.0377,40.5546,包头市,东河鸿龙湾,颗粒物(PM10),119,188,352,69,66,28,,,,36,31,8,9,0.7,0.7
2025-03-12T0100,3283A,109.9154,40.5685,包头市,滨河大厦,细颗粒物(PM2.5),163,227,349,124,84,24,,,,55,30,18,13,,0.9
2025-03-12T0100,3419A,109.9447,40.6261,包头市,包头市委党校,颗粒物(PM10),131,212,305,42,62,25,,,,53,24,6,9,0.6,0.8
2025-03-12T0100,3683A,109.8331,40.6576,包头市,昆区政府,颗粒物(PM10),138,225,309,53,63,42,,,,41,29,9,11,0.7,0.7
2025-03-12T0100,1930A,107.185,34.3063,宝鸡市,庙沟村,颗粒物(PM10),260,392,382,96,82,73,,,,8,8,7,6,0.2,0.3
2025-03-12T0100,1931A,107.0708,34.3017,宝鸡市,竹园沟,颗粒物(PM10),183,316,369,94,79,44,,,,22,17,6,6,0.4,0.4
2025-03-12T0100,1932A,107.1906,34.3672,宝鸡市,三陆医院,颗粒物(PM10),232,372,396,101,93,19,,,,51,34,5,5,0.4,0.5
2025-03-12T0100,1933A,107.1431,34.3547,宝鸡市,监测站,颗粒物(PM10),266,396,382,94,80,40,,,,24,23,7,8,0.4,0.5
2025-03-12T0100,1934A,107.1186,34.3739,宝鸡市,技工学校,颗粒物(PM10),223,366,337,97,78,46,,,,21,20,8,8,0.6,0.6
2025-03-12T0100,1935A,107.3906,34.3528,宝鸡市,陈仓区环保局家属楼,颗粒物(PM10),334,447,459,91,98,30,,,,47,47,6,7,0.5,0.5
2025-03-12T0100,1936A,107.2058,34.3497,宝鸡市,文理学院,颗粒物(PM10),230,371,405,95,85,38,,,,36,30,6,6,0.2,0.3
2025-03-12T0100,1937A,107.2386,34.3622,宝鸡市,三迪小学,颗粒物(PM10),305,424,422,110,94,29,,,,40,31,6,7,0.6,0.6
2025-03-12T0100,1051A,115.493,38.8632,保定市,游泳馆,颗粒物(PM10),171,292,175,116,132,53,,,,29,33,10,11,0.5,0.6
2025-03-12T0100,1052A,115.5213,38.8959,保定市,华电二区,颗粒物(PM10),154,258,151,102,134,57,,,,21,25,7,9,0.8,1.1
2025-03-12T0100,1053A,115.4713,38.9108,保定市,接待中心,颗粒物(PM10),183,316,178,107,138,64,,,,19,30,7,8,0.6,1
2025-03-12T0100,1054A,115.4612,38.8416,保定市,地表水厂,颗粒物(PM10),230,371,192,85,133,68,,,,19,36,5,7,0.5,0.9
2025-03-12T0100,3581A,115.31981,38.95208,保定市,满城区生态环境分局,颗粒物(PM10),312,429,210,80,127,77,,,,11,28,10,13,0.4,0.8
2025-03-12T0100,3582A,115.47694,38.76408,保定市,清苑区第二中学,颗粒物(PM10),248,383,189,77,124,66,,,,19,33,8,10,0.4,0.7
2025-03-12T0100,3583A,115.62909,39.02311,保定市,徐水物探局,颗粒物(PM10),200,350,174,105,132,65,,,,19,37,10,11,0.4,0.5
2025-03-12T0100,4004A,115.4202,38.8656,保定市,双鹰农机,颗粒物(PM10),179,308,166,84,126,62,,,,21,38,3,2,0.6,0.9
2025-03-12T0100,4034A,115.5150,38.8590,保定市,植保所站,颗粒物(PM10),175,300,166,126,136,45,,,,31,37,6,6,0.8,0.9
2025-03-12T0100,2594A,99.1678,25.1081,保山市,市环境监测站,细颗粒物(PM2.5),73,61,60,53,44,127,,,,7,11,2,4,0.5,0.5
2025-03-12T0100,2595A,99.1711,25.1328,保山市,市环保局,细颗粒物(PM2.5),88,70,66,65,43,133,,,,6,10,6,7,0.7,0.7
2025-03-12T0100,1866A,109.2262,21.588,北海市,牛尾岭水库,,,27,33,17,19,62,,,,,,5,6,0.5,0.6
2025-03-12T0100,1867A,109.1436,21.4086,北海市,海滩公园,,33,33,42,17,18,82,,,,8,9,6,6,0.7,0.7
2025-03-12T0100,1868A,109.0981,21.4661,北海市,新市环保局,,32,32,35,19,20,74,,,,11,12,3,4,0.4,0.4
2025-03-12T0100,1869A,109.1778,21.5233,北海市,北海工业园,,26,25,48,17,23,82,,,,8,11,7,7,0.4,0.5
2025-03-12T0100,3400A,109.1911,21.4415,北海市,龙潭自来水厂,,31,31,40,18,25,80,,,,9,9,6,7,0.4,0.4
2025-03-12T0100,1001A,116.3621,39.8784,北京市,万寿西宫,细颗粒物(PM2.5),133,167,212,101,157,55,,,,33,55,3,3,0.4,1.2
2025-03-12T0100,1002A,116.2202,40.2915,北京市,定陵,,,,,,,,,,,,,,,,
2025-03-12T0100,1003A,116.4174,39.9289,北京市,东四,细颗粒物(PM2.5),190,198,214,143,169,41,,,,51,61,6,7,1.1,1.2
2025-03-12T0100,1004A,116.4072,39.8863,北京市,天坛,细颗粒物(PM2.5),198,202,206,148,157,39,,,,44,50,4,4,1.1,1.3
2025-03-12T0100,1005A,116.462,39.9365,北京市,农展馆,细颗粒物(PM2.5),201,215,209,151,157,35,,,,55,67,6,6,1.1,1.2
2025-03-12T0100,1006A,116.3392,39.9295,北京市,官园,细颗粒物(PM2.5),176,193,216,133,164,41,,,,33,48,7,7,1.0,1.2
2025-03-12T0100,1007A,116.2878,39.9611,北京市,海淀万柳,,,,212,,164,,,37,,,59,,4,,1.2
2025-03-12T0100,1008A,116.6636,40.135,北京市,顺义新城,细颗粒物(PM2.5),183,205,210,138,154,46,,,,37,53,4,5,0.7,0.9
2025-03-12T0100,1009A,116.6275,40.3275,北京市,怀柔镇,细颗粒物(PM2.5),182,171,180,137,145,35,,,,16,28,2,3,1.0,1
2025-03-12T0100,1010A,116.2296,40.217,北京市,昌平镇,细颗粒物(PM2.5),189,214,223,142,154,11,,,,57,45,1,2,1.2,1.1
2025-03-12T0100,1011A,116.3966,39.9821,北京市,奥体中心,细颗粒物(PM2.5),220,237,219,170,167,9,,,,80,66,3,4,1.3,1.3
2025-03-12T0100,3281A,115.9718,40.4529,北京市,延庆夏都,颗粒物(PM10),85,119,160,14,95,80,,,,8,17,4,5,0.3,0.7
2025-03-12T0100,3418A,116.8336,40.4095,北京市,密云新城,细颗粒物(PM2.5),207,205,191,157,150,17,,,,44,34,4,5,0.9,0.9
2025-03-12T0100,3671A,116.088,39.9726,北京市,门头沟三家店,颗粒物(PM10),65,80,201,35,157,58,,,,16,39,4,4,0.2,0.8
2025-03-12T0100,3672A,116.1541,39.8204,北京市,丰台云岗,颗粒物(PM10),64,77,212,22,156,83,,,,7,45,5,6,0.3,1
2025-03-12T0100,3673A,116.6804,39.9081,北京市,通州东关,细颗粒物(PM2.5),228,238,199,178,150,13,,,,89,64,6,6,1.0,0.8
2025-03-12T0100,3674A,115.9577,39.7603,北京市,房山燕山,颗粒物(PM10),87,124,185,30,149,65,,,,6,31,3,2,0.2,0.8
2025-03-12T0100,3675A,116.4672,39.7733,北京市,大兴旧宫,细颗粒物(PM2.5),200,219,192,150,137,7,,,,67,45,1,1,1.1,0.9
2025-03-12T0100,3694A,115.986,40.4563,北京市,延庆石河营,颗粒物(PM10),74,97,134,14,91,78,,,,5,16,3,4,0.3,0.8
2025-03-12T0100,3695A,116.6151,40.3053,北京市,怀柔新城,细颗粒物(PM2.5),185,165,178,139,150,34,,,,17,23,4,4,1.0,1
2025-03-12T0100,3696A,116.2545,39.8768,北京市,丰台小屯,颗粒物(PM10),82,114,211,59,157,51,,,,26,56,1,2,0.5,1.1
2025-03-12T0100,3697A,116.84,40.3844,北京市,密云镇,细颗粒物(PM2.5),190,200,197,143,145,17,,,,52,51,5,5,0.8,0.9
2025-03-12T0100,4182A,116.1942,39.9158,北京市,八角北路9号,颗粒物(PM10),66,81,209,25,152,82,,,,9,53,1,2,0.1,0.9
2025-03-12T0100,4194A,117.0790,40.1518,北京市,洳河巡河路,细颗粒物(PM2.5),113,123,168,85,137,65,,,,16,26,2,4,0.5,0.8
2025-03-12T0100,1761A,123.8275,41.3064,本溪市,大峪,,43,43,52,30,43,112,,,,7,10,10,11,0.7,0.7
2025-03-12T0100,1762A,123.7567,41.3325,本溪市,溪湖,,43,43,55,28,37,96,,,,14,18,9,11,0.7,0.9
2025-03-12T0100,1763A,123.7169,41.3094,本溪市,彩屯,细颗粒物(PM2.5),62,70,73,44,49,62,,,,42,29,32,20,3.2,2.4
2025-03-12T0100,1764A,123.7669,41.2864,本溪市,东明,,30,29,40,19,30,94,,,,11,12,6,6,0.7,0.7
2025-03-12T0100,1765A,123.7992,41.2664,本溪市,新立屯,,38,28,35,26,37,109,,,,13,13,6,5,0.6,0.6
2025-03-12T0100,1766A,123.8142,41.3472,本溪市,威宁,,40,40,55,24,37,101,,,,7,13,4,5,0.6,0.6
2025-03-12T0100,2587A,105.2864,27.3125,毕节市,八中,,20,10,39,8,33,62,,,,9,13,7,8,0.7,0.8
2025-03-12T0100,2588A,105.31,27.2944,毕节市,师专,,22,9,46,8,36,70,,,,10,15,6,6,0.8,0.9
2025-03-12T0100,4263A,105.3688,27.3598,毕节市,工业大道,,23,9,38,7,31,72,,,,10,13,7,9,0.6,0.7
2025-03-12T0100,1629A,118.0018,37.3617,滨州市,第二水厂,细颗粒物(PM2.5),128,136,123,97,79,84,,,,17,22,8,10,0.7,0.5
2025-03-12T0100,1630A,117.9776,37.393,滨州市,北中新校,细颗粒物(PM2.5),128,156,122,97,75,93,,,,24,29,16,12,1.0,0.7
2025-03-12T0100,3514A,117.9378,37.3956,滨州市,中海酒店,细颗粒物(PM2.5),138,132,113,105,84,98,,,,18,24,9,11,0.7,0.7
2025-03-12T0100,3515A,117.9378,37.3553,滨州市,开发区一中,细颗粒物(PM2.5),117,134,120,88,73,79,,,,32,33,12,12,0.5,0.5
2025-03-12T0100,3516A,118.0917,37.694,滨州市,金海六路,细颗粒物(PM2.5),122,134,123,92,83,55,,,,33,34,10,13,0.8,0.9
2025-03-12T0100,4028A,117.9956,37.3753,滨州市,滨州市西街道办事处,细颗粒物(PM2.5),134,134,121,102,87,99,,,,14,22,7,9,0.9,0.9
2025-03-12T0100,2311A,115.8072,33.8399,亳州市,污水处理厂,细颗粒物(PM2.5),120,127,103,91,67,65,,,,22,25,6,5,0.7,0.6
2025-03-12T0100,2312A,115.7789,33.8518,亳州市,三国揽胜宫,细颗粒物(PM2.5),114,109,113,86,67,62,,,,18,20,5,6,0.6,0.5
2025-03-12T0100,3332A,115.7633,33.8034,亳州市,亳州学院,细颗粒物(PM2.5),105,134,109,79,71,72,,,,22,23,4,5,0.7,0.6
2025-03-12T0100,2693A,82.0485,44.8556,博尔塔拉蒙古自治州,市党校,,26,26,32,12,15,56,,,,11,11,4,5,0.3,1.1
2025-03-12T0100,2694A,82.0806,44.8969,博尔塔拉蒙古自治州,市环保局,颗粒物(PM10),53,56,35,17,14,62,,,,26,16,4,4,0.6,0.4
2025-03-12T0100,1071A,116.8842,38.2991,沧州市,沧县城建局,细颗粒物(PM2.5),200,182,128,150,93,31,,,,52,24,3,4,0.9,0.6
2025-03-12T0100,1072A,116.8584,38.3254,沧州市,电视转播站,细颗粒物(PM2.5),178,175,122,134,95,20,,,,64,25,4,8,0.9,0.6
2025-03-12T0100,1073A,116.8709,38.3228,沧州市,市环保局,细颗粒物(PM2.5),176,184,118,133,91,28,,,,54,23,2,6,1.0,0.6
2025-03-12T0100,3324A,116.8136,38.3004,沧州市,河北水利电力学院,细颗粒物(PM2.5),180,190,127,136,87,36,,,,54,28,11,10,1.0,0.5
2025-03-12T0100,2622A,97.1806,31.1273,昌都市,昌都监测站,,27,8,18,8,12,86,,,,3,12,6,7,0.4,0.6
2025-03-12T0100,3719A,97.1714,31.1406,昌都市,昌都会议中心,,33,,13,10,13,105,,,,4,4,2,2,0.4,0.4
2025-03-12T0100,2690A,88.1236,43.8886,昌吉回族自治州,天山天池,,26,6,6,3,3,83,,,,2,3,5,5,0.3,0.3
2025-03-12T0100,2692A,87.2717,44.0297,昌吉回族自治州,新区政务中心,颗粒物(PM10),54,57,34,18,6,25,,,,52,30,6,7,0.6,0.6
2025-03-12T0100,3613A,87.3095,44.0142,昌吉回族自治州,亚心广场,颗粒物(PM10),54,58,39,24,15,45,,,,39,36,7,7,0.5,0.6
2025-03-12T0100,1119A,125.3325,43.9166,长春市,食品厂,颗粒物(PM10),105,159,72,70,59,84,,,,16,20,11,10,0.6,0.6
2025-03-12T0100,1120A,125.2863,43.9027,长春市,客车厂,颗粒物(PM10),99,148,73,71,69,77,,,,20,22,8,10,0.7,0.7
2025-03-12T0100,1121A,125.2841,43.8463,长春市,邮电学院,细颗粒物(PM2.5),90,115,73,67,61,87,,,,18,21,9,10,0.8,0.8
2025-03-12T0100,1122A,125.3716,43.8772,长春市,劳动公园,,,138,64,58,55,88,,,,8,18,11,11,,0.7
2025-03-12T0100,1123A,125.3297,43.8805,长春市,园林处,颗粒物(PM10),106,162,66,67,62,87,,,,13,14,11,10,0.6,0.6
2025-03-12T0100,1124A,125.4605,43.79,长春市,净月潭,颗粒物(PM10),104,157,60,34,50,82,,,,7,10,8,8,0.5,0.5
2025-03-12T0100,1125A,125.7194,43.515,长春市,甩湾子,,,,,,,,,,,,,,,,
2025-03-12T0100,1126A,125.3863,43.8447,长春市,经开区环卫处,颗粒物(PM10),102,154,67,55,55,81,,,,9,13,9,8,0.6,0.6
2025-03-12T0100,1127A,125.245,43.7783,长春市,高新区管委会,,,,59,,60,,,101,,,19,,8,,0.6
2025-03-12T0100,1128A,125.1761,43.8325,长春市,岱山公园,细颗粒物(PM2.5),95,109,68,71,64,80,,,,21,26,8,7,0.5,0.5
2025-03-12T0100,1335A,113.0833,28.2325,长沙市,经开区环保局,细颗粒物(PM2.5),72,,41,52,32,20,,,,28,33,6,5,0.7,0.8
2025-03-12T0100,1336A,112.8872,28.2189,长沙市,高开区环保局,细颗粒物(PM2.5),74,,42,54,36,37,,,,12,29,5,5,0.7,0.9
2025-03-12T0100,1337A,113.0792,28.2053,长沙市,马坡岭,细颗粒物(PM2.5),62,,43,44,29,25,,,,19,26,4,4,0.6,0.8
2025-03-12T0100,1338A,112.9394,28.19,长沙市,湖南师范大学,细颗粒物(PM2.5),63,52,47,45,31,36,,,,10,28,2,3,0.8,1
2025-03-12T0100,1339A,113.0178,28.1322,长沙市,雨花区环保局,,,49,44,,28,23,,,,22,32,5,6,0.7,0.9
2025-03-12T0100,1340A,112.9792,28.2597,长沙市,伍家岭,细颗粒物(PM2.5),65,49,50,47,31,27,,,,15,28,3,3,0.6,0.8
2025-03-12T0100,1341A,113.0014,28.1944,长沙市,火车新站,细颗粒物(PM2.5),55,51,45,39,31,32,,,,16,32,6,6,1.0,1.2
2025-03-12T0100,1342A,112.9844,28.1178,长沙市,天心区环保局,细颗粒物(PM2.5),62,,44,44,30,34,,,,22,38,3,3,0.7,1.2
2025-03-12T0100,1343A,112.8908,28.1308,长沙市,湖南中医药大学,细颗粒物(PM2.5),62,45,44,44,33,37,,,,11,30,4,4,0.7,0.9
2025-03-12T0100,1344A,112.9581,28.3611,长沙市,沙坪,,47,47,33,13,23,30,,,,14,21,6,6,1.1,1.2
2025-03-12T0100,1727A,113.1147,36.1547,长治市,清华站,颗粒物(PM10),65,80,75,27,42,38,,,,37,30,18,11,1.0,1
2025-03-12T0100,1730A,113.0886,36.2125,长治市,审计局,颗粒物(PM10),91,132,77,48,52,58,,,,27,31,12,10,0.5,0.8
2025-03-12T0100,1731A,113.0844,36.1856,长治市,长治八中,颗粒物(PM10),95,139,102,26,57,53,,,,22,25,10,10,0.3,0.6
2025-03-12T0100,2845A,113.1569,36.1911,长治市,德盛苑,颗粒物(PM10),101,151,79,58,44,59,,,,24,24,17,8,1.4,0.9
2025-03-12T0100,3568A,113.06,36.0464,长治市,向阳小学,颗粒物(PM10),93,135,99,38,52,36,,,,39,20,17,11,0.4,0.7
2025-03-12T0100,3569A,112.8792,36.3144,长治市,屯留一中,颗粒物(PM10),100,150,81,27,40,18,,,,62,42,8,11,0.3,0.4
2025-03-12T0100,4189A,113.1131,36.19948,长治市,英华南巷50号,颗粒物(PM10),80,109,81,41,47,46,,,,32,27,20,11,0.8,0.7
2025-03-12T0100,4190A,113.2367,36.3344,长治市,学府街1号,颗粒物(PM10),129,208,123,46,62,55,,,,27,36,12,11,1.0,1.2
2025-03-12T0100,1854A,111.6975,28.9703,常德市,市二中,细颗粒物(PM2.5),55,41,39,39,33,18,,,,16,15,6,5,0.8,0.7
2025-03-12T0100,1857A,111.7158,29.1456,常德市,白鹤山,,,,,,,,,,,,,,,,
2025-03-12T0100,3138A,111.7153,29.0289,常德市,武陵区永安,细颗粒物(PM2.5),65,54,40,47,31,24,,,,13,11,2,4,0.8,0.8
2025-03-12T0100,3139A,111.6892,28.9881,常德市,鼎城区玉霞,,50,45,43,35,29,18,,,,21,17,4,5,0.8,0.7
2025-03-12T0100,3140A,111.6625,29.0531,常德市,武陵区长庚,细颗粒物(PM2.5),73,74,52,53,33,24,,,,9,10,3,5,0.8,0.8
2025-03-12T0100,1196A,119.9633,31.762,常州市,市监测站,细颗粒物(PM2.5),84,109,107,62,66,4,,,,68,54,9,10,0.8,0.8
2025-03-12T0100,1200A,119.9468,31.7069,常州市,武进监测站,颗粒物(PM10),68,85,87,48,53,2,,,,75,54,3,4,1.4,0.9
2025-03-12T0100,1201A,119.9255,31.9087,常州市,安家,,,111,108,64,71,,,,,68,60,10,9,1.6,1
2025-03-12T0100,3002A,119.9805,31.8174,常州市,行政中心,细颗粒物(PM2.5),100,91,103,75,74,5,,,,60,58,12,14,0.6,0.7
2025-03-12T0100,3003A,120.0522,31.7748,常州市,经开区,细颗粒物(PM2.5),85,93,99,63,65,10,,,,60,59,8,9,0.7,0.7
2025-03-12T0100,3010A,119.9025,31.7964,常州市,钟楼,细颗粒物(PM2.5),88,94,97,65,69,4,,,,64,54,8,8,0.8,0.8
2025-03-12T0100,3429A,119.8598,31.7066,常州市,武进经发区,颗粒物(PM10),62,73,81,34,53,4,,,,80,60,8,9,1.2,1.1
2025-03-12T0100,3430A,119.5826,31.7245,常州市,金坛城区,颗粒物(PM10),60,69,83,33,45,7,,,,64,45,8,8,0.9,0.9
2025-03-12T0100,2220A,120.4318,41.5881,朝阳市,西梁,颗粒物(PM10),113,176,116,29,76,79,,,,11,21,9,12,0.8,1.1
2025-03-12T0100,2221A,120.4521,41.5646,朝阳市,河畔小区,颗粒物(PM10),91,132,88,41,73,74,,,,17,21,9,10,0.8,1.1
2025-03-12T0100,2222A,120.4176,41.5648,朝阳市,八里堡,细颗粒物(PM2.5),103,140,91,77,73,63,,,,20,21,9,12,0.6,1
2025-03-12T0100,2223A,120.3806,41.5969,朝阳市,农业园区,颗粒物(PM10),124,198,111,28,90,84,,,,8,22,7,12,0.4,1.1
2025-03-12T0100,1705A,116.6367,23.6719,潮州市,西园路,细颗粒物(PM2.5),99,,60,74,54,48,,,,29,25,6,8,0.5,0.4
2025-03-12T0100,3026A,116.6183,23.6608,潮州市,市政府,细颗粒物(PM2.5),102,,63,76,49,52,,,,34,34,6,10,0.8,0.6
2025-03-12T0100,4036A,116.6461,23.6761,潮州市,金山,细颗粒物(PM2.5),97,93,60,72,56,36,,,,33,26,6,8,0.8,0.7
2025-03-12T0100,2472A,113.0073,25.9061,郴州市,马头岭,,39,39,48,25,22,76,,,,18,24,10,12,0.7,0.8
2025-03-12T0100,2473A,113.0116,25.8226,郴州市,市职中,颗粒物(PM10),57,63,46,39,33,6,,,,33,25,7,9,1.1,0.8
2025-03-12T0100,2475A,113.0383,25.8071,郴州市,市审计局,细颗粒物(PM2.5),65,62,41,47,32,2,,,,44,24,4,6,1.2,0.7
2025-03-12T0100,2476A,113.0348,25.7759,郴州市,市环保局,,44,44,49,30,32,43,,,,25,22,6,10,0.5,0.7
2025-03-12T0100,4252A,113.0138,25.8011,郴州市,好美居路49号,细颗粒物(PM2.5),59,63,49,42,36,38,,,,31,23,8,10,0.9,0.8
2025-03-12T0100,1431A,103.9728,30.7236,成都市,金泉两河,颗粒物(PM10),59,67,76,40,45,20,,,,31,20,2,3,0.8,0.7
2025-03-12T0100,1432A,104.176,30.6872,成都市,十里店,细颗粒物(PM2.5),60,53,64,43,47,27,,,,50,35,3,3,0.8,0.7
2025-03-12T0100,1433A,104.079,30.5706,成都市,三瓦窑,细颗粒物(PM2.5),65,53,68,47,46,9,,,,67,34,4,4,0.8,0.8
2025-03-12T0100,1434A,104.1114,30.63,成都市,沙河铺,细颗粒物(PM2.5),70,60,70,51,55,24,,,,38,30,5,5,0.9,0.8
2025-03-12T0100,1437A,104.0786,30.6531,成都市,君平街,颗粒物(PM10),51,51,64,30,51,32,,,,47,33,6,6,0.8,0.7
2025-03-12T0100,1438A,103.613,31.0283,成都市,灵岩寺,,,,,,,,,,,,,,,,
2025-03-12T0100,2880A,104.0239,30.65639,成都市,大石西路,"颗粒物(PM10),细颗粒物(PM2.5)",54,58,67,38,50,21,,,,49,33,5,5,0.9,0.9
2025-03-12T0100,3136A,104.2725,30.5589,成都市,龙泉驿区区政府,,39,29,60,27,46,59,,,,16,32,4,4,0.7,0.7
2025-03-12T0100,3357A,104.0106,30.6931,成都市,金博路,细颗粒物(PM2.5),59,47,58,42,42,19,,,,45,25,6,6,1.0,0.8
2025-03-12T0100,3359A,104.0578,30.5225,成都市,华阳,细颗粒物(PM2.5),58,51,62,41,48,29,,,,42,33,6,6,0.8,0.8
2025-03-12T0100,3488A,104.3853,30.7453,成都市,青白江技师分院,细颗粒物(PM2.5),53,52,62,37,48,47,,,,36,33,5,5,0.6,0.6
2025-03-12T0100,3489A,104.0789,30.4072,成都市,科学城,细颗粒物(PM2.5),60,52,63,43,51,49,,,,27,36,6,5,0.7,0.7
2025-03-12T0100,4011A,103.8506,30.6947,成都市,光华大道三段,细颗粒物(PM2.5),69,66,66,50,51,29,,,,35,28,4,4,0.8,0.8
2025-03-12T0100,4224A,104.2433,30.5353,成都市,鲸龙路1057号,,46,46,74,31,51,60,,,,17,35,4,4,0.8,0.8
2025-03-12T0100,1062A,117.9531,40.9081,承德市,铁路,细颗粒物(PM2.5),112,115,135,84,98,6,,,,39,43,6,7,1.1,0.9
2025-03-12T0100,1063A,117.9392,40.9763,承德市,中国银行,细颗粒物(PM2.5),99,108,131,74,96,18,,,,16,33,2,4,0.7,0.9
2025-03-12T0100,1064A,117.9503,40.928,承德市,开发区,细颗粒物(PM2.5),114,120,125,86,87,17,,,,34,39,7,8,1.1,1
2025-03-12T0100,1065A,117.8051,40.9655,承德市,文化中心,颗粒物(PM10),144,238,159,65,102,66,,,,19,38,11,8,0.5,0.9
2025-03-12T0100,1066A,117.9268,41.0026,承德市,离宫,细颗粒物(PM2.5),115,164,145,87,111,31,,,,14,26,7,7,0.5,0.7
2025-03-12T0100,2314A,117.47,30.6618,池州市,池州学院,细颗粒物(PM2.5),53,54,45,37,33,5,,,,40,27,6,13,1.7,1.3
2025-03-12T0100,3237A,117.4918,30.6617,池州市,展览馆,颗粒物(PM10),51,51,44,33,33,9,,,,37,24,6,15,1.4,1.2
2025-03-12T0100,3333A,117.5627,30.695,池州市,第八中学,,48,48,43,33,32,6,,,,43,28,12,14,0.8,0.9
2025-03-12T0100,3334A,117.5038,30.6243,池州市,第十二中学,,46,44,43,32,35,2,,,,36,27,8,13,1.5,1.2
2025-03-12T0100,1744A,118.9233,42.2816,赤峰市,松山一中,颗粒物(PM10),195,340,231,51,62,91,,,,9,20,6,10,0.5,0.8
2025-03-12T0100,1745A,118.9576,42.2728,赤峰市,哈达街,颗粒物(PM10),186,322,202,44,56,87,,,,8,20,10,12,0.4,0.7
2025-03-12T0100,1746A,118.8788,42.2554,赤峰市,天义路,颗粒物(PM10),187,324,223,64,84,78,,,,10,19,6,7,0.3,0.5
2025-03-12T0100,3058A,119.2658,42.0353,赤峰市,银河街,颗粒物(PM10),197,343,182,38,74,76,,,,14,28,13,22,0.3,0.8
2025-03-12T0100,3286A,118.9359,42.3147,赤峰市,桥北物流园区,颗粒物(PM10),173,296,193,39,88,73,,,,8,20,6,8,0.6,0.8
2025-03-12T0100,2521A,107.3476,22.4136,崇左市,市环保局江州分局,,30,30,81,21,49,31,,,,16,18,7,7,0.5,0.8
2025-03-12T0100,4256A,107.3750,22.3736,崇左市,石景林东路7号,,36,36,79,23,52,39,,,,15,23,6,7,0.5,0.8
2025-03-12T0100,2298A,118.3093,32.3153,滁州市,老年大学,细颗粒物(PM2.5),160,,91,122,76,73,,,,29,37,8,9,0.9,0.9
2025-03-12T0100,2299A,118.3244,32.2786,滁州市,人大宾馆,细颗粒物(PM2.5),158,128,93,120,78,68,,,,35,50,8,10,0.8,0.9
2025-03-12T0100,3207A,118.3118,32.3038,滁州市,市政府原办公楼,细颗粒物(PM2.5),158,128,89,120,76,73,,,,23,43,5,7,0.8,0.7
2025-03-12T0100,3331A,118.3267,32.2634,滁州市,图书馆,细颗粒物(PM2.5),129,148,99,98,62,65,,,,40,45,6,10,0.8,0.8
2025-03-12T0100,2605A,101.5482,25.0441,楚雄彝族自治州,州环境监测站,细颗粒物(PM2.5),63,56,46,45,35,71,,,,28,19,6,8,0.8,0.6
2025-03-12T0100,2606A,101.538,25.0492,楚雄彝族自治州,市经济开发区,细颗粒物(PM2.5),74,73,47,54,35,92,,,,28,16,10,8,0.9,0.6
2025-03-12T0100,2548A,107.5277,31.2827,达州市,达州职业技术学院,颗粒物(PM10),53,55,54,36,31,7,,,,29,29,5,8,0.3,0.3
2025-03-12T0100,2549A,107.5086,31.2186,达州市,市环境监测站,颗粒物(PM10),58,66,60,34,32,2,,,,54,48,6,9,1.1,0.8
2025-03-12T0100,2550A,107.4988,31.2132,达州市,凤凰小区,细颗粒物(PM2.5),70,80,64,51,38,4,,,,52,45,9,11,1.0,0.9
2025-03-12T0100,2551A,107.5082,31.1986,达州市,达县机关宾馆,颗粒物(PM10),65,80,61,45,38,3,,,,48,41,7,9,0.8,0.9
2025-03-12T0100,2552A,107.4644,31.2124,达州市,市政中心,颗粒物(PM10),68,86,63,41,32,2,,,,60,49,5,7,1.4,0.9
2025-03-12T0100,2614A,100.1542,25.7054,大理白族自治州,大理市环境监测站,细颗粒物(PM2.5),63,68,45,45,31,150,,,,7,7,8,8,0.7,0.6
2025-03-12T0100,2615A,100.2171,25.5811,大理白族自治州,大理古城,,47,47,39,32,30,130,,,,5,10,7,7,0.5,0.5
2025-03-12T0100,1109A,121.612,38.9741,大连市,甘井子,,50,50,54,28,35,78,,,,26,32,5,6,0.5,0.6
2025-03-12T0100,1110A,121.565,38.9511,大连市,周水子,颗粒物(PM10),51,51,60,34,43,69,,,,19,29,10,10,0.5,0.6
2025-03-12T0100,1111A,121.5637,38.8845,大连市,星海三站,,49,45,52,34,41,80,,,,9,14,7,8,0.5,0.7
2025-03-12T0100,1112A,121.6302,38.9117,大连市,青泥洼桥,,39,38,44,27,34,80,,,,9,13,6,7,0.5,0.3
2025-03-12T0100,1113A,121.6251,38.8638,大连市,傅家庄,,49,47,51,34,36,78,,,,16,21,6,6,0.6,0.6
2025-03-12T0100,1114A,121.5213,38.8661,大连市,七贤岭,,49,49,53,27,37,70,,,,15,22,7,8,0.4,0.4
2025-03-12T0100,1115A,121.2529,38.8061,大连市,旅顺,,50,40,46,35,38,64,,,,25,32,5,6,0.5,0.5
2025-03-12T0100,1116A,121.7485,39.1311,大连市,金州,颗粒物(PM10),51,52,49,32,32,77,,,,24,25,10,9,0.6,0.6
2025-03-12T0100,1117A,121.7811,39.0496,大连市,开发区,,49,49,60,31,39,73,,,,18,30,7,8,0.6,0.7
2025-03-12T0100,1118A,121.9762,39.0631,大连市,双D港,细颗粒物(PM2.5),63,48,50,45,56,73,,,,26,28,11,9,0.7,0.7
2025-03-12T0100,1789A,124.81117,46.03138,大庆市,大同区,颗粒物(PM10),128,206,135,67,67,69,,,,13,21,5,6,0.6,0.9
2025-03-12T0100,1790A,125.129,46.533,大庆市,龙凤区,颗粒物(PM10),79,107,100,38,48,76,,,,8,22,8,8,0.6,0.7
2025-03-12T0100,1791A,124.902,46.408,大庆市,红岗区,细颗粒物(PM2.5),97,124,95,72,58,78,,,,11,16,4,6,0.6,0.7
2025-03-12T0100,1792A,125.153,46.586,大庆市,萨尔图区,颗粒物(PM10),86,121,99,38,49,70,,,,13,23,8,9,0.3,0.4
2025-03-12T0100,1793A,124.9042,46.6215,大庆市,让胡路区,颗粒物(PM10),75,100,88,46,54,71,,,,11,26,7,9,0.7,0.7
2025-03-12T0100,3481A,125.141,46.634,大庆市,萨区政府监测点,颗粒物(PM10),82,114,91,53,47,82,,,,12,21,8,11,0.6,0.6
2025-03-12T0100,1721A,113.3819,40.1097,大同市,果树场,颗粒物(PM10),103,156,258,47,74,41,,,,24,28,9,10,0.7,0.9
2025-03-12T0100,1723A,113.2994,40.0758,大同市,云冈宾馆,颗粒物(PM10),139,228,235,34,52,74,,,,14,30,8,9,0.4,0.7
2025-03-12T0100,1724A,113.3444,40.0917,大同市,大同大学,颗粒物(PM10),125,199,230,37,63,75,,,,10,25,10,12,0.4,0.6
2025-03-12T0100,1725A,113.2661,40.1269,大同市,安家小村,颗粒物(PM10),142,234,270,41,64,54,,,,23,22,10,12,0.3,0.6
2025-03-12T0100,1726A,113.2711,40.0844,大同市,教育学院,颗粒物(PM10),123,196,264,41,71,52,,,,28,33,8,11,0.5,0.7
2025-03-12T0100,3282A,113.3397,40.0597,大同市,大同市卫生学校,颗粒物(PM10),127,204,251,39,63,80,,,,10,27,7,8,0.4,0.7
2025-03-12T0100,3565A,113.1367,40.1122,大同市,云冈站,颗粒物(PM10),109,167,250,32,68,55,,,,16,21,14,14,0.5,0.7
2025-03-12T0100,3566A,113.1186,40.2556,大同市,图书馆,颗粒物(PM10),145,240,249,52,66,58,,,,6,15,7,9,0.6,0.7
2025-03-12T0100,3567A,113.5931,40.0461,大同市,区一中,颗粒物(PM10),151,252,282,29,42,64,,,,16,21,18,17,0.4,0.6
2025-03-12T0100,4199A,113.2798,40.0997,大同市,魏都大道141号,颗粒物(PM10),139,228,271,52,68,58,,,,23,29,13,14,0.6,0.9
2025-03-12T0100,2269A,124.1069,50.4097,大兴安岭地区,科技局,,32,32,32,17,21,84,,,,5,7,6,7,0.4,0.4
2025-03-12T0100,3663A,124.1164,50.4278,大兴安岭地区,红旗社区,,30,9,16,8,11,93,,,,5,7,4,4,0.3,0.4
2025-03-12T0100,1600A,124.3303,40.0625,丹东市,江湾东路,,48,44,69,33,55,100,,,,7,17,8,11,0.5,0.9
2025-03-12T0100,1601A,124.4256,40.1503,丹东市,临江后街,,,,72,,52,,,94,,,20,,10,,1.0
2025-03-12T0100,1602A,124.3933,40.1461,丹东市,元宝山,,43,39,58,30,47,90,,,,12,19,8,8,0.8,0.8
2025-03-12T0100,1603A,124.3633,40.1092,丹东市,民主桥,,44,44,67,28,50,95,,,,6,16,6,8,0.7,1.1
2025-03-12T0100,3541A,109.5726,19.5167,儋州市,第一中学子站,,22,22,22,10,10,42,,,,3,3,3,4,0.7,0.7
2025-03-12T0100,3542A,109.5567,19.5187,儋州市,东坡学校子站,,25,25,27,8,10,45,,,,3,5,4,4,0.5,0.6
2025-03-12T0100,2616A,98.5842,24.428,德宏傣族景颇族自治州,德宏州监测站,细颗粒物(PM2.5),87,81,82,64,59,69,,,,25,29,7,9,0.9,0.9
2025-03-12T0100,3677A,98.5881,24.4368,德宏傣族景颇族自治州,芒市人民政府综合楼,细颗粒物(PM2.5),84,90,98,62,57,92,,,,12,19,7,9,0.6,0.6
2025-03-12T0100,1901A,104.4239,31.1208,德阳市,东山公园,细颗粒物(PM2.5),78,75,67,57,54,43,,,,37,29,3,3,0.9,0.8
2025-03-12T0100,1902A,104.3826,31.1317,德阳市,西小区,细颗粒物(PM2.5),80,77,75,59,59,37,,,,41,30,4,4,0.8,0.7
2025-03-12T0100,1904A,104.3553,31.1091,德阳市,耐火材料厂,细颗粒物(PM2.5),83,67,72,61,61,33,,,,49,32,6,7,0.6,0.6
2025-03-12T0100,3639A,104.4019,31.1244,德阳市,市教育局,细颗粒物(PM2.5),75,71,67,55,56,33,,,,48,33,4,4,0.8,0.8
2025-03-12T0100,1622A,116.3032,37.4674,德州市,儿童乐园,细颗粒物(PM2.5),119,134,123,90,85,75,,,,21,21,6,8,0.9,1
2025-03-12T0100,1624A,116.2991,37.4451,德州市,监理站,细颗粒物(PM2.5),128,122,113,97,84,58,,,,32,28,15,16,0.8,0.8
2025-03-12T0100,3066A,116.2721,37.4379,德州市,九衢泉纯净水厂,细颗粒物(PM2.5),100,129,119,75,73,32,,,,50,30,8,8,0.8,0.9
2025-03-12T0100,3371A,116.3728,37.4403,德州市,开发区人民医院,细颗粒物(PM2.5),110,129,118,83,72,74,,,,24,22,10,12,0.6,0.7
2025-03-12T0100,3372A,116.3572,37.4094,德州市,太阳城中学,细颗粒物(PM2.5),122,124,118,92,77,48,,,,41,24,5,7,0.6,0.7
2025-03-12T0100,3511A,116.5652,37.3319,德州市,陵城艺术中心,细颗粒物(PM2.5),132,139,111,100,82,65,,,,29,25,7,9,0.7,0.7
2025-03-12T0100,2621A,99.7056,27.8317,迪庆藏族自治州,迪庆州站,,39,39,44,22,23,107,,,,7,11,8,8,0.4,0.4
2025-03-12T0100,3180A,99.7136,27.8094,迪庆藏族自治州,质量技术监督局,细颗粒物(PM2.5),53,,36,37,29,110,,,,7,13,8,8,0.5,0.6
2025-03-12T0100,4257A,104.6092,35.5962,定西市,将台街,颗粒物(PM10),95,140,289,37,60,21,,,,43,20,9,8,0.6,0.6
2025-03-12T0100,4309A,104.6159,35.5701,定西市,正龙路62号,颗粒物(PM10),101,151,309,48,64,56,,,,13,12,6,8,0.4,1
2025-03-12T0100,1389A,113.7547,23.0494,东莞市,莞城梨川,,41,41,46,21,26,31,,,,35,37,5,5,0.6,0.6
2025-03-12T0100,1390A,113.7944,23.0128,东莞市,东城石井,,35,35,38,16,20,21,,,,35,31,5,5,0.6,0.6
2025-03-12T0100,1391A,113.7383,22.9658,东莞市,南城西平,,38,38,43,17,20,13,,,,57,49,9,9,0.6,0.6
2025-03-12T0100,3319A,113.7338,23.0381,东莞市,万江金泰,,36,36,46,17,21,33,,,,35,32,6,6,0.6,0.7
2025-03-12T0100,3626A,113.7533,23.0202,东莞市,南城元岭,,36,36,42,16,21,25,,,,39,35,4,5,0.7,0.7
2025-03-12T0100,3627A,113.7875,23.0457,东莞市,东城主山,,41,41,46,18,21,25,,,,44,42,10,7,0.6,0.6
2025-03-12T0100,1666A,118.6614,37.4309,东营市,市环保局,细颗粒物(PM2.5),98,122,107,73,65,11,,,,66,29,6,6,1.1,1.1
2025-03-12T0100,3036A,118.6904,37.4338,东营市,开发区管委会,细颗粒物(PM2.5),107,117,102,80,77,8,,,,74,36,6,6,0.4,0.8
2025-03-12T0100,3365A,118.5719,37.565,东营市,垦利区民丰路,细颗粒物(PM2.5),104,127,100,78,62,41,,,,56,45,8,5,1.0,0.8
2025-03-12T0100,3498A,118.5055,37.8612,东营市,河口城区,细颗粒物(PM2.5),119,136,134,90,79,46,,,,29,27,4,6,1.1,1.1
2025-03-12T0100,3646A,118.4978,37.4623,东营市,胜利站,细颗粒物(PM2.5),125,145,131,95,75,64,,,,46,40,11,10,1.2,1.1
2025-03-12T0100,3734A,118.35,37.26,东营市,理想之城,细颗粒物(PM2.5),107,127,117,80,78,8,,,,67,32,9,8,0.9,0.8
2025-03-12T0100,1591A,110.0023,39.8129,鄂尔多斯市,综合楼,颗粒物(PM10),118,185,514,41,88,78,,,,11,17,4,7,0.3,0.4
2025-03-12T0100,1592A,109.9486,39.8261,鄂尔多斯市,巴音孟克林场办事处,颗粒物(PM10),108,166,471,39,84,80,,,,11,14,6,12,0.3,0.4
2025-03-12T0100,1593A,109.7736,39.5986,鄂尔多斯市,康泽苑,颗粒物(PM10),100,149,516,39,89,73,,,,7,12,6,7,0.2,0.5
2025-03-12T0100,1594A,109.8119,39.5989,鄂尔多斯市,华泰汽车城,颗粒物(PM10),106,161,503,53,94,63,,,,13,18,6,6,0.4,0.5
2025-03-12T0100,1595A,109.9734,39.7884,鄂尔多斯市,奥林花园,颗粒物(PM10),114,178,501,41,85,77,,,,10,29,6,13,0.2,0.3
2025-03-12T0100,2436A,114.8938,30.3994,鄂州市,市政府,颗粒物(PM10),51,52,59,34,43,35,,,,20,25,3,5,0.6,0.8
2025-03-12T0100,2437A,114.8989,30.3714,鄂州市,赵家坝,颗粒物(PM10),63,76,65,27,43,42,,,,8,22,2,2,1.0,1.1
2025-03-12T0100,3654A,114.8094,30.4089,鄂州市,精准医疗中心,,43,40,67,30,47,40,,,,7,37,3,9,0.8,1.3
2025-03-12T0100,2454A,109.4978,30.2981,恩施土家族苗族自治州,湖北民院,细颗粒物(PM2.5),85,77,51,63,44,6,,,,48,32,3,3,0.5,0.3
2025-03-12T0100,2455A,109.4707,30.2798,恩施土家族苗族自治州,州电力总公司,细颗粒物(PM2.5),75,82,59,55,44,7,,,,40,30,5,5,0.7,0.5
2025-03-12T0100,3549A,109.5061,30.3772,恩施土家族苗族自治州,龙凤新区,细颗粒物(PM2.5),75,73,52,55,36,7,,,,27,23,7,6,0.7,0.9
2025-03-12T0100,2499A,108.3411,21.6158,防城港市,沙万,,36,36,49,19,29,49,,,,18,29,7,9,0.6,0.7
2025-03-12T0100,2500A,108.3514,21.7731,防城港市,防城档案局,,32,32,43,20,31,54,,,,8,25,8,6,0.2,0.5
2025-03-12T0100,2501A,108.3506,21.6414,防城港市,大海花园,细颗粒物(PM2.5),57,,46,40,48,68,,,,9,22,4,6,0.7,0.9
2025-03-12T0100,1371A,113.1294,23.0067,佛山市,湾梁,,48,48,53,17,19,34,,,,41,38,8,8,0.6,0.5
2025-03-12T0100,1372A,113.1083,23.0478,佛山市,华材职中,,48,48,44,22,23,36,,,,43,34,6,7,0.6,0.6
2025-03-12T0100,1373A,113.144,23.0453,佛山市,南海气象局,,33,,48,23,28,34,,,,25,29,5,6,0.4,0.5
2025-03-12T0100,1374A,113.2881,22.8094,佛山市,顺德苏岗,,24,24,47,12,23,32,,,,23,36,5,5,0.5,0.7
2025-03-12T0100,1376A,112.8383,22.8678,佛山市,高明孔堂,,23,,31,16,18,70,,,,8,15,5,4,0.4,0.5
2025-03-12T0100,1377A,112.8836,23.1588,佛山市,三水监测站,,33,,40,23,27,24,,,,54,49,1,3,0.5,0.5
2025-03-12T0100,1378A,112.867,23.185,佛山市,三水云东海,,25,25,42,14,17,37,,,,48,41,3,3,0.5,0.5
2025-03-12T0100,3625A,113.2544,22.7642,佛山市,容桂街道办,,34,34,45,22,26,36,,,,37,41,7,7,0.7,0.7
2025-03-12T0100,1280A,119.3903,26.0543,福州市,鼓山,,,,39,,27,,,75,,,12,,2,,0.5
2025-03-12T0100,1282A,119.2681,26.0504,福州市,师大,,48,,50,33,32,75,,,,11,27,3,5,0.3,0.5
2025-03-12T0100,1283A,119.2984,26.1028,福州市,五四北路,,46,,45,32,32,61,,,,21,31,4,4,0.4,0.6
2025-03-12T0100,1284A,119.2648,26.0768,福州市,杨桥西路,,46,,50,32,31,72,,,,15,28,4,5,0.4,0.5
2025-03-12T0100,1285A,119.317,26.0746,福州市,紫阳,,36,,50,25,33,70,,,,19,40,3,4,0.3,0.6
2025-03-12T0100,3048A,119.5799,26.0936,福州市,九龙,,22,,24,6,20,69,,,,8,14,3,4,0.3,0.4
2025-03-12T0100,3526A,119.5189,25.9664,福州市,吴航,,33,32,51,23,32,72,,,,15,27,4,7,0.3,0.5
2025-03-12T0100,1755A,123.7977,41.8491,抚顺市,望花区,颗粒物(PM10),53,56,75,31,53,78,,,,30,21,13,22,0.8,0.8
2025-03-12T0100,1756A,123.9161,41.8822,抚顺市,顺城区,,39,39,69,25,45,100,,,,10,15,9,8,0.8,0.7
2025-03-12T0100,1757A,124.0436,41.8611,抚顺市,东洲区,,44,44,67,24,44,101,,,,13,15,5,7,0.7,0.8
2025-03-12T0100,1758A,123.9247,41.8642,抚顺市,新抚区,,42,42,66,19,43,95,,,,8,17,6,6,0.8,0.7
2025-03-12T0100,1759A,124.0972,41.8961,抚顺市,大伙房水库,,35,30,56,24,45,106,,,,8,9,8,7,0.6,0.6
2025-03-12T0100,1760A,123.7086,41.8391,抚顺市,沈抚新城,颗粒物(PM10),51,52,69,21,44,86,,,,21,16,6,6,0.9,0.9
2025-03-12T0100,2376A,116.2127,28.0814,抚州市,桐源党溪,细颗粒物(PM2.5),54,52,48,38,30,4,,,,6,6,2,7,0.6,0.6
2025-03-12T0100,2377A,116.3544,27.9831,抚州市,市站,细颗粒物(PM2.5),58,58,45,41,29,11,,,,47,29,12,13,0.9,0.8
2025-03-12T0100,2378A,116.3565,27.963,抚州市,血防站,细颗粒物(PM2.5),63,63,49,45,29,13,,,,38,22,11,12,1.2,1
2025-03-12T0100,2379A,116.3564,28.0007,抚州市,采茶剧团,细颗粒物(PM2.5),58,55,42,41,29,22,,,,18,19,7,7,1.5,1.4
2025-03-12T0100,2380A,116.385,27.9647,抚州市,医学分院,细颗粒物(PM2.5),57,60,45,40,28,19,,,,21,16,3,5,1.4,1.2
2025-03-12T0100,2207A,121.6094,41.998,阜新市,工业园区,细颗粒物(PM2.5),108,103,131,81,88,55,,,,25,22,13,12,1.0,1.2
2025-03-12T0100,2208A,121.6697,42.0279,阜新市,长青街,细颗粒物(PM2.5),145,,107,111,97,65,,,,30,25,12,11,1.2,0.9
2025-03-12T0100,2209A,121.6673,42.0705,阜新市,农业园区,细颗粒物(PM2.5),144,132,136,110,96,69,,,,22,17,16,14,1.3,1
2025-03-12T0100,2210A,121.6717,42.0224,阜新市,东苑,细颗粒物(PM2.5),124,,112,94,83,47,,,,42,26,17,13,1.2,0.8
2025-03-12T0100,2211A,121.6506,42.0498,阜新市,玉龙新城,细颗粒物(PM2.5),147,128,120,112,97,55,,,,29,25,13,14,1.2,1
2025-03-12T0100,2301A,115.8277,32.8929,阜阳市,市监测站,细颗粒物(PM2.5),124,119,94,94,72,64,,,,25,29,6,7,0.7,0.7
2025-03-12T0100,2303A,115.8554,32.8605,阜阳市,开发区,细颗粒物(PM2.5),124,122,103,94,72,74,,,,23,29,6,7,0.7,0.7
2025-03-12T0100,2875A,115.784,32.8892,阜阳市,阜阳职业技术学院,细颗粒物(PM2.5),117,124,86,88,63,66,,,,24,21,8,7,0.7,0.7
2025-03-12T0100,3468A,115.7901,32.8613,阜阳市,市规划展馆,细颗粒物(PM2.5),115,100,85,87,64,84,,,,21,16,7,7,0.8,0.8
2025-03-12T0100,3469A,115.836,32.9183,阜阳市,枣园社区,细颗粒物(PM2.5),114,142,105,86,68,57,,,,30,33,6,6,0.6,0.6
2025-03-12T0100,2669A,102.9099,34.9841,甘南藏族自治州,州政府,颗粒物(PM10),105,160,124,38,34,61,,,,5,17,5,7,0.3,0.5
2025-03-12T0100,3380A,102.8914,34.9617,甘南藏族自治州,甘肃民族师范学院,颗粒物(PM10),127,203,136,58,37,8,,,,46,17,9,10,0.5,0.4
2025-03-12T0100,2570A,101.9603,30.0475,甘孜藏族自治州,水桥子,颗粒物(PM10),69,87,30,30,11,95,,,,4,17,3,3,0.4,0.5
2025-03-12T0100,3065A,101.9533,29.9972,甘孜藏族自治州,州环保局,颗粒物(PM10),56,62,29,18,8,95,,,,3,9,4,4,0.3,0.3
2025-03-12T0100,3414A,115.8347,28.932,赣江新区,桑海产业园,,44,44,51,26,41,1,,,,40,30,11,13,0.6,0.5
2025-03-12T0100,2362A,114.9017,25.9149,赣州市,通天岩,,20,13,28,6,6,64,,,,3,4,9,10,0.5,0.5
2025-03-12T0100,2363A,114.9367,25.8664,赣州市,地委,颗粒物(PM10),59,68,51,34,31,11,,,,45,28,4,5,1.0,1
2025-03-12T0100,2364A,114.9461,25.8481,赣州市,气象台,颗粒物(PM10),51,52,58,25,28,24,,,,42,36,8,9,0.6,0.7
2025-03-12T0100,2365A,114.9322,25.8333,赣州市,市图书馆,,30,25,56,21,33,45,,,,11,36,4,5,0.7,1
2025-03-12T0100,2366A,114.8905,25.8471,赣州市,华坚鞋城,,46,46,56,22,31,39,,,,25,30,6,7,0.4,0.6
2025-03-12T0100,3109A,115.0093,25.8613,赣州市,赣县区卫计委,,48,41,50,33,31,19,,,,32,27,6,5,0.4,0.5
2025-03-12T0100,2683A,106.2319,36.1417,固原市,马园,颗粒物(PM10),89,127,416,43,67,6,,,,62,20,5,5,0.9,0.6
2025-03-12T0100,2684A,106.2792,36.0022,固原市,监测站,颗粒物(PM10),71,92,387,39,75,52,,,,22,12,10,7,1.1,0.4
2025-03-12T0100,2685A,106.2375,36.0211,固原市,新区,颗粒物(PM10),77,104,371,33,68,11,,,,57,18,7,6,0.7,0.4
2025-03-12T0100,3522A,106.2177,35.9959,固原市,原州区十五小,颗粒物(PM10),71,91,303,28,63,60,,,,24,15,6,7,0.4,0.4
2025-03-12T0100,2543A,106.6308,30.5278,广安市,小平旧居,,,,,,,,,,,,,,,,
2025-03-12T0100,2544A,106.6303,30.4576,广安市,市委,细颗粒物(PM2.5),73,69,57,53,43,23,,,,46,25,5,4,0.7,0.6
2025-03-12T0100,2545A,106.6271,30.4663,广安市,友谊中学,细颗粒物(PM2.5),73,75,58,53,41,10,,,,51,30,3,1,0.8,0.7
2025-03-12T0100,2547A,106.6388,30.4551,广安市,广电花园,细颗粒物(PM2.5),78,67,53,57,40,12,,,,50,30,4,4,0.7,0.6
2025-03-12T0100,2902A,106.6351,30.4865,广安市,北辰小学,细颗粒物(PM2.5),70,56,54,51,39,27,,,,33,22,7,8,0.7,0.7
2025-03-12T0100,2523A,105.8945,32.4535,广元市,黑石坡,颗粒物(PM10),118,185,223,67,58,47,,,,13,15,10,8,0.5,0.4
2025-03-12T0100,2524A,105.821,32.4444,广元市,老城,颗粒物(PM10),155,259,217,70,64,0,,,,60,35,1,1,0.4,0.6
2025-03-12T0100,2526A,105.8628,32.4287,广元市,监测站,颗粒物(PM10),111,172,168,57,61,18,,,,41,26,9,7,0.5,0.6
2025-03-12T0100,3617A,105.8047,32.4166,广元市,经开区,颗粒物(PM10),173,295,211,87,71,5,,,,65,38,2,2,0.9,0.8
2025-03-12T0100,1345A,113.2347,23.1423,广州市,广雅中学,,32,32,44,15,21,29,,,,40,42,4,4,0.5,0.7
2025-03-12T0100,1346A,113.2612,23.105,广州市,市五中,,28,28,46,12,22,26,,,,45,43,3,3,0.4,0.5
2025-03-12T0100,1348A,113.3478,23.0916,广州市,广东商学院,,33,33,42,19,20,6,,,,65,45,4,4,0.6,0.6
2025-03-12T0100,1349A,113.4332,23.1047,广州市,市八十六中,,47,47,48,16,19,3,,,,83,64,4,5,0.3,0.2
2025-03-12T0100,1350A,113.3505,22.9483,广州市,番禺中学,,33,33,41,14,21,34,,,,39,42,8,8,0.5,0.6
2025-03-12T0100,1351A,113.2146,23.3916,广州市,花都师范,,34,34,52,16,25,22,,,,47,47,5,5,0.5,0.6
2025-03-12T0100,1352A,113.2597,23.1331,广州市,市监测站,,31,31,41,12,18,22,,,,46,44,6,6,0.5,0.6
2025-03-12T0100,1353A,113.5618,23.312,广州市,九龙镇镇龙,颗粒物(PM10),51,52,49,25,26,7,,,,65,46,6,6,0.6,0.6
2025-03-12T0100,1354A,113.2765,23.1544,广州市,麓湖,,31,31,40,14,18,21,,,,51,44,4,3,0.4,0.5
2025-03-12T0100,1355A,113.443,23.3035,广州市,帽峰山森林公园,,46,46,38,25,21,7,,,,80,46,8,7,0.7,0.7
2025-03-12T0100,2846A,113.3221,23.1322,广州市,体育西,,38,38,47,16,22,20,,,,56,51,4,5,0.5,0.6
2025-03-12T0100,3298A,113.5717,23.5491,广州市,从化街口,,42,42,49,23,31,15,,,,51,34,8,7,0.6,0.7
2025-03-12T0100,3299A,113.3472,23.3692,广州市,白云竹料,,49,49,54,23,26,12,,,,59,48,8,8,0.7,0.7
2025-03-12T0100,3300A,113.2981,23.237,广州市,白云嘉禾,,42,42,50,20,23,13,,,,69,53,4,4,0.4,0.5
2025-03-12T0100,3301A,113.4256,23.1716,广州市,黄埔科学城,,43,43,46,18,21,2,,,,73,55,8,7,0.4,0.4
2025-03-12T0100,3302A,113.3942,23.0483,广州市,番禺大学城,,46,46,55,17,18,25,,,,49,43,6,5,0.2,0.2
2025-03-12T0100,3303A,113.4922,22.8168,广州市,南沙黄阁,,35,35,42,17,22,8,,,,68,38,6,5,0.6,0.6
2025-03-12T0100,3304A,113.5342,22.7896,广州市,南沙街,,42,42,37,15,18,10,,,,62,37,7,6,0.5,0.5
2025-03-12T0100,3443A,113.2902,23.5544,广州市,花都梯面,,36,36,46,16,24,15,,,,55,38,6,5,0.6,0.7
2025-03-12T0100,3445A,113.7858,23.7478,广州市,从化良口,,34,34,28,22,20,55,,,,23,13,6,6,0.7,0.7
2025-03-12T0100,3446A,113.8051,23.2614,广州市,增城荔城,,41,41,42,19,23,26,,,,36,27,7,6,0.5,0.5
2025-03-12T0100,2505A,109.568,23.1478,贵港市,德智高中,,,,,,,,,,,,,,,,
2025-03-12T0100,2506A,109.6047,23.0666,贵港市,江南子站,,48,41,82,33,48,42,,,,24,37,5,7,0.5,0.7
2025-03-12T0100,2507A,109.6014,23.0948,贵港市,贵城子站,"颗粒物(PM10),细颗粒物(PM2.5)",52,53,85,36,49,30,,,,31,36,6,8,0.7,0.8
2025-03-12T0100,2508A,109.5669,23.1065,贵港市,荷城子站,颗粒物(PM10),60,70,73,36,51,18,,,,46,38,8,9,0.6,0.8
2025-03-12T0100,3405A,109.5886,23.1172,贵港市,新世纪学校,细颗粒物(PM2.5),64,61,78,46,58,13,,,,47,43,3,4,0.8,0.7
2025-03-12T0100,1439A,106.6899,26.5998,贵阳市,马鞍山,,39,39,33,27,22,66,,,,12,11,5,6,0.5,0.7
2025-03-12T0100,1441A,106.6243,26.6266,贵阳市,鉴湖路,,48,48,44,27,22,73,,,,8,10,10,11,0.5,0.5
2025-03-12T0100,1442A,106.7487,26.6343,贵阳市,燕子冲,细颗粒物(PM2.5),52,36,37,36,34,69,,,,11,14,6,12,0.5,0.6
2025-03-12T0100,1443A,106.6555,26.4365,贵阳市,碧云窝,,46,46,43,31,22,73,,,,13,12,8,8,0.5,0.5
2025-03-12T0100,1445A,106.7109,26.6027,贵阳市,红边门,细颗粒物(PM2.5),52,48,43,36,35,66,,,,14,20,4,5,0.4,0.5
2025-03-12T0100,1446A,106.7164,26.5699,贵阳市,新华路,,49,44,41,34,29,66,,,,13,16,10,15,0.6,0.6
2025-03-12T0100,1447A,106.674,26.5424,贵阳市,太慈桥,,39,39,36,22,24,72,,,,15,15,7,8,0.5,0.4
2025-03-12T0100,1552A,106.805,26.3003,贵阳市,桐木岭,,35,32,45,24,29,52,,,,11,9,15,22,1.1,1.2
2025-03-12T0100,4230A,106.6882,26.5695,贵阳市,花果园大街66号,细颗粒物(PM2.5),52,,29,36,31,66,,,,12,16,5,6,0.5,0.4
2025-03-12T0100,4231A,106.6873,26.5169,贵阳市,漓江路57号,,39,36,36,27,25,62,,,,12,14,9,11,0.4,0.5
2025-03-12T0100,1862A,110.4144,25.3167,桂林市,电子科大尧山校区,,,,,,,,,,,,,,,,
2025-03-12T0100,1864A,110.3089,25.2708,桂林市,龙隐路小学,细颗粒物(PM2.5),65,62,38,47,33,6,,,,31,32,8,8,1.7,1.2
2025-03-12T0100,1865A,110.2869,25.2178,桂林市,八中,细颗粒物(PM2.5),60,49,38,43,31,2,,,,32,37,8,8,1.4,1.1
2025-03-12T0100,3531A,110.296,25.1253,桂林市,旅游学院,,45,41,28,31,23,4,,,,32,32,8,7,1.3,1
2025-03-12T0100,4222A,110.1835,25.2444,桂林市,环湖路276号,细颗粒物(PM2.5),52,44,31,36,30,1,,,,44,39,10,10,1.6,1.4
2025-03-12T0100,4301A,110.2803,25.2773,桂林市,信义路13号,细颗粒物(PM2.5),80,,38,59,38,3,,,,31,36,10,8,1.9,1.4
2025-03-12T0100,2674A,100.2561,34.4714,果洛藏族自治州,玛沁县大武镇,颗粒物(PM10),57,64,38,21,14,84,,,,2,3,13,12,0.3,0.4
2025-03-12T0100,1129A,126.5422,45.755,哈尔滨市,岭北,细颗粒物(PM2.5),68,59,122,49,77,101,,,,17,25,34,24,0.9,0.8
2025-03-12T0100,1130A,126.561,45.8167,哈尔滨市,松北商大,细颗粒物(PM2.5),69,56,119,50,76,94,,,,15,20,7,8,0.7,0.7
2025-03-12T0100,1131A,126.979,45.5419,哈尔滨市,阿城会宁,细颗粒物(PM2.5),57,56,117,40,74,99,,,,8,14,14,14,0.6,0.7
2025-03-12T0100,1132A,126.599,45.7222,哈尔滨市,南岗学府路,颗粒物(PM10),58,66,138,37,64,90,,,,15,22,7,9,0.7,0.8
2025-03-12T0100,1133A,126.689,45.7733,哈尔滨市,太平宏伟公园,细颗粒物(PM2.5),58,46,135,41,77,93,,,,17,25,10,10,0.6,0.6
2025-03-12T0100,1134A,126.635,45.7667,哈尔滨市,道外承德广场,,,88,158,,84,85,,,,8,22,8,9,0.8,0.8
2025-03-12T0100,1135A,126.685,45.7319,哈尔滨市,香坊红旗大街,,48,36,142,33,75,92,,,,14,26,10,13,0.7,0.8
2025-03-12T0100,1136A,126.6411,45.7258,哈尔滨市,动力和平路,细颗粒物(PM2.5),70,55,130,51,82,96,,,,10,18,10,9,0.6,0.8
2025-03-12T0100,1137A,126.593,45.7478,哈尔滨市,道里建国路,细颗粒物(PM2.5),65,55,128,47,84,88,,,,11,21,8,11,0.8,0.9
2025-03-12T0100,1138A,126.615,45.61,哈尔滨市,平房东轻厂,细颗粒物(PM2.5),58,52,120,41,77,95,,,,5,12,12,10,0.6,0.7
2025-03-12T0100,1139A,126.595,45.9855,哈尔滨市,呼兰师专,细颗粒物(PM2.5),72,59,125,52,86,78,,,,19,22,18,13,0.5,0.5
2025-03-12T0100,1140A,126.6206,45.6842,哈尔滨市,省农科院,细颗粒物(PM2.5),63,64,141,45,84,87,,,,12,23,12,13,0.7,0.8
2025-03-12T0100,2688A,93.5128,42.8172,哈密市,地区监测站,颗粒物(PM10),93,135,91,28,17,30,,,,40,11,6,4,0.6,0.3
2025-03-12T0100,2689A,93.4961,42.8328,哈密市,哈密师范学校,颗粒物(PM10),74,97,68,22,19,31,,,,42,15,4,4,0.7,0.4
2025-03-12T0100,2671A,100.9048,36.9639,海北藏族自治州,海晏县西海镇,颗粒物(PM10),169,287,100,70,31,90,,,,6,4,15,10,0.3,0.3
2025-03-12T0100,3867A,102.0738,36.5056,海东市,平安区公安北苑,颗粒物(PM10),169,287,371,87,86,58,,,,4,6,12,14,0.9,1
2025-03-12T0100,1409A,110.576,19.9507,海口市,东寨港,,,,36,,19,,,,,,4,,5,,0.8
2025-03-12T0100,1410A,110.3232,20.0574,海口市,海南大学,,25,25,51,12,20,25,,,,6,15,2,3,0.5,0.4
2025-03-12T0100,1411A,110.283,20.0053,海口市,秀英海南医院,,23,23,37,12,17,47,,,,18,13,4,4,0.3,0.4
2025-03-12T0100,1412A,110.338,19.9969,海口市,海南师范大学,,28,28,41,14,18,64,,,,2,8,4,4,0.4,0.4
2025-03-12T0100,1413A,110.33,20.0356,海口市,龙华路环保局宿舍,,26,26,40,12,18,61,,,,5,9,4,4,0.3,0.4
2025-03-12T0100,3539A,110.5111,19.9736,海口市,桂林洋子站,,24,24,36,13,17,61,,,,6,7,2,3,0.2,0.3
2025-03-12T0100,2673A,100.6188,36.2866,海南藏族自治州,共和县恰卜恰镇,颗粒物(PM10),114,177,63,51,18,65,,,,19,14,6,6,0.5,0.4
2025-03-12T0100,2676A,97.3731,37.3753,海西蒙古族藏族自治州,德令哈市,,44,44,64,28,22,76,,,,3,9,13,15,0.4,0.5
2025-03-12T0100,1048A,114.5302,36.6116,邯郸市,东污水处理厂,细颗粒物(PM2.5),134,123,93,102,75,31,,,,39,24,4,2,0.8,0.6
2025-03-12T0100,1049A,114.4918,36.5713,邯郸市,矿院,细颗粒物(PM2.5),132,152,112,100,74,29,,,,33,21,3,3,0.7,0.6
2025-03-12T0100,1050A,114.484,36.6133,邯郸市,丛台公园,细颗粒物(PM2.5),132,135,94,100,73,22,,,,44,22,4,3,0.8,0.6
2025-03-12T0100,3458A,114.7895,36.5593,邯郸市,香泉濮院小区,细颗粒物(PM2.5),99,118,101,74,73,46,,,,21,14,2,2,0.5,0.5
2025-03-12T0100,3579A,114.50634,36.77178,邯郸市,永年区实验高中,细颗粒物(PM2.5),107,141,113,80,66,29,,,,31,21,7,7,1.2,1.1
2025-03-12T0100,3580A,114.20016,36.44293,邯郸市,峰峰矿区临水派出所,颗粒物(PM10),73,96,92,33,68,64,,,,15,13,12,11,0.6,1.2
2025-03-12T0100,2634A,106.9893,33.1842,汉中市,汉川机床厂子校,颗粒物(PM10),182,313,83,74,35,44,,,,9,9,6,8,0.8,0.9
2025-03-12T0100,2635A,107.0154,33.0706,汉中市,市监测站,颗粒物(PM10),102,154,71,66,39,28,,,,32,29,6,7,1.2,1.2
2025-03-12T0100,2636A,107.0089,33.1138,汉中市,鑫源开发区,细颗粒物(PM2.5),85,116,72,63,38,10,,,,58,33,6,8,1.2,1
2025-03-12T0100,2637A,107.007,33.0323,汉中市,南郑大河坎水厂,颗粒物(PM10),84,118,77,58,40,32,,,,21,27,6,6,1.0,1
2025-03-12T0100,1223A,120.2072,30.2111,杭州市,滨江,颗粒物(PM10),56,62,70,32,37,12,,,,59,52,8,7,0.6,0.8
2025-03-12T0100,1224A,120.0633,30.2747,杭州市,西溪,颗粒物(PM10),68,86,82,41,43,25,,,,30,33,6,6,0.6,0.7
2025-03-12T0100,1226A,120.3417,30.3150,杭州市,下沙,细颗粒物(PM2.5),68,76,109,49,72,3,,,,74,62,4,6,0.3,0.5
2025-03-12T0100,1227A,120.1269,30.2456,杭州市,卧龙桥,颗粒物(PM10),63,75,73,43,44,7,,,,50,42,5,6,0.4,0.5
2025-03-12T0100,1228A,120.1903,30.2692,杭州市,浙江农大,,48,48,54,32,38,7,,,,70,50,8,8,0.4,0.6
2025-03-12T0100,1230A,120.1197,30.3119,杭州市,和睦小学,颗粒物(PM10),67,84,85,36,44,21,,,,52,49,7,8,0.6,0.8
2025-03-12T0100,1231A,120.3019,30.4183,杭州市,临平镇,细颗粒物(PM2.5),70,51,92,51,73,14,,,,48,51,6,7,0.4,0.6
2025-03-12T0100,1232A,120.2753,30.1839,杭州市,城厢镇,颗粒物(PM10),56,61,87,39,57,3,,,,82,64,9,9,0.6,0.7
2025-03-12T0100,1233A,120.0883,30.1808,杭州市,云栖,细颗粒物(PM2.5),85,88,80,63,59,3,,,,43,40,8,8,0.6,0.7
2025-03-12T0100,3557A,119.9464,30.0494,杭州市,镇二中,颗粒物(PM10),74,97,59,45,38,9,,,,74,41,6,7,0.9,0.9
2025-03-12T0100,3558A,119.7183,30.2367,杭州市,市府大楼,细颗粒物(PM2.5),95,104,73,71,45,53,,,,36,31,7,8,0.6,0.7
2025-03-12T0100,3656A,120.1556,30.2864,杭州市,消防大队,细颗粒物(PM2.5),62,59,75,44,55,18,,,,59,49,7,7,0.6,0.8
2025-03-12T0100,1270A,117.1959,31.7848,合肥市,明珠广场,细颗粒物(PM2.5),83,83,58,61,44,32,,,,47,32,5,5,0.7,0.7
2025-03-12T0100,1271A,117.3072,31.8764,合肥市,三里街,细颗粒物(PM2.5),94,112,63,70,40,39,,,,40,32,5,5,0.9,0.9
2025-03-12T0100,1272A,117.2588,31.8707,合肥市,琥珀山庄,细颗粒物(PM2.5),112,114,59,84,46,52,,,,34,30,1,2,0.8,0.6
2025-03-12T0100,1273A,117.1604,31.9052,合肥市,董铺水库,细颗粒物(PM2.5),93,123,61,69,37,68,,,,27,25,3,2,0.6,0.5
2025-03-12T0100,1274A,117.25,31.8571,合肥市,长江中路,细颗粒物(PM2.5),129,119,64,98,49,55,,,,36,30,6,7,0.8,0.8
2025-03-12T0100,1275A,117.266,31.9436,合肥市,庐阳区,细颗粒物(PM2.5),138,134,70,105,46,64,,,,29,31,5,6,0.6,0.6
2025-03-12T0100,1276A,117.3453,31.8616,合肥市,瑶海区,细颗粒物(PM2.5),98,105,62,73,40,38,,,,45,29,7,7,0.7,0.6
2025-03-12T0100,1277A,117.3027,31.7964,合肥市,包河区,细颗粒物(PM2.5),55,51,53,39,39,9,,,,66,25,6,5,0.8,0.7
2025-03-12T0100,1278A,117.2776,31.7385,合肥市,滨湖新区,,49,36,55,34,46,50,,,,23,23,7,7,0.6,0.6
2025-03-12T0100,1279A,117.1318,31.8403,合肥市,高新区,细颗粒物(PM2.5),156,127,71,119,53,62,,,,32,31,3,2,0.9,0.7
2025-03-12T0100,3464A,117.3803,31.9147,合肥市,高教基地,细颗粒物(PM2.5),120,116,56,91,39,42,,,,33,23,7,8,0.6,0.5
2025-03-12T0100,3614A,79.924,37.0877,和田地区,地区环保局,颗粒物(PM10),158,266,209,71,50,17,,,,32,13,4,4,0.5,0.8
2025-03-12T0100,3615A,79.9131,37.113,和田地区,市环保局,颗粒物(PM10),135,220,184,80,52,11,,,,87,36,8,3,2.4,1.1
2025-03-12T0100,2516A,108.2011,24.715,河池市,东仁乐园,细颗粒物(PM2.5),59,56,41,42,27,5,,,,21,21,7,6,1.3,1.1
2025-03-12T0100,2517A,108.0497,24.6947,河池市,市环保站,细颗粒物(PM2.5),63,45,39,45,29,7,,,,18,20,9,9,1.5,1.1
2025-03-12T0100,2518A,108.0983,24.6989,河池市,市疾控中心,,49,49,36,34,25,4,,,,26,22,7,6,0.9,0.9
2025-03-12T0100,1696A,114.6778,23.7569,河源市,源西,,33,33,30,17,19,4,,,,42,28,4,4,0.8,0.5
2025-03-12T0100,1697A,114.6944,23.7586,河源市,东埔,,33,28,36,23,23,43,,,,20,26,4,4,0.5,0.6
2025-03-12T0100,1698A,114.6892,23.7233,河源市,老城,,37,37,31,22,20,29,,,,24,17,5,5,0.6,0.6
2025-03-12T0100,1718A,115.4208,35.2464,菏泽市,气象局,细颗粒物(PM2.5),139,129,115,106,87,75,,,,22,20,2,3,0.5,0.5
2025-03-12T0100,3374A,115.5564,35.0891,菏泽市,定陶老年大学,细颗粒物(PM2.5),144,141,108,110,80,70,,,,33,27,2,4,0.7,0.7
2025-03-12T0100,4184A,115.4797,35.24401,菏泽市,永昌路1号,细颗粒物(PM2.5),140,134,121,107,88,91,,,,22,24,6,7,0.6,0.6
2025-03-12T0100,4193A,115.4715,35.2800,菏泽市,长城路999号,细颗粒物(PM2.5),122,132,116,92,82,84,,,,21,22,6,7,0.7,0.7
2025-03-12T0100,2514A,111.5264,24.4172,贺州市,环保小区,细颗粒物(PM2.5),137,112,106,104,58,8,,,,39,38,8,9,1.5,1.5
2025-03-12T0100,2515A,111.5608,24.4078,贺州市,政协大楼,细颗粒物(PM2.5),94,104,91,70,53,5,,,,64,50,7,8,1.5,1.3
2025-03-12T0100,3534A,111.4744,24.4553,贺州市,西湾,细颗粒物(PM2.5),89,94,82,66,55,6,,,,45,40,5,6,1.1,1
2025-03-12T0100,2385A,114.17,35.9019,鹤壁市,市监测站,细颗粒物(PM2.5),128,138,102,97,71,33,,,,35,32,4,4,1.0,0.8
2025-03-12T0100,2386A,114.2956,35.7511,鹤壁市,市交警支队,细颗粒物(PM2.5),147,154,117,112,84,38,,,,42,28,11,6,0.7,0.7
2025-03-12T0100,2387A,114.2878,35.7306,鹤壁市,迎宾馆,细颗粒物(PM2.5),125,162,121,95,72,46,,,,43,33,12,8,0.9,0.7
2025-03-12T0100,3474A,114.2617,35.6822,鹤壁市,大新区,细颗粒物(PM2.5),149,,83,114,88,1,,,,75,43,9,6,1.0,0.8
2025-03-12T0100,3596A,114.1572,35.9603,鹤壁市,南山宾馆,细颗粒物(PM2.5),102,98,103,76,84,74,,,,13,17,8,12,0.5,0.5
2025-03-12T0100,2244A,130.2537,47.3416,鹤岗市,哈啤分公司,,28,26,42,19,28,71,,,,8,8,18,12,0.4,0.5
2025-03-12T0100,2245A,130.2684,47.3086,鹤岗市,斯达机电,,27,27,30,15,20,79,,,,5,6,14,14,0.5,0.5
2025-03-12T0100,2246A,130.3114,47.3388,鹤岗市,东山纸板厂,,25,25,33,17,21,76,,,,8,11,16,14,0.3,0.4
2025-03-12T0100,2247A,130.1097,47.3382,鹤岗市,五号水库,,,,,,,,,,,,,,,,
2025-03-12T0100,2263A,127.4833,50.2524,黑河市,交通局,,27,26,29,15,19,85,,,,8,10,7,7,0.4,0.4
2025-03-12T0100,2264A,127.5144,50.2341,黑河市,环保局,,29,26,24,20,21,84,,,,10,9,6,5,0.5,0.5
2025-03-12T0100,2265A,127.5291,50.2472,黑河市,大黑河岛,,,,,,,,,,,,,,,,
2025-03-12T0100,1074A,115.6838,37.7541,衡水市,电机北厂,细颗粒物(PM2.5),148,161,130,113,97,44,,,,31,19,8,6,0.9,0.6
2025-03-12T0100,1075A,115.6303,37.7316,衡水市,市监测站,细颗粒物(PM2.5),137,138,113,104,91,42,,,,31,21,11,8,0.9,0.6
2025-03-12T0100,3188A,115.6683,37.7217,衡水市,市城管局,细颗粒物(PM2.5),145,135,114,111,91,37,,,,34,24,6,6,0.7,0.6
2025-03-12T0100,3459A,115.5989,37.5491,衡水市,地表水厂,细颗粒物(PM2.5),134,136,112,102,90,30,,,,49,33,10,10,0.6,0.6
2025-03-12T0100,2456A,112.5003,26.9167,衡阳市,原169医院,,41,41,49,28,29,5,,,,39,30,10,13,1.1,1
2025-03-12T0100,2457A,112.6194,26.9258,衡阳市,衡阳化工总厂,细颗粒物(PM2.5),63,58,52,45,40,23,,,,13,13,10,9,1.0,0.9
2025-03-12T0100,2458A,112.6211,26.8956,衡阳市,珠晖区环保局,,49,46,51,34,37,20,,,,18,17,10,9,1.1,1
2025-03-12T0100,2459A,112.6197,26.8733,衡阳市,市委党校,,45,34,50,31,34,24,,,,18,19,12,12,1.2,1.2
2025-03-12T0100,2460A,112.6006,26.8919,衡阳市,市监测站,细颗粒物(PM2.5),52,44,55,36,40,24,,,,17,20,11,11,1.1,1.1
2025-03-12T0100,2461A,112.5664,26.9056,衡阳市,真空机电公司,,46,42,58,32,40,22,,,,20,25,8,9,1.2,1.2
2025-03-12T0100,3399A,112.6703,26.882,衡阳市,师范学院,,43,43,47,28,32,21,,,,23,18,13,11,1.2,1
2025-03-12T0100,2608A,103.3772,23.3993,红河哈尼族彝族自治州,污水处理厂,,,,50,,43,,,88,,,8,,8,,0.6
2025-03-12T0100,2609A,103.3861,23.35,红河哈尼族彝族自治州,监测站,,49,44,61,34,41,79,,,,6,9,8,9,0.7,0.6
2025-03-12T0100,3038A,103.3758,23.368,红河哈尼族彝族自治州,州图书馆,细颗粒物(PM2.5),60,45,47,43,41,78,,,,7,8,5,6,0.6,0.5
2025-03-12T0100,1090A,111.6507,40.7517,呼和浩特市,呼市一监,颗粒物(PM10),109,168,359,60,84,50,,,,22,29,8,10,0.5,0.6
2025-03-12T0100,1091A,111.6572,40.8033,呼和浩特市,小召,颗粒物(PM10),159,268,360,59,70,59,,,,21,29,5,4,0.5,0.6
2025-03-12T0100,1094A,111.7516,40.8369,呼和浩特市,如意水处理厂,颗粒物(PM10),150,250,308,56,65,27,,,,45,32,6,7,0.5,0.5
2025-03-12T0100,1095A,111.7276,40.8062,呼和浩特市,二十九中,颗粒物(PM10),155,259,338,56,70,60,,,,26,26,4,4,0.9,1
2025-03-12T0100,1096A,111.5512,40.7866,呼和浩特市,工大金川校区,颗粒物(PM10),161,271,332,59,70,48,,,,29,32,6,7,0.6,0.7
2025-03-12T0100,1097A,111.717,40.7612,呼和浩特市,化肥厂生活区,颗粒物(PM10),144,238,325,51,69,47,,,,30,32,7,8,0.4,0.5
2025-03-12T0100,3698A,111.5968,40.8178,呼和浩特市,红旗小学,颗粒物(PM10),170,290,362,67,64,45,,,,38,37,7,5,0.5,0.6
2025-03-12T0100,3699A,111.6518,40.8389,呼和浩特市,海东办,颗粒物(PM10),169,288,341,58,67,67,,,,15,28,6,6,0.6,0.6
2025-03-12T0100,2192A,119.7594,49.2261,呼伦贝尔市,区环保局,颗粒物(PM10),73,96,49,31,23,99,,,,8,13,12,7,0.5,0.5
2025-03-12T0100,3061A,119.7512,49.1577,呼伦贝尔市,国华电力东,颗粒物(PM10),72,93,40,16,15,104,,,,5,7,4,5,0.3,0.4
2025-03-12T0100,1250A,120.0751,30.8669,湖州市,城西水厂,颗粒物(PM10),55,60,97,36,69,41,,,,32,47,7,8,0.5,0.6
2025-03-12T0100,2873A,120.0830,30.8929,湖州市,仁皇山新区,,,61,95,38,61,,,,,25,42,4,5,0.5,0.7
2025-03-12T0100,2907A,120.1844,30.8596,湖州市,吴兴区站,颗粒物(PM10),62,74,95,42,66,31,,,,31,39,7,8,0.4,0.6
2025-03-12T0100,3562A,120.4148,30.8538,湖州市,南浔区站,颗粒物(PM10),65,80,84,44,54,26,,,,39,40,4,5,0.6,0.6
2025-03-12T0100,1607A,120.9049,40.7211,葫芦岛市,龙港区,细颗粒物(PM2.5),127,,80,96,77,53,,,,24,19,8,8,0.9,0.8
2025-03-12T0100,1608A,120.8392,40.7514,葫芦岛市,化工街,细颗粒物(PM2.5),117,112,101,88,73,33,,,,50,27,12,12,1.0,0.7
2025-03-12T0100,1609A,120.8341,40.7073,葫芦岛市,新区,细颗粒物(PM2.5),97,,75,72,74,66,,,,21,24,6,8,1.1,1
2025-03-12T0100,1610A,120.8695,40.7677,葫芦岛市,东城区,细颗粒物(PM2.5),133,,58,101,81,34,,,,56,32,9,8,1.2,0.8
2025-03-12T0100,2482A,109.5981,27.5721,怀化市,林科所,,14,14,15,7,8,32,,,,6,9,4,4,0.8,0.9
2025-03-12T0100,2483A,109.9453,27.5444,怀化市,河西地税局,,36,,26,25,22,12,,,,19,15,7,7,0.7,0.5
2025-03-12T0100,2484A,109.9781,27.5342,怀化市,市四医院,,34,34,36,20,24,14,,,,15,18,4,3,0.6,0.7
2025-03-12T0100,2485A,109.9972,27.5578,怀化市,监测楼,,26,26,27,17,19,4,,,,21,16,6,6,0.6,0.5
2025-03-12T0100,2486A,110.0394,27.583,怀化市,市委党校,,45,35,25,31,23,6,,,,21,14,16,6,0.6,0.7
2025-03-12T0100,1210A,119.036,33.5981,淮安市,钵池山,细颗粒物(PM2.5),108,,101,81,94,34,,,,34,27,8,8,0.8,0.8
2025-03-12T0100,1211A,119.007,33.575,淮安市,北京南路,细颗粒物(PM2.5),100,,86,75,89,32,,,,38,29,8,7,0.8,0.8
2025-03-12T0100,1212A,118.989,33.6067,淮安市,市监测站,细颗粒物(PM2.5),92,,91,68,94,53,,,,31,31,8,8,0.6,0.6
2025-03-12T0100,1213A,119.135,33.5039,淮安市,楚州区监测站,细颗粒物(PM2.5),100,,100,75,87,14,,,,50,37,8,7,0.5,0.5
2025-03-12T0100,3426A,118.8755,33.2894,淮安市,新华书店,细颗粒物(PM2.5),83,,98,61,87,39,,,,35,29,6,7,0.7,0.9
2025-03-12T0100,4206A,119.0288,33.6319,淮安市,承德北路606号,细颗粒物(PM2.5),104,80,116,78,87,37,,,,39,35,7,6,0.7,0.7
2025-03-12T0100,2282A,116.8004,33.975,淮北市,监测站,细颗粒物(PM2.5),120,102,99,91,88,68,,,,20,26,5,6,0.9,0.9
2025-03-12T0100,2283A,116.8091,33.9007,淮北市,烈山区政府,细颗粒物(PM2.5),159,150,111,121,95,69,,,,25,27,4,5,1.1,1
2025-03-12T0100,3330A,116.8873,33.9836,淮北市,杜集区检察院,细颗粒物(PM2.5),152,135,104,116,93,44,,,,36,30,4,5,1.0,0.9
2025-03-12T0100,4017A,116.7923,33.9535,淮北市,市博物馆,细颗粒物(PM2.5),117,101,99,88,84,68,,,,22,25,6,8,1.1,1
2025-03-12T0100,2277A,116.8305,32.7727,淮南市,潘集区政府,细颗粒物(PM2.5),176,152,127,133,101,49,,,,43,39,5,8,0.7,0.7
2025-03-12T0100,2279A,116.8569,32.5951,淮南市,谢家集区政府,细颗粒物(PM2.5),175,157,106,132,82,73,,,,27,24,6,8,0.5,0.5
2025-03-12T0100,2280A,116.8281,32.633,淮南市,八公山区政府,细颗粒物(PM2.5),150,158,113,115,79,78,,,,21,24,4,6,0.6,0.5
2025-03-12T0100,2281A,116.6325,32.6201,淮南市,焦岗湖风景区管理处,细颗粒物(PM2.5),115,130,94,87,62,41,,,,19,20,5,5,0.4,0.3
2025-03-12T0100,2894A,117.0566,32.6531,淮南市,经济技术开发区消防队,细颗粒物(PM2.5),152,145,103,116,80,66,,,,30,30,9,7,0.6,0.6
2025-03-12T0100,3329A,117.0108,32.5893,淮南市,山南新区,细颗粒物(PM2.5),175,155,96,132,68,78,,,,24,16,8,8,0.8,0.6
2025-03-12T0100,4209A,117.0031,32.6445,淮南市,国庆中路369号,细颗粒物(PM2.5),150,165,113,115,79,68,,,,36,34,10,8,0.5,0.4
2025-03-12T0100,2446A,114.9028,30.4742,黄冈市,职工中心,细颗粒物(PM2.5),52,48,55,36,46,41,,,,15,25,3,6,0.6,0.7
2025-03-12T0100,2929A,114.8858,30.4519,黄冈市,红卫路,细颗粒物(PM2.5),57,44,61,40,50,46,,,,19,24,6,8,0.7,0.8
2025-03-12T0100,3398A,114.9136,30.4445,黄冈市,市林业局,细颗粒物(PM2.5),62,,60,44,48,41,,,,15,25,7,10,0.7,0.7
2025-03-12T0100,2672A,102.0199,35.5102,黄南藏族自治州,同仁县隆务镇,颗粒物(PM10),154,257,175,67,45,73,,,,1,4,14,13,0.3,0.3
2025-03-12T0100,2295A,118.2903,29.6963,黄山市,延安路89号,细颗粒物(PM2.5),58,46,54,41,47,2,,,,11,15,4,4,1.0,0.9
2025-03-12T0100,2297A,118.1371,30.2756,黄山市,黄山区政府5号楼,,25,25,34,15,18,1,,,,10,9,7,7,0.6,0.5
2025-03-12T0100,4210A,118.3354,29.7203,黄山市,滨江东路7-2号,细颗粒物(PM2.5),74,68,72,54,50,0,,,,16,19,4,4,0.9,0.8
2025-03-12T0100,2423A,115.0601,30.2313,黄石市,沈家营,细颗粒物(PM2.5),65,71,73,47,44,13,,,,29,39,10,13,0.8,1
2025-03-12T0100,2426A,114.8988,30.2019,黄石市,铁山,细颗粒物(PM2.5),58,60,67,41,59,25,,,,29,31,13,16,0.9,1.2
2025-03-12T0100,2427A,115.0307,30.2092,黄石市,团城山,细颗粒物(PM2.5),64,70,69,46,46,13,,,,35,44,10,16,0.5,1
2025-03-12T0100,3149A,115.0235,30.1578,黄石市,笔架山北路,细颗粒物(PM2.5),62,60,69,44,48,27,,,,27,32,7,13,0.8,1
2025-03-12T0100,4185A,115.0780,30.21118,黄石市,磁湖东路29号,细颗粒物(PM2.5),80,76,81,59,60,4,,,,40,39,7,12,1.2,1.4
2025-03-12T0100,1392A,114.4183,23.0528,惠州市,河南岸金山湖子站,,37,37,39,19,23,36,,,,31,26,9,9,0.6,0.7
2025-03-12T0100,1393A,114.4053,23.0822,惠州市,下埔横江三路子站,,49,49,46,24,25,28,,,,43,29,10,9,0.7,0.7
2025-03-12T0100,1394A,114.4103,23.1142,惠州市,江北云山西路子站,,49,49,45,24,23,40,,,,36,32,16,10,0.6,0.6
2025-03-12T0100,1395A,114.4645,22.7833,惠州市,惠阳区承修路船湖子站,,24,24,41,11,20,73,,,,11,24,8,9,0.5,0.6
2025-03-12T0100,1396A,114.5317,22.7422,惠州市,大亚湾管委会子站,,34,34,37,15,15,83,,,,19,26,8,7,0.5,0.6
2025-03-12T0100,3314A,114.4338,22.8134,惠州市,惠阳秋长,,24,19,40,11,20,76,,,,14,25,9,11,0.5,0.6
2025-03-12T0100,3452A,114.6517,22.775,惠州市,大亚湾霞涌,,39,39,36,16,17,31,,,,40,31,8,8,0.5,0.6
2025-03-12T0100,2240A,130.9762,45.3001,鸡西市,环保局,细颗粒物(PM2.5),90,107,98,67,57,71,,,,14,20,9,8,0.6,0.7
2025-03-12T0100,2243A,130.9429,45.3039,鸡西市,第一中学,细颗粒物(PM2.5),74,74,89,54,53,76,,,,18,22,9,7,0.4,0.4
2025-03-12T0100,3707A,131.0207,45.3073,鸡西市,欧美日汽修厂,细颗粒物(PM2.5),78,84,107,57,66,73,,,,14,17,7,6,0.4,0.4
2025-03-12T0100,3709A,130.9967,45.3106,鸡西市,市政设施管理处,细颗粒物(PM2.5),93,124,108,69,59,53,,,,17,20,9,8,0.6,0.5
2025-03-12T0100,2367A,114.9754,27.0803,吉安市,红声器材厂,"颗粒物(PM10),细颗粒物(PM2.5)",54,57,46,38,29,21,,,,23,22,12,15,0.8,0.9
2025-03-12T0100,2368A,114.9658,27.0999,吉安市,市森林工业局,细颗粒物(PM2.5),52,49,40,36,29,26,,,,24,30,11,13,0.5,0.6
2025-03-12T0100,2369A,114.99,27.1312,吉安市,市环境监测站,细颗粒物(PM2.5),54,,39,38,26,22,,,,25,23,18,20,0.6,0.7
2025-03-12T0100,2370A,115.0093,27.0968,吉安市,青原区法院,细颗粒物(PM2.5),57,52,43,40,32,18,,,,34,26,12,15,0.6,0.7
2025-03-12T0100,1772A,126.54,43.8622,吉林市,哈达湾,颗粒物(PM10),71,91,70,28,43,94,,,,10,17,8,8,0.7,0.8
2025-03-12T0100,1773A,126.5844,43.8358,吉林市,东局子,颗粒物(PM10),69,87,62,30,43,96,,,,9,18,6,7,0.4,0.5
2025-03-12T0100,1774A,126.5052,43.8245,吉林市,电力学院,颗粒物(PM10),69,88,64,32,46,92,,,,8,15,2,4,0.2,0.4
2025-03-12T0100,1775A,126.6133,43.8972,吉林市,江北,颗粒物(PM10),64,77,70,32,45,93,,,,8,13,16,12,0.6,0.7
2025-03-12T0100,1776A,126.555,43.8306,吉林市,江南公园,颗粒物(PM10),65,80,64,30,46,93,,,,6,15,7,7,0.4,0.5
2025-03-12T0100,1778A,126.7061,43.7133,吉林市,丰满,,47,47,53,27,46,112,,,,11,13,6,6,0.9,0.8
2025-03-12T0100,2868A,126.4739,43.953,吉林市,九站,颗粒物(PM10),65,80,64,34,45,94,,,,7,16,9,8,0.4,0.6
2025-03-12T0100,1299A,116.9862,36.6114,济南市,科干所,细颗粒物(PM2.5),117,146,102,88,59,112,,,,24,20,6,7,0.7,0.6
2025-03-12T0100,1300A,116.9376,36.665,济南市,农科所,细颗粒物(PM2.5),132,164,111,100,61,89,,,,31,20,8,8,0.9,0.8
2025-03-12T0100,1301A,117.1265,36.6734,济南市,开发区,细颗粒物(PM2.5),119,127,93,90,64,110,,,,21,18,6,7,0.7,0.6
2025-03-12T0100,1303A,117.0624,36.6868,济南市,省种子仓库,细颗粒物(PM2.5),149,156,106,114,71,111,,,,19,21,5,5,1.0,0.8
2025-03-12T0100,1304A,116.9489,36.6447,济南市,机床二厂,细颗粒物(PM2.5),153,139,108,117,75,103,,,,25,23,8,9,1.0,0.9
2025-03-12T0100,1305A,117.0495,36.663,济南市,市监测站,细颗粒物(PM2.5),147,134,98,112,71,101,,,,23,22,7,8,0.7,0.5
2025-03-12T0100,1306A,116.7675,36.5484,济南市,长清党校,细颗粒物(PM2.5),138,159,109,105,70,93,,,,44,32,10,6,0.9,0.8
2025-03-12T0100,1616A,117.6795,36.229,济南市,技术学院,细颗粒物(PM2.5),185,178,123,139,95,49,,,,58,41,13,11,2.8,1.2
2025-03-12T0100,1961A,117.532,36.6868,济南市,东山小学,细颗粒物(PM2.5),117,132,107,88,70,117,,,,25,25,6,7,0.8,0.8
2025-03-12T0100,3059A,117.7161,36.2049,济南市,泰兴公司,细颗粒物(PM2.5),206,195,140,156,106,45,,,,47,45,10,9,0.8,0.9
2025-03-12T0100,3064A,117.6867,36.2171,济南市,莱芜战役纪念馆,细颗粒物(PM2.5),178,183,134,134,92,51,,,,45,34,7,6,1.1,1
2025-03-12T0100,3494A,117.1673,36.9782,济南市,济阳区政府,细颗粒物(PM2.5),150,151,109,115,74,69,,,,26,20,11,11,0.8,0.6
2025-03-12T0100,3495A,117.1171,36.63,济南市,锦屏中学,细颗粒物(PM2.5),108,115,84,81,59,110,,,,20,19,8,8,0.7,0.6
2025-03-12T0100,3682A,116.9814,36.6819,济南市,济南四建,细颗粒物(PM2.5),129,127,87,98,61,102,,,,24,22,5,6,0.6,0.5
2025-03-12T0100,1653A,116.6251,35.4302,济宁市,火炬城,细颗粒物(PM2.5),180,138,105,136,115,30,,,,29,21,11,11,1.2,1
2025-03-12T0100,1655A,116.5491,35.4042,济宁市,电化厂,细颗粒物(PM2.5),175,167,132,132,109,26,,,,35,22,11,10,1.4,1.2
2025-03-12T0100,3500A,116.5814,35.3707,济宁市,北湖一中,细颗粒物(PM2.5),153,141,106,117,96,40,,,,32,27,11,10,1.2,1
2025-03-12T0100,3501A,116.8249,35.5593,济宁市,服务中心,细颗粒物(PM2.5),140,125,115,107,85,29,,,,41,30,6,6,1.3,0.9
2025-03-12T0100,3678A,116.5907,35.4054,济宁市,市第七中学,细颗粒物(PM2.5),156,134,104,119,97,45,,,,35,30,5,4,1.1,0.9
2025-03-12T0100,2255A,130.2751,46.8028,佳木斯市,佳纺,颗粒物(PM10),58,65,70,37,30,47,,,,18,24,9,8,0.5,0.5
2025-03-12T0100,2256A,130.3995,46.8307,佳木斯市,发电厂,,37,37,49,20,20,58,,,,18,15,10,4,0.6,0.5
2025-03-12T0100,2257A,130.3258,46.7975,佳木斯市,环保局,颗粒物(PM10),51,52,59,31,24,46,,,,23,19,11,5,0.4,0.3
2025-03-12T0100,2258A,130.3648,46.8032,佳木斯市,十一中,,46,46,61,31,27,56,,,,16,25,9,6,0.6,0.5
2025-03-12T0100,2259A,130.3794,46.7588,佳木斯市,四丰,,45,33,54,31,22,41,,,,23,14,1,1,0.8,0.7
2025-03-12T0100,1252A,120.7436,30.778,嘉兴市,清河小学,颗粒物(PM10),53,55,53,33,36,27,,,,28,35,4,5,0.4,0.4
2025-03-12T0100,1253A,120.726,30.7478,嘉兴市,嘉兴学院,细颗粒物(PM2.5),54,52,61,38,42,28,,,,32,37,7,8,0.4,0.5
2025-03-12T0100,2872A,120.7846,30.7525,嘉兴市,南湖区残联,细颗粒物(PM2.5),53,47,54,37,39,32,,,,30,38,8,9,0.4,0.5
2025-03-12T0100,3407A,120.6916,30.7739,嘉兴市,秀洲住建,颗粒物(PM10),67,83,81,27,29,28,,,,32,37,5,6,0.5,0.6
2025-03-12T0100,1945A,98.2908,39.7711,嘉峪关市,气象局,颗粒物(PM10),80,110,254,34,53,48,,,,25,14,3,5,0.2,0.2
2025-03-12T0100,2884A,98.2672,39.7978,嘉峪关市,酒钢宾馆,颗粒物(PM10),89,127,265,34,53,52,,,,14,12,2,8,0.1,0.3
2025-03-12T0100,3248A,98.2643,39.7724,嘉峪关市,雄关区,颗粒物(PM10),73,96,197,33,39,45,,,,31,18,4,5,0.4,0.4
2025-03-12T0100,1383A,113.1064,22.6058,江门市,北街,,43,43,37,18,18,59,,,,17,19,2,3,0.5,0.6
2025-03-12T0100,1384A,113.0731,22.5835,江门市,西区,,45,45,44,17,19,67,,,,26,27,6,6,0.4,0.5
2025-03-12T0100,1385A,113.0219,22.5311,江门市,圭峰西,,39,39,37,18,18,66,,,,25,19,5,5,0.4,0.4
2025-03-12T0100,1386A,113.0828,22.5947,江门市,东湖,,38,38,37,20,22,70,,,,18,19,7,7,0.4,0.4
2025-03-12T0100,3311A,113.1075,22.5647,江门市,江海富民,颗粒物(PM10),52,53,55,19,23,54,,,,26,20,6,7,0.3,0.3
2025-03-12T0100,3449A,113.05,22.4667,江门市,新会银湖,,48,48,42,24,23,68,,,,23,26,2,2,0.4,0.4
2025-03-12T0100,1830A,113.1992,35.2590,焦作市,影视城,,,,74,,45,,,,,,7,,10,,0.5
2025-03-12T0100,3169A,113.2725,35.2067,焦作市,太极体育中心,细颗粒物(PM2.5),148,178,133,113,92,12,,,,71,34,10,10,1.1,0.9
2025-03-12T0100,3335A,113.3137,35.2641,焦作市,马村街道办,细颗粒物(PM2.5),163,159,124,124,90,28,,,,41,30,10,10,1.3,1
2025-03-12T0100,3336A,113.2465,35.2373,焦作市,焦作技师学院,细颗粒物(PM2.5),140,176,127,107,81,17,,,,73,38,20,9,1.4,1.1
2025-03-12T0100,3477A,113.1656,35.2539,焦作市,中站许衡医院,细颗粒物(PM2.5),64,76,110,46,81,54,,,,28,31,10,11,0.7,0.9
2025-03-12T0100,3981A,113.2449,35.1803,焦作市,原李万街道办,细颗粒物(PM2.5),128,136,126,97,80,12,,,,65,35,10,12,0.6,0.5
2025-03-12T0100,4264A,113.2340,35.2190,焦作市,新安路1731号,细颗粒物(PM2.5),149,187,134,114,90,13,,,,65,31,17,9,1.1,1
2025-03-12T0100,1708A,116.3701,23.5345,揭阳市,新兴,细颗粒物(PM2.5),90,81,62,67,44,45,,,,40,31,7,9,0.8,0.9
2025-03-12T0100,1709A,116.3264,23.5443,揭阳市,西马,细颗粒物(PM2.5),87,96,60,64,42,51,,,,34,25,14,11,1.5,0.9
2025-03-12T0100,1710A,116.3611,23.5626,揭阳市,东兴,细颗粒物(PM2.5),87,87,73,64,47,48,,,,40,30,22,10,0.8,1
2025-03-12T0100,1711A,116.4151,23.5294,揭阳市,渔湖,颗粒物(PM10),62,74,60,36,27,48,,,,36,24,7,10,0.8,1
2025-03-12T0100,3320A,116.403,23.5699,揭阳市,曲溪,细颗粒物(PM2.5),57,60,61,40,33,50,,,,40,31,8,11,0.6,0.9
2025-03-12T0100,1944A,102.1692,38.5167,金昌市,天庆家园,颗粒物(PM10),69,87,281,33,61,81,,,,8,11,2,16,0.6,0.7
2025-03-12T0100,4022A,102.1647,38.5371,金昌市,金川区人防中心,颗粒物(PM10),84,117,358,33,53,76,,,,8,9,9,18,0.6,0.6
2025-03-12T0100,4239A,102.1930,38.5319,金昌市,长春路96号,颗粒物(PM10),58,66,140,34,63,76,,,,15,10,18,26,1.0,0.6
2025-03-12T0100,1262A,119.647,29.077,金华市,十五中,细颗粒物(PM2.5),95,105,121,71,89,3,,,,56,68,5,6,1.0,1.2
2025-03-12T0100,1263A,119.686,29.1029,金华市,监测站,细颗粒物(PM2.5),119,131,109,90,86,1,,,,76,70,5,5,1.1,0.9
2025-03-12T0100,3659A,119.656,29.1131,金华市,气象局,颗粒物(PM10),100,149,117,56,67,0,,,,72,64,6,6,1.4,1.1
2025-03-12T0100,1767A,121.1115,41.0879,锦州市,南山,细颗粒物(PM2.5),150,,87,115,98,53,,,,42,29,11,19,1.0,0.8
2025-03-12T0100,1768A,121.0604,40.8428,锦州市,开发区,细颗粒物(PM2.5),132,,75,100,74,36,,,,52,30,64,15,1.6,0.9
2025-03-12T0100,1769A,121.1836,41.1119,锦州市,百股街道,细颗粒物(PM2.5),125,124,80,95,72,52,,,,40,28,9,10,1.1,0.8
2025-03-12T0100,1770A,121.1178,41.1222,锦州市,天安街道,细颗粒物(PM2.5),159,,90,121,100,31,,,,56,31,11,19,1.3,1
2025-03-12T0100,1771A,121.1303,41.1386,锦州市,北湖公园,细颗粒物(PM2.5),150,,98,115,97,42,,,,47,34,11,17,1.2,1
2025-03-12T0100,2160A,112.85,35.5051,晋城市,自来水公司,颗粒物(PM10),56,62,99,17,49,59,,,,34,29,8,11,0.7,1.1
2025-03-12T0100,2161A,112.8318,35.4936,晋城市,白云商贸,颗粒物(PM10),78,105,109,12,43,73,,,,23,28,7,9,0.4,0.9
2025-03-12T0100,2162A,112.8508,35.4887,晋城市,市环保局,颗粒物(PM10),54,57,110,17,49,68,,,,21,32,6,10,0.3,0.9
2025-03-12T0100,2163A,112.8676,35.4897,晋城市,技术学院,颗粒物(PM10),62,74,106,14,48,61,,,,24,34,9,11,0.7,1.3
2025-03-12T0100,2165A,112.8453,35.546,晋城市,白马寺,颗粒物(PM10),54,57,81,15,49,91,,,,6,12,5,7,0.4,0.9
2025-03-12T0100,3620A,112.8271,35.4828,晋城市,泽州一中,颗粒物(PM10),61,71,103,14,52,76,,,,16,28,12,12,0.4,1
2025-03-12T0100,2173A,112.7249,37.7067,晋中市,南都小区,颗粒物(PM10),474,574,238,123,83,38,,,,29,31,38,11,0.5,1.1
2025-03-12T0100,2174A,112.6991,37.6982,晋中市,榆次区政府,颗粒物(PM10),500,613,248,104,80,35,,,,39,36,75,11,0.7,0.9
2025-03-12T0100,2865A,112.7195,37.6828,晋中市,榆次三中,颗粒物(PM10),500,627,256,134,89,30,,,,40,34,16,8,0.9,0.8
2025-03-12T0100,4200A,112.7478,37.6954,晋中市,迎宾街26号,颗粒物(PM10),500,608,244,127,88,28,,,,40,30,11,6,0.4,0.5
2025-03-12T0100,2439A,112.2014,31.0481,荆门市,竹园小学,细颗粒物(PM2.5),130,126,109,99,85,61,,,,23,23,5,5,0.4,0.6
2025-03-12T0100,2440A,112.1969,30.9891,荆门市,掇刀,细颗粒物(PM2.5),119,113,101,90,77,85,,,,18,26,6,6,0.5,0.6
2025-03-12T0100,2441A,112.2213,31.0386,荆门市,石化一小,细颗粒物(PM2.5),145,133,108,111,94,55,,,,29,28,8,9,0.1,0.3
2025-03-12T0100,3012A,112.1849,31.0362,荆门市,西山林语,细颗粒物(PM2.5),117,118,90,88,70,68,,,,19,21,5,5,0.2,0.4
2025-03-12T0100,3547A,112.1632,31.0138,荆门市,龙泉中学南校,细颗粒物(PM2.5),107,111,85,80,64,84,,,,13,19,6,7,0.7,0.7
2025-03-12T0100,1844A,112.2494,30.3197,荆州市,市图书馆,细颗粒物(PM2.5),85,81,60,63,48,29,,,,29,26,5,6,1.0,1
2025-03-12T0100,1845A,112.2008,30.3544,荆州市,市委党校,细颗粒物(PM2.5),95,104,71,71,53,25,,,,30,27,6,7,0.9,0.9
2025-03-12T0100,3194A,112.2747,30.3122,荆州市,管委会,细颗粒物(PM2.5),87,95,66,64,51,29,,,,32,27,10,11,0.7,0.8
2025-03-12T0100,4268A,112.1722,30.3366,荆州市,学苑路85号,细颗粒物(PM2.5),133,,59,101,64,31,,,,21,21,8,10,0.9,0.9
2025-03-12T0100,2342A,117.3102,29.3867,景德镇市,王港中学,,,,,,,,,,,,,,,,
2025-03-12T0100,2343A,117.2117,29.2933,景德镇市,老干部活动中心,,32,32,28,22,23,11,,,,15,14,4,4,0.5,0.4
2025-03-12T0100,2344A,117.1894,29.2789,景德镇市,兽医站,,33,33,37,13,17,23,,,,22,18,4,4,0.6,0.6
2025-03-12T0100,2345A,117.1547,29.2617,景德镇市,台达陶瓷,,33,31,34,23,22,18,,,,16,22,8,29,0.5,0.6
2025-03-12T0100,2346A,117.2461,29.2956,景德镇市,陶研所,,30,23,28,21,23,5,,,,18,18,6,6,0.7,0.6
2025-03-12T0100,1803A,115.9872,29.6815,九江市,十里,细颗粒物(PM2.5),63,68,56,45,39,7,,,,44,41,6,4,1.3,1
2025-03-12T0100,1804A,115.9584,29.7046,九江市,茅山头,颗粒物(PM10),57,63,55,35,35,2,,,,57,44,9,9,1.0,0.8
2025-03-12T0100,1805A,115.9877,29.7295,九江市,西园,细颗粒物(PM2.5),63,65,52,45,38,11,,,,55,45,16,13,1.4,1
2025-03-12T0100,1808A,115.9114,29.6038,九江市,综合工业园,细颗粒物(PM2.5),60,60,50,43,43,12,,,,58,44,8,8,1.3,1.1
2025-03-12T0100,1809A,116.0721,29.7535,九江市,石化总厂,细颗粒物(PM2.5),60,46,46,43,47,6,,,,52,30,9,9,1.3,1
2025-03-12T0100,1810A,115.9773,29.5698,九江市,庐山气象台,,30,25,14,21,14,90,,,,5,5,7,7,0.6,0.9
2025-03-12T0100,3190A,116.0254,29.6994,九江市,外国语学校,细颗粒物(PM2.5),52,48,45,36,39,9,,,,56,39,9,9,1.0,0.7
2025-03-12T0100,4253A,116.0102,29.6594,九江市,莲花大道8号,细颗粒物(PM2.5),75,58,58,55,57,5,,,,33,31,8,10,1.1,0.9
2025-03-12T0100,4240A,98.4958,39.7339,酒泉市,玉门东路5号,颗粒物(PM10),86,122,262,38,50,58,,,,9,10,7,8,0.3,0.3
2025-03-12T0100,4241A,98.5099,39.7506,酒泉市,北大街108号,颗粒物(PM10),89,127,241,43,46,43,,,,17,13,9,9,0.4,0.4
2025-03-12T0100,2698A,76.0072,39.4467,喀什地区,巡警大队,颗粒物(PM10),109,167,94,57,24,8,,,,108,34,11,5,1.9,0.7
2025-03-12T0100,2699A,75.9755,39.4694,喀什地区,吾办,颗粒物(PM10),111,171,104,54,31,9,,,,100,38,10,7,1.5,0.8
2025-03-12T0100,4027A,75.9483,39.4689,喀什地区,老干局,颗粒物(PM10),125,200,121,69,31,7,,,,95,36,12,5,2.0,1
2025-03-12T0100,1824A,114.3389,34.7781,开封市,肿瘤医院,细颗粒物(PM2.5),123,113,86,93,75,32,,,,39,29,6,5,0.9,0.9
2025-03-12T0100,1826A,114.2885,34.7965,开封市,世纪星幼儿园,细颗粒物(PM2.5),124,109,89,94,78,37,,,,44,32,6,7,0.9,0.9
2025-03-12T0100,3147A,114.3438,34.8106,开封市,龙亭公园,细颗粒物(PM2.5),100,90,86,75,71,47,,,,34,28,2,2,0.6,0.6
2025-03-12T0100,3210A,114.3644,34.7964,开封市,汴京公园,细颗粒物(PM2.5),120,110,91,91,77,43,,,,35,31,3,4,0.9,0.8
2025-03-12T0100,3473A,114.2485,34.8306,开封市,技师学院,细颗粒物(PM2.5),128,109,82,97,75,35,,,,40,23,7,7,1.1,1
2025-03-12T0100,3592A,114.4644,34.7556,开封市,祥符区生态环境局,细颗粒物(PM2.5),105,110,98,79,74,52,,,,27,32,4,4,0.6,0.6
2025-03-12T0100,1951A,84.895,45.6094,克拉玛依市,长征新村,,31,31,23,3,9,72,,,,8,10,7,7,0.2,0.3
2025-03-12T0100,1952A,84.8988,45.5893,克拉玛依市,南林小区,,29,29,22,12,9,62,,,,13,15,2,3,0.4,0.4
2025-03-12T0100,1954A,84.905,44.3396,克拉玛依市,独山子区,颗粒物(PM10),51,52,53,32,14,64,,,,12,11,5,6,0.3,0.2
2025-03-12T0100,1955A,85.6979,46.098,克拉玛依市,乌尔禾区商贸楼,,25,22,24,11,11,77,,,,8,9,4,4,0.4,0.4
2025-03-12T0100,3612A,85.1045,45.6899,克拉玛依市,白碱滩区新站,,26,22,26,3,6,81,,,,1,10,8,7,0.4,0.4
2025-03-12T0100,2697A,76.1454,39.7142,克孜勒苏柯尔克孜自治州,市人民政府,颗粒物(PM10),83,116,82,23,20,75,,,,15,11,5,5,0.3,0.1
2025-03-12T0100,3665A,76.1658,39.7157,克孜勒苏柯尔克孜自治州,克州文化中心,颗粒物(PM10),75,100,80,24,20,85,,,,14,9,6,5,0.4,0.5
2025-03-12T0100,1450A,102.8204,24.8886,昆明市,呈贡新区,细颗粒物(PM2.5),60,48,51,43,39,105,,,,19,16,9,7,0.8,0.6
2025-03-12T0100,1451A,102.6251,24.9608,昆明市,西山森林公园,,,,,,,,,,,,,,,,
2025-03-12T0100,1452A,102.7252,25.0902,昆明市,龙泉镇,颗粒物(PM10),75,100,53,48,34,11,,,,95,40,8,8,0.9,0.6
2025-03-12T0100,1453A,102.7266,25.0375,昆明市,东风东路,细颗粒物(PM2.5),87,73,53,64,40,62,,,,48,24,9,11,0.7,0.6
2025-03-12T0100,1454A,102.6742,25.0669,昆明市,金鼎山,细颗粒物(PM2.5),93,96,58,69,37,31,,,,70,40,8,4,1.0,0.8
2025-03-12T0100,1455A,102.6644,25.0401,昆明市,碧鸡广场,细颗粒物(PM2.5),75,74,54,55,39,67,,,,54,37,10,10,0.5,0.5
2025-03-12T0100,3179A,102.7494,25.0119,昆明市,官渡区博物馆,颗粒物(PM10),67,83,57,44,34,88,,,,26,23,9,11,0.6,0.5
2025-03-12T0100,3375A,102.8017,24.8336,昆明市,青年创业园,颗粒物(PM10),56,62,53,37,36,100,,,,22,16,18,9,0.7,0.5
2025-03-12T0100,3550A,102.7997,24.9786,昆明市,昆明学院,细颗粒物(PM2.5),63,62,53,45,36,113,,,,14,15,7,7,0.6,0.5
2025-03-12T0100,3551A,102.5967,24.6736,昆明市,晋宁区生态环境分局,细颗粒物(PM2.5),62,58,44,44,35,84,,,,36,25,7,6,0.6,0.3
2025-03-12T0100,3552A,102.6678,24.9856,昆明市,云天化总部,细颗粒物(PM2.5),60,66,52,43,34,17,,,,99,27,9,10,0.5,0.5
2025-03-12T0100,1456A,91.1319,29.6514,拉萨市,八廓街,,26,19,25,8,11,82,,,,16,18,6,6,1.0,0.7
2025-03-12T0100,1457A,91.1221,29.6747,拉萨市,市环保局,,21,21,35,13,12,65,,,,23,17,6,7,0.6,0.5
2025-03-12T0100,1458A,91.0874,29.6475,拉萨市,区监测站,,22,10,27,6,10,69,,,,28,16,6,6,0.9,0.8
2025-03-12T0100,1459A,91.1774,29.6541,拉萨市,西藏大学,,25,15,22,8,9,80,,,,13,15,4,5,0.5,0.6
2025-03-12T0100,1460A,90.9798,29.6588,拉萨市,区辐射站,,31,31,32,18,12,55,,,,24,19,8,7,0.6,0.5
2025-03-12T0100,1461A,91.0834,29.6292,拉萨市,拉萨火车站,,23,13,27,6,10,73,,,,16,11,4,4,0.6,0.5
2025-03-12T0100,2520A,109.2203,23.7256,来宾市,来宾技工学校,,34,34,49,18,36,47,,,,10,22,6,7,0.7,0.9
2025-03-12T0100,3535A,109.1781,23.7297,来宾市,兴宾区政府,,35,35,46,21,33,30,,,,19,19,5,6,0.7,0.9
2025-03-12T0100,4002A,109.2416,23.7461,来宾市,中南小学,,,,50,,37,,,27,,,22,,8,,1.1
2025-03-12T0100,1477A,104.1373,35.9454,兰州市,榆中兰大校区,,,,,,,,,,,,,,,,
2025-03-12T0100,1479A,103.831,36.0464,兰州市,铁路设计院,颗粒物(PM10),110,169,300,60,86,36,,,,53,39,19,9,1.2,0.7
2025-03-12T0100,3241A,103.7439,36.0842,兰州市,百合公园,颗粒物(PM10),109,167,385,47,76,6,,,,66,30,5,6,0.8,0.7
2025-03-12T0100,3242A,103.9611,35.998,兰州市,和平,颗粒物(PM10),135,220,436,62,99,63,,,,18,15,7,11,0.4,0.5
2025-03-12T0100,4236A,103.6293,36.0938,兰州市,庄浪东路808号,颗粒物(PM10),108,166,363,50,83,47,,,,37,28,4,7,0.4,0.4
2025-03-12T0100,4237A,103.7251,36.1043,兰州市,安宁西路88号,颗粒物(PM10),120,189,400,56,91,15,,,,64,22,7,7,0.7,0.4
2025-03-12T0100,4238A,103.8470,36.0676,兰州市,北滨河东路1号,颗粒物(PM10),122,193,370,55,80,26,,,,58,31,17,11,1.1,0.5
2025-03-12T0100,3245A,103.6633,36.533,兰州新区,新区管委会,颗粒物(PM10),60,69,308,27,86,30,,,,22,8,11,11,0.4,0.3
2025-03-12T0100,3246A,103.6975,36.4789,兰州新区,舟曲中学,颗粒物(PM10),104,157,480,39,94,40,,,,37,10,23,6,0.4,0.3
2025-03-12T0100,1067A,116.6708,39.5111,廊坊市,药材公司,细颗粒物(PM2.5),237,229,167,187,136,31,,,,51,33,2,3,1.0,0.8
2025-03-12T0100,1068A,116.7214,39.5589,廊坊市,开发区,细颗粒物(PM2.5),230,225,177,180,131,9,,,,71,35,2,3,0.9,0.7
2025-03-12T0100,1070A,116.7244,39.5269,廊坊市,北华航天学院,细颗粒物(PM2.5),225,231,171,175,127,24,,,,52,28,4,5,0.9,0.7
2025-03-12T0100,2919A,116.7022,39.5453,廊坊市,河北工业大学,细颗粒物(PM2.5),232,225,166,182,130,16,,,,64,30,6,7,0.9,0.7
2025-03-12T0100,2535A,103.7723,29.5462,乐山市,花湖湾,细颗粒物(PM2.5),72,56,75,52,67,25,,,,35,28,8,6,0.8,0.6
2025-03-12T0100,2536A,103.7627,29.5844,乐山市,牛耳桥,细颗粒物(PM2.5),75,69,83,55,67,4,,,,43,34,11,11,0.9,0.8
2025-03-12T0100,2537A,103.7508,29.6006,乐山市,市第三水厂,细颗粒物(PM2.5),57,59,62,40,49,4,,,,44,28,5,5,1.0,0.8
2025-03-12T0100,2538A,103.7571,29.5664,乐山市,市监测站,细颗粒物(PM2.5),55,47,56,39,49,16,,,,30,24,10,7,1.2,1
2025-03-12T0100,3361A,103.7311,29.5628,乐山市,理工大学,细颗粒物(PM2.5),53,47,61,37,47,14,,,,37,29,13,9,0.8,0.6
2025-03-12T0100,2598A,100.2143,26.8576,丽江市,西南郊,,31,21,41,15,22,99,,,,4,4,5,15,0.7,0.9
2025-03-12T0100,2599A,100.2497,26.8802,丽江市,丽江古城,,38,35,35,26,24,79,,,,14,11,8,8,0.6,0.6
2025-03-12T0100,2600A,100.2203,26.8906,丽江市,市中心,,29,22,28,18,21,91,,,,7,9,7,7,0.6,0.7
2025-03-12T0100,1267A,119.914,28.4514,丽水市,监测站大楼,细颗粒物(PM2.5),54,49,50,38,34,4,,,,33,31,4,4,1.0,0.9
2025-03-12T0100,1268A,119.93,28.4586,丽水市,莲都小学,颗粒物(PM10),52,54,50,33,29,4,,,,45,33,4,4,1.0,0.7
2025-03-12T0100,1269A,119.879,28.4231,丽水市,余庄前,,35,35,41,21,27,5,,,,18,22,4,4,0.7,0.6
2025-03-12T0100,1173A,119.176,34.5885,连云港市,市环境监测站,细颗粒物(PM2.5),85,80,77,63,58,33,,,,32,28,8,8,0.7,0.4
2025-03-12T0100,3000A,119.3581,34.6972,连云港市,德源药业,,42,39,58,29,46,3,,,,63,33,7,8,0.8,0.6
2025-03-12T0100,3007A,119.178,34.844,连云港市,新城一中,,47,47,57,21,35,49,,,,37,49,6,7,0.6,0.6
2025-03-12T0100,3008A,119.3608,34.7519,连云港市,胡沟管理处,细颗粒物(PM2.5),62,46,42,44,33,34,,,,50,37,8,9,0.8,0.6
2025-03-12T0100,3009A,119.1478,34.5911,连云港市,矿山设计院,细颗粒物(PM2.5),83,92,84,61,59,42,,,,25,28,7,7,0.8,0.5
2025-03-12T0100,3434A,119.2413,34.6539,连云港市,工贸学校,细颗粒物(PM2.5),99,87,80,74,67,24,,,,48,25,8,8,0.9,0.8
2025-03-12T0100,3664A,119.4172,34.7341,连云港市,连云街道,细颗粒物(PM2.5),99,118,88,74,53,34,,,,59,49,8,9,0.8,0.7
2025-03-12T0100,2571A,102.3431,27.8099,凉山彝族自治州,青龙寺,,29,27,38,8,11,91,,,,4,6,5,5,0.7,0.7
2025-03-12T0100,2572A,102.2721,27.8415,凉山彝族自治州,邛海宾馆,,31,31,41,19,24,90,,,,6,10,11,13,0.5,0.6
2025-03-12T0100,2573A,102.2625,27.898,凉山彝族自治州,西昌市政府,,31,31,40,16,26,80,,,,4,10,16,18,0.6,0.9
2025-03-12T0100,2574A,102.2685,27.8851,凉山彝族自治州,凉山州政府,,28,28,43,14,26,88,,,,5,10,13,20,0.7,0.8
2025-03-12T0100,4229A,102.2342,27.8859,凉山彝族自治州,凯乐南路30号,,37,37,49,14,24,83,,,,8,13,18,17,0.4,0.8
2025-03-12T0100,2212A,123.2,41.1953,辽阳市,宏伟区,,38,38,29,25,30,108,,,,9,11,9,9,0.7,0.8
2025-03-12T0100,2213A,123.1683,41.2495,辽阳市,新华园,,40,33,36,28,34,87,,,,16,15,10,9,0.7,0.7
2025-03-12T0100,2214A,123.2354,41.2639,辽阳市,滨河路,,36,,29,25,33,89,,,,15,16,7,10,0.5,0.6
2025-03-12T0100,2215A,123.149,41.2991,辽阳市,铁西工业园,,43,,46,30,34,93,,,,20,17,10,8,0.6,0.6
2025-03-12T0100,2227A,125.1358,42.8845,辽源市,环保局,,49,49,48,32,32,114,,,,11,21,5,6,0.7,0.8
2025-03-12T0100,3239A,125.0764,42.9078,辽源市,银鹰制药,,46,45,49,32,35,115,,,,8,14,7,7,0.9,0.9
2025-03-12T0100,1625A,115.9848,36.4372,聊城市,区政府,细颗粒物(PM2.5),165,183,122,125,82,52,,,,25,15,13,13,1.0,0.8
2025-03-12T0100,2878A,116.0072,36.4343,聊城市,聊大东校,细颗粒物(PM2.5),170,200,129,129,84,53,,,,30,22,7,8,1.1,0.8
2025-03-12T0100,3200A,115.9819,36.4978,聊城市,监控中心,细颗粒物(PM2.5),175,164,122,132,89,66,,,,25,19,11,12,1.2,1
2025-03-12T0100,3513A,116.0445,36.4361,聊城市,九州社区,细颗粒物(PM2.5),185,180,117,139,81,50,,,,26,15,10,10,0.9,0.7
2025-03-12T0100,4018A,116.0567,36.4608,聊城市,星美广场,细颗粒物(PM2.5),180,185,126,136,76,54,,,,26,19,14,14,1.1,0.9
2025-03-12T0100,2632A,94.3681,29.6376,林芝市,林芝监测站,,26,13,21,9,12,81,,,,6,6,7,7,0.5,0.4
2025-03-12T0100,2633A,94.3616,29.6616,林芝市,林芝人民医院,,23,10,22,8,13,72,,,,2,4,7,7,0.3,0.2
2025-03-12T0100,2603A,100.0781,23.8982,临沧市,市环保局,细颗粒物(PM2.5),84,78,71,62,48,80,,,,18,16,10,11,0.7,0.6
2025-03-12T0100,2604A,100.0894,23.8822,临沧市,市气象局,细颗粒物(PM2.5),73,58,64,53,50,83,,,,16,18,11,12,0.5,0.6
2025-03-12T0100,1733A,111.5531,36.0783,临汾市,临钢医院,颗粒物(PM10),310,428,186,61,46,34,,,,37,27,8,8,0.3,0.6
2025-03-12T0100,1734A,111.5028,36.0714,临汾市,技工学校,颗粒物(PM10),202,351,160,64,53,48,,,,19,20,7,8,0.3,0.6
2025-03-12T0100,1736A,111.5018,36.0855,临汾市,市委,颗粒物(PM10),305,424,178,64,48,58,,,,15,18,6,7,0.4,0.7
2025-03-12T0100,3018A,111.505,36.1014,临汾市,唐尧大酒店,颗粒物(PM10),268,397,167,59,49,60,,,,19,22,6,7,0.2,0.6
2025-03-12T0100,4244A,111.4879,36.0530,临汾市,启星学校,颗粒物(PM10),182,313,139,79,56,47,,,,16,21,3,4,0.3,0.6
2025-03-12T0100,4271A,103.2464,35.6123,临夏回族自治州,滨河东路1号,颗粒物(PM10),70,89,126,9,15,56,,,,20,16,4,3,0.4,0.5
2025-03-12T0100,4310A,103.2093,35.5995,临夏回族自治州,新华街21号,,35,35,52,8,14,82,,,,11,16,12,9,0.3,0.6
2025-03-12T0100,1618A,118.3429,35.0532,临沂市,沂河小区,细颗粒物(PM2.5),162,139,117,123,97,21,,,,33,29,18,11,0.8,0.7
2025-03-12T0100,1619A,118.295,35.0583,临沂市,鲁南制药厂,细颗粒物(PM2.5),155,151,127,118,88,13,,,,56,42,15,13,0.7,0.5
2025-03-12T0100,1620A,118.2794,34.9976,临沂市,新光毛纺厂,细颗粒物(PM2.5),142,136,114,108,98,8,,,,60,39,38,10,0.9,0.7
2025-03-12T0100,1621A,118.3956,35.0888,临沂市,河东保险公司,细颗粒物(PM2.5),152,134,108,116,82,19,,,,60,48,8,4,1.0,0.8
2025-03-12T0100,3370A,118.3564,35.0215,临沂市,十里堡居委,细颗粒物(PM2.5),144,139,107,110,86,8,,,,43,35,10,9,0.8,0.7
2025-03-12T0100,3496A,118.3604,35.1084,临沂市,南坊新区,细颗粒物(PM2.5),149,127,105,114,86,30,,,,62,38,10,5,0.7,0.7
2025-03-12T0100,3860A,118.3920,35.0300,临沂市,皇山花园小区,细颗粒物(PM2.5),137,134,99,104,79,15,,,,37,39,6,5,0.7,0.6
2025-03-12T0100,1870A,109.4856,24.3895,柳州市,柳东小学,细颗粒物(PM2.5),77,76,40,56,30,11,,,,41,24,11,11,0.7,0.7
2025-03-12T0100,1871A,109.4157,24.3277,柳州市,环保监测站,颗粒物(PM10),68,86,56,47,41,4,,,,49,29,10,10,1.2,1
2025-03-12T0100,1872A,109.389,24.341,柳州市,河西水厂,细颗粒物(PM2.5),75,73,61,55,37,2,,,,46,28,3,4,1.3,1
2025-03-12T0100,1873A,109.4311,24.2921,柳州市,市四中,细颗粒物(PM2.5),94,104,68,70,40,8,,,,49,30,9,8,1.2,0.9
2025-03-12T0100,1874A,109.4006,24.3631,柳州市,市九中,颗粒物(PM10),62,74,56,41,35,4,,,,36,26,6,7,1.2,1.1
2025-03-12T0100,1875A,109.4958,24.3134,柳州市,古亭山,"颗粒物(PM10),细颗粒物(PM2.5)",59,68,48,42,31,4,,,,28,25,7,8,1.0,0.7
2025-03-12T0100,3402A,109.5422,24.3996,柳州市,市二中,细颗粒物(PM2.5),58,61,47,41,32,5,,,,34,29,32,16,0.7,0.7
2025-03-12T0100,2307A,116.5079,31.737,六安市,监测大楼,细颗粒物(PM2.5),138,,76,105,68,86,,,,23,28,5,5,0.9,0.8
2025-03-12T0100,2308A,116.4738,31.7643,六安市,皖西学院,细颗粒物(PM2.5),156,,86,119,69,85,,,,19,24,4,5,0.7,0.6
2025-03-12T0100,2309A,116.4996,31.7905,六安市,朝阳厂,细颗粒物(PM2.5),140,,83,107,67,78,,,,26,28,3,4,0.8,0.7
2025-03-12T0100,2310A,116.5567,31.7886,六安市,开发区,细颗粒物(PM2.5),114,123,90,86,54,75,,,,24,25,4,5,0.8,0.8
2025-03-12T0100,2576A,104.8,26.5892,六盘水市,窑上,,,,58,49,41,76,,,,8,11,6,6,0.8,0.8
2025-03-12T0100,2577A,104.83,26.5917,六盘水市,黄土坡,,46,34,56,32,39,74,,,,9,19,9,11,0.7,0.9
2025-03-12T0100,2578A,104.89,26.5939,六盘水市,水钢,,50,,59,35,41,59,,,,16,14,11,10,0.8,0.7
2025-03-12T0100,2579A,104.8475,26.5894,六盘水市,民中,,37,37,46,22,34,68,,,,10,17,9,10,0.6,0.7
2025-03-12T0100,2580A,104.9544,26.5506,六盘水市,双水,,28,24,44,19,30,71,,,,9,11,9,9,0.6,0.5
2025-03-12T0100,2335A,117.0189,25.1181,龙岩市,龙岩师专,,,,,,,,,,,,,,,,
2025-03-12T0100,2336A,117.0217,25.1033,龙岩市,龙岩市监测站,,30,30,34,19,23,8,,,,33,26,15,9,0.6,0.7
2025-03-12T0100,2337A,117.0258,25.0661,龙岩市,闽西职业技术学院,颗粒物(PM10),51,51,41,23,25,2,,,,39,30,49,20,0.6,0.6
2025-03-12T0100,2338A,117.0196,25.0306,龙岩市,龙岩学院,,20,,27,14,20,22,,,,10,12,6,9,0.4,0.5
2025-03-12T0100,2665A,105.0822,33.3261,陇南市,汉王镇固水子,,,,,,,,,,,,,,,,
2025-03-12T0100,2885A,104.9339,33.3826,陇南市,滨江中学,颗粒物(PM10),126,201,161,51,40,40,,,,24,13,8,7,1.2,0.7
2025-03-12T0100,3247A,104.955,33.371,陇南市,市总工会,颗粒物(PM10),122,193,160,57,44,66,,,,3,5,7,8,0.3,0.4
2025-03-12T0100,2487A,111.9589,27.8901,娄底市,电视发射台,细颗粒物(PM2.5),52,42,50,36,39,29,,,,11,13,6,8,0.9,0.9
2025-03-12T0100,2488A,111.9975,27.725,娄底市,市监测站,细颗粒物(PM2.5),62,60,62,44,48,28,,,,40,35,10,10,1.0,1
2025-03-12T0100,2489A,112.0194,27.7314,娄底市,市委党校,颗粒物(PM10),55,59,55,36,41,36,,,,15,18,3,3,1.0,0.9
2025-03-12T0100,2490A,111.9561,27.7569,娄底市,涟钢,细颗粒物(PM2.5),55,52,71,39,50,31,,,,12,23,16,22,1.2,1.8
2025-03-12T0100,2491A,111.9892,27.7044,娄底市,市政府,细颗粒物(PM2.5),63,,50,45,38,26,,,,16,14,8,8,1.0,0.8
2025-03-12T0100,1893A,105.4324,28.9634,泸州市,九狮山,,,,,,,,,,,,,,,,
2025-03-12T0100,1894A,105.4427,28.9063,泸州市,小市上码头,细颗粒物(PM2.5),107,147,97,80,56,52,,,,20,28,6,8,0.6,0.6
2025-03-12T0100,1895A,105.4241,28.8573,泸州市,兰田宪桥,细颗粒物(PM2.5),109,121,90,82,61,45,,,,19,26,6,7,0.7,0.6
2025-03-12T0100,1896A,105.4379,28.8833,泸州市,市环监站,细颗粒物(PM2.5),105,109,73,79,59,50,,,,21,32,7,9,0.5,0.4
2025-03-12T0100,4272A,105.3689,28.7783,泸州市,纳溪中医医院,细颗粒物(PM2.5),105,,83,79,70,44,,,,24,28,5,6,0.7,0.7
2025-03-12T0100,2183A,111.1406,37.5211,吕梁市,环保局,颗粒物(PM10),500,662,368,122,89,2,,,,54,41,1,2,0.3,0.4
2025-03-12T0100,2185A,111.1297,37.5136,吕梁市,自来水公司,颗粒物(PM10),500,707,377,136,93,4,,,,49,36,5,6,0.3,0.5
2025-03-12T0100,2867A,111.1283,37.51,吕梁市,马茂庄小学,颗粒物(PM10),500,676,382,132,86,3,,,,56,46,7,10,0.3,0.6
2025-03-12T0100,1812A,112.3931,34.6516,洛阳市,市委党校,颗粒物(PM10),82,114,111,57,69,16,,,,50,41,5,7,0.9,0.9
2025-03-12T0100,1815A,112.494,34.6886,洛阳市,河南林校,细颗粒物(PM2.5),138,163,134,105,92,2,,,,64,46,5,6,1.3,1
2025-03-12T0100,1816A,112.3844,34.623,洛阳市,开发区管委会,颗粒物(PM10),86,122,107,55,71,53,,,,26,31,6,7,0.7,0.8
2025-03-12T0100,1817A,112.4267,34.6258,洛阳市,市委新办公区,颗粒物(PM10),92,133,118,55,65,59,,,,27,32,5,6,0.6,0.7
2025-03-12T0100,3340A,112.6005,34.6326,洛阳市,伊滨,细颗粒物(PM2.5),119,158,121,90,84,9,,,,68,43,6,6,1.2,1
2025-03-12T0100,3341A,112.4951,34.6332,洛阳市,中移产业园,细颗粒物(PM2.5),108,154,136,81,93,31,,,,47,46,7,8,0.9,1.1
2025-03-12T0100,3593A,112.5736,34.8993,洛阳市,吉利监测站,细颗粒物(PM2.5),108,141,111,81,82,4,,,,58,45,5,7,0.9,0.9
2025-03-12T0100,3635A,112.3677,34.662,洛阳市,河科大西苑校区,颗粒物(PM10),91,132,111,65,72,16,,,,51,36,8,9,0.9,0.9
2025-03-12T0100,3636A,112.4388,34.6781,洛阳市,英才小学,颗粒物(PM10),105,160,135,75,68,5,,,,80,53,12,12,1.1,0.8
2025-03-12T0100,4214A,112.4600,34.6949,洛阳市,春都路1号院,细颗粒物(PM2.5),99,140,112,74,69,7,,,,74,52,9,8,1.0,0.9
2025-03-12T0100,2399A,114.051,33.5699,漯河市,三五一五工厂,细颗粒物(PM2.5),130,112,94,99,86,24,,,,38,25,4,5,0.8,0.6
2025-03-12T0100,2400A,114.0055,33.5698,漯河市,漯河大学,细颗粒物(PM2.5),113,115,97,85,72,26,,,,40,27,5,8,0.8,0.7
2025-03-12T0100,2401A,114.0138,33.5828,漯河市,市水利局,细颗粒物(PM2.5),113,114,88,85,73,24,,,,40,25,3,4,0.6,0.5
2025-03-12T0100,2402A,114.0261,33.5698,漯河市,市广电局,细颗粒物(PM2.5),123,110,88,93,75,25,,,,40,24,4,5,0.9,0.7
2025-03-12T0100,3478A,113.9749,33.5664,漯河市,市图书馆,细颗粒物(PM2.5),102,106,91,76,76,13,,,,58,28,4,9,0.8,0.7
2025-03-12T0100,4250A,114.0892,33.5882,漯河市,韶山路11号,细颗粒物(PM2.5),125,128,107,95,79,49,,,,37,31,5,6,0.7,0.7
2025-03-12T0100,1798A,118.5092,31.6837,马鞍山市,湖东路四小,细颗粒物(PM2.5),87,92,76,64,54,72,,,,26,27,6,9,0.8,0.9
2025-03-12T0100,1799A,118.5024,31.6449,马鞍山市,开发区,细颗粒物(PM2.5),113,,85,85,66,85,,,,22,36,4,7,0.7,0.9
2025-03-12T0100,1802A,118.6245,31.7241,马鞍山市,濮塘,细颗粒物(PM2.5),99,128,70,74,50,47,,,,32,16,8,9,1.0,0.9
2025-03-12T0100,3633A,118.4918,31.6809,马鞍山市,雨山,细颗粒物(PM2.5),79,71,75,58,56,65,,,,31,28,7,10,0.8,0.9
2025-03-12T0100,4191A,118.5274,31.72227,马鞍山市,慈湖高新区,细颗粒物(PM2.5),137,124,81,104,68,56,,,,35,37,7,12,0.7,0.8
2025-03-12T0100,1686A,111.0286,21.4688,茂名市,电白南海,,48,48,45,27,26,102,,,,10,11,1,3,0.7,0.7
2025-03-12T0100,1687A,110.9294,21.6533,茂名市,茂石化七小,,34,34,34,19,17,88,,,,8,8,1,4,0.4,0.5
2025-03-12T0100,1688A,110.9107,21.6687,茂名市,健康路,,36,36,30,22,16,90,,,,8,10,1,5,0.3,0.4
2025-03-12T0100,1689A,110.8592,21.6828,茂名市,高岭,,44,44,51,14,18,82,,,,13,14,4,6,0.4,0.4
2025-03-12T0100,3450A,111.01,21.5165,茂名市,电白水东,,30,29,32,17,15,94,,,,4,9,2,4,0.7,0.7
2025-03-12T0100,2539A,104.0308,30.0478,眉山市,黑龙滩水库,细颗粒物(PM2.5),74,56,66,54,56,31,,,,10,24,3,3,0.8,0.8
2025-03-12T0100,2540A,103.8416,30.0874,眉山市,气象局,细颗粒物(PM2.5),70,65,87,51,63,26,,,,33,32,8,6,0.8,0.8
2025-03-12T0100,3137A,103.8578,30.0744,眉山市,市委党校,细颗粒物(PM2.5),62,58,76,44,60,24,,,,38,40,10,9,0.9,0.8
2025-03-12T0100,3148A,103.8291,30.0564,眉山市,区人社局,细颗粒物(PM2.5),67,,67,48,61,23,,,,40,39,11,9,0.9,0.8
2025-03-12T0100,1690A,116.1231,24.3284,梅州市,梅江月梅,颗粒物(PM10),53,55,45,27,30,7,,,,35,27,10,10,0.6,0.6
2025-03-12T0100,1691A,116.0797,24.2719,梅州市,梅县新城,,49,49,49,32,30,4,,,,41,34,5,6,0.8,0.7
2025-03-12T0100,1692A,116.1248,24.2654,梅州市,环境监控中心,颗粒物(PM10),56,62,48,34,31,2,,,,42,35,6,7,0.9,0.8
2025-03-12T0100,3315A,116.1233,24.2991,梅州市,梅龙,颗粒物(PM10),52,53,43,28,27,7,,,,35,30,6,6,1.2,1
2025-03-12T0100,1878A,104.7778,31.4741,绵阳市,富乐山,细颗粒物(PM2.5),52,46,50,36,40,20,,,,44,24,2,2,0.9,0.7
2025-03-12T0100,1880A,104.6697,31.4668,绵阳市,高新区自来水公司,细颗粒物(PM2.5),64,72,57,46,38,12,,,,56,34,3,4,0.5,0.7
2025-03-12T0100,1881A,104.7287,31.5075,绵阳市,三水厂,细颗粒物(PM2.5),64,72,72,46,48,3,,,,65,34,6,6,1.0,0.8
2025-03-12T0100,3491A,104.69,31.5322,绵阳市,西科大附属小学,颗粒物(PM10),56,62,53,36,36,10,,,,74,33,7,7,0.7,0.6
2025-03-12T0100,3492A,104.5648,31.5343,绵阳市,安州区旅游局,细颗粒物(PM2.5),77,59,47,56,44,28,,,,40,22,10,10,0.7,0.6
2025-03-12T0100,4226A,104.7651,31.4531,绵阳市,绵阳市气象局,颗粒物(PM10),64,78,55,42,38,13,,,,66,34,5,6,0.7,0.5
2025-03-12T0100,1784A,129.61,44.561,牡丹江市,环保大楼,细颗粒物(PM2.5),124,103,99,94,68,58,,,,37,29,10,7,0.8,0.6
2025-03-12T0100,1785A,129.6115,44.5782,牡丹江市,文化广场,细颗粒物(PM2.5),109,114,105,82,71,42,,,,56,37,16,14,0.9,0.6
2025-03-12T0100,1786A,129.5904,44.5963,牡丹江市,第一医院,细颗粒物(PM2.5),138,,90,105,71,49,,,,30,30,13,12,0.7,0.6
2025-03-12T0100,1787A,129.6364,44.6075,牡丹江市,机车工厂,细颗粒物(PM2.5),109,135,108,82,66,18,,,,54,39,21,22,1.1,0.7
2025-03-12T0100,1788A,129.6386,44.5462,牡丹江市,第一中学,细颗粒物(PM2.5),95,78,85,71,58,43,,,,51,28,11,9,0.8,0.7
2025-03-12T0100,2531A,105.0703,29.61,内江市,市监测站,细颗粒物(PM2.5),104,87,67,78,53,27,,,,34,24,6,6,1.1,1.1
2025-03-12T0100,2532A,105.0717,29.5947,内江市,东兴区政府,细颗粒物(PM2.5),98,106,55,73,46,35,,,,28,24,4,5,1.0,0.9
2025-03-12T0100,2533A,105.0653,29.5817,内江市,内江二中,细颗粒物(PM2.5),105,95,63,79,52,35,,,,28,24,7,8,0.9,0.8
2025-03-12T0100,2534A,105.0406,29.5822,内江市,内江日报社,细颗粒物(PM2.5),122,,64,92,55,29,,,,32,26,9,10,0.8,0.7
2025-03-12T0100,2628A,92.0657,31.4846,那曲市,那曲监测站,,27,27,26,18,18,49,,,,32,14,11,9,1.9,1
2025-03-12T0100,3128A,92.0506,31.4797,那曲市,那曲会议中心,,24,24,28,13,13,44,,,,18,8,7,6,1.2,0.9
2025-03-12T0100,1290A,115.8931,28.6843,南昌市,省外办,细颗粒物(PM2.5),62,61,78,44,66,4,,,,55,52,4,4,1.0,1.2
2025-03-12T0100,1291A,115.8886,28.7003,南昌市,省林业公司,细颗粒物(PM2.5),62,61,64,44,55,5,,,,43,36,9,8,0.6,0.7
2025-03-12T0100,1292A,115.8126,28.7442,南昌市,林科所,细颗粒物(PM2.5),55,53,57,39,44,13,,,,51,41,7,6,0.8,0.8
2025-03-12T0100,1294A,115.8518,28.687,南昌市,建工学校,细颗粒物(PM2.5),75,73,72,55,61,2,,,,64,44,10,10,0.8,0.9
2025-03-12T0100,1295A,115.8921,28.6424,南昌市,象湖,细颗粒物(PM2.5),73,80,70,53,68,7,,,,49,36,7,8,0.9,1.1
2025-03-12T0100,1296A,115.7423,28.7996,南昌市,武术学校,,29,29,32,19,23,3,,,,8,15,2,2,0.7,0.7
2025-03-12T0100,3046A,115.9084,28.6062,南昌市,机电学校,细颗粒物(PM2.5),77,82,88,56,61,6,,,,50,38,5,7,0.9,1
2025-03-12T0100,3690A,115.9721,28.7031,南昌市,外国语学校,细颗粒物(PM2.5),53,42,62,37,47,16,,,,26,23,5,7,0.5,0.7
2025-03-12T0100,4192A,115.9316,28.68677,南昌市,南京东路235号,颗粒物(PM10),65,80,75,41,57,7,,,,57,39,6,7,0.8,0.9
2025-03-12T0100,1905A,106.056,30.8064,南充市,西山风景区,,45,,33,31,27,76,,,,10,10,4,3,0.5,0.5
2025-03-12T0100,1906A,106.0789,30.8023,南充市,南充市委,,50,50,44,31,29,7,,,,55,32,4,4,0.9,0.7
2025-03-12T0100,1907A,106.1031,30.8217,南充市,南充炼油厂,细颗粒物(PM2.5),57,57,52,40,37,7,,,,68,32,5,5,0.7,0.5
2025-03-12T0100,1909A,106.0642,30.7636,南充市,嘉陵区环保局,颗粒物(PM10),57,63,52,34,33,4,,,,65,28,4,4,0.8,0.7
2025-03-12T0100,1910A,106.1087,30.8388,南充市,市环境监测站,细颗粒物(PM2.5),57,49,52,40,35,28,,,,53,27,7,7,0.8,0.7
2025-03-12T0100,4227A,106.1083,30.7884,南充市,梨树横街98号,细颗粒物(PM2.5),64,64,50,46,33,35,,,,40,25,6,5,0.5,0.5
2025-03-12T0100,1151A,118.8086,32.1065,南京市,迈皋桥,细颗粒物(PM2.5),122,110,85,92,60,14,,,,86,49,4,4,0.7,0.6
2025-03-12T0100,1152A,118.7538,32.0551,南京市,草场门,细颗粒物(PM2.5),122,102,80,92,61,33,,,,48,43,6,7,1.3,1
2025-03-12T0100,1153A,118.7794,32.0745,南京市,山西路,细颗粒物(PM2.5),153,134,90,117,67,39,,,,40,34,5,4,1.0,0.8
2025-03-12T0100,1154A,118.7752,32.0023,南京市,中华门,细颗粒物(PM2.5),117,122,84,88,56,30,,,,61,49,4,4,0.8,0.6
2025-03-12T0100,1155A,118.8109,32.0309,南京市,瑞金路,细颗粒物(PM2.5),122,134,91,92,57,35,,,,35,40,6,6,0.8,0.7
2025-03-12T0100,1156A,118.7997,32.0754,南京市,玄武湖,细颗粒物(PM2.5),143,128,84,109,67,31,,,,37,33,4,4,0.5,0.5
2025-03-12T0100,1157A,118.6414,32.0931,南京市,浦口,细颗粒物(PM2.5),115,158,105,87,70,19,,,,54,44,6,7,0.7,0.8
2025-03-12T0100,1158A,118.7356,31.9996,南京市,奥体中心,细颗粒物(PM2.5),140,132,93,107,63,36,,,,50,44,8,9,1.0,0.6
2025-03-12T0100,1159A,118.9125,32.1028,南京市,仙林大学城,细颗粒物(PM2.5),147,124,86,112,69,5,,,,79,47,9,8,1.2,0.9
2025-03-12T0100,3422A,118.8436,31.9198,南京市,江宁彩虹桥,细颗粒物(PM2.5),119,120,76,90,54,19,,,,62,39,6,5,1.0,0.6
2025-03-12T0100,3423A,119.0138,31.6494,南京市,溧水永阳,颗粒物(PM10),74,97,60,53,38,18,,,,54,30,5,8,0.9,0.6
2025-03-12T0100,3427A,118.8554,32.3578,南京市,六合雄州,细颗粒物(PM2.5),79,99,93,58,51,30,,,,21,34,5,6,0.5,0.8
2025-03-12T0100,4249A,118.8708,31.3402,南京市,汶溪路181号,细颗粒物(PM2.5),74,,52,54,38,71,,,,28,24,6,5,0.5,0.5
2025-03-12T0100,1401A,108.3103,22.7881,南宁市,二十一中,,34,34,41,20,20,46,,,,17,16,4,4,0.9,0.8
2025-03-12T0100,1402A,108.3141,22.8528,南宁市,北湖,,35,,43,24,27,35,,,,20,30,5,5,0.8,0.9
2025-03-12T0100,1403A,108.3206,22.8225,南宁市,市监测站,,30,30,30,20,22,45,,,,14,19,5,5,1.0,0.9
2025-03-12T0100,1404A,108.3829,22.8037,南宁市,大自然花园,,30,28,28,21,21,54,,,,8,7,5,5,0.8,0.7
2025-03-12T0100,1405A,108.4394,22.7904,南宁市,仙葫,,32,32,28,17,17,55,,,,12,12,2,2,0.4,0.4
2025-03-12T0100,1406A,108.2397,22.8467,南宁市,区农职院,,28,,46,19,24,41,,,,15,28,7,8,0.8,0.9
2025-03-12T0100,1407A,108.3275,22.735,南宁市,英华嘉园,,33,31,33,23,19,34,,,,21,20,6,6,0.8,0.6
2025-03-12T0100,3401A,108.4834,22.7618,南宁市,红星社区,,36,36,31,22,22,55,,,,9,9,8,7,0.6,0.7
2025-03-12T0100,4221A,108.2177,22.7774,南宁市,乐贤路16号,,22,17,36,15,22,36,,,,21,27,6,7,0.7,0.8
2025-03-12T0100,2331A,118.0966,26.6761,南平市,茫荡山,,,,,,,,,,,,,,,,
2025-03-12T0100,2332A,118.1681,26.6369,南平市,南平市监测站,细颗粒物(PM2.5),57,45,45,40,35,8,,,,34,19,4,5,1.4,0.9
2025-03-12T0100,2333A,118.1825,26.6489,南平市,南平铝业有限公司,,50,41,42,35,34,3,,,,42,25,5,7,1.0,0.9
2025-03-12T0100,2334A,118.1756,26.6272,南平市,南平七中,,50,,42,35,33,9,,,,31,17,3,3,0.7,0.7
2025-03-12T0100,1168A,120.9098,31.9663,南通市,狼山街道,,43,38,46,30,37,64,,,,16,24,5,6,0.2,0.4
2025-03-12T0100,1169A,120.86,32.0005,南通市,虹桥,细颗粒物(PM2.5),52,44,60,36,49,62,,,,13,28,4,5,0,0.1
2025-03-12T0100,1170A,120.87,32.02,南通市,城中,,43,37,57,30,44,65,,,,14,25,6,6,0.4,0.5
2025-03-12T0100,1171A,120.94,31.93,南通市,星湖花园,,42,31,44,29,39,61,,,,17,27,5,6,0.4,0.5
2025-03-12T0100,1172A,120.81,32.0417,南通市,紫琅学院,,46,,50,32,43,62,,,,17,27,2,3,0.6,0.6
2025-03-12T0100,3291A,121.067,32.062,南通市,通州监测站,,25,19,45,17,39,75,,,,10,16,3,3,0.6,0.6
2025-03-12T0100,3432A,120.9348,31.9883,南通市,环境教育馆,,45,36,45,31,43,70,,,,10,19,3,4,0.1,0.2
2025-03-12T0100,2404A,112.5224,33.0122,南阳市,瓦房庄,细颗粒物(PM2.5),117,120,85,88,65,21,,,,41,25,4,4,0.8,0.6
2025-03-12T0100,2405A,112.5003,32.9735,南阳市,汉画馆,细颗粒物(PM2.5),114,116,85,86,68,3,,,,57,27,4,4,0.9,0.7
2025-03-12T0100,2406A,112.5573,33.027,南阳市,气象站,细颗粒物(PM2.5),113,127,92,85,67,15,,,,44,21,8,5,0.7,0.5
2025-03-12T0100,2407A,112.5481,32.9689,南阳市,理工学院,细颗粒物(PM2.5),108,109,87,81,62,22,,,,49,26,3,3,0.8,0.7
2025-03-12T0100,4008A,112.5234,32.9922,南阳市,卧龙区政府,细颗粒物(PM2.5),119,115,90,90,71,31,,,,35,25,6,6,0.7,0.7
2025-03-12T0100,1234A,121.8358,29.911,宁波市,区环保大楼,,20,14,35,8,16,61,,,,20,51,7,8,0.4,0.4
2025-03-12T0100,1235A,121.56,29.82,宁波市,万里学院,,33,32,36,23,23,42,,,,21,26,7,7,0.6,0.6
2025-03-12T0100,1236A,121.713,29.9572,宁波市,龙赛医院,,27,27,42,17,24,67,,,,11,44,7,8,0.5,0.5
2025-03-12T0100,1239A,121.633,29.7733,宁波市,钱湖水厂,,35,28,26,24,20,52,,,,16,18,6,6,0.6,0.6
2025-03-12T0100,1240A,121.5856,29.8635,宁波市,太古小学,,36,36,37,21,20,56,,,,15,27,7,8,0.8,0.8
2025-03-12T0100,1241A,121.524,29.8674,宁波市,市环境监测中心,,44,44,36,29,18,47,,,,34,39,6,8,0.6,0.6
2025-03-12T0100,2871A,121.6147,29.9017,宁波市,万里国际学校,,28,27,31,19,20,69,,,,11,31,6,8,0.5,0.5
2025-03-12T0100,3710A,121.5594,29.8975,宁波市,白沙活动中心,,34,34,48,22,21,59,,,,9,24,6,6,0.5,0.5
2025-03-12T0100,2339A,119.5001,26.6946,宁德市,金涵水库,,,,,,,,,,,,,,,,
2025-03-12T0100,2341A,119.5388,26.6612,宁德市,宁德市监测站,细颗粒物(PM2.5),54,,44,38,37,83,,,,14,16,4,6,0.5,0.9
2025-03-12T0100,3209A,119.5231,26.6562,宁德市,宁德一中,细颗粒物(PM2.5),52,,43,36,41,75,,,,14,21,5,7,0.4,0.8
2025-03-12T0100,2618A,98.8601,25.8567,怒江傈僳族自治州,州监测站,细颗粒物(PM2.5),72,66,59,52,39,101,,,,12,9,5,6,0.6,0.6
2025-03-12T0100,2619A,98.8546,25.8417,怒江傈僳族自治州,泸水一中,细颗粒物(PM2.5),53,41,54,37,41,68,,,,19,19,7,7,0.6,0.6
2025-03-12T0100,1888A,101.6891,26.571,攀枝花市,弄弄坪,颗粒物(PM10),51,52,89,33,47,86,,,,27,48,30,56,1.0,3
2025-03-12T0100,1889A,101.5769,26.5928,攀枝花市,河门口,颗粒物(PM10),53,55,56,24,25,56,,,,39,24,12,13,0.6,0.8
2025-03-12T0100,1890A,101.7169,26.585,攀枝花市,炳草岗,颗粒物(PM10),51,52,70,34,36,79,,,,29,43,9,16,0.9,1.4
2025-03-12T0100,1891A,101.7369,26.5008,攀枝花市,仁和,,39,39,43,25,29,97,,,,10,21,7,8,0.5,0.7
2025-03-12T0100,2835A,101.7227,26.567,攀枝花市,四十中小,颗粒物(PM10),52,54,70,30,41,121,,,,7,39,10,23,0.4,1.5
2025-03-12T0100,1604A,122.0303,41.1489,盘锦市,开发区,细颗粒物(PM2.5),73,,50,53,59,69,,,,18,16,8,11,0.6,0.6
2025-03-12T0100,1605A,122.0485,41.0883,盘锦市,兴隆台,细颗粒物(PM2.5),69,,50,50,58,69,,,,20,19,4,6,0.7,0.7
2025-03-12T0100,1606A,121.8297,41.1028,盘锦市,新生街道,细颗粒物(PM2.5),75,,40,55,58,71,,,,22,20,8,9,0.7,0.8
2025-03-12T0100,1832A,113.3257,33.742,平顶山市,新华旅馆,细颗粒物(PM2.5),107,143,105,80,69,14,,,,55,32,4,4,0.6,0.4
2025-03-12T0100,1833A,113.2919,33.737,平顶山市,规划设计院,细颗粒物(PM2.5),125,132,99,95,73,3,,,,70,28,2,3,0.7,0.6
2025-03-12T0100,1834A,113.182,33.774,平顶山市,平顶山工学院,细颗粒物(PM2.5),110,119,95,83,68,36,,,,27,16,5,6,0.8,0.7
2025-03-12T0100,3204A,113.3025,33.73,平顶山市,规划局,细颗粒物(PM2.5),147,124,94,112,85,12,,,,67,28,4,5,0.9,0.7
2025-03-12T0100,3594A,112.8867,33.9116,平顶山市,石龙区,细颗粒物(PM2.5),117,162,105,88,62,16,,,,59,27,8,6,0.7,0.6
2025-03-12T0100,2656A,106.6692,35.5461,平凉市,聚贤嘉苑,颗粒物(PM10),62,74,318,24,56,50,,,,29,21,7,10,0.1,0.1
2025-03-12T0100,2657A,106.7021,35.5307,平凉市,博物馆,颗粒物(PM10),60,69,350,23,58,49,,,,30,20,10,14,0.4,0.5
2025-03-12T0100,2347A,114.0997,27.5002,萍乡市,武功山,细颗粒物(PM2.5),55,48,30,39,25,6,,,,19,16,4,4,0.8,0.6
2025-03-12T0100,2348A,113.8385,27.6434,萍乡市,中医院,细颗粒物(PM2.5),84,65,53,62,40,4,,,,37,26,12,12,1.3,1.2
2025-03-12T0100,2349A,113.8493,27.6253,萍乡市,市政府车库,细颗粒物(PM2.5),75,65,50,55,38,5,,,,40,28,8,10,1.4,1.5
2025-03-12T0100,2350A,113.8676,27.6435,萍乡市,市环保局,细颗粒物(PM2.5),74,68,45,54,36,6,,,,44,28,12,9,1.1,0.9
2025-03-12T0100,2351A,113.866,27.6198,萍乡市,安源区政府,细颗粒物(PM2.5),73,64,49,53,42,2,,,,36,27,12,10,1.5,1.1
2025-03-12T0100,2319A,119.0141,25.4325,莆田市,荔城区仓后路,细颗粒物(PM2.5),53,,55,37,34,49,,,,19,28,2,5,0.6,0.8
2025-03-12T0100,2320A,119.0015,25.4553,莆田市,莆田市监测站,,,,51,45,35,,,,,21,20,4,5,0.6,0.7
2025-03-12T0100,2321A,119.1119,25.4561,莆田市,涵江区六中,,45,,43,31,28,41,,,,28,36,2,4,0.3,0.4
2025-03-12T0100,2322A,119.1013,25.3215,莆田市,秀屿区政府,细颗粒物(PM2.5),57,,44,40,36,51,,,,16,18,4,5,0.6,0.7
2025-03-12T0100,2323A,118.981,25.4792,莆田市,东圳水库,,,,,,,,,,,,,,,,
2025-03-12T0100,2392A,115.0312,35.7636,濮阳市,环保局,细颗粒物(PM2.5),113,113,76,85,75,35,,,,33,14,4,4,0.7,0.7
2025-03-12T0100,2394A,115.0574,35.7609,濮阳市,油田运输公司,细颗粒物(PM2.5),109,123,110,82,73,60,,,,25,18,4,4,1.1,1
2025-03-12T0100,3021A,115,35.7668,濮阳市,濮水河管理处,细颗粒物(PM2.5),115,144,118,87,66,21,,,,47,25,4,5,0.9,0.8
2025-03-12T0100,4216A,115.0924,35.7686,濮阳市,任丘路479号,细颗粒物(PM2.5),114,112,102,86,75,80,,,,26,28,4,5,0.7,0.7
2025-03-12T0100,2601A,100.98,22.7633,普洱市,市环保局,颗粒物(PM10),58,65,78,35,38,66,,,,16,16,4,4,0.7,0.8
2025-03-12T0100,2602A,100.9817,22.8322,普洱市,普洱第二中学,颗粒物(PM10),60,69,71,36,37,17,,,,52,25,6,7,0.5,0.5
2025-03-12T0100,2262A,131.0518,45.8751,七台河市,新一中,颗粒物(PM10),53,55,89,35,30,94,,,,14,15,14,12,0.8,0.8
2025-03-12T0100,3345A,131.0577,45.7879,七台河市,中波台,颗粒物(PM10),51,51,83,30,32,83,,,,15,21,8,7,0.5,0.5
2025-03-12T0100,3637A,131.0176,45.7761,七台河市,人民广场,细颗粒物(PM2.5),60,63,95,43,42,80,,,,15,26,9,10,0.7,0.7
2025-03-12T0100,3684A,130.8781,45.8222,七台河市,新建矿广场,细颗粒物(PM2.5),63,68,103,45,43,63,,,,36,28,22,15,0.6,0.5
2025-03-12T0100,1779A,123.9305,47.3636,齐齐哈尔市,安居小区,细颗粒物(PM2.5),54,50,48,38,43,45,,,,16,27,7,7,0.4,0.4
2025-03-12T0100,1780A,123.9488,47.3386,齐齐哈尔市,中心广场,"颗粒物(PM10),细颗粒物(PM2.5)",88,126,55,65,29,34,,,,27,26,6,7,0.6,0.5
2025-03-12T0100,1781A,123.9483,47.3227,齐齐哈尔市,农牧车辆厂,颗粒物(PM10),67,83,45,45,20,43,,,,29,20,5,6,0.3,0.3
2025-03-12T0100,1783A,123.945,47.2988,齐齐哈尔市,市环境监测站,细颗粒物(PM2.5),73,85,53,53,28,43,,,,18,20,6,6,0.6,0.5
2025-03-12T0100,3662A,123.6333,47.2075,齐齐哈尔市,富区青少年活动中心,,45,36,59,31,29,54,,,,8,17,6,13,0.4,0.7
2025-03-12T0100,2591A,107.9783,26.5747,黔东南苗族侗族自治州,市环境监测站,,41,41,32,20,22,39,,,,6,8,2,3,0.5,0.6
2025-03-12T0100,2881A,107.8908,26.5311,黔东南苗族侗族自治州,凯里学院,,30,,14,21,17,40,,,,2,4,2,2,0.6,0.7
2025-03-12T0100,2593A,107.5228,26.2403,黔南布依族苗族自治州,小围寨,,25,22,14,17,12,46,,,,7,7,4,5,0.4,0.4
2025-03-12T0100,3538A,107.5175,26.2978,黔南布依族苗族自治州,沙坝,,32,24,19,22,14,55,,,,8,8,4,4,0.5,0.5
2025-03-12T0100,2589A,104.9022,25.0925,黔西南布依族苗族自治州,场坝街,细颗粒物(PM2.5),70,68,40,51,32,33,,,,30,11,3,3,0.7,0.5
2025-03-12T0100,2590A,104.8811,25.0992,黔西南布依族苗族自治州,坪东大道,细颗粒物(PM2.5),67,65,38,48,32,25,,,,33,18,3,3,0.5,0.4
2025-03-12T0100,2502A,108.6236,21.9667,钦州市,市环保站,,46,46,43,12,20,22,,,,38,31,8,6,0.8,0.9
2025-03-12T0100,2503A,108.6549,21.9481,钦州市,沙埠小学,,26,25,38,18,21,44,,,,25,24,10,6,0.8,0.9
2025-03-12T0100,2504A,108.5989,21.7431,钦州市,港区一小,,43,43,53,19,25,45,,,,37,35,7,8,0.7,0.9
2025-03-12T0100,3404A,108.5959,21.9633,钦州市,北职校,,40,36,33,28,26,37,,,,28,25,10,6,1.0,0.8
2025-03-12T0100,1043A,119.7493,40.0116,秦皇岛市,第一关,细颗粒物(PM2.5),159,126,115,121,97,13,,,,61,44,7,6,1.1,0.8
2025-03-12T0100,1044A,119.5897,39.9499,秦皇岛市,监测站,细颗粒物(PM2.5),175,165,122,132,86,55,,,,39,50,7,5,1.3,0.9
2025-03-12T0100,1046A,119.5251,39.9041,秦皇岛市,建设大厦,细颗粒物(PM2.5),169,178,121,128,90,70,,,,38,45,10,7,1.3,0.9
2025-03-12T0100,3132A,119.610547,39.943889,秦皇岛市,文明里,细颗粒物(PM2.5),150,146,102,115,76,51,,,,36,37,7,5,1.2,0.7
2025-03-12T0100,4198A,119.5090,39.8253,秦皇岛市,北戴河轮滑馆,细颗粒物(PM2.5),169,152,97,128,78,39,,,,60,39,8,5,1.5,0.8
2025-03-12T0100,1307A,120.6659,36.2403,青岛市,仰口,,40,29,30,28,27,63,,,,13,14,3,3,0.3,0.3
2025-03-12T0100,1310A,120.4134,36.0658,青岛市,市南区东部子站,,25,7,33,3,19,79,,,,8,18,7,8,0.4,0.4
2025-03-12T0100,1311A,120.3664,36.1032,青岛市,四方区子站,,27,6,31,3,22,84,,,,12,22,4,4,0.6,0.6
2025-03-12T0100,1312A,120.2994,36.054,青岛市,市南区西部子站,,25,6,25,3,15,80,,,,15,28,6,6,0.6,0.6
2025-03-12T0100,1313A,120.4581,36.0858,青岛市,崂山区子站,,28,6,25,3,14,87,,,,8,17,8,9,0.4,0.4
2025-03-12T0100,1315A,120.3999,36.3083,青岛市,城阳区子站,,27,,29,10,15,85,,,,19,28,6,6,0.6,0.6
2025-03-12T0100,1966A,120.0405,35.8735,青岛市,黄岛区4号,,26,9,20,7,14,83,,,,18,20,6,6,0.6,0.5
2025-03-12T0100,3362A,120.5014,36.4034,青岛市,即墨2号,,27,22,31,17,21,85,,,,18,22,6,7,0.7,0.7
2025-03-12T0100,3642A,120.3503,36.0736,青岛市,市北区南部,,21,9,30,3,15,65,,,,8,15,5,6,0.6,0.6
2025-03-12T0100,3643A,120.3948,36.1805,青岛市,李沧区北部,,20,,32,12,23,63,,,,16,26,9,10,0.5,0.5
2025-03-12T0100,4290A,120.1969,35.9546,青岛市,珠江路669号,,28,,26,3,20,87,,,,11,21,5,6,0.6,0.7
2025-03-12T0100,1702A,113.0426,23.691,清远市,环保大楼,,26,26,79,18,41,37,,,,24,31,10,10,0.7,0.8
2025-03-12T0100,1703A,113.0208,23.7106,清远市,凤城街办,,28,28,60,13,38,32,,,,34,40,8,9,0.6,0.8
2025-03-12T0100,3025A,113.0477,23.6344,清远市,技师学院,,21,21,61,10,33,42,,,,27,41,6,7,0.4,0.6
2025-03-12T0100,3318A,112.9903,23.7403,清远市,清新太和,,42,42,49,20,27,33,,,,33,31,10,11,0.6,0.6
2025-03-12T0100,3455A,113.076,23.7198,清远市,清城东城,,22,22,60,9,34,40,,,,18,27,6,7,0.7,0.8
2025-03-12T0100,2661A,107.6325,35.7357,庆阳市,庆阳五中,颗粒物(PM10),404,504,552,108,103,75,,,,9,14,3,3,0.4,0.4
2025-03-12T0100,2662A,107.6364,35.7067,庆阳市,市环保局,颗粒物(PM10),330,444,527,99,96,82,,,,7,12,4,6,0.3,0.4
2025-03-12T0100,1916A,103.7897,25.5035,曲靖市,环境监测站,,36,36,42,25,23,93,,,,19,14,2,5,0.5,0.4
2025-03-12T0100,1917A,103.8,25.5364,曲靖市,烟厂办公区,,50,50,45,28,25,109,,,,12,10,5,4,0.4,0.4
2025-03-12T0100,3376A,103.7947,25.462,曲靖市,南苑二区,,45,45,42,26,25,104,,,,9,10,6,7,0.4,0.5
2025-03-12T0100,3377A,103.7444,25.5261,曲靖市,曲靖师范学院,细颗粒物(PM2.5),55,57,48,39,34,90,,,,30,18,11,16,0.6,0.5
2025-03-12T0100,1264A,118.8692,28.9398,衢州市,环保大楼,细颗粒物(PM2.5),88,85,108,65,89,1,,,,43,44,3,3,1.2,1.1
2025-03-12T0100,1265A,118.8709,28.9666,衢州市,实验学校,细颗粒物(PM2.5),78,82,98,57,84,3,,,,38,45,2,4,1.3,1.2
2025-03-12T0100,1266A,118.8621,28.9808,衢州市,衢州学院,细颗粒物(PM2.5),64,70,99,46,78,1,,,,38,43,3,2,0.7,0.6
2025-03-12T0100,1611A,118.5819,24.9117,泉州市,涂山街,细颗粒物(PM2.5),70,56,54,51,33,21,,,,44,37,3,3,0.7,0.7
2025-03-12T0100,1612A,118.5972,24.8978,泉州市,津头埔,细颗粒物(PM2.5),58,,53,41,32,22,,,,47,42,2,3,0.7,0.7
2025-03-12T0100,1613A,118.6663,24.9424,泉州市,万安,颗粒物(PM10),60,70,51,39,29,46,,,,22,28,6,4,0.8,0.7
2025-03-12T0100,1614A,118.6117,24.9604,泉州市,清源山,,,,,,,,,,,,,,,,
2025-03-12T0100,3529A,118.6333,24.9264,泉州市,城华南路,"颗粒物(PM10),细颗粒物(PM2.5)",67,84,55,48,28,9,,,,55,36,3,3,0.5,0.5
2025-03-12T0100,2626A,88.8876,29.2718,日喀则市,日喀则监测站,,26,20,25,10,10,83,,,,12,8,3,4,0.5,0.4
2025-03-12T0100,3726A,88.8781,29.2426,日喀则市,林业技术推广中心,,28,14,26,3,6,88,,,,3,3,7,7,0.4,0.4
2025-03-12T0100,1659A,119.471,35.4209,日照市,监测站,细颗粒物(PM2.5),75,68,51,55,36,39,,,,51,43,7,6,3.0,0.7
2025-03-12T0100,1660A,119.523,35.4216,日照市,市政府广场,颗粒物(PM10),53,56,42,28,28,35,,,,62,31,4,3,1.1,0.7
2025-03-12T0100,1661A,119.5587,35.4044,日照市,港务局,细颗粒物(PM2.5),53,53,31,37,28,24,,,,74,31,9,9,0.7,0.6
2025-03-12T0100,3507A,119.5328,35.4625,日照市,职业技术学院,颗粒物(PM10),51,51,37,29,21,50,,,,39,25,3,4,0.9,0.7
2025-03-12T0100,3604A,119.3266,35.1044,日照市,岚山环保分局,,43,39,60,30,43,41,,,,49,30,4,6,0.7,0.7
2025-03-12T0100,1835A,111.1922,34.7752,三门峡市,市政府,颗粒物(PM10),116,181,108,47,67,9,,,,69,30,5,7,0.8,0.7
2025-03-12T0100,1836A,111.1587,34.7942,三门峡市,开发区,颗粒物(PM10),98,146,119,29,68,32,,,,59,29,6,9,0.4,0.6
2025-03-12T0100,1838A,111.143,34.7955,三门峡市,风景区,颗粒物(PM10),123,196,115,51,66,29,,,,41,17,10,13,0.5,0.7
2025-03-12T0100,3039A,111.1911,34.7829,三门峡市,三门峡市第一小学,颗粒物(PM10),125,200,118,29,60,44,,,,47,26,5,9,0.5,0.7
2025-03-12T0100,3598A,111.1,34.7167,三门峡市,富达温泉假日酒店,颗粒物(PM10),115,179,122,26,49,40,,,,34,31,12,13,0.7,0.7
2025-03-12T0100,2324A,117.6211,26.2625,三明市,三钢,,49,42,45,34,38,12,,,,36,28,4,9,1.3,1.9
2025-03-12T0100,2325A,117.635,26.2714,三明市,三明二中,,50,,45,35,35,4,,,,39,28,2,8,0.9,1.6
2025-03-12T0100,2326A,117.6028,26.2378,三明市,三元区政府,,36,36,46,24,33,24,,,,23,25,3,7,0.7,1.4
2025-03-12T0100,2327A,117.7275,26.3108,三明市,洋溪,,,,,,,,,,,,,,,,
2025-03-12T0100,1876A,109.5078,18.2489,三亚市,河东子站,,20,16,26,14,13,61,,,,3,4,4,4,0.5,0.5
