timepoint,stationcode,longitude,latitude,area,positionname,primarypollutant,aqi,pm10,pm10_24h,pm2_5,pm2_5_24h,o3,o3_24h,o3_8h,o3_8h_24h,no2,no2_24h,so2,so2_24h,co,co_24h
2025-03-12T1100,2566A,102.1879,31.914,阿坝藏族羌族自治州,州农科所,,38,38,30,13,8,62,,66,60,8,7,9,9,0.1,0
2025-03-12T1100,2568A,102.2502,31.8896,阿坝藏族羌族自治州,马师校,,23,17,18,16,15,62,,76,66,16,10,5,4,0.6,0.5
2025-03-12T1100,3994A,102.2165,31.9024,阿坝藏族羌族自治州,马尔康中学西区,,23,15,15,11,12,71,,85,76,10,8,6,5,0.5,0.4
2025-03-12T1100,2695A,80.292,41.1694,阿克苏地区,电视台,颗粒物(PM10),500,825,935,138,164,34,,51,43,24,13,7,5,0.7,0.5
2025-03-12T1100,2696A,80.2613,41.1551,阿克苏地区,艺术中心,颗粒物(PM10),500,899,1013,143,164,27,,46,36,32,21,5,4,0.8,0.5
2025-03-12T1100,2204A,105.6467,38.8363,阿拉善盟,西城区西花园,,33,26,97,9,21,103,,93,93,7,12,11,12,0.6,0.7
2025-03-12T1100,2205A,105.6985,38.8411,阿拉善盟,蒙二幼,,33,33,108,7,26,96,,88,87,8,9,5,5,0.5,0.6
2025-03-12T1100,2206A,105.724,38.8516,阿拉善盟,环保局新楼,,,23,101,7,23,94,,96,96,6,4,8,8,,0.9
2025-03-12T1100,2708A,88.1264,47.8517,阿勒泰地区,市站,,,,12,,6,,,72,,,10,,2,,0.4
2025-03-12T1100,2630A,80.1161,32.5,阿里地区,阿里监测站,,27,27,8,8,5,65,,83,74,24,5,11,7,0.5,0.5
2025-03-12T1100,3192A,80.0903,32.5028,阿里地区,阿里藏医院,,22,22,9,9,5,70,,90,80,21,3,13,9,0.6,0.4
2025-03-12T1100,2642A,109.0318,32.6537,安康市,香溪洞,颗粒物(PM10),54,58,43,27,25,22,,44,33,15,10,9,8,0.5,0.4
2025-03-12T1100,2644A,109.0072,32.6975,安康市,汉滨区检察院,,50,50,40,26,26,19,,29,23,23,17,38,9,0.7,0.5
2025-03-12T1100,4054A,109.0325,32.6913,安康市,市邮政管理局,颗粒物(PM10),64,77,48,34,29,21,,17,14,29,25,186,20,0.8,0.6
2025-03-12T1100,2291A,117.0809,30.5177,安庆市,环科院,细颗粒物(PM2.5),74,59,43,54,34,60,,36,36,20,43,6,7,0.8,0.9
2025-03-12T1100,2292A,117.0331,30.5119,安庆市,马山宾馆,细颗粒物(PM2.5),63,48,39,45,34,66,,40,40,18,40,3,4,1.1,0.9
2025-03-12T1100,2294A,116.9896,30.6145,安庆市,安庆大学,细颗粒物(PM2.5),57,49,41,40,30,92,,68,68,5,11,6,7,0.6,0.7
2025-03-12T1100,3173A,117.0598,30.5351,安庆市,市人大,细颗粒物(PM2.5),69,51,41,50,35,70,,44,44,20,35,6,8,0.8,0.8
2025-03-12T1100,3122A,105.9606,26.2611,安顺市,伍家关,,26,9,28,6,25,81,,80,77,11,10,8,7,0.6,0.7
2025-03-12T1100,3123A,105.9408,26.2431,安顺市,凤凰山,,23,16,34,9,29,73,,77,73,16,11,14,13,0.7,0.7
2025-03-12T1100,3124A,105.9439,26.2564,安顺市,金钟山,,24,18,31,9,27,74,,75,72,12,9,13,11,0.6,0.6
2025-03-12T1100,3125A,105.8983,26.2481,安顺市,娄家坡,,22,17,32,12,29,68,,73,69,16,10,22,10,0.8,0.7
2025-03-12T1100,1818A,114.4839,36.0621,安阳市,棉研所,,,,,,,,,,,,,,,,
2025-03-12T1100,1819A,114.3551,36.1017,安阳市,红庙街,颗粒物(PM10),146,242,122,41,86,81,,29,29,9,27,9,6,0.7,0.8
2025-03-12T1100,1820A,114.361,36.0681,安阳市,银杏小区,颗粒物(PM10),142,234,111,29,90,94,,26,26,16,27,7,4,0.7,0.8
2025-03-12T1100,3141A,114.3922,36.0878,安阳市,信访局,颗粒物(PM10),142,233,121,25,83,92,,34,34,,28,,2,0.8,0.8
2025-03-12T1100,3669A,114.4705,36.0637,安阳市,左辅环卫站,颗粒物(PM10),145,240,143,40,89,76,,31,31,26,39,6,4,0.5,0.5
2025-03-12T1100,3703A,114.2917,36.0949,安阳市,安钢职工学校,颗粒物(PM10),154,257,133,36,79,77,,35,35,16,29,9,5,1.1,0.8
2025-03-12T1100,1748A,123.044,41.1196,鞍山市,深沟寺,,42,42,62,9,46,76,,63,51,15,19,17,12,0.8,0.8
2025-03-12T1100,1749A,123.011,41.0931,鞍山市,太阳城,颗粒物(PM10),51,52,68,19,46,90,,69,62,11,16,8,7,0.6,0.9
2025-03-12T1100,1750A,123.0485,41.1442,鞍山市,太平,,40,40,70,10,41,80,,71,58,15,18,19,12,0.9,0.9
2025-03-12T1100,1751A,122.9642,41.0971,鞍山市,铁西三道街,,,39,74,11,46,78,,71,59,,31,5,9,0.6,0.9
2025-03-12T1100,1753A,123.022,41.0821,鞍山市,明达新区,,34,34,63,12,42,80,,72,62,10,15,8,8,0.5,0.7
2025-03-12T1100,1754A,123.1289,41.0228,鞍山市,千山,,,,50,,29,,,99,,,11,,6,,0.7
2025-03-12T1100,4201A,122.9446,41.0826,鞍山市,兴盛南路290号,,38,38,77,10,46,79,,68,60,20,22,10,12,0.5,0.9
2025-03-12T1100,2195A,107.4212,40.761,巴彦淖尔市,附二中,颗粒物(PM10),81,111,147,29,33,62,,64,61,17,9,7,7,0.6,0.5
2025-03-12T1100,2196A,107.37,40.7372,巴彦淖尔市,市环保大楼,,,103,129,32,41,,,58,54,15,9,5,4,0.2,0.2
2025-03-12T1100,1956A,86.1472,41.7538,巴音郭楞蒙古自治州,孔雀公园,,47,47,319,15,58,71,,57,57,20,24,6,5,0.3,0.4
2025-03-12T1100,1957A,86.1972,41.7166,巴音郭楞蒙古自治州,棉纺厂,颗粒物(PM10),69,87,342,17,50,74,,59,59,20,25,6,3,0.3,0.4
2025-03-12T1100,1958A,86.2357,41.7173,巴音郭楞蒙古自治州,经济开发区,颗粒物(PM10),66,81,265,10,37,88,,88,88,9,13,5,4,0.3,0.3
2025-03-12T1100,2914A,106.7677,31.8794,巴中市,苏山坪,颗粒物(PM10),56,62,39,23,22,82,,62,62,6,13,4,4,0.2,0.3
2025-03-12T1100,3181A,106.7768,31.8526,巴中市,市五中,颗粒物(PM10),51,51,43,33,31,26,,8,8,29,27,4,4,0.9,0.7
2025-03-12T1100,3183A,106.7418,31.8654,巴中市,圣泉水务公司,,47,47,38,24,27,50,,17,17,20,32,7,7,0.6,0.7
2025-03-12T1100,3616A,106.7616,31.8344,巴中市,市中心医院,细颗粒物(PM2.5),64,46,43,46,37,10,,4,4,28,31,6,6,0.8,0.6
2025-03-12T1100,2235A,122.7911,45.6077,白城市,洮北区环保局,,29,29,123,17,61,89,,80,80,10,12,6,7,0.3,0.5
2025-03-12T1100,2236A,122.8738,45.5725,白城市,市环保局,,,14,122,10,60,98,,87,87,,16,5,7,0.5,0.7
2025-03-12T1100,2231A,126.4219,41.9171,白山市,喜丰,,,122,54,19,20,,,86,82,8,8,,6,0.9,0.8
2025-03-12T1100,2232A,126.4077,41.9419,白山市,环保局,颗粒物(PM10),74,97,57,21,22,85,,94,89,6,7,5,5,1.0,0.9
2025-03-12T1100,2647A,104.1724,36.5446,白银市,第三小学,颗粒物(PM10),114,177,168,74,37,37,,36,36,63,22,329,64,2.0,1.1
2025-03-12T1100,2648A,104.1465,36.5482,白银市,动力公司,颗粒物(PM10),104,157,153,63,47,44,,42,40,51,19,139,23,1.7,1
2025-03-12T1100,2512A,106.6103,23.9011,百色市,市监测站,细颗粒物(PM2.5),94,83,41,70,23,26,,25,18,37,16,28,14,1.3,0.9
2025-03-12T1100,2513A,106.6538,23.8859,百色市,市中心血站,细颗粒物(PM2.5),87,94,46,64,27,34,,22,17,23,16,23,14,1.0,0.9
2025-03-12T1100,3406A,106.6085,23.8798,百色市,祈福高中,细颗粒物(PM2.5),109,86,51,82,20,20,,11,10,38,22,16,10,1.1,0.8
2025-03-12T1100,2270A,117.396,32.939,蚌埠市,工人疗养院,细颗粒物(PM2.5),178,174,150,134,118,56,,42,38,35,32,4,4,0.7,0.8
2025-03-12T1100,2271A,117.3605,32.9427,蚌埠市,百货大楼,细颗粒物(PM2.5),162,159,144,123,111,60,,40,34,35,34,5,5,0.7,0.6
2025-03-12T1100,2273A,117.4185,32.8911,蚌埠市,蚌埠学院,细颗粒物(PM2.5),153,,118,117,113,84,,43,43,24,32,,5,0.8,0.8
2025-03-12T1100,2274A,117.3533,32.9673,蚌埠市,淮上区政府,细颗粒物(PM2.5),175,149,135,132,118,59,,41,34,35,32,5,5,0.9,0.9
2025-03-12T1100,2275A,117.3145,32.8977,蚌埠市,高新区,细颗粒物(PM2.5),145,112,121,111,112,94,,46,43,25,33,10,6,0.8,0.7
2025-03-12T1100,3715A,117.3092,32.9314,蚌埠市,蚌埠田家炳中学,细颗粒物(PM2.5),169,159,143,128,116,66,,39,32,35,35,6,6,0.8,0.8
2025-03-12T1100,1585A,109.8756,40.6532,包头市,市环境监测站,颗粒物(PM10),119,188,285,56,62,66,,20,20,29,33,22,11,0.8,0.6
2025-03-12T1100,1587A,109.9991,40.5842,包头市,包头八中,颗粒物(PM10),100,150,300,50,68,65,,29,29,25,30,27,13,0.8,0.6
2025-03-12T1100,1588A,109.8538,40.6821,包头市,青山宾馆,颗粒物(PM10),109,168,262,61,58,54,,26,26,39,29,19,8,0.9,0.6
2025-03-12T1100,1589A,109.8642,40.6288,包头市,惠龙物流,颗粒物(PM10),117,183,287,55,51,72,,23,23,28,33,47,15,1.2,0.8
2025-03-12T1100,1590A,110.0377,40.5546,包头市,东河鸿龙湾,颗粒物(PM10),88,126,307,41,55,70,,31,31,18,25,12,7,0.6,0.6
2025-03-12T1100,3283A,109.9154,40.5685,包头市,滨河大厦,颗粒物(PM10),92,134,289,50,70,75,,26,26,19,28,24,11,0.6,0.7
2025-03-12T1100,3419A,109.9447,40.6261,包头市,包头市委党校,颗粒物(PM10),104,158,267,52,48,65,,27,27,,27,28,8,1.0,0.6
2025-03-12T1100,3683A,109.8331,40.6576,包头市,昆区政府,颗粒物(PM10),113,176,261,56,51,67,,28,28,26,29,,10,1.0,0.6
2025-03-12T1100,1930A,107.185,34.3063,宝鸡市,庙沟村,颗粒物(PM10),164,278,502,75,109,62,,61,53,10,10,6,6,0.3,0.2
2025-03-12T1100,1931A,107.0708,34.3017,宝鸡市,竹园沟,颗粒物(PM10),188,325,474,82,108,62,,44,43,15,17,7,6,0.4,0.4
2025-03-12T1100,1932A,107.1906,34.3672,宝鸡市,三陆医院,颗粒物(PM10),140,229,445,68,105,38,,30,29,26,26,8,5,0.5,0.4
2025-03-12T1100,1933A,107.1431,34.3547,宝鸡市,监测站,颗粒物(PM10),141,232,485,67,102,52,,30,30,17,20,9,8,0.5,0.4
2025-03-12T1100,1934A,107.1186,34.3739,宝鸡市,技工学校,颗粒物(PM10),136,221,427,69,102,45,,41,38,21,17,8,9,0.7,0.6
2025-03-12T1100,1935A,107.3906,34.3528,宝鸡市,陈仓区环保局家属楼,颗粒物(PM10),132,214,532,62,98,44,,36,36,29,39,22,26,0.4,0.5
2025-03-12T1100,1936A,107.2058,34.3497,宝鸡市,文理学院,颗粒物(PM10),141,231,487,71,104,45,,34,32,30,30,8,6,0.2,0.2
2025-03-12T1100,1937A,107.2386,34.3622,宝鸡市,三迪小学,颗粒物(PM10),138,226,496,69,105,40,,28,28,30,26,8,7,0.7,0.6
2025-03-12T1100,1051A,115.493,38.8632,保定市,游泳馆,颗粒物(PM10),97,144,192,33,101,95,,64,64,12,32,7,10,0.3,0.5
2025-03-12T1100,1052A,115.5213,38.8959,保定市,华电二区,颗粒物(PM10),91,131,168,32,105,94,,69,69,6,22,5,8,0.3,0.9
2025-03-12T1100,1053A,115.4713,38.9108,保定市,接待中心,颗粒物(PM10),93,136,196,37,109,94,,71,71,7,26,5,7,0.4,0.8
2025-03-12T1100,1054A,115.4612,38.8416,保定市,地表水厂,颗粒物(PM10),111,172,212,39,103,93,,67,67,,32,4,7,0.3,0.7
2025-03-12T1100,3581A,115.31981,38.95208,保定市,满城区生态环境分局,颗粒物(PM10),115,180,232,34,93,98,,78,78,9,23,9,12,0.3,0.6
2025-03-12T1100,3582A,115.47694,38.76408,保定市,清苑区第二中学,颗粒物(PM10),121,192,223,34,96,87,,74,74,21,28,7,10,0.3,0.6
2025-03-12T1100,3583A,115.62909,39.02311,保定市,徐水物探局,颗粒物(PM10),128,206,207,39,105,90,,64,60,12,33,9,11,0.2,0.5
2025-03-12T1100,4004A,115.4202,38.8656,保定市,双鹰农机,,,,189,,100,,,56,53,,37,3,2,0.4,0.8
2025-03-12T1100,4034A,115.5150,38.8590,保定市,植保所站,颗粒物(PM10),100,149,193,28,107,90,,62,62,5,30,1,5,0.3,0.7
2025-03-12T1100,2594A,99.1678,25.1081,保山市,市环境监测站,细颗粒物(PM2.5),77,76,65,56,48,121,,119,108,20,11,5,3,0.7,0.6
2025-03-12T1100,2595A,99.1711,25.1328,保山市,市环保局,颗粒物(PM10),64,78,70,45,46,138,,133,127,13,7,8,7,0.8,0.7
2025-03-12T1100,1866A,109.2262,21.588,北海市,牛尾岭水库,,,23,23,17,16,53,,57,52,,,6,6,0.5,0.5
2025-03-12T1100,1867A,109.1436,21.4086,北海市,海滩公园,,,45,33,22,17,76,,75,74,,9,5,6,0.5,0.7
2025-03-12T1100,1868A,109.0981,21.4661,北海市,新市环保局,,29,29,28,14,16,61,,67,62,11,12,3,3,0.4,0.4
2025-03-12T1100,1869A,109.1778,21.5233,北海市,北海工业园,,36,36,40,24,23,61,,68,58,12,11,7,7,0.4,0.4
2025-03-12T1100,3400A,109.1911,21.4415,北海市,龙潭自来水厂,,36,32,31,25,24,74,,72,70,8,9,6,7,0.5,0.4
2025-03-12T1100,1001A,116.3621,39.8784,北京市,万寿西宫,,30,30,146,7,96,87,,77,77,6,33,2,2,0,0.6
2025-03-12T1100,1002A,116.2202,40.2915,北京市,定陵,,,,,,,,,,,,,,,,
2025-03-12T1100,1003A,116.4174,39.9289,北京市,东四,,29,29,149,6,106,84,,74,74,6,37,5,6,0.3,0.8
2025-03-12T1100,1004A,116.4072,39.8863,北京市,天坛,,31,31,146,7,100,79,,62,62,9,33,4,4,0.5,0.9
2025-03-12T1100,1005A,116.462,39.9365,北京市,农展馆,,28,25,144,6,101,88,,79,79,10,38,6,6,0.3,0.9
2025-03-12T1100,1006A,116.3392,39.9295,北京市,官园,,31,31,149,7,104,73,,65,65,10,30,6,6,0.4,0.8
2025-03-12T1100,1007A,116.2878,39.9611,北京市,海淀万柳,,,,225,,173,,,43,,,53,,5,,1.2
2025-03-12T1100,1008A,116.6636,40.135,北京市,顺义新城,,27,17,190,3,130,86,,24,24,12,60,4,4,0.2,0.8
2025-03-12T1100,1009A,116.6275,40.3275,北京市,怀柔镇,,24,10,137,3,105,76,,49,49,8,25,2,2,0.4,0.9
2025-03-12T1100,1010A,116.2296,40.217,北京市,昌平镇,,33,33,160,7,101,67,,32,32,10,39,2,2,0.4,0.9
2025-03-12T1100,1011A,116.3966,39.9821,北京市,奥体中心,,29,29,152,7,107,81,,65,65,9,43,3,4,0.4,0.9
2025-03-12T1100,3281A,115.9718,40.4529,北京市,延庆夏都,,26,26,129,6,45,76,,63,63,7,14,4,5,0.3,0.5
2025-03-12T1100,3418A,116.8336,40.4095,北京市,密云新城,,23,12,155,3,116,73,,47,47,7,29,4,4,0.3,0.8
2025-03-12T1100,3671A,116.088,39.9726,北京市,门头沟三家店,颗粒物(PM10),53,55,150,10,102,79,,27,27,9,36,4,4,0.2,0.6
2025-03-12T1100,3672A,116.1541,39.8204,北京市,丰台云岗,颗粒物(PM10),53,55,149,11,96,91,,78,78,10,29,4,6,0.3,0.7
2025-03-12T1100,3673A,116.6804,39.9081,北京市,通州东关,,27,27,146,3,101,78,,58,58,6,47,5,6,0.2,0.6
2025-03-12T1100,3674A,115.9577,39.7603,北京市,房山燕山,颗粒物(PM10),79,108,160,18,95,69,,59,57,12,24,3,2,0.2,0.6
2025-03-12T1100,3675A,116.4672,39.7733,北京市,大兴旧宫,,32,32,136,7,88,53,,60,60,6,29,3,2,0.1,0.6
2025-03-12T1100,3694A,115.986,40.4563,北京市,延庆石河营,,26,20,100,3,43,81,,57,57,6,12,3,4,0.3,0.5
2025-03-12T1100,3695A,116.6151,40.3053,北京市,怀柔新城,,25,10,132,3,106,78,,61,61,4,21,3,4,0.4,0.8
2025-03-12T1100,3696A,116.2545,39.8768,北京市,丰台小屯,,41,41,150,8,94,75,,37,37,8,45,1,2,0.3,0.7
2025-03-12T1100,3697A,116.84,40.3844,北京市,密云镇,,24,19,166,6,113,76,,23,23,8,44,4,5,0.2,0.8
2025-03-12T1100,4182A,116.1942,39.9158,北京市,八角北路9号,颗粒物(PM10),51,51,153,9,96,89,,58,57,8,37,1,1,0,0.5
2025-03-12T1100,4194A,117.0790,40.1518,北京市,洳河巡河路,,26,6,136,3,101,81,,53,53,4,23,1,3,0.2,0.6
2025-03-12T1100,1761A,123.8275,41.3064,本溪市,大峪,颗粒物(PM10),51,52,57,24,39,82,,89,77,9,12,11,11,0.7,0.8
2025-03-12T1100,1762A,123.7567,41.3325,本溪市,溪湖,,50,50,58,14,36,84,,77,75,10,19,10,13,0.5,1.1
2025-03-12T1100,1763A,123.7169,41.3094,本溪市,彩屯,颗粒物(PM10),53,56,76,23,47,80,,71,71,10,26,9,18,0.5,2
2025-03-12T1100,1764A,123.7669,41.2864,本溪市,东明,颗粒物(PM10),81,112,59,21,26,74,,80,70,15,15,16,9,1.0,0.9
2025-03-12T1100,1765A,123.7992,41.2664,本溪市,新立屯,颗粒物(PM10),71,91,48,15,34,89,,84,74,12,18,11,7,0.8,0.7
2025-03-12T1100,1766A,123.8142,41.3472,本溪市,威宁,颗粒物(PM10),82,114,71,10,34,84,,83,75,6,11,6,5,0.5,0.7
2025-03-12T1100,2587A,105.2864,27.3125,毕节市,八中,,32,29,20,22,16,77,,76,76,12,10,14,8,0.7,0.7
2025-03-12T1100,2588A,105.31,27.2944,毕节市,师专,,32,30,22,22,18,63,,78,75,28,12,9,6,0.8,0.8
2025-03-12T1100,4263A,105.3688,27.3598,毕节市,工业大道,,,28,26,21,21,,,80,80,18,11,10,7,,0.6
2025-03-12T1100,1629A,118.0018,37.3617,滨州市,第二水厂,颗粒物(PM10),114,178,149,39,90,77,,63,56,6,16,7,9,0.2,0.6
2025-03-12T1100,1630A,117.9776,37.393,滨州市,北中新校,颗粒物(PM10),112,173,145,44,88,82,,64,55,15,25,9,12,0.4,0.8
2025-03-12T1100,3514A,117.9378,37.3956,滨州市,中海酒店,颗粒物(PM10),113,175,137,58,98,80,,70,58,12,22,9,10,0.3,0.7
2025-03-12T1100,3515A,117.9378,37.3553,滨州市,开发区一中,颗粒物(PM10),120,190,146,46,85,73,,59,52,17,29,10,12,0.3,0.6
2025-03-12T1100,3516A,118.0917,37.694,滨州市,金海六路,颗粒物(PM10),128,205,131,44,83,,,27,21,20,35,10,12,0.5,0.8
2025-03-12T1100,4028A,117.9956,37.3753,滨州市,滨州市西街道办事处,颗粒物(PM10),117,183,143,48,97,84,,71,62,8,16,7,8,0.5,0.9
2025-03-12T1100,2311A,115.8072,33.8399,亳州市,污水处理厂,细颗粒物(PM2.5),152,152,111,116,78,90,,41,41,20,26,5,5,,0.7
2025-03-12T1100,2312A,115.7789,33.8518,亳州市,三国揽胜宫,细颗粒物(PM2.5),113,135,111,85,78,86,,44,44,15,19,6,5,0.6,0.6
2025-03-12T1100,3332A,115.7633,33.8034,亳州市,亳州学院,细颗粒物(PM2.5),139,162,120,106,78,82,,56,56,26,22,6,5,0.8,0.7
2025-03-12T1100,2693A,82.0485,44.8556,博尔塔拉蒙古自治州,市党校,,24,24,33,12,15,71,,58,58,12,12,6,6,0.2,0.7
2025-03-12T1100,2694A,82.0806,44.8969,博尔塔拉蒙古自治州,市环保局,,33,33,37,11,14,75,,62,57,28,17,4,4,0.4,0.4
2025-03-12T1100,1071A,116.8842,38.2991,沧州市,沧县城建局,颗粒物(PM10),102,153,170,46,121,76,,35,35,19,32,3,4,0.4,0.8
2025-03-12T1100,1072A,116.8584,38.3254,沧州市,电视转播站,,,,161,,121,76,,27,27,18,35,,6,0.5,0.7
2025-03-12T1100,1073A,116.8709,38.3228,沧州市,市环保局,颗粒物(PM10),91,132,158,55,115,75,,36,36,19,32,2,4,0.4,0.8
2025-03-12T1100,3324A,116.8136,38.3004,沧州市,河北水利电力学院,颗粒物(PM10),123,195,173,67,110,87,,28,28,18,41,8,10,0.4,0.8
2025-03-12T1100,2622A,97.1806,31.1273,昌都市,昌都监测站,,25,25,16,12,10,59,,72,62,19,9,7,6,0.8,0.6
2025-03-12T1100,3719A,97.1714,31.1406,昌都市,昌都会议中心,,25,14,12,12,11,79,,89,78,11,4,2,2,0.5,0.4
2025-03-12T1100,2690A,88.1236,43.8886,昌吉回族自治州,天山天池,,28,12,8,3,3,88,,86,86,3,3,6,5,0.3,0.3
2025-03-12T1100,2692A,87.2717,44.0297,昌吉回族自治州,新区政务中心,颗粒物(PM10),53,56,37,18,9,67,,52,51,19,22,11,7,0.5,0.5
2025-03-12T1100,3613A,87.3095,44.0142,昌吉回族自治州,亚心广场,颗粒物(PM10),62,73,47,29,21,58,,52,49,33,27,10,8,0.6,0.5
2025-03-12T1100,1119A,125.3325,43.9166,长春市,食品厂,颗粒物(PM10),84,117,123,13,53,88,,77,77,8,15,6,10,0.2,0.5
2025-03-12T1100,1120A,125.2863,43.9027,长春市,客车厂,颗粒物(PM10),90,129,121,12,58,80,,69,69,11,18,4,8,0.4,0.6
2025-03-12T1100,1121A,125.2841,43.8463,长春市,邮电学院,,,,123,,54,,,73,71,11,18,6,10,0.4,0.7
2025-03-12T1100,1122A,125.3716,43.8772,长春市,劳动公园,颗粒物(PM10),71,92,112,9,46,84,,75,74,4,10,5,9,0.3,0.5
2025-03-12T1100,1123A,125.3297,43.8805,长春市,园林处,,,97,114,16,53,85,,74,73,,12,5,9,0.5,0.6
2025-03-12T1100,1124A,125.4605,43.79,长春市,净月潭,颗粒物(PM10),70,90,95,7,44,83,,72,72,6,9,5,8,0.2,0.5
2025-03-12T1100,1125A,125.7194,43.515,长春市,甩湾子,,,,,,,,,,,,,,,,
2025-03-12T1100,1126A,125.3863,43.8447,长春市,经开区环卫处,颗粒物(PM10),73,95,109,9,47,81,,72,72,6,10,4,8,0.3,0.5
2025-03-12T1100,1127A,125.245,43.7783,长春市,高新区管委会,,,,68,,65,,,112,,,14,,9,,0.6
2025-03-12T1100,1128A,125.1761,43.8325,长春市,岱山公园,颗粒物(PM10),80,110,107,8,52,88,,77,77,8,17,4,7,0.2,0.4
2025-03-12T1100,1335A,113.0833,28.2325,长沙市,经开区环保局,细颗粒物(PM2.5),82,,42,60,39,15,,29,26,31,29,5,6,0.8,0.8
2025-03-12T1100,1336A,112.8872,28.2189,长沙市,高开区环保局,细颗粒物(PM2.5),97,,45,72,44,27,,43,38,13,21,3,5,0.8,0.8
2025-03-12T1100,1337A,113.0792,28.2053,长沙市,马坡岭,细颗粒物(PM2.5),68,52,45,49,35,19,,32,30,23,23,3,4,0.7,0.7
2025-03-12T1100,1338A,112.9394,28.19,长沙市,湖南师范大学,细颗粒物(PM2.5),79,69,48,58,37,24,,41,37,13,20,1,2,0.8,0.9
2025-03-12T1100,1339A,113.0178,28.1322,长沙市,雨花区环保局,细颗粒物(PM2.5),115,,46,87,49,21,,31,29,27,28,4,5,0.8,0.8
2025-03-12T1100,1340A,112.9792,28.2597,长沙市,伍家岭,细颗粒物(PM2.5),83,76,52,61,38,15,,33,29,23,23,2,3,0.8,0.8
2025-03-12T1100,1341A,113.0014,28.1944,长沙市,火车新站,细颗粒物(PM2.5),79,64,46,58,34,20,,39,35,22,24,5,6,1.1,1.1
2025-03-12T1100,1342A,112.9844,28.1178,长沙市,天心区环保局,细颗粒物(PM2.5),65,59,46,47,35,25,,38,35,27,31,2,3,0.8,1
2025-03-12T1100,1343A,112.8908,28.1308,长沙市,湖南中医药大学,细颗粒物(PM2.5),90,,46,67,40,23,,40,36,15,22,2,3,0.7,0.8
2025-03-12T1100,1344A,112.9581,28.3611,长沙市,沙坪,颗粒物(PM10),57,63,38,34,22,22,,37,33,15,15,5,6,1.2,1.1
2025-03-12T1100,1727A,113.1147,36.1547,长治市,清华站,颗粒物(PM10),170,290,138,58,46,73,,23,23,19,30,11,14,1.0,1
2025-03-12T1100,1730A,113.0886,36.2125,长治市,审计局,颗粒物(PM10),161,271,124,78,46,59,,28,24,37,34,17,11,0.8,0.6
2025-03-12T1100,1731A,113.0844,36.1856,长治市,长治八中,颗粒物(PM10),188,325,157,94,51,64,,24,24,26,29,18,12,0.7,0.5
2025-03-12T1100,2845A,113.1569,36.1911,长治市,德盛苑,颗粒物(PM10),178,306,177,66,52,63,,53,52,31,24,15,13,0.9,1
2025-03-12T1100,3568A,113.06,36.0464,长治市,向阳小学,颗粒物(PM10),143,236,158,44,50,83,,43,43,11,21,17,20,0.5,0.7
2025-03-12T1100,3569A,112.8792,36.3144,长治市,屯留一中,颗粒物(PM10),119,187,133,48,36,69,,28,28,21,36,9,10,0.3,0.4
2025-03-12T1100,4189A,113.1131,36.19948,长治市,英华南巷50号,颗粒物(PM10),174,297,148,73,48,73,,25,25,28,32,20,15,0.8,0.7
2025-03-12T1100,4190A,113.2367,36.3344,长治市,学府街1号,颗粒物(PM10),196,342,206,83,56,69,,24,24,24,35,22,16,1.1,1.2
2025-03-12T1100,1854A,111.6975,28.9703,常德市,市二中,细颗粒物(PM2.5),99,,46,74,44,18,,15,14,20,12,11,5,0.8,0.8
2025-03-12T1100,1857A,111.7158,29.1456,常德市,白鹤山,,,,,,,,,,,,,,,,
2025-03-12T1100,3138A,111.7153,29.0289,常德市,武陵区永安,细颗粒物(PM2.5),74,71,50,54,40,17,,16,12,20,12,2,3,1.0,0.8
2025-03-12T1100,3139A,111.6892,28.9881,常德市,鼎城区玉霞,细颗粒物(PM2.5),69,85,53,50,36,18,,12,11,23,17,11,4,0.8,0.8
2025-03-12T1100,3140A,111.6625,29.0531,常德市,武陵区长庚,颗粒物(PM10),77,103,71,50,42,8,,14,9,19,9,6,4,1.0,0.8
2025-03-12T1100,1196A,119.9633,31.762,常州市,市监测站,细颗粒物(PM2.5),73,78,88,53,54,24,,11,11,51,53,10,10,1.4,1
2025-03-12T1100,1200A,119.9468,31.7069,常州市,武进监测站,颗粒物(PM10),59,67,74,39,42,24,,8,8,49,49,4,3,1.7,1.1
2025-03-12T1100,1201A,119.9255,31.9087,常州市,安家,"颗粒物(PM10),细颗粒物(PM2.5)",69,87,97,50,60,18,,13,13,36,55,8,9,0.9,1.1
2025-03-12T1100,3002A,119.9805,31.8174,常州市,行政中心,细颗粒物(PM2.5),67,64,84,48,63,23,,10,10,40,55,13,14,0.8,1
2025-03-12T1100,3003A,120.0522,31.7748,常州市,经开区,颗粒物(PM10),55,60,85,38,54,24,,12,12,42,55,8,8,0.9,0.9
2025-03-12T1100,3010A,119.9025,31.7964,常州市,钟楼,颗粒物(PM10),61,72,80,41,55,17,,10,10,44,49,8,8,1.1,1.1
2025-03-12T1100,3429A,119.8598,31.7066,常州市,武进经发区,颗粒物(PM10),53,55,63,34,39,13,,8,8,60,55,7,8,1.8,1.2
2025-03-12T1100,3430A,119.5826,31.7245,常州市,金坛城区,,43,43,56,26,31,23,,12,12,30,38,8,7,1.2,1
2025-03-12T1100,2220A,120.4318,41.5881,朝阳市,西梁,,,69,111,8,37,,,84,84,9,14,7,9,0.6,0.9
2025-03-12T1100,2221A,120.4521,41.5646,朝阳市,河畔小区,颗粒物(PM10),60,70,96,3,37,89,,84,84,12,16,6,8,0.4,0.8
2025-03-12T1100,2222A,120.4176,41.5648,朝阳市,八里堡,颗粒物(PM10),111,172,110,13,39,84,,78,78,10,16,8,10,0.4,0.7
2025-03-12T1100,2223A,120.3806,41.5969,朝阳市,农业园区,颗粒物(PM10),93,136,122,7,43,91,,88,88,12,13,6,9,0.4,0.7
2025-03-12T1100,1705A,116.6367,23.6719,潮州市,西园路,,,43,58,20,47,40,,32,27,17,22,,6,0.5,0.4
2025-03-12T1100,3026A,116.6183,23.6608,潮州市,市政府,细颗粒物(PM2.5),57,43,62,40,53,44,,37,35,29,29,7,6,0.9,0.6
2025-03-12T1100,4036A,116.6461,23.6761,潮州市,金山,,37,37,57,23,50,40,,26,26,15,23,5,7,0.7,0.7
2025-03-12T1100,2472A,113.0073,25.9061,郴州市,马头岭,颗粒物(PM10),57,64,48,38,25,32,,41,28,26,21,13,10,0.4,0.5
2025-03-12T1100,2473A,113.0116,25.8226,郴州市,市职中,细颗粒物(PM2.5),65,50,48,47,34,31,,14,14,19,26,19,9,1.2,0.8
2025-03-12T1100,2475A,113.0383,25.8071,郴州市,市审计局,细颗粒物(PM2.5),62,54,45,44,34,28,,12,12,17,24,17,6,1.1,0.8
2025-03-12T1100,2476A,113.0348,25.7759,郴州市,市环保局,细颗粒物(PM2.5),102,84,54,76,34,26,,25,18,23,21,,18,1.3,0.6
2025-03-12T1100,4252A,113.0138,25.8011,郴州市,好美居路49号,细颗粒物(PM2.5),62,63,49,44,34,32,,22,17,18,24,20,10,1.2,0.8
2025-03-12T1100,1431A,103.9728,30.7236,成都市,金泉两河,颗粒物(PM10),78,105,76,17,35,59,,37,37,23,24,3,2,0.4,0.6
2025-03-12T1100,1432A,104.176,30.6872,成都市,十里店,颗粒物(PM10),87,123,70,28,38,54,,41,41,36,35,3,3,0.5,0.7
2025-03-12T1100,1433A,104.079,30.5706,成都市,三瓦窑,颗粒物(PM10),92,134,79,32,39,66,,49,49,27,35,3,4,0.6,0.7
2025-03-12T1100,1434A,104.1114,30.63,成都市,沙河铺,颗粒物(PM10),84,118,76,33,45,53,,40,40,30,29,5,5,0.6,0.8
2025-03-12T1100,1437A,104.0786,30.6531,成都市,君平街,颗粒物(PM10),80,109,70,27,40,61,,45,45,32,34,6,6,0.6,0.7
2025-03-12T1100,1438A,103.613,31.0283,成都市,灵岩寺,,,,,,,,,,,,,,,,
2025-03-12T1100,2880A,104.0239,30.65639,成都市,大石西路,颗粒物(PM10),80,109,71,30,39,64,,41,41,26,35,5,5,0.6,0.8
2025-03-12T1100,3136A,104.2725,30.5589,成都市,龙泉驿区区政府,颗粒物(PM10),104,158,67,44,37,53,,51,51,29,24,4,4,0.6,0.7
2025-03-12T1100,3357A,104.0106,30.6931,成都市,金博路,颗粒物(PM10),70,89,60,14,31,52,,36,36,27,27,6,6,0.6,0.8
2025-03-12T1100,3359A,104.0578,30.5225,成都市,华阳,颗粒物(PM10),90,129,69,46,41,58,,40,40,28,33,6,6,0.5,0.7
2025-03-12T1100,3488A,104.3853,30.7453,成都市,青白江技师分院,颗粒物(PM10),101,152,72,50,41,68,,50,50,23,29,5,5,0.4,0.6
2025-03-12T1100,3489A,104.0789,30.4072,成都市,科学城,,,99,55,33,39,64,,47,47,,27,4,5,0.4,0.6
2025-03-12T1100,4011A,103.8506,30.6947,成都市,光华大道三段,颗粒物(PM10),60,70,71,3,38,55,,42,42,34,29,5,4,0.6,0.7
2025-03-12T1100,4224A,104.2433,30.5353,成都市,鲸龙路1057号,颗粒物(PM10),88,126,64,33,37,54,,48,48,34,27,4,4,0.6,0.8
2025-03-12T1100,1062A,117.9531,40.9081,承德市,铁路,,,,105,,66,,,49,49,8,32,4,7,0.2,0.8
2025-03-12T1100,1063A,117.9392,40.9763,承德市,中国银行,,26,21,96,3,60,83,,41,41,4,24,2,4,0.2,0.7
2025-03-12T1100,1064A,117.9503,40.928,承德市,开发区,,30,30,94,12,60,88,,49,49,11,31,4,7,0.3,0.8
2025-03-12T1100,1065A,117.8051,40.9655,承德市,文化中心,,27,8,116,3,60,85,,53,53,7,27,3,8,0.2,0.7
2025-03-12T1100,1066A,117.9268,41.0026,承德市,离宫,,25,11,95,7,65,79,,63,63,5,15,5,7,0.2,0.5
2025-03-12T1100,2314A,117.47,30.6618,池州市,池州学院,细颗粒物(PM2.5),72,60,44,52,33,40,,15,15,18,34,4,8,0.8,1.4
2025-03-12T1100,3237A,117.4918,30.6617,池州市,展览馆,细颗粒物(PM2.5),58,59,43,41,28,38,,16,16,18,30,5,8,0.9,1.3
2025-03-12T1100,3333A,117.5627,30.695,池州市,第八中学,细颗粒物(PM2.5),54,50,44,38,32,44,,31,31,16,30,5,9,0.8,1
2025-03-12T1100,3334A,117.5038,30.6243,池州市,第十二中学,细颗粒物(PM2.5),63,52,42,45,34,48,,18,18,19,30,6,10,0.9,1.4
2025-03-12T1100,1744A,118.9233,42.2816,赤峰市,松山一中,颗粒物(PM10),52,53,210,3,32,90,,90,89,13,14,9,8,0.5,0.6
2025-03-12T1100,1745A,118.9576,42.2728,赤峰市,哈达街,,,39,179,3,28,74,,84,79,14,15,,11,0.5,0.5
2025-03-12T1100,1746A,118.8788,42.2554,赤峰市,天义路,,,77,201,7,44,,,77,76,13,15,7,7,0.4,0.4
2025-03-12T1100,3058A,119.2658,42.0353,赤峰市,银河街,颗粒物(PM10),100,150,169,13,36,79,,77,77,15,17,12,14,0.4,0.5
2025-03-12T1100,3286A,118.9359,42.3147,赤峰市,桥北物流园区,,42,42,168,3,40,75,,74,74,6,13,7,6,0.6,0.6
2025-03-12T1100,2521A,107.3476,22.4136,崇左市,市环保局江州分局,,,40,44,19,24,41,,26,25,11,13,,6,0.5,0.6
2025-03-12T1100,4256A,107.3750,22.3736,崇左市,石景林东路7号,,23,21,38,16,25,43,,31,30,10,14,4,5,0.5,0.5
2025-03-12T1100,2298A,118.3093,32.3153,滁州市,老年大学,细颗粒物(PM2.5),147,,92,112,87,15,,32,16,26,30,9,10,0.8,0.8
2025-03-12T1100,2299A,118.3244,32.2786,滁州市,人大宾馆,细颗粒物(PM2.5),138,,97,105,89,13,,30,15,40,40,8,10,0.8,0.8
2025-03-12T1100,3207A,118.3118,32.3038,滁州市,市政府原办公楼,细颗粒物(PM2.5),139,,96,106,87,12,,32,14,29,29,6,7,0.7,0.7
2025-03-12T1100,3331A,118.3267,32.2634,滁州市,图书馆,细颗粒物(PM2.5),104,102,101,78,70,12,,30,14,36,36,6,9,0.7,0.8
2025-03-12T1100,2605A,101.5482,25.0441,楚雄彝族自治州,州环境监测站,,,,51,,40,148,,58,58,9,21,7,8,,0.7
2025-03-12T1100,2606A,101.538,25.0492,楚雄彝族自治州,市经济开发区,细颗粒物(PM2.5),83,67,55,61,42,146,,72,72,9,20,8,8,0.8,0.7
2025-03-12T1100,2548A,107.5277,31.2827,达州市,达州职业技术学院,细颗粒物(PM2.5),54,52,53,38,31,7,,5,5,25,26,5,7,0.5,0.4
2025-03-12T1100,2549A,107.5086,31.2186,达州市,市环境监测站,"颗粒物(PM10),细颗粒物(PM2.5)",55,60,63,39,36,3,,2,2,39,47,5,7,1.0,0.9
2025-03-12T1100,2550A,107.4988,31.2132,达州市,凤凰小区,细颗粒物(PM2.5),55,53,68,39,41,7,,5,5,37,45,7,10,0.9,1
2025-03-12T1100,2551A,107.5082,31.1986,达州市,达县机关宾馆,细颗粒物(PM2.5),65,51,64,47,40,4,,2,2,38,42,5,8,1.0,0.9
2025-03-12T1100,2552A,107.4644,31.2124,达州市,市政中心,,,63,68,39,36,,,2,2,42,49,3,6,1.1,1
2025-03-12T1100,2614A,100.1542,25.7054,大理白族自治州,大理市环境监测站,细颗粒物(PM2.5),65,56,52,47,36,131,,141,124,12,10,8,8,0.7,0.7
2025-03-12T1100,2615A,100.2171,25.5811,大理白族自治州,大理古城,细颗粒物(PM2.5),59,61,44,42,34,135,,129,127,10,9,8,7,0.7,0.5
2025-03-12T1100,1109A,121.612,38.9741,大连市,甘井子,细颗粒物(PM2.5),122,132,66,92,44,84,,62,62,31,34,8,7,0.9,0.6
2025-03-12T1100,1110A,121.565,38.9511,大连市,周水子,细颗粒物(PM2.5),97,104,70,72,51,83,,57,57,22,29,6,9,0.6,0.6
2025-03-12T1100,1111A,121.5637,38.8845,大连市,星海三站,"颗粒物(PM10),细颗粒物(PM2.5)",63,75,48,45,35,91,,68,68,9,13,9,8,0.7,0.6
2025-03-12T1100,1112A,121.6302,38.9117,大连市,青泥洼桥,细颗粒物(PM2.5),88,,51,65,39,87,,59,59,20,17,10,8,0.7,0.6
2025-03-12T1100,1113A,121.6251,38.8638,大连市,傅家庄,,,78,50,44,34,86,,61,59,20,21,,7,0.8,0.6
2025-03-12T1100,1114A,121.5213,38.8661,大连市,七贤岭,,,50,52,24,32,,,61,61,10,19,9,8,,0.5
2025-03-12T1100,1115A,121.2529,38.8061,大连市,旅顺,细颗粒物(PM2.5),74,74,56,54,47,81,,48,48,16,35,6,6,0.7,0.5
2025-03-12T1100,1116A,121.7485,39.1311,大连市,金州,颗粒物(PM10),61,71,70,39,43,87,,57,54,18,29,9,9,0.7,0.6
2025-03-12T1100,1117A,121.7811,39.0496,大连市,开发区,细颗粒物(PM2.5),119,117,64,90,45,67,,54,48,36,28,13,8,1.1,0.7
2025-03-12T1100,1118A,121.9762,39.0631,大连市,双D港,颗粒物(PM10),69,88,57,32,61,93,,62,62,15,27,9,10,0.7,0.7
2025-03-12T1100,1789A,124.81117,46.03138,大庆市,大同区,,48,48,158,20,56,75,,69,69,9,15,4,6,0.3,0.6
2025-03-12T1100,1790A,125.129,46.533,大庆市,龙凤区,,46,46,134,19,49,77,,64,64,11,14,6,7,0.4,0.6
2025-03-12T1100,1791A,124.902,46.408,大庆市,红岗区,,41,41,127,15,55,86,,75,75,8,12,5,5,0.3,0.6
2025-03-12T1100,1792A,125.153,46.586,大庆市,萨尔图区,,,42,156,14,55,,,60,58,16,19,8,8,0.3,0.4
2025-03-12T1100,1793A,124.9042,46.6215,大庆市,让胡路区,,41,41,137,17,57,75,,64,64,10,18,7,8,0.5,0.7
2025-03-12T1100,3481A,125.141,46.634,大庆市,萨区政府监测点,,42,42,150,17,54,80,,67,67,11,17,8,9,0.4,0.6
2025-03-12T1100,1721A,113.3819,40.1097,大同市,果树场,颗粒物(PM10),124,197,279,31,55,74,,26,26,14,28,13,12,0.4,1
2025-03-12T1100,1723A,113.2994,40.0758,大同市,云冈宾馆,颗粒物(PM10),127,203,270,34,43,83,,55,55,14,19,13,10,0.5,0.5
2025-03-12T1100,1724A,113.3444,40.0917,大同市,大同大学,颗粒物(PM10),131,211,267,45,57,80,,45,45,10,19,13,12,0.4,0.5
2025-03-12T1100,1725A,113.2661,40.1269,大同市,安家小村,颗粒物(PM10),152,254,302,43,53,82,,40,40,,18,12,10,,0.4
2025-03-12T1100,1726A,113.2711,40.0844,大同市,教育学院,颗粒物(PM10),135,219,288,46,62,82,,53,53,12,18,11,10,0.5,0.4
2025-03-12T1100,3282A,113.3397,40.0597,大同市,大同市卫生学校,颗粒物(PM10),131,212,288,48,56,74,,44,43,18,22,13,9,0.5,0.5
2025-03-12T1100,3565A,113.1367,40.1122,大同市,云冈站,颗粒物(PM10),127,204,273,56,63,81,,36,36,10,15,14,18,0.6,0.5
2025-03-12T1100,3566A,113.1186,40.2556,大同市,图书馆,颗粒物(PM10),133,215,287,53,60,78,,46,46,9,10,12,10,0.7,0.7
2025-03-12T1100,3567A,113.5931,40.0461,大同市,区一中,颗粒物(PM10),170,289,326,28,33,70,,41,41,24,18,32,19,0.5,0.5
2025-03-12T1100,4199A,113.2798,40.0997,大同市,魏都大道141号,颗粒物(PM10),146,241,295,44,61,79,,38,38,12,22,16,14,0.5,0.6
2025-03-12T1100,2269A,124.1069,50.4097,大兴安岭地区,科技局,,46,46,34,16,18,82,,83,82,4,6,6,7,0.4,0.4
2025-03-12T1100,3663A,124.1164,50.4278,大兴安岭地区,红旗社区,,,27,16,3,9,84,,90,87,,6,,4,0.3,0.4
2025-03-12T1100,1600A,124.3303,40.0625,丹东市,江湾东路,,50,50,48,34,35,80,,96,86,16,13,17,10,0.6,0.6
2025-03-12T1100,1601A,124.4256,40.1503,丹东市,临江后街,细颗粒物(PM2.5),54,,68,38,47,80,,88,86,20,15,10,9,1.1,0.8
2025-03-12T1100,1602A,124.3933,40.1461,丹东市,元宝山,,,46,42,27,30,,,87,82,22,16,9,7,0.9,0.8
2025-03-12T1100,1603A,124.3633,40.1092,丹东市,民主桥,,49,41,46,34,29,76,,92,85,14,10,6,7,0.8,0.8
2025-03-12T1100,3541A,109.5726,19.5167,儋州市,第一中学子站,,26,26,20,13,10,39,,32,27,3,4,5,4,0.7,0.7
2025-03-12T1100,3542A,109.5567,19.5187,儋州市,东坡学校子站,,36,36,25,12,10,46,,30,26,4,5,8,4,0.6,0.5
2025-03-12T1100,2616A,98.5842,24.428,德宏傣族景颇族自治州,德宏州监测站,细颗粒物(PM2.5),115,117,86,87,64,50,,40,30,37,28,13,9,1.1,0.9
2025-03-12T1100,3677A,98.5881,24.4368,德宏傣族景颇族自治州,芒市人民政府综合楼,细颗粒物(PM2.5),110,131,108,83,63,48,,77,61,44,19,10,9,1.0,0.7
2025-03-12T1100,1901A,104.4239,31.1208,德阳市,东山公园,,,,74,,44,73,,67,67,10,25,2,3,,0.7
2025-03-12T1100,1902A,104.3826,31.1317,德阳市,西小区,颗粒物(PM10),80,109,81,42,49,60,,60,60,24,28,4,4,0.5,0.7
2025-03-12T1100,1904A,104.3553,31.1091,德阳市,耐火材料厂,颗粒物(PM10),79,108,79,37,50,63,,59,59,22,29,6,7,0.3,0.5
2025-03-12T1100,3639A,104.4019,31.1244,德阳市,市教育局,颗粒物(PM10),78,106,74,38,45,59,,62,62,25,30,4,4,0.5,0.7
2025-03-12T1100,1622A,116.3032,37.4674,德州市,儿童乐园,颗粒物(PM10),153,256,158,58,89,87,,42,42,18,26,6,7,0.6,0.9
2025-03-12T1100,1624A,116.2991,37.4451,德州市,监理站,颗粒物(PM10),150,249,146,53,87,,,38,34,20,32,14,15,0.6,0.8
2025-03-12T1100,3066A,116.2721,37.4379,德州市,九衢泉纯净水厂,颗粒物(PM10),148,246,147,61,77,83,,34,34,19,36,10,8,0.6,0.8
2025-03-12T1100,3371A,116.3728,37.4403,德州市,开发区人民医院,颗粒物(PM10),139,227,150,51,75,82,,48,46,15,23,11,11,0.5,0.6
2025-03-12T1100,3372A,116.3572,37.4094,德州市,太阳城中学,颗粒物(PM10),147,244,150,48,80,89,,47,47,16,29,5,6,0.8,0.7
2025-03-12T1100,3511A,116.5652,37.3319,德州市,陵城艺术中心,颗粒物(PM10),141,232,150,56,92,79,,43,43,15,28,9,8,0.6,0.8
2025-03-12T1100,2621A,99.7056,27.8317,迪庆藏族自治州,迪庆州站,,35,33,44,21,23,112,,110,106,10,10,8,8,0.5,0.4
2025-03-12T1100,3180A,99.7136,27.8094,迪庆藏族自治州,质量技术监督局,,37,33,34,17,26,118,,117,117,11,10,9,8,0.5,0.5
2025-03-12T1100,4257A,104.6092,35.5962,定西市,将台街,颗粒物(PM10),69,88,174,28,42,64,,26,26,25,29,22,12,1.8,1
2025-03-12T1100,4309A,104.6159,35.5701,定西市,正龙路62号,颗粒物(PM10),70,90,175,26,42,86,,56,56,8,12,7,8,0.3,1
2025-03-12T1100,1389A,113.7547,23.0494,东莞市,莞城梨川,,49,49,42,30,24,70,,28,28,34,36,6,7,0.7,0.6
2025-03-12T1100,1390A,113.7944,23.0128,东莞市,东城石井,颗粒物(PM10),53,56,38,32,20,68,,19,19,44,32,7,6,0.7,0.6
2025-03-12T1100,1391A,113.7383,22.9658,东莞市,南城西平,颗粒物(PM10),57,64,42,32,19,64,,16,16,51,46,10,10,0.7,0.6
2025-03-12T1100,3319A,113.7338,23.0381,东莞市,万江金泰,颗粒物(PM10),52,54,42,29,20,76,,30,30,38,31,6,6,0.8,0.7
2025-03-12T1100,3626A,113.7533,23.0202,东莞市,南城元岭,颗粒物(PM10),53,55,40,30,20,69,,23,23,36,34,6,5,0.8,0.7
2025-03-12T1100,3627A,113.7875,23.0457,东莞市,东城主山,,,63,43,31,19,80,,23,23,,40,,9,0.7,0.6
2025-03-12T1100,1666A,118.6614,37.4309,东营市,市环保局,颗粒物(PM10),95,139,128,29,73,86,,57,57,13,32,3,7,0.9,1.1
2025-03-12T1100,3036A,118.6904,37.4338,东营市,开发区管委会,颗粒物(PM10),102,153,126,,91,82,,50,50,18,41,3,7,,0.5
2025-03-12T1100,3365A,118.5719,37.565,东营市,垦利区民丰路,颗粒物(PM10),108,166,122,48,73,80,,48,48,21,40,4,7,0.8,0.8
2025-03-12T1100,3498A,118.5055,37.8612,东营市,河口城区,颗粒物(PM10),112,173,152,29,86,88,,45,45,13,29,4,5,0.7,1.1
2025-03-12T1100,3646A,118.4978,37.4623,东营市,胜利站,颗粒物(PM10),133,216,146,36,82,89,,56,54,21,40,11,12,0.8,1.1
2025-03-12T1100,3734A,118.35,37.26,东营市,理想之城,颗粒物(PM10),103,156,140,44,92,88,,56,56,17,33,8,10,0.7,0.8
2025-03-12T1100,1591A,110.0023,39.8129,鄂尔多斯市,综合楼,颗粒物(PM10),60,70,343,22,63,72,,66,57,20,16,34,9,0.5,0.4
2025-03-12T1100,1592A,109.9486,39.8261,鄂尔多斯市,巴音孟克林场办事处,,,,308,,58,,,72,66,9,13,10,12,0.4,0.4
2025-03-12T1100,1593A,109.7736,39.5986,鄂尔多斯市,康泽苑,颗粒物(PM10),80,110,321,31,58,51,,57,49,28,11,10,6,0.6,0.4
2025-03-12T1100,1594A,109.8119,39.5989,鄂尔多斯市,华泰汽车城,颗粒物(PM10),78,105,330,34,65,50,,43,32,26,16,9,6,0.6,0.5
2025-03-12T1100,1595A,109.9734,39.7884,鄂尔多斯市,奥林花园,颗粒物(PM10),54,58,331,17,59,82,,49,41,13,26,13,12,0.3,0.3
2025-03-12T1100,2436A,114.8938,30.3994,鄂州市,市政府,细颗粒物(PM2.5),64,69,55,46,37,12,,41,34,40,25,6,5,0.9,0.8
2025-03-12T1100,2437A,114.8989,30.3714,鄂州市,赵家坝,,,,58,,38,,,45,39,,19,2,2,,1.2
2025-03-12T1100,3654A,114.8094,30.4089,鄂州市,精准医疗中心,细颗粒物(PM2.5),68,51,52,49,37,15,,56,51,27,22,4,7,1.4,1.2
2025-03-12T1100,2454A,109.4978,30.2981,恩施土家族苗族自治州,湖北民院,细颗粒物(PM2.5),75,56,59,55,50,6,,6,4,35,37,3,3,0.6,0.4
2025-03-12T1100,2455A,109.4707,30.2798,恩施土家族苗族自治州,州电力总公司,细颗粒物(PM2.5),74,57,62,54,50,6,,6,5,26,32,5,5,0.6,0.5
2025-03-12T1100,3549A,109.5061,30.3772,恩施土家族苗族自治州,龙凤新区,,50,41,58,35,43,6,,13,9,19,22,6,6,0.7,0.8
2025-03-12T1100,2499A,108.3411,21.6158,防城港市,沙万,,37,37,42,22,23,24,,37,26,27,25,9,9,0.6,0.7
2025-03-12T1100,2500A,108.3514,21.7731,防城港市,防城档案局,,45,43,37,31,26,23,,39,28,29,17,6,7,0.8,0.4
2025-03-12T1100,2501A,108.3506,21.6414,防城港市,大海花园,,,36,43,36,41,,,51,37,14,19,4,6,0.7,0.8
2025-03-12T1100,1371A,113.1294,23.0067,佛山市,湾梁,,,80,49,23,18,,,40,35,,34,11,8,0.6,0.5
2025-03-12T1100,1372A,113.1083,23.0478,佛山市,华材职中,颗粒物(PM10),52,53,42,21,22,47,,41,41,48,33,7,6,0.6,0.6
2025-03-12T1100,1373A,113.144,23.0453,佛山市,南海气象局,颗粒物(PM10),60,69,45,24,25,40,,38,36,43,27,8,6,0.6,0.5
2025-03-12T1100,1374A,113.2881,22.8094,佛山市,顺德苏岗,颗粒物(PM10),66,82,44,36,20,38,,25,25,53,28,11,6,0.8,0.6
2025-03-12T1100,1376A,112.8383,22.8678,佛山市,高明孔堂,,30,30,29,21,18,67,,43,37,13,12,6,5,0.5,0.5
2025-03-12T1100,1377A,112.8836,23.1588,佛山市,三水监测站,,48,41,40,33,27,50,,14,14,43,48,4,3,0.5,0.5
2025-03-12T1100,1378A,112.867,23.185,佛山市,三水云东海,,50,50,41,27,18,60,,13,13,42,40,2,3,0.5,0.5
2025-03-12T1100,3625A,113.2544,22.7642,佛山市,容桂街道办,,,,40,,24,,,83,,,33,,8,,0.7
2025-03-12T1100,1280A,119.3903,26.0543,福州市,鼓山,,,,38,,32,,,82,,,9,,2,,0.5
2025-03-12T1100,1282A,119.2681,26.0504,福州市,师大,颗粒物(PM10),52,54,44,35,35,86,,62,59,16,18,4,4,0.5,0.4
2025-03-12T1100,1283A,119.2984,26.1028,福州市,五四北路,细颗粒物(PM2.5),55,50,39,39,34,76,,52,51,24,24,4,4,0.7,0.6
2025-03-12T1100,1284A,119.2648,26.0768,福州市,杨桥西路,"颗粒物(PM10),细颗粒物(PM2.5)",54,57,44,38,34,78,,62,58,19,21,4,4,0.6,0.5
2025-03-12T1100,1285A,119.317,26.0746,福州市,紫阳,颗粒物(PM10),58,66,43,36,34,57,,51,45,38,31,3,4,0.6,0.5
2025-03-12T1100,3048A,119.5799,26.0936,福州市,九龙,细颗粒物(PM2.5),69,57,19,50,16,71,,63,58,17,10,4,4,0.6,0.4
2025-03-12T1100,3526A,119.5189,25.9664,福州市,吴航,颗粒物(PM10),72,94,52,38,28,81,,63,56,24,21,5,6,0.6,0.5
2025-03-12T1100,1755A,123.7977,41.8491,抚顺市,望花区,颗粒物(PM10),60,70,78,7,46,90,,64,62,8,21,10,13,0.5,0.8
2025-03-12T1100,1756A,123.9161,41.8822,抚顺市,顺城区,,,57,74,9,42,,,75,61,11,16,9,10,,0.8
2025-03-12T1100,1757A,124.0436,41.8611,抚顺市,东洲区,颗粒物(PM10),62,74,77,9,42,87,,82,72,12,17,9,6,0.5,0.9
2025-03-12T1100,1758A,123.9247,41.8642,抚顺市,新抚区,,,54,69,8,35,,,77,66,9,13,8,7,0.5,0.8
2025-03-12T1100,1759A,124.0972,41.8961,抚顺市,大伙房水库,,50,50,64,9,41,90,,86,76,8,12,10,8,0.5,0.8
2025-03-12T1100,1760A,123.7086,41.8391,抚顺市,沈抚新城,颗粒物(PM10),51,52,74,3,36,93,,75,72,7,17,5,6,0.5,0.9
2025-03-12T1100,2376A,116.2127,28.0814,抚州市,桐源党溪,,42,41,48,29,32,32,,14,14,2,4,3,5,0.6,0.6
2025-03-12T1100,2377A,116.3544,27.9831,抚州市,市站,,47,47,49,30,32,25,,18,18,18,26,8,12,0.7,0.8
2025-03-12T1100,2378A,116.3565,27.963,抚州市,血防站,,48,48,52,29,34,24,,17,17,12,20,10,13,0.7,1
2025-03-12T1100,2379A,116.3564,28.0007,抚州市,采茶剧团,,44,44,46,27,33,21,,16,15,12,14,5,7,1.2,1.4
2025-03-12T1100,2380A,116.385,27.9647,抚州市,医学分院,,43,43,50,29,31,24,,16,16,8,12,4,4,0.8,1.1
2025-03-12T1100,2207A,121.6094,41.998,阜新市,工业园区,颗粒物(PM10),106,162,139,7,62,89,,76,76,10,20,6,12,0.3,0.8
2025-03-12T1100,2208A,121.6697,42.0279,阜新市,长青街,颗粒物(PM10),78,105,106,3,67,98,,86,86,9,22,4,9,0.3,0.8
2025-03-12T1100,2209A,121.6673,42.0705,阜新市,农业园区,,,140,146,14,69,,,96,96,5,12,,13,0.3,0.9
2025-03-12T1100,2210A,121.6717,42.0224,阜新市,东苑,颗粒物(PM10),88,125,126,3,59,90,,81,81,8,22,4,11,0.3,0.7
2025-03-12T1100,2211A,121.6506,42.0498,阜新市,玉龙新城,,,,126,4,71,85,,82,82,,21,5,13,0.4,0.9
2025-03-12T1100,2301A,115.8277,32.8929,阜阳市,市监测站,细颗粒物(PM2.5),152,146,110,116,87,95,,47,45,21,23,8,7,0.8,0.7
2025-03-12T1100,2303A,115.8554,32.8605,阜阳市,开发区,细颗粒物(PM2.5),170,148,120,129,85,92,,44,43,25,26,8,7,0.7,0.7
2025-03-12T1100,2875A,115.784,32.8892,阜阳市,阜阳职业技术学院,细颗粒物(PM2.5),152,157,111,116,79,85,,48,45,26,21,8,8,0.8,0.7
2025-03-12T1100,3468A,115.7901,32.8613,阜阳市,市规划展馆,细颗粒物(PM2.5),153,160,102,117,81,109,,68,68,18,19,8,7,0.9,0.8
2025-03-12T1100,3469A,115.836,32.9183,阜阳市,枣园社区,细颗粒物(PM2.5),163,188,122,124,83,,,41,32,,26,,6,0.7,0.7
2025-03-12T1100,2669A,102.9099,34.9841,甘南藏族自治州,州政府,颗粒物(PM10),124,197,176,43,40,,,51,51,11,10,,6,0.4,0.4
2025-03-12T1100,3380A,102.8914,34.9617,甘南藏族自治州,甘肃民族师范学院,颗粒物(PM10),130,209,196,56,49,82,,62,62,2,11,8,9,0.2,0.3
2025-03-12T1100,2570A,101.9603,30.0475,甘孜藏族自治州,水桥子,颗粒物(PM10),71,92,51,32,19,67,,80,68,21,9,3,3,0.6,0.5
2025-03-12T1100,3065A,101.9533,29.9972,甘孜藏族自治州,州环保局,颗粒物(PM10),51,52,41,26,15,78,,86,74,15,9,4,4,0.4,0.3
2025-03-12T1100,3414A,115.8347,28.932,赣江新区,桑海产业园,,46,41,40,32,30,19,,16,16,20,25,9,11,0.8,0.6
2025-03-12T1100,2362A,114.9017,25.9149,赣州市,通天岩,,,,25,,5,,,71,,,3,,10,,0.5
2025-03-12T1100,2363A,114.9367,25.8664,赣州市,地委,,45,45,51,29,30,73,,24,24,22,33,3,5,0.8,1
2025-03-12T1100,2364A,114.9461,25.8481,赣州市,气象台,颗粒物(PM10),55,59,60,22,26,87,,24,24,12,41,10,9,0.5,0.7
2025-03-12T1100,2365A,114.9322,25.8333,赣州市,市图书馆,,41,41,54,27,28,71,,18,18,17,39,5,5,0.7,1
2025-03-12T1100,2366A,114.8905,25.8471,赣州市,华坚鞋城,颗粒物(PM10),51,51,55,20,28,91,,27,27,23,37,8,8,0.4,0.5
2025-03-12T1100,3109A,115.0093,25.8613,赣州市,赣县区卫计委,,42,42,46,20,28,73,,25,25,9,24,7,6,0.3,0.5
2025-03-12T1100,2683A,106.2319,36.1417,固原市,马园,颗粒物(PM10),70,90,141,15,33,72,,25,25,14,33,5,5,0.5,0.7
2025-03-12T1100,2684A,106.2792,36.0022,固原市,监测站,颗粒物(PM10),64,78,118,20,37,76,,51,51,14,19,6,8,0.4,0.6
2025-03-12T1100,2685A,106.2375,36.0211,固原市,新区,颗粒物(PM10),64,78,133,17,32,81,,36,36,12,33,8,6,0.3,0.5
2025-03-12T1100,3522A,106.2177,35.9959,固原市,原州区十五小,颗粒物(PM10),65,79,133,17,30,90,,78,78,8,17,7,6,0.2,0.3
2025-03-12T1100,2543A,106.6308,30.5278,广安市,小平旧居,,,,,,,,,,,,,,,,
2025-03-12T1100,2544A,106.6303,30.4576,广安市,市委,细颗粒物(PM2.5),89,,68,66,54,42,,26,26,16,32,4,4,0.5,0.6
2025-03-12T1100,2545A,106.6271,30.4663,广安市,友谊中学,细颗粒物(PM2.5),75,82,69,55,48,42,,20,20,22,36,2,1,0.7,0.8
2025-03-12T1100,2547A,106.6388,30.4551,广安市,广电花园,细颗粒物(PM2.5),83,67,62,61,50,28,,16,16,22,34,4,4,0.6,0.7
2025-03-12T1100,2902A,106.6351,30.4865,广安市,北辰小学,,,72,61,59,46,,,17,15,15,27,,8,,0.7
2025-03-12T1100,2523A,105.8945,32.4535,广元市,黑石坡,颗粒物(PM10),143,236,291,64,67,60,,26,23,17,15,7,8,0.4,0.4
2025-03-12T1100,2524A,105.821,32.4444,广元市,老城,颗粒物(PM10),136,221,275,51,71,56,,9,9,23,40,1,1,0.5,0.6
2025-03-12T1100,2526A,105.8628,32.4287,广元市,监测站,,,,209,,63,73,,16,16,,32,,10,,0.6
2025-03-12T1100,3617A,105.8047,32.4166,广元市,经开区,颗粒物(PM10),125,200,274,55,76,72,,15,15,10,44,3,3,0.5,0.8
2025-03-12T1100,1345A,113.2347,23.1423,广州市,广雅中学,,,61,42,30,20,,,13,9,59,40,10,4,0.9,0.6
2025-03-12T1100,1346A,113.2612,23.105,广州市,市五中,颗粒物(PM10),55,59,43,26,20,32,,13,12,59,40,12,4,0.7,0.5
2025-03-12T1100,1348A,113.3478,23.0916,广州市,广东商学院,颗粒物(PM10),59,68,42,40,23,30,,8,8,62,45,11,5,0.7,0.6
2025-03-12T1100,1349A,113.4332,23.1047,广州市,市八十六中,颗粒物(PM10),67,83,50,36,19,43,,10,10,64,63,18,5,0.4,0.3
2025-03-12T1100,1350A,113.3505,22.9483,广州市,番禺中学,颗粒物(PM10),54,58,39,30,20,43,,23,21,58,36,10,8,0.6,0.5
2025-03-12T1100,1351A,113.2146,23.3916,广州市,花都师范,颗粒物(PM10),61,71,49,34,24,40,,9,9,56,44,7,5,0.6,0.6
2025-03-12T1100,1352A,113.2597,23.1331,广州市,市监测站,颗粒物(PM10),56,62,41,28,18,26,,8,8,64,43,16,6,0.9,0.6
2025-03-12T1100,1353A,113.5618,23.312,广州市,九龙镇镇龙,颗粒物(PM10),57,63,48,33,25,45,,11,11,39,45,6,6,0.5,0.5
2025-03-12T1100,1354A,113.2765,23.1544,广州市,麓湖,颗粒物(PM10),53,56,40,26,18,35,,11,11,58,42,12,5,0.6,0.5
2025-03-12T1100,1355A,113.443,23.3035,广州市,帽峰山森林公园,,25,24,34,17,20,52,,24,24,25,42,4,6,0.6,0.7
2025-03-12T1100,2846A,113.3221,23.1322,广州市,体育西,颗粒物(PM10),58,65,47,37,23,37,,9,9,58,50,15,5,0.9,0.6
2025-03-12T1100,3298A,113.5717,23.5491,广州市,从化街口,颗粒物(PM10),51,51,44,30,26,87,,20,20,24,33,8,7,0.6,0.6
2025-03-12T1100,3299A,113.3472,23.3692,广州市,白云竹料,颗粒物(PM10),61,72,53,33,25,52,,15,15,48,47,8,8,0.7,0.7
2025-03-12T1100,3300A,113.2981,23.237,广州市,白云嘉禾,颗粒物(PM10),56,62,49,29,22,36,,11,11,56,51,6,4,0.6,0.5
2025-03-12T1100,3301A,113.4256,23.1716,广州市,黄埔科学城,颗粒物(PM10),62,74,46,37,20,37,,10,10,61,55,13,7,0.5,0.4
2025-03-12T1100,3302A,113.3942,23.0483,广州市,番禺大学城,,,,46,,15,,,93,,,33,,5,,0.2
2025-03-12T1100,3303A,113.4922,22.8168,广州市,南沙黄阁,颗粒物(PM10),58,66,40,29,18,36,,13,13,49,38,7,6,0.7,0.6
2025-03-12T1100,3304A,113.5342,22.7896,广州市,南沙街,,48,48,37,31,16,43,,15,15,50,41,8,7,0.5,0.5
2025-03-12T1100,3443A,113.2902,23.5544,广州市,花都梯面,,42,42,44,22,22,65,,15,15,26,37,5,5,0.6,0.7
2025-03-12T1100,3445A,113.7858,23.7478,广州市,从化良口,,28,19,27,14,19,88,,36,36,6,14,6,6,0.6,0.6
2025-03-12T1100,3446A,113.8051,23.2614,广州市,增城荔城,颗粒物(PM10),56,61,44,33,22,71,,30,30,30,28,12,7,0.5,0.5
2025-03-12T1100,2505A,109.568,23.1478,贵港市,德智高中,,,,,,,,,,,,,,,,
2025-03-12T1100,2506A,109.6047,23.0666,贵港市,江南子站,细颗粒物(PM2.5),55,56,50,39,32,19,,12,6,40,30,8,7,0.8,0.6
2025-03-12T1100,2507A,109.6014,23.0948,贵港市,贵城子站,颗粒物(PM10),52,54,59,33,34,23,,14,14,33,30,7,7,0.7,0.7
2025-03-12T1100,2508A,109.5669,23.1065,贵港市,荷城子站,,39,39,51,24,32,17,,16,16,36,33,9,9,0.7,0.6
2025-03-12T1100,3405A,109.5886,23.1172,贵港市,新世纪学校,颗粒物(PM10),51,51,54,30,40,21,,14,14,39,38,2,3,0.6,0.6
2025-03-12T1100,1439A,106.6899,26.5998,贵阳市,马鞍山,颗粒物(PM10),51,51,40,29,26,71,,66,65,19,12,6,6,0.4,0.5
2025-03-12T1100,1441A,106.6243,26.6266,贵阳市,鉴湖路,颗粒物(PM10),56,61,52,27,27,77,,72,72,16,11,12,11,0.5,0.5
2025-03-12T1100,1442A,106.7487,26.6343,贵阳市,燕子冲,细颗粒物(PM2.5),67,66,49,48,40,63,,67,65,22,13,13,12,0.6,0.5
2025-03-12T1100,1443A,106.6555,26.4365,贵阳市,碧云窝,,,70,52,29,27,,,71,69,27,14,12,9,0.6,0.6
2025-03-12T1100,1445A,106.7109,26.6027,贵阳市,红边门,颗粒物(PM10),53,56,49,36,36,72,,70,70,20,15,8,5,0.3,0.4
2025-03-12T1100,1446A,106.7164,26.5699,贵阳市,新华路,颗粒物(PM10),56,61,48,39,34,69,,69,69,20,13,15,15,0.6,0.5
2025-03-12T1100,1447A,106.674,26.5424,贵阳市,太慈桥,颗粒物(PM10),51,51,42,24,26,61,,69,65,33,17,10,8,0.6,0.4
2025-03-12T1100,1552A,106.805,26.3003,贵阳市,桐木岭,颗粒物(PM10),51,52,48,29,33,72,,62,62,7,10,11,21,0.9,1.1
2025-03-12T1100,4230A,106.6882,26.5695,贵阳市,花果园大街66号,,49,48,36,34,34,60,,65,62,23,15,8,6,0.5,0.5
2025-03-12T1100,4231A,106.6873,26.5169,贵阳市,漓江路57号,颗粒物(PM10),59,68,44,39,29,53,,60,57,30,15,16,11,0.7,0.5
2025-03-12T1100,1862A,110.4144,25.3167,桂林市,电子科大尧山校区,,,,,,,,,,,,,,,,
2025-03-12T1100,1864A,110.3089,25.2708,桂林市,龙隐路小学,细颗粒物(PM2.5),62,50,49,44,42,6,,6,6,30,31,8,8,1.5,1.5
2025-03-12T1100,1865A,110.2869,25.2178,桂林市,八中,细颗粒物(PM2.5),58,49,47,41,38,3,,2,2,35,36,9,8,1.7,1.3
2025-03-12T1100,3531A,110.296,25.1253,桂林市,旅游学院,,49,,34,34,28,5,,4,4,30,32,8,8,1.1,1.2
2025-03-12T1100,4222A,110.1835,25.2444,桂林市,环湖路276号,细颗粒物(PM2.5),85,63,42,63,40,3,,2,2,38,40,13,11,1.7,1.6
2025-03-12T1100,4301A,110.2803,25.2773,桂林市,信义路13号,颗粒物(PM10),53,55,49,20,46,4,,3,3,31,34,11,10,1.9,1.6
2025-03-12T1100,2674A,100.2561,34.4714,果洛藏族自治州,玛沁县大武镇,颗粒物(PM10),56,61,56,23,19,79,,81,79,2,2,16,13,0.4,0.3
2025-03-12T1100,1129A,126.5422,45.755,哈尔滨市,岭北,,46,46,79,10,52,90,,86,83,11,22,9,25,0.6,0.8
2025-03-12T1100,1130A,126.561,45.8167,哈尔滨市,松北商大,,,,106,,57,83,,76,73,,18,,8,0.5,0.7
2025-03-12T1100,1131A,126.979,45.5419,哈尔滨市,阿城会宁,颗粒物(PM10),57,64,96,10,48,86,,81,77,8,12,11,14,0.4,0.6
2025-03-12T1100,1132A,126.599,45.7222,哈尔滨市,南岗学府路,颗粒物(PM10),63,76,114,12,48,85,,78,77,10,19,6,8,0.5,0.7
2025-03-12T1100,1133A,126.689,45.7733,哈尔滨市,太平宏伟公园,颗粒物(PM10),58,65,108,16,56,84,,75,73,12,22,6,9,0.3,0.6
2025-03-12T1100,1134A,126.635,45.7667,哈尔滨市,道外承德广场,,,62,130,,80,79,,70,68,8,15,5,8,0.5,0.7
2025-03-12T1100,1135A,126.685,45.7319,哈尔滨市,香坊红旗大街,颗粒物(PM10),65,80,119,3,48,83,,74,72,12,19,8,12,0.4,0.7
2025-03-12T1100,1136A,126.6411,45.7258,哈尔滨市,动力和平路,颗粒物(PM10),58,66,104,14,58,88,,78,78,6,13,6,9,0.4,0.7
2025-03-12T1100,1137A,126.593,45.7478,哈尔滨市,道里建国路,,,,105,,60,77,,71,68,10,17,,9,0.3,0.8
2025-03-12T1100,1138A,126.615,45.61,哈尔滨市,平房东轻厂,颗粒物(PM10),58,65,96,17,53,86,,78,77,6,9,6,9,0.4,0.6
2025-03-12T1100,1139A,126.595,45.9855,哈尔滨市,呼兰师专,颗粒物(PM10),51,51,122,11,61,79,,70,70,11,20,10,14,0.5,0.6
2025-03-12T1100,1140A,126.6206,45.6842,哈尔滨市,省农科院,颗粒物(PM10),60,69,112,17,59,76,,69,68,10,18,11,12,0.5,0.7
2025-03-12T1100,2688A,93.5128,42.8172,哈密市,地区监测站,颗粒物(PM10),58,65,119,26,23,52,,39,39,20,21,12,7,0.3,0.4
2025-03-12T1100,2689A,93.4961,42.8328,哈密市,哈密师范学校,颗粒物(PM10),57,63,104,33,28,53,,33,33,24,27,9,6,0.5,0.6
2025-03-12T1100,2671A,100.9048,36.9639,海北藏族自治州,海晏县西海镇,颗粒物(PM10),125,200,194,52,54,80,,69,60,9,6,16,12,0.4,0.3
2025-03-12T1100,3867A,102.0738,36.5056,海东市,平安区公安北苑,,,,444,,104,,,74,,,5,,13,,0.9
2025-03-12T1100,1409A,110.576,19.9507,海口市,东寨港,,,,,,,,,,,,,,,,
2025-03-12T1100,1410A,110.3232,20.0574,海口市,海南大学,,43,43,40,26,20,41,,37,37,17,13,2,2,0.5,0.4
2025-03-12T1100,1411A,110.283,20.0053,海口市,秀英海南医院,,33,33,30,16,14,44,,43,42,12,12,4,4,0.4,0.4
2025-03-12T1100,1412A,110.338,19.9969,海口市,海南师范大学,,48,48,34,19,16,41,,52,44,12,7,4,4,0.5,0.4
2025-03-12T1100,1413A,110.33,20.0356,海口市,龙华路环保局宿舍,,48,48,34,17,17,46,,48,43,11,9,4,4,0.4,0.4
2025-03-12T1100,3539A,110.5111,19.9736,海口市,桂林洋子站,,27,27,29,13,16,52,,48,43,8,6,3,3,0.0,0.2
2025-03-12T1100,2673A,100.6188,36.2866,海南藏族自治州,共和县恰卜恰镇,颗粒物(PM10),138,225,132,77,41,81,,40,35,10,16,9,6,0.7,0.5
2025-03-12T1100,2676A,97.3731,37.3753,海西蒙古族藏族自治州,德令哈市,,41,41,50,15,20,78,,78,78,3,5,15,15,0.4,0.5
2025-03-12T1100,1048A,114.5302,36.6116,邯郸市,东污水处理厂,颗粒物(PM10),125,200,120,36,73,57,,19,19,24,34,8,5,0.6,0.9
2025-03-12T1100,1049A,114.4918,36.5713,邯郸市,矿院,颗粒物(PM10),136,222,140,48,74,,,10,10,27,33,10,5,0.8,0.8
2025-03-12T1100,1050A,114.484,36.6133,邯郸市,丛台公园,颗粒物(PM10),121,192,123,43,67,,,22,22,28,32,6,6,0.6,0.8
2025-03-12T1100,3458A,114.7895,36.5593,邯郸市,香泉濮院小区,颗粒物(PM10),159,268,122,51,70,65,,29,28,14,21,7,5,0.5,0.6
2025-03-12T1100,3579A,114.50634,36.77178,邯郸市,永年区实验高中,颗粒物(PM10),143,236,131,50,61,54,,26,26,25,30,13,8,0.8,1.1
2025-03-12T1100,3580A,114.20016,36.44293,邯郸市,峰峰矿区临水派出所,颗粒物(PM10),107,163,123,40,56,81,,83,83,14,10,11,12,0.8,0.9
2025-03-12T1100,2634A,106.9893,33.1842,汉中市,汉川机床厂子校,颗粒物(PM10),156,262,177,101,56,30,,31,28,19,10,12,7,1.2,0.9
2025-03-12T1100,2635A,107.0154,33.0706,汉中市,市监测站,颗粒物(PM10),97,144,101,49,46,32,,18,18,25,29,6,6,1.1,1.2
2025-03-12T1100,2636A,107.0089,33.1138,汉中市,鑫源开发区,颗粒物(PM10),149,248,121,75,46,17,,10,10,48,36,19,8,1.3,1
2025-03-12T1100,2637A,107.007,33.0323,汉中市,南郑大河坎水厂,,,138,104,59,44,13,,25,20,36,24,,8,,1
2025-03-12T1100,1223A,120.2072,30.2111,杭州市,滨江,颗粒物(PM10),53,55,62,26,32,6,,5,4,44,50,6,7,0.9,0.7
2025-03-12T1100,1224A,120.0633,30.2747,杭州市,西溪,,38,38,72,15,36,6,,11,7,32,30,6,6,0.6,0.7
2025-03-12T1100,1226A,120.3417,30.3150,杭州市,下沙,细颗粒物(PM2.5),52,52,90,36,60,9,,6,6,44,55,4,5,0.5,0.4
2025-03-12T1100,1227A,120.1269,30.2456,杭州市,卧龙桥,,35,35,68,22,40,13,,8,8,36,41,5,6,0.3,0.4
2025-03-12T1100,1228A,120.1903,30.2692,杭州市,浙江农大,,,27,47,16,32,,,4,3,40,51,8,8,0.5,0.5
2025-03-12T1100,1230A,120.1197,30.3119,杭州市,和睦小学,,,34,77,15,34,,,9,7,40,44,,7,0.6,0.7
2025-03-12T1100,1231A,120.3019,30.4183,杭州市,临平镇,,30,22,65,21,57,14,,9,9,35,43,5,6,0.5,0.5
2025-03-12T1100,1232A,120.2753,30.1839,杭州市,城厢镇,细颗粒物(PM2.5),59,54,70,42,48,8,,6,6,48,59,6,8,0.7,0.6
2025-03-12T1100,1233A,120.0883,30.1808,杭州市,云栖,细颗粒物(PM2.5),59,55,83,42,60,7,,4,4,41,41,8,8,0.6,0.7
2025-03-12T1100,3557A,119.9464,30.0494,杭州市,镇二中,,,,70,,35,10,,3,3,41,46,,6,0.9,0.9
2025-03-12T1100,3558A,119.7183,30.2367,杭州市,市府大楼,,26,26,81,14,47,15,,30,16,41,36,7,7,0.5,0.6
2025-03-12T1100,3656A,120.1556,30.2864,杭州市,消防大队,,25,24,56,17,41,11,,10,9,40,45,6,7,0.7,0.7
2025-03-12T1100,1270A,117.1959,31.7848,合肥市,明珠广场,细颗粒物(PM2.5),170,139,81,129,68,59,,28,28,28,34,4,5,0.9,0.7
2025-03-12T1100,1271A,117.3072,31.8764,合肥市,三里街,细颗粒物(PM2.5),140,161,95,107,58,35,,31,24,40,34,4,5,1.0,0.9
2025-03-12T1100,1272A,117.2588,31.8707,合肥市,琥珀山庄,细颗粒物(PM2.5),140,144,88,107,62,35,,40,32,41,30,2,1,1.0,0.8
2025-03-12T1100,1273A,117.1604,31.9052,合肥市,董铺水库,细颗粒物(PM2.5),119,141,96,90,60,58,,46,40,25,25,2,2,0.7,0.6
2025-03-12T1100,1274A,117.25,31.8571,合肥市,长江中路,细颗粒物(PM2.5),160,151,94,122,74,,,40,32,41,31,6,7,1.0,0.8
2025-03-12T1100,1275A,117.266,31.9436,合肥市,庐阳区,细颗粒物(PM2.5),175,153,97,132,72,48,,46,37,34,30,6,6,0.8,0.6
2025-03-12T1100,1276A,117.3453,31.8616,合肥市,瑶海区,细颗粒物(PM2.5),160,163,95,122,70,41,,33,28,34,34,7,7,0.8,0.7
2025-03-12T1100,1277A,117.3027,31.7964,合肥市,包河区,细颗粒物(PM2.5),149,134,76,114,62,41,,17,17,44,36,6,6,1.0,0.8
2025-03-12T1100,1278A,117.2776,31.7385,合肥市,滨湖新区,细颗粒物(PM2.5),175,139,76,132,67,54,,24,21,35,30,7,7,0.8,0.6
2025-03-12T1100,1279A,117.1318,31.8403,合肥市,高新区,细颗粒物(PM2.5),201,,98,151,86,55,,45,40,29,31,2,2,0.9,0.8
2025-03-12T1100,3464A,117.3803,31.9147,合肥市,高教基地,细颗粒物(PM2.5),162,147,85,123,64,41,,33,32,29,25,6,7,0.7,0.6
2025-03-12T1100,3614A,79.924,37.0877,和田地区,地区环保局,颗粒物(PM10),136,222,192,52,47,46,,53,53,8,9,6,3,0.8,0.8
2025-03-12T1100,3615A,79.9131,37.113,和田地区,市环保局,颗粒物(PM10),138,225,165,45,47,48,,54,54,30,29,4,4,0.9,0.9
2025-03-12T1100,2516A,108.2011,24.715,河池市,东仁乐园,细颗粒物(PM2.5),70,88,57,51,37,5,,5,5,18,18,7,7,1.5,1.3
2025-03-12T1100,2517A,108.0497,24.6947,河池市,市环保站,颗粒物(PM10),59,68,54,36,36,6,,6,6,13,17,9,9,1.4,1.2
2025-03-12T1100,2518A,108.0983,24.6989,河池市,市疾控中心,细颗粒物(PM2.5),63,56,49,45,34,5,,4,4,16,20,6,6,1.2,1
2025-03-12T1100,1696A,114.6778,23.7569,河源市,源西,,18,17,27,12,16,54,,14,14,15,24,4,4,0.6,0.7
2025-03-12T1100,1697A,114.6944,23.7586,河源市,东埔,,39,39,34,18,22,49,,12,12,13,24,4,4,0.5,0.6
2025-03-12T1100,1698A,114.6892,23.7233,河源市,老城,,18,12,31,11,19,57,,15,15,7,19,4,4,0.5,0.6
2025-03-12T1100,1718A,115.4208,35.2464,菏泽市,气象局,颗粒物(PM10),154,258,136,83,94,61,,50,49,26,22,11,4,0.5,0.5
2025-03-12T1100,3374A,115.5564,35.0891,菏泽市,定陶老年大学,细颗粒物(PM2.5),160,227,123,122,91,61,,38,34,43,33,4,3,0.8,0.7
2025-03-12T1100,4184A,115.4797,35.24401,菏泽市,永昌路1号,颗粒物(PM10),168,285,138,89,94,73,,54,47,20,26,10,7,0.5,0.6
2025-03-12T1100,4193A,115.4715,35.2800,菏泽市,长城路999号,颗粒物(PM10),182,313,133,80,90,66,,47,36,23,28,13,7,0.6,0.7
2025-03-12T1100,2514A,111.5264,24.4172,贺州市,环保小区,细颗粒物(PM2.5),55,49,89,39,59,52,,14,14,15,37,10,9,0.8,1.3
2025-03-12T1100,2515A,111.5608,24.4078,贺州市,政协大楼,,42,36,77,29,46,59,,20,20,16,49,8,9,0.5,1.1
2025-03-12T1100,3534A,111.4744,24.4553,贺州市,西湾,细颗粒物(PM2.5),59,48,77,42,57,53,,14,14,16,40,7,6,0.5,0.8
2025-03-12T1100,2385A,114.17,35.9019,鹤壁市,市监测站,颗粒物(PM10),115,179,130,42,68,,,49,48,18,30,3,4,0.6,0.8
2025-03-12T1100,2386A,114.2956,35.7511,鹤壁市,市交警支队,颗粒物(PM10),125,199,139,38,84,66,,30,30,26,31,23,9,0.6,0.5
2025-03-12T1100,2387A,114.2878,35.7306,鹤壁市,迎宾馆,颗粒物(PM10),144,237,145,26,68,73,,37,37,31,36,16,9,0.6,0.8
2025-03-12T1100,3474A,114.2617,35.6822,鹤壁市,大新区,颗粒物(PM10),138,225,104,20,81,83,,34,34,15,40,14,8,0.6,0.8
2025-03-12T1100,3596A,114.1572,35.9603,鹤壁市,南山宾馆,颗粒物(PM10),122,193,141,38,72,93,,82,82,9,15,6,12,0.3,0.4
2025-03-12T1100,2244A,130.2537,47.3416,鹤岗市,哈啤分公司,,,,26,,20,,,,,,10,,16,,0.4
2025-03-12T1100,2245A,130.2684,47.3086,鹤岗市,斯达机电,,,42,30,29,21,70,,75,71,9,8,14,15,,0.5
2025-03-12T1100,2246A,130.3114,47.3388,鹤岗市,东山纸板厂,,44,44,32,30,23,65,,70,66,12,12,13,14,0.3,0.3
2025-03-12T1100,2247A,130.1097,47.3382,鹤岗市,五号水库,,,,,,,,,,,,,,,,
2025-03-12T1100,2263A,127.4833,50.2524,黑河市,交通局,,24,24,29,16,17,73,,82,76,12,11,7,7,0.4,0.4
2025-03-12T1100,2264A,127.5144,50.2341,黑河市,环保局,,,53,29,20,20,68,,82,77,,10,,5,0.5,0.5
2025-03-12T1100,2265A,127.5291,50.2472,黑河市,大黑河岛,,,,,,,,,,,,,,,,
2025-03-12T1100,1074A,115.6838,37.7541,衡水市,电机北厂,颗粒物(PM10),150,249,196,55,98,77,,42,42,17,24,3,7,0.3,0.7
2025-03-12T1100,1075A,115.6303,37.7316,衡水市,市监测站,颗粒物(PM10),140,230,160,55,91,70,,34,34,24,28,9,10,0.4,0.7
2025-03-12T1100,3188A,115.6683,37.7217,衡水市,市城管局,颗粒物(PM10),149,248,162,49,91,71,,28,28,23,30,3,5,0.5,0.7
2025-03-12T1100,3459A,115.5989,37.5491,衡水市,地表水厂,颗粒物(PM10),151,252,162,65,87,84,,30,30,19,42,14,12,0.4,0.6
2025-03-12T1100,2456A,112.5003,26.9167,衡阳市,原169医院,颗粒物(PM10),51,52,50,31,30,22,,17,17,22,27,11,14,0.8,1
2025-03-12T1100,2457A,112.6194,26.9258,衡阳市,衡阳化工总厂,,,36,53,36,43,40,,30,30,,12,,9,0.8,0.9
2025-03-12T1100,2458A,112.6211,26.8956,衡阳市,珠晖区环保局,,44,44,48,27,35,37,,26,26,11,15,5,9,0.9,1
2025-03-12T1100,2459A,112.6197,26.8733,衡阳市,市委党校,,,40,48,21,31,,,29,29,9,14,7,11,1.1,1.2
2025-03-12T1100,2460A,112.6006,26.8919,衡阳市,市监测站,,36,26,50,25,38,41,,29,29,10,15,7,10,1.0,1.1
2025-03-12T1100,2461A,112.5664,26.9056,衡阳市,真空机电公司,细颗粒物(PM2.5),53,48,52,37,38,26,,25,25,16,19,6,9,1.1,1.1
2025-03-12T1100,3399A,112.6703,26.882,衡阳市,师范学院,,40,36,45,28,31,40,,31,31,14,18,7,11,1.0,1.1
2025-03-12T1100,2608A,103.3772,23.3993,红河哈尼族彝族自治州,污水处理厂,,,,64,,54,,,103,,,6,,9,,0.5
2025-03-12T1100,2609A,103.3861,23.35,红河哈尼族彝族自治州,监测站,,,59,61,30,41,,,77,74,10,9,8,9,0.6,0.6
2025-03-12T1100,3038A,103.3758,23.368,红河哈尼族彝族自治州,州图书馆,,46,45,48,32,43,88,,78,78,10,8,6,6,0.5,0.5
2025-03-12T1100,1090A,111.6507,40.7517,呼和浩特市,呼市一监,颗粒物(PM10),142,234,359,87,84,60,,40,37,22,19,17,9,0.6,0.5
2025-03-12T1100,1091A,111.6572,40.8033,呼和浩特市,小召,颗粒物(PM10),147,244,370,67,68,52,,38,32,29,22,5,3,0.7,0.5
2025-03-12T1100,1094A,111.7516,40.8369,呼和浩特市,如意水处理厂,颗粒物(PM10),125,200,318,51,63,55,,25,25,20,27,8,6,0.5,0.5
2025-03-12T1100,1095A,111.7276,40.8062,呼和浩特市,二十九中,颗粒物(PM10),131,211,344,60,66,57,,34,30,23,22,,3,1.0,0.9
2025-03-12T1100,1096A,111.5512,40.7866,呼和浩特市,工大金川校区,,,,361,,68,,,31,,27,23,31,7,1.0,0.6
2025-03-12T1100,1097A,111.717,40.7612,呼和浩特市,化肥厂生活区,颗粒物(PM10),145,240,335,58,65,,,35,27,32,24,,7,0.5,0.4
2025-03-12T1100,3698A,111.5968,40.8178,呼和浩特市,红旗小学,颗粒物(PM10),156,261,347,71,61,51,,45,42,33,26,10,4,0.7,0.5
2025-03-12T1100,3699A,111.6518,40.8389,呼和浩特市,海东办,颗粒物(PM10),134,217,347,62,63,49,,44,38,28,18,7,6,0.9,0.6
2025-03-12T1100,2192A,119.7594,49.2261,呼伦贝尔市,区环保局,,,41,57,28,29,86,,93,89,,9,7,7,0.3,0.5
2025-03-12T1100,3061A,119.7512,49.1577,呼伦贝尔市,国华电力东,颗粒物(PM10),54,57,62,13,19,90,,97,92,7,6,5,5,0.3,0.3
2025-03-12T1100,1250A,120.0751,30.8669,湖州市,城西水厂,,20,10,62,3,43,18,,18,12,39,41,5,7,0.6,0.5
2025-03-12T1100,2873A,120.0830,30.8929,湖州市,仁皇山新区,,15,12,64,8,41,21,,,,29,35,3,4,0.6,0.7
2025-03-12T1100,2907A,120.1844,30.8596,湖州市,吴兴区站,,21,21,71,10,45,13,,16,13,42,34,5,7,0.5,0.5
2025-03-12T1100,3562A,120.4148,30.8538,湖州市,南浔区站,,19,14,60,7,36,21,,20,17,37,36,2,4,0.7,0.6
2025-03-12T1100,1607A,120.9049,40.7211,葫芦岛市,龙港区,,26,26,86,3,65,78,,53,53,10,23,7,8,0.3,0.7
2025-03-12T1100,1608A,120.8392,40.7514,葫芦岛市,化工街,,39,39,105,3,60,84,,51,51,10,32,9,12,0.4,0.7
2025-03-12T1100,1609A,120.8341,40.7073,葫芦岛市,新区,,,55,74,3,58,84,,60,60,12,27,,8,,1.1
2025-03-12T1100,1610A,120.8695,40.7677,葫芦岛市,东城区,,47,47,69,3,68,86,,46,46,13,42,4,8,0.4,0.9
2025-03-12T1100,2482A,109.5981,27.5721,怀化市,林科所,,24,24,15,10,7,70,,53,53,6,6,4,4,1.0,1
2025-03-12T1100,2483A,109.9453,27.5444,怀化市,河西地税局,细颗粒物(PM2.5),52,,23,36,19,56,,40,40,16,12,7,7,0.6,0.5
2025-03-12T1100,2484A,109.9781,27.5342,怀化市,市四医院,,42,42,34,23,22,50,,33,33,15,12,4,4,0.6,0.7
2025-03-12T1100,2485A,109.9972,27.5578,怀化市,监测楼,,36,34,27,25,18,58,,35,35,11,14,7,6,0.4,0.5
2025-03-12T1100,2486A,110.0394,27.583,怀化市,市委党校,,48,37,24,33,19,43,,30,30,20,11,7,5,0.5,0.6
2025-03-12T1100,1210A,119.036,33.5981,淮安市,钵池山,细颗粒物(PM2.5),112,,96,84,94,39,,15,13,32,34,7,8,,0.8
2025-03-12T1100,1211A,119.007,33.575,淮安市,北京南路,细颗粒物(PM2.5),107,92,86,80,90,36,,17,14,40,37,11,7,0.9,0.8
2025-03-12T1100,1212A,118.989,33.6067,淮安市,市监测站,细颗粒物(PM2.5),98,78,88,73,92,32,,27,17,40,38,7,8,0.7,0.6
2025-03-12T1100,1213A,119.135,33.5039,淮安市,楚州区监测站,细颗粒物(PM2.5),92,85,94,68,87,31,,16,16,38,45,6,7,0.6,0.5
2025-03-12T1100,3426A,118.8755,33.2894,淮安市,新华书店,细颗粒物(PM2.5),102,94,93,76,84,22,,26,19,45,36,8,8,1.1,0.9
2025-03-12T1100,4206A,119.0288,33.6319,淮安市,承德北路606号,细颗粒物(PM2.5),98,88,108,73,89,35,,14,10,35,41,6,6,0.7,0.7
2025-03-12T1100,2282A,116.8004,33.975,淮北市,监测站,细颗粒物(PM2.5),155,142,111,118,97,82,,33,33,27,30,8,6,0.9,0.9
2025-03-12T1100,2283A,116.8091,33.9007,淮北市,烈山区政府,细颗粒物(PM2.5),175,158,136,132,114,,,32,22,28,33,10,6,1.0,1.2
2025-03-12T1100,3330A,116.8873,33.9836,淮北市,杜集区检察院,细颗粒物(PM2.5),179,142,125,135,112,91,,20,20,30,39,10,6,1.1,1
2025-03-12T1100,4017A,116.7923,33.9535,淮北市,市博物馆,细颗粒物(PM2.5),137,134,108,104,90,89,,40,40,26,29,9,7,1.1,1.1
2025-03-12T1100,2277A,116.8305,32.7727,淮南市,潘集区政府,细颗粒物(PM2.5),189,162,143,142,121,74,,35,35,25,35,,7,0.7,0.7
2025-03-12T1100,2279A,116.8569,32.5951,淮南市,谢家集区政府,细颗粒物(PM2.5),200,182,141,150,113,60,,44,37,24,27,11,9,0.5,0.5
2025-03-12T1100,2280A,116.8281,32.633,淮南市,八公山区政府,细颗粒物(PM2.5),169,173,143,128,104,63,,43,34,26,24,8,6,0.6,0.6
2025-03-12T1100,2281A,116.6325,32.6201,淮南市,焦岗湖风景区管理处,细颗粒物(PM2.5),128,145,115,97,76,49,,22,20,16,16,15,9,0.4,0.4
2025-03-12T1100,2894A,117.0566,32.6531,淮南市,经济技术开发区消防队,细颗粒物(PM2.5),173,154,131,131,106,61,,39,30,24,30,8,7,0.6,0.6
2025-03-12T1100,3329A,117.0108,32.5893,淮南市,山南新区,细颗粒物(PM2.5),159,153,130,121,101,62,,55,45,24,21,9,9,0.8,0.7
2025-03-12T1100,4209A,117.0031,32.6445,淮南市,国庆中路369号,细颗粒物(PM2.5),196,163,145,147,107,62,,43,32,34,39,11,9,0.5,0.5
2025-03-12T1100,2446A,114.9028,30.4742,黄冈市,职工中心,,,,50,101,44,14,,45,36,33,24,6,6,0.8,0.7
2025-03-12T1100,2929A,114.8858,30.4519,黄冈市,红卫路,细颗粒物(PM2.5),79,70,57,58,47,19,,47,36,37,26,9,8,0.9,0.8
2025-03-12T1100,3398A,114.9136,30.4445,黄冈市,市林业局,细颗粒物(PM2.5),77,64,55,56,45,17,,45,36,29,20,10,9,0.9,0.8
2025-03-12T1100,2672A,102.0199,35.5102,黄南藏族自治州,同仁县隆务镇,颗粒物(PM10),136,222,251,70,67,77,,70,69,7,4,18,13,0.4,0.3
2025-03-12T1100,2295A,118.2903,29.6963,黄山市,延安路89号,,36,29,46,25,36,5,,2,2,12,13,4,4,1.1,1
2025-03-12T1100,2297A,118.1371,30.2756,黄山市,黄山区政府5号楼,,38,38,38,17,19,38,,35,35,18,11,8,8,1.0,0.6
2025-03-12T1100,4210A,118.3354,29.7203,黄山市,滨江东路7-2号,,37,37,60,22,40,4,,1,1,18,16,4,4,1.0,0.8
2025-03-12T1100,2423A,115.0601,30.2313,黄石市,沈家营,颗粒物(PM10),59,67,66,39,40,26,,41,41,27,30,6,11,0.9,1
2025-03-12T1100,2426A,114.8988,30.2019,黄石市,铁山,细颗粒物(PM2.5),75,71,62,55,52,28,,39,36,22,26,12,14,1.0,1.1
2025-03-12T1100,2427A,115.0307,30.2092,黄石市,团城山,,,64,66,42,39,,,44,44,,36,,13,,0.8
2025-03-12T1100,3149A,115.0235,30.1578,黄石市,笔架山北路,细颗粒物(PM2.5),65,64,67,47,41,23,,32,32,37,31,9,10,1.1,1
2025-03-12T1100,4185A,115.0780,30.21118,黄石市,磁湖东路29号,细颗粒物(PM2.5),84,79,74,62,54,36,,48,48,23,30,6,8,1.0,1.3
2025-03-12T1100,1392A,114.4183,23.0528,惠州市,河南岸金山湖子站,,19,19,31,10,17,52,,38,38,15,22,8,10,0.5,0.6
2025-03-12T1100,1393A,114.4053,23.0822,惠州市,下埔横江三路子站,,19,19,36,10,18,59,,42,42,10,22,7,9,0.6,0.6
2025-03-12T1100,1394A,114.4103,23.1142,惠州市,江北云山西路子站,,20,20,34,11,17,61,,40,40,10,24,8,10,0.4,0.5
2025-03-12T1100,1395A,114.4645,22.7833,惠州市,惠阳区承修路船湖子站,,28,28,32,16,16,83,,60,57,21,19,8,9,0.6,0.5
2025-03-12T1100,1396A,114.5317,22.7422,惠州市,大亚湾管委会子站,,18,18,31,9,13,57,,69,63,16,17,6,7,0.5,0.5
2025-03-12T1100,3314A,114.4338,22.8134,惠州市,惠阳秋长,,,27,31,20,15,105,,58,58,23,19,9,11,,0.6
2025-03-12T1100,3452A,114.6517,22.775,惠州市,大亚湾霞涌,,20,12,30,8,15,62,,51,49,13,28,6,8,0.5,0.6
2025-03-12T1100,2240A,130.9762,45.3001,鸡西市,环保局,细颗粒物(PM2.5),98,95,89,73,57,30,,47,32,47,28,16,9,0.9,0.8
2025-03-12T1100,2243A,130.9429,45.3039,鸡西市,第一中学,细颗粒物(PM2.5),90,98,75,67,51,46,,68,53,43,29,11,8,0.6,0.5
2025-03-12T1100,3707A,131.0207,45.3073,鸡西市,欧美日汽修厂,细颗粒物(PM2.5),114,104,95,86,66,46,,54,41,30,21,9,7,0.5,0.4
2025-03-12T1100,3709A,130.9967,45.3106,鸡西市,市政设施管理处,细颗粒物(PM2.5),109,106,98,82,60,30,,41,28,41,28,16,10,0.8,0.6
2025-03-12T1100,2367A,114.9754,27.0803,吉安市,红声器材厂,细颗粒物(PM2.5),72,81,60,52,38,62,,27,27,23,23,25,17,0.9,0.9
2025-03-12T1100,2368A,114.9658,27.0999,吉安市,市森林工业局,细颗粒物(PM2.5),70,71,53,51,40,65,,29,29,30,31,23,17,0.6,0.6
2025-03-12T1100,2369A,114.99,27.1312,吉安市,市环境监测站,细颗粒物(PM2.5),72,70,46,52,31,65,,26,26,22,25,31,23,0.7,0.7
2025-03-12T1100,2370A,115.0093,27.0968,吉安市,青原区法院,细颗粒物(PM2.5),75,77,57,55,43,64,,24,24,24,29,22,16,0.8,0.7
2025-03-12T1100,1772A,126.54,43.8622,吉林市,哈达湾,颗粒物(PM10),68,86,94,11,34,87,,86,82,10,13,6,7,0.7,0.8
2025-03-12T1100,1773A,126.5844,43.8358,吉林市,东局子,,27,17,82,16,35,84,,85,81,11,14,5,6,0.4,0.5
2025-03-12T1100,1774A,126.5052,43.8245,吉林市,电力学院,,50,50,83,21,38,87,,83,81,5,11,2,3,0.2,0.3
2025-03-12T1100,1775A,126.6133,43.8972,吉林市,江北,颗粒物(PM10),56,61,89,14,37,85,,83,80,9,11,7,11,0.5,0.7
2025-03-12T1100,1776A,126.555,43.8306,吉林市,江南公园,颗粒物(PM10),52,53,80,13,38,84,,84,81,8,10,5,6,0.4,0.5
2025-03-12T1100,1778A,126.7061,43.7133,吉林市,丰满,颗粒物(PM10),53,56,71,18,36,94,,97,92,10,12,5,6,0.6,0.8
2025-03-12T1100,2868A,126.4739,43.953,吉林市,九站,颗粒物(PM10),63,75,93,16,39,83,,84,79,6,11,6,8,0.3,0.5
2025-03-12T1100,1299A,116.9862,36.6114,济南市,科干所,,,,129,,73,,,83,66,23,26,,7,0.4,0.7
2025-03-12T1100,1300A,116.9376,36.665,济南市,农科所,颗粒物(PM10),162,274,144,56,77,74,,70,60,24,24,10,8,0.8,0.9
2025-03-12T1100,1301A,117.1265,36.6734,济南市,开发区,颗粒物(PM10),150,249,125,54,75,82,,96,82,20,21,6,7,0.5,0.7
2025-03-12T1100,1303A,117.0624,36.6868,济南市,省种子仓库,颗粒物(PM10),168,285,142,66,88,82,,89,75,22,22,4,5,0.7,0.9
2025-03-12T1100,1304A,116.9489,36.6447,济南市,机床二厂,颗粒物(PM10),164,278,138,63,91,87,,79,71,23,27,8,9,0.8,0.9
2025-03-12T1100,1305A,117.0495,36.663,济南市,市监测站,颗粒物(PM10),160,269,134,59,86,73,,82,68,22,25,8,8,0.5,0.6
2025-03-12T1100,1306A,116.7675,36.5484,济南市,长清党校,颗粒物(PM10),168,286,138,73,84,84,,85,76,33,36,7,6,0.8,0.9
2025-03-12T1100,1616A,117.6795,36.229,济南市,技术学院,颗粒物(PM10),194,337,160,73,110,90,,43,43,26,44,9,11,0.8,1.3
2025-03-12T1100,1961A,117.532,36.6868,济南市,东山小学,颗粒物(PM10),157,264,135,93,82,,,71,54,,32,,6,,0.8
2025-03-12T1100,3059A,117.7161,36.2049,济南市,泰兴公司,颗粒物(PM10),175,300,171,85,123,92,,30,30,18,47,8,9,0.5,0.9
2025-03-12T1100,3064A,117.6867,36.2171,济南市,莱芜战役纪念馆,颗粒物(PM10),186,322,166,70,105,93,,40,40,17,37,5,6,0.7,1.1
2025-03-12T1100,3494A,117.1673,36.9782,济南市,济阳区政府,颗粒物(PM10),129,208,141,44,94,76,,53,47,9,22,10,11,0.3,0.7
2025-03-12T1100,3495A,117.1171,36.63,济南市,锦屏中学,颗粒物(PM10),146,242,111,51,67,82,,93,79,16,19,8,8,0.4,0.6
2025-03-12T1100,3682A,116.9814,36.6819,济南市,济南四建,,,,114,66,78,69,,77,64,31,26,,6,0.4,0.6
2025-03-12T1100,1653A,116.6251,35.4302,济宁市,火炬城,细颗粒物(PM2.5),144,165,126,110,132,81,,25,25,19,28,14,11,1.0,1.1
2025-03-12T1100,1655A,116.5491,35.4042,济宁市,电化厂,颗粒物(PM10),155,260,162,110,129,,,26,26,14,27,13,11,1.2,1.3
2025-03-12T1100,3500A,116.5814,35.3707,济宁市,北湖一中,颗粒物(PM10),118,186,130,78,109,87,,35,35,20,31,13,10,0.9,1.1
2025-03-12T1100,3501A,116.8249,35.5593,济宁市,服务中心,细颗粒物(PM2.5),123,150,130,93,100,93,,29,29,19,36,7,6,0.9,1.1
2025-03-12T1100,3678A,116.5907,35.4054,济宁市,市第七中学,细颗粒物(PM2.5),119,177,127,90,116,89,,37,37,24,35,7,5,0.9,1
2025-03-12T1100,2255A,130.2751,46.8028,佳木斯市,佳纺,,38,32,48,26,27,57,,54,54,14,23,6,7,0.5,0.5
2025-03-12T1100,2256A,130.3995,46.8307,佳木斯市,发电厂,,28,,30,19,17,69,,64,64,10,14,4,4,0.6,0.6
2025-03-12T1100,2257A,130.3258,46.7975,佳木斯市,环保局,,43,33,41,30,25,58,,54,54,13,19,3,5,0.4,0.4
2025-03-12T1100,2258A,130.3648,46.8032,佳木斯市,十一中,,32,26,37,22,24,64,,63,63,10,20,5,5,0.5,0.5
2025-03-12T1100,2259A,130.3794,46.7588,佳木斯市,四丰,,38,38,37,23,20,49,,37,37,13,20,1,1,0.7,0.7
2025-03-12T1100,1252A,120.7436,30.778,嘉兴市,清河小学,,19,13,40,6,24,12,,22,15,37,31,3,4,0.8,0.4
2025-03-12T1100,1253A,120.726,30.7478,嘉兴市,嘉兴学院,,20,17,44,10,30,13,,20,14,40,33,6,7,0.7,0.5
2025-03-12T1100,2872A,120.7846,30.7525,嘉兴市,南湖区残联,,21,21,40,9,27,17,,27,20,41,33,7,8,0.6,0.5
2025-03-12T1100,3407A,120.6916,30.7739,嘉兴市,秀洲住建,,17,6,57,6,21,16,,21,15,34,32,4,5,0.9,0.5
2025-03-12T1100,1945A,98.2908,39.7711,嘉峪关市,气象局,颗粒物(PM10),90,129,151,34,39,70,,59,50,22,21,8,9,0.4,0.3
2025-03-12T1100,2884A,98.2672,39.7978,嘉峪关市,酒钢宾馆,颗粒物(PM10),95,139,149,46,38,66,,56,54,22,14,15,6,0.7,0.2
2025-03-12T1100,3248A,98.2643,39.7724,嘉峪关市,雄关区,,,107,119,35,30,63,,52,45,34,26,,5,0.6,0.4
2025-03-12T1100,1383A,113.1064,22.6058,江门市,北街,细颗粒物(PM2.5),54,54,33,38,20,49,,49,46,32,18,4,3,0.6,0.5
2025-03-12T1100,1384A,113.0731,22.5835,江门市,西区,颗粒物(PM10),52,54,39,24,19,56,,59,53,32,23,8,6,0.5,0.5
2025-03-12T1100,1385A,113.0219,22.5311,江门市,圭峰西,,41,41,36,21,19,58,,55,50,22,21,5,5,0.4,0.4
2025-03-12T1100,1386A,113.0828,22.5947,江门市,东湖,颗粒物(PM10),56,61,39,25,21,55,,53,48,28,17,9,7,0.5,0.4
2025-03-12T1100,3311A,113.1075,22.5647,江门市,江海富民,颗粒物(PM10),54,58,49,33,24,56,,58,54,21,16,8,6,0.5,0.3
2025-03-12T1100,3449A,113.05,22.4667,江门市,新会银湖,,,42,36,32,24,48,,30,21,26,26,,2,0.5,0.4
2025-03-12T1100,1830A,113.1992,35.2590,焦作市,影视城,,,,124,,36,,,,,,3,,9,,0.1
2025-03-12T1100,3169A,113.2725,35.2067,焦作市,太极体育中心,颗粒物(PM10),175,299,176,94,87,27,,50,48,48,33,10,10,0.9,1
2025-03-12T1100,3335A,113.3137,35.2641,焦作市,马村街道办,颗粒物(PM10),136,221,160,58,89,34,,43,41,47,34,24,13,1.1,1
2025-03-12T1100,3336A,113.2465,35.2373,焦作市,焦作技师学院,颗粒物(PM10),153,256,176,58,75,48,,53,50,41,40,11,10,1.0,1.1
2025-03-12T1100,3477A,113.1656,35.2539,焦作市,中站许衡医院,颗粒物(PM10),110,169,152,43,72,82,,75,75,23,31,15,14,0.7,0.9
2025-03-12T1100,3981A,113.2449,35.1803,焦作市,原李万街道办,颗粒物(PM10),174,297,189,61,74,27,,53,46,40,34,12,12,0.5,0.5
2025-03-12T1100,4264A,113.2340,35.2190,焦作市,新安路1731号,颗粒物(PM10),170,289,193,73,86,40,,56,51,46,33,12,11,0.8,0.9
2025-03-12T1100,1708A,116.3701,23.5345,揭阳市,新兴,细颗粒物(PM2.5),99,81,73,74,62,41,,31,24,36,34,5,9,1.1,1
2025-03-12T1100,1709A,116.3264,23.5443,揭阳市,西马,细颗粒物(PM2.5),67,70,70,48,56,31,,29,21,40,30,7,11,1.1,1
2025-03-12T1100,1710A,116.3611,23.5626,揭阳市,东兴,细颗粒物(PM2.5),102,90,85,76,64,43,,28,21,32,35,4,11,1.2,1.1
2025-03-12T1100,1711A,116.4151,23.5294,揭阳市,渔湖,细颗粒物(PM2.5),77,102,72,56,35,42,,33,24,40,30,6,10,1.2,1
2025-03-12T1100,3320A,116.403,23.5699,揭阳市,曲溪,细颗粒物(PM2.5),74,61,67,54,40,40,,30,23,42,36,7,12,1.1,0.9
2025-03-12T1100,1944A,102.1692,38.5167,金昌市,天庆家园,颗粒物(PM10),71,92,111,37,43,73,,51,48,12,15,3,15,0.8,0.8
2025-03-12T1100,4022A,102.1647,38.5371,金昌市,金川区人防中心,颗粒物(PM10),89,127,143,36,42,63,,51,46,14,13,11,35,0.4,0.6
2025-03-12T1100,4239A,102.1930,38.5319,金昌市,长春路96号,"颗粒物(PM10),细颗粒物(PM2.5)",59,68,80,42,45,71,,50,49,10,14,12,58,0.6,0.8
2025-03-12T1100,1262A,119.647,29.077,金华市,十五中,细颗粒物(PM2.5),159,146,121,121,87,11,,5,5,71,62,7,6,1.1,1.2
2025-03-12T1100,1263A,119.686,29.1029,金华市,监测站,细颗粒物(PM2.5),138,143,113,105,82,7,,2,2,79,65,6,5,1.1,1
2025-03-12T1100,3659A,119.656,29.1131,金华市,气象局,颗粒物(PM10),110,170,131,81,60,4,,1,1,76,64,6,6,1.3,1.2
2025-03-12T1100,1767A,121.1115,41.0879,锦州市,南山,颗粒物(PM10),59,67,97,6,78,87,,61,61,8,30,6,13,0.3,0.9
2025-03-12T1100,1768A,121.0604,40.8428,锦州市,开发区,,42,42,91,3,66,92,,48,48,7,35,9,24,0.5,1
2025-03-12T1100,1769A,121.1836,41.1119,锦州市,百股街道,颗粒物(PM10),65,80,88,3,62,85,,48,48,9,33,4,10,0.3,0.9
2025-03-12T1100,1770A,121.1178,41.1222,锦州市,天安街道,颗粒物(PM10),65,80,103,3,71,95,,82,82,11,31,15,21,0.4,0.9
2025-03-12T1100,1771A,121.1303,41.1386,锦州市,北湖公园,颗粒物(PM10),63,75,102,7,71,85,,74,74,12,32,6,16,0.3,0.8
2025-03-12T1100,2160A,112.85,35.5051,晋城市,自来水公司,颗粒物(PM10),155,260,132,58,40,49,,49,41,36,27,30,18,2.3,1.3
2025-03-12T1100,2161A,112.8318,35.4936,晋城市,白云商贸,颗粒物(PM10),170,289,150,66,33,54,,58,51,38,26,29,13,2.0,0.9
2025-03-12T1100,2162A,112.8508,35.4887,晋城市,市环保局,颗粒物(PM10),162,274,143,66,40,47,,48,41,40,26,30,16,2.3,1.1
2025-03-12T1100,2163A,112.8676,35.4897,晋城市,技术学院,颗粒物(PM10),145,239,149,61,41,50,,51,43,37,27,31,19,2.1,1.3
2025-03-12T1100,2165A,112.8453,35.546,晋城市,白马寺,颗粒物(PM10),134,218,135,61,45,55,,66,58,27,16,18,18,1.7,1.1
2025-03-12T1100,3620A,112.8271,35.4828,晋城市,泽州一中,颗粒物(PM10),177,303,142,66,39,49,,67,56,39,22,38,15,2.0,0.9
2025-03-12T1100,2173A,112.7249,37.7067,晋中市,南都小区,颗粒物(PM10),239,377,383,82,87,50,,21,21,29,31,34,19,0.8,0.9
2025-03-12T1100,2174A,112.6991,37.6982,晋中市,榆次区政府,颗粒物(PM10),309,427,394,74,77,53,,21,21,33,35,36,20,1.0,0.8
2025-03-12T1100,2865A,112.7195,37.6828,晋中市,榆次三中,颗粒物(PM10),315,432,425,95,90,53,,17,17,33,32,39,15,1.3,0.7
2025-03-12T1100,4200A,112.7478,37.6954,晋中市,迎宾街26号,颗粒物(PM10),315,432,408,100,88,60,,23,23,28,30,35,14,0.6,0.5
2025-03-12T1100,2439A,112.2014,31.0481,荆门市,竹园小学,细颗粒物(PM2.5),142,158,119,108,91,36,,51,40,32,26,15,6,0.5,0.6
2025-03-12T1100,2440A,112.1969,30.9891,荆门市,掇刀,细颗粒物(PM2.5),113,124,108,85,82,77,,82,76,21,24,17,7,0.5,0.6
2025-03-12T1100,2441A,112.2213,31.0386,荆门市,石化一小,细颗粒物(PM2.5),153,170,123,117,107,37,,49,40,34,30,17,10,0.1,0.2
2025-03-12T1100,3012A,112.1849,31.0362,荆门市,西山林语,细颗粒物(PM2.5),115,125,100,87,78,36,,66,53,36,21,8,6,0.2,0.4
2025-03-12T1100,3547A,112.1632,31.0138,荆门市,龙泉中学南校,细颗粒物(PM2.5),107,118,100,80,74,54,,78,68,23,18,11,9,0.7,0.7
2025-03-12T1100,1844A,112.2494,30.3197,荆州市,市图书馆,细颗粒物(PM2.5),100,84,73,75,62,42,,43,43,34,28,9,6,0.9,1
2025-03-12T1100,1845A,112.2008,30.3544,荆州市,市委党校,细颗粒物(PM2.5),109,99,88,82,68,,,22,20,34,30,10,7,,0.9
2025-03-12T1100,3194A,112.2747,30.3122,荆州市,管委会,细颗粒物(PM2.5),100,91,81,75,64,41,,41,41,34,28,13,10,0.6,0.6
2025-03-12T1100,4268A,112.1722,30.3366,荆州市,学苑路85号,细颗粒物(PM2.5),120,102,78,91,82,35,,27,26,30,24,12,9,0.9,0.9
2025-03-12T1100,2342A,117.3102,29.3867,景德镇市,王港中学,,,,,,,,,,,,,,,,
2025-03-12T1100,2343A,117.2117,29.2933,景德镇市,老干部活动中心,颗粒物(PM10),51,51,28,35,23,11,,9,7,29,17,16,6,0.7,0.5
2025-03-12T1100,2344A,117.1894,29.2789,景德镇市,兽医站,,,51,37,27,17,,,19,15,33,20,11,5,0.7,0.6
2025-03-12T1100,2345A,117.1547,29.2617,景德镇市,台达陶瓷,颗粒物(PM10),53,56,36,35,23,19,,12,10,31,25,20,35,1.0,0.8
2025-03-12T1100,2346A,117.2461,29.2956,景德镇市,陶研所,细颗粒物(PM2.5),80,60,30,59,24,8,,9,8,37,19,21,6,1.2,0.8
2025-03-12T1100,1803A,115.9872,29.6815,九江市,十里,细颗粒物(PM2.5),74,81,62,54,42,12,,8,8,38,44,3,4,1.4,1.1
2025-03-12T1100,1804A,115.9584,29.7046,九江市,茅山头,细颗粒物(PM2.5),69,74,63,50,40,9,,4,4,42,46,6,9,1.2,0.9
2025-03-12T1100,1805A,115.9877,29.7295,九江市,西园,细颗粒物(PM2.5),77,79,61,56,41,15,,13,13,42,48,24,14,1.4,1.2
2025-03-12T1100,1808A,115.9114,29.6038,九江市,综合工业园,细颗粒物(PM2.5),70,74,56,51,44,21,,17,17,42,53,7,9,1.5,1.2
2025-03-12T1100,1809A,116.0721,29.7535,九江市,石化总厂,细颗粒物(PM2.5),108,,52,81,47,11,,8,8,,41,10,10,1.3,1.2
2025-03-12T1100,1810A,115.9773,29.5698,九江市,庐山气象台,细颗粒物(PM2.5),65,,17,47,19,75,,78,71,9,6,6,7,1.6,1
2025-03-12T1100,3190A,116.0254,29.6994,九江市,外国语学校,,,97,55,57,43,18,,12,12,,48,7,8,1.2,0.9
2025-03-12T1100,4253A,116.0102,29.6594,九江市,莲花大道8号,细颗粒物(PM2.5),97,84,67,72,62,13,,15,15,38,37,7,10,1.4,1.1
2025-03-12T1100,4240A,98.4958,39.7339,酒泉市,玉门东路5号,颗粒物(PM10),79,107,164,34,43,88,,54,51,11,13,10,14,0.4,0.5
2025-03-12T1100,4241A,98.5099,39.7506,酒泉市,北大街108号,颗粒物(PM10),89,127,164,34,41,79,,47,47,11,17,10,17,0.4,0.5
2025-03-12T1100,2698A,76.0072,39.4467,喀什地区,巡警大队,颗粒物(PM10),430,530,143,150,38,54,,37,37,25,41,4,5,0.6,0.8
2025-03-12T1100,2699A,75.9755,39.4694,喀什地区,吾办,颗粒物(PM10),409,509,135,115,40,53,,36,36,24,37,6,7,0.6,0.8
2025-03-12T1100,4027A,75.9483,39.4689,喀什地区,老干局,颗粒物(PM10),500,621,155,133,42,64,,43,43,18,36,4,5,0.4,0.9
2025-03-12T1100,1824A,114.3389,34.7781,开封市,肿瘤医院,颗粒物(PM10),121,191,109,74,84,66,,28,28,20,39,8,6,0.9,1
2025-03-12T1100,1826A,114.2885,34.7965,开封市,世纪星幼儿园,颗粒物(PM10),111,172,115,58,86,60,,30,30,34,43,10,7,1.0,1
2025-03-12T1100,3147A,114.3438,34.8106,开封市,龙亭公园,颗粒物(PM10),112,173,106,58,76,55,,27,27,31,38,5,3,0.7,0.6
2025-03-12T1100,3210A,114.3644,34.7964,开封市,汴京公园,颗粒物(PM10),127,204,112,64,84,63,,26,26,24,38,7,5,0.9,0.9
2025-03-12T1100,3473A,114.2485,34.8306,开封市,技师学院,细颗粒物(PM2.5),98,141,102,73,86,38,,18,15,40,38,11,8,1.2,1.1
2025-03-12T1100,3592A,114.4644,34.7556,开封市,祥符区生态环境局,颗粒物(PM10),168,285,127,54,78,60,,31,31,31,36,20,6,1.3,0.7
2025-03-12T1100,1951A,84.895,45.6094,克拉玛依市,长征新村,,26,8,19,6,8,82,,87,86,7,6,5,6,0.2,0.2
2025-03-12T1100,1952A,84.8988,45.5893,克拉玛依市,南林小区,,27,9,19,7,9,84,,87,87,7,9,4,3,0.3,0.3
2025-03-12T1100,1954A,84.905,44.3396,克拉玛依市,独山子区,,26,26,55,13,19,68,,73,71,11,10,5,6,0.2,0.2
2025-03-12T1100,1955A,85.6979,46.098,克拉玛依市,乌尔禾区商贸楼,,26,10,26,3,10,82,,85,85,4,7,4,5,0.3,0.4
2025-03-12T1100,3612A,85.1045,45.6899,克拉玛依市,白碱滩区新站,,28,15,24,3,6,87,,90,90,2,6,7,7,0.4,0.4
2025-03-12T1100,2697A,76.1454,39.7142,克孜勒苏柯尔克孜自治州,市人民政府,颗粒物(PM10),500,949,150,182,33,66,,91,88,20,11,7,5,0.2,0.2
2025-03-12T1100,3665A,76.1658,39.7157,克孜勒苏柯尔克孜自治州,克州文化中心,颗粒物(PM10),500,1109,166,172,31,72,,96,89,14,9,5,5,0.5,0.5
2025-03-12T1100,1450A,102.8204,24.8886,昆明市,呈贡新区,细颗粒物(PM2.5),77,65,55,56,41,125,,91,87,15,22,11,9,0.8,0.7
2025-03-12T1100,1451A,102.6251,24.9608,昆明市,西山森林公园,,,,,,,,,,,,,,,,
2025-03-12T1100,1452A,102.7252,25.0902,昆明市,龙泉镇,细颗粒物(PM2.5),72,62,55,52,39,93,,23,23,40,48,11,8,0.9,0.7
2025-03-12T1100,1453A,102.7266,25.0375,昆明市,东风东路,细颗粒物(PM2.5),82,84,59,60,45,98,,54,48,40,33,11,9,0.8,0.6
2025-03-12T1100,1454A,102.6742,25.0669,昆明市,金鼎山,颗粒物(PM10),70,89,66,48,41,104,,35,35,34,46,7,5,0.9,0.8
2025-03-12T1100,1455A,102.6644,25.0401,昆明市,碧鸡广场,细颗粒物(PM2.5),74,78,59,54,42,109,,36,35,32,42,12,9,0.6,0.5
2025-03-12T1100,3179A,102.7494,25.0119,昆明市,官渡区博物馆,细颗粒物(PM2.5),68,61,67,49,41,119,,36,35,19,35,12,10,0.6,0.6
2025-03-12T1100,3375A,102.8017,24.8336,昆明市,青年创业园,细颗粒物(PM2.5),77,77,56,56,38,135,,86,85,11,18,10,10,0.7,0.6
2025-03-12T1100,3550A,102.7997,24.9786,昆明市,昆明学院,,,79,60,57,41,126,,96,86,,18,10,8,0.6,0.5
2025-03-12T1100,3551A,102.5967,24.6736,昆明市,晋宁区生态环境分局,细颗粒物(PM2.5),70,63,62,51,41,125,,84,84,36,28,7,7,0.6,0.5
2025-03-12T1100,3552A,102.6678,24.9856,昆明市,云天化总部,细颗粒物(PM2.5),68,74,55,49,36,122,,62,62,25,31,10,9,0.6,0.5
2025-03-12T1100,1456A,91.1319,29.6514,拉萨市,八廓街,,28,23,19,15,11,87,,80,79,10,12,6,6,0.5,0.6
2025-03-12T1100,1457A,91.1221,29.6747,拉萨市,市环保局,,24,24,26,11,11,76,,66,65,17,18,6,6,0.3,0.4
2025-03-12T1100,1458A,91.0874,29.6475,拉萨市,区监测站,,25,16,15,8,7,78,,71,71,14,17,6,6,0.8,0.8
2025-03-12T1100,1459A,91.1774,29.6541,拉萨市,西藏大学,,25,13,15,7,7,77,,73,71,10,12,3,4,0.6,0.5
2025-03-12T1100,1460A,90.9798,29.6588,拉萨市,区辐射站,颗粒物(PM10),51,52,30,25,14,65,,50,50,29,25,7,7,0.6,0.5
2025-03-12T1100,1461A,91.0834,29.6292,拉萨市,拉萨火车站,,24,17,15,7,7,74,,67,64,17,13,4,4,0.5,0.5
2025-03-12T1100,2520A,109.2203,23.7256,来宾市,来宾技工学校,,29,26,45,20,29,34,,36,28,13,18,6,7,0.7,0.8
2025-03-12T1100,3535A,109.1781,23.7297,来宾市,兴宾区政府,,32,30,40,22,28,36,,34,34,12,14,6,6,0.7,0.8
2025-03-12T1100,4002A,109.2416,23.7461,来宾市,中南小学,,,39,46,29,35,,,27,27,15,19,12,8,1.1,1
2025-03-12T1100,1477A,104.1373,35.9454,兰州市,榆中兰大校区,,,,,,,,,,,,,,,,
2025-03-12T1100,1479A,103.831,36.0464,兰州市,铁路设计院,颗粒物(PM10),100,150,206,55,65,50,,25,25,60,47,25,12,1.2,0.8
2025-03-12T1100,3241A,103.7439,36.0842,兰州市,百合公园,,,,232,,54,50,,14,14,46,39,19,7,1.2,0.7
2025-03-12T1100,3242A,103.9611,35.998,兰州市,和平,颗粒物(PM10),133,216,254,76,69,38,,50,39,51,23,19,9,0.9,0.5
2025-03-12T1100,4236A,103.6293,36.0938,兰州市,庄浪东路808号,颗粒物(PM10),109,167,220,71,62,45,,43,38,,32,,12,0.7,0.5
2025-03-12T1100,4237A,103.7251,36.1043,兰州市,安宁西路88号,颗粒物(PM10),107,163,241,62,65,67,,21,21,29,32,26,11,0.6,0.5
2025-03-12T1100,4238A,103.8470,36.0676,兰州市,北滨河东路1号,颗粒物(PM10),104,157,210,47,54,39,,13,13,61,43,26,12,1.1,0.6
2025-03-12T1100,3245A,103.6633,36.533,兰州新区,新区管委会,细颗粒物(PM2.5),75,97,152,55,52,70,,32,32,16,14,18,13,0.6,0.4
2025-03-12T1100,3246A,103.6975,36.4789,兰州新区,舟曲中学,,,,274,53,62,67,,25,24,16,22,8,8,0.7,0.4
2025-03-12T1100,1067A,116.6708,39.5111,廊坊市,药材公司,颗粒物(PM10),59,68,157,12,106,80,,68,68,10,30,2,3,0.4,0.7
2025-03-12T1100,1068A,116.7214,39.5589,廊坊市,开发区,颗粒物(PM10),55,60,163,12,104,83,,65,65,13,37,2,3,0.2,0.6
2025-03-12T1100,1070A,116.7244,39.5269,廊坊市,北华航天学院,颗粒物(PM10),53,56,157,14,98,82,,67,67,6,26,3,4,0.2,0.6
2025-03-12T1100,2919A,116.7022,39.5453,廊坊市,河北工业大学,颗粒物(PM10),52,54,154,16,102,82,,67,67,7,31,5,6,0.2,0.6
2025-03-12T1100,2535A,103.7723,29.5462,乐山市,花湖湾,细颗粒物(PM2.5),57,50,60,40,55,16,,19,16,37,26,9,6,0.9,0.7
2025-03-12T1100,2536A,103.7627,29.5844,乐山市,牛耳桥,细颗粒物(PM2.5),57,56,68,40,56,16,,9,9,38,32,16,11,1.0,0.8
2025-03-12T1100,2537A,103.7508,29.6006,乐山市,市第三水厂,,50,50,54,34,41,14,,9,9,33,29,9,5,0.9,0.8
2025-03-12T1100,2538A,103.7571,29.5664,乐山市,市监测站,,46,46,49,30,42,19,,13,12,29,23,11,7,1.1,1
2025-03-12T1100,3361A,103.7311,29.5628,乐山市,理工大学,颗粒物(PM10),52,53,53,33,40,22,,12,12,29,28,12,9,0.7,0.7
2025-03-12T1100,2598A,100.2143,26.8576,丽江市,西南郊,细颗粒物(PM2.5),55,56,40,39,23,126,,118,118,5,4,5,5,0.9,0.8
2025-03-12T1100,2599A,100.2497,26.8802,丽江市,丽江古城,,38,37,33,26,24,116,,100,100,10,11,8,8,0.7,0.6
2025-03-12T1100,2600A,100.2203,26.8906,丽江市,市中心,,42,31,26,29,21,111,,98,98,9,9,6,6,0.8,0.7
2025-03-12T1100,1267A,119.914,28.4514,丽水市,监测站大楼,细颗粒物(PM2.5),60,52,52,43,37,86,,28,28,22,32,3,4,0.6,1
2025-03-12T1100,1268A,119.93,28.4586,丽水市,莲都小学,,,,48,38,26,96,,25,25,,34,4,4,,0.7
2025-03-12T1100,1269A,119.879,28.4231,丽水市,余庄前,细颗粒物(PM2.5),57,57,38,40,25,71,,20,20,24,19,4,4,0.7,0.6
2025-03-12T1100,1173A,119.176,34.5885,连云港市,市环境监测站,,,,90,,68,,,16,15,36,39,10,8,0.7,0.6
2025-03-12T1100,3000A,119.3581,34.6972,连云港市,德源药业,细颗粒物(PM2.5),128,112,65,97,54,32,,24,24,56,42,9,8,1.2,0.7
2025-03-12T1100,3007A,119.178,34.844,连云港市,新城一中,,,,67,,36,30,,28,22,,41,13,7,,0.7
2025-03-12T1100,3008A,119.3608,34.7519,连云港市,胡沟管理处,细颗粒物(PM2.5),104,90,47,78,39,33,,38,32,42,44,9,9,1.1,0.8
2025-03-12T1100,3009A,119.1478,34.5911,连云港市,矿山设计院,细颗粒物(PM2.5),147,139,93,112,67,50,,15,15,37,39,10,8,0.8,0.6
2025-03-12T1100,3434A,119.2413,34.6539,连云港市,工贸学校,细颗粒物(PM2.5),137,120,90,104,74,73,,19,19,38,38,10,8,1.5,0.9
2025-03-12T1100,3664A,119.4172,34.7341,连云港市,连云街道,细颗粒物(PM2.5),103,108,97,77,58,34,,34,30,63,54,18,9,1.9,0.9
2025-03-12T1100,2571A,102.3431,27.8099,凉山彝族自治州,青龙寺,,39,39,35,10,10,91,,86,82,5,5,5,5,0.7,0.7
2025-03-12T1100,2572A,102.2721,27.8415,凉山彝族自治州,邛海宾馆,,38,38,38,18,22,90,,90,86,7,8,8,10,0.5,0.5
2025-03-12T1100,2573A,102.2625,27.898,凉山彝族自治州,西昌市政府,,45,45,38,26,24,78,,83,80,11,7,16,16,0.7,0.7
2025-03-12T1100,2574A,102.2685,27.8851,凉山彝族自治州,凉山州政府,,,46,40,23,22,83,,89,87,11,8,,15,,0.7
2025-03-12T1100,4229A,102.2342,27.8859,凉山彝族自治州,凯乐南路30号,颗粒物(PM10),59,68,49,21,22,84,,84,80,11,11,12,16,0.4,0.6
2025-03-12T1100,2212A,123.2,41.1953,辽阳市,宏伟区,颗粒物(PM10),62,74,50,14,33,90,,78,66,8,15,13,12,0.7,0.9
2025-03-12T1100,2213A,123.1683,41.2495,辽阳市,新华园,颗粒物(PM10),61,71,58,22,37,80,,63,55,14,22,14,13,0.7,1
2025-03-12T1100,2214A,123.2354,41.2639,辽阳市,滨河路,颗粒物(PM10),59,67,49,19,37,86,,71,63,14,21,8,9,0.4,0.8
2025-03-12T1100,2215A,123.149,41.2991,辽阳市,铁西工业园,,,103,65,24,39,79,,64,56,,22,11,12,0.4,0.9
2025-03-12T1100,2227A,125.1358,42.8845,辽源市,环保局,,48,48,62,10,28,88,,91,83,9,14,4,5,0.5,0.7
2025-03-12T1100,3239A,125.0764,42.9078,辽源市,银鹰制药,,,54,65,14,33,85,,91,82,,10,4,6,0.7,0.9
2025-03-12T1100,1625A,115.9848,36.4372,聊城市,区政府,颗粒物(PM10),198,345,163,84,99,81,,42,42,17,19,14,13,0.8,0.9
2025-03-12T1100,2878A,116.0072,36.4343,聊城市,聊大东校,颗粒物(PM10),230,371,172,95,101,81,,43,43,22,26,13,8,0.9,1
2025-03-12T1100,3200A,115.9819,36.4978,聊城市,监控中心,颗粒物(PM10),210,357,160,83,108,,,39,27,20,24,,12,0.8,1.1
2025-03-12T1100,3513A,116.0445,36.4361,聊城市,九州社区,颗粒物(PM10),188,326,154,78,100,86,,45,45,16,19,13,10,0.6,0.8
2025-03-12T1100,4018A,116.0567,36.4608,聊城市,星美广场,颗粒物(PM10),194,337,169,77,96,77,,45,45,26,23,16,14,0.8,1
2025-03-12T1100,2632A,94.3681,29.6376,林芝市,林芝监测站,,24,20,19,12,11,74,,72,68,12,7,7,7,0.5,0.4
2025-03-12T1100,2633A,94.3616,29.6616,林芝市,林芝人民医院,,22,22,20,12,11,66,,64,60,14,5,7,7,0.4,0.3
2025-03-12T1100,2603A,100.0781,23.8982,临沧市,市环保局,颗粒物(PM10),69,88,72,44,49,87,,73,68,22,16,10,10,0.9,0.7
2025-03-12T1100,2604A,100.0894,23.8822,临沧市,市气象局,细颗粒物(PM2.5),87,94,65,64,51,70,,72,65,40,18,9,10,0.7,0.5
2025-03-12T1100,1733A,111.5531,36.0783,临汾市,临钢医院,颗粒物(PM10),340,452,321,68,48,24,,19,18,31,25,10,8,0.8,0.5
2025-03-12T1100,1734A,111.5028,36.0714,临汾市,技工学校,颗粒物(PM10),263,394,273,65,54,34,,24,19,25,21,11,8,0.7,0.4
2025-03-12T1100,1736A,111.5018,36.0855,临汾市,市委,颗粒物(PM10),310,428,305,75,52,37,,28,22,21,19,11,7,0.9,0.6
2025-03-12T1100,3018A,111.505,36.1014,临汾市,唐尧大酒店,颗粒物(PM10),263,394,275,73,51,33,,26,20,26,23,11,7,0.7,0.4
2025-03-12T1100,4244A,111.4879,36.0530,临汾市,启星学校,颗粒物(PM10),186,322,226,87,64,32,,21,17,22,18,7,4,0.7,0.5
2025-03-12T1100,4271A,103.2464,35.6123,临夏回族自治州,滨河东路1号,颗粒物(PM10),68,85,120,9,11,60,,26,26,22,21,8,4,0.8,0.5
2025-03-12T1100,4310A,103.2093,35.5995,临夏回族自治州,新华街21号,,40,40,41,10,12,66,,54,37,17,16,18,10,0.6,0.5
2025-03-12T1100,1618A,118.3429,35.0532,临沂市,沂河小区,细颗粒物(PM2.5),189,195,150,142,126,59,,34,34,36,37,14,14,1.0,0.9
2025-03-12T1100,1619A,118.295,35.0583,临沂市,鲁南制药厂,细颗粒物(PM2.5),159,200,159,121,111,62,,30,30,68,52,14,11,0.8,0.7
2025-03-12T1100,1620A,118.2794,34.9976,临沂市,新光毛纺厂,细颗粒物(PM2.5),150,175,150,115,120,77,,23,23,36,48,13,12,1.0,0.9
2025-03-12T1100,1621A,118.3956,35.0888,临沂市,河东保险公司,细颗粒物(PM2.5),172,180,141,130,111,61,,23,23,52,56,9,7,1.1,1
2025-03-12T1100,3370A,118.3564,35.0215,临沂市,十里堡居委,细颗粒物(PM2.5),178,178,138,134,113,56,,33,33,,42,,11,1.0,0.9
2025-03-12T1100,3496A,118.3604,35.1084,临沂市,南坊新区,细颗粒物(PM2.5),175,173,139,132,117,62,,30,30,40,46,9,8,1.0,0.9
2025-03-12T1100,3860A,118.3920,35.0300,临沂市,皇山花园小区,细颗粒物(PM2.5),165,173,136,125,107,61,,30,30,39,46,10,8,0.9,0.8
2025-03-12T1100,1870A,109.4856,24.3895,柳州市,柳东小学,,28,23,45,19,37,40,,22,22,16,26,12,12,0.4,0.6
2025-03-12T1100,1871A,109.4157,24.3277,柳州市,环保监测站,,45,32,56,31,42,36,,22,22,15,30,10,10,0.7,0.9
2025-03-12T1100,1872A,109.389,24.341,柳州市,河西水厂,,40,40,58,26,37,29,,19,19,18,29,3,3,0.7,1
2025-03-12T1100,1873A,109.4311,24.2921,柳州市,市四中,,50,50,78,27,46,38,,19,19,14,32,8,8,0.5,0.9
2025-03-12T1100,1874A,109.4006,24.3631,柳州市,市九中,,43,,60,30,40,34,,18,18,15,28,6,7,0.7,1.1
2025-03-12T1100,1875A,109.4958,24.3134,柳州市,古亭山,,40,32,53,28,36,25,,9,9,22,26,7,7,0.5,0.7
2025-03-12T1100,3402A,109.5422,24.3996,柳州市,市二中,,38,35,58,26,40,29,,5,5,19,31,16,20,0.6,0.7
2025-03-12T1100,2307A,116.5079,31.737,六安市,监测大楼,细颗粒物(PM2.5),158,123,74,120,80,57,,79,71,28,22,5,5,1.0,0.8
2025-03-12T1100,2308A,116.4738,31.7643,六安市,皖西学院,细颗粒物(PM2.5),170,146,88,129,82,60,,71,63,22,17,4,4,0.8,0.7
2025-03-12T1100,2309A,116.4996,31.7905,六安市,朝阳厂,细颗粒物(PM2.5),173,140,81,131,79,50,,70,61,30,24,4,4,0.8,0.8
2025-03-12T1100,2310A,116.5567,31.7886,六安市,开发区,细颗粒物(PM2.5),165,179,101,125,67,63,,64,58,27,22,4,5,1.0,0.8
2025-03-12T1100,2576A,104.8,26.5892,六盘水市,窑上,,48,48,50,33,35,73,,80,77,12,9,6,7,0.7,0.7
2025-03-12T1100,2577A,104.83,26.5917,六盘水市,黄土坡,颗粒物(PM10),52,53,45,11,27,67,,82,81,27,14,12,11,0.8,0.7
2025-03-12T1100,2578A,104.89,26.5939,六盘水市,水钢,,,41,49,22,30,,,75,75,15,17,9,11,0.7,0.7
2025-03-12T1100,2579A,104.8475,26.5894,六盘水市,民中,,43,43,39,19,26,60,,78,76,28,14,11,10,0.7,0.6
2025-03-12T1100,2580A,104.9544,26.5506,六盘水市,双水,,48,48,40,27,26,81,,83,83,19,11,9,9,1.0,0.5
2025-03-12T1100,2335A,117.0189,25.1181,龙岩市,龙岩师专,,,,,,,,,,,,,,,,
2025-03-12T1100,2336A,117.0217,25.1033,龙岩市,龙岩市监测站,,,83,30,20,17,,,13,13,16,24,6,8,0.5,0.7
2025-03-12T1100,2337A,117.0258,25.0661,龙岩市,闽西职业技术学院,,40,40,46,19,22,68,,21,21,10,28,3,23,0.5,0.6
2025-03-12T1100,2338A,117.0196,25.0306,龙岩市,龙岩学院,,32,32,29,10,21,73,,44,44,6,10,12,10,0.5,0.5
2025-03-12T1100,2665A,105.0822,33.3261,陇南市,汉王镇固水子,,,,,,,,,,,,,,,,
2025-03-12T1100,2885A,104.9339,33.3826,陇南市,滨江中学,颗粒物(PM10),120,190,221,44,52,56,,36,36,16,19,7,8,0.6,0.8
2025-03-12T1100,3247A,104.955,33.371,陇南市,市总工会,颗粒物(PM10),122,194,221,60,60,51,,49,41,16,9,9,8,0.4,0.4
2025-03-12T1100,2487A,111.9589,27.8901,娄底市,电视发射台,,50,42,43,35,33,59,,59,59,8,11,5,7,0.6,0.8
2025-03-12T1100,2488A,111.9975,27.725,娄底市,市监测站,细颗粒物(PM2.5),54,54,52,38,42,41,,38,38,43,37,8,9,0.7,0.8
2025-03-12T1100,2489A,112.0194,27.7314,娄底市,市委党校,细颗粒物(PM2.5),55,50,48,39,36,43,,42,42,20,15,4,3,0.8,0.9
2025-03-12T1100,2490A,111.9561,27.7569,娄底市,涟钢,细颗粒物(PM2.5),55,54,62,39,43,44,,42,42,15,20,12,23,1.3,1.9
2025-03-12T1100,2491A,111.9892,27.7044,娄底市,市政府,细颗粒物(PM2.5),52,36,44,36,36,30,,34,34,24,13,7,8,0.8,0.8
2025-03-12T1100,1893A,105.4324,28.9634,泸州市,九狮山,,,,,,,,,,,,,,,,
2025-03-12T1100,1894A,105.4427,28.9063,泸州市,小市上码头,颗粒物(PM10),79,108,113,54,63,59,,45,42,28,24,8,8,0.6,0.6
2025-03-12T1100,1895A,105.4241,28.8573,泸州市,兰田宪桥,细颗粒物(PM2.5),75,95,101,55,68,58,,39,38,21,23,8,7,0.7,0.7
2025-03-12T1100,1896A,105.4379,28.8833,泸州市,市环监站,细颗粒物(PM2.5),78,76,84,57,64,55,,46,43,29,28,8,8,0.5,0.5
2025-03-12T1100,4272A,105.3689,28.7783,泸州市,纳溪中医医院,细颗粒物(PM2.5),87,82,84,64,75,48,,30,26,23,27,7,7,0.6,0.7
2025-03-12T1100,2183A,111.1406,37.5211,吕梁市,环保局,颗粒物(PM10),312,429,539,95,110,45,,14,14,21,38,4,2,0.3,0.3
2025-03-12T1100,2185A,111.1297,37.5136,吕梁市,自来水公司,颗粒物(PM10),249,384,538,92,115,44,,13,13,24,31,7,3,0.4,0.3
2025-03-12T1100,2867A,111.1283,37.51,吕梁市,马茂庄小学,颗粒物(PM10),334,447,567,92,109,45,,12,12,,40,,9,,0.4
2025-03-12T1100,1812A,112.3931,34.6516,洛阳市,市委党校,颗粒物(PM10),161,271,132,64,60,43,,18,18,27,39,6,7,0.5,0.8
2025-03-12T1100,1815A,112.494,34.6886,洛阳市,河南林校,颗粒物(PM10),189,327,166,69,81,35,,16,16,36,47,12,7,0.9,1
2025-03-12T1100,1816A,112.3844,34.623,洛阳市,开发区管委会,颗粒物(PM10),146,241,131,63,59,48,,43,38,31,27,8,7,0.7,0.7
2025-03-12T1100,1817A,112.4267,34.6258,洛阳市,市委新办公区,颗粒物(PM10),151,252,142,,57,,,48,42,,28,,6,,0.7
2025-03-12T1100,3340A,112.6005,34.6326,洛阳市,伊滨,颗粒物(PM10),143,235,140,61,73,54,,36,36,24,38,8,6,0.8,0.9
2025-03-12T1100,3341A,112.4951,34.6332,洛阳市,中移产业园,颗粒物(PM10),164,277,164,72,80,48,,28,28,28,40,10,8,0.5,0.9
2025-03-12T1100,3593A,112.5736,34.8993,洛阳市,吉利监测站,颗粒物(PM10),152,253,128,45,66,56,,35,35,22,43,7,7,0.5,0.8
2025-03-12T1100,3635A,112.3677,34.662,洛阳市,河科大西苑校区,,,,127,60,59,,,23,23,20,33,12,9,,0.8
2025-03-12T1100,3636A,112.4388,34.6781,洛阳市,英才小学,颗粒物(PM10),166,282,158,66,61,45,,22,22,39,51,18,13,0.6,0.8
2025-03-12T1100,4214A,112.4600,34.6949,洛阳市,春都路1号院,颗粒物(PM10),193,336,151,65,63,38,,20,20,48,51,20,10,0.8,0.9
2025-03-12T1100,2399A,114.051,33.5699,漯河市,三五一五工厂,细颗粒物(PM2.5),129,190,109,98,92,51,,28,28,25,27,8,5,0.6,0.7
2025-03-12T1100,2400A,114.0055,33.5698,漯河市,漯河大学,颗粒物(PM10),119,187,111,70,76,60,,29,29,26,30,9,6,0.6,0.7
2025-03-12T1100,2401A,114.0138,33.5828,漯河市,市水利局,,,,102,,78,,,22,22,,30,6,4,0.4,0.5
2025-03-12T1100,2402A,114.0261,33.5698,漯河市,市广电局,颗粒物(PM10),119,188,104,67,80,54,,26,26,22,27,8,5,0.6,0.7
2025-03-12T1100,3478A,113.9749,33.5664,漯河市,市图书馆,颗粒物(PM10),116,181,104,82,78,55,,29,29,25,31,8,5,0.6,0.7
2025-03-12T1100,4250A,114.0892,33.5882,漯河市,韶山路11号,"颗粒物(PM10),细颗粒物(PM2.5)",114,178,121,86,86,50,,26,25,32,36,8,6,0.7,0.7
2025-03-12T1100,1798A,118.5092,31.6837,马鞍山市,湖东路四小,细颗粒物(PM2.5),92,,58,68,46,9,,27,12,60,34,9,7,1.5,1
2025-03-12T1100,1799A,118.5024,31.6449,马鞍山市,开发区,细颗粒物(PM2.5),120,,62,91,69,9,,28,11,60,38,6,6,1.4,0.9
2025-03-12T1100,1802A,118.6245,31.7241,马鞍山市,濮塘,细颗粒物(PM2.5),78,77,67,57,43,10,,17,9,52,29,7,8,1.3,1.1
2025-03-12T1100,3633A,118.4918,31.6809,马鞍山市,雨山,细颗粒物(PM2.5),63,49,50,45,41,8,,25,10,58,35,8,9,1.6,1
2025-03-12T1100,4191A,118.5274,31.72227,马鞍山市,慈湖高新区,细颗粒物(PM2.5),88,89,71,65,57,7,,21,9,61,41,8,9,1.5,0.9
2025-03-12T1100,1686A,111.0286,21.4688,茂名市,电白南海,颗粒物(PM10),56,61,46,34,28,59,,87,69,17,12,1,2,0.7,0.7
2025-03-12T1100,1687A,110.9294,21.6533,茂名市,茂石化七小,,45,44,35,31,20,53,,65,52,13,9,2,3,0.6,0.5
2025-03-12T1100,1688A,110.9107,21.6687,茂名市,健康路,,45,44,32,31,18,55,,69,55,16,10,4,3,0.5,0.4
2025-03-12T1100,1689A,110.8592,21.6828,茂名市,高岭,颗粒物(PM10),52,53,51,29,20,52,,66,55,16,14,7,5,0.5,0.4
2025-03-12T1100,3450A,111.01,21.5165,茂名市,电白水东,,27,27,31,17,16,56,,77,63,10,8,3,3,0.7,0.7
2025-03-12T1100,2539A,104.0308,30.0478,眉山市,黑龙滩水库,细颗粒物(PM2.5),72,,58,52,51,59,,32,32,7,15,1,3,0.6,0.7
2025-03-12T1100,2540A,103.8416,30.0874,眉山市,气象局,细颗粒物(PM2.5),67,82,68,48,47,49,,20,20,22,27,9,7,0.5,0.7
2025-03-12T1100,3137A,103.8578,30.0744,眉山市,市委党校,颗粒物(PM10),86,122,65,44,47,43,,19,19,30,33,11,9,0.6,0.8
2025-03-12T1100,3148A,103.8291,30.0564,眉山市,区人社局,颗粒物(PM10),66,82,56,41,46,41,,16,16,32,36,10,9,0.7,0.8
2025-03-12T1100,1690A,116.1231,24.3284,梅州市,梅江月梅,,31,31,42,21,28,46,,18,18,12,23,10,10,0.5,0.6
2025-03-12T1100,1691A,116.0797,24.2719,梅州市,梅县新城,,26,26,49,10,29,55,,18,18,7,31,5,6,0.3,0.7
2025-03-12T1100,1692A,116.1248,24.2654,梅州市,环境监控中心,,38,38,48,25,30,32,,22,22,20,32,7,8,0.7,0.8
2025-03-12T1100,3315A,116.1233,24.2991,梅州市,梅龙,,36,36,45,22,26,49,,25,25,17,29,8,11,0.9,1
2025-03-12T1100,1878A,104.7778,31.4741,绵阳市,富乐山,颗粒物(PM10),88,126,64,48,35,62,,70,70,24,23,2,2,0.5,0.7
2025-03-12T1100,1880A,104.6697,31.4668,绵阳市,高新区自来水公司,颗粒物(PM10),86,122,70,41,36,60,,64,64,22,30,2,3,0.2,0.4
2025-03-12T1100,1881A,104.7287,31.5075,绵阳市,三水厂,颗粒物(PM10),90,130,80,42,38,71,,66,66,17,30,5,6,0.4,0.7
2025-03-12T1100,3491A,104.69,31.5322,绵阳市,西科大附属小学,,,115,64,33,28,72,,77,77,17,27,,7,0.3,0.5
2025-03-12T1100,3492A,104.5648,31.5343,绵阳市,安州区旅游局,颗粒物(PM10),85,120,71,41,39,77,,75,75,14,20,9,10,0.3,0.5
2025-03-12T1100,4226A,104.7651,31.4531,绵阳市,绵阳市气象局,,,126,73,36,30,,,66,66,22,32,5,6,0.3,0.4
2025-03-12T1100,1784A,129.61,44.561,牡丹江市,环保大楼,颗粒物(PM10),190,329,108,38,60,77,,87,83,10,28,6,8,0.3,0.6
2025-03-12T1100,1785A,129.6115,44.5782,牡丹江市,文化广场,,,,104,,65,79,,92,87,14,33,,15,0.2,0.6
2025-03-12T1100,1786A,129.5904,44.5963,牡丹江市,第一医院,颗粒物(PM10),173,295,96,36,58,75,,91,82,12,25,16,13,0.2,0.5
2025-03-12T1100,1787A,129.6364,44.6075,牡丹江市,机车工厂,颗粒物(PM10),168,285,109,16,50,76,,84,80,13,29,8,19,0.4,0.7
2025-03-12T1100,1788A,129.6386,44.5462,牡丹江市,第一中学,颗粒物(PM10),184,318,93,40,50,84,,95,91,6,25,8,9,0.4,0.7
2025-03-12T1100,2531A,105.0703,29.61,内江市,市监测站,细颗粒物(PM2.5),77,,77,56,61,40,,28,27,31,27,6,6,1.1,1.1
2025-03-12T1100,2532A,105.0717,29.5947,内江市,东兴区政府,颗粒物(PM10),54,57,62,34,54,40,,33,30,32,27,4,4,1.0,1
2025-03-12T1100,2533A,105.0653,29.5817,内江市,内江二中,细颗粒物(PM2.5),74,77,77,54,62,31,,32,28,39,27,8,7,1.1,0.9
2025-03-12T1100,2534A,105.0406,29.5822,内江市,内江日报社,细颗粒物(PM2.5),80,82,76,59,68,30,,31,27,34,28,10,9,1.0,0.8
2025-03-12T1100,2628A,92.0657,31.4846,那曲市,那曲监测站,细颗粒物(PM2.5),74,67,25,54,18,82,,60,60,16,15,11,9,0.9,1
2025-03-12T1100,3128A,92.0506,31.4797,那曲市,那曲会议中心,,36,36,28,17,15,69,,47,47,9,10,8,7,0.8,0.9
2025-03-12T1100,1290A,115.8931,28.6843,南昌市,省外办,细颗粒物(PM2.5),70,53,64,51,54,18,,20,20,34,34,5,4,1.1,1.1
2025-03-12T1100,1291A,115.8886,28.7003,南昌市,省林业公司,细颗粒物(PM2.5),73,,54,53,46,16,,18,18,24,28,6,8,0.8,0.7
2025-03-12T1100,1292A,115.8126,28.7442,南昌市,林科所,,49,48,48,34,36,23,,27,27,27,35,6,6,0.9,0.8
2025-03-12T1100,1294A,115.8518,28.687,南昌市,建工学校,细颗粒物(PM2.5),73,55,61,53,50,21,,26,25,27,34,10,11,1.0,0.9
2025-03-12T1100,1295A,115.8921,28.6424,南昌市,象湖,细颗粒物(PM2.5),58,42,62,41,48,30,,31,31,18,28,6,9,1.0,1
2025-03-12T1100,1296A,115.7423,28.7996,南昌市,武术学校,,34,34,32,16,23,26,,18,18,12,14,3,3,0.8,0.7
2025-03-12T1100,3046A,115.9084,28.6062,南昌市,机电学校,细颗粒物(PM2.5),67,62,73,48,51,25,,24,24,21,33,4,7,0.9,0.9
2025-03-12T1100,3690A,115.9721,28.7031,南昌市,外国语学校,细颗粒物(PM2.5),67,,51,48,37,31,,22,22,18,21,4,6,0.7,0.7
2025-03-12T1100,4192A,115.9316,28.68677,南昌市,南京东路235号,细颗粒物(PM2.5),68,66,65,49,45,27,,25,25,31,33,5,7,1.0,0.9
2025-03-12T1100,1905A,106.056,30.8064,南充市,西山风景区,,46,46,36,31,28,22,,45,39,20,14,4,4,0.6,0.5
2025-03-12T1100,1906A,106.0789,30.8023,南充市,南充市委,细颗粒物(PM2.5),63,57,47,45,32,22,,20,20,32,37,4,4,0.8,0.8
2025-03-12T1100,1907A,106.1031,30.8217,南充市,南充炼油厂,,,60,56,49,39,14,,15,15,,41,,5,0.5,0.6
2025-03-12T1100,1909A,106.0642,30.7636,南充市,嘉陵区环保局,细颗粒物(PM2.5),67,74,55,48,34,21,,21,21,27,33,4,4,0.8,0.7
2025-03-12T1100,1910A,106.1087,30.8388,南充市,市环境监测站,细颗粒物(PM2.5),57,55,54,40,36,22,,21,19,23,37,6,6,0.7,0.7
2025-03-12T1100,4227A,106.1083,30.7884,南充市,梨树横街98号,颗粒物(PM10),59,67,56,34,33,18,,33,26,30,30,4,6,0.5,0.5
2025-03-12T1100,1151A,118.8086,32.1065,南京市,迈皋桥,细颗粒物(PM2.5),104,81,78,78,64,17,,10,10,29,48,4,4,0.6,0.7
2025-03-12T1100,1152A,118.7538,32.0551,南京市,草场门,细颗粒物(PM2.5),79,63,75,58,63,9,,6,2,28,44,6,6,1.2,1.2
2025-03-12T1100,1153A,118.7794,32.0745,南京市,山西路,细颗粒物(PM2.5),113,92,88,85,74,11,,7,3,27,36,5,4,0.9,0.9
2025-03-12T1100,1154A,118.7752,32.0023,南京市,中华门,细颗粒物(PM2.5),94,88,82,70,58,11,,12,6,48,51,4,4,0.7,0.7
2025-03-12T1100,1155A,118.8109,32.0309,南京市,瑞金路,细颗粒物(PM2.5),100,97,93,75,61,7,,11,3,43,38,6,6,0.7,0.7
2025-03-12T1100,1156A,118.7997,32.0754,南京市,玄武湖,细颗粒物(PM2.5),110,95,82,83,71,10,,5,2,23,32,5,5,0.5,0.6
2025-03-12T1100,1157A,118.6414,32.0931,南京市,浦口,细颗粒物(PM2.5),92,76,83,68,64,8,,7,2,26,42,5,7,0.7,0.8
2025-03-12T1100,1158A,118.7356,31.9996,南京市,奥体中心,细颗粒物(PM2.5),100,93,93,75,67,8,,12,3,41,46,7,8,0.9,0.8
2025-03-12T1100,1159A,118.9125,32.1028,南京市,仙林大学城,细颗粒物(PM2.5),119,,83,90,71,10,,2,2,28,44,8,8,0.9,1
2025-03-12T1100,3422A,118.8436,31.9198,南京市,江宁彩虹桥,细颗粒物(PM2.5),85,,57,63,53,4,,5,1,50,40,4,5,0.8,0.8
2025-03-12T1100,3423A,119.0138,31.6494,南京市,溧水永阳,,31,31,39,18,25,30,,8,8,27,32,4,6,0.9,0.8
2025-03-12T1100,3427A,118.8554,32.3578,南京市,六合雄州,颗粒物(PM10),70,89,96,42,54,18,,13,10,20,22,5,5,0.4,0.5
2025-03-12T1100,4249A,118.8708,31.3402,南京市,汶溪路181号,,25,,32,17,28,12,,26,12,44,33,1,3,1.0,0.6
2025-03-12T1100,1401A,108.3103,22.7881,南宁市,二十一中,,22,22,37,13,18,43,,45,45,16,15,4,4,0.7,0.8
2025-03-12T1100,1402A,108.3141,22.8528,南宁市,北湖,,26,22,28,18,20,33,,37,36,21,18,4,5,0.7,0.7
2025-03-12T1100,1403A,108.3206,22.8225,南宁市,市监测站,,,34,28,18,18,,,41,38,27,17,5,6,0.9,0.9
2025-03-12T1100,1404A,108.3829,22.8037,南宁市,大自然花园,,30,25,27,21,20,47,,50,48,7,8,5,5,0.6,0.7
2025-03-12T1100,1405A,108.4394,22.7904,南宁市,仙葫,,29,29,27,16,16,42,,48,43,10,11,2,2,0.4,0.4
2025-03-12T1100,1406A,108.2397,22.8467,南宁市,区农职院,,30,30,33,14,18,34,,24,21,22,22,7,7,0.7,0.8
2025-03-12T1100,1407A,108.3275,22.735,南宁市,英华嘉园,,32,32,31,13,18,36,,37,37,17,18,6,6,0.5,0.6
2025-03-12T1100,3401A,108.4834,22.7618,南宁市,红星社区,,34,34,28,21,21,41,,44,38,7,8,8,7,0.6,0.7
2025-03-12T1100,4221A,108.2177,22.7774,南宁市,乐贤路16号,,32,32,26,14,17,33,,31,31,22,19,7,7,0.7,0.8
2025-03-12T1100,2331A,118.0966,26.6761,南平市,茫荡山,,,,,,,,,,,,,,,,
2025-03-12T1100,2332A,118.1681,26.6369,南平市,南平市监测站,,46,45,42,32,35,84,,20,20,13,20,6,5,0.8,0.9
2025-03-12T1100,2333A,118.1825,26.6489,南平市,南平铝业有限公司,颗粒物(PM10),52,53,42,32,32,87,,20,20,12,25,7,6,0.8,0.9
2025-03-12T1100,2334A,118.1756,26.6272,南平市,南平七中,颗粒物(PM10),53,56,41,28,32,58,,14,14,12,20,4,3,0.6,0.7
2025-03-12T1100,1168A,120.9098,31.9663,南通市,狼山街道,,35,25,33,24,26,33,,54,43,32,23,5,5,1.0,0.5
2025-03-12T1100,1169A,120.86,32.0005,南通市,虹桥,,36,31,46,25,37,34,,50,38,26,26,4,5,0.6,0.2
2025-03-12T1100,1170A,120.87,32.02,南通市,城中,,30,26,41,21,31,39,,52,40,26,25,6,6,1.1,0.7
2025-03-12T1100,1171A,120.94,31.93,南通市,星湖花园,,30,,30,21,29,30,,50,39,32,25,5,5,0.8,0.5
2025-03-12T1100,1172A,120.81,32.0417,南通市,紫琅学院,,26,18,36,18,31,42,,51,41,23,26,2,3,1.0,0.7
2025-03-12T1100,3291A,121.067,32.062,南通市,通州监测站,,25,24,33,17,28,48,,60,53,18,16,3,3,1.1,0.8
2025-03-12T1100,3432A,120.9348,31.9883,南通市,环境教育馆,,38,27,32,26,31,38,,56,44,23,19,4,4,0.8,0.3
2025-03-12T1100,2404A,112.5224,33.0122,南阳市,瓦房庄,颗粒物(PM10),93,136,106,45,73,63,,36,36,22,30,4,4,0.7,0.8
2025-03-12T1100,2405A,112.5003,32.9735,南阳市,汉画馆,颗粒物(PM10),89,128,100,56,72,49,,19,19,30,35,4,4,0.7,0.8
2025-03-12T1100,2406A,112.5573,33.027,南阳市,气象站,颗粒物(PM10),95,139,106,36,68,68,,38,38,13,24,5,5,0.4,0.6
2025-03-12T1100,2407A,112.5481,32.9689,南阳市,理工学院,颗粒物(PM10),92,134,100,49,66,61,,29,29,22,30,3,3,0.5,0.7
2025-03-12T1100,4008A,112.5234,32.9922,南阳市,卧龙区政府,颗粒物(PM10),96,141,106,47,73,65,,33,33,22,30,6,6,0.5,0.7
2025-03-12T1100,1234A,121.8358,29.911,宁波市,区环保大楼,细颗粒物(PM2.5),58,63,29,41,15,58,,66,60,50,36,12,8,0.6,0.4
2025-03-12T1100,1235A,121.56,29.82,宁波市,万里学院,,,50,31,37,21,,,53,53,21,21,,7,0.8,0.6
2025-03-12T1100,1236A,121.713,29.9572,宁波市,龙赛医院,,46,46,35,26,20,34,,57,52,46,28,8,8,0.6,0.5
2025-03-12T1100,1239A,121.633,29.7733,宁波市,钱湖水厂,,42,36,22,29,19,75,,54,54,26,17,7,7,0.7,0.6
2025-03-12T1100,1240A,121.5856,29.8635,宁波市,太古小学,颗粒物(PM10),54,57,33,37,20,69,,,,26,20,8,8,1.0,0.8
2025-03-12T1100,1241A,121.524,29.8674,宁波市,市环境监测中心,颗粒物(PM10),62,73,36,42,21,63,,49,49,40,36,7,7,0.7,0.6
2025-03-12T1100,2871A,121.6147,29.9017,宁波市,万里国际学校,,,43,26,37,20,,,63,58,34,22,,7,0.7,0.5
2025-03-12T1100,3710A,121.5594,29.8975,宁波市,白沙活动中心,细颗粒物(PM2.5),53,46,35,37,20,67,,55,55,21,16,6,6,0.7,0.5
2025-03-12T1100,2339A,119.5001,26.6946,宁德市,金涵水库,,,,,,,,,,,,,,,,
2025-03-12T1100,2341A,119.5388,26.6612,宁德市,宁德市监测站,细颗粒物(PM2.5),68,65,42,49,42,52,,64,48,16,15,4,6,0.9,0.8
2025-03-12T1100,3209A,119.5231,26.6562,宁德市,宁德一中,细颗粒物(PM2.5),74,,43,54,46,66,,56,47,23,19,5,7,0.8,0.7
2025-03-12T1100,2618A,98.8601,25.8567,怒江傈僳族自治州,州监测站,细颗粒物(PM2.5),63,67,62,45,43,93,,85,75,10,10,4,5,0.6,0.6
2025-03-12T1100,2619A,98.8546,25.8417,怒江傈僳族自治州,泸水一中,细颗粒物(PM2.5),89,89,59,66,45,47,,59,48,32,18,7,7,0.7,0.6
2025-03-12T1100,1888A,101.6891,26.571,攀枝花市,弄弄坪,细颗粒物(PM2.5),80,106,62,59,39,56,,64,46,68,37,50,29,2.1,1.6
2025-03-12T1100,1889A,101.5769,26.5928,攀枝花市,河门口,颗粒物(PM10),74,97,57,48,28,52,,38,35,44,27,18,15,1.0,0.8
2025-03-12T1100,1890A,101.7169,26.585,攀枝花市,炳草岗,细颗粒物(PM2.5),79,91,55,58,31,42,,53,34,72,35,16,9,1.1,0.9
2025-03-12T1100,1891A,101.7369,26.5008,攀枝花市,仁和,细颗粒物(PM2.5),58,58,45,41,29,95,,86,81,33,18,10,8,0.8,0.6
2025-03-12T1100,2835A,101.7227,26.567,攀枝花市,四十中小,颗粒物(PM10),64,77,65,40,38,66,,92,62,58,25,16,12,0.9,0.6
2025-03-12T1100,1604A,122.0303,41.1489,盘锦市,开发区,,49,49,52,3,54,89,,55,55,7,19,8,9,0.3,0.6
2025-03-12T1100,1605A,122.0485,41.0883,盘锦市,兴隆台,,27,17,53,3,54,85,,54,54,12,21,5,5,0.4,0.7
2025-03-12T1100,1606A,121.8297,41.1028,盘锦市,新生街道,,,44,43,6,52,,,48,47,10,24,10,9,0.6,0.8
2025-03-12T1100,1832A,113.3257,33.742,平顶山市,新华旅馆,颗粒物(PM10),125,200,137,42,63,78,,60,60,16,34,5,5,0.2,0.4
2025-03-12T1100,1833A,113.2919,33.737,平顶山市,规划设计院,颗粒物(PM10),128,205,134,43,71,72,,56,56,14,32,5,3,0.3,0.6
2025-03-12T1100,1834A,113.182,33.774,平顶山市,平顶山工学院,颗粒物(PM10),132,214,130,46,66,56,,49,49,10,16,8,6,0.6,0.7
2025-03-12T1100,3204A,113.3025,33.73,平顶山市,规划局,颗粒物(PM10),126,202,132,55,84,73,,60,60,16,31,,5,0.5,0.7
2025-03-12T1100,3594A,112.8867,33.9116,平顶山市,石龙区,颗粒物(PM10),193,335,166,46,57,85,,76,76,13,24,5,6,0.4,0.5
2025-03-12T1100,2656A,106.6692,35.5461,平凉市,聚贤嘉苑,,,,139,,31,58,,41,39,,25,13,10,,0.1
2025-03-12T1100,2657A,106.7021,35.5307,平凉市,博物馆,颗粒物(PM10),135,219,155,30,33,57,,40,38,28,27,17,15,0.6,0.5
2025-03-12T1100,2347A,114.0997,27.5002,萍乡市,武功山,细颗粒物(PM2.5),105,81,42,79,36,47,,13,13,17,19,7,5,0.7,0.7
2025-03-12T1100,2348A,113.8385,27.6434,萍乡市,中医院,细颗粒物(PM2.5),113,118,70,85,51,11,,6,6,31,31,21,13,1.5,1.4
2025-03-12T1100,2349A,113.8493,27.6253,萍乡市,市政府车库,,,69,61,42,45,,,8,8,,32,,10,,1.6
2025-03-12T1100,2350A,113.8676,27.6435,萍乡市,市环保局,细颗粒物(PM2.5),72,79,57,52,42,14,,8,8,30,34,14,10,1.2,1.1
2025-03-12T1100,2351A,113.866,27.6198,萍乡市,安源区政府,细颗粒物(PM2.5),63,61,59,45,50,22,,8,8,17,29,14,12,0.9,1.2
2025-03-12T1100,2319A,119.0141,25.4325,莆田市,荔城区仓后路,"颗粒物(PM10),细颗粒物(PM2.5)",69,88,53,50,39,76,,41,41,27,23,4,4,0.8,0.8
2025-03-12T1100,2320A,119.0015,25.4553,莆田市,莆田市监测站,,,87,56,61,44,,,,,,19,,4,,0.7
2025-03-12T1100,2321A,119.1119,25.4561,莆田市,涵江区六中,细颗粒物(PM2.5),88,72,43,65,35,70,,36,36,34,30,5,3,0.5,0.4
2025-03-12T1100,2322A,119.1013,25.3215,莆田市,秀屿区政府,细颗粒物(PM2.5),102,80,41,76,39,85,,53,53,30,18,9,4,0.9,0.7
2025-03-12T1100,2323A,118.981,25.4792,莆田市,东圳水库,,,,,,,,,,,,,,,,
2025-03-12T1100,2392A,115.0312,35.7636,濮阳市,环保局,颗粒物(PM10),134,217,91,51,76,81,,44,44,8,18,6,4,0.5,0.7
2025-03-12T1100,2394A,115.0574,35.7609,濮阳市,油田运输公司,颗粒物(PM10),159,267,129,63,74,90,,47,47,11,22,5,5,0.8,1.1
2025-03-12T1100,3021A,115,35.7668,濮阳市,濮水河管理处,颗粒物(PM10),194,338,149,54,75,87,,34,34,,33,,5,0.6,0.9
2025-03-12T1100,4216A,115.0924,35.7686,濮阳市,任丘路479号,颗粒物(PM10),163,275,126,51,79,90,,44,44,20,33,6,5,0.4,0.7
2025-03-12T1100,2601A,100.98,22.7633,普洱市,市环保局,细颗粒物(PM2.5),105,116,79,79,38,,,66,61,29,15,5,5,1.1,0.8
2025-03-12T1100,2602A,100.9817,22.8322,普洱市,普洱第二中学,颗粒物(PM10),71,91,73,38,39,87,,38,38,24,27,7,7,0.6,0.5
2025-03-12T1100,2262A,131.0518,45.8751,七台河市,新一中,细颗粒物(PM2.5),62,63,51,44,31,81,,82,75,19,16,14,12,0.9,0.8
2025-03-12T1100,3345A,131.0577,45.7879,七台河市,中波台,颗粒物(PM10),56,61,54,34,30,72,,89,86,26,19,10,8,0.4,0.5
2025-03-12T1100,3637A,131.0176,45.7761,七台河市,人民广场,,,78,67,50,40,76,,88,87,,23,10,10,,0.7
2025-03-12T1100,3684A,130.8781,45.8222,七台河市,新建矿广场,,,102,70,3,41,74,,,,,32,6,16,0.4,0.6
2025-03-12T1100,1779A,123.9305,47.3636,齐齐哈尔市,安居小区,,,32,42,19,36,87,,82,82,,18,,7,0.3,0.4
2025-03-12T1100,1780A,123.9488,47.3386,齐齐哈尔市,中心广场,,36,36,55,20,29,82,,73,73,12,17,4,6,0.4,0.5
2025-03-12T1100,1781A,123.9483,47.3227,齐齐哈尔市,农牧车辆厂,,34,34,44,18,22,88,,78,78,11,15,4,5,0.2,0.2
2025-03-12T1100,1783A,123.945,47.2988,齐齐哈尔市,市环境监测站,,27,27,51,18,29,82,,71,71,10,14,3,6,0.4,0.5
2025-03-12T1100,3662A,123.6333,47.2075,齐齐哈尔市,富区青少年活动中心,,26,26,45,13,25,82,,78,78,9,10,6,6,0.4,0.5
2025-03-12T1100,2591A,107.9783,26.5747,黔东南苗族侗族自治州,市环境监测站,颗粒物(PM10),51,51,36,33,22,37,,38,35,12,7,3,2,0.6,0.5
2025-03-12T1100,2881A,107.8908,26.5311,黔东南苗族侗族自治州,凯里学院,,34,34,18,23,21,39,,38,37,9,4,2,2,0.6,0.5
2025-03-12T1100,2593A,107.5228,26.2403,黔南布依族苗族自治州,小围寨,,25,17,19,17,16,45,,43,42,7,5,4,4,0.5,0.4
2025-03-12T1100,3538A,107.5175,26.2978,黔南布依族苗族自治州,沙坝,,32,24,26,22,19,50,,54,51,9,8,4,4,0.4,0.5
2025-03-12T1100,2589A,104.9022,25.0925,黔西南布依族苗族自治州,场坝街,颗粒物(PM10),66,82,53,45,38,49,,53,53,17,15,10,5,0.6,0.5
2025-03-12T1100,2590A,104.8811,25.0992,黔西南布依族苗族自治州,坪东大道,细颗粒物(PM2.5),84,75,50,62,43,46,,47,47,18,22,8,5,0.4,0.5
2025-03-12T1100,2502A,108.6236,21.9667,钦州市,市环保站,,34,34,46,17,17,36,,35,34,19,26,7,6,0.8,0.8
2025-03-12T1100,2503A,108.6549,21.9481,钦州市,沙埠小学,,45,45,44,17,22,42,,31,29,12,23,6,7,0.8,0.9
2025-03-12T1100,2504A,108.5989,21.7431,钦州市,港区一小,颗粒物(PM10),60,69,60,25,24,30,,37,27,36,33,10,8,0.7,0.8
2025-03-12T1100,3404A,108.5959,21.9633,钦州市,北职校,,50,50,39,28,28,26,,34,32,30,24,6,7,0.7,0.8
2025-03-12T1100,1043A,119.7493,40.0116,秦皇岛市,第一关,,,,110,,79,,,67,67,14,41,3,6,0.2,0.7
2025-03-12T1100,1044A,119.5897,39.9499,秦皇岛市,监测站,,31,31,104,6,69,87,,76,76,7,38,2,4,0.2,0.8
2025-03-12T1100,1046A,119.5251,39.9041,秦皇岛市,建设大厦,,27,27,116,9,73,85,,77,77,20,38,3,6,0.2,0.8
2025-03-12T1100,3132A,119.610547,39.943889,秦皇岛市,文明里,,26,26,94,6,56,82,,76,76,13,33,3,5,0.1,0.6
2025-03-12T1100,4198A,119.5090,39.8253,秦皇岛市,北戴河轮滑馆,,42,42,115,14,82,83,,59,59,14,39,5,6,0.2,0.9
2025-03-12T1100,1307A,120.6659,36.2403,青岛市,仰口,细颗粒物(PM2.5),159,219,50,121,41,100,,77,77,15,16,5,3,0.7,0.4
2025-03-12T1100,1310A,120.4134,36.0658,青岛市,市南区东部子站,细颗粒物(PM2.5),132,183,44,100,25,56,,69,56,46,22,8,8,1.0,0.5
2025-03-12T1100,1311A,120.3664,36.1032,青岛市,四方区子站,细颗粒物(PM2.5),153,168,41,117,31,60,,68,56,50,26,5,4,1.2,0.7
2025-03-12T1100,1312A,120.2994,36.054,青岛市,市南区西部子站,细颗粒物(PM2.5),108,129,30,81,18,40,,69,55,42,29,6,6,1.1,0.7
2025-03-12T1100,1313A,120.4581,36.0858,青岛市,崂山区子站,细颗粒物(PM2.5),89,119,38,66,21,73,,74,64,32,20,10,9,0.9,0.5
2025-03-12T1100,1315A,120.3999,36.3083,青岛市,城阳区子站,细颗粒物(PM2.5),125,171,49,95,30,73,,63,51,42,32,9,6,1.2,0.7
2025-03-12T1100,1966A,120.0405,35.8735,青岛市,黄岛区4号,细颗粒物(PM2.5),113,153,32,85,22,76,,60,50,41,27,9,6,1.0,0.7
2025-03-12T1100,3362A,120.5014,36.4034,青岛市,即墨2号,细颗粒物(PM2.5),144,170,53,110,36,67,,56,44,32,28,8,7,1.1,0.8
2025-03-12T1100,3642A,120.3503,36.0736,青岛市,市北区南部,细颗粒物(PM2.5),134,125,33,102,25,35,,56,41,56,20,12,6,1.2,0.7
2025-03-12T1100,3643A,120.3948,36.1805,青岛市,李沧区北部,,,,30,,23,47,,46,37,35,32,8,10,1.1,0.6
2025-03-12T1100,4290A,120.1969,35.9546,青岛市,珠江路669号,细颗粒物(PM2.5),170,193,38,129,27,48,,62,40,68,30,8,6,1.4,0.8
2025-03-12T1100,1702A,113.0426,23.691,清远市,环保大楼,颗粒物(PM10),51,51,49,29,27,46,,22,19,45,28,13,10,0.9,0.8
2025-03-12T1100,1703A,113.0208,23.7106,清远市,凤城街办,颗粒物(PM10),54,58,42,26,23,40,,18,18,46,37,13,10,0.6,0.6
2025-03-12T1100,3025A,113.0477,23.6344,清远市,技师学院,,,55,43,26,22,57,,19,19,37,36,,8,,0.5
2025-03-12T1100,3318A,112.9903,23.7403,清远市,清新太和,,50,50,42,29,23,63,,30,30,27,26,13,11,0.6,0.6
2025-03-12T1100,3455A,113.076,23.7198,清远市,清城东城,颗粒物(PM10),56,62,42,32,22,49,,19,19,38,26,9,7,0.8,0.8
2025-03-12T1100,2661A,107.6325,35.7357,庆阳市,庆阳五中,颗粒物(PM10),453,553,669,144,134,57,,56,47,21,17,7,4,0.6,0.4
2025-03-12T1100,2662A,107.6364,35.7067,庆阳市,市环保局,颗粒物(PM10),390,492,641,134,128,56,,62,57,24,14,5,7,0.5,0.4
2025-03-12T1100,1916A,103.7897,25.5035,曲靖市,环境监测站,,49,42,47,34,26,63,,74,64,21,17,7,5,0.7,0.5
