timepoint,stationcode,longitude,latitude,area,positionname,primarypollutant,aqi,pm10,pm10_24h,pm2_5,pm2_5_24h,o3,o3_24h,o3_8h,o3_8h_24h,no2,no2_24h,so2,so2_24h,co,co_24h
2024-08-13T0000,2566A,102.1879,31.914,阿坝藏族羌族自治州,州农科所,,24,24,29,7,10,62,,75,66,10,18,6,8,0,0
2024-08-13T0000,2568A,102.2502,31.8896,阿坝藏族羌族自治州,马师校,,27,27,19,8,9,72,,111,98,6,9,3,3,0.3,0.3
2024-08-13T0000,3994A,102.2165,31.9024,阿坝藏族羌族自治州,马尔康中学西区,,25,,13,14,13,80,,108,100,6,9,4,4,0.3,0.3
2024-08-13T0000,2695A,80.292,41.1694,阿克苏地区,电视台,颗粒物(PM10),57,64,36,36,18,76,,139,122,34,14,4,4,0.7,0.5
2024-08-13T0000,2696A,80.2613,41.1551,阿克苏地区,艺术中心,颗粒物(PM10),63,76,39,29,18,48,,138,117,52,14,4,4,1.2,0.5
2024-08-13T0000,2204A,105.6467,38.8363,阿拉善盟,西城区西花园,,44,24,35,17,13,138,,167,164,13,11,30,11,1.1,0.8
2024-08-13T0000,2205A,105.6985,38.8411,阿拉善盟,蒙二幼,,43,41,31,21,12,137,,152,151,8,7,20,11,0.7,0.4
2024-08-13T0000,2206A,105.724,38.8516,阿拉善盟,环保局新楼,,43,38,25,20,10,137,,160,158,8,6,14,10,0.6,0.4
2024-08-13T0000,2708A,88.1264,47.8517,阿勒泰地区,市站,,20,20,17,13,8,58,,95,86,18,11,7,7,0.7,0.6
2024-08-13T0000,2630A,80.1161,32.5,阿里地区,阿里监测站,,30,6,7,3,4,95,,84,84,10,7,6,7,0.2,0.2
2024-08-13T0000,3192A,80.0903,32.5028,阿里地区,阿里藏医院,,34,6,8,3,2,107,,93,93,4,4,6,6,0.2,0.2
2024-08-13T0000,2642A,109.0318,32.6537,安康市,香溪洞,,38,38,45,20,19,77,,136,121,10,7,7,6,0.4,0.3
2024-08-13T0000,2643A,109.0281,32.6939,安康市,安康市监测站,,44,44,52,16,20,57,,132,102,13,9,7,7,0.4,0.4
2024-08-13T0000,2644A,109.0072,32.6975,安康市,汉滨区检察院,,36,36,45,11,16,57,,122,99,9,8,7,7,0.4,0.4
2024-08-13T0000,2291A,117.0809,30.5177,安庆市,环科院,,30,30,50,17,21,16,,127,77,59,21,13,8,1.1,0.7
2024-08-13T0000,2292A,117.0331,30.5119,安庆市,马山宾馆,,44,,26,28,22,7,,122,80,87,25,15,10,0.8,0.6
2024-08-13T0000,2294A,116.9896,30.6145,安庆市,安庆大学,颗粒物(PM10),53,55,57,26,26,67,,134,97,13,13,8,14,1.0,1
2024-08-13T0000,3173A,117.0598,30.5351,安庆市,市人大,,40,40,54,24,23,60,,133,91,21,15,8,8,0.6,0.5
2024-08-13T0000,3122A,105.9606,26.2611,安顺市,伍家关,,,,,,,,,,,,,,,,
2024-08-13T0000,3123A,105.9408,26.2431,安顺市,凤凰山,颗粒物(PM10),54,57,74,29,28,77,,126,116,8,8,13,11,0.3,0.3
2024-08-13T0000,3124A,105.9439,26.2564,安顺市,金钟山,,46,46,72,23,27,81,,128,115,5,6,8,8,0.5,0.5
2024-08-13T0000,3125A,105.8983,26.2481,安顺市,娄家坡,,45,45,75,22,30,81,,130,118,6,7,9,9,0.6,0.6
2024-08-13T0000,1818A,114.4839,36.0621,安阳市,棉研所,,,,,,,,,,,,,,,,
2024-08-13T0000,1819A,114.3551,36.1017,安阳市,红庙街,,42,42,39,17,12,72,,155,129,19,10,6,10,0.6,0.8
2024-08-13T0000,1820A,114.361,36.0681,安阳市,银杏小区,,37,37,34,16,13,63,,154,120,26,10,2,5,0.5,0.8
2024-08-13T0000,3141A,114.3922,36.0878,安阳市,信访局,,35,35,36,16,14,77,,164,135,20,7,3,6,0.7,1
2024-08-13T0000,3669A,114.4705,36.0637,安阳市,左辅环卫站,,42,42,40,16,15,56,,149,120,17,15,5,6,0.9,1
2024-08-13T0000,3703A,114.2917,36.0949,安阳市,安钢职工学校,颗粒物(PM10),52,54,43,19,18,64,,145,110,20,13,4,6,0.6,0.6
2024-08-13T0000,1748A,123.044,41.1196,鞍山市,深沟寺,,39,39,45,17,18,46,,85,66,15,9,5,4,0.6,0.6
2024-08-13T0000,1749A,123.011,41.0931,鞍山市,太阳城,,44,44,42,23,18,42,,85,63,22,9,4,5,0.7,0.7
2024-08-13T0000,1750A,123.0485,41.1442,鞍山市,太平,颗粒物(PM10),57,64,50,35,23,57,,91,76,18,13,5,4,0.8,0.6
2024-08-13T0000,1751A,122.9642,41.0971,鞍山市,铁西三道街,细颗粒物(PM2.5),64,73,54,46,26,41,,93,68,33,22,24,10,2.9,1.3
2024-08-13T0000,1752A,122.9341,41.0833,鞍山市,铁西工业园区,,33,33,52,17,24,60,,92,74,19,18,10,7,1.3,1.3
2024-08-13T0000,1753A,123.022,41.0821,鞍山市,明达新区,,37,37,45,15,17,44,,85,64,22,9,3,3,0.4,0.5
2024-08-13T0000,1754A,123.1289,41.0228,鞍山市,千山,,,,,,,,,,,,,,,,
2024-08-13T0000,2195A,107.4212,40.761,巴彦淖尔市,附二中,,50,50,38,27,23,60,,122,99,27,17,3,5,0.5,0.6
2024-08-13T0000,2196A,107.37,40.7372,巴彦淖尔市,市环保大楼,,44,44,38,24,15,79,,119,103,16,11,4,5,0.3,0.4
2024-08-13T0000,1956A,86.1472,41.7538,巴音郭楞蒙古自治州,孔雀公园,颗粒物(PM10),57,64,40,17,13,60,,115,86,56,27,4,6,0.4,0.3
2024-08-13T0000,1957A,86.1972,41.7166,巴音郭楞蒙古自治州,棉纺厂,颗粒物(PM10),63,75,34,6,10,69,,116,96,40,27,4,5,0.3,0.3
2024-08-13T0000,1958A,86.2357,41.7173,巴音郭楞蒙古自治州,经济开发区,颗粒物(PM10),66,81,33,16,15,92,,118,106,15,12,5,6,0.2,0.2
2024-08-13T0000,2914A,106.7677,31.8794,巴中市,苏山坪,,48,48,64,22,27,138,,144,130,7,9,7,5,0.5,0.5
2024-08-13T0000,3182A,106.7656,31.8545,巴中市,丽阳花园,颗粒物(PM10),54,57,60,26,27,47,,143,93,20,13,4,4,0.6,0.6
2024-08-13T0000,3183A,106.7418,31.8654,巴中市,圣泉水务公司,颗粒物(PM10),54,58,58,26,26,44,,144,86,22,14,3,3,0.7,0.6
2024-08-13T0000,3616A,106.7616,31.8344,巴中市,市中心医院,颗粒物(PM10),59,68,63,36,30,25,,141,82,27,16,4,4,0.7,0.6
2024-08-13T0000,2235A,122.7911,45.6077,白城市,洮北区环保局,,12,12,12,3,6,38,,77,48,10,9,4,5,0.5,0.5
2024-08-13T0000,2236A,122.8738,45.5725,白城市,市环保局,,28,28,22,6,6,43,,78,54,13,8,5,5,0.4,0.4
2024-08-13T0000,2231A,126.4219,41.9171,白山市,喜丰,,22,22,23,13,8,6,,73,34,12,10,6,8,0.7,0.7
2024-08-13T0000,2232A,126.4077,41.9419,白山市,环保局,,35,35,25,16,11,9,,71,35,11,10,9,9,0.6,0.6
2024-08-13T0000,2647A,104.1724,36.5446,白银市,第三小学,,38,38,42,11,15,114,,138,127,14,16,16,71,0.6,0.7
2024-08-13T0000,2648A,104.1465,36.5482,白银市,动力公司,,39,18,32,14,12,122,,139,130,9,13,11,37,0.4,0.5
2024-08-13T0000,2512A,106.6103,23.9011,百色市,市监测站,,17,13,21,8,10,52,,97,66,5,7,4,6,0.5,0.6
2024-08-13T0000,2513A,106.6538,23.8859,百色市,市中心血站,,27,27,27,18,12,38,,96,64,9,12,2,7,0.7,0.7
2024-08-13T0000,3406A,106.6085,23.8798,百色市,祈福高中,,19,19,23,3,11,53,,90,60,4,8,2,3,0.7,0.8
2024-08-13T0000,2270A,117.396,32.939,蚌埠市,工人疗养院,颗粒物(PM10),55,60,60,24,17,69,,168,127,45,13,14,11,0.4,0.4
2024-08-13T0000,2271A,117.3605,32.9427,蚌埠市,百货大楼,,42,42,58,16,16,101,,172,144,26,7,11,9,0.4,0.4
2024-08-13T0000,2273A,117.4185,32.8911,蚌埠市,蚌埠学院,,46,46,69,15,20,105,,166,121,21,16,7,9,0.5,0.5
2024-08-13T0000,2274A,117.3533,32.9673,蚌埠市,淮上区政府,,39,39,51,21,19,102,,164,132,25,12,8,8,0.5,0.4
2024-08-13T0000,2275A,117.3145,32.8977,蚌埠市,高新区,,46,46,64,16,20,112,,168,129,15,14,7,8,0.5,0.5
2024-08-13T0000,3715A,117.3092,32.9314,蚌埠市,蚌埠田家炳中学,颗粒物(PM10),54,57,64,23,21,60,,170,124,41,13,10,11,0.6,0.5
2024-08-13T0000,1585A,109.8756,40.6532,包头市,市环境监测站,,26,6,10,3,7,83,,109,96,14,11,4,5,0.4,0.5
2024-08-13T0000,1587A,109.9991,40.5842,包头市,包头八中,,38,38,14,12,6,68,,108,88,19,13,5,7,0.9,0.5
2024-08-13T0000,1588A,109.8538,40.6821,包头市,青山宾馆,,20,13,7,3,3,64,,108,90,19,10,5,4,0.5,0.4
2024-08-13T0000,1589A,109.8642,40.6288,包头市,惠龙物流,,25,12,9,6,4,79,,109,94,14,9,4,5,0.4,0.5
2024-08-13T0000,1590A,110.0377,40.5546,包头市,东河鸿龙湾,,22,11,11,3,5,70,,117,98,18,11,6,7,0.6,0.6
2024-08-13T0000,3283A,109.9154,40.5685,包头市,滨河大厦,,24,24,10,3,6,65,,112,90,24,11,18,11,1.1,0.5
2024-08-13T0000,3419A,109.9447,40.6261,包头市,包头市委党校,,24,16,8,3,5,75,,105,85,17,11,3,3,0.4,0.4
2024-08-13T0000,3683A,109.8331,40.6576,包头市,昆区政府,,21,11,11,6,4,67,,104,87,17,11,5,3,0.5,0.4
2024-08-13T0000,1930A,107.185,34.3063,宝鸡市,庙沟村,颗粒物(PM10),69,87,43,16,17,116,,156,135,14,13,7,6,0.2,0.2
2024-08-13T0000,1931A,107.0708,34.3017,宝鸡市,竹园沟,,38,38,42,15,18,80,,159,118,16,13,8,8,0.4,0.4
2024-08-13T0000,1932A,107.1906,34.3672,宝鸡市,三陆医院,,47,47,65,16,22,61,,166,121,35,24,12,11,0.6,0.5
2024-08-13T0000,1933A,107.1431,34.3547,宝鸡市,监测站,,47,47,65,16,20,78,,160,120,22,19,7,8,0.4,0.3
2024-08-13T0000,1934A,107.1186,34.3739,宝鸡市,技工学校,,26,26,46,18,19,81,,168,129,16,14,8,9,0.5,0.5
2024-08-13T0000,1935A,107.3906,34.3528,宝鸡市,陈仓区环保局家属楼,,39,39,44,22,18,37,,164,112,53,19,7,8,0.4,0.3
2024-08-13T0000,1936A,107.2058,34.3497,宝鸡市,文理学院,颗粒物(PM10),54,58,46,16,16,85,,172,128,24,18,9,9,0.5,0.4
2024-08-13T0000,1937A,107.2386,34.3622,宝鸡市,三迪小学,,41,41,53,9,24,75,,164,122,30,21,10,10,0.5,0.4
2024-08-13T0000,1051A,115.493,38.8632,保定市,游泳馆,,18,18,19,3,2,56,,109,93,12,19,1,3,0.2,0.2
2024-08-13T0000,1052A,115.5213,38.8959,保定市,华电二区,,29,29,17,3,6,49,,109,88,10,8,6,5,0.0,0.1
2024-08-13T0000,1053A,115.4713,38.9108,保定市,接待中心,,26,26,19,3,2,44,,99,80,10,8,1,1,0.3,0.3
2024-08-13T0000,1054A,115.4612,38.8416,保定市,地表水厂,,,30,28,,4,55,,106,90,3,6,2,2,0.1,0.1
2024-08-13T0000,3581A,115.31981,38.95208,保定市,满城区生态环境分局,,22,22,10,3,0,57,,109,92,16,13,3,3,0.2,0.2
2024-08-13T0000,3582A,115.47694,38.76408,保定市,清苑区第二中学,,30,30,40,14,15,54,,132,93,14,14,4,4,0.3,0.3
2024-08-13T0000,3583A,115.62909,39.02311,保定市,徐水物探局,,,11,19,,0,51,,110,84,11,9,3,3,0.1,0.1
2024-08-13T0000,4004A,115.4202,38.8656,保定市,双鹰农机,,19,13,19,6,6,58,,115,97,7,10,1,1,0.2,0.3
2024-08-13T0000,4034A,115.5150,38.8590,保定市,植保所站,,20,17,17,8,8,61,,120,100,6,5,1,3,0.3,0.2
2024-08-13T0000,2594A,99.1678,25.1081,保山市,市环境监测站,,38,38,37,15,15,61,,111,90,6,7,4,5,0.5,0.5
2024-08-13T0000,2595A,99.1711,25.1328,保山市,市环保局,,33,33,35,6,10,76,,121,101,4,5,6,7,0.4,0.5
2024-08-13T0000,1866A,109.2262,21.588,北海市,牛尾岭水库,,,,,,,,,,,,,,,,
2024-08-13T0000,1867A,109.1436,21.4086,北海市,海滩公园,,13,,22,3,7,39,,50,35,10,9,4,4,0.5,0.5
2024-08-13T0000,1868A,109.0981,21.4661,北海市,新市环保局,,23,23,20,12,10,27,,47,30,14,13,2,2,0.6,0.7
2024-08-13T0000,1869A,109.1778,21.5233,北海市,北海工业园,,25,25,24,10,11,14,,40,24,19,15,5,5,0.7,0.6
2024-08-13T0000,3400A,109.1911,21.4415,北海市,龙潭自来水厂,,15,15,17,9,10,34,,46,30,10,8,7,6,0.7,1.1
2024-08-13T0000,1001A,116.3621,39.8784,北京市,万寿西宫,,19,6,6,3,3,58,,76,60,5,9,3,3,0.4,0.4
2024-08-13T0000,1002A,116.2202,40.2915,北京市,定陵,,14,6,3,3,1,43,,61,50,2,2,1,1,0.3,0.3
2024-08-13T0000,1003A,116.4174,39.9289,北京市,东四,,19,6,6,3,2,60,,74,61,11,13,3,2,0.5,0.5
2024-08-13T0000,1004A,116.4072,39.8863,北京市,天坛,,19,6,6,3,1,60,,78,62,11,12,3,3,0.4,0.4
2024-08-13T0000,1005A,116.462,39.9365,北京市,农展馆,,16,6,5,3,2,49,,70,57,8,9,3,3,0.4,0.4
2024-08-13T0000,1006A,116.3392,39.9295,北京市,官园,,17,7,8,7,4,54,,72,57,9,12,4,4,0.3,0.3
2024-08-13T0000,1007A,116.2878,39.9611,北京市,海淀万柳,,18,6,5,3,2,56,,74,62,7,9,2,2,0.3,0.3
2024-08-13T0000,1008A,116.6636,40.135,北京市,顺义新城,,18,6,5,3,1,56,,66,60,4,6,3,3,0.3,0.3
2024-08-13T0000,1009A,116.6275,40.3275,北京市,怀柔镇,,19,6,5,3,1,59,,67,62,6,6,5,5,0.1,0.1
2024-08-13T0000,1010A,116.2296,40.217,北京市,昌平镇,,17,8,6,3,1,52,,62,56,4,8,3,3,0.4,0.3
2024-08-13T0000,1011A,116.3966,39.9821,北京市,奥体中心,,18,6,4,3,0,57,,68,55,13,17,3,3,0.2,0.1
2024-08-13T0000,1012A,116.184,39.9136,北京市,古城,,14,9,9,3,2,42,,76,57,19,11,1,1,0.4,0.4
2024-08-13T0000,3281A,115.9718,40.4529,北京市,延庆夏都,,14,7,15,3,2,43,,66,56,5,5,3,2,0.3,0.3
2024-08-13T0000,3417A,117.0709,40.1465,北京市,平谷新城,,14,8,7,3,3,44,,57,48,6,5,3,3,0.4,0.4
2024-08-13T0000,3418A,116.8336,40.4095,北京市,密云新城,,21,6,4,3,1,67,,68,65,1,2,3,3,0.3,0.3
2024-08-13T0000,3671A,116.088,39.9726,北京市,门头沟三家店,,16,16,11,3,1,21,,70,42,24,10,3,3,0.4,0.4
2024-08-13T0000,3672A,116.1541,39.8204,北京市,丰台云岗,,10,9,8,3,1,32,,55,40,9,6,3,3,0.3,0.3
2024-08-13T0000,3673A,116.6804,39.9081,北京市,通州东关,,18,9,6,3,2,57,,71,60,5,8,3,3,0.4,0.4
2024-08-13T0000,3674A,115.9577,39.7603,北京市,房山燕山,,17,6,5,3,1,52,,70,60,5,3,3,3,0.2,0.2
2024-08-13T0000,3675A,116.4672,39.7733,北京市,大兴旧宫,,16,8,8,3,2,49,,76,59,13,12,3,3,0.4,0.4
2024-08-13T0000,3694A,115.986,40.4563,北京市,延庆石河营,,11,6,7,3,3,35,,62,52,9,4,3,3,0.3,0.3
2024-08-13T0000,3695A,116.6151,40.3053,北京市,怀柔新城,,19,6,3,3,1,59,,64,62,2,2,3,3,0.4,0.4
2024-08-13T0000,3696A,116.2545,39.8768,北京市,丰台小屯,,17,6,7,3,2,53,,73,59,6,6,5,5,0.2,0.2
2024-08-13T0000,3697A,116.84,40.3844,北京市,密云镇,,19,7,4,3,0,60,,64,59,2,3,3,3,0.4,0.4
2024-08-13T0000,1761A,123.8275,41.3064,本溪市,大峪,,23,23,44,6,13,59,,90,75,10,12,6,6,0.8,0.6
2024-08-13T0000,1762A,123.7567,41.3325,本溪市,溪湖,,28,28,47,6,16,70,,83,75,8,11,6,6,0.7,0.9
2024-08-13T0000,1763A,123.7169,41.3094,本溪市,彩屯,,26,26,48,10,21,59,,81,70,16,18,6,7,0.7,1.2
2024-08-13T0000,1764A,123.7669,41.2864,本溪市,东明,,24,16,51,10,16,76,,92,83,12,13,4,4,0.6,0.6
2024-08-13T0000,1765A,123.7992,41.2664,本溪市,新立屯,,18,13,42,7,10,57,,89,62,16,14,2,3,0.8,0.7
2024-08-13T0000,1766A,123.8142,41.3472,本溪市,威宁,,17,17,46,10,19,46,,80,61,13,13,8,8,0.6,0.6
2024-08-13T0000,2587A,105.2864,27.3125,毕节市,八中,颗粒物(PM10),57,63,72,33,27,47,,120,83,19,15,5,6,0.4,0.3
2024-08-13T0000,2588A,105.31,27.2944,毕节市,师专,颗粒物(PM10),69,88,76,37,30,64,,111,97,17,12,5,7,0.5,0.4
2024-08-13T0000,3537A,105.3631,27.3533,毕节市,长征村,颗粒物(PM10),52,54,56,30,30,88,,126,114,15,11,6,7,0.6,0.5
2024-08-13T0000,1629A,118.0018,37.3617,滨州市,第二水厂,,32,12,27,3,11,102,,146,126,8,11,2,3,0.5,0.6
2024-08-13T0000,1630A,117.9776,37.393,滨州市,北中新校,,28,27,29,7,9,89,,133,118,16,14,4,6,0.3,0.4
2024-08-13T0000,3514A,117.9378,37.3956,滨州市,中海酒店,,29,29,32,12,16,61,,137,106,25,16,4,12,0.8,0.9
2024-08-13T0000,3515A,117.9378,37.3553,滨州市,开发区一中,,39,39,34,19,14,68,,147,116,31,18,6,8,0.4,0.5
2024-08-13T0000,3516A,118.0917,37.694,滨州市,金海六路,,27,27,27,9,8,41,,140,90,45,26,2,4,0.5,0.5
2024-08-13T0000,4028A,117.9956,37.3753,滨州市,滨州市西街道办事处,,34,12,26,7,12,106,,155,,7,9,3,5,0.5,0.5
2024-08-13T0000,2311A,115.8072,33.8399,亳州市,污水处理厂,颗粒物(PM10),51,51,38,24,12,85,,156,132,17,14,7,2,0.5,0.4
2024-08-13T0000,2312A,115.7789,33.8518,亳州市,三国揽胜宫,,41,33,38,20,13,130,,161,146,10,11,4,4,0.6,0.5
2024-08-13T0000,3332A,115.7633,33.8034,亳州市,亳州学院,,40,40,35,15,7,117,,157,137,10,9,2,2,0.5,0.5
2024-08-13T0000,2693A,82.0485,44.8556,博尔塔拉蒙古自治州,市党校,,32,24,18,11,7,100,,117,108,9,9,7,7,0.4,0.4
2024-08-13T0000,2694A,82.0806,44.8969,博尔塔拉蒙古自治州,市环保局,,35,35,24,11,10,98,,109,104,12,11,6,6,0.3,0.3
2024-08-13T0000,1071A,116.8842,38.2991,沧州市,沧县城建局,,36,36,25,18,10,84,,120,96,14,12,4,3,0.5,0.3
2024-08-13T0000,1072A,116.8584,38.3254,沧州市,电视转播站,,33,33,22,14,7,83,,126,100,16,13,3,3,0.3,0.2
2024-08-13T0000,1073A,116.8709,38.3228,沧州市,市环保局,,38,38,22,12,9,81,,122,95,14,11,1,3,0.4,0.2
2024-08-13T0000,3324A,116.8136,38.3004,沧州市,河北水利电力学院,,34,34,20,17,16,83,,122,96,18,16,3,5,0.5,0.3
2024-08-13T0000,2622A,97.1806,31.1273,昌都市,昌都监测站,,23,21,13,10,7,71,,122,91,14,12,5,5,0.4,0.5
2024-08-13T0000,3719A,97.1714,31.1406,昌都市,昌都会议中心,,27,14,12,9,6,85,,141,114,4,4,7,7,0.3,0.4
2024-08-13T0000,2690A,88.1236,43.8886,昌吉回族自治州,天山天池,,17,15,15,8,7,54,,99,82,7,7,8,8,0.6,0.6
2024-08-13T0000,2692A,87.2717,44.0297,昌吉回族自治州,新区政务中心,,38,38,19,13,9,60,,115,98,32,13,9,10,0.6,0.5
2024-08-13T0000,3613A,87.3095,44.0142,昌吉回族自治州,亚心广场,,41,41,23,12,5,62,,121,104,43,17,4,6,0.4,0.3
2024-08-13T0000,1119A,125.3325,43.9166,长春市,食品厂,,14,,20,9,13,44,,52,47,6,13,2,2,0.3,0.4
2024-08-13T0000,1120A,125.2863,43.9027,长春市,客车厂,,14,12,22,6,12,42,,57,48,9,12,5,5,0.3,0.4
2024-08-13T0000,1121A,125.2841,43.8463,长春市,邮电学院,,14,14,24,8,12,29,,50,42,16,11,6,6,0.3,0.4
2024-08-13T0000,1122A,125.3716,43.8772,长春市,劳动公园,,16,16,23,3,10,36,,65,45,14,12,7,7,0.6,0.6
2024-08-13T0000,1123A,125.3297,43.8805,长春市,园林处,,17,17,21,8,11,40,,60,46,10,11,3,2,0.4,0.5
2024-08-13T0000,1124A,125.4605,43.79,长春市,净月潭,,,,21,,9,,,52,42,,7,,5,,0.5
2024-08-13T0000,1125A,125.7194,43.515,长春市,甩湾子,,,,,,,,,,,,,,,,
2024-08-13T0000,1126A,125.3863,43.8447,长春市,经开区环卫处,,13,9,23,3,11,41,,60,43,10,13,5,5,0.4,0.5
2024-08-13T0000,1127A,125.245,43.7783,长春市,高新区管委会,,14,8,25,3,14,43,,61,50,9,12,3,2,0.4,0.5
2024-08-13T0000,1128A,125.1761,43.8325,长春市,岱山公园,,15,15,24,10,15,23,,55,39,23,11,2,2,0.6,0.6
2024-08-13T0000,1335A,113.0833,28.2325,长沙市,经开区环保局,,23,23,37,7,18,60,,124,74,10,18,1,2,0.4,0.6
2024-08-13T0000,1336A,112.8872,28.2189,长沙市,高开区环保局,,26,26,36,15,20,54,,112,68,13,12,3,3,0.7,0.7
2024-08-13T0000,1337A,113.0792,28.2053,长沙市,马坡岭,,24,24,35,11,18,59,,130,67,9,14,2,3,0.4,0.5
2024-08-13T0000,1338A,112.9394,28.19,长沙市,湖南师范大学,,25,22,39,17,21,44,,121,64,16,10,5,5,0.7,0.7
2024-08-13T0000,1339A,113.0178,28.1322,长沙市,雨花区环保局,,22,20,31,15,19,54,,111,65,11,12,4,4,0.4,0.5
2024-08-13T0000,1340A,112.9792,28.2597,长沙市,伍家岭,,32,32,38,10,16,54,,124,72,11,10,2,2,0.6,0.6
2024-08-13T0000,1341A,113.0014,28.1944,长沙市,火车新站,,26,26,36,14,19,60,,119,70,11,11,3,4,0.4,0.6
2024-08-13T0000,1342A,112.9844,28.1178,长沙市,天心区环保局,,28,26,35,19,22,44,,109,59,18,15,2,3,0.6,0.6
2024-08-13T0000,1343A,112.8908,28.1308,长沙市,湖南中医药大学,,24,24,33,12,17,40,,117,63,18,12,4,4,0.7,0.7
2024-08-13T0000,1344A,112.9581,28.3611,长沙市,沙坪,,36,36,36,8,17,51,,125,76,10,13,6,6,0.6,0.7
2024-08-13T0000,1727A,113.1147,36.1547,长治市,清华站,,49,24,20,9,8,154,,148,139,7,12,7,8,0.9,0.6
2024-08-13T0000,1728A,113.1031,36.1989,长治市,监测站,,38,38,27,9,7,121,,142,132,17,16,8,9,1.7,0.7
2024-08-13T0000,1730A,113.0886,36.2125,长治市,审计局,,42,42,20,12,6,126,,133,130,15,15,5,7,1.1,0.3
2024-08-13T0000,1731A,113.0844,36.1856,长治市,长治八中,,43,34,22,13,9,135,,134,133,12,14,6,8,1.0,0.5
2024-08-13T0000,2845A,113.1569,36.1911,长治市,德盛苑,,46,26,19,12,6,145,,143,137,5,10,8,11,1.0,0.8
2024-08-13T0000,3568A,113.06,36.0464,长治市,向阳小学,,44,29,41,16,17,138,,141,123,8,13,7,9,0.9,0.6
2024-08-13T0000,3569A,112.8792,36.3144,长治市,屯留一中,,44,36,31,17,11,140,,132,131,13,15,9,10,0.7,0.5
2024-08-13T0000,3570A,113.235,36.3489,长治市,潞城四中,,43,43,32,14,14,136,,157,156,12,17,5,6,0.8,0.7
2024-08-13T0000,1854A,111.6975,28.9703,常德市,市二中,,40,33,83,28,29,63,,105,,16,10,13,8,0.5,0.5
2024-08-13T0000,1857A,111.7158,29.1456,常德市,白鹤山,,,,,,,,,,,,,,,,
2024-08-13T0000,3138A,111.7153,29.0289,常德市,武陵区永安,,41,41,85,21,26,77,,107,93,8,9,12,9,0.5,0.4
2024-08-13T0000,3139A,111.6892,28.9881,常德市,鼎城区玉霞,,41,41,86,28,33,68,,101,86,13,11,8,5,0.6,0.6
2024-08-13T0000,3140A,111.6625,29.0531,常德市,武陵区长庚,,42,42,80,23,28,67,,119,95,19,10,11,8,0.5,0.5
2024-08-13T0000,1196A,119.9633,31.762,常州市,市监测站,颗粒物(PM10),69,87,43,44,26,68,,164,112,41,19,7,7,1.1,0.7
2024-08-13T0000,1200A,119.9468,31.7069,常州市,武进监测站,颗粒物(PM10),53,55,42,30,24,73,,156,101,26,16,11,10,1.1,0.9
2024-08-13T0000,1201A,119.9255,31.9087,常州市,安家,颗粒物(PM10),59,67,53,35,26,55,,152,89,33,23,5,4,1.0,0.8
2024-08-13T0000,3002A,119.9805,31.8174,常州市,行政中心,颗粒物(PM10),61,71,45,41,28,72,,163,107,27,17,6,6,1.0,0.5
2024-08-13T0000,3003A,120.0522,31.7748,常州市,经开区,颗粒物(PM10),63,76,49,38,24,46,,136,77,31,18,8,8,0.6,0.3
2024-08-13T0000,3010A,119.9025,31.7964,常州市,钟楼,颗粒物(PM10),58,66,51,35,24,61,,162,106,39,20,9,8,2.2,0.9
2024-08-13T0000,3429A,119.8598,31.7066,常州市,武进经发区,颗粒物(PM10),52,53,54,25,25,79,,161,105,22,20,9,10,0.6,0.7
2024-08-13T0000,3430A,119.5826,31.7245,常州市,金坛城区,颗粒物(PM10),58,65,56,24,25,105,,163,132,11,9,6,6,0.9,0.8
2024-08-13T0000,2220A,120.4318,41.5881,朝阳市,西梁,,15,11,22,10,12,40,,78,39,7,4,7,8,0.5,0.5
2024-08-13T0000,2221A,120.4521,41.5646,朝阳市,河畔小区,,18,11,28,6,9,57,,83,50,5,5,6,7,0.5,0.6
2024-08-13T0000,2222A,120.4176,41.5648,朝阳市,八里堡,,15,12,25,7,12,45,,80,40,11,9,5,4,0.6,0.7
2024-08-13T0000,2223A,120.3806,41.5969,朝阳市,农业园区,,13,13,24,6,12,33,,73,34,6,5,6,6,0.5,0.6
2024-08-13T0000,1705A,116.6367,23.6719,潮州市,西园路,,25,24,40,17,25,26,,86,46,6,10,3,3,0.3,0.4
2024-08-13T0000,3026A,116.6183,23.6608,潮州市,市政府,,44,44,44,17,24,28,,99,55,17,13,14,12,0.8,0.8
2024-08-13T0000,4036A,116.6461,23.6761,潮州市,金山,,28,,40,19,24,29,,108,50,6,12,5,7,0.6,0.7
2024-08-13T0000,2472A,113.0073,25.9061,郴州市,马头岭,,16,11,22,9,8,49,,60,53,4,8,6,8,0.2,0.3
2024-08-13T0000,2473A,113.0116,25.8226,郴州市,市职中,,12,,21,8,16,33,,74,58,6,10,6,7,0.4,0.5
2024-08-13T0000,2474A,113.0161,25.8001,郴州市,兴隆步行街,,15,,26,6,16,47,,79,67,11,13,4,6,0.6,0.6
2024-08-13T0000,2475A,113.0383,25.8071,郴州市,市审计局,,13,,20,9,17,40,,75,63,13,12,3,6,0.4,0.4
2024-08-13T0000,2476A,113.0348,25.7759,郴州市,市环保局,,13,11,23,3,14,39,,75,66,16,16,2,5,0.5,0.5
2024-08-13T0000,1431A,103.9728,30.7236,成都市,金泉两河,颗粒物(PM10),53,56,46,33,20,16,,176,101,55,25,1,2,0.6,0.6
2024-08-13T0000,1432A,104.176,30.6872,成都市,十里店,颗粒物(PM10),62,73,65,31,24,45,,170,136,64,27,4,4,0.7,0.5
2024-08-13T0000,1433A,104.079,30.5706,成都市,三瓦窑,颗粒物(PM10),64,78,67,23,28,0,,162,114,116,49,5,3,1.0,0.5
2024-08-13T0000,1434A,104.1114,30.63,成都市,沙河铺,颗粒物(PM10),56,62,62,27,21,14,,174,115,74,26,5,5,2.5,1
2024-08-13T0000,1437A,104.0786,30.6531,成都市,君平街,颗粒物(PM10),60,69,70,40,26,88,,188,150,43,30,4,4,0.7,0.6
2024-08-13T0000,1438A,103.613,31.0283,成都市,灵岩寺,,,,,,,,,,,,,,,,
2024-08-13T0000,2880A,104.0239,30.65639,成都市,大石西路,颗粒物(PM10),64,78,64,38,25,64,,178,134,46,32,4,5,0.7,0.6
2024-08-13T0000,3136A,104.2725,30.5589,成都市,龙泉驿区区政府,,33,31,64,14,18,105,,162,135,10,11,4,5,0.4,0.4
2024-08-13T0000,3357A,104.0106,30.6931,成都市,金博路,颗粒物(PM10),59,67,56,25,20,27,,180,109,69,30,2,2,0.7,0.5
2024-08-13T0000,3359A,104.0578,30.5225,成都市,华阳,颗粒物(PM10),60,70,65,41,30,53,,168,133,55,19,3,4,0.9,0.6
2024-08-13T0000,3487A,104.2394,30.5319,成都市,车城东七路,颗粒物(PM10),57,63,81,26,26,62,,172,129,38,15,3,4,0.4,0.4
2024-08-13T0000,3488A,104.3853,30.7453,成都市,青白江技师分院,颗粒物(PM10),51,51,57,17,19,75,,199,134,58,31,4,5,0.5,0.5
2024-08-13T0000,3489A,104.0789,30.4072,成都市,科学城,颗粒物(PM10),51,51,64,20,25,71,,167,132,23,14,2,3,0.6,0.5
2024-08-13T0000,4011A,103.8506,30.6947,成都市,光华大道三段,颗粒物(PM10),51,52,47,17,18,70,,183,132,24,20,2,3,0.7,0.6
2024-08-13T0000,1062A,117.9531,40.9081,承德市,铁路,,14,12,16,3,7,44,,51,33,11,16,6,7,0.3,0.4
2024-08-13T0000,1063A,117.9392,40.9763,承德市,中国银行,,15,12,13,7,6,47,,52,44,11,12,4,4,0.2,0.3
2024-08-13T0000,1064A,117.9503,40.928,承德市,开发区,,18,17,18,7,7,55,,58,48,10,9,5,6,0.3,0.3
2024-08-13T0000,1065A,117.8051,40.9655,承德市,文化中心,,23,23,16,3,4,13,,60,30,20,12,6,6,0.3,0.3
2024-08-13T0000,1066A,117.9268,41.0026,承德市,离宫,,33,33,22,3,6,9,,39,12,5,5,3,4,0.3,0.3
2024-08-13T0000,2314A,117.47,30.6618,池州市,池州学院,,31,31,32,18,17,47,,123,78,16,10,5,6,0.8,0.7
2024-08-13T0000,3237A,117.4918,30.6617,池州市,展览馆,,32,32,35,15,16,58,,131,85,10,8,4,5,0.7,0.6
2024-08-13T0000,3333A,117.5627,30.695,池州市,第八中学,,25,25,31,12,16,36,,121,70,16,10,4,4,0.7,0.7
2024-08-13T0000,3334A,117.5038,30.6243,池州市,第十二中学,,27,27,33,15,16,40,,117,65,14,13,4,5,1.0,1
2024-08-13T0000,1744A,118.9233,42.2816,赤峰市,松山一中,,12,12,7,3,3,38,,74,54,17,16,8,8,0.6,0.6
2024-08-13T0000,1745A,118.9576,42.2728,赤峰市,哈达街,,11,11,7,3,5,35,,74,55,9,9,9,9,0.4,0.4
2024-08-13T0000,1746A,118.8788,42.2554,赤峰市,天义路,,20,20,10,13,6,38,,78,48,13,14,6,6,0.4,0.4
2024-08-13T0000,3058A,119.2658,42.0353,赤峰市,银河街,,26,10,8,3,6,82,,73,73,10,10,13,10,0.3,0.3
2024-08-13T0000,3286A,118.9359,42.3147,赤峰市,桥北物流园区,,16,16,9,7,4,31,,83,55,11,8,7,6,0.6,0.6
2024-08-13T0000,2521A,107.3476,22.4136,崇左市,市环保局江州分局,,33,33,24,17,12,33,,102,68,20,8,10,6,0.6,0.5
2024-08-13T0000,2522A,107.3702,22.3707,崇左市,城南新区,,30,30,21,13,10,36,,91,62,14,7,6,4,0.7,0.6
2024-08-13T0000,2298A,118.3093,32.3153,滁州市,老年大学,,45,45,64,19,22,130,,155,144,13,8,8,7,0.5,0.4
2024-08-13T0000,2299A,118.3244,32.2786,滁州市,人大宾馆,,42,42,80,24,26,134,,157,144,13,11,7,7,0.7,0.6
2024-08-13T0000,3207A,118.3118,32.3038,滁州市,市政府原办公楼,,41,41,73,22,26,129,,152,141,11,9,8,8,0.8,0.7
2024-08-13T0000,3331A,118.3267,32.2634,滁州市,图书馆,,43,43,80,22,21,126,,152,142,12,9,5,5,1.0,0.8
2024-08-13T0000,2605A,101.5482,25.0441,楚雄彝族自治州,州环境监测站,,36,36,39,25,18,27,,130,95,49,20,6,6,0.7,0.6
2024-08-13T0000,2606A,101.538,25.0492,楚雄彝族自治州,市经济开发区,颗粒物(PM10),51,52,42,28,19,31,,128,93,42,18,6,7,0.8,0.7
2024-08-13T0000,2548A,107.5277,31.2827,达州市,达州职业技术学院,颗粒物(PM10),58,65,63,29,22,13,,117,51,13,8,5,6,0.6,0.5
2024-08-13T0000,2549A,107.5086,31.2186,达州市,市环境监测站,颗粒物(PM10),57,63,67,24,22,23,,142,75,36,24,6,6,0.6,0.6
2024-08-13T0000,2550A,107.4988,31.2132,达州市,凤凰小区,颗粒物(PM10),59,68,66,36,28,30,,151,77,33,22,7,7,0.6,0.6
2024-08-13T0000,2551A,107.5082,31.1986,达州市,达县机关宾馆,颗粒物(PM10),58,66,75,27,27,18,,156,65,48,32,4,6,0.4,0.5
2024-08-13T0000,2552A,107.4644,31.2124,达州市,市政中心,颗粒物(PM10),59,68,66,31,23,24,,158,77,41,23,8,9,0.7,0.7
2024-08-13T0000,2614A,100.1542,25.7054,大理白族自治州,大理市环境监测站,,36,32,28,25,19,73,,122,100,33,17,8,5,0.6,0.6
2024-08-13T0000,2615A,100.2171,25.5811,大理白族自治州,大理古城,,35,35,33,19,15,86,,120,98,18,13,8,7,0.6,0.6
2024-08-13T0000,1109A,121.612,38.9741,大连市,甘井子,颗粒物(PM10),53,55,76,28,36,97,,136,108,13,16,7,7,0.6,0.6
2024-08-13T0000,1110A,121.565,38.9511,大连市,周水子,颗粒物(PM10),53,55,70,27,37,104,,125,112,5,9,6,9,0.6,0.7
2024-08-13T0000,1111A,121.5637,38.8845,大连市,星海三站,颗粒物(PM10),54,58,71,28,37,101,,139,114,2,6,7,8,0.5,0.6
2024-08-13T0000,1112A,121.6302,38.9117,大连市,青泥洼桥,颗粒物(PM10),55,59,83,29,40,101,,133,114,3,7,6,7,0.7,0.8
2024-08-13T0000,1113A,121.6251,38.8638,大连市,傅家庄,颗粒物(PM10),52,53,68,25,34,92,,124,109,3,5,5,6,0.7,0.8
2024-08-13T0000,1114A,121.5213,38.8661,大连市,七贤岭,颗粒物(PM10),53,55,73,27,37,104,,143,120,6,9,6,6,0.7,0.8
2024-08-13T0000,1115A,121.2529,38.8061,大连市,旅顺,颗粒物(PM10),58,66,77,27,35,100,,164,135,5,12,7,8,0.4,0.5
2024-08-13T0000,1116A,121.7485,39.1311,大连市,金州,,48,48,64,26,38,88,,113,95,6,9,6,6,0.4,0.5
2024-08-13T0000,1117A,121.7811,39.0496,大连市,开发区,颗粒物(PM10),57,64,81,30,37,100,,116,104,2,10,7,8,0.4,0.4
2024-08-13T0000,1118A,121.9762,39.0631,大连市,双D港,,47,47,67,23,28,94,,103,98,6,9,5,5,0.5,0.5
2024-08-13T0000,1789A,124.81117,46.03138,大庆市,大同区,,26,19,10,18,12,38,,75,59,9,5,8,7,0.4,0.3
2024-08-13T0000,1790A,125.129,46.533,大庆市,龙凤区,,18,17,16,12,9,46,,74,61,15,8,4,4,0.3,0.3
2024-08-13T0000,1791A,124.902,46.408,大庆市,红岗区,,32,32,18,13,14,35,,78,56,18,10,7,7,0.5,0.4
2024-08-13T0000,1792A,125.153,46.586,大庆市,萨尔图区,,16,,15,8,7,49,,68,58,10,6,4,5,0.3,0.3
2024-08-13T0000,1793A,124.9042,46.6215,大庆市,让胡路区,,27,27,23,14,9,45,,72,59,9,5,4,4,0.3,0.2
2024-08-13T0000,3481A,125.141,46.634,大庆市,萨区政府监测点,,16,14,17,3,6,50,,71,60,5,6,6,6,0.2,0.3
2024-08-13T0000,1721A,113.3819,40.1097,大同市,果树场,,,,,,,,,,,,,,,,
2024-08-13T0000,1723A,113.2994,40.0758,大同市,云冈宾馆,,20,20,12,3,6,63,,92,78,13,8,7,8,0.8,0.6
2024-08-13T0000,1724A,113.3444,40.0917,大同市,大同大学,,,,,12,9,44,,59,59,24,16,6,6,0.5,0.5
2024-08-13T0000,1725A,113.2661,40.1269,大同市,安家小村,,21,8,8,3,3,67,,91,79,6,4,8,10,0.5,0.5
2024-08-13T0000,1726A,113.2711,40.0844,大同市,教育学院,,21,8,10,3,4,67,,90,78,10,9,8,10,0.4,0.5
2024-08-13T0000,3282A,113.3397,40.0597,大同市,大同市卫生学校,,18,13,12,12,5,57,,91,75,18,10,8,8,1.0,0.6
2024-08-13T0000,3565A,113.1367,40.1122,大同市,云冈站,,14,9,20,3,6,43,,91,75,18,9,8,9,0.4,0.4
2024-08-13T0000,3566A,113.1186,40.2556,大同市,图书馆,,24,24,9,3,6,63,,95,75,11,10,14,9,0.6,0.5
2024-08-13T0000,3567A,113.5931,40.0461,大同市,区一中,,25,6,10,3,3,78,,88,79,5,6,6,7,0.5,0.4
2024-08-13T0000,3676A,113.2802,40.0995,大同市,第二人民医院,,22,,12,8,6,68,,91,79,10,9,8,10,0.4,0.5
2024-08-13T0000,2269A,124.1069,50.4097,大兴安岭地区,科技局,,18,14,17,12,9,19,,56,32,3,4,3,3,0.1,0.1
2024-08-13T0000,3663A,124.1164,50.4278,大兴安岭地区,红旗社区,,15,,6,10,6,5,,54,28,8,4,5,5,0.4,0.3
2024-08-13T0000,1600A,124.3303,40.0625,丹东市,江湾东路,,23,22,13,16,9,38,,70,54,6,5,3,2,0.9,0.7
2024-08-13T0000,1601A,124.4256,40.1503,丹东市,临江后街,,23,23,15,13,10,38,,70,55,5,5,4,4,0.6,0.4
2024-08-13T0000,1602A,124.3933,40.1461,丹东市,元宝山,,28,28,17,17,12,40,,69,53,4,3,1,2,0.5,0.4
2024-08-13T0000,1603A,124.3633,40.1092,丹东市,民主桥,,24,24,16,15,10,46,,71,57,7,7,2,2,0.7,0.5
2024-08-13T0000,3541A,109.5726,19.5167,儋州市,第一中学子站,,21,21,18,10,9,42,,48,46,12,5,4,4,0.4,0.4
2024-08-13T0000,3542A,109.5567,19.5187,儋州市,东坡学校子站,,19,19,15,10,9,42,,52,49,10,5,8,7,0.5,0.5
2024-08-13T0000,2616A,98.5842,24.428,德宏傣族景颇族自治州,德宏州监测站,,37,37,26,15,11,37,,86,63,8,10,8,12,0.8,0.8
2024-08-13T0000,3677A,98.5881,24.4368,德宏傣族景颇族自治州,芒市人民政府综合楼,,33,33,22,21,13,32,,81,61,9,8,8,9,0.7,0.6
2024-08-13T0000,1901A,104.4239,31.1208,德阳市,东山公园,颗粒物(PM10),70,90,77,27,22,160,,244,226,20,19,4,5,0.6,0.5
2024-08-13T0000,1902A,104.3826,31.1317,德阳市,西小区,颗粒物(PM10),64,78,75,43,30,68,,252,202,45,30,4,6,0.7,0.7
2024-08-13T0000,1904A,104.3553,31.1091,德阳市,耐火材料厂,颗粒物(PM10),63,76,75,40,30,66,,219,162,30,43,4,6,0.8,0.7
2024-08-13T0000,3639A,104.4019,31.1244,德阳市,市教育局,颗粒物(PM10),63,75,68,31,22,91,,246,193,44,26,2,4,0.7,0.7
2024-08-13T0000,1622A,116.3032,37.4674,德州市,儿童乐园,,24,22,25,7,7,75,,128,107,27,16,9,10,0.6,0.5
2024-08-13T0000,1624A,116.2991,37.4451,德州市,监理站,,29,9,17,3,5,90,,135,111,17,17,9,10,0.5,0.5
2024-08-13T0000,3066A,116.2721,37.4379,德州市,九衢泉纯净水厂,,30,22,23,3,7,96,,136,123,16,13,9,9,0.5,0.5
2024-08-13T0000,3371A,116.3728,37.4403,德州市,开发区人民医院,,25,17,22,7,5,80,,133,101,23,16,8,9,0.5,0.6
2024-08-13T0000,3372A,116.3572,37.4094,德州市,太阳城中学,,30,17,23,3,8,96,,135,98,18,20,8,9,0.5,0.5
2024-08-13T0000,3511A,116.5652,37.3319,德州市,陵城艺术中心,,25,17,24,3,5,78,,137,108,15,14,6,6,0.5,0.5
2024-08-13T0000,2621A,99.7056,27.8317,迪庆藏族自治州,迪庆州站,,37,37,22,16,11,33,,105,84,20,12,21,11,0.4,0.4
2024-08-13T0000,3180A,99.7136,27.8094,迪庆藏族自治州,质量技术监督局,,29,29,21,11,7,48,,100,80,19,14,10,9,0.7,0.6
2024-08-13T0000,2663A,104.6241,35.5734,定西市,东关小学,,44,44,44,20,17,84,,128,109,14,13,9,10,0.4,0.3
2024-08-13T0000,2664A,104.6194,35.5934,定西市,供电公司,,33,28,39,23,19,88,,126,105,14,15,5,6,0.2,0.3
2024-08-13T0000,1389A,113.7547,23.0494,东莞市,莞城梨川,,19,17,32,9,15,59,,102,64,18,32,5,7,0.7,0.8
2024-08-13T0000,1390A,113.7944,23.0128,东莞市,东城石井,,27,27,27,12,12,39,,110,64,25,23,5,5,0.7,0.6
2024-08-13T0000,1391A,113.7383,22.9658,东莞市,南城西平,,29,29,29,11,14,33,,93,50,30,29,2,2,0.7,0.7
2024-08-13T0000,3319A,113.7338,23.0381,东莞市,万江金泰,,19,16,32,9,17,60,,105,63,13,30,4,6,0.7,0.8
2024-08-13T0000,3626A,113.7533,23.0202,东莞市,南城元岭,,,19,30,10,14,,,90,,15,30,6,6,0.8,0.8
2024-08-13T0000,3627A,113.7875,23.0457,东莞市,东城主山,,19,12,31,7,15,58,,101,60,12,30,6,7,0.6,0.7
2024-08-13T0000,1666A,118.6614,37.4309,东营市,市环保局,,33,27,30,7,12,104,,171,141,15,20,3,11,0.2,0.2
2024-08-13T0000,3036A,118.6904,37.4338,东营市,开发区管委会,,38,38,35,12,10,102,,174,140,16,19,6,12,0.4,0.3
2024-08-13T0000,3365A,118.5719,37.565,东营市,垦利区民丰路,,31,31,33,12,11,72,,161,122,17,17,6,8,0.3,0.3
2024-08-13T0000,3498A,118.5055,37.8612,东营市,河口城区,,44,44,32,22,14,98,,158,153,12,10,5,6,0.6,0.5
2024-08-13T0000,3646A,118.4978,37.4623,东营市,胜利站,,30,22,27,14,10,94,,155,123,17,20,5,8,0.4,0.3
2024-08-13T0000,3734A,118.35,37.26,东营市,理想之城,,35,29,29,22,17,111,,173,138,7,14,2,7,0.7,0.7
2024-08-13T0000,1591A,110.0023,39.8129,鄂尔多斯市,综合楼,,29,29,28,3,2,74,,112,94,25,17,7,9,0.5,0.5
2024-08-13T0000,1592A,109.9486,39.8261,鄂尔多斯市,巴音孟克林场办事处,,24,24,24,3,7,71,,103,88,18,18,5,8,0.4,0.5
2024-08-13T0000,1593A,109.7736,39.5986,鄂尔多斯市,康泽苑,,32,17,16,7,8,101,,114,98,7,9,5,6,0.4,0.4
2024-08-13T0000,1594A,109.8119,39.5989,鄂尔多斯市,华泰汽车城,,27,12,17,9,8,84,,107,80,10,12,4,5,0.8,0.9
2024-08-13T0000,1595A,109.9734,39.7884,鄂尔多斯市,奥林花园,,26,19,22,3,6,44,,106,82,51,20,5,6,0.4,0.5
2024-08-13T0000,2436A,114.8938,30.3994,鄂州市,市政府,颗粒物(PM10),71,92,125,34,32,107,,162,124,20,16,10,13,0.8,1.4
2024-08-13T0000,2437A,114.8989,30.3714,鄂州市,赵家坝,颗粒物(PM10),68,85,124,28,30,118,,165,136,15,5,11,9,0.7,0.5
2024-08-13T0000,3654A,114.8094,30.4089,鄂州市,精准医疗中心,颗粒物(PM10),61,71,96,21,30,80,,164,120,19,7,7,6,0.7,0.6
2024-08-13T0000,2454A,109.4978,30.2981,恩施土家族苗族自治州,湖北民院,,48,44,44,33,20,58,,136,91,12,11,8,7,0.7,0.7
2024-08-13T0000,2455A,109.4707,30.2798,恩施土家族苗族自治州,州电力总公司,,48,48,45,29,22,40,,126,82,30,21,6,6,0.6,0.5
2024-08-13T0000,3549A,109.5061,30.3772,恩施土家族苗族自治州,龙凤新区,,,,37,,18,55,,120,,,14,6,7,0.4,0.5
2024-08-13T0000,2499A,108.3411,21.6158,防城港市,沙万,,36,,37,25,18,22,,55,36,18,20,11,8,0.8,0.8
2024-08-13T0000,2500A,108.3514,21.7731,防城港市,防城档案局,,25,25,29,10,12,12,,61,37,16,16,7,7,0.7,0.7
2024-08-13T0000,2501A,108.3506,21.6414,防城港市,大海花园,,24,24,24,10,11,19,,50,37,17,20,9,7,0.7,0.8
2024-08-13T0000,1371A,113.1294,23.0067,佛山市,湾梁,,25,,17,17,17,39,,107,47,25,28,8,7,0.7,0.7
2024-08-13T0000,1372A,113.1083,23.0478,佛山市,华材职中,,22,,33,15,13,32,,109,40,34,34,10,6,0.5,0.5
2024-08-13T0000,1373A,113.144,23.0453,佛山市,南海气象局,,20,19,28,14,13,32,,111,46,25,23,6,6,0.3,0.5
2024-08-13T0000,1374A,113.2881,22.8094,佛山市,顺德苏岗,,30,30,17,12,11,4,,117,26,44,26,6,7,0.7,0.7
2024-08-13T0000,1376A,112.8383,22.8678,佛山市,高明孔堂,,21,21,25,10,12,17,,70,31,22,18,8,8,0.7,0.7
2024-08-13T0000,1377A,112.8836,23.1588,佛山市,三水监测站,,17,,28,10,16,54,,88,44,15,34,5,6,0.5,0.5
2024-08-13T0000,1378A,112.867,23.185,佛山市,三水云东海,,16,15,33,11,17,30,,88,29,20,35,6,8,0.5,0.6
2024-08-13T0000,3625A,113.2544,22.7642,佛山市,容桂街道办,,20,19,19,9,12,12,,124,33,39,29,5,6,0.7,0.6
2024-08-13T0000,1280A,119.3903,26.0543,福州市,鼓山,,,,,,,,,,,,,,,,
2024-08-13T0000,1282A,119.2681,26.0504,福州市,师大,,37,37,43,20,29,45,,131,75,15,11,4,4,0.6,0.6
2024-08-13T0000,1283A,119.2984,26.1028,福州市,五四北路,,,,44,28,28,48,,137,85,18,12,4,4,0.5,0.5
2024-08-13T0000,1284A,119.2648,26.0768,福州市,杨桥西路,,38,38,41,23,29,47,,136,79,16,12,4,4,0.5,0.5
2024-08-13T0000,1285A,119.317,26.0746,福州市,紫阳,,32,32,44,20,29,55,,135,78,14,13,4,5,0.4,0.5
2024-08-13T0000,3048A,119.5799,26.0936,福州市,九龙,细颗粒物(PM2.5),52,39,47,36,38,48,,140,83,12,8,5,5,0.4,0.4
2024-08-13T0000,3526A,119.5189,25.9664,福州市,吴航,,42,40,47,29,32,68,,135,96,9,6,7,6,0.6,0.6
2024-08-13T0000,1755A,123.7977,41.8491,抚顺市,望花区,,33,24,28,23,15,67,,94,74,18,13,9,8,1.1,0.6
2024-08-13T0000,1756A,123.9161,41.8822,抚顺市,顺城区,,39,28,24,27,12,54,,89,79,29,12,3,3,1.1,0.5
2024-08-13T0000,1757A,124.0436,41.8611,抚顺市,东洲区,,20,18,19,13,11,64,,82,77,14,7,7,6,0.4,0.3
2024-08-13T0000,1758A,123.9247,41.8642,抚顺市,新抚区,,23,15,22,12,12,72,,87,80,11,11,6,6,0.7,0.5
2024-08-13T0000,1759A,124.0972,41.8961,抚顺市,大伙房水库,,23,14,14,8,10,71,,82,77,12,6,4,3,0.7,0.6
2024-08-13T0000,1760A,123.7086,41.8391,抚顺市,沈抚新城,,32,32,37,15,13,52,,92,79,27,13,6,6,0.5,0.4
2024-08-13T0000,2376A,116.2127,28.0814,抚州市,桐源党溪,,25,25,29,10,14,42,,112,78,3,4,5,6,0.6,0.7
2024-08-13T0000,2377A,116.3544,27.9831,抚州市,市站,,21,16,24,3,11,67,,98,79,4,4,4,5,0.7,0.7
2024-08-13T0000,2378A,116.3565,27.963,抚州市,血防站,,20,16,24,3,10,64,,95,76,5,7,6,6,0.5,0.6
2024-08-13T0000,2379A,116.3564,28.0007,抚州市,采茶剧团,,20,9,20,3,10,64,,106,83,4,5,5,5,0.8,0.8
2024-08-13T0000,2380A,116.385,27.9647,抚州市,医学分院,,20,17,23,3,9,61,,105,82,9,7,4,4,0.7,0.7
2024-08-13T0000,2207A,121.6094,41.998,阜新市,工业园区,,16,6,21,3,10,49,,72,50,8,10,3,5,0.7,0.7
2024-08-13T0000,2208A,121.6697,42.0279,阜新市,长青街,,14,9,18,3,11,44,,66,41,6,6,3,5,0.5,0.6
2024-08-13T0000,2209A,121.6673,42.0705,阜新市,农业园区,,15,8,16,3,5,47,,64,47,11,8,8,3,1.2,0.6
2024-08-13T0000,2210A,121.6717,42.0224,阜新市,东苑,,15,,20,9,13,48,,72,44,5,6,2,5,0.7,0.8
2024-08-13T0000,2211A,121.6506,42.0498,阜新市,玉龙新城,,14,7,18,3,7,43,,70,47,15,11,4,4,0.4,0.5
2024-08-13T0000,2301A,115.8277,32.8929,阜阳市,市监测站,,39,39,34,21,12,117,,153,141,14,8,10,9,0.4,0.3
2024-08-13T0000,2303A,115.8554,32.8605,阜阳市,开发区,,42,42,45,9,10,109,,158,138,14,12,6,8,0.5,0.4
2024-08-13T0000,2875A,115.784,32.8892,阜阳市,阜阳职业技术学院,,34,33,31,12,10,108,,159,140,21,12,8,9,0.5,0.4
2024-08-13T0000,3468A,115.7901,32.8613,阜阳市,市规划展馆,,46,30,37,15,15,147,,159,149,8,11,9,9,0.6,0.5
2024-08-13T0000,3469A,115.836,32.9183,阜阳市,枣园社区,,38,38,34,17,14,102,,157,133,23,17,8,6,0.6,0.5
2024-08-13T0000,2669A,102.9099,34.9841,甘南藏族自治州,州政府,颗粒物(PM10),62,73,32,21,13,4,,140,90,66,19,7,6,0.4,0.3
2024-08-13T0000,3380A,102.8914,34.9617,甘南藏族自治州,甘肃民族师范学院,颗粒物(PM10),71,91,36,20,11,5,,147,84,63,25,5,6,0.4,0.4
2024-08-13T0000,2570A,101.9603,30.0475,甘孜藏族自治州,水桥子,,30,30,23,16,11,17,,112,77,32,16,4,4,0.4,0.3
2024-08-13T0000,3065A,101.9533,29.9972,甘孜藏族自治州,州环保局,,26,26,22,8,6,33,,109,72,28,20,3,3,0.3,0.2
2024-08-13T0000,3414A,115.8347,28.932,赣江新区,桑海产业园,,29,29,42,14,18,42,,121,68,28,16,10,13,0.4,0.4
2024-08-13T0000,2362A,114.9017,25.9149,赣州市,通天岩,,,,,,,,,,,,,,,,
2024-08-13T0000,2363A,114.9367,25.8664,赣州市,地委,,20,20,23,12,14,36,,83,51,15,13,15,14,0.7,1.1
2024-08-13T0000,2364A,114.9461,25.8481,赣州市,气象台,,26,26,25,12,13,42,,86,53,7,11,8,10,0.9,0.9
2024-08-13T0000,2365A,114.9322,25.8333,赣州市,市图书馆,,24,24,23,9,9,37,,96,60,11,11,3,5,0.9,0.9
2024-08-13T0000,2366A,114.8905,25.8471,赣州市,华坚鞋城,,20,20,25,10,13,24,,84,47,12,12,4,4,0.3,0.4
2024-08-13T0000,3109A,115.0093,25.8613,赣州市,赣县区卫计委,,17,16,25,10,10,53,,92,64,13,13,6,6,0.5,0.5
2024-08-13T0000,2683A,106.2319,36.1417,固原市,马园,颗粒物(PM10),61,72,72,24,28,87,,122,88,10,20,5,5,0.5,0.5
2024-08-13T0000,2684A,106.2792,36.0022,固原市,监测站,,32,32,24,13,9,49,,129,106,35,15,6,6,0.5,0.5
2024-08-13T0000,2685A,106.2375,36.0211,固原市,新区,,32,32,27,12,8,73,,123,109,18,12,6,7,0.4,0.3
2024-08-13T0000,3522A,106.2177,35.9959,固原市,原州区十五小,,27,26,24,10,9,86,,132,114,14,11,6,6,0.5,0.4
2024-08-13T0000,2543A,106.6308,30.5278,广安市,小平旧居,,,,,,,,,,,,,,,,
2024-08-13T0000,2544A,106.6303,30.4576,广安市,市委,颗粒物(PM10),64,78,77,35,30,82,,176,126,20,17,5,6,0.5,0.4
2024-08-13T0000,2545A,106.6271,30.4663,广安市,友谊中学,颗粒物(PM10),57,63,57,35,27,64,,176,122,32,18,6,6,0.6,0.5
2024-08-13T0000,2547A,106.6388,30.4551,广安市,广电花园,颗粒物(PM10),60,69,71,30,27,73,,174,128,18,14,9,9,0.5,0.4
2024-08-13T0000,2902A,106.6351,30.4865,广安市,北辰小学,颗粒物(PM10),60,69,72,34,27,77,,165,127,15,12,7,7,0.4,0.4
2024-08-13T0000,2523A,105.8945,32.4535,广元市,黑石坡,,36,36,27,20,9,91,,161,126,12,11,8,8,0.4,0.4
2024-08-13T0000,2524A,105.821,32.4444,广元市,老城,,37,37,39,22,13,26,,157,88,60,32,1,7,0.4,0.5
2024-08-13T0000,2526A,105.8628,32.4287,广元市,监测站,,33,33,29,14,13,81,,165,120,10,12,2,5,0.5,0.5
2024-08-13T0000,3617A,105.8047,32.4166,广元市,经开区,颗粒物(PM10),57,64,55,31,23,34,,161,101,42,25,6,10,0.8,0.7
2024-08-13T0000,1345A,113.2347,23.1423,广州市,广雅中学,,32,32,39,17,17,38,,125,49,32,37,5,6,0.5,0.6
2024-08-13T0000,1346A,113.2612,23.105,广州市,市五中,,26,26,25,18,16,42,,122,52,26,27,4,4,0.7,0.7
2024-08-13T0000,1348A,113.3478,23.0916,广州市,广东商学院,,30,30,29,19,18,37,,134,61,32,34,4,4,0.5,0.6
2024-08-13T0000,1349A,113.4332,23.1047,广州市,市八十六中,,30,30,30,15,14,42,,118,52,30,37,3,3,0.4,0.4
2024-08-13T0000,1350A,113.3505,22.9483,广州市,番禺中学,,32,31,24,15,11,17,,128,52,63,27,5,4,0.6,0.5
2024-08-13T0000,1351A,113.2146,23.3916,广州市,花都师范,,20,20,43,11,19,40,,96,59,24,38,6,8,0.5,0.7
2024-08-13T0000,1352A,113.2597,23.1331,广州市,市监测站,,26,26,28,15,15,34,,116,46,30,33,5,5,0.8,0.8
2024-08-13T0000,1353A,113.5618,23.312,广州市,九龙镇镇龙,,20,20,27,11,14,52,,115,82,12,21,5,6,0.6,0.6
2024-08-13T0000,1354A,113.2765,23.1544,广州市,麓湖,,26,26,29,14,17,18,,112,41,42,32,4,4,0.6,0.7
2024-08-13T0000,1355A,113.443,23.3035,广州市,帽峰山森林公园,,19,10,18,10,10,60,,117,76,10,18,3,4,0.6,0.7
2024-08-13T0000,2846A,113.3221,23.1322,广州市,体育西,,35,30,32,24,22,33,,137,59,22,26,5,5,0.6,0.7
2024-08-13T0000,3298A,113.5717,23.5491,广州市,从化街口,,21,11,29,3,17,65,,145,94,9,20,6,7,0.5,0.6
2024-08-13T0000,3299A,113.3472,23.3692,广州市,白云竹料,,18,13,36,10,21,55,,110,70,13,32,4,4,0.5,0.7
2024-08-13T0000,3300A,113.2981,23.237,广州市,白云嘉禾,,27,27,34,15,18,44,,93,50,25,44,6,7,0.8,0.9
2024-08-13T0000,3301A,113.4256,23.1716,广州市,黄埔科学城,,36,36,29,21,16,35,,119,50,28,29,7,7,0.6,0.6
2024-08-13T0000,3302A,113.3942,23.0483,广州市,番禺大学城,,22,22,26,15,13,37,,121,59,33,30,7,7,0.6,0.6
2024-08-13T0000,3303A,113.4922,22.8168,广州市,南沙黄阁,,33,32,30,23,17,22,,84,40,49,36,5,5,0.9,0.8
2024-08-13T0000,3304A,113.5342,22.7896,广州市,南沙街,,38,30,25,26,14,8,,66,32,50,26,4,4,0.8,0.8
2024-08-13T0000,3443A,113.2902,23.5544,广州市,花都梯面,,15,15,33,6,19,46,,110,61,13,21,4,4,0.5,0.6
2024-08-13T0000,3445A,113.7858,23.7478,广州市,从化良口,,15,12,19,6,11,48,,82,63,8,8,5,5,0.7,0.7
2024-08-13T0000,3446A,113.8051,23.2614,广州市,增城荔城,,20,10,28,3,16,62,,128,93,9,20,6,7,0.4,0.5
2024-08-13T0000,2505A,109.568,23.1478,贵港市,德智高中,,,,,,,,,,,,,,,,
2024-08-13T0000,2506A,109.6047,23.0666,贵港市,江南子站,,15,,26,10,16,34,,75,39,9,16,7,9,0.5,0.6
2024-08-13T0000,2507A,109.6014,23.0948,贵港市,贵城子站,,21,21,33,14,20,36,,74,,8,15,7,9,0.5,0.6
2024-08-13T0000,2508A,109.5669,23.1065,贵港市,荷城子站,,19,19,25,7,10,39,,72,45,8,17,9,11,0.3,0.5
2024-08-13T0000,3405A,109.5886,23.1172,贵港市,新世纪学校,,18,14,30,12,15,33,,72,45,11,18,9,10,0.6,0.7
2024-08-13T0000,1439A,106.6899,26.5998,贵阳市,马鞍山,,46,46,47,12,15,30,,106,79,24,9,5,10,0.4,0.5
2024-08-13T0000,1440A,106.6971,26.5694,贵阳市,市环保站,颗粒物(PM10),67,83,65,36,30,19,,115,91,56,20,4,4,0.6,0.3
2024-08-13T0000,1441A,106.6243,26.6266,贵阳市,鉴湖路,颗粒物(PM10),53,56,62,17,19,71,,111,101,20,10,4,4,0.4,0.4
2024-08-13T0000,1442A,106.7487,26.6343,贵阳市,燕子冲,,46,46,42,24,20,47,,108,90,30,11,6,6,0.6,0.5
2024-08-13T0000,1443A,106.6555,26.4365,贵阳市,碧云窝,颗粒物(PM10),54,58,58,22,16,36,,120,87,16,13,5,5,0.5,0.3
2024-08-13T0000,1444A,106.694,26.5161,贵阳市,中院村,,,83,61,29,24,30,,115,84,45,26,,6,0.5,0.5
2024-08-13T0000,1445A,106.7109,26.6027,贵阳市,红边门,颗粒物(PM10),57,63,57,39,29,33,,119,87,43,19,5,4,0.7,0.4
2024-08-13T0000,1446A,106.7164,26.5699,贵阳市,新华路,颗粒物(PM10),65,80,54,31,22,29,,116,89,52,16,7,7,0.8,0.6
2024-08-13T0000,1447A,106.674,26.5424,贵阳市,太慈桥,,44,44,47,17,17,26,,113,74,31,16,8,8,0.4,0.4
2024-08-13T0000,1552A,106.805,26.3003,贵阳市,桐木岭,,,,,,,,,,,,,,,,
2024-08-13T0000,1862A,110.4144,25.3167,桂林市,电子科大尧山校区,,34,34,26,11,10,12,,60,31,10,7,8,12,0.6,0.5
2024-08-13T0000,1863A,110.2819,25.2697,桂林市,监测站,,16,15,18,11,11,31,,57,43,10,9,6,7,0.6,0.5
2024-08-13T0000,1864A,110.3089,25.2708,桂林市,龙隐路小学,,18,12,15,12,12,29,,56,40,8,7,7,9,0.4,0.5
2024-08-13T0000,1865A,110.2869,25.2178,桂林市,八中,,15,15,20,3,6,28,,54,39,10,9,6,7,0.7,0.6
2024-08-13T0000,3403A,110.1764,25.2381,桂林市,创业大厦,,12,12,15,3,9,32,,47,41,7,9,7,9,0.3,0.3
2024-08-13T0000,3531A,110.296,25.1253,桂林市,旅游学院,,,7,7,3,3,,,52,43,9,7,5,6,0.3,0.3
2024-08-13T0000,2674A,100.2561,34.4714,果洛藏族自治州,玛沁县大武镇,颗粒物(PM10),56,61,33,21,12,46,,140,107,22,6,6,7,0.4,0.4
2024-08-13T0000,1129A,126.5422,45.755,哈尔滨市,岭北,,22,21,7,15,5,37,,50,46,20,9,6,7,0.6,0.4
2024-08-13T0000,1130A,126.561,45.8167,哈尔滨市,松北商大,,30,30,12,7,4,12,,34,23,36,14,7,7,0.7,0.6
2024-08-13T0000,1131A,126.979,45.5419,哈尔滨市,阿城会宁,,48,48,25,8,12,2,,37,19,14,14,5,4,0.6,0.6
2024-08-13T0000,1132A,126.599,45.7222,哈尔滨市,南岗学府路,,43,43,24,13,7,11,,40,30,38,11,5,6,0.7,0.5
2024-08-13T0000,1133A,126.689,45.7733,哈尔滨市,太平宏伟公园,,36,36,16,11,6,14,,38,31,31,13,6,7,0.5,0.4
2024-08-13T0000,1134A,126.635,45.7667,哈尔滨市,道外承德广场,,22,22,16,3,2,27,,40,35,26,13,9,9,0.7,0.6
2024-08-13T0000,1135A,126.685,45.7319,哈尔滨市,香坊红旗大街,,35,31,20,24,10,23,,43,36,32,14,4,2,1.0,0.8
2024-08-13T0000,1136A,126.6411,45.7258,哈尔滨市,动力和平路,,,36,24,,4,23,,43,36,33,14,7,6,0.7,0.5
2024-08-13T0000,1137A,126.593,45.7478,哈尔滨市,道里建国路,,33,33,14,8,5,15,,38,28,36,13,6,6,0.6,0.4
2024-08-13T0000,1138A,126.615,45.61,哈尔滨市,平房东轻厂,,48,48,22,9,6,5,,37,16,42,20,5,4,0.6,0.4
2024-08-13T0000,1139A,126.595,45.9855,哈尔滨市,呼兰师专,,14,14,13,7,5,42,,44,34,12,11,9,9,0.5,0.5
2024-08-13T0000,1140A,126.6206,45.6842,哈尔滨市,省农科院,,42,42,15,16,6,5,,42,28,42,14,6,5,0.9,0.6
2024-08-13T0000,2688A,93.5128,42.8172,哈密市,地区监测站,,36,36,118,24,24,95,,112,98,10,17,4,4,0.4,0.3
2024-08-13T0000,2689A,93.4961,42.8328,哈密市,哈密师范学校,,32,23,94,13,20,100,,109,95,7,12,4,5,0.4,0.5
2024-08-13T0000,2671A,100.9048,36.9639,海北藏族自治州,海晏县西海镇,,26,22,19,18,13,74,,138,115,17,9,14,13,0.4,0.4
2024-08-13T0000,3867A,102.0738,36.5056,海东市,平安区公安北苑,颗粒物(PM10),55,60,35,33,13,111,,165,144,23,11,14,12,1.5,0.6
2024-08-13T0000,1409A,110.576,19.9507,海口市,东寨港,,,,,,,,,,,,,,,,
2024-08-13T0000,1410A,110.3232,20.0574,海口市,海南大学,,20,20,24,10,12,28,,78,31,13,19,5,5,0.5,0.4
2024-08-13T0000,1411A,110.283,20.0053,海口市,秀英海南医院,,28,28,29,13,13,21,,71,28,23,21,7,7,0.4,0.4
2024-08-13T0000,1412A,110.338,19.9969,海口市,海南师范大学,,26,26,29,13,14,26,,68,32,15,16,7,7,0.5,0.5
2024-08-13T0000,1413A,110.33,20.0356,海口市,龙华路环保局宿舍,,29,29,26,12,12,23,,75,29,16,18,8,8,0.4,0.4
2024-08-13T0000,3539A,110.5111,19.9736,海口市,桂林洋子站,,17,17,20,6,8,24,,68,33,11,12,7,6,0.3,0.3
2024-08-13T0000,2673A,100.6188,36.2866,海南藏族自治州,共和县恰卜恰镇,,40,39,25,10,10,127,,153,141,19,10,20,12,0.6,0.5
2024-08-13T0000,2676A,97.3731,37.3753,海西蒙古族藏族自治州,德令哈市,,36,19,16,9,9,114,,137,126,11,10,10,8,0.3,0.3
2024-08-13T0000,1048A,114.5302,36.6116,邯郸市,东污水处理厂,,28,28,36,3,8,88,,134,112,12,16,2,7,0.4,1.2
2024-08-13T0000,1049A,114.4918,36.5713,邯郸市,矿院,,39,39,30,9,8,49,,133,110,31,21,1,8,0.4,1.2
2024-08-13T0000,1050A,114.484,36.6133,邯郸市,丛台公园,,27,14,23,3,6,84,,135,118,18,16,2,9,0.4,1.2
2024-08-13T0000,3458A,114.7895,36.5593,邯郸市,香泉濮院小区,,33,10,33,3,10,104,,131,116,8,14,2,5,0.4,0.7
2024-08-13T0000,3579A,114.50634,36.77178,邯郸市,永年区实验高中,,29,23,30,11,11,92,,136,115,10,11,2,5,0.7,1
2024-08-13T0000,3580A,114.20016,36.44293,邯郸市,峰峰矿区临水派出所,,40,36,24,3,2,127,,147,136,3,5,4,6,0.4,0.6
2024-08-13T0000,2634A,106.9893,33.1842,汉中市,汉川机床厂子校,,38,38,37,17,17,54,,118,96,15,10,4,4,0.6,0.6
2024-08-13T0000,2635A,107.0154,33.0706,汉中市,市监测站,,49,49,49,23,21,68,,138,114,9,10,7,9,0.8,0.8
2024-08-13T0000,2636A,107.0089,33.1138,汉中市,鑫源开发区,,49,49,42,24,20,41,,129,100,28,10,8,10,0.6,0.5
2024-08-13T0000,2637A,107.007,33.0323,汉中市,南郑大河坎水厂,颗粒物(PM10),52,53,51,31,24,59,,138,108,8,8,8,8,0.7,0.6
2024-08-13T0000,1223A,120.2072,30.2111,杭州市,滨江,,29,17,28,12,16,92,,159,120,10,8,4,4,0.6,0.7
2024-08-13T0000,1224A,120.0633,30.2747,杭州市,西溪,,28,28,25,14,15,58,,146,104,17,13,5,5,0.6,0.6
2024-08-13T0000,1226A,120.3461,30.3153,杭州市,下沙,,33,33,37,16,19,95,,181,128,23,13,6,7,0.5,0.5
2024-08-13T0000,1227A,120.1269,30.2456,杭州市,卧龙桥,,25,20,25,14,17,80,,170,121,12,10,4,5,0.7,0.7
2024-08-13T0000,1228A,120.1903,30.2692,杭州市,浙江农大,,29,22,23,14,15,92,,151,113,13,12,7,7,0.7,0.8
2024-08-13T0000,1230A,120.1197,30.3119,杭州市,和睦小学,,30,21,23,14,16,96,,162,123,11,10,5,5,0.7,0.7
2024-08-13T0000,1231A,120.3019,30.4183,杭州市,临平镇,,34,25,30,13,16,106,,164,123,12,10,4,4,0.6,0.7
2024-08-13T0000,1232A,120.2697,30.1819,杭州市,城厢镇,,36,15,26,12,18,113,,186,141,13,13,5,5,0.6,0.6
2024-08-13T0000,1233A,120.0883,30.1808,杭州市,云栖,,25,16,30,6,13,77,,172,119,13,12,7,7,0.8,0.7
2024-08-13T0000,3557A,119.9464,30.0494,杭州市,镇二中,,26,19,21,10,12,82,,140,120,16,12,6,7,0.8,0.8
2024-08-13T0000,3558A,119.7183,30.2367,杭州市,市府大楼,,25,,15,12,13,78,,143,112,10,9,5,5,0.6,0.5
2024-08-13T0000,3656A,120.1556,30.2864,杭州市,消防大队,,29,21,27,15,16,90,,163,116,14,10,7,7,0.8,0.8
2024-08-13T0000,1270A,117.1959,31.7848,合肥市,明珠广场,颗粒物(PM10),57,63,80,29,27,76,,163,128,26,19,6,7,0.5,0.5
2024-08-13T0000,1271A,117.3072,31.8764,合肥市,三里街,颗粒物(PM10),64,78,85,27,27,86,,147,113,27,25,8,7,0.5,0.5
2024-08-13T0000,1272A,117.2588,31.8707,合肥市,琥珀山庄,颗粒物(PM10),68,85,96,32,33,81,,154,105,29,22,6,5,0.6,0.6
2024-08-13T0000,1273A,117.1604,31.9052,合肥市,董铺水库,颗粒物(PM10),73,95,102,22,25,60,,131,96,25,19,2,2,0.4,0.3
2024-08-13T0000,1274A,117.25,31.8571,合肥市,长江中路,颗粒物(PM10),69,88,96,33,32,70,,161,111,47,25,8,7,0.7,0.7
2024-08-13T0000,1275A,117.266,31.9436,合肥市,庐阳区,颗粒物(PM10),71,92,105,24,28,48,,161,95,69,27,4,3,0.5,0.4
2024-08-13T0000,1276A,117.336,31.8586,合肥市,瑶海区,颗粒物(PM10),63,75,78,24,24,75,,142,122,31,31,4,4,0.4,0.4
2024-08-13T0000,1277A,117.3027,31.7964,合肥市,包河区,颗粒物(PM10),73,95,81,34,29,70,,143,103,36,30,11,11,0.5,0.5
2024-08-13T0000,1278A,117.2776,31.7385,合肥市,滨湖新区,颗粒物(PM10),57,63,74,24,23,66,,145,116,39,22,7,7,0.4,0.4
2024-08-13T0000,1279A,117.1318,31.8403,合肥市,高新区,颗粒物(PM10),59,68,82,25,25,86,,147,114,17,21,8,8,0.6,0.6
2024-08-13T0000,3464A,117.3803,31.9147,合肥市,高教基地,颗粒物(PM10),56,61,71,30,28,33,,129,77,47,29,8,8,0.4,0.4
2024-08-13T0000,3614A,79.924,37.0877,和田地区,地区环保局,颗粒物(PM10),500,791,602,242,184,32,,105,80,31,18,8,8,0.8,0.6
2024-08-13T0000,3615A,79.9131,37.113,和田地区,市环保局,颗粒物(PM10),500,680,562,194,146,11,,98,72,56,23,8,8,1.0,0.5
2024-08-13T0000,2516A,108.2011,24.715,河池市,东仁乐园,,13,6,27,3,6,39,,58,58,6,8,5,8,0.6,0.6
2024-08-13T0000,2517A,108.0497,24.6947,河池市,市环保站,,20,,23,3,10,62,,80,72,9,10,8,9,0.5,0.6
2024-08-13T0000,2518A,108.0983,24.6989,河池市,市疾控中心,,22,22,24,6,12,53,,78,68,14,12,8,8,0.5,0.6
2024-08-13T0000,1696A,114.6778,23.7569,河源市,源西,,27,,32,10,23,84,,79,74,7,16,3,4,0.2,0.3
2024-08-13T0000,1697A,114.6944,23.7586,河源市,东埔,,28,,36,3,17,88,,89,80,9,16,6,7,0.6,0.7
2024-08-13T0000,1698A,114.6892,23.7233,河源市,老城,,25,6,33,3,14,79,,86,71,8,14,4,4,0.4,0.5
2024-08-13T0000,1718A,115.4208,35.2464,菏泽市,气象局,,32,32,44,8,16,98,,181,144,12,14,5,9,0.3,0.5
2024-08-13T0000,1719A,115.4747,35.2375,菏泽市,市政协,,31,31,41,18,19,92,,175,142,11,11,7,8,0.2,0.4
2024-08-13T0000,3374A,115.5564,35.0891,菏泽市,定陶老年大学,,34,34,44,7,11,100,,177,132,18,13,6,10,0.2,0.3
2024-08-13T0000,3647A,115.4702,35.2706,菏泽市,菏泽医专,,30,28,40,7,11,94,,183,142,12,12,6,6,0.4,0.5
2024-08-13T0000,2514A,111.5264,24.4172,贺州市,环保小区,,16,6,20,3,7,49,,69,58,14,11,8,7,0.5,0.5
2024-08-13T0000,2515A,111.5608,24.4078,贺州市,政协大楼,,23,23,25,6,10,44,,68,56,16,12,9,8,0.4,0.5
2024-08-13T0000,3534A,111.4744,24.4553,贺州市,西湾,,14,7,14,3,9,26,,61,46,27,14,6,6,0.7,0.5
2024-08-13T0000,2385A,114.17,35.9019,鹤壁市,市监测站,,33,33,30,14,10,95,,169,128,15,16,7,9,0.6,0.6
2024-08-13T0000,2386A,114.2956,35.7511,鹤壁市,市交警支队,,36,36,31,22,18,93,,158,129,20,18,2,3,0.6,0.6
2024-08-13T0000,2387A,114.2878,35.7306,鹤壁市,迎宾馆,,30,24,19,21,11,95,,161,129,17,14,3,4,0.6,0.6
2024-08-13T0000,3474A,114.2617,35.6822,鹤壁市,大新区,,,30,25,,6,82,,158,126,17,12,4,4,0.8,0.5
2024-08-13T0000,3596A,114.1572,35.9603,鹤壁市,南山宾馆,,43,43,30,24,16,132,,162,140,10,12,3,4,0.3,0.4
2024-08-13T0000,2244A,130.2537,47.3416,鹤岗市,哈啤分公司,,15,15,21,10,10,18,,51,28,2,9,13,12,0.3,0.4
2024-08-13T0000,2245A,130.2684,47.3086,鹤岗市,斯达机电,,18,18,20,7,8,23,,57,31,5,8,12,13,0.3,0.3
2024-08-13T0000,2246A,130.3114,47.3388,鹤岗市,东山纸板厂,,15,14,18,10,17,21,,38,21,2,9,13,14,0.4,0.5
2024-08-13T0000,2247A,130.1097,47.3382,鹤岗市,五号水库,,8,8,7,3,4,24,,51,30,5,8,11,11,0.6,0.6
2024-08-13T0000,2263A,127.4833,50.2524,黑河市,交通局,,15,15,26,10,13,31,,50,38,4,8,5,5,0.4,0.4
2024-08-13T0000,2264A,127.5144,50.2341,黑河市,环保局,,26,,19,18,13,33,,47,38,2,7,3,7,0.3,0.3
2024-08-13T0000,2265A,127.5291,50.2472,黑河市,大黑河岛,,,,7,12,13,,,,,4,7,1,2,,
2024-08-13T0000,1074A,115.6838,37.7541,衡水市,电机北厂,,23,18,23,9,8,71,,129,100,16,13,3,4,0.5,0.4
2024-08-13T0000,1075A,115.6303,37.7316,衡水市,市监测站,,27,20,30,3,6,84,,131,112,16,15,3,4,0.3,0.3
2024-08-13T0000,3188A,115.6683,37.7217,衡水市,市城管局,,30,30,25,6,11,81,,129,103,14,13,6,4,0.3,0.3
2024-08-13T0000,3459A,115.5989,37.5491,衡水市,地表水厂,,38,38,34,3,5,73,,129,88,20,14,6,9,0.4,0.3
2024-08-13T0000,2456A,112.5003,26.9167,衡阳市,原169医院,,14,11,22,9,12,44,,72,58,4,11,9,9,0.4,0.5
2024-08-13T0000,2457A,112.6194,26.9258,衡阳市,衡阳化工总厂,,,27,36,,,34,,66,47,14,12,9,8,0.8,0.7
2024-08-13T0000,2458A,112.6211,26.8956,衡阳市,珠晖区环保局,,,21,32,,,32,,66,50,15,11,8,7,0.7,0.8
2024-08-13T0000,2459A,112.6197,26.8733,衡阳市,市委党校,,20,20,34,10,17,30,,68,49,14,11,7,9,0.6,0.7
2024-08-13T0000,2460A,112.6006,26.8919,衡阳市,市监测站,,22,22,27,8,17,44,,70,52,6,10,6,8,0.6,0.8
2024-08-13T0000,2461A,112.5664,26.9056,衡阳市,真空机电公司,,19,13,28,13,16,39,,54,47,4,10,6,7,0.7,0.8
2024-08-13T0000,3399A,112.6703,26.882,衡阳市,师范学院,,15,15,33,10,17,36,,65,50,8,10,6,9,0.6,0.7
2024-08-13T0000,2608A,103.3772,23.3993,红河哈尼族彝族自治州,污水处理厂,,28,,48,19,27,10,,73,49,20,16,7,20,0.3,0.4
2024-08-13T0000,2609A,103.3861,23.35,红河哈尼族彝族自治州,监测站,,24,24,46,11,25,13,,78,42,16,17,9,21,0.6,0.7
2024-08-13T0000,3038A,103.3758,23.368,红河哈尼族彝族自治州,州图书馆,,26,26,50,7,20,22,,74,46,14,14,7,18,0.3,0.5
2024-08-13T0000,1090A,111.6507,40.7517,呼和浩特市,呼市一监,,20,19,8,12,6,63,,98,79,19,7,8,8,0.6,0.4
2024-08-13T0000,1091A,111.6572,40.8033,呼和浩特市,小召,,21,14,6,14,6,67,,97,83,18,8,4,5,0.5,0.5
2024-08-13T0000,1094A,111.7516,40.8369,呼和浩特市,如意水处理厂,,20,20,9,8,4,60,,97,79,25,10,5,5,0.4,0.3
2024-08-13T0000,1095A,111.7276,40.8062,呼和浩特市,二十九中,,23,16,8,11,5,72,,98,83,18,9,3,3,0.6,0.6
2024-08-13T0000,1096A,111.5512,40.7866,呼和浩特市,工大金川校区,,28,12,10,8,5,87,,93,76,9,11,5,5,0.3,0.4
2024-08-13T0000,1097A,111.717,40.7612,呼和浩特市,化肥厂生活区,,31,31,11,12,3,50,,105,81,30,11,6,6,0.6,0.5
2024-08-13T0000,3698A,111.5968,40.8178,呼和浩特市,红旗小学,,24,,6,9,5,75,,97,81,14,10,3,3,0.3,0.3
2024-08-13T0000,3699A,111.6518,40.8389,呼和浩特市,海东办,,20,17,10,10,5,64,,100,81,23,10,2,3,0.6,0.6
2024-08-13T0000,2192A,119.7594,49.2261,呼伦贝尔市,区环保局,颗粒物(PM10),79,107,52,42,30,4,,70,34,47,25,6,5,0.8,0.5
2024-08-13T0000,3061A,119.7512,49.1577,呼伦贝尔市,国华电力东,,44,44,29,26,18,12,,80,50,21,11,3,3,0.4,0.3
2024-08-13T0000,1250A,120.0751,30.8669,湖州市,城西水厂,,27,27,32,18,20,35,,125,53,36,27,4,4,0.5,0.6
2024-08-13T0000,2873A,120.0875,30.8955,湖州市,仁皇山新区,,28,27,30,19,21,26,,148,71,54,25,7,7,0.7,0.7
2024-08-13T0000,2907A,120.1844,30.8596,湖州市,吴兴区站,,26,26,30,18,20,57,,156,84,20,19,7,7,0.5,0.5
2024-08-13T0000,3562A,120.4148,30.8538,湖州市,南浔区站,,32,29,33,22,22,55,,137,101,21,12,4,4,0.6,0.7
2024-08-13T0000,1607A,120.9092,40.7136,葫芦岛市,龙港区,,15,,47,9,16,48,,92,66,11,19,5,19,0.3,0.6
2024-08-13T0000,1608A,120.8392,40.7514,葫芦岛市,化工街,,15,12,40,3,19,46,,97,60,12,16,8,6,0.3,0.5
2024-08-13T0000,1609A,120.8341,40.7073,葫芦岛市,新区,,15,15,42,6,19,43,,81,56,11,17,9,8,0.3,0.6
2024-08-13T0000,1610A,120.8695,40.7677,葫芦岛市,东城区,,18,9,37,3,18,55,,108,72,11,17,8,12,0.6,0.6
2024-08-13T0000,2482A,109.5981,27.5721,怀化市,林科所,,21,21,40,8,17,42,,91,65,6,6,6,7,0.2,0.2
2024-08-13T0000,2483A,109.9453,27.5444,怀化市,河西地税局,,16,16,45,8,21,40,,101,70,5,6,8,8,0.5,0.5
2024-08-13T0000,2484A,109.9781,27.5342,怀化市,市四医院,,26,26,43,9,22,38,,102,65,11,11,5,5,0.6,0.6
2024-08-13T0000,2485A,109.9972,27.5578,怀化市,监测楼,,23,23,48,12,21,42,,104,70,9,10,6,8,0.6,0.6
2024-08-13T0000,2486A,110.0394,27.583,怀化市,市委党校,,19,19,48,3,23,39,,102,64,9,10,11,10,0.6,0.6
2024-08-13T0000,1210A,119.036,33.5981,淮安市,钵池山,,44,44,67,24,28,110,,167,136,27,15,7,9,0.7,0.6
2024-08-13T0000,1211A,119.007,33.575,淮安市,北京南路,,44,44,72,20,24,121,,165,140,22,18,8,10,0.6,0.6
2024-08-13T0000,1212A,118.989,33.6067,淮安市,市监测站,,50,48,75,27,27,159,,178,160,14,20,7,8,0.7,0.7
2024-08-13T0000,1213A,119.135,33.5039,淮安市,楚州区监测站,颗粒物(PM10),55,59,87,23,28,126,,169,138,26,22,6,7,0.6,0.6
2024-08-13T0000,1214A,119.0186,33.6297,淮安市,淮阴区监测站,颗粒物(PM10),52,53,75,23,27,144,,176,144,16,21,4,6,0.7,0.7
2024-08-13T0000,3426A,118.8755,33.2894,淮安市,新华书店,,39,39,70,20,24,117,,167,138,21,17,6,8,0.6,0.6
2024-08-13T0000,2282A,116.8004,33.975,淮北市,监测站,,39,35,52,21,19,122,,171,150,11,12,7,9,0.5,0.5
2024-08-13T0000,2283A,116.8091,33.9007,淮北市,烈山区政府,颗粒物(PM10),65,79,63,25,22,52,,170,119,41,21,9,11,0.9,0.7
2024-08-13T0000,3330A,116.8873,33.9836,淮北市,杜集区检察院,颗粒物(PM10),66,82,63,35,22,85,,173,130,19,14,2,4,0.6,0.6
2024-08-13T0000,4017A,116.7923,33.9535,淮北市,市博物馆,,44,44,60,19,21,126,,178,143,15,18,6,9,0.6,0.7
2024-08-13T0000,2277A,116.8305,32.7727,淮南市,潘集区政府,颗粒物(PM10),58,66,69,31,24,81,,167,130,30,17,8,8,0.5,0.5
2024-08-13T0000,2278A,117.0067,32.6524,淮南市,师范学院,颗粒物(PM10),54,57,70,17,23,102,,180,150,18,11,9,10,0.5,0.5
2024-08-13T0000,2279A,116.8569,32.5951,淮南市,谢家集区政府,颗粒物(PM10),58,65,63,12,11,96,,161,132,23,16,9,8,0.4,0.4
2024-08-13T0000,2280A,116.8281,32.633,淮南市,八公山区政府,,49,49,60,24,20,125,,162,144,9,9,9,6,0.4,0.4
2024-08-13T0000,2281A,116.6325,32.6201,淮南市,焦岗湖风景区管理处,颗粒物(PM10),62,73,58,22,16,22,,99,72,47,13,8,11,0.4,0.2
2024-08-13T0000,2894A,117.0566,32.6531,淮南市,经济技术开发区消防队,颗粒物(PM10),61,72,59,13,13,95,,187,133,17,12,8,9,0.4,0.4
2024-08-13T0000,3329A,117.0108,32.5893,淮南市,山南新区,颗粒物(PM10),58,66,82,16,22,99,,168,139,19,15,5,7,0.5,0.5
2024-08-13T0000,2446A,114.9028,30.4742,黄冈市,职工中心,颗粒物(PM10),58,66,118,24,35,83,,191,136,21,14,9,10,0.4,0.4
2024-08-13T0000,2929A,114.8858,30.4519,黄冈市,红卫路,颗粒物(PM10),68,85,109,34,34,98,,184,139,22,13,11,9,0.5,0.4
2024-08-13T0000,3398A,114.9136,30.4445,黄冈市,市林业局,颗粒物(PM10),70,89,96,35,33,98,,199,147,27,11,10,9,0.5,0.4
2024-08-13T0000,2672A,102.0199,35.5102,黄南藏族自治州,同仁县隆务镇,,31,30,24,15,8,99,,146,129,3,3,10,10,0.4,0.4
2024-08-13T0000,2295A,118.2903,29.6963,黄山市,延安路89号,,18,16,41,3,13,56,,111,83,6,4,5,5,0.5,0.5
2024-08-13T0000,2296A,118.327,29.7178,黄山市,黄山东路89号,,20,18,28,3,8,62,,111,84,6,4,6,6,0.4,0.4
2024-08-13T0000,2297A,118.1371,30.2756,黄山市,黄山区政府5号楼,,22,22,31,8,14,26,,99,63,6,7,6,6,0.4,0.3
2024-08-13T0000,2423A,115.0601,30.2313,黄石市,沈家营,颗粒物(PM10),87,123,129,29,34,88,,171,133,32,13,46,11,0.7,0.5
2024-08-13T0000,2424A,115.0817,30.2006,黄石市,陈家湾,颗粒物(PM10),77,104,114,32,35,95,,168,142,16,9,6,7,0.9,0.6
2024-08-13T0000,2426A,114.8988,30.2019,黄石市,铁山,,,86,108,27,31,113,,170,147,,8,12,10,0.3,0.4
2024-08-13T0000,2427A,115.0307,30.2092,黄石市,团城山,颗粒物(PM10),77,104,124,42,35,74,,166,130,29,11,12,14,0.7,0.6
2024-08-13T0000,3149A,115.0235,30.1578,黄石市,笔架山北路,颗粒物(PM10),77,104,117,28,29,98,,164,136,14,14,12,9,1.1,0.8
2024-08-13T0000,1392A,114.4183,23.0528,惠州市,河南岸金山湖子站,,20,13,26,7,15,64,,109,,9,14,4,4,0.5,0.6
2024-08-13T0000,1393A,114.4053,23.0822,惠州市,下埔横江三路子站,,23,12,28,9,16,73,,122,95,8,15,3,3,0.5,0.6
2024-08-13T0000,1394A,114.4103,23.1142,惠州市,江北云山西路子站,,22,14,27,3,14,68,,125,94,6,13,4,4,0.5,0.6
2024-08-13T0000,1395A,114.4645,22.7833,惠州市,惠阳区承修路船湖子站,,29,29,23,16,12,44,,81,68,28,24,4,4,0.6,0.6
2024-08-13T0000,1396A,114.5317,22.7422,惠州市,大亚湾管委会子站,,21,19,21,9,11,66,,82,71,18,23,6,6,0.8,0.8
2024-08-13T0000,3314A,114.4338,22.8134,惠州市,惠阳秋长,,22,,24,15,14,54,,107,78,19,30,5,6,0.7,0.7
2024-08-13T0000,3452A,114.6517,22.775,惠州市,大亚湾霞涌,,20,15,17,3,6,63,,88,59,9,12,4,3,0.6,0.5
2024-08-13T0000,2240A,130.9762,45.3001,鸡西市,环保局,,34,34,17,14,5,8,,40,26,16,8,9,8,0.4,0.3
2024-08-13T0000,2243A,130.9429,45.3039,鸡西市,第一中学,,,23,15,,4,17,,46,29,9,6,4,4,0.2,0.1
2024-08-13T0000,3707A,131.0207,45.3073,鸡西市,欧美日汽修厂,,,,19,9,6,2,,41,17,13,8,3,4,0.5,0.4
2024-08-13T0000,3709A,130.9967,45.3106,鸡西市,市政设施管理处,,42,42,21,12,7,3,,45,19,15,11,4,5,0.3,0.3
2024-08-13T0000,2367A,114.9754,27.0803,吉安市,红声器材厂,,22,22,27,6,15,53,,93,57,12,12,16,15,0.5,0.5
2024-08-13T0000,2368A,114.9658,27.0999,吉安市,市森林工业局,,21,21,25,11,15,49,,96,58,13,11,11,13,0.5,0.5
2024-08-13T0000,2369A,114.99,27.1312,吉安市,市环境监测站,,17,17,24,3,13,52,,98,61,10,12,14,15,0.6,0.6
2024-08-13T0000,2370A,115.0093,27.0968,吉安市,青原区法院,,19,19,27,11,15,52,,98,55,12,15,13,14,0.5,0.5
2024-08-13T0000,1772A,126.54,43.8622,吉林市,哈达湾,,17,17,24,3,13,42,,89,51,8,10,6,7,0.5,0.6
2024-08-13T0000,1773A,126.5844,43.8358,吉林市,东局子,,19,19,29,11,15,39,,97,54,9,9,4,5,0.5,0.6
2024-08-13T0000,1774A,126.5052,43.8245,吉林市,电力学院,,20,20,26,7,13,40,,88,50,8,8,4,5,0.6,0.6
2024-08-13T0000,1775A,126.6133,43.8972,吉林市,江北,,12,12,27,3,12,27,,82,41,11,9,6,7,0.6,0.7
2024-08-13T0000,1776A,126.555,43.8306,吉林市,江南公园,,23,23,27,3,16,41,,91,51,10,12,2,3,0.6,1.4
2024-08-13T0000,1778A,126.7061,43.7133,吉林市,丰满,,,,,,,,,,,,,,,,
2024-08-13T0000,2868A,126.4739,43.953,吉林市,九站,,18,14,25,12,14,21,,82,36,16,10,13,9,0.9,0.6
2024-08-13T0000,1299A,116.9862,36.6114,济南市,科干所,,27,24,28,3,8,85,,137,116,26,19,8,10,0.5,0.6
2024-08-13T0000,1300A,116.9376,36.665,济南市,农科所,,29,15,24,3,7,90,,127,110,23,20,8,9,0.3,0.4
2024-08-13T0000,1301A,117.1265,36.6734,济南市,开发区,,27,27,25,3,5,84,,149,119,27,19,9,12,0.5,0.6
2024-08-13T0000,1303A,117.0624,36.6868,济南市,省种子仓库,,44,44,29,3,8,88,,146,125,28,14,5,7,0.4,0.5
2024-08-13T0000,1304A,116.9489,36.6447,济南市,机床二厂,,34,22,28,3,3,107,,142,133,27,19,9,10,0.4,0.5
2024-08-13T0000,1305A,117.0495,36.663,济南市,市监测站,,32,32,22,3,6,97,,146,126,24,15,10,12,0.4,0.5
2024-08-13T0000,1306A,116.7675,36.5484,济南市,长清党校,,32,32,24,12,10,69,,127,111,33,16,10,11,0.7,0.7
2024-08-13T0000,1616A,117.6795,36.229,济南市,技术学院,,31,31,41,7,17,92,,176,139,28,21,12,13,0.8,1
2024-08-13T0000,1961A,117.532,36.6868,济南市,东山小学,,34,15,24,3,5,108,,182,146,12,16,10,11,0.5,0.5
2024-08-13T0000,3059A,117.7161,36.2049,济南市,泰兴公司,,34,34,42,19,19,95,,166,137,28,32,9,11,0.5,0.7
2024-08-13T0000,3064A,117.6867,36.2171,济南市,莱芜战役纪念馆,,39,39,46,7,17,104,,161,142,21,23,6,8,0.6,0.9
2024-08-13T0000,3494A,117.1673,36.9782,济南市,济阳区政府,,28,20,29,3,8,89,,136,115,22,20,9,16,0.4,0.5
2024-08-13T0000,3495A,117.1171,36.63,济南市,锦屏中学,,24,24,20,10,8,62,,159,110,21,14,10,25,0.6,0.5
2024-08-13T0000,3682A,116.9814,36.6819,济南市,济南四建,,30,19,22,3,8,94,,132,117,15,12,8,9,0.7,0.8
2024-08-13T0000,1653A,116.6251,35.4302,济宁市,火炬城,,36,36,44,17,14,91,,170,141,22,16,13,12,1.0,0.9
2024-08-13T0000,1655A,116.5491,35.4042,济宁市,电化厂,,37,37,51,17,21,100,,165,139,16,24,11,12,0.8,0.7
2024-08-13T0000,3500A,116.5814,35.3707,济宁市,北湖一中,,,32,44,17,15,110,,175,149,16,17,11,12,,0.7
2024-08-13T0000,3501A,116.8249,35.5593,济宁市,服务中心,,30,30,44,7,15,83,,166,128,11,14,6,8,0.5,0.6
2024-08-13T0000,3678A,116.5907,35.4054,济宁市,市第七中学,,33,33,42,12,14,103,,179,153,22,19,9,8,0.8,0.7
2024-08-13T0000,2255A,130.2751,46.8028,佳木斯市,佳纺,,12,12,17,6,8,14,,75,38,14,6,3,4,0.6,0.5
2024-08-13T0000,2256A,130.3995,46.8307,佳木斯市,发电厂,,10,10,20,3,9,15,,73,40,10,8,5,6,0.6,0.6
2024-08-13T0000,2257A,130.3258,46.7975,佳木斯市,环保局,,13,13,20,6,9,10,,67,36,17,7,8,8,0.5,0.5
2024-08-13T0000,2258A,130.3648,46.8032,佳木斯市,十一中,,15,15,20,8,10,24,,72,43,10,9,6,6,0.5,0.5
2024-08-13T0000,2259A,130.3794,46.7588,佳木斯市,四丰,,,13,17,3,9,5,,67,33,,,1,1,0.6,0.6
2024-08-13T0000,1252A,120.7436,30.778,嘉兴市,清河小学,,40,,37,14,38,127,,174,119,10,20,7,7,1.2,1.3
2024-08-13T0000,1253A,120.726,30.7478,嘉兴市,嘉兴学院,,40,34,46,12,23,127,,145,110,12,23,1,1,0.5,0.6
2024-08-13T0000,2872A,120.7846,30.7525,嘉兴市,南湖区残联,,44,27,36,15,20,139,,174,119,7,18,4,4,0.6,0.7
2024-08-13T0000,3407A,120.6916,30.7739,嘉兴市,秀洲住建,,35,24,33,12,18,112,,163,115,16,16,3,3,0.8,0.8
2024-08-13T0000,1945A,98.2908,39.7711,嘉峪关市,气象局,颗粒物(PM10),53,56,62,22,13,110,,127,119,29,28,43,25,1.0,0.7
2024-08-13T0000,2884A,98.2672,39.7978,嘉峪关市,酒钢宾馆,颗粒物(PM10),62,73,57,24,16,117,,132,126,20,25,31,30,0.5,0.6
2024-08-13T0000,3248A,98.2643,39.7724,嘉峪关市,雄关区,颗粒物(PM10),55,60,46,19,13,116,,119,119,16,25,21,15,0.4,0.5
2024-08-13T0000,1383A,113.1064,22.6058,江门市,北街,,20,20,22,12,14,16,,84,37,36,22,4,4,0.5,0.5
2024-08-13T0000,1384A,113.0731,22.5835,江门市,西区,,15,14,24,10,11,27,,78,38,22,20,4,4,0.5,0.5
2024-08-13T0000,1385A,113.0219,22.5311,江门市,圭峰西,,15,13,18,10,11,37,,72,43,11,11,3,3,0.4,0.4
2024-08-13T0000,1386A,113.0828,22.5947,江门市,东湖,,16,16,22,3,9,31,,77,34,15,17,5,6,0.4,0.5
2024-08-13T0000,3311A,113.1075,22.5647,江门市,江海富民,,29,29,30,14,14,30,,85,46,21,17,6,6,0.4,0.5
2024-08-13T0000,3449A,113.05,22.4667,江门市,新会银湖,,19,19,19,3,3,12,,71,31,30,17,3,4,0.7,0.6
2024-08-13T0000,1828A,113.227,35.2125,焦作市,市环保局,,41,36,33,17,15,129,,168,149,14,16,4,6,0.8,0.5
2024-08-13T0000,1830A,113.1992,35.2590,焦作市,影视城,,,,,,,,,,,,,,,,
2024-08-13T0000,3169A,113.2725,35.2067,焦作市,太极体育中心,颗粒物(PM10),52,53,38,19,13,124,,160,139,14,15,3,5,0.8,0.5
2024-08-13T0000,3335A,113.3137,35.2641,焦作市,马村街道办,,39,35,31,13,13,122,,156,134,16,15,2,4,0.8,0.5
2024-08-13T0000,3336A,113.2465,35.2373,焦作市,焦作技师学院,,37,31,34,17,14,116,,156,136,15,17,3,7,0.9,0.7
2024-08-13T0000,3477A,113.1656,35.2539,焦作市,中站许衡医院,,45,30,26,13,13,141,,154,144,9,16,5,8,0.4,0.4
2024-08-13T0000,3981A,113.2449,35.1803,焦作市,原李万街道办,,41,40,33,12,12,130,,174,152,15,16,6,6,0.5,0.3
2024-08-13T0000,1708A,116.3701,23.5345,揭阳市,新兴,,26,21,37,18,22,54,,93,73,12,12,3,6,0.6,0.6
2024-08-13T0000,1709A,116.3264,23.5443,揭阳市,西马,,19,,36,13,18,53,,90,70,10,10,3,5,0.7,0.7
2024-08-13T0000,1710A,116.3611,23.5626,揭阳市,东兴,,22,18,45,15,18,53,,93,70,12,11,4,6,0.9,0.8
2024-08-13T0000,1711A,116.4151,23.5294,揭阳市,渔湖,,22,17,39,15,19,54,,94,69,14,17,4,6,0.6,0.6
2024-08-13T0000,3320A,116.403,23.5699,揭阳市,曲溪,,25,23,33,17,19,43,,94,66,21,15,3,4,0.7,0.7
2024-08-13T0000,1944A,102.1692,38.5167,金昌市,天庆家园,细颗粒物(PM2.5),68,73,40,49,22,87,,123,112,20,16,83,16,0.7,0.6
2024-08-13T0000,3170A,102.1864,38.5253,金昌市,市委党校,颗粒物(PM10),83,116,51,44,16,98,,122,114,6,12,16,19,0.8,0.6
2024-08-13T0000,4022A,102.1647,38.5371,金昌市,金川区人防中心,细颗粒物(PM2.5),79,73,47,58,22,99,,123,114,6,11,13,12,0.9,0.6
2024-08-13T0000,1262A,119.647,29.077,金华市,十五中,,35,23,24,11,13,109,,152,130,11,13,2,2,0.4,0.4
2024-08-13T0000,1263A,119.686,29.1029,金华市,监测站,,35,17,23,12,15,111,,153,131,12,13,2,3,0.6,0.6
2024-08-13T0000,3659A,119.656,29.1131,金华市,气象局,,31,19,24,7,12,98,,155,129,11,13,3,5,0.6,0.4
2024-08-13T0000,1767A,121.1115,41.0879,锦州市,南山,,15,,26,8,16,47,,88,63,7,12,6,5,0.4,0.5
2024-08-13T0000,1768A,121.0533,40.8434,锦州市,开发区,,15,15,33,10,16,26,,105,52,22,14,12,4,0.8,0.7
2024-08-13T0000,1769A,121.1836,41.1119,锦州市,百股街道,,50,50,29,3,10,42,,90,67,8,9,9,7,0.6,0.7
2024-08-13T0000,1770A,121.1178,41.1222,锦州市,天安街道,,18,,27,12,16,42,,85,62,5,9,5,5,0.7,0.8
2024-08-13T0000,1771A,121.1303,41.1386,锦州市,北湖公园,,15,9,32,3,13,47,,90,64,4,8,5,4,0.5,0.7
2024-08-13T0000,2160A,112.85,35.5051,晋城市,自来水公司,,47,36,25,9,8,148,,165,165,14,20,11,11,0.9,0.8
2024-08-13T0000,2161A,112.8318,35.4936,晋城市,白云商贸,,44,30,34,14,8,138,,161,159,19,20,10,9,0.9,0.8
2024-08-13T0000,2162A,112.8508,35.4887,晋城市,市环保局,,44,38,22,9,9,139,,158,157,16,22,10,10,0.8,0.7
2024-08-13T0000,2163A,112.8676,35.4897,晋城市,技术学院,,42,18,29,17,11,134,,164,161,21,21,10,11,0.8,0.9
2024-08-13T0000,2165A,112.8453,35.546,晋城市,白马寺,,,,,,,,,,,,,,,,
2024-08-13T0000,3620A,112.8271,35.4828,晋城市,泽州一中,颗粒物(PM10),63,76,26,12,6,132,,156,153,20,17,13,11,0.9,0.7
2024-08-13T0000,2171A,112.7532,37.6945,晋中市,锦纶小区,,24,24,26,9,5,59,,124,98,30,19,6,8,0.2,0.2
2024-08-13T0000,2173A,112.7249,37.7067,晋中市,南都小区,,26,26,27,15,13,71,,123,98,29,25,5,6,0.3,0.3
2024-08-13T0000,2174A,112.6991,37.6982,晋中市,榆次区政府,,31,31,31,14,13,63,,121,94,31,25,8,9,0.2,0.3
2024-08-13T0000,2865A,112.7195,37.6828,晋中市,榆次三中,,20,14,26,3,5,63,,123,100,27,19,8,10,0.5,0.5
2024-08-13T0000,2439A,112.2014,31.0481,荆门市,竹园小学,,48,48,71,22,22,49,,140,111,54,19,9,10,0.4,0.5
2024-08-13T0000,2440A,112.1969,30.9891,荆门市,掇刀,,34,31,63,11,16,108,,144,128,17,16,11,9,0.5,0.5
2024-08-13T0000,2441A,112.2213,31.0386,荆门市,石化一小,,39,39,66,10,19,55,,145,122,46,14,33,21,0.5,0.5
2024-08-13T0000,3012A,112.1849,31.0362,荆门市,西山林语,,32,20,56,12,20,102,,142,131,10,12,8,9,0.6,0.8
2024-08-13T0000,3547A,112.1632,31.0138,荆门市,龙泉中学南校,,46,46,71,18,21,86,,141,117,33,24,10,10,0.5,0.6
2024-08-13T0000,1844A,112.2494,30.3197,荆州市,市图书馆,,50,50,72,17,31,74,,153,121,26,18,7,8,0.7,0.6
2024-08-13T0000,1845A,112.2008,30.3544,荆州市,市委党校,,44,44,69,19,29,80,,159,131,25,12,9,9,0.5,0.6
2024-08-13T0000,3194A,112.2747,30.3122,荆州市,管委会,颗粒物(PM10),51,52,71,27,33,78,,160,118,21,16,7,8,0.5,0.5
2024-08-13T0000,3548A,112.1655,30.3364,荆州市,学苑路,,39,31,82,27,34,82,,164,132,21,14,6,8,0.7,0.6
2024-08-13T0000,2342A,117.3102,29.3867,景德镇市,王港中学,,,,,,,,,,,,,,,,
2024-08-13T0000,2343A,117.2117,29.2933,景德镇市,老干部活动中心,,23,23,34,14,22,63,,112,61,15,18,12,11,0.5,0.6
2024-08-13T0000,2344A,117.1894,29.2789,景德镇市,兽医站,,31,31,39,21,25,56,,113,71,33,22,24,18,0.5,0.6
2024-08-13T0000,2345A,117.1547,29.2617,景德镇市,台达陶瓷,,26,26,37,18,20,72,,96,68,10,24,21,22,0.2,0.4
2024-08-13T0000,2346A,117.2461,29.2956,景德镇市,陶研所,,23,18,32,10,15,71,,101,65,8,12,4,13,0.3,0.4
2024-08-13T0000,1803A,115.9872,29.6815,九江市,十里,颗粒物(PM10),56,62,77,29,24,60,,141,95,23,15,11,11,0.7,0.7
2024-08-13T0000,1804A,115.9584,29.7046,九江市,茅山头,颗粒物(PM10),53,55,66,22,23,58,,150,105,19,13,8,8,0.6,0.6
2024-08-13T0000,1805A,115.9877,29.7295,九江市,西园,颗粒物(PM10),62,73,68,29,25,48,,154,106,43,17,22,13,0.6,0.6
2024-08-13T0000,1806A,116.0172,29.6547,九江市,五七二七厂,颗粒物(PM10),52,54,73,21,30,39,,131,84,24,15,9,10,0.3,0.4
2024-08-13T0000,1808A,115.9114,29.6038,九江市,综合工业园,颗粒物(PM10),54,57,69,23,27,64,,159,106,20,14,10,13,0.7,0.8
2024-08-13T0000,1809A,116.0721,29.7535,九江市,石化总厂,颗粒物(PM10),61,72,68,25,25,72,,147,111,13,16,11,14,0.7,0.8
2024-08-13T0000,1810A,115.9773,29.5698,九江市,庐山气象台,颗粒物(PM10),76,101,141,32,38,136,,150,143,3,5,6,12,0.5,0.8
2024-08-13T0000,3190A,116.0254,29.6994,九江市,外国语学校,颗粒物(PM10),64,78,70,34,27,68,,147,105,16,17,30,14,0.6,0.5
2024-08-13T0000,2658A,98.5061,39.7443,酒泉市,仓门街子站,颗粒物(PM10),51,51,45,12,10,121,,124,120,6,15,8,9,0.3,0.3
2024-08-13T0000,2659A,98.4989,39.7256,酒泉市,油田生活基地,颗粒物(PM10),54,58,49,24,17,116,,125,120,8,16,7,9,0.3,0.3
2024-08-13T0000,2698A,76.0072,39.4467,喀什地区,巡警大队,颗粒物(PM10),114,178,171,34,37,46,,131,113,70,22,4,4,0.8,0.3
2024-08-13T0000,2699A,75.9755,39.4694,喀什地区,吾办,颗粒物(PM10),93,136,160,52,43,54,,129,112,43,19,3,4,0.9,0.5
2024-08-13T0000,4027A,75.9483,39.4689,喀什地区,老干局,颗粒物(PM10),125,199,179,44,29,34,,130,105,75,19,5,5,1.0,0.5
2024-08-13T0000,1824A,114.3389,34.7781,开封市,肿瘤医院,,46,46,32,11,10,116,,176,151,13,10,5,6,0.8,0.7
2024-08-13T0000,1826A,114.2885,34.7965,开封市,世纪星幼儿园,,38,38,31,14,12,111,,156,136,9,10,5,6,0.5,0.5
2024-08-13T0000,3147A,114.3438,34.8106,开封市,龙亭公园,颗粒物(PM10),61,72,35,17,15,97,,157,128,14,12,3,4,0.7,0.6
2024-08-13T0000,3210A,114.3644,34.7964,开封市,汴京公园,,42,42,34,20,14,104,,170,136,14,12,5,6,0.6,0.5
2024-08-13T0000,3473A,114.2485,34.8306,开封市,技师学院,,50,50,31,20,14,84,,154,122,23,18,19,11,1.1,0.8
2024-08-13T0000,3592A,114.4644,34.7556,开封市,祥符区生态环境局,,35,35,35,24,15,86,,164,127,20,16,5,7,0.5,0.4
2024-08-13T0000,1951A,84.895,45.6094,克拉玛依市,长征新村,,20,20,14,3,5,60,,98,88,19,6,6,7,0.3,0.2
2024-08-13T0000,1952A,84.8988,45.5893,克拉玛依市,南林小区,,23,16,14,13,10,73,,102,86,18,9,8,8,0.2,0.2
2024-08-13T0000,1954A,84.905,44.3396,克拉玛依市,独山子区,,33,23,31,3,11,105,,115,109,7,8,6,7,0.2,0.3
2024-08-13T0000,1955A,85.6979,46.098,克拉玛依市,乌尔禾区商贸楼,,24,18,19,10,7,74,,75,71,12,17,4,4,0.1,0.2
2024-08-13T0000,3612A,85.1045,45.6899,克拉玛依市,白碱滩区新站,,24,20,16,13,5,76,,106,99,16,7,10,8,0.3,0.3
2024-08-13T0000,2697A,76.1454,39.7142,克孜勒苏柯尔克孜自治州,市人民政府,颗粒物(PM10),88,126,191,49,62,87,,134,115,25,14,3,5,0.4,0.3
2024-08-13T0000,3665A,76.1658,39.7157,克孜勒苏柯尔克孜自治州,克州文化中心,颗粒物(PM10),74,97,184,38,52,94,,131,120,42,7,7,6,0.3,0.2
2024-08-13T0000,1450A,102.8204,24.8886,昆明市,呈贡新区,颗粒物(PM10),53,55,57,26,21,89,,134,118,7,23,6,8,0.7,0.7
2024-08-13T0000,1451A,102.6251,24.9608,昆明市,西山森林公园,,,,,,,,,,,,,,,,
2024-08-13T0000,1452A,102.7252,25.0902,昆明市,龙泉镇,颗粒物(PM10),54,57,37,24,13,31,,139,96,45,19,6,7,0.7,0.5
2024-08-13T0000,1453A,102.7266,25.0375,昆明市,东风东路,颗粒物(PM10),58,65,42,21,20,74,,139,112,19,19,5,6,0.5,0.5
2024-08-13T0000,1454A,102.6742,25.0669,昆明市,金鼎山,颗粒物(PM10),56,61,42,14,11,81,,141,118,15,13,12,11,0.5,0.4
2024-08-13T0000,1455A,102.6644,25.0401,昆明市,碧鸡广场,颗粒物(PM10),66,82,40,28,19,83,,145,119,20,17,7,5,0.5,0.3
2024-08-13T0000,3179A,102.7494,25.0119,昆明市,官渡区博物馆,颗粒物(PM10),57,64,43,19,19,68,,140,108,25,24,9,8,0.5,0.4
2024-08-13T0000,3375A,102.8017,24.8336,昆明市,青年创业园,颗粒物(PM10),59,68,49,22,21,91,,134,109,6,19,3,5,0.4,0.5
2024-08-13T0000,3550A,102.7997,24.9786,昆明市,昆明学院,颗粒物(PM10),66,82,56,39,22,79,,143,115,17,23,11,9,0.5,0.4
2024-08-13T0000,3551A,102.5967,24.6736,昆明市,晋宁区生态环境分局,颗粒物(PM10),55,60,43,22,23,85,,146,122,9,14,3,6,0.5,0.5
2024-08-13T0000,3552A,102.6678,24.9856,昆明市,云天化总部,颗粒物(PM10),58,66,40,30,18,86,,146,119,12,16,5,6,0.2,0.2
2024-08-13T0000,1456A,91.1319,29.6514,拉萨市,八廓街,,29,10,15,7,10,91,,103,99,13,15,9,8,0.2,0.2
2024-08-13T0000,1457A,91.1221,29.6747,拉萨市,市环保局,,29,,15,9,9,91,,103,98,13,16,7,8,0.1,0.2
2024-08-13T0000,1458A,91.0874,29.6475,拉萨市,区监测站,,26,7,12,7,7,82,,99,93,20,18,9,8,0.3,0.3
2024-08-13T0000,1459A,91.1774,29.6541,拉萨市,西藏大学,,31,8,12,7,7,97,,105,102,8,10,10,10,0.2,0.2
2024-08-13T0000,1460A,90.9798,29.6588,拉萨市,区辐射站,,25,15,13,9,9,80,,94,90,23,17,8,8,0.2,0.1
2024-08-13T0000,1461A,91.0834,29.6292,拉萨市,拉萨火车站,,29,11,12,7,8,92,,102,98,10,14,10,10,0.1,0.2
2024-08-13T0000,2520A,109.2203,23.7256,来宾市,来宾技工学校,,16,16,18,8,9,23,,57,45,13,12,8,7,0.6,0.6
2024-08-13T0000,3535A,109.1781,23.7297,来宾市,兴宾区政府,,17,17,14,6,9,23,,63,48,15,9,6,5,0.7,0.7
2024-08-13T0000,4002A,109.2416,23.7461,来宾市,中南小学,,13,13,15,7,8,37,,68,57,12,13,8,8,0.7,0.7
2024-08-13T0000,1476A,103.631,36.1031,兰州市,兰炼宾馆,,42,41,46,29,25,118,,198,160,8,22,9,31,0.4,0.6
2024-08-13T0000,1477A,104.1373,35.9454,兰州市,榆中兰大校区,,,,,,,,,,,,,,,,
2024-08-13T0000,1478A,103.8412,36.0726,兰州市,生物制品所,,39,39,46,25,24,98,,163,139,20,39,6,13,0.4,0.6
2024-08-13T0000,1479A,103.831,36.0464,兰州市,铁路设计院,,39,37,45,27,27,95,,162,130,24,47,8,18,0.4,0.7
2024-08-13T0000,3186A,103.7158,36.1058,兰州市,教育港,,48,48,53,23,28,112,,189,158,10,26,6,16,0.3,0.5
2024-08-13T0000,3241A,103.7439,36.0842,兰州市,百合公园,,39,39,42,20,18,100,,184,150,16,32,5,16,0.5,0.6
2024-08-13T0000,3242A,103.9611,35.998,兰州市,和平,颗粒物(PM10),55,59,41,31,17,79,,156,115,28,24,8,12,0.3,0.4
2024-08-13T0000,3245A,103.6633,36.533,兰州新区,新区管委会,,39,32,41,23,17,124,,174,150,9,11,9,14,0.4,0.4
2024-08-13T0000,3246A,103.6975,36.4789,兰州新区,舟曲中学,,38,30,37,8,14,120,,167,142,9,14,7,16,0.4,0.5
2024-08-13T0000,1067A,116.6708,39.5111,廊坊市,药材公司,,16,14,21,3,1,49,,84,60,12,13,3,3,0.3,0.3
2024-08-13T0000,1068A,116.7214,39.5589,廊坊市,开发区,,15,10,14,3,5,45,,83,62,9,14,3,3,0.3,0.3
2024-08-13T0000,1070A,116.7244,39.5269,廊坊市,北华航天学院,,20,20,28,3,3,47,,84,60,9,11,3,2,0.3,0.3
2024-08-13T0000,2919A,116.7022,39.5453,廊坊市,河北工业大学,,21,21,22,3,3,42,,81,59,15,15,1,2,0.3,0.3
2024-08-13T0000,2535A,103.7723,29.5462,乐山市,花湖湾,颗粒物(PM10),78,105,51,43,31,48,,129,102,35,16,6,8,0.6,0.6
2024-08-13T0000,2536A,103.7627,29.5844,乐山市,牛耳桥,细颗粒物(PM2.5),67,73,66,48,30,26,,134,78,40,25,4,5,0.8,0.7
2024-08-13T0000,2537A,103.7508,29.6006,乐山市,市第三水厂,颗粒物(PM10),69,87,64,48,26,32,,147,88,42,24,2,5,0.7,0.6
2024-08-13T0000,2538A,103.7571,29.5664,乐山市,市监测站,颗粒物(PM10),61,72,68,29,30,74,,139,102,24,20,6,9,0.8,1
2024-08-13T0000,3361A,103.7311,29.5628,乐山市,理工大学,颗粒物(PM10),59,67,67,36,29,50,,147,97,30,19,5,10,0.6,0.8
2024-08-13T0000,2598A,100.2143,26.8576,丽江市,西南郊,,,,,,,,,,,,,,,,
2024-08-13T0000,2599A,100.2497,26.8802,丽江市,丽江古城,,24,13,23,12,14,75,,100,93,9,14,8,9,0.6,0.6
2024-08-13T0000,2600A,100.2203,26.8906,丽江市,市中心,,28,,21,3,9,89,,110,103,8,11,8,8,0.5,0.5
2024-08-13T0000,1267A,119.914,28.4514,丽水市,监测站大楼,,26,18,20,8,12,82,,128,103,8,10,2,3,0.5,0.5
2024-08-13T0000,1268A,119.93,28.4586,丽水市,莲都小学,,26,20,21,10,11,81,,127,105,8,8,4,4,0.3,0.3
2024-08-13T0000,1269A,119.879,28.4231,丽水市,余庄前,,23,17,20,11,13,72,,128,95,11,10,4,4,0.5,0.5
2024-08-13T0000,1173A,119.176,34.5885,连云港市,市环境监测站,颗粒物(PM10),62,73,56,29,22,161,,189,182,11,18,7,10,0.7,0.7
2024-08-13T0000,3000A,119.3581,34.6972,连云港市,德源药业,颗粒物(PM10),57,63,58,24,20,140,,178,162,13,22,6,8,0.6,0.5
2024-08-13T0000,3007A,119.178,34.844,连云港市,新城一中,颗粒物(PM10),54,57,73,24,25,132,,202,162,24,17,3,6,0.8,0.8
2024-08-13T0000,3008A,119.3608,34.7519,连云港市,胡沟管理处,,49,41,55,14,19,154,,174,163,13,20,10,12,0.6,0.5
2024-08-13T0000,3009A,119.1478,34.5911,连云港市,矿山设计院,颗粒物(PM10),64,78,62,24,21,146,,165,163,13,21,6,9,0.8,0.7
2024-08-13T0000,3434A,119.2413,34.6539,连云港市,工贸学校,臭氧1小时,59,59,51,27,21,167,,186,182,10,12,8,10,1.1,1
2024-08-13T0000,3664A,119.4172,34.7341,连云港市,连云街道,臭氧1小时,68,60,50,26,20,174,,202,198,13,12,5,5,1.1,0.7
2024-08-13T0000,2571A,102.3431,27.8099,凉山彝族自治州,青龙寺,,28,28,21,14,8,86,,135,114,5,5,1,2,0.3,0.4
2024-08-13T0000,2572A,102.2721,27.8415,凉山彝族自治州,邛海宾馆,,29,19,23,12,11,90,,138,116,12,12,7,9,0.5,0.6
2024-08-13T0000,2573A,102.2625,27.898,凉山彝族自治州,西昌市政府,,27,19,22,10,10,86,,144,114,4,8,8,9,0.5,0.6
2024-08-13T0000,2574A,102.2685,27.8851,凉山彝族自治州,凉山州政府,,24,24,26,13,13,73,,141,110,11,11,6,6,0.5,0.4
2024-08-13T0000,2575A,102.237,27.8914,凉山彝族自治州,长安,,27,18,27,11,13,84,,147,117,4,12,7,8,0.5,0.5
2024-08-13T0000,2212A,123.2,41.1953,辽阳市,宏伟区,,30,30,45,13,16,64,,89,84,14,10,8,6,0.6,0.5
2024-08-13T0000,2213A,123.1683,41.2495,辽阳市,新华园,,27,27,47,14,17,55,,81,74,15,13,8,7,0.7,0.7
2024-08-13T0000,2214A,123.2354,41.2639,辽阳市,滨河路,,24,24,43,16,18,55,,79,74,15,14,7,8,0.5,0.5
2024-08-13T0000,2215A,123.149,41.2991,辽阳市,铁西工业园,,22,,47,15,18,54,,73,67,12,13,8,9,0.7,0.8
2024-08-13T0000,2227A,125.1358,42.8845,辽源市,环保局,,25,25,26,10,13,49,,87,64,3,10,10,9,0.6,0.7
2024-08-13T0000,3239A,125.0764,42.9078,辽源市,银鹰制药,,15,15,22,8,13,42,,87,62,5,12,4,9,0.8,0.8
2024-08-13T0000,1625A,115.9848,36.4372,聊城市,区政府,,32,27,26,11,8,102,,139,129,22,16,9,11,0.5,0.5
2024-08-13T0000,2878A,116.0072,36.4343,聊城市,聊大东校,,39,39,29,11,13,100,,141,130,24,15,8,10,0.6,0.6
2024-08-13T0000,3200A,115.9819,36.4978,聊城市,监控中心,,30,30,27,12,8,80,,134,110,20,21,6,9,0.6,0.5
2024-08-13T0000,3513A,116.0445,36.4361,聊城市,九州社区,,37,37,31,13,10,97,,137,122,20,16,6,7,0.6,0.6
2024-08-13T0000,4018A,116.0567,36.4608,聊城市,星美广场,,46,46,37,13,9,90,,138,115,22,15,10,8,0.7,0.6
2024-08-13T0000,2632A,94.3681,29.6376,林芝市,林芝监测站,,22,13,8,6,5,69,,87,84,1,3,9,9,0.3,0.3
2024-08-13T0000,2633A,94.3616,29.6616,林芝市,林芝人民医院,,23,6,9,3,5,71,,92,86,5,5,6,6,0.1,0.1
2024-08-13T0000,2603A,100.0781,23.8982,临沧市,市环保局,,50,40,30,35,25,42,,94,70,10,8,4,4,0.4,0.3
2024-08-13T0000,2604A,100.0894,23.8822,临沧市,市气象局,,27,27,21,16,12,45,,94,71,8,7,5,4,0.5,0.4
2024-08-13T0000,1733A,111.5531,36.0783,临汾市,临钢医院,,29,29,39,8,11,71,,154,117,19,15,6,5,0.6,0.6
2024-08-13T0000,1734A,111.5028,36.0714,临汾市,技工学校,,35,35,42,15,14,77,,163,127,28,24,3,3,0.5,0.5
2024-08-13T0000,1736A,111.5018,36.0855,临汾市,市委,,29,22,39,7,12,90,,172,142,16,17,5,7,0.4,0.4
2024-08-13T0000,3018A,111.505,36.1014,临汾市,唐尧大酒店,,34,34,34,3,8,79,,152,121,22,19,5,7,0.5,0.5
2024-08-13T0000,3668A,111.5036,36.0414,临汾市,城南,颗粒物(PM10),65,79,52,24,14,51,,161,122,31,19,4,4,0.6,0.6
2024-08-13T0000,2667A,103.2069,35.5993,临夏回族自治州,环保局,,50,50,46,27,20,78,,149,114,12,10,9,11,0.5,0.4
2024-08-13T0000,2668A,103.2417,35.6057,临夏回族自治州,建设大厦,颗粒物(PM10),75,100,42,47,20,55,,149,107,16,10,5,7,0.9,0.5
2024-08-13T0000,1618A,118.3429,35.0532,临沂市,沂河小区,颗粒物(PM10),51,51,53,27,23,118,,184,161,22,15,15,10,0.5,0.5
2024-08-13T0000,1619A,118.295,35.0583,临沂市,鲁南制药厂,,48,48,53,32,22,117,,186,158,25,21,8,8,0.4,0.4
2024-08-13T0000,1620A,118.2794,34.9976,临沂市,新光毛纺厂,,48,48,50,26,21,105,,169,141,23,21,18,9,0.9,0.8
2024-08-13T0000,1621A,118.3956,35.0888,临沂市,河东保险公司,颗粒物(PM10),60,70,52,25,18,108,,180,138,44,25,14,10,0.6,0.6
2024-08-13T0000,3370A,118.3564,35.0215,临沂市,十里堡居委,,,41,51,27,23,118,,190,,,24,6,10,0.7,0.7
2024-08-13T0000,3496A,118.3604,35.1084,临沂市,南坊新区,,46,46,54,17,18,128,,178,156,20,19,14,11,0.8,0.8
2024-08-13T0000,3860A,118.3920,35.0300,临沂市,皇山花园小区,,46,46,61,24,26,112,,181,148,25,27,17,16,0.6,0.6
2024-08-13T0000,1870A,109.4856,24.3895,柳州市,柳东小学,,14,14,14,3,14,29,,56,45,13,12,8,8,0.7,0.8
2024-08-13T0000,1871A,109.4157,24.3277,柳州市,环保监测站,,16,16,24,3,13,31,,64,46,10,11,7,9,0.8,0.9
2024-08-13T0000,1872A,109.389,24.341,柳州市,河西水厂,,20,20,24,9,10,31,,68,50,11,9,5,7,0.9,0.9
2024-08-13T0000,1873A,109.4311,24.2921,柳州市,市四中,,14,14,19,3,10,34,,65,50,11,11,5,9,0.6,0.7
2024-08-13T0000,1874A,109.4006,24.3631,柳州市,市九中,,,,25,9,12,37,,68,53,13,13,5,7,0.8,0.9
2024-08-13T0000,1875A,109.4958,24.3134,柳州市,古亭山,,27,27,18,7,9,8,,53,38,24,16,6,7,0.8,0.8
2024-08-13T0000,3402A,109.5422,24.3996,柳州市,市二中,,16,16,17,6,7,15,,49,37,24,15,8,6,0.5,0.5
2024-08-13T0000,2307A,116.5079,31.737,六安市,监测大楼,,41,25,74,14,24,129,,145,125,3,10,5,6,0.4,0.4
2024-08-13T0000,2308A,116.4738,31.7643,六安市,皖西学院,,39,36,87,14,24,123,,143,124,2,10,4,5,0.2,0.3
2024-08-13T0000,2309A,116.4996,31.7905,六安市,朝阳厂,,38,32,78,10,24,120,,138,124,1,7,9,10,0.2,0.3
2024-08-13T0000,2310A,116.5567,31.7886,六安市,开发区,,33,31,86,13,28,103,,145,114,4,11,4,6,0.2,0.2
2024-08-13T0000,2576A,104.8,26.5892,六盘水市,窑上,,,,,,,,,,,,,,,,
2024-08-13T0000,2577A,104.83,26.5917,六盘水市,黄土坡,颗粒物(PM10),54,58,57,28,24,67,,132,109,21,12,6,6,0.5,0.4
2024-08-13T0000,2578A,104.89,26.5939,六盘水市,水钢,颗粒物(PM10),73,95,79,21,23,84,,131,122,39,24,11,19,1.3,1.3
2024-08-13T0000,2579A,104.8475,26.5894,六盘水市,民中,颗粒物(PM10),51,52,54,22,21,90,,133,119,19,14,8,7,0.3,0.3
2024-08-13T0000,2580A,104.9544,26.5506,六盘水市,双水,颗粒物(PM10),62,73,77,25,23,66,,135,115,24,18,8,8,0.5,0.6
2024-08-13T0000,2335A,117.0189,25.1181,龙岩市,龙岩师专,,,,,,,,,,,,,,,,
2024-08-13T0000,2336A,117.0217,25.1033,龙岩市,龙岩市监测站,,24,24,27,12,16,22,,90,40,23,20,4,5,0.4,0.4
2024-08-13T0000,2337A,117.0258,25.0661,龙岩市,闽西职业技术学院,,35,35,32,11,14,4,,77,20,39,26,15,12,0.4,0.4
2024-08-13T0000,2338A,117.0196,25.0306,龙岩市,龙岩学院,,16,16,24,3,11,28,,82,45,9,10,3,3,0.2,0.3
2024-08-13T0000,2665A,105.0822,33.3261,陇南市,汉王镇固水子,,,,,,,,,,,,,,,,
2024-08-13T0000,2885A,104.9339,33.3826,陇南市,滨江中学,,44,44,41,17,13,73,,111,92,18,13,5,6,0.5,0.4
2024-08-13T0000,3247A,104.955,33.371,陇南市,市总工会,,31,31,31,14,9,98,,113,101,3,6,5,5,0.4,0.4
2024-08-13T0000,2487A,111.9589,27.8901,娄底市,电视发射台,,32,32,46,18,22,31,,78,62,9,7,6,7,0.6,0.6
2024-08-13T0000,2488A,111.9975,27.725,娄底市,市监测站,,25,20,44,17,21,54,,99,71,5,10,7,12,0.5,0.7
2024-08-13T0000,2489A,112.0194,27.7314,娄底市,市委党校,,28,28,41,14,20,51,,89,67,3,5,3,2,0.5,0.6
2024-08-13T0000,2490A,111.9561,27.7569,娄底市,涟钢,,48,48,55,21,24,23,,66,39,19,19,9,10,0.9,0.7
2024-08-13T0000,2491A,111.9892,27.7044,娄底市,市政府,,22,22,33,12,23,46,,133,55,8,9,6,8,0.4,0.3
2024-08-13T0000,1893A,105.4324,28.9634,泸州市,九狮山,颗粒物(PM10),75,100,100,43,38,39,,177,104,16,16,4,4,0.7,0.5
2024-08-13T0000,1894A,105.4427,28.9063,泸州市,小市上码头,颗粒物(PM10),79,108,121,45,35,49,,182,130,40,23,7,12,0.8,0.5
2024-08-13T0000,1895A,105.4241,28.8573,泸州市,兰田宪桥,颗粒物(PM10),81,111,105,54,42,73,,179,128,23,20,6,6,0.5,0.4
2024-08-13T0000,1896A,105.4379,28.8833,泸州市,市环监站,颗粒物(PM10),83,115,113,57,41,86,,175,135,23,20,5,6,0.5,0.4
2024-08-13T0000,3490A,105.3617,28.7703,泸州市,纳溪区环保局,颗粒物(PM10),75,99,101,51,41,31,,172,107,40,23,4,5,0.6,0.4
2024-08-13T0000,2183A,111.1406,37.5211,吕梁市,环保局,颗粒物(PM10),56,62,39,16,12,29,,116,76,36,24,3,5,0.4,0.5
2024-08-13T0000,2185A,111.1297,37.5136,吕梁市,自来水公司,,44,44,45,12,12,46,,110,83,22,22,3,5,0.4,0.6
2024-08-13T0000,2867A,111.1283,37.51,吕梁市,马茂庄小学,颗粒物(PM10),53,55,50,11,12,34,,116,80,41,30,1,3,0.5,0.5
2024-08-13T0000,1812A,112.3931,34.6516,洛阳市,市委党校,"颗粒物(PM10),细颗粒物(PM2.5)",54,58,28,38,14,65,,140,116,28,11,9,6,0.6,0.6
2024-08-13T0000,1814A,112.4657,34.6871,洛阳市,豫西宾馆,,38,38,32,17,12,71,,147,123,31,19,5,7,0.3,0.3
2024-08-13T0000,1815A,112.494,34.6886,洛阳市,河南林校,,31,31,30,18,14,78,,139,112,25,15,3,6,0.5,0.5
2024-08-13T0000,1816A,112.3844,34.623,洛阳市,开发区管委会,,22,22,21,13,11,70,,138,108,15,10,3,2,0.3,0.3
2024-08-13T0000,1817A,112.4267,34.6258,洛阳市,市委新办公区,,29,29,20,17,12,70,,143,110,15,6,3,4,0.5,0.5
2024-08-13T0000,3340A,112.6005,34.6326,洛阳市,伊滨,颗粒物(PM10),56,62,29,20,12,50,,154,110,33,17,5,6,0.3,0.2
2024-08-13T0000,3341A,112.4951,34.6332,洛阳市,中移产业园,,29,29,20,14,10,84,,146,120,19,9,3,5,0.8,0.7
2024-08-13T0000,3593A,112.5736,34.8993,洛阳市,吉利监测站,,,49,28,14,13,97,,136,118,,6,4,2,0.6,0.3
2024-08-13T0000,3635A,112.3677,34.662,洛阳市,河科大西苑校区,,37,37,24,13,10,46,,137,110,36,12,5,6,0.7,0.6
2024-08-13T0000,3636A,112.4388,34.6781,洛阳市,英才小学,,28,28,29,18,20,78,,143,120,22,13,4,8,0.5,0.5
2024-08-13T0000,2399A,114.051,33.5699,漯河市,三五一五工厂,颗粒物(PM10),57,63,32,22,13,75,,165,128,40,13,13,10,0.7,0.5
2024-08-13T0000,2400A,114.0055,33.5698,漯河市,漯河大学,,47,47,34,22,12,104,,167,134,23,13,16,12,0.6,0.4
2024-08-13T0000,2401A,114.0138,33.5828,漯河市,市水利局,,44,44,30,22,11,98,,163,135,22,11,10,9,0.8,0.6
2024-08-13T0000,2402A,114.0261,33.5698,漯河市,市广电局,颗粒物(PM10),51,51,27,19,9,119,,164,139,19,12,14,9,0.7,0.5
2024-08-13T0000,3478A,113.9749,33.5664,漯河市,市图书馆,颗粒物(PM10),56,62,32,30,14,36,,168,118,58,15,11,11,0.6,0.4
2024-08-13T0000,3479A,114.0967,33.5906,漯河市,召陵区卫健委,颗粒物(PM10),59,68,36,30,16,70,,164,110,33,14,6,6,0.7,0.5
2024-08-13T0000,1798A,118.5092,31.6837,马鞍山市,湖东路四小,,37,,62,21,25,116,,152,136,12,19,5,10,0.7,0.9
2024-08-13T0000,1799A,118.5024,31.6449,马鞍山市,开发区,,34,34,59,23,21,94,,154,132,19,18,4,4,0.7,0.8
2024-08-13T0000,1800A,118.5228,31.7231,马鞍山市,慈湖,,32,31,48,17,26,100,,154,137,16,23,5,11,0.8,1
2024-08-13T0000,1802A,118.6245,31.7241,马鞍山市,濮塘,,32,22,54,22,28,79,,165,128,6,12,4,5,0.8,1
2024-08-13T0000,3633A,118.4918,31.6809,马鞍山市,雨山,,32,22,58,16,23,100,,147,134,12,15,5,8,0.8,1
2024-08-13T0000,1686A,111.0286,21.4688,茂名市,电白南海,,27,27,30,14,19,31,,75,42,14,9,10,8,0.6,0.6
2024-08-13T0000,1687A,110.9294,21.6533,茂名市,茂石化七小,,18,14,20,12,16,27,,61,40,10,9,12,10,0.4,0.4
2024-08-13T0000,1688A,110.9107,21.6687,茂名市,健康路,,14,14,18,3,9,32,,65,42,10,9,14,13,0.6,0.6
2024-08-13T0000,1689A,110.8592,21.6828,茂名市,高岭,,24,24,23,14,14,14,,49,26,19,15,15,17,0.6,0.5
2024-08-13T0000,3450A,111.01,21.5165,茂名市,电白水东,,18,17,23,12,13,28,,65,41,16,10,11,8,0.5,0.5
2024-08-13T0000,2539A,104.0308,30.0478,眉山市,黑龙滩水库,颗粒物(PM10),52,54,47,25,20,66,,148,111,8,8,6,6,0.3,0.2
2024-08-13T0000,2540A,103.8416,30.0874,眉山市,气象局,颗粒物(PM10),56,62,52,39,25,10,,156,101,65,32,7,8,0.6,0.5
2024-08-13T0000,3137A,103.8578,30.0744,眉山市,市委党校,颗粒物(PM10),62,73,59,27,18,18,,152,99,59,29,7,6,0.7,0.5
2024-08-13T0000,3148A,103.8291,30.0564,眉山市,区人社局,颗粒物(PM10),51,51,50,29,20,25,,157,101,77,34,9,11,0.6,0.6
2024-08-13T0000,1690A,116.1231,24.3284,梅州市,梅江月梅,,38,38,26,11,13,25,,86,44,11,8,8,8,0.5,0.5
2024-08-13T0000,1691A,116.0797,24.2719,梅州市,梅县新城,,26,26,25,16,14,12,,89,40,19,17,4,4,0.6,0.6
2024-08-13T0000,1692A,116.1248,24.2654,梅州市,环境监控中心,,25,25,26,10,12,9,,82,36,22,20,4,5,0.6,0.6
2024-08-13T0000,3315A,116.1233,24.2991,梅州市,梅龙,,24,24,17,13,14,19,,95,49,19,10,8,8,0.7,0.6
2024-08-13T0000,1878A,104.7778,31.4741,绵阳市,富乐山,颗粒物(PM10),54,57,49,31,27,107,,171,150,18,13,10,9,0.6,0.5
2024-08-13T0000,1879A,104.7563,31.4535,绵阳市,市人大,颗粒物(PM10),63,76,58,35,27,65,,179,131,53,29,13,11,0.7,0.5
2024-08-13T0000,1880A,104.6697,31.4668,绵阳市,高新区自来水公司,颗粒物(PM10),91,132,63,39,21,7,,183,112,92,34,8,8,0.6,0.5
2024-08-13T0000,1881A,104.7287,31.5075,绵阳市,三水厂,颗粒物(PM10),73,96,58,51,30,32,,175,115,54,27,6,6,0.8,0.6
2024-08-13T0000,3491A,104.69,31.5322,绵阳市,西科大附属小学,颗粒物(PM10),65,79,54,36,25,57,,181,130,54,24,12,10,0.6,0.4
2024-08-13T0000,3492A,104.5648,31.5343,绵阳市,安州区旅游局,"颗粒物(PM10),细颗粒物(PM2.5)",64,78,50,46,30,70,,188,137,17,14,7,6,0.7,0.5
2024-08-13T0000,1784A,129.61,44.561,牡丹江市,环保大楼,,23,,17,16,12,25,,47,35,8,5,7,7,0.3,0.3
2024-08-13T0000,1785A,129.6115,44.5782,牡丹江市,文化广场,,32,22,16,22,16,28,,46,35,6,6,6,6,0.3,0.3
2024-08-13T0000,1786A,129.5904,44.5963,牡丹江市,第一医院,,18,18,15,10,10,25,,48,35,6,6,5,5,0.4,0.4
2024-08-13T0000,1787A,129.6364,44.6075,牡丹江市,机车工厂,,26,,13,18,17,16,,46,30,11,8,5,5,0.3,0.3
2024-08-13T0000,1788A,129.6386,44.5462,牡丹江市,第一中学,,25,20,19,17,14,18,,51,30,14,7,5,5,0.4,0.3
2024-08-13T0000,2531A,105.0703,29.61,内江市,市监测站,细颗粒物(PM2.5),59,49,59,42,32,30,,153,92,38,27,2,3,0.5,0.5
2024-08-13T0000,2532A,105.0717,29.5947,内江市,东兴区政府,颗粒物(PM10),67,84,69,24,25,31,,134,93,44,23,8,9,1.0,0.8
2024-08-13T0000,2533A,105.0653,29.5817,内江市,内江二中,颗粒物(PM10),58,65,63,36,25,26,,139,93,36,22,6,5,0.7,0.6
2024-08-13T0000,2534A,105.0406,29.5822,内江市,内江日报社,颗粒物(PM10),62,74,73,33,33,5,,154,83,74,31,6,7,0.6,0.5
2024-08-13T0000,2628A,92.0657,31.4846,那曲市,那曲监测站,,46,46,31,13,12,75,,112,97,10,7,6,6,0.6,0.4
2024-08-13T0000,3128A,92.0506,31.4797,那曲市,那曲会议中心,,30,14,30,7,12,93,,124,110,9,8,4,4,0.0,0.3
2024-08-13T0000,1290A,115.8931,28.6843,南昌市,省外办,,25,20,39,12,18,78,,131,90,16,17,9,11,0.5,0.4
2024-08-13T0000,1291A,115.8886,28.7003,南昌市,省林业公司,,23,12,28,7,14,72,,126,83,11,14,8,9,0.5,0.5
2024-08-13T0000,1292A,115.8126,28.7442,南昌市,林科所,,20,17,28,7,11,62,,131,64,13,19,6,8,0.2,0.2
2024-08-13T0000,1294A,115.8518,28.687,南昌市,建工学校,,20,10,29,3,12,64,,128,81,16,15,10,12,0.4,0.4
2024-08-13T0000,1295A,115.8921,28.6424,南昌市,象湖,,26,9,23,7,12,83,,124,85,8,15,9,8,0.6,0.7
2024-08-13T0000,1296A,115.7423,28.7996,南昌市,武术学校,,,,28,,20,,,76,,,7,,2,,0.7
2024-08-13T0000,1298A,115.9314,28.6842,南昌市,省站,,21,19,31,8,18,65,,120,77,9,8,11,12,0.5,0.6
2024-08-13T0000,3046A,115.9084,28.6062,南昌市,机电学校,,21,18,30,9,13,66,,114,78,12,12,13,11,0.5,0.6
2024-08-13T0000,3690A,115.9721,28.7031,南昌市,外国语学校,,21,19,34,6,13,65,,137,77,10,12,7,7,0.2,0.3
2024-08-13T0000,1905A,106.056,30.8064,南充市,西山风景区,颗粒物(PM10),54,57,50,32,28,89,,141,135,24,10,10,5,0.2,0.1
2024-08-13T0000,1906A,106.0789,30.8023,南充市,南充市委,颗粒物(PM10),58,66,75,33,31,54,,155,100,26,19,6,8,0.5,0.5
2024-08-13T0000,1907A,106.1031,30.8217,南充市,南充炼油厂,颗粒物(PM10),75,100,82,40,34,30,,160,99,46,23,5,6,0.5,0.4
2024-08-13T0000,1908A,106.1064,30.7856,南充市,高坪区监测站,颗粒物(PM10),71,91,75,46,29,68,,151,108,25,20,6,6,0.3,0.3
2024-08-13T0000,1909A,106.0642,30.7636,南充市,嘉陵区环保局,颗粒物(PM10),62,74,74,31,29,39,,156,87,35,24,8,9,0.5,0.4
2024-08-13T0000,1910A,106.1087,30.8388,南充市,市环境监测站,颗粒物(PM10),63,75,74,42,31,46,,163,105,45,26,5,6,0.8,0.6
2024-08-13T0000,1151A,118.8086,32.1065,南京市,迈皋桥,,26,21,53,9,20,81,,164,130,12,18,18,15,0.3,0.3
2024-08-13T0000,1152A,118.7538,32.0551,南京市,草场门,,35,27,66,9,19,111,,151,124,10,17,5,6,0.4,0.4
2024-08-13T0000,1153A,118.7794,32.0745,南京市,山西路,,43,31,46,14,23,136,,170,142,6,10,4,4,0.4,0.4
2024-08-13T0000,1154A,118.7752,32.0023,南京市,中华门,,29,19,61,9,21,91,,148,125,24,19,4,4,0.5,0.5
2024-08-13T0000,1155A,118.8109,32.0309,南京市,瑞金路,,38,27,66,19,22,120,,162,136,5,9,5,6,0.4,0.5
2024-08-13T0000,1156A,118.7997,32.0754,南京市,玄武湖,,31,31,68,10,20,99,,148,124,6,5,4,9,0.5,0.5
2024-08-13T0000,1157A,118.6414,32.0931,南京市,浦口,,34,34,74,19,21,62,,149,112,14,8,6,7,0.4,0.4
2024-08-13T0000,1158A,118.7356,31.9996,南京市,奥体中心,,31,,64,17,26,97,,136,112,17,20,7,7,0.3,0.3
2024-08-13T0000,1159A,118.9125,32.1028,南京市,仙林大学城,,38,34,71,14,23,121,,184,142,14,18,6,9,0.5,0.6
2024-08-13T0000,3422A,118.8436,31.9198,南京市,江宁彩虹桥,,37,24,60,12,20,117,,170,144,3,11,3,4,0.7,0.8
2024-08-13T0000,3423A,119.0138,31.6494,南京市,溧水永阳,,37,22,42,17,20,118,,177,145,12,10,4,4,0.5,0.5
2024-08-13T0000,3424A,118.879,31.3302,南京市,高淳老职中,,45,31,41,19,21,143,,178,161,10,10,4,5,0.4,0.5
2024-08-13T0000,3427A,118.8554,32.3578,南京市,六合雄州,,34,34,78,10,25,100,,146,122,11,11,4,6,1.0,0.8
2024-08-13T0000,1401A,108.3103,22.7881,南宁市,二十一中,,21,21,21,13,12,32,,87,54,13,11,3,3,0.7,0.7
2024-08-13T0000,1402A,108.3141,22.8528,南宁市,北湖,,26,26,27,18,15,32,,95,54,13,13,2,2,0.6,0.6
2024-08-13T0000,1403A,108.3206,22.8225,南宁市,市监测站,,24,24,26,14,12,43,,88,56,11,12,4,4,0.7,0.7
2024-08-13T0000,1404A,108.3829,22.8037,南宁市,大自然花园,,23,18,20,16,13,34,,80,50,13,12,4,4,0.6,0.6
2024-08-13T0000,1405A,108.4394,22.7904,南宁市,仙葫,,25,21,19,17,11,37,,81,54,11,8,5,6,0.7,0.8
2024-08-13T0000,1406A,108.2397,22.8467,南宁市,区农职院,,29,22,26,20,20,33,,96,58,13,14,5,8,0.8,0.8
2024-08-13T0000,1407A,108.3275,22.735,南宁市,英华嘉园,,22,21,23,15,14,38,,77,52,11,18,5,5,0.6,0.6
2024-08-13T0000,1408A,108.2257,22.7757,南宁市,沙井镇街道办,,29,29,28,13,14,37,,81,53,17,20,2,2,0.6,0.6
2024-08-13T0000,3401A,108.4834,22.7618,南宁市,红星社区,,26,,20,18,12,32,,72,45,8,9,5,5,0.7,0.7
2024-08-13T0000,2331A,118.0966,26.6761,南平市,茫荡山,,,,,,,,,,,,,,,,
2024-08-13T0000,2332A,118.1681,26.6369,南平市,南平市监测站,,19,18,25,12,14,58,,112,84,11,12,6,7,0.6,0.7
2024-08-13T0000,2333A,118.1825,26.6489,南平市,南平铝业有限公司,,22,17,25,10,15,70,,110,88,7,10,6,8,0.5,0.6
2024-08-13T0000,2334A,118.1756,26.6272,南平市,南平七中,,26,24,28,18,15,58,,110,84,11,11,9,7,0.8,0.7
2024-08-13T0000,1168A,120.9098,31.9663,南通市,狼山街道,,30,26,27,21,17,62,,175,92,21,22,6,11,0.7,1
2024-08-13T0000,1169A,120.86,32.0005,南通市,虹桥,,35,35,35,20,22,101,,178,107,12,23,5,10,0.9,1.3
2024-08-13T0000,1170A,120.87,32.02,南通市,城中,,32,29,40,18,21,100,,168,102,9,20,6,11,0.8,1.1
2024-08-13T0000,1171A,120.94,31.93,南通市,星湖花园,,33,25,26,13,14,104,,180,104,16,26,4,7,0.7,1
2024-08-13T0000,1172A,120.81,32.0417,南通市,紫琅学院,,34,25,30,14,17,106,,169,97,16,25,6,10,0.9,1.1
2024-08-13T0000,3291A,121.067,32.062,南通市,通州监测站,,41,41,33,24,17,104,,168,103,8,10,3,5,0.8,0.9
2024-08-13T0000,3432A,120.9348,31.9883,南通市,环境教育馆,,29,29,36,19,18,59,,173,74,31,28,8,12,0.7,1
2024-08-13T0000,2404A,112.5224,33.0122,南阳市,瓦房庄,,34,34,28,13,11,93,,148,132,20,16,9,5,0.6,0.5
2024-08-13T0000,2405A,112.5003,32.9735,南阳市,汉画馆,,44,44,34,22,16,82,,138,112,20,19,5,5,0.5,0.4
2024-08-13T0000,2406A,112.5573,33.027,南阳市,气象站,,39,39,31,22,10,77,,160,133,26,18,8,8,0.6,0.5
2024-08-13T0000,2407A,112.5481,32.9689,南阳市,理工学院,,31,31,28,12,7,85,,141,118,23,22,5,5,0.5,0.4
2024-08-13T0000,4008A,112.5234,32.9922,南阳市,卧龙区政府,,42,42,31,19,14,72,,139,112,30,23,5,5,0.6,0.5
2024-08-13T0000,1234A,121.8358,29.911,宁波市,区环保大楼,,48,48,57,29,34,117,,193,125,10,26,6,9,0.8,1
2024-08-13T0000,1235A,121.56,29.82,宁波市,万里学院,细颗粒物(PM2.5),54,49,54,38,37,94,,158,106,12,14,8,8,0.8,0.8
2024-08-13T0000,1236A,121.713,29.9572,宁波市,龙赛医院,,45,45,50,26,31,95,,219,114,15,20,7,9,0.7,0.8
2024-08-13T0000,1239A,121.633,29.7733,宁波市,钱湖水厂,,44,44,45,26,33,93,,152,117,9,8,6,6,0.7,0.7
2024-08-13T0000,1240A,121.5856,29.8635,宁波市,太古小学,,36,36,47,25,30,94,,148,93,8,14,6,6,0.9,1.1
2024-08-13T0000,1241A,121.524,29.8674,宁波市,市环境监测中心,,46,46,48,22,25,101,,167,97,11,18,4,4,0.7,0.8
2024-08-13T0000,2871A,121.6147,29.9017,宁波市,万里国际学校,,43,41,46,30,38,106,,180,106,11,18,6,6,0.5,0.6
2024-08-13T0000,3710A,121.5594,29.8975,宁波市,白沙活动中心,,40,40,44,25,28,102,,178,94,12,19,6,6,0.6,0.6
2024-08-13T0000,2339A,119.5001,26.6946,宁德市,金涵水库,,,,,,,,,,,,,,,,
2024-08-13T0000,2341A,119.5388,26.6612,宁德市,宁德市监测站,,40,40,39,26,25,73,,132,108,13,12,4,5,0.6,0.7
2024-08-13T0000,3209A,119.5231,26.6562,宁德市,宁德一中,,45,38,42,31,25,63,,127,91,8,9,4,4,1.3,1.2
2024-08-13T0000,2618A,98.8601,25.8567,怒江傈僳族自治州,州监测站,,47,47,29,17,12,89,,83,83,5,10,12,10,0.4,0.5
2024-08-13T0000,2619A,98.8546,25.8417,怒江傈僳族自治州,泸水一中,,29,,25,20,11,68,,69,62,12,13,5,5,0.5,0.6
2024-08-13T0000,1888A,101.6891,26.571,攀枝花市,弄弄坪,颗粒物(PM10),55,59,57,22,25,83,,147,122,21,22,10,12,0.6,0.8
2024-08-13T0000,1889A,101.5769,26.5928,攀枝花市,河门口,,47,47,40,25,20,80,,169,136,24,18,9,11,0.9,1
2024-08-13T0000,1890A,101.7169,26.585,攀枝花市,炳草岗,细颗粒物(PM2.5),58,50,60,41,26,62,,151,112,36,26,15,18,0.9,0.9
2024-08-13T0000,1891A,101.7369,26.5008,攀枝花市,仁和,,35,35,39,23,24,76,,165,128,16,15,5,13,0.5,0.7
2024-08-13T0000,2835A,101.7227,26.567,攀枝花市,四十中小,颗粒物(PM10),53,56,48,26,23,38,,155,107,62,30,8,12,1.1,1
2024-08-13T0000,1604A,122.0303,41.1489,盘锦市,开发区,,16,11,25,10,15,50,,109,87,6,8,5,6,0.5,0.6
2024-08-13T0000,1605A,122.0485,41.0883,盘锦市,兴隆台,,15,13,28,7,14,47,,96,81,8,12,4,4,0.4,0.6
2024-08-13T0000,1606A,121.8297,41.1028,盘锦市,新生街道,,14,14,22,9,14,43,,92,71,7,9,4,5,0.6,0.7
2024-08-13T0000,1832A,113.3257,33.742,平顶山市,新华旅馆,,49,49,41,22,23,127,,161,134,23,14,8,7,0.6,0.4
2024-08-13T0000,1833A,113.2919,33.737,平顶山市,规划设计院,,39,39,33,16,13,121,,159,142,23,18,9,10,0.9,0.7
2024-08-13T0000,1834A,113.182,33.774,平顶山市,平顶山工学院,,40,40,27,17,10,98,,156,127,21,14,9,10,0.8,0.7
2024-08-13T0000,3204A,113.3025,33.73,平顶山市,规划局,颗粒物(PM10),56,61,33,32,17,125,,155,134,20,14,6,7,0.9,0.7
2024-08-13T0000,3594A,112.8867,33.9116,平顶山市,石龙区,,,,52,,15,,,139,89,,32,,9,,0.3
2024-08-13T0000,2656A,106.6692,35.5461,平凉市,聚贤嘉苑,,37,37,34,10,11,41,,145,88,40,27,10,9,0.3,0.3
2024-08-13T0000,2657A,106.7021,35.5307,平凉市,博物馆,,39,39,40,12,11,41,,146,97,42,25,7,8,0.4,0.4
2024-08-13T0000,2347A,114.0997,27.5002,萍乡市,武功山,,10,6,11,3,3,31,,79,52,2,3,15,16,0.2,0.2
2024-08-13T0000,2348A,113.8385,27.6434,萍乡市,中医院,,35,,24,24,18,15,,80,45,25,10,9,10,0.9,0.9
2024-08-13T0000,2349A,113.8493,27.6253,萍乡市,市政府车库,,18,18,23,12,18,25,,71,38,14,8,16,13,0.9,0.6
2024-08-13T0000,2350A,113.8676,27.6435,萍乡市,市环保局,,20,20,23,9,16,18,,75,43,24,7,12,11,1.1,1
2024-08-13T0000,2351A,113.866,27.6198,萍乡市,安源区政府,,18,18,21,3,7,18,,69,38,18,9,12,10,0.7,0.5
2024-08-13T0000,2319A,119.0141,25.4325,莆田市,荔城区仓后路,,21,15,52,8,31,67,,154,81,9,12,6,7,0.6,0.7
2024-08-13T0000,2320A,119.0015,25.4553,莆田市,莆田市监测站,,15,15,53,3,31,47,,157,77,5,9,5,6,0.5,0.6
2024-08-13T0000,2321A,119.1119,25.4561,莆田市,涵江区六中,,18,18,52,9,30,48,,148,78,14,12,7,6,0.6,0.7
2024-08-13T0000,2322A,119.1013,25.3215,莆田市,秀屿区政府,,41,41,36,20,31,62,,132,86,22,13,8,6,0.7,0.7
2024-08-13T0000,2323A,118.981,25.4792,莆田市,东圳水库,,,,,,,,,,,,,,,,
2024-08-13T0000,2392A,115.0312,35.7636,濮阳市,环保局,,35,21,28,11,13,110,,147,123,11,14,6,8,0.5,0.7
2024-08-13T0000,2394A,115.0574,35.7609,濮阳市,油田运输公司,,32,21,28,8,14,102,,153,124,11,12,7,4,0.4,0.5
2024-08-13T0000,2395A,115.0866,35.7754,濮阳市,油田物探公司,,31,31,31,17,16,64,,151,108,20,11,6,6,0.5,0.6
2024-08-13T0000,3021A,115,35.7668,濮阳市,濮水河管理处,,25,20,28,17,17,51,,125,92,16,12,2,4,0.6,0.7
2024-08-13T0000,2601A,100.98,22.7633,普洱市,市环保局,,40,40,35,24,19,35,,67,57,6,9,10,10,0.5,0.5
2024-08-13T0000,2602A,100.9817,22.8322,普洱市,普洱第二中学,,40,40,37,20,15,34,,73,63,14,10,5,5,0.5,0.5
2024-08-13T0000,2262A,131.0518,45.8751,七台河市,新一中,,15,15,13,9,8,48,,79,62,10,7,10,10,0.5,0.6
2024-08-13T0000,3345A,131.0577,45.7879,七台河市,中波台,,11,9,8,3,7,26,,46,41,21,17,10,10,0.5,0.3
2024-08-13T0000,3637A,131.0176,45.7761,七台河市,人民广场,,13,13,19,3,7,26,,61,48,17,9,11,11,0.4,0.3
2024-08-13T0000,3684A,130.8781,45.8222,七台河市,新建矿广场,,16,14,28,11,11,26,,56,41,16,13,8,7,0.4,0.4
2024-08-13T0000,1779A,123.9305,47.3636,齐齐哈尔市,安居小区,,22,22,17,10,9,18,,64,34,22,10,6,7,0.5,0.5
2024-08-13T0000,1780A,123.9488,47.3386,齐齐哈尔市,中心广场,,21,21,17,12,8,42,,62,41,10,9,2,2,0.3,0.4
2024-08-13T0000,1781A,123.9483,47.3227,齐齐哈尔市,农牧车辆厂,,34,34,25,14,5,38,,66,42,10,8,8,8,0.2,0.2
2024-08-13T0000,1783A,123.945,47.2988,齐齐哈尔市,市环境监测站,,20,15,18,14,9,37,,65,40,12,9,7,7,0.2,0.2
2024-08-13T0000,3662A,123.6333,47.2075,齐齐哈尔市,富区青少年活动中心,,27,27,18,3,5,36,,62,41,14,9,4,4,1.0,0.5
2024-08-13T0000,2591A,107.9783,26.5747,黔东南苗族侗族自治州,市环境监测站,,50,50,36,24,16,55,,87,65,15,17,4,4,0.4,0.5
2024-08-13T0000,2881A,107.8908,26.5311,黔东南苗族侗族自治州,凯里学院,颗粒物(PM10),51,51,46,19,14,32,,94,69,17,11,5,5,0.4,0.3
2024-08-13T0000,2593A,107.5228,26.2403,黔南布依族苗族自治州,小围寨,,36,36,40,14,12,23,,94,68,10,7,5,5,0.4,0.4
2024-08-13T0000,3538A,107.5175,26.2978,黔南布依族苗族自治州,沙坝,,,,47,,13,17,,100,,,9,4,4,0.3,0.4
2024-08-13T0000,2589A,104.9022,25.0925,黔西南布依族苗族自治州,场坝街,,21,21,57,3,23,50,,101,84,10,14,6,24,0.2,0.2
2024-08-13T0000,2590A,104.8811,25.0992,黔西南布依族苗族自治州,坪东大道,,31,31,67,7,24,34,,103,75,14,14,4,10,0.3,0.2
2024-08-13T0000,2502A,108.6236,21.9667,钦州市,市环保站,,12,12,14,7,6,29,,69,43,16,11,9,6,0.7,0.6
2024-08-13T0000,2503A,108.6549,21.9481,钦州市,沙埠小学,,24,24,21,13,10,20,,65,36,21,12,10,6,0.6,0.5
2024-08-13T0000,2504A,108.5989,21.7431,钦州市,港区一小,,31,31,28,13,10,19,,58,37,18,16,8,8,0.6,0.6
2024-08-13T0000,3404A,108.5959,21.9633,钦州市,北职校,,30,30,20,16,11,32,,69,43,14,12,6,5,0.6,0.6
2024-08-13T0000,1042A,119.5134,39.8207,秦皇岛市,北戴河环保局,,17,15,56,7,20,54,,140,91,9,13,1,2,0.5,0.5
2024-08-13T0000,1043A,119.7493,40.0116,秦皇岛市,第一关,,35,27,57,24,35,46,,139,74,9,17,3,3,0.4,0.4
2024-08-13T0000,1044A,119.5897,39.9499,秦皇岛市,监测站,,37,37,63,24,33,44,,141,78,6,17,3,3,0.5,0.6
2024-08-13T0000,1046A,119.5251,39.9041,秦皇岛市,建设大厦,,16,14,48,8,12,51,,147,69,2,18,3,3,0.3,0.4
2024-08-13T0000,3132A,119.610547,39.943889,秦皇岛市,文明里,,20,20,53,12,23,47,,146,82,4,12,3,2,0.7,0.6
2024-08-13T0000,1307A,120.6659,36.2403,青岛市,仰口,颗粒物(PM10),55,59,96,28,34,142,,188,152,5,9,8,9,0.3,0.5
2024-08-13T0000,1310A,120.4134,36.0658,青岛市,市南区东部子站,臭氧1小时,83,88,116,29,31,186,,251,228,6,18,7,11,0.7,0.8
2024-08-13T0000,1311A,120.3664,36.1032,青岛市,四方区子站,臭氧1小时,98,78,96,34,33,198,,218,214,5,16,12,14,0.8,1
2024-08-13T0000,1312A,120.2994,36.054,青岛市,市南区西部子站,臭氧1小时,77,80,113,24,31,181,,214,196,1,21,8,9,0.9,1
2024-08-13T0000,1313A,120.4581,36.0858,青岛市,崂山区子站,颗粒物(PM10),63,75,114,29,36,169,,239,216,10,18,9,10,0.8,0.9
2024-08-13T0000,1314A,120.1983,35.9608,青岛市,黄岛区子站,臭氧1小时,93,75,91,37,35,194,,209,201,11,19,9,10,0.9,0.9
2024-08-13T0000,1315A,120.3999,36.3083,青岛市,城阳区子站,颗粒物(PM10),56,61,103,22,27,155,,202,178,15,23,9,10,0.9,0.9
2024-08-13T0000,1966A,120.0405,35.8735,青岛市,黄岛区4号,臭氧1小时,102,78,97,31,32,203,,220,203,10,25,9,10,0.8,0.9
2024-08-13T0000,3362A,120.5014,36.4034,青岛市,即墨2号,颗粒物(PM10),67,84,113,28,34,138,,184,162,14,18,8,8,0.9,0.7
2024-08-13T0000,3642A,120.3503,36.0736,青岛市,市北区南部,臭氧1小时,103,76,104,29,35,206,,244,228,10,18,9,10,0.8,1
2024-08-13T0000,3643A,120.3948,36.1805,青岛市,李沧区北部,颗粒物(PM10),67,83,106,36,37,165,,212,200,21,20,10,11,0.7,0.7
2024-08-13T0000,1702A,113.0426,23.691,清远市,环保大楼,,15,6,24,3,13,48,,94,70,6,14,6,8,0.4,0.5
2024-08-13T0000,1703A,113.0208,23.7106,清远市,凤城街办,,14,7,27,3,12,43,,84,65,6,14,4,4,0.4,0.5
2024-08-13T0000,3025A,113.0477,23.6344,清远市,技师学院,,15,10,24,3,11,46,,110,77,14,16,4,10,0.9,1
2024-08-13T0000,3318A,112.9903,23.7403,清远市,清新太和,,14,12,26,3,11,43,,82,66,4,8,4,3,0.4,0.5
2024-08-13T0000,3455A,113.076,23.7198,清远市,清城东城,,15,7,29,3,14,45,,102,76,4,10,6,7,0.7,0.8
2024-08-13T0000,2661A,107.6325,35.7357,庆阳市,庆阳五中,,36,36,30,12,12,74,,144,117,36,14,5,6,0.3,0.3
2024-08-13T0000,2662A,107.6364,35.7067,庆阳市,市环保局,,35,35,29,16,9,93,,148,122,25,14,7,7,0.4,0.4
2024-08-13T0000,1916A,103.7897,25.5035,曲靖市,环境监测站,颗粒物(PM10),56,61,59,17,17,109,,129,119,8,12,4,8,0.4,0.7
2024-08-13T0000,1917A,103.8,25.5364,曲靖市,烟厂办公区,颗粒物(PM10),55,60,60,18,17,94,,122,111,10,11,5,5,0.4,0.6
2024-08-13T0000,3376A,103.7947,25.462,曲靖市,南苑二区,颗粒物(PM10),56,61,58,16,16,107,,134,124,10,11,4,13,0.5,0.7
2024-08-13T0000,3377A,103.7444,25.5261,曲靖市,曲靖师范学院,颗粒物(PM10),54,57,52,21,20,94,,136,122,17,11,7,9,0.3,0.4
2024-08-13T0000,1264A,118.8692,28.9398,衢州市,环保大楼,,26,7,22,3,16,83,,123,100,11,11,5,6,0.3,0.4
2024-08-13T0000,1265A,118.8709,28.9666,衢州市,实验学校,,26,9,23,3,16,81,,123,101,8,8,5,6,0.2,0.3
2024-08-13T0000,1266A,118.8621,28.9808,衢州市,衢州学院,,25,,22,6,16,80,,129,107,11,10,5,4,0.5,0.6
2024-08-13T0000,1611A,118.5819,24.9117,泉州市,涂山街,,36,36,54,23,33,60,,162,91,16,24,4,7,0.7,0.7
2024-08-13T0000,1612A,118.5972,24.8978,泉州市,津头埔,,28,26,52,19,32,72,,148,92,15,27,3,5,0.7,0.8
2024-08-13T0000,1613A,118.6663,24.9424,泉州市,万安,,28,28,47,15,32,33,,154,78,27,23,2,4,0.6,0.6
2024-08-13T0000,1614A,118.6117,24.9604,泉州市,清源山,,,,,,,,,,,,,,,,
2024-08-13T0000,3529A,118.6333,24.9264,泉州市,城华南路,,23,23,52,15,37,58,,144,77,10,17,2,5,0.5,0.7
2024-08-13T0000,2626A,88.8876,29.2718,日喀则市,日喀则监测站,,24,6,5,3,2,75,,92,74,4,5,6,5,0.6,0.6
2024-08-13T0000,3726A,88.8781,29.2426,日喀则市,林业技术推广中心,,20,,4,9,5,64,,83,70,6,6,7,7,0.6,0.6
2024-08-13T0000,1659A,119.471,35.4209,日照市,监测站,颗粒物(PM10),64,78,70,31,30,141,,186,153,32,33,10,11,0.8,0.8
2024-08-13T0000,1660A,119.523,35.4216,日照市,市政府广场,颗粒物(PM10),71,92,78,26,31,155,,215,191,24,22,12,12,0.7,0.8
2024-08-13T0000,1661A,119.5587,35.4044,日照市,港务局,颗粒物(PM10),68,85,106,18,29,147,,223,196,18,31,11,15,0.6,0.8
2024-08-13T0000,3507A,119.5328,35.4625,日照市,职业技术学院,颗粒物(PM10),60,70,88,24,34,144,,226,184,17,26,10,13,0.8,0.9
2024-08-13T0000,3604A,119.3266,35.1044,日照市,岚山环保分局,颗粒物(PM10),62,73,78,20,27,157,,201,187,12,19,8,13,0.7,0.8
2024-08-13T0000,1835A,111.1922,34.7752,三门峡市,市政府,,33,33,34,9,12,48,,145,98,37,27,9,11,0.5,0.5
2024-08-13T0000,1836A,111.1587,34.7942,三门峡市,开发区,,32,32,35,14,15,66,,136,106,21,16,9,12,0.5,0.5
2024-08-13T0000,1838A,111.143,34.7955,三门峡市,风景区,,,,,,,,,,,,,,,,
2024-08-13T0000,3039A,111.1911,34.7829,三门峡市,三门峡市第一小学,,22,22,35,9,17,57,,141,102,31,25,6,11,0.5,0.5
2024-08-13T0000,3598A,111.1,34.7167,三门峡市,富达温泉假日酒店,,41,41,36,19,19,56,,146,102,20,18,9,11,0.3,0.3
2024-08-13T0000,2324A,117.6211,26.2625,三明市,三钢,,34,34,34,22,23,19,,84,54,21,17,15,13,0.7,1.1
2024-08-13T0000,2325A,117.635,26.2714,三明市,三明二中,,28,25,31,19,17,26,,92,59,18,18,9,10,0.9,1.4
2024-08-13T0000,2326A,117.6028,26.2378,三明市,三元区政府,,36,36,34,22,19,21,,77,52,15,14,4,5,0.5,0.5
2024-08-13T0000,2327A,117.7275,26.3108,三明市,洋溪,,,,,,,,,,,,,,,,
2024-08-13T0000,1876A,109.5078,18.2489,三亚市,河东子站,,34,34,21,17,10,25,,75,52,18,7,2,2,0.4,0.4
2024-08-13T0000,1877A,109.4964,18.2681,三亚市,河西子站,,35,35,20,17,11,10,,75,47,23,8,2,3,0.4,0.3
2024-08-13T0000,3540A,109.7348,18.3443,三亚市,君悦子站,,33,33,22,10,10,2,,74,47,25,10,2,2,0.3,0.3
2024-08-13T0000,2624A,91.7608,29.2313,山南市,山南监测站,,29,6,11,3,5,91,,102,98,8,9,7,7,0.2,0.3
2024-08-13T0000,2625A,91.7706,29.2436,山南市,山南人民医院,,29,7,18,3,10,92,,101,99,9,11,7,7,0.3,0.3
2024-08-13T0000,1674A,116.6794,23.3667,汕头市,金平子站,,22,22,30,14,16,66,,105,83,10,7,10,5,1.5,0.9
2024-08-13T0000,1675A,116.7244,23.3633,汕头市,龙湖子站,,24,24,27,7,16,54,,85,67,15,12,7,5,1.2,0.5
2024-08-13T0000,1676A,116.7258,23.2775,汕头市,濠江子站,,32,32,30,3,17,38,,73,57,13,17,4,5,0.8,0.6
2024-08-13T0000,1677A,116.7519,23.4714,汕头市,澄海子站,,44,44,38,25,23,42,,83,59,27,20,7,5,1.0,0.8
2024-08-13T0000,1678A,116.6092,23.2539,汕头市,潮阳子站,,28,28,23,7,11,70,,92,78,9,6,5,5,0.6,0.6
2024-08-13T0000,3444A,116.454,23.2684,汕头市,潮南峡山,,20,6,9,3,0,63,,81,66,5,5,4,4,0.3,0.5
2024-08-13T0000,3624A,116.4069,23.2533,汕头市,潮南子站,,23,23,27,13,13,64,,86,74,11,6,4,4,0.6,0.6
2024-08-13T0000,1693A,115.3653,22.775,汕尾市,市环保局,,12,12,17,7,11,37,,73,53,18,14,6,6,0.4,0.4
2024-08-13T0000,1694A,115.3706,22.7898,汕尾市,市政府,,16,16,16,7,9,36,,65,50,12,10,7,7,0.4,0.4
2024-08-13T0000,1695A,115.3622,22.7925,汕尾市,新城中学,,,,21,,6,35,,98,74,13,9,5,6,0.5,0.5
2024-08-13T0000,2645A,109.9154,33.8715,商洛市,监测站,,24,24,30,13,13,60,,128,91,15,11,3,3,0.2,0.3
2024-08-13T0000,3045A,109.9643,33.8471,商洛市,商州区中学,,37,37,35,10,14,59,,133,96,20,13,5,5,0.5,0.4
2024-08-13T0000,2408A,115.6702,34.4285,商丘市,环境监测站,颗粒物(PM10),60,69,42,23,16,121,,161,145,17,12,7,6,0.7,0.6
2024-08-13T0000,2409A,115.6458,34.4045,商丘市,粮食局,颗粒物(PM10),56,62,46,19,16,138,,169,149,13,12,6,7,0.9,0.7
2024-08-13T0000,2410A,115.6293,34.3948,商丘市,睢阳区环保局,颗粒物(PM10),56,62,56,24,20,144,,167,135,9,16,8,7,0.6,0.5
2024-08-13T0000,3171A,115.6071,34.4465,商丘市,梁园区档案局,颗粒物(PM10),51,52,49,30,20,110,,166,148,20,18,6,7,0.7,0.5
2024-08-13T0000,1141A,121.4,31.238,上海市,普陀,颗粒物(PM10),53,56,47,33,27,121,,142,106,17,25,5,6,0.5,0.6
2024-08-13T0000,1142A,121.478,31.2036,上海市,十五厂,"颗粒物(PM10),细颗粒物(PM2.5)",54,58,47,38,31,110,,154,102,18,30,7,8,0.6,0.7
2024-08-13T0000,1143A,121.467,31.3008,上海市,虹口,颗粒物(PM10),58,66,53,39,33,110,,130,82,21,30,7,7,0.7,0.8
2024-08-13T0000,1144A,121.412,31.1654,上海市,徐汇上师大,细颗粒物(PM2.5),57,58,49,40,32,123,,154,109,17,28,4,4,0.9,0.9
