timepoint,stationcode,longitude,latitude,area,positionname,primarypollutant,aqi,pm10,pm10_24h,pm2_5,pm2_5_24h,o3,o3_24h,o3_8h,o3_8h_24h,no2,no2_24h,so2,so2_24h,co,co_24h
2022-08-01T15:00:00,1001A,116.3621,39.8784,北京市,万寿西宫,臭氧1小时,55,42,53,21,33,164,164,121,121,20,17,3,3,0.6,0.6
2022-08-01T15:00:00,1002A,116.2202,40.2915,北京市,定陵(对照点),臭氧1小时,52,32,45,30,29,192,161,126,126,4,6,3,3,0.6,0.5
2022-08-01T15:00:00,1003A,116.4174,39.9289,北京市,东四,臭氧1小时,97,44,52,28,34,206,197,146,146,10,20,2,1,0.5,0.5
2022-08-01T15:00:00,1004A,116.4072,39.8863,北京市,天坛,,47,42,50,26,33,155,149,108,108,9,17,3,3,0.5,0.4
2022-08-01T15:00:00,1005A,116.462,39.9365,北京市,农展馆,臭氧1小时,89,47,62,26,35,202,191,130,130,20,24,3,3,0.5,0.5
2022-08-01T15:00:00,1006A,116.3392,39.9295,北京市,官园,臭氧1小时,101,51,53,25,35,212,201,146,146,10,21,2,2,0.4,0.5
2022-08-01T15:00:00,1007A,116.2878,39.9611,北京市,海淀万柳,臭氧1小时,101,50,54,35,37,209,202,148,148,19,29,3,3,0.4,0.5
2022-08-01T15:00:00,1008A,116.6636,40.135,北京市,顺义新城,臭氧1小时,94,52,59,35,41,195,195,117,117,9,12,3,3,0.5,0.6
2022-08-01T15:00:00,1009A,116.6275,40.3275,北京市,怀柔镇,臭氧1小时,101,42,51,28,36,202,202,126,126,13,15,3,2,0.6,0.5
2022-08-01T15:00:00,1010A,116.2296,40.217,北京市,昌平镇,臭氧1小时,82,53,57,24,34,190,185,121,121,9,19,3,3,0.6,0.5
2022-08-01T15:00:00,1011A,116.3966,39.9821,北京市,奥体中心,臭氧1小时,70,46,70,22,37,191,176,130,130,11,21,3,3,0.5,0.5
2022-08-01T15:00:00,1012A,116.184,39.9136,北京市,古城,臭氧1小时,62,47,49,28,38,184,169,139,139,8,17,3,3,0.5,0.5
2022-08-01T15:00:00,1015A,117.1444,39.1661,天津市,勤俭道,臭氧1小时,97,47,39,28,25,197,197,140,140,5,16,8,9,0.6,0.6
2022-08-01T15:00:00,1017A,117.237,39.1082,天津市,大直沽八号路,,,,35,,26,157,156,119,119,8,14,8,8,0.4,0.4
2022-08-01T15:00:00,1018A,117.202,39.0927,天津市,前进道,臭氧1小时,69,46,36,26,23,175,175,128,128,8,15,5,5,0.7,0.7
2022-08-01T15:00:00,1019A,117.1837,39.2133,天津市,淮河道,臭氧1小时,103,49,45,29,26,206,206,141,141,11,24,5,6,0.7,0.8
2022-08-01T15:00:00,1021A,117.307,39.0877,天津市,跃进路,,49,40,40,25,25,156,156,118,118,14,19,6,6,0.5,0.5
2022-08-01T15:00:00,1023A,117.707,39.0343,天津市,第四大街,细颗粒物(PM2.5),52,49,47,36,31,135,135,81,81,16,30,5,5,0.8,0.7
2022-08-01T15:00:00,1024A,117.457,38.8394,天津市,永明路,,50,30,32,34,28,160,160,120,120,3,9,6,7,0.5,0.5
2022-08-01T15:00:00,1026A,117.764,39.1587,天津市,汉北路,,43,26,32,15,25,140,137,98,98,4,10,6,6,0.5,0.7
2022-08-01T15:00:00,1027A,117.157,38.9194,天津市,团泊洼(对照点),臭氧1小时,85,26,33,26,21,188,188,136,136,3,9,4,4,0.8,0.8
2022-08-01T15:00:00,1029A,114.4422,38.0444,石家庄市,职工医院,臭氧1小时,62,40,56,31,39,183,169,131,131,6,28,5,6,0.5,0.6
2022-08-01T15:00:00,1030A,114.6063,38.0266,石家庄市,高新区,,50,44,63,28,38,180,159,125,125,5,27,5,5,0.6,0.6
2022-08-01T15:00:00,1031A,114.4898,38.1328,石家庄市,西北水源,臭氧1小时,73,45,75,33,38,219,178,145,145,10,34,4,4,0.6,0.7
2022-08-01T15:00:00,1032A,114.4586,38.0058,石家庄市,西南高教,臭氧1小时,54,43,57,27,34,168,163,121,121,13,37,1,2,0.7,0.8
2022-08-01T15:00:00,1033A,114.5331,38.0178,石家庄市,世纪公园,颗粒物(PM10),52,54,65,35,45,164,139,108,108,6,19,4,4,0.5,0.6
2022-08-01T15:00:00,1034A,114.509,38.0457,石家庄市,人民会堂,臭氧1小时,53,31,55,36,38,182,162,133,133,7,23,5,6,0.7,0.9
2022-08-01T15:00:00,1035A,114.3524,37.8911,石家庄市,封龙山(对照点),,45,38,51,31,32,164,141,146,127,11,10,6,6,0.8,0.8
2022-08-01T15:00:00,1037A,118.131,39.6363,唐山市,雷达站,臭氧1小时,62,40,42,27,22,169,169,122,122,5,14,3,2,0.4,0.5
2022-08-01T15:00:00,1038A,118.1725,39.6334,唐山市,物资局,颗粒物(PM10),51,51,41,24,21,160,160,114,114,12,20,3,6,0.1,0.3
2022-08-01T15:00:00,1040A,118.1705,39.6506,唐山市,十二中,臭氧1小时,55,40,33,32,20,164,164,115,115,8,18,1,2,0.3,0.4
2022-08-01T15:00:00,1041A,118.1869,39.622,唐山市,小山,臭氧1小时,52,29,32,19,17,161,161,114,114,13,22,4,4,0.4,0.5
2022-08-01T15:00:00,1042A,119.5134,39.8207,秦皇岛市,北戴河环保局,颗粒物(PM10),58,66,46,18,10,162,162,118,118,6,8,5,4,1.4,0.7
2022-08-01T15:00:00,1043A,119.7493,40.0116,秦皇岛市,第一关,臭氧1小时,60,47,32,41,18,168,168,107,107,1,22,9,6,1.8,0.7
2022-08-01T15:00:00,1044A,119.5897,39.9499,秦皇岛市,监测站,细颗粒物(PM2.5),59,45,36,42,25,155,150,112,112,7,15,9,6,1.4,0.4
2022-08-01T15:00:00,1046A,119.5251,39.9041,秦皇岛市,建设大厦,,45,31,26,22,14,153,142,105,105,4,17,4,2,1.3,0.4
2022-08-01T15:00:00,1047A,114.5129,36.61763,邯郸市,环保局,,,,,,,,,,,,,,,,
2022-08-01T15:00:00,1048A,114.5302,36.6116,邯郸市,东污水处理厂,,44,37,48,25,32,149,138,114,114,5,21,6,10,0.2,0.9
2022-08-01T15:00:00,1049A,114.4918,36.5713,邯郸市,矿院,,46,44,52,26,25,172,147,119,119,5,25,5,8,0.7,0.9
2022-08-01T15:00:00,1050A,114.484,36.6133,邯郸市,丛台公园,颗粒物(PM10),52,54,73,32,31,157,143,110,110,6,21,5,10,0.5,1.1
2022-08-01T15:00:00,1051A,115.493,38.8632,保定市,游泳馆,,,44,63,28,50,170,157,131,131,7,38,6,4,,
2022-08-01T15:00:00,1052A,115.5213,38.8959,保定市,华电二区,臭氧1小时,57,38,79,19,30,175,165,124,124,3,37,4,5,0.4,0.6
2022-08-01T15:00:00,1053A,115.4713,38.9108,保定市,接待中心,臭氧1小时,80,44,76,28,30,190,184,143,143,7,35,4,4,0.5,0.6
2022-08-01T15:00:00,1054A,115.4612,38.8416,保定市,地表水厂,臭氧1小时,52,40,102,32,38,181,161,134,134,8,37,5,5,0.6,0.6
2022-08-01T15:00:00,1055A,115.4323,38.8697,保定市,胶片厂,臭氧1小时,75,47,70,31,44,186,180,139,139,10,34,5,5,0.6,0.6
2022-08-01T15:00:00,1056A,115.5086,38.8639,保定市,监测站,臭氧1小时,67,48,71,30,42,183,173,135,135,7,36,9,9,0.3,0.5
2022-08-01T15:00:00,1057A,114.8883,40.8336,张家口市,人民公园,臭氧1小时,87,51,47,15,28,189,189,143,143,10,12,10,7,0.5,0.5
2022-08-01T15:00:00,1059A,114.8687,40.8042,张家口市,五金库,臭氧1小时,83,54,48,19,25,186,186,140,140,14,15,12,9,0.5,0.4
2022-08-01T15:00:00,1060A,114.8902,40.762,张家口市,世纪豪园,臭氧1小时,82,59,52,25,28,187,185,150,150,12,14,11,7,0.5,0.4
2022-08-01T15:00:00,1061A,114.8916,40.8661,张家口市,北泵房(对照点),,,,51,,31,189,186,144,144,,9,9,6,0.8,0.7
2022-08-01T15:00:00,1062A,117.9531,40.9081,承德市,铁路,"颗粒物(PM10),臭氧1小时",53,56,45,31,31,169,162,109,109,7,25,7,5,0.6,0.5
2022-08-01T15:00:00,1063A,117.9392,40.9763,承德市,中国银行,,,44,35,21,26,177,177,122,122,,14,7,7,0.4,0.4
2022-08-01T15:00:00,1064A,117.9503,40.928,承德市,开发区,臭氧1小时,59,54,46,25,26,185,167,116,116,9,19,7,5,0.6,0.6
2022-08-01T15:00:00,1065A,117.8051,40.9655,承德市,文化中心,臭氧1小时,77,48,42,28,32,186,181,131,131,5,14,12,8,0.7,0.6
2022-08-01T15:00:00,1066A,117.9268,41.0026,承德市,离宫(对照点),臭氧1小时,68,51,42,29,27,174,174,116,116,6,9,2,2,0.5,0.4
2022-08-01T15:00:00,1067A,116.6708,39.5111,廊坊市,药材公司,臭氧1小时,55,43,38,25,26,164,164,118,118,10,17,5,7,0.5,0.4
2022-08-01T15:00:00,1068A,116.7214,39.5589,廊坊市,开发区,,,44,45,38,32,172,172,119,119,14,23,8,8,,0.6
2022-08-01T15:00:00,1070A,116.7244,39.5269,廊坊市,北华航天学院,臭氧1小时,57,61,56,34,33,165,165,120,120,6,20,6,6,0.5,0.5
2022-08-01T15:00:00,1071A,116.8842,38.2991,沧州市,沧县城建局,,37,36,45,9,19,144,118,101,101,12,19,6,7,0.3,0.3
2022-08-01T15:00:00,1072A,116.8584,38.3254,沧州市,电视转播站,,48,31,33,24,19,151,151,108,108,8,16,8,9,0.3,0.3
2022-08-01T15:00:00,1073A,116.8709,38.3228,沧州市,市环保局,臭氧1小时,58,34,35,28,24,166,166,121,121,7,15,7,7,0.2,0.2
2022-08-01T15:00:00,1074A,115.6838,37.7541,衡水市,电机北厂,,47,36,48,17,26,150,150,112,112,8,26,6,8,0.2,0.3
2022-08-01T15:00:00,1075A,115.6303,37.7316,衡水市,市监测站,,42,30,70,20,25,138,133,107,107,8,26,6,6,0.5,0.6
2022-08-01T15:00:00,1077A,114.4704,37.0886,邢台市,达活泉,臭氧1小时,75,44,50,38,33,180,180,132,132,6,13,5,8,0.5,0.6
2022-08-01T15:00:00,1078A,114.5062,37.0349,邢台市,邢师高专,臭氧1小时,53,41,51,29,32,171,162,121,121,3,21,5,5,0.4,0.5
2022-08-01T15:00:00,1079A,114.5237,37.0851,邢台市,路桥公司,颗粒物(PM10),57,63,57,33,26,177,157,120,120,12,19,4,5,0.5,0.6
2022-08-01T15:00:00,1080A,114.4725,37.0719,邢台市,市环保局,臭氧1小时,75,70,66,34,36,180,180,132,132,7,16,6,6,0.6,0.6
2022-08-01T15:00:00,1081A,112.5139,37.8873,太原市,尖草坪,臭氧1小时,87,54,60,30,34,209,189,142,142,9,22,5,7,0.7,0.8
2022-08-01T15:00:00,1083A,112.434,38.0108,太原市,上兰(对照点),,,,,,,,,,,,,,,,
2022-08-01T15:00:00,1084A,112.469,37.7124,太原市,晋源,臭氧1小时,55,47,53,32,34,173,164,129,129,7,19,8,7,0.5,0.7
2022-08-01T15:00:00,1085A,112.5583,37.7394,太原市,小店,臭氧1小时,70,43,67,25,36,180,176,136,136,9,28,6,10,0.5,0.7
2022-08-01T15:00:00,1086A,112.5369,37.8692,太原市,桃园,臭氧1小时,85,50,59,29,36,213,188,145,145,12,25,6,8,0.8,0.9
2022-08-01T15:00:00,1087A,112.57,37.8195,太原市,坞城,臭氧1小时,79,56,58,30,37,199,183,139,139,8,20,7,8,0.6,0.7
2022-08-01T15:00:00,1088A,112.549,37.9854,太原市,南寨,臭氧1小时,101,56,62,35,39,235,202,138,138,14,28,8,7,0.8,0.9
2022-08-01T15:00:00,1089A,112.4701,37.782,太原市,金胜,,,,,,,,,,,,,,,,
2022-08-01T15:00:00,1090A,111.6507,40.7517,呼和浩特市,呼市一监,臭氧1小时,80,51,58,26,28,200,184,139,139,5,22,7,7,0.5,0.5
2022-08-01T15:00:00,1091A,111.6572,40.8033,呼和浩特市,小召,臭氧1小时,77,48,52,26,27,190,181,135,135,12,26,8,9,0.5,0.5
2022-08-01T15:00:00,1094A,111.7516,40.8369,呼和浩特市,如意水处理厂,臭氧1小时,78,47,58,26,28,194,182,142,142,7,28,8,9,0.5,0.6
2022-08-01T15:00:00,1095A,111.7276,40.8062,呼和浩特市,二十九中,臭氧1小时,69,36,51,28,28,187,175,131,131,9,27,10,9,0.5,0.6
2022-08-01T15:00:00,1096A,111.5512,40.7866,呼和浩特市,工大金川校区,臭氧1小时,77,49,57,27,28,181,181,124,124,9,27,7,6,0.6,0.6
2022-08-01T15:00:00,1097A,111.717,40.7612,呼和浩特市,化肥厂生活区,臭氧1小时,77,49,62,33,30,197,181,139,139,9,21,7,8,0.5,0.6
2022-08-01T15:00:00,1098A,123.6836,41.9339,沈阳市,森林路(对照点),,,,,,,,,,,,,,,,
2022-08-01T15:00:00,1099A,123.505,41.7406,沈阳市,浑南东路,,44,35,31,29,17,140,140,90,90,4,13,5,6,0.7,0.7
2022-08-01T15:00:00,1100A,123.4231,41.6989,沈阳市,新秀街,,40,38,25,28,18,116,115,76,76,13,23,2,4,0.7,0.8
2022-08-01T15:00:00,1102A,123.5903,41.8411,沈阳市,东陵路,,39,33,34,20,13,123,122,86,86,8,15,12,11,0.6,0.8
2022-08-01T15:00:00,1103A,123.4264,41.8467,沈阳市,陵东街,,37,30,27,24,15,117,117,73,73,10,20,3,5,0.8,0.7
2022-08-01T15:00:00,1104A,123.4114,41.7653,沈阳市,文化路,,45,45,36,31,20,145,136,94,94,2,13,7,11,0.7,0.7
2022-08-01T15:00:00,1105A,123.4678,41.7867,沈阳市,小河沿,,41,41,30,25,14,128,128,87,87,8,15,7,6,0.8,0.7
2022-08-01T15:00:00,1106A,123.4017,41.7972,沈阳市,太原街,,43,37,53,26,19,136,136,93,93,11,23,5,8,0.6,0.5
2022-08-01T15:00:00,1108A,123.3783,41.9228,沈阳市,京沈街,,41,33,35,24,19,151,131,104,104,5,21,6,9,0.7,1
2022-08-01T15:00:00,1109A,121.612,38.9741,大连市,甘井子,,21,21,22,10,13,85,64,56,56,13,18,4,5,0.6,0.6
2022-08-01T15:00:00,1110A,121.565,38.9511,大连市,周水子,,20,18,20,1,6,66,62,52,52,5,14,5,7,0.5,0.6
2022-08-01T15:00:00,1111A,121.5637,38.8845,大连市,星海三站,,24,9,16,11,12,88,74,66,66,17,19,4,5,0.3,0.3
2022-08-01T15:00:00,1112A,121.6302,38.9117,大连市,青泥洼桥,,21,13,14,11,9,83,65,62,62,8,20,6,6,0.5,0.6
2022-08-01T15:00:00,1113A,121.6251,38.8638,大连市,傅家庄,,26,14,15,6,8,122,83,86,86,6,7,8,8,0.7,0.8
2022-08-01T15:00:00,1114A,121.5213,38.8661,大连市,七贤岭,,,,21,10,4,100,78,70,70,4,9,9,10,0.7,0.7
2022-08-01T15:00:00,1115A,121.2529,38.8061,大连市,旅顺,,23,16,17,6,12,92,71,69,69,4,6,4,5,0.4,0.5
2022-08-01T15:00:00,1116A,121.7485,39.1311,大连市,金州,,16,10,14,8,10,56,50,41,41,5,8,7,6,0.4,0.4
2022-08-01T15:00:00,1117A,121.7811,39.0496,大连市,开发区,,23,19,17,6,7,76,72,59,59,9,10,14,11,0.7,0.8
2022-08-01T15:00:00,1118A,121.9762,39.0631,大连市,双D港,,22,22,13,11,7,73,69,53,53,15,15,8,8,0.3,0.5
2022-08-01T15:00:00,1119A,125.3325,43.9166,长春市,食品厂,,49,49,38,33,17,105,105,82,82,20,28,2,2,0.4,0.5
2022-08-01T15:00:00,1120A,125.2863,43.9027,长春市,客车厂,,39,39,37,15,13,112,104,91,91,20,25,3,3,0.6,0.6
2022-08-01T15:00:00,1121A,125.2841,43.8463,长春市,邮电学院,,32,24,30,16,13,103,101,86,86,6,15,4,4,0.4,0.4
2022-08-01T15:00:00,1122A,125.3716,43.8772,长春市,劳动公园,,,37,28,16,13,115,110,95,95,5,14,3,1,,0.4
2022-08-01T15:00:00,1123A,125.3297,43.8805,长春市,园林处,,42,42,32,13,12,101,101,86,86,9,21,2,2,0.5,0.5
2022-08-01T15:00:00,1124A,125.4605,43.79,长春市,净月潭,,29,25,19,10,7,97,90,75,75,2,5,4,4,0.2,0.1
2022-08-01T15:00:00,1125A,125.7194,43.515,长春市,甩湾子(对照点),,,,,,,,,,,,,,,,
2022-08-01T15:00:00,1126A,125.3863,43.8447,长春市,经开区环卫处,,36,36,28,14,10,99,98,79,79,7,21,3,3,0.6,0.5
2022-08-01T15:00:00,1127A,125.245,43.7783,长春市,高新区管委会,,30,30,25,16,22,89,82,73,73,4,15,3,3,0.5,0.4
2022-08-01T15:00:00,1128A,125.1761,43.8325,长春市,岱山公园,,33,33,40,16,14,103,102,83,83,6,28,4,5,0.5,0.4
2022-08-01T15:00:00,1129A,126.5422,45.755,哈尔滨市,岭北(对照点),,30,29,21,10,12,109,94,98,98,4,13,6,6,0.5,0.5
2022-08-01T15:00:00,1130A,126.561,45.8167,哈尔滨市,松北商大,,30,22,26,12,11,116,93,99,99,6,17,5,5,0.6,0.7
2022-08-01T15:00:00,1131A,126.979,45.5419,哈尔滨市,阿城会宁,,45,45,29,13,3,111,111,82,82,5,10,10,11,0.6,0.5
2022-08-01T15:00:00,1132A,126.599,45.7222,哈尔滨市,南岗学府路,,30,20,22,8,16,109,96,94,94,4,16,7,8,0.4,0.5
2022-08-01T15:00:00,1133A,126.689,45.7733,哈尔滨市,太平宏伟公园,,,,39,15,12,140,107,105,105,10,29,6,7,0.5,0.5
2022-08-01T15:00:00,1134A,126.635,45.7667,哈尔滨市,道外承德广场,,,,41,11,9,110,71,80,80,49,27,10,11,0.4,0.4
2022-08-01T15:00:00,1135A,126.685,45.7319,哈尔滨市,香坊红旗大街,颗粒物(PM10),51,52,37,15,12,106,102,92,92,9,24,10,12,0.4,0.5
2022-08-01T15:00:00,1136A,126.6411,45.7258,哈尔滨市,动力和平路,,,24,37,,,109,100,96,96,6,23,8,8,0.5,0.6
2022-08-01T15:00:00,1137A,126.593,45.7478,哈尔滨市,道里建国路,,34,34,37,12,13,116,92,95,95,10,24,8,9,0.4,1.3
2022-08-01T15:00:00,1138A,126.615,45.61,哈尔滨市,平房东轻厂,,27,22,27,11,9,99,85,84,84,3,9,2,2,0.6,0.5
2022-08-01T15:00:00,1139A,126.595,45.9855,哈尔滨市,呼兰师专,,,49,38,17,15,106,85,88,88,5,18,,9,0.5,0.6
2022-08-01T15:00:00,1140A,126.6206,45.6842,哈尔滨市,省农科院,,29,17,22,11,10,100,90,92,92,3,15,8,8,0.7,0.4
2022-08-01T15:00:00,1141A,121.4,31.238,上海市,普陀,,48,39,26,32,15,157,153,99,99,10,16,4,4,0.7,0.5
2022-08-01T15:00:00,1142A,121.478,31.2036,上海市,十五厂,,49,43,25,34,18,139,137,87,87,12,17,2,2,0.8,0.6
2022-08-01T15:00:00,1143A,121.467,31.3008,上海市,虹口,,40,39,26,18,12,128,128,84,84,11,15,5,4,0.5,0.4
2022-08-01T15:00:00,1144A,121.412,31.1654,上海市,徐汇上师大,,49,34,28,23,13,156,156,94,94,13,17,3,4,0.6,0.5
2022-08-01T15:00:00,1145A,121.536,31.2659,上海市,杨浦四漂,,40,34,19,25,15,130,127,90,90,13,11,7,5,0.9,0.9
2022-08-01T15:00:00,1146A,120.978,31.0935,上海市,青浦淀山湖(对照点),,,,,,,,,,,,,,,,
2022-08-01T15:00:00,1147A,121.425,31.2261,上海市,静安监测站,,45,45,26,31,17,129,128,82,82,14,21,3,3,0.6,0.4
2022-08-01T15:00:00,1148A,121.703,31.1907,上海市,浦东川沙,颗粒物(PM10),52,53,37,23,17,113,97,77,77,18,21,4,5,0.6,0.5
2022-08-01T15:00:00,1149A,121.533,31.2284,上海市,浦东新区监测站,,41,37,27,27,17,131,131,82,82,25,20,7,5,0.8,0.6
2022-08-01T15:00:00,1150A,121.577,31.2071,上海市,浦东张江,,42,33,22,27,15,133,133,81,81,21,23,6,5,0.9,0.8
2022-08-01T15:00:00,1151A,118.8086,32.1065,南京市,迈皋桥,,41,16,20,7,8,163,130,109,109,8,17,5,4,0.3,0.3
2022-08-01T15:00:00,1152A,118.7538,32.0551,南京市,草场门,,44,17,18,7,8,145,139,105,105,10,15,6,6,0.6,0.4
2022-08-01T15:00:00,1153A,118.7794,32.0745,南京市,山西路,,48,29,29,14,11,174,151,126,126,5,12,4,5,0.3,0.2
2022-08-01T15:00:00,1154A,118.7752,32.0023,南京市,中华门,,50,34,25,14,5,175,158,113,113,11,16,3,4,1.2,0.9
2022-08-01T15:00:00,1155A,118.8109,32.0309,南京市,瑞金路,,45,28,23,17,11,155,143,106,106,2,9,4,6,0.4,0.3
2022-08-01T15:00:00,1156A,118.7997,32.0754,南京市,玄武湖,,45,27,25,8,12,159,141,117,117,10,19,5,4,0.8,0.7
2022-08-01T15:00:00,1157A,118.6414,32.0931,南京市,浦口,,23,14,16,0,3,87,73,70,70,3,8,4,3,0.1,0.2
2022-08-01T15:00:00,1158A,118.7356,31.9996,南京市,奥体中心,,44,20,21,12,12,150,138,105,105,7,14,4,5,0.3,0.4
2022-08-01T15:00:00,1159A,118.9125,32.1028,南京市,仙林大学城,,34,19,20,7,10,138,108,92,92,4,11,5,5,0.5,0.5
2022-08-01T15:00:00,1160A,120.561,31.2472,苏州市,上方山(对照点),,49,46,36,22,17,158,154,92,92,9,11,7,7,0.6,0.6
2022-08-01T15:00:00,1161A,120.628,31.2864,苏州市,南门,,,,,,,,,,,,,,,,
2022-08-01T15:00:00,1162A,120.591,31.3019,苏州市,彩香,臭氧1小时,73,34,24,22,22,178,178,102,102,9,11,7,6,0.6,0.5
2022-08-01T15:00:00,1163A,120.596,31.3264,苏州市,轧钢厂,臭氧1小时,63,30,28,17,12,176,170,101,101,4,8,7,6,0.5,0.4
2022-08-01T15:00:00,1164A,120.613,31.2703,苏州市,吴中区,臭氧1小时,62,34,25,18,13,180,169,103,103,16,16,5,5,0.5,0.5
2022-08-01T15:00:00,1165A,120.543,31.2994,苏州市,苏州新区,臭氧1小时,84,34,24,18,16,187,187,106,106,19,21,8,8,0.7,0.7
2022-08-01T15:00:00,1166A,120.669,31.3097,苏州市,苏州工业园区,,45,31,23,14,14,147,144,87,87,15,15,5,5,0.7,0.7
2022-08-01T15:00:00,1167A,120.641,31.3708,苏州市,相城区,,47,24,24,13,14,151,150,98,98,5,11,4,5,0.4,0.4
2022-08-01T15:00:00,1168A,120.9098,31.9663,南通市,狼山街道,,29,25,18,9,5,95,90,71,71,12,9,9,8,0.4,0.4
2022-08-01T15:00:00,1169A,120.86,32.0005,南通市,虹桥,,25,22,18,8,11,80,80,64,64,13,10,10,10,0.6,0.6
2022-08-01T15:00:00,1170A,120.87,32.02,南通市,城中,,29,24,17,17,13,90,90,66,66,5,7,8,8,0.2,0.3
2022-08-01T15:00:00,1171A,120.94,31.93,南通市,星湖花园,,32,30,20,14,8,102,101,75,75,8,10,8,7,0.7,0.6
2022-08-01T15:00:00,1172A,120.81,32.0417,南通市,紫琅学院,,30,30,22,9,6,89,88,70,70,2,3,2,3,0.6,0.6
2022-08-01T15:00:00,1173A,119.176,34.5885,连云港市,市环境监测站,,35,24,19,14,9,121,111,91,91,5,9,2,5,0.4,0.4
2022-08-01T15:00:00,1177A,117.179,34.2761,徐州市,黄河新村,,36,34,39,22,22,126,114,98,98,10,17,7,8,0.6,0.7
2022-08-01T15:00:00,1178A,117.1918,34.2384,徐州市,淮塔,,,34,39,27,24,109,94,87,87,9,15,,6,0.5,0.5
2022-08-01T15:00:00,1180A,117.256,34.2153,徐州市,新城区,,49,49,46,27,20,127,104,91,91,17,16,6,7,0.6,0.6
2022-08-01T15:00:00,1181A,117.244,34.2911,徐州市,桃园路,颗粒物(PM10),51,51,43,24,14,132,98,98,98,25,15,2,3,0.7,0.7
2022-08-01T15:00:00,1182A,117.2933,34.2778,徐州市,农科院,,39,39,32,19,12,115,105,90,90,17,23,3,5,0.4,0.4
2022-08-01T15:00:00,1186A,119.389,32.3761,扬州市,邗江监测站,,,12,18,4,10,83,75,64,64,4,2,7,7,,0.7
2022-08-01T15:00:00,1188A,120.269,31.4867,无锡市,雪浪,臭氧1小时,62,34,24,19,15,169,169,106,106,11,13,12,12,0.5,0.6
2022-08-01T15:00:00,1189A,120.275,31.6219,无锡市,黄巷,,45,35,26,14,11,146,144,105,105,14,22,9,9,0.7,0.7
2022-08-01T15:00:00,1190A,120.294,31.56,无锡市,曹张,臭氧1小时,57,24,21,14,11,165,165,109,109,17,17,8,8,0.7,0.8
2022-08-01T15:00:00,1191A,120.242,31.5031,无锡市,漆塘,,,,,,,,,,,,,,,,
2022-08-01T15:00:00,1192A,120.3489,31.5863,无锡市,东亭,,45,34,24,14,12,142,142,97,97,11,16,9,9,0.7,0.7
2022-08-01T15:00:00,1193A,120.354,31.5475,无锡市,旺庄,臭氧1小时,53,30,22,14,12,162,162,106,106,10,14,12,12,0.7,0.6
2022-08-01T15:00:00,1194A,120.245,31.5631,无锡市,荣巷,,47,19,19,17,15,150,150,102,102,2,7,7,7,0.6,0.6
2022-08-01T15:00:00,1195A,120.299,31.6817,无锡市,堰桥,,46,17,22,9,9,147,147,101,101,2,7,8,7,0.2,0.3
2022-08-01T15:00:00,1196A,119.9633,31.762,常州市,市监测站,,39,16,16,9,5,123,123,88,88,6,10,7,7,0.5,0.4
2022-08-01T15:00:00,1200A,119.9468,31.7069,常州市,武进监测站,,44,23,19,12,12,140,140,94,94,5,10,1,3,0.6,0.6
2022-08-01T15:00:00,1201A,119.9255,31.9087,常州市,安家,,40,16,19,15,15,127,127,100,100,3,9,6,6,0.5,0.5
2022-08-01T15:00:00,1203A,119.6707,32.1875,镇江市,新区办事处,,25,16,18,10,11,89,77,70,70,9,18,1,4,0.5,0.5
2022-08-01T15:00:00,1204A,119.4974,32.1968,镇江市,职教中心,,31,20,18,7,3,122,97,84,84,8,12,3,3,0.4,0.5
2022-08-01T15:00:00,1205A,119.4303,32.1328,镇江市,丹徒区监测站,,30,16,19,10,12,95,93,71,71,3,13,1,2,0.5,0.5
2022-08-01T15:00:00,1206A,119.905,32.4878,泰州市,公园路,,23,9,13,7,9,73,73,56,56,4,6,6,8,0.4,0.4
2022-08-01T15:00:00,1207A,119.9189,32.4625,泰州市,莲花,,24,12,12,12,13,74,74,61,61,5,7,8,11,0.6,0.6
2022-08-01T15:00:00,1209A,119.888,32.4639,泰州市,留学生创业园,,27,17,18,8,11,84,84,65,65,4,8,7,10,0.5,0.6
2022-08-01T15:00:00,1210A,119.036,33.5981,淮安市,钵池山,,32,24,15,12,10,100,100,81,81,5,6,8,8,0.6,0.6
2022-08-01T15:00:00,1211A,119.007,33.575,淮安市,北京南路,,33,24,17,10,10,104,104,78,78,6,9,6,7,0.4,0.3
2022-08-01T15:00:00,1212A,118.989,33.6067,淮安市,市监测站,,33,27,23,10,11,104,104,75,75,6,14,5,6,0.4,0.6
2022-08-01T15:00:00,1213A,119.135,33.5039,淮安市,楚州区监测站,,33,27,21,14,7,105,105,79,79,6,10,7,7,0.5,0.5
2022-08-01T15:00:00,1214A,119.0186,33.6297,淮安市,淮阴区监测站,,32,27,20,14,11,101,101,74,74,4,9,4,7,0.5,0.5
2022-08-01T15:00:00,1215A,120.118,33.4022,盐城市,盐城电厂,,31,27,21,14,9,99,99,77,77,5,7,5,5,0.4,0.3
2022-08-01T15:00:00,1216A,120.156,33.3942,盐城市,市监测站,,32,24,17,13,11,101,101,76,76,5,6,4,4,0.4,0.3
2022-08-01T15:00:00,1218A,120.2144,33.38,盐城市,开发区管委会,,33,12,10,13,6,104,104,79,79,7,8,9,9,0.4,0.3
2022-08-01T15:00:00,1220A,118.293,33.9528,宿迁市,宿迁学院,,40,32,23,27,15,131,127,100,100,1,11,3,4,0.5,0.5
2022-08-01T15:00:00,1221A,118.2442,33.9592,宿迁市,宿迁中学,,38,35,25,16,16,121,121,94,94,5,11,4,3,0.6,0.6
2022-08-01T15:00:00,1223A,120.2072,30.2111,杭州市,滨江,,50,37,35,23,22,183,160,133,133,11,17,4,5,0.6,0.7
2022-08-01T15:00:00,1224A,120.0633,30.2747,杭州市,西溪,,,45,35,28,21,147,140,108,108,9,14,6,9,,0.6
2022-08-01T15:00:00,1225A,119.026,29.635,杭州市,千岛湖(对照点),,,,,,,,,,,,,,,,
2022-08-01T15:00:00,1226A,120.3461,30.3153,杭州市,下沙,臭氧1小时,70,52,47,28,23,176,176,132,132,13,20,5,5,0.6,0.5
2022-08-01T15:00:00,1227A,120.1269,30.2456,杭州市,卧龙桥,,46,38,33,23,26,150,146,117,117,9,14,4,4,0.7,0.7
2022-08-01T15:00:00,1228A,120.1903,30.2692,杭州市,浙江农大,臭氧1小时,60,36,32,25,21,168,168,124,124,11,14,4,4,0.7,0.7
2022-08-01T15:00:00,1229A,120.157,30.2897,杭州市,朝晖五区,,,,,,,,,,,,,,,,
2022-08-01T15:00:00,1230A,120.1197,30.3119,杭州市,和睦小学,臭氧1小时,62,45,42,29,24,169,169,124,124,10,18,6,6,0.8,0.8
2022-08-01T15:00:00,1231A,120.3019,30.4183,杭州市,临平镇,,49,38,43,23,20,164,156,128,128,12,23,3,4,0.6,0.6
2022-08-01T15:00:00,1232A,120.2697,30.1819,杭州市,城厢镇,,46,43,42,28,27,161,147,117,117,11,20,6,6,0.6,0.8
2022-08-01T15:00:00,1233A,120.0883,30.1808,杭州市,云栖,,,,32,,19,166,160,134,134,8,15,,7,0.6,0.5
2022-08-01T15:00:00,1234A,121.8358,29.911,宁波市,区环保大楼,,47,35,34,26,26,166,150,128,128,21,20,9,11,0.8,0.8
2022-08-01T15:00:00,1235A,121.56,29.82,宁波市,万里学院,,45,41,45,23,32,187,143,136,136,11,12,4,10,0.8,0.8
2022-08-01T15:00:00,1236A,121.713,29.9572,宁波市,龙赛医院,,46,34,40,20,25,183,147,123,123,15,16,4,6,0.6,0.5
2022-08-01T15:00:00,1239A,121.633,29.7733,宁波市,钱湖水厂,,,22,37,17,27,175,142,132,132,,9,2,3,0.8,0.8
2022-08-01T15:00:00,1240A,121.5856,29.8635,宁波市,太古小学,,40,31,37,22,34,165,126,126,126,18,12,8,8,0.8,0.8
2022-08-01T15:00:00,1241A,121.524,29.8674,宁波市,市环境监测中心,,40,36,46,21,31,166,125,123,123,25,14,3,7,0.6,0.6
2022-08-01T15:00:00,1242A,120.634,28.0089,温州市,瓯海,,34,28,41,19,23,186,106,108,108,14,25,5,6,0.5,0.6
2022-08-01T15:00:00,1243A,120.6748,27.9939,温州市,南浦,,38,38,41,20,23,175,108,119,119,13,16,4,5,0.5,0.6
2022-08-01T15:00:00,1244A,120.76,27.9747,温州市,龙湾,,34,31,34,15,21,192,106,120,120,1,14,5,6,0.5,0.6
2022-08-01T15:00:00,1245A,120.6709,28.0167,温州市,市站,,36,36,36,16,24,194,100,107,107,14,20,5,5,0.5,0.6
2022-08-01T15:00:00,1246A,120.598,30.0911,绍兴市,袍江站,,,,,,,,,,,,,,,,
2022-08-01T15:00:00,1247A,120.6053,29.9928,绍兴市,城东开发委,,41,38,35,27,26,165,131,119,119,7,10,5,5,0.5,0.5
2022-08-01T15:00:00,1250A,120.0751,30.8669,湖州市,城西水厂,,39,34,39,18,24,147,124,110,110,7,17,5,6,0.4,0.5
2022-08-01T15:00:00,1252A,120.7436,30.778,嘉兴市,清河小学,,26,13,28,10,14,121,82,86,86,5,16,4,5,0.3,0.5
2022-08-01T15:00:00,1253A,120.726,30.7478,嘉兴市,嘉兴学院,,27,20,26,9,18,116,84,82,82,6,15,3,4,0.3,0.5
2022-08-01T15:00:00,1255A,121.273,28.6459,台州市,黄岩环保大楼,颗粒物(PM10),52,53,36,27,18,181,133,126,126,17,11,4,4,0.6,0.5
2022-08-01T15:00:00,1256A,121.419,28.6542,台州市,台州环保大楼,,48,29,29,25,19,173,151,130,130,9,12,4,4,0.5,0.5
2022-08-01T15:00:00,1257A,121.377,28.5773,台州市,路桥田洋王,,47,39,32,26,18,188,148,123,123,6,13,3,3,0.4,0.5
2022-08-01T15:00:00,1258A,122.122,30.0203,舟山市,定海檀枫,臭氧1小时,52,32,32,24,22,161,161,111,111,10,13,2,2,0.5,0.4
2022-08-01T15:00:00,1259A,122.3094,29.9558,舟山市,普陀东港,臭氧1小时,65,49,41,31,24,172,172,99,99,31,32,4,4,0.5,0.5
2022-08-01T15:00:00,1260A,122.19,29.9944,舟山市,临城新区,,46,31,35,19,19,163,146,111,111,18,21,3,3,0.6,0.5
2022-08-01T15:00:00,1261A,119.649,29.1131,金华市,四中(停运161031),,,,,,,,,,,,,,,,
2022-08-01T15:00:00,1262A,119.647,29.077,金华市,十五中,臭氧1小时,82,53,42,20,26,195,185,139,139,8,16,5,8,0.4,0.5
2022-08-01T15:00:00,1263A,119.686,29.1029,金华市,监测站,臭氧1小时,87,48,43,26,27,189,189,136,136,7,17,5,11,0.6,0.6
2022-08-01T15:00:00,1264A,118.8692,28.9398,衢州市,环保大楼,,44,36,40,18,24,167,139,116,116,6,16,4,7,0.5,0.5
2022-08-01T15:00:00,1265A,118.8709,28.9666,衢州市,实验学校,,45,36,34,18,17,169,143,115,115,12,19,5,4,0.6,0.6
2022-08-01T15:00:00,1266A,118.8621,28.9808,衢州市,衢州学院,,43,30,34,11,20,171,135,119,119,9,21,4,5,0.5,0.5
2022-08-01T15:00:00,1267A,119.914,28.4514,丽水市,监测站大楼,,43,31,31,30,23,127,121,95,95,6,10,6,6,0.5,0.5
2022-08-01T15:00:00,1268A,119.93,28.4586,丽水市,莲都小学,,41,31,42,23,21,136,130,101,101,4,9,6,6,0.5,0.5
2022-08-01T15:00:00,1269A,119.879,28.4231,丽水市,余庄前,,45,19,32,17,21,142,142,111,111,5,10,6,6,0.4,0.5
2022-08-01T15:00:00,1270A,117.1959,31.7848,合肥市,明珠广场,,42,34,35,29,22,116,104,77,77,20,23,5,5,0.7,0.6
2022-08-01T15:00:00,1271A,117.3072,31.8764,合肥市,三里街,,32,20,35,9,19,100,100,77,77,17,19,7,8,0.6,0.7
2022-08-01T15:00:00,1272A,117.2588,31.8707,合肥市,琥珀山庄,,37,14,34,14,20,116,116,79,79,5,13,4,4,0.4,0.5
2022-08-01T15:00:00,1273A,117.1604,31.9052,合肥市,董铺水库(对照点),,38,29,35,19,17,120,120,82,82,7,14,7,6,0.4,0.4
2022-08-01T15:00:00,1274A,117.25,31.8571,合肥市,长江中路,,40,27,38,14,25,126,126,84,84,3,11,6,5,0.6,0.6
2022-08-01T15:00:00,1275A,117.266,31.9436,合肥市,庐阳区,,41,14,37,14,24,129,129,86,86,8,17,6,5,0.4,0.5
2022-08-01T15:00:00,1276A,117.336,31.8586,合肥市,瑶海区,,,24,41,12,21,112,112,80,80,11,21,,10,0.4,0.5
2022-08-01T15:00:00,1277A,117.3027,31.7964,合肥市,包河区,,39,29,37,22,22,124,124,86,86,15,30,8,7,0.5,0.5
2022-08-01T15:00:00,1278A,117.2776,31.7385,合肥市,滨湖新区,,36,36,38,9,24,112,112,86,86,9,28,8,8,0.4,0.5
2022-08-01T15:00:00,1279A,117.1318,31.8403,合肥市,高新区,,36,31,36,12,22,119,114,88,88,11,18,6,6,0.3,0.3
2022-08-01T15:00:00,1280A,119.3903,26.0543,福州市,鼓山(对照点),,,,,,,,,,,,,,,,
2022-08-01T15:00:00,1282A,119.2681,26.0504,福州市,师大,臭氧1小时,73,63,53,32,28,179,178,134,134,11,15,3,3,0.4,0.4
2022-08-01T15:00:00,1283A,119.2984,26.1028,福州市,五四北路,,49,41,53,25,30,190,154,138,138,14,19,3,3,0.4,0.4
2022-08-01T15:00:00,1284A,119.2648,26.0768,福州市,杨桥西路,颗粒物(PM10),63,75,54,30,26,181,169,122,122,12,14,4,4,0.5,0.4
2022-08-01T15:00:00,1285A,119.317,26.0746,福州市,紫阳,颗粒物(PM10),52,54,61,30,29,184,152,134,134,11,16,4,4,0.4,0.4
2022-08-01T15:00:00,1286A,118.1608,24.8169,厦门市,溪东(对照点),,,,,,,,,,,,,,,,
2022-08-01T15:00:00,1287A,118.1514,24.4767,厦门市,洪文,臭氧1小时,70,87,52,46,26,176,176,108,108,21,29,9,7,0.7,0.5
2022-08-01T15:00:00,1288A,118.0661,24.4444,厦门市,鼓浪屿,细颗粒物(PM2.5),64,70,49,46,29,158,153,98,98,34,30,11,10,0.9,0.6
2022-08-01T15:00:00,1290A,115.8931,28.6843,南昌市,省外办,,47,42,44,14,12,166,149,128,128,10,28,5,6,0.6,0.7
2022-08-01T15:00:00,1291A,115.8886,28.7003,南昌市,省林业公司,臭氧1小时,57,36,37,17,12,175,165,126,126,2,25,4,5,0.8,0.8
2022-08-01T15:00:00,1292A,115.8126,28.7442,南昌市,林科所,臭氧1小时,55,34,29,19,15,185,164,143,143,6,17,4,5,1.0,1
2022-08-01T15:00:00,1294A,115.8518,28.687,南昌市,建工学校,臭氧1小时,52,36,44,11,18,189,161,136,136,7,34,5,6,0.6,0.7
2022-08-01T15:00:00,1295A,115.8921,28.6424,南昌市,象湖,,49,42,51,11,14,164,156,129,129,8,37,4,5,0.7,0.9
2022-08-01T15:00:00,1296A,115.7423,28.7996,南昌市,武术学校(对照点),,43,38,29,25,16,188,137,126,126,4,4,2,2,0.7,0.7
2022-08-01T15:00:00,1298A,115.9314,28.6842,南昌市,省站,,46,46,46,22,20,154,145,126,126,4,26,6,6,0.8,0.9
2022-08-01T15:00:00,1299A,116.9862,36.6114,济南市,科干所,臭氧1小时,60,34,44,17,26,176,168,124,124,16,23,4,3,0.5,0.7
2022-08-01T15:00:00,1300A,116.9376,36.665,济南市,农科所,,49,34,46,15,22,166,155,109,109,10,27,5,5,0.2,0.3
2022-08-01T15:00:00,1301A,117.1265,36.6734,济南市,开发区,,49,32,42,19,23,156,156,119,119,12,29,4,3,0.5,0.5
2022-08-01T15:00:00,1303A,117.0624,36.6868,济南市,省种子仓库,,41,34,52,14,26,130,130,94,94,27,31,6,3,0.3,0.5
2022-08-01T15:00:00,1304A,116.9489,36.6447,济南市,机床二厂,臭氧1小时,58,44,62,12,26,180,166,122,122,10,28,3,4,0.3,0.5
2022-08-01T15:00:00,1305A,117.0495,36.663,济南市,市监测站,,50,39,43,15,25,159,159,116,116,10,23,6,6,0.5,0.7
2022-08-01T15:00:00,1306A,116.7675,36.5484,济南市,长清党校,臭氧1小时,110,51,48,34,31,220,220,142,142,13,25,7,7,0.6,0.7
2022-08-01T15:00:00,1307A,120.6659,36.2403,青岛市,仰口(对照点),,,,,,,,,,,,,,,,
2022-08-01T15:00:00,1308A,120.3905,36.1851,青岛市,李沧区子站,,,,,,,,,,,,,,,,
2022-08-01T15:00:00,1309A,120.3471,36.0699,青岛市,市北区子站,,,,,,,,,,,,,,,,
2022-08-01T15:00:00,1310A,120.4134,36.0658,青岛市,市南区东部子站,,26,17,16,7,8,81,81,56,56,9,13,7,6,0.4,0.4
2022-08-01T15:00:00,1311A,120.3664,36.1032,青岛市,四方区子站,,23,14,18,7,8,73,73,54,54,6,13,5,4,0.4,0.4
2022-08-01T15:00:00,1312A,120.2994,36.054,青岛市,市南区西部子站,,27,27,21,5,6,75,66,63,63,10,15,6,6,0.4,0.4
2022-08-01T15:00:00,1313A,120.4581,36.0858,青岛市,崂山区子站,,25,19,18,7,6,82,77,60,60,14,16,5,5,0.2,0.1
2022-08-01T15:00:00,1314A,120.1983,35.9608,青岛市,黄岛区子站,,25,14,19,10,12,77,77,64,64,16,33,4,8,0.4,0.5
2022-08-01T15:00:00,1315A,120.3999,36.3083,青岛市,城阳区子站,,21,8,14,6,8,68,66,54,54,6,12,4,5,0.4,0.5
2022-08-01T15:00:00,1316A,113.69031,34.76122,郑州市,烟厂,臭氧1小时,62,40,37,25,19,169,169,129,129,6,14,4,5,0.4,0.5
2022-08-01T15:00:00,1317A,113.65724,34.77134,郑州市,郑纺机,,,47,40,,,171,170,132,132,3,8,5,7,0.5,0.5
2022-08-01T15:00:00,1318A,113.67526,34.80246,郑州市,银行学校,臭氧1小时,60,42,37,20,18,174,168,126,126,8,18,2,2,0.4,0.4
2022-08-01T15:00:00,1319A,113.56746,34.81334,郑州市,供水公司,臭氧1小时,84,60,47,32,24,187,187,126,126,5,22,11,6,0.4,0.4
2022-08-01T15:00:00,1320A,113.7329,34.7178,郑州市,经开区管委,,47,37,40,24,22,149,149,110,110,5,16,2,2,0.4,0.4
2022-08-01T15:00:00,1321A,113.73961,34.77172,郑州市,四十七中,臭氧1小时,63,44,44,23,18,170,170,124,124,7,19,4,4,0.5,0.6
2022-08-01T15:00:00,1322A,113.60532,34.74838,郑州市,市监测站,,,54,43,,,176,173,129,129,7,20,4,3,0.3,0.9
2022-08-01T15:00:00,1323A,113.64164,34.7525,郑州市,河医大,,,47,44,,19,173,173,130,130,5,14,4,3,0.5,0.5
2022-08-01T15:00:00,1324A,113.51488,34.91089,郑州市,岗李水库(对照点),,,,,,,,,,,,,,,,
2022-08-01T15:00:00,1325A,114.3677,30.5584,武汉市,东湖梨园,臭氧1小时,107,43,39,27,19,217,213,156,156,8,16,8,9,0.7,0.7
2022-08-01T15:00:00,1326A,114.2529,30.558,武汉市,汉阳月湖,臭氧1小时,88,37,37,17,18,191,190,143,143,12,28,7,6,0.7,0.7
2022-08-01T15:00:00,1327A,114.282,30.6189,武汉市,汉口花桥,臭氧1小时,109,51,41,27,24,218,218,153,153,11,20,10,9,0.7,0.7
2022-08-01T15:00:00,1328A,114.3025,30.5332,武汉市,武昌紫阳,,48,37,40,20,18,185,151,135,135,5,23,8,7,0.8,0.9
2022-08-01T15:00:00,1329A,114.3646,30.6217,武汉市,青山钢花,臭氧1小时,124,56,46,31,29,250,248,170,170,14,29,10,7,0.9,0.9
2022-08-01T15:00:00,1330A,114.1566,30.4825,武汉市,沌口新区,臭氧1小时,69,36,48,23,26,189,175,136,136,16,40,7,7,0.8,0.8
2022-08-01T15:00:00,1331A,114.3014,30.5944,武汉市,汉口江滩,臭氧1小时,133,42,43,34,20,273,265,172,172,13,25,12,8,0.9,0.8
2022-08-01T15:00:00,1333A,114.135,30.6319,武汉市,吴家山,臭氧1小时,123,57,44,24,20,246,246,154,154,14,22,6,5,1.0,0.9
2022-08-01T15:00:00,1334A,113.8454,30.2917,武汉市,沉湖七壕(对照点),,43,26,31,14,17,154,136,111,111,7,10,8,8,0.7,0.8
2022-08-01T15:00:00,1335A,113.0833,28.2325,长沙市,经开区环保局,臭氧1小时,52,30,29,33,30,177,161,125,125,5,15,5,4,0.2,0.2
2022-08-01T15:00:00,1336A,112.8872,28.2189,长沙市,高开区环保局,细颗粒物(PM2.5),60,26,39,43,26,176,156,121,121,9,33,10,8,0.3,0.5
2022-08-01T15:00:00,1337A,113.0792,28.2053,长沙市,马坡岭,,47,29,50,28,37,169,150,115,115,3,25,6,6,0.6,0.7
2022-08-01T15:00:00,1338A,112.9394,28.19,长沙市,湖南师范大学,,48,45,46,24,23,172,153,119,119,2,18,3,2,0.4,0.5
2022-08-01T15:00:00,1339A,113.0178,28.1322,长沙市,雨花区环保局,臭氧1小时,82,30,37,18,39,185,185,125,125,2,20,7,5,0.1,0.3
2022-08-01T15:00:00,1340A,112.9792,28.2597,长沙市,伍家岭,,45,37,47,28,28,185,144,125,125,13,28,3,2,0.4,0.5
2022-08-01T15:00:00,1341A,113.0014,28.1944,长沙市,火车新站,,46,32,41,26,29,168,145,114,114,2,25,6,6,0.4,0.5
2022-08-01T15:00:00,1342A,112.9844,28.1178,长沙市,天心区环保局,臭氧1小时,87,32,49,30,28,189,189,118,118,4,23,3,2,0.6,0.6
2022-08-01T15:00:00,1343A,112.8908,28.1308,长沙市,湖南中医药大学,,,35,49,37,31,172,160,107,107,,33,3,2,0.8,0.7
2022-08-01T15:00:00,1344A,112.9581,28.3611,长沙市,沙坪(对照点),臭氧1小时,52,50,35,30,24,206,161,140,140,6,8,7,5,0.5,0.6
2022-08-01T15:00:00,1345A,113.2347,23.1423,广州市,广雅中学,臭氧1小时,79,36,46,19,26,247,183,110,110,16,25,5,5,0.6,0.7
2022-08-01T15:00:00,1346A,113.2612,23.105,广州市,市五中,臭氧1小时,78,25,39,19,28,285,182,119,119,8,15,5,6,0.5,0.7
2022-08-01T15:00:00,1348A,113.3478,23.0916,广州市,广东商学院,臭氧1小时,57,25,36,13,24,288,165,103,103,8,22,4,4,0.5,0.7
2022-08-01T15:00:00,1349A,113.4332,23.1047,广州市,市八十六中,臭氧1小时,63,25,45,14,26,340,170,118,118,10,28,4,6,0.4,0.6
2022-08-01T15:00:00,1350A,113.3505,22.9483,广州市,番禺中学,,45,20,34,11,21,264,144,97,97,7,14,8,9,0.5,0.7
2022-08-01T15:00:00,1351A,113.2146,23.3916,广州市,花都师范,臭氧1小时,89,38,43,22,26,207,191,121,121,14,24,6,7,0.8,0.8
2022-08-01T15:00:00,1352A,113.2597,23.1331,广州市,市监测站,臭氧1小时,80,23,42,14,25,279,184,117,117,7,17,4,5,0.6,0.7
2022-08-01T15:00:00,1353A,113.5618,23.312,广州市,九龙镇镇龙,臭氧1小时,58,40,62,22,35,222,166,101,101,12,29,7,7,0.6,0.7
2022-08-01T15:00:00,1354A,113.2765,23.1544,广州市,麓湖,臭氧1小时,103,35,42,22,26,244,206,123,123,8,16,4,4,0.6,0.8
2022-08-01T15:00:00,1355A,113.443,23.3035,广州市,帽峰山森林公园(对照点),臭氧1小时,68,24,36,15,24,226,174,114,114,13,16,3,4,0.3,0.4
2022-08-01T15:00:00,1356A,114.1063,22.5545,深圳市,通心岭子站,,34,11,27,4,16,240,106,73,73,8,13,4,3,0.5,0.7
2022-08-01T15:00:00,1357A,114.117,22.5625,深圳市,洪湖,,38,15,33,8,21,250,119,77,77,11,16,9,8,0.5,0.6
2022-08-01T15:00:00,1358A,113.987,22.5417,深圳市,华侨城,,20,11,30,4,13,270,61,49,49,10,11,6,5,0.4,0.5
2022-08-01T15:00:00,1359A,113.9181,22.5171,深圳市,南海子站,,27,18,26,7,15,236,84,62,62,23,25,10,5,0.7,0.7
2022-08-01T15:00:00,1360A,114.2458,22.5689,深圳市,盐田,,40,22,30,9,19,260,128,82,82,17,27,4,4,0.7,0.8
2022-08-01T15:00:00,1361A,114.2283,22.7244,深圳市,龙岗,臭氧1小时,55,23,43,8,28,274,164,99,99,4,22,4,5,0.5,0.6
2022-08-01T15:00:00,1362A,113.8953,22.5861,深圳市,西乡,,,,,,,,,,,,,,,,
2022-08-01T15:00:00,1363A,114.494,22.5422,深圳市,南澳,,35,17,29,9,19,276,110,82,82,10,11,8,8,0.4,0.6
2022-08-01T15:00:00,1364A,114.41,22.6342,深圳市,葵涌,,30,16,32,8,20,247,96,61,61,10,18,7,7,0.5,0.6
2022-08-01T15:00:00,1365A,114.297,22.5978,深圳市,梅沙,,37,12,34,9,24,281,118,57,57,7,29,6,6,0.2,0.3
2022-08-01T15:00:00,1366A,114.0678,22.738,深圳市,观澜,,38,23,42,23,33,288,119,87,87,14,19,8,8,0.5,0.7
2022-08-01T15:00:00,1367A,113.5814,22.2618,珠海市,吉大,,28,21,27,10,11,131,87,71,71,3,7,9,8,0.6,0.6
2022-08-01T15:00:00,1368A,113.4881,22.2335,珠海市,前山,,32,19,23,13,15,162,100,69,69,9,13,10,9,0.3,0.3
2022-08-01T15:00:00,1369A,113.628,22.4251,珠海市,唐家,,41,12,25,5,12,172,129,83,83,5,7,7,6,0.5,0.4
2022-08-01T15:00:00,1370A,113.299,22.2281,珠海市,斗门,,31,11,17,10,15,125,98,64,64,7,7,5,5,0.5,0.5
2022-08-01T15:00:00,1371A,113.1294,23.0067,佛山市,湾梁,,44,22,37,14,21,205,138,95,95,6,12,5,5,0.3,0.4
2022-08-01T15:00:00,1372A,113.1083,23.0478,佛山市,华材职中,,47,29,39,14,23,223,150,91,91,9,14,5,6,0.3,0.4
2022-08-01T15:00:00,1373A,113.144,23.0453,佛山市,南海气象局,,45,31,39,10,26,218,141,93,93,8,15,5,6,0.4,0.5
2022-08-01T15:00:00,1374A,113.2881,22.8094,佛山市,顺德苏岗,,42,11,18,9,12,198,132,80,80,7,11,4,4,0.5,0.5
2022-08-01T15:00:00,1375A,113.2544,22.7642,佛山市,容桂街道办,,,,,,,,,,,,,,,,
2022-08-01T15:00:00,1376A,112.8383,22.8678,佛山市,高明孔堂,,43,21,29,15,19,164,135,90,90,8,9,6,6,0.5,0.6
2022-08-01T15:00:00,1377A,112.8836,23.1588,佛山市,三水监测站,,40,24,41,16,26,214,128,92,92,7,25,5,6,0.3,0.5
2022-08-01T15:00:00,1378A,112.867,23.185,佛山市,三水云东海,,41,17,40,12,23,202,131,96,96,7,18,5,7,0.3,0.4
2022-08-01T15:00:00,1379A,113.3769,22.5211,中山市,华柏园,,35,30,29,15,18,218,109,80,80,7,7,3,3,0.4,0.4
2022-08-01T15:00:00,1380A,113.3881,22.5497,中山市,张溪,,39,39,33,19,20,236,114,79,79,12,11,2,3,0.6,0.6
2022-08-01T15:00:00,1381A,113.4075,22.5111,中山市,紫马岭,,40,28,31,18,21,251,128,92,92,9,12,6,6,0.5,0.7
2022-08-01T15:00:00,1382A,113.4411,22.4853,中山市,长江旅游区(对照点),,39,39,28,24,25,228,105,77,77,5,7,3,3,0.5,0.5
2022-08-01T15:00:00,1383A,113.1064,22.6058,江门市,北街,,33,19,26,12,16,166,103,80,80,5,9,5,5,0.5,0.6
2022-08-01T15:00:00,1384A,113.0731,22.5835,江门市,西区,,34,19,33,16,20,184,106,72,72,9,13,5,6,0.4,0.5
2022-08-01T15:00:00,1385A,113.0219,22.5311,江门市,圭峰西,,27,20,31,8,15,170,85,66,66,6,11,4,4,0.3,0.5
2022-08-01T15:00:00,1386A,113.0828,22.5947,江门市,东湖,,35,19,30,14,18,182,112,77,77,8,11,6,6,0.5,0.5
2022-08-01T15:00:00,1387A,113.7875,23.0457,东莞市,东城主山,,,,,,,,,,,,,,,,
2022-08-01T15:00:00,1388A,113.7533,23.0202,东莞市,南城元岭,,,,,,,,,,,,,,,,
2022-08-01T15:00:00,1389A,113.7547,23.0494,东莞市,莞城梨川,臭氧1小时,114,27,42,18,24,281,227,142,142,16,20,9,8,0.6,0.8
2022-08-01T15:00:00,1390A,113.7944,23.0128,东莞市,东城石井,臭氧1小时,136,33,37,22,23,320,272,145,145,15,19,8,8,0.6,0.7
2022-08-01T15:00:00,1391A,113.7383,22.9658,东莞市,南城西平,臭氧1小时,104,31,36,29,31,321,208,141,141,16,18,11,9,0.3,0.6
2022-08-01T15:00:00,1392A,114.4183,23.0528,惠州市,河南岸金山湖子站,臭氧1小时,54,47,68,11,33,236,163,111,111,10,19,2,3,0.4,0.6
2022-08-01T15:00:00,1393A,114.4053,23.0822,惠州市,下埔横江三路子站,臭氧1小时,63,41,55,13,25,239,170,135,117,11,19,2,2,0.4,0.5
2022-08-01T15:00:00,1394A,114.4103,23.1142,惠州市,江北云山西路子站,臭氧1小时,80,42,52,21,29,242,184,150,122,2,8,4,5,0.4,0.5
2022-08-01T15:00:00,1395A,114.4645,22.7833,惠州市,惠阳区承修路船湖子站,臭氧1小时,90,35,44,15,28,281,192,114,114,11,18,5,5,0.4,0.5
2022-08-01T15:00:00,1396A,114.5317,22.7422,惠州市,大亚湾管委会子站,,35,33,41,18,28,261,110,82,82,10,20,7,7,0.3,0.5
2022-08-01T15:00:00,1397A,112.4267,23.0706,肇庆市,睦岗子站,,28,11,35,7,22,163,88,77,77,7,22,9,10,0.2,0.4
2022-08-01T15:00:00,1398A,112.4645,23.0475,肇庆市,城中子站,,35,14,32,8,20,146,111,85,85,7,23,12,14,0.3,0.5
2022-08-01T15:00:00,1399A,112.5544,23.1522,肇庆市,坑口子站,,37,16,28,9,21,150,117,91,91,4,11,8,7,0.4,0.4
2022-08-01T15:00:00,1400A,112.4753,23.1,肇庆市,七星岩子站(对照点),,,,,,,,,,,,,,,,
2022-08-01T15:00:00,1401A,108.3103,22.7881,南宁市,二十一中,,34,26,31,16,19,110,108,84,84,8,13,5,6,0.5,0.6
2022-08-01T15:00:00,1402A,108.3141,22.8528,南宁市,北湖,,39,30,33,24,19,122,122,91,91,10,11,4,5,0.6,0.6
2022-08-01T15:00:00,1403A,108.3206,22.8225,南宁市,市监测站,,34,24,32,20,17,109,108,86,86,15,17,5,6,0.6,1
2022-08-01T15:00:00,1404A,108.3829,22.8037,南宁市,大自然花园,,36,26,30,19,20,114,114,86,86,6,11,6,7,0.5,0.5
2022-08-01T15:00:00,1405A,108.4394,22.7904,南宁市,仙葫(对照点),,32,24,32,22,22,96,96,75,75,5,10,7,8,0.5,0.6
2022-08-01T15:00:00,1406A,108.2397,22.8467,南宁市,区农职院,,42,31,34,22,19,133,132,95,95,12,19,6,9,0.6,0.6
2022-08-01T15:00:00,1407A,108.3275,22.735,南宁市,英华嘉园,,40,40,41,22,20,96,93,72,72,8,21,6,6,0.6,0.6
2022-08-01T15:00:00,1408A,108.2257,22.7757,南宁市,沙井镇街道办,,39,39,39,23,17,110,110,81,81,14,20,6,8,0.7,0.7
2022-08-01T15:00:00,1409A,110.576,19.9507,海口市,东寨港(对照点),,,24,18,9,10,65,19,21,21,,,4,4,0.2,0.3
2022-08-01T15:00:00,1410A,110.3232,20.0574,海口市,海南大学,,16,14,16,9,10,88,49,49,49,1,3,4,4,0.5,0.5
2022-08-01T15:00:00,1411A,110.283,20.0053,海口市,秀英海南医院,,,,,,,,,,,,,,,,
2022-08-01T15:00:00,1412A,110.338,19.9969,海口市,海南师范大学,,15,7,22,3,9,88,48,41,41,3,8,2,3,0.4,0.5
2022-08-01T15:00:00,1413A,110.33,20.0356,海口市,龙华路环保局宿舍,,18,18,17,4,8,98,52,50,50,4,6,2,2,0.5,0.5
2022-08-01T15:00:00,1414A,106.3787,29.8279,重庆市,缙云山(对照点),臭氧1小时,67,19,15,9,7,177,173,128,128,11,16,4,4,0.3,0.2
2022-08-01T15:00:00,1416A,106.4213,29.8253,重庆市,天生,臭氧1小时,57,27,33,17,15,178,165,133,133,9,22,5,5,0.6,0.6
2022-08-01T15:00:00,1417A,106.6263,29.7228,重庆市,两路,,32,25,33,10,14,144,102,95,95,34,39,5,8,0.6,0.4
2022-08-01T15:00:00,1418A,106.2953,29.5983,重庆市,虎溪,臭氧1小时,84,37,36,11,15,204,187,127,127,12,40,6,7,0.4,0.5
2022-08-01T15:00:00,1419A,106.5777,29.5102,重庆市,南坪,,48,31,31,10,15,158,151,121,121,4,12,3,3,0.6,0.6
2022-08-01T15:00:00,1420A,106.6556,29.6277,重庆市,唐家沱,,47,6,17,5,8,163,149,124,124,11,22,6,6,0.6,0.6
2022-08-01T15:00:00,1421A,106.6349,29.4906,重庆市,茶园,,46,30,36,11,12,152,146,110,110,8,38,6,6,0.7,0.7
2022-08-01T15:00:00,1422A,106.3754,29.4572,重庆市,白市驿,,45,45,28,13,17,151,136,118,118,9,15,6,7,0.5,0.6
2022-08-01T15:00:00,1425A,106.6205,29.7166,重庆市,空港,,42,13,25,11,14,152,132,111,111,5,19,6,7,0.5,0.7
2022-08-01T15:00:00,1426A,106.4782,29.4875,重庆市,新山村,,50,14,24,12,11,180,158,124,124,10,27,5,6,0.3,0.5
2022-08-01T15:00:00,1427A,106.5616,29.6453,重庆市,礼嘉,,44,8,24,4,10,153,139,111,111,25,40,8,8,0.3,0.5
2022-08-01T15:00:00,1428A,106.4522,29.7091,重庆市,蔡家,,50,23,30,8,15,174,160,117,117,9,27,4,4,0.5,0.6
2022-08-01T15:00:00,1429A,106.5093,29.3917,重庆市,鱼新街,,41,15,26,12,16,130,130,91,91,7,29,6,6,0.7,0.8
2022-08-01T15:00:00,1431A,103.9728,30.7236,成都市,金泉两河,,31,25,38,15,24,228,98,87,87,9,15,6,3,0.4,0.5
2022-08-01T15:00:00,1432A,104.1419,30.6764,成都市,十里店,,45,30,38,21,26,209,141,103,103,13,17,3,3,0.6,0.6
2022-08-01T15:00:00,1433A,104.0594,30.5767,成都市,三瓦窑,,45,35,43,18,28,193,143,104,104,14,25,2,2,0.5,0.6
2022-08-01T15:00:00,1434A,104.1122,30.6306,成都市,沙河铺,,48,33,40,23,28,211,152,106,106,14,18,3,3,0.5,0.5
2022-08-01T15:00:00,1437A,104.0431,30.6556,成都市,君平街,,39,31,40,19,28,193,124,102,102,13,18,4,5,0.5,0.6
2022-08-01T15:00:00,1438A,103.6202,31.0201,成都市,灵岩寺(对照点),,26,18,24,13,18,166,82,104,95,2,2,5,7,0.7,0.7
2022-08-01T15:00:00,1439A,106.6899,26.5998,贵阳市,马鞍山,,,,27,,18,103,95,77,77,5,11,3,4,0.6,0.7
2022-08-01T15:00:00,1440A,106.6971,26.5694,贵阳市,市环保站,,34,34,31,14,18,113,94,80,80,11,20,4,4,0.4,0.4
2022-08-01T15:00:00,1441A,106.6243,26.6266,贵阳市,鉴湖路,,31,31,26,17,16,120,96,83,83,6,10,3,3,0.5,0.5
2022-08-01T15:00:00,1442A,106.7487,26.6343,贵阳市,燕子冲,,32,27,33,22,25,101,91,79,79,5,12,6,6,0.6,0.7
2022-08-01T15:00:00,1443A,106.6555,26.4365,贵阳市,碧云窝,,48,48,40,19,16,115,94,84,84,8,10,4,5,0.4,0.4
2022-08-01T15:00:00,1444A,106.694,26.5161,贵阳市,中院村,,28,27,34,14,17,106,88,78,78,12,14,1,2,0.4,0.5
2022-08-01T15:00:00,1445A,106.7109,26.6027,贵阳市,红边门,,29,29,34,19,24,107,92,80,80,15,23,4,5,0.1,0.5
2022-08-01T15:00:00,1446A,106.7164,26.5699,贵阳市,新华路,,36,36,27,17,21,105,95,82,82,6,11,2,4,0.4,0.4
2022-08-01T15:00:00,1447A,106.674,26.5424,贵阳市,太慈桥,,30,29,32,14,16,104,94,73,73,5,17,5,5,0.3,0.4
2022-08-01T15:00:00,1450A,102.8204,24.8886,昆明市,呈贡新区,,34,21,30,13,16,108,108,79,79,8,20,9,9,0.5,0.6
2022-08-01T15:00:00,1451A,102.6251,24.9608,昆明市,西山森林公园(对照点),,27,18,21,18,14,105,84,74,74,12,17,7,7,0.5,0.5
2022-08-01T15:00:00,1452A,102.7252,25.0902,昆明市,龙泉镇,,33,16,24,13,17,103,103,52,52,6,19,6,5,0.3,0.3
2022-08-01T15:00:00,1453A,102.7266,25.0375,昆明市,东风东路,,34,5,28,16,17,107,107,61,61,10,26,5,5,0.3,0.4
2022-08-01T15:00:00,1454A,102.6742,25.0669,昆明市,金鼎山,,34,18,27,12,19,106,106,61,61,5,16,2,6,0.3,0.4
2022-08-01T15:00:00,1455A,102.6644,25.0401,昆明市,碧鸡广场,,36,12,25,25,19,101,101,84,84,9,24,6,9,0.5,0.6
2022-08-01T15:00:00,1456A,91.1319,29.6514,拉萨市,八廓街,,28,17,11,11,6,101,88,83,76,5,6,8,7,0.3,0.2
2022-08-01T15:00:00,1457A,91.1221,29.6747,拉萨市,市环保局,,25,9,12,7,6,94,79,71,70,8,11,6,7,0.1,0.1
2022-08-01T15:00:00,1458A,91.0874,29.6475,拉萨市,区监测站,,28,6,7,0,1,110,88,88,78,9,10,8,8,0.1,0.4
2022-08-01T15:00:00,1459A,91.1774,29.6541,拉萨市,西藏大学,,31,8,7,5,4,104,99,87,83,10,10,9,9,0.4,0.2
2022-08-01T15:00:00,1460A,90.9798,29.6588,拉萨市,区辐射站,,20,7,11,4,6,90,61,70,63,24,17,9,8,0.3,0.2
2022-08-01T15:00:00,1461A,91.0834,29.6292,拉萨市,拉萨火车站,,26,12,10,6,4,99,83,79,73,10,9,9,9,0.2,0.2
2022-08-01T15:00:00,1462A,108.882,34.2749,西安市,高压开关厂,臭氧1小时,65,52,55,27,30,175,172,134,134,12,20,5,6,0.5,0.5
2022-08-01T15:00:00,1463A,108.993,34.2629,西安市,兴庆小区,臭氧1小时,63,56,55,34,35,177,170,131,131,9,18,5,6,0.5,0.7
2022-08-01T15:00:00,1464A,109.06,34.2572,西安市,纺织城,,50,48,55,29,30,170,159,118,118,8,20,6,7,0.4,0.5
2022-08-01T15:00:00,1465A,108.9356,34.2173,西安市,小寨,臭氧1小时,69,50,48,26,23,181,175,133,133,14,23,3,3,0.5,0.5
2022-08-01T15:00:00,1466A,108.954,34.2713,西安市,市人民体育场,臭氧1小时,72,55,56,27,29,177,177,136,136,12,20,5,5,0.4,0.5
2022-08-01T15:00:00,1467A,108.8922,34.2322,西安市,高新西区,,,,,,44,,,,,,,,,,
2022-08-01T15:00:00,1468A,108.935,34.3474,西安市,经开区,臭氧1小时,59,55,54,24,30,167,167,128,128,5,11,2,4,0.3,0.4
2022-08-01T15:00:00,1469A,108.906,34.1546,西安市,长安区,臭氧1小时,92,53,64,29,31,206,193,134,134,8,24,6,6,0.4,0.5
2022-08-01T15:00:00,1470A,109.2,34.6575,西安市,阎良区,,,,,,,,,,,,,,,,
2022-08-01T15:00:00,1471A,109.2186,34.3731,西安市,临潼区,,49,49,55,24,30,156,154,121,121,13,21,3,3,0.4,0.4
2022-08-01T15:00:00,1472A,108.869,34.378,西安市,草滩(对照点),,48,48,49,27,30,145,143,114,114,7,13,10,8,0.7,0.9
2022-08-01T15:00:00,1473A,108.985,34.1978,西安市,曲江文化产业集团,臭氧1小时,74,56,52,27,26,188,179,132,132,10,18,5,5,0.8,0.8
2022-08-01T15:00:00,1474A,109.051,34.3213,西安市,广运潭,颗粒物(PM10),56,61,61,26,31,156,154,119,119,6,14,7,8,0.7,0.7
2022-08-01T15:00:00,1476A,103.631,36.1031,兰州市,兰炼宾馆,,42,23,30,15,14,177,132,117,117,8,9,5,8,0.2,0.2
2022-08-01T15:00:00,1477A,104.1373,35.9454,兰州市,榆中兰大校区(对照点),,,,,,,,,,,,,,,,
2022-08-01T15:00:00,1478A,103.8412,36.0726,兰州市,生物制品所,,39,24,33,26,23,138,124,104,101,8,11,7,7,0.9,0.8
2022-08-01T15:00:00,1479A,103.831,36.0464,兰州市,铁路设计院,,37,24,35,16,15,132,118,101,101,11,13,6,6,0.5,0.5
2022-08-01T15:00:00,1480A,101.748,36.6428,西宁市,市环境监测站,,,,,,,,,,,,,,,,
2022-08-01T15:00:00,1482A,101.834,36.5819,西宁市,四陆医院,,,,,,,,,,,,,,,,
2022-08-01T15:00:00,1483A,101.524,36.6867,西宁市,第五水厂(对照点),,,,,,,,,,,,,,,,
2022-08-01T15:00:00,1484A,105.9512,38.6016,银川市,贺兰山马莲口(对照点),,47,28,41,20,22,209,148,128,128,6,9,7,9,0.4,0.4
2022-08-01T15:00:00,1488A,106.2328,38.4975,银川市,贺兰山东路,,47,31,43,17,22,199,148,128,128,7,11,8,8,0.5,0.5
2022-08-01T15:00:00,1489A,106.1358,38.5036,银川市,学院路,,48,47,50,25,28,205,153,129,129,9,9,8,8,0.5,0.5
2022-08-01T15:00:00,1490A,87.5801,43.8303,乌鲁木齐市,监测站,,42,11,6,7,6,132,132,101,101,11,16,5,5,0.2,0.2
2022-08-01T15:00:00,1491A,87.6046,43.768,乌鲁木齐市,收费所,,42,20,25,11,10,132,132,107,102,7,11,9,8,0.3,0.3
2022-08-01T15:00:00,1492A,87.4754,43.9469,乌鲁木齐市,新疆农科院农场(对照点),,,,39,12,16,124,124,92,92,6,13,8,8,0.5,0.5
2022-08-01T15:00:00,1493A,87.5525,43.8711,乌鲁木齐市,铁路局,,46,19,25,9,11,146,146,106,106,7,13,4,3,0.5,0.6
2022-08-01T15:00:00,1494A,87.6432,43.831,乌鲁木齐市,三十一中学,,43,19,33,2,9,141,137,108,108,5,8,5,5,0.2,0.3
2022-08-01T15:00:00,1496A,87.7216,44.1747,乌鲁木齐市,米东区环保局,,39,7,24,1,12,122,122,89,89,1,9,4,4,0.2,0.3
2022-08-01T15:00:00,1508A,112.9433,27.8614,湘潭市,板塘,,49,48,57,31,33,216,156,124,124,12,29,9,7,0.6,0.5
2022-08-01T15:00:00,1511A,112.9118,27.8403,湘潭市,市监测站,,46,39,44,26,35,182,145,120,120,5,26,8,8,0.7,0.8
2022-08-01T15:00:00,1512A,112.8937,27.8728,湘潭市,江麓,细颗粒物(PM2.5),52,43,57,36,39,178,142,113,113,5,18,12,13,0.7,0.8
2022-08-01T15:00:00,1513A,112.9227,27.8159,湘潭市,岳塘,,41,41,57,25,33,169,130,118,118,4,19,10,15,0.4,0.7
2022-08-01T15:00:00,1514A,112.9074,27.9119,湘潭市,科大,,,40,57,35,30,201,158,132,132,7,24,6,5,,0.6
2022-08-01T15:00:00,1515A,113.135,27.8244,株洲市,天台山庄,,49,32,38,34,33,161,148,127,127,7,27,5,7,0.4,0.6
2022-08-01T15:00:00,1518A,113.095,27.8867,株洲市,株冶医院,臭氧1小时,58,36,40,26,28,188,166,132,132,6,25,6,7,0.6,0.7
2022-08-01T15:00:00,1519A,113.167,27.8667,株洲市,市四中,臭氧1小时,53,39,39,30,29,162,162,121,121,5,22,3,4,0.5,0.6
2022-08-01T15:00:00,1520A,113.143,27.8381,株洲市,火车站,,50,39,45,31,29,167,158,128,128,9,24,5,6,0.3,0.5
2022-08-01T15:00:00,1524A,113.13,27.8528,株洲市,市监测站,臭氧1小时,64,44,48,31,37,181,171,133,133,7,28,4,7,0.4,0.6
2022-08-01T15:00:00,1552A,106.805,26.3003,贵阳市,桐木岭(对照点),,,,,,,,,,,,,,,,
2022-08-01T15:00:00,1559A,113.251,27.8336,株洲市,大京风景区(对照点),,46,26,32,23,24,159,146,104,104,4,5,4,2,0.6,0.5
2022-08-01T15:00:00,1562A,113.0048,27.9153,湘潭市,昭山,臭氧1小时,63,44,48,30,31,183,170,124,124,6,30,13,6,0.8,0.7
2022-08-01T15:00:00,1564A,112.4876,27.9164,湘潭市,韶山(对照点),,46,46,41,25,18,163,137,110,110,11,12,7,7,0.7,1
2022-08-01T15:00:00,1585A,109.8756,40.6532,包头市,市环境监测站,臭氧1小时,87,50,50,30,29,194,189,138,138,9,19,8,14,0.6,0.8
2022-08-01T15:00:00,1587A,109.9991,40.5842,包头市,包头八中,臭氧1小时,85,57,55,30,34,191,188,145,145,10,19,10,13,0.7,0.7
2022-08-01T15:00:00,1588A,109.8538,40.6821,包头市,青山宾馆,臭氧1小时,84,57,46,26,30,187,187,135,135,10,19,9,13,0.7,0.8
2022-08-01T15:00:00,1589A,109.8642,40.6288,包头市,惠龙物流,,,52,53,34,29,200,195,144,144,9,18,9,11,,0.8
2022-08-01T15:00:00,1590A,110.0377,40.5546,包头市,东河鸿龙湾,臭氧1小时,80,66,54,27,31,188,184,141,141,7,15,5,5,0.8,0.8
2022-08-01T15:00:00,1591A,110.0023,39.8129,鄂尔多斯市,综合楼,臭氧1小时,60,44,44,17,19,168,168,138,138,11,15,12,12,0.7,0.9
2022-08-01T15:00:00,1592A,109.9486,39.8261,鄂尔多斯市,巴音孟克林场办事处,臭氧1小时,63,44,53,22,24,170,170,141,141,10,16,8,11,1.0,1
2022-08-01T15:00:00,1593A,109.7736,39.5986,鄂尔多斯市,康泽苑,,50,36,40,22,20,159,159,136,136,5,9,5,5,0.7,0.7
2022-08-01T15:00:00,1594A,109.8119,39.5989,鄂尔多斯市,华泰汽车城,,50,39,40,27,26,160,160,139,139,4,9,7,8,0.6,0.8
2022-08-01T15:00:00,1595A,109.9734,39.7884,鄂尔多斯市,奥林花园,臭氧1小时,63,51,58,19,26,170,170,135,135,8,16,8,10,1.0,1.1
2022-08-01T15:00:00,1596A,122.2414,40.6592,营口市,学府南路,,,,,,,,,,,,,,,,
2022-08-01T15:00:00,1597A,122.2703,40.7094,营口市,大庆路,,32,24,35,11,16,151,102,80,80,6,13,6,8,0.5,0.8
2022-08-01T15:00:00,1598A,122.215,40.6511,营口市,镜湖西路,,29,20,23,14,11,123,90,67,67,10,14,2,2,0.7,1
2022-08-01T15:00:00,1599A,122.167,40.6655,营口市,西炮台,,32,18,19,10,10,107,101,76,76,5,9,8,7,1.1,1
2022-08-01T15:00:00,1600A,124.3303,40.0625,丹东市,江湾东路,,15,7,11,5,6,50,47,39,39,4,8,6,8,0.3,0.5
2022-08-01T15:00:00,1601A,124.4256,40.1503,丹东市,临江后街,,16,6,9,2,4,50,50,38,38,2,6,4,4,0.5,0.4
2022-08-01T15:00:00,1602A,124.3933,40.1461,丹东市,元宝山,,16,6,8,4,5,49,49,33,33,6,8,3,3,0.3,0.2
2022-08-01T15:00:00,1603A,124.3633,40.1092,丹东市,民主桥,,14,8,11,3,6,48,42,34,34,2,9,2,2,0.6,0.7
2022-08-01T15:00:00,1604A,122.0303,41.1489,盘锦市,开发区,,24,18,24,7,14,90,76,77,77,6,14,4,4,0.6,0.6
2022-08-01T15:00:00,1605A,122.0485,41.0883,盘锦市,兴隆台,,24,15,25,12,15,89,74,76,76,9,18,2,3,0.4,0.5
2022-08-01T15:00:00,1606A,121.8297,41.1028,盘锦市,新生街道,,31,25,20,12,12,98,98,92,92,5,8,4,4,0.4,0.4
2022-08-01T15:00:00,1607A,120.9092,40.7136,葫芦岛市,龙港区,,26,26,21,3,20,94,69,74,67,2,5,2,3,0.5,0.4
2022-08-01T15:00:00,1608A,120.8392,40.7514,葫芦岛市,化工街,,26,23,26,16,24,88,81,71,71,7,12,5,5,0.8,0.7
2022-08-01T15:00:00,1609A,120.8341,40.7073,葫芦岛市,新区,,30,21,25,20,23,95,95,78,78,2,8,3,3,0.6,0.5
2022-08-01T15:00:00,1610A,120.8695,40.7677,葫芦岛市,东城区,,33,33,29,17,29,90,90,75,75,7,16,5,5,0.5,0.3
2022-08-01T15:00:00,1611A,118.5819,24.9117,泉州市,涂山街,颗粒物(PM10),70,89,99,26,42,287,152,171,171,8,37,8,18,0.6,0.7
2022-08-01T15:00:00,1612A,118.5972,24.8978,泉州市,津头埔,颗粒物(PM10),58,65,92,31,41,280,157,164,164,16,43,7,17,0.4,0.6
2022-08-01T15:00:00,1613A,118.6663,24.9424,泉州市,万安,颗粒物(PM10),58,66,85,27,43,280,162,170,170,11,28,10,12,0.7,0.8
2022-08-01T15:00:00,1614A,118.6117,24.9604,泉州市,清源山(对照点),,,,,,,,,,,,,,,,
2022-08-01T15:00:00,1616A,117.6795,36.229,济南市,技术学院,,40,17,29,15,19,169,128,96,96,6,23,7,5,0.4,0.6
2022-08-01T15:00:00,1618A,118.3429,35.0532,临沂市,沂河小区,,36,24,30,6,14,113,113,90,90,7,17,6,8,0.2,0.4
2022-08-01T15:00:00,1619A,118.295,35.0583,临沂市,鲁南制药厂,,44,19,26,7,14,140,140,101,101,8,20,4,6,0.4,0.6
2022-08-01T15:00:00,1620A,118.2794,34.9976,临沂市,新光毛纺厂,,50,29,27,16,15,157,157,112,112,13,20,4,6,0.4,0.5
2022-08-01T15:00:00,1621A,118.3956,35.0888,临沂市,河东保险公司,,32,14,22,14,15,102,102,85,85,6,15,4,6,0.3,0.5
2022-08-01T15:00:00,1622A,116.3032,37.4674,德州市,儿童乐园,,,25,39,23,23,138,138,112,112,,16,7,9,0.5,0.6
2022-08-01T15:00:00,1624A,116.2991,37.4451,德州市,监理站,,43,28,36,21,24,142,136,111,111,7,15,6,8,0.3,0.4
2022-08-01T15:00:00,1625A,115.9848,36.4372,聊城市,区政府,臭氧1小时,63,42,46,30,30,177,170,140,140,9,18,11,11,0.9,1
2022-08-01T15:00:00,1628A,118.0062,37.3803,滨州市,市环保局,,49,38,25,34,18,151,151,108,108,9,13,9,7,0.0,0.1
2022-08-01T15:00:00,1629A,118.0018,37.3617,滨州市,第二水厂,,,37,24,22,14,160,160,106,106,,12,,5,0.4,0.4
2022-08-01T15:00:00,1630A,117.9776,37.393,滨州市,北中新校,,48,33,25,33,17,133,132,101,101,8,11,14,10,0.1,0.2
2022-08-01T15:00:00,1631A,118.0414,36.8103,淄博市,人民公园,臭氧1小时,79,41,41,28,23,183,183,109,109,10,25,9,10,0.3,0.6
2022-08-01T15:00:00,1632A,118.0253,36.8406,淄博市,东风化工厂,,,,,,,,,,,,,,,,
2022-08-01T15:00:00,1633A,117.8525,36.4847,淄博市,双山,臭氧1小时,72,46,35,22,17,177,177,96,96,14,20,10,11,0.3,0.4
2022-08-01T15:00:00,1634A,117.9592,36.6331,淄博市,气象站,臭氧1小时,103,40,49,27,22,206,206,166,166,14,21,13,17,0.4,0.7
2022-08-01T15:00:00,1635A,118.3092,36.8194,淄博市,莆田园,,45,22,30,19,20,144,144,102,102,9,21,5,10,0.1,0.8
2022-08-01T15:00:00,1636A,117.8661,36.805,淄博市,三金集团,,,,,,,,,,,,,,,,
2022-08-01T15:00:00,1637A,117.558,34.8438,枣庄市,市中区政府,,49,39,38,24,15,154,154,118,118,13,20,9,12,0.5,0.5
2022-08-01T15:00:00,1638A,117.2852,34.7837,枣庄市,薛城环保局,"颗粒物(PM10),臭氧1小时",55,59,40,34,18,165,164,123,123,10,19,11,13,0.4,0.5
2022-08-01T15:00:00,1639A,117.5852,34.7745,枣庄市,峄城区政府,臭氧1小时,53,46,33,30,18,162,162,124,124,9,13,9,11,0.4,0.4
2022-08-01T15:00:00,1640A,117.7276,34.5578,枣庄市,台儿庄区环保局,,46,36,31,22,15,147,147,106,106,9,13,11,12,0.6,0.5
2022-08-01T15:00:00,1641A,117.4518,35.0992,枣庄市,山亭区环保局,,40,22,25,20,16,136,125,113,113,9,11,12,12,0.5,0.5
2022-08-01T15:00:00,1642A,121.2514,37.5639,烟台市,开发区,,33,22,14,9,7,104,104,62,62,6,6,2,4,0.5,0.5
2022-08-01T15:00:00,1643A,121.3719,37.5433,烟台市,轴承厂,,36,14,19,25,5,63,57,47,47,11,15,7,7,0.1,0.2
2022-08-01T15:00:00,1644A,121.3181,37.5436,烟台市,西郊化工站,,28,12,13,7,7,87,87,57,57,9,14,6,7,0.0,0
2022-08-01T15:00:00,1645A,121.4478,37.4822,烟台市,莱山环保局,,20,7,10,7,6,68,61,50,50,5,6,7,7,0.4,0.4
2022-08-01T15:00:00,1646A,121.2611,37.4967,烟台市,福山环保局,,23,22,21,2,8,71,71,47,47,10,11,3,5,0.1,0.1
2022-08-01T15:00:00,1648A,119.12,36.7019,潍坊市,仲裁委,,,,,,,,,,,,,,,,
2022-08-01T15:00:00,1650A,119.1437,36.7023,潍坊市,环保局,,20,9,19,5,12,103,62,57,57,2,8,6,6,0.2,0.3
2022-08-01T15:00:00,1652A,119.1936,36.7729,潍坊市,寒亭监测站,,,,,,,,,,,,,,,,
2022-08-01T15:00:00,1653A,116.6251,35.4302,济宁市,火炬城,臭氧1小时,63,47,41,29,25,178,170,137,137,7,12,7,10,0.6,0.6
2022-08-01T15:00:00,1655A,116.5491,35.4042,济宁市,电化厂,臭氧1小时,59,50,52,31,28,172,167,134,134,6,18,8,9,0.8,0.8
2022-08-01T15:00:00,1656A,117.1437,36.1937,泰安市,监测站,,45,34,40,24,26,144,144,97,97,8,16,6,6,0.3,0.3
2022-08-01T15:00:00,1657A,117.0885,36.2017,泰安市,人口学校,,41,39,34,21,23,150,129,140,136,10,13,7,7,0.4,0.4
2022-08-01T15:00:00,1658A,117.1089,36.1758,泰安市,电力学校,,42,31,46,18,26,134,134,94,94,7,24,7,7,0.2,0.3
2022-08-01T15:00:00,1659A,119.471,35.4209,日照市,监测站,,21,7,16,11,12,67,67,52,52,8,20,5,4,0.2,0.3
2022-08-01T15:00:00,1660A,119.523,35.4216,日照市,市政府广场,,24,12,17,12,10,80,74,62,62,7,15,6,6,0.4,0.4
2022-08-01T15:00:00,1661A,119.5587,35.4044,日照市,港务局,,31,31,20,14,9,104,98,78,78,7,14,4,4,0.4,0.5
2022-08-01T15:00:00,1662A,122.1214,37.4236,威海市,华夏技校,,20,5,8,14,9,54,42,48,40,10,9,4,4,0.1,0.2
2022-08-01T15:00:00,1663A,122.0508,37.5236,威海市,山大分校,,19,2,8,2,6,69,60,51,48,5,9,4,4,0.2,0.2
2022-08-01T15:00:00,1664A,122.1067,37.5072,威海市,市监测站,,18,2,6,12,13,58,46,49,42,3,5,4,4,0.2,0.3
2022-08-01T15:00:00,1665A,118.5019,37.4658,东营市,西城阳光环保公司,,,,,,,,,,,,,,,,
2022-08-01T15:00:00,1666A,118.6614,37.4309,东营市,市环保局,,28,9,9,7,5,89,89,71,71,3,4,7,7,0.1,0.2
2022-08-01T15:00:00,1669A,113.5824,24.7733,韶关市,市八中,臭氧1小时,103,50,46,44,25,205,205,148,148,12,20,6,8,0.6,0.7
2022-08-01T15:00:00,1670A,113.5556,24.8082,韶关市,碧湖山庄,,,,,,,,,,,,,,,,
2022-08-01T15:00:00,1671A,113.5917,24.7972,韶关市,园林处,臭氧1小时,83,60,51,27,33,186,186,128,128,7,18,6,7,0.4,0.6
2022-08-01T15:00:00,1672A,113.6735,24.7791,韶关市,韶关学院,臭氧1小时,108,59,53,43,34,216,216,139,139,14,18,16,15,0.8,0.7
2022-08-01T15:00:00,1673A,113.5971,24.6863,韶关市,曲江监测站,臭氧1小时,98,49,52,40,31,202,198,137,137,9,24,8,10,0.6,0.6
2022-08-01T15:00:00,1674A,116.6794,23.3667,汕头市,金平子站,,41,41,48,13,27,172,131,144,144,7,19,8,10,0.6,0.9
2022-08-01T15:00:00,1675A,116.7244,23.3633,汕头市,龙湖子站,,32,32,58,17,22,152,102,115,115,9,22,9,10,0.7,0.9
2022-08-01T15:00:00,1676A,116.7258,23.2775,汕头市,濠江子站,,29,29,50,10,28,142,87,98,98,4,14,10,11,0.4,0.7
2022-08-01T15:00:00,1677A,116.7519,23.4714,汕头市,澄海子站,,50,50,61,34,35,200,148,138,138,12,27,6,13,0.7,1
2022-08-01T15:00:00,1678A,116.6092,23.2539,汕头市,潮阳子站,,30,25,54,5,26,149,93,100,100,4,15,10,10,0.5,0.8
2022-08-01T15:00:00,1679A,116.4069,23.2533,汕头市,潮南子站,,,,,,,,,,,,,,,,
2022-08-01T15:00:00,1680A,110.3539,21.2706,湛江市,湛江影剧院,,20,18,17,10,9,86,64,59,59,4,6,6,6,0.5,0.5
2022-08-01T15:00:00,1681A,110.3928,21.2228,湛江市,市环境监测站,,17,15,16,5,8,81,53,57,57,4,7,6,6,0.6,0.6
2022-08-01T15:00:00,1682A,110.4019,21.1997,湛江市,环保局宿舍,,15,12,19,8,10,77,46,55,55,2,7,5,6,0.6,0.6
2022-08-01T15:00:00,1683A,110.4111,21.2028,湛江市,霞山游泳场,,14,9,11,5,9,71,44,49,49,3,7,6,6,0.6,0.6
2022-08-01T15:00:00,1684A,110.3316,21.2679,湛江市,麻章区环保局,,25,25,23,6,13,93,74,63,63,5,8,6,6,0.6,0.6
2022-08-01T15:00:00,1685A,110.4558,21.2567,湛江市,坡头区环保局,,15,14,14,5,9,69,46,44,44,4,6,6,6,0.4,0.5
2022-08-01T15:00:00,1686A,111.0286,21.4688,茂名市,电白南海,,13,9,17,5,7,59,39,43,40,3,4,4,4,0.4,0.4
2022-08-01T15:00:00,1687A,110.9294,21.6533,茂名市,茂石化七小,,16,9,24,9,12,70,50,54,54,4,8,6,7,0.3,0.4
2022-08-01T15:00:00,1688A,110.9107,21.6687,茂名市,健康路,,20,7,13,6,5,86,61,64,64,4,4,6,7,0.4,0.5
2022-08-01T15:00:00,1689A,110.8592,21.6828,茂名市,高岭,,18,7,25,9,13,91,56,59,59,4,8,6,7,0.5,0.6
2022-08-01T15:00:00,1690A,116.1231,24.3284,梅州市,梅江月梅,细颗粒物(PM2.5),94,51,31,70,18,159,159,111,111,6,15,4,5,0.6,0.5
2022-08-01T15:00:00,1691A,116.0797,24.2719,梅州市,梅县新城,细颗粒物(PM2.5),59,54,35,42,24,168,160,112,112,8,20,5,6,0.6,0.6
2022-08-01T15:00:00,1692A,116.1248,24.2654,梅州市,环境监控中心,细颗粒物(PM2.5),53,44,33,37,23,170,147,110,110,10,17,5,8,0.7,0.6
2022-08-01T15:00:00,1693A,115.3653,22.775,汕尾市,市环保局,,,38,31,11,17,189,84,93,72,4,6,,5,0.4,0.3
2022-08-01T15:00:00,1694A,115.3706,22.7898,汕尾市,市政府,,29,16,24,15,17,203,92,92,79,4,7,6,6,0.7,0.8
2022-08-01T15:00:00,1695A,115.3622,22.7925,汕尾市,新城中学,,,,75,43,29,202,84,97,76,2,4,5,5,0.5,0.6
2022-08-01T15:00:00,1696A,114.6778,23.7569,河源市,源西(对照点),,45,34,53,27,28,168,143,130,130,2,21,3,4,0.5,0.6
2022-08-01T15:00:00,1697A,114.6944,23.7586,河源市,东埔,,46,32,49,25,27,182,147,136,136,7,15,4,5,0.5,0.6
2022-08-01T15:00:00,1698A,114.6892,23.7233,河源市,老城,,49,33,71,30,29,173,154,130,130,6,18,3,2,0.6,0.7
2022-08-01T15:00:00,1699A,111.9797,21.8593,阳江市,鸳鸯湖(对照点),,,,,,,,,,,,,,,,
2022-08-01T15:00:00,1700A,111.9508,21.8536,阳江市,南恩路,,,,,,,,,,,,,,,,
2022-08-01T15:00:00,1701A,111.9491,21.8658,阳江市,马南垌,,21,19,22,6,12,108,67,58,58,3,8,6,6,0.5,0.6
2022-08-01T15:00:00,1702A,113.0426,23.691,清远市,环保大楼(对照点),臭氧1小时,122,47,43,36,31,243,243,140,140,9,18,4,6,0.7,0.7
2022-08-01T15:00:00,1703A,113.0208,23.7106,清远市,凤城街办,臭氧1小时,95,40,44,31,37,196,196,114,114,9,18,4,5,0.8,0.8
2022-08-01T15:00:00,1705A,116.6367,23.6719,潮州市,西园路(对照点),,,71,31,19,32,167,,101,101,6,10,5,6,0.1,0.4
2022-08-01T15:00:00,1706A,116.6447,23.6706,潮州市,档案局,颗粒物(PM10),58,65,38,38,35,228,127,130,130,7,12,6,8,0.8,0.9
2022-08-01T15:00:00,1708A,116.3701,23.5345,揭阳市,新兴,颗粒物(PM10),63,75,56,35,37,172,151,131,131,3,13,5,7,0.6,0.8
2022-08-01T15:00:00,1709A,116.3264,23.5443,揭阳市,西马,颗粒物(PM10),51,51,59,27,34,162,137,122,122,4,14,8,10,0.5,0.7
2022-08-01T15:00:00,1710A,116.3611,23.5626,揭阳市,东兴,,48,48,57,24,28,167,133,126,126,7,21,4,8,0.7,0.8
2022-08-01T15:00:00,1711A,116.4151,23.5294,揭阳市,渔湖,颗粒物(PM10),59,68,58,36,34,170,129,160,154,7,25,4,11,0.5,0.8
2022-08-01T15:00:00,1712A,112.0392,22.9169,云浮市,新市府(对照点),,,,,,,,,,,,,,,,
2022-08-01T15:00:00,1713A,112.0369,22.9394,云浮市,市监测站,,,,,,,,,,,,,,,,
2022-08-01T15:00:00,1714A,112.0539,22.9539,云浮市,牧羊,,30,13,44,13,23,176,94,78,74,5,14,7,11,0.5,0.6
2022-08-01T15:00:00,1715A,102.575,24.3711,玉溪市,东风水库,,32,16,23,17,15,102,100,70,70,12,12,4,4,0.7,0.7
2022-08-01T15:00:00,1718A,115.4208,35.2464,菏泽市,气象局,,31,14,33,13,26,125,97,103,103,2,16,4,4,0.3,0.4
2022-08-01T15:00:00,1719A,115.4747,35.2375,菏泽市,市政协,,32,7,36,11,22,136,101,110,110,3,9,6,7,0.0,0.1
2022-08-01T15:00:00,1720A,115.455,35.27,菏泽市,菏泽学院,,,,,,,,,,,,,,,,
2022-08-01T15:00:00,1721A,113.3819,40.1097,大同市,果树场(对照点),,,,,,,,,,,,,,,,
2022-08-01T15:00:00,1723A,113.2994,40.0758,大同市,云冈宾馆,,47,40,73,15,28,173,150,126,126,12,32,10,28,0.4,0.6
2022-08-01T15:00:00,1724A,113.3444,40.0917,大同市,大同大学,,49,38,54,14,24,171,154,137,137,6,18,6,11,0.4,0.5
2022-08-01T15:00:00,1725A,113.2661,40.1269,大同市,安家小村,臭氧1小时,52,42,67,20,26,190,161,138,138,8,20,9,15,0.4,0.6
2022-08-01T15:00:00,1726A,113.2711,40.0844,大同市,教育学院,,46,43,72,16,27,167,147,124,124,10,25,10,26,0.3,0.5
2022-08-01T15:00:00,1727A,113.1147,36.1547,长治市,清华站,臭氧1小时,70,42,54,24,35,204,176,122,122,7,12,9,10,0.6,0.9
2022-08-01T15:00:00,1728A,113.1031,36.1989,长治市,监测站,臭氧1小时,68,50,61,24,35,186,174,124,124,10,18,8,9,0.8,1.3
2022-08-01T15:00:00,1730A,113.0886,36.2125,长治市,审计局,臭氧1小时,101,44,54,34,40,211,201,134,134,6,14,8,9,0.8,1.4
2022-08-01T15:00:00,1731A,113.0844,36.1856,长治市,长治八中,臭氧1小时,72,45,58,33,32,210,177,124,124,8,15,10,11,1.0,1.5
2022-08-01T15:00:00,1733A,111.5531,36.0783,临汾市,临钢医院,,42,17,38,20,25,172,132,108,108,4,21,2,2,0.6,0.7
2022-08-01T15:00:00,1734A,111.5028,36.0714,临汾市,技工学校,臭氧1小时,58,19,38,30,30,176,166,124,124,8,19,1,1,0.5,0.6
2022-08-01T15:00:00,1735A,111.5169,36.0822,临汾市,工商学校,,,,,,,,,,,,,,,,
2022-08-01T15:00:00,1736A,111.5018,36.0855,临汾市,市委,,50,28,43,25,29,170,159,122,122,6,18,1,2,0.5,0.6
2022-08-01T15:00:00,1738A,113.5758,37.8572,阳泉市,市中心,臭氧1小时,60,44,69,33,28,184,168,120,120,8,30,8,10,0.8,1
2022-08-01T15:00:00,1739A,113.4894,37.8731,阳泉市,赛鱼,臭氧1小时,67,45,59,24,25,188,173,118,118,6,23,10,9,0.8,0.9
2022-08-01T15:00:00,1740A,113.5819,37.8486,阳泉市,南庄,臭氧1小时,59,41,68,28,33,173,167,113,113,6,23,8,10,0.9,1.1
2022-08-01T15:00:00,1741A,113.6292,37.8531,阳泉市,白羊墅,,,,,,,,,,,,,,,,
2022-08-01T15:00:00,1742A,113.5614,37.8703,阳泉市,平坦,臭氧1小时,68,55,69,29,24,195,174,122,122,9,37,10,14,1.0,1.2
2022-08-01T15:00:00,1743A,113.5158,37.8392,阳泉市,大阳泉,,,22,43,25,29,178,164,138,138,10,12,14,7,,0.9
2022-08-01T15:00:00,1744A,118.9233,42.2816,赤峰市,松山一中,,38,15,34,10,14,132,119,108,108,14,19,9,11,0.4,0.7
2022-08-01T15:00:00,1745A,118.9576,42.2728,赤峰市,哈达街,,43,10,36,7,17,145,135,122,122,14,18,10,9,0.3,0.5
2022-08-01T15:00:00,1746A,118.8788,42.2554,赤峰市,天义路,,40,6,26,6,14,132,125,114,114,14,17,11,11,0.3,0.4
2022-08-01T15:00:00,1748A,123.044,41.1196,鞍山市,深沟寺,细颗粒物(PM2.5),55,46,21,39,15,122,103,82,82,13,8,7,7,1.6,0.8
2022-08-01T15:00:00,1749A,123.011,41.0931,鞍山市,太阳城,细颗粒物(PM2.5),60,66,27,43,16,106,104,77,77,50,14,29,8,3.6,1.2
2022-08-01T15:00:00,1750A,123.0485,41.1442,鞍山市,太平,细颗粒物(PM2.5),68,81,33,49,17,160,160,100,100,21,15,11,6,1.8,0.9
2022-08-01T15:00:00,1751A,122.9642,41.0971,鞍山市,铁西三道街,,50,50,37,28,18,147,145,97,97,12,22,8,7,1.3,1.1
2022-08-01T15:00:00,1752A,122.9341,41.0833,鞍山市,铁西工业园区,,49,48,36,34,24,135,135,90,90,9,17,9,6,1.3,1
2022-08-01T15:00:00,1753A,123.022,41.0821,鞍山市,明达新区,,,67,22,51,14,122,122,83,83,49,11,24,5,,1
2022-08-01T15:00:00,1754A,123.1289,41.0228,鞍山市,千山(对照点),,,,,,,,,,,,,,,,
2022-08-01T15:00:00,1755A,123.7977,41.8491,抚顺市,望花区,,41,30,37,18,17,138,131,89,89,6,16,3,3,0.4,0.6
2022-08-01T15:00:00,1756A,123.9161,41.8822,抚顺市,顺城区,,37,22,24,18,13,126,117,85,85,13,17,10,9,0.5,0.5
2022-08-01T15:00:00,1757A,124.0436,41.8611,抚顺市,东洲区,,31,28,18,17,10,124,98,83,83,7,6,8,8,0.3,0.3
2022-08-01T15:00:00,1758A,123.9247,41.8642,抚顺市,新抚区,,37,37,23,16,11,107,99,78,78,9,13,5,5,0.7,0.5
2022-08-01T15:00:00,1759A,124.0972,41.8961,抚顺市,大伙房水库,,35,28,17,16,9,116,109,75,75,7,8,6,5,0.6,0.3
2022-08-01T15:00:00,1760A,123.7086,41.8391,抚顺市,沈抚新城,,44,38,39,30,23,139,139,91,91,5,17,4,6,0.6,0.9
2022-08-01T15:00:00,1761A,123.8275,41.3064,本溪市,大峪,细颗粒物(PM2.5),82,72,26,60,10,161,161,82,82,18,12,10,6,1.3,0.6
2022-08-01T15:00:00,1762A,123.7567,41.3325,本溪市,溪湖,臭氧1小时,65,49,35,28,18,172,172,87,87,12,17,8,8,1.5,1.2
2022-08-01T15:00:00,1763A,123.7169,41.3094,本溪市,彩屯,,44,38,38,15,22,140,140,69,69,9,17,4,4,1.1,1.1
2022-08-01T15:00:00,1764A,123.7669,41.2864,本溪市,东明,颗粒物(PM10),51,51,36,21,13,124,124,63,63,17,19,6,6,1.0,0.7
2022-08-01T15:00:00,1765A,123.7992,41.2664,本溪市,新立屯,颗粒物(PM10),61,71,26,27,9,134,134,67,67,14,11,3,3,1.3,0.7
2022-08-01T15:00:00,1766A,123.8142,41.3472,本溪市,威宁,臭氧1小时,72,71,33,34,10,177,177,82,82,13,11,16,9,1.1,0.5
2022-08-01T15:00:00,1767A,121.1115,41.0879,锦州市,南山,,44,44,28,27,22,129,129,88,88,5,17,6,8,0.8,0.6
2022-08-01T15:00:00,1768A,121.0533,40.8434,锦州市,开发区,颗粒物(PM10),55,59,41,18,22,103,100,90,90,3,9,5,11,0.8,0.7
2022-08-01T15:00:00,1769A,121.1836,41.1119,锦州市,百股街道,,,31,28,24,21,116,116,92,92,,11,3,5,0.6,0.6
2022-08-01T15:00:00,1770A,121.1178,41.1222,锦州市,天安街道,,45,44,31,31,22,134,134,94,94,6,17,7,8,0.8,0.7
2022-08-01T15:00:00,1771A,121.1303,41.1386,锦州市,北湖公园,,42,41,30,23,24,133,133,94,94,5,15,7,9,0.7,0.5
2022-08-01T15:00:00,1772A,126.54,43.8622,吉林市,哈达湾,,27,6,14,9,8,96,85,77,77,6,11,5,5,0.5,0.5
2022-08-01T15:00:00,1773A,126.5844,43.8358,吉林市,东局子,,27,18,17,12,11,105,85,76,76,6,12,6,8,0.6,0.7
2022-08-01T15:00:00,1774A,126.5052,43.8245,吉林市,电力学院,,29,17,15,20,9,80,76,64,64,5,8,7,7,0.4,0.5
2022-08-01T15:00:00,1775A,126.6133,43.8972,吉林市,江北,,30,22,20,17,10,109,96,81,81,18,11,7,7,0.7,0.7
2022-08-01T15:00:00,1776A,126.555,43.8306,吉林市,江南公园,,24,16,16,8,12,83,74,67,67,7,13,3,3,0.5,0.5
2022-08-01T15:00:00,1778A,126.7061,43.7133,吉林市,丰满(对照点),,,,,,,,,,,,,,,,
2022-08-01T15:00:00,1779A,123.9305,47.3636,齐齐哈尔市,安居小区,,,,26,,15,143,134,120,120,8,12,5,5,0.4,0.4
2022-08-01T15:00:00,1780A,123.9488,47.3386,齐齐哈尔市,中心广场,,40,19,24,3,9,138,127,120,120,6,10,4,4,0.4,0.4
2022-08-01T15:00:00,1781A,123.9483,47.3227,齐齐哈尔市,农牧车辆厂,,39,27,34,2,7,130,122,113,113,8,6,3,3,0.4,0.4
2022-08-01T15:00:00,1783A,123.945,47.2988,齐齐哈尔市,市环境监测站,,43,3,25,5,11,137,137,116,116,7,10,8,7,0.4,0.4
2022-08-01T15:00:00,1784A,129.61,44.561,牡丹江市,环保大楼,,20,12,15,4,7,78,61,50,50,4,8,5,5,0.3,0.3
2022-08-01T15:00:00,1785A,129.6115,44.5782,牡丹江市,文化广场,,19,8,16,6,7,75,59,46,46,6,8,2,2,0.4,0.4
2022-08-01T15:00:00,1786A,129.5904,44.5963,牡丹江市,第一医院,,14,6,7,4,4,57,44,32,32,4,8,3,3,0.6,0.7
2022-08-01T15:00:00,1787A,129.6364,44.6075,牡丹江市,机车工厂,,19,19,13,7,6,49,47,34,34,8,9,6,6,0.3,0.4
2022-08-01T15:00:00,1788A,129.6386,44.5462,牡丹江市,第一中学,,,8,17,4,8,67,67,48,48,5,10,,4,0.4,0.4
2022-08-01T15:00:00,1789A,124.81117,46.03138,大庆市,大同区,,30,28,27,15,15,109,93,92,90,5,7,5,4,0.4,0.4
2022-08-01T15:00:00,1790A,125.129,46.533,大庆市,龙凤区,,35,10,20,5,9,114,111,102,101,5,8,5,5,0.2,0.2
2022-08-01T15:00:00,1791A,124.902,46.408,大庆市,红岗区,,30,16,14,7,8,121,93,105,98,5,6,3,4,0.4,0.4
2022-08-01T15:00:00,1792A,125.153,46.586,大庆市,萨尔图区,,34,24,28,8,15,147,107,111,110,9,10,4,4,0.4,0.4
2022-08-01T15:00:00,1793A,124.9042,46.6215,大庆市,让胡路区,,31,9,19,6,9,138,99,111,111,7,11,3,3,0.3,0.1
2022-08-01T15:00:00,1794A,118.3606,31.3519,芜湖市,监测站,臭氧1小时,85,40,41,25,26,188,188,100,100,18,28,12,12,0.7,0.6
2022-08-01T15:00:00,1795A,118.3714,31.4134,芜湖市,科创中心,臭氧1小时,75,30,39,28,23,180,180,102,102,13,29,9,11,0.8,0.7
2022-08-01T15:00:00,1796A,118.3673,31.3131,芜湖市,四水厂,臭氧1小时,93,46,41,29,24,194,194,111,111,16,25,9,8,0.6,0.6
2022-08-01T15:00:00,1797A,118.4022,31.3839,芜湖市,济民医院(对照点),,,,,,,,,,,,,,,,
2022-08-01T15:00:00,1798A,118.5092,31.6837,马鞍山市,湖东路四小,,34,25,30,16,16,127,106,80,80,13,23,20,8,1.3,0.8
2022-08-01T15:00:00,1799A,118.5024,31.6449,马鞍山市,开发区,,45,29,29,10,23,148,141,90,90,6,31,10,12,0.8,0.9
2022-08-01T15:00:00,1800A,118.5228,31.7231,马鞍山市,慈湖,,37,36,37,20,19,122,116,85,85,8,23,13,6,1.0,0.7
2022-08-01T15:00:00,1801A,118.48,31.6928,马鞍山市,马钢动力厂,,,,,,,,,,,,,,,,
2022-08-01T15:00:00,1802A,118.6245,31.7241,马鞍山市,濮塘(对照点),,41,27,22,8,12,134,130,96,96,2,7,4,3,0.5,0.5
2022-08-01T15:00:00,1803A,115.9872,29.6815,九江市,十里,,42,32,42,19,29,208,134,129,129,10,19,6,9,0.7,0.8
2022-08-01T15:00:00,1804A,115.9584,29.7046,九江市,茅山头,,40,36,44,27,25,200,125,120,120,9,17,6,8,0.6,0.7
2022-08-01T15:00:00,1805A,115.9877,29.7295,九江市,西园,,42,35,43,21,21,197,132,119,119,2,26,8,11,0.7,0.8
2022-08-01T15:00:00,1806A,116.0172,29.6547,九江市,五七二七厂,,40,31,40,18,20,181,127,121,121,12,15,4,6,0.6,0.8
2022-08-01T15:00:00,1808A,115.9114,29.6038,九江市,综合工业园,,,46,53,,26,202,101,115,115,33,28,5,7,1.0,0.7
2022-08-01T15:00:00,1809A,116.0721,29.7535,九江市,石化总厂,,48,37,43,14,24,201,153,131,131,9,22,10,7,0.7,0.8
2022-08-01T15:00:00,1810A,115.9773,29.5698,九江市,庐山气象台(对照点),,40,30,32,18,23,198,126,182,132,8,7,8,10,0.6,0.6
2022-08-01T15:00:00,1811A,112.3628,34.6692,洛阳市,中信二小,,,,,,,,,,,,,,,,
2022-08-01T15:00:00,1812A,112.3931,34.6516,洛阳市,市委党校,,49,40,45,25,28,156,156,121,121,1,9,3,5,0.5,0.6
2022-08-01T15:00:00,1814A,112.4657,34.6871,洛阳市,豫西宾馆,,46,30,51,28,30,145,145,107,107,2,11,3,3,0.4,0.5
2022-08-01T15:00:00,1815A,112.494,34.6886,洛阳市,河南林校,,43,35,42,23,24,135,135,97,97,1,9,1,1,0.2,0.3
2022-08-01T15:00:00,1816A,112.3844,34.623,洛阳市,开发区管委会,,48,39,44,28,29,156,152,120,120,2,6,7,7,0.3,0.4
2022-08-01T15:00:00,1817A,112.4267,34.6258,洛阳市,市委新办公区,,,27,49,22,28,142,137,96,96,,9,,6,0.9,0.5
2022-08-01T15:00:00,1818A,114.4839,36.0621,安阳市,棉研所(对照点),,,,,,,,,,,,,,,,
2022-08-01T15:00:00,1819A,114.3551,36.1017,安阳市,红庙街,,49,49,59,28,29,157,144,121,121,12,26,4,7,0.6,0.8
2022-08-01T15:00:00,1820A,114.361,36.0681,安阳市,银杏小区,,,45,57,,29,153,140,122,122,1,16,3,4,0.6,0.7
2022-08-01T15:00:00,1824A,114.3389,34.7781,开封市,肿瘤医院,臭氧1小时,55,11,25,10,21,164,164,115,115,5,16,4,5,0.2,0.4
2022-08-01T15:00:00,1826A,114.2885,34.7965,开封市,世纪星幼儿园,,45,30,38,17,20,141,141,97,97,4,12,4,4,0.6,0.6
2022-08-01T15:00:00,1828A,113.227,35.2125,焦作市,市环保局,,41,28,46,12,23,164,131,104,104,2,7,3,3,0.2,0.5
2022-08-01T15:00:00,1829A,113.2464,35.1764,焦作市,高新区政府（停运20220628）,,,,,,,,,,,,,,,,
2022-08-01T15:00:00,1830A,113.1992,35.2590,焦作市,影视城(对照点),,,,,,,,,,,,,,,,
2022-08-01T15:00:00,1832A,113.3257,33.742,平顶山市,新华旅馆,,46,30,57,20,37,146,146,109,109,8,23,2,14,0.2,0.4
2022-08-01T15:00:00,1833A,113.2919,33.737,平顶山市,规划设计院,,47,33,61,19,30,150,150,114,114,7,21,3,9,0.6,0.7
2022-08-01T15:00:00,1834A,113.182,33.774,平顶山市,平顶山工学院,,46,45,62,26,33,146,145,103,103,8,20,3,5,0.4,0.5
2022-08-01T15:00:00,1835A,111.1922,34.7752,三门峡市,市政府,,43,37,49,21,30,156,136,114,114,7,12,4,6,0.5,0.6
2022-08-01T15:00:00,1836A,111.1587,34.7942,三门峡市,开发区,颗粒物(PM10),55,60,64,23,31,152,137,116,116,8,12,2,4,0.5,0.6
2022-08-01T15:00:00,1838A,111.143,34.7955,三门峡市,风景区(对照点),,,,,,,,,,,,,,,,
2022-08-01T15:00:00,1839A,111.3009,30.7157,宜昌市,四零三,,,,,,,,,,,,,,,,
2022-08-01T15:00:00,1840A,111.2992,30.6981,宜昌市,白龙岗,臭氧1小时,64,56,49,36,28,171,171,116,116,14,19,6,6,0.7,0.7
2022-08-01T15:00:00,1841A,111.3549,30.6465,宜昌市,伍家岗,细颗粒物(PM2.5),67,63,53,48,34,167,148,112,112,28,29,5,5,0.6,0.7
2022-08-01T15:00:00,1842A,111.2628,30.6961,宜昌市,点军区,颗粒物(PM10),59,67,52,31,31,170,141,110,110,42,17,5,4,0.7,0.7
2022-08-01T15:00:00,1843A,111.3275,30.7819,宜昌市,夷陵区,细颗粒物(PM2.5),52,51,44,36,25,156,156,114,114,22,14,5,4,0.6,0.6
2022-08-01T15:00:00,1844A,112.2494,30.3197,荆州市,市图书馆,,44,30,41,14,34,155,140,126,126,5,23,7,11,0.5,0.7
2022-08-01T15:00:00,1845A,112.2008,30.3544,荆州市,市委党校,,44,34,52,22,34,162,139,118,118,6,18,7,12,0.7,0.7
2022-08-01T15:00:00,1847A,113.1094,29.3578,岳阳市,南湖风景区,,45,37,35,31,25,160,136,127,127,6,19,8,9,0.7,0.7
2022-08-01T15:00:00,1848A,113.1493,29.4251,岳阳市,城陵矶,,45,22,46,24,23,166,142,127,127,7,26,9,13,0.7,0.7
2022-08-01T15:00:00,1849A,113.1497,29.3575,岳阳市,开发区,,42,30,34,25,26,160,134,119,119,5,23,6,8,0.5,0.6
2022-08-01T15:00:00,1850A,113.2621,29.4758,岳阳市,云溪区,,,32,36,23,23,169,169,121,121,9,13,,9,0.7,0.7
2022-08-01T15:00:00,1851A,112.9943,29.4402,岳阳市,君山区,,48,39,36,22,23,165,151,125,125,3,17,8,8,0.6,0.6
2022-08-01T15:00:00,1852A,113.2117,29.355,岳阳市,金凤水库(对照点),,42,26,39,23,20,154,133,107,107,5,13,4,4,0.7,0.8
2022-08-01T15:00:00,1854A,111.6975,28.9703,常德市,市二中,,38,35,34,23,26,120,120,78,78,7,13,4,4,0.6,0.6
2022-08-01T15:00:00,1857A,111.7158,29.1456,常德市,白鹤山(对照点),,45,41,35,29,27,153,143,117,117,5,6,7,5,0.6,0.6
2022-08-01T15:00:00,1858A,110.5319,29.1217,张家界市,永定新区,,33,20,26,23,28,105,70,72,72,3,7,3,3,0.2,0.3
2022-08-01T15:00:00,1859A,110.4697,29.1242,张家界市,电业局,,,26,26,,14,112,77,78,78,7,6,2,3,0.2,0.2
2022-08-01T15:00:00,1860A,110.5594,29.3547,张家界市,未央路,,23,20,23,15,18,95,73,67,67,3,6,2,2,0.2,0.2
2022-08-01T15:00:00,1861A,110.4417,29.315,张家界市,袁家界(对照点),,31,22,23,17,16,113,97,93,93,6,5,5,5,0.3,0.3
2022-08-01T15:00:00,1862A,110.4144,25.3167,桂林市,电子科大尧山校区(对照点),,49,34,58,34,42,155,129,104,104,5,8,8,20,0.7,0.8
2022-08-01T15:00:00,1863A,110.2819,25.2697,桂林市,监测站,,40,40,53,26,28,159,118,96,96,5,15,7,12,0.5,0.7
2022-08-01T15:00:00,1864A,110.3089,25.2708,桂林市,龙隐路小学,,45,45,53,30,35,148,119,100,100,4,15,7,19,0.4,0.5
2022-08-01T15:00:00,1865A,110.2869,25.2178,桂林市,八中,,48,48,46,27,29,140,112,91,91,6,15,7,9,0.5,0.6
2022-08-01T15:00:00,1866A,109.2262,21.588,北海市,牛尾岭水库(对照点),,24,15,17,14,12,94,75,66,66,2,5,3,4,0.5,0.5
2022-08-01T15:00:00,1867A,109.1436,21.4086,北海市,海滩公园,,29,22,23,5,9,115,91,104,79,2,3,4,5,0.6,0.6
2022-08-01T15:00:00,1868A,109.0981,21.4661,北海市,新市环保局,,26,21,17,7,13,108,82,95,76,2,3,4,4,0.5,0.5
2022-08-01T15:00:00,1869A,109.1778,21.5233,北海市,北海工业园,,,24,21,7,14,113,83,70,70,,,4,5,0.4,0.4
2022-08-01T15:00:00,1870A,109.4856,24.3895,柳州市,柳东小学,,48,37,40,33,34,141,120,101,101,2,8,3,6,0.7,0.8
2022-08-01T15:00:00,1871A,109.4157,24.3277,柳州市,环保监测站,,35,26,37,22,25,131,109,104,104,6,12,5,5,0.4,0.6
2022-08-01T15:00:00,1872A,109.389,24.341,柳州市,河西水厂,,36,33,55,18,31,127,115,96,96,6,16,6,7,0.5,0.8
2022-08-01T15:00:00,1873A,109.4311,24.2921,柳州市,市四中,,36,30,48,18,25,132,114,101,101,4,11,6,6,0.7,0.7
2022-08-01T15:00:00,1874A,109.4006,24.3631,柳州市,市九中,,36,23,47,15,27,131,113,103,103,6,12,6,8,0.6,0.7
2022-08-01T15:00:00,1875A,109.4958,24.3134,柳州市,古亭山,,35,30,37,24,25,126,109,95,95,5,9,5,6,0.6,0.7
2022-08-01T15:00:00,1876A,109.5078,18.2489,三亚市,河东子站,,15,7,15,6,10,59,45,50,43,4,7,2,2,0.4,0.5
2022-08-01T15:00:00,1877A,109.4964,18.2681,三亚市,河西子站,,15,7,16,5,10,75,47,48,48,4,7,4,5,0.3,0.3
2022-08-01T15:00:00,1878A,104.7778,31.4741,绵阳市,富乐山,,46,44,35,23,25,152,145,112,112,6,10,6,4,0.6,0.6
2022-08-01T15:00:00,1879A,104.7563,31.4535,绵阳市,市人大,,43,39,43,30,27,142,126,105,102,11,13,13,6,0.6,0.5
2022-08-01T15:00:00,1880A,104.6697,31.4668,绵阳市,高新区自来水公司,,47,46,46,28,27,156,148,124,114,9,15,7,6,0.6,0.6
2022-08-01T15:00:00,1881A,104.7287,31.5075,绵阳市,三水厂,,45,42,47,30,31,148,143,108,100,7,20,6,5,0.6,0.6
2022-08-01T15:00:00,1882A,104.563,28.793,宜宾市,石马中学(对照点),细颗粒物(PM2.5),53,52,50,37,28,183,158,109,109,7,24,7,8,0.7,0.6
2022-08-01T15:00:00,1883A,104.6201,28.7728,宜宾市,市委,细颗粒物(PM2.5),57,54,45,40,28,167,163,122,122,12,24,8,10,0.7,0.6
2022-08-01T15:00:00,1884A,104.6055,28.793,宜宾市,宜宾四中,臭氧1小时,65,76,66,45,32,179,172,140,140,10,24,12,12,0.4,0.7
2022-08-01T15:00:00,1885A,104.639,28.7562,宜宾市,市政府,臭氧1小时,70,79,62,42,28,176,176,132,132,10,30,11,10,0.8,0.8
2022-08-01T15:00:00,1886A,104.5742,28.7199,宜宾市,黄金嘴,臭氧1小时,63,58,44,37,24,174,170,131,131,7,18,8,8,0.5,0.5
2022-08-01T15:00:00,1888A,101.6891,26.571,攀枝花市,弄弄坪,,42,42,42,25,25,117,94,45,45,18,26,20,16,1.2,1.4
2022-08-01T15:00:00,1889A,101.5769,26.5928,攀枝花市,河门口,,44,44,36,28,19,130,77,40,40,15,21,24,17,1.3,1.8
2022-08-01T15:00:00,1890A,101.7169,26.585,攀枝花市,炳草岗,,49,28,51,34,31,133,100,48,48,21,32,39,40,0.8,1.3
2022-08-01T15:00:00,1891A,101.7369,26.5008,攀枝花市,仁和,,25,25,40,16,26,122,69,46,46,7,11,11,16,0.4,0.5
2022-08-01T15:00:00,1893A,105.4324,28.9634,泸州市,九狮山(对照点),,39,33,25,6,13,124,124,80,80,8,16,8,8,0.3,0.4
2022-08-01T15:00:00,1894A,105.4427,28.9063,泸州市,小市上码头,臭氧1小时,68,32,37,25,19,174,174,120,120,11,18,12,13,0.6,0.6
2022-08-01T15:00:00,1895A,105.4241,28.8573,泸州市,兰田宪桥,臭氧1小时,57,27,42,14,21,170,165,112,112,6,20,9,10,0.4,0.4
2022-08-01T15:00:00,1896A,105.4379,28.8833,泸州市,市环监站,臭氧1小时,68,31,35,24,22,180,174,118,118,13,24,5,5,0.4,0.4
2022-08-01T15:00:00,1897A,104.7547,29.3628,自贡市,大塘山(对照点),,,,,,,,,,,,,,,,
2022-08-01T15:00:00,1900A,104.7692,29.3411,自贡市,春华路,,,,,,,,,,,,,,,,
2022-08-01T15:00:00,1901A,104.4239,31.1208,德阳市,东山公园,,49,43,38,23,20,170,154,104,104,10,12,4,4,0.7,0.6
2022-08-01T15:00:00,1902A,104.3826,31.1317,德阳市,西小区,,44,44,44,16,13,192,108,114,91,11,16,3,4,0.8,0.7
2022-08-01T15:00:00,1903A,104.4053,31.1167,德阳市,市检察院,,,,,,,,,,,,,,,,
2022-08-01T15:00:00,1904A,104.3553,31.1091,德阳市,耐火材料厂,,50,50,45,19,16,205,100,114,90,15,18,7,6,0.6,0.6
2022-08-01T15:00:00,1905A,106.056,30.8064,南充市,西山风景区(对照点),,35,27,42,14,28,153,111,98,98,15,18,4,3,0.7,0.9
2022-08-01T15:00:00,1906A,106.0789,30.8023,南充市,南充市委,,35,23,51,13,27,158,112,101,101,5,13,3,2,0.3,0.5
2022-08-01T15:00:00,1907A,106.1031,30.8217,南充市,南充炼油厂,,40,25,51,15,27,181,125,101,101,3,11,6,6,0.4,0.5
2022-08-01T15:00:00,1908A,106.1064,30.7856,南充市,高坪区监测站,,36,18,41,13,31,167,114,91,91,4,10,4,2,0.3,0.5
2022-08-01T15:00:00,1909A,106.0642,30.7636,南充市,嘉陵区环保局,,40,22,44,10,30,154,127,106,106,5,12,5,5,0.2,0.5
2022-08-01T15:00:00,1910A,106.1087,30.8388,南充市,市环境监测站,,35,26,52,23,29,146,110,97,97,10,12,4,4,0.3,0.4
2022-08-01T15:00:00,1911A,106.9222,27.6869,遵义市,丁字口,,40,22,19,18,17,126,126,103,103,5,8,7,7,0.5,0.6
2022-08-01T15:00:00,1912A,106.9242,27.7019,遵义市,凤凰山,,39,23,20,21,18,123,123,98,98,7,7,6,4,0.6,0.6
2022-08-01T15:00:00,1913A,106.8906,27.6486,遵义市,忠庄,,37,27,35,12,14,118,118,88,88,7,10,2,3,0.3,0.4
2022-08-01T15:00:00,1914A,106.9231,27.6506,遵义市,舟水桥,,37,25,23,18,10,117,117,86,86,6,10,3,3,0.4,0.5
2022-08-01T15:00:00,1915A,106.9178,27.72,遵义市,干田坝,,39,19,20,18,12,126,124,96,96,6,10,6,6,0.7,0.6
2022-08-01T15:00:00,1916A,103.7897,25.5035,曲靖市,环境监测站,,42,42,42,20,30,102,102,70,70,13,20,3,10,0.6,0.8
2022-08-01T15:00:00,1917A,103.8,25.5364,曲靖市,烟厂办公区,,34,24,40,23,29,106,106,67,67,7,16,5,15,0.6,0.8
2022-08-01T15:00:00,1918A,108.7197,34.3956,咸阳市,气象站(对照点),臭氧1小时,60,32,58,28,31,168,168,137,137,1,9,6,6,0.9,0.9
2022-08-01T15:00:00,1919A,108.673,34.3155,咸阳市,实验中学,臭氧1小时,63,46,54,26,31,172,170,135,135,9,18,4,5,0.6,0.5
2022-08-01T15:00:00,1920A,108.7233,34.3617,咸阳市,师范学院,臭氧1小时,59,47,56,27,32,167,167,135,135,5,12,6,6,0.7,0.7
2022-08-01T15:00:00,1922A,109.0656,35.0994,铜川市,党校(对照点),,42,42,50,21,27,101,100,85,85,4,10,4,4,0.7,0.7
2022-08-01T15:00:00,1923A,109.0697,35.0697,铜川市,王益区政府,,42,37,46,24,29,133,133,114,114,4,7,4,4,0.7,0.7
2022-08-01T15:00:00,1924A,108.9344,34.9058,铜川市,新区管委会,,45,36,49,23,29,147,142,118,118,9,18,5,8,0.6,0.6
2022-08-01T15:00:00,1925A,108.9589,34.8731,铜川市,新区兰芝公司,,,,,,,,,,,,,,,,
2022-08-01T15:00:00,1926A,109.4131,36.6275,延安市,枣园(对照点),,39,39,48,25,29,161,121,111,111,5,17,4,4,0.7,0.7
2022-08-01T15:00:00,1927A,109.4761,36.6028,延安市,延大医附院,颗粒物(PM10),51,52,57,28,32,147,106,102,102,4,21,4,4,0.4,0.5
2022-08-01T15:00:00,1928A,109.4824,36.5767,延安市,市监测站,,,,,,,,,,,,,,,,
2022-08-01T15:00:00,1929A,109.5056,36.6106,延安市,百米大道,,42,42,54,27,32,150,105,100,100,8,23,5,6,0.7,0.8
2022-08-01T15:00:00,1930A,107.185,34.3063,宝鸡市,庙沟村(对照点),,43,37,57,30,32,128,128,84,84,7,17,4,4,0.5,0.5
2022-08-01T15:00:00,1931A,107.0708,34.3017,宝鸡市,竹园沟,颗粒物(PM10),55,60,52,29,34,159,159,102,102,10,16,8,7,0.6,0.6
2022-08-01T15:00:00,1932A,107.1906,34.3672,宝鸡市,三陆医院,臭氧1小时,72,74,63,30,32,181,177,127,127,8,14,5,6,0.5,0.5
2022-08-01T15:00:00,1933A,107.1431,34.3547,宝鸡市,监测站,臭氧1小时,63,60,59,37,37,176,170,124,124,14,21,6,6,0.5,0.5
2022-08-01T15:00:00,1934A,107.1186,34.3739,宝鸡市,技工学校,臭氧1小时,68,59,66,31,41,176,174,126,126,15,21,5,6,0.5,0.5
2022-08-01T15:00:00,1935A,107.3906,34.3528,宝鸡市,陈仓区环保局家属楼,臭氧1小时,60,62,68,36,35,175,168,126,126,9,23,6,6,0.5,0.6
2022-08-01T15:00:00,1936A,107.2058,34.3497,宝鸡市,文理学院,臭氧1小时,73,59,63,32,34,190,178,130,130,12,17,9,9,0.4,0.5
2022-08-01T15:00:00,1937A,107.2386,34.3622,宝鸡市,三迪小学,颗粒物(PM10),58,65,63,39,38,164,164,122,122,16,23,6,7,0.4,0.5
2022-08-01T15:00:00,1938A,109.5293,34.5101,渭南市,农科所(对照点),,,,,,,,,,,,,,,,
2022-08-01T15:00:00,1939A,109.4974,34.4877,渭南市,日报社,,47,34,47,26,36,161,150,129,129,6,15,6,6,0.3,0.4
2022-08-01T15:00:00,1940A,109.4636,34.493,渭南市,体育馆,,50,41,46,23,34,166,159,132,132,6,15,2,3,0.3,0.4
2022-08-01T15:00:00,1941A,109.4259,34.5023,渭南市,高新一小,颗粒物(PM10),51,52,60,17,34,154,153,125,125,8,18,4,5,0.2,0.3
2022-08-01T15:00:00,1943A,102.1725,38.5339,金昌市,新川苑,,39,30,90,6,23,137,124,118,111,7,10,8,8,0.6,0.6
2022-08-01T15:00:00,1944A,102.1692,38.5167,金昌市,天庆家园,,39,25,71,3,15,136,124,111,110,5,8,8,14,0.6,0.7
2022-08-01T15:00:00,1945A,98.2908,39.7711,嘉峪关市,气象局,颗粒物(PM10),170,290,205,90,57,140,122,116,114,5,8,2,2,0.5,0.5
2022-08-01T15:00:00,1947A,106.3394,38.817,石嘴山市,沙湖旅游区(对照点),"颗粒物(PM10),臭氧1小时",55,60,57,10,21,189,164,130,130,8,13,27,29,0.4,0.5
2022-08-01T15:00:00,1948A,106.3668,39.0145,石嘴山市,大武口朝阳西街,,47,45,55,22,26,161,150,97,97,12,15,7,12,0.7,0.8
2022-08-01T15:00:00,1949A,106.7704,39.2282,石嘴山市,惠农南大街,颗粒物(PM10),56,62,46,26,22,163,150,112,112,10,14,12,12,0.7,0.6
2022-08-01T15:00:00,1950A,106.7099,39.1325,石嘴山市,红果子镇惠新街,颗粒物(PM10),57,64,65,26,26,160,160,124,124,10,17,10,16,0.4,0.5
2022-08-01T15:00:00,1951A,84.895,45.6094,克拉玛依市,长征新村,,38,17,18,7,6,122,121,98,98,3,7,8,8,0.2,0.2
2022-08-01T15:00:00,1952A,84.8988,45.5893,克拉玛依市,南林小区,,37,11,18,2,12,122,118,93,93,12,14,9,9,0.3,0.4
2022-08-01T15:00:00,1953A,85.1186,45.6886,克拉玛依市,白碱滩区,,,,,,,,,,,,,,,,
2022-08-01T15:00:00,1954A,84.905,44.3396,克拉玛依市,独山子区,,40,13,13,8,9,132,127,102,102,5,8,9,9,0.5,0.6
2022-08-01T15:00:00,1955A,85.6979,46.098,克拉玛依市,乌尔禾区商贸楼,,36,4,17,2,7,115,115,104,86,2,5,12,12,0.2,0.2
2022-08-01T15:00:00,1956A,86.1472,41.7538,巴音郭楞州,孔雀公园,颗粒物(PM10),59,68,132,20,35,124,122,106,106,7,10,3,3,0.2,0.2
2022-08-01T15:00:00,1957A,86.1972,41.7166,巴音郭楞州,棉纺厂,颗粒物(PM10),64,78,139,28,47,129,111,96,96,5,12,4,4,0.3,0.2
2022-08-01T15:00:00,1958A,86.2357,41.7173,巴音郭楞州,经济开发区,,48,48,118,31,35,136,118,108,106,2,5,4,5,0.2,0.2
2022-08-01T15:00:00,1959A,118.746,36.881,寿光市,监测站,,,,,,,,,,,,,,,,
2022-08-01T15:00:00,1960A,118.780,36.864,寿光市,世纪学校,,,,,,,,,,,,,,,,
2022-08-01T15:00:00,1961A,117.532,36.6868,济南市,东山小学,臭氧1小时,90,54,52,34,18,192,192,108,108,11,29,11,7,0.7,0.5
2022-08-01T15:00:00,1962A,117.541,36.710,章丘市,明水开发区,,,,,,,,,,,,,,,,
2022-08-01T15:00:00,1963A,120.610,36.440,即墨市,环保局子站,,,,,,,,,,,,,,,,
2022-08-01T15:00:00,1964A,120.470,36.390,即墨市,开发区子站,,,,,,,,,,,,,,,,
2022-08-01T15:00:00,1965A,120.005,35.878,胶南市,JN子站,,,,,,,,,,,,,,,,
2022-08-01T15:00:00,1966A,120.0405,35.8735,青岛市,黄岛区4号,,33,17,22,12,7,106,103,80,80,8,16,4,4,0.6,0.6
2022-08-01T15:00:00,1967A,120.008,36.283,胶州市,胶州环保局,,,,,,,,,,,,,,,,
2022-08-01T15:00:00,1968A,120.014,36.253,胶州市,胶州一中,,,,,,,,,,,,,,,,
2022-08-01T15:00:00,1969A,120.537,36.865,莱西市,环保局子站,,,,,,,,,,,,,,,,
2022-08-01T15:00:00,1970A,120.515,36.885,莱西市,人民广场子站,,,,,,,,,,,,,,,,
2022-08-01T15:00:00,1971A,119.952,36.792,平度市,1号,,,,,,,,,,,,,,,,
2022-08-01T15:00:00,1972A,119.976,36.799,平度市,2号,,,,,,,,,,,,,,,,
2022-08-01T15:00:00,1973A,120.747,37.825,蓬莱市,蓬莱环保局,,,,,,,,,,,,,,,,
2022-08-01T15:00:00,1974A,120.773,37.809,蓬莱市,蓬莱博物馆,,,,,,,,,,,,,,,,
2022-08-01T15:00:00,1975A,120.399,37.374,招远市,招远环保局,,,,,,,,,,,,,,,,
2022-08-01T15:00:00,1976A,120.394,37.364,招远市,招远教育局,,,,,,,,,,,,,,,,
2022-08-01T15:00:00,1977A,119.941,37.177,莱州市,莱州环保局,,,,,,,,,,,,,,,,
2022-08-01T15:00:00,1978A,119.959,37.180,莱州市,莱州外经委,,,,,,,,,,,,,,,,
2022-08-01T15:00:00,1979A,122.471,37.154,荣成市,荣成市环保局办公楼,,,,,,,,,,,,,,,,
2022-08-01T15:00:00,1980A,122.410,37.161,荣成市,山东成山轮胎公司,,,,,,,,,,,,,,,,
2022-08-01T15:00:00,1981A,122.038,37.197,文登市,文登市环保局,,,,,,,,,,,,,,,,
2022-08-01T15:00:00,1982A,122.0693,37.2174,威海市,文登开发区,,15,5,8,2,4,58,48,41,41,7,11,4,4,0.1,0.2
2022-08-01T15:00:00,1983A,121.531,36.913,乳山市,乳山市环保局,,,,,,,,,,,,,,,,
2022-08-01T15:00:00,1984A,121.544,36.907,乳山市,乳山市气象局,,,,,,,,,,,,,,,,
2022-08-01T15:00:00,1985A,120.636,31.155,吴江市,吴江市环保局,,,,,,,,,,,,,,,,
2022-08-01T15:00:00,1986A,120.635,31.170,吴江市,教师进修学校,,,,,,,,,,,,,,,,
2022-08-01T15:00:00,1987A,120.658,31.172,吴江市,吴江开发区,,,,,,,,,,,,,,,,
2022-08-01T15:00:00,1988A,120.953,31.388,昆山市,昆山实验小学,,,,,,,,,,,,,,,,
2022-08-01T15:00:00,1989A,120.999,31.381,昆山市,震川中学,,,,,,,,,,,,,,,,
2022-08-01T15:00:00,1990A,120.758,31.670,常熟市,海虞子站,,,,,,,,,,,,,,,,
2022-08-01T15:00:00,1991A,120.721,31.671,常熟市,兴福子站,,,,,,,,,,,,,,,,
2022-08-01T15:00:00,1992A,120.734,31.656,常熟市,菱塘子站,,,,,,,,,,,,,,,,
2022-08-01T15:00:00,1993A,120.526,31.874,张家港市,张家港市监测站,,,,,,,,,,,,,,,,
2022-08-01T15:00:00,1994A,120.550,31.882,张家港市,城北小学,,,,,,,,,,,,,,,,
2022-08-01T15:00:00,1995A,121.115,31.453,太仓市,太仓市监测站,,,,,,,,,,,,,,,,
2022-08-01T15:00:00,1996A,121.140,31.422,太仓市,科教新城实小,,,,,,,,,,,,,,,,
2022-08-01T15:00:00,1997A,119.146,31.955,句容市,消防指挥中心,,,,,,,,,,,,,,,,
2022-08-01T15:00:00,1998A,119.180,31.955,句容市,房家坝,,,,,,,,,,,,,,,,
2022-08-01T15:00:00,1999A,120.268,31.920,江阴市,虹桥邮政,,,,,,,,,,,,,,,,
2022-08-01T15:00:00,2000A,120.237,31.909,江阴市,五星公园,,,,,,,,,,,,,,,,
2022-08-01T15:00:00,2001A,120.302,31.920,江阴市,第二实验小学,,,,,,,,,,,,,,,,
2022-08-01T15:00:00,2002A,119.818,31.354,宜兴市,宜兴市环保局,,,,,,,,,,,,,,,,
2022-08-01T15:00:00,2003A,119.794,31.371,宜兴市,宜园,,,,,,,,,,,,,,,,
2022-08-01T15:00:00,2004A,119.579,31.751,金坛市,金坛市环境监测站,,,,,,,,,,,,,,,,
2022-08-01T15:00:00,2005A,119.579,31.737,金坛市,金坛市自来水公司,,,,,,,,,,,,,,,,
2022-08-01T15:00:00,2006A,119.460,31.400,溧阳市,溧阳市东门子站,,,,,,,,,,,,,,,,
2022-08-01T15:00:00,2007A,119.438,31.317,溧阳市,燕山子站,,,,,,,,,,,,,,,,
2022-08-01T15:00:00,2008A,121.173,31.896,海门市,海门市监测站,,,,,,,,,,,,,,,,
2022-08-01T15:00:00,2009A,121.1518,31.89708,海门市,社会福利院,,,,,,,,,,,,,,,,
2022-08-01T15:00:00,2010A,119.7183,30.2366,临安市,市政府,,,,,,,,,,,,,,,,
2022-08-01T15:00:00,2011A,119.6942,30.2311,临安市,四中,,,,,,,,,,,,,,,,
2022-08-01T15:00:00,2012A,119.954,30.054,富阳市,监测站,,,,,,,,,,,,,,,,
2022-08-01T15:00:00,2013A,119.946,30.049,富阳市,富春二小,,,,,,,,,,,,,,,,
2022-08-01T15:00:00,2014A,120.091,29.305,义乌市,江东,,,,,,,,,,,,,,,,
2022-08-01T15:00:00,2015A,120.040,29.334,义乌市,北苑,,,,,,,,,,,,,,,,
2022-08-01T15:00:00,2016A,120.251,29.719,诸暨市,图书馆,,,,,,,,,,,,,,,,
2022-08-01T15:00:00,2017A,120.209,29.732,诸暨市,富林印务,,,,,,,,,,,,,,,,
2022-08-01T15:00:00,2018A,121.989,39.625,瓦房店市,抱龙山庄,,,,,,,,,,,,,,,,
2022-08-01T15:00:00,2019A,122.011,39.617,瓦房店市,东山公园,,,,,,,,,,,,,,,,
2022-08-01T15:00:00,2031A,113.1817,27.9958,株洲市,云田中学,细颗粒物(PM2.5),52,51,39,36,27,166,157,78,78,5,12,6,3,0.7,0.8
2022-08-01T15:00:00,2054A,114.1099,32.1059,信阳市,平桥分局,,45,31,48,17,25,144,144,106,106,5,11,7,6,0.5,0.7
2022-08-01T15:00:00,2064A,113.9956,32.1271,信阳市,南湾水厂,,,17,32,20,22,143,143,112,112,3,6,,6,0.4,0.5
2022-08-01T15:00:00,2065A,114.0775,32.1195,信阳市,市酿酒公司,,46,17,32,21,25,147,147,106,106,4,11,9,9,0.5,0.6
2022-08-01T15:00:00,2066A,114.0609,32.1399,信阳市,审计局,,47,29,37,17,27,151,148,111,111,4,9,8,7,0.6,0.7
2022-08-01T15:00:00,2067A,114.6613,33.6128,周口市,市环境监测站,,42,42,45,22,21,132,123,113,113,5,12,4,5,0.3,0.4
2022-08-01T15:00:00,2068A,114.6758,33.6347,周口市,周口师范,颗粒物(PM10),51,51,42,26,20,132,124,116,116,6,13,1,2,0.5,0.5
2022-08-01T15:00:00,2069A,114.6546,33.5979,周口市,市运管处,,47,47,49,23,22,130,123,110,110,4,18,2,3,0.6,0.7
2022-08-01T15:00:00,2070A,114.6369,33.6406,周口市,川汇区环保局,,40,36,45,24,23,132,126,117,117,4,15,2,4,0.4,0.5
2022-08-01T15:00:00,2075A,117.6336,24.4674,漳州市,九湖(对照点),,,,,,,,,,,,,,,,
2022-08-01T15:00:00,2160A,112.85,35.5051,晋城市,自来水公司,,38,32,51,19,25,156,120,106,100,4,8,3,4,0.3,0.5
2022-08-01T15:00:00,2161A,112.8318,35.4936,晋城市,白云商贸,,41,18,38,14,23,165,129,112,112,5,9,2,3,0.6,0.7
2022-08-01T15:00:00,2162A,112.8508,35.4887,晋城市,市环保局,,40,29,43,24,31,164,126,111,108,5,10,1,2,0.3,0.5
2022-08-01T15:00:00,2163A,112.8676,35.4897,晋城市,技术学院,,37,27,42,12,20,154,118,105,100,5,10,3,2,0.2,0.4
2022-08-01T15:00:00,2164A,112.8271,35.4828,晋城市,泽州一中,,,,,,,,,,,,,,,,
2022-08-01T15:00:00,2165A,112.8453,35.546,晋城市,白马寺 (对照点),,,,,,,,,,,,,,,,
2022-08-01T15:00:00,2166A,112.4397,39.3522,朔州市,平朔,臭氧1小时,55,44,58,28,35,181,164,148,148,8,16,5,8,0.8,0.9
2022-08-01T15:00:00,2167A,112.4575,39.3617,朔州市,朔唯,臭氧1小时,52,44,62,26,36,174,161,142,142,12,20,4,7,0.8,0.9
2022-08-01T15:00:00,2168A,112.4258,39.3197,朔州市,区政府,臭氧1小时,58,56,64,28,35,183,166,150,150,12,17,12,11,0.7,0.9
2022-08-01T15:00:00,2169A,112.4072,39.3278,朔州市,市环保局,颗粒物(PM10),54,57,64,22,29,181,161,144,144,10,16,11,9,0.6,0.7
2022-08-01T15:00:00,2170A,112.4272,39.3681,朔州市,市二中,颗粒物(PM10),54,57,71,26,37,186,158,145,145,7,15,5,6,0.6,0.8
2022-08-01T15:00:00,2171A,112.7532,37.6945,晋中市,锦纶小区,臭氧1小时,73,42,56,25,37,190,178,131,131,8,17,9,9,0.6,0.6
2022-08-01T15:00:00,2173A,112.7249,37.7067,晋中市,南都小区,臭氧1小时,60,36,58,25,43,196,168,139,139,7,17,7,8,0.5,0.6
2022-08-01T15:00:00,2174A,112.6991,37.6982,晋中市,榆次区政府,细颗粒物(PM2.5),52,30,57,36,39,173,148,129,129,3,13,6,7,0.5,0.7
2022-08-01T15:00:00,2175A,110.9956,35.0147,运城市,运城中学,,50,45,46,35,35,158,137,123,123,4,5,5,5,0.4,0.8
2022-08-01T15:00:00,2176A,111.0233,35.0611,运城市,禹都开发区,,,,,,,,,,,,,,,,
2022-08-01T15:00:00,2178A,110.9686,35.0303,运城市,地区技校,,45,44,46,23,28,163,142,126,126,3,5,5,5,0.5,0.6
2022-08-01T15:00:00,2179A,111.0414,35.1147,运城市,空港新区,,48,48,61,28,36,154,146,126,126,5,13,7,8,0.3,0.4
2022-08-01T15:00:00,2181A,112.7383,38.4519,忻州市,开发区,臭氧1小时,65,59,65,38,50,200,172,136,136,6,15,10,10,0.8,0.8
2022-08-01T15:00:00,2182A,112.7003,38.4928,忻州市,会展中心,臭氧1小时,75,64,61,36,39,193,180,129,129,7,20,10,10,0.5,0.6
2022-08-01T15:00:00,2183A,111.1406,37.5211,吕梁市,环保局,,47,44,85,24,41,172,149,112,112,5,35,4,5,0.4,0.6
2022-08-01T15:00:00,2185A,111.1297,37.5136,吕梁市,自来水公司,,46,39,91,25,49,174,145,113,113,7,28,4,7,0.4,0.6
2022-08-01T15:00:00,2186A,106.8288,39.6778,乌海市,聚英学校,,,,,,,,,,,,,,,,
2022-08-01T15:00:00,2187A,106.8174,39.6973,乌海市,市林业局,颗粒物(PM10),59,68,64,28,27,160,159,124,124,6,13,8,14,0.6,0.7
2022-08-01T15:00:00,2188A,106.7907,39.6667,乌海市,中海勃湾学校,臭氧1小时,54,49,51,15,22,168,163,131,131,9,15,12,16,0.7,0.6
2022-08-01T15:00:00,2191A,122.2532,43.6801,通辽市,艺术职业学校,,38,21,35,26,19,122,112,91,91,9,13,8,7,0.6,0.3
2022-08-01T15:00:00,2192A,119.7594,49.2261,呼伦贝尔市,区环保局,,29,21,29,19,18,124,92,89,89,5,13,4,4,0.2,0.3
2022-08-01T15:00:00,2194A,107.5936,40.916,巴彦淖尔市,秋林养殖基地(对照点),,,,,,,,,,,,,,,,
2022-08-01T15:00:00,2195A,107.4212,40.761,巴彦淖尔市,附二中,,50,50,52,19,23,148,113,92,83,6,8,4,3,0.8,0.7
2022-08-01T15:00:00,2196A,107.37,40.7372,巴彦淖尔市,市环保大楼,颗粒物(PM10),72,93,67,37,31,149,95,106,86,7,9,4,4,1.0,1
2022-08-01T15:00:00,2197A,113.1306,40.9923,乌兰察布市,集宁新区,臭氧1小时,58,46,49,23,28,188,166,132,132,7,24,13,16,0.5,0.5
2022-08-01T15:00:00,2200A,122.0392,46.0656,兴安盟,胜华新制药厂,,46,13,43,7,16,147,147,118,118,4,11,3,2,0.2,0.3
2022-08-01T15:00:00,2201A,121.9504,46.0741,兴安盟,科右前旗环保局,,46,25,19,10,16,146,146,115,115,6,10,5,4,0.2,0.3
2022-08-01T15:00:00,2202A,116.1042,43.9317,锡林郭勒盟,市环保监测站,,39,10,24,2,7,130,123,108,108,2,17,11,11,0.2,0.2
2022-08-01T15:00:00,2203A,116.0781,43.9311,锡林郭勒盟,市政府,,39,7,19,6,7,127,124,107,107,4,22,8,8,0.2,0.2
2022-08-01T15:00:00,2204A,105.6467,38.8363,阿拉善盟,西城区西花园(对照点),颗粒物(PM10),53,56,62,21,25,172,140,123,121,6,7,4,4,0.4,0.4
2022-08-01T15:00:00,2205A,105.6985,38.8411,阿拉善盟,蒙二幼,,44,38,67,15,28,174,139,128,122,5,6,8,8,0.5,0.5
2022-08-01T15:00:00,2206A,105.724,38.8516,阿拉善盟,环保局新楼,,42,31,35,23,22,168,133,130,118,10,8,6,7,0.4,0.4
2022-08-01T15:00:00,2207A,121.6094,41.998,阜新市,工业园区,,,31,36,24,20,109,108,90,90,,15,9,3,0.6,0.6
2022-08-01T15:00:00,2208A,121.6697,42.0279,阜新市,长青街,,45,45,43,31,21,142,142,106,106,6,13,6,12,0.6,0.5
2022-08-01T15:00:00,2209A,121.6673,42.0705,阜新市,农业园区,,39,38,31,27,21,124,124,99,99,5,10,7,12,0.8,0.7
2022-08-01T15:00:00,2210A,121.6717,42.0224,阜新市,东苑,,46,39,52,32,26,134,134,98,98,8,14,5,13,0.5,0.4
2022-08-01T15:00:00,2211A,121.6506,42.0498,阜新市,玉龙新城,,40,39,33,24,15,128,128,101,101,5,13,5,8,0.7,0.5
2022-08-01T15:00:00,2212A,123.2,41.1953,辽阳市,宏伟区,,37,25,23,21,14,118,118,75,75,5,8,6,6,0.6,0.5
2022-08-01T15:00:00,2213A,123.1683,41.2495,辽阳市,新华园,颗粒物(PM10),67,83,35,40,15,160,160,108,108,11,16,10,8,1.2,0.7
2022-08-01T15:00:00,2214A,123.2354,41.2639,辽阳市,滨河路,,,76,39,39,16,170,159,112,112,7,12,11,8,,0.3
2022-08-01T15:00:00,2215A,123.149,41.2991,辽阳市,铁西工业园,,46,37,46,32,23,140,140,82,82,6,15,4,4,1.2,0.9
2022-08-01T15:00:00,2216A,123.8139,42.3022,铁岭市,汇工街西,臭氧1小时,77,55,42,35,21,181,181,117,117,7,13,7,10,0.6,0.6
2022-08-01T15:00:00,2217A,123.8649,42.2923,铁岭市,水上乐园,,44,42,25,19,13,139,139,92,92,12,15,5,5,0.6,0.4
2022-08-01T15:00:00,2218A,123.8486,42.2867,铁岭市,银州路东段,,47,34,26,19,12,150,150,97,97,15,17,5,5,0.7,0.5
2022-08-01T15:00:00,2219A,123.7153,42.2217,铁岭市,金沙江路北,,50,44,28,24,15,159,159,105,105,13,19,5,6,0.8,0.7
2022-08-01T15:00:00,2220A,120.4318,41.5881,朝阳市,西梁,细颗粒物(PM2.5),54,36,40,38,25,116,116,90,90,5,9,5,7,0.8,0.7
2022-08-01T15:00:00,2221A,120.4521,41.5646,朝阳市,河畔小区,,36,29,40,24,19,120,115,98,98,4,6,7,7,0.6,0.5
2022-08-01T15:00:00,2222A,120.4176,41.5648,朝阳市,八里堡,,42,31,39,29,17,124,124,94,94,8,13,5,5,0.4,0.5
2022-08-01T15:00:00,2223A,120.3806,41.5969,朝阳市,农业园区,,45,41,41,31,37,127,126,93,93,6,12,8,8,0.7,0.7
2022-08-01T15:00:00,2225A,124.4002,43.1713,四平市,一商场,,31,30,30,16,18,110,98,84,84,3,10,2,4,0.5,0.5
2022-08-01T15:00:00,2226A,124.388,43.193,四平市,境园,,42,27,24,29,16,107,86,74,74,4,10,8,9,0.5,0.5
2022-08-01T15:00:00,2227A,125.1358,42.8845,辽源市,环保局,,23,16,24,3,9,80,71,62,62,2,8,5,7,0.5,0.5
2022-08-01T15:00:00,2229A,125.9358,41.7173,通化市,光明,,19,14,28,12,12,77,59,46,46,5,12,9,11,0.5,0.7
2022-08-01T15:00:00,2230A,125.9446,41.7325,通化市,铁路,,20,7,27,2,13,90,64,51,51,19,17,10,11,0.4,0.7
2022-08-01T15:00:00,2231A,126.4219,41.9171,白山市,喜丰,,44,44,34,12,14,78,78,49,49,6,11,12,25,0.8,0.9
2022-08-01T15:00:00,2232A,126.4077,41.9419,白山市,环保局,,26,14,40,8,14,82,82,54,54,7,14,8,28,0.6,0.7
2022-08-01T15:00:00,2233A,124.8006,45.1214,松原市,江南,,28,28,30,14,17,98,85,73,73,4,7,4,3,0.4,0.4
2022-08-01T15:00:00,2234A,124.7965,45.1722,松原市,江北,,30,7,22,15,12,110,93,82,82,6,8,2,2,0.3,0.4
2022-08-01T15:00:00,2235A,122.7911,45.6077,白城市,洮北区环保局,,31,31,35,8,7,105,95,81,81,5,10,3,4,0.2,0.3
2022-08-01T15:00:00,2236A,122.8738,45.5725,白城市,市环保局,,32,23,36,6,13,108,101,91,91,5,11,3,4,0.3,0.4
2022-08-01T15:00:00,2237A,129.47,42.8883,延边朝鲜族自治州,妇幼医院,,23,19,16,8,6,71,71,40,40,5,9,7,7,0.3,0.3
2022-08-01T15:00:00,2238A,129.5055,42.9108,延边朝鲜族自治州,延边医院,,30,30,38,14,14,68,68,38,38,13,18,6,6,0.4,0.4
2022-08-01T15:00:00,2239A,129.3964,42.8881,延边朝鲜族自治州,朝阳川镇医院,,17,17,15,2,3,35,35,19,19,5,7,7,7,0.3,0.3
2022-08-01T15:00:00,2240A,130.9762,45.3001,鸡西市,环保局,,42,42,28,6,12,80,48,49,49,18,16,2,3,0.0,0.1
2022-08-01T15:00:00,2243A,130.9429,45.3039,鸡西市,第一中学,,45,45,35,5,10,90,57,52,52,8,11,3,4,0.1,0.2
2022-08-01T15:00:00,2244A,130.2537,47.3416,鹤岗市,哈啤分公司,,35,7,13,8,8,111,111,98,98,7,13,7,7,0.3,0.4
2022-08-01T15:00:00,2245A,130.2684,47.3086,鹤岗市,斯达机电,,,6,16,5,7,102,82,90,90,,8,19,9,0.3,0.3
2022-08-01T15:00:00,2246A,130.3114,47.3388,鹤岗市,东山纸板厂,,34,8,30,6,11,106,106,93,93,6,13,8,8,0.3,0.4
2022-08-01T15:00:00,2247A,130.1097,47.3382,鹤岗市,五号水库(对照点),,,9,19,,,94,88,83,83,6,10,1,3,0.1,0.1
2022-08-01T15:00:00,2248A,131.1511,46.6937,双鸭山市,双合村,,33,13,24,4,11,105,105,84,84,10,13,7,6,0.6,0.4
2022-08-01T15:00:00,2249A,131.1652,46.6191,双鸭山市,南小市,,25,24,27,0,10,95,80,70,70,4,9,4,3,0.0,0.1
2022-08-01T15:00:00,2250A,131.1524,46.6554,双鸭山市,环保局,,30,15,18,7,7,109,95,88,88,8,10,4,4,0.4,0.3
2022-08-01T15:00:00,2251A,131.12,46.5656,双鸭山市,苗圃(对照点),细颗粒物(PM2.5),59,0,22,42,17,110,98,74,74,6,5,2,3,0.4,0.4
2022-08-01T15:00:00,2252A,128.5159,47.4311,伊春市,环保局,,27,6,13,10,10,102,84,99,75,8,11,3,4,0.1,0.2
2022-08-01T15:00:00,2253A,128.9102,47.7412,伊春市,电力嘉园,,30,4,11,4,5,97,93,96,81,2,8,5,5,0.4,0.4
2022-08-01T15:00:00,2254A,129.5029,48.471,伊春市,汤旺河国家公园(对照点),,29,5,15,2,6,91,91,78,60,1,1,5,5,0.2,0.3
2022-08-01T15:00:00,2255A,130.2751,46.8028,佳木斯市,佳纺,,37,16,38,6,14,121,116,96,96,6,15,5,7,0.4,0.5
2022-08-01T15:00:00,2256A,130.3995,46.8307,佳木斯市,发电厂,,36,6,37,5,19,114,114,91,91,6,16,4,4,0.3,0.4
2022-08-01T15:00:00,2257A,130.3258,46.7975,佳木斯市,环保局,,37,19,30,8,17,118,118,89,89,5,13,1,1,0.5,0.4
2022-08-01T15:00:00,2258A,130.3648,46.8032,佳木斯市,十一中,,35,18,31,6,16,111,111,88,88,13,17,4,4,0.3,0.4
2022-08-01T15:00:00,2259A,130.3794,46.7588,佳木斯市,四丰(对照点),,34,9,27,6,16,108,106,86,86,6,12,1,1,0.3,0.3
2022-08-01T15:00:00,2262A,131.0518,45.8751,七台河市,新一中(对照点),,35,9,18,6,12,142,110,81,81,6,12,7,7,0.7,0.7
2022-08-01T15:00:00,2263A,127.4833,50.2524,黑河市,交通局,,19,16,13,2,10,94,59,70,62,7,9,6,7,0.4,0.3
2022-08-01T15:00:00,2264A,127.5144,50.2341,黑河市,环保局,,20,9,14,5,7,106,63,78,64,4,7,5,8,0.4,0.5
2022-08-01T15:00:00,2265A,127.5291,50.2472,黑河市,大黑河岛(对照点),,20,2,8,6,7,112,64,78,66,3,4,9,10,1.9,1.9
2022-08-01T15:00:00,2266A,126.9785,46.6365,绥化市,人和东街,,39,30,25,9,13,133,124,109,109,4,14,6,7,0.3,0.3
2022-08-01T15:00:00,2267A,126.964,46.6528,绥化市,党政办公中心,,43,11,17,8,12,143,135,119,119,5,12,6,6,0.3,0.3
2022-08-01T15:00:00,2269A,124.1069,50.4097,大兴安岭地区,科技局,,24,6,4,2,4,91,75,53,53,4,4,4,3,0.3,0.3
2022-08-01T15:00:00,2270A,117.396,32.939,蚌埠市,工人疗养院,,42,30,35,29,20,131,130,97,97,2,14,8,9,0.2,0.2
2022-08-01T15:00:00,2271A,117.3605,32.9427,蚌埠市,百货大楼,,44,3,28,15,14,138,138,81,81,4,16,14,9,0.1,0.1
2022-08-01T15:00:00,2273A,117.4185,32.8911,蚌埠市,蚌埠学院,,35,29,31,22,16,125,111,90,90,2,16,10,11,0.3,0.3
2022-08-01T15:00:00,2274A,117.3533,32.9673,蚌埠市,淮上区政府,,41,22,33,17,16,130,130,87,87,1,17,8,9,0.2,0.2
2022-08-01T15:00:00,2275A,117.3145,32.8977,蚌埠市,高新区,,36,36,33,24,22,138,103,92,92,6,20,6,8,0.4,0.5
2022-08-01T15:00:00,2277A,116.8305,32.7727,淮南市,潘集区政府,,39,32,33,23,22,123,123,87,87,7,15,7,6,0.2,0.1
2022-08-01T15:00:00,2278A,117.0067,32.6524,淮南市,师范学院,,42,42,36,26,18,121,116,90,90,2,7,6,7,0.2,0.1
2022-08-01T15:00:00,2279A,116.8569,32.5951,淮南市,谢家集区政府,,35,23,26,12,17,109,109,84,84,3,12,5,10,0.1,0.1
2022-08-01T15:00:00,2280A,116.8281,32.633,淮南市,八公山区政府,,36,27,27,23,20,115,115,83,83,3,8,10,12,0.2,0.2
2022-08-01T15:00:00,2281A,116.6325,32.6201,淮南市,焦岗湖风景区管理处(对照点),,34,26,34,7,13,106,106,84,84,4,13,8,9,0.1,0.1
2022-08-01T15:00:00,2282A,116.8004,33.975,淮北市,监测站,,41,12,38,24,22,138,129,103,103,2,11,6,7,0.5,0.5
2022-08-01T15:00:00,2283A,116.8091,33.9007,淮北市,烈山区政府,,39,21,54,15,26,138,124,105,105,2,23,5,4,0.5,0.7
2022-08-01T15:00:00,2284A,116.7856,33.9477,淮北市,职业技术学院,,37,31,46,21,24,125,116,103,103,2,19,6,8,0.5,0.5
2022-08-01T15:00:00,2285A,117.8177,30.9412,铜陵市,市第四中学,,45,45,39,21,24,135,130,94,94,10,25,5,5,0.3,0.5
2022-08-01T15:00:00,2286A,117.8059,30.9273,铜陵市,市公路局,,38,38,47,1,21,126,119,87,87,6,18,5,5,0.5,0.6
2022-08-01T15:00:00,2287A,117.7807,30.9413,铜陵市,市新民污水厂,,40,36,40,22,22,128,128,85,85,5,20,10,7,0.3,0.4
2022-08-01T15:00:00,2288A,117.7439,30.8792,铜陵市,市第九中学,颗粒物(PM10),53,55,50,27,24,128,128,88,88,11,22,6,11,0.7,0.8
2022-08-01T15:00:00,2289A,117.846,30.9413,铜陵市,车站新区,,44,44,47,15,23,130,113,84,84,6,18,4,3,0.4,0.5
2022-08-01T15:00:00,2290A,117.8483,30.97,铜陵市,市职教基地,,,28,39,15,18,126,108,90,90,8,17,,4,0.5,0.7
2022-08-01T15:00:00,2291A,117.0809,30.5177,安庆市,环科院,臭氧1小时,67,16,28,24,21,173,173,129,129,5,11,5,5,0.8,0.8
2022-08-01T15:00:00,2292A,117.0331,30.5119,安庆市,马山宾馆,臭氧1小时,64,24,29,19,20,176,171,130,130,12,14,5,6,0.7,0.8
2022-08-01T15:00:00,2294A,116.9896,30.6145,安庆市,安庆大学,臭氧1小时,63,32,27,21,19,209,170,139,139,6,9,6,4,0.5,0.5
2022-08-01T15:00:00,2295A,118.2903,29.6963,黄山市,延安路89号,,36,24,23,25,10,122,113,91,91,2,4,6,6,0.2,0.3
2022-08-01T15:00:00,2296A,118.327,29.7178,黄山市,黄山东路89号,,36,28,23,12,8,121,115,90,90,1,5,5,5,0.4,0.5
2022-08-01T15:00:00,2297A,118.1371,30.2756,黄山市,黄山区政府5号楼,,36,25,32,2,14,124,114,88,88,2,4,6,6,0.5,0.5
2022-08-01T15:00:00,2298A,118.3093,32.3153,滁州市,老年大学,,31,26,22,10,10,118,98,88,88,8,12,10,8,0.1,0.1
2022-08-01T15:00:00,2299A,118.3244,32.2786,滁州市,人大宾馆,,39,27,12,17,8,136,122,101,101,11,13,5,6,0.2,0.2
2022-08-01T15:00:00,2301A,115.8277,32.8929,阜阳市,市监测站,,,24,22,13,12,130,130,102,102,10,10,7,8,,0.4
2022-08-01T15:00:00,2303A,115.8554,32.8605,阜阳市,开发区,,39,31,26,18,13,124,124,95,95,6,10,4,5,0.4,0.4
2022-08-01T15:00:00,2306A,116.989,33.6306,宿州市,火车站,,,,,,,,,,,,,,,,
2022-08-01T15:00:00,2307A,116.5079,31.737,六安市,监测大楼,,41,22,29,18,17,130,130,90,90,2,16,5,7,0.3,0.4
2022-08-01T15:00:00,2308A,116.4738,31.7643,六安市,皖西学院,,41,17,27,14,16,130,130,96,96,2,10,10,10,0.3,0.9
2022-08-01T15:00:00,2309A,116.4996,31.7905,六安市,朝阳厂,,41,21,28,18,20,129,129,88,88,1,12,9,9,0.4,0.4
2022-08-01T15:00:00,2310A,116.5567,31.7886,六安市,开发区,,43,15,35,16,20,136,136,90,90,1,17,9,8,0.3,0.3
2022-08-01T15:00:00,2311A,115.8072,33.8399,亳州市,污水处理厂,,38,16,27,7,15,122,120,103,103,5,11,6,8,0.3,0.4
2022-08-01T15:00:00,2312A,115.7789,33.8518,亳州市,三国揽胜宫,,41,23,33,10,16,130,130,110,110,2,6,6,8,0.4,0.4
2022-08-01T15:00:00,2314A,117.47,30.6618,池州市,池州学院,臭氧1小时,57,36,31,26,21,165,165,120,120,3,8,7,7,0.5,0.5
2022-08-01T15:00:00,2315A,117.4974,30.6539,池州市,平天湖(对照点),,,,,,,,,,,,,,,,
2022-08-01T15:00:00,2316A,118.7581,30.9454,宣城市,鳌峰子站,,38,35,34,26,24,131,121,98,98,7,12,5,5,0.4,0.5
2022-08-01T15:00:00,2317A,118.7385,30.9743,宣城市,敬亭山子站,,40,40,35,24,24,132,125,98,98,13,14,8,7,0.4,0.5
2022-08-01T15:00:00,2318A,118.7173,30.9427,宣城市,开发区子站,,36,34,29,25,22,131,114,94,94,7,13,5,5,0.4,0.5
2022-08-01T15:00:00,2319A,119.0141,25.4325,莆田市,荔城区仓后路,颗粒物(PM10),57,64,55,12,33,219,106,139,139,14,16,3,4,0.6,0.8
2022-08-01T15:00:00,2320A,119.0015,25.4553,莆田市,莆田市监测站,,49,49,57,0,26,236,110,146,146,6,14,5,6,0.6,0.8
2022-08-01T15:00:00,2321A,119.1119,25.4561,莆田市,涵江区六中,,34,31,60,11,40,214,108,145,145,6,15,6,7,0.6,0.7
2022-08-01T15:00:00,2322A,119.1013,25.3215,莆田市,秀屿区政府,臭氧1小时,63,48,53,19,42,196,170,151,151,5,7,6,7,0.8,0.8
2022-08-01T15:00:00,2323A,118.981,25.4792,莆田市,东圳水库(对照点),,,,,,,,,,,,,,,,
2022-08-01T15:00:00,2324A,117.6211,26.2625,三明市,三钢,,39,29,35,27,23,146,112,102,102,5,16,2,6,0.4,0.6
2022-08-01T15:00:00,2325A,117.635,26.2714,三明市,三明二中,,34,25,32,23,22,140,107,101,101,4,14,4,7,0.5,0.8
2022-08-01T15:00:00,2326A,117.6028,26.2378,三明市,三元区政府,,,,40,,28,61,,60,,,19,,7,,0.9
2022-08-01T15:00:00,2327A,117.7275,26.3108,三明市,洋溪(对照点),,,,,,,,,,,,,,,,
2022-08-01T15:00:00,2331A,118.0966,26.6761,南平市,茫荡山(对照点),,,,,,,,,,,,,,,,
2022-08-01T15:00:00,2332A,118.1681,26.6369,南平市,南平市监测站,,32,25,28,21,18,122,102,94,94,3,9,6,7,0.3,0.4
2022-08-01T15:00:00,2333A,118.1825,26.6489,南平市,南平铝业有限公司,细颗粒物(PM2.5),65,25,29,47,22,112,101,88,88,2,10,4,8,0.5,0.6
2022-08-01T15:00:00,2334A,118.1756,26.6272,南平市,南平七中,,32,27,30,19,22,116,100,90,90,2,8,7,7,0.5,0.5
2022-08-01T15:00:00,2335A,117.0189,25.1181,龙岩市,龙岩师专(对照点),,,,,,,,,,,,,,,,
2022-08-01T15:00:00,2336A,117.0217,25.1033,龙岩市,龙岩市监测站,,30,20,32,18,17,123,93,76,76,8,22,6,8,0.5,0.7
2022-08-01T15:00:00,2337A,117.0258,25.0661,龙岩市,闽西职业技术学院,,31,20,34,20,17,120,99,72,72,5,20,5,11,0.5,0.6
2022-08-01T15:00:00,2338A,117.0196,25.0306,龙岩市,龙岩学院,,35,35,26,20,17,116,104,80,80,5,10,4,4,0.3,0.4
2022-08-01T15:00:00,2339A,119.5001,26.6946,宁德市,金涵水库(对照点),,,,,,,,,,,,,,,,
2022-08-01T15:00:00,2341A,119.5388,26.6612,宁德市,宁德市监测站,,49,49,36,26,20,119,100,88,88,8,11,8,7,0.5,0.7
2022-08-01T15:00:00,2342A,117.3102,29.3867,景德镇市,王港中学(对照点),,46,31,38,20,22,160,145,124,124,3,8,6,5,0.4,0.4
2022-08-01T15:00:00,2343A,117.2117,29.2933,景德镇市,老干部活动中心,臭氧1小时,62,57,52,20,25,171,169,119,119,9,15,9,8,0.5,0.6
2022-08-01T15:00:00,2344A,117.1894,29.2789,景德镇市,兽医站,,42,42,41,23,23,171,134,116,116,8,16,5,8,0.7,0.8
2022-08-01T15:00:00,2345A,117.1547,29.2617,景德镇市,台达陶瓷,,39,36,44,27,23,168,120,99,99,6,22,7,16,0.4,0.5
2022-08-01T15:00:00,2346A,117.2461,29.2956,景德镇市,陶研所,臭氧1小时,67,60,40,22,22,173,173,122,122,5,9,12,8,0.5,0.5
2022-08-01T15:00:00,2347A,114.0997,27.5002,萍乡市,武功山(对照点),,24,10,11,4,9,83,76,64,64,6,6,16,17,0.3,0.3
2022-08-01T15:00:00,2348A,113.8385,27.6434,萍乡市,中医院,,50,50,44,21,27,151,124,113,113,10,17,10,20,0.6,0.8
2022-08-01T15:00:00,2349A,113.8493,27.6253,萍乡市,市政府车库,,36,35,51,24,33,157,115,102,102,8,28,8,25,0.5,2
2022-08-01T15:00:00,2350A,113.8676,27.6435,萍乡市,市环保局,,39,29,43,24,33,170,122,117,117,8,18,8,28,0.5,0.9
2022-08-01T15:00:00,2351A,113.866,27.6198,萍乡市,安源区政府,,,88,42,,30,155,110,100,100,7,23,12,21,0.3,1.1
2022-08-01T15:00:00,2352A,115.0861,27.9317,新余市,北岗(对照点),,45,41,40,31,29,168,134,102,102,4,11,11,12,0.9,1
2022-08-01T15:00:00,2353A,114.9886,27.8431,新余市,飞宇,颗粒物(PM10),56,62,57,34,34,131,124,96,96,10,14,12,18,1.1,0.8
2022-08-01T15:00:00,2354A,114.9231,27.8246,新余市,第二水厂,细颗粒物(PM2.5),74,93,67,54,37,138,128,107,107,13,19,6,7,1.5,1.5
2022-08-01T15:00:00,2355A,114.9308,27.8036,新余市,市气象局,细颗粒物(PM2.5),59,53,60,42,39,122,115,86,86,10,19,4,10,0.7,1
2022-08-01T15:00:00,2357A,116.9822,28.1136,鹰潭市,龙虎山(对照点),,43,37,29,13,14,142,135,108,108,4,6,2,2,0.4,0.4
2022-08-01T15:00:00,2358A,117.0564,28.2642,鹰潭市,新监测站,,46,37,39,32,24,191,147,130,130,2,4,2,3,0.6,0.5
2022-08-01T15:00:00,2359A,117.0311,28.2475,鹰潭市,财苑宾馆,,46,35,40,16,19,161,145,122,122,2,7,4,3,0.3,0.4
2022-08-01T15:00:00,2360A,117.0222,28.2264,鹰潭市,体育馆,,49,43,39,28,21,157,154,121,121,1,6,1,1,0.5,0.4
2022-08-01T15:00:00,2361A,117.0017,28.2131,鹰潭市,三川水表,,44,38,41,9,16,149,139,117,117,1,9,3,2,0.5,0.4
2022-08-01T15:00:00,2362A,114.9017,25.9149,赣州市,通天岩(对照点),臭氧1小时,63,44,35,29,21,188,170,130,130,5,12,5,10,0.5,0.5
2022-08-01T15:00:00,2363A,114.9367,25.8664,赣州市,地委,,50,42,44,25,24,179,157,128,128,8,14,11,16,0.9,0.8
2022-08-01T15:00:00,2364A,114.9461,25.8481,赣州市,气象台,,48,38,42,16,28,186,153,132,132,5,13,8,14,0.4,0.7
2022-08-01T15:00:00,2365A,114.9322,25.8333,赣州市,市图书馆,臭氧1小时,55,36,42,28,26,186,164,137,137,10,17,3,13,0.9,1
2022-08-01T15:00:00,2366A,114.8905,25.8471,赣州市,华坚鞋城,臭氧1小时,68,64,46,15,23,207,174,142,142,35,17,5,15,0.8,0.8
