timepoint,stationcode,longitude,latitude,area,positionname,primarypollutant,aqi,pm10,pm10_24h,pm2_5,pm2_5_24h,o3,o3_24h,o3_8h,o3_8h_24h,no2,no2_24h,so2,so2_24h,co,co_24h
2023-08-17T20:00:00,1001A,116.3621,39.8784,北京市,万寿西宫,臭氧1小时,54,39,40,31,30,225,163,203,198,16,14,3,3,0.9,0.8
2023-08-17T20:00:00,1002A,116.2202,40.2915,北京市,定陵,,45,45,32,24,20,184,111,157,151,8,8,3,3,0.6,0.5
2023-08-17T20:00:00,1003A,116.4174,39.9289,北京市,东四,,50,44,38,27,26,236,160,215,210,18,16,2,2,0.9,0.7
2023-08-17T20:00:00,1004A,116.4072,39.8863,北京市,天坛,,40,36,37,28,28,215,82,192,174,15,15,3,2,0.8,0.6
2023-08-17T20:00:00,1005A,116.462,39.9365,北京市,农展馆,,49,44,43,26,28,238,155,216,210,23,20,1,2,1.1,0.8
2023-08-17T20:00:00,1006A,116.3392,39.9295,北京市,官园,臭氧1小时,82,42,39,24,25,247,185,224,222,19,15,1,2,0.7,0.6
2023-08-17T20:00:00,1007A,116.2878,39.9611,北京市,海淀万柳,颗粒物(PM10),51,51,39,24,24,221,139,188,184,24,17,1,2,0.7,0.5
2023-08-17T20:00:00,1008A,116.6636,40.135,北京市,顺义新城,臭氧1小时,57,53,38,30,24,227,165,214,210,14,13,1,2,0.7,0.5
2023-08-17T20:00:00,1009A,116.6275,40.3275,北京市,怀柔镇,颗粒物(PM10),52,53,32,32,20,199,112,181,175,14,10,3,3,0.5,0.5
2023-08-17T20:00:00,1010A,116.2296,40.217,北京市,昌平镇,,42,38,33,29,21,185,115,165,159,12,13,3,2,0.5,0.4
2023-08-17T20:00:00,1011A,116.3966,39.9821,北京市,奥体中心,臭氧1小时,55,48,35,25,24,218,164,194,194,27,21,3,2,0.8,0.6
2023-08-17T20:00:00,1012A,116.184,39.9136,北京市,古城,臭氧1小时,55,43,44,25,26,224,164,196,194,18,16,3,3,0.7,0.5
2023-08-17T20:00:00,1015A,117.1444,39.1661,天津市,勤俭道,臭氧1小时,121,62,50,40,36,290,241,269,269,20,18,10,9,1.2,1.2
2023-08-17T20:00:00,1017A,117.237,39.1082,天津市,大直沽八号路,颗粒物(PM10),64,77,57,40,35,259,129,219,212,57,26,5,5,1.3,1.4
2023-08-17T20:00:00,1018A,117.202,39.0927,天津市,前进道,臭氧1小时,93,64,52,35,32,272,194,239,239,25,24,9,9,1.1,1.3
2023-08-17T20:00:00,1019A,117.1837,39.2133,天津市,淮河道,臭氧1小时,97,79,60,40,40,265,197,244,242,37,21,8,6,2.2,1.5
2023-08-17T20:00:00,1021A,117.307,39.0877,天津市,跃进路,臭氧1小时,59,60,78,34,49,280,167,240,237,32,28,14,9,1.8,1.6
2023-08-17T20:00:00,1023A,117.707,39.0343,天津市,第四大街,,45,45,41,20,24,212,120,185,177,45,27,10,8,0.8,1.2
2023-08-17T20:00:00,1024A,117.457,38.8394,天津市,永明路,,50,46,47,29,30,234,159,210,203,15,17,5,7,0.7,0.9
2023-08-17T20:00:00,1026A,117.764,39.1587,天津市,汉北路,臭氧1小时,68,29,46,14,26,245,174,208,208,9,14,5,7,0.7,1.5
2023-08-17T20:00:00,1027A,117.157,38.9194,天津市,团泊洼,,45,32,45,19,29,256,144,222,216,19,22,3,4,0.9,1.1
2023-08-17T20:00:00,1029A,114.4422,38.0444,石家庄市,职工医院,,43,33,77,30,45,192,127,166,163,22,17,1,2,0.6,0.7
2023-08-17T20:00:00,1030A,114.6063,38.0266,石家庄市,高新区,,49,47,70,34,46,135,133,133,133,20,29,1,1,0.6,0.7
2023-08-17T20:00:00,1031A,114.4898,38.1328,石家庄市,西北水源,细颗粒物(PM2.5),68,58,91,49,51,187,90,152,143,24,20,3,3,0.9,0.8
2023-08-17T20:00:00,1032A,114.4586,38.0058,石家庄市,西南高教,,38,35,71,20,43,193,120,172,165,23,19,3,2,0.5,0.8
2023-08-17T20:00:00,1033A,114.5331,38.0178,石家庄市,世纪公园,,41,41,61,25,39,172,121,156,152,23,22,2,4,0.5,0.7
2023-08-17T20:00:00,1034A,114.509,38.0457,石家庄市,人民会堂,,43,36,81,17,43,191,135,172,167,23,20,2,2,0.6,0.7
2023-08-17T20:00:00,1035A,114.3524,37.8911,石家庄市,封龙山,臭氧1小时,58,43,82,25,40,201,166,200,177,8,11,3,2,0.9,1.3
2023-08-17T20:00:00,1037A,118.131,39.6363,唐山市,雷达站,颗粒物(PM10),60,69,65,35,39,273,154,223,218,38,31,3,11,0.8,1.7
2023-08-17T20:00:00,1038A,118.1725,39.6334,唐山市,物资局,,48,43,56,27,27,224,153,188,186,28,26,5,12,0.8,1.5
2023-08-17T20:00:00,1040A,118.1705,39.6506,唐山市,十二中,臭氧1小时,54,49,60,30,34,245,163,202,201,28,33,3,9,0.9,1.7
2023-08-17T20:00:00,1041A,118.1869,39.622,唐山市,小山,,49,48,52,19,25,219,154,183,182,24,27,2,8,0.8,1.5
2023-08-17T20:00:00,1042A,119.5134,39.8207,秦皇岛市,北戴河环保局,,47,32,34,25,11,190,150,172,170,11,29,4,4,0.3,0.2
2023-08-17T20:00:00,1043A,119.7493,40.0116,秦皇岛市,第一关,"颗粒物(PM10),细颗粒物(PM2.5)",54,57,39,38,18,172,123,157,153,23,50,3,2,0.6,0.5
2023-08-17T20:00:00,1044A,119.5897,39.9499,秦皇岛市,监测站,,42,42,38,22,16,162,129,146,143,20,31,6,6,0.9,0.7
2023-08-17T20:00:00,1046A,119.5251,39.9041,秦皇岛市,建设大厦,,42,42,47,25,18,165,128,154,149,16,34,2,3,0.7,0.5
2023-08-17T20:00:00,1048A,114.5302,36.6116,邯郸市,东污水处理厂,颗粒物(PM10),57,64,52,24,36,188,125,175,165,16,16,11,6,1.7,0.7
2023-08-17T20:00:00,1049A,114.4918,36.5713,邯郸市,矿院,,47,47,51,27,38,196,110,176,162,28,20,26,5,2.2,0.7
2023-08-17T20:00:00,1050A,114.484,36.6133,邯郸市,丛台公园,颗粒物(PM10),59,67,57,25,32,204,95,179,163,28,13,19,8,2.5,0.8
2023-08-17T20:00:00,1051A,115.493,38.8632,保定市,游泳馆,,48,47,41,33,26,184,148,171,170,16,13,4,5,0.4,0.3
2023-08-17T20:00:00,1052A,115.5213,38.8959,保定市,华电二区,颗粒物(PM10),69,88,50,29,22,179,132,163,162,14,9,4,5,0.8,0.6
2023-08-17T20:00:00,1053A,115.4713,38.9108,保定市,接待中心,颗粒物(PM10),54,58,48,30,21,171,142,158,157,13,8,7,7,0.8,0.7
2023-08-17T20:00:00,1054A,115.4612,38.8416,保定市,地表水厂,颗粒物(PM10),67,83,60,33,24,178,134,163,161,24,15,7,7,0.7,0.6
2023-08-17T20:00:00,1056A,115.5086,38.8639,保定市,监测站,颗粒物(PM10),53,56,44,34,28,188,151,174,174,17,13,8,6,0.4,0.4
2023-08-17T20:00:00,1057A,114.8883,40.8336,张家口市,人民公园,,50,50,51,18,19,108,70,96,90,15,12,2,2,0.2,0.2
2023-08-17T20:00:00,1059A,114.8687,40.8042,张家口市,五金库,细颗粒物(PM2.5),82,63,59,60,27,111,52,82,74,23,15,3,3,0.4,0.3
2023-08-17T20:00:00,1060A,114.8902,40.762,张家口市,世纪豪园,颗粒物(PM10),62,74,61,34,26,110,51,80,69,28,20,1,2,0.1,0.1
2023-08-17T20:00:00,1061A,114.8916,40.8661,张家口市,北泵房,,44,44,49,18,15,113,64,99,94,16,10,7,6,0.3,0.3
2023-08-17T20:00:00,1062A,117.9531,40.9081,承德市,铁路,,44,44,30,25,14,128,109,121,119,24,22,57,10,0.8,0.5
2023-08-17T20:00:00,1063A,117.9392,40.9763,承德市,中国银行,,45,45,31,22,13,166,114,141,138,12,16,13,12,0.6,0.4
2023-08-17T20:00:00,1064A,117.9503,40.928,承德市,开发区,,41,36,31,26,16,160,130,142,141,10,20,51,9,0.6,0.4
2023-08-17T20:00:00,1065A,117.8051,40.9655,承德市,文化中心,,39,39,39,18,17,169,119,141,139,14,24,6,12,0.4,0.4
2023-08-17T20:00:00,1066A,117.9268,41.0026,承德市,离宫,,36,27,27,16,15,166,115,142,140,6,10,7,8,0.5,0.4
2023-08-17T20:00:00,1067A,116.6708,39.5111,廊坊市,药材公司,,50,50,44,29,25,223,156,196,191,13,14,1,3,0.8,0.7
2023-08-17T20:00:00,1068A,116.7214,39.5589,廊坊市,开发区,细颗粒物(PM2.5),53,54,37,37,28,200,108,180,169,14,11,1,2,0.7,0.7
2023-08-17T20:00:00,1070A,116.7244,39.5269,廊坊市,北华航天学院,臭氧1小时,59,61,46,38,31,212,167,192,190,13,15,5,6,0.9,0.8
2023-08-17T20:00:00,1071A,116.8842,38.2991,沧州市,沧县城建局,,,58,67,30,31,200,164,184,180,,29,5,6,0.6,0.6
2023-08-17T20:00:00,1072A,116.8584,38.3254,沧州市,电视转播站,,49,48,54,31,37,182,156,172,169,18,22,8,6,0.5,0.6
2023-08-17T20:00:00,1073A,116.8709,38.3228,沧州市,市环保局,颗粒物(PM10),55,59,64,34,36,179,142,167,162,26,30,4,3,0.4,0.4
2023-08-17T20:00:00,1074A,115.6838,37.7541,衡水市,电机北厂,颗粒物(PM10),51,51,53,31,27,205,158,186,182,6,11,2,3,0.6,0.6
2023-08-17T20:00:00,1075A,115.6303,37.7316,衡水市,市监测站,,42,41,44,23,22,196,134,179,174,11,16,4,7,0.5,0.5
2023-08-17T20:00:00,1077A,114.4704,37.0886,邢台市,达活泉,,38,18,58,12,31,226,120,189,179,2,10,7,13,0.7,0.9
2023-08-17T20:00:00,1078A,114.5062,37.0349,邢台市,邢师高专,,40,26,58,13,33,223,126,197,178,12,24,5,7,0.7,0.7
2023-08-17T20:00:00,1079A,114.5237,37.0851,邢台市,路桥公司,,42,31,63,17,35,215,133,184,177,7,18,6,8,0.8,0.9
2023-08-17T20:00:00,1080A,114.4725,37.0719,邢台市,市环保局,,38,24,63,16,35,227,119,191,180,7,12,3,6,0.6,0.8
2023-08-17T20:00:00,1081A,112.522,37.8873,太原市,尖草坪,颗粒物(PM10),54,58,70,36,35,187,118,137,137,26,33,11,11,0.9,1
2023-08-17T20:00:00,1083A,112.434,38.0108,太原市,上兰,,,,,,,,,,,,,,,,
2023-08-17T20:00:00,1084A,112.469,37.7124,太原市,晋源,,,,,,,,,,,,,,,,
2023-08-17T20:00:00,1085A,112.5583,37.7394,太原市,小店,,46,46,85,20,39,224,104,146,146,30,42,4,7,0.8,1
2023-08-17T20:00:00,1086A,112.5369,37.8692,太原市,桃园,颗粒物(PM10),53,56,67,28,32,189,102,134,134,34,40,6,9,1.0,1
2023-08-17T20:00:00,1087A,112.57,37.8195,太原市,坞城,,48,48,72,27,36,195,105,132,132,32,42,13,19,1.1,1.4
2023-08-17T20:00:00,1088A,112.549,37.9854,太原市,南寨,颗粒物(PM10),51,51,78,35,36,148,58,113,112,40,46,4,4,0.9,0.8
2023-08-17T20:00:00,1090A,111.6507,40.7517,呼和浩特市,呼市一监,颗粒物(PM10),56,61,119,26,43,119,69,84,73,18,20,4,5,0.5,0.5
2023-08-17T20:00:00,1091A,111.6572,40.8033,呼和浩特市,小召,颗粒物(PM10),58,66,120,24,42,109,64,82,73,32,31,8,8,0.7,0.7
2023-08-17T20:00:00,1094A,111.7516,40.8369,呼和浩特市,如意水处理厂,颗粒物(PM10),56,61,99,26,43,107,82,87,85,20,24,8,6,0.6,0.5
2023-08-17T20:00:00,1095A,111.7276,40.8062,呼和浩特市,二十九中,颗粒物(PM10),52,54,127,28,44,132,76,87,82,25,27,11,7,0.6,0.5
2023-08-17T20:00:00,1096A,111.5512,40.7866,呼和浩特市,工大金川校区,颗粒物(PM10),77,103,131,32,44,108,61,92,66,25,27,6,8,0.6,0.5
2023-08-17T20:00:00,1097A,111.717,40.7612,呼和浩特市,化肥厂生活区,,,,122,,47,103,74,78,64,,29,,6,0.4,0.5
2023-08-17T20:00:00,1098A,123.6836,41.9339,沈阳市,森林路,,,,,,,,,,,,,,,,
2023-08-17T20:00:00,1099A,123.505,41.7406,沈阳市,浑南东路,,40,40,59,22,30,218,86,182,172,61,45,6,13,0.8,1.1
2023-08-17T20:00:00,1100A,123.4231,41.6989,沈阳市,新秀街,,46,30,50,18,24,210,48,168,152,91,44,5,5,0.8,1.1
2023-08-17T20:00:00,1102A,123.5903,41.8411,沈阳市,东陵路,颗粒物(PM10),59,68,53,26,27,180,115,164,160,36,23,7,12,0.9,0.8
2023-08-17T20:00:00,1103A,123.4264,41.8467,沈阳市,陵东街,,32,32,35,19,21,164,82,140,130,26,30,5,6,0.7,0.8
2023-08-17T20:00:00,1104A,123.4114,41.7653,沈阳市,文化路,,32,32,50,20,29,217,93,183,175,48,42,5,7,0.7,0.8
2023-08-17T20:00:00,1105A,123.4678,41.7867,沈阳市,小河沿,,36,36,50,15,23,186,104,154,151,32,39,4,7,0.8,1
2023-08-17T20:00:00,1106A,123.4017,41.7972,沈阳市,太原街,,31,26,43,17,27,214,97,174,168,40,45,6,6,0.5,0.7
2023-08-17T20:00:00,1108A,123.3783,41.9228,沈阳市,京沈街,颗粒物(PM10),54,58,45,18,22,182,95,166,159,32,27,5,8,0.7,0.7
2023-08-17T20:00:00,1109A,121.612,38.9741,大连市,甘井子,细颗粒物(PM2.5),58,52,57,41,48,217,110,178,162,18,18,3,4,1.4,1.3
2023-08-17T20:00:00,1110A,121.565,38.9511,大连市,周水子,细颗粒物(PM2.5),67,54,54,48,45,210,102,159,142,22,19,2,2,0.7,0.9
2023-08-17T20:00:00,1111A,121.5637,38.8845,大连市,星海三站,,39,29,45,27,42,203,120,171,162,18,13,8,8,0.6,0.6
2023-08-17T20:00:00,1112A,121.6302,38.9117,大连市,青泥洼桥,,,35,44,,42,204,108,168,155,24,14,5,5,1.0,1.1
2023-08-17T20:00:00,1113A,121.6251,38.8638,大连市,傅家庄,,49,33,39,28,35,196,154,173,171,11,9,8,8,0.8,0.9
2023-08-17T20:00:00,1114A,121.5213,38.8661,大连市,七贤岭,,44,44,53,25,41,217,136,190,177,15,13,6,6,0.6,0.7
2023-08-17T20:00:00,1115A,121.2529,38.8061,大连市,旅顺,,50,34,52,35,46,231,147,177,162,10,15,4,4,0.8,1
2023-08-17T20:00:00,1116A,121.7485,39.1311,大连市,金州,细颗粒物(PM2.5),55,44,47,39,39,220,101,188,168,17,15,6,7,0.9,0.9
2023-08-17T20:00:00,1117A,121.7811,39.0496,大连市,开发区,,45,45,53,23,39,205,130,173,163,8,13,4,4,0.9,1.2
2023-08-17T20:00:00,1118A,121.9762,39.0631,大连市,双D港,,43,33,26,30,19,128,68,112,100,13,11,6,6,0.6,0.6
2023-08-17T20:00:00,1119A,125.3325,43.9166,长春市,食品厂,颗粒物(PM10),60,70,40,27,15,144,20,116,100,81,35,3,3,1.0,0.6
2023-08-17T20:00:00,1120A,125.2863,43.9027,长春市,客车厂,颗粒物(PM10),64,78,35,28,15,134,9,111,93,108,37,4,4,1.3,0.6
2023-08-17T20:00:00,1121A,125.2841,43.8463,长春市,邮电学院,,,38,32,21,12,125,,104,84,,19,,4,,0.5
2023-08-17T20:00:00,1122A,125.3716,43.8772,长春市,劳动公园,颗粒物(PM10),56,61,42,18,11,131,49,107,97,52,31,6,6,0.9,0.6
2023-08-17T20:00:00,1123A,125.3297,43.8805,长春市,园林处,颗粒物(PM10),53,56,39,34,13,139,8,108,88,85,35,4,5,1.5,0.6
2023-08-17T20:00:00,1124A,125.4605,43.79,长春市,净月潭,,19,19,16,7,5,97,39,87,78,7,9,5,5,0.4,0.4
2023-08-17T20:00:00,1125A,125.7194,43.515,长春市,甩湾子,,,,,,,,,,,,,,,,
2023-08-17T20:00:00,1126A,125.3863,43.8447,长春市,经开区环卫处,颗粒物(PM10),57,64,40,18,12,122,28,112,101,79,30,4,7,0.7,0.4
2023-08-17T20:00:00,1127A,125.245,43.7783,长春市,高新区管委会,颗粒物(PM10),53,56,37,19,12,148,41,113,106,68,26,3,4,0.7,0.5
2023-08-17T20:00:00,1128A,125.1761,43.8325,长春市,岱山公园,,47,47,42,21,15,158,56,116,108,77,44,3,3,0.8,0.8
2023-08-17T20:00:00,1129A,126.5422,45.755,哈尔滨市,岭北,,27,15,24,7,13,168,86,138,134,12,20,7,8,0.7,0.6
2023-08-17T20:00:00,1130A,126.561,45.8167,哈尔滨市,松北商大,,34,34,31,9,8,126,49,109,100,42,23,6,6,0.8,0.6
2023-08-17T20:00:00,1131A,126.979,45.5419,哈尔滨市,阿城会宁,颗粒物(PM10),60,69,43,35,4,112,50,95,88,37,22,5,6,0.9,0.7
2023-08-17T20:00:00,1132A,126.599,45.7222,哈尔滨市,南岗学府路,颗粒物(PM10),55,60,43,33,15,174,85,141,136,36,24,5,5,0.9,0.7
2023-08-17T20:00:00,1133A,126.689,45.7733,哈尔滨市,太平宏伟公园,,,58,50,10,12,131,57,111,102,100,35,8,8,,0.5
2023-08-17T20:00:00,1134A,126.635,45.7667,哈尔滨市,道外承德广场,,40,40,38,12,13,167,122,140,138,22,27,5,5,0.5,0.5
2023-08-17T20:00:00,1135A,126.685,45.7319,哈尔滨市,香坊红旗大街,,45,45,39,26,16,158,73,130,116,30,31,5,8,0.8,0.7
2023-08-17T20:00:00,1136A,126.6411,45.7258,哈尔滨市,动力和平路,,,66,38,,,183,86,144,134,46,33,7,7,0.7,0.6
2023-08-17T20:00:00,1137A,126.593,45.7478,哈尔滨市,道里建国路,,24,21,32,9,11,173,75,138,130,29,26,7,8,0.7,0.7
2023-08-17T20:00:00,1138A,126.615,45.61,哈尔滨市,平房东轻厂,,48,48,52,13,15,144,31,121,108,76,31,6,8,0.6,0.6
2023-08-17T20:00:00,1139A,126.595,45.9855,哈尔滨市,呼兰师专,,39,39,34,16,10,84,44,80,73,31,19,8,8,0.7,0.5
2023-08-17T20:00:00,1140A,126.6206,45.6842,哈尔滨市,省农科院,颗粒物(PM10),69,88,59,19,12,168,43,148,133,97,38,10,11,0.7,0.6
2023-08-17T20:00:00,1141A,121.4,31.238,上海市,普陀,,26,26,36,10,20,134,62,111,94,40,22,6,6,0.8,0.7
2023-08-17T20:00:00,1142A,121.478,31.2036,上海市,十五厂,,29,20,36,20,26,136,48,109,89,41,15,9,9,0.6,0.5
2023-08-17T20:00:00,1143A,121.467,31.3008,上海市,虹口,,25,24,35,13,20,122,64,106,90,49,27,8,8,0.7,0.6
2023-08-17T20:00:00,1144A,121.412,31.1654,上海市,徐汇上师大,,24,18,46,12,24,147,58,112,91,48,28,4,5,0.9,0.8
2023-08-17T20:00:00,1145A,121.536,31.2659,上海市,杨浦四漂,,28,20,35,14,23,131,57,106,86,56,25,5,5,0.9,0.8
2023-08-17T20:00:00,1147A,121.425,31.2261,上海市,静安监测站,,25,25,35,14,25,139,68,113,96,38,21,2,2,0.9,0.8
2023-08-17T20:00:00,1148A,121.703,31.1907,上海市,浦东川沙,,22,20,44,12,25,121,65,96,85,43,24,5,6,0.8,0.7
2023-08-17T20:00:00,1149A,121.533,31.2284,上海市,浦东新区监测站,,24,21,37,9,21,127,54,100,81,48,21,2,2,0.7,0.6
2023-08-17T20:00:00,1150A,121.577,31.2071,上海市,浦东张江,,,,39,,24,120,59,89,75,40,19,5,5,,0.6
2023-08-17T20:00:00,1151A,118.8086,32.1065,南京市,迈皋桥,,27,27,45,17,26,178,80,143,131,28,29,4,4,0.6,0.6
2023-08-17T20:00:00,1152A,118.7538,32.0551,南京市,草场门,,27,26,44,14,26,202,84,146,139,34,30,2,3,0.7,0.9
2023-08-17T20:00:00,1153A,118.7794,32.0745,南京市,山西路,,34,34,52,17,25,201,103,159,151,25,24,4,4,0.4,0.5
2023-08-17T20:00:00,1154A,118.7752,32.0023,南京市,中华门,,30,22,41,12,26,183,93,142,133,24,31,7,8,0.9,1
2023-08-17T20:00:00,1155A,118.8109,32.0309,南京市,瑞金路,,29,29,41,19,24,169,92,135,131,27,22,1,1,0.5,0.5
2023-08-17T20:00:00,1156A,118.7997,32.0754,南京市,玄武湖,,30,25,39,18,23,174,93,141,133,28,27,6,7,0.8,0.8
2023-08-17T20:00:00,1157A,118.6414,32.0931,南京市,浦口,,30,30,47,14,31,229,79,177,148,14,24,5,7,0.5,0.8
2023-08-17T20:00:00,1158A,118.7356,31.9996,南京市,奥体中心,,30,21,43,19,32,206,94,154,144,24,29,7,7,0.6,0.7
2023-08-17T20:00:00,1159A,118.9125,32.1028,南京市,仙林大学城,,31,31,47,17,27,186,99,160,148,30,24,8,8,0.8,0.8
2023-08-17T20:00:00,1160A,120.561,31.2472,苏州市,上方山,,30,22,42,16,24,113,93,90,90,14,17,7,7,0.4,0.4
2023-08-17T20:00:00,1162A,120.591,31.3019,苏州市,彩香,,38,14,32,10,20,139,119,118,116,16,15,7,8,0.7,0.7
2023-08-17T20:00:00,1163A,120.596,31.3264,苏州市,轧钢厂,,36,19,35,10,20,135,115,116,113,25,19,10,9,0.6,0.6
2023-08-17T20:00:00,1164A,120.613,31.2703,苏州市,吴中区,,36,14,36,8,22,140,113,124,119,27,17,13,10,0.5,0.5
2023-08-17T20:00:00,1165A,120.543,31.2994,苏州市,苏州新区,,31,20,36,10,22,129,98,121,115,33,19,9,8,0.7,0.7
2023-08-17T20:00:00,1166A,120.669,31.3097,苏州市,苏州工业园区,,36,14,33,10,21,132,114,118,114,24,13,10,8,0.6,0.6
2023-08-17T20:00:00,1167A,120.641,31.3708,苏州市,相城区,,36,17,28,8,21,129,115,122,119,28,19,7,7,0.6,0.7
2023-08-17T20:00:00,1168A,120.9098,31.9663,南通市,狼山街道,,25,18,24,8,15,148,79,122,119,28,22,8,9,0.5,0.5
2023-08-17T20:00:00,1169A,120.86,32.0005,南通市,虹桥,,36,20,27,17,19,154,114,135,135,29,24,6,6,0.7,0.7
2023-08-17T20:00:00,1170A,120.87,32.02,南通市,城中,,32,22,24,8,15,152,100,135,133,34,20,6,7,0.6,0.6
2023-08-17T20:00:00,1171A,120.94,31.93,南通市,星湖花园,,26,22,28,6,14,132,83,116,115,36,27,5,7,0.7,0.6
2023-08-17T20:00:00,1172A,120.81,32.0417,南通市,紫琅学院,,28,17,27,0,13,139,87,130,124,45,28,6,8,0.5,0.7
2023-08-17T20:00:00,1173A,119.176,34.5885,连云港市,市环境监测站,,44,44,27,19,13,143,107,136,134,15,12,6,6,0.5,0.4
2023-08-17T20:00:00,1177A,117.179,34.2761,徐州市,黄河新村,,50,27,44,24,29,196,157,179,177,14,14,8,8,0.5,0.6
2023-08-17T20:00:00,1178A,117.1918,34.2384,徐州市,淮塔,,48,39,49,23,32,179,153,170,168,14,14,10,10,0.4,0.4
2023-08-17T20:00:00,1180A,117.256,34.2153,徐州市,新城区,,47,39,48,29,26,180,148,163,160,13,14,7,8,0.6,0.5
2023-08-17T20:00:00,1181A,117.244,34.2911,徐州市,桃园路,,48,48,45,27,26,183,134,172,166,18,12,8,9,0.5,0.4
2023-08-17T20:00:00,1182A,117.2933,34.2778,徐州市,农科院,,44,41,37,24,25,169,138,162,157,16,18,6,7,0.4,0.4
2023-08-17T20:00:00,1186A,119.389,32.3761,扬州市,邗江监测站,,42,34,45,20,27,177,133,154,148,23,20,6,5,0.8,0.7
2023-08-17T20:00:00,1188A,120.269,31.4867,无锡市,雪浪,,,17,35,14,21,150,109,139,135,,20,5,5,0.6,0.6
2023-08-17T20:00:00,1189A,120.275,31.6219,无锡市,黄巷,,41,41,50,17,25,118,90,106,102,55,61,6,7,0.8,0.8
2023-08-17T20:00:00,1190A,120.294,31.56,无锡市,曹张,,,30,38,12,24,129,111,119,118,26,36,,9,0.8,0.8
2023-08-17T20:00:00,1191A,120.242,31.5031,无锡市,漆塘,,22,19,29,9,19,141,68,130,120,28,24,4,5,0.7,0.6
2023-08-17T20:00:00,1192A,120.3489,31.5863,无锡市,东亭,,33,17,40,14,25,142,105,120,114,40,43,5,6,0.6,0.6
2023-08-17T20:00:00,1193A,120.354,31.5475,无锡市,旺庄,,34,24,40,19,25,140,106,124,120,28,36,8,9,0.8,0.9
2023-08-17T20:00:00,1194A,120.245,31.5631,无锡市,荣巷,,31,19,30,12,18,129,98,122,117,22,25,9,9,0.5,0.5
2023-08-17T20:00:00,1195A,120.299,31.6817,无锡市,堰桥,,34,34,39,19,22,141,107,121,121,26,36,7,9,1.0,1
2023-08-17T20:00:00,1196A,119.9633,31.762,常州市,市监测站,,,,47,,26,141,112,135,130,42,37,8,8,,0.7
2023-08-17T20:00:00,1200A,119.9468,31.7069,常州市,武进监测站,,50,50,43,28,26,149,103,140,132,41,29,9,10,0.7,0.7
2023-08-17T20:00:00,1201A,119.9255,31.9087,常州市,安家,,36,31,39,22,29,153,113,138,134,26,33,6,7,0.6,0.5
2023-08-17T20:00:00,1203A,119.6707,32.1875,镇江市,新区办事处,,42,42,44,23,29,160,123,143,139,35,31,3,4,0.6,0.6
2023-08-17T20:00:00,1204A,119.4974,32.1968,镇江市,职教中心,,40,23,45,16,28,191,125,151,145,16,27,4,2,0.5,0.6
2023-08-17T20:00:00,1205A,119.4303,32.1328,镇江市,丹徒区监测站,,41,19,46,17,37,211,131,160,156,17,23,2,2,0.7,0.9
2023-08-17T20:00:00,1206A,119.905,32.4878,泰州市,公园路,,43,22,34,19,27,163,136,151,148,13,15,4,5,0.8,0.8
2023-08-17T20:00:00,1207A,119.9189,32.4625,泰州市,莲花,,42,20,37,12,24,154,134,146,144,11,13,4,3,0.7,0.8
2023-08-17T20:00:00,1209A,119.888,32.4639,泰州市,留学生创业园,,44,28,40,17,27,157,138,148,145,11,14,5,6,0.7,0.8
2023-08-17T20:00:00,1210A,119.036,33.5981,淮安市,钵池山,,28,19,23,12,15,119,89,111,109,15,19,6,6,0.9,0.9
2023-08-17T20:00:00,1211A,119.007,33.575,淮安市,北京南路,,31,22,23,15,18,127,97,120,116,13,16,6,6,0.9,0.8
2023-08-17T20:00:00,1212A,118.989,33.6067,淮安市,市监测站,,34,22,30,12,13,135,106,124,121,14,15,6,6,0.7,0.7
2023-08-17T20:00:00,1213A,119.135,33.5039,淮安市,楚州区监测站,,28,10,23,10,16,120,88,109,106,12,14,7,7,0.7,0.7
2023-08-17T20:00:00,1214A,119.0186,33.6297,淮安市,淮阴区监测站,,31,29,28,18,19,125,98,116,112,13,15,8,7,0.5,0.6
2023-08-17T20:00:00,1215A,120.118,33.4022,盐城市,盐城电厂,,29,17,21,12,12,112,92,104,98,4,6,5,5,0.5,0.5
2023-08-17T20:00:00,1216A,120.156,33.3942,盐城市,市监测站,,33,12,15,8,13,130,103,118,112,7,6,5,6,0.6,0.5
2023-08-17T20:00:00,1218A,120.2144,33.38,盐城市,开发区管委会,,30,18,16,9,12,116,94,107,102,9,7,4,4,0.3,0.4
2023-08-17T20:00:00,1220A,118.293,33.9528,宿迁市,宿迁学院,,29,26,36,12,26,151,90,135,128,23,22,8,9,0.4,0.5
2023-08-17T20:00:00,1221A,118.2442,33.9592,宿迁市,宿迁中学,,33,27,44,10,26,159,103,146,138,16,20,6,7,0.5,0.6
2023-08-17T20:00:00,1223A,120.2072,30.2111,杭州市,滨江,,37,27,49,16,27,202,118,162,155,14,24,7,7,0.6,0.7
2023-08-17T20:00:00,1224A,120.0633,30.2747,杭州市,西溪,,40,30,36,14,17,190,126,154,142,11,16,4,4,0.7,0.8
2023-08-17T20:00:00,1226A,120.3461,30.3153,杭州市,下沙,,36,27,51,11,30,218,114,172,159,33,32,3,4,0.5,0.6
2023-08-17T20:00:00,1227A,120.1269,30.2456,杭州市,卧龙桥,,41,24,33,14,24,213,131,176,162,16,18,4,3,0.4,0.7
2023-08-17T20:00:00,1228A,120.1903,30.2692,杭州市,浙江农大,,40,24,34,16,23,182,126,155,149,16,22,7,8,0.4,0.5
2023-08-17T20:00:00,1230A,120.1197,30.3119,杭州市,和睦小学,,45,28,35,17,21,220,144,182,172,23,24,8,7,0.6,0.6
2023-08-17T20:00:00,1231A,120.3019,30.4183,杭州市,临平镇,,39,23,53,11,28,227,122,179,161,27,22,4,5,0.6,0.7
2023-08-17T20:00:00,1232A,120.2697,30.1819,杭州市,城厢镇,,40,23,52,17,38,241,126,184,174,19,23,7,7,0.6,0.7
2023-08-17T20:00:00,1233A,120.0883,30.1808,杭州市,云栖,,43,28,38,14,20,184,137,165,158,14,17,6,6,0.5,0.6
2023-08-17T20:00:00,1234A,121.8358,29.911,宁波市,区环保大楼,,41,19,27,16,21,153,131,120,119,14,27,2,4,0.6,0.7
2023-08-17T20:00:00,1235A,121.56,29.82,宁波市,万里学院,,43,19,39,9,22,148,135,130,129,13,22,4,5,0.6,0.7
2023-08-17T20:00:00,1236A,121.713,29.9572,宁波市,龙赛医院,,41,14,41,12,18,204,130,142,137,16,24,6,10,0.6,0.7
2023-08-17T20:00:00,1239A,121.633,29.7733,宁波市,钱湖水厂,,41,9,27,6,19,132,130,119,119,6,5,4,4,0.6,0.6
2023-08-17T20:00:00,1240A,121.5856,29.8635,宁波市,太古小学,,41,20,35,6,24,149,131,126,124,13,19,5,5,0.9,0.7
2023-08-17T20:00:00,1241A,121.524,29.8674,宁波市,市环境监测中心,,46,11,34,11,19,169,145,141,139,11,18,5,6,0.4,0.5
2023-08-17T20:00:00,1242A,120.634,28.0089,温州市,瓯海,,39,39,36,24,23,159,49,121,89,36,25,5,5,0.8,0.6
2023-08-17T20:00:00,1243A,120.6748,27.9939,温州市,南浦,,43,43,35,24,21,167,62,123,95,37,25,6,6,0.7,0.5
2023-08-17T20:00:00,1244A,120.76,27.9747,温州市,龙湾,,46,46,42,22,18,164,48,113,83,60,30,7,6,0.7,0.5
2023-08-17T20:00:00,1245A,120.6709,28.0167,温州市,市站,,46,46,39,28,22,150,47,107,86,36,23,5,5,0.8,0.6
2023-08-17T20:00:00,1247A,120.6053,29.9928,绍兴市,城东开发委,,41,11,43,9,30,174,131,162,159,12,18,5,5,0.5,0.5
2023-08-17T20:00:00,1250A,120.0751,30.8669,湖州市,城西水厂,,36,19,49,15,32,165,114,126,113,25,27,2,2,0.6,0.6
2023-08-17T20:00:00,1252A,120.7436,30.778,嘉兴市,清河小学,,29,17,34,10,18,168,90,139,125,17,14,5,8,0.8,0.8
2023-08-17T20:00:00,1253A,120.726,30.7478,嘉兴市,嘉兴学院,,30,22,32,14,23,181,96,150,133,22,17,3,4,0.6,0.5
2023-08-17T20:00:00,1255A,121.273,28.6459,台州市,黄岩环保大楼,,39,39,36,26,23,145,72,109,96,16,12,4,4,0.5,0.4
2023-08-17T20:00:00,1256A,121.419,28.6542,台州市,台州环保大楼,,44,44,36,24,22,135,68,100,81,21,16,4,4,0.7,0.6
2023-08-17T20:00:00,1257A,121.377,28.5773,台州市,路桥田洋王,,40,40,31,27,22,146,64,125,90,25,19,2,10,0.5,0.4
2023-08-17T20:00:00,1258A,122.122,30.0203,舟山市,定海檀枫,,30,28,28,19,19,122,94,102,100,14,14,6,6,0.4,0.5
2023-08-17T20:00:00,1259A,122.3094,29.9558,舟山市,普陀东港,,26,25,27,18,18,105,77,98,95,14,13,4,4,0.4,0.5
2023-08-17T20:00:00,1260A,122.19,29.9944,舟山市,临城新区,,30,27,26,18,19,117,94,102,102,15,14,7,7,0.4,0.5
2023-08-17T20:00:00,1262A,119.647,29.077,金华市,十五中,,34,26,42,16,24,185,107,139,126,22,21,2,3,0.5,0.6
2023-08-17T20:00:00,1263A,119.686,29.1029,金华市,监测站,,32,32,47,15,34,180,99,132,119,22,23,4,4,0.6,0.7
2023-08-17T20:00:00,1264A,118.8692,28.9398,衢州市,环保大楼,,27,25,31,15,21,137,84,111,107,15,17,4,4,0.6,0.6
2023-08-17T20:00:00,1265A,118.8709,28.9666,衢州市,实验学校,,26,25,33,14,21,134,82,111,107,14,16,7,5,0.5,0.5
2023-08-17T20:00:00,1266A,118.8621,28.9808,衢州市,衢州学院,,28,27,32,19,18,130,84,109,104,16,19,2,5,0.5,0.6
2023-08-17T20:00:00,1267A,119.914,28.4514,丽水市,监测站大楼,,32,17,38,8,18,123,102,108,106,8,17,5,6,0.5,0.7
2023-08-17T20:00:00,1268A,119.93,28.4586,丽水市,莲都小学,,33,18,35,11,18,128,104,109,108,6,16,6,5,0.5,0.6
2023-08-17T20:00:00,1269A,119.879,28.4231,丽水市,余庄前,,31,20,35,11,17,119,99,102,99,11,14,4,5,0.4,0.5
2023-08-17T20:00:00,1270A,117.1959,31.7848,合肥市,明珠广场,,30,24,43,14,28,154,95,152,139,33,39,5,5,0.6,0.7
2023-08-17T20:00:00,1271A,117.3072,31.8764,合肥市,三里街,,39,39,43,24,32,138,118,132,129,24,31,4,3,0.5,0.4
2023-08-17T20:00:00,1272A,117.2588,31.8707,合肥市,琥珀山庄,,43,31,42,22,29,160,137,148,146,13,24,5,5,0.7,0.7
2023-08-17T20:00:00,1273A,117.1604,31.9052,合肥市,董铺水库,,36,19,38,12,21,144,115,135,132,15,25,3,4,0.5,0.4
2023-08-17T20:00:00,1274A,117.25,31.8571,合肥市,长江中路,,40,39,47,20,29,154,125,146,142,17,21,7,7,0.6,0.6
2023-08-17T20:00:00,1275A,117.266,31.9436,合肥市,庐阳区,,37,36,52,22,35,144,116,137,134,24,33,5,5,0.5,0.6
2023-08-17T20:00:00,1276A,117.336,31.8586,合肥市,瑶海区,,44,44,50,15,28,132,111,128,123,21,24,4,7,0.7,0.8
2023-08-17T20:00:00,1277A,117.3027,31.7964,合肥市,包河区,,25,22,55,12,34,147,72,132,124,50,61,5,6,0.5,0.8
2023-08-17T20:00:00,1278A,117.2776,31.7385,合肥市,滨湖新区,,33,17,54,5,27,171,104,155,148,15,50,2,5,0.8,0.9
2023-08-17T20:00:00,1279A,117.1318,31.8403,合肥市,高新区,,38,27,44,17,27,152,121,146,140,15,30,8,8,0.6,0.6
2023-08-17T20:00:00,1280A,119.3903,26.0543,福州市,鼓山,,,,,,,,,,,,,,,,
2023-08-17T20:00:00,1282A,119.2681,26.0504,福州市,师大,,31,13,33,7,17,170,98,131,126,17,12,4,4,0.4,0.5
2023-08-17T20:00:00,1283A,119.2984,26.1028,福州市,五四北路,,29,9,30,7,19,169,90,136,131,18,14,2,3,0.3,0.5
2023-08-17T20:00:00,1284A,119.2648,26.0768,福州市,杨桥西路,,30,16,35,6,20,153,94,124,120,16,12,3,3,0.2,0.3
2023-08-17T20:00:00,1285A,119.317,26.0746,福州市,紫阳,,26,22,36,10,20,164,81,133,127,23,13,3,3,0.5,0.5
2023-08-17T20:00:00,1286A,118.1608,24.8169,厦门市,溪东,,,,,,,,,,,,,,,,
2023-08-17T20:00:00,1287A,118.1514,24.4767,厦门市,洪文,,30,30,19,12,9,115,40,89,77,35,20,1,2,0.4,0.3
2023-08-17T20:00:00,1288A,118.0661,24.4444,厦门市,鼓浪屿,,34,34,21,21,12,100,36,80,69,50,22,1,1,0.6,0.6
2023-08-17T20:00:00,1290A,115.8931,28.6843,南昌市,省外办,颗粒物(PM10),52,53,47,29,30,182,150,168,164,17,20,6,4,0.8,0.9
2023-08-17T20:00:00,1291A,115.8886,28.7003,南昌市,省林业公司,颗粒物(PM10),58,66,44,31,29,177,131,161,156,22,24,7,7,0.8,0.8
2023-08-17T20:00:00,1292A,115.8126,28.7442,南昌市,林科所,,40,34,29,19,20,178,127,158,148,13,14,5,6,0.9,0.9
2023-08-17T20:00:00,1294A,115.8518,28.687,南昌市,建工学校,臭氧1小时,68,54,39,30,21,181,174,170,170,12,19,7,6,0.8,0.8
2023-08-17T20:00:00,1295A,115.8921,28.6424,南昌市,象湖,臭氧1小时,62,39,36,34,29,183,169,174,172,12,25,6,5,0.7,0.8
2023-08-17T20:00:00,1296A,115.7423,28.7996,南昌市,武术学校,,33,15,20,23,21,153,63,135,108,8,6,4,3,0.5,0.6
2023-08-17T20:00:00,1298A,115.9314,28.6842,南昌市,省站,颗粒物(PM10),57,64,49,33,29,174,149,172,167,20,17,6,6,0.8,0.8
2023-08-17T20:00:00,1299A,116.9862,36.6114,济南市,科干所,颗粒物(PM10),53,56,56,34,33,228,160,206,202,22,26,7,7,0.4,0.5
2023-08-17T20:00:00,1300A,116.9376,36.665,济南市,农科所,颗粒物(PM10),53,56,54,32,28,230,159,203,198,21,28,9,9,0.4,0.4
2023-08-17T20:00:00,1301A,117.1265,36.6734,济南市,开发区,臭氧1小时,80,59,54,32,28,253,184,232,225,22,29,5,5,0.7,0.7
2023-08-17T20:00:00,1303A,117.0624,36.6868,济南市,省种子仓库,臭氧1小时,62,61,54,31,28,233,169,214,207,18,27,5,5,0.6,0.6
2023-08-17T20:00:00,1304A,116.9489,36.6447,济南市,机床二厂,臭氧1小时,62,56,62,27,28,228,169,211,204,23,28,8,8,0.7,0.7
2023-08-17T20:00:00,1305A,117.0495,36.663,济南市,市监测站,臭氧1小时,63,59,54,27,31,234,170,217,209,28,39,4,4,0.5,0.5
2023-08-17T20:00:00,1306A,116.7675,36.5484,济南市,长清党校,细颗粒物(PM2.5),59,63,53,42,35,197,162,186,185,18,20,6,7,0.5,0.6
2023-08-17T20:00:00,1307A,120.6659,36.2403,青岛市,仰口,,42,34,42,29,30,162,129,147,145,10,10,6,7,0.9,0.9
2023-08-17T20:00:00,1310A,120.4134,36.0658,青岛市,市南区东部子站,,45,31,38,24,24,226,144,183,181,29,23,7,8,0.9,1
2023-08-17T20:00:00,1311A,120.3664,36.1032,青岛市,四方区子站,臭氧1小时,68,34,36,22,24,220,174,190,189,17,26,9,11,1.0,0.9
2023-08-17T20:00:00,1312A,120.2994,36.054,青岛市,市南区西部子站,,46,39,47,32,27,203,122,175,167,59,34,10,9,1.0,1
2023-08-17T20:00:00,1313A,120.4581,36.0858,青岛市,崂山区子站,,,,39,,28,257,174,192,192,,30,,9,,0.8
2023-08-17T20:00:00,1314A,120.1983,35.9608,青岛市,黄岛区子站,臭氧1小时,87,39,35,32,26,211,189,193,193,15,22,8,7,1.0,0.9
2023-08-17T20:00:00,1315A,120.3999,36.3083,青岛市,城阳区子站,,49,44,45,15,20,248,154,205,198,30,27,7,6,0.8,0.7
2023-08-17T20:00:00,1316A,113.69031,34.76122,郑州市,烟厂,,,52,76,36,39,328,174,271,260,23,25,,5,0.7,0.7
2023-08-17T20:00:00,1317A,113.65724,34.77134,郑州市,郑纺机,,,59,70,,,321,179,265,251,18,19,2,4,0.9,0.9
2023-08-17T20:00:00,1318A,113.67526,34.80246,郑州市,银行学校,臭氧1小时,68,50,68,37,39,326,174,255,248,19,18,2,6,0.8,0.7
2023-08-17T20:00:00,1319A,113.56746,34.81334,郑州市,供水公司,颗粒物(PM10),68,86,80,44,39,267,170,241,237,30,24,1,2,0.7,0.7
2023-08-17T20:00:00,1320A,113.7329,34.7178,郑州市,经开区管委,颗粒物(PM10),61,71,73,34,40,268,154,235,225,15,19,3,7,0.7,0.7
2023-08-17T20:00:00,1321A,113.73961,34.77172,郑州市,四十七中,,,,,,,,,,,,,,,,
2023-08-17T20:00:00,1322A,113.60532,34.74838,郑州市,市监测站,臭氧1小时,73,63,72,38,34,246,178,229,224,20,20,3,4,0.6,0.6
2023-08-17T20:00:00,1323A,113.64164,34.7525,郑州市,河医大,颗粒物(PM10),67,83,74,39,37,268,154,229,219,24,17,3,7,0.8,0.8
2023-08-17T20:00:00,1324A,113.51488,34.91089,郑州市,岗李水库,,,,,,,,,,,,,,,,
2023-08-17T20:00:00,1325A,114.3677,30.5584,武汉市,东湖梨园,臭氧1小时,64,49,39,29,27,206,171,196,193,15,23,7,6,0.6,0.7
2023-08-17T20:00:00,1326A,114.2529,30.558,武汉市,汉阳月湖,,50,50,43,27,26,174,147,165,162,16,38,8,9,0.6,0.6
2023-08-17T20:00:00,1327A,114.282,30.6189,武汉市,汉口花桥,臭氧1小时,52,50,40,32,26,179,161,173,171,14,22,4,5,0.6,0.6
2023-08-17T20:00:00,1328A,114.3025,30.5332,武汉市,武昌紫阳,臭氧1小时,59,44,44,32,26,223,167,206,202,16,41,6,7,0.7,0.7
2023-08-17T20:00:00,1329A,114.3646,30.6217,武汉市,青山钢花,颗粒物(PM10),52,53,48,27,31,196,151,190,184,30,35,8,8,0.7,0.7
2023-08-17T20:00:00,1330A,114.1566,30.4825,武汉市,沌口新区,臭氧1小时,63,45,47,36,36,200,170,184,181,26,34,6,6,0.6,0.6
2023-08-17T20:00:00,1331A,114.3014,30.5944,武汉市,汉口江滩,,50,50,48,29,27,197,159,184,182,18,49,7,7,0.6,0.6
2023-08-17T20:00:00,1333A,114.135,30.6319,武汉市,吴家山,颗粒物(PM10),61,71,54,24,32,189,140,176,170,22,39,8,8,0.5,0.6
2023-08-17T20:00:00,1334A,113.8454,30.2917,武汉市,沉湖七壕,,38,32,37,25,22,168,119,151,147,15,16,7,7,0.8,0.8
2023-08-17T20:00:00,1335A,113.0833,28.2325,长沙市,经开区环保局,,44,35,44,20,24,166,139,152,151,11,19,5,5,0.5,0.5
2023-08-17T20:00:00,1336A,112.8872,28.2189,长沙市,高开区环保局,,,50,55,22,29,179,150,170,168,,33,6,6,,0.8
2023-08-17T20:00:00,1337A,113.0792,28.2053,长沙市,马坡岭,颗粒物(PM10),51,51,54,5,28,172,153,164,162,4,15,5,5,0.4,0.5
2023-08-17T20:00:00,1338A,112.9394,28.19,长沙市,湖南师范大学,细颗粒物(PM2.5),65,38,48,47,35,200,145,178,170,9,18,2,2,0.5,0.6
2023-08-17T20:00:00,1339A,113.0178,28.1322,长沙市,雨花区环保局,,47,36,52,28,32,188,150,168,162,11,25,6,5,0.4,0.5
2023-08-17T20:00:00,1340A,112.9792,28.2597,长沙市,伍家岭,,41,32,47,26,25,200,131,171,162,19,27,2,2,0.5,0.6
2023-08-17T20:00:00,1341A,113.0014,28.1944,长沙市,火车新站,,45,36,45,27,33,170,142,155,152,10,19,5,4,0.6,0.7
2023-08-17T20:00:00,1342A,112.9844,28.1178,长沙市,天心区环保局,,45,33,41,25,29,186,143,168,162,11,21,3,3,0.6,0.7
2023-08-17T20:00:00,1343A,112.8908,28.1308,长沙市,湖南中医药大学,,49,44,52,16,32,198,154,183,173,6,22,2,2,0.8,1
2023-08-17T20:00:00,1344A,112.9581,28.3611,长沙市,沙坪,,39,39,39,24,25,165,113,156,148,8,8,7,7,0.6,0.5
2023-08-17T20:00:00,1345A,113.2347,23.1423,广州市,广雅中学,颗粒物(PM10),54,58,38,35,21,57,44,47,47,51,32,5,5,0.9,0.8
2023-08-17T20:00:00,1346A,113.2612,23.105,广州市,市五中,颗粒物(PM10),57,63,38,37,22,55,35,44,44,44,24,5,5,1.0,0.8
2023-08-17T20:00:00,1348A,113.3478,23.0916,广州市,广东商学院,细颗粒物(PM2.5),58,61,38,41,22,48,14,33,27,62,34,3,3,0.9,0.6
2023-08-17T20:00:00,1349A,113.4332,23.1047,广州市,市八十六中,颗粒物(PM10),65,79,44,42,23,56,2,38,21,81,35,8,5,1.0,0.8
2023-08-17T20:00:00,1350A,113.3505,22.9483,广州市,番禺中学,颗粒物(PM10),57,64,36,36,22,69,54,53,53,44,25,5,5,0.9,0.7
2023-08-17T20:00:00,1351A,113.2146,23.3916,广州市,花都师范,,49,49,43,31,25,147,24,90,87,58,32,6,6,1.0,0.7
2023-08-17T20:00:00,1352A,113.2597,23.1331,广州市,市监测站,颗粒物(PM10),57,64,38,34,21,60,42,47,47,52,30,6,6,0.8,0.7
2023-08-17T20:00:00,1353A,113.5618,23.312,广州市,九龙镇镇龙,,33,33,38,15,20,41,7,30,22,49,26,5,5,0.6,0.6
2023-08-17T20:00:00,1354A,113.2765,23.1544,广州市,麓湖,,50,50,32,30,19,53,17,35,30,43,22,5,5,1.0,0.7
2023-08-17T20:00:00,1355A,113.443,23.3035,广州市,帽峰山森林公园,,35,35,29,15,14,58,6,42,28,42,25,6,6,0.5,0.4
2023-08-17T20:00:00,1356A,114.1063,22.5545,深圳市,通心岭子站,,46,46,30,26,17,92,26,57,42,29,13,4,4,1.1,1
2023-08-17T20:00:00,1357A,114.117,22.5625,深圳市,洪湖,颗粒物(PM10),51,51,35,22,15,87,28,53,36,47,19,5,5,0.9,0.8
2023-08-17T20:00:00,1358A,113.987,22.5417,深圳市,华侨城,,23,23,34,8,17,78,37,52,43,26,18,7,7,0.6,0.6
2023-08-17T20:00:00,1359A,113.9181,22.5171,深圳市,南海子站,颗粒物(PM10),58,66,83,36,35,67,22,44,32,48,29,5,4,0.9,0.9
2023-08-17T20:00:00,1360A,114.2458,22.5689,深圳市,盐田,,26,26,27,18,16,93,6,58,35,52,19,4,4,0.7,0.6
2023-08-17T20:00:00,1361A,114.2283,22.7244,深圳市,龙岗,,45,45,33,24,16,104,9,61,38,55,28,7,7,0.8,0.7
2023-08-17T20:00:00,1363A,114.494,22.5422,深圳市,南澳,,32,32,27,19,17,110,21,67,47,22,14,6,6,0.8,0.7
2023-08-17T20:00:00,1364A,114.41,22.6342,深圳市,葵涌,,38,38,31,20,18,68,4,48,33,27,24,3,3,0.6,0.6
2023-08-17T20:00:00,1365A,114.297,22.5978,深圳市,梅沙,,32,32,36,17,16,83,15,48,34,24,21,5,5,0.6,0.6
2023-08-17T20:00:00,1366A,114.0678,22.738,深圳市,观澜,颗粒物(PM10),54,58,34,30,16,98,5,58,31,56,24,8,8,0.8,0.6
2023-08-17T20:00:00,1367A,113.5814,22.2618,珠海市,吉大,,,32,26,16,15,87,37,67,50,,12,,5,0.7,0.7
2023-08-17T20:00:00,1368A,113.4881,22.2335,珠海市,前山,,26,26,26,13,12,96,38,73,55,21,13,8,8,0.5,0.5
2023-08-17T20:00:00,1369A,113.628,22.4251,珠海市,唐家,,26,25,24,18,16,82,28,58,42,30,12,6,5,0.4,0.4
2023-08-17T20:00:00,1370A,113.299,22.2281,珠海市,斗门,,23,20,23,16,15,87,44,70,58,16,7,5,5,0.5,0.5
2023-08-17T20:00:00,1371A,113.1294,23.0067,佛山市,湾梁,颗粒物(PM10),51,51,26,24,18,66,30,46,46,44,21,5,5,0.6,0.5
2023-08-17T20:00:00,1372A,113.1083,23.0478,佛山市,华材职中,,48,48,30,22,18,62,39,44,44,31,24,10,8,0.5,0.4
2023-08-17T20:00:00,1373A,113.144,23.0453,佛山市,南海气象局,,50,50,34,24,20,56,35,39,39,27,22,5,5,0.7,0.5
2023-08-17T20:00:00,1374A,113.2881,22.8094,佛山市,顺德苏岗,细颗粒物(PM2.5),62,67,23,44,21,69,40,49,46,52,17,8,7,1.1,0.7
2023-08-17T20:00:00,1376A,112.8383,22.8678,佛山市,高明孔堂,,36,36,31,19,22,63,58,54,53,9,11,5,5,0.4,0.5
2023-08-17T20:00:00,1377A,112.8836,23.1588,佛山市,三水监测站,细颗粒物(PM2.5),52,51,35,36,22,90,38,67,67,40,26,4,4,0.7,0.7
2023-08-17T20:00:00,1378A,112.867,23.185,佛山市,三水云东海,颗粒物(PM10),54,58,39,29,23,92,46,68,68,36,27,8,8,0.6,0.4
2023-08-17T20:00:00,1379A,113.3769,22.5211,中山市,华柏园,颗粒物(PM10),52,53,37,28,24,96,52,64,56,24,16,4,4,0.6,0.4
2023-08-17T20:00:00,1380A,113.3881,22.5497,中山市,张溪,颗粒物(PM10),59,67,41,39,30,102,59,68,57,22,14,4,4,0.6,0.5
2023-08-17T20:00:00,1381A,113.4075,22.5111,中山市,紫马岭,,43,42,33,30,25,90,28,64,47,18,11,4,5,0.4,0.4
2023-08-17T20:00:00,1382A,113.4411,22.4853,中山市,长江旅游区,,,,,,,,,,,,,,,,
2023-08-17T20:00:00,1383A,113.1064,22.6058,江门市,北街,细颗粒物(PM2.5),70,74,37,51,29,75,48,57,45,34,15,6,6,0.7,0.4
2023-08-17T20:00:00,1384A,113.0731,22.5835,江门市,西区,颗粒物(PM10),65,80,43,40,20,84,59,65,61,39,19,7,7,0.8,0.5
2023-08-17T20:00:00,1385A,113.0219,22.5311,江门市,圭峰西,细颗粒物(PM2.5),64,73,37,46,20,84,50,74,71,22,11,4,3,0.8,0.5
2023-08-17T20:00:00,1386A,113.0828,22.5947,江门市,东湖,颗粒物(PM10),67,83,45,37,23,86,69,67,56,29,13,7,7,0.8,0.5
2023-08-17T20:00:00,1389A,113.7547,23.0494,东莞市,莞城梨川,颗粒物(PM10),52,54,37,34,18,68,12,51,35,72,28,10,9,1.0,0.8
2023-08-17T20:00:00,1390A,113.7944,23.0128,东莞市,东城石井,,39,39,32,20,15,73,15,48,30,27,19,6,6,0.8,0.7
2023-08-17T20:00:00,1391A,113.7383,22.9658,东莞市,南城西平,颗粒物(PM10),52,53,33,31,17,70,11,43,27,44,22,6,5,0.9,0.9
2023-08-17T20:00:00,1392A,114.4183,23.0528,惠州市,河南岸金山湖子站,,29,29,34,6,17,98,34,73,61,27,20,4,4,0.5,0.6
2023-08-17T20:00:00,1393A,114.4053,23.0822,惠州市,下埔横江三路子站,,32,32,35,17,19,105,40,77,63,27,18,5,9,0.7,0.6
2023-08-17T20:00:00,1394A,114.4103,23.1142,惠州市,江北云山西路子站,,25,25,36,13,20,105,52,77,66,19,15,5,6,0.5,0.5
2023-08-17T20:00:00,1395A,114.4645,22.7833,惠州市,惠阳区承修路船湖子站,,46,46,33,22,15,112,19,68,47,40,23,5,5,0.9,0.8
2023-08-17T20:00:00,1396A,114.5317,22.7422,惠州市,大亚湾管委会子站,,49,49,33,20,16,114,15,70,48,48,25,5,5,0.9,0.7
2023-08-17T20:00:00,1397A,112.4267,23.0706,肇庆市,睦岗子站,颗粒物(PM10),52,54,34,33,19,104,34,75,75,39,24,20,23,0.7,0.6
2023-08-17T20:00:00,1398A,112.4645,23.0475,肇庆市,城中子站,,44,44,40,29,21,90,42,61,61,25,23,8,11,0.7,0.6
2023-08-17T20:00:00,1399A,112.5544,23.1522,肇庆市,坑口子站,,39,39,28,27,18,102,39,71,71,17,24,5,7,0.4,0.4
2023-08-17T20:00:00,1400A,112.4753,23.1,肇庆市,七星岩子站,,,,,,,,,,,,,,,,
2023-08-17T20:00:00,1401A,108.3103,22.7881,南宁市,二十一中,,49,44,39,34,18,108,99,102,102,14,12,4,4,0.8,0.8
2023-08-17T20:00:00,1402A,108.3141,22.8528,南宁市,北湖,颗粒物(PM10),54,58,33,28,19,114,95,107,106,18,8,6,4,0.8,0.7
2023-08-17T20:00:00,1403A,108.3206,22.8225,南宁市,市监测站,,30,29,33,21,18,112,92,104,102,21,13,7,7,0.6,0.6
2023-08-17T20:00:00,1404A,108.3829,22.8037,南宁市,大自然花园,,37,37,31,22,16,105,62,99,94,22,9,5,5,0.7,0.7
2023-08-17T20:00:00,1405A,108.4394,22.7904,南宁市,仙葫,,,38,32,26,20,66,,40,,15,11,4,5,0.5,0.6
2023-08-17T20:00:00,1406A,108.2397,22.8467,南宁市,区农职院,颗粒物(PM10),52,53,35,22,17,108,62,102,97,20,14,8,7,0.6,0.6
2023-08-17T20:00:00,1407A,108.3275,22.735,南宁市,英华嘉园,,39,39,38,18,21,93,59,87,84,26,14,5,6,0.7,0.6
2023-08-17T20:00:00,1408A,108.2257,22.7757,南宁市,沙井镇街道办,,45,44,36,31,16,97,64,94,90,35,19,5,5,0.6,0.6
2023-08-17T20:00:00,1409A,110.576,19.9507,海口市,东寨港,,,,,,,,,,,,,,,,
2023-08-17T20:00:00,1410A,110.3232,20.0574,海口市,海南大学,,24,24,27,11,14,95,58,86,80,26,10,6,6,0.3,0.4
2023-08-17T20:00:00,1411A,110.283,20.0053,海口市,秀英海南医院,,22,22,27,13,14,102,68,85,83,13,13,6,6,0.4,0.4
2023-08-17T20:00:00,1412A,110.338,19.9969,海口市,海南师范大学,,30,30,26,11,13,106,60,92,85,16,9,7,7,0.3,0.4
2023-08-17T20:00:00,1413A,110.33,20.0356,海口市,龙华路环保局宿舍,,23,23,26,12,13,94,71,85,81,9,9,7,7,0.3,0.3
2023-08-17T20:00:00,1414A,106.3787,29.8279,重庆市,缙云山,,47,29,24,11,9,183,148,165,164,5,7,10,9,0.3,0.3
2023-08-17T20:00:00,1416A,106.4213,29.8253,重庆市,天生,,36,32,38,22,24,158,114,142,140,15,27,6,7,0.7,0.8
2023-08-17T20:00:00,1417A,106.6263,29.7228,重庆市,两路,,50,35,26,27,23,237,160,195,189,31,34,7,8,0.9,0.9
2023-08-17T20:00:00,1418A,106.2953,29.5983,重庆市,虎溪,,,,42,,26,199,116,171,166,48,35,5,6,0.7,0.7
2023-08-17T20:00:00,1419A,106.5777,29.5102,重庆市,南坪,,40,40,38,25,22,220,124,172,171,31,22,6,9,0.7,0.7
2023-08-17T20:00:00,1420A,106.6556,29.6277,重庆市,唐家沱,,39,39,34,21,23,221,113,186,178,50,34,5,6,0.5,0.6
2023-08-17T20:00:00,1421A,106.6349,29.4906,重庆市,茶园,,50,42,55,28,21,284,157,202,201,24,49,5,6,0.7,0.8
2023-08-17T20:00:00,1422A,106.3754,29.4572,重庆市,白市驿,,42,37,40,14,22,227,132,170,167,11,21,6,9,0.7,0.8
2023-08-17T20:00:00,1425A,106.6205,29.7166,重庆市,空港,臭氧1小时,62,43,35,21,18,237,169,202,198,28,26,8,9,0.8,0.8
2023-08-17T20:00:00,1426A,106.4782,29.4875,重庆市,新山村,,43,43,42,22,22,228,132,168,166,51,41,6,7,0.7,0.6
2023-08-17T20:00:00,1427A,106.5616,29.6453,重庆市,礼嘉,,43,43,41,17,17,204,56,168,154,83,42,7,10,1.3,0.9
2023-08-17T20:00:00,1428A,106.4522,29.7091,重庆市,蔡家,颗粒物(PM10),60,69,45,27,24,176,108,154,151,32,26,6,7,0.8,0.8
2023-08-17T20:00:00,1429A,106.5093,29.3917,重庆市,鱼新街,颗粒物(PM10),72,93,48,46,26,186,98,158,153,61,42,10,11,1.2,1
2023-08-17T20:00:00,1431A,103.9728,30.7236,成都市,金泉两河,颗粒物(PM10),54,57,45,37,27,120,40,85,77,27,23,4,5,0.6,0.6
2023-08-17T20:00:00,1432A,104.176,30.6872,成都市,十里店,,30,30,55,16,35,145,86,124,121,17,21,4,8,0.5,0.6
2023-08-17T20:00:00,1433A,104.079,30.5706,成都市,三瓦窑,,41,41,60,19,38,183,67,125,120,34,39,2,4,0.6,0.6
2023-08-17T20:00:00,1434A,104.1114,30.63,成都市,沙河铺,,45,45,56,26,37,150,86,120,118,21,21,3,5,0.5,0.6
2023-08-17T20:00:00,1437A,104.0786,30.6531,成都市,君平街,细颗粒物(PM2.5),54,53,60,38,41,182,68,128,122,33,25,3,7,0.8,0.7
2023-08-17T20:00:00,1438A,103.613,31.0283,成都市,灵岩寺,,28,24,26,19,18,106,85,94,90,8,7,11,19,0.7,0.7
2023-08-17T20:00:00,1439A,106.6899,26.5998,贵阳市,马鞍山,,23,19,18,5,7,136,73,102,99,12,11,4,7,0.5,0.5
2023-08-17T20:00:00,1440A,106.6971,26.5694,贵阳市,市环保站,,29,29,24,13,14,146,69,113,108,23,18,4,5,0.3,0.3
2023-08-17T20:00:00,1441A,106.6243,26.6266,贵阳市,鉴湖路,,22,22,24,7,7,130,68,106,103,16,13,2,3,0.6,0.5
2023-08-17T20:00:00,1442A,106.7487,26.6343,贵阳市,燕子冲,,24,17,15,7,9,115,74,100,97,15,13,5,5,0.6,0.6
2023-08-17T20:00:00,1443A,106.6555,26.4365,贵阳市,碧云窝,,22,22,28,7,9,155,59,116,111,14,8,4,6,0.5,0.4
2023-08-17T20:00:00,1444A,106.694,26.5161,贵阳市,中院村,,19,19,21,5,8,135,38,102,94,26,14,5,6,0.5,0.3
2023-08-17T20:00:00,1445A,106.7109,26.6027,贵阳市,红边门,,34,34,24,17,18,129,54,110,103,35,18,5,8,0.5,0.6
2023-08-17T20:00:00,1446A,106.7164,26.5699,贵阳市,新华路,,27,27,20,17,11,140,52,115,107,34,11,5,6,0.4,0.4
2023-08-17T20:00:00,1447A,106.674,26.5424,贵阳市,太慈桥,,16,14,15,9,7,144,50,108,103,27,16,4,5,0.6,0.5
2023-08-17T20:00:00,1450A,102.8204,24.8886,昆明市,呈贡新区,,26,22,25,14,14,115,81,96,96,14,16,4,7,0.5,0.7
2023-08-17T20:00:00,1451A,102.6251,24.9608,昆明市,西山森林公园,,33,15,14,9,10,114,104,99,99,9,9,8,8,0.5,0.4
2023-08-17T20:00:00,1452A,102.7252,25.0902,昆明市,龙泉镇,,39,39,25,15,14,115,82,103,103,17,16,10,10,0.7,0.7
2023-08-17T20:00:00,1453A,102.7266,25.0375,昆明市,东风东路,,31,19,23,13,13,121,98,104,104,18,17,6,7,0.5,0.5
2023-08-17T20:00:00,1454A,102.6742,25.0669,昆明市,金鼎山,,29,20,25,8,19,111,92,100,100,10,11,4,4,0.5,0.5
2023-08-17T20:00:00,1455A,102.6644,25.0401,昆明市,碧鸡广场,,32,17,23,11,15,123,101,106,106,14,20,6,7,0.6,0.6
2023-08-17T20:00:00,1456A,91.1319,29.6514,拉萨市,八廓街,,34,8,14,7,8,116,108,105,105,19,20,8,9,0.2,0.2
2023-08-17T20:00:00,1457A,91.1221,29.6747,拉萨市,市环保局,,33,9,13,6,7,111,104,99,99,10,13,7,8,0.2,0.2
2023-08-17T20:00:00,1458A,91.0874,29.6475,拉萨市,区监测站,,31,20,12,5,7,101,97,93,93,9,17,9,10,0.2,0.2
2023-08-17T20:00:00,1459A,91.1774,29.6541,拉萨市,西藏大学,,37,13,9,8,6,116,116,102,102,7,9,11,14,0.2,0.2
2023-08-17T20:00:00,1460A,90.9798,29.6588,拉萨市,区辐射站,,30,12,11,6,7,96,95,92,92,13,10,9,10,0.1,0.1
2023-08-17T20:00:00,1461A,91.0834,29.6292,拉萨市,拉萨火车站,,31,13,16,5,7,100,99,92,92,6,13,11,12,0.2,0.2
2023-08-17T20:00:00,1462A,108.882,34.2749,西安市,高压开关厂,颗粒物(PM10),109,167,179,45,52,134,109,123,123,16,25,8,10,0.4,0.5
2023-08-17T20:00:00,1463A,108.993,34.2629,西安市,兴庆小区,颗粒物(PM10),100,149,184,45,46,142,109,124,124,18,24,6,7,0.4,0.5
2023-08-17T20:00:00,1464A,109.06,34.2572,西安市,纺织城,颗粒物(PM10),112,173,147,54,56,136,105,124,124,23,37,3,3,0.5,0.5
2023-08-17T20:00:00,1465A,108.9356,34.2173,西安市,小寨,颗粒物(PM10),107,164,149,40,49,128,106,118,118,12,18,7,8,0.3,0.4
2023-08-17T20:00:00,1466A,108.954,34.2713,西安市,市人民体育场,颗粒物(PM10),102,154,184,47,50,125,104,117,117,16,19,6,7,0.4,0.5
2023-08-17T20:00:00,1467A,108.8922,34.2322,西安市,高新西区,颗粒物(PM10),93,135,157,46,48,135,110,122,122,15,16,8,8,0.4,0.5
2023-08-17T20:00:00,1468A,108.935,34.3474,西安市,经开区,颗粒物(PM10),98,146,172,41,55,126,93,115,115,13,29,3,3,0.3,0.5
2023-08-17T20:00:00,1469A,108.906,34.1546,西安市,长安区,颗粒物(PM10),108,166,196,46,46,152,108,127,127,16,20,6,6,0.2,0.3
2023-08-17T20:00:00,1471A,109.2186,34.3731,西安市,临潼区,颗粒物(PM10),113,176,177,56,52,146,98,136,133,23,16,5,5,0.4,0.4
2023-08-17T20:00:00,1472A,108.869,34.378,西安市,草滩,颗粒物(PM10),96,142,154,24,30,145,107,131,130,16,32,7,10,0.3,0.4
2023-08-17T20:00:00,1473A,108.985,34.1978,西安市,曲江文化产业集团,颗粒物(PM10),107,164,188,43,52,130,101,118,118,23,34,5,6,0.4,0.5
2023-08-17T20:00:00,1474A,109.051,34.3213,西安市,广运潭,颗粒物(PM10),104,158,145,47,44,134,101,124,123,17,23,7,7,0.4,0.5
2023-08-17T20:00:00,1476A,103.631,36.1031,兰州市,兰炼宾馆,颗粒物(PM10),53,56,131,33,70,131,103,110,110,26,16,4,4,0.3,0.3
2023-08-17T20:00:00,1477A,104.1373,35.9454,兰州市,榆中兰大校区,,,,,,,,,,,,,,,,
2023-08-17T20:00:00,1478A,103.8412,36.0726,兰州市,生物制品所,,,48,146,22,36,101,67,90,90,,22,7,4,0.7,0.6
2023-08-17T20:00:00,1479A,103.831,36.0464,兰州市,铁路设计院,,48,48,132,22,43,101,71,87,87,51,23,8,8,0.7,0.6
2023-08-17T20:00:00,1483A,101.524,36.6867,西宁市,第五水厂,,,,,,,,,,,,,,,,
2023-08-17T20:00:00,1484A,105.9512,38.6016,银川市,贺兰山马莲口,,42,42,80,10,7,125,104,116,116,6,8,8,10,0.2,0.2
2023-08-17T20:00:00,1488A,106.2328,38.4975,银川市,贺兰山东路,颗粒物(PM10),55,59,120,23,38,131,107,119,119,27,18,9,10,0.4,0.4
2023-08-17T20:00:00,1489A,106.1358,38.5036,银川市,学院路,颗粒物(PM10),51,51,112,16,35,127,93,115,115,32,11,9,13,0.4,0.5
2023-08-17T20:00:00,1490A,87.5801,43.8303,乌鲁木齐市,监测站,,36,36,45,12,16,141,112,119,119,19,45,4,5,0.5,0.7
2023-08-17T20:00:00,1491A,87.6046,43.768,乌鲁木齐市,收费所,,38,22,46,8,18,146,119,125,125,19,42,14,9,0.3,0.4
2023-08-17T20:00:00,1492A,87.4754,43.9469,乌鲁木齐市,新疆农科院农场,,35,16,45,9,24,127,112,115,115,16,43,6,7,0.2,0.4
2023-08-17T20:00:00,1493A,87.5525,43.8711,乌鲁木齐市,铁路局,,37,23,38,13,18,144,118,120,120,23,46,3,4,0.2,0.4
2023-08-17T20:00:00,1494A,87.6432,43.831,乌鲁木齐市,三十一中学,,36,36,47,0,13,139,108,118,118,10,34,5,5,0.4,0.6
2023-08-17T20:00:00,1496A,87.7216,44.1747,乌鲁木齐市,米东区环保局,,37,14,39,9,16,126,117,116,116,2,22,6,7,0.2,0.5
2023-08-17T20:00:00,1508A,112.9433,27.8614,湘潭市,板塘,,48,48,51,29,33,216,132,178,175,18,24,4,5,0.6,0.6
2023-08-17T20:00:00,1511A,112.9118,27.8403,湘潭市,市监测站,,45,37,44,18,27,218,142,188,183,14,18,4,4,0.6,0.8
2023-08-17T20:00:00,1512A,112.8937,27.8728,湘潭市,江麓,,44,41,48,17,25,198,140,178,177,15,21,4,4,0.3,0.3
2023-08-17T20:00:00,1513A,112.9227,27.8159,湘潭市,岳塘,,47,47,48,14,33,206,133,181,177,18,21,4,8,0.2,0.5
2023-08-17T20:00:00,1514A,112.9074,27.9119,湘潭市,科大,,44,44,55,20,30,190,131,171,170,13,24,4,4,0.4,0.4
2023-08-17T20:00:00,1515A,113.135,27.8244,株洲市,天台山庄,,45,45,43,22,25,192,139,175,170,17,16,4,6,0.6,0.7
2023-08-17T20:00:00,1518A,113.095,27.8867,株洲市,株冶医院,,42,40,45,20,26,192,132,157,155,13,22,3,3,0.7,0.8
2023-08-17T20:00:00,1519A,113.167,27.8667,株洲市,市四中,,46,46,47,32,28,181,135,164,161,13,17,6,6,0.4,0.6
2023-08-17T20:00:00,1520A,113.143,27.8381,株洲市,火车站,,50,46,44,35,27,183,144,171,166,20,18,8,14,0.5,0.6
2023-08-17T20:00:00,1524A,113.13,27.8528,株洲市,市监测站,细颗粒物(PM2.5),53,54,48,37,31,197,137,175,170,24,19,7,7,0.5,0.7
2023-08-17T20:00:00,1552A,106.805,26.3003,贵阳市,桐木岭,,,,,,,,,,,,,,,,
2023-08-17T20:00:00,1559A,113.251,27.8336,株洲市,大京风景区,,50,50,39,29,18,146,61,138,124,6,3,9,7,0.6,0.5
2023-08-17T20:00:00,1562A,113.0048,27.9153,湘潭市,昭山,,44,44,52,30,29,219,115,181,175,28,33,5,4,0.5,0.8
2023-08-17T20:00:00,1564A,112.4876,27.9164,湘潭市,韶山,,38,38,40,18,19,141,97,122,121,8,6,11,7,0.3,0.3
2023-08-17T20:00:00,1585A,109.8756,40.6532,包头市,市环境监测站,,47,47,174,12,49,143,101,126,126,34,16,10,8,0.6,0.6
2023-08-17T20:00:00,1587A,109.9991,40.5842,包头市,包头八中,颗粒物(PM10),54,58,197,21,52,148,116,134,134,20,15,11,11,0.8,0.7
2023-08-17T20:00:00,1588A,109.8538,40.6821,包头市,青山宾馆,颗粒物(PM10),52,54,165,22,46,141,99,124,124,32,16,17,5,0.9,0.6
2023-08-17T20:00:00,1589A,109.8642,40.6288,包头市,惠龙物流,,50,50,180,16,52,142,120,128,128,20,14,10,9,0.5,0.5
2023-08-17T20:00:00,1590A,110.0377,40.5546,包头市,东河鸿龙湾,,47,47,175,16,50,140,100,126,126,18,21,13,18,0.7,0.8
2023-08-17T20:00:00,1591A,110.0023,39.8129,鄂尔多斯市,综合楼,颗粒物(PM10),54,58,480,22,147,115,103,98,98,27,26,6,8,0.7,0.7
2023-08-17T20:00:00,1592A,109.9486,39.8261,鄂尔多斯市,巴音孟克林场办事处,颗粒物(PM10),59,68,337,31,147,126,110,113,113,29,18,12,11,0.8,0.6
2023-08-17T20:00:00,1593A,109.7736,39.5986,鄂尔多斯市,康泽苑,,,,278,33,150,121,79,84,80,14,10,,8,0.4,0.4
2023-08-17T20:00:00,1594A,109.8119,39.5989,鄂尔多斯市,华泰汽车城,颗粒物(PM10),67,83,234,34,178,104,70,84,72,18,14,6,6,0.5,0.5
2023-08-17T20:00:00,1595A,109.9734,39.7884,鄂尔多斯市,奥林花园,颗粒物(PM10),58,66,444,24,147,109,64,96,94,47,24,7,7,0.7,0.6
2023-08-17T20:00:00,1597A,122.2703,40.7094,营口市,大庆路,细颗粒物(PM2.5),94,65,40,70,28,174,140,154,149,19,18,5,9,0.9,1
2023-08-17T20:00:00,1598A,122.2150,40.6511,营口市,镜湖西路,细颗粒物(PM2.5),64,59,40,46,26,168,154,144,144,11,12,5,7,0.8,0.9
2023-08-17T20:00:00,1599A,122.1658,40.6789,营口市,西炮台,臭氧1小时,54,52,39,29,18,187,163,156,156,13,20,5,7,0.8,0.8
2023-08-17T20:00:00,1600A,124.3303,40.0625,丹东市,江湾东路,,30,30,23,15,12,105,53,92,88,25,13,5,7,0.8,0.7
2023-08-17T20:00:00,1601A,124.4256,40.1503,丹东市,临江后街,,38,38,21,20,9,105,66,90,87,11,9,5,5,1.1,0.6
2023-08-17T20:00:00,1602A,124.3933,40.1461,丹东市,元宝山,,30,30,19,16,11,91,62,80,78,11,11,6,6,0.8,0.7
2023-08-17T20:00:00,1603A,124.3633,40.1092,丹东市,民主桥,,28,28,21,17,10,105,67,95,92,25,11,4,4,0.9,0.7
2023-08-17T20:00:00,1604A,122.0303,41.1489,盘锦市,开发区,,49,49,39,24,25,174,112,158,149,18,34,3,5,0.8,0.8
2023-08-17T20:00:00,1605A,122.0485,41.0883,盘锦市,兴隆台,,46,46,42,24,26,181,114,160,146,28,38,3,4,0.7,0.8
2023-08-17T20:00:00,1606A,121.8297,41.1028,盘锦市,新生街道,,38,38,32,22,18,174,106,160,150,16,24,5,6,0.6,0.7
2023-08-17T20:00:00,1607A,120.9092,40.7136,葫芦岛市,龙港区,,46,37,62,31,50,189,147,167,160,4,24,5,35,0.8,1
2023-08-17T20:00:00,1608A,120.8392,40.7514,葫芦岛市,化工街,,46,44,53,32,32,141,131,135,135,2,42,5,11,0.6,0.5
2023-08-17T20:00:00,1609A,120.8341,40.7073,葫芦岛市,新区,细颗粒物(PM2.5),52,51,56,36,43,178,131,156,147,7,36,5,9,0.8,1.1
2023-08-17T20:00:00,1610A,120.8695,40.7677,葫芦岛市,东城区,细颗粒物(PM2.5),52,42,58,36,31,185,131,158,151,18,35,6,26,0.8,0.8
2023-08-17T20:00:00,1611A,118.5819,24.9117,泉州市,涂山街,,,,,8,17,142,106,131,124,10,12,4,4,0.8,0.8
2023-08-17T20:00:00,1612A,118.5972,24.8978,泉州市,津头埔,,32,15,33,12,21,151,101,132,125,20,18,3,4,0.8,0.7
2023-08-17T20:00:00,1613A,118.6663,24.9424,泉州市,万安,,35,17,36,13,24,177,109,144,134,16,16,2,3,0.7,0.7
2023-08-17T20:00:00,1614A,118.6117,24.9604,泉州市,清源山,,,,,,,,,,,,,,,,
2023-08-17T20:00:00,1616A,117.6795,36.229,济南市,技术学院,臭氧1小时,105,75,64,40,37,210,209,202,202,20,31,7,10,1.0,1.1
2023-08-17T20:00:00,1618A,118.3429,35.0532,临沂市,沂河小区,,49,27,48,23,29,218,155,184,179,9,19,4,11,0.4,0.4
2023-08-17T20:00:00,1619A,118.295,35.0583,临沂市,鲁南制药厂,,48,22,49,23,24,235,151,198,189,8,18,3,10,0.4,0.4
2023-08-17T20:00:00,1620A,118.2794,34.9976,临沂市,新光毛纺厂,,36,22,41,25,26,206,114,179,168,16,20,5,14,0.6,0.5
2023-08-17T20:00:00,1621A,118.3956,35.0888,临沂市,河东保险公司,,46,12,50,10,27,227,146,176,170,6,26,2,8,0.4,0.5
2023-08-17T20:00:00,1622A,116.3032,37.4674,德州市,儿童乐园,颗粒物(PM10),54,58,54,29,28,235,151,213,205,15,14,7,8,0.7,0.7
2023-08-17T20:00:00,1624A,116.2991,37.4451,德州市,监理站,臭氧1小时,59,57,52,34,31,236,167,206,204,16,19,8,8,0.6,0.6
2023-08-17T20:00:00,1625A,115.9848,36.4372,聊城市,区政府,颗粒物(PM10),53,55,48,28,33,197,160,186,184,17,17,2,5,0.5,0.5
2023-08-17T20:00:00,1628A,118.0062,37.3803,滨州市,市环保局,颗粒物(PM10),57,63,50,36,31,202,146,194,184,16,15,5,5,0.5,0.5
2023-08-17T20:00:00,1629A,118.0018,37.3617,滨州市,第二水厂,颗粒物(PM10),56,61,56,39,35,216,155,203,195,16,19,7,7,0.7,0.7
2023-08-17T20:00:00,1630A,117.9776,37.393,滨州市,北中新校,"颗粒物(PM10),细颗粒物(PM2.5)",57,63,54,40,30,209,163,200,195,12,17,4,4,0.5,0.5
2023-08-17T20:00:00,1631A,118.0414,36.8103,淄博市,人民公园,臭氧1小时,88,53,71,34,38,240,190,233,222,21,38,10,16,0.4,0.5
2023-08-17T20:00:00,1633A,117.8525,36.4847,淄博市,双山,臭氧1小时,67,57,57,34,32,259,173,224,220,20,22,13,12,0.6,0.6
2023-08-17T20:00:00,1634A,117.9592,36.6331,淄博市,气象站,臭氧1小时,72,52,69,36,43,282,177,233,228,16,29,8,13,0.2,0.5
2023-08-17T20:00:00,1635A,118.3092,36.8194,淄博市,莆田园,臭氧1小时,102,68,74,53,44,262,203,243,236,32,34,11,19,0.7,1.3
2023-08-17T20:00:00,1637A,117.558,34.8438,枣庄市,市中区政府,颗粒物(PM10),68,85,65,31,30,194,153,180,177,20,30,10,16,0.3,0.4
2023-08-17T20:00:00,1638A,117.2852,34.7837,枣庄市,薛城环保局,颗粒物(PM10),62,73,58,31,28,205,133,186,181,29,27,9,11,0.6,0.6
2023-08-17T20:00:00,1639A,117.5852,34.7745,枣庄市,峄城区政府,颗粒物(PM10),59,68,57,27,26,206,150,187,183,17,21,7,10,0.6,0.6
2023-08-17T20:00:00,1640A,117.7276,34.5578,枣庄市,台儿庄区环保局,细颗粒物(PM2.5),89,95,55,66,33,189,101,168,159,23,25,8,8,0.9,0.7
2023-08-17T20:00:00,1641A,117.4518,35.0992,枣庄市,山亭区环保局,臭氧1小时,59,53,45,34,30,213,167,197,194,16,14,7,9,0.4,0.4
2023-08-17T20:00:00,1642A,121.2514,37.5639,烟台市,开发区,细颗粒物(PM2.5),62,61,64,44,48,195,161,181,178,20,22,5,6,1.0,1.1
2023-08-17T20:00:00,1643A,121.3719,37.5433,烟台市,轴承厂,臭氧1小时,84,53,60,46,49,218,187,192,192,12,19,6,7,0.5,0.6
2023-08-17T20:00:00,1644A,121.3181,37.5436,烟台市,西郊化工站,细颗粒物(PM2.5),77,48,67,56,49,173,173,164,164,11,22,3,8,0.5,0.6
2023-08-17T20:00:00,1645A,121.4478,37.4822,烟台市,莱山环保局,臭氧1小时,109,39,48,39,40,234,218,199,199,8,17,5,8,0.7,0.8
2023-08-17T20:00:00,1646A,121.2611,37.4967,烟台市,福山环保局,颗粒物(PM10),67,83,69,34,35,196,147,177,172,28,25,7,8,0.7,0.7
2023-08-17T20:00:00,1650A,119.1437,36.7023,潍坊市,环保局,臭氧1小时,72,53,61,38,40,259,177,242,233,17,17,9,11,0.6,0.9
2023-08-17T20:00:00,1653A,116.6251,35.4302,济宁市,火炬城,臭氧1小时,53,54,49,31,27,191,162,171,171,12,14,6,8,0.7,0.8
2023-08-17T20:00:00,1655A,116.5491,35.4042,济宁市,电化厂,颗粒物(PM10),53,56,53,31,31,187,157,173,172,11,16,6,7,0.7,0.7
2023-08-17T20:00:00,1656A,117.1437,36.1937,泰安市,监测站,臭氧1小时,102,58,55,38,37,209,203,191,191,8,11,8,8,0.5,0.5
2023-08-17T20:00:00,1657A,117.0885,36.2017,泰安市,人口学校,臭氧1小时,77,44,44,20,27,188,181,181,179,13,15,6,8,0.6,0.6
2023-08-17T20:00:00,1658A,117.1089,36.1758,泰安市,电力学校,臭氧1小时,105,58,56,34,33,209,209,195,195,10,24,3,4,0.3,0.4
2023-08-17T20:00:00,1659A,119.471,35.4209,日照市,监测站,,46,46,34,29,21,155,116,142,140,37,31,5,5,1.8,1.1
2023-08-17T20:00:00,1660A,119.523,35.4216,日照市,市政府广场,,46,34,36,27,20,197,146,168,167,15,23,13,12,1.1,1.1
2023-08-17T20:00:00,1661A,119.5587,35.4044,日照市,港务局,,43,39,45,27,22,184,137,160,160,14,35,9,10,1.1,1.1
2023-08-17T20:00:00,1662A,122.1214,37.4236,威海市,华夏技校,细颗粒物(PM2.5),62,58,49,44,40,185,157,176,173,25,18,6,7,0.7,0.6
2023-08-17T20:00:00,1663A,122.0508,37.5236,威海市,山大分校,臭氧1小时,94,71,55,51,41,225,195,205,205,13,8,9,10,0.9,0.7
2023-08-17T20:00:00,1664A,122.1067,37.5072,威海市,市监测站,,,,51,,41,223,189,187,187,,15,7,8,1.0,0.8
2023-08-17T20:00:00,1666A,118.6614,37.4309,东营市,市环保局,细颗粒物(PM2.5),55,46,52,39,36,205,163,178,170,7,10,7,8,0.6,0.5
2023-08-17T20:00:00,1669A,113.5824,24.7733,韶关市,市八中,,24,24,37,10,12,127,47,94,74,23,21,15,14,0.6,0.6
2023-08-17T20:00:00,1671A,113.5917,24.7972,韶关市,园林处,,27,27,32,16,17,130,48,82,68,17,18,13,14,0.8,0.8
2023-08-17T20:00:00,1672A,113.6735,24.7791,韶关市,韶关学院,,25,25,36,12,18,139,27,87,64,11,9,7,8,0.6,0.6
2023-08-17T20:00:00,1673A,113.5971,24.6863,韶关市,曲江监测站,,,32,39,12,13,134,38,77,59,15,17,6,8,,0.7
2023-08-17T20:00:00,1674A,116.6794,23.3667,汕头市,金平子站,,16,3,31,7,19,168,49,128,106,30,16,7,7,0.8,0.9
2023-08-17T20:00:00,1675A,116.7244,23.3633,汕头市,龙湖子站,,21,10,29,9,14,169,65,132,116,20,18,4,6,0.8,0.8
2023-08-17T20:00:00,1676A,116.7258,23.2775,汕头市,濠江子站,,21,8,32,8,17,145,66,107,91,10,12,8,9,0.8,0.8
2023-08-17T20:00:00,1677A,116.7519,23.4714,汕头市,澄海子站,,20,12,32,12,16,168,62,137,117,22,19,5,8,0.7,0.8
2023-08-17T20:00:00,1678A,116.6092,23.2539,汕头市,潮阳子站,,22,10,30,7,18,144,68,112,97,12,13,8,9,0.7,0.8
2023-08-17T20:00:00,1680A,110.3539,21.2706,湛江市,湛江影剧院,,38,38,37,21,17,85,56,80,76,14,11,10,10,0.6,0.6
2023-08-17T20:00:00,1681A,110.3928,21.2228,湛江市,市环境监测站,,36,36,37,18,20,80,58,74,72,13,12,10,11,0.6,0.6
2023-08-17T20:00:00,1682A,110.4019,21.1997,湛江市,环保局宿舍,,38,38,39,18,23,87,56,80,76,13,11,15,15,0.5,0.5
2023-08-17T20:00:00,1683A,110.4111,21.2028,湛江市,霞山游泳场,,36,36,42,17,19,87,63,80,78,11,13,17,13,0.6,0.6
2023-08-17T20:00:00,1684A,110.3316,21.2679,湛江市,麻章区环保局,,43,43,42,20,20,79,56,76,73,10,13,8,9,0.7,0.7
2023-08-17T20:00:00,1685A,110.4558,21.2567,湛江市,坡头区环保局,,33,33,30,15,18,89,60,81,78,18,15,9,8,0.5,0.4
2023-08-17T20:00:00,1686A,111.0286,21.4688,茂名市,电白南海,细颗粒物(PM2.5),58,58,35,41,21,113,67,87,84,11,7,11,7,1.0,0.8
2023-08-17T20:00:00,1687A,110.9294,21.6533,茂名市,茂石化七小,,32,31,36,22,22,97,71,83,81,9,8,7,6,0.6,0.5
2023-08-17T20:00:00,1688A,110.9107,21.6687,茂名市,健康路,,29,29,28,12,9,98,68,79,76,9,6,6,2,0.4,0.4
2023-08-17T20:00:00,1689A,110.8592,21.6828,茂名市,高岭,,46,46,38,24,22,91,63,84,81,12,11,19,7,0.6,0.7
2023-08-17T20:00:00,1690A,116.1231,24.3284,梅州市,梅江月梅,,,,26,5,13,123,72,102,100,5,14,1,2,0.7,0.7
2023-08-17T20:00:00,1691A,116.0797,24.2719,梅州市,梅县新城,,21,0,24,10,13,112,66,96,94,10,13,3,4,0.8,0.8
2023-08-17T20:00:00,1692A,116.1248,24.2654,梅州市,环境监控中心,,,,27,4,13,119,72,102,101,8,13,6,7,0.6,0.6
2023-08-17T20:00:00,1693A,115.3653,22.775,汕尾市,市环保局,,17,14,24,10,12,87,52,69,66,11,13,2,2,0.6,0.6
2023-08-17T20:00:00,1694A,115.3706,22.7898,汕尾市,市政府,,18,18,24,2,14,97,54,77,72,11,11,5,5,0.6,0.6
2023-08-17T20:00:00,1695A,115.3622,22.7925,汕尾市,新城中学,,17,13,31,7,13,90,52,73,68,10,10,6,6,0.6,0.6
2023-08-17T20:00:00,1696A,114.6778,23.7569,河源市,源西,,37,37,33,16,15,20,5,12,11,27,17,4,4,0.8,0.8
2023-08-17T20:00:00,1697A,114.6944,23.7586,河源市,东埔,,50,50,33,17,14,128,17,75,56,32,14,5,5,0.7,0.6
2023-08-17T20:00:00,1698A,114.6892,23.7233,河源市,老城,,39,39,31,16,11,127,19,78,56,29,12,4,5,0.8,0.7
2023-08-17T20:00:00,1699A,111.9797,21.8593,阳江市,鸳鸯湖,颗粒物(PM10),57,63,30,29,15,107,107,88,88,7,7,7,8,0.8,0.7
2023-08-17T20:00:00,1701A,111.9491,21.8658,阳江市,马南垌,颗粒物(PM10),53,56,32,36,18,104,104,81,81,8,8,6,7,0.6,0.5
2023-08-17T20:00:00,1702A,113.0426,23.691,清远市,环保大楼,,,28,42,26,26,125,58,111,103,20,19,6,6,,0.5
2023-08-17T20:00:00,1703A,113.0208,23.7106,清远市,凤城街办,,46,46,47,25,25,115,54,94,94,19,16,6,6,0.7,0.6
2023-08-17T20:00:00,1705A,116.6367,23.6719,潮州市,西园路,,24,7,24,0,12,99,76,86,86,2,3,4,5,0.2,0.3
2023-08-17T20:00:00,1706A,116.6447,23.6706,潮州市,档案局,,24,4,20,6,10,111,76,95,93,5,7,4,5,0.3,0.4
2023-08-17T20:00:00,1708A,116.3701,23.5345,揭阳市,新兴,,,,35,12,16,126,57,109,90,15,13,9,11,0.7,0.7
2023-08-17T20:00:00,1709A,116.3264,23.5443,揭阳市,西马,,20,9,35,8,18,114,63,100,89,13,13,7,8,0.7,0.7
2023-08-17T20:00:00,1710A,116.3611,23.5626,揭阳市,东兴,,19,3,35,11,14,115,58,103,88,19,17,7,7,0.8,0.8
2023-08-17T20:00:00,1711A,116.4151,23.5294,揭阳市,渔湖,,19,1,45,4,16,130,60,106,90,13,13,4,10,0.6,0.7
2023-08-17T20:00:00,1712A,112.0392,22.9169,云浮市,新市府,,25,25,28,15,16,76,45,56,56,5,6,4,5,0.6,0.6
2023-08-17T20:00:00,1714A,112.0539,22.9539,云浮市,牧羊,,39,39,37,27,18,76,31,54,54,24,21,8,10,0.6,0.5
2023-08-17T20:00:00,1715A,102.575,24.3711,玉溪市,东风水库,,28,28,24,7,20,87,63,77,76,9,12,4,5,0.6,0.7
2023-08-17T20:00:00,1718A,115.4208,35.2464,菏泽市,气象局,颗粒物(PM10),54,58,50,29,26,171,160,167,167,7,5,5,7,0.5,0.5
2023-08-17T20:00:00,1719A,115.4747,35.2375,菏泽市,市政协,臭氧1小时,63,57,46,33,30,173,170,170,170,8,9,6,9,0.4,0.4
2023-08-17T20:00:00,1721A,113.3819,40.1097,大同市,果树场,,,,,,,,,,,,,,,,
2023-08-17T20:00:00,1723A,113.2994,40.0758,大同市,云冈宾馆,,47,47,127,12,42,117,70,81,81,19,31,10,10,0.9,0.9
2023-08-17T20:00:00,1724A,113.3444,40.0917,大同市,大同大学,,36,36,116,15,38,98,67,75,75,19,26,7,12,0.5,0.5
2023-08-17T20:00:00,1725A,113.2661,40.1269,大同市,安家小村,,31,31,110,17,35,125,74,83,83,10,21,9,11,0.4,0.7
2023-08-17T20:00:00,1726A,113.2711,40.0844,大同市,教育学院,,44,44,144,25,46,87,72,78,78,21,40,8,12,0.7,1.1
2023-08-17T20:00:00,1727A,113.1147,36.1547,长治市,清华站,,41,32,68,19,36,224,130,193,181,10,16,8,10,0.9,1.1
2023-08-17T20:00:00,1728A,113.1031,36.1989,长治市,监测站,,40,29,57,17,35,230,126,194,183,17,19,4,5,1.3,1.2
2023-08-17T20:00:00,1730A,113.0886,36.2125,长治市,审计局,,42,25,56,19,38,219,133,186,178,6,14,6,7,1.2,1.3
2023-08-17T20:00:00,1731A,113.0844,36.1856,长治市,长治八中,,41,20,65,22,35,217,130,186,179,13,17,9,10,0.9,1.1
2023-08-17T20:00:00,1733A,111.5531,36.0783,临汾市,临钢医院,颗粒物(PM10),500,709,148,175,47,220,107,202,190,9,18,8,13,0.6,1.4
2023-08-17T20:00:00,1734A,111.5028,36.0714,临汾市,技工学校,颗粒物(PM10),500,661,155,169,54,225,106,209,193,13,24,7,20,0.4,1.2
2023-08-17T20:00:00,1736A,111.5018,36.0855,临汾市,市委,颗粒物(PM10),500,728,169,176,64,212,101,191,178,13,26,8,20,0.3,1.2
2023-08-17T20:00:00,1738A,113.5758,37.8572,阳泉市,市中心,,35,29,78,24,44,164,109,154,144,18,41,8,16,0.9,1.3
2023-08-17T20:00:00,1739A,113.4894,37.8731,阳泉市,赛鱼,,37,37,72,22,42,158,93,150,134,22,39,6,11,0.7,1.2
2023-08-17T20:00:00,1740A,113.5819,37.8486,阳泉市,南庄,细颗粒物(PM2.5),55,34,108,39,47,174,127,165,158,15,29,8,19,0.8,1.4
2023-08-17T20:00:00,1742A,113.5614,37.8703,阳泉市,平坦,,37,37,98,10,60,176,118,163,153,20,42,7,12,0.8,1.1
2023-08-17T20:00:00,1743A,113.5158,37.8392,阳泉市,大阳泉,细颗粒物(PM2.5),54,18,89,38,49,192,120,147,139,11,12,9,13,0.8,1.2
2023-08-17T20:00:00,1744A,118.9233,42.2816,赤峰市,松山一中,,35,31,42,6,9,134,109,122,119,22,27,10,17,0.4,0.6
2023-08-17T20:00:00,1745A,118.9576,42.2728,赤峰市,哈达街,,39,35,33,15,16,136,122,126,124,16,25,15,23,0.3,0.3
2023-08-17T20:00:00,1746A,118.8788,42.2554,赤峰市,天义路,,39,16,27,7,15,148,124,139,134,16,19,16,16,0.4,0.4
2023-08-17T20:00:00,1748A,123.044,41.1196,鞍山市,深沟寺,,39,39,48,19,26,147,92,117,112,13,19,2,5,1.2,1.7
2023-08-17T20:00:00,1749A,123.011,41.0931,鞍山市,太阳城,,32,32,49,19,26,133,97,116,116,17,27,3,5,1.3,2
2023-08-17T20:00:00,1750A,123.0485,41.1442,鞍山市,太平,,45,45,60,23,27,163,117,146,145,22,27,5,9,1.2,1.7
2023-08-17T20:00:00,1751A,122.9642,41.0971,鞍山市,铁西三道街,,45,45,66,23,31,145,121,127,127,22,37,5,8,1.2,1.9
2023-08-17T20:00:00,1752A,122.9341,41.0833,鞍山市,铁西工业园区,颗粒物(PM10),56,61,68,30,34,149,88,135,128,34,33,6,6,1.6,1.8
2023-08-17T20:00:00,1753A,123.022,41.0821,鞍山市,明达新区,,40,40,44,21,25,146,126,131,131,12,25,4,6,0.9,1.5
2023-08-17T20:00:00,1754A,123.1289,41.0228,鞍山市,千山,,,,,,,,,,,,,,,,
2023-08-17T20:00:00,1755A,123.7977,41.8491,抚顺市,望花区,臭氧1小时,63,63,56,37,49,186,170,159,159,23,26,7,12,0.8,0.9
2023-08-17T20:00:00,1756A,123.9161,41.8822,抚顺市,顺城区,颗粒物(PM10),54,57,46,31,26,138,78,135,128,51,23,5,5,0.8,0.7
2023-08-17T20:00:00,1757A,124.0436,41.8611,抚顺市,东洲区,,49,49,38,30,23,168,110,150,144,25,13,7,6,0.9,0.7
2023-08-17T20:00:00,1758A,123.9247,41.8642,抚顺市,新抚区,颗粒物(PM10),62,73,47,33,28,158,112,146,141,30,17,6,5,1.1,0.9
2023-08-17T20:00:00,1759A,124.0972,41.8961,抚顺市,大伙房水库,,29,17,26,12,16,148,92,135,124,4,10,5,5,0.5,0.5
2023-08-17T20:00:00,1760A,123.7086,41.8391,抚顺市,沈抚新城,颗粒物(PM10),54,58,51,24,34,172,134,160,155,30,23,6,14,0.8,0.8
2023-08-17T20:00:00,1761A,123.8275,41.3064,本溪市,大峪,颗粒物(PM10),53,55,77,27,43,191,100,155,151,24,32,8,10,1.1,2.6
2023-08-17T20:00:00,1762A,123.7567,41.3325,本溪市,溪湖,,50,50,90,28,52,181,103,151,150,19,29,8,12,1.1,2.4
2023-08-17T20:00:00,1763A,123.7169,41.3094,本溪市,彩屯,,39,39,83,23,51,168,44,143,135,33,31,6,6,1.3,2.3
2023-08-17T20:00:00,1764A,123.7669,41.2864,本溪市,东明,细颗粒物(PM2.5),55,58,94,39,54,188,113,152,152,29,42,6,8,1.4,2.7
2023-08-17T20:00:00,1765A,123.7992,41.2664,本溪市,新立屯,颗粒物(PM10),52,53,81,35,37,190,77,141,136,32,36,7,13,1.5,2.7
2023-08-17T20:00:00,1766A,123.8142,41.3472,本溪市,威宁,颗粒物(PM10),65,80,70,44,44,174,70,136,129,21,25,6,7,1.3,1.8
2023-08-17T20:00:00,1767A,121.1115,41.0879,锦州市,南山,颗粒物(PM10),52,54,59,30,43,168,114,153,146,27,14,24,9,1.0,1.1
2023-08-17T20:00:00,1768A,121.0533,40.8434,锦州市,开发区,颗粒物(PM10),56,61,74,34,40,156,137,149,146,19,37,5,13,0.9,1.1
2023-08-17T20:00:00,1769A,121.1836,41.1119,锦州市,百股街道,,43,43,52,24,39,172,108,155,147,21,15,7,17,0.7,0.9
2023-08-17T20:00:00,1770A,121.1178,41.1222,锦州市,天安街道,颗粒物(PM10),55,60,73,30,39,174,119,152,146,19,21,8,5,1.2,1.1
2023-08-17T20:00:00,1771A,121.1303,41.1386,锦州市,北湖公园,颗粒物(PM10),64,77,72,29,42,177,131,156,153,24,19,27,14,1.0,1
2023-08-17T20:00:00,1772A,126.54,43.8622,吉林市,哈达湾,,38,38,33,20,16,192,83,153,150,28,20,8,10,0.7,0.7
2023-08-17T20:00:00,1773A,126.5844,43.8358,吉林市,东局子,,29,29,21,10,10,139,32,113,98,26,16,6,7,0.7,0.6
2023-08-17T20:00:00,1774A,126.5052,43.8245,吉林市,电力学院,颗粒物(PM10),53,56,31,35,14,184,62,140,136,20,16,10,9,0.8,0.6
2023-08-17T20:00:00,1775A,126.6133,43.8972,吉林市,江北,,27,27,20,13,8,105,54,98,85,9,8,7,7,0.8,0.5
2023-08-17T20:00:00,1776A,126.555,43.8306,吉林市,江南公园,,29,29,26,12,13,172,44,125,116,31,22,4,4,0.8,0.7
2023-08-17T20:00:00,1778A,126.7061,43.7133,吉林市,丰满,,,,,,,,,,,,,,,,
2023-08-17T20:00:00,1779A,123.9305,47.3636,齐齐哈尔市,安居小区,,38,38,23,3,10,96,72,85,78,18,11,5,5,0.5,0.4
2023-08-17T20:00:00,1780A,123.9488,47.3386,齐齐哈尔市,中心广场,,26,26,15,3,3,99,72,90,82,17,12,3,3,0.4,0.3
2023-08-17T20:00:00,1781A,123.9483,47.3227,齐齐哈尔市,农牧车辆厂,,26,24,28,11,7,96,81,87,82,10,10,7,7,0.3,0.3
2023-08-17T20:00:00,1783A,123.945,47.2988,齐齐哈尔市,市环境监测站,,25,10,12,12,9,99,80,90,84,8,9,7,7,0.3,0.2
2023-08-17T20:00:00,1784A,129.61,44.561,牡丹江市,环保大楼,,22,22,18,12,9,122,32,94,87,24,12,5,5,0.5,0.4
2023-08-17T20:00:00,1785A,129.6115,44.5782,牡丹江市,文化广场,,30,30,22,21,15,111,26,87,81,35,16,5,5,0.8,0.5
2023-08-17T20:00:00,1786A,129.5904,44.5963,牡丹江市,第一医院,,33,28,25,23,15,106,37,87,82,17,13,4,5,0.5,0.4
2023-08-17T20:00:00,1787A,129.6364,44.6075,牡丹江市,机车工厂,,42,42,26,6,8,95,21,76,66,15,10,3,3,0.5,0.5
2023-08-17T20:00:00,1788A,129.6386,44.5462,牡丹江市,第一中学,,47,47,22,6,6,109,22,86,71,15,8,5,5,0.4,0.3
2023-08-17T20:00:00,1789A,124.81117,46.03138,大庆市,大同区,,49,49,19,13,10,97,54,84,76,21,9,6,6,0.4,0.2
2023-08-17T20:00:00,1790A,125.129,46.533,大庆市,龙凤区,,27,27,13,12,8,120,56,96,88,32,13,6,6,0.6,0.4
2023-08-17T20:00:00,1791A,124.902,46.408,大庆市,红岗区,,22,12,16,15,9,116,58,95,85,13,9,3,3,0.5,0.4
2023-08-17T20:00:00,1792A,125.153,46.586,大庆市,萨尔图区,,29,29,17,14,5,109,66,96,82,27,10,4,4,0.4,0.3
2023-08-17T20:00:00,1793A,124.9042,46.6215,大庆市,让胡路区,,16,15,16,7,8,130,51,92,72,26,13,4,4,0.7,0.4
2023-08-17T20:00:00,1794A,118.3606,31.3519,芜湖市,监测站,,28,18,52,14,32,191,89,162,145,40,36,4,5,0.8,0.9
2023-08-17T20:00:00,1795A,118.3714,31.4134,芜湖市,科创中心,,34,26,57,15,32,192,64,149,135,67,49,6,7,0.9,1
2023-08-17T20:00:00,1796A,118.3673,31.3131,芜湖市,四水厂,,29,22,44,15,30,200,91,161,154,37,32,3,3,0.9,0.9
2023-08-17T20:00:00,1798A,118.5092,31.6837,马鞍山市,湖东路四小,,33,33,43,23,37,203,96,162,148,18,22,6,9,0.7,1
2023-08-17T20:00:00,1799A,118.5024,31.6449,马鞍山市,开发区,,47,47,60,19,32,192,90,158,146,18,25,4,6,1.0,1.1
2023-08-17T20:00:00,1800A,118.5228,31.7231,马鞍山市,慈湖,,,,54,,37,204,94,166,150,,25,,9,1.0,1.1
2023-08-17T20:00:00,1802A,118.6245,31.7241,马鞍山市,濮塘,,29,14,29,15,27,194,92,153,135,7,8,3,3,0.7,0.8
2023-08-17T20:00:00,1803A,115.9872,29.6815,九江市,十里,,48,42,54,30,35,191,152,173,168,18,23,8,10,0.7,1
2023-08-17T20:00:00,1804A,115.9584,29.7046,九江市,茅山头,,48,44,49,33,33,199,137,174,167,33,23,13,10,0.9,1.1
2023-08-17T20:00:00,1805A,115.9877,29.7295,九江市,西园,,50,45,57,35,29,205,152,167,161,24,33,29,14,0.7,0.8
2023-08-17T20:00:00,1806A,116.0172,29.6547,九江市,五七二七厂,,46,42,44,26,25,180,145,168,160,9,9,9,10,0.6,0.8
2023-08-17T20:00:00,1808A,115.9114,29.6038,九江市,综合工业园,,50,50,51,29,31,203,105,177,164,47,29,12,13,0.9,1.1
2023-08-17T20:00:00,1809A,116.0721,29.7535,九江市,石化总厂,颗粒物(PM10),53,56,58,35,32,198,111,161,145,58,33,12,15,0.9,1
2023-08-17T20:00:00,1810A,115.9773,29.5698,九江市,庐山气象台,颗粒物(PM10),55,59,43,29,28,190,160,178,154,7,7,7,10,0.8,0.6
2023-08-17T20:00:00,1812A,112.3931,34.6516,洛阳市,市委党校,颗粒物(PM10),78,106,58,44,34,194,172,176,176,13,11,6,9,0.9,0.6
2023-08-17T20:00:00,1814A,112.4657,34.6871,洛阳市,豫西宾馆,颗粒物(PM10),101,151,68,39,34,225,176,200,200,12,15,2,4,0.8,0.7
2023-08-17T20:00:00,1815A,112.494,34.6886,洛阳市,河南林校,颗粒物(PM10),69,88,52,34,29,218,170,200,200,17,20,4,5,1.0,0.8
2023-08-17T20:00:00,1816A,112.3844,34.623,洛阳市,开发区管委会,臭氧1小时,80,107,56,39,28,193,184,180,180,10,11,7,8,0.7,0.5
2023-08-17T20:00:00,1817A,112.4267,34.6258,洛阳市,市委新办公区,颗粒物(PM10),81,112,53,45,30,196,176,182,182,13,12,7,8,0.8,0.6
2023-08-17T20:00:00,1818A,114.4839,36.0621,安阳市,棉研所,,,,,,,,,,,,,,,,
2023-08-17T20:00:00,1819A,114.3551,36.1017,安阳市,红庙街,颗粒物(PM10),70,90,68,46,35,221,120,194,180,21,15,8,10,1.9,0.8
2023-08-17T20:00:00,1820A,114.361,36.0681,安阳市,银杏小区,,,69,67,,,222,144,200,190,12,14,3,5,1.2,0.7
2023-08-17T20:00:00,1824A,114.3389,34.7781,开封市,肿瘤医院,细颗粒物(PM2.5),55,55,60,39,33,184,145,172,169,9,13,4,4,0.6,0.6
2023-08-17T20:00:00,1826A,114.2885,34.7965,开封市,世纪星幼儿园,,,50,58,,,197,156,183,182,12,16,7,7,0.8,0.8
2023-08-17T20:00:00,1828A,113.227,35.2125,焦作市,市环保局,颗粒物(PM10),57,63,82,36,54,254,142,230,221,17,20,6,9,0.8,0.9
2023-08-17T20:00:00,1830A,113.1992,35.2590,焦作市,影视城,,,,,,,,,,,,,,,,
2023-08-17T20:00:00,1832A,113.3257,33.742,平顶山市,新华旅馆,颗粒物(PM10),60,70,62,27,25,190,132,177,172,25,28,3,4,0.6,0.6
2023-08-17T20:00:00,1833A,113.2919,33.737,平顶山市,规划设计院,颗粒物(PM10),52,53,61,31,31,197,149,181,178,13,19,7,8,0.7,0.7
2023-08-17T20:00:00,1834A,113.182,33.774,平顶山市,平顶山工学院,颗粒物(PM10),61,72,64,31,29,222,157,204,202,17,19,4,6,0.7,0.7
2023-08-17T20:00:00,1835A,111.1922,34.7752,三门峡市,市政府,颗粒物(PM10),159,267,112,72,39,175,144,166,166,20,29,12,6,0.6,0.7
2023-08-17T20:00:00,1836A,111.1587,34.7942,三门峡市,开发区,颗粒物(PM10),163,275,113,64,34,169,137,162,160,20,16,7,7,0.5,0.6
2023-08-17T20:00:00,1838A,111.143,34.7955,三门峡市,风景区,,,,,,,,,,,,,,,,
2023-08-17T20:00:00,1840A,111.2992,30.6981,宜昌市,白龙岗,,44,44,43,22,23,168,118,153,150,22,20,4,3,0.6,0.5
2023-08-17T20:00:00,1841A,111.3549,30.6465,宜昌市,伍家岗,,42,42,40,22,26,169,112,150,146,22,26,3,3,0.7,0.7
2023-08-17T20:00:00,1842A,111.2628,30.6961,宜昌市,点军区,,37,36,36,24,26,178,118,150,148,21,17,5,5,0.7,0.6
2023-08-17T20:00:00,1843A,111.3275,30.7819,宜昌市,夷陵区,,,29,37,17,20,157,112,147,143,32,18,5,4,,0.5
2023-08-17T20:00:00,1844A,112.2494,30.3197,荆州市,市图书馆,臭氧1小时,58,30,49,35,32,192,166,174,174,11,18,9,8,0.6,0.7
2023-08-17T20:00:00,1845A,112.2008,30.3544,荆州市,市委党校,,,,51,41,38,188,162,171,171,11,16,8,10,,0.7
2023-08-17T20:00:00,1847A,113.1094,29.3578,岳阳市,南湖风景区,,43,38,40,27,28,248,135,202,188,19,21,8,9,0.8,0.8
2023-08-17T20:00:00,1848A,113.1493,29.4251,岳阳市,城陵矶,,42,42,45,29,29,240,124,176,162,26,40,8,10,0.7,0.7
2023-08-17T20:00:00,1849A,113.1497,29.3575,岳阳市,开发区,,43,38,40,23,26,219,135,189,180,17,16,6,8,0.7,0.7
2023-08-17T20:00:00,1850A,113.2621,29.4758,岳阳市,云溪区,细颗粒物(PM2.5),62,48,37,44,28,206,115,168,146,15,15,7,8,0.6,0.6
2023-08-17T20:00:00,1851A,112.9943,29.4402,岳阳市,君山区,,45,45,43,29,29,200,117,186,173,18,24,8,11,0.8,0.8
2023-08-17T20:00:00,1852A,113.2117,29.355,岳阳市,金凤水库,,46,29,31,24,22,194,146,169,166,11,13,4,4,0.4,0.5
2023-08-17T20:00:00,1854A,111.6975,28.9703,常德市,市二中,细颗粒物(PM2.5),63,36,37,45,31,157,94,142,133,12,13,3,3,0.7,0.7
2023-08-17T20:00:00,1857A,111.7158,29.1456,常德市,白鹤山,,32,32,22,6,7,138,75,132,120,9,4,6,8,0.3,0.3
2023-08-17T20:00:00,1858A,110.5319,29.1217,张家界市,永定新区,颗粒物(PM10),53,55,30,24,22,121,70,114,106,13,10,6,6,0.4,0.3
2023-08-17T20:00:00,1859A,110.4697,29.1242,张家界市,电业局,,,,,,,,,,,,,,,,
2023-08-17T20:00:00,1860A,110.5594,29.3547,张家界市,未央路,,34,34,35,18,20,107,30,96,80,26,11,3,3,0.3,0.3
2023-08-17T20:00:00,1861A,110.4417,29.315,张家界市,袁家界,,18,14,24,12,19,88,49,66,63,6,8,7,7,0.6,0.6
2023-08-17T20:00:00,1862A,110.4144,25.3167,桂林市,电子科大尧山校区,,26,26,36,17,17,103,71,93,92,7,8,5,9,0.6,0.6
2023-08-17T20:00:00,1863A,110.2819,25.2697,桂林市,监测站,,,,27,,13,107,81,99,99,11,14,,5,0.7,0.6
2023-08-17T20:00:00,1864A,110.3089,25.2708,桂林市,龙隐路小学,,29,29,24,12,14,102,80,96,96,9,12,5,7,0.6,0.5
2023-08-17T20:00:00,1865A,110.2869,25.2178,桂林市,八中,,26,19,26,17,11,104,81,95,95,8,13,4,5,0.6,0.6
2023-08-17T20:00:00,1866A,109.2262,21.588,北海市,牛尾岭水库,,25,25,22,13,7,63,43,60,57,11,8,6,4,0.4,0.4
2023-08-17T20:00:00,1867A,109.1436,21.4086,北海市,海滩公园,颗粒物(PM10),62,73,43,5,8,66,66,64,64,4,6,3,3,0.8,0.7
2023-08-17T20:00:00,1868A,109.0981,21.4661,北海市,新市环保局,,25,25,24,7,11,67,65,65,65,4,4,3,3,0.5,0.5
2023-08-17T20:00:00,1869A,109.1778,21.5233,北海市,北海工业园,,39,39,36,20,16,70,56,68,66,11,9,4,4,0.5,0.6
2023-08-17T20:00:00,1870A,109.4856,24.3895,柳州市,柳东小学,,19,19,28,11,17,98,54,73,67,7,11,11,9,0.5,0.5
2023-08-17T20:00:00,1871A,109.4157,24.3277,柳州市,环保监测站,,31,31,31,20,18,89,42,59,43,26,20,6,6,1.0,0.9
2023-08-17T20:00:00,1872A,109.389,24.341,柳州市,河西水厂,,43,43,37,24,20,86,32,54,44,24,20,7,6,1.0,1.1
2023-08-17T20:00:00,1873A,109.4311,24.2921,柳州市,市四中,,49,49,32,23,17,98,20,62,46,47,20,7,7,2.4,1.1
2023-08-17T20:00:00,1874A,109.4006,24.3631,柳州市,市九中,,,,,,,,,,,,,,,,
2023-08-17T20:00:00,1875A,109.4958,24.3134,柳州市,古亭山,颗粒物(PM10),51,52,33,22,19,97,23,68,50,36,20,12,6,2.1,1
2023-08-17T20:00:00,1876A,109.5078,18.2489,三亚市,河东子站,,21,21,22,12,11,57,38,48,47,13,8,3,3,0.3,0.4
2023-08-17T20:00:00,1877A,109.4964,18.2681,三亚市,河西子站,,20,20,22,9,8,66,43,58,57,17,10,2,2,0.4,0.4
2023-08-17T20:00:00,1878A,104.7778,31.4741,绵阳市,富乐山,,44,44,35,21,20,104,42,75,71,28,20,4,4,0.8,0.7
2023-08-17T20:00:00,1879A,104.7563,31.4535,绵阳市,市人大,,41,41,38,26,21,101,41,76,74,41,29,10,9,0.6,0.6
2023-08-17T20:00:00,1880A,104.6697,31.4668,绵阳市,高新区自来水公司,颗粒物(PM10),53,55,52,27,23,114,36,84,79,47,28,8,8,0.7,0.6
2023-08-17T20:00:00,1881A,104.7287,31.5075,绵阳市,三水厂,颗粒物(PM10),58,65,57,30,27,82,18,53,48,55,43,7,7,0.6,0.6
2023-08-17T20:00:00,1882A,104.563,28.793,宜宾市,石马中学,,41,40,40,26,27,155,129,136,135,10,11,6,7,0.6,0.6
2023-08-17T20:00:00,1883A,104.6201,28.7728,宜宾市,市委,,44,44,45,28,30,131,113,126,124,16,15,9,9,0.8,0.8
2023-08-17T20:00:00,1884A,104.6055,28.793,宜宾市,宜宾四中,,42,41,46,29,32,143,128,134,133,10,12,8,9,0.7,0.7
2023-08-17T20:00:00,1885A,104.639,28.7562,宜宾市,市政府,,,,,,,,,,,,,,,,
2023-08-17T20:00:00,1886A,104.5742,28.7199,宜宾市,黄金嘴,,43,39,40,30,28,141,118,135,133,13,11,4,5,0.8,0.7
2023-08-17T20:00:00,1888A,101.6891,26.571,攀枝花市,弄弄坪,颗粒物(PM10),57,63,53,36,30,174,108,143,143,21,23,14,11,1.1,1.5
2023-08-17T20:00:00,1889A,101.5769,26.5928,攀枝花市,河门口,,41,41,39,22,23,134,78,121,117,23,19,8,11,1.0,1.2
2023-08-17T20:00:00,1890A,101.7169,26.585,攀枝花市,炳草岗,颗粒物(PM10),74,98,54,39,30,205,122,171,171,27,29,24,26,1.3,1.5
2023-08-17T20:00:00,1891A,101.7369,26.5008,攀枝花市,仁和,细颗粒物(PM2.5),64,69,41,46,28,155,117,139,139,26,17,10,12,1.1,1
2023-08-17T20:00:00,1893A,105.4324,28.9634,泸州市,九狮山,,43,41,38,20,20,154,137,140,140,12,16,6,6,0.5,0.5
2023-08-17T20:00:00,1894A,105.4427,28.9063,泸州市,小市上码头,细颗粒物(PM2.5),57,55,71,40,41,177,149,161,161,6,9,2,3,0.8,0.8
2023-08-17T20:00:00,1895A,105.4241,28.8573,泸州市,兰田宪桥,,49,49,58,33,43,175,141,164,163,7,12,5,6,0.6,0.7
2023-08-17T20:00:00,1896A,105.4379,28.8833,泸州市,市环监站,,49,49,54,29,36,172,151,156,156,6,8,5,6,0.8,0.8
2023-08-17T20:00:00,1901A,104.4239,31.1208,德阳市,东山公园,颗粒物(PM10),51,51,51,21,24,125,81,111,103,22,18,3,3,0.6,0.7
2023-08-17T20:00:00,1902A,104.3826,31.1317,德阳市,西小区,,44,44,49,20,28,108,78,100,94,16,19,2,4,0.6,0.6
2023-08-17T20:00:00,1904A,104.3553,31.1091,德阳市,耐火材料厂,颗粒物(PM10),56,61,53,19,29,111,72,101,94,26,18,1,8,0.6,0.7
2023-08-17T20:00:00,1905A,106.056,30.8064,南充市,西山风景区,,38,30,29,20,24,162,121,152,149,5,7,3,4,0.5,0.5
2023-08-17T20:00:00,1906A,106.0789,30.8023,南充市,南充市委,,44,44,49,28,27,167,106,150,145,16,18,9,8,0.5,0.5
2023-08-17T20:00:00,1907A,106.1031,30.8217,南充市,南充炼油厂,,45,45,54,24,27,155,114,144,141,10,22,8,10,0.4,0.4
2023-08-17T20:00:00,1908A,106.1064,30.7856,南充市,高坪区监测站,,33,33,50,23,28,152,103,140,135,18,24,7,8,0.4,0.4
2023-08-17T20:00:00,1909A,106.0642,30.7636,南充市,嘉陵区环保局,,38,38,45,22,26,176,104,158,151,20,23,7,7,0.4,0.4
2023-08-17T20:00:00,1910A,106.1087,30.8388,南充市,市环境监测站,,49,49,55,26,32,149,100,138,133,15,18,7,9,0.4,0.5
2023-08-17T20:00:00,1911A,106.9222,27.6869,遵义市,丁字口,,28,26,18,19,11,139,71,120,115,26,18,4,5,0.9,0.7
2023-08-17T20:00:00,1912A,106.9242,27.7019,遵义市,凤凰山,,32,28,25,22,15,157,96,136,133,12,13,11,8,1.0,0.8
2023-08-17T20:00:00,1913A,106.8906,27.6486,遵义市,忠庄,,,,,,,,,,,,,,,,
2023-08-17T20:00:00,1914A,106.9231,27.6506,遵义市,舟水桥,,38,35,23,26,13,142,68,121,115,16,11,1,1,0.6,0.5
2023-08-17T20:00:00,1915A,106.9178,27.72,遵义市,干田坝,,30,30,17,17,12,159,78,132,126,17,16,7,6,0.6,0.6
2023-08-17T20:00:00,1916A,103.7897,25.5035,曲靖市,环境监测站,,43,43,34,17,19,122,98,114,113,17,20,4,7,0.7,0.7
2023-08-17T20:00:00,1917A,103.8,25.5364,曲靖市,烟厂办公区,,33,23,32,8,16,135,104,122,121,14,16,6,9,0.5,0.6
2023-08-17T20:00:00,1918A,108.7197,34.3956,咸阳市,气象站,,,,,,,,,,,,,,,,
2023-08-17T20:00:00,1919A,108.673,34.3155,咸阳市,实验中学,颗粒物(PM10),89,127,184,39,57,115,94,108,108,35,40,5,5,0.4,0.5
2023-08-17T20:00:00,1920A,108.7233,34.3617,咸阳市,师范学院,颗粒物(PM10),98,146,185,37,54,127,96,114,114,18,28,3,3,0.2,0.3
2023-08-17T20:00:00,1922A,109.0656,35.0994,铜川市,党校,颗粒物(PM10),114,177,186,35,48,122,82,108,104,9,20,8,8,0.5,0.7
2023-08-17T20:00:00,1923A,109.0697,35.0697,铜川市,王益区政府,,,116,133,46,45,131,81,112,107,,19,4,5,,0.4
2023-08-17T20:00:00,1924A,108.9344,34.9058,铜川市,新区管委会,颗粒物(PM10),100,150,168,52,45,132,81,116,112,12,14,4,4,0.6,0.6
2023-08-17T20:00:00,1926A,109.4131,36.6275,延安市,枣园,颗粒物(PM10),79,107,88,33,27,127,70,119,111,35,27,6,6,0.6,0.6
2023-08-17T20:00:00,1927A,109.4761,36.6028,延安市,延大医附院,颗粒物(PM10),80,109,91,38,29,124,78,120,114,31,27,5,5,0.4,0.3
2023-08-17T20:00:00,1929A,109.5056,36.6106,延安市,百米大道,颗粒物(PM10),79,107,104,26,32,125,88,120,116,24,31,5,5,0.5,0.6
2023-08-17T20:00:00,1930A,107.185,34.3063,宝鸡市,庙沟村,,49,44,217,34,66,94,56,81,79,31,9,7,7,0.3,0.3
2023-08-17T20:00:00,1931A,107.0708,34.3017,宝鸡市,竹园沟,,50,50,164,19,56,115,82,100,100,10,12,5,4,0.4,0.4
2023-08-17T20:00:00,1932A,107.1906,34.3672,宝鸡市,三陆医院,,39,39,180,20,69,123,94,104,104,22,20,6,6,0.4,0.5
2023-08-17T20:00:00,1933A,107.1431,34.3547,宝鸡市,监测站,,43,43,159,24,55,112,95,97,97,20,20,6,6,0.4,0.5
2023-08-17T20:00:00,1934A,107.1186,34.3739,宝鸡市,技工学校,,,,73,,,101,95,101,98,15,14,,7,0,0
2023-08-17T20:00:00,1935A,107.3906,34.3528,宝鸡市,陈仓区环保局家属楼,颗粒物(PM10),55,60,187,22,66,118,93,105,104,13,14,14,6,0.6,0.5
2023-08-17T20:00:00,1936A,107.2058,34.3497,宝鸡市,文理学院,,48,48,186,26,64,121,96,104,104,18,15,5,4,0.4,0.5
2023-08-17T20:00:00,1937A,107.2386,34.3622,宝鸡市,三迪小学,,41,41,182,13,60,118,91,103,103,19,14,5,5,0.4,0.5
2023-08-17T20:00:00,1938A,109.5293,34.5101,渭南市,农科所,颗粒物(PM10),144,237,171,63,56,212,107,154,153,20,14,5,5,0.3,0.3
2023-08-17T20:00:00,1939A,109.4974,34.4877,渭南市,日报社,颗粒物(PM10),123,195,179,63,57,159,86,146,141,43,28,4,5,0.3,0.3
2023-08-17T20:00:00,1940A,109.4636,34.493,渭南市,体育馆,颗粒物(PM10),123,195,174,54,50,164,94,153,148,28,19,3,3,0.3,0.4
2023-08-17T20:00:00,1941A,109.4259,34.5023,渭南市,高新一小,颗粒物(PM10),121,191,175,51,52,162,87,146,142,31,19,5,5,0.4,0.4
2023-08-17T20:00:00,1943A,102.1725,38.5339,金昌市,新川苑,,40,23,14,4,5,132,127,129,129,12,11,8,13,0.6,0.5
2023-08-17T20:00:00,1944A,102.1692,38.5167,金昌市,天庆家园,,,,13,,11,139,132,135,134,13,14,6,15,0.8,0.7
2023-08-17T20:00:00,1945A,98.2908,39.7711,嘉峪关市,气象局,,40,29,33,12,11,141,126,133,133,8,26,6,8,0.4,0.5
2023-08-17T20:00:00,1947A,106.3394,38.817,石嘴山市,沙湖旅游区,颗粒物(PM10),60,69,123,28,39,156,129,140,140,12,10,4,7,0.6,0.6
2023-08-17T20:00:00,1948A,106.3668,39.0145,石嘴山市,大武口朝阳西街,颗粒物(PM10),63,75,114,25,31,145,124,134,134,18,8,2,4,0.3,0.2
2023-08-17T20:00:00,1949A,106.7704,39.2282,石嘴山市,惠农南大街,颗粒物(PM10),74,97,134,29,33,171,129,144,144,27,13,27,14,0.8,0.3
2023-08-17T20:00:00,1950A,106.7099,39.1325,石嘴山市,红果子镇惠新街,颗粒物(PM10),72,94,116,29,30,166,133,142,142,15,15,10,16,0.3,0.3
2023-08-17T20:00:00,1951A,84.895,45.6094,克拉玛依市,长征新村,,34,14,13,13,6,117,107,107,107,10,9,10,9,0.2,0.2
2023-08-17T20:00:00,1952A,84.8988,45.5893,克拉玛依市,南林小区,,34,12,16,9,9,115,106,106,106,15,17,9,8,0.2,0.2
2023-08-17T20:00:00,1954A,84.905,44.3396,克拉玛依市,独山子区,,40,14,27,9,13,127,126,122,122,5,10,10,8,0.3,0.4
2023-08-17T20:00:00,1955A,85.6979,46.098,克拉玛依市,乌尔禾区商贸楼,,35,11,12,3,6,114,111,108,108,4,4,5,5,0.4,0.4
2023-08-17T20:00:00,1956A,86.1472,41.7538,巴音郭楞州,孔雀公园,颗粒物(PM10),63,75,51,18,13,143,132,130,130,6,25,6,9,0.2,0.4
2023-08-17T20:00:00,1957A,86.1972,41.7166,巴音郭楞州,棉纺厂,,42,41,41,10,19,153,132,134,134,8,33,4,6,0.2,0.3
2023-08-17T20:00:00,1958A,86.2357,41.7173,巴音郭楞州,经济开发区,,44,41,33,21,14,151,138,135,135,7,12,6,7,0.2,0.3
2023-08-17T20:00:00,1961A,117.532,36.6868,济南市,东山小学,颗粒物(PM10),56,61,57,32,27,209,160,199,194,19,24,4,4,0.6,0.5
2023-08-17T20:00:00,1966A,120.0405,35.8735,青岛市,黄岛区4号,臭氧1小时,74,34,39,34,26,199,179,190,190,12,20,7,5,1.2,0.8
2023-08-17T20:00:00,1982A,122.0693,37.2174,威海市,文登开发区,,44,39,52,22,29,191,139,169,158,16,15,6,7,0.7,0.8
2023-08-17T20:00:00,2031A,113.1817,27.9958,株洲市,云田中学,颗粒物(PM10),51,52,39,19,22,183,131,166,161,15,8,6,6,0.7,0.8
2023-08-17T20:00:00,2054A,114.1099,32.1059,信阳市,平桥分局,,,,32,,22,182,126,158,154,11,16,2,1,0.7,0.9
2023-08-17T20:00:00,2064A,113.9956,32.1271,信阳市,南湾水厂,,47,47,36,20,20,148,111,143,139,17,7,2,2,0.8,0.7
2023-08-17T20:00:00,2065A,114.0775,32.1195,信阳市,市酿酒公司,,45,45,32,22,25,166,132,153,150,12,16,2,2,0.6,0.7
2023-08-17T20:00:00,2066A,114.0609,32.1399,信阳市,审计局,,44,44,41,26,27,166,130,157,153,14,13,3,2,0.7,0.7
2023-08-17T20:00:00,2067A,114.6613,33.6128,周口市,市环境监测站,颗粒物(PM10),59,67,46,33,29,189,152,181,176,18,22,4,6,0.5,0.4
2023-08-17T20:00:00,2068A,114.6758,33.6347,周口市,周口师范,颗粒物(PM10),55,59,52,24,26,189,149,183,178,15,18,2,2,0.6,0.6
2023-08-17T20:00:00,2069A,114.6546,33.5979,周口市,市运管处,颗粒物(PM10),51,51,55,31,27,186,160,177,175,20,32,5,5,0.5,0.4
2023-08-17T20:00:00,2070A,114.6369,33.6406,周口市,川汇区环保局,颗粒物(PM10),58,66,52,27,24,183,151,178,175,13,21,3,3,0.7,0.8
2023-08-17T20:00:00,2075A,117.6336,24.4674,漳州市,九湖,,,,,,,,,,,,,,,,
2023-08-17T20:00:00,2160A,112.85,35.5051,晋城市,自来水公司,,50,50,83,5,37,269,134,218,208,20,22,7,11,1.0,1.3
2023-08-17T20:00:00,2161A,112.8318,35.4936,晋城市,白云商贸,,,,,,,,,,,,,,,,
2023-08-17T20:00:00,2162A,112.8508,35.4887,晋城市,市环保局,,40,34,86,19,40,258,126,212,201,26,27,8,11,1.0,1.3
2023-08-17T20:00:00,2163A,112.8676,35.4897,晋城市,技术学院,,42,38,72,9,36,267,132,219,208,26,25,8,11,1.1,1.3
2023-08-17T20:00:00,2165A,112.8453,35.546,晋城市,白马寺,,,,,,,,,,,,,,,,
2023-08-17T20:00:00,2166A,112.4397,39.3522,朔州市,平朔,颗粒物(PM10),123,196,147,63,52,122,75,109,103,11,40,4,13,0.5,0.7
2023-08-17T20:00:00,2167A,112.4575,39.3617,朔州市,朔唯,颗粒物(PM10),130,210,175,80,56,139,74,115,108,10,34,6,13,0.5,0.7
2023-08-17T20:00:00,2168A,112.4258,39.3197,朔州市,区政府,颗粒物(PM10),137,224,147,62,52,134,66,114,104,27,38,3,12,0.6,0.8
2023-08-17T20:00:00,2169A,112.4072,39.3278,朔州市,市环保局,颗粒物(PM10),141,232,157,65,56,137,33,122,106,53,38,6,15,0.5,0.7
2023-08-17T20:00:00,2170A,112.4272,39.3681,朔州市,市二中,颗粒物(PM10),125,200,181,70,59,118,65,109,102,22,51,5,15,0.5,0.7
2023-08-17T20:00:00,2171A,112.7532,37.6945,晋中市,锦纶小区,,41,17,72,19,31,181,130,145,145,15,25,9,11,0.6,0.9
2023-08-17T20:00:00,2173A,112.7249,37.7067,晋中市,南都小区,,39,29,74,18,37,184,122,143,143,18,27,5,8,0.6,0.9
2023-08-17T20:00:00,2174A,112.6991,37.6982,晋中市,榆次区政府,,39,30,78,27,35,180,120,143,143,18,26,6,10,0.5,0.9
2023-08-17T20:00:00,2175A,110.9956,35.0147,运城市,运城中学,颗粒物(PM10),179,308,120,70,41,173,150,168,168,14,14,4,5,0.6,0.8
2023-08-17T20:00:00,2178A,110.9686,35.0303,运城市,地区技校,颗粒物(PM10),187,323,131,59,40,165,142,160,159,12,15,4,5,0.4,0.6
2023-08-17T20:00:00,2179A,111.0414,35.1147,运城市,空港新区,颗粒物(PM10),188,326,164,88,48,171,144,163,163,17,24,4,5,0.4,0.6
2023-08-17T20:00:00,2181A,112.7383,38.4519,忻州市,开发区,颗粒物(PM10),78,105,62,50,33,121,72,88,88,27,34,10,14,0.9,0.8
2023-08-17T20:00:00,2182A,112.7003,38.4928,忻州市,会展中心,细颗粒物(PM2.5),90,124,63,67,37,97,72,84,84,21,33,8,10,0.8,0.7
2023-08-17T20:00:00,2183A,111.1406,37.5211,吕梁市,环保局,颗粒物(PM10),324,439,336,151,107,115,115,107,107,10,29,7,7,0.6,0.7
2023-08-17T20:00:00,2185A,111.1297,37.5136,吕梁市,自来水公司,颗粒物(PM10),295,416,332,144,106,118,110,105,105,12,20,6,7,0.6,0.6
2023-08-17T20:00:00,2187A,106.8174,39.6973,乌海市,市林业局,,31,30,104,15,29,140,98,133,129,6,5,8,7,0.5,0.5
2023-08-17T20:00:00,2188A,106.7907,39.6667,乌海市,中海勃湾学校,,41,24,95,8,26,139,130,135,135,6,5,7,7,0.3,0.3
2023-08-17T20:00:00,2191A,122.2532,43.6801,通辽市,艺术职业学校,,31,31,27,14,12,133,80,118,106,16,16,5,5,0.3,0.4
2023-08-17T20:00:00,2192A,119.7594,49.2261,呼伦贝尔市,区环保局,,49,35,25,34,26,81,76,72,72,11,13,5,5,0.4,0.5
2023-08-17T20:00:00,2195A,107.4212,40.761,巴彦淖尔市,附二中,,46,35,539,11,113,155,147,151,151,11,8,4,7,0.5,0.5
2023-08-17T20:00:00,2196A,107.37,40.7372,巴彦淖尔市,市环保大楼,,43,29,475,8,117,147,136,144,144,8,7,4,5,0.5,0.4
2023-08-17T20:00:00,2197A,113.1306,40.9923,乌兰察布市,集宁新区,,36,36,100,21,34,101,77,88,88,25,20,13,12,0.4,0.5
2023-08-17T20:00:00,2200A,122.0392,46.0656,兴安盟,胜华新制药厂,,34,24,17,16,11,108,108,83,83,11,14,3,3,0.5,0.5
2023-08-17T20:00:00,2201A,121.9504,46.0741,兴安盟,科右前旗环保局,,36,15,16,11,12,114,114,94,94,6,8,2,3,0.5,0.5
2023-08-17T20:00:00,2202A,116.1042,43.9317,锡林郭勒盟,市环保监测站,颗粒物(PM10),53,55,41,13,11,123,69,102,98,46,7,8,9,0.3,0.2
2023-08-17T20:00:00,2203A,116.0781,43.9311,锡林郭勒盟,市政府,,28,25,32,4,8,125,89,102,101,32,10,12,12,0.3,0.2
2023-08-17T20:00:00,2204A,105.6467,38.8363,阿拉善盟,西城区西花园,,41,25,60,4,22,143,131,137,137,13,5,6,6,0.4,0.4
2023-08-17T20:00:00,2205A,105.6985,38.8411,阿拉善盟,蒙二幼,,44,14,54,4,16,146,138,140,140,10,5,6,7,0.4,0.2
2023-08-17T20:00:00,2206A,105.724,38.8516,阿拉善盟,环保局新楼,,40,13,48,3,17,139,127,133,133,8,5,7,7,0.3,0.3
2023-08-17T20:00:00,2207A,121.6094,41.998,阜新市,工业园区,,,56,57,26,23,157,105,144,136,24,31,20,10,,0.9
2023-08-17T20:00:00,2208A,121.6697,42.0279,阜新市,长青街,,32,32,55,22,28,151,99,135,128,12,21,5,13,0.6,2.4
2023-08-17T20:00:00,2209A,121.6673,42.0705,阜新市,农业园区,,35,28,38,24,22,169,104,144,140,9,10,10,26,0.7,1.4
2023-08-17T20:00:00,2210A,121.6717,42.0224,阜新市,东苑,,38,38,57,22,30,159,100,136,130,14,19,7,19,0.6,2.2
2023-08-17T20:00:00,2211A,121.6506,42.0498,阜新市,玉龙新城,,40,40,48,24,18,150,91,131,124,15,21,9,10,0.9,1.4
2023-08-17T20:00:00,2212A,123.2,41.1953,辽阳市,宏伟区,,38,33,46,21,21,180,120,162,158,21,27,6,7,1.2,1.4
2023-08-17T20:00:00,2213A,123.1683,41.2495,辽阳市,新华园,,44,44,59,27,28,160,102,139,136,20,30,5,8,1.3,1.4
2023-08-17T20:00:00,2214A,123.2354,41.2639,辽阳市,滨河路,颗粒物(PM10),51,52,49,27,27,170,103,155,134,19,23,7,8,1.2,1.3
2023-08-17T20:00:00,2215A,123.149,41.2991,辽阳市,铁西工业园,,42,42,69,27,33,162,99,142,136,20,33,16,19,1.4,1.9
2023-08-17T20:00:00,2216A,123.8139,42.3022,铁岭市,汇工街西,,33,14,30,8,13,142,103,125,124,7,21,7,22,0.4,0.4
2023-08-17T20:00:00,2217A,123.8649,42.2923,铁岭市,水上乐园,,28,28,28,12,10,139,78,127,122,42,20,5,5,0.6,0.6
2023-08-17T20:00:00,2218A,123.8486,42.2867,铁岭市,银州路东段,,32,32,29,12,6,118,97,110,110,19,22,6,6,0.4,0.4
2023-08-17T20:00:00,2219A,123.7153,42.2217,铁岭市,金沙江路北,,23,23,32,14,14,136,64,120,112,27,19,6,5,0.7,0.7
2023-08-17T20:00:00,2220A,120.4318,41.5881,朝阳市,西梁,颗粒物(PM10),59,67,58,26,31,150,112,139,132,9,21,8,11,0.7,0.8
2023-08-17T20:00:00,2221A,120.4521,41.5646,朝阳市,河畔小区,颗粒物(PM10),81,111,57,19,25,141,116,133,130,6,12,6,6,0.7,0.8
2023-08-17T20:00:00,2222A,120.4176,41.5648,朝阳市,八里堡,,,68,48,28,29,141,100,133,126,,21,8,8,0.9,0.9
2023-08-17T20:00:00,2223A,120.3806,41.5969,朝阳市,农业园区,颗粒物(PM10),59,67,46,23,25,151,98,133,127,14,22,5,5,0.8,0.8
2023-08-17T20:00:00,2225A,124.4002,43.1713,四平市,一商场,颗粒物(PM10),57,63,38,16,11,126,69,110,107,26,24,7,7,0.4,0.4
2023-08-17T20:00:00,2226A,124.388,43.193,四平市,境园,,30,30,26,18,11,117,64,101,99,17,20,7,8,0.2,0.3
2023-08-17T20:00:00,2227A,125.1358,42.8845,辽源市,环保局,,15,14,17,10,11,98,32,85,77,27,19,7,8,0.7,0.5
2023-08-17T20:00:00,2229A,125.9358,41.7173,通化市,光明,,15,15,34,7,16,98,32,89,80,28,20,8,17,0.5,0.8
2023-08-17T20:00:00,2230A,125.9446,41.7325,通化市,铁路,,21,21,37,11,22,105,33,89,82,20,21,9,25,0.7,1.4
2023-08-17T20:00:00,2231A,126.4219,41.9171,白山市,喜丰,,28,28,26,4,8,104,14,80,66,26,15,8,8,0.6,0.6
2023-08-17T20:00:00,2232A,126.4077,41.9419,白山市,环保局,,28,28,29,11,9,111,24,80,68,20,13,7,7,0.6,0.6
2023-08-17T20:00:00,2233A,124.8006,45.1214,松原市,江南,,48,48,21,13,10,92,68,88,82,14,11,8,6,0.6,0.5
2023-08-17T20:00:00,2234A,124.7965,45.1722,松原市,江北,,20,20,17,9,9,106,58,88,80,16,13,5,5,0.5,0.5
2023-08-17T20:00:00,2235A,122.7911,45.6077,白城市,洮北区环保局,,23,23,19,5,5,120,71,113,89,14,12,5,5,0.1,0.1
2023-08-17T20:00:00,2236A,122.8738,45.5725,白城市,市环保局,,26,26,20,6,5,102,48,90,67,26,10,6,7,0.3,0.3
2023-08-17T20:00:00,2237A,129.47,42.8883,延边朝鲜族自治州,妇幼医院,,10,10,15,5,5,83,20,67,63,19,9,7,8,0.5,0.5
2023-08-17T20:00:00,2238A,129.5055,42.9108,延边朝鲜族自治州,延边医院,,36,36,20,11,6,70,14,53,48,30,12,7,7,0.7,0.6
2023-08-17T20:00:00,2239A,129.3964,42.8881,延边朝鲜族自治州,朝阳川镇医院,,36,36,15,16,6,92,12,72,66,14,7,6,7,0.5,0.4
2023-08-17T20:00:00,2240A,130.9762,45.3001,鸡西市,环保局,,34,34,26,12,11,65,5,57,48,49,16,5,5,0.7,0.4
2023-08-17T20:00:00,2243A,130.9429,45.3039,鸡西市,第一中学,颗粒物(PM10),55,59,24,16,9,76,42,71,63,21,13,6,6,0.4,0.4
2023-08-17T20:00:00,2244A,130.2537,47.3416,鹤岗市,哈啤分公司,,31,31,16,10,9,92,51,73,72,19,9,14,11,0.4,0.3
2023-08-17T20:00:00,2245A,130.2684,47.3086,鹤岗市,斯达机电,,25,25,17,11,8,92,59,71,70,16,11,7,8,0.5,0.4
2023-08-17T20:00:00,2246A,130.3114,47.3388,鹤岗市,东山纸板厂,颗粒物(PM10),51,51,38,15,11,66,19,60,52,32,15,11,10,0.5,0.5
2023-08-17T20:00:00,2247A,130.1097,47.3382,鹤岗市,五号水库,,10,9,10,7,9,95,20,70,60,8,6,11,11,0.1,0.1
2023-08-17T20:00:00,2248A,131.1511,46.6937,双鸭山市,双合村,颗粒物(PM10),52,54,28,1,9,78,8,70,60,24,9,5,6,0.3,0.5
2023-08-17T20:00:00,2249A,131.1652,46.6191,双鸭山市,南小市,,31,31,25,13,10,82,22,77,69,19,9,6,6,0.2,0.3
2023-08-17T20:00:00,2250A,131.1524,46.6554,双鸭山市,环保局,颗粒物(PM10),59,67,18,16,10,78,13,74,65,32,12,9,8,2.0,0.6
2023-08-17T20:00:00,2251A,131.12,46.5656,双鸭山市,苗圃,,29,29,10,12,8,87,29,78,65,5,6,2,4,0.4,0.6
2023-08-17T20:00:00,2252A,128.5159,47.4311,伊春市,环保局,,18,18,19,8,12,82,52,74,72,8,7,7,5,0.3,0.3
2023-08-17T20:00:00,2253A,128.9102,47.7412,伊春市,电力嘉园,,20,9,8,14,7,92,38,77,74,6,6,5,5,0.5,0.5
2023-08-17T20:00:00,2254A,129.5029,48.471,伊春市,汤旺河国家公园,,29,29,27,13,12,49,24,40,37,1,1,14,13,1.2,1.3
2023-08-17T20:00:00,2255A,130.2751,46.8028,佳木斯市,佳纺,,39,39,33,13,12,97,33,81,74,20,15,5,5,0.5,0.5
2023-08-17T20:00:00,2256A,130.3995,46.8307,佳木斯市,发电厂,,26,26,21,11,8,92,49,87,80,6,7,4,4,0.5,0.4
2023-08-17T20:00:00,2257A,130.3258,46.7975,佳木斯市,环保局,,36,36,31,15,12,98,30,83,75,22,18,4,4,0.5,0.5
2023-08-17T20:00:00,2258A,130.3648,46.8032,佳木斯市,十一中,,39,39,28,19,14,95,27,78,69,31,18,5,6,0.7,0.5
2023-08-17T20:00:00,2259A,130.3794,46.7588,佳木斯市,四丰,,29,29,22,10,9,142,62,126,114,4,10,1,1,0.4,0.4
2023-08-17T20:00:00,2262A,131.0518,45.8751,七台河市,新一中,,40,28,17,28,10,84,46,78,74,8,6,5,7,0.7,0.7
2023-08-17T20:00:00,2263A,127.4833,50.2524,黑河市,交通局,,21,21,14,14,7,125,43,83,82,24,14,4,8,0.8,0.6
2023-08-17T20:00:00,2264A,127.5144,50.2341,黑河市,环保局,,34,34,29,7,7,126,52,90,90,9,11,3,6,0.5,0.5
2023-08-17T20:00:00,2265A,127.5291,50.2472,黑河市,大黑河岛,,25,3,12,17,16,148,49,111,107,2,2,1,5,0.5,0.5
2023-08-17T20:00:00,2266A,126.9785,46.6365,绥化市,人和东街,,,,23,,8,103,75,98,96,,13,3,4,,0.4
2023-08-17T20:00:00,2267A,126.964,46.6528,绥化市,党政办公中心,,50,50,21,23,9,102,55,97,92,33,12,5,4,0.5,0.3
2023-08-17T20:00:00,2269A,124.1069,50.4097,大兴安岭地区,科技局,,19,10,9,5,7,84,58,74,74,6,4,7,5,0.4,0.4
2023-08-17T20:00:00,2270A,117.396,32.939,蚌埠市,工人疗养院,,33,28,39,16,21,144,104,136,128,8,12,3,3,0.4,0.4
2023-08-17T20:00:00,2271A,117.3605,32.9427,蚌埠市,百货大楼,,36,36,44,19,20,149,108,140,132,7,14,4,5,0.4,0.5
2023-08-17T20:00:00,2273A,117.4185,32.8911,蚌埠市,蚌埠学院,,41,41,39,24,27,155,98,141,130,16,17,5,6,0.4,0.5
2023-08-17T20:00:00,2274A,117.3533,32.9673,蚌埠市,淮上区政府,,32,29,41,22,25,136,97,132,126,9,16,4,5,0.4,0.5
2023-08-17T20:00:00,2275A,117.3145,32.8977,蚌埠市,高新区,,39,39,38,19,19,156,102,146,137,13,13,6,4,0.3,0.4
2023-08-17T20:00:00,2277A,116.8305,32.7727,淮南市,潘集区政府,,36,36,41,25,26,137,97,130,125,17,14,4,6,0.3,0.4
2023-08-17T20:00:00,2278A,117.0067,32.6524,淮南市,师范学院,,45,40,44,31,23,156,107,139,136,17,12,7,7,0.5,0.5
2023-08-17T20:00:00,2279A,116.8569,32.5951,淮南市,谢家集区政府,,,,34,,17,147,125,137,137,11,17,7,9,0.3,0.4
2023-08-17T20:00:00,2280A,116.8281,32.633,淮南市,八公山区政府,,,,46,,26,152,119,142,138,13,11,10,10,0.3,0.4
2023-08-17T20:00:00,2281A,116.6325,32.6201,淮南市,焦岗湖风景区管理处,,29,29,41,14,19,119,83,114,110,15,23,3,3,0.4,0.4
2023-08-17T20:00:00,2282A,116.8004,33.975,淮北市,监测站,,45,31,41,15,24,158,144,148,146,11,14,3,3,0.6,0.7
2023-08-17T20:00:00,2283A,116.8091,33.9007,淮北市,烈山区政府,,43,43,54,22,27,173,135,157,145,16,16,1,5,0.5,0.6
2023-08-17T20:00:00,2285A,117.8177,30.9412,铜陵市,市第四中学,,40,40,53,27,31,138,108,128,127,10,22,6,9,0.4,0.6
2023-08-17T20:00:00,2286A,117.8059,30.9273,铜陵市,市公路局,,39,25,50,22,31,157,124,147,146,11,23,5,8,0.5,0.7
2023-08-17T20:00:00,2287A,117.7807,30.9413,铜陵市,市新民污水厂,,46,46,59,20,24,162,128,152,150,12,24,6,5,0.6,0.6
2023-08-17T20:00:00,2288A,117.7439,30.8792,铜陵市,市第九中学,,48,48,65,32,29,148,104,137,133,37,34,3,4,1.0,0.9
2023-08-17T20:00:00,2289A,117.846,30.9413,铜陵市,车站新区,,39,39,47,24,30,147,106,136,130,18,23,4,6,0.5,0.6
2023-08-17T20:00:00,2290A,117.8483,30.97,铜陵市,市职教基地,,34,34,41,23,22,142,100,129,127,14,16,4,5,1.0,0.9
2023-08-17T20:00:00,2291A,117.0809,30.5177,安庆市,环科院,,49,49,31,18,20,168,146,148,146,11,21,4,5,0.7,0.7
2023-08-17T20:00:00,2292A,117.0331,30.5119,安庆市,马山宾馆,,47,43,31,16,21,187,149,154,154,9,28,4,5,0.7,0.8
2023-08-17T20:00:00,2294A,116.9896,30.6145,安庆市,安庆大学,,41,35,29,12,22,146,131,138,137,8,10,4,4,0.5,0.6
2023-08-17T20:00:00,2295A,118.2903,29.6963,黄山市,延安路89号,,34,34,29,8,6,128,104,125,123,5,6,6,6,0.5,0.6
2023-08-17T20:00:00,2296A,118.327,29.7178,黄山市,黄山东路89号,,31,18,19,11,6,130,99,118,118,5,7,6,6,0.5,0.5
2023-08-17T20:00:00,2297A,118.1371,30.2756,黄山市,黄山区政府5号楼,,43,32,32,11,13,163,136,145,145,6,5,5,6,0.5,0.5
2023-08-17T20:00:00,2298A,118.3093,32.3153,滁州市,老年大学,,37,37,41,16,25,194,99,167,149,16,14,6,8,0.4,0.5
2023-08-17T20:00:00,2299A,118.3244,32.2786,滁州市,人大宾馆,,33,30,41,19,33,213,105,178,156,26,18,6,9,0.6,0.6
2023-08-17T20:00:00,2301A,115.8277,32.8929,阜阳市,市监测站,,44,40,42,22,22,167,139,161,156,12,22,6,6,0.5,0.6
2023-08-17T20:00:00,2303A,115.8554,32.8605,阜阳市,开发区,颗粒物(PM10),54,58,49,20,18,173,121,165,156,18,25,6,6,0.6,0.6
2023-08-17T20:00:00,2307A,116.5079,31.737,六安市,监测大楼,,43,40,34,16,15,161,136,145,142,7,10,4,4,0.5,0.5
2023-08-17T20:00:00,2308A,116.4738,31.7643,六安市,皖西学院,,44,44,39,20,15,154,135,145,142,7,8,5,6,0.3,0.3
2023-08-17T20:00:00,2309A,116.4996,31.7905,六安市,朝阳厂,,43,36,25,30,18,164,137,149,145,10,9,9,8,0.6,0.6
2023-08-17T20:00:00,2310A,116.5567,31.7886,六安市,开发区,颗粒物(PM10),51,51,42,26,24,152,127,139,136,11,14,6,8,0.9,0.7
2023-08-17T20:00:00,2311A,115.8072,33.8399,亳州市,污水处理厂,,43,43,45,21,26,180,114,165,156,7,14,7,13,0.6,0.7
2023-08-17T20:00:00,2312A,115.7789,33.8518,亳州市,三国揽胜宫,,43,37,41,23,26,175,137,160,157,8,16,4,7,0.7,0.8
2023-08-17T20:00:00,2314A,117.47,30.6618,池州市,池州学院,细颗粒物(PM2.5),60,41,40,43,30,162,142,154,152,7,10,5,5,0.7,0.8
2023-08-17T20:00:00,2316A,118.7581,30.9454,宣城市,鳌峰子站,,41,41,38,20,22,128,103,122,117,14,15,4,5,0.5,0.5
2023-08-17T20:00:00,2317A,118.7385,30.9743,宣城市,敬亭山子站,,42,42,38,26,23,125,84,116,110,22,16,6,7,0.8,0.6
2023-08-17T20:00:00,2318A,118.7173,30.9427,宣城市,开发区子站,,39,39,35,21,24,129,98,119,116,13,18,5,5,0.4,0.5
2023-08-17T20:00:00,2319A,119.0141,25.4325,莆田市,荔城区仓后路,,,,42,3,27,156,121,120,112,,12,,7,0.9,1
2023-08-17T20:00:00,2320A,119.0015,25.4553,莆田市,莆田市监测站,,36,14,36,3,22,160,115,122,115,6,6,6,6,0.5,0.6
2023-08-17T20:00:00,2321A,119.1119,25.4561,莆田市,涵江区六中,,37,10,41,5,27,157,118,123,112,9,12,7,8,0.6,0.7
2023-08-17T20:00:00,2322A,119.1013,25.3215,莆田市,秀屿区政府,,41,20,42,19,33,136,130,118,118,6,11,7,8,0.7,0.8
2023-08-17T20:00:00,2323A,118.981,25.4792,莆田市,东圳水库,,,,,,,,,,,,,,,,
2023-08-17T20:00:00,2324A,117.6211,26.2625,三明市,三钢,,34,34,34,23,20,87,64,75,73,17,17,8,13,0.7,0.9
2023-08-17T20:00:00,2325A,117.635,26.2714,三明市,三明二中,,24,24,30,15,15,94,70,78,77,13,14,7,8,0.9,0.9
2023-08-17T20:00:00,2326A,117.6028,26.2378,三明市,三元区政府,,36,36,35,15,20,92,66,75,73,19,19,10,17,1.1,1.1
2023-08-17T20:00:00,2327A,117.7275,26.3108,三明市,洋溪,,,,,,,,,,,,,,,,
2023-08-17T20:00:00,2331A,118.0966,26.6761,南平市,茫荡山,,,,,,,,,,,,,,,,
2023-08-17T20:00:00,2332A,118.1681,26.6369,南平市,南平市监测站,,20,19,30,6,16,100,62,86,83,10,10,5,4,0.7,0.7
2023-08-17T20:00:00,2333A,118.1825,26.6489,南平市,南平铝业有限公司,,21,16,32,8,18,99,65,87,85,12,12,4,6,0.6,0.7
2023-08-17T20:00:00,2334A,118.1756,26.6272,南平市,南平七中,,20,20,34,8,19,100,60,83,80,4,8,4,4,0.6,0.7
2023-08-17T20:00:00,2335A,117.0189,25.1181,龙岩市,龙岩师专,,,,,,,,,,,,,,,,
2023-08-17T20:00:00,2336A,117.0217,25.1033,龙岩市,龙岩市监测站,,,,23,4,9,111,82,92,87,9,18,1,4,0.4,0.5
2023-08-17T20:00:00,2337A,117.0258,25.0661,龙岩市,闽西职业技术学院,,26,18,25,5,8,100,81,89,86,9,15,2,5,0.4,0.5
2023-08-17T20:00:00,2338A,117.0196,25.0306,龙岩市,龙岩学院,,30,9,20,3,9,95,95,79,76,3,11,2,4,0.2,0.3
2023-08-17T20:00:00,2339A,119.5001,26.6946,宁德市,金涵水库,,,,,,,,,,,,,,,,
2023-08-17T20:00:00,2341A,119.5388,26.6612,宁德市,宁德市监测站,,26,14,26,12,17,132,81,89,85,25,10,2,3,0.7,0.8
2023-08-17T20:00:00,2342A,117.3102,29.3867,景德镇市,王港中学,,38,31,25,26,15,128,46,113,107,3,3,2,2,0.7,0.7
2023-08-17T20:00:00,2343A,117.2117,29.2933,景德镇市,老干部活动中心,细颗粒物(PM2.5),53,44,34,37,27,144,88,118,114,9,9,5,5,0.5,0.4
2023-08-17T20:00:00,2344A,117.1894,29.2789,景德镇市,兽医站,,38,31,34,26,24,144,83,120,115,12,10,7,8,0.5,0.6
2023-08-17T20:00:00,2345A,117.1547,29.2617,景德镇市,台达陶瓷,,40,36,35,28,24,126,73,113,107,34,13,25,17,0.7,0.6
2023-08-17T20:00:00,2346A,117.2461,29.2956,景德镇市,陶研所,,46,36,34,32,29,134,78,118,113,3,8,6,7,0.4,0.4
2023-08-17T20:00:00,2347A,114.0997,27.5002,萍乡市,武功山,,25,25,15,15,14,147,80,130,122,6,4,3,3,1.5,1.3
2023-08-17T20:00:00,2348A,113.8385,27.6434,萍乡市,中医院,,49,49,32,27,23,140,100,131,126,21,9,7,10,0.6,0.7
2023-08-17T20:00:00,2349A,113.8493,27.6253,萍乡市,市政府车库,,40,40,34,28,23,153,116,140,136,14,10,5,10,0.3,0.4
2023-08-17T20:00:00,2350A,113.8676,27.6435,萍乡市,市环保局,,35,34,32,18,25,130,111,126,124,10,12,9,14,0.3,0.5
2023-08-17T20:00:00,2351A,113.866,27.6198,萍乡市,安源区政府,,40,40,32,19,24,145,120,136,134,9,11,5,10,0.5,0.5
2023-08-17T20:00:00,2352A,115.0861,27.9317,新余市,北岗,,40,33,27,28,22,136,75,123,120,7,6,12,10,0.9,0.7
2023-08-17T20:00:00,2353A,114.9886,27.8431,新余市,飞宇,,43,43,48,26,26,136,130,126,126,8,11,3,3,1.0,0.7
2023-08-17T20:00:00,2354A,114.9231,27.8246,新余市,第二水厂,,49,45,49,28,24,154,154,135,135,11,12,7,7,0.3,0.4
2023-08-17T20:00:00,2355A,114.9308,27.8036,新余市,市气象局,,50,50,49,29,30,132,132,124,124,6,10,6,6,1.0,1
2023-08-17T20:00:00,2357A,116.9822,28.1136,鹰潭市,龙虎山,,39,35,34,27,30,144,86,113,112,6,3,2,4,0.4,0.3
2023-08-17T20:00:00,2358A,117.0564,28.2642,鹰潭市,新监测站,,45,40,44,31,29,147,141,140,140,3,8,2,4,0.7,0.7
2023-08-17T20:00:00,2359A,117.0311,28.2475,鹰潭市,财苑宾馆,颗粒物(PM10),51,52,46,23,29,143,139,139,139,5,10,2,7,0.4,0.5
2023-08-17T20:00:00,2360A,117.0222,28.2264,鹰潭市,体育馆,,49,49,46,23,27,148,148,140,140,8,10,2,3,0.4,0.4
2023-08-17T20:00:00,2361A,117.0017,28.2131,鹰潭市,三川水表,细颗粒物(PM2.5),57,53,45,40,28,143,122,128,128,22,5,1,1,0.6,0.5
2023-08-17T20:00:00,2362A,114.9017,25.9149,赣州市,通天岩,,,,,,,,,,,,,,,,
2023-08-17T20:00:00,2363A,114.9367,25.8664,赣州市,地委,,39,39,38,22,17,137,68,106,96,9,12,7,10,1.0,1.1
2023-08-17T20:00:00,2364A,114.9461,25.8481,赣州市,气象台,,29,29,25,19,15,150,75,120,108,15,14,5,8,0.6,0.6
2023-08-17T20:00:00,2365A,114.9322,25.8333,赣州市,市图书馆,,35,35,32,13,16,128,58,102,93,17,14,6,4,0.9,1
2023-08-17T20:00:00,2366A,114.8905,25.8471,赣州市,华坚鞋城,,32,32,36,12,17,114,59,96,87,12,12,17,12,0.6,0.7
2023-08-17T20:00:00,2367A,114.9754,27.0803,吉安市,红声器材厂,,43,39,42,28,23,152,136,141,141,10,8,15,11,0.9,0.8
2023-08-17T20:00:00,2368A,114.9658,27.0999,吉安市,市森林工业局,,45,41,35,31,24,150,128,134,134,7,6,7,7,0.8,0.8
2023-08-17T20:00:00,2369A,114.99,27.1312,吉安市,市环境监测站,,40,40,34,24,19,139,115,128,128,14,8,8,9,0.9,0.8
2023-08-17T20:00:00,2370A,115.0093,27.0968,吉安市,青原区法院,,46,45,35,32,23,150,110,139,137,17,11,16,13,0.7,0.6
2023-08-17T20:00:00,2371A,114.3408,27.8064,宜春市,槟榔水业,,30,27,35,18,23,135,95,124,119,12,14,1,4,0.2,0.7
2023-08-17T20:00:00,2373A,114.3956,27.7844,宜春市,市石油公司,,36,36,38,20,24,130,82,125,120,18,10,3,6,1.0,1
2023-08-17T20:00:00,2374A,114.3703,27.7914,宜春市,市气象局,,,34,38,21,26,134,85,128,123,15,13,2,5,,1
2023-08-17T20:00:00,2375A,114.4013,27.8074,宜春市,市广电局,,35,33,38,13,25,135,109,130,128,12,8,6,12,0.7,0.8
2023-08-17T20:00:00,2376A,116.2127,28.0814,抚州市,桐源党溪,,49,49,37,31,25,162,91,145,137,4,5,1,2,0.9,0.8
2023-08-17T20:00:00,2377A,116.3544,27.9831,抚州市,市站,,49,49,46,31,30,134,128,127,127,8,8,10,11,0.8,0.8
2023-08-17T20:00:00,2378A,116.3565,27.963,抚州市,血防站,,48,48,46,31,26,137,134,131,131,3,5,5,6,0.9,0.8
2023-08-17T20:00:00,2379A,116.3564,28.0007,抚州市,采茶剧团,,,48,45,34,30,132,116,123,123,14,10,4,8,,0.7
2023-08-17T20:00:00,2380A,116.385,27.9647,抚州市,医学分院,,42,42,41,28,25,134,119,128,128,7,9,4,5,1.2,1.1
2023-08-17T20:00:00,2381A,118.005,28.4572,上饶市,百草园,,38,38,38,21,21,137,82,117,114,5,11,1,11,0.7,0.8
2023-08-17T20:00:00,2382A,117.9756,28.4436,上饶市,市监测站,,38,38,42,25,25,152,119,133,132,6,13,4,12,0.5,0.7
2023-08-17T20:00:00,2383A,117.9519,28.4628,上饶市,凤凰光学,,43,43,43,30,26,154,106,136,127,3,15,5,15,0.7,0.9
2023-08-17T20:00:00,2385A,114.17,35.9019,鹤壁市,市监测站,,50,50,71,22,48,235,141,200,187,17,21,2,7,1.2,1
2023-08-17T20:00:00,2386A,114.2956,35.7511,鹤壁市,市交警支队,细颗粒物(PM2.5),62,72,67,44,38,196,150,184,180,16,21,11,12,0.8,0.6
2023-08-17T20:00:00,2387A,114.2878,35.7306,鹤壁市,迎宾馆,细颗粒物(PM2.5),74,73,63,54,43,203,150,188,185,20,21,2,5,0.9,0.7
2023-08-17T20:00:00,2389A,113.836,35.311,新乡市,环保西院,,44,37,73,9,47,229,138,202,192,9,20,3,4,0.7,0.9
2023-08-17T20:00:00,2390A,113.884,35.272,新乡市,开发区,,50,26,60,14,42,243,160,221,214,7,14,3,4,0.7,0.7
2023-08-17T20:00:00,2391A,113.883,35.303,新乡市,环保东院,,48,40,77,33,40,251,150,220,214,11,21,3,3,0.6,0.7
2023-08-17T20:00:00,2392A,115.0312,35.7636,濮阳市,环保局,,50,45,43,35,30,193,147,178,175,11,12,4,4,0.7,0.7
2023-08-17T20:00:00,2394A,115.0574,35.7609,濮阳市,油田运输公司,,48,48,50,26,31,185,132,171,167,15,14,5,5,0.7,0.5
2023-08-17T20:00:00,2395A,115.0866,35.7754,濮阳市,油田物探公司,,49,49,53,24,30,190,152,178,176,10,13,5,4,0.7,0.7
2023-08-17T20:00:00,2396A,113.8276,34.0159,许昌市,监测站,,50,50,52,26,32,184,149,174,172,12,18,4,4,0.6,0.5
2023-08-17T20:00:00,2398A,113.7906,33.9953,许昌市,开发区,,,50,53,24,31,181,136,170,166,,25,2,3,0.6,0.6
2023-08-17T20:00:00,2399A,114.051,33.5699,漯河市,三五一五工厂,臭氧1小时,57,54,51,27,30,202,165,192,190,11,15,10,11,0.6,0.6
2023-08-17T20:00:00,2400A,114.0055,33.5698,漯河市,漯河大学,臭氧1小时,84,47,51,28,34,204,187,198,198,8,13,8,10,0.5,0.6
2023-08-17T20:00:00,2401A,114.0138,33.5828,漯河市,市水利局,臭氧1小时,70,41,50,29,30,201,176,194,193,9,14,7,8,0.8,0.8
2023-08-17T20:00:00,2402A,114.0261,33.5698,漯河市,市广电局,臭氧1小时,85,46,49,29,32,208,188,200,200,9,14,6,7,0.6,0.6
2023-08-17T20:00:00,2404A,112.5224,33.0122,南阳市,瓦房庄,,49,43,43,22,20,192,154,180,177,17,19,7,7,0.6,0.6
2023-08-17T20:00:00,2405A,112.5003,32.9735,南阳市,汉画馆,,47,45,47,24,26,187,150,173,171,21,25,9,7,0.7,0.6
2023-08-17T20:00:00,2406A,112.5573,33.027,南阳市,气象站,,,,46,33,32,190,138,183,178,19,17,5,5,0.6,0.5
2023-08-17T20:00:00,2407A,112.5481,32.9689,南阳市,理工学院,,48,44,44,20,22,184,152,176,174,13,19,8,8,0.5,0.5
2023-08-17T20:00:00,2408A,115.6702,34.4285,商丘市,环境监测站,,45,45,49,26,31,186,125,168,163,17,17,6,7,0.7,0.6
2023-08-17T20:00:00,2409A,115.6458,34.4045,商丘市,粮食局,颗粒物(PM10),51,52,46,28,26,169,134,160,158,13,12,2,5,0.5,0.5
2023-08-17T20:00:00,2410A,115.6293,34.3948,商丘市,睢阳区环保局,,,,54,,29,162,137,156,154,,18,4,5,0.5,0.5
2023-08-17T20:00:00,2420A,114.0189,32.9656,驻马店市,市一纸厂,,42,42,36,18,19,189,133,165,162,16,19,8,6,0.6,0.5
2023-08-17T20:00:00,2421A,114.0114,33.015,驻马店市,市彩印厂,,49,30,45,14,23,184,155,165,165,11,14,8,9,0.6,0.6
2023-08-17T20:00:00,2422A,113.9976,32.9771,驻马店市,天方二分厂,,47,38,39,22,22,178,148,159,159,8,11,12,5,0.9,0.6
2023-08-17T20:00:00,2423A,115.0601,30.2313,黄石市,沈家营,臭氧1小时,108,53,62,30,28,220,215,207,207,15,22,8,8,1.0,0.8
2023-08-17T20:00:00,2424A,115.0817,30.2006,黄石市,陈家湾,臭氧1小时,60,67,53,35,29,217,168,202,196,40,15,7,6,0.6,0.7
2023-08-17T20:00:00,2426A,114.8988,30.2019,黄石市,铁山,臭氧1小时,78,49,44,34,27,246,182,213,210,15,15,4,7,0.9,1
2023-08-17T20:00:00,2427A,115.0307,30.2092,黄石市,团城山,臭氧1小时,110,53,58,27,27,248,219,222,222,12,17,6,8,0.5,0.9
2023-08-17T20:00:00,2428A,111.0419,32.395,十堰市,武当山,,31,26,20,19,13,156,99,132,132,7,6,9,9,0.8,0.8
2023-08-17T20:00:00,2429A,110.78,32.6494,十堰市,滨河新村,,30,24,37,21,21,145,69,132,127,48,13,6,8,0.8,0.6
2023-08-17T20:00:00,2430A,110.7258,32.6389,十堰市,刘家沟,,33,30,34,23,21,151,102,134,133,10,7,6,7,0.6,0.6
2023-08-17T20:00:00,2431A,110.8839,32.5714,十堰市,铁二处,,45,39,31,31,16,189,121,171,159,8,6,7,6,0.6,0.6
2023-08-17T20:00:00,2432A,112.155,32.0197,襄阳市,襄城运动路,颗粒物(PM10),53,56,51,33,26,179,150,171,168,15,18,2,9,0.8,0.8
2023-08-17T20:00:00,2433A,112.1392,32.0564,襄阳市,樊城新华路,,,,,,,,,,,,,,,,
2023-08-17T20:00:00,2434A,112.1825,32.1142,襄阳市,高新管委会,细颗粒物(PM2.5),57,51,49,40,36,200,155,191,186,19,21,5,11,0.7,0.7
2023-08-17T20:00:00,2435A,112.2106,32.0903,襄阳市,襄州航空路,,43,38,50,17,25,189,137,176,171,27,18,7,12,0.8,0.8
2023-08-17T20:00:00,2436A,114.8938,30.3994,鄂州市,市政府,,48,47,61,26,30,199,151,174,174,14,26,4,5,0.9,0.8
2023-08-17T20:00:00,2437A,114.8989,30.3714,鄂州市,赵家坝,臭氧1小时,79,80,70,34,30,220,183,198,196,16,30,3,6,0.5,0.9
2023-08-17T20:00:00,2439A,112.2014,31.0481,荆门市,竹园小学,,49,44,59,30,31,201,156,184,181,23,16,14,11,0.7,0.7
2023-08-17T20:00:00,2440A,112.1969,30.9891,荆门市,掇刀,,48,48,53,28,32,199,127,179,167,26,16,26,15,0.6,0.7
2023-08-17T20:00:00,2441A,112.2213,31.0386,荆门市,石化一小,,44,41,58,20,37,197,140,186,180,36,15,11,10,0.5,0.5
2023-08-17T20:00:00,2443A,113.9153,30.9285,孝感市,文化路,,46,46,38,21,26,171,142,164,160,8,12,7,8,0.7,0.7
2023-08-17T20:00:00,2444A,113.942,30.9075,孝感市,东城区,颗粒物(PM10),53,56,48,21,24,180,148,172,167,6,14,10,9,0.6,0.7
2023-08-17T20:00:00,2446A,114.9028,30.4742,黄冈市,职工中心,臭氧1小时,54,50,52,31,31,201,163,183,179,2,5,8,9,0.7,0.7
