timepoint,stationcode,longitude,latitude,area,positionname,primarypollutant,aqi,pm10,pm10_24h,pm2_5,pm2_5_24h,o3,o3_24h,o3_8h,o3_8h_24h,no2,no2_24h,so2,so2_24h,co,co_24h
2025-05-22T2100,2566A,102.1879,31.914,阿坝藏族羌族自治州,州农科所,颗粒物(PM10),63,76,35,17,12,95,,100,100,3,6,11,11,0.7,0.8
2025-05-22T2100,2568A,102.2502,31.8896,阿坝藏族羌族自治州,马师校,,,68,32,53,19,,,92,91,11,7,5,5,0.4,0.5
2025-05-22T2100,3994A,102.2165,31.9024,阿坝藏族羌族自治州,马尔康中学西区,颗粒物(PM10),61,71,31,40,21,98,,99,99,3,3,4,4,0.4,0.4
2025-05-22T2100,2695A,80.292,41.1694,阿克苏地区,电视台,颗粒物(PM10),136,221,520,79,162,107,,117,117,17,27,5,6,0.5,0.6
2025-05-22T2100,2696A,80.2613,41.1551,阿克苏地区,艺术中心,颗粒物(PM10),142,234,566,74,166,111,,118,118,9,26,4,4,0.3,0.4
2025-05-22T2100,2204A,105.6467,38.8363,阿拉善盟,西城区西花园,颗粒物(PM10),58,65,619,23,178,92,,104,104,9,8,5,5,0.9,0.9
2025-05-22T2100,2205A,105.6985,38.8411,阿拉善盟,蒙二幼,颗粒物(PM10),59,68,623,15,178,79,,88,88,6,5,9,9,0.5,0.5
2025-05-22T2100,2206A,105.724,38.8516,阿拉善盟,环保局新楼,,47,47,476,15,179,84,,91,91,4,4,9,8,0.7,0.6
2025-05-22T2100,2708A,88.1264,47.8517,阿勒泰地区,市站,,29,11,15,3,5,92,,105,104,16,6,2,2,0.2,0.2
2025-05-22T2100,2630A,80.1161,32.5,阿里地区,阿里监测站,,38,16,13,12,8,120,,133,132,9,7,5,6,0.4,0.4
2025-05-22T2100,3192A,80.0903,32.5028,阿里地区,阿里藏医院,,40,21,20,11,8,128,,138,138,4,4,6,6,0.4,0.4
2025-05-22T2100,2642A,109.0318,32.6537,安康市,香溪洞,,25,21,43,17,34,59,,100,63,4,5,8,8,0.4,0.4
2025-05-22T2100,2644A,109.0072,32.6975,安康市,汉滨区检察院,,38,27,60,26,36,26,,87,53,11,10,7,9,0.5,0.6
2025-05-22T2100,4054A,109.0325,32.6913,安康市,市邮政管理局,,31,31,54,20,36,40,,92,61,13,9,6,7,0.5,0.5
2025-05-22T2100,2291A,117.0809,30.5177,安庆市,环科院,,,,37,1,19,59,,96,86,2,22,1,4,0.7,0.7
2025-05-22T2100,2292A,117.0331,30.5119,安庆市,马山宾馆,,19,6,29,3,21,59,,83,75,8,25,4,6,0.9,1.1
2025-05-22T2100,2294A,116.9896,30.6145,安庆市,安庆大学,,19,,29,3,22,59,,96,84,16,22,3,4,0.4,0.5
2025-05-22T2100,3173A,117.0598,30.5351,安庆市,市人大,,22,6,29,3,19,70,,106,96,7,20,8,9,0.5,0.6
2025-05-22T2100,3122A,105.9606,26.2611,安顺市,伍家关,,40,40,27,7,18,70,,77,77,20,8,3,2,0.4,0.3
2025-05-22T2100,3123A,105.9408,26.2431,安顺市,凤凰山,,33,32,26,23,25,98,,106,104,12,7,11,7,0.5,0.5
2025-05-22T2100,3124A,105.9439,26.2564,安顺市,金钟山,,34,34,30,22,22,86,,93,91,10,6,10,5,0.3,0.3
2025-05-22T2100,3125A,105.8983,26.2481,安顺市,娄家坡,细颗粒物(PM2.5),63,53,28,45,26,92,,104,102,12,5,10,7,0.5,0.4
2025-05-22T2100,1818A,114.4839,36.0621,安阳市,棉研所,,,,,,,,,,,,,,,,
2025-05-22T2100,1819A,114.3551,36.1017,安阳市,红庙街,细颗粒物(PM2.5),79,62,73,58,39,103,,103,100,2,4,1,3,0.6,0.5
2025-05-22T2100,1820A,114.361,36.0681,安阳市,银杏小区,细颗粒物(PM2.5),83,61,73,61,40,103,,107,102,3,6,1,3,0.5,0.4
2025-05-22T2100,3141A,114.3922,36.0878,安阳市,信访局,细颗粒物(PM2.5),128,,71,97,64,110,,114,111,9,9,1,3,0.6,0.5
2025-05-22T2100,3669A,114.4705,36.0637,安阳市,左辅环卫站,,,68,70,62,42,98,,119,108,13,13,,4,0.7,0.5
2025-05-22T2100,3703A,114.2917,36.0949,安阳市,安钢职工学校,细颗粒物(PM2.5),92,78,81,68,48,92,,100,91,21,15,12,9,2.0,1
2025-05-22T2100,1748A,123.044,41.1196,鞍山市,深沟寺,,43,43,84,22,50,88,,126,119,19,25,7,11,0.6,0.7
2025-05-22T2100,1749A,123.011,41.0931,鞍山市,太阳城,,33,30,79,19,51,105,,125,123,14,25,8,18,0.4,0.8
2025-05-22T2100,1750A,123.0485,41.1442,鞍山市,太平,,47,47,110,24,54,89,,122,115,21,29,10,12,0.6,0.8
2025-05-22T2100,1751A,122.9642,41.0971,鞍山市,铁西三道街,颗粒物(PM10),53,56,91,26,55,78,,117,108,39,31,36,16,3.0,1.1
2025-05-22T2100,1753A,123.022,41.0821,鞍山市,明达新区,,,34,74,20,51,95,,119,116,,20,7,15,0.4,0.7
2025-05-22T2100,1754A,123.1289,41.0228,鞍山市,千山,,,,62,,31,,,70,,,18,,7,,0.6
2025-05-22T2100,4201A,122.9446,41.0826,鞍山市,兴盛南路290号,颗粒物(PM10),51,52,92,26,53,77,,117,111,39,36,62,16,1.7,0.9
2025-05-22T2100,2195A,107.4212,40.761,巴彦淖尔市,附二中,,30,19,32,18,19,93,,97,97,5,4,4,5,0.4,0.4
2025-05-22T2100,2196A,107.37,40.7372,巴彦淖尔市,市环保大楼,,32,26,35,22,20,96,,97,97,8,8,5,5,0.2,0.2
2025-05-22T2100,1956A,86.1472,41.7538,巴音郭楞蒙古自治州,孔雀公园,颗粒物(PM10),295,416,209,99,47,84,,99,96,8,16,7,8,0.2,0.2
2025-05-22T2100,1957A,86.1972,41.7166,巴音郭楞蒙古自治州,棉纺厂,颗粒物(PM10),442,542,236,125,51,85,,105,101,7,10,3,3,0.2,0.2
2025-05-22T2100,1958A,86.2357,41.7173,巴音郭楞蒙古自治州,经济开发区,颗粒物(PM10),288,411,205,91,39,81,,100,95,7,7,7,8,0.2,0.2
2025-05-22T2100,2914A,106.7677,31.8794,巴中市,苏山坪,颗粒物(PM10),61,71,39,23,17,117,,115,115,6,5,4,4,0.1,0.3
2025-05-22T2100,3181A,106.7768,31.8526,巴中市,市五中,颗粒物(PM10),67,84,37,44,18,101,,111,111,8,7,7,6,0.4,0.5
2025-05-22T2100,3183A,106.7418,31.8654,巴中市,圣泉水务公司,颗粒物(PM10),60,69,40,25,20,111,,119,119,11,6,4,4,0.2,0.4
2025-05-22T2100,3616A,106.7616,31.8344,巴中市,市中心医院,颗粒物(PM10),61,72,34,31,21,99,,111,111,10,8,5,5,0.4,0.5
2025-05-22T2100,2235A,122.7911,45.6077,白城市,洮北区环保局,,43,43,27,19,13,30,,84,77,46,11,4,4,0.5,0.3
2025-05-22T2100,2236A,122.8738,45.5725,白城市,市环保局,颗粒物(PM10),51,51,18,15,13,1,,86,74,77,10,9,7,0.4,0.3
2025-05-22T2100,2231A,126.4219,41.9171,白山市,喜丰,颗粒物(PM10),54,58,76,27,41,83,,104,100,16,28,8,7,0.5,0.6
2025-05-22T2100,2232A,126.4077,41.9419,白山市,环保局,,47,47,62,20,37,84,,105,100,9,14,5,7,0.4,0.5
2025-05-22T2100,2647A,104.1724,36.5446,白银市,第三小学,,,125,73,46,30,,,112,111,5,7,6,9,0.5,0.7
2025-05-22T2100,2648A,104.1465,36.5482,白银市,动力公司,颗粒物(PM10),75,100,57,39,25,104,,110,108,8,9,8,9,0.3,0.4
2025-05-22T2100,2512A,106.6103,23.9011,百色市,市监测站,,46,46,33,10,19,80,,99,94,7,11,3,11,0.6,0.7
2025-05-22T2100,2513A,106.6538,23.8859,百色市,市中心血站,,34,34,37,12,21,80,,97,93,9,12,4,9,0.6,0.6
2025-05-22T2100,3406A,106.6085,23.8798,百色市,祈福高中,,48,48,41,12,24,77,,96,90,6,12,4,13,0.5,0.6
2025-05-22T2100,2270A,117.396,32.939,蚌埠市,工人疗养院,颗粒物(PM10),53,56,66,12,28,117,,156,149,4,12,4,5,0.3,0.5
2025-05-22T2100,2271A,117.3605,32.9427,蚌埠市,百货大楼,颗粒物(PM10),58,66,68,20,27,106,,139,134,10,14,7,7,0.4,0.6
2025-05-22T2100,2273A,117.4185,32.8911,蚌埠市,蚌埠学院,,,53,65,,36,110,,154,144,10,17,4,7,0.4,0.6
2025-05-22T2100,2274A,117.3533,32.9673,蚌埠市,淮上区政府,颗粒物(PM10),52,53,60,16,30,114,,156,147,8,17,5,6,0.4,0.7
2025-05-22T2100,2275A,117.3145,32.8977,蚌埠市,高新区,颗粒物(PM10),53,56,60,15,31,113,,156,146,11,19,5,7,0.4,0.7
2025-05-22T2100,3715A,117.3092,32.9314,蚌埠市,蚌埠田家炳中学,细颗粒物(PM2.5),59,62,65,42,35,108,,148,140,2,6,5,6,0.4,0.6
2025-05-22T2100,1585A,109.8756,40.6532,包头市,市环境监测站,,26,,19,9,7,83,,82,82,14,12,7,8,0.8,0.7
2025-05-22T2100,1587A,109.9991,40.5842,包头市,包头八中,,27,9,29,3,16,86,,77,68,16,19,8,11,0.9,0.7
2025-05-22T2100,1588A,109.8538,40.6821,包头市,青山宾馆,,26,10,19,3,11,82,,87,87,16,11,7,8,0.5,0.5
2025-05-22T2100,1589A,109.8642,40.6288,包头市,惠龙物流,,27,17,20,3,8,85,,86,86,15,13,5,6,0.5,0.4
2025-05-22T2100,1590A,110.0377,40.5546,包头市,东河鸿龙湾,,27,9,25,3,10,86,,75,72,10,16,5,8,0.6,0.5
2025-05-22T2100,3283A,109.9154,40.5685,包头市,滨河大厦,,30,,23,21,9,89,,79,79,14,15,7,7,1.0,0.6
2025-05-22T2100,3419A,109.9447,40.6261,包头市,包头市委党校,,28,6,20,3,10,87,,79,79,14,11,7,8,0.6,0.4
2025-05-22T2100,3683A,109.8331,40.6576,包头市,昆区政府,,28,6,18,3,14,88,,91,91,14,11,6,7,0.6,0.5
2025-05-22T2100,1930A,107.185,34.3063,宝鸡市,庙沟村,颗粒物(PM10),74,98,97,20,52,113,,116,116,11,8,7,7,0.5,0.5
2025-05-22T2100,1931A,107.0708,34.3017,宝鸡市,竹园沟,,,,110,,53,,,89,,,9,,4,,0.3
2025-05-22T2100,1932A,107.1906,34.3672,宝鸡市,三陆医院,颗粒物(PM10),75,99,128,49,59,59,,110,105,37,16,6,7,0.4,0.3
2025-05-22T2100,1933A,107.1431,34.3547,宝鸡市,监测站,颗粒物(PM10),87,123,126,44,57,63,,104,98,21,12,5,6,0.2,0.3
2025-05-22T2100,1934A,107.1186,34.3739,宝鸡市,技工学校,颗粒物(PM10),82,114,135,50,68,67,,113,104,23,8,6,6,0.6,0.5
2025-05-22T2100,1935A,107.3906,34.3528,宝鸡市,陈仓区环保局家属楼,,,109,129,45,53,,,106,106,29,14,4,5,0.4,0.3
2025-05-22T2100,1936A,107.2058,34.3497,宝鸡市,文理学院,颗粒物(PM10),85,120,121,52,60,52,,112,106,38,12,7,8,0.5,0.4
2025-05-22T2100,1937A,107.2386,34.3622,宝鸡市,三迪小学,颗粒物(PM10),80,110,125,46,66,77,,111,108,24,12,7,8,0.3,0.3
2025-05-22T2100,1051A,115.493,38.8632,保定市,游泳馆,,,62,73,48,50,93,,108,97,7,24,3,3,,0.3
2025-05-22T2100,1052A,115.5213,38.8959,保定市,华电二区,细颗粒物(PM2.5),67,53,71,48,48,89,,95,92,4,22,3,4,0.3,0.3
2025-05-22T2100,1053A,115.4713,38.9108,保定市,接待中心,细颗粒物(PM2.5),64,57,74,46,43,90,,99,93,6,26,3,3,0.3,0.5
2025-05-22T2100,1054A,115.4612,38.8416,保定市,地表水厂,颗粒物(PM10),56,62,85,26,37,92,,111,98,6,23,3,3,0.2,0.3
2025-05-22T2100,3581A,115.31981,38.95208,保定市,满城区生态环境分局,细颗粒物(PM2.5),62,,83,44,39,103,,116,105,8,21,3,2,0.1,0.2
2025-05-22T2100,3582A,115.47694,38.76408,保定市,清苑区第二中学,细颗粒物(PM2.5),62,65,98,44,49,98,,112,102,5,21,1,4,0.6,0.7
2025-05-22T2100,3583A,115.62909,39.02311,保定市,徐水物探局,颗粒物(PM10),54,57,81,34,38,92,,94,94,4,24,3,4,0.2,0.3
2025-05-22T2100,4004A,115.4202,38.8656,保定市,双鹰农机,细颗粒物(PM2.5),55,44,67,39,44,97,,108,102,5,24,1,3,0.2,0.4
2025-05-22T2100,4034A,115.5150,38.8590,保定市,植保所站,细颗粒物(PM2.5),67,59,77,48,48,92,,100,96,1,23,3,4,0.5,0.7
2025-05-22T2100,2594A,99.1678,25.1081,保山市,市环境监测站,细颗粒物(PM2.5),57,,28,40,30,97,,104,101,6,6,7,8,0.4,0.4
2025-05-22T2100,2595A,99.1711,25.1328,保山市,市环保局,,39,39,32,16,18,101,,108,105,4,5,7,7,0.4,0.4
2025-05-22T2100,1866A,109.2262,21.588,北海市,牛尾岭水库,,,,21,12,10,69,,79,74,,3,6,7,0.6,0.6
2025-05-22T2100,1867A,109.1436,21.4086,北海市,海滩公园,,41,41,29,7,8,64,,71,69,4,5,5,5,0.5,0.7
2025-05-22T2100,1868A,109.0981,21.4661,北海市,新市环保局,,23,16,18,9,9,73,,72,72,8,8,3,3,0.4,0.4
2025-05-22T2100,1869A,109.1778,21.5233,北海市,北海工业园,,23,23,26,10,12,69,,65,64,6,12,7,8,0.8,0.7
2025-05-22T2100,3400A,109.1911,21.4415,北海市,龙潭自来水厂,,21,13,18,7,12,67,,72,69,6,7,3,3,0.4,0.4
2025-05-22T2100,1001A,116.3621,39.8784,北京市,万寿西宫,细颗粒物(PM2.5),57,52,75,40,40,83,,92,87,11,27,3,5,0.5,0.6
2025-05-22T2100,1002A,116.2202,40.2915,北京市,定陵,,,,,,,,,,,,,,,,
2025-05-22T2100,1003A,116.4174,39.9289,北京市,东四,细颗粒物(PM2.5),60,59,81,43,41,80,,90,83,12,25,3,5,0.5,0.5
2025-05-22T2100,1004A,116.4072,39.8863,北京市,天坛,细颗粒物(PM2.5),58,53,73,41,44,80,,90,84,13,24,2,3,0.5,0.6
2025-05-22T2100,1005A,116.462,39.9365,北京市,农展馆,细颗粒物(PM2.5),59,56,75,42,40,72,,79,75,11,27,3,5,0.6,0.7
2025-05-22T2100,1006A,116.3392,39.9295,北京市,官园,细颗粒物(PM2.5),62,53,71,44,39,79,,84,78,11,24,5,7,0.4,0.5
2025-05-22T2100,1007A,116.2878,39.9611,北京市,海淀万柳,细颗粒物(PM2.5),58,47,69,41,39,71,,79,74,10,29,2,3,0.3,0.5
2025-05-22T2100,1008A,116.6636,40.135,北京市,顺义新城,颗粒物(PM10),59,67,80,41,42,61,,88,80,21,22,4,5,0.4,0.6
2025-05-22T2100,1009A,116.6275,40.3275,北京市,怀柔镇,,50,46,70,35,42,69,,95,86,5,16,1,2,0.6,0.7
2025-05-22T2100,1010A,116.2296,40.217,北京市,昌平镇,细颗粒物(PM2.5),62,49,71,44,46,57,,85,70,22,19,4,4,0.6,0.6
2025-05-22T2100,1011A,116.3966,39.9821,北京市,奥体中心,细颗粒物(PM2.5),59,54,73,42,41,72,,80,73,15,33,3,4,0.7,0.8
2025-05-22T2100,3281A,115.9718,40.4529,北京市,延庆夏都,,48,39,72,33,44,83,,96,90,6,15,3,4,0.5,0.7
2025-05-22T2100,3418A,116.8336,40.4095,北京市,密云新城,,49,48,66,34,41,62,,88,75,7,9,1,2,0.4,0.5
2025-05-22T2100,3671A,116.088,39.9726,北京市,门头沟三家店,细颗粒物(PM2.5),57,48,78,40,43,72,,94,81,13,23,1,1,0.3,0.4
2025-05-22T2100,3672A,116.1541,39.8204,北京市,丰台云岗,细颗粒物(PM2.5),57,57,76,40,36,67,,90,80,9,24,3,4,0.3,0.4
2025-05-22T2100,3673A,116.6804,39.9081,北京市,通州东关,细颗粒物(PM2.5),59,58,96,42,40,79,,86,84,17,39,1,4,0.7,0.8
2025-05-22T2100,3674A,115.9577,39.7603,北京市,房山燕山,细颗粒物(PM2.5),55,53,83,39,42,111,,105,105,1,12,1,2,0.5,0.7
2025-05-22T2100,3675A,116.4672,39.7733,北京市,大兴旧宫,细颗粒物(PM2.5),58,56,69,41,36,77,,95,87,13,25,2,3,0.6,0.7
2025-05-22T2100,3694A,115.986,40.4563,北京市,延庆石河营,细颗粒物(PM2.5),52,41,72,36,47,71,,93,85,7,12,1,1,0.5,0.6
2025-05-22T2100,3695A,116.6151,40.3053,北京市,怀柔新城,细颗粒物(PM2.5),59,46,66,42,44,76,,101,94,2,12,3,2,0.6,0.6
2025-05-22T2100,3696A,116.2545,39.8768,北京市,丰台小屯,细颗粒物(PM2.5),53,50,71,37,32,81,,89,81,5,30,1,3,0.4,0.6
2025-05-22T2100,3697A,116.84,40.3844,北京市,密云镇,细颗粒物(PM2.5),52,49,68,36,38,53,,88,72,14,18,6,6,0.5,0.5
2025-05-22T2100,4182A,116.1942,39.9158,北京市,八角北路9号,细颗粒物(PM2.5),59,57,80,42,38,87,,90,88,5,30,2,4,0.4,0.5
2025-05-22T2100,4194A,117.0790,40.1518,北京市,洳河巡河路,细颗粒物(PM2.5),69,63,78,50,43,67,,85,81,2,11,2,4,0.4,0.6
2025-05-22T2100,1761A,123.8275,41.3064,本溪市,大峪,,37,37,84,19,47,101,,140,135,11,27,6,13,0.6,1.2
2025-05-22T2100,1762A,123.7567,41.3325,本溪市,溪湖,,50,50,86,24,51,114,,141,138,11,26,4,10,0.5,1
2025-05-22T2100,1763A,123.7169,41.3094,本溪市,彩屯,,43,43,77,27,52,113,,141,137,12,28,10,14,0.6,1.1
2025-05-22T2100,1764A,123.7669,41.2864,本溪市,东明,,48,48,86,32,45,105,,142,138,18,32,6,15,0.7,1.5
2025-05-22T2100,1765A,123.7992,41.2664,本溪市,新立屯,,49,49,72,22,46,93,,142,137,15,34,5,12,0.6,1.2
2025-05-22T2100,1766A,123.8142,41.3472,本溪市,威宁,,46,46,95,22,54,87,,141,135,32,32,6,8,0.4,0.8
2025-05-22T2100,2587A,105.2864,27.3125,毕节市,八中,,49,49,32,23,25,65,,106,94,13,8,5,5,0.7,0.6
2025-05-22T2100,2588A,105.31,27.2944,毕节市,师专,,32,31,38,14,22,101,,109,106,9,9,5,5,0.4,0.4
2025-05-22T2100,4263A,105.3688,27.3598,毕节市,工业大道,,40,40,34,16,21,75,,108,98,15,9,10,6,0.6,0.7
2025-05-22T2100,1629A,118.0018,37.3617,滨州市,第二水厂,颗粒物(PM10),59,68,81,31,43,97,,128,116,13,13,8,9,0.1,0.2
2025-05-22T2100,1630A,117.9776,37.393,滨州市,北中新校,颗粒物(PM10),51,51,64,29,43,96,,122,111,10,13,7,6,0.3,0.4
2025-05-22T2100,3514A,117.9378,37.3956,滨州市,中海酒店,颗粒物(PM10),56,61,69,36,53,95,,140,121,15,12,11,9,0.6,0.7
2025-05-22T2100,3515A,117.9378,37.3553,滨州市,开发区一中,颗粒物(PM10),54,58,75,29,46,91,,117,108,17,20,4,4,0.5,0.6
2025-05-22T2100,3516A,118.0917,37.694,滨州市,金海六路,颗粒物(PM10),59,68,66,31,41,101,,139,130,21,16,9,7,0.5,0.6
2025-05-22T2100,4028A,117.9956,37.3753,滨州市,滨州市西街道办事处,细颗粒物(PM2.5),62,58,70,44,49,107,,139,127,13,14,5,6,0.3,0.3
2025-05-22T2100,2311A,115.8072,33.8399,亳州市,污水处理厂,细颗粒物(PM2.5),73,63,62,53,37,70,,150,130,12,7,2,2,0.7,0.6
2025-05-22T2100,2312A,115.7789,33.8518,亳州市,三国揽胜宫,细颗粒物(PM2.5),89,,62,66,33,66,,160,135,16,10,3,5,0.5,0.5
2025-05-22T2100,3332A,115.7633,33.8034,亳州市,亳州学院,细颗粒物(PM2.5),77,59,54,56,36,70,,155,131,14,11,2,2,0.6,0.5
2025-05-22T2100,2693A,82.0485,44.8556,博尔塔拉蒙古自治州,市党校,,40,,26,20,13,125,,131,131,12,9,3,3,0.2,0.2
2025-05-22T2100,2694A,82.0806,44.8969,博尔塔拉蒙古自治州,市环保局,,,,37,,13,,,127,127,8,13,4,8,0.3,0.5
2025-05-22T2100,1071A,116.8842,38.2991,沧州市,沧县城建局,细颗粒物(PM2.5),68,75,74,49,54,73,,114,103,25,27,3,3,0.3,0.3
2025-05-22T2100,1072A,116.8584,38.3254,沧州市,电视转播站,细颗粒物(PM2.5),64,69,75,46,51,72,,112,100,20,30,4,9,0.4,0.5
2025-05-22T2100,1073A,116.8709,38.3228,沧州市,市环保局,细颗粒物(PM2.5),85,79,83,63,56,74,,118,106,18,24,3,3,0.4,0.5
2025-05-22T2100,3324A,116.8136,38.3004,沧州市,河北水利电力学院,细颗粒物(PM2.5),69,58,70,50,49,67,,122,111,28,28,4,7,0.5,0.5
2025-05-22T2100,2622A,97.1806,31.1273,昌都市,昌都监测站,,32,23,23,18,19,100,,100,100,3,4,3,3,0.1,0.1
2025-05-22T2100,3719A,97.1714,31.1406,昌都市,昌都会议中心,,31,25,26,20,18,97,,100,100,4,6,4,4,0.2,0.2
2025-05-22T2100,2690A,88.1236,43.8886,昌吉回族自治州,天山天池,,20,13,9,3,3,62,,108,102,5,5,6,5,0.5,0.5
2025-05-22T2100,2692A,87.2717,44.0297,昌吉回族自治州,新区政务中心,,,11,22,6,7,131,,137,137,,15,7,7,0.4,0.5
2025-05-22T2100,3613A,87.3095,44.0142,昌吉回族自治州,亚心广场,,45,22,30,3,5,141,,137,137,8,20,9,8,0.3,0.4
2025-05-22T2100,1119A,125.3325,43.9166,长春市,食品厂,细颗粒物(PM2.5),83,95,50,61,28,2,,77,60,85,41,6,5,1.0,0.5
2025-05-22T2100,1120A,125.2863,43.9027,长春市,客车厂,细颗粒物(PM2.5),65,71,49,47,28,3,,78,56,80,39,5,6,0.9,0.5
2025-05-22T2100,1121A,125.2841,43.8463,长春市,邮电学院,,40,40,34,28,26,34,,82,68,37,26,6,6,0.4,0.4
2025-05-22T2100,1122A,125.3716,43.8772,长春市,劳动公园,颗粒物(PM10),57,64,40,39,30,18,,78,64,50,28,6,6,0.8,0.4
2025-05-22T2100,1123A,125.3297,43.8805,长春市,园林处,,42,42,37,25,18,18,,80,66,54,28,6,6,0.6,0.4
2025-05-22T2100,1124A,125.4605,43.79,长春市,净月潭,,20,20,32,14,20,52,,82,74,12,18,5,6,0.3,0.3
2025-05-22T2100,1125A,125.7194,43.515,长春市,甩湾子,,,,,,,,,,,,,,,,
2025-05-22T2100,1126A,125.3863,43.8447,长春市,经开区环卫处,颗粒物(PM10),52,54,64,23,21,15,,78,65,59,30,5,6,0.5,0.4
2025-05-22T2100,1127A,125.245,43.7783,长春市,高新区管委会,,39,35,43,27,27,41,,83,72,28,28,5,6,0.3,0.3
2025-05-22T2100,1128A,125.1761,43.8325,长春市,岱山公园,,47,47,38,32,26,18,,81,65,71,38,4,5,0.4,0.4
2025-05-22T2100,1335A,113.0833,28.2325,长沙市,经开区环保局,,20,12,29,7,14,61,,66,66,16,15,3,5,0.7,0.7
2025-05-22T2100,1336A,112.8872,28.2189,长沙市,高开区环保局,,21,14,27,3,12,65,,69,69,7,7,4,4,0.6,0.6
2025-05-22T2100,1337A,113.0792,28.2053,长沙市,马坡岭,,19,18,29,7,17,60,,63,63,17,14,3,5,0.5,0.5
2025-05-22T2100,1338A,112.9394,28.19,长沙市,湖南师范大学,,,,28,7,15,,,65,65,29,13,5,7,,0.3
2025-05-22T2100,1339A,113.0178,28.1322,长沙市,雨花区环保局,,26,26,26,10,10,53,,66,66,15,8,3,5,1.0,0.8
2025-05-22T2100,1340A,112.9792,28.2597,长沙市,伍家岭,,19,14,29,3,13,58,,68,68,15,12,2,3,0.6,0.6
2025-05-22T2100,1341A,113.0014,28.1944,长沙市,火车新站,,,,31,,13,61,,63,63,13,13,6,8,0.5,0.5
2025-05-22T2100,1342A,112.9844,28.1178,长沙市,天心区环保局,,27,27,26,18,16,54,,69,67,17,11,2,3,0.8,0.6
2025-05-22T2100,1343A,112.8908,28.1308,长沙市,湖南中医药大学,,32,,29,22,16,51,,60,60,16,16,2,3,0,0.2
2025-05-22T2100,1344A,112.9581,28.3611,长沙市,沙坪,,27,14,27,3,15,84,,62,62,7,14,3,3,0.5,0.6
2025-05-22T2100,1727A,113.1147,36.1547,长治市,清华站,细颗粒物(PM2.5),62,53,61,44,37,115,,148,111,10,11,6,7,0.7,0.8
2025-05-22T2100,1730A,113.0886,36.2125,长治市,审计局,细颗粒物(PM2.5),79,59,61,58,43,108,,149,109,12,10,7,8,0.6,0.6
2025-05-22T2100,1731A,113.0844,36.1856,长治市,长治八中,,,56,66,51,47,,,155,43,12,11,7,9,0.3,0.6
2025-05-22T2100,2845A,113.1569,36.1911,长治市,德盛苑,细颗粒物(PM2.5),62,57,56,44,38,113,,144,108,8,8,5,6,0.7,0.8
2025-05-22T2100,3568A,113.06,36.0464,长治市,向阳小学,细颗粒物(PM2.5),75,67,81,55,54,115,,131,111,10,12,3,4,0.7,1.1
2025-05-22T2100,3569A,112.8792,36.3144,长治市,屯留一中,细颗粒物(PM2.5),85,,53,63,48,93,,131,102,14,13,10,11,0.6,0.5
2025-05-22T2100,4189A,113.1131,36.19948,长治市,英华南巷50号,细颗粒物(PM2.5),70,52,60,51,42,107,,148,107,12,9,4,5,0.8,0.9
2025-05-22T2100,4190A,113.2367,36.3344,长治市,学府街1号,细颗粒物(PM2.5),78,58,72,57,40,98,,145,106,21,15,1,4,0.8,0.8
2025-05-22T2100,1854A,111.6975,28.9703,常德市,市二中,,20,,13,11,12,61,,53,53,8,11,4,4,1.1,1.1
2025-05-22T2100,1857A,111.7158,29.1456,常德市,白鹤山,,,,,,,,,,,,,,,,
2025-05-22T2100,3138A,111.7153,29.0289,常德市,武陵区永安,,19,,15,13,11,54,,49,49,8,9,6,6,0.6,0.6
2025-05-22T2100,3139A,111.6892,28.9881,常德市,鼎城区玉霞,,,,15,3,9,,,55,55,,11,2,2,0.5,0.5
2025-05-22T2100,3140A,111.6625,29.0531,常德市,武陵区长庚,,23,8,13,8,8,72,,64,64,6,7,7,8,0.7,0.6
2025-05-22T2100,1196A,119.9633,31.762,常州市,市监测站,颗粒物(PM10),52,54,60,32,35,89,,199,148,16,35,8,10,1.1,1.3
2025-05-22T2100,1200A,119.9468,31.7069,常州市,武进监测站,颗粒物(PM10),71,91,73,38,34,84,,207,156,21,31,5,11,1.1,1.2
2025-05-22T2100,1201A,119.9255,31.9087,常州市,安家,颗粒物(PM10),53,56,59,31,34,82,,166,122,16,39,14,13,0.9,0.6
2025-05-22T2100,3002A,119.9805,31.8174,常州市,行政中心,,,60,56,,33,91,,189,139,14,38,10,11,0.7,0.9
2025-05-22T2100,3003A,120.0522,31.7748,常州市,经开区,颗粒物(PM10),51,51,48,32,33,96,,219,150,20,49,5,7,0.7,0.8
2025-05-22T2100,3010A,119.9025,31.7964,常州市,钟楼,颗粒物(PM10),59,68,55,31,29,89,,196,148,14,26,7,9,0.9,1
2025-05-22T2100,3429A,119.8598,31.7066,常州市,武进经发区,颗粒物(PM10),64,78,57,33,30,84,,213,160,15,26,6,8,1.0,1.1
2025-05-22T2100,3430A,119.5826,31.7245,常州市,金坛城区,颗粒物(PM10),73,95,60,37,29,80,,219,171,21,21,8,9,0.8,0.6
2025-05-22T2100,2220A,120.4318,41.5881,朝阳市,西梁,颗粒物(PM10),53,56,76,21,44,60,,87,84,27,30,13,8,0.5,0.4
2025-05-22T2100,2221A,120.4521,41.5646,朝阳市,河畔小区,,34,34,64,14,38,77,,89,89,13,19,7,7,0.3,0.4
2025-05-22T2100,2222A,120.4176,41.5648,朝阳市,八里堡,颗粒物(PM10),62,73,110,32,59,68,,90,89,21,28,10,7,0.4,0.5
2025-05-22T2100,2223A,120.3806,41.5969,朝阳市,农业园区,细颗粒物(PM2.5),58,62,70,41,52,42,,84,78,49,22,7,7,0.4,0.4
2025-05-22T2100,1705A,116.6367,23.6719,潮州市,西园路,,36,36,37,12,23,24,,74,64,25,15,7,5,0.6,0.6
2025-05-22T2100,3026A,116.6183,23.6608,潮州市,市政府,颗粒物(PM10),51,51,40,21,16,25,,76,66,24,15,7,11,0.9,0.7
2025-05-22T2100,4036A,116.6461,23.6761,潮州市,金山,颗粒物(PM10),104,158,48,,23,25,,82,68,19,15,6,8,,0.8
2025-05-22T2100,2472A,113.0073,25.9061,郴州市,马头岭,,17,17,19,6,8,29,,44,36,8,6,8,8,0.2,0.2
2025-05-22T2100,2473A,113.0116,25.8226,郴州市,市职中,,22,22,16,14,11,42,,62,53,7,5,11,5,0.6,0.5
2025-05-22T2100,2475A,113.0383,25.8071,郴州市,市审计局,,22,22,15,10,8,46,,62,55,6,5,2,5,0.4,0.4
2025-05-22T2100,2476A,113.0348,25.7759,郴州市,市环保局,,20,19,17,14,12,48,,59,54,6,6,3,6,0.4,0.4
2025-05-22T2100,4252A,113.0138,25.8011,郴州市,好美居路49号,,15,,16,3,8,45,,57,50,6,5,12,8,0.4,0.5
2025-05-22T2100,1431A,103.9728,30.7236,成都市,金泉两河,细颗粒物(PM2.5),78,79,62,57,43,136,,208,202,24,17,7,4,0.6,0.5
2025-05-22T2100,1432A,104.176,30.6872,成都市,十里店,细颗粒物(PM2.5),98,104,65,73,45,168,,199,198,18,17,7,5,0.6,0.5
2025-05-22T2100,1433A,104.079,30.5706,成都市,三瓦窑,细颗粒物(PM2.5),72,77,60,52,43,146,,180,177,22,22,4,4,0.9,0.8
2025-05-22T2100,1434A,104.1114,30.63,成都市,沙河铺,,,73,59,54,40,,,166,166,19,19,8,8,0.8,0.8
2025-05-22T2100,1437A,104.0786,30.6531,成都市,君平街,细颗粒物(PM2.5),90,83,67,67,49,136,,179,175,22,21,11,8,0.8,0.7
2025-05-22T2100,1438A,103.613,31.0283,成都市,灵岩寺,,,,,,,,,,,,,,,,
2025-05-22T2100,2880A,104.0239,30.65639,成都市,大石西路,细颗粒物(PM2.5),94,82,69,70,49,147,,192,187,22,21,7,5,0.8,0.7
2025-05-22T2100,3136A,104.2725,30.5589,成都市,龙泉驿区区政府,,48,48,45,27,30,111,,158,154,22,14,5,5,0.7,0.7
2025-05-22T2100,3357A,104.0106,30.6931,成都市,金博路,细颗粒物(PM2.5),77,79,60,56,40,139,,197,190,22,22,12,9,0.6,0.6
2025-05-22T2100,3359A,104.0578,30.5225,成都市,华阳,,,66,53,51,44,135,,162,161,,17,7,7,0.6,0.7
2025-05-22T2100,3488A,104.3853,30.7453,成都市,青白江技师分院,"颗粒物(PM10),细颗粒物(PM2.5)",80,110,63,59,39,135,,171,167,50,38,7,6,0.6,0.6
2025-05-22T2100,3489A,104.0789,30.4072,成都市,科学城,细颗粒物(PM2.5),60,54,58,43,44,144,,158,158,21,13,4,4,0.7,0.7
2025-05-22T2100,4011A,103.8506,30.6947,成都市,光华大道三段,细颗粒物(PM2.5),95,90,71,71,53,146,,197,186,17,16,5,6,0.9,0.8
2025-05-22T2100,4224A,104.2433,30.5353,成都市,鲸龙路1057号,颗粒物(PM10),51,52,61,35,41,122,,163,160,21,25,7,7,0.7,0.7
2025-05-22T2100,1062A,117.9531,40.9081,承德市,铁路,,46,46,57,30,38,87,,90,90,17,23,8,4,0.4,0.3
2025-05-22T2100,1063A,117.9392,40.9763,承德市,中国银行,,43,43,56,30,38,88,,101,101,12,15,22,3,0.8,0.3
2025-05-22T2100,1064A,117.9503,40.928,承德市,开发区,,50,44,56,35,42,96,,103,103,8,19,10,2,0.5,0.4
2025-05-22T2100,1065A,117.8051,40.9655,承德市,文化中心,,46,46,76,25,41,88,,99,98,9,22,11,5,0.4,0.4
2025-05-22T2100,1066A,117.9268,41.0026,承德市,离宫,细颗粒物(PM2.5),72,56,57,52,49,90,,100,99,8,11,15,2,0.7,0.4
2025-05-22T2100,2314A,117.47,30.6618,池州市,池州学院,,25,8,27,3,16,78,,95,89,4,7,4,5,0.5,0.6
2025-05-22T2100,3237A,117.4918,30.6617,池州市,展览馆,,22,6,24,3,13,70,,92,85,4,6,4,4,0.5,0.6
2025-05-22T2100,3333A,117.5627,30.695,池州市,第八中学,,24,6,23,3,14,75,,96,92,3,7,4,4,0.3,0.4
2025-05-22T2100,3334A,117.5038,30.6243,池州市,第十二中学,,21,8,24,3,15,67,,96,86,10,9,2,2,0.6,0.8
2025-05-22T2100,1744A,118.9233,42.2816,赤峰市,松山一中,细颗粒物(PM2.5),84,98,90,62,63,64,,109,97,38,24,8,9,0.7,0.6
2025-05-22T2100,1745A,118.9576,42.2728,赤峰市,哈达街,细颗粒物(PM2.5),83,79,94,61,73,51,,92,82,49,33,5,8,0.6,0.6
2025-05-22T2100,1746A,118.8788,42.2554,赤峰市,天义路,细颗粒物(PM2.5),93,70,72,69,73,80,,109,103,23,19,7,8,0.6,0.6
2025-05-22T2100,3058A,119.2658,42.0353,赤峰市,银河街,细颗粒物(PM2.5),93,114,97,69,71,66,,92,86,19,14,16,15,0.8,0.7
2025-05-22T2100,3286A,118.9359,42.3147,赤峰市,桥北物流园区,细颗粒物(PM2.5),115,,89,87,83,71,,99,91,26,28,8,8,0.6,0.7
2025-05-22T2100,2521A,107.3476,22.4136,崇左市,市环保局江州分局,,,21,31,11,16,47,,84,78,,7,5,6,0.3,0.3
2025-05-22T2100,4256A,107.3750,22.3736,崇左市,石景林东路7号,,19,14,27,13,15,38,,91,80,13,8,2,3,0.5,0.5
2025-05-22T2100,2298A,118.3093,32.3153,滁州市,老年大学,颗粒物(PM10),54,57,57,32,38,105,,164,143,8,19,2,2,0.4,0.6
2025-05-22T2100,2299A,118.3244,32.2786,滁州市,人大宾馆,,47,47,47,30,37,102,,167,142,11,19,4,7,0.4,0.7
2025-05-22T2100,3207A,118.3118,32.3038,滁州市,市政府原办公楼,细颗粒物(PM2.5),58,43,48,41,47,109,,173,151,3,13,3,4,0.4,0.7
2025-05-22T2100,3331A,118.3267,32.2634,滁州市,图书馆,,46,46,59,28,38,98,,158,135,6,13,7,8,0.4,0.7
2025-05-22T2100,2605A,101.5482,25.0441,楚雄彝族自治州,州环境监测站,,35,26,26,13,13,110,,118,116,6,8,7,7,0.4,0.4
2025-05-22T2100,2606A,101.538,25.0492,楚雄彝族自治州,市经济开发区,,45,45,22,18,14,101,,109,105,12,10,6,6,0.4,0.4
2025-05-22T2100,2548A,107.5277,31.2827,达州市,达州职业技术学院,,38,38,39,12,22,70,,100,97,24,19,8,6,0.7,0.8
2025-05-22T2100,2549A,107.5086,31.2186,达州市,市环境监测站,,,32,34,3,16,,,98,97,21,24,6,6,0.3,0.4
2025-05-22T2100,2550A,107.4988,31.2132,达州市,凤凰小区,,26,24,31,14,20,82,,95,94,18,21,8,7,0.3,0.5
2025-05-22T2100,2551A,107.5082,31.1986,达州市,达县机关宾馆,,29,24,36,20,17,73,,98,95,25,26,6,6,0.2,0.4
2025-05-22T2100,2552A,107.4644,31.2124,达州市,市政中心,,32,32,40,12,18,83,,91,90,15,21,4,3,0.3,0.5
2025-05-22T2100,2614A,100.1542,25.7054,大理白族自治州,大理市环境监测站,,27,20,20,16,17,85,,89,89,5,6,7,7,0.5,0.3
2025-05-22T2100,2615A,100.2171,25.5811,大理白族自治州,大理古城,,34,34,22,20,14,86,,105,103,18,9,8,8,0.6,0.6
2025-05-22T2100,1109A,121.612,38.9741,大连市,甘井子,颗粒物(PM10),66,82,83,34,49,93,,133,116,18,28,6,9,0.3,0.4
2025-05-22T2100,1110A,121.565,38.9511,大连市,周水子,颗粒物(PM10),55,60,78,30,48,85,,123,109,15,29,7,10,0.4,0.5
2025-05-22T2100,1111A,121.5637,38.8845,大连市,星海三站,颗粒物(PM10),54,58,67,29,49,86,,128,114,14,17,4,7,0.4,0.5
2025-05-22T2100,1112A,121.6302,38.9117,大连市,青泥洼桥,颗粒物(PM10),54,58,72,30,48,87,,134,120,25,29,9,10,0.2,0.4
2025-05-22T2100,1113A,121.6251,38.8638,大连市,傅家庄,颗粒物(PM10),54,58,72,28,48,100,,143,129,14,20,5,7,0.2,0.3
2025-05-22T2100,1114A,121.5213,38.8661,大连市,七贤岭,颗粒物(PM10),56,61,73,32,50,92,,143,126,14,14,5,6,0.6,0.7
2025-05-22T2100,1115A,121.2529,38.8061,大连市,旅顺,,,38,54,24,49,83,,128,111,,18,7,9,0.3,0.4
2025-05-22T2100,1116A,121.7485,39.1311,大连市,金州,颗粒物(PM10),62,73,70,24,47,94,,136,117,14,19,7,9,0.0,0.4
2025-05-22T2100,1117A,121.7811,39.0496,大连市,开发区,颗粒物(PM10),55,60,60,24,48,98,,136,122,16,17,6,7,0.5,0.5
2025-05-22T2100,1118A,121.9762,39.0631,大连市,双D港,颗粒物(PM10),68,85,74,31,49,94,,144,130,14,12,6,8,0.2,0.3
2025-05-22T2100,1789A,124.81117,46.03138,大庆市,大同区,,20,20,22,13,17,57,,84,78,14,8,3,4,0.4,0.3
2025-05-22T2100,1790A,125.129,46.533,大庆市,龙凤区,,37,37,33,17,15,51,,81,71,31,17,6,5,0.6,0.4
2025-05-22T2100,1791A,124.902,46.408,大庆市,红岗区,,28,24,25,18,14,25,,91,78,55,8,7,6,0.2,0.2
2025-05-22T2100,1792A,125.153,46.586,大庆市,萨尔图区,,39,39,31,12,10,39,,70,60,35,16,6,6,0.5,0.4
2025-05-22T2100,1793A,124.9042,46.6215,大庆市,让胡路区,,36,29,25,25,21,42,,77,69,28,10,7,6,0.3,0.2
2025-05-22T2100,3481A,125.141,46.634,大庆市,萨区政府监测点,,40,40,27,3,3,36,,81,73,35,12,5,5,0.5,0.4
2025-05-22T2100,1721A,113.3819,40.1097,大同市,果树场,,,,,,,,,,,,,,,,
2025-05-22T2100,1723A,113.2994,40.0758,大同市,云冈宾馆,细颗粒物(PM2.5),58,43,59,41,38,112,,133,116,12,15,4,5,0.6,0.7
2025-05-22T2100,1724A,113.3444,40.0917,大同市,大同大学,细颗粒物(PM2.5),52,41,50,36,33,113,,138,122,11,14,8,8,0.5,0.6
2025-05-22T2100,1725A,113.2661,40.1269,大同市,安家小村,,,,56,,31,,,131,118,,13,6,6,0.6,0.8
2025-05-22T2100,1726A,113.2711,40.0844,大同市,教育学院,细颗粒物(PM2.5),52,46,50,36,34,107,,126,111,12,14,6,6,0.3,0.5
2025-05-22T2100,3282A,113.3397,40.0597,大同市,大同市卫生学校,细颗粒物(PM2.5),68,,53,49,43,105,,120,106,6,11,6,7,0.7,0.8
2025-05-22T2100,3565A,113.1367,40.1122,大同市,云冈站,,49,43,48,34,34,107,,124,112,10,12,5,6,0.6,0.7
2025-05-22T2100,3566A,113.1186,40.2556,大同市,图书馆,,33,33,34,18,27,98,,114,111,7,10,5,8,1.2,1.2
2025-05-22T2100,3567A,113.5931,40.0461,大同市,区一中,细颗粒物(PM2.5),55,43,54,39,42,113,,132,118,9,11,8,9,0.6,0.7
2025-05-22T2100,4199A,113.2798,40.0997,大同市,魏都大道141号,,50,38,54,35,35,101,,122,109,9,12,5,6,0.8,0.9
2025-05-22T2100,2269A,124.1069,50.4097,大兴安岭地区,科技局,,33,33,20,16,13,77,,78,78,3,3,6,6,0.2,0.1
2025-05-22T2100,3663A,124.1164,50.4278,大兴安岭地区,红旗社区,,25,7,7,3,4,77,,81,81,2,3,2,2,0.3,0.2
2025-05-22T2100,1600A,124.3303,40.0625,丹东市,江湾东路,细颗粒物(PM2.5),87,92,58,64,50,146,,148,148,16,12,9,7,0.7,0.6
2025-05-22T2100,1601A,124.4256,40.1503,丹东市,临江后街,细颗粒物(PM2.5),88,88,62,65,44,129,,138,138,23,14,11,8,0.9,0.7
2025-05-22T2100,1602A,124.3933,40.1461,丹东市,元宝山,细颗粒物(PM2.5),80,70,58,59,41,135,,136,136,13,9,9,8,0.7,0.5
2025-05-22T2100,1603A,124.3633,40.1092,丹东市,民主桥,细颗粒物(PM2.5),74,80,54,54,37,142,,142,142,18,16,10,8,0.9,0.7
2025-05-22T2100,3541A,109.5726,19.5167,儋州市,第一中学子站,,,,15,,9,,,38,38,9,4,6,7,0.5,0.6
2025-05-22T2100,3542A,109.5567,19.5187,儋州市,东坡学校子站,,17,17,16,10,8,33,,38,37,12,4,4,5,0.4,0.4
2025-05-22T2100,2616A,98.5842,24.428,德宏傣族景颇族自治州,德宏州监测站,,34,34,40,21,24,71,,89,86,11,12,6,7,0.6,0.6
2025-05-22T2100,3677A,98.5881,24.4368,德宏傣族景颇族自治州,芒市人民政府综合楼,,42,42,44,15,19,82,,101,98,10,11,8,7,0.4,0.5
2025-05-22T2100,1901A,104.4239,31.1208,德阳市,东山公园,细颗粒物(PM2.5),73,73,60,53,41,148,,169,169,18,13,5,6,1.0,1
2025-05-22T2100,1902A,104.3826,31.1317,德阳市,西小区,细颗粒物(PM2.5),82,77,66,60,31,162,,194,194,22,17,3,6,1.0,0.9
2025-05-22T2100,1904A,104.3553,31.1091,德阳市,耐火材料厂,细颗粒物(PM2.5),85,100,74,63,48,158,,184,184,21,19,6,8,0.7,0.6
2025-05-22T2100,3639A,104.4019,31.1244,德阳市,市教育局,细颗粒物(PM2.5),78,80,63,57,46,162,,189,189,22,14,7,8,0.9,0.8
2025-05-22T2100,1622A,116.3032,37.4674,德州市,儿童乐园,细颗粒物(PM2.5),85,85,79,63,52,77,,106,95,22,18,6,10,0.6,0.5
2025-05-22T2100,1624A,116.2991,37.4451,德州市,监理站,细颗粒物(PM2.5),85,73,74,63,51,88,,112,104,19,17,6,9,0.5,0.4
2025-05-22T2100,3066A,116.2721,37.4379,德州市,九衢泉纯净水厂,细颗粒物(PM2.5),79,78,73,58,49,84,,108,100,19,19,7,9,0.6,0.5
2025-05-22T2100,3371A,116.3728,37.4403,德州市,开发区人民医院,细颗粒物(PM2.5),85,83,73,63,47,87,,109,96,23,18,7,10,0.8,0.6
2025-05-22T2100,3372A,116.3572,37.4094,德州市,太阳城中学,,,80,73,63,49,,,114,108,26,18,5,9,0.4,0.4
2025-05-22T2100,3511A,116.5652,37.3319,德州市,陵城艺术中心,细颗粒物(PM2.5),77,75,70,56,42,103,,117,107,14,12,6,9,0.7,0.6
2025-05-22T2100,2621A,99.7056,27.8317,迪庆藏族自治州,迪庆州站,,27,20,23,10,14,84,,106,100,12,8,5,6,0.7,0.7
2025-05-22T2100,3180A,99.7136,27.8094,迪庆藏族自治州,质量技术监督局,,29,29,23,17,9,72,,104,96,26,11,5,4,0.5,0.5
2025-05-22T2100,4257A,104.6092,35.5962,定西市,将台街,颗粒物(PM10),74,98,79,35,26,122,,135,134,7,4,4,5,0.4,0.1
2025-05-22T2100,4309A,104.6159,35.5701,定西市,正龙路62号,,,138,81,58,29,,,128,128,8,7,5,6,0.1,0.1
2025-05-22T2100,1389A,113.7547,23.0494,东莞市,莞城梨川,,39,39,20,17,11,38,,82,66,14,10,8,7,0.4,0.4
2025-05-22T2100,1390A,113.7944,23.0128,东莞市,东城石井,,31,31,18,12,9,31,,70,58,17,12,3,2,0.4,0.4
2025-05-22T2100,1391A,113.7383,22.9658,东莞市,南城西平,,30,30,17,7,5,37,,75,60,14,11,2,2,0.4,0.4
2025-05-22T2100,3319A,113.7338,23.0381,东莞市,万江金泰,,31,31,22,13,9,23,,70,52,15,11,2,2,0.8,0.8
2025-05-22T2100,3626A,113.7533,23.0202,东莞市,南城元岭,,28,25,18,19,9,34,,77,61,17,12,5,4,0.6,0.5
2025-05-22T2100,3627A,113.7875,23.0457,东莞市,东城主山,,30,30,21,16,10,33,,76,62,12,9,5,5,0.7,0.6
2025-05-22T2100,1666A,118.6614,37.4309,东营市,市环保局,,48,48,57,24,38,98,,124,114,9,11,6,6,0.5,0.5
2025-05-22T2100,3036A,118.6904,37.4338,东营市,开发区管委会,颗粒物(PM10),53,55,72,24,41,111,,136,126,13,16,6,6,0.5,0.5
2025-05-22T2100,3365A,118.5719,37.565,东营市,垦利区民丰路,颗粒物(PM10),53,56,64,31,43,102,,137,123,20,18,7,7,0.7,0.7
2025-05-22T2100,3498A,118.5055,37.8612,东营市,河口城区,颗粒物(PM10),54,58,69,29,41,91,,124,115,20,19,17,9,1.0,1
2025-05-22T2100,3646A,118.4978,37.4623,东营市,胜利站,颗粒物(PM10),54,58,79,31,45,99,,131,120,16,17,8,9,0.5,0.6
2025-05-22T2100,3734A,118.35,37.26,东营市,理想之城,,,,67,,45,102,,133,122,,23,4,5,0.5,0.5
2025-05-22T2100,1591A,110.0023,39.8129,鄂尔多斯市,综合楼,,32,9,59,9,22,102,,84,84,12,16,8,9,0.3,0.3
2025-05-22T2100,1592A,109.9486,39.8261,鄂尔多斯市,巴音孟克林场办事处,,34,6,67,3,18,107,,87,87,12,15,6,7,0.6,0.5
2025-05-22T2100,1593A,109.7736,39.5986,鄂尔多斯市,康泽苑,,32,14,61,3,20,101,,82,82,5,11,7,10,0.2,0.3
2025-05-22T2100,1594A,109.8119,39.5989,鄂尔多斯市,华泰汽车城,,30,7,58,7,15,94,,75,75,6,13,3,5,0.3,0.3
2025-05-22T2100,1595A,109.9734,39.7884,鄂尔多斯市,奥林花园,,,17,54,,23,99,,82,82,15,17,5,7,0.6,0.6
2025-05-22T2100,2436A,114.8938,30.3994,鄂州市,市政府,,24,24,38,7,18,38,,65,48,19,18,6,9,0.4,0.3
2025-05-22T2100,2437A,114.8989,30.3714,鄂州市,赵家坝,,15,14,31,3,11,45,,73,56,21,16,6,7,0.7,0.8
2025-05-22T2100,3654A,114.8094,30.4089,鄂州市,精准医疗中心,,16,16,25,3,10,46,,75,58,11,11,4,6,1.0,1.1
2025-05-22T2100,2454A,109.4978,30.2981,恩施土家族苗族自治州,湖北民院,,20,19,24,3,14,64,,90,90,6,8,6,6,0.2,0.2
2025-05-22T2100,2455A,109.4707,30.2798,恩施土家族苗族自治州,州电力总公司,,,,20,,17,,,86,86,12,10,7,7,,0.5
2025-05-22T2100,3549A,109.5061,30.3772,恩施土家族苗族自治州,龙凤新区,,15,14,25,3,14,48,,74,74,6,10,6,6,0.3,0.4
2025-05-22T2100,2499A,108.3411,21.6158,防城港市,沙万,,35,35,24,12,7,39,,62,40,7,10,1,1,0.3,0.3
2025-05-22T2100,2500A,108.3514,21.7731,防城港市,防城档案局,,17,17,17,8,9,34,,36,35,5,5,2,3,0.5,0.5
2025-05-22T2100,2501A,108.3506,21.6414,防城港市,大海花园,,,19,19,3,5,,,45,45,11,7,2,2,0.4,0.4
2025-05-22T2100,1371A,113.1294,23.0067,佛山市,湾梁,,24,24,22,11,12,20,,70,33,21,20,8,8,0.6,0.5
2025-05-22T2100,1372A,113.1083,23.0478,佛山市,华材职中,,24,24,20,15,12,26,,68,35,22,19,5,5,0.3,0.3
2025-05-22T2100,1373A,113.144,23.0453,佛山市,南海气象局,,29,29,24,15,14,15,,60,26,23,16,2,2,0.5,0.5
2025-05-22T2100,1374A,113.2881,22.8094,佛山市,顺德苏岗,,44,44,22,9,8,27,,63,44,12,10,6,6,0.6,0.6
2025-05-22T2100,1376A,112.8383,22.8678,佛山市,高明孔堂,,26,26,20,12,11,37,,54,50,7,6,5,5,0.6,0.6
2025-05-22T2100,1377A,112.8836,23.1588,佛山市,三水监测站,,,29,35,29,19,,,48,41,36,35,4,5,0.4,0.6
2025-05-22T2100,1378A,112.867,23.185,佛山市,三水云东海,,46,46,42,13,18,19,,64,51,37,30,3,2,0.5,0.6
2025-05-22T2100,3625A,113.2544,22.7642,佛山市,容桂街道办,,28,22,16,19,14,25,,57,41,17,14,5,5,0.7,0.7
2025-05-22T2100,1280A,119.3903,26.0543,福州市,鼓山,,,,28,,9,,,41,,,7,,3,,0.3
2025-05-22T2100,1282A,119.2681,26.0504,福州市,师大,,22,22,22,13,10,30,,48,42,21,16,3,3,0.3,0.3
2025-05-22T2100,1283A,119.2984,26.1028,福州市,五四北路,,25,25,20,10,8,21,,54,47,31,19,3,3,0.4,0.4
2025-05-22T2100,1284A,119.2648,26.0768,福州市,杨桥西路,,19,19,24,7,7,32,,50,45,22,16,3,4,0.3,0.3
2025-05-22T2100,1285A,119.317,26.0746,福州市,紫阳,,20,18,22,14,10,24,,49,43,33,21,3,4,0.4,0.3
2025-05-22T2100,3048A,119.5799,26.0936,福州市,九龙,细颗粒物(PM2.5),65,,29,47,20,46,,82,78,8,15,4,4,0.3,0.3
2025-05-22T2100,3526A,119.5189,25.9664,福州市,吴航,,39,39,28,21,15,8,,46,34,36,24,4,5,0.4,0.4
2025-05-22T2100,1755A,123.7977,41.8491,抚顺市,望花区,,42,40,76,29,54,94,,132,126,21,35,3,5,0.5,0.6
2025-05-22T2100,1756A,123.9161,41.8822,抚顺市,顺城区,颗粒物(PM10),61,71,79,36,48,60,,124,115,46,46,7,8,0.6,0.6
2025-05-22T2100,1757A,124.0436,41.8611,抚顺市,东洲区,,45,45,67,25,43,93,,126,120,18,23,7,8,0.4,0.5
2025-05-22T2100,1758A,123.9247,41.8642,抚顺市,新抚区,,38,38,75,23,45,96,,129,125,17,33,7,8,0.5,0.6
2025-05-22T2100,1759A,124.0972,41.8961,抚顺市,大伙房水库,,35,35,56,23,43,104,,128,123,18,27,8,9,0.4,0.6
2025-05-22T2100,1760A,123.7086,41.8391,抚顺市,沈抚新城,,38,38,71,24,51,89,,127,119,21,35,5,9,0.5,0.9
2025-05-22T2100,2376A,116.2127,28.0814,抚州市,桐源党溪,,28,28,35,12,19,33,,48,39,2,3,3,5,0.6,0.7
2025-05-22T2100,2377A,116.3544,27.9831,抚州市,市站,,21,21,25,10,13,30,,53,43,6,8,1,2,0.4,0.5
2025-05-22T2100,2378A,116.3565,27.963,抚州市,血防站,,,23,29,10,15,,,51,43,,7,,3,,0.5
2025-05-22T2100,2379A,116.3564,28.0007,抚州市,采茶剧团,,20,20,25,10,11,30,,51,43,2,4,2,1,0.2,0.2
2025-05-22T2100,2380A,116.385,27.9647,抚州市,医学分院,,23,23,28,12,11,31,,56,46,2,4,3,4,0.5,0.4
2025-05-22T2100,2207A,121.6094,41.998,阜新市,工业园区,颗粒物(PM10),64,78,183,7,42,67,,87,84,16,18,11,9,0.6,0.4
2025-05-22T2100,2208A,121.6697,42.0279,阜新市,长青街,,22,22,66,12,36,43,,80,73,30,19,9,8,0.4,0.7
2025-05-22T2100,2209A,121.6673,42.0705,阜新市,农业园区,,,29,19,3,2,,,,,28,17,10,8,5.5,1.7
2025-05-22T2100,2210A,121.6717,42.0224,阜新市,东苑,,36,36,87,19,47,43,,86,78,32,19,9,9,0.4,0.7
2025-05-22T2100,2211A,121.6506,42.0498,阜新市,玉龙新城,颗粒物(PM10),64,78,127,21,35,21,,79,65,45,28,11,8,1.3,0.5
2025-05-22T2100,2301A,115.8277,32.8929,阜阳市,市监测站,,,,67,16,34,98,,148,136,11,14,8,9,0.7,0.6
2025-05-22T2100,2303A,115.8554,32.8605,阜阳市,开发区,,27,23,77,6,32,86,,148,134,16,15,5,7,0.4,0.4
2025-05-22T2100,2875A,115.784,32.8892,阜阳市,阜阳职业技术学院,,32,,52,16,29,102,,158,144,10,11,3,5,0.6,0.5
2025-05-22T2100,3468A,115.7901,32.8613,阜阳市,市规划展馆,,,,63,18,40,,,150,144,,12,5,7,0.6,0.5
2025-05-22T2100,3469A,115.836,32.9183,阜阳市,枣园社区,,32,25,73,17,36,100,,149,134,9,14,3,4,0.4,0.4
2025-05-22T2100,2669A,102.9099,34.9841,甘南藏族自治州,州政府,颗粒物(PM10),76,101,62,40,27,90,,106,105,2,8,2,2,0.3,0.3
2025-05-22T2100,3380A,102.8914,34.9617,甘南藏族自治州,甘肃民族师范学院,,,96,78,52,27,,,125,125,3,14,7,7,0.4,0.4
2025-05-22T2100,2570A,101.9603,30.0475,甘孜藏族自治州,水桥子,,,10,21,10,10,,,99,99,12,18,4,5,0.2,0.3
2025-05-22T2100,3065A,101.9533,29.9972,甘孜藏族自治州,州环保局,,29,26,25,10,8,91,,99,98,12,17,1,1,0.4,0.4
2025-05-22T2100,3414A,115.8347,28.932,赣江新区,桑海产业园,,20,6,16,3,8,63,,84,70,17,15,6,7,0.5,0.5
2025-05-22T2100,2362A,114.9017,25.9149,赣州市,通天岩,,22,20,23,3,5,69,,61,61,3,4,4,6,0.6,0.5
2025-05-22T2100,2363A,114.9367,25.8664,赣州市,地委,,25,25,26,10,12,67,,67,65,8,10,1,2,0.5,0.5
2025-05-22T2100,2364A,114.9461,25.8481,赣州市,气象台,,50,50,33,11,10,67,,64,64,7,9,6,7,0.4,0.4
2025-05-22T2100,2365A,114.9322,25.8333,赣州市,市图书馆,,25,,24,17,12,59,,58,56,5,7,4,5,0.5,0.5
2025-05-22T2100,2366A,114.8905,25.8471,赣州市,华坚鞋城,,20,18,23,13,12,64,,65,64,6,8,4,4,0.2,0.2
2025-05-22T2100,3109A,115.0093,25.8613,赣州市,赣县区卫计委,,16,12,23,11,14,50,,47,47,8,12,2,3,0.4,0.4
2025-05-22T2100,2683A,106.2319,36.1417,固原市,马园,颗粒物(PM10),71,92,183,18,53,96,,112,108,13,7,5,5,0.2,0.2
2025-05-22T2100,2684A,106.2792,36.0022,固原市,监测站,,,,171,,73,,,110,110,10,6,5,6,,0.1
2025-05-22T2100,2685A,106.2375,36.0211,固原市,新区,颗粒物(PM10),64,77,170,26,56,98,,111,109,8,4,7,7,0.2,0.3
2025-05-22T2100,3522A,106.2177,35.9959,固原市,原州区十五小,颗粒物(PM10),69,88,140,26,58,96,,112,110,10,4,9,9,0.2,0.2
2025-05-22T2100,2543A,106.6308,30.5278,广安市,小平旧居,,,,,,,,,,,,,,,,
2025-05-22T2100,2544A,106.6303,30.4576,广安市,市委,,41,41,35,24,28,81,,112,109,27,7,1,3,0.6,0.4
2025-05-22T2100,2545A,106.6271,30.4663,广安市,友谊中学,,,,29,,22,100,,113,112,19,9,,4,0.7,0.8
2025-05-22T2100,2547A,106.6388,30.4551,广安市,广电花园,,36,36,31,17,20,68,,112,107,29,9,6,6,0.7,0.5
2025-05-22T2100,2902A,106.6351,30.4865,广安市,北辰小学,,32,32,33,21,23,69,,110,106,25,9,12,11,0.7,0.6
2025-05-22T2100,2523A,105.8945,32.4535,广元市,黑石坡,颗粒物(PM10),97,143,97,43,28,102,,103,103,7,9,4,5,0.2,0.3
2025-05-22T2100,2524A,105.821,32.4444,广元市,老城,颗粒物(PM10),96,142,107,47,32,99,,104,104,10,6,1,1,0.2,0.3
2025-05-22T2100,2526A,105.8628,32.4287,广元市,监测站,颗粒物(PM10),65,80,71,36,31,112,,113,113,5,3,1,2,0.3,0.4
2025-05-22T2100,3617A,105.8047,32.4166,广元市,经开区,颗粒物(PM10),97,143,90,51,40,101,,112,112,18,9,3,3,0.6,0.6
2025-05-22T2100,1345A,113.2347,23.1423,广州市,广雅中学,,40,40,27,19,15,7,,66,34,50,29,2,2,0.6,0.6
2025-05-22T2100,1346A,113.2612,23.105,广州市,市五中,,34,34,27,18,16,10,,74,43,41,23,3,3,0.3,0.2
2025-05-22T2100,1348A,113.3478,23.0916,广州市,广东商学院,,31,31,30,18,16,15,,73,39,30,31,5,5,0.5,0.5
2025-05-22T2100,1349A,113.4332,23.1047,广州市,市八十六中,,39,39,29,15,11,2,,60,30,50,37,3,3,0.6,0.6
2025-05-22T2100,1350A,113.3505,22.9483,广州市,番禺中学,,25,25,26,14,12,26,,77,47,18,21,7,6,0.4,0.4
2025-05-22T2100,1351A,113.2146,23.3916,广州市,花都师范,,32,28,26,16,15,9,,66,42,64,36,4,4,0.8,0.7
2025-05-22T2100,1352A,113.2597,23.1331,广州市,市监测站,,45,45,26,22,14,9,,69,43,50,24,5,5,0.6,0.5
2025-05-22T2100,1353A,113.5618,23.312,广州市,九龙镇镇龙,,26,26,25,16,14,17,,80,64,29,22,5,5,0.4,0.4
2025-05-22T2100,1354A,113.2765,23.1544,广州市,麓湖,,41,41,27,26,16,5,,64,34,49,27,4,4,0.8,0.6
2025-05-22T2100,1355A,113.443,23.3035,广州市,帽峰山森林公园,,28,28,19,3,6,8,,73,41,44,24,6,6,0.6,0.6
2025-05-22T2100,2846A,113.3221,23.1322,广州市,体育西,,,75,31,70,19,2,,72,39,60,30,3,4,,0.4
2025-05-22T2100,3298A,113.5717,23.5491,广州市,从化街口,,29,29,25,16,13,18,,81,64,31,29,6,6,0.7,0.5
2025-05-22T2100,3299A,113.3472,23.3692,广州市,白云竹料,,,,28,,15,,,79,65,37,26,2,2,0.7,0.6
2025-05-22T2100,3300A,113.2981,23.237,广州市,白云嘉禾,,48,48,33,28,18,0,,69,38,58,33,6,6,0.9,0.8
2025-05-22T2100,3301A,113.4256,23.1716,广州市,黄埔科学城,,,40,29,19,13,,,66,40,41,26,4,4,0.6,0.5
2025-05-22T2100,3302A,113.3942,23.0483,广州市,番禺大学城,,28,28,24,12,14,26,,74,43,21,26,6,5,0.3,0.4
2025-05-22T2100,3303A,113.4922,22.8168,广州市,南沙黄阁,,36,36,26,12,11,14,,61,43,26,15,5,4,0.8,0.6
2025-05-22T2100,3304A,113.5342,22.7896,广州市,南沙街,,,49,25,20,10,,,58,45,19,10,3,3,0.6,0.4
2025-05-22T2100,3443A,113.2902,23.5544,广州市,花都梯面,,25,25,22,11,10,9,,52,42,30,18,4,4,0.7,0.6
2025-05-22T2100,3445A,113.7858,23.7478,广州市,从化良口,,23,23,21,3,10,31,,75,65,17,11,6,6,0.6,0.7
2025-05-22T2100,3446A,113.8051,23.2614,广州市,增城荔城,,25,25,23,14,14,51,,89,74,14,14,8,8,0.4,0.4
2025-05-22T2100,2505A,109.568,23.1478,贵港市,德智高中,,,,,,,,,,,,,,,,
2025-05-22T2100,2506A,109.6047,23.0666,贵港市,江南子站,,36,36,38,24,20,47,,82,76,13,15,4,4,0.7,0.7
2025-05-22T2100,2508A,109.5669,23.1065,贵港市,荷城子站,,,,18,14,12,43,,80,69,18,15,6,6,0.2,0.2
2025-05-22T2100,3405A,109.5886,23.1172,贵港市,新世纪学校,,31,31,33,18,19,45,,80,71,16,17,4,5,0.7,0.7
2025-05-22T2100,4260A,109.5933,23.0951,贵港市,中山路155-3号,,41,41,41,25,22,34,,87,76,23,19,3,5,0.6,0.6
2025-05-22T2100,1439A,106.6899,26.5998,贵阳市,马鞍山,,20,19,24,9,6,64,,79,79,10,10,3,3,0.3,0.3
2025-05-22T2100,1441A,106.6243,26.6266,贵阳市,鉴湖路,,30,27,30,9,12,94,,92,92,14,13,8,8,0.4,0.4
2025-05-22T2100,1442A,106.7487,26.6343,贵阳市,燕子冲,,36,36,27,22,20,92,,99,99,14,12,3,4,0.4,0.4
2025-05-22T2100,1443A,106.6555,26.4365,贵阳市,碧云窝,,,31,30,12,12,,,103,103,14,14,5,5,0.4,0.3
2025-05-22T2100,1445A,106.7109,26.6027,贵阳市,红边门,,,27,28,17,22,103,,108,108,4,7,,3,0,0.1
2025-05-22T2100,1446A,106.7164,26.5699,贵阳市,新华路,,31,31,24,19,15,92,,97,97,14,12,15,18,0.4,0.4
2025-05-22T2100,1447A,106.674,26.5424,贵阳市,太慈桥,,32,24,24,9,12,102,,99,99,14,14,5,5,0.3,0.2
2025-05-22T2100,1552A,106.805,26.3003,贵阳市,桐木岭,,46,46,39,24,23,109,,114,114,5,2,1,1,0.8,0.9
2025-05-22T2100,4230A,106.6882,26.5695,贵阳市,花果园大街66号,,31,27,24,20,19,97,,90,90,12,11,3,3,0.4,0.3
2025-05-22T2100,4231A,106.6873,26.5169,贵阳市,漓江路57号,,31,27,27,14,15,98,,100,100,12,10,2,3,0.4,0.3
2025-05-22T2100,1862A,110.4144,25.3167,桂林市,电子科大尧山校区,,,,,,,,,,,,,,,,
2025-05-22T2100,1864A,110.3089,25.2708,桂林市,龙隐路小学,,29,29,26,16,15,38,,59,53,8,8,8,8,0.7,0.7
2025-05-22T2100,1865A,110.2869,25.2178,桂林市,八中,,35,35,24,18,13,40,,66,62,17,11,6,4,0.6,0.5
2025-05-22T2100,3531A,110.296,25.1253,桂林市,旅游学院,,15,14,16,7,10,48,,58,55,6,7,2,2,0.2,0.2
2025-05-22T2100,4222A,110.1835,25.2444,桂林市,环湖路276号,,46,46,26,24,17,20,,52,47,31,16,2,2,0.5,0.4
2025-05-22T2100,4301A,110.2803,25.2773,桂林市,信义路13号,,35,35,27,13,17,21,,65,57,30,11,3,3,0.6,0.5
2025-05-22T2100,2674A,100.2561,34.4714,果洛藏族自治州,玛沁县大武镇,颗粒物(PM10),81,112,111,28,31,130,,138,138,1,5,22,22,0.3,0.4
2025-05-22T2100,1129A,126.5422,45.755,哈尔滨市,岭北,,24,14,13,7,8,76,,94,90,12,14,12,11,0.4,0.3
2025-05-22T2100,1130A,126.561,45.8167,哈尔滨市,松北商大,,28,28,21,14,9,42,,84,76,29,16,6,6,0.4,0.3
2025-05-22T2100,1131A,126.979,45.5419,哈尔滨市,阿城会宁,颗粒物(PM10),51,51,37,26,19,44,,88,79,31,24,2,8,0.7,0.8
2025-05-22T2100,1132A,126.599,45.7222,哈尔滨市,南岗学府路,,43,43,26,14,5,49,,88,81,22,14,6,6,0.5,0.3
2025-05-22T2100,1133A,126.689,45.7733,哈尔滨市,太平宏伟公园,细颗粒物(PM2.5),74,,26,54,17,42,,86,77,36,14,4,5,0.6,0.4
2025-05-22T2100,1134A,126.635,45.7667,哈尔滨市,道外承德广场,,20,19,14,14,12,61,,86,80,20,14,5,5,0.4,0.3
2025-05-22T2100,1135A,126.685,45.7319,哈尔滨市,香坊红旗大街,细颗粒物(PM2.5),63,58,27,45,11,55,,88,81,24,16,3,4,0.6,0.5
2025-05-22T2100,1136A,126.6411,45.7258,哈尔滨市,动力和平路,,46,46,22,27,10,50,,83,77,32,18,6,5,0.5,0.4
2025-05-22T2100,1137A,126.593,45.7478,哈尔滨市,道里建国路,,25,24,19,14,10,29,,84,75,49,21,3,4,0.8,0.5
2025-05-22T2100,1138A,126.615,45.61,哈尔滨市,平房东轻厂,,39,37,41,14,19,7,,91,73,77,31,9,11,0.5,0.5
2025-05-22T2100,1139A,126.595,45.9855,哈尔滨市,呼兰师专,,40,40,25,19,12,35,,78,68,35,18,7,6,0.5,0.4
2025-05-22T2100,1140A,126.6206,45.6842,哈尔滨市,省农科院,颗粒物(PM10),53,56,47,30,14,41,,88,78,27,21,8,8,0.5,0.4
2025-05-22T2100,2688A,93.5128,42.8172,哈密市,地区监测站,,,,35,2,16,84,,92,91,12,24,4,4,0.1,0
2025-05-22T2100,2689A,93.4961,42.8328,哈密市,哈密师范学校,,36,36,34,7,15,80,,93,91,17,24,4,5,0.4,0.5
2025-05-22T2100,2671A,100.9048,36.9639,海北藏族自治州,海晏县西海镇,,37,33,49,17,21,117,,125,124,7,4,9,8,0.3,0.3
2025-05-22T2100,3867A,102.0738,36.5056,海东市,平安区公安北苑,颗粒物(PM10),71,92,57,30,24,97,,124,122,10,11,7,6,0.5,0.6
2025-05-22T2100,1409A,110.576,19.9507,海口市,东寨港,,13,13,11,6,8,28,,34,32,3,3,3,3,0.4,0.4
2025-05-22T2100,1410A,110.3232,20.0574,海口市,海南大学,,16,16,16,8,9,31,,52,46,5,4,2,2,0.4,0.3
2025-05-22T2100,1411A,110.283,20.0053,海口市,秀英海南医院,,25,25,18,17,9,22,,52,44,18,8,5,4,0.3,0.2
2025-05-22T2100,1412A,110.338,19.9969,海口市,海南师范大学,,17,17,16,10,9,31,,52,46,6,5,4,4,0.4,0.3
2025-05-22T2100,1413A,110.33,20.0356,海口市,龙华路环保局宿舍,,22,22,17,10,9,31,,52,46,7,6,4,4,0.5,0.5
2025-05-22T2100,3539A,110.5111,19.9736,海口市,桂林洋子站,,16,16,14,7,7,30,,41,36,6,5,4,4,0.2,0.2
2025-05-22T2100,2673A,100.6188,36.2866,海南藏族自治州,共和县恰卜恰镇,颗粒物(PM10),100,150,108,33,27,126,,133,132,4,8,15,14,0.4,0.3
2025-05-22T2100,2676A,97.3731,37.3753,海西蒙古族藏族自治州,德令哈市,颗粒物(PM10),57,64,142,23,38,129,,136,136,4,3,12,11,0.1,0.5
2025-05-22T2100,1048A,114.5302,36.6116,邯郸市,东污水处理厂,细颗粒物(PM2.5),64,66,57,46,29,114,,100,100,6,11,3,5,0.5,0.4
2025-05-22T2100,1049A,114.4918,36.5713,邯郸市,矿院,细颗粒物(PM2.5),83,,62,61,38,101,,101,100,10,12,4,5,0.6,0.4
2025-05-22T2100,1050A,114.484,36.6133,邯郸市,丛台公园,细颗粒物(PM2.5),84,70,68,62,37,100,,101,100,13,15,5,7,0.6,0.4
2025-05-22T2100,3458A,114.7895,36.5593,邯郸市,香泉濮院小区,细颗粒物(PM2.5),68,76,70,49,31,87,,95,95,14,12,3,4,0.5,0.4
2025-05-22T2100,3579A,114.50634,36.77178,邯郸市,永年区实验高中,细颗粒物(PM2.5),89,85,69,66,47,100,,100,100,12,13,2,3,0.5,0.4
2025-05-22T2100,3580A,114.20016,36.44293,邯郸市,峰峰矿区临水派出所,,,,48,52,32,119,,115,115,,12,3,6,0.5,0.5
2025-05-22T2100,2634A,106.9893,33.1842,汉中市,汉川机床厂子校,颗粒物(PM10),86,121,86,14,36,123,,116,116,5,9,6,8,0.4,0.6
2025-05-22T2100,2635A,107.0154,33.0706,汉中市,市监测站,颗粒物(PM10),88,126,69,62,40,108,,102,102,6,8,5,6,0.4,0.7
2025-05-22T2100,2636A,107.0089,33.1138,汉中市,鑫源开发区,颗粒物(PM10),87,124,72,54,36,114,,108,108,7,11,5,6,0.3,0.5
2025-05-22T2100,2637A,107.007,33.0323,汉中市,南郑大河坎水厂,颗粒物(PM10),86,122,75,44,37,118,,113,113,5,9,5,6,0.3,0.5
2025-05-22T2100,1223A,120.2072,30.2111,杭州市,滨江,颗粒物(PM10),56,61,43,34,22,93,,157,142,39,35,8,6,0.5,0.5
2025-05-22T2100,1224A,120.0633,30.2747,杭州市,西溪,,34,28,26,22,16,107,,141,137,17,11,4,4,0.4,0.4
2025-05-22T2100,1226A,120.3417,30.3150,杭州市,下沙,,32,32,38,20,26,88,,148,135,30,39,6,6,0.5,0.6
2025-05-22T2100,1227A,120.1269,30.2456,杭州市,卧龙桥,,45,36,28,31,19,106,,157,149,20,12,9,7,0.6,0.5
2025-05-22T2100,1228A,120.1903,30.2692,杭州市,浙江农大,,42,42,34,29,23,89,,126,118,27,30,9,9,0.5,0.5
2025-05-22T2100,1230A,120.1197,30.3119,杭州市,和睦小学,,36,36,29,20,17,105,,145,137,23,17,8,7,0.4,0.4
2025-05-22T2100,1231A,120.3019,30.4183,杭州市,临平镇,,45,45,63,20,28,91,,147,132,20,31,6,6,0.5,0.7
2025-05-22T2100,1232A,120.2753,30.1839,杭州市,城厢镇,细颗粒物(PM2.5),54,52,40,38,26,83,,153,138,38,31,8,7,0.5,0.5
2025-05-22T2100,1233A,120.0883,30.1808,杭州市,云栖,颗粒物(PM10),51,52,37,22,17,97,,156,143,33,17,8,7,0.5,0.5
2025-05-22T2100,3557A,119.9464,30.0494,杭州市,镇二中,,,55,37,36,24,,,165,165,22,21,4,3,0.7,0.6
2025-05-22T2100,3558A,119.7183,30.2367,杭州市,市府大楼,,36,36,29,24,18,99,,156,149,20,17,7,7,0.7,0.6
2025-05-22T2100,3656A,120.1556,30.2864,杭州市,消防大队,,43,37,30,30,22,101,,146,137,26,22,4,4,0.7,0.8
2025-05-22T2100,1270A,117.1959,31.7848,合肥市,明珠广场,,42,36,44,29,24,127,,156,153,14,17,4,6,0.5,0.5
2025-05-22T2100,1271A,117.3072,31.8764,合肥市,三里街,颗粒物(PM10),51,51,47,31,26,112,,144,141,15,19,5,5,0.7,0.7
2025-05-22T2100,1272A,117.2588,31.8707,合肥市,琥珀山庄,细颗粒物(PM2.5),60,48,44,43,30,135,,157,156,18,17,4,5,0.7,0.6
2025-05-22T2100,1273A,117.1604,31.9052,合肥市,董铺水库,颗粒物(PM10),56,61,42,31,20,136,,163,162,10,8,1,2,0.5,0.4
2025-05-22T2100,1274A,117.25,31.8571,合肥市,长江中路,细颗粒物(PM2.5),57,58,47,40,28,141,,157,156,15,16,5,6,0.6,0.5
2025-05-22T2100,1275A,117.266,31.9436,合肥市,庐阳区,颗粒物(PM10),57,63,49,29,26,119,,162,158,12,20,8,8,0.4,0.4
2025-05-22T2100,1276A,117.3453,31.8616,合肥市,瑶海区,颗粒物(PM10),52,53,49,32,27,112,,143,140,18,27,6,7,0.6,0.6
2025-05-22T2100,1277A,117.3027,31.7964,合肥市,包河区,,45,34,46,31,31,130,,152,150,13,19,7,7,0.6,0.6
2025-05-22T2100,1278A,117.2776,31.7385,合肥市,滨湖新区,,35,,41,24,32,107,,142,139,8,13,6,6,0.5,0.6
2025-05-22T2100,1279A,117.1318,31.8403,合肥市,高新区,,,46,42,38,25,,,155,155,,15,6,7,0.6,0.5
2025-05-22T2100,3464A,117.3803,31.9147,合肥市,高教基地,颗粒物(PM10),60,70,45,42,26,101,,155,149,12,18,6,6,0.9,0.6
2025-05-22T2100,3614A,79.924,37.0877,和田地区,地区环保局,颗粒物(PM10),189,327,629,92,162,86,,84,84,,10,,2,0.5,0.5
2025-05-22T2100,3615A,79.9131,37.113,和田地区,市环保局,颗粒物(PM10),157,263,573,72,146,72,,84,84,8,12,3,2,0.1,0.3
2025-05-22T2100,2516A,108.2011,24.715,河池市,东仁乐园,,,,,,,,,,,,,,,,
2025-05-22T2100,2517A,108.0497,24.6947,河池市,市环保站,,29,24,27,20,17,59,,70,68,6,6,6,7,0.5,0.5
2025-05-22T2100,2518A,108.0983,24.6989,河池市,市疾控中心,,38,37,28,26,18,28,,77,70,32,14,6,6,0.6,0.6
2025-05-22T2100,1696A,114.6778,23.7569,河源市,源西,,25,,27,17,20,56,,98,91,19,18,3,4,0.4,0.4
2025-05-22T2100,1697A,114.6944,23.7586,河源市,东埔,,23,17,25,16,19,67,,104,97,14,17,3,4,0.4,0.4
2025-05-22T2100,1698A,114.6892,23.7233,河源市,老城,,18,18,26,11,21,43,,97,88,18,16,3,4,0.4,0.4
2025-05-22T2100,1718A,115.4208,35.2464,菏泽市,气象局,细颗粒物(PM2.5),85,76,90,63,43,104,,104,104,14,16,1,5,0.4,0.4
2025-05-22T2100,3374A,115.5564,35.0891,菏泽市,定陶老年大学,细颗粒物(PM2.5),73,73,88,53,39,81,,102,89,13,18,4,6,0.4,0.7
2025-05-22T2100,4184A,115.4797,35.24401,菏泽市,永昌路1号,,,,85,,50,97,,100,100,12,14,5,8,0.3,0.4
2025-05-22T2100,4193A,115.4715,35.2800,菏泽市,长城路999号,细颗粒物(PM2.5),79,75,74,58,39,95,,98,98,15,17,8,11,0.3,0.4
2025-05-22T2100,2514A,111.5264,24.4172,贺州市,环保小区,,33,33,24,3,15,24,,47,44,21,10,8,8,1.2,1
2025-05-22T2100,2515A,111.5608,24.4078,贺州市,政协大楼,,23,23,20,10,14,28,,74,67,20,11,11,9,0.8,0.8
2025-05-22T2100,3534A,111.4744,24.4553,贺州市,西湾,,,23,21,14,15,10,,46,43,15,12,,3,0.6,0.6
2025-05-22T2100,2385A,114.17,35.9019,鹤壁市,市监测站,细颗粒物(PM2.5),84,80,87,62,48,111,,114,107,15,15,1,4,0.8,0.7
2025-05-22T2100,2386A,114.2956,35.7511,鹤壁市,市交警支队,细颗粒物(PM2.5),92,82,75,68,47,101,,102,100,17,16,6,6,0.8,0.4
2025-05-22T2100,2387A,114.2878,35.7306,鹤壁市,迎宾馆,,,70,80,67,52,,,106,101,14,14,4,5,0.8,0.6
2025-05-22T2100,3474A,114.2617,35.6822,鹤壁市,大新区,细颗粒物(PM2.5),87,73,73,64,39,101,,111,106,15,14,5,6,0.7,0.6
2025-05-22T2100,3596A,114.1572,35.9603,鹤壁市,南山宾馆,细颗粒物(PM2.5),98,,82,73,53,113,,117,108,11,10,3,5,0.8,0.7
2025-05-22T2100,2244A,130.2537,47.3416,鹤岗市,哈啤分公司,,39,,16,27,20,50,,72,64,8,6,12,12,0.2,0.2
2025-05-22T2100,2245A,130.2684,47.3086,鹤岗市,斯达机电,,49,44,26,34,21,39,,73,66,27,10,14,12,0.5,0.3
2025-05-22T2100,2246A,130.3114,47.3388,鹤岗市,东山纸板厂,,36,36,36,21,16,30,,74,64,21,14,14,15,0.5,0.4
2025-05-22T2100,2247A,130.1097,47.3382,鹤岗市,五号水库,,,,,,,,,,,,,,,,
2025-05-22T2100,2263A,127.4833,50.2524,黑河市,交通局,,32,32,19,18,13,40,,61,58,13,5,6,8,0.2,0.2
2025-05-22T2100,2264A,127.5144,50.2341,黑河市,环保局,,32,32,19,13,12,62,,76,74,11,6,12,7,0.6,0.3
2025-05-22T2100,2265A,127.5291,50.2472,黑河市,大黑河岛,,25,15,12,7,8,78,,69,64,5,7,2,2,0.2,0.2
2025-05-22T2100,1074A,115.6838,37.7541,衡水市,电机北厂,细颗粒物(PM2.5),84,72,84,62,54,64,,94,87,22,19,6,6,0.4,0.4
2025-05-22T2100,1075A,115.6303,37.7316,衡水市,市监测站,细颗粒物(PM2.5),77,70,84,56,50,68,,96,89,14,17,2,4,0.5,0.5
2025-05-22T2100,3188A,115.6683,37.7217,衡水市,市城管局,细颗粒物(PM2.5),73,70,81,53,55,73,,102,96,15,17,4,5,0.6,0.5
2025-05-22T2100,3459A,115.5989,37.5491,衡水市,地表水厂,细颗粒物(PM2.5),67,70,81,48,50,81,,103,98,13,16,6,8,0.5,0.5
2025-05-22T2100,2456A,112.5003,26.9167,衡阳市,原169医院,,25,25,22,12,11,64,,82,78,8,10,2,6,0.5,0.5
2025-05-22T2100,2457A,112.6194,26.9258,衡阳市,衡阳化工总厂,,37,37,25,16,13,40,,69,62,13,5,6,7,0.4,0.3
2025-05-22T2100,2458A,112.6211,26.8956,衡阳市,珠晖区环保局,,,25,22,,9,45,,71,65,8,6,8,9,0.6,0.6
2025-05-22T2100,2459A,112.6197,26.8733,衡阳市,市委党校,,33,33,24,14,11,36,,67,59,16,9,6,7,0.4,0.4
2025-05-22T2100,2460A,112.6006,26.8919,衡阳市,市监测站,,22,22,20,13,14,37,,68,59,16,7,8,11,0.4,0.3
2025-05-22T2100,2461A,112.5664,26.9056,衡阳市,真空机电公司,,19,19,25,11,12,43,,69,60,8,6,4,8,0.5,0.7
2025-05-22T2100,3399A,112.6703,26.882,衡阳市,师范学院,,19,19,30,3,13,33,,64,54,12,8,6,7,0.7,0.7
2025-05-22T2100,2608A,103.3772,23.3993,红河哈尼族彝族自治州,污水处理厂,,38,38,30,26,17,82,,94,90,6,6,6,6,0.3,0.4
2025-05-22T2100,2609A,103.3861,23.35,红河哈尼族彝族自治州,监测站,,48,48,32,26,18,82,,91,89,4,4,8,8,0.2,0.2
2025-05-22T2100,3038A,103.3758,23.368,红河哈尼族彝族自治州,州图书馆,,40,38,25,28,19,90,,99,97,7,6,3,3,0.3,0.2
2025-05-22T2100,1090A,111.6507,40.7517,呼和浩特市,呼市一监,,,,24,,21,,,88,,,2,,8,,0.5
2025-05-22T2100,1091A,111.6572,40.8033,呼和浩特市,小召,,,,20,,17,,,97,,,11,,6,,0.6
2025-05-22T2100,1094A,111.7516,40.8369,呼和浩特市,如意水处理厂,,32,6,24,3,14,101,,103,103,9,10,5,5,0.5,0.5
2025-05-22T2100,1095A,111.7276,40.8062,呼和浩特市,二十九中,,33,6,21,3,17,103,,102,102,5,6,4,4,0.6,0.6
2025-05-22T2100,1096A,111.5512,40.7866,呼和浩特市,工大金川校区,,34,11,18,3,4,106,,104,104,10,14,5,5,0.6,0.6
2025-05-22T2100,1097A,111.717,40.7612,呼和浩特市,化肥厂生活区,,35,6,26,3,15,109,,108,108,10,9,6,6,0.6,0.5
2025-05-22T2100,3698A,111.5968,40.8178,呼和浩特市,红旗小学,,35,6,15,3,13,112,,110,110,10,13,3,3,0.5,0.5
2025-05-22T2100,3699A,111.6518,40.8389,呼和浩特市,海东办,,32,6,13,3,12,102,,102,102,6,8,7,7,0.5,0.4
2025-05-22T2100,2192A,119.7594,49.2261,呼伦贝尔市,区环保局,,38,32,25,26,19,68,,74,74,14,9,5,5,0.2,0.2
2025-05-22T2100,3061A,119.7512,49.1577,呼伦贝尔市,国华电力东,,23,20,18,11,12,72,,79,79,10,7,4,4,0.3,0.2
2025-05-22T2100,1250A,120.0751,30.8669,湖州市,城西水厂,,44,44,57,26,37,107,,190,165,15,28,6,6,0.5,0.6
2025-05-22T2100,2873A,120.0830,30.8929,湖州市,仁皇山新区,,39,36,48,27,31,101,,195,165,16,27,5,5,0.8,0.8
2025-05-22T2100,2907A,120.1844,30.8596,湖州市,吴兴区站,,40,40,39,22,29,90,,183,147,16,25,6,6,0.5,0.5
2025-05-22T2100,3562A,120.4148,30.8538,湖州市,南浔区站,,49,49,38,33,31,103,,188,157,13,24,4,5,0.6,0.7
2025-05-22T2100,1607A,120.9049,40.7211,葫芦岛市,龙港区,颗粒物(PM10),86,122,109,62,53,9,,81,57,75,40,11,14,0.6,0.5
2025-05-22T2100,1608A,120.8392,40.7514,葫芦岛市,化工街,细颗粒物(PM2.5),77,92,76,56,49,4,,76,48,81,38,12,17,0.7,0.5
2025-05-22T2100,1609A,120.8341,40.7073,葫芦岛市,新区,细颗粒物(PM2.5),65,75,73,47,46,39,,80,66,50,32,18,21,0.6,0.6
2025-05-22T2100,1610A,120.8695,40.7677,葫芦岛市,东城区,颗粒物(PM10),59,67,67,28,47,26,,82,58,65,31,16,12,0.7,0.6
2025-05-22T2100,2482A,109.5981,27.5721,怀化市,林科所,,21,21,21,6,6,40,,56,56,8,8,4,4,0.7,0.6
2025-05-22T2100,2483A,109.9453,27.5444,怀化市,河西地税局,,,34,23,11,14,,,57,57,16,9,2,2,0.1,0.5
2025-05-22T2100,2484A,109.9781,27.5342,怀化市,市四医院,颗粒物(PM10),63,76,45,14,14,42,,63,63,12,11,2,3,1.1,0.8
2025-05-22T2100,2485A,109.9972,27.5578,怀化市,监测楼,,26,26,27,11,17,47,,70,70,8,8,3,3,0.6,0.3
2025-05-22T2100,2486A,110.0394,27.583,怀化市,市委党校,,23,23,22,10,16,38,,64,64,9,12,3,2,0.7,0.6
2025-05-22T2100,1210A,119.036,33.5981,淮安市,钵池山,颗粒物(PM10),56,61,49,32,34,138,,129,129,14,12,6,5,0.6,0.8
2025-05-22T2100,1211A,119.007,33.575,淮安市,北京南路,颗粒物(PM10),60,70,54,36,34,147,,136,135,19,9,8,8,0.6,0.7
2025-05-22T2100,1212A,118.989,33.6067,淮安市,市监测站,细颗粒物(PM2.5),79,63,54,58,36,140,,128,128,9,9,8,8,0.4,0.6
2025-05-22T2100,1213A,119.135,33.5039,淮安市,楚州区监测站,颗粒物(PM10),58,66,61,37,29,124,,118,116,8,9,7,6,0.7,0.8
2025-05-22T2100,3426A,118.8755,33.2894,淮安市,新华书店,,48,48,49,26,29,106,,136,121,14,16,8,8,0.6,0.6
2025-05-22T2100,4206A,119.0288,33.6319,淮安市,承德北路606号,颗粒物(PM10),64,78,66,42,35,137,,128,128,15,10,6,5,0.5,0.5
2025-05-22T2100,2282A,116.8004,33.975,淮北市,监测站,"颗粒物(PM10),细颗粒物(PM2.5)",55,60,64,39,33,148,,158,157,13,9,7,6,0.7,0.8
2025-05-22T2100,2283A,116.8091,33.9007,淮北市,烈山区政府,,,101,65,50,34,,,141,133,10,15,4,6,0.7,0.9
2025-05-22T2100,3330A,116.8873,33.9836,淮北市,杜集区检察院,颗粒物(PM10),71,91,75,41,42,149,,157,156,10,11,9,8,0.7,0.9
2025-05-22T2100,4017A,116.7923,33.9535,淮北市,市博物馆,细颗粒物(PM2.5),55,48,57,39,35,152,,166,164,14,11,6,6,0.6,0.8
2025-05-22T2100,2277A,116.8305,32.7727,淮南市,潘集区政府,颗粒物(PM10),61,72,67,29,34,109,,142,138,8,14,3,3,0.5,0.7
2025-05-22T2100,2279A,116.8569,32.5951,淮南市,谢家集区政府,颗粒物(PM10),63,75,63,24,32,120,,149,145,9,13,5,7,0.1,0.2
2025-05-22T2100,2280A,116.8281,32.633,淮南市,八公山区政府,颗粒物(PM10),69,87,71,26,35,115,,148,143,10,11,4,5,0.4,0.5
2025-05-22T2100,2281A,116.6325,32.6201,淮南市,焦岗湖风景区管理处,,,,,,,,,,,,,,,,
2025-05-22T2100,2894A,117.0566,32.6531,淮南市,经济技术开发区消防队,,,60,50,34,39,110,,135,131,,14,5,6,,0.6
2025-05-22T2100,3329A,117.0108,32.5893,淮南市,山南新区,颗粒物(PM10),70,89,68,40,38,127,,158,154,12,13,9,10,0.4,0.5
2025-05-22T2100,4209A,117.0031,32.6445,淮南市,国庆中路369号,颗粒物(PM10),64,78,40,34,37,110,,143,138,7,10,5,5,0.5,0.5
2025-05-22T2100,2446A,114.9028,30.4742,黄冈市,职工中心,,18,10,25,8,20,56,,66,55,4,7,6,8,0.6,0.6
2025-05-22T2100,2929A,114.8858,30.4519,黄冈市,红卫路,,,,26,,17,,,72,63,2,4,5,7,0.8,0.8
2025-05-22T2100,3398A,114.9136,30.4445,黄冈市,市林业局,,18,15,32,12,22,53,,58,51,6,10,5,8,0.7,0.7
2025-05-22T2100,2672A,102.0199,35.5102,黄南藏族自治州,同仁县隆务镇,,,124,71,50,27,112,,121,121,,3,,3,0.2,0.2
2025-05-22T2100,2295A,118.2903,29.6963,黄山市,延安路89号,,23,6,23,3,13,72,,69,67,5,5,4,4,0.3,0.4
2025-05-22T2100,2297A,118.1371,30.2756,黄山市,黄山区政府5号楼,,25,25,23,3,13,59,,63,56,3,3,3,3,0.2,0.2
2025-05-22T2100,4210A,118.3354,29.7203,黄山市,滨江东路7-2号,,25,11,25,3,9,80,,68,68,3,6,4,4,0.2,0.2
2025-05-22T2100,2423A,115.0601,30.2313,黄石市,沈家营,,16,16,53,3,14,38,,56,56,15,17,6,7,0.7,0.8
2025-05-22T2100,2426A,114.8988,30.2019,黄石市,铁山,,22,22,41,8,16,42,,57,51,12,10,4,5,1.0,0.8
2025-05-22T2100,2427A,115.0307,30.2092,黄石市,团城山,,20,16,50,3,10,61,,67,67,2,9,6,7,0.5,0.6
2025-05-22T2100,3149A,115.0235,30.1578,黄石市,笔架山北路,,17,12,37,3,11,52,,52,52,6,8,6,7,0.7,0.8
2025-05-22T2100,4185A,115.0780,30.21118,黄石市,磁湖东路29号,,31,31,52,10,17,32,,65,62,21,15,7,7,0.6,0.6
2025-05-22T2100,1392A,114.4183,23.0528,惠州市,河南岸金山湖子站,,25,25,25,11,15,27,,87,68,25,16,7,6,0.3,0.2
2025-05-22T2100,1393A,114.4053,23.0822,惠州市,下埔横江三路子站,,24,24,22,12,14,24,,98,75,26,13,5,5,0.3,0.3
2025-05-22T2100,1394A,114.4103,23.1142,惠州市,江北云山西路子站,,24,24,21,10,11,26,,112,87,28,14,7,6,0.4,0.4
2025-05-22T2100,1395A,114.4645,22.7833,惠州市,惠阳区承修路船湖子站,,31,31,20,15,11,33,,80,67,18,10,8,7,0.4,0.4
2025-05-22T2100,1396A,114.5317,22.7422,惠州市,大亚湾管委会子站,,16,16,13,9,8,41,,74,65,14,11,9,8,0.5,0.5
2025-05-22T2100,3314A,114.4338,22.8134,惠州市,惠阳秋长,,22,19,19,15,11,39,,100,80,20,13,12,12,0.4,0.5
2025-05-22T2100,3452A,114.6517,22.775,惠州市,大亚湾霞涌,,15,,15,9,7,47,,64,60,11,8,6,4,0.7,0.7
2025-05-22T2100,2240A,130.9762,45.3001,鸡西市,环保局,,16,14,17,9,8,43,,78,71,32,14,6,6,0.6,0.4
2025-05-22T2100,2243A,130.9429,45.3039,鸡西市,第一中学,,20,19,15,14,7,56,,77,74,14,10,7,7,0.3,0.2
2025-05-22T2100,3707A,131.0207,45.3073,鸡西市,欧美日汽修厂,,16,16,19,11,10,36,,78,70,29,13,4,5,0.4,0.3
2025-05-22T2100,3709A,130.9967,45.3106,鸡西市,市政设施管理处,,,17,21,16,9,30,,74,66,,2,4,5,0.6,0.4
2025-05-22T2100,2367A,114.9754,27.0803,吉安市,红声器材厂,,23,20,30,16,15,56,,68,66,3,8,9,11,0.4,0.5
2025-05-22T2100,2368A,114.9658,27.0999,吉安市,市森林工业局,,23,22,29,16,17,58,,69,67,2,7,8,8,0.5,0.4
2025-05-22T2100,2369A,114.99,27.1312,吉安市,市环境监测站,,22,22,27,11,12,58,,70,69,2,5,10,11,0.5,0.6
2025-05-22T2100,2370A,115.0093,27.0968,吉安市,青原区法院,,24,24,26,13,16,58,,66,66,4,6,13,12,0.1,0.3
2025-05-22T2100,1772A,126.54,43.8622,吉林市,哈达湾,,44,44,38,27,25,40,,68,64,32,24,6,9,0.5,0.4
2025-05-22T2100,1773A,126.5844,43.8358,吉林市,东局子,,34,34,41,19,25,32,,71,64,37,28,5,6,0.7,0.7
2025-05-22T2100,1774A,126.5052,43.8245,吉林市,电力学院,细颗粒物(PM2.5),102,93,42,76,32,10,,74,62,42,24,5,8,0.7,0.4
2025-05-22T2100,1775A,126.6133,43.8972,吉林市,江北,,,32,42,20,24,41,,83,70,21,22,,8,,0.5
2025-05-22T2100,1776A,126.555,43.8306,吉林市,江南公园,,45,45,38,30,27,42,,71,67,21,24,5,6,0.5,0.5
2025-05-22T2100,1778A,126.7061,43.7133,吉林市,丰满,,,,,,,,,,,,,,,,
2025-05-22T2100,2868A,126.4739,43.953,吉林市,九站,,24,24,38,16,28,47,,73,69,32,30,4,8,0.3,0.4
2025-05-22T2100,1299A,116.9862,36.6114,济南市,科干所,细颗粒物(PM2.5),74,80,70,54,37,113,,146,136,16,18,5,6,0.3,0.4
2025-05-22T2100,1300A,116.9376,36.665,济南市,农科所,细颗粒物(PM2.5),74,90,89,54,38,93,,139,127,28,24,11,10,0.4,0.4
2025-05-22T2100,1301A,117.1265,36.6734,济南市,开发区,细颗粒物(PM2.5),74,83,84,54,43,106,,140,129,12,16,8,10,0.7,0.7
2025-05-22T2100,1303A,117.0624,36.6868,济南市,省种子仓库,颗粒物(PM10),79,107,104,53,50,105,,149,133,21,21,7,8,0.5,0.5
2025-05-22T2100,1304A,116.9489,36.6447,济南市,机床二厂,颗粒物(PM10),77,103,103,54,43,96,,137,125,26,27,11,11,0.6,0.6
2025-05-22T2100,1305A,117.0495,36.663,济南市,市监测站,细颗粒物(PM2.5),70,88,88,51,42,103,,136,125,19,24,9,11,0.6,0.7
2025-05-22T2100,1306A,116.7675,36.5484,济南市,长清党校,细颗粒物(PM2.5),74,93,82,54,38,113,,146,136,18,18,8,7,0.6,0.5
2025-05-22T2100,1616A,117.6795,36.229,济南市,技术学院,细颗粒物(PM2.5),73,78,65,53,31,126,,142,139,15,19,11,12,0.5,0.5
2025-05-22T2100,1961A,117.532,36.6868,济南市,东山小学,颗粒物(PM10),70,90,104,49,42,98,,145,132,17,25,5,6,0.4,0.5
2025-05-22T2100,3059A,117.7161,36.2049,济南市,泰兴公司,细颗粒物(PM2.5),83,75,64,61,36,127,,144,141,9,12,6,7,0.2,0.4
2025-05-22T2100,3064A,117.6867,36.2171,济南市,莱芜战役纪念馆,,,83,69,,25,136,,152,149,15,18,6,7,1.2,1.3
2025-05-22T2100,3494A,117.1673,36.9782,济南市,济阳区政府,细颗粒物(PM2.5),85,90,85,63,44,103,,142,129,15,13,10,10,0.6,0.5
2025-05-22T2100,3495A,117.1171,36.63,济南市,锦屏中学,细颗粒物(PM2.5),74,83,71,54,38,114,,150,140,13,15,10,12,0.5,0.5
2025-05-22T2100,3682A,116.9814,36.6819,济南市,济南四建,细颗粒物(PM2.5),83,90,92,61,48,97,,134,126,24,22,9,8,0.6,0.5
2025-05-22T2100,1653A,116.6251,35.4302,济宁市,火炬城,"颗粒物(PM10),细颗粒物(PM2.5)",67,84,66,48,40,71,,168,153,22,10,7,7,0.8,0.7
2025-05-22T2100,1655A,116.5491,35.4042,济宁市,电化厂,颗粒物(PM10),70,90,78,48,34,83,,154,139,20,9,5,4,0.9,0.9
2025-05-22T2100,3500A,116.5814,35.3707,济宁市,北湖一中,,,82,67,,46,,,163,161,23,11,8,5,0.8,0.6
2025-05-22T2100,3501A,116.8249,35.5593,济宁市,服务中心,颗粒物(PM10),54,57,66,34,29,130,,160,151,21,14,2,2,0.4,0.6
2025-05-22T2100,3678A,116.5907,35.4054,济宁市,市第七中学,细颗粒物(PM2.5),73,84,62,53,36,84,,158,146,22,10,9,8,0.8,0.6
2025-05-22T2100,2255A,130.2751,46.8028,佳木斯市,佳纺,,,13,15,9,10,,,79,78,8,13,,2,0.3,0.3
2025-05-22T2100,2256A,130.3995,46.8307,佳木斯市,发电厂,,22,15,22,8,8,68,,82,80,8,8,4,4,0.2,0.2
2025-05-22T2100,2257A,130.3258,46.7975,佳木斯市,环保局,,20,19,23,8,9,64,,78,75,10,15,5,5,0.3,0.3
2025-05-22T2100,2258A,130.3648,46.8032,佳木斯市,十一中,,26,26,19,9,9,66,,81,77,12,14,2,3,0.4,0.3
2025-05-22T2100,2259A,130.3794,46.7588,佳木斯市,四丰,,,,25,11,9,,,,,5,11,1,1,0.3,0.3
2025-05-22T2100,1252A,120.7436,30.778,嘉兴市,清河小学,,44,44,34,25,18,94,,157,129,17,24,6,7,0.7,0.8
2025-05-22T2100,1253A,120.726,30.7478,嘉兴市,嘉兴学院,,,,33,,22,88,,151,124,26,18,,6,0.6,0.5
2025-05-22T2100,2872A,120.7846,30.7525,嘉兴市,南湖区残联,,44,44,39,27,20,99,,163,133,20,20,6,6,0.5,0.6
2025-05-22T2100,3407A,120.6916,30.7739,嘉兴市,秀洲住建,颗粒物(PM10),55,60,46,22,18,103,,174,143,14,21,7,7,0.7,0.7
2025-05-22T2100,1945A,98.2908,39.7711,嘉峪关市,气象局,颗粒物(PM10),145,239,116,44,23,119,,123,123,11,12,16,16,0.3,0.2
2025-05-22T2100,2884A,98.2672,39.7978,嘉峪关市,酒钢宾馆,颗粒物(PM10),101,151,140,36,38,122,,120,120,6,10,32,26,0.7,0.6
2025-05-22T2100,3248A,98.2643,39.7724,嘉峪关市,雄关区,颗粒物(PM10),183,316,72,64,22,,,120,120,15,16,14,15,,0.4
2025-05-22T2100,1383A,113.1064,22.6058,江门市,北街,,13,13,18,3,9,29,,50,40,7,7,3,3,0.3,0.3
2025-05-22T2100,1384A,113.0731,22.5835,江门市,西区,,31,31,20,12,12,30,,53,42,10,10,7,7,0.3,0.3
2025-05-22T2100,1385A,113.0219,22.5311,江门市,圭峰西,,26,22,24,18,11,27,,50,39,12,8,4,4,0.5,0.4
2025-05-22T2100,1386A,113.0828,22.5947,江门市,东湖,,25,25,20,13,11,30,,50,40,11,10,7,7,0.6,0.5
2025-05-22T2100,3311A,113.1075,22.5647,江门市,江海富民,,26,26,25,6,12,31,,55,43,8,8,8,7,0.3,0.3
2025-05-22T2100,3449A,113.05,22.4667,江门市,新会银湖,,26,21,22,18,13,31,,45,36,5,8,2,2,0.3,0.3
2025-05-22T2100,1830A,113.1992,35.2590,焦作市,影视城,,,,,,,,,,,,,,,,
2025-05-22T2100,3169A,113.2725,35.2067,焦作市,太极体育中心,,,,103,56,46,,,118,,,16,3,5,0.3,0.4
2025-05-22T2100,3335A,113.3137,35.2641,焦作市,马村街道办,细颗粒物(PM2.5),63,51,86,45,40,72,,120,74,20,14,8,11,0.8,0.9
2025-05-22T2100,3336A,113.2465,35.2373,焦作市,焦作技师学院,细颗粒物(PM2.5),58,48,81,41,38,64,,110,67,14,12,5,6,1.1,1.2
2025-05-22T2100,3477A,113.1656,35.2539,焦作市,中站许衡医院,细颗粒物(PM2.5),58,52,80,41,47,58,,103,62,23,21,5,7,0.7,0.9
2025-05-22T2100,3981A,113.2449,35.1803,焦作市,原李万街道办,细颗粒物(PM2.5),64,,83,46,34,71,,114,71,18,14,9,12,0.5,0.4
2025-05-22T2100,4264A,113.2340,35.2190,焦作市,新安路1731号,细颗粒物(PM2.5),67,59,92,48,45,67,,107,66,15,12,4,7,0.5,0.6
2025-05-22T2100,1708A,116.3701,23.5345,揭阳市,新兴,,,,30,22,16,,,66,65,14,6,5,7,0.5,0.4
2025-05-22T2100,1709A,116.3264,23.5443,揭阳市,西马,,36,36,28,20,16,32,,58,52,20,11,7,7,0.6,0.5
2025-05-22T2100,1710A,116.3611,23.5626,揭阳市,东兴,,28,,27,19,13,48,,70,66,5,5,4,3,0.6,0.6
2025-05-22T2100,1711A,116.4151,23.5294,揭阳市,渔湖,,,,30,17,16,43,,72,68,14,13,3,4,0.5,0.5
2025-05-22T2100,3320A,116.403,23.5699,揭阳市,曲溪,,44,44,24,19,13,48,,76,71,13,7,8,5,0.5,0.4
2025-05-22T2100,1944A,102.1692,38.5167,金昌市,天庆家园,颗粒物(PM10),70,90,94,14,32,118,,125,125,6,6,7,8,0.6,0.7
2025-05-22T2100,4022A,102.1647,38.5371,金昌市,金川区人防中心,颗粒物(PM10),90,130,113,16,31,113,,127,126,8,6,6,7,0.7,0.5
2025-05-22T2100,4239A,102.1930,38.5319,金昌市,长春路96号,颗粒物(PM10),76,101,96,18,35,114,,125,124,2,5,7,10,0.6,0.6
2025-05-22T2100,1262A,119.647,29.077,金华市,十五中,,25,25,31,7,15,59,,115,94,18,13,3,2,0.5,0.5
2025-05-22T2100,1263A,119.686,29.1029,金华市,监测站,,29,29,28,18,18,51,,132,103,25,16,2,2,0.5,0.5
2025-05-22T2100,3659A,119.656,29.1131,金华市,气象局,,22,22,30,12,14,43,,114,87,26,17,2,2,0.5,0.5
2025-05-22T2100,1767A,121.1115,41.0879,锦州市,南山,,45,45,65,20,38,53,,78,73,30,18,6,7,0.5,0.6
2025-05-22T2100,1768A,121.0604,40.8428,锦州市,开发区,颗粒物(PM10),56,62,81,17,40,53,,83,64,32,29,18,17,0.5,0.7
2025-05-22T2100,1769A,121.1836,41.1119,锦州市,百股街道,,45,45,79,19,39,51,,79,73,26,18,9,11,0.5,0.6
2025-05-22T2100,1770A,121.1178,41.1222,锦州市,天安街道,,43,43,83,22,42,60,,76,73,20,21,4,7,0.5,0.6
2025-05-22T2100,1771A,121.1303,41.1386,锦州市,北湖公园,,49,49,71,23,37,63,,80,77,16,13,5,7,0.5,0.6
2025-05-22T2100,2160A,112.85,35.5051,晋城市,自来水公司,细颗粒物(PM2.5),62,,77,44,39,92,,127,88,12,14,4,6,0.4,0.7
2025-05-22T2100,2161A,112.8318,35.4936,晋城市,白云商贸,颗粒物(PM10),59,67,69,39,31,86,,114,84,15,16,7,8,0.7,0.9
2025-05-22T2100,2162A,112.8508,35.4887,晋城市,市环保局,细颗粒物(PM2.5),62,69,80,44,39,82,,96,77,16,17,5,6,0.8,1
2025-05-22T2100,2163A,112.8676,35.4897,晋城市,技术学院,颗粒物(PM10),66,82,68,39,32,87,,116,86,16,16,7,7,1.1,1.1
2025-05-22T2100,2165A,112.8453,35.546,晋城市,白马寺,细颗粒物(PM2.5),58,53,53,41,41,98,,134,99,11,10,4,4,0.6,0.8
2025-05-22T2100,3620A,112.8271,35.4828,晋城市,泽州一中,细颗粒物(PM2.5),62,,58,44,38,92,,123,90,18,17,9,10,0.6,0.8
2025-05-22T2100,2173A,112.7249,37.7067,晋中市,南都小区,,,77,84,68,44,,,137,100,17,10,4,6,0.5,0.5
2025-05-22T2100,2174A,112.6991,37.6982,晋中市,榆次区政府,细颗粒物(PM2.5),67,78,79,48,37,88,,130,96,18,10,6,7,0.5,0.4
2025-05-22T2100,2865A,112.7195,37.6828,晋中市,榆次三中,细颗粒物(PM2.5),77,73,80,56,41,91,,136,100,15,8,3,4,0.7,0.6
2025-05-22T2100,4200A,112.7478,37.6954,晋中市,迎宾街26号,细颗粒物(PM2.5),85,70,82,63,47,85,,154,94,17,9,3,4,0.6,0.5
2025-05-22T2100,2439A,112.2014,31.0481,荆门市,竹园小学,,,,30,,22,,,104,104,11,12,6,5,0.8,0.4
2025-05-22T2100,2440A,112.1969,30.9891,荆门市,掇刀,颗粒物(PM10),56,62,28,32,26,124,,103,103,10,10,5,6,0.6,0.5
2025-05-22T2100,2441A,112.2213,31.0386,荆门市,石化一小,,,62,38,,34,114,,96,96,13,13,7,6,1.0,0.8
2025-05-22T2100,3012A,112.1849,31.0362,荆门市,西山林语,细颗粒物(PM2.5),58,46,29,41,23,117,,101,101,8,7,8,9,0.4,0.4
2025-05-22T2100,3547A,112.1632,31.0138,荆门市,龙泉中学南校,颗粒物(PM10),60,69,27,36,17,113,,99,99,8,7,4,5,0.8,0.7
2025-05-22T2100,1844A,112.2494,30.3197,荆州市,市图书馆,,32,26,16,3,14,100,,80,80,13,11,2,3,0.5,0.4
2025-05-22T2100,1845A,112.2008,30.3544,荆州市,市委党校,,26,26,17,3,14,80,,73,73,12,14,5,5,0.7,0.5
2025-05-22T2100,3194A,112.2747,30.3122,荆州市,管委会,,31,29,17,8,14,98,,76,76,13,10,7,9,0.7,0.6
2025-05-22T2100,4268A,112.1722,30.3366,荆州市,学苑路85号,,32,32,20,22,15,84,,71,71,15,12,2,3,0.8,0.7
2025-05-22T2100,2342A,117.3102,29.3867,景德镇市,王港中学,,,,,,,,,,,,,,,,
2025-05-22T2100,2343A,117.2117,29.2933,景德镇市,老干部活动中心,,,19,23,9,9,42,,67,62,10,10,7,7,,0.4
2025-05-22T2100,2344A,117.1894,29.2789,景德镇市,兽医站,,24,24,30,9,14,45,,62,57,12,9,5,5,0.4,0.4
2025-05-22T2100,2345A,117.1547,29.2617,景德镇市,台达陶瓷,,18,18,30,9,17,44,,53,52,12,19,42,25,0.4,0.4
2025-05-22T2100,2346A,117.2461,29.2956,景德镇市,陶研所,,15,14,27,3,14,46,,56,51,5,11,1,3,0.0,0.2
2025-05-22T2100,1803A,115.9872,29.6815,九江市,十里,,20,18,17,14,15,44,,54,52,11,10,2,4,0.5,0.6
2025-05-22T2100,1804A,115.9584,29.7046,九江市,茅山头,,19,,19,12,13,58,,65,64,9,12,3,4,0.2,0.4
2025-05-22T2100,1805A,115.9877,29.7295,九江市,西园,,31,,14,8,10,22,,67,52,62,28,4,5,0.7,0.7
2025-05-22T2100,1808A,115.9114,29.6038,九江市,综合工业园,,21,21,24,3,11,65,,59,54,29,25,4,6,0.7,0.8
2025-05-22T2100,1809A,116.0721,29.7535,九江市,石化总厂,,24,20,24,9,21,10,,61,51,48,11,6,8,1.0,0.6
2025-05-22T2100,1810A,115.9773,29.5698,九江市,庐山气象台,,31,6,16,3,9,97,,74,74,3,4,17,9,0.7,0.6
2025-05-22T2100,3190A,116.0254,29.6994,九江市,外国语学校,,15,14,18,10,13,36,,54,50,24,11,8,9,0.7,0.6
2025-05-22T2100,4253A,116.0102,29.6594,九江市,莲花大道8号,,15,,10,10,10,41,,48,47,15,8,4,4,0.6,0.5
2025-05-22T2100,4240A,98.4958,39.7339,酒泉市,玉门东路5号,颗粒物(PM10),76,102,78,35,32,112,,115,114,4,8,6,8,0.1,0.2
2025-05-22T2100,4241A,98.5099,39.7506,酒泉市,北大街108号,,,90,64,23,20,125,,132,131,,11,9,12,0.0,0.2
2025-05-22T2100,2698A,76.0072,39.4467,喀什地区,巡警大队,颗粒物(PM10),488,588,594,138,143,,,108,108,12,32,4,5,0.3,0.4
2025-05-22T2100,2699A,75.9755,39.4694,喀什地区,吾办,颗粒物(PM10),500,628,594,191,191,101,,100,100,20,33,17,15,0,0.4
2025-05-22T2100,4027A,75.9483,39.4689,喀什地区,老干局,颗粒物(PM10),474,574,554,143,139,87,,97,97,8,29,6,5,0.3,0.5
2025-05-22T2100,1824A,114.3389,34.7781,开封市,肿瘤医院,细颗粒物(PM2.5),69,56,114,50,38,101,,112,108,8,8,6,8,0.7,0.6
2025-05-22T2100,1826A,114.2885,34.7965,开封市,世纪星幼儿园,细颗粒物(PM2.5),67,,109,48,34,109,,125,120,12,14,6,8,0.8,0.7
2025-05-22T2100,3147A,114.3438,34.8106,开封市,龙亭公园,细颗粒物(PM2.5),65,51,100,47,34,105,,116,112,11,11,1,2,0.8,0.7
2025-05-22T2100,3210A,114.3644,34.7964,开封市,汴京公园,细颗粒物(PM2.5),75,,115,55,41,96,,108,103,9,11,5,6,0.6,0.5
2025-05-22T2100,3473A,114.2485,34.8306,开封市,技师学院,细颗粒物(PM2.5),93,,110,69,53,106,,120,116,6,8,5,6,0.9,0.8
2025-05-22T2100,3592A,114.4644,34.7556,开封市,祥符区生态环境局,颗粒物(PM10),64,78,106,45,33,103,,110,108,12,15,6,8,0.9,0.8
2025-05-22T2100,1951A,84.895,45.6094,克拉玛依市,长征新村,,33,8,11,3,5,104,,111,110,8,12,5,6,0.4,0.3
2025-05-22T2100,1952A,84.8988,45.5893,克拉玛依市,南林小区,,30,17,20,3,11,94,,115,113,11,20,5,6,0.3,0.4
2025-05-22T2100,1954A,84.905,44.3396,克拉玛依市,独山子区,,44,18,15,8,8,138,,133,133,9,7,7,6,0.3,0.3
2025-05-22T2100,1955A,85.6979,46.098,克拉玛依市,乌尔禾区商贸楼,,,7,17,3,5,,,117,117,7,10,,9,0.4,0.6
2025-05-22T2100,3612A,85.1045,45.6899,克拉玛依市,白碱滩区新站,,37,26,35,14,17,118,,121,121,3,8,12,12,0.2,0.3
2025-05-22T2100,2697A,76.1454,39.7142,克孜勒苏柯尔克孜自治州,市人民政府,颗粒物(PM10),493,593,514,190,162,112,,115,114,4,12,2,16,0.4,0.4
2025-05-22T2100,3665A,76.1658,39.7157,克孜勒苏柯尔克孜自治州,克州文化中心,颗粒物(PM10),446,546,564,183,183,112,,112,112,7,13,4,11,0.4,0.4
2025-05-22T2100,1450A,102.8204,24.8886,昆明市,呈贡新区,,37,37,37,19,20,99,,132,123,9,12,8,7,0.4,0.5
2025-05-22T2100,1451A,102.6251,24.9608,昆明市,西山森林公园,,,,,,,,,,,,,,,,
2025-05-22T2100,1452A,102.7252,25.0902,昆明市,龙泉镇,,,,30,13,16,,,132,130,9,17,2,3,0.3,0.3
2025-05-22T2100,1453A,102.7266,25.0375,昆明市,东风东路,,35,35,32,19,19,102,,139,132,14,15,6,9,0.3,0.4
2025-05-22T2100,1454A,102.6742,25.0669,昆明市,金鼎山,,30,22,34,9,15,94,,127,122,9,16,2,4,0.3,0.3
2025-05-22T2100,1455A,102.6644,25.0401,昆明市,碧鸡广场,,33,33,37,21,17,97,,128,122,10,19,6,8,0.4,0.4
2025-05-22T2100,3179A,102.7494,25.0119,昆明市,官渡区博物馆,颗粒物(PM10),54,58,34,16,17,91,,138,127,19,12,6,9,0.4,0.5
2025-05-22T2100,3375A,102.8017,24.8336,昆明市,青年创业园,,39,35,29,27,19,107,,139,133,11,12,10,10,0.3,0.3
2025-05-22T2100,3550A,102.7997,24.9786,昆明市,昆明学院,,35,35,32,19,19,99,,135,126,11,12,4,6,0.2,0.3
2025-05-22T2100,3551A,102.5967,24.6736,昆明市,晋宁区生态环境分局,,34,34,27,17,15,101,,122,118,12,9,7,6,0.5,0.5
2025-05-22T2100,3552A,102.6678,24.9856,昆明市,云天化总部,,31,31,27,13,16,96,,129,122,14,12,2,6,0.1,0.3
2025-05-22T2100,1456A,91.1319,29.6514,拉萨市,八廓街,,40,22,25,10,14,126,,133,133,16,12,6,6,0.3,0.3
2025-05-22T2100,1457A,91.1221,29.6747,拉萨市,市环保局,,35,13,29,8,15,110,,126,126,13,13,4,4,0.3,0.2
2025-05-22T2100,1458A,91.0874,29.6475,拉萨市,区监测站,,37,18,24,9,13,116,,127,127,25,16,6,6,0.2,0.2
2025-05-22T2100,1459A,91.1774,29.6541,拉萨市,西藏大学,,38,17,24,10,14,121,,127,127,17,12,7,6,0.3,0.3
2025-05-22T2100,1460A,90.9798,29.6588,拉萨市,区辐射站,,30,25,27,10,16,93,,118,116,31,18,7,6,0.4,0.3
2025-05-22T2100,1461A,91.0834,29.6292,拉萨市,拉萨火车站,,37,18,23,11,14,116,,128,128,19,10,3,3,0.1,0.1
2025-05-22T2100,2520A,109.2203,23.7256,来宾市,来宾技工学校,,23,17,28,14,15,71,,88,87,11,12,7,8,0.7,0.6
2025-05-22T2100,3535A,109.1781,23.7297,来宾市,兴宾区政府,,24,24,23,14,13,59,,78,77,17,12,5,4,0.7,0.6
2025-05-22T2100,4002A,109.2416,23.7461,来宾市,中南小学,,24,23,31,3,13,74,,88,87,8,11,2,3,0.5,0.6
2025-05-22T2100,1477A,104.1373,35.9454,兰州市,榆中兰大校区,,,,,,,,,,,,,,,,
2025-05-22T2100,1479A,103.831,36.0464,兰州市,铁路设计院,颗粒物(PM10),53,55,62,35,32,72,,127,114,51,24,8,10,0.5,0.5
2025-05-22T2100,3241A,103.7439,36.0842,兰州市,百合公园,颗粒物(PM10),58,65,59,30,24,58,,130,109,34,14,5,5,0.3,0.3
2025-05-22T2100,3242A,103.9611,35.998,兰州市,和平,颗粒物(PM10),52,54,73,25,29,91,,121,116,16,9,6,8,0.3,0.5
2025-05-22T2100,4236A,103.6293,36.0938,兰州市,庄浪东路808号,颗粒物(PM10),56,61,72,30,33,61,,156,110,40,24,8,11,0.3,0.3
2025-05-22T2100,4237A,103.7251,36.1043,兰州市,安宁西路88号,颗粒物(PM10),58,66,72,36,39,77,,143,124,28,12,4,6,0.2,0.2
2025-05-22T2100,4238A,103.8470,36.0676,兰州市,北滨河东路1号,颗粒物(PM10),59,68,63,35,28,63,,129,114,44,21,7,9,0.6,0.6
2025-05-22T2100,3245A,103.6633,36.533,兰州新区,新区管委会,颗粒物(PM10),55,60,51,28,27,116,,123,122,7,7,3,3,0.2,0.3
2025-05-22T2100,3246A,103.6975,36.4789,兰州新区,舟曲中学,颗粒物(PM10),56,62,48,20,21,122,,128,127,13,11,5,8,0.2,0.2
2025-05-22T2100,1067A,116.6708,39.5111,廊坊市,药材公司,细颗粒物(PM2.5),67,,70,48,42,74,,93,89,15,24,3,4,0.4,0.5
2025-05-22T2100,1068A,116.7214,39.5589,廊坊市,开发区,细颗粒物(PM2.5),57,45,72,40,40,69,,91,87,17,29,1,4,0.4,0.5
2025-05-22T2100,1070A,116.7244,39.5269,廊坊市,北华航天学院,细颗粒物(PM2.5),58,49,79,41,41,72,,92,88,14,32,2,6,0.3,0.4
2025-05-22T2100,2919A,116.7022,39.5453,廊坊市,河北工业大学,颗粒物(PM10),61,72,89,42,42,73,,90,86,13,30,2,6,0.4,0.5
2025-05-22T2100,2535A,103.7723,29.5462,乐山市,花湖湾,,39,38,45,27,29,98,,147,143,30,10,5,4,0.6,0.6
2025-05-22T2100,2536A,103.7627,29.5844,乐山市,牛耳桥,,43,43,44,23,32,101,,141,136,21,13,7,7,0.8,0.8
2025-05-22T2100,2537A,103.7508,29.6006,乐山市,市第三水厂,,38,38,46,23,33,113,,152,147,29,21,6,5,0.8,0.9
2025-05-22T2100,2538A,103.7571,29.5664,乐山市,市监测站,,,42,47,27,33,98,,135,131,,13,7,6,0.9,1.1
2025-05-22T2100,3361A,103.7311,29.5628,乐山市,理工大学,,42,40,41,29,33,44,,143,129,62,14,6,5,0.9,1
2025-05-22T2100,2598A,100.2143,26.8576,丽江市,西南郊,,35,24,19,14,9,110,,116,115,3,3,6,5,0.9,0.9
2025-05-22T2100,2599A,100.2497,26.8802,丽江市,丽江古城,,,37,19,20,14,,,106,105,18,11,10,9,0.6,0.5
2025-05-22T2100,2600A,100.2203,26.8906,丽江市,市中心,,26,15,14,14,10,83,,106,102,21,12,9,8,0.7,0.7
2025-05-22T2100,1267A,119.914,28.4514,丽水市,监测站大楼,,22,19,25,15,10,57,,68,62,14,16,2,2,0.7,0.7
2025-05-22T2100,1268A,119.93,28.4586,丽水市,莲都小学,,25,25,32,11,9,62,,75,64,14,15,3,3,0.5,0.5
2025-05-22T2100,1269A,119.879,28.4231,丽水市,余庄前,,,29,29,12,14,,,68,43,8,11,,3,0.6,0.6
2025-05-22T2100,1173A,119.176,34.5885,连云港市,市环境监测站,颗粒物(PM10),51,51,58,34,41,146,,161,161,11,14,5,6,0.4,0.4
2025-05-22T2100,3000A,119.3581,34.6972,连云港市,德源药业,,49,46,58,34,37,141,,155,155,11,15,8,8,0.7,0.6
2025-05-22T2100,3007A,119.178,34.844,连云港市,新城一中,,,43,40,34,30,,,164,164,20,13,7,7,0.5,0.7
2025-05-22T2100,3008A,119.3608,34.7519,连云港市,胡沟管理处,颗粒物(PM10),56,61,44,31,28,124,,140,136,36,26,9,10,0.6,0.7
2025-05-22T2100,3009A,119.1478,34.5911,连云港市,矿山设计院,细颗粒物(PM2.5),52,48,69,36,34,144,,158,158,7,17,4,4,0.6,0.6
2025-05-22T2100,3434A,119.2413,34.6539,连云港市,工贸学校,细颗粒物(PM2.5),65,75,54,47,39,157,,161,161,11,14,7,8,0.5,0.7
2025-05-22T2100,3664A,119.4172,34.7341,连云港市,连云街道,颗粒物(PM10),53,55,61,31,29,156,,169,169,11,23,6,8,0.3,0.5
2025-05-22T2100,2571A,102.3431,27.8099,凉山彝族自治州,青龙寺,,32,20,29,7,9,100,,110,109,2,9,5,5,0.5,0.5
2025-05-22T2100,2572A,102.2721,27.8415,凉山彝族自治州,邛海宾馆,,29,28,30,12,18,92,,99,99,4,25,7,7,0.5,0.7
2025-05-22T2100,2573A,102.2625,27.898,凉山彝族自治州,西昌市政府,,,35,44,17,33,90,,104,102,,,8,17,0.9,1.1
2025-05-22T2100,2574A,102.2685,27.8851,凉山彝族自治州,凉山州政府,,28,26,28,13,16,88,,103,101,7,15,6,7,0.7,0.8
2025-05-22T2100,4229A,102.2342,27.8859,凉山彝族自治州,凯乐南路30号,,35,35,38,9,18,89,,96,94,6,26,7,7,0.3,0.5
2025-05-22T2100,2212A,123.2,41.1953,辽阳市,宏伟区,,46,32,73,32,47,96,,142,134,21,24,9,21,0.5,0.6
2025-05-22T2100,2213A,123.1683,41.2495,辽阳市,新华园,细颗粒物(PM2.5),59,47,96,42,69,100,,146,138,18,25,8,18,0.5,0.6
2025-05-22T2100,2214A,123.2354,41.2639,辽阳市,滨河路,细颗粒物(PM2.5),53,40,91,37,71,74,,128,118,27,29,7,21,0.4,0.5
2025-05-22T2100,2215A,123.149,41.2991,辽阳市,铁西工业园,细颗粒物(PM2.5),58,,84,41,59,78,,119,111,20,29,5,6,0.4,0.5
2025-05-22T2100,2227A,125.1358,42.8845,辽源市,环保局,,42,42,56,24,29,48,,104,93,29,27,4,3,0.6,0.5
2025-05-22T2100,3239A,125.0764,42.9078,辽源市,银鹰制药,,35,32,45,24,31,36,,105,91,41,28,4,4,0.5,0.4
2025-05-22T2100,1625A,115.9848,36.4372,聊城市,区政府,细颗粒物(PM2.5),80,62,74,59,42,103,,108,107,12,19,5,10,0.8,0.8
2025-05-22T2100,2878A,116.0072,36.4343,聊城市,聊大东校,细颗粒物(PM2.5),93,80,83,69,52,105,,109,108,9,16,7,10,0.4,0.4
2025-05-22T2100,3200A,115.9819,36.4978,聊城市,监控中心,细颗粒物(PM2.5),79,66,75,58,41,95,,106,105,12,14,7,9,0.7,0.7
2025-05-22T2100,3513A,116.0445,36.4361,聊城市,九州社区,细颗粒物(PM2.5),77,68,77,56,45,106,,107,107,6,12,5,9,0.5,0.5
2025-05-22T2100,4018A,116.0567,36.4608,聊城市,星美广场,细颗粒物(PM2.5),77,84,81,56,41,102,,101,100,7,15,9,9,0.6,0.7
2025-05-22T2100,2632A,94.3681,29.6376,林芝市,林芝监测站,,,,9,10,8,59,,79,79,10,8,,6,0.4,0.3
2025-05-22T2100,2633A,94.3616,29.6616,林芝市,林芝人民医院,,23,23,17,12,9,62,,82,82,10,5,6,6,0.3,0.2
2025-05-22T2100,2603A,100.0781,23.8982,临沧市,市环保局,,45,45,29,23,21,72,,96,92,9,8,15,7,0.3,0.4
2025-05-22T2100,2604A,100.0894,23.8822,临沧市,市气象局,,33,33,28,22,18,92,,104,102,10,10,10,9,0.6,0.6
2025-05-22T2100,1733A,111.5531,36.0783,临汾市,临钢医院,细颗粒物(PM2.5),55,52,81,39,34,74,,119,85,19,17,5,6,0.8,0.8
2025-05-22T2100,1734A,111.5028,36.0714,临汾市,技工学校,细颗粒物(PM2.5),68,,68,49,47,79,,127,90,18,10,4,5,0.7,0.8
2025-05-22T2100,1736A,111.5018,36.0855,临汾市,市委,颗粒物(PM10),60,69,83,42,33,81,,132,89,18,13,4,5,1.0,1
2025-05-22T2100,3018A,111.505,36.1014,临汾市,唐尧大酒店,颗粒物(PM10),62,74,78,41,35,77,,125,84,16,13,4,5,0.8,0.9
2025-05-22T2100,4244A,111.4879,36.0530,临汾市,启星学校,细颗粒物(PM2.5),64,49,70,46,46,78,,128,84,15,11,2,3,0.9,0.9
2025-05-22T2100,4271A,103.2464,35.6123,临夏回族自治州,滨河东路1号,,,79,51,16,24,91,,106,106,,11,2,5,0.1,0.2
2025-05-22T2100,4310A,103.2093,35.5995,临夏回族自治州,新华街21号,颗粒物(PM10),59,67,48,32,25,106,,116,116,10,9,3,4,0.1,0.2
2025-05-22T2100,1618A,118.3429,35.0532,临沂市,沂河小区,细颗粒物(PM2.5),78,78,87,57,45,131,,150,147,18,15,12,8,0.6,0.6
2025-05-22T2100,1619A,118.295,35.0583,临沂市,鲁南制药厂,,,78,87,46,39,130,,162,155,,19,12,8,1.0,0.8
2025-05-22T2100,1620A,118.2794,34.9976,临沂市,新光毛纺厂,细颗粒物(PM2.5),55,58,73,39,37,141,,148,147,20,19,7,9,0.4,0.5
2025-05-22T2100,1621A,118.3956,35.0888,临沂市,河东保险公司,细颗粒物(PM2.5),74,78,75,54,36,127,,157,152,24,15,11,8,1.0,0.7
2025-05-22T2100,3370A,118.3564,35.0215,临沂市,十里堡居委,细颗粒物(PM2.5),67,63,78,48,41,148,,168,164,23,18,8,6,0.6,0.7
2025-05-22T2100,3496A,118.3604,35.1084,临沂市,南坊新区,颗粒物(PM10),79,107,84,51,39,122,,154,148,27,18,13,9,0.6,0.5
2025-05-22T2100,3860A,118.3920,35.0300,临沂市,皇山花园小区,,,70,84,50,40,136,,157,153,29,21,,9,0.6,0.8
2025-05-22T2100,1870A,109.4856,24.3895,柳州市,柳东小学,,27,22,23,14,14,84,,92,91,11,8,9,10,0.5,0.4
2025-05-22T2100,1871A,109.4157,24.3277,柳州市,环保监测站,,32,32,26,10,15,81,,90,89,12,12,4,4,0.4,0.4
2025-05-22T2100,1872A,109.389,24.341,柳州市,河西水厂,,45,32,27,31,14,76,,89,87,14,11,4,4,0.6,0.5
2025-05-22T2100,1873A,109.4311,24.2921,柳州市,市四中,,26,26,28,15,16,73,,89,87,19,16,8,8,0.4,0.3
2025-05-22T2100,1874A,109.4006,24.3631,柳州市,市九中,,,,27,,14,,,85,85,14,10,10,9,0.5,0.6
2025-05-22T2100,1875A,109.4958,24.3134,柳州市,古亭山,,26,24,25,15,13,81,,86,86,10,8,5,5,0.5,0.5
2025-05-22T2100,3402A,109.5422,24.3996,柳州市,市二中,,22,15,22,14,13,70,,89,85,16,11,11,11,0.7,0.5
2025-05-22T2100,2307A,116.5079,31.737,六安市,监测大楼,,25,16,37,14,24,78,,101,100,3,9,3,3,0.4,0.4
2025-05-22T2100,2308A,116.4738,31.7643,六安市,皖西学院,,32,23,43,12,22,102,,132,131,3,7,4,5,0.3,0.4
2025-05-22T2100,2309A,116.4996,31.7905,六安市,朝阳厂,,22,17,33,15,24,70,,98,97,10,13,4,4,0.3,0.3
2025-05-22T2100,2310A,116.5567,31.7886,六安市,开发区,,43,31,41,30,30,86,,127,124,18,9,4,5,0.5,0.5
2025-05-22T2100,2576A,104.8,26.5892,六盘水市,窑上,,40,40,39,25,26,65,,99,94,5,5,3,3,0.3,0.5
2025-05-22T2100,2577A,104.83,26.5917,六盘水市,黄土坡,颗粒物(PM10),62,73,33,20,21,97,,109,108,13,10,12,11,0.4,0.4
2025-05-22T2100,2578A,104.89,26.5939,六盘水市,水钢,颗粒物(PM10),72,94,37,20,16,90,,100,96,26,12,55,20,0.9,0.6
2025-05-22T2100,2579A,104.8475,26.5894,六盘水市,民中,颗粒物(PM10),53,55,32,22,19,103,,104,104,10,12,8,8,0.3,0.5
2025-05-22T2100,2580A,104.9544,26.5506,六盘水市,双水,颗粒物(PM10),62,73,27,24,13,91,,108,105,24,9,9,10,0.4,0.3
2025-05-22T2100,2335A,117.0189,25.1181,龙岩市,龙岩师专,,,,,,,,,,,,,,,,
2025-05-22T2100,2336A,117.0217,25.1033,龙岩市,龙岩市监测站,,21,21,27,14,14,30,,72,66,25,16,11,6,0.7,0.5
2025-05-22T2100,2337A,117.0258,25.0661,龙岩市,闽西职业技术学院,,40,40,34,17,16,25,,65,57,24,16,48,19,0.5,0.4
2025-05-22T2100,2338A,117.0196,25.0306,龙岩市,龙岩学院,,26,26,27,16,13,35,,69,62,11,8,4,6,0.4,0.4
2025-05-22T2100,2665A,105.0822,33.3261,陇南市,汉王镇固水子,,,,,,,,,,,,,,,,
2025-05-22T2100,2885A,104.9339,33.3826,陇南市,滨江中学,颗粒物(PM10),88,126,67,48,25,124,,119,119,3,5,7,8,0.4,0.5
2025-05-22T2100,3247A,104.955,33.371,陇南市,市总工会,颗粒物(PM10),83,115,62,42,22,126,,122,122,4,5,7,8,0.4,0.5
2025-05-22T2100,2487A,111.9589,27.8901,娄底市,电视发射台,颗粒物(PM10),71,91,64,14,14,10,,32,27,1,4,5,5,0.3,0.5
2025-05-22T2100,2488A,111.9975,27.725,娄底市,市监测站,,40,40,30,25,14,37,,53,50,24,18,11,11,0.7,0.6
2025-05-22T2100,2489A,112.0194,27.7314,娄底市,市委党校,,34,34,28,22,16,25,,50,47,12,6,4,4,0.6,0.5
2025-05-22T2100,2490A,111.9561,27.7569,娄底市,涟钢,,,34,37,14,21,26,,50,45,10,13,,11,0.3,0.4
2025-05-22T2100,2491A,111.9892,27.7044,娄底市,市政府,,35,35,25,22,15,25,,57,51,15,8,4,4,0.7,0.4
2025-05-22T2100,1893A,105.4324,28.9634,泸州市,九狮山,颗粒物(PM10),52,54,35,30,32,60,,126,116,31,17,5,5,0.9,0.6
2025-05-22T2100,1894A,105.4427,28.9063,泸州市,小市上码头,,36,36,30,25,18,108,,120,120,12,14,8,5,0.3,0.4
2025-05-22T2100,1895A,105.4241,28.8573,泸州市,兰田宪桥,,50,50,33,29,20,105,,131,129,14,10,8,8,0.4,0.4
2025-05-22T2100,1896A,105.4379,28.8833,泸州市,市环监站,,37,37,32,25,22,112,,135,134,17,11,9,9,0.3,0.3
2025-05-22T2100,4272A,105.3689,28.7783,泸州市,纳溪中医医院,颗粒物(PM10),58,65,34,31,27,57,,134,121,49,18,8,7,0.8,0.7
2025-05-22T2100,2183A,111.1406,37.5211,吕梁市,环保局,,42,32,121,29,70,69,,139,74,22,14,7,5,0.5,0.7
2025-05-22T2100,2185A,111.1297,37.5136,吕梁市,自来水公司,,29,27,127,20,61,72,,132,75,18,24,7,6,0.6,0.7
2025-05-22T2100,2867A,111.1283,37.51,吕梁市,马茂庄小学,,36,33,154,25,68,70,,105,66,19,19,4,3,0.6,0.9
2025-05-22T2100,1812A,112.3931,34.6516,洛阳市,市委党校,细颗粒物(PM2.5),55,,74,39,42,62,,122,88,18,13,4,6,0.7,0.8
2025-05-22T2100,1815A,112.494,34.6886,洛阳市,河南林校,细颗粒物(PM2.5),59,,77,42,49,61,,129,87,17,14,5,9,0.9,0.9
2025-05-22T2100,1816A,112.3844,34.623,洛阳市,开发区管委会,细颗粒物(PM2.5),57,44,73,40,44,77,,132,101,13,10,4,7,0.6,0.7
2025-05-22T2100,1817A,112.4267,34.6258,洛阳市,市委新办公区,"颗粒物(PM10),细颗粒物(PM2.5)",52,53,82,36,45,63,,133,90,19,14,5,8,0.7,0.6
2025-05-22T2100,3340A,112.6005,34.6326,洛阳市,伊滨,,50,,96,35,44,78,,138,87,16,15,1,3,0.6,0.7
2025-05-22T2100,3341A,112.4951,34.6332,洛阳市,中移产业园,,50,37,77,35,42,63,,119,88,15,11,4,6,0.5,0.7
2025-05-22T2100,3593A,112.5736,34.8993,洛阳市,吉利监测站,,45,34,84,31,42,73,,121,80,10,12,4,6,0.3,0.4
2025-05-22T2100,3635A,112.3677,34.662,洛阳市,河科大西苑校区,,47,47,81,32,36,65,,131,95,21,13,5,8,0.7,0.8
2025-05-22T2100,3636A,112.4388,34.6781,洛阳市,英才小学,细颗粒物(PM2.5),54,43,83,38,41,64,,118,93,18,13,6,8,0.6,0.7
2025-05-22T2100,4214A,112.4600,34.6949,洛阳市,春都路1号院,,49,40,82,34,40,66,,151,129,22,15,5,5,0.5,0.6
2025-05-22T2100,2399A,114.051,33.5699,漯河市,三五一五工厂,细颗粒物(PM2.5),67,64,102,48,47,103,,144,129,11,13,3,6,0.6,0.7
2025-05-22T2100,2400A,114.0055,33.5698,漯河市,漯河大学,细颗粒物(PM2.5),70,53,117,51,41,107,,148,133,10,10,2,4,0.5,0.6
2025-05-22T2100,2401A,114.0138,33.5828,漯河市,市水利局,细颗粒物(PM2.5),64,46,135,46,42,103,,142,128,9,10,3,5,0.9,0.9
2025-05-22T2100,2402A,114.0261,33.5698,漯河市,市广电局,细颗粒物(PM2.5),75,,131,55,51,105,,152,130,9,11,1,3,0.5,0.7
2025-05-22T2100,3478A,113.9749,33.5664,漯河市,市图书馆,细颗粒物(PM2.5),69,59,116,50,44,105,,142,129,11,13,2,4,0.6,0.6
2025-05-22T2100,4250A,114.0892,33.5882,漯河市,韶山路11号,,,109,117,58,44,,,138,126,10,12,5,6,0.6,1
2025-05-22T2100,1798A,118.5092,31.6837,马鞍山市,湖东路四小,细颗粒物(PM2.5),82,,48,60,34,93,,187,174,9,11,6,8,0.6,0.6
2025-05-22T2100,1799A,118.5024,31.6449,马鞍山市,开发区,颗粒物(PM10),59,68,56,37,29,95,,177,167,13,23,5,7,0.8,0.7
2025-05-22T2100,1802A,118.6245,31.7241,马鞍山市,濮塘,"颗粒物(PM10),细颗粒物(PM2.5)",53,55,40,37,22,94,,192,176,7,6,8,7,0.8,0.8
2025-05-22T2100,3633A,118.4918,31.6809,马鞍山市,雨山,颗粒物(PM10),57,63,42,34,27,91,,180,169,8,9,6,7,0.6,0.9
2025-05-22T2100,4191A,118.5274,31.72227,马鞍山市,慈湖高新区,颗粒物(PM10),67,84,55,42,31,93,,187,173,11,15,7,7,0.7,0.6
2025-05-22T2100,1686A,111.0286,21.4688,茂名市,电白南海,,,,20,,16,,,48,46,7,4,2,2,2.0,0.7
2025-05-22T2100,1687A,110.9294,21.6533,茂名市,茂石化七小,,27,27,20,14,10,34,,44,41,8,6,2,1,0.4,0.4
2025-05-22T2100,1688A,110.9107,21.6687,茂名市,健康路,,27,27,17,17,11,40,,48,46,9,7,5,4,0.3,0.3
2025-05-22T2100,1689A,110.8592,21.6828,茂名市,高岭,,31,31,24,9,4,37,,44,42,10,9,2,3,0.2,0.3
2025-05-22T2100,3450A,111.01,21.5165,茂名市,电白水东,,19,19,14,12,7,42,,46,46,6,4,1,1,0.4,0.4
2025-05-22T2100,2539A,104.0308,30.0478,眉山市,黑龙滩水库,,46,46,37,31,32,117,,157,154,8,7,3,2,0.6,0.5
2025-05-22T2100,2540A,103.8416,30.0874,眉山市,气象局,"颗粒物(PM10),细颗粒物(PM2.5)",55,59,60,39,41,116,,170,165,30,20,1,3,0.5,0.5
2025-05-22T2100,3137A,103.8578,30.0744,眉山市,市委党校,,,48,52,29,34,120,,152,149,,19,13,10,0.7,0.5
2025-05-22T2100,3148A,103.8291,30.0564,眉山市,区人社局,,44,44,47,27,33,115,,153,150,25,24,21,14,0.7,0.6
2025-05-22T2100,1690A,116.1231,24.3284,梅州市,梅江月梅,,18,13,24,12,14,34,,58,54,21,11,5,6,0.6,0.6
2025-05-22T2100,1691A,116.0797,24.2719,梅州市,梅县新城,,19,19,30,10,13,34,,62,56,18,15,6,7,0.4,0.4
2025-05-22T2100,1692A,116.1248,24.2654,梅州市,环境监控中心,,,,26,,15,,,55,52,28,15,9,9,0.6,0.5
2025-05-22T2100,3315A,116.1233,24.2991,梅州市,梅龙,,27,27,22,12,10,38,,64,59,16,9,6,9,0.6,0.5
2025-05-22T2100,1878A,104.7778,31.4741,绵阳市,富乐山,颗粒物(PM10),80,110,77,44,54,106,,115,115,7,10,8,8,0.3,0.6
2025-05-22T2100,1880A,104.6697,31.4668,绵阳市,高新区自来水公司,颗粒物(PM10),71,91,50,34,29,91,,124,120,14,10,3,3,0.4,0.6
2025-05-22T2100,1881A,104.7287,31.5075,绵阳市,三水厂,颗粒物(PM10),69,88,61,36,41,100,,118,117,10,10,8,8,0.3,0.5
2025-05-22T2100,3491A,104.69,31.5322,绵阳市,西科大附属小学,颗粒物(PM10),81,111,58,34,34,92,,127,122,25,12,8,8,0.3,0.4
2025-05-22T2100,3492A,104.5648,31.5343,绵阳市,安州区旅游局,颗粒物(PM10),85,120,54,36,35,96,,150,147,10,11,2,3,0.5,0.7
2025-05-22T2100,4226A,104.7651,31.4531,绵阳市,绵阳市气象局,颗粒物(PM10),86,122,71,42,44,103,,111,111,6,9,3,4,0.3,0.7
2025-05-22T2100,1784A,129.61,44.561,牡丹江市,环保大楼,,22,16,29,11,20,70,,80,78,8,12,6,6,0.3,0.3
2025-05-22T2100,1785A,129.6115,44.5782,牡丹江市,文化广场,,39,39,36,20,28,65,,79,77,17,18,8,9,0.5,0.4
2025-05-22T2100,1786A,129.5904,44.5963,牡丹江市,第一医院,,36,25,31,25,22,52,,78,74,20,16,8,5,0.5,0.5
2025-05-22T2100,1787A,129.6364,44.6075,牡丹江市,机车工厂,,41,41,43,16,24,47,,77,72,16,17,6,10,0.3,0.4
2025-05-22T2100,1788A,129.6386,44.5462,牡丹江市,第一中学,,20,20,27,6,18,58,,85,81,15,12,3,3,0.3,0.3
2025-05-22T2100,2531A,105.0703,29.61,内江市,市监测站,细颗粒物(PM2.5),59,46,48,42,31,48,,123,114,52,16,3,3,1.0,0.8
2025-05-22T2100,2532A,105.0717,29.5947,内江市,东兴区政府,,,68,37,38,22,,,127,127,60,16,9,14,0.9,0.6
2025-05-22T2100,2533A,105.0653,29.5817,内江市,内江二中,颗粒物(PM10),59,68,53,28,32,86,,127,124,27,18,8,7,0.6,0.5
2025-05-22T2100,2534A,105.0406,29.5822,内江市,内江日报社,,47,47,42,25,26,67,,122,117,52,16,3,4,0.7,0.6
2025-05-22T2100,2628A,92.0657,31.4846,那曲市,那曲监测站,颗粒物(PM10),52,54,60,28,27,99,,103,102,15,17,7,7,0.7,0.7
2025-05-22T2100,4243A,92.0515,31.4787,那曲市,那曲市委宣传部,,40,40,45,22,22,105,,111,110,8,9,4,4,0.4,0.5
2025-05-22T2100,1290A,115.8931,28.6843,南昌市,省外办,,,40,23,22,16,,,60,50,24,19,4,4,0.9,0.6
2025-05-22T2100,1291A,115.8886,28.7003,南昌市,省林业公司,,18,17,18,12,12,31,,65,53,21,17,10,9,0.8,0.8
2025-05-22T2100,1292A,115.8126,28.7442,南昌市,林科所,,18,14,15,3,9,4,,59,35,35,14,4,5,0.5,0.4
2025-05-22T2100,1294A,115.8518,28.687,南昌市,建工学校,,15,10,19,10,10,34,,65,50,23,19,5,5,0.4,0.4
2025-05-22T2100,1295A,115.8921,28.6424,南昌市,象湖,,20,14,20,14,9,23,,65,47,32,18,7,9,0.7,0.6
2025-05-22T2100,1296A,115.7423,28.7996,南昌市,武术学校,,38,,19,26,25,11,,52,32,4,5,9,10,0.5,0.5
2025-05-22T2100,3046A,115.9084,28.6062,南昌市,机电学校,,27,27,25,14,13,17,,58,41,34,20,3,4,0.4,0.4
2025-05-22T2100,3690A,115.9721,28.7031,南昌市,外国语学校,,24,24,22,13,12,34,,64,52,20,12,6,9,0.5,0.6
2025-05-22T2100,4192A,115.9316,28.68677,南昌市,南京东路235号,,28,28,30,13,11,35,,66,52,23,15,4,6,0.8,0.8
2025-05-22T2100,1905A,106.056,30.8064,南充市,西山风景区,,,,,,,,,,,,,,,,
2025-05-22T2100,1906A,106.0789,30.8023,南充市,南充市委,,,122,67,51,34,,,121,116,75,15,5,5,0.7,0.4
2025-05-22T2100,1907A,106.1031,30.8217,南充市,南充炼油厂,颗粒物(PM10),72,93,67,51,39,87,,116,111,26,10,5,5,0.3,0.4
2025-05-22T2100,4227A,106.1083,30.7884,南充市,梨树横街98号,颗粒物(PM10),89,128,69,47,31,61,,119,112,54,12,4,4,0.5,0.3
2025-05-22T2100,4304A,106.1172,30.843,南充市,清泉寺北路188号,颗粒物(PM10),77,103,68,54,33,96,,118,116,17,8,5,5,0.2,0.3
2025-05-22T2100,4305A,106.067,30.7616,南充市,同庆路1号,颗粒物(PM10),84,117,71,39,37,38,,112,97,58,15,4,3,0.4,0.2
2025-05-22T2100,1151A,118.8086,32.1065,南京市,迈皋桥,,35,35,46,22,29,89,,180,153,12,28,4,4,0.1,0.4
2025-05-22T2100,1152A,118.7538,32.0551,南京市,草场门,,39,36,45,27,26,82,,180,151,18,20,1,2,0.4,0.6
2025-05-22T2100,1153A,118.7794,32.0745,南京市,山西路,,46,46,53,24,22,87,,189,159,11,13,4,4,0.4,0.4
2025-05-22T2100,1154A,118.7752,32.0023,南京市,中华门,,39,36,40,27,27,77,,168,140,6,16,4,4,0.4,0.5
2025-05-22T2100,1155A,118.8109,32.0309,南京市,瑞金路,,44,44,43,24,26,81,,166,138,7,14,6,6,0.3,0.3
2025-05-22T2100,1156A,118.7997,32.0754,南京市,玄武湖,,42,42,43,19,19,83,,167,,12,14,4,4,0.4,0.5
2025-05-22T2100,1157A,118.6414,32.0931,南京市,浦口,,41,41,44,19,22,76,,172,148,21,23,3,3,0.5,0.7
2025-05-22T2100,1158A,118.7356,31.9996,南京市,奥体中心,,,44,43,24,25,,,191,173,20,23,5,4,0.4,0.5
2025-05-22T2100,1159A,118.9125,32.1028,南京市,仙林大学城,,46,46,48,19,22,87,,103,,11,24,12,13,0.6,0.7
2025-05-22T2100,3422A,118.8436,31.9198,南京市,江宁彩虹桥,,,,40,,29,,,,,,9,,3,,0.4
2025-05-22T2100,3427A,118.8554,32.3578,南京市,六合雄州,颗粒物(PM10),54,57,57,25,34,85,,155,124,16,42,6,8,0.7,0.8
2025-05-22T2100,4249A,118.8708,31.3402,南京市,汶溪路181号,细颗粒物(PM2.5),53,48,34,37,24,100,,175,167,22,19,3,3,0.6,0.4
2025-05-22T2100,4312A,119.019,31.6512,南京市,中山西路1号,,39,36,37,27,23,93,,213,185,16,18,5,8,0.6,0.6
2025-05-22T2100,1401A,108.3103,22.7881,南宁市,二十一中,,15,,25,10,9,36,,54,44,14,10,1,2,0.6,0.5
2025-05-22T2100,1402A,108.3141,22.8528,南宁市,北湖,,21,21,25,10,16,38,,63,48,11,9,4,4,0.5,0.5
2025-05-22T2100,1403A,108.3206,22.8225,南宁市,市监测站,,18,,20,12,12,34,,48,39,3,4,1,1,0.4,0.4
2025-05-22T2100,1404A,108.3829,22.8037,南宁市,大自然花园,,18,16,20,12,13,43,,62,51,6,6,4,5,0.5,0.5
2025-05-22T2100,1405A,108.4394,22.7904,南宁市,仙葫,,14,,20,7,10,43,,57,49,6,7,7,4,0.5,0.6
2025-05-22T2100,1406A,108.2397,22.8467,南宁市,区农职院,,,,24,,9,,,62,48,,13,,3,,0.5
2025-05-22T2100,1407A,108.3275,22.735,南宁市,英华嘉园,,22,22,20,10,11,25,,52,39,24,12,9,7,0.4,0.3
2025-05-22T2100,3401A,108.4834,22.7618,南宁市,红星社区,,29,29,20,3,10,47,,60,54,4,5,8,8,0.3,0.4
2025-05-22T2100,4221A,108.2177,22.7774,南宁市,乐贤路16号,,28,28,26,10,13,8,,53,31,31,19,2,2,0.5,0.4
2025-05-22T2100,2331A,118.0966,26.6761,南平市,茫荡山,,,,,,,,,,,,,,,,
2025-05-22T2100,2332A,118.1681,26.6369,南平市,南平市监测站,,22,,23,15,15,47,,64,57,6,10,4,4,0.5,0.7
2025-05-22T2100,2333A,118.1825,26.6489,南平市,南平铝业有限公司,,26,26,24,3,10,55,,67,63,5,9,4,3,0.6,0.7
2025-05-22T2100,2334A,118.1756,26.6272,南平市,南平七中,,19,19,25,10,11,45,,59,51,4,7,4,4,0.5,0.5
2025-05-22T2100,1168A,120.9098,31.9663,南通市,狼山街道,,45,32,28,31,20,50,,143,109,21,25,3,4,1.2,1.3
2025-05-22T2100,1169A,120.86,32.0005,南通市,虹桥,,32,23,32,22,25,51,,139,106,24,38,1,4,0.4,0.7
2025-05-22T2100,1170A,120.87,32.02,南通市,城中,,28,28,35,17,20,45,,132,100,22,29,4,6,0.6,0.8
2025-05-22T2100,1171A,120.94,31.93,南通市,星湖花园,,20,13,26,13,20,61,,132,102,17,37,2,5,0.2,0.6
2025-05-22T2100,1172A,120.81,32.0417,南通市,紫琅学院,,32,32,37,20,21,42,,125,95,24,38,4,7,0.5,0.7
2025-05-22T2100,3291A,121.067,32.062,南通市,通州监测站,,22,22,28,9,15,19,,130,93,36,14,4,6,0.8,0.9
2025-05-22T2100,3432A,120.9348,31.9883,南通市,环境教育馆,,48,39,35,33,18,37,,137,102,22,35,2,4,0.6,0.6
2025-05-22T2100,2404A,112.5224,33.0122,南阳市,瓦房庄,细颗粒物(PM2.5),53,54,94,37,35,100,,132,119,13,14,6,7,0.4,0.4
2025-05-22T2100,2405A,112.5003,32.9735,南阳市,汉画馆,,,52,94,36,37,,,129,121,13,15,5,7,0.7,0.7
2025-05-22T2100,2406A,112.5573,33.027,南阳市,气象站,细颗粒物(PM2.5),58,45,102,41,41,93,,128,114,9,12,4,6,0.7,0.6
2025-05-22T2100,2407A,112.5481,32.9689,南阳市,理工学院,颗粒物(PM10),52,53,92,34,38,94,,129,116,9,11,4,5,0.7,0.7
2025-05-22T2100,4008A,112.5234,32.9922,南阳市,卧龙区政府,细颗粒物(PM2.5),57,,85,40,47,96,,123,113,12,15,4,5,0.6,0.6
2025-05-22T2100,1234A,121.8358,29.911,宁波市,区环保大楼,,35,20,41,12,19,109,,142,113,9,47,8,11,0.3,0.5
2025-05-22T2100,1235A,121.56,29.82,宁波市,万里学院,,29,18,33,12,24,92,,174,125,14,35,4,6,0.4,0.6
2025-05-22T2100,1236A,121.713,29.9572,宁波市,龙赛医院,,30,26,55,11,15,96,,155,114,8,40,7,10,0.4,0.7
2025-05-22T2100,1239A,121.633,29.7733,宁波市,钱湖水厂,,33,13,30,8,18,103,,166,122,7,15,8,8,0.5,0.6
2025-05-22T2100,1240A,121.5856,29.8635,宁波市,太古小学,,32,22,43,13,20,101,,186,136,10,37,7,9,0.4,0.7
2025-05-22T2100,1241A,121.524,29.8674,宁波市,市环境监测中心,,27,16,39,11,18,84,,169,128,12,31,5,7,0.5,0.7
2025-05-22T2100,2871A,121.6147,29.9017,宁波市,万里国际学校,,33,,34,15,21,104,,176,137,9,40,6,8,0.3,0.5
2025-05-22T2100,3710A,121.5594,29.8975,宁波市,白沙活动中心,,30,21,31,10,16,94,,175,138,6,30,7,9,0.5,0.7
2025-05-22T2100,2339A,119.5001,26.6946,宁德市,金涵水库,,,,,,,,,,,,,,,,
2025-05-22T2100,2341A,119.5388,26.6612,宁德市,宁德市监测站,,22,15,24,15,14,47,,69,66,19,15,4,4,0.5,0.5
2025-05-22T2100,3209A,119.5231,26.6562,宁德市,宁德一中,,22,,25,15,16,12,,56,42,12,7,2,2,0.7,0.5
2025-05-22T2100,2618A,98.8601,25.8567,怒江傈僳族自治州,州监测站,,32,32,31,18,17,81,,106,102,9,7,8,8,0.3,0.4
2025-05-22T2100,2619A,98.8546,25.8417,怒江傈僳族自治州,泸水一中,,27,27,29,3,16,49,,88,81,22,12,7,6,0.5,0.4
2025-05-22T2100,1888A,101.6891,26.571,攀枝花市,弄弄坪,颗粒物(PM10),51,51,34,20,14,102,,122,115,11,12,30,9,0.7,0.6
2025-05-22T2100,1889A,101.5769,26.5928,攀枝花市,河门口,,,40,38,19,16,,,132,128,8,22,13,13,0.5,0.6
2025-05-22T2100,1890A,101.7169,26.585,攀枝花市,炳草岗,,43,43,37,15,17,105,,124,118,10,26,32,13,0.7,0.7
2025-05-22T2100,1891A,101.7369,26.5008,攀枝花市,仁和,,33,28,22,13,13,104,,115,112,9,12,9,11,0.5,0.6
2025-05-22T2100,2835A,101.7227,26.567,攀枝花市,四十中小,,35,31,29,23,16,111,,132,124,10,15,23,13,0.6,0.7
2025-05-22T2100,1604A,122.0303,41.1489,盘锦市,开发区,,36,36,59,25,42,98,,108,106,11,14,9,10,0.5,0.6
2025-05-22T2100,1605A,122.0485,41.0883,盘锦市,兴隆台,,41,41,58,23,37,99,,107,105,17,17,11,9,0.4,0.5
2025-05-22T2100,1606A,121.8297,41.1028,盘锦市,新生街道,,29,22,49,20,38,82,,98,93,22,31,7,8,0.3,0.5
2025-05-22T2100,1832A,113.3257,33.742,平顶山市,新华旅馆,细颗粒物(PM2.5),69,,102,50,41,84,,126,106,15,15,4,6,0.6,0.6
2025-05-22T2100,1833A,113.2919,33.737,平顶山市,规划设计院,,43,42,90,30,44,81,,121,103,14,17,4,6,0.8,0.9
2025-05-22T2100,1834A,113.182,33.774,平顶山市,平顶山工学院,,42,39,83,29,41,89,,126,107,11,12,2,3,0.3,0.3
2025-05-22T2100,3204A,113.3025,33.73,平顶山市,规划局,,45,36,97,31,41,86,,125,103,7,10,4,6,0.6,0.5
2025-05-22T2100,3594A,112.8867,33.9116,平顶山市,石龙区,细颗粒物(PM2.5),65,55,92,47,48,77,,123,97,17,17,7,9,0.8,0.9
2025-05-22T2100,2656A,106.6692,35.5461,平凉市,聚贤嘉苑,颗粒物(PM10),69,88,147,36,54,112,,120,119,6,5,14,16,0.4,0.4
2025-05-22T2100,2657A,106.7021,35.5307,平凉市,博物馆,颗粒物(PM10),71,91,128,30,46,110,,119,119,7,5,10,11,0.5,0.5
2025-05-22T2100,2347A,114.0997,27.5002,萍乡市,武功山,,19,,6,3,3,60,,54,54,3,4,12,11,0.6,0.6
2025-05-22T2100,2348A,113.8385,27.6434,萍乡市,中医院,,36,,34,25,22,21,,50,47,21,13,9,13,1.0,0.9
2025-05-22T2100,2349A,113.8493,27.6253,萍乡市,市政府车库,,36,,29,25,28,17,,47,45,21,18,8,17,0.6,1.2
2025-05-22T2100,2350A,113.8676,27.6435,萍乡市,市环保局,,42,42,30,17,22,27,,54,51,18,14,6,9,1.4,0.8
2025-05-22T2100,2351A,113.866,27.6198,萍乡市,安源区政府,,36,36,37,19,16,18,,44,42,15,18,3,7,0.6,1
2025-05-22T2100,2319A,119.0141,25.4325,莆田市,荔城区仓后路,,28,28,47,10,24,39,,82,62,16,23,4,4,0.6,0.6
2025-05-22T2100,2320A,119.0015,25.4553,莆田市,莆田市监测站,,14,14,42,3,20,40,,98,70,4,14,2,3,0.4,0.4
2025-05-22T2100,2321A,119.1119,25.4561,莆田市,涵江区六中,,27,27,41,16,26,45,,80,64,16,26,1,2,0.5,0.4
2025-05-22T2100,2322A,119.1013,25.3215,莆田市,秀屿区政府,,,28,36,14,25,,,94,78,17,19,4,6,0.4,0.4
2025-05-22T2100,2323A,118.981,25.4792,莆田市,东圳水库,,,,,,,,,,,,,,,,
2025-05-22T2100,2392A,115.0312,35.7636,濮阳市,环保局,细颗粒物(PM2.5),82,,60,60,41,103,,101,101,14,15,5,7,0.7,0.7
2025-05-22T2100,2394A,115.0574,35.7609,濮阳市,油田运输公司,细颗粒物(PM2.5),74,72,71,54,42,99,,98,98,12,13,5,6,0.7,0.8
2025-05-22T2100,3021A,115,35.7668,濮阳市,濮水河管理处,细颗粒物(PM2.5),87,65,65,64,44,92,,90,90,16,17,4,5,0.7,0.7
2025-05-22T2100,4216A,115.0924,35.7686,濮阳市,任丘路479号,细颗粒物(PM2.5),80,75,72,59,42,97,,95,95,20,23,5,7,1.0,0.9
2025-05-22T2100,2601A,100.98,22.7633,普洱市,市环保局,颗粒物(PM10),53,55,39,22,16,85,,99,97,5,6,5,4,0.6,0.6
2025-05-22T2100,2602A,100.9817,22.8322,普洱市,普洱第二中学,,,43,29,28,18,,,103,103,14,11,6,5,0.6,0.5
2025-05-22T2100,2262A,131.0518,45.8751,七台河市,新一中,,28,28,11,10,6,54,,83,78,12,8,11,10,0.8,0.7
2025-05-22T2100,3345A,131.0577,45.7879,七台河市,中波台,,13,9,11,3,6,38,,66,60,26,15,6,6,0.5,0.4
2025-05-22T2100,3637A,131.0176,45.7761,七台河市,人民广场,,25,25,20,16,14,30,,67,57,26,14,10,11,0.6,0.4
2025-05-22T2100,3684A,130.8781,45.8222,七台河市,新建矿广场,,28,24,32,19,11,50,,71,62,16,14,9,11,0.4,0.4
2025-05-22T2100,1779A,123.9305,47.3636,齐齐哈尔市,安居小区,细颗粒物(PM2.5),100,85,27,75,15,19,,79,70,58,15,6,4,1.0,0.4
2025-05-22T2100,1780A,123.9488,47.3386,齐齐哈尔市,中心广场,颗粒物(PM10),54,57,23,36,8,21,,79,70,66,14,17,4,1.0,0.3
2025-05-22T2100,1781A,123.9483,47.3227,齐齐哈尔市,农牧车辆厂,,44,44,26,10,9,22,,77,68,43,10,4,4,0.6,0.3
2025-05-22T2100,1783A,123.945,47.2988,齐齐哈尔市,市环境监测站,颗粒物(PM10),68,85,24,27,9,30,,81,73,39,9,4,3,0.5,0.2
2025-05-22T2100,3662A,123.6333,47.2075,齐齐哈尔市,富区青少年活动中心,,50,50,30,29,18,54,,85,75,23,11,2,2,0.4,0.3
2025-05-22T2100,2591A,107.9783,26.5747,黔东南苗族侗族自治州,市环境监测站,,20,20,21,14,14,35,,80,74,29,8,3,3,0.7,0.5
2025-05-22T2100,2881A,107.8908,26.5311,黔东南苗族侗族自治州,凯里学院,,19,19,16,12,13,46,,81,78,18,6,3,2,0.5,0.4
2025-05-22T2100,2593A,107.5228,26.2403,黔南布依族苗族自治州,小围寨,,22,7,16,3,8,70,,73,73,5,5,2,2,0.3,0.3
2025-05-22T2100,3538A,107.5175,26.2978,黔南布依族苗族自治州,沙坝,,18,17,23,3,8,56,,67,67,6,5,4,3,0.5,0.6
2025-05-22T2100,2589A,104.9022,25.0925,黔西南布依族苗族自治州,场坝街,,33,25,26,23,18,99,,113,113,12,7,2,2,0.3,0.3
2025-05-22T2100,2590A,104.8811,25.0992,黔西南布依族苗族自治州,坪东大道,,33,33,27,17,15,51,,88,84,24,9,1,2,0.4,0.4
2025-05-22T2100,2502A,108.6236,21.9667,钦州市,市环保站,,27,27,21,12,7,32,,51,44,16,11,10,5,0.7,0.6
2025-05-22T2100,2503A,108.6549,21.9481,钦州市,沙埠小学,,25,25,32,9,10,41,,53,48,10,15,8,8,0.4,0.4
2025-05-22T2100,2504A,108.5989,21.7431,钦州市,港区一小,,35,35,37,9,9,42,,49,47,11,13,7,8,0.4,0.4
2025-05-22T2100,3404A,108.5959,21.9633,钦州市,北职校,,33,33,25,17,9,26,,45,40,14,8,12,8,0.7,0.6
2025-05-22T2100,1043A,119.7493,40.0116,秦皇岛市,第一关,细颗粒物(PM2.5),57,42,67,40,53,84,,99,86,28,31,4,5,0.4,0.4
2025-05-22T2100,1044A,119.5897,39.9499,秦皇岛市,监测站,颗粒物(PM10),57,63,74,38,41,89,,109,98,20,21,2,4,0.4,0.4
2025-05-22T2100,1046A,119.5251,39.9041,秦皇岛市,建设大厦,颗粒物(PM10),64,77,95,45,41,80,,102,93,28,32,3,4,0.4,0.4
2025-05-22T2100,3132A,119.610547,39.943889,秦皇岛市,文明里,,49,49,83,33,41,87,,107,96,16,19,2,3,0.4,0.4
2025-05-22T2100,4198A,119.5090,39.8253,秦皇岛市,北戴河轮滑馆,,,,75,,52,64,,102,92,,37,3,4,0.3,0.4
2025-05-22T2100,1307A,120.6659,36.2403,青岛市,仰口,细颗粒物(PM2.5),79,59,50,58,40,137,,164,158,8,6,8,8,0.5,0.5
2025-05-22T2100,1310A,120.4134,36.0658,青岛市,市南区东部子站,细颗粒物(PM2.5),79,70,48,58,35,129,,150,148,23,22,7,8,0.5,0.5
2025-05-22T2100,1311A,120.3664,36.1032,青岛市,四方区子站,细颗粒物(PM2.5),73,70,52,53,37,136,,164,160,17,23,9,10,0.7,0.7
2025-05-22T2100,1312A,120.2994,36.054,青岛市,市南区西部子站,细颗粒物(PM2.5),77,78,53,56,35,104,,148,144,48,36,11,8,0.7,0.8
2025-05-22T2100,1313A,120.4581,36.0858,青岛市,崂山区子站,细颗粒物(PM2.5),77,61,44,56,27,136,,159,158,9,12,6,6,0.5,0.4
2025-05-22T2100,1315A,120.3999,36.3083,青岛市,城阳区子站,"颗粒物(PM10),细颗粒物(PM2.5)",62,73,56,44,29,144,,152,151,16,15,7,5,0.6,0.6
2025-05-22T2100,1966A,120.0405,35.8735,青岛市,黄岛区4号,细颗粒物(PM2.5),62,56,49,44,31,157,,166,166,12,17,8,9,0.6,0.7
2025-05-22T2100,3362A,120.5014,36.4034,青岛市,即墨2号,颗粒物(PM10),62,73,60,41,44,132,,145,144,15,10,10,8,0.7,0.7
2025-05-22T2100,3642A,120.3503,36.0736,青岛市,市北区南部,细颗粒物(PM2.5),73,74,49,53,35,120,,144,141,14,17,8,8,0.5,0.5
2025-05-22T2100,3643A,120.3948,36.1805,青岛市,李沧区北部,细颗粒物(PM2.5),77,78,54,56,41,132,,153,149,17,18,8,8,0.6,0.6
2025-05-22T2100,4290A,120.1969,35.9546,青岛市,珠江路669号,细颗粒物(PM2.5),64,53,51,46,33,135,,154,152,18,24,7,8,0.6,0.6
2025-05-22T2100,1702A,113.0426,23.691,清远市,环保大楼,,18,11,20,10,13,57,,88,79,15,14,13,10,0.6,0.7
2025-05-22T2100,1703A,113.0208,23.7106,清远市,凤城街办,,18,13,22,7,9,55,,86,74,18,17,11,10,0.4,0.5
2025-05-22T2100,3025A,113.0477,23.6344,清远市,技师学院,,16,16,24,9,13,33,,70,60,29,20,11,8,0.5,0.5
2025-05-22T2100,3318A,112.9903,23.7403,清远市,清新太和,,,15,27,7,16,,,82,71,15,16,11,9,0.4,0.5
2025-05-22T2100,3455A,113.076,23.7198,清远市,清城东城,,19,12,22,3,12,58,,86,76,10,13,14,10,0.5,0.6
2025-05-22T2100,2661A,107.6325,35.7357,庆阳市,庆阳五中,颗粒物(PM10),53,55,104,22,50,84,,98,98,15,6,4,3,0.5,0.5
2025-05-22T2100,2662A,107.6364,35.7067,庆阳市,市环保局,颗粒物(PM10),56,62,99,16,36,99,,110,110,8,3,8,8,0.5,0.5
2025-05-22T2100,1916A,103.7897,25.5035,曲靖市,环境监测站,,29,26,34,9,15,92,,121,113,16,16,7,6,0.4,0.4
2025-05-22T2100,1917A,103.8,25.5364,曲靖市,烟厂办公区,,31,31,33,3,14,98,,130,120,10,10,4,4,0.7,0.6
2025-05-22T2100,3376A,103.7947,25.462,曲靖市,南苑二区,,33,33,29,10,13,98,,120,115,11,10,4,4,0.5,0.4
2025-05-22T2100,3377A,103.7444,25.5261,曲靖市,曲靖师范学院,,37,37,35,24,21,65,,120,110,46,11,6,8,0.6,0.5
2025-05-22T2100,1264A,118.8692,28.9398,衢州市,环保大楼,,18,18,33,6,17,45,,93,72,16,12,3,3,0.3,0.4
2025-05-22T2100,1265A,118.8709,28.9666,衢州市,实验学校,,20,20,30,10,16,41,,94,71,16,14,2,4,0.3,0.3
2025-05-22T2100,1266A,118.8621,28.9808,衢州市,衢州学院,,16,16,30,11,18,38,,86,66,22,19,5,5,0.4,0.4
2025-05-22T2100,1611A,118.5819,24.9117,泉州市,涂山街,细颗粒物(PM2.5),74,,62,54,36,66,,152,114,27,36,6,10,0.7,0.7
2025-05-22T2100,1612A,118.5972,24.8978,泉州市,津头埔,细颗粒物(PM2.5),69,,57,50,32,57,,154,109,30,36,4,8,0.6,0.7
2025-05-22T2100,1613A,118.6663,24.9424,泉州市,万安,,,45,48,44,28,,,130,111,20,24,5,6,0.5,0.6
2025-05-22T2100,1614A,118.6117,24.9604,泉州市,清源山,,,,,,,,,,,,,,,,
2025-05-22T2100,3529A,118.6333,24.9264,泉州市,城华南路,细颗粒物(PM2.5),64,54,52,46,33,59,,105,84,23,30,5,6,0.6,0.5
2025-05-22T2100,2626A,88.8876,29.2718,日喀则市,日喀则监测站,,39,8,16,3,8,122,,122,122,8,5,5,4,0.2,0.2
2025-05-22T2100,3726A,88.8781,29.2426,日喀则市,林业技术推广中心,,34,31,24,8,9,108,,119,118,3,4,7,7,0.3,0.3
2025-05-22T2100,1659A,119.471,35.4209,日照市,监测站,细颗粒物(PM2.5),70,53,63,51,42,153,,161,160,18,17,7,7,0.4,0.5
2025-05-22T2100,1660A,119.523,35.4216,日照市,市政府广场,细颗粒物(PM2.5),54,53,55,38,35,152,,160,160,13,12,5,5,0.6,0.7
2025-05-22T2100,1661A,119.5587,35.4044,日照市,港务局,细颗粒物(PM2.5),65,58,55,47,41,162,,172,172,13,13,8,8,0.5,0.6
2025-05-22T2100,3507A,119.5328,35.4625,日照市,职业技术学院,"颗粒物(PM10),细颗粒物(PM2.5)",52,53,61,36,34,151,,162,160,20,20,5,6,0.6,0.7
2025-05-22T2100,3604A,119.3266,35.1044,日照市,岚山环保分局,细颗粒物(PM2.5),58,58,63,41,36,147,,161,160,22,25,9,17,0.7,1.8
2025-05-22T2100,1835A,111.1922,34.7752,三门峡市,市政府,颗粒物(PM10),67,83,94,44,43,58,,139,58,11,12,4,5,0.8,0.8
2025-05-22T2100,1836A,111.1587,34.7942,三门峡市,开发区,颗粒物(PM10),66,82,101,47,54,62,,145,60,13,14,8,7,0.7,0.7
2025-05-22T2100,1838A,111.143,34.7955,三门峡市,风景区,颗粒物(PM10),66,81,89,34,43,63,,148,,11,11,8,9,0.5,0.8
2025-05-22T2100,3039A,111.1911,34.7829,三门峡市,三门峡市第一小学,颗粒物(PM10),74,98,89,37,51,57,,149,56,12,12,9,7,0.6,0.8
2025-05-22T2100,3598A,111.1,34.7167,三门峡市,富达温泉假日酒店,颗粒物(PM10),65,80,116,34,64,41,,133,61,21,15,6,8,0.2,0.5
2025-05-22T2100,2324A,117.6211,26.2625,三明市,三钢,,15,8,33,3,23,13,,78,56,25,19,3,7,1.5,1.7
2025-05-22T2100,2325A,117.635,26.2714,三明市,三明二中,,,143,38,13,18,,,80,63,,16,2,5,1.1,1.3
2025-05-22T2100,2326A,117.6028,26.2378,三明市,三元区政府,,29,29,34,8,19,22,,82,62,12,17,1,4,0.4,1.1
2025-05-22T2100,2327A,117.7275,26.3108,三明市,洋溪,,,,,,,,,,,,,,,,
2025-05-22T2100,1876A,109.5078,18.2489,三亚市,河东子站,,18,18,10,6,5,37,,41,40,2,2,4,3,0.3,0.4
2025-05-22T2100,1877A,109.4964,18.2681,三亚市,河西子站,,13,10,10,3,4,41,,42,41,4,7,3,2,0.3,0.3
2025-05-22T2100,3540A,109.7348,18.3443,三亚市,君悦子站,,,10,12,3,4,,,50,49,3,5,2,2,0.1,0.2
