timepoint,stationcode,longitude,latitude,area,positionname,primarypollutant,aqi,pm10,pm10_24h,pm2_5,pm2_5_24h,o3,o3_24h,o3_8h,o3_8h_24h,no2,no2_24h,so2,so2_24h,co,co_24h
2024-03-27T0800,2566A,102.1879,31.914,阿坝藏族羌族自治州,州农科所,,18,18,19,7,8,14,,18,18,17,7,3,3,1.7,0.2
2024-03-27T0800,2568A,102.2502,31.8896,阿坝藏族羌族自治州,马师校,,12,6,14,6,7,38,,55,55,11,8,4,4,0.5,0.4
2024-03-27T0800,3994A,102.2165,31.9024,阿坝藏族羌族自治州,马尔康中学西区,,17,10,10,5,8,52,,65,65,6,6,4,5,0.4,0.4
2024-03-27T0800,2695A,80.292,41.1694,阿克苏地区,电视台,颗粒物(PM10),73,95,100,37,31,62,,56,56,9,16,6,6,0.6,0.6
2024-03-27T0800,2696A,80.2613,41.1551,阿克苏地区,艺术中心,颗粒物(PM10),72,94,96,35,30,64,,35,35,14,31,4,4,0.9,1
2024-03-27T0800,2204A,105.6467,38.8363,阿拉善盟,西城区西花园,颗粒物(PM10),90,129,55,30,19,100,,106,106,11,7,8,9,0.5,0.5
2024-03-27T0800,2205A,105.6985,38.8411,阿拉善盟,蒙二幼,颗粒物(PM10),84,118,57,32,20,96,,82,82,7,7,8,8,0.3,0.4
2024-03-27T0800,2206A,105.724,38.8516,阿拉善盟,环保局新楼,颗粒物(PM10),71,91,49,24,18,101,,103,103,7,7,6,6,0.3,0.3
2024-03-27T0800,2708A,88.1264,47.8517,阿勒泰地区,市站,,23,,9,10,7,71,,76,76,3,8,4,4,0.4,0.4
2024-03-27T0800,2630A,80.1161,32.5,阿里地区,阿里监测站,,25,7,8,3,3,80,,88,88,5,7,8,9,0.4,0.4
2024-03-27T0800,3192A,80.0903,32.5028,阿里地区,阿里藏医院,,25,9,11,2,4,80,,98,98,5,5,10,9,0.4,0.4
2024-03-27T0800,2642A,109.0318,32.6537,安康市,香溪洞,,29,28,28,20,13,52,,78,78,14,10,7,6,0.4,0.4
2024-03-27T0800,2643A,109.0281,32.6939,安康市,安康市监测站,,39,39,38,24,21,23,,37,37,22,16,11,9,0.7,0.7
2024-03-27T0800,2644A,109.0072,32.6975,安康市,汉滨区检察院,,34,34,35,20,19,24,,35,35,19,14,8,10,0.4,0.6
2024-03-27T0800,2291A,117.0809,30.5177,安庆市,环科院,细颗粒物(PM2.5),72,56,45,52,39,34,,56,56,33,17,7,6,1.0,0.8
2024-03-27T0800,2292A,117.0331,30.5119,安庆市,马山宾馆,细颗粒物(PM2.5),70,63,49,51,38,43,,61,61,32,19,7,6,0.6,0.4
2024-03-27T0800,2294A,116.9896,30.6145,安庆市,安庆大学,细颗粒物(PM2.5),58,48,44,41,31,14,,17,17,33,24,7,6,1.1,0.5
2024-03-27T0800,3173A,117.0598,30.5351,安庆市,市人大,细颗粒物(PM2.5),78,,45,57,42,37,,54,54,29,17,5,4,0.7,0.5
2024-03-27T0800,3122A,105.9606,26.2611,安顺市,伍家关,,,,,,,,,,,,,,,,
2024-03-27T0800,3123A,105.9408,26.2431,安顺市,凤凰山,,49,44,51,34,39,87,,86,86,7,7,8,9,0.7,0.7
2024-03-27T0800,3124A,105.9439,26.2564,安顺市,金钟山,细颗粒物(PM2.5),62,44,54,44,44,91,,90,90,6,6,5,6,0.6,0.6
2024-03-27T0800,3125A,105.8983,26.2481,安顺市,娄家坡,细颗粒物(PM2.5),59,45,62,42,44,93,,91,91,5,6,5,7,0.6,0.6
2024-03-27T0800,1818A,114.4839,36.0621,安阳市,棉研所,,,,,,,,,,,,,,,,
2024-03-27T0800,1819A,114.3551,36.1017,安阳市,红庙街,,48,,65,33,50,64,,62,62,14,19,4,6,0.4,0.7
2024-03-27T0800,1820A,114.361,36.0681,安阳市,银杏小区,,50,39,58,35,63,66,,64,64,8,13,7,8,0.3,0.8
2024-03-27T0800,3141A,114.3922,36.0878,安阳市,信访局,,32,32,67,22,51,63,,65,65,8,11,3,5,0.4,0.6
2024-03-27T0800,3669A,114.4705,36.0637,安阳市,左辅环卫站,细颗粒物(PM2.5),54,47,66,38,54,49,,58,58,13,12,5,7,0.5,0.5
2024-03-27T0800,3703A,114.2917,36.0949,安阳市,安钢职工学校,,50,,74,35,57,55,,54,54,20,23,7,10,0.8,0.5
2024-03-27T0800,1748A,123.044,41.1196,鞍山市,深沟寺,细颗粒物(PM2.5),77,77,111,56,71,87,,89,89,14,38,8,24,0.7,1.8
2024-03-27T0800,1749A,123.011,41.0931,鞍山市,太阳城,细颗粒物(PM2.5),73,75,93,53,64,98,,98,98,18,31,11,20,0.8,1.5
2024-03-27T0800,1750A,123.0485,41.1442,鞍山市,太平,细颗粒物(PM2.5),69,82,114,50,71,81,,83,83,24,44,5,24,0.6,1.7
2024-03-27T0800,1751A,122.9642,41.0971,鞍山市,铁西三道街,细颗粒物(PM2.5),83,92,104,61,69,69,,75,75,51,44,18,19,0.8,1.2
2024-03-27T0800,1752A,122.9341,41.0833,鞍山市,铁西工业园区,细颗粒物(PM2.5),84,90,98,62,67,93,,86,86,22,36,8,14,1.0,1.2
2024-03-27T0800,1753A,123.022,41.0821,鞍山市,明达新区,细颗粒物(PM2.5),74,72,94,54,63,96,,96,96,19,32,12,21,0.8,1.4
2024-03-27T0800,1754A,123.1289,41.0228,鞍山市,千山,,,,,,,,,,,,,,,,
2024-03-27T0800,2195A,107.4212,40.761,巴彦淖尔市,附二中,,,74,108,28,25,87,,90,90,,10,3,3,0.4,0.3
2024-03-27T0800,2196A,107.37,40.7372,巴彦淖尔市,市环保大楼,颗粒物(PM10),67,83,114,33,28,82,,84,84,10,9,4,4,0.3,0.4
2024-03-27T0800,1956A,86.1472,41.7538,巴音郭楞蒙古自治州,孔雀公园,颗粒物(PM10),55,59,90,21,25,27,,10,10,44,40,5,6,0.4,0.5
2024-03-27T0800,1957A,86.1972,41.7166,巴音郭楞蒙古自治州,棉纺厂,颗粒物(PM10),63,76,89,21,21,1,,7,7,79,35,3,3,0.6,0.4
2024-03-27T0800,1958A,86.2357,41.7173,巴音郭楞蒙古自治州,经济开发区,,47,47,68,10,21,56,,66,66,21,13,4,5,0.2,0.2
2024-03-27T0800,2914A,106.7677,31.8794,巴中市,苏山坪,,21,16,19,11,11,66,,68,68,6,8,9,17,0.3,0.3
2024-03-27T0800,3182A,106.7656,31.8545,巴中市,丽阳花园,,42,42,39,25,23,9,,11,11,34,33,5,11,0.8,0.6
2024-03-27T0800,3183A,106.7418,31.8654,巴中市,圣泉水务公司,,,16,26,10,16,,,44,44,18,27,5,13,0.5,0.5
2024-03-27T0800,3616A,106.7616,31.8344,巴中市,市中心医院,,47,47,42,28,25,6,,4,4,26,34,5,12,0.7,0.7
2024-03-27T0800,2235A,122.7911,45.6077,白城市,洮北区环保局,细颗粒物(PM2.5),115,96,133,87,102,83,,89,89,15,19,3,7,0.5,0.7
2024-03-27T0800,2236A,122.8738,45.5725,白城市,市环保局,细颗粒物(PM2.5),124,117,81,94,59,55,,55,55,22,24,6,7,0.7,0.6
2024-03-27T0800,2231A,126.4219,41.9171,白山市,喜丰,颗粒物(PM10),64,78,49,30,15,21,,23,23,39,25,28,15,1.1,0.9
2024-03-27T0800,2232A,126.4077,41.9419,白山市,环保局,颗粒物(PM10),60,69,51,22,16,32,,24,24,29,20,13,11,0.9,0.8
2024-03-27T0800,2647A,104.1724,36.5446,白银市,第三小学,,46,46,38,12,17,84,,70,70,7,16,8,26,0.4,0.7
2024-03-27T0800,2648A,104.1465,36.5482,白银市,动力公司,,32,32,32,10,15,90,,83,83,8,14,7,11,0.3,0.4
2024-03-27T0800,2512A,106.6103,23.9011,百色市,市监测站,细颗粒物(PM2.5),73,86,80,53,41,44,,56,56,22,15,20,15,0.9,0.8
2024-03-27T0800,2513A,106.6538,23.8859,百色市,市中心血站,细颗粒物(PM2.5),93,91,72,69,49,32,,58,58,31,15,17,12,0.9,0.7
2024-03-27T0800,3406A,106.6085,23.8798,百色市,祈福高中,细颗粒物(PM2.5),98,110,78,73,55,20,,44,44,35,18,11,15,0.8,0.8
2024-03-27T0800,2270A,117.396,32.939,蚌埠市,工人疗养院,细颗粒物(PM2.5),87,84,68,64,49,56,,62,62,15,14,6,6,0.6,0.5
2024-03-27T0800,2271A,117.3605,32.9427,蚌埠市,百货大楼,,,80,67,,48,58,,69,69,18,16,3,3,0.7,0.6
2024-03-27T0800,2273A,117.4185,32.8911,蚌埠市,蚌埠学院,细颗粒物(PM2.5),90,,52,67,47,56,,62,62,20,16,4,3,0.6,0.5
2024-03-27T0800,2274A,117.3533,32.9673,蚌埠市,淮上区政府,细颗粒物(PM2.5),88,66,59,65,54,56,,59,59,19,18,6,6,0.5,0.5
2024-03-27T0800,2275A,117.3145,32.8977,蚌埠市,高新区,细颗粒物(PM2.5),85,,48,63,48,61,,73,73,18,15,4,4,0.6,0.6
2024-03-27T0800,3715A,117.3092,32.9314,蚌埠市,蚌埠田家炳中学,细颗粒物(PM2.5),80,79,64,59,45,58,,75,75,21,15,5,4,0.6,0.5
2024-03-27T0800,1585A,109.8756,40.6532,包头市,市环境监测站,颗粒物(PM10),75,100,99,20,24,97,,89,89,10,23,9,16,0.1,0.4
2024-03-27T0800,1587A,109.9991,40.5842,包头市,包头八中,颗粒物(PM10),80,110,101,30,25,96,,84,84,11,25,11,13,0.5,0.6
2024-03-27T0800,1588A,109.8538,40.6821,包头市,青山宾馆,颗粒物(PM10),78,105,97,24,24,91,,82,82,11,23,11,15,0.6,0.8
2024-03-27T0800,1589A,109.8642,40.6288,包头市,惠龙物流,颗粒物(PM10),82,113,99,28,27,94,,80,80,12,26,8,18,0.5,0.8
2024-03-27T0800,1590A,110.0377,40.5546,包头市,东河鸿龙湾,颗粒物(PM10),74,97,85,18,22,94,,78,78,11,19,9,12,0.6,0.7
2024-03-27T0800,3283A,109.9154,40.5685,包头市,滨河大厦,颗粒物(PM10),81,111,86,18,22,98,,79,79,9,18,8,14,0.6,0.7
2024-03-27T0800,3419A,109.9447,40.6261,包头市,包头市委党校,颗粒物(PM10),75,100,92,24,27,95,,86,86,14,27,11,14,0.8,1
2024-03-27T0800,3683A,109.8331,40.6576,包头市,昆区政府,颗粒物(PM10),74,98,98,28,28,95,,85,85,12,30,8,19,0.5,0.9
2024-03-27T0800,1930A,107.185,34.3063,宝鸡市,庙沟村,,29,29,61,14,38,33,,34,34,16,22,8,9,0.5,0.6
2024-03-27T0800,1931A,107.0708,34.3017,宝鸡市,竹园沟,,28,27,52,19,42,18,,22,22,23,20,3,4,0.4,0.4
2024-03-27T0800,1932A,107.1906,34.3672,宝鸡市,三陆医院,细颗粒物(PM2.5),94,96,88,70,70,12,,13,13,36,40,12,8,0.9,0.8
2024-03-27T0800,1933A,107.1431,34.3547,宝鸡市,监测站,细颗粒物(PM2.5),73,63,69,53,61,7,,16,16,32,32,6,7,0.8,0.6
2024-03-27T0800,1934A,107.1186,34.3739,宝鸡市,技工学校,细颗粒物(PM2.5),90,,83,67,63,9,,24,24,26,28,7,6,0.8,0.7
2024-03-27T0800,1935A,107.3906,34.3528,宝鸡市,陈仓区环保局家属楼,细颗粒物(PM2.5),102,104,84,76,71,24,,26,26,35,38,14,10,1.0,0.7
2024-03-27T0800,1936A,107.2058,34.3497,宝鸡市,文理学院,细颗粒物(PM2.5),74,62,84,54,54,6,,12,12,29,35,6,7,0.6,0.5
2024-03-27T0800,1937A,107.2386,34.3622,宝鸡市,三迪小学,细颗粒物(PM2.5),84,85,90,62,68,6,,11,11,39,48,7,7,0.8,0.8
2024-03-27T0800,1051A,115.493,38.8632,保定市,游泳馆,,,,,,,,,,,,,,,,
2024-03-27T0800,1052A,115.5213,38.8959,保定市,华电二区,细颗粒物(PM2.5),166,131,106,126,85,9,,7,7,42,29,5,6,0.9,0.8
2024-03-27T0800,1053A,115.4713,38.9108,保定市,接待中心,细颗粒物(PM2.5),153,133,122,117,92,4,,2,2,42,27,2,4,0.7,0.7
2024-03-27T0800,1054A,115.4612,38.8416,保定市,地表水厂,细颗粒物(PM2.5),145,157,135,111,87,11,,11,11,45,30,6,8,1.4,1.2
2024-03-27T0800,3581A,115.31981,38.95208,保定市,满城区生态环境分局,细颗粒物(PM2.5),156,151,125,119,93,10,,11,11,35,25,3,6,0.7,0.6
2024-03-27T0800,3582A,115.47694,38.76408,保定市,清苑区第二中学,细颗粒物(PM2.5),134,156,116,102,80,7,,8,8,49,32,7,7,0.8,0.6
2024-03-27T0800,3583A,115.62909,39.02311,保定市,徐水物探局,细颗粒物(PM2.5),134,144,124,102,80,4,,2,2,45,34,6,7,0.8,0.7
2024-03-27T0800,4004A,115.4202,38.8656,保定市,双鹰农机,细颗粒物(PM2.5),133,139,104,101,74,7,,7,7,43,28,6,7,1.0,0.8
2024-03-27T0800,4034A,115.5150,38.8590,保定市,植保所站,细颗粒物(PM2.5),149,145,115,114,92,10,,8,8,42,30,3,6,1.0,0.8
2024-03-27T0800,2594A,99.1678,25.1081,保山市,市环境监测站,颗粒物(PM10),57,63,54,38,31,60,,68,68,17,11,6,7,0.9,0.8
2024-03-27T0800,2595A,99.1711,25.1328,保山市,市环保局,,,54,55,35,29,70,,74,74,8,7,6,6,,0.4
2024-03-27T0800,1866A,109.2262,21.588,北海市,牛尾岭水库,,,,,,,,,,,,,,,,
2024-03-27T0800,1867A,109.1436,21.4086,北海市,海滩公园,,32,31,36,22,24,30,,32,32,8,10,8,8,0.5,0.6
2024-03-27T0800,1868A,109.0981,21.4661,北海市,新市环保局,细颗粒物(PM2.5),52,36,39,36,27,33,,36,36,9,9,7,8,0.5,0.5
2024-03-27T0800,1869A,109.1778,21.5233,北海市,北海工业园,,,,50,22,28,32,,,,8,9,8,8,0.3,0.4
2024-03-27T0800,3400A,109.1911,21.4415,北海市,龙潭自来水厂,,45,34,35,31,27,31,,33,33,6,4,9,9,0.4,0.4
2024-03-27T0800,1001A,116.3621,39.8784,北京市,万寿西宫,细颗粒物(PM2.5),129,125,120,98,95,6,,12,12,64,44,1,2,1.2,0.9
2024-03-27T0800,1002A,116.2202,40.2915,北京市,定陵,,,,,,,,,,,,,,,,
2024-03-27T0800,1003A,116.4174,39.9289,北京市,东四,细颗粒物(PM2.5),122,125,124,92,94,12,,16,16,56,43,3,2,1.3,1
2024-03-27T0800,1004A,116.4072,39.8863,北京市,天坛,细颗粒物(PM2.5),124,113,116,94,95,10,,7,7,60,39,1,1,1.2,0.8
2024-03-27T0800,1005A,116.462,39.9365,北京市,农展馆,细颗粒物(PM2.5),120,116,117,91,92,26,,13,13,60,51,1,3,1.1,0.8
2024-03-27T0800,1006A,116.3392,39.9295,北京市,官园,细颗粒物(PM2.5),125,123,124,95,95,24,,16,16,47,42,4,3,1.1,0.9
2024-03-27T0800,1007A,116.2878,39.9611,北京市,海淀万柳,细颗粒物(PM2.5),129,129,128,98,95,14,,11,11,63,47,3,2,1.2,0.9
2024-03-27T0800,1008A,116.6636,40.135,北京市,顺义新城,细颗粒物(PM2.5),115,120,115,87,84,32,,21,21,42,39,2,3,1.1,0.7
2024-03-27T0800,1009A,116.6275,40.3275,北京市,怀柔镇,细颗粒物(PM2.5),128,119,112,97,87,30,,35,35,37,32,2,2,1.1,0.7
2024-03-27T0800,1010A,116.2296,40.217,北京市,昌平镇,细颗粒物(PM2.5),125,126,137,95,94,26,,17,17,41,48,1,2,1.1,0.7
2024-03-27T0800,1011A,116.3966,39.9821,北京市,奥体中心,细颗粒物(PM2.5),123,125,117,93,91,18,,6,6,51,47,3,2,1.2,0.8
2024-03-27T0800,1012A,116.184,39.9136,北京市,古城,细颗粒物(PM2.5),134,135,127,102,91,6,,2,2,71,53,1,3,1.1,0.9
2024-03-27T0800,3281A,115.9718,40.4529,北京市,延庆夏都,细颗粒物(PM2.5),150,145,108,115,90,46,,50,50,20,24,3,3,0.8,0.7
2024-03-27T0800,3417A,117.0709,40.1465,北京市,平谷新城,细颗粒物(PM2.5),127,120,103,96,83,41,,67,67,36,26,2,3,1.0,0.8
2024-03-27T0800,3418A,116.8336,40.4095,北京市,密云新城,细颗粒物(PM2.5),140,137,111,107,83,3,,5,5,57,34,1,3,0.8,0.7
2024-03-27T0800,3671A,116.088,39.9726,北京市,门头沟三家店,,,,,,,,,,,,,,,,
2024-03-27T0800,3672A,116.1541,39.8204,北京市,丰台云岗,细颗粒物(PM2.5),122,123,123,92,90,2,,4,4,59,40,1,3,1.0,0.7
2024-03-27T0800,3673A,116.6804,39.9081,北京市,通州东关,细颗粒物(PM2.5),123,130,118,93,91,12,,30,30,57,36,3,2,1.2,0.9
2024-03-27T0800,3674A,115.9577,39.7603,北京市,房山燕山,细颗粒物(PM2.5),140,127,123,107,98,13,,12,12,43,36,1,2,0.8,0.8
2024-03-27T0800,3675A,116.4672,39.7733,北京市,大兴旧宫,细颗粒物(PM2.5),124,112,111,94,94,17,,15,15,44,41,1,2,1.1,0.9
2024-03-27T0800,3694A,115.986,40.4563,北京市,延庆石河营,细颗粒物(PM2.5),148,134,104,113,90,43,,44,44,21,25,3,3,0.8,0.7
2024-03-27T0800,3695A,116.6151,40.3053,北京市,怀柔新城,细颗粒物(PM2.5),127,118,112,96,89,27,,33,33,41,32,3,3,1.1,0.7
2024-03-27T0800,3696A,116.2545,39.8768,北京市,丰台小屯,细颗粒物(PM2.5),127,123,123,96,94,7,,13,13,58,42,1,3,1.0,0.6
2024-03-27T0800,3697A,116.84,40.3844,北京市,密云镇,细颗粒物(PM2.5),134,124,108,102,87,4,,2,2,50,37,3,3,1.0,0.7
2024-03-27T0800,1761A,123.8275,41.3064,本溪市,大峪,颗粒物(PM10),55,60,95,35,59,91,,83,83,18,33,9,19,0.8,1.6
2024-03-27T0800,1762A,123.7567,41.3325,本溪市,溪湖,颗粒物(PM10),58,65,96,36,62,97,,88,88,20,28,11,15,0.8,1.1
2024-03-27T0800,1763A,123.7169,41.3094,本溪市,彩屯,细颗粒物(PM2.5),73,83,104,53,73,69,,61,61,43,43,32,24,3.1,2.1
2024-03-27T0800,1764A,123.7669,41.2864,本溪市,东明,颗粒物(PM10),56,61,95,35,67,102,,92,92,17,36,6,22,0.4,1.3
2024-03-27T0800,1765A,123.7992,41.2664,本溪市,新立屯,细颗粒物(PM2.5),59,52,80,42,75,111,,100,100,12,39,10,20,0.3,1.1
2024-03-27T0800,1766A,123.8142,41.3472,本溪市,威宁,颗粒物(PM10),63,75,115,42,65,75,,61,61,23,37,8,10,0.5,0.9
2024-03-27T0800,2587A,105.2864,27.3125,毕节市,八中,颗粒物(PM10),65,80,64,43,44,104,,90,90,10,12,7,11,0.6,0.6
2024-03-27T0800,2588A,105.31,27.2944,毕节市,师专,"颗粒物(PM10),细颗粒物(PM2.5)",62,74,66,44,45,101,,91,91,12,14,8,13,0.5,0.5
2024-03-27T0800,3537A,105.3631,27.3533,毕节市,长征村,细颗粒物(PM2.5),94,101,86,70,65,118,,104,104,15,13,9,11,0.7,0.7
2024-03-27T0800,1629A,118.0018,37.3617,滨州市,第二水厂,颗粒物(PM10),64,78,72,44,45,52,,67,67,37,31,8,9,0.8,0.7
2024-03-27T0800,1630A,117.9776,37.393,滨州市,北中新校,颗粒物(PM10),59,68,78,34,43,59,,68,68,33,33,10,12,0.7,0.7
2024-03-27T0800,3514A,117.9378,37.3956,滨州市,中海酒店,细颗粒物(PM2.5),58,58,71,41,52,68,,74,74,30,29,12,15,0.9,0.8
2024-03-27T0800,3515A,117.9378,37.3553,滨州市,开发区一中,颗粒物(PM10),56,61,78,34,46,55,,60,60,37,36,15,17,0.6,0.6
2024-03-27T0800,3516A,118.0917,37.694,滨州市,金海六路,细颗粒物(PM2.5),104,115,83,78,55,30,,35,35,47,35,22,14,0.9,0.7
2024-03-27T0800,4028A,117.9956,37.3753,滨州市,滨州市西街道办事处,细颗粒物(PM2.5),70,70,71,51,51,57,,70,70,30,28,13,14,0.9,0.9
2024-03-27T0800,2311A,115.8072,33.8399,亳州市,污水处理厂,细颗粒物(PM2.5),60,60,43,43,29,61,,71,71,15,12,9,8,0.6,0.5
2024-03-27T0800,2312A,115.7789,33.8518,亳州市,三国揽胜宫,细颗粒物(PM2.5),55,54,46,39,24,58,,72,72,16,12,8,7,0.4,0.4
2024-03-27T0800,3332A,115.7633,33.8034,亳州市,亳州学院,细颗粒物(PM2.5),72,67,48,52,34,59,,72,72,13,10,8,8,0.7,0.6
2024-03-27T0800,2693A,82.0485,44.8556,博尔塔拉蒙古自治州,市党校,,20,16,25,13,11,61,,61,61,6,8,10,9,0.3,0.4
2024-03-27T0800,2694A,82.0806,44.8969,博尔塔拉蒙古自治州,市环保局,,20,20,30,9,14,48,,57,57,20,16,7,8,0.5,0.4
2024-03-27T0800,1071A,116.8842,38.2991,沧州市,沧县城建局,细颗粒物(PM2.5),58,58,65,41,45,57,,66,66,18,17,8,7,0.7,0.7
2024-03-27T0800,1072A,116.8584,38.3254,沧州市,电视转播站,细颗粒物(PM2.5),67,62,65,48,50,55,,61,61,16,13,7,11,0.7,0.7
2024-03-27T0800,1073A,116.8709,38.3228,沧州市,市环保局,细颗粒物(PM2.5),65,60,64,47,48,57,,69,69,21,15,5,8,0.4,0.5
2024-03-27T0800,3324A,116.8136,38.3004,沧州市,河北水利电力学院,细颗粒物(PM2.5),68,61,61,49,51,48,,57,57,17,14,9,8,0.5,0.5
2024-03-27T0800,2622A,97.1806,31.1273,昌都市,昌都监测站,,24,,12,6,7,75,,77,77,4,6,7,6,0.3,0.4
2024-03-27T0800,3719A,97.1714,31.1406,昌都市,昌都会议中心,,25,,11,7,6,79,,84,84,1,3,8,7,0.6,0.4
2024-03-27T0800,2690A,88.1236,43.8886,昌吉回族自治州,天山天池,,21,,7,5,5,66,,63,63,4,5,5,6,0.5,0.5
2024-03-27T0800,2692A,87.2717,44.0297,昌吉回族自治州,新区政务中心,,44,44,28,28,18,9,,30,30,39,23,7,8,0.8,0.6
2024-03-27T0800,3613A,87.3095,44.0142,昌吉回族自治州,亚心广场,颗粒物(PM10),51,51,27,24,12,18,,30,30,39,25,6,6,0.9,0.7
2024-03-27T0800,1119A,125.3325,43.9166,长春市,食品厂,细颗粒物(PM2.5),109,103,65,82,46,69,,44,44,35,34,13,10,0.8,0.6
2024-03-27T0800,1120A,125.2863,43.9027,长春市,客车厂,细颗粒物(PM2.5),92,77,52,68,39,76,,64,64,29,35,11,8,0.9,0.6
2024-03-27T0800,1121A,125.2841,43.8463,长春市,邮电学院,细颗粒物(PM2.5),94,99,55,70,36,72,,52,52,33,28,13,10,0.8,0.5
2024-03-27T0800,1122A,125.3716,43.8772,长春市,劳动公园,细颗粒物(PM2.5),87,100,68,64,41,70,,35,35,37,37,10,12,0.7,0.5
2024-03-27T0800,1123A,125.3297,43.8805,长春市,园林处,细颗粒物(PM2.5),84,67,59,62,37,77,,61,61,29,32,12,12,0.7,0.5
2024-03-27T0800,1124A,125.4605,43.79,长春市,净月潭,细颗粒物(PM2.5),98,85,35,73,29,71,,73,73,17,8,11,7,0.7,0.4
2024-03-27T0800,1125A,125.7194,43.515,长春市,甩湾子,,,,,,,,,,,,,,,,
2024-03-27T0800,1126A,125.3863,43.8447,长春市,经开区环卫处,细颗粒物(PM2.5),83,88,56,61,32,65,,36,36,38,39,9,6,0.7,0.5
2024-03-27T0800,1127A,125.245,43.7783,长春市,高新区管委会,细颗粒物(PM2.5),103,98,72,77,54,63,,31,31,29,44,12,10,1.0,0.7
2024-03-27T0800,1128A,125.1761,43.8325,长春市,岱山公园,细颗粒物(PM2.5),110,86,63,83,47,62,,48,48,35,43,11,11,0.9,0.6
2024-03-27T0800,1335A,113.0833,28.2325,长沙市,经开区环保局,,40,40,43,19,22,92,,77,77,17,28,8,6,0.5,0.5
2024-03-27T0800,1336A,112.8872,28.2189,长沙市,高开区环保局,,40,40,40,26,25,90,,90,90,16,19,8,5,0.6,0.5
2024-03-27T0800,1337A,113.0792,28.2053,长沙市,马坡岭,,46,39,34,32,23,90,,85,85,8,12,9,7,0.6,0.6
2024-03-27T0800,1338A,112.9394,28.19,长沙市,湖南师范大学,,47,47,42,31,27,88,,92,92,17,21,7,3,0.8,0.8
2024-03-27T0800,1339A,113.0178,28.1322,长沙市,雨花区环保局,,41,41,34,23,20,89,,93,93,12,13,8,5,0.6,0.6
2024-03-27T0800,1340A,112.9792,28.2597,长沙市,伍家岭,,41,41,47,24,28,81,,45,45,28,34,8,6,0.9,0.8
2024-03-27T0800,1341A,113.0014,28.1944,长沙市,火车新站,,,39,37,27,25,,,98,98,16,19,7,5,0.6,0.6
2024-03-27T0800,1342A,112.9844,28.1178,长沙市,天心区环保局,,45,45,37,28,21,84,,92,92,12,13,6,4,0.6,0.6
2024-03-27T0800,1343A,112.8908,28.1308,长沙市,湖南中医药大学,,40,40,47,28,29,78,,65,65,21,33,7,5,1.0,0.9
2024-03-27T0800,1344A,112.9581,28.3611,长沙市,沙坪,,33,27,21,23,20,64,,80,80,13,9,6,6,0.6,0.6
2024-03-27T0800,1727A,113.1147,36.1547,长治市,清华站,颗粒物(PM10),56,62,43,27,18,47,,83,83,34,17,9,9,0.9,0.9
2024-03-27T0800,1728A,113.1031,36.1989,长治市,监测站,颗粒物(PM10),61,71,44,36,22,29,,73,73,54,22,11,11,1.1,0.7
2024-03-27T0800,1730A,113.0886,36.2125,长治市,审计局,颗粒物(PM10),57,64,37,31,21,21,,81,81,62,19,11,11,0.8,0.5
2024-03-27T0800,1731A,113.0844,36.1856,长治市,长治八中,颗粒物(PM10),67,83,48,19,22,29,,79,79,67,28,6,6,1.0,0.8
2024-03-27T0800,2845A,113.1569,36.1911,长治市,德盛苑,,30,21,34,9,19,94,,101,101,16,17,12,10,0.9,0.9
2024-03-27T0800,3568A,113.06,36.0464,长治市,向阳小学,颗粒物(PM10),58,66,58,33,27,77,,90,90,26,17,12,11,0.8,0.7
2024-03-27T0800,3569A,112.8792,36.3144,长治市,屯留一中,颗粒物(PM10),54,58,54,25,28,32,,56,56,30,18,7,7,0.5,0.6
2024-03-27T0800,3570A,113.235,36.3489,长治市,潞城四中,颗粒物(PM10),61,72,61,32,26,37,,29,29,45,31,13,9,1.1,0.6
2024-03-27T0800,1854A,111.6975,28.9703,常德市,市二中,,36,36,36,22,22,65,,76,76,17,17,7,7,0.6,0.6
2024-03-27T0800,1857A,111.7158,29.1456,常德市,白鹤山,,28,28,35,17,24,43,,52,52,1,2,5,6,0.6,0.6
2024-03-27T0800,3138A,111.7153,29.0289,常德市,武陵区永安,,33,33,32,22,20,88,,85,85,17,14,7,7,0.5,0.5
2024-03-27T0800,3139A,111.6892,28.9881,常德市,鼎城区玉霞,,44,44,38,22,21,80,,82,82,17,17,9,9,0.6,0.6
2024-03-27T0800,3140A,111.6625,29.0531,常德市,武陵区长庚,,32,32,34,22,23,66,,86,86,18,14,7,7,0.7,0.7
2024-03-27T0800,1196A,119.9633,31.762,常州市,市监测站,细颗粒物(PM2.5),79,87,73,58,47,56,,27,27,33,45,8,7,0.5,0.6
2024-03-27T0800,1200A,119.9468,31.7069,常州市,武进监测站,颗粒物(PM10),64,77,66,42,41,60,,26,26,24,41,20,19,1.0,1.1
2024-03-27T0800,1201A,119.9255,31.9087,常州市,安家,颗粒物(PM10),91,132,89,59,45,33,,14,14,38,48,6,6,0.9,0.8
2024-03-27T0800,3002A,119.9805,31.8174,常州市,行政中心,细颗粒物(PM2.5),84,90,60,62,45,42,,22,22,38,43,9,9,0.5,0.5
2024-03-27T0800,3003A,120.0522,31.7748,常州市,经开区,细颗粒物(PM2.5),93,112,78,69,47,39,,15,15,40,57,7,6,0.4,0.4
2024-03-27T0800,3010A,119.9025,31.7964,常州市,钟楼,细颗粒物(PM2.5),69,75,66,50,46,61,,34,34,27,40,7,7,0.8,0.8
2024-03-27T0800,3429A,119.8598,31.7066,常州市,武进经发区,细颗粒物(PM2.5),72,70,60,52,46,64,,32,32,26,39,7,7,0.8,0.8
2024-03-27T0800,3430A,119.5826,31.7245,常州市,金坛城区,细颗粒物(PM2.5),55,48,51,39,41,73,,30,30,18,34,6,6,0.7,0.7
2024-03-27T0800,2220A,120.4318,41.5881,朝阳市,西梁,细颗粒物(PM2.5),78,84,72,57,54,89,,80,80,21,19,16,14,1.0,1
2024-03-27T0800,2221A,120.4521,41.5646,朝阳市,河畔小区,细颗粒物(PM2.5),80,82,78,59,63,94,,86,86,17,15,11,11,1.1,1.1
2024-03-27T0800,2222A,120.4176,41.5648,朝阳市,八里堡,细颗粒物(PM2.5),83,84,77,61,71,80,,75,75,27,21,13,16,1.1,1.1
2024-03-27T0800,2223A,120.3806,41.5969,朝阳市,农业园区,细颗粒物(PM2.5),103,106,71,77,59,77,,82,82,31,22,12,11,1.1,0.9
2024-03-27T0800,1705A,116.6367,23.6719,潮州市,西园路,颗粒物(PM10),58,65,41,33,26,80,,89,89,12,11,6,6,0.5,0.4
2024-03-27T0800,3026A,116.6183,23.6608,潮州市,市政府,细颗粒物(PM2.5),59,54,47,42,29,79,,94,94,18,14,9,7,0.7,0.7
2024-03-27T0800,4036A,116.6461,23.6761,潮州市,金山,颗粒物(PM10),60,69,39,27,21,73,,88,88,20,12,8,8,0.8,0.7
2024-03-27T0800,2472A,113.0073,25.9061,郴州市,马头岭,,29,29,33,8,11,12,,13,13,18,20,4,5,0.8,0.8
2024-03-27T0800,2473A,113.0116,25.8226,郴州市,市职中,,45,40,30,31,24,10,,15,15,24,19,8,7,0.8,0.6
2024-03-27T0800,2474A,113.0161,25.8001,郴州市,兴隆步行街,,46,43,37,32,25,23,,14,14,21,20,5,4,0.9,0.7
2024-03-27T0800,2475A,113.0383,25.8071,郴州市,市审计局,,39,38,32,27,24,10,,11,11,26,21,7,8,0.8,0.7
2024-03-27T0800,2476A,113.0348,25.7759,郴州市,市环保局,,50,46,37,35,26,9,,8,8,30,24,4,6,0.9,0.7
2024-03-27T0800,1431A,103.9728,30.7236,成都市,金泉两河,,42,42,38,26,17,16,,30,30,29,24,4,4,0.6,0.5
2024-03-27T0800,1432A,104.176,30.6872,成都市,十里店,颗粒物(PM10),58,66,42,24,20,0,,15,15,49,33,2,3,0.7,0.5
2024-03-27T0800,1433A,104.079,30.5706,成都市,三瓦窑,细颗粒物(PM2.5),55,52,46,39,21,9,,14,14,50,40,4,4,0.6,0.6
2024-03-27T0800,1434A,104.1114,30.63,成都市,沙河铺,颗粒物(PM10),51,52,45,21,23,2,,21,21,50,30,4,3,0.8,0.6
2024-03-27T0800,1437A,104.0786,30.6531,成都市,君平街,细颗粒物(PM2.5),55,57,36,39,20,8,,28,28,43,31,9,6,0.5,0.4
2024-03-27T0800,1438A,103.613,31.0283,成都市,灵岩寺,,28,28,16,19,12,69,,72,72,13,13,11,13,0.6,0.6
2024-03-27T0800,2880A,104.0239,30.65639,成都市,大石西路,细颗粒物(PM2.5),58,54,39,41,20,7,,30,30,42,27,5,4,0.6,0.5
2024-03-27T0800,3136A,104.2725,30.5589,成都市,龙泉驿区区政府,,44,44,40,29,22,25,,29,29,28,30,4,4,0.6,0.6
2024-03-27T0800,3357A,104.0106,30.6931,成都市,金博路,,48,48,39,25,18,2,,18,18,38,27,3,4,0.6,0.5
2024-03-27T0800,3359A,104.0578,30.5225,成都市,华阳,颗粒物(PM10),53,56,45,36,29,27,,25,25,37,34,4,3,0.5,0.6
2024-03-27T0800,3487A,104.2394,30.5319,成都市,车城东七路,细颗粒物(PM2.5),64,76,54,46,31,29,,28,28,34,35,5,5,0.7,0.6
2024-03-27T0800,3488A,104.3853,30.7453,成都市,青白江技师分院,,40,30,36,28,20,6,,9,9,56,42,9,5,0.7,0.5
2024-03-27T0800,3489A,104.0789,30.4072,成都市,科学城,细颗粒物(PM2.5),64,69,47,46,29,39,,27,27,26,34,4,5,0.6,0.6
2024-03-27T0800,4011A,103.8506,30.6947,成都市,光华大道三段,,46,46,35,20,18,24,,33,33,33,28,4,2,0.7,0.6
2024-03-27T0800,1062A,117.9531,40.9081,承德市,铁路,细颗粒物(PM2.5),109,121,92,82,62,12,,37,37,53,32,,8,,0.7
2024-03-27T0800,1063A,117.9392,40.9763,承德市,中国银行,细颗粒物(PM2.5),107,90,84,80,58,14,,22,22,38,28,8,9,0.8,0.7
2024-03-27T0800,1064A,117.9503,40.928,承德市,开发区,细颗粒物(PM2.5),99,110,86,74,60,9,,41,41,55,32,8,8,1.0,0.8
2024-03-27T0800,1065A,117.8051,40.9655,承德市,文化中心,细颗粒物(PM2.5),109,115,92,82,58,22,,32,32,38,26,6,9,0.8,0.7
2024-03-27T0800,1066A,117.9268,41.0026,承德市,离宫,细颗粒物(PM2.5),124,100,86,94,66,21,,29,29,18,16,4,4,0.7,0.6
2024-03-27T0800,2314A,117.47,30.6618,池州市,池州学院,,46,39,45,32,36,32,,46,46,18,16,3,4,0.9,0.7
2024-03-27T0800,3237A,117.4918,30.6617,池州市,展览馆,,46,43,40,32,32,24,,41,41,25,19,3,3,0.8,0.6
2024-03-27T0800,3333A,117.5627,30.695,池州市,第八中学,,37,37,39,25,28,30,,41,41,19,14,2,2,1.0,0.7
2024-03-27T0800,3334A,117.5038,30.6243,池州市,第十二中学,,35,31,37,24,28,13,,18,18,29,21,3,3,1.1,0.7
2024-03-27T0800,1744A,118.9233,42.2816,赤峰市,松山一中,颗粒物(PM10),86,122,93,58,46,67,,86,86,32,25,12,23,1.1,1
2024-03-27T0800,1745A,118.9576,42.2728,赤峰市,哈达街,颗粒物(PM10),87,123,90,58,43,57,,74,74,35,30,16,28,0.9,0.9
2024-03-27T0800,1746A,118.8788,42.2554,赤峰市,天义路,颗粒物(PM10),81,112,85,49,42,72,,84,84,26,26,6,16,0.8,0.7
2024-03-27T0800,3058A,119.2658,42.0353,赤峰市,银河街,细颗粒物(PM2.5),113,115,103,85,69,53,,56,56,35,24,21,21,1.2,1
2024-03-27T0800,3286A,118.9359,42.3147,赤峰市,桥北物流园区,细颗粒物(PM2.5),139,139,78,106,68,18,,68,68,63,32,16,21,1.3,1.1
2024-03-27T0800,2521A,107.3476,22.4136,崇左市,市环保局江州分局,细颗粒物(PM2.5),72,80,67,52,44,40,,44,44,19,12,9,9,0.9,0.8
2024-03-27T0800,2522A,107.3702,22.3707,崇左市,城南新区,细颗粒物(PM2.5),65,68,53,47,38,19,,37,37,28,12,6,7,0.8,0.8
2024-03-27T0800,2298A,118.3093,32.3153,滁州市,老年大学,细颗粒物(PM2.5),108,88,55,81,46,28,,25,25,50,31,10,8,0.9,0.6
2024-03-27T0800,2299A,118.3244,32.2786,滁州市,人大宾馆,细颗粒物(PM2.5),95,103,59,71,39,32,,30,30,38,26,6,5,1.0,0.7
2024-03-27T0800,3207A,118.3118,32.3038,滁州市,市政府原办公楼,细颗粒物(PM2.5),95,94,53,71,41,40,,35,35,46,26,7,5,0.9,0.6
2024-03-27T0800,3331A,118.3267,32.2634,滁州市,图书馆,细颗粒物(PM2.5),92,90,54,68,37,32,,29,29,45,28,8,6,1.1,0.7
2024-03-27T0800,2605A,101.5482,25.0441,楚雄彝族自治州,州环境监测站,细颗粒物(PM2.5),69,56,43,50,34,25,,40,40,47,22,10,8,0.8,0.6
2024-03-27T0800,2606A,101.538,25.0492,楚雄彝族自治州,市经济开发区,细颗粒物(PM2.5),57,53,46,40,32,31,,47,47,38,20,8,7,0.7,0.6
2024-03-27T0800,2548A,107.5277,31.2827,达州市,达州职业技术学院,,47,47,41,20,16,7,,6,6,47,38,8,9,0.9,0.8
2024-03-27T0800,2549A,107.5086,31.2186,达州市,市环境监测站,,36,36,36,12,12,6,,7,7,51,47,8,7,0.7,0.6
2024-03-27T0800,2550A,107.4988,31.2132,达州市,凤凰小区,,24,24,32,12,14,24,,14,14,39,41,6,6,0.8,0.8
2024-03-27T0800,2551A,107.5082,31.1986,达州市,达县机关宾馆,,41,41,33,19,17,24,,11,11,46,46,4,5,0.7,0.6
2024-03-27T0800,2552A,107.4644,31.2124,达州市,市政中心,,26,26,36,7,12,31,,13,13,40,45,6,6,0.6,0.6
2024-03-27T0800,2614A,100.1542,25.7054,大理白族自治州,大理市环境监测站,,27,15,25,7,25,85,,99,99,10,8,6,7,0.6,0.5
2024-03-27T0800,2615A,100.2171,25.5811,大理白族自治州,大理古城,,46,46,38,19,25,111,,132,132,10,7,7,7,0.6,0.6
2024-03-27T0800,1109A,121.612,38.9741,大连市,甘井子,细颗粒物(PM2.5),75,73,77,55,53,93,,79,79,35,34,6,6,0.9,0.9
2024-03-27T0800,1110A,121.565,38.9511,大连市,周水子,细颗粒物(PM2.5),74,69,75,54,56,88,,69,69,38,36,10,8,1.0,1
2024-03-27T0800,1111A,121.5637,38.8845,大连市,星海三站,细颗粒物(PM2.5),79,68,75,58,59,101,,68,68,22,31,5,8,0.7,0.9
2024-03-27T0800,1112A,121.6302,38.9117,大连市,青泥洼桥,细颗粒物(PM2.5),70,65,72,51,54,112,,94,94,15,30,11,13,1.0,1.1
2024-03-27T0800,1113A,121.6251,38.8638,大连市,傅家庄,细颗粒物(PM2.5),69,64,73,50,51,114,,82,82,18,30,10,12,0.9,1
2024-03-27T0800,1114A,121.5213,38.8661,大连市,七贤岭,细颗粒物(PM2.5),73,68,74,53,54,99,,70,70,23,27,12,12,0.9,1.1
2024-03-27T0800,1115A,121.2529,38.8061,大连市,旅顺,细颗粒物(PM2.5),72,62,70,52,56,93,,75,75,27,33,9,10,0.8,1.1
2024-03-27T0800,1116A,121.7485,39.1311,大连市,金州,细颗粒物(PM2.5),74,65,64,54,52,116,,106,106,18,22,12,13,1.2,1.2
2024-03-27T0800,1117A,121.7811,39.0496,大连市,开发区,细颗粒物(PM2.5),97,100,85,72,55,51,,44,44,52,49,6,11,0.9,1
2024-03-27T0800,1118A,121.9762,39.0631,大连市,双D港,细颗粒物(PM2.5),100,90,68,75,53,65,,33,33,31,35,9,10,0.9,0.9
2024-03-27T0800,1789A,124.81117,46.03138,大庆市,大同区,颗粒物(PM10),69,87,63,34,48,44,,58,58,23,20,10,9,0.7,0.5
2024-03-27T0800,1790A,125.129,46.533,大庆市,龙凤区,颗粒物(PM10),55,59,72,27,47,49,,60,60,37,27,14,13,0.6,0.5
2024-03-27T0800,1791A,124.902,46.408,大庆市,红岗区,,40,34,52,28,37,64,,66,66,12,14,8,6,0.5,0.5
2024-03-27T0800,1792A,125.153,46.586,大庆市,萨尔图区,细颗粒物(PM2.5),62,63,72,44,55,55,,68,68,29,26,24,18,0.6,0.5
2024-03-27T0800,1793A,124.9042,46.6215,大庆市,让胡路区,细颗粒物(PM2.5),54,,45,38,34,63,,73,73,18,20,10,10,0.4,0.4
2024-03-27T0800,3481A,125.141,46.634,大庆市,萨区政府监测点,细颗粒物(PM2.5),57,50,62,40,51,54,,70,70,31,23,15,16,0.5,0.4
2024-03-27T0800,1721A,113.3819,40.1097,大同市,果树场,,,,,,,,,,,,,,,,
2024-03-27T0800,1723A,113.2994,40.0758,大同市,云冈宾馆,颗粒物(PM10),65,79,63,40,32,21,,39,39,58,35,20,19,0.8,0.5
2024-03-27T0800,1724A,113.3444,40.0917,大同市,大同大学,颗粒物(PM10),60,69,68,33,28,13,,42,42,65,29,23,20,1.3,0.7
2024-03-27T0800,1725A,113.2661,40.1269,大同市,安家小村,颗粒物(PM10),69,87,80,46,28,42,,34,34,43,33,29,19,0.6,0.5
2024-03-27T0800,1726A,113.2711,40.0844,大同市,教育学院,颗粒物(PM10),87,123,90,45,32,5,,16,16,74,38,24,16,1.3,0.6
2024-03-27T0800,3282A,113.3397,40.0597,大同市,大同市卫生学校,颗粒物(PM10),64,77,80,33,30,16,,51,51,68,33,21,18,1.2,0.6
2024-03-27T0800,3565A,113.1367,40.1122,大同市,云冈站,颗粒物(PM10),60,69,52,26,20,15,,23,23,46,25,44,16,0.5,0.4
2024-03-27T0800,3566A,113.1186,40.2556,大同市,图书馆,,50,50,53,27,25,76,,62,62,14,18,16,35,0.6,0.6
2024-03-27T0800,3567A,113.5931,40.0461,大同市,区一中,颗粒物(PM10),53,55,62,20,24,63,,61,61,31,24,22,17,0.6,0.6
2024-03-27T0800,3676A,113.2802,40.0995,大同市,第二人民医院,颗粒物(PM10),86,121,83,61,31,22,,31,31,65,35,24,18,1.2,0.6
2024-03-27T0800,2269A,124.1069,50.4097,大兴安岭地区,科技局,细颗粒物(PM2.5),148,167,57,113,42,66,,68,68,16,12,11,11,0.7,0.5
2024-03-27T0800,3663A,124.1164,50.4278,大兴安岭地区,红旗社区,细颗粒物(PM2.5),159,156,50,121,39,52,,53,53,34,16,22,14,1.0,0.6
2024-03-27T0800,1600A,124.3303,40.0625,丹东市,江湾东路,细颗粒物(PM2.5),67,48,29,48,22,91,,87,87,24,14,10,16,0.7,0.5
2024-03-27T0800,1601A,124.4256,40.1503,丹东市,临江后街,细颗粒物(PM2.5),65,54,32,47,21,85,,82,82,15,9,13,12,1.2,0.7
2024-03-27T0800,1602A,124.3933,40.1461,丹东市,元宝山,细颗粒物(PM2.5),59,49,30,42,19,79,,78,78,19,12,8,9,0.9,0.6
2024-03-27T0800,1603A,124.3633,40.1092,丹东市,民主桥,细颗粒物(PM2.5),52,37,30,36,18,94,,82,82,14,11,9,11,0.6,0.5
2024-03-27T0800,3541A,109.5726,19.5167,儋州市,第一中学子站,,48,43,32,33,24,19,,26,26,10,5,11,9,0.6,0.5
2024-03-27T0800,3542A,109.5567,19.5187,儋州市,东坡学校子站,,48,44,35,33,24,20,,24,24,6,5,13,8,0.5,0.5
2024-03-27T0800,2616A,98.5842,24.428,德宏傣族景颇族自治州,德宏州监测站,细颗粒物(PM2.5),68,75,74,49,39,47,,48,48,21,22,8,6,0.8,0.8
2024-03-27T0800,3677A,98.5881,24.4368,德宏傣族景颇族自治州,芒市人民政府综合楼,细颗粒物(PM2.5),67,72,64,48,43,51,,61,61,17,18,6,6,0.9,0.8
2024-03-27T0800,1901A,104.4239,31.1208,德阳市,东山公园,,26,22,24,18,15,38,,39,39,19,24,2,2,0.5,0.5
2024-03-27T0800,1902A,104.3826,31.1317,德阳市,西小区,,36,36,35,22,19,12,,33,33,44,27,1,2,0.7,0.5
2024-03-27T0800,1904A,104.3553,31.1091,德阳市,耐火材料厂,,37,37,33,23,19,15,,29,29,33,24,5,6,0.5,0.4
2024-03-27T0800,3639A,104.4019,31.1244,德阳市,市教育局,,31,31,32,16,16,10,,36,36,44,25,2,2,0.7,0.5
2024-03-27T0800,1622A,116.3032,37.4674,德州市,儿童乐园,细颗粒物(PM2.5),62,63,71,44,49,64,,62,62,16,19,8,8,0.7,0.7
2024-03-27T0800,1624A,116.2991,37.4451,德州市,监理站,细颗粒物(PM2.5),62,58,66,44,49,71,,73,73,14,15,8,8,0.6,0.6
2024-03-27T0800,3066A,116.2721,37.4379,德州市,九衢泉纯净水厂,细颗粒物(PM2.5),58,63,72,41,42,71,,73,73,15,17,6,6,0.7,0.8
2024-03-27T0800,3371A,116.3728,37.4403,德州市,开发区人民医院,细颗粒物(PM2.5),64,66,71,46,44,58,,69,69,12,11,10,9,0.6,0.6
2024-03-27T0800,3372A,116.3572,37.4094,德州市,太阳城中学,细颗粒物(PM2.5),70,61,64,51,48,60,,68,68,15,14,8,7,0.7,0.7
2024-03-27T0800,3511A,116.5652,37.3319,德州市,陵城艺术中心,细颗粒物(PM2.5),73,68,58,53,42,64,,68,68,12,11,6,7,0.8,0.8
2024-03-27T0800,2621A,99.7056,27.8317,迪庆藏族自治州,迪庆州站,,35,13,18,13,17,112,,113,113,11,11,9,8,0.3,0.3
2024-03-27T0800,3180A,99.7136,27.8094,迪庆藏族自治州,质量技术监督局,,32,14,26,5,8,100,,102,102,8,8,6,6,0.4,0.4
2024-03-27T0800,2663A,104.6241,35.5734,定西市,东关小学,,47,47,38,28,22,57,,27,27,29,18,14,10,0.4,0.4
2024-03-27T0800,2664A,104.6194,35.5934,定西市,供电公司,,50,45,29,35,28,57,,20,20,24,23,11,11,0.2,0.3
2024-03-27T0800,1389A,113.7547,23.0494,东莞市,莞城梨川,,32,32,52,13,30,98,,103,103,10,20,7,8,0.7,0.7
2024-03-27T0800,1390A,113.7944,23.0128,东莞市,东城石井,,30,23,45,14,30,93,,99,99,12,18,7,8,0.7,0.7
2024-03-27T0800,1391A,113.7383,22.9658,东莞市,南城西平,,25,22,53,13,30,77,,86,86,23,23,11,7,0.8,0.8
2024-03-27T0800,3319A,113.7338,23.0381,东莞市,万江金泰,,29,22,59,12,31,90,,97,97,11,20,10,12,0.8,0.8
2024-03-27T0800,3626A,113.7533,23.0202,东莞市,南城元岭,,28,20,53,11,29,89,,94,94,12,22,8,10,0.7,0.8
2024-03-27T0800,3627A,113.7875,23.0457,东莞市,东城主山,,28,23,46,15,28,87,,98,98,13,17,7,8,0.7,0.7
2024-03-27T0800,1666A,118.6614,37.4309,东营市,市环保局,细颗粒物(PM2.5),77,75,74,56,48,62,,57,57,31,31,21,14,0.9,0.6
2024-03-27T0800,3036A,118.6904,37.4338,东营市,开发区管委会,细颗粒物(PM2.5),70,56,66,51,49,60,,63,63,29,30,6,11,0.8,0.7
2024-03-27T0800,3365A,118.5719,37.565,东营市,垦利区民丰路,细颗粒物(PM2.5),77,88,69,56,45,40,,55,55,43,35,24,16,1.2,1
2024-03-27T0800,3498A,118.5055,37.8612,东营市,河口城区,细颗粒物(PM2.5),102,100,78,76,61,24,,39,39,51,24,7,8,1.3,1
2024-03-27T0800,3646A,118.4978,37.4623,东营市,胜利站,细颗粒物(PM2.5),70,80,83,51,48,38,,49,49,43,34,11,14,0.9,0.8
2024-03-27T0800,3734A,118.35,37.26,东营市,理想之城,细颗粒物(PM2.5),77,88,79,56,48,37,,41,41,35,33,11,12,0.9,0.8
2024-03-27T0800,1591A,110.0023,39.8129,鄂尔多斯市,综合楼,颗粒物(PM10),159,268,65,46,15,83,,91,91,14,21,2,6,0.4,0.5
2024-03-27T0800,1592A,109.9486,39.8261,鄂尔多斯市,巴音孟克林场办事处,颗粒物(PM10),150,249,59,56,19,83,,89,89,9,14,8,11,0.5,0.5
2024-03-27T0800,1593A,109.7736,39.5986,鄂尔多斯市,康泽苑,颗粒物(PM10),189,327,63,61,18,90,,88,88,13,18,5,8,0.5,0.4
2024-03-27T0800,1594A,109.8119,39.5989,鄂尔多斯市,华泰汽车城,颗粒物(PM10),165,280,55,56,22,88,,86,86,10,16,6,7,0.4,0.4
2024-03-27T0800,1595A,109.9734,39.7884,鄂尔多斯市,奥林花园,颗粒物(PM10),157,263,67,58,19,80,,79,79,16,23,7,9,0.4,0.5
2024-03-27T0800,2436A,114.8938,30.3994,鄂州市,市政府,,46,46,38,30,28,61,,69,69,30,23,11,12,0.6,0.6
2024-03-27T0800,2437A,114.8989,30.3714,鄂州市,赵家坝,,41,41,35,27,28,60,,73,73,31,18,10,8,1.2,0.9
2024-03-27T0800,3654A,114.8094,30.4089,鄂州市,精准医疗中心,颗粒物(PM10),55,59,65,35,30,51,,65,65,39,25,6,17,0.8,1.6
2024-03-27T0800,2454A,109.4978,30.2981,恩施土家族苗族自治州,湖北民院,,31,31,34,14,13,41,,30,30,22,25,8,8,0.6,1.1
2024-03-27T0800,2455A,109.4707,30.2798,恩施土家族苗族自治州,州电力总公司,,25,19,19,17,13,18,,26,26,21,18,7,8,1.0,1
2024-03-27T0800,3549A,109.5061,30.3772,恩施土家族苗族自治州,龙凤新区,,13,13,16,9,11,12,,22,22,16,15,6,7,0.7,0.7
2024-03-27T0800,2499A,108.3411,21.6158,防城港市,沙万,颗粒物(PM10),61,71,60,35,36,7,,10,10,32,31,5,6,0.5,0.5
2024-03-27T0800,2500A,108.3514,21.7731,防城港市,防城档案局,颗粒物(PM10),55,59,73,33,44,10,,7,7,25,22,11,10,0.6,0.7
2024-03-27T0800,2501A,108.3506,21.6414,防城港市,大海花园,,46,46,49,29,31,16,,20,20,20,18,4,6,0.5,0.6
2024-03-27T0800,1371A,113.1294,23.0067,佛山市,湾梁,,31,31,54,17,25,85,,68,68,16,27,8,9,0.6,0.7
2024-03-27T0800,1372A,113.1083,23.0478,佛山市,华材职中,,29,27,55,20,29,87,,68,68,12,30,6,8,0.5,0.6
2024-03-27T0800,1373A,113.144,23.0453,佛山市,南海气象局,,38,,52,26,31,78,,65,65,19,31,8,9,0.6,0.7
2024-03-27T0800,1374A,113.2881,22.8094,佛山市,顺德苏岗,,25,18,46,14,29,78,,85,85,16,22,4,5,0.7,0.7
2024-03-27T0800,1376A,112.8383,22.8678,佛山市,高明孔堂,,35,24,49,24,25,86,,105,105,13,19,4,6,0.9,0.9
2024-03-27T0800,1377A,112.8836,23.1588,佛山市,三水监测站,,44,44,50,27,31,44,,16,16,38,36,5,8,0.7,0.8
2024-03-27T0800,1378A,112.867,23.185,佛山市,三水云东海,细颗粒物(PM2.5),58,53,33,41,26,62,,30,30,31,24,5,6,0.5,0.6
2024-03-27T0800,3625A,113.2544,22.7642,佛山市,容桂街道办,,22,19,49,14,27,70,,78,78,19,28,6,7,0.6,0.7
2024-03-27T0800,1280A,119.3903,26.0543,福州市,鼓山,,,,,,,,,,,,,,,,
2024-03-27T0800,1282A,119.2681,26.0504,福州市,师大,,33,31,27,19,18,103,,114,114,17,12,3,3,0.4,0.4
2024-03-27T0800,1283A,119.2984,26.1028,福州市,五四北路,,35,31,21,24,17,99,,111,111,16,11,4,3,0.6,0.6
2024-03-27T0800,1284A,119.2648,26.0768,福州市,杨桥西路,,34,30,27,19,15,106,,117,117,11,10,4,3,0.4,0.4
2024-03-27T0800,1285A,119.317,26.0746,福州市,紫阳,,32,32,27,21,17,102,,115,115,13,10,4,3,0.5,0.5
2024-03-27T0800,3048A,119.5799,26.0936,福州市,九龙,,36,29,23,16,11,114,,115,115,13,12,5,3,0.4,0.5
2024-03-27T0800,3526A,119.5189,25.9664,福州市,吴航,,34,32,31,22,17,108,,116,116,13,10,5,3,0.5,0.5
2024-03-27T0800,1755A,123.7977,41.8491,抚顺市,望花区,细颗粒物(PM2.5),77,77,108,56,74,75,,71,71,33,38,32,27,0.7,1.2
2024-03-27T0800,1756A,123.9161,41.8822,抚顺市,顺城区,细颗粒物(PM2.5),72,61,103,52,66,91,,64,64,25,39,7,13,0.7,0.9
2024-03-27T0800,1757A,124.0436,41.8611,抚顺市,东洲区,细颗粒物(PM2.5),70,55,86,51,58,96,,79,79,10,20,11,14,0.6,0.9
2024-03-27T0800,1758A,123.9247,41.8642,抚顺市,新抚区,细颗粒物(PM2.5),83,71,109,61,74,88,,55,55,24,34,9,13,0.8,0.9
2024-03-27T0800,1759A,124.0972,41.8961,抚顺市,大伙房水库,细颗粒物(PM2.5),62,47,77,44,58,110,,74,74,8,20,5,10,0.6,0.8
2024-03-27T0800,1760A,123.7086,41.8391,抚顺市,沈抚新城,细颗粒物(PM2.5),68,65,100,49,70,89,,69,69,17,33,6,10,0.6,0.9
2024-03-27T0800,2376A,116.2127,28.0814,抚州市,桐源党溪,,29,29,25,14,12,22,,29,29,18,10,10,4,0.8,0.5
2024-03-27T0800,2377A,116.3544,27.9831,抚州市,市站,,33,32,26,23,15,54,,48,48,14,12,1,2,0.8,0.6
2024-03-27T0800,2378A,116.3565,27.963,抚州市,血防站,,36,36,30,23,14,47,,46,46,24,16,2,3,0.7,0.5
2024-03-27T0800,2379A,116.3564,28.0007,抚州市,采茶剧团,,40,34,27,28,17,49,,50,50,22,17,8,6,0.8,0.7
2024-03-27T0800,2380A,116.385,27.9647,抚州市,医学分院,,36,36,27,23,13,41,,41,41,24,18,16,9,0.8,0.7
2024-03-27T0800,2207A,121.6094,41.998,阜新市,工业园区,颗粒物(PM10),88,125,85,50,56,90,,79,79,29,25,20,23,1.0,0.9
2024-03-27T0800,2208A,121.6697,42.0279,阜新市,长青街,颗粒物(PM10),90,130,93,57,69,90,,78,78,24,24,16,23,0.8,0.8
2024-03-27T0800,2209A,121.6673,42.0705,阜新市,农业园区,颗粒物(PM10),92,134,92,53,56,93,,79,79,19,19,16,20,0.6,0.7
2024-03-27T0800,2210A,121.6717,42.0224,阜新市,东苑,细颗粒物(PM2.5),77,90,80,56,59,83,,74,74,31,30,20,28,1.2,1.1
2024-03-27T0800,2211A,121.6506,42.0498,阜新市,玉龙新城,颗粒物(PM10),71,92,75,33,50,87,,75,75,28,24,19,22,0.9,0.9
2024-03-27T0800,2301A,115.8277,32.8929,阜阳市,市监测站,细颗粒物(PM2.5),80,74,54,59,41,62,,63,63,16,14,6,6,0.7,0.6
2024-03-27T0800,2303A,115.8554,32.8605,阜阳市,开发区,细颗粒物(PM2.5),89,74,63,66,45,67,,72,72,18,16,4,5,0.5,0.5
2024-03-27T0800,2875A,115.784,32.8892,阜阳市,阜阳职业技术学院,细颗粒物(PM2.5),65,57,56,47,38,73,,83,83,13,12,4,4,0.8,0.6
2024-03-27T0800,3468A,115.7901,32.8613,阜阳市,市规划展馆,细颗粒物(PM2.5),74,,43,54,36,68,,76,76,21,18,5,5,0.6,0.5
2024-03-27T0800,3469A,115.836,32.9183,阜阳市,枣园社区,细颗粒物(PM2.5),83,,39,61,38,67,,71,71,15,14,6,7,0.5,0.4
2024-03-27T0800,2669A,102.9099,34.9841,甘南藏族自治州,州政府,,44,44,37,29,26,9,,8,8,34,29,11,11,0.9,0.6
2024-03-27T0800,3380A,102.8914,34.9617,甘南藏族自治州,甘肃民族师范学院,颗粒物(PM10),51,52,32,30,14,6,,6,6,36,28,9,11,1.0,0.7
2024-03-27T0800,2570A,101.9603,30.0475,甘孜藏族自治州,水桥子,,19,15,14,13,7,53,,54,54,20,14,11,11,0.4,0.3
2024-03-27T0800,3065A,101.9533,29.9972,甘孜藏族自治州,州环保局,,24,24,19,6,6,62,,54,54,14,17,8,8,0.3,0.3
2024-03-27T0800,3414A,115.8347,28.932,赣江新区,桑海产业园,颗粒物(PM10),62,73,41,38,24,10,,10,10,62,39,6,5,0.6,0.4
2024-03-27T0800,2362A,114.9017,25.9149,赣州市,通天岩,,,,,,,,,,,,,,,,
2024-03-27T0800,2363A,114.9367,25.8664,赣州市,地委,,38,38,27,23,17,20,,36,36,18,6,29,8,0.8,0.8
2024-03-27T0800,2364A,114.9461,25.8481,赣州市,气象台,,45,38,25,31,19,18,,47,47,37,19,22,8,0.6,0.6
2024-03-27T0800,2365A,114.9322,25.8333,赣州市,市图书馆,,29,29,28,19,17,15,,44,44,31,15,10,11,0.8,0.7
2024-03-27T0800,2366A,114.8905,25.8471,赣州市,华坚鞋城,细颗粒物(PM2.5),60,,32,43,18,23,,35,35,21,11,10,9,0.5,0.5
2024-03-27T0800,3109A,115.0093,25.8613,赣州市,赣县区卫计委,,32,27,24,22,16,31,,26,26,12,13,32,11,0.7,0.6
2024-03-27T0800,2683A,106.2319,36.1417,固原市,马园,颗粒物(PM10),173,295,45,25,16,86,,66,66,9,22,3,3,0.5,0.7
2024-03-27T0800,2684A,106.2792,36.0022,固原市,监测站,颗粒物(PM10),194,338,60,37,17,85,,58,58,12,25,5,6,0.3,0.4
2024-03-27T0800,2685A,106.2375,36.0211,固原市,新区,颗粒物(PM10),157,264,41,38,14,84,,66,66,12,18,7,8,0.3,0.4
2024-03-27T0800,3522A,106.2177,35.9959,固原市,原州区十五小,颗粒物(PM10),96,142,32,26,12,101,,94,94,6,9,8,6,0.1,0.1
2024-03-27T0800,2543A,106.6308,30.5278,广安市,小平旧居,,,,,,,,,,,,,,,,
2024-03-27T0800,2544A,106.6303,30.4576,广安市,市委,,43,43,38,25,20,12,,36,36,41,23,6,5,1.1,0.8
2024-03-27T0800,2545A,106.6271,30.4663,广安市,友谊中学,颗粒物(PM10),54,58,37,29,18,12,,36,36,34,22,5,6,1.2,0.8
2024-03-27T0800,2547A,106.6388,30.4551,广安市,广电花园,颗粒物(PM10),53,56,36,23,19,13,,35,35,33,23,7,7,0.9,0.7
2024-03-27T0800,2902A,106.6351,30.4865,广安市,北辰小学,颗粒物(PM10),54,57,32,23,20,10,,39,39,33,17,8,9,0.9,0.8
2024-03-27T0800,2523A,105.8945,32.4535,广元市,黑石坡,,28,28,23,10,11,45,,54,54,15,15,8,9,0.5,0.4
2024-03-27T0800,2524A,105.821,32.4444,广元市,老城,,48,48,32,25,14,5,,9,9,40,35,6,5,0.8,0.7
2024-03-27T0800,2526A,105.8628,32.4287,广元市,监测站,,33,25,27,23,14,21,,36,36,20,15,5,9,0.7,0.7
2024-03-27T0800,3617A,105.8047,32.4166,广元市,经开区,颗粒物(PM10),51,52,37,30,19,7,,15,15,33,29,6,8,0.8,0.7
2024-03-27T0800,1345A,113.2347,23.1423,广州市,广雅中学,,27,22,53,12,29,86,,85,85,19,37,5,6,0.8,0.7
2024-03-27T0800,1346A,113.2612,23.105,广州市,市五中,,27,25,47,14,28,85,,88,88,19,27,6,7,0.6,0.7
2024-03-27T0800,1348A,113.3478,23.0916,广州市,广东商学院,,28,25,55,16,30,88,,74,74,18,36,5,6,0.6,0.6
2024-03-27T0800,1349A,113.4332,23.1047,广州市,市八十六中,,28,28,62,14,29,71,,51,51,31,45,5,6,0.7,0.7
2024-03-27T0800,1350A,113.3505,22.9483,广州市,番禺中学,,28,21,51,14,29,89,,86,86,18,29,6,7,0.7,0.7
2024-03-27T0800,1351A,113.2146,23.3916,广州市,花都师范,颗粒物(PM10),60,70,46,34,22,74,,35,35,25,33,6,7,0.7,0.7
2024-03-27T0800,1352A,113.2597,23.1331,广州市,市监测站,,28,28,51,17,27,80,,79,79,20,34,4,6,0.6,0.5
2024-03-27T0800,1353A,113.5618,23.312,广州市,九龙镇镇龙,,43,43,44,21,25,79,,34,34,20,28,6,6,0.6,0.6
2024-03-27T0800,1354A,113.2765,23.1544,广州市,麓湖,,28,24,48,16,27,88,,76,76,14,29,5,6,0.5,0.6
2024-03-27T0800,1355A,113.443,23.3035,广州市,帽峰山森林公园,,36,36,32,20,20,81,,68,68,17,16,5,5,0.9,0.9
2024-03-27T0800,2846A,113.3221,23.1322,广州市,体育西,,30,30,51,17,27,85,,78,78,19,28,8,9,0.7,0.7
2024-03-27T0800,3298A,113.5717,23.5491,广州市,从化街口,颗粒物(PM10),55,60,37,32,21,74,,23,23,18,28,7,9,0.7,0.8
2024-03-27T0800,3299A,113.3472,23.3692,广州市,白云竹料,颗粒物(PM10),59,68,49,40,26,64,,33,33,29,30,6,7,0.9,0.9
2024-03-27T0800,3300A,113.2981,23.237,广州市,白云嘉禾,,39,39,60,22,28,81,,64,64,26,40,4,5,0.7,0.8
2024-03-27T0800,3301A,113.4256,23.1716,广州市,黄埔科学城,,33,33,51,18,28,72,,55,55,30,32,5,6,0.8,0.8
2024-03-27T0800,3302A,113.3942,23.0483,广州市,番禺大学城,,32,32,43,13,25,92,,79,79,13,25,4,4,0.8,0.8
2024-03-27T0800,3303A,113.4922,22.8168,广州市,南沙黄阁,,26,18,54,10,34,82,,80,80,19,33,5,7,0.9,0.9
2024-03-27T0800,3304A,113.5342,22.7896,广州市,南沙街,,26,16,54,9,32,82,,77,77,16,29,6,8,0.8,0.8
2024-03-27T0800,3443A,113.2902,23.5544,广州市,花都梯面,细颗粒物(PM2.5),69,74,28,50,20,45,,11,11,36,29,7,7,0.8,0.7
2024-03-27T0800,3445A,113.7858,23.7478,广州市,从化良口,,25,24,21,17,14,22,,31,31,18,11,4,4,0.9,0.8
2024-03-27T0800,3446A,113.8051,23.2614,广州市,增城荔城,,37,37,40,21,26,82,,83,83,14,13,6,6,0.6,0.5
2024-03-27T0800,2505A,109.568,23.1478,贵港市,德智高中,细颗粒物(PM2.5),63,67,47,45,28,23,,59,59,37,15,9,8,0.9,0.8
2024-03-27T0800,2506A,109.6047,23.0666,贵港市,江南子站,颗粒物(PM10),106,161,65,65,32,12,,49,49,53,20,11,9,1.5,1.1
2024-03-27T0800,2507A,109.6014,23.0948,贵港市,贵城子站,细颗粒物(PM2.5),78,85,56,57,34,18,,52,52,42,17,14,10,1.4,1.1
2024-03-27T0800,2508A,109.5669,23.1065,贵港市,荷城子站,颗粒物(PM10),60,70,53,41,28,30,,51,51,27,15,16,12,0.9,0.6
2024-03-27T0800,3405A,109.5886,23.1172,贵港市,新世纪学校,颗粒物(PM10),65,80,59,43,32,30,,59,59,31,15,12,11,1.1,0.9
2024-03-27T0800,1439A,106.6899,26.5998,贵阳市,马鞍山,,44,44,39,27,20,74,,74,74,8,10,8,8,0.6,0.7
2024-03-27T0800,1440A,106.6971,26.5694,贵阳市,市环保站,细颗粒物(PM2.5),57,53,58,40,36,82,,79,79,14,20,4,4,0.6,0.6
2024-03-27T0800,1441A,106.6243,26.6266,贵阳市,鉴湖路,细颗粒物(PM2.5),55,58,50,39,24,80,,79,79,9,12,4,4,0.5,0.5
2024-03-27T0800,1442A,106.7487,26.6343,贵阳市,燕子冲,细颗粒物(PM2.5),55,,36,39,24,78,,83,83,15,10,6,5,0.6,0.7
2024-03-27T0800,1443A,106.6555,26.4365,贵阳市,碧云窝,细颗粒物(PM2.5),52,46,45,36,26,88,,86,86,6,9,6,5,0.5,0.7
2024-03-27T0800,1444A,106.694,26.5161,贵阳市,中院村,,49,48,43,34,26,60,,68,68,17,13,8,8,0.5,0.5
2024-03-27T0800,1445A,106.7109,26.6027,贵阳市,红边门,"颗粒物(PM10),细颗粒物(PM2.5)",58,66,47,41,34,69,,75,75,20,14,6,4,0.4,0.4
2024-03-27T0800,1446A,106.7164,26.5699,贵阳市,新华路,细颗粒物(PM2.5),52,48,40,36,27,76,,82,82,17,14,3,2,0.7,0.7
2024-03-27T0800,1447A,106.674,26.5424,贵阳市,太慈桥,,49,48,41,34,25,80,,79,79,11,13,7,7,0.5,0.6
2024-03-27T0800,1552A,106.805,26.3003,贵阳市,桐木岭,,,,,,,,,,,,,,,,
2024-03-27T0800,1862A,110.4144,25.3167,桂林市,电子科大尧山校区,,39,39,29,27,15,41,,45,45,8,8,8,7,0.7,0.7
2024-03-27T0800,1863A,110.2819,25.2697,桂林市,监测站,颗粒物(PM10),56,61,37,30,18,41,,43,43,19,20,16,11,0.8,0.8
2024-03-27T0800,1864A,110.3089,25.2708,桂林市,龙隐路小学,,50,43,31,35,21,43,,38,38,16,15,11,9,0.8,0.8
2024-03-27T0800,1865A,110.2869,25.2178,桂林市,八中,,50,43,39,35,26,11,,19,19,36,23,9,7,0.6,0.6
2024-03-27T0800,3403A,110.1764,25.2381,桂林市,创业大厦,细颗粒物(PM2.5),64,63,41,46,28,4,,6,6,42,28,13,11,0.8,0.7
2024-03-27T0800,3531A,110.296,25.1253,桂林市,旅游学院,细颗粒物(PM2.5),58,51,33,41,25,2,,2,2,42,25,8,6,0.8,0.8
2024-03-27T0800,2674A,100.2561,34.4714,果洛藏族自治州,玛沁县大武镇,,50,50,19,22,13,105,,96,96,2,4,12,14,0.4,0.4
2024-03-27T0800,1129A,126.5422,45.755,哈尔滨市,岭北,颗粒物(PM10),56,61,60,38,42,107,,87,87,26,43,16,16,1.2,0.9
2024-03-27T0800,1130A,126.561,45.8167,哈尔滨市,松北商大,,39,34,65,27,42,50,,35,35,38,41,10,10,0.7,0.7
2024-03-27T0800,1131A,126.979,45.5419,哈尔滨市,阿城会宁,,39,29,52,27,26,69,,32,32,16,29,6,10,0.7,0.7
2024-03-27T0800,1132A,126.599,45.7222,哈尔滨市,南岗学府路,,50,50,78,26,36,43,,42,42,34,41,11,15,0.6,0.6
2024-03-27T0800,1133A,126.689,45.7733,哈尔滨市,太平宏伟公园,,46,46,86,25,43,63,,31,31,24,48,10,14,0.6,0.7
2024-03-27T0800,1134A,126.635,45.7667,哈尔滨市,道外承德广场,细颗粒物(PM2.5),55,50,70,39,43,56,,61,61,42,45,24,11,0.3,0.4
2024-03-27T0800,1135A,126.685,45.7319,哈尔滨市,香坊红旗大街,,47,47,79,28,46,56,,40,40,32,50,7,13,0.6,0.7
2024-03-27T0800,1136A,126.6411,45.7258,哈尔滨市,动力和平路,,44,44,65,23,38,54,,60,60,34,37,12,14,0.6,0.7
2024-03-27T0800,1137A,126.593,45.7478,哈尔滨市,道里建国路,,45,45,65,29,49,38,,49,49,43,41,17,22,2.4,1.8
2024-03-27T0800,1138A,126.615,45.61,哈尔滨市,平房东轻厂,,32,32,51,18,33,63,,74,74,16,21,7,8,0.4,0.4
2024-03-27T0800,1139A,126.595,45.9855,哈尔滨市,呼兰师专,,48,46,69,33,42,50,,56,56,34,36,14,13,0.7,0.7
2024-03-27T0800,1140A,126.6206,45.6842,哈尔滨市,省农科院,颗粒物(PM10),53,55,70,30,43,58,,39,39,12,34,11,15,0.6,0.6
2024-03-27T0800,2688A,93.5128,42.8172,哈密市,地区监测站,,26,,31,18,21,67,,71,71,19,13,3,9,0.2,0.3
2024-03-27T0800,2689A,93.4961,42.8328,哈密市,哈密师范学校,,39,,42,27,20,63,,60,60,20,15,7,6,0.5,0.5
2024-03-27T0800,2671A,100.9048,36.9639,海北藏族自治州,海晏县西海镇,,33,33,36,21,21,51,,73,73,9,7,12,12,0.4,0.4
2024-03-27T0800,3867A,102.0738,36.5056,海东市,平安区公安北苑,,48,48,40,32,24,15,,37,37,34,15,5,5,0.6,0.4
2024-03-27T0800,1409A,110.576,19.9507,海口市,东寨港,,,,,,,,,,,,,,,,
2024-03-27T0800,1410A,110.3232,20.0574,海口市,海南大学,,49,37,36,34,27,42,,42,42,5,5,8,8,0.3,0.3
2024-03-27T0800,1411A,110.283,20.0053,海口市,秀英海南医院,细颗粒物(PM2.5),53,37,34,37,27,26,,34,34,13,8,9,9,0.3,0.3
2024-03-27T0800,1412A,110.338,19.9969,海口市,海南师范大学,,48,38,32,33,27,34,,37,37,6,4,8,8,0.4,0.4
2024-03-27T0800,1413A,110.33,20.0356,海口市,龙华路环保局宿舍,,45,34,33,31,28,34,,39,39,8,5,8,8,0.4,0.3
2024-03-27T0800,3539A,110.5111,19.9736,海口市,桂林洋子站,,46,45,32,32,24,23,,24,24,8,5,7,7,0.3,0.3
2024-03-27T0800,2673A,100.6188,36.2866,海南藏族自治州,共和县恰卜恰镇,,43,43,36,15,15,97,,97,97,5,10,9,12,0.5,0.5
2024-03-27T0800,2676A,97.3731,37.3753,海西蒙古族藏族自治州,德令哈市,,45,45,47,14,15,77,,102,102,16,10,11,12,0.7,0.6
2024-03-27T0800,1048A,114.5302,36.6116,邯郸市,东污水处理厂,细颗粒物(PM2.5),64,46,69,46,61,53,,51,51,7,12,3,5,0.4,0.6
2024-03-27T0800,1049A,114.4918,36.5713,邯郸市,矿院,颗粒物(PM10),61,72,77,35,53,52,,53,53,11,12,4,5,0.3,0.4
2024-03-27T0800,1050A,114.484,36.6133,邯郸市,丛台公园,细颗粒物(PM2.5),54,47,69,38,55,52,,53,53,8,11,4,6,0.3,0.5
2024-03-27T0800,3458A,114.7895,36.5593,邯郸市,香泉濮院小区,细颗粒物(PM2.5),53,45,60,37,51,58,,64,64,4,5,6,7,0.3,0.2
2024-03-27T0800,3579A,114.50634,36.77178,邯郸市,永年区实验高中,细颗粒物(PM2.5),65,71,92,47,58,54,,54,54,10,15,4,6,0.4,0.5
2024-03-27T0800,3580A,114.20016,36.44293,邯郸市,峰峰矿区临水派出所,细颗粒物(PM2.5),89,78,82,66,68,37,,43,43,12,16,8,10,0.8,1.1
2024-03-27T0800,2634A,106.9893,33.1842,汉中市,汉川机床厂子校,,16,15,28,4,16,50,,49,49,8,11,3,4,0.7,0.7
2024-03-27T0800,2635A,107.0154,33.0706,汉中市,市监测站,,39,39,48,25,29,20,,16,16,40,30,9,7,0.9,0.8
2024-03-27T0800,2636A,107.0089,33.1138,汉中市,鑫源开发区,,44,44,46,22,23,17,,16,16,43,29,8,9,0.7,0.7
2024-03-27T0800,2637A,107.007,33.0323,汉中市,南郑大河坎水厂,,41,41,47,25,26,10,,18,18,29,23,8,8,0.9,0.7
2024-03-27T0800,1223A,120.2072,30.2111,杭州市,滨江,颗粒物(PM10),57,63,43,32,27,25,,29,29,48,36,7,5,0.8,0.7
2024-03-27T0800,1224A,120.0633,30.2747,杭州市,西溪,,47,47,32,30,21,11,,16,16,48,27,6,6,0.7,0.6
2024-03-27T0800,1226A,120.3461,30.3153,杭州市,下沙,细颗粒物(PM2.5),82,103,61,60,34,38,,21,21,39,48,10,6,0.8,0.7
2024-03-27T0800,1227A,120.1269,30.2456,杭州市,卧龙桥,细颗粒物(PM2.5),65,55,31,47,33,16,,15,15,35,24,4,4,0.7,0.5
2024-03-27T0800,1228A,120.1903,30.2692,杭州市,浙江农大,颗粒物(PM10),70,89,55,50,31,24,,16,16,47,40,9,6,0.7,0.7
2024-03-27T0800,1230A,120.1197,30.3119,杭州市,和睦小学,细颗粒物(PM2.5),69,56,39,50,27,35,,21,21,42,40,9,6,0.7,0.7
2024-03-27T0800,1231A,120.3019,30.4183,杭州市,临平镇,细颗粒物(PM2.5),124,101,58,94,47,28,,20,20,37,35,5,5,0.8,0.6
2024-03-27T0800,1232A,120.2697,30.1819,杭州市,城厢镇,细颗粒物(PM2.5),57,54,37,40,31,22,,19,19,52,47,8,7,0.7,0.6
2024-03-27T0800,1233A,120.0883,30.1808,杭州市,云栖,细颗粒物(PM2.5),64,70,37,46,22,12,,14,14,33,24,8,8,0.7,0.6
2024-03-27T0800,3557A,119.9464,30.0494,杭州市,镇二中,细颗粒物(PM2.5),53,42,29,37,22,13,,21,21,47,30,6,5,0.8,0.7
2024-03-27T0800,3558A,119.7183,30.2367,杭州市,市府大楼,细颗粒物(PM2.5),67,,30,48,27,25,,26,26,30,27,6,5,0.9,0.7
2024-03-27T0800,3656A,120.1556,30.2864,杭州市,消防大队,细颗粒物(PM2.5),87,92,53,64,34,34,,24,24,44,38,9,7,0.7,0.7
2024-03-27T0800,1270A,117.1959,31.7848,合肥市,明珠广场,细颗粒物(PM2.5),67,66,54,48,42,42,,64,64,32,22,6,5,0.8,0.7
2024-03-27T0800,1271A,117.3072,31.8764,合肥市,三里街,细颗粒物(PM2.5),79,80,70,58,49,31,,40,40,40,29,6,6,0.7,0.5
2024-03-27T0800,1272A,117.2588,31.8707,合肥市,琥珀山庄,颗粒物(PM10),60,70,62,36,32,59,,66,66,30,28,5,4,0.7,0.5
2024-03-27T0800,1273A,117.1604,31.9052,合肥市,董铺水库,颗粒物(PM10),62,73,60,39,34,64,,72,72,24,21,3,2,0.6,0.4
2024-03-27T0800,1274A,117.25,31.8571,合肥市,长江中路,细颗粒物(PM2.5),74,70,61,54,49,50,,66,66,28,21,7,6,0.9,0.7
2024-03-27T0800,1275A,117.266,31.9436,合肥市,庐阳区,细颗粒物(PM2.5),67,78,70,48,45,38,,53,53,42,30,4,3,0.9,0.6
2024-03-27T0800,1276A,117.336,31.8586,合肥市,瑶海区,细颗粒物(PM2.5),78,88,67,57,47,40,,46,46,40,29,6,6,0.9,0.7
2024-03-27T0800,1277A,117.3027,31.7964,合肥市,包河区,细颗粒物(PM2.5),64,70,60,46,38,42,,58,58,37,27,7,6,0.6,0.5
2024-03-27T0800,1278A,117.2776,31.7385,合肥市,滨湖新区,"颗粒物(PM10),细颗粒物(PM2.5)",58,66,52,41,38,48,,63,63,28,18,7,6,0.8,0.6
2024-03-27T0800,1279A,117.1318,31.8403,合肥市,高新区,细颗粒物(PM2.5),69,63,54,50,42,52,,67,67,27,21,5,5,0.8,0.6
2024-03-27T0800,3464A,117.3803,31.9147,合肥市,高教基地,颗粒物(PM10),56,62,56,32,29,54,,55,55,30,24,4,4,0.6,0.5
2024-03-27T0800,3614A,79.924,37.0877,和田地区,地区环保局,颗粒物(PM10),138,226,202,52,43,64,,74,74,15,9,6,6,0.6,0.6
2024-03-27T0800,3615A,79.9131,37.113,和田地区,市环保局,颗粒物(PM10),108,166,200,41,42,66,,76,76,12,8,5,5,0.5,0.5
2024-03-27T0800,2516A,108.2011,24.715,河池市,东仁乐园,颗粒物(PM10),54,58,37,26,17,20,,25,25,16,12,5,7,0.7,0.6
2024-03-27T0800,2517A,108.0497,24.6947,河池市,市环保站,,46,46,30,30,19,34,,55,55,22,12,10,11,0.9,0.8
2024-03-27T0800,2518A,108.0983,24.6989,河池市,市疾控中心,细颗粒物(PM2.5),52,50,31,36,22,47,,56,56,30,17,11,8,0.9,0.8
2024-03-27T0800,1696A,114.6778,23.7569,河源市,源西,,40,37,25,28,17,57,,44,44,21,17,6,5,0.8,0.8
2024-03-27T0800,1697A,114.6944,23.7586,河源市,东埔,颗粒物(PM10),53,55,29,30,18,58,,54,54,17,9,9,9,0.7,0.6
2024-03-27T0800,1698A,114.6892,23.7233,河源市,老城,,46,46,31,26,15,78,,49,49,13,10,7,6,0.7,0.6
2024-03-27T0800,1718A,115.4208,35.2464,菏泽市,气象局,细颗粒物(PM2.5),65,69,60,47,40,56,,62,62,18,16,4,4,0.4,0.5
2024-03-27T0800,1719A,115.4747,35.2375,菏泽市,市政协,细颗粒物(PM2.5),64,62,54,46,39,64,,66,66,17,14,3,3,0.5,0.5
2024-03-27T0800,3374A,115.5564,35.0891,菏泽市,定陶老年大学,细颗粒物(PM2.5),62,63,56,44,37,60,,57,57,14,14,4,4,0.6,0.6
2024-03-27T0800,3647A,115.4702,35.2706,菏泽市,菏泽医专,细颗粒物(PM2.5),55,51,50,39,32,68,,69,69,15,14,3,5,0.4,0.4
2024-03-27T0800,2514A,111.5264,24.4172,贺州市,环保小区,,50,50,44,32,27,17,,27,27,29,19,7,7,0.9,0.8
2024-03-27T0800,2515A,111.5608,24.4078,贺州市,政协大楼,颗粒物(PM10),53,56,46,29,26,5,,13,13,36,23,8,7,0.8,0.7
2024-03-27T0800,3534A,111.4744,24.4553,贺州市,西湾,,48,48,48,32,28,26,,26,26,21,18,8,7,0.8,0.7
2024-03-27T0800,2385A,114.17,35.9019,鹤壁市,市监测站,细颗粒物(PM2.5),69,,82,50,68,44,,47,47,14,16,6,10,0.5,0.6
2024-03-27T0800,2386A,114.2956,35.7511,鹤壁市,市交警支队,细颗粒物(PM2.5),53,42,71,37,54,56,,64,64,19,15,10,10,0.7,0.6
2024-03-27T0800,2387A,114.2878,35.7306,鹤壁市,迎宾馆,细颗粒物(PM2.5),63,,58,45,61,56,,62,62,19,17,10,13,0.5,0.6
2024-03-27T0800,3474A,114.2617,35.6822,鹤壁市,大新区,,35,32,60,24,48,42,,47,47,29,23,8,10,0.6,0.7
2024-03-27T0800,3596A,114.1572,35.9603,鹤壁市,南山宾馆,细颗粒物(PM2.5),69,70,90,50,62,43,,44,44,18,23,4,6,0.5,0.6
2024-03-27T0800,2244A,130.2537,47.3416,鹤岗市,哈啤分公司,,50,50,49,27,26,46,,52,52,30,18,17,16,0.8,0.6
2024-03-27T0800,2245A,130.2684,47.3086,鹤岗市,斯达机电,,38,36,29,26,19,74,,83,83,16,12,15,12,0.5,0.5
2024-03-27T0800,2246A,130.3114,47.3388,鹤岗市,东山纸板厂,颗粒物(PM10),93,136,71,50,33,32,,11,11,43,29,18,14,1.9,1.2
2024-03-27T0800,2247A,130.1097,47.3382,鹤岗市,五号水库,,22,15,24,7,10,68,,62,62,13,9,8,9,0.3,0.3
2024-03-27T0800,2263A,127.4833,50.2524,黑河市,交通局,颗粒物(PM10),63,75,40,23,19,60,,65,65,20,15,10,10,0.4,0.4
2024-03-27T0800,2264A,127.5144,50.2341,黑河市,环保局,细颗粒物(PM2.5),73,61,34,53,31,68,,77,77,19,14,7,10,0.7,1.1
2024-03-27T0800,2265A,127.5291,50.2472,黑河市,大黑河岛,,,,,,,,,,,,,,,,
2024-03-27T0800,1074A,115.6838,37.7541,衡水市,电机北厂,细颗粒物(PM2.5),55,41,52,39,46,57,,64,64,8,9,2,2,0.4,0.5
2024-03-27T0800,1075A,115.6303,37.7316,衡水市,市监测站,细颗粒物(PM2.5),57,41,53,40,43,56,,68,68,12,12,3,3,0.6,0.7
2024-03-27T0800,3188A,115.6683,37.7217,衡水市,市城管局,细颗粒物(PM2.5),67,61,60,48,45,55,,62,62,10,12,6,6,0.4,0.4
2024-03-27T0800,3459A,115.5989,37.5491,衡水市,地表水厂,细颗粒物(PM2.5),63,56,63,45,44,50,,62,62,9,7,4,4,0.4,0.5
2024-03-27T0800,2456A,112.5003,26.9167,衡阳市,原169医院,,39,39,29,20,17,25,,46,46,35,24,20,11,0.8,0.6
2024-03-27T0800,2457A,112.6194,26.9258,衡阳市,衡阳化工总厂,,48,39,37,33,20,29,,52,52,36,19,8,8,0.8,0.7
2024-03-27T0800,2458A,112.6211,26.8956,衡阳市,珠晖区环保局,,40,36,33,28,22,38,,54,54,25,20,12,8,0.9,0.8
2024-03-27T0800,2459A,112.6197,26.8733,衡阳市,市委党校,,35,35,30,21,18,31,,54,54,28,15,15,12,0.9,0.8
2024-03-27T0800,2460A,112.6006,26.8919,衡阳市,市监测站,,40,30,34,28,25,46,,60,60,20,17,15,9,0.9,0.8
2024-03-27T0800,2461A,112.5664,26.9056,衡阳市,真空机电公司,,39,39,33,26,20,36,,50,50,27,18,18,10,1.0,0.8
2024-03-27T0800,3399A,112.6703,26.882,衡阳市,师范学院,,40,39,29,28,21,41,,51,51,14,13,11,8,0.8,0.7
2024-03-27T0800,2608A,103.3772,23.3993,红河哈尼族彝族自治州,污水处理厂,细颗粒物(PM2.5),64,51,59,46,48,96,,103,103,11,9,6,6,0.7,0.7
2024-03-27T0800,2609A,103.3861,23.35,红河哈尼族彝族自治州,监测站,,49,44,60,34,44,90,,98,98,12,9,6,8,0.9,0.8
2024-03-27T0800,3038A,103.3758,23.368,红河哈尼族彝族自治州,州图书馆,细颗粒物(PM2.5),63,56,63,45,43,84,,92,92,11,9,5,6,0.6,0.6
2024-03-27T0800,1090A,111.6507,40.7517,呼和浩特市,呼市一监,,29,29,100,17,35,87,,68,68,4,15,13,14,0.4,0.5
2024-03-27T0800,1091A,111.6572,40.8033,呼和浩特市,小召,,39,39,103,19,35,78,,57,57,20,30,8,12,0.5,0.6
2024-03-27T0800,1094A,111.7516,40.8369,呼和浩特市,如意水处理厂,,42,42,85,16,29,81,,34,34,16,36,10,11,0.3,0.5
2024-03-27T0800,1095A,111.7276,40.8062,呼和浩特市,二十九中,,32,32,89,16,28,82,,62,62,17,26,11,13,0.5,0.6
2024-03-27T0800,1096A,111.5512,40.7866,呼和浩特市,工大金川校区,,35,35,112,20,40,72,,39,39,21,33,7,11,0.5,0.6
2024-03-27T0800,1097A,111.717,40.7612,呼和浩特市,化肥厂生活区,,37,37,87,15,29,76,,64,64,19,27,10,13,0.4,0.5
2024-03-27T0800,3698A,111.5968,40.8178,呼和浩特市,红旗小学,,41,41,112,20,40,71,,28,28,22,43,6,10,0.3,0.5
2024-03-27T0800,3699A,111.6518,40.8389,呼和浩特市,海东办,,41,41,111,20,37,75,,40,40,22,34,6,11,0.2,0.3
2024-03-27T0800,2192A,119.7594,49.2261,呼伦贝尔市,区环保局,,50,50,27,17,13,89,,86,86,15,16,6,5,0.4,0.4
2024-03-27T0800,3061A,119.7512,49.1577,呼伦贝尔市,国华电力东,,34,34,26,13,11,88,,88,88,9,9,3,3,0.3,0.3
2024-03-27T0800,1250A,120.0751,30.8669,湖州市,城西水厂,,46,46,45,32,30,50,,28,28,39,49,4,4,0.6,0.6
2024-03-27T0800,2873A,120.0875,30.8955,湖州市,仁皇山新区,,45,38,38,31,32,62,,46,46,30,35,6,6,0.6,0.6
2024-03-27T0800,2907A,120.1844,30.8596,湖州市,吴兴区站,,43,36,40,30,30,62,,57,57,26,31,6,4,0.5,0.6
2024-03-27T0800,3562A,120.4148,30.8538,湖州市,南浔区站,,37,37,42,23,29,70,,46,46,24,24,10,8,0.7,0.7
2024-03-27T0800,1607A,120.9092,40.7136,葫芦岛市,龙港区,细颗粒物(PM2.5),100,90,70,75,54,77,,83,83,17,20,7,14,1.0,0.8
2024-03-27T0800,1608A,120.8392,40.7514,葫芦岛市,化工街,细颗粒物(PM2.5),94,100,68,70,48,69,,84,84,32,30,11,17,1.2,1
2024-03-27T0800,1609A,120.8341,40.7073,葫芦岛市,新区,细颗粒物(PM2.5),95,72,60,71,55,74,,89,89,24,25,8,14,1.1,1
2024-03-27T0800,1610A,120.8695,40.7677,葫芦岛市,东城区,细颗粒物(PM2.5),103,79,59,77,57,63,,86,86,37,30,8,14,1.2,1
2024-03-27T0800,2482A,109.5981,27.5721,怀化市,林科所,,,22,17,11,8,,,,,4,4,11,10,0.8,0.9
2024-03-27T0800,2483A,109.9453,27.5444,怀化市,河西地税局,,31,31,25,19,16,78,,82,82,14,10,8,8,0.6,0.7
2024-03-27T0800,2484A,109.9781,27.5342,怀化市,市四医院,,35,34,27,24,18,93,,82,82,10,10,9,8,0.5,0.5
2024-03-27T0800,2485A,109.9972,27.5578,怀化市,监测楼,,36,31,27,25,18,85,,76,76,11,11,13,11,0.5,0.6
2024-03-27T0800,2486A,110.0394,27.583,怀化市,市委党校,,36,36,29,22,19,82,,81,81,10,10,11,12,0.6,0.6
2024-03-27T0800,1210A,119.036,33.5981,淮安市,钵池山,细颗粒物(PM2.5),100,78,58,75,53,52,,62,62,23,22,10,9,1.0,0.8
2024-03-27T0800,1211A,119.007,33.575,淮安市,北京南路,细颗粒物(PM2.5),99,,54,74,54,42,,55,55,29,28,8,7,0.9,0.8
2024-03-27T0800,1212A,118.989,33.6067,淮安市,市监测站,细颗粒物(PM2.5),92,83,59,68,52,51,,68,68,30,25,10,8,0.9,0.8
2024-03-27T0800,1213A,119.135,33.5039,淮安市,楚州区监测站,细颗粒物(PM2.5),109,90,64,82,58,30,,14,14,31,40,7,7,0.9,0.7
2024-03-27T0800,1214A,119.0186,33.6297,淮安市,淮阴区监测站,细颗粒物(PM2.5),99,85,66,74,55,53,,65,65,26,29,7,5,0.9,0.6
2024-03-27T0800,3426A,118.8755,33.2894,淮安市,新华书店,颗粒物(PM10),68,86,65,40,36,42,,60,60,45,31,7,5,0.8,0.6
2024-03-27T0800,2282A,116.8004,33.975,淮北市,监测站,细颗粒物(PM2.5),79,,59,58,49,64,,76,76,22,17,6,5,0.7,0.6
2024-03-27T0800,2283A,116.8091,33.9007,淮北市,烈山区政府,细颗粒物(PM2.5),89,76,64,66,60,56,,70,70,21,17,8,5,0.5,0.5
2024-03-27T0800,3330A,116.8873,33.9836,淮北市,杜集区检察院,细颗粒物(PM2.5),84,78,68,62,52,77,,84,84,17,17,8,8,0.7,0.6
2024-03-27T0800,4017A,116.7923,33.9535,淮北市,市博物馆,细颗粒物(PM2.5),60,52,53,43,44,58,,70,70,15,13,7,7,0.6,0.5
2024-03-27T0800,2277A,116.8305,32.7727,淮南市,潘集区政府,细颗粒物(PM2.5),87,76,66,64,52,59,,72,72,26,23,4,3,0.8,0.4
2024-03-27T0800,2278A,117.0067,32.6524,淮南市,师范学院,细颗粒物(PM2.5),84,75,61,62,47,63,,75,75,25,23,8,6,0.6,0.4
2024-03-27T0800,2279A,116.8569,32.5951,淮南市,谢家集区政府,细颗粒物(PM2.5),77,,42,56,38,50,,64,64,28,18,8,6,0.6,0.4
2024-03-27T0800,2280A,116.8281,32.633,淮南市,八公山区政府,细颗粒物(PM2.5),80,77,56,59,42,58,,74,74,19,14,4,4,0.7,0.5
2024-03-27T0800,2281A,116.6325,32.6201,淮南市,焦岗湖风景区管理处,颗粒物(PM10),52,54,44,30,22,54,,61,61,13,17,4,4,0.1,0
2024-03-27T0800,2894A,117.0566,32.6531,淮南市,经济技术开发区消防队,细颗粒物(PM2.5),73,69,56,53,47,66,,74,74,20,18,6,4,0.6,0.4
2024-03-27T0800,3329A,117.0108,32.5893,淮南市,山南新区,细颗粒物(PM2.5),55,58,43,39,31,70,,78,78,22,16,5,3,0.6,0.5
2024-03-27T0800,2446A,114.9028,30.4742,黄冈市,职工中心,,48,48,46,33,32,61,,78,78,17,13,11,11,0.8,0.8
2024-03-27T0800,2929A,114.8858,30.4519,黄冈市,红卫路,,48,43,42,33,32,71,,80,80,14,14,7,8,0.8,0.8
2024-03-27T0800,3398A,114.9136,30.4445,黄冈市,市林业局,,50,43,44,35,31,68,,75,75,9,12,6,7,1.0,1.1
2024-03-27T0800,2672A,102.0199,35.5102,黄南藏族自治州,同仁县隆务镇,,30,30,26,13,15,50,,58,58,3,5,13,13,0.7,0.7
2024-03-27T0800,2295A,118.2903,29.6963,黄山市,延安路89号,,26,26,25,10,8,13,,13,13,12,11,6,5,0.5,0.5
2024-03-27T0800,2296A,118.327,29.7178,黄山市,黄山东路89号,,38,38,27,21,15,12,,18,18,14,12,5,5,0.6,0.6
2024-03-27T0800,2297A,118.1371,30.2756,黄山市,黄山区政府5号楼,,27,27,19,12,13,19,,18,18,10,10,4,4,0.4,0.4
2024-03-27T0800,2423A,115.0601,30.2313,黄石市,沈家营,,50,50,41,27,26,60,,86,86,34,23,26,14,1.6,1
2024-03-27T0800,2424A,115.0817,30.2006,黄石市,陈家湾,,48,48,43,30,33,85,,104,104,19,17,19,16,0.7,0.8
2024-03-27T0800,2426A,114.8988,30.2019,黄石市,铁山,,45,31,37,31,24,83,,92,92,14,15,12,12,0.6,0.6
2024-03-27T0800,2427A,115.0307,30.2092,黄石市,团城山,,36,32,38,25,22,90,,104,104,15,14,10,9,0.7,0.8
2024-03-27T0800,3149A,115.0235,30.1578,黄石市,笔架山北路,,39,39,32,26,22,79,,91,91,16,14,7,7,0.7,0.6
2024-03-27T0800,1392A,114.4183,23.0528,惠州市,河南岸金山湖子站,,30,25,36,15,22,94,,95,95,7,8,6,6,0.6,0.7
2024-03-27T0800,1393A,114.4053,23.0822,惠州市,下埔横江三路子站,,33,27,38,17,22,103,,106,106,9,10,8,7,0.7,0.6
2024-03-27T0800,1394A,114.4103,23.1142,惠州市,江北云山西路子站,,32,32,37,17,20,96,,102,102,5,5,6,6,0.5,0.5
2024-03-27T0800,1395A,114.4645,22.7833,惠州市,惠阳区承修路船湖子站,,27,26,38,15,21,86,,97,97,8,8,8,9,0.6,0.6
2024-03-27T0800,1396A,114.5317,22.7422,惠州市,大亚湾管委会子站,,29,29,42,15,24,90,,102,102,16,14,7,8,0.8,0.7
2024-03-27T0800,3314A,114.4338,22.8134,惠州市,惠阳秋长,,29,29,37,17,21,92,,106,106,15,14,7,8,0.8,0.7
2024-03-27T0800,3452A,114.6517,22.775,惠州市,大亚湾霞涌,,30,24,32,13,26,95,,99,99,7,9,8,8,0.6,0.6
2024-03-27T0800,2240A,130.9762,45.3001,鸡西市,环保局,,,89,66,39,30,47,,16,16,,13,11,9,0.5,0.5
2024-03-27T0800,2243A,130.9429,45.3039,鸡西市,第一中学,颗粒物(PM10),62,74,59,36,29,41,,14,14,40,36,14,12,0.5,0.4
2024-03-27T0800,3707A,131.0207,45.3073,鸡西市,欧美日汽修厂,颗粒物(PM10),88,125,79,59,36,42,,24,24,20,23,12,7,0.4,0.5
2024-03-27T0800,3709A,130.9967,45.3106,鸡西市,市政设施管理处,颗粒物(PM10),66,81,75,43,34,38,,13,13,44,32,8,6,0.7,0.6
2024-03-27T0800,2367A,114.9754,27.0803,吉安市,红声器材厂,,49,49,42,31,18,49,,52,52,22,19,12,12,0.4,0.5
2024-03-27T0800,2368A,114.9658,27.0999,吉安市,市森林工业局,,,,28,26,21,48,,59,59,25,18,13,18,0.2,0.3
2024-03-27T0800,2369A,114.99,27.1312,吉安市,市环境监测站,,46,46,32,28,18,67,,84,84,20,15,26,24,0.7,0.7
2024-03-27T0800,2370A,115.0093,27.0968,吉安市,青原区法院,,39,39,33,22,19,30,,56,56,13,12,14,15,0.6,0.5
2024-03-27T0800,1772A,126.54,43.8622,吉林市,哈达湾,,43,43,48,22,27,51,,54,54,33,28,7,8,0.7,0.6
2024-03-27T0800,1773A,126.5844,43.8358,吉林市,东局子,,34,34,44,15,22,62,,59,59,22,28,7,8,0.6,0.7
2024-03-27T0800,1774A,126.5052,43.8245,吉林市,电力学院,颗粒物(PM10),68,86,72,42,38,34,,25,25,46,32,12,11,1.1,0.9
2024-03-27T0800,1775A,126.6133,43.8972,吉林市,江北,颗粒物(PM10),62,73,52,35,24,56,,40,40,38,34,12,11,1.0,0.8
2024-03-27T0800,1776A,126.555,43.8306,吉林市,江南公园,,50,50,42,25,24,44,,56,56,40,28,8,8,0.8,0.7
2024-03-27T0800,1778A,126.7061,43.7133,吉林市,丰满,,,,,,,,,,,,,,,,
2024-03-27T0800,2868A,126.4739,43.953,吉林市,九站,,48,48,52,27,30,75,,31,31,20,37,11,17,0.6,0.7
2024-03-27T0800,1299A,116.9862,36.6114,济南市,科干所,,35,24,39,10,25,110,,113,113,13,11,5,6,0.5,0.6
2024-03-27T0800,1300A,116.9376,36.665,济南市,农科所,颗粒物(PM10),58,66,45,29,25,96,,99,99,15,16,5,4,0.6,0.6
2024-03-27T0800,1301A,117.1265,36.6734,济南市,开发区,,35,22,33,12,18,109,,113,113,9,9,5,5,0.4,0.5
2024-03-27T0800,1303A,117.0624,36.6868,济南市,省种子仓库,,35,22,38,9,22,109,,114,114,11,11,2,3,0.3,0.4
2024-03-27T0800,1304A,116.9489,36.6447,济南市,机床二厂,颗粒物(PM10),59,68,47,29,26,101,,112,112,12,10,6,5,0.7,0.6
2024-03-27T0800,1305A,117.0495,36.663,济南市,市监测站,,36,20,34,12,20,114,,118,118,15,16,9,9,0.5,0.6
2024-03-27T0800,1306A,116.7675,36.5484,济南市,长清党校,细颗粒物(PM2.5),62,63,50,44,38,94,,98,98,15,12,6,5,0.7,0.6
2024-03-27T0800,1616A,117.6795,36.229,济南市,技术学院,细颗粒物(PM2.5),92,102,60,68,41,31,,67,67,63,28,14,9,1.0,0.7
2024-03-27T0800,1961A,117.532,36.6868,济南市,东山小学,,46,46,47,22,29,101,,102,102,15,15,7,6,0.6,0.4
2024-03-27T0800,3059A,117.7161,36.2049,济南市,泰兴公司,细颗粒物(PM2.5),83,83,68,61,48,40,,36,36,45,35,14,10,1.1,1
2024-03-27T0800,3064A,117.6867,36.2171,济南市,莱芜战役纪念馆,细颗粒物(PM2.5),92,119,70,68,43,30,,62,62,52,22,10,8,1.1,0.9
2024-03-27T0800,3494A,117.1673,36.9782,济南市,济阳区政府,颗粒物(PM10),57,63,56,22,27,67,,80,80,39,27,6,6,0.5,0.5
2024-03-27T0800,3495A,117.1171,36.63,济南市,锦屏中学,,36,22,28,10,19,113,,113,113,8,9,6,5,0.5,0.4
2024-03-27T0800,3682A,116.9814,36.6819,济南市,济南四建,,46,46,35,24,26,96,,106,106,14,12,7,6,0.6,0.6
2024-03-27T0800,1653A,116.6251,35.4302,济宁市,火炬城,细颗粒物(PM2.5),67,61,46,48,34,54,,53,53,20,14,5,5,0.9,0.7
2024-03-27T0800,1655A,116.5491,35.4042,济宁市,电化厂,颗粒物(PM10),65,80,63,39,31,57,,65,65,15,12,5,6,0.9,0.8
2024-03-27T0800,3500A,116.5814,35.3707,济宁市,北湖一中,细颗粒物(PM2.5),77,63,47,56,40,53,,60,60,17,12,6,6,0.9,0.8
2024-03-27T0800,3501A,116.8249,35.5593,济宁市,服务中心,细颗粒物(PM2.5),63,74,65,45,37,64,,54,54,17,17,6,3,0.6,0.7
2024-03-27T0800,3678A,116.5907,35.4054,济宁市,市第七中学,细颗粒物(PM2.5),67,64,48,48,34,54,,52,52,17,11,4,4,1.0,0.8
2024-03-27T0800,2255A,130.2751,46.8028,佳木斯市,佳纺,细颗粒物(PM2.5),80,88,53,59,31,32,,18,18,45,32,10,7,0.8,0.7
2024-03-27T0800,2256A,130.3995,46.8307,佳木斯市,发电厂,,50,46,60,35,29,47,,29,29,27,37,6,5,0.6,0.6
2024-03-27T0800,2257A,130.3258,46.7975,佳木斯市,环保局,细颗粒物(PM2.5),74,85,59,54,32,30,,8,8,53,44,7,6,1.0,1
2024-03-27T0800,2258A,130.3648,46.8032,佳木斯市,十一中,,50,50,42,32,22,51,,31,31,44,43,8,7,0.8,0.7
2024-03-27T0800,2259A,130.3794,46.7588,佳木斯市,四丰,,31,21,22,14,14,98,,97,97,5,7,1,1,0.5,0.4
2024-03-27T0800,1252A,120.7436,30.778,嘉兴市,清河小学,,32,32,33,18,23,59,,57,57,30,27,9,7,1.2,0.9
2024-03-27T0800,1253A,120.726,30.7478,嘉兴市,嘉兴学院,,50,50,40,27,23,57,,68,68,27,19,6,6,0.5,0.4
2024-03-27T0800,2872A,120.7846,30.7525,嘉兴市,南湖区残联,,45,45,39,30,25,56,,61,61,33,23,9,6,0.7,0.6
2024-03-27T0800,3407A,120.6916,30.7739,嘉兴市,秀洲住建,,29,26,27,20,21,60,,64,64,27,27,6,5,0.4,0.3
2024-03-27T0800,1945A,98.2908,39.7711,嘉峪关市,气象局,,44,44,81,12,14,80,,93,93,15,10,7,7,0.4,0.4
2024-03-27T0800,2884A,98.2672,39.7978,嘉峪关市,酒钢宾馆,颗粒物(PM10),52,53,92,17,15,88,,103,103,13,8,6,10,0.4,0.4
2024-03-27T0800,3248A,98.2643,39.7724,嘉峪关市,雄关区,,46,46,66,16,19,76,,89,89,18,11,8,6,0.5,0.4
2024-03-27T0800,1383A,113.1064,22.6058,江门市,北街,,32,26,50,22,36,88,,96,96,16,24,6,8,0.6,0.6
2024-03-27T0800,1384A,113.0731,22.5835,江门市,西区,,33,33,57,19,33,91,,104,104,17,28,7,7,0.6,0.6
2024-03-27T0800,1385A,113.0219,22.5311,江门市,圭峰西,,27,27,51,15,32,86,,99,99,15,21,7,7,0.8,0.8
2024-03-27T0800,1386A,113.0828,22.5947,江门市,东湖,,28,27,59,18,37,89,,104,104,17,24,8,9,0.6,0.6
2024-03-27T0800,3311A,113.1075,22.5647,江门市,江海富民,颗粒物(PM10),51,51,71,32,41,89,,101,101,16,26,7,8,0.5,0.5
2024-03-27T0800,3449A,113.05,22.4667,江门市,新会银湖,,30,30,54,21,41,83,,94,94,13,25,6,6,0.7,0.8
2024-03-27T0800,1828A,113.227,35.2125,焦作市,市环保局,细颗粒物(PM2.5),93,108,86,69,66,34,,34,34,25,23,6,8,1.0,1
2024-03-27T0800,1830A,113.1992,35.2590,焦作市,影视城,,,,,,,,,,,,,,,,
2024-03-27T0800,3169A,113.2725,35.2067,焦作市,太极体育中心,细颗粒物(PM2.5),97,124,102,72,67,28,,26,26,35,30,11,12,0.8,0.8
2024-03-27T0800,3335A,113.3137,35.2641,焦作市,马村街道办,细颗粒物(PM2.5),98,117,98,73,66,24,,26,26,34,31,7,10,1.2,0.7
2024-03-27T0800,3336A,113.2465,35.2373,焦作市,焦作技师学院,细颗粒物(PM2.5),94,106,93,70,64,32,,29,29,30,29,5,7,1.0,1
2024-03-27T0800,3477A,113.1656,35.2539,焦作市,中站许衡医院,细颗粒物(PM2.5),82,86,90,60,56,35,,40,40,23,27,6,11,0.8,1
2024-03-27T0800,3981A,113.2449,35.1803,焦作市,原李万街道办,细颗粒物(PM2.5),83,86,91,61,57,30,,29,29,32,28,13,11,0.7,0.6
2024-03-27T0800,1708A,116.3701,23.5345,揭阳市,新兴,细颗粒物(PM2.5),64,,39,46,30,76,,96,96,21,17,10,10,0.6,0.5
2024-03-27T0800,1709A,116.3264,23.5443,揭阳市,西马,细颗粒物(PM2.5),63,,47,45,30,81,,93,93,12,8,9,9,0.7,0.7
2024-03-27T0800,1710A,116.3611,23.5626,揭阳市,东兴,细颗粒物(PM2.5),63,49,52,45,28,80,,94,94,13,10,10,10,0.8,0.8
2024-03-27T0800,1711A,116.4151,23.5294,揭阳市,渔湖,,42,42,63,21,15,79,,92,92,14,10,7,8,0.7,0.6
2024-03-27T0800,3320A,116.403,23.5699,揭阳市,曲溪,,47,47,44,30,27,82,,97,97,12,9,7,9,0.6,0.6
2024-03-27T0800,1944A,102.1692,38.5167,金昌市,天庆家园,颗粒物(PM10),63,76,73,13,13,87,,96,96,14,12,8,11,0.5,0.4
2024-03-27T0800,3170A,102.1864,38.5253,金昌市,市委党校,颗粒物(PM10),65,80,69,19,18,89,,96,96,9,9,2,4,0.2,0.2
2024-03-27T0800,4022A,102.1647,38.5371,金昌市,金川区人防中心,颗粒物(PM10),71,91,92,15,20,90,,100,100,10,6,5,7,0.4,0.3
2024-03-27T0800,1262A,119.647,29.077,金华市,十五中,细颗粒物(PM2.5),59,64,41,42,19,35,,40,40,46,30,5,4,0.5,0.5
2024-03-27T0800,1263A,119.686,29.1029,金华市,监测站,颗粒物(PM10),56,62,36,38,21,33,,36,36,46,32,7,3,0.8,0.6
2024-03-27T0800,3659A,119.656,29.1131,金华市,气象局,颗粒物(PM10),51,52,36,33,13,45,,46,46,44,32,4,3,0.5,0.4
2024-03-27T0800,1767A,121.1115,41.0879,锦州市,南山,细颗粒物(PM2.5),100,85,59,75,53,72,,88,88,41,34,18,16,0.7,0.5
2024-03-27T0800,1768A,121.0533,40.8434,锦州市,开发区,细颗粒物(PM2.5),114,99,80,86,63,64,,74,74,38,37,11,17,0.9,0.7
2024-03-27T0800,1769A,121.1836,41.1119,锦州市,百股街道,细颗粒物(PM2.5),104,,57,78,54,77,,98,98,30,25,13,16,0.6,0.5
2024-03-27T0800,1770A,121.1178,41.1222,锦州市,天安街道,细颗粒物(PM2.5),115,,61,87,63,70,,88,88,30,26,18,14,0.6,0.4
2024-03-27T0800,1771A,121.1303,41.1386,锦州市,北湖公园,细颗粒物(PM2.5),112,,55,84,60,71,,88,88,35,26,18,15,0.8,0.6
2024-03-27T0800,2160A,112.85,35.5051,晋城市,自来水公司,颗粒物(PM10),64,78,68,29,40,9,,23,23,53,31,6,6,1.3,1.1
2024-03-27T0800,2161A,112.8318,35.4936,晋城市,白云商贸,,,,94,,56,,,41,,,26,,6,,2.2
2024-03-27T0800,2162A,112.8508,35.4887,晋城市,市环保局,颗粒物(PM10),66,82,77,36,38,9,,21,21,59,37,6,6,0.9,1
2024-03-27T0800,2163A,112.8676,35.4897,晋城市,技术学院,颗粒物(PM10),64,77,77,31,39,11,,29,29,53,35,3,4,0.9,1.1
2024-03-27T0800,2165A,112.8453,35.546,晋城市,白马寺,,,,,,,,,,,,,,,,
2024-03-27T0800,3620A,112.8271,35.4828,晋城市,泽州一中,细颗粒物(PM2.5),83,92,72,61,43,31,,52,52,35,24,5,7,0.9,1
2024-03-27T0800,2171A,112.7532,37.6945,晋中市,锦纶小区,颗粒物(PM10),62,73,87,27,40,29,,44,44,35,30,11,16,0.5,0.6
2024-03-27T0800,2173A,112.7249,37.7067,晋中市,南都小区,颗粒物(PM10),72,93,85,36,43,25,,56,56,50,28,9,14,0.7,0.7
2024-03-27T0800,2174A,112.6991,37.6982,晋中市,榆次区政府,颗粒物(PM10),76,102,86,37,43,14,,53,53,59,30,13,14,0.6,0.8
2024-03-27T0800,2865A,112.7195,37.6828,晋中市,榆次三中,,,112,97,,40,19,,40,40,46,32,,15,0.8,0.9
2024-03-27T0800,2439A,112.2014,31.0481,荆门市,竹园小学,细颗粒物(PM2.5),74,77,67,54,50,69,,66,66,33,24,9,12,1.0,0.7
2024-03-27T0800,2440A,112.1969,30.9891,荆门市,掇刀,细颗粒物(PM2.5),78,73,66,57,51,74,,73,73,21,17,8,11,0.6,0.6
2024-03-27T0800,2441A,112.2213,31.0386,荆门市,石化一小,细颗粒物(PM2.5),74,74,71,54,53,68,,67,67,29,25,16,17,0.8,0.7
2024-03-27T0800,3012A,112.1849,31.0362,荆门市,西山林语,细颗粒物(PM2.5),82,71,59,60,47,57,,56,56,36,19,11,10,1.0,0.6
2024-03-27T0800,3547A,112.1632,31.0138,荆门市,龙泉中学南校,细颗粒物(PM2.5),60,61,57,43,32,83,,64,64,11,13,8,10,0.9,0.7
2024-03-27T0800,1844A,112.2494,30.3197,荆州市,市图书馆,颗粒物(PM10),55,59,36,29,26,66,,80,80,25,21,10,8,0.8,0.8
2024-03-27T0800,1845A,112.2008,30.3544,荆州市,市委党校,颗粒物(PM10),55,59,39,34,32,77,,71,71,22,24,10,8,0.8,0.8
2024-03-27T0800,3194A,112.2747,30.3122,荆州市,管委会,颗粒物(PM10),51,52,35,27,29,71,,84,84,24,18,12,11,0.7,0.7
2024-03-27T0800,3548A,112.1655,30.3364,荆州市,学苑路,细颗粒物(PM2.5),74,57,42,54,37,74,,53,53,19,30,7,8,0.8,0.8
2024-03-27T0800,2342A,117.3102,29.3867,景德镇市,王港中学,,13,12,10,9,6,15,,15,15,5,4,4,4,0,0
2024-03-27T0800,2343A,117.2117,29.2933,景德镇市,老干部活动中心,,23,23,19,14,12,28,,16,16,18,19,4,6,0.3,0.3
2024-03-27T0800,2344A,117.1894,29.2789,景德镇市,兽医站,,18,14,18,12,13,33,,25,25,13,13,7,7,0.8,0.8
2024-03-27T0800,2345A,117.1547,29.2617,景德镇市,台达陶瓷,,23,21,26,16,15,37,,28,28,17,26,4,14,0.6,0.7
2024-03-27T0800,2346A,117.2461,29.2956,景德镇市,陶研所,,28,28,20,16,9,10,,5,5,22,17,19,8,0.5,0.4
2024-03-27T0800,1803A,115.9872,29.6815,九江市,十里,细颗粒物(PM2.5),53,49,41,37,29,34,,42,42,26,24,18,13,0.7,0.7
2024-03-27T0800,1804A,115.9584,29.7046,九江市,茅山头,细颗粒物(PM2.5),69,51,39,50,35,36,,35,35,29,32,16,13,0.8,0.8
2024-03-27T0800,1805A,115.9877,29.7295,九江市,西园,细颗粒物(PM2.5),65,61,42,47,32,45,,38,38,28,28,16,12,0.8,0.7
2024-03-27T0800,1806A,116.0172,29.6547,九江市,五七二七厂,细颗粒物(PM2.5),62,,44,44,32,29,,36,36,14,16,10,10,1.0,0.8
2024-03-27T0800,1808A,115.9114,29.6038,九江市,综合工业园,细颗粒物(PM2.5),63,,33,45,34,32,,23,23,37,32,15,11,0.9,0.7
2024-03-27T0800,1809A,116.0721,29.7535,九江市,石化总厂,颗粒物(PM10),59,67,42,40,28,23,,26,26,39,30,16,9,0.9,0.7
2024-03-27T0800,1810A,115.9773,29.5698,九江市,庐山气象台,,32,,15,16,18,101,,116,116,4,5,6,7,1.0,0.8
2024-03-27T0800,3190A,116.0254,29.6994,九江市,外国语学校,,50,41,40,35,29,40,,36,36,25,30,14,13,0.7,0.7
2024-03-27T0800,2658A,98.5061,39.7443,酒泉市,仓门街子站,颗粒物(PM10),63,75,118,22,23,63,,82,82,26,12,15,11,0.7,0.4
2024-03-27T0800,2659A,98.4989,39.7256,酒泉市,油田生活基地,颗粒物(PM10),56,61,113,25,24,69,,82,82,20,12,9,13,0.2,0.3
2024-03-27T0800,2698A,76.0072,39.4467,喀什地区,巡警大队,颗粒物(PM10),124,197,253,43,48,36,,29,29,47,34,4,4,0.7,0.6
2024-03-27T0800,2699A,75.9755,39.4694,喀什地区,吾办,颗粒物(PM10),120,190,237,62,67,26,,24,24,38,30,5,5,0.9,0.7
2024-03-27T0800,4027A,75.9483,39.4689,喀什地区,老干局,颗粒物(PM10),130,210,250,47,52,38,,28,28,28,28,3,4,0.9,0.8
2024-03-27T0800,1824A,114.3389,34.7781,开封市,肿瘤医院,细颗粒物(PM2.5),65,51,47,47,43,54,,56,56,16,16,3,4,0.7,0.7
2024-03-27T0800,1826A,114.2885,34.7965,开封市,世纪星幼儿园,,43,43,47,28,33,61,,69,69,16,15,3,2,0.6,0.6
2024-03-27T0800,3147A,114.3438,34.8106,开封市,龙亭公园,,48,39,52,33,34,45,,48,48,13,15,4,4,0.3,0.3
2024-03-27T0800,3210A,114.3644,34.7964,开封市,汴京公园,细颗粒物(PM2.5),67,,52,48,47,51,,54,54,18,16,5,5,0.8,0.8
2024-03-27T0800,3473A,114.2485,34.8306,开封市,技师学院,细颗粒物(PM2.5),69,,47,50,49,58,,66,66,9,9,7,6,0.8,0.8
2024-03-27T0800,3592A,114.4644,34.7556,开封市,祥符区生态环境局,,,,44,,44,42,,53,53,26,17,5,4,0.5,0.5
2024-03-27T0800,1951A,84.895,45.6094,克拉玛依市,长征新村,,19,10,13,0,6,58,,73,73,11,8,8,9,0.3,0.2
2024-03-27T0800,1952A,84.8988,45.5893,克拉玛依市,南林小区,,16,10,11,3,5,49,,76,76,21,11,6,6,0.4,0.4
2024-03-27T0800,1954A,84.905,44.3396,克拉玛依市,独山子区,,50,50,33,30,24,46,,62,62,16,11,7,10,0.6,0.5
2024-03-27T0800,1955A,85.6979,46.098,克拉玛依市,乌尔禾区商贸楼,,22,,15,15,6,52,,43,43,10,14,8,8,0.2,0.2
2024-03-27T0800,3612A,85.1045,45.6899,克拉玛依市,白碱滩区新站,,25,,11,17,10,71,,81,81,5,8,8,8,0.1,0
2024-03-27T0800,2697A,76.1454,39.7142,克孜勒苏柯尔克孜自治州,市人民政府,颗粒物(PM10),108,165,148,46,43,72,,62,62,2,11,5,5,0.1,0.1
2024-03-27T0800,3665A,76.1658,39.7157,克孜勒苏柯尔克孜自治州,克州文化中心,颗粒物(PM10),96,142,144,44,41,81,,70,70,3,12,5,6,0.1,0.2
2024-03-27T0800,1450A,102.8204,24.8886,昆明市,呈贡新区,细颗粒物(PM2.5),82,68,46,60,41,91,,95,95,30,19,5,6,0.7,0.5
2024-03-27T0800,1451A,102.6251,24.9608,昆明市,西山森林公园,,,,,,,,,,,,,,,,
2024-03-27T0800,1452A,102.7252,25.0902,昆明市,龙泉镇,细颗粒物(PM2.5),74,85,57,54,36,6,,5,5,87,45,6,6,1.1,0.8
2024-03-27T0800,1453A,102.7266,25.0375,昆明市,东风东路,颗粒物(PM10),60,69,56,42,36,76,,88,88,40,23,16,9,0.7,0.5
2024-03-27T0800,1454A,102.6742,25.0669,昆明市,金鼎山,细颗粒物(PM2.5),77,75,52,56,34,23,,65,65,78,26,5,5,0.9,0.6
2024-03-27T0800,1455A,102.6644,25.0401,昆明市,碧鸡广场,细颗粒物(PM2.5),78,80,56,57,38,60,,73,73,54,29,11,10,1.2,0.7
2024-03-27T0800,3179A,102.7494,25.0119,昆明市,官渡区博物馆,细颗粒物(PM2.5),83,94,56,61,34,7,,74,74,89,22,11,9,1.6,0.7
2024-03-27T0800,3375A,102.8017,24.8336,昆明市,青年创业园,细颗粒物(PM2.5),64,65,53,46,34,107,,113,113,20,12,15,10,0.9,0.6
2024-03-27T0800,3550A,102.7997,24.9786,昆明市,昆明学院,细颗粒物(PM2.5),74,74,57,54,36,75,,87,87,30,17,13,10,0.9,0.7
2024-03-27T0800,3551A,102.5967,24.6736,昆明市,晋宁区生态环境分局,细颗粒物(PM2.5),67,73,50,48,37,101,,102,102,15,10,6,4,1.1,0.6
2024-03-27T0800,3552A,102.6678,24.9856,昆明市,云天化总部,细颗粒物(PM2.5),68,69,49,49,33,61,,94,94,43,14,12,7,0.9,0.7
2024-03-27T0800,1456A,91.1319,29.6514,拉萨市,八廓街,,33,,15,23,9,71,,80,80,16,11,6,6,0.4,0.4
2024-03-27T0800,1457A,91.1221,29.6747,拉萨市,市环保局,,22,22,19,9,9,65,,74,74,16,12,6,6,0.4,0.3
2024-03-27T0800,1458A,91.0874,29.6475,拉萨市,区监测站,,22,15,14,7,7,69,,79,79,15,12,4,5,0.6,0.5
2024-03-27T0800,1459A,91.1774,29.6541,拉萨市,西藏大学,,23,18,16,8,8,71,,78,78,8,6,3,3,0.2,0.2
2024-03-27T0800,1460A,90.9798,29.6588,拉萨市,区辐射站,,23,23,18,12,9,55,,60,60,20,16,6,6,0.4,0.4
2024-03-27T0800,1461A,91.0834,29.6292,拉萨市,拉萨火车站,,23,15,15,7,8,72,,78,78,12,10,3,3,0.4,0.3
2024-03-27T0800,2520A,109.2203,23.7256,来宾市,来宾技工学校,颗粒物(PM10),66,82,51,45,30,29,,29,29,25,18,14,11,1.0,1
2024-03-27T0800,3535A,109.1781,23.7297,来宾市,兴宾区政府,细颗粒物(PM2.5),87,108,47,64,28,25,,36,36,36,17,12,6,1.3,1
2024-03-27T0800,4002A,109.2416,23.7461,来宾市,中南小学,,,75,51,44,32,32,,29,29,30,23,,9,1.0,0.9
2024-03-27T0800,1476A,103.631,36.1031,兰州市,兰炼宾馆,,36,33,47,25,30,78,,58,58,23,30,7,11,0.4,0.5
2024-03-27T0800,1477A,104.1373,35.9454,兰州市,榆中兰大校区,,,,,,,,,,,,,,,,
2024-03-27T0800,1478A,103.8412,36.0726,兰州市,生物制品所,,50,,39,35,33,60,,39,39,40,34,8,10,0.5,0.7
2024-03-27T0800,1479A,103.831,36.0464,兰州市,铁路设计院,,46,36,41,32,28,71,,51,51,38,35,7,8,0.4,0.6
2024-03-27T0800,3186A,103.7158,36.1058,兰州市,教育港,,42,33,37,29,27,63,,54,54,40,27,6,7,0.6,0.5
2024-03-27T0800,3241A,103.7439,36.0842,兰州市,百合公园,,42,30,40,29,22,70,,51,51,29,27,5,5,0.5,0.6
2024-03-27T0800,3242A,103.9611,35.998,兰州市,和平,,26,25,28,17,16,81,,58,58,22,22,9,9,0.7,0.7
2024-03-27T0800,3245A,103.6633,36.533,兰州新区,新区管委会,,32,32,41,19,25,97,,97,97,6,13,5,7,0.4,0.5
2024-03-27T0800,3246A,103.6975,36.4789,兰州新区,舟曲中学,,33,33,36,10,18,89,,90,90,11,16,6,8,0.5,0.6
2024-03-27T0800,1067A,116.6708,39.5111,廊坊市,药材公司,细颗粒物(PM2.5),123,133,102,93,77,0,,5,5,63,41,2,2,1.5,1
2024-03-27T0800,1068A,116.7214,39.5589,廊坊市,开发区,细颗粒物(PM2.5),130,125,104,99,82,2,,6,6,59,41,2,2,1.0,0.7
2024-03-27T0800,1070A,116.7244,39.5269,廊坊市,北华航天学院,细颗粒物(PM2.5),125,132,101,95,80,2,,8,8,54,37,2,2,1.2,0.8
2024-03-27T0800,2919A,116.7022,39.5453,廊坊市,河北工业大学,细颗粒物(PM2.5),129,131,99,98,83,2,,9,9,66,42,3,2,1.1,0.8
2024-03-27T0800,2535A,103.7723,29.5462,乐山市,花湖湾,颗粒物(PM10),53,55,54,27,27,54,,84,84,17,17,4,6,0.6,0.5
2024-03-27T0800,2536A,103.7627,29.5844,乐山市,牛耳桥,,42,30,44,29,31,75,,97,97,25,22,4,6,0.7,0.5
2024-03-27T0800,2537A,103.7508,29.6006,乐山市,市第三水厂,,33,28,37,23,25,88,,98,98,20,21,3,6,0.6,0.5
2024-03-27T0800,2538A,103.7571,29.5664,乐山市,市监测站,,30,30,36,19,22,69,,97,97,25,18,5,7,0.7,0.6
2024-03-27T0800,3361A,103.7311,29.5628,乐山市,理工大学,,30,27,39,21,25,70,,95,95,18,19,6,8,0.5,0.4
2024-03-27T0800,2598A,100.2143,26.8576,丽江市,西南郊,,,,,,,,,,,,,,,,
2024-03-27T0800,2599A,100.2497,26.8802,丽江市,丽江古城,,,,36,,20,,,96,,,11,,10,,0.5
2024-03-27T0800,2600A,100.2203,26.8906,丽江市,市中心,,26,11,24,9,13,82,,90,90,20,10,11,11,0.6,0.5
2024-03-27T0800,1267A,119.914,28.4514,丽水市,监测站大楼,,28,23,20,18,6,88,,86,86,10,11,3,3,0.5,0.5
2024-03-27T0800,1268A,119.93,28.4586,丽水市,莲都小学,,32,30,23,22,8,84,,86,86,14,10,2,2,0.4,0.4
2024-03-27T0800,1269A,119.879,28.4231,丽水市,余庄前,,33,33,24,22,15,83,,73,73,9,12,4,4,0.5,0.5
2024-03-27T0800,1173A,119.176,34.5885,连云港市,市环境监测站,细颗粒物(PM2.5),85,83,66,63,49,42,,36,36,26,34,7,8,0.6,0.6
2024-03-27T0800,3000A,119.3581,34.6972,连云港市,德源药业,细颗粒物(PM2.5),83,90,71,61,42,30,,31,31,47,36,5,6,0.8,0.7
2024-03-27T0800,3007A,119.178,34.844,连云港市,新城一中,细颗粒物(PM2.5),93,90,69,69,49,39,,36,36,61,46,10,10,0.9,0.9
2024-03-27T0800,3008A,119.3608,34.7519,连云港市,胡沟管理处,细颗粒物(PM2.5),67,63,62,48,38,91,,94,94,10,29,12,12,0.8,0.9
2024-03-27T0800,3009A,119.1478,34.5911,连云港市,矿山设计院,细颗粒物(PM2.5),83,85,71,61,47,36,,33,33,26,27,7,8,0.8,0.8
2024-03-27T0800,3434A,119.2413,34.6539,连云港市,工贸学校,细颗粒物(PM2.5),87,71,65,64,50,86,,84,84,12,15,11,11,0.8,0.8
2024-03-27T0800,3664A,119.4172,34.7341,连云港市,连云街道,细颗粒物(PM2.5),80,77,69,59,46,100,,110,110,13,26,4,5,0.9,0.8
2024-03-27T0800,2571A,102.3431,27.8099,凉山彝族自治州,青龙寺,,30,30,32,6,6,87,,90,90,5,4,7,5,0.8,0.8
2024-03-27T0800,2572A,102.2721,27.8415,凉山彝族自治州,邛海宾馆,,28,24,29,19,17,81,,90,90,19,8,11,9,0.9,0.6
2024-03-27T0800,2573A,102.2625,27.898,凉山彝族自治州,西昌市政府,,25,25,28,17,17,75,,86,86,10,7,9,10,0.6,0.6
2024-03-27T0800,2574A,102.2685,27.8851,凉山彝族自治州,凉山州政府,,30,30,31,18,16,71,,90,90,18,6,7,8,0.5,0.5
2024-03-27T0800,2575A,102.237,27.8914,凉山彝族自治州,长安,,34,34,36,19,17,72,,89,89,20,8,8,9,0.8,0.8
2024-03-27T0800,2212A,123.2,41.1953,辽阳市,宏伟区,细颗粒物(PM2.5),69,,95,50,67,89,,88,88,13,33,10,21,0.8,1.4
2024-03-27T0800,2213A,123.1683,41.2495,辽阳市,新华园,细颗粒物(PM2.5),75,,82,55,65,97,,92,92,16,33,8,19,0.7,1.1
2024-03-27T0800,2214A,123.2354,41.2639,辽阳市,滨河路,细颗粒物(PM2.5),73,55,79,53,68,83,,78,78,16,28,8,17,0.8,1.2
2024-03-27T0800,2215A,123.149,41.2991,辽阳市,铁西工业园,细颗粒物(PM2.5),70,58,79,51,62,92,,80,80,16,31,11,19,0.8,1.2
2024-03-27T0800,2227A,125.1358,42.8845,辽源市,环保局,细颗粒物(PM2.5),69,60,76,50,60,65,,35,35,30,37,14,14,1.1,0.9
2024-03-27T0800,3239A,125.0764,42.9078,辽源市,银鹰制药,细颗粒物(PM2.5),65,61,73,47,55,67,,30,30,27,38,10,20,0.9,0.8
2024-03-27T0800,1625A,115.9848,36.4372,聊城市,区政府,细颗粒物(PM2.5),67,78,63,48,39,64,,65,65,18,15,8,7,0.7,0.6
2024-03-27T0800,2878A,116.0072,36.4343,聊城市,聊大东校,细颗粒物(PM2.5),75,77,59,55,44,70,,71,71,17,13,13,7,0.8,0.7
2024-03-27T0800,3200A,115.9819,36.4978,聊城市,监控中心,细颗粒物(PM2.5),79,73,66,58,42,70,,75,75,13,9,8,6,0.7,0.7
2024-03-27T0800,3513A,116.0445,36.4361,聊城市,九州社区,颗粒物(PM10),66,81,67,42,32,61,,66,66,12,9,11,10,0.7,0.6
2024-03-27T0800,4018A,116.0567,36.4608,聊城市,星美广场,颗粒物(PM10),64,77,66,41,36,62,,67,67,7,4,6,8,0.7,0.6
2024-03-27T0800,2632A,94.3681,29.6376,林芝市,林芝监测站,,,8,6,,1,57,,65,65,3,4,5,5,0.4,0.4
2024-03-27T0800,2633A,94.3616,29.6616,林芝市,林芝人民医院,,17,10,9,7,5,52,,66,66,9,6,6,6,0.5,0.4
2024-03-27T0800,2603A,100.0781,23.8982,临沧市,市环保局,细颗粒物(PM2.5),68,64,56,49,48,44,,63,63,21,14,13,10,0.6,0.6
2024-03-27T0800,2604A,100.0894,23.8822,临沧市,市气象局,细颗粒物(PM2.5),84,73,65,62,50,44,,62,62,23,15,14,9,0.7,0.5
2024-03-27T0800,1733A,111.5531,36.0783,临汾市,临钢医院,颗粒物(PM10),65,80,75,19,33,13,,12,12,40,28,6,8,0.6,0.7
2024-03-27T0800,1734A,111.5028,36.0714,临汾市,技工学校,颗粒物(PM10),60,69,76,20,39,22,,29,29,43,30,11,12,0.7,0.8
2024-03-27T0800,1736A,111.5018,36.0855,临汾市,市委,颗粒物(PM10),60,69,77,22,34,18,,25,25,46,36,8,9,0.6,0.7
2024-03-27T0800,3018A,111.505,36.1014,临汾市,唐尧大酒店,颗粒物(PM10),68,85,77,23,33,17,,25,25,46,27,8,10,0.6,0.7
2024-03-27T0800,3668A,111.5036,36.0414,临汾市,城南,颗粒物(PM10),82,113,85,29,44,2,,7,7,39,35,9,10,0.7,0.7
2024-03-27T0800,2667A,103.2069,35.5993,临夏回族自治州,环保局,细颗粒物(PM2.5),60,46,48,43,28,60,,23,23,9,13,3,4,0.4,0.5
2024-03-27T0800,2668A,103.2417,35.6057,临夏回族自治州,建设大厦,细颗粒物(PM2.5),65,59,38,47,27,12,,26,26,28,11,3,3,0.8,0.4
2024-03-27T0800,1618A,118.3429,35.0532,临沂市,沂河小区,细颗粒物(PM2.5),114,102,66,86,53,52,,58,58,31,22,18,10,0.8,0.7
2024-03-27T0800,1619A,118.295,35.0583,临沂市,鲁南制药厂,细颗粒物(PM2.5),89,95,60,66,44,53,,63,63,36,23,22,10,0.7,0.6
2024-03-27T0800,1620A,118.2794,34.9976,临沂市,新光毛纺厂,细颗粒物(PM2.5),107,102,62,80,56,35,,43,43,37,27,12,9,1.0,0.9
2024-03-27T0800,1621A,118.3956,35.0888,临沂市,河东保险公司,细颗粒物(PM2.5),107,102,63,80,46,35,,46,46,40,31,7,8,0.9,0.7
2024-03-27T0800,3370A,118.3564,35.0215,临沂市,十里堡居委,细颗粒物(PM2.5),94,95,57,70,42,41,,53,53,36,28,15,9,0.9,0.8
2024-03-27T0800,3496A,118.3604,35.1084,临沂市,南坊新区,细颗粒物(PM2.5),104,95,58,78,44,48,,58,58,33,26,13,10,0.9,0.7
2024-03-27T0800,3860A,118.3920,35.0300,临沂市,皇山花园小区,细颗粒物(PM2.5),105,102,62,79,50,38,,49,49,34,32,12,12,1.2,1
2024-03-27T0800,1870A,109.4856,24.3895,柳州市,柳东小学,细颗粒物(PM2.5),53,43,31,37,27,24,,57,57,48,15,12,9,0.6,0.6
2024-03-27T0800,1871A,109.4157,24.3277,柳州市,环保监测站,,49,,36,34,31,40,,49,49,26,15,10,8,0.7,0.8
2024-03-27T0800,1872A,109.389,24.341,柳州市,河西水厂,颗粒物(PM10),54,57,45,27,29,31,,32,32,31,19,15,10,1.1,1.1
2024-03-27T0800,1873A,109.4311,24.2921,柳州市,市四中,,43,43,33,27,19,27,,45,45,36,19,10,8,0.9,0.8
2024-03-27T0800,1874A,109.4006,24.3631,柳州市,市九中,颗粒物(PM10),51,51,44,29,27,39,,39,39,28,20,11,9,0.9,0.8
2024-03-27T0800,1875A,109.4958,24.3134,柳州市,古亭山,,33,31,25,23,14,17,,17,17,52,27,8,6,0.6,0.5
2024-03-27T0800,3402A,109.5422,24.3996,柳州市,市二中,细颗粒物(PM2.5),58,55,32,41,23,10,,28,28,48,23,11,8,1.0,0.9
2024-03-27T0800,2307A,116.5079,31.737,六安市,监测大楼,细颗粒物(PM2.5),83,,42,61,37,54,,77,77,27,17,5,4,0.8,0.6
2024-03-27T0800,2308A,116.4738,31.7643,六安市,皖西学院,细颗粒物(PM2.5),74,55,46,54,35,67,,84,84,17,12,3,3,0.7,0.5
2024-03-27T0800,2309A,116.4996,31.7905,六安市,朝阳厂,细颗粒物(PM2.5),79,,44,58,38,56,,80,80,26,12,6,4,0.6,0.4
2024-03-27T0800,2310A,116.5567,31.7886,六安市,开发区,细颗粒物(PM2.5),63,57,49,45,32,53,,76,76,19,15,3,3,0.7,0.5
2024-03-27T0800,2576A,104.8,26.5892,六盘水市,窑上,,,,,,,,,,,,,,,,
2024-03-27T0800,2577A,104.83,26.5917,六盘水市,黄土坡,,48,48,48,28,25,118,,126,126,8,9,7,7,0.6,0.6
2024-03-27T0800,2578A,104.89,26.5939,六盘水市,水钢,,46,41,49,32,27,119,,126,126,8,7,9,8,0.6,0.6
2024-03-27T0800,2579A,104.8475,26.5894,六盘水市,民中,,50,50,42,34,25,114,,121,121,7,7,8,8,0.7,0.7
2024-03-27T0800,2580A,104.9544,26.5506,六盘水市,双水,颗粒物(PM10),56,61,54,35,30,91,,108,108,17,9,8,8,0.7,0.7
2024-03-27T0800,2335A,117.0189,25.1181,龙岩市,龙岩师专,,,,,,,,,,,,,,,,
2024-03-27T0800,2336A,117.0217,25.1033,龙岩市,龙岩市监测站,细颗粒物(PM2.5),55,46,32,39,24,37,,53,53,28,15,12,8,0.8,0.6
2024-03-27T0800,2337A,117.0258,25.0661,龙岩市,闽西职业技术学院,细颗粒物(PM2.5),55,48,37,39,27,33,,64,64,29,12,30,11,0.7,0.6
2024-03-27T0800,2338A,117.0196,25.0306,龙岩市,龙岩学院,细颗粒物(PM2.5),59,48,32,42,24,49,,57,57,17,10,10,7,0.7,0.6
2024-03-27T0800,2665A,105.0822,33.3261,陇南市,汉王镇固水子,,,,,,,,,,,,,,,,
2024-03-27T0800,2885A,104.9339,33.3826,陇南市,滨江中学,颗粒物(PM10),56,61,61,37,22,18,,28,28,26,20,17,10,1.1,0.9
2024-03-27T0800,3247A,104.955,33.371,陇南市,市总工会,,44,44,42,13,14,38,,46,46,17,15,10,9,0.7,0.6
2024-03-27T0800,2487A,111.9589,27.8901,娄底市,电视发射台,,33,33,31,15,19,67,,78,78,7,7,4,5,0.7,0.6
2024-03-27T0800,2488A,111.9975,27.725,娄底市,市监测站,颗粒物(PM10),53,55,38,35,27,79,,91,91,22,14,16,8,0.9,0.8
2024-03-27T0800,2489A,112.0194,27.7314,娄底市,市委党校,颗粒物(PM10),52,54,34,32,25,68,,87,87,23,14,9,5,1.0,0.8
2024-03-27T0800,2490A,111.9561,27.7569,娄底市,涟钢,颗粒物(PM10),52,54,42,33,27,32,,54,54,50,27,8,9,0.8,0.8
2024-03-27T0800,2491A,111.9892,27.7044,娄底市,市政府,,38,28,34,26,27,52,,78,78,18,12,7,8,0.8,0.8
2024-03-27T0800,1893A,105.4324,28.9634,泸州市,九狮山,,35,33,34,24,21,20,,38,38,26,19,5,7,0.6,0.6
2024-03-27T0800,1894A,105.4427,28.9063,泸州市,小市上码头,颗粒物(PM10),54,57,44,31,25,27,,46,46,27,18,11,11,0.9,0.6
2024-03-27T0800,1895A,105.4241,28.8573,泸州市,兰田宪桥,颗粒物(PM10),56,62,46,34,29,22,,38,38,26,19,8,9,0.6,0.5
2024-03-27T0800,1896A,105.4379,28.8833,泸州市,市环监站,,45,45,28,28,28,23,,42,42,31,17,11,11,0.7,0.6
2024-03-27T0800,3490A,105.3617,28.7703,泸州市,纳溪区环保局,细颗粒物(PM2.5),55,55,60,39,28,10,,32,32,30,23,10,9,0.9,0.7
2024-03-27T0800,2183A,111.1406,37.5211,吕梁市,环保局,颗粒物(PM10),65,80,80,28,24,5,,9,9,54,47,6,6,0.6,0.5
2024-03-27T0800,2185A,111.1297,37.5136,吕梁市,自来水公司,颗粒物(PM10),95,139,104,33,29,7,,4,4,48,44,6,6,0.6,0.6
2024-03-27T0800,2867A,111.1283,37.51,吕梁市,马茂庄小学,颗粒物(PM10),89,127,103,32,26,6,,6,6,57,51,5,5,0.7,0.6
2024-03-27T0800,1812A,112.3931,34.6516,洛阳市,市委党校,细颗粒物(PM2.5),90,93,66,67,50,9,,39,39,54,28,4,5,0.9,0.6
2024-03-27T0800,1814A,112.4657,34.6871,洛阳市,豫西宾馆,颗粒物(PM10),74,98,80,52,41,16,,18,18,50,36,7,9,0.9,0.7
2024-03-27T0800,1815A,112.494,34.6886,洛阳市,河南林校,细颗粒物(PM2.5),79,71,63,58,47,22,,16,16,45,36,7,9,0.7,0.7
2024-03-27T0800,1816A,112.3844,34.623,洛阳市,开发区管委会,细颗粒物(PM2.5),85,78,65,63,46,38,,53,53,25,19,4,5,0.6,0.5
2024-03-27T0800,1817A,112.4267,34.6258,洛阳市,市委新办公区,细颗粒物(PM2.5),75,91,63,55,40,31,,47,47,32,23,5,7,0.7,0.6
2024-03-27T0800,3340A,112.6005,34.6326,洛阳市,伊滨,细颗粒物(PM2.5),75,75,84,55,54,12,,8,8,40,39,4,9,0.9,1
2024-03-27T0800,3341A,112.4951,34.6332,洛阳市,中移产业园,细颗粒物(PM2.5),78,72,58,57,43,18,,28,28,41,29,5,9,1.0,0.8
2024-03-27T0800,3593A,112.5736,34.8993,洛阳市,吉利监测站,细颗粒物(PM2.5),79,74,62,58,46,6,,5,5,45,41,6,7,0.9,0.7
2024-03-27T0800,3635A,112.3677,34.662,洛阳市,河科大西苑校区,细颗粒物(PM2.5),87,90,61,64,42,6,,32,32,47,25,6,5,0.6,0.5
2024-03-27T0800,3636A,112.4388,34.6781,洛阳市,英才小学,颗粒物(PM10),65,80,80,46,38,24,,35,35,41,30,6,8,0.9,0.8
2024-03-27T0800,2399A,114.051,33.5699,漯河市,三五一五工厂,细颗粒物(PM2.5),57,,41,40,40,60,,58,58,12,14,7,8,0.5,0.5
2024-03-27T0800,2400A,114.0055,33.5698,漯河市,漯河大学,细颗粒物(PM2.5),55,55,54,39,37,59,,69,69,13,11,7,6,0.6,0.6
2024-03-27T0800,2401A,114.0138,33.5828,漯河市,市水利局,,49,44,44,34,34,58,,70,70,15,15,6,6,0.4,0.4
2024-03-27T0800,2402A,114.0261,33.5698,漯河市,市广电局,,42,34,42,29,35,69,,66,66,6,9,2,3,0.6,0.6
2024-03-27T0800,3478A,113.9749,33.5664,漯河市,市图书馆,细颗粒物(PM2.5),54,,41,38,32,56,,63,63,16,15,11,10,0.5,0.5
2024-03-27T0800,3479A,114.0967,33.5906,漯河市,召陵区卫健委,细颗粒物(PM2.5),53,,44,37,29,71,,59,59,12,16,4,4,0.5,0.5
2024-03-27T0800,1798A,118.5092,31.6837,马鞍山市,湖东路四小,细颗粒物(PM2.5),69,62,59,50,34,57,,72,72,34,24,8,11,0.8,1
2024-03-27T0800,1799A,118.5024,31.6449,马鞍山市,开发区,细颗粒物(PM2.5),83,62,51,61,44,57,,66,66,38,34,7,7,0.8,0.9
2024-03-27T0800,1800A,118.5228,31.7231,马鞍山市,慈湖,细颗粒物(PM2.5),93,,53,69,40,57,,73,73,36,31,10,13,0.8,1
2024-03-27T0800,1802A,118.6245,31.7241,马鞍山市,濮塘,细颗粒物(PM2.5),63,71,45,45,28,51,,67,67,27,15,6,5,0.7,0.6
2024-03-27T0800,3633A,118.4918,31.6809,马鞍山市,雨山,细颗粒物(PM2.5),72,55,44,52,37,62,,77,77,34,25,6,10,1.0,1.2
2024-03-27T0800,1686A,111.0286,21.4688,茂名市,电白南海,,45,44,36,31,26,34,,31,31,9,9,6,6,0.5,0.4
2024-03-27T0800,1687A,110.9294,21.6533,茂名市,茂石化七小,细颗粒物(PM2.5),58,48,39,41,32,24,,25,25,22,14,12,10,0.8,0.6
2024-03-27T0800,1688A,110.9107,21.6687,茂名市,健康路,,45,36,31,31,24,34,,33,33,18,11,13,9,0.5,0.4
2024-03-27T0800,1689A,110.8592,21.6828,茂名市,高岭,颗粒物(PM10),60,70,48,41,30,32,,32,32,15,9,9,9,0.7,0.7
2024-03-27T0800,3450A,111.01,21.5165,茂名市,电白水东,,42,29,28,29,22,45,,39,39,13,8,5,6,0.5,0.5
2024-03-27T0800,2539A,104.0308,30.0478,眉山市,黑龙滩水库,,,42,35,37,25,51,,52,52,13,16,,,0.5,0.5
2024-03-27T0800,2540A,103.8416,30.0874,眉山市,气象局,颗粒物(PM10),51,52,51,24,18,67,,71,71,33,32,13,11,0.4,0.4
2024-03-27T0800,3137A,103.8578,30.0744,眉山市,市委党校,,44,44,42,24,21,69,,73,73,32,29,10,10,0.7,0.5
2024-03-27T0800,3148A,103.8291,30.0564,眉山市,区人社局,,43,43,43,29,25,58,,72,72,42,32,11,11,0.7,0.5
2024-03-27T0800,1690A,116.1231,24.3284,梅州市,梅江月梅,,38,31,32,26,18,70,,59,59,14,18,9,9,0.5,0.5
2024-03-27T0800,1691A,116.0797,24.2719,梅州市,梅县新城,,43,43,27,29,12,28,,40,40,36,15,8,6,0.8,0.7
2024-03-27T0800,1692A,116.1248,24.2654,梅州市,环境监控中心,,50,38,29,35,18,60,,32,32,22,24,12,6,0.6,0.6
2024-03-27T0800,3315A,116.1233,24.2991,梅州市,梅龙,,40,36,27,28,19,75,,64,64,9,11,11,10,0.7,0.7
2024-03-27T0800,1878A,104.7778,31.4741,绵阳市,富乐山,,36,36,31,14,20,15,,11,11,26,25,7,8,0.8,0.7
2024-03-27T0800,1879A,104.7563,31.4535,绵阳市,市人大,,40,40,42,24,21,9,,22,22,37,36,10,8,0.7,0.6
2024-03-27T0800,1880A,104.6697,31.4668,绵阳市,高新区自来水公司,,32,32,44,18,19,15,,28,28,34,32,8,8,0.6,0.5
2024-03-27T0800,1881A,104.7287,31.5075,绵阳市,三水厂,,41,41,41,22,20,2,,11,11,37,38,4,4,0.9,0.7
2024-03-27T0800,3491A,104.69,31.5322,绵阳市,西科大附属小学,,33,33,32,18,17,8,,18,18,31,32,7,7,0.9,0.7
2024-03-27T0800,3492A,104.5648,31.5343,绵阳市,安州区旅游局,,29,28,34,20,18,14,,21,21,22,23,10,7,0.5,0.5
2024-03-27T0800,1784A,129.61,44.561,牡丹江市,环保大楼,颗粒物(PM10),63,75,50,26,30,35,,31,31,36,28,16,11,0.7,0.6
2024-03-27T0800,1785A,129.6115,44.5782,牡丹江市,文化广场,颗粒物(PM10),74,97,77,37,42,30,,40,40,42,30,26,18,0.8,0.7
2024-03-27T0800,1786A,129.5904,44.5963,牡丹江市,第一医院,,42,35,46,29,30,46,,43,43,28,23,20,13,0.8,0.7
2024-03-27T0800,1787A,129.6364,44.6075,牡丹江市,机车工厂,颗粒物(PM10),54,58,53,31,26,51,,30,30,21,21,23,14,0.4,0.4
2024-03-27T0800,1788A,129.6386,44.5462,牡丹江市,第一中学,,42,42,46,15,24,38,,26,26,27,26,18,11,1.0,0.6
2024-03-27T0800,2531A,105.0703,29.61,内江市,市监测站,细颗粒物(PM2.5),53,46,36,37,28,13,,45,45,36,20,10,12,0.6,0.5
2024-03-27T0800,2532A,105.0717,29.5947,内江市,东兴区政府,,40,38,39,28,20,32,,57,57,28,16,12,13,0.7,0.6
2024-03-27T0800,2533A,105.0653,29.5817,内江市,内江二中,,50,39,35,35,28,20,,51,51,35,17,8,9,0.9,0.7
2024-03-27T0800,2534A,105.0406,29.5822,内江市,内江日报社,,50,44,35,35,27,14,,46,46,48,24,13,13,1.0,0.8
2024-03-27T0800,2628A,92.0657,31.4846,那曲市,那曲监测站,"颗粒物(PM10),细颗粒物(PM2.5)",52,54,37,36,19,41,,63,63,15,7,14,6,1.3,0.9
2024-03-27T0800,3128A,92.0506,31.4797,那曲市,那曲会议中心,颗粒物(PM10),68,85,50,45,22,41,,61,61,27,9,11,8,0.7,0.5
2024-03-27T0800,1290A,115.8931,28.6843,南昌市,省外办,细颗粒物(PM2.5),73,87,49,53,34,15,,26,26,63,30,9,7,0.7,0.5
2024-03-27T0800,1291A,115.8886,28.7003,南昌市,省林业公司,颗粒物(PM10),56,61,47,34,28,13,,10,10,75,46,8,6,0.8,0.7
2024-03-27T0800,1292A,115.8126,28.7442,南昌市,林科所,,45,39,24,31,18,17,,45,45,67,27,8,7,0.6,0.6
2024-03-27T0800,1294A,115.8518,28.687,南昌市,建工学校,颗粒物(PM10),53,56,40,35,26,27,,31,31,55,29,6,5,0.7,0.6
2024-03-27T0800,1295A,115.8921,28.6424,南昌市,象湖,细颗粒物(PM2.5),65,57,36,47,26,35,,29,29,47,32,7,5,0.8,0.6
2024-03-27T0800,1296A,115.7423,28.7996,南昌市,武术学校,,18,13,16,12,17,12,,10,10,2,3,8,9,0.4,0.4
2024-03-27T0800,1298A,115.9314,28.6842,南昌市,省站,颗粒物(PM10),74,97,49,52,33,29,,34,34,48,26,10,9,0.9,0.7
2024-03-27T0800,3046A,115.9084,28.6062,南昌市,机电学校,细颗粒物(PM2.5),62,58,48,44,30,51,,18,18,35,37,7,6,0.8,0.7
2024-03-27T0800,3690A,115.9721,28.7031,南昌市,外国语学校,细颗粒物(PM2.5),54,51,40,38,26,57,,37,37,31,31,7,5,0.6,0.5
2024-03-27T0800,1905A,106.056,30.8064,南充市,西山风景区,,32,,20,22,20,55,,66,66,12,13,5,10,0.5,0.5
2024-03-27T0800,1906A,106.0789,30.8023,南充市,南充市委,,34,34,37,12,13,25,,38,38,28,22,6,8,0.7,0.6
2024-03-27T0800,1907A,106.1031,30.8217,南充市,南充炼油厂,,49,49,47,23,27,15,,39,39,34,24,7,9,0.6,0.5
2024-03-27T0800,1908A,106.1064,30.7856,南充市,高坪区监测站,颗粒物(PM10),52,54,39,30,21,9,,23,23,41,24,6,7,0.6,0.3
2024-03-27T0800,1909A,106.0642,30.7636,南充市,嘉陵区环保局,颗粒物(PM10),61,71,39,27,20,7,,34,34,44,26,10,8,0.5,0.4
2024-03-27T0800,1910A,106.1087,30.8388,南充市,市环境监测站,,42,42,46,27,24,32,,47,47,29,22,18,9,0.8,0.6
2024-03-27T0800,1151A,118.8086,32.1065,南京市,迈皋桥,细颗粒物(PM2.5),85,88,50,63,38,26,,32,32,45,33,3,4,0.7,0.5
2024-03-27T0800,1152A,118.7538,32.0551,南京市,草场门,细颗粒物(PM2.5),85,68,44,63,36,35,,43,43,43,34,2,2,0.6,0.4
2024-03-27T0800,1153A,118.7794,32.0745,南京市,山西路,细颗粒物(PM2.5),100,83,48,75,41,32,,50,50,45,24,4,4,0.7,0.5
2024-03-27T0800,1154A,118.7752,32.0023,南京市,中华门,细颗粒物(PM2.5),79,90,50,58,35,41,,44,44,36,29,6,7,0.7,0.6
2024-03-27T0800,1155A,118.8109,32.0309,南京市,瑞金路,细颗粒物(PM2.5),79,92,57,58,35,32,,36,36,43,31,10,9,0.6,0.5
2024-03-27T0800,1156A,118.7997,32.0754,南京市,玄武湖,细颗粒物(PM2.5),102,78,51,76,38,40,,48,48,41,25,8,7,0.8,0.6
2024-03-27T0800,1157A,118.6414,32.0931,南京市,浦口,细颗粒物(PM2.5),89,71,47,66,33,30,,31,31,45,33,5,4,0.8,0.6
2024-03-27T0800,1158A,118.7356,31.9996,南京市,奥体中心,细颗粒物(PM2.5),83,95,55,61,36,37,,42,42,40,28,8,7,0.6,0.5
2024-03-27T0800,1159A,118.9125,32.1028,南京市,仙林大学城,细颗粒物(PM2.5),94,78,48,70,39,40,,38,38,37,30,7,6,0.9,0.8
2024-03-27T0800,3422A,118.8436,31.9198,南京市,江宁彩虹桥,细颗粒物(PM2.5),77,65,44,56,33,37,,30,30,40,27,5,4,0.6,0.5
2024-03-27T0800,3423A,119.0138,31.6494,南京市,溧水永阳,颗粒物(PM10),56,61,46,25,30,56,,33,33,27,27,4,4,0.7,0.7
2024-03-27T0800,3424A,118.879,31.3302,南京市,高淳老职中,细颗粒物(PM2.5),53,47,45,37,29,62,,62,62,19,14,7,5,0.5,0.7
2024-03-27T0800,3427A,118.8554,32.3578,南京市,六合雄州,细颗粒物(PM2.5),98,74,41,73,36,30,,21,21,46,31,8,5,0.8,0.6
2024-03-27T0800,1401A,108.3103,22.7881,南宁市,二十一中,,,57,56,31,33,,,,,17,18,5,5,1.0,1.1
2024-03-27T0800,1402A,108.3141,22.8528,南宁市,北湖,颗粒物(PM10),56,61,55,32,37,12,,36,36,30,22,7,7,0.9,0.9
2024-03-27T0800,1403A,108.3206,22.8225,南宁市,市监测站,,46,46,54,29,35,21,,48,48,18,22,7,7,0.9,1
2024-03-27T0800,1404A,108.3829,22.8037,南宁市,大自然花园,,39,36,52,27,34,26,,49,49,14,19,6,6,0.8,0.9
2024-03-27T0800,1405A,108.4394,22.7904,南宁市,仙葫,,49,43,55,34,34,30,,47,47,21,23,7,8,0.5,0.5
2024-03-27T0800,1406A,108.2397,22.8467,南宁市,区农职院,细颗粒物(PM2.5),65,76,60,47,32,14,,41,41,43,27,11,8,1.1,1
2024-03-27T0800,1407A,108.3275,22.735,南宁市,英华嘉园,颗粒物(PM10),52,53,58,31,39,14,,43,43,26,23,8,7,0.7,0.8
2024-03-27T0800,1408A,108.2257,22.7757,南宁市,沙井镇街道办,颗粒物(PM10),57,63,70,38,40,9,,26,26,32,32,8,6,0.7,0.7
2024-03-27T0800,3401A,108.4834,22.7618,南宁市,红星社区,颗粒物(PM10),58,65,62,39,40,21,,37,37,28,25,8,8,1.0,1
2024-03-27T0800,2331A,118.0966,26.6761,南平市,茫荡山,,,,,,,,,,,,,,,,
2024-03-27T0800,2332A,118.1681,26.6369,南平市,南平市监测站,,26,13,16,6,10,82,,82,82,12,11,4,4,0.7,0.7
2024-03-27T0800,2333A,118.1825,26.6489,南平市,南平铝业有限公司,,26,10,15,8,12,82,,81,81,11,11,6,6,0.7,0.7
2024-03-27T0800,2334A,118.1756,26.6272,南平市,南平七中,,28,14,17,14,15,89,,87,87,10,10,4,5,0.6,0.7
2024-03-27T0800,1168A,120.9098,31.9663,南通市,狼山街道,细颗粒物(PM2.5),60,51,40,43,32,63,,68,68,29,27,9,8,0.5,0.6
2024-03-27T0800,1169A,120.86,32.0005,南通市,虹桥,细颗粒物(PM2.5),72,56,49,52,41,54,,54,54,30,23,4,4,0.6,0.6
2024-03-27T0800,1170A,120.87,32.02,南通市,城中,细颗粒物(PM2.5),67,65,51,48,34,58,,60,60,29,20,5,5,0.6,0.6
2024-03-27T0800,1171A,120.94,31.93,南通市,星湖花园,细颗粒物(PM2.5),58,53,40,41,32,48,,56,56,33,33,3,7,0.6,0.6
2024-03-27T0800,1172A,120.81,32.0417,南通市,紫琅学院,,,56,44,47,33,,,53,53,33,27,7,7,0.9,0.8
2024-03-27T0800,3291A,121.067,32.062,南通市,通州监测站,细颗粒物(PM2.5),62,51,47,44,40,89,,75,75,8,10,7,7,0.5,0.6
2024-03-27T0800,3432A,120.9348,31.9883,南通市,环境教育馆,细颗粒物(PM2.5),63,58,42,45,34,59,,56,56,25,25,7,6,0.6,0.5
2024-03-27T0800,2404A,112.5224,33.0122,南阳市,瓦房庄,,46,34,56,32,43,75,,51,51,21,24,5,6,0.7,0.8
2024-03-27T0800,2405A,112.5003,32.9735,南阳市,汉画馆,,50,36,54,35,43,74,,46,46,22,24,6,6,0.8,0.9
2024-03-27T0800,2406A,112.5573,33.027,南阳市,气象站,,45,32,56,31,44,66,,54,54,34,29,5,5,0.7,0.7
2024-03-27T0800,2407A,112.5481,32.9689,南阳市,理工学院,,46,39,56,32,42,66,,46,46,31,26,4,5,0.6,0.6
2024-03-27T0800,4008A,112.5234,32.9922,南阳市,卧龙区政府,细颗粒物(PM2.5),52,,52,36,43,70,,46,46,30,29,4,4,0.6,0.7
2024-03-27T0800,1234A,121.8358,29.911,宁波市,区环保大楼,,27,20,38,13,24,85,,56,56,14,38,6,7,0.8,0.8
2024-03-27T0800,1235A,121.56,29.82,宁波市,万里学院,,32,32,40,13,21,75,,57,57,18,31,7,8,0.5,0.7
2024-03-27T0800,1236A,121.713,29.9572,宁波市,龙赛医院,,27,16,28,10,16,86,,48,48,17,45,6,9,0.4,0.6
2024-03-27T0800,1239A,121.633,29.7733,宁波市,钱湖水厂,,28,21,36,12,14,87,,70,70,7,22,6,7,0.6,0.6
2024-03-27T0800,1240A,121.5856,29.8635,宁波市,太古小学,,32,32,40,14,16,78,,58,58,13,29,7,8,0.8,0.8
2024-03-27T0800,1241A,121.524,29.8674,宁波市,市环境监测中心,,26,26,36,12,16,76,,59,59,22,32,6,7,0.7,0.7
2024-03-27T0800,2871A,121.6147,29.9017,宁波市,万里国际学校,,39,39,42,23,29,89,,59,59,14,38,8,8,0.5,0.6
2024-03-27T0800,3710A,121.5594,29.8975,宁波市,白沙活动中心,,25,24,44,13,16,79,,53,53,19,37,7,7,0.5,0.6
2024-03-27T0800,2339A,119.5001,26.6946,宁德市,金涵水库,,,,,,,,,,,,,,,,
2024-03-27T0800,2341A,119.5388,26.6612,宁德市,宁德市监测站,,50,,37,35,27,111,,116,116,11,9,6,6,0.5,0.6
2024-03-27T0800,3209A,119.5231,26.6562,宁德市,宁德一中,,38,28,33,18,17,119,,128,128,13,12,6,6,0.4,0.5
2024-03-27T0800,2618A,98.8601,25.8567,怒江傈僳族自治州,州监测站,,25,25,40,17,25,76,,80,80,4,9,7,7,0.5,0.5
2024-03-27T0800,2619A,98.8546,25.8417,怒江傈僳族自治州,泸水一中,,30,,36,21,26,70,,73,73,11,15,6,7,0.3,0.4
2024-03-27T0800,1888A,101.6891,26.571,攀枝花市,弄弄坪,颗粒物(PM10),56,61,51,27,30,64,,84,84,31,24,18,29,1.1,1.4
2024-03-27T0800,1889A,101.5769,26.5928,攀枝花市,河门口,颗粒物(PM10),52,54,52,34,28,61,,82,82,24,16,14,10,0.7,0.7
2024-03-27T0800,1890A,101.7169,26.585,攀枝花市,炳草岗,,49,49,39,27,21,50,,83,83,41,19,10,17,0.8,0.8
2024-03-27T0800,1891A,101.7369,26.5008,攀枝花市,仁和,,50,50,35,34,24,53,,78,78,27,11,7,7,0.6,0.5
2024-03-27T0800,2835A,101.7227,26.567,攀枝花市,四十中小,,45,45,46,20,24,39,,63,63,43,19,17,11,1.2,0.9
2024-03-27T0800,1604A,122.0303,41.1489,盘锦市,开发区,细颗粒物(PM2.5),83,,48,61,48,96,,93,93,24,19,7,6,0.7,0.6
2024-03-27T0800,1605A,122.0485,41.0883,盘锦市,兴隆台,细颗粒物(PM2.5),84,63,54,62,45,95,,94,94,23,20,10,9,0.8,0.6
2024-03-27T0800,1606A,121.8297,41.1028,盘锦市,新生街道,细颗粒物(PM2.5),78,,48,57,52,92,,82,82,22,22,9,10,0.7,0.7
2024-03-27T0800,1832A,113.3257,33.742,平顶山市,新华旅馆,细颗粒物(PM2.5),54,45,60,38,30,74,,46,46,18,23,7,8,0.6,0.7
2024-03-27T0800,1833A,113.2919,33.737,平顶山市,规划设计院,颗粒物(PM10),55,59,53,34,38,71,,46,46,11,19,5,5,0.6,0.6
2024-03-27T0800,1834A,113.182,33.774,平顶山市,平顶山工学院,,50,50,52,24,31,81,,56,56,7,12,4,5,0.5,0.6
2024-03-27T0800,3204A,113.3025,33.73,平顶山市,规划局,细颗粒物(PM2.5),54,41,55,38,37,70,,49,49,13,17,7,8,0.4,0.5
2024-03-27T0800,3594A,112.8867,33.9116,平顶山市,石龙区,细颗粒物(PM2.5),69,53,58,50,42,81,,74,74,11,14,6,7,0.5,0.5
2024-03-27T0800,2656A,106.6692,35.5461,平凉市,聚贤嘉苑,颗粒物(PM10),129,207,52,27,20,96,,46,46,16,31,8,9,0.3,0.4
2024-03-27T0800,2657A,106.7021,35.5307,平凉市,博物馆,颗粒物(PM10),117,183,62,30,26,85,,47,47,24,44,12,11,0.4,0.6
2024-03-27T0800,2347A,114.0997,27.5002,萍乡市,武功山,,21,21,19,11,12,45,,40,40,7,6,6,5,0.3,0.3
2024-03-27T0800,2348A,113.8385,27.6434,萍乡市,中医院,,50,47,41,35,28,64,,81,81,21,18,35,18,0.8,0.8
2024-03-27T0800,2349A,113.8493,27.6253,萍乡市,市政府车库,颗粒物(PM10),53,55,46,26,30,53,,68,68,29,22,34,21,2.2,1.6
2024-03-27T0800,2350A,113.8676,27.6435,萍乡市,市环保局,,43,43,41,29,31,60,,74,74,21,17,51,24,0.9,0.7
2024-03-27T0800,2351A,113.866,27.6198,萍乡市,安源区政府,,50,38,41,35,26,58,,69,69,25,22,26,17,0.8,1
2024-03-27T0800,2319A,119.0141,25.4325,莆田市,荔城区仓后路,,32,28,33,13,17,100,,116,116,17,12,5,5,0.7,0.8
2024-03-27T0800,2320A,119.0015,25.4553,莆田市,莆田市监测站,,35,19,41,12,16,110,,117,117,7,9,6,6,0.6,0.7
2024-03-27T0800,2321A,119.1119,25.4561,莆田市,涵江区六中,,34,34,36,17,17,107,,119,119,19,14,6,6,0.6,0.7
2024-03-27T0800,2322A,119.1013,25.3215,莆田市,秀屿区政府,,31,18,32,14,13,97,,101,101,17,13,6,7,0.7,0.8
2024-03-27T0800,2323A,118.981,25.4792,莆田市,东圳水库,,,,,,,,,,,,,,,,
2024-03-27T0800,2392A,115.0312,35.7636,濮阳市,环保局,细颗粒物(PM2.5),58,,38,41,40,66,,74,74,14,11,9,8,0.5,0.5
2024-03-27T0800,2394A,115.0574,35.7609,濮阳市,油田运输公司,细颗粒物(PM2.5),63,59,58,45,40,67,,74,74,16,14,11,10,0.5,0.5
2024-03-27T0800,2395A,115.0866,35.7754,濮阳市,油田物探公司,细颗粒物(PM2.5),70,62,60,51,47,60,,65,65,15,12,9,8,0.4,0.4
2024-03-27T0800,3021A,115,35.7668,濮阳市,濮水河管理处,细颗粒物(PM2.5),60,,41,43,41,63,,69,69,11,9,9,9,0.4,0.4
2024-03-27T0800,2601A,100.98,22.7633,普洱市,市环保局,细颗粒物(PM2.5),69,72,69,50,45,50,,70,70,24,16,8,8,0.6,0.6
2024-03-27T0800,2602A,100.9817,22.8322,普洱市,普洱第二中学,细颗粒物(PM2.5),74,87,59,54,41,24,,33,33,46,31,10,9,0.8,0.6
2024-03-27T0800,2262A,131.0518,45.8751,七台河市,新一中,,25,24,19,16,11,78,,71,71,10,9,11,9,0.8,0.7
2024-03-27T0800,3345A,131.0577,45.7879,七台河市,中波台,,20,17,25,10,15,64,,57,57,16,17,8,9,0.7,0.7
2024-03-27T0800,3637A,131.0176,45.7761,七台河市,人民广场,颗粒物(PM10),51,52,41,22,23,61,,62,62,27,20,9,10,0.8,0.7
2024-03-27T0800,3684A,130.8781,45.8222,七台河市,新建矿广场,颗粒物(PM10),63,75,53,32,33,52,,36,36,42,34,33,21,0.8,0.8
2024-03-27T0800,1779A,123.9305,47.3636,齐齐哈尔市,安居小区,细颗粒物(PM2.5),55,54,61,39,44,70,,85,85,24,19,10,9,0.6,0.5
2024-03-27T0800,1780A,123.9488,47.3386,齐齐哈尔市,中心广场,,49,49,79,22,42,66,,71,71,17,20,7,8,0.4,0.4
2024-03-27T0800,1781A,123.9483,47.3227,齐齐哈尔市,农牧车辆厂,颗粒物(PM10),52,53,69,24,43,66,,72,72,17,16,8,9,0.4,0.5
2024-03-27T0800,1783A,123.945,47.2988,齐齐哈尔市,市环境监测站,颗粒物(PM10),53,56,67,26,47,68,,74,74,19,16,5,6,0.4,0.4
2024-03-27T0800,3662A,123.6333,47.2075,齐齐哈尔市,富区青少年活动中心,颗粒物(PM10),57,63,80,20,53,69,,72,72,19,17,7,8,0.6,0.7
2024-03-27T0800,2591A,107.9783,26.5747,黔东南苗族侗族自治州,市环境监测站,,33,31,27,23,19,16,,50,50,40,18,4,3,1.1,0.9
2024-03-27T0800,2881A,107.8908,26.5311,黔东南苗族侗族自治州,凯里学院,,46,45,20,32,16,66,,77,77,8,9,3,3,0.6,0.6
2024-03-27T0800,2593A,107.5228,26.2403,黔南布依族苗族自治州,小围寨,,46,46,24,31,17,77,,71,71,6,8,4,4,0.4,0.5
2024-03-27T0800,3538A,107.5175,26.2978,黔南布依族苗族自治州,沙坝,,45,41,26,31,16,78,,75,75,3,4,4,4,0.3,0.3
2024-03-27T0800,2589A,104.9022,25.0925,黔西南布依族苗族自治州,场坝街,细颗粒物(PM2.5),73,,62,53,35,98,,102,102,11,8,2,2,0.3,0.3
2024-03-27T0800,2590A,104.8811,25.0992,黔西南布依族苗族自治州,坪东大道,细颗粒物(PM2.5),83,72,46,61,36,36,,71,71,41,13,2,2,0.9,0.5
2024-03-27T0800,2502A,108.6236,21.9667,钦州市,市环保站,,41,41,76,24,36,18,,23,23,18,27,7,6,0.6,0.7
2024-03-27T0800,2503A,108.6549,21.9481,钦州市,沙埠小学,颗粒物(PM10),62,73,81,32,45,2,,3,3,28,29,9,7,0.8,0.8
2024-03-27T0800,2504A,108.5989,21.7431,钦州市,港区一小,颗粒物(PM10),59,67,89,31,37,15,,20,20,17,21,6,8,1.0,0.9
2024-03-27T0800,3404A,108.5959,21.9633,钦州市,北职校,颗粒物(PM10),51,51,74,29,40,17,,12,12,19,27,8,9,0.6,0.8
2024-03-27T0800,1042A,119.5134,39.8207,秦皇岛市,北戴河环保局,细颗粒物(PM2.5),103,100,68,77,51,52,,86,86,31,28,7,7,0.7,0.9
2024-03-27T0800,1043A,119.7493,40.0116,秦皇岛市,第一关,细颗粒物(PM2.5),98,128,85,73,66,48,,75,75,47,40,15,11,0.9,0.9
2024-03-27T0800,1044A,119.5897,39.9499,秦皇岛市,监测站,细颗粒物(PM2.5),104,110,99,78,68,55,,91,91,51,36,7,9,0.8,1
2024-03-27T0800,1046A,119.5251,39.9041,秦皇岛市,建设大厦,细颗粒物(PM2.5),74,84,72,54,55,62,,90,90,39,30,6,7,0.8,1.1
2024-03-27T0800,3132A,119.610547,39.943889,秦皇岛市,文明里,颗粒物(PM10),75,99,86,52,53,59,,89,89,49,41,6,7,0.8,1
2024-03-27T0800,1307A,120.6659,36.2403,青岛市,仰口,细颗粒物(PM2.5),55,58,55,39,40,84,,91,91,20,18,4,4,0.5,0.4
2024-03-27T0800,1310A,120.4134,36.0658,青岛市,市南区东部子站,颗粒物(PM10),53,56,61,36,36,102,,92,92,18,27,8,10,0.7,0.7
2024-03-27T0800,1311A,120.3664,36.1032,青岛市,四方区子站,细颗粒物(PM2.5),64,61,62,46,44,101,,105,105,30,31,4,7,0.8,0.8
2024-03-27T0800,1312A,120.2994,36.054,青岛市,市南区西部子站,细颗粒物(PM2.5),53,51,56,37,36,100,,93,93,32,35,6,8,0.8,0.9
2024-03-27T0800,1313A,120.4581,36.0858,青岛市,崂山区子站,颗粒物(PM10),53,56,64,36,37,106,,99,99,21,25,7,8,0.5,0.6
2024-03-27T0800,1314A,120.1983,35.9608,青岛市,黄岛区子站,细颗粒物(PM2.5),55,51,54,39,38,105,,106,106,21,26,6,9,0.8,0.8
2024-03-27T0800,1315A,120.3999,36.3083,青岛市,城阳区子站,颗粒物(PM10),56,61,57,37,36,84,,98,98,33,29,8,10,0.9,0.8
2024-03-27T0800,1966A,120.0405,35.8735,青岛市,黄岛区4号,颗粒物(PM10),51,51,48,31,30,102,,102,102,22,27,7,9,0.7,0.7
2024-03-27T0800,3362A,120.5014,36.4034,青岛市,即墨2号,细颗粒物(PM2.5),87,89,82,64,52,78,,90,90,38,31,6,8,0.8,0.7
2024-03-27T0800,3642A,120.3503,36.0736,青岛市,市北区南部,颗粒物(PM10),53,56,60,34,31,110,,108,108,26,30,8,10,0.7,0.7
2024-03-27T0800,3643A,120.3948,36.1805,青岛市,李沧区北部,细颗粒物(PM2.5),67,75,77,48,47,96,,101,101,35,34,9,10,0.7,0.7
2024-03-27T0800,1702A,113.0426,23.691,清远市,环保大楼,,32,32,22,22,16,30,,44,44,27,9,6,5,1.3,1.1
2024-03-27T0800,1703A,113.0208,23.7106,清远市,凤城街办,,35,35,25,21,15,17,,35,35,38,14,5,4,0.8,0.6
2024-03-27T0800,3025A,113.0477,23.6344,清远市,技师学院,颗粒物(PM10),55,60,34,27,16,8,,20,20,52,25,16,6,1.2,1
2024-03-27T0800,3318A,112.9903,23.7403,清远市,清新太和,,43,43,24,26,14,12,,48,48,26,7,10,11,0.9,0.7
2024-03-27T0800,3455A,113.076,23.7198,清远市,清城东城,,25,25,22,16,14,23,,37,37,30,14,7,5,1.0,0.8
2024-03-27T0800,2661A,107.6325,35.7357,庆阳市,庆阳五中,颗粒物(PM10),52,54,62,22,35,70,,80,80,10,17,4,8,0.4,0.4
2024-03-27T0800,2662A,107.6364,35.7067,庆阳市,市环保局,,33,33,51,17,31,73,,83,83,10,14,5,7,0.5,0.5
2024-03-27T0800,1916A,103.7897,25.5035,曲靖市,环境监测站,颗粒物(PM10),57,63,54,35,29,94,,102,102,21,13,8,6,0.9,0.5
2024-03-27T0800,1917A,103.8,25.5364,曲靖市,烟厂办公区,颗粒物(PM10),59,68,52,37,28,75,,93,93,29,13,16,5,0.7,0.4
2024-03-27T0800,3376A,103.7947,25.462,曲靖市,南苑二区,颗粒物(PM10),54,58,51,35,29,92,,90,90,13,11,8,7,0.7,0.6
2024-03-27T0800,3377A,103.7444,25.5261,曲靖市,曲靖师范学院,细颗粒物(PM2.5),83,82,56,61,39,62,,72,72,39,20,47,22,0.8,0.6
2024-03-27T0800,1264A,118.8692,28.9398,衢州市,环保大楼,细颗粒物(PM2.5),57,53,35,40,27,40,,57,57,32,21,6,5,0.6,0.4
2024-03-27T0800,1265A,118.8709,28.9666,衢州市,实验学校,细颗粒物(PM2.5),62,44,33,44,25,39,,60,60,34,18,10,7,0.5,0.4
2024-03-27T0800,1266A,118.8621,28.9808,衢州市,衢州学院,细颗粒物(PM2.5),54,50,31,38,23,41,,57,57,31,21,14,10,0.5,0.4
