timepoint,stationcode,longitude,latitude,area,positionname,primarypollutant,aqi,pm10,pm10_24h,pm2_5,pm2_5_24h,o3,o3_24h,o3_8h,o3_8h_24h,no2,no2_24h,so2,so2_24h,co,co_24h
2025-04-23T1900,2566A,102.1879,31.914,阿坝藏族羌族自治州,州农科所,,25,18,20,6,7,78,,74,74,10,8,12,12,0.5,0.5
2025-04-23T1900,2568A,102.2502,31.8896,阿坝藏族羌族自治州,马师校,,31,22,16,18,16,98,,95,95,7,12,6,6,0.5,0.5
2025-04-23T1900,3994A,102.2165,31.9024,阿坝藏族羌族自治州,马尔康中学西区,,35,23,15,13,10,111,,105,105,4,5,4,4,0.5,0.5
2025-04-23T1900,2695A,80.292,41.1694,阿克苏地区,电视台,颗粒物(PM10),220,364,348,55,83,116,,103,103,2,10,6,5,0.3,0.3
2025-04-23T1900,2696A,80.2613,41.1551,阿克苏地区,艺术中心,颗粒物(PM10),183,316,395,47,104,112,,101,101,8,14,4,4,0.2,0.2
2025-04-23T1900,2204A,105.6467,38.8363,阿拉善盟,西城区西花园,颗粒物(PM10),58,65,58,21,16,108,,109,109,9,11,5,5,0.5,0.7
2025-04-23T1900,2205A,105.6985,38.8411,阿拉善盟,蒙二幼,颗粒物(PM10),54,58,51,14,15,93,,95,95,8,8,6,7,0.5,0.5
2025-04-23T1900,2206A,105.724,38.8516,阿拉善盟,环保局新楼,颗粒物(PM10),53,55,45,14,15,103,,105,103,4,3,7,7,0.4,0.3
2025-04-23T1900,2708A,88.1264,47.8517,阿勒泰地区,市站,,30,18,1269,8,5,93,,93,92,8,7,3,4,0.3,0.2
2025-04-23T1900,2630A,80.1161,32.5,阿里地区,阿里监测站,颗粒物(PM10),69,87,22,21,9,107,,119,118,1,4,3,5,0.3,0.4
2025-04-23T1900,3192A,80.0903,32.5028,阿里地区,阿里藏医院,颗粒物(PM10),57,64,33,20,10,113,,127,127,1,3,6,7,0.2,0.3
2025-04-23T1900,2642A,109.0318,32.6537,安康市,香溪洞,颗粒物(PM10),78,105,126,41,54,116,,98,98,9,5,7,6,0.3,0.3
2025-04-23T1900,2644A,109.0072,32.6975,安康市,汉滨区检察院,颗粒物(PM10),79,108,149,44,55,118,,104,104,9,8,7,7,0.5,0.4
2025-04-23T1900,4054A,109.0325,32.6913,安康市,市邮政管理局,颗粒物(PM10),80,109,158,40,54,110,,101,101,10,8,6,7,0.5,0.3
2025-04-23T1900,2291A,117.0809,30.5177,安庆市,环科院,颗粒物(PM10),54,57,54,29,37,116,,149,149,43,24,2,6,0.8,0.9
2025-04-23T1900,2292A,117.0331,30.5119,安庆市,马山宾馆,颗粒物(PM10),54,58,48,30,38,128,,153,153,28,23,4,4,0.7,0.9
2025-04-23T1900,2294A,116.9896,30.6145,安庆市,安庆大学,颗粒物(PM10),58,66,50,33,40,134,,156,156,29,21,4,3,0.6,0.7
2025-04-23T1900,3173A,117.0598,30.5351,安庆市,市人大,颗粒物(PM10),55,60,56,31,39,141,,163,163,26,21,8,7,0.5,0.6
2025-04-23T1900,3123A,105.9408,26.2431,安顺市,凤凰山,颗粒物(PM10),63,76,45,39,25,93,,97,96,10,7,7,7,0.5,0.5
2025-04-23T1900,3124A,105.9439,26.2564,安顺市,金钟山,颗粒物(PM10),58,65,42,38,23,93,,95,95,10,8,6,6,0.5,0.5
2025-04-23T1900,3125A,105.8983,26.2481,安顺市,娄家坡,颗粒物(PM10),61,72,50,35,22,96,,99,99,11,8,8,8,0.6,0.5
2025-04-23T1900,1819A,114.3551,36.1017,安阳市,红庙街,颗粒物(PM10),91,131,89,38,27,133,,134,134,5,9,4,6,0.3,0.4
2025-04-23T1900,1820A,114.361,36.0681,安阳市,银杏小区,颗粒物(PM10),90,129,70,46,31,137,,143,143,14,12,6,8,0.3,0.4
2025-04-23T1900,3141A,114.3922,36.0878,安阳市,信访局,颗粒物(PM10),110,170,91,44,28,143,,150,150,11,16,4,5,0.2,0.2
2025-04-23T1900,3669A,114.4705,36.0637,安阳市,左辅环卫站,颗粒物(PM10),89,128,88,40,33,133,,140,140,12,21,5,5,0.1,0.1
2025-04-23T1900,3703A,114.2917,36.0949,安阳市,安钢职工学校,颗粒物(PM10),108,166,115,36,25,131,,133,133,11,15,4,5,0.3,0.3
2025-04-23T1900,1748A,123.044,41.1196,鞍山市,深沟寺,颗粒物(PM10),69,87,51,27,24,103,,144,143,19,18,9,9,0.7,0.7
2025-04-23T1900,1749A,123.011,41.0931,鞍山市,太阳城,颗粒物(PM10),71,92,52,32,27,100,,133,132,23,17,12,8,1.2,0.8
2025-04-23T1900,1750A,123.0485,41.1442,鞍山市,太平,颗粒物(PM10),79,107,67,29,28,86,,125,122,15,22,13,13,0.7,0.8
2025-04-23T1900,1751A,122.9642,41.0971,鞍山市,铁西三道街,颗粒物(PM10),74,97,73,40,36,101,,143,141,27,35,8,9,0.8,1
2025-04-23T1900,1753A,123.022,41.0821,鞍山市,明达新区,颗粒物(PM10),72,93,51,35,25,107,,140,140,20,16,13,10,0.9,0.5
2025-04-23T1900,4201A,122.9446,41.0826,鞍山市,兴盛南路290号,颗粒物(PM10),77,104,83,36,34,104,,142,140,25,37,12,14,0.7,0.9
2025-04-23T1900,2195A,107.4212,40.761,巴彦淖尔市,附二中,,50,50,116,15,37,97,,105,104,5,5,4,4,0.3,0.4
2025-04-23T1900,2196A,107.37,40.7372,巴彦淖尔市,市环保大楼,,42,42,115,20,39,98,,107,106,9,8,4,4,0.4,0.3
2025-04-23T1900,1956A,86.1472,41.7538,巴音郭楞蒙古自治州,孔雀公园,颗粒物(PM10),378,482,490,115,110,87,,86,86,5,36,6,6,0.2,0.4
2025-04-23T1900,1957A,86.1972,41.7166,巴音郭楞蒙古自治州,棉纺厂,颗粒物(PM10),425,525,596,116,108,95,,87,87,5,27,2,3,0.3,0.3
2025-04-23T1900,1958A,86.2357,41.7173,巴音郭楞蒙古自治州,经济开发区,颗粒物(PM10),340,452,470,94,90,96,,93,93,6,15,6,6,0.2,0.2
2025-04-23T1900,2914A,106.7677,31.8794,巴中市,苏山坪,,,101,94,,43,110,,115,115,11,11,4,4,0.3,0.4
2025-04-23T1900,3181A,106.7768,31.8526,巴中市,市五中,颗粒物(PM10),80,110,116,36,38,112,,113,113,6,11,5,6,0.3,0.3
2025-04-23T1900,3183A,106.7418,31.8654,巴中市,圣泉水务公司,颗粒物(PM10),79,107,110,49,44,108,,112,112,9,14,5,5,0.3,0.5
2025-04-23T1900,3616A,106.7616,31.8344,巴中市,市中心医院,颗粒物(PM10),80,110,112,46,42,104,,109,109,10,10,3,4,0.4,0.5
2025-04-23T1900,2235A,122.7911,45.6077,白城市,洮北区环保局,,40,40,27,6,14,70,,82,80,7,8,6,7,0.2,0.2
2025-04-23T1900,2236A,122.8738,45.5725,白城市,市环保局,,31,31,22,9,11,77,,87,86,3,4,8,4,0.2,0.4
2025-04-23T1900,2231A,126.4219,41.9171,白山市,喜丰,,,76,41,28,16,,,102,102,,19,,9,,0.8
2025-04-23T1900,2232A,126.4077,41.9419,白山市,环保局,颗粒物(PM10),57,63,34,21,11,124,,106,106,12,13,7,9,1.1,0.8
2025-04-23T1900,2647A,104.1724,36.5446,白银市,第三小学,,47,47,57,13,27,118,,118,118,6,17,11,17,0.3,0.5
2025-04-23T1900,2648A,104.1465,36.5482,白银市,动力公司,,37,37,46,13,18,117,,117,117,7,15,6,9,0.4,0.5
2025-04-23T1900,2512A,106.6103,23.9011,百色市,市监测站,,19,18,31,11,17,60,,63,57,13,12,3,5,0.6,0.6
2025-04-23T1900,2513A,106.6538,23.8859,百色市,市中心血站,,21,21,24,8,16,63,,62,57,9,10,4,7,0.7,0.7
2025-04-23T1900,3406A,106.6085,23.8798,百色市,祈福高中,,33,33,44,10,20,57,,57,57,14,15,5,8,0.6,0.7
2025-04-23T1900,2270A,117.396,32.939,蚌埠市,工人疗养院,颗粒物(PM10),97,143,112,35,29,147,,158,158,11,22,5,7,0.6,0.6
2025-04-23T1900,2271A,117.3605,32.9427,蚌埠市,百货大楼,颗粒物(PM10),95,140,115,41,31,143,,155,155,15,24,8,9,0.5,0.5
2025-04-23T1900,2273A,117.4185,32.8911,蚌埠市,蚌埠学院,颗粒物(PM10),92,134,116,34,36,134,,151,151,15,24,5,5,0.5,0.6
2025-04-23T1900,2274A,117.3533,32.9673,蚌埠市,淮上区政府,颗粒物(PM10),97,144,114,39,36,146,,157,157,16,27,6,8,0.4,0.4
2025-04-23T1900,2275A,117.3145,32.8977,蚌埠市,高新区,颗粒物(PM10),92,134,101,38,34,130,,151,151,17,23,6,6,0.5,0.4
2025-04-23T1900,3715A,117.3092,32.9314,蚌埠市,蚌埠田家炳中学,颗粒物(PM10),102,153,114,42,30,145,,160,160,15,21,6,7,0.4,0.4
2025-04-23T1900,1585A,109.8756,40.6532,包头市,市环境监测站,,30,28,79,6,23,93,,100,99,6,20,6,19,0.3,1.1
2025-04-23T1900,1587A,109.9991,40.5842,包头市,包头八中,,35,35,77,3,25,98,,107,104,6,16,9,16,0.2,0.4
2025-04-23T1900,1588A,109.8538,40.6821,包头市,青山宾馆,,30,20,74,6,25,94,,102,99,5,24,8,16,0.3,0.8
2025-04-23T1900,1589A,109.8642,40.6288,包头市,惠龙物流,,30,21,68,8,20,94,,103,100,7,16,7,17,0.2,0.5
2025-04-23T1900,1590A,110.0377,40.5546,包头市,东河鸿龙湾,,30,27,72,3,12,95,,101,100,7,15,6,10,0.4,0.5
2025-04-23T1900,3283A,109.9154,40.5685,包头市,滨河大厦,,30,24,63,3,18,95,,103,100,3,12,9,14,0.4,0.5
2025-04-23T1900,3419A,109.9447,40.6261,包头市,包头市委党校,,30,28,78,6,19,96,,103,100,3,12,6,16,0.3,0.6
2025-04-23T1900,3683A,109.8331,40.6576,包头市,昆区政府,,,68,77,3,23,,,108,106,6,25,5,20,0.3,1.5
2025-04-23T1900,1930A,107.185,34.3063,宝鸡市,庙沟村,细颗粒物(PM2.5),68,51,111,49,51,117,,126,126,15,8,8,7,0.4,0.4
2025-04-23T1900,1931A,107.0708,34.3017,宝鸡市,竹园沟,颗粒物(PM10),55,60,100,29,41,103,,121,121,11,12,7,7,0.4,0.4
2025-04-23T1900,1932A,107.1906,34.3672,宝鸡市,三陆医院,"颗粒物(PM10),细颗粒物(PM2.5)",57,64,121,40,58,116,,122,122,24,26,5,6,0.4,0.4
2025-04-23T1900,1933A,107.1431,34.3547,宝鸡市,监测站,颗粒物(PM10),70,89,129,32,46,120,,118,118,19,20,8,8,0.4,0.4
2025-04-23T1900,1934A,107.1186,34.3739,宝鸡市,技工学校,颗粒物(PM10),52,53,135,27,64,107,,119,119,23,13,6,8,0.4,0.4
2025-04-23T1900,1935A,107.3906,34.3528,宝鸡市,陈仓区环保局家属楼,颗粒物(PM10),63,76,142,38,62,114,,121,121,21,27,7,23,0.4,0.5
2025-04-23T1900,1936A,107.2058,34.3497,宝鸡市,文理学院,颗粒物(PM10),57,64,131,33,61,126,,126,126,16,19,6,7,0.4,0.4
2025-04-23T1900,1937A,107.2386,34.3622,宝鸡市,三迪小学,,,81,133,39,57,121,,125,125,25,26,,6,0.5,0.5
2025-04-23T1900,1051A,115.493,38.8632,保定市,游泳馆,颗粒物(PM10),56,62,82,13,36,106,,122,122,8,23,3,3,0.2,0.2
2025-04-23T1900,1052A,115.5213,38.8959,保定市,华电二区,颗粒物(PM10),58,65,68,28,29,105,,120,120,4,13,2,4,0,0.1
2025-04-23T1900,1053A,115.4713,38.9108,保定市,接待中心,颗粒物(PM10),61,72,84,12,34,107,,116,116,6,19,1,4,0.4,0.5
2025-04-23T1900,1054A,115.4612,38.8416,保定市,地表水厂,颗粒物(PM10),80,110,104,24,32,106,,120,120,10,23,2,5,0.1,0.3
2025-04-23T1900,3581A,115.31981,38.95208,保定市,满城区生态环境分局,颗粒物(PM10),63,75,87,12,34,118,,121,121,4,24,3,9,0.2,0.3
2025-04-23T1900,3582A,115.47694,38.76408,保定市,清苑区第二中学,颗粒物(PM10),87,124,97,25,33,110,,122,122,10,19,5,7,0.2,0.3
2025-04-23T1900,3583A,115.62909,39.02311,保定市,徐水物探局,颗粒物(PM10),85,119,93,7,26,109,,115,115,7,29,3,2,0.2,0.3
2025-04-23T1900,4004A,115.4202,38.8656,保定市,双鹰农机,颗粒物(PM10),59,67,77,39,35,110,,117,117,4,24,3,7,0,0.1
2025-04-23T1900,4034A,115.5150,38.8590,保定市,植保所站,颗粒物(PM10),71,91,86,25,36,99,,115,115,6,16,3,3,0.5,0.6
2025-04-23T1900,2594A,99.1678,25.1081,保山市,市环境监测站,细颗粒物(PM2.5),59,66,52,42,34,116,,112,112,7,8,7,7,0.5,0.6
2025-04-23T1900,2595A,99.1711,25.1328,保山市,市环保局,颗粒物(PM10),65,80,60,25,26,121,,117,117,16,8,8,7,0.5,0.5
2025-04-23T1900,1867A,109.1436,21.4086,北海市,海滩公园,颗粒物(PM10),55,59,38,12,11,47,,66,65,29,10,5,5,0.7,0.6
2025-04-23T1900,1868A,109.0981,21.4661,北海市,新市环保局,,34,34,30,14,14,67,,76,76,13,8,4,3,0.5,0.5
2025-04-23T1900,1869A,109.1778,21.5233,北海市,北海工业园,,38,38,31,12,17,79,,78,78,7,6,8,8,0.4,0.4
2025-04-23T1900,3400A,109.1911,21.4415,北海市,龙潭自来水厂,,35,32,31,23,20,111,,105,105,6,7,8,7,0.4,0.4
2025-04-23T1900,1001A,116.3621,39.8784,北京市,万寿西宫,,35,23,62,3,19,111,,108,108,6,25,6,7,0.3,0.4
2025-04-23T1900,1003A,116.4174,39.9289,北京市,东四,,34,25,64,3,20,106,,106,106,4,25,2,3,0.2,0.3
2025-04-23T1900,1004A,116.4072,39.8863,北京市,天坛,,33,20,52,3,16,103,,100,100,9,28,2,2,0.3,0.6
2025-04-23T1900,1005A,116.462,39.9365,北京市,农展馆,,35,21,58,3,16,112,,107,107,9,28,7,7,0.1,0.4
2025-04-23T1900,1006A,116.3392,39.9295,北京市,官园,,31,23,65,3,17,97,,97,97,8,26,4,5,0.2,0.3
2025-04-23T1900,1007A,116.2878,39.9611,北京市,海淀万柳,,27,27,62,3,15,66,,86,86,2,26,4,5,0.4,0.4
2025-04-23T1900,1008A,116.6636,40.135,北京市,顺义新城,,35,22,62,3,14,110,,107,107,3,26,6,6,0.3,0.4
2025-04-23T1900,1009A,116.6275,40.3275,北京市,怀柔镇,,31,19,43,3,14,99,,98,98,6,17,2,2,0.3,0.4
2025-04-23T1900,1010A,116.2296,40.217,北京市,昌平镇,,33,22,48,3,14,105,,99,99,9,19,3,3,0.0,0.1
2025-04-23T1900,1011A,116.3966,39.9821,北京市,奥体中心,,35,19,57,3,17,109,,102,102,12,33,3,3,0.4,0.6
2025-04-23T1900,3281A,115.9718,40.4529,北京市,延庆夏都,,35,21,60,6,17,112,,108,108,4,17,2,2,0.3,0.3
2025-04-23T1900,3418A,116.8336,40.4095,北京市,密云新城,,46,46,61,6,13,103,,99,99,4,16,1,2,0.3,0.4
2025-04-23T1900,3671A,116.088,39.9726,北京市,门头沟三家店,颗粒物(PM10),64,77,84,7,18,98,,97,97,8,30,2,2,0.2,0.3
2025-04-23T1900,3672A,116.1541,39.8204,北京市,丰台云岗,,32,23,66,3,16,100,,103,103,10,30,1,2,0.1,0.3
2025-04-23T1900,3673A,116.6804,39.9081,北京市,通州东关,,34,32,77,8,26,106,,103,103,14,35,5,5,0.4,0.5
2025-04-23T1900,3674A,115.9577,39.7603,北京市,房山燕山,,29,26,60,3,17,92,,90,90,8,19,4,5,0.3,0.4
2025-04-23T1900,3675A,116.4672,39.7733,北京市,大兴旧宫,,47,47,68,3,17,102,,100,100,9,24,3,3,0.1,0.2
2025-04-23T1900,3694A,115.986,40.4563,北京市,延庆石河营,,32,21,49,3,14,101,,96,96,3,15,2,2,0.3,0.3
2025-04-23T1900,3695A,116.6151,40.3053,北京市,怀柔新城,,32,13,41,3,14,101,,96,96,6,12,3,3,0.3,0.5
2025-04-23T1900,3696A,116.2545,39.8768,北京市,丰台小屯,,30,25,61,3,17,93,,93,93,8,36,2,2,0.2,0.3
2025-04-23T1900,3697A,116.84,40.3844,北京市,密云镇,,33,20,42,3,13,104,,100,100,2,19,5,5,0.2,0.3
2025-04-23T1900,4182A,116.1942,39.9158,北京市,八角北路9号,,34,30,77,9,18,108,,110,110,4,32,4,5,0.1,0.3
2025-04-23T1900,4194A,117.0790,40.1518,北京市,洳河巡河路,,35,18,41,3,17,110,,107,107,4,14,1,2,0.2,0.3
2025-04-23T1900,1761A,123.8275,41.3064,本溪市,大峪,颗粒物(PM10),69,87,43,25,20,111,,138,138,18,24,8,7,0.6,0.7
2025-04-23T1900,1762A,123.7567,41.3325,本溪市,溪湖,颗粒物(PM10),62,73,52,25,28,103,,135,135,16,27,8,8,0.6,0.9
2025-04-23T1900,1763A,123.7169,41.3094,本溪市,彩屯,颗粒物(PM10),67,84,58,34,33,109,,139,139,17,30,12,13,0.6,1.3
2025-04-23T1900,1764A,123.7669,41.2864,本溪市,东明,,,,52,,18,112,,137,137,21,27,8,8,1.0,1
2025-04-23T1900,1765A,123.7992,41.2664,本溪市,新立屯,颗粒物(PM10),65,79,39,38,19,117,,137,137,23,34,11,9,0.8,0.7
2025-04-23T1900,1766A,123.8142,41.3472,本溪市,威宁,颗粒物(PM10),79,108,61,20,25,100,,133,133,12,21,7,6,0.5,0.7
2025-04-23T1900,2587A,105.2864,27.3125,毕节市,八中,颗粒物(PM10),68,85,69,48,37,61,,82,68,9,7,4,4,0.6,0.5
2025-04-23T1900,2588A,105.31,27.2944,毕节市,师专,颗粒物(PM10),64,77,67,42,30,58,,88,71,11,7,7,8,0.5,0.4
2025-04-23T1900,4263A,105.3688,27.3598,毕节市,工业大道,颗粒物(PM10),76,102,76,40,32,62,,85,69,12,10,6,6,0.6,0.6
2025-04-23T1900,1629A,118.0018,37.3617,滨州市,第二水厂,颗粒物(PM10),80,110,82,31,30,155,,157,157,14,30,13,14,0.8,0.5
2025-04-23T1900,1630A,117.9776,37.393,滨州市,北中新校,颗粒物(PM10),69,88,65,39,32,160,,169,169,16,32,7,8,0.6,0.5
2025-04-23T1900,3514A,117.9378,37.3956,滨州市,中海酒店,颗粒物(PM10),67,83,68,44,31,148,,163,163,16,25,12,18,0.8,0.7
2025-04-23T1900,3515A,117.9378,37.3553,滨州市,开发区一中,颗粒物(PM10),82,114,79,34,29,157,,161,161,20,33,10,10,0.3,0.2
2025-04-23T1900,3516A,118.0917,37.694,滨州市,金海六路,颗粒物(PM10),81,112,65,36,21,143,,160,160,35,32,12,13,0.3,0.5
2025-04-23T1900,4028A,117.9956,37.3753,滨州市,滨州市西街道办事处,颗粒物(PM10),78,105,75,46,35,166,,177,177,16,29,10,12,0.6,0.5
2025-04-23T1900,2311A,115.8072,33.8399,亳州市,污水处理厂,颗粒物(PM10),111,172,87,43,30,135,,147,147,14,18,3,5,0.3,0.3
2025-04-23T1900,2312A,115.7789,33.8518,亳州市,三国揽胜宫,颗粒物(PM10),118,186,108,53,32,146,,154,154,11,17,5,6,0.2,0.2
2025-04-23T1900,3332A,115.7633,33.8034,亳州市,亳州学院,颗粒物(PM10),106,162,105,39,28,144,,155,155,13,16,4,5,0.4,0.4
2025-04-23T1900,2693A,82.0485,44.8556,博尔塔拉蒙古自治州,市党校,,,25,41,14,16,,,97,97,21,34,3,3,0.2,0.2
2025-04-23T1900,2694A,82.0806,44.8969,博尔塔拉蒙古自治州,市环保局,,35,29,58,8,14,110,,102,102,10,20,4,4,0.5,0.5
2025-04-23T1900,1071A,116.8842,38.2991,沧州市,沧县城建局,颗粒物(PM10),104,158,101,68,41,164,,143,143,31,19,2,5,0.4,0.5
2025-04-23T1900,1072A,116.8584,38.3254,沧州市,电视转播站,颗粒物(PM10),99,148,91,58,45,152,,138,138,31,20,5,5,0.3,0.4
2025-04-23T1900,1073A,116.8709,38.3228,沧州市,市环保局,颗粒物(PM10),97,144,95,58,44,155,,150,150,35,21,7,8,0.4,0.4
2025-04-23T1900,3324A,116.8136,38.3004,沧州市,河北水利电力学院,颗粒物(PM10),107,163,106,55,36,169,,149,149,22,20,9,10,0.3,0.4
2025-04-23T1900,2622A,97.1806,31.1273,昌都市,昌都监测站,,34,15,14,7,10,107,,108,108,3,6,3,3,0.2,0.3
2025-04-23T1900,3719A,97.1714,31.1406,昌都市,昌都会议中心,,32,16,17,10,12,101,,104,104,6,6,3,3,0.2,0.2
2025-04-23T1900,2690A,88.1236,43.8886,昌吉回族自治州,天山天池,,,,15,25,7,,,111,111,7,7,6,5,0.5,0.6
2025-04-23T1900,2692A,87.2717,44.0297,昌吉回族自治州,新区政务中心,,44,27,37,8,15,138,,133,133,4,22,13,8,0.4,0.6
2025-04-23T1900,3613A,87.3095,44.0142,昌吉回族自治州,亚心广场,,41,27,50,3,16,129,,126,126,6,33,10,9,0.3,0.6
2025-04-23T1900,1119A,125.3325,43.9166,长春市,食品厂,颗粒物(PM10),82,114,43,18,15,75,,96,95,15,18,6,7,0.3,0.3
2025-04-23T1900,1120A,125.2863,43.9027,长春市,客车厂,颗粒物(PM10),81,111,37,17,15,72,,99,97,21,18,5,5,0.3,0.3
2025-04-23T1900,1121A,125.2841,43.8463,长春市,邮电学院,颗粒物(PM10),84,117,36,20,18,83,,103,102,11,14,5,6,0.3,0.3
2025-04-23T1900,1122A,125.3716,43.8772,长春市,劳动公园,颗粒物(PM10),74,98,37,14,16,82,,103,102,8,13,6,6,0.3,0.3
2025-04-23T1900,1123A,125.3297,43.8805,长春市,园林处,颗粒物(PM10),73,96,36,19,16,78,,98,97,9,13,6,7,0.4,0.4
2025-04-23T1900,1124A,125.4605,43.79,长春市,净月潭,颗粒物(PM10),71,92,29,14,12,85,,102,101,8,9,5,6,0.2,0.2
2025-04-23T1900,1126A,125.3863,43.8447,长春市,经开区环卫处,颗粒物(PM10),73,95,34,14,12,79,,97,96,11,15,5,5,0.3,0.4
2025-04-23T1900,1127A,125.245,43.7783,长春市,高新区管委会,颗粒物(PM10),79,108,34,16,17,79,,105,99,11,14,6,7,0.2,0.3
2025-04-23T1900,1128A,125.1761,43.8325,长春市,岱山公园,颗粒物(PM10),85,120,39,20,17,82,,105,102,15,25,4,4,0.2,0.3
2025-04-23T1900,1335A,113.0833,28.2325,长沙市,经开区环保局,颗粒物(PM10),55,59,57,36,53,82,,87,87,28,16,5,6,0.7,0.6
2025-04-23T1900,1336A,112.8872,28.2189,长沙市,高开区环保局,颗粒物(PM10),55,60,53,32,44,75,,98,95,16,8,4,5,0.8,0.9
2025-04-23T1900,1337A,113.0792,28.2053,长沙市,马坡岭,颗粒物(PM10),56,61,57,25,43,68,,88,87,32,17,3,4,0.7,0.6
2025-04-23T1900,1338A,112.9394,28.19,长沙市,湖南师范大学,,,54,53,,36,76,,94,94,22,11,2,3,0.5,0.5
2025-04-23T1900,1339A,113.0178,28.1322,长沙市,雨花区环保局,颗粒物(PM10),52,54,53,29,47,92,,93,93,17,11,3,4,0.5,0.5
2025-04-23T1900,1340A,112.9792,28.2597,长沙市,伍家岭,颗粒物(PM10),58,65,60,31,49,85,,93,93,16,12,1,2,0.6,0.6
2025-04-23T1900,1341A,113.0014,28.1944,长沙市,火车新站,颗粒物(PM10),55,60,55,36,35,85,,95,95,22,13,6,7,0.8,0.8
2025-04-23T1900,1342A,112.9844,28.1178,长沙市,天心区环保局,,49,49,58,22,36,84,,89,89,15,11,2,2,0.8,0.8
2025-04-23T1900,1343A,112.8908,28.1308,长沙市,湖南中医药大学,,42,42,54,27,37,74,,89,88,17,11,2,3,0.5,0.6
2025-04-23T1900,1344A,112.9581,28.3611,长沙市,沙坪,颗粒物(PM10),60,69,76,29,24,66,,91,90,15,11,4,5,0.5,0.6
2025-04-23T1900,1727A,113.1147,36.1547,长治市,清华站,,45,45,119,7,36,119,,126,126,8,17,5,10,0.4,0.6
2025-04-23T1900,1730A,113.0886,36.2125,长治市,审计局,,39,33,99,7,38,122,,128,128,12,21,10,11,0.2,0.4
2025-04-23T1900,1731A,113.0844,36.1856,长治市,长治八中,,43,43,128,20,46,117,,122,122,11,19,8,13,0.8,1.1
2025-04-23T1900,2845A,113.1569,36.1911,长治市,德盛苑,,39,39,100,17,40,118,,126,126,10,12,5,8,0.4,0.7
2025-04-23T1900,3568A,113.06,36.0464,长治市,向阳小学,颗粒物(PM10),71,91,115,34,38,137,,144,144,17,21,11,13,0.2,0.5
2025-04-23T1900,3569A,112.8792,36.3144,长治市,屯留一中,,48,48,119,17,43,108,,120,120,9,12,9,9,0.3,0.4
2025-04-23T1900,4189A,113.1131,36.19948,长治市,英华南巷50号,颗粒物(PM10),54,57,113,14,39,116,,127,127,15,21,5,9,0.5,0.8
2025-04-23T1900,4190A,113.2367,36.3344,长治市,学府街1号,,,57,153,20,56,,,136,136,12,17,2,12,0.3,0.7
2025-04-23T1900,1854A,111.6975,28.9703,常德市,市二中,,49,49,85,26,40,74,,80,73,7,11,4,5,0.6,0.6
2025-04-23T1900,3138A,111.7153,29.0289,常德市,武陵区永安,,,57,83,,31,82,,98,88,10,9,2,8,0.4,0.4
2025-04-23T1900,3139A,111.6892,28.9881,常德市,鼎城区玉霞,颗粒物(PM10),54,57,87,24,33,75,,88,80,8,10,3,4,0.6,0.6
2025-04-23T1900,3140A,111.6625,29.0531,常德市,武陵区长庚,颗粒物(PM10),52,53,90,24,33,82,,94,82,14,12,6,7,0.6,0.6
2025-04-23T1900,1196A,119.9633,31.762,常州市,市监测站,颗粒物(PM10),70,90,78,44,40,161,,163,163,20,24,11,11,0.9,0.8
2025-04-23T1900,1200A,119.9468,31.7069,常州市,武进监测站,颗粒物(PM10),62,73,76,31,31,163,,164,164,30,33,10,13,0.9,0.7
2025-04-23T1900,1201A,119.9255,31.9087,常州市,安家,颗粒物(PM10),68,85,82,44,40,146,,162,162,24,32,17,10,0.5,0.4
2025-04-23T1900,3002A,119.9805,31.8174,常州市,行政中心,,,63,58,34,36,,,153,153,18,22,15,15,0.7,0.6
2025-04-23T1900,3003A,120.0522,31.7748,常州市,经开区,颗粒物(PM10),63,76,56,34,28,157,,163,163,32,24,11,10,0.8,0.6
2025-04-23T1900,3010A,119.9025,31.7964,常州市,钟楼,颗粒物(PM10),65,80,68,34,40,142,,150,150,22,28,7,7,0.6,0.6
2025-04-23T1900,3429A,119.8598,31.7066,常州市,武进经发区,颗粒物(PM10),65,79,62,28,29,161,,163,163,16,22,8,9,1.2,1.1
2025-04-23T1900,3430A,119.5826,31.7245,常州市,金坛城区,颗粒物(PM10),59,68,64,29,27,158,,162,162,15,16,8,9,0.7,0.8
2025-04-23T1900,2220A,120.4318,41.5881,朝阳市,西梁,颗粒物(PM10),52,54,54,9,14,81,,97,93,13,14,8,10,0.3,0.4
2025-04-23T1900,2221A,120.4521,41.5646,朝阳市,河畔小区,,,56,54,8,13,87,,100,96,,12,,12,0.4,0.6
2025-04-23T1900,2222A,120.4176,41.5648,朝阳市,八里堡,颗粒物(PM10),59,68,60,11,14,80,,93,90,13,16,6,8,0.5,0.7
2025-04-23T1900,2223A,120.3806,41.5969,朝阳市,农业园区,颗粒物(PM10),51,51,56,8,17,83,,99,96,13,14,8,8,0.6,0.7
2025-04-23T1900,1705A,116.6367,23.6719,潮州市,西园路,,,,46,19,28,70,,99,96,10,14,2,7,0.6,0.5
2025-04-23T1900,3026A,116.6183,23.6608,潮州市,市政府,,,12,46,,26,75,,100,96,13,18,2,11,0.8,0.6
2025-04-23T1900,4036A,116.6461,23.6761,潮州市,金山,,,1,47,,26,63,,95,91,18,14,6,10,0.7,0.6
2025-04-23T1900,2472A,113.0073,25.9061,郴州市,马头岭,颗粒物(PM10),53,56,53,30,18,61,,59,59,8,11,7,7,1.0,0.9
2025-04-23T1900,2473A,113.0116,25.8226,郴州市,市职中,细颗粒物(PM2.5),57,54,48,40,32,52,,67,66,16,10,1,2,0.8,0.6
2025-04-23T1900,2475A,113.0383,25.8071,郴州市,市审计局,,,55,49,41,29,61,,68,67,10,7,4,3,,0.6
2025-04-23T1900,2476A,113.0348,25.7759,郴州市,市环保局,细颗粒物(PM2.5),73,74,54,53,36,56,,62,61,10,9,4,5,0.7,0.6
2025-04-23T1900,4252A,113.0138,25.8011,郴州市,好美居路49号,颗粒物(PM10),54,58,48,34,28,58,,61,61,13,10,3,4,0.8,0.7
2025-04-23T1900,1431A,103.9728,30.7236,成都市,金泉两河,颗粒物(PM10),84,117,118,46,41,94,,107,107,18,17,4,3,0.6,0.6
2025-04-23T1900,1432A,104.176,30.6872,成都市,十里店,颗粒物(PM10),85,119,112,48,43,117,,123,123,24,22,5,4,0.6,0.6
2025-04-23T1900,1433A,104.079,30.5706,成都市,三瓦窑,颗粒物(PM10),86,121,112,57,44,107,,121,121,30,23,6,5,0.5,0.4
2025-04-23T1900,1434A,104.1114,30.63,成都市,沙河铺,颗粒物(PM10),87,123,108,57,42,101,,109,109,23,20,7,6,0.7,0.7
2025-04-23T1900,1437A,104.0786,30.6531,成都市,君平街,颗粒物(PM10),88,125,110,64,50,84,,100,100,31,25,10,8,0.7,0.6
2025-04-23T1900,2880A,104.0239,30.65639,成都市,大石西路,颗粒物(PM10),83,115,108,51,46,105,,121,121,28,24,6,5,0.5,0.4
2025-04-23T1900,3136A,104.2725,30.5589,成都市,龙泉驿区区政府,颗粒物(PM10),71,92,101,34,35,109,,117,117,16,15,5,4,0.6,0.6
2025-04-23T1900,3357A,104.0106,30.6931,成都市,金博路,颗粒物(PM10),79,107,98,52,34,111,,118,118,20,19,8,8,0.5,0.9
2025-04-23T1900,3359A,104.0578,30.5225,成都市,华阳,细颗粒物(PM2.5),77,92,103,56,51,106,,116,116,22,22,6,6,0.3,0.2
2025-04-23T1900,3488A,104.3853,30.7453,成都市,青白江技师分院,颗粒物(PM10),83,116,112,51,45,129,,136,136,25,31,3,6,0.3,0.3
2025-04-23T1900,3489A,104.0789,30.4072,成都市,科学城,颗粒物(PM10),69,88,110,42,42,102,,104,104,13,18,4,4,0.3,0.3
2025-04-23T1900,4011A,103.8506,30.6947,成都市,光华大道三段,颗粒物(PM10),81,112,100,58,54,111,,132,132,21,19,2,2,0.6,0.6
2025-04-23T1900,4224A,104.2433,30.5353,成都市,鲸龙路1057号,,,,156,43,43,108,,113,113,23,27,5,5,0.5,0.5
2025-04-23T1900,1062A,117.9531,40.9081,承德市,铁路,颗粒物(PM10),72,94,53,14,9,94,,99,99,4,20,3,5,0.2,0.2
2025-04-23T1900,1063A,117.9392,40.9763,承德市,中国银行,颗粒物(PM10),71,91,54,19,10,94,,98,98,1,14,2,3,0.2,0.3
2025-04-23T1900,1064A,117.9503,40.928,承德市,开发区,颗粒物(PM10),64,78,46,23,17,97,,103,103,5,16,3,4,0.1,0.2
2025-04-23T1900,1065A,117.8051,40.9655,承德市,文化中心,颗粒物(PM10),79,108,61,20,10,94,,102,102,4,16,2,6,0.2,0.3
2025-04-23T1900,1066A,117.9268,41.0026,承德市,离宫,颗粒物(PM10),68,86,49,24,20,70,,71,71,2,7,5,6,0.2,0.2
2025-04-23T1900,2314A,117.47,30.6618,池州市,池州学院,,45,45,49,29,35,128,,143,143,11,12,5,5,0.5,0.8
2025-04-23T1900,3237A,117.4918,30.6617,池州市,展览馆,,39,31,43,24,31,123,,142,142,10,12,4,5,0.5,0.8
2025-04-23T1900,3333A,117.5627,30.695,池州市,第八中学,,39,33,45,20,33,124,,144,144,14,13,4,6,0.5,0.8
2025-04-23T1900,3334A,117.5038,30.6243,池州市,第十二中学,,,,44,,28,88,,145,140,30,19,4,4,,1
2025-04-23T1900,1744A,118.9233,42.2816,赤峰市,松山一中,颗粒物(PM10),90,129,47,15,7,83,,96,95,13,17,10,10,0.3,0.3
2025-04-23T1900,1745A,118.9576,42.2728,赤峰市,哈达街,颗粒物(PM10),85,120,40,6,9,90,,102,101,10,16,10,11,0.4,0.5
2025-04-23T1900,1746A,118.8788,42.2554,赤峰市,天义路,颗粒物(PM10),74,98,39,20,11,84,,98,97,9,14,6,8,0.5,0.4
2025-04-23T1900,3058A,119.2658,42.0353,赤峰市,银河街,,,90,54,16,14,88,,88,88,,14,12,19,0.3,0.4
2025-04-23T1900,3286A,118.9359,42.3147,赤峰市,桥北物流园区,颗粒物(PM10),68,86,37,24,13,79,,90,89,14,20,6,9,0.4,0.5
2025-04-23T1900,2521A,107.3476,22.4136,崇左市,市环保局江州分局,,,,58,16,36,97,,132,131,8,8,5,8,0.5,0.5
2025-04-23T1900,4256A,107.3750,22.3736,崇左市,石景林东路7号,,33,,48,10,36,104,,138,137,8,9,4,7,0.5,0.5
2025-04-23T1900,2298A,118.3093,32.3153,滁州市,老年大学,颗粒物(PM10),70,89,59,32,40,163,,163,163,10,16,3,4,0.3,0.4
2025-04-23T1900,2299A,118.3244,32.2786,滁州市,人大宾馆,颗粒物(PM10),71,91,62,20,40,158,,162,162,19,20,9,8,0.3,0.4
2025-04-23T1900,3207A,118.3118,32.3038,滁州市,市政府原办公楼,颗粒物(PM10),76,101,61,35,45,163,,162,162,11,13,5,4,0.3,0.5
2025-04-23T1900,3331A,118.3267,32.2634,滁州市,图书馆,颗粒物(PM10),70,90,67,36,44,158,,162,162,10,11,8,8,0.2,0.3
2025-04-23T1900,2605A,101.5482,25.0441,楚雄彝族自治州,州环境监测站,,40,40,31,23,19,128,,122,122,8,10,6,8,0.4,0.5
2025-04-23T1900,2606A,101.538,25.0492,楚雄彝族自治州,市经济开发区,,46,46,31,26,21,126,,122,122,9,9,6,7,0.6,0.5
2025-04-23T1900,2548A,107.5277,31.2827,达州市,达州职业技术学院,颗粒物(PM10),75,100,79,35,26,89,,87,87,7,15,6,5,0.5,0.4
2025-04-23T1900,2549A,107.5086,31.2186,达州市,市环境监测站,颗粒物(PM10),79,108,79,36,27,85,,90,90,19,18,4,4,0.3,0.2
2025-04-23T1900,2550A,107.4988,31.2132,达州市,凤凰小区,颗粒物(PM10),85,119,80,31,29,86,,93,93,20,16,7,6,0.5,0.4
2025-04-23T1900,2551A,107.5082,31.1986,达州市,达县机关宾馆,颗粒物(PM10),73,95,83,22,27,80,,89,89,19,21,4,4,0.4,0.4
2025-04-23T1900,2552A,107.4644,31.2124,达州市,市政中心,颗粒物(PM10),95,139,89,39,26,100,,99,99,18,16,3,2,0.4,0.4
2025-04-23T1900,2614A,100.1542,25.7054,大理白族自治州,大理市环境监测站,,40,40,35,20,25,116,,116,116,8,6,7,7,0.5,0.5
2025-04-23T1900,2615A,100.2171,25.5811,大理白族自治州,大理古城,,42,42,33,26,24,120,,118,118,5,7,7,7,0.5,0.6
2025-04-23T1900,1109A,121.612,38.9741,大连市,甘井子,,48,48,27,29,15,134,,136,133,34,27,10,9,0.4,0.3
2025-04-23T1900,1110A,121.565,38.9511,大连市,周水子,细颗粒物(PM2.5),53,54,27,37,14,109,,123,122,41,23,8,7,0.5,0.3
2025-04-23T1900,1111A,121.5637,38.8845,大连市,星海三站,,48,48,23,31,12,131,,116,116,30,17,6,5,0.3,0.2
2025-04-23T1900,1112A,121.6302,38.9117,大连市,青泥洼桥,颗粒物(PM10),53,55,24,31,12,159,,146,146,22,16,8,7,0.5,0.5
2025-04-23T1900,1113A,121.6251,38.8638,大连市,傅家庄,,44,41,21,30,12,138,,126,126,36,24,12,10,0.3,0.2
2025-04-23T1900,1114A,121.5213,38.8661,大连市,七贤岭,颗粒物(PM10),57,63,23,31,11,140,,125,125,25,19,7,6,0.5,0.6
2025-04-23T1900,1115A,121.2529,38.8061,大连市,旅顺,,47,47,20,30,14,100,,100,100,44,32,4,4,0.6,0.5
2025-04-23T1900,1116A,121.7485,39.1311,大连市,金州,颗粒物(PM10),58,65,39,26,18,124,,130,130,33,25,11,10,0.3,0.3
2025-04-23T1900,1117A,121.7811,39.0496,大连市,开发区,,46,41,27,32,16,134,,117,117,34,29,7,6,0.7,0.7
2025-04-23T1900,1118A,121.9762,39.0631,大连市,双D港,颗粒物(PM10),55,59,33,29,16,105,,120,120,59,24,15,10,0.3,0.3
2025-04-23T1900,1789A,124.81117,46.03138,大庆市,大同区,颗粒物(PM10),52,53,37,23,23,69,,83,82,4,8,4,5,0.3,0.4
2025-04-23T1900,1790A,125.129,46.533,大庆市,龙凤区,颗粒物(PM10),54,57,39,33,18,76,,88,87,22,11,6,6,0.7,0.4
2025-04-23T1900,1791A,124.902,46.408,大庆市,红岗区,颗粒物(PM10),60,70,25,27,16,82,,92,91,8,6,4,5,0.4,0.3
2025-04-23T1900,1792A,125.153,46.586,大庆市,萨尔图区,,49,49,37,26,17,71,,79,77,20,12,5,8,0.5,0.4
2025-04-23T1900,1793A,124.9042,46.6215,大庆市,让胡路区,,34,34,24,22,17,74,,81,81,15,9,6,7,0.3,0.3
2025-04-23T1900,3481A,125.141,46.634,大庆市,萨区政府监测点,,41,41,33,17,9,82,,88,87,13,9,5,6,0.4,0.4
2025-04-23T1900,1723A,113.2994,40.0758,大同市,云冈宾馆,,33,17,76,3,15,105,,111,111,8,26,7,11,0.2,0.4
2025-04-23T1900,1724A,113.3444,40.0917,大同市,大同大学,,31,22,77,11,19,97,,104,104,6,26,8,10,0.4,0.5
2025-04-23T1900,1725A,113.2661,40.1269,大同市,安家小村,,31,18,70,3,18,99,,104,104,3,17,10,16,0.2,1.1
2025-04-23T1900,1726A,113.2711,40.0844,大同市,教育学院,,33,25,76,15,19,103,,109,109,9,26,8,12,0.2,0.4
2025-04-23T1900,3282A,113.3397,40.0597,大同市,大同市卫生学校,,32,25,89,12,25,102,,108,108,10,38,6,11,0.5,0.6
2025-04-23T1900,3565A,113.1367,40.1122,大同市,云冈站,,30,26,65,3,18,96,,105,105,9,24,10,14,0.3,0.4
2025-04-23T1900,3566A,113.1186,40.2556,大同市,图书馆,,31,31,58,3,15,96,,101,101,4,11,8,9,0.5,0.5
2025-04-23T1900,3567A,113.5931,40.0461,大同市,区一中,,33,30,93,3,22,104,,110,110,8,24,10,24,0.4,0.6
2025-04-23T1900,4199A,113.2798,40.0997,大同市,魏都大道141号,,33,29,80,3,18,105,,110,110,7,28,12,16,0.3,0.7
2025-04-23T1900,2269A,124.1069,50.4097,大兴安岭地区,科技局,,38,,26,26,16,76,,80,78,5,13,4,4,0.3,0.3
2025-04-23T1900,3663A,124.1164,50.4278,大兴安岭地区,红旗社区,,25,12,14,12,9,79,,89,82,2,3,4,5,0.3,0.4
2025-04-23T1900,1600A,124.3303,40.0625,丹东市,江湾东路,,36,36,33,22,25,112,,110,110,18,15,10,11,0.4,0.6
2025-04-23T1900,1601A,124.4256,40.1503,丹东市,临江后街,颗粒物(PM10),53,56,41,24,25,107,,109,109,13,14,8,7,0.5,0.5
2025-04-23T1900,1602A,124.3933,40.1461,丹东市,元宝山,,39,39,32,20,18,104,,107,107,18,14,11,9,0.5,0.4
2025-04-23T1900,1603A,124.3633,40.1092,丹东市,民主桥,,38,38,31,18,19,116,,113,113,15,15,9,10,0.4,0.5
2025-04-23T1900,3541A,109.5726,19.5167,儋州市,第一中学子站,,41,41,25,18,19,66,,96,96,9,7,6,7,0.3,0.5
2025-04-23T1900,3542A,109.5567,19.5187,儋州市,东坡学校子站,,34,34,28,20,16,76,,108,108,10,9,7,7,0.5,0.5
2025-04-23T1900,2616A,98.5842,24.428,德宏傣族景颇族自治州,德宏州监测站,颗粒物(PM10),79,107,59,49,35,118,,102,102,14,15,8,8,0.5,0.7
2025-04-23T1900,3677A,98.5881,24.4368,德宏傣族景颇族自治州,芒市人民政府综合楼,颗粒物(PM10),90,130,72,41,35,125,,106,106,14,12,8,7,0.6,0.6
2025-04-23T1900,1901A,104.4239,31.1208,德阳市,东山公园,,,111,119,55,51,148,,141,141,,20,4,4,0.7,0.6
2025-04-23T1900,1902A,104.3826,31.1317,德阳市,西小区,颗粒物(PM10),84,118,126,54,55,140,,139,139,27,24,5,6,0.5,0.5
2025-04-23T1900,1904A,104.3553,31.1091,德阳市,耐火材料厂,颗粒物(PM10),85,120,120,50,52,126,,139,139,34,26,6,7,0.6,0.5
2025-04-23T1900,3639A,104.4019,31.1244,德阳市,市教育局,颗粒物(PM10),81,112,118,52,53,150,,143,143,22,23,5,6,0.5,0.4
2025-04-23T1900,1622A,116.3032,37.4674,德州市,儿童乐园,颗粒物(PM10),87,124,100,39,29,165,,159,159,20,21,10,10,0.7,0.6
2025-04-23T1900,1624A,116.2991,37.4451,德州市,监理站,,,,94,,34,161,,159,159,20,18,,14,0.5,0.5
2025-04-23T1900,3066A,116.2721,37.4379,德州市,九衢泉纯净水厂,颗粒物(PM10),82,114,98,44,33,149,,149,149,22,31,11,8,0.8,0.8
2025-04-23T1900,3371A,116.3728,37.4403,德州市,开发区人民医院,颗粒物(PM10),86,122,101,34,32,141,,147,147,22,23,11,11,0.8,0.7
2025-04-23T1900,3372A,116.3572,37.4094,德州市,太阳城中学,颗粒物(PM10),86,122,102,39,38,149,,155,155,18,26,8,8,0.9,1
2025-04-23T1900,3511A,116.5652,37.3319,德州市,陵城艺术中心,颗粒物(PM10),85,119,93,46,33,164,,156,156,24,26,8,7,0.7,0.7
2025-04-23T1900,2621A,99.7056,27.8317,迪庆藏族自治州,迪庆州站,,32,21,16,12,10,102,,103,103,12,8,5,5,0.5,0.4
2025-04-23T1900,3180A,99.7136,27.8094,迪庆藏族自治州,质量技术监督局,,32,13,14,11,8,101,,106,104,16,9,4,4,0.5,0.4
2025-04-23T1900,4257A,104.6092,35.5962,定西市,将台街,颗粒物(PM10),59,68,84,27,32,133,,133,133,8,24,6,5,0.0,0.1
2025-04-23T1900,4309A,104.6159,35.5701,定西市,正龙路62号,颗粒物(PM10),55,60,79,19,26,135,,133,133,4,10,9,9,0.2,0.2
2025-04-23T1900,1389A,113.7547,23.0494,东莞市,莞城梨川,,47,47,35,22,22,66,,123,121,18,12,6,6,0.5,0.5
2025-04-23T1900,1390A,113.7944,23.0128,东莞市,东城石井,,33,33,32,18,19,64,,120,117,21,16,4,4,0.4,0.4
2025-04-23T1900,1391A,113.7383,22.9658,东莞市,南城西平,,33,33,29,12,21,59,,105,102,17,11,4,4,0.5,0.5
2025-04-23T1900,3319A,113.7338,23.0381,东莞市,万江金泰,,41,41,33,22,21,53,,117,114,16,12,3,3,0.7,0.7
2025-04-23T1900,3626A,113.7533,23.0202,东莞市,南城元岭,,33,33,29,16,19,66,,113,112,13,9,6,6,0.5,0.5
2025-04-23T1900,3627A,113.7875,23.0457,东莞市,东城主山,,40,40,35,17,20,66,,116,115,18,15,4,4,0.4,0.4
2025-04-23T1900,1666A,118.6614,37.4309,东营市,市环保局,,,,54,,15,165,,185,185,,36,,10,0.5,0.4
2025-04-23T1900,3036A,118.6904,37.4338,东营市,开发区管委会,颗粒物(PM10),76,102,64,29,18,167,,188,188,26,30,8,9,0.6,0.5
2025-04-23T1900,3365A,118.5719,37.565,东营市,垦利区民丰路,颗粒物(PM10),73,95,59,36,20,157,,178,177,29,37,8,8,0.9,0.8
2025-04-23T1900,3498A,118.5055,37.8612,东营市,河口城区,臭氧1小时,95,117,64,42,18,196,,176,176,20,24,12,10,0.6,0.7
2025-04-23T1900,3646A,118.4978,37.4623,东营市,胜利站,颗粒物(PM10),85,120,65,31,20,145,,162,162,26,33,12,14,0.8,0.7
2025-04-23T1900,3734A,118.35,37.26,东营市,理想之城,,,105,64,27,25,160,,184,184,,40,9,10,0.6,0.5
2025-04-23T1900,1591A,110.0023,39.8129,鄂尔多斯市,综合楼,颗粒物(PM10),59,68,91,9,17,104,,109,109,11,12,4,5,0.3,0.2
2025-04-23T1900,1592A,109.9486,39.8261,鄂尔多斯市,巴音孟克林场办事处,颗粒物(PM10),60,70,88,22,25,96,,104,104,15,13,8,9,0.4,0.3
2025-04-23T1900,1593A,109.7736,39.5986,鄂尔多斯市,康泽苑,,,66,79,14,19,,,109,109,6,10,3,4,,0.4
2025-04-23T1900,1594A,109.8119,39.5989,鄂尔多斯市,华泰汽车城,颗粒物(PM10),54,58,79,9,19,100,,104,104,11,12,5,7,0.1,0.3
2025-04-23T1900,1595A,109.9734,39.7884,鄂尔多斯市,奥林花园,颗粒物(PM10),62,73,89,12,18,100,,106,106,13,18,2,2,0.1,0.1
2025-04-23T1900,2436A,114.8938,30.3994,鄂州市,市政府,颗粒物(PM10),59,67,74,32,41,143,,157,157,18,22,6,7,0.1,0.2
2025-04-23T1900,2437A,114.8989,30.3714,鄂州市,赵家坝,,,,69,,39,156,,178,178,16,18,5,5,0.7,0.9
2025-04-23T1900,3654A,114.8094,30.4089,鄂州市,精准医疗中心,颗粒物(PM10),68,86,64,31,42,148,,175,175,10,21,4,5,0.6,0.8
2025-04-23T1900,2454A,109.4978,30.2981,恩施土家族苗族自治州,湖北民院,颗粒物(PM10),56,62,72,25,31,75,,59,59,8,7,5,5,0.4,0.3
2025-04-23T1900,2455A,109.4707,30.2798,恩施土家族苗族自治州,州电力总公司,颗粒物(PM10),53,55,59,24,28,66,,57,57,10,14,4,4,0.4,0.4
2025-04-23T1900,3549A,109.5061,30.3772,恩施土家族苗族自治州,龙凤新区,,,56,56,17,22,52,,51,51,,9,6,6,0.5,0.4
2025-04-23T1900,2499A,108.3411,21.6158,防城港市,沙万,,36,36,37,19,17,56,,53,53,14,11,3,3,0.4,0.4
2025-04-23T1900,2500A,108.3514,21.7731,防城港市,防城档案局,,,38,30,23,19,68,,67,67,,3,2,3,,0.3
2025-04-23T1900,2501A,108.3506,21.6414,防城港市,大海花园,,23,20,29,14,16,72,,65,65,4,2,2,2,0.4,0.4
2025-04-23T1900,1371A,113.1294,23.0067,佛山市,湾梁,,41,41,31,18,17,58,,107,106,21,16,7,7,0.7,0.6
2025-04-23T1900,1372A,113.1083,23.0478,佛山市,华材职中,,44,44,32,17,19,66,,119,118,21,14,7,7,0.4,0.4
2025-04-23T1900,1373A,113.144,23.0453,佛山市,南海气象局,,49,49,36,26,21,61,,115,111,20,14,6,6,0.4,0.4
2025-04-23T1900,1374A,113.2881,22.8094,佛山市,顺德苏岗,,42,42,32,14,15,42,,87,86,15,13,6,6,0.6,0.6
2025-04-23T1900,1376A,112.8383,22.8678,佛山市,高明孔堂,,,40,33,18,18,56,,79,79,,6,,5,0.6,0.6
2025-04-23T1900,1377A,112.8836,23.1588,佛山市,三水监测站,,31,31,41,21,25,54,,95,95,34,31,5,5,0.5,0.5
2025-04-23T1900,1378A,112.867,23.185,佛山市,三水云东海,,45,45,39,28,28,43,,112,110,40,32,2,3,0.4,0.4
2025-04-23T1900,3625A,113.2544,22.7642,佛山市,容桂街道办,,31,31,25,14,18,40,,82,81,18,17,5,6,0.6,0.5
2025-04-23T1900,1282A,119.2681,26.0504,福州市,师大,,49,36,31,34,24,100,,82,81,17,19,4,4,0.4,0.4
2025-04-23T1900,1283A,119.2984,26.1028,福州市,五四北路,,38,34,31,26,25,86,,78,73,25,25,4,4,0.6,0.6
2025-04-23T1900,1284A,119.2648,26.0768,福州市,杨桥西路,,43,34,32,30,24,100,,82,80,16,18,4,4,0.4,0.4
2025-04-23T1900,1285A,119.317,26.0746,福州市,紫阳,,40,34,38,28,25,96,,71,68,19,29,5,5,0.4,0.4
2025-04-23T1900,3048A,119.5799,26.0936,福州市,九龙,,42,30,24,29,22,122,,99,99,10,11,3,4,0.4,0.4
2025-04-23T1900,3526A,119.5189,25.9664,福州市,吴航,,38,31,28,23,21,120,,89,89,11,13,3,3,0.5,0.6
2025-04-23T1900,1755A,123.7977,41.8491,抚顺市,望花区,颗粒物(PM10),108,165,68,9,26,99,,132,130,9,23,7,11,0.3,0.6
2025-04-23T1900,1756A,123.9161,41.8822,抚顺市,顺城区,颗粒物(PM10),93,136,54,8,20,98,,132,130,12,26,8,8,0.4,0.6
2025-04-23T1900,1757A,124.0436,41.8611,抚顺市,东洲区,颗粒物(PM10),99,148,45,14,20,94,,128,126,13,13,6,8,0.3,0.5
2025-04-23T1900,1758A,123.9247,41.8642,抚顺市,新抚区,颗粒物(PM10),108,165,56,10,19,93,,126,124,9,20,7,8,0.4,0.6
2025-04-23T1900,1759A,124.0972,41.8961,抚顺市,大伙房水库,颗粒物(PM10),95,139,42,9,18,95,,126,125,7,11,7,8,0.4,0.6
2025-04-23T1900,1760A,123.7086,41.8391,抚顺市,沈抚新城,颗粒物(PM10),94,137,67,8,26,87,,136,125,16,30,6,9,0.5,1
2025-04-23T1900,2376A,116.2127,28.0814,抚州市,桐源党溪,颗粒物(PM10),59,67,48,29,24,97,,125,124,2,3,4,4,1.1,1.1
2025-04-23T1900,2377A,116.3544,27.9831,抚州市,市站,颗粒物(PM10),58,65,41,26,21,100,,101,101,6,6,3,5,1.3,1.3
2025-04-23T1900,2378A,116.3565,27.963,抚州市,血防站,颗粒物(PM10),57,64,45,26,22,111,,111,111,1,3,3,4,0.5,0.7
2025-04-23T1900,2379A,116.3564,28.0007,抚州市,采茶剧团,,,,37,,20,103,,106,106,,2,,3,0.6,1.1
2025-04-23T1900,2380A,116.385,27.9647,抚州市,医学分院,颗粒物(PM10),59,67,38,27,19,102,,104,104,3,3,4,4,0.9,0.9
2025-04-23T1900,2207A,121.6094,41.998,阜新市,工业园区,颗粒物(PM10),66,82,57,3,18,88,,96,96,11,16,9,18,0.3,0.5
2025-04-23T1900,2208A,121.6697,42.0279,阜新市,长青街,颗粒物(PM10),56,62,47,8,17,88,,96,95,10,18,5,17,0.3,0.5
2025-04-23T1900,2209A,121.6673,42.0705,阜新市,农业园区,颗粒物(PM10),55,60,49,3,14,88,,96,95,8,15,6,14,0.2,0.3
2025-04-23T1900,2210A,121.6717,42.0224,阜新市,东苑,颗粒物(PM10),65,79,56,8,17,89,,97,97,7,19,8,20,0.4,0.5
2025-04-23T1900,2211A,121.6506,42.0498,阜新市,玉龙新城,颗粒物(PM10),59,68,51,3,15,86,,96,95,10,18,8,14,0.3,0.5
2025-04-23T1900,2301A,115.8277,32.8929,阜阳市,市监测站,颗粒物(PM10),112,173,84,57,34,126,,134,134,13,16,7,8,0.3,0.3
2025-04-23T1900,2303A,115.8554,32.8605,阜阳市,开发区,颗粒物(PM10),124,197,108,41,26,125,,138,138,15,20,6,7,0.4,0.4
2025-04-23T1900,2875A,115.784,32.8892,阜阳市,阜阳职业技术学院,颗粒物(PM10),120,189,90,58,31,119,,131,131,11,18,5,6,0.4,0.3
2025-04-23T1900,3468A,115.7901,32.8613,阜阳市,市规划展馆,颗粒物(PM10),120,190,110,44,22,132,,142,142,12,16,7,8,0.5,0.5
2025-04-23T1900,3469A,115.836,32.9183,阜阳市,枣园社区,颗粒物(PM10),108,166,92,50,23,132,,140,140,9,19,10,10,0.3,0.3
2025-04-23T1900,2669A,102.9099,34.9841,甘南藏族自治州,州政府,,,,45,,27,,,88,88,2,12,7,9,0.3,0.3
2025-04-23T1900,3380A,102.8914,34.9617,甘南藏族自治州,甘肃民族师范学院,细颗粒物(PM2.5),59,46,45,42,19,91,,97,97,20,13,14,8,0.4,0.4
2025-04-23T1900,2570A,101.9603,30.0475,甘孜藏族自治州,水桥子,,,,16,10,10,73,,69,69,,14,5,4,,0.4
2025-04-23T1900,3065A,101.9533,29.9972,甘孜藏族自治州,州环保局,,22,10,19,8,5,39,,66,66,43,16,2,1,0.5,0.5
2025-04-23T1900,3414A,115.8347,28.932,赣江新区,桑海产业园,,46,46,46,25,32,116,,114,114,11,12,3,2,0.5,0.5
2025-04-23T1900,2363A,114.9367,25.8664,赣州市,地委,,24,21,20,12,10,74,,76,76,4,5,3,3,1.1,1
2025-04-23T1900,2364A,114.9461,25.8481,赣州市,气象台,,28,28,25,7,7,69,,74,72,15,10,7,8,0.8,0.8
2025-04-23T1900,2365A,114.9322,25.8333,赣州市,市图书馆,,25,25,14,10,10,69,,75,74,10,6,4,4,1.0,0.8
2025-04-23T1900,2366A,114.8905,25.8471,赣州市,华坚鞋城,,24,24,18,14,9,60,,68,64,10,8,4,4,0.7,0.6
2025-04-23T1900,3109A,115.0093,25.8613,赣州市,赣县区卫计委,,22,14,12,12,7,70,,69,69,7,5,4,4,0.7,0.5
2025-04-23T1900,2683A,106.2319,36.1417,固原市,马园,颗粒物(PM10),54,58,85,10,33,92,,111,111,29,40,5,5,0.5,0.6
2025-04-23T1900,2684A,106.2792,36.0022,固原市,监测站,,47,47,62,10,22,109,,112,112,8,21,4,6,0.5,0.6
2025-04-23T1900,2685A,106.2375,36.0211,固原市,新区,,44,44,66,10,23,105,,107,107,8,37,5,5,0.3,0.5
2025-04-23T1900,3522A,106.2177,35.9959,固原市,原州区十五小,,42,42,57,14,22,112,,114,114,7,18,7,8,0.1,0.2
2025-04-23T1900,2544A,106.6303,30.4576,广安市,市委,颗粒物(PM10),91,132,72,51,26,102,,94,94,8,8,4,4,0.3,0.3
2025-04-23T1900,2545A,106.6271,30.4663,广安市,友谊中学,颗粒物(PM10),80,109,56,45,23,101,,94,94,15,11,2,2,0.5,0.4
2025-04-23T1900,2547A,106.6388,30.4551,广安市,广电花园,颗粒物(PM10),85,119,61,51,26,100,,96,96,13,10,4,3,0.3,0.3
2025-04-23T1900,2902A,106.6351,30.4865,广安市,北辰小学,颗粒物(PM10),91,131,72,48,26,109,,100,100,14,10,3,3,0.3,0.3
2025-04-23T1900,2523A,105.8945,32.4535,广元市,黑石坡,颗粒物(PM10),62,73,114,19,33,111,,107,107,8,8,6,3,0.4,0.3
2025-04-23T1900,2524A,105.821,32.4444,广元市,老城,颗粒物(PM10),63,76,98,30,39,110,,116,116,12,20,3,2,0.7,0.7
2025-04-23T1900,2526A,105.8628,32.4287,广元市,监测站,颗粒物(PM10),54,58,81,27,40,117,,116,116,10,11,8,8,0.4,0.4
2025-04-23T1900,3617A,105.8047,32.4166,广元市,经开区,颗粒物(PM10),59,67,114,32,52,118,,123,123,12,22,6,13,0.4,0.5
2025-04-23T1900,1345A,113.2347,23.1423,广州市,广雅中学,颗粒物(PM10),56,62,40,35,21,74,,121,121,49,18,4,4,0.6,0.4
2025-04-23T1900,1346A,113.2612,23.105,广州市,市五中,,50,50,36,22,22,53,,120,119,31,13,2,2,0.7,0.6
2025-04-23T1900,1348A,113.3478,23.0916,广州市,广东商学院,颗粒物(PM10),51,51,40,31,22,58,,122,122,32,26,4,4,0.4,0.5
2025-04-23T1900,1349A,113.4332,23.1047,广州市,市八十六中,,,43,41,18,20,41,,111,102,48,38,4,4,,0.5
2025-04-23T1900,1350A,113.3505,22.9483,广州市,番禺中学,,45,45,35,24,22,54,,119,117,26,17,5,5,0.6,0.5
2025-04-23T1900,1351A,113.2146,23.3916,广州市,花都师范,,,31,46,19,26,85,,140,140,27,22,,4,1.0,0.8
2025-04-23T1900,1352A,113.2597,23.1331,广州市,市监测站,,45,45,36,23,21,54,,103,103,38,18,6,6,0.6,0.5
2025-04-23T1900,1353A,113.5618,23.312,广州市,九龙镇镇龙,细颗粒物(PM2.5),59,54,47,42,28,98,,139,139,24,28,4,6,0.6,0.5
2025-04-23T1900,1354A,113.2765,23.1544,广州市,麓湖,,43,43,35,22,21,59,,126,126,35,15,3,3,0.6,0.5
2025-04-23T1900,1355A,113.443,23.3035,广州市,帽峰山森林公园,,43,42,34,30,20,81,,24,,10,25,5,7,0.8,0.8
2025-04-23T1900,2846A,113.3221,23.1322,广州市,体育西,,,51,41,29,25,54,,126,126,,24,,4,0.2,0.3
2025-04-23T1900,3298A,113.5717,23.5491,广州市,从化街口,,,,42,,25,,,47,,,21,,10,,0.6
2025-04-23T1900,3299A,113.3472,23.3692,广州市,白云竹料,,50,50,48,28,26,95,,148,148,23,26,2,3,0.6,0.6
2025-04-23T1900,3300A,113.2981,23.237,广州市,白云嘉禾,颗粒物(PM10),59,68,47,36,28,63,,127,127,61,29,4,5,1.0,0.7
2025-04-23T1900,3301A,113.4256,23.1716,广州市,黄埔科学城,颗粒物(PM10),53,55,47,25,24,48,,112,112,40,28,9,7,0.5,0.4
2025-04-23T1900,3302A,113.3942,23.0483,广州市,番禺大学城,,37,37,36,19,20,54,,122,121,32,24,6,6,0.5,0.5
2025-04-23T1900,3303A,113.4922,22.8168,广州市,南沙黄阁,,,33,35,20,18,48,,85,85,24,18,,4,0.5,0.5
2025-04-23T1900,3304A,113.5342,22.7896,广州市,南沙街,,42,42,33,16,18,44,,74,74,21,15,4,4,0.7,0.6
2025-04-23T1900,3443A,113.2902,23.5544,广州市,花都梯面,,27,22,46,12,26,86,,99,99,9,20,3,4,0.5,0.5
2025-04-23T1900,3445A,113.7858,23.7478,广州市,从化良口,,28,,36,18,32,89,,108,108,10,11,6,6,0.4,0.3
2025-04-23T1900,3446A,113.8051,23.2614,广州市,增城荔城,,50,50,38,26,24,86,,142,142,18,15,8,7,0.3,0.3
2025-04-23T1900,2506A,109.6047,23.0666,贵港市,江南子站,颗粒物(PM10),59,68,45,31,24,77,,89,89,14,15,4,5,0.7,0.6
2025-04-23T1900,2508A,109.5669,23.1065,贵港市,荷城子站,颗粒物(PM10),65,79,49,31,19,62,,73,73,16,15,5,5,0.4,0.4
2025-04-23T1900,3405A,109.5886,23.1172,贵港市,新世纪学校,颗粒物(PM10),68,85,43,32,22,68,,80,80,17,14,6,7,0.7,0.6
2025-04-23T1900,4260A,109.5933,23.0951,贵港市,中山路155-3号,细颗粒物(PM2.5),60,67,44,43,29,71,,85,85,16,15,6,6,0.8,0.7
2025-04-23T1900,1439A,106.6899,26.5998,贵阳市,马鞍山,颗粒物(PM10),51,51,38,27,13,52,,57,57,13,10,2,3,0.4,0.3
2025-04-23T1900,1441A,106.6243,26.6266,贵阳市,鉴湖路,颗粒物(PM10),58,66,48,29,18,49,,66,61,17,10,11,11,0.3,0.3
2025-04-23T1900,1442A,106.7487,26.6343,贵阳市,燕子冲,细颗粒物(PM2.5),62,66,37,44,23,53,,58,58,13,11,2,2,0.4,0.4
2025-04-23T1900,1443A,106.6555,26.4365,贵阳市,碧云窝,颗粒物(PM10),63,75,50,34,17,61,,64,64,13,13,4,4,0.4,0.4
2025-04-23T1900,1445A,106.7109,26.6027,贵阳市,红边门,细颗粒物(PM2.5),62,70,45,44,23,47,,62,59,8,12,4,4,0.3,0.2
2025-04-23T1900,1446A,106.7164,26.5699,贵阳市,新华路,细颗粒物(PM2.5),64,66,38,46,25,54,,61,60,11,9,2,3,0.3,0.4
2025-04-23T1900,1447A,106.674,26.5424,贵阳市,太慈桥,颗粒物(PM10),57,63,37,34,17,55,,63,61,18,13,4,5,0.3,0.2
2025-04-23T1900,4230A,106.6882,26.5695,贵阳市,花果园大街66号,细颗粒物(PM2.5),72,63,39,52,24,52,,60,59,15,13,4,4,0.4,0.3
2025-04-23T1900,4231A,106.6873,26.5169,贵阳市,漓江路57号,颗粒物(PM10),56,61,41,36,19,63,,69,68,10,10,7,8,0.3,0.3
2025-04-23T1900,1864A,110.3089,25.2708,桂林市,龙隐路小学,颗粒物(PM10),58,65,47,32,19,76,,86,86,11,7,9,14,0.5,0.5
2025-04-23T1900,1865A,110.2869,25.2178,桂林市,八中,颗粒物(PM10),56,61,48,24,15,68,,80,80,20,15,1,5,0.5,0.8
2025-04-23T1900,3531A,110.296,25.1253,桂林市,旅游学院,,46,46,39,24,19,76,,79,75,10,11,3,3,0.7,0.7
2025-04-23T1900,4222A,110.1835,25.2444,桂林市,环湖路276号,颗粒物(PM10),51,51,49,29,26,76,,84,79,8,8,6,11,0.4,0.4
2025-04-23T1900,4301A,110.2803,25.2773,桂林市,信义路13号,颗粒物(PM10),56,62,50,36,21,81,,89,85,14,12,2,4,0.6,0.6
2025-04-23T1900,2674A,100.2561,34.4714,果洛藏族自治州,玛沁县大武镇,颗粒物(PM10),53,55,37,25,18,104,,105,105,1,2,19,20,0.4,0.4
2025-04-23T1900,1129A,126.5422,45.755,哈尔滨市,岭北,,38,38,26,18,15,91,,112,110,12,16,12,13,0.7,0.7
2025-04-23T1900,1130A,126.561,45.8167,哈尔滨市,松北商大,,41,41,28,24,16,82,,101,100,12,14,5,8,0.5,0.5
2025-04-23T1900,1131A,126.979,45.5419,哈尔滨市,阿城会宁,,44,44,37,24,15,89,,110,108,14,15,12,4,0.4,0.4
2025-04-23T1900,1132A,126.599,45.7222,哈尔滨市,南岗学府路,颗粒物(PM10),51,52,40,11,12,83,,99,99,15,19,8,8,0.4,0.4
2025-04-23T1900,1133A,126.689,45.7733,哈尔滨市,太平宏伟公园,,43,43,44,19,19,94,,109,109,12,27,4,6,0.6,0.8
2025-04-23T1900,1134A,126.635,45.7667,哈尔滨市,道外承德广场,,40,40,30,19,18,80,,96,96,14,20,6,7,0.4,0.5
2025-04-23T1900,1135A,126.685,45.7319,哈尔滨市,香坊红旗大街,颗粒物(PM10),56,61,46,33,17,86,,102,99,15,26,6,8,0.4,0.6
2025-04-23T1900,1136A,126.6411,45.7258,哈尔滨市,动力和平路,,44,44,36,23,22,77,,92,92,18,24,7,9,0.3,0.4
2025-04-23T1900,1137A,126.593,45.7478,哈尔滨市,道里建国路,,38,38,32,23,18,84,,102,98,15,23,12,10,0.2,0.8
2025-04-23T1900,1138A,126.615,45.61,哈尔滨市,平房东轻厂,,44,44,28,16,12,85,,106,106,14,8,10,9,0.5,0.6
2025-04-23T1900,1140A,126.6206,45.6842,哈尔滨市,省农科院,颗粒物(PM10),58,66,45,21,20,74,,93,92,17,30,3,6,0.4,0.4
2025-04-23T1900,2688A,93.5128,42.8172,哈密市,地区监测站,,35,27,34,9,13,112,,103,103,9,14,3,3,0.2,0.3
2025-04-23T1900,2689A,93.4961,42.8328,哈密市,哈密师范学校,,35,16,29,6,6,109,,98,98,7,14,4,5,0.3,0.3
2025-04-23T1900,2671A,100.9048,36.9639,海北藏族自治州,海晏县西海镇,颗粒物(PM10),54,57,50,33,26,116,,115,115,8,6,12,10,0.5,0.5
2025-04-23T1900,3867A,102.0738,36.5056,海东市,平安区公安北苑,颗粒物(PM10),60,70,56,25,22,115,,114,114,4,4,6,8,0.3,0.5
2025-04-23T1900,1409A,110.576,19.9507,海口市,东寨港,,46,35,26,32,15,56,,70,70,5,5,6,5,0.5,0.5
2025-04-23T1900,1410A,110.3232,20.0574,海口市,海南大学,,33,27,28,16,15,105,,104,104,6,15,2,2,0.4,0.4
2025-04-23T1900,1411A,110.283,20.0053,海口市,秀英海南医院,,39,39,32,20,16,94,,100,100,11,20,4,5,0.3,0.3
2025-04-23T1900,1412A,110.338,19.9969,海口市,海南师范大学,,39,39,33,15,16,98,,114,114,8,11,3,4,0.4,0.4
2025-04-23T1900,1413A,110.33,20.0356,海口市,龙华路环保局宿舍,,43,43,31,17,17,100,,107,107,5,11,4,4,0.3,0.3
2025-04-23T1900,3539A,110.5111,19.9736,海口市,桂林洋子站,,42,42,27,24,16,81,,89,89,20,11,4,4,0.3,0.2
2025-04-23T1900,2673A,100.6188,36.2866,海南藏族自治州,共和县恰卜恰镇,,,43,76,22,43,,,121,121,4,13,15,16,0.5,0.5
2025-04-23T1900,2676A,97.3731,37.3753,海西蒙古族藏族自治州,德令哈市,颗粒物(PM10),68,86,73,17,21,125,,118,118,4,3,9,13,0.4,0.4
2025-04-23T1900,1048A,114.5302,36.6116,邯郸市,东污水处理厂,颗粒物(PM10),75,100,80,27,22,128,,108,108,18,26,5,4,0.4,0.6
2025-04-23T1900,1049A,114.4918,36.5713,邯郸市,矿院,,,,60,,32,117,,102,102,10,23,5,5,0.4,0.6
2025-04-23T1900,1050A,114.484,36.6133,邯郸市,丛台公园,颗粒物(PM10),79,107,70,34,22,134,,116,116,11,19,8,8,0.4,0.6
2025-04-23T1900,3458A,114.7895,36.5593,邯郸市,香泉濮院小区,颗粒物(PM10),82,113,87,19,16,129,,129,129,14,17,5,8,0.1,0.4
2025-04-23T1900,3579A,114.50634,36.77178,邯郸市,永年区实验高中,颗粒物(PM10),86,121,84,28,26,143,,127,127,9,19,7,9,0.4,0.8
2025-04-23T1900,3580A,114.20016,36.44293,邯郸市,峰峰矿区临水派出所,颗粒物(PM10),74,97,77,36,30,136,,126,126,10,10,7,8,0.5,0.6
2025-04-23T1900,2634A,106.9893,33.1842,汉中市,汉川机床厂子校,颗粒物(PM10),59,67,126,25,37,115,,123,123,8,9,7,8,0.5,0.5
2025-04-23T1900,2635A,107.0154,33.0706,汉中市,市监测站,颗粒物(PM10),65,79,133,38,46,122,,122,122,13,17,6,11,0.6,0.8
2025-04-23T1900,2636A,107.0089,33.1138,汉中市,鑫源开发区,颗粒物(PM10),59,68,133,35,58,117,,126,126,12,20,5,11,0.5,0.7
2025-04-23T1900,2637A,107.007,33.0323,汉中市,南郑大河坎水厂,细颗粒物(PM2.5),93,99,123,69,53,117,,115,115,13,16,4,5,0.5,0.7
2025-04-23T1900,1223A,120.2072,30.2111,杭州市,滨江,臭氧1小时,73,56,54,19,27,178,,168,168,21,20,7,6,0.7,0.7
2025-04-23T1900,1224A,120.0633,30.2747,杭州市,西溪,,35,28,37,11,31,112,,132,132,16,12,4,4,0.7,0.7
2025-04-23T1900,1226A,120.3417,30.3150,杭州市,下沙,颗粒物(PM10),54,58,46,22,24,161,,165,165,33,30,6,6,0.5,0.6
2025-04-23T1900,1227A,120.1269,30.2456,杭州市,卧龙桥,,35,35,41,17,31,93,,156,153,31,17,6,6,0.7,0.6
2025-04-23T1900,1228A,120.1903,30.2692,杭州市,浙江农大,臭氧1小时,63,54,46,34,35,170,,169,169,30,23,2,2,0.5,0.5
2025-04-23T1900,1230A,120.1197,30.3119,杭州市,和睦小学,臭氧1小时,52,43,47,17,26,161,,166,166,21,17,7,6,0.6,0.6
2025-04-23T1900,1231A,120.3019,30.4183,杭州市,临平镇,颗粒物(PM10),59,67,51,29,41,165,,169,169,25,20,6,6,0.6,0.6
2025-04-23T1900,1232A,120.2753,30.1839,杭州市,城厢镇,臭氧1小时,83,49,44,26,35,186,,182,182,28,21,7,7,0.5,0.5
2025-04-23T1900,1233A,120.0883,30.1808,杭州市,云栖,,38,38,45,12,24,99,,148,147,20,18,10,10,0.6,0.7
2025-04-23T1900,3557A,119.9464,30.0494,杭州市,镇二中,,37,28,39,9,27,116,,142,142,37,18,3,2,0.5,0.6
2025-04-23T1900,3558A,119.7183,30.2367,杭州市,市府大楼,,40,33,42,16,32,128,,144,144,25,14,7,7,0.5,0.6
2025-04-23T1900,3656A,120.1556,30.2864,杭州市,消防大队,,46,40,46,18,34,147,,164,164,39,23,3,4,0.7,0.8
2025-04-23T1900,1270A,117.1959,31.7848,合肥市,明珠广场,颗粒物(PM10),96,141,93,44,46,130,,156,156,29,19,3,2,0.4,0.6
2025-04-23T1900,1271A,117.3072,31.8764,合肥市,三里街,颗粒物(PM10),98,146,95,36,38,139,,148,148,18,17,6,5,0.5,0.6
2025-04-23T1900,1272A,117.2588,31.8707,合肥市,琥珀山庄,颗粒物(PM10),102,153,102,25,35,142,,152,152,20,21,4,3,0.4,0.6
2025-04-23T1900,1273A,117.1604,31.9052,合肥市,董铺水库,颗粒物(PM10),102,153,88,36,38,141,,143,143,8,12,1,2,0.3,0.5
2025-04-23T1900,1274A,117.25,31.8571,合肥市,长江中路,颗粒物(PM10),109,168,105,48,45,146,,151,151,16,16,9,7,0.5,0.6
2025-04-23T1900,1275A,117.266,31.9436,合肥市,庐阳区,颗粒物(PM10),96,141,90,41,46,138,,150,150,16,15,7,7,0.4,0.5
2025-04-23T1900,1276A,117.3453,31.8616,合肥市,瑶海区,颗粒物(PM10),101,151,101,37,47,138,,143,143,18,20,7,6,0.3,0.5
2025-04-23T1900,1277A,117.3027,31.7964,合肥市,包河区,,,,89,,48,119,,132,132,20,26,,6,0.4,0.6
2025-04-23T1900,1278A,117.2776,31.7385,合肥市,滨湖新区,颗粒物(PM10),84,117,90,34,53,128,,141,141,20,23,8,7,0.5,0.6
2025-04-23T1900,1279A,117.1318,31.8403,合肥市,高新区,颗粒物(PM10),98,146,93,43,48,149,,147,147,13,12,3,2,0.5,0.6
2025-04-23T1900,3464A,117.3803,31.9147,合肥市,高教基地,颗粒物(PM10),102,153,96,29,28,63,,154,144,,24,6,5,0.4,0.5
2025-04-23T1900,3614A,79.924,37.0877,和田地区,地区环保局,颗粒物(PM10),262,393,582,119,159,77,,71,71,6,11,2,2,0.3,0.3
2025-04-23T1900,3615A,79.9131,37.113,和田地区,市环保局,颗粒物(PM10),325,440,523,124,129,85,,79,79,2,7,3,2,0.2,0.2
2025-04-23T1900,2517A,108.0497,24.6947,河池市,市环保站,,28,28,12,7,5,70,,62,62,7,6,6,6,0.5,0.5
2025-04-23T1900,2518A,108.0983,24.6989,河池市,市疾控中心,,26,26,17,14,7,72,,70,70,10,10,7,7,0.5,0.5
2025-04-23T1900,1696A,114.6778,23.7569,河源市,源西,,43,30,34,30,26,74,,92,92,18,18,3,4,0.6,0.5
2025-04-23T1900,1697A,114.6944,23.7586,河源市,东埔,,35,,35,24,26,79,,93,93,19,19,3,4,0.9,0.6
2025-04-23T1900,1698A,114.6892,23.7233,河源市,老城,,50,40,37,35,30,66,,92,92,21,16,6,4,0.8,0.5
2025-04-23T1900,1718A,115.4208,35.2464,菏泽市,气象局,颗粒物(PM10),114,177,111,52,42,163,,153,153,16,26,7,6,0.5,0.4
2025-04-23T1900,3374A,115.5564,35.0891,菏泽市,定陶老年大学,颗粒物(PM10),112,173,100,46,31,158,,157,157,18,20,7,7,0.6,0.5
2025-04-23T1900,4184A,115.4797,35.24401,菏泽市,永昌路1号,细颗粒物(PM2.5),122,157,103,92,47,144,,139,139,17,29,7,7,0.4,0.4
2025-04-23T1900,4193A,115.4715,35.2800,菏泽市,长城路999号,颗粒物(PM10),107,164,105,44,32,165,,158,158,18,27,10,9,0.4,0.3
2025-04-23T1900,2514A,111.5264,24.4172,贺州市,环保小区,颗粒物(PM10),56,61,29,24,16,64,,73,73,14,10,7,7,0.8,0.7
2025-04-23T1900,2515A,111.5608,24.4078,贺州市,政协大楼,,47,47,27,21,17,59,,74,74,18,13,8,8,0.7,0.5
2025-04-23T1900,3534A,111.4744,24.4553,贺州市,西湾,,45,45,24,22,14,69,,69,69,11,9,8,8,0.7,0.6
2025-04-23T1900,2385A,114.17,35.9019,鹤壁市,市监测站,,,,72,,29,,,,,17,16,3,4,1.1,0.5
2025-04-23T1900,2386A,114.2956,35.7511,鹤壁市,市交警支队,颗粒物(PM10),76,102,85,38,25,125,,140,140,16,25,6,8,0.5,0.6
2025-04-23T1900,2387A,114.2878,35.7306,鹤壁市,迎宾馆,颗粒物(PM10),74,97,93,26,19,128,,145,145,17,24,1,4,0.4,0.5
2025-04-23T1900,3474A,114.2617,35.6822,鹤壁市,大新区,颗粒物(PM10),79,108,92,26,30,114,,134,134,16,34,7,9,0.4,0.5
2025-04-23T1900,3596A,114.1572,35.9603,鹤壁市,南山宾馆,颗粒物(PM10),76,102,76,50,36,145,,147,147,14,10,6,5,0.5,0.4
2025-04-23T1900,2244A,130.2537,47.3416,鹤岗市,哈啤分公司,,34,34,36,19,22,80,,90,90,12,9,16,14,0.3,0.3
2025-04-23T1900,2245A,130.2684,47.3086,鹤岗市,斯达机电,细颗粒物(PM2.5),99,,33,74,24,67,,91,89,36,8,16,12,0.4,0.2
2025-04-23T1900,2246A,130.3114,47.3388,鹤岗市,东山纸板厂,颗粒物(PM10),52,54,70,32,27,79,,90,90,13,15,12,13,0.3,0.8
2025-04-23T1900,2263A,127.4833,50.2524,黑河市,交通局,,45,45,50,17,34,80,,80,80,8,9,7,7,0.2,0.2
2025-04-23T1900,2264A,127.5144,50.2341,黑河市,环保局,,41,41,35,20,33,81,,83,83,9,7,4,3,0.3,0.3
2025-04-23T1900,1074A,115.6838,37.7541,衡水市,电机北厂,颗粒物(PM10),95,140,88,68,31,138,,139,139,13,18,5,7,0.3,0.3
2025-04-23T1900,1075A,115.6303,37.7316,衡水市,市监测站,,,,78,,20,121,,137,135,18,24,3,4,0.4,0.3
2025-04-23T1900,3188A,115.6683,37.7217,衡水市,市城管局,颗粒物(PM10),98,145,81,63,28,130,,137,137,16,22,5,7,0.4,0.4
2025-04-23T1900,3459A,115.5989,37.5491,衡水市,地表水厂,颗粒物(PM10),98,145,90,37,26,109,,145,145,35,32,11,10,0.4,0.3
2025-04-23T1900,2456A,112.5003,26.9167,衡阳市,原169医院,,38,38,48,24,25,77,,88,86,13,8,3,5,0.6,0.6
2025-04-23T1900,2457A,112.6194,26.9258,衡阳市,衡阳化工总厂,,46,35,67,32,35,73,,74,74,6,10,3,5,0.6,0.6
2025-04-23T1900,2458A,112.6211,26.8956,衡阳市,珠晖区环保局,颗粒物(PM10),53,55,60,25,25,65,,69,69,15,14,6,7,0.7,0.7
2025-04-23T1900,2459A,112.6197,26.8733,衡阳市,市委党校,,,45,64,,,72,,71,71,10,13,1,4,0.4,0.7
2025-04-23T1900,2460A,112.6006,26.8919,衡阳市,市监测站,细颗粒物(PM2.5),53,54,59,37,31,69,,73,73,14,12,7,9,0.9,0.7
2025-04-23T1900,2461A,112.5664,26.9056,衡阳市,真空机电公司,,44,44,57,29,24,67,,78,76,9,8,4,4,0.7,0.7
2025-04-23T1900,3399A,112.6703,26.882,衡阳市,师范学院,,47,47,65,27,32,78,,74,74,10,13,6,7,0.7,0.7
2025-04-23T1900,2608A,103.3772,23.3993,红河哈尼族彝族自治州,污水处理厂,细颗粒物(PM2.5),55,57,42,39,32,107,,115,115,6,9,5,5,0.4,0.4
2025-04-23T1900,2609A,103.3861,23.35,红河哈尼族彝族自治州,监测站,颗粒物(PM10),75,99,55,35,28,99,,114,112,5,7,6,7,0.3,0.2
2025-04-23T1900,3038A,103.3758,23.368,红河哈尼族彝族自治州,州图书馆,细颗粒物(PM2.5),53,47,38,37,27,93,,104,103,5,6,4,4,0.3,0.3
2025-04-23T1900,1090A,111.6507,40.7517,呼和浩特市,呼市一监,,34,22,63,3,17,107,,110,108,2,8,3,6,0.3,0.3
2025-04-23T1900,1091A,111.6572,40.8033,呼和浩特市,小召,,33,17,74,3,19,104,,108,105,9,22,6,9,0.4,0.4
2025-04-23T1900,1094A,111.7516,40.8369,呼和浩特市,如意水处理厂,,32,13,55,3,17,100,,101,99,4,27,6,7,0.4,0.5
2025-04-23T1900,1095A,111.7276,40.8062,呼和浩特市,二十九中,,32,18,67,3,21,101,,102,101,2,19,3,4,0.3,0.3
2025-04-23T1900,1096A,111.5512,40.7866,呼和浩特市,工大金川校区,,32,22,66,3,18,100,,104,102,7,23,6,8,0.4,0.5
2025-04-23T1900,1097A,111.717,40.7612,呼和浩特市,化肥厂生活区,,32,15,63,3,18,100,,103,101,6,15,7,9,0.3,0.4
2025-04-23T1900,3698A,111.5968,40.8178,呼和浩特市,红旗小学,,33,12,62,3,16,105,,109,106,7,29,3,4,0.2,0.3
2025-04-23T1900,3699A,111.6518,40.8389,呼和浩特市,海东办,,34,14,62,8,19,107,,109,107,2,23,6,7,0.4,0.5
2025-04-23T1900,2192A,119.7594,49.2261,呼伦贝尔市,区环保局,,39,38,45,27,22,68,,74,74,8,7,5,5,0.4,0.3
2025-04-23T1900,3061A,119.7512,49.1577,呼伦贝尔市,国华电力东,,36,36,34,21,12,70,,75,74,6,6,4,4,0.3,0.2
2025-04-23T1900,1250A,120.0751,30.8669,湖州市,城西水厂,颗粒物(PM10),58,65,59,23,35,107,,137,136,47,33,6,7,0.3,0.4
2025-04-23T1900,2873A,120.0830,30.8929,湖州市,仁皇山新区,颗粒物(PM10),63,75,56,22,32,125,,147,147,22,22,4,4,0.8,0.8
2025-04-23T1900,2907A,120.1844,30.8596,湖州市,吴兴区站,颗粒物(PM10),61,71,46,24,29,164,,163,163,18,20,7,6,0.3,0.3
2025-04-23T1900,3562A,120.4148,30.8538,湖州市,南浔区站,颗粒物(PM10),65,79,50,26,22,162,,164,164,19,17,4,4,0.6,0.5
2025-04-23T1900,1607A,120.9049,40.7211,葫芦岛市,龙港区,颗粒物(PM10),72,93,52,3,26,74,,119,118,15,21,12,14,0.3,0.6
2025-04-23T1900,1608A,120.8392,40.7514,葫芦岛市,化工街,颗粒物(PM10),73,95,65,7,25,82,,109,109,13,41,12,19,0.5,0.7
2025-04-23T1900,1609A,120.8341,40.7073,葫芦岛市,新区,颗粒物(PM10),72,94,45,3,27,82,,122,117,15,28,8,11,0.5,0.7
2025-04-23T1900,1610A,120.8695,40.7677,葫芦岛市,东城区,颗粒物(PM10),74,98,54,3,29,77,,104,104,11,33,7,8,0.4,0.7
2025-04-23T1900,2482A,109.5981,27.5721,怀化市,林科所,,50,50,63,26,23,48,,54,54,6,7,9,10,0.5,0.5
2025-04-23T1900,2483A,109.9453,27.5444,怀化市,河西地税局,颗粒物(PM10),52,54,61,23,26,67,,66,66,14,12,12,11,0.5,0.5
2025-04-23T1900,2484A,109.9781,27.5342,怀化市,市四医院,颗粒物(PM10),54,58,66,29,26,72,,70,70,8,6,6,6,0.6,0.4
2025-04-23T1900,2485A,109.9972,27.5578,怀化市,监测楼,颗粒物(PM10),53,55,66,23,26,83,,71,71,6,6,2,3,0.5,0.5
2025-04-23T1900,2486A,110.0394,27.583,怀化市,市委党校,,49,49,61,9,27,75,,69,69,7,8,4,6,0.5,0.5
2025-04-23T1900,1210A,119.036,33.5981,淮安市,钵池山,颗粒物(PM10),64,78,76,28,39,161,,162,162,15,17,14,10,0.6,0.5
2025-04-23T1900,1211A,119.007,33.575,淮安市,北京南路,颗粒物(PM10),68,85,73,28,43,148,,163,163,23,20,12,10,0.6,0.8
2025-04-23T1900,1212A,118.989,33.6067,淮安市,市监测站,颗粒物(PM10),62,73,71,29,38,149,,162,162,23,21,9,10,0.4,0.7
2025-04-23T1900,1213A,119.135,33.5039,淮安市,楚州区监测站,,,93,77,32,44,148,,156,156,,22,9,8,,0.6
2025-04-23T1900,3426A,118.8755,33.2894,淮安市,新华书店,颗粒物(PM10),68,86,69,18,26,150,,163,163,17,19,9,9,0.4,0.5
2025-04-23T1900,4206A,119.0288,33.6319,淮安市,承德北路606号,颗粒物(PM10),68,85,82,36,42,152,,162,162,21,18,9,9,0.4,0.5
2025-04-23T1900,2282A,116.8004,33.975,淮北市,监测站,颗粒物(PM10),128,205,120,50,36,145,,158,158,19,20,7,9,0.8,0.7
2025-04-23T1900,2283A,116.8091,33.9007,淮北市,烈山区政府,颗粒物(PM10),130,209,138,46,47,141,,150,150,15,34,6,8,0.7,0.8
2025-04-23T1900,3330A,116.8873,33.9836,淮北市,杜集区检察院,颗粒物(PM10),128,206,128,57,39,158,,162,162,,23,8,8,0.8,0.8
2025-04-23T1900,4017A,116.7923,33.9535,淮北市,市博物馆,颗粒物(PM10),114,178,124,59,40,148,,157,157,16,25,7,10,0.7,0.7
2025-04-23T1900,2277A,116.8305,32.7727,淮南市,潘集区政府,颗粒物(PM10),101,151,106,56,38,128,,140,140,14,20,5,6,0.4,0.3
2025-04-23T1900,2279A,116.8569,32.5951,淮南市,谢家集区政府,颗粒物(PM10),96,141,90,41,31,135,,142,142,17,17,5,6,0.5,0.5
2025-04-23T1900,2280A,116.8281,32.633,淮南市,八公山区政府,颗粒物(PM10),100,149,103,40,28,141,,144,144,9,9,6,5,0.3,0.3
2025-04-23T1900,2894A,117.0566,32.6531,淮南市,经济技术开发区消防队,颗粒物(PM10),96,142,92,39,39,141,,150,150,14,19,7,8,0.4,0.4
2025-04-23T1900,3329A,117.0108,32.5893,淮南市,山南新区,颗粒物(PM10),109,168,108,51,27,133,,147,147,12,16,8,9,0.4,0.5
2025-04-23T1900,4209A,117.0031,32.6445,淮南市,国庆中路369号,颗粒物(PM10),108,165,100,47,38,137,,147,147,15,18,9,11,0.3,0.3
2025-04-23T1900,2446A,114.9028,30.4742,黄冈市,职工中心,细颗粒物(PM2.5),54,56,63,38,46,156,,172,172,17,19,7,7,0.7,0.8
2025-04-23T1900,2929A,114.8858,30.4519,黄冈市,红卫路,颗粒物(PM10),58,65,68,37,48,149,,170,170,14,6,6,7,0.6,0.8
2025-04-23T1900,3398A,114.9136,30.4445,黄冈市,市林业局,颗粒物(PM10),56,62,71,29,48,160,,173,173,9,14,8,9,0.6,0.8
2025-04-23T1900,2672A,102.0199,35.5102,黄南藏族自治州,同仁县隆务镇,颗粒物(PM10),55,60,71,26,27,103,,102,102,2,3,5,6,0.2,0.2
2025-04-23T1900,2295A,118.2903,29.6963,黄山市,延安路89号,,28,22,27,16,20,88,,113,112,7,4,4,4,0.5,0.6
2025-04-23T1900,2297A,118.1371,30.2756,黄山市,黄山区政府5号楼,,50,50,56,19,25,88,,120,117,10,6,3,3,0.7,0.8
2025-04-23T1900,4210A,118.3354,29.7203,黄山市,滨江东路7-2号,,39,39,40,15,19,72,,115,112,14,8,4,4,0.7,0.7
2025-04-23T1900,2423A,115.0601,30.2313,黄石市,沈家营,臭氧1小时,65,72,72,29,32,172,,181,181,10,14,7,7,0.8,1
2025-04-23T1900,2426A,114.8988,30.2019,黄石市,铁山,颗粒物(PM10),126,201,73,31,44,130,,158,158,29,20,8,7,0.4,0.4
2025-04-23T1900,2427A,115.0307,30.2092,黄石市,团城山,颗粒物(PM10),60,69,63,26,31,152,,168,168,18,16,9,9,0.7,0.7
2025-04-23T1900,3149A,115.0235,30.1578,黄石市,笔架山北路,颗粒物(PM10),54,57,60,26,29,145,,168,168,12,12,9,7,0.6,0.9
2025-04-23T1900,4185A,115.0780,30.21118,黄石市,磁湖东路29号,颗粒物(PM10),63,75,68,32,42,164,,185,185,14,14,8,8,0.7,0.9
2025-04-23T1900,1392A,114.4183,23.0528,惠州市,河南岸金山湖子站,,37,37,31,25,20,94,,121,121,22,18,8,8,0.4,0.4
2025-04-23T1900,1393A,114.4053,23.0822,惠州市,下埔横江三路子站,,43,43,34,23,20,110,,132,132,17,17,7,8,0.6,0.6
2025-04-23T1900,1394A,114.4103,23.1142,惠州市,江北云山西路子站,颗粒物(PM10),51,51,35,24,21,97,,136,136,20,16,12,10,0.4,0.4
2025-04-23T1900,1395A,114.4645,22.7833,惠州市,惠阳区承修路船湖子站,,46,46,29,22,17,61,,87,87,18,14,7,7,0.5,0.4
2025-04-23T1900,1396A,114.5317,22.7422,惠州市,大亚湾管委会子站,,28,28,29,17,17,57,,77,77,13,13,7,7,0.6,0.5
2025-04-23T1900,3314A,114.4338,22.8134,惠州市,惠阳秋长,,29,29,28,19,17,68,,107,107,21,17,8,9,0.6,0.5
2025-04-23T1900,3452A,114.6517,22.775,惠州市,大亚湾霞涌,,,22,20,12,15,,,52,52,14,15,5,6,0.4,0.3
2025-04-23T1900,2240A,130.9762,45.3001,鸡西市,环保局,,,37,39,20,23,,,90,90,15,22,6,8,0.3,0.5
2025-04-23T1900,2243A,130.9429,45.3039,鸡西市,第一中学,,40,40,30,24,17,64,,86,82,18,19,7,8,0.5,0.4
2025-04-23T1900,3707A,131.0207,45.3073,鸡西市,欧美日汽修厂,,46,33,49,32,26,66,,90,87,10,17,4,7,0.4,0.6
2025-04-23T1900,3709A,130.9967,45.3106,鸡西市,市政设施管理处,,43,39,38,30,21,56,,86,81,17,22,7,8,0.5,0.5
2025-04-23T1900,2367A,114.9754,27.0803,吉安市,红声器材厂,,32,32,30,15,16,93,,108,108,10,7,11,10,0.6,0.6
2025-04-23T1900,2368A,114.9658,27.0999,吉安市,市森林工业局,,31,31,28,15,17,91,,104,103,9,7,9,10,0.6,0.5
2025-04-23T1900,2369A,114.99,27.1312,吉安市,市环境监测站,,31,28,24,16,12,97,,103,103,6,5,13,13,0.7,0.7
2025-04-23T1900,2370A,115.0093,27.0968,吉安市,青原区法院,,36,36,28,17,19,96,,114,114,11,7,12,12,0.5,0.5
2025-04-23T1900,1772A,126.54,43.8622,吉林市,哈达湾,,38,38,31,12,16,82,,105,105,18,18,6,7,0.3,0.5
2025-04-23T1900,1773A,126.5844,43.8358,吉林市,东局子,,37,37,27,12,14,80,,100,100,17,14,5,5,0.5,0.6
2025-04-23T1900,1774A,126.5052,43.8245,吉林市,电力学院,,29,29,35,3,21,87,,109,109,11,19,5,6,0.3,0.6
2025-04-23T1900,1775A,126.6133,43.8972,吉林市,江北,,,,31,,14,,,107,107,,15,6,5,0.5,0.6
2025-04-23T1900,1776A,126.555,43.8306,吉林市,江南公园,,30,30,25,9,16,86,,105,105,11,13,5,5,0.3,0.4
2025-04-23T1900,2868A,126.4739,43.953,吉林市,九站,,45,45,33,11,18,79,,106,105,15,20,8,9,0.8,0.8
2025-04-23T1900,1299A,116.9862,36.6114,济南市,科干所,颗粒物(PM10),65,80,75,32,24,166,,164,164,17,19,9,9,0.4,0.4
2025-04-23T1900,1300A,116.9376,36.665,济南市,农科所,颗粒物(PM10),63,76,86,29,25,151,,156,156,20,34,10,8,0.4,0.4
2025-04-23T1900,1301A,117.1265,36.6734,济南市,开发区,颗粒物(PM10),69,88,76,37,26,159,,164,164,23,20,12,9,0.7,0.6
2025-04-23T1900,1303A,117.0624,36.6868,济南市,省种子仓库,颗粒物(PM10),82,114,103,41,34,164,,165,165,24,32,8,6,0.9,0.8
2025-04-23T1900,1304A,116.9489,36.6447,济南市,机床二厂,颗粒物(PM10),89,127,108,34,27,151,,161,161,28,38,12,10,0.5,0.5
2025-04-23T1900,1305A,117.0495,36.663,济南市,市监测站,颗粒物(PM10),78,105,88,32,26,154,,157,157,24,30,12,9,0.5,0.4
2025-04-23T1900,1306A,116.7675,36.5484,济南市,长清党校,,,,87,,30,170,,169,169,,25,8,8,,0.6
2025-04-23T1900,1616A,117.6795,36.229,济南市,技术学院,颗粒物(PM10),87,124,84,44,35,159,,167,167,26,45,18,13,0.9,0.8
2025-04-23T1900,1961A,117.532,36.6868,济南市,东山小学,颗粒物(PM10),78,105,82,29,22,152,,168,168,21,30,11,8,0.4,0.3
2025-04-23T1900,3059A,117.7161,36.2049,济南市,泰兴公司,颗粒物(PM10),81,112,76,44,28,154,,169,169,31,48,13,11,1.2,0.7
2025-04-23T1900,3064A,117.6867,36.2171,济南市,莱芜战役纪念馆,颗粒物(PM10),74,97,76,34,26,153,,165,165,30,44,16,8,2.2,0.7
2025-04-23T1900,3494A,117.1673,36.9782,济南市,济阳区政府,颗粒物(PM10),81,112,98,42,29,162,,169,169,24,34,13,9,0.6,0.5
2025-04-23T1900,3495A,117.1171,36.63,济南市,锦屏中学,颗粒物(PM10),72,93,66,37,22,156,,165,165,22,17,8,6,0.5,0.3
2025-04-23T1900,3682A,116.9814,36.6819,济南市,济南四建,颗粒物(PM10),73,95,90,29,32,163,,166,166,22,35,8,7,0.6,0.5
2025-04-23T1900,1653A,116.6251,35.4302,济宁市,火炬城,颗粒物(PM10),90,129,79,46,31,149,,157,157,16,25,8,8,0.4,0.3
2025-04-23T1900,1655A,116.5491,35.4042,济宁市,电化厂,颗粒物(PM10),89,127,87,48,34,140,,155,155,23,34,2,5,0.4,0.3
2025-04-23T1900,3500A,116.5814,35.3707,济宁市,北湖一中,颗粒物(PM10),156,261,88,29,20,149,,162,162,23,26,8,8,0.5,0.3
2025-04-23T1900,3501A,116.8249,35.5593,济宁市,服务中心,颗粒物(PM10),97,143,98,44,29,134,,135,135,27,32,4,4,0.6,0.5
2025-04-23T1900,3678A,116.5907,35.4054,济宁市,市第七中学,颗粒物(PM10),88,126,87,36,26,162,,171,171,5,15,7,8,0.5,0.4
2025-04-23T1900,2255A,130.2751,46.8028,佳木斯市,佳纺,颗粒物(PM10),55,59,44,38,25,97,,102,102,23,19,10,8,0.8,0.5
2025-04-23T1900,2256A,130.3995,46.8307,佳木斯市,发电厂,颗粒物(PM10),51,52,41,18,20,86,,99,98,17,16,6,5,0.3,0.3
2025-04-23T1900,2257A,130.3258,46.7975,佳木斯市,环保局,,37,37,36,18,23,95,,106,106,16,20,4,4,0.4,0.4
2025-04-23T1900,2258A,130.3648,46.8032,佳木斯市,十一中,,35,35,32,23,22,88,,95,95,15,23,7,8,0.5,0.5
2025-04-23T1900,2259A,130.3794,46.7588,佳木斯市,四丰,,25,17,20,11,13,80,,91,90,6,9,1,1,1.0,1
2025-04-23T1900,1252A,120.7436,30.778,嘉兴市,清河小学,颗粒物(PM10),73,96,56,22,23,132,,143,143,20,19,5,5,0.8,0.9
2025-04-23T1900,1253A,120.726,30.7478,嘉兴市,嘉兴学院,颗粒物(PM10),55,59,41,21,24,161,,162,162,15,16,6,7,0.8,0.9
2025-04-23T1900,2872A,120.7846,30.7525,嘉兴市,南湖区残联,颗粒物(PM10),58,66,46,29,25,152,,166,166,20,15,6,6,0.7,0.8
2025-04-23T1900,3407A,120.6916,30.7739,嘉兴市,秀洲住建,颗粒物(PM10),60,69,55,25,27,147,,168,168,16,17,6,7,0.7,0.8
2025-04-23T1900,1945A,98.2908,39.7711,嘉峪关市,气象局,,35,31,35,7,10,111,,119,119,14,11,18,30,0.5,0.4
2025-04-23T1900,2884A,98.2672,39.7978,嘉峪关市,酒钢宾馆,,35,19,40,12,12,112,,111,111,9,10,43,35,0.2,0.4
2025-04-23T1900,3248A,98.2643,39.7724,嘉峪关市,雄关区,,35,30,39,15,15,110,,115,115,13,16,19,14,0.4,0.6
2025-04-23T1900,1383A,113.1064,22.6058,江门市,北街,,30,,29,21,16,45,,75,74,12,12,2,2,0.4,0.4
2025-04-23T1900,1384A,113.0731,22.5835,江门市,西区,,34,34,30,19,17,45,,74,72,16,13,5,7,0.4,0.4
2025-04-23T1900,1385A,113.0219,22.5311,江门市,圭峰西,,25,25,30,16,14,43,,62,62,13,10,3,3,0.4,0.3
2025-04-23T1900,1386A,113.0828,22.5947,江门市,东湖,,34,34,29,14,16,49,,74,74,14,12,7,7,0.4,0.4
2025-04-23T1900,3311A,113.1075,22.5647,江门市,江海富民,,46,46,36,18,21,46,,70,70,10,9,7,7,0.3,0.4
2025-04-23T1900,3449A,113.05,22.4667,江门市,新会银湖,,30,30,30,14,17,47,,67,67,9,13,2,3,0.3,0.2
2025-04-23T1900,3169A,113.2725,35.2067,焦作市,太极体育中心,颗粒物(PM10),100,150,141,45,49,137,,146,146,21,13,3,10,0.2,0.3
2025-04-23T1900,3335A,113.3137,35.2641,焦作市,马村街道办,颗粒物(PM10),84,117,143,60,50,148,,149,149,15,16,7,13,0.3,0.6
2025-04-23T1900,3336A,113.2465,35.2373,焦作市,焦作技师学院,颗粒物(PM10),90,130,155,41,45,148,,148,148,15,15,6,11,0.2,0.5
2025-04-23T1900,3477A,113.1656,35.2539,焦作市,中站许衡医院,颗粒物(PM10),96,141,137,56,49,142,,151,151,27,22,12,14,0.4,0.6
2025-04-23T1900,3981A,113.2449,35.1803,焦作市,原李万街道办,细颗粒物(PM2.5),153,157,151,117,55,134,,146,146,23,21,8,13,0.3,0.4
2025-04-23T1900,4264A,113.2340,35.2190,焦作市,新安路1731号,颗粒物(PM10),89,128,159,50,56,141,,148,148,19,17,5,12,0.4,0.6
2025-04-23T1900,1708A,116.3701,23.5345,揭阳市,新兴,,48,48,35,24,24,81,,91,91,9,8,5,5,0.7,0.6
2025-04-23T1900,1709A,116.3264,23.5443,揭阳市,西马,细颗粒物(PM2.5),99,,40,74,25,70,,83,83,9,7,6,6,0.8,0.6
2025-04-23T1900,1710A,116.3611,23.5626,揭阳市,东兴,,32,28,39,22,22,72,,91,91,13,7,4,4,1.0,0.9
2025-04-23T1900,1711A,116.4151,23.5294,揭阳市,渔湖,颗粒物(PM10),52,53,32,25,22,74,,94,94,14,9,3,4,0.8,0.7
2025-04-23T1900,3320A,116.403,23.5699,揭阳市,曲溪,,34,34,31,21,21,82,,102,102,12,9,10,8,0.6,0.5
2025-04-23T1900,1944A,102.1692,38.5167,金昌市,天庆家园,,35,22,33,6,10,111,,111,111,3,5,9,7,0.6,0.7
2025-04-23T1900,4022A,102.1647,38.5371,金昌市,金川区人防中心,,33,24,42,8,11,104,,114,110,5,5,14,12,0.5,0.4
2025-04-23T1900,4239A,102.1930,38.5319,金昌市,长春路96号,,36,22,37,6,10,113,,111,111,1,4,15,17,0.6,0.6
2025-04-23T1900,1262A,119.647,29.077,金华市,十五中,,45,39,59,31,41,90,,95,95,29,21,2,2,0.6,0.7
2025-04-23T1900,1263A,119.686,29.1029,金华市,监测站,,42,35,51,29,49,96,,94,94,24,24,3,4,0.7,0.7
2025-04-23T1900,1767A,121.1115,41.0879,锦州市,南山,颗粒物(PM10),67,84,49,11,33,81,,95,95,12,34,6,13,0.4,0.7
2025-04-23T1900,1768A,121.0604,40.8428,锦州市,开发区,颗粒物(PM10),74,97,67,10,32,83,,114,114,18,38,6,18,0.5,0.7
2025-04-23T1900,1769A,121.1836,41.1119,锦州市,百股街道,颗粒物(PM10),66,82,47,7,18,78,,94,94,16,29,7,11,0.4,0.6
2025-04-23T1900,1770A,121.1178,41.1222,锦州市,天安街道,颗粒物(PM10),66,81,50,21,27,78,,91,91,11,30,7,12,0.5,0.7
2025-04-23T1900,1771A,121.1303,41.1386,锦州市,北湖公园,颗粒物(PM10),56,61,49,10,29,80,,92,92,8,28,7,12,0.4,0.7
2025-04-23T1900,2160A,112.85,35.5051,晋城市,自来水公司,,,79,141,,37,120,,126,126,18,18,7,10,0.6,0.7
2025-04-23T1900,2161A,112.8318,35.4936,晋城市,白云商贸,颗粒物(PM10),62,74,155,7,41,130,,130,130,15,18,6,8,0.4,0.6
2025-04-23T1900,2162A,112.8508,35.4887,晋城市,市环保局,颗粒物(PM10),62,73,145,22,40,121,,122,122,16,16,4,7,0.3,0.4
2025-04-23T1900,2163A,112.8676,35.4897,晋城市,技术学院,颗粒物(PM10),65,79,146,14,45,121,,122,122,15,20,6,9,0.5,0.6
2025-04-23T1900,2165A,112.8453,35.546,晋城市,白马寺,,50,50,124,31,60,133,,131,131,5,8,3,6,0.2,0.4
2025-04-23T1900,3620A,112.8271,35.4828,晋城市,泽州一中,颗粒物(PM10),57,64,164,17,52,134,,133,133,11,14,8,10,0.3,0.5
2025-04-23T1900,2173A,112.7249,37.7067,晋中市,南都小区,颗粒物(PM10),70,89,131,21,36,100,,118,118,13,30,5,23,0.2,0.3
2025-04-23T1900,2174A,112.6991,37.6982,晋中市,榆次区政府,颗粒物(PM10),75,100,134,16,30,94,,116,116,18,31,6,20,0.2,0.6
2025-04-23T1900,2865A,112.7195,37.6828,晋中市,榆次三中,颗粒物(PM10),79,107,147,22,51,99,,120,120,12,36,4,18,0.2,0.6
2025-04-23T1900,4200A,112.7478,37.6954,晋中市,迎宾街26号,颗粒物(PM10),74,97,144,19,41,92,,111,111,11,27,3,19,0.3,0.6
2025-04-23T1900,2439A,112.2014,31.0481,荆门市,竹园小学,颗粒物(PM10),112,174,132,54,44,115,,129,129,14,12,5,6,0,0
2025-04-23T1900,2440A,112.1969,30.9891,荆门市,掇刀,颗粒物(PM10),109,167,110,52,38,113,,121,121,15,18,11,11,0.4,0.3
2025-04-23T1900,2441A,112.2213,31.0386,荆门市,石化一小,颗粒物(PM10),108,166,122,60,43,114,,126,126,11,11,7,9,0.2,0.3
2025-04-23T1900,3012A,112.1849,31.0362,荆门市,西山林语,,,,115,,40,102,,121,121,7,7,,7,0.4,0.2
2025-04-23T1900,3547A,112.1632,31.0138,荆门市,龙泉中学南校,颗粒物(PM10),105,160,108,58,42,103,,120,120,19,16,7,7,0.5,0.5
2025-04-23T1900,1844A,112.2494,30.3197,荆州市,市图书馆,颗粒物(PM10),62,74,79,35,38,87,,98,98,18,14,4,5,0.4,0.4
2025-04-23T1900,1845A,112.2008,30.3544,荆州市,市委党校,颗粒物(PM10),60,70,86,35,41,82,,89,89,17,11,6,6,0.4,0.5
2025-04-23T1900,3194A,112.2747,30.3122,荆州市,管委会,颗粒物(PM10),60,70,76,34,40,84,,95,95,17,14,5,6,0.6,0.5
2025-04-23T1900,4268A,112.1722,30.3366,荆州市,学苑路85号,,,53,70,32,37,82,,93,93,18,13,2,2,,0.3
2025-04-23T1900,2343A,117.2117,29.2933,景德镇市,老干部活动中心,颗粒物(PM10),56,61,33,27,24,121,,127,127,11,9,6,7,0.6,0.6
2025-04-23T1900,2344A,117.1894,29.2789,景德镇市,兽医站,颗粒物(PM10),56,62,37,33,22,117,,113,113,10,8,4,4,0.5,0.6
2025-04-23T1900,2345A,117.1547,29.2617,景德镇市,台达陶瓷,颗粒物(PM10),56,62,39,34,25,113,,116,116,30,12,78,33,0.8,0.8
2025-04-23T1900,2346A,117.2461,29.2956,景德镇市,陶研所,颗粒物(PM10),53,55,32,36,28,88,,123,121,17,9,6,5,0.6,0.6
2025-04-23T1900,1803A,115.9872,29.6815,九江市,十里,颗粒物(PM10),56,61,53,39,42,163,,162,162,15,12,5,3,0.8,0.8
2025-04-23T1900,1804A,115.9584,29.7046,九江市,茅山头,颗粒物(PM10),65,79,58,34,39,160,,155,155,19,16,7,5,0.4,0.8
2025-04-23T1900,1805A,115.9877,29.7295,九江市,西园,"颗粒物(PM10),臭氧1小时",57,63,66,38,47,165,,157,157,30,44,9,13,1.0,1
2025-04-23T1900,1808A,115.9114,29.6038,九江市,综合工业园,颗粒物(PM10),59,67,58,34,39,134,,149,149,31,29,10,8,0.9,0.9
2025-04-23T1900,1809A,116.0721,29.7535,九江市,石化总厂,细颗粒物(PM2.5),75,81,71,55,57,142,,151,151,24,30,14,13,1.0,1.1
2025-04-23T1900,1810A,115.9773,29.5698,九江市,庐山气象台,,44,44,50,18,34,109,,133,133,7,11,8,9,0.6,0.8
2025-04-23T1900,3190A,116.0254,29.6994,九江市,外国语学校,颗粒物(PM10),62,73,59,32,41,137,,142,142,23,21,5,4,1.1,1.1
2025-04-23T1900,4253A,116.0102,29.6594,九江市,莲花大道8号,颗粒物(PM10),56,62,62,24,33,120,,143,143,11,7,4,4,0.8,0.8
2025-04-23T1900,4240A,98.4958,39.7339,酒泉市,玉门东路5号,,38,22,36,22,18,119,,121,121,4,8,10,13,0.3,0.3
2025-04-23T1900,4241A,98.5099,39.7506,酒泉市,北大街108号,,39,22,34,16,16,123,,125,125,5,10,10,16,0.4,0.4
2025-04-23T1900,2698A,76.0072,39.4467,喀什地区,巡警大队,颗粒物(PM10),53,55,362,16,72,117,,112,112,10,28,3,3,0.3,0.7
2025-04-23T1900,2699A,75.9755,39.4694,喀什地区,吾办,颗粒物(PM10),53,55,303,19,93,115,,110,110,13,28,2,4,0.3,0.7
2025-04-23T1900,4027A,75.9483,39.4689,喀什地区,老干局,颗粒物(PM10),53,56,313,12,66,112,,113,113,10,22,2,2,0.4,0.5
2025-04-23T1900,1824A,114.3389,34.7781,开封市,肿瘤医院,颗粒物(PM10),120,190,130,45,39,162,,158,158,17,22,9,9,0.4,0.4
2025-04-23T1900,1826A,114.2885,34.7965,开封市,世纪星幼儿园,颗粒物(PM10),119,188,129,53,39,186,,180,180,23,27,7,7,0.6,0.6
2025-04-23T1900,3147A,114.3438,34.8106,开封市,龙亭公园,颗粒物(PM10),119,188,137,54,40,173,,164,164,21,24,5,5,0.6,0.6
2025-04-23T1900,3210A,114.3644,34.7964,开封市,汴京公园,颗粒物(PM10),141,231,150,63,38,177,,179,179,20,25,5,5,0.7,0.8
2025-04-23T1900,3473A,114.2485,34.8306,开封市,技师学院,颗粒物(PM10),107,164,122,69,49,172,,159,159,18,23,6,6,0.9,0.9
2025-04-23T1900,3592A,114.4644,34.7556,开封市,祥符区生态环境局,颗粒物(PM10),114,178,110,62,36,145,,159,159,39,33,9,9,0.4,0.4
2025-04-23T1900,1951A,84.895,45.6094,克拉玛依市,长征新村,,33,21,28,8,14,105,,100,100,6,15,8,7,0.2,0.3
2025-04-23T1900,1952A,84.8988,45.5893,克拉玛依市,南林小区,,36,18,29,3,13,113,,108,108,4,20,3,3,0.3,0.4
2025-04-23T1900,1954A,84.905,44.3396,克拉玛依市,独山子区,,41,31,31,18,13,130,,132,132,6,9,16,9,0.4,0.3
2025-04-23T1900,1955A,85.6979,46.098,克拉玛依市,乌尔禾区商贸楼,,35,20,31,6,10,112,,110,110,2,13,6,7,0.3,0.3
2025-04-23T1900,3612A,85.1045,45.6899,克拉玛依市,白碱滩区新站,,36,26,55,9,12,115,,112,112,4,13,10,10,0.1,0.4
2025-04-23T1900,2697A,76.1454,39.7142,克孜勒苏柯尔克孜自治州,市人民政府,颗粒物(PM10),61,71,284,22,80,132,,127,127,2,6,5,8,0.1,0.2
2025-04-23T1900,3665A,76.1658,39.7157,克孜勒苏柯尔克孜自治州,克州文化中心,颗粒物(PM10),131,211,306,17,92,126,,120,120,2,6,7,16,0.2,0.2
2025-04-23T1900,1450A,102.8204,24.8886,昆明市,呈贡新区,颗粒物(PM10),53,55,36,30,28,123,,128,128,11,13,6,7,0.5,0.5
2025-04-23T1900,1452A,102.7252,25.0902,昆明市,龙泉镇,颗粒物(PM10),51,51,30,20,18,115,,119,119,12,20,8,9,0.3,0.4
2025-04-23T1900,1453A,102.7266,25.0375,昆明市,东风东路,,45,45,31,30,23,114,,123,123,15,14,8,10,0.4,0.5
2025-04-23T1900,1454A,102.6742,25.0669,昆明市,金鼎山,,41,41,35,19,23,118,,122,122,14,18,3,6,0.3,0.4
2025-04-23T1900,1455A,102.6644,25.0401,昆明市,碧鸡广场,,49,49,35,19,20,110,,116,116,13,19,6,8,0.4,0.4
2025-04-23T1900,3179A,102.7494,25.0119,昆明市,官渡区博物馆,颗粒物(PM10),53,56,35,26,20,117,,126,126,12,12,6,8,0.3,0.4
2025-04-23T1900,3375A,102.8017,24.8336,昆明市,青年创业园,,,33,30,27,20,,,128,128,6,13,7,9,0.4,0.5
2025-04-23T1900,3550A,102.7997,24.9786,昆明市,昆明学院,,39,39,33,20,19,124,,131,131,9,11,5,6,0.3,0.4
2025-04-23T1900,3551A,102.5967,24.6736,昆明市,晋宁区生态环境分局,,39,36,24,22,18,124,,119,119,5,7,8,8,0.3,0.4
2025-04-23T1900,3552A,102.6678,24.9856,昆明市,云天化总部,,37,33,28,13,16,116,,120,120,9,12,7,8,0.2,0.4
2025-04-23T1900,1456A,91.1319,29.6514,拉萨市,八廓街,,48,33,33,10,12,153,,147,147,6,11,6,6,0.4,0.5
2025-04-23T1900,1457A,91.1221,29.6747,拉萨市,市环保局,,46,20,36,9,12,146,,138,138,13,13,4,4,0.4,0.4
2025-04-23T1900,1458A,91.0874,29.6475,拉萨市,区监测站,,47,17,26,7,10,148,,139,139,11,14,6,6,0.2,0.6
2025-04-23T1900,1459A,91.1774,29.6541,拉萨市,西藏大学,,48,19,32,8,10,151,,140,140,8,12,5,6,0.2,0.2
2025-04-23T1900,1460A,90.9798,29.6588,拉萨市,区辐射站,,45,23,34,8,11,144,,136,136,17,17,8,8,0.4,0.4
2025-04-23T1900,1461A,91.0834,29.6292,拉萨市,拉萨火车站,,45,14,24,6,8,144,,138,138,8,6,3,4,0.3,0.3
2025-04-23T1900,2520A,109.2203,23.7256,来宾市,来宾技工学校,颗粒物(PM10),54,57,32,23,20,59,,63,63,7,8,7,8,0.6,0.8
2025-04-23T1900,3535A,109.1781,23.7297,来宾市,兴宾区政府,颗粒物(PM10),53,55,36,28,21,59,,60,60,8,8,5,5,0.7,0.8
2025-04-23T1900,4002A,109.2416,23.7461,来宾市,中南小学,,,,38,,16,48,,55,54,,9,8,12,0.6,0.7
2025-04-23T1900,1479A,103.831,36.0464,兰州市,铁路设计院,颗粒物(PM10),60,70,76,19,26,106,,112,112,29,48,10,20,0.5,1
2025-04-23T1900,3241A,103.7439,36.0842,兰州市,百合公园,颗粒物(PM10),51,52,68,18,21,112,,110,110,9,36,6,9,0.7,0.6
2025-04-23T1900,3242A,103.9611,35.998,兰州市,和平,颗粒物(PM10),54,58,74,11,50,118,,117,117,7,15,11,14,0.4,0.6
2025-04-23T1900,4236A,103.6293,36.0938,兰州市,庄浪东路808号,,,64,79,30,30,111,,113,113,18,33,,14,,0.4
2025-04-23T1900,4237A,103.7251,36.1043,兰州市,安宁西路88号,颗粒物(PM10),66,82,80,33,34,123,,125,125,12,24,9,10,0.4,0.5
2025-04-23T1900,4238A,103.8470,36.0676,兰州市,北滨河东路1号,颗粒物(PM10),51,52,71,22,30,124,,125,125,15,42,13,18,0.5,0.9
2025-04-23T1900,3245A,103.6633,36.533,兰州新区,新区管委会,,43,40,49,30,25,119,,126,126,7,12,12,12,0.3,0.3
2025-04-23T1900,3246A,103.6975,36.4789,兰州新区,舟曲中学,,50,50,57,12,19,125,,132,132,9,18,4,7,0.2,0.2
2025-04-23T1900,1067A,116.6708,39.5111,廊坊市,药材公司,颗粒物(PM10),63,75,77,9,28,100,,100,100,6,20,2,4,0.3,0.4
2025-04-23T1900,1068A,116.7214,39.5589,廊坊市,开发区,颗粒物(PM10),58,66,86,16,26,105,,102,102,8,20,1,2,0.2,0.3
2025-04-23T1900,1070A,116.7244,39.5269,廊坊市,北华航天学院,颗粒物(PM10),82,114,98,6,24,101,,99,99,5,21,3,6,0.2,0.3
2025-04-23T1900,2919A,116.7022,39.5453,廊坊市,河北工业大学,颗粒物(PM10),61,72,93,14,25,103,,102,102,2,15,5,6,0.2,0.3
2025-04-23T1900,2535A,103.7723,29.5462,乐山市,花湖湾,细颗粒物(PM2.5),73,88,88,53,40,62,,72,72,26,12,6,6,0.5,0.4
2025-04-23T1900,2536A,103.7627,29.5844,乐山市,牛耳桥,颗粒物(PM10),72,94,96,48,40,72,,83,83,21,14,8,7,0.5,0.5
2025-04-23T1900,2537A,103.7508,29.6006,乐山市,市第三水厂,颗粒物(PM10),73,96,92,49,38,72,,84,84,20,12,6,5,0.6,0.5
2025-04-23T1900,2538A,103.7571,29.5664,乐山市,市监测站,颗粒物(PM10),75,99,96,51,37,58,,72,72,30,14,8,7,0.5,0.7
2025-04-23T1900,3361A,103.7311,29.5628,乐山市,理工大学,颗粒物(PM10),72,94,87,48,37,67,,79,79,28,16,7,6,0.4,0.4
2025-04-23T1900,2599A,100.2497,26.8802,丽江市,丽江古城,,34,34,21,19,13,105,,104,104,10,11,5,5,0.5,0.5
2025-04-23T1900,2600A,100.2203,26.8906,丽江市,市中心,,30,26,13,14,11,96,,100,100,12,7,6,6,0.4,0.4
2025-04-23T1900,1267A,119.914,28.4514,丽水市,监测站大楼,,40,32,18,28,12,86,,90,90,19,14,2,2,0.7,0.6
2025-04-23T1900,1268A,119.93,28.4586,丽水市,莲都小学,,31,31,20,20,12,89,,93,92,18,11,3,3,0.5,0.4
2025-04-23T1900,1269A,119.879,28.4231,丽水市,余庄前,,25,23,23,17,15,56,,88,85,12,12,3,3,0.7,0.7
2025-04-23T1900,1173A,119.176,34.5885,连云港市,市环境监测站,颗粒物(PM10),71,92,90,36,50,172,,173,173,13,21,9,8,0.5,0.7
2025-04-23T1900,3000A,119.3581,34.6972,连云港市,德源药业,颗粒物(PM10),76,102,96,34,38,168,,169,169,20,39,11,10,0.5,0.7
2025-04-23T1900,3007A,119.178,34.844,连云港市,新城一中,颗粒物(PM10),74,98,83,39,30,170,,165,165,20,45,11,11,0.7,0.7
2025-04-23T1900,3008A,119.3608,34.7519,连云港市,胡沟管理处,颗粒物(PM10),65,80,46,41,17,157,,109,109,35,53,17,16,0.7,0.7
2025-04-23T1900,3009A,119.1478,34.5911,连云港市,矿山设计院,颗粒物(PM10),69,88,83,29,46,163,,170,170,18,29,12,11,0.6,0.7
2025-04-23T1900,3434A,119.2413,34.6539,连云港市,工贸学校,颗粒物(PM10),78,105,78,36,40,175,,174,174,19,17,13,10,0.9,0.9
2025-04-23T1900,3664A,119.4172,34.7341,连云港市,连云街道,颗粒物(PM10),83,116,68,38,22,182,,122,122,22,48,12,10,0.6,0.6
2025-04-23T1900,2571A,102.3431,27.8099,凉山彝族自治州,青龙寺,,16,13,20,3,4,50,,73,72,5,5,8,8,0.5,0.5
2025-04-23T1900,2572A,102.2721,27.8415,凉山彝族自治州,邛海宾馆,,23,23,24,6,9,68,,74,72,10,11,6,5,0.5,0.5
2025-04-23T1900,2573A,102.2625,27.898,凉山彝族自治州,西昌市政府,,17,13,18,3,10,53,,73,66,16,8,9,9,0.5,0.5
2025-04-23T1900,2574A,102.2685,27.8851,凉山彝族自治州,凉山州政府,,20,20,19,12,10,53,,71,65,19,12,6,6,0.8,0.6
2025-04-23T1900,4229A,102.2342,27.8859,凉山彝族自治州,凯乐南路30号,,24,24,26,8,6,49,,68,61,23,16,11,12,0.7,0.6
2025-04-23T1900,2212A,123.2,41.1953,辽阳市,宏伟区,颗粒物(PM10),81,111,48,20,19,97,,147,143,10,15,8,10,0.6,0.7
2025-04-23T1900,2213A,123.1683,41.2495,辽阳市,新华园,颗粒物(PM10),88,126,62,18,28,90,,148,144,9,24,5,14,0.5,0.8
2025-04-23T1900,2214A,123.2354,41.2639,辽阳市,滨河路,颗粒物(PM10),89,128,52,17,24,83,,144,138,12,20,6,10,0.4,0.7
2025-04-23T1900,2215A,123.149,41.2991,辽阳市,铁西工业园,颗粒物(PM10),98,145,73,20,36,74,,133,129,8,27,9,14,0.4,0.6
2025-04-23T1900,2227A,125.1358,42.8845,辽源市,环保局,颗粒物(PM10),59,67,42,11,11,95,,122,121,18,18,9,7,0.1,0.3
2025-04-23T1900,3239A,125.0764,42.9078,辽源市,银鹰制药,,42,42,27,11,16,100,,128,120,13,20,4,32,0.2,0.4
2025-04-23T1900,1625A,115.9848,36.4372,聊城市,区政府,颗粒物(PM10),83,116,95,38,31,155,,155,155,20,23,10,9,0.8,0.6
2025-04-23T1900,2878A,116.0072,36.4343,聊城市,聊大东校,颗粒物(PM10),89,127,99,46,41,154,,158,158,18,22,10,9,0.5,0.4
2025-04-23T1900,3200A,115.9819,36.4978,聊城市,监控中心,颗粒物(PM10),86,121,95,39,31,160,,161,161,25,27,10,10,0.5,0.4
2025-04-23T1900,3513A,116.0445,36.4361,聊城市,九州社区,颗粒物(PM10),78,105,84,36,28,158,,168,168,17,21,12,7,0.5,0.4
2025-04-23T1900,4018A,116.0567,36.4608,聊城市,星美广场,,,,98,,28,,,165,165,,24,,11,,0.7
2025-04-23T1900,2632A,94.3681,29.6376,林芝市,林芝监测站,,38,6,7,3,4,121,,103,103,7,6,5,5,0.6,0.6
2025-04-23T1900,2633A,94.3616,29.6616,林芝市,林芝人民医院,,35,12,8,6,5,110,,94,94,5,4,5,5,0.4,0.5
2025-04-23T1900,2603A,100.0781,23.8982,临沧市,市环保局,细颗粒物(PM2.5),58,63,54,41,37,111,,104,104,7,15,7,6,0.4,0.6
2025-04-23T1900,2604A,100.0894,23.8822,临沧市,市气象局,,49,49,49,30,37,116,,108,108,7,16,7,7,0.5,0.6
2025-04-23T1900,1733A,111.5531,36.0783,临汾市,临钢医院,颗粒物(PM10),102,153,288,39,69,147,,143,143,19,19,8,12,0.6,0.5
2025-04-23T1900,1734A,111.5028,36.0714,临汾市,技工学校,细颗粒物(PM2.5),100,144,231,75,68,163,,154,154,14,21,11,15,0.5,0.8
2025-04-23T1900,1736A,111.5018,36.0855,临汾市,市委,颗粒物(PM10),101,152,255,50,66,164,,157,157,17,22,13,15,0.7,0.8
2025-04-23T1900,3018A,111.505,36.1014,临汾市,唐尧大酒店,颗粒物(PM10),104,157,235,56,64,163,,154,154,17,25,16,16,0.7,0.7
2025-04-23T1900,4244A,111.4879,36.0530,临汾市,启星学校,颗粒物(PM10),104,158,249,53,72,152,,148,148,19,23,11,15,0.6,0.8
2025-04-23T1900,4271A,103.2464,35.6123,临夏回族自治州,滨河东路1号,颗粒物(PM10),64,78,127,24,48,111,,112,112,6,23,7,9,0.3,0.5
2025-04-23T1900,4310A,103.2093,35.5995,临夏回族自治州,新华街21号,颗粒物(PM10),61,72,100,30,44,119,,116,116,8,16,3,7,0.3,0.4
2025-04-23T1900,1618A,118.3429,35.0532,临沂市,沂河小区,颗粒物(PM10),101,151,86,44,34,162,,172,172,19,28,11,11,0.4,0.3
2025-04-23T1900,1619A,118.295,35.0583,临沂市,鲁南制药厂,颗粒物(PM10),104,158,85,57,33,178,,184,184,23,31,13,13,0.4,0.3
2025-04-23T1900,1620A,118.2794,34.9976,临沂市,新光毛纺厂,颗粒物(PM10),91,132,85,42,29,170,,173,173,24,32,12,11,0.4,0.4
2025-04-23T1900,1621A,118.3956,35.0888,临沂市,河东保险公司,颗粒物(PM10),96,141,77,42,29,182,,188,188,18,35,7,5,0.6,0.5
2025-04-23T1900,3370A,118.3564,35.0215,临沂市,十里堡居委,颗粒物(PM10),92,134,83,41,29,175,,172,172,26,35,8,5,0.5,0.4
2025-04-23T1900,3496A,118.3604,35.1084,临沂市,南坊新区,颗粒物(PM10),123,195,92,44,29,164,,171,171,16,33,10,8,0.8,0.7
2025-04-23T1900,3860A,118.3920,35.0300,临沂市,皇山花园小区,颗粒物(PM10),91,132,94,38,35,171,,174,174,18,38,12,11,0.7,0.6
2025-04-23T1900,1870A,109.4856,24.3895,柳州市,柳东小学,,44,44,31,22,17,52,,63,56,15,13,9,10,0.6,0.6
2025-04-23T1900,1871A,109.4157,24.3277,柳州市,环保监测站,,46,46,35,24,15,58,,59,58,9,9,9,10,0.7,0.7
2025-04-23T1900,1872A,109.389,24.341,柳州市,河西水厂,,45,45,33,20,15,57,,55,55,12,12,7,8,1.0,0.9
2025-04-23T1900,1873A,109.4311,24.2921,柳州市,市四中,,,28,22,10,9,60,,64,60,,9,8,8,0.6,0.6
2025-04-23T1900,1874A,109.4006,24.3631,柳州市,市九中,,45,45,31,18,12,56,,56,56,10,9,7,8,0.8,0.9
2025-04-23T1900,1875A,109.4958,24.3134,柳州市,古亭山,,46,46,26,15,14,55,,73,57,5,5,6,7,0.7,0.7
2025-04-23T1900,3402A,109.5422,24.3996,柳州市,市二中,,,34,29,15,15,43,,66,48,14,10,,10,0.5,0.5
2025-04-23T1900,2307A,116.5079,31.737,六安市,监测大楼,颗粒物(PM10),93,135,73,49,41,141,,149,149,26,15,6,5,0.4,0.5
2025-04-23T1900,2308A,116.4738,31.7643,六安市,皖西学院,颗粒物(PM10),96,141,71,44,47,147,,75,,22,22,3,5,0.5,0.6
2025-04-23T1900,2309A,116.4996,31.7905,六安市,朝阳厂,颗粒物(PM10),86,121,72,48,41,138,,141,141,21,17,5,4,0.4,0.5
2025-04-23T1900,2310A,116.5567,31.7886,六安市,开发区,颗粒物(PM10),108,165,97,56,36,139,,152,152,15,15,5,5,0.4,0.5
2025-04-23T1900,2577A,104.83,26.5917,六盘水市,黄土坡,颗粒物(PM10),72,93,74,45,29,75,,88,78,23,12,14,11,0.5,0.4
2025-04-23T1900,2578A,104.89,26.5939,六盘水市,水钢,颗粒物(PM10),68,85,77,42,26,85,,87,85,13,11,9,9,0.3,0.4
2025-04-23T1900,2579A,104.8475,26.5894,六盘水市,民中,颗粒物(PM10),70,90,67,41,28,68,,84,76,26,11,13,9,0.5,0.3
2025-04-23T1900,2580A,104.9544,26.5506,六盘水市,双水,颗粒物(PM10),76,102,69,40,24,91,,83,83,16,10,10,9,0.3,0.3
2025-04-23T1900,2336A,117.0217,25.1033,龙岩市,龙岩市监测站,,22,18,26,14,20,68,,80,80,9,13,2,3,0.5,0.5
2025-04-23T1900,2337A,117.0258,25.0661,龙岩市,闽西职业技术学院,,30,30,30,14,20,42,,73,69,19,17,2,8,0.6,0.5
2025-04-23T1900,2338A,117.0196,25.0306,龙岩市,龙岩学院,,20,20,24,13,16,55,,81,75,3,7,5,6,0.5,0.5
2025-04-23T1900,2885A,104.9339,33.3826,陇南市,滨江中学,颗粒物(PM10),65,80,69,19,23,104,,104,104,10,13,8,9,0.5,0.5
2025-04-23T1900,3247A,104.955,33.371,陇南市,市总工会,颗粒物(PM10),53,56,57,17,23,111,,111,111,11,8,6,6,0.3,0.3
2025-04-23T1900,2487A,111.9589,27.8901,娄底市,电视发射台,颗粒物(PM10),58,65,70,27,23,46,,67,60,2,4,4,3,0.2,0.3
2025-04-23T1900,2488A,111.9975,27.725,娄底市,市监测站,颗粒物(PM10),55,59,72,32,29,68,,78,78,21,22,6,9,0.5,0.8
2025-04-23T1900,2489A,112.0194,27.7314,娄底市,市委党校,颗粒物(PM10),53,56,68,21,28,73,,86,84,17,12,3,4,0.5,0.7
2025-04-23T1900,2490A,111.9561,27.7569,娄底市,涟钢,,,45,69,34,29,61,,78,77,,8,5,8,,0.3
2025-04-23T1900,2491A,111.9892,27.7044,娄底市,市政府,颗粒物(PM10),56,62,62,24,29,54,,76,71,16,11,2,3,0.8,0.6
2025-04-23T1900,1894A,105.4427,28.9063,泸州市,小市上码头,颗粒物(PM10),61,72,73,25,24,46,,41,41,21,22,4,4,0.5,0.5
2025-04-23T1900,1895A,105.4241,28.8573,泸州市,兰田宪桥,颗粒物(PM10),56,61,65,29,29,74,,81,81,9,10,7,8,0.5,0.5
2025-04-23T1900,4272A,105.3689,28.7783,泸州市,纳溪中医医院,颗粒物(PM10),54,58,64,19,19,62,,71,71,17,11,6,7,0.6,0.6
2025-04-23T1900,2183A,111.1406,37.5211,吕梁市,环保局,颗粒物(PM10),80,109,106,39,36,106,,111,111,8,30,2,4,0.3,0.4
2025-04-23T1900,2185A,111.1297,37.5136,吕梁市,自来水公司,颗粒物(PM10),74,97,129,40,37,102,,108,108,10,29,2,5,0.4,0.5
2025-04-23T1900,2867A,111.1283,37.51,吕梁市,马茂庄小学,颗粒物(PM10),73,96,120,26,34,109,,113,113,8,35,4,7,0.2,0.4
2025-04-23T1900,1812A,112.3931,34.6516,洛阳市,市委党校,颗粒物(PM10),80,109,221,39,75,115,,124,124,17,14,3,6,0.3,0.5
2025-04-23T1900,1815A,112.494,34.6886,洛阳市,河南林校,颗粒物(PM10),84,117,251,46,78,122,,135,133,20,21,5,7,0.4,0.4
2025-04-23T1900,1816A,112.3844,34.623,洛阳市,开发区管委会,颗粒物(PM10),81,112,226,52,89,114,,129,129,20,18,4,5,0.4,0.3
2025-04-23T1900,1817A,112.4267,34.6258,洛阳市,市委新办公区,颗粒物(PM10),82,113,237,33,70,130,,140,140,20,16,6,6,0.5,0.5
2025-04-23T1900,3340A,112.6005,34.6326,洛阳市,伊滨,颗粒物(PM10),82,114,239,46,73,136,,141,141,12,14,6,7,0.4,0.4
2025-04-23T1900,3341A,112.4951,34.6332,洛阳市,中移产业园,颗粒物(PM10),108,166,291,48,82,,,141,141,14,15,5,7,0.4,0.5
2025-04-23T1900,3593A,112.5736,34.8993,洛阳市,吉利监测站,颗粒物(PM10),69,87,189,34,59,120,,128,128,13,23,5,6,0.5,0.6
2025-04-23T1900,3635A,112.3677,34.662,洛阳市,河科大西苑校区,颗粒物(PM10),81,112,251,38,61,127,,133,133,17,14,7,8,0.3,0.3
2025-04-23T1900,3636A,112.4388,34.6781,洛阳市,英才小学,颗粒物(PM10),77,104,234,40,74,129,,137,137,20,19,5,7,0.5,0.5
2025-04-23T1900,4214A,112.4600,34.6949,洛阳市,春都路1号院,颗粒物(PM10),87,123,261,47,72,136,,142,142,14,16,4,6,0.4,0.5
2025-04-23T1900,2399A,114.051,33.5699,漯河市,三五一五工厂,颗粒物(PM10),104,157,122,61,45,132,,145,145,16,18,7,5,0.7,0.7
2025-04-23T1900,2400A,114.0055,33.5698,漯河市,漯河大学,,,,114,,40,137,,146,146,,20,7,6,0.4,0.4
2025-04-23T1900,2401A,114.0138,33.5828,漯河市,市水利局,颗粒物(PM10),106,161,121,58,44,141,,148,148,12,12,5,5,0.4,0.5
2025-04-23T1900,2402A,114.0261,33.5698,漯河市,市广电局,颗粒物(PM10),100,149,120,47,35,142,,147,147,10,15,6,5,0.6,0.6
2025-04-23T1900,3478A,113.9749,33.5664,漯河市,市图书馆,颗粒物(PM10),102,153,122,44,39,134,,144,144,19,16,4,4,0.4,0.4
2025-04-23T1900,4250A,114.0892,33.5882,漯河市,韶山路11号,颗粒物(PM10),104,158,121,52,43,138,,147,147,19,20,7,6,0.5,0.5
2025-04-23T1900,1798A,118.5092,31.6837,马鞍山市,湖东路四小,颗粒物(PM10),52,53,66,16,40,156,,157,157,26,24,10,9,0.6,0.8
2025-04-23T1900,1799A,118.5024,31.6449,马鞍山市,开发区,颗粒物(PM10),56,61,76,17,63,138,,152,152,39,39,8,7,0.8,1
2025-04-23T1900,1802A,118.6245,31.7241,马鞍山市,濮塘,颗粒物(PM10),57,63,71,29,36,150,,161,161,15,12,8,8,0.6,0.7
2025-04-23T1900,3633A,118.4918,31.6809,马鞍山市,雨山,颗粒物(PM10),54,57,61,20,33,140,,152,152,31,27,8,8,0.5,0.7
2025-04-23T1900,4191A,118.5274,31.72227,马鞍山市,慈湖高新区,,48,45,67,26,36,152,,154,154,31,27,10,10,0.7,1
2025-04-23T1900,1686A,111.0286,21.4688,茂名市,电白南海,,36,36,34,22,23,40,,53,53,11,9,1,1,0.5,0.6
2025-04-23T1900,1687A,110.9294,21.6533,茂名市,茂石化七小,,48,48,40,17,17,44,,61,61,8,7,2,2,0.9,0.8
2025-04-23T1900,1688A,110.9107,21.6687,茂名市,健康路,,39,39,38,14,20,52,,72,72,5,4,3,3,0.8,0.8
2025-04-23T1900,1689A,110.8592,21.6828,茂名市,高岭,,48,48,45,14,15,48,,72,70,9,11,3,5,0.6,0.6
2025-04-23T1900,3450A,111.01,21.5165,茂名市,电白水东,,22,22,29,9,13,41,,50,50,5,7,1,1,0.8,0.8
2025-04-23T1900,2539A,104.0308,30.0478,眉山市,黑龙滩水库,颗粒物(PM10),60,69,69,20,22,91,,99,99,6,6,2,2,0.3,0.3
2025-04-23T1900,2540A,103.8416,30.0874,眉山市,气象局,颗粒物(PM10),73,96,115,41,39,101,,103,103,16,20,3,4,0.5,0.5
2025-04-23T1900,3137A,103.8578,30.0744,眉山市,市委党校,颗粒物(PM10),62,73,90,31,35,98,,100,100,18,18,8,7,0.8,0.7
2025-04-23T1900,3148A,103.8291,30.0564,眉山市,区人社局,颗粒物(PM10),71,91,82,31,34,94,,99,99,17,21,10,11,0.8,0.9
2025-04-23T1900,1690A,116.1231,24.3284,梅州市,梅江月梅,,40,37,38,28,27,58,,82,78,10,18,5,4,0.6,0.5
2025-04-23T1900,1691A,116.0797,24.2719,梅州市,梅县新城,,37,37,42,23,21,55,,84,80,16,18,5,5,0.6,0.6
2025-04-23T1900,1692A,116.1248,24.2654,梅州市,环境监控中心,,38,32,30,26,22,55,,84,82,17,17,6,6,0.7,0.6
2025-04-23T1900,3315A,116.1233,24.2991,梅州市,梅龙,,46,,28,32,20,60,,81,79,14,11,6,6,0.8,0.7
2025-04-23T1900,1878A,104.7778,31.4741,绵阳市,富乐山,颗粒物(PM10),76,101,108,39,43,123,,119,119,17,22,8,8,0.4,0.4
2025-04-23T1900,1880A,104.6697,31.4668,绵阳市,高新区自来水公司,颗粒物(PM10),79,107,128,44,41,117,,121,121,26,29,3,4,0.4,0.4
2025-04-23T1900,1881A,104.7287,31.5075,绵阳市,三水厂,颗粒物(PM10),76,102,121,43,48,123,,122,122,24,27,7,6,0.5,0.5
2025-04-23T1900,3491A,104.69,31.5322,绵阳市,西科大附属小学,颗粒物(PM10),81,111,124,44,46,122,,121,121,20,24,7,7,0.4,0.6
2025-04-23T1900,3492A,104.5648,31.5343,绵阳市,安州区旅游局,颗粒物(PM10),76,102,102,39,38,116,,120,120,18,16,8,8,0.3,0.3
2025-04-23T1900,4226A,104.7651,31.4531,绵阳市,绵阳市气象局,颗粒物(PM10),78,105,116,44,44,121,,117,117,28,27,4,5,0.5,0.5
2025-04-23T1900,1784A,129.61,44.561,牡丹江市,环保大楼,,33,,22,23,15,84,,90,90,14,15,6,6,0.3,0.3
2025-04-23T1900,1785A,129.6115,44.5782,牡丹江市,文化广场,,31,31,38,19,21,77,,86,86,20,23,11,12,0.6,0.6
2025-04-23T1900,1786A,129.5904,44.5963,牡丹江市,第一医院,,34,34,25,14,15,70,,90,89,23,11,6,6,0.5,0.4
2025-04-23T1900,1787A,129.6364,44.6075,牡丹江市,机车工厂,,27,25,32,8,16,84,,91,91,14,17,6,27,0.4,0.5
2025-04-23T1900,1788A,129.6386,44.5462,牡丹江市,第一中学,,29,29,22,10,11,65,,92,91,28,10,7,7,0.5,0.5
2025-04-23T1900,2531A,105.0703,29.61,内江市,市监测站,颗粒物(PM10),68,86,71,39,34,116,,117,117,12,11,7,6,0.7,0.7
2025-04-23T1900,2532A,105.0717,29.5947,内江市,东兴区政府,颗粒物(PM10),72,94,66,35,22,102,,106,106,13,12,10,8,0.5,0.6
2025-04-23T1900,2533A,105.0653,29.5817,内江市,内江二中,颗粒物(PM10),69,87,69,37,34,98,,98,98,13,13,6,6,0.4,0.4
2025-04-23T1900,2534A,105.0406,29.5822,内江市,内江日报社,,,97,68,43,36,96,,103,103,14,10,14,10,,0.3
2025-04-23T1900,2628A,92.0657,31.4846,那曲市,那曲监测站,,38,38,43,8,20,106,,100,100,7,17,7,7,0.4,0.7
2025-04-23T1900,4243A,92.0515,31.4787,那曲市,那曲市委宣传部,颗粒物(PM10),70,89,54,18,19,113,,110,110,4,12,6,7,0.2,0.4
2025-04-23T1900,1290A,115.8931,28.6843,南昌市,省外办,,50,50,50,34,37,115,,124,124,21,16,6,5,0.4,0.4
2025-04-23T1900,1291A,115.8886,28.7003,南昌市,省林业公司,颗粒物(PM10),52,53,47,29,37,111,,118,118,11,10,7,7,0.7,0.7
2025-04-23T1900,1292A,115.8126,28.7442,南昌市,林科所,,44,44,42,24,30,80,,115,114,28,16,4,4,0.4,0.5
2025-04-23T1900,1294A,115.8518,28.687,南昌市,建工学校,颗粒物(PM10),52,54,56,26,42,107,,115,115,18,14,3,2,0.7,0.8
2025-04-23T1900,1295A,115.8921,28.6424,南昌市,象湖,颗粒物(PM10),53,56,51,29,34,129,,144,144,19,13,6,6,0.7,0.7
2025-04-23T1900,1296A,115.7423,28.7996,南昌市,武术学校,,35,33,41,24,16,41,,99,86,2,2,3,4,0.5,0.6
2025-04-23T1900,3046A,115.9084,28.6062,南昌市,机电学校,,,67,58,,36,113,,132,132,,16,,2,0.5,0.5
2025-04-23T1900,3690A,115.9721,28.7031,南昌市,外国语学校,,,53,52,,31,136,,142,142,10,12,9,9,0.4,0.5
2025-04-23T1900,4192A,115.9316,28.68677,南昌市,南京东路235号,颗粒物(PM10),55,59,55,27,35,118,,132,132,19,15,9,8,0.8,0.9
2025-04-23T1900,1905A,106.056,30.8064,南充市,西山风景区,颗粒物(PM10),65,80,60,43,37,116,,112,112,7,8,4,5,0.5,0.5
2025-04-23T1900,1906A,106.0789,30.8023,南充市,南充市委,颗粒物(PM10),88,126,87,54,36,116,,116,116,14,12,4,4,0.4,0.5
2025-04-23T1900,1907A,106.1031,30.8217,南充市,南充炼油厂,颗粒物(PM10),90,130,88,54,39,110,,112,112,13,10,3,3,0.5,0.4
2025-04-23T1900,4227A,106.1083,30.7884,南充市,梨树横街98号,颗粒物(PM10),96,141,91,38,31,115,,117,117,14,12,3,3,0.2,0.3
2025-04-23T1900,4304A,106.1172,30.843,南充市,清泉寺北路188号,颗粒物(PM10),85,120,84,51,36,117,,116,116,12,10,4,4,0.3,0.3
2025-04-23T1900,4305A,106.067,30.7616,南充市,同庆路1号,颗粒物(PM10),85,119,84,46,36,106,,107,107,13,12,4,4,0.4,0.4
2025-04-23T1900,1151A,118.8086,32.1065,南京市,迈皋桥,,44,31,45,14,30,139,,152,152,21,24,4,4,0.1,0.3
2025-04-23T1900,1152A,118.7538,32.0551,南京市,草场门,,,48,57,22,32,132,,147,147,24,22,,5,0.0,0.2
2025-04-23T1900,1153A,118.7794,32.0745,南京市,山西路,颗粒物(PM10),53,56,72,14,40,140,,150,150,20,22,4,4,0.2,0.4
2025-04-23T1900,1154A,118.7752,32.0023,南京市,中华门,,45,41,62,12,32,142,,156,156,17,18,7,6,0.3,0.5
2025-04-23T1900,1155A,118.8109,32.0309,南京市,瑞金路,颗粒物(PM10),51,51,71,19,36,133,,148,148,18,16,7,7,0.4,0.3
2025-04-23T1900,1156A,118.7997,32.0754,南京市,玄武湖,,42,39,55,10,36,134,,143,143,6,11,8,8,0.3,0.4
2025-04-23T1900,1157A,118.6414,32.0931,南京市,浦口,,50,50,53,17,28,146,,156,156,17,18,6,6,0.5,0.6
2025-04-23T1900,1158A,118.7356,31.9996,南京市,奥体中心,,48,48,69,17,33,130,,152,152,26,23,9,9,0.5,0.6
2025-04-23T1900,1159A,118.9125,32.1028,南京市,仙林大学城,颗粒物(PM10),52,53,66,14,40,140,,153,153,17,21,11,10,0.3,0.6
2025-04-23T1900,3422A,118.8436,31.9198,南京市,江宁彩虹桥,颗粒物(PM10),53,55,52,19,31,145,,156,156,22,27,4,5,0.6,0.8
2025-04-23T1900,3427A,118.8554,32.3578,南京市,六合雄州,,45,19,44,16,29,143,,154,154,19,31,6,6,0.4,0.5
2025-04-23T1900,4249A,118.8708,31.3402,南京市,汶溪路181号,,,65,53,33,31,145,,143,143,,41,2,3,0.0,0.1
2025-04-23T1900,4312A,119.019,31.6512,南京市,中山西路1号,颗粒物(PM10),51,51,50,27,28,145,,83,83,16,17,6,11,0.6,0.7
2025-04-23T1900,1401A,108.3103,22.7881,南宁市,二十一中,,40,36,44,28,29,77,,115,113,14,11,3,3,0.7,0.6
2025-04-23T1900,1402A,108.3141,22.8528,南宁市,北湖,,46,46,44,15,27,69,,117,115,16,10,10,6,0.6,0.6
2025-04-23T1900,1403A,108.3206,22.8225,南宁市,市监测站,,42,41,41,29,28,64,,104,102,20,10,6,4,0.6,0.5
2025-04-23T1900,1404A,108.3829,22.8037,南宁市,大自然花园,,50,50,42,30,28,90,,116,116,11,8,5,5,0.7,0.6
2025-04-23T1900,1405A,108.4394,22.7904,南宁市,仙葫,颗粒物(PM10),53,55,41,27,31,75,,100,99,8,8,6,6,0.7,0.6
2025-04-23T1900,1406A,108.2397,22.8467,南宁市,区农职院,,27,27,40,10,24,66,,116,114,12,10,5,4,0.5,0.5
2025-04-23T1900,1407A,108.3275,22.735,南宁市,英华嘉园,,43,35,38,30,26,96,,126,126,14,9,7,7,0.8,0.6
2025-04-23T1900,3401A,108.4834,22.7618,南宁市,红星社区,,43,43,43,28,26,88,,123,123,8,7,11,8,0.9,0.8
2025-04-23T1900,4221A,108.2177,22.7774,南宁市,乐贤路16号,,32,32,45,21,27,66,,114,112,16,14,7,7,0.7,0.6
2025-04-23T1900,2332A,118.1681,26.6369,南平市,南平市监测站,,22,16,24,11,14,68,,74,74,10,14,6,4,0.8,0.7
2025-04-23T1900,2333A,118.1825,26.6489,南平市,南平铝业有限公司,,22,21,25,10,13,69,,74,74,12,14,5,5,0.9,0.8
2025-04-23T1900,2334A,118.1756,26.6272,南平市,南平七中,,22,16,25,12,12,69,,75,75,8,9,6,5,0.8,0.7
2025-04-23T1900,1168A,120.9098,31.9663,南通市,狼山街道,颗粒物(PM10),66,82,61,41,26,130,,176,175,59,26,6,5,0.8,0.6
2025-04-23T1900,1169A,120.86,32.0005,南通市,虹桥,臭氧1小时,80,87,66,46,36,184,,186,186,35,30,3,5,0.8,0.4
2025-04-23T1900,1170A,120.87,32.02,南通市,城中,臭氧1小时,83,106,72,43,30,186,,188,188,28,25,5,5,0.8,0.7
2025-04-23T1900,1171A,120.94,31.93,南通市,星湖花园,颗粒物(PM10),66,81,59,40,32,151,,165,165,64,50,5,5,0.7,0.6
2025-04-23T1900,1172A,120.81,32.0417,南通市,紫琅学院,颗粒物(PM10),76,101,66,45,33,169,,175,175,32,23,5,7,0.7,0.6
2025-04-23T1900,3291A,121.067,32.062,南通市,通州监测站,臭氧1小时,77,97,60,39,26,181,,175,175,22,16,6,6,0.8,0.6
2025-04-23T1900,3432A,120.9348,31.9883,南通市,环境教育馆,颗粒物(PM10),74,97,61,39,28,155,,187,187,52,21,4,4,0.4,0.3
2025-04-23T1900,2404A,112.5224,33.0122,南阳市,瓦房庄,颗粒物(PM10),100,149,114,47,36,122,,127,127,13,17,5,6,0.4,0.5
2025-04-23T1900,2405A,112.5003,32.9735,南阳市,汉画馆,颗粒物(PM10),98,145,108,53,42,107,,121,121,27,26,5,6,0.3,0.5
2025-04-23T1900,2406A,112.5573,33.027,南阳市,气象站,颗粒物(PM10),112,173,122,58,42,124,,133,133,13,14,4,5,0.4,0.5
2025-04-23T1900,2407A,112.5481,32.9689,南阳市,理工学院,颗粒物(PM10),101,151,108,55,40,119,,127,127,15,16,3,5,0.3,0.5
2025-04-23T1900,4008A,112.5234,32.9922,南阳市,卧龙区政府,颗粒物(PM10),102,153,108,,41,,,132,132,15,17,4,5,0.4,0.5
2025-04-23T1900,1234A,121.8358,29.911,宁波市,区环保大楼,颗粒物(PM10),77,104,43,40,25,97,,134,134,92,33,11,10,1.0,0.7
2025-04-23T1900,1235A,121.56,29.82,宁波市,万里学院,臭氧1小时,65,57,32,26,23,172,,164,164,29,19,7,6,0.7,0.6
2025-04-23T1900,1236A,121.713,29.9572,宁波市,龙赛医院,颗粒物(PM10),90,129,48,23,13,82,,138,134,101,23,8,6,0.9,0.6
2025-04-23T1900,1239A,121.633,29.7733,宁波市,钱湖水厂,,50,48,35,17,23,159,,163,163,23,20,9,9,0.8,0.7
2025-04-23T1900,1240A,121.5856,29.8635,宁波市,太古小学,臭氧1小时,74,70,40,21,17,179,,174,174,22,16,10,10,0.8,0.7
2025-04-23T1900,1241A,121.524,29.8674,宁波市,市环境监测中心,颗粒物(PM10),61,72,36,34,15,155,,153,153,32,21,11,11,0.7,0.5
2025-04-23T1900,2871A,121.6147,29.9017,宁波市,万里国际学校,臭氧1小时,58,59,32,25,17,166,,167,167,29,27,9,9,0.7,0.7
2025-04-23T1900,3710A,121.5594,29.8975,宁波市,白沙活动中心,臭氧1小时,67,58,30,28,17,173,,167,167,21,19,8,8,0.6,0.5
2025-04-23T1900,2341A,119.5388,26.6612,宁德市,宁德市监测站,细颗粒物(PM2.5),62,,29,44,29,103,,104,104,18,17,4,4,0.5,0.5
2025-04-23T1900,3209A,119.5231,26.6562,宁德市,宁德一中,,43,41,29,30,23,102,,102,102,14,11,5,6,0.4,0.4
2025-04-23T1900,2618A,98.8601,25.8567,怒江傈僳族自治州,州监测站,颗粒物(PM10),53,55,43,34,28,78,,82,82,6,8,9,9,0.3,0.4
2025-04-23T1900,2619A,98.8546,25.8417,怒江傈僳族自治州,泸水一中,颗粒物(PM10),54,57,39,32,27,59,,70,70,16,15,6,6,0.4,0.4
2025-04-23T1900,1888A,101.6891,26.571,攀枝花市,弄弄坪,,44,44,37,16,21,92,,106,104,18,12,8,8,0.7,0.7
2025-04-23T1900,1889A,101.5769,26.5928,攀枝花市,河门口,,46,46,37,21,20,93,,111,108,25,11,32,16,1.9,0.9
2025-04-23T1900,1890A,101.7169,26.585,攀枝花市,炳草岗,,42,42,39,27,22,89,,106,102,21,15,9,7,0.5,0.5
2025-04-23T1900,1891A,101.7369,26.5008,攀枝花市,仁和,,38,38,34,23,19,96,,100,99,19,10,9,9,0.5,0.4
2025-04-23T1900,2835A,101.7227,26.567,攀枝花市,四十中小,,34,34,30,19,17,107,,111,111,9,8,5,7,0.6,0.6
2025-04-23T1900,1604A,122.0303,41.1489,盘锦市,开发区,,50,50,39,23,26,96,,122,122,19,31,9,10,0.5,0.5
2025-04-23T1900,1605A,122.0485,41.0883,盘锦市,兴隆台,细颗粒物(PM2.5),60,59,42,43,30,93,,117,117,40,33,9,10,0.7,0.6
2025-04-23T1900,1606A,121.8297,41.1028,盘锦市,新生街道,细颗粒物(PM2.5),57,47,30,40,25,77,,130,128,65,30,9,10,0.7,0.5
2025-04-23T1900,1832A,113.3257,33.742,平顶山市,新华旅馆,颗粒物(PM10),106,161,123,30,34,133,,140,139,16,17,5,5,0.5,0.4
2025-04-23T1900,1833A,113.2919,33.737,平顶山市,规划设计院,颗粒物(PM10),104,157,118,54,45,135,,137,137,,19,5,5,0.4,0.4
2025-04-23T1900,1834A,113.182,33.774,平顶山市,平顶山工学院,颗粒物(PM10),93,136,110,53,48,138,,139,139,12,13,3,2,0.2,0.3
2025-04-23T1900,3204A,113.3025,33.73,平顶山市,规划局,颗粒物(PM10),103,156,120,38,38,134,,135,135,13,17,6,6,0.2,0.3
2025-04-23T1900,3594A,112.8867,33.9116,平顶山市,石龙区,颗粒物(PM10),89,128,179,53,57,127,,136,136,21,27,7,7,0.3,0.3
2025-04-23T1900,2656A,106.6692,35.5461,平凉市,聚贤嘉苑,,49,49,93,14,30,112,,114,114,6,24,6,6,0.2,0.4
2025-04-23T1900,2657A,106.7021,35.5307,平凉市,博物馆,,48,48,92,16,30,109,,115,115,7,21,11,11,0.4,0.5
2025-04-23T1900,2347A,114.0997,27.5002,萍乡市,武功山,,30,,17,21,17,61,,67,67,7,6,13,13,1.2,1
2025-04-23T1900,2348A,113.8385,27.6434,萍乡市,中医院,,46,39,51,32,36,55,,66,65,15,11,8,9,1.0,0.8
2025-04-23T1900,2349A,113.8493,27.6253,萍乡市,市政府车库,,40,,41,28,28,69,,73,72,13,12,4,5,0.8,0.6
2025-04-23T1900,2350A,113.8676,27.6435,萍乡市,市环保局,,36,31,43,25,28,65,,73,73,20,13,4,4,0.9,0.7
2025-04-23T1900,2351A,113.866,27.6198,萍乡市,安源区政府,,,,44,30,37,59,,65,64,12,11,,11,0.9,0.7
2025-04-23T1900,2319A,119.0141,25.4325,莆田市,荔城区仓后路,颗粒物(PM10),52,54,42,31,25,77,,89,89,23,21,4,3,1.2,0.8
2025-04-23T1900,2320A,119.0015,25.4553,莆田市,莆田市监测站,细颗粒物(PM2.5),58,51,42,41,30,69,,88,88,25,18,5,5,1.3,0.7
2025-04-23T1900,2321A,119.1119,25.4561,莆田市,涵江区六中,,49,40,38,34,24,76,,83,83,25,22,4,4,1.1,0.7
2025-04-23T1900,2322A,119.1013,25.3215,莆田市,秀屿区政府,,46,33,31,32,23,110,,104,104,14,11,6,4,0.7,0.7
2025-04-23T1900,2392A,115.0312,35.7636,濮阳市,环保局,颗粒物(PM10),88,126,68,26,27,150,,147,147,15,18,8,9,0.8,0.6
2025-04-23T1900,2394A,115.0574,35.7609,濮阳市,油田运输公司,,,121,76,35,31,157,,164,164,,24,7,8,0.8,0.7
2025-04-23T1900,3021A,115,35.7668,濮阳市,濮水河管理处,颗粒物(PM10),93,136,80,42,31,152,,158,158,13,19,8,7,0.8,0.7
2025-04-23T1900,4216A,115.0924,35.7686,濮阳市,任丘路479号,颗粒物(PM10),94,138,83,33,29,165,,174,174,11,17,8,8,0.7,0.6
2025-04-23T1900,2601A,100.98,22.7633,普洱市,市环保局,,,,72,44,35,99,,105,104,,15,9,8,0.7,0.6
2025-04-23T1900,2602A,100.9817,22.8322,普洱市,普洱第二中学,颗粒物(PM10),51,52,50,22,25,118,,115,115,9,17,7,7,0.8,0.9
2025-04-23T1900,2262A,131.0518,45.8751,七台河市,新一中,颗粒物(PM10),57,64,20,21,11,91,,106,105,15,11,14,12,0.7,0.7
2025-04-23T1900,3345A,131.0577,45.7879,七台河市,中波台,,31,31,25,18,12,81,,85,85,15,20,5,7,0.6,0.6
2025-04-23T1900,3637A,131.0176,45.7761,七台河市,人民广场,细颗粒物(PM2.5),52,41,40,36,25,85,,102,100,23,23,10,10,0.5,0.6
2025-04-23T1900,3684A,130.8781,45.8222,七台河市,新建矿广场,颗粒物(PM10),51,51,38,29,15,84,,96,95,17,25,8,9,0.5,0.5
2025-04-23T1900,1779A,123.9305,47.3636,齐齐哈尔市,安居小区,,,37,30,16,8,68,,77,77,20,14,,6,0.4,0.3
2025-04-23T1900,1780A,123.9488,47.3386,齐齐哈尔市,中心广场,,49,49,30,9,9,74,,78,77,19,13,7,8,0.2,0.2
2025-04-23T1900,1781A,123.9483,47.3227,齐齐哈尔市,农牧车辆厂,,27,27,24,12,11,76,,81,81,15,11,5,5,0.1,0.1
2025-04-23T1900,1783A,123.945,47.2988,齐齐哈尔市,市环境监测站,,24,21,24,16,11,75,,80,80,14,10,2,2,0.3,0.3
2025-04-23T1900,3662A,123.6333,47.2075,齐齐哈尔市,富区青少年活动中心,,33,33,33,12,16,61,,73,72,18,10,3,3,0.4,0.4
2025-04-23T1900,2591A,107.9783,26.5747,黔东南苗族侗族自治州,市环境监测站,颗粒物(PM10),52,53,41,26,22,65,,75,71,9,7,3,3,0.3,0.3
2025-04-23T1900,2881A,107.8908,26.5311,黔东南苗族侗族自治州,凯里学院,颗粒物(PM10),53,56,48,24,20,62,,76,74,14,6,2,2,0.2,0.2
2025-04-23T1900,2593A,107.5228,26.2403,黔南布依族苗族自治州,小围寨,颗粒物(PM10),52,53,40,24,17,63,,81,80,9,6,3,5,0.5,0.6
2025-04-23T1900,3538A,107.5175,26.2978,黔南布依族苗族自治州,沙坝,颗粒物(PM10),54,58,46,27,18,67,,85,83,10,7,4,3,0.5,0.5
2025-04-23T1900,2589A,104.9022,25.0925,黔西南布依族苗族自治州,场坝街,细颗粒物(PM2.5),64,73,48,46,27,79,,82,82,13,13,6,6,0.4,0.3
2025-04-23T1900,2590A,104.8811,25.0992,黔西南布依族苗族自治州,坪东大道,细颗粒物(PM2.5),79,88,44,58,24,74,,80,80,18,14,7,6,0.3,0.3
2025-04-23T1900,2502A,108.6236,21.9667,钦州市,市环保站,,39,39,30,17,14,73,,84,84,19,12,4,3,0.9,0.8
2025-04-23T1900,2503A,108.6549,21.9481,钦州市,沙埠小学,,,43,35,29,19,73,,89,89,22,13,,7,0.8,0.8
2025-04-23T1900,2504A,108.5989,21.7431,钦州市,港区一小,颗粒物(PM10),60,69,47,21,19,55,,63,63,23,14,8,9,0.6,0.6
2025-04-23T1900,3404A,108.5959,21.9633,钦州市,北职校,,44,44,36,22,20,64,,76,76,18,10,9,8,0.7,0.7
2025-04-23T1900,1043A,119.7493,40.0116,秦皇岛市,第一关,颗粒物(PM10),87,124,80,50,33,111,,135,133,45,42,8,9,0.5,0.7
2025-04-23T1900,1044A,119.5897,39.9499,秦皇岛市,监测站,颗粒物(PM10),105,160,82,36,26,125,,138,138,22,24,7,11,0.5,0.9
2025-04-23T1900,1046A,119.5251,39.9041,秦皇岛市,建设大厦,颗粒物(PM10),78,106,84,28,27,110,,132,132,28,30,5,12,0.5,0.9
2025-04-23T1900,3132A,119.610547,39.943889,秦皇岛市,文明里,颗粒物(PM10),97,144,84,33,28,121,,129,129,30,29,7,10,0.5,0.8
2025-04-23T1900,4198A,119.5090,39.8253,秦皇岛市,北戴河轮滑馆,颗粒物(PM10),88,125,72,27,20,124,,140,140,14,22,5,8,0.5,0.6
2025-04-23T1900,1307A,120.6659,36.2403,青岛市,仰口,,37,34,22,16,12,116,,120,120,14,11,7,7,0.4,0.3
2025-04-23T1900,1310A,120.4134,36.0658,青岛市,市南区东部子站,,30,24,35,3,12,96,,97,97,26,32,8,9,0.5,0.5
2025-04-23T1900,1311A,120.3664,36.1032,青岛市,四方区子站,,34,24,32,9,15,106,,120,118,25,28,6,7,0.5,0.5
2025-04-23T1900,1312A,120.2994,36.054,青岛市,市南区西部子站,,28,19,26,3,13,88,,83,83,34,41,7,9,0.6,0.6
2025-04-23T1900,1313A,120.4581,36.0858,青岛市,崂山区子站,,,14,26,3,7,107,,104,104,21,24,,10,,0.5
2025-04-23T1900,1315A,120.3999,36.3083,青岛市,城阳区子站,颗粒物(PM10),63,75,50,20,17,133,,133,133,32,33,13,12,0.9,0.6
2025-04-23T1900,1966A,120.0405,35.8735,青岛市,黄岛区4号,,33,22,24,3,6,105,,94,94,23,26,9,10,0.6,0.6
2025-04-23T1900,3362A,120.5014,36.4034,青岛市,即墨2号,颗粒物(PM10),74,97,60,32,22,146,,150,150,30,28,13,11,1.0,0.6
2025-04-23T1900,3642A,120.3503,36.0736,青岛市,市北区南部,,33,21,33,3,11,103,,104,104,13,27,6,8,0.5,0.5
2025-04-23T1900,3643A,120.3948,36.1805,青岛市,李沧区北部,,36,36,43,12,20,95,,108,108,30,35,8,10,0.6,0.6
2025-04-23T1900,4290A,120.1969,35.9546,青岛市,珠江路669号,,25,17,28,12,15,78,,92,88,41,40,8,9,0.6,0.6
2025-04-23T1900,1702A,113.0426,23.691,清远市,环保大楼,,33,33,76,20,32,45,,102,102,16,19,6,7,0.8,0.8
2025-04-23T1900,1703A,113.0208,23.7106,清远市,凤城街办,,34,34,48,22,29,43,,87,87,16,24,4,5,0.7,0.6
2025-04-23T1900,3025A,113.0477,23.6344,清远市,技师学院,,25,24,49,17,32,67,,97,97,19,26,7,9,0.7,0.5
2025-04-23T1900,3318A,112.9903,23.7403,清远市,清新太和,,28,27,42,19,29,62,,91,91,11,16,6,7,0.6,0.6
2025-04-23T1900,3455A,113.076,23.7198,清远市,清城东城,,28,28,48,16,30,42,,85,85,11,18,6,7,1.0,0.9
2025-04-23T1900,2661A,107.6325,35.7357,庆阳市,庆阳五中,,36,31,102,3,40,114,,114,114,6,10,3,4,0.3,0.3
2025-04-23T1900,2662A,107.6364,35.7067,庆阳市,市环保局,,36,36,100,11,39,108,,116,116,13,12,11,8,0.5,0.5
2025-04-23T1900,1916A,103.7897,25.5035,曲靖市,环境监测站,颗粒物(PM10),60,69,47,27,20,89,,101,101,16,14,6,8,0.2,0.2
2025-04-23T1900,1917A,103.8,25.5364,曲靖市,烟厂办公区,颗粒物(PM10),60,69,46,32,20,98,,109,109,12,11,4,4,0.4,0.4
2025-04-23T1900,3376A,103.7947,25.462,曲靖市,南苑二区,颗粒物(PM10),58,65,47,29,21,93,,105,105,11,11,4,7,0.4,0.4
2025-04-23T1900,3377A,103.7444,25.5261,曲靖市,曲靖师范学院,细颗粒物(PM2.5),60,56,45,43,27,93,,112,112,13,12,7,9,0.4,0.4
2025-04-23T1900,1264A,118.8692,28.9398,衢州市,环保大楼,,38,32,39,26,29,106,,111,111,17,16,3,3,0.9,0.7
2025-04-23T1900,1265A,118.8709,28.9666,衢州市,实验学校,,30,28,34,21,30,93,,103,102,27,15,3,4,0.7,0.6
2025-04-23T1900,1266A,118.8621,28.9808,衢州市,衢州学院,,38,32,37,26,34,87,,100,99,28,14,3,3,0.9,0.8
2025-04-23T1900,1611A,118.5819,24.9117,泉州市,涂山街,细颗粒物(PM2.5),57,,38,40,23,102,,116,116,19,25,3,4,0.9,0.7
2025-04-23T1900,1612A,118.5972,24.8978,泉州市,津头埔,细颗粒物(PM2.5),59,,35,42,24,100,,112,112,25,27,2,3,0.9,0.6
2025-04-23T1900,1613A,118.6663,24.9424,泉州市,万安,细颗粒物(PM2.5),57,47,34,40,22,96,,118,118,16,19,4,3,0.7,0.6
2025-04-23T1900,3529A,118.6333,24.9264,泉州市,城华南路,,,48,35,39,22,87,,111,111,,25,3,3,0.7,0.5
2025-04-23T1900,2626A,88.8876,29.2718,日喀则市,日喀则监测站,,,11,14,3,7,,,,,3,3,7,5,0.4,0.5
2025-04-23T1900,3726A,88.8781,29.2426,日喀则市,林业技术推广中心,颗粒物(PM10),64,78,25,17,5,141,,134,134,3,2,5,5,0.3,0.2
2025-04-23T1900,1659A,119.471,35.4209,日照市,监测站,颗粒物(PM10),64,78,58,28,17,141,,128,128,32,37,9,8,0.8,0.6
2025-04-23T1900,1660A,119.523,35.4216,日照市,市政府广场,颗粒物(PM10),67,83,47,28,13,98,,113,113,66,35,8,7,0.7,0.7
2025-04-23T1900,1661A,119.5587,35.4044,日照市,港务局,颗粒物(PM10),73,95,50,34,18,87,,101,101,69,42,10,6,0.7,0.6
2025-04-23T1900,3507A,119.5328,35.4625,日照市,职业技术学院,颗粒物(PM10),68,85,48,27,13,113,,116,116,39,28,7,8,0.6,0.6
2025-04-23T1900,3604A,119.3266,35.1044,日照市,岚山环保分局,颗粒物(PM10),60,70,70,29,30,149,,142,142,29,34,8,18,0.7,1.4
2025-04-23T1900,1835A,111.1922,34.7752,三门峡市,市政府,细颗粒物(PM2.5),98,84,211,73,93,124,,130,130,20,39,6,8,0.5,0.5
2025-04-23T1900,1836A,111.1587,34.7942,三门峡市,开发区,颗粒物(PM10),90,129,241,56,84,128,,128,128,14,21,6,8,0.5,0.5
2025-04-23T1900,3039A,111.1911,34.7829,三门峡市,三门峡市第一小学,颗粒物(PM10),73,96,245,36,90,137,,140,140,15,29,8,8,0.4,0.5
2025-04-23T1900,3598A,111.1,34.7167,三门峡市,富达温泉假日酒店,,,106,245,52,93,125,,132,132,,27,4,8,0.5,0.4
2025-04-23T1900,2324A,117.6211,26.2625,三明市,三钢,,37,22,22,10,16,55,,64,64,16,15,12,10,3.7,1.3
2025-04-23T1900,2325A,117.635,26.2714,三明市,三明二中,,23,23,18,7,16,57,,65,65,11,12,2,4,0.8,0.6
2025-04-23T1900,2326A,117.6028,26.2378,三明市,三元区政府,,17,17,23,6,14,50,,64,63,17,14,8,4,0.7,0.5
2025-04-23T1900,1876A,109.5078,18.2489,三亚市,河东子站,,23,23,20,12,11,46,,48,48,4,5,3,3,0.2,0.3
2025-04-23T1900,1877A,109.4964,18.2681,三亚市,河西子站,,25,25,19,11,9,45,,46,46,11,9,2,2,0.2,0.2
