timepoint,stationcode,longitude,latitude,area,positionname,primarypollutant,aqi,pm10,pm10_24h,pm2_5,pm2_5_24h,o3,o3_24h,o3_8h,o3_8h_24h,no2,no2_24h,so2,so2_24h,co,co_24h
2025-04-23T1600,2566A,102.1879,31.914,阿坝藏族羌族自治州,州农科所,,23,16,22,6,8,73,,65,65,11,8,12,12,0.5,0.5
2025-04-23T1600,2568A,102.2502,31.8896,阿坝藏族羌族自治州,马师校,,28,16,16,12,15,89,,79,79,13,12,5,6,0.5,0.5
2025-04-23T1600,3994A,102.2165,31.9024,阿坝藏族羌族自治州,马尔康中学西区,,32,11,15,7,10,102,,89,89,5,5,5,4,0.5,0.5
2025-04-23T1600,2695A,80.292,41.1694,阿克苏地区,电视台,,,,337,,91,,,80,,,11,,5,,0.3
2025-04-23T1600,2696A,80.2613,41.1551,阿克苏地区,艺术中心,颗粒物(PM10),299,419,371,154,104,104,,92,92,4,13,4,4,0.2,0.2
2025-04-23T1600,2204A,105.6467,38.8363,阿拉善盟,西城区西花园,颗粒物(PM10),78,105,54,22,14,111,,105,105,6,11,5,5,0.5,0.7
2025-04-23T1600,2205A,105.6985,38.8411,阿拉善盟,蒙二幼,颗粒物(PM10),79,107,47,23,14,97,,95,95,7,8,6,7,0.5,0.5
2025-04-23T1600,2206A,105.724,38.8516,阿拉善盟,环保局新楼,颗粒物(PM10),69,88,42,25,14,104,,105,104,3,3,7,7,0.3,0.3
2025-04-23T1600,2708A,88.1264,47.8517,阿勒泰地区,市站,,30,19,1269,3,5,96,,93,86,6,7,5,4,0.2,0.2
2025-04-23T1600,2630A,80.1161,32.5,阿里地区,阿里监测站,,40,13,16,6,8,125,,111,111,3,4,2,6,0.3,0.4
2025-04-23T1600,3192A,80.0903,32.5028,阿里地区,阿里藏医院,,43,26,26,3,9,135,,120,120,1,3,6,7,0.3,0.3
2025-04-23T1600,2642A,109.0318,32.6537,安康市,香溪洞,颗粒物(PM10),91,132,146,54,57,109,,70,70,6,4,7,6,0.4,0.3
2025-04-23T1600,2644A,109.0072,32.6975,安康市,汉滨区检察院,颗粒物(PM10),89,128,178,51,58,116,,71,71,6,8,7,7,0.4,0.4
2025-04-23T1600,4054A,109.0325,32.6913,安康市,市邮政管理局,颗粒物(PM10),85,120,190,46,62,114,,71,71,4,8,6,7,0.3,0.3
2025-04-23T1600,2291A,117.0809,30.5177,安庆市,环科院,,,64,52,29,39,155,,141,141,21,23,1,7,,0.9
2025-04-23T1600,2292A,117.0331,30.5119,安庆市,马山宾馆,颗粒物(PM10),53,56,48,28,40,157,,128,128,25,23,4,4,0.7,0.9
2025-04-23T1600,2294A,116.9896,30.6145,安庆市,安庆大学,颗粒物(PM10),58,65,48,35,44,163,,136,136,17,20,4,3,0.6,0.7
2025-04-23T1600,3173A,117.0598,30.5351,安庆市,市人大,臭氧1小时,64,68,54,32,41,171,,143,143,16,22,7,7,0.5,0.7
2025-04-23T1600,3122A,105.9606,26.2611,安顺市,伍家关,颗粒物(PM10),61,71,45,21,11,112,,100,100,7,8,2,3,0.3,0.3
2025-04-23T1600,3123A,105.9408,26.2431,安顺市,凤凰山,颗粒物(PM10),58,65,39,28,25,105,,91,91,6,8,5,7,0.4,0.5
2025-04-23T1600,3124A,105.9439,26.2564,安顺市,金钟山,颗粒物(PM10),54,57,37,24,22,103,,88,88,6,8,4,6,0.5,0.5
2025-04-23T1600,3125A,105.8983,26.2481,安顺市,娄家坡,颗粒物(PM10),59,67,45,27,21,105,,91,91,7,8,9,8,0.5,0.5
2025-04-23T1600,1818A,114.4839,36.0621,安阳市,棉研所,,,,,,,,,,,,,,,,
2025-04-23T1600,1819A,114.3551,36.1017,安阳市,红庙街,颗粒物(PM10),74,97,81,22,24,135,,113,113,2,9,4,6,0.3,0.4
2025-04-23T1600,1820A,114.361,36.0681,安阳市,银杏小区,颗粒物(PM10),57,64,63,39,28,150,,123,123,5,12,6,8,0.3,0.4
2025-04-23T1600,3141A,114.3922,36.0878,安阳市,信访局,颗粒物(PM10),101,151,76,32,24,160,,135,135,5,16,4,4,0.3,0.2
2025-04-23T1600,3669A,114.4705,36.0637,安阳市,左辅环卫站,颗粒物(PM10),73,95,79,30,31,155,,110,110,9,21,6,5,0.2,0.1
2025-04-23T1600,3703A,114.2917,36.0949,安阳市,安钢职工学校,颗粒物(PM10),105,160,102,25,23,145,,114,114,7,15,5,5,0.3,0.3
2025-04-23T1600,1748A,123.044,41.1196,鞍山市,深沟寺,颗粒物(PM10),64,78,42,35,21,158,,131,131,15,18,10,8,0.7,0.6
2025-04-23T1600,1749A,123.011,41.0931,鞍山市,太阳城,颗粒物(PM10),69,87,42,40,23,145,,122,122,14,15,9,7,0.8,0.7
2025-04-23T1600,1750A,123.0485,41.1442,鞍山市,太平,颗粒物(PM10),72,94,57,42,24,136,,118,118,18,20,16,12,1.1,0.7
2025-04-23T1600,1751A,122.9642,41.0971,鞍山市,铁西三道街,颗粒物(PM10),76,101,63,54,31,155,,135,135,20,35,10,10,0.9,1
2025-04-23T1600,1753A,123.022,41.0821,鞍山市,明达新区,颗粒物(PM10),68,86,41,38,21,155,,130,130,13,15,11,9,0.6,0.5
2025-04-23T1600,1754A,123.1289,41.0228,鞍山市,千山,,,,20,,8,,,77,,,9,,5,,0.5
2025-04-23T1600,4201A,122.9446,41.0826,鞍山市,兴盛南路290号,颗粒物(PM10),83,116,70,48,29,153,,129,129,23,36,14,14,0.8,0.9
2025-04-23T1600,2195A,107.4212,40.761,巴彦淖尔市,附二中,,47,47,119,6,38,107,,104,104,2,5,4,3,0.3,0.4
2025-04-23T1600,2196A,107.37,40.7372,巴彦淖尔市,市环保大楼,,42,42,120,9,40,109,,105,105,6,8,4,4,0.3,0.3
2025-04-23T1600,1956A,86.1472,41.7538,巴音郭楞蒙古自治州,孔雀公园,颗粒物(PM10),402,502,521,104,114,86,,70,70,4,36,6,6,0.2,0.4
2025-04-23T1600,1957A,86.1972,41.7166,巴音郭楞蒙古自治州,棉纺厂,颗粒物(PM10),450,550,634,103,115,87,,61,61,5,28,4,3,0.2,0.3
2025-04-23T1600,1958A,86.2357,41.7173,巴音郭楞蒙古自治州,经济开发区,颗粒物(PM10),380,484,509,90,96,90,,80,80,5,15,7,6,0.1,0.2
2025-04-23T1600,2914A,106.7677,31.8794,巴中市,苏山坪,细颗粒物(PM2.5),54,48,105,38,43,124,,96,96,7,11,4,4,0.3,0.4
2025-04-23T1600,3181A,106.7768,31.8526,巴中市,市五中,颗粒物(PM10),78,106,121,33,39,119,,92,92,6,11,6,6,0.3,0.4
2025-04-23T1600,3183A,106.7418,31.8654,巴中市,圣泉水务公司,细颗粒物(PM2.5),134,,113,102,43,122,,96,96,6,14,5,5,0.3,0.5
2025-04-23T1600,3616A,106.7616,31.8344,巴中市,市中心医院,颗粒物(PM10),77,104,115,45,43,115,,90,90,6,10,4,4,0.4,0.5
2025-04-23T1600,2235A,122.7911,45.6077,白城市,洮北区环保局,,47,47,23,21,13,80,,79,79,6,8,7,7,0.2,0.2
2025-04-23T1600,2236A,122.8738,45.5725,白城市,市环保局,,28,27,19,8,10,87,,87,87,2,4,8,4,0.2,0.4
2025-04-23T1600,2231A,126.4219,41.9171,白山市,喜丰,,,40,38,10,15,110,,86,86,8,19,,9,0.6,0.8
2025-04-23T1600,2232A,126.4077,41.9419,白山市,环保局,,,,31,,11,,,78,78,,13,,11,,0.7
2025-04-23T1600,2647A,104.1724,36.5446,白银市,第三小学,颗粒物(PM10),52,53,58,10,26,120,,112,112,4,18,8,18,0.2,0.5
2025-04-23T1600,2648A,104.1465,36.5482,白银市,动力公司,,49,49,48,13,20,116,,115,115,7,15,6,9,0.4,0.5
2025-04-23T1600,2512A,106.6103,23.9011,百色市,市监测站,,20,10,37,6,19,63,,63,49,9,13,3,6,0.6,0.5
2025-04-23T1600,2513A,106.6538,23.8859,百色市,市中心血站,,19,16,33,6,21,60,,62,47,7,11,4,8,0.7,0.7
2025-04-23T1600,3406A,106.6085,23.8798,百色市,祈福高中,,20,11,49,9,23,63,,50,50,6,16,5,8,0.6,0.7
2025-04-23T1600,2270A,117.396,32.939,蚌埠市,工人疗养院,颗粒物(PM10),97,143,108,34,29,168,,145,145,9,22,7,7,0.6,0.6
2025-04-23T1600,2271A,117.3605,32.9427,蚌埠市,百货大楼,颗粒物(PM10),95,140,111,38,31,164,,144,144,11,24,8,8,0.5,0.5
2025-04-23T1600,2273A,117.4185,32.8911,蚌埠市,蚌埠学院,颗粒物(PM10),103,156,111,40,36,161,,148,148,7,23,5,5,0.5,0.6
2025-04-23T1600,2274A,117.3533,32.9673,蚌埠市,淮上区政府,颗粒物(PM10),92,134,110,34,36,168,,143,143,11,26,7,7,0.4,0.5
2025-04-23T1600,2275A,117.3145,32.8977,蚌埠市,高新区,颗粒物(PM10),92,134,96,32,34,160,,139,139,11,23,7,6,0.5,0.4
2025-04-23T1600,3715A,117.3092,32.9314,蚌埠市,蚌埠田家炳中学,颗粒物(PM10),93,136,110,35,30,171,,147,147,10,20,7,7,0.3,0.4
2025-04-23T1600,1585A,109.8756,40.6532,包头市,市环境监测站,,44,44,87,3,26,98,,100,100,4,21,6,19,0.3,1.1
2025-04-23T1600,1587A,109.9991,40.5842,包头市,包头八中,,33,33,84,3,28,102,,107,107,5,17,10,16,0.2,0.4
2025-04-23T1600,1588A,109.8538,40.6821,包头市,青山宾馆,,32,32,81,8,28,98,,102,102,3,25,8,17,0.3,0.8
2025-04-23T1600,1589A,109.8642,40.6288,包头市,惠龙物流,,41,41,77,7,23,99,,103,103,5,16,7,17,0.2,0.6
2025-04-23T1600,1590A,110.0377,40.5546,包头市,东河鸿龙湾,,31,30,79,3,15,99,,95,95,4,15,6,10,0.4,0.5
2025-04-23T1600,3283A,109.9154,40.5685,包头市,滨河大厦,,31,26,71,3,21,99,,103,103,1,12,8,14,0.3,0.5
2025-04-23T1600,3419A,109.9447,40.6261,包头市,包头市委党校,,31,30,85,3,21,98,,103,102,2,13,6,16,0.3,0.7
2025-04-23T1600,3683A,109.8331,40.6576,包头市,昆区政府,,,33,79,3,26,104,,108,108,,28,5,20,0.4,1.5
2025-04-23T1600,1930A,107.185,34.3063,宝鸡市,庙沟村,颗粒物(PM10),55,60,130,26,56,131,,104,104,3,8,8,7,0.3,0.4
2025-04-23T1600,1931A,107.0708,34.3017,宝鸡市,竹园沟,,47,47,120,26,47,128,,103,103,4,12,8,7,0.4,0.4
2025-04-23T1600,1932A,107.1906,34.3672,宝鸡市,三陆医院,颗粒物(PM10),58,65,142,27,61,132,,96,96,10,26,5,6,0.3,0.4
2025-04-23T1600,1933A,107.1431,34.3547,宝鸡市,监测站,颗粒物(PM10),65,80,150,22,52,124,,91,91,11,20,8,8,0.4,0.3
2025-04-23T1600,1934A,107.1186,34.3739,宝鸡市,技工学校,颗粒物(PM10),59,67,158,19,72,127,,99,99,8,13,6,8,0.3,0.4
2025-04-23T1600,1935A,107.3906,34.3528,宝鸡市,陈仓区环保局家属楼,颗粒物(PM10),57,63,162,34,69,132,,93,93,12,27,7,23,0.4,0.5
2025-04-23T1600,1936A,107.2058,34.3497,宝鸡市,文理学院,细颗粒物(PM2.5),55,51,152,39,70,133,,100,100,6,20,6,7,0.4,0.4
2025-04-23T1600,1937A,107.2386,34.3622,宝鸡市,三迪小学,颗粒物(PM10),59,67,154,27,62,132,,99,99,15,26,5,6,0.4,0.5
2025-04-23T1600,1051A,115.493,38.8632,保定市,游泳馆,颗粒物(PM10),117,184,72,61,33,138,,108,108,14,23,2,3,0.2,0.2
2025-04-23T1600,1052A,115.5213,38.8959,保定市,华电二区,颗粒物(PM10),94,138,62,43,26,132,,107,107,8,13,3,4,0.0,0.1
2025-04-23T1600,1053A,115.4713,38.9108,保定市,接待中心,颗粒物(PM10),111,171,79,54,34,125,,103,103,13,19,3,4,0.5,0.5
2025-04-23T1600,1054A,115.4612,38.8416,保定市,地表水厂,颗粒物(PM10),121,191,95,50,29,138,,103,103,13,23,5,5,0.3,0.3
2025-04-23T1600,3581A,115.31981,38.95208,保定市,满城区生态环境分局,颗粒物(PM10),100,149,80,53,32,124,,103,103,12,24,1,11,0.2,0.3
2025-04-23T1600,3582A,115.47694,38.76408,保定市,清苑区第二中学,颗粒物(PM10),94,138,84,41,30,143,,108,108,5,19,7,7,0.3,0.3
2025-04-23T1600,3583A,115.62909,39.02311,保定市,徐水物探局,颗粒物(PM10),95,140,85,36,25,127,,96,96,15,29,3,2,0.3,0.3
2025-04-23T1600,4004A,115.4202,38.8656,保定市,双鹰农机,颗粒物(PM10),103,155,72,61,31,134,,101,101,12,24,6,7,0.1,0.1
2025-04-23T1600,4034A,115.5150,38.8590,保定市,植保所站,细颗粒物(PM2.5),122,172,81,92,32,127,,103,103,13,16,3,3,0.6,0.6
2025-04-23T1600,2594A,99.1678,25.1081,保山市,市环境监测站,颗粒物(PM10),56,62,48,31,32,106,,99,99,6,7,6,7,0.5,0.5
2025-04-23T1600,2595A,99.1711,25.1328,保山市,市环保局,颗粒物(PM10),60,70,55,28,25,111,,108,108,13,8,8,7,0.5,0.5
2025-04-23T1600,1866A,109.2262,21.588,北海市,牛尾岭水库,,,34,19,21,12,80,,68,68,,,7,7,0.8,0.7
2025-04-23T1600,1867A,109.1436,21.4086,北海市,海滩公园,,34,34,37,7,10,75,,59,59,7,9,5,5,0.4,0.6
2025-04-23T1600,1868A,109.0981,21.4661,北海市,新市环保局,,39,39,29,22,14,95,,68,68,9,8,4,3,0.6,0.5
2025-04-23T1600,1869A,109.1778,21.5233,北海市,北海工业园,,32,32,31,15,17,76,,67,67,5,6,8,7,0.4,0.4
2025-04-23T1600,3400A,109.1911,21.4415,北海市,龙潭自来水厂,,36,36,30,23,19,107,,79,79,6,7,8,7,0.4,0.3
2025-04-23T1600,1001A,116.3621,39.8784,北京市,万寿西宫,颗粒物(PM10),52,54,61,8,19,120,,88,88,6,26,6,7,0.3,0.4
2025-04-23T1600,1002A,116.2202,40.2915,北京市,定陵,,,,,,,,,,,,,,,,
2025-04-23T1600,1003A,116.4174,39.9289,北京市,东四,颗粒物(PM10),55,59,63,14,20,118,,90,90,3,26,2,3,0.2,0.4
2025-04-23T1600,1004A,116.4072,39.8863,北京市,天坛,,47,47,51,7,16,111,,80,80,12,28,2,2,0.2,0.6
2025-04-23T1600,1005A,116.462,39.9365,北京市,农展馆,颗粒物(PM10),54,57,58,6,16,117,,84,84,9,28,7,7,0.2,0.4
2025-04-23T1600,1006A,116.3392,39.9295,北京市,官园,颗粒物(PM10),54,58,64,7,17,107,,82,82,6,27,4,5,0.2,0.3
2025-04-23T1600,1007A,116.2878,39.9611,北京市,海淀万柳,颗粒物(PM10),52,53,61,8,15,93,,79,79,1,27,4,5,0.3,0.4
2025-04-23T1600,1008A,116.6636,40.135,北京市,顺义新城,颗粒物(PM10),52,53,63,12,15,114,,90,90,3,27,6,6,0.3,0.4
2025-04-23T1600,1009A,116.6275,40.3275,北京市,怀柔镇,,34,34,44,6,15,104,,88,88,5,18,2,2,0.3,0.4
2025-04-23T1600,1010A,116.2296,40.217,北京市,昌平镇,,50,50,48,3,14,104,,83,83,8,20,3,3,0.0,0.1
2025-04-23T1600,1011A,116.3966,39.9821,北京市,奥体中心,颗粒物(PM10),54,57,57,11,18,111,,82,82,11,34,2,3,0.4,0.6
2025-04-23T1600,3281A,115.9718,40.4529,北京市,延庆夏都,,39,39,62,9,17,112,,87,87,5,19,2,2,0.2,0.3
2025-04-23T1600,3418A,116.8336,40.4095,北京市,密云新城,颗粒物(PM10),84,117,58,6,12,103,,89,89,10,18,1,2,0.3,0.4
2025-04-23T1600,3671A,116.088,39.9726,北京市,门头沟三家店,颗粒物(PM10),100,150,81,16,18,104,,83,83,12,32,2,2,0.2,0.3
2025-04-23T1600,3672A,116.1541,39.8204,北京市,丰台云岗,颗粒物(PM10),51,51,66,10,17,114,,84,84,9,31,2,2,0.2,0.3
2025-04-23T1600,3673A,116.6804,39.9081,北京市,通州东关,颗粒物(PM10),70,89,75,37,24,114,,82,82,10,36,5,5,0.4,0.5
2025-04-23T1600,3674A,115.9577,39.7603,北京市,房山燕山,,45,45,61,8,17,98,,81,81,8,20,4,5,0.3,0.4
2025-04-23T1600,3675A,116.4672,39.7733,北京市,大兴旧宫,颗粒物(PM10),65,79,64,14,17,112,,70,70,7,24,3,3,0.1,0.3
2025-04-23T1600,3694A,115.986,40.4563,北京市,延庆石河营,,34,34,51,3,15,100,,77,77,3,16,2,2,0.3,0.3
2025-04-23T1600,3695A,116.6151,40.3053,北京市,怀柔新城,,35,35,42,7,15,104,,85,85,5,13,3,3,0.4,0.5
2025-04-23T1600,3696A,116.2545,39.8768,北京市,丰台小屯,,49,49,60,13,18,103,,76,76,8,36,2,2,0.2,0.3
2025-04-23T1600,3697A,116.84,40.3844,北京市,密云镇,,36,36,42,7,13,104,,87,87,3,21,5,5,0.2,0.3
2025-04-23T1600,4182A,116.1942,39.9158,北京市,八角北路9号,颗粒物(PM10),52,54,77,10,19,121,,90,90,5,33,5,5,0.1,0.3
2025-04-23T1600,4194A,117.0790,40.1518,北京市,洳河巡河路,,35,29,40,3,18,112,,94,94,8,15,1,2,0.2,0.3
2025-04-23T1600,1761A,123.8275,41.3064,本溪市,大峪,颗粒物(PM10),66,82,35,32,18,157,,115,115,17,24,13,6,0.9,0.7
2025-04-23T1600,1762A,123.7567,41.3325,本溪市,溪湖,颗粒物(PM10),59,68,46,37,26,154,,115,115,14,26,12,7,0.9,0.9
2025-04-23T1600,1763A,123.7169,41.3094,本溪市,彩屯,颗粒物(PM10),63,76,51,37,32,158,,117,117,15,30,16,13,0.9,1.3
2025-04-23T1600,1764A,123.7669,41.2864,本溪市,东明,,,94,46,29,17,151,,115,115,22,26,18,7,,0.9
2025-04-23T1600,1765A,123.7992,41.2664,本溪市,新立屯,颗粒物(PM10),70,89,33,37,17,153,,123,123,22,33,19,9,1.5,0.7
2025-04-23T1600,1766A,123.8142,41.3472,本溪市,威宁,颗粒物(PM10),83,116,51,35,23,154,,109,109,9,20,11,6,0.9,0.7
2025-04-23T1600,2587A,105.2864,27.3125,毕节市,八中,"颗粒物(PM10),细颗粒物(PM2.5)",62,74,63,44,34,64,,82,72,9,7,4,4,0.6,0.5
2025-04-23T1600,2588A,105.31,27.2944,毕节市,师专,颗粒物(PM10),54,57,62,32,28,67,,88,78,10,7,8,8,0.5,0.4
2025-04-23T1600,4263A,105.3688,27.3598,毕节市,工业大道,颗粒物(PM10),64,78,70,42,29,66,,85,75,12,10,6,6,0.6,0.6
2025-04-23T1600,1629A,118.0018,37.3617,滨州市,第二水厂,颗粒物(PM10),75,100,72,27,27,163,,134,134,8,32,11,14,0.5,0.5
2025-04-23T1600,1630A,117.9776,37.393,滨州市,北中新校,臭氧1小时,70,73,58,39,28,176,,146,146,11,32,9,8,0.6,0.5
2025-04-23T1600,3514A,117.9378,37.3956,滨州市,中海酒店,颗粒物(PM10),69,88,60,36,27,174,,144,144,9,24,16,18,0.8,0.7
2025-04-23T1600,3515A,117.9378,37.3553,滨州市,开发区一中,颗粒物(PM10),80,110,75,31,25,170,,139,139,12,33,10,9,0.1,0.2
2025-04-23T1600,3516A,118.0917,37.694,滨州市,金海六路,颗粒物(PM10),68,85,53,22,16,172,,153,153,15,30,13,12,0.2,0.5
2025-04-23T1600,4028A,117.9956,37.3753,滨州市,滨州市西街道办事处,臭氧1小时,79,90,65,41,31,183,,155,155,10,29,11,11,0.4,0.4
2025-04-23T1600,2311A,115.8072,33.8399,亳州市,污水处理厂,颗粒物(PM10),121,192,70,50,26,156,,136,136,10,18,3,5,0.3,0.3
2025-04-23T1600,2312A,115.7789,33.8518,亳州市,三国揽胜宫,颗粒物(PM10),122,193,92,55,27,166,,138,138,10,17,7,6,0.2,0.2
2025-04-23T1600,3332A,115.7633,33.8034,亳州市,亳州学院,颗粒物(PM10),114,177,92,43,24,166,,138,138,9,16,4,5,0.3,0.3
2025-04-23T1600,2693A,82.0485,44.8556,博尔塔拉蒙古自治州,市党校,,,22,43,9,15,110,,77,77,,33,,3,0.2,0.2
2025-04-23T1600,2694A,82.0806,44.8969,博尔塔拉蒙古自治州,市环保局,,38,38,58,12,14,111,,75,75,11,20,3,3,0.5,0.5
2025-04-23T1600,1071A,116.8842,38.2991,沧州市,沧县城建局,,,146,89,46,38,152,,124,124,13,18,,6,0.4,0.5
2025-04-23T1600,1072A,116.8584,38.3254,沧州市,电视转播站,细颗粒物(PM2.5),83,110,83,61,42,152,,110,110,14,18,4,5,0.3,0.4
2025-04-23T1600,1073A,116.8709,38.3228,沧州市,市环保局,颗粒物(PM10),91,131,88,43,41,164,,123,123,13,19,8,8,0.4,0.5
2025-04-23T1600,3324A,116.8136,38.3004,沧州市,河北水利电力学院,颗粒物(PM10),107,163,96,35,33,161,,118,118,13,19,11,10,0.3,0.4
2025-04-23T1600,2622A,97.1806,31.1273,昌都市,昌都监测站,,36,,14,3,10,113,,92,92,2,6,3,3,0.2,0.3
2025-04-23T1600,3719A,97.1714,31.1406,昌都市,昌都会议中心,,35,14,19,9,12,110,,88,88,4,6,3,2,0.2,0.2
2025-04-23T1600,2690A,88.1236,43.8886,昌吉回族自治州,天山天池,,37,13,15,3,5,116,,98,98,10,7,10,5,0.7,0.6
2025-04-23T1600,2692A,87.2717,44.0297,昌吉回族自治州,新区政务中心,,44,14,38,3,15,138,,106,106,3,22,7,8,0.3,0.6
2025-04-23T1600,3613A,87.3095,44.0142,昌吉回族自治州,亚心广场,,42,27,52,9,17,134,,94,94,7,34,8,9,0.3,0.6
2025-04-23T1600,1119A,125.3325,43.9166,长春市,食品厂,,39,39,33,10,14,91,,95,95,11,18,6,7,0.2,0.3
2025-04-23T1600,1120A,125.2863,43.9027,长春市,客车厂,,33,33,28,11,14,94,,97,97,10,18,5,5,0.2,0.3
2025-04-23T1600,1121A,125.2841,43.8463,长春市,邮电学院,,42,42,27,9,18,99,,100,100,8,14,5,6,0.2,0.3
2025-04-23T1600,1122A,125.3716,43.8772,长春市,劳动公园,,40,40,30,3,17,99,,101,101,4,14,6,6,0.3,0.3
2025-04-23T1600,1123A,125.3297,43.8805,长春市,园林处,,39,39,28,3,16,94,,98,98,5,14,6,7,0.3,0.4
2025-04-23T1600,1124A,125.4605,43.79,长春市,净月潭,,36,36,23,8,11,100,,100,100,7,9,5,6,0.2,0.2
2025-04-23T1600,1125A,125.7194,43.515,长春市,甩湾子,,,,,,,,,,,,,,,,
2025-04-23T1600,1126A,125.3863,43.8447,长春市,经开区环卫处,,41,41,27,6,12,94,,96,96,7,16,5,5,0.3,0.4
2025-04-23T1600,1127A,125.245,43.7783,长春市,高新区管委会,,44,44,27,7,16,96,,105,105,8,15,6,7,0.2,0.3
2025-04-23T1600,1128A,125.1761,43.8325,长春市,岱山公园,,47,47,30,8,17,93,,104,104,17,25,4,4,0.2,0.3
2025-04-23T1600,1335A,113.0833,28.2325,长沙市,经开区环保局,颗粒物(PM10),54,58,61,34,52,102,,82,82,18,14,6,6,0.7,0.6
2025-04-23T1600,1336A,112.8872,28.2189,长沙市,高开区环保局,颗粒物(PM10),52,54,55,27,43,103,,96,96,8,7,5,5,0.8,0.8
2025-04-23T1600,1337A,113.0792,28.2053,长沙市,马坡岭,颗粒物(PM10),55,60,62,24,44,99,,86,86,19,16,4,4,0.5,0.6
2025-04-23T1600,1338A,112.9394,28.19,长沙市,湖南师范大学,颗粒物(PM10),53,55,57,18,36,101,,88,88,10,10,3,3,0.4,0.5
2025-04-23T1600,1339A,113.0178,28.1322,长沙市,雨花区环保局,颗粒物(PM10),53,55,57,27,47,107,,86,86,9,10,4,4,0.4,0.5
2025-04-23T1600,1340A,112.9792,28.2597,长沙市,伍家岭,颗粒物(PM10),56,62,63,31,49,99,,85,85,10,11,2,2,0.5,0.6
2025-04-23T1600,1341A,113.0014,28.1944,长沙市,火车新站,颗粒物(PM10),55,60,59,24,34,104,,89,89,12,12,7,7,0.7,0.8
2025-04-23T1600,1342A,112.9844,28.1178,长沙市,天心区环保局,颗粒物(PM10),55,60,62,20,36,98,,83,83,13,10,2,2,0.8,0.8
2025-04-23T1600,1343A,112.8908,28.1308,长沙市,湖南中医药大学,颗粒物(PM10),52,54,58,22,37,93,,88,88,14,10,2,3,0.5,0.6
2025-04-23T1600,1344A,112.9581,28.3611,长沙市,沙坪,细颗粒物(PM2.5),59,52,75,42,23,88,,88,88,10,11,5,5,0.5,0.6
2025-04-23T1600,1727A,113.1147,36.1547,长治市,清华站,颗粒物(PM10),58,66,118,14,36,129,,114,114,4,18,5,10,0.3,0.6
2025-04-23T1600,1730A,113.0886,36.2125,长治市,审计局,,41,32,98,12,39,131,,111,111,8,21,8,12,0.1,0.4
2025-04-23T1600,1731A,113.0844,36.1856,长治市,长治八中,,44,44,128,23,45,126,,106,106,7,19,7,13,0.8,1.1
2025-04-23T1600,2845A,113.1569,36.1911,长治市,德盛苑,,40,39,99,24,38,128,,114,114,4,12,5,9,0.4,0.7
2025-04-23T1600,3568A,113.06,36.0464,长治市,向阳小学,颗粒物(PM10),63,75,111,17,36,152,,127,127,9,21,10,13,0.2,0.5
2025-04-23T1600,3569A,112.8792,36.3144,长治市,屯留一中,,40,39,121,10,43,127,,106,106,2,13,8,9,0.3,0.4
2025-04-23T1600,4189A,113.1131,36.19948,长治市,英华南巷50号,,42,38,111,29,39,131,,112,112,7,22,4,9,0.7,0.8
2025-04-23T1600,4190A,113.2367,36.3344,长治市,学府街1号,颗粒物(PM10),57,63,152,21,54,137,,120,120,6,18,4,12,0.3,0.7
2025-04-23T1600,1854A,111.6975,28.9703,常德市,市二中,颗粒物(PM10),61,72,90,40,43,73,,80,63,11,11,4,6,0.6,0.6
2025-04-23T1600,1857A,111.7158,29.1456,常德市,白鹤山,,,,,,,,,,,,,,,,
2025-04-23T1600,3138A,111.7153,29.0289,常德市,武陵区永安,颗粒物(PM10),65,80,92,25,31,100,,98,83,9,10,3,8,0.4,0.4
2025-04-23T1600,3139A,111.6892,28.9881,常德市,鼎城区玉霞,颗粒物(PM10),61,71,93,24,34,86,,88,70,10,10,2,4,0.6,0.6
2025-04-23T1600,3140A,111.6625,29.0531,常德市,武陵区长庚,颗粒物(PM10),64,78,97,27,33,83,,94,70,11,12,6,7,0.6,0.6
2025-04-23T1600,1196A,119.9633,31.762,常州市,市监测站,臭氧1小时,63,68,78,30,40,170,,140,140,15,24,10,11,0.8,0.8
2025-04-23T1600,1200A,119.9468,31.7069,常州市,武进监测站,臭氧1小时,59,60,78,29,32,167,,145,145,22,34,10,13,0.8,0.7
2025-04-23T1600,1201A,119.9255,31.9087,常州市,安家,臭氧1小时,70,68,82,31,40,176,,143,143,12,32,9,10,0.5,0.4
2025-04-23T1600,3002A,119.9805,31.8174,常州市,行政中心,臭氧1小时,54,53,59,30,37,163,,136,136,13,22,15,15,0.6,0.5
2025-04-23T1600,3003A,120.0522,31.7748,常州市,经开区,臭氧1小时,63,66,55,26,28,170,,145,145,19,23,11,10,0.6,0.6
2025-04-23T1600,3010A,119.9025,31.7964,常州市,钟楼,颗粒物(PM10),59,67,64,36,41,159,,131,131,12,28,7,7,0.5,0.6
2025-04-23T1600,3429A,119.8598,31.7066,常州市,武进经发区,臭氧1小时,60,60,58,21,30,168,,142,142,11,22,8,9,1.1,1.1
2025-04-23T1600,3430A,119.5826,31.7245,常州市,金坛城区,臭氧1小时,75,58,62,29,26,180,,146,146,10,16,8,9,0.8,0.8
2025-04-23T1600,2220A,120.4318,41.5881,朝阳市,西梁,颗粒物(PM10),78,105,49,8,13,88,,97,97,9,14,8,10,0.3,0.5
2025-04-23T1600,2221A,120.4521,41.5646,朝阳市,河畔小区,颗粒物(PM10),83,115,47,11,12,92,,100,100,8,12,8,12,0.4,0.6
2025-04-23T1600,2222A,120.4176,41.5648,朝阳市,八里堡,颗粒物(PM10),99,148,52,10,13,85,,93,93,11,16,6,8,0.5,0.7
2025-04-23T1600,2223A,120.3806,41.5969,朝阳市,农业园区,颗粒物(PM10),87,123,52,10,17,91,,99,99,7,15,7,8,0.6,0.7
2025-04-23T1600,1705A,116.6367,23.6719,潮州市,西园路,细颗粒物(PM2.5),63,52,48,45,29,86,,96,96,11,14,3,7,0.4,0.5
2025-04-23T1600,3026A,116.6183,23.6608,潮州市,市政府,颗粒物(PM10),56,61,47,27,26,88,,94,94,9,19,3,11,0.6,0.6
2025-04-23T1600,4036A,116.6461,23.6761,潮州市,金山,颗粒物(PM10),74,97,46,38,26,62,,92,92,13,14,6,10,0.6,0.6
2025-04-23T1600,2472A,113.0073,25.9061,郴州市,马头岭,颗粒物(PM10),58,65,48,22,16,68,,57,57,11,11,7,7,0.9,0.9
2025-04-23T1600,2473A,113.0116,25.8226,郴州市,市职中,颗粒物(PM10),59,67,43,38,28,70,,64,64,10,10,1,2,0.6,0.6
2025-04-23T1600,2475A,113.0383,25.8071,郴州市,市审计局,颗粒物(PM10),61,71,42,39,25,69,,66,66,8,7,8,3,0.6,0.6
2025-04-23T1600,2476A,113.0348,25.7759,郴州市,市环保局,细颗粒物(PM2.5),70,82,47,51,31,62,,62,61,12,9,8,4,0.6,0.6
2025-04-23T1600,4252A,113.0138,25.8011,郴州市,好美居路49号,颗粒物(PM10),59,68,42,37,25,62,,58,56,11,10,6,4,0.7,0.7
2025-04-23T1600,1431A,103.9728,30.7236,成都市,金泉两河,颗粒物(PM10),80,109,121,42,42,119,,86,86,10,18,3,3,0.6,0.6
2025-04-23T1600,1432A,104.176,30.6872,成都市,十里店,颗粒物(PM10),82,114,116,43,43,135,,102,102,16,22,4,4,0.5,0.6
2025-04-23T1600,1433A,104.079,30.5706,成都市,三瓦窑,颗粒物(PM10),78,106,118,28,44,140,,102,102,14,22,5,5,0.4,0.4
2025-04-23T1600,1434A,104.1114,30.63,成都市,沙河铺,颗粒物(PM10),77,103,113,27,42,121,,90,90,11,20,6,6,0.6,0.7
2025-04-23T1600,1437A,104.0786,30.6531,成都市,君平街,颗粒物(PM10),77,104,114,43,50,113,,81,81,16,25,8,8,0.5,0.6
2025-04-23T1600,1438A,103.613,31.0283,成都市,灵岩寺,,,,,,,,,,,,,,,,
2025-04-23T1600,2880A,104.0239,30.65639,成都市,大石西路,颗粒物(PM10),79,108,111,47,45,141,,99,99,18,23,6,5,0.3,0.4
2025-04-23T1600,3136A,104.2725,30.5589,成都市,龙泉驿区区政府,颗粒物(PM10),69,88,109,31,35,127,,102,102,11,14,4,4,0.6,0.6
2025-04-23T1600,3357A,104.0106,30.6931,成都市,金博路,颗粒物(PM10),76,101,101,34,34,139,,91,91,12,19,8,8,0.2,1
2025-04-23T1600,3359A,104.0578,30.5225,成都市,华阳,颗粒物(PM10),75,100,108,53,50,134,,96,96,12,22,7,6,0.1,0.2
2025-04-23T1600,3488A,104.3853,30.7453,成都市,青白江技师分院,颗粒物(PM10),80,109,118,37,45,156,,115,115,14,33,2,6,0.2,0.2
2025-04-23T1600,3489A,104.0789,30.4072,成都市,科学城,颗粒物(PM10),71,91,113,44,41,118,,87,87,9,18,4,4,0.2,0.3
2025-04-23T1600,4011A,103.8506,30.6947,成都市,光华大道三段,颗粒物(PM10),79,107,100,47,55,146,,106,106,14,19,2,2,0.5,0.6
2025-04-23T1600,4224A,104.2433,30.5353,成都市,鲸龙路1057号,,,,148,39,43,121,,96,96,19,27,4,4,0.4,0.5
2025-04-23T1600,1062A,117.9531,40.9081,承德市,铁路,颗粒物(PM10),65,79,44,3,8,106,,86,86,5,21,3,6,0.2,0.2
2025-04-23T1600,1063A,117.9392,40.9763,承德市,中国银行,颗粒物(PM10),70,89,46,3,9,103,,86,86,5,14,2,3,0.2,0.3
2025-04-23T1600,1064A,117.9503,40.928,承德市,开发区,颗粒物(PM10),52,54,39,18,16,110,,90,90,4,16,4,5,0.1,0.2
2025-04-23T1600,1065A,117.8051,40.9655,承德市,文化中心,颗粒物(PM10),63,75,56,3,9,109,,93,93,4,17,3,7,0.2,0.4
2025-04-23T1600,1066A,117.9268,41.0026,承德市,离宫,颗粒物(PM10),63,76,43,8,19,78,,64,64,2,8,6,6,0.2,0.3
2025-04-23T1600,2314A,117.47,30.6618,池州市,池州学院,,46,42,50,27,37,146,,123,123,7,13,4,5,0.4,0.9
2025-04-23T1600,3237A,117.4918,30.6617,池州市,展览馆,,46,30,46,25,33,145,,124,124,7,13,4,5,0.5,0.8
2025-04-23T1600,3333A,117.5627,30.695,池州市,第八中学,,47,39,48,25,35,149,,129,129,10,14,5,6,0.5,0.8
2025-04-23T1600,3334A,117.5038,30.6243,池州市,第十二中学,,46,39,45,16,30,147,,141,141,6,19,4,4,0.5,1
2025-04-23T1600,1744A,118.9233,42.2816,赤峰市,松山一中,颗粒物(PM10),57,64,37,3,7,96,,93,93,11,17,10,11,0.3,0.3
2025-04-23T1600,1745A,118.9576,42.2728,赤峰市,哈达街,颗粒物(PM10),58,65,30,8,9,104,,98,98,10,16,10,12,0.4,0.5
2025-04-23T1600,1746A,118.8788,42.2554,赤峰市,天义路,,44,44,32,9,10,98,,95,95,8,14,6,8,0.4,0.4
2025-04-23T1600,3058A,119.2658,42.0353,赤峰市,银河街,颗粒物(PM10),79,107,46,8,13,90,,81,81,8,14,20,19,0.4,0.4
2025-04-23T1600,3286A,118.9359,42.3147,赤峰市,桥北物流园区,,36,36,31,19,13,90,,87,87,14,21,7,9,0.4,0.5
2025-04-23T1600,2521A,107.3476,22.4136,崇左市,市环保局江州分局,颗粒物(PM10),57,64,56,33,36,150,,119,119,5,8,7,8,0.5,0.5
2025-04-23T1600,4256A,107.3750,22.3736,崇左市,石景林东路7号,"颗粒物(PM10),臭氧1小时",54,57,50,37,37,163,,126,126,8,9,6,7,0.5,0.5
2025-04-23T1600,2298A,118.3093,32.3153,滁州市,老年大学,臭氧1小时,57,41,56,18,41,165,,137,137,12,17,4,4,0.3,0.4
2025-04-23T1600,2299A,118.3244,32.2786,滁州市,人大宾馆,臭氧1小时,55,37,60,11,42,164,,139,139,11,20,9,8,0.3,0.4
2025-04-23T1600,3207A,118.3118,32.3038,滁州市,市政府原办公楼,臭氧1小时,57,41,57,18,47,165,,137,137,9,14,5,4,0.3,0.5
2025-04-23T1600,3331A,118.3267,32.2634,滁州市,图书馆,臭氧1小时,58,47,65,18,45,166,,140,140,7,11,8,8,0.1,0.3
2025-04-23T1600,2605A,101.5482,25.0441,楚雄彝族自治州,州环境监测站,,45,45,28,23,18,128,,117,117,6,11,5,8,0.4,0.5
2025-04-23T1600,2606A,101.538,25.0492,楚雄彝族自治州,市经济开发区,,40,,28,23,19,128,,106,106,5,9,6,7,0.5,0.5
2025-04-23T1600,2548A,107.5277,31.2827,达州市,达州职业技术学院,颗粒物(PM10),94,138,78,43,25,93,,60,60,6,16,5,5,0.3,0.4
2025-04-23T1600,2549A,107.5086,31.2186,达州市,市环境监测站,颗粒物(PM10),89,127,78,36,27,103,,61,61,10,18,4,4,0.1,0.2
2025-04-23T1600,2550A,107.4988,31.2132,达州市,凤凰小区,颗粒物(PM10),95,139,77,44,28,105,,68,68,10,16,7,6,0.4,0.4
2025-04-23T1600,2551A,107.5082,31.1986,达州市,达县机关宾馆,颗粒物(PM10),97,144,80,47,27,101,,63,63,9,21,4,4,0.3,0.4
2025-04-23T1600,2552A,107.4644,31.2124,达州市,市政中心,颗粒物(PM10),91,132,85,39,25,112,,69,69,12,16,2,2,0.3,0.4
2025-04-23T1600,2614A,100.1542,25.7054,大理白族自治州,大理市环境监测站,,43,41,33,30,24,118,,109,109,6,6,6,7,0.6,0.5
2025-04-23T1600,2615A,100.2171,25.5811,大理白族自治州,大理古城,,38,38,31,23,22,119,,108,108,5,7,7,7,0.5,0.6
2025-04-23T1600,1109A,121.612,38.9741,大连市,甘井子,,,38,24,17,13,132,,123,123,29,25,8,8,,0.3
2025-04-23T1600,1110A,121.565,38.9511,大连市,周水子,,43,36,24,18,12,136,,120,120,13,20,7,7,0.3,0.3
2025-04-23T1600,1111A,121.5637,38.8845,大连市,星海三站,,37,28,20,16,9,117,,99,99,20,15,4,5,0.3,0.2
2025-04-23T1600,1112A,121.6302,38.9117,大连市,青泥洼桥,,47,34,20,14,10,150,,124,124,11,16,7,7,0.5,0.5
2025-04-23T1600,1113A,121.6251,38.8638,大连市,傅家庄,,39,27,19,17,9,122,,109,109,30,22,12,10,0.3,0.2
2025-04-23T1600,1114A,121.5213,38.8661,大连市,七贤岭,,36,29,18,14,9,113,,117,117,22,16,6,6,0.4,0.6
2025-04-23T1600,1115A,121.2529,38.8061,大连市,旅顺,,36,30,16,17,11,115,,92,92,26,29,3,4,0.5,0.5
2025-04-23T1600,1116A,121.7485,39.1311,大连市,金州,颗粒物(PM10),63,75,33,22,16,139,,121,121,26,23,9,10,0.3,0.2
2025-04-23T1600,1117A,121.7811,39.0496,大连市,开发区,,35,32,25,16,14,112,,95,95,28,27,5,6,0.7,0.6
2025-04-23T1600,1118A,121.9762,39.0631,大连市,双D港,,46,46,29,20,14,123,,106,106,27,20,11,10,0.3,0.3
2025-04-23T1600,1789A,124.81117,46.03138,大庆市,大同区,,,,35,35,21,86,,81,81,8,8,5,5,0.4,0.4
2025-04-23T1600,1790A,125.129,46.533,大庆市,龙凤区,颗粒物(PM10),51,51,35,30,15,88,,87,87,11,10,4,6,0.5,0.4
2025-04-23T1600,1791A,124.902,46.408,大庆市,红岗区,,45,45,21,21,15,92,,89,89,8,6,5,5,0.4,0.3
2025-04-23T1600,1792A,125.153,46.586,大庆市,萨尔图区,,,64,34,22,14,77,,79,79,,11,6,8,0.5,0.4
2025-04-23T1600,1793A,124.9042,46.6215,大庆市,让胡路区,,43,38,21,30,15,81,,79,79,11,9,6,7,0.3,0.3
2025-04-23T1600,3481A,125.141,46.634,大庆市,萨区政府监测点,,46,46,31,19,7,84,,88,88,9,8,6,6,0.4,0.4
2025-04-23T1600,1721A,113.3819,40.1097,大同市,果树场,,39,39,70,12,14,107,,96,96,6,24,4,6,0.3,0.4
2025-04-23T1600,1723A,113.2994,40.0758,大同市,云冈宾馆,,39,39,75,3,16,115,,102,102,6,27,7,11,0.2,0.4
2025-04-23T1600,1724A,113.3444,40.0917,大同市,大同大学,,45,45,80,6,20,108,,94,94,3,27,7,10,0.3,0.5
2025-04-23T1600,1725A,113.2661,40.1269,大同市,安家小村,,44,44,73,11,20,107,,97,97,2,17,10,16,0.2,1.1
2025-04-23T1600,1726A,113.2711,40.0844,大同市,教育学院,,49,49,78,3,20,112,,100,100,8,28,8,12,0.2,0.4
2025-04-23T1600,3282A,113.3397,40.0597,大同市,大同市卫生学校,,40,40,92,14,26,112,,97,97,7,39,7,11,0.4,0.6
2025-04-23T1600,3565A,113.1367,40.1122,大同市,云冈站,,48,48,67,8,18,108,,96,96,6,24,9,14,0.3,0.4
2025-04-23T1600,3566A,113.1186,40.2556,大同市,图书馆,颗粒物(PM10),51,51,58,6,16,102,,93,93,6,11,9,9,0.5,0.5
2025-04-23T1600,3567A,113.5931,40.0461,大同市,区一中,颗粒物(PM10),53,55,94,6,23,114,,100,100,8,25,11,24,0.4,0.6
2025-04-23T1600,4199A,113.2798,40.0997,大同市,魏都大道141号,颗粒物(PM10),60,70,84,8,19,114,,103,103,6,29,12,16,0.3,0.7
2025-04-23T1600,2269A,124.1069,50.4097,大兴安岭地区,科技局,,30,25,25,21,15,76,,80,80,6,12,4,3,0.3,0.3
2025-04-23T1600,3663A,124.1164,50.4278,大兴安岭地区,红旗社区,,,,14,,8,82,,89,83,2,4,4,5,0.3,0.4
2025-04-23T1600,1600A,124.3303,40.0625,丹东市,江湾东路,,46,42,30,32,23,109,,104,104,18,14,16,11,0.5,0.6
2025-04-23T1600,1601A,124.4256,40.1503,丹东市,临江后街,颗粒物(PM10),58,65,36,36,22,113,,100,100,14,13,9,7,0.6,0.5
2025-04-23T1600,1602A,124.3933,40.1461,丹东市,元宝山,,41,41,30,24,17,109,,98,98,15,12,12,9,0.4,0.4
2025-04-23T1600,1603A,124.3633,40.1092,丹东市,民主桥,,40,40,29,27,17,108,,105,105,16,15,12,9,0.5,0.5
2025-04-23T1600,3541A,109.5726,19.5167,儋州市,第一中学子站,,,,26,,20,,,63,,,7,,7,,0.5
2025-04-23T1600,3542A,109.5567,19.5187,儋州市,东坡学校子站,,40,27,27,19,16,126,,93,93,6,10,7,7,0.5,0.5
2025-04-23T1600,2616A,98.5842,24.428,德宏傣族景颇族自治州,德宏州监测站,颗粒物(PM10),58,66,52,40,31,118,,64,64,8,15,8,8,0.5,0.7
2025-04-23T1600,3677A,98.5881,24.4368,德宏傣族景颇族自治州,芒市人民政府综合楼,颗粒物(PM10),66,82,63,39,31,125,,68,68,9,12,8,7,0.5,0.6
2025-04-23T1600,1901A,104.4239,31.1208,德阳市,东山公园,,,109,125,58,50,160,,116,116,,18,5,4,0.6,0.6
2025-04-23T1600,1902A,104.3826,31.1317,德阳市,西小区,颗粒物(PM10),83,115,130,54,55,159,,109,109,18,22,5,6,0.5,0.5
2025-04-23T1600,1904A,104.3553,31.1091,德阳市,耐火材料厂,颗粒物(PM10),77,104,126,52,52,159,,112,112,14,24,7,7,0.4,0.5
2025-04-23T1600,3639A,104.4019,31.1244,德阳市,市教育局,细颗粒物(PM2.5),78,104,122,57,52,162,,111,111,17,22,7,6,0.4,0.4
2025-04-23T1600,1622A,116.3032,37.4674,德州市,儿童乐园,颗粒物(PM10),80,110,96,36,28,175,,128,128,15,21,12,10,0.6,0.6
2025-04-23T1600,1624A,116.2991,37.4451,德州市,监理站,颗粒物(PM10),78,105,93,39,33,175,,127,127,9,16,16,14,0.5,0.5
2025-04-23T1600,3066A,116.2721,37.4379,德州市,九衢泉纯净水厂,颗粒物(PM10),80,110,95,39,31,165,,119,119,13,30,12,8,0.8,0.7
2025-04-23T1600,3371A,116.3728,37.4403,德州市,开发区人民医院,颗粒物(PM10),80,110,98,34,31,164,,120,120,10,22,12,10,0.7,0.7
2025-04-23T1600,3372A,116.3572,37.4094,德州市,太阳城中学,颗粒物(PM10),78,105,99,39,37,174,,125,125,10,26,9,7,1.0,0.9
2025-04-23T1600,3511A,116.5652,37.3319,德州市,陵城艺术中心,颗粒物(PM10),73,95,89,41,31,172,,124,124,15,25,9,6,0.6,0.7
2025-04-23T1600,2621A,99.7056,27.8317,迪庆藏族自治州,迪庆州站,,31,,17,13,10,98,,101,101,9,8,5,4,0.5,0.4
2025-04-23T1600,3180A,99.7136,27.8094,迪庆藏族自治州,质量技术监督局,,31,17,17,7,7,99,,104,104,13,8,4,4,0.5,0.4
2025-04-23T1600,4257A,104.6092,35.5962,定西市,将台街,,42,37,88,14,32,133,,105,105,6,24,6,5,0.1,0.1
2025-04-23T1600,4309A,104.6159,35.5701,定西市,正龙路62号,,42,41,83,14,26,132,,107,107,3,10,9,9,0.2,0.3
2025-04-23T1600,1389A,113.7547,23.0494,东莞市,莞城梨川,,47,37,35,27,23,150,,108,108,11,11,6,5,0.5,0.5
2025-04-23T1600,1390A,113.7944,23.0128,东莞市,东城石井,,47,35,33,24,19,150,,104,104,12,15,4,4,0.4,0.4
2025-04-23T1600,1391A,113.7383,22.9658,东莞市,南城西平,,42,33,29,21,22,133,,104,104,9,10,4,3,0.5,0.5
2025-04-23T1600,3319A,113.7338,23.0381,东莞市,万江金泰,,48,45,33,33,21,142,,101,101,11,12,5,3,0.6,0.7
2025-04-23T1600,3626A,113.7533,23.0202,东莞市,南城元岭,,45,39,29,24,19,142,,100,100,6,8,6,6,0.6,0.5
2025-04-23T1600,3627A,113.7875,23.0457,东莞市,东城主山,,45,44,35,23,20,144,,100,100,10,14,4,4,0.4,0.4
2025-04-23T1600,1666A,118.6614,37.4309,东营市,市环保局,臭氧1小时,95,90,45,29,12,196,,160,160,21,35,9,9,0.4,0.4
2025-04-23T1600,3036A,118.6904,37.4338,东营市,开发区管委会,臭氧1小时,97,107,53,31,15,197,,159,159,22,28,8,8,0.5,0.5
2025-04-23T1600,3365A,118.5719,37.565,东营市,垦利区民丰路,臭氧1小时,87,90,49,36,16,189,,160,160,26,39,7,7,0.8,0.8
2025-04-23T1600,3498A,118.5055,37.8612,东营市,河口城区,"颗粒物(PM10),臭氧1小时",70,90,52,27,14,176,,145,145,12,23,10,10,0.5,0.6
2025-04-23T1600,3646A,118.4978,37.4623,东营市,胜利站,颗粒物(PM10),73,96,54,27,16,172,,144,144,27,32,12,13,0.6,0.7
2025-04-23T1600,3734A,118.35,37.26,东营市,理想之城,臭氧1小时,95,102,54,24,23,196,,160,160,17,39,10,10,0.5,0.5
2025-04-23T1600,1591A,110.0023,39.8129,鄂尔多斯市,综合楼,颗粒物(PM10),69,88,86,9,17,111,,102,102,10,12,4,5,0.2,0.2
2025-04-23T1600,1592A,109.9486,39.8261,鄂尔多斯市,巴音孟克林场办事处,颗粒物(PM10),69,88,82,12,24,107,,98,98,10,12,7,9,0.3,0.3
2025-04-23T1600,1593A,109.7736,39.5986,鄂尔多斯市,康泽苑,,,,76,,20,113,,101,101,,11,3,5,0.3,0.4
2025-04-23T1600,1594A,109.8119,39.5989,鄂尔多斯市,华泰汽车城,颗粒物(PM10),67,83,79,12,20,109,,101,101,6,13,5,8,0.1,0.4
2025-04-23T1600,1595A,109.9734,39.7884,鄂尔多斯市,奥林花园,,,80,83,,18,110,,99,99,10,18,2,2,0.0,0.1
2025-04-23T1600,2436A,114.8938,30.3994,鄂州市,市政府,颗粒物(PM10),62,74,72,36,42,162,,134,134,18,22,8,7,0.2,0.2
2025-04-23T1600,2437A,114.8989,30.3714,鄂州市,赵家坝,臭氧1小时,87,64,66,28,39,189,,175,175,13,18,5,5,0.7,0.9
2025-04-23T1600,3654A,114.8094,30.4089,鄂州市,精准医疗中心,臭氧1小时,70,54,65,35,43,176,,154,154,8,21,3,5,0.6,0.9
2025-04-23T1600,2454A,109.4978,30.2981,恩施土家族苗族自治州,湖北民院,颗粒物(PM10),57,63,74,37,32,73,,38,38,3,8,4,5,0.4,0.3
2025-04-23T1600,2455A,109.4707,30.2798,恩施土家族苗族自治州,州电力总公司,颗粒物(PM10),54,58,61,28,29,73,,33,33,3,16,4,4,0.4,0.4
2025-04-23T1600,3549A,109.5061,30.3772,恩施土家族苗族自治州,龙凤新区,,,56,59,19,24,66,,30,30,,10,6,6,0.5,0.4
2025-04-23T1600,2499A,108.3411,21.6158,防城港市,沙万,,31,31,37,17,17,64,,45,45,7,10,3,3,0.3,0.4
2025-04-23T1600,2500A,108.3514,21.7731,防城港市,防城档案局,,30,25,29,21,18,74,,59,59,2,3,2,3,0.3,0.3
2025-04-23T1600,2501A,108.3506,21.6414,防城港市,大海花园,,32,32,27,14,16,67,,56,56,2,2,2,2,0.3,0.4
2025-04-23T1600,1371A,113.1294,23.0067,佛山市,湾梁,,39,39,30,21,17,123,,94,94,12,15,7,7,0.6,0.6
2025-04-23T1600,1372A,113.1083,23.0478,佛山市,华材职中,,43,41,30,21,18,136,,107,107,13,13,7,7,0.4,0.4
2025-04-23T1600,1373A,113.144,23.0453,佛山市,南海气象局,颗粒物(PM10),52,54,35,23,21,129,,104,104,10,14,6,6,0.4,0.4
2025-04-23T1600,1374A,113.2881,22.8094,佛山市,顺德苏岗,,48,48,32,22,15,108,,77,77,10,12,6,6,0.6,0.6
2025-04-23T1600,1376A,112.8383,22.8678,佛山市,高明孔堂,,35,35,33,22,18,93,,76,76,6,6,5,5,0.6,0.6
2025-04-23T1600,1377A,112.8836,23.1588,佛山市,三水监测站,颗粒物(PM10),51,51,42,35,25,108,,80,80,30,30,4,5,0.5,0.5
2025-04-23T1600,1378A,112.867,23.185,佛山市,三水云东海,,42,30,38,29,28,131,,96,96,29,31,1,3,0.4,0.4
2025-04-23T1600,3625A,113.2544,22.7642,佛山市,容桂街道办,,32,24,24,22,18,98,,73,73,13,16,5,6,0.5,0.5
2025-04-23T1600,1280A,119.3903,26.0543,福州市,鼓山,,,,29,,20,,,117,,,8,,2,,0.4
2025-04-23T1600,1282A,119.2681,26.0504,福州市,师大,,26,26,33,17,24,74,,82,75,23,19,4,4,0.4,0.4
2025-04-23T1600,1283A,119.2984,26.1028,福州市,五四北路,,27,27,33,18,27,72,,78,72,33,23,4,4,0.6,0.5
2025-04-23T1600,1284A,119.2648,26.0768,福州市,杨桥西路,,28,28,34,17,24,75,,82,77,24,18,4,4,0.4,0.4
2025-04-23T1600,1285A,119.317,26.0746,福州市,紫阳,,34,34,40,14,26,65,,71,58,40,28,5,5,0.4,0.4
2025-04-23T1600,3048A,119.5799,26.0936,福州市,九龙,,33,26,26,19,23,105,,89,83,11,11,6,4,0.4,0.3
2025-04-23T1600,3526A,119.5189,25.9664,福州市,吴航,,26,19,30,14,21,81,,89,73,16,13,3,3,0.6,0.6
2025-04-23T1600,1755A,123.7977,41.8491,抚顺市,望花区,颗粒物(PM10),69,87,56,24,26,137,,125,125,14,23,11,11,0.5,0.6
2025-04-23T1600,1756A,123.9161,41.8822,抚顺市,顺城区,颗粒物(PM10),65,80,44,19,19,137,,120,120,16,27,10,8,0.6,0.6
2025-04-23T1600,1757A,124.0436,41.8611,抚顺市,东洲区,颗粒物(PM10),72,94,32,26,19,136,,116,116,15,13,8,7,0.5,0.5
2025-04-23T1600,1758A,123.9247,41.8642,抚顺市,新抚区,颗粒物(PM10),66,82,44,18,19,131,,116,116,12,20,9,8,0.6,0.6
2025-04-23T1600,1759A,124.0972,41.8961,抚顺市,大伙房水库,颗粒物(PM10),70,89,31,20,18,131,,114,114,10,10,10,8,0.6,0.6
2025-04-23T1600,1760A,123.7086,41.8391,抚顺市,沈抚新城,颗粒物(PM10),67,83,56,22,26,131,,129,129,15,30,8,9,0.6,1
2025-04-23T1600,2376A,116.2127,28.0814,抚州市,桐源党溪,颗粒物(PM10),60,70,43,27,23,142,,118,118,3,3,4,4,1.1,1.1
2025-04-23T1600,2377A,116.3544,27.9831,抚州市,市站,颗粒物(PM10),55,60,36,23,20,104,,92,92,4,7,7,5,1.2,1.3
2025-04-23T1600,2378A,116.3565,27.963,抚州市,血防站,颗粒物(PM10),53,56,41,21,20,113,,98,98,2,3,1,4,0.4,0.8
2025-04-23T1600,2379A,116.3564,28.0007,抚州市,采茶剧团,颗粒物(PM10),52,53,33,15,20,112,,99,99,2,2,3,3,1.0,1.1
2025-04-23T1600,2380A,116.385,27.9647,抚州市,医学分院,,49,49,33,18,18,109,,94,94,2,3,3,4,0.7,1
2025-04-23T1600,2207A,121.6094,41.998,阜新市,工业园区,颗粒物(PM10),90,130,48,3,18,99,,94,94,9,16,8,19,0.3,0.5
2025-04-23T1600,2208A,121.6697,42.0279,阜新市,长青街,颗粒物(PM10),70,90,41,6,17,96,,94,94,7,18,5,18,0.3,0.5
2025-04-23T1600,2209A,121.6673,42.0705,阜新市,农业园区,颗粒物(PM10),77,103,43,7,13,95,,94,94,8,16,6,17,0.2,0.4
2025-04-23T1600,2210A,121.6717,42.0224,阜新市,东苑,颗粒物(PM10),86,121,47,8,17,98,,94,94,6,19,8,22,0.4,0.5
2025-04-23T1600,2211A,121.6506,42.0498,阜新市,玉龙新城,颗粒物(PM10),84,118,44,6,15,96,,96,96,7,18,8,16,0.4,0.5
2025-04-23T1600,2301A,115.8277,32.8929,阜阳市,市监测站,颗粒物(PM10),98,146,71,46,32,138,,126,126,8,17,8,8,0.3,0.3
2025-04-23T1600,2303A,115.8554,32.8605,阜阳市,开发区,颗粒物(PM10),111,171,94,32,24,142,,127,127,9,20,6,7,0.4,0.4
2025-04-23T1600,2875A,115.784,32.8892,阜阳市,阜阳职业技术学院,颗粒物(PM10),100,150,76,40,29,136,,125,125,6,18,5,5,0.4,0.3
2025-04-23T1600,3468A,115.7901,32.8613,阜阳市,市规划展馆,颗粒物(PM10),160,269,87,32,19,146,,130,130,7,16,7,8,0.5,0.4
2025-04-23T1600,3469A,115.836,32.9183,阜阳市,枣园社区,颗粒物(PM10),95,140,97,41,19,143,,131,131,7,20,10,10,0.3,0.3
2025-04-23T1600,2669A,102.9099,34.9841,甘南藏族自治州,州政府,细颗粒物(PM2.5),80,61,45,59,27,89,,74,74,2,12,8,9,0.3,0.3
2025-04-23T1600,3380A,102.8914,34.9617,甘南藏族自治州,甘肃民族师范学院,,48,48,45,22,18,99,,82,82,7,13,10,8,0.4,0.4
2025-04-23T1600,2570A,101.9603,30.0475,甘孜藏族自治州,水桥子,,24,7,17,3,10,75,,55,55,10,13,5,4,0.4,0.4
2025-04-23T1600,3065A,101.9533,29.9972,甘孜藏族自治州,州环保局,,23,7,21,3,6,71,,56,56,14,14,2,1,0.5,0.4
2025-04-23T1600,3414A,115.8347,28.932,赣江新区,桑海产业园,,39,39,42,23,32,113,,100,100,6,12,4,2,0.5,0.5
2025-04-23T1600,2362A,114.9017,25.9149,赣州市,通天岩,,24,24,22,3,6,68,,71,71,5,5,2,2,1.0,0.9
2025-04-23T1600,2363A,114.9367,25.8664,赣州市,地委,,22,16,22,9,11,69,,76,76,6,6,1,4,1.1,1
2025-04-23T1600,2364A,114.9461,25.8481,赣州市,气象台,,23,23,26,3,9,66,,74,74,13,10,7,8,0.8,0.8
2025-04-23T1600,2365A,114.9322,25.8333,赣州市,市图书馆,,22,,16,12,12,70,,75,75,7,6,4,4,0.9,0.8
2025-04-23T1600,2366A,114.8905,25.8471,赣州市,华坚鞋城,,19,16,20,8,11,59,,68,68,14,7,4,4,0.7,0.5
2025-04-23T1600,3109A,115.0093,25.8613,赣州市,赣县区卫计委,,22,17,15,8,8,68,,68,68,6,5,4,4,0.6,0.5
2025-04-23T1600,2683A,106.2319,36.1417,固原市,马园,,37,37,89,3,41,116,,95,95,11,38,5,6,0.4,0.6
2025-04-23T1600,2684A,106.2792,36.0022,固原市,监测站,,36,23,66,7,24,115,,97,97,4,21,5,6,0.5,0.6
2025-04-23T1600,2685A,106.2375,36.0211,固原市,新区,,35,31,71,17,24,111,,98,98,5,37,5,5,0.3,0.5
2025-04-23T1600,3522A,106.2177,35.9959,固原市,原州区十五小,,37,28,62,11,25,117,,106,106,4,18,7,8,0.1,0.2
2025-04-23T1600,2543A,106.6308,30.5278,广安市,小平旧居,,,,,,,,,,,,,,,,
2025-04-23T1600,2544A,106.6303,30.4576,广安市,市委,颗粒物(PM10),88,126,66,44,24,104,,76,76,6,10,4,4,0.3,0.4
2025-04-23T1600,2545A,106.6271,30.4663,广安市,友谊中学,颗粒物(PM10),74,98,51,37,21,103,,75,75,10,12,1,2,0.4,0.4
2025-04-23T1600,2547A,106.6388,30.4551,广安市,广电花园,颗粒物(PM10),74,97,54,47,23,105,,75,75,8,12,4,4,0.3,0.3
2025-04-23T1600,2902A,106.6351,30.4865,广安市,北辰小学,颗粒物(PM10),100,149,64,42,23,110,,81,81,9,11,3,3,0.3,0.3
2025-04-23T1600,2523A,105.8945,32.4535,广元市,黑石坡,颗粒物(PM10),66,81,125,8,38,113,,90,90,5,7,2,3,0.3,0.3
2025-04-23T1600,2524A,105.821,32.4444,广元市,老城,颗粒物(PM10),51,52,108,7,42,126,,93,93,6,19,1,2,0.6,0.7
2025-04-23T1600,2526A,105.8628,32.4287,广元市,监测站,,48,48,90,19,41,124,,91,91,6,11,8,8,0.3,0.4
2025-04-23T1600,3617A,105.8047,32.4166,广元市,经开区,颗粒物(PM10),60,70,125,33,55,132,,99,99,7,24,7,13,0.4,0.5
2025-04-23T1600,1345A,113.2347,23.1423,广州市,广雅中学,,48,46,39,22,20,152,,103,103,12,16,4,3,0.5,0.4
2025-04-23T1600,1346A,113.2612,23.105,广州市,市五中,,46,41,34,25,21,145,,104,104,8,12,2,2,0.6,0.5
2025-04-23T1600,1348A,113.3478,23.0916,广州市,广东商学院,,49,44,40,33,21,156,,104,104,11,26,4,3,0.4,0.5
2025-04-23T1600,1349A,113.4332,23.1047,广州市,市八十六中,,,,41,,20,120,,101,101,46,38,5,4,0.3,0.5
2025-04-23T1600,1350A,113.3505,22.9483,广州市,番禺中学,,49,42,34,32,22,154,,106,106,13,15,5,5,0.5,0.5
2025-04-23T1600,1351A,113.2146,23.3916,广州市,花都师范,臭氧1小时,82,69,50,42,28,185,,113,113,16,22,4,4,0.8,0.8
2025-04-23T1600,1352A,113.2597,23.1331,广州市,市监测站,,42,42,35,26,21,126,,88,88,14,16,6,6,0.5,0.5
2025-04-23T1600,1353A,113.5618,23.312,广州市,九龙镇镇龙,臭氧1小时,88,64,46,38,26,190,,102,102,23,28,6,6,0.5,0.5
2025-04-23T1600,1354A,113.2765,23.1544,广州市,麓湖,臭氧1小时,54,40,35,23,20,163,,110,110,10,15,4,4,0.5,0.4
2025-04-23T1600,1355A,113.443,23.3035,广州市,帽峰山森林公园,,,48,35,,19,,,24,,,25,,7,,0.8
2025-04-23T1600,2846A,113.3221,23.1322,广州市,体育西,,,,40,,26,162,,105,105,13,24,4,4,0.2,0.3
2025-04-23T1600,3298A,113.5717,23.5491,广州市,从化街口,,,,43,,26,,,67,,,20,,10,,0.6
2025-04-23T1600,3299A,113.3472,23.3692,广州市,白云竹料,臭氧1小时,93,65,49,36,26,194,,117,117,17,27,3,3,0.6,0.6
2025-04-23T1600,3300A,113.2981,23.237,广州市,白云嘉禾,臭氧1小时,54,55,45,33,26,163,,105,105,18,27,5,5,0.7,0.7
2025-04-23T1600,3301A,113.4256,23.1716,广州市,黄埔科学城,,49,49,47,26,24,144,,96,96,20,27,8,7,0.4,0.4
2025-04-23T1600,3302A,113.3942,23.0483,广州市,番禺大学城,,49,41,36,24,20,155,,107,107,21,24,6,6,0.5,0.5
2025-04-23T1600,3303A,113.4922,22.8168,广州市,南沙黄阁,颗粒物(PM10),58,66,36,23,19,106,,76,76,12,17,5,4,0.3,0.5
2025-04-23T1600,3304A,113.5342,22.7896,广州市,南沙街,,40,40,34,16,19,95,,67,67,9,14,4,4,0.6,0.6
2025-04-23T1600,3443A,113.2902,23.5544,广州市,花都梯面,细颗粒物(PM2.5),59,63,48,42,27,122,,70,70,17,20,5,4,0.6,0.5
2025-04-23T1600,3445A,113.7858,23.7478,广州市,从化良口,细颗粒物(PM2.5),64,46,40,46,33,143,,80,80,10,12,7,6,0.3,0.3
2025-04-23T1600,3446A,113.8051,23.2614,广州市,增城荔城,臭氧1小时,78,50,36,34,24,182,,111,111,12,14,8,7,0.3,0.3
2025-04-23T1600,2505A,109.568,23.1478,贵港市,德智高中,,,,,,,,,,,,,,,,
2025-04-23T1600,2506A,109.6047,23.0666,贵港市,江南子站,颗粒物(PM10),54,58,44,32,23,96,,75,75,13,14,5,5,0.8,0.6
2025-04-23T1600,2508A,109.5669,23.1065,贵港市,荷城子站,颗粒物(PM10),57,64,47,22,18,81,,59,59,14,15,7,5,0.4,0.4
2025-04-23T1600,3405A,109.5886,23.1172,贵港市,新世纪学校,"颗粒物(PM10),细颗粒物(PM2.5)",53,56,41,37,21,88,,65,65,15,13,8,7,0.6,0.5
2025-04-23T1600,4260A,109.5933,23.0951,贵港市,中山路155-3号,细颗粒物(PM2.5),55,47,43,39,28,92,,68,68,13,14,7,6,0.8,0.7
2025-04-23T1600,1439A,106.6899,26.5998,贵阳市,马鞍山,颗粒物(PM10),57,63,36,29,11,57,,54,54,13,10,3,3,0.4,0.3
2025-04-23T1600,1441A,106.6243,26.6266,贵阳市,鉴湖路,颗粒物(PM10),57,63,43,24,17,62,,66,65,10,10,11,11,0.4,0.3
2025-04-23T1600,1442A,106.7487,26.6343,贵阳市,燕子冲,颗粒物(PM10),56,61,34,34,22,54,,56,56,14,11,3,2,0.4,0.4
2025-04-23T1600,1443A,106.6555,26.4365,贵阳市,碧云窝,颗粒物(PM10),63,75,44,27,15,67,,62,62,18,13,5,4,0.4,0.4
2025-04-23T1600,1445A,106.7109,26.6027,贵阳市,红边门,颗粒物(PM10),63,75,41,36,21,58,,61,61,6,13,5,3,0.2,0.2
2025-04-23T1600,1446A,106.7164,26.5699,贵阳市,新华路,颗粒物(PM10),59,68,34,39,23,58,,60,60,13,9,4,3,0.6,0.4
2025-04-23T1600,1447A,106.674,26.5424,贵阳市,太慈桥,颗粒物(PM10),58,66,33,29,16,63,,61,61,14,13,5,5,0.2,0.2
2025-04-23T1600,1552A,106.805,26.3003,贵阳市,桐木岭,颗粒物(PM10),64,78,45,36,21,83,,77,77,4,4,23,18,0.6,0.6
2025-04-23T1600,4230A,106.6882,26.5695,贵阳市,花果园大街66号,颗粒物(PM10),59,68,36,38,22,59,,59,59,14,13,4,4,0.3,0.3
2025-04-23T1600,4231A,106.6873,26.5169,贵阳市,漓江路57号,,,75,37,29,17,66,,67,67,13,10,7,8,,0.3
2025-04-23T1600,1862A,110.4144,25.3167,桂林市,电子科大尧山校区,,,,,,,,,,,,,,,,
2025-04-23T1600,1864A,110.3089,25.2708,桂林市,龙隐路小学,颗粒物(PM10),55,59,42,23,16,91,,80,80,8,7,14,14,0.5,0.5
2025-04-23T1600,1865A,110.2869,25.2178,桂林市,八中,颗粒物(PM10),60,70,41,24,13,85,,74,74,15,14,7,5,0.4,0.8
2025-04-23T1600,3531A,110.296,25.1253,桂林市,旅游学院,颗粒物(PM10),51,51,34,24,16,80,,79,69,12,10,7,3,0.7,0.7
2025-04-23T1600,4222A,110.1835,25.2444,桂林市,环湖路276号,颗粒物(PM10),53,56,43,29,23,84,,84,80,8,8,9,11,0.4,0.4
2025-04-23T1600,4301A,110.2803,25.2773,桂林市,信义路13号,颗粒物(PM10),58,66,43,16,17,87,,89,81,14,12,5,4,0.6,0.6
2025-04-23T1600,2674A,100.2561,34.4714,果洛藏族自治州,玛沁县大武镇,,34,34,38,11,18,106,,95,95,2,2,20,19,0.3,0.4
2025-04-23T1600,1129A,126.5422,45.755,哈尔滨市,岭北,,39,38,22,27,13,118,,111,111,13,16,12,13,0.8,0.7
2025-04-23T1600,1130A,126.561,45.8167,哈尔滨市,松北商大,细颗粒物(PM2.5),57,51,25,40,13,112,,98,98,10,14,6,9,0.5,0.5
2025-04-23T1600,1131A,126.979,45.5419,哈尔滨市,阿城会宁,,,58,33,30,14,130,,106,106,11,15,,4,0.6,0.4
2025-04-23T1600,1132A,126.599,45.7222,哈尔滨市,南岗学府路,颗粒物(PM10),62,74,35,22,11,111,,96,96,14,18,8,8,0.5,0.4
2025-04-23T1600,1133A,126.689,45.7733,哈尔滨市,太平宏伟公园,颗粒物(PM10),60,69,41,33,18,120,,103,103,15,28,6,6,0.7,0.8
2025-04-23T1600,1134A,126.635,45.7667,哈尔滨市,道外承德广场,颗粒物(PM10),54,57,27,29,17,104,,91,91,16,20,7,7,0.6,0.5
2025-04-23T1600,1135A,126.685,45.7319,哈尔滨市,香坊红旗大街,颗粒物(PM10),67,83,41,44,14,109,,55,,16,26,7,8,0.6,0.6
2025-04-23T1600,1136A,126.6411,45.7258,哈尔滨市,动力和平路,细颗粒物(PM2.5),79,70,31,58,21,102,,89,89,17,23,9,9,0.4,0.4
2025-04-23T1600,1137A,126.593,45.7478,哈尔滨市,道里建国路,颗粒物(PM10),60,69,28,36,16,106,,98,98,18,22,14,9,0.4,0.9
2025-04-23T1600,1138A,126.615,45.61,哈尔滨市,平房东轻厂,颗粒物(PM10),64,78,26,23,11,117,,102,102,9,8,10,9,0.6,0.6
2025-04-23T1600,1139A,126.595,45.9855,哈尔滨市,呼兰师专,,,,,,,,,,,,,,,,
2025-04-23T1600,1140A,126.6206,45.6842,哈尔滨市,省农科院,颗粒物(PM10),68,86,39,43,18,99,,90,90,22,29,4,7,0.5,0.4
2025-04-23T1600,2688A,93.5128,42.8172,哈密市,地区监测站,,35,,38,16,13,110,,88,88,7,14,3,3,0.2,0.3
2025-04-23T1600,2689A,93.4961,42.8328,哈密市,哈密师范学校,,32,12,30,3,6,102,,83,83,6,15,6,5,0.3,0.3
2025-04-23T1600,2671A,100.9048,36.9639,海北藏族自治州,海晏县西海镇,颗粒物(PM10),55,60,53,23,26,114,,108,108,8,6,10,10,0.6,0.4
2025-04-23T1600,3867A,102.0738,36.5056,海东市,平安区公安北苑,,,41,65,18,23,117,,,,3,5,6,11,,0.7
2025-04-23T1600,1409A,110.576,19.9507,海口市,东寨港,,42,42,26,20,15,75,,66,66,4,5,6,5,0.4,0.5
2025-04-23T1600,1410A,110.3232,20.0574,海口市,海南大学,,35,26,28,14,14,112,,77,77,8,15,3,2,0.4,0.4
2025-04-23T1600,1411A,110.283,20.0053,海口市,秀英海南医院,,38,38,31,18,16,110,,77,77,25,20,5,5,0.3,0.3
2025-04-23T1600,1412A,110.338,19.9969,海口市,海南师范大学,,38,32,32,16,16,119,,89,89,12,12,4,4,0.3,0.4
2025-04-23T1600,1413A,110.33,20.0356,海口市,龙华路环保局宿舍,,35,32,31,17,17,111,,83,83,7,11,5,4,0.3,0.3
2025-04-23T1600,3539A,110.5111,19.9736,海口市,桂林洋子站,,34,26,26,15,16,108,,80,80,8,11,4,4,0.2,0.2
2025-04-23T1600,2673A,100.6188,36.2866,海南藏族自治州,共和县恰卜恰镇,,,,83,,47,124,,110,110,3,13,,16,0.3,0.5
2025-04-23T1600,2676A,97.3731,37.3753,海西蒙古族藏族自治州,德令哈市,颗粒物(PM10),51,52,76,11,22,119,,107,107,2,3,11,13,0.3,0.4
2025-04-23T1600,1048A,114.5302,36.6116,邯郸市,东污水处理厂,颗粒物(PM10),76,102,71,24,20,113,,86,86,13,27,2,4,0.3,0.5
2025-04-23T1600,1049A,114.4918,36.5713,邯郸市,矿院,,,58,56,29,28,106,,77,77,,23,4,4,0.3,0.6
2025-04-23T1600,1050A,114.484,36.6133,邯郸市,丛台公园,颗粒物(PM10),54,58,63,17,20,121,,97,97,8,19,5,8,0.3,0.6
2025-04-23T1600,3458A,114.7895,36.5593,邯郸市,香泉濮院小区,颗粒物(PM10),74,97,79,15,14,147,,106,106,6,16,6,7,0.2,0.4
2025-04-23T1600,3579A,114.50634,36.77178,邯郸市,永年区实验高中,颗粒物(PM10),81,111,73,30,23,146,,104,104,6,19,8,9,0.4,0.8
2025-04-23T1600,3580A,114.20016,36.44293,邯郸市,峰峰矿区临水派出所,颗粒物(PM10),61,72,70,30,26,133,,108,108,7,10,5,7,0.4,0.5
2025-04-23T1600,2634A,106.9893,33.1842,汉中市,汉川机床厂子校,颗粒物(PM10),82,114,141,32,41,139,,100,100,6,10,9,8,0.7,0.5
2025-04-23T1600,2635A,107.0154,33.0706,汉中市,市监测站,颗粒物(PM10),81,112,143,43,48,139,,96,96,7,17,8,11,0.7,0.8
2025-04-23T1600,2636A,107.0089,33.1138,汉中市,鑫源开发区,颗粒物(PM10),80,109,145,44,61,135,,104,104,8,21,7,11,0.6,0.7
2025-04-23T1600,2637A,107.007,33.0323,汉中市,南郑大河坎水厂,,,,133,,51,126,,89,89,7,17,5,5,,0.7
2025-04-23T1600,1223A,120.2072,30.2111,杭州市,滨江,臭氧1小时,75,46,54,21,29,180,,136,136,24,21,7,6,0.6,0.7
2025-04-23T1600,1224A,120.0633,30.2747,杭州市,西溪,,48,26,37,13,33,153,,114,114,11,12,5,4,0.6,0.8
2025-04-23T1600,1226A,120.3417,30.3150,杭州市,下沙,臭氧1小时,75,46,46,19,25,180,,133,133,17,30,6,6,0.5,0.6
2025-04-23T1600,1227A,120.1269,30.2456,杭州市,卧龙桥,臭氧1小时,80,32,41,17,32,184,,138,138,17,16,6,6,0.6,0.6
2025-04-23T1600,1228A,120.1903,30.2692,杭州市,浙江农大,臭氧1小时,78,38,46,26,35,182,,140,140,22,23,2,2,0.4,0.5
2025-04-23T1600,1230A,120.1197,30.3119,杭州市,和睦小学,臭氧1小时,79,40,47,21,27,183,,145,145,15,18,7,6,0.6,0.6
2025-04-23T1600,1231A,120.3019,30.4183,杭州市,临平镇,臭氧1小时,80,60,49,26,42,184,,140,140,13,20,6,6,0.6,0.6
2025-04-23T1600,1232A,120.2753,30.1839,杭州市,城厢镇,臭氧1小时,100,40,45,23,37,200,,146,146,19,20,7,6,0.4,0.5
2025-04-23T1600,1233A,120.0883,30.1808,杭州市,云栖,臭氧1小时,73,37,46,13,25,178,,132,132,16,18,10,10,0.5,0.7
2025-04-23T1600,3557A,119.9464,30.0494,杭州市,镇二中,,48,21,40,8,29,153,,138,138,18,17,3,2,0.4,0.6
2025-04-23T1600,3558A,119.7183,30.2367,杭州市,市府大楼,,49,22,44,14,33,156,,127,127,13,13,7,7,0.4,0.6
2025-04-23T1600,3656A,120.1556,30.2864,杭州市,消防大队,臭氧1小时,73,36,47,17,36,178,,136,136,17,24,4,4,0.7,0.8
2025-04-23T1600,1270A,117.1959,31.7848,合肥市,明珠广场,颗粒物(PM10),79,107,86,31,48,168,,140,140,8,19,1,2,0.3,0.6
2025-04-23T1600,1271A,117.3072,31.8764,合肥市,三里街,颗粒物(PM10),87,124,88,34,39,155,,131,131,7,17,6,5,0.4,0.6
2025-04-23T1600,1272A,117.2588,31.8707,合肥市,琥珀山庄,颗粒物(PM10),117,183,91,21,37,158,,135,135,11,21,4,3,0.3,0.6
2025-04-23T1600,1273A,117.1604,31.9052,合肥市,董铺水库,颗粒物(PM10),80,109,81,22,39,149,,124,124,5,12,2,3,0.3,0.5
2025-04-23T1600,1274A,117.25,31.8571,合肥市,长江中路,颗粒物(PM10),91,132,98,35,46,156,,135,135,9,16,9,7,0.4,0.6
2025-04-23T1600,1275A,117.266,31.9436,合肥市,庐阳区,颗粒物(PM10),82,114,83,27,48,156,,133,133,10,16,6,6,0.3,0.6
2025-04-23T1600,1276A,117.3453,31.8616,合肥市,瑶海区,颗粒物(PM10),91,132,95,32,49,148,,126,126,9,21,7,6,0.3,0.6
2025-04-23T1600,1277A,117.3027,31.7964,合肥市,包河区,,,114,85,29,49,142,,114,114,,28,,6,,0.6
2025-04-23T1600,1278A,117.2776,31.7385,合肥市,滨湖新区,颗粒物(PM10),79,107,84,31,56,152,,123,123,4,25,9,7,0.4,0.6
2025-04-23T1600,1279A,117.1318,31.8403,合肥市,高新区,颗粒物(PM10),85,119,86,27,50,150,,127,127,9,13,3,2,0.4,0.7
2025-04-23T1600,3464A,117.3803,31.9147,合肥市,高教基地,颗粒物(PM10),84,117,90,14,28,159,,141,141,22,22,8,5,0.4,0.5
2025-04-23T1600,3614A,79.924,37.0877,和田地区,地区环保局,颗粒物(PM10),500,644,576,170,160,76,,57,57,5,11,1,2,0.3,0.3
2025-04-23T1600,3615A,79.9131,37.113,和田地区,市环保局,颗粒物(PM10),500,641,514,159,127,83,,66,66,2,7,1,2,0.2,0.2
2025-04-23T1600,2516A,108.2011,24.715,河池市,东仁乐园,,,,,,,,,,,,,,,,
2025-04-23T1600,2517A,108.0497,24.6947,河池市,市环保站,,24,24,9,9,6,68,,57,57,6,6,6,5,0.4,0.5
2025-04-23T1600,2518A,108.0983,24.6989,河池市,市疾控中心,,43,43,16,12,7,76,,65,65,7,10,7,6,0.4,0.5
2025-04-23T1600,1696A,114.6778,23.7569,河源市,源西,颗粒物(PM10),54,57,36,30,26,103,,74,74,15,18,3,4,0.5,0.5
2025-04-23T1600,1697A,114.6944,23.7586,河源市,东埔,,46,,37,32,26,103,,73,73,16,19,3,4,0.7,0.5
2025-04-23T1600,1698A,114.6892,23.7233,河源市,老城,颗粒物(PM10),55,60,39,38,30,104,,73,73,10,16,3,4,0.5,0.5
2025-04-23T1600,1718A,115.4208,35.2464,菏泽市,气象局,颗粒物(PM10),101,151,96,41,38,163,,125,125,9,25,6,5,0.4,0.4
2025-04-23T1600,3374A,115.5564,35.0891,菏泽市,定陶老年大学,颗粒物(PM10),95,139,87,41,27,167,,129,129,13,20,7,7,0.5,0.4
2025-04-23T1600,4184A,115.4797,35.24401,菏泽市,永昌路1号,颗粒物(PM10),89,128,91,61,41,147,,110,110,13,29,7,7,0.3,0.3
2025-04-23T1600,4193A,115.4715,35.2800,菏泽市,长城路999号,颗粒物(PM10),97,143,93,40,29,165,,127,127,14,27,11,9,0.3,0.3
2025-04-23T1600,2514A,111.5264,24.4172,贺州市,环保小区,,37,37,29,21,16,80,,71,71,9,10,7,7,0.8,0.7
2025-04-23T1600,2515A,111.5608,24.4078,贺州市,政协大楼,,36,31,27,25,18,80,,72,72,13,12,9,8,0.8,0.4
2025-04-23T1600,3534A,111.4744,24.4553,贺州市,西湾,,34,34,23,19,14,70,,67,67,10,9,8,8,0.7,0.6
2025-04-23T1600,2385A,114.17,35.9019,鹤壁市,市监测站,,,,65,,25,,,123,,,15,,4,,0.4
2025-04-23T1600,2386A,114.2956,35.7511,鹤壁市,市交警支队,颗粒物(PM10),81,111,76,34,22,159,,111,111,9,25,8,8,0.7,0.6
2025-04-23T1600,2387A,114.2878,35.7306,鹤壁市,迎宾馆,颗粒物(PM10),84,117,85,20,22,163,,112,112,11,24,6,4,0.5,0.5
2025-04-23T1600,3474A,114.2617,35.6822,鹤壁市,大新区,颗粒物(PM10),84,118,84,29,27,154,,106,106,9,34,10,9,0.4,0.5
2025-04-23T1600,3596A,114.1572,35.9603,鹤壁市,南山宾馆,颗粒物(PM10),66,81,67,39,33,161,,132,132,10,10,5,4,0.4,0.4
2025-04-23T1600,2244A,130.2537,47.3416,鹤岗市,哈啤分公司,,30,20,35,16,22,94,,88,88,7,8,15,14,0.3,0.3
2025-04-23T1600,2245A,130.2684,47.3086,鹤岗市,斯达机电,,30,25,31,16,21,95,,88,88,8,6,13,11,0.1,0.1
2025-04-23T1600,2246A,130.3114,47.3388,鹤岗市,东山纸板厂,颗粒物(PM10),87,124,68,24,26,96,,86,86,7,14,13,13,0.2,0.8
2025-04-23T1600,2247A,130.1097,47.3382,鹤岗市,五号水库,,,,,,,,,,,,,,,,
2025-04-23T1600,2263A,127.4833,50.2524,黑河市,交通局,,45,45,53,17,39,82,,78,78,10,10,7,7,0.2,0.3
2025-04-23T1600,2264A,127.5144,50.2341,黑河市,环保局,,27,24,37,15,36,84,,81,81,9,7,4,3,0.3,0.3
2025-04-23T1600,2265A,127.5291,50.2472,黑河市,大黑河岛,,,,,,,,,,,,,,,,
2025-04-23T1600,1074A,115.6838,37.7541,衡水市,电机北厂,颗粒物(PM10),97,143,77,50,25,146,,114,114,8,18,8,6,0.3,0.3
2025-04-23T1600,1075A,115.6303,37.7316,衡水市,市监测站,,,111,71,34,18,146,,114,114,7,23,,4,0.3,0.3
2025-04-23T1600,3188A,115.6683,37.7217,衡水市,市城管局,颗粒物(PM10),96,141,70,42,23,143,,110,110,9,22,6,7,0.3,0.4
2025-04-23T1600,3459A,115.5989,37.5491,衡水市,地表水厂,颗粒物(PM10),84,117,80,34,22,156,,118,118,9,31,12,10,0.3,0.3
2025-04-23T1600,2456A,112.5003,26.9167,衡阳市,原169医院,,41,41,49,26,24,78,,86,86,9,9,5,5,0.6,0.6
2025-04-23T1600,2457A,112.6194,26.9258,衡阳市,衡阳化工总厂,细颗粒物(PM2.5),59,54,67,42,35,76,,64,64,8,11,4,6,0.6,0.6
2025-04-23T1600,2458A,112.6211,26.8956,衡阳市,珠晖区环保局,颗粒物(PM10),52,54,58,30,25,70,,59,59,12,14,9,7,0.7,0.7
2025-04-23T1600,2459A,112.6197,26.8733,衡阳市,市委党校,,,59,63,,,77,,60,60,9,13,3,4,0.3,0.7
2025-04-23T1600,2460A,112.6006,26.8919,衡阳市,市监测站,,50,50,59,34,30,80,,68,68,8,12,8,9,0.7,0.7
2025-04-23T1600,2461A,112.5664,26.9056,衡阳市,真空机电公司,颗粒物(PM10),54,57,57,27,23,80,,76,76,4,9,4,4,0.6,0.7
2025-04-23T1600,3399A,112.6703,26.882,衡阳市,师范学院,颗粒物(PM10),57,63,64,35,33,74,,66,66,14,13,7,7,0.7,0.7
2025-04-23T1600,2608A,103.3772,23.3993,红河哈尼族彝族自治州,污水处理厂,,50,47,38,35,31,116,,109,109,4,9,6,5,0.3,0.4
2025-04-23T1600,2609A,103.3861,23.35,红河哈尼族彝族自治州,监测站,颗粒物(PM10),64,77,49,41,26,116,,111,111,5,7,5,7,0.3,0.2
2025-04-23T1600,3038A,103.3758,23.368,红河哈尼族彝族自治州,州图书馆,,38,38,35,23,25,107,,102,102,4,6,6,4,0.3,0.3
2025-04-23T1600,1090A,111.6507,40.7517,呼和浩特市,呼市一监,,34,24,69,3,19,106,,108,108,2,8,3,7,0.3,0.3
2025-04-23T1600,1091A,111.6572,40.8033,呼和浩特市,小召,,33,22,80,3,21,104,,107,107,7,23,6,9,0.3,0.4
2025-04-23T1600,1094A,111.7516,40.8369,呼和浩特市,如意水处理厂,,30,19,60,3,20,96,,99,99,3,28,6,8,0.4,0.5
2025-04-23T1600,1095A,111.7276,40.8062,呼和浩特市,二十九中,,31,25,72,3,24,99,,100,100,1,20,3,5,0.2,0.3
2025-04-23T1600,1096A,111.5512,40.7866,呼和浩特市,工大金川校区,,32,22,71,3,20,101,,103,103,5,23,5,8,0.4,0.5
2025-04-23T1600,1097A,111.717,40.7612,呼和浩特市,化肥厂生活区,,31,26,70,3,20,99,,102,102,5,16,7,10,0.2,0.4
2025-04-23T1600,3698A,111.5968,40.8178,呼和浩特市,红旗小学,,33,17,69,3,18,104,,107,107,5,30,3,5,0.2,0.3
2025-04-23T1600,3699A,111.6518,40.8389,呼和浩特市,海东办,,33,22,69,3,21,105,,108,108,2,25,6,7,0.4,0.5
2025-04-23T1600,2192A,119.7594,49.2261,呼伦贝尔市,区环保局,,39,39,46,16,21,75,,73,73,5,8,5,5,0.2,0.3
2025-04-23T1600,3061A,119.7512,49.1577,呼伦贝尔市,国华电力东,,31,31,34,9,11,75,,74,74,4,6,4,4,0.2,0.2
2025-04-23T1600,1250A,120.0751,30.8669,湖州市,城西水厂,,48,48,59,18,37,144,,122,122,27,33,6,7,0.4,0.5
2025-04-23T1600,2873A,120.0830,30.8929,湖州市,仁皇山新区,臭氧1小时,53,54,53,17,34,162,,136,136,15,22,5,4,0.8,0.8
2025-04-23T1600,2907A,120.1844,30.8596,湖州市,吴兴区站,臭氧1小时,65,57,45,19,31,172,,135,135,11,21,7,6,0.3,0.3
2025-04-23T1600,3562A,120.4148,30.8538,湖州市,南浔区站,臭氧1小时,65,71,46,23,22,172,,144,144,15,17,4,4,0.5,0.5
2025-04-23T1600,1607A,120.9049,40.7211,葫芦岛市,龙港区,颗粒物(PM10),59,67,44,36,24,148,,100,100,22,18,12,11,0.7,0.6
2025-04-23T1600,1608A,120.8392,40.7514,葫芦岛市,化工街,颗粒物(PM10),93,136,53,58,24,126,,92,92,47,39,77,16,1.0,0.7
2025-04-23T1600,1609A,120.8341,40.7073,葫芦岛市,新区,细颗粒物(PM2.5),63,74,38,45,26,149,,99,99,24,27,11,11,0.8,0.7
2025-04-23T1600,1610A,120.8695,40.7677,葫芦岛市,东城区,细颗粒物(PM2.5),70,85,46,51,28,125,,88,88,32,32,12,11,0.8,0.7
2025-04-23T1600,2482A,109.5981,27.5721,怀化市,林科所,颗粒物(PM10),52,54,62,27,23,53,,44,44,9,6,10,10,0.5,0.5
2025-04-23T1600,2483A,109.9453,27.5444,怀化市,河西地税局,,43,43,59,28,26,66,,52,52,10,12,10,11,0.5,0.5
2025-04-23T1600,2484A,109.9781,27.5342,怀化市,市四医院,,46,46,65,31,26,76,,56,56,5,6,5,6,0.6,0.4
2025-04-23T1600,2485A,109.9972,27.5578,怀化市,监测楼,,48,48,65,26,26,75,,53,53,5,6,3,3,0.5,0.5
2025-04-23T1600,2486A,110.0394,27.583,怀化市,市委党校,,48,48,61,29,28,74,,50,50,6,8,11,6,0.5,0.5
2025-04-23T1600,1210A,119.036,33.5981,淮安市,钵池山,臭氧1小时,65,75,73,31,40,172,,151,151,13,16,10,9,0.5,0.5
2025-04-23T1600,1211A,119.007,33.575,淮安市,北京南路,"颗粒物(PM10),臭氧1小时",68,85,71,33,43,174,,151,151,13,20,12,9,1.0,0.8
2025-04-23T1600,1212A,118.989,33.6067,淮安市,市监测站,颗粒物(PM10),67,83,70,31,38,172,,148,148,14,21,9,10,0.4,0.8
2025-04-23T1600,1213A,119.135,33.5039,淮安市,楚州区监测站,颗粒物(PM10),70,90,73,33,44,167,,140,140,9,21,9,8,0.6,0.7
2025-04-23T1600,3426A,118.8755,33.2894,淮安市,新华书店,"颗粒物(PM10),臭氧1小时",59,68,66,17,25,167,,142,142,8,19,9,9,0.3,0.5
2025-04-23T1600,4206A,119.0288,33.6319,淮安市,承德北路606号,颗粒物(PM10),69,88,80,31,43,171,,146,146,10,18,9,9,0.4,0.5
2025-04-23T1600,2282A,116.8004,33.975,淮北市,监测站,颗粒物(PM10),108,165,105,43,32,164,,146,146,9,20,8,9,0.7,0.7
2025-04-23T1600,2283A,116.8091,33.9007,淮北市,烈山区政府,颗粒物(PM10),114,178,124,44,44,158,,135,135,10,34,7,8,0.7,0.8
2025-04-23T1600,3330A,116.8873,33.9836,淮北市,杜集区检察院,颗粒物(PM10),114,177,118,45,35,168,,144,144,12,22,,8,0.7,0.8
2025-04-23T1600,4017A,116.7923,33.9535,淮北市,市博物馆,颗粒物(PM10),103,156,112,51,35,163,,146,146,11,25,8,10,0.7,0.7
2025-04-23T1600,2277A,116.8305,32.7727,淮南市,潘集区政府,颗粒物(PM10),82,114,97,36,36,143,,129,129,7,21,5,6,0.4,0.3
2025-04-23T1600,2279A,116.8569,32.5951,淮南市,谢家集区政府,颗粒物(PM10),73,96,82,34,31,149,,126,126,11,17,6,6,0.5,0.5
2025-04-23T1600,2280A,116.8281,32.633,淮南市,八公山区政府,颗粒物(PM10),95,140,93,34,27,147,,132,132,8,9,6,5,0.3,0.3
2025-04-23T1600,2281A,116.6325,32.6201,淮南市,焦岗湖风景区管理处,,,,,,,,,,,,,,,,
2025-04-23T1600,2894A,117.0566,32.6531,淮南市,经济技术开发区消防队,颗粒物(PM10),87,123,84,44,38,152,,142,142,11,19,7,8,0.3,0.4
2025-04-23T1600,3329A,117.0108,32.5893,淮南市,山南新区,颗粒物(PM10),94,137,99,30,26,152,,138,138,7,16,8,9,0.5,0.5
2025-04-23T1600,4209A,117.0031,32.6445,淮南市,国庆中路369号,颗粒物(PM10),90,130,91,37,37,148,,137,137,8,18,9,11,0.2,0.3
2025-04-23T1600,2446A,114.9028,30.4742,黄冈市,职工中心,臭氧1小时,92,60,64,37,47,193,,151,151,17,19,10,7,0.9,0.8
2025-04-23T1600,2929A,114.8858,30.4519,黄冈市,红卫路,臭氧1小时,83,65,67,37,49,186,,145,145,12,5,11,7,0.8,0.8
2025-04-23T1600,3398A,114.9136,30.4445,黄冈市,市林业局,臭氧1小时,90,67,70,30,50,192,,146,146,8,14,12,8,0.7,0.8
2025-04-23T1600,2672A,102.0199,35.5102,黄南藏族自治州,同仁县隆务镇,颗粒物(PM10),61,72,73,29,28,107,,93,93,2,3,7,6,0.3,0.2
2025-04-23T1600,2295A,118.2903,29.6963,黄山市,延安路89号,,37,,26,24,19,118,,109,109,2,4,4,4,0.5,0.7
2025-04-23T1600,2297A,118.1371,30.2756,黄山市,黄山区政府5号楼,颗粒物(PM10),57,64,54,18,26,129,,110,110,6,6,3,3,0.6,0.9
2025-04-23T1600,4210A,118.3354,29.7203,黄山市,滨江东路7-2号,,39,39,37,16,19,121,,111,111,6,8,4,4,0.6,0.8
2025-04-23T1600,2423A,115.0601,30.2313,黄石市,沈家营,臭氧1小时,78,68,72,27,32,182,,150,150,6,14,6,7,0.9,1
2025-04-23T1600,2426A,114.8988,30.2019,黄石市,铁山,颗粒物(PM10),81,111,64,38,45,168,,134,134,15,19,8,7,0.3,0.4
2025-04-23T1600,2427A,115.0307,30.2092,黄石市,团城山,臭氧1小时,77,60,61,25,30,181,,139,139,8,16,10,9,0.6,0.7
2025-04-23T1600,3149A,115.0235,30.1578,黄石市,笔架山北路,臭氧1小时,72,54,60,28,29,177,,139,139,10,11,9,7,0.6,0.9
2025-04-23T1600,4185A,115.0780,30.21118,黄石市,磁湖东路29号,臭氧1小时,100,60,66,39,43,200,,160,160,4,14,7,8,0.8,0.9
2025-04-23T1600,1392A,114.4183,23.0528,惠州市,河南岸金山湖子站,,45,38,29,31,20,138,,94,94,14,18,8,8,0.4,0.3
2025-04-23T1600,1393A,114.4053,23.0822,惠州市,下埔横江三路子站,,47,39,33,21,19,150,,102,102,14,17,8,8,0.6,0.6
2025-04-23T1600,1394A,114.4103,23.1142,惠州市,江北云山西路子站,臭氧1小时,55,39,33,22,20,164,,108,108,10,15,9,10,0.3,0.4
2025-04-23T1600,1395A,114.4645,22.7833,惠州市,惠阳区承修路船湖子站,,36,36,28,22,17,100,,70,70,16,13,8,7,0.4,0.4
2025-04-23T1600,1396A,114.5317,22.7422,惠州市,大亚湾管委会子站,,31,28,29,18,17,99,,64,64,9,13,7,7,0.5,0.5
2025-04-23T1600,3314A,114.4338,22.8134,惠州市,惠阳秋长,,41,41,27,26,17,119,,89,89,16,16,8,9,0.6,0.5
2025-04-23T1600,3452A,114.6517,22.775,惠州市,大亚湾霞涌,,20,19,21,14,16,62,,45,45,12,16,5,6,0.4,0.3
2025-04-23T1600,2240A,130.9762,45.3001,鸡西市,环保局,,31,31,38,17,22,89,,86,86,7,23,6,8,0.2,0.5
2025-04-23T1600,2243A,130.9429,45.3039,鸡西市,第一中学,,28,28,27,18,15,83,,82,82,11,18,8,7,0.4,0.4
2025-04-23T1600,3707A,131.0207,45.3073,鸡西市,欧美日汽修厂,,31,31,46,19,24,90,,85,85,5,17,4,7,0.4,0.6
2025-04-23T1600,3709A,130.9967,45.3106,鸡西市,市政设施管理处,,30,30,36,18,19,85,,82,82,7,22,6,8,0.4,0.5
2025-04-23T1600,2367A,114.9754,27.0803,吉安市,红声器材厂,,35,28,29,17,15,111,,108,108,7,7,11,10,0.6,0.6
2025-04-23T1600,2368A,114.9658,27.0999,吉安市,市森林工业局,,34,27,26,15,16,106,,104,104,5,6,9,9,0.4,0.5
2025-04-23T1600,2369A,114.99,27.1312,吉安市,市环境监测站,,33,19,23,9,12,104,,103,103,3,5,14,12,0.7,0.7
2025-04-23T1600,2370A,115.0093,27.0968,吉安市,青原区法院,,37,22,26,13,18,118,,114,114,6,6,12,12,0.6,0.5
2025-04-23T1600,1772A,126.54,43.8622,吉林市,哈达湾,颗粒物(PM10),68,86,28,39,15,126,,98,98,15,18,10,7,0.7,0.5
2025-04-23T1600,1773A,126.5844,43.8358,吉林市,东局子,细颗粒物(PM2.5),64,,26,46,14,122,,94,94,18,14,9,6,0.8,0.6
2025-04-23T1600,1774A,126.5052,43.8245,吉林市,电力学院,颗粒物(PM10),63,76,32,33,21,126,,99,99,13,19,8,6,0.7,0.6
2025-04-23T1600,1775A,126.6133,43.8972,吉林市,江北,颗粒物(PM10),66,82,29,43,14,123,,101,101,21,14,11,5,0.8,0.6
2025-04-23T1600,1776A,126.555,43.8306,吉林市,江南公园,细颗粒物(PM2.5),74,71,23,54,15,125,,97,97,14,13,9,6,0.7,0.4
2025-04-23T1600,1778A,126.7061,43.7133,吉林市,丰满,,,,,,,,,,,,,,,,
2025-04-23T1600,2868A,126.4739,43.953,吉林市,九站,颗粒物(PM10),64,77,30,28,18,120,,100,100,12,19,11,10,1.1,0.8
2025-04-23T1600,1299A,116.9862,36.6114,济南市,科干所,颗粒物(PM10),63,75,72,29,22,161,,156,156,14,19,8,10,0.3,0.4
2025-04-23T1600,1300A,116.9376,36.665,济南市,农科所,颗粒物(PM10),64,78,84,27,24,160,,142,142,13,34,11,8,0.3,0.4
2025-04-23T1600,1301A,117.1265,36.6734,济南市,开发区,颗粒物(PM10),66,81,73,27,24,167,,156,156,12,20,11,8,0.6,0.5
2025-04-23T1600,1303A,117.0624,36.6868,济南市,省种子仓库,颗粒物(PM10),73,95,99,39,32,166,,153,153,16,32,8,6,0.7,0.8
2025-04-23T1600,1304A,116.9489,36.6447,济南市,机床二厂,颗粒物(PM10),74,98,103,27,25,166,,146,146,14,37,12,9,0.5,0.5
2025-04-23T1600,1305A,117.0495,36.663,济南市,市监测站,颗粒物(PM10),66,81,85,22,24,157,,147,147,10,30,11,9,0.4,0.4
2025-04-23T1600,1306A,116.7675,36.5484,济南市,长清党校,颗粒物(PM10),77,103,86,37,28,177,,150,150,12,24,12,8,0.7,0.6
2025-04-23T1600,1616A,117.6795,36.229,济南市,技术学院,颗粒物(PM10),87,124,74,44,33,181,,140,140,17,45,14,13,0.7,0.8
2025-04-23T1600,1961A,117.532,36.6868,济南市,东山小学,颗粒物(PM10),85,120,76,29,20,182,,153,153,12,29,10,8,0.4,0.3
2025-04-23T1600,3059A,117.7161,36.2049,济南市,泰兴公司,臭氧1小时,80,107,69,31,25,184,,140,140,18,47,12,10,0.6,0.7
2025-04-23T1600,3064A,117.6867,36.2171,济南市,莱芜战役纪念馆,颗粒物(PM10),76,102,69,36,24,180,,140,140,18,44,9,7,0.7,0.6
2025-04-23T1600,3494A,117.1673,36.9782,济南市,济阳区政府,颗粒物(PM10),73,95,92,32,26,176,,148,148,14,33,12,9,0.5,0.4
2025-04-23T1600,3495A,117.1171,36.63,济南市,锦屏中学,臭氧1小时,60,68,64,22,19,168,,156,156,11,17,8,5,0.3,0.3
2025-04-23T1600,3682A,116.9814,36.6819,济南市,济南四建,颗粒物(PM10),65,80,86,32,31,169,,153,153,11,35,9,6,0.4,0.5
2025-04-23T1600,1653A,116.6251,35.4302,济宁市,火炬城,颗粒物(PM10),78,106,74,41,27,173,,129,129,17,24,12,8,0.4,0.3
2025-04-23T1600,1655A,116.5491,35.4042,济宁市,电化厂,颗粒物(PM10),84,117,81,48,31,177,,132,132,14,34,5,5,0.5,0.3
2025-04-23T1600,3500A,116.5814,35.3707,济宁市,北湖一中,颗粒物(PM10),83,116,76,39,17,184,,140,140,16,26,13,7,0.5,0.3
2025-04-23T1600,3501A,116.8249,35.5593,济宁市,服务中心,颗粒物(PM10),83,116,93,43,27,145,,109,109,14,33,5,4,0.6,0.4
2025-04-23T1600,3678A,116.5907,35.4054,济宁市,市第七中学,臭氧1小时,89,126,82,39,23,191,,148,148,3,14,10,8,0.5,0.4
2025-04-23T1600,2255A,130.2751,46.8028,佳木斯市,佳纺,,35,23,41,13,23,109,,93,93,4,18,7,8,0.5,0.5
2025-04-23T1600,2256A,130.3995,46.8307,佳木斯市,发电厂,,48,48,36,16,19,103,,94,94,14,14,4,5,0.2,0.3
2025-04-23T1600,2257A,130.3258,46.7975,佳木斯市,环保局,,36,23,33,18,22,114,,96,96,7,20,4,4,0.4,0.4
2025-04-23T1600,2258A,130.3648,46.8032,佳木斯市,十一中,,32,24,30,16,20,102,,87,87,10,23,7,8,0.5,0.5
2025-04-23T1600,2259A,130.3794,46.7588,佳木斯市,四丰,,30,16,19,10,12,96,,84,84,4,10,1,1,1.0,1
2025-04-23T1600,1252A,120.7436,30.778,嘉兴市,清河小学,颗粒物(PM10),65,80,49,18,23,141,,130,130,12,19,5,5,0.7,0.9
2025-04-23T1600,1253A,120.726,30.7478,嘉兴市,嘉兴学院,颗粒物(PM10),52,54,38,19,23,158,,144,144,11,17,7,6,0.7,0.9
2025-04-23T1600,2872A,120.7846,30.7525,嘉兴市,南湖区残联,,,58,43,25,24,166,,157,157,9,16,6,6,,0.8
2025-04-23T1600,3407A,120.6916,30.7739,嘉兴市,秀洲住建,臭氧1小时,60,63,51,26,26,168,,149,149,8,18,7,7,0.6,0.8
2025-04-23T1600,1945A,98.2908,39.7711,嘉峪关市,气象局,,44,44,38,14,9,125,,107,107,9,10,30,28,0.6,0.4
2025-04-23T1600,2884A,98.2672,39.7978,嘉峪关市,酒钢宾馆,,39,39,45,17,13,115,,102,102,9,10,50,30,0.5,0.4
2025-04-23T1600,3248A,98.2643,39.7724,嘉峪关市,雄关区,,38,30,42,14,15,120,,104,104,14,15,14,13,0.7,0.6
2025-04-23T1600,1383A,113.1064,22.6058,江门市,北街,颗粒物(PM10),54,57,32,35,17,87,,68,68,9,12,2,2,0.3,0.4
2025-04-23T1600,1384A,113.0731,22.5835,江门市,西区,,30,29,30,21,17,89,,74,74,10,11,5,7,0.4,0.4
2025-04-23T1600,1385A,113.0219,22.5311,江门市,圭峰西,颗粒物(PM10),62,74,30,18,14,74,,58,58,9,10,3,3,0.3,0.3
2025-04-23T1600,1386A,113.0828,22.5947,江门市,东湖,,38,38,29,17,17,89,,68,68,9,12,7,7,0.4,0.4
2025-04-23T1600,3311A,113.1075,22.5647,江门市,江海富民,,45,45,35,18,21,80,,65,65,7,8,6,6,0.4,0.4
2025-04-23T1600,3449A,113.05,22.4667,江门市,新会银湖,,36,36,31,13,17,68,,67,67,7,13,2,3,0.3,0.2
2025-04-23T1600,1830A,113.1992,35.2590,焦作市,影视城,,,,160,,46,,,,,,17,,15,,0.7
2025-04-23T1600,3169A,113.2725,35.2067,焦作市,太极体育中心,颗粒物(PM10),107,164,137,58,48,168,,131,131,9,12,6,10,0.2,0.3
2025-04-23T1600,3335A,113.3137,35.2641,焦作市,马村街道办,颗粒物(PM10),101,152,139,71,46,166,,126,126,10,16,10,13,0.4,0.6
2025-04-23T1600,3336A,113.2465,35.2373,焦作市,焦作技师学院,颗粒物(PM10),103,156,150,51,44,166,,126,126,10,15,8,11,0.2,0.5
2025-04-23T1600,3477A,113.1656,35.2539,焦作市,中站许衡医院,颗粒物(PM10),87,123,132,56,46,171,,134,134,12,22,9,14,0.4,0.7
2025-04-23T1600,3981A,113.2449,35.1803,焦作市,原李万街道办,颗粒物(PM10),109,167,146,68,50,169,,124,124,12,20,10,13,0.3,0.4
2025-04-23T1600,4264A,113.2340,35.2190,焦作市,新安路1731号,颗粒物(PM10),105,159,154,63,53,168,,127,127,10,16,6,12,0.4,0.6
2025-04-23T1600,1708A,116.3701,23.5345,揭阳市,新兴,,44,44,33,26,23,96,,80,80,6,9,5,5,0.6,0.6
2025-04-23T1600,1709A,116.3264,23.5443,揭阳市,西马,,44,44,38,30,22,88,,76,76,7,8,6,6,0.6,0.6
2025-04-23T1600,1710A,116.3611,23.5626,揭阳市,东兴,颗粒物(PM10),51,51,38,23,22,100,,80,80,4,6,5,4,0.8,0.9
2025-04-23T1600,1711A,116.4151,23.5294,揭阳市,渔湖,颗粒物(PM10),55,59,29,26,21,101,,84,84,8,8,3,4,0.6,0.7
2025-04-23T1600,3320A,116.403,23.5699,揭阳市,曲溪,,36,22,31,21,20,113,,90,90,6,9,8,8,0.5,0.5
2025-04-23T1600,1944A,102.1692,38.5167,金昌市,天庆家园,,36,17,36,3,11,113,,110,110,2,5,9,7,0.5,0.7
2025-04-23T1600,4022A,102.1647,38.5371,金昌市,金川区人防中心,颗粒物(PM10),52,54,44,6,11,104,,114,114,3,5,7,12,0.5,0.4
2025-04-23T1600,4239A,102.1930,38.5319,金昌市,长春路96号,,35,21,40,6,11,112,,110,110,2,4,14,17,0.6,0.6
2025-04-23T1600,1262A,119.647,29.077,金华市,十五中,,46,38,58,32,40,108,,88,88,27,20,2,2,0.6,0.7
2025-04-23T1600,1263A,119.686,29.1029,金华市,监测站,细颗粒物(PM2.5),57,45,50,40,48,93,,87,87,28,24,4,4,0.7,0.7
2025-04-23T1600,3659A,119.656,29.1131,金华市,气象局,,44,44,51,27,29,94,,83,78,28,24,1,2,0.7,0.6
2025-04-23T1600,1767A,121.1115,41.0879,锦州市,南山,细颗粒物(PM2.5),68,73,42,49,32,121,,84,84,30,33,10,14,0.8,0.6
2025-04-23T1600,1768A,121.0604,40.8428,锦州市,开发区,"颗粒物(PM10),细颗粒物(PM2.5)",59,68,60,42,29,151,,96,96,22,36,8,18,0.7,0.7
2025-04-23T1600,1769A,121.1836,41.1119,锦州市,百股街道,颗粒物(PM10),58,65,41,29,17,122,,81,81,28,28,9,11,0.7,0.6
2025-04-23T1600,1770A,121.1178,41.1222,锦州市,天安街道,颗粒物(PM10),59,67,43,40,25,113,,82,82,28,30,10,12,0.9,0.7
2025-04-23T1600,1771A,121.1303,41.1386,锦州市,北湖公园,颗粒物(PM10),63,75,43,44,28,115,,82,82,24,28,12,12,0.8,0.7
2025-04-23T1600,2160A,112.85,35.5051,晋城市,自来水公司,颗粒物(PM10),58,65,148,14,37,126,,115,115,11,18,7,10,0.5,0.7
2025-04-23T1600,2161A,112.8318,35.4936,晋城市,白云商贸,颗粒物(PM10),61,71,163,12,46,129,,119,119,12,18,6,9,0.4,0.6
2025-04-23T1600,2162A,112.8508,35.4887,晋城市,市环保局,颗粒物(PM10),54,58,155,17,42,122,,111,111,9,16,4,7,0.2,0.4
2025-04-23T1600,2163A,112.8676,35.4897,晋城市,技术学院,颗粒物(PM10),54,57,154,17,47,122,,110,110,10,21,6,9,0.4,0.6
2025-04-23T1600,2165A,112.8453,35.546,晋城市,白马寺,,47,47,131,21,62,131,,120,120,4,9,4,7,0.3,0.4
2025-04-23T1600,3620A,112.8271,35.4828,晋城市,泽州一中,细颗粒物(PM2.5),77,76,172,56,54,131,,121,121,8,15,8,10,0.3,0.5
2025-04-23T1600,2173A,112.7249,37.7067,晋中市,南都小区,颗粒物(PM10),58,65,127,20,36,123,,103,103,8,30,5,23,0.2,0.3
2025-04-23T1600,2174A,112.6991,37.6982,晋中市,榆次区政府,颗粒物(PM10),60,70,130,14,30,123,,101,101,10,32,6,21,0.2,0.6
2025-04-23T1600,2865A,112.7195,37.6828,晋中市,榆次三中,颗粒物(PM10),65,80,143,14,51,126,,119,119,5,38,4,19,0.2,0.6
2025-04-23T1600,4200A,112.7478,37.6954,晋中市,迎宾街26号,颗粒物(PM10),64,78,140,12,41,116,,99,99,6,28,4,19,0.2,0.6
2025-04-23T1600,2439A,112.2014,31.0481,荆门市,竹园小学,颗粒物(PM10),109,167,122,53,43,150,,119,119,11,12,9,6,0,0
2025-04-23T1600,2440A,112.1969,30.9891,荆门市,掇刀,颗粒物(PM10),98,146,99,45,36,137,,114,114,11,18,14,11,0.3,0.3
2025-04-23T1600,2441A,112.2213,31.0386,荆门市,石化一小,颗粒物(PM10),101,151,113,56,40,143,,114,114,11,11,11,10,0.2,0.3
2025-04-23T1600,3012A,112.1849,31.0362,荆门市,西山林语,颗粒物(PM10),107,164,107,46,38,138,,114,114,8,7,11,7,0.2,0.2
2025-04-23T1600,3547A,112.1632,31.0138,荆门市,龙泉中学南校,颗粒物(PM10),100,150,97,57,38,127,,113,113,16,16,11,7,0.5,0.5
2025-04-23T1600,1844A,112.2494,30.3197,荆州市,市图书馆,颗粒物(PM10),56,61,81,37,39,110,,84,84,8,15,5,5,0.4,0.4
2025-04-23T1600,1845A,112.2008,30.3544,荆州市,市委党校,细颗粒物(PM2.5),65,73,88,47,41,99,,79,79,10,11,6,7,0.4,0.5
2025-04-23T1600,3194A,112.2747,30.3122,荆州市,管委会,细颗粒物(PM2.5),55,58,78,39,40,107,,82,82,8,14,6,6,0.5,0.5
2025-04-23T1600,4268A,112.1722,30.3366,荆州市,学苑路85号,颗粒物(PM10),55,60,72,25,37,107,,79,79,8,13,2,3,0.3,0.3
2025-04-23T1600,2342A,117.3102,29.3867,景德镇市,王港中学,,,,,,,,,,,,,,,,
2025-04-23T1600,2343A,117.2117,29.2933,景德镇市,老干部活动中心,,42,38,30,23,22,133,,117,117,7,9,7,7,0.4,0.7
2025-04-23T1600,2344A,117.1894,29.2789,景德镇市,兽医站,,50,50,33,21,20,113,,104,104,6,8,4,4,0.5,0.6
2025-04-23T1600,2345A,117.1547,29.2617,景德镇市,台达陶瓷,颗粒物(PM10),54,58,35,26,24,120,,108,108,8,11,10,32,0.7,0.9
2025-04-23T1600,2346A,117.2461,29.2956,景德镇市,陶研所,,41,37,28,23,26,130,,115,115,7,9,5,5,0.4,0.6
2025-04-23T1600,1803A,115.9872,29.6815,九江市,十里,臭氧1小时,65,54,51,30,42,172,,131,131,7,13,4,2,0.8,0.8
2025-04-23T1600,1804A,115.9584,29.7046,九江市,茅山头,,,55,55,26,38,165,,132,132,11,16,6,5,,0.9
2025-04-23T1600,1805A,115.9877,29.7295,九江市,西园,臭氧1小时,57,52,64,32,46,165,,128,128,20,44,9,12,0.9,1
2025-04-23T1600,1808A,115.9114,29.6038,九江市,综合工业园,颗粒物(PM10),54,58,54,33,38,161,,128,128,18,28,10,8,0.8,0.9
2025-04-23T1600,1809A,116.0721,29.7535,九江市,石化总厂,颗粒物(PM10),60,69,68,20,55,160,,124,124,13,30,14,12,1.0,1.1
2025-04-23T1600,1810A,115.9773,29.5698,九江市,庐山气象台,颗粒物(PM10),61,72,45,36,32,144,,124,124,13,11,7,11,0.7,0.8
2025-04-23T1600,3190A,116.0254,29.6994,九江市,外国语学校,颗粒物(PM10),54,58,56,33,41,150,,116,116,13,21,4,4,1.0,1.1
2025-04-23T1600,4253A,116.0102,29.6594,九江市,莲花大道8号,颗粒物(PM10),60,70,59,27,34,163,,123,123,8,7,6,4,0.9,0.8
2025-04-23T1600,4240A,98.4958,39.7339,酒泉市,玉门东路5号,,39,22,44,11,19,123,,106,106,3,8,10,13,0.3,0.3
2025-04-23T1600,4241A,98.5099,39.7506,酒泉市,北大街108号,,41,29,42,9,16,129,,110,110,3,10,11,15,0.4,0.4
2025-04-23T1600,2698A,76.0072,39.4467,喀什地区,巡警大队,,39,38,445,3,90,122,,77,77,8,28,3,3,0.3,0.7
2025-04-23T1600,2699A,75.9755,39.4694,喀什地区,吾办,,,35,391,23,116,,,82,82,9,31,4,4,0.2,0.7
2025-04-23T1600,4027A,75.9483,39.4689,喀什地区,老干局,,39,39,397,8,83,121,,86,86,6,22,2,2,0.5,0.5
2025-04-23T1600,1824A,114.3389,34.7781,开封市,肿瘤医院,颗粒物(PM10),95,139,114,37,35,171,,125,125,9,21,7,9,0.3,0.4
2025-04-23T1600,1826A,114.2885,34.7965,开封市,世纪星幼儿园,颗粒物(PM10),90,130,114,30,35,188,,143,143,15,26,7,7,0.5,0.6
2025-04-23T1600,3147A,114.3438,34.8106,开封市,龙亭公园,颗粒物(PM10),105,160,121,42,32,176,,130,130,15,23,4,5,0.5,0.6
2025-04-23T1600,3210A,114.3644,34.7964,开封市,汴京公园,颗粒物(PM10),139,227,126,45,32,186,,136,136,13,24,5,5,0.5,0.8
2025-04-23T1600,3473A,114.2485,34.8306,开封市,技师学院,颗粒物(PM10),86,121,110,46,43,167,,126,126,12,22,6,6,0.7,0.9
2025-04-23T1600,3592A,114.4644,34.7556,开封市,祥符区生态环境局,颗粒物(PM10),93,135,96,48,31,178,,130,130,23,32,9,9,0.3,0.4
2025-04-23T1600,1951A,84.895,45.6094,克拉玛依市,长征新村,,35,26,28,10,14,110,,79,79,9,16,7,7,0.2,0.3
2025-04-23T1600,1952A,84.8988,45.5893,克拉玛依市,南林小区,,37,26,29,12,13,118,,82,82,6,20,3,3,0.2,0.4
2025-04-23T1600,1954A,84.905,44.3396,克拉玛依市,独山子区,,41,39,32,8,14,129,,118,118,7,10,19,9,0.5,0.3
2025-04-23T1600,1955A,85.6979,46.098,克拉玛依市,乌尔禾区商贸楼,,39,26,30,3,10,122,,84,84,4,13,7,7,0.3,0.3
2025-04-23T1600,3612A,85.1045,45.6899,克拉玛依市,白碱滩区新站,,36,18,56,13,12,113,,77,77,4,13,10,10,0.1,0.5
2025-04-23T1600,2697A,76.1454,39.7142,克孜勒苏柯尔克孜自治州,市人民政府,,50,50,393,16,106,133,,116,116,2,6,6,8,0.1,0.2
2025-04-23T1600,3665A,76.1658,39.7157,克孜勒苏柯尔克孜自治州,克州文化中心,,45,45,413,21,121,124,,106,106,2,6,7,16,0.2,0.2
2025-04-23T1600,1450A,102.8204,24.8886,昆明市,呈贡新区,颗粒物(PM10),52,53,33,26,26,123,,120,120,8,13,6,7,0.4,0.5
2025-04-23T1600,1451A,102.6251,24.9608,昆明市,西山森林公园,,,,,,,,,,,,,,,,
2025-04-23T1600,1452A,102.7252,25.0902,昆明市,龙泉镇,,38,34,28,20,17,120,,111,111,11,20,8,9,0.3,0.4
2025-04-23T1600,1453A,102.7266,25.0375,昆明市,东风东路,,39,34,29,24,22,123,,117,117,14,14,8,10,0.4,0.4
2025-04-23T1600,1454A,102.6742,25.0669,昆明市,金鼎山,,40,40,32,15,21,120,,110,110,12,18,4,6,0.3,0.4
2025-04-23T1600,1455A,102.6644,25.0401,昆明市,碧鸡广场,,36,30,32,14,19,114,,107,107,11,19,7,8,0.4,0.4
2025-04-23T1600,3179A,102.7494,25.0119,昆明市,官渡区博物馆,,39,34,32,21,18,124,,119,119,10,12,8,8,0.3,0.4
2025-04-23T1600,3375A,102.8017,24.8336,昆明市,青年创业园,,,24,28,22,18,123,,121,121,,13,,9,0.4,0.5
2025-04-23T1600,3550A,102.7997,24.9786,昆明市,昆明学院,,40,30,31,16,18,126,,122,122,9,12,6,6,0.3,0.4
2025-04-23T1600,3551A,102.5967,24.6736,昆明市,晋宁区生态环境分局,,38,29,22,17,16,119,,109,109,4,7,10,8,0.3,0.4
2025-04-23T1600,3552A,102.6678,24.9856,昆明市,云天化总部,,37,23,26,8,15,117,,111,111,9,12,8,8,0.2,0.4
2025-04-23T1600,1456A,91.1319,29.6514,拉萨市,八廓街,,48,14,31,12,12,152,,129,129,6,11,6,6,0.5,0.5
2025-04-23T1600,1457A,91.1221,29.6747,拉萨市,市环保局,,45,21,36,9,12,144,,119,119,11,12,3,4,0.4,0.4
2025-04-23T1600,1458A,91.0874,29.6475,拉萨市,区监测站,,,17,27,7,10,144,,123,123,,14,6,6,0.2,0.7
2025-04-23T1600,1459A,91.1774,29.6541,拉萨市,西藏大学,,45,13,32,3,10,144,,124,124,8,13,6,6,0.2,0.2
2025-04-23T1600,1460A,90.9798,29.6588,拉萨市,区辐射站,,45,19,35,7,12,141,,118,118,10,17,8,8,0.4,0.4
2025-04-23T1600,1461A,91.0834,29.6292,拉萨市,拉萨火车站,,44,14,25,7,8,140,,124,124,5,6,3,4,0.3,0.3
2025-04-23T1600,2520A,109.2203,23.7256,来宾市,来宾技工学校,颗粒物(PM10),56,61,35,33,22,64,,62,62,9,8,6,8,0.8,0.8
2025-04-23T1600,3535A,109.1781,23.7297,来宾市,兴宾区政府,颗粒物(PM10),52,53,34,31,21,58,,59,59,11,7,5,5,0.9,0.8
2025-04-23T1600,4002A,109.2416,23.7461,来宾市,中南小学,颗粒物(PM10),58,65,37,25,16,53,,54,54,13,9,12,12,0.8,0.7
2025-04-23T1600,1477A,104.1373,35.9454,兰州市,榆中兰大校区,,,,,,,,,,,,,,,,
2025-04-23T1600,1479A,103.831,36.0464,兰州市,铁路设计院,,45,45,80,15,28,118,,80,80,21,48,9,19,0.4,1
2025-04-23T1600,3241A,103.7439,36.0842,兰州市,百合公园,,46,46,73,10,22,115,,81,81,5,36,3,10,0.2,0.6
2025-04-23T1600,3242A,103.9611,35.998,兰州市,和平,,,52,83,,62,120,,94,94,4,15,12,14,0.4,0.6
2025-04-23T1600,4236A,103.6293,36.0938,兰州市,庄浪东路808号,颗粒物(PM10),65,80,85,28,32,113,,104,104,21,34,10,14,0.4,0.4
2025-04-23T1600,4237A,103.7251,36.1043,兰州市,安宁西路88号,颗粒物(PM10),61,71,84,29,36,130,,100,100,8,24,6,10,0.4,0.5
2025-04-23T1600,4238A,103.8470,36.0676,兰州市,北滨河东路1号,,43,39,77,21,32,137,,91,91,7,42,11,18,0.5,0.9
2025-04-23T1600,3245A,103.6633,36.533,兰州新区,新区管委会,,42,41,50,29,25,127,,121,121,4,12,14,12,0.4,0.3
2025-04-23T1600,3246A,103.6975,36.4789,兰州新区,舟曲中学,,46,46,59,15,20,135,,125,125,6,17,7,7,0.2,0.2
2025-04-23T1600,1067A,116.6708,39.5111,廊坊市,药材公司,颗粒物(PM10),60,69,72,19,27,111,,85,85,5,21,2,4,0.3,0.4
2025-04-23T1600,1068A,116.7214,39.5589,廊坊市,开发区,颗粒物(PM10),82,113,79,22,26,113,,88,88,11,21,1,2,0.2,0.3
2025-04-23T1600,1070A,116.7244,39.5269,廊坊市,北华航天学院,颗粒物(PM10),86,121,89,10,24,109,,86,86,4,22,3,6,0.2,0.3
2025-04-23T1600,2919A,116.7022,39.5453,廊坊市,河北工业大学,颗粒物(PM10),84,118,86,18,25,112,,88,88,2,16,4,6,0.2,0.3
2025-04-23T1600,2535A,103.7723,29.5462,乐山市,花湖湾,颗粒物(PM10),60,70,93,39,40,83,,56,56,13,11,7,6,0.4,0.4
2025-04-23T1600,2536A,103.7627,29.5844,乐山市,牛耳桥,颗粒物(PM10),67,84,102,40,40,86,,74,70,17,14,10,7,0.5,0.5
2025-04-23T1600,2537A,103.7508,29.6006,乐山市,市第三水厂,颗粒物(PM10),64,78,99,38,37,92,,80,72,13,11,7,5,0.5,0.5
2025-04-23T1600,2538A,103.7571,29.5664,乐山市,市监测站,颗粒物(PM10),67,83,101,42,36,81,,69,67,17,13,10,7,0.5,0.7
2025-04-23T1600,3361A,103.7311,29.5628,乐山市,理工大学,颗粒物(PM10),67,84,90,42,36,86,,75,67,22,14,12,6,0.5,0.4
2025-04-23T1600,2598A,100.2143,26.8576,丽江市,西南郊,,38,38,27,13,9,112,,108,108,3,2,6,5,0.6,0.5
2025-04-23T1600,2599A,100.2497,26.8802,丽江市,丽江古城,,32,24,19,14,12,102,,97,97,10,11,5,5,0.5,0.5
2025-04-23T1600,2600A,100.2203,26.8906,丽江市,市中心,,32,,12,18,10,102,,94,94,5,7,6,6,0.4,0.4
2025-04-23T1600,1267A,119.914,28.4514,丽水市,监测站大楼,,27,21,17,7,10,85,,88,88,14,13,2,2,0.6,0.6
2025-04-23T1600,1268A,119.93,28.4586,丽水市,莲都小学,,29,17,20,10,10,91,,93,91,12,11,3,3,0.4,0.4
2025-04-23T1600,1269A,119.879,28.4231,丽水市,余庄前,,25,11,23,8,14,80,,87,87,12,11,3,3,0.7,0.7
2025-04-23T1600,1173A,119.176,34.5885,连云港市,市环境监测站,臭氧1小时,94,97,89,44,52,195,,140,140,12,21,11,8,0.6,0.7
2025-04-23T1600,3000A,119.3581,34.6972,连云港市,德源药业,颗粒物(PM10),69,88,95,31,36,174,,140,140,15,39,10,9,0.3,0.7
2025-04-23T1600,3007A,119.178,34.844,连云港市,新城一中,臭氧1小时,98,107,82,55,29,198,,123,123,12,46,22,10,0.7,0.7
2025-04-23T1600,3008A,119.3608,34.7519,连云港市,胡沟管理处,颗粒物(PM10),56,61,45,27,16,108,,78,78,55,50,17,15,0.7,0.7
2025-04-23T1600,3009A,119.1478,34.5911,连云港市,矿山设计院,臭氧1小时,90,92,82,44,48,192,,139,139,15,29,15,10,0.7,0.8
2025-04-23T1600,3434A,119.2413,34.6539,连云港市,工贸学校,臭氧1小时,80,88,79,42,40,184,,147,147,18,17,13,10,0.8,1
2025-04-23T1600,3664A,119.4172,34.7341,连云港市,连云街道,颗粒物(PM10),81,112,60,36,20,131,,76,76,42,47,9,10,0.5,0.6
2025-04-23T1600,2571A,102.3431,27.8099,凉山彝族自治州,青龙寺,,26,14,19,3,5,82,,72,70,4,4,8,8,0.5,0.5
2025-04-23T1600,2572A,102.2721,27.8415,凉山彝族自治州,邛海宾馆,,25,20,30,6,11,77,,74,69,9,11,3,5,0.5,0.5
2025-04-23T1600,2573A,102.2625,27.898,凉山彝族自治州,西昌市政府,,23,16,18,7,10,72,,73,68,6,7,9,9,0.4,0.5
2025-04-23T1600,2574A,102.2685,27.8851,凉山彝族自治州,凉山州政府,,22,14,19,6,11,70,,71,66,12,11,6,6,0.6,0.6
2025-04-23T1600,4229A,102.2342,27.8859,凉山彝族自治州,凯乐南路30号,,26,26,27,3,8,68,,68,62,15,15,12,13,0.7,0.7
2025-04-23T1600,2212A,123.2,41.1953,辽阳市,宏伟区,颗粒物(PM10),59,68,41,29,17,158,,136,136,16,14,17,10,1.1,0.6
2025-04-23T1600,2213A,123.1683,41.2495,辽阳市,新华园,颗粒物(PM10),63,76,53,34,26,158,,137,137,14,24,19,14,1.0,0.7
2025-04-23T1600,2214A,123.2354,41.2639,辽阳市,滨河路,颗粒物(PM10),58,65,43,27,22,152,,131,131,16,21,15,10,1.0,0.7
2025-04-23T1600,2215A,123.149,41.2991,辽阳市,铁西工业园,颗粒物(PM10),59,68,63,36,33,142,,128,128,14,28,17,13,0.7,0.5
2025-04-23T1600,2227A,125.1358,42.8845,辽源市,环保局,颗粒物(PM10),54,58,37,14,11,128,,114,114,13,18,8,7,0.3,0.3
2025-04-23T1600,3239A,125.0764,42.9078,辽源市,银鹰制药,,47,47,23,28,15,127,,120,120,12,20,6,33,0.3,0.4
2025-04-23T1600,1625A,115.9848,36.4372,聊城市,区政府,颗粒物(PM10),87,124,89,42,27,171,,126,126,13,22,10,8,0.8,0.6
2025-04-23T1600,2878A,116.0072,36.4343,聊城市,聊大东校,颗粒物(PM10),87,124,94,63,37,176,,129,129,12,22,13,9,0.5,0.4
2025-04-23T1600,3200A,115.9819,36.4978,聊城市,监控中心,颗粒物(PM10),90,129,89,39,28,181,,139,139,14,25,12,10,0.6,0.4
2025-04-23T1600,3513A,116.0445,36.4361,聊城市,九州社区,臭氧1小时,84,100,80,40,25,187,,138,138,10,20,9,7,0.5,0.4
2025-04-23T1600,4018A,116.0567,36.4608,聊城市,星美广场,颗粒物(PM10),82,114,95,34,25,180,,136,136,15,24,13,11,0.8,0.6
2025-04-23T1600,2632A,94.3681,29.6376,林芝市,林芝监测站,,35,28,9,8,5,112,,75,75,6,6,5,5,0.6,0.6
2025-04-23T1600,2633A,94.3616,29.6616,林芝市,林芝人民医院,,32,9,10,6,5,102,,65,65,7,4,5,5,0.4,0.5
2025-04-23T1600,2603A,100.0781,23.8982,临沧市,市环保局,"颗粒物(PM10),细颗粒物(PM2.5)",57,64,52,40,38,111,,76,76,6,16,7,5,0.4,0.6
2025-04-23T1600,2604A,100.0894,23.8822,临沧市,市气象局,,47,47,48,28,37,114,,76,76,6,17,6,7,0.5,0.6
2025-04-23T1600,1733A,111.5531,36.0783,临汾市,临钢医院,颗粒物(PM10),112,173,302,45,71,161,,108,108,10,20,10,12,0.4,0.5
2025-04-23T1600,1734A,111.5028,36.0714,临汾市,技工学校,颗粒物(PM10),90,130,238,45,69,172,,121,121,8,21,14,14,0.6,0.8
2025-04-23T1600,1736A,111.5018,36.0855,临汾市,市委,颗粒物(PM10),98,146,263,60,65,175,,116,116,10,22,15,15,0.7,0.8
2025-04-23T1600,3018A,111.505,36.1014,临汾市,唐尧大酒店,颗粒物(PM10),104,157,241,69,65,173,,113,113,13,25,17,16,0.7,0.7
2025-04-23T1600,4244A,111.4879,36.0530,临汾市,启星学校,颗粒物(PM10),94,137,260,63,72,167,,110,110,11,23,15,15,0.7,0.8
2025-04-23T1600,4271A,103.2464,35.6123,临夏回族自治州,滨河东路1号,颗粒物(PM10),60,70,130,23,50,120,,89,89,2,24,9,9,0.3,0.5
2025-04-23T1600,4310A,103.2093,35.5995,临夏回族自治州,新华街21号,颗粒物(PM10),58,65,103,22,45,122,,100,100,7,16,5,7,0.3,0.4
2025-04-23T1600,1618A,118.3429,35.0532,临沂市,沂河小区,颗粒物(PM10),76,102,82,42,32,175,,135,135,12,28,13,10,0.3,0.3
2025-04-23T1600,1619A,118.295,35.0583,临沂市,鲁南制药厂,臭氧1小时,92,102,81,49,30,193,,154,154,16,31,14,12,0.2,0.3
2025-04-23T1600,1620A,118.2794,34.9976,临沂市,新光毛纺厂,颗粒物(PM10),80,110,81,38,27,179,,146,146,14,32,10,10,0.3,0.4
2025-04-23T1600,1621A,118.3956,35.0888,临沂市,河东保险公司,臭氧1小时,103,90,73,33,27,205,,155,155,12,35,9,5,0.5,0.5
2025-04-23T1600,3370A,118.3564,35.0215,临沂市,十里堡居委,,,117,78,36,28,180,,145,145,23,34,8,4,,0.4
2025-04-23T1600,3496A,118.3604,35.1084,临沂市,南坊新区,颗粒物(PM10),86,122,88,44,26,186,,145,145,13,33,12,8,0.6,0.7
2025-04-23T1600,3860A,118.3920,35.0300,临沂市,皇山花园小区,臭氧1小时,80,107,92,36,34,184,,142,142,10,38,12,10,0.6,0.6
2025-04-23T1600,1870A,109.4856,24.3895,柳州市,柳东小学,,49,49,32,20,18,57,,63,56,12,12,12,10,0.6,0.6
2025-04-23T1600,1871A,109.4157,24.3277,柳州市,环保监测站,颗粒物(PM10),59,67,38,22,16,57,,59,58,10,9,13,10,0.7,0.7
2025-04-23T1600,1872A,109.389,24.341,柳州市,河西水厂,颗粒物(PM10),54,57,40,20,16,56,,52,52,11,11,10,8,0.8,0.9
2025-04-23T1600,1873A,109.4311,24.2921,柳州市,市四中,颗粒物(PM10),53,55,28,9,11,58,,64,62,10,9,12,8,0.7,0.6
2025-04-23T1600,1874A,109.4006,24.3631,柳州市,市九中,颗粒物(PM10),55,59,32,17,13,57,,53,53,10,9,11,9,1.0,0.9
2025-04-23T1600,1875A,109.4958,24.3134,柳州市,古亭山,颗粒物(PM10),55,59,29,18,15,58,,73,62,5,6,8,7,0.7,0.7
2025-04-23T1600,3402A,109.5422,24.3996,柳州市,市二中,,48,48,30,20,15,45,,66,53,11,10,10,10,0.4,0.5
2025-04-23T1600,2307A,116.5079,31.737,六安市,监测大楼,颗粒物(PM10),95,140,63,39,44,159,,128,128,13,15,6,5,0.3,0.5
2025-04-23T1600,2308A,116.4738,31.7643,六安市,皖西学院,,,,68,35,53,,,75,,,21,,5,,0.6
2025-04-23T1600,2309A,116.4996,31.7905,六安市,朝阳厂,颗粒物(PM10),86,122,63,33,44,146,,118,118,15,17,5,4,0.3,0.5
2025-04-23T1600,2310A,116.5567,31.7886,六安市,开发区,颗粒物(PM10),101,152,90,43,35,160,,134,134,12,15,6,5,0.4,0.5
2025-04-23T1600,2576A,104.8,26.5892,六盘水市,窑上,细颗粒物(PM2.5),87,116,61,64,30,68,,75,75,19,8,11,6,0.7,0.3
2025-04-23T1600,2577A,104.83,26.5917,六盘水市,黄土坡,颗粒物(PM10),82,113,65,42,26,72,,88,81,24,11,28,10,1.0,0.4
2025-04-23T1600,2578A,104.89,26.5939,六盘水市,水钢,细颗粒物(PM2.5),77,99,69,56,22,85,,87,86,11,11,9,9,0.4,0.4
2025-04-23T1600,2579A,104.8475,26.5894,六盘水市,民中,颗粒物(PM10),73,96,59,48,24,74,,84,76,19,10,22,9,0.7,0.3
2025-04-23T1600,2580A,104.9544,26.5506,六盘水市,双水,颗粒物(PM10),73,95,59,37,21,82,,83,82,16,9,9,9,0.4,0.3
2025-04-23T1600,2335A,117.0189,25.1181,龙岩市,龙岩师专,,,,,,,,,,,,,,,,
2025-04-23T1600,2336A,117.0217,25.1033,龙岩市,龙岩市监测站,,25,25,27,9,21,79,,79,79,8,13,3,3,0.5,0.5
2025-04-23T1600,2337A,117.0258,25.0661,龙岩市,闽西职业技术学院,,24,24,32,13,21,73,,72,72,5,16,3,8,0.5,0.5
2025-04-23T1600,2338A,117.0196,25.0306,龙岩市,龙岩学院,,26,23,24,12,16,81,,80,80,5,7,6,6,0.5,0.5
2025-04-23T1600,2665A,105.0822,33.3261,陇南市,汉王镇固水子,,,,,,,,,,,,,,,,
2025-04-23T1600,2885A,104.9339,33.3826,陇南市,滨江中学,,47,47,72,15,25,119,,88,88,4,12,8,9,0.5,0.5
2025-04-23T1600,3247A,104.955,33.371,陇南市,市总工会,,40,36,63,10,26,126,,87,87,4,8,6,6,0.3,0.3
2025-04-23T1600,2487A,111.9589,27.8901,娄底市,电视发射台,颗粒物(PM10),62,74,73,27,23,74,,48,,3,4,4,2,0.2,0.3
2025-04-23T1600,2488A,111.9975,27.725,娄底市,市监测站,颗粒物(PM10),62,74,76,27,30,67,,76,76,21,21,7,9,0.7,0.7
2025-04-23T1600,2489A,112.0194,27.7314,娄底市,市委党校,颗粒物(PM10),57,64,71,28,29,72,,85,85,12,11,3,4,0.6,0.7
2025-04-23T1600,2490A,111.9561,27.7569,娄底市,涟钢,颗粒物(PM10),61,71,72,42,28,73,,78,78,7,8,6,8,0.3,0.3
2025-04-23T1600,2491A,111.9892,27.7044,娄底市,市政府,,43,38,64,30,29,65,,76,76,10,11,2,3,0.6,0.6
2025-04-23T1600,1893A,105.4324,28.9634,泸州市,九狮山,,,,,,,,,,,,,,,,
2025-04-23T1600,1894A,105.4427,28.9063,泸州市,小市上码头,颗粒物(PM10),62,74,73,28,23,44,,34,34,21,22,4,5,0.4,0.5
2025-04-23T1600,1895A,105.4241,28.8573,泸州市,兰田宪桥,,,54,66,30,29,88,,72,72,,10,7,8,0.5,0.5
2025-04-23T1600,1896A,105.4379,28.8833,泸州市,市环监站,,,,,,,,,,,,,,,,
2025-04-23T1600,4272A,105.3689,28.7783,泸州市,纳溪中医医院,颗粒物(PM10),52,54,70,20,19,83,,64,64,4,11,8,7,0.6,0.6
2025-04-23T1600,2183A,111.1406,37.5211,吕梁市,环保局,颗粒物(PM10),75,100,107,16,37,125,,85,85,4,30,3,4,0.3,0.4
2025-04-23T1600,2185A,111.1297,37.5136,吕梁市,自来水公司,颗粒物(PM10),60,70,130,20,38,120,,80,80,7,30,3,5,0.3,0.5
2025-04-23T1600,2867A,111.1283,37.51,吕梁市,马茂庄小学,颗粒物(PM10),62,74,123,21,36,129,,84,84,6,35,6,7,0.2,0.4
2025-04-23T1600,1812A,112.3931,34.6516,洛阳市,市委党校,,,109,242,56,81,131,,111,111,8,14,4,6,,0.5
2025-04-23T1600,1815A,112.494,34.6886,洛阳市,河南林校,颗粒物(PM10),84,117,271,46,81,143,,126,126,7,21,6,8,0.3,0.4
2025-04-23T1600,1816A,112.3844,34.623,洛阳市,开发区管委会,颗粒物(PM10),85,119,247,49,94,133,,119,119,12,18,5,5,0.3,0.3
2025-04-23T1600,1817A,112.4267,34.6258,洛阳市,市委新办公区,颗粒物(PM10),84,118,258,39,75,146,,126,126,10,16,5,6,0.4,0.5
2025-04-23T1600,3340A,112.6005,34.6326,洛阳市,伊滨,颗粒物(PM10),86,122,254,51,75,151,,124,124,8,14,6,7,0.4,0.4
2025-04-23T1600,3341A,112.4951,34.6332,洛阳市,中移产业园,颗粒物(PM10),99,148,302,57,85,148,,125,125,11,15,7,7,0.3,0.3
2025-04-23T1600,3593A,112.5736,34.8993,洛阳市,吉利监测站,颗粒物(PM10),89,127,205,39,61,128,,114,114,7,24,5,6,0.4,0.6
2025-04-23T1600,3635A,112.3677,34.662,洛阳市,河科大西苑校区,颗粒物(PM10),83,116,276,37,64,139,,123,123,9,14,8,8,0.3,0.3
2025-04-23T1600,3636A,112.4388,34.6781,洛阳市,英才小学,颗粒物(PM10),86,121,255,41,86,144,,122,122,12,19,4,7,0.4,0.5
2025-04-23T1600,4214A,112.4600,34.6949,洛阳市,春都路1号院,细颗粒物(PM2.5),105,131,281,79,75,149,,131,131,9,16,5,6,0.4,0.5
2025-04-23T1600,2399A,114.051,33.5699,漯河市,三五一五工厂,颗粒物(PM10),123,196,109,67,42,160,,132,132,8,18,6,5,0.6,0.7
2025-04-23T1600,2400A,114.0055,33.5698,漯河市,漯河大学,颗粒物(PM10),110,170,107,61,38,162,,128,128,9,19,,6,0.3,0.4
2025-04-23T1600,2401A,114.0138,33.5828,漯河市,市水利局,颗粒物(PM10),118,185,110,61,39,163,,130,130,4,12,6,5,0.4,0.5
2025-04-23T1600,2402A,114.0261,33.5698,漯河市,市广电局,颗粒物(PM10),116,181,110,51,32,161,,128,128,6,15,6,5,0.5,0.6
2025-04-23T1600,3478A,113.9749,33.5664,漯河市,市图书馆,颗粒物(PM10),145,240,110,63,36,159,,126,126,11,15,5,4,0.3,0.4
2025-04-23T1600,4250A,114.0892,33.5882,漯河市,韶山路11号,颗粒物(PM10),116,182,109,64,39,161,,129,129,10,20,5,5,0.4,0.5
2025-04-23T1600,1798A,118.5092,31.6837,马鞍山市,湖东路四小,颗粒物(PM10),58,66,66,17,42,164,,134,134,11,24,9,9,0.6,0.9
2025-04-23T1600,1799A,118.5024,31.6449,马鞍山市,开发区,颗粒物(PM10),54,58,76,25,68,162,,131,131,15,38,8,7,0.8,1.1
2025-04-23T1600,1802A,118.6245,31.7241,马鞍山市,濮塘,臭氧1小时,63,64,73,22,37,170,,142,142,7,12,9,8,0.6,0.8
2025-04-23T1600,3633A,118.4918,31.6809,马鞍山市,雨山,颗粒物(PM10),53,56,61,22,35,160,,131,131,8,26,8,9,0.5,0.7
2025-04-23T1600,4191A,118.5274,31.72227,马鞍山市,慈湖高新区,,50,44,69,26,37,159,,129,129,15,26,10,10,0.7,1
2025-04-23T1600,1686A,111.0286,21.4688,茂名市,电白南海,,,31,34,19,22,56,,47,47,6,9,,1,0.6,0.6
2025-04-23T1600,1687A,110.9294,21.6533,茂名市,茂石化七小,,41,41,40,12,17,66,,56,56,6,7,2,2,0.8,0.8
2025-04-23T1600,1688A,110.9107,21.6687,茂名市,健康路,,44,44,38,27,20,78,,68,68,4,4,3,3,0.8,0.8
2025-04-23T1600,1689A,110.8592,21.6828,茂名市,高岭,颗粒物(PM10),51,51,44,12,15,81,,68,68,10,12,4,5,0.6,0.6
2025-04-23T1600,3450A,111.01,21.5165,茂名市,电白水东,,29,29,30,7,14,50,,45,45,4,8,1,1,0.9,0.8
2025-04-23T1600,2539A,104.0308,30.0478,眉山市,黑龙滩水库,颗粒物(PM10),51,52,76,22,22,106,,85,85,2,6,3,2,0.3,0.3
2025-04-23T1600,2540A,103.8416,30.0874,眉山市,气象局,颗粒物(PM10),66,82,122,29,39,115,,85,85,11,20,3,4,0.5,0.5
2025-04-23T1600,3137A,103.8578,30.0744,眉山市,市委党校,颗粒物(PM10),58,66,99,31,35,112,,86,86,11,17,7,7,0.7,0.7
2025-04-23T1600,3148A,103.8291,30.0564,眉山市,区人社局,颗粒物(PM10),62,73,88,27,35,114,,79,79,10,22,11,11,0.8,0.8
2025-04-23T1600,1690A,116.1231,24.3284,梅州市,梅江月梅,,40,31,37,28,27,85,,,,4,19,4,4,0.5,0.5
2025-04-23T1600,1691A,116.0797,24.2719,梅州市,梅县新城,,38,38,39,3,21,84,,84,84,8,17,6,5,0.6,0.6
2025-04-23T1600,1692A,116.1248,24.2654,梅州市,环境监控中心,,30,28,30,21,21,86,,76,76,8,17,6,6,0.6,0.6
2025-04-23T1600,3315A,116.1233,24.2991,梅州市,梅龙,,35,31,28,24,18,81,,75,75,3,11,5,6,0.6,0.7
2025-04-23T1600,1878A,104.7778,31.4741,绵阳市,富乐山,颗粒物(PM10),76,101,113,37,45,136,,85,85,12,21,9,7,0.4,0.4
2025-04-23T1600,1880A,104.6697,31.4668,绵阳市,高新区自来水公司,颗粒物(PM10),79,108,135,31,43,137,,87,87,10,29,4,4,0.3,0.4
2025-04-23T1600,1881A,104.7287,31.5075,绵阳市,三水厂,,,107,128,41,49,145,,89,89,13,26,8,6,,0.5
2025-04-23T1600,3491A,104.69,31.5322,绵阳市,西科大附属小学,颗粒物(PM10),82,113,136,52,46,146,,93,93,11,23,8,7,0.3,0.6
2025-04-23T1600,3492A,104.5648,31.5343,绵阳市,安州区旅游局,颗粒物(PM10),75,100,110,39,39,130,,90,90,8,16,10,8,0.3,0.3
2025-04-23T1600,4226A,104.7651,31.4531,绵阳市,绵阳市气象局,颗粒物(PM10),71,92,123,42,44,136,,81,81,15,26,4,5,0.5,0.5
2025-04-23T1600,1784A,129.61,44.561,牡丹江市,环保大楼,,31,22,23,7,15,98,,80,80,7,15,5,6,0.2,0.3
2025-04-23T1600,1785A,129.6115,44.5782,牡丹江市,文化广场,,,,38,,20,96,,78,78,,23,10,12,,0.6
2025-04-23T1600,1786A,129.5904,44.5963,牡丹江市,第一医院,,31,16,24,6,16,99,,83,83,4,10,5,6,0.3,0.4
2025-04-23T1600,1787A,129.6364,44.6075,牡丹江市,机车工厂,,32,12,34,7,18,100,,81,81,6,16,6,29,0.4,0.5
2025-04-23T1600,1788A,129.6386,44.5462,牡丹江市,第一中学,,32,11,22,3,12,101,,83,83,3,9,7,7,0.4,0.5
2025-04-23T1600,2531A,105.0703,29.61,内江市,市监测站,颗粒物(PM10),69,88,70,39,34,125,,100,100,9,11,7,6,0.6,0.7
2025-04-23T1600,2532A,105.0717,29.5947,内江市,东兴区政府,,,83,67,,22,114,,90,90,7,12,9,8,0.5,0.5
2025-04-23T1600,2533A,105.0653,29.5817,内江市,内江二中,颗粒物(PM10),67,83,72,37,33,104,,84,84,11,13,7,6,0.4,0.4
2025-04-23T1600,2534A,105.0406,29.5822,内江市,内江日报社,,,64,70,40,35,108,,87,87,5,10,,9,0.2,0.4
2025-04-23T1600,2628A,92.0657,31.4846,那曲市,那曲监测站,,,84,45,,20,101,,82,82,6,17,9,6,0.3,0.8
2025-04-23T1600,4243A,92.0515,31.4787,那曲市,那曲市委宣传部,,41,41,52,8,18,109,,89,89,6,12,5,7,0.2,0.4
2025-04-23T1600,1290A,115.8931,28.6843,南昌市,省外办,,50,50,47,29,36,134,,113,113,15,16,6,5,0.4,0.5
2025-04-23T1600,1291A,115.8886,28.7003,南昌市,省林业公司,颗粒物(PM10),51,51,43,29,36,128,,106,106,8,10,7,7,0.6,0.8
2025-04-23T1600,1292A,115.8126,28.7442,南昌市,林科所,,41,41,38,19,29,122,,102,102,10,16,4,4,0.4,0.5
2025-04-23T1600,1294A,115.8518,28.687,南昌市,建工学校,,50,50,52,33,41,124,,102,102,10,14,3,2,0.7,0.8
2025-04-23T1600,1295A,115.8921,28.6424,南昌市,象湖,,49,49,47,24,33,155,,130,130,12,12,6,6,0.6,0.8
2025-04-23T1600,1296A,115.7423,28.7996,南昌市,武术学校,,40,40,39,15,15,97,,99,99,2,2,4,4,0.5,0.6
2025-04-23T1600,3046A,115.9084,28.6062,南昌市,机电学校,颗粒物(PM10),56,62,53,24,34,140,,120,120,15,16,2,2,0.4,0.5
2025-04-23T1600,3690A,115.9721,28.7031,南昌市,外国语学校,颗粒物(PM10),52,54,49,23,30,149,,128,128,6,13,9,9,0.4,0.5
2025-04-23T1600,4192A,115.9316,28.68677,南昌市,南京东路235号,,45,45,52,28,34,141,,122,122,14,16,9,8,0.8,0.9
2025-04-23T1600,1905A,106.056,30.8064,南充市,西山风景区,细颗粒物(PM2.5),74,,57,54,34,119,,92,92,5,8,4,5,0.4,0.5
2025-04-23T1600,1906A,106.0789,30.8023,南充市,南充市委,颗粒物(PM10),81,112,85,47,35,123,,95,95,9,13,4,4,0.4,0.5
2025-04-23T1600,1907A,106.1031,30.8217,南充市,南充炼油厂,颗粒物(PM10),82,113,84,48,38,122,,96,96,7,10,4,4,0.4,0.4
2025-04-23T1600,4227A,106.1083,30.7884,南充市,梨树横街98号,颗粒物(PM10),86,122,87,43,30,126,,95,95,9,13,3,3,0.2,0.3
2025-04-23T1600,4304A,106.1172,30.843,南充市,清泉寺北路188号,颗粒物(PM10),87,124,81,52,35,126,,92,92,10,10,4,4,0.3,0.3
2025-04-23T1600,4305A,106.067,30.7616,南充市,同庆路1号,颗粒物(PM10),79,108,79,44,35,114,,87,87,7,13,4,5,0.4,0.4
2025-04-23T1600,1151A,118.8086,32.1065,南京市,迈皋桥,臭氧1小时,53,34,46,12,32,162,,135,135,4,25,4,4,0.1,0.4
2025-04-23T1600,1152A,118.7538,32.0551,南京市,草场门,颗粒物(PM10),53,56,57,19,34,159,,130,130,12,22,5,5,0.0,0.2
2025-04-23T1600,1153A,118.7794,32.0745,南京市,山西路,,,70,73,17,43,158,,136,136,17,22,,4,0.3,0.4
2025-04-23T1600,1154A,118.7752,32.0023,南京市,中华门,臭氧1小时,60,56,65,22,35,168,,139,139,9,18,3,6,0.3,0.5
2025-04-23T1600,1155A,118.8109,32.0309,南京市,瑞金路,臭氧1小时,53,53,74,22,38,162,,143,143,2,16,7,7,0.3,0.3
2025-04-23T1600,1156A,118.7997,32.0754,南京市,玄武湖,,48,47,57,16,39,152,,125,125,7,11,8,8,0.3,0.5
2025-04-23T1600,1157A,118.6414,32.0931,南京市,浦口,臭氧1小时,58,46,55,19,30,166,,137,137,13,18,6,6,0.5,0.6
2025-04-23T1600,1158A,118.7356,31.9996,南京市,奥体中心,臭氧1小时,58,55,73,17,36,166,,136,136,10,24,9,10,0.4,0.7
2025-04-23T1600,1159A,118.9125,32.1028,南京市,仙林大学城,臭氧1小时,54,56,65,22,43,163,,137,137,10,21,10,10,0.4,0.6
2025-04-23T1600,3422A,118.8436,31.9198,南京市,江宁彩虹桥,颗粒物(PM10),72,93,52,19,33,163,,138,138,7,28,4,5,0.7,0.8
2025-04-23T1600,3427A,118.8554,32.3578,南京市,六合雄州,,50,20,46,12,30,158,,136,136,13,30,6,6,0.3,0.5
2025-04-23T1600,4249A,118.8708,31.3402,南京市,汶溪路181号,颗粒物(PM10),63,75,53,29,32,157,,124,124,40,40,3,3,0.1,0.2
2025-04-23T1600,4312A,119.019,31.6512,南京市,中山西路1号,颗粒物(PM10),56,61,50,32,29,89,,44,44,12,17,8,11,0.6,0.7
2025-04-23T1600,1401A,108.3103,22.7881,南宁市,二十一中,颗粒物(PM10),60,70,44,36,28,138,,106,106,9,10,3,3,0.6,0.6
2025-04-23T1600,1402A,108.3141,22.8528,南宁市,北湖,颗粒物(PM10),55,60,44,28,27,134,,106,106,12,9,6,6,0.7,0.6
2025-04-23T1600,1403A,108.3206,22.8225,南宁市,市监测站,颗粒物(PM10),54,57,39,33,28,121,,96,96,13,9,4,4,0.5,0.5
2025-04-23T1600,1404A,108.3829,22.8037,南宁市,大自然花园,,50,46,42,35,27,136,,108,108,7,7,5,5,0.7,0.6
2025-04-23T1600,1405A,108.4394,22.7904,南宁市,仙葫,,50,50,38,34,30,120,,90,90,5,7,6,6,0.6,0.6
2025-04-23T1600,1406A,108.2397,22.8467,南宁市,区农职院,颗粒物(PM10),57,63,43,28,25,136,,105,105,9,11,6,4,0.5,0.5
2025-04-23T1600,1407A,108.3275,22.735,南宁市,英华嘉园,,49,49,38,30,25,144,,109,109,7,9,7,7,0.6,0.5
2025-04-23T1600,3401A,108.4834,22.7618,南宁市,红星社区,颗粒物(PM10),55,59,42,34,25,142,,110,110,4,7,8,8,0.8,0.8
2025-04-23T1600,4221A,108.2177,22.7774,南宁市,乐贤路16号,颗粒物(PM10),58,66,46,35,28,144,,99,99,10,13,7,7,0.6,0.6
2025-04-23T1600,2331A,118.0966,26.6761,南平市,茫荡山,,,,,,,,,,,,,,,,
2025-04-23T1600,2332A,118.1681,26.6369,南平市,南平市监测站,,28,13,25,9,15,88,,56,56,4,14,4,4,0.6,0.7
2025-04-23T1600,2333A,118.1825,26.6489,南平市,南平铝业有限公司,,28,19,25,9,13,87,,54,54,5,14,4,4,0.8,0.8
2025-04-23T1600,2334A,118.1756,26.6272,南平市,南平七中,,29,22,28,12,13,91,,58,58,4,9,5,4,0.7,0.7
2025-04-23T1600,1168A,120.9098,31.9663,南通市,狼山街道,臭氧1小时,95,89,54,32,23,196,,157,157,18,23,4,5,0.7,0.6
2025-04-23T1600,1169A,120.86,32.0005,南通市,虹桥,臭氧1小时,94,75,60,40,35,195,,166,166,31,28,3,5,0.6,0.3
2025-04-23T1600,1170A,120.87,32.02,南通市,城中,臭氧1小时,99,107,63,31,27,199,,160,160,25,23,4,5,0.6,0.6
2025-04-23T1600,1171A,120.94,31.93,南通市,星湖花园,臭氧1小时,72,86,51,39,29,177,,152,152,42,43,5,4,0.7,0.6
2025-04-23T1600,1172A,120.81,32.0417,南通市,紫琅学院,臭氧1小时,85,92,58,35,31,188,,152,152,25,22,6,7,0.6,0.5
2025-04-23T1600,3291A,121.067,32.062,南通市,通州监测站,臭氧1小时,87,83,52,31,23,189,,148,148,13,14,6,6,0.6,0.6
2025-04-23T1600,3432A,120.9348,31.9883,南通市,环境教育馆,臭氧1小时,102,100,53,35,26,203,,166,166,20,18,4,4,0.4,0.3
2025-04-23T1600,2404A,112.5224,33.0122,南阳市,瓦房庄,颗粒物(PM10),108,165,103,52,32,129,,116,116,10,17,5,6,0.3,0.5
2025-04-23T1600,2405A,112.5003,32.9735,南阳市,汉画馆,颗粒物(PM10),108,166,97,57,39,129,,109,109,12,26,5,6,0.3,0.5
2025-04-23T1600,2406A,112.5573,33.027,南阳市,气象站,颗粒物(PM10),120,189,108,66,38,137,,122,122,8,14,5,5,0.4,0.5
2025-04-23T1600,2407A,112.5481,32.9689,南阳市,理工学院,颗粒物(PM10),107,164,96,51,36,135,,114,114,7,16,4,5,0.3,0.5
2025-04-23T1600,4008A,112.5234,32.9922,南阳市,卧龙区政府,颗粒物(PM10),113,176,98,52,40,137,,119,119,,17,4,5,0.4,0.5
2025-04-23T1600,1234A,121.8358,29.911,宁波市,区环保大楼,颗粒物(PM10),59,67,38,27,24,157,,112,112,36,30,14,10,0.7,0.7
2025-04-23T1600,1235A,121.56,29.82,宁波市,万里学院,臭氧1小时,80,48,30,22,25,184,,129,129,17,18,6,6,0.6,0.6
2025-04-23T1600,1236A,121.713,29.9572,宁波市,龙赛医院,颗粒物(PM10),66,81,40,15,13,160,,121,121,34,18,9,6,0.7,0.6
2025-04-23T1600,1239A,121.633,29.7733,宁波市,钱湖水厂,臭氧1小时,94,45,36,21,26,195,,135,135,19,20,10,9,0.7,0.7
2025-04-23T1600,1240A,121.5856,29.8635,宁波市,太古小学,臭氧1小时,95,52,38,18,18,196,,141,141,21,16,11,10,0.7,0.7
2025-04-23T1600,1241A,121.524,29.8674,宁波市,市环境监测中心,臭氧1小时,67,48,34,17,15,173,,124,124,19,21,11,11,0.5,0.5
2025-04-23T1600,2871A,121.6147,29.9017,宁波市,万里国际学校,臭氧1小时,74,45,29,21,17,179,,138,138,21,26,10,9,0.7,0.7
2025-04-23T1600,3710A,121.5594,29.8975,宁波市,白沙活动中心,臭氧1小时,89,44,27,22,17,191,,136,136,22,19,9,8,0.6,0.5
2025-04-23T1600,2339A,119.5001,26.6946,宁德市,金涵水库,,,,,,,,,,,,,,,,
2025-04-23T1600,2341A,119.5388,26.6612,宁德市,宁德市监测站,,46,,33,32,28,110,,95,95,17,17,4,4,0.5,0.6
2025-04-23T1600,3209A,119.5231,26.6562,宁德市,宁德一中,,34,26,33,21,25,107,,95,95,13,11,6,6,0.4,0.5
2025-04-23T1600,2618A,98.8601,25.8567,怒江傈僳族自治州,州监测站,颗粒物(PM10),54,57,41,35,26,95,,66,66,7,9,10,10,0.4,0.4
2025-04-23T1600,2619A,98.8546,25.8417,怒江傈僳族自治州,泸水一中,颗粒物(PM10),62,73,37,37,25,87,,53,53,13,15,7,6,0.4,0.4
2025-04-23T1600,1888A,101.6891,26.571,攀枝花市,弄弄坪,,,,33,33,21,88,,105,105,14,11,10,8,0.9,0.7
2025-04-23T1600,1889A,101.5769,26.5928,攀枝花市,河门口,颗粒物(PM10),52,53,35,22,19,101,,108,108,8,10,11,15,0.5,0.9
2025-04-23T1600,1890A,101.7169,26.585,攀枝花市,炳草岗,颗粒物(PM10),58,66,34,28,19,90,,105,105,15,14,5,7,0.5,0.5
2025-04-23T1600,1891A,101.7369,26.5008,攀枝花市,仁和,,39,39,31,23,18,81,,99,99,15,8,8,8,0.4,0.4
2025-04-23T1600,2835A,101.7227,26.567,攀枝花市,四十中小,,34,34,29,21,16,95,,110,110,12,7,7,7,0.7,0.5
2025-04-23T1600,1604A,122.0303,41.1489,盘锦市,开发区,颗粒物(PM10),53,56,33,36,22,144,,110,110,26,29,11,10,0.6,0.4
2025-04-23T1600,1605A,122.0485,41.0883,盘锦市,兴隆台,颗粒物(PM10),58,65,36,40,25,141,,103,103,24,31,12,10,0.7,0.6
2025-04-23T1600,1606A,121.8297,41.1028,盘锦市,新生街道,,49,40,26,34,21,156,,110,110,23,28,13,10,0.7,0.5
2025-04-23T1600,1832A,113.3257,33.742,平顶山市,新华旅馆,,,,118,,33,147,,123,123,7,17,5,5,0.3,0.4
2025-04-23T1600,1833A,113.2919,33.737,平顶山市,规划设计院,颗粒物(PM10),79,108,112,34,45,147,,119,119,6,19,5,5,0.2,0.4
2025-04-23T1600,1834A,113.182,33.774,平顶山市,平顶山工学院,颗粒物(PM10),68,86,105,48,46,146,,121,121,4,14,3,2,0.1,0.3
2025-04-23T1600,3204A,113.3025,33.73,平顶山市,规划局,颗粒物(PM10),75,100,115,36,38,142,,117,117,4,17,6,6,0.1,0.3
2025-04-23T1600,3594A,112.8867,33.9116,平顶山市,石龙区,颗粒物(PM10),76,102,179,28,56,143,,120,120,8,27,7,7,0.3,0.3
2025-04-23T1600,2656A,106.6692,35.5461,平凉市,聚贤嘉苑,,43,43,104,11,33,116,,112,112,5,26,7,6,0.1,0.4
2025-04-23T1600,2657A,106.7021,35.5307,平凉市,博物馆,,39,39,105,10,33,116,,100,100,7,22,12,11,0.4,0.5
2025-04-23T1600,2347A,114.0997,27.5002,萍乡市,武功山,,33,28,16,23,16,68,,62,62,8,6,15,13,1.2,1
2025-04-23T1600,2348A,113.8385,27.6434,萍乡市,中医院,,48,41,55,33,38,69,,64,64,12,11,8,9,0.7,0.8
2025-04-23T1600,2349A,113.8493,27.6253,萍乡市,市政府车库,,38,36,44,26,28,75,,69,69,13,12,5,5,0.6,0.6
2025-04-23T1600,2350A,113.8676,27.6435,萍乡市,市环保局,,42,42,46,24,30,77,,67,67,14,12,4,4,0.7,0.7
2025-04-23T1600,2351A,113.866,27.6198,萍乡市,安源区政府,细颗粒物(PM2.5),54,,46,38,37,65,,60,60,14,11,12,11,0.8,0.7
2025-04-23T1600,2319A,119.0141,25.4325,莆田市,荔城区仓后路,,46,45,41,32,23,100,,84,84,18,21,3,3,0.8,0.7
2025-04-23T1600,2320A,119.0015,25.4553,莆田市,莆田市监测站,细颗粒物(PM2.5),53,47,40,37,27,104,,87,87,16,18,5,5,0.7,0.6
2025-04-23T1600,2321A,119.1119,25.4561,莆田市,涵江区六中,颗粒物(PM10),51,51,38,32,22,90,,77,77,19,22,4,4,0.9,0.5
2025-04-23T1600,2322A,119.1013,25.3215,莆田市,秀屿区政府,,44,44,32,26,22,109,,89,89,10,11,4,4,0.7,0.7
2025-04-23T1600,2323A,118.981,25.4792,莆田市,东圳水库,,,,,,,,,,,,,,,,
2025-04-23T1600,2392A,115.0312,35.7636,濮阳市,环保局,颗粒物(PM10),68,85,59,26,25,156,,128,128,12,18,9,8,0.7,0.6
2025-04-23T1600,2394A,115.0574,35.7609,濮阳市,油田运输公司,臭氧1小时,67,80,71,43,28,173,,139,139,16,24,8,8,0.7,0.7
2025-04-23T1600,3021A,115,35.7668,濮阳市,濮水河管理处,颗粒物(PM10),75,99,72,29,28,170,,136,136,8,19,8,6,0.7,0.7
2025-04-23T1600,4216A,115.0924,35.7686,濮阳市,任丘路479号,臭氧1小时,72,86,75,27,27,177,,150,150,6,17,9,8,0.6,0.6
2025-04-23T1600,2601A,100.98,22.7633,普洱市,市环保局,颗粒物(PM10),66,82,70,15,31,107,,91,91,10,15,8,8,0.6,0.6
2025-04-23T1600,2602A,100.9817,22.8322,普洱市,普洱第二中学,颗粒物(PM10),54,57,48,17,24,119,,90,90,6,18,7,7,0.9,0.9
2025-04-23T1600,2262A,131.0518,45.8751,七台河市,新一中,,33,25,15,14,9,105,,102,102,9,10,12,11,0.6,0.7
2025-04-23T1600,3345A,131.0577,45.7879,七台河市,中波台,,25,25,22,16,10,79,,79,79,19,20,6,7,0.5,0.6
2025-04-23T1600,3637A,131.0176,45.7761,七台河市,人民广场,,32,32,37,20,23,102,,101,101,9,23,8,10,0.4,0.6
2025-04-23T1600,3684A,130.8781,45.8222,七台河市,新建矿广场,,48,48,36,11,14,93,,91,91,13,26,6,8,0.5,0.5
2025-04-23T1600,1779A,123.9305,47.3636,齐齐哈尔市,安居小区,,,30,30,3,8,80,,74,74,,13,8,6,0.3,0.3
2025-04-23T1600,1780A,123.9488,47.3386,齐齐哈尔市,中心广场,,26,21,30,3,8,81,,77,77,14,12,8,8,0.2,0.2
2025-04-23T1600,1781A,123.9483,47.3227,齐齐哈尔市,农牧车辆厂,,29,29,24,6,10,86,,79,79,10,10,5,5,0.1,0.1
2025-04-23T1600,1783A,123.945,47.2988,齐齐哈尔市,市环境监测站,,27,20,23,9,10,85,,78,78,12,9,2,2,0.2,0.2
2025-04-23T1600,3662A,123.6333,47.2075,齐齐哈尔市,富区青少年活动中心,,42,33,32,29,15,80,,71,70,11,9,5,2,0.5,0.4
2025-04-23T1600,2591A,107.9783,26.5747,黔东南苗族侗族自治州,市环境监测站,颗粒物(PM10),52,53,36,28,20,75,,75,69,7,7,3,3,0.3,0.3
2025-04-23T1600,2881A,107.8908,26.5311,黔东南苗族侗族自治州,凯里学院,颗粒物(PM10),52,53,42,26,18,76,,75,72,12,5,2,2,0.3,0.2
2025-04-23T1600,2593A,107.5228,26.2403,黔南布依族苗族自治州,小围寨,颗粒物(PM10),57,63,37,29,15,84,,77,77,6,6,4,5,0.6,0.7
2025-04-23T1600,3538A,107.5175,26.2978,黔南布依族苗族自治州,沙坝,颗粒物(PM10),59,68,40,27,16,84,,81,81,8,7,4,4,0.6,0.5
2025-04-23T1600,2589A,104.9022,25.0925,黔西南布依族苗族自治州,场坝街,颗粒物(PM10),55,60,42,37,23,92,,72,72,14,13,5,6,0.3,0.3
2025-04-23T1600,2590A,104.8811,25.0992,黔西南布依族苗族自治州,坪东大道,颗粒物(PM10),55,60,37,32,18,92,,71,70,13,13,6,5,0.3,0.3
2025-04-23T1600,2502A,108.6236,21.9667,钦州市,市环保站,,39,39,30,17,13,93,,74,74,12,11,5,3,0.9,0.8
2025-04-23T1600,2503A,108.6549,21.9481,钦州市,沙埠小学,,43,43,35,25,19,96,,79,79,12,12,8,7,0.7,0.7
2025-04-23T1600,2504A,108.5989,21.7431,钦州市,港区一小,颗粒物(PM10),60,70,49,20,18,65,,58,58,14,14,10,9,0.6,0.6
2025-04-23T1600,3404A,108.5959,21.9633,钦州市,北职校,,40,40,34,17,19,83,,68,68,12,9,10,7,0.8,0.6
2025-04-23T1600,1043A,119.7493,40.0116,秦皇岛市,第一关,颗粒物(PM10),79,108,64,45,30,142,,128,128,35,39,8,9,0.7,0.6
2025-04-23T1600,1044A,119.5897,39.9499,秦皇岛市,监测站,,,100,71,27,24,156,,123,123,16,25,9,10,,0.8
2025-04-23T1600,1046A,119.5251,39.9041,秦皇岛市,建设大厦,颗粒物(PM10),91,131,71,21,24,149,,117,117,18,28,8,11,0.6,0.9
2025-04-23T1600,3132A,119.610547,39.943889,秦皇岛市,文明里,颗粒物(PM10),88,126,70,40,26,148,,114,114,21,28,8,10,0.6,0.7
2025-04-23T1600,4198A,119.5090,39.8253,秦皇岛市,北戴河轮滑馆,颗粒物(PM10),90,130,58,32,17,142,,121,121,19,21,6,7,0.6,0.6
2025-04-23T1600,1307A,120.6659,36.2403,青岛市,仰口,,39,35,23,13,12,122,,108,108,21,10,8,7,0.4,0.3
2025-04-23T1600,1310A,120.4134,36.0658,青岛市,市南区东部子站,,30,22,39,12,13,96,,89,89,32,31,10,9,0.5,0.5
2025-04-23T1600,1311A,120.3664,36.1032,青岛市,四方区子站,,38,24,36,7,16,120,,112,112,17,28,7,7,0.5,0.5
2025-04-23T1600,1312A,120.2994,36.054,青岛市,市南区西部子站,,29,17,28,7,13,91,,75,75,42,39,10,9,0.6,0.6
2025-04-23T1600,1313A,120.4581,36.0858,青岛市,崂山区子站,,35,9,31,3,7,109,,92,92,22,23,11,10,0.5,0.5
2025-04-23T1600,1315A,120.3999,36.3083,青岛市,城阳区子站,颗粒物(PM10),54,58,47,17,16,137,,118,118,23,31,13,12,0.8,0.6
2025-04-23T1600,1966A,120.0405,35.8735,青岛市,黄岛区4号,,29,17,26,3,6,92,,82,82,27,25,10,10,0.6,0.6
2025-04-23T1600,3362A,120.5014,36.4034,青岛市,即墨2号,颗粒物(PM10),64,78,54,21,20,157,,128,128,21,26,12,10,0.7,0.5
2025-04-23T1600,3642A,120.3503,36.0736,青岛市,市北区南部,,35,22,36,3,11,109,,96,96,16,27,7,8,0.4,0.6
2025-04-23T1600,3643A,120.3948,36.1805,青岛市,李沧区北部,,48,48,44,14,19,115,,103,103,20,34,10,10,0.7,0.6
2025-04-23T1600,4290A,120.1969,35.9546,青岛市,珠江路669号,,25,24,32,17,15,76,,91,91,40,37,11,9,0.6,0.6
2025-04-23T1600,1702A,113.0426,23.691,清远市,环保大楼,颗粒物(PM10),93,135,75,52,31,175,,82,82,12,20,7,7,0.9,0.8
2025-04-23T1600,1703A,113.0208,23.7106,清远市,凤城街办,细颗粒物(PM2.5),74,60,48,54,29,138,,68,68,14,24,6,5,0.6,0.6
2025-04-23T1600,3025A,113.0477,23.6344,清远市,技师学院,细颗粒物(PM2.5),58,61,51,41,33,156,,86,86,18,26,10,9,0.6,0.5
2025-04-23T1600,3318A,112.9903,23.7403,清远市,清新太和,,48,46,44,33,30,124,,68,68,9,18,8,7,0.6,0.5
2025-04-23T1600,3455A,113.076,23.7198,清远市,清城东城,细颗粒物(PM2.5),53,53,50,37,32,129,,73,73,9,18,8,7,0.9,0.9
2025-04-23T1600,2661A,107.6325,35.7357,庆阳市,庆阳五中,,36,31,116,3,46,114,,102,102,2,11,2,5,0.2,0.3
2025-04-23T1600,2662A,107.6364,35.7067,庆阳市,市环保局,,36,29,114,9,45,115,,105,105,3,12,4,9,0.4,0.5
2025-04-23T1600,1916A,103.7897,25.5035,曲靖市,环境监测站,颗粒物(PM10),55,59,42,24,18,118,,84,84,14,14,6,8,0.1,0.2
2025-04-23T1600,1917A,103.8,25.5364,曲靖市,烟厂办公区,,50,50,42,26,18,126,,91,91,11,11,4,4,0.4,0.4
2025-04-23T1600,3376A,103.7947,25.462,曲靖市,南苑二区,颗粒物(PM10),54,57,42,23,20,122,,91,91,11,11,6,6,0.4,0.4
2025-04-23T1600,3377A,103.7444,25.5261,曲靖市,曲靖师范学院,细颗粒物(PM2.5),53,47,41,37,23,125,,91,91,10,12,8,9,0.4,0.4
