timepoint,stationcode,longitude,latitude,area,positionname,primarypollutant,aqi,pm10,pm10_24h,pm2_5,pm2_5_24h,o3,o3_24h,o3_8h,o3_8h_24h,no2,no2_24h,so2,so2_24h,co,co_24h
2023-03-02T11:00:00,1001A,116.3621,39.8784,北京市,万寿西宫,颗粒物(PM10),57,64,28,21,9,80,45,24,24,34,31,2,2,0.4,0.3
2023-03-02T11:00:00,1002A,116.2202,40.2915,北京市,定陵,,24,24,11,8,4,81,57,62,43,13,6,3,3,0.2,0.1
2023-03-02T11:00:00,1003A,116.4174,39.9289,北京市,东四,颗粒物(PM10),54,57,30,16,7,89,51,40,27,37,27,2,3,0.4,0.2
2023-03-02T11:00:00,1004A,116.4072,39.8863,北京市,天坛,颗粒物(PM10),53,55,26,17,7,80,51,19,17,31,30,2,3,0.3,0.2
2023-03-02T11:00:00,1005A,116.462,39.9365,北京市,农展馆,颗粒物(PM10),57,63,26,22,8,77,28,32,22,58,34,3,1,0.5,0.2
2023-03-02T11:00:00,1006A,116.3392,39.9295,北京市,官园,颗粒物(PM10),51,51,27,18,7,92,50,41,30,42,32,4,3,0.3,0.2
2023-03-02T11:00:00,1007A,116.2878,39.9611,北京市,海淀万柳,颗粒物(PM10),54,58,34,14,7,64,19,12,12,55,40,3,1,0.5,0.3
2023-03-02T11:00:00,1008A,116.6636,40.135,北京市,顺义新城,颗粒物(PM10),57,64,26,12,6,85,43,36,17,30,23,3,3,0.3,0.2
2023-03-02T11:00:00,1009A,116.6275,40.3275,北京市,怀柔镇,,41,41,16,12,5,73,43,49,36,29,14,1,2,0.3,0.2
2023-03-02T11:00:00,1010A,116.2296,40.217,北京市,昌平镇,,34,34,15,10,5,83,43,63,38,30,13,1,3,0.1,0
2023-03-02T11:00:00,1011A,116.3966,39.9821,北京市,奥体中心,颗粒物(PM10),51,51,27,22,9,73,25,35,19,47,32,2,2,0.5,0.3
2023-03-02T11:00:00,1012A,116.184,39.9136,北京市,古城,颗粒物(PM10),54,58,34,13,7,88,45,20,19,30,35,1,3,0.4,0.4
2023-03-02T11:00:00,1015A,117.1444,39.1661,天津市,勤俭道,颗粒物(PM10),51,51,48,21,17,84,71,22,22,20,40,7,5,0.5,0.5
2023-03-02T11:00:00,1017A,117.237,39.1082,天津市,大直沽八号路,,49,49,43,24,17,84,63,26,26,23,37,8,6,0.6,0.6
2023-03-02T11:00:00,1018A,117.202,39.0927,天津市,前进道,,40,40,40,18,15,90,68,23,23,24,44,6,4,0.6,0.6
2023-03-02T11:00:00,1019A,117.1837,39.2133,天津市,淮河道,颗粒物(PM10),52,54,62,18,20,87,73,23,23,20,46,7,6,0.5,0.5
2023-03-02T11:00:00,1021A,117.307,39.0877,天津市,跃进路,颗粒物(PM10),57,63,62,28,19,86,62,18,18,26,48,11,8,0.6,0.5
2023-03-02T11:00:00,1023A,117.707,39.0343,天津市,第四大街,颗粒物(PM10),58,66,49,24,16,79,38,10,10,48,51,9,8,0.6,0.5
2023-03-02T11:00:00,1024A,117.457,38.8394,天津市,永明路,,49,49,43,23,18,82,44,12,12,43,47,9,8,0.7,0.7
2023-03-02T11:00:00,1026A,117.764,39.1587,天津市,汉北路,颗粒物(PM10),53,56,44,21,14,84,55,15,15,37,49,12,8,1.2,0.6
2023-03-02T11:00:00,1027A,117.157,38.9194,天津市,团泊洼,,45,45,48,22,23,79,55,15,15,30,47,9,6,0.7,0.7
2023-03-02T11:00:00,1029A,114.4422,38.0444,石家庄市,职工医院,颗粒物(PM10),64,77,78,28,28,99,57,49,21,31,33,14,7,1.0,0.3
2023-03-02T11:00:00,1030A,114.6063,38.0266,石家庄市,高新区,颗粒物(PM10),56,61,61,24,26,99,49,57,26,38,33,6,5,0.7,0.4
2023-03-02T11:00:00,1031A,114.4898,38.1328,石家庄市,西北水源,颗粒物(PM10),56,61,71,31,27,98,60,59,16,18,30,4,3,0.5,0.3
2023-03-02T11:00:00,1032A,114.4586,38.0058,石家庄市,西南高教,颗粒物(PM10),73,95,80,24,19,99,52,36,19,34,41,15,7,1.2,0.4
2023-03-02T11:00:00,1033A,114.5331,38.0178,石家庄市,世纪公园,颗粒物(PM10),53,56,53,25,30,95,49,42,26,29,32,9,5,0.8,0.3
2023-03-02T11:00:00,1034A,114.509,38.0457,石家庄市,人民会堂,颗粒物(PM10),62,73,61,17,14,97,58,59,34,31,28,8,5,0.7,0.3
2023-03-02T11:00:00,1035A,114.3524,37.8911,石家庄市,封龙山,,38,38,57,20,28,88,60,71,68,23,16,10,7,0.5,0.2
2023-03-02T11:00:00,1037A,118.131,39.6363,唐山市,雷达站,,47,47,48,14,14,89,63,49,23,24,36,11,5,0.3,0.5
2023-03-02T11:00:00,1038A,118.1725,39.6334,唐山市,物资局,,,,48,,26,86,58,58,26,,48,12,6,0.5,0.5
2023-03-02T11:00:00,1040A,118.1705,39.6506,唐山市,十二中,,,55,51,15,26,86,,40,18,40,48,10,5,0.4,0.5
2023-03-02T11:00:00,1041A,118.1869,39.622,唐山市,小山,,40,40,46,8,15,89,66,50,28,28,42,11,6,0.4,0.5
2023-03-02T11:00:00,1042A,119.5134,39.8207,秦皇岛市,北戴河环保局,颗粒物(PM10),63,75,54,30,25,86,55,45,29,30,23,19,10,1.6,0.7
2023-03-02T11:00:00,1043A,119.7493,40.0116,秦皇岛市,第一关,颗粒物(PM10),105,159,62,16,23,79,63,17,17,19,47,9,4,1.1,0.6
2023-03-02T11:00:00,1044A,119.5897,39.9499,秦皇岛市,监测站,颗粒物(PM10),58,66,66,16,28,81,53,18,18,33,43,15,8,1.2,0.7
2023-03-02T11:00:00,1046A,119.5251,39.9041,秦皇岛市,建设大厦,颗粒物(PM10),55,60,62,10,21,85,52,20,20,32,42,16,9,1.2,0.8
2023-03-02T11:00:00,1048A,114.5302,36.6116,邯郸市,东污水处理厂,,,,76,,21,88,,50,13,26,37,,12,0.7,0.4
2023-03-02T11:00:00,1049A,114.4918,36.5713,邯郸市,矿院,颗粒物(PM10),78,106,81,48,28,87,53,44,18,32,32,20,11,0.8,0.4
2023-03-02T11:00:00,1050A,114.484,36.6133,邯郸市,丛台公园,颗粒物(PM10),63,75,62,35,19,87,53,53,22,31,30,17,11,1.0,0.7
2023-03-02T11:00:00,1051A,115.493,38.8632,保定市,游泳馆,颗粒物(PM10),63,76,57,23,18,98,61,22,21,23,36,5,3,0.4,0.5
2023-03-02T11:00:00,1052A,115.5213,38.8959,保定市,华电二区,颗粒物(PM10),53,55,52,14,19,90,61,31,31,19,27,9,7,0.5,0.5
2023-03-02T11:00:00,1053A,115.4713,38.9108,保定市,接待中心,颗粒物(PM10),56,62,56,14,17,87,60,27,27,23,34,8,6,0.3,0.2
2023-03-02T11:00:00,1054A,115.4612,38.8416,保定市,地表水厂,颗粒物(PM10),65,80,77,28,25,90,54,18,18,30,44,9,8,0.2,0.2
2023-03-02T11:00:00,1056A,115.5086,38.8639,保定市,监测站,颗粒物(PM10),69,87,68,26,23,97,62,24,22,27,44,8,7,0.2,0.3
2023-03-02T11:00:00,1057A,114.8883,40.8336,张家口市,人民公园,,21,21,21,8,6,92,67,55,54,11,11,6,5,0.4,0.4
2023-03-02T11:00:00,1059A,114.8687,40.8042,张家口市,五金库,,29,29,15,17,9,85,58,56,54,16,13,5,3,0.3,0.1
2023-03-02T11:00:00,1060A,114.8902,40.762,张家口市,世纪豪园,,30,30,19,14,8,87,56,56,54,18,10,14,11,0.7,0.5
2023-03-02T11:00:00,1061A,114.8916,40.8661,张家口市,北泵房,,23,15,19,4,10,96,73,56,56,8,10,9,10,0.3,0.2
2023-03-02T11:00:00,1062A,117.9531,40.9081,承德市,铁路,颗粒物(PM10),52,53,42,19,15,83,40,35,24,30,19,20,8,0.7,0.4
2023-03-02T11:00:00,1063A,117.9392,40.9763,承德市,中国银行,,49,49,47,12,11,82,45,25,23,24,21,14,6,0.6,0.4
2023-03-02T11:00:00,1064A,117.9503,40.928,承德市,开发区,,,45,48,22,20,89,46,21,21,,26,22,7,0.7,0.5
2023-03-02T11:00:00,1065A,117.8051,40.9655,承德市,文化中心,颗粒物(PM10),52,53,55,12,14,81,52,26,26,23,26,38,9,1.3,0.5
2023-03-02T11:00:00,1066A,117.9268,41.0026,承德市,离宫,,35,35,35,6,12,84,52,35,32,16,14,19,9,0.5,0.3
2023-03-02T11:00:00,1067A,116.6708,39.5111,廊坊市,药材公司,颗粒物(PM10),57,64,43,16,14,88,64,31,21,28,39,4,3,0.5,0.5
2023-03-02T11:00:00,1068A,116.7214,39.5589,廊坊市,开发区,颗粒物(PM10),51,52,43,15,14,88,62,41,23,36,39,10,8,0.5,0.5
2023-03-02T11:00:00,1070A,116.7244,39.5269,廊坊市,北华航天学院,颗粒物(PM10),58,66,46,16,14,85,59,28,24,37,41,5,3,0.4,0.4
2023-03-02T11:00:00,1071A,116.8842,38.2991,沧州市,沧县城建局,颗粒物(PM10),51,51,65,10,23,97,78,42,42,19,41,12,10,0.3,0.4
2023-03-02T11:00:00,1072A,116.8584,38.3254,沧州市,电视转播站,,46,46,48,11,14,91,68,42,42,29,45,10,8,0.6,0.7
2023-03-02T11:00:00,1073A,116.8709,38.3228,沧州市,市环保局,,47,47,55,24,22,93,69,43,43,31,46,10,5,0.2,0.2
2023-03-02T11:00:00,1074A,115.6838,37.7541,衡水市,电机北厂,颗粒物(PM10),78,105,68,18,18,92,60,52,36,24,23,20,4,0.6,0.5
2023-03-02T11:00:00,1075A,115.6303,37.7316,衡水市,市监测站,颗粒物(PM10),62,74,56,24,14,94,56,57,36,27,23,17,6,0.6,0.4
2023-03-02T11:00:00,1077A,114.4704,37.0886,邢台市,达活泉,颗粒物(PM10),96,142,77,61,25,85,28,48,18,56,28,56,11,3.4,0.8
2023-03-02T11:00:00,1078A,114.5062,37.0349,邢台市,邢师高专,颗粒物(PM10),91,131,74,48,22,82,28,38,13,50,33,25,9,1.7,0.7
2023-03-02T11:00:00,1079A,114.5237,37.0851,邢台市,路桥公司,,,130,73,46,18,86,28,39,19,56,31,,7,2.2,0.6
2023-03-02T11:00:00,1080A,114.4725,37.0719,邢台市,市环保局,颗粒物(PM10),109,167,81,53,21,88,29,49,20,56,28,45,11,3.0,0.8
2023-03-02T11:00:00,1081A,112.522,37.8873,太原市,尖草坪,颗粒物(PM10),69,88,73,26,19,78,36,13,13,46,48,31,15,1.0,0.7
2023-03-02T11:00:00,1083A,112.434,38.0108,太原市,上兰,,,,,,,,,,,,,,,,
2023-03-02T11:00:00,1084A,112.469,37.7124,太原市,晋源,颗粒物(PM10),65,79,54,29,18,98,32,11,11,45,45,14,6,0.8,0.7
2023-03-02T11:00:00,1085A,112.5583,37.7394,太原市,小店,颗粒物(PM10),72,94,84,28,25,91,32,7,7,48,53,16,7,0.7,0.5
2023-03-02T11:00:00,1086A,112.5369,37.8692,太原市,桃园,颗粒物(PM10),72,93,61,30,21,81,31,11,11,55,49,30,13,1.3,0.6
2023-03-02T11:00:00,1087A,112.57,37.8195,太原市,坞城,颗粒物(PM10),75,100,66,40,21,84,24,9,9,64,51,30,13,1.2,0.6
2023-03-02T11:00:00,1088A,112.549,37.9854,太原市,南寨,,,84,62,29,14,92,,7,7,53,41,48,6,2.2,0.8
2023-03-02T11:00:00,1090A,111.6507,40.7517,呼和浩特市,呼市一监,,,66,69,32,36,96,,10,10,27,38,16,10,0.7,0.7
2023-03-02T11:00:00,1091A,111.6572,40.8033,呼和浩特市,小召,颗粒物(PM10),63,75,50,36,26,89,47,25,25,40,48,20,16,0.8,0.7
2023-03-02T11:00:00,1094A,111.7516,40.8369,呼和浩特市,如意水处理厂,颗粒物(PM10),58,66,46,29,18,95,56,21,21,29,39,17,12,0.6,0.5
2023-03-02T11:00:00,1095A,111.7276,40.8062,呼和浩特市,二十九中,颗粒物(PM10),59,67,56,31,24,90,50,21,21,32,44,15,11,0.7,0.6
2023-03-02T11:00:00,1096A,111.5512,40.7866,呼和浩特市,工大金川校区,颗粒物(PM10),77,104,63,48,20,91,42,16,16,36,36,19,12,1.1,0.7
2023-03-02T11:00:00,1097A,111.717,40.7612,呼和浩特市,化肥厂生活区,颗粒物(PM10),56,61,77,27,30,92,47,15,15,34,38,17,13,0.6,0.7
2023-03-02T11:00:00,1098A,123.6836,41.9339,沈阳市,森林路,,,,,,,,,,,,,,,,
2023-03-02T11:00:00,1099A,123.505,41.7406,沈阳市,浑南东路,,48,48,53,19,17,80,70,68,39,19,23,24,12,0.8,0.5
2023-03-02T11:00:00,1100A,123.4231,41.6989,沈阳市,新秀街,,,60,65,22,14,84,67,68,26,18,24,,12,0.8,0.4
2023-03-02T11:00:00,1102A,123.5903,41.8411,沈阳市,东陵路,,,44,60,19,17,81,71,48,33,,22,15,9,,0.4
2023-03-02T11:00:00,1103A,123.4264,41.8467,沈阳市,陵东街,,46,46,56,21,16,89,69,70,47,23,19,16,11,0.6,0.5
2023-03-02T11:00:00,1104A,123.4114,41.7653,沈阳市,文化路,颗粒物(PM10),54,57,64,24,20,83,69,59,39,18,25,16,14,0.8,0.5
2023-03-02T11:00:00,1105A,123.4678,41.7867,沈阳市,小河沿,颗粒物(PM10),52,53,58,24,16,83,70,66,44,19,24,14,13,0.7,0.6
2023-03-02T11:00:00,1106A,123.4017,41.7972,沈阳市,太原街,颗粒物(PM10),54,57,69,30,22,76,60,54,40,24,28,20,13,0.6,0.4
2023-03-02T11:00:00,1108A,123.3783,41.9228,沈阳市,京沈街,,50,50,75,24,22,84,65,56,43,24,21,12,10,0.5,0.4
2023-03-02T11:00:00,1109A,121.612,38.9741,大连市,甘井子,,50,50,48,12,16,89,75,71,52,17,23,8,12,0.3,0.3
2023-03-02T11:00:00,1110A,121.565,38.9511,大连市,周水子,颗粒物(PM10),52,53,57,11,15,84,72,62,44,20,32,5,8,0.5,0.6
2023-03-02T11:00:00,1111A,121.5637,38.8845,大连市,星海三站,,43,43,39,10,13,79,66,70,49,22,25,9,10,0.6,0.6
2023-03-02T11:00:00,1112A,121.6302,38.9117,大连市,青泥洼桥,,,43,39,10,14,81,,66,47,8,21,10,12,0.4,0.5
2023-03-02T11:00:00,1113A,121.6251,38.8638,大连市,傅家庄,颗粒物(PM10),52,54,55,9,11,86,76,63,57,11,18,9,14,0.4,0.4
2023-03-02T11:00:00,1114A,121.5213,38.8661,大连市,七贤岭,,36,36,34,9,9,95,70,70,56,16,16,8,9,0.5,0.6
2023-03-02T11:00:00,1115A,121.2529,38.8061,大连市,旅顺,,33,33,38,12,16,84,72,71,55,12,14,11,13,0.5,0.6
2023-03-02T11:00:00,1116A,121.7485,39.1311,大连市,金州,,49,49,43,19,19,84,60,63,56,28,21,12,12,0.6,0.7
2023-03-02T11:00:00,1117A,121.7811,39.0496,大连市,开发区,,48,48,51,13,15,82,60,67,49,35,32,6,6,0.7,0.7
2023-03-02T11:00:00,1118A,121.9762,39.0631,大连市,双D港,,42,42,40,10,13,90,76,66,66,16,15,10,11,0.6,0.7
2023-03-02T11:00:00,1119A,125.3325,43.9166,长春市,食品厂,颗粒物(PM10),54,58,62,18,21,75,70,32,32,15,30,4,6,0.4,0.4
2023-03-02T11:00:00,1120A,125.2863,43.9027,长春市,客车厂,颗粒物(PM10),59,68,56,24,21,74,68,33,33,14,31,5,6,0.4,0.5
2023-03-02T11:00:00,1121A,125.2841,43.8463,长春市,邮电学院,颗粒物(PM10),58,65,56,16,23,85,74,38,38,16,30,10,11,0.5,0.5
2023-03-02T11:00:00,1122A,125.3716,43.8772,长春市,劳动公园,,38,38,50,14,19,82,74,40,33,16,31,10,12,0.5,0.5
2023-03-02T11:00:00,1123A,125.3297,43.8805,长春市,园林处,颗粒物(PM10),58,65,53,20,20,79,69,35,32,16,29,5,5,0.4,0.4
2023-03-02T11:00:00,1124A,125.4605,43.79,长春市,净月潭,,40,40,42,7,12,79,73,42,42,5,14,4,4,0.3,0.3
2023-03-02T11:00:00,1125A,125.7194,43.515,长春市,甩湾子,,,,,,,,,,,,,,,,
2023-03-02T11:00:00,1126A,125.3863,43.8447,长春市,经开区环卫处,,38,38,48,14,20,81,72,34,34,13,28,7,10,0.5,0.5
2023-03-02T11:00:00,1127A,125.245,43.7783,长春市,高新区管委会,,,48,53,15,27,82,73,29,29,,29,,7,0.3,0.5
2023-03-02T11:00:00,1128A,125.1761,43.8325,长春市,岱山公园,,40,40,57,14,22,79,75,33,33,8,30,5,5,0.6,0.6
2023-03-02T11:00:00,1129A,126.5422,45.755,哈尔滨市,岭北,,48,41,36,33,29,89,78,75,55,12,18,20,20,0.6,0.6
2023-03-02T11:00:00,1130A,126.561,45.8167,哈尔滨市,松北商大,颗粒物(PM10),54,57,36,27,24,76,67,51,49,18,26,8,9,0.6,0.5
2023-03-02T11:00:00,1131A,126.979,45.5419,哈尔滨市,阿城会宁,,50,46,42,35,32,75,75,63,63,16,21,19,17,0.7,0.6
2023-03-02T11:00:00,1132A,126.599,45.7222,哈尔滨市,南岗学府路,,46,46,47,27,29,84,71,63,49,17,26,15,18,0.5,0.5
2023-03-02T11:00:00,1133A,126.689,45.7733,哈尔滨市,太平宏伟公园,颗粒物(PM10),54,57,40,29,26,86,78,76,46,15,30,11,13,0.6,0.5
2023-03-02T11:00:00,1134A,126.635,45.7667,哈尔滨市,道外承德广场,颗粒物(PM10),58,65,36,24,26,77,64,69,43,35,38,11,13,0.6,0.6
2023-03-02T11:00:00,1135A,126.685,45.7319,哈尔滨市,香坊红旗大街,细颗粒物(PM2.5),53,49,42,37,33,83,66,70,39,23,31,7,9,0.6,0.6
2023-03-02T11:00:00,1136A,126.6411,45.7258,哈尔滨市,动力和平路,颗粒物(PM10),52,53,38,27,26,84,68,58,43,18,29,15,15,0.6,0.6
2023-03-02T11:00:00,1137A,126.593,45.7478,哈尔滨市,道里建国路,颗粒物(PM10),57,64,33,32,30,81,68,66,49,22,28,16,9,0.7,0.7
2023-03-02T11:00:00,1138A,126.615,45.61,哈尔滨市,平房东轻厂,,44,44,42,25,30,78,69,55,55,19,27,13,10,0.9,0.9
2023-03-02T11:00:00,1139A,126.595,45.9855,哈尔滨市,呼兰师专,颗粒物(PM10),55,59,39,34,29,79,66,60,54,20,22,14,12,0.5,0.5
2023-03-02T11:00:00,1140A,126.6206,45.6842,哈尔滨市,省农科院,,48,48,47,24,29,90,75,40,40,11,31,14,14,0.5,0.6
2023-03-02T11:00:00,1141A,121.4,31.238,上海市,普陀,颗粒物(PM10),57,64,99,18,72,148,79,95,62,28,43,5,7,0.7,0.9
2023-03-02T11:00:00,1142A,121.478,31.2036,上海市,十五厂,,50,50,59,29,67,143,74,75,71,26,39,7,8,0.5,0.8
2023-03-02T11:00:00,1143A,121.467,31.3008,上海市,虹口,颗粒物(PM10),57,63,92,31,76,151,79,76,69,18,35,6,7,0.6,0.8
2023-03-02T11:00:00,1144A,121.412,31.1654,上海市,徐汇上师大,,45,45,60,16,69,145,76,94,66,25,40,9,11,0.3,0.7
2023-03-02T11:00:00,1145A,121.536,31.2659,上海市,杨浦四漂,颗粒物(PM10),56,61,93,28,74,144,77,78,73,29,39,8,9,0.6,0.8
2023-03-02T11:00:00,1147A,121.425,31.2261,上海市,静安监测站,颗粒物(PM10),52,54,100,20,70,148,82,86,71,24,45,9,11,0.6,0.8
2023-03-02T11:00:00,1148A,121.703,31.1907,上海市,浦东川沙,颗粒物(PM10),56,61,63,26,72,126,79,70,62,18,37,6,6,0.5,0.6
2023-03-02T11:00:00,1149A,121.533,31.2284,上海市,浦东新区监测站,颗粒物(PM10),58,66,103,25,73,125,62,68,64,28,42,9,7,0.9,1
2023-03-02T11:00:00,1150A,121.577,31.2071,上海市,浦东张江,颗粒物(PM10),55,60,62,19,67,148,82,75,68,19,38,5,7,0.6,0.9
2023-03-02T11:00:00,1151A,118.8086,32.1065,南京市,迈皋桥,颗粒物(PM10),66,81,129,22,78,177,93,77,77,8,32,6,8,0.3,0.5
2023-03-02T11:00:00,1152A,118.7538,32.0551,南京市,草场门,颗粒物(PM10),66,82,123,29,68,158,84,88,76,20,35,7,8,0.3,0.6
2023-03-02T11:00:00,1153A,118.7794,32.0745,南京市,山西路,,,,127,,78,166,,103,78,,27,5,7,0.4,0.6
2023-03-02T11:00:00,1154A,118.7752,32.0023,南京市,中华门,颗粒物(PM10),70,90,127,34,76,156,87,74,66,19,38,9,12,0.6,0.9
2023-03-02T11:00:00,1155A,118.8109,32.0309,南京市,瑞金路,颗粒物(PM10),68,85,103,27,71,163,86,79,74,16,31,9,11,0.5,0.6
2023-03-02T11:00:00,1156A,118.7997,32.0754,南京市,玄武湖,颗粒物(PM10),67,84,126,35,86,157,82,83,59,22,38,3,4,0.3,0.4
2023-03-02T11:00:00,1157A,118.6414,32.0931,南京市,浦口,颗粒物(PM10),77,103,135,36,78,165,82,81,54,28,42,6,7,0.4,0.6
2023-03-02T11:00:00,1158A,118.7356,31.9996,南京市,奥体中心,颗粒物(PM10),76,101,132,39,76,157,88,86,73,26,37,6,8,0.4,0.6
2023-03-02T11:00:00,1159A,118.9125,32.1028,南京市,仙林大学城,颗粒物(PM10),62,73,119,24,78,161,92,82,78,15,32,6,8,0.5,0.6
2023-03-02T11:00:00,1160A,120.561,31.2472,苏州市,上方山,,,83,104,48,83,127,71,71,47,,36,,8,0.5,0.8
2023-03-02T11:00:00,1162A,120.591,31.3019,苏州市,彩香,细颗粒物(PM2.5),58,59,116,41,85,156,79,96,46,33,42,7,8,0.7,0.8
2023-03-02T11:00:00,1163A,120.596,31.3264,苏州市,轧钢厂,颗粒物(PM10),59,68,123,40,86,149,71,71,30,27,42,8,8,0.7,0.9
2023-03-02T11:00:00,1164A,120.613,31.2703,苏州市,吴中区,,48,48,112,30,84,146,80,97,58,26,40,7,8,0.6,0.8
2023-03-02T11:00:00,1165A,120.543,31.2994,苏州市,苏州新区,细颗粒物(PM2.5),59,59,113,42,90,149,74,78,46,30,40,7,7,0.8,0.9
2023-03-02T11:00:00,1166A,120.669,31.3097,苏州市,苏州工业园区,,,45,113,28,88,144,,95,53,20,38,,10,0.4,0.6
2023-03-02T11:00:00,1167A,120.641,31.3708,苏州市,相城区,颗粒物(PM10),56,62,118,36,89,158,79,85,58,20,31,7,9,0.6,0.8
2023-03-02T11:00:00,1168A,120.9098,31.9663,南通市,狼山街道,颗粒物(PM10),65,80,118,32,86,168,89,93,89,16,22,6,7,0.5,0.6
2023-03-02T11:00:00,1169A,120.86,32.0005,南通市,虹桥,颗粒物(PM10),66,82,104,30,80,157,85,105,88,21,26,7,7,0.4,0.6
2023-03-02T11:00:00,1170A,120.87,32.02,南通市,城中,颗粒物(PM10),62,73,120,30,84,154,82,96,78,15,24,7,8,0.4,0.5
2023-03-02T11:00:00,1171A,120.94,31.93,南通市,星湖花园,颗粒物(PM10),64,77,117,31,80,159,84,82,79,15,23,6,6,0.6,0.7
2023-03-02T11:00:00,1172A,120.81,32.0417,南通市,紫琅学院,,,86,141,27,91,158,82,76,75,15,28,,7,,0.8
2023-03-02T11:00:00,1173A,119.176,34.5885,连云港市,市环境监测站,颗粒物(PM10),57,63,80,19,32,122,72,78,54,22,28,10,11,0.4,0.4
2023-03-02T11:00:00,1177A,117.179,34.2761,徐州市,黄河新村,颗粒物(PM10),70,90,104,20,43,129,68,50,50,22,31,10,14,0.6,0.7
2023-03-02T11:00:00,1178A,117.1918,34.2384,徐州市,淮塔,颗粒物(PM10),70,90,106,27,43,136,78,54,44,24,36,8,12,0.5,0.7
2023-03-02T11:00:00,1180A,117.256,34.2153,徐州市,新城区,颗粒物(PM10),68,85,98,23,48,132,75,49,49,18,32,10,13,0.8,0.9
2023-03-02T11:00:00,1181A,117.244,34.2911,徐州市,桃园路,颗粒物(PM10),70,90,108,9,39,121,71,46,46,18,32,7,11,0.7,0.8
2023-03-02T11:00:00,1182A,117.2933,34.2778,徐州市,农科院,颗粒物(PM10),64,78,109,9,38,127,73,41,41,11,33,9,11,0.6,0.7
2023-03-02T11:00:00,1186A,119.389,32.3761,扬州市,邗江监测站,颗粒物(PM10),76,102,134,19,99,182,76,108,70,26,33,6,9,0.3,0.6
2023-03-02T11:00:00,1188A,120.269,31.4867,无锡市,雪浪,颗粒物(PM10),67,83,106,31,69,154,73,100,58,30,33,13,13,1.2,1.3
2023-03-02T11:00:00,1189A,120.275,31.6219,无锡市,黄巷,颗粒物(PM10),71,92,121,34,76,154,77,63,53,38,59,12,13,1.4,1.5
2023-03-02T11:00:00,1190A,120.294,31.56,无锡市,曹张,颗粒物(PM10),68,86,128,36,70,150,66,75,61,40,44,11,12,1.4,1.5
2023-03-02T11:00:00,1191A,120.242,31.5031,无锡市,漆塘,颗粒物(PM10),69,88,107,36,69,150,76,94,54,33,35,14,14,1.1,1.2
2023-03-02T11:00:00,1192A,120.3489,31.5863,无锡市,东亭,颗粒物(PM10),68,85,120,36,80,142,68,88,48,31,50,16,14,1.1,1.2
2023-03-02T11:00:00,1193A,120.354,31.5475,无锡市,旺庄,颗粒物(PM10),67,83,107,34,75,151,66,90,52,35,40,13,12,1.4,1.3
2023-03-02T11:00:00,1194A,120.245,31.5631,无锡市,荣巷,颗粒物(PM10),68,85,105,31,68,155,71,87,66,33,34,14,17,1.0,1.3
2023-03-02T11:00:00,1195A,120.299,31.6817,无锡市,堰桥,颗粒物(PM10),74,97,122,34,77,166,74,88,62,31,40,16,14,1.3,1.2
2023-03-02T11:00:00,1196A,119.9633,31.762,常州市,市监测站,,,,127,,89,163,,79,79,31,32,8,9,0.6,0.7
2023-03-02T11:00:00,1200A,119.9468,31.7069,常州市,武进监测站,细颗粒物(PM2.5),57,58,122,40,84,159,70,94,70,33,32,11,11,0.8,0.9
2023-03-02T11:00:00,1201A,119.9255,31.9087,常州市,安家,,50,47,133,35,99,165,79,80,74,23,37,8,11,0.6,0.8
2023-03-02T11:00:00,1203A,119.6707,32.1875,镇江市,新区办事处,,48,48,134,21,92,162,80,94,76,22,38,4,6,0.6,0.9
2023-03-02T11:00:00,1204A,119.4974,32.1968,镇江市,职教中心,颗粒物(PM10),63,76,132,20,95,185,74,88,68,28,39,7,9,0.4,0.6
2023-03-02T11:00:00,1205A,119.4303,32.1328,镇江市,丹徒区监测站,颗粒物(PM10),56,61,134,29,102,173,71,98,67,28,31,6,8,0.5,0.7
2023-03-02T11:00:00,1206A,119.905,32.4878,泰州市,公园路,颗粒物(PM10),62,73,125,19,91,177,81,99,64,12,22,8,11,0.8,1
2023-03-02T11:00:00,1207A,119.9189,32.4625,泰州市,莲花,颗粒物(PM10),62,73,125,24,88,174,81,105,66,16,25,9,11,0.7,1
2023-03-02T11:00:00,1209A,119.888,32.4639,泰州市,留学生创业园,,39,39,184,10,85,167,78,102,63,19,29,9,12,0.5,0.8
2023-03-02T11:00:00,1210A,119.036,33.5981,淮安市,钵池山,颗粒物(PM10),60,70,100,12,56,135,76,66,53,16,32,7,8,0.5,0.7
2023-03-02T11:00:00,1211A,119.007,33.575,淮安市,北京南路,颗粒物(PM10),57,63,98,27,67,131,70,76,52,19,31,8,11,0.5,0.8
2023-03-02T11:00:00,1212A,118.989,33.6067,淮安市,市监测站,颗粒物(PM10),56,61,104,9,57,141,73,72,61,22,32,7,10,0.6,0.9
2023-03-02T11:00:00,1213A,119.135,33.5039,淮安市,楚州区监测站,颗粒物(PM10),56,61,110,22,63,137,73,74,52,17,32,8,10,0.4,0.6
2023-03-02T11:00:00,1214A,119.0186,33.6297,淮安市,淮阴区监测站,颗粒物(PM10),64,78,125,7,63,137,73,52,50,18,38,9,12,0.5,0.7
2023-03-02T11:00:00,1215A,120.118,33.4022,盐城市,盐城电厂,颗粒物(PM10),56,61,112,23,51,171,86,80,58,16,29,9,9,0.6,0.7
2023-03-02T11:00:00,1216A,120.156,33.3942,盐城市,市监测站,颗粒物(PM10),52,53,104,22,55,163,84,80,52,16,33,7,9,0.4,0.6
2023-03-02T11:00:00,1218A,120.2144,33.38,盐城市,开发区管委会,颗粒物(PM10),53,55,128,13,67,171,86,75,51,12,28,8,5,0.5,0.7
2023-03-02T11:00:00,1220A,118.293,33.9528,宿迁市,宿迁学院,,,43,85,15,56,132,,57,50,,35,7,9,0.4,0.5
2023-03-02T11:00:00,1221A,118.2442,33.9592,宿迁市,宿迁中学,颗粒物(PM10),51,51,84,22,51,128,69,61,61,27,36,6,6,0.8,0.6
2023-03-02T11:00:00,1223A,120.2072,30.2111,杭州市,滨江,细颗粒物(PM2.5),73,74,96,53,62,112,97,105,75,31,40,12,9,0.9,0.8
2023-03-02T11:00:00,1224A,120.0633,30.2747,杭州市,西溪,细颗粒物(PM2.5),82,88,114,60,64,116,88,103,43,43,34,10,7,1.0,0.9
2023-03-02T11:00:00,1226A,120.3461,30.3153,杭州市,下沙,细颗粒物(PM2.5),70,81,120,51,84,101,95,96,46,20,56,10,10,0.8,0.9
2023-03-02T11:00:00,1227A,120.1269,30.2456,杭州市,卧龙桥,细颗粒物(PM2.5),73,74,82,53,60,114,94,108,49,31,35,11,8,1.0,0.9
2023-03-02T11:00:00,1228A,120.1903,30.2692,杭州市,浙江农大,细颗粒物(PM2.5),74,72,105,54,80,117,108,98,68,30,44,7,7,0.7,0.7
2023-03-02T11:00:00,1230A,120.1197,30.3119,杭州市,和睦小学,细颗粒物(PM2.5),84,90,121,62,84,101,93,92,52,31,48,9,7,0.7,0.7
2023-03-02T11:00:00,1231A,120.3019,30.4183,杭州市,临平镇,颗粒物(PM10),63,76,110,42,79,123,103,115,78,21,36,11,11,0.6,0.9
2023-03-02T11:00:00,1232A,120.2697,30.1819,杭州市,城厢镇,细颗粒物(PM2.5),79,90,92,58,72,122,92,122,63,41,54,10,7,0.8,0.9
2023-03-02T11:00:00,1233A,120.0883,30.1808,杭州市,云栖,细颗粒物(PM2.5),65,76,88,47,55,110,102,104,56,27,27,10,6,0.8,0.8
2023-03-02T11:00:00,1234A,121.8358,29.911,宁波市,区环保大楼,细颗粒物(PM2.5),58,55,64,41,48,110,96,95,69,32,45,10,8,0.6,0.6
2023-03-02T11:00:00,1235A,121.56,29.82,宁波市,万里学院,细颗粒物(PM2.5),57,58,87,40,62,141,101,112,80,23,31,7,8,0.5,0.6
2023-03-02T11:00:00,1236A,121.713,29.9572,宁波市,龙赛医院,细颗粒物(PM2.5),67,66,78,48,46,113,94,105,76,26,35,8,8,0.5,0.7
2023-03-02T11:00:00,1239A,121.633,29.7733,宁波市,钱湖水厂,,45,35,61,28,54,146,141,104,73,25,26,8,8,0.6,0.7
2023-03-02T11:00:00,1240A,121.5856,29.8635,宁波市,太古小学,颗粒物(PM10),51,52,78,33,48,143,100,101,80,26,30,9,10,0.7,0.8
2023-03-02T11:00:00,1241A,121.524,29.8674,宁波市,市环境监测中心,,,43,59,13,30,130,,114,70,17,26,7,7,0.6,0.7
2023-03-02T11:00:00,1242A,120.634,28.0089,温州市,瓯海,细颗粒物(PM2.5),53,54,91,37,59,115,115,79,79,19,37,8,7,0.4,0.6
2023-03-02T11:00:00,1243A,120.6748,27.9939,温州市,南浦,细颗粒物(PM2.5),52,42,79,36,59,109,109,85,79,12,30,7,7,0.5,0.6
2023-03-02T11:00:00,1244A,120.76,27.9747,温州市,龙湾,,31,31,99,18,56,100,93,76,76,27,58,8,8,0.3,0.5
2023-03-02T11:00:00,1245A,120.6709,28.0167,温州市,市站,,,,85,,58,102,,70,64,26,41,7,6,0.5,0.7
2023-03-02T11:00:00,1247A,120.6053,29.9928,绍兴市,城东开发委,,,93,105,68,73,117,,97,51,29,42,,8,0.9,0.9
2023-03-02T11:00:00,1250A,120.0751,30.8669,湖州市,城西水厂,细颗粒物(PM2.5),104,53,70,78,155,135,95,71,36,25,51,8,9,0.4,0.7
2023-03-02T11:00:00,1252A,120.7436,30.778,嘉兴市,清河小学,颗粒物(PM10),57,64,118,32,81,104,77,84,56,22,35,7,9,0.6,0.8
2023-03-02T11:00:00,1253A,120.726,30.7478,嘉兴市,嘉兴学院,颗粒物(PM10),59,67,108,38,82,115,84,95,66,34,42,6,8,0.5,0.8
2023-03-02T11:00:00,1255A,121.273,28.6459,台州市,黄岩环保大楼,,44,44,66,24,54,135,112,109,92,17,25,9,9,0.4,0.5
2023-03-02T11:00:00,1256A,121.419,28.6542,台州市,台州环保大楼,,46,46,82,16,42,126,118,123,104,16,22,9,7,0.4,0.5
2023-03-02T11:00:00,1257A,121.377,28.5773,台州市,路桥田洋王,,,48,80,15,42,130,,120,101,15,22,10,10,0.5,0.6
2023-03-02T11:00:00,1258A,122.122,30.0203,舟山市,定海檀枫,,,49,73,33,51,136,86,115,87,,25,,6,0.5,0.6
2023-03-02T11:00:00,1259A,122.3094,29.9558,舟山市,普陀东港,,46,46,80,30,53,137,91,112,92,17,19,6,6,0.4,0.5
2023-03-02T11:00:00,1260A,122.19,29.9944,舟山市,临城新区,颗粒物(PM10),56,62,84,39,52,137,92,121,90,28,28,5,6,0.6,0.8
2023-03-02T11:00:00,1262A,119.647,29.077,金华市,十五中,细颗粒物(PM2.5),72,64,88,52,77,110,110,85,85,23,45,7,11,0.6,0.8
2023-03-02T11:00:00,1263A,119.686,29.1029,金华市,监测站,细颗粒物(PM2.5),73,58,75,53,80,119,119,89,89,21,50,7,10,0.5,0.8
2023-03-02T11:00:00,1264A,118.8692,28.9398,衢州市,环保大楼,细颗粒物(PM2.5),94,87,76,70,65,94,94,52,52,18,42,11,10,0.6,0.7
2023-03-02T11:00:00,1265A,118.8709,28.9666,衢州市,实验学校,细颗粒物(PM2.5),85,84,80,63,56,113,113,66,66,18,39,8,6,0.4,0.5
2023-03-02T11:00:00,1266A,118.8621,28.9808,衢州市,衢州学院,细颗粒物(PM2.5),79,76,80,58,58,107,107,59,59,15,44,7,7,0.5,0.6
2023-03-02T11:00:00,1267A,119.914,28.4514,丽水市,监测站大楼,细颗粒物(PM2.5),74,68,57,54,53,122,116,103,103,20,20,10,10,0.4,0.5
2023-03-02T11:00:00,1268A,119.93,28.4586,丽水市,莲都小学,细颗粒物(PM2.5),70,78,82,51,54,126,119,105,105,21,26,9,9,0.4,0.4
2023-03-02T11:00:00,1269A,119.879,28.4231,丽水市,余庄前,,,83,62,60,48,126,113,69,69,17,22,,10,0.4,0.3
2023-03-02T11:00:00,1270A,117.1959,31.7848,合肥市,明珠广场,颗粒物(PM10),79,108,125,56,70,164,93,36,36,30,59,12,11,1.0,1
2023-03-02T11:00:00,1271A,117.3072,31.8764,合肥市,三里街,颗粒物(PM10),79,107,126,48,75,150,83,35,35,37,63,12,9,1.0,0.9
2023-03-02T11:00:00,1272A,117.2588,31.8707,合肥市,琥珀山庄,颗粒物(PM10),80,110,123,56,69,156,96,44,44,36,57,12,8,0.8,0.9
2023-03-02T11:00:00,1273A,117.1604,31.9052,合肥市,董铺水库,颗粒物(PM10),95,139,138,63,76,144,78,30,30,36,51,9,7,0.7,0.6
2023-03-02T11:00:00,1274A,117.25,31.8571,合肥市,长江中路,细颗粒物(PM2.5),100,122,131,75,95,154,87,37,37,31,55,16,14,1.2,1.2
2023-03-02T11:00:00,1275A,117.266,31.9436,合肥市,庐阳区,颗粒物(PM10),88,125,135,62,80,148,88,36,30,30,56,11,11,0.8,0.8
2023-03-02T11:00:00,1276A,117.336,31.8586,合肥市,瑶海区,颗粒物(PM10),86,122,134,61,85,144,93,40,40,26,57,13,10,0.9,0.9
2023-03-02T11:00:00,1277A,117.3027,31.7964,合肥市,包河区,细颗粒物(PM2.5),85,114,138,63,84,143,96,26,26,22,78,15,15,1.1,1.1
2023-03-02T11:00:00,1278A,117.2776,31.7385,合肥市,滨湖新区,颗粒物(PM10),76,102,130,51,75,151,100,51,51,19,52,12,10,0.7,0.8
2023-03-02T11:00:00,1279A,117.1318,31.8403,合肥市,高新区,颗粒物(PM10),79,108,122,39,75,152,91,53,33,28,57,8,10,1.1,1.1
2023-03-02T11:00:00,1280A,119.3903,26.0543,福州市,鼓山,,,,,,,,,,,,,,,,
2023-03-02T11:00:00,1282A,119.2681,26.0504,福州市,师大,细颗粒物(PM2.5),114,71,51,86,45,119,114,110,103,26,23,6,6,0.7,0.5
2023-03-02T11:00:00,1283A,119.2984,26.1028,福州市,五四北路,细颗粒物(PM2.5),119,62,44,90,46,119,111,104,104,26,19,5,4,0.7,0.5
2023-03-02T11:00:00,1284A,119.2648,26.0768,福州市,杨桥西路,细颗粒物(PM2.5),118,62,48,89,42,115,115,103,103,17,18,5,4,0.7,0.5
2023-03-02T11:00:00,1285A,119.317,26.0746,福州市,紫阳,细颗粒物(PM2.5),105,64,48,79,43,117,112,104,102,20,18,5,4,0.6,0.5
2023-03-02T11:00:00,1286A,118.1608,24.8169,厦门市,溪东,,,,,,,,,,,,,,,,
2023-03-02T11:00:00,1287A,118.1514,24.4767,厦门市,洪文,细颗粒物(PM2.5),119,125,61,90,44,127,127,106,106,34,33,5,5,0.6,0.4
2023-03-02T11:00:00,1288A,118.0661,24.4444,厦门市,鼓浪屿,细颗粒物(PM2.5),105,124,57,79,38,140,140,121,121,34,29,7,6,0.5,0.4
2023-03-02T11:00:00,1290A,115.8931,28.6843,南昌市,省外办,细颗粒物(PM2.5),117,125,113,88,76,138,111,107,90,28,30,13,14,0.6,0.7
2023-03-02T11:00:00,1291A,115.8886,28.7003,南昌市,省林业公司,细颗粒物(PM2.5),113,100,98,85,76,140,110,106,81,31,36,9,9,0.5,0.6
2023-03-02T11:00:00,1292A,115.8126,28.7442,南昌市,林科所,细颗粒物(PM2.5),110,129,106,83,74,141,114,132,106,21,19,13,11,0.6,0.6
2023-03-02T11:00:00,1294A,115.8518,28.687,南昌市,建工学校,细颗粒物(PM2.5),99,126,113,74,70,140,110,113,97,20,21,9,9,0.7,0.8
2023-03-02T11:00:00,1295A,115.8921,28.6424,南昌市,象湖,细颗粒物(PM2.5),115,97,94,87,82,136,99,106,90,,23,,11,0.7,0.8
2023-03-02T11:00:00,1296A,115.7423,28.7996,南昌市,武术学校,细颗粒物(PM2.5),80,59,77,59,61,137,127,111,78,16,14,9,8,0.4,0.5
2023-03-02T11:00:00,1298A,115.9314,28.6842,南昌市,省站,,,119,118,,76,156,,118,92,24,20,7,11,0.9,0.9
2023-03-02T11:00:00,1299A,116.9862,36.6114,济南市,科干所,颗粒物(PM10),54,58,68,5,15,113,90,61,61,18,30,7,9,0.6,0.6
2023-03-02T11:00:00,1300A,116.9376,36.665,济南市,农科所,颗粒物(PM10),52,54,82,10,14,108,70,51,21,22,38,4,5,0.5,0.6
2023-03-02T11:00:00,1301A,117.1265,36.6734,济南市,开发区,颗粒物(PM10),52,54,73,9,16,98,81,45,32,18,34,8,9,0.4,0.4
2023-03-02T11:00:00,1303A,117.0624,36.6868,济南市,省种子仓库,颗粒物(PM10),53,56,70,7,14,110,94,60,28,12,34,7,8,0.3,0.4
2023-03-02T11:00:00,1304A,116.9489,36.6447,济南市,机床二厂,,,,93,,18,55,,55,,,38,,11,,0.7
2023-03-02T11:00:00,1305A,117.0495,36.663,济南市,市监测站,颗粒物(PM10),53,56,66,14,16,111,89,68,33,27,47,5,7,0.5,0.5
2023-03-02T11:00:00,1306A,116.7675,36.5484,济南市,长清党校,颗粒物(PM10),66,81,91,17,17,119,87,62,50,23,35,10,8,0.7,0.7
2023-03-02T11:00:00,1307A,120.6659,36.2403,青岛市,仰口,颗粒物(PM10),68,85,73,31,27,112,67,72,66,23,18,4,5,0.8,0.6
2023-03-02T11:00:00,1310A,120.4134,36.0658,青岛市,市南区东部子站,,44,44,104,9,37,110,84,48,35,14,41,7,11,0.5,0.7
2023-03-02T11:00:00,1311A,120.3664,36.1032,青岛市,四方区子站,颗粒物(PM10),58,66,99,24,33,93,60,33,21,36,46,11,9,0.6,0.7
2023-03-02T11:00:00,1312A,120.2994,36.054,青岛市,市南区西部子站,颗粒物(PM10),60,70,88,34,29,113,63,52,35,36,36,15,11,0.5,0.6
2023-03-02T11:00:00,1313A,120.4581,36.0858,青岛市,崂山区子站,颗粒物(PM10),52,53,99,14,27,116,74,63,39,24,37,9,10,0.3,0.5
2023-03-02T11:00:00,1314A,120.1983,35.9608,青岛市,黄岛区子站,,41,41,90,15,26,104,82,35,35,24,59,6,8,0.4,0.5
2023-03-02T11:00:00,1315A,120.3999,36.3083,青岛市,城阳区子站,颗粒物(PM10),64,78,97,29,33,108,57,32,21,38,38,7,7,0.6,0.7
2023-03-02T11:00:00,1316A,113.69031,34.76122,郑州市,烟厂,细颗粒物(PM2.5),107,151,115,80,65,97,66,75,28,50,48,16,11,0.8,0.7
2023-03-02T11:00:00,1317A,113.65724,34.77134,郑州市,郑纺机,细颗粒物(PM2.5),99,121,106,74,60,95,69,76,36,57,52,16,9,0.6,0.6
2023-03-02T11:00:00,1318A,113.67526,34.80246,郑州市,银行学校,细颗粒物(PM2.5),104,129,110,78,66,93,67,62,23,52,53,16,11,0.6,0.5
2023-03-02T11:00:00,1319A,113.56746,34.81334,郑州市,供水公司,细颗粒物(PM2.5),108,149,106,81,54,94,46,68,15,62,51,14,10,0.7,0.7
2023-03-02T11:00:00,1320A,113.7329,34.7178,郑州市,经开区管委,细颗粒物(PM2.5),102,132,114,76,69,96,58,48,25,52,53,16,12,0.5,0.5
2023-03-02T11:00:00,1321A,113.73961,34.77172,郑州市,四十七中,细颗粒物(PM2.5),103,131,116,77,67,89,61,65,27,49,45,14,9,0.7,0.7
2023-03-02T11:00:00,1322A,113.60532,34.74838,郑州市,市监测站,细颗粒物(PM2.5),110,127,119,83,69,98,65,66,40,53,46,21,13,0.8,0.7
2023-03-02T11:00:00,1323A,113.64164,34.7525,郑州市,河医大,细颗粒物(PM2.5),110,124,118,83,64,92,65,60,30,48,48,18,10,0.7,0.7
2023-03-02T11:00:00,1324A,113.51488,34.91089,郑州市,岗李水库,,,,,,,,,,,,,,,,
2023-03-02T11:00:00,1325A,114.3677,30.5584,武汉市,东湖梨园,细颗粒物(PM2.5),144,130,128,110,107,166,51,126,42,,39,14,11,,0.8
2023-03-02T11:00:00,1326A,114.2529,30.558,武汉市,汉阳月湖,细颗粒物(PM2.5),153,136,137,117,116,153,58,90,60,69,45,12,10,1.2,1
2023-03-02T11:00:00,1327A,114.282,30.6189,武汉市,汉口花桥,细颗粒物(PM2.5),123,134,137,93,90,154,40,108,58,88,39,13,10,1.3,0.9
2023-03-02T11:00:00,1328A,114.3025,30.5332,武汉市,武昌紫阳,细颗粒物(PM2.5),147,136,130,112,114,151,56,106,54,69,45,16,15,1.1,1
2023-03-02T11:00:00,1329A,114.3646,30.6217,武汉市,青山钢花,细颗粒物(PM2.5),134,155,133,102,104,158,30,82,44,97,45,19,14,1.5,1.1
2023-03-02T11:00:00,1330A,114.1566,30.4825,武汉市,沌口新区,细颗粒物(PM2.5),140,142,129,107,116,138,75,93,61,66,56,20,13,1.2,1
2023-03-02T11:00:00,1331A,114.3014,30.5944,武汉市,汉口江滩,细颗粒物(PM2.5),132,127,130,100,107,162,67,98,57,59,43,12,10,0.9,0.9
2023-03-02T11:00:00,1333A,114.135,30.6319,武汉市,吴家山,细颗粒物(PM2.5),129,130,140,98,97,146,42,106,39,89,49,12,10,1.2,0.9
2023-03-02T11:00:00,1334A,113.8454,30.2917,武汉市,沉湖七壕,颗粒物(PM10),80,109,114,52,63,158,86,119,70,36,28,15,13,1.2,1
2023-03-02T11:00:00,1335A,113.0833,28.2325,长沙市,经开区环保局,细颗粒物(PM2.5),180,174,150,136,124,110,67,32,26,25,29,7,5,0.8,0.7
2023-03-02T11:00:00,1336A,112.8872,28.2189,长沙市,高开区环保局,细颗粒物(PM2.5),153,175,149,117,110,120,64,48,48,24,22,12,10,0.8,0.7
2023-03-02T11:00:00,1337A,113.0792,28.2053,长沙市,马坡岭,细颗粒物(PM2.5),185,165,145,139,125,119,61,28,27,33,30,13,10,0.7,0.6
2023-03-02T11:00:00,1338A,112.9394,28.19,长沙市,湖南师范大学,细颗粒物(PM2.5),195,169,134,146,132,115,64,42,42,24,21,10,7,0.7,0.5
2023-03-02T11:00:00,1339A,113.0178,28.1322,长沙市,雨花区环保局,细颗粒物(PM2.5),172,157,138,130,125,118,64,47,35,29,26,11,8,0.9,0.7
2023-03-02T11:00:00,1340A,112.9792,28.2597,长沙市,伍家岭,细颗粒物(PM2.5),175,147,129,132,127,121,49,41,39,32,25,10,9,0.9,0.8
2023-03-02T11:00:00,1341A,113.0014,28.1944,长沙市,火车新站,,,,134,,121,94,56,41,35,29,25,10,8,,0.7
2023-03-02T11:00:00,1342A,112.9844,28.1178,长沙市,天心区环保局,细颗粒物(PM2.5),183,175,143,138,123,104,80,50,50,29,24,8,6,0.8,0.6
2023-03-02T11:00:00,1343A,112.8908,28.1308,长沙市,湖南中医药大学,细颗粒物(PM2.5),163,147,135,124,123,124,63,46,46,26,25,8,7,1.1,0.9
2023-03-02T11:00:00,1344A,112.9581,28.3611,长沙市,沙坪,细颗粒物(PM2.5),170,168,145,129,115,115,84,46,40,23,20,10,8,1.1,1
2023-03-02T11:00:00,1345A,113.2347,23.1423,广州市,广雅中学,颗粒物(PM10),67,83,116,46,58,271,91,75,75,37,80,6,7,0.7,0.9
2023-03-02T11:00:00,1346A,113.2612,23.105,广州市,市五中,细颗粒物(PM2.5),63,64,95,45,64,278,111,105,105,20,53,8,9,0.8,1
2023-03-02T11:00:00,1348A,113.3478,23.0916,广州市,广东商学院,细颗粒物(PM2.5),67,74,114,48,58,255,102,96,96,30,77,7,7,0.6,0.8
2023-03-02T11:00:00,1349A,113.4332,23.1047,广州市,市八十六中,细颗粒物(PM2.5),65,78,127,47,64,259,97,75,75,25,74,7,7,0.7,0.9
2023-03-02T11:00:00,1350A,113.3505,22.9483,广州市,番禺中学,细颗粒物(PM2.5),69,79,106,50,59,286,103,82,82,37,68,12,9,0.9,1
2023-03-02T11:00:00,1351A,113.2146,23.3916,广州市,花都师范,"颗粒物(PM10),细颗粒物(PM2.5)",57,64,91,40,49,249,110,130,106,15,26,10,10,0.8,0.8
2023-03-02T11:00:00,1352A,113.2597,23.1331,广州市,市监测站,细颗粒物(PM2.5),62,63,99,44,56,272,109,99,99,18,69,8,9,0.7,0.8
2023-03-02T11:00:00,1353A,113.5618,23.312,广州市,九龙镇镇龙,细颗粒物(PM2.5),65,70,99,47,53,204,108,83,83,16,53,6,6,0.7,0.8
2023-03-02T11:00:00,1354A,113.2765,23.1544,广州市,麓湖,细颗粒物(PM2.5),60,58,81,43,54,278,116,97,97,16,52,8,8,0.6,0.7
2023-03-02T11:00:00,1355A,113.443,23.3035,广州市,帽峰山森林公园,细颗粒物(PM2.5),62,65,75,44,43,226,114,126,110,16,22,7,8,0.7,0.7
2023-03-02T11:00:00,1356A,114.1063,22.5545,深圳市,通心岭子站,,42,42,102,28,60,271,95,69,69,21,59,6,5,0.6,0.8
2023-03-02T11:00:00,1357A,114.117,22.5625,深圳市,洪湖,颗粒物(PM10),68,86,122,48,70,323,112,73,73,21,64,12,10,0.7,0.9
2023-03-02T11:00:00,1358A,113.987,22.5417,深圳市,华侨城,细颗粒物(PM2.5),52,51,103,36,62,351,104,79,79,26,73,11,10,0.7,0.8
2023-03-02T11:00:00,1359A,113.9181,22.5171,深圳市,南海子站,颗粒物(PM10),52,54,122,30,63,330,101,75,75,23,74,9,8,0.7,0.8
2023-03-02T11:00:00,1360A,114.2458,22.5689,深圳市,盐田,细颗粒物(PM2.5),58,56,65,41,40,149,101,65,59,20,62,9,8,0.8,0.7
2023-03-02T11:00:00,1361A,114.2283,22.7244,深圳市,龙岗,颗粒物(PM10),61,72,97,38,51,269,115,88,88,11,43,9,7,0.6,0.7
2023-03-02T11:00:00,1363A,114.494,22.5422,深圳市,南澳,细颗粒物(PM2.5),54,54,46,38,30,197,114,92,84,15,18,9,7,0.6,0.6
2023-03-02T11:00:00,1364A,114.41,22.6342,深圳市,葵涌,细颗粒物(PM2.5),58,58,59,41,36,176,109,86,72,20,27,8,6,0.7,0.7
2023-03-02T11:00:00,1365A,114.297,22.5978,深圳市,梅沙,细颗粒物(PM2.5),62,65,62,44,35,201,116,103,93,18,30,7,6,0.8,0.7
2023-03-02T11:00:00,1366A,114.0678,22.738,深圳市,观澜,颗粒物(PM10),64,78,129,44,62,226,116,64,64,22,76,12,9,0.7,0.8
2023-03-02T11:00:00,1367A,113.5814,22.2618,珠海市,吉大,颗粒物(PM10),57,63,81,34,57,296,112,112,93,27,44,7,6,0.7,0.7
2023-03-02T11:00:00,1368A,113.4881,22.2335,珠海市,前山,颗粒物(PM10),53,56,112,27,42,269,109,90,59,31,66,8,7,0.5,0.6
2023-03-02T11:00:00,1369A,113.628,22.4251,珠海市,唐家,颗粒物(PM10),53,56,70,35,49,294,102,85,76,35,37,8,6,0.4,0.4
2023-03-02T11:00:00,1370A,113.299,22.2281,珠海市,斗门,细颗粒物(PM2.5),55,58,104,39,66,306,117,96,68,27,43,9,8,0.4,0.6
2023-03-02T11:00:00,1371A,113.1294,23.0067,佛山市,湾梁,颗粒物(PM10),57,63,103,32,49,311,109,94,94,24,52,4,6,0.7,0.8
2023-03-02T11:00:00,1372A,113.1083,23.0478,佛山市,华材职中,颗粒物(PM10),57,63,94,38,51,314,111,76,76,28,76,7,10,0.4,0.5
2023-03-02T11:00:00,1373A,113.144,23.0453,佛山市,南海气象局,颗粒物(PM10),58,65,88,38,53,280,90,79,79,33,66,3,6,0.7,0.8
2023-03-02T11:00:00,1374A,113.2881,22.8094,佛山市,顺德苏岗,细颗粒物(PM2.5),62,61,91,44,60,259,98,96,60,31,61,12,12,0.7,0.8
2023-03-02T11:00:00,1376A,112.8383,22.8678,佛山市,高明孔堂,颗粒物(PM10),71,91,91,43,55,276,101,114,80,29,34,13,13,0.6,0.7
2023-03-02T11:00:00,1377A,112.8836,23.1588,佛山市,三水监测站,,,63,97,46,54,231,,87,87,22,63,14,11,0.7,0.8
2023-03-02T11:00:00,1378A,112.867,23.185,佛山市,三水云东海,颗粒物(PM10),54,57,78,37,46,135,105,66,66,20,49,11,9,0.5,0.7
2023-03-02T11:00:00,1379A,113.3769,22.5211,中山市,华柏园,细颗粒物(PM2.5),64,72,98,46,66,285,108,77,64,29,48,11,9,0.6,0.9
2023-03-02T11:00:00,1380A,113.3881,22.5497,中山市,张溪,颗粒物(PM10),71,91,107,43,70,272,104,56,47,31,65,10,9,0.6,0.8
2023-03-02T11:00:00,1381A,113.4075,22.5111,中山市,紫马岭,颗粒物(PM10),61,72,90,36,57,265,113,105,68,20,42,10,9,0.5,0.7
2023-03-02T11:00:00,1382A,113.4411,22.4853,中山市,长江旅游区,颗粒物(PM10),67,83,71,46,59,252,99,129,61,34,31,15,13,0.5,0.5
2023-03-02T11:00:00,1383A,113.1064,22.6058,江门市,北街,颗粒物(PM10),63,76,101,38,57,339,102,76,62,38,61,12,11,0.6,0.8
2023-03-02T11:00:00,1384A,113.0731,22.5835,江门市,西区,颗粒物(PM10),69,88,118,38,64,336,105,88,77,40,68,10,10,0.6,0.8
2023-03-02T11:00:00,1385A,113.0219,22.5311,江门市,圭峰西,细颗粒物(PM2.5),62,71,88,44,66,344,105,140,86,42,48,9,9,0.6,0.7
2023-03-02T11:00:00,1386A,113.0828,22.5947,江门市,东湖,颗粒物(PM10),62,74,112,35,67,356,109,74,74,34,58,10,9,0.6,0.9
2023-03-02T11:00:00,1389A,113.7547,23.0494,东莞市,莞城梨川,"颗粒物(PM10),细颗粒物(PM2.5)",59,67,87,42,49,207,121,93,93,22,48,13,12,0.8,0.9
2023-03-02T11:00:00,1390A,113.7944,23.0128,东莞市,东城石井,细颗粒物(PM2.5),59,58,69,42,43,227,122,85,85,16,35,13,11,0.7,0.7
2023-03-02T11:00:00,1391A,113.7383,22.9658,东莞市,南城西平,细颗粒物(PM2.5),60,67,82,43,47,197,111,68,68,21,55,12,12,0.6,0.6
2023-03-02T11:00:00,1392A,114.4183,23.0528,惠州市,河南岸金山湖子站,细颗粒物(PM2.5),57,56,75,40,39,159,110,108,98,15,35,9,8,0.5,0.6
2023-03-02T11:00:00,1393A,114.4053,23.0822,惠州市,下埔横江三路子站,颗粒物(PM10),56,62,71,39,38,185,121,129,110,15,32,8,8,0.5,0.6
2023-03-02T11:00:00,1394A,114.4103,23.1142,惠州市,江北云山西路子站,细颗粒物(PM2.5),60,50,58,43,38,194,116,128,106,15,26,10,8,0.5,0.5
2023-03-02T11:00:00,1395A,114.4645,22.7833,惠州市,惠阳区承修路船湖子站,细颗粒物(PM2.5),67,74,72,48,42,160,103,78,78,23,44,8,7,0.8,0.8
2023-03-02T11:00:00,1396A,114.5317,22.7422,惠州市,大亚湾管委会子站,颗粒物(PM10),65,80,67,42,36,133,74,46,46,34,48,6,5,0.8,0.8
2023-03-02T11:00:00,1397A,112.4267,23.0706,肇庆市,睦岗子站,细颗粒物(PM2.5),68,73,85,49,51,265,107,67,47,26,71,15,13,0.6,0.7
2023-03-02T11:00:00,1398A,112.4645,23.0475,肇庆市,城中子站,细颗粒物(PM2.5),68,74,91,49,57,250,111,81,81,16,56,13,14,0.6,0.7
2023-03-02T11:00:00,1399A,112.5544,23.1522,肇庆市,坑口子站,细颗粒物(PM2.5),73,69,74,53,53,243,102,113,75,27,34,13,12,0.6,0.6
2023-03-02T11:00:00,1400A,112.4753,23.1,肇庆市,七星岩子站,,,,,,,,,,,,,,,,
2023-03-02T11:00:00,1401A,108.3103,22.7881,南宁市,二十一中,细颗粒物(PM2.5),87,80,72,64,49,115,72,53,53,25,35,12,11,1.0,1
2023-03-02T11:00:00,1402A,108.3141,22.8528,南宁市,北湖,细颗粒物(PM2.5),87,93,87,64,52,112,77,46,46,18,34,18,24,0.8,0.8
2023-03-02T11:00:00,1403A,108.3206,22.8225,南宁市,市监测站,细颗粒物(PM2.5),94,98,81,70,55,115,74,55,55,34,53,13,18,1.0,0.9
2023-03-02T11:00:00,1404A,108.3829,22.8037,南宁市,大自然花园,,,74,68,60,47,103,,50,49,19,31,,9,0.8,0.8
2023-03-02T11:00:00,1405A,108.4394,22.7904,南宁市,仙葫,细颗粒物(PM2.5),67,78,78,48,46,108,90,63,63,14,26,11,10,0.5,0.5
2023-03-02T11:00:00,1406A,108.2397,22.8467,南宁市,区农职院,细颗粒物(PM2.5),82,84,67,60,42,110,80,53,53,24,26,18,8,0.8,0.8
2023-03-02T11:00:00,1407A,108.3275,22.735,南宁市,英华嘉园,细颗粒物(PM2.5),84,82,73,62,50,102,78,42,42,21,41,12,8,1.0,1
2023-03-02T11:00:00,1408A,108.2257,22.7757,南宁市,沙井镇街道办,细颗粒物(PM2.5),88,95,82,65,52,104,75,32,32,27,40,14,7,0.8,0.7
2023-03-02T11:00:00,1409A,110.576,19.9507,海口市,东寨港,,,46,26,24,18,67,35,22,12,,,4,5,0.7,0.6
2023-03-02T11:00:00,1410A,110.3232,20.0574,海口市,海南大学,颗粒物(PM10),60,70,38,42,27,109,65,75,37,21,18,9,6,0.6,0.5
2023-03-02T11:00:00,1411A,110.283,20.0053,海口市,秀英海南医院,,,68,42,37,23,105,62,61,28,28,24,,5,0.7,0.6
2023-03-02T11:00:00,1412A,110.338,19.9969,海口市,海南师范大学,颗粒物(PM10),62,73,41,38,14,106,77,73,26,19,21,8,4,0.7,0.6
2023-03-02T11:00:00,1413A,110.33,20.0356,海口市,龙华路环保局宿舍,,,49,40,25,17,104,61,77,39,22,17,9,6,,0.7
2023-03-02T11:00:00,1414A,106.3787,29.8279,重庆市,缙云山,颗粒物(PM10),66,81,69,41,45,65,32,36,34,22,21,5,5,0.7,0.8
2023-03-02T11:00:00,1416A,106.4213,29.8253,重庆市,天生,细颗粒物(PM2.5),85,69,96,63,77,37,28,34,25,30,35,9,12,0.8,0.8
2023-03-02T11:00:00,1417A,106.6263,29.7228,重庆市,两路,细颗粒物(PM2.5),74,67,85,54,63,47,14,21,11,38,37,11,8,1.2,1
2023-03-02T11:00:00,1418A,106.2953,29.5983,重庆市,虎溪,细颗粒物(PM2.5),104,81,92,78,80,47,,6,6,38,45,5,6,1.0,0.9
2023-03-02T11:00:00,1419A,106.5777,29.5102,重庆市,南坪,细颗粒物(PM2.5),79,85,103,58,83,36,28,20,20,18,39,8,9,0.6,0.7
2023-03-02T11:00:00,1420A,106.6556,29.6277,重庆市,唐家沱,细颗粒物(PM2.5),90,90,98,67,81,16,7,7,5,44,53,8,7,1.1,1
2023-03-02T11:00:00,1421A,106.6349,29.4906,重庆市,茶园,,,100,112,72,88,27,13,11,11,,50,,8,1.1,1.2
2023-03-02T11:00:00,1422A,106.3754,29.4572,重庆市,白市驿,细颗粒物(PM2.5),110,100,102,83,85,50,11,27,14,50,51,8,10,1.0,0.9
2023-03-02T11:00:00,1425A,106.6205,29.7166,重庆市,空港,,,84,81,63,71,58,,26,15,43,46,10,8,1.0,0.9
2023-03-02T11:00:00,1426A,106.4782,29.4875,重庆市,新山村,细颗粒物(PM2.5),117,104,125,88,95,19,12,12,11,50,60,10,12,0.8,0.7
2023-03-02T11:00:00,1427A,106.5616,29.6453,重庆市,礼嘉,细颗粒物(PM2.5),102,95,108,76,78,62,10,11,8,54,54,12,10,0.7,0.6
2023-03-02T11:00:00,1428A,106.4522,29.7091,重庆市,蔡家,细颗粒物(PM2.5),82,93,97,60,65,55,24,35,16,34,34,8,8,0.9,0.8
2023-03-02T11:00:00,1429A,106.5093,29.3917,重庆市,鱼新街,细颗粒物(PM2.5),128,114,118,97,93,187,11,10,10,37,50,11,14,0.9,1
2023-03-02T11:00:00,1431A,103.9728,30.7236,成都市,金泉两河,颗粒物(PM10),79,108,88,57,38,109,16,49,13,43,30,4,2,0.7,0.5
2023-03-02T11:00:00,1432A,104.176,30.6872,成都市,十里店,颗粒物(PM10),84,117,95,51,38,102,13,36,9,56,42,4,4,0.8,0.6
2023-03-02T11:00:00,1433A,104.079,30.5706,成都市,三瓦窑,颗粒物(PM10),86,122,97,48,36,94,8,32,16,62,45,4,3,0.7,0.4
2023-03-02T11:00:00,1434A,104.1114,30.63,成都市,沙河铺,颗粒物(PM10),75,100,89,42,38,101,12,15,11,54,40,6,4,0.6,0.5
2023-03-02T11:00:00,1437A,104.0786,30.6531,成都市,君平街,,,,91,,39,104,12,43,22,56,38,,5,,0.5
2023-03-02T11:00:00,1438A,103.613,31.0283,成都市,灵岩寺,颗粒物(PM10),80,109,57,51,26,108,36,83,57,34,16,8,9,0.5,0.3
2023-03-02T11:00:00,1439A,106.6899,26.5998,贵阳市,马鞍山,细颗粒物(PM2.5),52,51,50,36,45,80,63,66,66,28,16,8,5,0.7,0.7
2023-03-02T11:00:00,1440A,106.6971,26.5694,贵阳市,市环保站,细颗粒物(PM2.5),63,53,54,45,50,92,41,77,68,49,20,11,7,0.6,0.4
2023-03-02T11:00:00,1441A,106.6243,26.6266,贵阳市,鉴湖路,颗粒物(PM10),52,53,57,31,41,82,62,72,68,32,17,5,5,0.7,0.7
2023-03-02T11:00:00,1442A,106.7487,26.6343,贵阳市,燕子冲,细颗粒物(PM2.5),62,53,61,44,58,78,69,70,70,22,16,5,5,0.5,0.5
2023-03-02T11:00:00,1443A,106.6555,26.4365,贵阳市,碧云窝,颗粒物(PM10),54,58,64,34,47,78,70,74,70,32,20,17,14,0.7,0.7
2023-03-02T11:00:00,1444A,106.694,26.5161,贵阳市,中院村,细颗粒物(PM2.5),58,61,65,41,48,78,56,65,64,38,24,14,12,0.6,0.6
2023-03-02T11:00:00,1445A,106.7109,26.6027,贵阳市,红边门,细颗粒物(PM2.5),64,56,55,46,55,81,63,70,68,32,21,11,11,0.6,0.6
2023-03-02T11:00:00,1446A,106.7164,26.5699,贵阳市,新华路,,,58,56,46,50,84,52,73,69,32,16,,7,0.6,0.5
2023-03-02T11:00:00,1447A,106.674,26.5424,贵阳市,太慈桥,颗粒物(PM10),59,68,64,39,43,80,63,74,67,36,23,6,4,0.5,0.5
2023-03-02T11:00:00,1450A,102.8204,24.8886,昆明市,呈贡新区,细颗粒物(PM2.5),89,81,66,66,61,135,95,76,67,25,22,6,7,0.9,0.8
2023-03-02T11:00:00,1451A,102.6251,24.9608,昆明市,西山森林公园,细颗粒物(PM2.5),83,68,57,61,40,136,102,92,92,12,13,7,7,1.1,0.9
2023-03-02T11:00:00,1452A,102.7252,25.0902,昆明市,龙泉镇,,,,74,,63,123,97,67,64,16,28,,7,,0.8
2023-03-02T11:00:00,1453A,102.7266,25.0375,昆明市,东风东路,细颗粒物(PM2.5),83,84,79,61,58,126,97,69,60,21,31,7,7,1.1,0.9
2023-03-02T11:00:00,1454A,102.6742,25.0669,昆明市,金鼎山,细颗粒物(PM2.5),78,69,75,57,66,121,97,75,74,19,23,7,6,1.0,0.7
2023-03-02T11:00:00,1455A,102.6644,25.0401,昆明市,碧鸡广场,细颗粒物(PM2.5),92,84,86,68,68,124,98,76,68,18,27,5,6,1.0,0.7
2023-03-02T11:00:00,1456A,91.1319,29.6514,拉萨市,八廓街,,34,34,18,16,10,97,71,77,72,14,14,3,4,0.5,0.4
2023-03-02T11:00:00,1457A,91.1221,29.6747,拉萨市,市环保局,,37,37,14,24,8,105,65,84,68,27,13,6,5,0.6,0.3
2023-03-02T11:00:00,1458A,91.0874,29.6475,拉萨市,区监测站,,25,25,14,11,7,108,78,85,78,15,11,6,6,0.2,0.2
2023-03-02T11:00:00,1459A,91.1774,29.6541,拉萨市,西藏大学,,25,25,13,8,6,106,69,83,74,16,11,3,3,0.6,0.4
2023-03-02T11:00:00,1460A,90.9798,29.6588,拉萨市,区辐射站,,32,32,20,16,11,116,63,71,46,29,20,7,6,0.7,0.6
2023-03-02T11:00:00,1461A,91.0834,29.6292,拉萨市,拉萨火车站,,25,25,15,8,11,106,77,89,64,14,13,5,5,0.3,0.4
2023-03-02T11:00:00,1462A,108.882,34.2749,西安市,高压开关厂,颗粒物(PM10),137,224,191,66,50,89,14,8,8,75,65,12,11,1.1,0.8
2023-03-02T11:00:00,1463A,108.993,34.2629,西安市,兴庆小区,颗粒物(PM10),106,161,143,64,41,75,20,36,15,64,49,13,8,0.8,0.6
2023-03-02T11:00:00,1464A,109.06,34.2572,西安市,纺织城,颗粒物(PM10),108,166,170,55,50,73,19,7,7,64,59,14,7,0.8,0.6
2023-03-02T11:00:00,1465A,108.9356,34.2173,西安市,小寨,颗粒物(PM10),123,196,153,68,47,86,17,42,13,74,55,10,8,0.9,0.5
2023-03-02T11:00:00,1466A,108.954,34.2713,西安市,市人民体育场,颗粒物(PM10),117,183,164,60,44,73,18,6,6,67,61,14,10,0.8,0.6
2023-03-02T11:00:00,1467A,108.8922,34.2322,西安市,高新西区,颗粒物(PM10),127,204,171,87,49,93,18,30,14,69,53,11,10,1.1,0.7
2023-03-02T11:00:00,1468A,108.935,34.3474,西安市,经开区,颗粒物(PM10),116,182,162,59,45,77,29,10,10,53,60,12,8,0.6,0.6
2023-03-02T11:00:00,1469A,108.906,34.1546,西安市,长安区,颗粒物(PM10),142,233,188,69,48,96,19,8,8,55,51,11,8,0.7,0.6
2023-03-02T11:00:00,1471A,109.2186,34.3731,西安市,临潼区,颗粒物(PM10),118,186,136,67,44,87,18,25,8,56,47,,11,0.9,0.7
2023-03-02T11:00:00,1472A,108.869,34.378,西安市,草滩,颗粒物(PM10),101,152,153,39,33,61,26,7,7,40,53,19,12,0.3,0.2
2023-03-02T11:00:00,1473A,108.985,34.1978,西安市,曲江文化产业集团,颗粒物(PM10),110,170,164,52,36,89,14,16,8,65,58,6,7,1.0,0.7
2023-03-02T11:00:00,1474A,109.051,34.3213,西安市,广运潭,颗粒物(PM10),129,208,146,72,39,67,15,5,5,,56,15,8,1.1,0.8
2023-03-02T11:00:00,1476A,103.631,36.1031,兰州市,兰炼宾馆,颗粒物(PM10),77,103,92,50,46,102,26,10,10,48,64,67,21,1.0,1
2023-03-02T11:00:00,1477A,104.1373,35.9454,兰州市,榆中兰大校区,,,,,,,,,,,,,,,,
2023-03-02T11:00:00,1478A,103.8412,36.0726,兰州市,生物制品所,颗粒物(PM10),84,117,80,61,40,94,16,7,7,76,56,13,8,1.8,1.1
2023-03-02T11:00:00,1479A,103.831,36.0464,兰州市,铁路设计院,细颗粒物(PM2.5),74,95,77,54,44,91,22,8,8,72,64,23,12,2.2,1.4
2023-03-02T11:00:00,1483A,101.524,36.6867,西宁市,第五水厂,,,,,,,,,,,,,,,,
2023-03-02T11:00:00,1484A,105.9512,38.6016,银川市,贺兰山马莲口,颗粒物(PM10),64,78,94,20,22,98,71,84,77,19,14,21,13,0.5,0.2
2023-03-02T11:00:00,1488A,106.2328,38.4975,银川市,贺兰山东路,颗粒物(PM10),121,192,161,46,42,95,23,17,14,60,51,17,11,1.0,0.7
2023-03-02T11:00:00,1489A,106.1358,38.5036,银川市,学院路,颗粒物(PM10),115,179,155,42,34,97,33,29,18,50,47,26,10,1.4,0.9
2023-03-02T11:00:00,1490A,87.5801,43.8303,乌鲁木齐市,监测站,细颗粒物(PM2.5),172,187,162,130,123,66,6,16,6,105,92,4,4,2.2,1.9
2023-03-02T11:00:00,1491A,87.6046,43.768,乌鲁木齐市,收费所,细颗粒物(PM2.5),190,233,209,143,130,58,8,19,13,95,88,5,3,2.1,1.4
2023-03-02T11:00:00,1492A,87.4754,43.9469,乌鲁木齐市,新疆农科院农场,细颗粒物(PM2.5),143,97,136,109,143,96,29,39,9,55,55,9,9,1.1,1.5
2023-03-02T11:00:00,1493A,87.5525,43.8711,乌鲁木齐市,铁路局,细颗粒物(PM2.5),114,98,147,86,131,94,15,22,8,73,69,4,4,1.5,1.4
2023-03-02T11:00:00,1494A,87.6432,43.831,乌鲁木齐市,三十一中学,细颗粒物(PM2.5),198,188,164,148,133,79,43,46,37,48,53,6,7,1.4,1.2
2023-03-02T11:00:00,1496A,87.7216,44.1747,乌鲁木齐市,米东区环保局,细颗粒物(PM2.5),215,166,128,165,113,108,28,71,16,63,47,5,6,2.0,1.3
2023-03-02T11:00:00,1508A,112.9433,27.8614,湘潭市,板塘,细颗粒物(PM2.5),183,133,124,138,135,112,56,36,36,22,24,8,8,0.8,0.7
2023-03-02T11:00:00,1511A,112.9118,27.8403,湘潭市,市监测站,细颗粒物(PM2.5),163,137,124,124,119,114,68,43,43,26,29,11,10,0.7,0.7
2023-03-02T11:00:00,1512A,112.8937,27.8728,湘潭市,江麓,细颗粒物(PM2.5),165,141,137,125,126,129,84,58,58,16,17,12,12,0.7,0.7
2023-03-02T11:00:00,1513A,112.9227,27.8159,湘潭市,岳塘,细颗粒物(PM2.5),170,159,142,129,133,117,64,40,40,25,28,11,10,0.8,0.7
2023-03-02T11:00:00,1514A,112.9074,27.9119,湘潭市,科大,细颗粒物(PM2.5),175,138,138,132,130,117,70,44,44,22,22,10,9,0.9,0.8
2023-03-02T11:00:00,1515A,113.135,27.8244,株洲市,天台山庄,细颗粒物(PM2.5),172,180,143,130,135,121,71,33,24,27,38,9,8,0.9,0.9
2023-03-02T11:00:00,1518A,113.095,27.8867,株洲市,株冶医院,细颗粒物(PM2.5),147,129,143,112,126,108,70,19,19,34,49,9,6,0.8,0.8
2023-03-02T11:00:00,1519A,113.167,27.8667,株洲市,市四中,细颗粒物(PM2.5),156,142,147,119,135,112,69,26,23,20,37,11,10,0.9,0.9
2023-03-02T11:00:00,1520A,113.143,27.8381,株洲市,火车站,细颗粒物(PM2.5),193,156,148,145,141,110,65,39,22,33,43,9,9,1.0,0.9
2023-03-02T11:00:00,1524A,113.13,27.8528,株洲市,市监测站,细颗粒物(PM2.5),180,149,140,136,144,113,68,28,21,26,40,13,12,0.9,0.8
2023-03-02T11:00:00,1552A,106.805,26.3003,贵阳市,桐木岭,,,,,,,,,,,,,,,,
2023-03-02T11:00:00,1559A,113.251,27.8336,株洲市,大京风景区,细颗粒物(PM2.5),138,151,137,105,137,116,91,41,37,12,21,7,7,0.7,0.7
2023-03-02T11:00:00,1562A,113.0048,27.9153,湘潭市,昭山,细颗粒物(PM2.5),188,149,138,141,134,113,46,24,23,34,32,5,5,1.1,1
2023-03-02T11:00:00,1564A,112.4876,27.9164,湘潭市,韶山,细颗粒物(PM2.5),113,94,92,85,76,124,103,106,91,18,19,13,10,0.8,0.8
2023-03-02T11:00:00,1585A,109.8756,40.6532,包头市,市环境监测站,颗粒物(PM10),55,59,45,32,15,86,42,15,15,53,46,48,18,1.8,0.9
2023-03-02T11:00:00,1587A,109.9991,40.5842,包头市,包头八中,颗粒物(PM10),80,109,63,45,25,90,51,26,26,44,53,26,18,1.0,1
2023-03-02T11:00:00,1588A,109.8538,40.6821,包头市,青山宾馆,颗粒物(PM10),56,61,41,38,19,88,46,30,18,54,41,56,13,2.4,0.9
2023-03-02T11:00:00,1589A,109.8642,40.6288,包头市,惠龙物流,"颗粒物(PM10),细颗粒物(PM2.5)",64,78,54,46,22,84,44,11,11,62,55,54,19,2.0,1.1
2023-03-02T11:00:00,1590A,110.0377,40.5546,包头市,东河鸿龙湾,颗粒物(PM10),56,61,63,25,24,96,52,16,16,22,42,14,13,0.5,0.8
2023-03-02T11:00:00,1591A,110.0023,39.8129,鄂尔多斯市,综合楼,颗粒物(PM10),78,105,53,22,11,88,72,43,43,32,41,20,14,0.8,0.6
2023-03-02T11:00:00,1592A,109.9486,39.8261,鄂尔多斯市,巴音孟克林场办事处,,,83,49,24,12,90,87,69,69,16,31,35,12,,0.5
2023-03-02T11:00:00,1593A,109.7736,39.5986,鄂尔多斯市,康泽苑,颗粒物(PM10),65,80,38,17,6,84,46,31,31,32,23,13,7,0.8,0.6
2023-03-02T11:00:00,1594A,109.8119,39.5989,鄂尔多斯市,华泰汽车城,颗粒物(PM10),68,85,40,24,13,88,46,16,16,33,32,15,8,0.6,0.5
2023-03-02T11:00:00,1595A,109.9734,39.7884,鄂尔多斯市,奥林花园,颗粒物(PM10),70,90,61,19,16,92,88,23,23,15,48,9,10,0.5,0.6
2023-03-02T11:00:00,1597A,122.2703,40.7094,营口市,大庆路,,50,50,54,13,18,80,60,63,46,29,21,16,15,1.2,0.7
2023-03-02T11:00:00,1598A,122.2150,40.6511,营口市,镜湖西路,颗粒物(PM10),52,53,45,18,14,85,72,74,54,24,23,12,11,0.7,0.6
2023-03-02T11:00:00,1599A,122.1658,40.6789,营口市,西炮台,,39,39,42,14,14,90,79,75,55,19,23,15,13,0.7,0.6
2023-03-02T11:00:00,1600A,124.3303,40.0625,丹东市,江湾东路,,41,41,42,14,13,88,82,77,66,9,11,14,15,0.6,0.6
2023-03-02T11:00:00,1601A,124.4256,40.1503,丹东市,临江后街,,30,30,36,7,10,82,82,79,58,6,14,12,15,0.4,0.5
2023-03-02T11:00:00,1602A,124.3933,40.1461,丹东市,元宝山,,47,47,45,15,12,78,72,68,61,10,11,14,15,0.7,0.7
2023-03-02T11:00:00,1603A,124.3633,40.1092,丹东市,民主桥,,46,46,39,13,10,77,74,66,61,12,15,14,11,0.5,0.5
2023-03-02T11:00:00,1604A,122.0303,41.1489,盘锦市,开发区,,43,43,45,9,15,82,72,82,37,10,16,11,9,0.5,0.4
2023-03-02T11:00:00,1605A,122.0485,41.0883,盘锦市,兴隆台,颗粒物(PM10),55,60,45,10,14,78,73,78,30,14,24,14,10,0.4,0.3
2023-03-02T11:00:00,1606A,121.8297,41.1028,盘锦市,新生街道,,,46,56,10,18,81,81,35,35,,42,,11,0.4,0.5
2023-03-02T11:00:00,1607A,120.9092,40.7136,葫芦岛市,龙港区,颗粒物(PM10),56,61,74,18,28,80,66,49,49,12,28,12,71,0.8,0.8
2023-03-02T11:00:00,1608A,120.8392,40.7514,葫芦岛市,化工街,,,,80,,21,77,,51,21,21,47,,16,0.8,0.9
2023-03-02T11:00:00,1609A,120.8341,40.7073,葫芦岛市,新区,颗粒物(PM10),52,54,63,22,21,79,68,38,30,15,41,18,19,0.4,0.5
2023-03-02T11:00:00,1610A,120.8695,40.7677,葫芦岛市,东城区,颗粒物(PM10),60,69,61,10,13,81,64,46,25,16,33,16,15,0.7,0.8
2023-03-02T11:00:00,1611A,118.5819,24.9117,泉州市,涂山街,细颗粒物(PM2.5),112,89,57,84,49,199,145,125,122,26,23,12,11,0.7,0.6
2023-03-02T11:00:00,1612A,118.5972,24.8978,泉州市,津头埔,细颗粒物(PM2.5),109,88,56,82,52,185,145,125,121,29,27,12,10,0.7,0.6
2023-03-02T11:00:00,1613A,118.6663,24.9424,泉州市,万安,细颗粒物(PM2.5),124,87,52,94,58,172,154,133,128,27,20,11,9,0.7,0.6
2023-03-02T11:00:00,1614A,118.6117,24.9604,泉州市,清源山,,,,,,,,,,,,,,,,
2023-03-02T11:00:00,1616A,117.6795,36.229,济南市,技术学院,,,83,84,19,17,111,73,64,27,,42,15,8,1.6,0.7
2023-03-02T11:00:00,1618A,118.3429,35.0532,临沂市,沂河小区,颗粒物(PM10),54,58,83,19,28,112,77,62,49,19,24,9,7,0.4,0.3
2023-03-02T11:00:00,1619A,118.295,35.0583,临沂市,鲁南制药厂,颗粒物(PM10),56,61,83,22,24,117,77,67,49,28,32,15,12,0.4,0.3
2023-03-02T11:00:00,1620A,118.2794,34.9976,临沂市,新光毛纺厂,颗粒物(PM10),60,70,77,22,22,112,80,66,52,19,26,11,8,0.5,0.4
2023-03-02T11:00:00,1621A,118.3956,35.0888,临沂市,河东保险公司,颗粒物(PM10),56,61,84,12,23,118,78,57,41,17,32,13,11,0.8,0.6
2023-03-02T11:00:00,1622A,116.3032,37.4674,德州市,儿童乐园,颗粒物(PM10),74,97,69,27,17,97,59,60,47,36,29,18,7,0.8,0.4
2023-03-02T11:00:00,1624A,116.2991,37.4451,德州市,监理站,颗粒物(PM10),75,100,69,24,16,97,59,52,43,36,34,18,6,0.7,0.4
2023-03-02T11:00:00,1625A,115.9848,36.4372,聊城市,区政府,颗粒物(PM10),85,119,108,30,30,116,69,53,35,23,32,12,17,0.6,0.6
2023-03-02T11:00:00,1628A,118.0062,37.3803,滨州市,市环保局,,,,65,,21,90,,24,11,34,39,9,9,0.6,0.6
2023-03-02T11:00:00,1629A,118.0018,37.3617,滨州市,第二水厂,,41,41,70,11,21,94,65,17,17,30,46,10,7,0.4,0.4
2023-03-02T11:00:00,1630A,117.9776,37.393,滨州市,北中新校,,45,45,61,12,16,92,66,29,20,28,36,13,9,0.4,0.4
2023-03-02T11:00:00,1631A,118.0414,36.8103,淄博市,人民公园,颗粒物(PM10),52,53,96,26,38,98,65,17,17,28,51,12,16,0.7,0.7
2023-03-02T11:00:00,1633A,117.8525,36.4847,淄博市,双山,,41,41,74,8,22,98,82,37,37,13,34,9,13,0.6,0.6
2023-03-02T11:00:00,1634A,117.9592,36.6331,淄博市,气象站,,41,41,94,12,30,105,82,38,38,20,43,10,18,0.5,0.6
2023-03-02T11:00:00,1635A,118.3092,36.8194,淄博市,莆田园,,28,24,91,5,25,87,87,33,33,4,82,7,14,0.7,1.7
2023-03-02T11:00:00,1637A,117.558,34.8438,枣庄市,市中区政府,颗粒物(PM10),53,56,98,12,27,125,80,52,52,27,36,18,10,0.8,0.8
2023-03-02T11:00:00,1638A,117.2852,34.7837,枣庄市,薛城环保局,颗粒物(PM10),59,68,92,19,33,122,80,60,60,25,41,14,14,0.8,0.7
2023-03-02T11:00:00,1639A,117.5852,34.7745,枣庄市,峄城区政府,颗粒物(PM10),58,66,90,17,22,113,82,62,56,22,39,14,15,0.6,0.5
2023-03-02T11:00:00,1640A,117.7276,34.5578,枣庄市,台儿庄区环保局,颗粒物(PM10),57,63,88,19,36,116,73,56,43,32,38,16,13,0.9,0.9
2023-03-02T11:00:00,1641A,117.4518,35.0992,枣庄市,山亭区环保局,颗粒物(PM10),52,53,73,12,24,122,91,72,72,21,28,12,11,0.6,0.6
2023-03-02T11:00:00,1642A,121.2514,37.5639,烟台市,开发区,颗粒物(PM10),51,51,70,12,21,87,68,45,30,14,37,10,11,0.3,0.5
2023-03-02T11:00:00,1643A,121.3719,37.5433,烟台市,轴承厂,颗粒物(PM10),52,53,66,10,20,103,74,58,48,16,31,6,8,0.4,0.6
2023-03-02T11:00:00,1644A,121.3181,37.5436,烟台市,西郊化工站,颗粒物(PM10),52,53,78,10,23,96,78,45,45,13,32,8,8,0.7,0.9
2023-03-02T11:00:00,1645A,121.4478,37.4822,烟台市,莱山环保局,颗粒物(PM10),56,61,55,13,22,104,71,70,47,18,25,12,11,0.8,0.9
2023-03-02T11:00:00,1646A,121.2611,37.4967,烟台市,福山环保局,,48,48,66,2,23,99,76,43,37,13,32,8,9,0.8,0.9
2023-03-02T11:00:00,1650A,119.1437,36.7023,潍坊市,环保局,,44,44,65,14,22,94,74,58,24,18,37,6,8,0.5,0.6
2023-03-02T11:00:00,1653A,116.6251,35.4302,济宁市,火炬城,颗粒物(PM10),52,54,82,17,36,124,78,49,49,21,36,20,9,0.5,0.6
2023-03-02T11:00:00,1655A,116.5491,35.4042,济宁市,电化厂,颗粒物(PM10),52,53,90,22,38,123,81,50,50,8,26,7,8,0.5,0.6
2023-03-02T11:00:00,1656A,117.1437,36.1937,泰安市,监测站,颗粒物(PM10),62,73,81,18,17,106,69,57,48,18,19,7,3,0.8,0.7
2023-03-02T11:00:00,1657A,117.0885,36.2017,泰安市,人口学校,颗粒物(PM10),53,56,81,13,18,118,85,76,63,13,18,12,9,0.9,0.9
2023-03-02T11:00:00,1658A,117.1089,36.1758,泰安市,电力学校,,,,84,,16,111,64,55,38,28,27,,10,0.8,0.8
2023-03-02T11:00:00,1659A,119.471,35.4209,日照市,监测站,,,83,67,20,20,111,47,63,23,,29,,9,0.6,0.5
2023-03-02T11:00:00,1660A,119.523,35.4216,日照市,市政府广场,颗粒物(PM10),65,80,61,27,18,110,60,75,44,25,16,8,5,0.7,0.6
2023-03-02T11:00:00,1661A,119.5587,35.4044,日照市,港务局,颗粒物(PM10),60,70,64,19,18,116,72,78,47,25,24,9,8,0.5,0.5
2023-03-02T11:00:00,1662A,122.1214,37.4236,威海市,华夏技校,颗粒物(PM10),68,85,63,15,21,112,75,78,70,16,18,3,3,0.3,0.3
2023-03-02T11:00:00,1663A,122.0508,37.5236,威海市,山大分校,颗粒物(PM10),75,100,71,24,27,81,64,74,63,21,18,4,4,0.3,0.2
2023-03-02T11:00:00,1664A,122.1067,37.5072,威海市,市监测站,颗粒物(PM10),69,88,73,12,22,114,74,77,63,15,24,8,9,0.3,0.5
2023-03-02T11:00:00,1666A,118.6614,37.4309,东营市,市环保局,,41,41,52,12,15,92,83,71,46,17,23,16,13,0.6,0.6
2023-03-02T11:00:00,1669A,113.5824,24.7733,韶关市,市八中,颗粒物(PM10),54,57,64,37,43,171,116,104,88,10,18,12,16,0.5,0.6
2023-03-02T11:00:00,1671A,113.5917,24.7972,韶关市,园林处,细颗粒物(PM2.5),60,60,64,43,47,160,114,100,89,8,13,13,16,0.7,0.7
2023-03-02T11:00:00,1672A,113.6735,24.7791,韶关市,韶关学院,细颗粒物(PM2.5),55,58,68,39,46,185,126,67,62,13,28,11,14,0.7,0.8
2023-03-02T11:00:00,1673A,113.5971,24.6863,韶关市,曲江监测站,颗粒物(PM10),62,74,65,40,44,207,129,108,70,12,25,14,18,0.5,0.7
2023-03-02T11:00:00,1674A,116.6794,23.3667,汕头市,金平子站,细颗粒物(PM2.5),79,82,47,58,36,216,128,104,100,25,24,14,15,0.8,0.7
2023-03-02T11:00:00,1675A,116.7244,23.3633,汕头市,龙湖子站,细颗粒物(PM2.5),73,94,53,53,32,185,126,106,105,28,24,5,5,0.7,0.6
2023-03-02T11:00:00,1676A,116.7258,23.2775,汕头市,濠江子站,细颗粒物(PM2.5),78,86,50,57,31,176,126,110,110,22,20,12,12,0.7,0.6
2023-03-02T11:00:00,1677A,116.7519,23.4714,汕头市,澄海子站,细颗粒物(PM2.5),68,51,42,49,41,146,130,102,83,25,24,8,9,0.7,0.7
2023-03-02T11:00:00,1678A,116.6092,23.2539,汕头市,潮阳子站,颗粒物(PM10),59,67,48,39,27,169,114,101,101,20,18,8,7,0.7,0.6
2023-03-02T11:00:00,1680A,110.3539,21.2706,湛江市,湛江影剧院,细颗粒物(PM2.5),82,103,67,60,44,126,97,44,44,23,27,30,21,0.8,0.7
2023-03-02T11:00:00,1681A,110.3928,21.2228,湛江市,市环境监测站,细颗粒物(PM2.5),95,96,61,71,54,109,89,53,53,26,24,32,25,0.8,0.6
2023-03-02T11:00:00,1682A,110.4019,21.1997,湛江市,环保局宿舍,,,75,58,58,44,115,,52,39,22,23,21,22,0.7,0.6
2023-03-02T11:00:00,1683A,110.4111,21.2028,湛江市,霞山游泳场,细颗粒物(PM2.5),84,82,59,62,46,117,96,56,49,24,26,24,17,0.7,0.6
2023-03-02T11:00:00,1684A,110.3316,21.2679,湛江市,麻章区环保局,细颗粒物(PM2.5),88,100,66,65,48,128,102,56,39,21,27,26,28,0.7,0.6
2023-03-02T11:00:00,1685A,110.4558,21.2567,湛江市,坡头区环保局,细颗粒物(PM2.5),79,70,56,58,48,112,101,48,48,18,20,28,21,0.8,0.6
2023-03-02T11:00:00,1686A,111.0286,21.4688,茂名市,电白南海,颗粒物(PM10),78,105,61,56,34,140,118,52,52,20,28,17,11,0.7,0.6
2023-03-02T11:00:00,1687A,110.9294,21.6533,茂名市,茂石化七小,细颗粒物(PM2.5),85,97,64,63,41,146,103,76,65,25,19,21,20,0.8,0.6
2023-03-02T11:00:00,1688A,110.9107,21.6687,茂名市,健康路,细颗粒物(PM2.5),78,100,57,57,31,140,102,81,59,25,19,37,23,0.8,0.6
2023-03-02T11:00:00,1689A,110.8592,21.6828,茂名市,高岭,细颗粒物(PM2.5),98,100,73,73,46,138,110,44,44,23,24,25,21,1.1,0.7
2023-03-02T11:00:00,1690A,116.1231,24.3284,梅州市,梅江月梅,颗粒物(PM10),54,57,54,35,38,144,104,106,60,17,23,10,12,0.6,0.6
2023-03-02T11:00:00,1691A,116.0797,24.2719,梅州市,梅县新城,细颗粒物(PM2.5),59,61,57,42,42,147,90,91,28,28,38,11,10,0.8,0.8
2023-03-02T11:00:00,1692A,116.1248,24.2654,梅州市,环境监控中心,颗粒物(PM10),66,81,63,42,44,155,91,57,35,25,38,15,14,0.7,0.7
2023-03-02T11:00:00,1693A,115.3653,22.775,汕尾市,市环保局,,48,48,49,29,34,170,102,96,84,13,15,11,10,0.6,0.7
2023-03-02T11:00:00,1694A,115.3706,22.7898,汕尾市,市政府,,,48,50,37,67,163,106,89,82,,21,11,10,0.4,0.6
2023-03-02T11:00:00,1695A,115.3622,22.7925,汕尾市,新城中学,,,48,55,30,37,171,95,96,82,13,16,,7,0.7,0.8
2023-03-02T11:00:00,1696A,114.6778,23.7569,河源市,源西,,,,62,,32,114,,93,,,22,,10,,0.7
2023-03-02T11:00:00,1697A,114.6944,23.7586,河源市,东埔,颗粒物(PM10),60,69,63,38,39,166,116,114,102,12,16,10,9,0.6,0.6
2023-03-02T11:00:00,1698A,114.6892,23.7233,河源市,老城,颗粒物(PM10),57,64,72,37,42,169,115,108,103,12,18,9,9,0.7,0.7
2023-03-02T11:00:00,1699A,111.9797,21.8593,阳江市,鸳鸯湖,颗粒物(PM10),73,96,50,42,40,162,113,82,60,19,19,15,9,0.8,0.8
2023-03-02T11:00:00,1701A,111.9491,21.8658,阳江市,马南垌,颗粒物(PM10),72,93,68,42,34,172,117,69,54,22,26,13,8,0.6,0.7
2023-03-02T11:00:00,1702A,113.0426,23.691,清远市,环保大楼,细颗粒物(PM2.5),62,55,59,44,48,228,120,129,112,13,22,12,10,0.8,0.8
2023-03-02T11:00:00,1703A,113.0208,23.7106,清远市,凤城街办,细颗粒物(PM2.5),57,57,71,40,47,185,97,103,87,14,26,11,8,0.6,0.7
2023-03-02T11:00:00,1705A,116.6367,23.6719,潮州市,西园路,细颗粒物(PM2.5),63,55,59,45,64,154,79,88,40,18,22,5,4,0.4,0.5
2023-03-02T11:00:00,1706A,116.6447,23.6706,潮州市,档案局,,,70,59,45,62,161,72,82,36,,27,10,9,0.5,0.6
2023-03-02T11:00:00,1708A,116.3701,23.5345,揭阳市,新兴,,,,54,,48,150,,71,58,15,22,20,12,0.7,0.9
2023-03-02T11:00:00,1709A,116.3264,23.5443,揭阳市,西马,细颗粒物(PM2.5),62,69,62,44,45,153,97,73,72,18,18,22,12,0.6,0.7
2023-03-02T11:00:00,1710A,116.3611,23.5626,揭阳市,东兴,"颗粒物(PM10),细颗粒物(PM2.5)",62,74,61,44,46,169,105,81,81,23,24,24,10,0.8,0.9
2023-03-02T11:00:00,1711A,116.4151,23.5294,揭阳市,渔湖,细颗粒物(PM2.5),60,60,65,43,39,152,95,68,57,16,24,20,13,0.6,0.9
2023-03-02T11:00:00,1712A,112.0392,22.9169,云浮市,新市府,细颗粒物(PM2.5),68,56,57,49,43,186,104,88,59,20,19,9,5,0.8,0.8
2023-03-02T11:00:00,1714A,112.0539,22.9539,云浮市,牧羊,颗粒物(PM10),69,87,78,42,45,179,104,46,46,22,43,16,18,0.7,0.6
2023-03-02T11:00:00,1715A,102.575,24.3711,玉溪市,东风水库,,,80,61,70,49,116,,97,74,16,14,6,7,0.8,0.7
2023-03-02T11:00:00,1718A,115.4208,35.2464,菏泽市,气象局,颗粒物(PM10),89,128,115,50,50,120,68,49,48,35,42,11,12,0.6,0.6
2023-03-02T11:00:00,1719A,115.4747,35.2375,菏泽市,市政协,颗粒物(PM10),89,127,113,47,47,128,76,48,48,30,48,10,11,0.7,0.7
2023-03-02T11:00:00,1721A,113.3819,40.1097,大同市,果树场,,,,,,,,,,,,,,,,
2023-03-02T11:00:00,1723A,113.2994,40.0758,大同市,云冈宾馆,颗粒物(PM10),89,128,53,42,15,95,37,19,16,56,33,26,16,1.6,0.7
2023-03-02T11:00:00,1724A,113.3444,40.0917,大同市,大同大学,颗粒物(PM10),65,80,40,31,14,89,58,43,34,40,27,24,17,1.2,0.7
2023-03-02T11:00:00,1725A,113.2661,40.1269,大同市,安家小村,颗粒物(PM10),82,113,74,33,27,89,51,21,21,32,27,27,13,1.4,1.1
2023-03-02T11:00:00,1726A,113.2711,40.0844,大同市,教育学院,颗粒物(PM10),88,126,74,34,21,83,35,16,16,57,37,24,18,1.8,1.3
2023-03-02T11:00:00,1727A,113.1147,36.1547,长治市,清华站,颗粒物(PM10),83,116,81,53,39,97,97,52,36,21,35,13,11,0.8,1.5
2023-03-02T11:00:00,1728A,113.1031,36.1989,长治市,监测站,细颗粒物(PM2.5),83,88,68,61,37,91,77,33,25,32,34,10,10,1.1,2.2
2023-03-02T11:00:00,1730A,113.0886,36.2125,长治市,审计局,细颗粒物(PM2.5),94,107,70,70,37,95,70,37,21,38,33,14,13,0.8,1.6
2023-03-02T11:00:00,1731A,113.0844,36.1856,长治市,长治八中,颗粒物(PM10),93,136,87,65,32,93,76,39,16,30,33,10,9,0.9,1.1
2023-03-02T11:00:00,1733A,111.5531,36.0783,临汾市,临钢医院,颗粒物(PM10),70,90,81,29,28,86,24,12,12,41,35,13,6,0.6,0.5
2023-03-02T11:00:00,1734A,111.5028,36.0714,临汾市,技工学校,,,85,76,28,27,83,29,13,13,39,36,15,8,,0.3
2023-03-02T11:00:00,1736A,111.5018,36.0855,临汾市,市委,颗粒物(PM10),69,88,77,24,24,86,32,16,16,37,34,11,5,0.8,0.6
2023-03-02T11:00:00,1738A,113.5758,37.8572,阳泉市,市中心,颗粒物(PM10),65,80,67,24,20,82,25,8,8,52,48,37,12,1.0,0.6
2023-03-02T11:00:00,1739A,113.4894,37.8731,阳泉市,赛鱼,颗粒物(PM10),54,58,63,20,14,90,51,17,17,38,51,24,11,0.8,0.6
2023-03-02T11:00:00,1740A,113.5819,37.8486,阳泉市,南庄,颗粒物(PM10),73,95,60,26,24,93,34,12,12,50,40,44,13,0.9,0.6
2023-03-02T11:00:00,1742A,113.5614,37.8703,阳泉市,平坦,,,114,63,30,15,93,32,14,14,60,55,,14,1.3,0.8
2023-03-02T11:00:00,1743A,113.5158,37.8392,阳泉市,大阳泉,颗粒物(PM10),52,54,38,10,20,90,61,63,52,28,26,17,10,0.6,0.5
2023-03-02T11:00:00,1744A,118.9233,42.2816,赤峰市,松山一中,,,,51,10,9,87,72,49,32,16,24,12,11,0.7,0.7
2023-03-02T11:00:00,1745A,118.9576,42.2728,赤峰市,哈达街,,31,31,39,11,10,85,68,59,43,18,19,12,11,0.5,0.6
2023-03-02T11:00:00,1746A,118.8788,42.2554,赤峰市,天义路,,32,32,42,8,6,83,75,55,52,12,20,12,12,0.4,0.5
2023-03-02T11:00:00,1748A,123.044,41.1196,鞍山市,深沟寺,,36,36,53,14,19,86,78,71,55,11,17,14,13,0.6,0.7
2023-03-02T11:00:00,1749A,123.011,41.0931,鞍山市,太阳城,,40,40,57,16,18,86,74,48,47,16,28,19,18,0.8,1.1
2023-03-02T11:00:00,1750A,123.0485,41.1442,鞍山市,太平,,34,34,60,12,20,77,69,56,45,16,23,16,17,0.7,0.8
2023-03-02T11:00:00,1751A,122.9642,41.0971,鞍山市,铁西三道街,,42,42,72,14,23,83,75,70,31,15,28,8,16,0.7,1.1
2023-03-02T11:00:00,1752A,122.9341,41.0833,鞍山市,铁西工业园区,,,42,73,17,29,82,78,34,34,12,36,11,17,,1
2023-03-02T11:00:00,1753A,123.022,41.0821,鞍山市,明达新区,,39,39,50,13,18,86,80,67,51,16,26,12,12,0.7,0.7
2023-03-02T11:00:00,1754A,123.1289,41.0228,鞍山市,千山,,,,,,,,,,,,,,,,
2023-03-02T11:00:00,1755A,123.7977,41.8491,抚顺市,望花区,,22,19,70,14,22,85,70,48,37,14,19,6,6,0.7,0.7
2023-03-02T11:00:00,1756A,123.9161,41.8822,抚顺市,顺城区,,40,40,68,13,17,104,87,81,42,9,13,9,7,0.5,0.5
2023-03-02T11:00:00,1757A,124.0436,41.8611,抚顺市,东洲区,,37,37,53,10,20,95,90,74,49,5,10,12,9,0.4,0.5
2023-03-02T11:00:00,1758A,123.9247,41.8642,抚顺市,新抚区,,41,41,72,14,21,86,74,70,42,13,16,10,8,0.6,0.6
2023-03-02T11:00:00,1759A,124.0972,41.8961,抚顺市,大伙房水库,,42,42,74,15,17,103,95,83,64,7,8,9,6,0.5,0.5
2023-03-02T11:00:00,1760A,123.7086,41.8391,抚顺市,沈抚新城,颗粒物(PM10),51,52,76,17,21,89,73,58,39,14,22,9,9,0.4,0.4
2023-03-02T11:00:00,1761A,123.8275,41.3064,本溪市,大峪,,24,24,54,5,10,78,71,62,49,14,15,9,7,0.8,0.7
2023-03-02T11:00:00,1762A,123.7567,41.3325,本溪市,溪湖,颗粒物(PM10),56,62,66,23,16,86,49,62,36,48,23,96,20,2.5,0.8
2023-03-02T11:00:00,1763A,123.7169,41.3094,本溪市,彩屯,颗粒物(PM10),51,52,61,15,18,84,61,66,39,30,22,29,17,1.9,0.8
2023-03-02T11:00:00,1764A,123.7669,41.2864,本溪市,东明,,35,35,68,13,17,80,66,63,43,23,26,24,15,0.7,0.6
2023-03-02T11:00:00,1765A,123.7992,41.2664,本溪市,新立屯,,26,26,61,7,14,83,73,53,46,15,24,11,9,0.7,0.7
2023-03-02T11:00:00,1766A,123.8142,41.3472,本溪市,威宁,颗粒物(PM10),59,68,82,7,17,80,68,45,26,15,26,15,8,0.8,0.7
2023-03-02T11:00:00,1767A,121.1115,41.0879,锦州市,南山,,,114,73,22,26,89,70,78,35,20,19,26,16,,0.6
2023-03-02T11:00:00,1768A,121.0533,40.8434,锦州市,开发区,颗粒物(PM10),69,88,85,14,25,78,65,26,26,16,43,12,31,0.6,0.7
2023-03-02T11:00:00,1769A,121.1836,41.1119,锦州市,百股街道,颗粒物(PM10),94,137,84,12,14,87,69,55,46,23,19,30,12,0.3,0.3
2023-03-02T11:00:00,1770A,121.1178,41.1222,锦州市,天安街道,颗粒物(PM10),64,78,66,17,19,91,67,78,43,23,17,21,15,0.6,0.6
2023-03-02T11:00:00,1771A,121.1303,41.1386,锦州市,北湖公园,颗粒物(PM10),73,95,61,15,20,86,66,79,47,23,16,21,21,0.6,0.6
2023-03-02T11:00:00,1772A,126.54,43.8622,吉林市,哈达湾,,25,25,36,12,15,85,77,64,50,7,15,7,7,0.4,0.4
2023-03-02T11:00:00,1773A,126.5844,43.8358,吉林市,东局子,,24,22,33,11,16,83,74,62,54,11,17,7,7,0.5,0.5
2023-03-02T11:00:00,1774A,126.5052,43.8245,吉林市,电力学院,,25,16,33,11,16,91,79,69,52,8,11,10,8,0.6,0.6
2023-03-02T11:00:00,1775A,126.6133,43.8972,吉林市,江北,,28,28,46,13,22,85,73,65,56,14,19,8,11,0.6,0.6
2023-03-02T11:00:00,1776A,126.555,43.8306,吉林市,江南公园,,25,19,32,12,16,85,78,65,49,9,19,6,7,0.6,0.5
2023-03-02T11:00:00,1778A,126.7061,43.7133,吉林市,丰满,,,,,,,,,,,,,,,,
2023-03-02T11:00:00,1779A,123.9305,47.3636,齐齐哈尔市,安居小区,,40,40,26,21,17,93,82,80,72,7,10,5,6,0.3,0.2
2023-03-02T11:00:00,1780A,123.9488,47.3386,齐齐哈尔市,中心广场,,36,36,26,16,8,80,70,72,64,8,13,4,6,0.4,0.4
2023-03-02T11:00:00,1781A,123.9483,47.3227,齐齐哈尔市,农牧车辆厂,颗粒物(PM10),53,56,31,22,14,74,66,62,53,11,17,5,7,0.3,0.4
2023-03-02T11:00:00,1783A,123.945,47.2988,齐齐哈尔市,市环境监测站,,38,38,33,26,17,84,76,62,61,8,18,6,8,0.3,0.4
2023-03-02T11:00:00,1784A,129.61,44.561,牡丹江市,环保大楼,,26,21,32,14,27,82,82,77,77,6,13,3,4,0.3,0.3
2023-03-02T11:00:00,1785A,129.6115,44.5782,牡丹江市,文化广场,,,10,34,9,25,75,75,70,70,11,19,,4,0.3,0.4
2023-03-02T11:00:00,1786A,129.5904,44.5963,牡丹江市,第一医院,,26,16,33,8,28,83,82,78,78,6,13,2,3,0.3,0.4
2023-03-02T11:00:00,1787A,129.6364,44.6075,牡丹江市,机车工厂,,25,22,39,16,22,80,80,73,73,8,15,2,3,0.2,0.3
2023-03-02T11:00:00,1788A,129.6386,44.5462,牡丹江市,第一中学,,26,11,31,10,23,81,81,77,77,5,11,1,2,0.3,0.3
2023-03-02T11:00:00,1789A,124.81117,46.03138,大庆市,大同区,,43,27,34,30,24,78,64,52,45,11,13,10,6,0.4,0.5
2023-03-02T11:00:00,1790A,125.129,46.533,大庆市,龙凤区,,40,40,26,28,21,84,61,62,42,15,20,8,7,0.6,0.5
2023-03-02T11:00:00,1791A,124.902,46.408,大庆市,红岗区,,24,24,27,15,17,83,67,64,46,12,15,8,7,0.4,0.3
2023-03-02T11:00:00,1792A,125.153,46.586,大庆市,萨尔图区,细颗粒物(PM2.5),53,48,26,37,20,79,57,56,39,24,22,16,7,0.5,0.5
2023-03-02T11:00:00,1793A,124.9042,46.6215,大庆市,让胡路区,,39,39,27,16,21,90,69,72,47,15,15,5,5,0.4,0.3
2023-03-02T11:00:00,1794A,118.3606,31.3519,芜湖市,监测站,细颗粒物(PM2.5),99,115,132,74,97,149,108,101,73,36,58,12,11,1.0,0.8
2023-03-02T11:00:00,1795A,118.3714,31.4134,芜湖市,科创中心,细颗粒物(PM2.5),103,121,134,77,104,146,109,84,62,29,50,11,11,1.0,0.9
2023-03-02T11:00:00,1796A,118.3673,31.3131,芜湖市,四水厂,细颗粒物(PM2.5),99,117,140,74,95,149,113,110,82,29,46,12,11,0.9,0.8
2023-03-02T11:00:00,1798A,118.5092,31.6837,马鞍山市,湖东路四小,,,80,92,59,90,163,102,96,81,,33,,11,0.8,0.9
2023-03-02T11:00:00,1799A,118.5024,31.6449,马鞍山市,开发区,细颗粒物(PM2.5),85,71,107,63,94,162,101,80,71,25,41,10,12,0.8,1
2023-03-02T11:00:00,1800A,118.5228,31.7231,马鞍山市,慈湖,,,,111,,97,155,,98,87,22,37,11,12,0.9,1
2023-03-02T11:00:00,1802A,118.6245,31.7241,马鞍山市,濮塘,细颗粒物(PM2.5),88,109,120,65,72,161,98,107,88,18,24,6,7,0.9,1
2023-03-02T11:00:00,1803A,115.9872,29.6815,九江市,十里,细颗粒物(PM2.5),102,130,108,76,71,129,108,101,87,33,47,14,13,1.1,1
2023-03-02T11:00:00,1804A,115.9584,29.7046,九江市,茅山头,细颗粒物(PM2.5),115,129,105,87,75,123,105,114,85,37,42,20,15,0.9,0.9
2023-03-02T11:00:00,1805A,115.9877,29.7295,九江市,西园,细颗粒物(PM2.5),118,113,96,89,74,113,104,106,83,38,42,11,12,0.8,0.8
2023-03-02T11:00:00,1806A,116.0172,29.6547,九江市,五七二七厂,细颗粒物(PM2.5),123,113,95,93,75,121,98,112,88,40,33,18,13,1.0,0.8
2023-03-02T11:00:00,1808A,115.9114,29.6038,九江市,综合工业园,细颗粒物(PM2.5),134,121,101,102,85,125,94,124,78,45,53,17,15,1.2,1.1
2023-03-02T11:00:00,1809A,116.0721,29.7535,九江市,石化总厂,细颗粒物(PM2.5),117,136,110,88,73,128,,99,70,,55,,14,,0.9
2023-03-02T11:00:00,1810A,115.9773,29.5698,九江市,庐山气象台,,50,42,70,35,66,132,107,127,110,13,35,9,10,0.6,0.8
2023-03-02T11:00:00,1812A,112.3931,34.6516,洛阳市,市委党校,颗粒物(PM10),93,135,97,59,37,78,55,28,28,51,46,16,11,0.8,0.6
2023-03-02T11:00:00,1814A,112.4657,34.6871,洛阳市,豫西宾馆,细颗粒物(PM2.5),94,117,97,70,46,90,60,48,46,37,33,12,7,0.3,0.4
2023-03-02T11:00:00,1815A,112.494,34.6886,洛阳市,河南林校,细颗粒物(PM2.5),94,122,101,70,48,92,60,44,42,42,36,13,8,0.7,0.6
2023-03-02T11:00:00,1816A,112.3844,34.623,洛阳市,开发区管委会,"颗粒物(PM10),细颗粒物(PM2.5)",82,113,84,60,38,94,56,52,30,40,34,14,8,0.5,0.4
2023-03-02T11:00:00,1817A,112.4267,34.6258,洛阳市,市委新办公区,细颗粒物(PM2.5),100,124,81,75,41,92,50,52,35,47,31,13,8,0.7,0.5
2023-03-02T11:00:00,1818A,114.4839,36.0621,安阳市,棉研所,,,,,,,,,,,,,,,,
2023-03-02T11:00:00,1819A,114.3551,36.1017,安阳市,红庙街,颗粒物(PM10),90,129,97,56,53,100,48,27,16,52,50,17,11,1.0,1
2023-03-02T11:00:00,1820A,114.361,36.0681,安阳市,银杏小区,颗粒物(PM10),87,123,92,50,47,103,49,54,16,46,42,16,13,0.7,0.7
2023-03-02T11:00:00,1824A,114.3389,34.7781,开封市,肿瘤医院,细颗粒物(PM2.5),100,131,120,75,78,139,64,22,20,35,55,14,21,1.0,1
2023-03-02T11:00:00,1826A,114.2885,34.7965,开封市,世纪星幼儿园,细颗粒物(PM2.5),104,136,121,78,79,138,66,33,32,42,50,19,20,1.0,1
2023-03-02T11:00:00,1828A,113.227,35.2125,焦作市,市环保局,细颗粒物(PM2.5),77,95,122,56,71,92,81,87,65,27,28,18,14,0.7,0.9
2023-03-02T11:00:00,1830A,113.1992,35.2590,焦作市,影视城,,,,,,,,,,,,,,,,
2023-03-02T11:00:00,1832A,113.3257,33.742,平顶山市,新华旅馆,,,146,128,,65,129,,51,12,76,60,11,8,0.9,0.8
2023-03-02T11:00:00,1833A,113.2919,33.737,平顶山市,规划设计院,细颗粒物(PM2.5),115,147,131,87,74,135,52,44,12,49,50,10,7,0.7,0.7
2023-03-02T11:00:00,1834A,113.182,33.774,平顶山市,平顶山工学院,颗粒物(PM10),91,132,140,56,69,134,61,67,25,32,34,10,6,0.6,0.6
2023-03-02T11:00:00,1835A,111.1922,34.7752,三门峡市,市政府,颗粒物(PM10),71,92,72,50,24,97,71,29,29,25,40,22,12,0.6,0.5
2023-03-02T11:00:00,1836A,111.1587,34.7942,三门峡市,开发区,颗粒物(PM10),102,154,81,41,24,99,69,37,28,29,30,27,16,0.6,0.5
2023-03-02T11:00:00,1838A,111.143,34.7955,三门峡市,风景区,,,,,,,,,,,,,,,,
2023-03-02T11:00:00,1840A,111.2992,30.6981,宜昌市,白龙岗,颗粒物(PM10),84,117,106,61,62,104,35,44,32,50,40,6,6,0.7,0.7
2023-03-02T11:00:00,1841A,111.3549,30.6465,宜昌市,伍家岗,,,,119,,70,104,20,11,8,57,48,,9,0.9,0.7
2023-03-02T11:00:00,1842A,111.2628,30.6961,宜昌市,点军区,细颗粒物(PM2.5),85,110,107,63,64,101,42,32,28,27,33,6,6,0.7,0.7
2023-03-02T11:00:00,1843A,111.3275,30.7819,宜昌市,夷陵区,颗粒物(PM10),72,93,96,51,58,104,21,29,20,56,38,8,8,0.7,0.5
2023-03-02T11:00:00,1844A,112.2494,30.3197,荆州市,市图书馆,细颗粒物(PM2.5),109,129,124,82,94,125,105,88,66,27,35,11,11,0.6,0.7
2023-03-02T11:00:00,1845A,112.2008,30.3544,荆州市,市委党校,,,,126,,87,126,106,72,44,24,37,12,12,0.7,0.9
2023-03-02T11:00:00,1847A,113.1094,29.3578,岳阳市,南湖风景区,细颗粒物(PM2.5),143,176,137,109,107,123,86,74,38,51,46,,11,1.0,0.9
2023-03-02T11:00:00,1848A,113.1493,29.4251,岳阳市,城陵矶,细颗粒物(PM2.5),168,172,158,127,118,113,69,32,32,62,80,11,9,0.9,0.9
2023-03-02T11:00:00,1849A,113.1497,29.3575,岳阳市,开发区,细颗粒物(PM2.5),227,181,167,177,151,116,64,23,23,61,56,15,12,1.3,1.2
2023-03-02T11:00:00,1850A,113.2621,29.4758,岳阳市,云溪区,细颗粒物(PM2.5),130,142,144,99,100,115,96,48,48,37,46,16,11,0.9,1
2023-03-02T11:00:00,1851A,112.9943,29.4402,岳阳市,君山区,细颗粒物(PM2.5),183,159,140,138,118,119,95,72,72,33,44,13,11,0.9,0.9
2023-03-02T11:00:00,1852A,113.2117,29.355,岳阳市,金凤水库,细颗粒物(PM2.5),158,184,157,120,108,116,87,77,50,29,34,5,6,1.1,0.9
2023-03-02T11:00:00,1854A,111.6975,28.9703,常德市,市二中,细颗粒物(PM2.5),107,97,97,80,68,39,38,15,15,30,27,11,7,0.8,0.7
2023-03-02T11:00:00,1857A,111.7158,29.1456,常德市,白鹤山,细颗粒物(PM2.5),145,168,113,111,78,116,116,68,59,18,17,12,7,1.1,0.9
2023-03-02T11:00:00,1858A,110.5319,29.1217,张家界市,永定新区,细颗粒物(PM2.5),90,83,75,67,58,17,14,8,6,22,26,4,4,0.6,0.6
2023-03-02T11:00:00,1859A,110.4697,29.1242,张家界市,电业局,细颗粒物(PM2.5),70,78,72,51,54,13,13,7,6,27,25,5,5,0.9,0.9
2023-03-02T11:00:00,1860A,110.5594,29.3547,张家界市,未央路,细颗粒物(PM2.5),69,82,71,50,47,48,41,16,16,20,20,5,5,0.7,0.7
2023-03-02T11:00:00,1861A,110.4417,29.315,张家界市,袁家界,颗粒物(PM10),71,91,73,41,44,98,95,95,95,18,17,9,8,0.6,0.7
2023-03-02T11:00:00,1862A,110.4144,25.3167,桂林市,电子科大尧山校区,细颗粒物(PM2.5),78,76,64,57,51,135,120,126,110,12,11,11,9,0.8,0.8
2023-03-02T11:00:00,1863A,110.2819,25.2697,桂林市,监测站,细颗粒物(PM2.5),109,81,86,82,73,128,113,98,98,13,14,9,12,0.7,0.7
2023-03-02T11:00:00,1864A,110.3089,25.2708,桂林市,龙隐路小学,细颗粒物(PM2.5),108,82,79,81,73,128,115,99,99,14,14,12,14,0.6,0.6
2023-03-02T11:00:00,1865A,110.2869,25.2178,桂林市,八中,细颗粒物(PM2.5),107,79,77,80,72,129,111,96,96,17,18,11,12,0.4,0.5
2023-03-02T11:00:00,1866A,109.2262,21.588,北海市,牛尾岭水库,颗粒物(PM10),56,62,37,36,20,109,38,109,47,26,16,11,10,0.8,0.6
2023-03-02T11:00:00,1867A,109.1436,21.4086,北海市,海滩公园,细颗粒物(PM2.5),80,92,57,59,35,133,77,79,76,17,12,12,9,0.8,0.7
2023-03-02T11:00:00,1868A,109.0981,21.4661,北海市,新市环保局,细颗粒物(PM2.5),92,77,50,68,35,131,81,75,75,14,14,10,7,0.7,0.6
2023-03-02T11:00:00,1869A,109.1778,21.5233,北海市,北海工业园,细颗粒物(PM2.5),102,100,61,76,40,135,72,69,69,22,14,14,10,0.9,0.7
2023-03-02T11:00:00,1870A,109.4856,24.3895,柳州市,柳东小学,细颗粒物(PM2.5),117,85,82,88,71,156,88,82,74,8,10,8,13,1.0,0.9
2023-03-02T11:00:00,1871A,109.4157,24.3277,柳州市,环保监测站,细颗粒物(PM2.5),85,85,82,63,64,139,83,70,70,13,19,11,11,0.6,0.8
2023-03-02T11:00:00,1872A,109.389,24.341,柳州市,河西水厂,细颗粒物(PM2.5),80,83,94,59,74,129,76,74,46,18,33,11,18,0.8,1.6
2023-03-02T11:00:00,1873A,109.4311,24.2921,柳州市,市四中,细颗粒物(PM2.5),80,70,72,59,62,155,86,75,75,15,16,12,13,0.7,0.8
2023-03-02T11:00:00,1874A,109.4006,24.3631,柳州市,市九中,细颗粒物(PM2.5),89,80,85,66,64,137,80,68,68,16,22,13,14,0.8,0.9
2023-03-02T11:00:00,1875A,109.4958,24.3134,柳州市,古亭山,细颗粒物(PM2.5),74,73,70,54,54,147,89,82,70,11,11,6,8,0.6,0.6
2023-03-02T11:00:00,1876A,109.5078,18.2489,三亚市,河东子站,,47,47,34,28,17,101,101,65,58,13,9,3,2,0.4,0.4
2023-03-02T11:00:00,1877A,109.4964,18.2681,三亚市,河西子站,,48,48,32,30,17,103,103,69,52,12,8,4,3,0.4,0.3
2023-03-02T11:00:00,1878A,104.7778,31.4741,绵阳市,富乐山,细颗粒物(PM2.5),63,64,63,45,35,108,64,81,62,8,10,3,4,0.5,0.4
2023-03-02T11:00:00,1879A,104.7563,31.4535,绵阳市,市人大,细颗粒物(PM2.5),68,69,77,49,37,102,56,73,56,14,19,6,8,0.5,0.4
2023-03-02T11:00:00,1880A,104.6697,31.4668,绵阳市,高新区自来水公司,细颗粒物(PM2.5),73,66,74,53,39,113,57,78,60,17,16,5,5,0.5,0.4
2023-03-02T11:00:00,1881A,104.7287,31.5075,绵阳市,三水厂,细颗粒物(PM2.5),77,74,82,56,41,108,58,78,58,15,20,4,4,0.5,0.4
2023-03-02T11:00:00,1882A,104.563,28.793,宜宾市,石马中学,细颗粒物(PM2.5),75,90,77,55,50,88,12,12,5,36,33,7,6,0.7,0.7
2023-03-02T11:00:00,1883A,104.6201,28.7728,宜宾市,市委,细颗粒物(PM2.5),83,101,84,61,54,89,17,18,18,41,40,9,9,0.7,0.6
2023-03-02T11:00:00,1884A,104.6055,28.793,宜宾市,宜宾四中,细颗粒物(PM2.5),83,99,87,61,57,95,25,29,22,37,40,8,10,0.6,0.6
2023-03-02T11:00:00,1885A,104.639,28.7562,宜宾市,市政府,,,109,82,65,52,97,16,27,16,,41,,8,0.7,0.7
2023-03-02T11:00:00,1886A,104.5742,28.7199,宜宾市,黄金嘴,细颗粒物(PM2.5),78,91,81,57,50,91,22,26,21,35,38,7,8,0.5,0.5
2023-03-02T11:00:00,1888A,101.6891,26.571,攀枝花市,弄弄坪,细颗粒物(PM2.5),107,151,100,80,54,129,21,17,6,70,47,32,33,,2.2
2023-03-02T11:00:00,1889A,101.5769,26.5928,攀枝花市,河门口,细颗粒物(PM2.5),77,83,56,56,34,130,46,38,31,42,26,36,18,2.4,1.2
2023-03-02T11:00:00,1890A,101.7169,26.585,攀枝花市,炳草岗,颗粒物(PM10),80,110,66,53,34,134,32,13,13,56,47,31,19,1.7,1.5
2023-03-02T11:00:00,1891A,101.7369,26.5008,攀枝花市,仁和,"颗粒物(PM10),细颗粒物(PM2.5)",65,80,50,47,33,132,55,39,31,53,25,42,13,2.1,0.9
2023-03-02T11:00:00,1893A,105.4324,28.9634,泸州市,九狮山,细颗粒物(PM2.5),88,103,92,65,54,85,7,10,9,38,25,17,10,0.4,0.4
2023-03-02T11:00:00,1894A,105.4427,28.9063,泸州市,小市上码头,细颗粒物(PM2.5),95,103,103,71,69,81,18,41,22,32,26,15,14,0.7,0.6
2023-03-02T11:00:00,1895A,105.4241,28.8573,泸州市,兰田宪桥,细颗粒物(PM2.5),102,103,96,76,74,88,28,36,17,20,22,16,15,0.6,0.5
2023-03-02T11:00:00,1896A,105.4379,28.8833,泸州市,市环监站,,,105,104,68,65,82,,45,20,26,21,12,13,0.7,0.7
2023-03-02T11:00:00,1901A,104.4239,31.1208,德阳市,东山公园,细颗粒物(PM2.5),93,86,90,69,42,105,45,79,50,16,17,3,4,0.7,0.6
2023-03-02T11:00:00,1902A,104.3826,31.1317,德阳市,西小区,细颗粒物(PM2.5),89,88,93,66,44,101,42,69,43,16,23,3,3,0.6,0.4
2023-03-02T11:00:00,1904A,104.3553,31.1091,德阳市,耐火材料厂,细颗粒物(PM2.5),92,91,93,68,44,100,42,61,38,18,24,4,3,0.5,0.4
2023-03-02T11:00:00,1905A,106.056,30.8064,南充市,西山风景区,,,,,,,,,,,,,,,,
2023-03-02T11:00:00,1906A,106.0789,30.8023,南充市,南充市委,颗粒物(PM10),73,96,83,49,51,78,21,20,19,34,29,14,12,0.7,0.7
2023-03-02T11:00:00,1907A,106.1031,30.8217,南充市,南充炼油厂,"颗粒物(PM10),细颗粒物(PM2.5)",67,84,81,48,51,80,21,19,18,23,25,18,11,0.8,0.8
2023-03-02T11:00:00,1908A,106.1064,30.7856,南充市,高坪区监测站,细颗粒物(PM2.5),83,75,77,61,57,71,21,32,19,26,28,17,13,0.7,0.7
2023-03-02T11:00:00,1909A,106.0642,30.7636,南充市,嘉陵区环保局,细颗粒物(PM2.5),73,87,79,53,52,75,17,26,18,35,30,12,12,0.7,0.6
2023-03-02T11:00:00,1910A,106.1087,30.8388,南充市,市环境监测站,细颗粒物(PM2.5),74,76,76,54,55,82,33,29,18,20,30,18,12,0.6,0.6
2023-03-02T11:00:00,1911A,106.9222,27.6869,遵义市,丁字口,细颗粒物(PM2.5),62,67,61,44,50,75,75,67,64,22,23,16,15,0.7,0.7
2023-03-02T11:00:00,1912A,106.9242,27.7019,遵义市,凤凰山,,,,57,,42,73,71,65,63,18,21,6,6,0.7,0.7
2023-03-02T11:00:00,1913A,106.8906,27.6486,遵义市,忠庄,细颗粒物(PM2.5),62,53,58,44,48,67,62,57,56,22,19,5,4,0.8,0.8
2023-03-02T11:00:00,1914A,106.9231,27.6506,遵义市,舟水桥,,,,69,,50,77,77,58,56,,15,7,13,0.6,0.8
2023-03-02T11:00:00,1915A,106.9178,27.72,遵义市,干田坝,,50,44,61,35,47,79,79,63,62,22,22,13,10,0.7,0.7
2023-03-02T11:00:00,1916A,103.7897,25.5035,曲靖市,环境监测站,细颗粒物(PM2.5),64,65,81,46,58,149,47,68,55,25,16,15,9,1.4,1.1
2023-03-02T11:00:00,1917A,103.8,25.5364,曲靖市,烟厂办公区,细颗粒物(PM2.5),67,63,80,48,53,152,58,78,65,24,18,12,7,1.2,0.9
2023-03-02T11:00:00,1918A,108.7197,34.3956,咸阳市,气象站,颗粒物(PM10),106,162,172,52,57,83,27,8,8,44,58,16,11,0.5,0.4
2023-03-02T11:00:00,1919A,108.673,34.3155,咸阳市,实验中学,颗粒物(PM10),111,172,183,56,57,91,29,12,12,56,54,14,8,0.5,0.4
2023-03-02T11:00:00,1920A,108.7233,34.3617,咸阳市,师范学院,颗粒物(PM10),102,154,177,56,60,84,29,13,13,46,53,13,8,0.7,0.5
2023-03-02T11:00:00,1922A,109.0656,35.0994,铜川市,党校,颗粒物(PM10),93,135,136,41,32,93,75,20,20,38,50,16,13,0.6,0.6
2023-03-02T11:00:00,1923A,109.0697,35.0697,铜川市,王益区政府,颗粒物(PM10),98,145,120,47,36,92,40,18,18,48,36,9,7,1.2,0.7
2023-03-02T11:00:00,1924A,108.9344,34.9058,铜川市,新区管委会,颗粒物(PM10),86,121,128,41,38,98,65,53,52,28,27,16,10,0.7,0.5
2023-03-02T11:00:00,1926A,109.4131,36.6275,延安市,枣园,,49,49,54,22,16,102,40,16,16,25,31,5,6,0.7,0.7
2023-03-02T11:00:00,1927A,109.4761,36.6028,延安市,延大医附院,颗粒物(PM10),54,58,50,16,25,90,36,13,13,27,37,6,6,0.4,0.6
2023-03-02T11:00:00,1929A,109.5056,36.6106,延安市,百米大道,颗粒物(PM10),55,59,64,21,24,88,31,11,11,37,40,3,4,0.8,0.6
2023-03-02T11:00:00,1930A,107.185,34.3063,宝鸡市,庙沟村,颗粒物(PM10),85,119,140,36,37,83,29,31,29,25,26,4,5,0.6,0.6
2023-03-02T11:00:00,1931A,107.0708,34.3017,宝鸡市,竹园沟,颗粒物(PM10),86,121,123,42,40,98,39,34,27,28,22,6,7,0.5,0.4
2023-03-02T11:00:00,1932A,107.1906,34.3672,宝鸡市,三陆医院,颗粒物(PM10),113,175,164,53,56,91,21,27,18,51,46,13,12,0.7,0.5
2023-03-02T11:00:00,1933A,107.1431,34.3547,宝鸡市,监测站,颗粒物(PM10),93,135,142,39,42,89,18,18,18,44,37,6,5,0.5,0.4
2023-03-02T11:00:00,1934A,107.1186,34.3739,宝鸡市,技工学校,颗粒物(PM10),92,133,151,50,51,88,29,37,24,32,33,7,7,0.4,0.4
2023-03-02T11:00:00,1935A,107.3906,34.3528,宝鸡市,陈仓区环保局家属楼,,,,179,70,62,84,32,40,39,46,41,23,27,0.8,0.7
2023-03-02T11:00:00,1936A,107.2058,34.3497,宝鸡市,文理学院,颗粒物(PM10),98,145,160,41,45,88,19,19,19,46,39,10,10,0.7,0.5
2023-03-02T11:00:00,1937A,107.2386,34.3622,宝鸡市,三迪小学,颗粒物(PM10),101,151,167,42,48,84,19,22,17,50,47,14,12,0.7,0.5
2023-03-02T11:00:00,1938A,109.5293,34.5101,渭南市,农科所,颗粒物(PM10),89,127,121,53,36,87,42,49,17,30,34,11,8,0.6,0.5
2023-03-02T11:00:00,1939A,109.4974,34.4877,渭南市,日报社,颗粒物(PM10),80,110,120,48,33,83,48,17,17,29,50,10,7,0.4,0.4
2023-03-02T11:00:00,1940A,109.4636,34.493,渭南市,体育馆,颗粒物(PM10),92,134,126,56,37,92,53,28,16,30,50,10,7,0.5,0.4
2023-03-02T11:00:00,1941A,109.4259,34.5023,渭南市,高新一小,颗粒物(PM10),87,124,143,41,48,89,44,10,10,31,41,14,9,0.5,0.5
2023-03-02T11:00:00,1943A,102.1725,38.5339,金昌市,新川苑,,,,66,,16,105,,73,66,,21,9,15,0.6,0.7
2023-03-02T11:00:00,1944A,102.1692,38.5167,金昌市,天庆家园,颗粒物(PM10),57,64,48,15,13,104,67,81,68,33,20,12,15,0.8,0.8
2023-03-02T11:00:00,1945A,98.2908,39.7711,嘉峪关市,气象局,颗粒物(PM10),67,83,66,14,22,110,92,82,82,12,21,3,10,0.1,0.3
2023-03-02T11:00:00,1947A,106.3394,38.817,石嘴山市,沙湖旅游区,颗粒物(PM10),133,215,230,75,56,110,22,13,13,39,36,67,25,3.8,1
2023-03-02T11:00:00,1948A,106.3668,39.0145,石嘴山市,大武口朝阳西街,颗粒物(PM10),92,133,178,43,48,108,40,36,25,45,39,108,33,0.9,0.6
2023-03-02T11:00:00,1949A,106.7704,39.2282,石嘴山市,惠农南大街,颗粒物(PM10),94,138,181,32,49,102,36,15,15,39,55,14,30,0.5,0.8
2023-03-02T11:00:00,1950A,106.7099,39.1325,石嘴山市,红果子镇惠新街,颗粒物(PM10),68,85,155,34,49,109,41,28,27,26,44,11,21,0.8,0.7
2023-03-02T11:00:00,1951A,84.895,45.6094,克拉玛依市,长征新村,颗粒物(PM10),51,52,56,33,32,83,60,71,66,14,16,5,6,0.3,0.4
2023-03-02T11:00:00,1952A,84.8988,45.5893,克拉玛依市,南林小区,细颗粒物(PM2.5),52,52,53,36,34,87,60,70,67,17,19,3,2,0.3,0.3
2023-03-02T11:00:00,1954A,84.905,44.3396,克拉玛依市,独山子区,颗粒物(PM10),65,79,95,39,64,128,68,110,81,40,19,5,5,0.9,0.8
2023-03-02T11:00:00,1955A,85.6979,46.098,克拉玛依市,乌尔禾区商贸楼,,40,35,41,28,28,90,81,85,82,5,8,6,6,0.3,0.4
2023-03-02T11:00:00,1956A,86.1472,41.7538,巴音郭楞州,孔雀公园,颗粒物(PM10),112,173,259,41,66,100,13,7,4,74,46,4,4,1.1,0.7
2023-03-02T11:00:00,1957A,86.1972,41.7166,巴音郭楞州,棉纺厂,颗粒物(PM10),119,188,320,51,80,99,34,46,38,48,28,2,3,0.3,0.4
2023-03-02T11:00:00,1958A,86.2357,41.7173,巴音郭楞州,经济开发区,颗粒物(PM10),148,245,304,45,60,100,14,59,40,68,27,5,5,0.6,0.5
2023-03-02T11:00:00,1961A,117.532,36.6868,济南市,东山小学,,39,39,67,5,13,108,85,50,36,16,37,6,8,0.5,0.5
2023-03-02T11:00:00,1966A,120.0405,35.8735,青岛市,黄岛区4号,颗粒物(PM10),53,56,74,17,25,113,79,47,42,19,38,8,9,0.4,0.5
2023-03-02T11:00:00,1982A,122.0693,37.2174,威海市,文登开发区,颗粒物(PM10),60,70,62,12,22,95,70,69,53,17,25,6,6,0.3,0.5
2023-03-02T11:00:00,2031A,113.1817,27.9958,株洲市,云田中学,细颗粒物(PM2.5),130,112,136,99,134,113,84,35,35,21,34,10,9,0.8,0.8
2023-03-02T11:00:00,2054A,114.1099,32.1059,信阳市,平桥分局,细颗粒物(PM2.5),104,104,136,78,88,148,81,40,18,40,40,14,12,0.8,0.7
2023-03-02T11:00:00,2064A,113.9956,32.1271,信阳市,南湾水厂,细颗粒物(PM2.5),119,146,131,90,89,158,98,84,78,30,21,13,11,0.7,0.6
2023-03-02T11:00:00,2065A,114.0775,32.1195,信阳市,市酿酒公司,细颗粒物(PM2.5),134,120,120,102,96,166,76,29,20,47,45,15,11,0.9,0.8
2023-03-02T11:00:00,2066A,114.0609,32.1399,信阳市,审计局,颗粒物(PM10),108,166,139,77,102,153,66,18,18,,53,12,10,1.0,0.8
2023-03-02T11:00:00,2067A,114.6613,33.6128,周口市,市环境监测站,细颗粒物(PM2.5),104,147,123,78,64,117,61,58,55,36,41,13,19,0.7,0.7
2023-03-02T11:00:00,2068A,114.6758,33.6347,周口市,周口师范,细颗粒物(PM2.5),104,143,111,78,62,124,69,58,58,37,44,24,16,0.7,0.6
2023-03-02T11:00:00,2069A,114.6546,33.5979,周口市,市运管处,细颗粒物(PM2.5),105,141,114,79,66,122,65,68,67,,42,,15,0.6,0.6
2023-03-02T11:00:00,2070A,114.6369,33.6406,周口市,川汇区环保局,细颗粒物(PM2.5),107,131,109,80,66,116,66,57,57,34,41,12,14,0.6,0.6
2023-03-02T11:00:00,2075A,117.6336,24.4674,漳州市,九湖,,,,,,,,,,,,,,,,
2023-03-02T11:00:00,2160A,112.85,35.5051,晋城市,自来水公司,,,,71,,22,95,63,16,16,,43,16,11,1.2,0.7
2023-03-02T11:00:00,2161A,112.8318,35.4936,晋城市,白云商贸,颗粒物(PM10),68,85,73,44,22,91,60,30,28,34,29,13,8,1.4,0.9
2023-03-02T11:00:00,2162A,112.8508,35.4887,晋城市,市环保局,细颗粒物(PM2.5),79,94,82,58,29,93,65,18,18,34,42,16,11,1.5,1
2023-03-02T11:00:00,2163A,112.8676,35.4897,晋城市,技术学院,细颗粒物(PM2.5),77,75,71,56,29,92,62,22,19,46,48,14,9,1.4,0.8
2023-03-02T11:00:00,2165A,112.8453,35.546,晋城市,白马寺,,,,,,,,,,,,,,,,
2023-03-02T11:00:00,2166A,112.4397,39.3522,朔州市,平朔,颗粒物(PM10),78,105,78,37,20,93,46,20,20,39,34,16,9,0.5,0.5
2023-03-02T11:00:00,2167A,112.4575,39.3617,朔州市,朔唯,,,100,115,58,44,103,52,13,13,,60,17,13,0.5,0.5
2023-03-02T11:00:00,2168A,112.4258,39.3197,朔州市,区政府,颗粒物(PM10),94,138,61,41,14,96,51,35,33,41,25,18,11,0.9,0.7
2023-03-02T11:00:00,2169A,112.4072,39.3278,朔州市,市环保局,颗粒物(PM10),83,116,64,52,25,97,58,31,31,35,29,16,13,0.9,0.7
2023-03-02T11:00:00,2170A,112.4272,39.3681,朔州市,市二中,颗粒物(PM10),80,110,90,28,23,94,53,20,20,27,30,11,8,0.6,0.5
2023-03-02T11:00:00,2171A,112.7532,37.6945,晋中市,锦纶小区,颗粒物(PM10),81,112,60,47,16,92,42,27,27,35,32,22,8,0.6,0.3
2023-03-02T11:00:00,2173A,112.7249,37.7067,晋中市,南都小区,颗粒物(PM10),84,118,57,39,18,90,44,30,30,36,36,28,10,0.9,0.4
2023-03-02T11:00:00,2174A,112.6991,37.6982,晋中市,榆次区政府,颗粒物(PM10),88,125,62,27,17,87,38,31,31,39,34,25,9,0.7,0.4
2023-03-02T11:00:00,2175A,110.9956,35.0147,运城市,运城中学,颗粒物(PM10),85,120,83,45,36,91,69,34,33,28,26,14,11,1.0,0.5
2023-03-02T11:00:00,2178A,110.9686,35.0303,运城市,地区技校,颗粒物(PM10),89,128,103,47,35,102,73,34,34,31,37,17,10,1.3,0.8
2023-03-02T11:00:00,2179A,111.0414,35.1147,运城市,空港新区,颗粒物(PM10),101,152,109,64,47,105,88,26,26,18,44,14,29,1.1,1
2023-03-02T11:00:00,2181A,112.7383,38.4519,忻州市,开发区,颗粒物(PM10),61,71,40,31,15,95,48,31,22,29,27,16,5,0.4,0.3
2023-03-02T11:00:00,2182A,112.7003,38.4928,忻州市,会展中心,颗粒物(PM10),57,64,47,37,19,87,40,17,17,35,35,14,5,0.5,0.4
2023-03-02T11:00:00,2183A,111.1406,37.5211,吕梁市,环保局,,,76,79,23,15,88,35,10,10,,42,20,9,0.5,0.5
2023-03-02T11:00:00,2185A,111.1297,37.5136,吕梁市,自来水公司,颗粒物(PM10),75,100,97,24,17,86,32,9,9,32,36,26,14,0.6,0.5
2023-03-02T11:00:00,2187A,106.8174,39.6973,乌海市,市林业局,颗粒物(PM10),111,172,110,49,36,109,42,12,12,59,49,66,48,2.3,1.3
2023-03-02T11:00:00,2188A,106.7907,39.6667,乌海市,中海勃湾学校,颗粒物(PM10),125,199,108,65,33,111,29,16,16,64,48,91,45,2.4,1.4
2023-03-02T11:00:00,2191A,122.2532,43.6801,通辽市,艺术职业学校,,,36,70,8,22,90,,70,58,16,14,17,13,0.4,0.3
2023-03-02T11:00:00,2192A,119.7594,49.2261,呼伦贝尔市,区环保局,,26,23,24,18,17,89,72,85,78,3,6,5,5,0.3,0.2
2023-03-02T11:00:00,2195A,107.4212,40.761,巴彦淖尔市,附二中,颗粒物(PM10),63,75,64,20,18,85,59,38,38,16,27,4,5,0.5,0.5
2023-03-02T11:00:00,2196A,107.37,40.7372,巴彦淖尔市,市环保大楼,颗粒物(PM10),64,77,74,22,24,93,59,20,20,16,33,4,6,0.4,0.5
2023-03-02T11:00:00,2197A,113.1306,40.9923,乌兰察布市,集宁新区,,,,31,,18,89,50,68,31,11,21,,10,0.5,0.6
2023-03-02T11:00:00,2200A,122.0392,46.0656,兴安盟,胜华新制药厂,,,22,22,15,15,84,,81,68,12,12,7,5,0.7,0.6
2023-03-02T11:00:00,2201A,121.9504,46.0741,兴安盟,科右前旗环保局,,23,17,21,11,16,86,72,83,68,12,10,5,2,0.6,0.5
2023-03-02T11:00:00,2202A,116.1042,43.9317,锡林郭勒盟,市环保监测站,,36,36,26,7,6,87,62,61,61,2,7,6,7,0.3,0.3
2023-03-02T11:00:00,2203A,116.0781,43.9311,锡林郭勒盟,市政府,,,35,34,8,6,91,68,64,64,18,10,,7,,0.2
2023-03-02T11:00:00,2204A,105.6467,38.8363,阿拉善盟,西城区西花园,颗粒物(PM10),62,74,59,22,16,89,63,67,57,16,17,10,9,0.5,0.5
2023-03-02T11:00:00,2205A,105.6985,38.8411,阿拉善盟,蒙二幼,,,80,54,23,22,93,76,74,72,19,13,12,9,,0.5
2023-03-02T11:00:00,2206A,105.724,38.8516,阿拉善盟,环保局新楼,,38,38,43,19,18,91,84,84,83,11,6,11,10,0.5,0.3
2023-03-02T11:00:00,2207A,121.6094,41.998,阜新市,工业园区,颗粒物(PM10),115,179,77,34,22,92,80,45,45,22,26,31,15,0.7,0.6
2023-03-02T11:00:00,2208A,121.6697,42.0279,阜新市,长青街,颗粒物(PM10),64,77,46,21,14,91,67,70,48,16,13,23,12,0.7,0.6
2023-03-02T11:00:00,2209A,121.6673,42.0705,阜新市,农业园区,颗粒物(PM10),90,129,48,35,20,82,72,73,54,14,13,29,14,0.6,0.5
2023-03-02T11:00:00,2210A,121.6717,42.0224,阜新市,东苑,颗粒物(PM10),108,165,63,31,17,89,73,70,50,15,12,24,11,0.7,0.6
2023-03-02T11:00:00,2211A,121.6506,42.0498,阜新市,玉龙新城,颗粒物(PM10),78,105,67,28,18,87,74,44,31,12,20,29,12,0.7,0.6
2023-03-02T11:00:00,2212A,123.2,41.1953,辽阳市,宏伟区,,38,38,52,16,15,86,70,58,45,13,17,12,16,0.7,0.8
2023-03-02T11:00:00,2213A,123.1683,41.2495,辽阳市,新华园,,40,40,58,18,19,90,72,62,43,13,15,16,18,1.0,1
2023-03-02T11:00:00,2214A,123.2354,41.2639,辽阳市,滨河路,,36,36,56,16,23,78,66,63,37,17,20,14,8,0.6,0.5
2023-03-02T11:00:00,2215A,123.149,41.2991,辽阳市,铁西工业园,颗粒物(PM10),77,103,59,21,24,78,57,48,29,30,25,19,9,1.0,0.9
2023-03-02T11:00:00,2216A,123.8139,42.3022,铁岭市,汇工街西,,,39,89,18,28,91,72,54,27,19,23,,13,,0.5
2023-03-02T11:00:00,2217A,123.8649,42.2923,铁岭市,水上乐园,,44,44,70,15,16,89,71,72,42,19,17,14,11,0.4,0.4
2023-03-02T11:00:00,2218A,123.8486,42.2867,铁岭市,银州路东段,,33,33,78,13,17,84,73,62,41,17,23,9,8,0.5,0.5
2023-03-02T11:00:00,2219A,123.7153,42.2217,铁岭市,金沙江路北,颗粒物(PM10),52,54,79,24,23,87,62,67,26,29,27,10,9,0.4,0.4
2023-03-02T11:00:00,2220A,120.4318,41.5881,朝阳市,西梁,颗粒物(PM10),64,78,63,29,19,78,58,27,27,21,26,16,11,1.0,0.9
2023-03-02T11:00:00,2221A,120.4521,41.5646,朝阳市,河畔小区,颗粒物(PM10),62,73,54,21,14,93,77,55,48,14,20,10,7,0.5,0.4
2023-03-02T11:00:00,2222A,120.4176,41.5648,朝阳市,八里堡,颗粒物(PM10),67,83,66,22,15,92,65,32,32,23,26,21,13,1.1,0.8
2023-03-02T11:00:00,2223A,120.3806,41.5969,朝阳市,农业园区,颗粒物(PM10),78,106,72,9,15,84,74,43,28,12,25,14,12,0.6,0.7
2023-03-02T11:00:00,2225A,124.4002,43.1713,四平市,一商场,颗粒物(PM10),54,58,103,26,20,77,74,46,46,9,22,7,7,0.3,0.4
2023-03-02T11:00:00,2226A,124.388,43.193,四平市,境园,,47,47,110,19,18,83,77,40,40,10,23,4,5,0.2,0.5
2023-03-02T11:00:00,2227A,125.1358,42.8845,辽源市,环保局,,27,27,50,15,20,91,86,52,50,3,12,8,11,0.3,0.4
2023-03-02T11:00:00,2229A,125.9358,41.7173,通化市,光明,颗粒物(PM10),52,53,63,6,11,85,76,68,46,6,13,12,14,0.1,0.1
2023-03-02T11:00:00,2230A,125.9446,41.7325,通化市,铁路,,37,37,58,10,12,91,77,74,50,9,12,8,10,0.1,0.1
2023-03-02T11:00:00,2231A,126.4219,41.9171,白山市,喜丰,颗粒物(PM10),66,82,100,17,12,79,69,67,45,10,15,20,10,0.3,0.5
2023-03-02T11:00:00,2232A,126.4077,41.9419,白山市,环保局,,,66,87,23,16,77,65,63,43,7,10,12,10,,1
2023-03-02T11:00:00,2233A,124.8006,45.1214,松原市,江南,,,26,43,8,17,67,58,35,35,4,14,,5,,0.3
2023-03-02T11:00:00,2234A,124.7965,45.1722,松原市,江北,,37,37,49,2,14,71,71,45,45,5,14,6,4,0.4,0.5
2023-03-02T11:00:00,2235A,122.7911,45.6077,白城市,洮北区环保局,颗粒物(PM10),53,56,47,14,22,82,82,72,70,8,16,3,2,0.3,0.4
2023-03-02T11:00:00,2236A,122.8738,45.5725,白城市,市环保局,,,36,42,4,14,84,,64,57,9,20,,6,0.3,0.4
2023-03-02T11:00:00,2237A,129.47,42.8883,延边朝鲜族自治州,妇幼医院,,27,18,30,7,9,85,85,79,76,7,13,7,11,0.5,0.4
2023-03-02T11:00:00,2238A,129.5055,42.9108,延边朝鲜族自治州,延边医院,,,10,26,7,9,85,85,78,76,7,10,,7,,0.5
2023-03-02T11:00:00,2239A,129.3964,42.8881,延边朝鲜族自治州,朝阳川镇医院,,28,15,31,3,7,88,88,78,77,4,6,6,7,0.5,0.5
2023-03-02T11:00:00,2240A,130.9762,45.3001,鸡西市,环保局,,32,28,30,22,20,75,75,57,57,10,20,4,8,0.3,0.3
2023-03-02T11:00:00,2243A,130.9429,45.3039,鸡西市,第一中学,,,22,27,13,20,81,81,57,57,,13,4,7,0.2,0.3
2023-03-02T11:00:00,2244A,130.2537,47.3416,鹤岗市,哈啤分公司,,34,34,23,15,17,80,78,78,60,7,11,10,11,0.3,0.3
2023-03-02T11:00:00,2245A,130.2684,47.3086,鹤岗市,斯达机电,,27,27,32,6,19,78,53,75,60,25,11,16,8,0.4,0.2
2023-03-02T11:00:00,2246A,130.3114,47.3388,鹤岗市,东山纸板厂,,50,50,48,17,20,78,67,64,38,8,10,13,11,0.3,0.4
2023-03-02T11:00:00,2247A,130.1097,47.3382,鹤岗市,五号水库,,26,9,19,6,13,85,83,59,59,4,5,8,7,0.2,0.2
2023-03-02T11:00:00,2248A,131.1511,46.6937,双鸭山市,双合村,,35,20,51,24,31,82,82,54,53,6,18,10,16,0.3,0.7
2023-03-02T11:00:00,2249A,131.1652,46.6191,双鸭山市,南小市,,39,34,51,27,26,78,76,57,57,8,18,8,9,0.4,0.6
2023-03-02T11:00:00,2250A,131.1524,46.6554,双鸭山市,环保局,,43,43,44,20,29,91,75,53,53,18,26,22,16,0.7,0.5
2023-03-02T11:00:00,2251A,131.12,46.5656,双鸭山市,苗圃,,37,37,36,22,28,93,92,78,78,9,13,5,5,0.2,0.2
2023-03-02T11:00:00,2252A,128.5159,47.4311,伊春市,环保局,,,13,18,6,15,76,,64,48,,16,,5,,0.5
2023-03-02T11:00:00,2253A,128.9102,47.7412,伊春市,电力嘉园,,21,18,24,9,14,86,65,47,46,13,11,8,6,0.4,0.4
2023-03-02T11:00:00,2254A,129.5029,48.471,伊春市,汤旺河国家公园,,25,25,22,14,16,79,79,53,51,3,3,7,6,0.4,0.1
2023-03-02T11:00:00,2255A,130.2751,46.8028,佳木斯市,佳纺,细颗粒物(PM2.5),52,40,50,36,39,79,71,44,44,16,30,8,6,0.5,0.6
2023-03-02T11:00:00,2256A,130.3995,46.8307,佳木斯市,发电厂,,36,28,35,25,27,84,77,43,43,10,26,3,6,0.4,0.6
2023-03-02T11:00:00,2257A,130.3258,46.7975,佳木斯市,环保局,,38,32,40,26,31,72,72,51,51,10,33,4,6,0.4,0.7
2023-03-02T11:00:00,2258A,130.3648,46.8032,佳木斯市,十一中,,,31,34,23,22,69,67,37,37,,41,5,7,0.5,0.6
2023-03-02T11:00:00,2259A,130.3794,46.7588,佳木斯市,四丰,,41,24,24,19,18,137,129,115,115,6,14,1,1,0.3,0.3
2023-03-02T11:00:00,2262A,131.0518,45.8751,七台河市,新一中,,33,24,20,23,15,92,92,81,72,8,12,6,8,0.3,0.4
2023-03-02T11:00:00,2263A,127.4833,50.2524,黑河市,交通局,,24,10,17,12,15,80,76,75,70,7,14,6,7,0.4,0.4
2023-03-02T11:00:00,2264A,127.5144,50.2341,黑河市,环保局,,25,22,16,7,16,82,78,80,75,12,10,4,7,0.7,0.4
2023-03-02T11:00:00,2265A,127.5291,50.2472,黑河市,大黑河岛,,26,15,12,6,13,83,82,80,76,2,3,2,9,0.3,0.4
2023-03-02T11:00:00,2266A,126.9785,46.6365,绥化市,人和东街,细颗粒物(PM2.5),58,61,37,41,26,96,67,68,61,18,15,5,3,0.5,0.4
2023-03-02T11:00:00,2267A,126.964,46.6528,绥化市,党政办公中心,颗粒物(PM10),51,52,33,26,6,104,68,70,67,16,11,5,4,0.4,0.3
2023-03-02T11:00:00,2269A,124.1069,50.4097,大兴安岭地区,科技局,,28,14,16,8,15,88,88,85,85,3,5,5,7,0.2,0.2
2023-03-02T11:00:00,2270A,117.396,32.939,蚌埠市,工人疗养院,颗粒物(PM10),67,84,117,46,81,133,84,47,47,22,54,10,13,0.3,0.5
2023-03-02T11:00:00,2271A,117.3605,32.9427,蚌埠市,百货大楼,颗粒物(PM10),69,87,151,39,86,134,84,41,41,18,64,3,6,0.4,0.7
2023-03-02T11:00:00,2273A,117.4185,32.8911,蚌埠市,蚌埠学院,颗粒物(PM10),71,92,127,27,76,129,88,59,59,19,42,7,10,0.4,0.6
2023-03-02T11:00:00,2274A,117.3533,32.9673,蚌埠市,淮上区政府,,,,142,,82,135,74,44,44,22,52,6,8,0.5,0.7
2023-03-02T11:00:00,2275A,117.3145,32.8977,蚌埠市,高新区,颗粒物(PM10),70,90,126,34,78,131,89,60,60,17,54,7,9,0.4,0.7
2023-03-02T11:00:00,2277A,116.8305,32.7727,淮南市,潘集区政府,细颗粒物(PM2.5),102,119,151,76,103,127,86,32,32,20,47,9,10,0.6,0.6
2023-03-02T11:00:00,2278A,117.0067,32.6524,淮南市,师范学院,细颗粒物(PM2.5),84,113,166,62,102,135,86,47,47,11,53,13,14,0.5,1.2
2023-03-02T11:00:00,2279A,116.8569,32.5951,淮南市,谢家集区政府,,,113,131,73,90,144,91,92,66,,39,11,20,0.6,0.7
2023-03-02T11:00:00,2280A,116.8281,32.633,淮南市,八公山区政府,细颗粒物(PM2.5),84,104,128,62,86,141,94,97,58,21,28,11,14,0.5,0.5
2023-03-02T11:00:00,2281A,116.6325,32.6201,淮南市,焦岗湖风景区管理处,细颗粒物(PM2.5),119,129,140,90,97,121,85,48,48,22,71,8,8,0.8,0.8
2023-03-02T11:00:00,2282A,116.8004,33.975,淮北市,监测站,颗粒物(PM10),70,90,101,32,46,132,87,65,65,16,23,6,7,0.5,0.6
2023-03-02T11:00:00,2283A,116.8091,33.9007,淮北市,烈山区政府,颗粒物(PM10),78,106,111,24,49,133,82,67,67,25,32,7,8,0.5,0.6
2023-03-02T11:00:00,2284A,116.7856,33.9477,淮北市,职业技术学院,颗粒物(PM10),73,96,96,27,46,133,84,73,67,22,29,9,9,0.4,0.5
2023-03-02T11:00:00,2285A,117.8177,30.9412,铜陵市,市第四中学,颗粒物(PM10),81,111,129,58,85,127,94,76,71,23,38,11,16,0.4,0.6
2023-03-02T11:00:00,2286A,117.8059,30.9273,铜陵市,市公路局,细颗粒物(PM2.5),78,73,123,57,94,130,90,82,74,20,30,9,12,0.8,0.9
2023-03-02T11:00:00,2287A,117.7807,30.9413,铜陵市,市新民污水厂,颗粒物(PM10),72,94,129,49,77,140,103,75,65,20,44,7,9,0.6,0.8
2023-03-02T11:00:00,2288A,117.7439,30.8792,铜陵市,市第九中学,,,107,132,69,93,116,85,97,45,28,65,,13,0.7,1.1
2023-03-02T11:00:00,2289A,117.846,30.9413,铜陵市,车站新区,颗粒物(PM10),67,84,114,36,82,124,93,71,71,18,36,13,12,0.5,0.7
2023-03-02T11:00:00,2290A,117.8483,30.97,铜陵市,市职教基地,,,,108,,67,132,102,70,69,16,28,,6,0.2,0.4
2023-03-02T11:00:00,2291A,117.0809,30.5177,安庆市,环科院,细颗粒物(PM2.5),190,186,131,143,102,151,93,106,78,36,29,14,11,1.0,0.9
2023-03-02T11:00:00,2292A,117.0331,30.5119,安庆市,马山宾馆,细颗粒物(PM2.5),180,188,133,136,99,146,103,110,86,35,27,14,11,1.1,0.8
2023-03-02T11:00:00,2294A,116.9896,30.6145,安庆市,安庆大学,细颗粒物(PM2.5),137,149,121,104,84,158,124,108,97,27,24,13,12,1.0,0.8
2023-03-02T11:00:00,2295A,118.2903,29.6963,黄山市,延安路89号,细颗粒物(PM2.5),112,93,55,84,51,121,81,20,20,18,18,6,5,0.7,0.6
2023-03-02T11:00:00,2296A,118.327,29.7178,黄山市,黄山东路89号,细颗粒物(PM2.5),109,95,65,82,53,117,87,25,25,16,23,5,5,0.6,0.6
2023-03-02T11:00:00,2297A,118.1371,30.2756,黄山市,黄山区政府5号楼,细颗粒物(PM2.5),112,108,78,84,57,142,99,42,42,21,17,8,7,0.7,0.6
2023-03-02T11:00:00,2298A,118.3093,32.3153,滁州市,老年大学,细颗粒物(PM2.5),78,102,115,57,89,162,91,65,65,35,42,12,11,0.5,0.7
2023-03-02T11:00:00,2299A,118.3244,32.2786,滁州市,人大宾馆,颗粒物(PM10),75,100,125,48,89,153,89,69,69,27,42,9,11,0.4,0.6
2023-03-02T11:00:00,2301A,115.8277,32.8929,阜阳市,市监测站,细颗粒物(PM2.5),134,146,108,102,69,110,67,30,30,41,58,12,8,0.8,0.8
2023-03-02T11:00:00,2303A,115.8554,32.8605,阜阳市,开发区,细颗粒物(PM2.5),128,189,133,97,67,106,64,34,34,,57,15,9,,0.9
2023-03-02T11:00:00,2307A,116.5079,31.737,六安市,监测大楼,细颗粒物(PM2.5),113,110,127,85,99,156,108,79,50,23,35,8,9,0.5,0.6
2023-03-02T11:00:00,2308A,116.4738,31.7643,六安市,皖西学院,细颗粒物(PM2.5),92,111,137,68,96,160,112,48,46,24,41,6,7,0.5,0.6
2023-03-02T11:00:00,2309A,116.4996,31.7905,六安市,朝阳厂,细颗粒物(PM2.5),99,110,120,74,95,165,108,66,44,25,41,8,10,0.6,0.7
2023-03-02T11:00:00,2310A,116.5567,31.7886,六安市,开发区,细颗粒物(PM2.5),104,134,156,78,92,162,99,26,26,25,42,22,11,0.5,0.5
2023-03-02T11:00:00,2311A,115.8072,33.8399,亳州市,污水处理厂,颗粒物(PM10),79,107,116,54,64,120,84,64,55,14,24,10,11,0.6,0.6
2023-03-02T11:00:00,2312A,115.7789,33.8518,亳州市,三国揽胜宫,颗粒物(PM10),81,111,125,51,67,132,86,71,56,19,27,8,10,0.5,0.5
2023-03-02T11:00:00,2314A,117.47,30.6618,池州市,池州学院,细颗粒物(PM2.5),135,126,127,103,100,150,101,91,87,,31,7,13,,0.9
2023-03-02T11:00:00,2316A,118.7581,30.9454,宣城市,鳌峰子站,细颗粒物(PM2.5),89,121,129,66,101,117,106,101,73,17,22,9,6,0.8,0.9
2023-03-02T11:00:00,2317A,118.7385,30.9743,宣城市,敬亭山子站,细颗粒物(PM2.5),80,102,126,59,97,131,84,94,59,18,29,18,15,0.8,0.8
2023-03-02T11:00:00,2318A,118.7173,30.9427,宣城市,开发区子站,细颗粒物(PM2.5),85,99,135,63,115,120,99,92,73,18,24,17,10,0.8,0.8
2023-03-02T11:00:00,2319A,119.0141,25.4325,莆田市,荔城区仓后路,细颗粒物(PM2.5),94,82,55,70,43,140,136,121,115,20,18,9,9,0.8,0.7
2023-03-02T11:00:00,2320A,119.0015,25.4553,莆田市,莆田市监测站,细颗粒物(PM2.5),92,90,56,68,40,153,139,125,115,20,17,10,9,0.7,0.6
2023-03-02T11:00:00,2321A,119.1119,25.4561,莆田市,涵江区六中,细颗粒物(PM2.5),104,80,59,78,56,144,135,137,120,22,16,10,9,0.6,0.6
2023-03-02T11:00:00,2322A,119.1013,25.3215,莆田市,秀屿区政府,细颗粒物(PM2.5),95,79,52,71,51,141,132,130,119,23,17,7,7,0.7,0.6
2023-03-02T11:00:00,2323A,118.981,25.4792,莆田市,东圳水库,,,,,,,,,,,,,,,,
2023-03-02T11:00:00,2324A,117.6211,26.2625,三明市,三钢,,,,54,,39,134,,41,41,13,26,8,11,0.3,0.6
2023-03-02T11:00:00,2325A,117.635,26.2714,三明市,三明二中,,48,47,52,33,35,126,90,51,51,26,32,6,8,0.5,0.7
2023-03-02T11:00:00,2326A,117.6028,26.2378,三明市,三元区政府,细颗粒物(PM2.5),52,46,55,36,44,130,100,58,42,14,24,7,9,0.6,0.7
2023-03-02T11:00:00,2327A,117.7275,26.3108,三明市,洋溪,,,,,,,,,,,,,,,,
2023-03-02T11:00:00,2331A,118.0966,26.6761,南平市,茫荡山,,,,,,,,,,,,,,,,
2023-03-02T11:00:00,2332A,118.1681,26.6369,南平市,南平市监测站,细颗粒物(PM2.5),54,52,45,38,31,118,56,30,30,24,25,4,4,0.7,0.7
2023-03-02T11:00:00,2333A,118.1825,26.6489,南平市,南平铝业有限公司,"颗粒物(PM10),细颗粒物(PM2.5)",52,53,46,36,33,115,72,42,42,18,25,6,7,0.5,0.5
2023-03-02T11:00:00,2334A,118.1756,26.6272,南平市,南平七中,细颗粒物(PM2.5),52,51,43,36,31,123,61,38,38,25,25,4,6,0.6,0.6
2023-03-02T11:00:00,2335A,117.0189,25.1181,龙岩市,龙岩师专,,,,,,,,,,,,,,,,
2023-03-02T11:00:00,2336A,117.0217,25.1033,龙岩市,龙岩市监测站,细颗粒物(PM2.5),58,47,51,41,38,157,108,76,74,14,20,15,11,0.6,0.6
2023-03-02T11:00:00,2337A,117.0258,25.0661,龙岩市,闽西职业技术学院,颗粒物(PM10),59,68,61,40,37,147,98,32,32,14,32,15,20,0.5,0.5
2023-03-02T11:00:00,2338A,117.0196,25.0306,龙岩市,龙岩学院,,,70,49,36,34,153,102,75,52,,18,,7,0.5,0.6
2023-03-02T11:00:00,2339A,119.5001,26.6946,宁德市,金涵水库,,,,,,,,,,,,,,,,
2023-03-02T11:00:00,2341A,119.5388,26.6612,宁德市,宁德市监测站,细颗粒物(PM2.5),115,73,50,87,50,128,106,126,98,22,18,4,3,0.8,0.6
2023-03-02T11:00:00,2342A,117.3102,29.3867,景德镇市,王港中学,细颗粒物(PM2.5),68,77,47,49,31,120,108,42,42,12,10,4,4,0.5,0.4
2023-03-02T11:00:00,2343A,117.2117,29.2933,景德镇市,老干部活动中心,细颗粒物(PM2.5),90,106,75,67,48,106,94,54,52,21,27,8,7,0.8,0.7
2023-03-02T11:00:00,2344A,117.1894,29.2789,景德镇市,兽医站,细颗粒物(PM2.5),75,95,60,55,41,119,105,68,66,24,23,7,7,0.7,0.6
2023-03-02T11:00:00,2345A,117.1547,29.2617,景德镇市,台达陶瓷,细颗粒物(PM2.5),82,90,66,60,43,114,101,77,75,24,26,12,11,1.2,1.1
2023-03-02T11:00:00,2346A,117.2461,29.2956,景德镇市,陶研所,细颗粒物(PM2.5),79,92,68,58,36,110,96,42,31,19,21,8,5,0.9,0.8
2023-03-02T11:00:00,2347A,114.0997,27.5002,萍乡市,武功山,细颗粒物(PM2.5),74,61,41,54,38,117,87,42,33,15,16,9,8,0.7,0.7
2023-03-02T11:00:00,2348A,113.8385,27.6434,萍乡市,中医院,,,117,103,75,78,97,,47,16,22,27,28,24,0.9,1
2023-03-02T11:00:00,2349A,113.8493,27.6253,萍乡市,市政府车库,细颗粒物(PM2.5),135,125,83,103,67,125,125,51,44,15,20,14,18,0.7,0.8
2023-03-02T11:00:00,2350A,113.8676,27.6435,萍乡市,市环保局,细颗粒物(PM2.5),105,121,86,79,63,121,121,59,44,15,20,23,26,0.7,0.8
2023-03-02T11:00:00,2351A,113.866,27.6198,萍乡市,安源区政府,,,,98,,61,109,109,47,34,,23,16,20,0.9,0.8
2023-03-02T11:00:00,2352A,115.0861,27.9317,新余市,北岗,细颗粒物(PM2.5),90,85,60,67,50,95,83,75,75,37,28,33,25,0.8,0.7
2023-03-02T11:00:00,2353A,114.9886,27.8431,新余市,飞宇,细颗粒物(PM2.5),85,106,76,63,47,102,96,82,82,22,27,22,22,0.7,0.7
2023-03-02T11:00:00,2354A,114.9231,27.8246,新余市,第二水厂,细颗粒物(PM2.5),90,110,84,67,50,96,93,83,83,25,31,17,17,0.5,0.5
2023-03-02T11:00:00,2355A,114.9308,27.8036,新余市,市气象局,,,,106,,56,99,90,85,85,,33,15,18,,0.7
2023-03-02T11:00:00,2357A,116.9822,28.1136,鹰潭市,龙虎山,,,,54,72,44,134,123,67,67,4,7,10,8,0.7,0.7
2023-03-02T11:00:00,2358A,117.0564,28.2642,鹰潭市,新监测站,细颗粒物(PM2.5),114,112,59,86,42,131,112,75,48,27,23,19,15,0.7,0.5
2023-03-02T11:00:00,2359A,117.0311,28.2475,鹰潭市,财苑宾馆,细颗粒物(PM2.5),123,120,59,93,42,127,111,70,52,25,23,20,17,0.7,0.5
2023-03-02T11:00:00,2360A,117.0222,28.2264,鹰潭市,体育馆,细颗粒物(PM2.5),108,,57,81,45,131,112,77,77,21,25,,24,0.5,0.4
2023-03-02T11:00:00,2361A,117.0017,28.2131,鹰潭市,三川水表,细颗粒物(PM2.5),134,128,79,102,57,127,106,68,68,26,42,10,16,0.5,0.5
2023-03-02T11:00:00,2362A,114.9017,25.9149,赣州市,通天岩,颗粒物(PM10),62,73,58,38,37,139,117,90,88,16,17,14,13,0.9,0.9
2023-03-02T11:00:00,2363A,114.9367,25.8664,赣州市,地委,细颗粒物(PM2.5),72,83,67,52,41,143,122,95,69,16,20,22,18,1.0,1
2023-03-02T11:00:00,2364A,114.9461,25.8481,赣州市,气象台,细颗粒物(PM2.5),77,74,59,56,41,128,116,88,72,16,21,20,20,0.7,0.7
2023-03-02T11:00:00,2365A,114.9322,25.8333,赣州市,市图书馆,细颗粒物(PM2.5),64,73,63,46,41,139,116,93,87,21,19,22,21,1.2,1.1
2023-03-02T11:00:00,2366A,114.8905,25.8471,赣州市,华坚鞋城,,,83,69,46,39,135,120,99,92,,14,11,11,1.0,0.9
2023-03-02T11:00:00,2367A,114.9754,27.0803,吉安市,红声器材厂,细颗粒物(PM2.5),89,99,72,66,45,125,111,86,86,25,26,16,16,0.8,0.7
2023-03-02T11:00:00,2368A,114.9658,27.0999,吉安市,市森林工业局,细颗粒物(PM2.5),94,93,67,70,49,125,115,91,91,22,24,11,12,0.8,0.8
2023-03-02T11:00:00,2369A,114.99,27.1312,吉安市,市环境监测站,细颗粒物(PM2.5),93,95,66,69,46,127,118,92,92,30,32,15,15,0.7,0.6
2023-03-02T11:00:00,2370A,115.0093,27.0968,吉安市,青原区法院,细颗粒物(PM2.5),95,96,69,71,47,125,112,85,85,27,29,15,15,0.7,0.6
2023-03-02T11:00:00,2371A,114.3408,27.8064,宜春市,槟榔水业,细颗粒物(PM2.5),77,82,67,56,42,96,96,45,45,18,26,8,8,0.6,0.6
2023-03-02T11:00:00,2373A,114.3956,27.7844,宜春市,市石油公司,细颗粒物(PM2.5),75,88,74,55,45,116,113,38,38,26,35,14,8,0.8,0.8
2023-03-02T11:00:00,2374A,114.3703,27.7914,宜春市,市气象局,细颗粒物(PM2.5),74,93,69,54,44,114,114,50,50,27,32,16,12,1.0,1
2023-03-02T11:00:00,2375A,114.4013,27.8074,宜春市,市广电局,细颗粒物(PM2.5),82,82,71,60,48,127,120,48,48,27,38,3,17,1.1,0.9
2023-03-02T11:00:00,2376A,116.2127,28.0814,抚州市,桐源党溪,,,,55,,37,109,,94,,,5,,6,,0.5
2023-03-02T11:00:00,2377A,116.3544,27.9831,抚州市,市站,,,,65,,48,127,94,103,88,25,17,,6,,0.7
2023-03-02T11:00:00,2378A,116.3565,27.963,抚州市,血防站,细颗粒物(PM2.5),82,93,74,60,49,122,99,102,86,21,17,17,10,0.6,0.5
2023-03-02T11:00:00,2379A,116.3564,28.0007,抚州市,采茶剧团,细颗粒物(PM2.5),89,88,66,66,51,127,99,99,85,21,18,15,5,1.0,0.9
2023-03-02T11:00:00,2380A,116.385,27.9647,抚州市,医学分院,,,84,63,56,43,130,110,97,88,,21,18,9,0.7,0.7
2023-03-02T11:00:00,2381A,118.005,28.4572,上饶市,百草园,,,107,65,42,38,69,69,45,45,13,17,12,11,,0.9
2023-03-02T11:00:00,2382A,117.9756,28.4436,上饶市,市监测站,细颗粒物(PM2.5),89,117,65,66,38,122,102,62,62,27,28,22,20,0.7,0.6
2023-03-02T11:00:00,2383A,117.9519,28.4628,上饶市,凤凰光学,细颗粒物(PM2.5),82,106,67,60,37,111,100,50,50,25,36,18,44,0.7,0.7
2023-03-02T11:00:00,2385A,114.17,35.9019,鹤壁市,市监测站,细颗粒物(PM2.5),89,102,99,66,57,109,72,45,45,30,35,16,12,0.6,0.8
2023-03-02T11:00:00,2386A,114.2956,35.7511,鹤壁市,市交警支队,颗粒物(PM10),74,98,107,53,55,108,57,23,14,37,61,28,14,0.5,0.6
2023-03-02T11:00:00,2387A,114.2878,35.7306,鹤壁市,迎宾馆,颗粒物(PM10),75,99,89,44,57,113,58,26,23,32,51,26,13,0.5,0.8
2023-03-02T11:00:00,2389A,113.836,35.311,新乡市,环保西院,细颗粒物(PM2.5),89,99,120,66,64,138,74,55,40,35,37,19,13,0.6,0.7
2023-03-02T11:00:00,2390A,113.884,35.272,新乡市,开发区,细颗粒物(PM2.5),92,108,119,68,66,143,75,48,48,39,37,21,15,0.8,0.8
