timepoint,stationcode,longitude,latitude,area,positionname,primarypollutant,aqi,pm10,pm10_24h,pm2_5,pm2_5_24h,o3,o3_24h,o3_8h,o3_8h_24h,no2,no2_24h,so2,so2_24h,co,co_24h
2023-03-02T15:00:00,1001A,116.3621,39.8784,北京市,万寿西宫,颗粒物(PM10),67,84,38,23,12,80,76,50,50,15,33,3,2,0.3,0.3
2023-03-02T15:00:00,1002A,116.2202,40.2915,北京市,定陵,颗粒物(PM10),52,54,16,15,5,81,65,62,51,23,9,1,3,0.3,0.2
2023-03-02T15:00:00,1003A,116.4174,39.9289,北京市,东四,颗粒物(PM10),63,76,38,19,10,89,84,52,52,16,30,2,3,0.3,0.3
2023-03-02T15:00:00,1004A,116.4072,39.8863,北京市,天坛,颗粒物(PM10),63,75,34,19,10,80,80,50,50,17,32,2,3,0.2,0.3
2023-03-02T15:00:00,1005A,116.462,39.9365,北京市,农展馆,颗粒物(PM10),65,79,36,23,11,77,72,43,43,19,36,3,2,0.2,0.3
2023-03-02T15:00:00,1006A,116.3392,39.9295,北京市,官园,颗粒物(PM10),66,81,36,23,10,92,91,53,53,24,34,4,3,0.1,0.2
2023-03-02T15:00:00,1007A,116.2878,39.9611,北京市,海淀万柳,颗粒物(PM10),67,83,44,21,10,64,63,33,33,23,43,2,2,0.3,0.3
2023-03-02T15:00:00,1008A,116.6636,40.135,北京市,顺义新城,颗粒物(PM10),58,66,35,19,9,87,87,45,45,18,28,1,3,0.3,0.3
2023-03-02T15:00:00,1009A,116.6275,40.3275,北京市,怀柔镇,颗粒物(PM10),60,70,24,18,7,73,58,49,46,32,18,2,2,0.3,0.2
2023-03-02T15:00:00,1010A,116.2296,40.217,北京市,昌平镇,颗粒物(PM10),55,60,21,18,7,83,70,63,44,20,16,2,3,0.2,0
2023-03-02T15:00:00,1011A,116.3966,39.9821,北京市,奥体中心,颗粒物(PM10),64,77,35,26,12,73,71,41,41,18,34,3,2,0.3,0.3
2023-03-02T15:00:00,1012A,116.184,39.9136,北京市,古城,颗粒物(PM10),70,89,44,20,10,88,84,52,52,9,35,2,2,0.4,0.4
2023-03-02T15:00:00,1015A,117.1444,39.1661,天津市,勤俭道,颗粒物(PM10),61,71,54,23,20,88,88,63,63,17,42,7,6,0.4,0.5
2023-03-02T15:00:00,1017A,117.237,39.1082,天津市,大直沽八号路,颗粒物(PM10),59,68,47,30,21,84,82,59,59,17,39,7,6,0.5,0.6
2023-03-02T15:00:00,1018A,117.202,39.0927,天津市,前进道,颗粒物(PM10),55,59,44,21,17,87,86,61,61,20,45,6,4,0.6,0.6
2023-03-02T15:00:00,1019A,117.1837,39.2133,天津市,淮河道,颗粒物(PM10),67,84,66,23,22,92,92,63,63,18,48,7,6,0.4,0.5
2023-03-02T15:00:00,1021A,117.307,39.0877,天津市,跃进路,颗粒物(PM10),58,65,65,22,21,86,86,56,56,17,49,9,8,0.4,0.5
2023-03-02T15:00:00,1023A,117.707,39.0343,天津市,第四大街,颗粒物(PM10),58,65,52,18,18,79,79,42,42,17,54,7,8,0.3,0.5
2023-03-02T15:00:00,1024A,117.457,38.8394,天津市,永明路,,49,49,44,16,20,84,84,47,47,19,49,8,8,0.5,0.7
2023-03-02T15:00:00,1026A,117.764,39.1587,天津市,汉北路,颗粒物(PM10),60,69,49,20,17,84,84,51,51,23,51,10,9,0.7,0.7
2023-03-02T15:00:00,1027A,117.157,38.9194,天津市,团泊洼,颗粒物(PM10),53,56,52,20,25,85,85,52,52,18,49,6,6,0.6,0.7
2023-03-02T15:00:00,1029A,114.4422,38.0444,石家庄市,职工医院,颗粒物(PM10),72,93,81,30,29,99,72,49,47,32,36,11,8,0.4,0.4
2023-03-02T15:00:00,1030A,114.6063,38.0266,石家庄市,高新区,颗粒物(PM10),61,72,65,23,27,99,72,57,50,31,37,10,6,0.5,0.4
2023-03-02T15:00:00,1031A,114.4898,38.1328,石家庄市,西北水源,颗粒物(PM10),70,90,75,30,28,98,70,59,47,34,33,8,4,0.6,0.4
2023-03-02T15:00:00,1032A,114.4586,38.0058,石家庄市,西南高教,颗粒物(PM10),78,105,89,34,24,99,71,45,45,32,45,12,9,0.5,0.5
2023-03-02T15:00:00,1033A,114.5331,38.0178,石家庄市,世纪公园,颗粒物(PM10),60,70,59,17,30,95,68,46,46,31,36,10,6,0.6,0.4
2023-03-02T15:00:00,1034A,114.509,38.0457,石家庄市,人民会堂,颗粒物(PM10),67,84,65,29,18,97,74,59,54,30,31,11,6,0.5,0.4
2023-03-02T15:00:00,1035A,114.3524,37.8911,石家庄市,封龙山,颗粒物(PM10),55,59,57,17,27,88,68,71,65,35,19,12,8,0.5,0.3
2023-03-02T15:00:00,1037A,118.131,39.6363,唐山市,雷达站,,46,46,48,17,16,93,93,57,57,16,38,3,5,0.3,0.5
2023-03-02T15:00:00,1038A,118.1725,39.6334,唐山市,物资局,,50,50,48,24,28,84,83,58,52,25,49,2,6,0.5,0.6
2023-03-02T15:00:00,1040A,118.1705,39.6506,唐山市,十二中,颗粒物(PM10),51,52,51,15,28,91,91,55,55,20,53,3,6,0.3,0.5
2023-03-02T15:00:00,1041A,118.1869,39.622,唐山市,小山,,50,50,46,7,15,90,90,59,59,22,43,4,6,0.4,0.5
2023-03-02T15:00:00,1042A,119.5134,39.8207,秦皇岛市,北戴河环保局,颗粒物(PM10),64,78,57,12,26,86,70,54,54,23,26,6,12,0.6,0.8
2023-03-02T15:00:00,1043A,119.7493,40.0116,秦皇岛市,第一关,颗粒物(PM10),85,120,70,21,24,72,67,49,49,22,50,4,5,0.6,0.6
2023-03-02T15:00:00,1044A,119.5897,39.9499,秦皇岛市,监测站,颗粒物(PM10),65,79,70,11,28,70,70,48,48,27,45,7,8,0.4,0.8
2023-03-02T15:00:00,1046A,119.5251,39.9041,秦皇岛市,建设大厦,颗粒物(PM10),76,102,66,10,22,82,74,52,52,24,44,7,10,0.4,0.8
2023-03-02T15:00:00,1048A,114.5302,36.6116,邯郸市,东污水处理厂,,,82,77,59,25,119,119,70,70,,37,17,13,0.6,0.5
2023-03-02T15:00:00,1049A,114.4918,36.5713,邯郸市,矿院,细颗粒物(PM2.5),79,104,86,58,33,116,116,60,60,17,33,14,12,0.6,0.4
2023-03-02T15:00:00,1050A,114.484,36.6133,邯郸市,丛台公园,细颗粒物(PM2.5),73,80,66,53,23,115,115,59,59,17,31,14,12,0.8,0.7
2023-03-02T15:00:00,1051A,115.493,38.8632,保定市,游泳馆,颗粒物(PM10),56,62,63,29,22,98,81,58,58,20,39,8,4,0.5,0.5
2023-03-02T15:00:00,1052A,115.5213,38.8959,保定市,华电二区,颗粒物(PM10),73,96,58,23,20,90,75,59,59,21,30,10,8,0.6,0.5
2023-03-02T15:00:00,1053A,115.4713,38.9108,保定市,接待中心,颗粒物(PM10),68,85,63,17,19,87,66,53,53,26,36,11,7,0.4,0.3
2023-03-02T15:00:00,1054A,115.4612,38.8416,保定市,地表水厂,颗粒物(PM10),76,102,85,25,27,90,70,49,49,30,47,12,9,0.4,0.3
2023-03-02T15:00:00,1056A,115.5086,38.8639,保定市,监测站,颗粒物(PM10),53,55,75,16,25,97,81,54,54,25,48,12,8,0.3,0.4
2023-03-02T15:00:00,1057A,114.8883,40.8336,张家口市,人民公园,颗粒物(PM10),52,53,25,14,7,92,83,67,67,23,13,8,6,0.6,0.4
2023-03-02T15:00:00,1059A,114.8687,40.8042,张家口市,五金库,颗粒物(PM10),53,56,19,34,13,85,80,62,62,27,16,8,4,0.2,0.2
2023-03-02T15:00:00,1060A,114.8902,40.762,张家口市,世纪豪园,,38,38,21,8,10,87,87,62,62,20,12,9,11,0.7,0.6
2023-03-02T15:00:00,1061A,114.8916,40.8661,张家口市,北泵房,,43,43,22,18,11,96,90,72,72,20,13,12,11,0.5,0.3
2023-03-02T15:00:00,1062A,117.9531,40.9081,承德市,铁路,,24,15,41,9,16,82,76,47,47,15,21,10,10,0.4,0.5
2023-03-02T15:00:00,1063A,117.9392,40.9763,承德市,中国银行,,36,36,49,5,11,82,80,52,52,13,23,16,8,0.5,0.4
2023-03-02T15:00:00,1064A,117.9503,40.928,承德市,开发区,,29,29,50,6,19,89,82,54,54,13,28,10,9,0.4,0.5
2023-03-02T15:00:00,1065A,117.8051,40.9655,承德市,文化中心,,43,43,58,6,15,80,76,53,53,12,28,26,12,0.4,0.6
2023-03-02T15:00:00,1066A,117.9268,41.0026,承德市,离宫,,29,29,38,11,12,86,86,57,57,8,15,14,11,0.3,0.4
2023-03-02T15:00:00,1067A,116.6708,39.5111,廊坊市,药材公司,颗粒物(PM10),62,73,48,19,14,92,92,59,59,18,40,8,3,0.6,0.5
2023-03-02T15:00:00,1068A,116.7214,39.5589,廊坊市,开发区,颗粒物(PM10),61,72,47,18,14,91,91,60,60,23,39,15,9,0.6,0.5
2023-03-02T15:00:00,1070A,116.7244,39.5269,廊坊市,北华航天学院,颗粒物(PM10),60,70,52,11,15,88,88,57,57,23,42,10,4,0.5,0.4
2023-03-02T15:00:00,1071A,116.8842,38.2991,沧州市,沧县城建局,颗粒物(PM10),81,112,63,11,22,102,102,73,73,19,42,12,10,0.5,0.4
2023-03-02T15:00:00,1072A,116.8584,38.3254,沧州市,电视转播站,颗粒物(PM10),65,80,49,18,14,94,94,67,67,27,44,13,8,0.6,0.7
2023-03-02T15:00:00,1073A,116.8709,38.3228,沧州市,市环保局,颗粒物(PM10),64,78,52,12,19,96,96,67,67,29,46,10,6,0.3,0.2
2023-03-02T15:00:00,1074A,115.6838,37.7541,衡水市,电机北厂,颗粒物(PM10),91,132,75,39,20,111,111,66,66,18,25,9,5,0.6,0.5
2023-03-02T15:00:00,1075A,115.6303,37.7316,衡水市,市监测站,颗粒物(PM10),76,102,62,50,18,111,111,66,66,18,25,10,7,0.5,0.4
2023-03-02T15:00:00,1077A,114.4704,37.0886,邢台市,达活泉,,,122,84,66,30,95,95,49,49,26,32,,12,1.1,0.9
2023-03-02T15:00:00,1078A,114.5062,37.0349,邢台市,邢师高专,颗粒物(PM10),76,101,80,45,26,97,97,50,50,18,35,15,10,0.9,0.7
2023-03-02T15:00:00,1079A,114.5237,37.0851,邢台市,路桥公司,颗粒物(PM10),75,99,78,49,22,98,98,50,50,21,34,14,9,0.7,0.6
2023-03-02T15:00:00,1080A,114.4725,37.0719,邢台市,市环保局,颗粒物(PM10),85,119,90,53,26,98,97,51,51,23,31,17,13,1.0,0.9
2023-03-02T15:00:00,1081A,112.522,37.8873,太原市,尖草坪,颗粒物(PM10),67,83,78,30,22,89,89,41,41,26,52,12,15,0.4,0.7
2023-03-02T15:00:00,1083A,112.434,38.0108,太原市,上兰,,,,,,,,,,,,,,,,
2023-03-02T15:00:00,1084A,112.469,37.7124,太原市,晋源,,,,63,,24,98,92,43,43,,49,12,9,,0.8
2023-03-02T15:00:00,1085A,112.5583,37.7394,太原市,小店,颗粒物(PM10),66,81,91,33,30,95,95,42,42,25,56,10,9,0.4,0.5
2023-03-02T15:00:00,1086A,112.5369,37.8692,太原市,桃园,颗粒物(PM10),66,81,69,36,24,88,88,42,42,24,53,11,14,0.5,0.6
2023-03-02T15:00:00,1087A,112.57,37.8195,太原市,坞城,颗粒物(PM10),68,86,73,38,26,86,86,40,40,32,54,14,14,0.4,0.6
2023-03-02T15:00:00,1088A,112.549,37.9854,太原市,南寨,,,86,71,38,19,92,74,35,35,,48,21,9,1.3,0.9
2023-03-02T15:00:00,1090A,111.6507,40.7517,呼和浩特市,呼市一监,,,75,76,27,38,96,73,44,44,19,41,,12,0.6,0.8
2023-03-02T15:00:00,1091A,111.6572,40.8033,呼和浩特市,小召,颗粒物(PM10),70,90,59,33,31,89,68,50,50,30,50,26,18,0.6,0.7
2023-03-02T15:00:00,1094A,111.7516,40.8369,呼和浩特市,如意水处理厂,,,66,53,29,22,95,72,47,47,,43,26,14,0.6,0.5
2023-03-02T15:00:00,1095A,111.7276,40.8062,呼和浩特市,二十九中,颗粒物(PM10),60,70,60,30,27,90,73,48,48,23,46,24,12,0.6,0.6
2023-03-02T15:00:00,1096A,111.5512,40.7866,呼和浩特市,工大金川校区,,,,73,,26,91,76,46,46,11,38,14,14,0.7,0.8
2023-03-02T15:00:00,1097A,111.717,40.7612,呼和浩特市,化肥厂生活区,颗粒物(PM10),59,67,82,28,33,92,76,46,46,19,39,22,15,0.4,0.7
2023-03-02T15:00:00,1098A,123.6836,41.9339,沈阳市,森林路,,,,,,,,,,,,,,,,
2023-03-02T15:00:00,1099A,123.505,41.7406,沈阳市,浑南东路,颗粒物(PM10),61,71,57,18,18,80,79,68,60,17,24,13,13,0.8,0.6
2023-03-02T15:00:00,1100A,123.4231,41.6989,沈阳市,新秀街,颗粒物(PM10),75,100,72,16,16,83,78,68,62,13,26,14,14,0.8,0.5
2023-03-02T15:00:00,1102A,123.5903,41.8411,沈阳市,东陵路,颗粒物(PM10),82,114,66,21,18,81,77,56,56,15,24,13,11,0.7,0.5
2023-03-02T15:00:00,1103A,123.4264,41.8467,沈阳市,陵东街,颗粒物(PM10),59,68,60,16,18,88,80,70,65,17,22,13,12,0.6,0.6
2023-03-02T15:00:00,1104A,123.4114,41.7653,沈阳市,文化路,细颗粒物(PM2.5),79,97,71,58,24,82,79,62,62,15,26,10,15,0.8,0.6
2023-03-02T15:00:00,1105A,123.4678,41.7867,沈阳市,小河沿,颗粒物(PM10),67,84,63,21,18,81,78,66,62,17,26,12,15,0.8,0.7
2023-03-02T15:00:00,1106A,123.4017,41.7972,沈阳市,太原街,颗粒物(PM10),64,77,73,30,25,73,73,56,56,19,29,15,15,0.7,0.5
2023-03-02T15:00:00,1108A,123.3783,41.9228,沈阳市,京沈街,颗粒物(PM10),127,204,86,24,23,83,79,62,62,15,23,10,11,0.6,0.5
2023-03-02T15:00:00,1109A,121.612,38.9741,大连市,甘井子,,46,46,45,12,14,92,92,71,68,12,22,5,10,0.4,0.3
2023-03-02T15:00:00,1110A,121.565,38.9511,大连市,周水子,颗粒物(PM10),53,56,54,11,13,89,89,67,67,17,31,3,7,0.5,0.5
2023-03-02T15:00:00,1111A,121.5637,38.8845,大连市,星海三站,,45,45,40,16,13,84,84,70,62,17,25,9,11,0.6,0.6
2023-03-02T15:00:00,1112A,121.6302,38.9117,大连市,青泥洼桥,,,,38,,13,91,91,70,70,4,19,8,11,0.5,0.5
2023-03-02T15:00:00,1113A,121.6251,38.8638,大连市,傅家庄,颗粒物(PM10),59,67,56,28,13,91,91,72,72,11,18,9,14,0.5,0.4
2023-03-02T15:00:00,1114A,121.5213,38.8661,大连市,七贤岭,,37,37,34,16,10,95,91,70,69,14,16,8,9,0.6,0.6
2023-03-02T15:00:00,1115A,121.2529,38.8061,大连市,旅顺,,47,47,37,26,16,89,89,71,69,13,14,13,13,0.6,0.6
2023-03-02T15:00:00,1116A,121.7485,39.1311,大连市,金州,,,44,42,12,17,84,82,64,64,11,19,,11,,0.6
2023-03-02T15:00:00,1117A,121.7811,39.0496,大连市,开发区,,42,42,47,10,12,82,82,67,61,21,30,7,6,0.6,0.7
2023-03-02T15:00:00,1118A,121.9762,39.0631,大连市,双D港,,46,46,41,14,13,90,84,76,76,18,16,9,11,0.7,0.6
2023-03-02T15:00:00,1119A,125.3325,43.9166,长春市,食品厂,颗粒物(PM10),61,72,61,10,21,76,69,60,60,19,30,5,6,0.3,0.4
2023-03-02T15:00:00,1120A,125.2863,43.9027,长春市,客车厂,颗粒物(PM10),64,78,59,10,21,74,67,58,58,17,31,6,6,0.3,0.5
2023-03-02T15:00:00,1121A,125.2841,43.8463,长春市,邮电学院,颗粒物(PM10),52,54,57,11,24,83,79,68,68,14,31,10,11,0.4,0.5
2023-03-02T15:00:00,1122A,125.3716,43.8772,长春市,劳动公园,颗粒物(PM10),51,51,50,11,19,82,82,68,68,11,30,8,12,0.4,0.5
2023-03-02T15:00:00,1123A,125.3297,43.8805,长春市,园林处,颗粒物(PM10),64,77,56,14,21,78,72,62,62,16,30,5,5,0.3,0.4
2023-03-02T15:00:00,1124A,125.4605,43.79,长春市,净月潭,,,38,42,,13,81,81,67,67,3,14,3,4,0.3,0.4
2023-03-02T15:00:00,1125A,125.7194,43.515,长春市,甩湾子,,,,,,,,,,,,,,,,
2023-03-02T15:00:00,1126A,125.3863,43.8447,长春市,经开区环卫处,,40,40,48,11,20,79,79,66,66,10,28,6,10,0.4,0.5
2023-03-02T15:00:00,1127A,125.245,43.7783,长春市,高新区管委会,,43,43,53,12,28,82,81,67,67,6,28,6,7,0.3,0.4
2023-03-02T15:00:00,1128A,125.1761,43.8325,长春市,岱山公园,颗粒物(PM10),60,69,57,14,22,81,72,66,66,15,30,5,5,0.5,0.6
2023-03-02T15:00:00,1129A,126.5422,45.755,哈尔滨市,岭北,,27,25,34,10,29,91,85,76,76,11,17,10,18,0.5,0.6
2023-03-02T15:00:00,1130A,126.561,45.8167,哈尔滨市,松北商大,,38,38,37,14,22,84,80,67,67,12,23,5,6,0.4,0.5
2023-03-02T15:00:00,1131A,126.979,45.5419,哈尔滨市,阿城会宁,,41,41,40,14,31,88,85,76,76,12,21,17,17,0.4,0.6
2023-03-02T15:00:00,1132A,126.599,45.7222,哈尔滨市,南岗学府路,,30,30,41,15,25,88,82,70,70,10,23,9,16,0.5,0.5
2023-03-02T15:00:00,1133A,126.689,45.7733,哈尔滨市,太平宏伟公园,,41,41,41,10,26,95,89,76,75,8,28,5,13,0.5,0.5
2023-03-02T15:00:00,1134A,126.635,45.7667,哈尔滨市,道外承德广场,,36,36,36,10,23,83,75,69,66,32,36,6,12,0.3,0.6
2023-03-02T15:00:00,1135A,126.685,45.7319,哈尔滨市,香坊红旗大街,,43,43,39,14,31,86,75,70,67,21,29,1,7,0.5,0.6
2023-03-02T15:00:00,1136A,126.6411,45.7258,哈尔滨市,动力和平路,,25,19,35,11,23,86,79,66,66,13,27,10,15,0.5,0.6
2023-03-02T15:00:00,1137A,126.593,45.7478,哈尔滨市,道里建国路,,,,32,,28,85,79,69,69,17,27,12,8,,0.7
2023-03-02T15:00:00,1138A,126.615,45.61,哈尔滨市,平房东轻厂,,43,43,36,13,26,90,85,74,74,10,24,8,9,0.6,0.9
2023-03-02T15:00:00,1139A,126.595,45.9855,哈尔滨市,呼兰师专,,,38,40,11,28,85,80,66,66,,21,,12,0.3,0.5
2023-03-02T15:00:00,1140A,126.6206,45.6842,哈尔滨市,省农科院,,34,34,41,17,26,94,87,74,74,8,29,7,13,0.3,0.6
2023-03-02T15:00:00,1141A,121.4,31.238,上海市,普陀,颗粒物(PM10),54,57,90,24,61,148,102,95,82,24,40,7,6,0.9,0.9
2023-03-02T15:00:00,1142A,121.478,31.2036,上海市,十五厂,,50,50,54,28,56,143,100,79,79,22,33,8,7,0.7,0.7
2023-03-02T15:00:00,1143A,121.467,31.3008,上海市,虹口,颗粒物(PM10),56,61,82,35,63,151,105,84,84,15,30,7,6,0.7,0.7
2023-03-02T15:00:00,1144A,121.412,31.1654,上海市,徐汇上师大,,49,49,57,33,58,145,96,94,80,29,36,12,10,0.4,0.6
2023-03-02T15:00:00,1145A,121.536,31.2659,上海市,杨浦四漂,颗粒物(PM10),54,58,85,34,62,144,107,85,85,20,35,8,8,0.6,0.7
2023-03-02T15:00:00,1147A,121.425,31.2261,上海市,静安监测站,颗粒物(PM10),60,69,90,27,59,148,104,86,85,30,40,13,10,0.8,0.7
2023-03-02T15:00:00,1148A,121.703,31.1907,上海市,浦东川沙,颗粒物(PM10),57,63,59,34,60,126,101,82,82,16,31,6,6,0.5,0.5
2023-03-02T15:00:00,1149A,121.533,31.2284,上海市,浦东新区监测站,,,,96,,66,125,90,69,69,22,38,,7,0.8,1
2023-03-02T15:00:00,1150A,121.577,31.2071,上海市,浦东张江,颗粒物(PM10),53,56,58,22,55,148,106,86,86,17,32,6,6,0.7,0.8
2023-03-02T15:00:00,1151A,118.8086,32.1065,南京市,迈皋桥,颗粒物(PM10),68,86,122,31,69,165,116,89,89,19,32,8,8,0.4,0.5
2023-03-02T15:00:00,1152A,118.7538,32.0551,南京市,草场门,颗粒物(PM10),71,91,115,27,60,149,93,88,86,30,33,7,7,0.3,0.5
2023-03-02T15:00:00,1153A,118.7794,32.0745,南京市,山西路,颗粒物(PM10),68,85,121,24,68,152,104,103,89,22,27,5,6,0.4,0.5
2023-03-02T15:00:00,1154A,118.7752,32.0023,南京市,中华门,颗粒物(PM10),69,88,119,27,67,152,111,90,90,18,36,8,10,0.6,0.8
2023-03-02T15:00:00,1155A,118.8109,32.0309,南京市,瑞金路,颗粒物(PM10),59,68,99,29,62,159,109,90,90,17,29,9,10,0.5,0.6
2023-03-02T15:00:00,1156A,118.7997,32.0754,南京市,玄武湖,颗粒物(PM10),59,68,117,37,75,146,96,83,79,26,38,3,4,0.3,0.4
2023-03-02T15:00:00,1157A,118.6414,32.0931,南京市,浦口,颗粒物(PM10),67,84,130,27,71,162,104,84,84,28,43,6,7,0.4,0.6
2023-03-02T15:00:00,1158A,118.7356,31.9996,南京市,奥体中心,颗粒物(PM10),66,82,124,29,69,147,115,92,92,23,36,6,7,0.4,0.6
2023-03-02T15:00:00,1159A,118.9125,32.1028,南京市,仙林大学城,颗粒物(PM10),64,78,112,31,68,158,108,88,88,26,32,8,8,0.4,0.6
2023-03-02T15:00:00,1160A,120.561,31.2472,苏州市,上方山,颗粒物(PM10),64,78,102,43,79,127,98,71,71,21,32,8,7,0.5,0.7
2023-03-02T15:00:00,1162A,120.591,31.3019,苏州市,彩香,颗粒物(PM10),51,52,106,30,76,156,108,96,78,27,38,8,7,0.5,0.7
2023-03-02T15:00:00,1163A,120.596,31.3264,苏州市,轧钢厂,颗粒物(PM10),57,63,113,29,77,149,99,71,70,21,38,7,7,0.6,0.8
2023-03-02T15:00:00,1164A,120.613,31.2703,苏州市,吴中区,颗粒物(PM10),52,54,102,30,75,146,100,97,78,26,36,8,7,0.6,0.7
2023-03-02T15:00:00,1165A,120.543,31.2994,苏州市,苏州新区,,48,48,103,27,81,149,116,78,78,16,36,7,7,0.7,0.9
2023-03-02T15:00:00,1166A,120.669,31.3097,苏州市,苏州工业园区,颗粒物(PM10),54,57,104,33,80,144,105,95,78,18,33,9,9,0.6,0.6
2023-03-02T15:00:00,1167A,120.641,31.3708,苏州市,相城区,颗粒物(PM10),57,63,111,29,79,158,103,85,77,17,28,7,8,0.6,0.8
2023-03-02T15:00:00,1168A,120.9098,31.9663,南通市,狼山街道,,47,47,107,18,74,163,109,94,94,12,20,6,6,0.4,0.6
2023-03-02T15:00:00,1169A,120.86,32.0005,南通市,虹桥,颗粒物(PM10),51,51,97,18,70,157,111,105,92,14,24,6,7,0.2,0.5
2023-03-02T15:00:00,1170A,120.87,32.02,南通市,城中,,46,46,111,15,74,151,102,96,85,12,22,6,7,0.3,0.5
2023-03-02T15:00:00,1171A,120.94,31.93,南通市,星湖花园,,48,48,106,17,70,156,105,89,89,13,22,6,6,0.4,0.7
2023-03-02T15:00:00,1172A,120.81,32.0417,南通市,紫琅学院,颗粒物(PM10),56,62,132,14,81,156,108,90,90,10,27,7,7,0.4,0.8
2023-03-02T15:00:00,1173A,119.176,34.5885,连云港市,市环境监测站,颗粒物(PM10),52,53,73,17,26,116,85,78,66,22,28,12,10,0.3,0.4
2023-03-02T15:00:00,1177A,117.179,34.2761,徐州市,黄河新村,颗粒物(PM10),63,75,101,32,41,129,116,81,81,14,30,10,13,0.6,0.7
2023-03-02T15:00:00,1178A,117.1918,34.2384,徐州市,淮塔,颗粒物(PM10),67,83,104,29,41,136,123,84,84,22,36,8,12,0.5,0.7
2023-03-02T15:00:00,1180A,117.256,34.2153,徐州市,新城区,颗粒物(PM10),62,73,97,28,43,132,119,82,82,19,31,10,13,0.7,0.9
2023-03-02T15:00:00,1181A,117.244,34.2911,徐州市,桃园路,颗粒物(PM10),64,78,106,31,38,121,110,80,80,10,32,7,10,0.7,0.8
2023-03-02T15:00:00,1182A,117.2933,34.2778,徐州市,农科院,颗粒物(PM10),63,75,105,22,36,127,119,82,82,6,33,8,11,0.6,0.7
2023-03-02T15:00:00,1186A,119.389,32.3761,扬州市,邗江监测站,颗粒物(PM10),60,70,124,26,82,182,112,108,82,22,32,5,8,0.2,0.5
2023-03-02T15:00:00,1188A,120.269,31.4867,无锡市,雪浪,颗粒物(PM10),59,68,101,24,62,154,103,100,76,20,31,9,13,0.7,1.3
2023-03-02T15:00:00,1189A,120.275,31.6219,无锡市,黄巷,颗粒物(PM10),56,62,114,22,68,154,120,82,82,22,54,9,12,0.9,1.4
2023-03-02T15:00:00,1190A,120.294,31.56,无锡市,曹张,颗粒物(PM10),60,70,118,27,62,150,106,76,76,20,40,7,11,0.7,1.4
2023-03-02T15:00:00,1191A,120.242,31.5031,无锡市,漆塘,颗粒物(PM10),69,88,103,31,63,150,105,94,78,28,33,12,14,1.0,1.2
2023-03-02T15:00:00,1192A,120.3489,31.5863,无锡市,东亭,颗粒物(PM10),62,73,113,22,71,142,104,88,70,21,44,10,13,0.4,1.1
2023-03-02T15:00:00,1193A,120.354,31.5475,无锡市,旺庄,颗粒物(PM10),56,61,102,27,67,151,102,90,73,21,37,7,12,0.7,1.3
2023-03-02T15:00:00,1194A,120.245,31.5631,无锡市,荣巷,颗粒物(PM10),63,75,100,27,61,155,104,87,78,24,32,12,17,0.7,1.3
2023-03-02T15:00:00,1195A,120.299,31.6817,无锡市,堰桥,颗粒物(PM10),62,73,116,19,69,166,118,88,83,20,36,13,13,0.8,1.2
2023-03-02T15:00:00,1196A,119.9633,31.762,常州市,市监测站,,,,115,,83,163,121,86,86,16,31,6,8,,0.7
2023-03-02T15:00:00,1200A,119.9468,31.7069,常州市,武进监测站,细颗粒物(PM2.5),54,51,106,38,74,159,117,94,80,16,31,8,10,0.5,0.8
2023-03-02T15:00:00,1201A,119.9255,31.9087,常州市,安家,,48,47,115,33,87,165,122,89,89,18,35,8,10,0.5,0.8
2023-03-02T15:00:00,1203A,119.6707,32.1875,镇江市,新区办事处,颗粒物(PM10),56,62,116,25,77,162,114,94,84,29,36,6,5,0.6,0.9
2023-03-02T15:00:00,1204A,119.4974,32.1968,镇江市,职教中心,,,70,125,23,83,185,118,88,80,18,37,,9,,0.6
2023-03-02T15:00:00,1205A,119.4303,32.1328,镇江市,丹徒区监测站,颗粒物(PM10),60,70,119,29,87,173,111,98,75,19,29,5,7,0.5,0.7
2023-03-02T15:00:00,1206A,119.905,32.4878,泰州市,公园路,颗粒物(PM10),57,63,117,27,78,177,116,99,83,16,21,8,10,0.6,0.9
2023-03-02T15:00:00,1207A,119.9189,32.4625,泰州市,莲花,颗粒物(PM10),58,66,116,24,76,174,110,105,83,16,24,9,10,0.6,0.9
2023-03-02T15:00:00,1209A,119.888,32.4639,泰州市,留学生创业园,,48,48,155,20,68,167,109,102,79,19,28,10,11,0.4,0.7
2023-03-02T15:00:00,1210A,119.036,33.5981,淮安市,钵池山,颗粒物(PM10),52,53,88,20,45,128,103,76,76,16,30,7,8,0.5,0.7
2023-03-02T15:00:00,1211A,119.007,33.575,淮安市,北京南路,颗粒物(PM10),63,75,88,29,54,126,92,76,71,27,30,13,10,0.8,0.7
2023-03-02T15:00:00,1212A,118.989,33.6067,淮安市,市监测站,颗粒物(PM10),62,73,90,29,43,135,108,78,78,23,31,9,9,0.6,0.8
2023-03-02T15:00:00,1213A,119.135,33.5039,淮安市,楚州区监测站,颗粒物(PM10),56,61,95,26,49,123,101,74,73,18,30,8,9,0.5,0.6
2023-03-02T15:00:00,1214A,119.0186,33.6297,淮安市,淮阴区监测站,颗粒物(PM10),61,71,107,20,46,127,99,72,72,21,37,10,11,0.5,0.7
2023-03-02T15:00:00,1215A,120.118,33.4022,盐城市,盐城电厂,,39,39,100,19,44,160,109,82,82,12,28,8,9,0.4,0.6
2023-03-02T15:00:00,1216A,120.156,33.3942,盐城市,市监测站,,33,30,92,18,47,152,105,80,80,14,31,7,8,0.4,0.5
2023-03-02T15:00:00,1218A,120.2144,33.38,盐城市,开发区管委会,,42,42,111,10,54,162,106,81,81,12,26,4,5,0.4,0.7
2023-03-02T15:00:00,1220A,118.293,33.9528,宿迁市,宿迁学院,颗粒物(PM10),64,77,80,23,46,132,110,78,78,13,36,9,8,0.4,0.5
2023-03-02T15:00:00,1221A,118.2442,33.9592,宿迁市,宿迁中学,,,76,80,,45,128,108,76,76,16,37,,5,0.4,0.6
2023-03-02T15:00:00,1223A,120.2072,30.2111,杭州市,滨江,细颗粒物(PM2.5),65,72,94,47,62,129,129,105,97,25,40,10,9,0.6,0.8
2023-03-02T15:00:00,1224A,120.0633,30.2747,杭州市,西溪,细颗粒物(PM2.5),75,90,114,55,64,121,121,103,80,33,34,8,7,1.0,0.9
2023-03-02T15:00:00,1226A,120.3461,30.3153,杭州市,下沙,细颗粒物(PM2.5),73,89,118,53,80,114,114,96,85,25,54,8,9,0.6,0.9
2023-03-02T15:00:00,1227A,120.1269,30.2456,杭州市,卧龙桥,,,80,86,53,61,113,113,108,76,28,36,8,8,,1
2023-03-02T15:00:00,1228A,120.1903,30.2692,杭州市,浙江农大,细颗粒物(PM2.5),65,71,105,47,77,133,133,100,100,31,44,6,7,0.5,0.7
2023-03-02T15:00:00,1230A,120.1197,30.3119,杭州市,和睦小学,细颗粒物(PM2.5),82,89,121,60,84,114,114,92,82,39,48,8,7,0.5,0.7
2023-03-02T15:00:00,1231A,120.3019,30.4183,杭州市,临平镇,颗粒物(PM10),63,75,109,38,75,130,130,115,102,17,35,10,10,0.5,0.8
2023-03-02T15:00:00,1232A,120.2697,30.1819,杭州市,城厢镇,细颗粒物(PM2.5),68,79,94,49,71,127,127,122,89,28,53,9,8,0.6,0.8
2023-03-02T15:00:00,1233A,120.0883,30.1808,杭州市,云栖,细颗粒物(PM2.5),68,83,92,49,54,131,131,104,95,26,28,8,7,0.7,0.8
2023-03-02T15:00:00,1234A,121.8358,29.911,宁波市,区环保大楼,,34,34,62,21,46,119,107,95,93,27,42,6,8,0.4,0.6
2023-03-02T15:00:00,1235A,121.56,29.82,宁波市,万里学院,,43,43,83,25,59,141,118,112,96,25,30,7,8,0.4,0.6
2023-03-02T15:00:00,1236A,121.713,29.9572,宁波市,龙赛医院,颗粒物(PM10),56,61,74,36,45,113,104,105,93,23,32,6,7,0.4,0.6
2023-03-02T15:00:00,1239A,121.633,29.7733,宁波市,钱湖水厂,,38,32,58,17,50,147,120,107,107,19,25,7,7,0.5,0.7
2023-03-02T15:00:00,1240A,121.5856,29.8635,宁波市,太古小学,,,37,76,24,45,143,100,101,86,,30,7,9,0.5,0.8
2023-03-02T15:00:00,1241A,121.524,29.8674,宁波市,市环境监测中心,,,41,56,12,27,130,100,114,86,23,25,,7,0.6,0.7
2023-03-02T15:00:00,1242A,120.634,28.0089,温州市,瓯海,颗粒物(PM10),53,56,89,34,58,132,132,110,110,28,36,9,8,0.3,0.5
2023-03-02T15:00:00,1243A,120.6748,27.9939,温州市,南浦,,46,45,77,32,60,129,129,107,107,20,29,8,7,0.5,0.6
2023-03-02T15:00:00,1244A,120.76,27.9747,温州市,龙湾,,50,50,97,28,56,132,123,101,101,30,56,10,8,0.4,0.5
2023-03-02T15:00:00,1245A,120.6709,28.0167,温州市,市站,,,64,85,39,60,114,114,96,96,,41,8,6,0.4,0.7
2023-03-02T15:00:00,1247A,120.6053,29.9928,绍兴市,城东开发委,,,60,103,37,72,136,136,97,90,,40,7,7,0.5,0.9
2023-03-02T15:00:00,1250A,120.0751,30.8669,湖州市,城西水厂,细颗粒物(PM2.5),93,60,70,69,149,135,120,86,86,20,46,7,7,0.4,0.6
2023-03-02T15:00:00,1252A,120.7436,30.778,嘉兴市,清河小学,颗粒物(PM10),51,51,111,25,73,104,101,84,80,20,32,7,8,0.5,0.8
2023-03-02T15:00:00,1253A,120.726,30.7478,嘉兴市,嘉兴学院,,,59,101,29,73,115,114,95,87,,43,6,7,0.5,0.7
2023-03-02T15:00:00,1255A,121.273,28.6459,台州市,黄岩环保大楼,"颗粒物(PM10),细颗粒物(PM2.5)",57,64,66,40,53,144,144,114,114,21,26,9,9,0.4,0.5
2023-03-02T15:00:00,1256A,121.419,28.6542,台州市,台州环保大楼,颗粒物(PM10),57,63,86,25,41,140,139,123,121,20,23,6,7,0.4,0.5
2023-03-02T15:00:00,1257A,121.377,28.5773,台州市,路桥田洋王,,,78,85,26,40,144,144,120,116,15,22,,11,0.5,0.6
2023-03-02T15:00:00,1258A,122.122,30.0203,舟山市,定海檀枫,,32,25,68,12,47,130,101,115,92,14,22,5,5,0.4,0.6
2023-03-02T15:00:00,1259A,122.3094,29.9558,舟山市,普陀东港,,34,29,73,14,49,137,106,112,95,10,17,6,6,0.3,0.5
2023-03-02T15:00:00,1260A,122.19,29.9944,舟山市,临城新区,,34,28,81,16,50,137,108,121,97,21,27,5,6,0.4,0.7
2023-03-02T15:00:00,1262A,119.647,29.077,金华市,十五中,细颗粒物(PM2.5),67,80,86,48,74,150,150,113,113,23,41,8,9,0.5,0.8
2023-03-02T15:00:00,1263A,119.686,29.1029,金华市,监测站,细颗粒物(PM2.5),75,66,73,55,79,164,164,121,121,22,46,8,8,0.5,0.7
2023-03-02T15:00:00,1264A,118.8692,28.9398,衢州市,环保大楼,细颗粒物(PM2.5),68,62,78,49,66,122,122,93,93,16,38,8,9,0.5,0.7
2023-03-02T15:00:00,1265A,118.8709,28.9666,衢州市,实验学校,细颗粒物(PM2.5),60,64,78,43,56,143,140,111,111,17,36,8,6,0.3,0.5
2023-03-02T15:00:00,1266A,118.8621,28.9808,衢州市,衢州学院,细颗粒物(PM2.5),53,54,79,37,58,134,131,102,102,16,39,6,7,0.3,0.6
2023-03-02T15:00:00,1267A,119.914,28.4514,丽水市,监测站大楼,颗粒物(PM10),55,59,58,32,53,143,142,122,122,15,20,9,10,0.3,0.5
2023-03-02T15:00:00,1268A,119.93,28.4586,丽水市,莲都小学,,49,49,80,30,54,143,142,123,123,18,25,9,9,0.3,0.4
2023-03-02T15:00:00,1269A,119.879,28.4231,丽水市,余庄前,颗粒物(PM10),51,52,63,34,49,140,140,112,112,14,21,10,10,0.3,0.3
2023-03-02T15:00:00,1270A,117.1959,31.7848,合肥市,明珠广场,颗粒物(PM10),69,88,118,41,65,164,132,92,92,29,58,12,11,0.9,1
2023-03-02T15:00:00,1271A,117.3072,31.8764,合肥市,三里街,颗粒物(PM10),75,100,123,44,71,145,126,83,83,24,64,8,9,0.8,0.9
2023-03-02T15:00:00,1272A,117.2588,31.8707,合肥市,琥珀山庄,颗粒物(PM10),75,100,120,36,64,153,130,96,96,30,57,9,8,0.7,0.9
2023-03-02T15:00:00,1273A,117.1604,31.9052,合肥市,董铺水库,颗粒物(PM10),82,114,135,58,72,139,124,82,82,21,51,8,7,0.5,0.6
2023-03-02T15:00:00,1274A,117.25,31.8571,合肥市,长江中路,细颗粒物(PM2.5),85,95,127,63,89,154,131,90,90,24,53,15,14,1.0,1.2
2023-03-02T15:00:00,1275A,117.266,31.9436,合肥市,庐阳区,颗粒物(PM10),75,100,132,48,76,141,126,81,81,21,56,10,11,0.6,0.8
2023-03-02T15:00:00,1276A,117.336,31.8586,合肥市,瑶海区,,,,132,,81,140,129,89,89,,59,125,15,0.6,0.9
2023-03-02T15:00:00,1277A,117.3027,31.7964,合肥市,包河区,,,92,133,44,79,143,,78,78,19,76,,16,1.0,1.1
2023-03-02T15:00:00,1278A,117.2776,31.7385,合肥市,滨湖新区,颗粒物(PM10),69,88,123,34,68,151,138,103,103,14,51,10,10,0.6,0.7
2023-03-02T15:00:00,1279A,117.1318,31.8403,合肥市,高新区,颗粒物(PM10),67,83,117,44,69,148,127,87,87,23,56,10,10,1.0,1.1
2023-03-02T15:00:00,1280A,119.3903,26.0543,福州市,鼓山,,,,,,,,,,,,,,,,
2023-03-02T15:00:00,1282A,119.2681,26.0504,福州市,师大,,40,40,54,26,52,130,123,110,110,21,24,5,6,0.5,0.6
2023-03-02T15:00:00,1283A,119.2984,26.1028,福州市,五四北路,细颗粒物(PM2.5),55,21,47,39,53,133,133,110,110,15,20,4,4,0.5,0.5
2023-03-02T15:00:00,1284A,119.2648,26.0768,福州市,杨桥西路,,43,24,51,30,51,132,129,112,112,12,18,4,4,0.5,0.5
2023-03-02T15:00:00,1285A,119.317,26.0746,福州市,紫阳,,43,39,50,30,49,130,126,111,111,16,18,4,4,0.4,0.5
2023-03-02T15:00:00,1286A,118.1608,24.8169,厦门市,溪东,,,,,,,,,,,,,,,,
2023-03-02T15:00:00,1287A,118.1514,24.4767,厦门市,洪文,"颗粒物(PM10),细颗粒物(PM2.5)",72,94,71,52,49,149,136,124,124,32,32,4,5,0.6,0.5
2023-03-02T15:00:00,1288A,118.0661,24.4444,厦门市,鼓浪屿,细颗粒物(PM2.5),84,103,68,62,44,181,174,147,147,28,27,5,6,0.4,0.4
2023-03-02T15:00:00,1290A,115.8931,28.6843,南昌市,省外办,细颗粒物(PM2.5),85,106,120,63,80,150,149,116,116,11,28,10,13,0.5,0.6
2023-03-02T15:00:00,1291A,115.8886,28.7003,南昌市,省林业公司,细颗粒物(PM2.5),77,85,103,56,80,154,150,112,112,23,33,6,9,0.5,0.6
2023-03-02T15:00:00,1292A,115.8126,28.7442,南昌市,林科所,细颗粒物(PM2.5),89,112,115,66,80,154,154,132,126,12,18,10,11,0.5,0.6
2023-03-02T15:00:00,1294A,115.8518,28.687,南昌市,建工学校,细颗粒物(PM2.5),93,112,118,69,73,154,152,120,120,9,19,7,8,0.6,0.7
2023-03-02T15:00:00,1295A,115.8921,28.6424,南昌市,象湖,细颗粒物(PM2.5),89,96,98,66,83,150,144,123,123,14,21,8,10,0.6,0.7
2023-03-02T15:00:00,1296A,115.7423,28.7996,南昌市,武术学校,细颗粒物(PM2.5),82,66,84,60,64,160,157,114,114,10,14,8,8,0.3,0.5
2023-03-02T15:00:00,1298A,115.9314,28.6842,南昌市,省站,,,118,121,57,78,160,158,128,128,,20,8,10,0.8,0.9
2023-03-02T15:00:00,1299A,116.9862,36.6114,济南市,科干所,颗粒物(PM10),69,88,69,22,14,113,113,87,87,20,28,10,9,0.6,0.6
2023-03-02T15:00:00,1300A,116.9376,36.665,济南市,农科所,颗粒物(PM10),67,83,82,22,14,108,108,67,67,16,38,6,6,0.6,0.6
2023-03-02T15:00:00,1301A,117.1265,36.6734,济南市,开发区,颗粒物(PM10),63,76,71,17,14,111,111,71,71,9,33,11,9,0.4,0.4
2023-03-02T15:00:00,1303A,117.0624,36.6868,济南市,省种子仓库,颗粒物(PM10),64,78,70,24,14,115,115,76,76,10,33,10,8,0.3,0.4
2023-03-02T15:00:00,1304A,116.9489,36.6447,济南市,机床二厂,颗粒物(PM10),74,98,95,29,17,110,106,74,74,16,38,9,10,0.6,0.7
2023-03-02T15:00:00,1305A,117.0495,36.663,济南市,市监测站,颗粒物(PM10),69,88,66,27,15,115,115,73,73,26,46,8,6,0.5,0.5
2023-03-02T15:00:00,1306A,116.7675,36.5484,济南市,长清党校,,,90,92,27,17,119,112,84,84,,35,,8,0.7,0.7
2023-03-02T15:00:00,1307A,120.6659,36.2403,青岛市,仰口,颗粒物(PM10),54,58,63,14,20,102,76,72,68,22,17,4,4,0.6,0.6
2023-03-02T15:00:00,1310A,120.4134,36.0658,青岛市,市南区东部子站,颗粒物(PM10),52,53,81,24,22,103,88,64,64,20,37,11,10,0.6,0.6
2023-03-02T15:00:00,1311A,120.3664,36.1032,青岛市,四方区子站,颗粒物(PM10),53,56,81,19,22,89,78,54,54,29,42,8,9,0.6,0.6
2023-03-02T15:00:00,1312A,120.2994,36.054,青岛市,市南区西部子站,颗粒物(PM10),60,70,76,15,18,108,92,68,68,19,32,10,10,0.5,0.5
2023-03-02T15:00:00,1313A,120.4581,36.0858,青岛市,崂山区子站,颗粒物(PM10),53,56,79,12,16,103,90,63,61,19,32,9,9,0.3,0.4
2023-03-02T15:00:00,1314A,120.1983,35.9608,青岛市,黄岛区子站,颗粒物(PM10),53,56,80,20,22,97,91,71,71,23,55,7,8,0.4,0.4
2023-03-02T15:00:00,1315A,120.3999,36.3083,青岛市,城阳区子站,颗粒物(PM10),64,78,85,20,24,98,73,54,54,27,38,5,7,0.5,0.7
2023-03-02T15:00:00,1316A,113.69031,34.76122,郑州市,烟厂,细颗粒物(PM2.5),102,138,116,76,65,130,130,75,74,21,46,12,11,0.6,0.7
2023-03-02T15:00:00,1317A,113.65724,34.77134,郑州市,郑纺机,细颗粒物(PM2.5),87,108,105,64,60,125,125,76,75,27,51,11,10,0.4,0.5
2023-03-02T15:00:00,1318A,113.67526,34.80246,郑州市,银行学校,细颗粒物(PM2.5),99,96,108,74,65,124,124,68,68,28,52,14,11,0.5,0.5
2023-03-02T15:00:00,1319A,113.56746,34.81334,郑州市,供水公司,,,,107,,56,107,107,68,58,34,53,12,10,0.5,0.7
2023-03-02T15:00:00,1320A,113.7329,34.7178,郑州市,经开区管委,,,,113,,68,130,130,68,68,20,52,14,12,0.4,0.5
2023-03-02T15:00:00,1321A,113.73961,34.77172,郑州市,四十七中,细颗粒物(PM2.5),110,114,114,83,66,122,122,71,71,20,43,11,9,0.6,0.6
2023-03-02T15:00:00,1322A,113.60532,34.74838,郑州市,市监测站,细颗粒物(PM2.5),85,114,119,63,71,126,126,75,75,20,46,13,13,0.6,0.7
2023-03-02T15:00:00,1323A,113.64164,34.7525,郑州市,河医大,细颗粒物(PM2.5),92,93,114,68,64,128,128,73,73,14,46,11,10,0.6,0.7
2023-03-02T15:00:00,1324A,113.51488,34.91089,郑州市,岗李水库,,,,,,,,,,,,,,,,
2023-03-02T15:00:00,1325A,114.3677,30.5584,武汉市,东湖梨园,细颗粒物(PM2.5),104,119,129,78,108,166,147,126,72,29,42,12,12,0.6,0.8
2023-03-02T15:00:00,1326A,114.2529,30.558,武汉市,汉阳月湖,细颗粒物(PM2.5),128,121,135,97,113,153,130,90,72,34,47,10,10,0.9,1
2023-03-02T15:00:00,1327A,114.282,30.6189,武汉市,汉口花桥,颗粒物(PM10),91,132,137,66,90,154,133,108,72,26,41,12,11,0.9,0.9
2023-03-02T15:00:00,1328A,114.3025,30.5332,武汉市,武昌紫阳,细颗粒物(PM2.5),104,100,129,78,108,151,137,106,80,27,46,13,15,0.8,1
2023-03-02T15:00:00,1329A,114.3646,30.6217,武汉市,青山钢花,细颗粒物(PM2.5),110,123,134,83,104,158,146,82,70,23,46,16,15,1.1,1.1
2023-03-02T15:00:00,1330A,114.1566,30.4825,武汉市,沌口新区,细颗粒物(PM2.5),115,98,126,87,111,138,129,93,84,45,56,20,14,0.9,1
2023-03-02T15:00:00,1331A,114.3014,30.5944,武汉市,汉口江滩,细颗粒物(PM2.5),117,121,128,88,103,162,,98,74,34,46,11,10,,0.9
2023-03-02T15:00:00,1333A,114.135,30.6319,武汉市,吴家山,细颗粒物(PM2.5),92,126,141,68,95,146,130,106,77,35,50,10,10,0.8,0.9
2023-03-02T15:00:00,1334A,113.8454,30.2917,武汉市,沉湖七壕,,,84,111,34,57,158,150,119,97,,28,14,12,0.9,1
2023-03-02T15:00:00,1335A,113.0833,28.2325,长沙市,经开区环保局,细颗粒物(PM2.5),130,119,156,99,129,157,157,79,79,,29,5,5,0.7,0.7
2023-03-02T15:00:00,1336A,112.8872,28.2189,长沙市,高开区环保局,细颗粒物(PM2.5),119,139,156,90,115,158,158,90,90,18,22,8,10,0.7,0.7
2023-03-02T15:00:00,1337A,113.0792,28.2053,长沙市,马坡岭,细颗粒物(PM2.5),128,118,152,97,133,168,168,82,82,17,30,9,10,0.5,0.6
2023-03-02T15:00:00,1338A,112.9394,28.19,长沙市,湖南师范大学,细颗粒物(PM2.5),134,122,142,102,138,142,142,80,80,20,22,6,7,0.6,0.6
2023-03-02T15:00:00,1339A,113.0178,28.1322,长沙市,雨花区环保局,细颗粒物(PM2.5),113,95,142,85,129,149,149,80,80,15,26,7,8,0.6,0.8
2023-03-02T15:00:00,1340A,112.9792,28.2597,长沙市,伍家岭,细颗粒物(PM2.5),118,140,135,89,129,161,161,82,82,20,26,8,9,0.8,0.8
2023-03-02T15:00:00,1341A,113.0014,28.1944,长沙市,火车新站,细颗粒物(PM2.5),114,93,141,86,128,145,145,73,73,19,25,9,8,3.4,0.9
2023-03-02T15:00:00,1342A,112.9844,28.1178,长沙市,天心区环保局,细颗粒物(PM2.5),108,112,150,81,126,163,163,94,94,19,24,5,6,0.5,0.6
2023-03-02T15:00:00,1343A,112.8908,28.1308,长沙市,湖南中医药大学,细颗粒物(PM2.5),105,112,141,79,127,159,159,91,91,16,25,5,7,0.9,0.9
2023-03-02T15:00:00,1344A,112.9581,28.3611,长沙市,沙坪,细颗粒物(PM2.5),109,100,153,82,120,152,152,87,87,19,21,9,8,0.9,1
2023-03-02T15:00:00,1345A,113.2347,23.1423,广州市,广雅中学,颗粒物(PM10),62,74,106,43,57,271,149,104,104,26,74,6,7,0.6,0.9
2023-03-02T15:00:00,1346A,113.2612,23.105,广州市,市五中,细颗粒物(PM2.5),69,63,89,50,61,278,164,124,124,17,48,8,9,0.7,1
2023-03-02T15:00:00,1348A,113.3478,23.0916,广州市,广东商学院,细颗粒物(PM2.5),64,71,109,46,57,255,154,116,116,27,71,6,7,0.6,0.8
2023-03-02T15:00:00,1349A,113.4332,23.1047,广州市,市八十六中,细颗粒物(PM2.5),60,68,120,43,62,259,150,106,106,15,70,6,7,0.7,0.9
2023-03-02T15:00:00,1350A,113.3505,22.9483,广州市,番禺中学,细颗粒物(PM2.5),69,74,103,50,59,286,164,116,116,26,63,8,9,0.7,1
2023-03-02T15:00:00,1351A,113.2146,23.3916,广州市,花都师范,颗粒物(PM10),53,56,83,36,46,232,144,130,116,12,20,8,10,0.8,0.8
2023-03-02T15:00:00,1352A,113.2597,23.1331,广州市,市监测站,细颗粒物(PM2.5),62,65,93,44,55,272,151,116,116,18,64,7,9,0.6,0.8
2023-03-02T15:00:00,1353A,113.5618,23.312,广州市,九龙镇镇龙,细颗粒物(PM2.5),62,64,93,44,51,202,138,107,107,17,50,5,5,0.7,0.8
2023-03-02T15:00:00,1354A,113.2765,23.1544,广州市,麓湖,细颗粒物(PM2.5),59,59,76,42,52,278,158,121,121,16,48,8,8,0.6,0.7
2023-03-02T15:00:00,1355A,113.443,23.3035,广州市,帽峰山森林公园,"颗粒物(PM10),细颗粒物(PM2.5)",54,58,72,38,43,226,150,126,125,11,20,7,8,0.7,0.7
2023-03-02T15:00:00,1356A,114.1063,22.5545,深圳市,通心岭子站,,,53,97,35,59,271,,94,94,,59,6,5,0.6,0.8
2023-03-02T15:00:00,1357A,114.117,22.5625,深圳市,洪湖,臭氧1小时,80,86,120,54,70,323,184,122,122,18,61,11,10,0.7,0.9
2023-03-02T15:00:00,1358A,113.987,22.5417,深圳市,华侨城,细颗粒物(PM2.5),73,74,98,53,60,351,141,114,114,45,66,11,10,0.7,0.8
2023-03-02T15:00:00,1359A,113.9181,22.5171,深圳市,南海子站,颗粒物(PM10),69,87,111,41,60,330,124,109,109,45,66,11,8,0.7,0.8
2023-03-02T15:00:00,1360A,114.2458,22.5689,深圳市,盐田,颗粒物(PM10),51,51,65,33,41,148,148,103,103,16,58,8,8,0.7,0.8
2023-03-02T15:00:00,1361A,114.2283,22.7244,深圳市,龙岗,颗粒物(PM10),61,72,97,42,52,269,166,125,125,4,41,7,7,0.5,0.7
2023-03-02T15:00:00,1363A,114.494,22.5422,深圳市,南澳,细颗粒物(PM2.5),54,54,47,38,32,172,150,113,113,14,17,8,7,0.6,0.6
2023-03-02T15:00:00,1364A,114.41,22.6342,深圳市,葵涌,细颗粒物(PM2.5),53,54,59,37,37,176,150,106,106,13,24,8,6,0.6,0.7
2023-03-02T15:00:00,1365A,114.297,22.5978,深圳市,梅沙,颗粒物(PM10),56,61,62,39,37,201,160,117,117,14,27,6,6,0.7,0.7
2023-03-02T15:00:00,1366A,114.0678,22.738,深圳市,观澜,细颗粒物(PM2.5),67,75,128,48,62,226,159,119,119,18,74,10,10,0.6,0.8
2023-03-02T15:00:00,1367A,113.5814,22.2618,珠海市,吉大,"颗粒物(PM10),臭氧1小时",55,60,81,24,53,296,164,126,126,21,41,6,6,0.6,0.7
2023-03-02T15:00:00,1368A,113.4881,22.2335,珠海市,前山,颗粒物(PM10),58,66,105,32,40,269,150,114,114,35,63,7,7,0.5,0.6
2023-03-02T15:00:00,1369A,113.628,22.4251,珠海市,唐家,臭氧1小时,65,57,69,37,45,294,172,126,126,23,33,6,6,0.4,0.4
2023-03-02T15:00:00,1370A,113.299,22.2281,珠海市,斗门,臭氧1小时,63,60,101,37,65,306,170,118,118,25,42,7,8,0.4,0.6
2023-03-02T15:00:00,1371A,113.1294,23.0067,佛山市,湾梁,臭氧1小时,68,73,94,36,46,311,174,120,120,20,45,4,6,0.7,0.8
2023-03-02T15:00:00,1372A,113.1083,23.0478,佛山市,华材职中,"细颗粒物(PM2.5),臭氧1小时",64,63,90,46,51,314,171,114,114,20,69,8,9,0.4,0.5
2023-03-02T15:00:00,1373A,113.144,23.0453,佛山市,南海气象局,颗粒物(PM10),58,65,83,40,51,280,154,105,105,24,59,3,5,0.7,0.8
2023-03-02T15:00:00,1374A,113.2881,22.8094,佛山市,顺德苏岗,细颗粒物(PM2.5),58,61,88,41,60,259,162,107,107,22,57,12,12,0.6,0.8
2023-03-02T15:00:00,1376A,112.8383,22.8678,佛山市,高明孔堂,臭氧1小时,68,64,83,46,50,276,174,118,118,18,31,10,12,0.6,0.7
2023-03-02T15:00:00,1377A,112.8836,23.1588,佛山市,三水监测站,细颗粒物(PM2.5),68,61,92,49,53,231,156,118,118,16,61,9,11,0.6,0.8
2023-03-02T15:00:00,1378A,112.867,23.185,佛山市,三水云东海,,,,74,,44,156,156,111,111,17,43,,9,0.5,0.7
2023-03-02T15:00:00,1379A,113.3769,22.5211,中山市,华柏园,臭氧1小时,109,80,96,49,64,285,218,134,134,20,46,9,9,0.6,0.9
2023-03-02T15:00:00,1380A,113.3881,22.5497,中山市,张溪,臭氧1小时,102,99,104,51,66,272,204,124,124,26,62,8,8,0.5,0.8
2023-03-02T15:00:00,1381A,113.4075,22.5111,中山市,紫马岭,臭氧1小时,106,78,88,49,57,265,212,126,126,18,40,10,9,0.6,0.7
2023-03-02T15:00:00,1382A,113.4411,22.4853,中山市,长江旅游区,臭氧1小时,102,81,69,58,56,252,204,129,112,26,28,14,12,0.5,0.5
2023-03-02T15:00:00,1383A,113.1064,22.6058,江门市,北街,臭氧1小时,99,82,100,45,56,339,199,117,117,25,60,13,11,0.6,0.9
2023-03-02T15:00:00,1384A,113.0731,22.5835,江门市,西区,臭氧1小时,98,77,117,40,62,336,198,125,125,26,67,11,10,0.6,0.8
2023-03-02T15:00:00,1385A,113.0219,22.5311,江门市,圭峰西,臭氧1小时,92,80,89,53,66,344,193,140,126,28,47,9,9,0.6,0.7
2023-03-02T15:00:00,1386A,113.0828,22.5947,江门市,东湖,臭氧1小时,101,79,111,43,64,356,202,126,126,22,57,11,9,0.6,0.9
2023-03-02T15:00:00,1389A,113.7547,23.0494,东莞市,莞城梨川,臭氧1小时,75,72,86,44,50,207,180,128,128,17,45,11,12,0.8,0.9
2023-03-02T15:00:00,1390A,113.7944,23.0128,东莞市,东城石井,细颗粒物(PM2.5),57,57,66,40,43,227,164,127,127,13,31,11,11,0.7,0.7
2023-03-02T15:00:00,1391A,113.7383,22.9658,东莞市,南城西平,细颗粒物(PM2.5),59,63,80,42,47,197,152,110,110,14,52,10,12,0.6,0.6
2023-03-02T15:00:00,1392A,114.4183,23.0528,惠州市,河南岸金山湖子站,细颗粒物(PM2.5),55,55,72,39,39,149,133,112,112,13,33,7,8,0.5,0.6
2023-03-02T15:00:00,1393A,114.4053,23.0822,惠州市,下埔横江三路子站,颗粒物(PM10),51,52,67,35,38,172,150,129,126,12,30,7,8,0.5,0.6
2023-03-02T15:00:00,1394A,114.4103,23.1142,惠州市,江北云山西路子站,,,,57,41,38,177,146,128,120,8,23,8,9,0.5,0.5
2023-03-02T15:00:00,1395A,114.4645,22.7833,惠州市,惠阳区承修路船湖子站,颗粒物(PM10),66,82,74,47,45,154,154,105,105,27,44,7,7,0.7,0.8
2023-03-02T15:00:00,1396A,114.5317,22.7422,惠州市,大亚湾管委会子站,颗粒物(PM10),72,94,70,33,38,129,121,74,74,28,48,6,5,0.8,0.8
2023-03-02T15:00:00,1397A,112.4267,23.0706,肇庆市,睦岗子站,臭氧1小时,60,64,83,42,52,265,168,113,113,16,68,14,13,0.6,0.7
2023-03-02T15:00:00,1398A,112.4645,23.0475,肇庆市,城中子站,细颗粒物(PM2.5),62,66,88,44,56,250,159,121,121,24,53,12,13,0.6,0.7
2023-03-02T15:00:00,1399A,112.5544,23.1522,肇庆市,坑口子站,细颗粒物(PM2.5),67,68,69,48,51,239,167,113,109,19,32,11,11,0.6,0.6
2023-03-02T15:00:00,1400A,112.4753,23.1,肇庆市,七星岩子站,,,,,,,,,,,,,,,,
2023-03-02T15:00:00,1401A,108.3103,22.7881,南宁市,二十一中,细颗粒物(PM2.5),79,88,78,58,54,154,154,86,86,15,35,12,12,1.0,1
2023-03-02T15:00:00,1402A,108.3141,22.8528,南宁市,北湖,细颗粒物(PM2.5),77,77,91,56,58,139,139,82,82,12,34,16,25,0.8,0.9
2023-03-02T15:00:00,1403A,108.3206,22.8225,南宁市,市监测站,细颗粒物(PM2.5),77,87,86,56,61,141,141,85,85,20,55,15,19,0.7,1
2023-03-02T15:00:00,1404A,108.3829,22.8037,南宁市,大自然花园,细颗粒物(PM2.5),75,72,73,55,52,127,127,86,86,14,32,9,9,0.8,0.9
2023-03-02T15:00:00,1405A,108.4394,22.7904,南宁市,仙葫,细颗粒物(PM2.5),72,74,81,52,52,131,131,98,98,12,25,10,11,0.5,0.5
2023-03-02T15:00:00,1406A,108.2397,22.8467,南宁市,区农职院,细颗粒物(PM2.5),75,80,71,55,46,150,150,88,88,19,25,12,10,0.8,0.8
2023-03-02T15:00:00,1407A,108.3275,22.735,南宁市,英华嘉园,细颗粒物(PM2.5),73,76,78,53,54,134,134,79,79,18,41,10,8,1.0,1.1
2023-03-02T15:00:00,1408A,108.2257,22.7757,南宁市,沙井镇街道办,细颗粒物(PM2.5),87,86,90,64,58,150,150,76,76,22,42,11,8,0.8,0.8
2023-03-02T15:00:00,1409A,110.576,19.9507,海口市,东寨港,,,60,31,56,22,126,126,58,58,,,4,5,0.8,0.7
2023-03-02T15:00:00,1410A,110.3232,20.0574,海口市,海南大学,细颗粒物(PM2.5),83,78,45,61,33,177,177,89,89,14,20,9,7,0.7,0.5
2023-03-02T15:00:00,1411A,110.283,20.0053,海口市,秀英海南医院,细颗粒物(PM2.5),77,71,48,56,28,175,175,87,87,14,26,9,6,0.8,0.7
2023-03-02T15:00:00,1412A,110.338,19.9969,海口市,海南师范大学,臭氧1小时,77,62,45,42,19,181,181,92,92,15,22,8,5,0.7,0.6
2023-03-02T15:00:00,1413A,110.33,20.0356,海口市,龙华路环保局宿舍,,,70,45,43,21,172,172,83,83,,18,10,6,0.8,0.7
2023-03-02T15:00:00,1414A,106.3787,29.8279,重庆市,缙云山,细颗粒物(PM2.5),67,70,71,48,44,49,32,36,28,33,24,5,4,0.9,0.8
2023-03-02T15:00:00,1416A,106.4213,29.8253,重庆市,天生,细颗粒物(PM2.5),97,62,91,72,74,49,49,34,30,25,31,10,11,0.9,0.8
2023-03-02T15:00:00,1417A,106.6263,29.7228,重庆市,两路,细颗粒物(PM2.5),69,63,83,50,62,43,31,21,16,35,38,9,8,1.1,1
2023-03-02T15:00:00,1418A,106.2953,29.5983,重庆市,虎溪,细颗粒物(PM2.5),107,89,94,80,82,47,20,13,13,50,46,6,6,,0.9
2023-03-02T15:00:00,1419A,106.5777,29.5102,重庆市,南坪,细颗粒物(PM2.5),75,66,91,55,74,36,33,22,22,27,34,8,7,0.6,0.6
2023-03-02T15:00:00,1420A,106.6556,29.6277,重庆市,唐家沱,细颗粒物(PM2.5),65,73,93,47,76,38,38,18,18,34,49,9,7,1.0,1
2023-03-02T15:00:00,1421A,106.6349,29.4906,重庆市,茶园,细颗粒物(PM2.5),85,76,105,63,81,27,27,16,16,38,47,8,8,0.8,1.1
2023-03-02T15:00:00,1422A,106.3754,29.4572,重庆市,白市驿,细颗粒物(PM2.5),77,90,103,56,85,50,35,27,16,47,49,9,9,1.0,0.9
2023-03-02T15:00:00,1425A,106.6205,29.7166,重庆市,空港,细颗粒物(PM2.5),74,52,76,54,69,46,44,26,25,33,45,8,8,0.9,0.9
2023-03-02T15:00:00,1426A,106.4782,29.4875,重庆市,新山村,细颗粒物(PM2.5),88,91,115,65,87,24,24,14,14,52,56,10,11,0.7,0.7
2023-03-02T15:00:00,1427A,106.5616,29.6453,重庆市,礼嘉,细颗粒物(PM2.5),80,87,106,59,75,44,43,18,18,40,55,12,10,0.6,0.6
2023-03-02T15:00:00,1428A,106.4522,29.7091,重庆市,蔡家,细颗粒物(PM2.5),75,75,95,55,63,55,33,35,21,36,34,10,8,1.1,0.8
2023-03-02T15:00:00,1429A,106.5093,29.3917,重庆市,鱼新街,细颗粒物(PM2.5),88,81,108,65,85,187,32,15,15,34,46,11,11,0.8,0.9
2023-03-02T15:00:00,1431A,103.9728,30.7236,成都市,金泉两河,颗粒物(PM10),84,118,96,55,44,109,33,49,19,50,33,3,2,0.6,0.5
2023-03-02T15:00:00,1432A,104.176,30.6872,成都市,十里店,,,,98,,42,102,58,36,24,,43,4,4,0.6,0.6
2023-03-02T15:00:00,1433A,104.079,30.5706,成都市,三瓦窑,颗粒物(PM10),71,91,99,37,39,92,53,32,21,28,47,5,4,0.4,0.5
2023-03-02T15:00:00,1434A,104.1114,30.63,成都市,沙河铺,细颗粒物(PM2.5),84,100,93,62,43,101,46,19,19,29,43,6,5,0.5,0.5
2023-03-02T15:00:00,1437A,104.0786,30.6531,成都市,君平街,颗粒物(PM10),83,115,98,55,44,104,39,43,22,46,43,6,5,0.4,0.5
2023-03-02T15:00:00,1438A,103.613,31.0283,成都市,灵岩寺,"颗粒物(PM10),细颗粒物(PM2.5)",98,146,71,73,33,108,64,83,50,22,18,7,9,0.4,0.3
2023-03-02T15:00:00,1439A,106.6899,26.5998,贵阳市,马鞍山,细颗粒物(PM2.5),52,46,49,36,44,81,81,71,71,21,17,12,6,0.7,0.7
2023-03-02T15:00:00,1440A,106.6971,26.5694,贵阳市,市环保站,细颗粒物(PM2.5),55,48,53,39,49,92,75,77,64,28,21,13,8,0.5,0.4
2023-03-02T15:00:00,1441A,106.6243,26.6266,贵阳市,鉴湖路,颗粒物(PM10),56,61,58,36,40,82,68,72,71,36,19,9,5,0.7,0.7
2023-03-02T15:00:00,1442A,106.7487,26.6343,贵阳市,燕子冲,,,46,59,44,56,83,77,77,77,,15,8,6,0.4,0.5
2023-03-02T15:00:00,1443A,106.6555,26.4365,贵阳市,碧云窝,颗粒物(PM10),56,61,63,34,46,78,77,74,73,26,21,10,14,0.7,0.7
2023-03-02T15:00:00,1444A,106.694,26.5161,贵阳市,中院村,细颗粒物(PM2.5),55,58,65,39,46,70,68,65,61,35,26,13,12,0.6,0.6
2023-03-02T15:00:00,1445A,106.7109,26.6027,贵阳市,红边门,细颗粒物(PM2.5),67,58,55,48,53,80,78,71,71,27,22,14,11,0.6,0.6
2023-03-02T15:00:00,1446A,106.7164,26.5699,贵阳市,新华路,细颗粒物(PM2.5),58,51,56,41,48,84,76,73,67,18,16,7,7,0.5,0.5
2023-03-02T15:00:00,1447A,106.674,26.5424,贵阳市,太慈桥,颗粒物(PM10),56,61,63,31,42,80,67,74,64,36,25,10,5,0.5,0.5
2023-03-02T15:00:00,1450A,102.8204,24.8886,昆明市,呈贡新区,,43,43,64,20,60,134,114,93,93,9,22,4,6,0.6,0.8
2023-03-02T15:00:00,1451A,102.6251,24.9608,昆明市,西山森林公园,,38,36,59,26,42,136,121,109,109,7,13,6,7,0.7,0.9
2023-03-02T15:00:00,1452A,102.7252,25.0902,昆明市,龙泉镇,,38,36,81,21,66,128,120,92,92,10,29,8,7,0.6,0.9
2023-03-02T15:00:00,1453A,102.7266,25.0375,昆明市,东风东路,,36,29,81,22,61,126,114,91,91,16,32,7,7,0.6,0.9
2023-03-02T15:00:00,1454A,102.6742,25.0669,昆明市,金鼎山,,47,47,78,20,68,128,118,99,99,10,23,5,6,0.4,0.7
2023-03-02T15:00:00,1455A,102.6644,25.0401,昆明市,碧鸡广场,,37,26,88,17,71,128,116,98,98,10,28,5,6,0.4,0.7
2023-03-02T15:00:00,1456A,91.1319,29.6514,拉萨市,八廓街,,30,24,19,9,9,97,96,78,78,12,13,4,4,0.4,0.4
2023-03-02T15:00:00,1457A,91.1221,29.6747,拉萨市,市环保局,,32,16,15,8,8,105,101,84,76,9,13,4,5,0.2,0.3
2023-03-02T15:00:00,1458A,91.0874,29.6475,拉萨市,区监测站,,34,11,14,4,7,108,106,85,85,10,11,6,6,0.2,0.2
2023-03-02T15:00:00,1459A,91.1774,29.6541,拉萨市,西藏大学,,,,13,,6,106,101,83,82,9,11,3,3,,0.4
2023-03-02T15:00:00,1460A,90.9798,29.6588,拉萨市,区辐射站,,31,18,19,6,10,116,98,71,66,14,20,6,6,0.5,0.6
2023-03-02T15:00:00,1461A,91.0834,29.6292,拉萨市,拉萨火车站,,32,16,15,5,8,106,100,89,79,10,14,5,5,0.3,0.4
2023-03-02T15:00:00,1462A,108.882,34.2749,西安市,高压开关厂,颗粒物(PM10),146,241,202,85,55,89,20,23,23,83,70,12,11,0.9,0.8
2023-03-02T15:00:00,1463A,108.993,34.2629,西安市,兴庆小区,颗粒物(PM10),81,111,145,46,46,75,60,36,30,43,53,10,9,0.7,0.6
2023-03-02T15:00:00,1464A,109.06,34.2572,西安市,纺织城,颗粒物(PM10),88,125,169,50,54,58,53,27,27,51,63,12,8,0.6,0.6
2023-03-02T15:00:00,1465A,108.9356,34.2173,西安市,小寨,颗粒物(PM10),129,208,168,76,54,86,25,42,16,80,61,11,9,0.6,0.5
2023-03-02T15:00:00,1466A,108.954,34.2713,西安市,市人民体育场,,,130,167,67,48,73,39,28,28,61,65,,10,,0.6
2023-03-02T15:00:00,1467A,108.8922,34.2322,西安市,高新西区,颗粒物(PM10),125,199,183,72,57,93,27,30,17,69,60,11,10,0.7,0.8
2023-03-02T15:00:00,1468A,108.935,34.3474,西安市,经开区,颗粒物(PM10),75,99,160,43,49,77,64,34,34,34,62,12,9,0.5,0.6
2023-03-02T15:00:00,1469A,108.906,34.1546,西安市,长安区,颗粒物(PM10),136,221,193,75,53,96,40,24,24,65,55,11,9,0.7,0.6
2023-03-02T15:00:00,1471A,109.2186,34.3731,西安市,临潼区,,,132,139,57,50,81,70,34,34,33,51,16,12,,0.8
2023-03-02T15:00:00,1472A,108.869,34.378,西安市,草滩,颗粒物(PM10),75,99,153,28,36,66,66,32,32,26,54,16,13,0.1,0.2
2023-03-02T15:00:00,1473A,108.985,34.1978,西安市,曲江文化产业集团,颗粒物(PM10),130,210,174,76,44,89,27,16,16,76,64,8,7,1.0,0.8
2023-03-02T15:00:00,1474A,109.051,34.3213,西安市,广运潭,颗粒物(PM10),79,107,146,56,44,67,67,30,30,34,59,13,9,0.9,0.8
2023-03-02T15:00:00,1476A,103.631,36.1031,兰州市,兰炼宾馆,颗粒物(PM10),65,80,92,37,46,93,93,43,43,28,63,22,24,0.7,0.9
2023-03-02T15:00:00,1477A,104.1373,35.9454,兰州市,榆中兰大校区,,,,,,,,,,,,,,,,
2023-03-02T15:00:00,1478A,103.8412,36.0726,兰州市,生物制品所,细颗粒物(PM2.5),60,51,82,43,42,94,80,36,36,34,59,19,10,1.0,1.1
2023-03-02T15:00:00,1479A,103.831,36.0464,兰州市,铁路设计院,"颗粒物(PM10),细颗粒物(PM2.5)",62,73,79,44,47,91,84,35,35,31,66,22,14,1.0,1.4
2023-03-02T15:00:00,1483A,101.524,36.6867,西宁市,第五水厂,,,,,,,,,,,,,,,,
2023-03-02T15:00:00,1484A,105.9512,38.6016,银川市,贺兰山马莲口,颗粒物(PM10),66,82,85,26,21,98,93,84,79,34,16,23,14,0.3,0.2
2023-03-02T15:00:00,1488A,106.2328,38.4975,银川市,贺兰山东路,颗粒物(PM10),86,121,156,32,42,95,92,41,41,26,55,15,12,0.6,0.7
2023-03-02T15:00:00,1489A,106.1358,38.5036,银川市,学院路,,,,152,,37,97,91,47,47,22,51,23,11,0.5,0.9
2023-03-02T15:00:00,1490A,87.5801,43.8303,乌鲁木齐市,监测站,细颗粒物(PM2.5),172,169,165,130,123,66,52,20,20,68,95,8,4,,1.8
2023-03-02T15:00:00,1491A,87.6046,43.768,乌鲁木齐市,收费所,细颗粒物(PM2.5),198,244,225,148,143,46,37,19,15,81,92,5,3,1.4,1.5
2023-03-02T15:00:00,1492A,87.4754,43.9469,乌鲁木齐市,新疆农科院农场,细颗粒物(PM2.5),188,97,141,141,151,96,87,39,39,29,54,11,9,1.1,1.5
2023-03-02T15:00:00,1493A,87.5525,43.8711,乌鲁木齐市,铁路局,细颗粒物(PM2.5),186,179,150,140,133,94,65,32,32,44,69,6,4,1.2,1.4
2023-03-02T15:00:00,1494A,87.6432,43.831,乌鲁木齐市,三十一中学,细颗粒物(PM2.5),173,180,176,131,143,71,53,46,38,49,57,8,6,1.2,1.3
2023-03-02T15:00:00,1496A,87.7216,44.1747,乌鲁木齐市,米东区环保局,细颗粒物(PM2.5),205,172,140,155,122,108,65,71,33,41,52,6,6,1.1,1.4
2023-03-02T15:00:00,1508A,112.9433,27.8614,湘潭市,板塘,细颗粒物(PM2.5),137,129,132,104,142,146,146,74,74,21,25,16,9,0.9,0.7
2023-03-02T15:00:00,1511A,112.9118,27.8403,湘潭市,市监测站,细颗粒物(PM2.5),129,122,133,98,127,142,142,79,79,32,30,27,12,1.2,0.8
2023-03-02T15:00:00,1512A,112.8937,27.8728,湘潭市,江麓,细颗粒物(PM2.5),130,115,144,99,133,171,171,101,101,15,18,11,12,0.7,0.7
2023-03-02T15:00:00,1513A,112.9227,27.8159,湘潭市,岳塘,细颗粒物(PM2.5),122,129,148,92,133,147,147,83,83,27,28,19,11,1.0,0.8
2023-03-02T15:00:00,1514A,112.9074,27.9119,湘潭市,科大,细颗粒物(PM2.5),124,128,145,94,135,158,158,90,90,19,23,8,9,0.8,0.8
2023-03-02T15:00:00,1515A,113.135,27.8244,株洲市,天台山庄,细颗粒物(PM2.5),115,110,148,87,140,171,171,87,87,21,37,7,8,0.7,0.9
2023-03-02T15:00:00,1518A,113.095,27.8867,株洲市,株冶医院,细颗粒物(PM2.5),92,90,144,68,127,160,160,86,86,24,47,8,7,0.7,0.8
2023-03-02T15:00:00,1519A,113.167,27.8667,株洲市,市四中,细颗粒物(PM2.5),94,92,152,70,138,157,157,85,85,16,34,9,10,0.7,0.9
2023-03-02T15:00:00,1520A,113.143,27.8381,株洲市,火车站,细颗粒物(PM2.5),127,105,153,96,146,171,171,86,86,22,41,8,8,0.7,0.9
2023-03-02T15:00:00,1524A,113.13,27.8528,株洲市,市监测站,细颗粒物(PM2.5),117,102,145,88,147,162,162,84,84,22,38,11,12,0.7,0.8
2023-03-02T15:00:00,1552A,106.805,26.3003,贵阳市,桐木岭,,,,,,,,,,,,,,,,
2023-03-02T15:00:00,1559A,113.251,27.8336,株洲市,大京风景区,细颗粒物(PM2.5),90,100,141,67,140,155,155,92,92,9,19,6,6,0.6,0.7
2023-03-02T15:00:00,1562A,113.0048,27.9153,湘潭市,昭山,细颗粒物(PM2.5),127,112,143,96,139,144,144,71,71,27,32,5,5,0.9,1
2023-03-02T15:00:00,1564A,112.4876,27.9164,湘潭市,韶山,细颗粒物(PM2.5),87,106,100,64,80,146,146,108,108,22,20,10,10,0.7,0.8
2023-03-02T15:00:00,1585A,109.8756,40.6532,包头市,市环境监测站,颗粒物(PM10),56,61,47,24,17,90,89,50,50,20,48,26,20,1.0,1
2023-03-02T15:00:00,1587A,109.9991,40.5842,包头市,包头八中,颗粒物(PM10),57,64,66,13,26,102,102,66,66,15,53,10,18,0.4,1
2023-03-02T15:00:00,1588A,109.8538,40.6821,包头市,青山宾馆,颗粒物(PM10),70,89,44,31,21,91,91,47,47,25,45,27,17,1.3,1
2023-03-02T15:00:00,1589A,109.8642,40.6288,包头市,惠龙物流,颗粒物(PM10),66,82,58,41,24,97,97,49,49,18,56,14,21,0.6,1.1
2023-03-02T15:00:00,1590A,110.0377,40.5546,包头市,东河鸿龙湾,,50,50,63,18,26,101,101,56,56,5,42,10,13,0.3,0.8
2023-03-02T15:00:00,1591A,110.0023,39.8129,鄂尔多斯市,综合楼,颗粒物(PM10),60,70,62,17,14,94,92,74,74,14,42,12,15,0.4,0.7
2023-03-02T15:00:00,1592A,109.9486,39.8261,鄂尔多斯市,巴音孟克林场办事处,颗粒物(PM10),53,56,56,14,14,96,96,85,85,8,31,8,13,0.5,0.5
2023-03-02T15:00:00,1593A,109.7736,39.5986,鄂尔多斯市,康泽苑,颗粒物(PM10),54,58,45,14,8,93,89,60,60,13,23,11,8,0.6,0.6
2023-03-02T15:00:00,1594A,109.8119,39.5989,鄂尔多斯市,华泰汽车城,颗粒物(PM10),56,61,47,19,16,98,95,58,58,10,30,10,8,0.4,0.5
2023-03-02T15:00:00,1595A,109.9734,39.7884,鄂尔多斯市,奥林花园,颗粒物(PM10),59,68,69,12,18,100,98,70,70,10,48,10,11,0.4,0.6
2023-03-02T15:00:00,1597A,122.2703,40.7094,营口市,大庆路,颗粒物(PM10),52,53,55,12,19,81,81,63,60,14,22,10,16,0.7,0.8
2023-03-02T15:00:00,1598A,122.2150,40.6511,营口市,镜湖西路,颗粒物(PM10),58,66,51,16,15,85,85,74,66,17,24,10,12,0.6,0.6
2023-03-02T15:00:00,1599A,122.1658,40.6789,营口市,西炮台,颗粒物(PM10),51,52,44,16,14,88,87,75,71,22,24,15,14,0.8,0.6
2023-03-02T15:00:00,1600A,124.3303,40.0625,丹东市,江湾东路,,45,45,47,17,14,94,94,79,79,7,11,13,15,0.6,0.6
2023-03-02T15:00:00,1601A,124.4256,40.1503,丹东市,临江后街,,39,39,41,12,10,92,90,79,76,8,13,12,15,0.5,0.5
2023-03-02T15:00:00,1602A,124.3933,40.1461,丹东市,元宝山,,43,43,47,18,13,87,87,71,71,9,11,13,15,0.7,0.7
2023-03-02T15:00:00,1603A,124.3633,40.1092,丹东市,民主桥,,43,43,43,15,11,87,86,75,75,10,15,12,11,0.5,0.5
2023-03-02T15:00:00,1604A,122.0303,41.1489,盘锦市,开发区,颗粒物(PM10),74,98,52,20,16,82,67,82,64,22,18,12,9,0.9,0.5
2023-03-02T15:00:00,1605A,122.0485,41.0883,盘锦市,兴隆台,,,,50,20,14,78,67,78,61,23,26,13,11,0.8,0.4
2023-03-02T15:00:00,1606A,121.8297,41.1028,盘锦市,新生街道,颗粒物(PM10),64,77,57,21,17,81,70,68,68,30,42,13,11,1.0,0.6
2023-03-02T15:00:00,1607A,120.9092,40.7136,葫芦岛市,龙港区,颗粒物(PM10),100,149,74,25,26,80,62,56,56,31,30,12,62,1.0,0.9
2023-03-02T15:00:00,1608A,120.8392,40.7514,葫芦岛市,化工街,颗粒物(PM10),131,212,90,34,22,77,63,52,52,36,50,14,16,1.1,0.9
2023-03-02T15:00:00,1609A,120.8341,40.7073,葫芦岛市,新区,颗粒物(PM10),92,134,65,27,22,79,63,54,54,34,44,16,19,1.0,0.6
2023-03-02T15:00:00,1610A,120.8695,40.7677,葫芦岛市,东城区,颗粒物(PM10),92,134,65,24,16,81,65,51,51,32,36,14,15,1.2,0.9
2023-03-02T15:00:00,1611A,118.5819,24.9117,泉州市,涂山街,颗粒物(PM10),56,62,56,31,48,191,140,138,138,22,22,10,11,0.5,0.6
2023-03-02T15:00:00,1612A,118.5972,24.8978,泉州市,津头埔,颗粒物(PM10),54,57,55,25,50,185,136,136,136,24,25,10,10,0.5,0.6
2023-03-02T15:00:00,1613A,118.6663,24.9424,泉州市,万安,颗粒物(PM10),57,63,55,26,58,167,141,143,143,20,20,9,10,0.5,0.6
2023-03-02T15:00:00,1614A,118.6117,24.9604,泉州市,清源山,,,,,,,,,,,,,,,,
2023-03-02T15:00:00,1616A,117.6795,36.229,济南市,技术学院,颗粒物(PM10),68,85,83,32,18,113,113,79,79,20,42,12,8,0.6,0.7
2023-03-02T15:00:00,1618A,118.3429,35.0532,临沂市,沂河小区,颗粒物(PM10),60,70,78,29,23,106,101,75,75,19,24,12,8,0.2,0.3
2023-03-02T15:00:00,1619A,118.295,35.0583,临沂市,鲁南制药厂,颗粒物(PM10),54,58,79,25,20,113,107,76,76,22,32,14,13,0.2,0.3
2023-03-02T15:00:00,1620A,118.2794,34.9976,临沂市,新光毛纺厂,颗粒物(PM10),58,66,74,24,18,105,104,76,76,16,26,10,8,0.3,0.4
2023-03-02T15:00:00,1621A,118.3956,35.0888,临沂市,河东保险公司,颗粒物(PM10),54,58,79,23,18,112,111,78,78,24,32,17,11,0.6,0.6
2023-03-02T15:00:00,1622A,116.3032,37.4674,德州市,儿童乐园,颗粒物(PM10),90,129,72,44,20,116,116,71,71,20,30,9,8,0.5,0.4
2023-03-02T15:00:00,1624A,116.2991,37.4451,德州市,监理站,颗粒物(PM10),93,135,75,44,18,109,109,66,66,26,35,10,7,0.5,0.5
2023-03-02T15:00:00,1625A,115.9848,36.4372,聊城市,区政府,颗粒物(PM10),88,125,116,51,31,116,115,69,69,18,32,12,17,0.6,0.6
2023-03-02T15:00:00,1628A,118.0062,37.3803,滨州市,市环保局,颗粒物(PM10),65,79,64,14,18,89,85,54,54,18,40,5,9,0.3,0.6
2023-03-02T15:00:00,1629A,118.0018,37.3617,滨州市,第二水厂,颗粒物(PM10),70,90,69,11,18,92,87,58,58,24,47,3,7,0.2,0.4
2023-03-02T15:00:00,1630A,117.9776,37.393,滨州市,北中新校,颗粒物(PM10),67,84,59,14,14,91,88,59,59,22,37,8,9,0.3,0.4
2023-03-02T15:00:00,1631A,118.0414,36.8103,淄博市,人民公园,颗粒物(PM10),52,53,89,20,31,96,96,59,59,15,49,8,15,0.5,0.7
2023-03-02T15:00:00,1633A,117.8525,36.4847,淄博市,双山,颗粒物(PM10),58,66,71,28,20,104,104,72,72,15,33,11,14,0.5,0.6
2023-03-02T15:00:00,1634A,117.9592,36.6331,淄博市,气象站,颗粒物(PM10),53,56,88,14,25,107,107,72,72,17,42,11,17,0.4,0.6
2023-03-02T15:00:00,1635A,118.3092,36.8194,淄博市,莆田园,颗粒物(PM10),54,58,87,12,20,93,93,71,71,15,61,12,14,0.7,1.6
2023-03-02T15:00:00,1637A,117.558,34.8438,枣庄市,市中区政府,,,68,99,29,28,125,,70,70,18,36,8,10,0.7,0.8
2023-03-02T15:00:00,1638A,117.2852,34.7837,枣庄市,薛城环保局,颗粒物(PM10),64,78,93,31,32,120,118,84,84,23,39,12,14,0.6,0.7
2023-03-02T15:00:00,1639A,117.5852,34.7745,枣庄市,峄城区政府,颗粒物(PM10),60,70,91,19,22,113,112,83,83,18,35,10,15,0.4,0.5
2023-03-02T15:00:00,1640A,117.7276,34.5578,枣庄市,台儿庄区环保局,颗粒物(PM10),56,61,86,22,34,116,111,75,75,23,37,8,13,0.8,0.9
2023-03-02T15:00:00,1641A,117.4518,35.0992,枣庄市,山亭区环保局,颗粒物(PM10),58,66,74,24,24,121,116,96,96,27,28,15,11,0.7,0.6
2023-03-02T15:00:00,1642A,121.2514,37.5639,烟台市,开发区,,31,31,56,9,19,87,72,57,57,20,34,10,10,0.3,0.5
2023-03-02T15:00:00,1643A,121.3719,37.5433,烟台市,轴承厂,,34,34,54,2,12,100,90,71,71,7,28,4,7,0.3,0.5
2023-03-02T15:00:00,1644A,121.3181,37.5436,烟台市,西郊化工站,,41,41,63,7,15,93,86,69,69,10,28,5,7,0.7,0.9
2023-03-02T15:00:00,1645A,121.4478,37.4822,烟台市,莱山环保局,,,29,49,6,18,104,86,70,66,,24,,11,0.7,0.8
2023-03-02T15:00:00,1646A,121.2611,37.4967,烟台市,福山环保局,,31,31,58,0,18,99,92,66,66,12,30,6,8,0.7,0.9
2023-03-02T15:00:00,1650A,119.1437,36.7023,潍坊市,环保局,,34,34,57,10,18,90,90,64,64,11,35,4,7,0.4,0.5
2023-03-02T15:00:00,1653A,116.6251,35.4302,济宁市,火炬城,颗粒物(PM10),54,57,83,29,33,124,106,81,81,21,36,8,10,0.6,0.6
2023-03-02T15:00:00,1655A,116.5491,35.4042,济宁市,电化厂,颗粒物(PM10),55,60,88,36,36,123,100,79,79,14,24,7,8,0.5,0.6
2023-03-02T15:00:00,1656A,117.1437,36.1937,泰安市,监测站,颗粒物(PM10),63,75,84,28,20,106,103,66,66,9,19,2,4,0.6,0.7
2023-03-02T15:00:00,1657A,117.0885,36.2017,泰安市,人口学校,颗粒物(PM10),62,73,84,25,19,118,113,76,76,16,18,10,10,0.9,0.9
2023-03-02T15:00:00,1658A,117.1089,36.1758,泰安市,电力学校,,,73,86,28,18,111,108,66,66,13,27,10,10,,0.8
2023-03-02T15:00:00,1659A,119.471,35.4209,日照市,监测站,颗粒物(PM10),56,61,67,21,18,111,80,63,50,16,30,11,9,1.0,0.6
2023-03-02T15:00:00,1660A,119.523,35.4216,日照市,市政府广场,颗粒物(PM10),62,73,61,17,16,110,74,75,59,19,18,6,6,0.7,0.6
2023-03-02T15:00:00,1661A,119.5587,35.4044,日照市,港务局,颗粒物(PM10),56,61,63,18,16,116,79,78,68,29,26,8,8,0.5,0.5
2023-03-02T15:00:00,1662A,122.1214,37.4236,威海市,华夏技校,,28,19,55,5,15,100,89,78,76,7,16,1,3,0.2,0.3
2023-03-02T15:00:00,1663A,122.0508,37.5236,威海市,山大分校,,29,20,58,5,12,91,91,74,68,4,12,1,4,0.1,0.2
2023-03-02T15:00:00,1664A,122.1067,37.5072,威海市,市监测站,,,20,60,22,13,86,86,77,69,,22,2,8,0.2,0.4
2023-03-02T15:00:00,1666A,118.6614,37.4309,东营市,市环保局,颗粒物(PM10),52,53,48,12,13,103,101,72,72,15,23,12,13,0.6,0.6
2023-03-02T15:00:00,1669A,113.5824,24.7733,韶关市,市八中,颗粒物(PM10),51,52,60,33,41,165,135,108,108,11,17,13,15,0.5,0.6
2023-03-02T15:00:00,1671A,113.5917,24.7972,韶关市,园林处,,47,47,60,30,44,142,128,107,107,7,12,13,15,0.7,0.7
2023-03-02T15:00:00,1672A,113.6735,24.7791,韶关市,韶关学院,颗粒物(PM10),52,53,65,32,46,175,148,106,106,14,26,10,11,0.7,0.8
2023-03-02T15:00:00,1673A,113.5971,24.6863,韶关市,曲江监测站,,50,44,59,35,42,182,152,108,102,9,22,10,14,0.6,0.7
2023-03-02T15:00:00,1674A,116.6794,23.3667,汕头市,金平子站,,,,41,,35,156,,126,126,21,21,14,13,,0.6
2023-03-02T15:00:00,1675A,116.7244,23.3633,汕头市,龙湖子站,细颗粒物(PM2.5),74,87,53,54,34,166,166,134,134,22,21,4,4,0.7,0.6
2023-03-02T15:00:00,1676A,116.7258,23.2775,汕头市,濠江子站,细颗粒物(PM2.5),98,87,50,73,35,167,167,135,135,21,18,11,11,0.8,0.6
2023-03-02T15:00:00,1677A,116.7519,23.4714,汕头市,澄海子站,细颗粒物(PM2.5),98,101,49,73,46,180,180,132,132,23,25,7,9,0.8,0.7
2023-03-02T15:00:00,1678A,116.6092,23.2539,汕头市,潮阳子站,细颗粒物(PM2.5),69,82,52,50,30,149,139,118,118,19,18,7,7,0.7,0.6
2023-03-02T15:00:00,1680A,110.3539,21.2706,湛江市,湛江影剧院,臭氧1小时,74,74,74,48,48,188,179,115,115,16,29,9,22,0.6,0.7
2023-03-02T15:00:00,1681A,110.3928,21.2228,湛江市,市环境监测站,细颗粒物(PM2.5),75,77,70,55,60,179,179,116,116,16,26,10,26,0.6,0.7
2023-03-02T15:00:00,1682A,110.4019,21.1997,湛江市,环保局宿舍,臭氧1小时,88,69,65,47,50,196,190,135,135,15,25,7,23,0.6,0.7
2023-03-02T15:00:00,1683A,110.4111,21.2028,湛江市,霞山游泳场,臭氧1小时,93,72,67,51,52,200,194,123,123,15,27,7,17,0.6,0.6
2023-03-02T15:00:00,1684A,110.3316,21.2679,湛江市,麻章区环保局,臭氧1小时,87,86,74,52,52,194,189,116,116,17,27,8,29,0.6,0.6
2023-03-02T15:00:00,1685A,110.4558,21.2567,湛江市,坡头区环保局,臭氧1小时,80,75,64,49,54,191,184,121,121,14,22,10,21,0.6,0.6
2023-03-02T15:00:00,1686A,111.0286,21.4688,茂名市,电白南海,臭氧1小时,105,97,74,53,41,227,210,129,129,24,30,8,11,0.6,0.6
2023-03-02T15:00:00,1687A,110.9294,21.6533,茂名市,茂石化七小,臭氧1小时,88,75,68,48,44,190,190,117,117,19,19,12,19,0.7,0.6
2023-03-02T15:00:00,1688A,110.9107,21.6687,茂名市,健康路,臭氧1小时,79,66,62,42,35,183,183,114,114,16,20,16,23,0.7,0.7
2023-03-02T15:00:00,1689A,110.8592,21.6828,茂名市,高岭,臭氧1小时,87,95,79,51,49,189,189,111,111,20,25,14,21,0.7,0.8
2023-03-02T15:00:00,1690A,116.1231,24.3284,梅州市,梅江月梅,细颗粒物(PM2.5),54,53,54,38,40,144,144,106,96,11,22,10,12,0.6,0.6
2023-03-02T15:00:00,1691A,116.0797,24.2719,梅州市,梅县新城,,,,57,,44,145,140,91,81,14,38,,10,0.6,0.8
2023-03-02T15:00:00,1692A,116.1248,24.2654,梅州市,环境监控中心,细颗粒物(PM2.5),58,56,64,41,46,155,150,94,94,13,38,12,14,0.7,0.7
2023-03-02T15:00:00,1693A,115.3653,22.775,汕尾市,市环保局,细颗粒物(PM2.5),78,77,49,57,36,170,168,114,114,16,14,11,10,0.7,0.7
2023-03-02T15:00:00,1694A,115.3706,22.7898,汕尾市,市政府,细颗粒物(PM2.5),80,22,47,59,63,177,177,118,118,16,21,11,10,0.7,0.5
2023-03-02T15:00:00,1695A,115.3622,22.7925,汕尾市,新城中学,,,92,57,53,38,171,105,100,100,13,15,,7,0.7,0.8
2023-03-02T15:00:00,1696A,114.6778,23.7569,河源市,源西,,,,65,,36,102,,110,,,26,,9,,0.7
2023-03-02T15:00:00,1697A,114.6944,23.7586,河源市,东埔,,49,49,62,31,40,166,142,119,119,10,15,8,9,0.6,0.6
2023-03-02T15:00:00,1698A,114.6892,23.7233,河源市,老城,颗粒物(PM10),56,61,73,34,43,169,144,119,119,10,17,8,9,0.7,0.7
2023-03-02T15:00:00,1699A,111.9797,21.8593,阳江市,鸳鸯湖,臭氧1小时,68,64,51,37,43,178,174,121,121,12,20,9,10,0.7,0.8
2023-03-02T15:00:00,1701A,111.9491,21.8658,阳江市,马南垌,臭氧1小时,68,83,70,37,35,178,174,118,118,15,25,8,8,0.5,0.6
2023-03-02T15:00:00,1702A,113.0426,23.691,清远市,环保大楼,臭氧1小时,58,46,57,38,46,224,166,131,131,13,20,8,11,0.7,0.8
2023-03-02T15:00:00,1703A,113.0208,23.7106,清远市,凤城街办,细颗粒物(PM2.5),54,54,67,38,46,183,137,105,105,12,24,8,8,0.5,0.7
2023-03-02T15:00:00,1705A,116.6367,23.6719,潮州市,西园路,细颗粒物(PM2.5),97,87,59,72,68,166,166,90,90,20,22,5,4,0.6,0.5
2023-03-02T15:00:00,1706A,116.6447,23.6706,潮州市,档案局,细颗粒物(PM2.5),118,92,59,89,67,178,178,92,92,21,26,11,9,0.6,0.6
2023-03-02T15:00:00,1708A,116.3701,23.5345,揭阳市,新兴,细颗粒物(PM2.5),78,65,55,57,52,158,158,97,97,14,22,12,12,0.7,0.9
2023-03-02T15:00:00,1709A,116.3264,23.5443,揭阳市,西马,细颗粒物(PM2.5),63,61,63,45,48,165,165,106,106,14,19,12,13,0.6,0.7
2023-03-02T15:00:00,1710A,116.3611,23.5626,揭阳市,东兴,臭氧1小时,69,62,61,45,48,175,175,117,117,16,24,10,11,0.8,0.9
2023-03-02T15:00:00,1711A,116.4151,23.5294,揭阳市,渔湖,细颗粒物(PM2.5),68,61,62,49,40,155,155,97,97,16,23,12,14,0.7,0.8
2023-03-02T15:00:00,1712A,112.0392,22.9169,云浮市,新市府,细颗粒物(PM2.5),73,61,57,53,45,186,160,104,104,15,19,7,5,0.8,0.8
2023-03-02T15:00:00,1714A,112.0539,22.9539,云浮市,牧羊,细颗粒物(PM2.5),60,68,79,43,46,179,156,102,102,14,42,12,17,0.7,0.7
2023-03-02T15:00:00,1715A,102.575,24.3711,玉溪市,东风水库,颗粒物(PM10),55,59,63,33,51,126,126,97,95,10,14,8,7,0.8,0.7
2023-03-02T15:00:00,1718A,115.4208,35.2464,菏泽市,气象局,颗粒物(PM10),84,118,121,53,52,130,130,81,81,22,43,13,12,0.5,0.6
2023-03-02T15:00:00,1719A,115.4747,35.2375,菏泽市,市政协,颗粒物(PM10),79,107,119,42,50,137,137,86,86,30,48,11,11,0.6,0.7
2023-03-02T15:00:00,1721A,113.3819,40.1097,大同市,果树场,,,,,,,,,,,,,,,,
2023-03-02T15:00:00,1723A,113.2994,40.0758,大同市,云冈宾馆,,38,38,62,10,19,99,99,52,52,12,37,10,17,0.1,0.7
2023-03-02T15:00:00,1724A,113.3444,40.0917,大同市,大同大学,,38,38,49,3,17,91,91,59,59,10,30,8,18,0.5,0.8
2023-03-02T15:00:00,1725A,113.2661,40.1269,大同市,安家小村,颗粒物(PM10),53,56,88,7,28,91,91,54,54,2,29,7,14,0.3,1.1
2023-03-02T15:00:00,1726A,113.2711,40.0844,大同市,教育学院,,39,39,84,8,24,85,85,49,49,13,40,8,19,0.3,1.3
2023-03-02T15:00:00,1727A,113.1147,36.1547,长治市,清华站,,50,50,83,22,43,110,106,77,77,10,36,8,11,0.5,1.5
2023-03-02T15:00:00,1728A,113.1031,36.1989,长治市,监测站,,41,41,70,17,41,104,97,67,67,13,35,5,10,0.7,2.3
2023-03-02T15:00:00,1730A,113.0886,36.2125,长治市,审计局,,38,38,74,17,41,106,99,64,64,9,34,7,13,0.2,1.6
2023-03-02T15:00:00,1731A,113.0844,36.1856,长治市,长治八中,,47,47,92,11,35,107,100,68,68,6,33,5,9,0.5,1.1
2023-03-02T15:00:00,1733A,111.5531,36.0783,临汾市,临钢医院,颗粒物(PM10),60,69,86,30,30,110,110,49,49,16,37,8,7,0.5,0.6
2023-03-02T15:00:00,1734A,111.5028,36.0714,临汾市,技工学校,,,83,82,40,32,83,,31,31,18,39,14,10,1.1,0.5
2023-03-02T15:00:00,1736A,111.5018,36.0855,临汾市,市委,颗粒物(PM10),68,86,83,38,28,108,108,51,51,19,37,8,6,0.9,0.7
2023-03-02T15:00:00,1738A,113.5758,37.8572,阳泉市,市中心,,42,42,69,14,21,81,81,43,43,18,50,13,14,0.5,0.6
2023-03-02T15:00:00,1739A,113.4894,37.8731,阳泉市,赛鱼,,,41,62,17,15,89,84,54,54,26,53,,12,0.6,0.6
2023-03-02T15:00:00,1740A,113.5819,37.8486,阳泉市,南庄,颗粒物(PM10),54,57,65,14,24,93,86,49,49,18,41,14,14,0.5,0.7
2023-03-02T15:00:00,1742A,113.5614,37.8703,阳泉市,平坦,颗粒物(PM10),54,57,67,18,17,93,84,53,53,20,58,14,15,0.5,0.8
2023-03-02T15:00:00,1743A,113.5158,37.8392,阳泉市,大阳泉,,47,47,42,11,20,88,87,68,68,19,26,14,11,0.4,0.5
2023-03-02T15:00:00,1744A,118.9233,42.2816,赤峰市,松山一中,,42,42,45,6,9,87,80,65,65,14,25,9,11,0.5,0.8
2023-03-02T15:00:00,1745A,118.9576,42.2728,赤峰市,哈达街,,30,30,38,10,10,85,78,64,64,14,20,10,11,0.4,0.6
2023-03-02T15:00:00,1746A,118.8788,42.2554,赤峰市,天义路,,36,36,41,8,6,82,81,72,72,12,19,12,12,0.4,0.5
2023-03-02T15:00:00,1748A,123.044,41.1196,鞍山市,深沟寺,颗粒物(PM10),67,83,59,18,20,86,86,71,71,11,18,11,14,0.7,0.8
2023-03-02T15:00:00,1749A,123.011,41.0931,鞍山市,太阳城,颗粒物(PM10),61,72,62,16,19,85,85,70,70,13,29,12,18,0.7,1.1
2023-03-02T15:00:00,1750A,123.0485,41.1442,鞍山市,太平,颗粒物(PM10),73,95,69,15,22,73,73,60,60,14,24,13,18,0.8,0.9
2023-03-02T15:00:00,1751A,122.9642,41.0971,鞍山市,铁西三道街,颗粒物(PM10),69,88,79,14,23,84,84,70,61,13,28,7,17,0.9,1.1
2023-03-02T15:00:00,1752A,122.9341,41.0833,鞍山市,铁西工业园区,颗粒物(PM10),74,97,82,16,30,81,81,69,69,13,36,12,18,0.8,1
2023-03-02T15:00:00,1753A,123.022,41.0821,鞍山市,明达新区,颗粒物(PM10),65,80,55,14,19,88,88,75,75,14,26,10,13,0.7,0.8
2023-03-02T15:00:00,1754A,123.1289,41.0228,鞍山市,千山,,,,,,,,,,,,,,,,
2023-03-02T15:00:00,1755A,123.7977,41.8491,抚顺市,望花区,颗粒物(PM10),87,124,75,20,24,84,71,61,61,22,20,12,7,1.2,0.8
2023-03-02T15:00:00,1756A,123.9161,41.8822,抚顺市,顺城区,颗粒物(PM10),69,87,71,18,19,102,84,81,70,17,14,15,8,0.9,0.5
2023-03-02T15:00:00,1757A,124.0436,41.8611,抚顺市,东洲区,颗粒物(PM10),68,86,47,15,20,94,85,74,74,12,11,17,11,0.7,0.6
2023-03-02T15:00:00,1758A,123.9247,41.8642,抚顺市,新抚区,颗粒物(PM10),72,94,76,21,23,83,74,70,64,19,18,16,9,1.1,0.7
2023-03-02T15:00:00,1759A,124.0972,41.8961,抚顺市,大伙房水库,颗粒物(PM10),64,77,76,16,18,103,92,83,83,13,9,13,7,0.7,0.5
2023-03-02T15:00:00,1760A,123.7086,41.8391,抚顺市,沈抚新城,颗粒物(PM10),105,159,84,18,22,86,81,65,65,14,23,13,11,0.7,0.5
2023-03-02T15:00:00,1761A,123.8275,41.3064,本溪市,大峪,,45,45,56,11,10,79,79,63,63,9,15,7,7,0.7,0.8
2023-03-02T15:00:00,1762A,123.7567,41.3325,本溪市,溪湖,颗粒物(PM10),55,60,67,16,16,86,81,62,58,16,24,19,22,0.8,0.9
2023-03-02T15:00:00,1763A,123.7169,41.3094,本溪市,彩屯,颗粒物(PM10),53,55,62,9,18,82,79,66,60,16,23,19,19,0.9,0.9
2023-03-02T15:00:00,1764A,123.7669,41.2864,本溪市,东明,颗粒物(PM10),63,76,70,13,17,80,77,63,63,18,26,13,16,0.6,0.7
2023-03-02T15:00:00,1765A,123.7992,41.2664,本溪市,新立屯,,50,50,59,10,13,83,82,70,70,12,23,10,9,0.6,0.7
2023-03-02T15:00:00,1766A,123.8142,41.3472,本溪市,威宁,颗粒物(PM10),58,66,86,13,17,77,68,53,53,22,28,23,11,1.2,0.8
2023-03-02T15:00:00,1767A,121.1115,41.0879,锦州市,南山,颗粒物(PM10),71,92,79,35,29,89,68,78,60,36,23,19,17,0.8,0.7
2023-03-02T15:00:00,1768A,121.0533,40.8434,锦州市,开发区,颗粒物(PM10),123,196,98,39,29,78,55,51,51,42,47,13,29,1.2,0.8
2023-03-02T15:00:00,1769A,121.1836,41.1119,锦州市,百股街道,颗粒物(PM10),86,121,93,32,17,87,63,58,58,40,22,17,14,1.3,0.4
2023-03-02T15:00:00,1770A,121.1178,41.1222,锦州市,天安街道,颗粒物(PM10),69,87,72,23,22,91,65,78,55,34,20,18,17,1.1,0.7
2023-03-02T15:00:00,1771A,121.1303,41.1386,锦州市,北湖公园,颗粒物(PM10),69,87,66,24,22,86,61,79,57,36,20,19,23,1.1,0.7
2023-03-02T15:00:00,1772A,126.54,43.8622,吉林市,哈达湾,,28,18,35,7,15,89,87,71,71,6,15,6,7,0.3,0.4
2023-03-02T15:00:00,1773A,126.5844,43.8358,吉林市,东局子,,27,15,32,8,16,85,85,71,71,10,16,6,7,0.4,0.5
2023-03-02T15:00:00,1774A,126.5052,43.8245,吉林市,电力学院,,29,13,33,12,16,92,92,75,75,6,11,6,8,0.5,0.6
2023-03-02T15:00:00,1775A,126.6133,43.8972,吉林市,江北,,28,19,46,10,23,87,87,72,72,10,19,10,11,0.4,0.6
2023-03-02T15:00:00,1776A,126.555,43.8306,吉林市,江南公园,,29,15,32,7,16,90,90,71,71,7,18,6,7,0.4,0.6
2023-03-02T15:00:00,1778A,126.7061,43.7133,吉林市,丰满,,,,,,,,,,,,,,,,
2023-03-02T15:00:00,1779A,123.9305,47.3636,齐齐哈尔市,安居小区,,49,49,30,21,18,102,102,80,80,6,10,6,6,0.3,0.3
2023-03-02T15:00:00,1780A,123.9488,47.3386,齐齐哈尔市,中心广场,,42,42,29,10,8,84,84,72,67,10,13,6,6,0.4,0.4
2023-03-02T15:00:00,1781A,123.9483,47.3227,齐齐哈尔市,农牧车辆厂,颗粒物(PM10),56,61,36,10,15,77,77,62,62,19,18,6,7,0.4,0.4
2023-03-02T15:00:00,1783A,123.945,47.2988,齐齐哈尔市,市环境监测站,颗粒物(PM10),56,61,38,24,19,89,89,73,73,10,18,7,8,0.4,0.4
2023-03-02T15:00:00,1784A,129.61,44.561,牡丹江市,环保大楼,,25,20,29,12,24,83,80,80,80,8,11,3,3,0.3,0.3
2023-03-02T15:00:00,1785A,129.6115,44.5782,牡丹江市,文化广场,,29,29,30,18,24,76,74,73,73,11,16,2,3,0.3,0.3
2023-03-02T15:00:00,1786A,129.5904,44.5963,牡丹江市,第一医院,,26,16,30,10,24,83,81,80,80,7,10,2,3,0.3,0.3
2023-03-02T15:00:00,1787A,129.6364,44.6075,牡丹江市,机车工厂,,25,10,33,9,20,80,78,77,77,10,12,3,3,0.2,0.3
2023-03-02T15:00:00,1788A,129.6386,44.5462,牡丹江市,第一中学,,26,16,28,7,21,82,81,80,80,6,10,1,2,0.2,0.3
2023-03-02T15:00:00,1789A,124.81117,46.03138,大庆市,大同区,,,,39,11,24,78,68,59,59,9,13,4,6,0.4,0.5
2023-03-02T15:00:00,1790A,125.129,46.533,大庆市,龙凤区,,32,32,27,9,22,84,72,62,58,12,20,6,7,0.4,0.6
2023-03-02T15:00:00,1791A,124.902,46.408,大庆市,红岗区,,32,32,26,12,16,82,74,64,63,9,15,6,7,0.3,0.4
2023-03-02T15:00:00,1792A,125.153,46.586,大庆市,萨尔图区,,32,32,28,19,22,78,64,56,52,15,23,10,8,0.4,0.5
2023-03-02T15:00:00,1793A,124.9042,46.6215,大庆市,让胡路区,,,,27,10,20,90,82,72,64,8,16,4,5,0.3,0.3
2023-03-02T15:00:00,1794A,118.3606,31.3519,芜湖市,监测站,颗粒物(PM10),68,86,133,47,92,149,141,104,104,21,55,9,11,0.6,0.9
2023-03-02T15:00:00,1795A,118.3714,31.4134,芜湖市,科创中心,细颗粒物(PM2.5),74,83,130,54,98,146,137,103,103,24,48,9,10,0.6,0.9
2023-03-02T15:00:00,1796A,118.3673,31.3131,芜湖市,四水厂,颗粒物(PM10),73,95,137,52,89,149,141,112,112,27,44,10,11,0.6,0.8
2023-03-02T15:00:00,1798A,118.5092,31.6837,马鞍山市,湖东路四小,细颗粒物(PM2.5),59,56,87,42,84,163,135,111,111,16,32,9,10,0.5,0.9
2023-03-02T15:00:00,1799A,118.5024,31.6449,马鞍山市,开发区,细颗粒物(PM2.5),68,78,103,49,87,162,134,107,107,22,38,10,11,0.8,0.9
2023-03-02T15:00:00,1800A,118.5228,31.7231,马鞍山市,慈湖,细颗粒物(PM2.5),57,62,110,40,91,155,132,107,107,15,36,9,11,0.5,0.9
2023-03-02T15:00:00,1802A,118.6245,31.7241,马鞍山市,濮塘,颗粒物(PM10),62,74,115,29,66,161,128,107,102,14,23,5,6,0.8,1
2023-03-02T15:00:00,1803A,115.9872,29.6815,九江市,十里,细颗粒物(PM2.5),93,97,106,69,70,152,152,111,111,23,44,10,12,0.6,1
2023-03-02T15:00:00,1804A,115.9584,29.7046,九江市,茅山头,细颗粒物(PM2.5),77,68,103,56,74,145,145,114,110,20,38,10,13,0.6,0.8
2023-03-02T15:00:00,1805A,115.9877,29.7295,九江市,西园,细颗粒物(PM2.5),77,86,93,56,72,144,144,109,109,27,37,9,10,0.7,0.8
2023-03-02T15:00:00,1806A,116.0172,29.6547,九江市,五七二七厂,细颗粒物(PM2.5),82,58,91,60,73,141,141,112,110,28,29,10,12,0.6,0.7
2023-03-02T15:00:00,1808A,115.9114,29.6038,九江市,综合工业园,细颗粒物(PM2.5),104,93,100,78,85,137,128,124,99,48,52,13,14,0.9,1
2023-03-02T15:00:00,1809A,116.0721,29.7535,九江市,石化总厂,细颗粒物(PM2.5),84,98,106,62,69,145,145,106,106,22,53,11,12,0.7,0.9
2023-03-02T15:00:00,1810A,115.9773,29.5698,九江市,庐山气象台,细颗粒物(PM2.5),90,68,71,67,67,132,124,127,112,25,31,9,10,0.4,0.7
2023-03-02T15:00:00,1812A,112.3931,34.6516,洛阳市,市委党校,颗粒物(PM10),80,109,104,48,42,105,105,62,62,27,48,14,12,0.7,0.7
2023-03-02T15:00:00,1814A,112.4657,34.6871,洛阳市,豫西宾馆,"颗粒物(PM10),细颗粒物(PM2.5)",69,87,96,50,51,110,110,69,69,19,35,9,8,0.8,0.4
2023-03-02T15:00:00,1815A,112.494,34.6886,洛阳市,河南林校,细颗粒物(PM2.5),73,90,105,53,53,116,116,68,68,21,38,10,9,0.6,0.7
2023-03-02T15:00:00,1816A,112.3844,34.623,洛阳市,开发区管委会,颗粒物(PM10),71,92,90,51,44,108,108,60,60,26,37,11,9,0.4,0.4
2023-03-02T15:00:00,1817A,112.4267,34.6258,洛阳市,市委新办公区,细颗粒物(PM2.5),89,100,87,66,49,103,103,59,59,29,34,12,9,0.5,0.5
2023-03-02T15:00:00,1818A,114.4839,36.0621,安阳市,棉研所,,,,,,,,,,,,,,,,
2023-03-02T15:00:00,1819A,114.3551,36.1017,安阳市,红庙街,,,,100,,54,124,124,65,65,,51,16,11,,1
2023-03-02T15:00:00,1820A,114.361,36.0681,安阳市,银杏小区,细颗粒物(PM2.5),97,102,94,72,47,125,125,65,65,25,43,16,13,0.5,0.7
2023-03-02T15:00:00,1824A,114.3389,34.7781,开封市,肿瘤医院,细颗粒物(PM2.5),88,118,127,65,78,139,132,76,76,18,56,11,21,0.9,1
2023-03-02T15:00:00,1826A,114.2885,34.7965,开封市,世纪星幼儿园,细颗粒物(PM2.5),97,117,124,72,79,139,139,82,82,15,50,15,19,0.8,1
2023-03-02T15:00:00,1828A,113.227,35.2125,焦作市,市环保局,细颗粒物(PM2.5),82,100,119,60,69,114,113,88,88,18,27,12,14,0.6,0.8
2023-03-02T15:00:00,1830A,113.1992,35.2590,焦作市,影视城,,,,,,,,,,,,,,,,
2023-03-02T15:00:00,1832A,113.3257,33.742,平顶山市,新华旅馆,细颗粒物(PM2.5),73,93,123,53,63,138,138,70,70,18,61,9,8,0.7,0.8
2023-03-02T15:00:00,1833A,113.2919,33.737,平顶山市,规划设计院,颗粒物(PM10),78,105,128,52,72,144,144,74,74,15,49,7,7,0.5,0.7
2023-03-02T15:00:00,1834A,113.182,33.774,平顶山市,平顶山工学院,颗粒物(PM10),83,116,135,48,66,141,141,79,79,12,34,6,6,0.5,0.6
2023-03-02T15:00:00,1835A,111.1922,34.7752,三门峡市,市政府,细颗粒物(PM2.5),67,75,77,48,30,120,120,74,74,18,42,10,13,0.4,0.5
2023-03-02T15:00:00,1836A,111.1587,34.7942,三门峡市,开发区,颗粒物(PM10),73,96,91,39,28,121,121,75,75,17,31,15,16,0.4,0.5
2023-03-02T15:00:00,1838A,111.143,34.7955,三门峡市,风景区,,,,,,,,,,,,,,,,
2023-03-02T15:00:00,1840A,111.2992,30.6981,宜昌市,白龙岗,细颗粒物(PM2.5),104,127,111,78,60,138,138,61,61,29,41,8,7,0.7,0.7
2023-03-02T15:00:00,1841A,111.3549,30.6465,宜昌市,伍家岗,细颗粒物(PM2.5),117,129,121,88,69,137,137,67,67,26,49,12,10,0.7,0.8
2023-03-02T15:00:00,1842A,111.2628,30.6961,宜昌市,点军区,细颗粒物(PM2.5),100,128,111,75,63,124,124,47,47,29,36,10,7,0.7,0.7
2023-03-02T15:00:00,1843A,111.3275,30.7819,宜昌市,夷陵区,细颗粒物(PM2.5),94,105,99,70,55,138,138,59,59,25,39,10,8,0.5,0.5
2023-03-02T15:00:00,1844A,112.2494,30.3197,荆州市,市图书馆,细颗粒物(PM2.5),124,105,122,94,91,160,160,104,104,21,35,8,11,0.6,0.7
2023-03-02T15:00:00,1845A,112.2008,30.3544,荆州市,市委党校,细颗粒物(PM2.5),119,95,126,90,83,156,155,109,109,19,37,8,12,0.6,0.9
2023-03-02T15:00:00,1847A,113.1094,29.3578,岳阳市,南湖风景区,细颗粒物(PM2.5),142,125,144,108,111,157,157,101,101,27,48,9,11,0.6,0.9
2023-03-02T15:00:00,1848A,113.1493,29.4251,岳阳市,城陵矶,细颗粒物(PM2.5),129,131,165,98,123,137,137,82,82,38,78,14,9,1.1,1
2023-03-02T15:00:00,1849A,113.1497,29.3575,岳阳市,开发区,细颗粒物(PM2.5),192,144,177,144,158,148,148,83,83,27,57,14,11,1.0,1.3
2023-03-02T15:00:00,1850A,113.2621,29.4758,岳阳市,云溪区,,,,152,,104,153,153,96,96,26,47,10,11,0.7,1
2023-03-02T15:00:00,1851A,112.9943,29.4402,岳阳市,君山区,细颗粒物(PM2.5),156,125,146,119,125,165,165,107,107,23,45,11,11,0.9,1
2023-03-02T15:00:00,1852A,113.2117,29.355,岳阳市,金凤水库,细颗粒物(PM2.5),140,191,171,107,116,144,144,89,89,23,36,5,6,0.9,1
2023-03-02T15:00:00,1854A,111.6975,28.9703,常德市,市二中,细颗粒物(PM2.5),166,181,110,126,77,157,157,72,72,19,27,12,7,0.7,0.7
2023-03-02T15:00:00,1857A,111.7158,29.1456,常德市,白鹤山,细颗粒物(PM2.5),109,152,123,82,80,160,160,108,108,12,17,9,7,0.9,0.9
2023-03-02T15:00:00,1858A,110.5319,29.1217,张家界市,永定新区,细颗粒物(PM2.5),84,107,78,62,57,113,113,39,39,19,25,7,4,0.5,0.6
2023-03-02T15:00:00,1859A,110.4697,29.1242,张家界市,电业局,细颗粒物(PM2.5),84,106,77,62,54,96,96,32,32,24,26,7,5,0.6,0.9
2023-03-02T15:00:00,1860A,110.5594,29.3547,张家界市,未央路,颗粒物(PM10),86,122,80,56,50,118,118,62,62,11,17,8,5,0.6,0.6
2023-03-02T15:00:00,1861A,110.4417,29.315,张家界市,袁家界,颗粒物(PM10),79,107,83,48,46,115,113,108,108,21,17,9,9,0.5,0.6
2023-03-02T15:00:00,1862A,110.4144,25.3167,桂林市,电子科大尧山校区,细颗粒物(PM2.5),67,63,65,48,51,131,131,126,119,10,11,6,8,0.8,0.8
2023-03-02T15:00:00,1863A,110.2819,25.2697,桂林市,监测站,细颗粒物(PM2.5),84,74,86,62,75,138,138,116,116,10,13,7,11,0.6,0.7
2023-03-02T15:00:00,1864A,110.3089,25.2708,桂林市,龙隐路小学,细颗粒物(PM2.5),85,77,78,63,74,136,136,118,118,11,14,9,13,0.6,0.6
2023-03-02T15:00:00,1865A,110.2869,25.2178,桂林市,八中,细颗粒物(PM2.5),83,74,76,61,73,138,138,115,115,13,17,6,10,0.3,0.4
2023-03-02T15:00:00,1866A,109.2262,21.588,北海市,牛尾岭水库,细颗粒物(PM2.5),84,76,47,62,30,109,55,109,46,15,18,10,9,0.8,0.6
2023-03-02T15:00:00,1867A,109.1436,21.4086,北海市,海滩公园,细颗粒物(PM2.5),85,90,66,63,43,169,169,102,102,14,13,12,9,1.0,0.7
2023-03-02T15:00:00,1868A,109.0981,21.4661,北海市,新市环保局,细颗粒物(PM2.5),83,84,57,61,43,174,174,104,104,15,14,9,8,0.7,0.6
2023-03-02T15:00:00,1869A,109.1778,21.5233,北海市,北海工业园,细颗粒物(PM2.5),80,90,68,59,46,172,172,99,99,14,14,13,10,0.9,0.7
2023-03-02T15:00:00,1870A,109.4856,24.3895,柳州市,柳东小学,细颗粒物(PM2.5),90,64,81,67,70,138,129,96,96,8,9,8,11,1.0,0.9
2023-03-02T15:00:00,1871A,109.4157,24.3277,柳州市,环保监测站,细颗粒物(PM2.5),87,80,78,64,60,138,120,89,89,18,18,14,10,0.9,0.7
2023-03-02T15:00:00,1872A,109.389,24.341,柳州市,河西水厂,细颗粒物(PM2.5),84,85,88,62,68,129,113,80,80,19,30,15,17,1.2,1.5
2023-03-02T15:00:00,1873A,109.4311,24.2921,柳州市,市四中,细颗粒物(PM2.5),82,92,70,60,61,131,131,96,96,17,15,15,12,0.8,0.7
2023-03-02T15:00:00,1874A,109.4006,24.3631,柳州市,市九中,,,85,81,61,63,129,113,84,84,19,20,,13,1.0,0.9
2023-03-02T15:00:00,1875A,109.4958,24.3134,柳州市,古亭山,细颗粒物(PM2.5),70,77,68,51,54,147,131,96,96,10,10,6,7,0.6,0.6
2023-03-02T15:00:00,1876A,109.5078,18.2489,三亚市,河东子站,臭氧1小时,53,50,38,34,21,162,162,111,111,10,10,4,2,0.4,0.4
2023-03-02T15:00:00,1877A,109.4964,18.2681,三亚市,河西子站,臭氧1小时,54,42,35,33,20,163,163,111,111,8,8,4,3,0.4,0.3
2023-03-02T15:00:00,1878A,104.7778,31.4741,绵阳市,富乐山,细颗粒物(PM2.5),68,65,61,49,39,108,82,81,68,7,10,3,4,0.5,0.4
2023-03-02T15:00:00,1879A,104.7563,31.4535,绵阳市,市人大,细颗粒物(PM2.5),69,67,75,50,41,102,66,73,57,17,18,7,9,0.5,0.5
2023-03-02T15:00:00,1880A,104.6697,31.4668,绵阳市,高新区自来水公司,,,68,71,55,42,113,76,78,60,11,16,,6,,0.4
2023-03-02T15:00:00,1881A,104.7287,31.5075,绵阳市,三水厂,细颗粒物(PM2.5),63,65,78,45,44,108,76,78,61,12,19,3,4,0.4,0.4
2023-03-02T15:00:00,1882A,104.563,28.793,宜宾市,石马中学,细颗粒物(PM2.5),74,83,78,54,49,88,43,24,24,32,35,7,6,0.6,0.7
2023-03-02T15:00:00,1883A,104.6201,28.7728,宜宾市,市委,细颗粒物(PM2.5),84,98,86,62,54,89,47,26,26,31,41,23,10,0.6,0.6
2023-03-02T15:00:00,1884A,104.6055,28.793,宜宾市,宜宾四中,细颗粒物(PM2.5),83,98,88,61,55,95,40,29,29,40,41,14,10,0.5,0.6
2023-03-02T15:00:00,1885A,104.639,28.7562,宜宾市,市政府,细颗粒物(PM2.5),88,99,86,65,52,97,44,27,25,32,43,19,9,0.6,0.7
2023-03-02T15:00:00,1886A,104.5742,28.7199,宜宾市,黄金嘴,细颗粒物(PM2.5),73,81,82,53,50,91,48,29,29,33,39,7,8,0.5,0.5
2023-03-02T15:00:00,1888A,101.6891,26.571,攀枝花市,弄弄坪,颗粒物(PM10),51,51,101,34,54,129,120,57,57,9,46,10,31,0.5,2.1
2023-03-02T15:00:00,1889A,101.5769,26.5928,攀枝花市,河门口,,44,44,58,30,35,130,121,72,72,9,27,8,20,0.3,1.2
2023-03-02T15:00:00,1890A,101.7169,26.585,攀枝花市,炳草岗,,37,29,66,21,34,134,118,62,62,8,46,6,16,0.5,1.4
2023-03-02T15:00:00,1891A,101.7369,26.5008,攀枝花市,仁和,,38,32,51,23,33,132,121,77,77,6,24,8,12,0.5,0.9
2023-03-02T15:00:00,1893A,105.4324,28.9634,泸州市,九狮山,细颗粒物(PM2.5),82,102,92,60,55,85,47,19,19,29,27,15,11,0.5,0.5
2023-03-02T15:00:00,1894A,105.4427,28.9063,泸州市,小市上码头,细颗粒物(PM2.5),112,130,107,84,71,81,44,41,22,33,28,14,14,0.6,0.6
2023-03-02T15:00:00,1895A,105.4241,28.8573,泸州市,兰田宪桥,细颗粒物(PM2.5),122,121,100,92,76,88,41,36,22,31,24,16,15,0.6,0.5
2023-03-02T15:00:00,1896A,105.4379,28.8833,泸州市,市环监站,细颗粒物(PM2.5),117,124,107,88,66,82,33,45,15,,22,11,11,0.7,0.7
2023-03-02T15:00:00,1901A,104.4239,31.1208,德阳市,东山公园,细颗粒物(PM2.5),90,97,90,67,49,105,70,79,51,16,17,2,4,0.7,0.6
2023-03-02T15:00:00,1902A,104.3826,31.1317,德阳市,西小区,,,96,91,71,51,101,67,69,47,13,22,,3,0.5,0.5
2023-03-02T15:00:00,1904A,104.3553,31.1091,德阳市,耐火材料厂,细颗粒物(PM2.5),93,98,89,69,52,100,66,61,44,14,25,1,3,0.5,0.5
2023-03-02T15:00:00,1905A,106.056,30.8064,南充市,西山风景区,,,,,,,,,,,,,,,,
2023-03-02T15:00:00,1906A,106.0789,30.8023,南充市,南充市委,细颗粒物(PM2.5),87,83,83,64,52,78,40,27,27,24,28,12,12,0.7,0.7
2023-03-02T15:00:00,1907A,106.1031,30.8217,南充市,南充炼油厂,细颗粒物(PM2.5),83,83,81,61,52,80,30,24,24,22,24,10,11,0.9,0.8
2023-03-02T15:00:00,1908A,106.1064,30.7856,南充市,高坪区监测站,细颗粒物(PM2.5),90,84,77,67,59,71,41,32,26,21,27,10,12,0.7,0.7
2023-03-02T15:00:00,1909A,106.0642,30.7636,南充市,嘉陵区环保局,细颗粒物(PM2.5),85,89,80,63,54,75,45,26,26,25,29,11,12,0.6,0.6
2023-03-02T15:00:00,1910A,106.1087,30.8388,南充市,市环境监测站,细颗粒物(PM2.5),90,96,77,67,56,82,27,29,24,29,29,11,12,0.7,0.6
2023-03-02T15:00:00,1911A,106.9222,27.6869,遵义市,丁字口,细颗粒物(PM2.5),54,40,59,38,47,108,105,81,81,15,21,11,15,0.6,0.7
2023-03-02T15:00:00,1912A,106.9242,27.7019,遵义市,凤凰山,细颗粒物(PM2.5),59,51,54,42,40,104,104,80,80,14,19,4,6,0.6,0.7
2023-03-02T15:00:00,1913A,106.8906,27.6486,遵义市,忠庄,颗粒物(PM10),55,60,57,32,45,94,94,71,71,14,18,4,4,0.6,0.8
2023-03-02T15:00:00,1914A,106.9231,27.6506,遵义市,舟水桥,细颗粒物(PM2.5),58,60,66,41,46,96,96,77,77,9,12,4,12,0.6,0.8
2023-03-02T15:00:00,1915A,106.9178,27.72,遵义市,干田坝,细颗粒物(PM2.5),62,39,57,44,45,111,109,81,81,15,20,8,10,0.6,0.7
2023-03-02T15:00:00,1916A,103.7897,25.5035,曲靖市,环境监测站,细颗粒物(PM2.5),54,56,79,38,56,149,99,68,63,16,17,9,9,1.2,1.2
2023-03-02T15:00:00,1917A,103.8,25.5364,曲靖市,烟厂办公区,颗粒物(PM10),67,83,78,45,51,152,104,78,72,18,19,7,7,0.9,0.9
2023-03-02T15:00:00,1918A,108.7197,34.3956,咸阳市,气象站,颗粒物(PM10),81,111,167,48,59,83,63,37,37,37,59,14,12,0.4,0.5
2023-03-02T15:00:00,1919A,108.673,34.3155,咸阳市,实验中学,颗粒物(PM10),126,201,184,84,61,91,21,28,28,81,57,10,8,0.4,0.5
2023-03-02T15:00:00,1920A,108.7233,34.3617,咸阳市,师范学院,颗粒物(PM10),81,112,171,57,62,84,47,35,35,51,53,10,8,0.5,0.5
2023-03-02T15:00:00,1922A,109.0656,35.0994,铜川市,党校,颗粒物(PM10),98,146,147,37,37,97,97,61,61,28,51,16,14,0.7,0.6
2023-03-02T15:00:00,1923A,109.0697,35.0697,铜川市,王益区政府,,,147,133,48,40,93,93,49,49,22,39,11,8,,0.8
2023-03-02T15:00:00,1924A,108.9344,34.9058,铜川市,新区管委会,颗粒物(PM10),82,113,137,38,42,107,107,71,71,18,29,14,11,0.5,0.5
2023-03-02T15:00:00,1926A,109.4131,36.6275,延安市,枣园,颗粒物(PM10),56,61,54,20,17,113,113,57,57,12,32,6,6,0.6,0.7
2023-03-02T15:00:00,1927A,109.4761,36.6028,延安市,延大医附院,颗粒物(PM10),60,70,49,22,26,104,104,52,52,9,37,6,7,0.3,0.6
2023-03-02T15:00:00,1929A,109.5056,36.6106,延安市,百米大道,颗粒物(PM10),57,64,64,15,25,102,102,51,51,10,41,4,4,0.3,0.7
2023-03-02T15:00:00,1930A,107.185,34.3063,宝鸡市,庙沟村,颗粒物(PM10),102,153,138,43,38,83,61,38,38,23,28,8,5,0.7,0.6
2023-03-02T15:00:00,1931A,107.0708,34.3017,宝鸡市,竹园沟,颗粒物(PM10),110,169,136,57,43,98,77,47,47,23,27,15,12,0.5,0.5
2023-03-02T15:00:00,1932A,107.1906,34.3672,宝鸡市,三陆医院,颗粒物(PM10),120,189,169,78,61,91,40,27,23,52,49,11,12,0.6,0.6
2023-03-02T15:00:00,1933A,107.1431,34.3547,宝鸡市,监测站,颗粒物(PM10),101,151,142,52,44,89,62,26,26,,40,10,5,0.5,0.5
2023-03-02T15:00:00,1934A,107.1186,34.3739,宝鸡市,技工学校,颗粒物(PM10),117,184,153,59,54,88,45,37,26,44,36,10,7,0.6,0.5
2023-03-02T15:00:00,1935A,107.3906,34.3528,宝鸡市,陈仓区环保局家属楼,颗粒物(PM10),110,169,183,56,68,83,56,40,40,42,45,12,28,0.6,0.8
2023-03-02T15:00:00,1936A,107.2058,34.3497,宝鸡市,文理学院,颗粒物(PM10),105,159,161,54,49,88,55,26,26,37,43,15,10,0.6,0.6
2023-03-02T15:00:00,1937A,107.2386,34.3622,宝鸡市,三迪小学,颗粒物(PM10),114,177,169,62,52,84,42,23,23,51,52,14,12,0.7,0.6
2023-03-02T15:00:00,1938A,109.5293,34.5101,渭南市,农科所,颗粒物(PM10),78,105,121,44,40,93,93,49,45,20,35,15,9,0.7,0.5
2023-03-02T15:00:00,1939A,109.4974,34.4877,渭南市,日报社,,,102,118,46,37,83,,32,32,21,51,10,8,0.6,0.5
2023-03-02T15:00:00,1940A,109.4636,34.493,渭南市,体育馆,颗粒物(PM10),82,114,126,46,41,96,96,52,52,22,50,12,8,0.5,0.5
2023-03-02T15:00:00,1941A,109.4259,34.5023,渭南市,高新一小,颗粒物(PM10),77,104,143,49,52,95,95,46,46,21,43,14,10,0.5,0.5
2023-03-02T15:00:00,1943A,102.1725,38.5339,金昌市,新川苑,,42,42,62,14,16,105,95,82,82,9,20,7,12,0.4,0.7
2023-03-02T15:00:00,1944A,102.1692,38.5167,金昌市,天庆家园,,35,35,46,9,12,104,98,85,85,9,19,6,10,0.6,0.7
2023-03-02T15:00:00,1945A,98.2908,39.7711,嘉峪关市,气象局,颗粒物(PM10),62,73,69,19,21,106,103,92,92,4,20,2,8,0.0,0.2
2023-03-02T15:00:00,1947A,106.3394,38.817,石嘴山市,沙湖旅游区,颗粒物(PM10),141,231,228,65,59,105,76,37,37,34,38,41,31,1.7,1.3
2023-03-02T15:00:00,1948A,106.3668,39.0145,石嘴山市,大武口朝阳西街,颗粒物(PM10),91,132,167,41,47,106,88,47,47,16,42,26,39,0.6,0.7
2023-03-02T15:00:00,1949A,106.7704,39.2282,石嘴山市,惠农南大街,颗粒物(PM10),96,141,169,56,48,102,82,42,42,28,55,44,30,0.8,0.7
2023-03-02T15:00:00,1950A,106.7099,39.1325,石嘴山市,红果子镇惠新街,颗粒物(PM10),113,176,141,60,48,109,69,41,41,,47,35,19,1.1,0.7
2023-03-02T15:00:00,1951A,84.895,45.6094,克拉玛依市,长征新村,颗粒物(PM10),61,72,58,38,33,83,55,71,60,21,16,5,6,0.4,0.4
2023-03-02T15:00:00,1952A,84.8988,45.5893,克拉玛依市,南林小区,细颗粒物(PM2.5),70,83,55,51,36,87,56,70,59,22,18,3,2,0.4,0.3
2023-03-02T15:00:00,1954A,84.905,44.3396,克拉玛依市,独山子区,颗粒物(PM10),52,54,88,32,59,128,127,110,88,12,19,6,5,0.6,0.8
2023-03-02T15:00:00,1955A,85.6979,46.098,克拉玛依市,乌尔禾区商贸楼,颗粒物(PM10),52,53,41,31,28,90,83,85,80,5,6,6,7,0.3,0.3
2023-03-02T15:00:00,1956A,86.1472,41.7538,巴音郭楞州,孔雀公园,颗粒物(PM10),133,215,248,52,63,102,102,45,45,10,45,4,4,0.3,0.7
2023-03-02T15:00:00,1957A,86.1972,41.7166,巴音郭楞州,棉纺厂,颗粒物(PM10),155,260,304,56,76,103,103,53,53,12,27,5,3,0.4,0.4
2023-03-02T15:00:00,1958A,86.2357,41.7173,巴音郭楞州,经济开发区,颗粒物(PM10),120,190,287,42,56,104,104,59,53,14,26,6,5,0.4,0.5
2023-03-02T15:00:00,1961A,117.532,36.6868,济南市,东山小学,颗粒物(PM10),57,63,64,20,10,109,109,71,71,18,36,6,7,0.5,0.5
2023-03-02T15:00:00,1966A,120.0405,35.8735,青岛市,黄岛区4号,颗粒物(PM10),57,63,66,19,18,102,86,69,69,28,36,8,8,0.7,0.5
2023-03-02T15:00:00,1982A,122.0693,37.2174,威海市,文登开发区,颗粒物(PM10),52,53,55,9,18,95,84,69,68,15,24,4,6,0.2,0.4
2023-03-02T15:00:00,2031A,113.1817,27.9958,株洲市,云田中学,细颗粒物(PM2.5),75,78,135,55,132,150,150,91,91,16,31,8,8,0.7,0.8
2023-03-02T15:00:00,2054A,114.1099,32.1059,信阳市,平桥分局,颗粒物(PM10),62,74,125,42,82,148,146,85,85,22,39,14,12,0.5,0.7
2023-03-02T15:00:00,2064A,113.9956,32.1271,信阳市,南湾水厂,细颗粒物(PM2.5),79,103,126,58,85,161,161,109,109,15,21,12,11,0.5,0.6
2023-03-02T15:00:00,2065A,114.0775,32.1195,信阳市,市酿酒公司,细颗粒物(PM2.5),83,52,113,61,90,166,158,86,86,14,45,12,11,0.5,0.8
2023-03-02T15:00:00,2066A,114.0609,32.1399,信阳市,审计局,,,,137,63,96,153,152,78,78,18,55,12,10,,0.8
2023-03-02T15:00:00,2067A,114.6613,33.6128,周口市,市环境监测站,细颗粒物(PM2.5),83,94,122,61,67,129,129,79,79,21,43,14,19,0.5,0.7
2023-03-02T15:00:00,2068A,114.6758,33.6347,周口市,周口师范,细颗粒物(PM2.5),82,99,115,60,64,138,138,84,84,22,45,12,16,0.4,0.6
2023-03-02T15:00:00,2069A,114.6546,33.5979,周口市,市运管处,细颗粒物(PM2.5),92,98,115,68,68,138,138,93,93,19,43,14,16,0.4,0.6
2023-03-02T15:00:00,2070A,114.6369,33.6406,周口市,川汇区环保局,细颗粒物(PM2.5),83,93,112,61,68,132,132,84,84,19,42,10,14,0.4,0.6
2023-03-02T15:00:00,2075A,117.6336,24.4674,漳州市,九湖,,,,,,,,,,,,,,,,
2023-03-02T15:00:00,2160A,112.85,35.5051,晋城市,自来水公司,,38,38,73,12,24,107,107,60,60,16,43,10,12,0.5,0.7
2023-03-02T15:00:00,2161A,112.8318,35.4936,晋城市,白云商贸,,48,48,76,12,25,107,105,67,67,11,30,8,8,0.6,0.9
2023-03-02T15:00:00,2162A,112.8508,35.4887,晋城市,市环保局,颗粒物(PM10),61,72,87,27,33,110,109,69,69,12,40,12,11,0.6,1
2023-03-02T15:00:00,2163A,112.8676,35.4897,晋城市,技术学院,颗粒物(PM10),51,52,72,27,33,108,106,69,69,20,49,10,9,0.4,0.8
2023-03-02T15:00:00,2165A,112.8453,35.546,晋城市,白马寺,,,,,,,,,,,,,,,,
2023-03-02T15:00:00,2166A,112.4397,39.3522,朔州市,平朔,颗粒物(PM10),60,70,84,22,22,103,103,60,60,5,33,10,10,0.5,0.5
2023-03-02T15:00:00,2167A,112.4575,39.3617,朔州市,朔唯,颗粒物(PM10),62,73,122,24,48,111,111,62,62,6,57,11,14,0.3,0.5
2023-03-02T15:00:00,2168A,112.4258,39.3197,朔州市,区政府,颗粒物(PM10),67,84,72,17,18,110,110,70,70,6,26,8,12,0.5,0.7
2023-03-02T15:00:00,2169A,112.4072,39.3278,朔州市,市环保局,,,,72,,28,99,99,64,64,,31,10,14,,0.7
2023-03-02T15:00:00,2170A,112.4272,39.3681,朔州市,市二中,颗粒物(PM10),64,78,98,21,25,104,104,62,62,4,30,7,8,0.4,0.5
2023-03-02T15:00:00,2171A,112.7532,37.6945,晋中市,锦纶小区,颗粒物(PM10),63,75,66,22,20,96,96,50,50,18,34,9,9,0.3,0.4
2023-03-02T15:00:00,2173A,112.7249,37.7067,晋中市,南都小区,颗粒物(PM10),63,75,63,33,21,95,95,53,53,23,38,13,12,0.4,0.4
2023-03-02T15:00:00,2174A,112.6991,37.6982,晋中市,榆次区政府,颗粒物(PM10),61,71,68,22,20,94,94,50,50,20,37,11,11,0.4,0.4
2023-03-02T15:00:00,2175A,110.9956,35.0147,运城市,运城中学,,,122,88,51,39,90,,59,59,20,28,15,12,0.7,0.5
2023-03-02T15:00:00,2178A,110.9686,35.0303,运城市,地区技校,颗粒物(PM10),74,97,104,33,37,118,118,76,76,14,37,7,10,0.9,0.8
2023-03-02T15:00:00,2179A,111.0414,35.1147,运城市,空港新区,颗粒物(PM10),67,83,112,34,50,130,130,83,83,8,42,7,29,0.3,1
2023-03-02T15:00:00,2181A,112.7383,38.4519,忻州市,开发区,颗粒物(PM10),55,60,48,29,19,95,77,47,47,23,32,11,7,0.4,0.3
2023-03-02T15:00:00,2182A,112.7003,38.4928,忻州市,会展中心,,47,47,51,28,22,87,74,43,43,23,37,13,7,0.6,0.5
2023-03-02T15:00:00,2183A,111.1406,37.5211,吕梁市,环保局,,,61,78,10,16,88,,42,42,18,44,9,8,0.4,0.5
2023-03-02T15:00:00,2185A,111.1297,37.5136,吕梁市,自来水公司,颗粒物(PM10),57,64,96,19,17,87,87,45,45,22,38,12,14,0.4,0.6
2023-03-02T15:00:00,2187A,106.8174,39.6973,乌海市,市林业局,,43,43,111,16,37,107,97,55,55,7,50,10,49,0.5,1.3
2023-03-02T15:00:00,2188A,106.7907,39.6667,乌海市,中海勃湾学校,,47,47,114,8,34,107,100,57,57,13,49,13,47,0.4,1.4
2023-03-02T15:00:00,2191A,122.2532,43.6801,通辽市,艺术职业学校,,,33,47,5,17,90,85,70,66,,16,9,17,0.4,0.4
2023-03-02T15:00:00,2192A,119.7594,49.2261,呼伦贝尔市,区环保局,,29,21,22,17,16,92,92,85,77,4,6,6,5,0.3,0.2
2023-03-02T15:00:00,2195A,107.4212,40.761,巴彦淖尔市,附二中,颗粒物(PM10),58,65,65,11,18,89,89,60,60,8,27,3,5,0.4,0.5
2023-03-02T15:00:00,2196A,107.37,40.7372,巴彦淖尔市,市环保大楼,颗粒物(PM10),51,51,72,16,24,93,93,56,56,12,33,2,5,0.3,0.5
2023-03-02T15:00:00,2197A,113.1306,40.9923,乌兰察布市,集宁新区,,33,33,35,16,19,89,85,68,58,6,21,10,11,0.4,0.6
2023-03-02T15:00:00,2200A,122.0392,46.0656,兴安盟,胜华新制药厂,,,32,21,11,15,84,74,81,69,,12,4,5,0.3,0.6
2023-03-02T15:00:00,2201A,121.9504,46.0741,兴安盟,科右前旗环保局,,26,15,19,9,16,85,81,83,73,7,10,2,3,0.4,0.5
2023-03-02T15:00:00,2202A,116.1042,43.9317,锡林郭勒盟,市环保监测站,颗粒物(PM10),55,59,28,4,7,79,79,66,66,3,7,6,7,0.3,0.3
2023-03-02T15:00:00,2203A,116.0781,43.9311,锡林郭勒盟,市政府,颗粒物(PM10),57,63,31,13,6,89,78,66,66,6,10,8,8,0.2,0.2
2023-03-02T15:00:00,2204A,105.6467,38.8363,阿拉善盟,西城区西花园,,,,57,17,17,102,102,68,68,10,18,,9,,0.5
2023-03-02T15:00:00,2205A,105.6985,38.8411,阿拉善盟,蒙二幼,颗粒物(PM10),57,63,51,24,22,103,103,83,83,10,13,13,9,0.4,0.5
2023-03-02T15:00:00,2206A,105.724,38.8516,阿拉善盟,环保局新楼,,37,37,42,23,20,103,103,88,88,6,7,15,11,0.4,0.3
2023-03-02T15:00:00,2207A,121.6094,41.998,阜新市,工业园区,颗粒物(PM10),89,128,96,28,24,90,82,71,71,20,28,16,17,0.5,0.6
2023-03-02T15:00:00,2208A,121.6697,42.0279,阜新市,长青街,颗粒物(PM10),65,79,57,13,16,88,77,70,63,20,16,16,14,0.7,0.6
2023-03-02T15:00:00,2209A,121.6673,42.0705,阜新市,农业园区,颗粒物(PM10),80,109,62,26,24,79,71,73,64,16,14,17,17,0.5,0.5
2023-03-02T15:00:00,2210A,121.6717,42.0224,阜新市,东苑,颗粒物(PM10),86,122,81,24,21,86,72,70,63,23,14,14,13,0.7,0.6
2023-03-02T15:00:00,2211A,121.6506,42.0498,阜新市,玉龙新城,颗粒物(PM10),77,104,75,26,21,84,76,62,62,17,22,17,14,0.6,0.6
2023-03-02T15:00:00,2212A,123.2,41.1953,辽阳市,宏伟区,颗粒物(PM10),109,167,65,19,16,84,80,63,63,13,18,13,17,0.9,0.8
2023-03-02T15:00:00,2213A,123.1683,41.2495,辽阳市,新华园,颗粒物(PM10),103,155,69,18,19,90,85,63,63,8,17,13,20,1.2,1.1
2023-03-02T15:00:00,2214A,123.2354,41.2639,辽阳市,滨河路,颗粒物(PM10),102,153,69,14,24,78,75,63,59,16,21,10,10,0.7,0.6
2023-03-02T15:00:00,2215A,123.149,41.2991,辽阳市,铁西工业园,颗粒物(PM10),124,197,78,25,26,78,69,52,52,21,28,16,11,1.3,1
2023-03-02T15:00:00,2216A,123.8139,42.3022,铁岭市,汇工街西,颗粒物(PM10),84,117,87,32,30,90,76,64,64,21,25,14,14,0.7,0.6
2023-03-02T15:00:00,2217A,123.8649,42.2923,铁岭市,水上乐园,颗粒物(PM10),62,73,68,21,17,88,77,72,66,21,19,17,12,0.7,0.4
2023-03-02T15:00:00,2218A,123.8486,42.2867,铁岭市,银州路东段,颗粒物(PM10),70,89,80,23,19,80,73,65,65,23,24,13,9,0.8,0.6
2023-03-02T15:00:00,2219A,123.7153,42.2217,铁岭市,金沙江路北,颗粒物(PM10),84,117,80,24,24,85,75,67,58,25,29,13,9,0.6,0.4
2023-03-02T15:00:00,2220A,120.4318,41.5881,朝阳市,西梁,,,84,70,20,21,78,77,54,54,9,26,,12,0.6,0.8
2023-03-02T15:00:00,2221A,120.4521,41.5646,朝阳市,河畔小区,颗粒物(PM10),54,57,58,7,14,93,93,74,74,8,20,5,7,0.2,0.4
2023-03-02T15:00:00,2222A,120.4176,41.5648,朝阳市,八里堡,颗粒物(PM10),63,75,67,7,16,89,84,63,63,16,27,16,14,0.7,0.8
2023-03-02T15:00:00,2223A,120.3806,41.5969,朝阳市,农业园区,颗粒物(PM10),52,53,75,5,15,83,81,59,59,11,26,10,12,0.4,0.7
2023-03-02T15:00:00,2225A,124.4002,43.1713,四平市,一商场,颗粒物(PM10),83,115,88,22,21,74,73,66,66,16,24,9,7,0.4,0.4
2023-03-02T15:00:00,2226A,124.388,43.193,四平市,境园,颗粒物(PM10),75,100,88,20,19,79,78,68,68,16,24,6,5,0.2,0.5
2023-03-02T15:00:00,2227A,125.1358,42.8845,辽源市,环保局,,30,14,44,8,18,96,96,80,80,6,12,9,11,0.4,0.4
2023-03-02T15:00:00,2229A,125.9358,41.7173,通化市,光明,,33,33,65,3,10,85,85,68,66,6,13,9,14,0.1,0.1
2023-03-02T15:00:00,2230A,125.9446,41.7325,通化市,铁路,,28,27,59,17,12,89,88,74,68,9,12,6,10,0.1,0.1
2023-03-02T15:00:00,2231A,126.4219,41.9171,白山市,喜丰,,43,43,98,2,11,82,82,67,62,6,13,6,10,0.3,0.5
2023-03-02T15:00:00,2232A,126.4077,41.9419,白山市,环保局,,41,41,89,15,17,77,74,63,56,7,11,9,10,0.8,0.9
2023-03-02T15:00:00,2233A,124.8006,45.1214,松原市,江南,,,,42,,17,69,68,57,57,4,15,5,5,0.3,0.3
2023-03-02T15:00:00,2234A,124.7965,45.1722,松原市,江北,颗粒物(PM10),54,58,47,2,13,74,74,64,64,6,14,2,4,0.4,0.5
2023-03-02T15:00:00,2235A,122.7911,45.6077,白城市,洮北区环保局,,47,47,48,2,21,84,80,78,78,10,16,3,2,0.3,0.4
2023-03-02T15:00:00,2236A,122.8738,45.5725,白城市,市环保局,颗粒物(PM10),52,53,41,4,14,82,76,72,72,10,20,4,6,0.3,0.4
2023-03-02T15:00:00,2237A,129.47,42.8883,延边朝鲜族自治州,妇幼医院,,29,24,28,9,9,90,90,84,84,7,12,6,11,0.4,0.5
2023-03-02T15:00:00,2238A,129.5055,42.9108,延边朝鲜族自治州,延边医院,,28,15,23,6,9,89,89,84,84,7,10,6,7,0.4,0.5
2023-03-02T15:00:00,2239A,129.3964,42.8881,延边朝鲜族自治州,朝阳川镇医院,,29,19,27,4,7,92,92,87,87,4,6,6,7,0.5,0.5
2023-03-02T15:00:00,2240A,130.9762,45.3001,鸡西市,环保局,,24,19,28,12,19,77,75,69,69,9,18,3,6,0.2,0.3
2023-03-02T15:00:00,2243A,130.9429,45.3039,鸡西市,第一中学,,26,14,24,8,19,82,82,75,75,1,13,3,6,0.2,0.3
2023-03-02T15:00:00,2244A,130.2537,47.3416,鹤岗市,哈啤分公司,,35,35,25,15,18,80,52,78,64,34,12,24,11,0.3,0.3
2023-03-02T15:00:00,2245A,130.2684,47.3086,鹤岗市,斯达机电,,39,39,36,14,19,78,72,75,63,9,12,7,8,0.4,0.2
2023-03-02T15:00:00,2246A,130.3114,47.3388,鹤岗市,东山纸板厂,,47,47,52,17,21,78,69,64,60,8,11,11,11,0.2,0.4
2023-03-02T15:00:00,2247A,130.1097,47.3382,鹤岗市,五号水库,,29,15,18,12,12,90,90,76,76,4,5,8,7,0.2,0.2
2023-03-02T15:00:00,2248A,131.1511,46.6937,双鸭山市,双合村,,27,19,47,13,29,86,86,77,77,5,17,9,16,0.2,0.7
2023-03-02T15:00:00,2249A,131.1652,46.6191,双鸭山市,南小市,,41,41,46,12,25,92,92,80,80,4,17,5,8,0.4,0.6
2023-03-02T15:00:00,2250A,131.1524,46.6554,双鸭山市,环保局,,30,15,44,10,29,94,94,80,80,7,26,10,16,0.3,0.5
2023-03-02T15:00:00,2251A,131.12,46.5656,双鸭山市,苗圃,,31,17,35,18,28,100,99,93,93,7,12,5,5,0.1,0.2
2023-03-02T15:00:00,2252A,128.5159,47.4311,伊春市,环保局,,43,21,18,30,13,80,80,64,61,10,16,6,6,0.5,0.5
2023-03-02T15:00:00,2253A,128.9102,47.7412,伊春市,电力嘉园,,28,21,24,19,14,88,86,67,67,8,11,8,6,0.4,0.4
2023-03-02T15:00:00,2254A,129.5029,48.471,伊春市,汤旺河国家公园,,27,23,22,16,16,84,84,72,72,3,3,9,6,0.4,0.2
2023-03-02T15:00:00,2255A,130.2751,46.8028,佳木斯市,佳纺,细颗粒物(PM2.5),57,50,44,40,35,75,75,67,67,14,28,8,7,0.5,0.6
2023-03-02T15:00:00,2256A,130.3995,46.8307,佳木斯市,发电厂,,,15,32,18,24,84,81,74,74,,25,,5,0.4,0.5
2023-03-02T15:00:00,2257A,130.3258,46.7975,佳木斯市,环保局,,,24,34,20,26,77,76,68,68,,31,,5,0.3,0.6
2023-03-02T15:00:00,2258A,130.3648,46.8032,佳木斯市,十一中,,24,22,29,13,17,75,74,67,67,14,36,6,7,0.4,0.6
2023-03-02T15:00:00,2259A,130.3794,46.7588,佳木斯市,四丰,,45,13,22,14,17,144,144,128,128,5,12,1,1,0.3,0.3
2023-03-02T15:00:00,2262A,131.0518,45.8751,七台河市,新一中,,29,9,20,8,16,92,90,87,87,6,11,5,6,0.4,0.4
2023-03-02T15:00:00,2263A,127.4833,50.2524,黑河市,交通局,,25,14,18,11,15,79,79,75,74,10,14,5,7,0.4,0.4
2023-03-02T15:00:00,2264A,127.5144,50.2341,黑河市,环保局,,28,28,18,15,17,86,86,80,79,8,10,4,7,0.3,0.4
2023-03-02T15:00:00,2265A,127.5291,50.2472,黑河市,大黑河岛,,27,14,12,13,13,86,86,80,80,2,3,8,8,0.3,0.4
2023-03-02T15:00:00,2266A,126.9785,46.6365,绥化市,人和东街,,35,35,38,22,27,100,97,76,76,9,14,2,3,0.4,0.4
2023-03-02T15:00:00,2267A,126.964,46.6528,绥化市,党政办公中心,,30,30,34,19,9,104,94,78,78,7,11,3,3,0.2,0.3
2023-03-02T15:00:00,2269A,124.1069,50.4097,大兴安岭地区,科技局,,28,8,16,10,16,88,88,85,84,3,6,5,7,0.2,0.2
2023-03-02T15:00:00,2270A,117.396,32.939,蚌埠市,工人疗养院,颗粒物(PM10),60,69,105,39,72,133,126,86,86,21,52,11,12,0.3,0.5
2023-03-02T15:00:00,2271A,117.3605,32.9427,蚌埠市,百货大楼,细颗粒物(PM2.5),72,86,137,52,76,134,132,87,87,18,61,4,5,0.4,0.7
2023-03-02T15:00:00,2273A,117.4185,32.8911,蚌埠市,蚌埠学院,颗粒物(PM10),60,70,117,31,66,129,127,92,92,16,40,7,9,0.4,0.6
2023-03-02T15:00:00,2274A,117.3533,32.9673,蚌埠市,淮上区政府,颗粒物(PM10),70,90,131,41,74,135,118,81,81,13,51,6,7,0.5,0.7
2023-03-02T15:00:00,2275A,117.3145,32.8977,蚌埠市,高新区,颗粒物(PM10),63,75,117,36,69,131,126,93,93,17,52,7,8,0.5,0.7
2023-03-02T15:00:00,2277A,116.8305,32.7727,淮南市,潘集区政府,细颗粒物(PM2.5),90,107,140,67,92,129,129,85,85,16,45,9,9,0.5,0.6
2023-03-02T15:00:00,2278A,117.0067,32.6524,淮南市,师范学院,细颗粒物(PM2.5),74,92,155,54,91,136,136,94,94,18,47,12,12,0.5,1.2
2023-03-02T15:00:00,2279A,116.8569,32.5951,淮南市,谢家集区政府,细颗粒物(PM2.5),92,110,121,68,81,140,140,102,102,12,35,12,19,0.6,0.7
2023-03-02T15:00:00,2280A,116.8281,32.633,淮南市,八公山区政府,细颗粒物(PM2.5),74,82,118,54,76,144,144,98,98,14,26,10,13,0.4,0.5
2023-03-02T15:00:00,2281A,116.6325,32.6201,淮南市,焦岗湖风景区管理处,细颗粒物(PM2.5),105,115,132,79,90,351,133,110,110,19,70,8,8,0.7,0.8
2023-03-02T15:00:00,2282A,116.8004,33.975,淮北市,监测站,颗粒物(PM10),69,88,96,42,44,132,113,88,88,17,23,7,7,0.6,0.6
2023-03-02T15:00:00,2283A,116.8091,33.9007,淮北市,烈山区政府,颗粒物(PM10),73,95,111,39,49,133,116,88,88,24,32,9,8,0.5,0.6
2023-03-02T15:00:00,2284A,116.7856,33.9477,淮北市,职业技术学院,颗粒物(PM10),67,84,95,45,45,133,118,89,89,24,30,10,9,0.4,0.5
2023-03-02T15:00:00,2285A,117.8177,30.9412,铜陵市,市第四中学,"颗粒物(PM10),细颗粒物(PM2.5)",62,74,124,44,81,134,134,98,98,17,35,11,14,0.4,0.6
2023-03-02T15:00:00,2286A,117.8059,30.9273,铜陵市,市公路局,颗粒物(PM10),61,71,119,40,89,130,130,94,94,13,28,8,10,0.7,0.9
2023-03-02T15:00:00,2287A,117.7807,30.9413,铜陵市,市新民污水厂,颗粒物(PM10),69,87,126,42,73,149,149,109,109,21,43,8,8,0.6,0.8
2023-03-02T15:00:00,2288A,117.7439,30.8792,铜陵市,市第九中学,细颗粒物(PM2.5),72,84,130,52,91,134,134,97,91,18,62,17,13,0.6,1.1
2023-03-02T15:00:00,2289A,117.846,30.9413,铜陵市,车站新区,颗粒物(PM10),61,72,108,34,77,131,131,96,96,17,34,12,11,0.5,0.7
2023-03-02T15:00:00,2290A,117.8483,30.97,铜陵市,市职教基地,颗粒物(PM10),57,64,105,28,64,132,126,96,96,19,27,6,5,0.3,0.4
2023-03-02T15:00:00,2291A,117.0809,30.5177,安庆市,环科院,颗粒物(PM10),64,77,135,45,101,151,138,106,98,13,29,10,11,0.4,0.8
2023-03-02T15:00:00,2292A,117.0331,30.5119,安庆市,马山宾馆,颗粒物(PM10),69,88,137,48,98,149,142,112,112,14,27,10,12,0.6,0.9
2023-03-02T15:00:00,2294A,116.9896,30.6145,安庆市,安庆大学,细颗粒物(PM2.5),68,68,123,49,84,158,153,125,125,22,25,11,11,0.7,0.9
2023-03-02T15:00:00,2295A,118.2903,29.6963,黄山市,延安路89号,,,46,56,26,50,125,122,70,70,7,17,6,5,,0.5
2023-03-02T15:00:00,2296A,118.327,29.7178,黄山市,黄山东路89号,细颗粒物(PM2.5),53,41,64,37,51,120,118,80,80,11,22,5,5,0.3,0.6
2023-03-02T15:00:00,2297A,118.1371,30.2756,黄山市,黄山区政府5号楼,"颗粒物(PM10),细颗粒物(PM2.5)",55,60,79,39,56,142,138,94,94,16,18,8,7,0.2,0.6
2023-03-02T15:00:00,2298A,118.3093,32.3153,滁州市,老年大学,"颗粒物(PM10),细颗粒物(PM2.5)",70,89,112,51,81,142,142,96,96,28,43,11,10,0.4,0.6
2023-03-02T15:00:00,2299A,118.3244,32.2786,滁州市,人大宾馆,颗粒物(PM10),74,97,119,49,81,133,129,89,89,28,43,10,10,0.5,0.7
2023-03-02T15:00:00,2301A,115.8277,32.8929,阜阳市,市监测站,细颗粒物(PM2.5),104,112,113,78,74,144,144,83,83,20,60,10,8,0.6,0.9
2023-03-02T15:00:00,2303A,115.8554,32.8605,阜阳市,开发区,细颗粒物(PM2.5),108,122,138,81,70,145,145,88,88,25,58,11,10,0.6,0.9
2023-03-02T15:00:00,2307A,116.5079,31.737,六安市,监测大楼,细颗粒物(PM2.5),73,73,121,53,92,156,138,100,100,19,35,7,9,0.4,0.5
2023-03-02T15:00:00,2308A,116.4738,31.7643,六安市,皖西学院,颗粒物(PM10),68,86,132,46,91,160,147,103,103,19,41,6,7,0.4,0.5
2023-03-02T15:00:00,2309A,116.4996,31.7905,六安市,朝阳厂,细颗粒物(PM2.5),68,79,117,49,90,165,148,102,102,21,42,8,9,0.4,0.7
2023-03-02T15:00:00,2310A,116.5567,31.7886,六安市,开发区,颗粒物(PM10),66,82,150,47,86,162,142,91,91,13,42,9,11,0.3,0.5
2023-03-02T15:00:00,2311A,115.8072,33.8399,亳州市,污水处理厂,细颗粒物(PM2.5),74,89,116,54,65,120,117,85,85,17,24,9,11,0.6,0.6
2023-03-02T15:00:00,2312A,115.7789,33.8518,亳州市,三国揽胜宫,颗粒物(PM10),84,117,124,55,66,132,129,90,90,25,28,8,10,0.5,0.5
2023-03-02T15:00:00,2314A,117.47,30.6618,池州市,池州学院,细颗粒物(PM2.5),94,89,129,70,103,150,142,102,102,17,31,9,14,0.6,0.9
2023-03-02T15:00:00,2316A,118.7581,30.9454,宣城市,鳌峰子站,细颗粒物(PM2.5),78,79,130,57,99,126,126,101,99,11,21,8,6,0.5,0.8
2023-03-02T15:00:00,2317A,118.7385,30.9743,宣城市,敬亭山子站,颗粒物(PM10),67,84,127,47,93,131,130,94,88,18,28,13,14,0.6,0.8
2023-03-02T15:00:00,2318A,118.7173,30.9427,宣城市,开发区子站,细颗粒物(PM2.5),73,84,130,53,107,134,134,101,101,10,22,9,10,0.6,0.8
2023-03-02T15:00:00,2319A,119.0141,25.4325,莆田市,荔城区仓后路,颗粒物(PM10),60,70,52,29,42,140,125,125,125,16,17,8,8,0.6,0.7
2023-03-02T15:00:00,2320A,119.0015,25.4553,莆田市,莆田市监测站,颗粒物(PM10),58,66,54,33,41,144,135,128,128,16,17,8,8,0.5,0.6
2023-03-02T15:00:00,2321A,119.1119,25.4561,莆田市,涵江区六中,颗粒物(PM10),63,76,57,30,53,144,128,137,128,13,15,8,8,0.4,0.5
2023-03-02T15:00:00,2322A,119.1013,25.3215,莆田市,秀屿区政府,颗粒物(PM10),56,61,54,15,48,141,121,130,125,15,17,6,6,0.5,0.6
2023-03-02T15:00:00,2323A,118.981,25.4792,莆田市,东圳水库,,,,,,,,,,,,,,,,
2023-03-02T15:00:00,2324A,117.6211,26.2625,三明市,三钢,细颗粒物(PM2.5),53,50,56,37,42,125,112,79,79,11,26,7,9,0.3,0.5
2023-03-02T15:00:00,2325A,117.635,26.2714,三明市,三明二中,,50,50,51,32,36,115,101,80,80,21,31,4,6,0.5,0.6
2023-03-02T15:00:00,2326A,117.6028,26.2378,三明市,三元区政府,,49,47,55,34,47,120,102,77,77,12,24,2,8,0.6,0.7
2023-03-02T15:00:00,2327A,117.7275,26.3108,三明市,洋溪,,,,,,,,,,,,,,,,
2023-03-02T15:00:00,2331A,118.0966,26.6761,南平市,茫荡山,,,,,,,,,,,,,,,,
2023-03-02T15:00:00,2332A,118.1681,26.6369,南平市,南平市监测站,,49,45,48,34,33,113,108,68,68,10,26,3,4,0.5,0.7
2023-03-02T15:00:00,2333A,118.1825,26.6489,南平市,南平铝业有限公司,颗粒物(PM10),53,56,49,31,35,112,102,72,72,14,25,6,6,0.5,0.5
2023-03-02T15:00:00,2334A,118.1756,26.6272,南平市,南平七中,,49,49,44,32,33,118,108,72,72,11,25,4,5,0.5,0.6
2023-03-02T15:00:00,2335A,117.0189,25.1181,龙岩市,龙岩师专,,,,,,,,,,,,,,,,
2023-03-02T15:00:00,2336A,117.0217,25.1033,龙岩市,龙岩市监测站,细颗粒物(PM2.5),58,50,52,41,41,157,120,104,104,14,19,8,10,0.5,0.6
2023-03-02T15:00:00,2337A,117.0258,25.0661,龙岩市,闽西职业技术学院,细颗粒物(PM2.5),65,52,62,47,40,147,85,80,80,22,31,9,20,0.5,0.5
2023-03-02T15:00:00,2338A,117.0196,25.0306,龙岩市,龙岩学院,颗粒物(PM10),61,72,51,41,36,149,90,89,89,15,17,6,7,0.5,0.6
2023-03-02T15:00:00,2339A,119.5001,26.6946,宁德市,金涵水库,,,,,,,,,,,,,,,,
2023-03-02T15:00:00,2341A,119.5388,26.6612,宁德市,宁德市监测站,,46,45,52,32,58,140,127,126,115,14,18,2,3,0.5,0.6
2023-03-02T15:00:00,2342A,117.3102,29.3867,景德镇市,王港中学,颗粒物(PM10),55,60,54,31,36,135,135,95,95,7,11,5,4,0.3,0.4
2023-03-02T15:00:00,2343A,117.2117,29.2933,景德镇市,老干部活动中心,颗粒物(PM10),75,100,83,43,52,132,132,96,96,12,27,7,8,0.7,0.7
2023-03-02T15:00:00,2344A,117.1894,29.2789,景德镇市,兽医站,,,86,68,41,46,136,130,103,103,,23,7,7,0.6,0.7
2023-03-02T15:00:00,2345A,117.1547,29.2617,景德镇市,台达陶瓷,颗粒物(PM10),62,73,73,39,46,132,132,106,106,21,25,24,12,1.1,1.1
2023-03-02T15:00:00,2346A,117.2461,29.2956,景德镇市,陶研所,颗粒物(PM10),67,84,76,44,41,131,131,86,86,9,21,8,6,0.8,0.8
2023-03-02T15:00:00,2347A,114.0997,27.5002,萍乡市,武功山,细颗粒物(PM2.5),64,56,43,46,39,121,121,77,77,16,16,8,7,0.8,0.7
2023-03-02T15:00:00,2348A,113.8385,27.6434,萍乡市,中医院,细颗粒物(PM2.5),83,88,106,61,79,132,132,88,88,20,27,18,22,0.9,1
2023-03-02T15:00:00,2349A,113.8493,27.6253,萍乡市,市政府车库,细颗粒物(PM2.5),79,92,84,58,67,157,157,104,104,16,20,16,16,1.0,0.8
2023-03-02T15:00:00,2350A,113.8676,27.6435,萍乡市,市环保局,细颗粒物(PM2.5),82,90,89,60,64,155,155,105,105,11,20,18,24,0.7,0.8
2023-03-02T15:00:00,2351A,113.866,27.6198,萍乡市,安源区政府,细颗粒物(PM2.5),108,84,100,81,64,144,144,95,95,,23,12,16,0.9,0.8
2023-03-02T15:00:00,2352A,115.0861,27.9317,新余市,北岗,细颗粒物(PM2.5),69,64,62,50,51,116,116,89,89,30,27,10,22,0.6,0.7
2023-03-02T15:00:00,2353A,114.9886,27.8431,新余市,飞宇,细颗粒物(PM2.5),64,76,79,46,49,132,132,98,98,12,25,8,19,0.6,0.7
2023-03-02T15:00:00,2354A,114.9231,27.8246,新余市,第二水厂,颗粒物(PM10),68,85,86,34,50,134,134,99,99,19,30,10,16,0.4,0.5
2023-03-02T15:00:00,2355A,114.9308,27.8036,新余市,市气象局,颗粒物(PM10),68,85,105,45,57,127,127,95,95,17,31,11,16,0.7,0.7
2023-03-02T15:00:00,2357A,116.9822,28.1136,鹰潭市,龙虎山,颗粒物(PM10),85,120,60,58,50,168,168,127,127,3,8,8,8,0.7,0.7
2023-03-02T15:00:00,2358A,117.0564,28.2642,鹰潭市,新监测站,细颗粒物(PM2.5),98,98,68,73,49,172,172,111,111,16,23,18,15,0.6,0.5
2023-03-02T15:00:00,2359A,117.0311,28.2475,鹰潭市,财苑宾馆,细颗粒物(PM2.5),94,95,68,70,48,172,172,117,117,15,23,22,18,0.6,0.5
2023-03-02T15:00:00,2360A,117.0222,28.2264,鹰潭市,体育馆,细颗粒物(PM2.5),89,100,67,66,53,170,169,126,126,16,26,14,24,0.5,0.4
2023-03-02T15:00:00,2361A,117.0017,28.2131,鹰潭市,三川水表,细颗粒物(PM2.5),104,108,89,78,64,162,162,114,114,21,44,16,16,0.4,0.5
2023-03-02T15:00:00,2362A,114.9017,25.9149,赣州市,通天岩,细颗粒物(PM2.5),53,46,58,37,38,139,136,112,112,13,16,9,13,0.9,0.9
2023-03-02T15:00:00,2363A,114.9367,25.8664,赣州市,地委,颗粒物(PM10),55,60,68,27,41,143,142,105,105,10,20,18,17,1.0,1
2023-03-02T15:00:00,2364A,114.9461,25.8481,赣州市,气象台,,50,50,59,30,40,143,143,104,104,9,20,15,20,0.7,0.7
2023-03-02T15:00:00,2365A,114.9322,25.8333,赣州市,市图书馆,颗粒物(PM10),55,60,64,37,41,140,139,112,112,14,19,11,20,1.1,1.2
2023-03-02T15:00:00,2366A,114.8905,25.8471,赣州市,华坚鞋城,颗粒物(PM10),59,67,68,27,38,134,132,108,108,7,13,6,10,0.7,0.9
2023-03-02T15:00:00,2367A,114.9754,27.0803,吉安市,红声器材厂,,,,73,,47,146,146,114,114,,26,13,15,0.8,0.7
2023-03-02T15:00:00,2368A,114.9658,27.0999,吉安市,市森林工业局,细颗粒物(PM2.5),72,74,69,52,51,148,148,118,118,15,23,8,11,0.9,0.8
2023-03-02T15:00:00,2369A,114.99,27.1312,吉安市,市环境监测站,细颗粒物(PM2.5),65,70,69,47,48,153,153,120,120,26,32,10,15,0.6,0.7
2023-03-02T15:00:00,2370A,115.0093,27.0968,吉安市,青原区法院,细颗粒物(PM2.5),68,76,71,49,49,149,149,116,116,20,29,11,13,0.6,0.6
2023-03-02T15:00:00,2371A,114.3408,27.8064,宜春市,槟榔水业,颗粒物(PM10),142,233,79,63,43,104,102,85,85,12,24,21,7,0.6,0.6
2023-03-02T15:00:00,2373A,114.3956,27.7844,宜春市,市石油公司,"颗粒物(PM10),细颗粒物(PM2.5)",68,86,75,49,44,158,158,105,105,19,33,10,6,0.7,0.7
2023-03-02T15:00:00,2374A,114.3703,27.7914,宜春市,市气象局,,,78,68,53,44,154,153,109,109,,31,11,9,1.0,1
2023-03-02T15:00:00,2375A,114.4013,27.8074,宜春市,市广电局,,,,67,,46,69,,64,,,38,,15,,0.9
2023-03-02T15:00:00,2376A,116.2127,28.0814,抚州市,桐源党溪,,,,58,,40,106,,109,,,6,,5,,0.5
2023-03-02T15:00:00,2377A,116.3544,27.9831,抚州市,市站,细颗粒物(PM2.5),83,91,74,61,53,158,158,117,117,16,18,6,6,0.7,0.7
2023-03-02T15:00:00,2378A,116.3565,27.963,抚州市,血防站,细颗粒物(PM2.5),74,81,79,54,52,155,155,111,111,18,18,11,10,0.4,0.5
2023-03-02T15:00:00,2379A,116.3564,28.0007,抚州市,采茶剧团,细颗粒物(PM2.5),74,84,72,54,55,156,156,112,112,18,18,5,6,0.9,0.9
2023-03-02T15:00:00,2380A,116.385,27.9647,抚州市,医学分院,颗粒物(PM10),66,82,68,45,46,163,163,117,117,12,21,9,9,0.7,0.7
2023-03-02T15:00:00,2381A,118.005,28.4572,上饶市,百草园,细颗粒物(PM2.5),75,76,70,55,40,105,103,71,71,5,15,8,10,0.9,0.9
2023-03-02T15:00:00,2382A,117.9756,28.4436,上饶市,市监测站,颗粒物(PM10),63,76,68,42,39,156,152,110,110,15,26,12,19,0.5,0.6
2023-03-02T15:00:00,2383A,117.9519,28.4628,上饶市,凤凰光学,,,,69,,38,145,,94,94,,35,,45,,0.6
2023-03-02T15:00:00,2385A,114.17,35.9019,鹤壁市,市监测站,细颗粒物(PM2.5),93,114,102,69,59,121,121,79,79,23,36,19,12,0.5,0.7
