timepoint,stationcode,longitude,latitude,area,positionname,primarypollutant,aqi,pm10,pm10_24h,pm2_5,pm2_5_24h,o3,o3_24h,o3_8h,o3_8h_24h,no2,no2_24h,so2,so2_24h,co,co_24h
2022-10-16T19:00:00,1001A,116.3621,39.8784,北京市,万寿西宫,,16,7,57,2,38,96,50,78,55,12,18,3,3,0.2,0.4
2022-10-16T19:00:00,1002A,116.2202,40.2915,北京市,定陵(对照点),,19,3,18,1,8,138,58,64,60,1,2,3,2,0.1,0.2
2022-10-16T19:00:00,1003A,116.4174,39.9289,北京市,东四,,16,11,63,4,39,126,51,90,57,12,23,1,2,0.2,0.4
2022-10-16T19:00:00,1004A,116.4072,39.8863,北京市,天坛,,18,9,58,3,38,87,57,87,65,12,18,3,2,0.1,0.3
2022-10-16T19:00:00,1005A,116.462,39.9365,北京市,农展馆,,15,6,55,1,36,112,45,72,50,13,23,3,3,0.1,0.3
2022-10-16T19:00:00,1006A,116.3392,39.9295,北京市,官园,,15,6,50,2,38,119,47,64,55,11,17,3,2,0.2,0.4
2022-10-16T19:00:00,1007A,116.2878,39.9611,北京市,海淀万柳,,16,6,52,2,31,102,49,56,56,18,29,3,3,0.2,0.3
2022-10-16T19:00:00,1008A,116.6636,40.135,北京市,顺义新城,,17,7,51,1,28,103,53,65,57,7,13,3,2,0.1,0.2
2022-10-16T19:00:00,1009A,116.6275,40.3275,北京市,怀柔镇,,16,5,25,1,15,88,50,59,51,5,10,3,2,0.1,0.2
2022-10-16T19:00:00,1010A,116.2296,40.217,北京市,昌平镇,,15,8,27,3,15,125,45,58,48,7,8,3,3,0.2,0.3
2022-10-16T19:00:00,1011A,116.3966,39.9821,北京市,奥体中心,,14,6,54,2,37,119,44,80,50,16,24,2,2,0.1,0.3
2022-10-16T19:00:00,1012A,116.184,39.9136,北京市,古城,,17,8,52,2,30,123,52,65,57,9,14,3,2,0.3,0.5
2022-10-16T19:00:00,1015A,117.1444,39.1661,天津市,勤俭道,,17,15,86,4,56,98,31,53,52,34,36,5,8,0.5,0.7
2022-10-16T19:00:00,1017A,117.237,39.1082,天津市,大直沽八号路,,17,17,87,7,53,108,42,68,54,25,33,4,8,0.5,0.7
2022-10-16T19:00:00,1018A,117.202,39.0927,天津市,前进道,,15,15,88,6,60,91,43,62,56,25,34,5,9,0.0,0.3
2022-10-16T19:00:00,1019A,117.1837,39.2133,天津市,淮河道,,19,16,93,5,57,94,25,56,54,37,37,6,8,0.3,0.6
2022-10-16T19:00:00,1021A,117.307,39.0877,天津市,跃进路,,17,17,85,6,44,68,37,54,53,33,53,5,8,0.5,0.6
2022-10-16T19:00:00,1023A,117.707,39.0343,天津市,第四大街,,19,18,81,4,55,71,28,40,40,38,46,4,7,0.3,0.7
2022-10-16T19:00:00,1024A,117.457,38.8394,天津市,永明路,,27,24,78,7,53,57,10,34,30,53,51,5,9,0.5,0.8
2022-10-16T19:00:00,1026A,117.764,39.1587,天津市,汉北路,,23,18,79,4,48,65,16,49,46,46,50,15,11,0.3,0.7
2022-10-16T19:00:00,1027A,117.157,38.9194,天津市,团泊洼(对照点),,13,11,88,3,45,123,39,52,52,19,30,6,10,0.6,0.9
2022-10-16T19:00:00,1029A,114.4422,38.0444,石家庄市,职工医院,颗粒物(PM10),58,66,100,21,56,114,60,77,77,25,36,5,7,0.5,0.8
2022-10-16T19:00:00,1030A,114.6063,38.0266,石家庄市,高新区,颗粒物(PM10),51,52,99,21,64,102,49,71,70,32,41,2,4,0.5,0.7
2022-10-16T19:00:00,1031A,114.4898,38.1328,石家庄市,西北水源,颗粒物(PM10),58,66,113,25,60,127,45,81,78,39,35,4,5,0.5,0.8
2022-10-16T19:00:00,1032A,114.4586,38.0058,石家庄市,西南高教,颗粒物(PM10),54,57,103,35,66,97,56,84,83,29,32,6,8,0.5,0.8
2022-10-16T19:00:00,1033A,114.5331,38.0178,石家庄市,世纪公园,颗粒物(PM10),51,51,115,30,72,105,48,72,70,18,35,4,7,0.6,0.9
2022-10-16T19:00:00,1034A,114.509,38.0457,石家庄市,人民会堂,颗粒物(PM10),57,63,114,28,71,119,58,76,76,32,38,6,10,0.7,1
2022-10-16T19:00:00,1035A,114.3524,37.8911,石家庄市,封龙山(对照点),颗粒物(PM10),71,92,80,32,49,163,78,95,79,23,26,5,8,0.8,1
2022-10-16T19:00:00,1037A,118.131,39.6363,唐山市,雷达站,,31,31,95,9,59,91,48,60,60,36,46,6,8,0.4,0.6
2022-10-16T19:00:00,1038A,118.1725,39.6334,唐山市,物资局,,28,28,91,15,55,65,44,59,59,35,45,6,9,0.4,0.6
2022-10-16T19:00:00,1040A,118.1705,39.6506,唐山市,十二中,,27,27,82,12,55,76,30,54,52,45,46,3,6,0.3,0.6
2022-10-16T19:00:00,1041A,118.1869,39.622,唐山市,小山,,35,35,81,16,53,85,14,52,49,56,49,6,8,0.4,0.6
2022-10-16T19:00:00,1042A,119.5134,39.8207,秦皇岛市,北戴河环保局,,19,19,63,7,44,121,60,80,60,22,26,3,5,0,0.2
2022-10-16T19:00:00,1043A,119.7493,40.0116,秦皇岛市,第一关,,37,37,68,9,45,93,14,55,46,62,34,5,6,0.3,0.5
2022-10-16T19:00:00,1044A,119.5897,39.9499,秦皇岛市,监测站,,28,28,65,6,45,125,35,69,54,38,34,4,7,0.4,0.5
2022-10-16T19:00:00,1046A,119.5251,39.9041,秦皇岛市,建设大厦,,34,34,70,22,40,135,40,82,59,44,32,4,7,0.3,0.5
2022-10-16T19:00:00,1047A,114.5129,36.61763,邯郸市,环保局,,,,,,,,,,,,,,,,
2022-10-16T19:00:00,1048A,114.5302,36.6116,邯郸市,东污水处理厂,,46,46,135,9,99,76,24,62,54,32,57,2,7,0.4,0.9
2022-10-16T19:00:00,1049A,114.4918,36.5713,邯郸市,矿院,颗粒物(PM10),53,55,145,12,99,78,33,66,58,28,54,6,14,0.5,1.1
2022-10-16T19:00:00,1050A,114.484,36.6133,邯郸市,丛台公园,,44,44,135,8,91,101,31,64,56,24,42,6,9,0.2,0.8
2022-10-16T19:00:00,1051A,115.493,38.8632,保定市,游泳馆,,43,43,102,7,58,100,49,71,70,53,47,3,7,0,0.3
2022-10-16T19:00:00,1052A,115.5213,38.8959,保定市,华电二区,,40,40,100,22,66,116,46,65,64,31,33,8,8,0.1,0.5
2022-10-16T19:00:00,1053A,115.4713,38.9108,保定市,接待中心,,47,47,124,13,66,93,42,61,60,39,35,3,5,0.3,0.7
2022-10-16T19:00:00,1054A,115.4612,38.8416,保定市,地表水厂,颗粒物(PM10),54,58,106,15,55,95,49,62,62,27,35,4,7,0.4,0.7
2022-10-16T19:00:00,1055A,115.4323,38.8697,保定市,胶片厂,,30,30,89,7,57,108,59,73,72,31,35,8,10,0.5,0.6
2022-10-16T19:00:00,1056A,115.5086,38.8639,保定市,监测站,颗粒物(PM10),64,77,109,20,62,122,47,70,68,32,32,4,5,0,0.4
2022-10-16T19:00:00,1057A,114.8883,40.8336,张家口市,人民公园,,21,14,22,1,3,76,66,68,68,1,2,5,6,0.0,0
2022-10-16T19:00:00,1059A,114.8687,40.8042,张家口市,五金库,,,10,19,5,6,,,,,4,3,7,8,0.6,0.6
2022-10-16T19:00:00,1060A,114.8902,40.762,张家口市,世纪豪园,,21,7,17,2,5,77,67,69,69,5,6,3,2,0.2,0.2
2022-10-16T19:00:00,1061A,114.8916,40.8661,张家口市,北泵房(对照点),,,,,,,,,,,,,,,,
2022-10-16T19:00:00,1062A,117.9531,40.9081,承德市,铁路,,20,20,40,5,17,63,54,60,60,13,30,4,5,0.1,0.2
2022-10-16T19:00:00,1063A,117.9392,40.9763,承德市,中国银行,,34,34,37,2,14,60,51,57,56,10,26,2,2,0.1,0.4
2022-10-16T19:00:00,1064A,117.9503,40.928,承德市,开发区,,29,29,48,13,18,67,62,64,64,5,33,1,3,0.2,0.4
2022-10-16T19:00:00,1065A,117.8051,40.9655,承德市,文化中心,,25,25,33,2,10,101,57,67,60,9,14,1,2,0.2,0.2
2022-10-16T19:00:00,1066A,117.9268,41.0026,承德市,离宫(对照点),,36,36,27,5,15,82,42,53,52,7,9,6,6,0.2,0.2
2022-10-16T19:00:00,1067A,116.6708,39.5111,廊坊市,药材公司,,43,43,88,2,44,116,36,60,55,37,32,2,6,0.3,0.4
2022-10-16T19:00:00,1068A,116.7214,39.5589,廊坊市,开发区,,42,42,72,15,46,105,28,62,58,51,43,6,7,0.2,0.4
2022-10-16T19:00:00,1070A,116.7244,39.5269,廊坊市,北华航天学院,,39,39,92,6,50,130,33,60,56,41,42,8,9,0.3,0.5
2022-10-16T19:00:00,1071A,116.8842,38.2991,沧州市,沧县城建局,颗粒物(PM10),52,54,111,16,71,99,11,51,40,60,53,6,8,0.6,0.7
2022-10-16T19:00:00,1072A,116.8584,38.3254,沧州市,电视转播站,,46,46,107,17,70,97,28,96,50,40,40,8,11,0.5,0.5
2022-10-16T19:00:00,1073A,116.8709,38.3228,沧州市,市环保局,颗粒物(PM10),54,57,114,18,73,92,18,92,49,57,42,8,10,0.4,0.5
2022-10-16T19:00:00,1074A,115.6838,37.7541,衡水市,电机北厂,颗粒物(PM10),63,75,126,13,70,127,20,99,51,49,37,7,12,0.4,0.4
2022-10-16T19:00:00,1075A,115.6303,37.7316,衡水市,市监测站,颗粒物(PM10),52,54,132,5,75,90,28,74,50,36,35,3,6,0.3,0.5
2022-10-16T19:00:00,1077A,114.4704,37.0886,邢台市,达活泉,颗粒物(PM10),58,66,142,16,84,87,36,61,53,32,37,8,13,0.5,1.3
2022-10-16T19:00:00,1078A,114.5062,37.0349,邢台市,邢师高专,颗粒物(PM10),58,66,126,12,82,87,28,60,51,33,40,7,8,0.5,1.2
2022-10-16T19:00:00,1079A,114.5237,37.0851,邢台市,路桥公司,,45,45,136,14,80,95,28,61,53,31,33,8,8,0.3,1
2022-10-16T19:00:00,1080A,114.4725,37.0719,邢台市,市环保局,颗粒物(PM10),60,70,157,7,83,100,33,60,51,33,38,9,12,0.3,1.1
2022-10-16T19:00:00,1081A,112.5139,37.8873,太原市,尖草坪,颗粒物(PM10),59,68,85,24,37,98,65,85,85,28,60,12,11,0.5,0.9
2022-10-16T19:00:00,1083A,112.434,38.0108,太原市,上兰(对照点),,,,,,,,,,,,,,,,
2022-10-16T19:00:00,1084A,112.469,37.7124,太原市,晋源,颗粒物(PM10),69,88,94,34,40,101,57,85,84,43,54,16,15,0.6,0.6
2022-10-16T19:00:00,1085A,112.5583,37.7394,太原市,小店,颗粒物(PM10),65,80,111,26,42,100,72,89,89,29,56,8,15,0.4,0.8
2022-10-16T19:00:00,1086A,112.5369,37.8692,太原市,桃园,颗粒物(PM10),58,66,84,22,36,101,61,88,88,31,56,13,8,0.9,0.9
2022-10-16T19:00:00,1087A,112.57,37.8195,太原市,坞城,,,69,87,29,35,104,69,92,92,,55,8,11,0.5,0.8
2022-10-16T19:00:00,1088A,112.549,37.9854,太原市,南寨,颗粒物(PM10),77,103,101,25,35,100,52,89,87,27,42,9,8,0.2,0.4
2022-10-16T19:00:00,1089A,112.4701,37.782,太原市,金胜,,,,,,,,,,,,,,,,
2022-10-16T19:00:00,1090A,111.6507,40.7517,呼和浩特市,呼市一监,,22,12,12,2,2,73,68,71,71,7,8,6,6,0.4,0.4
2022-10-16T19:00:00,1091A,111.6572,40.8033,呼和浩特市,小召,,22,7,10,1,2,77,69,74,74,7,9,6,9,0.2,0.2
2022-10-16T19:00:00,1094A,111.7516,40.8369,呼和浩特市,如意水处理厂,,20,7,7,1,2,72,62,69,69,7,7,1,4,0.3,0.3
2022-10-16T19:00:00,1095A,111.7276,40.8062,呼和浩特市,二十九中,,21,8,11,1,2,73,65,70,70,7,7,5,6,0.4,0.4
2022-10-16T19:00:00,1096A,111.5512,40.7866,呼和浩特市,工大金川校区,,,13,11,1,1,71,65,68,68,6,5,5,5,,
2022-10-16T19:00:00,1097A,111.717,40.7612,呼和浩特市,化肥厂生活区,,,7,8,2,2,74,67,71,71,,8,6,7,0.3,0.3
2022-10-16T19:00:00,1098A,123.6836,41.9339,沈阳市,森林路(对照点),,,,,,,,,,,,,,,,
2022-10-16T19:00:00,1099A,123.505,41.7406,沈阳市,浑南东路,,14,14,36,2,17,66,32,48,47,22,21,9,11,0.4,0.5
2022-10-16T19:00:00,1100A,123.4231,41.6989,沈阳市,新秀街,,19,16,34,6,22,78,26,52,49,38,26,10,11,0.4,0.5
2022-10-16T19:00:00,1102A,123.5903,41.8411,沈阳市,东陵路,,40,40,43,11,21,74,5,48,42,46,19,10,9,0.5,0.4
2022-10-16T19:00:00,1103A,123.4264,41.8467,沈阳市,陵东街,,16,16,35,4,16,110,28,50,48,30,22,8,8,0.4,0.5
2022-10-16T19:00:00,1104A,123.4114,41.7653,沈阳市,文化路,,16,16,28,4,20,107,33,50,48,26,16,8,8,0.3,0.4
2022-10-16T19:00:00,1105A,123.4678,41.7867,沈阳市,小河沿,,17,15,35,5,22,108,32,49,48,34,23,5,6,0.5,0.5
2022-10-16T19:00:00,1106A,123.4017,41.7972,沈阳市,太原街,,27,27,46,8,20,120,15,50,42,45,28,7,6,0.5,0.5
2022-10-16T19:00:00,1108A,123.3783,41.9228,沈阳市,京沈街,,49,49,42,7,18,103,26,51,48,36,19,15,9,0.4,0.4
2022-10-16T19:00:00,1109A,121.612,38.9741,大连市,甘井子,,16,4,104,1,89,103,51,103,55,16,26,5,8,0.4,0.6
2022-10-16T19:00:00,1110A,121.565,38.9511,大连市,周水子,,22,22,121,6,71,71,46,66,48,18,35,5,6,0.1,0.7
2022-10-16T19:00:00,1111A,121.5637,38.8845,大连市,星海三站,,13,6,101,2,88,99,39,80,43,26,33,2,7,0.5,0.8
2022-10-16T19:00:00,1112A,121.6302,38.9117,大连市,青泥洼桥,,16,7,116,2,79,112,49,78,50,30,41,5,8,0.3,0.9
2022-10-16T19:00:00,1113A,121.6251,38.8638,大连市,傅家庄,,30,30,106,7,78,142,51,110,51,19,24,6,11,0.6,1
2022-10-16T19:00:00,1114A,121.5213,38.8661,大连市,七贤岭,,19,10,76,5,59,116,60,70,62,15,19,6,6,0.6,0.8
2022-10-16T19:00:00,1115A,121.2529,38.8061,大连市,旅顺,,27,27,82,2,42,142,56,136,57,14,18,7,8,0.3,0.5
2022-10-16T19:00:00,1116A,121.7485,39.1311,大连市,金州,,16,16,95,5,63,98,49,98,51,21,29,7,9,0.3,0.4
2022-10-16T19:00:00,1117A,121.7811,39.0496,大连市,开发区,,27,27,111,5,84,90,51,75,52,17,36,3,6,0.2,0.6
2022-10-16T19:00:00,1118A,121.9762,39.0631,大连市,双D港,,,,,,,,,,,,,,,,
2022-10-16T19:00:00,1119A,125.3325,43.9166,长春市,食品厂,,41,41,35,9,11,45,18,40,36,33,28,6,4,0.3,0.3
2022-10-16T19:00:00,1120A,125.2863,43.9027,长春市,客车厂,,47,47,33,6,24,48,22,44,41,38,30,6,6,0.3,0.3
2022-10-16T19:00:00,1121A,125.2841,43.8463,长春市,邮电学院,,40,40,29,11,8,52,22,48,45,35,22,5,5,0.4,0.4
2022-10-16T19:00:00,1122A,125.3716,43.8772,长春市,劳动公园,,26,26,36,6,10,51,29,48,45,25,21,5,5,0.4,0.4
2022-10-16T19:00:00,1123A,125.3297,43.8805,长春市,园林处,,29,29,30,13,16,51,26,46,44,28,20,5,4,0.4,0.3
2022-10-16T19:00:00,1124A,125.4605,43.79,长春市,净月潭,,24,24,28,2,8,53,27,50,46,26,26,5,5,0.2,0.2
2022-10-16T19:00:00,1125A,125.7194,43.515,长春市,甩湾子(对照点),,,,,,,,,,,,,,,,
2022-10-16T19:00:00,1126A,125.3863,43.8447,长春市,经开区环卫处,,23,23,41,6,10,52,29,48,45,28,23,6,6,0.3,0.4
2022-10-16T19:00:00,1127A,125.245,43.7783,长春市,高新区管委会,,37,37,33,14,12,52,14,48,43,38,23,5,6,0.3,0.3
2022-10-16T19:00:00,1128A,125.1761,43.8325,长春市,岱山公园,,37,37,39,6,7,49,20,42,37,32,29,7,7,0.3,0.3
2022-10-16T19:00:00,1129A,126.5422,45.755,哈尔滨市,岭北(对照点),,41,41,31,8,10,51,34,47,46,12,15,5,6,0.4,0.5
2022-10-16T19:00:00,1130A,126.561,45.8167,哈尔滨市,松北商大,,38,38,26,9,6,59,33,52,49,21,18,10,7,0.4,0.4
2022-10-16T19:00:00,1131A,126.979,45.5419,哈尔滨市,阿城会宁,,44,44,51,15,11,51,31,45,43,21,26,10,13,0.5,0.5
2022-10-16T19:00:00,1132A,126.599,45.7222,哈尔滨市,南岗学府路,,32,32,31,7,6,47,32,40,40,18,25,8,10,0.4,0.4
2022-10-16T19:00:00,1133A,126.689,45.7733,哈尔滨市,太平宏伟公园,,35,35,28,10,11,58,42,53,52,11,15,5,7,0.3,0.2
2022-10-16T19:00:00,1134A,126.635,45.7667,哈尔滨市,道外承德广场,,39,39,33,13,7,51,35,44,44,19,23,6,7,0.3,0.4
2022-10-16T19:00:00,1135A,126.685,45.7319,哈尔滨市,香坊红旗大街,颗粒物(PM10),54,57,41,12,8,52,36,48,47,18,21,4,6,0.5,0.5
2022-10-16T19:00:00,1136A,126.6411,45.7258,哈尔滨市,动力和平路,,30,30,30,6,3,46,27,41,40,28,26,7,10,0.6,0.6
2022-10-16T19:00:00,1137A,126.593,45.7478,哈尔滨市,道里建国路,,24,24,30,6,7,49,34,43,42,20,26,10,12,0,0.1
2022-10-16T19:00:00,1138A,126.615,45.61,哈尔滨市,平房东轻厂,,32,32,41,12,10,46,19,40,37,28,28,8,8,0.7,0.6
2022-10-16T19:00:00,1139A,126.595,45.9855,哈尔滨市,呼兰师专,,25,25,24,12,14,52,40,48,47,11,16,6,7,0.5,0.6
2022-10-16T19:00:00,1140A,126.6206,45.6842,哈尔滨市,省农科院,,46,46,40,13,9,55,19,47,43,28,20,12,9,0.6,1
2022-10-16T19:00:00,1141A,121.4,31.238,上海市,普陀,,40,35,41,28,31,104,94,92,92,20,33,3,3,0.7,0.8
2022-10-16T19:00:00,1142A,121.478,31.2036,上海市,十五厂,,38,33,33,26,30,115,105,100,100,19,28,6,7,0.6,0.6
2022-10-16T19:00:00,1143A,121.467,31.3008,上海市,虹口,,46,46,38,23,25,99,90,89,89,18,29,4,5,0.7,0.6
2022-10-16T19:00:00,1144A,121.412,31.1654,上海市,徐汇上师大,,39,25,42,27,31,106,105,96,96,14,22,6,6,0.6,0.7
2022-10-16T19:00:00,1145A,121.536,31.2659,上海市,杨浦四漂,,,44,36,19,22,108,,98,98,31,34,7,7,0.9,0.7
2022-10-16T19:00:00,1146A,120.978,31.0935,上海市,青浦淀山湖(对照点),,,,,,,,,,,,,,,,
2022-10-16T19:00:00,1147A,121.425,31.2261,上海市,静安监测站,,50,50,51,27,29,105,96,91,91,18,28,5,5,0.6,0.6
2022-10-16T19:00:00,1148A,121.703,31.1907,上海市,浦东川沙,,46,42,43,32,27,111,93,100,98,24,27,8,8,0.8,0.8
2022-10-16T19:00:00,1149A,121.533,31.2284,上海市,浦东新区监测站,,45,43,42,31,30,103,88,86,86,27,30,6,6,0.6,0.5
2022-10-16T19:00:00,1150A,121.577,31.2071,上海市,浦东张江,,44,44,38,29,29,89,87,84,84,24,34,4,4,0.8,0.8
2022-10-16T19:00:00,1151A,118.8086,32.1065,南京市,迈皋桥,颗粒物(PM10),53,56,46,29,21,142,97,126,126,38,40,4,5,0.4,0.4
2022-10-16T19:00:00,1152A,118.7538,32.0551,南京市,草场门,,47,47,44,17,20,141,115,129,129,31,43,1,2,0.5,0.5
2022-10-16T19:00:00,1153A,118.7794,32.0745,南京市,山西路,,48,48,44,29,22,151,151,150,150,21,36,3,4,0.3,0.3
2022-10-16T19:00:00,1154A,118.7752,32.0023,南京市,中华门,颗粒物(PM10),51,51,47,12,10,154,118,133,132,25,41,4,4,0.4,0.4
2022-10-16T19:00:00,1155A,118.8109,32.0309,南京市,瑞金路,,40,40,38,27,21,158,125,140,140,30,45,4,4,0.7,0.6
2022-10-16T19:00:00,1156A,118.7997,32.0754,南京市,玄武湖,,43,39,45,30,21,151,118,138,138,23,39,3,4,0.4,0.4
2022-10-16T19:00:00,1157A,118.6414,32.0931,南京市,浦口,,39,36,39,27,23,184,123,153,153,17,28,5,8,0.4,0.5
2022-10-16T19:00:00,1158A,118.7356,31.9996,南京市,奥体中心,,40,39,43,27,22,149,126,134,134,22,45,2,3,0.3,0.4
2022-10-16T19:00:00,1159A,118.9125,32.1028,南京市,仙林大学城,,41,41,39,22,19,160,130,144,144,12,32,2,3,0.5,0.5
2022-10-16T19:00:00,1160A,120.561,31.2472,苏州市,上方山(对照点),,49,49,50,21,24,144,107,127,127,22,21,6,5,0.6,0.5
2022-10-16T19:00:00,1161A,120.628,31.2864,苏州市,南门,,,,,,,,,,,,,,,,
2022-10-16T19:00:00,1162A,120.591,31.3019,苏州市,彩香,,35,30,41,14,27,160,112,142,141,21,20,6,6,0.7,0.7
2022-10-16T19:00:00,1163A,120.596,31.3264,苏州市,轧钢厂,,34,33,43,14,24,158,108,141,140,29,32,6,6,0.7,0.7
2022-10-16T19:00:00,1164A,120.613,31.2703,苏州市,吴中区,,34,27,38,16,25,156,107,139,138,27,22,6,6,0.6,0.5
2022-10-16T19:00:00,1165A,120.543,31.2994,苏州市,苏州新区,,31,27,39,16,29,149,97,130,129,22,20,7,7,0.8,0.7
2022-10-16T19:00:00,1166A,120.669,31.3097,苏州市,苏州工业园区,,33,31,38,19,26,150,103,133,131,26,23,6,6,0.7,0.7
2022-10-16T19:00:00,1167A,120.641,31.3708,苏州市,相城区,,32,31,38,14,21,158,100,138,136,33,28,7,7,0.7,0.7
2022-10-16T19:00:00,1168A,120.9098,31.9663,南通市,狼山街道,,,49,33,,18,141,125,136,136,16,20,6,6,0.4,0.3
2022-10-16T19:00:00,1169A,120.86,32.0005,南通市,虹桥,细颗粒物(PM2.5),69,38,32,50,30,135,118,132,130,10,12,6,5,0.6,0.5
2022-10-16T19:00:00,1170A,120.87,32.02,南通市,城中,细颗粒物(PM2.5),60,44,31,43,31,129,113,126,124,15,19,2,2,0.6,0.5
2022-10-16T19:00:00,1171A,120.94,31.93,南通市,星湖花园,,45,37,31,31,25,138,122,129,129,12,17,7,6,0.6,0.5
2022-10-16T19:00:00,1172A,120.81,32.0417,南通市,紫琅学院,颗粒物(PM10),51,51,43,34,31,153,133,149,147,17,34,6,7,0.6,0.5
2022-10-16T19:00:00,1173A,119.176,34.5885,连云港市,市环境监测站,,48,48,57,29,32,159,108,129,129,29,35,6,7,0.4,0.3
2022-10-16T19:00:00,1177A,117.179,34.2761,徐州市,黄河新村,细颗粒物(PM2.5),88,119,85,65,43,178,138,156,156,38,33,15,10,1.0,0.9
2022-10-16T19:00:00,1178A,117.1918,34.2384,徐州市,淮塔,细颗粒物(PM2.5),79,105,86,58,43,178,149,162,162,31,42,9,8,0.8,0.7
2022-10-16T19:00:00,1180A,117.256,34.2153,徐州市,新城区,细颗粒物(PM2.5),100,105,81,75,50,181,137,159,159,33,45,10,10,0.7,0.6
2022-10-16T19:00:00,1181A,117.244,34.2911,徐州市,桃园路,颗粒物(PM10),86,122,75,61,38,179,122,156,156,36,24,10,12,1.1,1
2022-10-16T19:00:00,1182A,117.2933,34.2778,徐州市,农科院,细颗粒物(PM2.5),77,102,68,56,36,172,104,145,145,56,47,11,14,0.6,0.5
2022-10-16T19:00:00,1186A,119.389,32.3761,扬州市,邗江监测站,颗粒物(PM10),52,53,41,29,23,151,109,144,140,25,22,8,10,0.8,0.7
2022-10-16T19:00:00,1188A,120.269,31.4867,无锡市,雪浪,"颗粒物(PM10),细颗粒物(PM2.5)",52,53,49,36,30,175,114,145,144,26,28,7,7,0.6,0.7
2022-10-16T19:00:00,1189A,120.275,31.6219,无锡市,黄巷,颗粒物(PM10),57,63,60,27,28,166,115,144,144,24,38,7,8,0.6,0.6
2022-10-16T19:00:00,1190A,120.294,31.56,无锡市,曹张,"颗粒物(PM10),细颗粒物(PM2.5)",52,54,49,36,32,176,107,145,145,27,30,8,10,0.6,0.7
2022-10-16T19:00:00,1191A,120.242,31.5031,无锡市,漆塘,,48,48,44,29,27,175,106,146,145,19,19,9,9,0.8,0.8
2022-10-16T19:00:00,1192A,120.3489,31.5863,无锡市,东亭,颗粒物(PM10),57,63,54,36,33,173,97,142,140,27,29,8,9,0.8,0.9
2022-10-16T19:00:00,1193A,120.354,31.5475,无锡市,旺庄,颗粒物(PM10),51,51,50,34,31,173,104,146,144,31,31,11,12,0.7,0.9
2022-10-16T19:00:00,1194A,120.245,31.5631,无锡市,荣巷,"颗粒物(PM10),细颗粒物(PM2.5)",52,53,46,36,30,174,121,147,147,21,22,9,9,0.8,0.8
2022-10-16T19:00:00,1195A,120.299,31.6817,无锡市,堰桥,,48,48,44,31,32,173,114,148,147,18,24,5,6,0.8,0.8
2022-10-16T19:00:00,1196A,119.9633,31.762,常州市,市监测站,,,54,43,40,32,161,126,144,143,,27,6,6,0.4,0.5
2022-10-16T19:00:00,1200A,119.9468,31.7069,常州市,武进监测站,颗粒物(PM10),61,72,54,38,28,174,138,155,155,20,27,7,7,0.5,0.5
2022-10-16T19:00:00,1201A,119.9255,31.9087,常州市,安家,颗粒物(PM10),65,80,51,46,29,172,123,159,154,26,27,7,6,0.6,0.5
2022-10-16T19:00:00,1203A,119.6707,32.1875,镇江市,新区办事处,细颗粒物(PM2.5),57,61,40,40,28,156,95,145,139,50,29,9,11,0.6,0.5
2022-10-16T19:00:00,1204A,119.4974,32.1968,镇江市,职教中心,细颗粒物(PM2.5),74,56,46,54,34,166,126,158,154,22,29,5,6,0.6,0.6
2022-10-16T19:00:00,1205A,119.4303,32.1328,镇江市,丹徒区监测站,细颗粒物(PM2.5),62,48,40,44,38,164,122,154,151,16,22,4,5,0.4,0.4
2022-10-16T19:00:00,1206A,119.905,32.4878,泰州市,公园路,颗粒物(PM10),53,56,42,36,30,150,108,141,138,21,21,10,8,0.6,0.6
2022-10-16T19:00:00,1207A,119.9189,32.4625,泰州市,莲花,细颗粒物(PM2.5),55,51,43,39,33,147,113,139,137,18,21,9,8,0.6,0.6
2022-10-16T19:00:00,1209A,119.888,32.4639,泰州市,留学生创业园,颗粒物(PM10),51,51,48,35,34,154,116,146,143,18,24,8,10,0.5,0.5
2022-10-16T19:00:00,1210A,119.036,33.5981,淮安市,钵池山,细颗粒物(PM2.5),59,66,54,42,39,151,109,139,137,28,23,8,7,1.1,0.9
2022-10-16T19:00:00,1211A,119.007,33.575,淮安市,北京南路,细颗粒物(PM2.5),68,73,58,49,44,157,123,145,145,28,26,12,10,1.0,0.7
2022-10-16T19:00:00,1212A,118.989,33.6067,淮安市,市监测站,细颗粒物(PM2.5),74,66,57,54,47,154,121,145,145,30,31,14,10,1.0,0.8
2022-10-16T19:00:00,1213A,119.135,33.5039,淮安市,楚州区监测站,颗粒物(PM10),57,63,55,34,39,145,110,138,136,21,23,8,8,0.7,0.7
2022-10-16T19:00:00,1214A,119.0186,33.6297,淮安市,淮阴区监测站,细颗粒物(PM2.5),78,81,65,57,51,151,102,137,136,35,28,9,6,0.9,0.8
2022-10-16T19:00:00,1215A,120.118,33.4022,盐城市,盐城电厂,细颗粒物(PM2.5),58,51,58,41,53,149,127,139,137,19,30,11,7,0.5,0.5
2022-10-16T19:00:00,1216A,120.156,33.3942,盐城市,市监测站,,49,49,64,30,45,138,116,132,129,20,28,6,6,0.5,0.5
2022-10-16T19:00:00,1218A,120.2144,33.38,盐城市,开发区管委会,细颗粒物(PM2.5),54,45,61,38,44,145,121,138,136,21,24,11,9,0.6,0.6
2022-10-16T19:00:00,1220A,118.293,33.9528,宿迁市,宿迁学院,细颗粒物(PM2.5),68,82,62,49,32,173,126,149,149,42,40,9,8,0.6,0.5
2022-10-16T19:00:00,1221A,118.2442,33.9592,宿迁市,宿迁中学,颗粒物(PM10),68,85,60,47,32,174,122,148,148,46,35,12,8,0.8,0.5
2022-10-16T19:00:00,1223A,120.2072,30.2111,杭州市,滨江,臭氧1小时,57,48,68,32,37,172,165,153,153,23,42,5,6,0.7,0.7
2022-10-16T19:00:00,1224A,120.0633,30.2747,杭州市,西溪,颗粒物(PM10),51,51,52,19,27,148,148,133,133,22,26,11,9,0.9,0.8
2022-10-16T19:00:00,1225A,119.026,29.635,杭州市,千岛湖(对照点),,,,,,,,,,,,,,,,
2022-10-16T19:00:00,1226A,120.3461,30.3153,杭州市,下沙,颗粒物(PM10),51,52,64,32,32,160,145,151,151,32,44,9,9,0.9,0.7
2022-10-16T19:00:00,1227A,120.1269,30.2456,杭州市,卧龙桥,,50,35,43,26,34,162,157,149,149,24,28,7,7,0.7,0.6
2022-10-16T19:00:00,1228A,120.1903,30.2692,杭州市,浙江农大,臭氧1小时,57,42,56,29,32,165,165,150,150,25,45,8,8,0.8,0.6
2022-10-16T19:00:00,1229A,120.157,30.2897,杭州市,朝晖五区,,,,,,,,,,,,,,,,
2022-10-16T19:00:00,1230A,120.1197,30.3119,杭州市,和睦小学,颗粒物(PM10),52,53,65,30,36,156,152,143,143,31,43,6,5,0.9,0.8
2022-10-16T19:00:00,1231A,120.3019,30.4183,杭州市,临平镇,臭氧1小时,65,62,68,29,33,172,172,162,162,20,28,8,7,1.0,0.7
2022-10-16T19:00:00,1232A,120.2697,30.1819,杭州市,城厢镇,,50,50,56,28,35,171,157,154,154,23,32,7,7,0.7,0.6
2022-10-16T19:00:00,1233A,120.0883,30.1808,杭州市,云栖,,50,36,40,16,22,161,160,147,147,25,29,7,6,0.8,0.7
2022-10-16T19:00:00,1234A,121.8358,29.911,宁波市,区环保大楼,,26,21,26,10,14,112,81,99,93,28,19,8,8,0.5,0.5
2022-10-16T19:00:00,1235A,121.56,29.82,宁波市,万里学院,,31,29,35,16,19,124,98,108,107,15,17,5,7,0.9,0.6
2022-10-16T19:00:00,1236A,121.713,29.9572,宁波市,龙赛医院,,35,18,25,11,20,123,109,110,110,14,16,8,8,0.4,0.4
2022-10-16T19:00:00,1239A,121.633,29.7733,宁波市,钱湖水厂,,28,28,32,16,19,114,89,100,95,16,17,5,5,0.5,0.5
2022-10-16T19:00:00,1240A,121.5856,29.8635,宁波市,太古小学,,28,23,34,16,24,117,88,99,97,20,21,7,8,0.5,0.5
2022-10-16T19:00:00,1241A,121.524,29.8674,宁波市,市环境监测中心,,30,22,36,11,16,125,93,102,101,12,17,3,6,0.5,0.3
2022-10-16T19:00:00,1242A,120.634,28.0089,温州市,瓯海,颗粒物(PM10),51,52,53,32,30,96,62,82,79,26,25,6,7,0.6,0.6
2022-10-16T19:00:00,1243A,120.6748,27.9939,温州市,南浦,颗粒物(PM10),52,53,51,29,30,94,61,84,81,22,22,5,5,0.4,0.4
2022-10-16T19:00:00,1244A,120.76,27.9747,温州市,龙湾,,20,17,48,8,24,105,64,87,74,16,26,5,6,0.6,0.6
2022-10-16T19:00:00,1245A,120.6709,28.0167,温州市,市站,,50,50,46,35,30,101,57,87,83,31,23,6,5,0.6,0.5
2022-10-16T19:00:00,1246A,120.598,30.0911,绍兴市,袍江站,,,,,,,,,,,,,,,,
2022-10-16T19:00:00,1247A,120.6053,29.9928,绍兴市,城东开发委,,49,49,57,31,40,146,131,133,133,25,32,9,10,0.7,0.5
2022-10-16T19:00:00,1250A,120.0751,30.8669,湖州市,城西水厂,,46,46,51,26,30,211,137,168,168,53,55,7,8,0.6,0.7
2022-10-16T19:00:00,1252A,120.7436,30.778,嘉兴市,清河小学,,39,29,35,17,22,138,122,129,129,29,29,6,6,0.5,0.6
2022-10-16T19:00:00,1253A,120.726,30.7478,嘉兴市,嘉兴学院,,39,36,41,23,30,137,122,131,131,27,24,6,6,0.5,0.4
2022-10-16T19:00:00,1255A,121.273,28.6459,台州市,黄岩环保大楼,细颗粒物(PM2.5),64,57,46,46,26,137,94,110,85,17,15,6,6,0.6,0.5
2022-10-16T19:00:00,1256A,121.419,28.6542,台州市,台州环保大楼,细颗粒物(PM2.5),67,62,36,48,25,143,81,102,86,20,12,6,6,0.5,0.3
2022-10-16T19:00:00,1257A,121.377,28.5773,台州市,路桥田洋王,颗粒物(PM10),54,57,37,36,24,141,92,103,87,12,11,5,5,0.5,0.4
2022-10-16T19:00:00,1258A,122.122,30.0203,舟山市,定海檀枫,,36,24,24,14,13,118,115,108,108,9,10,3,3,0.3,0.3
2022-10-16T19:00:00,1259A,122.3094,29.9558,舟山市,普陀东港,,36,24,23,14,12,117,114,108,108,18,19,4,4,0.4,0.3
2022-10-16T19:00:00,1260A,122.19,29.9944,舟山市,临城新区,颗粒物(PM10),73,96,30,33,13,112,109,101,98,11,14,5,5,0.4,0.3
2022-10-16T19:00:00,1261A,119.649,29.1131,金华市,四中(停运161031),,,,,,,,,,,,,,,,
2022-10-16T19:00:00,1262A,119.647,29.077,金华市,十五中,细颗粒物(PM2.5),69,69,71,50,47,150,116,133,133,36,30,6,6,0.6,0.6
2022-10-16T19:00:00,1263A,119.686,29.1029,金华市,监测站,颗粒物(PM10),66,81,63,45,40,159,113,137,137,36,29,5,5,0.6,0.6
2022-10-16T19:00:00,1264A,118.8692,28.9398,衢州市,环保大楼,细颗粒物(PM2.5),95,73,64,71,44,150,96,133,128,27,23,5,6,0.6,0.5
2022-10-16T19:00:00,1265A,118.8709,28.9666,衢州市,实验学校,细颗粒物(PM2.5),87,88,59,64,43,161,112,146,143,32,26,6,6,0.6,0.5
2022-10-16T19:00:00,1266A,118.8621,28.9808,衢州市,衢州学院,细颗粒物(PM2.5),97,105,67,72,44,162,99,144,139,35,24,7,6,0.5,0.5
2022-10-16T19:00:00,1267A,119.914,28.4514,丽水市,监测站大楼,颗粒物(PM10),59,67,51,41,26,119,71,111,86,26,16,6,7,0.6,0.4
2022-10-16T19:00:00,1268A,119.93,28.4586,丽水市,莲都小学,颗粒物(PM10),71,91,65,41,31,126,82,116,100,21,15,6,6,0.5,0.5
2022-10-16T19:00:00,1269A,119.879,28.4231,丽水市,余庄前,颗粒物(PM10),59,68,52,37,31,124,46,115,98,18,17,6,6,0.5,0.5
2022-10-16T19:00:00,1270A,117.1959,31.7848,合肥市,明珠广场,,39,39,64,14,31,158,123,139,139,22,49,9,10,0.4,0.5
2022-10-16T19:00:00,1271A,117.3072,31.8764,合肥市,三里街,,37,37,51,9,19,134,104,125,125,35,47,10,8,0.6,0.6
2022-10-16T19:00:00,1272A,117.2588,31.8707,合肥市,琥珀山庄,,41,41,46,14,22,136,107,123,123,28,32,10,8,0.5,0.5
2022-10-16T19:00:00,1273A,117.1604,31.9052,合肥市,董铺水库(对照点),,46,46,59,15,24,120,103,114,114,19,39,8,6,0.5,0.5
2022-10-16T19:00:00,1274A,117.25,31.8571,合肥市,长江中路,,40,40,44,24,27,142,113,129,129,24,29,13,10,0.6,0.6
2022-10-16T19:00:00,1275A,117.266,31.9436,合肥市,庐阳区,颗粒物(PM10),55,60,66,27,30,126,104,120,119,27,52,12,12,0.4,0.5
2022-10-16T19:00:00,1276A,117.336,31.8586,合肥市,瑶海区,颗粒物(PM10),54,58,57,22,24,132,101,123,122,27,35,11,12,0.5,0.5
2022-10-16T19:00:00,1277A,117.3027,31.7964,合肥市,包河区,颗粒物(PM10),53,56,70,14,30,136,72,113,106,60,73,11,12,0.4,0.7
2022-10-16T19:00:00,1278A,117.2776,31.7385,合肥市,滨湖新区,,39,39,50,17,22,137,94,122,122,27,42,10,11,0.5,0.5
2022-10-16T19:00:00,1279A,117.1318,31.8403,合肥市,高新区,,49,46,48,34,25,144,115,135,130,29,47,28,14,0.4,0.3
2022-10-16T19:00:00,1280A,119.3903,26.0543,福州市,鼓山(对照点),,,,,,,,,,,,,,,,
2022-10-16T19:00:00,1282A,119.2681,26.0504,福州市,师大,,40,40,35,25,21,72,25,66,58,29,13,3,4,0.4,0.3
2022-10-16T19:00:00,1283A,119.2984,26.1028,福州市,五四北路,,32,32,29,18,22,73,39,64,59,21,11,3,3,0.4,0.3
2022-10-16T19:00:00,1284A,119.2648,26.0768,福州市,杨桥西路,,32,32,32,19,19,78,30,68,59,26,12,3,4,0.4,0.4
2022-10-16T19:00:00,1285A,119.317,26.0746,福州市,紫阳,,26,22,30,18,22,87,52,66,62,14,10,6,6,0.5,0.5
2022-10-16T19:00:00,1286A,118.1608,24.8169,厦门市,溪东(对照点),,,,,,,,,,,,,,,,
2022-10-16T19:00:00,1287A,118.1514,24.4767,厦门市,洪文,,31,31,27,14,15,68,49,64,54,13,12,1,1,0.2,0.2
2022-10-16T19:00:00,1288A,118.0661,24.4444,厦门市,鼓浪屿,,,26,24,13,10,66,40,58,47,16,13,3,3,,0.3
2022-10-16T19:00:00,1290A,115.8931,28.6843,南昌市,省外办,颗粒物(PM10),55,60,70,23,28,156,132,142,142,17,20,11,12,0.6,0.7
2022-10-16T19:00:00,1291A,115.8886,28.7003,南昌市,省林业公司,颗粒物(PM10),54,58,58,17,25,154,126,139,139,20,25,7,8,0.5,0.6
2022-10-16T19:00:00,1292A,115.8126,28.7442,南昌市,林科所,颗粒物(PM10),53,56,47,22,23,173,137,156,156,36,16,8,10,0.6,0.6
2022-10-16T19:00:00,1294A,115.8518,28.687,南昌市,建工学校,细颗粒物(PM2.5),53,53,60,37,29,165,135,149,149,24,20,10,11,0.5,0.7
2022-10-16T19:00:00,1295A,115.8921,28.6424,南昌市,象湖,,42,41,48,24,29,150,132,140,140,14,16,6,8,0.5,0.6
2022-10-16T19:00:00,1296A,115.7423,28.7996,南昌市,武术学校(对照点),,43,43,37,20,30,142,127,133,133,8,7,18,17,1.1,1.3
2022-10-16T19:00:00,1298A,115.9314,28.6842,南昌市,省站,颗粒物(PM10),59,67,72,28,35,143,125,134,134,19,21,8,10,0.5,0.7
2022-10-16T19:00:00,1299A,116.9862,36.6114,济南市,科干所,,46,46,110,10,59,131,38,95,74,33,50,9,8,0.4,0.8
2022-10-16T19:00:00,1300A,116.9376,36.665,济南市,农科所,,42,42,126,5,55,122,40,78,70,22,64,6,8,0.2,0.7
2022-10-16T19:00:00,1301A,117.1265,36.6734,济南市,开发区,,46,46,112,10,53,137,33,81,63,31,69,10,8,0.3,0.7
2022-10-16T19:00:00,1303A,117.0624,36.6868,济南市,省种子仓库,,36,36,123,5,53,134,40,82,68,25,76,3,7,0.6,1.2
2022-10-16T19:00:00,1304A,116.9489,36.6447,济南市,机床二厂,,46,46,137,7,64,132,43,86,76,23,61,8,9,0.5,1
2022-10-16T19:00:00,1305A,117.0495,36.663,济南市,市监测站,颗粒物(PM10),51,51,122,10,55,140,38,86,69,25,67,10,10,0.3,0.8
2022-10-16T19:00:00,1306A,116.7675,36.5484,济南市,长清党校,,44,44,106,10,60,146,43,96,78,26,43,8,6,0.3,0.6
2022-10-16T19:00:00,1307A,120.6659,36.2403,青岛市,仰口(对照点),,48,48,80,19,43,180,61,141,122,15,19,4,5,0.4,0.6
2022-10-16T19:00:00,1308A,120.3905,36.1851,青岛市,李沧区子站,,,,,,,,,,,,,,,,
2022-10-16T19:00:00,1309A,120.3471,36.0699,青岛市,市北区子站,,,,,,,,,,,,,,,,
2022-10-16T19:00:00,1310A,120.4134,36.0658,青岛市,市南区东部子站,颗粒物(PM10),75,100,98,31,57,185,49,141,129,35,40,6,9,0.5,0.7
2022-10-16T19:00:00,1311A,120.3664,36.1032,青岛市,四方区子站,颗粒物(PM10),74,97,128,29,73,178,46,126,119,27,69,3,7,0.4,0.8
2022-10-16T19:00:00,1312A,120.2994,36.054,青岛市,市南区西部子站,颗粒物(PM10),69,88,95,27,79,188,68,138,134,20,56,6,10,0.5,0.9
2022-10-16T19:00:00,1313A,120.4581,36.0858,青岛市,崂山区子站,颗粒物(PM10),80,110,104,36,53,190,62,148,140,30,43,5,7,0.5,0.7
2022-10-16T19:00:00,1314A,120.1983,35.9608,青岛市,黄岛区子站,颗粒物(PM10),70,90,119,34,73,200,55,137,131,39,63,5,9,0.5,0.8
2022-10-16T19:00:00,1315A,120.3999,36.3083,青岛市,城阳区子站,颗粒物(PM10),60,69,114,21,48,162,49,120,112,27,51,5,6,0.5,0.9
2022-10-16T19:00:00,1316A,113.69031,34.76122,郑州市,烟厂,"颗粒物(PM10),细颗粒物(PM2.5)",99,148,114,74,63,174,88,136,136,30,35,4,10,0.8,1.1
2022-10-16T19:00:00,1317A,113.65724,34.77134,郑州市,郑纺机,细颗粒物(PM2.5),122,171,114,92,68,182,92,142,142,29,39,10,14,0.9,1.1
2022-10-16T19:00:00,1318A,113.67526,34.80246,郑州市,银行学校,细颗粒物(PM2.5),114,151,108,86,68,174,88,135,135,29,36,8,12,1.0,1.2
2022-10-16T19:00:00,1319A,113.56746,34.81334,郑州市,供水公司,颗粒物(PM10),103,155,106,53,49,182,97,142,142,28,27,7,11,0.8,1.1
2022-10-16T19:00:00,1320A,113.7329,34.7178,郑州市,经开区管委,颗粒物(PM10),111,171,117,62,59,172,88,135,135,22,25,5,10,0.7,1
2022-10-16T19:00:00,1321A,113.73961,34.77172,郑州市,四十七中,颗粒物(PM10),109,168,120,53,57,175,86,135,135,28,31,8,13,,
2022-10-16T19:00:00,1322A,113.60532,34.74838,郑州市,市监测站,颗粒物(PM10),106,161,121,52,44,182,96,141,141,29,36,6,10,0.8,1
2022-10-16T19:00:00,1323A,113.64164,34.7525,郑州市,河医大,颗粒物(PM10),110,169,120,77,61,165,89,132,132,33,34,9,13,0.8,1.1
2022-10-16T19:00:00,1324A,113.51488,34.91089,郑州市,岗李水库(对照点),,,,,,,,,,,,,,,,
2022-10-16T19:00:00,1325A,114.3677,30.5584,武汉市,东湖梨园,,48,35,43,24,28,183,153,168,168,20,25,9,8,0.6,0.7
2022-10-16T19:00:00,1326A,114.2529,30.558,武汉市,汉阳月湖,颗粒物(PM10),52,53,54,31,31,176,129,161,161,32,32,8,7,0.7,0.7
2022-10-16T19:00:00,1327A,114.282,30.6189,武汉市,汉口花桥,颗粒物(PM10),53,55,54,27,28,166,124,150,150,35,37,10,10,0.8,0.8
2022-10-16T19:00:00,1328A,114.3025,30.5332,武汉市,武昌紫阳,颗粒物(PM10),51,51,55,26,29,179,132,155,155,30,39,10,9,0.7,0.7
2022-10-16T19:00:00,1329A,114.3646,30.6217,武汉市,青山钢花,,48,48,58,29,34,164,126,146,146,30,37,10,9,0.6,0.6
2022-10-16T19:00:00,1330A,114.1566,30.4825,武汉市,沌口新区,,46,46,58,23,36,163,127,149,149,30,52,9,9,0.8,0.8
2022-10-16T19:00:00,1331A,114.3014,30.5944,武汉市,汉口江滩,,49,49,49,22,29,176,146,159,159,24,29,9,8,0.6,0.6
2022-10-16T19:00:00,1333A,114.135,30.6319,武汉市,吴家山,颗粒物(PM10),52,53,57,24,34,172,156,160,160,20,37,9,8,0.7,0.6
2022-10-16T19:00:00,1334A,113.8454,30.2917,武汉市,沉湖七壕(对照点),,48,47,58,33,36,192,150,174,174,17,20,9,9,0.7,0.7
2022-10-16T19:00:00,1335A,113.0833,28.2325,长沙市,经开区环保局,细颗粒物(PM2.5),70,88,87,51,60,209,172,184,184,15,25,8,8,0.6,0.5
2022-10-16T19:00:00,1336A,112.8872,28.2189,长沙市,高开区环保局,臭氧1小时,90,74,102,64,83,206,192,192,192,12,18,10,11,0.6,0.6
2022-10-16T19:00:00,1337A,113.0792,28.2053,长沙市,马坡岭,细颗粒物(PM2.5),69,80,88,50,67,210,172,187,187,19,29,10,10,0.5,0.5
2022-10-16T19:00:00,1338A,112.9394,28.19,长沙市,湖南师范大学,,,95,108,54,61,194,173,174,174,16,20,8,4,,0.6
2022-10-16T19:00:00,1339A,113.0178,28.1322,长沙市,雨花区环保局,细颗粒物(PM2.5),75,96,83,55,65,199,165,177,177,21,29,10,10,0.4,0.4
2022-10-16T19:00:00,1340A,112.9792,28.2597,长沙市,伍家岭,臭氧1小时,83,98,102,49,76,224,186,200,200,16,24,8,8,0.7,0.7
2022-10-16T19:00:00,1341A,113.0014,28.1944,长沙市,火车新站,颗粒物(PM10),65,79,93,39,54,203,169,183,183,13,19,8,9,0.7,0.7
2022-10-16T19:00:00,1342A,112.9844,28.1178,长沙市,天心区环保局,颗粒物(PM10),70,89,97,38,51,205,169,183,183,14,28,8,8,0.6,0.6
2022-10-16T19:00:00,1343A,112.8908,28.1308,长沙市,湖南中医药大学,臭氧1小时,73,89,116,47,72,192,178,179,179,7,13,6,5,0.7,0.7
2022-10-16T19:00:00,1344A,112.9581,28.3611,长沙市,沙坪(对照点),臭氧1小时,77,72,85,47,54,210,181,191,191,14,16,8,8,0,0
2022-10-16T19:00:00,1345A,113.2347,23.1423,广州市,广雅中学,颗粒物(PM10),60,70,64,32,30,155,125,144,143,35,42,8,9,0.7,0.7
2022-10-16T19:00:00,1346A,113.2612,23.105,广州市,市五中,颗粒物(PM10),56,61,56,33,33,188,148,174,172,24,26,11,12,0.8,0.7
2022-10-16T19:00:00,1348A,113.3478,23.0916,广州市,广东商学院,颗粒物(PM10),54,58,57,26,26,164,134,156,154,26,24,7,8,0.6,0.6
2022-10-16T19:00:00,1349A,113.4332,23.1047,广州市,市八十六中,颗粒物(PM10),56,61,51,28,24,153,128,145,144,24,18,8,9,0.7,0.7
2022-10-16T19:00:00,1350A,113.3505,22.9483,广州市,番禺中学,颗粒物(PM10),57,63,55,30,26,184,146,173,171,25,21,10,11,0.5,0.4
2022-10-16T19:00:00,1351A,113.2146,23.3916,广州市,花都师范,颗粒物(PM10),53,56,48,28,27,170,153,165,164,19,16,11,11,0.7,0.7
2022-10-16T19:00:00,1352A,113.2597,23.1331,广州市,市监测站,颗粒物(PM10),57,63,60,30,29,184,148,172,170,27,33,8,9,0.6,0.6
2022-10-16T19:00:00,1353A,113.5618,23.312,广州市,九龙镇镇龙,颗粒物(PM10),54,58,45,26,24,140,133,139,138,16,11,7,7,0.6,0.5
2022-10-16T19:00:00,1354A,113.2765,23.1544,广州市,麓湖,颗粒物(PM10),53,55,55,28,28,175,134,161,159,26,31,5,6,0.5,0.5
2022-10-16T19:00:00,1355A,113.443,23.3035,广州市,帽峰山森林公园(对照点),,50,50,42,27,24,159,142,149,149,13,12,9,10,0.6,0.5
2022-10-16T19:00:00,1356A,114.1063,22.5545,深圳市,通心岭子站,颗粒物(PM10),51,51,49,24,26,154,99,136,130,20,20,5,6,0.7,0.7
2022-10-16T19:00:00,1357A,114.117,22.5625,深圳市,洪湖,颗粒物(PM10),52,54,61,25,27,155,104,135,131,20,31,7,8,0.6,0.6
2022-10-16T19:00:00,1358A,113.987,22.5417,深圳市,华侨城,颗粒物(PM10),54,58,52,19,24,162,118,142,140,19,20,6,7,0.6,0.5
2022-10-16T19:00:00,1359A,113.9181,22.5171,深圳市,南海子站,颗粒物(PM10),57,63,47,33,25,166,119,155,151,24,15,5,6,0.5,0.4
2022-10-16T19:00:00,1360A,114.2458,22.5689,深圳市,盐田,,41,41,37,22,23,152,111,136,133,15,15,7,8,0.6,0.6
2022-10-16T19:00:00,1361A,114.2283,22.7244,深圳市,龙岗,,49,49,46,22,24,144,106,131,127,15,16,6,7,0.5,0.5
2022-10-16T19:00:00,1362A,113.8953,22.5861,深圳市,西乡,,,,,,,,,,,,,,,,
2022-10-16T19:00:00,1363A,114.494,22.5422,深圳市,南澳,颗粒物(PM10),55,59,43,32,22,144,123,136,133,11,12,12,12,0.6,0.6
2022-10-16T19:00:00,1364A,114.41,22.6342,深圳市,葵涌,,43,43,40,22,22,142,118,135,132,11,10,7,7,0.6,0.6
2022-10-16T19:00:00,1365A,114.297,22.5978,深圳市,梅沙,颗粒物(PM10),53,55,51,21,20,149,118,144,140,17,12,10,12,0.7,0.6
2022-10-16T19:00:00,1366A,114.0678,22.738,深圳市,观澜,颗粒物(PM10),59,67,60,26,24,144,104,132,126,18,19,6,7,0.6,0.5
2022-10-16T19:00:00,1367A,113.5814,22.2618,珠海市,吉大,臭氧1小时,57,57,53,26,18,184,165,177,177,16,17,7,8,0.5,0.4
2022-10-16T19:00:00,1368A,113.4881,22.2335,珠海市,前山,颗粒物(PM10),55,59,52,22,24,186,159,176,176,26,30,8,8,0.3,0.3
2022-10-16T19:00:00,1369A,113.628,22.4251,珠海市,唐家,颗粒物(PM10),51,51,51,32,27,177,142,165,165,22,22,8,9,0.5,0.4
2022-10-16T19:00:00,1370A,113.299,22.2281,珠海市,斗门,颗粒物(PM10),59,68,53,32,25,211,156,188,188,24,26,10,11,0.6,0.6
2022-10-16T19:00:00,1371A,113.1294,23.0067,佛山市,湾梁,颗粒物(PM10),53,56,54,29,26,188,151,176,174,20,21,11,11,0.6,0.6
2022-10-16T19:00:00,1372A,113.1083,23.0478,佛山市,华材职中,颗粒物(PM10),54,58,60,35,32,174,132,161,158,36,32,14,14,0.7,0.7
2022-10-16T19:00:00,1373A,113.144,23.0453,佛山市,南海气象局,,45,43,50,30,28,172,141,162,160,24,25,9,11,0.4,0.5
2022-10-16T19:00:00,1374A,113.2881,22.8094,佛山市,顺德苏岗,,41,40,45,17,22,182,131,165,163,26,26,8,9,0.7,0.7
2022-10-16T19:00:00,1375A,113.2544,22.7642,佛山市,容桂街道办,,,,,,,,,,,,,,,,
2022-10-16T19:00:00,1376A,112.8383,22.8678,佛山市,高明孔堂,颗粒物(PM10),60,69,57,33,31,182,132,170,166,34,26,13,13,0.7,0.6
2022-10-16T19:00:00,1377A,112.8836,23.1588,佛山市,三水监测站,颗粒物(PM10),53,56,61,33,33,163,124,156,150,32,36,7,8,0.8,0.7
2022-10-16T19:00:00,1378A,112.867,23.185,佛山市,三水云东海,颗粒物(PM10),52,54,54,33,34,162,126,159,153,30,31,8,9,0.6,0.6
2022-10-16T19:00:00,1379A,113.3769,22.5211,中山市,华柏园,颗粒物(PM10),51,51,49,29,27,201,147,180,179,24,26,6,7,0.6,0.6
2022-10-16T19:00:00,1380A,113.3881,22.5497,中山市,张溪,,45,44,54,31,26,199,143,180,179,26,24,7,7,0.5,0.4
2022-10-16T19:00:00,1381A,113.4075,22.5111,中山市,紫马岭,,50,50,51,30,24,194,146,178,177,19,20,8,9,0.5,0.5
2022-10-16T19:00:00,1382A,113.4411,22.4853,中山市,长江旅游区(对照点),细颗粒物(PM2.5),54,45,49,38,21,193,150,177,177,20,20,9,8,0.6,0.6
2022-10-16T19:00:00,1383A,113.1064,22.6058,江门市,北街,颗粒物(PM10),52,54,58,30,27,211,143,190,187,29,29,10,12,0.7,0.6
2022-10-16T19:00:00,1384A,113.0731,22.5835,江门市,西区,颗粒物(PM10),55,60,61,31,31,216,145,194,191,28,30,10,12,0.7,0.6
2022-10-16T19:00:00,1385A,113.0219,22.5311,江门市,圭峰西,臭氧1小时,63,52,52,31,31,219,170,202,200,20,22,9,10,0.7,0.7
2022-10-16T19:00:00,1386A,113.0828,22.5947,江门市,东湖,颗粒物(PM10),57,63,60,27,28,215,142,193,189,28,28,9,11,0.7,0.7
2022-10-16T19:00:00,1387A,113.7875,23.0457,东莞市,东城主山,,,,,,,,,,,,,,,,
2022-10-16T19:00:00,1388A,113.7533,23.0202,东莞市,南城元岭,,,,,,,,,,,,,,,,
2022-10-16T19:00:00,1389A,113.7547,23.0494,东莞市,莞城梨川,,,57,46,27,23,157,131,149,147,,22,10,10,0.7,0.3
2022-10-16T19:00:00,1390A,113.7944,23.0128,东莞市,东城石井,,46,46,36,25,21,158,131,144,143,21,17,11,10,0.8,0.7
2022-10-16T19:00:00,1391A,113.7383,22.9658,东莞市,南城西平,颗粒物(PM10),52,54,41,19,22,157,127,147,146,21,21,12,11,0.6,0.7
2022-10-16T19:00:00,1392A,114.4183,23.0528,惠州市,河南岸金山湖子站,颗粒物(PM10),57,63,48,28,23,138,109,128,124,18,19,9,9,0.6,0.5
2022-10-16T19:00:00,1393A,114.4053,23.0822,惠州市,下埔横江三路子站,,46,46,47,32,22,149,113,141,136,19,17,9,9,0.7,0.6
2022-10-16T19:00:00,1394A,114.4103,23.1142,惠州市,江北云山西路子站,,,,,,,,,,,,,,,,
2022-10-16T19:00:00,1395A,114.4645,22.7833,惠州市,惠阳区承修路船湖子站,,,,68,,28,156,59,148,137,8,7,8,10,0.8,0.7
2022-10-16T19:00:00,1396A,114.5317,22.7422,惠州市,大亚湾管委会子站,,48,48,48,24,24,147,131,140,135,13,14,4,5,0.8,0.8
2022-10-16T19:00:00,1397A,112.4267,23.0706,肇庆市,睦岗子站,臭氧1小时,52,44,44,27,26,173,161,169,169,18,26,7,7,0.4,0.4
2022-10-16T19:00:00,1398A,112.4645,23.0475,肇庆市,城中子站,,50,42,43,27,27,171,159,166,166,12,28,10,10,0.5,0.6
2022-10-16T19:00:00,1399A,112.5544,23.1522,肇庆市,坑口子站,臭氧1小时,57,46,38,30,26,170,165,168,168,14,18,10,9,0.6,0.6
2022-10-16T19:00:00,1400A,112.4753,23.1,肇庆市,七星岩子站(对照点),臭氧1小时,55,42,40,24,25,170,164,162,162,2,8,4,4,0.6,0.6
2022-10-16T19:00:00,1401A,108.3103,22.7881,南宁市,二十一中,,47,47,56,26,32,134,108,127,126,27,49,8,10,0.6,0.7
2022-10-16T19:00:00,1402A,108.3141,22.8528,南宁市,北湖,颗粒物(PM10),55,59,61,35,29,129,98,122,120,26,40,9,14,0.6,0.6
2022-10-16T19:00:00,1403A,108.3206,22.8225,南宁市,市监测站,颗粒物(PM10),54,58,62,24,32,119,93,108,107,40,63,10,14,0.6,0.7
2022-10-16T19:00:00,1404A,108.3829,22.8037,南宁市,大自然花园,,40,40,45,25,30,127,109,123,121,23,36,7,9,0.6,0.6
2022-10-16T19:00:00,1405A,108.4394,22.7904,南宁市,仙葫(对照点),颗粒物(PM10),54,58,66,31,33,126,104,122,121,21,42,10,13,0.7,0.7
2022-10-16T19:00:00,1406A,108.2397,22.8467,南宁市,区农职院,,36,34,49,23,25,140,114,134,133,21,39,10,11,0.7,0.7
2022-10-16T19:00:00,1407A,108.3275,22.735,南宁市,英华嘉园,,44,44,60,27,32,123,103,116,116,24,46,9,12,0.7,0.7
2022-10-16T19:00:00,1408A,108.2257,22.7757,南宁市,沙井镇街道办,颗粒物(PM10),64,78,76,26,31,128,91,119,118,31,46,8,10,0.4,0.4
2022-10-16T19:00:00,1409A,110.576,19.9507,海口市,东寨港(对照点),,,54,45,24,23,75,52,70,69,,,10,10,0.5,0.4
2022-10-16T19:00:00,1410A,110.3232,20.0574,海口市,海南大学,臭氧1小时,70,62,51,33,29,214,176,194,194,15,11,10,10,0.7,0.7
2022-10-16T19:00:00,1411A,110.283,20.0053,海口市,秀英海南医院,颗粒物(PM10),66,82,57,37,33,203,152,182,182,28,18,8,8,0.7,0.7
2022-10-16T19:00:00,1412A,110.338,19.9969,海口市,海南师范大学,颗粒物(PM10),62,74,56,30,25,206,162,190,190,27,15,8,8,0.7,0.7
2022-10-16T19:00:00,1413A,110.33,20.0356,海口市,龙华路环保局宿舍,颗粒物(PM10),57,63,53,28,26,208,162,186,186,12,9,8,8,0.8,0.7
2022-10-16T19:00:00,1414A,106.3787,29.8279,重庆市,缙云山(对照点),颗粒物(PM10),60,70,68,30,39,146,141,127,127,22,25,8,6,0.4,0.5
2022-10-16T19:00:00,1416A,106.4213,29.8253,重庆市,天生,细颗粒物(PM2.5),72,69,91,52,72,145,116,117,117,25,40,11,12,0.7,0.9
2022-10-16T19:00:00,1417A,106.6263,29.7228,重庆市,两路,细颗粒物(PM2.5),62,58,85,44,57,144,108,119,119,34,37,12,12,0.6,0.7
2022-10-16T19:00:00,1418A,106.2953,29.5983,重庆市,虎溪,细颗粒物(PM2.5),63,69,82,45,55,139,91,112,112,31,40,12,13,0.7,0.8
2022-10-16T19:00:00,1419A,106.5777,29.5102,重庆市,南坪,细颗粒物(PM2.5),78,96,101,57,64,154,140,124,124,38,58,8,17,1.0,1.1
2022-10-16T19:00:00,1420A,106.6556,29.6277,重庆市,唐家沱,颗粒物(PM10),72,94,94,44,51,149,103,109,109,51,51,13,11,0.5,0.5
2022-10-16T19:00:00,1421A,106.6349,29.4906,重庆市,茶园,细颗粒物(PM2.5),77,90,94,56,61,167,76,131,131,86,57,9,12,0.7,0.7
2022-10-16T19:00:00,1422A,106.3754,29.4572,重庆市,白市驿,细颗粒物(PM2.5),53,52,96,37,69,145,126,115,115,32,42,11,13,0.6,0.8
2022-10-16T19:00:00,1425A,106.6205,29.7166,重庆市,空港,颗粒物(PM10),67,83,85,42,65,152,112,122,122,25,27,14,14,0.6,0.6
2022-10-16T19:00:00,1426A,106.4782,29.4875,重庆市,新山村,细颗粒物(PM2.5),97,102,109,72,72,158,75,114,114,83,65,9,13,0.9,0.7
2022-10-16T19:00:00,1427A,106.5616,29.6453,重庆市,礼嘉,细颗粒物(PM2.5),65,57,86,47,58,155,106,116,116,45,52,13,14,0.7,0.8
2022-10-16T19:00:00,1428A,106.4522,29.7091,重庆市,蔡家,颗粒物(PM10),77,104,87,45,62,136,78,99,99,43,41,7,6,0.7,0.8
2022-10-16T19:00:00,1429A,106.5093,29.3917,重庆市,鱼新街,细颗粒物(PM2.5),105,109,99,79,71,153,38,110,110,124,54,10,22,1.6,1.1
2022-10-16T19:00:00,1431A,103.9728,30.7236,成都市,金泉两河,颗粒物(PM10),58,66,60,30,35,145,67,115,115,39,36,3,4,0.5,0.7
2022-10-16T19:00:00,1432A,104.1419,30.6764,成都市,十里店,颗粒物(PM10),55,60,75,34,40,131,106,110,110,29,55,3,3,0.4,0.7
2022-10-16T19:00:00,1433A,104.0594,30.5767,成都市,三瓦窑,颗粒物(PM10),69,88,84,43,45,167,92,130,130,62,59,4,6,0.5,0.7
2022-10-16T19:00:00,1434A,104.1122,30.6306,成都市,沙河铺,"颗粒物(PM10),细颗粒物(PM2.5)",63,75,70,45,41,156,53,120,120,54,43,2,4,0.6,0.8
2022-10-16T19:00:00,1437A,104.0431,30.6556,成都市,君平街,颗粒物(PM10),66,81,78,39,46,152,111,130,130,37,57,5,7,0.5,0.8
2022-10-16T19:00:00,1438A,103.6202,31.0201,成都市,灵岩寺(对照点),,38,29,24,14,14,134,119,93,93,7,10,4,9,0.7,0.7
2022-10-16T19:00:00,1439A,106.6899,26.5998,贵阳市,马鞍山,细颗粒物(PM2.5),55,51,36,39,25,105,92,100,100,10,7,5,5,0.6,0.5
2022-10-16T19:00:00,1440A,106.6971,26.5694,贵阳市,市环保站,"颗粒物(PM10),细颗粒物(PM2.5)",53,56,38,37,26,94,80,90,90,19,12,5,5,0.4,0.3
2022-10-16T19:00:00,1441A,106.6243,26.6266,贵阳市,鉴湖路,细颗粒物(PM2.5),52,51,44,36,24,101,94,97,97,11,8,4,4,0.5,0.4
2022-10-16T19:00:00,1442A,106.7487,26.6343,贵阳市,燕子冲,细颗粒物(PM2.5),62,63,51,44,36,102,90,95,95,12,8,8,8,0.4,0.3
2022-10-16T19:00:00,1443A,106.6555,26.4365,贵阳市,碧云窝,颗粒物(PM10),58,66,51,36,26,100,92,96,96,12,10,5,5,0.5,0.5
2022-10-16T19:00:00,1444A,106.694,26.5161,贵阳市,中院村,细颗粒物(PM2.5),55,58,46,39,27,98,91,93,93,14,11,6,6,0.5,0.4
2022-10-16T19:00:00,1445A,106.7109,26.6027,贵阳市,红边门,细颗粒物(PM2.5),55,53,43,39,29,107,95,101,101,12,8,5,5,0.5,0.4
2022-10-16T19:00:00,1446A,106.7164,26.5699,贵阳市,新华路,细颗粒物(PM2.5),55,48,39,39,28,100,90,95,95,10,6,5,4,0.4,0.4
2022-10-16T19:00:00,1447A,106.674,26.5424,贵阳市,太慈桥,,,,46,,21,102,94,96,96,9,8,3,4,0.4,0.4
2022-10-16T19:00:00,1450A,102.8204,24.8886,昆明市,呈贡新区,,49,49,33,19,20,81,63,75,74,24,15,5,6,0.4,0.4
2022-10-16T19:00:00,1451A,102.6251,24.9608,昆明市,西山森林公园(对照点),,28,24,24,19,17,82,72,76,76,16,13,6,6,0.6,0.7
2022-10-16T19:00:00,1452A,102.7252,25.0902,昆明市,龙泉镇,,39,39,25,18,15,77,57,72,71,28,18,8,7,0.4,0.3
2022-10-16T19:00:00,1453A,102.7266,25.0375,昆明市,东风东路,,31,31,24,21,15,78,67,72,72,22,16,6,5,0.5,0.5
2022-10-16T19:00:00,1454A,102.6742,25.0669,昆明市,金鼎山,,39,39,26,17,19,76,56,72,71,20,9,14,4,0.5,0.4
2022-10-16T19:00:00,1455A,102.6644,25.0401,昆明市,碧鸡广场,,38,38,20,24,17,80,62,76,75,24,14,10,8,0.5,0.4
2022-10-16T19:00:00,1456A,91.1319,29.6514,拉萨市,八廓街,,,2,8,,,119,116,113,113,9,8,8,8,0,0
2022-10-16T19:00:00,1457A,91.1221,29.6747,拉萨市,市环保局,,37,4,7,0,2,117,116,112,112,5,8,2,2,0.2,0.2
2022-10-16T19:00:00,1458A,91.0874,29.6475,拉萨市,区监测站,,39,5,6,0,1,127,124,122,122,3,7,9,9,0.2,0.2
2022-10-16T19:00:00,1459A,91.1774,29.6541,拉萨市,西藏大学,,37,6,9,0,3,118,116,113,113,6,8,12,11,0,0
2022-10-16T19:00:00,1460A,90.9798,29.6588,拉萨市,区辐射站,,37,5,5,7,7,117,116,111,111,4,8,9,9,0.2,0.1
2022-10-16T19:00:00,1461A,91.0834,29.6292,拉萨市,拉萨火车站,,38,4,7,1,3,120,119,114,114,3,8,10,10,0,0
2022-10-16T19:00:00,1462A,108.882,34.2749,西安市,高压开关厂,颗粒物(PM10),60,69,77,22,31,127,26,91,89,107,50,6,10,0.7,0.6
2022-10-16T19:00:00,1463A,108.993,34.2629,西安市,兴庆小区,颗粒物(PM10),53,56,55,26,27,127,52,98,98,74,45,6,8,0.4,0.5
2022-10-16T19:00:00,1464A,109.06,34.2572,西安市,纺织城,颗粒物(PM10),63,76,68,25,27,130,60,98,98,51,43,9,9,0.6,0.6
2022-10-16T19:00:00,1465A,108.9356,34.2173,西安市,小寨,颗粒物(PM10),63,76,65,28,26,122,6,92,88,98,45,9,10,1.3,0.9
2022-10-16T19:00:00,1466A,108.954,34.2713,西安市,市人民体育场,颗粒物(PM10),51,51,64,23,30,128,44,98,98,75,40,6,6,0.5,0.6
2022-10-16T19:00:00,1467A,108.8922,34.2322,西安市,高新西区,颗粒物(PM10),54,57,66,22,31,126,42,97,97,68,45,5,7,0.8,0.8
2022-10-16T19:00:00,1468A,108.935,34.3474,西安市,经开区,颗粒物(PM10),58,65,69,16,29,120,42,89,89,70,46,5,7,0.7,0.7
2022-10-16T19:00:00,1469A,108.906,34.1546,西安市,长安区,颗粒物(PM10),51,52,67,18,23,126,57,100,100,43,35,5,5,0.5,0.4
2022-10-16T19:00:00,1470A,109.2,34.6575,西安市,阎良区,,,,,,,,,,,,,,,,
2022-10-16T19:00:00,1471A,109.2186,34.3731,西安市,临潼区,颗粒物(PM10),51,51,60,26,25,133,109,112,112,29,33,6,7,0.4,0.5
2022-10-16T19:00:00,1472A,108.869,34.378,西安市,草滩(对照点),颗粒物(PM10),76,102,98,38,35,120,17,84,82,71,44,12,13,1.3,1.1
2022-10-16T19:00:00,1473A,108.985,34.1978,西安市,曲江文化产业集团,颗粒物(PM10),59,67,63,22,24,122,36,94,92,89,49,6,8,0.7,0.6
2022-10-16T19:00:00,1474A,109.051,34.3213,西安市,广运潭,颗粒物(PM10),62,74,64,23,25,127,35,94,93,87,48,7,7,0.6,0.5
2022-10-16T19:00:00,1476A,103.631,36.1031,兰州市,兰炼宾馆,颗粒物(PM10),70,89,87,47,39,122,107,108,108,26,54,12,27,0.4,0.7
2022-10-16T19:00:00,1477A,104.1373,35.9454,兰州市,榆中兰大校区(对照点),,,,,,,,,,,,,,,,
2022-10-16T19:00:00,1478A,103.8412,36.0726,兰州市,生物制品所,颗粒物(PM10),59,67,76,32,31,114,102,97,97,26,51,8,10,0.2,0.4
2022-10-16T19:00:00,1479A,103.831,36.0464,兰州市,铁路设计院,颗粒物(PM10),64,78,76,40,34,120,87,95,95,44,59,10,17,0.7,0.8
2022-10-16T19:00:00,1480A,101.748,36.6428,西宁市,市环境监测站,,,,,,,,,,,,,,,,
2022-10-16T19:00:00,1482A,101.834,36.5819,西宁市,四陆医院,,,,,,,,,,,,,,,,
2022-10-16T19:00:00,1483A,101.524,36.6867,西宁市,第五水厂(对照点),,,,,,,,,,,,,,,,
2022-10-16T19:00:00,1484A,105.9512,38.6016,银川市,贺兰山马莲口(对照点),,38,36,25,26,13,110,110,91,91,11,9,19,13,0.3,0.2
2022-10-16T19:00:00,1488A,106.2328,38.4975,银川市,贺兰山东路,颗粒物(PM10),60,69,59,23,22,106,97,90,90,16,16,12,10,0.5,0.5
2022-10-16T19:00:00,1489A,106.1358,38.5036,银川市,学院路,,40,40,46,22,13,88,78,78,78,26,21,15,11,0.9,0.7
2022-10-16T19:00:00,1490A,87.5801,43.8303,乌鲁木齐市,监测站,颗粒物(PM10),56,62,52,29,25,121,106,97,97,29,33,15,9,0.7,0.6
2022-10-16T19:00:00,1491A,87.6046,43.768,乌鲁木齐市,收费所,颗粒物(PM10),61,71,53,42,27,125,110,108,108,34,30,16,10,0.6,0.5
2022-10-16T19:00:00,1492A,87.4754,43.9469,乌鲁木齐市,新疆农科院农场(对照点),细颗粒物(PM2.5),74,22,21,54,31,88,74,74,74,27,42,30,8,1.8,1
2022-10-16T19:00:00,1493A,87.5525,43.8711,乌鲁木齐市,铁路局,颗粒物(PM10),63,75,54,38,26,122,104,96,96,26,34,20,8,1.0,0.8
2022-10-16T19:00:00,1494A,87.6432,43.831,乌鲁木齐市,三十一中学,颗粒物(PM10),69,88,73,41,25,124,100,102,102,30,24,24,13,0.7,0.4
2022-10-16T19:00:00,1496A,87.7216,44.1747,乌鲁木齐市,米东区环保局,颗粒物(PM10),57,64,92,22,31,113,104,87,87,9,34,11,15,0.5,0.6
2022-10-16T19:00:00,1508A,112.9433,27.8614,湘潭市,板塘,臭氧1小时,75,59,90,40,76,212,180,195,195,18,26,11,10,0.4,0.4
2022-10-16T19:00:00,1511A,112.9118,27.8403,湘潭市,市监测站,细颗粒物(PM2.5),60,68,89,43,74,199,163,183,183,25,26,9,10,0.6,0.6
2022-10-16T19:00:00,1512A,112.8937,27.8728,湘潭市,江麓,臭氧1小时,80,83,98,51,73,210,184,195,195,19,22,9,10,0.6,0.5
2022-10-16T19:00:00,1513A,112.9227,27.8159,湘潭市,岳塘,"颗粒物(PM10),臭氧1小时",67,83,100,40,72,211,173,194,194,28,28,8,7,0.6,0.5
2022-10-16T19:00:00,1514A,112.9074,27.9119,湘潭市,科大,臭氧1小时,78,81,106,52,74,214,182,197,197,18,23,6,8,0.5,0.6
2022-10-16T19:00:00,1515A,113.135,27.8244,株洲市,天台山庄,臭氧1小时,78,76,61,45,48,211,182,191,191,28,32,6,6,0.5,0.4
2022-10-16T19:00:00,1518A,113.095,27.8867,株洲市,株冶医院,臭氧1小时,77,92,83,40,59,216,181,190,190,21,33,8,8,0.6,0.5
2022-10-16T19:00:00,1519A,113.167,27.8667,株洲市,市四中,臭氧1小时,90,85,68,54,46,218,192,192,192,30,38,7,7,0.6,0.5
2022-10-16T19:00:00,1520A,113.143,27.8381,株洲市,火车站,臭氧1小时,92,92,76,58,48,225,193,196,196,28,35,7,8,0.6,0.6
2022-10-16T19:00:00,1524A,113.13,27.8528,株洲市,市监测站,臭氧1小时,82,95,73,54,54,212,185,190,190,23,32,5,7,0.6,0.6
2022-10-16T19:00:00,1552A,106.805,26.3003,贵阳市,桐木岭(对照点),,,,,,,,,,,,,,,,
2022-10-16T19:00:00,1559A,113.251,27.8336,株洲市,大京风景区(对照点),,,,55,,35,112,,108,,,14,,4,,0.5
2022-10-16T19:00:00,1562A,113.0048,27.9153,湘潭市,昭山,颗粒物(PM10),72,93,109,47,70,208,172,189,189,16,33,5,5,0.5,0.5
2022-10-16T19:00:00,1564A,112.4876,27.9164,湘潭市,韶山(对照点),臭氧1小时,90,77,75,30,39,197,192,188,188,18,16,9,10,0.7,0.6
2022-10-16T19:00:00,1585A,109.8756,40.6532,包头市,市环境监测站,,22,11,20,4,6,78,68,75,75,8,6,6,11,0.6,0.6
2022-10-16T19:00:00,1587A,109.9991,40.5842,包头市,包头八中,,20,15,33,5,7,77,62,72,72,14,13,5,11,0.4,0.6
2022-10-16T19:00:00,1588A,109.8538,40.6821,包头市,青山宾馆,,21,8,17,5,2,77,65,74,74,8,5,9,13,0.4,0.4
2022-10-16T19:00:00,1589A,109.8642,40.6288,包头市,惠龙物流,,23,9,15,9,11,78,71,76,76,7,7,5,10,0.7,0.7
2022-10-16T19:00:00,1590A,110.0377,40.5546,包头市,东河鸿龙湾,,19,12,24,2,5,72,58,67,67,10,14,6,10,0.5,0.6
2022-10-16T19:00:00,1591A,110.0023,39.8129,鄂尔多斯市,综合楼,,32,32,41,6,5,73,51,61,61,34,26,8,21,0.6,0.5
2022-10-16T19:00:00,1592A,109.9486,39.8261,鄂尔多斯市,巴音孟克林场办事处,,,31,46,9,11,82,70,72,72,,22,7,28,0.4,0.4
2022-10-16T19:00:00,1593A,109.7736,39.5986,鄂尔多斯市,康泽苑,,27,22,34,2,6,98,84,78,78,9,13,7,8,0.7,0.7
2022-10-16T19:00:00,1594A,109.8119,39.5989,鄂尔多斯市,华泰汽车城,,24,24,33,12,13,94,73,78,78,14,11,9,10,0.8,0.8
2022-10-16T19:00:00,1595A,109.9734,39.7884,鄂尔多斯市,奥林花园,,27,27,42,7,7,87,66,68,68,19,20,8,17,0.3,0.4
2022-10-16T19:00:00,1596A,122.2414,40.6592,营口市,学府南路,,,,,,,,,,,,,,,,
2022-10-16T19:00:00,1597A,122.2703,40.7094,营口市,大庆路,,27,27,51,7,29,114,38,58,55,28,19,10,5,0.3,0.6
2022-10-16T19:00:00,1598A,122.215,40.6511,营口市,镜湖西路,,23,23,52,4,32,127,42,73,53,18,13,4,5,0.4,0.7
2022-10-16T19:00:00,1599A,122.167,40.6655,营口市,西炮台,,12,11,51,5,38,115,38,71,49,23,18,2,5,0.3,0.5
2022-10-16T19:00:00,1600A,124.3303,40.0625,丹东市,江湾东路,,18,18,52,5,36,62,39,54,53,23,32,12,12,0.6,1.1
2022-10-16T19:00:00,1601A,124.4256,40.1503,丹东市,临江后街,,14,14,52,7,32,71,38,60,56,24,28,8,8,0.6,1
2022-10-16T19:00:00,1602A,124.3933,40.1461,丹东市,元宝山,,17,17,43,4,33,65,38,50,49,24,33,12,10,0.8,1.1
2022-10-16T19:00:00,1603A,124.3633,40.1092,丹东市,民主桥,,25,25,52,7,30,59,34,49,47,20,26,13,11,0.5,0.9
2022-10-16T19:00:00,1604A,122.0303,41.1489,盘锦市,开发区,,41,41,31,6,31,121,35,48,46,28,20,12,6,0.5,0.5
2022-10-16T19:00:00,1605A,122.0485,41.0883,盘锦市,兴隆台,,31,31,39,6,31,120,33,48,45,28,18,8,9,0.3,0.5
2022-10-16T19:00:00,1606A,121.8297,41.1028,盘锦市,新生街道,,30,30,26,6,22,143,13,48,42,49,18,8,7,0.5,0.5
2022-10-16T19:00:00,1607A,120.9092,40.7136,葫芦岛市,龙港区,,47,47,46,23,28,161,42,54,53,31,16,15,13,0.4,0.3
2022-10-16T19:00:00,1608A,120.8392,40.7514,葫芦岛市,化工街,,45,45,62,5,34,143,47,57,56,17,11,13,7,0.3,0.4
2022-10-16T19:00:00,1609A,120.8341,40.7073,葫芦岛市,新区,,28,28,41,2,24,157,52,56,56,18,17,10,9,0.2,0.4
2022-10-16T19:00:00,1610A,120.8695,40.7677,葫芦岛市,东城区,,20,20,42,7,29,136,43,51,51,14,8,19,14,0.4,0.5
2022-10-16T19:00:00,1611A,118.5819,24.9117,泉州市,涂山街,,18,14,21,9,11,83,56,72,60,6,6,5,6,0.4,0.4
2022-10-16T19:00:00,1612A,118.5972,24.8978,泉州市,津头埔,,18,16,20,12,12,73,52,70,58,4,4,5,6,0.4,0.4
2022-10-16T19:00:00,1613A,118.6663,24.9424,泉州市,万安,,24,24,25,11,16,79,54,72,64,7,6,5,6,0.5,0.5
2022-10-16T19:00:00,1614A,118.6117,24.9604,泉州市,清源山(对照点),,,,,,,,,,,,,,,,
2022-10-16T19:00:00,1616A,117.6795,36.229,济南市,技术学院,,44,44,141,6,49,197,52,123,101,26,63,7,12,0.5,1.3
2022-10-16T19:00:00,1618A,118.3429,35.0532,临沂市,沂河小区,颗粒物(PM10),68,85,100,22,54,169,70,149,143,16,33,6,18,0.4,0.6
2022-10-16T19:00:00,1619A,118.295,35.0583,临沂市,鲁南制药厂,颗粒物(PM10),63,75,101,13,38,181,74,167,151,22,41,6,17,0.4,0.9
2022-10-16T19:00:00,1620A,118.2794,34.9976,临沂市,新光毛纺厂,颗粒物(PM10),70,90,98,15,43,178,69,156,151,29,46,3,16,0.7,0.9
2022-10-16T19:00:00,1621A,118.3956,35.0888,临沂市,河东保险公司,颗粒物(PM10),67,83,90,18,41,176,72,150,145,18,32,5,12,0.4,0.6
2022-10-16T19:00:00,1622A,116.3032,37.4674,德州市,儿童乐园,,44,44,123,3,68,82,31,75,51,42,58,5,9,0.3,0.7
2022-10-16T19:00:00,1624A,116.2991,37.4451,德州市,监理站,,40,40,134,7,87,80,34,60,56,36,55,6,12,0.4,0.8
2022-10-16T19:00:00,1625A,115.9848,36.4372,聊城市,区政府,颗粒物(PM10),54,57,150,9,82,133,40,97,86,18,48,7,9,0.3,0.8
2022-10-16T19:00:00,1628A,118.0062,37.3803,滨州市,市环保局,,47,47,163,11,102,66,39,61,55,20,47,18,26,0.7,1.5
2022-10-16T19:00:00,1629A,118.0018,37.3617,滨州市,第二水厂,,41,41,168,7,98,126,36,58,52,34,60,14,22,0.3,1
2022-10-16T19:00:00,1630A,117.9776,37.393,滨州市,北中新校,,28,28,102,6,88,64,40,58,54,24,57,16,12,0.3,1
2022-10-16T19:00:00,1631A,118.0414,36.8103,淄博市,人民公园,,36,36,139,18,100,91,32,70,58,35,65,8,16,0.2,0.9
2022-10-16T19:00:00,1632A,118.0253,36.8406,淄博市,东风化工厂,,,,,,,,,,,,,,,,
2022-10-16T19:00:00,1633A,117.8525,36.4847,淄博市,双山,,44,44,121,12,72,127,41,80,63,26,42,11,14,0.5,1
2022-10-16T19:00:00,1634A,117.9592,36.6331,淄博市,气象站,,38,38,155,9,74,130,39,75,60,30,62,7,18,0.3,1
2022-10-16T19:00:00,1635A,118.3092,36.8194,淄博市,莆田园,,31,31,120,12,71,65,33,64,50,36,58,2,17,0.5,1.8
2022-10-16T19:00:00,1636A,117.8661,36.805,淄博市,三金集团,,,,,,,,,,,,,,,,
2022-10-16T19:00:00,1637A,117.558,34.8438,枣庄市,市中区政府,细颗粒物(PM2.5),110,144,120,83,64,184,151,174,174,48,57,13,13,1.0,0.8
2022-10-16T19:00:00,1638A,117.2852,34.7837,枣庄市,薛城环保局,细颗粒物(PM2.5),104,120,85,78,52,194,142,168,168,32,45,14,13,0.9,0.8
2022-10-16T19:00:00,1639A,117.5852,34.7745,枣庄市,峄城区政府,颗粒物(PM10),92,134,98,61,54,183,155,170,170,36,42,21,14,1.1,0.9
2022-10-16T19:00:00,1640A,117.7276,34.5578,枣庄市,台儿庄区环保局,颗粒物(PM10),74,97,84,46,49,183,104,156,156,44,41,13,13,1.0,0.9
2022-10-16T19:00:00,1641A,117.4518,35.0992,枣庄市,山亭区环保局,细颗粒物(PM2.5),119,166,91,90,53,201,187,189,189,40,36,18,14,1.3,1.1
2022-10-16T19:00:00,1642A,121.2514,37.5639,烟台市,开发区,颗粒物(PM10),54,58,104,2,60,115,52,52,49,12,39,7,10,0.3,0.8
2022-10-16T19:00:00,1643A,121.3719,37.5433,烟台市,轴承厂,,24,24,83,4,63,116,52,85,50,20,25,8,10,0.1,0.5
2022-10-16T19:00:00,1644A,121.3181,37.5436,烟台市,西郊化工站,,27,27,92,3,48,136,62,81,56,6,35,7,12,0.6,1
2022-10-16T19:00:00,1645A,121.4478,37.4822,烟台市,莱山环保局,,19,19,84,2,51,152,58,90,55,7,20,7,9,0.2,0.6
2022-10-16T19:00:00,1646A,121.2611,37.4967,烟台市,福山环保局,,29,29,103,5,55,53,52,49,49,15,53,5,8,0.6,1
2022-10-16T19:00:00,1648A,119.12,36.7019,潍坊市,仲裁委,,,,,,,,,,,,,,,,
2022-10-16T19:00:00,1650A,119.1437,36.7023,潍坊市,环保局,,24,24,102,7,58,113,48,70,63,22,39,3,5,0.4,0.7
2022-10-16T19:00:00,1652A,119.1936,36.7729,潍坊市,寒亭监测站,,,,,,,,,,,,,,,,
2022-10-16T19:00:00,1653A,116.6251,35.4302,济宁市,火炬城,颗粒物(PM10),87,124,82,58,69,192,73,161,157,32,24,9,13,0.6,0.7
2022-10-16T19:00:00,1655A,116.5491,35.4042,济宁市,电化厂,颗粒物(PM10),115,179,122,56,76,184,71,158,153,36,37,9,15,0.6,0.7
2022-10-16T19:00:00,1656A,117.1437,36.1937,泰安市,监测站,颗粒物(PM10),51,51,105,18,50,200,71,140,130,19,29,8,10,0.2,0.5
2022-10-16T19:00:00,1657A,117.0885,36.2017,泰安市,人口学校,颗粒物(PM10),56,61,102,20,42,179,62,134,122,20,24,8,10,0.1,0.3
2022-10-16T19:00:00,1658A,117.1089,36.1758,泰安市,电力学校,颗粒物(PM10),57,63,113,29,52,191,65,135,125,19,43,6,8,0.5,0.9
2022-10-16T19:00:00,1659A,119.471,35.4209,日照市,监测站,颗粒物(PM10),51,51,75,12,47,167,58,125,122,16,50,6,9,0.6,1
2022-10-16T19:00:00,1660A,119.523,35.4216,日照市,市政府广场,颗粒物(PM10),53,56,71,13,44,168,59,132,127,17,44,4,8,0.4,1
2022-10-16T19:00:00,1661A,119.5587,35.4044,日照市,港务局,颗粒物(PM10),53,56,72,12,41,183,64,148,142,4,34,4,7,0.4,0.9
2022-10-16T19:00:00,1662A,122.1214,37.4236,威海市,华夏技校,,31,31,75,7,55,147,56,146,61,18,29,4,6,0.4,0.6
2022-10-16T19:00:00,1663A,122.0508,37.5236,威海市,山大分校,,27,27,74,5,44,145,56,142,60,17,27,4,5,0.2,0.5
2022-10-16T19:00:00,1664A,122.1067,37.5072,威海市,市监测站,,32,32,78,5,48,103,48,89,53,22,34,6,8,0.3,0.7
2022-10-16T19:00:00,1665A,118.5019,37.4658,东营市,西城阳光环保公司,,,,,,,,,,,,,,,,
2022-10-16T19:00:00,1666A,118.6614,37.4309,东营市,市环保局,,,31,111,5,83,170,,112,60,23,26,6,15,0.5,0.9
2022-10-16T19:00:00,1669A,113.5824,24.7733,韶关市,市八中,臭氧1小时,57,51,48,26,27,171,165,163,163,11,14,12,15,0.7,0.7
2022-10-16T19:00:00,1670A,113.5556,24.8082,韶关市,碧湖山庄,,,,,,,,,,,,,,,,
2022-10-16T19:00:00,1671A,113.5917,24.7972,韶关市,园林处,,50,42,45,29,31,160,158,152,152,7,8,12,15,0.9,0.7
2022-10-16T19:00:00,1672A,113.6735,24.7791,韶关市,韶关学院,臭氧1小时,54,49,43,32,28,163,163,150,150,12,19,14,11,0.6,0.6
2022-10-16T19:00:00,1673A,113.5971,24.6863,韶关市,曲江监测站,臭氧1小时,62,55,48,29,26,176,169,167,167,9,15,15,14,0.7,0.7
2022-10-16T19:00:00,1674A,116.6794,23.3667,汕头市,金平子站,颗粒物(PM10),59,67,51,25,26,123,60,92,83,21,22,10,12,0.6,0.6
2022-10-16T19:00:00,1675A,116.7244,23.3633,汕头市,龙湖子站,颗粒物(PM10),56,62,61,20,22,128,69,94,82,15,21,10,12,0.6,0.6
2022-10-16T19:00:00,1676A,116.7258,23.2775,汕头市,濠江子站,,42,42,48,23,26,110,69,96,83,16,23,9,11,0.7,0.9
2022-10-16T19:00:00,1677A,116.7519,23.4714,汕头市,澄海子站,,49,49,47,21,26,128,71,98,82,16,19,12,13,0.7,0.7
2022-10-16T19:00:00,1678A,116.6092,23.2539,汕头市,潮阳子站,颗粒物(PM10),52,53,48,21,17,123,68,91,79,18,21,9,11,0.7,0.8
2022-10-16T19:00:00,1679A,116.4069,23.2533,汕头市,潮南子站,,,,,,,,,,,,,,,,
2022-10-16T19:00:00,1680A,110.3539,21.2706,湛江市,湛江影剧院,细颗粒物(PM2.5),62,57,59,44,36,172,141,168,166,28,22,9,21,0.6,0.6
2022-10-16T19:00:00,1681A,110.3928,21.2228,湛江市,市环境监测站,细颗粒物(PM2.5),52,50,52,36,33,166,150,160,160,21,16,13,18,0.7,0.7
2022-10-16T19:00:00,1682A,110.4019,21.1997,湛江市,环保局宿舍,细颗粒物(PM2.5),58,60,53,41,36,174,150,159,159,20,17,12,17,0.6,0.6
2022-10-16T19:00:00,1683A,110.4111,21.2028,湛江市,霞山游泳场,颗粒物(PM10),55,60,58,35,36,174,160,162,162,14,14,15,19,0.6,0.6
2022-10-16T19:00:00,1684A,110.3316,21.2679,湛江市,麻章区环保局,细颗粒物(PM2.5),75,94,69,55,42,167,153,164,163,20,18,18,31,0.7,0.6
2022-10-16T19:00:00,1685A,110.4558,21.2567,湛江市,坡头区环保局,颗粒物(PM10),61,72,59,42,39,174,155,161,161,14,14,24,21,0.6,0.6
2022-10-16T19:00:00,1686A,111.0286,21.4688,茂名市,电白南海,颗粒物(PM10),63,75,68,36,33,185,166,176,176,12,14,13,15,0.5,0.5
2022-10-16T19:00:00,1687A,110.9294,21.6533,茂名市,茂石化七小,颗粒物(PM10),53,56,56,29,34,166,146,159,159,16,13,22,22,0.6,0.5
2022-10-16T19:00:00,1688A,110.9107,21.6687,茂名市,健康路,颗粒物(PM10),54,58,57,28,33,170,148,164,164,18,18,26,28,0.6,0.6
2022-10-16T19:00:00,1689A,110.8592,21.6828,茂名市,高岭,颗粒物(PM10),51,51,64,31,40,165,139,158,156,18,19,20,32,0.6,0.6
2022-10-16T19:00:00,1690A,116.1231,24.3284,梅州市,梅江月梅,,39,39,37,27,23,122,108,119,113,12,16,10,11,0.4,0.4
2022-10-16T19:00:00,1691A,116.0797,24.2719,梅州市,梅县新城,,48,37,35,33,23,121,104,112,106,13,12,8,9,0.5,0.4
2022-10-16T19:00:00,1692A,116.1248,24.2654,梅州市,环境监控中心,,,,42,,23,133,110,118,115,11,29,7,8,,0.4
2022-10-16T19:00:00,1693A,115.3653,22.775,汕尾市,市环保局,,33,33,38,23,20,120,97,120,97,10,9,9,9,0.6,0.6
2022-10-16T19:00:00,1694A,115.3706,22.7898,汕尾市,市政府,,50,31,33,35,15,124,101,124,99,6,7,8,9,0.9,0.6
2022-10-16T19:00:00,1695A,115.3622,22.7925,汕尾市,新城中学,,39,39,40,24,21,119,99,119,96,5,5,9,10,0.4,0.4
2022-10-16T19:00:00,1696A,114.6778,23.7569,河源市,源西(对照点),颗粒物(PM10),52,54,44,25,22,155,133,140,139,8,9,8,7,0.5,0.5
2022-10-16T19:00:00,1697A,114.6944,23.7586,河源市,东埔,颗粒物(PM10),53,56,45,29,23,155,138,145,144,11,10,9,8,0.7,0.7
2022-10-16T19:00:00,1698A,114.6892,23.7233,河源市,老城,颗粒物(PM10),51,51,49,24,22,159,141,147,146,6,7,8,6,0.8,0.7
2022-10-16T19:00:00,1699A,111.9797,21.8593,阳江市,鸳鸯湖(对照点),,,,,,,,,,,,,,,,
2022-10-16T19:00:00,1700A,111.9508,21.8536,阳江市,南恩路,,,,,,,,,,,,,,,,
2022-10-16T19:00:00,1701A,111.9491,21.8658,阳江市,马南垌,细颗粒物(PM2.5),55,57,48,39,31,166,145,158,158,22,18,9,9,0.7,0.6
2022-10-16T19:00:00,1702A,113.0426,23.691,清远市,环保大楼(对照点),臭氧1小时,78,48,43,35,30,196,182,188,187,14,12,7,7,0.7,0.6
2022-10-16T19:00:00,1703A,113.0208,23.7106,清远市,凤城街办,"颗粒物(PM10),细颗粒物(PM2.5)",55,59,45,39,29,170,154,157,155,22,14,5,6,0.8,0.7
2022-10-16T19:00:00,1705A,116.6367,23.6719,潮州市,西园路(对照点),,45,31,45,31,28,114,83,99,91,8,11,6,9,0.7,0.7
2022-10-16T19:00:00,1706A,116.6447,23.6706,潮州市,档案局,,32,29,44,22,24,112,83,104,99,8,11,8,11,0.7,0.7
2022-10-16T19:00:00,1708A,116.3701,23.5345,揭阳市,新兴,,32,32,49,22,26,114,88,100,97,2,10,8,12,0.6,0.7
2022-10-16T19:00:00,1709A,116.3264,23.5443,揭阳市,西马,,49,47,47,34,24,108,68,96,87,13,10,7,8,0.8,0.6
2022-10-16T19:00:00,1710A,116.3611,23.5626,揭阳市,东兴,,36,36,46,20,23,96,83,89,88,2,16,7,9,0.4,0.5
2022-10-16T19:00:00,1711A,116.4151,23.5294,揭阳市,渔湖,,39,39,50,25,26,91,81,87,85,6,15,6,8,0.5,0.6
2022-10-16T19:00:00,1712A,112.0392,22.9169,云浮市,新市府(对照点),,,,,,,,,,,,,,,,
2022-10-16T19:00:00,1713A,112.0369,22.9394,云浮市,市监测站,,,,,,,,,,,,,,,,
2022-10-16T19:00:00,1714A,112.0539,22.9539,云浮市,牧羊,,46,32,51,32,27,176,137,165,165,27,40,20,27,0.7,0.6
2022-10-16T19:00:00,1715A,102.575,24.3711,玉溪市,东风水库,,34,34,29,16,21,102,85,90,90,14,10,5,5,0.7,0.7
2022-10-16T19:00:00,1718A,115.4208,35.2464,菏泽市,气象局,细颗粒物(PM2.5),138,204,156,105,97,181,103,152,149,43,48,8,13,0.8,0.6
2022-10-16T19:00:00,1719A,115.4747,35.2375,菏泽市,市政协,细颗粒物(PM2.5),140,,144,107,110,176,105,153,150,33,43,3,6,0.6,0.5
2022-10-16T19:00:00,1720A,115.455,35.27,菏泽市,菏泽学院,,,,,,,,,,,,,,,,
2022-10-16T19:00:00,1721A,113.3819,40.1097,大同市,果树场(对照点),,,,,,,,,,,,,,,,
2022-10-16T19:00:00,1723A,113.2994,40.0758,大同市,云冈宾馆,,24,24,25,4,6,67,58,61,61,8,8,7,9,0.6,0.6
2022-10-16T19:00:00,1724A,113.3444,40.0917,大同市,大同大学,,20,20,29,3,1,71,58,64,64,8,6,11,11,0.3,0.3
2022-10-16T19:00:00,1725A,113.2661,40.1269,大同市,安家小村,,,,,,,,,,,,,,,,
2022-10-16T19:00:00,1726A,113.2711,40.0844,大同市,教育学院,,26,19,31,18,15,71,59,63,63,9,7,7,8,0.2,0.3
2022-10-16T19:00:00,1727A,113.1147,36.1547,长治市,清华站,细颗粒物(PM2.5),92,74,85,68,57,141,128,130,130,24,36,10,10,0.8,0.8
2022-10-16T19:00:00,1728A,113.1031,36.1989,长治市,监测站,细颗粒物(PM2.5),94,89,77,70,51,128,106,118,118,25,34,9,11,0.8,0.8
2022-10-16T19:00:00,1730A,113.0886,36.2125,长治市,审计局,细颗粒物(PM2.5),94,90,69,70,55,130,113,122,122,21,30,6,8,1.0,1.1
2022-10-16T19:00:00,1731A,113.0844,36.1856,长治市,长治八中,颗粒物(PM10),91,132,83,58,46,130,113,120,120,20,28,12,14,0.7,0.6
2022-10-16T19:00:00,1733A,111.5531,36.0783,临汾市,临钢医院,,35,31,110,24,124,122,77,99,99,21,38,2,4,0.3,1.7
2022-10-16T19:00:00,1734A,111.5028,36.0714,临汾市,技工学校,,28,21,130,19,122,121,76,95,95,19,41,5,11,0.4,1.5
2022-10-16T19:00:00,1735A,111.5169,36.0822,临汾市,工商学校,,,,,,,,,,,,,,,,
2022-10-16T19:00:00,1736A,111.5018,36.0855,临汾市,市委,,30,30,123,8,110,123,74,95,95,23,41,3,6,0.4,1.5
2022-10-16T19:00:00,1738A,113.5758,37.8572,阳泉市,市中心,颗粒物(PM10),63,75,88,31,39,107,66,94,92,38,49,12,16,0.5,0.7
2022-10-16T19:00:00,1739A,113.4894,37.8731,阳泉市,赛鱼,,46,46,89,18,44,106,42,94,89,62,56,10,16,0.7,0.7
2022-10-16T19:00:00,1740A,113.5819,37.8486,阳泉市,南庄,细颗粒物(PM2.5),53,48,99,37,41,105,72,94,93,35,50,12,19,0.4,0.8
2022-10-16T19:00:00,1741A,113.6292,37.8531,阳泉市,白羊墅,,,,,,,,,,,,,,,,
2022-10-16T19:00:00,1742A,113.5614,37.8703,阳泉市,平坦,颗粒物(PM10),67,84,87,18,41,110,76,97,96,35,51,16,16,0.7,0.9
2022-10-16T19:00:00,1743A,113.5158,37.8392,阳泉市,大阳泉,细颗粒物(PM2.5),52,42,71,36,41,114,82,100,100,28,32,13,16,0.6,0.7
2022-10-16T19:00:00,1744A,118.9233,42.2816,赤峰市,松山一中,,30,30,22,4,4,58,50,55,55,18,18,9,10,0.3,0.3
2022-10-16T19:00:00,1745A,118.9576,42.2728,赤峰市,哈达街,,29,29,20,2,5,58,49,54,54,16,14,9,9,0.3,0.3
2022-10-16T19:00:00,1746A,118.8788,42.2554,赤峰市,天义路,,35,35,34,5,3,58,43,54,52,26,19,11,11,0.4,0.6
2022-10-16T19:00:00,1748A,123.044,41.1196,鞍山市,深沟寺,,19,19,48,8,34,86,42,61,51,18,14,11,9,0.3,0.5
2022-10-16T19:00:00,1749A,123.011,41.0931,鞍山市,太阳城,,18,18,53,5,33,93,42,76,50,19,17,18,10,0.8,0.6
2022-10-16T19:00:00,1750A,123.0485,41.1442,鞍山市,太平,,24,24,44,8,31,100,42,58,50,19,18,26,11,0.1,0.4
2022-10-16T19:00:00,1751A,122.9642,41.0971,鞍山市,铁西三道街,,18,18,69,6,43,60,29,46,45,32,38,37,31,1.7,2.1
2022-10-16T19:00:00,1752A,122.9341,41.0833,鞍山市,铁西工业园区,颗粒物(PM10),51,52,67,28,46,67,28,51,49,34,26,13,12,0.6,0.9
2022-10-16T19:00:00,1753A,123.022,41.0821,鞍山市,明达新区,,18,18,55,7,39,100,40,65,47,14,11,13,10,1.1,0.7
2022-10-16T19:00:00,1754A,123.1289,41.0228,鞍山市,千山(对照点),,,,,,,,,,,,,,,,
2022-10-16T19:00:00,1755A,123.7977,41.8491,抚顺市,望花区,,20,20,49,8,33,79,46,61,55,14,16,5,8,0.4,0.7
2022-10-16T19:00:00,1756A,123.9161,41.8822,抚顺市,顺城区,,18,18,61,5,36,64,37,64,49,23,23,9,8,0.6,0.8
2022-10-16T19:00:00,1757A,124.0436,41.8611,抚顺市,东洲区,,17,17,71,6,44,90,43,54,53,15,16,12,8,0.5,0.8
2022-10-16T19:00:00,1758A,123.9247,41.8642,抚顺市,新抚区,,20,20,56,4,30,73,49,73,56,14,17,2,3,0.4,0.8
2022-10-16T19:00:00,1759A,124.0972,41.8961,抚顺市,大伙房水库,,26,26,54,11,35,92,37,52,48,18,14,5,5,0.5,0.7
2022-10-16T19:00:00,1760A,123.7086,41.8391,抚顺市,沈抚新城,颗粒物(PM10),52,53,54,16,31,64,14,54,45,39,18,9,8,0.4,0.4
2022-10-16T19:00:00,1761A,123.8275,41.3064,本溪市,大峪,颗粒物(PM10),59,67,34,4,16,64,27,47,43,31,22,10,9,0.5,0.7
2022-10-16T19:00:00,1762A,123.7567,41.3325,本溪市,溪湖,,28,28,69,6,29,49,25,47,43,35,29,15,17,0.2,0.6
2022-10-16T19:00:00,1763A,123.7169,41.3094,本溪市,彩屯,,34,34,62,14,31,50,39,46,46,22,28,6,8,0.6,0.9
2022-10-16T19:00:00,1764A,123.7669,41.2864,本溪市,东明,,26,26,42,9,21,52,19,48,44,45,34,22,10,0.6,0.8
2022-10-16T19:00:00,1765A,123.7992,41.2664,本溪市,新立屯,,31,31,34,6,19,52,12,49,43,42,32,7,8,0.4,0.6
2022-10-16T19:00:00,1766A,123.8142,41.3472,本溪市,威宁,,33,33,40,9,19,49,20,47,42,34,26,6,6,0.5,0.7
2022-10-16T19:00:00,1767A,121.1115,41.0879,锦州市,南山,,42,42,35,3,32,126,33,51,48,30,17,5,7,0.6,0.6
2022-10-16T19:00:00,1768A,121.0533,40.8434,锦州市,开发区,,49,49,42,12,34,145,37,54,52,30,19,8,8,0.4,0.4
2022-10-16T19:00:00,1769A,121.1836,41.1119,锦州市,百股街道,颗粒物(PM10),57,63,48,12,35,122,30,50,47,33,16,5,6,0.5,0.8
2022-10-16T19:00:00,1770A,121.1178,41.1222,锦州市,天安街道,颗粒物(PM10),55,59,43,12,37,115,37,53,52,28,16,5,8,0.6,0.7
2022-10-16T19:00:00,1771A,121.1303,41.1386,锦州市,北湖公园,颗粒物(PM10),53,55,36,16,36,118,36,56,53,14,13,5,6,0.5,0.5
2022-10-16T19:00:00,1772A,126.54,43.8622,吉林市,哈达湾,,26,26,48,5,26,65,37,53,51,24,25,7,10,0.4,0.6
2022-10-16T19:00:00,1773A,126.5844,43.8358,吉林市,东局子,,21,21,52,6,31,56,36,51,50,25,29,4,7,0.4,0.7
2022-10-16T19:00:00,1774A,126.5052,43.8245,吉林市,电力学院,,33,33,53,16,38,59,37,54,52,22,21,8,8,0.7,0.7
2022-10-16T19:00:00,1775A,126.6133,43.8972,吉林市,江北,,18,18,52,9,37,61,40,55,54,24,24,7,6,0.6,0.6
2022-10-16T19:00:00,1776A,126.555,43.8306,吉林市,江南公园,,21,21,51,8,34,56,35,51,49,24,26,6,8,0.5,0.7
2022-10-16T19:00:00,1778A,126.7061,43.7133,吉林市,丰满(对照点),,,,,,,,,,,,,,,,
2022-10-16T19:00:00,1779A,123.9305,47.3636,齐齐哈尔市,安居小区,,30,30,28,8,7,41,16,39,34,31,11,5,5,0.7,0.5
2022-10-16T19:00:00,1780A,123.9488,47.3386,齐齐哈尔市,中心广场,,20,20,25,2,4,41,25,40,36,20,10,6,7,0.4,0.2
2022-10-16T19:00:00,1781A,123.9483,47.3227,齐齐哈尔市,农牧车辆厂,,24,24,31,2,4,38,31,38,36,11,10,6,6,0.3,0.3
2022-10-16T19:00:00,1783A,123.945,47.2988,齐齐哈尔市,市环境监测站,,25,25,28,11,17,38,22,37,35,24,12,4,4,0.4,0.3
2022-10-16T19:00:00,1784A,129.61,44.561,牡丹江市,环保大楼,,25,14,60,17,31,54,48,52,52,11,32,2,4,0.3,0.6
2022-10-16T19:00:00,1785A,129.6115,44.5782,牡丹江市,文化广场,,23,23,77,9,38,54,46,51,51,12,34,2,4,0.2,0.7
2022-10-16T19:00:00,1786A,129.5904,44.5963,牡丹江市,第一医院,,38,34,59,26,38,54,43,52,52,14,33,5,7,0.6,0.9
2022-10-16T19:00:00,1787A,129.6364,44.6075,牡丹江市,机车工厂,颗粒物(PM10),63,75,73,38,29,59,51,56,56,7,27,1,1,1.4,0.9
2022-10-16T19:00:00,1788A,129.6386,44.5462,牡丹江市,第一中学,,29,29,42,10,23,60,52,57,57,9,25,3,2,0.3,0.5
2022-10-16T19:00:00,1789A,124.81117,46.03138,大庆市,大同区,,33,33,33,5,8,45,35,41,40,6,8,3,3,0.2,0.2
2022-10-16T19:00:00,1790A,125.129,46.533,大庆市,龙凤区,,28,28,27,7,9,41,31,38,37,12,12,3,4,0.4,0.5
2022-10-16T19:00:00,1791A,124.902,46.408,大庆市,红岗区,,22,22,26,10,8,48,37,43,42,9,9,6,6,0.5,0.5
2022-10-16T19:00:00,1792A,125.153,46.586,大庆市,萨尔图区,,14,14,28,6,9,43,25,39,36,21,12,7,8,0.4,0.3
2022-10-16T19:00:00,1793A,124.9042,46.6215,大庆市,让胡路区,,,,,,,47,34,39,38,10,6,3,3,1.9,1.8
2022-10-16T19:00:00,1794A,118.3606,31.3519,芜湖市,监测站,,50,50,57,13,37,143,124,109,109,39,56,11,11,0.6,0.8
2022-10-16T19:00:00,1795A,118.3714,31.4134,芜湖市,科创中心,,45,45,61,15,35,163,125,128,128,38,56,8,10,0.6,0.9
2022-10-16T19:00:00,1796A,118.3673,31.3131,芜湖市,四水厂,颗粒物(PM10),51,52,53,18,30,138,124,113,113,48,49,12,10,0.6,0.7
2022-10-16T19:00:00,1797A,118.4022,31.3839,芜湖市,济民医院(对照点),,,,,,,,,,,,,,,,
2022-10-16T19:00:00,1798A,118.5092,31.6837,马鞍山市,湖东路四小,,45,45,37,7,19,162,108,134,134,41,33,10,8,0.8,0.7
2022-10-16T19:00:00,1799A,118.5024,31.6449,马鞍山市,开发区,,50,50,47,16,27,160,119,133,133,36,43,10,8,0.9,0.8
2022-10-16T19:00:00,1800A,118.5228,31.7231,马鞍山市,慈湖,颗粒物(PM10),67,84,49,30,31,160,84,123,121,66,46,10,14,0.8,0.7
2022-10-16T19:00:00,1801A,118.48,31.6928,马鞍山市,马钢动力厂,,,,,,,,,,,,,,,,
2022-10-16T19:00:00,1802A,118.6245,31.7241,马鞍山市,濮塘(对照点),,43,43,34,20,21,173,111,136,136,19,14,5,4,0.6,0.5
2022-10-16T19:00:00,1803A,115.9872,29.6815,九江市,十里,,47,47,57,21,32,175,123,161,157,25,25,8,8,0.6,0.7
2022-10-16T19:00:00,1804A,115.9584,29.7046,九江市,茅山头,颗粒物(PM10),51,52,51,22,32,161,114,148,145,28,79,9,9,0.8,0.8
2022-10-16T19:00:00,1805A,115.9877,29.7295,九江市,西园,颗粒物(PM10),56,62,54,28,32,159,90,144,137,58,32,11,11,0.8,0.6
2022-10-16T19:00:00,1806A,116.0172,29.6547,九江市,五七二七厂,颗粒物(PM10),51,51,44,26,27,167,80,154,142,32,18,6,8,0.6,0.7
2022-10-16T19:00:00,1808A,115.9114,29.6038,九江市,综合工业园,,36,36,52,19,29,145,114,104,94,21,42,10,11,0.6,0.7
2022-10-16T19:00:00,1809A,116.0721,29.7535,九江市,石化总厂,颗粒物(PM10),52,53,56,26,28,159,96,146,139,39,27,10,10,0.7,0.7
2022-10-16T19:00:00,1810A,115.9773,29.5698,九江市,庐山气象台(对照点),,46,33,26,21,23,163,146,157,148,15,13,8,7,0.5,0.7
2022-10-16T19:00:00,1811A,112.3628,34.6692,洛阳市,中信二小,,,,,,,,,,,,,,,,
2022-10-16T19:00:00,1812A,112.3931,34.6516,洛阳市,市委党校,颗粒物(PM10),81,112,90,51,48,133,120,116,116,39,28,11,9,0.9,0.6
2022-10-16T19:00:00,1814A,112.4657,34.6871,洛阳市,豫西宾馆,细颗粒物(PM2.5),103,106,91,77,56,136,113,117,117,39,31,9,7,1.0,0.6
2022-10-16T19:00:00,1815A,112.494,34.6886,洛阳市,河南林校,颗粒物(PM10),97,144,85,71,54,142,124,120,120,38,32,10,8,0.9,0.6
2022-10-16T19:00:00,1816A,112.3844,34.623,洛阳市,开发区管委会,颗粒物(PM10),71,91,71,44,46,134,131,116,116,26,23,9,6,0.6,0.4
2022-10-16T19:00:00,1817A,112.4267,34.6258,洛阳市,市委新办公区,颗粒物(PM10),79,108,77,54,49,135,119,115,115,36,27,9,8,0.7,0.5
2022-10-16T19:00:00,1818A,114.4839,36.0621,安阳市,棉研所(对照点),,,,,,,,,,,,,,,,
2022-10-16T19:00:00,1819A,114.3551,36.1017,安阳市,红庙街,颗粒物(PM10),63,76,154,20,96,96,38,84,75,28,58,10,13,0.4,1.1
2022-10-16T19:00:00,1820A,114.361,36.0681,安阳市,银杏小区,颗粒物(PM10),58,65,148,36,101,105,46,93,81,24,65,6,9,0.4,1
2022-10-16T19:00:00,1824A,114.3389,34.7781,开封市,肿瘤医院,细颗粒物(PM2.5),153,140,144,117,124,146,88,119,119,35,58,8,10,0.9,1.1
2022-10-16T19:00:00,1826A,114.2885,34.7965,开封市,世纪星幼儿园,细颗粒物(PM2.5),143,179,147,109,90,138,72,109,109,37,52,7,9,0.8,1
2022-10-16T19:00:00,1828A,113.227,35.2125,焦作市,市环保局,颗粒物(PM10),99,148,129,73,73,156,96,120,120,25,44,11,13,0.9,1.2
2022-10-16T19:00:00,1829A,113.2464,35.1764,焦作市,高新区政府（停运20220628）,,,,,,,,,,,,,,,,
2022-10-16T19:00:00,1830A,113.1992,35.2590,焦作市,影视城(对照点),,,,,,,,,,,,,,,,
2022-10-16T19:00:00,1832A,113.3257,33.742,平顶山市,新华旅馆,细颗粒物(PM2.5),129,199,86,98,47,167,139,146,146,28,15,15,11,1.7,0.7
2022-10-16T19:00:00,1833A,113.2919,33.737,平顶山市,规划设计院,细颗粒物(PM2.5),153,215,91,117,44,178,159,156,156,43,28,15,10,1.7,0.7
2022-10-16T19:00:00,1834A,113.182,33.774,平顶山市,平顶山工学院,细颗粒物(PM2.5),132,197,84,100,39,175,160,154,154,34,23,15,10,1.6,0.7
2022-10-16T19:00:00,1835A,111.1922,34.7752,三门峡市,市政府,,42,42,60,18,36,127,92,96,96,23,40,7,7,0.6,0.6
2022-10-16T19:00:00,1836A,111.1587,34.7942,三门峡市,开发区,,40,40,80,24,38,131,83,96,96,27,30,5,6,0.7,0.7
2022-10-16T19:00:00,1838A,111.143,34.7955,三门峡市,风景区(对照点),,,,,,,,,,,,,,,,
2022-10-16T19:00:00,1839A,111.3009,30.7157,宜昌市,四零三,,,,,,,,,,,,,,,,
2022-10-16T19:00:00,1840A,111.2992,30.6981,宜昌市,白龙岗,,39,39,42,19,25,152,117,131,131,29,24,6,5,0.4,0.5
2022-10-16T19:00:00,1841A,111.3549,30.6465,宜昌市,伍家岗,,44,44,47,22,25,151,110,130,130,34,26,7,6,0.4,0.5
2022-10-16T19:00:00,1842A,111.2628,30.6961,宜昌市,点军区,,45,45,48,19,27,149,127,130,130,19,18,9,6,0.4,0.5
2022-10-16T19:00:00,1843A,111.3275,30.7819,宜昌市,夷陵区,,50,50,40,29,22,130,79,117,117,38,21,10,8,0.5,0.4
2022-10-16T19:00:00,1844A,112.2494,30.3197,荆州市,市图书馆,颗粒物(PM10),51,52,62,30,46,154,138,139,139,22,22,7,10,0.6,0.7
2022-10-16T19:00:00,1845A,112.2008,30.3544,荆州市,市委党校,,,,69,39,45,158,137,141,141,20,24,7,9,0.6,0.9
2022-10-16T19:00:00,1847A,113.1094,29.3578,岳阳市,南湖风景区,臭氧1小时,73,78,92,49,72,209,178,195,195,31,36,9,13,0.8,0.8
2022-10-16T19:00:00,1848A,113.1493,29.4251,岳阳市,城陵矶,颗粒物(PM10),72,93,104,50,62,180,151,161,161,47,64,19,16,1.4,0.8
2022-10-16T19:00:00,1849A,113.1497,29.3575,岳阳市,开发区,细颗粒物(PM2.5),67,80,86,48,71,196,161,181,181,34,42,10,11,0.6,0.7
2022-10-16T19:00:00,1850A,113.2621,29.4758,岳阳市,云溪区,颗粒物(PM10),66,81,79,45,50,197,162,182,182,26,32,6,7,0.7,0.7
2022-10-16T19:00:00,1851A,112.9943,29.4402,岳阳市,君山区,细颗粒物(PM2.5),75,86,92,55,68,204,166,186,186,26,25,13,11,0.8,0.7
2022-10-16T19:00:00,1852A,113.2117,29.355,岳阳市,金凤水库(对照点),臭氧1小时,85,70,76,36,46,202,188,194,194,13,19,8,10,0.7,0.8
2022-10-16T19:00:00,1854A,111.6975,28.9703,常德市,市二中,颗粒物(PM10),54,58,83,24,52,141,129,131,131,16,28,6,11,0.4,0.6
2022-10-16T19:00:00,1857A,111.7158,29.1456,常德市,白鹤山(对照点),,45,45,50,20,34,160,135,137,135,10,12,9,8,0.3,0.4
2022-10-16T19:00:00,1858A,110.5319,29.1217,张家界市,永定新区,,38,38,54,21,33,136,97,124,124,26,26,5,5,0.3,0.3
2022-10-16T19:00:00,1859A,110.4697,29.1242,张家界市,电业局,,42,42,47,21,28,144,95,127,127,39,19,5,5,0.3,0.4
2022-10-16T19:00:00,1860A,110.5594,29.3547,张家界市,未央路,,35,35,36,15,23,130,87,123,120,8,8,4,4,0.3,0.3
2022-10-16T19:00:00,1861A,110.4417,29.315,张家界市,袁家界(对照点),,38,20,35,9,21,155,119,47,47,11,13,9,10,0.5,0.6
2022-10-16T19:00:00,1862A,110.4144,25.3167,桂林市,电子科大尧山校区(对照点),臭氧1小时,68,59,58,35,36,178,174,174,174,7,7,9,12,0.6,0.6
2022-10-16T19:00:00,1863A,110.2819,25.2697,桂林市,监测站,"颗粒物(PM10),细颗粒物(PM2.5)",57,64,53,40,34,162,146,155,154,20,14,7,9,0.6,0.5
2022-10-16T19:00:00,1864A,110.3089,25.2708,桂林市,龙隐路小学,细颗粒物(PM2.5),55,53,48,39,37,164,159,157,157,10,9,8,10,0.8,0.7
2022-10-16T19:00:00,1865A,110.2869,25.2178,桂林市,八中,细颗粒物(PM2.5),54,46,52,38,36,162,148,153,152,18,15,7,9,0.4,0.3
2022-10-16T19:00:00,1866A,109.2262,21.588,北海市,牛尾岭水库(对照点),,,,,,,,,,,,,,,,
2022-10-16T19:00:00,1867A,109.1436,21.4086,北海市,海滩公园,臭氧1小时,75,61,56,32,30,188,180,179,179,13,11,10,12,0.7,0.7
2022-10-16T19:00:00,1868A,109.0981,21.4661,北海市,新市环保局,臭氧1小时,73,46,54,27,39,183,178,174,174,11,11,8,15,0.5,0.5
2022-10-16T19:00:00,1869A,109.1778,21.5233,北海市,北海工业园,臭氧1小时,60,58,66,34,38,179,168,170,170,19,19,10,14,0.6,0.6
2022-10-16T19:00:00,1870A,109.4856,24.3895,柳州市,柳东小学,,44,44,41,26,29,178,126,154,132,6,7,7,10,0.6,0.6
2022-10-16T19:00:00,1871A,109.4157,24.3277,柳州市,环保监测站,,46,46,53,28,33,139,120,138,129,15,21,10,17,0.7,0.7
2022-10-16T19:00:00,1872A,109.389,24.341,柳州市,河西水厂,颗粒物(PM10),61,71,78,35,43,146,69,113,108,53,33,30,25,2.2,1.2
2022-10-16T19:00:00,1873A,109.4311,24.2921,柳州市,市四中,颗粒物(PM10),51,51,55,22,29,151,115,140,126,12,13,10,17,0.7,0.6
2022-10-16T19:00:00,1874A,109.4006,24.3631,柳州市,市九中,颗粒物(PM10),57,63,62,28,36,136,101,116,114,20,22,12,21,0.7,0.7
2022-10-16T19:00:00,1875A,109.4958,24.3134,柳州市,古亭山,细颗粒物(PM2.5),72,52,46,52,31,156,140,155,147,11,16,11,12,0.5,0.6
2022-10-16T19:00:00,1876A,109.5078,18.2489,三亚市,河东子站,,44,34,37,28,23,143,138,136,136,16,8,5,4,0.5,0.4
2022-10-16T19:00:00,1877A,109.4964,18.2681,三亚市,河西子站,,43,41,36,25,23,137,137,126,126,11,9,4,4,0.5,0.5
2022-10-16T19:00:00,1878A,104.7778,31.4741,绵阳市,富乐山,,40,40,40,16,24,117,98,104,104,6,20,4,4,0.3,0.4
2022-10-16T19:00:00,1879A,104.7563,31.4535,绵阳市,市人大,,41,41,52,26,26,100,44,80,80,64,42,3,3,0.8,0.5
2022-10-16T19:00:00,1880A,104.6697,31.4668,绵阳市,高新区自来水公司,,45,45,70,23,31,118,58,97,97,46,34,11,9,0.5,0.5
2022-10-16T19:00:00,1881A,104.7287,31.5075,绵阳市,三水厂,,39,39,60,16,27,114,60,93,93,41,35,3,4,0.4,0.5
2022-10-16T19:00:00,1882A,104.563,28.793,宜宾市,石马中学(对照点),,50,50,56,26,36,114,99,92,92,16,21,7,7,0.5,0.6
2022-10-16T19:00:00,1883A,104.6201,28.7728,宜宾市,市委,颗粒物(PM10),52,53,56,28,34,118,97,98,98,27,40,9,10,0.5,0.6
2022-10-16T19:00:00,1884A,104.6055,28.793,宜宾市,宜宾四中,颗粒物(PM10),55,60,61,30,37,122,88,100,100,49,36,8,9,0.7,0.7
2022-10-16T19:00:00,1885A,104.639,28.7562,宜宾市,市政府,颗粒物(PM10),57,64,66,30,38,123,93,100,100,45,42,9,8,0.6,0.6
2022-10-16T19:00:00,1886A,104.5742,28.7199,宜宾市,黄金嘴,,47,47,51,24,32,123,87,106,106,33,31,9,11,0.7,0.7
2022-10-16T19:00:00,1888A,101.6891,26.571,攀枝花市,弄弄坪,,49,49,30,26,16,48,26,36,36,32,20,15,9,1.6,0.8
2022-10-16T19:00:00,1889A,101.5769,26.5928,攀枝花市,河门口,,34,34,34,20,21,34,26,30,30,31,34,14,38,1.2,2.2
2022-10-16T19:00:00,1890A,101.7169,26.585,攀枝花市,炳草岗,,41,41,26,24,17,44,17,32,32,42,22,13,12,1.5,0.9
2022-10-16T19:00:00,1891A,101.7369,26.5008,攀枝花市,仁和,,23,23,41,11,23,50,34,43,43,17,21,9,75,0.9,1.4
2022-10-16T19:00:00,1893A,105.4324,28.9634,泸州市,九狮山(对照点),细颗粒物(PM2.5),59,48,66,42,65,105,66,86,86,17,19,12,12,0.4,0.4
2022-10-16T19:00:00,1894A,105.4427,28.9063,泸州市,小市上码头,颗粒物(PM10),52,54,106,34,84,151,144,129,129,20,38,12,18,0.5,0.7
2022-10-16T19:00:00,1895A,105.4241,28.8573,泸州市,兰田宪桥,,49,48,96,34,74,146,121,124,124,22,30,11,18,0.8,0.8
2022-10-16T19:00:00,1896A,105.4379,28.8833,泸州市,市环监站,,47,47,100,31,79,128,128,108,108,21,37,7,16,0.4,0.7
2022-10-16T19:00:00,1897A,104.7547,29.3628,自贡市,大塘山(对照点),,,,,,,,,,,,,,,,
2022-10-16T19:00:00,1900A,104.7692,29.3411,自贡市,春华路,,,,,,,,,,,,,,,,
2022-10-16T19:00:00,1901A,104.4239,31.1208,德阳市,东山公园,颗粒物(PM10),52,54,63,17,31,127,113,111,111,14,29,4,8,0.3,0.5
2022-10-16T19:00:00,1902A,104.3826,31.1317,德阳市,西小区,颗粒物(PM10),54,57,73,18,30,130,89,103,103,32,43,2,5,0.5,0.6
2022-10-16T19:00:00,1903A,104.4053,31.1167,德阳市,市检察院,,,,,,,,,,,,,,,,
2022-10-16T19:00:00,1904A,104.3553,31.1091,德阳市,耐火材料厂,颗粒物(PM10),56,61,88,19,43,128,95,107,107,23,41,5,8,0.4,0.6
2022-10-16T19:00:00,1905A,106.056,30.8064,南充市,西山风景区(对照点),,,,,,,,,,,,,,,,
2022-10-16T19:00:00,1906A,106.0789,30.8023,南充市,南充市委,颗粒物(PM10),61,72,96,43,65,144,67,109,109,71,33,6,11,0.9,0.7
2022-10-16T19:00:00,1907A,106.1031,30.8217,南充市,南充炼油厂,颗粒物(PM10),66,81,109,45,73,157,121,124,124,29,32,9,13,0.6,0.7
2022-10-16T19:00:00,1908A,106.1064,30.7856,南充市,高坪区监测站,颗粒物(PM10),57,63,105,39,81,130,83,102,102,45,30,14,20,0.6,0.7
2022-10-16T19:00:00,1909A,106.0642,30.7636,南充市,嘉陵区环保局,细颗粒物(PM2.5),73,82,106,53,74,140,52,103,103,85,38,11,20,0.9,0.7
2022-10-16T19:00:00,1910A,106.1087,30.8388,南充市,市环境监测站,细颗粒物(PM2.5),67,66,100,48,70,140,103,108,108,36,31,11,14,0.5,0.6
2022-10-16T19:00:00,1911A,106.9222,27.6869,遵义市,丁字口,,48,41,46,33,29,96,85,94,88,10,7,6,7,0.6,0.6
2022-10-16T19:00:00,1912A,106.9242,27.7019,遵义市,凤凰山,,41,41,39,28,30,106,102,104,104,11,8,6,5,0.6,0.6
2022-10-16T19:00:00,1913A,106.8906,27.6486,遵义市,忠庄,,43,42,39,30,24,97,89,95,95,14,11,2,1,0.4,0.4
2022-10-16T19:00:00,1914A,106.9231,27.6506,遵义市,舟水桥,,49,49,43,20,28,96,82,90,90,19,13,4,3,0.4,0.4
2022-10-16T19:00:00,1915A,106.9178,27.72,遵义市,干田坝,,47,47,44,22,30,99,90,96,95,13,8,6,5,0.4,0.4
2022-10-16T19:00:00,1916A,103.7897,25.5035,曲靖市,环境监测站,颗粒物(PM10),54,57,33,16,16,102,78,95,94,18,14,3,4,0.3,0.5
2022-10-16T19:00:00,1917A,103.8,25.5364,曲靖市,烟厂办公区,,34,34,31,11,15,102,87,97,96,9,11,5,6,0.5,0.6
2022-10-16T19:00:00,1918A,108.7197,34.3956,咸阳市,气象站(对照点),颗粒物(PM10),72,94,94,25,39,113,25,83,81,97,48,8,8,0.7,0.7
2022-10-16T19:00:00,1919A,108.673,34.3155,咸阳市,实验中学,颗粒物(PM10),53,56,83,21,35,113,85,100,100,36,42,5,5,0.5,0.7
2022-10-16T19:00:00,1920A,108.7233,34.3617,咸阳市,师范学院,细颗粒物(PM2.5),73,80,108,53,40,125,71,100,100,54,42,7,7,0.9,0.7
2022-10-16T19:00:00,1922A,109.0656,35.0994,铜川市,党校(对照点),颗粒物(PM10),82,113,63,42,22,88,30,83,78,90,51,14,13,0.5,0.4
2022-10-16T19:00:00,1923A,109.0697,35.0697,铜川市,王益区政府,颗粒物(PM10),74,98,61,28,22,120,49,105,103,61,36,9,10,0.7,0.6
2022-10-16T19:00:00,1924A,108.9344,34.9058,铜川市,新区管委会,颗粒物(PM10),58,66,66,29,24,123,102,106,106,36,33,9,11,0.4,0.4
2022-10-16T19:00:00,1925A,108.9589,34.8731,铜川市,新区兰芝公司,,,,,,,,,,,,,,,,
2022-10-16T19:00:00,1926A,109.4131,36.6275,延安市,枣园(对照点),,39,39,41,9,13,113,74,101,101,18,26,5,5,0.5,0.6
2022-10-16T19:00:00,1927A,109.4761,36.6028,延安市,延大医附院,,40,40,48,25,16,104,45,91,90,49,35,6,5,0.6,0.5
2022-10-16T19:00:00,1928A,109.4824,36.5767,延安市,市监测站,,,,,,,,,,,,,,,,
2022-10-16T19:00:00,1929A,109.5056,36.6106,延安市,百米大道,,49,49,61,17,21,99,42,87,87,55,42,6,6,0.7,0.6
2022-10-16T19:00:00,1930A,107.185,34.3063,宝鸡市,庙沟村(对照点),,35,35,34,10,12,101,86,92,92,11,20,5,5,0.2,0.3
2022-10-16T19:00:00,1931A,107.0708,34.3017,宝鸡市,竹园沟,,38,38,34,15,15,114,55,90,90,31,18,6,6,0.3,0.4
2022-10-16T19:00:00,1932A,107.1906,34.3672,宝鸡市,三陆医院,颗粒物(PM10),56,62,57,14,23,108,22,84,82,60,27,6,7,0.6,0.5
2022-10-16T19:00:00,1933A,107.1431,34.3547,宝鸡市,监测站,,44,44,42,17,20,106,47,83,83,39,29,6,6,0.4,0.4
2022-10-16T19:00:00,1934A,107.1186,34.3739,宝鸡市,技工学校,颗粒物(PM10),59,68,49,24,23,112,41,94,91,54,23,6,6,0.6,0.6
2022-10-16T19:00:00,1935A,107.3906,34.3528,宝鸡市,陈仓区环保局家属楼,颗粒物(PM10),66,81,67,37,28,104,15,79,76,73,36,6,6,0.6,0.4
2022-10-16T19:00:00,1936A,107.2058,34.3497,宝鸡市,文理学院,颗粒物(PM10),69,87,52,21,23,104,15,84,81,74,33,6,6,0.6,0.4
2022-10-16T19:00:00,1937A,107.2386,34.3622,宝鸡市,三迪小学,颗粒物(PM10),64,77,55,30,24,105,34,84,83,61,39,7,7,0.6,0.4
2022-10-16T19:00:00,1938A,109.5293,34.5101,渭南市,农科所(对照点),,41,41,59,17,31,137,83,114,114,41,37,8,9,0.4,0.5
2022-10-16T19:00:00,1939A,109.4974,34.4877,渭南市,日报社,二氧化氮,54,53,56,26,28,118,10,85,82,108,47,9,9,0.7,0.6
2022-10-16T19:00:00,1940A,109.4636,34.493,渭南市,体育馆,二氧化氮,55,48,58,23,30,146,25,108,105,110,53,8,12,0.4,0.4
2022-10-16T19:00:00,1941A,109.4259,34.5023,渭南市,高新一小,颗粒物(PM10),65,79,72,28,34,134,23,102,99,102,49,11,12,0.3,0.3
2022-10-16T19:00:00,1943A,102.1725,38.5339,金昌市,新川苑,颗粒物(PM10),66,82,74,18,21,102,88,92,92,14,22,7,11,0.6,0.7
2022-10-16T19:00:00,1944A,102.1692,38.5167,金昌市,天庆家园,颗粒物(PM10),52,54,70,15,18,102,91,94,94,11,26,8,20,0.5,0.8
2022-10-16T19:00:00,1945A,98.2908,39.7711,嘉峪关市,气象局,颗粒物(PM10),56,61,61,19,17,101,90,95,95,10,16,2,7,0.2,0.2
2022-10-16T19:00:00,1947A,106.3394,38.817,石嘴山市,沙湖旅游区(对照点),颗粒物(PM10),73,95,58,26,20,136,111,109,109,23,16,18,15,0.8,0.6
2022-10-16T19:00:00,1948A,106.3668,39.0145,石嘴山市,大武口朝阳西街,颗粒物(PM10),70,90,54,45,21,105,77,84,84,45,23,23,19,0.9,0.8
2022-10-16T19:00:00,1949A,106.7704,39.2282,石嘴山市,惠农南大街,,47,47,64,14,22,85,25,61,61,57,35,15,43,1.4,1.2
2022-10-16T19:00:00,1950A,106.7099,39.1325,石嘴山市,红果子镇惠新街,颗粒物(PM10),71,92,73,17,19,92,54,75,75,32,28,22,36,0.8,0.9
2022-10-16T19:00:00,1951A,84.895,45.6094,克拉玛依市,长征新村,颗粒物(PM10),79,107,46,9,8,120,111,98,98,16,21,8,6,0.3,0.3
2022-10-16T19:00:00,1952A,84.8988,45.5893,克拉玛依市,南林小区,,48,48,47,16,16,122,109,100,100,20,29,4,4,0.5,0.6
2022-10-16T19:00:00,1953A,85.1186,45.6886,克拉玛依市,白碱滩区,,,,,,,,,,,,,,,,
2022-10-16T19:00:00,1954A,84.905,44.3396,克拉玛依市,独山子区,颗粒物(PM10),75,100,85,22,25,116,109,108,108,15,17,9,13,0.3,0.5
2022-10-16T19:00:00,1955A,85.6979,46.098,克拉玛依市,乌尔禾区商贸楼,,24,16,24,1,9,91,75,78,78,8,10,3,3,0.8,0.8
2022-10-16T19:00:00,1956A,86.1472,41.7538,巴音郭楞州,孔雀公园,颗粒物(PM10),102,153,151,35,43,94,89,81,81,2,32,4,4,0.2,0.3
2022-10-16T19:00:00,1957A,86.1972,41.7166,巴音郭楞州,棉纺厂,颗粒物(PM10),154,258,194,68,54,97,93,87,87,3,14,5,6,0.2,0.2
2022-10-16T19:00:00,1958A,86.2357,41.7173,巴音郭楞州,经济开发区,颗粒物(PM10),160,270,167,70,42,95,90,88,88,5,9,6,7,0.2,0.3
2022-10-16T19:00:00,1959A,118.746,36.881,寿光市,监测站,,,,,,,,,,,,,,,,
2022-10-16T19:00:00,1960A,118.780,36.864,寿光市,世纪学校,,,,,,,,,,,,,,,,
2022-10-16T19:00:00,1961A,117.532,36.6868,济南市,东山小学,颗粒物(PM10),58,66,120,10,54,139,34,84,67,26,51,6,7,0.2,1.1
2022-10-16T19:00:00,1962A,117.541,36.710,章丘市,明水开发区,,,,,,,,,,,,,,,,
2022-10-16T19:00:00,1963A,120.610,36.440,即墨市,环保局子站,,,,,,,,,,,,,,,,
2022-10-16T19:00:00,1964A,120.470,36.390,即墨市,开发区子站,,,,,,,,,,,,,,,,
2022-10-16T19:00:00,1965A,120.005,35.878,胶南市,JN子站,,,,,,,,,,,,,,,,
2022-10-16T19:00:00,1966A,120.0405,35.8735,青岛市,黄岛区4号,颗粒物(PM10),67,83,92,27,57,197,50,144,117,34,54,8,7,0.5,0.8
2022-10-16T19:00:00,1967A,120.008,36.283,胶州市,胶州环保局,,,,,,,,,,,,,,,,
2022-10-16T19:00:00,1968A,120.014,36.253,胶州市,胶州一中,,,,,,,,,,,,,,,,
2022-10-16T19:00:00,1969A,120.537,36.865,莱西市,环保局子站,,,,,,,,,,,,,,,,
2022-10-16T19:00:00,1970A,120.515,36.885,莱西市,人民广场子站,,,,,,,,,,,,,,,,
2022-10-16T19:00:00,1971A,119.952,36.792,平度市,1号,,,,,,,,,,,,,,,,
2022-10-16T19:00:00,1972A,119.976,36.799,平度市,2号,,,,,,,,,,,,,,,,
2022-10-16T19:00:00,1973A,120.747,37.825,蓬莱市,蓬莱环保局,,,,,,,,,,,,,,,,
2022-10-16T19:00:00,1974A,120.773,37.809,蓬莱市,蓬莱博物馆,,,,,,,,,,,,,,,,
2022-10-16T19:00:00,1975A,120.399,37.374,招远市,招远环保局,,,,,,,,,,,,,,,,
2022-10-16T19:00:00,1976A,120.394,37.364,招远市,招远教育局,,,,,,,,,,,,,,,,
2022-10-16T19:00:00,1977A,119.941,37.177,莱州市,莱州环保局,,,,,,,,,,,,,,,,
2022-10-16T19:00:00,1978A,119.959,37.180,莱州市,莱州外经委,,,,,,,,,,,,,,,,
2022-10-16T19:00:00,1979A,122.471,37.154,荣成市,荣成市环保局办公楼,,,,,,,,,,,,,,,,
2022-10-16T19:00:00,1980A,122.410,37.161,荣成市,山东成山轮胎公司,,,,,,,,,,,,,,,,
2022-10-16T19:00:00,1981A,122.038,37.197,文登市,文登市环保局,,,,,,,,,,,,,,,,
2022-10-16T19:00:00,1982A,122.0693,37.2174,威海市,文登开发区,,41,41,109,12,75,116,42,76,62,34,34,5,5,0.6,0.8
2022-10-16T19:00:00,1983A,121.531,36.913,乳山市,乳山市环保局,,,,,,,,,,,,,,,,
2022-10-16T19:00:00,1984A,121.544,36.907,乳山市,乳山市气象局,,,,,,,,,,,,,,,,
2022-10-16T19:00:00,1985A,120.636,31.155,吴江市,吴江市环保局,,,,,,,,,,,,,,,,
2022-10-16T19:00:00,1986A,120.635,31.170,吴江市,教师进修学校,,,,,,,,,,,,,,,,
2022-10-16T19:00:00,1987A,120.658,31.172,吴江市,吴江开发区,,,,,,,,,,,,,,,,
2022-10-16T19:00:00,1988A,120.953,31.388,昆山市,昆山实验小学,,,,,,,,,,,,,,,,
2022-10-16T19:00:00,1989A,120.999,31.381,昆山市,震川中学,,,,,,,,,,,,,,,,
2022-10-16T19:00:00,1990A,120.758,31.670,常熟市,海虞子站,,,,,,,,,,,,,,,,
2022-10-16T19:00:00,1991A,120.721,31.671,常熟市,兴福子站,,,,,,,,,,,,,,,,
2022-10-16T19:00:00,1992A,120.734,31.656,常熟市,菱塘子站,,,,,,,,,,,,,,,,
2022-10-16T19:00:00,1993A,120.526,31.874,张家港市,张家港市监测站,,,,,,,,,,,,,,,,
2022-10-16T19:00:00,1994A,120.550,31.882,张家港市,城北小学,,,,,,,,,,,,,,,,
2022-10-16T19:00:00,1995A,121.115,31.453,太仓市,太仓市监测站,,,,,,,,,,,,,,,,
2022-10-16T19:00:00,1996A,121.140,31.422,太仓市,科教新城实小,,,,,,,,,,,,,,,,
2022-10-16T19:00:00,1997A,119.146,31.955,句容市,消防指挥中心,,,,,,,,,,,,,,,,
2022-10-16T19:00:00,1998A,119.180,31.955,句容市,房家坝,,,,,,,,,,,,,,,,
2022-10-16T19:00:00,1999A,120.268,31.920,江阴市,虹桥邮政,,,,,,,,,,,,,,,,
2022-10-16T19:00:00,2000A,120.237,31.909,江阴市,五星公园,,,,,,,,,,,,,,,,
2022-10-16T19:00:00,2001A,120.302,31.920,江阴市,第二实验小学,,,,,,,,,,,,,,,,
2022-10-16T19:00:00,2002A,119.818,31.354,宜兴市,宜兴市环保局,,,,,,,,,,,,,,,,
2022-10-16T19:00:00,2003A,119.794,31.371,宜兴市,宜园,,,,,,,,,,,,,,,,
2022-10-16T19:00:00,2004A,119.579,31.751,金坛市,金坛市环境监测站,,,,,,,,,,,,,,,,
2022-10-16T19:00:00,2005A,119.579,31.737,金坛市,金坛市自来水公司,,,,,,,,,,,,,,,,
2022-10-16T19:00:00,2006A,119.460,31.400,溧阳市,溧阳市东门子站,,,,,,,,,,,,,,,,
2022-10-16T19:00:00,2007A,119.438,31.317,溧阳市,燕山子站,,,,,,,,,,,,,,,,
2022-10-16T19:00:00,2008A,121.173,31.896,海门市,海门市监测站,,,,,,,,,,,,,,,,
2022-10-16T19:00:00,2009A,121.1518,31.89708,海门市,社会福利院,,,,,,,,,,,,,,,,
2022-10-16T19:00:00,2010A,119.7183,30.2366,临安市,市政府,,,,,,,,,,,,,,,,
2022-10-16T19:00:00,2011A,119.6942,30.2311,临安市,四中,,,,,,,,,,,,,,,,
2022-10-16T19:00:00,2012A,119.954,30.054,富阳市,监测站,,,,,,,,,,,,,,,,
2022-10-16T19:00:00,2013A,119.946,30.049,富阳市,富春二小,,,,,,,,,,,,,,,,
2022-10-16T19:00:00,2014A,120.091,29.305,义乌市,江东,,,,,,,,,,,,,,,,
2022-10-16T19:00:00,2015A,120.040,29.334,义乌市,北苑,,,,,,,,,,,,,,,,
2022-10-16T19:00:00,2016A,120.251,29.719,诸暨市,图书馆,,,,,,,,,,,,,,,,
2022-10-16T19:00:00,2017A,120.209,29.732,诸暨市,富林印务,,,,,,,,,,,,,,,,
2022-10-16T19:00:00,2018A,121.989,39.625,瓦房店市,抱龙山庄,,,,,,,,,,,,,,,,
2022-10-16T19:00:00,2019A,122.011,39.617,瓦房店市,东山公园,,,,,,,,,,,,,,,,
2022-10-16T19:00:00,2031A,113.1817,27.9958,株洲市,云田中学,臭氧1小时,75,85,66,47,44,208,180,183,183,21,25,10,9,0.7,0.7
2022-10-16T19:00:00,2054A,114.1099,32.1059,信阳市,平桥分局,细颗粒物(PM2.5),100,132,91,75,51,184,184,158,158,25,31,13,10,0.9,0.7
2022-10-16T19:00:00,2064A,113.9956,32.1271,信阳市,南湾水厂,颗粒物(PM10),82,113,77,58,42,171,171,159,159,26,18,11,9,0.8,0.6
2022-10-16T19:00:00,2065A,114.0775,32.1195,信阳市,市酿酒公司,细颗粒物(PM2.5),89,103,75,66,47,171,171,156,156,32,44,13,11,1.0,0.9
2022-10-16T19:00:00,2066A,114.0609,32.1399,信阳市,审计局,细颗粒物(PM2.5),100,96,81,75,54,180,180,158,158,24,42,11,9,0.8,0.8
2022-10-16T19:00:00,2067A,114.6613,33.6128,周口市,市环境监测站,细颗粒物(PM2.5),114,112,136,86,58,187,132,164,164,33,43,10,10,1.2,1.3
2022-10-16T19:00:00,2068A,114.6758,33.6347,周口市,周口师范,细颗粒物(PM2.5),117,107,124,88,70,188,124,164,164,45,50,7,7,1.2,1.4
2022-10-16T19:00:00,2069A,114.6546,33.5979,周口市,市运管处,细颗粒物(PM2.5),93,129,133,69,69,190,137,167,167,40,57,7,7,1.1,1.2
2022-10-16T19:00:00,2070A,114.6369,33.6406,周口市,川汇区环保局,颗粒物(PM10),106,161,151,64,68,184,94,156,155,62,59,9,5,1.0,1.1
2022-10-16T19:00:00,2075A,117.6336,24.4674,漳州市,九湖(对照点),,,,,,,,,,,,,,,,
2022-10-16T19:00:00,2160A,112.85,35.5051,晋城市,自来水公司,颗粒物(PM10),106,161,98,61,46,170,164,140,140,31,34,12,10,1.1,1.2
2022-10-16T19:00:00,2161A,112.8318,35.4936,晋城市,白云商贸,颗粒物(PM10),104,158,84,51,44,166,163,138,138,28,28,12,8,1.2,1.2
2022-10-16T19:00:00,2162A,112.8508,35.4887,晋城市,市环保局,细颗粒物(PM2.5),89,101,78,66,51,163,155,137,137,31,39,13,10,1.0,1.2
2022-10-16T19:00:00,2163A,112.8676,35.4897,晋城市,技术学院,颗粒物(PM10),106,162,83,75,55,159,147,133,133,30,40,12,9,0.9,0.9
2022-10-16T19:00:00,2164A,112.8271,35.4828,晋城市,泽州一中,,,,,,,,,,,,,,,,
2022-10-16T19:00:00,2165A,112.8453,35.546,晋城市,白马寺 (对照点),,,,,,,,,,,,,,,,
2022-10-16T19:00:00,2166A,112.4397,39.3522,朔州市,平朔,颗粒物(PM10),51,51,54,5,14,81,43,67,67,29,16,4,19,0.2,0.4
2022-10-16T19:00:00,2167A,112.4575,39.3617,朔州市,朔唯,颗粒物(PM10),58,66,68,6,13,84,31,66,66,50,22,5,16,0.2,0.4
2022-10-16T19:00:00,2168A,112.4258,39.3197,朔州市,区政府,,22,22,61,5,9,83,59,70,70,20,14,3,14,0.4,0.5
2022-10-16T19:00:00,2169A,112.4072,39.3278,朔州市,市环保局,,41,41,55,10,20,80,62,68,68,18,16,6,14,0.4,0.5
2022-10-16T19:00:00,2170A,112.4272,39.3681,朔州市,市二中,,30,30,55,8,12,83,35,68,67,40,22,5,18,0.7,0.9
2022-10-16T19:00:00,2171A,112.7532,37.6945,晋中市,锦纶小区,颗粒物(PM10),56,62,104,20,48,114,73,101,100,28,45,9,12,0.2,0.6
2022-10-16T19:00:00,2173A,112.7249,37.7067,晋中市,南都小区,颗粒物(PM10),58,66,125,29,51,110,74,96,96,26,51,8,12,0.2,0.7
2022-10-16T19:00:00,2174A,112.6991,37.6982,晋中市,榆次区政府,颗粒物(PM10),61,71,110,31,54,109,71,97,97,32,51,9,14,0.4,0.8
2022-10-16T19:00:00,2175A,110.9956,35.0147,运城市,运城中学,,48,48,119,11,81,135,90,108,108,10,19,8,12,0.5,0.8
2022-10-16T19:00:00,2176A,111.0233,35.0611,运城市,禹都开发区,,,,,,,,,,,,,,,,
2022-10-16T19:00:00,2178A,110.9686,35.0303,运城市,地区技校,,50,50,135,5,86,140,92,110,110,11,23,10,13,0.3,0.8
2022-10-16T19:00:00,2179A,111.0414,35.1147,运城市,空港新区,细颗粒物(PM2.5),67,62,137,48,91,146,63,111,110,56,30,11,14,0.1,0.5
2022-10-16T19:00:00,2181A,112.7383,38.4519,忻州市,开发区,颗粒物(PM10),51,52,69,13,21,86,50,74,72,23,35,9,12,0.4,0.5
2022-10-16T19:00:00,2182A,112.7003,38.4928,忻州市,会展中心,,43,43,68,8,23,72,48,64,63,24,38,9,11,0.4,0.4
2022-10-16T19:00:00,2183A,111.1406,37.5211,吕梁市,环保局,,40,40,95,9,23,82,27,64,63,46,44,3,6,0.4,0.4
2022-10-16T19:00:00,2185A,111.1297,37.5136,吕梁市,自来水公司,,26,26,93,3,26,79,48,62,62,24,39,1,5,0.3,0.5
2022-10-16T19:00:00,2186A,106.8288,39.6778,乌海市,聚英学校,,,,,,,,,,,,,,,,
2022-10-16T19:00:00,2187A,106.8174,39.6973,乌海市,市林业局,,24,24,32,12,17,86,63,76,76,14,18,5,6,0.3,0.4
2022-10-16T19:00:00,2188A,106.7907,39.6667,乌海市,中海勃湾学校,,25,19,33,11,18,88,79,80,80,7,11,7,9,0.1,0.3
2022-10-16T19:00:00,2191A,122.2532,43.6801,通辽市,艺术职业学校,,49,49,29,0,3,55,38,48,47,17,19,5,5,0.1,0
2022-10-16T19:00:00,2192A,119.7594,49.2261,呼伦贝尔市,区环保局,,25,16,21,17,17,50,40,47,46,7,4,5,5,0.5,0.5
2022-10-16T19:00:00,2194A,107.5936,40.916,巴彦淖尔市,秋林养殖基地(对照点),,,,,,,,,,,,,,,,
2022-10-16T19:00:00,2195A,107.4212,40.761,巴彦淖尔市,附二中,颗粒物(PM10),59,67,52,17,17,70,52,62,62,21,8,4,6,0.4,0.3
2022-10-16T19:00:00,2196A,107.37,40.7372,巴彦淖尔市,市环保大楼,颗粒物(PM10),53,56,46,27,20,70,52,63,63,20,8,4,7,0.4,0.4
2022-10-16T19:00:00,2197A,113.1306,40.9923,乌兰察布市,集宁新区,,20,20,20,10,13,71,60,66,66,6,6,8,12,0.4,0.4
2022-10-16T19:00:00,2200A,122.0392,46.0656,兴安盟,胜华新制药厂,,23,23,22,12,11,49,39,44,43,9,6,3,3,0.2,0.2
2022-10-16T19:00:00,2201A,121.9504,46.0741,兴安盟,科右前旗环保局,,23,22,17,16,15,48,38,44,43,10,10,3,3,0.2,0.1
2022-10-16T19:00:00,2202A,116.1042,43.9317,锡林郭勒盟,市环保监测站,,26,26,24,8,5,52,25,48,46,23,10,8,8,0.3,0.2
2022-10-16T19:00:00,2203A,116.0781,43.9311,锡林郭勒盟,市政府,,25,25,29,5,5,52,10,47,43,39,12,8,9,0.2,0.2
2022-10-16T19:00:00,2204A,105.6467,38.8363,阿拉善盟,西城区西花园(对照点),,33,33,34,11,12,103,80,93,93,11,15,7,7,0.3,0.3
2022-10-16T19:00:00,2205A,105.6985,38.8411,阿拉善盟,蒙二幼,,34,34,36,13,18,102,82,94,94,10,13,8,8,0.2,0.3
2022-10-16T19:00:00,2206A,105.724,38.8516,阿拉善盟,环保局新楼,,26,18,20,14,14,100,83,100,92,13,8,5,5,0.4,0.4
2022-10-16T19:00:00,2207A,121.6094,41.998,阜新市,工业园区,颗粒物(PM10),59,67,36,7,8,88,26,51,46,29,15,10,6,0.7,0.5
2022-10-16T19:00:00,2208A,121.6697,42.0279,阜新市,长青街,,28,28,25,12,23,92,44,55,53,17,14,4,5,0.3,0.3
2022-10-16T19:00:00,2209A,121.6673,42.0705,阜新市,农业园区,颗粒物(PM10),52,53,29,3,8,86,43,48,48,11,10,6,7,0.3,0.4
2022-10-16T19:00:00,2210A,121.6717,42.0224,阜新市,东苑,颗粒物(PM10),55,60,42,3,8,94,40,51,49,16,13,6,6,0.3,0.4
2022-10-16T19:00:00,2211A,121.6506,42.0498,阜新市,玉龙新城,颗粒物(PM10),56,61,29,2,8,91,38,51,49,19,17,6,6,0.2,0.3
2022-10-16T19:00:00,2212A,123.2,41.1953,辽阳市,宏伟区,,25,25,44,4,14,86,35,50,46,24,22,10,10,0.4,0.6
2022-10-16T19:00:00,2213A,123.1683,41.2495,辽阳市,新华园,,43,43,63,3,23,73,37,54,46,26,27,10,11,0.2,0.5
2022-10-16T19:00:00,2214A,123.2354,41.2639,辽阳市,滨河路,,36,36,49,15,29,90,38,50,49,26,24,12,6,0.7,0.7
2022-10-16T19:00:00,2215A,123.149,41.2991,辽阳市,铁西工业园,颗粒物(PM10),66,81,69,13,45,60,7,51,41,49,27,8,11,0.3,0.5
2022-10-16T19:00:00,2216A,123.8139,42.3022,铁岭市,汇工街西,,21,21,39,11,17,83,37,54,52,19,12,6,9,0.8,0.7
2022-10-16T19:00:00,2217A,123.8649,42.2923,铁岭市,水上乐园,,41,41,37,6,37,84,23,45,42,35,18,16,18,0.4,0.4
2022-10-16T19:00:00,2218A,123.8486,42.2867,铁岭市,银州路东段,,29,29,49,6,15,81,23,44,39,32,18,7,5,0.8,0.7
2022-10-16T19:00:00,2219A,123.7153,42.2217,铁岭市,金沙江路北,,26,26,31,7,18,70,37,52,50,23,14,8,9,0.5,0.6
2022-10-16T19:00:00,2220A,120.4318,41.5881,朝阳市,西梁,,29,29,19,7,7,91,33,52,50,27,9,9,7,0.6,0.5
2022-10-16T19:00:00,2221A,120.4521,41.5646,朝阳市,河畔小区,,30,30,22,6,7,88,43,54,53,19,10,8,18,0.5,0.6
2022-10-16T19:00:00,2222A,120.4176,41.5648,朝阳市,八里堡,,41,41,26,6,8,91,37,51,49,23,9,9,8,0.6,0.5
2022-10-16T19:00:00,2223A,120.3806,41.5969,朝阳市,农业园区,,27,27,16,6,9,83,32,51,48,25,10,6,6,0.6,0.5
2022-10-16T19:00:00,2225A,124.4002,43.1713,四平市,一商场,,25,25,45,8,25,50,23,40,37,26,19,4,3,0.4,0.4
2022-10-16T19:00:00,2226A,124.388,43.193,四平市,境园,,19,19,38,8,21,57,25,47,44,26,14,7,6,0.0,0.4
2022-10-16T19:00:00,2227A,125.1358,42.8845,辽源市,环保局,,20,20,49,10,37,58,42,51,50,15,18,8,10,0.6,0.7
2022-10-16T19:00:00,2229A,125.9358,41.7173,通化市,光明,,15,10,25,2,13,62,47,56,56,12,17,10,12,0.2,0.3
2022-10-16T19:00:00,2230A,125.9446,41.7325,通化市,铁路,,19,9,30,6,14,68,60,62,62,5,16,10,12,0.4,0.6
2022-10-16T19:00:00,2231A,126.4219,41.9171,白山市,喜丰,,49,49,96,11,25,55,21,41,41,41,39,7,10,0.9,0.9
2022-10-16T19:00:00,2232A,126.4077,41.9419,白山市,环保局,,,,80,,26,6,,20,,,48,,9,,1.0
2022-10-16T19:00:00,2233A,124.8006,45.1214,松原市,江南,,34,34,48,11,8,47,29,44,40,15,15,3,4,0.3,0.3
2022-10-16T19:00:00,2234A,124.7965,45.1722,松原市,江北,,37,37,24,2,5,58,37,54,50,7,8,3,3,0.3,0.2
2022-10-16T19:00:00,2235A,122.7911,45.6077,白城市,洮北区环保局,,37,37,29,8,6,67,50,63,61,13,11,3,3,0.1,0.1
2022-10-16T19:00:00,2236A,122.8738,45.5725,白城市,市环保局,,28,28,29,4,8,55,40,52,50,10,7,4,4,0.3,0.3
2022-10-16T19:00:00,2237A,129.47,42.8883,延边朝鲜族自治州,妇幼医院,,22,22,39,10,26,85,46,69,64,23,22,20,8,0.4,0.5
2022-10-16T19:00:00,2238A,129.5055,42.9108,延边朝鲜族自治州,延边医院,,23,23,55,6,29,86,53,70,69,13,29,7,8,0.4,0.7
2022-10-16T19:00:00,2239A,129.3964,42.8881,延边朝鲜族自治州,朝阳川镇医院,,36,36,39,5,18,85,50,76,70,14,17,5,6,0.3,0.5
2022-10-16T19:00:00,2240A,130.9762,45.3001,鸡西市,环保局,,23,23,94,5,43,69,30,67,47,26,33,2,4,0.3,0.7
2022-10-16T19:00:00,2243A,130.9429,45.3039,鸡西市,第一中学,,28,28,66,10,37,73,47,72,58,8,16,4,5,0,0.2
2022-10-16T19:00:00,2244A,130.2537,47.3416,鹤岗市,哈啤分公司,,24,24,26,11,15,78,44,57,50,10,10,7,7,0.3,0.2
2022-10-16T19:00:00,2245A,130.2684,47.3086,鹤岗市,斯达机电,,33,33,31,10,12,78,34,66,50,17,12,9,5,0.3,0.3
2022-10-16T19:00:00,2246A,130.3114,47.3388,鹤岗市,东山纸板厂,,36,36,40,14,15,67,43,56,52,7,12,6,7,0.4,0.5
2022-10-16T19:00:00,2247A,130.1097,47.3382,鹤岗市,五号水库(对照点),,25,25,15,8,10,81,46,56,54,6,6,7,6,0.1,0.1
2022-10-16T19:00:00,2248A,131.1511,46.6937,双鸭山市,双合村,,20,20,54,4,32,88,53,64,56,10,16,4,15,0.2,0.7
2022-10-16T19:00:00,2249A,131.1652,46.6191,双鸭山市,南小市,,36,36,81,20,31,91,44,56,52,14,13,11,6,0.5,0.4
2022-10-16T19:00:00,2250A,131.1524,46.6554,双鸭山市,环保局,,29,29,49,8,28,95,56,71,59,10,17,4,7,0.2,0.5
2022-10-16T19:00:00,2251A,131.12,46.5656,双鸭山市,苗圃(对照点),,36,36,46,17,34,77,42,52,50,8,10,3,4,0.3,0.4
2022-10-16T19:00:00,2252A,128.5159,47.4311,伊春市,环保局,,,30,18,,7,53,35,44,42,11,9,6,4,0.3,0.3
2022-10-16T19:00:00,2253A,128.9102,47.7412,伊春市,电力嘉园,,21,21,19,13,9,57,38,45,43,8,9,4,4,0.2,0.2
2022-10-16T19:00:00,2254A,129.5029,48.471,伊春市,汤旺河国家公园(对照点),,41,41,41,15,8,49,41,47,46,4,4,6,6,0.2,0.3
2022-10-16T19:00:00,2255A,130.2751,46.8028,佳木斯市,佳纺,,42,42,44,14,21,73,39,53,49,15,12,8,3,1.2,1.3
2022-10-16T19:00:00,2256A,130.3995,46.8307,佳木斯市,发电厂,,41,41,47,7,19,77,41,53,51,11,8,2,1,0.3,0.4
2022-10-16T19:00:00,2257A,130.3258,46.7975,佳木斯市,环保局,,24,24,35,2,9,77,37,53,50,20,14,4,4,0.4,0.4
2022-10-16T19:00:00,2258A,130.3648,46.8032,佳木斯市,十一中,,32,32,35,13,17,84,45,56,53,16,15,2,3,0.4,0.4
2022-10-16T19:00:00,2259A,130.3794,46.7588,佳木斯市,四丰(对照点),,,18,26,10,18,76,51,57,53,,,1,1,0.1,0.2
2022-10-16T19:00:00,2262A,131.0518,45.8751,七台河市,新一中(对照点),,,,,,,82,54,71,59,9,15,7,8,0.3,0.6
2022-10-16T19:00:00,2263A,127.4833,50.2524,黑河市,交通局,,40,34,22,28,7,47,27,41,38,28,6,6,6,1.3,0.9
2022-10-16T19:00:00,2264A,127.5144,50.2341,黑河市,环保局,,32,23,20,22,10,48,31,46,44,25,6,6,8,0.6,0.2
2022-10-16T19:00:00,2265A,127.5291,50.2472,黑河市,大黑河岛(对照点),,,,,,,49,20,43,41,9,2,5,7,0.4,0.2
2022-10-16T19:00:00,2266A,126.9785,46.6365,绥化市,人和东街,颗粒物(PM10),53,56,25,16,10,50,16,44,38,26,16,3,3,0.3,0.3
2022-10-16T19:00:00,2267A,126.964,46.6528,绥化市,党政办公中心,颗粒物(PM10),51,52,24,22,11,52,27,47,43,19,16,4,5,0.4,0.3
2022-10-16T19:00:00,2269A,124.1069,50.4097,大兴安岭地区,科技局,,19,12,9,13,11,47,34,42,40,5,4,3,3,0.2,0.1
2022-10-16T19:00:00,2270A,117.396,32.939,蚌埠市,工人疗养院,颗粒物(PM10),74,98,74,52,41,150,110,135,135,43,38,12,12,0.7,0.4
2022-10-16T19:00:00,2271A,117.3605,32.9427,蚌埠市,百货大楼,"颗粒物(PM10),细颗粒物(PM2.5)",62,73,59,44,39,150,114,138,138,36,42,11,11,0.8,0.5
2022-10-16T19:00:00,2273A,117.4185,32.8911,蚌埠市,蚌埠学院,颗粒物(PM10),64,78,68,44,34,150,117,133,133,36,45,14,13,0.6,0.4
2022-10-16T19:00:00,2274A,117.3533,32.9673,蚌埠市,淮上区政府,颗粒物(PM10),69,88,70,39,39,148,117,134,134,20,29,10,10,0.8,0.5
2022-10-16T19:00:00,2275A,117.3145,32.8977,蚌埠市,高新区,细颗粒物(PM2.5),58,61,67,41,38,152,114,138,138,36,40,9,11,0.8,0.5
2022-10-16T19:00:00,2277A,116.8305,32.7727,淮南市,潘集区政府,"颗粒物(PM10),细颗粒物(PM2.5)",72,94,80,52,53,178,104,151,149,51,25,5,8,0.4,0.3
2022-10-16T19:00:00,2278A,117.0067,32.6524,淮南市,师范学院,细颗粒物(PM2.5),94,111,70,70,41,167,95,143,140,48,27,13,11,0.8,0.6
2022-10-16T19:00:00,2279A,116.8569,32.5951,淮南市,谢家集区政府,细颗粒物(PM2.5),73,91,63,53,38,165,134,146,146,44,28,8,20,0.5,0.4
2022-10-16T19:00:00,2280A,116.8281,32.633,淮南市,八公山区政府,细颗粒物(PM2.5),87,75,52,64,42,172,135,147,147,27,18,12,16,0.5,0.4
2022-10-16T19:00:00,2281A,116.6325,32.6201,淮南市,焦岗湖风景区管理处(对照点),细颗粒物(PM2.5),73,84,67,53,38,163,97,141,140,15,12,6,7,0.5,0.4
2022-10-16T19:00:00,2282A,116.8004,33.975,淮北市,监测站,细颗粒物(PM2.5),78,98,63,57,37,174,126,154,154,36,27,9,9,0.6,0.6
2022-10-16T19:00:00,2283A,116.8091,33.9007,淮北市,烈山区政府,细颗粒物(PM2.5),79,78,72,58,43,188,137,165,165,27,38,5,7,0.6,0.5
2022-10-16T19:00:00,2284A,116.7856,33.9477,淮北市,职业技术学院,细颗粒物(PM2.5),90,105,65,67,38,170,117,150,150,52,30,8,8,0.9,0.8
2022-10-16T19:00:00,2285A,117.8177,30.9412,铜陵市,市第四中学,细颗粒物(PM2.5),59,52,72,42,39,156,131,136,136,33,43,9,7,0.7,0.5
2022-10-16T19:00:00,2286A,117.8059,30.9273,铜陵市,市公路局,,,90,55,63,38,102,,97,,36,32,8,9,0.7,0.5
2022-10-16T19:00:00,2287A,117.7807,30.9413,铜陵市,市新民污水厂,细颗粒物(PM2.5),72,70,64,52,36,148,75,130,127,86,52,12,11,0.6,0.4
2022-10-16T19:00:00,2288A,117.7439,30.8792,铜陵市,市第九中学,颗粒物(PM10),70,89,104,50,46,138,130,126,126,32,57,11,10,1.5,0.8
2022-10-16T19:00:00,2289A,117.846,30.9413,铜陵市,车站新区,细颗粒物(PM2.5),69,42,52,50,36,162,124,138,138,32,38,7,5,0.6,0.5
2022-10-16T19:00:00,2290A,117.8483,30.97,铜陵市,市职教基地,颗粒物(PM10),59,67,58,39,34,167,120,138,138,26,22,7,6,0.7,0.6
2022-10-16T19:00:00,2291A,117.0809,30.5177,安庆市,环科院,,45,45,59,22,39,171,141,154,154,16,23,9,10,0.6,0.7
2022-10-16T19:00:00,2292A,117.0331,30.5119,安庆市,马山宾馆,,44,42,51,17,32,171,138,154,154,16,18,7,9,0.6,0.7
2022-10-16T19:00:00,2294A,116.9896,30.6145,安庆市,安庆大学,,46,37,49,18,32,161,145,150,150,17,21,9,8,0.6,0.6
2022-10-16T19:00:00,2295A,118.2903,29.6963,黄山市,延安路89号,,39,29,29,3,17,150,122,137,136,10,13,6,5,0.2,0.3
2022-10-16T19:00:00,2296A,118.327,29.7178,黄山市,黄山东路89号,,38,33,36,26,24,144,116,131,130,13,14,5,5,0.1,0.2
2022-10-16T19:00:00,2297A,118.1371,30.2756,黄山市,黄山区政府5号楼,,40,40,42,20,23,155,119,140,139,15,11,9,8,0.3,0.3
2022-10-16T19:00:00,2298A,118.3093,32.3153,滁州市,老年大学,颗粒物(PM10),55,59,38,35,27,140,129,132,132,28,24,5,7,0.5,0.3
2022-10-16T19:00:00,2299A,118.3244,32.2786,滁州市,人大宾馆,颗粒物(PM10),53,56,53,16,22,147,133,136,136,26,29,12,6,0.5,0.4
2022-10-16T19:00:00,2301A,115.8277,32.8929,阜阳市,市监测站,颗粒物(PM10),65,80,111,41,72,171,130,154,154,37,41,10,13,0.6,0.7
2022-10-16T19:00:00,2303A,115.8554,32.8605,阜阳市,开发区,颗粒物(PM10),90,130,123,51,80,171,110,152,152,49,50,7,10,0.6,0.7
2022-10-16T19:00:00,2306A,116.989,33.6306,宿州市,火车站,,,,,,,,,,,,,,,,
2022-10-16T19:00:00,2307A,116.5079,31.737,六安市,监测大楼,颗粒物(PM10),51,51,63,16,38,149,110,133,133,19,30,6,8,0.2,0.4
2022-10-16T19:00:00,2308A,116.4738,31.7643,六安市,皖西学院,,48,48,68,15,35,154,116,139,139,20,30,6,8,0.3,0.5
2022-10-16T19:00:00,2309A,116.4996,31.7905,六安市,朝阳厂,颗粒物(PM10),53,55,63,18,38,147,107,131,131,22,30,3,4,0.4,0.5
2022-10-16T19:00:00,2310A,116.5567,31.7886,六安市,开发区,颗粒物(PM10),54,58,88,18,46,143,91,124,124,41,48,8,10,0.3,0.4
2022-10-16T19:00:00,2311A,115.8072,33.8399,亳州市,污水处理厂,细颗粒物(PM2.5),92,106,113,68,81,172,104,141,141,37,49,6,12,0.5,0.6
2022-10-16T19:00:00,2312A,115.7789,33.8518,亳州市,三国揽胜宫,颗粒物(PM10),88,125,107,59,73,175,129,157,157,33,43,5,8,0.6,0.7
2022-10-16T19:00:00,2314A,117.47,30.6618,池州市,池州学院,,48,48,60,30,37,158,114,142,142,34,31,21,13,0.5,0.7
2022-10-16T19:00:00,2315A,117.4974,30.6539,池州市,平天湖(对照点),,,,,,,,,,,,,,,,
2022-10-16T19:00:00,2316A,118.7581,30.9454,宣城市,鳌峰子站,,37,37,48,16,31,142,108,130,130,24,33,6,7,0.4,0.5
2022-10-16T19:00:00,2317A,118.7385,30.9743,宣城市,敬亭山子站,,28,26,48,14,29,135,89,119,119,15,23,6,7,0.4,0.5
2022-10-16T19:00:00,2318A,118.7173,30.9427,宣城市,开发区子站,,33,33,52,19,32,131,69,119,116,49,48,10,6,0.6,0.6
2022-10-16T19:00:00,2319A,119.0141,25.4325,莆田市,荔城区仓后路,,22,22,23,11,14,88,58,72,59,9,8,5,5,0.8,0.7
2022-10-16T19:00:00,2320A,119.0015,25.4553,莆田市,莆田市监测站,,21,8,21,8,12,96,66,77,68,5,6,5,5,0.7,0.6
2022-10-16T19:00:00,2321A,119.1119,25.4561,莆田市,涵江区六中,,19,15,19,7,13,85,60,85,64,3,5,5,5,0.4,0.5
2022-10-16T19:00:00,2322A,119.1013,25.3215,莆田市,秀屿区政府,,20,15,29,4,16,95,61,89,67,5,6,6,6,0.7,0.7
2022-10-16T19:00:00,2323A,118.981,25.4792,莆田市,东圳水库(对照点),,,,,,,,,,,,,,,,
2022-10-16T19:00:00,2324A,117.6211,26.2625,三明市,三钢,颗粒物(PM10),56,62,38,28,25,114,61,105,90,23,15,5,6,0.6,0.4
2022-10-16T19:00:00,2325A,117.635,26.2714,三明市,三明二中,,44,44,33,24,21,112,51,108,87,31,14,4,5,1.1,0.6
2022-10-16T19:00:00,2326A,117.6028,26.2378,三明市,三元区政府,,45,45,38,29,26,111,51,106,84,24,17,4,7,0.8,0.8
2022-10-16T19:00:00,2327A,117.7275,26.3108,三明市,洋溪(对照点),,,,,,,,,,,,,,,,
2022-10-16T19:00:00,2331A,118.0966,26.6761,南平市,茫荡山(对照点),,,,,,,,,,,,,,,,
2022-10-16T19:00:00,2332A,118.1681,26.6369,南平市,南平市监测站,,33,33,37,22,22,99,86,92,92,8,14,6,7,0.4,0.6
2022-10-16T19:00:00,2333A,118.1825,26.6489,南平市,南平铝业有限公司,,36,36,38,24,25,98,87,91,91,6,12,6,6,0.5,0.5
2022-10-16T19:00:00,2334A,118.1756,26.6272,南平市,南平七中,,32,29,35,22,25,109,92,100,100,9,11,8,12,0.6,0.6
2022-10-16T19:00:00,2335A,117.0189,25.1181,龙岩市,龙岩师专(对照点),,,,,,,,,,,,,,,,
2022-10-16T19:00:00,2336A,117.0217,25.1033,龙岩市,龙岩市监测站,,23,22,25,16,19,105,72,84,82,10,11,9,10,0.4,0.4
