timepoint,stationcode,longitude,latitude,area,positionname,primarypollutant,aqi,pm10,pm10_24h,pm2_5,pm2_5_24h,o3,o3_24h,o3_8h,o3_8h_24h,no2,no2_24h,so2,so2_24h,co,co_24h
2026-01-02T1500,2568A,102.2503,31.8896,阿坝藏族羌族自治州,马师校,,25,7,18,7,15,77,,49,49,7,16,4,4,0.6,0.6
2026-01-02T1500,3994A,102.2174,31.9016,阿坝藏族羌族自治州,马尔康中学西区,,24,11,13,3,9,76,,50,50,6,14,5,5,0.5,0.5
2026-01-02T1500,2695A,80.2899,41.1684,阿克苏地区,电视台,细颗粒物(PM2.5),55,55,58,39,37,52,,27,27,16,26,4,4,0.4,1
2026-01-02T1500,2696A,80.2592,41.1541,阿克苏地区,艺术中心,细颗粒物(PM2.5),62,57,57,44,44,58,,32,27,9,20,4,4,0.5,0.7
2026-01-02T1500,2205A,105.699,38.8409,阿拉善盟,蒙二幼,,26,13,22,7,18,83,,72,72,10,17,10,10,0.5,0.6
2026-01-02T1500,2206A,105.7198,38.8508,阿拉善盟,环保局新楼,,25,8,15,6,11,78,,78,75,6,9,10,10,0.5,0.6
2026-01-02T1500,2708A,88.1266,47.8515,阿勒泰地区,市站,,23,22,14,16,8,51,,81,54,45,30,33,6,0.3,0.3
2026-01-02T1500,4166A,88.1198,47.7931,阿勒泰地区,阿勒泰路33号,,24,14,11,3,3,75,,88,66,20,23,5,5,0.4,0.3
2026-01-02T1500,2630A,80.1171,32.4999,阿里地区,阿里监测站,,30,,3,3,3,94,,70,70,1,9,6,9,0.3,0.4
2026-01-02T1500,3192A,80.0906,32.5029,阿里地区,阿里藏医院,,30,6,12,3,6,93,,82,73,1,4,8,11,0.4,0.4
2026-01-02T1500,2644A,109.0088,32.6974,安康市,汉滨区检察院,细颗粒物(PM2.5),59,43,33,42,33,64,,33,33,9,18,4,5,0.6,0.6
2026-01-02T1500,4054A,109.0324,32.6913,安康市,市邮政管理局,细颗粒物(PM2.5),60,54,42,43,35,51,,30,30,13,21,4,5,0.7,0.7
2026-01-02T1500,2291A,117.0806,30.5181,安庆市,环科院,,,54,37,42,33,74,,63,63,,2,4,4,0.3,0.3
2026-01-02T1500,2292A,117.0331,30.5118,安庆市,马山宾馆,细颗粒物(PM2.5),58,50,36,41,32,79,,68,68,12,12,4,3,0.6,0.6
2026-01-02T1500,2294A,116.9897,30.6146,安庆市,安庆大学,细颗粒物(PM2.5),53,41,32,37,29,78,,70,70,7,5,3,3,0.4,0.4
2026-01-02T1500,3173A,117.0598,30.5351,安庆市,市人大,细颗粒物(PM2.5),55,56,38,39,32,76,,65,65,7,3,5,4,0.3,0.4
2026-01-02T1500,3123A,105.9408,26.2431,安顺市,凤凰山,,40,,27,28,24,49,,55,54,13,15,13,7,0.8,0.9
2026-01-02T1500,3124A,105.9443,26.2567,安顺市,金钟山,,36,25,27,25,24,50,,56,55,11,14,18,15,0.8,1
2026-01-02T1500,3125A,105.8983,26.248,安顺市,娄家坡,,40,32,30,28,26,46,,53,52,14,15,23,18,0.8,0.9
2026-01-02T1500,1819A,114.3552,36.1017,安阳市,红庙街,细颗粒物(PM2.5),93,71,86,69,74,65,,37,37,14,32,7,5,0.8,1
2026-01-02T1500,1820A,114.361,36.0681,安阳市,银杏小区,细颗粒物(PM2.5),109,,89,82,79,70,,38,38,16,31,6,4,0.6,0.9
2026-01-02T1500,3141A,114.3921,36.0879,安阳市,信访局,细颗粒物(PM2.5),103,81,83,77,68,70,,39,39,19,34,4,3,0.7,0.9
2026-01-02T1500,3669A,114.4706,36.0634,安阳市,左辅环卫站,细颗粒物(PM2.5),107,109,93,80,73,66,,38,38,16,25,8,5,0.7,0.7
2026-01-02T1500,4117A,114.2918,36.0769,安阳市,钢三路198号,细颗粒物(PM2.5),110,105,110,83,84,67,,38,38,15,29,7,5,0.7,1
2026-01-02T1500,1748A,123.0441,41.1201,鞍山市,深沟寺,颗粒物(PM10),54,57,62,36,46,29,,22,22,45,35,58,20,4.3,1.8
2026-01-02T1500,1749A,123.011,41.0931,鞍山市,太阳城,,47,47,58,29,43,41,,31,31,31,31,23,15,1.4,1.2
2026-01-02T1500,1750A,123.0483,41.1445,鞍山市,太平,,43,43,71,22,44,45,,27,27,24,33,17,14,1.7,1.3
2026-01-02T1500,1751A,122.964,41.0968,鞍山市,铁西三道街,,42,42,87,21,55,47,,34,34,27,37,13,21,0.8,1.5
2026-01-02T1500,1753A,123.0219,41.0822,鞍山市,明达新区,,48,48,57,31,41,39,,30,30,20,22,23,15,1.5,1.1
2026-01-02T1500,4201A,122.944647,41.082639,鞍山市,兴盛南路290号,颗粒物(PM10),53,56,91,23,54,58,,36,36,24,40,9,13,0.4,1.9
2026-01-02T1500,2195A,107.4206,40.7609,巴彦淖尔市,附二中,,47,47,69,20,43,50,,24,24,12,43,6,7,0.4,0.7
2026-01-02T1500,2196A,107.37,40.7372,巴彦淖尔市,市环保大楼,,29,27,48,20,28,55,,36,36,14,24,8,6,0.5,0.5
2026-01-02T1500,1956A,86.1476,41.7529,巴音郭楞蒙古自治州,孔雀公园,颗粒物(PM10),156,262,91,29,31,62,,25,25,7,42,7,7,0.3,0.7
2026-01-02T1500,1957A,86.1971,41.7166,巴音郭楞蒙古自治州,棉纺厂,颗粒物(PM10),184,318,122,48,26,65,,31,31,8,34,/,/,/,/
2026-01-02T1500,1958A,86.236,41.7172,巴音郭楞蒙古自治州,经济开发区,颗粒物(PM10),150,249,98,25,19,57,,34,30,10,17,7,5,0.5,0.5
2026-01-02T1500,3181A,106.776805,31.852614,巴中市,市五中,细颗粒物(PM2.5),53,44,40,37,31,60,,61,61,12,14,5,5,1.0,0.8
2026-01-02T1500,3183A,106.7419,31.8654,巴中市,圣泉水务公司,,49,36,29,34,26,62,,65,64,11,14,4,4,0.6,0.5
2026-01-02T1500,3616A,106.7617,31.8343,巴中市,市中心医院,细颗粒物(PM2.5),53,40,33,37,29,62,,69,69,12,15,6,6,0.8,0.8
2026-01-02T1500,2235A,122.7909,45.608,白城市,洮北区环保局,,28,28,49,13,48,57,,45,45,12,28,6,7,0.2,0.6
2026-01-02T1500,2236A,122.8741,45.5725,白城市,市环保局,,31,31,60,13,50,53,,41,41,10,32,4,7,0.4,0.7
2026-01-02T1500,2231A,126.4219,41.9172,白山市,喜丰,,47,47,51,26,30,58,,46,46,11,19,14,15,0.4,0.6
2026-01-02T1500,2232A,126.4082,41.9416,白山市,环保局,,40,40,50,23,40,49,,40,40,14,17,24,13,0.6,0.7
2026-01-02T1500,2647A,104.1727,36.5448,白银市,第三小学,细颗粒物(PM2.5),89,78,73,66,65,57,,35,35,22,29,10,32,1.0,1.2
2026-01-02T1500,2648A,104.1467,36.5482,白银市,动力公司,细颗粒物(PM2.5),103,88,61,77,58,64,,49,49,23,24,12,21,0.9,0.8
2026-01-02T1500,2512A,106.6102,23.901,百色市,市监测站,,12,10,15,7,8,37,,42,36,11,14,7,7,0.6,0.7
2026-01-02T1500,2513A,106.6524,23.8842,百色市,市中心血站,,18,18,16,8,9,38,,41,36,13,17,7,8,0.7,0.8
2026-01-02T1500,4133A,106.6273,23.8798,百色市,龙景西路,,15,11,18,10,8,32,,40,31,4,9,6,8,0.7,0.8
2026-01-02T1500,2270A,117.396,32.9389,蚌埠市,工人疗养院,,48,48,65,22,49,67,,47,47,14,18,6,4,0.4,0.4
2026-01-02T1500,2271A,117.3606,32.9428,蚌埠市,百货大楼,,33,,55,23,44,71,,52,52,11,18,6,4,0.4,0.4
2026-01-02T1500,2273A,117.4183,32.8909,蚌埠市,蚌埠学院,,29,27,53,20,45,70,,46,46,14,22,6,4,0.3,0.4
2026-01-02T1500,2274A,117.3534,32.9672,蚌埠市,淮上区政府,,35,34,59,24,50,72,,51,51,8,19,3,2,0.4,0.5
2026-01-02T1500,2275A,117.3143,32.8977,蚌埠市,高新区,,40,34,52,28,46,62,,50,50,14,18,9,6,0.2,0.4
2026-01-02T1500,3715A,117.3091,32.9314,蚌埠市,蚌埠田家炳中学,颗粒物(PM10),54,58,66,30,52,68,,51,51,16,21,6,4,0.3,0.4
2026-01-02T1500,1585A,109.8761,40.6533,包头市,市环境监测站,细颗粒物(PM2.5),147,158,64,112,29,34,,37,37,78,44,154,26,8.0,1.5
2026-01-02T1500,1587A,109.9992,40.5843,包头市,包头八中,颗粒物(PM10),72,94,77,39,47,50,,26,26,31,51,18,18,1.1,1.1
2026-01-02T1500,1589A,109.8641,40.6288,包头市,惠龙物流,细颗粒物(PM2.5),122,143,77,92,41,41,,27,27,45,48,118,33,4.1,1.7
2026-01-02T1500,1590A,110.0376,40.5546,包头市,东河鸿龙湾,颗粒物(PM10),52,54,57,24,26,66,,33,33,25,51,28,17,1.3,1.1
2026-01-02T1500,3283A,109.9154,40.5684,包头市,滨河大厦,细颗粒物(PM2.5),67,64,45,48,27,53,,35,35,27,27,34,15,2.4,0.9
2026-01-02T1500,3419A,109.9449,40.6259,包头市,包头市委党校,细颗粒物(PM2.5),83,92,65,61,30,46,,28,28,47,48,56,19,3.2,1.2
2026-01-02T1500,3683A,109.8332,40.6577,包头市,昆区政府,细颗粒物(PM2.5),137,199,62,104,34,30,,42,34,77,41,145,41,6.7,1.8
2026-01-02T1500,1931A,107.0802,34.3129,宝鸡市,竹园沟,细颗粒物(PM2.5),105,,49,79,59,37,,29,29,23,15,7,6,0.6,0.6
2026-01-02T1500,1933A,107.1429,34.3549,宝鸡市,监测站,细颗粒物(PM2.5),130,,68,99,75,30,,32,32,30,29,9,5,0.9,0.8
2026-01-02T1500,1934A,107.1172,34.3759,宝鸡市,技工学校,细颗粒物(PM2.5),104,,64,78,68,53,,36,36,17,19,7,4,0.8,0.8
2026-01-02T1500,1936A,107.2025,34.3518,宝鸡市,文理学院,细颗粒物(PM2.5),132,,78,100,85,23,,31,31,29,33,4,4,0.9,0.9
2026-01-02T1500,1937A,107.2396,34.3626,宝鸡市,三迪小学,细颗粒物(PM2.5),127,105,81,96,90,31,,30,30,29,33,4,4,0.8,0.8
2026-01-02T1500,4155A,107.1721,34.3558,宝鸡市,滨河北路,细颗粒物(PM2.5),110,97,77,83,66,25,,38,37,34,33,8,6,0.9,0.8
2026-01-02T1500,4308A,107.3898,34.3601,宝鸡市,陈仓区北开路21号,细颗粒物(PM2.5),120,94,79,91,84,50,,31,31,23,28,5,5,0.7,0.9
2026-01-02T1500,1051A,115.4803,38.8568,保定市,游泳馆,细颗粒物(PM2.5),92,93,76,68,51,55,,31,31,26,49,17,6,1.3,0.8
2026-01-02T1500,1052A,115.509,38.8895,保定市,华电二区,细颗粒物(PM2.5),75,68,71,55,59,57,,32,32,16,41,12,5,1.4,1.1
2026-01-02T1500,1053A,115.4588,38.9037,保定市,接待中心,细颗粒物(PM2.5),89,99,80,66,55,49,,28,28,22,42,10,4,0.7,0.6
2026-01-02T1500,1054A,115.4484,38.8344,保定市,地表水厂,细颗粒物(PM2.5),94,119,100,70,58,58,,33,33,29,49,16,5,1.4,0.9
2026-01-02T1500,3581A,115.3136,38.9511,保定市,满城区生态环境分局,细颗粒物(PM2.5),92,110,117,68,54,50,,31,31,33,56,13,6,0.8,0.8
2026-01-02T1500,3582A,115.4709,38.7628,保定市,清苑区第二中学,细颗粒物(PM2.5),85,109,99,63,55,50,,28,28,34,51,20,8,1.2,0.8
2026-01-02T1500,3583A,115.6231,39.0223,保定市,徐水物探局,细颗粒物(PM2.5),85,115,105,63,66,52,,27,27,32,52,12,7,0.9,0.9
2026-01-02T1500,4004A,115.4199,38.8665,保定市,双鹰农机,颗粒物(PM10),77,104,97,49,49,58,,35,35,25,42,17,10,1.0,0.7
2026-01-02T1500,4034A,115.515,38.8589,保定市,植保所站,细颗粒物(PM2.5),82,95,84,60,59,48,,25,25,34,56,9,5,1.1,0.8
2026-01-02T1500,2594A,99.1589,25.1137,保山市,市环境监测站,,28,23,27,9,23,89,,54,54,4,8,5,7,0.2,0.4
2026-01-02T1500,2595A,99.1616,25.1381,保山市,市环保局,,34,34,30,17,21,92,,57,57,4,6,4,4,0.3,0.4
2026-01-02T1500,1867A,109.1435,21.4085,北海市,海滩公园,,35,30,39,24,25,58,,45,45,14,16,7,7,0.6,0.8
2026-01-02T1500,1868A,109.0983,21.466,北海市,新市环保局,,35,30,31,24,27,56,,45,45,12,14,4,4,0.7,0.8
2026-01-02T1500,1869A,109.1775,21.5232,北海市,北海工业园,,35,32,37,24,28,53,,41,41,12,13,6,6,0.7,0.8
2026-01-02T1500,3400A,109.1844,21.4396,北海市,龙潭自来水厂,,32,,37,22,28,58,,42,42,11,13,6,7,1.3,1.3
2026-01-02T1500,1001A,116.3611,39.8786,北京市,万寿西宫,,,,16,,8,,,57,38,,20,,1,,0.3
2026-01-02T1500,1003A,116.4174,39.9289,北京市,东四,颗粒物(PM10),57,64,19,33,8,42,,37,37,27,18,4,2,0.7,0.5
2026-01-02T1500,1004A,116.4073,39.8858,北京市,天坛,颗粒物(PM10),65,80,22,43,11,42,,32,32,31,21,5,2,0.6,0.4
2026-01-02T1500,1005A,116.4622,39.9364,北京市,农展馆,颗粒物(PM10),59,67,20,36,8,41,,39,39,27,19,6,3,0.6,0.4
2026-01-02T1500,1006A,116.3399,39.9293,北京市,官园,细颗粒物(PM2.5),65,69,22,47,10,36,,39,39,33,20,5,4,0.5,0.4
2026-01-02T1500,1007A,116.2879,39.9613,北京市,海淀万柳,颗粒物(PM10),56,61,22,32,10,34,,26,26,34,37,4,2,0.4,0.4
2026-01-02T1500,1008A,116.6635,40.1349,北京市,顺义新城,,29,29,14,15,6,44,,49,49,29,9,6,4,0.5,0.4
2026-01-02T1500,1009A,116.6275,40.327,北京市,怀柔镇,,18,18,14,10,8,53,,50,50,11,12,7,6,0.4,0.4
2026-01-02T1500,1010A,116.2295,40.217,北京市,昌平镇,,33,33,22,11,9,40,,24,24,26,33,5,4,0.5,0.5
2026-01-02T1500,1011A,116.3968,39.982,北京市,奥体中心,,48,48,16,26,8,37,,42,42,38,26,5,4,0.7,0.5
2026-01-02T1500,3418A,116.8336,40.4095,北京市,密云新城,,19,13,9,8,5,60,,58,58,9,2,3,3,0.4,0.4
2026-01-02T1500,3671A,116.0879,39.9725,北京市,门头沟三家店,颗粒物(PM10),51,52,30,15,11,42,,30,30,29,26,3,2,0.5,0.4
2026-01-02T1500,3672A,116.1507,39.8246,北京市,丰台云岗,颗粒物(PM10),61,72,28,43,12,48,,34,34,24,24,3,1,0.5,0.3
2026-01-02T1500,3674A,115.9578,39.7602,北京市,房山燕山,颗粒物(PM10),62,73,34,36,16,44,,30,30,22,21,5,3,0.5,0.4
2026-01-02T1500,3675A,116.4669,39.7734,北京市,大兴旧宫,,,,19,,7,,,56,30,,29,,2,,0.4
2026-01-02T1500,3694A,115.9859,40.4562,北京市,延庆石河营,,20,20,13,11,7,57,,37,37,11,16,4,3,0.4,0.4
2026-01-02T1500,3695A,116.6151,40.3052,北京市,怀柔新城,,19,19,14,7,8,51,,49,49,10,9,4,4,0.2,0.2
2026-01-02T1500,3696A,116.2542,39.8764,北京市,丰台小屯,颗粒物(PM10),62,74,34,37,13,36,,21,21,30,36,5,3,0.7,0.6
2026-01-02T1500,3697A,116.8399,40.3843,北京市,密云镇,,,,13,,6,,,64,57,,6,,1,,0.4
2026-01-02T1500,4057A,115.9423,40.4431,北京市,延庆百泉,,18,15,13,10,8,55,,34,34,9,10,4,2,0.4,0.3
2026-01-02T1500,4058A,116.6598,39.9164,北京市,通州新华,颗粒物(PM10),55,60,23,31,10,37,,33,33,32,26,4,3,0.5,0.3
2026-01-02T1500,4182A,116.1942,39.9158,北京市,石景山八角,颗粒物(PM10),57,63,28,28,10,38,,28,28,23,33,2,2,0.3,0.2
2026-01-02T1500,4194A,117.078628,40.151726,北京市,平谷新城,,,,14,,8,,,62,30,,10,,1,,0.2
2026-01-02T1500,1761A,123.8274146,41.31234549,本溪市,大峪,颗粒物(PM10),65,80,71,44,46,38,,24,24,31,27,25,11,2.3,1.7
2026-01-02T1500,1763A,123.7169,41.3094,本溪市,彩屯,,47,47,79,24,55,55,,35,35,13,25,8,9,0.8,1.3
2026-01-02T1500,1764A,123.7672166,41.28649327,本溪市,东明,颗粒物(PM10),54,58,74,26,52,47,,23,23,20,30,14,14,1.4,2.1
2026-01-02T1500,1765A,123.799345,41.266614,本溪市,新立屯,颗粒物(PM10),61,72,55,36,40,43,,26,26,27,22,21,13,2.3,1.8
2026-01-02T1500,1766A,123.829144,41.336777,本溪市,威宁,颗粒物(PM10),76,102,80,54,50,38,,24,24,30,35,21,9,1.9,1.5
2026-01-02T1500,2587A,105.287,27.3133,毕节市,八中,,40,,27,28,20,39,,32,,19,13,10,8,0.8,0.9
2026-01-02T1500,2588A,105.3079,27.2987,毕节市,师专,,35,27,20,24,16,46,,43,43,15,12,7,8,0.8,0.8
2026-01-02T1500,4263A,105.3688,27.3598,毕节市,工业大道,,28,24,17,19,15,29,,39,35,23,12,9,9,/,/
2026-01-02T1500,1629A,117.9961,37.3604,滨州市,第二水厂,,31,31,32,17,15,57,,42,42,15,23,11,13,0.5,0.5
2026-01-02T1500,1630A,117.9789,37.3931,滨州市,北中新校,,31,31,35,19,19,57,,38,38,18,24,8,6,0.4,0.4
2026-01-02T1500,3514A,117.9379,37.3959,滨州市,中海酒店,,28,27,32,19,24,64,,47,47,13,27,8,8,0.5,0.6
2026-01-02T1500,3515A,117.9381509,37.35547456,滨州市,开发区一中,,32,27,35,22,21,62,,43,43,11,19,10,12,0.3,0.5
2026-01-02T1500,3516A,118.0914,37.6938,滨州市,金海六路,,32,32,32,14,16,66,,45,45,14,27,9,8,0.5,0.5
2026-01-02T1500,4028A,117.9955,37.3752,滨州市,滨州市西街道办事处,,28,24,27,19,21,62,,45,45,13,20,11,12,0.5,0.5
2026-01-02T1500,2311A,115.8071,33.8399,亳州市,污水处理厂,细颗粒物(PM2.5),70,63,72,51,61,63,,39,39,28,28,8,7,0.4,0.4
2026-01-02T1500,2312A,115.7789,33.8519,亳州市,三国揽胜宫,细颗粒物(PM2.5),69,76,81,50,58,54,,33,33,24,22,8,4,0.5,0.5
2026-01-02T1500,3332A,115.7631,33.803,亳州市,亳州学院,细颗粒物(PM2.5),70,66,74,51,59,62,,39,39,25,23,8,4,0.4,0.5
2026-01-02T1500,2693A,82.0482,44.8553,博尔塔拉蒙古自治州,市党校,颗粒物(PM10),65,80,79,35,36,52,,54,53,12,17,3,4,1.0,1
2026-01-02T1500,2694A,82.0805,44.8966,博尔塔拉蒙古自治州,市环保局,颗粒物(PM10),63,75,74,39,32,49,,50,49,18,23,8,9,0.9,0.8
2026-01-02T1500,1071A,116.8733,38.2922,沧州市,沧县城建局,,49,49,50,26,31,63,,40,40,19,34,3,3,0.5,0.6
2026-01-02T1500,1072A,116.8462,38.3189,沧州市,电视转播站,,49,46,50,34,29,59,,36,36,21,32,9,11,0.4,0.5
2026-01-02T1500,1073A,116.8588,38.3161,沧州市,市环保局,颗粒物(PM10),51,52,51,33,35,45,,30,30,16,25,6,6,0.4,0.4
2026-01-02T1500,3324A,116.8011,38.294,沧州市,河北水利电力学院,,,58,46,21,26,54,,31,31,,35,7,6,0.3,0.5
2026-01-02T1500,2622A,97.1813,31.1289,昌都市,昌都监测站,,32,32,47,3,16,92,,62,62,6,16,2,2,0.4,0.6
2026-01-02T1500,3719A,97.1707,31.1428,昌都市,昌都会议中心,细颗粒物(PM2.5),52,,15,36,11,76,,57,57,3,4,1,2,0.4,0.5
2026-01-02T1500,2692A,87.2722,44.0298,昌吉回族自治州,新区政务中心,,,107,100,35,51,,,20,18,21,53,7,6,0.6,1
2026-01-02T1500,3613A,87.3069,44.0093,昌吉回族自治州,亚心广场,颗粒物(PM10),85,119,108,56,57,58,,42,42,22,41,8,7,1.0,1.1
2026-01-02T1500,4164A,87.2057,43.9289,昌吉回族自治州,财政所,颗粒物(PM10),77,103,83,46,42,78,,63,63,10,10,6,5,0.5,0.5
2026-01-02T1500,1120A,125.2874,43.9024,长春市,客车厂,细颗粒物(PM2.5),83,65,54,61,51,47,,34,34,23,28,9,11,0.6,0.6
2026-01-02T1500,1121A,125.2943,43.8508,长春市,邮电学院,细颗粒物(PM2.5),62,65,57,44,43,42,,29,29,23,25,12,13,0.6,0.6
2026-01-02T1500,1122A,125.3648,43.8745,长春市,劳动公园,颗粒物(PM10),59,67,56,41,39,39,,28,28,29,27,10,10,0.8,0.9
2026-01-02T1500,1123A,125.3233,43.8781,长春市,园林处,细颗粒物(PM2.5),68,70,56,49,42,37,,25,25,27,25,12,14,0.5,0.5
2026-01-02T1500,1124A,125.4604,43.7904,长春市,净月潭,颗粒物(PM10),59,67,51,37,35,40,,30,30,22,26,10,8,0.6,0.6
2026-01-02T1500,1126A,125.38,43.8422,长春市,经开区环卫处,颗粒物(PM10),61,72,56,38,36,44,,29,29,27,30,8,13,0.9,0.6
2026-01-02T1500,1127A,125.234,43.7761,长春市,高新区管委会,细颗粒物(PM2.5),57,59,58,40,48,48,,32,32,19,26,8,9,1.1,0.9
2026-01-02T1500,1128A,125.1695,43.83,长春市,岱山公园,细颗粒物(PM2.5),57,58,54,40,47,54,,37,37,13,25,8,9,0.5,0.6
2026-01-02T1500,4281A,125.334645,43.916281,长春市,北亚泰大街1068号,细颗粒物(PM2.5),74,71,55,54,46,43,,30,30,26,28,15,11,0.6,0.6
2026-01-02T1500,1335A,113.082,28.2421,长沙市,经开区环保局,细颗粒物(PM2.5),69,58,46,50,39,47,,42,42,18,14,3,3,0.4,0.3
2026-01-02T1500,1336A,112.8873,28.2202,长沙市,高开区环保局,细颗粒物(PM2.5),73,,42,53,42,53,,43,43,12,10,4,4,0.6,0.6
2026-01-02T1500,1337A,113.0785,28.2012,长沙市,马坡岭,细颗粒物(PM2.5),64,53,43,46,37,48,,43,43,27,20,4,3,0.8,0.7
2026-01-02T1500,1338A,112.9448,28.1894,长沙市,湖南师范大学,细颗粒物(PM2.5),63,52,44,45,36,56,,46,46,18,16,4,3,0.5,0.4
2026-01-02T1500,1339A,113.0177,28.1322,长沙市,雨花区环保局,细颗粒物(PM2.5),69,59,44,50,38,46,,40,40,16,15,6,6,0.5,0.4
2026-01-02T1500,1340A,112.9795,28.2593,长沙市,伍家岭,细颗粒物(PM2.5),64,60,46,46,33,53,,43,43,14,15,4,4,0.4,0.3
2026-01-02T1500,1341A,113.002,28.1944,长沙市,火车新站,细颗粒物(PM2.5),70,63,46,51,40,49,,40,40,15,9,7,7,0.4,0.5
2026-01-02T1500,1342A,112.9846,28.1177,长沙市,天心区环保局,细颗粒物(PM2.5),60,56,41,43,35,50,,43,43,22,18,4,4,0.5,0.4
2026-01-02T1500,1343A,112.8906,28.1307,长沙市,湖南中医药大学,细颗粒物(PM2.5),69,50,43,50,38,57,,48,48,17,15,5,5,0.5,0.5
2026-01-02T1500,1727A,113.1146,36.1547,长治市,清华站,细颗粒物(PM2.5),110,85,92,83,98,82,,45,45,20,31,14,12,0.9,1
2026-01-02T1500,1730A,113.0887,36.2126,长治市,审计局,细颗粒物(PM2.5),128,,82,97,88,62,,30,30,24,28,12,12,1.0,1
2026-01-02T1500,1731A,113.0845,36.1856,长治市,长治八中,细颗粒物(PM2.5),139,,96,106,96,74,,35,35,16,27,13,12,1.1,1.1
2026-01-02T1500,2845A,113.1561,36.1912,长治市,德盛苑,细颗粒物(PM2.5),119,,87,90,93,75,,47,47,23,20,13,9,1.0,1.1
2026-01-02T1500,3568A,113.0603,36.0464,长治市,向阳小学,细颗粒物(PM2.5),118,105,111,89,98,78,,52,52,22,26,12,12,1.2,1.2
2026-01-02T1500,3569A,112.8788,36.315,长治市,屯留一中,细颗粒物(PM2.5),123,,93,93,92,78,,43,43,22,26,10,4,0.8,0.8
2026-01-02T1500,4189A,113.113092,36.199482,长治市,英华南巷50号,细颗粒物(PM2.5),117,88,94,88,91,74,,36,36,21,26,11,9,1.2,1.3
2026-01-02T1500,4190A,113.23666,36.33435,长治市,学府街1号,细颗粒物(PM2.5),140,,88,107,94,68,,38,38,22,30,10,9,1.3,1.4
2026-01-02T1500,1854A,111.696,28.9725,常德市,市二中,细颗粒物(PM2.5),97,,55,72,55,70,,57,57,14,14,4,4,0.5,0.5
2026-01-02T1500,3138A,111.7152,29.0288,常德市,武陵区永安,细颗粒物(PM2.5),83,64,58,61,49,68,,57,57,16,18,3,3,0.6,0.6
2026-01-02T1500,3139A,111.6891,28.9881,常德市,鼎城区玉霞,细颗粒物(PM2.5),83,,50,61,53,70,,59,59,16,17,7,7,0.6,0.6
2026-01-02T1500,3140A,111.6651,29.0526,常德市,武陵区长庚,细颗粒物(PM2.5),83,65,56,61,51,71,,61,61,14,14,3,4,0.6,0.5
2026-01-02T1500,1196A,119.9524,31.7586,常州市,市监测站,,30,30,39,18,31,69,,58,58,17,22,4,4,0.3,0.4
2026-01-02T1500,1200A,119.9351,31.703,常州市,武进监测站,,25,23,45,17,31,67,,57,57,15,22,6,7,0.3,0.2
2026-01-02T1500,3002A,119.9701,31.813,常州市,行政中心,,32,32,42,13,27,70,,58,58,12,21,5,5,0.4,0.5
2026-01-02T1500,3003A,120.0434,31.7726,常州市,经开区,,28,28,43,11,25,72,,58,58,4,14,5,9,0.5,0.6
2026-01-02T1500,3010A,119.8919,31.7892,常州市,钟楼,,37,37,40,11,32,62,,48,48,14,22,7,7,0.3,0.4
2026-01-02T1500,3429A,119.8595,31.706,常州市,武进经发区,,26,26,45,18,34,68,,52,52,11,18,8,7,0.4,0.5
2026-01-02T1500,3430A,119.5812,31.7256,常州市,金坛城区,,26,25,43,18,35,63,,46,46,12,15,8,6,0.5,0.6
2026-01-02T1500,4089A,119.9551,31.863,常州市,崇义南街5-H号,,25,25,38,14,26,71,,57,57,8,20,6,6,0.4,0.5
2026-01-02T1500,2220A,120.4318,41.588,朝阳市,西梁,,46,46,101,20,75,57,,27,27,18,38,10,17,0.7,1.8
2026-01-02T1500,2221A,120.452,41.565,朝阳市,河畔小区,,39,39,51,18,37,60,,34,34,13,28,10,9,0.7,1
2026-01-02T1500,2222A,120.4176,41.5648,朝阳市,八里堡,,40,40,65,17,40,60,,33,33,15,35,13,15,0.8,1.2
2026-01-02T1500,3026A,116.6179,23.6608,潮州市,市政府,,22,12,21,7,13,69,,62,62,2,4,5,5,0.3,0.4
2026-01-02T1500,4036A,116.646,23.676,潮州市,金山,,21,17,22,8,16,65,,58,58,3,6,2,2,0.3,0.3
2026-01-02T1500,2473A,113.0116,25.8228,郴州市,市职中,细颗粒物(PM2.5),52,38,26,36,24,13,,12,12,10,9,2,2,0.4,0.4
2026-01-02T1500,2475A,113.0381,25.8074,郴州市,市审计局,,49,42,29,34,23,15,,15,14,13,13,2,1,/,/
2026-01-02T1500,2476A,113.0348,25.7757,郴州市,市环保局,,46,33,27,32,22,13,,14,13,15,14,1,1,0.5,0.5
2026-01-02T1500,4252A,113.0138,25.8011,郴州市,好美居路49号,细颗粒物(PM2.5),59,48,27,42,28,19,,20,19,8,6,3,3,/,/
2026-01-02T1500,1431A,103.9727,30.7242,成都市,金泉两河,,45,45,54,24,33,54,,58,56,24,25,2,2,0.6,0.6
2026-01-02T1500,1432A,104.1423,30.6765,成都市,十里店,,35,31,40,24,28,64,,62,58,18,19,3,3,0.5,0.5
2026-01-02T1500,1433A,104.0594,30.5765,成都市,三瓦窑,,26,26,40,14,32,56,,59,59,23,22,3,3,0.6,0.6
2026-01-02T1500,1434A,104.1122,30.6306,成都市,沙河铺,,39,39,48,19,37,55,,58,51,23,23,4,3,0.5,0.5
2026-01-02T1500,2880A,104.0219,30.6561,成都市,大石西路,颗粒物(PM10),51,52,50,32,33,49,,59,51,21,18,4,4,0.5,0.5
2026-01-02T1500,3136A,104.2724,30.559,成都市,龙泉驿区区政府,,32,22,26,22,24,32,,36,34,17,15,6,6,0.5,0.5
2026-01-02T1500,3357A,104.0028,30.6891,成都市,金博路,,29,20,35,20,27,52,,64,53,24,24,4,4,0.7,0.7
2026-01-02T1500,3359A,104.056,30.5228,成都市,华阳,,42,34,37,29,31,51,,56,54,25,22,3,3,0.5,0.5
2026-01-02T1500,3488A,104.387954,30.746684,成都市,青石路225号,,32,,42,22,34,57,,60,58,13,19,4,5,0.6,0.5
2026-01-02T1500,3489A,104.0788,30.4054,成都市,科学城,,39,34,38,27,30,52,,55,54,17,15,5,6,0.7,0.7
2026-01-02T1500,4011A,103.8505,30.6946,成都市,光华大道三段,细颗粒物(PM2.5),54,43,55,38,41,60,,57,57,20,25,3,3,0.6,0.7
2026-01-02T1500,4144A,104.3257,30.6406,成都市,八角井街185号,颗粒物(PM10),52,54,49,30,31,49,,52,51,17,17,2,2,0.9,0.9
2026-01-02T1500,4224A,104.2433276,30.53529463,成都市,鲸龙路1057号,,40,30,35,28,31,43,,54,49,26,21,5,6,0.7,0.7
2026-01-02T1500,1062A,117.9531,40.908,承德市,铁路,,32,32,35,15,16,47,,34,34,17,17,34,5,0.9,0.5
2026-01-02T1500,1063A,117.9397,40.9763,承德市,中国银行,,32,32,38,20,16,51,,36,36,12,19,8,2,0.5,0.5
2026-01-02T1500,4073A,117.9462,40.95,承德市,杏林街1号,,31,31,34,15,21,46,,36,36,15,23,11,4,0.5,0.5
2026-01-02T1500,4274A,117.7994,40.9605,承德市,滨河大街98号,,29,22,25,20,10,52,,39,39,18,15,70,8,0.6,0.4
2026-01-02T1500,2314A,117.4698,30.6617,池州市,池州学院,细颗粒物(PM2.5),77,67,47,56,40,75,,63,63,11,12,3,3,0.3,0.3
2026-01-02T1500,3237A,117.4918,30.6617,池州市,展览馆,细颗粒物(PM2.5),64,65,44,46,34,76,,64,64,17,16,2,2,0.6,0.6
2026-01-02T1500,3333A,117.5626,30.695,池州市,第八中学,细颗粒物(PM2.5),78,73,47,57,38,72,,61,61,18,18,4,3,0.6,0.5
2026-01-02T1500,3334A,117.5037,30.6242,池州市,第十二中学,细颗粒物(PM2.5),79,72,47,58,37,78,,61,61,22,20,3,3,0.6,0.6
2026-01-02T1500,1744A,118.9229,42.2816,赤峰市,松山一中,颗粒物(PM10),52,54,51,27,28,42,,22,22,35,35,6,11,0.9,1.1
2026-01-02T1500,1745A,118.9588,42.2733,赤峰市,哈达街,颗粒物(PM10),53,55,34,34,24,44,,40,40,36,23,33,10,1.1,0.8
2026-01-02T1500,1746A,118.8792,42.2551,赤峰市,天义路,,33,30,30,23,29,59,,44,44,20,24,6,12,0.7,0.9
2026-01-02T1500,3058A,119.2656,42.0356,赤峰市,银河街,细颗粒物(PM2.5),80,79,60,59,37,55,,34,34,20,21,19,18,1.5,1.4
2026-01-02T1500,3286A,118.9359,42.3146,赤峰市,桥北物流园区,细颗粒物(PM2.5),55,,28,39,25,46,,30,30,29,22,20,10,0.9,0.6
2026-01-02T1500,2521A,107.3473,22.4137,崇左市,市环保局江州分局,,16,16,19,11,14,35,,33,33,12,12,6,6,0.6,0.7
2026-01-02T1500,4256A,107.375,22.3736,崇左市,石景林东路7号,,18,18,16,7,9,40,,36,36,12,14,7,7,0.6,0.7
2026-01-02T1500,3207A,118.31131,32.3033,滁州市,市政府原办公楼,,45,40,52,31,42,74,,52,52,12,15,6,4,0.4,0.3
2026-01-02T1500,3331A,118.3268,32.2633,滁州市,图书馆,,30,30,46,21,38,71,,52,52,10,10,10,8,0.4,0.4
2026-01-02T1500,4101A,118.3196,32.3335,滁州市,银山路666号,细颗粒物(PM2.5),63,,44,45,61,70,,47,47,7,9,10,8,0.7,0.5
2026-01-02T1500,4102A,118.3426,32.2979,滁州市,黄山路555号,,50,46,57,35,49,77,,56,56,11,12,11,9,0.6,0.5
2026-01-02T1500,2606A,101.5379,25.0492,楚雄彝族自治州,市经济开发区,,,11,32,8,25,74,,38,38,,10,4,5,0.3,0.5
2026-01-02T1500,4153A,101.5536,25.0343,楚雄彝族自治州,团结路562号,,23,10,23,3,20,72,,38,38,2,10,2,2,0.3,0.5
2026-01-02T1500,2549A,107.5087,31.2186,达州市,市环境监测站,,32,31,29,22,20,31,,40,27,22,25,5,10,0.4,0.4
2026-01-02T1500,2550A,107.4988,31.2132,达州市,凤凰小区,,32,22,28,22,20,40,,49,37,16,21,4,9,0.4,0.4
2026-01-02T1500,2551A,107.5081,31.1987,达州市,达县机关宾馆,,33,,31,23,28,38,,38,23,17,31,2,7,0.6,0.7
2026-01-02T1500,2552A,107.4644,31.2124,达州市,市政中心,,39,39,39,27,20,32,,48,34,21,21,6,10,0.3,0.4
2026-01-02T1500,2614A,100.2168,25.5818,大理白族自治州,大理市环境监测站,,23,15,22,13,21,73,,65,65,7,9,6,6,0.4,0.5
2026-01-02T1500,2615A,100.1542,25.7055,大理白族自治州,大理古城,,29,29,27,6,18,87,,68,68,3,13,8,8,0.5,0.5
2026-01-02T1500,1109A,121.6119,38.974,大连市,甘井子,,32,32,30,18,16,61,,53,53,12,13,10,9,0.2,0.2
2026-01-02T1500,1110A,121.565,38.9509,大连市,周水子,,30,30,28,20,15,58,,51,51,10,12,13,3,0.5,0.4
2026-01-02T1500,1111A,121.5637,38.8849,大连市,星海三站,,32,26,23,22,16,62,,54,54,13,13,11,8,0.5,0.6
2026-01-02T1500,1112A,121.6301,38.9117,大连市,青泥洼桥,,29,29,28,20,14,52,,45,45,16,13,10,8,0.4,0.4
2026-01-02T1500,1113A,121.6248,38.8643,大连市,傅家庄,,23,23,22,16,13,53,,46,46,12,13,8,7,0.3,0.3
2026-01-02T1500,1114A,121.5117,38.8636,大连市,七贤岭,,24,24,24,14,12,65,,55,55,4,5,7,6,0.6,0.6
2026-01-02T1500,1116A,121.7507,39.1339,大连市,金州,,25,23,29,17,19,65,,57,57,11,12,9,7,0.3,0.4
2026-01-02T1500,1117A,121.7811,39.0495,大连市,开发区,,24,24,25,14,18,56,,52,52,10,9,7,6,0.5,0.5
2026-01-02T1500,1118A,121.9762,39.0631,大连市,双D港,,23,22,28,13,18,71,,61,61,8,10,12,11,0.4,0.5
2026-01-02T1500,4082A,121.2548,38.8188,大连市,旅顺,,24,24,23,13,12,67,,61,61,4,4,5,5,0.6,0.5
2026-01-02T1500,1789A,124.8085,46.0381,大庆市,大同区,,27,27,41,16,27,64,,46,46,9,20,6,5,0.2,0.3
2026-01-02T1500,1790A,125.1166,46.5255,大庆市,龙凤区,,35,35,37,19,25,53,,40,40,26,31,10,11,0.4,0.5
2026-01-02T1500,1791A,124.8894,46.4007,大庆市,红岗区,,24,24,28,6,16,54,,45,45,15,18,7,6,0.4,0.6
2026-01-02T1500,1792A,125.1391,46.578,大庆市,萨尔图区,,38,38,35,16,19,41,,41,38,15,15,7,6,0.5,0.5
2026-01-02T1500,1793A,124.9026,46.6217,大庆市,让胡路区,,36,,31,25,29,64,,52,50,10,12,11,10,0.4,0.5
2026-01-02T1500,3481A,125.127,46.6277,大庆市,萨区政府监测点,,43,43,32,14,15,48,,42,42,27,21,15,10,0.6,0.7
2026-01-02T1500,1723A,113.2926,40.0759,大同市,云冈宾馆,细颗粒物(PM2.5),105,134,83,79,47,41,,26,26,49,47,31,19,1.3,1.6
2026-01-02T1500,1724A,113.3437,40.0921,大同市,大同大学,细颗粒物(PM2.5),90,101,60,67,37,46,,41,41,46,34,30,18,1.0,0.9
2026-01-02T1500,1725A,113.2637,40.129,大同市,安家小村,细颗粒物(PM2.5),92,116,86,68,41,43,,30,30,48,41,46,23,1.2,2.6
2026-01-02T1500,3282A,113.3399,40.0586,大同市,大同市卫生学校,细颗粒物(PM2.5),92,123,71,68,41,50,,34,34,47,38,26,19,0.8,0.9
2026-01-02T1500,3565A,113.1371,40.1122,大同市,云冈站,细颗粒物(PM2.5),79,106,67,58,35,43,,30,30,41,37,33,17,1.1,0.9
2026-01-02T1500,3566A,113.1186,40.2556,大同市,图书馆,颗粒物(PM10),53,56,53,29,35,56,,34,34,19,20,14,15,0.7,0.9
2026-01-02T1500,3567A,113.5931,40.0459,大同市,区一中,颗粒物(PM10),59,67,80,30,47,66,,45,45,24,31,49,27,0.8,1.1
2026-01-02T1500,4199A,113.2798248,40.09972476,大同市,魏都大道141号,颗粒物(PM10),95,139,105,59,50,34,,26,26,50,45,36,18,1.1,1.9
2026-01-02T1500,2269A,124.1068,50.4091,大兴安岭地区,科技局,,19,14,15,12,14,60,,64,62,1,2,4,4,0.3,0.3
2026-01-02T1500,3663A,124.117,50.4279,大兴安岭地区,红旗社区,,21,12,6,3,4,65,,71,68,4,2,5,5,0.2,0.2
2026-01-02T1500,1600A,124.33,40.0625,丹东市,江湾东路,,35,32,27,24,19,54,,50,50,11,10,9,8,0.5,0.4
2026-01-02T1500,1601A,124.4242,40.1513,丹东市,临江后街,,19,17,22,11,12,60,,53,53,5,6,3,4,0.6,0.6
2026-01-02T1500,1602A,124.3935,40.1461,丹东市,元宝山,,19,16,20,10,13,60,,55,55,6,8,7,7,0.5,0.5
2026-01-02T1500,1603A,124.3634,40.1093,丹东市,民主桥,,25,25,26,13,14,57,,50,50,10,9,7,7,0.4,0.4
2026-01-02T1500,3541A,109.5726195,19.51688767,儋州市,第一中学子站,,39,38,46,27,28,68,,78,55,6,4,4,4,0.7,0.5
2026-01-02T1500,3542A,109.5567,19.5187,儋州市,东坡学校子站,,42,42,41,25,26,74,,84,60,6,5,4,5,0.6,0.5
2026-01-02T1500,2616A,98.5611,24.4273,德宏傣族景颇族自治州,德宏州监测站,,48,34,55,33,43,88,,38,38,12,23,9,6,0.6,0.8
2026-01-02T1500,3677A,98.5887,24.4366,德宏傣族景颇族自治州,芒市人民政府综合楼,,43,42,49,30,32,82,,36,36,10,14,11,9,0.6,0.7
2026-01-02T1500,1901A,104.424,31.1209,德阳市,东山公园,,45,32,48,31,43,60,,64,62,10,17,2,2,0.7,0.8
2026-01-02T1500,1902A,104.3827,31.1318,德阳市,西小区,,48,46,63,33,49,61,,65,64,14,21,1,2,0.8,0.9
2026-01-02T1500,1904A,104.3553,31.1091,德阳市,耐火材料厂,细颗粒物(PM2.5),53,39,59,37,52,57,,60,59,19,24,3,1,0.7,0.8
2026-01-02T1500,4145A,104.4144,31.1495,德阳市,市林业局,细颗粒物(PM2.5),52,47,55,36,50,58,,61,61,10,22,2,2,0.6,0.7
2026-01-02T1500,1622A,116.3034,37.4675,德州市,儿童乐园,颗粒物(PM10),56,61,60,29,34,61,,42,42,25,33,15,15,0.9,1.1
2026-01-02T1500,1624A,116.2992,37.4449,德州市,监理站,,44,44,52,27,30,70,,48,48,26,35,16,17,0.7,0.8
2026-01-02T1500,3066A,116.2722,37.438,德州市,九衢泉纯净水厂,颗粒物(PM10),51,51,57,29,37,59,,34,34,24,35,18,17,0.5,0.6
2026-01-02T1500,3371A,116.3693,37.44,德州市,开发区人民医院,颗粒物(PM10),53,56,59,27,34,66,,44,44,28,41,15,17,0.7,0.8
2026-01-02T1500,3511A,116.5687,37.3331,德州市,陵城艺术中心,,46,46,66,27,39,62,,41,41,29,41,11,19,0.5,0.7
2026-01-02T1500,4292A,116.352738,37.420875,德州市,新河东路,颗粒物(PM10),51,51,56,29,38,63,,39,39,32,42,15,15,1.2,1
2026-01-02T1500,2621A,99.7054,27.8319,迪庆藏族自治州,迪庆州站,,30,18,32,9,20,94,,69,69,4,13,5,5,0.3,0.5
2026-01-02T1500,3180A,99.7122,27.8129,迪庆藏族自治州,质量技术监督局,,31,22,27,6,17,99,,70,70,4,14,6,6,0.3,0.5
2026-01-02T1500,4257A,104.6092,35.5962,定西市,将台街,,46,32,53,32,44,74,,73,72,12,13,8,8,0.6,0.5
2026-01-02T1500,4309A,104.6159,35.5701,定西市,正龙路62号,,41,41,56,24,44,71,,68,68,7,7,4,4,0.6,0.6
2026-01-02T1500,1390A,113.7943,23.0132,东莞市,东城石井,,30,13,23,7,15,95,,79,79,11,14,8,8,0.6,0.7
2026-01-02T1500,1391A,113.7384,22.9659,东莞市,南城西平,,29,11,24,3,14,91,,79,79,14,18,8,8,0.5,0.6
2026-01-02T1500,3319A,113.7283,23.041,东莞市,万江金泰,,28,10,24,3,16,87,,79,79,9,10,5,5,0.5,0.7
2026-01-02T1500,4129A,113.8666,23.1062,东莞市,裕兴路,,35,17,27,6,15,110,,93,93,8,10,4,4,0.5,0.6
2026-01-02T1500,4130A,114.0076,22.9739,东莞市,教育路1号,,29,15,34,7,18,92,,82,82,15,15,5,5,0.7,0.8
2026-01-02T1500,4131A,113.7981,22.8124,东莞市,长怡路1号,,29,19,31,7,17,90,,77,77,14,13,8,7,0.6,0.7
2026-01-02T1500,1666A,118.6612,37.4313,东营市,市环保局,,31,31,24,9,11,59,,49,49,22,25,8,9,0.6,0.6
2026-01-02T1500,3036A,118.6903,37.4337,东营市,开发区管委会,,37,37,27,12,11,64,,51,51,18,18,10,10,0.7,0.7
2026-01-02T1500,3365A,118.5721,37.5654,东营市,垦利区民丰路,,34,34,26,17,11,62,,51,51,20,24,6,5,0.7,0.8
2026-01-02T1500,3498A,118.5063,37.8606,东营市,河口城区,,39,39,27,15,12,65,,47,47,20,23,5,4,0.4,0.5
2026-01-02T1500,3646A,118.4979,37.4623,东营市,胜利站,,35,35,31,22,14,56,,39,39,26,29,11,11,0.5,0.6
2026-01-02T1500,3734A,118.5753,37.4405,东营市,理想之城,,39,39,26,24,16,60,,49,49,19,22,5,6,0.6,0.6
2026-01-02T1500,1591A,110.0024,39.8127,鄂尔多斯市,综合楼,,25,24,30,17,19,78,,60,58,16,25,8,10,0.6,0.6
2026-01-02T1500,1592A,109.9485,39.8259,鄂尔多斯市,巴音孟克林场办事处,,25,12,21,3,12,77,,64,64,10,21,7,9,0.4,0.4
2026-01-02T1500,1593A,109.7734,39.5987,鄂尔多斯市,康泽苑,,25,19,19,9,12,80,,55,55,10,16,4,4,0.3,0.4
2026-01-02T1500,1594A,109.8121,39.5987,鄂尔多斯市,华泰汽车城,,24,17,24,7,11,76,,45,45,10,23,3,2,0.3,0.4
2026-01-02T1500,1595A,109.9734,39.7884,鄂尔多斯市,奥林花园,,19,19,35,3,13,60,,43,43,31,34,26,8,0.4,0.6
2026-01-02T1500,2436A,114.894,30.3989,鄂州市,市政府,,29,21,33,20,21,64,,46,46,13,17,4,4,0.5,0.5
2026-01-02T1500,2437A,114.8986,30.3714,鄂州市,赵家坝,,34,34,30,22,24,60,,46,46,11,9,6,6,0.1,0.2
2026-01-02T1500,3654A,114.8093,30.4091,鄂州市,精准医疗中心,,38,38,36,23,29,76,,54,54,3,3,4,4,0.7,1
2026-01-02T1500,2454A,109.4978,30.2979,恩施土家族苗族自治州,湖北民院,细颗粒物(PM2.5),53,,30,37,31,66,,70,68,12,11,6,6,0.5,0.6
2026-01-02T1500,3549A,109.5061,30.3771,恩施土家族苗族自治州,龙凤新区,,46,34,29,32,27,60,,65,64,8,6,6,6,0.4,0.4
2026-01-02T1500,2499A,108.3411,21.6159,防城港市,沙万,,32,32,44,14,15,49,,40,39,11,12,5,5,0.5,0.7
2026-01-02T1500,2500A,108.3515,21.7733,防城港市,防城档案局,,31,31,32,3,11,41,,32,31,12,11,5,5,0.6,0.7
2026-01-02T1500,2501A,108.3506,21.6414,防城港市,大海花园,,27,27,25,17,23,50,,42,40,4,6,5,5,0.6,0.8
2026-01-02T1500,1371A,113.1293,23.0065,佛山市,湾梁,,28,27,32,3,18,89,,78,78,18,18,/,/,/,/
2026-01-02T1500,1372A,113.1082,23.0477,佛山市,华材职中,,,29,37,11,24,90,,78,78,12,16,,7,0.5,0.6
2026-01-02T1500,1373A,113.1439,23.045,佛山市,南海气象局,,30,30,32,14,25,87,,77,77,19,19,/,/,/,/
2026-01-02T1500,1374A,113.2879,22.8094,佛山市,顺德苏岗,,30,8,32,3,22,93,,73,73,16,20,/,/,0.6,0.7
2026-01-02T1500,1376A,112.8384,22.8678,佛山市,高明孔堂,,29,28,34,18,22,92,,69,69,16,17,/,/,/,/
2026-01-02T1500,1377A,112.8835,23.1584,佛山市,三水监测站,,34,34,28,11,15,77,,60,60,15,15,4,5,0.5,0.6
2026-01-02T1500,1378A,112.8668,23.185,佛山市,三水云东海,,45,45,31,12,14,80,,62,62,12,16,/,/,/,/
2026-01-02T1500,3625A,113.2568,22.7629,佛山市,容桂街道办,,25,22,43,9,29,79,,65,65,17,18,/,/,/,/
2026-01-02T1500,1282A,119.2681,26.0506,福州市,师大,,24,24,22,8,14,76,,60,60,16,18,7,7,0.4,0.4
2026-01-02T1500,1283A,119.2983,26.1028,福州市,五四北路,,23,19,22,3,13,73,,56,56,12,15,4,4,0.4,0.5
2026-01-02T1500,1284A,119.2648,26.0769,福州市,杨桥西路,,32,32,22,6,12,72,,59,59,11,13,4,4,/,/
2026-01-02T1500,3048A,119.5799,26.0937,福州市,九龙,,27,19,17,14,8,86,,66,66,12,14,4,5,0.4,0.4
2026-01-02T1500,3526A,119.5188,25.9666,福州市,吴航,,27,20,18,14,11,85,,64,64,10,12,5,5,0.5,0.5
2026-01-02T1500,4104A,119.3106,26.0648,福州市,路通桥巷6号,,23,21,24,12,17,73,,55,55,9,11,/,/,/,/
2026-01-02T1500,1755A,123.7974,41.8494,抚顺市,望花区,细颗粒物(PM2.5),69,70,85,50,61,50,,34,34,23,32,15,7,0.9,1.1
2026-01-02T1500,1756A,123.9161,41.8827,抚顺市,顺城区,颗粒物(PM10),65,79,74,36,54,49,,32,32,26,36,16,10,1.0,1.1
2026-01-02T1500,1757A,124.0437,41.8615,抚顺市,东洲区,细颗粒物(PM2.5),82,102,61,60,49,41,,28,28,32,27,10,7,1.6,1
2026-01-02T1500,1758A,123.9246,41.8638,抚顺市,新抚区,颗粒物(PM10),67,84,71,45,51,48,,32,32,26,31,13,8,1.5,1
2026-01-02T1500,1759A,124.0972,41.8961,抚顺市,大伙房水库,细颗粒物(PM2.5),85,86,53,63,41,50,,37,37,23,22,14,11,1.5,0.9
2026-01-02T1500,1760A,123.708,41.8386,抚顺市,沈抚新城,,,93,80,,78,48,,32,32,28,35,18,9,,1.6
2026-01-02T1500,2377A,116.3544,27.9833,抚州市,市站,,24,24,29,16,18,56,,48,48,9,10,7,6,0.4,0.4
2026-01-02T1500,2378A,116.3562,27.9631,抚州市,血防站,,33,33,33,16,18,64,,51,51,10,12,5,3,0.3,0.4
2026-01-02T1500,2379A,116.3561,28.0007,抚州市,采茶剧团,,25,25,28,11,20,66,,51,51,3,5,4,3,0.4,0.5
2026-01-02T1500,2380A,116.3854,27.9648,抚州市,医学分院,,30,30,33,14,17,70,,57,57,5,9,4,5,0.3,0.3
2026-01-02T1500,2207A,121.6095,41.9978,阜新市,工业园区,,47,47,78,23,42,62,,39,39,10,27,12,15,0.6,0.8
2026-01-02T1500,2208A,121.6567,42.0188,阜新市,长青街,,37,37,43,18,29,59,,47,47,15,19,11,9,0.4,0.7
2026-01-02T1500,2209A,121.6672,42.07,阜新市,农业园区,颗粒物(PM10),51,52,28,19,9,55,,51,51,13,9,8,6,0.4,0.3
2026-01-02T1500,2211A,121.6343,42.0455,阜新市,玉龙新城,颗粒物(PM10),51,51,69,14,34,56,,39,39,15,32,7,8,0.4,0.7
2026-01-02T1500,2301A,115.8276,32.8929,阜阳市,市监测站,细颗粒物(PM2.5),90,80,80,67,64,79,,44,44,19,22,6,4,0.6,0.6
2026-01-02T1500,2303A,115.8551,32.8606,阜阳市,开发区,细颗粒物(PM2.5),92,,65,68,58,77,,44,44,15,17,6,4,0.5,0.4
2026-01-02T1500,2875A,115.783962,32.889217,阜阳市,阜阳职业技术学院,细颗粒物(PM2.5),77,61,70,56,57,86,,49,49,13,17,7,5,0.6,0.6
2026-01-02T1500,3468A,115.79,32.8614,阜阳市,市规划展馆,细颗粒物(PM2.5),88,97,78,65,62,86,,50,50,16,18,8,5,0.4,0.6
2026-01-02T1500,3469A,115.835101,32.918568,阜阳市,枣园社区,细颗粒物(PM2.5),114,95,79,86,70,72,,44,44,20,21,7,4,0.4,0.4
2026-01-02T1500,2669A,102.9097,34.9841,甘南藏族自治州,州政府,,,25,60,22,48,72,,50,50,6,14,,3,0.4,0.7
2026-01-02T1500,3380A,102.8915,34.9618,甘南藏族自治州,甘肃民族师范学院,,38,38,69,26,46,75,,60,60,14,18,11,4,0.5,0.6
2026-01-02T1500,2570A,101.96,30.048,甘孜藏族自治州,水桥子,,21,11,5,8,5,66,,53,53,6,11,6,6,0.4,0.9
2026-01-02T1500,3065A,101.9534,29.9976,甘孜藏族自治州,州环保局,,21,18,13,3,6,65,,55,52,8,11,6,6,0.7,0.8
2026-01-02T1500,2363A,114.9368,25.8663,赣州市,地委,,33,33,34,10,14,76,,68,68,10,10,6,6,0.5,0.5
2026-01-02T1500,2364A,114.946,25.8483,赣州市,气象台,,32,32,35,11,11,81,,75,75,11,11,3,2,0.6,0.6
2026-01-02T1500,2365A,114.932,25.8332,赣州市,市图书馆,,23,16,19,15,14,71,,66,66,14,14,3,3,0.5,0.5
2026-01-02T1500,2366A,114.8905,25.8472,赣州市,华坚鞋城,,23,19,21,8,13,71,,61,61,10,11,3,4,0.3,0.3
2026-01-02T1500,3109A,115.0094,25.8614,赣州市,赣县区卫计委,,26,18,15,18,15,82,,78,78,6,6,7,7,0.3,0.4
2026-01-02T1500,2684A,106.2753,36.0057,固原市,监测站,细颗粒物(PM2.5),60,,46,43,52,79,,67,67,14,22,4,4,0.6,0.8
2026-01-02T1500,2685A,106.2384,36.0189,固原市,新区,,,,42,46,51,78,,63,63,,28,3,2,0.6,0.8
2026-01-02T1500,2544A,106.6307,30.4577,广安市,市委,,42,29,31,29,26,30,,34,31,16,17,5,5,0.9,0.9
2026-01-02T1500,2545A,106.6266,30.4662,广安市,友谊中学,,32,25,30,22,27,37,,42,40,6,6,7,7,0.6,0.6
2026-01-02T1500,2547A,106.6386,30.4551,广安市,广电花园,,39,,24,27,26,19,,35,28,19,16,8,8,0.6,0.7
2026-01-02T1500,2902A,106.6347,30.4868,广安市,北辰小学,,36,25,27,25,26,37,,41,39,10,9,10,9,0.9,0.9
2026-01-02T1500,2524A,105.8211,32.4444,广元市,老城,,43,38,35,30,28,67,,72,65,16,16,3,5,0.7,0.6
2026-01-02T1500,2526A,105.8629,32.429,广元市,监测站,,48,38,37,33,27,55,,67,53,22,16,3,4,0.8,0.7
2026-01-02T1500,3617A,105.8047,32.4167,广元市,经开区,细颗粒物(PM2.5),65,,33,47,35,53,,61,50,19,19,2,1,0.8,0.7
2026-01-02T1500,1345A,113.2346,23.1423,广州市,广雅中学,,27,18,36,9,24,84,,74,74,8,10,5,5,0.5,0.7
2026-01-02T1500,1346A,113.2611,23.105,广州市,市五中,,31,15,29,9,23,98,,88,88,16,18,9,8,/,/
2026-01-02T1500,1348A,113.3477,23.0916,广州市,广东商学院,,27,13,30,3,19,86,,76,76,11,13,5,6,0.3,0.5
2026-01-02T1500,1349A,113.4332,23.105,广州市,市八十六中,,29,15,27,7,23,92,,82,82,13,13,6,7,/,/
2026-01-02T1500,1350A,113.3506,22.9488,广州市,番禺中学,,31,16,35,8,23,97,,80,80,19,24,3,5,0.3,0.5
2026-01-02T1500,1351A,113.2147,23.3918,广州市,花都师范,,24,20,29,10,18,76,,74,74,17,16,6,6,0.5,0.5
2026-01-02T1500,1352A,113.2599,23.1329,广州市,市监测站,,28,18,35,9,23,88,,78,78,15,16,4,3,/,/
2026-01-02T1500,1353A,113.5618,23.3119,广州市,九龙镇镇龙,,26,9,24,6,19,82,,74,74,9,12,5,5,0.6,0.7
2026-01-02T1500,1354A,113.2764,23.1544,广州市,麓湖,,28,14,33,8,22,89,,78,78,9,13,10,8,0.3,0.4
2026-01-02T1500,2846A,113.3209,23.1323,广州市,体育西,,28,15,32,9,24,87,,79,79,12,15,6,6,0.5,0.5
2026-01-02T1500,3298A,113.5718,23.5493,广州市,从化街口,,26,9,22,6,16,82,,77,77,8,10,7,8,0.5,0.6
2026-01-02T1500,3299A,113.3463,23.369,广州市,白云竹料,,29,10,25,6,19,90,,82,82,10,11,7,6,0.4,0.5
2026-01-02T1500,3300A,113.2981,23.2365,广州市,白云嘉禾,,29,16,31,7,20,92,,82,82,15,17,7,6,/,/
2026-01-02T1500,3301A,113.4256,23.1716,广州市,黄埔科学城,,30,12,26,6,19,95,,84,84,8,11,5,6,0.6,0.6
2026-01-02T1500,3302A,113.3942,23.0485,广州市,番禺大学城,,31,21,40,6,20,98,,84,84,8,10,6,8,0.4,0.5
2026-01-02T1500,3303A,113.4923,22.8169,广州市,南沙黄阁,,31,31,41,9,21,96,,82,82,23,25,7,8,/,/
2026-01-02T1500,3304A,113.534,22.7893,广州市,南沙街,,29,27,41,8,20,92,,78,78,20,20,7,8,0.5,0.6
2026-01-02T1500,3443A,113.2905,23.5541,广州市,花都梯面,,25,13,24,8,17,79,,74,74,8,11,6,6,/,/
2026-01-02T1500,3445A,113.786,23.7479,广州市,从化良口,,,9,17,7,14,85,,78,78,5,8,,8,/,/
2026-01-02T1500,3446A,113.805,23.2614,广州市,增城荔城,,28,8,22,3,16,87,,79,79,8,10,5,5,0.4,0.5
2026-01-02T1500,2506A,109.604387,23.066791,贵港市,江南子站,,25,22,19,17,14,67,,49,49,10,13,3,3,0.6,0.7
2026-01-02T1500,2508A,109.5669,23.1065,贵港市,荷城子站,,27,27,19,14,12,58,,46,46,11,12,3,3,0.6,0.7
2026-01-02T1500,3405A,109.5886,23.1172,贵港市,新世纪学校,,29,29,23,18,15,61,,47,47,13,15,/,/,0.5,0.6
2026-01-02T1500,4260A,109.5933,23.095,贵港市,中山路155-3号,,30,30,19,20,21,66,,51,51,12,14,/,/,0.6,0.7
2026-01-02T1500,1439A,106.6863,26.6035,贵阳市,马鞍山,,36,36,15,24,14,52,,66,58,10,9,5,4,/,/
2026-01-02T1500,1441A,106.6241,26.6266,贵阳市,鉴湖路,,39,36,24,27,11,47,,72,60,22,14,2,2,0.5,0.5
2026-01-02T1500,1442A,106.7468,26.6344,贵阳市,燕子冲,,35,,17,24,18,60,,70,63,9,8,7,7,0.7,0.7
2026-01-02T1500,1443A,106.6556,26.4362,贵阳市,碧云窝,,34,34,31,19,20,42,,59,46,16,14,4,4,/,/
2026-01-02T1500,1445A,106.6963,26.6063,贵阳市,红边门,,39,31,18,27,14,47,,62,50,12,10,7,5,/,/
2026-01-02T1500,1446A,106.7162383,26.56964667,贵阳市,新华路,,36,36,24,24,12,55,,65,56,11,11,5,3,0.4,0.5
2026-01-02T1500,1447A,106.6742,26.542,贵阳市,太慈桥,,31,31,18,17,11,48,,60,52,17,13,5,5,/,/
2026-01-02T1500,4230A,106.688212,26.56952,贵阳市,花果园大街66号,,35,27,9,24,16,43,,56,48,15,11,3,2,/,/
2026-01-02T1500,4231A,106.687268,26.516892,贵阳市,漓江路57号,,,36,19,31,14,43,,60,48,16,13,,5,0.7,0.7
2026-01-02T1500,1864A,110.3091,25.2705,桂林市,龙隐路小学,,20,18,19,13,22,64,,56,56,6,9,6,6,0.2,0.4
2026-01-02T1500,1865A,110.2849361,25.22909545,桂林市,八中,,29,29,18,14,21,56,,49,49,12,12,6,6,0.5,0.6
2026-01-02T1500,3531A,110.296,25.1254,桂林市,旅游学院,,20,17,12,12,12,63,,61,61,6,7,4,3,0.5,0.5
2026-01-02T1500,4222A,110.1835,25.2444,桂林市,环湖路276号,,28,,22,19,23,60,,51,51,8,10,6,5,0.4,0.5
2026-01-02T1500,4301A,110.2803,25.2773,桂林市,信义路13号,,31,31,19,14,17,65,,57,57,11,12,4,4,0.5,0.5
2026-01-02T1500,2674A,100.2262,34.4854,果洛藏族自治州,玛沁县大武镇,,27,17,34,3,14,86,,54,54,3,7,8,15,0.4,0.5
2026-01-02T1500,1130A,126.5557,45.8109,哈尔滨市,松北商大,,45,43,42,31,31,51,,36,36,16,25,11,8,0.5,0.6
2026-01-02T1500,1132A,126.6162,45.719,哈尔滨市,南岗学府路,颗粒物(PM10),53,56,50,30,37,43,,30,30,18,25,12,10,0.7,0.8
2026-01-02T1500,1133A,126.6894,45.7733,哈尔滨市,太平宏伟公园,颗粒物(PM10),58,65,54,33,38,41,,29,29,28,26,26,19,0.5,0.8
2026-01-02T1500,1134A,126.6361,45.7672,哈尔滨市,道外承德广场,颗粒物(PM10),52,53,60,26,37,40,,29,29,30,30,12,11,0.1,0.5
2026-01-02T1500,1136A,126.644,45.7261,哈尔滨市,动力和平路,颗粒物(PM10),51,51,50,32,37,45,,31,31,19,27,14,12,0.6,0.7
2026-01-02T1500,1137A,126.5933,45.7479,哈尔滨市,道里建国路,,46,40,47,32,39,38,,27,27,25,26,17,10,0.3,0.6
2026-01-02T1500,1138A,126.6127,45.6119,哈尔滨市,平房东轻厂,,49,36,44,34,36,46,,26,26,17,36,9,9,0.3,0.5
2026-01-02T1500,1139A,126.5875,45.9827,哈尔滨市,呼兰师专,细颗粒物(PM2.5),65,58,57,47,58,50,,34,34,16,27,8,8,0.8,1
2026-01-02T1500,1140A,126.6299,45.6799,哈尔滨市,省农科院,,48,38,58,33,48,48,,32,32,19,37,13,12,0.7,0.9
2026-01-02T1500,4282A,126.6769,45.7379,哈尔滨市,华山路1号,,46,46,48,28,36,42,,28,28,25,32,22,27,0.6,0.7
2026-01-02T1500,4283A,126.9717,45.5356,哈尔滨市,解放大街52号,细颗粒物(PM2.5),93,76,54,69,47,47,,34,34,22,22,17,9,0.7,0.9
2026-01-02T1500,2688A,93.5124,42.8176,哈密市,地区监测站,,48,48,61,32,44,55,,38,38,15,20,10,5,0.6,0.4
2026-01-02T1500,2689A,93.5014,42.8312,哈密市,哈密师范学校,,,43,73,32,35,55,,34,34,18,31,,3,0.5,0.6
2026-01-02T1500,2671A,100.9016,36.9464,海北藏族自治州,海晏县西海镇,,39,31,51,27,45,87,,66,66,9,13,11,11,0.7,0.8
2026-01-02T1500,3867A,102.074,36.5056,海东市,平安区公安局北苑,细颗粒物(PM2.5),52,50,70,36,61,78,,46,46,12,22,20,18,1.1,1
2026-01-02T1500,4163A,102.0984,36.5119,海东市,滨河路,细颗粒物(PM2.5),79,65,67,58,59,82,,45,45,21,39,19,19,1.1,0.9
2026-01-02T1500,1410A,110.3189,20.0596,海口市,海南大学,,28,28,47,16,26,82,,86,61,9,9,6,6,0.4,0.4
2026-01-02T1500,1411A,110.2827,20.0051,海口市,秀英海南医院,,35,35,44,16,26,72,,80,56,11,10,8,8,0.4,0.4
2026-01-02T1500,1412A,110.3391,19.9979,海口市,海南师范大学,,34,34,42,16,25,80,,87,61,10,10,6,6,0.5,0.5
2026-01-02T1500,1413A,110.3303,20.0359,海口市,龙华路环保局宿舍,,36,36,44,18,26,83,,88,63,11,11,/,/,0.6,0.7
2026-01-02T1500,3539A,110.5111,19.9737,海口市,桂林洋子站,,27,26,47,17,28,85,,80,62,9,10,/,/,/,/
2026-01-02T1500,4134A,110.1952,20.0451,海口市,长滨二路9号,,26,25,43,17,29,82,,86,62,8,8,/,/,/,/
2026-01-02T1500,2673A,100.6158,36.2985,海南藏族自治州,共和县恰卜恰镇,细颗粒物(PM2.5),75,,48,55,35,86,,54,54,8,20,13,12,0.6,0.6
2026-01-02T1500,2676A,97.373,37.376,海西蒙古族藏族自治州,德令哈市,,26,22,19,7,9,83,,80,80,18,5,17,13,1.3,0.5
2026-01-02T1500,1049A,114.492,36.5712,邯郸市,矿院,细颗粒物(PM2.5),83,68,80,61,74,67,,35,35,19,45,6,6,0.6,0.8
2026-01-02T1500,1050A,114.4839,36.6136,邯郸市,丛台公园,细颗粒物(PM2.5),83,65,79,61,65,68,,40,40,20,41,7,7,0.6,0.8
2026-01-02T1500,3458A,114.7893,36.5592,邯郸市,香泉濮院小区,细颗粒物(PM2.5),73,58,83,53,67,77,,50,50,14,41,7,9,0.6,0.9
2026-01-02T1500,3580A,114.1998,36.4439,邯郸市,峰峰矿区临水派出所,细颗粒物(PM2.5),110,,58,83,69,76,,57,57,14,24,9,9,0.8,0.9
2026-01-02T1500,4068A,114.5209,36.7697,邯郸市,建安街268号,细颗粒物(PM2.5),83,74,116,61,74,63,,34,34,27,51,10,11,0.7,1.1
2026-01-02T1500,4069A,114.5488,36.6177,邯郸市,丛台东路558号,颗粒物(PM10),77,104,120,48,68,70,,40,40,29,55,9,10,0.3,0.7
2026-01-02T1500,2635A,107.0155,33.0707,汉中市,市监测站,细颗粒物(PM2.5),55,,30,39,35,62,,56,55,14,16,4,4,0.5,0.5
2026-01-02T1500,2636A,107.0083,33.114,汉中市,鑫源开发区,,,,28,41,33,60,,51,47,14,16,4,4,,0.6
2026-01-02T1500,2637A,107.0072,33.0323,汉中市,南郑大河坎水厂,细颗粒物(PM2.5),60,43,52,43,43,63,,40,40,14,21,5,5,0.7,0.8
2026-01-02T1500,1223A,120.2073,30.2111,杭州市,滨江,细颗粒物(PM2.5),92,90,55,68,42,64,,56,56,21,16,6,9,0.5,0.3
2026-01-02T1500,1224A,120.0625,30.2737,杭州市,西溪,细颗粒物(PM2.5),77,72,42,56,36,77,,64,64,19,19,8,8,0.7,0.6
2026-01-02T1500,1226A,120.3417,30.315,杭州市,下沙,细颗粒物(PM2.5),99,82,46,74,35,67,,55,55,16,16,8,8,0.9,1.1
2026-01-02T1500,1227A,120.1252,30.2465,杭州市,卧龙桥,细颗粒物(PM2.5),88,78,46,65,36,74,,62,62,11,11,10,10,0.7,0.6
2026-01-02T1500,1228A,120.1902,30.2691,杭州市,浙江农大,细颗粒物(PM2.5),93,87,54,69,44,67,,59,59,26,21,4,3,0.4,0.3
2026-01-02T1500,1230A,120.1195,30.3121,杭州市,和睦小学,细颗粒物(PM2.5),85,86,52,63,35,72,,62,62,17,13,5,5,0.7,0.6
2026-01-02T1500,1231A,120.3076,30.4146,杭州市,临平镇,细颗粒物(PM2.5),92,94,54,68,39,67,,57,57,12,13,8,7,0.6,0.5
2026-01-02T1500,1232A,120.2753,30.1839,杭州市,城厢镇,细颗粒物(PM2.5),89,79,43,66,40,74,,63,63,16,13,8,8,0.4,0.3
2026-01-02T1500,1233A,120.0883,30.1808,杭州市,云栖,细颗粒物(PM2.5),79,70,40,58,35,77,,59,59,12,13,4,4,0.6,0.6
2026-01-02T1500,3557A,119.9463,30.0496,杭州市,镇二中,细颗粒物(PM2.5),70,53,39,51,33,76,,62,62,15,16,5,5,0.4,0.5
2026-01-02T1500,3558A,119.7184,30.2367,杭州市,市府大楼,细颗粒物(PM2.5),58,55,42,41,33,75,,64,64,8,10,9,9,0.6,0.6
2026-01-02T1500,3656A,120.1554,30.2863,杭州市,消防大队,细颗粒物(PM2.5),92,80,44,68,43,69,,58,58,14,16,6,6,0.2,0.2
2026-01-02T1500,1270A,117.1957,31.7845,合肥市,明珠广场,细颗粒物(PM2.5),73,70,51,53,40,65,,52,52,15,11,6,5,0.7,0.6
2026-01-02T1500,1271A,117.307,31.8765,合肥市,三里街,细颗粒物(PM2.5),73,68,51,53,42,64,,49,49,20,18,5,4,0.8,0.7
2026-01-02T1500,1272A,117.2587,31.8703,合肥市,琥珀山庄,细颗粒物(PM2.5),82,78,55,60,44,64,,52,52,16,14,8,7,0.8,0.7
2026-01-02T1500,1275A,117.2593,31.9376,合肥市,庐阳区,细颗粒物(PM2.5),73,75,56,53,41,67,,51,51,23,21,1,2,0.7,0.6
2026-01-02T1500,1276A,117.345251,31.861615,合肥市,瑶海区,细颗粒物(PM2.5),80,73,53,59,43,67,,53,53,18,18,5,4,0.8,0.7
2026-01-02T1500,1277A,117.3033,31.7967,合肥市,包河区,细颗粒物(PM2.5),73,70,52,53,45,63,,48,48,15,18,5,4,0.7,0.7
2026-01-02T1500,1278A,117.278,31.7392,合肥市,滨湖新区,细颗粒物(PM2.5),79,66,53,58,47,70,,54,54,19,20,4,3,0.7,0.7
2026-01-02T1500,1279A,117.1324,31.8395,合肥市,高新区,细颗粒物(PM2.5),77,73,50,56,39,73,,56,56,18,15,5,3,0.6,0.5
2026-01-02T1500,3464A,117.3802,31.9148,合肥市,高教基地,细颗粒物(PM2.5),82,83,57,60,49,68,,53,53,21,16,7,5,0.7,0.6
2026-01-02T1500,4098A,117.2518,31.8404,合肥市,中国科学技术大学,细颗粒物(PM2.5),65,62,50,47,38,71,,57,57,16,14,6,4,0.5,0.4
2026-01-02T1500,3614A,79.9241,37.0878,和田地区,地区环保局,细颗粒物(PM2.5),57,58,56,40,36,54,,46,41,10,17,3,2,0.8,0.6
2026-01-02T1500,3615A,79.9132,37.1137,和田地区,市环保局,细颗粒物(PM2.5),75,78,50,55,29,55,,51,48,14,18,3,2,0.5,0.7
2026-01-02T1500,2517A,108.0496,24.6957,河池市,市环保站,,18,,3,12,5,47,,47,45,7,8,2,2,0.7,0.8
2026-01-02T1500,4302A,108.0901,24.6945,河池市,上任中路54号,,26,,10,18,9,38,,42,38,13,11,4,4,0.6,0.7
2026-01-02T1500,1697A,114.6962,23.7538,河源市,东埔,,26,11,17,11,16,81,,72,72,8,10,6,5,0.6,0.7
2026-01-02T1500,1698A,114.6895,23.7232,河源市,老城,,26,18,23,10,13,81,,72,72,6,8,6,6,0.6,0.7
2026-01-02T1500,3374A,115.5562,35.089,菏泽市,定陶老年大学,,39,39,65,27,48,68,,45,45,16,27,5,6,0.4,0.5
2026-01-02T1500,4114A,115.4239,35.2593,菏泽市,黄河路600号,颗粒物(PM10),52,54,74,22,54,67,,42,42,23,39,5,6,0.6,0.8
2026-01-02T1500,4115A,115.5025,35.2727,菏泽市,菏泽市人社局,颗粒物(PM10),51,51,71,23,49,64,,39,39,16,28,4,7,0.5,0.6
2026-01-02T1500,4184A,115.479691,35.244011,菏泽市,永昌路1号,,50,50,70,31,53,69,,46,46,22,27,8,8,0.4,0.5
2026-01-02T1500,4193A,115.471542,35.280012,菏泽市,长城路999号,颗粒物(PM10),52,53,73,28,51,72,,48,48,15,28,8,8,0.7,0.9
2026-01-02T1500,2514A,111.5264,24.4178,贺州市,环保小区,,21,21,19,14,15,46,,32,32,9,12,4,5,0.5,0.6
2026-01-02T1500,2515A,111.561,24.4074,贺州市,政协大楼,,27,27,19,18,14,44,,31,31,11,11,7,8,0.5,0.5
2026-01-02T1500,3534A,111.4744,24.455,贺州市,西湾,,30,30,19,21,12,44,,33,33,9,11,8,7,0.7,0.7
2026-01-02T1500,2385A,114.17,35.9019,鹤壁市,市监测站,细颗粒物(PM2.5),97,101,94,72,76,65,,36,36,16,23,4,4,0.7,0.9
2026-01-02T1500,2386A,114.2953,35.7512,鹤壁市,市交警支队,细颗粒物(PM2.5),78,92,89,57,70,57,,29,29,19,32,5,4,0.7,0.8
2026-01-02T1500,2387A,114.2877,35.7302,鹤壁市,迎宾馆,细颗粒物(PM2.5),99,97,88,74,72,73,,36,36,12,26,8,3,0.8,0.9
2026-01-02T1500,3474A,114.2616,35.6824,鹤壁市,大新区,细颗粒物(PM2.5),102,111,81,76,72,75,,36,36,16,29,6,4,0.8,0.9
2026-01-02T1500,3596A,114.1573,35.9607,鹤壁市,南山宾馆,细颗粒物(PM2.5),90,85,85,67,69,70,,49,49,15,18,7,6,0.7,0.8
2026-01-02T1500,2244A,130.2537,47.3416,鹤岗市,哈啤分公司,,28,25,22,19,20,60,,55,55,9,6,9,7,0.4,0.4
2026-01-02T1500,2245A,130.2683,47.3087,鹤岗市,斯达机电,,35,32,26,24,21,63,,59,59,13,7,6,5,0.4,0.4
2026-01-02T1500,2246A,130.3114,47.3388,鹤岗市,东山纸板厂,,48,48,31,16,22,36,,42,42,36,17,13,9,0.4,0.7
2026-01-02T1500,2263A,127.4832,50.2524,黑河市,交通局,,40,35,28,28,23,25,,51,30,39,20,12,7,0.6,0.4
2026-01-02T1500,2264A,127.5146,50.2339,黑河市,环保局,,36,31,39,25,23,25,,43,22,43,24,15,14,0.7,0.7
2026-01-02T1500,1074A,115.6839,37.754,衡水市,电机北厂,颗粒物(PM10),64,78,72,45,46,53,,31,31,28,46,9,13,0.7,0.7
2026-01-02T1500,1075A,115.6303,37.7318,衡水市,市监测站,细颗粒物(PM2.5),59,65,65,42,40,56,,33,33,26,44,10,11,0.7,0.8
2026-01-02T1500,3188A,115.6684,37.7216,衡水市,市城管局,颗粒物(PM10),59,67,67,37,46,56,,33,33,30,47,10,12,0.7,0.8
2026-01-02T1500,3459A,115.599,37.5491,衡水市,地表水厂,细颗粒物(PM2.5),62,50,61,44,48,62,,36,36,16,44,7,9,0.6,0.8
2026-01-02T1500,2457A,112.6209,26.9268,衡阳市,衡阳化工总厂,,48,33,38,33,41,38,,32,32,13,15,5,5,0.9,0.9
2026-01-02T1500,2458A,112.621,26.8957,衡阳市,珠晖区环保局,细颗粒物(PM2.5),53,,38,37,44,31,,26,26,14,17,4,3,0.9,0.8
2026-01-02T1500,2459A,112.628,26.8654,衡阳市,市委党校,细颗粒物(PM2.5),54,,38,38,43,36,,32,32,13,15,7,6,0.8,0.8
2026-01-02T1500,2460A,112.6007,26.8977,衡阳市,市监测站,细颗粒物(PM2.5),63,61,56,45,47,34,,31,31,14,9,6,5,0.8,0.7
2026-01-02T1500,2461A,112.5658,26.9013,衡阳市,真空机电公司,细颗粒物(PM2.5),55,46,51,39,45,33,,33,33,14,14,6,5,0.8,0.7
2026-01-02T1500,3399A,112.6703,26.8817,衡阳市,师范学院,,46,45,44,32,39,40,,34,34,13,13,1,3,1.2,1.1
2026-01-02T1500,3038A,103.3757,23.3679,红河哈尼族彝族自治州,州图书馆,,21,14,32,10,23,67,,53,47,4,7,6,7,0.5,0.5
2026-01-02T1500,4154A,103.401,23.3561,红河哈尼族彝族自治州,蒙自市朝阳路,,25,13,23,12,21,79,,67,67,4,5,9,9,0.4,0.3
2026-01-02T1500,1090A,111.6506,40.7517,呼和浩特市,呼市一监,细颗粒物(PM2.5),68,68,93,49,68,52,,30,30,25,45,15,10,0.7,1.1
2026-01-02T1500,1094A,111.7516,40.8369,呼和浩特市,如意水处理厂,"颗粒物(PM10),细颗粒物(PM2.5)",58,66,71,41,45,48,,30,30,29,52,24,16,0.8,1
2026-01-02T1500,1095A,111.727798,40.806187,呼和浩特市,二十九中,颗粒物(PM10),60,70,71,36,46,46,,28,28,26,46,24,18,0.7,0.8
2026-01-02T1500,1097A,111.717,40.7617,呼和浩特市,化肥厂生活区,颗粒物(PM10),62,74,87,42,57,44,,26,26,29,47,22,15,0.7,1
2026-01-02T1500,3699A,111.6519,40.8389,呼和浩特市,海东办,颗粒物(PM10),57,63,88,39,61,45,,25,25,29,49,18,11,0.6,0.9
2026-01-02T1500,4275A,111.591512,40.827312,呼和浩特市,成吉思汗西街8号,颗粒物(PM10),57,63,64,38,41,38,,19,19,32,46,21,10,0.9,0.9
2026-01-02T1500,4276A,111.6597,40.8077,呼和浩特市,公园东路75号,颗粒物(PM10),58,66,74,39,48,44,,31,31,32,52,19,13,0.6,0.8
2026-01-02T1500,4277A,111.5427,40.7846,呼和浩特市,金海路35号,细颗粒物(PM2.5),78,74,77,57,52,40,,23,23,36,50,20,14,0.8,0.9
2026-01-02T1500,3061A,119.7511,49.1576,呼伦贝尔市,国华电力东,,20,14,23,12,16,63,,61,61,14,17,5,6,0.2,0.2
2026-01-02T1500,4279A,119.7569,49.2222,呼伦贝尔市,伊敏大街东7号,,20,20,24,11,19,59,,50,46,9,16,6,6,0.3,0.4
2026-01-02T1500,1250A,120.075,30.867,湖州市,城西水厂,颗粒物(PM10),56,61,55,39,40,75,,51,51,17,23,10,10,0.4,0.5
2026-01-02T1500,2873A,120.083,30.8929,湖州市,仁皇山新区,细颗粒物(PM2.5),69,64,50,50,39,79,,60,60,22,22,11,10,0.4,0.4
2026-01-02T1500,2907A,120.1846,30.8592,湖州市,吴兴区站,细颗粒物(PM2.5),68,59,45,49,38,76,,56,56,17,18,7,6,0.5,0.4
2026-01-02T1500,3562A,120.4146,30.8538,湖州市,南浔区站,细颗粒物(PM2.5),59,59,36,42,28,64,,52,52,19,18,8,6,0.5,0.5
2026-01-02T1500,1607A,120.904878,40.721091,葫芦岛市,龙港区,颗粒物(PM10),51,52,72,15,45,60,,33,33,10,35,20,27,0.8,1.5
2026-01-02T1500,1608A,120.8382,40.7521,葫芦岛市,化工街,,41,41,74,14,39,52,,31,31,15,36,24,38,0.5,0.9
2026-01-02T1500,1609A,120.8339,40.7078,葫芦岛市,新区,,30,30,45,16,28,59,,33,33,11,42,16,17,0.6,0.8
2026-01-02T1500,1610A,120.8697,40.7679,葫芦岛市,东城区,颗粒物(PM10),53,56,73,20,53,51,,28,28,21,38,25,42,0.8,1.2
2026-01-02T1500,2483A,109.9297,27.5383,怀化市,河西地税局,细颗粒物(PM2.5),65,,40,47,38,66,,59,59,12,11,4,7,/,/
2026-01-02T1500,2484A,109.9783,27.5342,怀化市,市四医院,细颗粒物(PM2.5),55,57,43,39,37,56,,48,48,10,9,10,9,0.5,0.5
2026-01-02T1500,2485A,109.9971,27.5579,怀化市,监测楼,,,,39,,32,,,58,58,,13,,2,,0.1
2026-01-02T1500,1210A,119.0566,33.5991,淮安市,钵池山,,33,29,54,23,41,72,,56,56,11,26,7,9,0.1,0.4
2026-01-02T1500,1211A,119.0083,33.578,淮安市,北京南路,,35,29,55,24,39,63,,49,49,12,20,7,10,0.6,0.7
2026-01-02T1500,1212A,118.9938,33.6083,淮安市,市监测站,,28,27,51,19,40,70,,49,49,12,29,9,10,0.4,0.6
2026-01-02T1500,1213A,119.135,33.5038,淮安市,楚州区监测站,,22,20,51,15,38,59,,48,48,10,21,10,10,0.5,0.6
2026-01-02T1500,3426A,118.8757,33.2897,淮安市,新华书店,,32,32,64,18,46,61,,47,47,9,22,9,10,0.5,0.7
2026-01-02T1500,4092A,119.119691,33.550006,淮安市,枚皋中路89号,,36,36,59,15,42,71,,57,57,10,25,8,9,0.8,1.1
2026-01-02T1500,4206A,119.028838,33.631911,淮安市,承德北路606号,,33,31,59,23,39,72,,54,54,11,24,8,10,0.6,0.7
2026-01-02T1500,2282A,116.8005,33.9749,淮北市,监测站,颗粒物(PM10),55,60,76,35,49,65,,46,46,26,28,11,9,0.4,0.6
2026-01-02T1500,2283A,116.8094,33.9008,淮北市,烈山区政府,细颗粒物(PM2.5),74,65,64,54,50,75,,53,53,24,25,13,9,0.4,0.4
2026-01-02T1500,4017A,116.7926,33.9534,淮北市,市博物馆,颗粒物(PM10),53,56,74,27,45,66,,47,47,22,26,13,11,0.5,0.5
2026-01-02T1500,4100A,116.8322,33.9884,淮北市,杜集区第一实验学校,,,,72,,50,53,,21,,16,17,10,7,0.4,0.8
2026-01-02T1500,2277A,116.8304,32.7726,淮南市,潘集区政府,,49,49,62,34,54,59,,43,43,24,17,8,5,0.6,0.6
2026-01-02T1500,2279A,116.8569,32.5949,淮南市,谢家集区政府,颗粒物(PM10),53,55,58,34,40,58,,40,39,27,20,11,6,0.5,0.4
2026-01-02T1500,2280A,116.8279,32.6333,淮南市,八公山区政府,,40,40,52,28,43,62,,44,44,21,14,9,3,0.6,0.4
2026-01-02T1500,2894A,117.0561,32.6536,淮南市,经济技术开发区消防队,,46,46,63,30,46,64,,44,44,20,18,8,4,0.5,0.5
2026-01-02T1500,3329A,117.011,32.5891,淮南市,山南新区,细颗粒物(PM2.5),59,55,59,42,39,66,,46,46,17,15,5,3,0.5,0.4
2026-01-02T1500,4209A,117.003137,32.644456,淮南市,国庆中路369号,,38,38,52,12,39,56,,37,37,20,19,6,3,0.6,0.5
2026-01-02T1500,2446A,114.9021,30.474,黄冈市,职工中心,,40,40,31,19,23,79,,53,53,4,7,5,5,0.5,0.6
2026-01-02T1500,2929A,114.8858,30.4519,黄冈市,红卫路,,36,30,33,25,25,77,,51,51,7,10,4,4,0.4,0.4
2026-01-02T1500,3398A,114.9134,30.4446,黄冈市,市林业局,,35,24,29,24,26,79,,55,55,8,11,5,4,0.5,0.4
2026-01-02T1500,2672A,102.02,35.5101,黄南藏族自治州,同仁县隆务镇,细颗粒物(PM2.5),65,54,55,47,43,73,,58,58,7,5,11,10,0.6,0.5
2026-01-02T1500,2295A,118.2905,29.6965,黄山市,延安路89号,,38,,20,26,17,85,,70,70,6,8,3,3,0.3,0.4
2026-01-02T1500,2297A,118.1369,30.2755,黄山市,黄山区政府5号楼,,45,41,29,31,23,85,,73,73,8,10,6,5,0.5,0.5
2026-01-02T1500,4210A,118.335445,29.720283,黄山市,滨江东路7-2号,,48,36,28,33,24,83,,67,67,7,11,/,/,/,/
2026-01-02T1500,2423A,115.0547,30.2332,黄石市,沈家营,,32,32,32,19,20,60,,49,49,9,11,5,5,1.0,0.9
2026-01-02T1500,2426A,114.899,30.211,黄石市,铁山,,32,26,39,22,30,63,,45,45,2,9,4,5,0.8,0.9
2026-01-02T1500,2427A,115.0259,30.2108,黄石市,团城山,,38,38,35,19,22,68,,51,51,9,11,6,6,0.5,0.6
2026-01-02T1500,3149A,115.0174,30.1591,黄石市,笔架山北路,,40,40,41,27,22,49,,42,42,15,10,7,7,0.9,0.9
2026-01-02T1500,4185A,115.078022,30.21118,黄石市,磁湖东路29号,,32,32,33,22,26,48,,39,39,14,12,6,5,0.6,0.7
2026-01-02T1500,1392A,114.4181,23.0528,惠州市,河南岸金山湖子站,,26,16,29,6,16,83,,73,73,11,13,3,3,0.5,0.6
2026-01-02T1500,1393A,114.4055,23.0824,惠州市,下埔横江三路子站,,27,16,27,8,18,85,,77,77,7,9,6,6,0.5,0.6
2026-01-02T1500,1395A,114.4645,22.7832,惠州市,惠阳区承修路船湖子站,,,,40,,24,,,97,,,11,,6,,0.6
2026-01-02T1500,1396A,114.5316,22.7423,惠州市,大亚湾管委会子站,,26,16,33,7,21,83,,74,74,5,8,5,5,0.3,0.4
2026-01-02T1500,3314A,114.4334,22.8134,惠州市,惠阳秋长,,,,38,8,20,,,82,82,8,10,/,/,/,/
2026-01-02T1500,3452A,114.6521,22.7755,惠州市,大亚湾霞涌,,27,24,37,10,22,84,,75,75,9,12,/,/,/,/
2026-01-02T1500,4300A,114.4089,23.1147,惠州市,文华一路1号,,29,16,28,9,19,92,,82,82,8,11,/,/,/,/
2026-01-02T1500,2240A,130.9618,45.2926,鸡西市,环保局,,,26,22,16,17,53,,45,45,6,6,,6,0.2,0.2
2026-01-02T1500,2243A,130.9294,45.2959,鸡西市,第一中学,,18,12,20,8,16,57,,50,50,6,7,3,3,0.3,0.4
2026-01-02T1500,3707A,131.0069,45.2988,鸡西市,欧美日汽修厂,,20,20,24,12,17,55,,49,49,9,9,7,7,0.4,0.4
2026-01-02T1500,2367A,114.9753,27.0803,吉安市,红声器材厂,,29,29,28,15,15,71,,58,58,14,19,8,9,0.3,0.4
2026-01-02T1500,2369A,114.9903,27.1313,吉安市,市环境监测站,,23,22,25,8,17,73,,59,59,7,13,11,12,/,/
2026-01-02T1500,2370A,115.009527,27.096792,吉安市,青原区法院,,25,25,26,16,16,71,,54,54,10,13,10,12,0.4,0.5
2026-01-02T1500,1772A,126.54,43.8622,吉林市,哈达湾,,30,26,36,21,27,55,,44,44,10,18,11,7,1.2,1.3
2026-01-02T1500,1773A,126.5843,43.8358,吉林市,东局子,,31,31,36,16,28,55,,39,39,10,18,5,6,0.9,0.9
2026-01-02T1500,1774A,126.5051,43.8243,吉林市,电力学院,,26,22,53,18,45,58,,44,44,9,24,10,12,0.6,0.9
2026-01-02T1500,1775A,126.6133,43.8971,吉林市,江北,,32,32,41,20,31,52,,40,40,13,18,8,9,0.7,0.8
2026-01-02T1500,1776A,126.5549,43.8304,吉林市,江南公园,,35,,35,24,33,58,,42,42,6,16,7,11,0.8,0.9
2026-01-02T1500,2868A,126.4737,43.953,吉林市,九站,,37,37,46,21,32,57,,43,43,12,23,5,10,0.7,0.8
2026-01-02T1500,1299A,116.9866,36.6118,济南市,科干所,,29,29,37,7,17,64,,45,45,17,29,5,10,0.6,0.8
2026-01-02T1500,1300A,116.9379,36.6652,济南市,农科所,,29,29,52,7,24,64,,40,40,13,36,5,8,0.6,0.8
2026-01-02T1500,1301A,117.1265,36.6736,济南市,开发区,,27,27,41,12,23,64,,50,50,13,26,4,5,0.5,0.7
2026-01-02T1500,1303A,117.0616,36.6865,济南市,省种子仓库,,24,24,47,7,21,69,,51,51,15,32,5,7,0.4,0.6
2026-01-02T1500,1304A,116.9495185,36.644937,济南市,机床二厂,,27,27,55,12,28,64,,46,46,18,39,6,10,0.6,0.9
2026-01-02T1500,1305A,117.0496,36.6629,济南市,市监测站,,27,27,38,12,19,65,,50,50,10,23,5,6,0.5,0.6
2026-01-02T1500,1306A,116.7674,36.5458,济南市,长清党校,,32,24,46,22,25,58,,39,39,15,37,12,10,0.7,0.7
2026-01-02T1500,1961A,117.5323,36.6865,济南市,东山小学,,29,29,36,3,17,68,,60,60,14,21,5,5,0.7,0.7
2026-01-02T1500,3059A,117.7181,36.205,济南市,泰兴公司,,34,34,52,19,35,75,,45,45,16,32,7,7,1.2,0.9
2026-01-02T1500,3064A,117.6861,36.2172,济南市,莱芜战役纪念馆,,32,29,52,22,35,70,,40,40,16,31,9,10,0.8,0.7
2026-01-02T1500,3494A,117.1673,36.9782,济南市,济阳区政府,,39,39,44,15,19,58,,39,39,20,27,8,8,0.4,0.4
2026-01-02T1500,3495A,117.1168,36.6299,济南市,锦屏中学,,21,17,31,3,14,66,,60,60,16,22,3,3,0.4,0.5
2026-01-02T1500,4108A,117.7107,36.2385,济南市,山财大街5号,,42,42,59,20,27,74,,46,46,12,24,5,8,0.4,0.5
2026-01-02T1500,4109A,116.9744,36.6889,济南市,无影山路12号,,34,34,61,11,31,61,,37,37,14,38,5,11,0.4,0.7
2026-01-02T1500,1653A,116.6229,35.4288,济宁市,火炬城,,42,42,49,27,33,62,,44,44,20,27,9,8,0.3,0.4
2026-01-02T1500,3500A,116.5808,35.3703,济宁市,北湖一中,,45,34,43,31,35,68,,48,48,22,30,6,8,0.4,0.6
2026-01-02T1500,3501A,116.8251,35.5592,济宁市,服务中心,,43,43,51,14,27,60,,39,39,34,39,10,13,0.4,0.5
2026-01-02T1500,3678A,116.5907,35.4054,济宁市,市第七中学,,44,44,48,24,26,68,,53,53,20,25,7,9,0.5,0.6
2026-01-02T1500,4111A,116.6075,35.4566,济宁市,任和路,,41,41,56,21,32,62,,42,42,24,31,9,10,0.3,0.7
2026-01-02T1500,4112A,116.5648,35.3921,济宁市,文体南路1号,,42,42,52,13,31,68,,50,50,18,26,5,7,0.3,0.5
2026-01-02T1500,2255A,130.2749,46.8028,佳木斯市,佳纺,,26,25,24,18,19,47,,46,46,13,13,7,7,0.3,0.2
2026-01-02T1500,2257A,130.3258,46.7975,佳木斯市,环保局,,26,26,28,15,17,48,,47,47,16,12,6,6,0.6,0.6
2026-01-02T1500,4285A,130.363,46.806,佳木斯市,顺和街,细颗粒物(PM2.5),60,,26,43,17,42,,43,43,20,11,8,7,0.3,0.6
2026-01-02T1500,4286A,130.3952,46.8268,佳木斯市,长安路196号,,25,21,22,17,15,48,,46,46,16,14,7,6,0.4,0.3
2026-01-02T1500,1252A,120.7439,30.778,嘉兴市,清河小学,,,,44,71,32,67,,57,57,17,20,8,6,,0.7
2026-01-02T1500,1253A,120.7261,30.7477,嘉兴市,嘉兴学院,,45,45,39,29,27,70,,58,58,12,16,9,8,0.6,0.6
2026-01-02T1500,2872A,120.7845,30.7524,嘉兴市,南湖区残联,,48,42,36,33,28,74,,62,62,15,15,6,5,0.6,0.6
2026-01-02T1500,3407A,120.6915,30.7741,嘉兴市,秀洲住建,颗粒物(PM10),51,51,43,33,30,72,,59,59,16,19,9,7,0.5,0.5
2026-01-02T1500,1945A,98.291,39.7705,嘉峪关市,气象局,细颗粒物(PM2.5),62,53,57,44,38,75,,74,65,11,9,3,2,0.8,0.6
2026-01-02T1500,2884A,98.2672,39.7978,嘉峪关市,酒钢宾馆,细颗粒物(PM2.5),73,80,58,53,39,68,,77,67,18,7,116,21,1.1,0.7
2026-01-02T1500,3248A,98.2644,39.7723,嘉峪关市,雄关区,细颗粒物(PM2.5),74,74,58,54,38,54,,77,65,38,14,47,18,1.1,0.8
2026-01-02T1500,1383A,113.1063,22.6058,江门市,北街,,32,32,40,11,21,102,,79,79,16,16,/,/,/,/
2026-01-02T1500,1384A,113.073,22.5835,江门市,西区,,37,37,42,3,15,98,,76,76,20,23,/,/,/,/
2026-01-02T1500,1385A,113.0218,22.531,江门市,圭峰西,,34,34,39,10,21,102,,80,80,14,16,/,/,/,/
2026-01-02T1500,1386A,113.0826,22.5947,江门市,东湖,,32,23,34,14,26,102,,79,79,22,24,7,8,0.4,0.5
2026-01-02T1500,3311A,113.1077,22.5647,江门市,江海富民,,33,28,52,8,21,103,,78,78,16,21,/,/,0.4,0.7
2026-01-02T1500,3449A,113.0496,22.4669,江门市,新会银湖,,36,36,41,13,25,100,,74,74,16,17,6,8,0.5,0.6
2026-01-02T1500,3335A,113.3137,35.2643,焦作市,马村街道办,细颗粒物(PM2.5),143,115,87,109,79,42,,27,27,26,23,5,4,0.9,0.9
2026-01-02T1500,3336A,113.2464,35.2374,焦作市,焦作技师学院,细颗粒物(PM2.5),138,122,88,105,78,47,,22,22,23,26,7,6,0.9,1.1
2026-01-02T1500,3477A,113.1656,35.2536,焦作市,中站许衡医院,细颗粒物(PM2.5),129,100,92,98,87,56,,40,38,23,27,8,5,1.1,1.2
2026-01-02T1500,3981A,113.2456,35.18,焦作市,原李万街道办,细颗粒物(PM2.5),134,,87,102,79,44,,16,16,20,21,3,3,0.8,0.9
2026-01-02T1500,4264A,113.234,35.219,焦作市,新安路1731号,细颗粒物(PM2.5),149,114,94,114,83,45,,19,19,15,18,5,4,0.8,0.8
2026-01-02T1500,4295A,113.2722,35.2121,焦作市,人民路3066号,细颗粒物(PM2.5),122,127,96,92,67,44,,17,17,16,21,4,3,0.8,0.8
2026-01-02T1500,1708A,116.3701,23.5345,揭阳市,新兴,,26,26,32,6,20,71,,61,61,11,15,8,8,0.5,0.6
2026-01-02T1500,1709A,116.3261,23.5442,揭阳市,西马,,21,19,30,8,18,67,,59,59,10,10,4,4,0.6,0.6
2026-01-02T1500,1710A,116.361,23.5627,揭阳市,东兴,,,,34,,19,,,55,55,12,17,7,8,/,/
2026-01-02T1500,1711A,116.4151,23.5295,揭阳市,渔湖,,22,16,30,6,20,70,,60,60,10,15,2,3,/,/
2026-01-02T1500,3320A,116.4028,23.5699,揭阳市,曲溪,,25,17,31,9,22,78,,66,66,6,13,1,2,0.4,0.5
2026-01-02T1500,1944A,102.1691,38.5166,金昌市,天庆家园,细颗粒物(PM2.5),68,56,58,49,54,73,,55,55,8,11,2,2,0.7,0.8
2026-01-02T1500,4022A,102.1648,38.5369,金昌市,金川区人防中心,细颗粒物(PM2.5),67,53,54,48,52,74,,57,57,8,10,4,4,0.7,0.7
2026-01-02T1500,4239A,102.193042,38.531887,金昌市,长春路96号,细颗粒物(PM2.5),65,56,57,47,50,72,,56,56,7,9,4,4,0.7,0.8
2026-01-02T1500,1262A,119.6478,29.0773,金华市,十五中,,36,36,27,25,18,82,,61,61,12,16,3,2,0.4,0.4
2026-01-02T1500,1263A,119.6859,29.1032,金华市,监测站,,39,39,30,26,21,73,,57,57,12,16,2,1,0.4,0.4
2026-01-02T1500,3659A,119.656,29.1132,金华市,气象局,,37,37,24,21,16,77,,56,56,15,21,2,2,0.4,0.5
2026-01-02T1500,1767A,121.1114,41.0879,锦州市,南山,,42,33,49,29,40,59,,41,41,20,23,13,14,0.7,1.1
2026-01-02T1500,1768A,121.060361,40.842794,锦州市,开发区,颗粒物(PM10),60,70,78,30,42,43,,25,25,26,41,25,41,0.7,1.1
2026-01-02T1500,1769A,121.1836,41.1118,锦州市,百股街道,,41,41,51,24,39,66,,39,39,12,27,11,13,0.6,1
2026-01-02T1500,1770A,121.1176,41.1224,锦州市,天安街道,,38,38,42,20,26,70,,46,46,14,20,14,19,0.8,0.9
2026-01-02T1500,1771A,121.1303,41.1385,锦州市,北湖公园,,41,41,43,20,28,67,,41,41,11,21,13,17,0.6,0.8
2026-01-02T1500,2160A,112.8496,35.5051,晋城市,自来水公司,细颗粒物(PM2.5),120,102,118,91,98,49,,28,28,19,26,4,4,1.1,1.3
2026-01-02T1500,2162A,112.8509,35.4886,晋城市,市环保局,细颗粒物(PM2.5),113,123,119,85,88,52,,30,30,19,26,3,4,1.2,1.4
2026-01-02T1500,3620A,112.8258,35.4804,晋城市,泽州一中,细颗粒物(PM2.5),119,90,101,90,92,56,,34,34,18,20,3,3,0.8,0.9
2026-01-02T1500,4078A,112.8246,35.5152,晋城市,前书院路,细颗粒物(PM2.5),94,112,120,70,73,50,,30,30,20,26,2,3,0.9,1
2026-01-02T1500,4079A,112.8864,35.4773,晋城市,祥云街666号,细颗粒物(PM2.5),134,117,121,102,105,47,,29,29,23,27,3,3,1.1,1.1
2026-01-02T1500,2174A,112.6992,37.6984,晋中市,榆次区政府,细颗粒物(PM2.5),183,178,177,138,136,47,,22,22,35,48,23,18,1.1,1.3
2026-01-02T1500,2865A,112.7195,37.683,晋中市,榆次三中,细颗粒物(PM2.5),168,175,162,127,112,51,,22,22,31,44,26,17,1.6,1.4
2026-01-02T1500,4080A,112.7375,37.7215,晋中市,广安街188号,细颗粒物(PM2.5),166,174,201,126,138,54,,26,26,33,49,21,13,1.0,1.1
2026-01-02T1500,4200A,112.7478,37.6954,晋中市,迎宾街26号,细颗粒物(PM2.5),170,166,156,129,116,50,,24,24,34,43,24,18,1.9,1.3
2026-01-02T1500,2439A,112.2012,31.048,荆门市,竹园小学,细颗粒物(PM2.5),109,94,69,82,57,60,,45,45,19,20,1,2,0.5,0.6
2026-01-02T1500,2440A,112.1968,30.9892,荆门市,掇刀,细颗粒物(PM2.5),105,96,71,79,60,73,,56,56,12,14,1,2,0.5,0.6
2026-01-02T1500,3012A,112.1849,31.0361,荆门市,西山林语,细颗粒物(PM2.5),93,90,63,69,51,66,,51,51,18,17,2,4,0.8,0.7
2026-01-02T1500,3547A,112.1631,31.0134,荆门市,龙泉中学南校,细颗粒物(PM2.5),108,97,67,81,55,71,,59,59,8,5,7,7,0.4,0.3
2026-01-02T1500,4124A,112.2213,31.0654,荆门市,新台西路6号,细颗粒物(PM2.5),123,108,81,93,68,62,,42,42,13,19,7,6,0.6,0.6
2026-01-02T1500,1844A,112.2493,30.3198,荆州市,市图书馆,细颗粒物(PM2.5),102,,59,76,61,70,,44,44,12,18,6,6,0.7,0.7
2026-01-02T1500,1845A,112.2009,30.3543,荆州市,市委党校,细颗粒物(PM2.5),100,,55,75,57,57,,40,40,13,19,4,4,0.7,0.7
2026-01-02T1500,3194A,112.2749,30.3124,荆州市,管委会,细颗粒物(PM2.5),97,,55,72,59,65,,38,38,15,23,4,5,0.7,0.7
2026-01-02T1500,4268A,112.1722,30.3366,荆州市,学苑路85号,细颗粒物(PM2.5),83,63,50,61,53,72,,50,50,12,19,1,1,0.6,0.6
2026-01-02T1500,2343A,117.2114,29.2931,景德镇市,老干部活动中心,,32,26,15,22,15,77,,61,61,3,4,6,7,0.7,0.6
2026-01-02T1500,2344A,117.1893,29.2789,景德镇市,兽医站,,25,24,23,14,12,79,,64,64,5,7,7,6,0.5,0.2
2026-01-02T1500,2346A,117.246,29.2958,景德镇市,陶研所,,30,,13,21,14,76,,62,62,3,3,5,5,0.6,0.5
2026-01-02T1500,4289A,117.154766,29.256967,景德镇市,青少年活动中心,,30,23,16,21,12,83,,66,66,7,8,6,2,/,/
2026-01-02T1500,1803A,115.9873,29.6816,九江市,十里,,45,34,25,31,26,94,,80,80,11,15,3,3,0.6,0.5
2026-01-02T1500,1804A,115.9583,29.7047,九江市,茅山头,,46,43,29,32,25,87,,72,72,3,7,4,4,0.7,0.6
2026-01-02T1500,1805A,115.9877,29.7295,九江市,西园,,40,38,25,28,20,94,,79,79,13,16,1,1,0.7,0.6
2026-01-02T1500,1808A,115.9112,29.6038,九江市,综合工业园,细颗粒物(PM2.5),60,,27,43,26,84,,74,74,12,14,1,3,0.8,0.8
2026-01-02T1500,3190A,116.0254,29.6995,九江市,外国语学校,,48,34,25,33,24,81,,67,67,10,12,6,6,0.6,0.5
2026-01-02T1500,4253A,116.010205,29.659402,九江市,莲花大道8号,细颗粒物(PM2.5),57,45,31,40,24,83,,70,70,2,4,2,2,0.3,0.3
2026-01-02T1500,4240A,98.495752,39.733935,酒泉市,玉门东路5号,,46,46,60,32,35,80,,56,56,4,8,9,8,0.4,0.5
2026-01-02T1500,4241A,98.5099,39.7506,酒泉市,北大街108号,,48,48,54,29,34,78,,58,58,12,14,8,7,0.4,0.4
2026-01-02T1500,2698A,76.0071,39.466,喀什地区,巡警大队,细颗粒物(PM2.5),68,73,62,49,39,12,,20,18,21,18,3,3,0.8,0.7
2026-01-02T1500,2699A,75.9756,39.4693,喀什地区,吾办,细颗粒物(PM2.5),82,79,65,60,46,30,,26,24,14,19,1,3,0.8,0.9
2026-01-02T1500,4027A,75.9485,39.4688,喀什地区,老干局,颗粒物(PM10),67,84,72,46,43,46,,36,32,9,18,1,2,0.8,0.9
2026-01-02T1500,1824A,114.3389,34.778,开封市,肿瘤医院,细颗粒物(PM2.5),54,47,67,38,61,67,,38,38,16,27,7,4,0.9,1.1
2026-01-02T1500,1826A,114.2884,34.7966,开封市,世纪星幼儿园,细颗粒物(PM2.5),58,42,64,41,76,66,,36,36,19,28,6,3,0.4,0.6
2026-01-02T1500,3147A,114.3434,34.8101,开封市,龙亭公园,颗粒物(PM10),54,58,69,34,78,69,,37,37,15,27,6,3,1.1,1.3
2026-01-02T1500,3210A,114.3645,34.7955,开封市,汴京公园,颗粒物(PM10),55,60,77,37,64,68,,36,36,21,31,7,4,0.5,0.8
2026-01-02T1500,3473A,114.2485,34.8306,开封市,技师学院,细颗粒物(PM2.5),53,53,66,37,69,65,,32,32,18,31,8,5,0.6,0.8
2026-01-02T1500,3592A,114.4518,34.7503,开封市,祥符区生态环境局,细颗粒物(PM2.5),59,46,82,42,65,67,,39,39,18,38,6,5,0.5,0.6
2026-01-02T1500,1951A,84.886,45.6029,克拉玛依市,长征新村,颗粒物(PM10),57,63,60,32,35,38,,34,30,26,25,6,5,1.0,0.9
2026-01-02T1500,1952A,84.8894,45.5827,克拉玛依市,南林小区,颗粒物(PM10),51,52,56,21,26,38,,27,20,23,22,3,3,1.4,1
2026-01-02T1500,1954A,84.896,44.3328,克拉玛依市,独山子区,颗粒物(PM10),64,78,80,36,33,54,,55,50,30,22,5,5,0.7,0.6
2026-01-02T1500,1955A,85.6888,46.0909,克拉玛依市,乌尔禾区商贸楼,,41,41,59,26,36,55,,28,24,16,23,5,5,0.6,1
2026-01-02T1500,3612A,85.1045,45.6895,克拉玛依市,白碱滩区新站,细颗粒物(PM2.5),74,96,80,54,37,20,,32,16,21,12,8,7,0.9,0.7
2026-01-02T1500,2697A,76.1457,39.7143,克孜勒苏柯尔克孜自治州,市人民政府,,,,65,,30,,,55,41,,7,,5,,0.3
2026-01-02T1500,3665A,76.1654,39.7157,克孜勒苏柯尔克孜自治州,克州文化中心,,,50,59,34,29,,,49,42,9,8,3,3,0.5,0.5
2026-01-02T1500,1450A,102.8203,24.889,昆明市,呈贡新区,,29,24,36,8,24,90,,56,56,7,26,3,4,0.1,0.3
2026-01-02T1500,1452A,102.7253,25.0904,昆明市,龙泉镇,,29,,32,8,19,90,,60,60,8,21,4,3,0.4,0.6
2026-01-02T1500,1453A,102.7267,25.0378,昆明市,东风东路,,29,15,33,12,23,90,,64,64,12,20,4,5,0.4,0.5
2026-01-02T1500,1454A,102.6744,25.0671,昆明市,金鼎山,,28,20,41,7,22,89,,58,58,6,20,4,5,0.4,0.5
2026-01-02T1500,1455A,102.6643,25.0401,昆明市,碧鸡广场,,28,15,34,12,24,89,,58,58,8,21,4,5,0.4,0.6
2026-01-02T1500,3179A,102.7491,25.012,昆明市,官渡区博物馆,,29,13,30,6,20,91,,56,56,8,22,3,4,0.2,0.4
2026-01-02T1500,3375A,102.8016,24.8336,昆明市,青年创业园,,,13,28,,9,91,,58,58,2,12,4,10,0.2,0.4
2026-01-02T1500,3550A,102.8,24.9787,昆明市,昆明学院,,29,13,36,7,21,92,,63,63,4,19,3,3,0.3,0.4
2026-01-02T1500,3551A,102.5969,24.6738,昆明市,晋宁区生态环境分局,,25,14,41,7,29,79,,50,50,2,23,2,2,0.3,0.6
2026-01-02T1500,3552A,102.6673,24.9861,昆明市,云天化总部,,29,14,26,8,17,92,,62,62,7,14,5,6,0.4,0.5
2026-01-02T1500,1456A,91.132,29.6515,拉萨市,八廓街,,,16,26,10,17,,,65,65,,25,7,8,0.4,0.7
2026-01-02T1500,1457A,91.1221,29.6748,拉萨市,市环保局,,30,17,39,13,25,94,,55,55,7,28,7,9,0.4,1.1
2026-01-02T1500,1458A,91.0874,29.6476,拉萨市,区监测站,,30,11,21,7,13,94,,58,58,6,36,4,5,0.7,1.1
2026-01-02T1500,1459A,91.1774,29.6541,拉萨市,西藏大学,,30,14,20,7,11,94,,64,64,8,19,5,6,0.2,0.4
2026-01-02T1500,1460A,90.9798,29.6586,拉萨市,区辐射站,,28,13,35,7,22,89,,51,51,9,35,3,5,0.4,0.8
2026-01-02T1500,1461A,91.0831,29.6292,拉萨市,拉萨火车站,,31,18,30,9,18,97,,47,47,6,37,4,5,0.4,0.8
2026-01-02T1500,2520A,109.2203,23.7252,来宾市,来宾技工学校,,24,24,15,13,5,58,,47,47,8,8,6,6,0.3,0.5
2026-01-02T1500,3535A,109.1781,23.7293,来宾市,兴宾区政府,,26,20,15,18,12,62,,51,51,7,7,6,4,0.5,0.6
2026-01-02T1500,4002A,109.2312,23.7428,来宾市,中南小学,,29,29,17,19,12,59,,48,48,10,10,5,4,0.5,0.7
2026-01-02T1500,1479A,103.8309,36.0467,兰州市,铁路设计院,,,,,,,,,,,,,,,,
2026-01-02T1500,3241A,103.7439,36.0841,兰州市,百合公园,细颗粒物(PM2.5),87,89,75,64,60,37,,36,26,43,36,11,10,1.1,1
2026-01-02T1500,3242A,103.9613,35.9985,兰州市,和平,细颗粒物(PM2.5),92,,84,68,79,66,,36,36,9,31,3,3,0.6,0.8
2026-01-02T1500,4236A,103.629272,36.093822,兰州市,庄浪东路808号,细颗粒物(PM2.5),120,116,95,91,69,63,,49,49,44,37,17,17,1.1,0.9
2026-01-02T1500,4237A,103.7251,36.104344,兰州市,安宁西路88号,细颗粒物(PM2.5),80,100,90,59,59,45,,39,35,52,40,10,8,1.1,0.8
2026-01-02T1500,4238A,103.846982,36.067567,兰州市,北滨河东路1号,细颗粒物(PM2.5),84,75,73,62,60,44,,48,42,41,32,10,12,1.0,0.9
2026-01-02T1500,1067A,116.6712,39.5109,廊坊市,药材公司,细颗粒物(PM2.5),67,62,32,48,19,46,,30,30,31,37,5,2,0.6,0.6
2026-01-02T1500,1068A,116.7215,39.5592,廊坊市,开发区,细颗粒物(PM2.5),62,59,21,44,12,46,,38,38,34,36,4,2,0.6,0.4
2026-01-02T1500,1070A,116.7246,39.5273,廊坊市,北华航天学院,颗粒物(PM10),58,66,27,38,15,43,,40,40,33,34,4,2,0.5,0.4
2026-01-02T1500,2919A,116.7022,39.5454,廊坊市,河北工业大学,细颗粒物(PM2.5),62,69,22,44,12,48,,41,41,29,27,6,3,0.6,0.4
2026-01-02T1500,2536A,103.7629,29.5844,乐山市,牛耳桥,,40,32,52,28,43,42,,46,43,20,24,7,8,0.5,0.6
2026-01-02T1500,2537A,103.7501,29.6002,乐山市,市第三水厂,,42,34,51,29,41,43,,48,45,20,24,6,6,0.5,0.6
2026-01-02T1500,2538A,103.7571,29.5664,乐山市,市监测站,,40,34,48,28,40,40,,46,43,16,20,6,7,0.6,0.7
2026-01-02T1500,3361A,103.7313,29.563,乐山市,理工大学,,39,33,46,27,39,46,,44,44,12,19,5,5,0.8,0.8
2026-01-02T1500,2599A,100.2497,26.8802,丽江市,丽江古城,,29,15,28,7,15,90,,74,74,8,12,8,9,0.5,0.5
2026-01-02T1500,2600A,100.2203,26.8906,丽江市,市中心,,29,12,22,10,19,90,,75,75,10,13,6,7,0.3,0.4
2026-01-02T1500,1267A,119.9141,28.4513,丽水市,监测站大楼,,30,30,12,10,7,69,,64,62,9,13,4,4,0.3,0.3
2026-01-02T1500,1268A,119.93,28.4589,丽水市,莲都小学,,28,26,21,19,14,72,,66,64,10,16,/,/,/,/
2026-01-02T1500,1269A,119.8794,28.4232,丽水市,余庄前,,26,26,21,18,15,70,,56,56,9,16,4,4,0.2,0.3
2026-01-02T1500,1173A,119.1759,34.5885,连云港市,市环境监测站,,34,34,36,17,20,58,,52,52,5,15,10,12,0.7,0.7
2026-01-02T1500,3000A,119.3577,34.6971,连云港市,德源药业,,32,29,38,22,19,60,,50,50,16,23,3,4,0.6,0.3
2026-01-02T1500,3007A,119.178,34.8442,连云港市,新城一中,,39,35,41,27,25,66,,53,53,8,21,10,13,0.6,0.7
2026-01-02T1500,3008A,119.3607,34.7519,连云港市,胡沟管理处,,28,27,26,19,18,62,,57,57,12,17,8,10,0.7,0.8
2026-01-02T1500,3009A,119.1478,34.5913,连云港市,矿山设计院,,31,31,35,12,17,61,,52,52,12,21,5,9,0.7,0.8
2026-01-02T1500,3434A,119.2414,34.6539,连云港市,工贸学校,,37,37,38,25,25,64,,53,53,7,15,10,13,0.6,0.8
2026-01-02T1500,3664A,119.4171,34.734,连云港市,连云街道,,44,44,35,23,18,56,,51,51,17,18,5,6,0.5,0.6
2026-01-02T1500,2573A,102.2629,27.8981,凉山彝族自治州,西昌市政府,,35,35,33,23,23,77,,44,44,11,17,9,8,0.6,0.6
2026-01-02T1500,2574A,102.2686,27.885,凉山彝族自治州,凉山州政府,,32,32,36,22,27,75,,44,44,8,18,10,9,0.5,0.7
2026-01-02T1500,4229A,102.2342,27.8859,凉山彝族自治州,凯乐南路30号,,34,34,43,19,26,72,,42,42,13,28,7,7,0.5,0.6
2026-01-02T1500,2212A,123.1978,41.2036,辽阳市,宏伟区,"颗粒物(PM10),细颗粒物(PM2.5)",64,78,75,46,61,46,,31,31,15,21,15,23,1.2,1
2026-01-02T1500,2213A,123.1684,41.2497,辽阳市,新华园,,34,34,83,14,64,51,,30,30,12,32,8,17,0.6,1.2
2026-01-02T1500,2214A,123.2355,41.2663,辽阳市,滨河路,,47,47,78,28,53,47,,30,30,14,30,7,9,0.4,1.1
2026-01-02T1500,4083A,123.153,41.2874,辽阳市,铁西路150号,,40,40,101,17,65,54,,31,31,12,34,10,13,0.7,1.4
2026-01-02T1500,2227A,125.1359,42.8845,辽源市,环保局,颗粒物(PM10),65,80,114,29,42,57,,40,40,11,26,4,4,0.7,1.1
2026-01-02T1500,4085A,125.0998,42.9134,辽源市,安宁大街333号,颗粒物(PM10),51,52,53,26,44,64,,46,46,11,23,6,4,0.4,0.7
2026-01-02T1500,1625A,115.9789,36.4372,聊城市,区政府,,34,34,58,16,37,67,,40,40,21,45,10,17,0.6,0.8
2026-01-02T1500,3200A,115.9772,36.4986,聊城市,监控中心,,36,36,70,17,48,69,,42,42,20,43,10,16,0.5,0.7
2026-01-02T1500,3513A,116.0443,36.436,聊城市,九州社区,,44,44,72,20,42,73,,47,47,15,33,3,11,0.4,0.6
2026-01-02T1500,4018A,116.0564,36.4609,聊城市,星美广场,,46,46,74,19,41,69,,46,46,14,33,4,11,0.4,0.6
2026-01-02T1500,4113A,116.0091,36.4495,聊城市,利民路,,34,34,58,17,40,66,,40,40,19,45,8,15,0.4,0.6
2026-01-02T1500,2632A,94.3683,29.6373,林芝市,林芝监测站,,29,6,8,3,5,91,,88,80,2,3,4,4,0.3,0.3
2026-01-02T1500,2633A,94.3616,29.6634,林芝市,林芝人民医院,,,11,15,3,7,85,,81,71,2,3,6,4,,0.4
2026-01-02T1500,2603A,100.0779,23.8981,临沧市,市环保局,,25,16,36,15,42,79,,45,45,3,9,6,6,0.3,0.5
2026-01-02T1500,2604A,100.0894,23.882,临沧市,市气象局,,29,29,39,10,32,78,,44,44,2,11,4,5,0.3,0.5
2026-01-02T1500,1733A,111.5552,36.0791,临汾市,临钢医院,细颗粒物(PM2.5),128,,126,97,108,62,,32,32,15,25,5,4,1.0,1.2
2026-01-02T1500,1734A,111.4984,36.0734,临汾市,技工学校,细颗粒物(PM2.5),117,104,109,88,94,57,,31,31,19,26,5,3,1.3,1.4
2026-01-02T1500,1736A,111.5017,36.0857,临汾市,市委,细颗粒物(PM2.5),125,117,122,95,98,60,,32,32,22,30,8,6,1.1,1.1
2026-01-02T1500,3018A,111.5048,36.1015,临汾市,唐尧大酒店,细颗粒物(PM2.5),120,104,115,91,92,58,,30,30,20,29,4,2,1.1,1.2
2026-01-02T1500,4244A,111.4879,36.053,临汾市,启星学校,细颗粒物(PM2.5),102,92,103,76,89,62,,33,33,22,31,8,5,1.1,1.2
2026-01-02T1500,4271A,103.2464,35.6123,临夏回族自治州,滨河东路1号,细颗粒物(PM2.5),125,128,122,95,88,59,,31,31,15,23,6,5,0.9,1.1
2026-01-02T1500,4310A,103.207136,35.599807,临夏回族自治州,新华街21号,细颗粒物(PM2.5),115,116,104,87,81,54,,34,34,20,26,11,13,0.9,1
2026-01-02T1500,1618A,118.3429,35.0532,临沂市,沂河小区,,49,48,46,34,35,63,,52,52,24,26,11,11,0.5,0.6
2026-01-02T1500,1619A,118.2962,35.0568,临沂市,鲁南制药厂,,49,,47,34,36,69,,46,46,22,31,12,13,0.4,0.5
2026-01-02T1500,1620A,118.2793,34.9976,临沂市,新光毛纺厂,,40,34,43,28,31,71,,52,52,11,23,10,12,0.4,0.5
2026-01-02T1500,1621A,118.3955,35.0889,临沂市,河东保险公司,,30,27,41,21,25,71,,59,59,14,19,10,10,0.5,0.5
2026-01-02T1500,3370A,118.3563,35.0215,临沂市,十里堡居委,,39,39,41,24,20,73,,55,55,22,29,12,11,0.6,0.6
2026-01-02T1500,3496A,118.359,35.1067,临沂市,南坊新区,,46,46,43,24,28,65,,55,55,24,26,12,11,0.4,0.4
2026-01-02T1500,3860A,118.3915,35.0297,临沂市,皇山花园小区,,,,43,,25,68,,58,58,25,25,,12,0.5,0.6
2026-01-02T1500,1870A,109.4854,24.3898,柳州市,柳东小学,,26,19,16,18,15,73,,58,58,7,7,8,7,0.6,0.6
2026-01-02T1500,1871A,109.4109,24.3304,柳州市,环保监测站,,23,18,16,15,10,71,,53,53,10,11,5,5,0.4,0.6
2026-01-02T1500,1872A,109.3886,24.3408,柳州市,河西水厂,,29,29,20,16,15,78,,51,51,10,19,5,7,0.4,0.9
2026-01-02T1500,1873A,109.4263,24.2951,柳州市,市四中,,25,23,12,17,12,72,,56,56,11,11,8,8,0.5,0.6
2026-01-02T1500,1874A,109.396,24.3658,柳州市,市九中,,28,,17,19,11,77,,49,49,8,12,7,7,0.5,0.6
2026-01-02T1500,1875A,109.4912,24.3164,柳州市,古亭山,,26,26,9,10,4,73,,60,60,7,7,9,8,0.5,0.6
2026-01-02T1500,3402A,109.5422,24.3994,柳州市,市二中,,24,,13,16,14,74,,60,60,9,10,8,7,0.5,0.6
2026-01-02T1500,2307A,116.5078,31.7369,六安市,监测大楼,细颗粒物(PM2.5),60,49,35,43,29,78,,63,63,14,13,3,2,0.5,0.4
2026-01-02T1500,2308A,116.4738,31.7642,六安市,皖西学院,细颗粒物(PM2.5),59,61,48,42,30,83,,67,67,12,14,4,2,0.5,0.3
2026-01-02T1500,2309A,116.4997,31.7904,六安市,朝阳厂,细颗粒物(PM2.5),57,53,39,40,29,84,,64,64,17,13,6,4,0.5,0.4
2026-01-02T1500,2310A,116.5566,31.7885,六安市,开发区,细颗粒物(PM2.5),59,50,43,42,33,86,,63,63,14,14,1,3,0.4,0.3
2026-01-02T1500,2577A,104.8293,26.592,六盘水市,黄土坡,,16,13,19,7,17,49,,34,34,18,18,4,5,0.8,0.9
2026-01-02T1500,2579A,104.8481,26.5898,六盘水市,民中,,18,18,24,12,17,26,,33,24,18,16,3,4,0.8,0.8
2026-01-02T1500,2580A,104.9541,26.5506,六盘水市,双水,,14,14,21,9,14,37,,35,33,13,13,3,3,0.6,0.6
2026-01-02T1500,4151A,104.8899,26.5685,六盘水市,钟山大道中段564号,,12,12,21,8,14,32,,34,28,12,11,8,6,0.9,0.9
2026-01-02T1500,2336A,117.022,25.1031,龙岩市,龙岩市监测站,,21,14,13,8,9,67,,57,57,8,10,7,11,0.4,0.4
2026-01-02T1500,2337A,117.0257,25.0662,龙岩市,闽西职业技术学院,,23,22,12,3,8,72,,62,62,6,7,5,5,0.4,0.4
2026-01-02T1500,2338A,117.0195,25.0306,龙岩市,龙岩学院,,22,19,13,7,9,69,,58,58,5,7,6,7,/,/
2026-01-02T1500,2885A,104.9344,33.3827,陇南市,滨江中学,颗粒物(PM10),56,61,72,29,42,52,,63,43,20,19,6,5,0.9,0.9
2026-01-02T1500,3247A,104.9551,33.3709,陇南市,市总工会,细颗粒物(PM2.5),58,62,82,41,50,51,,60,42,20,19,3,3,1.1,1.1
2026-01-02T1500,2488A,111.9984,27.7346,娄底市,市监测站,细颗粒物(PM2.5),59,48,45,42,44,79,,63,63,8,11,3,4,0.5,0.4
2026-01-02T1500,2491A,111.9888,27.7035,娄底市,市政府,细颗粒物(PM2.5),62,56,42,44,43,76,,62,62,10,9,3,4,0.5,0.3
2026-01-02T1500,4127A,111.9812,27.7591,娄底市,涟钢职大,细颗粒物(PM2.5),53,54,43,37,30,80,,66,66,9,10,3,3,0.4,0.4
2026-01-02T1500,4128A,112.0303,27.7457,娄底市,娄底体校,,,54,45,39,37,63,,52,52,,11,1,2,0.5,0.3
2026-01-02T1500,1894A,105.4427,28.9063,泸州市,小市上码头,,43,36,16,30,13,39,,36,36,17,13,6,6,0.9,0.8
2026-01-02T1500,1895A,105.4241,28.8573,泸州市,兰田宪桥,,42,36,16,29,14,39,,38,38,17,14,7,7,1.0,1
2026-01-02T1500,1896A,105.4378,28.8833,泸州市,市环监站,,38,34,14,26,12,42,,37,37,20,12,8,8,0.7,0.7
2026-01-02T1500,4272A,105.3689,28.7783,泸州市,纳溪中医医院,细颗粒物(PM2.5),54,43,20,38,17,37,,38,34,16,12,7,7,0.9,0.9
2026-01-02T1500,2183A,111.1447,37.5212,吕梁市,环保局,,46,45,66,32,30,39,,24,24,31,39,10,9,1.0,0.6
2026-01-02T1500,2185A,111.1285,37.5338,吕梁市,自来水公司,,46,46,87,21,33,37,,25,25,32,35,9,10,1.1,0.7
2026-01-02T1500,2867A,111.1225,37.5093,吕梁市,马茂庄小学,颗粒物(PM10),54,58,82,21,33,33,,19,19,32,38,11,10,0.9,0.6
2026-01-02T1500,1812A,112.3934,34.6517,洛阳市,市委党校,细颗粒物(PM2.5),95,78,84,71,78,75,,39,39,18,28,10,8,0.7,0.8
2026-01-02T1500,1815A,112.494,34.6883,洛阳市,河南林校,细颗粒物(PM2.5),107,82,88,80,81,72,,28,28,15,32,11,9,0.8,1
2026-01-02T1500,1816A,112.3843,34.623,洛阳市,开发区管委会,细颗粒物(PM2.5),112,90,86,84,80,73,,41,41,15,21,8,7,0.7,0.8
2026-01-02T1500,1817A,112.4263,34.6249,洛阳市,市委新办公区,细颗粒物(PM2.5),107,83,90,80,83,80,,45,45,15,20,10,8,0.7,0.8
2026-01-02T1500,3340A,112.6005,34.6323,洛阳市,伊滨,细颗粒物(PM2.5),118,96,91,89,79,73,,29,29,26,27,8,6,0.9,1
2026-01-02T1500,3341A,112.495,34.6338,洛阳市,中移产业园,细颗粒物(PM2.5),107,,84,80,83,77,,30,30,24,37,8,8,0.7,0.9
2026-01-02T1500,3593A,112.5736,34.8993,洛阳市,吉利监测站,细颗粒物(PM2.5),134,,87,102,89,60,,30,30,22,34,8,6,1.0,1.1
2026-01-02T1500,3635A,112.3678,34.6623,洛阳市,河科大西苑校区,细颗粒物(PM2.5),102,81,88,76,75,79,,40,40,17,27,8,8,0.7,0.8
2026-01-02T1500,3636A,112.4387,34.678,洛阳市,英才小学,细颗粒物(PM2.5),113,88,95,85,86,80,,41,41,22,37,10,9,0.8,0.9
2026-01-02T1500,4214A,112.460027,34.694929,洛阳市,春都路1号院,,,101,102,75,71,64,,33,33,13,30,,9,0.9,1.1
2026-01-02T1500,2399A,114.051,33.5721,漯河市,三五一五工厂,细颗粒物(PM2.5),103,116,99,77,77,77,,44,44,12,27,8,6,0.8,0.9
2026-01-02T1500,2400A,114.0055,33.5698,漯河市,漯河大学,细颗粒物(PM2.5),113,95,80,85,77,74,,38,38,19,28,6,5,0.7,0.7
2026-01-02T1500,2401A,114.0134,33.5826,漯河市,市水利局,细颗粒物(PM2.5),119,,82,90,78,59,,40,40,21,30,7,6,0.8,0.7
2026-01-02T1500,2402A,114.0261,33.5697,漯河市,市广电局,细颗粒物(PM2.5),115,,81,87,81,80,,43,43,12,24,7,6,0.6,0.6
2026-01-02T1500,3478A,113.9691,33.568,漯河市,市图书馆,细颗粒物(PM2.5),119,105,89,90,78,64,,29,29,16,25,3,4,0.9,0.9
2026-01-02T1500,4250A,114.089259,33.588274,漯河市,韶山路11号,细颗粒物(PM2.5),123,116,98,93,83,54,,29,29,22,35,6,6,0.7,0.7
2026-01-02T1500,1798A,118.5084,31.6838,马鞍山市,湖东路四小,颗粒物(PM10),65,79,63,42,49,66,,37,37,26,24,12,6,0.9,0.7
2026-01-02T1500,1799A,118.5019,31.6449,马鞍山市,开发区,细颗粒物(PM2.5),73,87,64,53,53,68,,38,38,23,26,11,8,1.0,0.9
2026-01-02T1500,3633A,118.4914,31.681,马鞍山市,雨山,颗粒物(PM10),76,102,70,47,51,64,,34,34,30,30,19,14,1.4,1
2026-01-02T1500,4191A,118.527362,31.722269,马鞍山市,慈湖高新区,细颗粒物(PM2.5),58,55,60,41,56,73,,42,41,20,22,6,4,0.5,0.4
2026-01-02T1500,1686A,111.0285,21.469,茂名市,电白南海,,36,36,59,22,39,94,,63,63,12,16,9,10,0.7,0.8
2026-01-02T1500,1687A,110.9294,21.6533,茂名市,茂石化七小,,49,48,56,34,36,101,,63,63,13,17,10,10,0.8,0.8
2026-01-02T1500,1688A,110.9108,21.6688,茂名市,健康路,,35,31,49,24,36,107,,67,67,14,19,9,13,0.8,0.9
2026-01-02T1500,1689A,110.8592,21.6826,茂名市,高岭,,44,44,62,17,34,104,,62,62,13,17,8,15,/,/
2026-01-02T1500,3450A,111.0101,21.5165,茂名市,电白水东,,29,29,48,14,33,92,,63,63,10,15,10,11,/,/
2026-01-02T1500,2540A,103.8414,30.0871,眉山市,气象局,细颗粒物(PM2.5),58,51,48,41,37,39,,54,45,27,21,8,7,0.7,0.7
2026-01-02T1500,3148A,103.829,30.0563,眉山市,区人社局,,42,42,45,22,29,38,,55,46,30,24,3,4,0.7,0.7
2026-01-02T1500,4148A,103.8836,30.0695,眉山市,眉职院,,29,29,41,16,26,52,,51,49,13,15,4,4,0.9,0.9
2026-01-02T1500,1690A,116.1248,24.3307,梅州市,梅江月梅,,23,17,17,9,16,72,,59,59,10,12,/,/,/,/
2026-01-02T1500,1691A,116.0798,24.2719,梅州市,梅县新城,,23,16,18,6,14,71,,62,62,11,13,7,7,0.4,0.4
2026-01-02T1500,3315A,116.1234,24.2994,梅州市,梅龙,,22,14,18,7,14,69,,56,56,8,10,8,8,0.4,0.5
2026-01-02T1500,1878A,104.7775,31.4741,绵阳市,富乐山,,49,38,43,34,39,62,,65,64,10,12,11,11,0.7,0.8
2026-01-02T1500,1880A,104.6698,31.4668,绵阳市,高新区自来水公司,,49,35,48,34,44,58,,61,61,18,22,8,8,0.6,0.7
2026-01-02T1500,3491A,104.6899,31.5324,绵阳市,西科大附属小学,,42,38,53,29,43,64,,64,64,12,18,8,8,1.0,1
2026-01-02T1500,3492A,104.5647,31.5343,绵阳市,安州区旅游局,细颗粒物(PM2.5),55,,52,39,51,57,,57,57,14,22,12,13,0.6,0.8
2026-01-02T1500,4146A,104.7092,31.4972,绵阳市,科技城新区公安局,细颗粒物(PM2.5),53,39,51,37,43,64,,65,65,11,21,3,4,0.7,1
2026-01-02T1500,4226A,104.765114,31.453094,绵阳市,绵阳市气象局,,48,34,42,33,38,56,,66,61,14,16,18,13,0.6,0.8
2026-01-02T1500,1784A,129.61,44.561,牡丹江市,环保大楼,,,,38,,26,58,,44,44,,12,8,9,0.7,0.8
2026-01-02T1500,1787A,129.6364,44.6075,牡丹江市,机车工厂,,33,33,38,20,23,62,,45,45,8,16,2,3,0.3,0.3
2026-01-02T1500,1788A,129.6386,44.5462,牡丹江市,第一中学,,33,32,31,23,26,56,,43,43,5,11,4,4,0.3,0.4
2026-01-02T1500,4287A,129.5992,44.5964,牡丹江市,东晓云街98号,,29,29,38,14,32,58,,42,42,7,12,3,4,0.5,0.6
2026-01-02T1500,2531A,105.0703,29.61,内江市,市监测站,,29,24,20,20,19,35,,46,34,21,15,4,4,0.3,0.4
2026-01-02T1500,2533A,105.0657,29.5807,内江市,内江二中,,,26,28,19,17,35,,38,31,16,18,3,4,,0.8
2026-01-02T1500,2534A,105.0407,29.5828,内江市,内江日报社,,23,17,26,16,18,34,,40,29,18,18,2,2,0.6,0.6
2026-01-02T1500,4147A,105.0433,29.6105,内江市,玉峰路西段888号,,22,18,21,15,16,41,,50,38,17,13,3,3,0.7,0.6
2026-01-02T1500,2628A,92.0653,31.4846,那曲市,那曲监测站,,34,34,49,7,33,87,,52,52,7,26,8,12,0.5,1.3
2026-01-02T1500,4243A,92.0515,31.4787,那曲市,那曲市委宣传部,,,16,31,3,17,92,,49,49,,20,,9,0.4,1.3
2026-01-02T1500,1291A,115.8887,28.7006,南昌市,省林业公司,,49,39,22,34,25,77,,67,67,2,3,3,4,0.8,0.8
2026-01-02T1500,1292A,115.813,28.7443,南昌市,林科所,,49,36,21,34,20,77,,64,64,9,15,5,4,0.5,0.4
2026-01-02T1500,1294A,115.8518,28.687,南昌市,建工学校,细颗粒物(PM2.5),54,54,34,38,26,68,,58,58,17,18,11,11,0.5,0.4
2026-01-02T1500,1295A,115.8926,28.6425,南昌市,象湖,,45,37,29,31,24,68,,58,58,14,15,8,8,0.6,0.6
2026-01-02T1500,3046A,115.9084,28.6062,南昌市,机电学校,,49,42,31,34,27,73,,63,63,10,10,4,4,0.5,0.5
2026-01-02T1500,3690A,115.9718,28.7032,南昌市,外国语学校,,46,40,28,32,27,67,,59,59,16,17,9,9,0.5,0.5
2026-01-02T1500,4106A,115.7923,28.6873,南昌市,工业二路,细颗粒物(PM2.5),52,43,32,36,23,73,,62,62,7,8,4,5,0.3,0.3
2026-01-02T1500,4192A,115.931587,28.686774,南昌市,南京东路235号,,50,46,41,35,23,73,,64,64,21,20,4,4,0.1,0.2
2026-01-02T1500,1906A,106.0791,30.8022,南充市,南充市委,,32,27,29,22,26,23,,38,34,24,22,4,4,0.7,0.7
2026-01-02T1500,1907A,106.1038,30.8215,南充市,南充炼油厂,,49,38,42,34,32,29,,43,37,16,17,5,5,0.4,0.4
2026-01-02T1500,4227A,106.108336,30.788436,南充市,梨树横街98号,,30,30,29,19,23,29,,53,42,17,17,5,5,0.6,0.6
2026-01-02T1500,4304A,106.1172,30.843,南充市,清泉寺北路188号,,26,22,23,18,24,36,,52,46,10,11,7,6,0.8,0.8
2026-01-02T1500,4305A,106.067,30.7616,南充市,同庆路1号,,42,,28,29,27,26,,43,36,21,21,6,6,0.5,0.5
2026-01-02T1500,1151A,118.8033,32.1085,南京市,迈皋桥,,33,33,51,17,35,73,,55,55,2,9,4,4,0.7,0.8
2026-01-02T1500,1152A,118.7487,32.057,南京市,草场门,,36,36,49,24,37,61,,42,42,15,20,8,5,0.3,0.3
2026-01-02T1500,1154A,118.770105,32.004342,南京市,中华门,,35,34,49,24,38,68,,45,45,17,15,6,5,0.5,0.5
2026-01-02T1500,1155A,118.8059,32.0329,南京市,瑞金路,,41,41,52,22,41,62,,45,45,26,19,4,4,1.0,0.7
2026-01-02T1500,1156A,118.7946,32.0774,南京市,玄武湖,,33,33,49,22,35,64,,46,46,19,16,4,4,0.9,0.6
2026-01-02T1500,1157A,118.6415,32.0964,南京市,浦口,,35,32,53,24,40,68,,46,46,14,18,8,7,0.5,0.5
2026-01-02T1500,1158A,118.730129,32.000956,南京市,奥体中心,,35,34,52,24,40,79,,54,54,15,19,7,5,0.4,0.5
2026-01-02T1500,1159A,118.9072,32.1047,南京市,仙林大学城,,41,41,49,19,34,65,,48,48,13,18,7,5,0.6,0.6
2026-01-02T1500,3422A,118.8443,31.919,南京市,江宁彩虹桥,颗粒物(PM10),54,58,56,31,38,65,,47,47,19,15,6,4,0.7,0.5
2026-01-02T1500,3427A,118.8497,32.3599,南京市,六合雄州,,30,29,52,21,33,67,,52,52,13,19,9,7,0.4,0.4
2026-01-02T1500,4086A,118.7641,32.0841,南京市,新模范马路66号,,42,42,55,3,40,62,,44,44,13,16,8,5,0.8,0.8
2026-01-02T1500,4249A,118.8707617,31.34017673,南京市,汶溪路181号,细颗粒物(PM2.5),95,81,47,71,45,66,,58,52,26,21,5,7,0.6,0.4
2026-01-02T1500,4312A,119.019,31.6512,南京市,中山西路1号,细颗粒物(PM2.5),52,44,42,36,41,64,,43,43,21,19,4,4,0.5,0.4
2026-01-02T1500,1401A,108.3098,22.788,南宁市,二十一中,,24,24,12,7,8,46,,34,34,14,14,4,4,0.8,0.9
2026-01-02T1500,1402A,108.3135,22.8529,南宁市,北湖,,19,19,15,7,10,56,,41,40,12,14,2,2,0.7,0.8
2026-01-02T1500,1403A,108.3205,22.8222,南宁市,市监测站,,31,31,17,13,16,48,,34,32,7,9,5,5,0.6,0.7
2026-01-02T1500,1404A,108.3828,22.8038,南宁市,大自然花园,,18,14,15,11,12,55,,44,44,11,13,5,5,0.6,0.7
2026-01-02T1500,1406A,108.2397,22.8462,南宁市,区农职院,,,34,16,17,12,46,,42,41,16,14,8,8,,0.9
2026-01-02T1500,1407A,108.3285,22.7356,南宁市,英华嘉园,,22,22,15,11,9,53,,40,40,8,15,2,2,0.6,0.7
2026-01-02T1500,3401A,108.4829,22.762,南宁市,红星社区,,18,14,13,11,11,56,,46,46,7,8,5,4,0.6,0.7
2026-01-02T1500,4132A,108.2927,23.1477,南宁市,起凤路9号,,29,26,14,20,11,54,,47,45,7,7,2,2,0.8,0.9
2026-01-02T1500,4221A,108.2177,22.7774,南宁市,乐贤路16号,,23,23,19,16,16,49,,38,38,2,15,2,2,0.6,0.7
2026-01-02T1500,2332A,118.1682,26.6371,南平市,南平市监测站,,23,11,10,3,6,73,,60,60,6,8,4,3,0.4,0.4
2026-01-02T1500,2334A,118.1757,26.6276,南平市,南平七中,,24,23,11,9,8,75,,62,62,7,9,6,6,0.4,0.5
2026-01-02T1500,1168A,120.9056,31.9669,南通市,狼山街道,,22,22,25,10,17,66,,59,59,4,8,2,3,0.4,0.5
2026-01-02T1500,1170A,120.8635,32.0231,南通市,城中,,24,24,29,9,18,61,,54,54,4,11,3,3,0.4,0.6
2026-01-02T1500,1171A,120.9376,31.9301,南通市,星湖花园,,25,25,25,8,18,66,,60,60,7,10,3,4,0.5,0.6
2026-01-02T1500,1172A,120.8053,32.046,南通市,紫琅学院,,22,22,29,6,17,68,,58,58,6,12,3,4,0.3,0.4
2026-01-02T1500,3291A,121.0631,32.0644,南通市,通州监测站,,21,17,22,7,16,65,,59,59,9,14,2,3,0.3,0.4
2026-01-02T1500,3432A,120.9348,31.9874,南通市,环境教育馆,,31,31,27,3,18,66,,59,59,7,10,4,5,0.3,0.4
2026-01-02T1500,4091A,120.8692,31.9885,南通市,洪江路,,23,23,30,8,16,65,,56,56,6,13,4,4,0.3,0.3
2026-01-02T1500,2404A,112.5338,33.0086,南阳市,瓦房庄,细颗粒物(PM2.5),142,,77,108,71,59,,35,35,15,18,7,5,0.8,0.7
2026-01-02T1500,2405A,112.5002,32.9734,南阳市,汉画馆,细颗粒物(PM2.5),123,108,74,93,63,61,,33,33,15,20,6,6,0.8,0.8
2026-01-02T1500,2406A,112.5778,33.0144,南阳市,气象站,细颗粒物(PM2.5),119,113,84,90,65,58,,37,37,15,20,5,4,0.8,0.7
2026-01-02T1500,2407A,112.548,32.9687,南阳市,理工学院,细颗粒物(PM2.5),93,96,74,69,56,62,,41,41,17,20,5,5,0.9,0.8
2026-01-02T1500,4008A,112.5233,32.9921,南阳市,卧龙区政府,细颗粒物(PM2.5),125,115,84,95,67,58,,36,36,17,20,6,4,0.9,0.8
2026-01-02T1500,1234A,121.8352,29.9111,宁波市,区环保大楼,,42,42,38,24,18,69,,58,58,18,15,7,6,0.6,0.6
2026-01-02T1500,1235A,121.5595,29.8208,宁波市,万里学院,细颗粒物(PM2.5),63,66,36,45,29,72,,62,62,18,15,6,4,0.5,0.6
2026-01-02T1500,1236A,121.713,29.9564,宁波市,龙赛医院,,38,38,36,21,22,68,,55,55,14,18,4,4,0.5,0.5
2026-01-02T1500,1240A,121.5855,29.8635,宁波市,太古小学,颗粒物(PM10),51,51,37,33,20,78,,67,67,13,11,4,3,0.5,0.5
2026-01-02T1500,1241A,121.5239,29.8673,宁波市,市环境监测中心,颗粒物(PM10),54,57,36,27,18,71,,60,60,14,14,7,5,0.6,0.6
2026-01-02T1500,2871A,121.6156,29.9015,宁波市,万里国际学校,细颗粒物(PM2.5),57,45,30,40,25,76,,65,65,16,15,6,4,0.4,0.4
2026-01-02T1500,3710A,121.5593,29.8976,宁波市,白沙活动中心,,43,38,23,30,17,73,,63,63,18,14,6,4,0.5,0.5
2026-01-02T1500,4095A,121.8962,29.7529,宁波市,中科路88号,,35,34,27,24,20,78,,64,64,9,8,5,4,0.6,0.6
2026-01-02T1500,2341A,119.5387,26.6611,宁德市,宁德市监测站,,25,19,19,7,9,77,,56,56,11,17,7,6,0.4,0.4
2026-01-02T1500,3209A,119.5231,26.6562,宁德市,宁德一中,,25,17,19,15,12,80,,59,59,9,14,5,5,0.5,0.4
2026-01-02T1500,2618A,98.859,25.8541,怒江傈僳族自治州,州监测站,,26,22,34,17,24,82,,49,49,6,12,7,7,0.4,0.4
2026-01-02T1500,2619A,98.8607,25.8168,怒江傈僳族自治州,泸水一中,,37,37,33,25,25,74,,42,42,7,17,6,6,0.3,0.7
2026-01-02T1500,1888A,101.6891,26.571,攀枝花市,弄弄坪,,32,30,61,22,33,92,,47,47,14,34,15,20,0.9,1.5
2026-01-02T1500,1889A,101.577,26.5914,攀枝花市,河门口,,29,28,44,15,28,90,,44,44,14,21,28,19,1.9,1.2
2026-01-02T1500,1891A,101.7365,26.4986,攀枝花市,仁和,,30,30,48,19,30,89,,44,44,10,23,13,12,0.6,1.2
2026-01-02T1500,2835A,101.7222,26.567,攀枝花市,四十中小,,43,42,60,30,40,85,,39,39,13,37,18,16,1.2,1.5
2026-01-02T1500,1604A,122.0303,41.1489,盘锦市,开发区,,28,28,42,13,32,51,,32,32,9,20,1,4,0.7,1
2026-01-02T1500,1605A,122.0486,41.0883,盘锦市,兴隆台,,20,19,43,14,30,55,,32,32,14,32,5,8,0.6,0.9
2026-01-02T1500,1606A,121.8297,41.1026,盘锦市,新生街道,,36,36,39,8,22,61,,41,41,10,23,12,7,0.4,0.7
2026-01-02T1500,1832A,113.3257,33.7423,平顶山市,新华旅馆,细颗粒物(PM2.5),117,96,112,88,89,81,,42,42,17,38,12,8,0.9,1.1
2026-01-02T1500,1833A,113.2917,33.737,平顶山市,规划设计院,细颗粒物(PM2.5),104,107,119,78,94,87,,40,40,21,43,9,5,0.7,0.9
2026-01-02T1500,1834A,113.182,33.7738,平顶山市,平顶山工学院,细颗粒物(PM2.5),107,91,100,80,92,89,,44,44,15,23,8,6,0.4,0.6
2026-01-02T1500,3594A,112.8736,33.9068,平顶山市,石龙区,细颗粒物(PM2.5),127,107,92,96,83,85,,45,45,20,26,11,7,1.0,1
2026-01-02T1500,4116A,113.284,33.7139,平顶山市,姚电大道23号,细颗粒物(PM2.5),103,85,137,77,106,90,,34,34,11,34,8,6,0.8,1.1
2026-01-02T1500,2656A,106.6633,35.5338,平凉市,聚贤嘉苑,细颗粒物(PM2.5),58,57,53,41,38,72,,59,59,20,23,7,8,0.8,0.9
2026-01-02T1500,2657A,106.7021,35.5307,平凉市,博物馆,细颗粒物(PM2.5),65,57,58,47,45,73,,51,51,22,27,8,9,0.8,0.9
2026-01-02T1500,2348A,113.8384,27.6436,萍乡市,中医院,,38,38,45,21,34,61,,32,32,13,20,4,4,0.7,1
2026-01-02T1500,2350A,113.8677,27.6438,萍乡市,市环保局,,39,32,38,27,34,78,,40,40,10,20,10,13,0.2,0.5
2026-01-02T1500,2351A,113.8663,27.6202,萍乡市,安源区政府,,36,27,48,25,35,55,,25,25,14,22,8,11,0.7,0.8
2026-01-02T1500,4107A,113.8686,27.6668,萍乡市,联洪村委会,,46,,39,32,29,58,,34,34,12,20,5,3,0.6,0.9
2026-01-02T1500,2319A,119.0142,25.4324,莆田市,荔城区仓后路,,22,22,23,10,13,69,,59,59,10,11,/,/,/,/
2026-01-02T1500,2320A,119.0016,25.4553,莆田市,莆田市监测站,,23,22,18,8,13,71,,63,63,9,8,4,4,0.5,0.5
2026-01-02T1500,2321A,119.112,25.4561,莆田市,涵江区六中,,31,31,22,10,12,73,,54,54,10,11,/,/,0.5,0.4
2026-01-02T1500,2322A,119.1014,25.3215,莆田市,秀屿区政府,颗粒物(PM10),53,56,24,14,10,85,,58,58,7,7,4,2,0.5,0.5
2026-01-02T1500,2392A,115.0312,35.7636,濮阳市,环保局,,32,32,59,7,45,56,,36,36,22,32,7,7,1.1,1.3
2026-01-02T1500,3021A,115,35.7667,濮阳市,濮水河管理处,,40,40,77,18,55,68,,44,44,27,40,9,7,0.6,0.8
2026-01-02T1500,4118A,115.0552,35.7816,濮阳市,中原东路68号,,45,45,81,19,53,70,,45,45,15,33,8,8,0.5,0.8
2026-01-02T1500,4216A,115.0923632,35.76857718,濮阳市,任丘路479号,,39,39,69,11,54,63,,40,40,16,35,7,7,0.3,0.7
2026-01-02T1500,2601A,100.9801,22.7634,普洱市,市环保局,,37,37,43,18,20,73,,36,36,5,11,4,4,0.3,0.4
2026-01-02T1500,2602A,100.9763,22.8237,普洱市,普洱第二中学,,35,35,35,12,19,74,,40,40,4,17,4,5,0.3,0.4
2026-01-02T1500,3345A,131.0413,45.7795,七台河市,中波台,,28,28,33,15,25,55,,42,42,7,15,7,9,0.4,0.5
2026-01-02T1500,3637A,131.0136,45.7688,七台河市,人民广场,,39,30,44,27,36,50,,41,41,15,22,9,10,0.5,0.5
2026-01-02T1500,3684A,130.8639,45.8144,七台河市,新建矿广场,,31,31,37,17,25,51,,39,39,6,13,7,10,0.3,0.5
2026-01-02T1500,1779A,123.9307,47.3641,齐齐哈尔市,安居小区,,32,32,31,3,17,53,,50,47,15,19,5,6,0.5,0.5
2026-01-02T1500,1780A,123.9497,47.3389,齐齐哈尔市,中心广场,,30,30,21,9,14,46,,58,46,20,16,6,7,0.5,0.6
2026-01-02T1500,1781A,123.9483,47.3229,齐齐哈尔市,农牧车辆厂,,,,26,2,11,50,,56,37,11,15,4,5,0.3,0.7
2026-01-02T1500,1783A,123.9442,47.2994,齐齐哈尔市,市环境监测站,,19,19,29,8,15,58,,52,42,10,18,7,8,0.3,0.5
2026-01-02T1500,3662A,123.6341,47.2079,齐齐哈尔市,富区青少年活动中心,,37,37,40,9,23,60,,49,40,8,21,4,9,0.5,0.9
2026-01-02T1500,2591A,107.9765,26.5724,黔东南苗族侗族自治州,市环境监测站,,48,34,28,33,28,49,,55,52,13,10,5,4,0.7,0.6
2026-01-02T1500,2881A,107.8909,26.531,黔东南苗族侗族自治州,凯里学院,,38,31,30,26,25,52,,58,57,14,12,4,4,0.6,0.6
2026-01-02T1500,2593A,107.5223,26.2371,黔南布依族苗族自治州,小围寨,,25,17,15,17,15,54,,51,51,5,6,3,4,0.7,0.7
2026-01-02T1500,3538A,107.5175,26.2977,黔南布依族苗族自治州,沙坝,,32,27,21,22,19,52,,52,49,10,10,4,4,0.7,0.7
2026-01-02T1500,2589A,104.9022,25.0943,黔西南布依族苗族自治州,场坝街,,15,15,26,9,18,35,,38,37,8,9,5,5,0.8,0.7
2026-01-02T1500,2590A,104.8812,25.0994,黔西南布依族苗族自治州,坪东大道,,17,17,25,9,18,34,,41,38,8,8,4,5,0.8,0.7
2026-01-02T1500,2502A,108.6238,21.9667,钦州市,市环保站,,,34,30,,18,45,,36,36,16,17,3,3,1.1,1.2
2026-01-02T1500,2503A,108.655,21.9481,钦州市,沙埠小学,,21,21,27,6,9,47,,39,39,19,17,4,4,0.6,0.7
2026-01-02T1500,2504A,108.5989,21.7435,钦州市,港区一小,,49,49,43,19,24,39,,30,30,22,24,7,7,0.9,0.8
2026-01-02T1500,3404A,108.5959,21.9634,钦州市,北职校,,28,23,23,19,16,48,,36,36,7,11,7,6,0.7,0.9
2026-01-02T1500,1046A,119.5247,39.9346,秦皇岛市,建设大厦,,38,38,42,20,28,61,,36,36,13,34,12,7,0.4,0.5
2026-01-02T1500,3132A,119.5979,39.938,秦皇岛市,文明里,,37,37,40,12,16,55,,33,33,14,33,14,10,0.4,0.5
2026-01-02T1500,4066A,119.7458,39.9952,秦皇岛市,南园路157号,,48,41,54,33,24,49,,29,29,20,40,10,8,0.5,0.7
2026-01-02T1500,4067A,119.5131,39.8858,秦皇岛市,翠岛大街1号,,38,38,30,16,10,51,,37,37,21,26,20,9,0.7,0.6
2026-01-02T1500,4198A,119.509013,39.825305,秦皇岛市,北戴河轮滑馆,,,42,30,19,20,59,,42,42,18,19,18,8,,0.7
2026-01-02T1500,1310A,120.404,36.0625,青岛市,市南区东部子站,颗粒物(PM10),51,51,33,27,14,67,,54,54,14,12,14,10,0.7,0.5
2026-01-02T1500,1311A,120.362344,36.10282,青岛市,四方区子站,,49,46,33,34,16,68,,53,53,10,9,8,4,0.6,0.5
2026-01-02T1500,1312A,120.294373,36.054183,青岛市,市南区西部子站,,42,39,27,29,12,61,,50,50,11,8,7,5,0.5,0.4
2026-01-02T1500,1313A,120.4581,36.0858,青岛市,崂山区子站,,46,46,28,24,12,69,,52,52,17,15,14,11,0.7,0.5
2026-01-02T1500,1315A,120.3945,36.3083,青岛市,城阳区子站,颗粒物(PM10),51,51,34,29,16,73,,54,54,12,16,10,8,0.8,0.7
2026-01-02T1500,3642A,120.3454,36.0735,青岛市,市北区南部,,46,46,37,22,13,60,,48,48,11,11,8,6,0.7,0.6
2026-01-02T1500,3643A,120.3897,36.18,青岛市,李沧区北部,,,51,34,,20,65,,45,45,10,16,14,10,0.7,0.7
2026-01-02T1500,4110A,120.5222,36.4089,青岛市,盟旺路653号,颗粒物(PM10),53,55,36,26,16,64,,43,43,16,21,5,4,0.4,0.4
2026-01-02T1500,4290A,120.196923,35.954556,青岛市,珠江路669号,,39,31,28,27,16,73,,60,60,12,13,13,11,0.6,0.4
2026-01-02T1500,4291A,120.0424,35.8656,青岛市,黄岛区人民政府广场,,,,25,17,11,76,,60,60,11,14,9,7,0.7,0.6
2026-01-02T1500,1703A,113.0218,23.7086,清远市,凤城街办,,24,17,15,11,10,75,,62,62,14,14,/,/,/,/
2026-01-02T1500,3025A,113.0479,23.6343,清远市,技师学院,,25,21,20,8,12,77,,64,64,14,16,6,5,0.6,0.6
2026-01-02T1500,3318A,112.9898,23.7403,清远市,清新太和,,25,14,13,10,8,80,,62,62,9,10,6,10,0.4,0.5
2026-01-02T1500,3455A,113.076,23.72,清远市,清城东城,,24,16,16,9,10,76,,65,65,13,14,/,/,/,/
2026-01-02T1500,2661A,107.6325,35.7357,庆阳市,庆阳五中,细颗粒物(PM2.5),72,58,47,52,43,79,,75,75,26,17,13,5,0.7,0.7
2026-01-02T1500,2662A,107.6361,35.7067,庆阳市,市环保局,细颗粒物(PM2.5),84,68,54,62,47,77,,71,67,19,15,4,2,0.5,0.5
2026-01-02T1500,1916A,103.7897,25.5036,曲靖市,环境监测站,,27,13,26,10,12,84,,48,48,6,12,2,3,0.4,0.7
2026-01-02T1500,1917A,103.8013,25.5357,曲靖市,烟厂办公区,,28,20,24,9,14,87,,51,51,5,11,3,4,0.3,0.5
2026-01-02T1500,3376A,103.7926,25.4651,曲靖市,南苑二区,,27,24,25,10,14,85,,53,53,2,8,3,4,0.4,0.7
2026-01-02T1500,3377A,103.7442,25.5259,曲靖市,曲靖师范学院,,28,,25,13,20,89,,55,55,5,9,1,2,0.4,0.6
2026-01-02T1500,1264A,118.8694,28.94,衢州市,环保大楼,,26,23,20,18,16,75,,60,60,10,16,/,/,/,/
2026-01-02T1500,1266A,118.8622,28.9809,衢州市,衢州学院,,23,21,18,16,15,72,,58,58,8,15,4,4,0.1,0.3
2026-01-02T1500,4097A,118.9646,28.9832,衢州市,衢州三中,,23,23,20,16,15,72,,59,59,6,10,4,4,0.3,0.5
2026-01-02T1500,1611A,118.5818,24.9116,泉州市,涂山街,,37,37,26,12,14,77,,64,64,11,12,4,3,0.5,0.5
2026-01-02T1500,1612A,118.597,24.8976,泉州市,津头埔,,36,36,24,11,16,77,,61,61,12,12,5,5,0.5,0.5
2026-01-02T1500,1613A,118.6669,24.9422,泉州市,万安,,41,41,28,10,14,76,,59,59,10,10,4,4,0.5,0.4
2026-01-02T1500,4105A,118.6355,24.9148,泉州市,霞新路6号,,24,22,23,12,15,76,,59,59,11,12,/,/,0.5,0.4
2026-01-02T1500,2626A,88.8873,29.2723,日喀则市,日喀则监测站,,,9,40,,24,98,,69,69,2,26,9,14,0.3,0.8
2026-01-02T1500,3726A,88.8775,29.2425,日喀则市,林业技术推广中心,,30,7,17,3,6,94,,76,76,2,4,9,11,0.3,0.3
2026-01-02T1500,1659A,119.4711,35.421,日照市,监测站,,31,31,27,15,15,67,,49,49,10,19,7,8,0.6,0.6
2026-01-02T1500,1660A,119.523,35.4216,日照市,市政府广场,,27,27,26,12,14,66,,52,52,10,16,9,9,0.3,0.3
2026-01-02T1500,1661A,119.5511,35.4113,日照市,港务局,,30,27,30,21,19,63,,49,49,12,17,8,8,0.3,0.4
2026-01-02T1500,3507A,119.5326,35.4627,日照市,职业技术学院,,24,24,26,9,10,67,,55,55,11,17,7,8,0.6,0.5
2026-01-02T1500,3604A,119.3267,35.1043,日照市,岚山环保分局,颗粒物(PM10),52,53,41,32,27,65,,53,53,15,20,12,15,0.7,0.9
2026-01-02T1500,1835A,111.1922,34.7752,三门峡市,市政府,细颗粒物(PM2.5),123,,73,93,83,76,,41,41,21,31,10,8,0.6,0.7
2026-01-02T1500,1836A,111.1588,34.794,三门峡市,开发区,细颗粒物(PM2.5),118,103,89,89,83,67,,36,36,20,23,6,6,0.7,0.7
2026-01-02T1500,3039A,111.1911,34.7829,三门峡市,三门峡市第一小学,细颗粒物(PM2.5),108,81,76,81,82,71,,38,38,18,29,12,7,0.7,0.8
2026-01-02T1500,3598A,111.1031,34.719,三门峡市,富达温泉假日酒店,细颗粒物(PM2.5),127,,87,96,84,61,,34,34,34,36,20,13,0.7,0.9
2026-01-02T1500,2324A,117.621,26.2626,三明市,三钢,,22,,14,14,14,69,,50,50,7,10,5,4,0.5,0.6
2026-01-02T1500,2325A,117.6352,26.2714,三明市,三明二中,,21,18,16,10,12,67,,48,48,6,9,3,4,0.5,0.6
2026-01-02T1500,2326A,117.6028,26.2377,三明市,三元区政府,,22,19,11,8,11,69,,51,51,7,10,3,3,0.4,0.5
2026-01-02T1500,1877A,109.4962,18.2682,三亚市,河西子站,细颗粒物(PM2.5),68,58,42,49,25,100,,102,97,9,5,4,4,0.6,0.4
2026-01-02T1500,3540A,109.7348,18.3443,三亚市,君悦子站,颗粒物(PM10),66,82,37,27,21,92,,87,87,8,6,6,5,0.6,0.5
2026-01-02T1500,4135A,109.1714,18.3739,三亚市,城东小学站,,49,36,36,34,26,97,,86,86,6,9,/,/,/,/
2026-01-02T1500,2624A,91.7592,29.234,山南市,山南监测站,,31,6,18,3,9,99,,65,65,2,8,5,4,0.2,0.3
2026-01-02T1500,2625A,91.7701,29.2436,山南市,山南人民医院,,31,6,14,3,8,97,,68,68,2,7,2,2,0.2,0.3
2026-01-02T1500,1674A,116.6795,23.3666,汕头市,金平子站,,26,23,29,13,17,82,,66,66,12,14,5,6,0.7,0.7
2026-01-02T1500,1675A,116.7248,23.3632,汕头市,龙湖子站,,24,24,24,12,14,75,,62,62,8,10,9,9,/,/
2026-01-02T1500,1676A,116.7257,23.2774,汕头市,濠江子站,,27,27,28,13,16,72,,59,59,10,14,7,8,/,/
2026-01-02T1500,1677A,116.7518,23.4712,汕头市,澄海子站,,24,22,24,3,15,76,,64,64,10,11,6,6,0.7,0.7
2026-01-02T1500,1678A,116.6088,23.2539,汕头市,潮阳子站,,28,24,28,10,15,87,,69,69,12,13,7,7,0.6,0.7
2026-01-02T1500,3444A,116.4539,23.2684,汕头市,潮南峡山,,26,14,32,7,23,83,,67,67,8,12,8,8,0.5,0.6
2026-01-02T1500,3624A,116.4069,23.2533,汕头市,潮南子站,,25,17,35,9,21,78,,65,65,11,13,6,6,/,/
2026-01-02T1500,1693A,115.3653,22.7751,汕尾市,市环保局,,25,18,27,7,20,78,,73,73,10,10,7,6,0.5,0.5
2026-01-02T1500,1695A,115.362,22.7926,汕尾市,新城中学,,26,19,26,6,18,81,,75,75,6,8,5,5,0.4,0.4
2026-01-02T1500,2645A,109.9155,33.8714,商洛市,监测站,细颗粒物(PM2.5),74,58,60,54,86,81,,60,60,24,20,13,5,0.9,1
2026-01-02T1500,3045A,109.9647,33.8486,商洛市,商州区中学,细颗粒物(PM2.5),75,78,52,55,60,84,,56,56,16,20,12,5,0.9,0.9
2026-01-02T1500,2408A,115.6701,34.4283,商丘市,环境监测站,细颗粒物(PM2.5),69,54,65,50,60,69,,41,41,17,21,6,4,0.6,0.7
2026-01-02T1500,2409A,115.6458,34.4047,商丘市,粮食局,细颗粒物(PM2.5),73,66,67,53,58,66,,41,41,24,23,9,6,0.3,0.5
2026-01-02T1500,3171A,115.6069,34.4465,商丘市,梁园区档案局,颗粒物(PM10),65,79,64,38,56,60,,35,35,19,25,8,6,0.5,0.5
2026-01-02T1500,4119A,115.6701,34.3767,商丘市,北海东路185号,"颗粒物(PM10),细颗粒物(PM2.5)",57,63,70,40,55,66,,40,40,18,21,7,4,0.8,0.8
2026-01-02T1500,4120A,115.6172,34.3704,商丘市,中山大街3号,细颗粒物(PM2.5),69,82,108,50,62,64,,41,41,19,22,7,4,0.5,0.6
2026-01-02T1500,1141A,121.401,31.2382,上海市,普陀,,26,26,29,18,21,67,,55,55,15,20,6,6,0.5,0.6
2026-01-02T1500,1142A,121.4774,31.2043,上海市,十五厂,,30,30,29,17,18,66,,57,57,12,16,6,6,0.5,0.6
2026-01-02T1500,1143A,121.4673,31.3011,上海市,虹口,,29,29,33,11,18,61,,52,52,12,16,10,10,0.1,0.4
2026-01-02T1500,1147A,121.4253,31.226,上海市,静安监测站,,28,26,30,19,20,69,,58,58,12,17,6,7,0.3,0.4
2026-01-02T1500,1148A,121.7029,31.1905,上海市,浦东川沙,,33,33,29,16,16,69,,61,61,9,14,7,7,0.4,0.4
2026-01-02T1500,1149A,121.5339,31.229,上海市,浦东新区监测站,,26,26,29,18,21,66,,55,55,13,18,6,7,0.6,0.7
2026-01-02T1500,1150A,121.5776,31.2038,上海市,浦东张江,,25,25,25,15,16,69,,62,62,11,13,7,7,0.6,0.6
2026-01-02T1500,3265A,121.4242,31.3303,上海市,宝山庙行,,24,24,28,16,18,64,,54,54,10,16,6,6,0.3,0.4
2026-01-02T1500,3266A,121.8789,31.4662,上海市,崇明上实东滩,,21,15,22,8,14,65,,60,60,5,7,4,4,0.1,0.2
2026-01-02T1500,3268A,121.316,31.2839,上海市,嘉定南翔,,35,35,29,15,15,65,,54,54,12,16,4,4,0.4,0.6
2026-01-02T1500,3269A,121.3357,30.7455,上海市,金山新城,,42,35,32,29,30,66,,55,55,18,21,9,8,0.8,0.7
2026-01-02T1500,3270A,121.4996,31.0741,上海市,闵行浦江,,30,30,32,16,20,68,,55,55,9,18,6,7,0.2,0.4
2026-01-02T1500,3271A,121.2886,31.1663,上海市,青浦徐泾,,26,26,29,16,22,69,,54,54,12,19,5,6,0.6,0.7
2026-01-02T1500,3272A,121.2193,31.0382,上海市,松江图书馆,,39,39,34,10,14,68,,56,56,14,18,8,7,0.5,0.4
2026-01-02T1500,3273A,121.3904,31.206,上海市,长宁仙霞,,30,30,29,16,19,67,,55,55,11,19,7,7,0.3,0.4
2026-01-02T1500,3274A,121.7964,31.0507,上海市,浦东惠南,,29,29,29,3,17,70,,59,59,11,18,4,5,0.5,0.6
2026-01-02T1500,3544A,121.4891,30.925,上海市,奉贤南桥新城,,32,32,34,16,23,70,,59,59,12,16,6,8,0.4,0.5
2026-01-02T1500,4183A,121.417401,31.16637,上海市,冠生园路458号,,28,28,29,16,21,69,,58,58,18,21,6,7,0.6,0.7
2026-01-02T1500,4205A,121.541914,31.268301,上海市,宁武路151号,,21,21,26,14,17,65,,57,57,14,17,6,6,0.7,0.7
2026-01-02T1500,2382A,117.9758,28.4439,上饶市,市监测站,,23,19,22,11,11,73,,62,62,9,14,4,4,/,/
2026-01-02T1500,2383A,117.9521,28.4637,上饶市,凤凰光学,,22,19,21,9,10,68,,56,56,8,13,6,8,0.6,0.5
2026-01-02T1500,3685A,117.897,28.4316,上饶市,双创科技城,,23,19,23,13,18,73,,65,65,14,22,3,4,0.5,0.5
2026-01-02T1500,4211A,118.190438,28.444845,上饶市,裕丰大道,,22,13,19,12,14,69,,54,54,11,16,6,7,0.4,0.5
2026-01-02T1500,1669A,113.5821,24.7733,韶关市,市八中,,22,12,13,8,8,69,,46,46,9,14,6,7,0.5,0.6
2026-01-02T1500,1671A,113.5916,24.7973,韶关市,园林处,,23,11,13,9,10,73,,52,52,9,14,6,7,/,/
2026-01-02T1500,1673A,113.5971,24.6864,韶关市,曲江监测站,,22,12,14,8,10,69,,48,48,8,13,6,7,0.3,0.4
2026-01-02T1500,2809A,113.6668,24.7756,韶关市,大学路288号,,23,13,15,11,12,71,,56,56,9,13,5,6,/,/
2026-01-02T1500,3622A,113.5556,24.8082,韶关市,碧湖山庄,,22,12,11,8,8,69,,46,46,10,14,6,5,0.4,0.5
2026-01-02T1500,2464A,111.5277,27.2442,邵阳市,市化工厂,,36,34,35,25,32,71,,57,57,14,14,9,9,0.8,0.7
2026-01-02T1500,2466A,111.4327,27.2276,邵阳市,市环保局,,43,31,26,30,29,75,,57,57,12,12,4,4,0.9,0.8
2026-01-02T1500,4218A,111.446,27.2472,邵阳市,北塔二期4-26地块,,45,45,26,30,32,72,,55,55,11,11,4,4,1.0,0.9
2026-01-02T1500,4219A,111.4739,27.2282,邵阳市,邵水西路287号,,40,40,28,26,31,75,,59,59,16,16,10,10,0.5,0.4
2026-01-02T1500,1247A,120.6053,29.9927,绍兴市,城东开发委,细颗粒物(PM2.5),107,90,49,80,43,75,,62,62,20,17,9,8,0.7,0.6
2026-01-02T1500,2921A,120.5482,30.0003,绍兴市,树下王站,细颗粒物(PM2.5),93,93,51,69,37,69,,56,56,20,20,8,7,0.6,0.5
2026-01-02T1500,3408A,120.5685,29.936,绍兴市,绍兴中专,细颗粒物(PM2.5),102,97,48,76,45,73,,59,59,17,14,8,7,0.6,0.5
2026-01-02T1500,3409A,120.4905,30.086,绍兴市,柯桥区政府,细颗粒物(PM2.5),70,82,50,51,30,76,,61,61,21,22,6,6,0.6,0.5
2026-01-02T1500,3410A,120.8751,30.0249,绍兴市,重华小学,细颗粒物(PM2.5),80,74,43,59,31,74,,57,57,16,17,8,6,0.8,0.6
2026-01-02T1500,3411A,120.837,30.0137,绍兴市,上虞中学,细颗粒物(PM2.5),85,75,44,63,34,76,,57,57,20,21,8,7,0.6,0.5
2026-01-02T1500,3560A,120.4715,30.0414,绍兴市,柯桥妇保,细颗粒物(PM2.5),90,85,51,67,38,74,,60,60,19,17,6,6,0.8,0.7
2026-01-02T1500,3658A,120.6156,30.0762,绍兴市,袍江中学,细颗粒物(PM2.5),95,94,50,71,36,74,,58,58,18,18,6,7,0.8,0.7
2026-01-02T1500,1356A,114.0948,22.5506,深圳市,通心岭子站,,30,18,32,8,17,93,,78,78,7,9,7,6,0.5,0.6
2026-01-02T1500,1357A,114.1153,22.5713,深圳市,洪湖,,29,19,34,8,20,92,,79,79,8,11,8,8,0.6,0.6
2026-01-02T1500,1358A,113.9823,22.5398,深圳市,华侨城,,30,29,33,12,21,93,,73,73,24,20,/,/,/,/
2026-01-02T1500,1359A,113.9181,22.517,深圳市,南海子站,,31,30,40,12,26,98,,76,76,13,14,6,6,0.6,0.7
2026-01-02T1500,1360A,114.2345,22.565,深圳市,盐田,,28,18,32,7,20,87,,75,75,9,13,7,7,0.5,0.6
2026-01-02T1500,1363A,114.4911,22.5381,深圳市,南澳,,30,14,29,7,17,96,,78,78,7,9,/,/,/,/
2026-01-02T1500,1364A,114.41,22.6346,深圳市,葵涌,,,15,27,6,17,86,,75,75,10,11,7,7,,0.7
2026-01-02T1500,1365A,114.2967,22.5978,深圳市,梅沙,,29,19,30,7,19,90,,78,78,9,10,/,/,/,/
2026-01-02T1500,1366A,114.0563,22.7353,深圳市,观澜,,40,40,42,12,23,90,,80,80,22,15,8,7,0.6,0.7
2026-01-02T1500,3305A,114.0614,22.556,深圳市,莲花,,29,22,31,12,20,90,,75,75,14,14,/,/,/,/
2026-01-02T1500,3306A,114.0144,22.6163,深圳市,民治,,31,24,31,12,20,97,,80,80,13,15,/,/,/,/
2026-01-02T1500,3307A,114.1756,22.6421,深圳市,横岗,,30,18,33,10,22,93,,80,80,9,11,/,/,/,/
2026-01-02T1500,3447A,114.344,22.7115,深圳市,坪山,,26,24,36,10,21,83,,72,72,15,16,8,8,0.6,0.6
2026-01-02T1500,3623A,113.8952,22.586,深圳市,西乡,,33,27,37,9,21,103,,82,82,14,16,6,6,0.6,0.7
2026-01-02T1500,4220A,114.214113,22.713717,深圳市,黄阁路,,28,16,29,7,19,88,,77,77,9,9,7,6,0.5,0.6
2026-01-02T1500,1099A,123.5058,41.7084,沈阳市,浑南东路,细颗粒物(PM2.5),82,73,80,60,64,38,,25,25,40,47,15,11,1.0,1.2
2026-01-02T1500,1100A,123.4238,41.6992,沈阳市,新秀街,细颗粒物(PM2.5),75,61,87,55,57,48,,34,34,27,38,12,10,0.9,1.1
2026-01-02T1500,1102A,123.5903,41.8412,沈阳市,东陵路,细颗粒物(PM2.5),84,115,82,62,61,40,,26,26,36,37,15,9,1.1,1.2
2026-01-02T1500,1103A,123.4267,41.8466,沈阳市,陵东街,细颗粒物(PM2.5),88,87,78,65,64,20,,13,13,49,47,39,14,1.1,1.3
2026-01-02T1500,1104A,123.4116,41.7654,沈阳市,文化路,细颗粒物(PM2.5),77,76,93,56,64,38,,27,27,35,40,15,13,0.8,0.9
2026-01-02T1500,1105A,123.4673,41.787,沈阳市,小河沿,细颗粒物(PM2.5),83,85,79,61,62,27,,19,19,46,39,26,18,1.0,1.2
2026-01-02T1500,1106A,123.4019,41.7978,沈阳市,太原街,细颗粒物(PM2.5),85,68,87,63,74,28,,15,15,42,46,24,25,0.8,0.8
