timepoint,stationcode,longitude,latitude,area,positionname,primarypollutant,aqi,pm10,pm10_24h,pm2_5,pm2_5_24h,o3,o3_24h,o3_8h,o3_8h_24h,no2,no2_24h,so2,so2_24h,co,co_24h
2026-01-02T1000,2568A,102.2503,31.8896,阿坝藏族羌族自治州,马师校,,33,,18,23,14,27,,36,33,21,16,5,4,0.7,0.6
2026-01-02T1000,3994A,102.2174,31.9016,阿坝藏族羌族自治州,马尔康中学西区,,10,,13,3,9,32,,42,39,18,14,6,5,0.6,0.5
2026-01-02T1000,2695A,80.2899,41.1684,阿克苏地区,电视台,,,87,53,45,34,6,,24,18,46,24,,4,2.3,0.9
2026-01-02T1000,2696A,80.2592,41.1541,阿克苏地区,艺术中心,细颗粒物(PM2.5),69,69,54,50,40,21,,32,25,24,19,4,4,0.8,0.6
2026-01-02T1000,2205A,105.699,38.8409,阿拉善盟,蒙二幼,,26,22,25,18,23,54,,69,68,30,17,11,11,0.7,0.6
2026-01-02T1000,2206A,105.7198,38.8508,阿拉善盟,环保局新楼,,22,6,20,3,15,70,,78,78,8,10,10,10,0.5,0.6
2026-01-02T1000,2708A,88.1266,47.8515,阿勒泰地区,市站,,21,,14,8,8,66,,81,79,18,30,2,5,0.4,0.3
2026-01-02T1000,4166A,88.1198,47.7931,阿勒泰地区,阿勒泰路33号,,18,6,12,3,3,55,,88,84,34,21,6,5,0.3,0.3
2026-01-02T1000,2630A,80.1171,32.4999,阿里地区,阿里监测站,,20,6,3,3,3,62,,64,57,12,8,9,9,0.5,0.4
2026-01-02T1000,3192A,80.0906,32.5029,阿里地区,阿里藏医院,,20,20,11,8,5,61,,82,75,9,3,12,11,0.5,0.4
2026-01-02T1000,2644A,109.0088,32.6974,安康市,汉滨区检察院,细颗粒物(PM2.5),58,,27,41,28,11,,14,12,19,17,6,5,0.7,0.6
2026-01-02T1000,4054A,109.0324,32.6913,安康市,市邮政管理局,细颗粒物(PM2.5),52,44,37,36,30,12,,13,11,20,21,6,5,0.7,0.7
2026-01-02T1000,2291A,117.0806,30.5181,安庆市,环科院,细颗粒物(PM2.5),67,49,30,48,27,56,,58,58,2,3,4,4,0.4,0.3
2026-01-02T1000,2292A,117.0331,30.5118,安庆市,马山宾馆,细颗粒物(PM2.5),67,59,29,48,26,62,,63,63,14,12,4,3,0.7,0.6
2026-01-02T1000,2294A,116.9897,30.6146,安庆市,安庆大学,细颗粒物(PM2.5),62,48,26,44,23,61,,61,61,6,5,3,3,0.5,0.4
2026-01-02T1000,3173A,117.0598,30.5351,安庆市,市人大,细颗粒物(PM2.5),63,51,30,45,28,56,,61,60,4,3,4,4,0.5,0.4
2026-01-02T1000,3123A,105.9408,26.2431,安顺市,凤凰山,,18,16,30,11,28,57,,53,53,15,16,5,7,0.8,1
2026-01-02T1000,3124A,105.9443,26.2567,安顺市,金钟山,,20,20,27,13,26,59,,54,54,13,14,9,14,0.8,1
2026-01-02T1000,3125A,105.8983,26.248,安顺市,娄家坡,,18,16,32,11,28,55,,52,52,13,15,13,18,0.8,0.9
2026-01-02T1000,1819A,114.3552,36.1017,安阳市,红庙街,细颗粒物(PM2.5),122,117,80,92,70,15,,6,6,34,31,27,4,1.7,1
2026-01-02T1000,1820A,114.361,36.0681,安阳市,银杏小区,细颗粒物(PM2.5),124,109,81,94,77,16,,4,4,36,30,9,3,1.7,0.9
2026-01-02T1000,3141A,114.3921,36.0879,安阳市,信访局,细颗粒物(PM2.5),108,114,76,81,64,18,,11,10,37,33,4,3,1.4,0.9
2026-01-02T1000,3669A,114.4706,36.0634,安阳市,左辅环卫站,细颗粒物(PM2.5),134,132,87,102,71,15,,14,13,30,25,6,3,1.3,0.7
2026-01-02T1000,4117A,114.2918,36.0769,安阳市,钢三路198号,细颗粒物(PM2.5),110,132,105,83,79,16,,5,5,32,28,7,4,1.5,0.9
2026-01-02T1000,1748A,123.0441,41.1201,鞍山市,深沟寺,细颗粒物(PM2.5),64,61,62,46,47,21,,9,9,34,32,30,9,2.8,1.2
2026-01-02T1000,1749A,123.011,41.0931,鞍山市,太阳城,细颗粒物(PM2.5),64,65,61,46,45,29,,10,10,30,30,20,13,1.9,1.1
2026-01-02T1000,1750A,123.0483,41.1445,鞍山市,太平,细颗粒物(PM2.5),78,89,76,57,48,15,,10,10,38,32,23,11,2.4,1.1
2026-01-02T1000,1751A,122.964,41.0968,鞍山市,铁西三道街,细颗粒物(PM2.5),72,86,100,52,65,29,,16,16,35,37,21,25,1.6,1.7
2026-01-02T1000,1753A,123.0219,41.0822,鞍山市,明达新区,细颗粒物(PM2.5),60,60,58,43,42,28,,14,14,19,22,21,14,1.8,1.1
2026-01-02T1000,4201A,122.944647,41.082639,鞍山市,兴盛南路290号,,,122,95,57,60,,,4,4,38,41,18,15,2.2,2.1
2026-01-02T1000,2195A,107.4206,40.7609,巴彦淖尔市,附二中,,45,45,70,21,45,10,,5,3,38,43,5,7,0.6,0.8
2026-01-02T1000,2196A,107.37,40.7372,巴彦淖尔市,市环保大楼,,34,34,52,11,30,22,,27,24,19,25,4,5,0.5,0.6
2026-01-02T1000,1956A,86.1476,41.7529,巴音郭楞蒙古自治州,孔雀公园,颗粒物(PM10),103,155,55,31,30,1,,8,8,62,37,7,7,0.8,0.6
2026-01-02T1000,1957A,86.1971,41.7166,巴音郭楞蒙古自治州,棉纺厂,颗粒物(PM10),108,166,72,33,24,3,,29,24,66,32,/,/,/,/
2026-01-02T1000,1958A,86.236,41.7172,巴音郭楞蒙古自治州,经济开发区,颗粒物(PM10),122,193,53,15,18,7,,34,30,38,14,4,4,0.5,0.5
2026-01-02T1000,3181A,106.776805,31.852614,巴中市,市五中,细颗粒物(PM2.5),52,46,36,36,27,61,,52,52,18,16,5,5,1.0,0.8
2026-01-02T1000,3183A,106.7419,31.8654,巴中市,圣泉水务公司,,46,34,27,32,23,64,,62,61,14,15,4,4,0.6,0.5
2026-01-02T1000,3616A,106.7617,31.8343,巴中市,市中心医院,细颗粒物(PM2.5),52,38,31,36,25,76,,60,60,11,16,6,6,0.8,0.8
2026-01-02T1000,2235A,122.7909,45.608,白城市,洮北区环保局,细颗粒物(PM2.5),59,,51,42,50,37,,29,29,29,28,7,7,0.6,0.7
2026-01-02T1000,2236A,122.8741,45.5725,白城市,市环保局,细颗粒物(PM2.5),109,,58,82,50,36,,24,24,24,31,6,6,0.8,0.7
2026-01-02T1000,2231A,126.4219,41.9172,白山市,喜丰,细颗粒物(PM2.5),62,70,50,44,30,40,,28,28,16,20,48,15,0.5,0.6
2026-01-02T1000,2232A,126.4082,41.9416,白山市,环保局,,,53,46,52,37,,,23,23,,16,,13,,0.7
2026-01-02T1000,2647A,104.1727,36.5448,白银市,第三小学,细颗粒物(PM2.5),104,,68,78,61,18,,33,32,46,27,48,37,1.5,1.1
2026-01-02T1000,2648A,104.1467,36.5482,白银市,动力公司,,,,68,63,63,,,36,36,,24,17,25,,0.7
2026-01-02T1000,2512A,106.6102,23.901,百色市,市监测站,,16,16,15,10,8,35,,42,40,12,14,8,7,0.7,0.8
2026-01-02T1000,2513A,106.6524,23.8842,百色市,市中心血站,,22,22,15,11,8,33,,41,39,18,18,7,8,0.8,0.8
2026-01-02T1000,4133A,106.6273,23.8798,百色市,龙景西路,,21,21,15,10,7,32,,40,38,8,9,10,8,0.8,0.8
2026-01-02T1000,2270A,117.396,32.9389,蚌埠市,工人疗养院,颗粒物(PM10),56,61,65,37,50,41,,31,29,17,18,6,4,0.4,0.4
2026-01-02T1000,2271A,117.3606,32.9428,蚌埠市,百货大楼,,49,49,58,34,46,44,,30,30,16,18,5,4,0.5,0.4
2026-01-02T1000,2273A,117.4183,32.8909,蚌埠市,蚌埠学院,细颗粒物(PM2.5),59,56,54,42,48,35,,34,30,32,24,10,4,0.5,0.4
2026-01-02T1000,2274A,117.3534,32.9672,蚌埠市,淮上区政府,细颗粒物(PM2.5),59,51,61,42,52,41,,27,27,15,19,2,2,0.5,0.5
2026-01-02T1000,2275A,117.3143,32.8977,蚌埠市,高新区,,45,34,52,31,47,47,,32,32,16,17,8,5,0.4,0.4
2026-01-02T1000,3715A,117.3091,32.9314,蚌埠市,蚌埠田家炳中学,颗粒物(PM10),51,52,66,35,55,47,,32,32,17,21,5,3,0.4,0.4
2026-01-02T1000,1585A,109.8761,40.6533,包头市,市环境监测站,,31,31,55,3,22,41,,29,29,21,40,11,19,0.6,1.2
2026-01-02T1000,1587A,109.9992,40.5843,包头市,包头八中,,,,80,70,50,11,,6,6,55,51,,22,1.5,1.2
2026-01-02T1000,1589A,109.8641,40.6288,包头市,惠龙物流,,39,39,74,23,39,14,,14,14,46,46,19,27,1.2,1.6
2026-01-02T1000,1590A,110.0376,40.5546,包头市,东河鸿龙湾,颗粒物(PM10),55,60,56,28,24,15,,11,10,56,49,10,15,1.2,1
2026-01-02T1000,3283A,109.9154,40.5684,包头市,滨河大厦,,49,49,50,33,32,24,,17,14,30,27,19,18,1.0,1
2026-01-02T1000,3419A,109.9449,40.6259,包头市,包头市委党校,细颗粒物(PM2.5),52,47,70,36,34,11,,4,4,46,50,11,20,0.8,1.2
2026-01-02T1000,3683A,109.8332,40.6577,包头市,昆区政府,,42,32,45,29,21,33,,42,40,30,34,20,28,0.8,1.3
2026-01-02T1000,1931A,107.0802,34.3129,宝鸡市,竹园沟,细颗粒物(PM2.5),104,,45,78,54,21,,14,14,23,13,6,5,0.7,0.6
2026-01-02T1000,1933A,107.1429,34.3549,宝鸡市,监测站,细颗粒物(PM2.5),97,,64,72,71,30,,16,16,25,28,7,4,0.9,0.8
2026-01-02T1000,1934A,107.1172,34.3759,宝鸡市,技工学校,细颗粒物(PM2.5),102,77,59,76,65,32,,25,25,16,18,10,3,0.9,0.8
2026-01-02T1000,1936A,107.2025,34.3518,宝鸡市,文理学院,细颗粒物(PM2.5),100,,73,75,80,31,,21,21,25,31,4,4,0.8,0.8
2026-01-02T1000,1937A,107.2396,34.3626,宝鸡市,三迪小学,细颗粒物(PM2.5),114,,76,86,86,29,,22,22,24,32,4,3,0.8,0.8
2026-01-02T1000,4155A,107.1721,34.3558,宝鸡市,滨河北路,细颗粒物(PM2.5),82,69,72,60,63,42,,23,23,22,32,6,5,0.9,0.8
2026-01-02T1000,4308A,107.3898,34.3601,宝鸡市,陈仓区北开路21号,细颗粒物(PM2.5),125,,72,95,78,,,25,25,31,26,5,5,,0.9
2026-01-02T1000,1051A,115.4803,38.8568,保定市,游泳馆,细颗粒物(PM2.5),89,84,72,66,46,18,,6,6,42,51,6,5,1.0,0.8
2026-01-02T1000,1052A,115.509,38.8895,保定市,华电二区,细颗粒物(PM2.5),72,55,68,52,57,20,,4,4,34,44,2,5,1.1,1
2026-01-02T1000,1053A,115.4588,38.9037,保定市,接待中心,细颗粒物(PM2.5),82,72,75,60,50,19,,4,4,34,44,4,3,0.6,0.6
2026-01-02T1000,1054A,115.4484,38.8344,保定市,地表水厂,细颗粒物(PM2.5),104,108,96,78,54,17,,9,9,41,50,6,4,1.0,0.8
2026-01-02T1000,3581A,115.3136,38.9511,保定市,满城区生态环境分局,细颗粒物(PM2.5),77,95,107,56,48,18,,4,4,42,55,6,5,0.8,0.7
2026-01-02T1000,3582A,115.4709,38.7628,保定市,清苑区第二中学,细颗粒物(PM2.5),102,123,96,76,51,10,,3,3,51,52,7,7,0.9,0.7
2026-01-02T1000,3583A,115.6231,39.0223,保定市,徐水物探局,细颗粒物(PM2.5),122,138,100,92,63,7,,3,3,62,53,9,6,1.1,0.9
2026-01-02T1000,4004A,115.4199,38.8665,保定市,双鹰农机,颗粒物(PM10),85,119,87,56,44,18,,10,10,38,41,10,8,1.0,0.7
2026-01-02T1000,4034A,115.515,38.8589,保定市,植保所站,细颗粒物(PM2.5),84,92,79,62,53,5,,1,1,57,56,4,4,1.4,0.7
2026-01-02T1000,2594A,99.1589,25.1137,保山市,市环境监测站,细颗粒物(PM2.5),64,,27,46,23,20,,42,34,24,9,7,7,0.9,0.4
2026-01-02T1000,2595A,99.1616,25.1381,保山市,市环保局,,33,33,28,13,20,22,,52,42,22,6,4,4,0.6,0.4
2026-01-02T1000,1867A,109.1435,21.4085,北海市,海滩公园,,25,25,43,12,27,38,,36,36,16,15,7,7,0.6,0.8
2026-01-02T1000,1868A,109.0983,21.466,北海市,新市环保局,,35,,38,24,29,39,,38,38,12,15,2,5,0.7,0.8
2026-01-02T1000,1869A,109.1775,21.5232,北海市,北海工业园,,29,25,42,20,30,36,,34,34,12,13,5,8,0.7,0.8
2026-01-02T1000,3400A,109.1844,21.4396,北海市,龙潭自来水厂,,26,22,42,18,32,36,,34,34,12,13,7,8,1.3,1.3
2026-01-02T1000,1001A,116.3611,39.8786,北京市,万寿西宫,,,,16,,7,,,57,35,,17,,1,,0.3
2026-01-02T1000,1003A,116.4174,39.9289,北京市,东四,,15,15,15,7,6,37,,33,31,18,16,1,1,0.5,0.5
2026-01-02T1000,1004A,116.4073,39.8858,北京市,天坛,,24,24,16,8,8,29,,26,21,28,18,2,2,0.6,0.3
2026-01-02T1000,1005A,116.4622,39.9364,北京市,农展馆,,21,21,15,7,6,37,,35,35,24,16,3,3,0.5,0.4
2026-01-02T1000,1006A,116.3399,39.9293,北京市,官园,,17,17,18,6,8,43,,34,34,16,17,4,3,0.5,0.4
2026-01-02T1000,1007A,116.2879,39.9613,北京市,海淀万柳,,22,22,19,8,8,26,,6,6,34,35,2,2,0.4,0.4
2026-01-02T1000,1008A,116.6635,40.1349,北京市,顺义新城,,17,17,11,7,5,53,,47,44,6,7,4,4,0.4,0.3
2026-01-02T1000,1009A,116.6275,40.327,北京市,怀柔镇,,14,11,13,6,7,43,,43,41,14,11,6,6,0.4,0.4
2026-01-02T1000,1010A,116.2295,40.217,北京市,昌平镇,,22,21,20,9,9,17,,8,4,43,28,5,4,0.6,0.5
2026-01-02T1000,1011A,116.3968,39.982,北京市,奥体中心,,16,14,14,3,6,49,,32,32,15,24,4,4,0.6,0.5
2026-01-02T1000,3418A,116.8336,40.4095,北京市,密云新城,,,,8,,5,,,66,56,,2,,3,,0.4
2026-01-02T1000,3671A,116.0879,39.9725,北京市,门头沟三家店,,25,25,29,10,12,29,,15,15,14,25,2,2,0.4,0.4
2026-01-02T1000,3672A,116.1507,39.8246,北京市,丰台云岗,,22,22,24,7,9,29,,28,24,30,23,2,2,0.4,0.3
2026-01-02T1000,3674A,115.9578,39.7602,北京市,房山燕山,,39,39,32,17,16,24,,26,20,18,23,3,3,0.5,0.4
2026-01-02T1000,3675A,116.4669,39.7734,北京市,大兴旧宫,,,,17,,6,,,56,5,,25,,2,,0.4
2026-01-02T1000,3694A,115.9859,40.4562,北京市,延庆石河营,,28,28,12,19,7,26,,14,10,20,15,3,2,0.7,0.4
2026-01-02T1000,3695A,116.6151,40.3052,北京市,怀柔新城,,15,13,14,9,8,45,,43,43,11,9,4,4,0.3,0.2
2026-01-02T1000,3696A,116.2542,39.8764,北京市,丰台小屯,,30,30,29,11,11,14,,3,3,45,33,4,3,0.7,0.5
2026-01-02T1000,3697A,116.8399,40.3843,北京市,密云镇,,,,12,,6,,,64,53,,6,,1,,0.4
2026-01-02T1000,4057A,115.9423,40.4431,北京市,延庆百泉,,30,30,12,19,7,18,,27,20,24,9,2,2,0.6,0.3
2026-01-02T1000,4058A,116.6598,39.9164,北京市,通州新华,,21,21,18,8,7,32,,32,32,27,22,2,2,0.4,0.3
2026-01-02T1000,4182A,116.1942,39.9158,北京市,石景山八角,,25,25,26,8,9,24,,9,9,35,32,3,3,0.3,0.2
2026-01-02T1000,4194A,117.078628,40.151726,北京市,平谷新城,,,,9,,5,,,62,45,,4,,2,,0.2
2026-01-02T1000,1761A,123.8274146,41.31234549,本溪市,大峪,"颗粒物(PM10),细颗粒物(PM2.5)",68,86,55,49,34,18,,9,7,30,22,12,8,1.7,1
2026-01-02T1000,1763A,123.7169,41.3094,本溪市,彩屯,细颗粒物(PM2.5),234,208,75,184,49,14,,26,23,53,24,8,9,4.9,1.2
2026-01-02T1000,1764A,123.7672166,41.28649327,本溪市,东明,细颗粒物(PM2.5),143,112,54,109,42,12,,6,6,39,24,13,10,4.3,1.4
2026-01-02T1000,1765A,123.799345,41.266614,本溪市,新立屯,细颗粒物(PM2.5),98,77,37,73,28,18,,22,20,30,16,22,10,3.2,1.1
2026-01-02T1000,1766A,123.829144,41.336777,本溪市,威宁,细颗粒物(PM2.5),98,116,61,73,41,18,,9,9,30,30,6,6,1.9,1.1
2026-01-02T1000,2587A,105.287,27.3133,毕节市,八中,,,20,30,7,23,,,32,31,13,13,8,8,0.9,0.9
2026-01-02T1000,2588A,105.3079,27.2987,毕节市,师专,,10,7,22,3,18,32,,37,36,17,13,8,8,0.8,0.8
2026-01-02T1000,4263A,105.3688,27.3598,毕节市,工业大道,,16,12,20,11,17,36,,39,39,11,11,10,9,/,/
2026-01-02T1000,1629A,117.9961,37.3604,滨州市,第二水厂,颗粒物(PM10),52,53,30,34,14,32,,28,26,21,23,15,12,0.7,0.5
2026-01-02T1000,1630A,117.9789,37.3931,滨州市,北中新校,颗粒物(PM10),52,53,34,34,17,32,,19,15,26,23,12,6,0.6,0.4
2026-01-02T1000,3514A,117.9379,37.3959,滨州市,中海酒店,细颗粒物(PM2.5),64,63,31,46,23,38,,17,16,24,28,14,8,0.7,0.6
2026-01-02T1000,3515A,117.9381509,37.35547456,滨州市,开发区一中,细颗粒物(PM2.5),62,58,35,44,21,32,,21,18,18,20,15,11,0.6,0.4
2026-01-02T1000,3516A,118.0914,37.6938,滨州市,金海六路,,37,37,33,19,15,34,,14,14,20,28,12,7,0.5,0.5
2026-01-02T1000,4028A,117.9955,37.3752,滨州市,滨州市西街道办事处,细颗粒物(PM2.5),55,44,26,39,21,39,,29,26,18,20,16,11,0.7,0.4
2026-01-02T1000,2311A,115.8071,33.8399,亳州市,污水处理厂,细颗粒物(PM2.5),107,95,65,80,56,22,,24,20,36,26,8,6,0.6,0.4
2026-01-02T1000,2312A,115.7789,33.8519,亳州市,三国揽胜宫,细颗粒物(PM2.5),102,102,74,76,53,18,,21,16,27,19,7,2,0.7,0.5
2026-01-02T1000,3332A,115.7631,33.803,亳州市,亳州学院,细颗粒物(PM2.5),90,91,70,67,57,25,,25,21,28,21,9,3,0.6,0.5
2026-01-02T1000,2693A,82.0482,44.8553,博尔塔拉蒙古自治州,市党校,颗粒物(PM10),67,84,75,36,36,50,,52,51,12,20,3,5,1.1,1
2026-01-02T1000,2694A,82.0805,44.8966,博尔塔拉蒙古自治州,市环保局,颗粒物(PM10),65,79,76,33,33,46,,50,50,20,24,8,10,0.9,0.8
2026-01-02T1000,1071A,116.8733,38.2922,沧州市,沧县城建局,细颗粒物(PM2.5),59,60,47,42,28,23,,29,27,38,33,1,4,0.8,0.6
2026-01-02T1000,1072A,116.8462,38.3189,沧州市,电视转播站,细颗粒物(PM2.5),64,53,47,46,27,18,,30,27,37,31,14,10,0.6,0.5
2026-01-02T1000,1073A,116.8588,38.3161,沧州市,市环保局,细颗粒物(PM2.5),67,59,49,48,33,20,,26,25,28,25,9,5,0.6,0.4
2026-01-02T1000,3324A,116.8011,38.294,沧州市,河北水利电力学院,颗粒物(PM10),62,73,42,40,25,14,,15,14,38,34,8,6,0.7,0.5
2026-01-02T1000,2622A,97.1813,31.1289,昌都市,昌都监测站,,45,45,47,14,16,45,,50,49,12,16,2,2,0.6,0.6
2026-01-02T1000,3719A,97.1707,31.1428,昌都市,昌都会议中心,,22,22,14,14,8,43,,54,50,6,4,2,2,0.5,0.5
2026-01-02T1000,2692A,87.2722,44.0298,昌吉回族自治州,新区政务中心,颗粒物(PM10),67,83,98,36,53,11,,15,15,53,53,6,6,0.9,1
2026-01-02T1000,3613A,87.3069,44.0093,昌吉回族自治州,亚心广场,颗粒物(PM10),71,92,105,46,59,21,,39,39,44,40,6,7,1.1,1.1
2026-01-02T1000,4164A,87.2057,43.9289,昌吉回族自治州,财政所,颗粒物(PM10),63,75,77,42,43,61,,59,59,9,10,5,5,0.5,0.5
2026-01-02T1000,1120A,125.2874,43.9024,长春市,客车厂,细颗粒物(PM2.5),84,67,45,62,43,27,,23,21,32,25,13,10,1.0,0.5
2026-01-02T1000,1121A,125.2943,43.8508,长春市,邮电学院,细颗粒物(PM2.5),93,105,47,69,38,25,,20,19,31,21,16,12,1.2,0.5
2026-01-02T1000,1122A,125.3648,43.8745,长春市,劳动公园,细颗粒物(PM2.5),79,87,46,58,33,25,,19,18,31,24,11,10,1.4,0.8
2026-01-02T1000,1123A,125.3233,43.8781,长春市,园林处,细颗粒物(PM2.5),88,95,46,65,36,19,,20,18,35,21,21,13,1.0,0.4
2026-01-02T1000,1124A,125.4604,43.7904,长春市,净月潭,细颗粒物(PM2.5),63,59,43,45,31,27,,13,13,21,24,13,8,1.0,0.6
2026-01-02T1000,1126A,125.38,43.8422,长春市,经开区环卫处,细颗粒物(PM2.5),69,74,45,50,32,17,,19,16,36,27,10,14,1.1,0.5
2026-01-02T1000,1127A,125.234,43.7761,长春市,高新区管委会,细颗粒物(PM2.5),88,71,49,65,42,27,,16,16,27,24,14,9,1.2,0.7
2026-01-02T1000,1128A,125.1695,43.83,长春市,岱山公园,细颗粒物(PM2.5),87,80,48,64,42,30,,20,20,24,23,13,9,1.2,0.6
2026-01-02T1000,4281A,125.334645,43.916281,长春市,北亚泰大街1068号,细颗粒物(PM2.5),93,88,53,69,39,22,,19,17,34,25,12,10,0.8,0.5
2026-01-02T1000,1335A,113.082,28.2421,长沙市,经开区环保局,细颗粒物(PM2.5),54,55,42,38,36,40,,34,34,11,14,3,3,0.4,0.3
2026-01-02T1000,1336A,112.8873,28.2202,长沙市,高开区环保局,细颗粒物(PM2.5),57,,39,40,38,41,,35,35,10,10,4,4,0.6,0.5
2026-01-02T1000,1337A,113.0785,28.2012,长沙市,马坡岭,,50,50,40,34,35,41,,36,36,19,20,4,3,0.7,0.7
2026-01-02T1000,1338A,112.9448,28.1894,长沙市,湖南师范大学,,50,42,39,35,32,42,,36,36,16,15,4,3,0.4,0.4
2026-01-02T1000,1339A,113.0177,28.1322,长沙市,雨花区环保局,细颗粒物(PM2.5),55,40,41,39,35,37,,32,32,14,15,7,6,0.4,0.4
2026-01-02T1000,1340A,112.9795,28.2593,长沙市,伍家岭,细颗粒物(PM2.5),54,46,42,38,28,40,,31,31,14,16,5,4,0.4,0.3
2026-01-02T1000,1341A,113.002,28.1944,长沙市,火车新站,细颗粒物(PM2.5),52,39,43,36,36,39,,32,32,8,8,7,7,0.5,0.5
2026-01-02T1000,1342A,112.9846,28.1177,长沙市,天心区环保局,,49,39,38,34,33,41,,36,36,20,18,4,5,0.5,0.4
2026-01-02T1000,1343A,112.8906,28.1307,长沙市,湖南中医药大学,细颗粒物(PM2.5),52,38,39,36,34,45,,39,39,15,14,5,5,0.5,0.5
2026-01-02T1000,1727A,113.1146,36.1547,长治市,清华站,细颗粒物(PM2.5),147,,87,112,94,26,,14,13,24,32,10,12,1.3,0.9
2026-01-02T1000,1730A,113.0887,36.2126,长治市,审计局,细颗粒物(PM2.5),125,,76,95,82,8,,20,15,41,27,15,13,1.1,0.9
2026-01-02T1000,1731A,113.0845,36.1856,长治市,长治八中,细颗粒物(PM2.5),130,108,88,99,89,14,,13,8,33,27,13,12,1.3,1
2026-01-02T1000,2845A,113.1561,36.1912,长治市,德盛苑,,,,81,,87,26,,32,32,,19,,9,1.2,1.1
2026-01-02T1000,3568A,113.0603,36.0464,长治市,向阳小学,细颗粒物(PM2.5),165,129,109,125,95,42,,31,31,20,26,5,14,1.6,1.1
2026-01-02T1000,3569A,112.8788,36.315,长治市,屯留一中,细颗粒物(PM2.5),125,101,85,95,84,26,,29,28,27,25,2,3,0.9,0.8
2026-01-02T1000,4189A,113.113092,36.199482,长治市,英华南巷50号,细颗粒物(PM2.5),117,94,88,88,87,12,,22,18,34,25,12,10,1.5,1.2
2026-01-02T1000,4190A,113.23666,36.33435,长治市,学府街1号,细颗粒物(PM2.5),166,,81,126,89,23,,19,19,29,29,13,12,2.1,1.4
2026-01-02T1000,1854A,111.696,28.9725,常德市,市二中,细颗粒物(PM2.5),77,,52,56,51,48,,47,45,14,15,4,4,0.5,0.5
2026-01-02T1000,3138A,111.7152,29.0288,常德市,武陵区永安,细颗粒物(PM2.5),69,62,52,50,45,48,,47,46,18,19,3,3,0.6,0.6
2026-01-02T1000,3139A,111.6891,28.9881,常德市,鼎城区玉霞,细颗粒物(PM2.5),72,57,48,52,49,50,,50,49,16,16,6,7,0.6,0.5
2026-01-02T1000,3140A,111.6651,29.0526,常德市,武陵区长庚,细颗粒物(PM2.5),73,65,51,53,47,52,,46,46,13,15,4,4,0.5,0.5
2026-01-02T1000,1196A,119.9524,31.7586,常州市,市监测站,,23,22,38,16,30,55,,34,34,14,22,4,4,0.3,0.4
2026-01-02T1000,1200A,119.9351,31.703,常州市,武进监测站,,,24,45,19,31,50,,26,25,,22,,8,0.3,0.2
2026-01-02T1000,3002A,119.9701,31.813,常州市,行政中心,,24,24,41,8,28,59,,33,33,11,22,6,5,0.3,0.5
2026-01-02T1000,3003A,120.0434,31.7726,常州市,经开区,,24,24,44,14,25,56,,37,37,5,14,6,8,0.6,0.6
2026-01-02T1000,3010A,119.8919,31.7892,常州市,钟楼,,36,36,37,24,32,43,,22,22,17,22,8,6,0.4,0.4
2026-01-02T1000,3429A,119.8595,31.706,常州市,武进经发区,,39,36,46,27,33,42,,28,28,18,19,9,7,0.5,0.5
2026-01-02T1000,3430A,119.5812,31.7256,常州市,金坛城区,,38,36,42,26,35,37,,33,31,15,15,7,6,0.7,0.6
2026-01-02T1000,4089A,119.9551,31.863,常州市,崇义南街5-H号,,28,28,37,12,26,55,,31,31,12,20,7,5,0.4,0.5
2026-01-02T1000,2220A,120.4318,41.588,朝阳市,西梁,细颗粒物(PM2.5),117,132,90,88,68,8,,3,3,44,34,25,13,2.0,1.6
2026-01-02T1000,2221A,120.452,41.565,朝阳市,河畔小区,细颗粒物(PM2.5),70,69,45,51,33,17,,7,7,26,25,19,8,1.3,0.9
2026-01-02T1000,2222A,120.4176,41.5648,朝阳市,八里堡,颗粒物(PM10),67,84,61,46,37,20,,12,12,32,36,21,12,1.5,1
2026-01-02T1000,3026A,116.6179,23.6608,潮州市,市政府,,27,27,25,7,14,58,,57,57,3,6,5,6,0.4,0.4
2026-01-02T1000,4036A,116.646,23.676,潮州市,金山,,27,27,24,8,18,55,,55,55,4,7,2,3,0.3,0.3
2026-01-02T1000,2473A,113.0116,25.8228,郴州市,市职中,,32,28,21,22,19,11,,12,12,8,10,2,2,0.4,0.4
2026-01-02T1000,2475A,113.0381,25.8074,郴州市,市审计局,,32,29,23,22,18,15,,15,15,11,12,2,1,/,/
2026-01-02T1000,2476A,113.0348,25.7757,郴州市,市环保局,,36,34,24,25,18,13,,13,13,14,14,2,2,0.5,0.5
2026-01-02T1000,4252A,113.0138,25.8011,郴州市,好美居路49号,,43,,20,30,22,18,,20,20,5,6,1,2,/,/
2026-01-02T1000,1431A,103.9727,30.7242,成都市,金泉两河,,44,44,54,26,33,58,,58,58,23,25,2,2,0.5,0.6
2026-01-02T1000,1432A,104.1423,30.6765,成都市,十里店,,48,39,41,33,28,62,,62,60,18,20,3,3,0.5,0.5
2026-01-02T1000,1433A,104.0594,30.5765,成都市,三瓦窑,,48,34,40,33,33,63,,58,58,21,22,2,3,0.6,0.6
2026-01-02T1000,1434A,104.1122,30.6306,成都市,沙河铺,细颗粒物(PM2.5),58,47,49,41,36,55,,58,56,22,24,4,3,0.5,0.5
2026-01-02T1000,2880A,104.0219,30.6561,成都市,大石西路,,,54,48,33,33,52,,59,57,,18,3,4,0.5,0.4
2026-01-02T1000,3136A,104.2724,30.559,成都市,龙泉驿区区政府,,28,27,29,19,24,36,,36,34,16,17,6,6,0.5,0.5
2026-01-02T1000,3357A,104.0028,30.6891,成都市,金博路,,50,36,36,35,28,47,,64,60,25,25,4,4,0.7,0.7
2026-01-02T1000,3359A,104.056,30.5228,成都市,华阳,细颗粒物(PM2.5),52,36,36,36,31,62,,56,56,20,22,3,3,0.5,0.5
2026-01-02T1000,3488A,104.387954,30.746684,成都市,青石路225号,,47,47,44,32,35,56,,60,60,18,20,4,5,0.6,0.5
2026-01-02T1000,3489A,104.0788,30.4054,成都市,科学城,,40,33,39,28,30,57,,53,51,16,16,6,6,0.7,0.7
2026-01-02T1000,4011A,103.8505,30.6946,成都市,光华大道三段,,39,39,55,22,41,62,,55,55,20,25,3,3,0.6,0.7
2026-01-02T1000,4144A,104.3257,30.6406,成都市,八角井街185号,,48,48,50,29,32,51,,52,51,17,19,1,2,0.9,0.9
2026-01-02T1000,4224A,104.2433276,30.53529463,成都市,鲸龙路1057号,,40,30,37,28,32,50,,54,52,23,22,5,6,0.7,0.7
2026-01-02T1000,1062A,117.9531,40.908,承德市,铁路,,45,45,36,13,17,23,,24,23,24,17,4,3,0.7,0.5
2026-01-02T1000,1063A,117.9397,40.9763,承德市,中国银行,,36,36,37,12,16,27,,16,16,13,18,2,2,0.6,0.4
2026-01-02T1000,4073A,117.9462,40.95,承德市,杏林街1号,,,,31,41,21,,,19,19,20,21,4,4,0.6,0.5
2026-01-02T1000,4274A,117.7994,40.9605,承德市,滨河大街98号,,38,38,23,3,10,23,,34,29,30,13,8,2,1.0,0.3
2026-01-02T1000,2314A,117.4698,30.6617,池州市,池州学院,细颗粒物(PM2.5),73,61,38,53,33,55,,47,47,15,14,4,2,0.3,0.3
2026-01-02T1000,3237A,117.4918,30.6617,池州市,展览馆,细颗粒物(PM2.5),63,56,37,45,28,58,,49,48,17,17,2,2,0.6,0.5
2026-01-02T1000,3333A,117.5626,30.695,池州市,第八中学,细颗粒物(PM2.5),70,66,36,51,30,52,,50,48,21,18,5,2,0.6,0.5
2026-01-02T1000,3334A,117.5037,30.6242,池州市,第十二中学,细颗粒物(PM2.5),70,64,36,51,28,48,,51,48,24,20,4,2,0.6,0.5
2026-01-02T1000,1744A,118.9229,42.2816,赤峰市,松山一中,颗粒物(PM10),56,61,43,26,21,12,,11,11,46,28,9,10,1.3,1
2026-01-02T1000,1745A,118.9588,42.2733,赤峰市,哈达街,,43,43,28,28,18,26,,34,33,33,19,10,8,1.1,0.7
2026-01-02T1000,1746A,118.8792,42.2551,赤峰市,天义路,细颗粒物(PM2.5),54,38,26,38,23,40,,32,32,27,21,16,11,1.1,0.8
2026-01-02T1000,3058A,119.2656,42.0356,赤峰市,银河街,,,144,46,,24,16,,17,16,35,18,31,16,2.8,1.2
2026-01-02T1000,3286A,118.9359,42.3146,赤峰市,桥北物流园区,细颗粒物(PM2.5),64,51,29,46,17,22,,23,20,33,18,11,8,0.9,0.5
2026-01-02T1000,2521A,107.3473,22.4137,崇左市,市环保局江州分局,,27,27,27,13,20,32,,33,32,12,12,6,6,0.7,0.8
2026-01-02T1000,4256A,107.375,22.3736,崇左市,石景林东路7号,,17,17,23,7,17,33,,35,35,15,15,7,7,0.7,0.7
2026-01-02T1000,3207A,118.31131,32.3033,滁州市,市政府原办公楼,细颗粒物(PM2.5),79,75,51,58,41,31,,39,36,26,15,6,3,0.5,0.3
2026-01-02T1000,3331A,118.3268,32.2633,滁州市,图书馆,颗粒物(PM10),59,67,45,31,40,44,,38,37,13,10,8,7,0.5,0.4
2026-01-02T1000,4101A,118.3196,32.3335,滁州市,银山路666号,细颗粒物(PM2.5),99,,44,74,62,28,,33,30,18,9,11,7,0.8,0.5
2026-01-02T1000,4102A,118.3426,32.2979,滁州市,黄山路555号,细颗粒物(PM2.5),60,61,56,43,51,46,,39,38,15,12,10,8,0.5,0.4
2026-01-02T1000,2606A,101.5379,25.0492,楚雄彝族自治州,市经济开发区,,,40,34,36,26,11,,6,4,,10,4,5,0.5,0.5
2026-01-02T1000,4153A,101.5536,25.0343,楚雄彝族自治州,团结路562号,,30,30,24,20,22,13,,7,6,12,11,2,3,0.6,0.5
2026-01-02T1000,2549A,107.5087,31.2186,达州市,市环境监测站,,36,36,27,24,18,14,,40,32,37,25,7,12,0.5,0.4
2026-01-02T1000,2550A,107.4988,31.2132,达州市,凤凰小区,,32,27,26,22,18,33,,49,42,26,21,6,11,0.4,0.4
2026-01-02T1000,2551A,107.5081,31.1987,达州市,达县机关宾馆,细颗粒物(PM2.5),52,44,31,36,25,12,,38,29,41,31,5,8,0.7,0.7
2026-01-02T1000,2552A,107.4644,31.2124,达州市,市政中心,,43,43,37,22,19,30,,48,43,26,20,9,11,0.4,0.4
2026-01-02T1000,2614A,100.2168,25.5818,大理白族自治州,大理市环境监测站,,32,23,22,22,21,60,,59,59,10,9,6,6,0.5,0.5
2026-01-02T1000,2615A,100.1542,25.7055,大理白族自治州,大理古城,,22,22,26,8,17,56,,61,58,20,12,8,8,0.6,0.5
2026-01-02T1000,1109A,121.6119,38.974,大连市,甘井子,,26,26,30,14,15,51,,43,43,14,12,13,9,0.1,0.2
2026-01-02T1000,1110A,121.565,38.9509,大连市,周水子,,28,28,28,19,14,49,,47,46,17,12,4,2,0.3,0.4
2026-01-02T1000,1111A,121.5637,38.8849,大连市,星海三站,,23,21,23,16,14,51,,46,46,14,13,10,7,0.5,0.6
2026-01-02T1000,1112A,121.6301,38.9117,大连市,青泥洼桥,,26,26,28,12,13,43,,41,39,16,12,10,8,0.4,0.4
2026-01-02T1000,1113A,121.6248,38.8643,大连市,傅家庄,,20,20,23,13,13,42,,38,38,15,13,10,7,0.3,0.2
2026-01-02T1000,1114A,121.5117,38.8636,大连市,七贤岭,,22,22,25,12,11,51,,48,48,7,5,7,6,0.5,0.6
2026-01-02T1000,1116A,121.7507,39.1339,大连市,金州,,40,30,29,28,17,53,,41,41,11,12,8,7,0.4,0.4
2026-01-02T1000,1117A,121.7811,39.0495,大连市,开发区,,26,25,25,18,18,51,,41,41,8,9,7,6,0.5,0.5
2026-01-02T1000,1118A,121.9762,39.0631,大连市,双D港,,30,28,31,21,17,54,,46,46,12,11,14,10,0.5,0.5
2026-01-02T1000,4082A,121.2548,38.8188,大连市,旅顺,,23,23,27,10,12,61,,53,53,4,4,5,5,0.5,0.5
2026-01-02T1000,1789A,124.8085,46.0381,大庆市,大同区,细颗粒物(PM2.5),57,60,38,40,25,41,,24,24,17,19,6,5,0.5,0.3
2026-01-02T1000,1790A,125.1166,46.5255,大庆市,龙凤区,,38,37,34,26,24,31,,34,32,40,28,16,10,0.6,0.5
2026-01-02T1000,1791A,124.8894,46.4007,大庆市,红岗区,,25,25,28,7,16,39,,41,40,17,16,6,6,0.6,0.6
2026-01-02T1000,1792A,125.1391,46.578,大庆市,萨尔图区,,22,22,30,12,16,38,,41,40,20,13,7,6,0.5,0.4
2026-01-02T1000,1793A,124.9026,46.6217,大庆市,让胡路区,细颗粒物(PM2.5),60,49,30,43,26,38,,52,48,24,10,12,9,0.8,0.5
2026-01-02T1000,3481A,125.127,46.6277,大庆市,萨区政府监测点,,31,31,30,14,14,33,,38,37,34,18,10,9,0.8,0.7
2026-01-02T1000,1723A,113.2926,40.0759,大同市,云冈宾馆,颗粒物(PM10),60,69,75,36,41,17,,7,7,37,44,15,16,2.6,1.6
2026-01-02T1000,1724A,113.3437,40.0921,大同市,大同大学,,36,36,57,21,33,38,,31,31,24,31,9,15,0.7,0.9
2026-01-02T1000,1725A,113.2637,40.129,大同市,安家小村,颗粒物(PM10),94,137,74,63,35,19,,14,14,37,38,36,19,5.9,2.4
2026-01-02T1000,3282A,113.3399,40.0586,大同市,大同市卫生学校,,46,46,67,21,38,28,,26,25,31,36,11,17,0.9,1
2026-01-02T1000,3565A,113.1371,40.1122,大同市,云冈站,颗粒物(PM10),66,81,62,39,32,13,,5,5,33,34,24,15,1.0,0.8
2026-01-02T1000,3566A,113.1186,40.2556,大同市,图书馆,细颗粒物(PM2.5),105,,55,79,37,20,,16,16,14,19,15,12,1.3,0.9
2026-01-02T1000,3567A,113.5931,40.0459,大同市,区一中,颗粒物(PM10),81,112,83,46,47,35,,27,26,28,31,29,26,1.2,1.2
2026-01-02T1000,4199A,113.2798248,40.09972476,大同市,魏都大道141号,细颗粒物(PM2.5),85,117,95,63,47,15,,10,10,37,42,14,14,2.9,1.8
2026-01-02T1000,2269A,124.1068,50.4091,大兴安岭地区,科技局,,20,11,23,6,15,62,,61,61,1,2,4,4,0.3,0.3
2026-01-02T1000,3663A,124.117,50.4279,大兴安岭地区,红旗社区,,21,7,5,3,5,67,,71,71,3,2,5,5,0.2,0.2
2026-01-02T1000,1600A,124.33,40.0625,丹东市,江湾东路,,29,27,27,20,18,47,,44,44,9,9,7,8,0.4,0.4
2026-01-02T1000,1601A,124.4242,40.1513,丹东市,临江后街,,19,19,22,11,12,51,,46,46,5,6,4,4,0.6,0.6
2026-01-02T1000,1602A,124.3935,40.1461,丹东市,元宝山,,19,19,21,12,13,52,,46,46,4,8,6,7,0.5,0.5
2026-01-02T1000,1603A,124.3634,40.1093,丹东市,民主桥,,23,23,26,13,13,49,,46,45,9,8,7,7,0.4,0.4
2026-01-02T1000,3541A,109.5726195,19.51688767,儋州市,第一中学子站,细颗粒物(PM2.5),68,69,41,49,25,48,,78,70,6,4,5,4,0.7,0.5
2026-01-02T1000,3542A,109.5567,19.5187,儋州市,东坡学校子站,细颗粒物(PM2.5),59,57,35,42,22,51,,84,76,7,4,5,5,0.7,0.4
2026-01-02T1000,2616A,98.5611,24.4273,德宏傣族景颇族自治州,德宏州监测站,细颗粒物(PM2.5),70,68,55,51,42,9,,5,4,24,23,6,7,0.9,0.7
2026-01-02T1000,3677A,98.5887,24.4366,德宏傣族景颇族自治州,芒市人民政府综合楼,细颗粒物(PM2.5),57,50,50,40,31,5,,17,12,23,15,9,9,1.0,0.7
2026-01-02T1000,1901A,104.424,31.1209,德阳市,东山公园,,48,36,48,33,42,65,,56,56,10,17,2,2,0.7,0.8
2026-01-02T1000,1902A,104.3827,31.1318,德阳市,西小区,,49,43,59,34,49,65,,56,56,14,21,1,2,0.8,0.9
2026-01-02T1000,1904A,104.3553,31.1091,德阳市,耐火材料厂,细颗粒物(PM2.5),54,43,60,38,52,64,,49,49,17,25,1,1,0.7,0.8
2026-01-02T1000,4145A,104.4144,31.1495,德阳市,市林业局,,49,,56,34,50,63,,50,50,10,23,2,2,0.6,0.7
2026-01-02T1000,1622A,116.3034,37.4675,德州市,儿童乐园,细颗粒物(PM2.5),70,83,55,51,32,28,,23,23,34,33,16,15,1.2,1
2026-01-02T1000,1624A,116.2992,37.4449,德州市,监理站,细颗粒物(PM2.5),70,85,50,51,28,29,,29,28,40,35,20,17,1.0,0.8
2026-01-02T1000,3066A,116.2722,37.438,德州市,九衢泉纯净水厂,细颗粒物(PM2.5),83,95,54,61,34,14,,10,8,38,35,15,16,0.7,0.6
2026-01-02T1000,3371A,116.3693,37.44,德州市,开发区人民医院,细颗粒物(PM2.5),62,66,56,44,32,30,,24,24,36,41,17,16,0.9,0.8
2026-01-02T1000,3511A,116.5687,37.3331,德州市,陵城艺术中心,细颗粒物(PM2.5),64,68,64,46,38,26,,19,19,36,41,23,19,0.8,0.7
2026-01-02T1000,4292A,116.352738,37.420875,德州市,新河东路,细颗粒物(PM2.5),73,80,55,53,36,19,,14,14,42,43,16,15,1.0,1
2026-01-02T1000,2621A,99.7054,27.8319,迪庆藏族自治州,迪庆州站,颗粒物(PM10),58,66,36,27,23,50,,52,50,15,14,6,6,0.6,0.6
2026-01-02T1000,3180A,99.7122,27.8129,迪庆藏族自治州,质量技术监督局,,50,50,29,35,18,38,,59,50,36,15,7,6,1.0,0.5
2026-01-02T1000,4257A,104.6092,35.5962,定西市,将台街,细颗粒物(PM2.5),53,52,58,37,48,71,,73,71,16,14,8,8,0.6,0.5
2026-01-02T1000,4309A,104.6159,35.5701,定西市,正龙路62号,细颗粒物(PM2.5),62,47,61,44,49,69,,68,66,8,8,3,4,0.6,0.6
2026-01-02T1000,1390A,113.7943,23.0132,东莞市,东城石井,,23,12,31,7,21,71,,64,64,15,16,8,8,0.6,0.7
2026-01-02T1000,1391A,113.7384,22.9659,东莞市,南城西平,,22,15,32,6,21,69,,62,62,18,19,8,9,0.6,0.7
2026-01-02T1000,3319A,113.7283,23.041,东莞市,万江金泰,,24,11,34,6,24,75,,66,66,10,11,4,5,0.6,0.7
2026-01-02T1000,4129A,113.8666,23.1062,东莞市,裕兴路,,27,13,38,6,23,86,,77,77,9,11,3,4,0.5,0.7
2026-01-02T1000,4130A,114.0076,22.9739,东莞市,教育路1号,,25,16,43,7,25,77,,66,66,16,16,4,6,0.7,0.8
2026-01-02T1000,4131A,113.7981,22.8124,东莞市,长怡路1号,,22,16,40,7,23,69,,59,59,14,14,7,7,0.6,0.7
2026-01-02T1000,1666A,118.6612,37.4313,东营市,市环保局,,36,36,26,19,12,45,,34,33,26,26,13,9,0.8,0.6
2026-01-02T1000,3036A,118.6903,37.4337,东营市,开发区管委会,,44,44,28,17,11,46,,41,38,24,19,16,11,0.9,0.7
2026-01-02T1000,3365A,118.5721,37.5654,东营市,垦利区民丰路,,48,48,27,27,12,45,,32,32,32,25,6,4,0.9,0.8
2026-01-02T1000,3498A,118.5063,37.8606,东营市,河口城区,,34,34,29,20,13,36,,22,22,22,25,4,4,0.7,0.6
2026-01-02T1000,3646A,118.4979,37.4623,东营市,胜利站,,33,33,33,17,14,33,,22,18,31,28,15,12,0.8,0.7
2026-01-02T1000,3734A,118.5753,37.4405,东营市,理想之城,,39,39,27,22,16,46,,31,31,21,23,10,6,0.7,0.6
2026-01-02T1000,1591A,110.0024,39.8127,鄂尔多斯市,综合楼,,28,27,26,19,15,40,,60,55,37,24,11,9,0.8,0.6
2026-01-02T1000,1592A,109.9485,39.8259,鄂尔多斯市,巴音孟克林场办事处,,28,24,23,19,13,56,,59,58,26,22,8,10,0.6,0.5
2026-01-02T1000,1593A,109.7734,39.5987,鄂尔多斯市,康泽苑,,19,19,16,7,11,39,,45,44,19,15,4,4,0.4,0.4
2026-01-02T1000,1594A,109.8121,39.5987,鄂尔多斯市,华泰汽车城,,24,24,22,9,11,24,,21,21,21,23,3,2,0.4,0.4
2026-01-02T1000,1595A,109.9734,39.7884,鄂尔多斯市,奥林花园,颗粒物(PM10),70,90,36,46,14,16,,37,32,66,32,8,6,1.0,0.6
2026-01-02T1000,2436A,114.894,30.3989,鄂州市,市政府,,38,34,31,26,19,37,,37,35,20,18,4,4,0.5,0.5
2026-01-02T1000,2437A,114.8986,30.3714,鄂州市,赵家坝,,36,36,28,20,22,38,,42,40,14,9,6,6,0.2,0.2
2026-01-02T1000,3654A,114.8093,30.4091,鄂州市,精准医疗中心,细颗粒物(PM2.5),54,50,33,38,27,47,,47,45,3,3,4,4,1.2,1.1
2026-01-02T1000,2454A,109.4978,30.2979,恩施土家族苗族自治州,湖北民院,,39,31,29,27,29,59,,62,62,15,11,6,6,0.5,0.6
2026-01-02T1000,3549A,109.5061,30.3771,恩施土家族苗族自治州,龙凤新区,,29,24,27,20,24,60,,62,62,6,6,5,6,0.3,0.4
2026-01-02T1000,2499A,108.3411,21.6159,防城港市,沙万,,36,36,52,12,21,34,,40,38,12,14,5,6,0.6,0.7
2026-01-02T1000,2500A,108.3515,21.7733,防城港市,防城档案局,,21,21,41,8,20,26,,32,30,11,12,5,5,0.6,0.7
2026-01-02T1000,2501A,108.3506,21.6414,防城港市,大海花园,,20,15,33,14,28,36,,42,40,6,8,6,6,0.7,0.8
2026-01-02T1000,1371A,113.1293,23.0065,佛山市,湾梁,,23,19,43,3,29,72,,61,61,17,22,/,/,/,/
2026-01-02T1000,1372A,113.1082,23.0477,佛山市,华材职中,,27,27,47,14,32,72,,61,61,15,20,8,8,0.4,0.6
2026-01-02T1000,1373A,113.1439,23.045,佛山市,南海气象局,,23,12,43,10,34,71,,60,60,18,21,/,/,/,/
2026-01-02T1000,1374A,113.2879,22.8094,佛山市,顺德苏岗,,21,12,44,3,30,65,,56,56,19,22,/,/,0.6,0.7
2026-01-02T1000,1376A,112.8384,22.8678,佛山市,高明孔堂,,27,27,46,12,32,56,,43,43,16,21,/,/,/,/
2026-01-02T1000,1377A,112.8835,23.1584,佛山市,三水监测站,,27,27,37,9,23,49,,39,39,16,16,4,6,0.5,0.7
2026-01-02T1000,1378A,112.8668,23.185,佛山市,三水云东海,,25,25,39,10,21,51,,38,38,15,18,/,/,/,/
2026-01-02T1000,3625A,113.2568,22.7629,佛山市,容桂街道办,,18,14,55,7,39,56,,53,53,16,22,/,/,/,/
2026-01-02T1000,1282A,119.2681,26.0506,福州市,师大,,15,12,26,3,17,48,,44,44,17,19,6,7,0.4,0.5
2026-01-02T1000,1283A,119.2983,26.1028,福州市,五四北路,,13,11,25,3,16,41,,42,41,16,16,4,5,0.4,0.5
2026-01-02T1000,1284A,119.2648,26.0769,福州市,杨桥西路,,15,10,25,3,15,46,,44,43,12,13,4,5,/,/
2026-01-02T1000,3048A,119.5799,26.0937,福州市,九龙,,21,10,18,3,8,65,,45,45,13,14,7,5,0.5,0.4
2026-01-02T1000,3526A,119.5188,25.9666,福州市,吴航,,20,7,19,3,12,63,,45,45,12,13,6,5,0.6,0.5
2026-01-02T1000,4104A,119.3106,26.0648,福州市,路通桥巷6号,,14,9,28,6,19,42,,42,41,10,12,/,/,/,/
2026-01-02T1000,1755A,123.7974,41.8494,抚顺市,望花区,细颗粒物(PM2.5),104,98,77,78,53,21,,9,9,34,31,7,5,1.4,1
2026-01-02T1000,1756A,123.9161,41.8827,抚顺市,顺城区,细颗粒物(PM2.5),75,81,61,55,47,24,,9,9,29,32,9,9,1.1,0.9
2026-01-02T1000,1757A,124.0437,41.8615,抚顺市,东洲区,细颗粒物(PM2.5),89,,48,66,39,21,,10,10,25,23,8,6,1.1,0.8
2026-01-02T1000,1758A,123.9246,41.8638,抚顺市,新抚区,细颗粒物(PM2.5),85,84,60,63,43,25,,9,9,24,28,12,7,1.0,0.8
2026-01-02T1000,1759A,124.0972,41.8961,抚顺市,大伙房水库,细颗粒物(PM2.5),84,81,42,62,32,27,,19,19,25,19,18,11,1.1,0.7
2026-01-02T1000,1760A,123.708,41.8386,抚顺市,沈抚新城,细颗粒物(PM2.5),156,,72,119,73,18,,8,8,29,33,10,8,2.0,1.5
2026-01-02T1000,2377A,116.3544,27.9833,抚州市,市站,,30,30,28,19,17,43,,42,42,10,11,6,6,0.4,0.5
2026-01-02T1000,2378A,116.3562,27.9631,抚州市,血防站,,37,37,31,23,16,43,,42,42,11,12,3,3,0.3,0.5
2026-01-02T1000,2379A,116.3561,28.0007,抚州市,采茶剧团,,35,32,27,24,19,43,,41,41,2,6,3,3,0.4,0.5
2026-01-02T1000,2380A,116.3854,27.9648,抚州市,医学分院,,35,35,32,20,16,49,,47,47,7,10,11,5,0.3,0.3
2026-01-02T1000,2207A,121.6095,41.9978,阜新市,工业园区,"颗粒物(PM10),细颗粒物(PM2.5)",59,68,74,42,38,27,,14,14,26,25,15,14,0.6,0.7
2026-01-02T1000,2208A,121.6567,42.0188,阜新市,长青街,,,56,38,43,25,32,,36,36,,17,,8,0.7,0.6
2026-01-02T1000,2209A,121.6672,42.07,阜新市,农业园区,,40,40,23,17,7,40,,44,44,19,8,10,6,0.5,0.3
2026-01-02T1000,2211A,121.6343,42.0455,阜新市,玉龙新城,颗粒物(PM10),83,116,64,58,32,22,,12,12,42,30,19,7,0.9,0.7
2026-01-02T1000,2301A,115.8276,32.8929,阜阳市,市监测站,细颗粒物(PM2.5),99,98,70,74,56,32,,35,32,26,21,4,4,0.7,0.5
2026-01-02T1000,2303A,115.8551,32.8606,阜阳市,开发区,细颗粒物(PM2.5),99,83,56,74,51,30,,36,32,21,16,4,4,0.5,0.4
2026-01-02T1000,2875A,115.783962,32.889217,阜阳市,阜阳职业技术学院,细颗粒物(PM2.5),98,81,63,73,49,36,,29,28,17,17,5,4,0.7,0.5
2026-01-02T1000,3468A,115.79,32.8614,阜阳市,市规划展馆,细颗粒物(PM2.5),105,106,66,79,54,30,,29,27,22,18,5,4,0.8,0.6
2026-01-02T1000,3469A,115.835101,32.918568,阜阳市,枣园社区,,,,67,,61,,,34,31,22,19,4,4,0.5,0.3
2026-01-02T1000,2669A,102.9097,34.9841,甘南藏族自治州,州政府,细颗粒物(PM2.5),65,51,65,47,50,41,,40,40,15,14,2,3,0.7,0.7
2026-01-02T1000,3380A,102.8915,34.9618,甘南藏族自治州,甘肃民族师范学院,,50,50,74,28,50,55,,50,49,14,18,3,4,0.5,0.7
2026-01-02T1000,2570A,101.96,30.048,甘孜藏族自治州,水桥子,,,7,6,7,5,41,,53,48,,11,,6,,0.9
2026-01-02T1000,3065A,101.9534,29.9976,甘孜藏族自治州,州环保局,,27,27,14,13,6,36,,55,50,26,11,5,6,0.8,0.8
2026-01-02T1000,2363A,114.9368,25.8663,赣州市,地委,,31,31,40,11,17,66,,56,56,10,11,6,6,0.4,0.5
2026-01-02T1000,2364A,114.946,25.8483,赣州市,气象台,,35,35,40,7,14,71,,63,63,13,12,3,2,0.6,0.6
2026-01-02T1000,2365A,114.932,25.8332,赣州市,市图书馆,,24,24,23,9,17,65,,56,56,13,14,4,4,0.4,0.5
2026-01-02T1000,2366A,114.8905,25.8472,赣州市,华坚鞋城,,22,22,26,9,16,54,,48,48,13,12,3,4,0.2,0.3
2026-01-02T1000,3109A,115.0094,25.8614,赣州市,赣县区卫计委,,29,,18,20,18,77,,67,67,6,7,7,7,0.4,0.4
2026-01-02T1000,2684A,106.2753,36.0057,固原市,监测站,细颗粒物(PM2.5),67,,47,48,52,64,,60,60,15,22,4,4,0.6,0.8
2026-01-02T1000,2685A,106.2384,36.0189,固原市,新区,细颗粒物(PM2.5),68,,44,49,53,58,,57,57,22,27,2,2,0.9,0.8
2026-01-02T1000,2544A,106.6307,30.4577,广安市,市委,,32,29,29,22,25,32,,33,33,18,17,5,6,0.9,0.9
2026-01-02T1000,2545A,106.6266,30.4662,广安市,友谊中学,,35,,29,24,25,42,,42,42,5,8,7,7,0.5,0.7
2026-01-02T1000,2547A,106.6386,30.4551,广安市,广电花园,,35,,24,24,23,33,,34,34,16,16,8,8,0.7,0.7
2026-01-02T1000,2902A,106.6347,30.4868,广安市,北辰小学,,35,,26,24,24,40,,40,40,9,9,9,9,0.9,0.9
2026-01-02T1000,2524A,105.8211,32.4444,广元市,老城,,40,,34,28,27,63,,72,68,17,16,4,6,0.6,0.6
2026-01-02T1000,2526A,105.8629,32.429,广元市,监测站,,39,37,35,27,25,52,,67,61,22,14,3,4,0.8,0.7
2026-01-02T1000,3617A,105.8047,32.4167,广元市,经开区,细颗粒物(PM2.5),54,,32,38,31,43,,61,56,30,18,1,1,0.8,0.7
2026-01-02T1000,1345A,113.2346,23.1423,广州市,广雅中学,,21,16,51,10,32,65,,57,57,10,12,3,6,0.5,0.8
2026-01-02T1000,1346A,113.2611,23.105,广州市,市五中,,25,10,42,9,31,80,,70,70,16,21,6,10,/,/
2026-01-02T1000,1348A,113.3477,23.0916,广州市,广东商学院,,22,12,40,6,28,68,,61,61,14,14,5,8,0.3,0.6
2026-01-02T1000,1349A,113.4332,23.105,广州市,市八十六中,,24,12,36,8,30,76,,67,67,12,14,6,8,/,/
2026-01-02T1000,1350A,113.3506,22.9488,广州市,番禺中学,,22,13,49,8,33,70,,61,61,33,25,3,6,0.3,0.6
2026-01-02T1000,1351A,113.2147,23.3918,广州市,花都师范,,23,18,40,8,27,71,,56,56,16,17,5,8,0.4,0.6
2026-01-02T1000,1352A,113.2599,23.1329,广州市,市监测站,,23,15,49,9,32,71,,62,62,15,19,2,5,/,/
2026-01-02T1000,1353A,113.5618,23.3119,广州市,九龙镇镇龙,,23,7,38,3,28,72,,64,64,10,15,5,7,0.6,0.7
2026-01-02T1000,1354A,113.2764,23.1544,广州市,麓湖,,23,13,45,9,31,71,,59,59,10,16,7,10,0.2,0.4
2026-01-02T1000,2846A,113.3209,23.1323,广州市,体育西,,23,11,44,8,32,73,,64,64,11,17,4,8,0.4,0.6
2026-01-02T1000,3298A,113.5718,23.5493,广州市,从化街口,,23,9,37,6,28,73,,70,70,10,13,7,10,0.5,0.6
2026-01-02T1000,3299A,113.3463,23.369,广州市,白云竹料,,25,9,37,7,28,77,,67,67,10,13,4,7,0.3,0.6
2026-01-02T1000,3300A,113.2981,23.2365,广州市,白云嘉禾,,23,14,44,8,28,72,,66,66,20,19,4,7,/,/
2026-01-02T1000,3301A,113.4256,23.1716,广州市,黄埔科学城,,24,12,37,7,27,75,,70,70,12,13,6,7,0.6,0.7
2026-01-02T1000,3302A,113.3942,23.0485,广州市,番禺大学城,,24,19,53,6,28,76,,66,66,8,12,6,9,0.4,0.6
2026-01-02T1000,3303A,113.4923,22.8169,广州市,南沙黄阁,,38,38,50,8,29,75,,59,59,22,28,8,8,/,/
2026-01-02T1000,3304A,113.534,22.7893,广州市,南沙街,,29,29,50,8,28,68,,60,60,22,22,6,9,0.5,0.7
2026-01-02T1000,3443A,113.2905,23.5541,广州市,花都梯面,,23,9,36,6,26,72,,59,59,8,13,4,7,/,/
2026-01-02T1000,3445A,113.786,23.7479,广州市,从化良口,,24,7,28,3,23,74,,73,73,5,9,8,8,/,/
2026-01-02T1000,3446A,113.805,23.2614,广州市,增城荔城,,24,8,30,3,23,75,,68,68,8,11,5,6,0.4,0.5
2026-01-02T1000,2506A,109.604387,23.066791,贵港市,江南子站,,27,27,26,14,19,38,,44,42,12,14,3,4,0.6,0.8
2026-01-02T1000,2508A,109.5669,23.1065,贵港市,荷城子站,,22,22,24,9,16,37,,42,39,11,13,2,3,0.6,0.8
2026-01-02T1000,3405A,109.5886,23.1172,贵港市,新世纪学校,,29,29,27,16,19,38,,42,40,14,16,/,/,0.5,0.6
2026-01-02T1000,4260A,109.5933,23.095,贵港市,中山路155-3号,,26,18,22,18,26,42,,46,44,11,15,/,/,0.7,0.8
2026-01-02T1000,1439A,106.6863,26.6035,贵阳市,马鞍山,,19,17,13,12,12,59,,66,64,9,9,4,5,/,/
2026-01-02T1000,1441A,106.6241,26.6266,贵阳市,鉴湖路,,29,29,24,9,11,66,,72,70,14,14,1,2,0.4,0.6
2026-01-02T1000,1442A,106.7468,26.6344,贵阳市,燕子冲,,35,,16,24,17,66,,70,68,8,8,6,7,0.7,0.7
2026-01-02T1000,1443A,106.6556,26.4362,贵阳市,碧云窝,,29,29,30,12,18,47,,59,56,15,13,1,5,/,/
2026-01-02T1000,1445A,106.6963,26.6063,贵阳市,红边门,,28,19,17,19,13,52,,62,60,12,10,4,5,/,/
2026-01-02T1000,1446A,106.7162383,26.56964667,贵阳市,新华路,,34,34,22,14,10,56,,65,63,11,11,3,3,0.4,0.5
2026-01-02T1000,1447A,106.6742,26.542,贵阳市,太慈桥,,18,14,16,12,10,54,,60,60,14,12,4,5,/,/
2026-01-02T1000,4230A,106.688212,26.56952,贵阳市,花果园大街66号,,26,,7,18,16,48,,56,55,12,11,1,2,/,/
2026-01-02T1000,4231A,106.687268,26.516892,贵阳市,漓江路57号,,24,24,18,14,12,50,,60,59,14,13,5,5,0.6,0.8
2026-01-02T1000,1864A,110.3091,25.2705,桂林市,龙隐路小学,,45,,17,31,18,53,,45,45,8,10,6,6,0.3,0.5
2026-01-02T1000,1865A,110.2849361,25.22909545,桂林市,八中,,40,,15,28,18,46,,40,40,12,13,7,6,0.6,0.6
2026-01-02T1000,3531A,110.296,25.1254,桂林市,旅游学院,,20,17,10,14,11,63,,52,52,6,8,4,3,0.5,0.5
2026-01-02T1000,4222A,110.1835,25.2444,桂林市,环湖路276号,,,31,20,29,21,,,38,38,8,10,6,5,0.4,0.5
2026-01-02T1000,4301A,110.2803,25.2773,桂林市,信义路13号,,29,24,16,20,14,54,,44,44,10,12,4,4,0.5,0.5
2026-01-02T1000,2674A,100.2262,34.4854,果洛藏族自治州,玛沁县大武镇,颗粒物(PM10),60,69,33,6,15,25,,35,33,16,6,19,15,1.0,0.4
2026-01-02T1000,1130A,126.5557,45.8109,哈尔滨市,松北商大,细颗粒物(PM2.5),58,52,40,41,27,24,,19,19,27,24,10,9,0.7,0.6
2026-01-02T1000,1132A,126.6162,45.719,哈尔滨市,南岗学府路,细颗粒物(PM2.5),93,,44,69,32,20,,14,14,29,23,14,11,1.1,0.8
2026-01-02T1000,1133A,126.6894,45.7733,哈尔滨市,太平宏伟公园,细颗粒物(PM2.5),67,61,47,48,32,23,,21,19,32,22,22,20,0.9,0.7
2026-01-02T1000,1134A,126.6361,45.7672,哈尔滨市,道外承德广场,细颗粒物(PM2.5),78,87,54,57,33,22,,20,16,36,26,12,13,0.8,0.4
2026-01-02T1000,1136A,126.644,45.7261,哈尔滨市,动力和平路,细颗粒物(PM2.5),74,68,45,54,32,24,,14,14,30,25,11,12,0.9,0.7
2026-01-02T1000,1137A,126.5933,45.7479,哈尔滨市,道里建国路,细颗粒物(PM2.5),87,68,42,64,36,19,,18,16,31,23,18,9,0.9,0.6
2026-01-02T1000,1138A,126.6127,45.6119,哈尔滨市,平房东轻厂,细颗粒物(PM2.5),68,81,41,49,34,17,,9,9,33,34,8,9,0.8,0.5
2026-01-02T1000,1139A,126.5875,45.9827,哈尔滨市,呼兰师专,细颗粒物(PM2.5),97,,48,72,48,27,,16,16,19,24,10,7,1.0,0.9
2026-01-02T1000,1140A,126.6299,45.6799,哈尔滨市,省农科院,细颗粒物(PM2.5),124,,52,94,43,20,,11,11,38,34,17,11,1.2,0.9
2026-01-02T1000,4282A,126.6769,45.7379,哈尔滨市,华山路1号,细颗粒物(PM2.5),64,63,41,46,32,19,,11,11,33,29,24,28,0.9,0.6
2026-01-02T1000,4283A,126.9717,45.5356,哈尔滨市,解放大街52号,细颗粒物(PM2.5),85,78,47,63,40,28,,22,22,18,21,8,9,1.2,0.9
2026-01-02T1000,2688A,93.5124,42.8176,哈密市,地区监测站,细颗粒物(PM2.5),67,73,58,48,42,31,,32,32,19,19,3,4,0.4,0.4
2026-01-02T1000,2689A,93.5014,42.8312,哈密市,哈密师范学校,,,75,70,40,33,29,,24,24,29,29,,3,0.5,0.6
2026-01-02T1000,2671A,100.9016,36.9464,海北藏族自治州,海晏县西海镇,细颗粒物(PM2.5),59,46,52,42,45,62,,52,52,10,13,8,11,0.8,0.7
2026-01-02T1000,3867A,102.074,36.5056,海东市,平安区公安局北苑,细颗粒物(PM2.5),79,74,76,58,63,31,,26,26,17,20,10,20,0.9,1
2026-01-02T1000,4163A,102.0984,36.5119,海东市,滨河路,细颗粒物(PM2.5),74,62,70,54,60,18,,23,18,48,39,8,20,0.9,0.9
2026-01-02T1000,1410A,110.3189,20.0596,海口市,海南大学,,38,38,46,23,24,51,,86,68,11,9,7,6,0.5,0.3
2026-01-02T1000,1411A,110.2827,20.0051,海口市,秀英海南医院,,49,49,44,25,24,48,,80,65,12,9,8,8,0.5,0.4
2026-01-02T1000,1412A,110.3391,19.9979,海口市,海南师范大学,,48,48,42,24,24,52,,87,70,12,9,6,6,0.6,0.4
2026-01-02T1000,1413A,110.3303,20.0359,海口市,龙华路环保局宿舍,,48,48,44,24,24,53,,88,70,13,10,/,/,0.7,0.7
2026-01-02T1000,3539A,110.5111,19.9737,海口市,桂林洋子站,,37,37,45,24,26,50,,80,64,11,9,/,/,/,/
2026-01-02T1000,4134A,110.1952,20.0451,海口市,长滨二路9号,,40,37,43,28,28,53,,86,69,9,7,/,/,/,/
2026-01-02T1000,2673A,100.6158,36.2985,海南藏族自治州,共和县恰卜恰镇,细颗粒物(PM2.5),67,82,44,48,28,21,,28,27,37,19,12,12,0.9,0.6
2026-01-02T1000,2676A,97.373,37.376,海西蒙古族藏族自治州,德令哈市,,24,10,22,7,9,75,,78,77,2,6,14,13,0.3,0.5
2026-01-02T1000,1049A,114.492,36.5712,邯郸市,矿院,细颗粒物(PM2.5),110,89,72,83,67,15,,6,5,52,42,7,6,1.0,0.8
2026-01-02T1000,1050A,114.4839,36.6136,邯郸市,丛台公园,细颗粒物(PM2.5),92,79,70,68,59,25,,11,11,41,39,8,6,0.9,0.8
2026-01-02T1000,3458A,114.7893,36.5592,邯郸市,香泉濮院小区,细颗粒物(PM2.5),110,105,76,83,63,,,13,11,43,38,13,8,,0.8
2026-01-02T1000,3580A,114.1998,36.4439,邯郸市,峰峰矿区临水派出所,细颗粒物(PM2.5),113,,53,85,59,43,,41,41,18,24,8,9,1.0,0.8
2026-01-02T1000,4068A,114.5209,36.7697,邯郸市,建安街268号,细颗粒物(PM2.5),114,122,114,86,72,11,,6,6,52,51,12,11,1.2,1.1
2026-01-02T1000,4069A,114.5488,36.6177,邯郸市,丛台东路558号,"颗粒物(PM10),细颗粒物(PM2.5)",105,159,109,79,63,17,,9,9,59,53,12,9,0.8,0.6
2026-01-02T1000,2635A,107.0155,33.0707,汉中市,市监测站,,49,,28,34,31,42,,56,55,20,15,4,4,0.6,0.5
2026-01-02T1000,2636A,107.0083,33.114,汉中市,鑫源开发区,细颗粒物(PM2.5),54,,25,38,30,40,,51,47,19,15,4,4,0.7,0.6
2026-01-02T1000,2637A,107.0072,33.0323,汉中市,南郑大河坎水厂,细颗粒物(PM2.5),64,64,46,46,38,26,,30,22,23,21,6,5,0.8,0.7
2026-01-02T1000,1223A,120.2073,30.2111,杭州市,滨江,,,87,40,67,30,49,,47,47,19,17,,9,0.4,0.2
2026-01-02T1000,1224A,120.0625,30.2737,杭州市,西溪,细颗粒物(PM2.5),83,67,31,61,26,56,,50,50,22,20,11,8,0.8,0.6
2026-01-02T1000,1226A,120.3417,30.315,杭州市,下沙,细颗粒物(PM2.5),74,67,35,54,24,46,,45,44,16,16,11,7,1.3,1.1
2026-01-02T1000,1227A,120.1252,30.2465,杭州市,卧龙桥,细颗粒物(PM2.5),77,76,34,56,25,54,,51,51,12,13,13,9,0.8,0.6
2026-01-02T1000,1228A,120.1902,30.2691,杭州市,浙江农大,细颗粒物(PM2.5),89,81,40,66,32,51,,50,50,22,21,6,3,0.5,0.3
2026-01-02T1000,1230A,120.1195,30.3121,杭州市,和睦小学,细颗粒物(PM2.5),77,83,38,56,25,55,,51,51,14,13,8,5,0.7,0.5
2026-01-02T1000,1231A,120.3076,30.4146,杭州市,临平镇,细颗粒物(PM2.5),77,76,40,56,29,49,,47,46,13,12,10,7,0.6,0.4
2026-01-02T1000,1232A,120.2753,30.1839,杭州市,城厢镇,细颗粒物(PM2.5),79,64,33,58,29,55,,52,52,13,13,11,8,0.5,0.3
2026-01-02T1000,1233A,120.0883,30.1808,杭州市,云栖,细颗粒物(PM2.5),77,65,30,56,25,57,,42,42,12,14,6,3,0.7,0.6
2026-01-02T1000,3557A,119.9463,30.0496,杭州市,镇二中,细颗粒物(PM2.5),80,64,30,59,24,54,,52,52,18,17,6,4,0.6,0.5
2026-01-02T1000,3558A,119.7184,30.2367,杭州市,市府大楼,细颗粒物(PM2.5),77,72,34,56,25,58,,52,52,10,10,10,9,0.7,0.6
2026-01-02T1000,3656A,120.1554,30.2863,杭州市,消防大队,细颗粒物(PM2.5),87,64,33,64,31,51,,48,48,16,17,10,6,0.3,0.2
2026-01-02T1000,1270A,117.1957,31.7845,合肥市,明珠广场,细颗粒物(PM2.5),77,63,41,56,33,46,,49,48,10,10,5,5,0.6,0.5
2026-01-02T1000,1271A,117.307,31.8765,合肥市,三里街,细颗粒物(PM2.5),83,68,41,61,34,43,,48,46,21,17,5,4,0.8,0.7
2026-01-02T1000,1272A,117.2587,31.8703,合肥市,琥珀山庄,细颗粒物(PM2.5),75,75,45,55,38,45,,49,48,15,14,7,7,0.8,0.6
2026-01-02T1000,1275A,117.2593,31.9376,合肥市,庐阳区,细颗粒物(PM2.5),67,70,45,48,34,40,,44,42,23,19,3,2,0.7,0.6
2026-01-02T1000,1276A,117.345251,31.861615,合肥市,瑶海区,细颗粒物(PM2.5),77,70,42,56,35,49,,50,49,18,17,3,4,0.8,0.7
2026-01-02T1000,1277A,117.3033,31.7967,合肥市,包河区,细颗粒物(PM2.5),83,70,42,61,37,38,,45,42,21,19,4,4,0.7,0.7
2026-01-02T1000,1278A,117.278,31.7392,合肥市,滨湖新区,细颗粒物(PM2.5),79,68,41,58,40,44,,53,50,22,19,2,3,0.7,0.7
2026-01-02T1000,1279A,117.1324,31.8395,合肥市,高新区,细颗粒物(PM2.5),74,73,41,54,32,47,,55,52,19,15,3,3,0.6,0.5
2026-01-02T1000,3464A,117.3802,31.9148,合肥市,高教基地,细颗粒物(PM2.5),83,78,45,61,41,45,,48,48,16,14,5,5,0.6,0.5
2026-01-02T1000,4098A,117.2518,31.8404,合肥市,中国科学技术大学,细颗粒物(PM2.5),65,63,45,47,32,48,,53,51,14,13,4,4,0.5,0.4
2026-01-02T1000,3614A,79.9241,37.0878,和田地区,地区环保局,细颗粒物(PM2.5),72,75,55,52,31,25,,46,44,26,16,4,1,0.5,0.6
2026-01-02T1000,3615A,79.9132,37.1137,和田地区,市环保局,颗粒物(PM10),58,65,53,17,27,46,,51,51,17,19,2,2,0.3,0.9
2026-01-02T1000,2517A,108.0496,24.6957,河池市,市环保站,,13,,2,3,4,41,,47,45,10,9,2,2,0.7,0.8
2026-01-02T1000,4302A,108.0901,24.6945,河池市,上任中路54号,,18,,8,12,7,27,,42,39,21,11,3,4,0.7,0.8
2026-01-02T1000,1697A,114.6962,23.7538,河源市,东埔,,22,9,30,8,25,68,,70,70,8,12,5,6,0.6,0.7
2026-01-02T1000,1698A,114.6895,23.7232,河源市,老城,,22,14,33,6,22,68,,71,71,6,9,6,6,0.6,0.7
2026-01-02T1000,3374A,115.5562,35.089,菏泽市,定陶老年大学,细颗粒物(PM2.5),73,80,64,53,49,26,,21,21,33,26,13,6,0.8,0.5
2026-01-02T1000,4114A,115.4239,35.2593,菏泽市,黄河路600号,颗粒物(PM10),64,77,73,44,56,24,,14,14,43,37,10,6,1.1,0.8
2026-01-02T1000,4115A,115.5025,35.2727,菏泽市,菏泽市人社局,颗粒物(PM10),65,80,69,44,49,25,,19,19,39,26,17,7,0.8,0.6
2026-01-02T1000,4184A,115.479691,35.244011,菏泽市,永昌路1号,细颗粒物(PM2.5),75,91,69,55,54,33,,28,28,33,26,15,7,0.6,0.5
2026-01-02T1000,4193A,115.471542,35.280012,菏泽市,长城路999号,"颗粒物(PM10),细颗粒物(PM2.5)",65,79,72,47,50,36,,27,27,33,26,12,7,1.0,0.9
2026-01-02T1000,2514A,111.5264,24.4178,贺州市,环保小区,,23,22,18,16,13,24,,30,28,13,13,5,5,0.6,0.6
2026-01-02T1000,2515A,111.561,24.4074,贺州市,政协大楼,,21,21,19,13,12,22,,28,27,13,11,7,8,0.5,0.6
2026-01-02T1000,3534A,111.4744,24.455,贺州市,西湾,,25,18,14,17,8,28,,32,31,12,11,6,6,0.6,0.7
2026-01-02T1000,2385A,114.17,35.9019,鹤壁市,市监测站,细颗粒物(PM2.5),100,90,87,75,71,20,,13,13,24,22,6,4,1.1,0.9
2026-01-02T1000,2386A,114.2953,35.7512,鹤壁市,市交警支队,细颗粒物(PM2.5),85,89,85,63,68,12,,4,4,27,31,4,4,0.9,0.8
2026-01-02T1000,2387A,114.2877,35.7302,鹤壁市,迎宾馆,细颗粒物(PM2.5),87,102,82,64,69,14,,7,7,26,26,2,3,1.0,0.9
2026-01-02T1000,3474A,114.2616,35.6824,鹤壁市,大新区,细颗粒物(PM2.5),104,111,74,78,72,8,,13,11,36,28,5,3,1.0,0.8
2026-01-02T1000,3596A,114.1573,35.9607,鹤壁市,南山宾馆,,,97,78,74,62,,,27,26,13,17,6,5,0.8,0.8
2026-01-02T1000,2244A,130.2537,47.3416,鹤岗市,哈啤分公司,,32,22,22,22,18,54,,52,52,8,5,8,6,0.4,0.4
2026-01-02T1000,2245A,130.2683,47.3087,鹤岗市,斯达机电,,23,22,21,16,20,58,,58,58,9,5,5,5,0.4,0.4
2026-01-02T1000,2246A,130.3114,47.3388,鹤岗市,东山纸板厂,,38,38,28,24,21,60,,33,30,9,13,8,8,1.1,0.8
2026-01-02T1000,2263A,127.4832,50.2524,黑河市,交通局,,38,31,20,26,19,28,,51,41,48,13,6,4,0.5,0.3
2026-01-02T1000,2264A,127.5146,50.2339,黑河市,环保局,,,134,25,,21,18,,43,31,63,17,74,9,2.1,0.5
2026-01-02T1000,1074A,115.6839,37.754,衡水市,电机北厂,颗粒物(PM10),67,84,68,47,43,21,,6,6,42,44,13,13,0.8,0.7
2026-01-02T1000,1075A,115.6303,37.7318,衡水市,市监测站,颗粒物(PM10),71,91,61,50,38,13,,8,8,51,43,12,11,0.9,0.8
2026-01-02T1000,3188A,115.6684,37.7216,衡水市,市城管局,"颗粒物(PM10),细颗粒物(PM2.5)",70,90,64,51,44,19,,8,8,46,46,12,12,0.9,0.8
2026-01-02T1000,3459A,115.599,37.5491,衡水市,地表水厂,,,75,57,63,45,14,,5,5,42,44,,9,1.0,0.8
2026-01-02T1000,2457A,112.6209,26.9268,衡阳市,衡阳化工总厂,细颗粒物(PM2.5),52,36,35,36,39,31,,30,30,17,15,6,5,0.9,0.9
2026-01-02T1000,2458A,112.621,26.8957,衡阳市,珠晖区环保局,细颗粒物(PM2.5),59,44,36,42,43,23,,24,24,19,17,5,2,0.8,0.8
2026-01-02T1000,2459A,112.628,26.8654,衡阳市,市委党校,细颗粒物(PM2.5),53,,37,37,40,30,,30,30,15,15,7,5,0.8,0.8
2026-01-02T1000,2460A,112.6007,26.8977,衡阳市,市监测站,细颗粒物(PM2.5),58,52,52,41,42,31,,31,31,9,9,6,5,0.7,0.7
2026-01-02T1000,2461A,112.5658,26.9013,衡阳市,真空机电公司,细颗粒物(PM2.5),52,45,49,36,43,33,,32,32,13,14,5,5,0.7,0.7
2026-01-02T1000,3399A,112.6703,26.8817,衡阳市,师范学院,细颗粒物(PM2.5),58,49,40,41,36,35,,33,33,15,14,1,3,1.2,1.1
2026-01-02T1000,3038A,103.3757,23.3679,红河哈尼族彝族自治州,州图书馆,细颗粒物(PM2.5),67,59,35,48,24,21,,53,42,22,7,15,7,0.9,0.5
2026-01-02T1000,4154A,103.401,23.3561,红河哈尼族彝族自治州,蒙自市朝阳路,,40,40,19,28,23,52,,,,13,5,9,9,0.4,0.3
2026-01-02T1000,1090A,111.6506,40.7517,呼和浩特市,呼市一监,"颗粒物(PM10),细颗粒物(PM2.5)",68,85,90,49,68,13,,6,6,34,45,10,9,1.3,1.1
2026-01-02T1000,1094A,111.7516,40.8369,呼和浩特市,如意水处理厂,"颗粒物(PM10),细颗粒物(PM2.5)",59,68,70,42,45,13,,4,4,56,50,13,14,1.4,0.9
2026-01-02T1000,1095A,111.727798,40.806187,呼和浩特市,二十九中,颗粒物(PM10),54,58,68,30,46,17,,6,6,39,46,16,17,1.1,0.8
2026-01-02T1000,1097A,111.717,40.7617,呼和浩特市,化肥厂生活区,颗粒物(PM10),55,60,85,37,57,11,,3,3,38,46,17,13,1.3,0.9
2026-01-02T1000,3699A,111.6519,40.8389,呼和浩特市,海东办,细颗粒物(PM2.5),60,66,88,43,66,8,,4,4,47,48,8,11,1.1,0.9
2026-01-02T1000,4275A,111.591512,40.827312,呼和浩特市,成吉思汗西街8号,"颗粒物(PM10),细颗粒物(PM2.5)",68,85,64,49,43,6,,5,5,48,46,10,10,0.9,0.8
2026-01-02T1000,4276A,111.6597,40.8077,呼和浩特市,公园东路75号,,46,46,75,28,50,24,,10,10,41,52,9,12,0.9,0.8
2026-01-02T1000,4277A,111.5427,40.7846,呼和浩特市,金海路35号,细颗粒物(PM2.5),73,78,76,53,54,9,,3,3,50,49,12,14,1.2,0.9
2026-01-02T1000,3061A,119.7511,49.1576,呼伦贝尔市,国华电力东,,19,12,23,9,16,60,,53,53,17,17,5,6,0.3,0.2
2026-01-02T1000,4279A,119.7569,49.2222,呼伦贝尔市,伊敏大街东7号,细颗粒物(PM2.5),60,49,25,43,20,11,,50,41,47,16,9,6,0.7,0.4
2026-01-02T1000,1250A,120.075,30.867,湖州市,城西水厂,细颗粒物(PM2.5),79,78,44,58,32,46,,44,38,31,22,12,9,0.7,0.5
2026-01-02T1000,2873A,120.083,30.8929,湖州市,仁皇山新区,细颗粒物(PM2.5),84,75,40,62,32,50,,51,49,27,22,12,9,0.5,0.4
2026-01-02T1000,2907A,120.1846,30.8592,湖州市,吴兴区站,细颗粒物(PM2.5),68,60,38,49,30,47,,48,46,21,17,8,5,0.6,0.5
2026-01-02T1000,3562A,120.4146,30.8538,湖州市,南浔区站,细颗粒物(PM2.5),57,53,30,40,21,42,,46,45,21,18,9,6,0.6,0.5
2026-01-02T1000,1607A,120.904878,40.721091,葫芦岛市,龙港区,细颗粒物(PM2.5),112,146,61,84,39,18,,11,11,53,30,58,20,2.0,1.4
2026-01-02T1000,1608A,120.8382,40.7521,葫芦岛市,化工街,细颗粒物(PM2.5),134,146,71,102,34,18,,10,10,47,31,106,33,1.2,0.8
2026-01-02T1000,1609A,120.8339,40.7078,葫芦岛市,新区,细颗粒物(PM2.5),93,71,38,69,25,13,,5,5,68,38,34,14,1.2,0.7
2026-01-02T1000,1610A,120.8697,40.7679,葫芦岛市,东城区,细颗粒物(PM2.5),182,166,62,137,46,19,,7,7,42,32,37,36,1.7,1.1
2026-01-02T1000,2483A,109.9297,27.5383,怀化市,河西地税局,细颗粒物(PM2.5),67,52,37,48,35,53,,46,46,12,12,9,7,/,/
2026-01-02T1000,2484A,109.9783,27.5342,怀化市,市四医院,细颗粒物(PM2.5),74,59,38,54,33,35,,45,40,12,9,10,10,0.5,0.5
2026-01-02T1000,2485A,109.9971,27.5579,怀化市,监测楼,细颗粒物(PM2.5),64,60,35,46,29,49,,54,49,13,17,2,2,0.1,0.1
2026-01-02T1000,1210A,119.0566,33.5991,淮安市,钵池山,,42,29,57,29,42,47,,31,31,14,27,7,9,0.3,0.4
2026-01-02T1000,1211A,119.0083,33.578,淮安市,北京南路,,38,31,60,26,39,44,,30,30,9,21,8,10,0.7,0.8
2026-01-02T1000,1212A,118.9938,33.6083,淮安市,市监测站,,19,19,56,9,45,43,,27,27,15,31,10,10,0.5,0.6
2026-01-02T1000,1213A,119.135,33.5038,淮安市,楚州区监测站,,32,32,55,20,41,42,,29,29,14,22,10,10,0.6,0.6
2026-01-02T1000,3426A,118.8757,33.2897,淮安市,新华书店,,34,34,67,19,50,42,,24,24,13,23,11,10,0.6,0.7
2026-01-02T1000,4092A,119.119691,33.550006,淮安市,枚皋中路89号,,41,41,62,19,46,50,,33,33,12,26,9,9,1.1,1.2
2026-01-02T1000,4206A,119.028838,33.631911,淮安市,承德北路606号,,40,31,63,28,40,47,,32,32,10,25,8,10,0.7,0.7
2026-01-02T1000,2282A,116.8005,33.9749,淮北市,监测站,颗粒物(PM10),65,80,77,36,50,40,,27,25,24,28,10,9,0.5,0.7
2026-01-02T1000,2283A,116.8094,33.9008,淮北市,烈山区政府,,50,50,66,35,52,47,,30,30,17,26,9,8,0.4,0.4
2026-01-02T1000,4017A,116.7926,33.9534,淮北市,市博物馆,颗粒物(PM10),61,71,76,34,48,39,,28,27,22,26,13,10,0.5,0.5
2026-01-02T1000,4100A,116.8322,33.9884,淮北市,杜集区第一实验学校,,,53,73,32,51,,,21,17,11,17,10,7,0.8,0.8
2026-01-02T1000,2277A,116.8304,32.7726,淮南市,潘集区政府,细颗粒物(PM2.5),89,78,66,66,54,33,,38,34,22,15,6,4,0.7,0.5
2026-01-02T1000,2279A,116.8569,32.5949,淮南市,谢家集区政府,细颗粒物(PM2.5),74,80,54,54,41,28,,40,35,25,19,8,6,0.4,0.3
2026-01-02T1000,2280A,116.8279,32.6333,淮南市,八公山区政府,细颗粒物(PM2.5),68,75,53,49,44,34,,42,38,18,12,4,2,0.5,0.4
2026-01-02T1000,2894A,117.0561,32.6536,淮南市,经济技术开发区消防队,颗粒物(PM10),66,82,63,45,47,34,,36,32,26,17,6,3,0.6,0.4
2026-01-02T1000,3329A,117.011,32.5891,淮南市,山南新区,细颗粒物(PM2.5),68,75,55,49,37,33,,42,38,22,13,3,2,0.6,0.4
2026-01-02T1000,4209A,117.003137,32.644456,淮南市,国庆中路369号,颗粒物(PM10),61,72,52,35,44,28,,31,27,27,17,6,3,0.6,0.4
2026-01-02T1000,2446A,114.9021,30.474,黄冈市,职工中心,,40,35,28,28,22,38,,47,44,14,7,5,5,0.6,0.6
2026-01-02T1000,2929A,114.8858,30.4519,黄冈市,红卫路,,40,40,32,26,23,36,,44,40,18,10,5,4,0.5,0.5
2026-01-02T1000,3398A,114.9134,30.4446,黄冈市,市林业局,,40,34,27,28,24,46,,46,44,15,11,4,4,0.5,0.4
2026-01-02T1000,2672A,102.02,35.5101,黄南藏族自治州,同仁县隆务镇,,48,43,53,33,40,47,,52,51,2,5,9,10,0.4,0.5
2026-01-02T1000,2295A,118.2905,29.6965,黄山市,延安路89号,,36,27,16,25,15,61,,54,54,8,9,3,3,0.4,0.4
2026-01-02T1000,2297A,118.1369,30.2755,黄山市,黄山区政府5号楼,,45,34,24,31,20,68,,57,57,8,11,6,5,0.5,0.5
2026-01-02T1000,4210A,118.335445,29.720283,黄山市,滨江东路7-2号,,49,37,25,34,21,55,,51,51,12,12,/,/,/,/
2026-01-02T1000,2423A,115.0547,30.2332,黄石市,沈家营,,33,33,30,14,17,43,,38,38,15,11,4,5,0.9,0.9
2026-01-02T1000,2426A,114.899,30.211,黄石市,铁山,,48,47,37,33,28,33,,40,37,26,8,8,5,0.8,0.9
2026-01-02T1000,2427A,115.0259,30.2108,黄石市,团城山,,37,37,32,18,19,44,,41,41,11,10,6,6,0.5,0.5
2026-01-02T1000,3149A,115.0174,30.1591,黄石市,笔架山北路,,48,48,36,18,17,41,,40,39,10,9,6,7,0.8,0.8
2026-01-02T1000,4185A,115.078022,30.21118,黄石市,磁湖东路29号,,,26,29,21,23,,,36,36,10,12,5,5,,0.7
2026-01-02T1000,1392A,114.4181,23.0528,惠州市,河南岸金山湖子站,,22,16,39,7,24,69,,66,66,13,15,3,4,0.5,0.6
2026-01-02T1000,1393A,114.4055,23.0824,惠州市,下埔横江三路子站,,23,13,36,9,24,73,,69,69,7,10,6,7,0.5,0.6
2026-01-02T1000,1395A,114.4645,22.7832,惠州市,惠阳区承修路船湖子站,,,,43,,26,,,97,65,,12,,7,,0.6
2026-01-02T1000,1396A,114.5316,22.7423,惠州市,大亚湾管委会子站,,22,17,41,8,25,68,,63,63,7,10,5,6,0.3,0.4
2026-01-02T1000,3314A,114.4334,22.8134,惠州市,惠阳秋长,,27,27,42,11,25,79,,74,74,9,11,/,/,/,/
2026-01-02T1000,3452A,114.6521,22.7755,惠州市,大亚湾霞涌,,28,28,43,9,25,70,,64,64,11,12,/,/,/,/
2026-01-02T1000,4300A,114.4089,23.1147,惠州市,文华一路1号,,24,15,38,10,25,76,,73,73,10,12,/,/,/,/
2026-01-02T1000,2240A,130.9618,45.2926,鸡西市,环保局,,30,27,19,21,16,41,,38,38,7,6,6,6,0.3,0.2
2026-01-02T1000,2243A,130.9294,45.2959,鸡西市,第一中学,,26,19,19,18,16,47,,42,42,7,7,3,3,0.4,0.4
2026-01-02T1000,3707A,131.0069,45.2988,鸡西市,欧美日汽修厂,,29,29,23,15,17,44,,42,42,13,9,10,7,0.4,0.4
2026-01-02T1000,2367A,114.9753,27.0803,吉安市,红声器材厂,,30,30,26,20,14,45,,38,38,18,19,8,9,0.4,0.4
2026-01-02T1000,2369A,114.9903,27.1313,吉安市,市环境监测站,,29,29,25,20,16,48,,39,39,11,15,12,12,/,/
2026-01-02T1000,2370A,115.009527,27.096792,吉安市,青原区法院,,29,27,25,20,15,41,,36,36,14,14,11,12,0.5,0.5
2026-01-02T1000,1772A,126.54,43.8622,吉林市,哈达湾,,40,38,38,28,28,39,,30,30,14,18,8,7,1.3,1.3
2026-01-02T1000,1773A,126.5843,43.8358,吉林市,东局子,,49,38,39,34,30,29,,26,25,20,18,9,6,1.0,1
2026-01-02T1000,1774A,126.5051,43.8243,吉林市,电力学院,,48,38,56,33,47,41,,26,26,13,24,11,12,0.8,0.9
2026-01-02T1000,1775A,126.6133,43.8971,吉林市,江北,,49,46,41,34,32,31,,29,29,22,18,9,9,0.9,0.8
2026-01-02T1000,1776A,126.5549,43.8304,吉林市,江南公园,细颗粒物(PM2.5),52,40,39,36,36,36,,27,27,17,16,10,11,1.0,0.9
2026-01-02T1000,2868A,126.4737,43.953,吉林市,九站,细颗粒物(PM2.5),53,54,47,37,34,34,,24,24,21,24,7,10,0.9,0.8
2026-01-02T1000,1299A,116.9866,36.6118,济南市,科干所,,48,48,37,22,17,31,,30,27,36,30,21,10,1.0,0.8
2026-01-02T1000,1300A,116.9379,36.6652,济南市,农科所,,46,46,52,20,24,32,,8,8,30,36,10,8,0.8,0.8
2026-01-02T1000,1301A,117.1265,36.6736,济南市,开发区,,20,20,43,10,24,49,,25,25,16,27,4,6,0.6,0.7
2026-01-02T1000,1303A,117.0616,36.6865,济南市,省种子仓库,,29,29,49,12,22,47,,19,19,28,34,6,8,0.6,0.6
2026-01-02T1000,1304A,116.9495185,36.644937,济南市,机床二厂,,,54,54,22,27,34,,10,10,,41,,9,0.9,0.8
2026-01-02T1000,1305A,117.0496,36.6629,济南市,市监测站,,24,24,40,12,20,48,,31,31,20,25,5,7,0.6,0.6
2026-01-02T1000,1306A,116.7674,36.5458,济南市,长清党校,,46,46,46,27,24,19,,6,6,36,39,8,10,0.8,0.7
2026-01-02T1000,1961A,117.5323,36.6865,济南市,东山小学,,24,24,39,12,19,59,,37,37,10,22,5,6,0.7,0.8
2026-01-02T1000,3059A,117.7181,36.205,济南市,泰兴公司,细颗粒物(PM2.5),89,90,48,66,31,22,,14,12,38,32,5,7,0.8,0.7
2026-01-02T1000,3064A,117.6861,36.2172,济南市,莱芜战役纪念馆,细颗粒物(PM2.5),83,90,46,61,31,15,,20,14,42,31,8,9,0.8,0.4
2026-01-02T1000,3494A,117.1673,36.9782,济南市,济阳区政府,颗粒物(PM10),61,71,42,37,19,20,,34,28,38,26,7,8,0.6,0.4
2026-01-02T1000,3495A,117.1168,36.6299,济南市,锦屏中学,,17,17,34,3,15,54,,40,40,15,24,2,4,0.5,0.5
2026-01-02T1000,4108A,117.7107,36.2385,济南市,山财大街5号,细颗粒物(PM2.5),53,40,55,37,25,31,,26,23,23,24,4,9,0.5,0.4
2026-01-02T1000,4109A,116.9744,36.6889,济南市,无影山路12号,颗粒物(PM10),63,76,60,28,30,22,,6,6,39,38,19,11,0.9,0.7
2026-01-02T1000,1653A,116.6229,35.4288,济宁市,火炬城,颗粒物(PM10),55,60,47,36,31,37,,22,22,26,26,10,8,0.5,0.4
2026-01-02T1000,3500A,116.5808,35.3703,济宁市,北湖一中,细颗粒物(PM2.5),52,40,42,36,32,38,,29,29,30,30,10,7,0.8,0.5
2026-01-02T1000,3501A,116.8251,35.5592,济宁市,服务中心,颗粒物(PM10),58,66,50,31,27,33,,20,20,41,37,16,13,0.7,0.6
2026-01-02T1000,3678A,116.5907,35.4054,济宁市,市第七中学,颗粒物(PM10),53,55,45,34,23,43,,33,33,24,25,15,9,0.7,0.5
2026-01-02T1000,4111A,116.6075,35.4566,济宁市,任和路,细颗粒物(PM2.5),70,70,53,51,29,35,,13,13,24,30,12,10,0.9,0.7
2026-01-02T1000,4112A,116.5648,35.3921,济宁市,文体南路1号,细颗粒物(PM2.5),52,49,49,36,29,44,,29,29,20,27,12,19,0.7,0.5
2026-01-02T1000,2255A,130.2749,46.8028,佳木斯市,佳纺,,35,24,24,24,20,45,,41,41,11,12,7,7,0.3,0.2
2026-01-02T1000,2257A,130.3258,46.7975,佳木斯市,环保局,,29,29,25,19,16,46,,44,43,13,11,6,6,0.5,0.5
2026-01-02T1000,4285A,130.363,46.806,佳木斯市,顺和街,,,,23,,16,,,42,41,10,10,8,7,0.8,0.6
2026-01-02T1000,4286A,130.3952,46.8268,佳木斯市,长安路196号,,20,16,22,14,15,44,,43,42,14,13,6,6,0.4,0.3
2026-01-02T1000,1252A,120.7439,30.778,嘉兴市,清河小学,,,,36,,19,,,54,44,,19,,5,,0.6
2026-01-02T1000,1253A,120.7261,30.7477,嘉兴市,嘉兴学院,,43,43,33,30,22,48,,48,47,15,16,10,7,0.7,0.6
2026-01-02T1000,2872A,120.7845,30.7524,嘉兴市,南湖区残联,,43,37,31,30,22,54,,54,52,15,14,7,4,0.7,0.6
2026-01-02T1000,3407A,120.6915,30.7741,嘉兴市,秀洲住建,细颗粒物(PM2.5),54,56,34,38,24,50,,49,48,19,19,10,7,0.6,0.5
2026-01-02T1000,1945A,98.291,39.7705,嘉峪关市,气象局,细颗粒物(PM2.5),62,63,55,44,35,59,,74,72,14,8,2,2,0.5,0.5
2026-01-02T1000,2884A,98.2672,39.7978,嘉峪关市,酒钢宾馆,细颗粒物(PM2.5),58,61,56,41,36,72,,77,77,6,6,11,11,0.6,0.6
2026-01-02T1000,3248A,98.2644,39.7723,嘉峪关市,雄关区,细颗粒物(PM2.5),65,64,54,47,35,69,,77,76,15,11,15,13,0.8,0.8
2026-01-02T1000,1383A,113.1063,22.6058,江门市,北街,,22,16,49,6,31,70,,58,58,14,19,/,/,/,/
2026-01-02T1000,1384A,113.073,22.5835,江门市,西区,,30,30,51,3,25,70,,56,56,18,27,/,/,/,/
2026-01-02T1000,1385A,113.0218,22.531,江门市,圭峰西,,34,34,48,6,33,73,,58,58,12,21,/,/,/,/
2026-01-02T1000,1386A,113.0826,22.5947,江门市,东湖,,23,12,50,9,34,72,,58,58,20,28,7,9,0.4,0.6
2026-01-02T1000,3311A,113.1077,22.5647,江门市,江海富民,,,32,64,3,28,,,55,55,19,25,/,/,0.6,0.7
2026-01-02T1000,3449A,113.0496,22.4669,江门市,新会银湖,,20,17,50,6,35,64,,54,54,14,19,6,8,0.5,0.6
2026-01-02T1000,3335A,113.3137,35.2643,焦作市,马村街道办,细颗粒物(PM2.5),93,79,80,69,71,27,,22,22,23,21,6,3,0.8,0.8
2026-01-02T1000,3336A,113.2464,35.2374,焦作市,焦作技师学院,细颗粒物(PM2.5),92,74,78,68,69,19,,20,20,29,24,8,6,1.1,1.1
2026-01-02T1000,3477A,113.1656,35.2536,焦作市,中站许衡医院,细颗粒物(PM2.5),98,,86,73,81,37,,40,40,17,25,7,4,1.1,1.1
2026-01-02T1000,3981A,113.2456,35.18,焦作市,原李万街道办,细颗粒物(PM2.5),125,,76,95,66,5,,6,5,22,20,3,3,1.2,0.8
2026-01-02T1000,4264A,113.234,35.219,焦作市,新安路1731号,细颗粒物(PM2.5),122,101,82,92,71,15,,14,14,22,16,6,4,0.9,0.7
2026-01-02T1000,4295A,113.2722,35.2121,焦作市,人民路3066号,细颗粒物(PM2.5),102,105,86,76,57,10,,6,6,26,20,5,3,1.2,0.7
2026-01-02T1000,1708A,116.3701,23.5345,揭阳市,新兴,,28,28,36,8,23,55,,52,52,16,16,8,9,0.6,0.6
2026-01-02T1000,1709A,116.3261,23.5442,揭阳市,西马,,18,14,37,9,20,56,,54,54,11,11,3,6,0.6,0.7
2026-01-02T1000,1710A,116.361,23.5627,揭阳市,东兴,,29,29,39,10,22,53,,48,48,16,18,8,10,/,/
2026-01-02T1000,1711A,116.4151,23.5295,揭阳市,渔湖,,27,27,33,14,23,55,,50,50,15,15,2,5,/,/
2026-01-02T1000,3320A,116.4028,23.5699,揭阳市,曲溪,,28,19,37,19,27,64,,54,54,7,14,2,3,0.4,0.5
2026-01-02T1000,1944A,102.1691,38.5166,金昌市,天庆家园,细颗粒物(PM2.5),79,63,55,58,50,46,,54,51,12,11,1,3,0.8,0.8
2026-01-02T1000,4022A,102.1648,38.5369,金昌市,金川区人防中心,细颗粒物(PM2.5),78,58,51,57,49,47,,57,53,11,10,3,4,0.7,0.7
2026-01-02T1000,4239A,102.193042,38.531887,金昌市,长春路96号,细颗粒物(PM2.5),74,61,54,54,46,46,,53,51,11,9,4,4,0.8,0.8
2026-01-02T1000,1262A,119.6478,29.0773,金华市,十五中,,40,40,22,27,16,46,,49,49,19,17,3,2,0.6,0.4
2026-01-02T1000,1263A,119.6859,29.1032,金华市,监测站,,49,48,25,34,17,42,,46,46,21,18,1,1,0.5,0.4
2026-01-02T1000,3659A,119.656,29.1132,金华市,气象局,,38,37,19,26,13,37,,39,39,29,21,2,2,0.5,0.5
2026-01-02T1000,1767A,121.1114,41.0879,锦州市,南山,细颗粒物(PM2.5),97,82,43,72,34,24,,15,14,27,20,23,13,1.8,0.9
2026-01-02T1000,1768A,121.060361,40.842794,锦州市,开发区,细颗粒物(PM2.5),124,162,65,94,35,12,,6,6,59,35,50,35,1.9,1
2026-01-02T1000,1769A,121.1836,41.1118,锦州市,百股街道,细颗粒物(PM2.5),85,86,45,63,33,19,,16,16,32,25,16,12,1.2,1
2026-01-02T1000,1770A,121.1176,41.1224,锦州市,天安街道,细颗粒物(PM2.5),57,52,39,40,22,31,,23,23,21,17,31,17,1.0,0.8
2026-01-02T1000,1771A,121.1303,41.1385,锦州市,北湖公园,颗粒物(PM10),52,54,39,32,25,27,,15,15,23,19,28,14,0.9,0.8
2026-01-02T1000,2160A,112.8496,35.5051,晋城市,自来水公司,细颗粒物(PM2.5),190,161,108,143,88,16,,19,14,31,25,3,4,2.2,1.2
2026-01-02T1000,2162A,112.8509,35.4886,晋城市,市环保局,细颗粒物(PM2.5),156,169,109,119,79,23,,20,15,28,25,3,4,2.0,1.2
2026-01-02T1000,3620A,112.8258,35.4804,晋城市,泽州一中,细颗粒物(PM2.5),134,105,92,102,82,16,,31,26,27,20,3,3,1.2,0.9
2026-01-02T1000,4078A,112.8246,35.5152,晋城市,前书院路,细颗粒物(PM2.5),112,155,110,84,68,14,,19,15,36,25,2,3,1.8,1
2026-01-02T1000,4079A,112.8864,35.4773,晋城市,祥云街666号,细颗粒物(PM2.5),150,166,110,115,96,17,,18,16,30,26,3,4,1.7,1
2026-01-02T1000,2174A,112.6992,37.6984,晋中市,榆次区政府,细颗粒物(PM2.5),203,197,163,153,121,11,,4,4,40,49,32,15,1.7,1.3
2026-01-02T1000,2865A,112.7195,37.683,晋中市,榆次三中,细颗粒物(PM2.5),180,195,152,136,101,9,,3,3,37,39,27,14,1.5,1.4
2026-01-02T1000,4080A,112.7375,37.7215,晋中市,广安街188号,细颗粒物(PM2.5),207,212,188,157,126,14,,5,5,39,49,14,12,1.5,1.1
2026-01-02T1000,4200A,112.7478,37.6954,晋中市,迎宾街26号,细颗粒物(PM2.5),192,190,148,144,106,12,,6,6,39,44,30,16,1.5,1.2
2026-01-02T1000,2439A,112.2012,31.048,荆门市,竹园小学,细颗粒物(PM2.5),75,65,63,55,52,32,,34,33,19,20,3,2,0.4,0.5
2026-01-02T1000,2440A,112.1968,30.9892,荆门市,掇刀,细颗粒物(PM2.5),77,72,65,56,54,43,,50,46,14,14,3,2,0.6,0.5
2026-01-02T1000,3012A,112.1849,31.0361,荆门市,西山林语,细颗粒物(PM2.5),67,57,60,48,49,44,,50,46,18,16,4,4,0.6,0.7
2026-01-02T1000,3547A,112.1631,31.0134,荆门市,龙泉中学南校,细颗粒物(PM2.5),78,62,60,57,50,55,,48,47,6,4,6,7,0.4,0.3
2026-01-02T1000,4124A,112.2213,31.0654,荆门市,新台西路6号,细颗粒物(PM2.5),88,72,70,65,62,25,,13,13,18,18,7,6,0.6,0.6
2026-01-02T1000,1844A,112.2493,30.3198,荆州市,市图书馆,细颗粒物(PM2.5),94,,54,70,56,31,,30,28,24,18,7,6,0.8,0.7
2026-01-02T1000,1845A,112.2009,30.3543,荆州市,市委党校,细颗粒物(PM2.5),88,73,50,65,52,35,,20,20,17,19,4,3,0.8,0.7
2026-01-02T1000,3194A,112.2749,30.3124,荆州市,管委会,细颗粒物(PM2.5),84,69,51,62,54,29,,17,15,27,23,5,5,0.7,0.7
2026-01-02T1000,4268A,112.1722,30.3366,荆州市,学苑路85号,细颗粒物(PM2.5),97,73,45,72,47,44,,28,28,19,19,1,1,0.7,0.6
2026-01-02T1000,2343A,117.2114,29.2931,景德镇市,老干部活动中心,,30,30,13,15,11,52,,40,40,5,5,6,7,0.6,0.6
2026-01-02T1000,2344A,117.1893,29.2789,景德镇市,兽医站,,29,27,20,20,10,56,,44,44,6,8,7,6,0.2,0.1
2026-01-02T1000,2346A,117.246,29.2958,景德镇市,陶研所,,20,20,11,13,12,53,,42,42,2,3,5,5,0.6,0.5
2026-01-02T1000,4289A,117.154766,29.256967,景德镇市,青少年活动中心,,22,20,13,15,9,57,,46,46,8,9,2,2,/,/
2026-01-02T1000,1803A,115.9873,29.6816,九江市,十里,,40,32,20,28,23,69,,66,66,15,16,3,3,0.5,0.5
2026-01-02T1000,1804A,115.9583,29.7047,九江市,茅山头,,29,29,24,20,22,65,,61,61,8,8,4,4,0.6,0.6
2026-01-02T1000,1805A,115.9877,29.7295,九江市,西园,,40,,20,28,18,73,,67,67,14,16,1,1,0.6,0.6
2026-01-02T1000,1808A,115.9112,29.6038,九江市,综合工业园,,,34,23,30,22,,,65,65,12,14,3,3,0.7,0.8
2026-01-02T1000,3190A,116.0254,29.6995,九江市,外国语学校,,35,,23,24,22,60,,56,56,12,12,6,6,0.5,0.5
2026-01-02T1000,4253A,116.010205,29.659402,九江市,莲花大道8号,,35,34,25,24,19,63,,58,58,2,4,2,2,0.2,0.3
2026-01-02T1000,4240A,98.495752,39.733935,酒泉市,玉门东路5号,颗粒物(PM10),52,53,62,31,34,42,,54,49,16,8,8,8,0.6,0.5
2026-01-02T1000,4241A,98.5099,39.7506,酒泉市,北大街108号,颗粒物(PM10),51,51,56,34,33,43,,50,45,15,14,7,7,0.6,0.4
2026-01-02T1000,2698A,76.0071,39.466,喀什地区,巡警大队,颗粒物(PM10),55,59,74,31,47,22,,20,20,20,20,3,3,0.6,1
2026-01-02T1000,2699A,75.9756,39.4693,喀什地区,吾办,"颗粒物(PM10),细颗粒物(PM2.5)",53,56,67,37,49,27,,25,25,15,21,3,4,0.7,0.9
2026-01-02T1000,4027A,75.9485,39.4688,喀什地区,老干局,颗粒物(PM10),56,61,77,34,47,37,,35,35,12,20,1,2,0.7,1.1
2026-01-02T1000,1824A,114.3389,34.778,开封市,肿瘤医院,细颗粒物(PM2.5),109,,63,82,58,20,,13,11,25,26,5,4,1.3,1.1
2026-01-02T1000,1826A,114.2884,34.7966,开封市,世纪星幼儿园,细颗粒物(PM2.5),119,,63,90,84,15,,14,12,25,28,3,2,0.7,0.6
2026-01-02T1000,3147A,114.3434,34.8101,开封市,龙亭公园,细颗粒物(PM2.5),117,,64,88,80,11,,6,6,23,25,2,2,1.6,1.3
2026-01-02T1000,3210A,114.3645,34.7955,开封市,汴京公园,细颗粒物(PM2.5),114,104,72,86,62,13,,9,8,28,28,4,4,1.1,0.8
2026-01-02T1000,3473A,114.2485,34.8306,开封市,技师学院,细颗粒物(PM2.5),110,96,61,83,65,11,,8,7,24,30,5,5,1.0,0.8
2026-01-02T1000,3592A,114.4518,34.7503,开封市,祥符区生态环境局,细颗粒物(PM2.5),125,107,82,95,62,24,,12,12,33,37,10,4,0.9,0.6
2026-01-02T1000,1951A,84.886,45.6029,克拉玛依市,长征新村,颗粒物(PM10),57,64,61,36,32,28,,34,34,33,23,4,5,1.0,0.8
2026-01-02T1000,1952A,84.8894,45.5827,克拉玛依市,南林小区,颗粒物(PM10),58,66,58,32,26,9,,27,24,37,21,4,3,1.1,0.8
2026-01-02T1000,1954A,84.896,44.3328,克拉玛依市,独山子区,颗粒物(PM10),56,61,87,32,33,21,,55,47,57,19,6,5,0.8,0.6
2026-01-02T1000,1955A,85.6888,46.0909,克拉玛依市,乌尔禾区商贸楼,颗粒物(PM10),63,76,61,35,35,9,,28,23,37,21,4,5,1.6,1
2026-01-02T1000,3612A,85.1045,45.6895,克拉玛依市,白碱滩区新站,颗粒物(PM10),64,78,76,36,35,4,,32,28,24,12,7,8,0.7,0.7
2026-01-02T1000,2697A,76.1457,39.7143,克孜勒苏柯尔克孜自治州,市人民政府,颗粒物(PM10),74,97,62,24,32,44,,48,48,4,10,5,5,0.3,0.3
2026-01-02T1000,3665A,76.1654,39.7157,克孜勒苏柯尔克孜自治州,克州文化中心,颗粒物(PM10),67,83,58,29,33,43,,49,48,6,10,3,3,0.4,0.5
2026-01-02T1000,1450A,102.8203,24.889,昆明市,呈贡新区,,43,41,38,30,26,32,,11,8,29,28,6,4,0.4,0.3
2026-01-02T1000,1452A,102.7253,25.0904,昆明市,龙泉镇,,39,39,33,19,20,40,,18,18,22,23,3,3,0.6,0.6
2026-01-02T1000,1453A,102.7267,25.0378,昆明市,东风东路,,33,33,38,21,25,47,,44,40,21,22,5,5,0.6,0.6
2026-01-02T1000,1454A,102.6744,25.0671,昆明市,金鼎山,,39,39,47,16,25,47,,26,21,15,22,12,5,0.5,0.5
2026-01-02T1000,1455A,102.6643,25.0401,昆明市,碧鸡广场,,40,39,39,28,27,40,,33,29,22,23,14,6,0.6,0.6
2026-01-02T1000,3179A,102.7491,25.012,昆明市,官渡区博物馆,,36,36,33,19,22,40,,25,17,22,24,4,4,0.5,0.4
2026-01-02T1000,3375A,102.8016,24.8336,昆明市,青年创业园,,40,40,32,28,15,37,,23,19,16,13,9,11,0.5,0.6
2026-01-02T1000,3550A,102.8,24.9787,昆明市,昆明学院,,38,38,39,22,23,47,,26,22,15,21,4,3,0.4,0.4
2026-01-02T1000,3551A,102.5969,24.6738,昆明市,晋宁区生态环境分局,,32,31,44,22,31,38,,13,13,12,24,1,3,0.6,0.6
2026-01-02T1000,3552A,102.6673,24.9861,昆明市,云天化总部,,32,32,30,22,18,50,,44,38,14,16,6,6,0.7,0.6
2026-01-02T1000,1456A,91.132,29.6515,拉萨市,八廓街,,25,24,26,17,17,51,,56,56,24,24,7,8,0.6,0.7
2026-01-02T1000,1457A,91.1221,29.6748,拉萨市,市环保局,,26,26,38,11,24,29,,30,30,30,27,8,9,0.8,1.1
2026-01-02T1000,1458A,91.0874,29.6476,拉萨市,区监测站,,20,15,20,9,12,34,,40,40,39,35,5,5,1.0,1.1
2026-01-02T1000,1459A,91.1774,29.6541,拉萨市,西藏大学,,18,18,19,8,11,43,,57,55,22,18,5,6,0.3,0.4
2026-01-02T1000,1460A,90.9798,29.6586,拉萨市,区辐射站,,33,31,37,23,22,21,,37,36,48,36,6,5,0.8,0.8
2026-01-02T1000,1461A,91.0831,29.6292,拉萨市,拉萨火车站,,42,42,31,22,18,17,,27,21,55,35,7,5,1.0,0.8
2026-01-02T1000,2520A,109.2203,23.7252,来宾市,来宾技工学校,,16,16,12,7,4,36,,31,31,8,8,7,6,0.4,0.5
2026-01-02T1000,3535A,109.1781,23.7293,来宾市,兴宾区政府,,26,21,14,18,11,43,,38,38,7,7,7,4,0.6,0.6
2026-01-02T1000,4002A,109.2312,23.7428,来宾市,中南小学,,22,22,14,14,9,37,,31,31,10,10,5,4,0.6,0.7
2026-01-02T1000,1479A,103.8309,36.0467,兰州市,铁路设计院,,,,,,,,,,,,,,,,
2026-01-02T1000,3241A,103.7439,36.0841,兰州市,百合公园,细颗粒物(PM2.5),85,64,75,63,60,17,,36,29,45,32,10,9,1.0,0.9
2026-01-02T1000,3242A,103.9613,35.9985,兰州市,和平,细颗粒物(PM2.5),107,90,82,80,80,20,,16,16,36,28,4,3,0.9,0.8
2026-01-02T1000,4236A,103.629272,36.093822,兰州市,庄浪东路808号,,,87,92,56,68,39,,44,43,31,36,,15,0.8,0.9
2026-01-02T1000,4237A,103.7251,36.104344,兰州市,安宁西路88号,细颗粒物(PM2.5),77,79,89,56,60,22,,39,36,46,35,8,7,0.8,0.8
2026-01-02T1000,4238A,103.846982,36.067567,兰州市,北滨河东路1号,细颗粒物(PM2.5),97,82,75,72,59,38,,48,45,32,28,19,10,0.9,0.9
2026-01-02T1000,1067A,116.6712,39.5109,廊坊市,药材公司,细颗粒物(PM2.5),62,59,27,44,14,11,,6,6,49,35,2,2,0.9,0.6
2026-01-02T1000,1068A,116.7215,39.5592,廊坊市,开发区,,16,9,18,3,9,35,,13,13,32,34,2,2,0.3,0.4
2026-01-02T1000,1070A,116.7246,39.5273,廊坊市,北华航天学院,,19,19,25,6,12,43,,19,19,23,32,1,2,0.3,0.4
2026-01-02T1000,2919A,116.7022,39.5454,廊坊市,河北工业大学,,18,18,21,9,8,37,,26,25,28,27,3,2,0.4,0.4
2026-01-02T1000,2536A,103.7629,29.5844,乐山市,牛耳桥,细颗粒物(PM2.5),67,55,51,48,42,44,,45,45,28,25,8,8,0.6,0.6
2026-01-02T1000,2537A,103.7501,29.6002,乐山市,市第三水厂,细颗粒物(PM2.5),65,54,50,47,38,41,,48,47,28,24,6,6,0.6,0.6
2026-01-02T1000,2538A,103.7571,29.5664,乐山市,市监测站,细颗粒物(PM2.5),63,58,46,45,38,42,,44,44,24,21,7,7,0.7,0.8
2026-01-02T1000,3361A,103.7313,29.563,乐山市,理工大学,细颗粒物(PM2.5),58,51,45,41,37,40,,39,39,19,19,4,5,0.8,0.8
2026-01-02T1000,2599A,100.2497,26.8802,丽江市,丽江古城,,32,30,29,22,16,66,,62,62,13,12,8,9,0.6,0.6
2026-01-02T1000,2600A,100.2203,26.8906,丽江市,市中心,,27,27,23,18,20,62,,70,66,17,13,6,7,0.4,0.4
2026-01-02T1000,1267A,119.9141,28.4513,丽水市,监测站大楼,,18,8,10,7,8,57,,63,63,10,13,4,4,0.3,0.3
2026-01-02T1000,1268A,119.93,28.4589,丽水市,莲都小学,,,21,18,,9,58,,65,65,12,17,/,/,/,/
2026-01-02T1000,1269A,119.8794,28.4232,丽水市,余庄前,,23,20,18,16,13,51,,54,54,15,18,4,4,0.2,0.3
2026-01-02T1000,1173A,119.1759,34.5885,连云港市,市环境监测站,,31,31,37,17,23,48,,44,44,6,17,12,13,0.6,0.8
2026-01-02T1000,3000A,119.3577,34.6971,连云港市,德源药业,,31,31,42,14,22,48,,47,47,17,24,5,5,0.2,0.4
2026-01-02T1000,3007A,119.178,34.8442,连云港市,新城一中,,33,33,43,23,25,46,,45,45,11,23,12,14,0.8,0.7
2026-01-02T1000,3008A,119.3607,34.7519,连云港市,胡沟管理处,,29,29,29,19,20,48,,53,53,15,19,10,11,0.9,0.9
2026-01-02T1000,3009A,119.1478,34.5913,连云港市,矿山设计院,,,29,37,14,20,49,,44,44,,22,,11,0.8,0.9
2026-01-02T1000,3434A,119.2414,34.6539,连云港市,工贸学校,,34,34,39,21,26,46,,42,42,12,16,12,14,0.8,0.8
2026-01-02T1000,3664A,119.4171,34.734,连云港市,连云街道,,39,39,36,17,19,44,,51,50,19,20,7,8,0.7,0.7
2026-01-02T1000,2573A,102.2629,27.8981,凉山彝族自治州,西昌市政府,,29,29,36,18,25,24,,33,24,28,18,8,7,0.7,0.6
2026-01-02T1000,2574A,102.2686,27.885,凉山彝族自治州,凉山州政府,,32,30,38,22,30,25,,26,22,23,18,10,9,0.8,0.7
2026-01-02T1000,4229A,102.2342,27.8859,凉山彝族自治州,凯乐南路30号,,32,32,48,17,29,25,,23,23,29,29,7,7,0.6,0.6
2026-01-02T1000,2212A,123.1978,41.2036,辽阳市,宏伟区,细颗粒物(PM2.5),72,85,75,52,61,29,,9,9,17,21,17,22,1.0,1
2026-01-02T1000,2213A,123.1684,41.2497,辽阳市,新华园,细颗粒物(PM2.5),137,135,85,104,69,16,,6,6,42,34,40,16,1.8,1.2
2026-01-02T1000,2214A,123.2355,41.2663,辽阳市,滨河路,细颗粒物(PM2.5),77,87,79,56,56,23,,10,10,27,30,16,8,1.4,1.2
2026-01-02T1000,4083A,123.153,41.2874,辽阳市,铁西路150号,细颗粒物(PM2.5),102,130,105,76,69,17,,4,4,38,36,31,13,2.1,1.5
2026-01-02T1000,2227A,125.1359,42.8845,辽源市,环保局,细颗粒物(PM2.5),98,126,116,73,44,26,,12,12,29,27,5,4,1.4,1.1
2026-01-02T1000,4085A,125.0998,42.9134,辽源市,安宁大街333号,细颗粒物(PM2.5),90,76,52,67,47,34,,20,20,27,23,7,4,0.9,0.7
2026-01-02T1000,1625A,115.9789,36.4372,聊城市,区政府,细颗粒物(PM2.5),97,107,55,72,34,21,,10,10,60,45,20,17,1.3,0.8
2026-01-02T1000,3200A,115.9772,36.4986,聊城市,监控中心,细颗粒物(PM2.5),92,121,65,68,46,17,,10,10,50,42,20,17,1.1,0.7
2026-01-02T1000,3513A,116.0443,36.436,聊城市,九州社区,细颗粒物(PM2.5),103,122,70,77,41,32,,16,16,39,33,12,11,1.0,0.6
2026-01-02T1000,4018A,116.0564,36.4609,聊城市,星美广场,,,103,71,66,39,,,12,12,44,32,10,12,1.0,0.6
2026-01-02T1000,4113A,116.0091,36.4495,聊城市,利民路,细颗粒物(PM2.5),88,79,55,65,37,24,,9,9,50,45,16,14,1.1,0.6
2026-01-02T1000,2632A,94.3683,29.6373,林芝市,林芝监测站,,20,10,9,8,5,63,,88,81,9,3,4,4,0.3,0.3
2026-01-02T1000,2633A,94.3616,29.6634,林芝市,林芝人民医院,,23,23,14,12,6,58,,81,74,9,3,4,4,0.6,0.4
2026-01-02T1000,2603A,100.0779,23.8981,临沧市,市环保局,,45,,37,31,44,20,,24,20,9,8,6,6,0.5,0.5
2026-01-02T1000,2604A,100.0894,23.882,临沧市,市气象局,,44,44,42,27,33,16,,21,17,14,11,4,5,0.6,0.5
2026-01-02T1000,1733A,111.5552,36.0791,临汾市,临钢医院,细颗粒物(PM2.5),145,144,134,111,112,10,,14,11,27,25,3,4,1.3,1.3
2026-01-02T1000,1734A,111.4984,36.0734,临汾市,技工学校,细颗粒物(PM2.5),108,93,118,81,101,17,,14,14,25,27,3,3,1.4,1.5
2026-01-02T1000,1736A,111.5017,36.0857,临汾市,市委,细颗粒物(PM2.5),113,114,133,85,107,15,,16,16,30,30,6,6,1.1,1.2
2026-01-02T1000,3018A,111.5048,36.1015,临汾市,唐尧大酒店,细颗粒物(PM2.5),99,98,124,74,99,15,,11,11,26,30,2,2,1.1,1.3
2026-01-02T1000,4244A,111.4879,36.053,临汾市,启星学校,,,89,112,74,95,23,,12,12,,30,5,4,1.1,1.3
2026-01-02T1000,4271A,103.2464,35.6123,临夏回族自治州,滨河东路1号,细颗粒物(PM2.5),133,124,120,101,83,15,,20,19,28,24,4,5,1.5,1.1
2026-01-02T1000,4310A,103.207136,35.599807,临夏回族自治州,新华街21号,细颗粒物(PM2.5),120,113,104,91,79,17,,29,24,38,27,32,11,1.3,1
2026-01-02T1000,1618A,118.3429,35.0532,临沂市,沂河小区,,44,44,53,29,39,45,,42,42,26,27,12,11,0.5,0.6
2026-01-02T1000,1619A,118.2962,35.0568,临沂市,鲁南制药厂,"颗粒物(PM10),细颗粒物(PM2.5)",53,56,55,37,39,38,,37,35,36,33,15,14,0.6,0.6
2026-01-02T1000,1620A,118.2793,34.9976,临沂市,新光毛纺厂,,44,44,51,29,34,43,,39,38,22,25,13,12,0.5,0.5
2026-01-02T1000,1621A,118.3955,35.0889,临沂市,河东保险公司,,36,36,47,22,29,54,,46,46,10,20,10,10,0.4,0.5
2026-01-02T1000,3370A,118.3563,35.0215,临沂市,十里堡居委,,39,39,47,7,25,47,,46,45,25,30,10,11,0.6,0.6
2026-01-02T1000,3496A,118.359,35.1067,临沂市,南坊新区,,44,44,49,29,32,45,,43,43,24,27,12,11,0.4,0.5
2026-01-02T1000,3860A,118.3915,35.0297,临沂市,皇山花园小区,,36,36,49,17,29,51,,48,48,20,26,11,13,0.5,0.6
2026-01-02T1000,1870A,109.4854,24.3898,柳州市,柳东小学,,33,,14,23,12,51,,46,46,8,8,8,7,0.6,0.7
2026-01-02T1000,1871A,109.4109,24.3304,柳州市,环保监测站,,18,15,16,12,8,46,,36,36,11,12,5,5,0.4,0.7
2026-01-02T1000,1872A,109.3886,24.3408,柳州市,河西水厂,,22,22,18,14,14,45,,31,31,12,20,5,9,0.4,1.3
2026-01-02T1000,1873A,109.4263,24.2951,柳州市,市四中,,19,,10,13,10,48,,42,42,12,12,8,8,0.6,0.7
2026-01-02T1000,1874A,109.396,24.3658,柳州市,市九中,,22,22,15,15,8,44,,31,31,11,13,7,8,0.5,0.7
2026-01-02T1000,1875A,109.4912,24.3164,柳州市,古亭山,,17,10,6,3,4,52,,50,50,7,7,8,8,0.6,0.7
2026-01-02T1000,3402A,109.5422,24.3994,柳州市,市二中,,30,,12,21,12,51,,49,49,10,11,7,7,0.5,0.6
2026-01-02T1000,2307A,116.5078,31.7369,六安市,监测大楼,细颗粒物(PM2.5),54,51,30,38,25,51,,57,55,15,13,2,2,0.4,0.3
2026-01-02T1000,2308A,116.4738,31.7642,六安市,皖西学院,细颗粒物(PM2.5),62,63,43,44,25,51,,57,56,12,15,4,1,0.4,0.3
2026-01-02T1000,2309A,116.4997,31.7904,六安市,朝阳厂,细颗粒物(PM2.5),58,51,35,41,25,50,,54,52,18,12,6,4,0.5,0.4
2026-01-02T1000,2310A,116.5566,31.7885,六安市,开发区,细颗粒物(PM2.5),73,63,36,53,28,48,,55,52,17,14,3,3,0.4,0.3
2026-01-02T1000,2577A,104.8293,26.592,六盘水市,黄土坡,,12,10,23,3,20,24,,32,31,22,18,4,6,1.2,0.8
2026-01-02T1000,2579A,104.8481,26.5898,六盘水市,民中,,17,17,27,7,19,22,,33,30,18,17,4,5,0.9,0.8
2026-01-02T1000,2580A,104.9541,26.5506,六盘水市,双水,,14,14,26,9,16,28,,35,33,17,14,3,4,0.7,0.6
2026-01-02T1000,4151A,104.8899,26.5685,六盘水市,钟山大道中段564号,,15,10,25,10,16,27,,34,31,13,11,6,6,0.9,0.8
2026-01-02T1000,2336A,117.022,25.1031,龙岩市,龙岩市监测站,,17,6,15,3,12,53,,48,48,9,12,8,12,0.4,0.5
2026-01-02T1000,2337A,117.0257,25.0662,龙岩市,闽西职业技术学院,,,,15,2,10,58,,53,53,6,8,6,6,0.4,0.5
2026-01-02T1000,2338A,117.0195,25.0306,龙岩市,龙岩学院,,17,12,16,3,12,54,,50,50,6,9,8,8,/,/
2026-01-02T1000,2885A,104.9344,33.3827,陇南市,滨江中学,颗粒物(PM10),74,97,73,50,44,33,,63,56,32,17,6,5,1.0,0.9
2026-01-02T1000,3247A,104.9551,33.3709,陇南市,市总工会,细颗粒物(PM2.5),89,105,83,66,51,30,,60,54,34,17,4,3,1.2,1
2026-01-02T1000,2488A,111.9984,27.7346,娄底市,市监测站,细颗粒物(PM2.5),63,54,39,45,41,53,,51,51,9,12,3,5,0.4,0.4
2026-01-02T1000,2491A,111.9888,27.7035,娄底市,市政府,,,45,36,45,39,,,50,50,9,9,,4,0.3,0.3
2026-01-02T1000,4127A,111.9812,27.7591,娄底市,涟钢职大,细颗粒物(PM2.5),52,44,42,36,28,58,,55,55,11,11,3,3,0.4,0.4
2026-01-02T1000,4128A,112.0303,27.7457,娄底市,娄底体校,细颗粒物(PM2.5),53,46,42,37,33,48,,46,46,10,11,2,2,0.3,0.3
2026-01-02T1000,1894A,105.4427,28.9063,泸州市,小市上码头,,28,24,10,19,8,29,,34,34,20,12,6,7,0.9,0.8
2026-01-02T1000,1895A,105.4241,28.8573,泸州市,兰田宪桥,,36,26,10,25,9,35,,35,35,14,13,7,7,1.0,1
2026-01-02T1000,1896A,105.4378,28.8833,泸州市,市环监站,,28,23,9,19,7,31,,35,35,17,12,8,8,0.7,0.7
2026-01-02T1000,4272A,105.3689,28.7783,泸州市,纳溪中医医院,,40,,12,28,10,29,,38,37,19,10,7,7,1.0,0.8
2026-01-02T1000,2183A,111.1447,37.5212,吕梁市,环保局,颗粒物(PM10),53,56,73,14,35,12,,4,4,28,38,18,9,0.6,0.5
2026-01-02T1000,2185A,111.1285,37.5338,吕梁市,自来水公司,颗粒物(PM10),66,82,95,27,39,13,,4,4,25,34,26,10,0.7,0.7
2026-01-02T1000,2867A,111.1225,37.5093,吕梁市,马茂庄小学,颗粒物(PM10),64,78,90,29,40,10,,2,2,26,36,30,10,0.6,0.6
2026-01-02T1000,1812A,112.3934,34.6517,洛阳市,市委党校,细颗粒物(PM2.5),124,102,76,94,72,18,,22,14,39,27,8,7,1.1,0.8
2026-01-02T1000,1815A,112.494,34.6883,洛阳市,河南林校,细颗粒物(PM2.5),112,103,80,84,73,6,,4,2,35,30,9,8,1.2,1
2026-01-02T1000,1816A,112.3843,34.623,洛阳市,开发区管委会,细颗粒物(PM2.5),110,99,77,83,71,17,,34,27,33,20,7,7,1.1,0.8
2026-01-02T1000,1817A,112.4263,34.6249,洛阳市,市委新办公区,细颗粒物(PM2.5),122,102,82,92,78,24,,34,29,26,20,8,8,0.9,0.8
2026-01-02T1000,3340A,112.6005,34.6323,洛阳市,伊滨,细颗粒物(PM2.5),104,99,82,78,72,6,,21,14,30,26,6,6,1.3,0.9
2026-01-02T1000,3341A,112.495,34.6338,洛阳市,中移产业园,细颗粒物(PM2.5),130,108,75,99,76,0,,14,6,43,35,10,8,1.4,0.8
2026-01-02T1000,3593A,112.5736,34.8993,洛阳市,吉利监测站,细颗粒物(PM2.5),137,,75,104,83,11,,3,3,33,32,6,7,1.2,1
2026-01-02T1000,3635A,112.3678,34.6623,洛阳市,河科大西苑校区,细颗粒物(PM2.5),118,127,79,89,68,16,,16,9,38,26,10,7,1.1,0.8
2026-01-02T1000,3636A,112.4387,34.678,洛阳市,英才小学,细颗粒物(PM2.5),128,116,84,97,80,17,,13,9,37,36,9,9,1.1,0.9
2026-01-02T1000,4214A,112.460027,34.694929,洛阳市,春都路1号院,细颗粒物(PM2.5),103,114,92,77,63,10,,8,6,29,29,8,9,1.2,1.1
2026-01-02T1000,2399A,114.051,33.5721,漯河市,三五一五工厂,细颗粒物(PM2.5),130,137,86,99,68,21,,33,33,30,27,7,6,1.1,0.8
2026-01-02T1000,2400A,114.0055,33.5698,漯河市,漯河大学,细颗粒物(PM2.5),94,71,72,70,68,16,,33,32,25,27,4,5,0.8,0.7
2026-01-02T1000,2401A,114.0134,33.5826,漯河市,市水利局,细颗粒物(PM2.5),113,90,73,85,68,,,29,29,35,29,7,7,1.0,0.7
2026-01-02T1000,2402A,114.0261,33.5697,漯河市,市广电局,细颗粒物(PM2.5),105,88,72,79,71,17,,34,33,25,24,6,6,0.7,0.6
2026-01-02T1000,3478A,113.9691,33.568,漯河市,市图书馆,细颗粒物(PM2.5),108,89,78,81,67,15,,29,27,28,23,3,4,1.0,0.9
2026-01-02T1000,4250A,114.089259,33.588274,漯河市,韶山路11号,细颗粒物(PM2.5),139,121,84,106,70,16,,25,24,29,33,6,7,0.8,0.7
2026-01-02T1000,1798A,118.5084,31.6838,马鞍山市,湖东路四小,细颗粒物(PM2.5),108,95,46,81,38,27,,37,31,28,21,5,4,0.9,0.6
2026-01-02T1000,1799A,118.5019,31.6449,马鞍山市,开发区,细颗粒物(PM2.5),112,105,47,84,42,29,,34,27,29,24,8,6,1.1,0.7
2026-01-02T1000,3633A,118.4914,31.681,马鞍山市,雨山,细颗粒物(PM2.5),109,106,51,82,39,23,,29,22,35,26,12,12,1.0,0.8
2026-01-02T1000,4191A,118.527362,31.722269,马鞍山市,慈湖高新区,细颗粒物(PM2.5),103,84,50,77,49,25,,42,34,29,20,4,3,0.5,0.4
2026-01-02T1000,1686A,111.0285,21.469,茂名市,电白南海,颗粒物(PM10),51,51,62,29,38,41,,45,43,16,16,10,10,0.7,0.8
2026-01-02T1000,1687A,110.9294,21.6533,茂名市,茂石化七小,,36,36,56,24,34,41,,42,40,16,17,11,9,0.8,0.8
2026-01-02T1000,1688A,110.9108,21.6688,茂名市,健康路,,34,34,50,19,35,42,,42,40,19,18,14,13,0.9,0.8
2026-01-02T1000,1689A,110.8592,21.6826,茂名市,高岭,,41,41,63,19,32,36,,34,33,18,17,23,16,/,/
2026-01-02T1000,3450A,111.0101,21.5165,茂名市,电白水东,,39,34,50,27,33,44,,43,42,14,15,13,11,/,/
2026-01-02T1000,2540A,103.8414,30.0871,眉山市,气象局,细颗粒物(PM2.5),62,59,47,44,37,39,,54,50,28,22,6,8,0.7,0.7
2026-01-02T1000,3148A,103.829,30.0563,眉山市,区人社局,细颗粒物(PM2.5),55,53,45,39,29,43,,55,52,31,24,2,4,0.8,0.7
2026-01-02T1000,4148A,103.8836,30.0695,眉山市,眉职院,,48,48,41,30,26,44,,51,49,18,17,4,4,0.9,0.9
2026-01-02T1000,1690A,116.1248,24.3307,梅州市,梅江月梅,,16,,22,8,21,50,,58,56,12,13,/,/,/,/
2026-01-02T1000,1691A,116.0798,24.2719,梅州市,梅县新城,,18,15,26,7,20,55,,62,60,12,14,7,7,0.4,0.5
2026-01-02T1000,3315A,116.1234,24.2994,梅州市,梅龙,,16,14,24,11,20,48,,56,54,11,11,7,8,0.4,0.5
2026-01-02T1000,1878A,104.7775,31.4741,绵阳市,富乐山,,49,40,44,34,39,67,,65,65,11,13,11,11,0.7,0.8
2026-01-02T1000,1880A,104.6698,31.4668,绵阳市,高新区自来水公司,,42,38,49,29,45,61,,58,58,18,22,8,8,0.6,0.7
2026-01-02T1000,3491A,104.6899,31.5324,绵阳市,西科大附属小学,,43,41,55,30,44,61,,58,58,14,18,8,8,1.0,1
2026-01-02T1000,3492A,104.5647,31.5343,绵阳市,安州区旅游局,细颗粒物(PM2.5),52,39,56,36,53,55,,43,43,16,23,12,13,0.6,0.9
2026-01-02T1000,4146A,104.7092,31.4972,绵阳市,科技城新区公安局,,,40,51,34,42,65,,62,62,,22,,4,1.0,1
2026-01-02T1000,4226A,104.765114,31.453094,绵阳市,绵阳市气象局,细颗粒物(PM2.5),55,39,40,39,36,66,,66,66,11,16,20,10,0.6,0.9
2026-01-02T1000,1784A,129.61,44.561,牡丹江市,环保大楼,,34,34,38,12,25,39,,35,34,11,12,10,9,0.8,0.7
2026-01-02T1000,1787A,129.6364,44.6075,牡丹江市,机车工厂,,41,41,36,24,23,39,,30,30,14,15,3,3,0.4,0.3
2026-01-02T1000,1788A,129.6386,44.5462,牡丹江市,第一中学,,29,23,30,20,25,39,,33,33,7,10,5,4,0.4,0.4
2026-01-02T1000,4287A,129.5992,44.5964,牡丹江市,东晓云街98号,细颗粒物(PM2.5),67,,37,48,30,32,,30,29,14,11,4,4,0.6,0.6
2026-01-02T1000,2531A,105.0703,29.61,内江市,市监测站,,35,26,20,24,18,37,,46,44,19,13,4,4,0.2,0.5
2026-01-02T1000,2533A,105.0657,29.5807,内江市,内江二中,,35,29,26,24,15,24,,38,35,20,17,4,4,0.9,0.9
2026-01-02T1000,2534A,105.0407,29.5828,内江市,内江日报社,,33,,25,23,16,26,,40,36,23,17,2,2,0.7,0.6
2026-01-02T1000,4147A,105.0433,29.6105,内江市,玉峰路西段888号,,28,20,21,19,15,37,,50,47,18,12,3,3,0.6,0.6
2026-01-02T1000,2628A,92.0653,31.4846,那曲市,那曲监测站,细颗粒物(PM2.5),64,66,45,46,33,26,,39,38,38,26,19,12,1.4,1.3
2026-01-02T1000,4243A,92.0515,31.4787,那曲市,那曲市委宣传部,颗粒物(PM10),53,55,30,36,17,21,,28,28,28,19,11,12,1.3,1.1
2026-01-02T1000,1291A,115.8887,28.7006,南昌市,省林业公司,,32,24,18,22,22,62,,54,54,4,4,4,3,0.8,0.8
2026-01-02T1000,1292A,115.813,28.7443,南昌市,林科所,,28,27,17,19,17,62,,50,50,9,16,4,4,0.4,0.4
2026-01-02T1000,1294A,115.8518,28.687,南昌市,建工学校,,38,34,31,26,23,55,,46,46,16,19,11,11,0.4,0.4
2026-01-02T1000,1295A,115.8926,28.6425,南昌市,象湖,,45,37,25,31,22,53,,47,47,14,16,8,8,0.6,0.6
2026-01-02T1000,3046A,115.9084,28.6062,南昌市,机电学校,,42,42,28,29,24,58,,50,50,10,10,4,4,0.5,0.5
2026-01-02T1000,3690A,115.9718,28.7032,南昌市,外国语学校,,46,33,25,32,25,52,,47,47,17,17,9,9,0.4,0.5
2026-01-02T1000,4106A,115.7923,28.6873,南昌市,工业二路,,29,27,26,20,18,61,,50,50,9,9,5,5,0.2,0.3
2026-01-02T1000,4192A,115.931587,28.686774,南昌市,南京东路235号,,43,43,40,29,20,58,,50,50,20,19,4,3,0.1,0.2
2026-01-02T1000,1906A,106.0791,30.8022,南充市,南充市委,,38,28,28,26,25,38,,36,36,19,22,4,4,0.6,0.7
2026-01-02T1000,1907A,106.1038,30.8215,南充市,南充炼油厂,,42,41,40,29,31,39,,42,42,19,17,5,5,0.4,0.5
2026-01-02T1000,4227A,106.108336,30.788436,南充市,梨树横街98号,,30,26,27,21,22,50,,50,50,10,17,5,5,0.5,0.6
2026-01-02T1000,4304A,106.1172,30.843,南充市,清泉寺北路188号,,32,,24,22,23,51,,50,50,8,11,7,6,0.7,0.8
2026-01-02T1000,4305A,106.067,30.7616,南充市,同庆路1号,,39,,27,27,25,40,,43,43,19,21,6,6,0.5,0.6
2026-01-02T1000,1151A,118.8033,32.1085,南京市,迈皋桥,颗粒物(PM10),52,54,48,34,33,44,,36,33,14,9,3,4,0.6,0.8
2026-01-02T1000,1152A,118.7487,32.057,南京市,草场门,"颗粒物(PM10),细颗粒物(PM2.5)",52,53,43,36,34,34,,33,29,20,19,5,4,0.3,0.3
2026-01-02T1000,1154A,118.770105,32.004342,南京市,中华门,细颗粒物(PM2.5),58,53,43,41,34,34,,36,29,21,13,4,4,0.5,0.4
2026-01-02T1000,1155A,118.8059,32.0329,南京市,瑞金路,细颗粒物(PM2.5),58,46,46,41,39,36,,37,31,28,18,4,4,0.6,0.6
2026-01-02T1000,1156A,118.7946,32.0774,南京市,玄武湖,颗粒物(PM10),51,51,45,35,32,38,,35,31,16,15,4,4,0.5,0.5
2026-01-02T1000,1157A,118.6415,32.0964,南京市,浦口,细颗粒物(PM2.5),80,80,51,59,38,28,,37,33,24,18,8,6,0.7,0.5
2026-01-02T1000,1158A,118.730129,32.000956,南京市,奥体中心,细颗粒物(PM2.5),73,72,47,53,37,40,,44,38,24,18,5,4,0.5,0.4
2026-01-02T1000,1159A,118.9072,32.1047,南京市,仙林大学城,,39,39,46,19,34,45,,28,27,9,18,6,5,0.5,0.6
2026-01-02T1000,3422A,118.8443,31.919,南京市,江宁彩虹桥,,,,48,48,34,,,41,34,19,13,5,4,0.7,0.4
2026-01-02T1000,3427A,118.8497,32.3599,南京市,六合雄州,,30,30,55,20,35,46,,33,33,13,18,7,6,0.4,0.4
2026-01-02T1000,4086A,118.7641,32.0841,南京市,新模范马路66号,颗粒物(PM10),56,61,49,30,40,35,,32,28,16,15,5,4,0.8,0.7
2026-01-02T1000,4249A,118.8707617,31.34017673,南京市,汶溪路181号,细颗粒物(PM2.5),90,69,33,67,32,46,,58,53,22,19,8,6,0.6,0.4
2026-01-02T1000,4312A,119.019,31.6512,南京市,中山西路1号,细颗粒物(PM2.5),85,,35,63,35,38,,41,35,22,17,4,4,0.6,0.4
2026-01-02T1000,1401A,108.3098,22.788,南宁市,二十一中,,10,10,12,3,12,30,,32,31,13,14,3,4,0.8,0.9
2026-01-02T1000,1402A,108.3135,22.8529,南宁市,北湖,,17,17,16,6,13,30,,41,38,18,14,2,2,0.7,0.8
2026-01-02T1000,1403A,108.3205,22.8222,南宁市,市监测站,,26,,15,18,19,28,,34,31,10,11,5,5,0.6,0.8
2026-01-02T1000,1404A,108.3828,22.8038,南宁市,大自然花园,,15,11,16,10,15,39,,42,40,12,14,5,5,0.6,0.7
2026-01-02T1000,1406A,108.2397,22.8462,南宁市,区农职院,,16,16,17,11,15,35,,42,40,16,14,7,8,0.8,0.9
2026-01-02T1000,1407A,108.3285,22.7356,南宁市,英华嘉园,,12,11,14,3,11,36,,38,37,15,15,2,2,0.6,0.8
2026-01-02T1000,3401A,108.4829,22.762,南宁市,红星社区,,16,,13,11,11,39,,41,40,8,8,4,4,0.6,0.8
2026-01-02T1000,4132A,108.2927,23.1477,南宁市,起凤路9号,,19,16,11,13,8,42,,47,44,12,7,1,2,0.8,0.9
2026-01-02T1000,4221A,108.2177,22.7774,南宁市,乐贤路16号,,,43,21,16,17,,,38,37,21,18,,2,0.6,0.7
2026-01-02T1000,2332A,118.1682,26.6371,南平市,南平市监测站,,20,7,13,3,8,62,,48,48,6,9,3,3,0.4,0.4
2026-01-02T1000,2334A,118.1757,26.6276,南平市,南平七中,,20,18,14,6,10,62,,50,50,7,10,7,7,0.4,0.5
2026-01-02T1000,1168A,120.9056,31.9669,南通市,狼山街道,,26,26,24,12,16,54,,48,48,6,9,3,3,0.5,0.5
2026-01-02T1000,1170A,120.8635,32.0231,南通市,城中,,28,28,26,13,18,52,,44,44,8,12,4,3,0.6,0.6
2026-01-02T1000,1171A,120.9376,31.9301,南通市,星湖花园,,24,24,25,15,18,56,,52,51,8,11,5,4,0.6,0.6
2026-01-02T1000,1172A,120.8053,32.046,南通市,紫琅学院,,29,29,28,10,18,55,,42,42,8,13,4,4,0.4,0.5
2026-01-02T1000,3291A,121.0631,32.0644,南通市,通州监测站,,19,17,20,9,17,58,,50,50,10,14,3,3,0.4,0.4
2026-01-02T1000,3432A,120.9348,31.9874,南通市,环境教育馆,,27,27,27,12,19,54,,48,48,8,11,6,5,0.3,0.3
2026-01-02T1000,4091A,120.8692,31.9885,南通市,洪江路,,30,30,29,11,16,52,,44,44,10,14,4,4,0.3,0.3
2026-01-02T1000,2404A,112.5338,33.0086,南阳市,瓦房庄,细颗粒物(PM2.5),117,92,69,88,63,26,,9,7,17,18,5,5,0.8,0.7
2026-01-02T1000,2405A,112.5002,32.9734,南阳市,汉画馆,细颗粒物(PM2.5),94,86,66,70,55,15,,5,4,23,21,5,6,0.9,0.7
2026-01-02T1000,2406A,112.5778,33.0144,南阳市,气象站,细颗粒物(PM2.5),110,95,75,83,57,25,,12,12,17,21,4,5,0.7,0.6
2026-01-02T1000,2407A,112.548,32.9687,南阳市,理工学院,细颗粒物(PM2.5),89,91,66,66,50,31,,17,17,18,21,4,5,0.9,0.8
2026-01-02T1000,4008A,112.5233,32.9921,南阳市,卧龙区政府,细颗粒物(PM2.5),107,95,76,80,60,28,,10,9,18,20,5,4,0.9,0.8
2026-01-02T1000,1234A,121.8352,29.9111,宁波市,区环保大楼,,40,40,30,25,14,50,,51,48,19,16,7,5,0.7,0.5
2026-01-02T1000,1235A,121.5595,29.8208,宁波市,万里学院,,,33,27,27,21,,,52,51,15,14,6,4,0.6,0.5
2026-01-02T1000,1236A,121.713,29.9564,宁波市,龙赛医院,,36,36,29,21,16,50,,44,42,18,17,5,3,0.6,0.5
2026-01-02T1000,1240A,121.5855,29.8635,宁波市,太古小学,,36,36,29,17,16,60,,54,54,10,11,4,2,0.5,0.5
2026-01-02T1000,1241A,121.5239,29.8673,宁波市,市环境监测中心,,39,39,28,17,13,52,,49,48,12,14,6,5,0.6,0.5
2026-01-02T1000,2871A,121.6156,29.9015,宁波市,万里国际学校,,31,31,25,21,18,57,,52,52,15,14,5,3,0.5,0.4
2026-01-02T1000,3710A,121.5593,29.8976,宁波市,白沙活动中心,,26,24,19,18,12,57,,51,51,14,13,6,4,0.6,0.4
2026-01-02T1000,4095A,121.8962,29.7529,宁波市,中科路88号,,30,30,21,20,14,54,,55,52,10,8,5,4,0.7,0.6
2026-01-02T1000,2341A,119.5387,26.6611,宁德市,宁德市监测站,,19,19,21,3,10,50,,41,41,13,19,6,6,0.4,0.4
2026-01-02T1000,3209A,119.5231,26.6562,宁德市,宁德一中,,18,18,21,3,13,52,,43,43,12,16,5,5,0.4,0.4
2026-01-02T1000,2618A,98.859,25.8541,怒江傈僳族自治州,州监测站,,37,37,35,20,24,29,,28,28,10,12,6,7,0.4,0.4
2026-01-02T1000,2619A,98.8607,25.8168,怒江傈僳族自治州,泸水一中,,,,32,,25,,,17,17,16,17,,6,0.7,0.7
2026-01-02T1000,1888A,101.6891,26.571,攀枝花市,弄弄坪,颗粒物(PM10),58,66,66,30,35,30,,8,8,22,37,29,24,1.1,1.7
2026-01-02T1000,1889A,101.577,26.5914,攀枝花市,河门口,"颗粒物(PM10),细颗粒物(PM2.5)",59,68,44,42,27,14,,20,18,24,22,14,21,1.3,1.3
2026-01-02T1000,1891A,101.7365,26.4986,攀枝花市,仁和,,50,50,49,33,31,13,,16,13,27,23,9,13,1.9,1.2
2026-01-02T1000,2835A,101.7222,26.567,攀枝花市,四十中小,颗粒物(PM10),52,54,64,33,42,15,,12,10,38,38,32,17,2.7,1.4
2026-01-02T1000,1604A,122.0303,41.1489,盘锦市,开发区,细颗粒物(PM2.5),59,55,41,42,32,13,,5,5,31,19,7,3,1.2,0.9
2026-01-02T1000,1605A,122.0486,41.0883,盘锦市,兴隆台,细颗粒物(PM2.5),83,70,43,61,30,11,,4,4,51,30,19,8,1.4,0.9
2026-01-02T1000,1606A,121.8297,41.1026,盘锦市,新生街道,,31,31,37,20,22,31,,7,7,22,22,11,6,0.8,0.6
2026-01-02T1000,1832A,113.3257,33.7423,平顶山市,新华旅馆,细颗粒物(PM2.5),158,153,100,120,78,17,,12,12,37,37,8,8,1.3,1
2026-01-02T1000,1833A,113.2917,33.737,平顶山市,规划设计院,细颗粒物(PM2.5),166,151,101,126,81,17,,12,12,42,41,5,5,1.1,0.9
2026-01-02T1000,1834A,113.182,33.7738,平顶山市,平顶山工学院,细颗粒物(PM2.5),160,123,85,122,79,26,,31,26,26,22,6,6,0.7,0.5
2026-01-02T1000,3594A,112.8736,33.9068,平顶山市,石龙区,细颗粒物(PM2.5),133,117,81,101,75,26,,45,36,27,25,6,7,1.1,0.9
2026-01-02T1000,4116A,113.284,33.7139,平顶山市,姚电大道23号,细颗粒物(PM2.5),178,172,120,134,90,18,,4,4,27,32,6,6,1.3,1.1
2026-01-02T1000,2656A,106.6633,35.5338,平凉市,聚贤嘉苑,细颗粒物(PM2.5),58,56,51,41,37,55,,44,44,21,20,9,8,1.0,0.8
2026-01-02T1000,2657A,106.7021,35.5307,平凉市,博物馆,细颗粒物(PM2.5),78,82,55,57,42,30,,33,29,34,26,10,9,1.0,0.9
2026-01-02T1000,2348A,113.8384,27.6436,萍乡市,中医院,,39,39,47,26,35,22,,14,14,20,21,4,4,0.8,1.2
2026-01-02T1000,2350A,113.8677,27.6438,萍乡市,市环保局,,45,34,38,31,34,22,,15,15,19,22,12,13,0.3,0.6
2026-01-02T1000,2351A,113.8663,27.6202,萍乡市,安源区政府,,50,47,50,35,36,13,,7,7,22,23,11,11,0.7,0.9
2026-01-02T1000,4107A,113.8686,27.6668,萍乡市,联洪村委会,,49,38,38,34,28,27,,18,18,20,21,2,2,0.7,1.1
2026-01-02T1000,2319A,119.0142,25.4324,莆田市,荔城区仓后路,,19,13,27,3,14,59,,44,44,8,11,/,/,/,/
2026-01-02T1000,2320A,119.0016,25.4553,莆田市,莆田市监测站,,21,6,21,3,15,67,,48,48,4,8,4,4,0.4,0.4
2026-01-02T1000,2321A,119.112,25.4561,莆田市,涵江区六中,,16,16,24,7,13,45,,45,42,10,11,/,/,0.5,0.4
2026-01-02T1000,2322A,119.1014,25.3215,莆田市,秀屿区政府,,16,16,23,7,11,41,,48,45,10,7,3,2,0.6,0.5
2026-01-02T1000,2392A,115.0312,35.7636,濮阳市,环保局,颗粒物(PM10),73,95,56,32,46,21,,12,10,45,31,12,7,1.4,1.2
2026-01-02T1000,3021A,115,35.7667,濮阳市,濮水河管理处,颗粒物(PM10),82,114,73,59,52,27,,11,11,46,39,11,7,0.9,0.8
2026-01-02T1000,4118A,115.0552,35.7816,濮阳市,中原东路68号,颗粒物(PM10),74,98,76,48,50,32,,11,11,37,32,45,7,0.9,0.8
2026-01-02T1000,4216A,115.0923632,35.76857718,濮阳市,任丘路479号,细颗粒物(PM2.5),75,78,68,55,55,24,,10,10,41,36,12,6,0.7,0.7
2026-01-02T1000,2601A,100.9801,22.7634,普洱市,市环保局,颗粒物(PM10),51,51,42,8,21,5,,18,13,18,11,5,4,0.5,0.4
2026-01-02T1000,2602A,100.9763,22.8237,普洱市,普洱第二中学,,46,46,36,17,19,10,,5,5,16,17,5,5,0.6,0.4
2026-01-02T1000,3345A,131.0413,45.7795,七台河市,中波台,细颗粒物(PM2.5),53,49,31,37,22,31,,30,29,21,14,12,9,0.6,0.5
2026-01-02T1000,3637A,131.0136,45.7688,七台河市,人民广场,细颗粒物(PM2.5),53,50,44,37,33,35,,28,28,21,21,10,9,0.6,0.5
2026-01-02T1000,3684A,130.8639,45.8144,七台河市,新建矿广场,,46,46,39,26,25,34,,25,24,11,12,13,11,0.5,0.4
2026-01-02T1000,1779A,123.9307,47.3641,齐齐哈尔市,安居小区,,20,20,29,3,18,38,,50,46,39,17,7,5,0.7,0.5
2026-01-02T1000,1780A,123.9497,47.3389,齐齐哈尔市,中心广场,,21,21,23,9,13,40,,58,53,29,14,8,7,0.7,0.5
2026-01-02T1000,1781A,123.9483,47.3229,齐齐哈尔市,农牧车辆厂,颗粒物(PM10),53,56,25,25,12,25,,56,46,50,12,10,5,1.1,0.6
2026-01-02T1000,1783A,123.9442,47.2994,齐齐哈尔市,市环境监测站,颗粒物(PM10),57,64,24,35,14,30,,52,43,41,16,16,7,1.0,0.4
2026-01-02T1000,3662A,123.6341,47.2079,齐齐哈尔市,富区青少年活动中心,颗粒物(PM10),69,87,35,44,21,33,,49,43,41,19,15,8,2.5,0.7
2026-01-02T1000,2591A,107.9765,26.5724,黔东南苗族侗族自治州,市环境监测站,细颗粒物(PM2.5),52,36,24,36,24,53,,55,55,12,10,4,4,0.5,0.6
2026-01-02T1000,2881A,107.8909,26.531,黔东南苗族侗族自治州,凯里学院,细颗粒物(PM2.5),55,44,24,39,21,58,,58,58,12,12,5,4,0.6,0.7
2026-01-02T1000,2593A,107.5223,26.2371,黔南布依族苗族自治州,小围寨,,25,17,14,17,13,52,,51,51,6,6,5,4,0.7,0.7
2026-01-02T1000,3538A,107.5175,26.2977,黔南布依族苗族自治州,沙坝,,32,24,18,22,16,50,,52,51,8,10,5,4,0.6,0.8
2026-01-02T1000,2589A,104.9022,25.0943,黔西南布依族苗族自治州,场坝街,,22,22,29,3,21,40,,38,38,8,10,3,5,0.7,0.7
2026-01-02T1000,2590A,104.8812,25.0994,黔西南布依族苗族自治州,坪东大道,,18,15,27,12,20,42,,41,41,7,9,4,5,0.7,0.7
2026-01-02T1000,2502A,108.6238,21.9667,钦州市,市环保站,,35,31,43,24,28,32,,33,32,15,19,2,3,0.8,1.2
2026-01-02T1000,2503A,108.655,21.9481,钦州市,沙埠小学,,23,23,35,3,17,34,,37,35,18,17,3,4,0.6,0.7
2026-01-02T1000,2504A,108.5989,21.7435,钦州市,港区一小,,32,,49,22,26,28,,25,23,20,25,6,8,0.7,0.8
2026-01-02T1000,3404A,108.5959,21.9634,钦州市,北职校,,23,22,34,16,22,30,,35,34,10,13,6,7,1.2,0.9
2026-01-02T1000,1046A,119.5247,39.9346,秦皇岛市,建设大厦,颗粒物(PM10),60,70,42,36,27,18,,9,9,51,32,8,7,0.8,0.5
2026-01-02T1000,3132A,119.5979,39.938,秦皇岛市,文明里,,50,50,39,10,18,20,,6,6,38,30,8,11,0.7,0.4
2026-01-02T1000,4066A,119.7458,39.9952,秦皇岛市,南园路157号,颗粒物(PM10),70,90,50,32,20,12,,6,6,56,36,11,8,1.0,0.7
2026-01-02T1000,4067A,119.5131,39.8858,秦皇岛市,翠岛大街1号,颗粒物(PM10),51,52,28,20,8,21,,24,24,40,24,9,9,0.7,0.5
2026-01-02T1000,4198A,119.509013,39.825305,秦皇岛市,北戴河轮滑馆,,40,40,30,23,19,37,,33,32,22,17,6,7,0.9,0.7
2026-01-02T1000,1310A,120.404,36.0625,青岛市,市南区东部子站,颗粒物(PM10),51,51,31,19,14,48,,49,47,14,12,13,10,0.6,0.5
2026-01-02T1000,1311A,120.362344,36.10282,青岛市,四方区子站,,39,39,35,17,16,46,,49,46,13,10,7,4,0.6,0.5
2026-01-02T1000,1312A,120.294373,36.054183,青岛市,市南区西部子站,,35,31,27,24,13,42,,40,39,10,9,7,5,0.4,0.4
2026-01-02T1000,1313A,120.4581,36.0858,青岛市,崂山区子站,,41,41,27,14,12,45,,44,40,19,16,13,10,0.6,0.5
2026-01-02T1000,1315A,120.3945,36.3083,青岛市,城阳区子站,,48,48,33,24,16,47,,35,33,18,16,11,8,0.8,0.7
2026-01-02T1000,3642A,120.3454,36.0735,青岛市,市北区南部,,38,38,37,17,14,42,,40,38,13,12,8,6,0.7,0.5
2026-01-02T1000,3643A,120.3897,36.18,青岛市,李沧区北部,,,39,34,,25,39,,25,24,16,17,12,9,0.8,0.7
2026-01-02T1000,4110A,120.5222,36.4089,青岛市,盟旺路653号,颗粒物(PM10),56,62,34,34,15,37,,35,32,26,22,5,3,0.5,0.4
2026-01-02T1000,4290A,120.196923,35.954556,青岛市,珠江路669号,,42,36,30,29,17,51,,53,51,16,14,12,11,0.6,0.4
2026-01-02T1000,4291A,120.0424,35.8656,青岛市,黄岛区人民政府广场,,,,28,17,12,50,,49,46,16,15,10,8,0.8,0.6
2026-01-02T1000,1703A,113.0218,23.7086,清远市,凤城街办,,20,13,23,7,17,62,,42,42,14,14,/,/,/,/
2026-01-02T1000,3025A,113.0479,23.6343,清远市,技师学院,,20,20,27,9,17,60,,50,50,16,17,6,5,0.6,0.7
2026-01-02T1000,3318A,112.9898,23.7403,清远市,清新太和,,18,8,19,3,14,56,,43,43,9,11,12,11,0.5,0.6
2026-01-02T1000,3455A,113.076,23.72,清远市,清城东城,,20,13,24,8,17,62,,50,50,14,14,/,/,/,/
2026-01-02T1000,2661A,107.6325,35.7357,庆阳市,庆阳五中,,,,43,57,40,,,73,72,,16,,4,,0.6
2026-01-02T1000,2662A,107.6361,35.7067,庆阳市,市环保局,细颗粒物(PM2.5),109,86,49,82,40,43,,71,66,26,13,3,2,0.9,0.4
2026-01-02T1000,1916A,103.7897,25.5036,曲靖市,环境监测站,,25,25,32,13,16,26,,34,30,15,13,6,4,0.9,0.7
2026-01-02T1000,1917A,103.8013,25.5357,曲靖市,烟厂办公区,,23,22,29,16,16,34,,36,34,13,13,6,4,0.6,0.6
2026-01-02T1000,3376A,103.7926,25.4651,曲靖市,南苑二区,,20,20,31,10,18,31,,36,34,10,9,6,4,0.8,0.7
2026-01-02T1000,3377A,103.7442,25.5259,曲靖市,曲靖师范学院,,28,28,31,16,25,32,,36,33,10,10,2,2,0.7,0.6
2026-01-02T1000,1264A,118.8694,28.94,衢州市,环保大楼,,29,24,17,20,13,46,,44,44,20,18,/,/,/,/
2026-01-02T1000,1266A,118.8622,28.9809,衢州市,衢州学院,,29,24,16,20,12,50,,44,44,11,17,4,3,0.3,0.3
2026-01-02T1000,4097A,118.9646,28.9832,衢州市,衢州三中,,25,21,17,17,13,52,,42,42,7,11,4,4,0.5,0.5
2026-01-02T1000,1611A,118.5818,24.9116,泉州市,涂山街,,20,,27,7,16,62,,47,45,8,12,3,3,0.5,0.5
2026-01-02T1000,1612A,118.597,24.8976,泉州市,津头埔,,17,12,26,9,17,52,,46,43,10,12,4,5,0.5,0.4
2026-01-02T1000,1613A,118.6669,24.9422,泉州市,万安,,23,23,30,13,15,45,,44,41,10,11,3,4,0.4,0.4
2026-01-02T1000,4105A,118.6355,24.9148,泉州市,霞新路6号,,16,14,25,11,17,46,,44,41,10,12,/,/,0.5,0.4
2026-01-02T1000,2626A,88.8873,29.2723,日喀则市,日喀则监测站,,33,33,41,19,24,40,,36,36,28,27,14,14,0.8,0.9
2026-01-02T1000,3726A,88.8775,29.2425,日喀则市,林业技术推广中心,,21,21,18,9,7,59,,68,68,4,5,10,12,0.3,0.4
2026-01-02T1000,1659A,119.4711,35.421,日照市,监测站,,22,22,27,15,16,45,,40,38,18,20,9,9,0.6,0.6
2026-01-02T1000,1660A,119.523,35.4216,日照市,市政府广场,,34,34,27,17,16,47,,48,44,16,17,10,10,0.3,0.3
2026-01-02T1000,1661A,119.5511,35.4113,日照市,港务局,,29,29,30,18,21,46,,46,42,19,18,9,8,0.4,0.4
2026-01-02T1000,3507A,119.5326,35.4627,日照市,职业技术学院,,31,31,28,17,11,46,,44,42,18,19,10,8,0.6,0.6
2026-01-02T1000,3604A,119.3267,35.1043,日照市,岚山环保分局,,46,46,38,25,27,46,,46,43,20,20,13,15,0.7,0.8
2026-01-02T1000,1835A,111.1922,34.7752,三门峡市,市政府,细颗粒物(PM2.5),112,,66,84,75,18,,13,13,34,30,8,8,0.9,0.7
2026-01-02T1000,1836A,111.1588,34.794,三门峡市,开发区,细颗粒物(PM2.5),127,101,82,96,76,13,,23,18,33,23,4,7,0.9,0.7
2026-01-02T1000,3039A,111.1911,34.7829,三门峡市,三门峡市第一小学,细颗粒物(PM2.5),112,84,68,84,75,19,,12,12,31,28,7,7,0.9,0.7
2026-01-02T1000,3598A,111.1031,34.719,三门峡市,富达温泉假日酒店,细颗粒物(PM2.5),132,105,77,100,73,18,,14,14,37,35,13,12,1.0,0.8
2026-01-02T1000,2324A,117.621,26.2626,三明市,三钢,,14,8,18,6,17,44,,38,38,9,12,4,5,0.6,0.6
2026-01-02T1000,2325A,117.6352,26.2714,三明市,三明二中,,26,26,20,12,14,41,,37,37,7,10,2,4,0.6,0.6
2026-01-02T1000,2326A,117.6028,26.2377,三明市,三元区政府,,15,,14,3,14,45,,40,40,8,11,2,4,0.4,0.5
2026-01-02T1000,1877A,109.4962,18.2682,三亚市,河西子站,,48,40,35,33,18,94,,102,101,8,5,4,4,0.5,0.4
2026-01-02T1000,3540A,109.7348,18.3443,三亚市,君悦子站,颗粒物(PM10),52,54,31,34,18,83,,86,84,9,6,6,5,0.6,0.4
2026-01-02T1000,4135A,109.1714,18.3739,三亚市,城东小学站,,44,44,34,26,23,85,,74,74,8,10,/,/,/,/
2026-01-02T1000,2624A,91.7592,29.234,山南市,山南监测站,,26,26,22,12,10,37,,62,52,16,8,4,4,0.4,0.3
2026-01-02T1000,2625A,91.7701,29.2436,山南市,山南人民医院,,25,25,15,17,8,44,,67,61,14,7,2,2,0.4,0.3
2026-01-02T1000,1674A,116.6795,23.3666,汕头市,金平子站,,21,21,29,12,17,58,,52,52,14,14,6,6,0.8,0.6
2026-01-02T1000,1675A,116.7248,23.3632,汕头市,龙湖子站,,20,20,24,8,14,57,,52,52,10,10,9,9,/,/
2026-01-02T1000,1676A,116.7257,23.2774,汕头市,濠江子站,,30,30,26,12,16,53,,46,46,16,14,8,8,/,/
2026-01-02T1000,1677A,116.7518,23.4712,汕头市,澄海子站,,23,23,27,9,17,56,,55,55,12,12,6,6,0.7,0.6
2026-01-02T1000,1678A,116.6088,23.2539,汕头市,潮阳子站,,22,22,26,6,15,60,,56,56,12,12,8,7,0.6,0.6
2026-01-02T1000,3444A,116.4539,23.2684,汕头市,潮南峡山,,22,22,32,13,24,57,,53,53,13,12,8,8,0.6,0.6
2026-01-02T1000,3624A,116.4069,23.2533,汕头市,潮南子站,,19,18,36,13,21,56,,53,53,12,13,6,6,/,/
2026-01-02T1000,1693A,115.3653,22.7751,汕尾市,市环保局,,27,27,32,8,23,71,,64,64,8,12,7,7,0.5,0.6
2026-01-02T1000,1695A,115.362,22.7926,汕尾市,新城中学,,28,28,30,6,22,72,,66,66,6,9,5,5,0.4,0.4
2026-01-02T1000,2645A,109.9155,33.8714,商洛市,监测站,细颗粒物(PM2.5),73,61,59,53,87,56,,44,44,16,19,4,5,0.9,1
2026-01-02T1000,3045A,109.9647,33.8486,商洛市,商州区中学,细颗粒物(PM2.5),82,,50,60,58,44,,41,39,20,21,4,5,1.0,0.9
2026-01-02T1000,2408A,115.6701,34.4283,商丘市,环境监测站,细颗粒物(PM2.5),84,74,57,62,55,29,,18,16,30,18,11,3,0.9,0.7
2026-01-02T1000,2409A,115.6458,34.4047,商丘市,粮食局,细颗粒物(PM2.5),69,61,59,50,54,31,,19,19,29,20,13,5,0.7,0.5
2026-01-02T1000,3171A,115.6069,34.4465,商丘市,梁园区档案局,细颗粒物(PM2.5),78,75,59,57,54,24,,11,10,34,23,13,5,0.6,0.5
2026-01-02T1000,4119A,115.6701,34.3767,商丘市,北海东路185号,细颗粒物(PM2.5),72,63,66,52,52,29,,21,20,28,19,10,3,1.0,0.7
2026-01-02T1000,4120A,115.6172,34.3704,商丘市,中山大街3号,颗粒物(PM10),77,103,106,46,61,35,,20,20,27,21,11,3,0.7,0.5
2026-01-02T1000,1141A,121.401,31.2382,上海市,普陀,,33,30,27,23,20,51,,42,40,18,22,7,6,0.6,0.7
2026-01-02T1000,1142A,121.4774,31.2043,上海市,十五厂,,31,31,26,19,17,52,,48,46,15,17,7,6,0.6,0.6
2026-01-02T1000,1143A,121.4673,31.3011,上海市,虹口,,34,34,31,21,17,47,,42,40,15,18,10,10,0.3,0.4
2026-01-02T1000,1147A,121.4253,31.226,上海市,静安监测站,,36,30,27,25,18,54,,47,45,17,18,7,7,0.4,0.3
2026-01-02T1000,1148A,121.7029,31.1905,上海市,浦东川沙,,25,25,28,15,14,60,,48,48,10,16,7,7,0.5,0.5
2026-01-02T1000,1149A,121.5339,31.229,上海市,浦东新区监测站,,42,31,27,29,19,47,,48,45,23,20,8,6,0.8,0.6
2026-01-02T1000,1150A,121.5776,31.2038,上海市,浦东张江,,38,,23,26,14,62,,51,49,10,14,6,7,0.6,0.6
2026-01-02T1000,3265A,121.4242,31.3303,上海市,宝山庙行,,32,29,27,22,17,46,,42,39,18,20,6,6,0.4,0.4
2026-01-02T1000,3266A,121.8789,31.4662,上海市,崇明上实东滩,,22,22,21,14,13,59,,50,49,7,7,4,4,0.2,0.2
2026-01-02T1000,3268A,121.316,31.2839,上海市,嘉定南翔,,30,28,25,21,14,56,,42,41,11,16,5,4,0.5,0.6
2026-01-02T1000,3269A,121.3357,30.7455,上海市,金山新城,,49,,28,34,27,52,,43,43,19,22,9,7,0.8,0.7
2026-01-02T1000,3270A,121.4996,31.0741,上海市,闵行浦江,,39,31,29,27,17,52,,40,38,16,19,8,7,0.3,0.4
2026-01-02T1000,3271A,121.2886,31.1663,上海市,青浦徐泾,,40,32,26,28,20,49,,40,37,17,20,7,5,0.8,0.7
2026-01-02T1000,3272A,121.2193,31.0382,上海市,松江图书馆,,38,38,30,16,13,50,,45,44,19,20,8,7,0.5,0.4
2026-01-02T1000,3273A,121.3904,31.206,上海市,长宁仙霞,,32,29,27,22,18,53,,41,39,16,21,8,7,0.3,0.4
2026-01-02T1000,3274A,121.7964,31.0507,上海市,浦东惠南,,34,34,27,17,16,62,,47,46,12,19,5,4,0.5,0.6
2026-01-02T1000,3544A,121.4891,30.925,上海市,奉贤南桥新城,,43,35,30,30,20,54,,48,46,16,17,9,8,0.6,0.5
2026-01-02T1000,4183A,121.417401,31.16637,上海市,冠生园路458号,,40,31,27,28,20,55,,46,44,22,22,8,6,0.8,0.7
2026-01-02T1000,4205A,121.541914,31.268301,上海市,宁武路151号,,35,,25,24,16,58,,45,44,13,18,6,6,0.7,0.7
2026-01-02T1000,2382A,117.9758,28.4439,上饶市,市监测站,,26,26,21,18,11,58,,41,41,11,15,4,4,/,/
2026-01-02T1000,2383A,117.9521,28.4637,上饶市,凤凰光学,,25,25,21,12,9,52,,32,32,10,15,9,8,0.5,0.5
2026-01-02T1000,3685A,117.897,28.4316,上饶市,双创科技城,,43,,23,30,18,62,,43,43,16,23,3,4,0.5,0.5
2026-01-02T1000,4211A,118.190438,28.444845,上饶市,裕丰大道,,35,26,20,24,15,44,,37,37,15,17,8,7,0.6,0.5
2026-01-02T1000,1669A,113.5821,24.7733,韶关市,市八中,,15,12,13,8,8,45,,23,23,15,15,8,7,0.5,0.7
2026-01-02T1000,1671A,113.5916,24.7973,韶关市,园林处,,16,13,13,10,10,51,,28,28,13,15,8,7,/,/
2026-01-02T1000,1673A,113.5971,24.6864,韶关市,曲江监测站,,15,13,15,8,10,46,,25,25,12,14,7,8,0.3,0.5
2026-01-02T1000,2809A,113.6668,24.7756,韶关市,大学路288号,,16,9,17,8,13,50,,41,41,11,15,8,7,/,/
2026-01-02T1000,3622A,113.5556,24.8082,韶关市,碧湖山庄,,13,11,11,8,8,40,,20,20,13,15,5,5,0.4,0.5
2026-01-02T1000,2464A,111.5277,27.2442,邵阳市,市化工厂,细颗粒物(PM2.5),59,44,32,42,30,52,,48,48,14,16,9,10,0.9,0.8
2026-01-02T1000,2466A,111.4327,27.2276,邵阳市,市环保局,,50,37,23,35,27,43,,55,53,17,12,5,4,0.9,0.8
2026-01-02T1000,4218A,111.446,27.2472,邵阳市,北塔二期4-26地块,细颗粒物(PM2.5),57,,20,40,30,43,,53,51,13,12,5,4,1.0,0.9
2026-01-02T1000,4219A,111.4739,27.2282,邵阳市,邵水西路287号,细颗粒物(PM2.5),52,,24,36,28,53,,53,52,17,17,12,10,0.5,0.4
2026-01-02T1000,1247A,120.6053,29.9927,绍兴市,城东开发委,细颗粒物(PM2.5),84,71,36,62,30,53,,50,50,17,17,12,8,0.7,0.5
2026-01-02T1000,2921A,120.5482,30.0003,绍兴市,树下王站,细颗粒物(PM2.5),73,71,38,53,26,51,,46,46,18,20,10,6,0.6,0.5
2026-01-02T1000,3408A,120.5685,29.936,绍兴市,绍兴中专,细颗粒物(PM2.5),82,65,36,60,34,52,,48,48,13,14,9,6,0.6,0.5
2026-01-02T1000,3409A,120.4905,30.086,绍兴市,柯桥区政府,,,71,38,,23,55,,50,50,20,22,9,5,0.5,0.4
2026-01-02T1000,3410A,120.8751,30.0249,绍兴市,重华小学,细颗粒物(PM2.5),57,56,32,40,21,49,,49,49,18,17,9,6,0.8,0.5
2026-01-02T1000,3411A,120.837,30.0137,绍兴市,上虞中学,细颗粒物(PM2.5),68,65,32,49,23,48,,47,46,23,21,10,7,0.7,0.5
2026-01-02T1000,3560A,120.4715,30.0414,绍兴市,柯桥妇保,细颗粒物(PM2.5),78,78,39,57,28,54,,50,50,16,18,8,6,0.8,0.7
2026-01-02T1000,3658A,120.6156,30.0762,绍兴市,袍江中学,细颗粒物(PM2.5),79,70,36,58,24,50,,46,46,18,19,9,6,0.8,0.7
2026-01-02T1000,1356A,114.0948,22.5506,深圳市,通心岭子站,,22,18,39,6,21,70,,65,65,7,10,6,6,0.6,0.6
2026-01-02T1000,1357A,114.1153,22.5713,深圳市,洪湖,,23,16,41,8,24,73,,67,67,8,12,7,8,0.6,0.6
2026-01-02T1000,1358A,113.9823,22.5398,深圳市,华侨城,,21,21,38,11,25,57,,58,56,28,18,/,/,/,/
2026-01-02T1000,1359A,113.9181,22.517,深圳市,南海子站,,22,22,47,9,32,68,,55,55,13,17,5,6,0.6,0.7
2026-01-02T1000,1360A,114.2345,22.565,深圳市,盐田,,22,16,38,8,24,69,,65,65,8,15,7,8,0.6,0.6
2026-01-02T1000,1363A,114.4911,22.5381,深圳市,南澳,,22,12,35,7,20,70,,64,64,8,9,/,/,/,/
2026-01-02T1000,1364A,114.41,22.6346,深圳市,葵涌,,22,13,31,8,19,69,,65,65,11,11,7,8,0.7,0.7
2026-01-02T1000,1365A,114.2967,22.5978,深圳市,梅沙,,23,15,35,8,22,72,,67,67,8,11,/,/,/,/
2026-01-02T1000,1366A,114.0563,22.7353,深圳市,观澜,,25,20,50,8,30,77,,62,62,12,16,7,8,0.6,0.7
2026-01-02T1000,3305A,114.0614,22.556,深圳市,莲花,,22,16,36,10,23,68,,63,63,13,15,/,/,/,/
2026-01-02T1000,3306A,114.0144,22.6163,深圳市,民治,,23,12,38,8,25,72,,63,63,14,16,/,/,/,/
2026-01-02T1000,3307A,114.1756,22.6421,深圳市,横岗,,24,15,40,10,27,74,,68,68,10,12,/,/,/,/
2026-01-02T1000,3447A,114.344,22.7115,深圳市,坪山,,23,23,42,10,26,66,,62,62,17,18,8,9,0.6,0.7
2026-01-02T1000,3623A,113.8952,22.586,深圳市,西乡,,22,18,44,8,26,70,,60,60,15,17,6,6,0.6,0.7
