timepoint,stationcode,longitude,latitude,area,positionname,primarypollutant,aqi,pm10,pm10_24h,pm2_5,pm2_5_24h,o3,o3_24h,o3_8h,o3_8h_24h,no2,no2_24h,so2,so2_24h,co,co_24h
2026-03-28T2000,2568A,102.2503,31.8896,阿坝藏族羌族自治州,马师校,,39,39,29,8,8,92,92,96,96,7,4,5,5,0.3,0.2
2026-03-28T2000,3994A,102.2174,31.9016,阿坝藏族羌族自治州,马尔康中学西区,,30,23,19,8,9,94,94,94,94,4,5,3,3,0.2,0.2
2026-03-28T2000,2695A,80.2899,41.1684,阿克苏地区,电视台,颗粒物(PM10),137,214,288,69,100,NA,NA,110,110,6,32,4,3,0.5,0.9
2026-03-28T2000,2696A,80.2592,41.1541,阿克苏地区,艺术中心,颗粒物(PM10),132,201,290,59,95,119,119,116,116,5,37,4,4,0.3,0.6
2026-03-28T2000,2205A,105.699,38.8409,阿拉善盟,蒙二幼,,32,30,61,11,13,100,100,103,103,6,4,8,8,0.5,0.5
2026-03-28T2000,2206A,105.7198,38.8508,阿拉善盟,环保局新楼,,32,32,53,16,13,93,93,94,94,6,5,8,8,0.6,0.6
2026-03-28T2000,2708A,88.1266,47.8515,阿勒泰地区,市站,,28,13,19,10,3,87,87,78,78,5,13,5,6,0.2,0.3
2026-03-28T2000,4166A,88.1198,47.7931,阿勒泰地区,阿勒泰路33号,,28,16,14,3,2,88,88,77,77,5,10,5,6,0.2,0.2
2026-03-28T2000,2630A,80.1171,32.4999,阿里地区,阿里监测站,,36,9,12,3,3,113,113,118,118,2,3,6,6,0.3,0.3
2026-03-28T2000,3192A,80.0906,32.5029,阿里地区,阿里藏医院,NA,NA,8,8,3,3,112,112,114,114,1,2,5,6,NA,0.3
2026-03-28T2000,2644A,109.0088,32.6974,安康市,汉滨区检察院,颗粒物(PM10),56,58,41,22,18,67,67,119,115,33,17,5,5,0.6,0.5
2026-03-28T2000,4054A,109.0324,32.6913,安康市,市邮政管理局,颗粒物(PM10),63,67,48,34,20,56,56,106,101,33,22,5,8,1.1,0.7
2026-03-28T2000,2291A,117.0806,30.5181,安庆市,环科院,,40,40,46,11,33,98,98,133,130,31,20,8,9,0.4,0.5
2026-03-28T2000,2292A,117.0331,30.5118,安庆市,马山宾馆,,45,45,50,15,37,89,89,132,124,38,21,5,6,0.4,0.6
2026-03-28T2000,2294A,116.9897,30.6146,安庆市,安庆大学,,44,42,55,15,38,140,140,144,144,10,12,3,4,0.5,0.7
2026-03-28T2000,3173A,117.0598,30.5351,安庆市,市人大,,42,42,51,11,31,95,95,136,131,38,26,7,8,0.3,0.4
2026-03-28T2000,3123A,105.9408,26.2431,安顺市,凤凰山,细颗粒物(PM2.5),56,50,26,38,22,92,92,86,86,12,10,19,13,0.6,0.6
2026-03-28T2000,3124A,105.9443,26.2567,安顺市,金钟山,细颗粒物(PM2.5),54,44,22,37,21,87,87,79,79,9,7,14,8,0.7,0.7
2026-03-28T2000,3125A,105.8983,26.248,安顺市,娄家坡,,50,50,29,33,22,88,88,81,81,8,7,14,13,0.8,0.9
2026-03-28T2000,1819A,114.3552,36.1017,安阳市,红庙街,颗粒物(PM10),53,53,127,18,98,115,115,145,144,13,22,2,6,0.3,0.6
2026-03-28T2000,1820A,114.361,36.0681,安阳市,银杏小区,颗粒物(PM10),53,53,134,19,106,117,117,147,146,20,27,3,5,0.3,0.7
2026-03-28T2000,3141A,114.3921,36.0879,安阳市,信访局,,42,42,134,23,98,121,121,150,149,16,20,1,4,0.3,0.6
2026-03-28T2000,3669A,114.4706,36.0634,安阳市,左辅环卫站,颗粒物(PM10),60,64,156,25,101,102,102,138,136,13,18,4,5,0.2,0.4
2026-03-28T2000,4117A,114.2918,36.0769,安阳市,钢三路198号,,35,35,160,24,104,102,102,131,129,13,25,3,4,0.3,0.7
2026-03-28T2000,1748A,123.0441,41.1201,鞍山市,深沟寺,"颗粒物(PM10),细颗粒物(PM2.5)",78,89,79,49,50,104,104,130,130,30,27,18,13,1.2,1
2026-03-28T2000,1749A,123.011,41.0931,鞍山市,太阳城,细颗粒物(PM2.5),100,100,88,60,63,99,99,126,126,30,27,16,15,1.1,1
2026-03-28T2000,1750A,123.0483,41.1445,鞍山市,太平,"颗粒物(PM10),细颗粒物(PM2.5)",88,102,92,54,56,95,95,122,120,32,28,18,14,1.1,1
2026-03-28T2000,1751A,122.964,41.0968,鞍山市,铁西三道街,细颗粒物(PM2.5),137,163,120,100,78,85,85,120,118,49,51,16,15,1.1,1.2
2026-03-28T2000,1753A,123.0219,41.0822,鞍山市,明达新区,细颗粒物(PM2.5),88,101,85,54,57,96,96,124,123,30,25,22,14,1.4,1.1
2026-03-28T2000,4201A,122.944647,41.082639,鞍山市,兴盛南路290号,"颗粒物(PM10),细颗粒物(PM2.5)",156,262,164,119,80,78,78,120,117,47,51,18,16,1.3,1.2
2026-03-28T2000,2195A,107.4206,40.7609,巴彦淖尔市,附二中,,47,47,118,24,34,85,85,91,91,11,11,10,12,0.4,0.4
2026-03-28T2000,2196A,107.37,40.7372,巴彦淖尔市,市环保大楼,,47,47,110,22,30,81,81,94,94,12,12,6,7,0.3,0.3
2026-03-28T2000,1956A,86.1476,41.7529,巴音郭楞蒙古自治州,孔雀公园,颗粒物(PM10),176,302,278,76,59,90,90,93,93,6,41,10,10,0.3,0.4
2026-03-28T2000,1957A,86.1971,41.7166,巴音郭楞蒙古自治州,棉纺厂,颗粒物(PM10),252,386,329,71,57,93,93,98,98,3,31,/,/,/,/
2026-03-28T2000,1958A,86.236,41.7172,巴音郭楞蒙古自治州,经济开发区,颗粒物(PM10),188,326,263,70,42,87,87,88,88,5,14,8,7,0.3,0.3
2026-03-28T2000,3181A,106.776805,31.852614,巴中市,市五中,,34,34,39,18,22,88,88,106,106,13,16,8,8,0.6,0.7
2026-03-28T2000,3183A,106.7419,31.8654,巴中市,圣泉水务公司,,37,37,38,24,22,93,93,107,107,9,17,9,9,0.6,0.7
2026-03-28T2000,3616A,106.7617,31.8343,巴中市,市中心医院,,32,32,47,18,25,82,82,104,103,11,15,11,10,0.6,0.6
2026-03-28T2000,2235A,122.7909,45.608,白城市,洮北区环保局,,43,43,65,28,47,80,80,111,101,18,21,4,8,0.3,0.4
2026-03-28T2000,2236A,122.8741,45.5725,白城市,市环保局,颗粒物(PM10),62,66,60,37,41,59,59,102,88,22,18,4,7,0.2,0.3
2026-03-28T2000,2231A,126.4219,41.9172,白山市,喜丰,颗粒物(PM10),80,92,100,46,49,61,61,114,104,46,28,12,11,0.9,0.9
2026-03-28T2000,2232A,126.4082,41.9416,白山市,环保局,细颗粒物(PM2.5),103,87,77,63,63,44,44,115,100,39,17,10,10,1.1,0.8
2026-03-28T2000,2647A,104.1727,36.5448,白银市,第三小学,,46,46,32,18,15,108,108,110,110,14,10,10,8,0.2,0.2
2026-03-28T2000,2648A,104.1467,36.5482,白银市,动力公司,,42,42,33,21,14,103,103,110,110,16,9,18,11,0.4,0.3
2026-03-28T2000,2512A,106.6102,23.901,百色市,市监测站,细颗粒物(PM2.5),72,46,63,46,52,39,39,99,92,11,15,10,21,0.7,0.8
2026-03-28T2000,2513A,106.6524,23.8842,百色市,市中心血站,细颗粒物(PM2.5),68,58,61,44,55,56,56,99,94,10,13,10,19,0.9,1
2026-03-28T2000,4133A,106.6273,23.8798,百色市,龙景西路,颗粒物(PM10),75,84,78,46,56,58,58,108,102,10,15,12,21,0.5,0.7
2026-03-28T2000,2270A,117.396,32.9389,蚌埠市,工人疗养院,颗粒物(PM10),63,68,89,23,49,140,140,164,164,32,48,8,8,0.4,0.5
2026-03-28T2000,2271A,117.3606,32.9428,蚌埠市,百货大楼,颗粒物(PM10),58,61,77,24,46,141,141,164,163,32,51,8,8,0.6,0.6
2026-03-28T2000,2273A,117.4183,32.8909,蚌埠市,蚌埠学院,颗粒物(PM10),63,68,73,28,46,137,137,168,166,25,31,7,6,0.5,0.5
2026-03-28T2000,2274A,117.3534,32.9672,蚌埠市,淮上区政府,颗粒物(PM10),65,70,88,26,47,138,138,164,164,36,60,11,9,0.5,0.6
2026-03-28T2000,2275A,117.3143,32.8977,蚌埠市,高新区,颗粒物(PM10),67,73,82,25,51,121,121,156,153,35,38,8,9,0.5,0.6
2026-03-28T2000,3715A,117.3091,32.9314,蚌埠市,蚌埠田家炳中学,颗粒物(PM10),68,74,95,31,57,155,155,169,169,24,42,8,14,0.5,0.5
2026-03-28T2000,1585A,109.8761,40.6533,包头市,市环境监测站,颗粒物(PM10),74,83,87,39,51,61,61,75,73,32,41,12,12,0.7,0.8
2026-03-28T2000,1587A,109.9992,40.5843,包头市,包头八中,颗粒物(PM10),78,88,97,42,56,61,61,72,72,27,40,8,14,0.4,0.9
2026-03-28T2000,1589A,109.8641,40.6288,包头市,惠龙物流,颗粒物(PM10),68,75,84,35,48,64,64,72,72,22,36,8,12,0.4,0.6
2026-03-28T2000,1590A,110.0376,40.5546,包头市,东河鸿龙湾,颗粒物(PM10),66,72,87,25,53,69,69,81,81,19,46,10,18,0.6,0.8
2026-03-28T2000,3283A,109.9154,40.5684,包头市,滨河大厦,,50,50,85,34,50,63,63,76,76,21,40,8,13,0.4,0.6
2026-03-28T2000,3419A,109.9449,40.6259,包头市,包头市委党校,颗粒物(PM10),66,72,82,24,41,65,65,75,75,21,37,6,12,0.6,0.8
2026-03-28T2000,3683A,109.8332,40.6577,包头市,昆区政府,细颗粒物(PM2.5),74,82,80,47,46,56,56,70,69,43,38,10,9,1.1,0.9
2026-03-28T2000,1931A,107.0802,34.3129,宝鸡市,竹园沟,颗粒物(PM10),51,51,35,24,18,72,72,101,98,22,16,7,6,0.4,0.4
2026-03-28T2000,1933A,107.1429,34.3549,宝鸡市,监测站,颗粒物(PM10),61,65,46,27,16,61,61,94,91,38,22,6,6,0.4,0.3
2026-03-28T2000,1934A,107.1172,34.3759,宝鸡市,技工学校,颗粒物(PM10),60,63,47,34,19,77,77,102,101,29,15,4,4,0.6,0.4
2026-03-28T2000,1936A,107.2025,34.3518,宝鸡市,文理学院,颗粒物(PM10),55,56,44,23,20,75,75,100,99,30,17,4,5,0.5,0.4
2026-03-28T2000,1937A,107.2396,34.3626,宝鸡市,三迪小学,颗粒物(PM10),53,54,50,25,22,76,76,102,100,34,21,4,5,0.5,0.4
2026-03-28T2000,4155A,107.1721,34.3558,宝鸡市,滨河北路,颗粒物(PM10),59,62,44,27,23,74,74,97,96,30,19,6,6,0.5,0.5
2026-03-28T2000,4308A,107.3898,34.3601,宝鸡市,陈仓区北开路21号,颗粒物(PM10),60,64,57,25,26,89,89,102,102,23,22,8,15,0.5,0.5
2026-03-28T2000,1051A,115.4803,38.8568,保定市,游泳馆,细颗粒物(PM2.5),126,139,91,88,55,95,95,112,112,29,35,6,4,0.2,0.2
2026-03-28T2000,1052A,115.509,38.8895,保定市,华电二区,细颗粒物(PM2.5),115,124,82,76,48,85,85,105,105,26,25,1,4,0.7,0.5
2026-03-28T2000,1053A,115.4588,38.9037,保定市,接待中心,细颗粒物(PM2.5),141,132,87,105,54,85,85,110,110,31,25,5,5,0.6,0.3
2026-03-28T2000,1054A,115.4484,38.8344,保定市,地表水厂,细颗粒物(PM2.5),125,155,100,87,48,94,94,114,114,34,41,8,8,0.5,0.4
2026-03-28T2000,3581A,115.3136,38.9511,保定市,满城区生态环境分局,细颗粒物(PM2.5),120,149,117,82,54,97,97,127,122,27,30,4,3,0.5,0.5
2026-03-28T2000,3582A,115.4709,38.7628,保定市,清苑区第二中学,"颗粒物(PM10),细颗粒物(PM2.5)",120,170,98,82,45,59,59,105,101,49,38,11,9,0.5,0.4
2026-03-28T2000,3583A,115.6231,39.0223,保定市,徐水物探局,"颗粒物(PM10),细颗粒物(PM2.5)",125,184,118,87,53,57,57,102,100,47,36,4,3,0.3,0.4
2026-03-28T2000,4004A,115.4199,38.8665,保定市,双鹰农机,细颗粒物(PM2.5),131,158,117,94,62,96,96,119,118,32,36,5,6,0.4,0.3
2026-03-28T2000,4034A,115.515,38.8589,保定市,植保所站,细颗粒物(PM2.5),120,144,96,82,48,102,102,115,115,30,34,5,4,0.2,0.2
2026-03-28T2000,2594A,99.1589,25.1137,保山市,市环境监测站,细颗粒物(PM2.5),72,71,65,46,47,134,134,151,150,8,10,6,6,0.4,0.4
2026-03-28T2000,2595A,99.1616,25.1381,保山市,市环保局,细颗粒物(PM2.5),86,69,71,53,53,135,135,152,151,5,7,5,6,0.3,0.4
2026-03-28T2000,1867A,109.1435,21.4085,北海市,海滩公园,,46,46,34,20,19,67,67,73,73,12,9,7,8,0.6,1.1
2026-03-28T2000,1868A,109.0983,21.466,北海市,新市环保局,,36,36,34,24,20,66,66,69,69,9,9,9,10,0.5,0.6
2026-03-28T2000,1869A,109.1775,21.5232,北海市,北海工业园,,49,35,42,34,25,60,60,67,67,5,9,6,8,0.7,0.8
2026-03-28T2000,3400A,109.1844,21.4396,北海市,龙潭自来水厂,,46,46,32,30,22,58,58,63,63,8,6,5,6,1.1,1
2026-03-28T2000,1001A,116.3611,39.8786,北京市,万寿西宫,细颗粒物(PM2.5),110,125,96,70,45,124,124,135,135,31,40,5,5,0.6,0.5
2026-03-28T2000,1003A,116.4174,39.9289,北京市,东四,细颗粒物(PM2.5),112,125,96,73,46,135,135,141,141,25,38,9,8,0.4,0.4
2026-03-28T2000,1004A,116.4073,39.8858,北京市,天坛,细颗粒物(PM2.5),101,108,85,61,42,99,99,117,117,23,35,5,5,0.6,0.5
2026-03-28T2000,1005A,116.4622,39.9364,北京市,农展馆,细颗粒物(PM2.5),109,122,95,69,45,126,126,133,133,24,35,7,7,0.6,0.4
2026-03-28T2000,1006A,116.3399,39.9293,北京市,官园,细颗粒物(PM2.5),114,128,100,75,48,110,110,115,115,31,39,4,5,0.6,0.5
2026-03-28T2000,1007A,116.2879,39.9613,北京市,海淀万柳,细颗粒物(PM2.5),116,130,98,77,49,94,94,95,95,29,40,6,5,0.5,0.5
2026-03-28T2000,1008A,116.6635,40.1349,北京市,顺义新城,颗粒物(PM10),145,236,103,NA,39,NA,NA,110,110,40,36,6,6,0.7,0.4
2026-03-28T2000,1009A,116.6275,40.327,北京市,怀柔镇,细颗粒物(PM2.5),103,112,82,63,42,79,79,103,102,45,25,6,5,0.7,0.6
2026-03-28T2000,1010A,116.2295,40.217,北京市,昌平镇,细颗粒物(PM2.5),110,123,91,71,51,100,100,112,112,33,24,4,4,0.6,0.5
2026-03-28T2000,1011A,116.3968,39.982,北京市,奥体中心,细颗粒物(PM2.5),109,120,98,69,46,111,111,113,113,26,41,6,6,0.6,0.5
2026-03-28T2000,3418A,116.8336,40.4095,北京市,密云新城,颗粒物(PM10),95,112,90,55,37,79,79,110,109,43,32,5,4,0.6,0.5
2026-03-28T2000,3671A,116.0879,39.9725,北京市,门头沟三家店,"颗粒物(PM10),细颗粒物(PM2.5)",110,146,101,71,47,99,99,106,106,29,35,6,5,0.6,0.5
2026-03-28T2000,3672A,116.1507,39.8246,北京市,丰台云岗,细颗粒物(PM2.5),122,147,104,84,50,NA,NA,122,122,28,30,4,3,0.7,0.6
2026-03-28T2000,3674A,115.9578,39.7602,北京市,房山燕山,细颗粒物(PM2.5),110,137,99,71,52,99,99,108,108,23,20,6,5,0.5,0.5
2026-03-28T2000,3675A,116.4669,39.7734,北京市,大兴旧宫,细颗粒物(PM2.5),113,133,92,74,42,102,102,129,129,30,36,6,6,0.6,0.6
2026-03-28T2000,3694A,115.9859,40.4562,北京市,延庆石河营,细颗粒物(PM2.5),110,122,80,70,37,114,114,108,108,25,34,1,2,0.5,0.4
2026-03-28T2000,3695A,116.6151,40.3052,北京市,怀柔新城,细颗粒物(PM2.5),104,119,86,64,47,83,83,104,104,34,16,5,5,0.7,0.6
2026-03-28T2000,3696A,116.2542,39.8764,北京市,丰台小屯,细颗粒物(PM2.5),111,134,102,72,47,98,98,110,110,36,47,4,4,0.5,0.4
2026-03-28T2000,3697A,116.8399,40.3843,北京市,密云镇,颗粒物(PM10),95,112,84,56,38,90,90,111,111,35,34,7,6,0.6,0.5
2026-03-28T2000,4057A,115.9423,40.4431,北京市,延庆百泉,颗粒物(PM10),98,117,75,58,36,111,111,103,103,21,30,2,2,0.6,0.5
2026-03-28T2000,4058A,116.6598,39.9164,北京市,通州新华,颗粒物(PM10),107,136,102,66,43,115,115,121,121,26,41,6,6,0.5,0.5
2026-03-28T2000,4182A,116.1942,39.9158,北京市,石景山八角,细颗粒物(PM2.5),116,155,118,77,54,91,91,100,100,39,42,6,6,0.6,0.5
2026-03-28T2000,4194A,117.078628,40.151726,北京市,平谷新城,颗粒物(PM10),60,64,87,35,45,88,88,106,106,23,25,5,3,0.6,0.6
2026-03-28T2000,1761A,123.8274146,41.31234549,本溪市,大峪,颗粒物(PM10),80,92,94,43,45,110,110,128,128,17,30,15,15,1.0,1.1
2026-03-28T2000,1763A,123.7169,41.3094,本溪市,彩屯,细颗粒物(PM2.5),92,93,81,56,54,104,104,140,138,23,29,12,14,1.1,1.4
2026-03-28T2000,1764A,123.7672166,41.28649327,本溪市,东明,细颗粒物(PM2.5),70,74,92,45,52,113,113,129,129,24,46,16,15,1.1,1.4
2026-03-28T2000,1765A,123.799345,41.266614,本溪市,新立屯,细颗粒物(PM2.5),84,93,66,52,43,34,34,125,112,78,44,11,15,1.1,1.3
2026-03-28T2000,1766A,123.829144,41.336777,本溪市,威宁,颗粒物(PM10),80,91,103,41,50,114,114,136,136,17,28,10,10,0.5,0.8
2026-03-28T2000,2587A,105.287,27.3133,毕节市,八中,,40,40,15,11,10,58,58,74,71,15,9,11,10,0.7,0.6
2026-03-28T2000,2588A,105.3079,27.2987,毕节市,师专,,25,25,15,14,9,63,63,72,72,9,7,9,9,0.6,0.6
2026-03-28T2000,4263A,105.3688,27.3598,毕节市,工业大道,,26,26,14,18,9,71,71,78,78,8,8,11,10,/,/
2026-03-28T2000,1629A,117.9961,37.3604,滨州市,第二水厂,细颗粒物(PM2.5),132,158,86,95,48,139,139,183,180,35,33,15,23,0.6,0.4
2026-03-28T2000,1630A,117.9789,37.3931,滨州市,北中新校,细颗粒物(PM2.5),140,166,86,104,51,110,110,180,174,57,40,15,18,0.7,0.6
2026-03-28T2000,3514A,117.9379,37.3959,滨州市,中海酒店,细颗粒物(PM2.5),130,149,80,92,47,142,142,182,180,34,33,13,21,0.8,0.7
2026-03-28T2000,3515A,117.9381509,37.35547456,滨州市,开发区一中,细颗粒物(PM2.5),133,171,91,96,46,135,135,168,167,33,32,14,26,0.9,0.7
2026-03-28T2000,3516A,118.0914,37.6938,滨州市,金海六路,细颗粒物(PM2.5),133,176,94,96,57,110,110,173,168,54,33,12,14,0.8,0.4
2026-03-28T2000,4028A,117.9955,37.3752,滨州市,滨州市西街道办事处,细颗粒物(PM2.5),142,193,95,106,50,126,126,180,175,31,26,14,25,0.7,0.4
2026-03-28T2000,2311A,115.8071,33.8399,亳州市,污水处理厂,颗粒物(PM10),88,102,94,48,59,125,125,155,152,30,25,10,11,0.2,0.2
2026-03-28T2000,2312A,115.7789,33.8519,亳州市,三国揽胜宫,颗粒物(PM10),88,103,90,43,58,135,135,146,145,16,18,8,9,0.2,0.3
2026-03-28T2000,3332A,115.7631,33.803,亳州市,亳州学院,颗粒物(PM10),73,81,90,36,57,135,135,149,148,14,14,8,8,0.3,0.3
2026-03-28T2000,2693A,82.0482,44.8553,博尔塔拉蒙古自治州,市党校,颗粒物(PM10),60,64,90,14,14,128,128,114,114,1,6,4,3,0.3,0.2
2026-03-28T2000,2694A,82.0805,44.8966,博尔塔拉蒙古自治州,市环保局,,50,50,60,24,17,123,123,111,111,7,17,2,3,0.4,0.4
2026-03-28T2000,1071A,116.8733,38.2922,沧州市,沧县城建局,细颗粒物(PM2.5),140,172,86,103,49,118,118,140,140,43,54,11,11,0.6,0.3
2026-03-28T2000,1072A,116.8462,38.3189,沧州市,电视转播站,细颗粒物(PM2.5),169,150,85,128,55,125,125,144,144,29,45,5,6,0.7,0.5
2026-03-28T2000,1073A,116.8588,38.3161,沧州市,市环保局,细颗粒物(PM2.5),137,196,94,100,45,124,124,147,147,36,51,8,9,0.6,0.3
2026-03-28T2000,3324A,116.8011,38.294,沧州市,河北水利电力学院,细颗粒物(PM2.5),162,168,87,123,55,118,118,130,130,31,40,8,7,0.9,0.5
2026-03-28T2000,2622A,97.1813,31.1289,昌都市,昌都监测站,,26,13,11,3,5,82,82,92,92,17,9,6,5,0.7,0.5
2026-03-28T2000,3719A,97.1707,31.1428,昌都市,昌都会议中心,,28,9,10,7,6,89,89,93,93,6,6,5,5,0.5,0.4
2026-03-28T2000,2692A,87.2722,44.0298,昌吉回族自治州,新区政务中心,,35,25,38,20,23,110,110,103,103,8,25,5,5,0.3,0.5
2026-03-28T2000,3613A,87.3069,44.0093,昌吉回族自治州,亚心广场,,36,34,48,17,21,113,113,109,109,8,20,10,10,0.3,0.5
2026-03-28T2000,4164A,87.2057,43.9289,昌吉回族自治州,财政所,,45,45,44,14,16,102,102,104,104,13,10,9,8,0.4,0.4
2026-03-28T2000,1120A,125.2874,43.9024,长春市,客车厂,颗粒物(PM10),76,86,102,39,86,12,12,116,99,108,44,7,10,0.8,0.7
2026-03-28T2000,1121A,125.2943,43.8508,长春市,邮电学院,细颗粒物(PM2.5),68,54,112,44,88,88,88,116,112,15,31,7,9,0.5,0.8
2026-03-28T2000,1122A,125.3648,43.8745,长春市,劳动公园,细颗粒物(PM2.5),121,NA,117,83,89,63,63,115,107,46,33,10,9,0.9,0.9
2026-03-28T2000,1123A,125.3233,43.8781,长春市,园林处,细颗粒物(PM2.5),111,NA,105,72,90,68,68,112,106,38,31,8,10,0.9,0.9
2026-03-28T2000,1124A,125.4604,43.7904,长春市,净月潭,细颗粒物(PM2.5),64,43,93,42,78,89,89,120,114,15,21,6,8,0.4,0.6
2026-03-28T2000,1126A,125.38,43.8422,长春市,经开区环卫处,细颗粒物(PM2.5),90,69,125,55,88,14,14,119,104,105,49,6,7,0.8,0.9
2026-03-28T2000,1127A,125.234,43.7761,长春市,高新区管委会,细颗粒物(PM2.5),105,78,129,65,103,31,31,122,104,75,45,9,10,0.9,1
2026-03-28T2000,1128A,125.1695,43.83,长春市,岱山公园,细颗粒物(PM2.5),80,57,116,50,93,51,51,117,103,62,50,8,8,0.6,0.8
2026-03-28T2000,4281A,125.334645,43.916281,长春市,北亚泰大街1068号,细颗粒物(PM2.5),140,112,111,103,90,55,55,109,99,49,41,10,11,0.8,0.7
2026-03-28T2000,1335A,113.082,28.2421,长沙市,经开区环保局,细颗粒物(PM2.5),74,71,52,47,38,22,22,55,49,42,18,3,3,0.8,0.6
2026-03-28T2000,1336A,112.8873,28.2202,长沙市,高开区环保局,"颗粒物(PM10),细颗粒物(PM2.5)",56,58,48,38,37,37,37,59,56,34,20,5,5,0.8,0.8
2026-03-28T2000,1337A,113.0785,28.2012,长沙市,马坡岭,细颗粒物(PM2.5),72,68,50,46,42,25,25,55,48,40,27,4,4,0.9,0.8
2026-03-28T2000,1338A,112.9448,28.1894,长沙市,湖南师范大学,颗粒物(PM10),63,67,48,40,38,42,42,60,56,19,17,4,4,0.8,0.8
2026-03-28T2000,1339A,113.0177,28.1322,长沙市,雨花区环保局,颗粒物(PM10),64,69,50,39,40,38,38,56,55,27,18,3,4,1.0,0.8
2026-03-28T2000,1340A,112.9795,28.2593,长沙市,伍家岭,细颗粒物(PM2.5),92,82,57,56,46,34,34,51,49,35,23,4,4,0.9,0.8
2026-03-28T2000,1341A,113.002,28.1944,长沙市,火车新站,细颗粒物(PM2.5),98,81,53,59,51,37,37,56,53,33,20,3,3,0.9,0.7
2026-03-28T2000,1342A,112.9846,28.1177,长沙市,天心区环保局,细颗粒物(PM2.5),102,67,54,62,58,42,42,61,58,30,22,6,6,0.9,0.9
2026-03-28T2000,1343A,112.8906,28.1307,长沙市,湖南中医药大学,细颗粒物(PM2.5),68,64,46,44,44,42,42,63,61,27,18,5,5,0.5,0.6
2026-03-28T2000,1727A,113.1146,36.1547,长治市,清华站,,37,27,67,21,53,118,118,138,133,7,13,3,5,0.4,0.7
2026-03-28T2000,1730A,113.0887,36.2126,长治市,审计局,,38,21,69,19,59,119,119,140,136,6,16,7,10,0.5,0.7
2026-03-28T2000,1731A,113.0845,36.1856,长治市,长治八中,,37,32,89,17,62,117,117,138,133,8,16,10,12,0.4,0.7
2026-03-28T2000,2845A,113.1561,36.1912,长治市,德盛苑,颗粒物(PM10),58,61,74,26,62,119,119,143,135,8,13,8,11,0.5,0.6
2026-03-28T2000,3568A,113.0603,36.0464,长治市,向阳小学,颗粒物(PM10),59,62,106,29,59,118,118,144,136,12,18,8,9,0.6,0.8
2026-03-28T2000,3569A,112.8788,36.315,长治市,屯留一中,,35,30,78,19,57,110,110,134,127,13,28,7,9,0.5,1
2026-03-28T2000,4189A,113.113092,36.199482,长治市,英华南巷50号,,39,30,78,27,62,122,122,142,138,9,15,6,9,0.5,0.7
2026-03-28T2000,4190A,113.23666,36.33435,长治市,学府街1号,,35,34,71,18,53,110,110,137,131,8,23,4,5,0.8,0.9
2026-03-28T2000,1854A,111.696,28.9725,常德市,市二中,,28,26,36,19,23,84,84,78,78,8,14,7,7,0.9,1
2026-03-28T2000,3138A,111.7152,29.0288,常德市,武陵区永安,,38,35,37,26,26,79,79,81,81,11,15,5,6,0.7,0.7
2026-03-28T2000,3139A,111.6891,28.9881,常德市,鼎城区玉霞,,38,38,34,19,24,77,77,75,75,15,19,8,8,0.9,0.9
2026-03-28T2000,3140A,111.6651,29.0526,常德市,武陵区长庚,,38,38,36,24,25,83,83,82,82,9,14,7,8,0.9,1
2026-03-28T2000,1196A,119.9524,31.7586,常州市,市监测站,NA,NA,48,74,18,37,NA,NA,143,143,29,44,5,14,NA,0.7
2026-03-28T2000,1200A,119.9351,31.703,常州市,武进监测站,NA,NA,NA,61,NA,33,130,130,144,144,14,26,1,11,0.4,0.5
2026-03-28T2000,3002A,119.9701,31.813,常州市,行政中心,颗粒物(PM10),55,57,70,12,35,117,117,133,133,21,44,6,8,0.4,0.5
2026-03-28T2000,3003A,120.0434,31.7726,常州市,经开区,,38,37,79,11,38,121,121,139,139,18,48,9,11,0.5,0.7
2026-03-28T2000,3010A,119.8919,31.7892,常州市,钟楼,,45,43,61,14,33,143,143,157,157,24,41,7,9,0.2,0.3
2026-03-28T2000,3429A,119.8595,31.706,常州市,武进经发区,,39,35,56,17,35,122,122,147,146,26,44,9,12,0.4,0.5
2026-03-28T2000,3430A,119.5812,31.7256,常州市,金坛城区,,43,43,50,20,39,129,129,156,156,14,21,9,10,0.5,0.5
2026-03-28T2000,4089A,119.9551,31.863,常州市,崇义南街5-H号,颗粒物(PM10),58,60,70,15,38,113,113,139,139,33,54,6,7,0.6,0.7
2026-03-28T2000,2220A,120.4318,41.588,朝阳市,西梁,颗粒物(PM10),80,91,86,46,45,111,111,121,121,24,34,14,13,0.7,0.7
2026-03-28T2000,2221A,120.452,41.565,朝阳市,河畔小区,颗粒物(PM10),75,84,74,40,41,123,123,127,127,19,30,13,12,0.8,0.7
2026-03-28T2000,2222A,120.4176,41.5648,朝阳市,八里堡,细颗粒物(PM2.5),88,94,80,54,49,102,102,119,118,30,33,14,11,0.7,0.6
2026-03-28T2000,3026A,116.6179,23.6608,潮州市,市政府,细颗粒物(PM2.5),70,60,45,45,30,78,78,90,89,19,12,4,4,0.5,0.5
2026-03-28T2000,4036A,116.646,23.676,潮州市,金山,细颗粒物(PM2.5),60,41,38,40,29,76,76,88,87,19,15,4,4,0.4,0.3
2026-03-28T2000,2473A,113.0116,25.8228,郴州市,市职中,,25,20,22,17,17,36,36,45,34,10,13,5,4,0.8,0.7
2026-03-28T2000,2475A,113.0381,25.8074,郴州市,市审计局,,23,23,20,15,16,50,50,55,44,12,15,5,4,/,/
2026-03-28T2000,2476A,113.0348,25.7757,郴州市,市环保局,,23,23,24,16,15,28,28,42,29,20,18,6,6,0.7,0.6
2026-03-28T2000,4252A,113.0138,25.8011,郴州市,好美居路49号,,35,24,21,24,17,39,39,50,39,15,14,5,4,/,/
2026-03-28T2000,1431A,103.9727,30.7242,成都市,金泉两河,,48,48,45,25,30,102,102,133,132,28,19,1,1,0.4,0.4
2026-03-28T2000,1432A,104.1423,30.6765,成都市,十里店,,48,48,48,22,31,107,107,128,127,12,20,4,4,0.4,0.5
2026-03-28T2000,1433A,104.0594,30.5765,成都市,三瓦窑,,46,46,46,17,32,98,98,124,124,11,25,2,3,0.5,0.6
2026-03-28T2000,1434A,104.1122,30.6306,成都市,沙河铺,,42,42,43,19,28,88,88,111,111,19,26,4,5,0.3,0.5
2026-03-28T2000,2880A,104.0219,30.6561,成都市,大石西路,,42,42,49,21,33,105,105,126,126,15,19,6,7,0.6,0.7
2026-03-28T2000,3136A,104.2724,30.559,成都市,龙泉驿区区政府,,36,36,32,17,24,85,85,106,105,10,11,6,6,0.4,0.4
2026-03-28T2000,3357A,104.0028,30.6891,成都市,金博路,,34,31,39,22,30,107,107,136,135,24,25,6,6,0.7,0.7
2026-03-28T2000,3359A,104.056,30.5228,成都市,华阳,,34,34,40,14,28,108,108,128,128,15,21,4,4,0.5,0.6
2026-03-28T2000,3488A,104.387954,30.746684,成都市,青石路225号,,32,32,40,19,27,94,94,117,115,18,26,6,6,0.6,0.7
2026-03-28T2000,3489A,104.0788,30.4054,成都市,科学城,,35,28,36,20,24,112,112,115,115,8,13,7,7,0.6,0.7
2026-03-28T2000,4011A,103.8505,30.6946,成都市,光华大道三段,,50,50,47,22,32,93,93,130,129,25,21,3,3,0.6,0.6
2026-03-28T2000,4144A,104.3257,30.6406,成都市,八角井街185号,,50,50,45,16,27,82,82,93,90,13,16,3,4,0.4,0.4
2026-03-28T2000,4224A,104.2433276,30.53529463,成都市,鲸龙路1057号,,29,24,38,16,23,92,92,114,112,14,16,6,6,0.5,0.5
2026-03-28T2000,1062A,117.9531,40.908,承德市,铁路,颗粒物(PM10),79,90,54,35,20,105,105,121,121,21,16,5,6,0.4,0.4
2026-03-28T2000,1063A,117.9397,40.9763,承德市,中国银行,颗粒物(PM10),75,85,48,38,16,107,107,120,120,19,22,4,4,0.5,0.4
2026-03-28T2000,4073A,117.9462,40.95,承德市,杏林街1号,颗粒物(PM10),75,84,43,42,24,118,118,132,132,16,20,4,4,0.5,0.4
2026-03-28T2000,4274A,117.7994,40.9605,承德市,滨河大街98号,细颗粒物(PM2.5),100,84,48,60,19,96,96,123,123,18,18,22,15,0.7,0.4
2026-03-28T2000,2314A,117.4698,30.6617,池州市,池州学院,,37,34,39,21,28,117,117,142,142,34,41,6,5,0.5,0.7
2026-03-28T2000,3237A,117.4918,30.6617,池州市,展览馆,,32,NA,25,12,22,102,102,141,138,24,28,3,3,0.5,0.7
2026-03-28T2000,3333A,117.5626,30.695,池州市,第八中学,,33,30,34,18,23,103,103,129,127,33,37,4,4,0.5,0.7
2026-03-28T2000,3334A,117.5037,30.6242,池州市,第十二中学,颗粒物(PM10),55,56,39,23,21,68,68,135,128,52,48,5,4,0.6,0.8
2026-03-28T2000,1744A,118.9229,42.2816,赤峰市,松山一中,,38,32,39,26,19,89,89,74,74,17,32,5,7,0.5,0.6
2026-03-28T2000,1745A,118.9588,42.2733,赤峰市,哈达街,颗粒物(PM10),52,52,28,28,13,90,90,86,86,18,21,8,10,0.5,0.4
2026-03-28T2000,1746A,118.8792,42.2551,赤峰市,天义路,,37,NA,23,25,13,118,118,104,104,12,20,5,7,0.4,0.5
2026-03-28T2000,3058A,119.2656,42.0356,赤峰市,银河街,细颗粒物(PM2.5),76,82,72,48,30,119,119,116,113,8,13,31,24,0.5,0.7
2026-03-28T2000,3286A,118.9359,42.3146,赤峰市,桥北物流园区,,29,NA,30,19,16,92,92,90,90,20,29,4,4,0.4,0.4
2026-03-28T2000,2521A,107.3473,22.4137,崇左市,市环保局江州分局,NA,NA,83,56,60,42,NA,NA,81,81,7,8,7,6,0.6,0.5
2026-03-28T2000,4256A,107.375,22.3736,崇左市,石景林东路7号,细颗粒物(PM2.5),98,NA,48,59,41,71,71,88,87,12,11,3,4,0.8,0.7
2026-03-28T2000,3207A,118.31131,32.3033,滁州市,市政府原办公楼,,46,46,66,26,50,133,133,140,140,17,40,6,8,0.3,0.5
2026-03-28T2000,3331A,118.3268,32.2633,滁州市,图书馆,,43,42,70,18,39,135,135,138,138,17,32,10,11,0.3,0.5
2026-03-28T2000,4101A,118.3196,32.3335,滁州市,银山路666号,,49,49,64,21,38,144,144,150,150,18,36,10,11,0.5,0.7
2026-03-28T2000,4102A,118.3426,32.2979,滁州市,黄山路555号,颗粒物(PM10),55,56,75,21,34,145,145,152,152,16,34,8,10,0.6,0.8
2026-03-28T2000,2606A,101.5379,25.0492,楚雄彝族自治州,市经济开发区,细颗粒物(PM2.5),62,54,53,41,38,122,122,129,128,15,12,4,6,0.6,0.4
2026-03-28T2000,4153A,101.5536,25.0343,楚雄彝族自治州,团结路562号,细颗粒物(PM2.5),52,41,43,36,35,135,135,132,132,7,11,1,3,0.4,0.4
2026-03-28T2000,2549A,107.5087,31.2186,达州市,市环境监测站,,43,43,50,13,23,68,68,82,82,21,31,6,7,0.2,0.3
2026-03-28T2000,2550A,107.4988,31.2132,达州市,凤凰小区,,39,39,52,13,26,64,64,74,74,18,31,5,6,0.3,0.4
2026-03-28T2000,2551A,107.5081,31.1987,达州市,达县机关宾馆,,24,24,52,9,28,66,66,82,82,24,34,3,5,0.4,0.5
2026-03-28T2000,2552A,107.4644,31.2124,达州市,市政中心,,22,15,59,8,24,68,68,14,NA,20,39,6,11,0.6,0.6
2026-03-28T2000,2614A,100.2168,25.5818,大理白族自治州,大理市环境监测站,NA,NA,NA,45,NA,40,117,117,126,124,12,7,NA,7,0.3,0.4
2026-03-28T2000,2615A,100.1542,25.7055,大理白族自治州,大理古城,细颗粒物(PM2.5),52,36,41,36,34,123,123,127,126,9,8,5,5,0.5,0.4
2026-03-28T2000,1109A,121.6119,38.974,大连市,甘井子,颗粒物(PM10),58,61,30,33,17,102,102,111,110,32,28,9,9,0.6,0.7
2026-03-28T2000,1110A,121.565,38.9509,大连市,周水子,细颗粒物(PM2.5),62,51,44,41,22,92,92,116,110,39,37,7,8,0.4,0.4
2026-03-28T2000,1111A,121.5637,38.8849,大连市,星海三站,,40,32,24,28,15,99,99,106,106,22,16,6,6,0.2,0.3
2026-03-28T2000,1112A,121.6301,38.9117,大连市,青泥洼桥,颗粒物(PM10),53,53,41,34,20,105,105,121,117,29,29,7,6,0.9,0.7
2026-03-28T2000,1113A,121.6248,38.8643,大连市,傅家庄,,44,44,27,28,16,101,101,103,103,28,20,9,10,0.6,0.6
2026-03-28T2000,1114A,121.5117,38.8636,大连市,七贤岭,颗粒物(PM10),58,61,21,30,12,108,108,119,118,27,15,6,6,0.6,0.5
2026-03-28T2000,1116A,121.7507,39.1339,大连市,金州,,37,37,42,14,19,104,104,118,111,14,26,8,11,0.3,0.5
2026-03-28T2000,1117A,121.7811,39.0495,大连市,开发区,细颗粒物(PM2.5),58,43,37,39,19,42,42,117,104,86,32,10,10,0.5,0.3
2026-03-28T2000,1118A,121.9762,39.0631,大连市,双D港,,48,48,40,30,20,122,122,102,102,18,28,6,8,0.6,0.5
2026-03-28T2000,4082A,121.2548,38.8188,大连市,旅顺,,46,37,36,32,22,88,88,104,102,31,22,7,13,0.5,0.5
2026-03-28T2000,1789A,124.8085,46.0381,大庆市,大同区,细颗粒物(PM2.5),120,110,70,81,51,75,75,111,102,55,22,12,6,0.6,0.4
2026-03-28T2000,1790A,125.1166,46.5255,大庆市,龙凤区,细颗粒物(PM2.5),94,84,80,57,52,69,69,100,92,40,33,19,8,0.4,0.4
2026-03-28T2000,1791A,124.8894,46.4007,大庆市,红岗区,细颗粒物(PM2.5),129,136,61,91,47,76,76,98,94,21,13,14,14,0.8,0.5
2026-03-28T2000,1792A,125.1391,46.578,大庆市,萨尔图区,颗粒物(PM10),59,62,68,34,41,72,72,103,96,34,28,7,7,0.4,0.6
2026-03-28T2000,1793A,124.9026,46.6217,大庆市,让胡路区,,45,45,60,24,43,65,65,99,95,30,19,5,6,0.4,0.4
2026-03-28T2000,3481A,125.127,46.6277,大庆市,萨区政府监测点,细颗粒物(PM2.5),76,66,63,48,42,82,82,93,92,21,23,10,10,0.5,0.5
2026-03-28T2000,1723A,113.2926,40.0759,大同市,云冈宾馆,,45,45,77,16,37,74,74,102,100,17,37,7,14,0.8,1.5
2026-03-28T2000,1724A,113.3437,40.0921,大同市,大同大学,,36,36,71,22,33,83,83,113,112,23,32,9,15,0.7,1.1
2026-03-28T2000,1725A,113.2637,40.129,大同市,安家小村,,38,36,84,26,35,76,76,116,111,22,36,13,16,0.5,1.6
2026-03-28T2000,3282A,113.3399,40.0586,大同市,大同市卫生学校,,38,28,76,26,41,80,80,104,104,20,35,10,15,0.6,1
2026-03-28T2000,3565A,113.1371,40.1122,大同市,云冈站,,34,34,90,19,29,72,72,107,103,19,39,6,16,0.4,0.7
2026-03-28T2000,3566A,113.1186,40.2556,大同市,图书馆,,41,41,61,22,34,72,72,110,106,26,16,9,8,0.6,0.8
2026-03-28T2000,3567A,113.5931,40.0459,大同市,区一中,,29,23,120,13,55,91,91,120,111,15,25,19,25,0.4,0.7
2026-03-28T2000,4199A,113.2798248,40.09972476,大同市,魏都大道141号,,39,36,94,27,40,74,74,107,106,18,40,14,17,0.7,1.9
2026-03-28T2000,2269A,124.1068,50.4091,大兴安岭地区,科技局,,30,30,17,12,8,75,75,81,80,3,2,7,6,0.3,0.2
2026-03-28T2000,3663A,124.117,50.4279,大兴安岭地区,红旗社区,,21,17,8,13,7,67,67,84,80,15,7,28,10,0.3,0.3
2026-03-28T2000,1600A,124.33,40.0625,丹东市,江湾东路,细颗粒物(PM2.5),114,131,58,75,38,65,65,117,107,52,24,23,15,0.7,0.6
2026-03-28T2000,1601A,124.4242,40.1513,丹东市,临江后街,细颗粒物(PM2.5),119,145,66,80,41,82,82,107,102,24,20,13,9,1.1,0.5
2026-03-28T2000,1602A,124.3935,40.1461,丹东市,元宝山,细颗粒物(PM2.5),106,86,55,66,36,78,78,107,102,32,20,13,10,0.9,0.5
2026-03-28T2000,1603A,124.3634,40.1093,丹东市,民主桥,细颗粒物(PM2.5),117,121,57,78,39,82,82,119,111,34,22,14,8,0.8,0.5
2026-03-28T2000,3541A,109.5726195,19.51688767,儋州市,第一中学子站,,36,36,47,20,31,70,70,76,75,6,6,6,6,0.4,0.5
2026-03-28T2000,3542A,109.5567,19.5187,儋州市,东坡学校子站,,39,39,46,21,31,74,74,80,80,7,8,5,6,0.5,0.6
2026-03-28T2000,2616A,98.5611,24.4273,德宏傣族景颇族自治州,德宏州监测站,细颗粒物(PM2.5),119,NA,70,80,73,106,106,130,130,8,15,9,9,0.8,0.8
2026-03-28T2000,3677A,98.5887,24.4366,德宏傣族景颇族自治州,芒市人民政府综合楼,颗粒物(PM10),101,121,107,53,70,96,96,121,121,13,18,4,5,0.7,0.6
2026-03-28T2000,1901A,104.424,31.1209,德阳市,东山公园,,31,25,36,18,30,98,98,113,112,8,14,3,3,0.5,0.6
2026-03-28T2000,1902A,104.3827,31.1318,德阳市,西小区,,44,44,58,25,38,103,103,117,117,16,27,3,3,0.6,0.7
2026-03-28T2000,1904A,104.3553,31.1091,德阳市,耐火材料厂,,48,48,57,24,44,100,100,125,124,21,27,2,3,0.5,0.6
2026-03-28T2000,4145A,104.4144,31.1495,德阳市,市林业局,,49,49,44,20,32,60,60,122,116,43,27,2,3,0.6,0.6
2026-03-28T2000,1622A,116.3034,37.4675,德州市,儿童乐园,细颗粒物(PM2.5),115,146,114,76,58,156,156,163,163,25,42,14,22,0.7,0.7
2026-03-28T2000,1624A,116.2992,37.4449,德州市,监理站,细颗粒物(PM2.5),116,146,110,77,57,156,156,165,165,32,40,8,16,0.6,0.6
2026-03-28T2000,3066A,116.2722,37.438,德州市,九衢泉纯净水厂,"颗粒物(PM10),细颗粒物(PM2.5)",103,127,96,63,48,136,136,151,151,63,57,8,16,0.8,0.7
2026-03-28T2000,3371A,116.3693,37.44,德州市,开发区人民医院,细颗粒物(PM2.5),122,153,112,84,62,145,145,157,157,31,40,11,20,0.7,0.6
2026-03-28T2000,3511A,116.5687,37.3331,德州市,陵城艺术中心,细颗粒物(PM2.5),102,114,112,62,69,154,154,155,155,17,29,8,16,0.8,0.8
2026-03-28T2000,4292A,116.352738,37.420875,德州市,新河东路,细颗粒物(PM2.5),115,149,104,76,53,124,124,145,145,40,37,13,22,0.7,0.6
2026-03-28T2000,2621A,99.7054,27.8319,迪庆藏族自治州,迪庆州站,,34,32,28,22,19,106,106,109,109,8,8,4,5,0.6,0.5
2026-03-28T2000,3180A,99.7122,27.8129,迪庆藏族自治州,质量技术监督局,,35,28,28,20,18,109,109,115,113,9,8,6,6,0.5,0.5
2026-03-28T2000,4257A,104.6092,35.5962,定西市,将台街,颗粒物(PM10),57,59,38,35,16,121,121,129,129,10,11,8,8,0.4,0.4
2026-03-28T2000,4309A,104.6159,35.5701,定西市,正龙路62号,颗粒物(PM10),70,77,40,26,15,109,109,122,122,13,10,6,3,0.4,0.4
2026-03-28T2000,4071A,114.9883,38.5232,定州市,交通局,细颗粒物(PM2.5),120,147,107,82,55,89,89,113,112,33,42,6,7,0.6,0.6
2026-03-28T2000,4072A,115.0045,38.5136,定州市,第五中学,细颗粒物(PM2.5),119,152,116,80,52,94,94,110,110,30,49,10,11,0.5,0.5
2026-03-28T2000,1390A,113.7943,23.0132,东莞市,东城石井,,46,46,41,26,24,38,38,54,51,47,27,3,3,0.6,0.6
2026-03-28T2000,1391A,113.7384,22.9659,东莞市,南城西平,,25,25,37,14,23,41,41,54,52,23,27,4,4,0.5,0.6
2026-03-28T2000,3319A,113.7283,23.041,东莞市,万江金泰,,33,33,44,20,27,42,42,53,50,22,24,6,6,0.7,0.8
2026-03-28T2000,4129A,113.8666,23.1062,东莞市,裕兴路,颗粒物(PM10),60,64,56,37,29,33,33,54,48,31,27,6,5,0.8,0.8
2026-03-28T2000,4130A,114.0076,22.9739,东莞市,教育路1号,颗粒物(PM10),52,52,48,27,27,50,50,62,58,26,25,5,5,0.7,0.7
2026-03-28T2000,4131A,113.7981,22.8124,东莞市,长怡路1号,,39,39,43,20,22,11,11,24,20,44,27,5,5,0.7,0.7
2026-03-28T2000,1666A,118.6612,37.4313,东营市,市环保局,细颗粒物(PM2.5),173,178,79,131,49,143,143,178,178,34,26,44,16,0.7,0.6
2026-03-28T2000,3036A,118.6903,37.4337,东营市,开发区管委会,细颗粒物(PM2.5),163,166,81,124,53,153,153,179,179,40,33,41,17,0.7,0.6
2026-03-28T2000,3365A,118.5721,37.5654,东营市,垦利区民丰路,细颗粒物(PM2.5),166,129,76,126,55,152,152,192,188,33,34,4,5,0.7,0.6
2026-03-28T2000,3498A,118.5063,37.8606,东营市,河口城区,细颗粒物(PM2.5),148,166,80,112,46,170,170,206,206,23,21,9,10,1.0,0.7
2026-03-28T2000,3646A,118.4979,37.4623,东营市,胜利站,细颗粒物(PM2.5),176,192,78,133,46,107,107,158,158,38,30,11,14,1.2,0.7
2026-03-28T2000,3734A,118.5753,37.4405,东营市,理想之城,细颗粒物(PM2.5),175,188,89,132,51,113,113,193,191,54,40,9,10,1.2,0.9
2026-03-28T2000,1591A,110.0024,39.8127,鄂尔多斯市,综合楼,,24,19,58,14,29,74,74,90,79,20,26,5,8,0.4,0.5
2026-03-28T2000,1592A,109.9485,39.8259,鄂尔多斯市,巴音孟克林场办事处,,25,17,50,17,26,78,78,92,84,13,20,2,5,0.2,0.3
2026-03-28T2000,1593A,109.7734,39.5987,鄂尔多斯市,康泽苑,,28,24,47,19,18,87,87,94,93,10,17,5,6,0.3,0.3
2026-03-28T2000,1594A,109.8121,39.5987,鄂尔多斯市,华泰汽车城,,28,27,51,15,19,89,89,95,95,11,31,4,5,0.4,0.4
2026-03-28T2000,1595A,109.9734,39.7884,鄂尔多斯市,奥林花园,,22,14,57,10,25,70,70,81,78,18,27,4,6,0.4,0.5
2026-03-28T2000,2436A,114.894,30.3989,鄂州市,市政府,颗粒物(PM10),113,153,68,34,38,96,96,139,133,24,31,10,11,0.5,0.6
2026-03-28T2000,2437A,114.8986,30.3714,鄂州市,赵家坝,细颗粒物(PM2.5),62,60,65,41,39,100,100,156,150,24,20,14,13,0.7,0.8
2026-03-28T2000,3654A,114.8093,30.4091,鄂州市,精准医疗中心,细颗粒物(PM2.5),56,49,74,38,49,122,122,162,160,19,30,4,21,0.7,0.8
2026-03-28T2000,2454A,109.4978,30.2979,恩施土家族苗族自治州,湖北民院,,38,38,33,26,16,57,57,85,85,23,13,7,7,0.6,0.7
2026-03-28T2000,3549A,109.5061,30.3771,恩施土家族苗族自治州,龙凤新区,,34,34,26,20,14,44,44,77,77,11,8,8,7,0.5,0.5
2026-03-28T2000,2499A,108.3411,21.6159,防城港市,沙万,,47,47,55,18,25,46,46,50,50,17,19,6,7,0.5,0.7
2026-03-28T2000,2500A,108.3515,21.7733,防城港市,防城档案局,,36,34,42,25,27,56,56,67,67,6,11,8,8,0.5,0.6
2026-03-28T2000,2501A,108.3506,21.6414,防城港市,大海花园,,43,NA,42,30,28,59,59,60,60,18,20,8,10,0.4,0.6
2026-03-28T2000,1371A,113.1293,23.0065,佛山市,湾梁,细颗粒物(PM2.5),52,41,37,36,28,8,8,48,37,44,25,/,/,/,/
2026-03-28T2000,1372A,113.1082,23.0477,佛山市,华材职中,,50,41,36,35,28,18,18,48,41,45,27,7,8,0.5,0.4
2026-03-28T2000,1373A,113.1439,23.045,佛山市,南海气象局,细颗粒物(PM2.5),68,52,40,44,31,12,12,44,36,45,29,/,/,/,/
2026-03-28T2000,1374A,113.2879,22.8094,佛山市,顺德苏岗,,49,49,36,22,22,30,30,44,41,22,15,/,/,0.5,0.5
2026-03-28T2000,1376A,112.8384,22.8678,佛山市,高明孔堂,,26,26,27,16,17,34,34,51,47,11,12,/,/,/,/
2026-03-28T2000,1377A,112.8835,23.1584,佛山市,三水监测站,细颗粒物(PM2.5),68,NA,41,44,31,15,15,41,34,36,33,4,4,0.5,0.5
2026-03-28T2000,1378A,112.8668,23.185,佛山市,三水云东海,颗粒物(PM10),58,60,48,31,24,20,20,47,41,29,25,/,/,/,/
2026-03-28T2000,3625A,113.2568,22.7629,佛山市,容桂街道办,,30,27,28,21,22,29,29,43,41,29,20,/,/,/,/
2026-03-28T2000,1282A,119.2681,26.0506,福州市,师大,,34,34,32,17,18,89,89,94,94,23,20,4,4,0.3,0.3
2026-03-28T2000,1283A,119.2983,26.1028,福州市,五四北路,NA,NA,NA,30,15,24,83,83,83,83,17,17,4,4,0.5,0.4
2026-03-28T2000,1284A,119.2648,26.0769,福州市,杨桥西路,,44,44,32,21,18,85,85,90,90,24,18,5,4,/,/
2026-03-28T2000,3048A,119.5799,26.0937,福州市,九龙,,27,26,21,13,11,86,86,113,110,21,13,5,4,0.3,0.3
2026-03-28T2000,3526A,119.5188,25.9666,福州市,吴航,,30,22,20,15,13,94,94,109,108,16,12,7,5,0.4,0.3
2026-03-28T2000,4104A,119.3106,26.0648,福州市,路通桥巷6号,,38,38,33,25,24,79,79,84,84,20,16,/,/,/,/
2026-03-28T2000,1755A,123.7974,41.8494,抚顺市,望花区,颗粒物(PM10),114,156,138,73,85,93,93,138,133,43,45,18,17,0.9,1.1
2026-03-28T2000,1756A,123.9161,41.8827,抚顺市,顺城区,细颗粒物(PM2.5),110,100,116,71,96,118,118,141,140,28,48,15,15,1.0,1.3
2026-03-28T2000,1757A,124.0437,41.8615,抚顺市,东洲区,细颗粒物(PM2.5),130,154,97,92,70,122,122,141,140,27,25,22,13,1.7,1
2026-03-28T2000,1758A,123.9246,41.8638,抚顺市,新抚区,细颗粒物(PM2.5),112,142,130,73,81,126,126,149,146,22,43,18,16,1.3,1
2026-03-28T2000,1759A,124.0972,41.8961,抚顺市,大伙房水库,细颗粒物(PM2.5),129,144,83,91,64,129,129,154,152,25,24,17,11,1.1,0.8
2026-03-28T2000,1760A,123.708,41.8386,抚顺市,沈抚新城,颗粒物(PM10),109,141,149,60,96,113,113,140,138,28,47,21,18,0.9,1.4
2026-03-28T2000,2377A,116.3544,27.9833,抚州市,市站,细颗粒物(PM2.5),70,58,51,45,46,54,54,71,70,12,9,12,11,1.2,1
2026-03-28T2000,2378A,116.3562,27.9631,抚州市,血防站,细颗粒物(PM2.5),76,62,49,48,40,55,55,67,67,18,15,9,8,1.0,0.9
2026-03-28T2000,2379A,116.3561,28.0007,抚州市,采茶剧团,细颗粒物(PM2.5),66,56,55,43,44,49,49,71,70,17,12,10,11,1.1,1
2026-03-28T2000,2380A,116.3854,27.9648,抚州市,医学分院,细颗粒物(PM2.5),68,68,57,44,37,61,61,68,68,17,12,12,8,1.3,1.3
2026-03-28T2000,2207A,121.6095,41.9978,阜新市,工业园区,细颗粒物(PM2.5),96,100,89,58,51,113,113,124,124,19,29,14,16,0.7,0.7
2026-03-28T2000,2208A,121.6567,42.0188,阜新市,长青街,细颗粒物(PM2.5),101,95,61,61,42,104,104,125,125,29,26,19,16,0.8,0.7
2026-03-28T2000,2209A,121.6672,42.07,阜新市,农业园区,细颗粒物(PM2.5),105,111,61,65,35,115,115,126,126,22,19,12,13,0.8,0.6
2026-03-28T2000,2211A,121.6343,42.0455,阜新市,玉龙新城,细颗粒物(PM2.5),107,109,70,67,45,109,109,126,126,25,34,16,15,0.9,0.7
2026-03-28T2000,2301A,115.8276,32.8929,阜阳市,市监测站,颗粒物(PM10),67,73,94,31,57,90,90,152,144,49,30,7,8,0.4,0.5
2026-03-28T2000,2303A,115.8551,32.8606,阜阳市,开发区,颗粒物(PM10),76,86,110,27,59,136,136,153,151,20,29,7,7,0.6,0.6
2026-03-28T2000,2875A,115.783962,32.889217,阜阳市,阜阳职业技术学院,颗粒物(PM10),60,63,83,13,42,138,138,164,162,17,20,8,9,0.4,0.5
2026-03-28T2000,3468A,115.79,32.8614,阜阳市,市规划展馆,颗粒物(PM10),51,51,83,25,48,133,133,158,155,19,18,9,11,0.6,0.7
2026-03-28T2000,3469A,115.835101,32.918568,阜阳市,枣园社区,颗粒物(PM10),65,71,88,28,56,118,118,153,150,22,27,6,8,0.6,0.6
2026-03-28T2000,2669A,102.9097,34.9841,甘南藏族自治州,州政府,NA,NA,58,54,40,26,NA,NA,111,111,6,9,6,4,0.3,0.3
2026-03-28T2000,3380A,102.8915,34.9618,甘南藏族自治州,甘肃民族师范学院,颗粒物(PM10),58,60,71,23,25,120,120,129,129,9,17,1,2,0.6,0.5
2026-03-28T2000,2570A,101.96,30.048,甘孜藏族自治州,水桥子,,14,14,8,7,4,42,42,70,68,21,16,6,6,0.3,0.3
2026-03-28T2000,3065A,101.9534,29.9976,甘孜藏族自治州,州环保局,,18,10,5,3,3,55,55,80,79,20,17,4,5,0.3,0.4
2026-03-28T2000,2363A,114.9368,25.8663,赣州市,地委,,20,20,27,8,16,41,41,48,47,14,11,2,2,0.8,0.8
2026-03-28T2000,2364A,114.946,25.8483,赣州市,气象台,,29,26,32,20,20,47,47,56,54,23,15,4,4,0.9,0.8
2026-03-28T2000,2365A,114.932,25.8332,赣州市,市图书馆,,23,23,22,16,19,48,48,55,54,20,11,4,4,1.1,1.1
2026-03-28T2000,2366A,114.8905,25.8472,赣州市,华坚鞋城,,32,24,25,22,16,36,36,50,47,26,13,6,5,0.5,0.5
2026-03-28T2000,3109A,115.0094,25.8614,赣州市,赣县区卫计委,,15,NA,20,10,14,23,23,38,37,27,17,1,1,0.6,0.6
2026-03-28T2000,2684A,106.2753,36.0057,固原市,监测站,颗粒物(PM10),54,55,29,21,12,104,104,112,112,14,8,10,9,0.3,0.2
2026-03-28T2000,2685A,106.2384,36.0189,固原市,新区,颗粒物(PM10),58,60,32,25,11,95,95,114,113,21,8,9,8,0.4,0.3
2026-03-28T2000,2544A,106.6307,30.4577,广安市,市委,,36,33,46,25,44,70,70,78,78,17,26,6,6,0.7,0.8
2026-03-28T2000,2545A,106.6266,30.4662,广安市,友谊中学,,29,29,45,18,36,74,74,76,76,14,22,8,8,0.7,0.8
2026-03-28T2000,2547A,106.6386,30.4551,广安市,广电花园,,39,39,54,26,45,66,66,72,72,17,25,5,5,0.8,0.9
2026-03-28T2000,2902A,106.6347,30.4868,广安市,北辰小学,,35,35,48,24,42,79,79,77,77,12,15,6,6,0.8,0.8
2026-03-28T2000,2524A,105.8211,32.4444,广元市,老城,,33,31,52,14,20,104,104,119,119,9,40,10,13,0.5,0.7
2026-03-28T2000,2526A,105.8629,32.429,广元市,监测站,,44,44,44,13,20,94,94,113,113,15,19,10,14,0.4,0.6
2026-03-28T2000,3617A,105.8047,32.4167,广元市,经开区,,33,31,47,17,24,105,105,114,114,7,35,3,7,0.4,0.7
2026-03-28T2000,1345A,113.2346,23.1423,广州市,广雅中学,,42,42,38,26,22,23,23,43,37,33,24,2,2,0.7,0.7
2026-03-28T2000,1346A,113.2611,23.105,广州市,市五中,,42,40,34,29,25,31,31,49,41,32,27,7,7,/,/
2026-03-28T2000,1348A,113.3477,23.0916,广州市,广东商学院,,33,32,33,23,22,29,29,42,36,28,27,4,5,0.6,0.6
2026-03-28T2000,1349A,113.4332,23.105,广州市,市八十六中,,24,24,31,14,18,15,15,26,21,44,45,5,5,/,/
2026-03-28T2000,1350A,113.3506,22.9488,广州市,番禺中学,,31,31,34,19,20,41,41,46,40,23,25,4,4,0.6,0.6
2026-03-28T2000,1351A,113.2147,23.3918,广州市,花都师范,,46,46,42,25,23,14,14,46,42,48,33,6,6,0.9,0.8
2026-03-28T2000,1352A,113.2599,23.1329,广州市,市监测站,,45,45,40,22,21,23,23,44,38,33,23,2,2,/,/
2026-03-28T2000,1353A,113.5618,23.3119,广州市,九龙镇镇龙,,42,42,43,19,23,3,3,32,27,39,36,5,6,0.5,0.5
2026-03-28T2000,1354A,113.2764,23.1544,广州市,麓湖,,36,36,32,22,20,26,26,49,42,29,22,3,4,0.4,0.4
2026-03-28T2000,2846A,113.3209,23.1323,广州市,体育西,,35,35,35,21,20,21,21,44,34,38,29,5,5,0.6,0.6
2026-03-28T2000,3298A,113.5718,23.5493,广州市,从化街口,,36,36,50,23,32,28,28,42,42,26,25,6,6,0.7,0.7
2026-03-28T2000,3299A,113.3463,23.369,广州市,白云竹料,,44,44,44,27,26,13,13,34,32,37,30,4,4,0.8,0.7
2026-03-28T2000,3300A,113.2981,23.2365,广州市,白云嘉禾,,40,40,40,24,24,19,19,48,40,40,32,8,8,/,/
2026-03-28T2000,3301A,113.4256,23.1716,广州市,黄埔科学城,,29,29,45,17,25,8,8,36,24,53,41,8,7,0.4,0.4
2026-03-28T2000,3302A,113.3942,23.0485,广州市,番禺大学城,,33,33,35,18,19,34,34,48,41,30,29,3,3,0.6,0.6
2026-03-28T2000,3303A,113.4923,22.8169,广州市,南沙黄阁,,28,28,33,11,20,52,52,50,50,18,27,5,6,/,/
2026-03-28T2000,3304A,113.534,22.7893,广州市,南沙街,,31,31,34,16,20,52,52,50,50,15,24,6,8,0.4,0.5
2026-03-28T2000,3443A,113.2905,23.5541,广州市,花都梯面,,37,37,37,21,24,19,19,36,34,29,27,8,8,/,/
2026-03-28T2000,3445A,113.786,23.7479,广州市,从化良口,,36,34,35,25,27,19,19,44,38,18,21,4,4,/,/
2026-03-28T2000,3446A,113.805,23.2614,广州市,增城荔城,,41,41,53,23,32,36,36,57,52,25,27,5,6,0.4,0.5
2026-03-28T2000,2506A,109.604387,23.066791,贵港市,江南子站,细颗粒物(PM2.5),88,97,95,54,59,76,76,79,79,17,22,8,11,1.0,1
2026-03-28T2000,2508A,109.5669,23.1065,贵港市,荷城子站,细颗粒物(PM2.5),108,90,83,68,59,58,58,62,62,25,28,10,11,1.0,1
2026-03-28T2000,3405A,109.5886,23.1172,贵港市,新世纪学校,细颗粒物(PM2.5),90,92,86,55,58,64,64,74,74,24,29,/,/,0.9,0.9
2026-03-28T2000,4260A,109.5933,23.095,贵港市,中山路155-3号,细颗粒物(PM2.5),94,99,102,57,59,74,74,79,79,19,22,/,/,1.0,0.9
2026-03-28T2000,1439A,106.6863,26.6035,贵阳市,马鞍山,,38,34,19,26,15,49,49,50,50,9,7,3,3,/,/
2026-03-28T2000,1441A,106.6241,26.6266,贵阳市,鉴湖路,,44,44,27,29,14,53,53,54,54,17,12,5,4,0.3,0.4
2026-03-28T2000,1442A,106.7468,26.6344,贵阳市,燕子冲,,31,31,28,12,14,58,58,59,59,11,9,6,6,0.6,0.7
2026-03-28T2000,1443A,106.6556,26.4362,贵阳市,碧云窝,,36,36,25,20,15,67,67,62,62,12,12,9,7,/,/
2026-03-28T2000,1445A,106.6963,26.6063,贵阳市,红边门,,36,36,27,24,16,58,58,56,56,15,11,13,8,/,/
2026-03-28T2000,1446A,106.7162383,26.56964667,贵阳市,新华路,,34,34,29,20,14,67,67,60,60,11,10,7,6,0.8,0.8
2026-03-28T2000,1447A,106.6742,26.542,贵阳市,太慈桥,,32,29,22,22,14,71,71,59,59,10,11,5,4,/,/
2026-03-28T2000,4230A,106.688212,26.56952,贵阳市,花果园大街66号,,32,22,15,22,15,62,62,52,52,10,10,1,2,/,/
2026-03-28T2000,4231A,106.687268,26.516892,贵阳市,漓江路57号,,32,31,19,22,15,63,63,58,58,15,11,7,7,0.8,0.8
2026-03-28T2000,1864A,110.3091,25.2705,桂林市,龙隐路小学,,28,27,21,19,13,53,53,67,66,15,11,4,3,0.8,0.7
2026-03-28T2000,1865A,110.2849361,25.22909545,桂林市,八中,,33,33,23,10,8,42,42,56,54,22,15,4,4,1.0,0.9
2026-03-28T2000,3531A,110.296,25.1254,桂林市,旅游学院,颗粒物(PM10),52,52,30,20,17,46,46,71,69,23,12,5,5,0.9,0.8
2026-03-28T2000,4222A,110.1835,25.2444,桂林市,环湖路276号,,39,39,19,19,12,43,43,64,58,26,12,14,9,0.9,0.8
2026-03-28T2000,4301A,110.2803,25.2773,桂林市,信义路13号,,26,26,19,15,13,41,41,66,62,28,12,4,4,1.0,0.9
2026-03-28T2000,2674A,100.2262,34.4854,果洛藏族自治州,玛沁县大武镇,颗粒物(PM10),53,54,41,7,15,82,82,102,99,6,3,10,14,0.6,0.3
2026-03-28T2000,1130A,126.5557,45.8109,哈尔滨市,松北商大,细颗粒物(PM2.5),135,115,292,98,280,102,102,131,125,32,52,10,15,0.3,1.1
2026-03-28T2000,1132A,126.6162,45.719,哈尔滨市,南岗学府路,细颗粒物(PM2.5),159,200,315,121,214,63,63,134,126,73,57,14,17,0.7,1
2026-03-28T2000,1133A,126.6894,45.7733,哈尔滨市,太平宏伟公园,细颗粒物(PM2.5),141,156,301,105,248,30,30,137,109,102,62,14,17,0.9,1.2
2026-03-28T2000,1134A,126.6361,45.7672,哈尔滨市,道外承德广场,细颗粒物(PM2.5),136,186,370,99,253,63,63,133,121,67,69,11,17,0.8,1.7
2026-03-28T2000,1136A,126.644,45.7261,哈尔滨市,动力和平路,细颗粒物(PM2.5),139,142,305,102,273,67,67,133,123,54,55,18,23,1.0,1.5
2026-03-28T2000,1137A,126.5933,45.7479,哈尔滨市,道里建国路,细颗粒物(PM2.5),169,156,321,128,265,39,39,126,108,101,71,NA,35,1.6,1.5
2026-03-28T2000,1138A,126.6127,45.6119,哈尔滨市,平房东轻厂,细颗粒物(PM2.5),230,NA,297,180,316,42,42,110,96,185,134,10,15,1.2,1.7
2026-03-28T2000,1139A,126.5875,45.9827,哈尔滨市,呼兰师专,细颗粒物(PM2.5),137,121,261,100,242,69,69,111,105,58,49,NA,17,NA,1.5
2026-03-28T2000,1140A,126.6299,45.6799,哈尔滨市,省农科院,细颗粒物(PM2.5),165,233,381,125,236,19,19,117,102,108,61,15,15,1.1,1.5
2026-03-28T2000,4282A,126.6769,45.7379,哈尔滨市,华山路1号,细颗粒物(PM2.5),143,161,297,107,251,68,68,130,118,46,62,15,19,1.0,1.6
2026-03-28T2000,4283A,126.9717,45.5356,哈尔滨市,解放大街52号,细颗粒物(PM2.5),258,349,532,208,231,34,34,151,120,102,52,25,23,1.5,1.4
2026-03-28T2000,2688A,93.5124,42.8176,哈密市,地区监测站,颗粒物(PM10),56,58,47,25,20,112,112,108,108,6,20,6,6,0.2,0.3
2026-03-28T2000,2689A,93.5014,42.8312,哈密市,哈密师范学校,,38,38,38,18,17,118,118,116,116,8,30,8,7,0.7,0.7
2026-03-28T2000,2671A,100.9016,36.9464,海北藏族自治州,海晏县西海镇,,40,33,39,15,17,127,127,135,133,2,2,7,7,0.4,0.4
2026-03-28T2000,3867A,102.074,36.5056,海东市,平安区公安局北苑,颗粒物(PM10),68,75,60,28,23,117,117,144,142,22,10,7,10,0.6,0.6
2026-03-28T2000,4163A,102.0984,36.5119,海东市,滨河路,颗粒物(PM10),65,70,56,28,23,60,60,127,120,76,25,5,6,0.6,0.7
2026-03-28T2000,1410A,110.3189,20.0596,海口市,海南大学,,32,31,29,22,20,31,31,72,68,22,7,6,6,0.3,0.3
2026-03-28T2000,1411A,110.2827,20.0051,海口市,秀英海南医院,,35,35,26,23,21,36,36,63,61,16,14,8,8,0.3,0.3
2026-03-28T2000,1412A,110.3391,19.9979,海口市,海南师范大学,,40,40,30,20,19,41,41,83,80,6,6,6,6,0.4,0.3
2026-03-28T2000,1413A,110.3303,20.0359,海口市,龙华路环保局宿舍,,38,38,29,25,20,47,47,77,75,8,9,/,/,0.5,0.5
2026-03-28T2000,3539A,110.5111,19.9737,海口市,桂林洋子站,,30,28,27,21,18,36,36,57,54,8,6,/,/,/,/
2026-03-28T2000,4134A,110.1952,20.0451,海口市,长滨二路9号,,32,27,33,22,23,66,66,83,83,10,9,/,/,/,/
2026-03-28T2000,2673A,100.6158,36.2985,海南藏族自治州,共和县恰卜恰镇,,42,39,60,20,20,132,132,150,150,13,5,10,10,0.3,0.3
2026-03-28T2000,2676A,97.373,37.376,海西蒙古族藏族自治州,德令哈市,颗粒物(PM10),58,60,47,16,17,125,125,150,145,16,4,15,15,0.6,0.4
2026-03-28T2000,1049A,114.492,36.5712,邯郸市,矿院,,50,50,106,13,65,120,120,143,142,8,25,3,5,0.3,0.5
2026-03-28T2000,1050A,114.4839,36.6136,邯郸市,丛台公园,颗粒物(PM10),53,53,123,15,85,131,131,153,152,11,25,4,8,0.2,0.5
2026-03-28T2000,3458A,114.7893,36.5592,邯郸市,香泉濮院小区,颗粒物(PM10),71,79,133,31,80,125,125,144,144,13,27,3,3,0.3,0.5
2026-03-28T2000,3580A,114.1998,36.4439,邯郸市,峰峰矿区临水派出所,颗粒物(PM10),55,57,103,29,85,133,133,160,158,12,18,3,5,0.4,0.7
2026-03-28T2000,4068A,114.5209,36.7697,邯郸市,建安街268号,颗粒物(PM10),57,59,127,24,92,133,133,154,154,10,40,1,3,0.3,0.6
2026-03-28T2000,4069A,114.5488,36.6177,邯郸市,丛台东路558号,颗粒物(PM10),55,56,123,23,92,116,116,149,147,12,41,1,4,0.3,0.6
2026-03-28T2000,2635A,107.0155,33.0707,汉中市,市监测站,颗粒物(PM10),55,56,55,27,35,100,100,120,120,20,26,8,8,0.7,0.7
2026-03-28T2000,2636A,107.0083,33.114,汉中市,鑫源开发区,,50,50,60,33,29,84,84,120,120,30,32,5,8,0.7,0.8
2026-03-28T2000,2637A,107.0072,33.0323,汉中市,南郑大河坎水厂,,49,49,55,24,28,85,85,116,116,23,20,5,5,0.5,0.4
2026-03-28T2000,1223A,120.2073,30.2111,杭州市,滨江,,49,49,48,28,29,147,147,109,109,34,30,9,8,0.4,0.3
2026-03-28T2000,1224A,120.0625,30.2737,杭州市,西溪,,36,36,40,18,24,92,92,94,94,19,26,8,8,0.7,0.7
2026-03-28T2000,1226A,120.3417,30.315,杭州市,下沙,颗粒物(PM10),52,52,61,28,31,123,123,118,118,38,30,9,9,0.7,0.7
2026-03-28T2000,1227A,120.1252,30.2465,杭州市,卧龙桥,,22,22,39,11,25,52,52,100,94,35,24,7,7,0.3,0.3
2026-03-28T2000,1228A,120.1902,30.2691,杭州市,浙江农大,,50,50,42,28,29,136,136,114,114,53,36,7,7,0.4,0.4
2026-03-28T2000,1230A,120.1195,30.3121,杭州市,和睦小学,颗粒物(PM10),64,69,60,35,30,153,153,115,115,28,31,8,7,0.8,0.8
2026-03-28T2000,1231A,120.3076,30.4146,杭州市,临平镇,颗粒物(PM10),53,53,50,30,34,151,151,139,139,29,30,8,7,0.8,0.8
2026-03-28T2000,1232A,120.2753,30.1839,杭州市,城厢镇,颗粒物(PM10),69,76,43,34,29,125,125,101,101,47,38,8,9,0.6,0.6
2026-03-28T2000,1233A,120.0883,30.1808,杭州市,云栖,,16,13,33,7,21,45,45,94,86,31,26,6,6,0.7,0.7
2026-03-28T2000,3557A,119.9463,30.0496,杭州市,镇二中,,22,16,37,15,33,50,50,88,88,36,34,5,5,1.1,0.8
2026-03-28T2000,3558A,119.7184,30.2367,杭州市,市府大楼,,45,45,27,22,22,64,64,102,101,34,21,7,6,0.4,0.3
2026-03-28T2000,3656A,120.1554,30.2863,杭州市,消防大队,颗粒物(PM10),54,55,54,33,35,143,143,104,104,29,34,9,8,0.7,0.6
2026-03-28T2000,1270A,117.1957,31.7845,合肥市,明珠广场,,46,46,68,15,33,121,121,152,148,25,42,7,8,0.6,0.6
2026-03-28T2000,1271A,117.307,31.8765,合肥市,三里街,颗粒物(PM10),53,53,73,20,40,114,114,131,131,31,60,9,8,0.5,0.6
2026-03-28T2000,1272A,117.2587,31.8703,合肥市,琥珀山庄,颗粒物(PM10),51,51,71,12,35,122,122,143,142,28,48,8,7,0.7,1
2026-03-28T2000,1275A,117.2593,31.9376,合肥市,庐阳区,颗粒物(PM10),53,53,79,17,43,119,119,139,138,33,48,8,6,0.8,0.8
2026-03-28T2000,1276A,117.345251,31.861615,合肥市,瑶海区,颗粒物(PM10),62,66,75,21,36,118,118,140,140,36,50,10,8,0.7,0.7
2026-03-28T2000,1277A,117.3033,31.7967,合肥市,包河区,,46,46,75,12,34,125,125,141,141,34,83,11,12,0.6,0.7
2026-03-28T2000,1278A,117.278,31.7392,合肥市,滨湖新区,,46,46,67,13,32,140,140,145,145,10,33,6,6,0.5,0.6
2026-03-28T2000,1279A,117.1324,31.8395,合肥市,高新区,,46,46,70,11,34,123,123,144,143,24,43,6,6,0.7,0.8
2026-03-28T2000,3464A,117.3802,31.9148,合肥市,高教基地,,48,48,66,15,30,127,127,144,143,22,47,12,9,0.6,0.6
2026-03-28T2000,4098A,117.2518,31.8404,合肥市,中国科学技术大学,,48,48,68,13,36,142,142,154,154,18,35,8,8,0.6,0.7
2026-03-28T2000,3614A,79.9241,37.0878,和田地区,地区环保局,颗粒物(PM10),178,305,403,46,89,113,113,110,110,2,10,1,2,0.2,0.3
2026-03-28T2000,3615A,79.9132,37.1137,和田地区,市环保局,颗粒物(PM10),140,224,367,42,89,105,105,103,103,3,14,3,3,0.4,0.5
2026-03-28T2000,2517A,108.0496,24.6957,河池市,市环保站,,32,32,24,20,12,22,22,30,29,12,5,5,5,0.6,0.5
2026-03-28T2000,4302A,108.0901,24.6945,河池市,上任中路54号,,42,42,27,17,13,15,15,26,24,20,8,6,6,0.8,0.7
2026-03-28T2000,1697A,114.6962,23.7538,河源市,东埔,,26,23,39,18,26,60,60,66,66,16,12,6,6,0.8,0.8
2026-03-28T2000,1698A,114.6895,23.7232,河源市,老城,,27,27,41,17,26,56,56,64,64,18,13,7,7,0.9,0.8
2026-03-28T2000,3374A,115.5562,35.089,菏泽市,定陶老年大学,颗粒物(PM10),74,83,95,37,53,126,126,146,144,20,20,6,7,0.5,0.5
2026-03-28T2000,4114A,115.4239,35.2593,菏泽市,黄河路600号,颗粒物(PM10),78,89,151,37,81,129,129,139,138,17,30,5,6,0.5,0.6
2026-03-28T2000,4115A,115.5025,35.2727,菏泽市,菏泽市人社局,颗粒物(PM10),68,75,137,33,86,131,131,135,135,17,29,5,10,0.3,0.4
2026-03-28T2000,4184A,115.479691,35.244011,菏泽市,永昌路1号,颗粒物(PM10),71,79,125,37,68,145,145,152,152,18,31,2,5,0.3,0.4
2026-03-28T2000,4193A,115.471542,35.280012,菏泽市,长城路999号,颗粒物(PM10),66,72,138,32,82,146,146,147,147,13,24,5,12,0.2,0.4
2026-03-28T2000,2514A,111.5264,24.4178,贺州市,环保小区,颗粒物(PM10),51,51,26,22,14,39,39,46,44,20,13,5,4,0.7,0.6
2026-03-28T2000,2515A,111.561,24.4074,贺州市,政协大楼,,46,46,30,29,16,32,32,42,40,30,16,6,5,0.9,0.8
2026-03-28T2000,3534A,111.4744,24.455,贺州市,西湾,,47,47,28,26,14,24,24,40,38,26,14,7,7,1.0,0.8
2026-03-28T2000,2385A,114.17,35.9019,鹤壁市,市监测站,,43,36,141,19,100,137,137,146,146,11,20,4,8,0.4,0.8
2026-03-28T2000,2386A,114.2953,35.7512,鹤壁市,市交警支队,颗粒物(PM10),58,60,147,22,105,112,112,135,135,16,23,4,8,0.3,0.7
2026-03-28T2000,2387A,114.2877,35.7302,鹤壁市,迎宾馆,颗粒物(PM10),65,70,161,25,100,109,109,134,134,17,25,6,10,0.4,0.8
2026-03-28T2000,3474A,114.2616,35.6824,鹤壁市,大新区,,49,49,131,31,103,93,93,130,128,20,17,5,7,0.5,1
2026-03-28T2000,3596A,114.1573,35.9607,鹤壁市,南山宾馆,颗粒物(PM10),54,55,162,22,94,132,132,144,144,6,14,7,11,0.3,0.6
2026-03-28T2000,2244A,130.2537,47.3416,鹤岗市,哈啤分公司,细颗粒物(PM2.5),60,54,29,40,17,61,61,92,85,19,11,8,7,0.7,0.4
2026-03-28T2000,2245A,130.2683,47.3087,鹤岗市,斯达机电,颗粒物(PM10),54,55,36,36,19,65,65,92,85,20,10,11,10,0.4,0.3
2026-03-28T2000,2246A,130.3114,47.3388,鹤岗市,东山纸板厂,NA,NA,NA,64,51,23,39,39,99,85,34,10,10,9,0.8,0.6
2026-03-28T2000,2263A,127.4832,50.2524,黑河市,交通局,,34,34,18,14,11,62,62,84,78,16,7,7,5,0.4,0.4
2026-03-28T2000,2264A,127.5146,50.2339,黑河市,环保局,,31,31,13,8,6,73,73,84,81,13,9,10,6,0.3,0.3
2026-03-28T2000,1074A,115.6839,37.754,衡水市,电机北厂,细颗粒物(PM2.5),144,175,89,108,48,110,110,136,136,37,40,7,8,0.3,0.3
2026-03-28T2000,1075A,115.6303,37.7318,衡水市,市监测站,细颗粒物(PM2.5),139,145,85,102,46,124,124,140,140,28,34,9,9,0.7,0.5
2026-03-28T2000,3188A,115.6684,37.7216,衡水市,市城管局,细颗粒物(PM2.5),136,162,88,99,45,116,116,134,134,33,35,14,14,0.8,0.5
2026-03-28T2000,3459A,115.599,37.5491,衡水市,地表水厂,细颗粒物(PM2.5),150,180,91,114,51,84,84,129,126,50,39,7,7,0.6,0.4
2026-03-28T2000,2457A,112.6209,26.9268,衡阳市,衡阳化工总厂,,42,39,33,29,29,23,23,40,34,30,20,4,4,1.3,1.1
2026-03-28T2000,2458A,112.621,26.8957,衡阳市,珠晖区环保局,NA,NA,53,38,37,31,NA,NA,41,34,NA,25,NA,6,NA,1.1
2026-03-28T2000,2459A,112.628,26.8654,衡阳市,市委党校,,48,39,35,33,29,33,33,46,36,21,18,6,5,1.1,1.1
2026-03-28T2000,2460A,112.6007,26.8977,衡阳市,市监测站,细颗粒物(PM2.5),66,48,35,43,27,25,25,41,36,35,24,7,6,1.2,0.9
2026-03-28T2000,2461A,112.5658,26.9013,衡阳市,真空机电公司,,47,47,32,31,27,30,30,48,39,28,19,6,6,1.2,1
2026-03-28T2000,3399A,112.6703,26.8817,衡阳市,师范学院,,40,39,40,28,26,41,41,47,40,15,13,4,4,1.0,0.9
2026-03-28T2000,3038A,103.3757,23.3679,红河哈尼族彝族自治州,州图书馆,细颗粒物(PM2.5),135,113,110,98,95,134,134,142,142,10,11,6,6,1.0,0.9
2026-03-28T2000,4154A,103.401,23.3561,红河哈尼族彝族自治州,蒙自市朝阳路,细颗粒物(PM2.5),134,105,96,97,91,133,133,153,153,14,14,12,11,0.9,0.8
2026-03-28T2000,1090A,111.6506,40.7517,呼和浩特市,呼市一监,,39,31,57,27,30,76,76,92,92,16,29,10,10,0.5,0.6
2026-03-28T2000,1094A,111.7516,40.8369,呼和浩特市,如意水处理厂,,43,43,55,15,23,85,85,106,105,16,42,9,10,0.4,0.5
2026-03-28T2000,1095A,111.727798,40.806187,呼和浩特市,二十九中,,42,37,64,29,29,77,77,93,93,13,28,9,9,0.5,0.6
2026-03-28T2000,1097A,111.717,40.7617,呼和浩特市,化肥厂生活区,,43,43,64,27,39,74,74,90,90,21,33,6,7,0.5,0.6
2026-03-28T2000,3699A,111.6519,40.8389,呼和浩特市,海东办,,41,41,52,24,26,75,75,98,96,16,38,6,6,0.4,0.5
2026-03-28T2000,4275A,111.591512,40.827312,呼和浩特市,成吉思汗西街8号,,35,34,46,24,22,67,67,99,95,25,35,3,4,0.4,0.4
2026-03-28T2000,4276A,111.6597,40.8077,呼和浩特市,公园东路75号,,41,41,63,23,28,76,76,93,92,16,34,9,10,0.5,0.5
2026-03-28T2000,4277A,111.5427,40.7846,呼和浩特市,金海路35号,,49,49,53,28,26,66,66,96,91,21,36,8,8,0.4,0.4
2026-03-28T2000,3061A,119.7511,49.1576,呼伦贝尔市,国华电力东,,30,30,21,17,10,65,65,89,86,19,8,5,5,0.3,0.2
2026-03-28T2000,4279A,119.7569,49.2222,呼伦贝尔市,伊敏大街东7号,,27,25,22,14,10,85,85,88,88,13,11,5,5,0.5,0.5
2026-03-28T2000,1250A,120.075,30.867,湖州市,城西水厂,臭氧1小时(O3_1h),53,41,48,24,32,162,162,152,152,19,36,7,7,0.6,0.6
2026-03-28T2000,2873A,120.083,30.8929,湖州市,仁皇山新区,臭氧1小时(O3_1h),59,41,44,25,30,167,167,154,154,23,32,7,6,0.6,0.6
2026-03-28T2000,2907A,120.1846,30.8592,湖州市,吴兴区站,臭氧1小时(O3_1h),55,50,60,28,34,164,164,164,164,20,26,8,7,0.6,0.6
2026-03-28T2000,3562A,120.4146,30.8538,湖州市,南浔区站,,49,49,68,26,33,142,142,158,158,20,21,7,6,0.6,0.6
2026-03-28T2000,1607A,120.904878,40.721091,葫芦岛市,龙港区,,33,16,52,12,26,103,103,93,93,15,32,11,30,0.4,0.7
2026-03-28T2000,1608A,120.8382,40.7521,葫芦岛市,化工街,,41,41,68,22,37,78,78,90,89,31,49,18,31,0.5,0.6
2026-03-28T2000,1609A,120.8339,40.7078,葫芦岛市,新区,,30,15,45,7,28,95,95,79,79,18,43,9,24,0.3,0.5
2026-03-28T2000,1610A,120.8697,40.7679,葫芦岛市,东城区,,26,21,59,16,39,83,83,95,95,30,49,12,26,0.5,0.8
2026-03-28T2000,2483A,109.9297,27.5383,怀化市,河西地税局,,46,45,23,32,21,28,28,67,64,27,10,4,4,/,/
2026-03-28T2000,2484A,109.9783,27.5342,怀化市,市四医院,,42,42,28,29,20,58,58,70,70,11,8,7,6,0.5,0.4
2026-03-28T2000,2485A,109.9971,27.5579,怀化市,监测楼,,42,40,24,29,20,51,51,73,71,20,10,4,4,0.4,0.3
2026-03-28T2000,1210A,119.0566,33.5991,淮安市,钵池山,细颗粒物(PM2.5),94,95,75,57,46,132,132,156,156,40,39,10,12,0.5,0.7
2026-03-28T2000,1211A,119.0083,33.578,淮安市,北京南路,细颗粒物(PM2.5),100,105,77,60,48,132,132,150,150,24,41,10,10,0.6,0.7
2026-03-28T2000,1212A,118.9938,33.6083,淮安市,市监测站,细颗粒物(PM2.5),92,88,68,56,46,160,160,166,166,25,37,8,10,0.7,0.8
2026-03-28T2000,1213A,119.135,33.5038,淮安市,楚州区监测站,细颗粒物(PM2.5),104,105,84,64,55,107,107,154,153,40,47,9,9,0.5,0.6
2026-03-28T2000,3426A,118.8757,33.2897,淮安市,新华书店,细颗粒物(PM2.5),101,104,84,61,52,131,131,158,158,30,28,9,11,0.6,0.6
2026-03-28T2000,4092A,119.119691,33.550006,淮安市,枚皋中路89号,细颗粒物(PM2.5),90,100,77,55,48,131,131,159,159,23,38,12,12,0.7,0.8
2026-03-28T2000,4206A,119.028838,33.631911,淮安市,承德北路606号,颗粒物(PM10),100,119,90,58,48,127,127,147,146,31,34,11,11,0.5,0.6
2026-03-28T2000,2282A,116.8005,33.9749,淮北市,监测站,颗粒物(PM10),74,83,100,38,62,139,139,160,157,21,25,8,8,0.5,0.7
2026-03-28T2000,2283A,116.8094,33.9008,淮北市,烈山区政府,颗粒物(PM10),83,96,110,42,69,130,130,152,151,24,29,8,9,0.4,0.6
2026-03-28T2000,4017A,116.7926,33.9534,淮北市,市博物馆,颗粒物(PM10),78,89,97,41,65,135,135,152,150,18,25,8,13,0.6,0.7
2026-03-28T2000,4100A,116.8322,33.9884,淮北市,杜集区第一实验学校,颗粒物(PM10),81,93,118,48,72,127,127,145,144,18,26,9,10,0.5,0.6
2026-03-28T2000,2277A,116.8304,32.7726,淮南市,潘集区政府,颗粒物(PM10),76,86,97,40,56,128,128,144,143,18,34,9,10,0.5,0.7
2026-03-28T2000,2279A,116.8569,32.5949,淮南市,谢家集区政府,颗粒物(PM10),58,61,63,22,40,139,139,147,147,24,26,10,11,0.5,0.6
2026-03-28T2000,2280A,116.8279,32.6333,淮南市,八公山区政府,颗粒物(PM10),63,67,78,26,48,124,124,148,146,19,17,12,13,0.6,0.6
2026-03-28T2000,2894A,117.0561,32.6536,淮南市,经济技术开发区消防队,颗粒物(PM10),53,54,79,19,48,109,109,146,143,36,44,8,9,0.4,0.6
2026-03-28T2000,3329A,117.011,32.5891,淮南市,山南新区,颗粒物(PM10),68,75,75,22,40,138,138,154,153,23,21,9,10,0.5,0.5
2026-03-28T2000,4209A,117.003137,32.644456,淮南市,国庆中路369号,颗粒物(PM10),58,61,82,29,54,128,128,139,139,18,36,12,12,0.6,0.8
2026-03-28T2000,2446A,114.9021,30.474,黄冈市,职工中心,细颗粒物(PM2.5),68,51,62,44,44,124,124,164,161,20,16,10,10,0.7,0.7
2026-03-28T2000,2929A,114.8858,30.4519,黄冈市,红卫路,细颗粒物(PM2.5),68,51,62,44,48,132,132,169,166,15,18,8,9,0.5,0.5
2026-03-28T2000,3398A,114.9134,30.4446,黄冈市,市林业局,颗粒物(PM10),59,62,76,34,51,135,135,157,156,11,20,4,4,0.7,0.7
2026-03-28T2000,2672A,102.02,35.5101,黄南藏族自治州,同仁县隆务镇,颗粒物(PM10),58,61,71,29,25,118,118,129,129,4,3,11,9,0.2,0.2
2026-03-28T2000,2295A,118.2905,29.6965,黄山市,延安路89号,,25,19,21,16,15,79,79,96,94,12,11,4,4,0.4,0.4
2026-03-28T2000,2297A,118.1369,30.2755,黄山市,黄山区政府5号楼,,42,42,24,11,12,74,74,95,92,7,8,4,3,0.5,0.5
2026-03-28T2000,4210A,118.335445,29.720283,黄山市,滨江东路7-2号,,28,27,32,10,11,89,89,101,100,6,7,/,/,/,/
2026-03-28T2000,2423A,115.0547,30.2332,黄石市,沈家营,颗粒物(PM10),53,53,68,30,38,97,97,126,122,9,24,4,9,0.8,1
2026-03-28T2000,2426A,114.899,30.211,黄石市,铁山,颗粒物(PM10),58,60,50,26,39,95,95,144,135,15,14,11,10,1.0,1.2
2026-03-28T2000,2427A,115.0259,30.2108,黄石市,团城山,,50,45,55,35,35,118,118,131,130,10,12,4,5,0.6,0.7
2026-03-28T2000,3149A,115.0174,30.1591,黄石市,笔架山北路,颗粒物(PM10),56,58,72,35,37,124,124,147,142,11,9,11,10,0.7,0.7
2026-03-28T2000,4185A,115.078022,30.21118,黄石市,磁湖东路29号,颗粒物(PM10),58,60,70,32,40,123,123,142,141,9,24,3,6,0.6,0.9
2026-03-28T2000,1392A,114.4181,23.0528,惠州市,河南岸金山湖子站,,24,20,37,13,21,76,76,74,74,10,10,6,6,0.6,0.6
2026-03-28T2000,1393A,114.4055,23.0824,惠州市,下埔横江三路子站,,26,26,40,14,22,75,75,75,75,11,10,4,5,0.5,0.5
2026-03-28T2000,1395A,114.4645,22.7832,惠州市,惠阳区承修路船湖子站,,36,36,41,20,18,85,85,84,84,10,10,6,6,0.3,0.2
2026-03-28T2000,1396A,114.5316,22.7423,惠州市,大亚湾管委会子站,,28,28,31,16,16,80,80,79,79,8,7,3,4,0.5,0.5
2026-03-28T2000,3314A,114.4334,22.8134,惠州市,惠阳秋长,,29,24,33,16,19,91,91,87,87,9,11,/,/,/,/
2026-03-28T2000,3452A,114.6521,22.7755,惠州市,大亚湾霞涌,,29,19,26,18,17,92,92,88,88,8,8,/,/,/,/
2026-03-28T2000,4300A,114.4089,23.1147,惠州市,文华一路1号,,25,17,34,12,21,78,78,76,76,11,13,/,/,/,/
2026-03-28T2000,2240A,130.9618,45.2926,鸡西市,环保局,细颗粒物(PM2.5),121,88,162,83,128,59,59,110,98,36,20,11,9,0.6,0.4
2026-03-28T2000,2243A,130.9294,45.2959,鸡西市,第一中学,细颗粒物(PM2.5),108,NA,152,68,137,93,93,106,99,13,16,7,8,0.3,0.5
2026-03-28T2000,3707A,131.0069,45.2988,鸡西市,欧美日汽修厂,细颗粒物(PM2.5),142,206,180,106,144,58,58,106,95,33,33,25,12,1.5,1.2
2026-03-28T2000,2367A,114.9753,27.0803,吉安市,红声器材厂,细颗粒物(PM2.5),74,66,43,47,28,60,60,68,66,25,21,7,6,1.1,1.1
2026-03-28T2000,2369A,114.9903,27.1313,吉安市,市环境监测站,细颗粒物(PM2.5),76,53,36,48,31,62,62,70,69,24,19,9,8,/,/
2026-03-28T2000,2370A,115.009527,27.096792,吉安市,青原区法院,细颗粒物(PM2.5),64,59,41,42,28,64,64,68,67,21,20,8,8,1.0,1
2026-03-28T2000,1772A,126.54,43.8622,吉林市,哈达湾,细颗粒物(PM2.5),358,382,160,308,132,138,138,156,156,53,30,21,10,1.6,1
2026-03-28T2000,1773A,126.5843,43.8358,吉林市,东局子,细颗粒物(PM2.5),263,NA,122,213,115,95,95,143,140,55,27,11,6,1.7,1.3
2026-03-28T2000,1774A,126.5051,43.8243,吉林市,电力学院,细颗粒物(PM2.5),320,384,157,270,124,72,72,157,149,82,34,20,9,2.4,1.2
2026-03-28T2000,1775A,126.6133,43.8971,吉林市,江北,细颗粒物(PM2.5),450,532,180,425,129,85,85,166,157,66,31,19,11,2.7,1.1
2026-03-28T2000,1776A,126.5549,43.8304,吉林市,江南公园,细颗粒物(PM2.5),257,265,110,207,110,67,67,145,138,83,28,14,10,1.5,0.9
2026-03-28T2000,2868A,126.4737,43.953,吉林市,九站,颗粒物(PM10),436,536,231,396,186,61,61,165,144,118,56,25,24,1.9,1
2026-03-28T2000,1299A,116.9866,36.6118,济南市,科干所,颗粒物(PM10),60,63,123,32,72,154,154,169,168,12,35,8,9,0.6,0.9
2026-03-28T2000,1300A,116.9379,36.6652,济南市,农科所,颗粒物(PM10),62,66,119,30,62,136,136,161,159,18,54,7,8,0.5,0.6
2026-03-28T2000,1301A,117.1265,36.6736,济南市,开发区,颗粒物(PM10),63,68,128,38,66,167,167,176,176,12,45,6,7,0.6,0.8
2026-03-28T2000,1303A,117.0616,36.6865,济南市,省种子仓库,颗粒物(PM10),62,66,128,29,57,153,153,171,171,12,52,5,7,0.5,0.7
2026-03-28T2000,1304A,116.9495185,36.644937,济南市,机床二厂,颗粒物(PM10),74,83,130,39,66,145,145,166,164,17,52,7,8,0.5,0.8
2026-03-28T2000,1305A,117.0496,36.6629,济南市,市监测站,颗粒物(PM10),62,66,130,28,61,146,146,164,163,16,53,5,6,0.5,0.8
2026-03-28T2000,1306A,116.7674,36.5458,济南市,长清党校,颗粒物(PM10),65,71,132,31,72,143,143,156,156,10,39,5,7,0.4,0.7
2026-03-28T2000,1961A,117.5323,36.6865,济南市,东山小学,颗粒物(PM10),65,71,114,28,56,148,148,176,172,19,36,5,6,0.6,0.7
2026-03-28T2000,3059A,117.7181,36.205,济南市,泰兴公司,颗粒物(PM10),72,80,111,29,61,128,128,172,166,28,39,10,12,0.4,0.5
2026-03-28T2000,3064A,117.6861,36.2172,济南市,莱芜战役纪念馆,颗粒物(PM10),78,88,119,30,62,140,140,171,167,23,32,6,7,0.6,0.7
2026-03-28T2000,3494A,117.1673,36.9782,济南市,济阳区政府,颗粒物(PM10),78,88,115,38,58,117,117,142,142,29,40,6,14,0.5,0.6
2026-03-28T2000,3495A,117.1168,36.6299,济南市,锦屏中学,颗粒物(PM10),63,68,100,40,66,147,147,168,166,19,23,6,7,0.4,0.4
2026-03-28T2000,4108A,117.7107,36.2385,济南市,山财大街5号,颗粒物(PM10),70,78,109,37,61,149,149,174,170,23,41,12,11,1.5,0.7
2026-03-28T2000,4109A,116.9744,36.6889,济南市,无影山路12号,颗粒物(PM10),62,66,111,34,58,134,134,155,154,15,55,6,8,0.6,0.8
2026-03-28T2000,1653A,116.6229,35.4288,济宁市,火炬城,颗粒物(PM10),56,58,88,25,58,125,125,159,157,16,24,5,6,0.6,0.7
2026-03-28T2000,3500A,116.5808,35.3703,济宁市,北湖一中,颗粒物(PM10),55,57,83,24,56,130,130,158,158,12,24,9,13,0.5,0.6
2026-03-28T2000,3501A,116.8251,35.5592,济宁市,服务中心,颗粒物(PM10),72,80,133,39,68,127,127,168,167,21,35,3,6,0.4,0.5
2026-03-28T2000,3678A,116.5907,35.4054,济宁市,市第七中学,颗粒物(PM10),64,69,93,30,56,130,130,167,165,18,29,6,9,0.6,0.7
2026-03-28T2000,4111A,116.6075,35.4566,济宁市,任和路,颗粒物(PM10),68,75,118,26,60,136,136,166,164,14,34,6,9,0.4,0.6
2026-03-28T2000,4112A,116.5648,35.3921,济宁市,文体南路1号,颗粒物(PM10),68,74,113,28,54,127,127,158,157,17,31,5,7,0.5,0.6
2026-03-28T2000,4122A,112.6071,35.1015,济源市,市委党校,颗粒物(PM10),74,83,153,43,78,82,82,141,134,24,28,7,12,0.8,0.7
2026-03-28T2000,4123A,112.596,35.0702,济源市,沁园中路1号,细颗粒物(PM2.5),102,81,135,62,89,74,74,136,129,29,32,4,7,0.8,0.8
2026-03-28T2000,2255A,130.2749,46.8028,佳木斯市,佳纺,细颗粒物(PM2.5),120,94,137,81,120,24,24,102,75,69,26,12,8,0.9,0.6
2026-03-28T2000,2257A,130.3258,46.7975,佳木斯市,环保局,细颗粒物(PM2.5),70,NA,115,45,109,41,41,106,90,45,21,6,6,0.5,0.5
2026-03-28T2000,4285A,130.363,46.806,佳木斯市,顺和街,细颗粒物(PM2.5),120,NA,112,81,117,15,15,92,71,82,28,8,5,1.1,0.5
2026-03-28T2000,4286A,130.3952,46.8268,佳木斯市,长安路196号,细颗粒物(PM2.5),68,NA,121,44,118,50,50,96,84,32,19,11,5,0.6,0.6
2026-03-28T2000,1252A,120.7439,30.778,嘉兴市,清河小学,NA,NA,45,40,18,24,126,126,158,156,NA,53,NA,8,0.2,0.3
2026-03-28T2000,1253A,120.7261,30.7477,嘉兴市,嘉兴学院,,40,39,47,22,26,127,127,169,166,34,30,10,7,0.5,0.5
2026-03-28T2000,2872A,120.7845,30.7524,嘉兴市,南湖区残联,颗粒物(PM10),53,53,41,27,26,107,107,148,144,30,26,8,6,0.6,0.6
2026-03-28T2000,3407A,120.6915,30.7741,嘉兴市,秀洲住建,颗粒物(PM10),51,51,44,25,26,135,135,172,170,28,24,8,6,0.4,0.3
2026-03-28T2000,1945A,98.291,39.7705,嘉峪关市,气象局,颗粒物(PM10),65,70,50,26,20,130,130,133,133,14,21,17,18,0.8,0.8
2026-03-28T2000,2884A,98.2672,39.7978,嘉峪关市,酒钢宾馆,颗粒物(PM10),65,70,56,23,20,129,129,123,123,13,19,18,23,0.7,1
2026-03-28T2000,3248A,98.2644,39.7723,嘉峪关市,雄关区,颗粒物(PM10),66,72,58,29,18,127,127,126,126,13,19,10,10,0.8,0.8
2026-03-28T2000,1383A,113.1063,22.6058,江门市,北街,,20,20,29,14,20,30,30,41,40,15,16,/,/,/,/
2026-03-28T2000,1384A,113.073,22.5835,江门市,西区,,31,31,30,16,21,29,29,47,45,18,17,/,/,/,/
2026-03-28T2000,1385A,113.0218,22.531,江门市,圭峰西,,25,25,31,15,21,35,35,42,42,15,16,/,/,/,/
2026-03-28T2000,1386A,113.0826,22.5947,江门市,东湖,,28,26,32,19,22,31,31,46,45,15,14,7,7,0.5,0.4
2026-03-28T2000,3311A,113.1077,22.5647,江门市,江海富民,,29,29,46,18,24,27,27,44,42,22,18,/,/,0.4,0.4
2026-03-28T2000,3449A,113.0496,22.4669,江门市,新会银湖,,19,18,36,13,20,35,35,45,45,19,28,7,7,0.2,0.3
2026-03-28T2000,3335A,113.3137,35.2643,焦作市,马村街道办,颗粒物(PM10),64,69,133,40,91,114,114,141,140,13,19,7,10,0.6,0.7
2026-03-28T2000,3336A,113.2464,35.2374,焦作市,焦作技师学院,细颗粒物(PM2.5),68,54,131,44,91,110,110,144,141,14,18,6,10,0.8,0.9
2026-03-28T2000,3477A,113.1656,35.2536,焦作市,中站许衡医院,细颗粒物(PM2.5),68,70,119,44,72,126,126,156,154,18,16,8,11,0.5,0.7
2026-03-28T2000,3981A,113.2456,35.18,焦作市,原李万街道办,颗粒物(PM10),69,76,144,39,93,114,114,141,140,9,16,9,18,0.5,0.7
2026-03-28T2000,4264A,113.234,35.219,焦作市,新安路1731号,颗粒物(PM10),66,72,146,42,89,120,120,152,150,16,21,9,13,0.7,0.8
2026-03-28T2000,4295A,113.2722,35.2121,焦作市,人民路3066号,细颗粒物(PM2.5),74,65,148,47,96,115,115,146,144,8,15,7,13,0.5,0.6
2026-03-28T2000,1708A,116.3701,23.5345,揭阳市,新兴,颗粒物(PM10),55,57,45,36,29,69,69,80,79,26,18,8,8,0.7,0.7
2026-03-28T2000,1709A,116.3261,23.5442,揭阳市,西马,"颗粒物(PM10),细颗粒物(PM2.5)",52,52,50,36,30,70,70,81,81,23,17,6,6,0.8,0.8
2026-03-28T2000,1710A,116.361,23.5627,揭阳市,东兴,,50,49,45,35,30,75,75,79,79,21,18,6,7,/,/
2026-03-28T2000,1711A,116.4151,23.5295,揭阳市,渔湖,细颗粒物(PM2.5),60,49,45,40,32,82,82,92,91,20,16,4,4,/,/
2026-03-28T2000,3320A,116.4028,23.5699,揭阳市,曲溪,细颗粒物(PM2.5),66,49,41,43,29,71,71,81,81,23,15,11,8,0.6,0.5
2026-03-28T2000,1944A,102.1691,38.5166,金昌市,天庆家园,,44,44,39,18,13,138,138,133,133,5,8,10,6,0.6,0.6
2026-03-28T2000,4022A,102.1648,38.5369,金昌市,金川区人防中心,颗粒物(PM10),55,56,41,20,14,130,130,128,128,7,7,5,7,0.3,0.3
2026-03-28T2000,4239A,102.193042,38.531887,金昌市,长春路96号,,39,39,42,22,20,121,121,123,123,4,8,5,7,0.4,0.5
2026-03-28T2000,1262A,119.6478,29.0773,金华市,十五中,,18,18,51,9,31,31,31,88,72,21,22,4,3,0.6,0.6
2026-03-28T2000,1263A,119.6859,29.1032,金华市,监测站,,16,10,47,3,35,51,51,95,79,14,25,2,3,0.6,0.6
2026-03-28T2000,3659A,119.656,29.1132,金华市,气象局,,16,11,52,3,35,50,50,96,81,12,33,2,3,0.4,0.5
2026-03-28T2000,1767A,121.1114,41.0879,锦州市,南山,,32,32,60,18,42,95,95,99,98,24,41,13,19,0.5,0.8
2026-03-28T2000,1768A,121.060361,40.842794,锦州市,开发区,颗粒物(PM10),100,120,89,18,38,90,90,73,73,29,47,6,24,0.3,0.6
2026-03-28T2000,1769A,121.1836,41.1118,锦州市,百股街道,,33,33,59,15,38,81,81,96,91,30,40,14,23,0.6,0.7
2026-03-28T2000,1770A,121.1176,41.1224,锦州市,天安街道,,47,47,63,26,43,87,87,98,94,23,42,9,16,0.5,0.7
2026-03-28T2000,1771A,121.1303,41.1385,锦州市,北湖公园,,41,41,57,24,44,95,95,106,102,22,34,8,15,0.5,0.7
2026-03-28T2000,2160A,112.8496,35.5051,晋城市,自来水公司,颗粒物(PM10),63,68,109,26,52,119,119,143,140,20,26,4,5,0.4,0.4
2026-03-28T2000,2162A,112.8509,35.4886,晋城市,市环保局,细颗粒物(PM2.5),68,53,103,44,60,117,117,146,141,13,24,5,7,0.6,0.6
2026-03-28T2000,3620A,112.8258,35.4804,晋城市,泽州一中,细颗粒物(PM2.5),56,44,102,38,58,113,113,143,139,19,21,5,4,0.6,0.5
2026-03-28T2000,4078A,112.8246,35.5152,晋城市,前书院路,NA,NA,NA,108,NA,50,84,84,131,124,23,29,4,10,0.5,0.9
2026-03-28T2000,4079A,112.8864,35.4773,晋城市,祥云街666号,,43,43,100,30,61,108,108,136,132,19,27,5,7,0.5,0.6
2026-03-28T2000,2174A,112.6992,37.6984,晋中市,榆次区政府,,31,31,117,14,67,98,98,120,117,13,29,8,12,0.4,0.7
2026-03-28T2000,2865A,112.7195,37.683,晋中市,榆次三中,,33,29,121,14,64,103,103,124,121,10,32,8,12,0.2,0.6
2026-03-28T2000,4080A,112.7375,37.7215,晋中市,广安街188号,,33,27,116,19,64,103,103,122,120,12,33,10,14,0.2,0.5
2026-03-28T2000,4200A,112.7478,37.6954,晋中市,迎宾街26号,,33,31,121,17,70,104,104,126,123,13,28,7,12,0.4,0.7
2026-03-28T2000,2439A,112.2012,31.048,荆门市,竹园小学,细颗粒物(PM2.5),92,91,64,56,36,133,133,149,149,22,24,1,1,0.4,0.2
2026-03-28T2000,2440A,112.1968,30.9892,荆门市,掇刀,细颗粒物(PM2.5),98,75,61,59,40,140,140,154,154,17,18,8,8,0.7,0.6
2026-03-28T2000,3012A,112.1849,31.0361,荆门市,西山林语,颗粒物(PM10),58,60,51,28,32,114,114,152,152,16,15,5,6,0.5,0.4
2026-03-28T2000,3547A,112.1631,31.0134,荆门市,龙泉中学南校,细颗粒物(PM2.5),70,68,58,45,31,147,147,159,156,18,15,4,5,0.6,0.3
2026-03-28T2000,4124A,112.2213,31.0654,荆门市,新台西路6号,细颗粒物(PM2.5),90,89,68,55,41,128,128,150,150,21,25,10,9,0.6,0.5
2026-03-28T2000,1844A,112.2493,30.3198,荆州市,市图书馆,细颗粒物(PM2.5),60,54,49,40,43,103,103,145,142,23,19,7,8,0.6,0.6
2026-03-28T2000,1845A,112.2009,30.3543,荆州市,市委党校,颗粒物(PM10),57,59,58,32,44,90,90,130,128,30,25,7,9,0.9,0.9
2026-03-28T2000,3194A,112.2749,30.3124,荆州市,管委会,细颗粒物(PM2.5),84,58,50,52,44,101,101,138,136,18,16,11,13,0.6,0.7
2026-03-28T2000,4268A,112.1722,30.3366,荆州市,学苑路85号,细颗粒物(PM2.5),74,57,54,47,43,116,116,162,159,13,15,3,6,0.3,0.4
2026-03-28T2000,2343A,117.2114,29.2931,景德镇市,老干部活动中心,,43,37,25,30,22,59,59,104,99,32,13,16,7,0.9,0.7
2026-03-28T2000,2344A,117.1893,29.2789,景德镇市,兽医站,,41,41,35,13,18,59,59,108,103,40,15,4,4,0.7,0.8
2026-03-28T2000,2346A,117.246,29.2958,景德镇市,陶研所,,31,31,22,18,17,53,53,95,88,24,24,4,4,0.7,0.6
2026-03-28T2000,4289A,117.154766,29.256967,景德镇市,青少年活动中心,,38,38,28,25,20,63,63,99,95,23,15,22,7,/,/
2026-03-28T2000,1803A,115.9873,29.6816,九江市,十里,颗粒物(PM10),54,55,63,21,38,55,55,122,108,64,32,7,8,0.9,1
2026-03-28T2000,1804A,115.9583,29.7047,九江市,茅山头,颗粒物(PM10),55,56,61,17,44,23,23,132,112,102,25,4,4,0.5,0.6
2026-03-28T2000,1805A,115.9877,29.7295,九江市,西园,,49,49,60,19,35,77,77,132,121,72,38,4,5,0.7,0.7
2026-03-28T2000,1808A,115.9112,29.6038,九江市,综合工业园,,50,50,55,18,33,67,67,121,110,35,37,8,10,0.6,0.7
2026-03-28T2000,3190A,116.0254,29.6995,九江市,外国语学校,,46,46,52,23,39,62,62,124,112,45,24,6,8,0.7,0.7
2026-03-28T2000,4253A,116.010205,29.659402,九江市,莲花大道8号,颗粒物(PM10),51,51,62,13,38,70,70,121,111,24,21,6,8,0.5,0.7
2026-03-28T2000,4240A,98.495752,39.733935,酒泉市,玉门东路5号,颗粒物(PM10),65,70,56,35,21,116,116,122,122,12,11,11,8,0.6,0.3
2026-03-28T2000,4241A,98.5099,39.7506,酒泉市,北大街108号,细颗粒物(PM2.5),58,53,50,39,23,104,104,114,114,16,13,12,10,0.4,0.4
2026-03-28T2000,2698A,76.0071,39.466,喀什地区,巡警大队,颗粒物(PM10),375,480,571,181,192,116,116,102,102,6,35,4,5,0.2,0.6
2026-03-28T2000,2699A,75.9756,39.4693,喀什地区,吾办,颗粒物(PM10),374,479,540,132,150,112,112,99,99,10,33,2,4,0.3,0.6
2026-03-28T2000,4027A,75.9485,39.4688,喀什地区,老干局,颗粒物(PM10),353,462,538,118,132,116,116,105,105,8,30,3,3,0.2,0.5
2026-03-28T2000,1824A,114.3389,34.778,开封市,肿瘤医院,细颗粒物(PM2.5),86,88,90,53,56,136,136,141,140,24,32,9,9,0.6,0.6
2026-03-28T2000,1826A,114.2884,34.7966,开封市,世纪星幼儿园,颗粒物(PM10),77,87,84,46,52,135,135,138,137,27,30,10,10,0.5,0.6
2026-03-28T2000,3147A,114.3434,34.8101,开封市,龙亭公园,颗粒物(PM10),73,82,102,46,58,150,150,147,147,22,33,10,10,0.6,0.6
2026-03-28T2000,3210A,114.3645,34.7955,开封市,汴京公园,"颗粒物(PM10),细颗粒物(PM2.5)",74,83,96,47,60,142,142,146,145,28,35,6,6,0.6,0.6
2026-03-28T2000,3473A,114.2485,34.8306,开封市,技师学院,细颗粒物(PM2.5),76,75,94,48,66,148,148,145,145,16,26,8,8,0.6,0.7
2026-03-28T2000,3592A,114.4518,34.7503,开封市,祥符区生态环境局,颗粒物(PM10),101,122,106,58,54,99,99,140,133,51,49,8,8,0.7,0.6
2026-03-28T2000,1951A,84.886,45.6029,克拉玛依市,长征新村,,34,25,26,3,6,106,106,96,96,3,10,6,6,0.3,0.4
2026-03-28T2000,1952A,84.8894,45.5827,克拉玛依市,南林小区,,37,25,29,3,2,116,116,104,104,2,12,4,5,0.1,0.2
2026-03-28T2000,1954A,84.896,44.3328,克拉玛依市,独山子区,颗粒物(PM10),54,55,47,29,19,110,110,118,118,12,15,8,6,0.6,0.6
2026-03-28T2000,1955A,85.6888,46.0909,克拉玛依市,乌尔禾区商贸楼,,31,28,36,18,11,98,98,94,94,3,11,2,2,0.2,0.3
2026-03-28T2000,3612A,85.1045,45.6895,克拉玛依市,白碱滩区新站,,35,29,28,7,4,110,110,103,103,1,2,6,5,0.1,0.2
2026-03-28T2000,2697A,76.1457,39.7143,克孜勒苏柯尔克孜自治州,市人民政府,颗粒物(PM10),398,498,519,137,139,115,115,112,112,4,13,4,7,0.2,0.2
2026-03-28T2000,3665A,76.1654,39.7157,克孜勒苏柯尔克孜自治州,克州文化中心,颗粒物(PM10),414,514,509,135,134,111,111,109,109,3,13,7,9,0.2,0.3
2026-03-28T2000,1450A,102.8203,24.889,昆明市,呈贡新区,细颗粒物(PM2.5),56,48,47,38,38,132,132,144,140,10,11,3,5,0.7,0.6
2026-03-28T2000,1452A,102.7253,25.0904,昆明市,龙泉镇,,48,46,52,33,35,115,115,128,125,9,27,4,5,0.6,0.6
2026-03-28T2000,1453A,102.7267,25.0378,昆明市,东风东路,细颗粒物(PM2.5),56,49,48,38,33,123,123,136,133,11,13,2,6,0.5,0.5
2026-03-28T2000,1454A,102.6744,25.0671,昆明市,金鼎山,颗粒物(PM10),55,57,52,35,35,122,122,132,130,12,16,3,5,0.6,0.6
2026-03-28T2000,1455A,102.6643,25.0401,昆明市,碧鸡广场,细颗粒物(PM2.5),60,42,54,40,36,119,119,129,127,15,24,5,8,0.4,0.5
2026-03-28T2000,3179A,102.7491,25.012,昆明市,官渡区博物馆,,50,44,48,35,35,121,121,137,133,14,15,3,6,0.4,0.5
2026-03-28T2000,3375A,102.8016,24.8336,昆明市,青年创业园,细颗粒物(PM2.5),66,NA,52,43,39,132,132,141,136,6,14,5,6,0.5,0.5
2026-03-28T2000,3550A,102.8,24.9787,昆明市,昆明学院,细颗粒物(PM2.5),52,48,57,36,34,117,117,133,130,9,13,4,7,0.6,0.6
2026-03-28T2000,3551A,102.5969,24.6738,昆明市,晋宁区生态环境分局,细颗粒物(PM2.5),74,51,57,47,44,131,131,142,137,7,9,2,2,0.4,0.4
2026-03-28T2000,3552A,102.6673,24.9861,昆明市,云天化总部,细颗粒物(PM2.5),52,45,51,36,31,128,128,139,136,8,17,4,7,0.4,0.5
2026-03-28T2000,1456A,91.132,29.6515,拉萨市,八廓街,,36,13,12,8,7,114,114,113,113,10,10,5,4,0.5,0.5
2026-03-28T2000,1457A,91.1221,29.6748,拉萨市,市环保局,,32,17,11,8,7,101,101,105,105,15,12,4,4,0.4,0.4
2026-03-28T2000,1458A,91.0874,29.6476,拉萨市,区监测站,,32,6,10,3,6,102,102,104,104,20,13,5,5,0.5,0.5
2026-03-28T2000,1459A,91.1774,29.6541,拉萨市,西藏大学,,35,10,10,8,7,110,110,108,108,11,11,4,4,0.5,0.4
2026-03-28T2000,1460A,90.9798,29.6586,拉萨市,区辐射站,,29,19,13,9,10,91,91,93,93,24,14,4,4,0.5,0.4
2026-03-28T2000,1461A,91.0831,29.6292,拉萨市,拉萨火车站,,34,13,11,6,6,107,107,106,106,15,13,3,4,0.6,0.5
2026-03-28T2000,2520A,109.2203,23.7252,来宾市,来宾技工学校,细颗粒物(PM2.5),74,60,44,47,30,27,27,35,34,14,10,6,6,1.3,1.2
2026-03-28T2000,3535A,109.1781,23.7293,来宾市,兴宾区政府,颗粒物(PM10),64,69,48,40,27,31,31,38,38,16,12,6,8,1.0,1
2026-03-28T2000,4002A,109.2312,23.7428,来宾市,中南小学,细颗粒物(PM2.5),78,66,44,49,31,28,28,38,37,16,12,7,8,1.1,1
2026-03-28T2000,1479A,103.8309,36.0467,兰州市,铁路设计院,,49,49,39,24,16,103,103,121,121,31,17,4,4,0.1,0.1
2026-03-28T2000,3241A,103.7439,36.0841,兰州市,百合公园,,48,48,41,30,19,106,106,120,120,14,8,5,5,0.3,0.4
2026-03-28T2000,3242A,103.9613,35.9985,兰州市,和平,,43,43,45,27,26,101,101,120,120,22,11,12,13,0.5,0.5
2026-03-28T2000,4236A,103.629272,36.093822,兰州市,庄浪东路808号,颗粒物(PM10),56,58,60,24,20,105,105,124,122,25,18,8,7,0.4,0.4
2026-03-28T2000,4237A,103.7251,36.104344,兰州市,安宁西路88号,颗粒物(PM10),58,60,48,27,18,127,127,136,136,10,9,8,8,0.3,0.3
2026-03-28T2000,4238A,103.846982,36.067567,兰州市,北滨河东路1号,,46,46,39,31,20,104,104,120,120,30,16,8,8,0.5,0.4
2026-03-28T2000,1067A,116.6712,39.5109,廊坊市,药材公司,细颗粒物(PM2.5),135,135,102,98,63,94,94,124,124,28,41,4,6,0.7,0.6
2026-03-28T2000,1068A,116.7215,39.5592,廊坊市,开发区,细颗粒物(PM2.5),129,NA,99,91,58,111,111,132,132,NA,41,5,5,NA,0.5
2026-03-28T2000,1070A,116.7246,39.5273,廊坊市,北华航天学院,细颗粒物(PM2.5),123,136,100,85,55,107,107,137,137,29,40,8,8,0.6,0.5
2026-03-28T2000,2919A,116.7022,39.5454,廊坊市,河北工业大学,细颗粒物(PM2.5),129,144,94,91,56,107,107,130,130,27,37,6,7,0.6,0.4
2026-03-28T2000,2536A,103.7629,29.5844,乐山市,牛耳桥,,31,20,44,10,29,99,99,109,108,15,24,6,7,0.4,0.6
2026-03-28T2000,2537A,103.7501,29.6002,乐山市,市第三水厂,,30,21,41,9,29,95,95,107,107,19,26,3,5,0.6,0.7
2026-03-28T2000,2538A,103.7571,29.5664,乐山市,市监测站,,31,18,44,8,29,97,97,105,105,12,20,3,4,0.6,0.7
2026-03-28T2000,3361A,103.7313,29.563,乐山市,理工大学,,31,23,42,9,29,98,98,111,111,12,23,6,7,0.6,0.7
2026-03-28T2000,2599A,100.2497,26.8802,丽江市,丽江古城,,41,41,31,22,18,115,115,115,114,9,9,11,10,0.6,0.5
2026-03-28T2000,2600A,100.2203,26.8906,丽江市,市中心,,40,NA,26,28,17,113,113,118,115,14,11,6,7,0.5,0.4
2026-03-28T2000,1267A,119.9141,28.4513,丽水市,监测站大楼,,19,18,29,12,21,60,60,61,61,13,17,4,4,0.4,0.4
2026-03-28T2000,1268A,119.93,28.4589,丽水市,莲都小学,,21,19,35,11,20,66,66,65,65,13,18,/,/,/,/
2026-03-28T2000,1269A,119.8794,28.4232,丽水市,余庄前,,20,14,27,8,17,62,62,66,66,9,13,3,3,0.4,0.5
2026-03-28T2000,1173A,119.1759,34.5885,连云港市,市环境监测站,细颗粒物(PM2.5),139,136,89,102,63,107,107,159,149,44,33,13,12,0.7,0.6
2026-03-28T2000,3000A,119.3577,34.6971,连云港市,德源药业,细颗粒物(PM2.5),132,136,145,95,92,127,127,137,137,42,58,8,8,0.7,0.7
2026-03-28T2000,3007A,119.178,34.8442,连云港市,新城一中,细颗粒物(PM2.5),145,138,164,109,134,111,111,127,127,73,55,13,12,1.0,1
2026-03-28T2000,3008A,119.3607,34.7519,连云港市,胡沟管理处,细颗粒物(PM2.5),114,117,131,75,89,107,107,115,109,74,45,18,14,0.6,0.6
2026-03-28T2000,3009A,119.1478,34.5913,连云港市,矿山设计院,细颗粒物(PM2.5),130,151,95,92,57,98,98,159,152,49,33,13,13,0.9,0.8
2026-03-28T2000,3434A,119.2414,34.6539,连云港市,工贸学校,细颗粒物(PM2.5),125,134,84,87,56,129,129,161,159,34,22,15,16,0.8,0.6
2026-03-28T2000,3664A,119.4171,34.734,连云港市,连云街道,细颗粒物(PM2.5),110,112,152,71,95,130,130,122,122,24,51,8,10,0.7,0.7
2026-03-28T2000,2573A,102.2629,27.8981,凉山彝族自治州,西昌市政府,NA,NA,NA,20,27,18,117,117,132,132,5,8,7,8,0.5,0.6
2026-03-28T2000,2574A,102.2686,27.885,凉山彝族自治州,凉山州政府,,34,34,26,22,15,102,102,114,114,6,10,4,5,0.4,0.5
2026-03-28T2000,4229A,102.2342,27.8859,凉山彝族自治州,凯乐南路30号,,36,35,28,18,12,113,113,123,123,10,15,6,5,0.4,0.6
2026-03-28T2000,2212A,123.1978,41.2036,辽阳市,宏伟区,细颗粒物(PM2.5),64,65,97,42,66,109,109,138,138,17,22,13,12,1.0,0.9
2026-03-28T2000,2213A,123.1684,41.2497,辽阳市,新华园,细颗粒物(PM2.5),110,96,118,70,82,106,106,134,133,29,33,14,15,0.9,1
2026-03-28T2000,2214A,123.2355,41.2663,辽阳市,滨河路,细颗粒物(PM2.5),92,92,103,56,68,113,113,132,132,24,32,12,12,0.8,0.8
2026-03-28T2000,4083A,123.153,41.2874,辽阳市,铁西路150号,细颗粒物(PM2.5),120,114,153,82,95,70,70,115,111,35,42,19,19,1.4,1.3
2026-03-28T2000,2227A,125.1359,42.8845,辽源市,环保局,细颗粒物(PM2.5),179,147,95,135,72,46,46,118,110,58,31,11,8,1.1,0.7
2026-03-28T2000,4085A,125.0998,42.9134,辽源市,安宁大街333号,细颗粒物(PM2.5),163,141,103,124,80,91,91,122,119,30,26,11,8,1.0,0.8
2026-03-28T2000,1625A,115.9789,36.4372,聊城市,区政府,颗粒物(PM10),78,88,140,34,80,124,124,149,149,14,32,6,9,0.6,0.8
2026-03-28T2000,3200A,115.9772,36.4986,聊城市,监控中心,颗粒物(PM10),75,84,132,37,77,142,142,168,168,15,35,8,11,0.5,0.7
2026-03-28T2000,3513A,116.0443,36.436,聊城市,九州社区,颗粒物(PM10),73,82,138,31,82,128,128,162,161,19,35,3,7,0.4,0.7
2026-03-28T2000,4018A,116.0564,36.4609,聊城市,星美广场,颗粒物(PM10),78,89,151,31,84,118,118,156,154,24,45,4,11,0.5,0.7
2026-03-28T2000,4113A,116.0091,36.4495,聊城市,利民路,颗粒物(PM10),69,76,127,33,80,133,133,166,166,18,36,7,8,0.4,0.7
2026-03-28T2000,2632A,94.3683,29.6373,林芝市,林芝监测站,,36,NA,5,8,5,113,113,112,112,4,3,6,5,0.5,0.5
2026-03-28T2000,2633A,94.3616,29.6634,林芝市,林芝人民医院,,38,6,6,3,4,121,121,116,116,2,3,7,7,0.6,0.6
2026-03-28T2000,2603A,100.0779,23.8981,临沧市,市环保局,细颗粒物(PM2.5),115,92,68,76,58,139,139,150,148,9,11,8,10,0.6,0.6
2026-03-28T2000,2604A,100.0894,23.882,临沧市,市气象局,细颗粒物(PM2.5),114,75,62,75,57,130,130,152,149,15,12,7,8,0.6,0.4
2026-03-28T2000,1733A,111.5552,36.0791,临汾市,临钢医院,,47,47,104,22,49,96,96,131,123,19,29,8,10,0.6,0.9
2026-03-28T2000,1734A,111.4984,36.0734,临汾市,技工学校,,50,41,104,35,59,95,95,122,116,12,31,4,7,0.4,0.8
2026-03-28T2000,1736A,111.5017,36.0857,临汾市,市委,,41,41,112,16,47,99,99,126,121,12,31,5,7,0.5,0.8
2026-03-28T2000,3018A,111.5048,36.1015,临汾市,唐尧大酒店,颗粒物(PM10),52,52,111,14,46,97,97,123,117,13,28,7,10,0.5,0.8
2026-03-28T2000,4244A,111.4879,36.053,临汾市,启星学校,,45,36,103,31,50,94,94,128,122,18,41,6,8,0.6,0.9
2026-03-28T2000,4271A,103.2464,35.6123,临夏回族自治州,滨河东路1号,NA,NA,64,78,31,36,83,83,113,112,36,22,7,5,NA,0.5
2026-03-28T2000,4310A,103.207136,35.599807,临夏回族自治州,新华街21号,颗粒物(PM10),72,80,76,30,38,88,88,107,107,16,13,8,6,0.7,0.8
2026-03-28T2000,1618A,118.3429,35.0532,临沂市,沂河小区,NA,NA,117,136,54,81,140,140,158,157,28,37,17,16,NA,0.6
2026-03-28T2000,1619A,118.2962,35.0568,临沂市,鲁南制药厂,颗粒物(PM10),84,97,130,51,76,152,152,170,170,27,36,16,17,0.4,0.6
2026-03-28T2000,1620A,118.2793,34.9976,临沂市,新光毛纺厂,颗粒物(PM10),96,114,131,57,84,131,131,166,162,40,46,18,16,0.4,0.5
2026-03-28T2000,1621A,118.3955,35.0889,临沂市,河东保险公司,NA,NA,NA,137,NA,85,158,158,172,171,21,48,17,15,NA,0.6
2026-03-28T2000,3370A,118.3563,35.0215,临沂市,十里堡居委,颗粒物(PM10),93,110,126,56,81,138,138,168,165,40,41,26,18,0.7,0.7
2026-03-28T2000,3496A,118.359,35.1067,临沂市,南坊新区,细颗粒物(PM2.5),82,90,118,51,79,152,152,161,161,24,33,14,15,0.4,0.5
2026-03-28T2000,3860A,118.3915,35.0297,临沂市,皇山花园小区,细颗粒物(PM2.5),102,102,136,62,86,145,145,171,169,32,42,13,14,0.6,0.7
2026-03-28T2000,1870A,109.4854,24.3898,柳州市,柳东小学,,48,48,26,30,14,34,34,42,42,10,8,4,6,0.9,0.8
2026-03-28T2000,1871A,109.4109,24.3304,柳州市,环保监测站,,39,39,31,19,15,30,30,35,35,15,16,6,7,1.0,1
2026-03-28T2000,1872A,109.3886,24.3408,柳州市,河西水厂,,41,41,42,16,20,36,36,34,34,11,15,8,15,0.7,0.7
2026-03-28T2000,1873A,109.4263,24.2951,柳州市,市四中,,42,42,30,22,15,32,32,38,38,12,10,8,8,0.5,0.6
2026-03-28T2000,1874A,109.396,24.3658,柳州市,市九中,,35,33,26,24,17,29,29,33,32,13,15,9,12,0.7,0.9
2026-03-28T2000,1875A,109.4912,24.3164,柳州市,古亭山,,48,48,32,25,15,33,33,52,43,10,8,6,7,0.8,0.8
2026-03-28T2000,3402A,109.5422,24.3994,柳州市,市二中,,48,40,25,33,14,40,40,48,42,13,10,6,6,0.9,0.8
2026-03-28T2000,2307A,116.5078,31.7369,六安市,监测大楼,,45,45,59,15,39,124,124,140,139,20,23,4,5,0.4,0.5
2026-03-28T2000,2308A,116.4738,31.7642,六安市,皖西学院,,44,43,62,13,35,140,140,148,148,12,27,6,5,0.3,0.4
2026-03-28T2000,2309A,116.4997,31.7904,六安市,朝阳厂,,41,36,56,14,35,130,130,140,140,18,33,6,6,0.2,0.3
2026-03-28T2000,2310A,116.5566,31.7885,六安市,开发区,,43,22,64,19,40,137,137,152,152,15,25,6,6,0.3,0.4
2026-03-28T2000,2577A,104.8293,26.592,六盘水市,黄土坡,,39,39,31,16,21,73,73,76,76,15,12,8,6,0.7,0.6
2026-03-28T2000,2579A,104.8481,26.5898,六盘水市,民中,,41,41,31,12,20,61,61,69,69,22,14,6,4,1.0,0.7
2026-03-28T2000,2580A,104.9541,26.5506,六盘水市,双水,颗粒物(PM10),55,56,36,35,22,85,85,77,77,18,11,7,5,0.6,0.6
2026-03-28T2000,4151A,104.8899,26.5685,六盘水市,钟山大道中段564号,,49,49,38,20,21,69,69,76,76,10,8,8,7,0.6,0.7
2026-03-28T2000,2336A,117.022,25.1031,龙岩市,龙岩市监测站,,32,26,16,22,16,47,47,76,67,22,15,6,6,0.8,0.8
2026-03-28T2000,2337A,117.0257,25.0662,龙岩市,闽西职业技术学院,,26,NA,23,18,18,45,45,80,65,17,15,5,6,0.7,0.7
2026-03-28T2000,2338A,117.0195,25.0306,龙岩市,龙岩学院,,29,26,21,20,15,47,47,73,66,11,11,5,6,/,/
2026-03-28T2000,2885A,104.9344,33.3827,陇南市,滨江中学,,32,32,62,22,24,78,78,90,89,12,24,7,8,0.7,0.9
2026-03-28T2000,3247A,104.9551,33.3709,陇南市,市总工会,颗粒物(PM10),52,52,58,20,19,80,80,90,89,11,12,6,6,0.6,0.7
2026-03-28T2000,2488A,111.9984,27.7346,娄底市,市监测站,细颗粒物(PM2.5),66,58,39,43,34,50,50,69,69,19,19,1,3,0.7,0.7
2026-03-28T2000,2491A,111.9888,27.7035,娄底市,市政府,,42,42,32,28,27,48,48,72,72,12,12,2,3,0.6,0.6
2026-03-28T2000,4127A,111.9812,27.7591,娄底市,涟钢职大,细颗粒物(PM2.5),84,68,36,52,32,52,52,73,72,21,12,2,2,0.7,0.8
2026-03-28T2000,4128A,112.0303,27.7457,娄底市,娄底体校,细颗粒物(PM2.5),70,68,47,45,34,30,30,71,67,32,12,3,3,1.1,0.7
2026-03-28T2000,1894A,105.4427,28.9063,泸州市,小市上码头,细颗粒物(PM2.5),66,50,61,43,53,80,80,85,85,14,20,9,10,0.7,0.8
2026-03-28T2000,1895A,105.4241,28.8573,泸州市,兰田宪桥,颗粒物(PM10),51,51,70,34,47,66,66,78,78,15,20,8,8,1.0,1.1
2026-03-28T2000,1896A,105.4378,28.8833,泸州市,市环监站,颗粒物(PM10),60,63,84,39,53,64,64,78,78,30,26,4,6,0.8,1
2026-03-28T2000,4272A,105.3689,28.7783,泸州市,纳溪中医医院,细颗粒物(PM2.5),94,NA,54,57,52,67,67,85,85,24,18,7,8,0.9,1
2026-03-28T2000,2183A,111.1447,37.5212,吕梁市,环保局,,36,36,85,10,35,73,73,94,94,22,40,7,8,0.1,0.2
2026-03-28T2000,2185A,111.1285,37.5338,吕梁市,自来水公司,,34,34,102,20,38,79,79,93,93,16,40,6,9,0.5,0.5
2026-03-28T2000,2867A,111.1225,37.5093,吕梁市,马茂庄小学,,34,34,95,16,35,86,86,93,93,17,45,5,7,0.5,0.5
2026-03-28T2000,1812A,112.3934,34.6517,洛阳市,市委党校,颗粒物(PM10),62,66,84,37,51,94,94,128,125,24,26,9,12,0.8,0.7
2026-03-28T2000,1815A,112.494,34.6883,洛阳市,河南林校,颗粒物(PM10),59,62,106,31,66,108,108,138,136,33,39,12,14,0.6,0.7
2026-03-28T2000,1816A,112.3843,34.623,洛阳市,开发区管委会,细颗粒物(PM2.5),86,72,96,53,47,87,87,128,126,21,20,11,14,0.5,0.5
2026-03-28T2000,1817A,112.4263,34.6249,洛阳市,市委新办公区,颗粒物(PM10),70,77,85,44,51,85,85,132,130,25,23,10,12,0.7,0.6
2026-03-28T2000,3340A,112.6005,34.6323,洛阳市,伊滨,细颗粒物(PM2.5),84,52,86,52,57,85,85,135,130,22,27,9,8,0.6,0.6
2026-03-28T2000,3341A,112.495,34.6338,洛阳市,中移产业园,细颗粒物(PM2.5),66,71,91,43,57,82,82,131,127,43,34,9,13,0.7,0.6
2026-03-28T2000,3593A,112.5736,34.8993,洛阳市,吉利监测站,颗粒物(PM10),51,51,102,21,74,96,96,143,138,25,28,10,11,0.6,0.6
2026-03-28T2000,3635A,112.3678,34.6623,洛阳市,河科大西苑校区,细颗粒物(PM2.5),76,61,92,48,53,96,96,134,131,24,24,10,13,0.5,0.5
2026-03-28T2000,3636A,112.4387,34.678,洛阳市,英才小学,细颗粒物(PM2.5),80,72,111,50,60,98,98,133,131,32,39,11,14,0.8,0.8
2026-03-28T2000,4214A,112.460027,34.694929,洛阳市,春都路1号院,颗粒物(PM10),58,60,105,35,68,111,111,142,140,24,30,8,12,0.7,0.8
2026-03-28T2000,2399A,114.051,33.5721,漯河市,三五一五工厂,颗粒物(PM10),79,90,76,46,43,120,120,148,145,24,26,6,6,0.4,0.3
2026-03-28T2000,2400A,114.0055,33.5698,漯河市,漯河大学,细颗粒物(PM2.5),78,65,57,49,41,114,114,146,144,22,23,6,8,0.5,0.5
2026-03-28T2000,2401A,114.0134,33.5826,漯河市,市水利局,颗粒物(PM10),68,75,61,42,39,119,119,145,142,18,21,6,7,0.6,0.5
2026-03-28T2000,2402A,114.0261,33.5697,漯河市,市广电局,细颗粒物(PM2.5),78,83,57,49,39,118,118,147,144,15,19,6,7,0.6,0.5
2026-03-28T2000,3478A,113.9691,33.568,漯河市,市图书馆,细颗粒物(PM2.5),70,64,67,45,38,104,104,140,137,24,21,7,8,0.7,0.5
2026-03-28T2000,4250A,114.089259,33.588274,漯河市,韶山路11号,细颗粒物(PM2.5),92,98,77,56,44,100,100,138,134,29,27,7,8,0.4,0.3
2026-03-28T2000,1798A,118.5084,31.6838,马鞍山市,湖东路四小,颗粒物(PM10),60,64,51,30,23,152,152,154,154,23,33,9,9,0.4,0.5
2026-03-28T2000,1799A,118.5019,31.6449,马鞍山市,开发区,颗粒物(PM10),62,66,63,31,28,153,153,157,157,26,33,6,10,0.4,0.4
2026-03-28T2000,3633A,118.4914,31.681,马鞍山市,雨山,NA,NA,NA,34,NA,17,158,158,157,157,24,24,7,8,NA,0.7
2026-03-28T2000,4191A,118.527362,31.722269,马鞍山市,慈湖高新区,颗粒物(PM10),60,64,62,26,23,155,155,153,153,22,35,6,8,0.2,0.3
2026-03-28T2000,1686A,111.0285,21.469,茂名市,电白南海,,27,27,26,15,13,47,47,48,48,8,8,5,5,0.7,0.7
2026-03-28T2000,1687A,110.9294,21.6533,茂名市,茂石化七小,,36,36,32,21,19,33,33,35,35,13,12,6,6,0.4,0.4
2026-03-28T2000,1688A,110.9108,21.6688,茂名市,健康路,,26,22,23,18,17,37,37,40,40,10,10,4,4,0.5,0.5
2026-03-28T2000,1689A,110.8592,21.6826,茂名市,高岭,,31,31,36,16,18,39,39,42,41,8,10,3,12,/,/
2026-03-28T2000,3450A,111.0101,21.5165,茂名市,电白水东,,22,19,18,15,16,45,45,42,42,6,7,2,3,/,/
2026-03-28T2000,2540A,103.8414,30.0871,眉山市,气象局,,43,43,51,8,26,104,104,117,117,12,19,6,7,0.5,0.6
2026-03-28T2000,3148A,103.829,30.0563,眉山市,区人社局,,46,46,52,12,35,92,92,111,111,25,27,9,10,0.6,0.7
2026-03-28T2000,4148A,103.8836,30.0695,眉山市,眉职院,,33,33,57,12,30,102,102,114,114,16,25,6,6,0.6,0.7
2026-03-28T2000,1690A,116.1248,24.3307,梅州市,梅江月梅,,18,NA,31,12,24,55,55,66,65,11,16,/,/,/,/
2026-03-28T2000,1691A,116.0798,24.2719,梅州市,梅县新城,,20,16,36,14,30,64,64,67,67,16,22,9,9,0.6,0.7
2026-03-28T2000,3315A,116.1234,24.2994,梅州市,梅龙,,20,14,31,14,26,52,52,66,65,15,16,15,9,0.9,1
2026-03-28T2000,1878A,104.7775,31.4741,绵阳市,富乐山,,37,37,40,16,24,90,90,121,120,10,12,6,7,0.7,0.8
2026-03-28T2000,1880A,104.6698,31.4668,绵阳市,高新区自来水公司,,41,41,49,21,30,81,81,113,113,24,21,8,9,0.7,0.5
2026-03-28T2000,3491A,104.6899,31.5324,绵阳市,西科大附属小学,,37,37,48,24,31,99,99,119,119,18,21,7,8,0.5,0.5
2026-03-28T2000,3492A,104.5647,31.5343,绵阳市,安州区旅游局,颗粒物(PM10),55,57,50,20,28,87,87,112,112,21,11,5,7,0.5,0.5
2026-03-28T2000,4146A,104.7092,31.4972,绵阳市,科技城新区公安局,,39,39,47,23,28,87,87,108,108,23,18,8,8,0.7,0.7
2026-03-28T2000,4226A,104.765114,31.453094,绵阳市,绵阳市气象局,,43,43,46,17,30,86,86,105,105,16,19,7,9,0.7,0.7
2026-03-28T2000,1784A,129.61,44.561,牡丹江市,环保大楼,细颗粒物(PM2.5),120,108,109,82,101,74,74,120,109,43,23,5,4,0.8,0.6
2026-03-28T2000,1787A,129.6364,44.6075,牡丹江市,机车工厂,细颗粒物(PM2.5),115,84,128,76,112,60,60,114,104,42,31,14,12,0.7,0.9
2026-03-28T2000,1788A,129.6386,44.5462,牡丹江市,第一中学,细颗粒物(PM2.5),120,107,99,81,90,51,51,117,104,37,23,6,5,0.8,0.6
2026-03-28T2000,4287A,129.5992,44.5964,牡丹江市,东晓云街98号,细颗粒物(PM2.5),130,150,127,92,108,82,82,120,110,26,18,6,4,1.1,0.7
2026-03-28T2000,2531A,105.0703,29.61,内江市,市监测站,,31,31,41,15,31,68,68,87,86,16,18,6,8,0.6,0.6
2026-03-28T2000,2533A,105.0657,29.5807,内江市,内江二中,,43,43,51,12,30,77,77,87,86,12,21,8,8,0.4,0.5
2026-03-28T2000,2534A,105.0407,29.5828,内江市,内江日报社,,25,25,36,12,31,80,80,95,94,11,20,7,6,0.6,0.6
2026-03-28T2000,4147A,105.0433,29.6105,内江市,玉峰路西段888号,,26,24,37,17,44,82,82,98,97,14,19,10,10,0.4,0.5
2026-03-28T2000,2628A,92.0653,31.4846,那曲市,那曲监测站,,32,25,33,15,24,100,100,100,100,8,18,4,6,0.5,0.8
2026-03-28T2000,4243A,92.0515,31.4787,那曲市,那曲市委宣传部,,34,11,16,10,12,106,106,104,104,2,9,6,7,0.3,0.6
2026-03-28T2000,1291A,115.8887,28.7006,南昌市,省林业公司,,39,39,45,22,33,61,61,78,77,28,23,4,5,0.6,0.6
2026-03-28T2000,1292A,115.813,28.7443,南昌市,林科所,,46,46,43,26,35,21,21,67,62,80,18,8,8,0.7,0.7
2026-03-28T2000,1294A,115.8518,28.687,南昌市,建工学校,,50,50,56,26,34,68,68,89,82,29,22,9,10,0.9,0.8
2026-03-28T2000,1295A,115.8926,28.6425,南昌市,象湖,,42,42,44,27,35,59,59,81,80,27,21,7,9,0.9,0.9
2026-03-28T2000,3046A,115.9084,28.6062,南昌市,机电学校,颗粒物(PM10),56,58,63,23,32,64,64,87,82,24,18,4,5,0.7,0.8
2026-03-28T2000,3690A,115.9718,28.7032,南昌市,外国语学校,颗粒物(PM10),56,58,47,32,41,54,54,84,81,32,24,8,9,0.6,0.7
2026-03-28T2000,4106A,115.7923,28.6873,南昌市,工业二路,颗粒物(PM10),55,56,62,27,35,68,68,88,87,20,18,5,6,0.8,0.8
2026-03-28T2000,4192A,115.931587,28.686774,南昌市,南京东路235号,颗粒物(PM10),65,71,56,35,36,51,51,86,83,35,15,6,7,0.7,0.5
2026-03-28T2000,1906A,106.0791,30.8022,南充市,南充市委,,24,24,46,16,29,73,73,81,81,14,22,6,6,0.6,0.6
2026-03-28T2000,1907A,106.1038,30.8215,南充市,南充炼油厂,,35,35,48,17,31,70,70,78,78,14,22,4,5,0.5,0.5
2026-03-28T2000,4227A,106.108336,30.788436,南充市,梨树横街98号,,26,26,49,15,33,80,80,85,85,11,18,5,6,0.4,0.4
2026-03-28T2000,4304A,106.1172,30.843,南充市,清泉寺北路188号,,40,40,47,17,28,75,75,82,82,16,16,6,6,0.5,0.5
2026-03-28T2000,4305A,106.067,30.7616,南充市,同庆路1号,,28,28,45,15,33,80,80,83,83,9,16,6,7,0.6,0.6
2026-03-28T2000,1151A,118.8033,32.1085,南京市,迈皋桥,臭氧1小时(O3_1h),67,45,52,19,26,173,173,167,167,14,33,5,6,0.3,0.3
2026-03-28T2000,1152A,118.7487,32.057,南京市,草场门,,49,44,54,14,23,156,156,152,152,24,41,10,10,0.2,0.3
2026-03-28T2000,1154A,118.770105,32.004342,南京市,中华门,臭氧1小时(O3_1h),52,51,54,17,24,161,161,156,156,14,34,6,5,0.2,0.7
2026-03-28T2000,1155A,118.8059,32.0329,南京市,瑞金路,臭氧1小时(O3_1h),54,41,51,16,21,163,163,158,158,16,39,4,5,0.6,0.7
2026-03-28T2000,1156A,118.7946,32.0774,南京市,玄武湖,臭氧1小时(O3_1h),52,47,48,13,20,161,161,156,156,5,25,8,9,0.6,0.6
2026-03-28T2000,1157A,118.6415,32.0964,南京市,浦口,颗粒物(PM10),55,56,62,17,27,142,142,140,140,25,34,6,7,0.3,0.4
2026-03-28T2000,1158A,118.730129,32.000956,南京市,奥体中心,颗粒物(PM10),52,52,63,15,25,149,149,146,146,9,33,8,8,0.2,0.4
2026-03-28T2000,1159A,118.9072,32.1047,南京市,仙林大学城,臭氧1小时(O3_1h),58,53,57,18,25,166,166,161,161,14,34,9,9,0.4,0.5
2026-03-28T2000,3422A,118.8443,31.919,南京市,江宁彩虹桥,,48,47,52,15,20,152,152,155,155,17,43,4,3,0.5,0.6
2026-03-28T2000,3427A,118.8497,32.3599,南京市,六合雄州,,50,50,68,22,46,149,149,152,152,29,48,4,4,0.6,0.7
2026-03-28T2000,4086A,118.7641,32.0841,南京市,新模范马路66号,臭氧1小时(O3_1h),74,48,66,9,19,179,179,170,170,2,29,4,4,0.3,0.4
2026-03-28T2000,4249A,118.8707617,31.34017673,南京市,汶溪路181号,颗粒物(PM10),60,64,42,17,16,155,155,153,153,20,24,6,6,0.5,0.5
2026-03-28T2000,4312A,119.019,31.6512,南京市,中山西路1号,颗粒物(PM10),51,51,47,16,21,132,132,138,138,20,32,4,4,0.4,0.4
2026-03-28T2000,1401A,108.3098,22.788,南宁市,二十一中,细颗粒物(PM2.5),102,62,42,62,36,53,53,66,66,21,12,3,3,1.0,0.7
2026-03-28T2000,1402A,108.3135,22.8529,南宁市,北湖,细颗粒物(PM2.5),131,106,55,94,44,45,45,67,66,23,13,5,3,1.3,0.9
2026-03-28T2000,1403A,108.3205,22.8222,南宁市,市监测站,细颗粒物(PM2.5),117,99,47,78,35,43,43,69,68,23,10,3,2,1.2,0.8
2026-03-28T2000,1404A,108.3828,22.8038,南宁市,大自然花园,细颗粒物(PM2.5),122,113,54,84,38,49,49,72,71,23,12,6,5,1.3,0.9
2026-03-28T2000,1406A,108.2397,22.8462,南宁市,区农职院,细颗粒物(PM2.5),103,82,52,63,34,53,53,71,71,20,13,6,5,0.9,0.6
2026-03-28T2000,1407A,108.3285,22.7356,南宁市,英华嘉园,细颗粒物(PM2.5),104,83,57,64,37,73,73,74,74,17,14,4,4,0.8,0.6
2026-03-28T2000,3401A,108.4829,22.762,南宁市,红星社区,细颗粒物(PM2.5),116,92,55,77,42,58,58,76,76,22,14,7,6,1.3,0.8
2026-03-28T2000,4132A,108.2927,23.1477,南宁市,起凤路9号,细颗粒物(PM2.5),114,99,58,75,45,45,45,77,76,17,9,3,4,0.8,0.5
2026-03-28T2000,4221A,108.2177,22.7774,南宁市,乐贤路16号,细颗粒物(PM2.5),78,73,51,49,34,63,63,70,70,21,20,5,6,0.9,0.7
2026-03-28T2000,2332A,118.1682,26.6371,南平市,南平市监测站,,26,26,24,18,16,27,27,49,43,17,13,4,4,1.0,0.9
2026-03-28T2000,2334A,118.1757,26.6276,南平市,南平七中,,28,28,21,18,14,27,27,47,42,16,13,2,3,0.8,0.7
2026-03-28T2000,1168A,120.9056,31.9669,南通市,狼山街道,,36,36,47,10,21,108,108,128,128,20,42,4,5,0.3,0.4
2026-03-28T2000,1170A,120.8635,32.0231,南通市,城中,,50,50,62,13,25,98,98,120,120,22,43,4,6,0.5,0.6
2026-03-28T2000,1171A,120.9376,31.9301,南通市,星湖花园,,39,39,49,13,24,96,96,125,124,22,36,4,4,0.4,0.5
2026-03-28T2000,1172A,120.8053,32.046,南通市,紫琅学院,,38,38,55,10,27,105,105,126,126,26,55,4,8,0.5,0.6
2026-03-28T2000,3291A,121.0631,32.0644,南通市,通州监测站,颗粒物(PM10),51,51,50,22,26,96,96,127,119,23,27,4,4,0.4,0.5
2026-03-28T2000,3432A,120.9348,31.9874,南通市,环境教育馆,,48,48,53,13,22,90,90,120,118,30,46,5,5,0.4,0.5
2026-03-28T2000,4091A,120.8692,31.9885,南通市,洪江路,,38,38,57,11,29,97,97,112,112,25,49,4,7,0.6,0.7
2026-03-28T2000,2404A,112.5338,33.0086,南阳市,瓦房庄,,41,41,54,16,18,97,97,121,117,15,14,4,4,0.6,0.6
2026-03-28T2000,2405A,112.5002,32.9734,南阳市,汉画馆,颗粒物(PM10),51,51,53,23,23,82,82,127,120,26,19,5,5,0.5,0.5
2026-03-28T2000,2406A,112.5778,33.0144,南阳市,气象站,,44,44,56,18,19,94,94,128,123,29,18,5,5,0.5,0.5
2026-03-28T2000,2407A,112.548,32.9687,南阳市,理工学院,颗粒物(PM10),53,54,52,26,23,94,94,123,117,25,16,7,6,0.5,0.5
2026-03-28T2000,4008A,112.5233,32.9921,南阳市,卧龙区政府,,36,36,46,19,22,96,96,128,123,20,16,6,6,0.5,0.5
2026-03-28T2000,1234A,121.8352,29.9111,宁波市,区环保大楼,颗粒物(PM10),88,102,45,52,20,166,166,151,151,22,36,6,6,0.3,0.2
2026-03-28T2000,1235A,121.5595,29.8208,宁波市,万里学院,颗粒物(PM10),63,68,38,34,20,150,150,152,152,16,27,6,6,0.6,0.6
2026-03-28T2000,1236A,121.713,29.9564,宁波市,龙赛医院,"颗粒物(PM10),细颗粒物(PM2.5)",78,89,49,49,24,157,157,141,141,16,37,6,8,0.6,0.4
2026-03-28T2000,1240A,121.5855,29.8635,宁波市,太古小学,颗粒物(PM10),70,77,42,40,21,133,133,128,128,26,38,4,4,0.2,0.3
2026-03-28T2000,1241A,121.5239,29.8673,宁波市,市环境监测中心,颗粒物(PM10),54,55,38,32,26,139,139,142,142,22,34,8,7,0.4,0.4
2026-03-28T2000,2871A,121.6156,29.9015,宁波市,万里国际学校,细颗粒物(PM2.5),64,62,38,42,23,157,157,153,153,14,30,5,5,0.5,0.5
2026-03-28T2000,3710A,121.5593,29.8976,宁波市,白沙活动中心,颗粒物(PM10),62,66,38,40,24,144,144,144,144,19,33,5,5,0.4,0.4
2026-03-28T2000,4095A,121.8962,29.7529,宁波市,中科路88号,,46,46,31,31,19,75,75,152,143,43,27,8,6,0.5,0.5
2026-03-28T2000,2341A,119.5387,26.6611,宁德市,宁德市监测站,,40,34,26,28,18,70,70,90,87,28,18,4,5,0.5,0.4
2026-03-28T2000,3209A,119.5231,26.6562,宁德市,宁德一中,,43,34,27,30,20,67,67,86,83,19,14,4,4,0.3,0.2
2026-03-28T2000,2618A,98.859,25.8541,怒江傈僳族自治州,州监测站,细颗粒物(PM2.5),66,56,51,43,43,84,84,105,104,9,9,8,7,0.6,0.6
2026-03-28T2000,2619A,98.8607,25.8168,怒江傈僳族自治州,泸水一中,细颗粒物(PM2.5),64,NA,45,42,42,82,82,101,100,18,18,5,5,0.8,0.7
2026-03-28T2000,1888A,101.6891,26.571,攀枝花市,弄弄坪,颗粒物(PM10),51,51,51,24,31,110,110,123,122,20,26,5,23,1.4,1.8
2026-03-28T2000,1889A,101.577,26.5914,攀枝花市,河门口,,39,39,49,27,31,114,114,118,118,11,14,5,7,0.5,0.6
2026-03-28T2000,1891A,101.7365,26.4986,攀枝花市,仁和,NA,NA,NA,38,27,33,104,104,121,118,13,9,5,6,0.5,0.6
2026-03-28T2000,2835A,101.7222,26.567,攀枝花市,四十中小,,36,33,36,25,25,110,110,120,118,14,16,4,10,0.8,1
2026-03-28T2000,1604A,122.0303,41.1489,盘锦市,开发区,细颗粒物(PM2.5),58,42,49,39,27,77,77,93,92,19,21,10,11,0.4,0.5
2026-03-28T2000,1605A,122.0486,41.0883,盘锦市,兴隆台,,33,31,60,23,57,72,72,86,83,34,36,7,12,0.9,0.9
2026-03-28T2000,1606A,121.8297,41.1026,盘锦市,新生街道,NA,NA,NA,30,8,20,51,51,74,69,NA,32,6,8,0.2,0.5
2026-03-28T2000,1832A,113.3257,33.7423,平顶山市,新华旅馆,颗粒物(PM10),74,83,91,41,38,121,121,132,132,13,33,10,7,0.5,0.4
2026-03-28T2000,1833A,113.2917,33.737,平顶山市,规划设计院,细颗粒物(PM2.5),90,85,83,55,40,117,117,129,129,19,32,8,8,0.7,0.6
2026-03-28T2000,1834A,113.182,33.7738,平顶山市,平顶山工学院,颗粒物(PM10),72,80,67,42,33,132,132,137,137,15,20,6,6,0.5,0.5
2026-03-28T2000,3594A,112.8736,33.9068,平顶山市,石龙区,颗粒物(PM10),88,102,77,43,30,122,122,136,135,27,31,10,8,0.8,0.6
2026-03-28T2000,4116A,113.284,33.7139,平顶山市,姚电大道23号,颗粒物(PM10),75,84,85,42,39,122,122,127,127,16,29,4,4,0.4,0.3
2026-03-28T2000,2656A,106.6633,35.5338,平凉市,聚贤嘉苑,,46,46,48,26,18,114,114,120,120,10,9,5,6,0.2,0.2
2026-03-28T2000,2657A,106.7021,35.5307,平凉市,博物馆,颗粒物(PM10),60,63,50,21,17,105,105,114,114,13,8,7,8,0.4,0.4
2026-03-28T2000,2348A,113.8384,27.6436,萍乡市,中医院,,46,39,46,32,35,63,63,85,77,18,17,4,5,0.9,0.9
2026-03-28T2000,2350A,113.8677,27.6438,萍乡市,市环保局,细颗粒物(PM2.5),60,45,38,40,38,67,67,92,83,15,13,7,8,0.9,0.8
2026-03-28T2000,2351A,113.8663,27.6202,萍乡市,安源区政府,细颗粒物(PM2.5),56,38,37,38,35,54,54,68,66,11,14,4,6,0.5,0.6
2026-03-28T2000,4107A,113.8686,27.6668,萍乡市,联洪村委会,细颗粒物(PM2.5),60,62,50,40,34,59,59,80,75,14,12,2,3,0.7,0.5
2026-03-28T2000,2319A,119.0142,25.4324,莆田市,荔城区仓后路,,30,30,30,17,17,77,77,96,94,23,17,/,/,/,/
2026-03-28T2000,2320A,119.0016,25.4553,莆田市,莆田市监测站,,26,26,29,14,15,76,76,98,96,17,14,2,3,0.5,0.3
2026-03-28T2000,2321A,119.112,25.4561,莆田市,涵江区六中,,29,24,26,15,19,91,91,101,101,16,16,/,/,0.2,0.2
2026-03-28T2000,2322A,119.1014,25.3215,莆田市,秀屿区政府,,32,28,26,13,15,100,100,109,109,11,9,4,4,0.6,0.6
2026-03-28T2000,2392A,115.0312,35.7636,濮阳市,环保局,颗粒物(PM10),51,51,127,28,88,119,119,139,138,21,24,7,6,0.5,0.8
2026-03-28T2000,3021A,115,35.7667,濮阳市,濮水河管理处,颗粒物(PM10),61,65,143,21,90,130,130,150,149,29,32,8,8,0.5,0.7
2026-03-28T2000,4118A,115.0552,35.7816,濮阳市,中原东路68号,颗粒物(PM10),64,69,152,29,90,125,125,143,142,14,21,7,8,0.7,0.9
2026-03-28T2000,4216A,115.0923632,35.76857718,濮阳市,任丘路479号,颗粒物(PM10),69,76,153,30,98,108,108,148,144,33,32,7,9,0.3,0.7
2026-03-28T2000,2601A,100.9801,22.7634,普洱市,市环保局,细颗粒物(PM2.5),152,204,135,116,82,174,174,175,175,12,13,9,8,1.2,0.9
2026-03-28T2000,2602A,100.9763,22.8237,普洱市,普洱第二中学,细颗粒物(PM2.5),179,188,131,135,84,159,159,168,167,20,26,13,11,1.2,0.8
2026-03-28T2000,3345A,131.0413,45.7795,七台河市,中波台,细颗粒物(PM2.5),168,196,164,127,130,55,55,122,110,56,25,11,7,0.9,0.6
2026-03-28T2000,3637A,131.0136,45.7688,七台河市,人民广场,细颗粒物(PM2.5),140,176,165,104,118,30,30,109,92,71,30,12,11,1.0,0.8
2026-03-28T2000,3684A,130.8639,45.8144,七台河市,新建矿广场,细颗粒物(PM2.5),224,268,176,174,128,53,53,107,95,51,26,17,12,1.1,0.7
2026-03-28T2000,1779A,123.9307,47.3641,齐齐哈尔市,安居小区,颗粒物(PM10),55,57,62,33,50,91,91,106,104,14,16,14,11,0.5,0.5
2026-03-28T2000,1780A,123.9497,47.3389,齐齐哈尔市,中心广场,NA,NA,NA,57,NA,39,NA,NA,70,NA,NA,13,NA,4,NA,0.5
2026-03-28T2000,1781A,123.9483,47.3229,齐齐哈尔市,农牧车辆厂,颗粒物(PM10),55,56,58,36,41,80,80,101,98,18,13,10,8,0.2,0.3
2026-03-28T2000,1783A,123.9442,47.2994,齐齐哈尔市,市环境监测站,,45,42,51,31,35,93,93,104,103,9,12,3,4,0.5,0.6
2026-03-28T2000,3662A,123.6341,47.2079,齐齐哈尔市,富区青少年活动中心,细颗粒物(PM2.5),88,77,82,54,56,87,87,104,102,14,19,5,7,0.4,0.6
2026-03-28T2000,2591A,107.9765,26.5724,黔东南苗族侗族自治州,市环境监测站,,23,20,12,16,10,69,69,75,75,6,6,2,2,0.5,0.5
2026-03-28T2000,2881A,107.8909,26.531,黔东南苗族侗族自治州,凯里学院,,25,22,13,17,12,43,43,80,76,24,7,2,3,0.7,0.6
2026-03-28T2000,2593A,107.5223,26.2371,黔南布依族苗族自治州,小围寨,,22,22,9,10,9,55,55,66,65,5,5,6,5,0.6,0.6
2026-03-28T2000,3538A,107.5175,26.2977,黔南布依族苗族自治州,沙坝,,27,27,13,12,9,50,50,64,60,6,6,4,4,0.4,0.4
2026-03-28T2000,2589A,104.9022,25.0943,黔西南布依族苗族自治州,场坝街,细颗粒物(PM2.5),84,67,60,52,52,71,71,101,97,8,10,10,10,0.7,0.6
2026-03-28T2000,2590A,104.8812,25.0994,黔西南布依族苗族自治州,坪东大道,细颗粒物(PM2.5),74,57,62,47,52,63,63,97,92,10,9,8,9,0.9,0.9
2026-03-28T2000,2502A,108.6238,21.9667,钦州市,市环保站,颗粒物(PM10),51,51,49,25,26,44,44,76,75,23,15,14,7,0.9,0.6
2026-03-28T2000,2503A,108.655,21.9481,钦州市,沙埠小学,颗粒物(PM10),73,81,51,45,30,50,50,79,76,17,16,6,6,0.8,0.7
2026-03-28T2000,2504A,108.5989,21.7435,钦州市,港区一小,颗粒物(PM10),55,56,59,30,30,54,54,67,67,14,21,3,4,0.6,0.7
2026-03-28T2000,3404A,108.5959,21.9634,钦州市,北职校,NA,NA,NA,46,NA,29,NA,NA,54,NA,NA,17,NA,5,NA,0.6
2026-03-28T2000,1046A,119.5247,39.9346,秦皇岛市,建设大厦,,49,49,63,16,24,88,88,109,108,30,28,7,14,0.3,0.8
2026-03-28T2000,3132A,119.5979,39.938,秦皇岛市,文明里,,40,40,64,16,22,83,83,89,89,23,24,10,17,0.3,0.8
2026-03-28T2000,4066A,119.7458,39.9952,秦皇岛市,南园路157号,,36,36,65,18,26,79,79,91,90,34,49,9,15,0.3,0.8
2026-03-28T2000,4067A,119.5131,39.8858,秦皇岛市,翠岛大街1号,,32,32,57,18,27,82,82,100,99,34,38,9,16,0.4,0.8
2026-03-28T2000,4198A,119.509013,39.825305,秦皇岛市,北戴河轮滑馆,,36,36,64,15,25,55,55,73,69,47,41,10,18,0.4,0.9
2026-03-28T2000,1310A,120.404,36.0625,青岛市,市南区东部子站,细颗粒物(PM2.5),120,107,115,81,80,58,58,137,120,43,23,13,12,0.6,0.7
2026-03-28T2000,1311A,120.362344,36.10282,青岛市,四方区子站,细颗粒物(PM2.5),127,114,123,89,87,88,88,170,149,38,28,9,8,0.8,0.9
2026-03-28T2000,1312A,120.294373,36.054183,青岛市,市南区西部子站,细颗粒物(PM2.5),122,97,109,84,86,58,58,113,107,48,37,6,6,0.7,0.7
2026-03-28T2000,1313A,120.4581,36.0858,青岛市,崂山区子站,细颗粒物(PM2.5),111,105,110,72,71,64,64,132,123,60,32,10,9,0.7,0.8
2026-03-28T2000,1315A,120.3945,36.3083,青岛市,城阳区子站,细颗粒物(PM2.5),140,163,161,104,104,82,82,183,165,37,32,8,8,1.1,1
2026-03-28T2000,3642A,120.3454,36.0735,青岛市,市北区南部,细颗粒物(PM2.5),114,104,120,75,76,78,78,161,132,34,18,5,5,1.0,1
2026-03-28T2000,3643A,120.3897,36.18,青岛市,李沧区北部,细颗粒物(PM2.5),107,105,137,67,90,98,98,163,155,35,34,11,10,0.7,0.8
2026-03-28T2000,4110A,120.5222,36.4089,青岛市,盟旺路653号,细颗粒物(PM2.5),120,121,131,82,83,106,106,176,161,16,10,4,4,0.8,0.9
2026-03-28T2000,4290A,120.196923,35.954556,青岛市,珠江路669号,细颗粒物(PM2.5),117,107,124,78,91,76,76,133,113,33,32,5,7,0.7,0.7
2026-03-28T2000,4291A,120.0424,35.8656,青岛市,黄岛区人民政府广场,细颗粒物(PM2.5),94,83,105,57,72,88,88,123,115,27,29,8,9,0.7,0.7
2026-03-28T2000,1703A,113.0218,23.7086,清远市,凤城街办,细颗粒物(PM2.5),54,48,44,37,33,10,10,30,29,39,35,/,/,/,/
2026-03-28T2000,3025A,113.0479,23.6343,清远市,技师学院,颗粒物(PM10),53,53,45,33,26,6,6,29,21,44,34,6,5,0.4,0.4
2026-03-28T2000,3318A,112.9898,23.7403,清远市,清新太和,细颗粒物(PM2.5),58,53,47,39,29,17,17,36,34,33,29,7,6,0.7,0.6
2026-03-28T2000,3455A,113.076,23.72,清远市,清城东城,,38,38,49,26,32,12,12,23,23,25,30,/,/,/,/
2026-03-28T2000,2661A,107.6325,35.7357,庆阳市,庆阳五中,,50,50,47,14,17,118,118,117,117,16,9,1,2,0.4,0.2
2026-03-28T2000,2662A,107.6361,35.7067,庆阳市,市环保局,,48,48,51,19,19,122,122,116,116,14,12,5,6,0.3,0.3
2026-03-28T2000,1916A,103.7897,25.5036,曲靖市,环境监测站,颗粒物(PM10),57,59,49,37,33,131,131,158,155,13,11,5,5,0.5,0.6
2026-03-28T2000,1917A,103.8013,25.5357,曲靖市,烟厂办公区,,50,50,51,28,32,121,121,144,141,7,12,5,6,0.5,0.6
2026-03-28T2000,3376A,103.7926,25.4651,曲靖市,南苑二区,,41,41,48,28,31,117,117,136,135,13,13,4,4,0.4,0.5
2026-03-28T2000,3377A,103.7442,25.5259,曲靖市,曲靖师范学院,颗粒物(PM10),53,53,56,30,41,130,130,146,144,8,14,3,6,0.4,0.5
2026-03-28T2000,1264A,118.8694,28.94,衢州市,环保大楼,,41,41,42,27,29,75,75,106,106,23,26,/,/,/,/
2026-03-28T2000,1266A,118.8622,28.9809,衢州市,衢州学院,,38,38,34,26,26,65,65,105,100,31,22,4,4,0.6,0.5
2026-03-28T2000,4097A,118.9646,28.9832,衢州市,衢州三中,,42,41,43,29,32,59,59,106,102,32,28,6,6,0.6,0.6
2026-03-28T2000,1611A,118.5818,24.9116,泉州市,涂山街,,40,40,23,23,18,70,70,82,82,25,14,5,4,0.7,0.6
2026-03-28T2000,1612A,118.597,24.8976,泉州市,津头埔,,37,37,23,23,18,79,79,90,90,23,14,5,3,0.7,0.5
2026-03-28T2000,1613A,118.6669,24.9422,泉州市,万安,颗粒物(PM10),52,52,27,22,19,76,76,86,86,20,14,6,4,0.6,0.5
2026-03-28T2000,4105A,118.6355,24.9148,泉州市,霞新路6号,,32,32,24,20,18,71,71,84,84,26,17,/,/,0.6,0.4
2026-03-28T2000,2626A,88.8873,29.2723,日喀则市,日喀则监测站,,34,8,7,3,4,106,106,107,107,6,5,9,8,0.5,0.5
2026-03-28T2000,3726A,88.8775,29.2425,日喀则市,林业技术推广中心,,36,8,11,3,2,113,113,113,113,7,6,9,7,0.5,0.4
2026-03-28T2000,1659A,119.4711,35.421,日照市,监测站,细颗粒物(PM2.5),134,141,170,97,127,96,96,136,129,53,51,15,14,1.0,1.1
2026-03-28T2000,1660A,119.523,35.4216,日照市,市政府广场,细颗粒物(PM2.5),123,114,152,85,118,80,80,122,113,42,28,11,11,0.8,0.8
2026-03-28T2000,1661A,119.5511,35.4113,日照市,港务局,细颗粒物(PM2.5),106,97,140,66,101,40,40,89,69,45,28,6,7,0.7,0.8
2026-03-28T2000,3507A,119.5326,35.4627,日照市,职业技术学院,细颗粒物(PM2.5),128,136,159,90,117,106,106,130,123,45,34,12,11,1.0,1
2026-03-28T2000,3604A,119.3267,35.1043,日照市,岚山环保分局,细颗粒物(PM2.5),128,127,197,90,136,164,164,169,169,43,52,18,39,0.8,2.1
2026-03-28T2000,1835A,111.1922,34.7752,三门峡市,市政府,颗粒物(PM10),61,65,67,38,38,89,89,115,111,28,21,10,14,0.6,0.5
2026-03-28T2000,1836A,111.1588,34.794,三门峡市,开发区,细颗粒物(PM2.5),90,89,85,55,46,99,99,121,118,27,16,10,13,0.6,0.5
2026-03-28T2000,3039A,111.1911,34.7829,三门峡市,三门峡市第一小学,颗粒物(PM10),100,119,72,42,40,98,98,123,120,24,17,12,16,0.6,0.5
2026-03-28T2000,3598A,111.1031,34.719,三门峡市,富达温泉假日酒店,颗粒物(PM10),93,109,79,45,39,76,76,120,116,36,24,16,16,0.4,0.3
2026-03-28T2000,2324A,117.621,26.2626,三明市,三钢,NA,NA,23,26,23,21,36,36,38,38,NA,11,6,6,0.8,0.7
2026-03-28T2000,2325A,117.6352,26.2714,三明市,三明二中,,26,23,23,18,17,44,44,39,39,10,10,4,4,0.8,0.8
2026-03-28T2000,2326A,117.6028,26.2377,三明市,三元区政府,,28,24,24,19,20,44,44,39,39,13,12,8,8,1.0,0.9
2026-03-28T2000,1877A,109.4962,18.2682,三亚市,河西子站,,26,26,24,16,16,42,42,46,46,5,5,4,4,0.4,0.4
2026-03-28T2000,3540A,109.7348,18.3443,三亚市,君悦子站,,29,NA,25,20,13,43,43,48,46,4,7,4,4,0.4,0.4
2026-03-28T2000,4135A,109.1714,18.3739,三亚市,城东小学站,,28,28,24,19,17,42,42,45,44,5,5,/,/,/,/
2026-03-28T2000,2624A,91.7592,29.234,山南市,山南监测站,,38,8,8,3,3,121,121,112,112,4,5,9,8,0.4,0.4
2026-03-28T2000,2625A,91.7701,29.2436,山南市,山南人民医院,,38,10,10,3,5,121,121,113,113,3,4,7,8,0.3,0.3
2026-03-28T2000,1674A,116.6795,23.3666,汕头市,金平子站,,34,28,27,16,18,106,106,110,110,16,14,4,4,0.6,0.6
