timepoint,stationcode,longitude,latitude,area,positionname,primarypollutant,aqi,pm10,pm10_24h,pm2_5,pm2_5_24h,o3,o3_24h,o3_8h,o3_8h_24h,no2,no2_24h,so2,so2_24h,co,co_24h
2023-06-14T11:00:00,1001A,116.3621,39.8784,北京市,万寿西宫,臭氧1小时,67,50,46,22,24,173,173,84,84,25,23,3,3,0.9,0.6
2023-06-14T11:00:00,1002A,116.2202,40.2915,北京市,定陵,臭氧1小时,72,51,30,24,14,177,177,117,98,7,6,4,2,0.7,0.4
2023-06-14T11:00:00,1003A,116.4174,39.9289,北京市,东四,臭氧1小时,78,63,47,36,24,182,182,105,99,28,21,4,3,1.0,0.5
2023-06-14T11:00:00,1004A,116.4072,39.8863,北京市,天坛,臭氧1小时,85,53,49,22,25,188,188,98,98,23,27,4,2,0.8,0.5
2023-06-14T11:00:00,1005A,116.462,39.9365,北京市,农展馆,臭氧1小时,72,57,46,33,25,177,177,105,94,24,22,7,4,0.9,0.5
2023-06-14T11:00:00,1006A,116.3392,39.9295,北京市,官园,臭氧1小时,59,49,43,30,22,167,167,82,82,26,23,5,3,0.9,0.5
2023-06-14T11:00:00,1007A,116.2878,39.9611,北京市,海淀万柳,颗粒物(PM10),60,69,50,40,23,161,161,94,76,32,27,3,2,0.7,0.4
2023-06-14T11:00:00,1008A,116.6636,40.135,北京市,顺义新城,臭氧1小时,67,43,44,25,24,173,173,117,117,17,16,5,3,0.8,0.6
2023-06-14T11:00:00,1009A,116.6275,40.3275,北京市,怀柔镇,臭氧1小时,68,59,38,31,19,174,174,101,101,18,17,4,3,0.7,0.4
2023-06-14T11:00:00,1010A,116.2296,40.217,北京市,昌平镇,臭氧1小时,77,43,37,22,17,181,181,105,104,23,18,2,3,0.6,0.4
2023-06-14T11:00:00,1011A,116.3966,39.9821,北京市,奥体中心,颗粒物(PM10),79,107,65,26,29,147,147,78,78,32,25,3,2,0.9,0.5
2023-06-14T11:00:00,1012A,116.184,39.9136,北京市,古城,颗粒物(PM10),52,54,51,34,21,155,155,83,82,30,24,3,2,0.9,0.6
2023-06-14T11:00:00,1015A,117.1444,39.1661,天津市,勤俭道,臭氧1小时,77,36,29,20,14,181,181,126,115,14,17,8,8,0.5,0.5
2023-06-14T11:00:00,1017A,117.237,39.1082,天津市,大直沽八号路,,49,40,29,22,14,163,154,107,107,17,17,8,7,0.5,0.6
2023-06-14T11:00:00,1018A,117.202,39.0927,天津市,前进道,臭氧1小时,65,44,30,24,15,179,172,111,111,21,21,7,6,0.6,0.6
2023-06-14T11:00:00,1019A,117.1837,39.2133,天津市,淮河道,臭氧1小时,70,37,27,18,12,176,176,118,93,11,19,8,8,0.5,0.5
2023-06-14T11:00:00,1021A,117.307,39.0877,天津市,跃进路,臭氧1小时,65,39,31,19,14,193,172,110,110,14,21,8,9,0.4,0.5
2023-06-14T11:00:00,1023A,117.707,39.0343,天津市,第四大街,,49,18,28,10,14,160,154,104,90,12,26,6,9,0.5,0.7
2023-06-14T11:00:00,1024A,117.457,38.8394,天津市,永明路,臭氧1小时,73,20,29,9,15,182,178,113,113,14,21,8,10,0.6,0.7
2023-06-14T11:00:00,1026A,117.764,39.1587,天津市,汉北路,,50,27,24,16,12,163,158,120,97,20,17,13,8,0.9,0.7
2023-06-14T11:00:00,1027A,117.157,38.9194,天津市,团泊洼,臭氧1小时,53,38,32,26,19,179,162,93,93,28,32,9,6,0.6,0.6
2023-06-14T11:00:00,1029A,114.4422,38.0444,石家庄市,职工医院,臭氧1小时,90,44,53,8,18,206,192,93,82,19,28,9,6,0.8,0.4
2023-06-14T11:00:00,1030A,114.6063,38.0266,石家庄市,高新区,臭氧1小时,74,69,55,13,16,190,179,107,95,29,24,5,7,0.6,0.4
2023-06-14T11:00:00,1031A,114.4898,38.1328,石家庄市,西北水源,臭氧1小时,93,62,60,10,15,194,194,119,90,12,26,6,5,0.5,0.3
2023-06-14T11:00:00,1032A,114.4586,38.0058,石家庄市,西南高教,臭氧1小时,88,59,61,15,21,207,190,96,96,18,23,8,6,0.8,0.5
2023-06-14T11:00:00,1033A,114.5331,38.0178,石家庄市,世纪公园,臭氧1小时,82,57,47,22,20,185,185,97,91,24,23,12,11,1.2,0.5
2023-06-14T11:00:00,1034A,114.509,38.0457,石家庄市,人民会堂,臭氧1小时,99,46,43,24,15,200,199,122,104,25,23,8,7,1.0,0.4
2023-06-14T11:00:00,1035A,114.3524,37.8911,石家庄市,封龙山,臭氧1小时,64,52,49,14,17,206,171,172,158,22,13,9,6,0.7,0.6
2023-06-14T11:00:00,1037A,118.131,39.6363,唐山市,雷达站,,47,37,48,15,28,181,148,91,86,13,15,5,5,0.7,0.9
2023-06-14T11:00:00,1038A,118.1725,39.6334,唐山市,物资局,,42,41,46,29,33,182,128,71,61,19,22,7,6,0.7,0.9
2023-06-14T11:00:00,1040A,118.1705,39.6506,唐山市,十二中,,,31,44,29,32,163,136,69,61,,20,,5,0.6,0.8
2023-06-14T11:00:00,1041A,118.1869,39.622,唐山市,小山,,41,40,46,17,20,181,131,73,73,13,19,8,7,0.7,0.9
2023-06-14T11:00:00,1042A,119.5134,39.8207,秦皇岛市,北戴河环保局,,43,28,24,12,15,150,136,104,104,7,14,5,3,0.6,0.7
2023-06-14T11:00:00,1043A,119.7493,40.0116,秦皇岛市,第一关,颗粒物(PM10),54,58,32,26,17,139,139,53,53,17,49,13,4,1.5,0.4
2023-06-14T11:00:00,1044A,119.5897,39.9499,秦皇岛市,监测站,颗粒物(PM10),58,65,40,16,18,126,126,56,56,16,28,12,5,1.3,0.6
2023-06-14T11:00:00,1046A,119.5251,39.9041,秦皇岛市,建设大厦,,49,49,45,20,21,155,155,75,75,12,32,15,6,1.4,0.6
2023-06-14T11:00:00,1048A,114.5302,36.6116,邯郸市,东污水处理厂,臭氧1小时,93,36,46,17,16,194,194,105,84,12,35,8,5,0.8,0.4
2023-06-14T11:00:00,1049A,114.4918,36.5713,邯郸市,矿院,,,,42,,17,201,188,54,54,7,35,,7,0.5,0.3
2023-06-14T11:00:00,1050A,114.484,36.6133,邯郸市,丛台公园,臭氧1小时,94,31,39,20,17,200,195,100,100,7,20,10,7,0.7,0.5
2023-06-14T11:00:00,1051A,115.493,38.8632,保定市,游泳馆,臭氧1小时,107,49,38,34,18,214,214,128,128,13,14,12,7,0.3,0.1
2023-06-14T11:00:00,1052A,115.5213,38.8959,保定市,华电二区,,,52,41,16,13,200,200,123,123,12,9,12,7,,0.4
2023-06-14T11:00:00,1053A,115.4713,38.9108,保定市,接待中心,臭氧1小时,84,62,45,25,18,187,187,115,115,9,9,7,3,0.7,0.5
2023-06-14T11:00:00,1054A,115.4612,38.8416,保定市,地表水厂,,,,56,,15,193,193,100,100,,25,12,8,,0.2
2023-06-14T11:00:00,1056A,115.5086,38.8639,保定市,监测站,臭氧1小时,103,55,46,21,22,206,206,123,123,26,22,12,6,0.7,0.5
2023-06-14T11:00:00,1057A,114.8883,40.8336,张家口市,人民公园,,41,15,16,2,5,130,130,86,86,9,5,4,3,0.2,0.1
2023-06-14T11:00:00,1059A,114.8687,40.8042,张家口市,五金库,,38,26,17,4,7,121,121,87,87,21,13,3,2,0.4,0.3
2023-06-14T11:00:00,1060A,114.8902,40.762,张家口市,世纪豪园,,42,39,21,13,16,132,132,90,90,11,9,9,5,0.3,0.2
2023-06-14T11:00:00,1061A,114.8916,40.8661,张家口市,北泵房,,44,10,16,3,9,139,139,92,92,7,5,11,10,0.5,0.5
2023-06-14T11:00:00,1062A,117.9531,40.9081,承德市,铁路,,49,40,23,9,7,156,156,80,79,20,21,38,8,0.9,0.3
2023-06-14T11:00:00,1063A,117.9392,40.9763,承德市,中国银行,臭氧1小时,62,21,21,13,9,169,169,80,80,15,17,17,6,0.6,0.3
2023-06-14T11:00:00,1064A,117.9503,40.928,承德市,开发区,,,43,31,21,16,164,164,80,80,,20,34,7,0.9,0.4
2023-06-14T11:00:00,1065A,117.8051,40.9655,承德市,文化中心,,48,46,33,8,9,153,153,78,78,25,29,78,11,1.2,0.4
2023-06-14T11:00:00,1066A,117.9268,41.0026,承德市,离宫,臭氧1小时,58,38,17,7,13,166,166,84,84,12,11,17,7,0.5,0.3
2023-06-14T11:00:00,1067A,116.6708,39.5111,廊坊市,药材公司,臭氧1小时,85,66,46,23,20,188,188,100,91,16,21,7,5,0.5,0.5
2023-06-14T11:00:00,1068A,116.7214,39.5589,廊坊市,开发区,,,,35,,25,184,184,95,71,,28,,6,0.6,0.6
2023-06-14T11:00:00,1070A,116.7244,39.5269,廊坊市,北华航天学院,臭氧1小时,82,84,49,35,22,185,185,92,82,15,23,8,6,0.5,0.5
2023-06-14T11:00:00,1071A,116.8842,38.2991,沧州市,沧县城建局,臭氧1小时,59,48,39,28,21,201,167,99,99,17,26,10,10,0.4,0.5
2023-06-14T11:00:00,1072A,116.8584,38.3254,沧州市,电视转播站,,,28,38,22,15,206,172,100,100,,25,9,5,0.3,0.3
2023-06-14T11:00:00,1073A,116.8709,38.3228,沧州市,市环保局,,50,33,36,14,20,196,159,108,102,25,26,10,8,0.2,0.3
2023-06-14T11:00:00,1074A,115.6838,37.7541,衡水市,电机北厂,臭氧1小时,108,80,50,15,11,215,215,136,136,8,14,6,4,0.6,0.5
2023-06-14T11:00:00,1075A,115.6303,37.7316,衡水市,市监测站,臭氧1小时,107,66,52,23,15,213,213,122,122,12,17,7,5,0.7,0.6
2023-06-14T11:00:00,1077A,114.4704,37.0886,邢台市,达活泉,臭氧1小时,90,74,70,22,19,200,192,75,75,19,34,25,49,2.1,0.9
2023-06-14T11:00:00,1078A,114.5062,37.0349,邢台市,邢师高专,颗粒物(PM10),61,71,77,20,21,195,156,57,57,26,48,39,11,1.4,0.9
2023-06-14T11:00:00,1079A,114.5237,37.0851,邢台市,路桥公司,,,78,65,28,20,191,161,65,43,38,36,,10,,0.9
2023-06-14T11:00:00,1080A,114.4725,37.0719,邢台市,市环保局,,,,69,31,21,212,173,80,74,38,36,,10,3.2,0.9
2023-06-14T11:00:00,1081A,112.522,37.8873,太原市,尖草坪,,,76,47,26,14,164,116,74,74,,33,12,7,,0.5
2023-06-14T11:00:00,1083A,112.434,38.0108,太原市,上兰,,38,38,30,12,14,149,117,101,81,9,9,8,6,0.4,0.4
2023-06-14T11:00:00,1084A,112.469,37.7124,太原市,晋源,细颗粒物(PM2.5),77,102,44,56,21,171,136,72,72,35,37,22,9,0.9,0.5
2023-06-14T11:00:00,1085A,112.5583,37.7394,太原市,小店,,,109,61,58,22,157,135,38,38,33,57,20,9,,0.5
2023-06-14T11:00:00,1086A,112.5369,37.8692,太原市,桃园,颗粒物(PM10),53,55,40,29,17,157,120,63,63,31,38,14,9,0.5,0.5
2023-06-14T11:00:00,1087A,112.57,37.8195,太原市,坞城,颗粒物(PM10),70,89,45,35,18,155,110,60,60,45,48,17,10,0.9,0.7
2023-06-14T11:00:00,1088A,112.549,37.9854,太原市,南寨,颗粒物(PM10),51,52,48,16,15,154,118,41,41,26,39,21,6,0.6,0.4
2023-06-14T11:00:00,1090A,111.6507,40.7517,呼和浩特市,呼市一监,,,,35,31,9,148,121,60,58,,25,10,7,,0.4
2023-06-14T11:00:00,1091A,111.6572,40.8033,呼和浩特市,小召,颗粒物(PM10),53,56,30,24,11,145,126,66,66,24,28,14,9,0.4,0.4
2023-06-14T11:00:00,1094A,111.7516,40.8369,呼和浩特市,如意水处理厂,,49,49,33,15,11,149,146,66,66,18,27,15,8,0.4,0.4
2023-06-14T11:00:00,1095A,111.7276,40.8062,呼和浩特市,二十九中,颗粒物(PM10),89,128,46,23,12,149,138,63,63,22,30,12,6,0.4,0.3
2023-06-14T11:00:00,1096A,111.5512,40.7866,呼和浩特市,工大金川校区,颗粒物(PM10),66,81,34,27,9,151,101,52,52,28,29,24,7,0.5,0.4
2023-06-14T11:00:00,1097A,111.717,40.7612,呼和浩特市,化肥厂生活区,颗粒物(PM10),81,111,44,29,12,124,102,64,58,42,26,13,10,0.3,0.3
2023-06-14T11:00:00,1098A,123.6836,41.9339,沈阳市,森林路,,,,,,,,,,,,,,,,
2023-06-14T11:00:00,1099A,123.505,41.7406,沈阳市,浑南东路,颗粒物(PM10),52,53,41,30,26,169,151,44,44,25,50,20,11,0.9,0.9
2023-06-14T11:00:00,1100A,123.4231,41.6989,沈阳市,新秀街,颗粒物(PM10),53,55,42,24,22,177,161,52,52,15,47,19,14,0.9,0.9
2023-06-14T11:00:00,1102A,123.5903,41.8411,沈阳市,东陵路,,,,52,,27,168,147,38,38,,26,16,13,1.0,1
2023-06-14T11:00:00,1103A,123.4264,41.8467,沈阳市,陵东街,颗粒物(PM10),52,53,40,33,25,168,142,49,49,32,43,15,9,1.0,0.9
2023-06-14T11:00:00,1104A,123.4114,41.7653,沈阳市,文化路,细颗粒物(PM2.5),74,70,49,54,34,174,146,55,55,32,42,20,14,1.1,1
2023-06-14T11:00:00,1105A,123.4678,41.7867,沈阳市,小河沿,颗粒物(PM10),53,55,40,31,23,161,138,44,44,34,43,20,10,0.9,0.8
2023-06-14T11:00:00,1106A,123.4017,41.7972,沈阳市,太原街,颗粒物(PM10),60,69,47,34,28,172,157,57,57,27,45,15,11,0.8,0.8
2023-06-14T11:00:00,1108A,123.3783,41.9228,沈阳市,京沈街,,,69,48,47,29,169,157,62,62,,41,13,10,0.8,0.8
2023-06-14T11:00:00,1109A,121.612,38.9741,大连市,甘井子,,40,20,29,11,15,133,126,94,94,25,16,5,5,0.7,0.7
2023-06-14T11:00:00,1110A,121.565,38.9511,大连市,周水子,,40,20,29,8,14,137,128,91,91,21,24,4,4,0.4,0.4
2023-06-14T11:00:00,1111A,121.5637,38.8845,大连市,星海三站,,37,20,25,13,12,136,116,112,109,16,13,5,4,0.4,0.4
2023-06-14T11:00:00,1112A,121.6302,38.9117,大连市,青泥洼桥,,43,10,18,8,16,140,136,96,96,9,16,5,5,0.6,0.6
2023-06-14T11:00:00,1113A,121.6251,38.8638,大连市,傅家庄,,32,19,24,13,14,142,100,100,98,19,15,7,7,0.7,0.7
2023-06-14T11:00:00,1114A,121.5213,38.8661,大连市,七贤岭,,,,25,,13,156,141,116,112,,10,6,5,,0.3
2023-06-14T11:00:00,1115A,121.2529,38.8061,大连市,旅顺,,37,19,21,7,12,142,117,114,93,16,15,6,6,0.5,0.5
2023-06-14T11:00:00,1116A,121.7485,39.1311,大连市,金州,,46,12,22,5,15,152,145,93,93,12,14,8,8,0.8,0.8
2023-06-14T11:00:00,1117A,121.7811,39.0496,大连市,开发区,,40,23,28,16,18,142,128,103,103,28,20,7,6,0.6,0.6
2023-06-14T11:00:00,1118A,121.9762,39.0631,大连市,双D港,,44,30,26,26,16,143,138,114,114,21,17,8,8,0.5,0.4
2023-06-14T11:00:00,1119A,125.3325,43.9166,长春市,食品厂,,,49,55,10,34,160,134,56,56,20,54,7,7,,0.6
2023-06-14T11:00:00,1120A,125.2863,43.9027,长春市,客车厂,,,,41,,24,149,141,50,50,,51,3,4,,0.6
2023-06-14T11:00:00,1121A,125.2841,43.8463,长春市,邮电学院,,42,14,31,8,15,145,134,64,64,13,35,5,5,0.4,0.6
2023-06-14T11:00:00,1122A,125.3716,43.8772,长春市,劳动公园,,42,18,42,7,17,164,134,54,54,18,46,6,6,0.4,0.6
2023-06-14T11:00:00,1123A,125.3297,43.8805,长春市,园林处,,49,49,39,7,16,150,134,63,63,16,43,6,6,0.4,0.6
2023-06-14T11:00:00,1124A,125.4605,43.79,长春市,净月潭,,,,20,,13,151,127,38,33,12,16,,4,0.3,0.4
2023-06-14T11:00:00,1125A,125.7194,43.515,长春市,甩湾子,,,,,,,,,,,,,,,,
2023-06-14T11:00:00,1126A,125.3863,43.8447,长春市,经开区环卫处,,40,17,44,6,17,156,128,36,36,18,54,6,6,0.4,0.6
2023-06-14T11:00:00,1127A,125.245,43.7783,长春市,高新区管委会,,46,8,34,6,14,158,145,54,54,7,40,6,5,0.3,0.4
2023-06-14T11:00:00,1128A,125.1761,43.8325,长春市,岱山公园,,45,12,35,6,17,164,142,64,64,15,55,5,5,0.3,0.4
2023-06-14T11:00:00,1129A,126.5422,45.755,哈尔滨市,岭北,臭氧1小时,52,9,22,8,15,168,161,114,114,9,21,24,21,0.5,0.3
2023-06-14T11:00:00,1130A,126.561,45.8167,哈尔滨市,松北商大,,47,18,34,7,14,163,150,84,84,10,35,6,6,0.4,0.5
2023-06-14T11:00:00,1131A,126.979,45.5419,哈尔滨市,阿城会宁,,43,18,46,8,19,153,137,56,56,19,36,9,9,0.5,0.5
2023-06-14T11:00:00,1132A,126.599,45.7222,哈尔滨市,南岗学府路,,48,29,41,8,15,164,152,72,72,7,37,8,9,0.3,0.4
2023-06-14T11:00:00,1133A,126.689,45.7733,哈尔滨市,太平宏伟公园,臭氧1小时,53,10,38,10,24,175,162,83,73,13,39,7,7,0.3,0.5
2023-06-14T11:00:00,1134A,126.635,45.7667,哈尔滨市,道外承德广场,,48,21,37,5,10,170,151,85,85,19,37,5,7,0.6,0.5
2023-06-14T11:00:00,1135A,126.685,45.7319,哈尔滨市,香坊红旗大街,,47,35,44,4,23,170,149,54,54,15,51,7,10,0.3,0.5
2023-06-14T11:00:00,1136A,126.6411,45.7258,哈尔滨市,动力和平路,,,19,40,,12,166,150,62,62,15,49,8,8,0.4,0.5
2023-06-14T11:00:00,1137A,126.593,45.7478,哈尔滨市,道里建国路,,,,32,,13,159,149,71,71,,43,,6,0.5,0.5
2023-06-14T11:00:00,1138A,126.615,45.61,哈尔滨市,平房东轻厂,,47,20,37,7,12,164,149,53,53,9,54,6,6,0.5,0.5
2023-06-14T11:00:00,1139A,126.595,45.9855,哈尔滨市,呼兰师专,,50,30,30,7,10,169,157,110,110,11,21,10,10,0.3,0.3
2023-06-14T11:00:00,1140A,126.6206,45.6842,哈尔滨市,省农科院,,50,17,38,6,14,173,159,69,69,10,51,9,10,0.3,0.4
2023-06-14T11:00:00,1141A,121.4,31.238,上海市,普陀,,49,40,20,34,15,138,138,57,57,18,25,5,4,0.6,0.4
2023-06-14T11:00:00,1142A,121.478,31.2036,上海市,十五厂,,48,39,27,33,19,130,130,46,46,20,29,6,6,0.6,0.5
2023-06-14T11:00:00,1143A,121.467,31.3008,上海市,虹口,颗粒物(PM10),56,61,27,34,14,129,129,51,51,23,27,6,6,0.9,0.5
2023-06-14T11:00:00,1144A,121.412,31.1654,上海市,徐汇上师大,,50,38,27,35,18,137,137,54,54,17,24,8,7,0.7,0.5
2023-06-14T11:00:00,1145A,121.536,31.2659,上海市,杨浦四漂,,46,39,21,32,15,126,126,46,46,22,31,6,6,0.9,0.7
2023-06-14T11:00:00,1147A,121.425,31.2261,上海市,静安监测站,,48,48,27,28,12,137,137,56,56,18,25,5,4,0.7,0.5
2023-06-14T11:00:00,1148A,121.703,31.1907,上海市,浦东川沙,,49,38,26,34,18,106,106,44,44,22,17,6,5,0.5,0.4
2023-06-14T11:00:00,1149A,121.533,31.2284,上海市,浦东新区监测站,颗粒物(PM10),59,67,35,29,14,135,135,56,56,17,21,7,6,0.5,0.3
2023-06-14T11:00:00,1150A,121.577,31.2071,上海市,浦东张江,,46,41,27,32,18,110,110,35,35,20,24,5,5,0.6,0.5
2023-06-14T11:00:00,1151A,118.8086,32.1065,南京市,迈皋桥,臭氧1小时,104,56,59,27,28,230,207,112,112,3,26,4,4,0.4,0.6
2023-06-14T11:00:00,1152A,118.7538,32.0551,南京市,草场门,臭氧1小时,98,48,57,31,34,253,198,105,105,13,31,6,8,0.7,0.9
2023-06-14T11:00:00,1153A,118.7794,32.0745,南京市,山西路,臭氧1小时,98,58,63,31,29,235,198,118,118,10,22,10,8,0.4,0.6
2023-06-14T11:00:00,1154A,118.7752,32.0023,南京市,中华门,臭氧1小时,89,53,51,22,30,226,191,101,101,10,25,6,6,0.8,1
2023-06-14T11:00:00,1155A,118.8109,32.0309,南京市,瑞金路,,,58,61,,32,232,194,106,95,11,29,8,5,0.5,0.6
2023-06-14T11:00:00,1156A,118.7997,32.0754,南京市,玄武湖,,,,46,,29,216,192,100,100,11,21,,8,,0.6
2023-06-14T11:00:00,1157A,118.6414,32.0931,南京市,浦口,臭氧1小时,99,62,42,29,26,223,199,124,124,12,16,9,8,0.8,0.7
2023-06-14T11:00:00,1158A,118.7356,31.9996,南京市,奥体中心,臭氧1小时,87,60,66,29,38,270,189,89,89,11,34,9,10,0.7,1
2023-06-14T11:00:00,1159A,118.9125,32.1028,南京市,仙林大学城,臭氧1小时,103,68,53,29,29,206,205,115,115,14,23,11,8,0.8,0.9
2023-06-14T11:00:00,1160A,120.561,31.2472,苏州市,上方山,,,51,40,22,18,127,127,57,57,12,21,,5,0.4,0.3
2023-06-14T11:00:00,1162A,120.591,31.3019,苏州市,彩香,臭氧1小时,83,40,42,25,28,186,186,68,68,11,19,7,6,0.7,0.6
2023-06-14T11:00:00,1163A,120.596,31.3264,苏州市,轧钢厂,臭氧1小时,90,46,44,26,25,192,192,72,72,11,18,5,4,0.8,0.7
2023-06-14T11:00:00,1164A,120.613,31.2703,苏州市,吴中区,,,36,40,23,23,185,185,68,68,11,23,8,7,,0.7
2023-06-14T11:00:00,1165A,120.543,31.2994,苏州市,苏州新区,臭氧1小时,90,44,44,26,28,192,192,75,75,10,19,7,6,0.8,0.7
2023-06-14T11:00:00,1166A,120.669,31.3097,苏州市,苏州工业园区,臭氧1小时,70,24,42,12,25,176,176,67,67,12,23,9,8,0.7,0.6
2023-06-14T11:00:00,1167A,120.641,31.3708,苏州市,相城区,,,,34,,25,180,180,60,60,,22,9,7,,0.7
2023-06-14T11:00:00,1168A,120.9098,31.9663,南通市,狼山街道,,,,,,,,,,,,,,,,
2023-06-14T11:00:00,1169A,120.86,32.0005,南通市,虹桥,,,,35,,25,176,176,38,38,46,30,,10,1.7,0.8
2023-06-14T11:00:00,1170A,120.87,32.02,南通市,城中,臭氧1小时,85,74,41,51,28,188,188,52,52,31,24,16,10,1.1,0.6
2023-06-14T11:00:00,1171A,120.94,31.93,南通市,星湖花园,臭氧1小时,57,51,31,39,15,165,165,49,49,32,24,14,6,1.3,0.5
2023-06-14T11:00:00,1172A,120.81,32.0417,南通市,紫琅学院,"细颗粒物(PM2.5),臭氧1小时",62,65,40,44,23,169,169,43,43,47,30,13,6,1.0,0.7
2023-06-14T11:00:00,1173A,119.176,34.5885,连云港市,市环境监测站,,,29,44,9,20,200,153,124,112,,17,8,9,0.6,0.6
2023-06-14T11:00:00,1177A,117.179,34.2761,徐州市,黄河新村,臭氧1小时,99,80,71,32,39,209,199,102,97,19,27,14,12,0.9,0.8
2023-06-14T11:00:00,1178A,117.1918,34.2384,徐州市,淮塔,臭氧1小时,100,66,71,32,33,218,200,95,95,19,26,15,12,0.8,0.6
2023-06-14T11:00:00,1180A,117.256,34.2153,徐州市,新城区,臭氧1小时,101,73,77,32,35,231,201,113,113,17,24,12,9,0.7,0.6
2023-06-14T11:00:00,1181A,117.244,34.2911,徐州市,桃园路,臭氧1小时,92,73,80,37,41,219,193,93,93,20,30,16,12,0.7,0.7
2023-06-14T11:00:00,1182A,117.2933,34.2778,徐州市,农科院,,,83,73,46,45,223,195,79,79,,43,16,10,0.8,0.7
2023-06-14T11:00:00,1186A,119.389,32.3761,扬州市,邗江监测站,臭氧1小时,85,61,58,24,32,210,188,112,112,15,25,9,8,0.6,0.8
2023-06-14T11:00:00,1188A,120.269,31.4867,无锡市,雪浪,臭氧1小时,102,78,42,44,25,204,204,86,86,8,16,8,3,1.1,0.7
2023-06-14T11:00:00,1189A,120.275,31.6219,无锡市,黄巷,臭氧1小时,110,68,51,31,24,220,220,82,82,18,34,8,6,1.4,0.9
2023-06-14T11:00:00,1190A,120.294,31.56,无锡市,曹张,臭氧1小时,102,57,36,36,22,203,203,77,77,14,23,8,4,1.2,0.7
2023-06-14T11:00:00,1191A,120.242,31.5031,无锡市,漆塘,臭氧1小时,90,73,40,41,24,192,192,72,72,7,15,9,5,0.7,0.4
2023-06-14T11:00:00,1192A,120.3489,31.5863,无锡市,东亭,臭氧1小时,113,70,42,39,24,226,226,88,88,16,24,13,10,1.2,0.7
2023-06-14T11:00:00,1193A,120.354,31.5475,无锡市,旺庄,臭氧1小时,107,70,38,41,20,214,214,86,86,18,26,12,8,1.0,0.6
2023-06-14T11:00:00,1194A,120.245,31.5631,无锡市,荣巷,臭氧1小时,100,66,40,39,25,200,200,81,81,11,19,13,8,0.9,0.6
2023-06-14T11:00:00,1195A,120.299,31.6817,无锡市,堰桥,臭氧1小时,107,63,42,34,25,214,214,74,74,19,26,13,7,1.2,0.9
2023-06-14T11:00:00,1196A,119.9633,31.762,常州市,市监测站,,,,58,,35,208,208,82,82,13,29,,9,0.7,0.6
2023-06-14T11:00:00,1200A,119.9468,31.7069,常州市,武进监测站,臭氧1小时,102,48,65,38,35,204,204,92,92,13,24,10,8,0.8,0.7
2023-06-14T11:00:00,1201A,119.9255,31.9087,常州市,安家,,,48,81,,45,196,196,72,72,,37,10,10,0.8,0.9
2023-06-14T11:00:00,1203A,119.6707,32.1875,镇江市,新区办事处,臭氧1小时,95,42,53,20,39,205,196,103,103,28,26,9,5,1.0,1.1
2023-06-14T11:00:00,1204A,119.4974,32.1968,镇江市,职教中心,臭氧1小时,118,47,49,30,39,235,235,134,134,23,19,3,5,1.0,1.1
2023-06-14T11:00:00,1205A,119.4303,32.1328,镇江市,丹徒区监测站,臭氧1小时,110,55,49,25,40,227,220,117,117,17,16,12,7,0.8,0.8
2023-06-14T11:00:00,1206A,119.905,32.4878,泰州市,公园路,臭氧1小时,103,58,52,36,39,206,206,102,102,12,19,11,9,0.8,0.9
2023-06-14T11:00:00,1207A,119.9189,32.4625,泰州市,莲花,臭氧1小时,103,63,59,31,37,206,206,114,114,12,19,12,10,0.5,0.6
2023-06-14T11:00:00,1209A,119.888,32.4639,泰州市,留学生创业园,臭氧1小时,102,20,45,17,32,203,203,101,101,12,19,11,9,0.4,0.6
2023-06-14T11:00:00,1210A,119.036,33.5981,淮安市,钵池山,"颗粒物(PM10),臭氧1小时",53,56,50,27,32,203,162,99,85,13,19,9,9,0.7,0.8
2023-06-14T11:00:00,1211A,119.007,33.575,淮安市,北京南路,臭氧1小时,63,53,54,27,39,204,170,94,86,18,25,12,11,0.6,0.7
2023-06-14T11:00:00,1212A,118.989,33.6067,淮安市,市监测站,臭氧1小时,82,58,59,24,30,220,185,104,85,12,23,10,11,0.6,0.7
2023-06-14T11:00:00,1213A,119.135,33.5039,淮安市,楚州区监测站,臭氧1小时,58,56,54,22,28,210,166,85,85,12,20,9,7,0.7,0.7
2023-06-14T11:00:00,1214A,119.0186,33.6297,淮安市,淮阴区监测站,臭氧1小时,72,62,57,26,33,206,177,102,83,13,23,9,9,0.5,0.5
2023-06-14T11:00:00,1215A,120.118,33.4022,盐城市,盐城电厂,颗粒物(PM10),63,75,40,33,15,199,146,97,62,11,10,4,4,0.6,0.4
2023-06-14T11:00:00,1216A,120.156,33.3942,盐城市,市监测站,颗粒物(PM10),70,89,40,41,16,174,137,89,56,12,15,11,8,0.5,0.3
2023-06-14T11:00:00,1218A,120.2144,33.38,盐城市,开发区管委会,细颗粒物(PM2.5),63,68,37,45,5,177,136,66,51,18,18,8,5,0.7,0.5
2023-06-14T11:00:00,1220A,118.293,33.9528,宿迁市,宿迁学院,臭氧1小时,103,60,54,38,36,215,206,113,113,14,22,17,11,0.6,0.5
2023-06-14T11:00:00,1221A,118.2442,33.9592,宿迁市,宿迁中学,臭氧1小时,109,64,61,42,34,226,218,120,120,15,19,18,10,0.6,0.4
2023-06-14T11:00:00,1223A,120.2072,30.2111,杭州市,滨江,,50,40,48,16,24,176,157,73,73,12,18,7,6,0.6,0.5
2023-06-14T11:00:00,1224A,120.0633,30.2747,杭州市,西溪,,48,33,49,15,26,184,153,57,57,17,20,8,8,0.4,0.4
2023-06-14T11:00:00,1226A,120.3461,30.3153,杭州市,下沙,,49,34,34,18,21,167,155,52,52,11,23,5,4,0.5,0.4
2023-06-14T11:00:00,1227A,120.1269,30.2456,杭州市,卧龙桥,,50,27,40,20,31,183,160,58,58,12,19,6,6,0.6,0.6
2023-06-14T11:00:00,1228A,120.1903,30.2692,杭州市,浙江农大,,48,24,34,15,21,169,152,64,64,18,19,6,6,0.4,0.4
2023-06-14T11:00:00,1230A,120.1197,30.3119,杭州市,和睦小学,,,,44,20,27,171,158,59,59,20,24,,6,0.5,0.5
2023-06-14T11:00:00,1231A,120.3019,30.4183,杭州市,临平镇,颗粒物(PM10),68,85,74,33,27,175,158,65,65,15,14,5,4,0.5,0.4
2023-06-14T11:00:00,1232A,120.2697,30.1819,杭州市,城厢镇,,48,37,43,20,26,168,153,64,64,18,23,4,4,0.5,0.5
2023-06-14T11:00:00,1233A,120.0883,30.1808,杭州市,云栖,,,30,43,16,23,185,157,54,54,11,23,8,8,,0.8
2023-06-14T11:00:00,1234A,121.8358,29.911,宁波市,区环保大楼,,,33,20,26,15,70,62,19,19,,31,,6,0.7,0.6
2023-06-14T11:00:00,1235A,121.56,29.82,宁波市,万里学院,,39,32,27,27,26,146,120,62,62,23,29,4,4,0.6,0.5
2023-06-14T11:00:00,1236A,121.713,29.9572,宁波市,龙赛医院,颗粒物(PM10),53,55,30,27,15,106,106,36,36,35,25,6,6,0.5,0.4
2023-06-14T11:00:00,1239A,121.633,29.7733,宁波市,钱湖水厂,,40,27,17,28,14,120,120,50,50,12,11,5,5,0.5,0.4
2023-06-14T11:00:00,1240A,121.5856,29.8635,宁波市,太古小学,,40,28,27,25,23,128,128,60,60,15,28,8,8,0.7,0.7
2023-06-14T11:00:00,1241A,121.524,29.8674,宁波市,市环境监测中心,,40,22,30,13,15,128,125,52,52,13,22,4,4,0.5,0.5
2023-06-14T11:00:00,1242A,120.634,28.0089,温州市,瓯海,,32,24,28,16,18,133,100,75,51,22,26,8,7,0.5,0.4
2023-06-14T11:00:00,1243A,120.6748,27.9939,温州市,南浦,,30,28,27,15,10,123,93,76,70,18,13,6,4,0.5,0.4
2023-06-14T11:00:00,1244A,120.76,27.9747,温州市,龙湾,,,21,26,14,11,103,102,63,55,14,21,,6,,0.5
2023-06-14T11:00:00,1245A,120.6709,28.0167,温州市,市站,,32,24,29,22,17,103,86,65,59,23,26,5,5,0.5,0.4
2023-06-14T11:00:00,1247A,120.6053,29.9928,绍兴市,城东开发委,细颗粒物(PM2.5),52,44,44,36,28,135,135,51,51,15,18,7,8,0.7,0.6
2023-06-14T11:00:00,1250A,120.0751,30.8669,湖州市,城西水厂,颗粒物(PM10),60,69,38,33,24,160,160,63,63,36,28,12,6,0.7,0.4
2023-06-14T11:00:00,1252A,120.7436,30.778,嘉兴市,清河小学,,45,45,25,31,16,147,139,69,69,15,16,6,6,0.6,0.4
2023-06-14T11:00:00,1253A,120.726,30.7478,嘉兴市,嘉兴学院,,47,40,27,32,21,153,150,72,72,16,20,4,3,0.4,0.3
2023-06-14T11:00:00,1255A,121.273,28.6459,台州市,黄岩环保大楼,,,21,26,15,16,110,109,82,75,,12,5,5,0.3,0.3
2023-06-14T11:00:00,1256A,121.419,28.6542,台州市,台州环保大楼,,33,18,18,13,12,103,103,91,71,14,12,6,3,0.6,0.4
2023-06-14T11:00:00,1257A,121.377,28.5773,台州市,路桥田洋王,,35,34,18,24,13,103,103,84,75,18,14,6,5,0.5,0.4
2023-06-14T11:00:00,1258A,122.122,30.0203,舟山市,定海檀枫,,28,20,16,19,12,84,84,38,38,16,6,6,5,0.5,0.3
2023-06-14T11:00:00,1259A,122.3094,29.9558,舟山市,普陀东港,,,,16,,16,70,43,42,36,6,4,82,8,,0.3
2023-06-14T11:00:00,1260A,122.19,29.9944,舟山市,临城新区,,25,25,23,16,18,73,49,36,33,15,8,5,3,0.3,0.4
2023-06-14T11:00:00,1262A,119.647,29.077,金华市,十五中,细颗粒物(PM2.5),67,51,58,48,41,225,145,100,74,21,22,5,5,0.6,0.5
2023-06-14T11:00:00,1263A,119.686,29.1029,金华市,监测站,,,58,46,37,36,219,125,76,67,18,20,,5,,0.6
2023-06-14T11:00:00,1264A,118.8692,28.9398,衢州市,环保大楼,细颗粒物(PM2.5),69,54,42,50,27,169,131,49,49,24,22,5,3,1.2,0.6
2023-06-14T11:00:00,1265A,118.8709,28.9666,衢州市,实验学校,,,66,55,33,27,176,130,58,57,17,18,,5,,0.5
2023-06-14T11:00:00,1266A,118.8621,28.9808,衢州市,衢州学院,颗粒物(PM10),51,52,42,28,28,169,132,53,53,17,22,9,7,0.7,0.5
2023-06-14T11:00:00,1267A,119.914,28.4514,丽水市,监测站大楼,,35,33,34,10,22,146,110,83,64,10,14,5,5,0.4,0.4
2023-06-14T11:00:00,1268A,119.93,28.4586,丽水市,莲都小学,,38,32,34,18,18,151,120,104,84,8,12,5,5,0.5,0.5
2023-06-14T11:00:00,1269A,119.879,28.4231,丽水市,余庄前,,,,40,,23,149,118,50,50,9,16,6,5,,0.5
2023-06-14T11:00:00,1270A,117.1959,31.7848,合肥市,明珠广场,臭氧1小时,88,51,63,24,34,222,190,103,103,15,32,6,6,0.6,0.7
2023-06-14T11:00:00,1271A,117.3072,31.8764,合肥市,三里街,臭氧1小时,88,41,55,24,30,216,190,129,126,13,22,6,6,0.5,0.6
2023-06-14T11:00:00,1272A,117.2588,31.8707,合肥市,琥珀山庄,臭氧1小时,88,41,57,22,33,219,190,115,115,12,24,5,5,0.6,0.7
2023-06-14T11:00:00,1273A,117.1604,31.9052,合肥市,董铺水库,臭氧1小时,58,39,54,22,31,198,166,89,89,11,21,3,3,0.4,0.5
2023-06-14T11:00:00,1274A,117.25,31.8571,合肥市,长江中路,,,48,57,25,34,211,182,138,123,6,16,12,12,,0.7
2023-06-14T11:00:00,1275A,117.266,31.9436,合肥市,庐阳区,臭氧1小时,60,56,62,24,34,189,168,101,101,12,20,8,7,0.5,0.6
2023-06-14T11:00:00,1276A,117.336,31.8586,合肥市,瑶海区,臭氧1小时,78,48,60,20,28,207,182,132,128,11,19,9,9,0.5,0.6
2023-06-14T11:00:00,1277A,117.3027,31.7964,合肥市,包河区,臭氧1小时,80,51,69,22,39,204,184,96,96,11,41,6,6,0.5,0.7
2023-06-14T11:00:00,1278A,117.2776,31.7385,合肥市,滨湖新区,,,51,64,24,32,203,182,99,73,18,41,,8,0.6,0.7
2023-06-14T11:00:00,1279A,117.1318,31.8403,合肥市,高新区,臭氧1小时,75,53,58,24,34,203,180,141,114,8,16,6,8,0.5,0.6
2023-06-14T11:00:00,1280A,119.3903,26.0543,福州市,鼓山,,,,,,,,,,,,,,,,
2023-06-14T11:00:00,1282A,119.2681,26.0504,福州市,师大,颗粒物(PM10),59,68,43,32,19,190,47,76,54,28,12,5,6,0.4,0.4
2023-06-14T11:00:00,1283A,119.2984,26.1028,福州市,五四北路,,49,49,44,28,21,209,67,80,61,22,16,4,3,0.4,0.4
2023-06-14T11:00:00,1284A,119.2648,26.0768,福州市,杨桥西路,,,58,44,29,20,185,42,72,51,26,14,4,4,,0.5
2023-06-14T11:00:00,1285A,119.317,26.0746,福州市,紫阳,颗粒物(PM10),57,63,43,37,20,198,42,86,50,33,16,3,3,0.5,0.4
2023-06-14T11:00:00,1286A,118.1608,24.8169,厦门市,溪东,,,,,,,,,,,,,,,,
2023-06-14T11:00:00,1287A,118.1514,24.4767,厦门市,洪文,细颗粒物(PM2.5),58,56,33,41,17,165,50,50,46,27,17,3,2,0.6,0.4
2023-06-14T11:00:00,1288A,118.0661,24.4444,厦门市,鼓浪屿,细颗粒物(PM2.5),54,56,38,38,23,157,68,62,44,20,16,6,5,0.7,0.5
2023-06-14T11:00:00,1290A,115.8931,28.6843,南昌市,省外办,,50,50,42,31,27,145,144,92,92,16,18,10,8,0.7,0.6
2023-06-14T11:00:00,1291A,115.8886,28.7003,南昌市,省林业公司,,,56,36,29,28,147,141,68,68,15,21,,6,,0.4
2023-06-14T11:00:00,1292A,115.8126,28.7442,南昌市,林科所,,49,36,25,19,18,155,154,103,103,16,28,10,8,0.7,0.7
2023-06-14T11:00:00,1294A,115.8518,28.687,南昌市,建工学校,,45,45,46,19,25,142,142,96,96,11,17,15,12,0.6,0.5
2023-06-14T11:00:00,1295A,115.8921,28.6424,南昌市,象湖,颗粒物(PM10),51,51,39,30,27,147,136,86,86,13,14,7,9,0.5,0.5
2023-06-14T11:00:00,1296A,115.7423,28.7996,南昌市,武术学校,,50,16,18,9,13,157,157,54,54,5,2,8,7,0.5,0.5
2023-06-14T11:00:00,1298A,115.9314,28.6842,南昌市,省站,,44,38,44,30,26,146,140,80,80,16,20,10,9,0.7,0.6
2023-06-14T11:00:00,1299A,116.9862,36.6114,济南市,科干所,,50,17,44,7,19,247,159,103,103,7,21,4,6,0.3,0.5
2023-06-14T11:00:00,1300A,116.9376,36.665,济南市,农科所,,50,22,50,5,14,246,159,85,85,11,28,3,4,0.3,0.4
2023-06-14T11:00:00,1301A,117.1265,36.6734,济南市,开发区,臭氧1小时,54,24,43,7,15,248,163,108,108,15,23,4,6,0.5,0.6
2023-06-14T11:00:00,1303A,117.0624,36.6868,济南市,省种子仓库,臭氧1小时,70,29,47,7,17,254,176,86,86,15,28,3,4,0.4,0.5
2023-06-14T11:00:00,1304A,116.9489,36.6447,济南市,机床二厂,臭氧1小时,55,29,55,12,17,256,164,99,99,12,24,4,6,0.3,0.4
2023-06-14T11:00:00,1305A,117.0495,36.663,济南市,市监测站,臭氧1小时,83,27,43,12,17,267,186,108,108,24,31,5,8,0.3,0.3
2023-06-14T11:00:00,1306A,116.7675,36.5484,济南市,长清党校,臭氧1小时,68,27,51,12,24,244,174,119,119,13,27,9,9,0.6,0.6
2023-06-14T11:00:00,1307A,120.6659,36.2403,青岛市,仰口,,27,24,26,14,17,151,86,92,89,7,10,3,4,0.5,0.5
2023-06-14T11:00:00,1310A,120.4134,36.0658,青岛市,市南区东部子站,,,24,34,,17,178,104,122,86,7,22,7,7,0.3,0.5
2023-06-14T11:00:00,1311A,120.3664,36.1032,青岛市,四方区子站,,46,46,42,24,24,178,131,120,91,21,37,6,5,0.6,0.7
2023-06-14T11:00:00,1312A,120.2994,36.054,青岛市,市南区西部子站,,34,24,37,10,19,163,106,141,86,8,28,6,7,0.5,0.6
2023-06-14T11:00:00,1313A,120.4581,36.0858,青岛市,崂山区子站,,,22,30,17,19,179,109,119,92,,21,7,8,0.2,0.4
2023-06-14T11:00:00,1314A,120.1983,35.9608,青岛市,黄岛区子站,,40,34,45,24,24,174,125,82,82,12,36,6,6,0.5,0.6
2023-06-14T11:00:00,1315A,120.3999,36.3083,青岛市,城阳区子站,,44,34,40,15,17,175,140,115,115,9,14,5,6,0.4,0.5
2023-06-14T11:00:00,1316A,113.69031,34.76122,郑州市,烟厂,臭氧1小时,94,83,66,28,26,237,195,78,78,20,49,7,6,0.6,0.6
2023-06-14T11:00:00,1317A,113.65724,34.77134,郑州市,郑纺机,臭氧1小时,84,75,62,25,22,226,187,69,69,20,49,7,6,0.6,0.6
2023-06-14T11:00:00,1318A,113.67526,34.80246,郑州市,银行学校,臭氧1小时,90,53,55,24,25,228,192,94,94,17,32,8,7,0.6,0.6
2023-06-14T11:00:00,1319A,113.56746,34.81334,郑州市,供水公司,臭氧1小时,73,46,55,17,21,201,178,77,77,15,43,10,10,0.4,0.5
2023-06-14T11:00:00,1320A,113.7329,34.7178,郑州市,经开区管委,,,,62,,23,228,178,58,58,,48,6,4,,0.5
2023-06-14T11:00:00,1321A,113.73961,34.77172,郑州市,四十七中,,,,51,23,22,234,185,85,85,21,28,10,8,0.5,0.5
2023-06-14T11:00:00,1322A,113.60532,34.74838,郑州市,市监测站,臭氧1小时,80,94,82,29,31,230,184,73,73,24,48,9,5,0.6,0.6
2023-06-14T11:00:00,1323A,113.64164,34.7525,郑州市,河医大,颗粒物(PM10),68,85,69,26,20,216,170,66,66,22,44,11,8,0.5,0.5
2023-06-14T11:00:00,1324A,113.51488,34.91089,郑州市,岗李水库,臭氧1小时,70,47,43,14,17,207,176,79,79,15,20,8,7,0.3,0.5
2023-06-14T11:00:00,1325A,114.3677,30.5584,武汉市,东湖梨园,臭氧1小时,77,66,33,32,18,181,181,79,79,31,24,9,6,1.3,0.7
2023-06-14T11:00:00,1326A,114.2529,30.558,武汉市,汉阳月湖,颗粒物(PM10),56,61,40,31,22,184,160,64,59,35,44,8,7,0.8,0.8
2023-06-14T11:00:00,1327A,114.282,30.6189,武汉市,汉口花桥,,,70,48,24,28,188,145,94,64,,38,,9,0.7,0.9
2023-06-14T11:00:00,1328A,114.3025,30.5332,武汉市,武昌紫阳,臭氧1小时,65,29,36,20,18,190,172,74,72,20,39,6,6,0.8,0.8
2023-06-14T11:00:00,1329A,114.3646,30.6217,武汉市,青山钢花,臭氧1小时,60,50,45,17,30,206,168,68,68,13,41,9,10,0.6,0.8
2023-06-14T11:00:00,1330A,114.1566,30.4825,武汉市,沌口新区,颗粒物(PM10),51,51,43,32,30,195,151,98,82,32,32,6,6,0.7,0.6
2023-06-14T11:00:00,1331A,114.3014,30.5944,武汉市,汉口江滩,颗粒物(PM10),52,54,36,30,26,188,150,57,57,38,56,7,8,0.6,0.7
2023-06-14T11:00:00,1333A,114.135,30.6319,武汉市,吴家山,,,49,52,20,27,211,171,87,78,,33,6,6,,0.6
2023-06-14T11:00:00,1334A,113.8454,30.2917,武汉市,沉湖七壕,,,57,28,11,19,171,153,86,62,10,23,5,5,,0.6
2023-06-14T11:00:00,1335A,113.0833,28.2325,长沙市,经开区环保局,颗粒物(PM10),52,53,34,28,20,138,46,54,32,27,19,7,6,0.8,0.6
2023-06-14T11:00:00,1336A,112.8872,28.2189,长沙市,高开区环保局,颗粒物(PM10),55,60,29,30,20,137,22,61,34,36,14,8,7,1.1,0.6
2023-06-14T11:00:00,1337A,113.0792,28.2053,长沙市,马坡岭,细颗粒物(PM2.5),58,46,32,41,24,146,54,54,42,21,15,6,5,0.5,0.4
2023-06-14T11:00:00,1338A,112.9394,28.19,长沙市,湖南师范大学,细颗粒物(PM2.5),52,52,31,36,26,113,28,41,21,19,10,4,3,0.7,0.5
2023-06-14T11:00:00,1339A,113.0178,28.1322,长沙市,雨花区环保局,,50,50,26,20,18,137,29,62,17,33,16,6,6,0.6,0.5
2023-06-14T11:00:00,1340A,112.9792,28.2597,长沙市,伍家岭,颗粒物(PM10),51,51,31,28,23,125,40,60,15,26,18,5,3,0.4,0.3
2023-06-14T11:00:00,1341A,113.0014,28.1944,长沙市,火车新站,,35,35,22,24,16,130,45,66,29,30,15,6,6,0.9,0.7
2023-06-14T11:00:00,1342A,112.9844,28.1178,长沙市,天心区环保局,颗粒物(PM10),51,51,29,26,15,133,21,51,21,29,14,2,2,0.6,0.5
2023-06-14T11:00:00,1343A,112.8908,28.1308,长沙市,湖南中医药大学,,,46,31,22,19,123,32,36,18,,11,,4,0.8,0.7
2023-06-14T11:00:00,1344A,112.9581,28.3611,长沙市,沙坪,颗粒物(PM10),51,52,38,26,20,120,56,40,31,7,6,6,5,0.7,0.6
2023-06-14T11:00:00,1345A,113.2347,23.1423,广州市,广雅中学,,25,14,40,9,28,195,80,89,54,22,25,3,4,0.9,0.9
2023-06-14T11:00:00,1346A,113.2612,23.105,广州市,市五中,,30,16,38,11,30,219,93,97,72,15,17,3,4,0.7,0.7
2023-06-14T11:00:00,1348A,113.3478,23.0916,广州市,广东商学院,,28,8,41,6,33,185,87,78,47,13,28,4,4,0.7,0.8
2023-06-14T11:00:00,1349A,113.4332,23.1047,广州市,市八十六中,,19,15,53,13,32,177,46,36,36,33,40,5,4,0.7,0.7
2023-06-14T11:00:00,1350A,113.3505,22.9483,广州市,番禺中学,,28,13,35,9,22,229,88,100,62,18,24,6,7,0.8,0.9
2023-06-14T11:00:00,1351A,113.2146,23.3916,广州市,花都师范,,,17,50,12,31,186,78,68,54,,27,,6,0.7,0.7
2023-06-14T11:00:00,1352A,113.2597,23.1331,广州市,市监测站,,32,16,43,10,31,224,100,90,65,21,24,5,6,0.9,0.9
2023-06-14T11:00:00,1353A,113.5618,23.312,广州市,九龙镇镇龙,,24,9,34,8,24,198,76,78,65,14,17,5,5,0.7,0.7
2023-06-14T11:00:00,1354A,113.2765,23.1544,广州市,麓湖,,29,13,42,9,28,219,90,51,40,21,29,5,6,1.0,1
2023-06-14T11:00:00,1355A,113.443,23.3035,广州市,帽峰山森林公园,,23,10,36,6,23,217,73,59,57,14,15,7,8,0.6,0.6
2023-06-14T11:00:00,1356A,114.1063,22.5545,深圳市,通心岭子站,,23,23,25,15,14,144,68,86,75,23,18,4,3,1.0,0.8
2023-06-14T11:00:00,1357A,114.117,22.5625,深圳市,洪湖,,28,28,27,9,9,154,51,87,62,29,24,5,5,1.0,0.8
2023-06-14T11:00:00,1358A,113.987,22.5417,深圳市,华侨城,,21,18,25,12,18,136,65,92,69,24,22,6,6,0.9,0.8
2023-06-14T11:00:00,1359A,113.9181,22.5171,深圳市,南海子站,,24,19,30,10,17,136,76,97,78,23,24,4,4,0.8,0.7
2023-06-14T11:00:00,1360A,114.2458,22.5689,深圳市,盐田,,23,18,23,16,19,120,56,60,58,19,21,4,4,0.6,0.6
2023-06-14T11:00:00,1361A,114.2283,22.7244,深圳市,龙岗,,26,18,36,10,21,182,83,68,68,2,2,9,9,0.9,0.9
2023-06-14T11:00:00,1363A,114.494,22.5422,深圳市,南澳,,,14,19,14,12,109,82,107,76,,7,4,4,0.6,0.7
2023-06-14T11:00:00,1364A,114.41,22.6342,深圳市,葵涌,,27,27,23,14,12,102,60,87,68,19,13,4,6,0.6,0.6
2023-06-14T11:00:00,1365A,114.297,22.5978,深圳市,梅沙,,23,20,22,16,14,126,59,109,66,15,10,4,4,0.7,0.6
2023-06-14T11:00:00,1366A,114.0678,22.738,深圳市,观澜,,33,28,42,23,27,179,71,64,64,26,24,8,8,0.7,0.7
2023-06-14T11:00:00,1367A,113.5814,22.2618,珠海市,吉大,,20,9,16,5,14,156,63,96,80,25,13,8,8,0.5,0.4
2023-06-14T11:00:00,1368A,113.4881,22.2335,珠海市,前山,,,,,,,,,,,,,,,,
2023-06-14T11:00:00,1369A,113.628,22.4251,珠海市,唐家,,27,11,18,4,12,147,85,99,91,5,5,6,6,0.4,0.4
2023-06-14T11:00:00,1370A,113.299,22.2281,珠海市,斗门,,24,7,22,4,16,152,76,84,82,13,12,8,7,0.6,0.5
2023-06-14T11:00:00,1371A,113.1294,23.0067,佛山市,湾梁,,35,24,33,12,24,212,110,99,75,15,15,3,4,0.5,0.5
2023-06-14T11:00:00,1372A,113.1083,23.0478,佛山市,华材职中,,32,24,31,15,28,210,101,94,64,22,22,4,6,0.6,0.6
2023-06-14T11:00:00,1373A,113.144,23.0453,佛山市,南海气象局,,28,28,35,16,26,177,81,61,47,24,20,5,5,0.6,0.6
2023-06-14T11:00:00,1374A,113.2881,22.8094,佛山市,顺德苏岗,,32,8,21,22,22,194,74,68,58,24,18,4,5,0.7,0.6
2023-06-14T11:00:00,1376A,112.8383,22.8678,佛山市,高明孔堂,,30,26,36,14,21,163,96,87,72,18,13,6,5,0.8,0.8
2023-06-14T11:00:00,1377A,112.8836,23.1588,佛山市,三水监测站,细颗粒物(PM2.5),68,61,40,49,32,155,72,89,66,25,23,6,6,0.7,0.6
2023-06-14T11:00:00,1378A,112.867,23.185,佛山市,三水云东海,细颗粒物(PM2.5),59,58,43,42,32,165,58,60,54,21,20,5,5,0.8,0.7
2023-06-14T11:00:00,1379A,113.3769,22.5211,中山市,华柏园,,30,20,27,15,19,188,94,76,76,11,13,4,4,0.4,0.5
2023-06-14T11:00:00,1380A,113.3881,22.5497,中山市,张溪,,,72,32,9,18,218,84,91,75,14,12,4,4,,0.6
2023-06-14T11:00:00,1381A,113.4075,22.5111,中山市,紫马岭,,30,7,23,4,19,174,94,77,77,2,5,3,4,0.5,0.5
2023-06-14T11:00:00,1382A,113.4411,22.4853,中山市,长江旅游区,,26,4,20,6,15,181,81,79,78,2,6,8,8,0.4,0.5
2023-06-14T11:00:00,1383A,113.1064,22.6058,江门市,北街,,25,19,29,8,18,180,80,76,67,14,13,4,5,0.6,0.5
2023-06-14T11:00:00,1384A,113.0731,22.5835,江门市,西区,,,,29,,20,197,68,70,68,19,13,,4,0.8,0.6
2023-06-14T11:00:00,1385A,113.0219,22.5311,江门市,圭峰西,,25,14,30,5,20,189,80,69,69,4,9,4,4,0.5,0.6
2023-06-14T11:00:00,1386A,113.0828,22.5947,江门市,东湖,,23,20,34,12,20,197,73,67,67,15,11,5,5,0.8,0.6
2023-06-14T11:00:00,1389A,113.7547,23.0494,东莞市,莞城梨川,,31,15,45,7,29,219,99,79,69,17,22,9,9,0.6,0.8
2023-06-14T11:00:00,1390A,113.7944,23.0128,东莞市,东城石井,,27,9,42,7,29,231,84,64,64,20,21,7,7,0.7,0.8
2023-06-14T11:00:00,1391A,113.7383,22.9658,东莞市,南城西平,,27,10,45,7,27,210,85,54,54,11,29,1,4,0.7,0.8
2023-06-14T11:00:00,1392A,114.4183,23.0528,惠州市,河南岸金山湖子站,,22,13,38,12,14,151,70,66,54,20,15,2,2,0.9,0.8
2023-06-14T11:00:00,1393A,114.4053,23.0822,惠州市,下埔横江三路子站,,31,14,24,10,13,171,98,73,66,11,13,4,4,0.7,0.7
2023-06-14T11:00:00,1394A,114.4103,23.1142,惠州市,江北云山西路子站,,28,15,29,8,14,180,88,77,69,15,10,6,7,0.7,0.7
2023-06-14T11:00:00,1395A,114.4645,22.7833,惠州市,惠阳区承修路船湖子站,,23,19,25,15,15,137,72,78,68,19,17,3,3,0.9,0.8
2023-06-14T11:00:00,1396A,114.5317,22.7422,惠州市,大亚湾管委会子站,,20,19,22,12,11,124,62,113,61,30,23,2,2,0.6,0.5
2023-06-14T11:00:00,1397A,112.4267,23.0706,肇庆市,睦岗子站,,32,26,41,16,28,157,101,113,82,12,15,11,10,0.4,0.5
2023-06-14T11:00:00,1398A,112.4645,23.0475,肇庆市,城中子站,,36,36,40,25,27,161,72,106,76,31,21,12,11,0.7,0.7
2023-06-14T11:00:00,1399A,112.5544,23.1522,肇庆市,坑口子站,,42,36,38,29,30,139,110,98,90,15,16,7,6,0.5,0.5
2023-06-14T11:00:00,1400A,112.4753,23.1,肇庆市,七星岩子站,,30,22,36,16,28,143,95,119,92,13,12,7,7,0.5,0.5
2023-06-14T11:00:00,1401A,108.3103,22.7881,南宁市,二十一中,,35,35,44,24,28,136,68,68,46,18,17,9,8,0.6,0.6
2023-06-14T11:00:00,1402A,108.3141,22.8528,南宁市,北湖,,30,26,42,21,28,136,82,50,46,12,16,12,14,0.6,0.6
2023-06-14T11:00:00,1403A,108.3206,22.8225,南宁市,市监测站,,,56,42,23,28,136,67,56,39,29,28,,10,,0.6
2023-06-14T11:00:00,1404A,108.3829,22.8037,南宁市,大自然花园,,30,30,35,19,28,119,74,67,51,14,14,8,6,0.7,0.7
2023-06-14T11:00:00,1405A,108.4394,22.7904,南宁市,仙葫,,28,18,37,19,24,124,82,75,55,10,15,6,6,0.4,0.5
2023-06-14T11:00:00,1406A,108.2397,22.8467,南宁市,区农职院,,34,34,45,21,25,148,79,53,53,16,14,18,8,0.7,0.7
2023-06-14T11:00:00,1407A,108.3275,22.735,南宁市,英华嘉园,,38,38,44,20,29,129,67,46,37,17,20,7,6,0.7,0.8
2023-06-14T11:00:00,1408A,108.2257,22.7757,南宁市,沙井镇街道办,,50,50,45,23,28,149,60,40,40,32,25,18,14,0.8,0.7
2023-06-14T11:00:00,1409A,110.576,19.9507,海口市,东寨港,,,,,,,,,,,,,,,,
2023-06-14T11:00:00,1410A,110.3232,20.0574,海口市,海南大学,,17,14,19,7,8,103,54,51,51,16,12,5,5,0.4,0.3
2023-06-14T11:00:00,1411A,110.283,20.0053,海口市,秀英海南医院,,32,32,21,9,10,123,60,53,53,14,18,5,5,0.4,0.4
2023-06-14T11:00:00,1412A,110.338,19.9969,海口市,海南师范大学,,18,17,21,8,9,106,57,54,50,14,11,5,6,0.4,0.3
2023-06-14T11:00:00,1413A,110.33,20.0356,海口市,龙华路环保局宿舍,,20,12,17,9,9,123,64,60,59,15,11,6,6,0.4,0.4
2023-06-14T11:00:00,1414A,106.3787,29.8279,重庆市,缙云山,颗粒物(PM10),51,51,28,23,14,168,101,166,105,27,14,13,11,0.3,0.1
2023-06-14T11:00:00,1416A,106.4213,29.8253,重庆市,天生,颗粒物(PM10),55,59,47,36,29,175,78,36,28,36,37,12,8,0.8,0.7
2023-06-14T11:00:00,1417A,106.6263,29.7228,重庆市,两路,,38,38,33,18,17,204,69,100,59,55,44,8,7,0.9,0.8
2023-06-14T11:00:00,1418A,106.2953,29.5983,重庆市,虎溪,,49,49,41,29,22,147,98,58,58,17,38,9,8,0.5,0.5
2023-06-14T11:00:00,1419A,106.5777,29.5102,重庆市,南坪,,49,36,41,34,26,234,122,82,82,22,33,8,7,0.6,0.7
2023-06-14T11:00:00,1420A,106.6556,29.6277,重庆市,唐家沱,,42,42,43,24,23,228,78,41,40,40,47,8,7,0.9,0.8
2023-06-14T11:00:00,1421A,106.6349,29.4906,重庆市,茶园,,,66,59,31,27,232,60,32,26,,63,6,5,,0.9
2023-06-14T11:00:00,1422A,106.3754,29.4572,重庆市,白市驿,,,,40,,26,193,112,92,80,17,19,12,14,,0.7
2023-06-14T11:00:00,1425A,106.6205,29.7166,重庆市,空港,,43,43,41,30,25,208,76,111,71,48,34,9,8,0.7,0.6
2023-06-14T11:00:00,1426A,106.4782,29.4875,重庆市,新山村,,,,57,,24,192,110,52,52,,55,9,12,,0.4
2023-06-14T11:00:00,1427A,106.5616,29.6453,重庆市,礼嘉,颗粒物(PM10),59,67,50,38,22,224,95,74,40,45,57,10,8,0.9,0.8
2023-06-14T11:00:00,1428A,106.4522,29.7091,重庆市,蔡家,颗粒物(PM10),58,66,51,33,26,173,86,50,48,30,32,11,8,0.6,0.6
2023-06-14T11:00:00,1429A,106.5093,29.3917,重庆市,鱼新街,,46,46,41,31,27,215,98,63,63,29,44,14,17,0.8,0.9
2023-06-14T11:00:00,1431A,103.9728,30.7236,成都市,金泉两河,颗粒物(PM10),55,59,48,11,22,196,67,67,56,38,17,4,4,0.5,0.3
2023-06-14T11:00:00,1432A,104.176,30.6872,成都市,十里店,颗粒物(PM10),55,59,48,19,29,189,53,75,52,35,19,4,4,0.6,0.5
2023-06-14T11:00:00,1433A,104.079,30.5706,成都市,三瓦窑,颗粒物(PM10),54,58,48,16,25,172,44,69,43,51,31,4,4,0.5,0.3
2023-06-14T11:00:00,1434A,104.1114,30.63,成都市,沙河铺,,50,50,40,21,19,194,46,79,52,39,18,2,3,0.7,0.6
2023-06-14T11:00:00,1437A,104.0786,30.6531,成都市,君平街,,50,50,39,29,27,226,72,82,72,38,22,5,5,0.6,0.4
2023-06-14T11:00:00,1438A,103.613,31.0283,成都市,灵岩寺,,28,16,29,10,19,160,89,105,98,14,10,24,16,0.7,0.8
2023-06-14T11:00:00,1439A,106.6899,26.5998,贵阳市,马鞍山,,,,28,,20,125,93,50,50,9,11,,4,,0.6
2023-06-14T11:00:00,1440A,106.6971,26.5694,贵阳市,市环保站,,30,24,30,19,21,132,93,83,73,19,16,6,4,0.2,0.3
2023-06-14T11:00:00,1441A,106.6243,26.6266,贵阳市,鉴湖路,,,29,36,17,21,130,102,85,75,12,10,,4,0.4,0.4
2023-06-14T11:00:00,1442A,106.7487,26.6343,贵阳市,燕子冲,,39,39,37,27,31,130,100,66,66,8,10,5,5,0.4,0.4
2023-06-14T11:00:00,1443A,106.6555,26.4365,贵阳市,碧云窝,,,,40,,21,133,66,48,48,,17,5,4,0.3,0.3
2023-06-14T11:00:00,1444A,106.694,26.5161,贵阳市,中院村,,39,39,42,22,24,123,86,74,64,17,18,6,6,0.5,0.5
2023-06-14T11:00:00,1445A,106.7109,26.6027,贵阳市,红边门,,32,29,37,22,26,129,96,71,71,11,15,4,4,0.5,0.5
2023-06-14T11:00:00,1446A,106.7164,26.5699,贵阳市,新华路,,35,34,38,24,25,131,98,72,70,11,16,6,3,0.4,0.4
2023-06-14T11:00:00,1447A,106.674,26.5424,贵阳市,太慈桥,,34,34,36,9,17,126,99,67,67,15,17,5,4,0.4,0.4
2023-06-14T11:00:00,1450A,102.8204,24.8886,昆明市,呈贡新区,,33,27,27,16,17,117,105,91,88,5,12,3,7,0.6,0.6
2023-06-14T11:00:00,1451A,102.6251,24.9608,昆明市,西山森林公园,,30,20,17,10,12,157,95,110,99,11,10,5,7,0.6,0.5
2023-06-14T11:00:00,1452A,102.7252,25.0902,昆明市,龙泉镇,,38,31,28,26,13,139,96,97,86,16,16,8,11,0.6,0.6
2023-06-14T11:00:00,1453A,102.7266,25.0375,昆明市,东风东路,,45,45,31,23,16,131,88,96,79,27,22,5,8,0.4,0.4
2023-06-14T11:00:00,1454A,102.6742,25.0669,昆明市,金鼎山,,49,34,29,34,23,143,102,104,92,19,17,6,8,0.6,0.4
2023-06-14T11:00:00,1455A,102.6644,25.0401,昆明市,碧鸡广场,,,42,27,44,17,136,90,102,85,24,18,,7,0.5,0.4
2023-06-14T11:00:00,1456A,91.1319,29.6514,拉萨市,八廓街,,45,12,10,8,5,154,142,143,141,8,5,5,5,0.3,0.3
2023-06-14T11:00:00,1457A,91.1221,29.6747,拉萨市,市环保局,,41,13,11,10,6,150,129,137,130,18,15,5,5,0.4,0.3
2023-06-14T11:00:00,1458A,91.0874,29.6475,拉萨市,区监测站,,44,7,6,4,4,149,138,138,133,15,14,7,7,0.3,0.2
2023-06-14T11:00:00,1459A,91.1774,29.6541,拉萨市,西藏大学,,,,,,,,,,,,,,,,
2023-06-14T11:00:00,1460A,90.9798,29.6588,拉萨市,区辐射站,,41,13,10,8,6,144,131,135,127,14,14,8,8,0.1,0.2
2023-06-14T11:00:00,1461A,91.0834,29.6292,拉萨市,拉萨火车站,,46,0,3,5,5,150,145,141,140,7,7,8,8,0.2,0.2
2023-06-14T11:00:00,1462A,108.882,34.2749,西安市,高压开关厂,颗粒物(PM10),76,102,56,37,21,246,131,47,47,56,58,10,8,0.6,0.5
2023-06-14T11:00:00,1463A,108.993,34.2629,西安市,兴庆小区,,40,37,40,16,17,220,126,88,66,17,17,9,7,0.4,0.5
2023-06-14T11:00:00,1464A,109.06,34.2572,西安市,纺织城,,45,45,46,21,19,227,127,54,54,24,40,7,6,0.3,0.4
2023-06-14T11:00:00,1465A,108.9356,34.2173,西安市,小寨,,,45,38,22,13,234,124,88,64,,27,10,9,,0.4
2023-06-14T11:00:00,1466A,108.954,34.2713,西安市,市人民体育场,,,,46,,15,231,130,92,48,,31,9,8,0.4,0.3
2023-06-14T11:00:00,1467A,108.8922,34.2322,西安市,高新西区,颗粒物(PM10),67,83,43,27,19,250,130,92,71,42,30,8,7,0.7,0.6
2023-06-14T11:00:00,1468A,108.935,34.3474,西安市,经开区,颗粒物(PM10),59,68,56,32,18,189,82,39,39,56,46,4,3,0.5,0.4
2023-06-14T11:00:00,1469A,108.906,34.1546,西安市,长安区,颗粒物(PM10),56,62,47,22,15,242,144,68,68,26,27,6,5,0.4,0.4
2023-06-14T11:00:00,1471A,109.2186,34.3731,西安市,临潼区,颗粒物(PM10),81,112,47,30,22,204,133,75,75,41,29,8,7,0.6,0.5
2023-06-14T11:00:00,1472A,108.869,34.378,西安市,草滩,颗粒物(PM10),60,69,71,29,22,222,140,55,55,28,50,17,13,0.8,0.6
2023-06-14T11:00:00,1473A,108.985,34.1978,西安市,曲江文化产业集团,颗粒物(PM10),51,51,41,17,12,229,131,94,73,31,31,6,6,0.4,0.3
2023-06-14T11:00:00,1474A,109.051,34.3213,西安市,广运潭,,38,38,43,21,14,211,121,84,54,15,27,8,8,0.4,0.4
2023-06-14T11:00:00,1476A,103.631,36.1031,兰州市,兰炼宾馆,,,52,58,33,33,190,116,37,37,36,45,45,14,,0.6
2023-06-14T11:00:00,1477A,104.1373,35.9454,兰州市,榆中兰大校区,,,,,,,,,,,,,,,,
2023-06-14T11:00:00,1478A,103.8412,36.0726,兰州市,生物制品所,,41,41,53,26,29,177,123,40,40,29,50,14,10,1.0,0.9
2023-06-14T11:00:00,1479A,103.831,36.0464,兰州市,铁路设计院,,49,49,50,15,24,169,114,42,42,39,49,10,12,1.0,1.1
2023-06-14T11:00:00,1483A,101.524,36.6867,西宁市,第五水厂,,,,,,,,,,,,,,,,
2023-06-14T11:00:00,1484A,105.9512,38.6016,银川市,贺兰山马莲口,臭氧1小时,60,40,21,15,12,201,168,175,140,22,10,120,30,1.0,0.5
2023-06-14T11:00:00,1488A,106.2328,38.4975,银川市,贺兰山东路,颗粒物(PM10),68,86,52,32,20,187,126,62,56,46,40,18,13,0.5,0.4
2023-06-14T11:00:00,1489A,106.1358,38.5036,银川市,学院路,,,72,54,32,18,191,128,82,61,42,34,,17,,0.6
2023-06-14T11:00:00,1490A,87.5801,43.8303,乌鲁木齐市,监测站,颗粒物(PM10),67,84,67,22,27,159,80,61,59,44,37,9,8,0.7,0.6
2023-06-14T11:00:00,1491A,87.6046,43.768,乌鲁木齐市,收费所,颗粒物(PM10),75,99,74,39,29,162,75,60,36,51,38,5,6,0.6,0.3
2023-06-14T11:00:00,1492A,87.4754,43.9469,乌鲁木齐市,新疆农科院农场,,,,60,,54,144,,22,7,,53,,14,,0.8
2023-06-14T11:00:00,1493A,87.5525,43.8711,乌鲁木齐市,铁路局,颗粒物(PM10),59,68,59,35,28,162,85,36,36,46,43,9,8,0.9,0.5
2023-06-14T11:00:00,1494A,87.6432,43.831,乌鲁木齐市,三十一中学,颗粒物(PM10),61,71,69,26,26,169,82,88,60,44,32,14,14,0.6,0.5
2023-06-14T11:00:00,1496A,87.7216,44.1747,乌鲁木齐市,米东区环保局,,,89,75,54,46,158,,58,40,25,21,7,5,0.4,0.4
2023-06-14T11:00:00,1508A,112.9433,27.8614,湘潭市,板塘,颗粒物(PM10),73,95,41,23,24,110,56,32,28,28,19,12,16,1.0,0.6
2023-06-14T11:00:00,1511A,112.9118,27.8403,湘潭市,市监测站,"颗粒物(PM10),细颗粒物(PM2.5)",53,56,31,37,22,125,65,48,42,21,14,18,13,1.4,0.9
2023-06-14T11:00:00,1512A,112.8937,27.8728,湘潭市,江麓,细颗粒物(PM2.5),57,49,32,40,20,115,63,50,40,14,5,15,9,0.5,0.3
2023-06-14T11:00:00,1513A,112.9227,27.8159,湘潭市,岳塘,颗粒物(PM10),56,61,34,38,20,112,44,40,40,27,7,8,7,1.9,1
2023-06-14T11:00:00,1514A,112.9074,27.9119,湘潭市,科大,颗粒物(PM10),51,51,32,23,17,121,55,52,31,18,11,10,7,0.7,0.5
2023-06-14T11:00:00,1515A,113.135,27.8244,株洲市,天台山庄,细颗粒物(PM2.5),58,59,42,41,26,118,84,60,52,16,11,6,6,0.9,0.8
2023-06-14T11:00:00,1518A,113.095,27.8867,株洲市,株冶医院,,50,50,40,31,23,116,73,49,39,13,14,3,3,0.9,0.8
2023-06-14T11:00:00,1519A,113.167,27.8667,株洲市,市四中,颗粒物(PM10),52,53,43,33,25,128,83,68,44,18,13,4,5,0.7,0.7
2023-06-14T11:00:00,1520A,113.143,27.8381,株洲市,火车站,细颗粒物(PM2.5),59,62,41,42,23,120,78,60,47,17,9,5,5,0.8,0.7
2023-06-14T11:00:00,1524A,113.13,27.8528,株洲市,市监测站,细颗粒物(PM2.5),63,62,42,45,28,122,72,68,52,19,11,7,6,1.1,0.9
2023-06-14T11:00:00,1552A,106.805,26.3003,贵阳市,桐木岭,,,,,,,,,,,,,,,,
2023-06-14T11:00:00,1559A,113.251,27.8336,株洲市,大京风景区,,34,34,26,19,18,110,70,53,37,5,3,6,5,0.5,0.4
2023-06-14T11:00:00,1562A,113.0048,27.9153,湘潭市,昭山,颗粒物(PM10),57,63,39,30,20,124,54,40,20,22,17,2,3,1.1,0.9
2023-06-14T11:00:00,1564A,112.4876,27.9164,湘潭市,韶山,,39,39,34,20,13,76,44,22,8,11,7,6,6,0.5,0.4
2023-06-14T11:00:00,1585A,109.8756,40.6532,包头市,市环境监测站,颗粒物(PM10),56,62,45,29,18,163,139,74,74,20,38,24,18,0.6,0.7
2023-06-14T11:00:00,1587A,109.9991,40.5842,包头市,包头八中,颗粒物(PM10),53,55,51,16,18,164,134,66,53,27,45,25,24,0.8,1.1
2023-06-14T11:00:00,1588A,109.8538,40.6821,包头市,青山宾馆,细颗粒物(PM2.5),54,43,44,38,24,168,150,78,78,23,41,21,16,0.7,0.8
2023-06-14T11:00:00,1589A,109.8642,40.6288,包头市,惠龙物流,颗粒物(PM10),58,66,35,23,13,166,141,79,79,18,28,24,15,0.6,0.6
2023-06-14T11:00:00,1590A,110.0377,40.5546,包头市,东河鸿龙湾,,47,46,51,16,15,162,148,59,57,13,32,16,12,0.5,0.5
2023-06-14T11:00:00,1591A,110.0023,39.8129,鄂尔多斯市,综合楼,颗粒物(PM10),54,58,47,9,7,155,155,112,112,17,31,9,11,0.5,0.5
2023-06-14T11:00:00,1592A,109.9486,39.8261,鄂尔多斯市,巴音孟克林场办事处,臭氧1小时,63,34,48,12,16,170,170,139,139,9,29,8,15,0.3,0.5
2023-06-14T11:00:00,1593A,109.7736,39.5986,鄂尔多斯市,康泽苑,臭氧1小时,59,36,37,2,3,168,167,82,82,10,19,10,9,0.6,0.5
2023-06-14T11:00:00,1594A,109.8119,39.5989,鄂尔多斯市,华泰汽车城,,,44,36,17,12,161,152,49,49,,38,7,6,0.4,0.5
2023-06-14T11:00:00,1595A,109.9734,39.7884,鄂尔多斯市,奥林花园,,,41,54,7,15,169,169,76,76,,45,7,10,0.6,0.7
2023-06-14T11:00:00,1597A,122.2703,40.7094,营口市,大庆路,,50,43,31,35,23,161,159,99,84,15,16,16,7,0.9,0.8
2023-06-14T11:00:00,1598A,122.2150,40.6511,营口市,镜湖西路,臭氧1小时,60,49,27,31,16,168,168,113,103,10,14,11,8,0.6,0.5
2023-06-14T11:00:00,1599A,122.1658,40.6789,营口市,西炮台,,49,29,24,12,12,159,154,134,105,11,14,9,8,0.6,0.5
2023-06-14T11:00:00,1600A,124.3303,40.0625,丹东市,江湾东路,,34,11,32,7,19,132,108,51,51,4,17,8,7,0.6,0.6
2023-06-14T11:00:00,1601A,124.4256,40.1503,丹东市,临江后街,,34,11,23,5,13,150,106,50,50,3,14,6,6,0.5,0.5
2023-06-14T11:00:00,1602A,124.3933,40.1461,丹东市,元宝山,,30,15,31,8,19,139,95,48,36,12,18,8,6,0.4,0.5
2023-06-14T11:00:00,1603A,124.3633,40.1092,丹东市,民主桥,,32,15,27,7,15,136,102,45,45,7,23,9,6,0.4,0.6
2023-06-14T11:00:00,1604A,122.0303,41.1489,盘锦市,开发区,,,56,32,25,33,171,171,96,94,20,27,12,9,,0.6
2023-06-14T11:00:00,1605A,122.0485,41.0883,盘锦市,兴隆台,臭氧1小时,73,46,34,32,29,192,178,105,105,18,29,10,7,0.7,0.6
2023-06-14T11:00:00,1606A,121.8297,41.1028,盘锦市,新生街道,,37,31,31,8,28,203,118,90,85,30,21,12,8,0.6,0.6
2023-06-14T11:00:00,1607A,120.9092,40.7136,葫芦岛市,龙港区,,43,39,34,22,25,168,137,93,88,7,11,10,12,0.7,0.6
2023-06-14T11:00:00,1608A,120.8392,40.7514,葫芦岛市,化工街,,,31,54,14,33,167,151,61,61,13,42,7,11,,0.8
2023-06-14T11:00:00,1609A,120.8341,40.7073,葫芦岛市,新区,,45,39,44,26,50,168,142,68,68,10,31,7,9,0.7,0.6
2023-06-14T11:00:00,1610A,120.8695,40.7677,葫芦岛市,东城区,,50,14,55,14,42,175,158,64,64,10,38,10,20,0.5,0.6
2023-06-14T11:00:00,1611A,118.5819,24.9117,泉州市,涂山街,细颗粒物(PM2.5),54,52,34,38,20,183,107,76,74,19,13,10,8,0.9,0.7
2023-06-14T11:00:00,1612A,118.5972,24.8978,泉州市,津头埔,"颗粒物(PM10),细颗粒物(PM2.5)",52,54,38,36,19,173,97,80,68,22,16,10,8,0.6,0.5
2023-06-14T11:00:00,1613A,118.6663,24.9424,泉州市,万安,细颗粒物(PM2.5),54,54,37,38,19,203,133,93,76,19,12,12,9,0.5,0.5
2023-06-14T11:00:00,1614A,118.6117,24.9604,泉州市,清源山,,,,,,,,,,,,,,,,
2023-06-14T11:00:00,1616A,117.6795,36.229,济南市,技术学院,臭氧1小时,69,19,52,10,24,243,175,99,90,15,36,13,11,0.5,0.7
2023-06-14T11:00:00,1618A,118.3429,35.0532,临沂市,沂河小区,颗粒物(PM10),51,51,45,22,25,205,153,101,101,18,21,12,9,0.4,0.3
2023-06-14T11:00:00,1619A,118.295,35.0583,临沂市,鲁南制药厂,臭氧1小时,62,41,41,21,20,209,169,110,110,14,21,5,6,0.2,0.4
2023-06-14T11:00:00,1620A,118.2794,34.9976,临沂市,新光毛纺厂,,50,29,39,15,24,202,158,100,100,17,24,6,7,0.3,0.4
2023-06-14T11:00:00,1621A,118.3956,35.0888,临沂市,河东保险公司,,48,36,42,12,21,191,152,89,89,15,26,14,11,0.3,0.3
2023-06-14T11:00:00,1622A,116.3032,37.4674,德州市,儿童乐园,臭氧1小时,100,51,45,24,19,223,200,119,118,16,21,8,8,0.5,0.5
2023-06-14T11:00:00,1624A,116.2991,37.4451,德州市,监理站,臭氧1小时,90,64,54,14,13,223,192,114,111,13,18,10,10,0.5,0.4
2023-06-14T11:00:00,1625A,115.9848,36.4372,聊城市,区政府,臭氧1小时,83,45,85,12,34,235,186,127,111,7,19,9,11,0.4,0.6
2023-06-14T11:00:00,1628A,118.0062,37.3803,滨州市,市环保局,,50,24,24,14,15,168,160,103,103,11,18,8,10,0.4,0.5
2023-06-14T11:00:00,1629A,118.0018,37.3617,滨州市,第二水厂,臭氧1小时,57,29,29,12,14,176,165,99,99,10,21,9,8,0.4,0.6
2023-06-14T11:00:00,1630A,117.9776,37.393,滨州市,北中新校,臭氧1小时,59,34,29,13,14,172,167,101,101,9,16,8,7,0.4,0.5
2023-06-14T11:00:00,1631A,118.0414,36.8103,淄博市,人民公园,臭氧1小时,140,58,52,24,22,280,280,91,91,,36,15,14,0.6,0.7
2023-06-14T11:00:00,1633A,117.8525,36.4847,淄博市,双山,,,19,42,8,21,215,146,77,77,10,26,,19,,0.5
2023-06-14T11:00:00,1634A,117.9592,36.6331,淄博市,气象站,,48,29,46,14,21,203,152,77,77,14,23,10,11,0.1,0.2
2023-06-14T11:00:00,1635A,118.3092,36.8194,淄博市,莆田园,,50,29,51,14,24,226,158,68,68,18,37,10,16,0.5,1.1
2023-06-14T11:00:00,1637A,117.558,34.8438,枣庄市,市中区政府,臭氧1小时,85,36,56,14,30,202,188,120,120,14,28,10,12,0.4,0.5
2023-06-14T11:00:00,1638A,117.2852,34.7837,枣庄市,薛城环保局,臭氧1小时,104,71,64,27,30,239,207,119,112,15,31,14,16,0.5,0.6
2023-06-14T11:00:00,1639A,117.5852,34.7745,枣庄市,峄城区政府,臭氧1小时,79,39,65,9,24,195,183,110,98,15,29,12,19,0.4,0.6
2023-06-14T11:00:00,1640A,117.7276,34.5578,枣庄市,台儿庄区环保局,臭氧1小时,98,53,53,27,29,204,198,101,101,16,26,12,12,0.6,0.6
2023-06-14T11:00:00,1641A,117.4518,35.0992,枣庄市,山亭区环保局,,50,17,34,10,21,185,160,103,103,11,20,10,9,0.2,0.3
2023-06-14T11:00:00,1642A,121.2514,37.5639,烟台市,开发区,,42,7,18,9,20,136,134,96,84,21,19,6,4,0.6,0.6
2023-06-14T11:00:00,1643A,121.3719,37.5433,烟台市,轴承厂,,45,14,30,2,19,144,144,98,98,8,14,2,2,0.4,0.4
2023-06-14T11:00:00,1644A,121.3181,37.5436,烟台市,西郊化工站,,45,17,35,2,19,141,141,85,85,13,20,3,4,0.3,0.5
2023-06-14T11:00:00,1645A,121.4478,37.4822,烟台市,莱山环保局,,42,12,25,11,19,134,134,94,88,9,16,4,5,0.4,0.4
2023-06-14T11:00:00,1646A,121.2611,37.4967,烟台市,福山环保局,,40,34,41,14,23,138,125,84,73,26,22,8,6,0.3,0.1
2023-06-14T11:00:00,1650A,119.1437,36.7023,潍坊市,环保局,,47,34,27,13,13,156,149,118,109,14,12,9,7,0.4,0.3
2023-06-14T11:00:00,1653A,116.6251,35.4302,济宁市,火炬城,臭氧1小时,92,63,54,19,24,193,193,89,89,12,25,18,16,0.8,0.8
2023-06-14T11:00:00,1655A,116.5491,35.4042,济宁市,电化厂,,,57,61,22,24,186,185,91,91,,20,12,10,,0.6
2023-06-14T11:00:00,1656A,117.1437,36.1937,泰安市,监测站,臭氧1小时,54,39,54,25,25,235,163,116,97,10,15,11,8,0.7,0.4
2023-06-14T11:00:00,1657A,117.0885,36.2017,泰安市,人口学校,臭氧1小时,59,31,49,16,19,205,167,130,115,13,16,10,8,0.5,0.4
2023-06-14T11:00:00,1658A,117.1089,36.1758,泰安市,电力学校,,,,61,21,27,196,161,73,73,13,34,13,10,,0.2
2023-06-14T11:00:00,1659A,119.471,35.4209,日照市,监测站,,45,41,42,18,25,174,142,70,70,19,52,5,6,0.4,0.6
2023-06-14T11:00:00,1660A,119.523,35.4216,日照市,市政府广场,,,114,50,35,29,151,141,95,95,18,44,7,7,,0.6
2023-06-14T11:00:00,1661A,119.5587,35.4044,日照市,港务局,,48,48,52,30,20,166,151,96,96,14,43,7,8,0.5,0.6
2023-06-14T11:00:00,1662A,122.1214,37.4236,威海市,华夏技校,,42,14,27,7,21,133,133,98,98,12,20,4,5,0.3,0.3
2023-06-14T11:00:00,1663A,122.0508,37.5236,威海市,山大分校,,43,20,30,17,18,136,136,116,102,10,15,7,8,0.2,0.2
2023-06-14T11:00:00,1664A,122.1067,37.5072,威海市,市监测站,,47,17,26,12,24,148,148,104,100,7,15,11,11,0.4,0.5
2023-06-14T11:00:00,1666A,118.6614,37.4309,东营市,市环保局,臭氧1小时,60,12,12,12,8,168,168,114,114,7,6,7,5,0.2,0.2
2023-06-14T11:00:00,1669A,113.5824,24.7733,韶关市,市八中,,26,26,44,16,32,162,70,82,78,7,8,6,9,0.7,0.6
2023-06-14T11:00:00,1671A,113.5917,24.7972,韶关市,园林处,,22,21,44,14,32,154,68,85,79,3,5,4,7,0.6,0.6
2023-06-14T11:00:00,1672A,113.6735,24.7791,韶关市,韶关学院,,32,32,50,15,39,180,68,77,72,11,13,6,14,0.6,0.7
2023-06-14T11:00:00,1673A,113.5971,24.6863,韶关市,曲江监测站,,26,26,49,16,34,179,71,87,74,9,10,7,12,0.7,0.7
2023-06-14T11:00:00,1674A,116.6794,23.3667,汕头市,金平子站,,45,45,31,24,21,136,79,58,58,15,11,10,8,1.0,0.9
2023-06-14T11:00:00,1675A,116.7244,23.3633,汕头市,龙湖子站,,,,33,,19,146,62,66,64,30,17,6,7,,0.8
2023-06-14T11:00:00,1676A,116.7258,23.2775,汕头市,濠江子站,,42,42,30,22,19,132,72,60,60,20,14,9,9,0.9,0.9
2023-06-14T11:00:00,1677A,116.7519,23.4714,汕头市,澄海子站,颗粒物(PM10),55,60,35,29,19,153,85,66,64,27,17,14,12,0.9,0.7
2023-06-14T11:00:00,1678A,116.6092,23.2539,汕头市,潮阳子站,,45,45,35,23,12,139,76,64,62,16,11,9,9,0.9,0.7
2023-06-14T11:00:00,1680A,110.3539,21.2706,湛江市,湛江影剧院,,21,13,21,8,13,90,66,69,68,7,13,9,8,0.7,0.7
2023-06-14T11:00:00,1681A,110.3928,21.2228,湛江市,市环境监测站,,23,23,21,16,14,85,62,70,68,16,14,10,8,0.5,0.5
2023-06-14T11:00:00,1682A,110.4019,21.1997,湛江市,环保局宿舍,,24,24,20,8,14,89,64,70,69,13,16,6,8,0.5,0.5
2023-06-14T11:00:00,1683A,110.4111,21.2028,湛江市,霞山游泳场,,30,18,18,21,12,94,68,74,74,11,13,9,8,0.8,0.7
2023-06-14T11:00:00,1684A,110.3316,21.2679,湛江市,麻章区环保局,,,18,23,9,14,88,66,73,67,,14,6,6,0.6,0.6
2023-06-14T11:00:00,1685A,110.4558,21.2567,湛江市,坡头区环保局,,23,11,17,8,14,107,72,76,76,12,12,9,7,0.5,0.5
2023-06-14T11:00:00,1686A,111.0286,21.4688,茂名市,电白南海,,22,22,26,14,18,102,62,49,49,10,8,7,6,0.7,0.6
2023-06-14T11:00:00,1687A,110.9294,21.6533,茂名市,茂石化七小,,27,8,19,8,14,107,86,70,70,7,10,10,7,0.7,0.6
2023-06-14T11:00:00,1688A,110.9107,21.6687,茂名市,健康路,,28,2,13,1,8,100,87,67,67,4,8,8,6,0.5,0.5
2023-06-14T11:00:00,1689A,110.8592,21.6828,茂名市,高岭,,26,12,26,9,16,87,81,56,56,6,16,15,10,0.5,0.5
2023-06-14T11:00:00,1690A,116.1231,24.3284,梅州市,梅江月梅,,29,29,29,16,18,112,80,64,52,9,9,2,3,0.5,0.5
2023-06-14T11:00:00,1691A,116.0797,24.2719,梅州市,梅县新城,,,45,28,17,21,129,69,75,49,13,11,,4,0.6,0.6
2023-06-14T11:00:00,1692A,116.1248,24.2654,梅州市,环境监控中心,,36,36,30,19,19,137,61,56,41,25,16,3,3,0.8,0.6
2023-06-14T11:00:00,1693A,115.3653,22.775,汕尾市,市环保局,,31,14,17,10,10,115,99,90,88,10,6,7,7,0.7,0.6
2023-06-14T11:00:00,1694A,115.3706,22.7898,汕尾市,市政府,,30,13,16,11,10,133,96,82,78,8,7,4,4,0.4,0.4
2023-06-14T11:00:00,1695A,115.3622,22.7925,汕尾市,新城中学,,33,12,19,8,10,136,104,82,81,6,4,5,5,0.7,0.7
2023-06-14T11:00:00,1696A,114.6778,23.7569,河源市,源西,,23,22,27,16,23,132,50,64,39,23,18,4,4,0.8,0.7
2023-06-14T11:00:00,1697A,114.6944,23.7586,河源市,东埔,,29,29,26,15,21,124,53,81,48,19,14,4,4,0.9,0.7
2023-06-14T11:00:00,1698A,114.6892,23.7233,河源市,老城,,36,36,41,10,22,119,55,62,43,14,15,4,4,0.8,0.7
2023-06-14T11:00:00,1699A,111.9797,21.8593,阳江市,鸳鸯湖,,29,29,28,14,14,159,60,82,48,8,7,8,8,0.8,0.8
2023-06-14T11:00:00,1701A,111.9491,21.8658,阳江市,马南垌,,,23,30,13,16,162,56,78,46,,9,5,5,0.7,0.8
2023-06-14T11:00:00,1702A,113.0426,23.691,清远市,环保大楼,,40,34,42,28,32,171,50,91,57,12,11,6,7,0.6,0.6
2023-06-14T11:00:00,1703A,113.0208,23.7106,清远市,凤城街办,,39,38,44,27,30,157,46,89,62,11,10,4,5,0.7,0.6
2023-06-14T11:00:00,1705A,116.6367,23.6719,潮州市,西园路,,32,31,31,22,16,147,45,62,45,8,6,4,4,0.6,0.5
2023-06-14T11:00:00,1706A,116.6447,23.6706,潮州市,档案局,,,22,26,16,13,162,57,80,58,,5,5,4,0.6,0.5
2023-06-14T11:00:00,1708A,116.3701,23.5345,揭阳市,新兴,颗粒物(PM10),53,55,40,27,22,163,68,83,58,19,11,9,8,0.9,0.7
2023-06-14T11:00:00,1709A,116.3264,23.5443,揭阳市,西马,,,84,42,,25,176,58,82,49,,11,8,8,,0.8
2023-06-14T11:00:00,1710A,116.3611,23.5626,揭阳市,东兴,颗粒物(PM10),57,64,47,19,20,168,53,68,45,22,17,5,4,1.0,0.9
2023-06-14T11:00:00,1711A,116.4151,23.5294,揭阳市,渔湖,颗粒物(PM10),54,57,44,24,24,158,69,81,48,17,13,8,7,1.0,0.9
2023-06-14T11:00:00,1712A,112.0392,22.9169,云浮市,新市府,,29,15,32,20,25,142,63,83,65,15,9,5,7,0.7,0.7
2023-06-14T11:00:00,1714A,112.0539,22.9539,云浮市,牧羊,颗粒物(PM10),57,63,43,35,30,138,39,62,36,39,27,35,19,0.7,0.6
2023-06-14T11:00:00,1715A,102.575,24.3711,玉溪市,东风水库,,,,19,,11,123,89,95,95,14,9,7,8,5.6,0.8
2023-06-14T11:00:00,1718A,115.4208,35.2464,菏泽市,气象局,臭氧1小时,97,69,74,24,31,224,197,91,88,13,29,6,5,0.4,0.5
2023-06-14T11:00:00,1719A,115.4747,35.2375,菏泽市,市政协,臭氧1小时,101,64,72,29,36,225,201,97,90,12,25,8,6,0.3,0.3
2023-06-14T11:00:00,1721A,113.3819,40.1097,大同市,果树场,颗粒物(PM10),51,51,51,15,22,128,106,38,38,23,21,20,16,0.5,0.4
2023-06-14T11:00:00,1723A,113.2994,40.0758,大同市,云冈宾馆,,49,49,48,11,12,135,122,59,59,23,32,19,16,0.6,0.7
2023-06-14T11:00:00,1724A,113.3444,40.0917,大同市,大同大学,颗粒物(PM10),60,70,44,19,15,129,116,70,70,22,22,23,22,0.6,0.6
2023-06-14T11:00:00,1725A,113.2661,40.1269,大同市,安家小村,,39,28,46,8,15,131,123,58,58,6,18,12,12,0.3,0.7
2023-06-14T11:00:00,1726A,113.2711,40.0844,大同市,教育学院,颗粒物(PM10),63,76,42,12,14,127,113,54,54,25,31,20,18,0.5,0.6
2023-06-14T11:00:00,1727A,113.1147,36.1547,长治市,清华站,臭氧1小时,72,54,41,19,18,191,177,89,85,14,22,13,8,0.9,0.8
2023-06-14T11:00:00,1728A,113.1031,36.1989,长治市,监测站,臭氧1小时,67,52,41,22,20,186,173,96,96,23,23,15,11,0.9,0.8
2023-06-14T11:00:00,1730A,113.0886,36.2125,长治市,审计局,臭氧1小时,58,47,39,27,22,188,166,94,82,21,23,17,13,0.8,0.7
2023-06-14T11:00:00,1731A,113.0844,36.1856,长治市,长治八中,,,59,46,19,20,190,161,102,90,,22,16,10,0.7,0.6
2023-06-14T11:00:00,1733A,111.5531,36.0783,临汾市,临钢医院,颗粒物(PM10),64,77,70,38,27,193,156,72,72,17,29,6,3,1.1,0.8
2023-06-14T11:00:00,1734A,111.5028,36.0714,临汾市,技工学校,,,72,65,24,22,208,159,80,80,19,24,,6,,0.8
2023-06-14T11:00:00,1736A,111.5018,36.0855,临汾市,市委,颗粒物(PM10),59,67,61,31,23,192,164,87,87,21,29,10,5,1.0,0.7
2023-06-14T11:00:00,1738A,113.5758,37.8572,阳泉市,市中心,,,40,50,21,19,183,159,53,53,,44,,14,0.7,0.8
2023-06-14T11:00:00,1739A,113.4894,37.8731,阳泉市,赛鱼,,50,46,43,7,16,168,157,93,93,18,38,18,12,0.7,0.7
2023-06-14T11:00:00,1740A,113.5819,37.8486,阳泉市,南庄,臭氧1小时,60,35,55,16,26,186,168,69,69,21,34,18,18,0.6,0.7
2023-06-14T11:00:00,1742A,113.5614,37.8703,阳泉市,平坦,,,48,53,18,18,175,154,74,74,20,42,,13,,0.6
2023-06-14T11:00:00,1743A,113.5158,37.8392,阳泉市,大阳泉,,50,31,25,12,19,191,157,121,121,16,20,14,10,0.7,0.6
2023-06-14T11:00:00,1744A,118.9233,42.2816,赤峰市,松山一中,,34,33,26,8,9,133,108,62,62,31,34,13,14,0.4,0.5
2023-06-14T11:00:00,1745A,118.9576,42.2728,赤峰市,哈达街,,40,30,22,11,9,140,125,74,74,21,26,16,17,0.5,0.5
2023-06-14T11:00:00,1746A,118.8788,42.2554,赤峰市,天义路,,,,18,,11,140,133,71,71,,28,,16,0.3,0.3
2023-06-14T11:00:00,1748A,123.044,41.1196,鞍山市,深沟寺,细颗粒物(PM2.5),97,96,56,72,41,160,128,94,84,48,20,38,14,3.0,1.1
2023-06-14T11:00:00,1749A,123.011,41.0931,鞍山市,太阳城,细颗粒物(PM2.5),78,76,59,57,40,162,162,97,97,29,23,30,12,2.1,1.4
2023-06-14T11:00:00,1750A,123.0485,41.1442,鞍山市,太平,细颗粒物(PM2.5),102,119,60,76,37,154,134,82,79,47,27,32,13,2.5,1.1
2023-06-14T11:00:00,1751A,122.9642,41.0971,鞍山市,铁西三道街,,,91,82,58,49,176,176,90,90,18,35,13,12,,1.3
2023-06-14T11:00:00,1752A,122.9341,41.0833,鞍山市,铁西工业园区,细颗粒物(PM2.5),65,71,80,47,46,168,168,90,90,14,32,14,14,1.1,1.3
2023-06-14T11:00:00,1753A,123.022,41.0821,鞍山市,明达新区,细颗粒物(PM2.5),72,69,56,52,37,174,174,101,101,20,25,21,13,1.3,1.1
2023-06-14T11:00:00,1754A,123.1289,41.0228,鞍山市,千山,,,,,,,,,,,,,,,,
2023-06-14T11:00:00,1755A,123.7977,41.8491,抚顺市,望花区,细颗粒物(PM2.5),82,98,53,60,29,175,152,61,61,45,34,34,8,1.4,0.7
2023-06-14T11:00:00,1756A,123.9161,41.8822,抚顺市,顺城区,"颗粒物(PM10),细颗粒物(PM2.5)",52,53,34,36,21,172,140,52,52,29,29,20,8,0.9,0.7
2023-06-14T11:00:00,1757A,124.0436,41.8611,抚顺市,东洲区,,,70,24,39,15,163,163,56,56,16,15,,5,,0.5
2023-06-14T11:00:00,1758A,123.9247,41.8642,抚顺市,新抚区,颗粒物(PM10),51,51,33,34,23,178,147,49,49,26,28,19,9,0.7,0.5
2023-06-14T11:00:00,1759A,124.0972,41.8961,抚顺市,大伙房水库,,50,30,18,35,15,136,136,53,53,12,15,16,5,1.0,0.5
2023-06-14T11:00:00,1760A,123.7086,41.8391,抚顺市,沈抚新城,细颗粒物(PM2.5),70,56,58,51,37,169,138,51,51,24,37,21,16,0.9,1.2
2023-06-14T11:00:00,1761A,123.8275,41.3064,本溪市,大峪,颗粒物(PM10),51,52,35,33,16,160,160,60,60,13,21,10,7,0.5,0.7
2023-06-14T11:00:00,1762A,123.7567,41.3325,本溪市,溪湖,,44,43,34,28,22,154,140,50,50,14,21,15,12,0.9,1
2023-06-14T11:00:00,1763A,123.7169,41.3094,本溪市,彩屯,细颗粒物(PM2.5),59,64,49,42,32,148,146,42,42,22,33,25,15,1.1,1.6
2023-06-14T11:00:00,1764A,123.7669,41.2864,本溪市,东明,臭氧1小时,53,50,40,30,22,162,162,57,57,14,30,16,11,0.6,0.9
2023-06-14T11:00:00,1765A,123.7992,41.2664,本溪市,新立屯,,,,38,,23,138,128,58,58,,31,12,9,,0.9
2023-06-14T11:00:00,1766A,123.8142,41.3472,本溪市,威宁,,50,50,42,29,22,130,121,46,46,17,21,10,6,0.9,0.7
2023-06-14T11:00:00,1767A,121.1115,41.0879,锦州市,南山,,49,11,44,27,60,165,154,64,64,9,26,9,21,0.6,0.7
2023-06-14T11:00:00,1768A,121.0533,40.8434,锦州市,开发区,,,26,58,22,49,168,144,52,52,,44,9,14,0.6,0.6
2023-06-14T11:00:00,1769A,121.1836,41.1119,锦州市,百股街道,臭氧1小时,53,9,36,22,35,166,162,75,74,8,21,8,17,0.5,0.6
2023-06-14T11:00:00,1770A,121.1178,41.1222,锦州市,天安街道,,46,11,55,22,46,150,145,67,67,18,35,10,22,0.8,0.8
2023-06-14T11:00:00,1771A,121.1303,41.1386,锦州市,北湖公园,,,57,57,33,51,168,,70,55,12,21,8,18,0.7,0.7
2023-06-14T11:00:00,1772A,126.54,43.8622,吉林市,哈达湾,,,36,41,27,26,159,151,69,69,,31,,5,0.6,0.6
2023-06-14T11:00:00,1773A,126.5844,43.8358,吉林市,东局子,,48,42,37,29,25,161,153,76,76,16,22,6,8,0.7,0.7
2023-06-14T11:00:00,1774A,126.5052,43.8245,吉林市,电力学院,臭氧1小时,52,37,44,23,30,161,161,61,61,13,38,7,8,0.6,0.6
2023-06-14T11:00:00,1775A,126.6133,43.8972,吉林市,江北,臭氧1小时,57,43,45,23,25,165,165,81,81,18,28,7,9,0.7,0.7
2023-06-14T11:00:00,1776A,126.555,43.8306,吉林市,江南公园,,49,39,36,33,28,155,155,72,72,18,26,5,5,0.6,0.6
2023-06-14T11:00:00,1778A,126.7061,43.7133,吉林市,丰满,,,,,,,,,,,,,,,,
2023-06-14T11:00:00,1779A,123.9305,47.3636,齐齐哈尔市,安居小区,,40,40,30,11,15,143,121,112,105,14,14,4,3,0.5,0.5
2023-06-14T11:00:00,1780A,123.9488,47.3386,齐齐哈尔市,中心广场,,,,26,,4,143,120,113,104,14,13,,7,,0.4
2023-06-14T11:00:00,1781A,123.9483,47.3227,齐齐哈尔市,农牧车辆厂,,48,48,36,12,9,143,119,111,106,18,14,7,7,0.3,0.3
2023-06-14T11:00:00,1783A,123.945,47.2988,齐齐哈尔市,市环境监测站,,44,44,22,16,18,153,134,116,116,7,9,7,7,0.4,0.4
2023-06-14T11:00:00,1784A,129.61,44.561,牡丹江市,环保大楼,,32,10,18,10,12,105,102,50,50,14,21,5,5,0.4,0.4
2023-06-14T11:00:00,1785A,129.6115,44.5782,牡丹江市,文化广场,,,,22,,19,112,112,57,47,17,28,4,5,0.4,0.5
2023-06-14T11:00:00,1786A,129.5904,44.5963,牡丹江市,第一医院,,33,25,22,7,16,104,104,41,41,13,17,3,3,0.3,0.4
2023-06-14T11:00:00,1787A,129.6364,44.6075,牡丹江市,机车工厂,,30,15,19,4,9,104,96,41,41,16,14,2,2,0.5,0.5
2023-06-14T11:00:00,1788A,129.6386,44.5462,牡丹江市,第一中学,,32,5,11,5,8,113,101,94,94,13,10,2,2,0.3,0.2
2023-06-14T11:00:00,1789A,124.81117,46.03138,大庆市,大同区,,46,43,28,11,14,145,145,121,121,9,12,5,6,0.3,0.3
2023-06-14T11:00:00,1790A,125.129,46.533,大庆市,龙凤区,,43,36,32,10,14,146,135,106,106,7,12,4,6,0.0,0.1
2023-06-14T11:00:00,1791A,124.902,46.408,大庆市,红岗区,,43,40,25,15,16,145,135,121,121,10,12,2,3,0.3,0.3
2023-06-14T11:00:00,1792A,125.153,46.586,大庆市,萨尔图区,,,,27,,15,140,131,118,118,,14,,7,0.3,0.3
2023-06-14T11:00:00,1793A,124.9042,46.6215,大庆市,让胡路区,,44,32,25,7,12,138,138,116,116,8,15,5,5,0.3,0.3
2023-06-14T11:00:00,1794A,118.3606,31.3519,芜湖市,监测站,臭氧1小时,78,45,49,25,31,182,182,73,73,23,52,12,12,0.5,0.8
2023-06-14T11:00:00,1795A,118.3714,31.4134,芜湖市,科创中心,臭氧1小时,78,48,57,28,32,182,182,80,80,16,52,10,9,0.6,0.9
2023-06-14T11:00:00,1796A,118.3673,31.3131,芜湖市,四水厂,臭氧1小时,68,48,54,30,30,174,174,104,69,28,51,12,13,0.7,1.1
2023-06-14T11:00:00,1798A,118.5092,31.6837,马鞍山市,湖东路四小,臭氧1小时,84,36,53,17,41,215,187,99,99,17,30,14,11,0.9,0.9
2023-06-14T11:00:00,1799A,118.5024,31.6449,马鞍山市,开发区,臭氧1小时,89,59,63,24,33,191,191,79,72,13,40,8,8,0.5,0.7
2023-06-14T11:00:00,1800A,118.5228,31.7231,马鞍山市,慈湖,臭氧1小时,79,19,58,19,34,215,183,92,92,21,34,17,12,1.5,1.2
2023-06-14T11:00:00,1802A,118.6245,31.7241,马鞍山市,濮塘,,,51,48,28,34,193,193,96,92,,22,,8,,0.9
2023-06-14T11:00:00,1803A,115.9872,29.6815,九江市,十里,"细颗粒物(PM2.5),臭氧1小时",53,47,38,37,26,174,162,93,93,13,24,12,9,0.6,0.6
2023-06-14T11:00:00,1804A,115.9584,29.7046,九江市,茅山头,,,,38,,27,174,155,91,91,,23,9,10,0.7,0.6
2023-06-14T11:00:00,1805A,115.9877,29.7295,九江市,西园,颗粒物(PM10),57,64,47,34,28,167,154,79,79,22,34,16,13,0.6,0.6
2023-06-14T11:00:00,1806A,116.0172,29.6547,九江市,五七二七厂,,,,34,,22,167,167,134,113,14,12,11,8,,0.6
2023-06-14T11:00:00,1808A,115.9114,29.6038,九江市,综合工业园,臭氧1小时,55,53,35,23,23,172,164,90,90,24,30,13,10,0.7,0.8
2023-06-14T11:00:00,1809A,116.0721,29.7535,九江市,石化总厂,,50,50,50,24,28,156,155,66,66,16,45,12,11,0.7,0.7
2023-06-14T11:00:00,1810A,115.9773,29.5698,九江市,庐山气象台,臭氧1小时,52,24,26,26,24,166,161,166,144,7,5,6,7,1.1,0.9
2023-06-14T11:00:00,1812A,112.3931,34.6516,洛阳市,市委党校,,42,33,34,20,24,190,133,85,85,8,22,2,2,0.4,0.4
2023-06-14T11:00:00,1814A,112.4657,34.6871,洛阳市,豫西宾馆,,,,57,17,26,189,127,56,56,,38,3,5,0.3,0.8
2023-06-14T11:00:00,1815A,112.494,34.6886,洛阳市,河南林校,,39,33,37,19,20,180,122,72,72,13,28,6,6,0.4,0.5
2023-06-14T11:00:00,1816A,112.3844,34.623,洛阳市,开发区管委会,,42,34,30,19,17,188,134,72,72,10,16,4,3,0.3,0.3
2023-06-14T11:00:00,1817A,112.4267,34.6258,洛阳市,市委新办公区,,44,37,32,19,21,193,140,84,84,10,20,3,3,0.5,0.6
2023-06-14T11:00:00,1818A,114.4839,36.0621,安阳市,棉研所,臭氧1小时,104,60,50,33,19,220,208,88,82,13,32,13,14,0.5,0.4
2023-06-14T11:00:00,1819A,114.3551,36.1017,安阳市,红庙街,臭氧1小时,102,79,61,26,21,219,204,124,124,15,18,12,9,0.6,0.5
2023-06-14T11:00:00,1820A,114.361,36.0681,安阳市,银杏小区,臭氧1小时,100,61,54,31,19,216,200,99,99,14,20,10,6,0.7,0.5
2023-06-14T11:00:00,1824A,114.3389,34.7781,开封市,肿瘤医院,臭氧1小时,97,87,80,31,29,224,197,87,87,19,27,13,9,0.5,0.5
2023-06-14T11:00:00,1826A,114.2885,34.7965,开封市,世纪星幼儿园,臭氧1小时,94,80,57,30,24,211,195,92,92,20,27,9,4,0.7,0.6
2023-06-14T11:00:00,1828A,113.227,35.2125,焦作市,市环保局,臭氧1小时,59,63,62,18,24,237,167,124,80,29,31,12,12,0.9,0.7
2023-06-14T11:00:00,1830A,113.1992,35.2590,焦作市,影视城,臭氧1小时,88,18,26,14,20,229,190,187,152,6,8,10,10,0.8,0.7
2023-06-14T11:00:00,1832A,113.3257,33.742,平顶山市,新华旅馆,臭氧1小时,77,46,68,22,32,226,181,109,109,12,27,7,7,0.5,0.6
2023-06-14T11:00:00,1833A,113.2919,33.737,平顶山市,规划设计院,,,63,63,20,31,230,178,92,92,,28,10,11,,0.4
2023-06-14T11:00:00,1834A,113.182,33.774,平顶山市,平顶山工学院,臭氧1小时,72,61,51,24,23,228,177,138,97,18,17,19,10,0.5,0.4
2023-06-14T11:00:00,1835A,111.1922,34.7752,三门峡市,市政府,,,45,38,18,20,181,154,89,89,15,22,,6,0.6,0.5
2023-06-14T11:00:00,1836A,111.1587,34.7942,三门峡市,开发区,,50,50,50,23,24,177,159,78,78,13,19,10,8,0.7,0.6
2023-06-14T11:00:00,1838A,111.143,34.7955,三门峡市,风景区,,,,43,,24,182,,65,64,16,23,,10,0.6,0.5
2023-06-14T11:00:00,1840A,111.2992,30.6981,宜昌市,白龙岗,,41,31,33,17,20,180,131,88,64,16,26,5,6,0.4,0.4
2023-06-14T11:00:00,1841A,111.3549,30.6465,宜昌市,伍家岗,,39,17,35,22,24,177,122,88,74,22,30,7,7,0.5,0.6
2023-06-14T11:00:00,1842A,111.2628,30.6961,宜昌市,点军区,,36,33,37,14,17,184,113,65,54,19,25,7,7,0.5,0.5
2023-06-14T11:00:00,1843A,111.3275,30.7819,宜昌市,夷陵区,,41,41,32,17,16,180,110,88,68,21,23,7,6,0.5,0.4
2023-06-14T11:00:00,1844A,112.2494,30.3197,荆州市,市图书馆,颗粒物(PM10),56,61,45,25,28,186,124,124,75,27,17,6,7,0.8,0.7
2023-06-14T11:00:00,1845A,112.2008,30.3544,荆州市,市委党校,颗粒物(PM10),53,56,52,24,29,184,138,105,72,11,16,8,9,0.7,0.7
2023-06-14T11:00:00,1847A,113.1094,29.3578,岳阳市,南湖风景区,,48,46,30,31,23,173,153,71,71,16,16,12,8,0.9,0.7
2023-06-14T11:00:00,1848A,113.1493,29.4251,岳阳市,城陵矶,,47,47,33,29,21,152,147,62,62,24,37,10,8,0.7,0.7
2023-06-14T11:00:00,1849A,113.1497,29.3575,岳阳市,开发区,臭氧1小时,65,39,33,26,19,172,172,69,69,9,18,8,10,0.7,0.6
2023-06-14T11:00:00,1850A,113.2621,29.4758,岳阳市,云溪区,,,32,27,24,18,155,155,75,75,,13,,6,,0.6
2023-06-14T11:00:00,1851A,112.9943,29.4402,岳阳市,君山区,,47,33,27,20,22,157,149,96,86,11,14,6,6,0.6,0.5
2023-06-14T11:00:00,1852A,113.2117,29.355,岳阳市,金凤水库,臭氧1小时,57,39,25,28,19,168,165,74,74,5,10,5,3,0.8,0.7
2023-06-14T11:00:00,1854A,111.6975,28.9703,常德市,市二中,颗粒物(PM10),51,51,40,32,28,169,114,86,65,12,13,10,7,0.5,0.4
2023-06-14T11:00:00,1857A,111.7158,29.1456,常德市,白鹤山,细颗粒物(PM2.5),55,49,33,39,26,163,134,138,102,4,5,8,4,0.6,0.4
2023-06-14T11:00:00,1858A,110.5319,29.1217,张家界市,永定新区,,48,46,22,33,16,133,63,67,46,28,14,4,4,0.3,0.2
2023-06-14T11:00:00,1859A,110.4697,29.1242,张家界市,电业局,,47,47,26,24,19,131,55,79,47,27,13,4,4,0.3,0.2
2023-06-14T11:00:00,1860A,110.5594,29.3547,张家界市,未央路,,37,37,20,20,13,125,66,43,43,20,10,3,3,0.3,0.2
2023-06-14T11:00:00,1861A,110.4417,29.315,张家界市,袁家界,,42,32,18,23,14,134,134,93,89,12,6,8,8,0.7,0.6
2023-06-14T11:00:00,1862A,110.4144,25.3167,桂林市,电子科大尧山校区,,34,23,16,14,13,107,107,93,86,4,5,5,4,0.7,0.6
2023-06-14T11:00:00,1863A,110.2819,25.2697,桂林市,监测站,,36,25,20,25,13,93,90,80,73,6,9,4,4,0.7,0.6
2023-06-14T11:00:00,1864A,110.3089,25.2708,桂林市,龙隐路小学,,27,21,19,14,15,91,86,78,71,6,7,9,15,0.6,0.6
2023-06-14T11:00:00,1865A,110.2869,25.2178,桂林市,八中,,27,26,19,10,10,93,84,77,70,7,9,6,9,0.5,0.5
2023-06-14T11:00:00,1866A,109.2262,21.588,北海市,牛尾岭水库,,,,13,,5,79,,45,45,,5,,3,,0.5
2023-06-14T11:00:00,1867A,109.1436,21.4086,北海市,海滩公园,,,,18,,3,94,84,80,72,,5,,2,0.7,0.4
2023-06-14T11:00:00,1868A,109.0981,21.4661,北海市,新市环保局,,24,24,16,7,4,86,69,80,71,10,6,2,2,0.6,0.5
2023-06-14T11:00:00,1869A,109.1778,21.5233,北海市,北海工业园,,31,31,20,20,10,100,65,69,56,5,7,5,4,0.5,0.5
2023-06-14T11:00:00,1870A,109.4856,24.3895,柳州市,柳东小学,,26,21,19,14,17,98,81,54,46,6,8,7,9,0.6,0.6
2023-06-14T11:00:00,1871A,109.4157,24.3277,柳州市,环保监测站,,32,32,23,9,12,100,72,50,45,8,14,8,8,0.6,0.7
2023-06-14T11:00:00,1872A,109.389,24.341,柳州市,河西水厂,,29,29,25,6,15,95,71,39,39,8,18,11,15,0.6,0.7
2023-06-14T11:00:00,1873A,109.4311,24.2921,柳州市,市四中,,,,18,,12,103,72,56,49,,9,8,10,0.7,0.8
2023-06-14T11:00:00,1874A,109.4006,24.3631,柳州市,市九中,,24,23,24,11,13,105,76,50,42,6,14,12,13,0.6,0.6
2023-06-14T11:00:00,1875A,109.4958,24.3134,柳州市,古亭山,,26,22,19,12,10,94,81,55,46,5,5,2,4,0.6,0.5
2023-06-14T11:00:00,1876A,109.5078,18.2489,三亚市,河东子站,,22,18,24,10,10,83,70,71,54,6,8,1,1,0.5,0.4
2023-06-14T11:00:00,1877A,109.4964,18.2681,三亚市,河西子站,,24,24,25,10,12,89,73,70,53,5,8,1,2,0.4,0.4
2023-06-14T11:00:00,1878A,104.7778,31.4741,绵阳市,富乐山,,40,31,43,21,25,181,125,120,103,9,14,5,4,0.4,0.4
2023-06-14T11:00:00,1879A,104.7563,31.4535,绵阳市,市人大,,,34,43,22,25,165,104,113,93,,17,,10,0.5,0.5
2023-06-14T11:00:00,1880A,104.6697,31.4668,绵阳市,高新区自来水公司,颗粒物(PM10),53,56,54,28,31,181,118,104,79,14,21,9,8,0.5,0.5
2023-06-14T11:00:00,1881A,104.7287,31.5075,绵阳市,三水厂,颗粒物(PM10),53,55,52,28,27,187,123,107,69,10,23,6,6,0.5,0.5
2023-06-14T11:00:00,1882A,104.563,28.793,宜宾市,石马中学,,27,16,36,13,25,202,84,87,86,11,15,3,6,0.4,0.5
2023-06-14T11:00:00,1883A,104.6201,28.7728,宜宾市,市委,,,27,49,15,35,209,74,85,85,28,29,7,9,,0.4
2023-06-14T11:00:00,1884A,104.6055,28.793,宜宾市,宜宾四中,,28,24,43,17,28,231,88,91,91,13,21,10,10,0.4,0.5
2023-06-14T11:00:00,1885A,104.639,28.7562,宜宾市,市政府,,,32,44,22,27,211,70,102,99,50,26,7,9,,0.6
2023-06-14T11:00:00,1886A,104.5742,28.7199,宜宾市,黄金嘴,,25,24,39,15,25,200,78,86,86,16,19,4,6,0.4,0.5
2023-06-14T11:00:00,1888A,101.6891,26.571,攀枝花市,弄弄坪,,,48,28,34,19,88,12,79,34,54,19,15,9,,1.2
2023-06-14T11:00:00,1889A,101.5769,26.5928,攀枝花市,河门口,,19,12,15,9,11,104,59,82,67,23,15,6,6,1.0,0.9
2023-06-14T11:00:00,1890A,101.7169,26.585,攀枝花市,炳草岗,,,35,32,46,30,79,16,59,30,,35,8,7,2.3,1.4
2023-06-14T11:00:00,1891A,101.7369,26.5008,攀枝花市,仁和,,45,36,44,31,35,90,35,30,28,33,39,11,21,2.4,2.5
2023-06-14T11:00:00,1893A,105.4324,28.9634,泸州市,九狮山,,42,42,33,23,15,183,81,62,62,26,23,12,8,0.6,0.6
2023-06-14T11:00:00,1894A,105.4427,28.9063,泸州市,小市上码头,,,52,52,33,29,198,62,82,61,,18,,8,0.7,0.7
2023-06-14T11:00:00,1895A,105.4241,28.8573,泸州市,兰田宪桥,颗粒物(PM10),55,59,59,38,36,184,65,54,54,23,17,7,8,0.8,0.7
2023-06-14T11:00:00,1896A,105.4379,28.8833,泸州市,市环监站,颗粒物(PM10),53,55,50,29,24,186,70,82,67,28,25,6,8,0.7,0.6
2023-06-14T11:00:00,1901A,104.4239,31.1208,德阳市,东山公园,,48,48,48,24,26,212,90,88,63,21,21,4,4,0.5,0.5
2023-06-14T11:00:00,1902A,104.3826,31.1317,德阳市,西小区,颗粒物(PM10),54,58,62,32,34,200,88,71,57,23,22,4,2,0.6,0.5
2023-06-14T11:00:00,1904A,104.3553,31.1091,德阳市,耐火材料厂,颗粒物(PM10),52,53,57,30,29,231,93,70,58,24,19,3,2,0.6,0.5
2023-06-14T11:00:00,1905A,106.056,30.8064,南充市,西山风景区,颗粒物(PM10),52,53,47,27,26,161,85,121,86,19,12,13,7,0.5,0.4
2023-06-14T11:00:00,1906A,106.0789,30.8023,南充市,南充市委,颗粒物(PM10),55,59,44,30,25,156,92,111,91,24,18,21,12,0.6,0.5
2023-06-14T11:00:00,1907A,106.1031,30.8217,南充市,南充炼油厂,颗粒物(PM10),58,65,54,30,25,165,104,113,92,21,15,23,13,0.5,0.4
2023-06-14T11:00:00,1908A,106.1064,30.7856,南充市,高坪区监测站,颗粒物(PM10),52,54,48,35,29,157,98,102,91,19,19,29,13,0.5,0.4
2023-06-14T11:00:00,1909A,106.0642,30.7636,南充市,嘉陵区环保局,颗粒物(PM10),57,63,49,29,28,188,94,108,95,24,22,17,10,0.5,0.4
2023-06-14T11:00:00,1910A,106.1087,30.8388,南充市,市环境监测站,颗粒物(PM10),54,58,48,26,29,167,100,114,80,26,20,18,12,0.3,0.3
2023-06-14T11:00:00,1911A,106.9222,27.6869,遵义市,丁字口,,29,12,24,9,14,144,92,78,78,15,21,4,5,0.7,0.8
2023-06-14T11:00:00,1912A,106.9242,27.7019,遵义市,凤凰山,,,15,23,8,19,171,72,92,90,10,14,7,7,,0.4
2023-06-14T11:00:00,1913A,106.8906,27.6486,遵义市,忠庄,,,14,28,9,17,167,93,73,73,13,12,3,2,,0.6
2023-06-14T11:00:00,1914A,106.9231,27.6506,遵义市,舟水桥,,29,15,23,17,20,152,90,68,68,15,14,2,2,0.5,0.5
2023-06-14T11:00:00,1915A,106.9178,27.72,遵义市,干田坝,,31,17,26,7,14,168,98,82,82,11,15,4,5,0.7,0.7
2023-06-14T11:00:00,1916A,103.7897,25.5035,曲靖市,环境监测站,,49,49,36,24,12,129,99,88,88,16,15,6,9,0.6,0.6
2023-06-14T11:00:00,1917A,103.8,25.5364,曲靖市,烟厂办公区,,42,42,33,23,13,130,93,85,69,16,14,3,4,0.4,0.4
2023-06-14T11:00:00,1918A,108.7197,34.3956,咸阳市,气象站,,,,,,,,,,,,,,,,
2023-06-14T11:00:00,1919A,108.673,34.3155,咸阳市,实验中学,颗粒物(PM10),63,76,67,29,28,255,138,65,46,33,45,7,5,0.5,0.6
2023-06-14T11:00:00,1920A,108.7233,34.3617,咸阳市,师范学院,,,72,68,30,26,233,143,46,43,,46,8,5,0.6,0.6
2023-06-14T11:00:00,1922A,109.0656,35.0994,铜川市,党校,,49,31,66,7,19,184,155,67,67,15,36,8,6,0.8,0.9
2023-06-14T11:00:00,1923A,109.0697,35.0697,铜川市,王益区政府,,50,39,49,15,22,190,158,77,77,17,25,9,9,0.5,0.5
2023-06-14T11:00:00,1924A,108.9344,34.9058,铜川市,新区管委会,颗粒物(PM10),60,70,54,26,24,204,156,101,101,22,21,17,9,0.6,0.4
2023-06-14T11:00:00,1926A,109.4131,36.6275,延安市,枣园,,46,35,35,18,12,176,146,55,55,18,27,6,6,0.6,0.6
2023-06-14T11:00:00,1927A,109.4761,36.6028,延安市,延大医附院,,50,38,36,26,14,178,158,60,60,21,34,5,5,0.3,0.3
2023-06-14T11:00:00,1929A,109.5056,36.6106,延安市,百米大道,,50,50,42,24,16,171,151,57,57,24,39,5,5,0.5,0.4
2023-06-14T11:00:00,1930A,107.185,34.3063,宝鸡市,庙沟村,,37,10,27,11,12,192,118,121,97,6,6,7,8,0.3,0.3
2023-06-14T11:00:00,1931A,107.0708,34.3017,宝鸡市,竹园沟,,41,15,24,15,14,194,129,89,77,10,12,5,5,0.4,0.4
2023-06-14T11:00:00,1932A,107.1906,34.3672,宝鸡市,三陆医院,,40,40,49,10,18,197,120,73,72,17,27,6,11,0.4,0.5
2023-06-14T11:00:00,1933A,107.1431,34.3547,宝鸡市,监测站,,37,28,35,12,16,191,116,81,71,13,19,7,8,0.4,0.4
2023-06-14T11:00:00,1934A,107.1186,34.3739,宝鸡市,技工学校,,,,40,14,21,195,115,89,80,18,16,7,7,0.4,0.4
2023-06-14T11:00:00,1935A,107.3906,34.3528,宝鸡市,陈仓区环保局家属楼,,49,49,47,21,24,192,137,78,78,21,35,9,15,0.5,0.5
2023-06-14T11:00:00,1936A,107.2058,34.3497,宝鸡市,文理学院,,38,28,42,16,19,195,121,83,73,16,21,6,8,0.5,0.5
2023-06-14T11:00:00,1937A,107.2386,34.3622,宝鸡市,三迪小学,,50,50,50,19,23,197,116,76,73,30,27,6,7,0.5,0.4
2023-06-14T11:00:00,1938A,109.5293,34.5101,渭南市,农科所,颗粒物(PM10),78,105,57,48,28,186,142,102,51,30,33,13,6,0.7,0.6
2023-06-14T11:00:00,1939A,109.4974,34.4877,渭南市,日报社,颗粒物(PM10),76,102,50,49,25,202,150,72,53,43,40,16,9,0.8,0.5
2023-06-14T11:00:00,1940A,109.4636,34.493,渭南市,体育馆,,,97,57,49,21,206,143,99,36,,45,6,9,,0.4
2023-06-14T11:00:00,1941A,109.4259,34.5023,渭南市,高新一小,颗粒物(PM10),73,96,68,39,25,201,132,68,48,34,40,17,6,0.7,0.5
2023-06-14T11:00:00,1943A,102.1725,38.5339,金昌市,新川苑,颗粒物(PM10),56,61,45,6,13,156,139,110,110,15,16,14,25,0.5,0.6
2023-06-14T11:00:00,1944A,102.1692,38.5167,金昌市,天庆家园,,,42,53,1,11,159,136,105,105,11,18,,27,0.4,0.6
2023-06-14T11:00:00,1945A,98.2908,39.7711,嘉峪关市,气象局,,44,44,58,12,15,148,139,115,87,12,16,4,3,0.2,0.2
2023-06-14T11:00:00,1947A,106.3394,38.817,石嘴山市,沙湖旅游区,,47,47,40,30,16,132,116,56,53,16,27,44,28,0.7,0.8
2023-06-14T11:00:00,1948A,106.3668,39.0145,石嘴山市,大武口朝阳西街,,49,47,36,23,12,182,154,89,89,8,17,33,21,0.4,0.4
2023-06-14T11:00:00,1949A,106.7704,39.2282,石嘴山市,惠农南大街,,,,31,15,11,166,156,85,85,17,28,,13,0.2,0.4
2023-06-14T11:00:00,1950A,106.7099,39.1325,石嘴山市,红果子镇惠新街,"颗粒物(PM10),臭氧1小时",52,54,28,12,6,176,161,93,93,16,21,18,7,0.5,0.2
2023-06-14T11:00:00,1951A,84.895,45.6094,克拉玛依市,长征新村,,37,37,46,1,12,138,106,74,74,7,20,8,8,0.2,0.3
2023-06-14T11:00:00,1952A,84.8988,45.5893,克拉玛依市,南林小区,颗粒物(PM10),55,60,41,6,17,136,109,56,56,14,34,6,6,0.1,0.4
2023-06-14T11:00:00,1954A,84.905,44.3396,克拉玛依市,独山子区,"颗粒物(PM10),细颗粒物(PM2.5)",53,56,52,37,29,166,124,124,112,10,10,10,11,0.4,0.4
2023-06-14T11:00:00,1955A,85.6979,46.098,克拉玛依市,乌尔禾区商贸楼,,44,44,50,28,19,141,44,64,48,19,15,18,12,0.5,0.4
2023-06-14T11:00:00,1956A,86.1472,41.7538,巴音郭楞州,孔雀公园,颗粒物(PM10),63,76,58,24,17,144,108,112,112,6,12,4,5,0.2,0.3
2023-06-14T11:00:00,1957A,86.1972,41.7166,巴音郭楞州,棉纺厂,颗粒物(PM10),76,101,63,25,23,142,110,110,109,9,9,4,4,0.3,0.3
2023-06-14T11:00:00,1958A,86.2357,41.7173,巴音郭楞州,经济开发区,颗粒物(PM10),72,94,56,11,20,132,119,124,115,8,4,3,3,0.3,0.2
2023-06-14T11:00:00,1961A,117.532,36.6868,济南市,东山小学,,,,52,,17,241,161,83,83,14,32,6,8,0.4,0.5
2023-06-14T11:00:00,1966A,120.0405,35.8735,青岛市,黄岛区4号,,,29,44,24,20,162,108,81,78,,25,6,6,0.5,0.6
2023-06-14T11:00:00,1982A,122.0693,37.2174,威海市,文登开发区,,,,38,,22,143,141,73,73,,16,6,6,,0.3
2023-06-14T11:00:00,2031A,113.1817,27.9958,株洲市,云田中学,细颗粒物(PM2.5),53,51,39,37,16,126,65,55,38,18,14,8,5,0.8,0.7
2023-06-14T11:00:00,2054A,114.1099,32.1059,信阳市,平桥分局,臭氧1小时,80,27,32,21,25,195,184,93,93,15,18,8,8,0.5,0.6
2023-06-14T11:00:00,2064A,113.9956,32.1271,信阳市,南湾水厂,臭氧1小时,55,26,34,12,18,200,164,114,98,4,6,7,7,0.3,0.4
2023-06-14T11:00:00,2065A,114.0775,32.1195,信阳市,市酿酒公司,臭氧1小时,69,22,37,24,26,197,175,87,87,10,16,9,9,0.5,0.6
2023-06-14T11:00:00,2066A,114.0609,32.1399,信阳市,审计局,臭氧1小时,73,25,31,23,26,203,178,118,118,9,16,7,7,0.6,0.7
2023-06-14T11:00:00,2067A,114.6613,33.6128,周口市,市环境监测站,臭氧1小时,103,59,59,48,39,229,206,136,129,18,17,8,6,0.6,0.6
2023-06-14T11:00:00,2068A,114.6758,33.6347,周口市,周口师范,,,,44,,32,223,199,139,126,15,17,7,5,,0.6
2023-06-14T11:00:00,2069A,114.6546,33.5979,周口市,市运管处,臭氧1小时,103,71,52,29,30,231,206,132,124,13,16,6,4,0.8,0.7
2023-06-14T11:00:00,2070A,114.6369,33.6406,周口市,川汇区环保局,臭氧1小时,85,39,46,29,30,211,188,109,102,17,18,8,6,0.6,0.6
2023-06-14T11:00:00,2075A,117.6336,24.4674,漳州市,九湖,,,,,,,,,,,,,,,,
2023-06-14T11:00:00,2160A,112.85,35.5051,晋城市,自来水公司,臭氧1小时,75,43,48,22,23,210,180,86,86,13,29,11,11,0.9,1
2023-06-14T11:00:00,2161A,112.8318,35.4936,晋城市,白云商贸,臭氧1小时,58,39,51,19,23,189,166,85,85,16,25,9,8,1.3,1.3
2023-06-14T11:00:00,2162A,112.8508,35.4887,晋城市,市环保局,,,69,49,,25,190,166,75,74,11,24,9,11,,0.6
2023-06-14T11:00:00,2163A,112.8676,35.4897,晋城市,技术学院,臭氧1小时,69,46,52,17,21,192,175,99,76,12,28,10,10,1.0,1
2023-06-14T11:00:00,2165A,112.8453,35.546,晋城市,白马寺,臭氧1小时,62,40,37,25,28,201,169,190,129,14,16,7,9,1.0,1.1
2023-06-14T11:00:00,2166A,112.4397,39.3522,朔州市,平朔,,,39,68,10,17,132,125,49,49,,40,5,12,,0.4
2023-06-14T11:00:00,2167A,112.4575,39.3617,朔州市,朔唯,,,46,95,12,21,196,138,55,55,21,44,9,18,,0.5
2023-06-14T11:00:00,2168A,112.4258,39.3197,朔州市,区政府,臭氧1小时,58,58,54,30,18,166,166,86,86,13,21,4,5,0.4,0.4
2023-06-14T11:00:00,2169A,112.4072,39.3278,朔州市,市环保局,,46,36,53,24,17,147,147,58,58,14,28,6,7,0.4,0.4
2023-06-14T11:00:00,2170A,112.4272,39.3681,朔州市,市二中,,44,40,76,11,18,139,139,55,55,12,33,9,13,0.4,0.4
2023-06-14T11:00:00,2171A,112.7532,37.6945,晋中市,锦纶小区,臭氧1小时,78,77,35,24,15,182,182,94,94,26,28,23,12,0.8,0.4
2023-06-14T11:00:00,2173A,112.7249,37.7067,晋中市,南都小区,颗粒物(PM10),73,95,44,33,18,172,172,90,90,25,35,19,9,0.8,0.5
2023-06-14T11:00:00,2174A,112.6991,37.6982,晋中市,榆次区政府,颗粒物(PM10),77,104,49,19,16,172,172,92,92,27,37,19,9,0.6,0.4
2023-06-14T11:00:00,2175A,110.9956,35.0147,运城市,运城中学,颗粒物(PM10),64,78,48,39,23,197,149,94,94,19,15,24,8,0.9,0.7
2023-06-14T11:00:00,2178A,110.9686,35.0303,运城市,地区技校,颗粒物(PM10),62,73,51,27,23,213,167,99,95,11,18,7,6,0.8,0.6
2023-06-14T11:00:00,2179A,111.0414,35.1147,运城市,空港新区,"颗粒物(PM10),臭氧1小时",67,84,64,30,32,216,173,94,94,14,21,9,11,0.7,1
2023-06-14T11:00:00,2181A,112.7383,38.4519,忻州市,开发区,颗粒物(PM10),58,66,38,15,10,166,134,79,79,32,28,26,11,0.7,0.5
2023-06-14T11:00:00,2182A,112.7003,38.4928,忻州市,会展中心,,,44,48,11,16,146,136,58,45,17,33,12,8,,0.4
2023-06-14T11:00:00,2183A,111.1406,37.5211,吕梁市,环保局,,49,48,54,12,12,162,155,65,65,23,38,13,9,0.7,0.4
2023-06-14T11:00:00,2185A,111.1297,37.5136,吕梁市,自来水公司,,,,85,11,13,153,146,48,48,,34,13,11,,0.5
2023-06-14T11:00:00,2187A,106.8174,39.6973,乌海市,市林业局,,,6,45,9,11,161,161,147,134,21,14,,26,0.6,0.6
2023-06-14T11:00:00,2188A,106.7907,39.6667,乌海市,中海勃湾学校,臭氧1小时,55,58,46,9,10,164,164,126,110,16,20,22,21,0.5,0.5
2023-06-14T11:00:00,2191A,122.2532,43.6801,通辽市,艺术职业学校,,49,21,37,0,13,166,156,115,114,15,21,5,6,0.6,0.5
2023-06-14T11:00:00,2192A,119.7594,49.2261,呼伦贝尔市,区环保局,,,31,32,12,19,123,59,70,50,,11,5,5,,0.3
2023-06-14T11:00:00,2195A,107.4212,40.761,巴彦淖尔市,附二中,,48,29,34,6,12,165,151,100,100,11,21,12,11,0.5,0.5
2023-06-14T11:00:00,2196A,107.37,40.7372,巴彦淖尔市,市环保大楼,,46,32,33,17,22,167,146,108,108,13,17,5,7,0.4,0.4
2023-06-14T11:00:00,2197A,113.1306,40.9923,乌兰察布市,集宁新区,,40,30,20,21,13,135,126,98,69,11,16,13,13,0.6,0.5
2023-06-14T11:00:00,2200A,122.0392,46.0656,兴安盟,胜华新制药厂,,37,33,32,13,16,149,116,114,91,13,14,4,4,0.2,0.3
2023-06-14T11:00:00,2201A,121.9504,46.0741,兴安盟,科右前旗环保局,,39,17,20,11,18,152,122,105,89,6,7,3,3,0.2,0.1
2023-06-14T11:00:00,2202A,116.1042,43.9317,锡林郭勒盟,市环保监测站,,33,15,21,2,6,115,104,70,70,4,14,8,7,0.2,0.2
2023-06-14T11:00:00,2203A,116.0781,43.9311,锡林郭勒盟,市政府,,40,40,31,6,9,114,99,66,66,6,21,8,7,0.2,0.2
2023-06-14T11:00:00,2204A,105.6467,38.8363,阿拉善盟,西城区西花园,臭氧1小时,69,33,26,6,14,179,175,166,166,9,10,9,11,0.4,0.5
2023-06-14T11:00:00,2205A,105.6985,38.8411,阿拉善盟,蒙二幼,臭氧1小时,72,31,25,8,18,184,177,167,167,7,6,10,11,0.4,0.4
2023-06-14T11:00:00,2206A,105.724,38.8516,阿拉善盟,环保局新楼,臭氧1小时,83,24,33,17,16,193,186,178,177,6,6,10,10,0.4,0.4
2023-06-14T11:00:00,2207A,121.6094,41.998,阜新市,工业园区,,48,28,44,8,25,154,152,69,69,13,36,10,17,0.6,0.7
2023-06-14T11:00:00,2208A,121.6697,42.0279,阜新市,长青街,臭氧1小时,58,27,45,7,30,166,166,89,89,10,20,18,19,0.6,0.8
2023-06-14T11:00:00,2209A,121.6673,42.0705,阜新市,农业园区,臭氧1小时,69,28,37,13,29,175,175,119,119,13,19,16,23,0.8,1
2023-06-14T11:00:00,2210A,121.6717,42.0224,阜新市,东苑,,49,38,48,12,34,156,156,93,91,14,27,16,22,0.6,0.8
2023-06-14T11:00:00,2211A,121.6506,42.0498,阜新市,玉龙新城,臭氧1小时,65,29,52,10,22,172,172,76,76,10,25,14,11,0.5,0.8
2023-06-14T11:00:00,2212A,123.2,41.1953,辽阳市,宏伟区,,48,34,42,32,29,153,153,88,80,16,18,19,14,1.1,1
2023-06-14T11:00:00,2213A,123.1683,41.2495,辽阳市,新华园,臭氧1小时,63,30,54,33,34,170,170,77,77,21,32,19,9,1.2,0.9
2023-06-14T11:00:00,2214A,123.2354,41.2639,辽阳市,滨河路,,49,44,52,31,33,156,156,77,77,20,32,17,11,0.9,0.8
2023-06-14T11:00:00,2215A,123.149,41.2991,辽阳市,铁西工业园,,,64,68,33,34,160,150,61,61,25,36,,13,1.2,1
2023-06-14T11:00:00,2216A,123.8139,42.3022,铁岭市,汇工街西,,50,38,41,28,21,168,160,72,72,15,31,10,11,0.4,0.3
2023-06-14T11:00:00,2217A,123.8649,42.2923,铁岭市,水上乐园,,47,46,31,22,22,158,148,65,65,18,32,10,8,0.5,0.4
2023-06-14T11:00:00,2218A,123.8486,42.2867,铁岭市,银州路东段,,49,49,36,22,17,150,143,67,67,24,38,7,5,0.5,0.4
2023-06-14T11:00:00,2219A,123.7153,42.2217,铁岭市,金沙江路北,颗粒物(PM10),55,59,31,24,17,163,151,59,59,21,36,13,6,0.7,0.5
2023-06-14T11:00:00,2220A,120.4318,41.5881,朝阳市,西梁,,45,18,35,10,22,144,141,60,60,8,21,15,14,0.7,0.8
2023-06-14T11:00:00,2221A,120.4521,41.5646,朝阳市,河畔小区,,48,10,28,11,19,159,153,118,94,7,9,6,7,0.7,0.7
2023-06-14T11:00:00,2222A,120.4176,41.5648,朝阳市,八里堡,,49,6,33,9,20,155,155,95,79,9,18,9,10,0.6,0.8
2023-06-14T11:00:00,2223A,120.3806,41.5969,朝阳市,农业园区,,46,36,33,12,18,151,145,67,67,14,21,17,8,1.0,0.7
2023-06-14T11:00:00,2225A,124.4002,43.1713,四平市,一商场,,,,39,,20,156,156,99,99,17,30,,8,0.3,0.5
2023-06-14T11:00:00,2226A,124.388,43.193,四平市,境园,,48,29,30,21,17,154,152,62,62,13,38,8,7,0.4,0.5
2023-06-14T11:00:00,2227A,125.1358,42.8845,辽源市,环保局,,48,25,24,11,14,165,153,52,52,14,35,7,7,0.5,0.6
2023-06-14T11:00:00,2229A,125.9358,41.7173,通化市,光明,细颗粒物(PM2.5),53,51,24,37,14,112,58,32,32,44,25,100,25,1.8,1
2023-06-14T11:00:00,2230A,125.9446,41.7325,通化市,铁路,细颗粒物(PM2.5),65,55,24,47,17,106,50,29,29,50,28,104,27,2.0,1.2
2023-06-14T11:00:00,2231A,126.4219,41.9171,白山市,喜丰,,,47,40,12,13,101,91,37,37,21,23,,10,,0.3
2023-06-14T11:00:00,2232A,126.4077,41.9419,白山市,环保局,,40,40,40,20,17,102,102,35,35,20,21,18,13,0.6,0.6
2023-06-14T11:00:00,2233A,124.8006,45.1214,松原市,江南,臭氧1小时,52,22,24,15,17,168,161,122,122,9,15,4,5,0.3,0.4
2023-06-14T11:00:00,2234A,124.7965,45.1722,松原市,江北,,47,13,18,15,20,157,150,118,118,12,15,3,4,0.4,0.4
2023-06-14T11:00:00,2235A,122.7911,45.6077,白城市,洮北区环保局,颗粒物(PM10),58,65,30,9,10,165,163,137,137,11,12,5,3,0.2,0.1
2023-06-14T11:00:00,2236A,122.8738,45.5725,白城市,市环保局,,,,22,,15,154,151,126,126,,12,4,4,0.1,0.3
2023-06-14T11:00:00,2237A,129.47,42.8883,延边朝鲜族自治州,妇幼医院,,,,17,,8,116,107,37,37,15,22,,8,0.5,0.5
2023-06-14T11:00:00,2238A,129.5055,42.9108,延边朝鲜族自治州,延边医院,,34,18,23,8,10,114,106,49,49,20,22,9,8,0.5,0.5
2023-06-14T11:00:00,2239A,129.3964,42.8881,延边朝鲜族自治州,朝阳川镇医院,,38,11,17,5,6,120,120,45,45,8,20,8,8,0.5,0.5
2023-06-14T11:00:00,2240A,130.9762,45.3001,鸡西市,环保局,,34,26,28,12,14,107,107,61,61,12,21,5,4,0.3,0.4
2023-06-14T11:00:00,2243A,130.9429,45.3039,鸡西市,第一中学,,36,24,18,13,11,114,114,64,64,6,10,5,5,0.3,0.3
2023-06-14T11:00:00,2244A,130.2537,47.3416,鹤岗市,哈啤分公司,,30,10,20,11,13,118,95,74,60,11,15,11,11,0.3,0.3
2023-06-14T11:00:00,2245A,130.2684,47.3086,鹤岗市,斯达机电,,30,14,19,6,11,125,94,88,65,11,12,10,10,0.3,0.3
2023-06-14T11:00:00,2246A,130.3114,47.3388,鹤岗市,东山纸板厂,,,19,20,3,10,129,91,64,54,14,20,,12,0.4,0.4
2023-06-14T11:00:00,2247A,130.1097,47.3382,鹤岗市,五号水库,,,,,,,,,,,,,,,,
2023-06-14T11:00:00,2248A,131.1511,46.6937,双鸭山市,双合村,,34,34,34,12,16,137,91,81,81,12,14,12,14,0.1,0.4
2023-06-14T11:00:00,2249A,131.1652,46.6191,双鸭山市,南小市,,,102,26,73,16,136,90,83,83,,9,5,4,0.1,0.1
2023-06-14T11:00:00,2250A,131.1524,46.6554,双鸭山市,环保局,,25,23,17,10,9,135,78,88,81,24,12,16,9,0.7,0.5
2023-06-14T11:00:00,2251A,131.12,46.5656,双鸭山市,苗圃,,35,11,12,4,12,131,109,88,88,9,6,3,3,0.3,0.3
2023-06-14T11:00:00,2252A,128.5159,47.4311,伊春市,环保局,,30,10,13,9,7,119,93,55,55,14,13,5,5,0.3,0.4
2023-06-14T11:00:00,2253A,128.9102,47.7412,伊春市,电力嘉园,,33,21,21,13,13,117,103,44,44,7,10,5,6,0.3,0.2
2023-06-14T11:00:00,2254A,129.5029,48.471,伊春市,汤旺河国家公园,,32,20,20,22,22,118,91,41,41,1,2,24,21,0.5,0.5
2023-06-14T11:00:00,2255A,130.2751,46.8028,佳木斯市,佳纺,,33,24,20,15,12,163,104,83,80,14,16,7,6,0.4,0.4
2023-06-14T11:00:00,2256A,130.3995,46.8307,佳木斯市,发电厂,,34,13,23,18,16,140,106,76,76,13,21,8,9,0.4,0.4
2023-06-14T11:00:00,2257A,130.3258,46.7975,佳木斯市,环保局,,34,24,24,17,14,154,108,106,82,12,17,5,5,0.5,0.3
2023-06-14T11:00:00,2258A,130.3648,46.8032,佳木斯市,十一中,,35,26,27,11,15,132,109,82,78,17,25,7,7,0.4,0.4
2023-06-14T11:00:00,2259A,130.3794,46.7588,佳木斯市,四丰,,42,15,22,10,14,188,134,96,96,12,18,1,1,0.3,0.3
2023-06-14T11:00:00,2262A,131.0518,45.8751,七台河市,新一中,,47,29,26,14,16,150,150,80,80,8,14,8,8,0.7,0.7
2023-06-14T11:00:00,2263A,127.4833,50.2524,黑河市,交通局,,18,18,28,5,20,150,34,44,35,13,16,4,8,0.5,0.4
2023-06-14T11:00:00,2264A,127.5144,50.2341,黑河市,环保局,,18,10,27,12,14,142,42,41,40,5,11,2,6,0.2,0.3
2023-06-14T11:00:00,2265A,127.5291,50.2472,黑河市,大黑河岛,,15,2,23,2,17,171,46,43,34,2,6,10,19,0.3,0.4
2023-06-14T11:00:00,2266A,126.9785,46.6365,绥化市,人和东街,,44,34,28,19,16,168,139,96,96,20,27,7,6,0.5,0.5
2023-06-14T11:00:00,2267A,126.964,46.6528,绥化市,党政办公中心,,46,19,24,15,17,178,145,102,102,17,24,8,8,0.4,0.4
2023-06-14T11:00:00,2269A,124.1069,50.4097,大兴安岭地区,科技局,,15,11,17,10,13,78,39,45,43,5,4,6,6,0.1,0.2
2023-06-14T11:00:00,2270A,117.396,32.939,蚌埠市,工人疗养院,臭氧1小时,92,53,57,32,32,229,193,144,144,13,18,9,12,0.4,0.5
2023-06-14T11:00:00,2271A,117.3605,32.9427,蚌埠市,百货大楼,臭氧1小时,98,56,61,32,34,226,198,142,142,11,19,6,8,0.4,0.5
2023-06-14T11:00:00,2273A,117.4185,32.8911,蚌埠市,蚌埠学院,臭氧1小时,79,58,73,30,41,219,183,105,105,11,23,8,11,0.4,0.5
2023-06-14T11:00:00,2274A,117.3533,32.9673,蚌埠市,淮上区政府,臭氧1小时,87,58,69,37,39,220,189,128,128,14,22,8,9,0.4,0.5
2023-06-14T11:00:00,2275A,117.3145,32.8977,蚌埠市,高新区,臭氧1小时,93,58,70,31,43,225,194,111,111,9,22,8,9,0.4,0.5
2023-06-14T11:00:00,2277A,116.8305,32.7727,淮南市,潘集区政府,臭氧1小时,98,47,62,37,38,237,198,114,114,8,20,7,11,0.4,0.4
2023-06-14T11:00:00,2278A,117.0067,32.6524,淮南市,师范学院,,,59,68,33,42,237,188,126,126,14,20,,12,,0.5
2023-06-14T11:00:00,2279A,116.8569,32.5951,淮南市,谢家集区政府,臭氧1小时,97,34,52,13,23,239,197,132,132,10,20,6,7,0.3,0.4
2023-06-14T11:00:00,2280A,116.8281,32.633,淮南市,八公山区政府,臭氧1小时,99,57,55,26,28,233,199,162,162,9,10,9,9,0.4,0.5
2023-06-14T11:00:00,2281A,116.6325,32.6201,淮南市,焦岗湖风景区管理处,臭氧1小时,80,40,47,31,32,197,184,90,90,9,16,5,5,0.3,0.4
2023-06-14T11:00:00,2282A,116.8004,33.975,淮北市,监测站,臭氧1小时,99,69,45,39,31,212,199,169,169,15,14,7,5,0.5,0.5
2023-06-14T11:00:00,2283A,116.8091,33.9007,淮北市,烈山区政府,,,,49,,32,226,211,132,119,,18,,8,0.4,0.4
2023-06-14T11:00:00,2284A,116.7856,33.9477,淮北市,职业技术学院,,,,,,,,,,,,,,,,
2023-06-14T11:00:00,2285A,117.8177,30.9412,铜陵市,市第四中学,细颗粒物(PM2.5),65,71,80,47,42,180,169,68,68,17,35,15,11,0.6,0.9
2023-06-14T11:00:00,2286A,117.8059,30.9273,铜陵市,市公路局,臭氧1小时,83,64,68,28,41,186,186,86,86,16,29,12,12,0.6,1.1
2023-06-14T11:00:00,2287A,117.7807,30.9413,铜陵市,市新民污水厂,,,64,76,29,28,183,175,65,65,,44,8,14,,0.8
2023-06-14T11:00:00,2288A,117.7439,30.8792,铜陵市,市第九中学,臭氧1小时,80,70,82,32,36,184,184,75,75,16,38,11,11,0.6,1
2023-06-14T11:00:00,2289A,117.846,30.9413,铜陵市,车站新区,,,,63,,30,193,166,60,60,,28,,5,0.6,1
2023-06-14T11:00:00,2290A,117.8483,30.97,铜陵市,市职教基地,,49,44,52,20,28,172,155,67,67,11,20,7,6,0.6,0.8
2023-06-14T11:00:00,2291A,117.0809,30.5177,安庆市,环科院,细颗粒物(PM2.5),58,58,42,41,29,190,136,65,53,39,39,17,12,0.9,0.6
2023-06-14T11:00:00,2292A,117.0331,30.5119,安庆市,马山宾馆,,,64,43,50,32,188,146,106,79,38,29,,7,,0.8
2023-06-14T11:00:00,2294A,116.9896,30.6145,安庆市,安庆大学,臭氧1小时,78,52,43,26,34,182,182,101,101,12,19,10,9,0.5,0.6
2023-06-14T11:00:00,2295A,118.2903,29.6963,黄山市,延安路89号,颗粒物(PM10),53,55,54,4,18,173,138,56,56,6,11,7,6,0.5,0.5
2023-06-14T11:00:00,2296A,118.327,29.7178,黄山市,黄山东路89号,,41,31,37,19,19,153,131,76,56,6,9,6,5,0.3,0.3
2023-06-14T11:00:00,2297A,118.1371,30.2756,黄山市,黄山区政府5号楼,,43,38,44,26,26,142,136,56,56,8,9,7,6,0.5,0.5
2023-06-14T11:00:00,2298A,118.3093,32.3153,滁州市,老年大学,臭氧1小时,83,39,40,33,25,207,186,106,106,13,20,8,8,0.4,0.4
2023-06-14T11:00:00,2299A,118.3244,32.2786,滁州市,人大宾馆,臭氧1小时,94,47,48,32,36,218,195,138,127,15,25,9,9,0.3,0.4
2023-06-14T11:00:00,2301A,115.8277,32.8929,阜阳市,市监测站,臭氧1小时,73,47,33,22,19,192,178,132,132,14,21,8,7,0.5,0.6
2023-06-14T11:00:00,2303A,115.8554,32.8605,阜阳市,开发区,臭氧1小时,87,44,44,16,16,193,189,119,119,12,23,9,9,0.5,0.5
2023-06-14T11:00:00,2307A,116.5079,31.737,六安市,监测大楼,,,35,33,15,18,188,170,95,95,6,13,1,3,,0.5
2023-06-14T11:00:00,2308A,116.4738,31.7643,六安市,皖西学院,臭氧1小时,64,35,38,18,18,190,171,98,98,8,13,6,5,0.4,0.4
2023-06-14T11:00:00,2309A,116.4996,31.7905,六安市,朝阳厂,臭氧1小时,73,17,26,8,15,197,178,112,112,8,12,5,5,0.5,0.6
2023-06-14T11:00:00,2310A,116.5567,31.7886,六安市,开发区,臭氧1小时,70,40,44,20,30,186,176,100,100,7,15,6,6,0.4,0.5
2023-06-14T11:00:00,2311A,115.8072,33.8399,亳州市,污水处理厂,,,55,46,25,24,200,183,146,104,,13,10,8,0.5,0.4
2023-06-14T11:00:00,2312A,115.7789,33.8518,亳州市,三国揽胜宫,臭氧1小时,88,57,44,37,24,202,190,147,128,11,11,10,7,0.7,0.6
2023-06-14T11:00:00,2314A,117.47,30.6618,池州市,池州学院,臭氧1小时,93,44,43,32,32,194,194,98,98,8,13,7,7,0.9,1
2023-06-14T11:00:00,2316A,118.7581,30.9454,宣城市,鳌峰子站,细颗粒物(PM2.5),52,43,39,36,24,136,136,72,72,11,15,4,6,0.7,0.5
2023-06-14T11:00:00,2317A,118.7385,30.9743,宣城市,敬亭山子站,颗粒物(PM10),52,54,36,34,22,152,152,79,79,12,16,9,8,0.7,0.5
2023-06-14T11:00:00,2318A,118.7173,30.9427,宣城市,开发区子站,,,,35,,22,122,116,72,72,,14,,7,,0.5
2023-06-14T11:00:00,2319A,119.0141,25.4325,莆田市,荔城区仓后路,颗粒物(PM10),52,54,37,27,20,168,92,82,68,15,11,7,6,0.6,0.6
2023-06-14T11:00:00,2320A,119.0015,25.4553,莆田市,莆田市监测站,颗粒物(PM10),55,60,35,30,16,174,87,70,59,14,8,7,6,0.5,0.4
2023-06-14T11:00:00,2321A,119.1119,25.4561,莆田市,涵江区六中,,34,34,33,22,16,175,105,78,70,8,9,8,8,0.6,0.6
2023-06-14T11:00:00,2322A,119.1013,25.3215,莆田市,秀屿区政府,颗粒物(PM10),54,57,36,23,17,158,101,78,78,8,6,9,7,0.8,0.7
2023-06-14T11:00:00,2323A,118.981,25.4792,莆田市,东圳水库,,,,,,,,,,,,,,,,
2023-06-14T11:00:00,2324A,117.6211,26.2625,三明市,三钢,,46,39,48,32,35,131,74,56,39,13,21,6,10,0.5,0.7
2023-06-14T11:00:00,2325A,117.635,26.2714,三明市,三明二中,,44,44,44,29,32,133,68,53,32,17,21,4,7,0.7,0.8
2023-06-14T11:00:00,2326A,117.6028,26.2378,三明市,三元区政府,,48,44,50,33,40,137,66,32,32,18,21,6,11,1.0,1
2023-06-14T11:00:00,2327A,117.7275,26.3108,三明市,洋溪,,,,,,,,,,,,,,,,
2023-06-14T11:00:00,2331A,118.0966,26.6761,南平市,茫荡山,,,,,,,,,,,,,,,,
2023-06-14T11:00:00,2332A,118.1681,26.6369,南平市,南平市监测站,,,34,43,22,30,124,86,39,31,,12,3,5,0.7,0.7
2023-06-14T11:00:00,2333A,118.1825,26.6489,南平市,南平铝业有限公司,,38,32,43,26,32,125,85,38,38,11,13,5,6,0.6,0.7
2023-06-14T11:00:00,2334A,118.1756,26.6272,南平市,南平七中,,37,37,41,25,28,126,64,25,25,5,10,4,5,0.8,0.7
2023-06-14T11:00:00,2335A,117.0189,25.1181,龙岩市,龙岩师专,,,,,,,,,,,,,,,,
2023-06-14T11:00:00,2336A,117.0217,25.1033,龙岩市,龙岩市监测站,,48,48,34,22,24,140,35,107,52,39,16,6,7,1.1,0.6
2023-06-14T11:00:00,2337A,117.0258,25.0661,龙岩市,闽西职业技术学院,,,43,35,24,23,118,44,114,53,,11,6,6,0.8,0.7
2023-06-14T11:00:00,2338A,117.0196,25.0306,龙岩市,龙岩学院,,45,45,35,26,21,126,64,80,64,20,10,16,5,0.6,0.5
2023-06-14T11:00:00,2339A,119.5001,26.6946,宁德市,金涵水库,,,,,,,,,,,,,,,,
2023-06-14T11:00:00,2341A,119.5388,26.6612,宁德市,宁德市监测站,,42,42,32,20,19,164,80,81,58,11,7,8,8,0.7,0.6
2023-06-14T11:00:00,2342A,117.3102,29.3867,景德镇市,王港中学,,43,34,32,20,22,141,136,52,52,5,5,12,13,0.6,0.6
2023-06-14T11:00:00,2343A,117.2117,29.2933,景德镇市,老干部活动中心,颗粒物(PM10),57,64,58,35,28,123,116,71,62,6,11,4,5,0.2,0.2
2023-06-14T11:00:00,2344A,117.1894,29.2789,景德镇市,兽医站,细颗粒物(PM2.5),59,55,36,42,27,126,119,81,61,10,13,7,8,0.4,0.6
2023-06-14T11:00:00,2345A,117.1547,29.2617,景德镇市,台达陶瓷,颗粒物(PM10),54,57,44,30,31,129,113,61,60,9,18,9,27,0.6,0.6
2023-06-14T11:00:00,2346A,117.2461,29.2956,景德镇市,陶研所,,35,28,48,24,23,126,110,59,54,5,7,4,6,0.2,0.2
2023-06-14T11:00:00,2347A,114.0997,27.5002,萍乡市,武功山,,25,3,12,8,7,102,79,42,42,5,6,25,24,0.5,0.4
2023-06-14T11:00:00,2348A,113.8385,27.6434,萍乡市,中医院,,50,39,31,35,23,102,77,48,48,12,10,7,11,1.0,0.8
2023-06-14T11:00:00,2349A,113.8493,27.6253,萍乡市,市政府车库,,,,28,,17,106,77,50,50,7,4,,10,0.8,0.4
2023-06-14T11:00:00,2350A,113.8676,27.6435,萍乡市,市环保局,颗粒物(PM10),52,54,30,26,18,101,80,52,52,9,7,14,15,0.9,0.5
2023-06-14T11:00:00,2351A,113.866,27.6198,萍乡市,安源区政府,,47,47,27,26,11,103,83,52,52,12,9,14,11,1.2,0.5
2023-06-14T11:00:00,2352A,115.0861,27.9317,新余市,北岗,,,,28,20,16,83,73,33,33,3,9,13,8,0,0.5
2023-06-14T11:00:00,2353A,114.9886,27.8431,新余市,飞宇,颗粒物(PM10),53,55,41,29,19,108,93,44,44,10,17,16,9,0.5,0.5
2023-06-14T11:00:00,2354A,114.9231,27.8246,新余市,第二水厂,颗粒物(PM10),51,52,36,22,19,108,98,62,56,9,14,11,9,0.4,0.4
2023-06-14T11:00:00,2355A,114.9308,27.8036,新余市,市气象局,,46,46,40,31,20,108,85,52,52,6,9,10,8,0.7,0.6
2023-06-14T11:00:00,2357A,116.9822,28.1136,鹰潭市,龙虎山,细颗粒物(PM2.5),55,47,39,39,31,132,106,62,51,5,4,3,3,1.1,1.1
2023-06-14T11:00:00,2358A,117.0564,28.2642,鹰潭市,新监测站,颗粒物(PM10),53,55,45,35,30,150,122,100,81,11,9,8,10,0.5,0.5
2023-06-14T11:00:00,2359A,117.0311,28.2475,鹰潭市,财苑宾馆,细颗粒物(PM2.5),65,52,45,47,28,144,118,92,78,7,7,13,8,0.5,0.4
2023-06-14T11:00:00,2360A,117.0222,28.2264,鹰潭市,体育馆,颗粒物(PM10),51,51,44,35,27,148,132,79,79,7,10,9,6,0.2,0.4
2023-06-14T11:00:00,2361A,117.0017,28.2131,鹰潭市,三川水表,,,50,46,36,25,146,113,74,59,8,11,,4,0.6,0.7
2023-06-14T11:00:00,2362A,114.9017,25.9149,赣州市,通天岩,,,,,,,,,,,,,,,,
2023-06-14T11:00:00,2363A,114.9367,25.8664,赣州市,地委,,33,27,40,23,29,111,79,82,74,5,4,15,11,1.0,1.1
2023-06-14T11:00:00,2364A,114.9461,25.8481,赣州市,气象台,,,25,38,13,26,124,69,99,83,15,8,9,6,,0.9
2023-06-14T11:00:00,2365A,114.9322,25.8333,赣州市,市图书馆,,25,22,39,13,27,123,78,84,80,11,8,7,8,1.3,1.3
2023-06-14T11:00:00,2366A,114.8905,25.8471,赣州市,华坚鞋城,,29,29,46,14,27,113,84,77,77,5,4,4,5,1.0,1
2023-06-14T11:00:00,2367A,114.9754,27.0803,吉安市,红声器材厂,,40,39,43,28,25,114,84,74,69,11,10,19,16,0.7,0.6
2023-06-14T11:00:00,2368A,114.9658,27.0999,吉安市,市森林工业局,,,40,46,20,25,107,50,71,59,,8,24,11,2.2,0.3
2023-06-14T11:00:00,2369A,114.99,27.1312,吉安市,市环境监测站,,40,40,36,27,21,113,76,85,65,10,10,10,9,0.8,0.8
2023-06-14T11:00:00,2370A,115.0093,27.0968,吉安市,青原区法院,,37,37,39,24,26,122,86,78,63,11,13,15,15,0.6,0.6
2023-06-14T11:00:00,2371A,114.3408,27.8064,宜春市,槟榔水业,,36,33,31,25,19,91,79,38,38,6,9,6,5,0.6,0.7
2023-06-14T11:00:00,2373A,114.3956,27.7844,宜春市,市石油公司,,46,46,35,30,22,96,94,43,43,12,16,6,6,0.7,0.7
2023-06-14T11:00:00,2374A,114.3703,27.7914,宜春市,市气象局,,47,47,37,25,22,103,90,43,43,13,18,8,7,0.8,0.8
2023-06-14T11:00:00,2375A,114.4013,27.8074,宜春市,市广电局,,,,34,,22,105,71,44,44,12,13,,12,0.9,1
2023-06-14T11:00:00,2376A,116.2127,28.0814,抚州市,桐源党溪,,45,45,38,31,27,162,131,49,49,3,4,5,3,1.2,1.1
2023-06-14T11:00:00,2377A,116.3544,27.9831,抚州市,市站,,,,44,,28,141,105,83,68,,9,,11,0.7,0.8
2023-06-14T11:00:00,2378A,116.3565,27.963,抚州市,血防站,颗粒物(PM10),60,70,50,40,28,144,101,80,69,13,9,12,10,0.9,0.8
2023-06-14T11:00:00,2379A,116.3564,28.0007,抚州市,采茶剧团,"颗粒物(PM10),细颗粒物(PM2.5)",55,59,43,39,29,139,100,80,68,13,13,12,10,1.0,1.1
2023-06-14T11:00:00,2380A,116.385,27.9647,抚州市,医学分院,颗粒物(PM10),52,54,41,33,24,146,98,83,66,11,10,12,8,1.0,1
2023-06-14T11:00:00,2381A,118.005,28.4572,上饶市,百草园,细颗粒物(PM2.5),58,43,45,41,28,151,105,68,52,3,6,1,3,0.4,0.4
2023-06-14T11:00:00,2382A,117.9756,28.4436,上饶市,市监测站,细颗粒物(PM2.5),57,61,62,40,40,154,111,86,63,9,12,11,15,0.5,0.6
2023-06-14T11:00:00,2383A,117.9519,28.4628,上饶市,凤凰光学,颗粒物(PM10),52,53,64,33,41,138,94,74,52,14,15,11,16,0.8,0.8
2023-06-14T11:00:00,2385A,114.17,35.9019,鹤壁市,市监测站,臭氧1小时,78,52,46,30,20,208,182,135,135,27,24,12,6,0.5,0.5
2023-06-14T11:00:00,2386A,114.2956,35.7511,鹤壁市,市交警支队,臭氧1小时,83,52,50,21,23,224,186,83,83,63,28,8,8,0.5,0.6
2023-06-14T11:00:00,2387A,114.2878,35.7306,鹤壁市,迎宾馆,,,74,40,24,20,229,192,105,105,,24,,6,0.8,0.7
2023-06-14T11:00:00,2389A,113.836,35.311,新乡市,环保西院,臭氧1小时,65,53,54,24,27,200,172,83,83,20,29,18,12,1.0,1
2023-06-14T11:00:00,2390A,113.884,35.272,新乡市,开发区,臭氧1小时,75,54,48,22,23,199,180,79,79,15,27,8,9,1.0,0.9
2023-06-14T11:00:00,2391A,113.883,35.303,新乡市,环保东院,,,,58,,23,202,174,75,75,,29,12,10,,0.8
2023-06-14T11:00:00,2392A,115.0312,35.7636,濮阳市,环保局,臭氧1小时,98,70,64,19,30,207,198,117,110,12,23,7,8,0.5,0.6
2023-06-14T11:00:00,2394A,115.0574,35.7609,濮阳市,油田运输公司,臭氧1小时,93,84,87,20,34,205,194,113,106,13,21,6,8,0.3,0.4
2023-06-14T11:00:00,2395A,115.0866,35.7754,濮阳市,油田物探公司,臭氧1小时,103,52,68,22,36,221,205,112,107,12,22,6,8,0.4,0.5
2023-06-14T11:00:00,2396A,113.8276,34.0159,许昌市,监测站,臭氧1小时,102,70,58,14,25,240,204,117,97,13,19,8,6,0.4,0.4
2023-06-14T11:00:00,2398A,113.7906,33.9953,许昌市,开发区,臭氧1小时,82,68,64,24,31,234,185,86,81,20,26,22,8,0.6,0.5
2023-06-14T11:00:00,2399A,114.051,33.5699,漯河市,三五一五工厂,臭氧1小时,99,54,58,24,33,216,199,126,126,9,14,11,7,0.5,0.7
2023-06-14T11:00:00,2400A,114.0055,33.5698,漯河市,漯河大学,臭氧1小时,95,47,49,24,30,216,196,115,115,16,20,11,7,0.4,0.4
2023-06-14T11:00:00,2401A,114.0138,33.5828,漯河市,市水利局,臭氧1小时,97,41,51,22,29,213,197,118,118,10,13,12,7,0.5,0.5
2023-06-14T11:00:00,2402A,114.0261,33.5698,漯河市,市广电局,臭氧1小时,97,42,51,29,32,219,197,122,122,12,12,8,4,0.4,0.4
2023-06-14T11:00:00,2404A,112.5224,33.0122,南阳市,瓦房庄,,47,47,46,28,27,202,142,83,61,22,27,4,4,0.5,0.5
2023-06-14T11:00:00,2405A,112.5003,32.9735,南阳市,汉画馆,,46,42,49,30,28,200,147,70,45,13,30,6,5,0.6,0.6
2023-06-14T11:00:00,2406A,112.5573,33.027,南阳市,气象站,,,,52,,23,199,119,82,65,41,25,8,6,,0.5
2023-06-14T11:00:00,2407A,112.5481,32.9689,南阳市,理工学院,,46,46,52,26,28,208,144,80,51,14,31,5,6,0.4,0.4
2023-06-14T11:00:00,2408A,115.6702,34.4285,商丘市,环境监测站,臭氧1小时,73,57,56,27,26,204,178,107,95,17,21,10,9,0.6,0.5
2023-06-14T11:00:00,2409A,115.6458,34.4045,商丘市,粮食局,臭氧1小时,98,77,54,19,24,218,198,132,120,17,15,6,6,0.6,0.6
2023-06-14T11:00:00,2410A,115.6293,34.3948,商丘市,睢阳区环保局,臭氧1小时,82,56,69,23,29,211,185,113,97,21,27,6,4,0.5,0.5
2023-06-14T11:00:00,2420A,114.0189,32.9656,驻马店市,市一纸厂,臭氧1小时,75,29,37,16,22,208,180,141,141,5,11,4,4,0.4,0.5
2023-06-14T11:00:00,2421A,114.0114,33.015,驻马店市,市彩印厂,臭氧1小时,67,39,48,15,25,205,173,135,135,4,10,7,6,0.3,0.4
2023-06-14T11:00:00,2422A,113.9976,32.9771,驻马店市,天方二分厂,臭氧1小时,65,32,38,12,27,207,172,131,131,3,9,6,5,0.3,0.4
2023-06-14T11:00:00,2423A,115.0601,30.2313,黄石市,沈家营,颗粒物(PM10),57,64,45,22,22,167,135,59,47,20,26,11,10,0.5,0.6
2023-06-14T11:00:00,2424A,115.0817,30.2006,黄石市,陈家湾,,46,44,45,20,23,167,145,94,68,18,14,10,6,0.5,0.5
2023-06-14T11:00:00,2426A,114.8988,30.2019,黄石市,铁山,颗粒物(PM10),51,51,45,27,24,176,150,74,74,10,20,13,10,0.8,0.7
2023-06-14T11:00:00,2427A,115.0307,30.2092,黄石市,团城山,,45,45,41,19,17,166,134,63,63,16,16,10,9,0.5,0.5
2023-06-14T11:00:00,2428A,111.0419,32.395,十堰市,武当山,,38,10,15,9,10,146,120,133,115,6,6,11,11,0.6,0.6
2023-06-14T11:00:00,2429A,110.78,32.6494,十堰市,滨河新村,,36,36,33,17,19,147,95,47,47,4,10,5,5,0.6,0.7
2023-06-14T11:00:00,2430A,110.7258,32.6389,十堰市,刘家沟,,32,21,25,22,13,158,93,62,55,4,6,8,8,0.4,0.4
2023-06-14T11:00:00,2431A,110.8839,32.5714,十堰市,铁二处,,42,38,25,16,12,183,134,80,80,17,6,7,7,0.7,0.6
2023-06-14T11:00:00,2432A,112.155,32.0197,襄阳市,襄城运动路,,42,42,41,17,20,182,124,86,70,17,19,17,10,0.7,0.6
2023-06-14T11:00:00,2433A,112.1392,32.0564,襄阳市,樊城新华路,,44,36,38,21,20,186,138,100,74,13,18,15,10,0.7,0.7
2023-06-14T11:00:00,2434A,112.1825,32.1142,襄阳市,高新管委会,,45,36,46,27,26,192,142,114,68,10,19,13,13,0.6,0.7
2023-06-14T11:00:00,2435A,112.2106,32.0903,襄阳市,襄州航空路,,41,39,41,14,22,182,131,114,75,16,18,12,9,0.7,0.7
2023-06-14T11:00:00,2436A,114.8938,30.3994,鄂州市,市政府,,,,46,,20,171,124,41,41,28,36,12,8,0.6,0.5
2023-06-14T11:00:00,2437A,114.8989,30.3714,鄂州市,赵家坝,颗粒物(PM10),58,66,48,23,19,165,154,58,56,13,30,8,6,0.5,0.5
2023-06-14T11:00:00,2439A,112.2014,31.0481,荆门市,竹园小学,臭氧1小时,57,44,52,19,28,214,165,98,98,12,18,10,11,0.6,0.7
2023-06-14T11:00:00,2440A,112.1969,30.9891,荆门市,掇刀,臭氧1小时,88,48,52,22,28,199,190,111,99,22,24,19,14,0.6,0.7
2023-06-14T11:00:00,2441A,112.2213,31.0386,荆门市,石化一小,臭氧1小时,63,37,56,27,27,211,170,108,92,14,21,11,9,0.5,0.5
2023-06-14T11:00:00,2443A,113.9153,30.9285,孝感市,文化路,臭氧1小时,58,61,40,24,27,166,166,128,88,13,17,9,8,0.8,0.8
2023-06-14T11:00:00,2444A,113.942,30.9075,孝感市,东城区,臭氧1小时,62,67,49,16,25,169,169,106,82,8,16,8,8,0.6,0.7
2023-06-14T11:00:00,2446A,114.9028,30.4742,黄冈市,职工中心,,48,37,40,23,23,166,151,74,74,2,12,5,3,0.5,0.5
2023-06-14T11:00:00,2447A,114.3175,29.8142,咸宁市,森林公园,,,26,26,21,16,157,157,128,105,2,2,,2,0.7,0.7
2023-06-14T11:00:00,2448A,114.3107,29.8454,咸宁市,市发改委,,,36,30,31,30,163,163,80,74,3,5,,4,0.5,0.6
2023-06-14T11:00:00,2449A,114.2936,29.8566,咸宁市,咸安区政府,,50,36,27,22,21,159,159,91,91,11,9,7,6,0.6,0.5
2023-06-14T11:00:00,2451A,113.3583,31.7275,随州市,市委党校,,47,36,38,23,24,175,148,63,59,3,12,6,7,0.6,0.6
