timepoint,stationcode,longitude,latitude,area,positionname,primarypollutant,aqi,pm10,pm10_24h,pm2_5,pm2_5_24h,o3,o3_24h,o3_8h,o3_8h_24h,no2,no2_24h,so2,so2_24h,co,co_24h
2023-06-14T14:00:00,1001A,116.3621,39.8784,北京市,万寿西宫,臭氧1小时,108,32,49,12,25,216,216,147,147,15,24,2,2,0.6,0.6
2023-06-14T14:00:00,1002A,116.2202,40.2915,北京市,定陵,臭氧1小时,132,38,33,18,15,263,263,160,160,6,6,3,2,0.6,0.4
2023-06-14T14:00:00,1003A,116.4174,39.9289,北京市,东四,臭氧1小时,125,33,50,13,25,250,250,164,164,12,22,3,3,0.5,0.6
2023-06-14T14:00:00,1004A,116.4072,39.8863,北京市,天坛,臭氧1小时,118,29,51,12,26,239,236,164,164,18,28,3,2,0.3,0.5
2023-06-14T14:00:00,1005A,116.462,39.9365,北京市,农展馆,臭氧1小时,121,30,49,11,26,241,241,161,161,13,24,7,5,0.5,0.6
2023-06-14T14:00:00,1006A,116.3392,39.9295,北京市,官园,臭氧1小时,114,33,45,12,23,228,227,144,144,17,25,3,3,0.4,0.5
2023-06-14T14:00:00,1007A,116.2878,39.9611,北京市,海淀万柳,臭氧1小时,119,39,54,16,24,238,238,145,145,18,28,3,2,0.4,0.4
2023-06-14T14:00:00,1008A,116.6636,40.135,北京市,顺义新城,臭氧1小时,126,24,46,9,25,251,251,168,168,14,17,3,3,0.5,0.6
2023-06-14T14:00:00,1009A,116.6275,40.3275,北京市,怀柔镇,臭氧1小时,117,40,42,18,21,233,233,157,157,19,18,3,3,0.6,0.5
2023-06-14T14:00:00,1010A,116.2296,40.217,北京市,昌平镇,臭氧1小时,137,39,39,17,18,274,274,163,163,19,19,3,3,0.6,0.4
2023-06-14T14:00:00,1011A,116.3966,39.9821,北京市,奥体中心,臭氧1小时,105,33,68,10,30,209,209,136,136,21,26,3,2,0.5,0.5
2023-06-14T14:00:00,1012A,116.184,39.9136,北京市,古城,臭氧1小时,105,33,54,12,22,210,210,138,138,12,25,3,2,0.6,0.6
2023-06-14T14:00:00,1015A,117.1444,39.1661,天津市,勤俭道,臭氧1小时,111,30,32,14,16,222,222,159,159,11,18,8,8,0.4,0.5
2023-06-14T14:00:00,1017A,117.237,39.1082,天津市,大直沽八号路,臭氧1小时,104,30,33,15,16,207,207,149,149,12,18,8,8,0.5,0.6
2023-06-14T14:00:00,1018A,117.202,39.0927,天津市,前进道,臭氧1小时,111,26,33,12,17,221,221,160,160,14,22,7,7,0.6,0.7
2023-06-14T14:00:00,1019A,117.1837,39.2133,天津市,淮河道,臭氧1小时,112,32,30,15,14,224,224,154,154,9,20,8,8,0.4,0.5
2023-06-14T14:00:00,1021A,117.307,39.0877,天津市,跃进路,臭氧1小时,114,33,34,14,15,228,228,161,161,12,22,9,9,0.4,0.6
2023-06-14T14:00:00,1023A,117.707,39.0343,天津市,第四大街,臭氧1小时,98,37,32,18,16,198,198,140,140,19,26,22,11,0.7,0.7
2023-06-14T14:00:00,1024A,117.457,38.8394,天津市,永明路,臭氧1小时,117,28,29,12,16,233,233,161,161,16,21,12,10,0.6,0.7
2023-06-14T14:00:00,1026A,117.764,39.1587,天津市,汉北路,臭氧1小时,58,22,27,11,14,182,166,130,130,12,17,8,8,0.6,0.7
2023-06-14T14:00:00,1027A,117.157,38.9194,天津市,团泊洼,臭氧1小时,101,13,33,7,20,202,202,139,139,22,32,4,6,0.4,0.6
2023-06-14T14:00:00,1029A,114.4422,38.0444,石家庄市,职工医院,臭氧1小时,120,33,53,6,18,239,239,158,158,9,28,4,6,0.6,0.4
2023-06-14T14:00:00,1030A,114.6063,38.0266,石家庄市,高新区,,,,,,,,,,,,,,,,
2023-06-14T14:00:00,1031A,114.4898,38.1328,石家庄市,西北水源,臭氧1小时,132,52,61,26,15,263,263,164,164,14,27,6,5,0.5,0.3
2023-06-14T14:00:00,1032A,114.4586,38.0058,石家庄市,西南高教,臭氧1小时,120,40,60,12,21,240,240,164,164,7,24,2,7,0.6,0.5
2023-06-14T14:00:00,1033A,114.5331,38.0178,石家庄市,世纪公园,臭氧1小时,120,30,47,15,20,239,239,156,156,12,23,7,11,0.7,0.6
2023-06-14T14:00:00,1034A,114.509,38.0457,石家庄市,人民会堂,臭氧1小时,130,39,43,17,15,260,260,171,171,13,23,4,7,0.6,0.4
2023-06-14T14:00:00,1035A,114.3524,37.8911,石家庄市,封龙山,臭氧1小时,104,39,47,15,17,218,207,175,175,12,13,5,6,0.6,0.6
2023-06-14T14:00:00,1037A,118.131,39.6363,唐山市,雷达站,臭氧1小时,112,46,51,30,30,224,224,145,145,14,16,7,5,0.9,1
2023-06-14T14:00:00,1038A,118.1725,39.6334,唐山市,物资局,,,,50,,35,213,213,133,133,17,23,11,7,1.0,0.9
2023-06-14T14:00:00,1040A,118.1705,39.6506,唐山市,十二中,臭氧1小时,104,40,49,43,34,208,208,132,132,15,21,9,6,0.9,0.9
2023-06-14T14:00:00,1041A,118.1869,39.622,唐山市,小山,臭氧1小时,108,56,51,30,22,216,216,128,128,11,20,13,8,1.0,0.9
2023-06-14T14:00:00,1042A,119.5134,39.8207,秦皇岛市,北戴河环保局,,47,22,24,10,15,150,148,121,121,4,14,1,3,0.5,0.7
2023-06-14T14:00:00,1043A,119.7493,40.0116,秦皇岛市,第一关,,,22,32,9,16,142,141,105,105,,53,1,4,0.4,0.4
2023-06-14T14:00:00,1044A,119.5897,39.9499,秦皇岛市,监测站,,41,34,42,8,17,131,131,101,101,8,28,2,5,0.4,0.6
2023-06-14T14:00:00,1046A,119.5251,39.9041,秦皇岛市,建设大厦,,49,44,45,12,20,156,156,124,124,7,32,5,6,0.6,0.6
2023-06-14T14:00:00,1048A,114.5302,36.6116,邯郸市,东污水处理厂,臭氧1小时,117,23,46,22,18,234,234,157,157,11,35,8,6,0.8,0.4
2023-06-14T14:00:00,1049A,114.4918,36.5713,邯郸市,矿院,臭氧1小时,120,36,44,19,18,240,240,149,149,6,36,12,8,0.5,0.3
2023-06-14T14:00:00,1050A,114.484,36.6133,邯郸市,丛台公园,臭氧1小时,118,17,38,20,18,236,236,166,166,5,19,12,8,0.7,0.6
2023-06-14T14:00:00,1051A,115.493,38.8632,保定市,游泳馆,臭氧1小时,128,43,42,26,20,256,256,183,183,7,15,9,8,0.3,0.2
2023-06-14T14:00:00,1052A,115.5213,38.8959,保定市,华电二区,臭氧1小时,117,38,43,17,15,234,234,180,180,4,10,9,7,0.5,0.4
2023-06-14T14:00:00,1053A,115.4713,38.9108,保定市,接待中心,臭氧1小时,114,54,48,20,19,228,228,165,165,4,9,6,4,0.6,0.6
2023-06-14T14:00:00,1054A,115.4612,38.8416,保定市,地表水厂,臭氧1小时,120,62,61,17,16,240,240,167,167,14,26,10,9,0.3,0.2
2023-06-14T14:00:00,1056A,115.5086,38.8639,保定市,监测站,臭氧1小时,122,46,50,22,24,244,244,178,178,23,24,7,7,0.5,0.5
2023-06-14T14:00:00,1057A,114.8883,40.8336,张家口市,人民公园,,47,6,17,4,5,148,148,115,115,3,5,5,3,0.2,0.1
2023-06-14T14:00:00,1059A,114.8687,40.8042,张家口市,五金库,,46,8,18,2,6,145,145,112,112,6,13,2,2,0.3,0.3
2023-06-14T14:00:00,1060A,114.8902,40.762,张家口市,世纪豪园,,46,11,21,4,16,146,146,115,115,4,9,8,6,0.2,0.2
2023-06-14T14:00:00,1061A,114.8916,40.8661,张家口市,北泵房,,45,5,17,6,9,153,143,120,120,3,5,11,10,0.5,0.5
2023-06-14T14:00:00,1062A,117.9531,40.9081,承德市,铁路,,50,9,25,2,8,179,160,133,133,14,23,14,10,0.4,0.4
2023-06-14T14:00:00,1063A,117.9392,40.9763,承德市,中国银行,臭氧1小时,60,9,23,3,9,192,168,136,136,5,17,10,7,0.4,0.4
2023-06-14T14:00:00,1064A,117.9503,40.928,承德市,开发区,,49,24,33,14,18,192,156,134,134,5,20,9,9,0.3,0.4
2023-06-14T14:00:00,1065A,117.8051,40.9655,承德市,文化中心,,49,14,34,2,9,156,154,121,121,8,30,8,12,0.3,0.4
2023-06-14T14:00:00,1066A,117.9268,41.0026,承德市,离宫,,46,2,19,7,13,180,146,133,133,5,11,8,8,0.3,0.3
2023-06-14T14:00:00,1067A,116.6708,39.5111,廊坊市,药材公司,臭氧1小时,116,50,50,14,21,231,231,156,156,13,21,5,6,0.4,0.5
2023-06-14T14:00:00,1068A,116.7214,39.5589,廊坊市,开发区,臭氧1小时,119,44,40,22,28,238,238,165,165,18,28,7,6,0.5,0.6
2023-06-14T14:00:00,1070A,116.7244,39.5269,廊坊市,北华航天学院,臭氧1小时,115,58,54,14,24,230,230,151,151,10,23,6,6,0.4,0.5
2023-06-14T14:00:00,1071A,116.8842,38.2991,沧州市,沧县城建局,臭氧1小时,102,34,42,22,22,203,203,144,144,13,26,8,10,0.3,0.5
2023-06-14T14:00:00,1072A,116.8584,38.3254,沧州市,电视转播站,臭氧1小时,103,37,39,17,16,206,205,152,152,10,25,6,5,0.3,0.4
2023-06-14T14:00:00,1073A,116.8709,38.3228,沧州市,市环保局,臭氧1小时,95,28,38,12,20,196,196,142,142,17,26,5,8,0.2,0.3
2023-06-14T14:00:00,1074A,115.6838,37.7541,衡水市,电机北厂,臭氧1小时,123,80,56,13,12,246,246,186,186,6,14,6,5,0.6,0.5
2023-06-14T14:00:00,1075A,115.6303,37.7316,衡水市,市监测站,臭氧1小时,120,57,55,30,17,242,240,179,179,7,17,6,5,0.7,0.6
2023-06-14T14:00:00,1077A,114.4704,37.0886,邢台市,达活泉,臭氧1小时,127,52,69,13,19,253,253,151,151,6,31,14,45,1.1,1
2023-06-14T14:00:00,1078A,114.5062,37.0349,邢台市,邢师高专,臭氧1小时,116,38,74,17,21,232,232,133,133,12,47,14,13,0.9,1
2023-06-14T14:00:00,1079A,114.5237,37.0851,邢台市,路桥公司,臭氧1小时,137,44,65,22,20,274,274,157,157,11,37,15,11,0.9,1
2023-06-14T14:00:00,1080A,114.4725,37.0719,邢台市,市环保局,臭氧1小时,126,44,69,18,22,252,252,149,149,11,37,15,11,,1.1
2023-06-14T14:00:00,1081A,112.522,37.8873,太原市,尖草坪,臭氧1小时,82,34,53,12,17,187,185,121,121,10,34,7,7,0.4,0.5
2023-06-14T14:00:00,1083A,112.434,38.0108,太原市,上兰,,,,,,,,,,,,,,,,
2023-06-14T14:00:00,1084A,112.469,37.7124,太原市,晋源,臭氧1小时,100,46,51,20,25,213,200,120,120,13,39,11,10,0.5,0.6
2023-06-14T14:00:00,1085A,112.5583,37.7394,太原市,小店,臭氧1小时,93,36,68,14,26,195,194,114,114,13,58,7,10,0.4,0.5
2023-06-14T14:00:00,1086A,112.5369,37.8692,太原市,桃园,臭氧1小时,94,36,45,22,21,195,195,110,110,15,39,10,10,0.4,0.5
2023-06-14T14:00:00,1087A,112.57,37.8195,太原市,坞城,臭氧1小时,95,49,51,16,20,196,196,116,116,14,49,10,11,0.5,0.7
2023-06-14T14:00:00,1088A,112.549,37.9854,太原市,南寨,臭氧1小时,74,41,51,15,17,179,179,97,97,16,42,18,10,0.7,0.6
2023-06-14T14:00:00,1090A,111.6507,40.7517,呼和浩特市,呼市一监,,,,,,,,,,,,,,,,
2023-06-14T14:00:00,1091A,111.6572,40.8033,呼和浩特市,小召,,47,27,35,9,13,150,150,102,102,11,29,9,9,0.4,0.4
2023-06-14T14:00:00,1094A,111.7516,40.8369,呼和浩特市,如意水处理厂,臭氧1小时,55,23,34,8,12,164,164,111,111,8,28,10,9,0.4,0.4
2023-06-14T14:00:00,1095A,111.7276,40.8062,呼和浩特市,二十九中,,50,28,51,7,13,158,158,108,108,7,30,8,7,0.3,0.3
2023-06-14T14:00:00,1096A,111.5512,40.7866,呼和浩特市,工大金川校区,,46,22,38,6,10,151,147,89,89,8,29,8,8,0.3,0.4
2023-06-14T14:00:00,1097A,111.717,40.7612,呼和浩特市,化肥厂生活区,,46,26,48,32,15,138,138,92,92,8,27,9,11,0.2,0.3
2023-06-14T14:00:00,1098A,123.6836,41.9339,沈阳市,森林路,,,,,,,,,,,,,,,,
2023-06-14T14:00:00,1099A,123.505,41.7406,沈阳市,浑南东路,臭氧1小时,97,38,41,17,26,197,197,113,113,13,49,12,11,0.7,0.9
2023-06-14T14:00:00,1100A,123.4231,41.6989,沈阳市,新秀街,臭氧1小时,87,38,42,15,21,189,189,118,118,7,46,8,14,0.6,0.9
2023-06-14T14:00:00,1102A,123.5903,41.8411,沈阳市,东陵路,臭氧1小时,105,33,52,30,28,210,210,130,130,12,26,12,13,0.7,1
2023-06-14T14:00:00,1103A,123.4264,41.8467,沈阳市,陵东街,臭氧1小时,98,32,40,19,24,198,198,113,113,13,42,7,9,0.7,0.9
2023-06-14T14:00:00,1104A,123.4114,41.7653,沈阳市,文化路,臭氧1小时,92,29,47,19,33,196,193,120,120,10,40,7,14,0.7,1
2023-06-14T14:00:00,1105A,123.4678,41.7867,沈阳市,小河沿,臭氧1小时,94,37,40,21,23,195,195,109,109,17,41,10,11,0.6,0.8
2023-06-14T14:00:00,1106A,123.4017,41.7972,沈阳市,太原街,臭氧1小时,98,32,46,15,27,198,198,124,124,14,44,7,11,0.5,0.8
2023-06-14T14:00:00,1108A,123.3783,41.9228,沈阳市,京沈街,臭氧1小时,110,54,49,35,30,220,220,144,144,13,42,10,10,0.7,0.8
2023-06-14T14:00:00,1109A,121.612,38.9741,大连市,甘井子,,42,18,29,11,15,139,132,113,113,19,16,4,5,0.5,0.7
2023-06-14T14:00:00,1110A,121.565,38.9511,大连市,周水子,,42,22,28,10,14,136,132,115,115,16,24,4,4,0.4,0.5
2023-06-14T14:00:00,1111A,121.5637,38.8845,大连市,星海三站,,38,26,24,19,11,136,121,114,114,16,13,3,4,0.4,0.4
2023-06-14T14:00:00,1112A,121.6302,38.9117,大连市,青泥洼桥,,45,6,16,7,15,144,141,117,117,6,16,4,4,0.5,0.6
2023-06-14T14:00:00,1113A,121.6251,38.8638,大连市,傅家庄,,35,17,22,13,13,142,112,100,100,12,15,7,7,0.7,0.7
2023-06-14T14:00:00,1114A,121.5213,38.8661,大连市,七贤岭,,,26,24,11,11,157,157,138,138,8,10,,5,0.3,0.3
2023-06-14T14:00:00,1115A,121.2529,38.8061,大连市,旅顺,,38,18,20,8,11,141,121,114,98,24,17,7,6,0.5,0.5
2023-06-14T14:00:00,1116A,121.7485,39.1311,大连市,金州,,47,15,22,4,14,154,150,128,128,12,14,8,8,0.7,0.8
2023-06-14T14:00:00,1117A,121.7811,39.0496,大连市,开发区,,40,21,27,7,16,143,128,122,122,18,20,4,6,0.5,0.6
2023-06-14T14:00:00,1118A,121.9762,39.0631,大连市,双D港,,44,22,24,11,15,166,138,134,134,22,17,8,8,0.4,0.4
2023-06-14T14:00:00,1119A,125.3325,43.9166,长春市,食品厂,,,,60,8,33,164,164,119,119,16,54,6,7,0.2,0.6
2023-06-14T14:00:00,1120A,125.2863,43.9027,长春市,客车厂,臭氧1小时,60,19,42,8,23,168,168,122,122,13,50,3,4,0.4,0.6
2023-06-14T14:00:00,1121A,125.2841,43.8463,长春市,邮电学院,,49,18,30,5,15,155,155,113,113,11,35,5,5,0.4,0.6
2023-06-14T14:00:00,1122A,125.3716,43.8772,长春市,劳动公园,臭氧1小时,64,18,41,5,16,171,171,110,110,11,45,6,6,0.4,0.6
2023-06-14T14:00:00,1123A,125.3297,43.8805,长春市,园林处,臭氧1小时,52,18,39,8,15,161,161,112,112,12,41,6,6,0.4,0.6
2023-06-14T14:00:00,1124A,125.4605,43.79,长春市,净月潭,臭氧1小时,63,9,19,5,12,170,170,97,97,5,15,4,4,0.4,0.4
2023-06-14T14:00:00,1125A,125.7194,43.515,长春市,甩湾子,,,,,,,,,,,,,,,,
2023-06-14T14:00:00,1126A,125.3863,43.8447,长春市,经开区环卫处,臭氧1小时,55,7,43,3,16,164,164,89,89,12,53,6,6,0.4,0.6
2023-06-14T14:00:00,1127A,125.245,43.7783,长春市,高新区管委会,臭氧1小时,57,12,34,5,14,165,165,112,112,5,39,5,5,0.2,0.4
2023-06-14T14:00:00,1128A,125.1761,43.8325,长春市,岱山公园,臭氧1小时,58,11,36,4,16,166,166,118,118,11,55,5,5,0.3,0.4
2023-06-14T14:00:00,1129A,126.5422,45.755,哈尔滨市,岭北,,50,9,22,5,15,168,158,140,140,7,21,20,21,0.3,0.3
2023-06-14T14:00:00,1130A,126.561,45.8167,哈尔滨市,松北商大,,48,20,35,6,14,163,151,125,125,8,35,6,6,0.4,0.5
2023-06-14T14:00:00,1131A,126.979,45.5419,哈尔滨市,阿城会宁,臭氧1小时,57,2,45,4,19,165,165,103,103,12,35,8,9,0.4,0.5
2023-06-14T14:00:00,1132A,126.599,45.7222,哈尔滨市,南岗学府路,,50,23,41,8,15,164,158,121,121,6,37,9,9,0.3,0.4
2023-06-14T14:00:00,1133A,126.689,45.7733,哈尔滨市,太平宏伟公园,臭氧1小时,59,42,40,9,23,175,167,126,126,10,39,7,7,0.3,0.5
2023-06-14T14:00:00,1134A,126.635,45.7667,哈尔滨市,道外承德广场,,49,25,37,6,11,170,156,130,130,19,37,5,6,0.6,0.5
2023-06-14T14:00:00,1135A,126.685,45.7319,哈尔滨市,香坊红旗大街,,49,32,45,3,23,170,154,114,114,17,52,5,10,0.3,0.5
2023-06-14T14:00:00,1136A,126.6411,45.7258,哈尔滨市,动力和平路,,49,21,39,5,9,166,154,116,116,18,48,8,8,0.4,0.5
2023-06-14T14:00:00,1137A,126.593,45.7478,哈尔滨市,道里建国路,,,18,31,11,14,159,151,121,121,17,44,6,6,,0.5
2023-06-14T14:00:00,1138A,126.615,45.61,哈尔滨市,平房东轻厂,颗粒物(PM10),52,53,37,8,12,164,160,110,110,8,54,6,6,0.5,0.5
2023-06-14T14:00:00,1139A,126.595,45.9855,哈尔滨市,呼兰师专,臭氧1小时,52,18,30,3,10,169,161,140,140,12,21,10,10,0.3,0.3
2023-06-14T14:00:00,1140A,126.6206,45.6842,哈尔滨市,省农科院,臭氧1小时,55,19,39,6,14,173,164,123,123,10,50,10,10,0.3,0.4
2023-06-14T14:00:00,1141A,121.4,31.238,上海市,普陀,臭氧1小时,113,41,25,30,18,225,225,124,124,17,24,4,4,0.5,0.4
2023-06-14T14:00:00,1142A,121.478,31.2036,上海市,十五厂,臭氧1小时,103,43,31,40,22,206,206,111,111,22,28,6,6,0.7,0.5
2023-06-14T14:00:00,1143A,121.467,31.3008,上海市,虹口,臭氧1小时,102,61,32,24,16,203,203,118,118,22,27,6,6,0.6,0.5
2023-06-14T14:00:00,1144A,121.412,31.1654,上海市,徐汇上师大,臭氧1小时,106,32,29,31,20,211,211,117,117,19,24,8,8,0.6,0.6
2023-06-14T14:00:00,1145A,121.536,31.2659,上海市,杨浦四漂,细颗粒物(PM2.5),60,68,27,43,19,192,160,108,108,40,32,8,6,0.9,0.7
2023-06-14T14:00:00,1147A,121.425,31.2261,上海市,静安监测站,臭氧1小时,105,36,30,26,15,210,210,119,119,18,24,5,4,0.6,0.5
2023-06-14T14:00:00,1148A,121.703,31.1907,上海市,浦东川沙,细颗粒物(PM2.5),54,46,31,38,22,134,134,83,83,17,18,7,6,0.4,0.4
2023-06-14T14:00:00,1149A,121.533,31.2284,上海市,浦东新区监测站,臭氧1小时,101,63,41,28,17,208,202,122,122,20,21,7,6,0.5,0.4
2023-06-14T14:00:00,1150A,121.577,31.2071,上海市,浦东张江,,47,44,31,29,21,159,149,89,89,24,24,5,5,0.6,0.5
2023-06-14T14:00:00,1151A,118.8086,32.1065,南京市,迈皋桥,臭氧1小时,108,42,60,14,28,230,216,168,168,1,25,4,4,0.4,0.6
2023-06-14T14:00:00,1152A,118.7538,32.0551,南京市,草场门,臭氧1小时,110,48,57,24,34,253,220,160,160,11,30,4,7,0.5,0.9
2023-06-14T14:00:00,1153A,118.7794,32.0745,南京市,山西路,臭氧1小时,105,51,63,19,29,235,210,162,162,7,21,6,8,0.3,0.5
2023-06-14T14:00:00,1154A,118.7752,32.0023,南京市,中华门,臭氧1小时,107,51,52,22,30,226,214,159,159,5,23,4,5,0.7,1
2023-06-14T14:00:00,1155A,118.8109,32.0309,南京市,瑞金路,臭氧1小时,108,48,61,19,32,232,215,157,157,9,27,4,5,0.4,0.6
2023-06-14T14:00:00,1156A,118.7997,32.0754,南京市,玄武湖,臭氧1小时,102,53,47,21,29,216,203,159,159,4,19,8,8,0.4,0.6
2023-06-14T14:00:00,1157A,118.6414,32.0931,南京市,浦口,臭氧1小时,103,40,41,22,24,223,206,166,166,9,15,8,7,0.7,0.7
2023-06-14T14:00:00,1158A,118.7356,31.9996,南京市,奥体中心,臭氧1小时,103,42,65,29,39,270,205,153,153,7,31,6,9,0.6,0.9
2023-06-14T14:00:00,1159A,118.9125,32.1028,南京市,仙林大学城,臭氧1小时,103,36,53,14,30,220,206,168,168,8,21,6,8,0.6,0.9
2023-06-14T14:00:00,1160A,120.561,31.2472,苏州市,上方山,臭氧1小时,103,52,41,28,20,205,205,122,122,12,19,8,5,0.7,0.4
2023-06-14T14:00:00,1162A,120.591,31.3019,苏州市,彩香,臭氧1小时,110,24,41,16,27,233,219,145,145,8,18,8,6,0.7,0.6
2023-06-14T14:00:00,1163A,120.596,31.3264,苏州市,轧钢厂,臭氧1小时,116,36,43,16,24,240,231,151,151,6,17,6,4,0.8,0.7
2023-06-14T14:00:00,1164A,120.613,31.2703,苏州市,吴中区,臭氧1小时,119,30,39,16,22,240,238,158,158,11,22,9,8,0.8,0.7
2023-06-14T14:00:00,1165A,120.543,31.2994,苏州市,苏州新区,臭氧1小时,112,26,43,13,28,228,223,149,149,5,17,8,6,0.8,0.7
2023-06-14T14:00:00,1166A,120.669,31.3097,苏州市,苏州工业园区,臭氧1小时,119,29,40,13,24,238,238,143,143,11,22,10,9,0.8,0.7
2023-06-14T14:00:00,1167A,120.641,31.3708,苏州市,相城区,臭氧1小时,126,50,37,19,25,251,251,146,146,8,22,8,8,0.9,0.7
2023-06-14T14:00:00,1168A,120.9098,31.9663,南通市,狼山街道,,,,,,,,,,,,,,,,
2023-06-14T14:00:00,1169A,120.86,32.0005,南通市,虹桥,臭氧1小时,117,73,38,39,27,238,233,133,133,34,32,14,11,0.9,0.9
2023-06-14T14:00:00,1170A,120.87,32.02,南通市,城中,臭氧1小时,106,71,44,33,29,234,212,132,132,21,25,11,10,0.7,0.7
2023-06-14T14:00:00,1171A,120.94,31.93,南通市,星湖花园,臭氧1小时,126,69,35,36,17,260,252,153,153,19,25,12,7,0.8,0.6
2023-06-14T14:00:00,1172A,120.81,32.0417,南通市,紫琅学院,臭氧1小时,104,63,42,34,25,229,208,124,124,22,31,8,7,0.7,0.7
2023-06-14T14:00:00,1173A,119.176,34.5885,连云港市,市环境监测站,臭氧1小时,89,24,43,14,19,195,191,147,147,12,17,10,9,0.5,0.7
2023-06-14T14:00:00,1177A,117.179,34.2761,徐州市,黄河新村,臭氧1小时,72,34,70,7,38,209,177,148,148,7,27,10,12,0.5,0.8
2023-06-14T14:00:00,1178A,117.1918,34.2384,徐州市,淮塔,臭氧1小时,85,29,69,11,32,218,188,151,151,8,25,10,12,0.4,0.6
2023-06-14T14:00:00,1180A,117.256,34.2153,徐州市,新城区,臭氧1小时,100,39,76,16,35,229,200,162,162,8,24,8,9,0.4,0.6
2023-06-14T14:00:00,1181A,117.244,34.2911,徐州市,桃园路,臭氧1小时,89,39,79,12,40,219,191,150,150,10,30,10,12,0.4,0.7
2023-06-14T14:00:00,1182A,117.2933,34.2778,徐州市,农科院,臭氧1小时,103,41,73,22,46,223,206,155,155,10,44,9,10,0.5,0.7
2023-06-14T14:00:00,1186A,119.389,32.3761,扬州市,邗江监测站,臭氧1小时,107,51,59,24,33,213,213,162,162,13,25,8,8,0.5,0.8
2023-06-14T14:00:00,1188A,120.269,31.4867,无锡市,雪浪,臭氧1小时,120,66,44,34,26,239,239,163,163,4,15,5,3,0.9,0.7
2023-06-14T14:00:00,1189A,120.275,31.6219,无锡市,黄巷,臭氧1小时,119,68,55,34,26,242,238,164,164,12,34,6,6,1.1,1
2023-06-14T14:00:00,1190A,120.294,31.56,无锡市,曹张,臭氧1小时,114,55,42,34,24,227,227,155,155,9,23,5,4,1.0,0.8
2023-06-14T14:00:00,1191A,120.242,31.5031,无锡市,漆塘,臭氧1小时,112,58,43,34,26,224,224,148,148,3,14,7,5,0.6,0.4
2023-06-14T14:00:00,1192A,120.3489,31.5863,无锡市,东亭,臭氧1小时,124,63,46,34,25,250,247,172,172,10,24,12,10,0.9,0.8
2023-06-14T14:00:00,1193A,120.354,31.5475,无锡市,旺庄,臭氧1小时,122,58,42,34,22,246,243,167,167,10,25,10,8,0.8,0.7
2023-06-14T14:00:00,1194A,120.245,31.5631,无锡市,荣巷,臭氧1小时,114,58,42,36,27,227,227,156,156,5,18,10,8,0.8,0.6
2023-06-14T14:00:00,1195A,120.299,31.6817,无锡市,堰桥,臭氧1小时,113,66,46,34,28,232,226,156,156,17,27,9,7,1.0,0.9
2023-06-14T14:00:00,1196A,119.9633,31.762,常州市,市监测站,臭氧1小时,116,28,57,30,35,232,232,166,166,14,29,8,9,0.5,0.6
2023-06-14T14:00:00,1200A,119.9468,31.7069,常州市,武进监测站,臭氧1小时,121,30,62,28,36,242,242,168,168,9,23,6,9,0.6,0.7
2023-06-14T14:00:00,1201A,119.9255,31.9087,常州市,安家,臭氧1小时,116,33,72,30,43,238,231,168,168,9,34,8,10,0.6,0.9
2023-06-14T14:00:00,1203A,119.6707,32.1875,镇江市,新区办事处,臭氧1小时,111,40,53,15,38,221,221,159,159,18,26,4,5,0.8,1.1
2023-06-14T14:00:00,1204A,119.4974,32.1968,镇江市,职教中心,臭氧1小时,112,32,49,17,38,235,224,188,188,9,19,1,4,0.7,1
2023-06-14T14:00:00,1205A,119.4303,32.1328,镇江市,丹徒区监测站,臭氧1小时,108,34,49,13,39,233,216,175,175,5,16,4,7,0.5,0.7
2023-06-14T14:00:00,1206A,119.905,32.4878,泰州市,公园路,臭氧1小时,113,56,55,34,40,226,225,168,168,10,19,10,9,0.7,0.9
2023-06-14T14:00:00,1207A,119.9189,32.4625,泰州市,莲花,臭氧1小时,111,61,62,29,38,222,221,171,171,11,19,11,10,0.5,0.6
2023-06-14T14:00:00,1209A,119.888,32.4639,泰州市,留学生创业园,臭氧1小时,109,22,45,17,32,221,218,165,165,11,19,10,9,0.4,0.6
2023-06-14T14:00:00,1210A,119.036,33.5981,淮安市,钵池山,臭氧1小时,95,46,52,14,34,203,196,134,134,11,20,9,9,0.8,0.8
2023-06-14T14:00:00,1211A,119.007,33.575,淮安市,北京南路,臭氧1小时,102,58,56,16,40,204,204,140,140,17,24,11,11,0.8,0.7
2023-06-14T14:00:00,1212A,118.989,33.6067,淮安市,市监测站,臭氧1小时,110,61,60,22,31,220,220,148,148,13,22,10,11,0.7,0.7
2023-06-14T14:00:00,1213A,119.135,33.5039,淮安市,楚州区监测站,臭氧1小时,104,49,56,13,29,210,208,139,139,10,20,7,7,0.7,0.7
2023-06-14T14:00:00,1214A,119.0186,33.6297,淮安市,淮阴区监测站,臭氧1小时,104,57,59,13,34,208,208,143,143,12,22,9,9,0.6,0.6
2023-06-14T14:00:00,1215A,120.118,33.4022,盐城市,盐城电厂,臭氧1小时,88,44,44,22,17,199,190,114,114,5,11,6,5,0.5,0.4
2023-06-14T14:00:00,1216A,120.156,33.3942,盐城市,市监测站,臭氧1小时,70,46,45,22,19,176,176,105,105,6,15,8,8,0.4,0.3
2023-06-14T14:00:00,1218A,120.2144,33.38,盐城市,开发区管委会,臭氧1小时,72,47,41,14,9,177,177,103,103,9,18,7,6,0.5,0.5
2023-06-14T14:00:00,1220A,118.293,33.9528,宿迁市,宿迁学院,臭氧1小时,115,28,56,15,37,242,229,176,176,8,22,13,11,0.4,0.5
2023-06-14T14:00:00,1221A,118.2442,33.9592,宿迁市,宿迁中学,臭氧1小时,121,28,61,12,35,248,242,185,185,10,20,11,10,0.4,0.4
2023-06-14T14:00:00,1223A,120.2072,30.2111,杭州市,滨江,臭氧1小时,105,18,44,10,22,209,209,134,134,9,17,7,7,0.5,0.5
2023-06-14T14:00:00,1224A,120.0633,30.2747,杭州市,西溪,臭氧1小时,103,34,44,14,22,205,205,119,119,14,19,8,8,0.5,0.4
2023-06-14T14:00:00,1226A,120.3461,30.3153,杭州市,下沙,臭氧1小时,90,28,34,17,20,192,192,117,117,7,23,5,4,0.5,0.4
2023-06-14T14:00:00,1227A,120.1269,30.2456,杭州市,卧龙桥,臭氧1小时,109,27,37,15,29,217,217,129,129,13,18,6,6,0.6,0.6
2023-06-14T14:00:00,1228A,120.1903,30.2692,杭州市,浙江农大,臭氧1小时,94,19,32,13,20,195,195,122,122,10,18,6,6,0.4,0.4
2023-06-14T14:00:00,1230A,120.1197,30.3119,杭州市,和睦小学,臭氧1小时,110,43,42,26,26,219,219,131,131,,23,7,6,0.6,0.5
2023-06-14T14:00:00,1231A,120.3019,30.4183,杭州市,临平镇,臭氧1小时,102,47,70,23,26,204,204,125,125,7,13,5,4,0.4,0.4
2023-06-14T14:00:00,1232A,120.2697,30.1819,杭州市,城厢镇,臭氧1小时,100,25,40,14,24,200,200,124,124,17,23,5,5,0.5,0.5
2023-06-14T14:00:00,1233A,120.0883,30.1808,杭州市,云栖,臭氧1小时,103,29,39,14,20,206,206,123,123,,22,8,8,0.5,0.7
2023-06-14T14:00:00,1234A,121.8358,29.911,宁波市,区环保大楼,臭氧1小时,65,30,23,20,16,204,172,92,92,30,31,5,6,0.7,0.6
2023-06-14T14:00:00,1235A,121.56,29.82,宁波市,万里学院,臭氧1小时,106,36,27,28,26,212,212,115,115,22,28,4,4,0.7,0.5
2023-06-14T14:00:00,1236A,121.713,29.9572,宁波市,龙赛医院,臭氧1小时,58,42,33,21,17,195,166,100,100,7,26,5,6,0.5,0.5
2023-06-14T14:00:00,1239A,121.633,29.7733,宁波市,钱湖水厂,,45,25,18,26,16,180,144,100,100,9,12,5,5,0.5,0.4
2023-06-14T14:00:00,1240A,121.5856,29.8635,宁波市,太古小学,臭氧1小时,101,35,27,28,23,201,201,114,114,25,27,10,8,0.8,0.7
2023-06-14T14:00:00,1241A,121.524,29.8674,宁波市,市环境监测中心,臭氧1小时,93,34,29,25,15,194,194,107,107,16,21,4,4,0.5,0.5
2023-06-14T14:00:00,1242A,120.634,28.0089,温州市,瓯海,,48,27,26,22,16,153,153,86,86,17,25,7,7,0.4,0.4
2023-06-14T14:00:00,1243A,120.6748,27.9939,温州市,南浦,,49,35,24,23,11,155,155,97,97,12,12,5,4,0.5,0.4
2023-06-14T14:00:00,1244A,120.76,27.9747,温州市,龙湾,,43,26,22,24,11,135,135,83,83,19,19,8,6,0.5,0.5
2023-06-14T14:00:00,1245A,120.6709,28.0167,温州市,市站,,43,40,26,24,16,136,136,84,84,19,24,4,5,0.4,0.4
2023-06-14T14:00:00,1247A,120.6053,29.9928,绍兴市,城东开发委,臭氧1小时,97,62,45,46,29,197,197,113,113,16,18,9,8,0.7,0.6
2023-06-14T14:00:00,1250A,120.0751,30.8669,湖州市,城西水厂,臭氧1小时,117,60,41,30,25,234,234,139,139,19,28,9,7,0.7,0.5
2023-06-14T14:00:00,1252A,120.7436,30.778,嘉兴市,清河小学,臭氧1小时,90,29,27,24,17,192,192,123,123,12,17,6,6,0.5,0.5
2023-06-14T14:00:00,1253A,120.726,30.7478,嘉兴市,嘉兴学院,臭氧1小时,98,31,27,20,21,198,198,126,126,14,20,4,3,0.4,0.3
2023-06-14T14:00:00,1255A,121.273,28.6459,台州市,黄岩环保大楼,,44,22,23,18,15,140,140,99,99,9,12,6,5,0.4,0.3
2023-06-14T14:00:00,1256A,121.419,28.6542,台州市,台州环保大楼,,40,18,18,17,12,127,125,91,91,6,12,4,4,0.4,0.4
2023-06-14T14:00:00,1257A,121.377,28.5773,台州市,路桥田洋王,,42,27,19,21,13,136,133,95,95,8,14,6,5,0.3,0.4
2023-06-14T14:00:00,1258A,122.122,30.0203,舟山市,定海檀枫,,30,18,18,16,13,93,93,60,60,6,7,5,5,0.4,0.3
2023-06-14T14:00:00,1259A,122.3094,29.9558,舟山市,普陀东港,,,20,17,12,17,71,71,47,47,,4,4,8,0.3,0.3
2023-06-14T14:00:00,1260A,122.19,29.9944,舟山市,临城新区,,28,17,25,5,19,89,89,56,56,6,7,3,4,0.2,0.3
2023-06-14T14:00:00,1262A,119.647,29.077,金华市,十五中,臭氧1小时,106,39,55,29,39,225,211,129,129,16,20,4,5,0.5,0.5
2023-06-14T14:00:00,1263A,119.686,29.1029,金华市,监测站,,,48,44,31,34,219,183,121,121,,19,4,4,0.5,0.5
2023-06-14T14:00:00,1264A,118.8692,28.9398,衢州市,环保大楼,臭氧1小时,67,29,39,21,26,188,173,108,108,8,21,2,3,0.5,0.6
2023-06-14T14:00:00,1265A,118.8709,28.9666,衢州市,实验学校,,,39,54,20,26,189,170,127,127,,19,4,6,0.4,0.5
2023-06-14T14:00:00,1266A,118.8621,28.9808,衢州市,衢州学院,臭氧1小时,62,34,38,18,26,185,169,108,108,9,21,6,7,0.5,0.5
2023-06-14T14:00:00,1267A,119.914,28.4514,丽水市,监测站大楼,,47,38,33,16,20,149,149,97,97,7,13,4,5,0.4,0.4
2023-06-14T14:00:00,1268A,119.93,28.4586,丽水市,莲都小学,,49,47,33,25,18,154,154,109,109,8,12,4,5,0.5,0.5
2023-06-14T14:00:00,1269A,119.879,28.4231,丽水市,余庄前,,44,27,38,20,22,139,139,98,98,7,15,5,5,0.4,0.5
2023-06-14T14:00:00,1270A,117.1959,31.7848,合肥市,明珠广场,臭氧1小时,99,46,58,27,33,222,199,149,149,12,28,5,6,0.4,0.7
2023-06-14T14:00:00,1271A,117.3072,31.8764,合肥市,三里街,臭氧1小时,87,41,51,24,28,216,189,159,159,10,20,6,6,0.3,0.5
2023-06-14T14:00:00,1272A,117.2588,31.8707,合肥市,琥珀山庄,臭氧1小时,99,39,53,22,31,219,199,159,159,6,22,5,5,0.4,0.6
2023-06-14T14:00:00,1273A,117.1604,31.9052,合肥市,董铺水库,臭氧1小时,58,39,50,14,28,198,166,132,132,6,19,3,3,0.3,0.5
2023-06-14T14:00:00,1274A,117.25,31.8571,合肥市,长江中路,臭氧1小时,82,41,52,24,32,211,185,166,166,4,15,12,12,0.4,0.6
2023-06-14T14:00:00,1275A,117.266,31.9436,合肥市,庐阳区,臭氧1小时,64,46,58,27,32,189,171,136,136,7,19,7,7,0.4,0.6
2023-06-14T14:00:00,1276A,117.336,31.8586,合肥市,瑶海区,臭氧1小时,79,44,57,18,27,207,183,159,159,6,17,8,9,0.4,0.6
2023-06-14T14:00:00,1277A,117.3027,31.7964,合肥市,包河区,臭氧1小时,87,46,66,22,37,204,189,146,146,8,40,5,6,0.4,0.7
2023-06-14T14:00:00,1278A,117.2776,31.7385,合肥市,滨湖新区,,,,61,,31,203,178,142,142,10,38,6,7,,0.7
2023-06-14T14:00:00,1279A,117.1318,31.8403,合肥市,高新区,臭氧1小时,79,48,54,22,32,203,183,148,148,6,14,9,8,0.4,0.6
2023-06-14T14:00:00,1280A,119.3903,26.0543,福州市,鼓山,,,,,,,,,,,,,,,,
2023-06-14T14:00:00,1282A,119.2681,26.0504,福州市,师大,,25,15,42,10,19,183,78,76,52,8,14,4,6,0.4,0.4
2023-06-14T14:00:00,1283A,119.2984,26.1028,福州市,五四北路,,29,14,44,14,21,190,90,80,67,11,17,2,3,0.4,0.4
2023-06-14T14:00:00,1284A,119.2648,26.0768,福州市,杨桥西路,,26,7,42,8,19,185,81,72,52,10,15,2,4,0.3,0.5
2023-06-14T14:00:00,1285A,119.317,26.0746,福州市,紫阳,,23,16,40,14,20,171,71,86,51,14,18,2,3,0.4,0.4
2023-06-14T14:00:00,1286A,118.1608,24.8169,厦门市,溪东,,,,,,,,,,,,,,,,
2023-06-14T14:00:00,1287A,118.1514,24.4767,厦门市,洪文,,48,43,34,33,19,116,88,60,60,23,19,1,2,0.5,0.4
2023-06-14T14:00:00,1288A,118.0661,24.4444,厦门市,鼓浪屿,,38,36,40,26,25,125,107,62,60,11,19,1,5,0.8,0.6
2023-06-14T14:00:00,1290A,115.8931,28.6843,南昌市,省外办,臭氧1小时,78,43,44,29,28,182,182,140,140,12,18,8,8,0.6,0.6
2023-06-14T14:00:00,1291A,115.8886,28.7003,南昌市,省林业公司,臭氧1小时,80,41,38,34,30,184,184,130,130,8,21,9,7,0.6,0.4
2023-06-14T14:00:00,1292A,115.8126,28.7442,南昌市,林科所,臭氧1小时,64,17,26,22,19,174,171,134,134,12,27,9,9,0.7,0.7
2023-06-14T14:00:00,1294A,115.8518,28.687,南昌市,建工学校,臭氧1小时,82,53,48,29,25,185,185,134,134,6,17,13,12,0.6,0.5
2023-06-14T14:00:00,1295A,115.8921,28.6424,南昌市,象湖,臭氧1小时,67,41,40,24,28,173,173,136,136,2,13,5,10,0.5,0.5
2023-06-14T14:00:00,1296A,115.7423,28.7996,南昌市,武术学校,,48,26,19,27,14,157,153,107,107,5,3,9,7,0.5,0.5
2023-06-14T14:00:00,1298A,115.9314,28.6842,南昌市,省站,臭氧1小时,60,63,46,27,27,168,168,126,126,9,19,9,9,0.6,0.6
2023-06-14T14:00:00,1299A,116.9862,36.6114,济南市,科干所,臭氧1小时,97,27,37,12,16,247,197,146,146,10,20,4,5,0.4,0.4
2023-06-14T14:00:00,1300A,116.9376,36.665,济南市,农科所,臭氧1小时,98,29,45,5,12,246,198,138,138,11,28,4,4,0.3,0.4
2023-06-14T14:00:00,1301A,117.1265,36.6734,济南市,开发区,臭氧1小时,112,39,38,12,13,248,224,156,156,18,23,6,6,0.5,0.6
2023-06-14T14:00:00,1303A,117.0624,36.6868,济南市,省种子仓库,臭氧1小时,112,34,41,7,14,254,224,148,148,10,27,2,4,0.3,0.5
2023-06-14T14:00:00,1304A,116.9489,36.6447,济南市,机床二厂,臭氧1小时,99,37,48,5,15,256,199,147,147,11,24,4,5,0.3,0.4
2023-06-14T14:00:00,1305A,117.0495,36.663,济南市,市监测站,臭氧1小时,111,34,38,15,15,267,221,158,158,17,31,5,7,0.2,0.3
2023-06-14T14:00:00,1306A,116.7675,36.5484,济南市,长清党校,臭氧1小时,101,32,44,10,21,230,201,158,158,11,27,8,8,0.6,0.6
2023-06-14T14:00:00,1307A,120.6659,36.2403,青岛市,仰口,,27,22,25,14,16,151,84,92,86,7,9,4,4,0.5,0.5
2023-06-14T14:00:00,1310A,120.4134,36.0658,青岛市,市南区东部子站,,30,22,34,9,18,178,96,122,100,5,21,8,7,0.3,0.5
2023-06-14T14:00:00,1311A,120.3664,36.1032,青岛市,四方区子站,,41,29,42,12,24,178,130,120,117,12,36,5,5,0.6,0.7
2023-06-14T14:00:00,1312A,120.2994,36.054,青岛市,市南区西部子站,,30,22,38,15,19,163,96,141,92,4,28,5,7,0.5,0.6
2023-06-14T14:00:00,1313A,120.4581,36.0858,青岛市,崂山区子站,,32,19,30,12,19,179,101,119,109,6,20,6,8,0.3,0.4
2023-06-14T14:00:00,1314A,120.1983,35.9608,青岛市,黄岛区子站,,38,29,46,20,24,174,121,108,108,8,37,5,6,0.5,0.6
2023-06-14T14:00:00,1315A,120.3999,36.3083,青岛市,城阳区子站,,48,19,38,10,17,174,153,133,133,8,14,5,5,0.4,0.5
2023-06-14T14:00:00,1316A,113.69031,34.76122,郑州市,烟厂,臭氧1小时,102,42,66,29,26,229,203,146,146,7,48,4,6,0.4,0.6
2023-06-14T14:00:00,1317A,113.65724,34.77134,郑州市,郑纺机,臭氧1小时,97,37,63,17,23,226,197,138,138,6,48,4,6,0.4,0.6
2023-06-14T14:00:00,1318A,113.67526,34.80246,郑州市,银行学校,臭氧1小时,99,32,55,18,26,226,199,148,148,6,32,5,7,0.4,0.6
2023-06-14T14:00:00,1319A,113.56746,34.81334,郑州市,供水公司,臭氧1小时,88,30,58,13,21,193,190,134,134,8,43,9,9,0.3,0.5
2023-06-14T14:00:00,1320A,113.7329,34.7178,郑州市,经开区管委,臭氧1小时,85,29,62,13,23,228,188,139,139,7,47,4,4,0.4,0.5
2023-06-14T14:00:00,1321A,113.73961,34.77172,郑州市,四十七中,臭氧1小时,97,37,53,5,22,222,197,148,148,8,28,7,8,0.3,0.5
2023-06-14T14:00:00,1322A,113.60532,34.74838,郑州市,市监测站,臭氧1小时,88,30,80,22,31,216,190,134,134,11,46,6,4,0.4,0.6
2023-06-14T14:00:00,1323A,113.64164,34.7525,郑州市,河医大,臭氧1小时,73,38,70,22,20,212,178,124,124,6,44,7,8,0.3,0.5
2023-06-14T14:00:00,1324A,113.51488,34.91089,郑州市,岗李水库,臭氧1小时,100,35,43,10,16,207,200,140,140,11,20,7,7,0.3,0.5
2023-06-14T14:00:00,1325A,114.3677,30.5584,武汉市,东湖梨园,臭氧1小时,120,41,36,20,20,240,240,147,147,17,24,11,6,1.2,0.8
2023-06-14T14:00:00,1326A,114.2529,30.558,武汉市,汉阳月湖,臭氧1小时,105,31,40,14,20,210,210,127,127,13,42,8,7,0.6,0.7
2023-06-14T14:00:00,1327A,114.282,30.6189,武汉市,汉口花桥,,,,48,,27,220,220,132,132,16,35,9,9,0.5,0.8
2023-06-14T14:00:00,1328A,114.3025,30.5332,武汉市,武昌紫阳,臭氧1小时,121,32,36,22,18,242,242,146,146,13,38,8,6,0.8,0.8
2023-06-14T14:00:00,1329A,114.3646,30.6217,武汉市,青山钢花,臭氧1小时,113,31,42,24,30,226,226,144,144,11,39,9,10,0.5,0.7
2023-06-14T14:00:00,1330A,114.1566,30.4825,武汉市,沌口新区,臭氧1小时,121,40,44,26,30,241,241,148,148,20,31,6,5,0.6,0.6
2023-06-14T14:00:00,1331A,114.3014,30.5944,武汉市,汉口江滩,,,,,,,,,,,,,,,,
2023-06-14T14:00:00,1333A,114.135,30.6319,武汉市,吴家山,臭氧1小时,107,36,51,12,27,214,214,150,150,10,32,6,6,0.4,0.6
2023-06-14T14:00:00,1334A,113.8454,30.2917,武汉市,沉湖七壕,臭氧1小时,94,32,31,11,18,195,195,130,130,8,23,6,5,0.6,0.6
2023-06-14T14:00:00,1335A,113.0833,28.2325,长沙市,经开区环保局,,43,43,36,23,21,133,121,60,60,14,20,5,6,0.6,0.7
2023-06-14T14:00:00,1336A,112.8872,28.2189,长沙市,高开区环保局,,50,50,34,31,22,137,108,61,43,17,16,6,7,0.6,0.6
2023-06-14T14:00:00,1337A,113.0792,28.2053,长沙市,马坡岭,,49,49,36,32,26,146,117,61,61,16,16,5,5,0.4,0.5
2023-06-14T14:00:00,1338A,112.9394,28.19,长沙市,湖南师范大学,,41,41,33,25,27,113,92,41,37,7,11,3,3,0.6,0.5
2023-06-14T14:00:00,1339A,113.0178,28.1322,长沙市,雨花区环保局,,40,40,30,23,19,137,116,62,40,16,18,5,6,0.5,0.5
2023-06-14T14:00:00,1340A,112.9792,28.2597,长沙市,伍家岭,,48,48,35,33,24,125,117,60,46,19,19,4,4,0.3,0.3
2023-06-14T14:00:00,1341A,113.0014,28.1944,长沙市,火车新站,,39,30,24,19,16,130,122,66,58,11,16,6,6,0.8,0.7
2023-06-14T14:00:00,1342A,112.9844,28.1178,长沙市,天心区环保局,,43,43,34,20,17,132,114,51,37,12,16,2,2,0.6,0.5
2023-06-14T14:00:00,1343A,112.8908,28.1308,长沙市,湖南中医药大学,颗粒物(PM10),55,59,36,34,21,123,102,44,44,15,13,4,4,0.8,0.7
2023-06-14T14:00:00,1344A,112.9581,28.3611,长沙市,沙坪,,42,40,40,29,21,126,126,63,63,9,7,7,5,0.6,0.6
2023-06-14T14:00:00,1345A,113.2347,23.1423,广州市,广雅中学,,30,24,34,21,24,186,96,89,74,28,26,2,3,0.9,0.9
2023-06-14T14:00:00,1346A,113.2612,23.105,广州市,市五中,,40,19,32,15,26,212,125,97,88,15,17,4,4,0.7,0.7
2023-06-14T14:00:00,1348A,113.3478,23.0916,广州市,广东商学院,,37,24,35,19,29,155,116,83,83,25,28,4,4,0.7,0.8
2023-06-14T14:00:00,1349A,113.4332,23.1047,广州市,市八十六中,,46,36,47,32,30,150,118,69,69,28,41,4,4,0.7,0.7
2023-06-14T14:00:00,1350A,113.3505,22.9483,广州市,番禺中学,,45,21,30,17,21,215,142,100,99,17,24,6,7,0.9,0.9
2023-06-14T14:00:00,1351A,113.2146,23.3916,广州市,花都师范,,38,34,44,26,29,185,102,70,70,14,27,5,6,0.7,0.7
2023-06-14T14:00:00,1352A,113.2597,23.1331,广州市,市监测站,,39,21,33,16,25,218,124,90,87,25,25,5,6,0.9,0.9
2023-06-14T14:00:00,1353A,113.5618,23.312,广州市,九龙镇镇龙,,38,15,28,14,20,180,120,82,82,7,16,5,5,0.7,0.7
2023-06-14T14:00:00,1354A,113.2765,23.1544,广州市,麓湖,,33,22,35,18,25,210,105,75,75,24,30,4,5,1.0,1
2023-06-14T14:00:00,1355A,113.443,23.3035,广州市,帽峰山森林公园,,39,14,29,10,19,216,122,84,84,10,15,7,7,0.6,0.6
2023-06-14T14:00:00,1356A,114.1063,22.5545,深圳市,通心岭子站,,23,18,25,11,14,143,71,86,68,22,20,4,3,0.9,0.9
2023-06-14T14:00:00,1357A,114.117,22.5625,深圳市,洪湖,,24,13,28,8,9,149,75,87,61,23,26,5,5,0.9,0.9
2023-06-14T14:00:00,1358A,113.987,22.5417,深圳市,华侨城,,31,8,24,8,15,136,97,92,70,11,21,6,6,0.7,0.8
2023-06-14T14:00:00,1359A,113.9181,22.5171,深圳市,南海子站,,,18,26,8,15,133,82,97,70,23,25,,4,0.7,0.7
2023-06-14T14:00:00,1360A,114.2458,22.5689,深圳市,盐田,,26,19,22,17,18,120,82,64,64,21,20,4,4,0.6,0.6
2023-06-14T14:00:00,1361A,114.2283,22.7244,深圳市,龙岗,,42,36,34,27,21,168,132,82,82,2,2,9,9,0.9,0.9
2023-06-14T14:00:00,1363A,114.494,22.5422,深圳市,南澳,,36,14,20,8,13,114,114,107,85,9,8,3,4,0.7,0.7
2023-06-14T14:00:00,1364A,114.41,22.6342,深圳市,葵涌,,31,19,24,10,13,102,99,87,72,7,14,4,6,0.6,0.6
2023-06-14T14:00:00,1365A,114.297,22.5978,深圳市,梅沙,,34,21,21,19,14,126,107,109,68,11,12,4,4,0.7,0.6
2023-06-14T14:00:00,1366A,114.0678,22.738,深圳市,观澜,,48,43,40,33,27,179,142,94,94,18,24,8,8,0.7,0.7
2023-06-14T14:00:00,1367A,113.5814,22.2618,珠海市,吉大,,34,12,15,12,13,156,106,96,76,12,14,8,8,0.5,0.4
2023-06-14T14:00:00,1368A,113.4881,22.2335,珠海市,前山,,,,,,,,,,,,,,,,
2023-06-14T14:00:00,1369A,113.628,22.4251,珠海市,唐家,,34,10,18,9,11,147,108,99,90,5,6,8,6,0.4,0.4
2023-06-14T14:00:00,1370A,113.299,22.2281,珠海市,斗门,,32,13,19,8,15,152,100,84,81,6,12,7,7,0.5,0.5
2023-06-14T14:00:00,1371A,113.1294,23.0067,佛山市,湾梁,,38,31,29,19,21,212,119,99,97,24,17,3,4,0.5,0.5
2023-06-14T14:00:00,1372A,113.1083,23.0478,佛山市,华材职中,,49,29,28,33,27,210,156,94,94,20,23,5,5,0.6,0.6
2023-06-14T14:00:00,1373A,113.144,23.0453,佛山市,南海气象局,颗粒物(PM10),51,51,32,24,25,177,92,64,64,25,21,5,5,0.6,0.6
2023-06-14T14:00:00,1374A,113.2881,22.8094,佛山市,顺德苏岗,,49,24,19,27,21,188,154,83,83,14,20,5,5,0.6,0.6
2023-06-14T14:00:00,1376A,112.8383,22.8678,佛山市,高明孔堂,,45,41,35,25,20,163,141,95,95,14,14,5,5,0.8,0.8
2023-06-14T14:00:00,1377A,112.8836,23.1588,佛山市,三水监测站,细颗粒物(PM2.5),64,53,41,46,33,155,113,89,76,19,24,6,6,0.7,0.6
2023-06-14T14:00:00,1378A,112.867,23.185,佛山市,三水云东海,,49,43,43,34,32,165,105,66,66,13,21,5,5,0.7,0.7
2023-06-14T14:00:00,1379A,113.3769,22.5211,中山市,华柏园,,36,16,25,18,19,188,113,92,92,10,13,4,4,0.4,0.5
2023-06-14T14:00:00,1380A,113.3881,22.5497,中山市,张溪,,42,10,30,26,17,218,134,101,101,8,13,4,4,0.6,0.6
2023-06-14T14:00:00,1381A,113.4075,22.5111,中山市,紫马岭,,37,35,19,18,17,174,117,92,92,3,4,4,4,0.6,0.5
2023-06-14T14:00:00,1382A,113.4411,22.4853,中山市,长江旅游区,,38,25,18,13,13,181,119,91,91,6,6,9,8,0.5,0.5
2023-06-14T14:00:00,1383A,113.1064,22.6058,江门市,北街,,38,38,27,13,16,180,106,80,80,11,14,5,5,0.6,0.5
2023-06-14T14:00:00,1384A,113.0731,22.5835,江门市,西区,,35,24,27,17,18,197,111,78,78,8,13,5,4,0.6,0.6
2023-06-14T14:00:00,1385A,113.0219,22.5311,江门市,圭峰西,,33,28,26,16,17,189,104,78,78,5,8,3,3,0.6,0.6
2023-06-14T14:00:00,1386A,113.0828,22.5947,江门市,东湖,,36,21,30,25,18,197,111,81,81,8,12,4,4,0.6,0.7
2023-06-14T14:00:00,1389A,113.7547,23.0494,东莞市,莞城梨川,,45,17,42,12,27,205,142,97,97,16,22,9,9,0.6,0.8
2023-06-14T14:00:00,1390A,113.7944,23.0128,东莞市,东城石井,,47,14,38,12,26,211,149,101,101,13,21,7,7,0.7,0.8
2023-06-14T14:00:00,1391A,113.7383,22.9658,东莞市,南城西平,,44,19,40,15,25,182,138,92,92,16,29,2,3,0.8,0.8
2023-06-14T14:00:00,1392A,114.4183,23.0528,惠州市,河南岸金山湖子站,,35,25,37,15,15,151,109,67,67,7,15,2,2,0.8,0.8
2023-06-14T14:00:00,1393A,114.4053,23.0822,惠州市,下埔横江三路子站,,40,15,21,12,12,171,126,86,86,9,13,4,4,0.7,0.7
2023-06-14T14:00:00,1394A,114.4103,23.1142,惠州市,江北云山西路子站,,42,41,27,12,12,180,134,90,90,6,11,7,7,0.7,0.7
2023-06-14T14:00:00,1395A,114.4645,22.7833,惠州市,惠阳区承修路船湖子站,,33,27,24,16,15,120,104,78,73,11,17,3,3,0.8,0.8
2023-06-14T14:00:00,1396A,114.5317,22.7422,惠州市,大亚湾管委会子站,,40,30,22,14,12,127,127,113,77,14,24,3,2,0.5,0.5
2023-06-14T14:00:00,1397A,112.4267,23.0706,肇庆市,睦岗子站,,40,21,40,16,26,149,125,113,90,10,15,10,10,0.5,0.5
2023-06-14T14:00:00,1398A,112.4645,23.0475,肇庆市,城中子站,,37,24,39,18,27,149,116,106,80,18,22,9,10,0.6,0.7
2023-06-14T14:00:00,1399A,112.5544,23.1522,肇庆市,坑口子站,细颗粒物(PM2.5),53,42,38,37,31,139,102,98,96,11,16,5,6,0.5,0.5
2023-06-14T14:00:00,1400A,112.4753,23.1,肇庆市,七星岩子站,,35,30,35,19,27,143,112,119,92,10,12,6,7,0.5,0.5
2023-06-14T14:00:00,1401A,108.3103,22.7881,南宁市,二十一中,,36,24,43,25,27,136,97,68,66,18,18,5,8,0.6,0.6
2023-06-14T14:00:00,1402A,108.3141,22.8528,南宁市,北湖,,45,45,42,31,27,136,90,65,65,17,16,9,15,0.7,0.6
2023-06-14T14:00:00,1403A,108.3206,22.8225,南宁市,市监测站,,39,25,40,27,27,136,93,61,61,29,28,7,10,0.7,0.6
2023-06-14T14:00:00,1404A,108.3829,22.8037,南宁市,大自然花园,,32,32,34,22,27,119,90,67,62,13,14,6,7,0.7,0.7
2023-06-14T14:00:00,1405A,108.4394,22.7904,南宁市,仙葫,,33,21,34,16,25,124,104,75,71,11,15,6,6,0.5,0.5
2023-06-14T14:00:00,1406A,108.2397,22.8467,南宁市,区农职院,,41,41,44,25,23,144,109,77,77,19,15,10,8,0.7,0.7
2023-06-14T14:00:00,1407A,108.3275,22.735,南宁市,英华嘉园,,33,33,41,23,28,129,92,54,54,18,20,5,6,0.8,0.8
2023-06-14T14:00:00,1408A,108.2257,22.7757,南宁市,沙井镇街道办,,50,50,43,28,26,137,90,60,60,21,26,12,13,0.7,0.7
2023-06-14T14:00:00,1409A,110.576,19.9507,海口市,东寨港,,,,,,,,,,,,,,,,
2023-06-14T14:00:00,1410A,110.3232,20.0574,海口市,海南大学,,24,15,18,11,8,103,75,64,64,8,13,6,5,0.4,0.3
2023-06-14T14:00:00,1411A,110.283,20.0053,海口市,秀英海南医院,,29,13,20,12,10,123,91,71,71,9,19,5,5,0.4,0.4
2023-06-14T14:00:00,1412A,110.338,19.9969,海口市,海南师范大学,,25,13,19,8,9,95,80,65,65,6,11,6,6,0.4,0.3
2023-06-14T14:00:00,1413A,110.33,20.0356,海口市,龙华路环保局宿舍,,31,17,16,11,9,123,97,74,74,7,11,6,6,0.4,0.4
2023-06-14T14:00:00,1414A,106.3787,29.8279,重庆市,缙云山,,,48,31,25,15,168,140,166,102,,15,,11,,0.1
2023-06-14T14:00:00,1416A,106.4213,29.8253,重庆市,天生,,43,38,47,27,30,175,136,70,70,21,37,9,9,0.6,0.7
2023-06-14T14:00:00,1417A,106.6263,29.7228,重庆市,两路,,44,44,34,19,17,204,140,100,84,49,43,8,7,0.9,0.8
2023-06-14T14:00:00,1418A,106.2953,29.5983,重庆市,虎溪,,43,29,41,24,23,138,136,87,87,8,37,7,8,0.4,0.5
2023-06-14T14:00:00,1419A,106.5777,29.5102,重庆市,南坪,,49,33,42,23,27,234,155,112,112,23,33,8,7,0.6,0.7
2023-06-14T14:00:00,1420A,106.6556,29.6277,重庆市,唐家沱,颗粒物(PM10),51,51,45,30,25,228,145,75,75,30,48,6,7,0.8,0.8
2023-06-14T14:00:00,1421A,106.6349,29.4906,重庆市,茶园,颗粒物(PM10),63,76,64,29,29,232,128,63,63,49,68,8,6,0.9,0.9
2023-06-14T14:00:00,1422A,106.3754,29.4572,重庆市,白市驿,,46,32,40,14,25,193,146,111,111,9,19,12,14,0.6,0.7
2023-06-14T14:00:00,1425A,106.6205,29.7166,重庆市,空港,细颗粒物(PM2.5),52,52,43,36,26,208,147,111,95,42,32,9,8,0.7,0.6
2023-06-14T14:00:00,1426A,106.4782,29.4875,重庆市,新山村,臭氧1小时,53,38,55,19,24,192,162,105,105,24,54,11,11,0.3,0.4
2023-06-14T14:00:00,1427A,106.5616,29.6453,重庆市,礼嘉,,50,45,51,33,25,224,160,94,94,39,55,8,8,0.9,0.8
2023-06-14T14:00:00,1428A,106.4522,29.7091,重庆市,蔡家,,42,41,52,17,28,173,134,77,77,14,32,8,8,0.5,0.6
2023-06-14T14:00:00,1429A,106.5093,29.3917,重庆市,鱼新街,,50,30,41,21,28,215,160,96,96,29,43,13,16,0.8,0.9
2023-06-14T14:00:00,1431A,103.9728,30.7236,成都市,金泉两河,细颗粒物(PM2.5),72,83,50,52,25,196,141,75,75,27,19,5,4,0.5,0.3
2023-06-14T14:00:00,1432A,104.176,30.6872,成都市,十里店,,49,49,47,29,28,189,109,75,60,20,20,4,4,0.6,0.5
2023-06-14T14:00:00,1433A,104.079,30.5706,成都市,三瓦窑,,48,48,46,18,24,172,108,69,55,27,32,3,4,0.4,0.4
2023-06-14T14:00:00,1434A,104.1114,30.63,成都市,沙河铺,颗粒物(PM10),52,54,40,22,20,194,110,79,61,24,19,4,3,0.6,0.6
2023-06-14T14:00:00,1437A,104.0786,30.6531,成都市,君平街,颗粒物(PM10),59,68,40,36,27,226,109,84,84,39,22,6,5,0.6,0.4
2023-06-14T14:00:00,1438A,103.613,31.0283,成都市,灵岩寺,细颗粒物(PM2.5),62,70,33,44,21,160,157,108,108,14,11,7,16,0.9,0.8
2023-06-14T14:00:00,1439A,106.6899,26.5998,贵阳市,马鞍山,,28,19,28,9,21,125,89,74,74,5,11,4,4,0.6,0.6
2023-06-14T14:00:00,1440A,106.6971,26.5694,贵阳市,市环保站,,37,22,29,14,20,132,118,90,90,12,16,4,4,0.2,0.3
2023-06-14T14:00:00,1441A,106.6243,26.6266,贵阳市,鉴湖路,,,24,35,14,21,130,112,94,94,,11,2,3,0.4,0.4
2023-06-14T14:00:00,1442A,106.7487,26.6343,贵阳市,燕子冲,,39,29,36,27,29,130,114,88,88,4,10,5,5,0.4,0.4
2023-06-14T14:00:00,1443A,106.6555,26.4365,贵阳市,碧云窝,,34,31,39,14,21,133,108,77,77,8,16,4,4,0.4,0.3
2023-06-14T14:00:00,1444A,106.694,26.5161,贵阳市,中院村,,35,34,41,22,23,123,109,80,80,18,17,5,6,0.4,0.5
2023-06-14T14:00:00,1445A,106.7109,26.6027,贵阳市,红边门,,35,27,36,19,26,129,112,90,90,10,15,3,4,0.5,0.5
2023-06-14T14:00:00,1446A,106.7164,26.5699,贵阳市,新华路,,37,27,36,12,24,131,118,89,89,8,15,5,4,0.4,0.4
2023-06-14T14:00:00,1447A,106.674,26.5424,贵阳市,太慈桥,,38,24,36,14,17,126,120,91,91,7,16,4,4,0.4,0.4
2023-06-14T14:00:00,1450A,102.8204,24.8886,昆明市,呈贡新区,,35,23,27,21,18,117,110,95,95,8,12,5,7,0.6,0.6
2023-06-14T14:00:00,1451A,102.6251,24.9608,昆明市,西山森林公园,,38,21,18,17,12,157,121,110,102,5,9,5,7,0.5,0.5
2023-06-14T14:00:00,1452A,102.7252,25.0902,昆明市,龙泉镇,,38,25,29,26,16,139,110,97,94,14,17,8,11,0.6,0.6
2023-06-14T14:00:00,1453A,102.7266,25.0375,昆明市,东风东路,,34,32,33,21,18,123,108,96,86,17,23,4,8,0.4,0.4
2023-06-14T14:00:00,1454A,102.6742,25.0669,昆明市,金鼎山,,39,38,31,27,26,143,120,104,98,17,17,5,7,0.5,0.5
2023-06-14T14:00:00,1455A,102.6644,25.0401,昆明市,碧鸡广场,,38,35,30,20,18,136,120,102,94,12,19,4,7,0.4,0.4
2023-06-14T14:00:00,1456A,91.1319,29.6514,拉萨市,八廓街,臭氧1小时,55,12,11,7,6,164,164,146,146,4,5,5,5,0.3,0.3
2023-06-14T14:00:00,1457A,91.1221,29.6747,拉萨市,市环保局,臭氧1小时,52,9,9,4,5,161,161,137,136,10,14,6,5,0.3,0.3
2023-06-14T14:00:00,1458A,91.0874,29.6475,拉萨市,区监测站,,50,6,6,4,4,157,157,139,139,12,14,7,7,0.3,0.3
2023-06-14T14:00:00,1459A,91.1774,29.6541,拉萨市,西藏大学,,,,6,10,17,162,162,162,162,6,6,7,6,0.2,0.2
2023-06-14T14:00:00,1460A,90.9798,29.6588,拉萨市,区辐射站,,47,23,10,11,6,148,148,135,127,13,14,8,8,0.1,0.2
2023-06-14T14:00:00,1461A,91.0834,29.6292,拉萨市,拉萨火车站,,47,3,2,5,5,150,150,143,143,13,8,7,8,0.2,0.2
2023-06-14T14:00:00,1462A,108.882,34.2749,西安市,高压开关厂,臭氧1小时,111,40,57,23,20,246,222,116,116,20,59,8,8,0.4,0.5
2023-06-14T14:00:00,1463A,108.993,34.2629,西安市,兴庆小区,臭氧1小时,108,50,40,16,16,220,216,117,117,10,17,6,7,0.4,0.5
2023-06-14T14:00:00,1464A,109.06,34.2572,西安市,纺织城,臭氧1小时,116,64,47,21,19,231,231,116,116,20,40,7,6,0.4,0.4
2023-06-14T14:00:00,1465A,108.9356,34.2173,西安市,小寨,臭氧1小时,102,36,38,17,13,234,203,115,115,12,27,8,9,0.4,0.4
2023-06-14T14:00:00,1466A,108.954,34.2713,西安市,市人民体育场,臭氧1小时,106,42,45,23,15,231,212,111,111,17,31,8,8,0.3,0.3
2023-06-14T14:00:00,1467A,108.8922,34.2322,西安市,高新西区,臭氧1小时,110,36,44,19,19,250,220,123,123,14,31,7,7,0.5,0.6
2023-06-14T14:00:00,1468A,108.935,34.3474,西安市,经开区,臭氧1小时,75,64,58,22,19,189,180,87,87,20,48,4,3,0.3,0.3
2023-06-14T14:00:00,1469A,108.906,34.1546,西安市,长安区,臭氧1小时,122,56,48,20,15,244,244,132,132,21,28,6,5,0.4,0.4
2023-06-14T14:00:00,1471A,109.2186,34.3731,西安市,临潼区,臭氧1小时,108,71,51,27,22,215,215,134,134,18,30,9,7,0.4,0.5
2023-06-14T14:00:00,1472A,108.869,34.378,西安市,草滩,臭氧1小时,109,49,70,14,20,222,217,123,123,12,50,13,13,0.5,0.6
2023-06-14T14:00:00,1473A,108.985,34.1978,西安市,曲江文化产业集团,臭氧1小时,107,44,41,16,12,229,214,117,117,15,31,5,5,0.3,0.3
2023-06-14T14:00:00,1474A,109.051,34.3213,西安市,广运潭,臭氧1小时,104,68,43,26,15,211,208,108,108,14,27,9,7,0.5,0.4
2023-06-14T14:00:00,1476A,103.631,36.1031,兰州市,兰炼宾馆,臭氧1小时,74,33,58,12,32,198,179,114,114,12,44,4,15,0.4,0.6
2023-06-14T14:00:00,1477A,104.1373,35.9454,兰州市,榆中兰大校区,,,,,,,,,,,,,,,,
2023-06-14T14:00:00,1478A,103.8412,36.0726,兰州市,生物制品所,臭氧1小时,58,28,52,15,28,177,166,99,99,13,50,6,10,0.6,0.9
2023-06-14T14:00:00,1479A,103.831,36.0464,兰州市,铁路设计院,,49,30,49,10,22,169,155,91,91,16,48,4,12,0.6,1.1
2023-06-14T14:00:00,1483A,101.524,36.6867,西宁市,第五水厂,,,,,,,,,,,,,,,,
2023-06-14T14:00:00,1484A,105.9512,38.6016,银川市,贺兰山马莲口,臭氧1小时,102,25,22,15,13,204,204,175,154,10,10,15,30,0.4,0.5
2023-06-14T14:00:00,1488A,106.2328,38.4975,银川市,贺兰山东路,臭氧1小时,83,23,55,10,21,200,186,111,111,10,42,8,13,0.2,0.4
2023-06-14T14:00:00,1489A,106.1358,38.5036,银川市,学院路,臭氧1小时,72,34,57,15,18,191,177,110,110,7,35,8,17,0.3,0.6
2023-06-14T14:00:00,1490A,87.5801,43.8303,乌鲁木齐市,监测站,,46,46,66,22,28,159,133,80,80,15,37,8,7,0.5,0.6
2023-06-14T14:00:00,1491A,87.6046,43.768,乌鲁木齐市,收费所,,49,49,73,20,29,162,140,71,71,16,38,5,6,0.3,0.3
2023-06-14T14:00:00,1492A,87.4754,43.9469,乌鲁木齐市,新疆农科院农场,细颗粒物(PM2.5),107,32,64,80,58,144,126,53,53,27,54,23,14,0.5,0.7
2023-06-14T14:00:00,1493A,87.5525,43.8711,乌鲁木齐市,铁路局,,43,42,58,21,28,161,136,75,75,13,43,10,7,0.3,0.4
2023-06-14T14:00:00,1494A,87.6432,43.831,乌鲁木齐市,三十一中学,,48,48,71,28,27,169,144,89,89,11,32,13,13,0.3,0.4
2023-06-14T14:00:00,1496A,87.7216,44.1747,乌鲁木齐市,米东区环保局,,,127,79,36,43,158,138,72,72,,24,15,6,0.6,0.4
2023-06-14T14:00:00,1508A,112.9433,27.8614,湘潭市,板塘,,,,46,8,23,117,117,57,57,38,22,2,15,,0.7
2023-06-14T14:00:00,1511A,112.9118,27.8403,湘潭市,市监测站,,46,37,35,32,25,147,147,76,76,9,15,5,14,0.6,0.9
2023-06-14T14:00:00,1512A,112.8937,27.8728,湘潭市,江麓,细颗粒物(PM2.5),59,59,36,42,24,131,131,68,68,7,6,7,9,0.3,0.3
2023-06-14T14:00:00,1513A,112.9227,27.8159,湘潭市,岳塘,颗粒物(PM10),53,55,38,28,22,147,147,69,69,4,8,5,7,0.9,1
2023-06-14T14:00:00,1514A,112.9074,27.9119,湘潭市,科大,颗粒物(PM10),56,61,37,26,19,130,130,62,62,13,12,6,8,0.5,0.5
2023-06-14T14:00:00,1515A,113.135,27.8244,株洲市,天台山庄,,44,40,44,30,28,138,138,78,78,8,11,5,6,0.7,0.8
2023-06-14T14:00:00,1518A,113.095,27.8867,株洲市,株冶医院,,39,27,41,19,24,122,122,69,69,5,13,2,3,0.6,0.8
2023-06-14T14:00:00,1519A,113.167,27.8667,株洲市,市四中,,41,41,45,27,27,128,127,72,72,13,13,4,4,0.6,0.7
2023-06-14T14:00:00,1520A,113.143,27.8381,株洲市,火车站,细颗粒物(PM2.5),54,52,45,38,26,127,127,75,75,14,10,6,5,0.6,0.6
2023-06-14T14:00:00,1524A,113.13,27.8528,株洲市,市监测站,,48,43,44,33,30,132,132,76,76,9,11,3,5,0.8,0.9
2023-06-14T14:00:00,1552A,106.805,26.3003,贵阳市,桐木岭,,,,,,,,,,,,,,,,
2023-06-14T14:00:00,1559A,113.251,27.8336,株洲市,大京风景区,,39,39,29,18,18,110,100,66,66,3,3,6,5,0.5,0.5
2023-06-14T14:00:00,1562A,113.0048,27.9153,湘潭市,昭山,颗粒物(PM10),54,58,42,27,22,124,104,53,53,17,18,2,3,0.9,0.9
2023-06-14T14:00:00,1564A,112.4876,27.9164,湘潭市,韶山,,43,43,36,18,15,93,93,40,40,7,7,6,6,0.4,0.4
2023-06-14T14:00:00,1585A,109.8756,40.6532,包头市,市环境监测站,臭氧1小时,88,29,48,2,19,190,190,114,114,9,38,15,18,0.5,0.7
2023-06-14T14:00:00,1587A,109.9991,40.5842,包头市,包头八中,臭氧1小时,97,25,53,7,18,197,197,116,116,13,45,14,24,0.6,1.1
2023-06-14T14:00:00,1588A,109.8538,40.6821,包头市,青山宾馆,臭氧1小时,92,25,43,7,24,193,193,119,119,10,41,16,16,0.7,0.8
2023-06-14T14:00:00,1589A,109.8642,40.6288,包头市,惠龙物流,臭氧1小时,90,32,39,21,15,192,192,120,120,9,28,14,16,0.5,0.6
2023-06-14T14:00:00,1590A,110.0377,40.5546,包头市,东河鸿龙湾,臭氧1小时,87,26,53,2,15,189,189,118,118,7,32,14,13,0.4,0.6
2023-06-14T14:00:00,1591A,110.0023,39.8129,鄂尔多斯市,综合楼,臭氧1小时,70,36,48,7,8,176,176,137,137,11,31,10,11,0.5,0.5
2023-06-14T14:00:00,1592A,109.9486,39.8261,鄂尔多斯市,巴音孟克林场办事处,臭氧1小时,90,41,50,9,16,192,192,163,163,7,29,11,14,0.3,0.5
2023-06-14T14:00:00,1593A,109.7736,39.5986,鄂尔多斯市,康泽苑,臭氧1小时,78,34,39,5,4,182,182,127,127,8,19,10,10,0.5,0.5
2023-06-14T14:00:00,1594A,109.8119,39.5989,鄂尔多斯市,华泰汽车城,臭氧1小时,68,36,37,9,12,174,174,115,115,7,38,8,7,0.3,0.5
2023-06-14T14:00:00,1595A,109.9734,39.7884,鄂尔多斯市,奥林花园,,,,56,,16,190,190,138,138,6,45,10,10,,0.7
2023-06-14T14:00:00,1597A,122.2703,40.7094,营口市,大庆路,臭氧1小时,59,32,31,16,23,167,167,126,126,12,16,10,7,0.9,0.8
2023-06-14T14:00:00,1598A,122.2150,40.6511,营口市,镜湖西路,,47,21,28,8,17,168,150,130,130,9,14,9,9,0.5,0.5
2023-06-14T14:00:00,1599A,122.1658,40.6789,营口市,西炮台,,46,21,24,7,12,159,147,134,127,7,13,8,8,0.4,0.5
2023-06-14T14:00:00,1600A,124.3303,40.0625,丹东市,江湾东路,,38,28,31,18,19,121,119,85,85,7,16,12,8,0.6,0.7
2023-06-14T14:00:00,1601A,124.4256,40.1503,丹东市,临江后街,,40,20,22,10,13,132,128,86,86,3,13,7,6,0.6,0.5
2023-06-14T14:00:00,1602A,124.3933,40.1461,丹东市,元宝山,,38,16,29,13,18,126,121,76,76,12,17,7,6,0.5,0.5
2023-06-14T14:00:00,1603A,124.3633,40.1092,丹东市,民主桥,,37,22,26,14,15,118,116,77,77,5,23,7,6,0.5,0.6
2023-06-14T14:00:00,1604A,122.0303,41.1489,盘锦市,开发区,,50,31,35,15,33,172,160,144,144,17,27,6,9,0.6,0.6
2023-06-14T14:00:00,1605A,122.0485,41.0883,盘锦市,兴隆台,,49,18,34,19,30,192,155,140,140,13,27,6,7,0.6,0.6
2023-06-14T14:00:00,1606A,121.8297,41.1028,盘锦市,新生街道,,39,10,31,4,26,203,123,114,114,21,21,9,8,0.5,0.7
2023-06-14T14:00:00,1607A,120.9092,40.7136,葫芦岛市,龙港区,,40,7,31,10,24,168,125,115,115,4,11,8,11,0.6,0.6
2023-06-14T14:00:00,1608A,120.8392,40.7514,葫芦岛市,化工街,,46,27,52,9,32,167,145,120,120,10,41,7,10,0.6,0.8
2023-06-14T14:00:00,1609A,120.8341,40.7073,葫芦岛市,新区,,44,14,41,11,47,168,140,113,113,5,30,7,8,0.6,0.6
2023-06-14T14:00:00,1610A,120.8695,40.7677,葫芦岛市,东城区,,,,53,6,39,175,148,120,120,6,37,10,18,0.6,0.6
2023-06-14T14:00:00,1611A,118.5819,24.9117,泉州市,涂山街,,38,28,34,26,21,165,102,89,89,15,14,8,8,0.7,0.7
2023-06-14T14:00:00,1612A,118.5972,24.8978,泉州市,津头埔,,35,23,37,24,19,144,90,80,77,17,17,8,8,0.6,0.5
2023-06-14T14:00:00,1613A,118.6663,24.9424,泉州市,万安,,35,32,38,14,18,158,110,96,96,8,13,8,9,0.4,0.5
2023-06-14T14:00:00,1614A,118.6117,24.9604,泉州市,清源山,,,,,,,,,,,,,,,,
2023-06-14T14:00:00,1616A,117.6795,36.229,济南市,技术学院,臭氧1小时,108,29,48,11,23,243,215,153,153,13,35,11,11,0.8,0.6
2023-06-14T14:00:00,1618A,118.3429,35.0532,临沂市,沂河小区,臭氧1小时,68,27,44,8,25,205,174,134,134,13,21,9,9,0.2,0.3
2023-06-14T14:00:00,1619A,118.295,35.0583,临沂市,鲁南制药厂,臭氧1小时,83,19,39,13,19,209,186,146,146,6,21,5,6,0.1,0.4
2023-06-14T14:00:00,1620A,118.2794,34.9976,临沂市,新光毛纺厂,臭氧1小时,70,17,38,10,23,202,176,139,139,12,24,5,7,0.3,0.4
2023-06-14T14:00:00,1621A,118.3956,35.0888,临沂市,河东保险公司,臭氧1小时,72,17,42,10,21,180,177,129,129,9,26,9,11,0.2,0.3
2023-06-14T14:00:00,1622A,116.3032,37.4674,德州市,儿童乐园,臭氧1小时,114,56,46,19,18,228,228,170,170,12,21,8,8,0.5,0.5
2023-06-14T14:00:00,1624A,116.2991,37.4451,德州市,监理站,臭氧1小时,110,52,54,14,12,219,219,162,162,8,18,9,10,0.4,0.4
2023-06-14T14:00:00,1625A,115.9848,36.4372,聊城市,区政府,臭氧1小时,107,39,80,12,33,232,214,161,161,4,19,8,11,0.4,0.6
2023-06-14T14:00:00,1628A,118.0062,37.3803,滨州市,市环保局,臭氧1小时,109,35,26,20,17,218,218,154,154,12,18,9,10,0.4,0.6
2023-06-14T14:00:00,1629A,118.0018,37.3617,滨州市,第二水厂,臭氧1小时,112,36,31,11,15,223,223,161,161,11,21,10,9,0.4,0.6
2023-06-14T14:00:00,1630A,117.9776,37.393,滨州市,北中新校,臭氧1小时,114,34,30,17,14,228,228,161,161,10,16,10,7,0.4,0.5
2023-06-14T14:00:00,1631A,118.0414,36.8103,淄博市,人民公园,臭氧1小时,116,36,52,17,21,280,231,202,202,11,35,14,14,0.4,0.8
2023-06-14T14:00:00,1633A,117.8525,36.4847,淄博市,双山,臭氧1小时,90,25,39,9,18,215,192,132,132,8,24,8,18,0.3,0.4
2023-06-14T14:00:00,1634A,117.9592,36.6331,淄博市,气象站,臭氧1小时,118,41,46,17,19,235,235,142,142,10,22,8,11,0.1,0.2
2023-06-14T14:00:00,1635A,118.3092,36.8194,淄博市,莆田园,臭氧1小时,104,29,49,17,22,226,208,135,135,11,36,11,14,0.4,1.1
2023-06-14T14:00:00,1637A,117.558,34.8438,枣庄市,市中区政府,臭氧1小时,88,29,56,12,27,202,190,163,163,10,27,9,11,0.3,0.5
2023-06-14T14:00:00,1638A,117.2852,34.7837,枣庄市,薛城环保局,臭氧1小时,104,44,62,19,29,223,207,172,172,20,31,10,16,0.4,0.6
2023-06-14T14:00:00,1639A,117.5852,34.7745,枣庄市,峄城区政府,臭氧1小时,89,34,65,5,23,194,191,150,150,15,30,10,18,0.4,0.5
2023-06-14T14:00:00,1640A,117.7276,34.5578,枣庄市,台儿庄区环保局,臭氧1小时,90,24,52,7,29,198,192,153,153,12,26,10,12,0.3,0.5
2023-06-14T14:00:00,1641A,117.4518,35.0992,枣庄市,山亭区环保局,臭氧1小时,80,19,34,12,21,185,184,144,144,12,20,9,9,0.2,0.3
2023-06-14T14:00:00,1642A,121.2514,37.5639,烟台市,开发区,,44,14,18,7,19,145,139,119,119,20,20,4,4,0.5,0.6
2023-06-14T14:00:00,1643A,121.3719,37.5433,烟台市,轴承厂,,48,17,29,4,16,151,151,131,131,9,14,2,2,0.4,0.4
2023-06-14T14:00:00,1644A,121.3181,37.5436,烟台市,西郊化工站,,48,29,34,4,18,152,152,122,122,17,20,3,4,0.4,0.5
2023-06-14T14:00:00,1645A,121.4478,37.4822,烟台市,莱山环保局,,48,17,24,9,18,152,152,118,118,8,16,5,5,0.4,0.4
2023-06-14T14:00:00,1646A,121.2611,37.4967,烟台市,福山环保局,,47,24,41,2,22,148,148,114,114,14,23,7,6,0.3,0.1
2023-06-14T14:00:00,1650A,119.1437,36.7023,潍坊市,环保局,臭氧1小时,84,34,28,17,14,187,187,141,141,11,12,10,7,0.3,0.3
2023-06-14T14:00:00,1653A,116.6251,35.4302,济宁市,火炬城,臭氧1小时,72,19,55,7,24,193,177,147,147,4,25,12,16,0.5,0.8
2023-06-14T14:00:00,1655A,116.5491,35.4042,济宁市,电化厂,臭氧1小时,95,29,59,7,24,196,196,150,150,4,19,8,10,0.4,0.6
2023-06-14T14:00:00,1656A,117.1437,36.1937,泰安市,监测站,臭氧1小时,104,29,52,,25,235,207,146,146,5,15,8,8,0.2,0.4
2023-06-14T14:00:00,1657A,117.0885,36.2017,泰安市,人口学校,臭氧1小时,94,29,47,8,19,205,195,150,150,9,16,8,9,0.3,0.4
2023-06-14T14:00:00,1658A,117.1089,36.1758,泰安市,电力学校,臭氧1小时,90,31,59,18,27,193,192,141,141,6,34,9,10,0.1,0.2
2023-06-14T14:00:00,1659A,119.471,35.4209,日照市,监测站,,,,39,,24,173,167,136,136,14,49,6,6,0.5,0.6
2023-06-14T14:00:00,1660A,119.523,35.4216,日照市,市政府广场,,40,27,46,20,27,156,126,122,122,2,40,5,6,0.3,0.5
2023-06-14T14:00:00,1661A,119.5587,35.4044,日照市,港务局,,37,22,48,16,19,158,117,154,143,2,40,6,7,0.4,0.6
2023-06-14T14:00:00,1662A,122.1214,37.4236,威海市,华夏技校,,47,17,26,17,20,148,148,120,120,10,20,4,5,0.3,0.3
2023-06-14T14:00:00,1663A,122.0508,37.5236,威海市,山大分校,,47,12,28,12,18,150,150,127,127,9,14,8,8,0.2,0.2
2023-06-14T14:00:00,1664A,122.1067,37.5072,威海市,市监测站,,46,22,26,17,23,149,145,129,129,12,15,12,11,0.4,0.5
2023-06-14T14:00:00,1666A,118.6614,37.4309,东营市,市环保局,臭氧1小时,72,17,14,9,8,177,177,148,148,4,7,8,5,0.2,0.2
2023-06-14T14:00:00,1669A,113.5824,24.7733,韶关市,市八中,,25,24,38,15,30,162,80,82,76,4,7,6,7,0.7,0.6
2023-06-14T14:00:00,1671A,113.5917,24.7972,韶关市,园林处,,25,20,37,12,28,154,79,85,76,1,4,4,6,0.6,0.6
2023-06-14T14:00:00,1672A,113.6735,24.7791,韶关市,韶关学院,,29,23,44,7,34,173,92,77,74,8,12,6,10,0.6,0.7
2023-06-14T14:00:00,1673A,113.5971,24.6863,韶关市,曲江监测站,,28,15,44,12,31,175,88,87,74,4,10,9,11,0.6,0.7
2023-06-14T14:00:00,1674A,116.6794,23.3667,汕头市,金平子站,颗粒物(PM10),51,52,32,22,22,146,146,84,84,7,11,6,8,0.8,0.9
2023-06-14T14:00:00,1675A,116.7244,23.3633,汕头市,龙湖子站,,,60,35,29,19,140,127,83,83,21,18,,7,0.7,0.8
2023-06-14T14:00:00,1676A,116.7258,23.2775,汕头市,濠江子站,,44,40,32,24,22,139,139,82,82,14,15,10,9,1.0,0.9
2023-06-14T14:00:00,1677A,116.7519,23.4714,汕头市,澄海子站,颗粒物(PM10),58,65,38,36,22,138,124,88,88,22,18,7,13,0.8,0.7
2023-06-14T14:00:00,1678A,116.6092,23.2539,汕头市,潮阳子站,,39,39,35,23,14,126,121,83,83,20,12,12,9,1.2,0.8
2023-06-14T14:00:00,1680A,110.3539,21.2706,湛江市,湛江影剧院,,27,23,21,7,12,85,85,69,69,4,13,5,8,0.7,0.7
2023-06-14T14:00:00,1681A,110.3928,21.2228,湛江市,市环境监测站,,26,17,20,10,14,83,83,71,71,7,14,6,8,0.5,0.5
2023-06-14T14:00:00,1682A,110.4019,21.1997,湛江市,环保局宿舍,,26,25,18,10,13,85,82,72,72,6,16,5,7,0.5,0.5
2023-06-14T14:00:00,1683A,110.4111,21.2028,湛江市,霞山游泳场,,27,11,16,12,12,89,86,77,77,8,13,6,8,0.7,0.7
2023-06-14T14:00:00,1684A,110.3316,21.2679,湛江市,麻章区环保局,,27,16,21,9,13,85,85,73,68,6,14,4,6,0.6,0.6
2023-06-14T14:00:00,1685A,110.4558,21.2567,湛江市,坡头区环保局,,29,20,15,9,12,95,91,78,78,7,12,7,7,0.5,0.5
2023-06-14T14:00:00,1686A,111.0286,21.4688,茂名市,电白南海,,28,24,23,19,17,102,64,57,57,13,8,7,6,0.7,0.6
2023-06-14T14:00:00,1687A,110.9294,21.6533,茂名市,茂石化七小,,29,17,17,10,12,94,91,79,79,5,10,8,7,0.6,0.6
2023-06-14T14:00:00,1688A,110.9107,21.6687,茂名市,健康路,,30,14,11,3,6,93,93,77,77,3,8,8,6,0.5,0.6
2023-06-14T14:00:00,1689A,110.8592,21.6828,茂名市,高岭,,28,22,25,19,15,89,89,67,67,4,16,14,11,0.5,0.5
2023-06-14T14:00:00,1690A,116.1231,24.3284,梅州市,梅江月梅,,,36,28,18,17,108,79,67,67,,9,,3,0.5,0.5
2023-06-14T14:00:00,1691A,116.0797,24.2719,梅州市,梅县新城,,33,33,28,20,20,129,89,75,69,10,11,4,4,0.6,0.6
2023-06-14T14:00:00,1692A,116.1248,24.2654,梅州市,环境监控中心,,38,38,29,19,19,137,96,63,63,9,16,2,2,0.6,0.7
2023-06-14T14:00:00,1693A,115.3653,22.775,汕尾市,市环保局,,40,33,17,14,10,127,127,96,96,9,7,7,6,0.7,0.6
2023-06-14T14:00:00,1694A,115.3706,22.7898,汕尾市,市政府,,43,19,16,20,10,135,135,92,92,11,8,4,4,0.5,0.4
2023-06-14T14:00:00,1695A,115.3622,22.7925,汕尾市,新城中学,,45,26,17,12,10,141,141,100,100,7,5,5,5,0.7,0.7
2023-06-14T14:00:00,1696A,114.6778,23.7569,河源市,源西,,29,20,23,9,20,132,90,64,51,8,18,4,4,0.7,0.7
2023-06-14T14:00:00,1697A,114.6944,23.7586,河源市,东埔,,32,32,25,13,20,119,98,81,58,8,15,4,4,0.7,0.7
2023-06-14T14:00:00,1698A,114.6892,23.7233,河源市,老城,,31,20,38,18,19,111,97,62,54,10,15,4,4,0.8,0.7
2023-06-14T14:00:00,1699A,111.9797,21.8593,阳江市,鸳鸯湖,,30,27,27,12,13,159,94,82,61,5,7,8,8,0.7,0.8
2023-06-14T14:00:00,1701A,111.9491,21.8658,阳江市,马南垌,,30,24,28,10,15,162,94,78,61,6,9,4,5,0.5,0.7
2023-06-14T14:00:00,1702A,113.0426,23.691,清远市,环保大楼,,19,12,37,13,29,125,57,91,58,6,11,5,7,0.6,0.6
2023-06-14T14:00:00,1703A,113.0208,23.7106,清远市,凤城街办,,17,4,38,11,27,111,52,89,54,6,9,4,5,0.7,0.6
2023-06-14T14:00:00,1705A,116.6367,23.6719,潮州市,西园路,颗粒物(PM10),52,53,31,26,16,147,101,62,54,14,6,5,4,0.6,0.5
2023-06-14T14:00:00,1706A,116.6447,23.6706,潮州市,档案局,颗粒物(PM10),56,62,25,23,12,159,112,80,69,12,6,7,4,0.6,0.5
2023-06-14T14:00:00,1708A,116.3701,23.5345,揭阳市,新兴,颗粒物(PM10),63,75,42,35,23,154,122,83,77,18,12,9,8,0.8,0.7
2023-06-14T14:00:00,1709A,116.3264,23.5443,揭阳市,西马,细颗粒物(PM2.5),59,51,41,42,25,158,142,82,80,12,11,6,7,0.9,0.8
2023-06-14T14:00:00,1710A,116.3611,23.5626,揭阳市,东兴,颗粒物(PM10),64,78,48,27,21,161,117,68,58,24,19,5,4,1.0,0.9
2023-06-14T14:00:00,1711A,116.4151,23.5294,揭阳市,渔湖,颗粒物(PM10),57,64,48,24,26,153,111,81,70,16,15,7,7,0.9,0.9
2023-06-14T14:00:00,1712A,112.0392,22.9169,云浮市,新市府,颗粒物(PM10),53,56,34,31,25,142,109,83,69,14,11,66,14,0.7,0.7
2023-06-14T14:00:00,1714A,112.0539,22.9539,云浮市,牧羊,颗粒物(PM10),52,53,42,32,30,137,112,62,49,23,29,75,26,0.6,0.6
2023-06-14T14:00:00,1715A,102.575,24.3711,玉溪市,东风水库,,38,38,23,25,13,123,102,95,94,6,9,9,8,0.5,0.8
2023-06-14T14:00:00,1718A,115.4208,35.2464,菏泽市,气象局,臭氧1小时,114,49,74,18,31,228,228,155,155,6,29,5,5,0.4,0.5
2023-06-14T14:00:00,1719A,115.4747,35.2375,菏泽市,市政协,臭氧1小时,116,57,73,25,36,231,231,158,158,7,25,6,6,0.2,0.3
2023-06-14T14:00:00,1721A,113.3819,40.1097,大同市,果树场,,49,20,51,10,21,154,154,89,89,5,21,11,17,0.3,0.4
2023-06-14T14:00:00,1723A,113.2994,40.0758,大同市,云冈宾馆,臭氧1小时,58,24,47,7,12,166,166,106,106,10,32,8,16,0.3,0.7
2023-06-14T14:00:00,1724A,113.3444,40.0917,大同市,大同大学,臭氧1小时,54,24,43,9,14,163,163,104,104,6,22,10,22,0.4,0.6
2023-06-14T14:00:00,1725A,113.2661,40.1269,大同市,安家小村,,50,20,47,9,13,159,159,102,102,7,18,12,13,0.3,0.7
2023-06-14T14:00:00,1726A,113.2711,40.0844,大同市,教育学院,,50,22,42,11,15,159,159,96,96,10,31,11,18,0.4,0.6
2023-06-14T14:00:00,1727A,113.1147,36.1547,长治市,清华站,臭氧1小时,70,30,41,9,18,190,176,131,131,6,22,7,8,0.5,0.8
2023-06-14T14:00:00,1728A,113.1031,36.1989,长治市,监测站,臭氧1小时,63,27,41,5,19,202,170,134,134,8,23,9,11,0.5,0.8
2023-06-14T14:00:00,1730A,113.0886,36.2125,长治市,审计局,臭氧1小时,58,22,39,7,21,194,166,119,119,4,23,10,13,0.4,0.7
2023-06-14T14:00:00,1731A,113.0844,36.1856,长治市,长治八中,臭氧1小时,60,24,47,14,20,196,168,129,129,3,22,7,10,0.3,0.6
2023-06-14T14:00:00,1733A,111.5531,36.0783,临汾市,临钢医院,臭氧1小时,93,46,71,23,28,210,194,133,133,7,30,4,3,1.0,0.9
2023-06-14T14:00:00,1734A,111.5028,36.0714,临汾市,技工学校,臭氧1小时,101,52,66,12,21,236,202,144,144,9,25,6,6,0.8,0.7
2023-06-14T14:00:00,1736A,111.5018,36.0855,临汾市,市委,臭氧1小时,110,53,63,21,23,238,219,145,145,9,29,7,6,0.8,0.7
2023-06-14T14:00:00,1738A,113.5758,37.8572,阳泉市,市中心,,,,52,,20,193,193,121,121,11,44,12,15,0.6,0.8
2023-06-14T14:00:00,1739A,113.4894,37.8731,阳泉市,赛鱼,臭氧1小时,83,27,43,10,16,186,186,134,134,10,39,13,12,0.6,0.7
2023-06-14T14:00:00,1740A,113.5819,37.8486,阳泉市,南庄,臭氧1小时,99,23,55,11,24,199,199,124,124,12,34,13,18,0.5,0.7
2023-06-14T14:00:00,1742A,113.5614,37.8703,阳泉市,平坦,臭氧1小时,78,27,56,9,18,182,182,132,132,8,45,11,13,0.5,0.6
2023-06-14T14:00:00,1743A,113.5158,37.8392,阳泉市,大阳泉,臭氧1小时,74,20,26,11,19,191,179,141,141,9,20,10,11,0.5,0.6
2023-06-14T14:00:00,1744A,118.9233,42.2816,赤峰市,松山一中,,42,9,27,15,10,133,133,93,93,22,35,13,15,0.3,0.5
2023-06-14T14:00:00,1745A,118.9576,42.2728,赤峰市,哈达街,,45,20,24,11,10,143,143,102,102,15,27,17,18,0.5,0.6
2023-06-14T14:00:00,1746A,118.8788,42.2554,赤峰市,天义路,,50,6,19,9,11,157,157,111,111,12,28,15,17,0.3,0.3
2023-06-14T14:00:00,1748A,123.044,41.1196,鞍山市,深沟寺,臭氧1小时,104,61,59,39,42,207,207,132,132,21,21,18,15,1.2,1.1
2023-06-14T14:00:00,1749A,123.011,41.0931,鞍山市,太阳城,臭氧1小时,107,43,58,30,39,213,213,153,153,12,21,11,11,0.9,1.3
2023-06-14T14:00:00,1750A,123.0485,41.1442,鞍山市,太平,臭氧1小时,99,80,69,51,43,199,199,121,121,30,31,23,16,1.6,1.3
2023-06-14T14:00:00,1751A,122.9642,41.0971,鞍山市,铁西三道街,臭氧1小时,104,68,81,42,48,207,207,153,153,14,34,7,11,0.9,1.3
2023-06-14T14:00:00,1752A,122.9341,41.0833,鞍山市,铁西工业园区,臭氧1小时,88,60,78,41,45,190,190,144,144,12,31,10,12,1.0,1.3
2023-06-14T14:00:00,1753A,123.022,41.0821,鞍山市,明达新区,臭氧1小时,104,49,55,29,36,208,208,150,150,12,23,10,11,0.7,1
2023-06-14T14:00:00,1754A,123.1289,41.0228,鞍山市,千山,,,,,,,,,,,,,,,,
2023-06-14T14:00:00,1755A,123.7977,41.8491,抚顺市,望花区,臭氧1小时,97,51,59,31,32,197,197,126,126,15,35,13,10,0.5,0.7
2023-06-14T14:00:00,1756A,123.9161,41.8822,抚顺市,顺城区,臭氧1小时,101,70,38,34,23,209,201,118,118,14,30,13,9,0.9,0.7
2023-06-14T14:00:00,1757A,124.0436,41.8611,抚顺市,东洲区,臭氧1小时,108,50,27,47,18,215,215,134,134,14,16,10,6,0.6,0.5
2023-06-14T14:00:00,1758A,123.9247,41.8642,抚顺市,新抚区,臭氧1小时,94,47,35,24,24,198,195,118,118,10,28,12,10,0.6,0.6
2023-06-14T14:00:00,1759A,124.0972,41.8961,抚顺市,大伙房水库,臭氧1小时,74,43,19,18,17,179,179,109,109,7,15,6,5,0.5,0.5
2023-06-14T14:00:00,1760A,123.7086,41.8391,抚顺市,沈抚新城,,,25,58,32,39,174,,105,105,,39,11,16,0.6,1.2
2023-06-14T14:00:00,1761A,123.8275,41.3064,本溪市,大峪,臭氧1小时,57,12,34,8,16,165,165,110,110,10,20,6,6,0.3,0.7
2023-06-14T14:00:00,1762A,123.7567,41.3325,本溪市,溪湖,臭氧1小时,90,47,35,32,23,192,192,112,112,19,21,9,12,0.9,1
2023-06-14T14:00:00,1763A,123.7169,41.3094,本溪市,彩屯,臭氧1小时,94,80,52,53,34,195,195,105,105,21,34,18,16,1.2,1.7
2023-06-14T14:00:00,1764A,123.7669,41.2864,本溪市,东明,臭氧1小时,84,31,38,24,21,187,187,118,118,13,30,12,11,0.8,0.8
2023-06-14T14:00:00,1765A,123.7992,41.2664,本溪市,新立屯,臭氧1小时,52,11,36,17,22,161,161,105,105,13,30,10,9,0.8,0.8
2023-06-14T14:00:00,1766A,123.8142,41.3472,本溪市,威宁,,46,12,38,6,21,149,147,94,94,9,20,7,6,0.4,0.7
2023-06-14T14:00:00,1767A,121.1115,41.0879,锦州市,南山,臭氧1小时,55,16,44,18,61,165,164,120,120,7,26,8,21,0.6,0.7
2023-06-14T14:00:00,1768A,121.0533,40.8434,锦州市,开发区,,49,20,57,9,47,168,154,125,125,10,45,10,13,0.7,0.6
2023-06-14T14:00:00,1769A,121.1836,41.1119,锦州市,百股街道,臭氧1小时,62,16,36,17,36,169,169,125,125,7,21,8,16,0.6,0.6
2023-06-14T14:00:00,1770A,121.1178,41.1222,锦州市,天安街道,,50,8,54,12,46,160,159,118,118,13,33,8,23,0.8,0.8
2023-06-14T14:00:00,1771A,121.1303,41.1386,锦州市,北湖公园,,,27,60,24,53,170,170,122,122,,22,7,19,0.7,0.8
2023-06-14T14:00:00,1772A,126.54,43.8622,吉林市,哈达湾,臭氧1小时,70,11,39,10,26,176,176,130,130,6,31,5,4,0.5,0.6
2023-06-14T14:00:00,1773A,126.5844,43.8358,吉林市,东局子,臭氧1小时,62,12,35,9,23,169,169,125,125,7,22,6,7,0.6,0.7
2023-06-14T14:00:00,1774A,126.5052,43.8245,吉林市,电力学院,臭氧1小时,65,18,43,9,29,172,172,121,121,13,38,7,7,0.5,0.6
2023-06-14T14:00:00,1775A,126.6133,43.8972,吉林市,江北,臭氧1小时,63,17,44,9,24,179,170,135,135,7,27,7,8,0.6,0.7
2023-06-14T14:00:00,1776A,126.555,43.8306,吉林市,江南公园,臭氧1小时,63,14,34,11,26,170,170,121,121,9,25,4,5,0.5,0.6
2023-06-14T14:00:00,1778A,126.7061,43.7133,吉林市,丰满,,,,,,,,,,,,,,,,
2023-06-14T14:00:00,1779A,123.9305,47.3636,齐齐哈尔市,安居小区,,41,41,31,9,14,143,99,112,110,8,14,4,4,0.4,0.5
2023-06-14T14:00:00,1780A,123.9488,47.3386,齐齐哈尔市,中心广场,,34,31,27,3,4,143,106,113,112,10,13,8,7,0.4,0.4
2023-06-14T14:00:00,1781A,123.9483,47.3227,齐齐哈尔市,农牧车辆厂,,46,46,39,10,10,143,113,114,114,12,14,7,7,0.2,0.3
2023-06-14T14:00:00,1783A,123.945,47.2988,齐齐哈尔市,市环境监测站,颗粒物(PM10),64,78,26,33,18,153,126,125,125,6,10,7,7,0.4,0.5
2023-06-14T14:00:00,1784A,129.61,44.561,牡丹江市,环保大楼,,44,10,16,6,11,138,138,90,90,9,20,4,5,0.3,0.4
2023-06-14T14:00:00,1785A,129.6115,44.5782,牡丹江市,文化广场,,40,17,22,11,19,127,127,86,86,15,27,4,5,0.4,0.5
2023-06-14T14:00:00,1786A,129.5904,44.5963,牡丹江市,第一医院,,41,27,22,11,15,132,130,85,85,8,17,3,3,0.3,0.4
2023-06-14T14:00:00,1787A,129.6364,44.6075,牡丹江市,机车工厂,,41,21,19,6,9,136,129,85,85,5,14,1,2,0.4,0.5
2023-06-14T14:00:00,1788A,129.6386,44.5462,牡丹江市,第一中学,,41,9,9,7,7,131,129,114,114,5,9,3,2,0.2,0.2
2023-06-14T14:00:00,1789A,124.81117,46.03138,大庆市,大同区,,47,29,30,5,13,150,150,138,138,9,12,5,6,0.3,0.3
2023-06-14T14:00:00,1790A,125.129,46.533,大庆市,龙凤区,,44,29,33,7,13,141,138,127,127,7,12,4,6,0.0,0.1
2023-06-14T14:00:00,1791A,124.902,46.408,大庆市,红岗区,,43,28,26,8,16,145,137,132,132,8,12,2,3,0.3,0.3
2023-06-14T14:00:00,1792A,125.153,46.586,大庆市,萨尔图区,,41,36,28,9,16,139,130,126,126,10,14,6,7,0.3,0.3
2023-06-14T14:00:00,1793A,124.9042,46.6215,大庆市,让胡路区,,45,25,25,4,12,143,143,130,130,7,14,5,5,0.3,0.3
2023-06-14T14:00:00,1794A,118.3606,31.3519,芜湖市,监测站,臭氧1小时,106,43,49,20,31,211,211,142,142,19,47,12,12,0.4,0.7
2023-06-14T14:00:00,1795A,118.3714,31.4134,芜湖市,科创中心,臭氧1小时,107,47,58,24,32,214,214,146,146,13,49,10,9,0.6,0.9
2023-06-14T14:00:00,1796A,118.3673,31.3131,芜湖市,四水厂,臭氧1小时,106,64,56,26,31,211,211,137,137,23,48,12,13,0.6,1.1
2023-06-14T14:00:00,1798A,118.5092,31.6837,马鞍山市,湖东路四小,臭氧1小时,103,32,51,10,38,215,206,157,157,12,29,9,11,0.6,0.9
2023-06-14T14:00:00,1799A,118.5024,31.6449,马鞍山市,开发区,臭氧1小时,105,49,61,14,32,214,210,149,149,10,37,7,7,0.4,0.6
2023-06-14T14:00:00,1800A,118.5228,31.7231,马鞍山市,慈湖,臭氧1小时,104,54,58,19,33,215,207,154,154,15,33,13,13,1.0,1.2
2023-06-14T14:00:00,1802A,118.6245,31.7241,马鞍山市,濮塘,臭氧1小时,107,44,50,21,34,213,213,156,156,6,22,8,8,0.5,0.9
2023-06-14T14:00:00,1803A,115.9872,29.6815,九江市,十里,臭氧1小时,97,44,39,27,26,197,197,139,139,8,24,9,9,0.5,0.6
2023-06-14T14:00:00,1804A,115.9584,29.7046,九江市,茅山头,臭氧1小时,101,45,39,18,26,201,201,144,144,12,23,,10,0.6,0.6
2023-06-14T14:00:00,1805A,115.9877,29.7295,九江市,西园,臭氧1小时,84,44,47,27,28,189,187,132,132,9,32,9,13,0.7,0.6
2023-06-14T14:00:00,1806A,116.0172,29.6547,九江市,五七二七厂,,,33,35,17,21,190,190,153,153,,11,,9,0.5,0.6
2023-06-14T14:00:00,1808A,115.9114,29.6038,九江市,综合工业园,臭氧1小时,89,43,35,22,23,191,191,134,134,33,32,11,10,0.7,0.7
2023-06-14T14:00:00,1809A,116.0721,29.7535,九江市,石化总厂,臭氧1小时,69,44,51,20,28,175,175,126,126,12,44,8,11,0.6,0.7
2023-06-14T14:00:00,1810A,115.9773,29.5698,九江市,庐山气象台,臭氧1小时,93,38,26,26,23,194,194,166,159,10,6,7,7,0.6,0.8
2023-06-14T14:00:00,1812A,112.3931,34.6516,洛阳市,市委党校,臭氧1小时,63,24,35,16,24,190,170,120,120,2,22,2,2,0.3,0.4
2023-06-14T14:00:00,1814A,112.4657,34.6871,洛阳市,豫西宾馆,臭氧1小时,75,33,61,14,26,189,180,121,121,4,40,3,5,0.2,0.8
2023-06-14T14:00:00,1815A,112.494,34.6886,洛阳市,河南林校,臭氧1小时,68,27,38,13,20,180,174,114,114,6,28,6,6,0.4,0.5
2023-06-14T14:00:00,1816A,112.3844,34.623,洛阳市,开发区管委会,臭氧1小时,73,24,30,15,17,188,178,120,120,4,16,3,4,0.2,0.3
2023-06-14T14:00:00,1817A,112.4267,34.6258,洛阳市,市委新办公区,臭氧1小时,75,26,34,14,21,193,180,126,126,5,20,3,3,0.4,0.6
2023-06-14T14:00:00,1818A,114.4839,36.0621,安阳市,棉研所,臭氧1小时,113,57,52,21,19,231,226,158,158,8,32,12,14,0.3,0.4
2023-06-14T14:00:00,1819A,114.3551,36.1017,安阳市,红庙街,臭氧1小时,122,53,62,27,21,243,243,179,179,7,18,12,9,0.6,0.5
2023-06-14T14:00:00,1820A,114.361,36.0681,安阳市,银杏小区,臭氧1小时,117,44,54,17,19,234,234,166,166,3,20,9,6,0.5,0.5
2023-06-14T14:00:00,1824A,114.3389,34.7781,开封市,肿瘤医院,臭氧1小时,125,,85,21,29,255,249,171,171,11,28,8,9,0.3,0.5
2023-06-14T14:00:00,1826A,114.2885,34.7965,开封市,世纪星幼儿园,臭氧1小时,114,53,59,22,24,251,228,161,161,11,28,5,5,0.5,0.6
2023-06-14T14:00:00,1828A,113.227,35.2125,焦作市,市环保局,臭氧1小时,122,51,63,27,24,243,243,163,163,14,31,12,12,,0.7
2023-06-14T14:00:00,1830A,113.1992,35.2590,焦作市,影视城,臭氧1小时,120,30,26,10,20,242,239,187,173,11,8,14,10,0.9,0.7
2023-06-14T14:00:00,1832A,113.3257,33.742,平顶山市,新华旅馆,臭氧1小时,102,28,65,19,30,226,204,149,149,6,27,5,7,0.4,0.5
2023-06-14T14:00:00,1833A,113.2919,33.737,平顶山市,规划设计院,臭氧1小时,90,27,61,10,29,230,192,147,147,3,28,9,11,0.2,0.4
2023-06-14T14:00:00,1834A,113.182,33.774,平顶山市,平顶山工学院,臭氧1小时,68,33,51,7,22,228,174,139,139,7,17,5,11,0.3,0.4
2023-06-14T14:00:00,1835A,111.1922,34.7752,三门峡市,市政府,臭氧1小时,68,23,39,15,19,181,174,130,130,7,22,5,7,0.4,0.5
2023-06-14T14:00:00,1836A,111.1587,34.7942,三门峡市,开发区,臭氧1小时,58,14,50,16,24,177,166,120,120,5,19,5,8,0.4,0.6
2023-06-14T14:00:00,1838A,111.143,34.7955,三门峡市,风景区,,,109,48,47,28,186,178,117,117,,23,8,9,0.3,0.5
2023-06-14T14:00:00,1840A,111.2992,30.6981,宜昌市,白龙岗,臭氧1小时,94,36,35,19,21,195,195,110,110,22,26,5,6,0.4,0.4
2023-06-14T14:00:00,1841A,111.3549,30.6465,宜昌市,伍家岗,臭氧1小时,90,36,36,17,24,192,192,113,113,20,31,7,7,0.5,0.6
2023-06-14T14:00:00,1842A,111.2628,30.6961,宜昌市,点军区,臭氧1小时,85,42,38,14,18,191,188,104,104,28,25,8,7,0.5,0.5
2023-06-14T14:00:00,1843A,111.3275,30.7819,宜昌市,夷陵区,臭氧1小时,79,20,33,12,17,183,183,112,112,38,24,7,6,0.5,0.4
2023-06-14T14:00:00,1844A,112.2494,30.3197,荆州市,市图书馆,臭氧1小时,104,48,48,17,29,207,207,124,118,8,17,9,7,0.6,0.7
2023-06-14T14:00:00,1845A,112.2008,30.3544,荆州市,市委党校,臭氧1小时,100,50,55,24,30,200,200,122,122,6,16,7,9,0.6,0.7
2023-06-14T14:00:00,1847A,113.1094,29.3578,岳阳市,南湖风景区,臭氧1小时,104,39,32,24,24,208,208,126,126,10,16,9,8,0.7,0.7
2023-06-14T14:00:00,1848A,113.1493,29.4251,岳阳市,城陵矶,,,42,36,24,23,178,178,118,118,,37,9,8,0.6,0.7
2023-06-14T14:00:00,1849A,113.1497,29.3575,岳阳市,开发区,臭氧1小时,102,38,35,23,20,203,203,124,124,7,18,7,9,0.6,0.6
2023-06-14T14:00:00,1850A,113.2621,29.4758,岳阳市,云溪区,,,,28,18,19,174,174,132,132,6,13,6,6,0.6,0.6
2023-06-14T14:00:00,1851A,112.9943,29.4402,岳阳市,君山区,臭氧1小时,84,32,28,17,22,187,187,127,127,10,15,6,6,0.5,0.5
2023-06-14T14:00:00,1852A,113.2117,29.355,岳阳市,金凤水库,臭氧1小时,78,36,27,26,20,191,182,122,122,4,10,3,3,0.8,0.7
2023-06-14T14:00:00,1854A,111.6975,28.9703,常德市,市二中,臭氧1小时,79,52,41,29,30,183,183,101,101,6,14,7,7,0.5,0.5
2023-06-14T14:00:00,1857A,111.7158,29.1456,常德市,白鹤山,臭氧1小时,59,60,38,36,28,167,167,138,122,4,5,6,4,0.5,0.4
2023-06-14T14:00:00,1858A,110.5319,29.1217,张家界市,永定新区,臭氧1小时,55,42,27,24,18,164,164,74,74,12,16,4,4,0.2,0.2
2023-06-14T14:00:00,1859A,110.4697,29.1242,张家界市,电业局,臭氧1小时,62,41,28,26,20,169,169,79,73,8,14,5,4,0.2,0.2
2023-06-14T14:00:00,1860A,110.5594,29.3547,张家界市,未央路,,46,29,23,18,14,149,147,82,82,5,10,3,3,0.2,0.2
2023-06-14T14:00:00,1861A,110.4417,29.315,张家界市,袁家界,,49,40,20,24,14,155,155,112,112,5,6,7,8,0.6,0.6
2023-06-14T14:00:00,1862A,110.4144,25.3167,桂林市,电子科大尧山校区,,38,26,17,18,14,121,121,99,99,4,5,5,4,0.7,0.6
2023-06-14T14:00:00,1863A,110.2819,25.2697,桂林市,监测站,,38,29,22,25,15,119,119,86,86,6,9,8,5,0.6,0.6
2023-06-14T14:00:00,1864A,110.3089,25.2708,桂林市,龙隐路小学,,37,22,19,17,15,118,118,87,87,4,7,7,14,0.6,0.6
2023-06-14T14:00:00,1865A,110.2869,25.2178,桂林市,八中,,36,26,20,13,10,114,114,84,84,7,8,5,9,0.5,0.5
2023-06-14T14:00:00,1866A,109.2262,21.588,北海市,牛尾岭水库,,,,12,,3,69,,57,57,,5,,3,,0.5
2023-06-14T14:00:00,1867A,109.1436,21.4086,北海市,海滩公园,,36,36,19,15,5,115,115,81,81,7,5,3,2,0.8,0.5
2023-06-14T14:00:00,1868A,109.0981,21.4661,北海市,新市环保局,,40,40,17,19,7,115,115,82,82,6,6,1,2,0.7,0.6
2023-06-14T14:00:00,1869A,109.1778,21.5233,北海市,北海工业园,,46,46,21,32,11,112,112,70,70,5,7,5,4,0.6,0.5
2023-06-14T14:00:00,1870A,109.4856,24.3895,柳州市,柳东小学,,37,14,18,6,16,116,116,71,71,5,8,7,9,0.6,0.6
2023-06-14T14:00:00,1871A,109.4157,24.3277,柳州市,环保监测站,,33,15,21,12,11,103,103,64,64,5,13,5,8,0.6,0.7
2023-06-14T14:00:00,1872A,109.389,24.341,柳州市,河西水厂,,31,18,24,7,14,99,99,61,61,6,17,7,14,0.4,0.6
2023-06-14T14:00:00,1873A,109.4311,24.2921,柳州市,市四中,,34,23,18,8,11,107,107,70,70,4,9,7,10,0.7,0.7
2023-06-14T14:00:00,1874A,109.4006,24.3631,柳州市,市九中,,34,14,22,10,12,107,107,66,66,4,13,10,12,0.6,0.6
2023-06-14T14:00:00,1875A,109.4958,24.3134,柳州市,古亭山,,34,17,19,14,10,107,107,68,68,4,5,4,4,0.5,0.5
2023-06-14T14:00:00,1876A,109.5078,18.2489,三亚市,河东子站,,24,20,24,10,11,83,74,71,57,5,8,1,1,0.5,0.4
2023-06-14T14:00:00,1877A,109.4964,18.2681,三亚市,河西子站,,22,22,25,10,12,89,69,70,58,8,8,1,2,0.4,0.4
2023-06-14T14:00:00,1878A,104.7778,31.4741,绵阳市,富乐山,,,40,44,30,26,181,164,122,122,10,14,,5,0.4,0.4
2023-06-14T14:00:00,1879A,104.7563,31.4535,绵阳市,市人大,,50,36,43,35,26,165,151,113,109,13,16,12,10,0.5,0.5
2023-06-14T14:00:00,1880A,104.6697,31.4668,绵阳市,高新区自来水公司,臭氧1小时,70,65,55,41,31,181,176,111,111,11,22,10,8,0.5,0.5
2023-06-14T14:00:00,1881A,104.7287,31.5075,绵阳市,三水厂,臭氧1小时,55,47,53,29,29,187,164,107,103,8,22,8,6,0.5,0.5
2023-06-14T14:00:00,1882A,104.563,28.793,宜宾市,石马中学,,25,20,34,14,24,202,80,87,86,14,15,4,5,0.4,0.5
2023-06-14T14:00:00,1883A,104.6201,28.7728,宜宾市,市委,,28,28,48,16,35,209,87,85,82,26,30,8,9,0.4,0.4
2023-06-14T14:00:00,1884A,104.6055,28.793,宜宾市,宜宾四中,,29,27,42,19,27,231,92,91,90,15,20,10,10,0.4,0.5
2023-06-14T14:00:00,1885A,104.639,28.7562,宜宾市,市政府,,33,33,43,22,28,211,83,102,86,43,28,8,9,0.4,0.6
2023-06-14T14:00:00,1886A,104.5742,28.7199,宜宾市,黄金嘴,,27,25,38,16,25,200,86,86,84,15,19,4,5,0.4,0.5
2023-06-14T14:00:00,1888A,101.6891,26.571,攀枝花市,弄弄坪,,50,40,30,35,20,88,24,79,21,43,23,15,9,2.2,1.3
2023-06-14T14:00:00,1889A,101.5769,26.5928,攀枝花市,河门口,,32,27,15,22,12,104,66,82,65,21,16,9,6,1.3,1
2023-06-14T14:00:00,1890A,101.7169,26.585,攀枝花市,炳草岗,细颗粒物(PM2.5),68,38,31,49,30,79,29,59,20,48,39,7,7,2.4,1.6
2023-06-14T14:00:00,1891A,101.7369,26.5008,攀枝花市,仁和,,30,23,46,21,35,86,59,36,36,20,40,9,21,1.4,2.6
2023-06-14T14:00:00,1893A,105.4324,28.9634,泸州市,九狮山,,35,35,36,19,17,175,103,81,81,21,23,10,8,0.5,0.6
2023-06-14T14:00:00,1894A,105.4427,28.9063,泸州市,小市上码头,,37,37,53,19,30,198,88,82,70,12,17,5,7,0.6,0.7
2023-06-14T14:00:00,1895A,105.4241,28.8573,泸州市,兰田宪桥,,33,33,61,22,38,184,94,69,69,8,17,5,8,0.7,0.7
2023-06-14T14:00:00,1896A,105.4379,28.8833,泸州市,市环监站,,32,32,52,14,26,186,96,82,77,18,25,6,8,0.6,0.6
2023-06-14T14:00:00,1901A,104.4239,31.1208,德阳市,东山公园,颗粒物(PM10),55,59,50,30,27,212,139,88,85,13,21,4,4,0.5,0.5
2023-06-14T14:00:00,1902A,104.3826,31.1317,德阳市,西小区,颗粒物(PM10),58,66,63,27,34,200,145,88,88,9,22,2,3,0.5,0.5
2023-06-14T14:00:00,1904A,104.3553,31.1091,德阳市,耐火材料厂,颗粒物(PM10),55,59,59,35,31,231,163,98,98,8,20,3,2,0.6,0.5
2023-06-14T14:00:00,1905A,106.056,30.8064,南充市,西山风景区,,47,47,50,31,27,161,127,121,94,10,12,12,8,0.5,0.5
2023-06-14T14:00:00,1906A,106.0789,30.8023,南充市,南充市委,颗粒物(PM10),55,59,46,13,26,153,137,111,102,15,18,18,13,0.5,0.5
2023-06-14T14:00:00,1907A,106.1031,30.8217,南充市,南充炼油厂,颗粒物(PM10),58,66,56,28,26,165,148,113,106,15,16,19,14,0.5,0.4
2023-06-14T14:00:00,1908A,106.1064,30.7856,南充市,高坪区监测站,,49,49,48,33,28,151,137,104,104,17,19,19,14,0.5,0.4
2023-06-14T14:00:00,1909A,106.0642,30.7636,南充市,嘉陵区环保局,颗粒物(PM10),51,51,50,31,30,181,146,108,105,14,23,19,11,0.4,0.4
2023-06-14T14:00:00,1910A,106.1087,30.8388,南充市,市环境监测站,,46,46,49,32,30,167,145,114,95,22,21,17,13,0.3,0.3
2023-06-14T14:00:00,1911A,106.9222,27.6869,遵义市,丁字口,,30,16,22,12,14,144,94,85,85,21,21,5,5,0.9,0.8
2023-06-14T14:00:00,1912A,106.9242,27.7019,遵义市,凤凰山,,25,15,22,8,18,171,77,92,86,21,14,7,7,0.7,0.5
2023-06-14T14:00:00,1913A,106.8906,27.6486,遵义市,忠庄,,34,16,28,12,17,167,107,86,86,16,12,2,2,0.7,0.6
2023-06-14T14:00:00,1914A,106.9231,27.6506,遵义市,舟水桥,,31,12,22,10,20,152,98,80,80,9,14,2,2,0.6,0.5
2023-06-14T14:00:00,1915A,106.9178,27.72,遵义市,干田坝,,34,11,24,13,14,168,107,91,91,13,15,5,5,0.7,0.7
2023-06-14T14:00:00,1916A,103.7897,25.5035,曲靖市,环境监测站,,42,42,37,17,14,129,120,102,102,10,15,6,9,0.6,0.6
2023-06-14T14:00:00,1917A,103.8,25.5364,曲靖市,烟厂办公区,,46,46,35,17,14,130,118,85,85,11,15,5,4,0.4,0.4
2023-06-14T14:00:00,1918A,108.7197,34.3956,咸阳市,气象站,,,,,,,,,,,,,,,,
2023-06-14T14:00:00,1919A,108.673,34.3155,咸阳市,实验中学,臭氧1小时,123,67,67,30,28,255,245,125,125,32,46,6,5,0.6,0.6
2023-06-14T14:00:00,1920A,108.7233,34.3617,咸阳市,师范学院,臭氧1小时,100,48,68,18,26,233,200,128,128,21,47,5,5,0.5,0.6
2023-06-14T14:00:00,1922A,109.0656,35.0994,铜川市,党校,臭氧1小时,78,48,64,9,18,184,182,118,118,8,34,7,6,0.7,0.9
2023-06-14T14:00:00,1923A,109.0697,35.0697,铜川市,王益区政府,臭氧1小时,77,29,47,16,20,190,181,126,126,7,23,6,9,0.3,0.5
2023-06-14T14:00:00,1924A,108.9344,34.9058,铜川市,新区管委会,臭氧1小时,83,43,53,18,23,204,186,137,137,7,20,9,10,0.3,0.4
2023-06-14T14:00:00,1926A,109.4131,36.6275,延安市,枣园,臭氧1小时,65,20,35,19,13,176,172,108,108,7,27,6,6,0.5,0.6
2023-06-14T14:00:00,1927A,109.4761,36.6028,延安市,延大医附院,臭氧1小时,74,24,36,11,15,180,179,116,116,7,34,5,5,0.2,0.3
2023-06-14T14:00:00,1929A,109.5056,36.6106,延安市,百米大道,臭氧1小时,63,25,42,13,17,175,170,112,112,11,39,4,5,0.3,0.4
2023-06-14T14:00:00,1930A,107.185,34.3063,宝鸡市,庙沟村,臭氧1小时,100,33,28,16,12,200,200,125,125,5,6,8,8,0.3,0.3
2023-06-14T14:00:00,1931A,107.0708,34.3017,宝鸡市,竹园沟,臭氧1小时,78,24,23,15,14,194,182,116,116,10,12,6,5,0.5,0.4
2023-06-14T14:00:00,1932A,107.1906,34.3672,宝鸡市,三陆医院,臭氧1小时,80,48,49,16,18,197,184,114,114,13,27,6,11,0.4,0.5
2023-06-14T14:00:00,1933A,107.1431,34.3547,宝鸡市,监测站,臭氧1小时,85,35,34,12,16,191,188,111,111,14,19,8,8,0.4,0.4
2023-06-14T14:00:00,1934A,107.1186,34.3739,宝鸡市,技工学校,臭氧1小时,78,42,39,14,20,195,182,119,119,14,17,6,7,0.4,0.4
2023-06-14T14:00:00,1935A,107.3906,34.3528,宝鸡市,陈仓区环保局家属楼,臭氧1小时,108,48,48,22,24,215,215,126,126,16,35,9,14,0.5,0.5
2023-06-14T14:00:00,1936A,107.2058,34.3497,宝鸡市,文理学院,臭氧1小时,90,38,41,16,20,195,192,117,117,11,21,7,8,0.5,0.5
2023-06-14T14:00:00,1937A,107.2386,34.3622,宝鸡市,三迪小学,臭氧1小时,92,40,50,17,22,197,193,117,117,12,27,6,7,0.3,0.4
2023-06-14T14:00:00,1938A,109.5293,34.5101,渭南市,农科所,臭氧1小时,69,58,61,29,29,186,175,109,109,9,33,8,6,0.6,0.6
2023-06-14T14:00:00,1939A,109.4974,34.4877,渭南市,日报社,臭氧1小时,98,46,52,24,26,205,198,118,118,14,40,8,8,0.5,0.5
2023-06-14T14:00:00,1940A,109.4636,34.493,渭南市,体育馆,臭氧1小时,103,53,61,17,20,206,206,119,119,9,45,8,8,0.4,0.4
2023-06-14T14:00:00,1941A,109.4259,34.5023,渭南市,高新一小,臭氧1小时,106,54,71,17,26,215,211,120,120,12,42,7,7,0.5,0.6
2023-06-14T14:00:00,1943A,102.1725,38.5339,金昌市,新川苑,臭氧1小时,77,41,42,13,13,181,181,135,135,10,17,20,26,0.5,0.6
2023-06-14T14:00:00,1944A,102.1692,38.5167,金昌市,天庆家园,臭氧1小时,75,39,52,16,11,180,180,136,136,9,19,20,27,0.5,0.6
2023-06-14T14:00:00,1945A,98.2908,39.7711,嘉峪关市,气象局,臭氧1小时,63,24,52,9,14,170,170,117,117,3,15,4,3,0.1,0.2
2023-06-14T14:00:00,1947A,106.3394,38.817,石嘴山市,沙湖旅游区,,45,42,42,23,17,143,143,98,98,12,27,22,28,0.5,0.7
2023-06-14T14:00:00,1948A,106.3668,39.0145,石嘴山市,大武口朝阳西街,臭氧1小时,88,58,40,11,14,204,190,135,135,2,17,20,27,0.3,0.5
2023-06-14T14:00:00,1949A,106.7704,39.2282,石嘴山市,惠农南大街,臭氧1小时,69,40,37,12,12,186,175,127,127,9,29,8,13,0.0,0.4
2023-06-14T14:00:00,1950A,106.7099,39.1325,石嘴山市,红果子镇惠新街,臭氧1小时,68,48,32,10,7,192,174,136,136,10,22,6,8,0.2,0.3
2023-06-14T14:00:00,1951A,84.895,45.6094,克拉玛依市,长征新村,,40,33,47,12,14,138,126,92,92,9,21,8,8,0.2,0.3
2023-06-14T14:00:00,1952A,84.8988,45.5893,克拉玛依市,南林小区,,39,31,42,14,16,136,124,84,84,16,35,6,6,0.1,0.4
2023-06-14T14:00:00,1954A,84.905,44.3396,克拉玛依市,独山子区,,40,28,51,18,29,166,128,124,119,6,9,10,11,0.3,0.4
2023-06-14T14:00:00,1955A,85.6979,46.098,克拉玛依市,乌尔禾区商贸楼,,30,26,48,6,18,141,96,64,54,5,16,15,12,0.4,0.4
2023-06-14T14:00:00,1956A,86.1472,41.7538,巴音郭楞州,孔雀公园,颗粒物(PM10),58,65,60,20,17,144,144,120,120,7,12,5,5,0.2,0.3
2023-06-14T14:00:00,1957A,86.1972,41.7166,巴音郭楞州,棉纺厂,颗粒物(PM10),64,78,65,30,23,142,142,116,116,7,10,5,4,0.3,0.3
2023-06-14T14:00:00,1958A,86.2357,41.7173,巴音郭楞州,经济开发区,颗粒物(PM10),62,74,58,7,19,147,147,124,122,2,5,3,3,0.2,0.2
2023-06-14T14:00:00,1961A,117.532,36.6868,济南市,东山小学,臭氧1小时,105,39,48,7,14,232,209,151,151,11,32,6,7,0.3,0.4
2023-06-14T14:00:00,1966A,120.0405,35.8735,青岛市,黄岛区4号,,32,27,43,14,20,162,100,100,100,2,25,6,6,0.5,0.6
2023-06-14T14:00:00,1982A,122.0693,37.2174,威海市,文登开发区,,45,27,38,12,22,157,142,126,126,11,16,6,6,0.2,0.3
2023-06-14T14:00:00,2031A,113.1817,27.9958,株洲市,云田中学,细颗粒物(PM2.5),54,45,42,38,19,126,111,62,62,15,14,6,6,0.7,0.7
2023-06-14T14:00:00,2054A,114.1099,32.1059,信阳市,平桥分局,臭氧1小时,114,34,34,18,25,228,228,151,151,13,18,9,8,0.4,0.5
2023-06-14T14:00:00,2064A,113.9956,32.1271,信阳市,南湾水厂,臭氧1小时,99,43,35,17,18,200,199,138,138,5,6,8,7,0.3,0.4
2023-06-14T14:00:00,2065A,114.0775,32.1195,信阳市,市酿酒公司,臭氧1小时,103,39,38,24,26,207,206,138,138,9,16,9,9,0.4,0.6
2023-06-14T14:00:00,2066A,114.0609,32.1399,信阳市,审计局,臭氧1小时,103,41,31,19,25,212,205,164,164,8,15,7,7,0.5,0.7
2023-06-14T14:00:00,2067A,114.6613,33.6128,周口市,市环境监测站,臭氧1小时,108,87,61,28,38,238,215,176,176,9,17,6,6,0.4,0.6
2023-06-14T14:00:00,2068A,114.6758,33.6347,周口市,周口师范,臭氧1小时,112,34,45,24,32,227,223,177,177,10,17,6,5,0.4,0.6
2023-06-14T14:00:00,2069A,114.6546,33.5979,周口市,市运管处,臭氧1小时,102,39,51,7,28,240,203,172,172,5,16,4,4,0.5,0.7
2023-06-14T14:00:00,2070A,114.6369,33.6406,周口市,川汇区环保局,臭氧1小时,108,36,46,14,29,221,216,156,156,10,18,7,6,0.4,0.6
2023-06-14T14:00:00,2075A,117.6336,24.4674,漳州市,九湖,,,,,,,,,,,,,,,,
2023-06-14T14:00:00,2160A,112.85,35.5051,晋城市,自来水公司,臭氧1小时,80,20,47,7,23,210,184,134,134,7,29,9,11,0.5,1
2023-06-14T14:00:00,2161A,112.8318,35.4936,晋城市,白云商贸,臭氧1小时,64,27,49,2,21,189,171,126,126,12,24,7,8,0.9,1.3
2023-06-14T14:00:00,2162A,112.8508,35.4887,晋城市,市环保局,臭氧1小时,65,28,50,12,25,190,172,131,131,7,23,7,10,0.4,0.6
2023-06-14T14:00:00,2163A,112.8676,35.4897,晋城市,技术学院,臭氧1小时,65,26,51,2,20,192,172,128,128,10,28,8,10,0.6,1
2023-06-14T14:00:00,2165A,112.8453,35.546,晋城市,白马寺,臭氧1小时,59,26,38,15,27,201,167,190,140,8,16,5,8,0.6,1.1
2023-06-14T14:00:00,2166A,112.4397,39.3522,朔州市,平朔,臭氧1小时,54,36,69,7,17,163,163,109,109,5,40,4,12,0.2,0.4
2023-06-14T14:00:00,2167A,112.4575,39.3617,朔州市,朔唯,臭氧1小时,72,36,98,7,21,196,177,125,125,4,44,4,18,0.4,0.5
2023-06-14T14:00:00,2168A,112.4258,39.3197,朔州市,区政府,臭氧1小时,74,32,54,20,19,179,179,128,128,4,20,5,5,0.3,0.4
2023-06-14T14:00:00,2169A,112.4072,39.3278,朔州市,市环保局,臭氧1小时,55,29,54,8,17,164,164,112,112,8,28,5,7,0.2,0.4
2023-06-14T14:00:00,2170A,112.4272,39.3681,朔州市,市二中,臭氧1小时,63,32,78,7,19,170,170,111,111,2,33,4,13,0.4,0.4
2023-06-14T14:00:00,2171A,112.7532,37.6945,晋中市,锦纶小区,臭氧1小时,103,38,37,23,16,215,205,147,147,13,28,13,13,0.5,0.4
2023-06-14T14:00:00,2173A,112.7249,37.7067,晋中市,南都小区,臭氧1小时,97,25,46,13,18,205,197,147,147,13,35,9,10,0.4,0.5
2023-06-14T14:00:00,2174A,112.6991,37.6982,晋中市,榆次区政府,臭氧1小时,101,31,53,6,16,210,202,147,147,17,37,10,9,0.1,0.4
2023-06-14T14:00:00,2175A,110.9956,35.0147,运城市,运城中学,臭氧1小时,54,53,53,16,24,197,163,127,127,3,15,5,9,0.3,0.7
2023-06-14T14:00:00,2178A,110.9686,35.0303,运城市,地区技校,臭氧1小时,57,45,53,11,22,212,165,131,131,3,17,4,6,0.2,0.6
2023-06-14T14:00:00,2179A,111.0414,35.1147,运城市,空港新区,颗粒物(PM10),52,54,65,18,32,216,156,138,138,4,21,6,11,0.3,0.9
2023-06-14T14:00:00,2181A,112.7383,38.4519,忻州市,开发区,臭氧1小时,84,29,38,2,10,187,187,125,125,10,27,10,12,0.4,0.5
2023-06-14T14:00:00,2182A,112.7003,38.4928,忻州市,会展中心,,,,52,,17,169,169,107,107,8,34,9,8,0.3,0.4
2023-06-14T14:00:00,2183A,111.1406,37.5211,吕梁市,环保局,臭氧1小时,84,32,54,2,12,187,187,120,120,8,38,9,9,0.4,0.5
2023-06-14T14:00:00,2185A,111.1297,37.5136,吕梁市,自来水公司,,,21,89,2,12,173,173,115,115,6,35,,12,0.4,0.5
2023-06-14T14:00:00,2187A,106.8174,39.6973,乌海市,市林业局,臭氧1小时,99,33,44,7,11,199,199,157,157,6,13,11,26,0.5,0.6
2023-06-14T14:00:00,2188A,106.7907,39.6667,乌海市,中海勃湾学校,臭氧1小时,98,31,47,8,10,198,198,142,142,6,19,13,22,0.3,0.5
2023-06-14T14:00:00,2191A,122.2532,43.6801,通辽市,艺术职业学校,臭氧1小时,53,16,35,14,13,166,162,135,135,14,22,5,6,0.6,0.5
2023-06-14T14:00:00,2192A,119.7594,49.2261,呼伦贝尔市,区环保局,,34,34,34,10,19,118,56,70,52,8,12,4,5,0.3,0.3
2023-06-14T14:00:00,2195A,107.4212,40.761,巴彦淖尔市,附二中,臭氧1小时,104,35,36,5,11,208,208,140,140,8,22,6,12,0.4,0.5
2023-06-14T14:00:00,2196A,107.37,40.7372,巴彦淖尔市,市环保大楼,臭氧1小时,101,33,34,22,22,202,202,139,139,8,18,6,7,0.4,0.4
2023-06-14T14:00:00,2197A,113.1306,40.9923,乌兰察布市,集宁新区,,48,23,21,10,14,151,151,98,97,4,16,9,13,0.4,0.5
2023-06-14T14:00:00,2200A,122.0392,46.0656,兴安盟,胜华新制药厂,,46,34,33,17,17,149,146,114,112,9,14,4,4,0.3,0.3
2023-06-14T14:00:00,2201A,121.9504,46.0741,兴安盟,科右前旗环保局,,48,25,21,21,19,152,152,115,115,4,7,5,3,0.2,0.1
2023-06-14T14:00:00,2202A,116.1042,43.9317,锡林郭勒盟,市环保监测站,,34,17,22,4,5,115,108,94,94,3,14,6,7,0.2,0.2
2023-06-14T14:00:00,2203A,116.0781,43.9311,锡林郭勒盟,市政府,,33,26,32,7,9,112,105,89,89,4,21,7,7,0.2,0.2
2023-06-14T14:00:00,2204A,105.6467,38.8363,阿拉善盟,西城区西花园,臭氧1小时,84,33,28,7,15,187,187,173,173,9,10,15,11,0.5,0.5
2023-06-14T14:00:00,2205A,105.6985,38.8411,阿拉善盟,蒙二幼,,,34,26,,18,186,186,174,174,6,6,19,12,0.5,0.4
2023-06-14T14:00:00,2206A,105.724,38.8516,阿拉善盟,环保局新楼,臭氧1小时,95,27,33,11,16,196,196,183,183,6,6,18,11,0.5,0.4
2023-06-14T14:00:00,2207A,121.6094,41.998,阜新市,工业园区,臭氧1小时,58,20,45,5,26,166,166,128,128,10,36,7,16,0.5,0.7
2023-06-14T14:00:00,2208A,121.6697,42.0279,阜新市,长青街,臭氧1小时,70,17,46,4,30,176,176,143,143,8,20,11,19,0.5,0.7
2023-06-14T14:00:00,2209A,121.6673,42.0705,阜新市,农业园区,臭氧1小时,77,15,38,6,28,181,181,152,152,10,19,11,22,0.7,0.9
2023-06-14T14:00:00,2210A,121.6717,42.0224,阜新市,东苑,臭氧1小时,62,20,46,6,32,169,169,138,138,9,26,10,21,0.5,0.7
2023-06-14T14:00:00,2211A,121.6506,42.0498,阜新市,玉龙新城,臭氧1小时,74,19,52,7,22,179,179,140,140,9,25,10,12,0.5,0.7
2023-06-14T14:00:00,2212A,123.2,41.1953,辽阳市,宏伟区,臭氧1小时,83,60,41,44,29,186,186,128,128,24,19,21,14,1.6,1
2023-06-14T14:00:00,2213A,123.1683,41.2495,辽阳市,新华园,臭氧1小时,102,74,57,43,35,203,203,136,136,25,33,19,10,1.4,0.9
2023-06-14T14:00:00,2214A,123.2354,41.2639,辽阳市,滨河路,臭氧1小时,88,33,52,33,32,190,190,128,128,15,32,13,11,0.9,0.8
2023-06-14T14:00:00,2215A,123.149,41.2991,辽阳市,铁西工业园,,,74,72,39,35,197,197,132,132,,38,23,14,1.4,1
2023-06-14T14:00:00,2216A,123.8139,42.3022,铁岭市,汇工街西,臭氧1小时,115,61,43,30,22,230,230,138,138,13,30,8,11,0.4,0.3
2023-06-14T14:00:00,2217A,123.8649,42.2923,铁岭市,水上乐园,臭氧1小时,102,41,33,29,23,204,204,125,125,17,32,10,8,0.6,0.4
2023-06-14T14:00:00,2218A,123.8486,42.2867,铁岭市,银州路东段,臭氧1小时,101,52,37,29,18,201,201,126,126,22,37,6,5,0.5,0.4
2023-06-14T14:00:00,2219A,123.7153,42.2217,铁岭市,金沙江路北,臭氧1小时,103,42,34,26,19,206,206,129,129,19,37,9,7,0.6,0.6
2023-06-14T14:00:00,2220A,120.4318,41.5881,朝阳市,西梁,,,,36,4,22,147,146,111,111,4,21,12,14,0.6,0.8
2023-06-14T14:00:00,2221A,120.4521,41.5646,朝阳市,河畔小区,,,,28,6,19,163,163,130,130,4,9,6,7,0.6,0.7
2023-06-14T14:00:00,2222A,120.4176,41.5648,朝阳市,八里堡,,50,17,33,4,20,160,160,124,124,8,18,8,10,0.6,0.8
2023-06-14T14:00:00,2223A,120.3806,41.5969,朝阳市,农业园区,,49,2,33,5,18,158,156,118,118,4,21,6,8,0.6,0.8
2023-06-14T14:00:00,2225A,124.4002,43.1713,四平市,一商场,臭氧1小时,83,29,41,17,21,186,186,143,143,13,30,8,8,0.4,0.5
2023-06-14T14:00:00,2226A,124.388,43.193,四平市,境园,臭氧1小时,77,29,31,7,16,181,181,125,125,12,38,8,7,0.4,0.5
2023-06-14T14:00:00,2227A,125.1358,42.8845,辽源市,环保局,臭氧1小时,78,14,23,10,14,182,182,114,114,7,34,5,6,0.5,0.6
2023-06-14T14:00:00,2229A,125.9358,41.7173,通化市,光明,,49,21,27,16,16,155,155,74,74,10,25,9,26,0.2,0.9
2023-06-14T14:00:00,2230A,125.9446,41.7325,通化市,铁路,,50,22,28,10,18,160,160,72,72,11,27,12,27,0.2,1.1
2023-06-14T14:00:00,2231A,126.4219,41.9171,白山市,喜丰,,46,14,42,15,14,147,147,84,84,10,23,15,11,0.4,0.3
2023-06-14T14:00:00,2232A,126.4077,41.9419,白山市,环保局,,50,19,40,18,19,160,160,86,86,7,21,11,13,0.5,0.6
2023-06-14T14:00:00,2233A,124.8006,45.1214,松原市,江南,臭氧1小时,72,58,29,11,17,177,177,148,148,7,15,5,5,0.4,0.4
2023-06-14T14:00:00,2234A,124.7965,45.1722,松原市,江北,臭氧1小时,59,9,19,10,20,167,167,143,143,9,15,4,4,0.4,0.4
2023-06-14T14:00:00,2235A,122.7911,45.6077,白城市,洮北区环保局,臭氧1小时,70,29,33,8,10,177,176,159,159,9,12,5,4,0.2,0.1
2023-06-14T14:00:00,2236A,122.8738,45.5725,白城市,市环保局,,49,19,21,11,15,157,156,143,143,8,12,5,4,0.0,0.3
2023-06-14T14:00:00,2237A,129.47,42.8883,延边朝鲜族自治州,妇幼医院,,,16,18,9,8,147,147,91,91,10,23,8,8,,0.5
2023-06-14T14:00:00,2238A,129.5055,42.9108,延边朝鲜族自治州,延边医院,,46,14,21,5,9,147,147,94,94,12,21,8,8,0.4,0.5
2023-06-14T14:00:00,2239A,129.3964,42.8881,延边朝鲜族自治州,朝阳川镇医院,,49,11,16,4,6,156,156,98,98,7,20,8,8,0.5,0.5
2023-06-14T14:00:00,2240A,130.9762,45.3001,鸡西市,环保局,,41,23,27,11,14,134,130,94,94,12,20,4,4,0.3,0.4
2023-06-14T14:00:00,2243A,130.9429,45.3039,鸡西市,第一中学,,44,15,17,5,11,143,140,101,101,5,9,4,5,0.3,0.3
2023-06-14T14:00:00,2244A,130.2537,47.3416,鹤岗市,哈啤分公司,,34,11,19,8,13,118,108,78,78,11,14,10,11,0.2,0.3
2023-06-14T14:00:00,2245A,130.2684,47.3086,鹤岗市,斯达机电,,37,22,21,9,11,125,117,88,79,12,12,11,11,0.3,0.3
2023-06-14T14:00:00,2246A,130.3114,47.3388,鹤岗市,东山纸板厂,,37,13,21,13,10,127,116,82,82,13,20,9,11,0.4,0.4
2023-06-14T14:00:00,2247A,130.1097,47.3382,鹤岗市,五号水库,,,,,,,,,,,,,,,,
2023-06-14T14:00:00,2248A,131.1511,46.6937,双鸭山市,双合村,,37,19,33,9,15,137,118,96,96,9,14,11,14,0.1,0.4
2023-06-14T14:00:00,2249A,131.1652,46.6191,双鸭山市,南小市,,39,22,29,8,17,136,122,96,96,8,10,5,4,0.1,0.1
2023-06-14T14:00:00,2250A,131.1524,46.6554,双鸭山市,环保局,,33,11,15,6,9,135,104,88,85,14,13,14,10,0.4,0.6
2023-06-14T14:00:00,2251A,131.12,46.5656,双鸭山市,苗圃,,43,4,12,4,11,137,137,106,106,7,7,3,3,0.3,0.3
2023-06-14T14:00:00,2252A,128.5159,47.4311,伊春市,环保局,,38,13,14,7,7,120,120,88,88,14,14,8,5,0.3,0.4
2023-06-14T14:00:00,2253A,128.9102,47.7412,伊春市,电力嘉园,,40,14,22,11,14,127,127,84,84,6,10,7,6,0.2,0.2
2023-06-14T14:00:00,2254A,129.5029,48.471,伊春市,汤旺河国家公园,,32,21,20,22,21,115,48,61,61,1,2,6,20,0.5,0.5
2023-06-14T14:00:00,2255A,130.2751,46.8028,佳木斯市,佳纺,,44,23,21,12,13,163,138,99,99,9,16,7,7,0.4,0.4
2023-06-14T14:00:00,2256A,130.3995,46.8307,佳木斯市,发电厂,,42,22,24,14,16,140,134,105,105,9,21,8,8,0.3,0.4
2023-06-14T14:00:00,2257A,130.3258,46.7975,佳木斯市,环保局,,44,19,23,14,14,154,140,106,100,7,17,5,5,0.3,0.3
2023-06-14T14:00:00,2258A,130.3648,46.8032,佳木斯市,十一中,,44,23,26,12,15,139,139,101,101,10,26,6,7,0.4,0.4
2023-06-14T14:00:00,2259A,130.3794,46.7588,佳木斯市,四丰,臭氧1小时,65,16,22,12,14,188,172,124,124,6,18,1,1,0.3,0.3
2023-06-14T14:00:00,2262A,131.0518,45.8751,七台河市,新一中,臭氧1小时,69,18,28,12,17,175,175,132,132,7,14,7,8,0.7,0.7
2023-06-14T14:00:00,2263A,127.4833,50.2524,黑河市,交通局,,15,10,28,3,18,150,45,44,34,6,16,7,7,0.4,0.5
2023-06-14T14:00:00,2264A,127.5144,50.2341,黑河市,环保局,,16,5,24,7,13,140,50,41,40,4,10,2,6,0.2,0.3
2023-06-14T14:00:00,2265A,127.5291,50.2472,黑河市,大黑河岛,,17,7,21,8,15,171,54,43,39,1,5,9,18,0.3,0.4
2023-06-14T14:00:00,2266A,126.9785,46.6365,绥化市,人和东街,臭氧1小时,57,24,28,10,16,170,165,135,135,13,28,6,6,0.4,0.5
2023-06-14T14:00:00,2267A,126.964,46.6528,绥化市,党政办公中心,臭氧1小时,68,11,24,6,17,178,174,141,141,10,25,8,8,0.4,0.4
2023-06-14T14:00:00,2269A,124.1069,50.4097,大兴安岭地区,科技局,,14,1,15,8,12,77,44,45,41,2,4,6,6,0.1,0.2
2023-06-14T14:00:00,2270A,117.396,32.939,蚌埠市,工人疗养院,臭氧1小时,82,36,56,19,32,229,185,170,170,6,17,7,12,0.3,0.5
2023-06-14T14:00:00,2271A,117.3605,32.9427,蚌埠市,百货大楼,臭氧1小时,82,33,61,13,34,226,185,170,170,5,18,4,8,0.3,0.4
2023-06-14T14:00:00,2273A,117.4185,32.8911,蚌埠市,蚌埠学院,臭氧1小时,73,29,73,17,42,219,178,150,150,11,22,12,11,0.4,0.5
2023-06-14T14:00:00,2274A,117.3533,32.9673,蚌埠市,淮上区政府,臭氧1小时,73,34,68,15,39,220,178,163,163,5,22,6,8,0.3,0.5
2023-06-14T14:00:00,2275A,117.3145,32.8977,蚌埠市,高新区,臭氧1小时,100,41,71,21,43,225,200,161,161,4,22,7,9,0.3,0.5
2023-06-14T14:00:00,2277A,116.8305,32.7727,淮南市,潘集区政府,臭氧1小时,104,46,59,29,37,237,208,168,168,4,18,6,10,0.3,0.4
2023-06-14T14:00:00,2278A,117.0067,32.6524,淮南市,师范学院,臭氧1小时,99,50,67,38,42,237,199,165,165,7,19,7,12,0.3,0.5
2023-06-14T14:00:00,2279A,116.8569,32.5951,淮南市,谢家集区政府,臭氧1小时,108,29,49,17,22,239,216,164,164,10,19,6,7,0.3,0.3
2023-06-14T14:00:00,2280A,116.8281,32.633,淮南市,八公山区政府,臭氧1小时,110,47,52,18,26,233,219,186,186,6,9,8,9,0.4,0.4
2023-06-14T14:00:00,2281A,116.6325,32.6201,淮南市,焦岗湖风景区管理处,臭氧1小时,102,40,44,20,30,204,204,148,148,5,14,5,5,0.3,0.4
2023-06-14T14:00:00,2282A,116.8004,33.975,淮北市,监测站,臭氧1小时,89,25,45,17,30,212,191,191,191,9,14,5,5,0.3,0.5
2023-06-14T14:00:00,2283A,116.8091,33.9007,淮北市,烈山区政府,臭氧1小时,99,33,49,11,32,226,199,174,174,4,18,5,8,0.3,0.4
2023-06-14T14:00:00,2284A,116.7856,33.9477,淮北市,职业技术学院,,,,,,,,,,,,,,,,
2023-06-14T14:00:00,2285A,117.8177,30.9412,铜陵市,市第四中学,臭氧1小时,90,45,68,29,41,195,192,133,133,7,33,10,11,0.4,0.8
2023-06-14T14:00:00,2286A,117.8059,30.9273,铜陵市,市公路局,臭氧1小时,105,23,64,22,39,209,209,146,146,7,27,8,12,0.4,1.1
2023-06-14T14:00:00,2287A,117.7807,30.9413,铜陵市,市新民污水厂,臭氧1小时,100,37,71,26,28,200,200,141,141,7,42,8,13,0.4,0.8
2023-06-14T14:00:00,2288A,117.7439,30.8792,铜陵市,市第九中学,臭氧1小时,97,56,78,23,34,197,197,133,133,9,36,10,11,0.4,0.9
2023-06-14T14:00:00,2289A,117.846,30.9413,铜陵市,车站新区,臭氧1小时,98,43,60,17,28,198,198,133,133,11,26,6,5,0.4,1
2023-06-14T14:00:00,2290A,117.8483,30.97,铜陵市,市职教基地,,,33,50,8,26,175,175,120,120,8,19,5,6,,0.8
2023-06-14T14:00:00,2291A,117.0809,30.5177,安庆市,环科院,臭氧1小时,112,30,42,26,29,224,224,126,126,15,39,9,12,0.5,0.6
2023-06-14T14:00:00,2292A,117.0331,30.5119,安庆市,马山宾馆,臭氧1小时,107,30,43,18,31,214,214,142,142,,30,5,7,0.7,0.8
2023-06-14T14:00:00,2294A,116.9896,30.6145,安庆市,安庆大学,臭氧1小时,95,23,42,15,31,196,196,143,143,9,18,9,9,0.3,0.5
2023-06-14T14:00:00,2295A,118.2903,29.6963,黄山市,延安路89号,臭氧1小时,74,39,50,19,16,179,179,105,105,5,10,7,6,0.4,0.5
2023-06-14T14:00:00,2296A,118.327,29.7178,黄山市,黄山东路89号,臭氧1小时,53,34,35,13,19,162,162,103,103,16,9,6,5,0.2,0.3
2023-06-14T14:00:00,2297A,118.1371,30.2756,黄山市,黄山区政府5号楼,臭氧1小时,79,43,43,19,24,183,183,111,111,8,9,7,6,0.5,0.5
2023-06-14T14:00:00,2298A,118.3093,32.3153,滁州市,老年大学,臭氧1小时,93,41,40,25,25,208,194,164,164,13,20,7,8,0.3,0.4
2023-06-14T14:00:00,2299A,118.3244,32.2786,滁州市,人大宾馆,臭氧1小时,93,41,47,26,35,212,194,172,172,17,23,7,8,0.2,0.4
2023-06-14T14:00:00,2301A,115.8277,32.8929,阜阳市,市监测站,臭氧1小时,100,37,34,19,20,203,200,163,163,12,20,11,8,0.4,0.5
2023-06-14T14:00:00,2303A,115.8554,32.8605,阜阳市,开发区,臭氧1小时,104,38,47,16,16,212,208,168,168,9,22,12,9,0.4,0.5
2023-06-14T14:00:00,2307A,116.5079,31.737,六安市,监测大楼,臭氧1小时,98,34,33,38,19,198,198,147,147,3,12,2,3,0.3,0.4
2023-06-14T14:00:00,2308A,116.4738,31.7643,六安市,皖西学院,臭氧1小时,101,39,37,14,17,203,202,144,144,5,12,5,5,0.3,0.4
2023-06-14T14:00:00,2309A,116.4996,31.7905,六安市,朝阳厂,臭氧1小时,102,31,25,15,14,207,204,154,154,6,12,5,5,0.4,0.5
2023-06-14T14:00:00,2310A,116.5567,31.7886,六安市,开发区,臭氧1小时,101,41,42,21,28,202,202,149,149,4,14,7,6,0.3,0.5
2023-06-14T14:00:00,2311A,115.8072,33.8399,亳州市,污水处理厂,臭氧1小时,95,35,47,22,25,216,196,160,160,5,13,7,8,0.3,0.5
2023-06-14T14:00:00,2312A,115.7789,33.8518,亳州市,三国揽胜宫,,,45,45,20,26,215,190,164,164,6,11,,7,0.4,0.6
2023-06-14T14:00:00,2314A,117.47,30.6618,池州市,池州学院,臭氧1小时,106,36,41,25,30,221,212,157,157,6,12,6,7,0.7,1
2023-06-14T14:00:00,2316A,118.7581,30.9454,宣城市,鳌峰子站,,46,33,37,32,25,147,147,111,111,12,15,4,6,0.7,0.5
2023-06-14T14:00:00,2317A,118.7385,30.9743,宣城市,敬亭山子站,臭氧1小时,73,51,38,29,23,178,178,125,125,9,15,10,7,0.7,0.5
2023-06-14T14:00:00,2318A,118.7173,30.9427,宣城市,开发区子站,,50,40,37,35,24,154,154,109,109,7,14,6,7,0.6,0.5
2023-06-14T14:00:00,2319A,119.0141,25.4325,莆田市,荔城区仓后路,颗粒物(PM10),51,52,37,23,20,167,81,82,80,10,11,6,6,0.6,0.6
2023-06-14T14:00:00,2320A,119.0015,25.4553,莆田市,莆田市监测站,,49,49,36,24,16,174,92,77,77,8,8,6,6,0.4,0.4
2023-06-14T14:00:00,2321A,119.1119,25.4561,莆田市,涵江区六中,,41,41,33,20,16,150,85,84,84,9,10,7,7,0.6,0.6
2023-06-14T14:00:00,2322A,119.1013,25.3215,莆田市,秀屿区政府,,32,32,35,18,16,148,86,87,87,3,6,8,7,0.7,0.7
2023-06-14T14:00:00,2323A,118.981,25.4792,莆田市,东圳水库,,,,,,,,,,,,,,,,
2023-06-14T14:00:00,2324A,117.6211,26.2625,三明市,三钢,,48,34,45,33,34,102,100,60,60,7,19,6,8,0.3,0.5
2023-06-14T14:00:00,2325A,117.635,26.2714,三明市,三明二中,,38,30,39,26,31,109,100,57,57,8,19,3,5,0.5,0.7
2023-06-14T14:00:00,2326A,117.6028,26.2378,三明市,三元区政府,,34,26,46,22,38,108,108,62,62,7,19,5,9,0.6,0.9
2023-06-14T14:00:00,2327A,117.7275,26.3108,三明市,洋溪,,,,,,,,,,,,,,,,
2023-06-14T14:00:00,2331A,118.0966,26.6761,南平市,茫荡山,,,,,,,,,,,,,,,,
2023-06-14T14:00:00,2332A,118.1681,26.6369,南平市,南平市监测站,,36,35,41,25,27,103,82,55,55,7,12,3,5,0.8,0.8
2023-06-14T14:00:00,2333A,118.1825,26.6489,南平市,南平铝业有限公司,,45,42,39,31,30,95,81,59,59,12,13,5,6,0.7,0.7
2023-06-14T14:00:00,2334A,118.1756,26.6272,南平市,南平七中,,40,40,38,28,26,99,74,45,45,10,10,4,5,0.8,0.7
2023-06-14T14:00:00,2335A,117.0189,25.1181,龙岩市,龙岩师专,,,,,,,,,,,,,,,,
2023-06-14T14:00:00,2336A,117.0217,25.1033,龙岩市,龙岩市监测站,,30,28,32,21,23,140,56,107,44,31,19,5,7,0.8,0.7
2023-06-14T14:00:00,2337A,117.0258,25.0661,龙岩市,闽西职业技术学院,,38,38,36,26,23,114,55,114,50,27,14,5,6,0.8,0.7
2023-06-14T14:00:00,2338A,117.0196,25.0306,龙岩市,龙岩学院,,40,40,35,26,22,118,52,80,60,27,12,4,5,0.7,0.5
2023-06-14T14:00:00,2339A,119.5001,26.6946,宁德市,金涵水库,,,,,,,,,,,,,,,,
2023-06-14T14:00:00,2341A,119.5388,26.6612,宁德市,宁德市监测站,,31,29,28,19,17,144,97,81,73,8,7,6,7,0.7,0.6
2023-06-14T14:00:00,2342A,117.3102,29.3867,景德镇市,王港中学,,,30,31,17,21,141,,93,93,4,5,13,12,0.3,0.6
2023-06-14T14:00:00,2343A,117.2117,29.2933,景德镇市,老干部活动中心,颗粒物(PM10),54,58,56,31,29,133,131,94,94,5,10,3,4,0.2,0.2
2023-06-14T14:00:00,2344A,117.1894,29.2789,景德镇市,兽医站,,49,49,36,15,26,138,133,97,97,5,12,4,8,0.3,0.5
2023-06-14T14:00:00,2345A,117.1547,29.2617,景德镇市,台达陶瓷,,43,34,42,26,31,138,137,96,96,17,17,39,27,0.5,0.6
2023-06-14T14:00:00,2346A,117.2461,29.2956,景德镇市,陶研所,,40,35,41,9,22,133,127,91,91,3,7,4,6,0.2,0.2
2023-06-14T14:00:00,2347A,114.0997,27.5002,萍乡市,武功山,,36,18,13,17,7,114,114,70,70,6,6,25,25,0.6,0.4
2023-06-14T14:00:00,2348A,113.8385,27.6434,萍乡市,中医院,,32,32,35,20,24,111,99,71,71,3,9,7,11,0.7,0.8
2023-06-14T14:00:00,2349A,113.8493,27.6253,萍乡市,市政府车库,,,,28,,17,126,107,86,86,,4,8,10,,0.5
2023-06-14T14:00:00,2350A,113.8676,27.6435,萍乡市,市环保局,,33,32,32,20,19,116,104,75,75,2,7,12,15,0.4,0.6
2023-06-14T14:00:00,2351A,113.866,27.6198,萍乡市,安源区政府,,34,30,30,14,13,123,108,78,78,5,9,12,12,0.4,0.5
2023-06-14T14:00:00,2352A,115.0861,27.9317,新余市,北岗,,40,32,32,28,17,118,118,74,74,4,9,18,10,0.7,0.5
2023-06-14T14:00:00,2353A,114.9886,27.8431,新余市,飞宇,,49,49,41,26,20,152,152,86,86,7,16,9,9,0.5,0.5
2023-06-14T14:00:00,2354A,114.9231,27.8246,新余市,第二水厂,,45,45,37,9,19,138,138,88,88,8,13,8,9,0.4,0.4
2023-06-14T14:00:00,2355A,114.9308,27.8036,新余市,市气象局,,42,38,40,28,21,134,134,85,85,4,9,7,8,0.5,0.6
2023-06-14T14:00:00,2357A,116.9822,28.1136,鹰潭市,龙虎山,细颗粒物(PM2.5),65,67,42,47,31,136,132,91,91,5,4,5,3,0.9,1
2023-06-14T14:00:00,2358A,117.0564,28.2642,鹰潭市,新监测站,颗粒物(PM10),55,59,45,37,30,160,160,112,112,6,9,11,9,0.5,0.5
2023-06-14T14:00:00,2359A,117.0311,28.2475,鹰潭市,财苑宾馆,细颗粒物(PM2.5),57,55,46,40,30,156,156,107,107,4,7,14,9,0.5,0.4
2023-06-14T14:00:00,2360A,117.0222,28.2264,鹰潭市,体育馆,细颗粒物(PM2.5),63,51,45,45,29,160,160,113,113,5,10,2,6,0.2,0.3
2023-06-14T14:00:00,2361A,117.0017,28.2131,鹰潭市,三川水表,细颗粒物(PM2.5),54,55,46,38,26,153,153,105,105,7,11,6,4,0.6,0.7
2023-06-14T14:00:00,2362A,114.9017,25.9149,赣州市,通天岩,,,,,,,,,,,,,,,,
2023-06-14T14:00:00,2363A,114.9367,25.8664,赣州市,地委,,31,25,35,12,26,111,99,83,83,5,4,14,10,1.1,1.1
2023-06-14T14:00:00,2364A,114.9461,25.8481,赣州市,气象台,,37,37,34,22,23,124,105,99,86,10,7,7,5,0.7,0.8
2023-06-14T14:00:00,2365A,114.9322,25.8333,赣州市,市图书馆,,30,30,35,16,23,123,96,85,85,12,8,6,7,1.3,1.3
2023-06-14T14:00:00,2366A,114.8905,25.8471,赣州市,华坚鞋城,,32,32,40,14,23,113,87,82,82,6,4,6,5,1.1,1
2023-06-14T14:00:00,2367A,114.9754,27.0803,吉安市,红声器材厂,,46,46,42,29,24,115,115,83,83,5,9,19,16,0.7,0.6
2023-06-14T14:00:00,2368A,114.9658,27.0999,吉安市,市森林工业局,,,,45,,24,103,100,71,70,5,7,9,11,1.0,0.3
2023-06-14T14:00:00,2369A,114.99,27.1312,吉安市,市环境监测站,,47,47,35,30,21,115,115,85,78,7,10,10,9,0.8,0.8
2023-06-14T14:00:00,2370A,115.0093,27.0968,吉安市,青原区法院,,48,44,38,33,26,122,117,88,88,9,13,15,15,0.7,0.5
2023-06-14T14:00:00,2371A,114.3408,27.8064,宜春市,槟榔水业,,38,34,31,26,19,112,106,72,72,4,8,3,5,0.6,0.7
2023-06-14T14:00:00,2373A,114.3956,27.7844,宜春市,市石油公司,,42,42,36,26,22,124,114,83,83,8,15,5,6,0.6,0.7
2023-06-14T14:00:00,2374A,114.3703,27.7914,宜春市,市气象局,,43,43,37,27,22,124,115,80,80,10,18,5,7,0.8,0.8
2023-06-14T14:00:00,2375A,114.4013,27.8074,宜春市,市广电局,,46,46,36,16,21,106,102,85,85,8,13,9,12,0.9,1
2023-06-14T14:00:00,2376A,116.2127,28.0814,抚州市,桐源党溪,臭氧1小时,64,42,39,30,28,171,171,101,101,3,4,5,3,1.2,1.1
2023-06-14T14:00:00,2377A,116.3544,27.9831,抚州市,市站,细颗粒物(PM2.5),63,55,46,45,30,139,133,92,92,6,10,9,12,0.7,0.8
2023-06-14T14:00:00,2378A,116.3565,27.963,抚州市,血防站,颗粒物(PM10),55,59,52,37,30,142,142,97,97,6,10,9,10,0.8,0.8
2023-06-14T14:00:00,2379A,116.3564,28.0007,抚州市,采茶剧团,细颗粒物(PM2.5),57,49,45,40,31,134,134,92,92,8,13,8,11,0.9,1.1
2023-06-14T14:00:00,2380A,116.385,27.9647,抚州市,医学分院,细颗粒物(PM2.5),54,54,42,38,26,144,144,93,93,7,11,7,8,0.9,1
2023-06-14T14:00:00,2381A,118.005,28.4572,上饶市,百草园,细颗粒物(PM2.5),55,42,43,39,32,151,137,88,88,3,4,1,3,0.4,0.4
2023-06-14T14:00:00,2382A,117.9756,28.4436,上饶市,市监测站,细颗粒物(PM2.5),57,56,58,40,39,154,145,97,97,6,10,7,14,0.5,0.5
2023-06-14T14:00:00,2383A,117.9519,28.4628,上饶市,凤凰光学,"颗粒物(PM10),细颗粒物(PM2.5)",54,57,60,38,40,144,144,88,88,6,13,7,14,0.8,0.8
2023-06-14T14:00:00,2385A,114.17,35.9019,鹤壁市,市监测站,臭氧1小时,117,35,48,28,21,233,233,177,177,12,25,11,6,0.4,0.5
2023-06-14T14:00:00,2386A,114.2956,35.7511,鹤壁市,市交警支队,臭氧1小时,117,38,50,13,22,234,234,155,155,50,34,8,8,0.5,0.6
2023-06-14T14:00:00,2387A,114.2878,35.7306,鹤壁市,迎宾馆,臭氧1小时,119,33,40,18,19,237,237,163,163,15,25,12,8,0.6,0.7
2023-06-14T14:00:00,2389A,113.836,35.311,新乡市,环保西院,臭氧1小时,105,42,56,18,27,209,209,141,141,8,30,10,13,0.9,1
2023-06-14T14:00:00,2390A,113.884,35.272,新乡市,开发区,臭氧1小时,106,43,49,17,24,211,211,147,147,7,27,5,9,0.9,1
2023-06-14T14:00:00,2391A,113.883,35.303,新乡市,环保东院,臭氧1小时,104,38,57,5,21,207,207,142,142,8,29,9,10,0.5,0.8
2023-06-14T14:00:00,2392A,115.0312,35.7636,濮阳市,环保局,臭氧1小时,115,,67,18,31,229,229,168,168,9,23,8,8,0.5,0.6
2023-06-14T14:00:00,2394A,115.0574,35.7609,濮阳市,油田运输公司,臭氧1小时,114,58,82,16,35,228,228,164,164,10,21,7,8,0.2,0.4
2023-06-14T14:00:00,2395A,115.0866,35.7754,濮阳市,油田物探公司,臭氧1小时,121,45,70,17,37,241,241,176,176,8,22,6,8,0.3,0.5
2023-06-14T14:00:00,2396A,113.8276,34.0159,许昌市,监测站,臭氧1小时,93,36,57,8,24,226,194,151,151,5,18,3,6,0.2,0.4
2023-06-14T14:00:00,2398A,113.7906,33.9953,许昌市,开发区,臭氧1小时,89,38,61,9,29,230,191,138,138,6,26,4,8,0.3,0.5
2023-06-14T14:00:00,2399A,114.051,33.5699,漯河市,三五一五工厂,臭氧1小时,99,27,55,12,31,216,199,165,165,3,14,8,7,0.3,0.6
2023-06-14T14:00:00,2400A,114.0055,33.5698,漯河市,漯河大学,臭氧1小时,105,31,48,15,29,220,210,162,162,7,20,8,7,0.2,0.4
2023-06-14T14:00:00,2401A,114.0138,33.5828,漯河市,市水利局,臭氧1小时,102,22,49,12,28,213,203,159,159,4,13,8,7,0.3,0.5
2023-06-14T14:00:00,2402A,114.0261,33.5698,漯河市,市广电局,臭氧1小时,105,32,50,19,31,220,209,164,164,2,12,4,4,0.2,0.4
2023-06-14T14:00:00,2404A,112.5224,33.0122,南阳市,瓦房庄,臭氧1小时,78,26,46,19,27,202,182,112,112,7,27,4,4,0.4,0.5
2023-06-14T14:00:00,2405A,112.5003,32.9735,南阳市,汉画馆,臭氧1小时,80,27,48,21,27,200,184,107,107,6,30,4,5,0.5,0.6
2023-06-14T14:00:00,2406A,112.5573,33.027,南阳市,气象站,臭氧1小时,77,33,51,18,23,199,181,120,120,7,26,4,6,0.5,0.6
2023-06-14T14:00:00,2407A,112.5481,32.9689,南阳市,理工学院,臭氧1小时,70,29,51,13,27,208,176,111,111,10,31,4,6,0.3,0.4
2023-06-14T14:00:00,2408A,115.6702,34.4285,商丘市,环境监测站,臭氧1小时,93,14,55,13,27,207,194,152,152,7,22,9,9,0.3,0.5
2023-06-14T14:00:00,2409A,115.6458,34.4045,商丘市,粮食局,臭氧1小时,109,35,57,9,24,218,218,160,160,7,16,7,6,0.4,0.6
2023-06-14T14:00:00,2410A,115.6293,34.3948,商丘市,睢阳区环保局,臭氧1小时,106,25,64,14,29,212,212,146,146,11,27,6,4,0.3,0.5
2023-06-14T14:00:00,2420A,114.0189,32.9656,驻马店市,市一纸厂,臭氧1小时,100,22,36,12,20,208,200,166,166,1,11,3,4,0.3,0.4
2023-06-14T14:00:00,2421A,114.0114,33.015,驻马店市,市彩印厂,臭氧1小时,100,34,45,25,24,203,200,162,162,2,9,7,6,0.2,0.3
2023-06-14T14:00:00,2422A,113.9976,32.9771,驻马店市,天方二分厂,,,22,36,18,26,206,197,158,158,2,8,,5,,0.4
2023-06-14T14:00:00,2423A,115.0601,30.2313,黄石市,沈家营,臭氧1小时,88,42,47,16,22,190,190,111,111,7,26,6,10,0.4,0.6
2023-06-14T14:00:00,2424A,115.0817,30.2006,黄石市,陈家湾,臭氧1小时,93,34,45,20,23,194,194,124,124,6,14,7,7,0.4,0.5
2023-06-14T14:00:00,2426A,114.8988,30.2019,黄石市,铁山,臭氧1小时,111,44,46,33,25,221,221,125,125,6,20,11,10,0.9,0.7
2023-06-14T14:00:00,2427A,115.0307,30.2092,黄石市,团城山,臭氧1小时,92,33,41,13,17,193,193,121,121,4,16,7,9,0.4,0.5
2023-06-14T14:00:00,2428A,111.0419,32.395,十堰市,武当山,,37,25,16,8,10,146,118,133,118,7,7,11,11,0.7,0.6
2023-06-14T14:00:00,2429A,110.78,32.6494,十堰市,滨河新村,,44,26,34,22,20,147,140,82,82,2,11,4,5,0.6,0.7
2023-06-14T14:00:00,2430A,110.7258,32.6389,十堰市,刘家沟,,41,24,27,11,14,158,129,82,82,2,6,8,8,0.4,0.4
2023-06-14T14:00:00,2431A,110.8839,32.5714,十堰市,铁二处,臭氧1小时,98,43,27,16,13,198,198,124,124,10,7,7,7,0.7,0.6
2023-06-14T14:00:00,2432A,112.155,32.0197,襄阳市,襄城运动路,臭氧1小时,98,38,42,17,20,198,198,116,116,7,19,10,10,0.6,0.7
