timepoint,stationcode,longitude,latitude,area,positionname,primarypollutant,aqi,pm10,pm10_24h,pm2_5,pm2_5_24h,o3,o3_24h,o3_8h,o3_8h_24h,no2,no2_24h,so2,so2_24h,co,co_24h
2025-08-18T2100,2566A,102.1879,31.914,阿坝藏族羌族自治州,州农科所,,25,14,17,10,7,77,,86,85,2,5,14,19,0,0.1
2025-08-18T2100,2568A,102.2502,31.8896,阿坝藏族羌族自治州,马师校,,46,,16,32,18,78,,83,82,3,6,7,7,0.5,0.5
2025-08-18T2100,3994A,102.2165,31.9024,阿坝藏族羌族自治州,马尔康中学西区,,25,22,15,12,12,79,,94,92,4,4,8,8,0.5,0.5
2025-08-18T2100,2695A,80.292,41.1694,阿克苏地区,电视台,,35,35,45,16,25,94,,90,90,6,5,6,6,0.5,0.5
2025-08-18T2100,2696A,80.2613,41.1551,阿克苏地区,艺术中心,,32,31,53,15,29,100,,98,98,11,7,5,4,0.5,0.5
2025-08-18T2100,2204A,105.6467,38.8363,阿拉善盟,西城区西花园,颗粒物(PM10),67,84,44,30,16,145,,132,132,8,12,9,9,0.7,0.7
2025-08-18T2100,2205A,105.6985,38.8411,阿拉善盟,蒙二幼,颗粒物(PM10),134,217,58,42,15,128,,118,118,3,5,10,11,0.6,0.6
2025-08-18T2100,2206A,105.724,38.8516,阿拉善盟,环保局新楼,颗粒物(PM10),94,138,34,33,13,133,,115,115,5,5,10,10,0.6,0.5
2025-08-18T2100,2708A,88.1264,47.8517,阿勒泰地区,市站,,29,18,29,3,5,91,,98,98,9,12,2,3,0.4,0.4
2025-08-18T2100,2630A,80.1161,32.5,阿里地区,阿里监测站,,30,6,5,3,2,96,,92,92,3,5,7,5,0.2,0.2
2025-08-18T2100,3192A,80.0903,32.5028,阿里地区,阿里藏医院,,,,5,,0,,,,,,2,,5,,0.2
2025-08-18T2100,2642A,109.0318,32.6537,安康市,香溪洞,,23,23,23,8,13,72,,97,93,6,6,8,8,0.4,0.4
2025-08-18T2100,2644A,109.0072,32.6975,安康市,汉滨区检察院,,32,32,25,10,9,47,,82,76,13,8,5,5,0.5,0.4
2025-08-18T2100,4054A,109.0325,32.6913,安康市,市邮政管理局,,36,36,24,12,10,52,,78,72,10,7,6,7,0.6,0.6
2025-08-18T2100,2291A,117.0809,30.5177,安庆市,环科院,,26,26,28,11,17,74,,101,88,23,19,5,8,0.5,0.7
2025-08-18T2100,2292A,117.0331,30.5119,安庆市,马山宾馆,,25,23,29,16,20,77,,106,97,16,17,5,7,0.4,0.6
2025-08-18T2100,2294A,116.9896,30.6145,安庆市,安庆大学,,38,38,26,18,16,70,,120,98,16,14,4,4,0.4,0.5
2025-08-18T2100,3173A,117.0598,30.5351,安庆市,市人大,,21,21,25,12,17,62,,107,93,37,14,5,5,0.5,0.6
2025-08-18T2100,3122A,105.9606,26.2611,安顺市,伍家关,,19,15,12,7,7,58,,76,71,8,10,22,9,0.6,0.6
2025-08-18T2100,3123A,105.9408,26.2431,安顺市,凤凰山,,35,,19,24,16,53,,71,66,7,12,26,11,0.4,0.5
2025-08-18T2100,3124A,105.9439,26.2564,安顺市,金钟山,,23,20,15,16,12,57,,74,70,6,7,22,10,0.5,0.5
2025-08-18T2100,3125A,105.8983,26.2481,安顺市,娄家坡,,28,21,14,19,12,47,,68,63,9,8,22,10,0.5,0.5
2025-08-18T2100,1818A,114.4839,36.0621,安阳市,棉研所,,,,,,,,,,,,,,,,
2025-08-18T2100,1819A,114.3551,36.1017,安阳市,红庙街,,36,31,37,14,16,113,,135,131,9,10,5,6,0.3,0.3
2025-08-18T2100,1820A,114.361,36.0681,安阳市,银杏小区,,36,36,40,14,20,114,,140,136,12,13,5,5,0.4,0.5
2025-08-18T2100,3141A,114.3922,36.0878,安阳市,信访局,,39,39,36,14,18,121,,150,147,8,8,5,5,0.6,0.6
2025-08-18T2100,3669A,114.4705,36.0637,安阳市,左辅环卫站,,37,37,32,11,17,91,,137,130,13,13,7,7,0.8,0.8
2025-08-18T2100,3703A,114.2917,36.0949,安阳市,安钢职工学校,,36,36,48,12,22,110,,138,134,6,10,3,5,0.8,0.8
2025-08-18T2100,1748A,123.044,41.1196,鞍山市,深沟寺,,27,27,28,15,15,70,,110,102,19,13,8,9,1.0,1.1
2025-08-18T2100,1749A,123.011,41.0931,鞍山市,太阳城,,31,31,29,14,15,71,,105,100,19,14,8,9,0.9,1.2
2025-08-18T2100,1750A,123.0485,41.1442,鞍山市,太平,,29,29,36,16,18,74,,105,97,17,16,8,9,1.0,1
2025-08-18T2100,1751A,122.9642,41.0971,鞍山市,铁西三道街,,27,27,41,16,23,74,,100,93,14,23,6,9,1.0,1.5
2025-08-18T2100,1753A,123.022,41.0821,鞍山市,明达新区,,27,27,28,12,13,76,,97,93,13,13,9,10,1.0,1.1
2025-08-18T2100,1754A,123.1289,41.0228,鞍山市,千山,,,,,,,,,,,,,,,,
2025-08-18T2100,4201A,122.9446,41.0826,鞍山市,兴盛南路290号,,27,27,37,12,18,70,,100,92,18,27,7,11,0.9,1.4
2025-08-18T2100,2195A,107.4212,40.761,巴彦淖尔市,附二中,,29,26,30,20,18,91,,95,93,7,7,6,8,0.6,0.7
2025-08-18T2100,2196A,107.37,40.7372,巴彦淖尔市,市环保大楼,,29,27,32,13,15,91,,86,84,11,9,6,7,0.2,0.3
2025-08-18T2100,1956A,86.1472,41.7538,巴音郭楞蒙古自治州,孔雀公园,,46,46,66,21,20,101,,105,105,8,8,4,4,0.3,0.2
2025-08-18T2100,1957A,86.1972,41.7166,巴音郭楞蒙古自治州,棉纺厂,,45,45,63,3,12,99,,110,105,6,4,4,4,0.2,0.2
2025-08-18T2100,1958A,86.2357,41.7173,巴音郭楞蒙古自治州,经济开发区,,39,39,43,8,9,100,,116,108,11,4,4,4,0.2,0.2
2025-08-18T2100,2914A,106.7677,31.8794,巴中市,苏山坪,,30,,13,20,11,96,,89,89,5,5,4,4,0.4,0.4
2025-08-18T2100,3181A,106.7768,31.8526,巴中市,市五中,,27,27,20,11,11,69,,91,89,18,10,6,6,0.5,0.4
2025-08-18T2100,3183A,106.7418,31.8654,巴中市,圣泉水务公司,,22,21,16,15,10,62,,94,90,15,5,5,6,0.6,0.5
2025-08-18T2100,3616A,106.7616,31.8344,巴中市,市中心医院,,,24,17,7,12,,,90,90,15,11,5,6,0.4,0.3
2025-08-18T2100,2235A,122.7911,45.6077,白城市,洮北区环保局,,22,19,12,6,19,69,,76,76,8,5,7,6,0.3,0.3
2025-08-18T2100,2236A,122.8738,45.5725,白城市,市环保局,,31,31,15,16,8,55,,71,70,17,7,4,3,0.4,0.4
2025-08-18T2100,2231A,126.4219,41.9171,白山市,喜丰,,20,20,29,14,6,20,,48,44,16,13,6,8,0.5,0.5
2025-08-18T2100,2232A,126.4077,41.9419,白山市,环保局,,34,34,21,13,8,16,,54,46,14,11,5,6,0.7,0.6
2025-08-18T2100,2647A,104.1724,36.5446,白银市,第三小学,,34,34,27,18,13,100,,134,100,8,12,8,14,0.4,0.4
2025-08-18T2100,2648A,104.1465,36.5482,白银市,动力公司,,42,42,21,16,11,102,,102,102,7,10,6,6,0.4,0.5
2025-08-18T2100,2512A,106.6103,23.9011,百色市,市监测站,,11,6,16,3,6,35,,51,44,6,10,5,5,0.4,0.4
2025-08-18T2100,2513A,106.6538,23.8859,百色市,市中心血站,,12,12,19,8,9,31,,56,44,14,16,6,4,0.6,0.5
2025-08-18T2100,3406A,106.6085,23.8798,百色市,祈福高中,,,,20,6,8,25,,48,40,13,12,4,4,0.6,0.6
2025-08-18T2100,2270A,117.396,32.939,蚌埠市,工人疗养院,,39,34,40,10,14,122,,134,127,4,7,3,5,0.3,0.3
2025-08-18T2100,2271A,117.3605,32.9427,蚌埠市,百货大楼,,39,30,30,15,16,122,,130,126,6,8,6,6,0.5,0.5
2025-08-18T2100,2273A,117.4185,32.8911,蚌埠市,蚌埠学院,,41,41,31,20,18,107,,129,119,7,7,6,7,0.4,0.4
2025-08-18T2100,2274A,117.3533,32.9673,蚌埠市,淮上区政府,,44,34,32,23,18,138,,144,140,6,9,5,6,0.6,0.6
2025-08-18T2100,2275A,117.3145,32.8977,蚌埠市,高新区,,38,34,34,20,17,120,,140,132,11,10,8,7,0.6,0.6
2025-08-18T2100,3715A,117.3092,32.9314,蚌埠市,蚌埠田家炳中学,,42,41,38,18,17,133,,144,140,8,9,11,11,0.4,0.4
2025-08-18T2100,1585A,109.8756,40.6532,包头市,市环境监测站,,21,15,25,14,14,66,,111,106,30,19,3,8,0.6,0.6
2025-08-18T2100,1587A,109.9991,40.5842,包头市,包头八中,,22,22,33,14,18,69,,106,102,23,23,6,16,0.6,0.8
2025-08-18T2100,1588A,109.8538,40.6821,包头市,青山宾馆,,24,,25,13,15,74,,119,113,32,22,2,5,0.5,0.7
2025-08-18T2100,1589A,109.8642,40.6288,包头市,惠龙物流,,25,25,27,11,17,69,,106,103,20,12,6,8,0.6,0.7
2025-08-18T2100,1590A,110.0377,40.5546,包头市,东河鸿龙湾,,25,16,26,7,13,77,,113,111,17,19,4,6,0.6,0.6
2025-08-18T2100,3283A,109.9154,40.5685,包头市,滨河大厦,,25,18,25,8,17,80,,116,113,13,15,4,5,0.5,0.5
2025-08-18T2100,3419A,109.9447,40.6261,包头市,包头市委党校,,25,15,26,9,18,78,,116,112,18,19,5,13,0.4,0.6
2025-08-18T2100,3683A,109.8331,40.6576,包头市,昆区政府,,26,26,30,16,15,76,,116,112,25,16,4,8,0.7,0.7
2025-08-18T2100,1930A,107.185,34.3063,宝鸡市,庙沟村,,23,12,10,3,5,73,,79,74,6,7,4,5,0.2,0.2
2025-08-18T2100,1931A,107.0708,34.3017,宝鸡市,竹园沟,,19,18,15,3,11,59,,73,68,4,8,8,8,0.2,0.6
2025-08-18T2100,1932A,107.1906,34.3672,宝鸡市,三陆医院,,20,16,21,13,8,61,,82,68,15,20,7,9,0.4,0.5
2025-08-18T2100,1933A,107.1431,34.3547,宝鸡市,监测站,,21,,21,9,9,67,,77,69,6,12,8,8,0.2,0.4
2025-08-18T2100,1934A,107.1186,34.3739,宝鸡市,技工学校,,,,21,7,9,67,,82,70,9,10,5,6,0.4,0.5
2025-08-18T2100,1936A,107.2058,34.3497,宝鸡市,文理学院,,20,15,19,3,7,61,,82,71,14,14,7,8,0.4,0.4
2025-08-18T2100,1937A,107.2386,34.3622,宝鸡市,三迪小学,,,,29,,10,,,91,78,15,19,4,6,0.3,0.4
2025-08-18T2100,4308A,107.3898,34.3601,宝鸡市,陈仓区北开路21号,,22,9,10,3,8,70,,122,107,6,12,4,6,0.4,0.4
2025-08-18T2100,1051A,115.493,38.8632,保定市,游泳馆,,48,48,32,25,22,87,,103,101,18,19,7,6,0.0,0.1
2025-08-18T2100,1052A,115.5213,38.8959,保定市,华电二区,,38,38,35,26,18,107,,122,120,9,13,2,2,0.6,0.6
2025-08-18T2100,1053A,115.4713,38.9108,保定市,接待中心,,39,39,36,24,17,109,,116,115,12,17,2,2,0,0
2025-08-18T2100,1054A,115.4612,38.8416,保定市,地表水厂,颗粒物(PM10),53,55,46,25,16,80,,108,105,22,16,3,4,0.6,0.5
2025-08-18T2100,3581A,115.31981,38.95208,保定市,满城区生态环境分局,细颗粒物(PM2.5),55,58,45,39,23,79,,109,103,15,17,2,2,0.2,0.2
2025-08-18T2100,3582A,115.47694,38.76408,保定市,清苑区第二中学,颗粒物(PM10),52,54,34,28,15,76,,111,106,19,10,3,3,0.5,0.4
2025-08-18T2100,3583A,115.62909,39.02311,保定市,徐水物探局,颗粒物(PM10),57,64,41,19,7,89,,121,115,18,12,7,8,0.5,0.4
2025-08-18T2100,4004A,115.4202,38.8656,保定市,双鹰农机,颗粒物(PM10),51,52,39,29,19,90,,112,109,13,16,4,4,0.4,0.3
2025-08-18T2100,4034A,115.5150,38.8590,保定市,植保所站,,41,41,33,23,17,90,,125,121,15,13,3,2,0.3,0.2
2025-08-18T2100,2594A,99.1678,25.1081,保山市,市环境监测站,,29,,16,20,13,56,,66,63,5,6,9,8,0.4,0.4
2025-08-18T2100,2595A,99.1711,25.1328,保山市,市环保局,,19,15,16,9,10,60,,69,67,2,4,7,6,0.4,0.4
2025-08-18T2100,1866A,109.2262,21.588,北海市,牛尾岭水库,,9,6,8,3,5,26,,39,32,6,4,3,2,0.6,0.4
2025-08-18T2100,1867A,109.1436,21.4086,北海市,海滩公园,,,,14,2,4,45,,50,44,4,7,3,5,0.4,0.5
2025-08-18T2100,1868A,109.0981,21.4661,北海市,新市环保局,,,10,14,9,10,,,50,38,6,9,2,5,0.3,0.3
2025-08-18T2100,1869A,109.1778,21.5233,北海市,北海工业园,,13,13,17,3,9,34,,49,34,7,9,4,7,0.5,0.5
2025-08-18T2100,3400A,109.1911,21.4415,北海市,龙潭自来水厂,,14,9,14,3,7,42,,43,40,4,7,7,9,0.4,0.4
2025-08-18T2100,1001A,116.3621,39.8784,北京市,万寿西宫,,36,36,34,24,23,111,,124,124,3,6,2,3,0.6,0.6
2025-08-18T2100,1002A,116.2202,40.2915,北京市,定陵,,31,31,42,17,28,46,,132,115,4,6,2,2,0.4,0.6
2025-08-18T2100,1003A,116.4174,39.9289,北京市,东四,,37,28,32,20,23,118,,135,134,14,14,2,5,0.7,0.7
2025-08-18T2100,1004A,116.4072,39.8863,北京市,天坛,,30,30,33,20,22,71,,116,106,6,6,3,4,0.6,0.6
2025-08-18T2100,1005A,116.462,39.9365,北京市,农展馆,,47,47,25,20,24,111,,127,126,15,15,3,4,0.7,0.8
2025-08-18T2100,1006A,116.3392,39.9295,北京市,官园,,40,,31,28,16,120,,130,130,11,11,5,6,0.6,0.6
2025-08-18T2100,1007A,116.2878,39.9611,北京市,海淀万柳,,37,37,32,23,22,109,,121,120,13,12,3,4,0.4,0.5
2025-08-18T2100,1008A,116.6636,40.135,北京市,顺义新城,,,,,,,,,,,,,,,,
2025-08-18T2100,1009A,116.6275,40.3275,北京市,怀柔镇,,34,34,38,23,28,77,,136,133,14,15,3,3,0.7,0.8
2025-08-18T2100,1010A,116.2296,40.217,北京市,昌平镇,,34,34,40,17,26,73,,125,117,10,15,4,4,0.7,0.8
2025-08-18T2100,1011A,116.3966,39.9821,北京市,奥体中心,,38,32,30,21,21,119,,123,123,9,9,4,4,0.6,0.7
2025-08-18T2100,3281A,115.9718,40.4529,北京市,延庆夏都,,32,32,35,21,24,95,,116,112,8,8,3,3,0.6,0.7
2025-08-18T2100,3418A,116.8336,40.4095,北京市,密云新城,,28,28,38,18,24,43,,111,105,8,9,1,2,0.6,0.6
2025-08-18T2100,3671A,116.088,39.9726,北京市,门头沟三家店,,41,41,43,24,24,51,,118,104,17,16,2,3,0.8,0.8
2025-08-18T2100,3672A,116.1541,39.8204,北京市,丰台云岗,,42,39,39,29,27,84,,118,113,12,11,4,4,0.6,0.6
2025-08-18T2100,3673A,116.6804,39.9081,北京市,通州东关,,32,31,39,17,26,101,,120,120,14,16,3,6,0.6,0.7
2025-08-18T2100,3674A,115.9577,39.7603,北京市,房山燕山,,38,35,40,26,31,73,,110,106,8,10,3,3,0.5,0.6
2025-08-18T2100,3675A,116.4672,39.7733,北京市,大兴旧宫,,29,29,35,18,25,77,,119,114,12,10,2,3,0.7,0.7
2025-08-18T2100,3694A,115.986,40.4563,北京市,延庆石河营,,29,28,33,20,24,76,,103,97,6,7,1,1,0.5,0.6
2025-08-18T2100,3695A,116.6151,40.3053,北京市,怀柔新城,,31,31,40,21,29,79,,122,119,6,11,2,4,0.7,0.8
2025-08-18T2100,3696A,116.2545,39.8768,北京市,丰台小屯,,38,37,34,26,26,88,,111,109,15,13,2,2,0.7,0.7
2025-08-18T2100,3697A,116.84,40.3844,北京市,密云镇,,39,36,35,27,25,71,,118,115,23,9,4,5,0.7,0.7
2025-08-18T2100,4182A,116.1942,39.9158,北京市,八角北路9号,,42,42,43,21,24,98,,132,129,13,10,3,2,0.6,0.4
2025-08-18T2100,4194A,117.0790,40.1518,北京市,洳河巡河路,,47,47,38,31,25,56,,114,109,28,8,3,3,0.7,0.6
2025-08-18T2100,1761A,123.8275,41.3064,本溪市,大峪,,21,21,20,8,6,40,,81,70,12,12,4,5,0.3,0.3
2025-08-18T2100,1762A,123.7567,41.3325,本溪市,溪湖,颗粒物(PM10),63,75,38,14,13,46,,101,95,12,12,8,9,1.1,1
2025-08-18T2100,1763A,123.7169,41.3094,本溪市,彩屯,,35,35,27,18,15,30,,92,83,28,18,8,10,0.9,1
2025-08-18T2100,1764A,123.7669,41.2864,本溪市,东明,,20,14,22,8,9,64,,81,76,14,15,5,5,0.7,0.7
2025-08-18T2100,1765A,123.7992,41.2664,本溪市,新立屯,,11,10,15,7,6,34,,74,53,20,12,4,4,0.8,0.8
2025-08-18T2100,1766A,123.8142,41.3472,本溪市,威宁,,22,22,29,8,11,31,,68,59,11,12,9,9,0.4,0.7
2025-08-18T2100,2587A,105.2864,27.3125,毕节市,八中,,36,33,21,25,19,62,,80,78,10,11,9,6,0.4,0.5
2025-08-18T2100,2588A,105.31,27.2944,毕节市,师专,,30,27,23,21,14,65,,84,82,12,13,13,7,0.5,0.7
2025-08-18T2100,4263A,105.3688,27.3598,毕节市,工业大道,,23,23,23,16,14,71,,88,86,12,15,7,8,0.6,0.6
2025-08-18T2100,1629A,118.0018,37.3617,滨州市,第二水厂,,42,31,18,29,12,92,,106,106,15,13,3,3,0.7,0.5
2025-08-18T2100,1630A,117.9776,37.393,滨州市,北中新校,,36,36,21,24,10,102,,106,106,18,17,4,5,0.8,0.5
2025-08-18T2100,3514A,117.9378,37.3956,滨州市,中海酒店,,36,36,16,22,10,108,,111,111,11,10,3,2,1.1,0.5
2025-08-18T2100,3515A,117.9378,37.3553,滨州市,开发区一中,,32,29,18,17,11,102,,119,119,17,15,5,6,0.8,0.5
2025-08-18T2100,3516A,118.0917,37.694,滨州市,金海六路,,29,29,15,17,6,79,,98,98,13,21,3,3,0.4,0.3
2025-08-18T2100,4028A,117.9956,37.3753,滨州市,滨州市西街道办事处,,39,,11,27,11,95,,114,114,16,14,1,2,0.5,0.3
2025-08-18T2100,2311A,115.8072,33.8399,亳州市,污水处理厂,,37,35,19,16,10,116,,136,131,13,10,4,4,0.6,0.6
2025-08-18T2100,2312A,115.7789,33.8518,亳州市,三国揽胜宫,,43,37,27,16,12,135,,137,137,7,7,3,3,0.7,0.6
2025-08-18T2100,3332A,115.7633,33.8034,亳州市,亳州学院,,37,24,20,14,10,116,,132,130,8,7,2,2,0.5,0.4
2025-08-18T2100,2693A,82.0485,44.8556,博尔塔拉蒙古自治州,市党校,,33,,19,22,15,103,,103,103,11,7,2,3,0.2,0.2
2025-08-18T2100,2694A,82.0806,44.8969,博尔塔拉蒙古自治州,市环保局,,33,18,30,10,12,103,,96,96,9,8,5,4,0.2,0.3
2025-08-18T2100,1071A,116.8842,38.2991,沧州市,沧县城建局,,35,35,27,18,9,65,,108,106,31,16,3,3,0.4,0.3
2025-08-18T2100,1072A,116.8584,38.3254,沧州市,电视转播站,,45,45,38,14,9,76,,96,96,17,17,3,2,0.2,0.3
2025-08-18T2100,1073A,116.8709,38.3228,沧州市,市环保局,,41,41,32,22,12,76,,105,105,19,14,3,3,0.4,0.3
2025-08-18T2100,3324A,116.8136,38.3004,沧州市,河北水利电力学院,,31,22,12,10,10,99,,115,115,10,9,3,3,0.3,0.2
2025-08-18T2100,2622A,97.1806,31.1273,昌都市,昌都监测站,,19,,14,9,8,59,,73,67,9,6,5,5,0.3,0.2
2025-08-18T2100,3719A,97.1714,31.1406,昌都市,昌都会议中心,,21,12,13,7,7,67,,77,73,6,5,3,3,0.1,0.1
2025-08-18T2100,2690A,88.1236,43.8886,昌吉回族自治州,天山天池,,24,24,22,10,10,68,,103,89,5,7,3,4,0.6,0.6
2025-08-18T2100,2692A,87.2717,44.0297,昌吉回族自治州,新区政务中心,,,,30,,9,,,81,,,16,,10,,0.4
2025-08-18T2100,3613A,87.3095,44.0142,昌吉回族自治州,亚心广场,,48,48,42,7,8,90,,92,91,12,20,7,9,0.3,0.3
2025-08-18T2100,1120A,125.2863,43.9027,长春市,客车厂,颗粒物(PM10),55,60,30,38,13,31,,98,65,61,31,3,6,1.0,0.5
2025-08-18T2100,1121A,125.2841,43.8463,长春市,邮电学院,,45,45,23,21,7,59,,97,85,26,18,5,6,0.8,0.5
2025-08-18T2100,1122A,125.3716,43.8772,长春市,劳动公园,颗粒物(PM10),53,55,33,31,14,38,,100,80,48,23,8,10,0.7,0.4
2025-08-18T2100,1123A,125.3297,43.8805,长春市,园林处,,50,50,24,21,7,89,,96,89,23,17,4,6,0.8,0.5
2025-08-18T2100,1124A,125.4605,43.79,长春市,净月潭,,33,33,20,22,9,37,,88,72,7,9,4,5,0.6,0.3
2025-08-18T2100,1125A,125.7194,43.515,长春市,甩湾子,,26,26,16,17,9,42,,78,68,12,9,3,3,0.7,0.5
2025-08-18T2100,1126A,125.3863,43.8447,长春市,经开区环卫处,,50,50,31,18,9,37,,97,81,42,27,3,5,0.9,0.5
2025-08-18T2100,1127A,125.245,43.7783,长春市,高新区管委会,,41,41,25,21,8,71,,101,94,21,15,4,5,0.7,0.5
2025-08-18T2100,1128A,125.1761,43.8325,长春市,岱山公园,颗粒物(PM10),73,95,28,29,9,33,,97,80,79,27,3,4,0.6,0.4
2025-08-18T2100,4281A,125.3346,43.9164,长春市,北亚泰大街1068号,颗粒物(PM10),90,130,41,41,15,4,,95,72,87,29,7,9,1.3,0.6
2025-08-18T2100,1335A,113.0833,28.2325,长沙市,经开区环保局,,40,,31,28,17,60,,99,90,16,15,4,5,0.3,0.4
2025-08-18T2100,1336A,112.8872,28.2189,长沙市,高开区环保局,,23,23,33,16,15,73,,115,108,6,12,5,5,0.3,0.3
2025-08-18T2100,1337A,113.0792,28.2053,长沙市,马坡岭,,,29,36,27,17,,,113,106,14,17,5,6,0.5,0.4
2025-08-18T2100,1338A,112.9394,28.19,长沙市,湖南师范大学,,,,29,,17,,,118,108,14,18,3,5,0.2,0.2
2025-08-18T2100,1339A,113.0178,28.1322,长沙市,雨花区环保局,,23,23,30,13,15,62,,112,96,12,11,6,7,0.6,0.6
2025-08-18T2100,1340A,112.9792,28.2597,长沙市,伍家岭,,22,22,34,14,16,70,,115,100,8,17,3,3,0.3,0.3
2025-08-18T2100,1341A,113.0014,28.1944,长沙市,火车新站,,29,29,34,9,14,60,,111,94,14,12,6,7,0.4,0.4
2025-08-18T2100,1342A,112.9844,28.1178,长沙市,天心区环保局,,26,26,27,15,15,65,,112,99,9,11,4,5,0.3,0.3
2025-08-18T2100,1343A,112.8908,28.1308,长沙市,湖南中医药大学,,43,,38,30,23,49,,122,97,20,23,4,5,0.6,0.6
2025-08-18T2100,1344A,112.9581,28.3611,长沙市,沙坪,,26,26,22,16,15,52,,112,98,19,12,4,4,0.4,0.3
2025-08-18T2100,1727A,113.1147,36.1547,长治市,清华站,,44,33,24,19,11,138,,121,121,6,6,7,7,0.6,0.8
2025-08-18T2100,1730A,113.0886,36.2125,长治市,审计局,,44,33,21,19,13,140,,122,122,7,7,5,5,0.6,0.7
2025-08-18T2100,1731A,113.0844,36.1856,长治市,长治八中,,45,38,23,24,20,142,,127,127,6,6,8,8,0.7,0.9
2025-08-18T2100,2845A,113.1569,36.1911,长治市,德盛苑,,40,32,23,24,13,128,,119,119,7,5,6,6,0.6,0.8
2025-08-18T2100,3568A,113.06,36.0464,长治市,向阳小学,颗粒物(PM10),67,83,59,27,24,118,,128,126,13,5,5,3,0.8,0.8
2025-08-18T2100,3569A,112.8792,36.3144,长治市,屯留一中,,40,40,30,27,26,109,,114,114,13,10,7,7,0.5,0.6
2025-08-18T2100,4189A,113.1131,36.19948,长治市,英华南巷50号,,46,33,25,17,13,146,,129,129,7,7,7,6,0.6,0.8
2025-08-18T2100,4190A,113.2367,36.3344,长治市,学府街1号,,,,32,,23,114,,106,102,,9,,4,0.7,0.7
2025-08-18T2100,1854A,111.6975,28.9703,常德市,市二中,,,46,34,24,26,,,109,100,,15,4,8,0.5,0.5
2025-08-18T2100,1857A,111.7158,29.1456,常德市,白鹤山,,,,,,,,,,,,,,,,
2025-08-18T2100,3138A,111.7153,29.0289,常德市,武陵区永安,,35,35,32,24,19,65,,113,102,9,8,4,4,0.3,0.3
2025-08-18T2100,3139A,111.6892,28.9881,常德市,鼎城区玉霞,,48,45,38,33,25,67,,111,102,13,14,4,7,0.5,0.5
2025-08-18T2100,3140A,111.6625,29.0531,常德市,武陵区长庚,,32,24,30,22,21,78,,120,109,6,10,5,6,0.5,0.6
2025-08-18T2100,1196A,119.9633,31.762,常州市,市监测站,,46,,25,32,16,142,,135,135,13,11,10,10,0.4,0.3
2025-08-18T2100,1200A,119.9468,31.7069,常州市,武进监测站,,46,30,23,29,13,146,,129,129,10,8,8,9,0.9,0.9
2025-08-18T2100,1201A,119.9255,31.9087,常州市,安家,,32,32,29,22,13,74,,129,109,24,12,9,9,0.8,0.8
2025-08-18T2100,3002A,119.9805,31.8174,常州市,行政中心,,,46,28,20,13,133,,122,122,15,12,8,8,,0.5
2025-08-18T2100,3003A,120.0522,31.7748,常州市,经开区,,48,48,34,28,13,141,,120,120,16,13,6,7,0.7,0.8
2025-08-18T2100,3010A,119.9025,31.7964,常州市,钟楼,,44,,28,23,11,140,,126,126,12,10,6,6,0.4,0.4
2025-08-18T2100,3429A,119.8598,31.7066,常州市,武进经发区,,40,37,27,22,16,128,,130,130,17,8,17,9,0.8,0.7
2025-08-18T2100,3430A,119.5826,31.7245,常州市,金坛城区,,,43,23,27,19,,,156,156,14,9,11,9,0.7,0.4
2025-08-18T2100,2220A,120.4318,41.5881,朝阳市,西梁,,45,45,33,24,16,78,,113,106,25,19,17,9,1.7,0.8
2025-08-18T2100,2221A,120.4521,41.5646,朝阳市,河畔小区,,36,36,30,20,12,89,,117,111,14,16,7,8,0.8,0.6
2025-08-18T2100,2222A,120.4176,41.5648,朝阳市,八里堡,,,57,41,29,14,,,112,106,23,22,12,8,1.4,0.7
2025-08-18T2100,2223A,120.3806,41.5969,朝阳市,农业园区,,35,28,26,24,17,70,,114,101,12,14,7,8,0.7,0.6
2025-08-18T2100,1705A,116.6367,23.6719,潮州市,西园路,,20,20,14,3,10,41,,52,47,6,7,3,4,0.3,0.2
2025-08-18T2100,3026A,116.6183,23.6608,潮州市,市政府,,17,17,15,7,8,38,,52,44,5,7,8,8,0.3,0.3
2025-08-18T2100,4036A,116.6461,23.6761,潮州市,金山,,18,12,17,12,16,39,,51,45,5,5,5,4,0.4,0.4
2025-08-18T2100,2472A,113.0073,25.9061,郴州市,马头岭,,15,15,24,3,8,18,,52,31,9,13,5,5,0.3,0.4
2025-08-18T2100,2473A,113.0116,25.8226,郴州市,市职中,,13,12,19,9,12,24,,59,35,5,11,3,4,0.4,0.5
2025-08-18T2100,2475A,113.0383,25.8071,郴州市,市审计局,,10,9,14,3,7,31,,61,40,5,9,4,6,0.3,0.4
2025-08-18T2100,2476A,113.0348,25.7759,郴州市,市环保局,,9,7,16,6,8,18,,53,35,11,10,2,2,0.2,0.3
2025-08-18T2100,4252A,113.0138,25.8011,郴州市,好美居路49号,,9,7,18,3,11,27,,58,38,7,11,5,6,0.3,0.4
2025-08-18T2100,1431A,103.9728,30.7236,成都市,金泉两河,,30,30,17,3,8,75,,145,138,20,13,2,2,0.6,0.6
2025-08-18T2100,1432A,104.176,30.6872,成都市,十里店,,44,36,24,27,14,140,,180,180,14,13,2,4,0.7,0.6
2025-08-18T2100,1433A,104.079,30.5706,成都市,三瓦窑,,45,37,22,21,14,141,,176,176,20,20,2,2,0.5,0.5
2025-08-18T2100,1434A,104.1114,30.63,成都市,沙河铺,,40,30,27,12,13,125,,164,164,17,13,3,2,0.8,0.6
2025-08-18T2100,1437A,104.0786,30.6531,成都市,君平街,,37,27,27,21,15,116,,182,176,16,11,6,6,0.7,0.7
2025-08-18T2100,1438A,103.613,31.0283,成都市,灵岩寺,,,,,,,,,,,,,,,,
2025-08-18T2100,2880A,104.0239,30.65639,成都市,大石西路,,32,29,26,13,15,100,,154,148,20,18,4,4,0.7,0.7
2025-08-18T2100,3136A,104.2725,30.5589,成都市,龙泉驿区区政府,,46,19,12,3,6,145,,195,194,20,13,5,5,0.5,0.5
2025-08-18T2100,3357A,104.0106,30.6931,成都市,金博路,,,25,16,10,9,,,154,154,23,17,4,4,0.7,0.6
2025-08-18T2100,3359A,104.0578,30.5225,成都市,华阳,,36,24,17,14,10,114,,166,163,24,18,4,4,0.6,0.6
2025-08-18T2100,3488A,104.3853,30.7453,成都市,青白江技师分院,,32,12,23,3,13,102,,178,174,28,19,8,7,0.7,0.6
2025-08-18T2100,3489A,104.0789,30.4072,成都市,科学城,,32,17,11,9,6,100,,152,148,16,11,4,3,0.5,0.5
2025-08-18T2100,4011A,103.8506,30.6947,成都市,光华大道三段,,38,38,21,18,10,89,,141,124,18,13,5,5,0.6,0.6
2025-08-18T2100,4224A,104.2433,30.5353,成都市,鲸龙路1057号,,46,29,19,17,12,145,,188,188,30,17,4,3,0.6,0.5
2025-08-18T2100,1062A,117.9531,40.9081,承德市,铁路,细颗粒物(PM2.5),58,53,35,41,19,29,,101,84,20,13,4,4,0.7,0.5
2025-08-18T2100,1063A,117.9392,40.9763,承德市,中国银行,,48,41,32,33,20,30,,92,81,15,12,1,3,0.6,0.5
2025-08-18T2100,1064A,117.9503,40.928,承德市,开发区,,41,41,33,21,14,39,,100,86,17,14,10,7,0.7,0.6
2025-08-18T2100,1066A,117.9268,41.0026,承德市,离宫,,40,40,26,19,8,23,,78,60,5,7,3,3,0.4,0.4
2025-08-18T2100,4274A,117.7994,40.9605,承德市,滨河大街98号,,42,42,31,26,19,31,,90,75,5,12,3,10,0.4,0.5
2025-08-18T2100,2314A,117.47,30.6618,池州市,池州学院,,43,43,29,23,14,80,,115,108,16,12,6,7,0.5,0.6
2025-08-18T2100,3237A,117.4918,30.6617,池州市,展览馆,,44,44,26,23,14,72,,119,104,12,9,6,6,0.6,0.6
2025-08-18T2100,3333A,117.5627,30.695,池州市,第八中学,,32,32,28,12,13,94,,122,114,10,7,5,6,0.4,0.4
2025-08-18T2100,3334A,117.5038,30.6243,池州市,第十二中学,细颗粒物(PM2.5),63,53,28,45,17,43,,118,104,29,17,4,4,0.8,0.8
2025-08-18T2100,1744A,118.9233,42.2816,赤峰市,松山一中,,26,26,22,13,10,79,,114,105,10,16,5,6,0.7,0.6
2025-08-18T2100,1745A,118.9576,42.2728,赤峰市,哈达街,,42,42,26,16,10,74,,102,95,15,14,13,11,0.6,0.6
2025-08-18T2100,1746A,118.8788,42.2554,赤峰市,天义路,,24,20,20,15,14,74,,106,97,15,12,15,12,0.6,0.4
2025-08-18T2100,3058A,119.2658,42.0353,赤峰市,银河街,颗粒物(PM10),51,52,38,26,20,62,,99,88,17,13,9,19,0.6,0.6
2025-08-18T2100,3286A,118.9359,42.3147,赤峰市,桥北物流园区,,25,21,23,17,15,59,,98,84,24,16,10,11,0.7,0.7
2025-08-18T2100,2521A,107.3476,22.4136,崇左市,市环保局江州分局,,10,6,22,6,10,30,,59,55,14,10,8,7,0.6,0.6
2025-08-18T2100,4256A,107.3750,22.3736,崇左市,石景林东路7号,,14,,20,8,12,42,,64,60,7,10,4,4,0.4,0.4
2025-08-18T2100,2298A,118.3093,32.3153,滁州市,老年大学,,39,39,33,19,16,78,,128,104,22,11,6,7,0.3,0.3
2025-08-18T2100,2299A,118.3244,32.2786,滁州市,人大宾馆,,29,29,22,20,21,84,,137,115,17,5,4,5,0.3,0.3
2025-08-18T2100,3207A,118.3118,32.3038,滁州市,市政府原办公楼,,33,32,31,23,24,85,,126,98,16,9,6,7,0.4,0.3
2025-08-18T2100,3331A,118.3267,32.2634,滁州市,图书馆,,42,,24,29,21,74,,140,119,22,7,10,10,0.3,0.2
2025-08-18T2100,2605A,101.5482,25.0441,楚雄彝族自治州,州环境监测站,,17,16,17,8,11,53,,72,68,5,13,4,4,0.4,0.5
2025-08-18T2100,2606A,101.538,25.0492,楚雄彝族自治州,市经济开发区,,29,29,28,13,12,48,,69,65,10,14,6,7,0.6,0.6
2025-08-18T2100,2548A,107.5277,31.2827,达州市,达州职业技术学院,颗粒物(PM10),54,58,31,16,4,19,,93,79,46,15,7,8,0.5,0.6
2025-08-18T2100,2549A,107.5086,31.2186,达州市,市环境监测站,,35,35,28,14,4,29,,80,69,48,25,6,7,0.5,0.3
2025-08-18T2100,2550A,107.4988,31.2132,达州市,凤凰小区,,34,34,22,19,7,36,,91,83,43,18,2,2,0.5,0.3
2025-08-18T2100,2551A,107.5082,31.1986,达州市,达县机关宾馆,颗粒物(PM10),53,56,24,30,7,17,,90,75,56,23,5,5,0.6,0.4
2025-08-18T2100,2552A,107.4644,31.2124,达州市,市政中心,颗粒物(PM10),52,53,31,19,6,50,,95,84,28,20,5,4,0.3,0.3
2025-08-18T2100,2614A,100.1542,25.7054,大理白族自治州,大理市环境监测站,,21,,12,12,14,67,,68,68,8,12,5,5,0.4,0.4
2025-08-18T2100,2615A,100.2171,25.5811,大理白族自治州,大理古城,,23,23,19,13,10,48,,79,72,13,8,6,6,0.6,0.6
2025-08-18T2100,1109A,121.612,38.9741,大连市,甘井子,,32,25,23,14,15,100,,113,108,16,17,9,9,0.1,0.1
2025-08-18T2100,1110A,121.565,38.9511,大连市,周水子,,30,19,21,17,16,96,,104,101,10,14,8,7,0.4,0.3
2025-08-18T2100,1111A,121.5637,38.8845,大连市,星海三站,,33,23,22,18,22,103,,119,117,14,16,4,4,0.4,0.4
2025-08-18T2100,1112A,121.6302,38.9117,大连市,青泥洼桥,,36,27,28,25,19,111,,126,124,9,9,6,6,0.6,0.6
2025-08-18T2100,1113A,121.6251,38.8638,大连市,傅家庄,,34,21,17,20,19,108,,124,124,9,9,7,7,0.2,0.2
2025-08-18T2100,1114A,121.5213,38.8661,大连市,七贤岭,,34,23,20,23,20,108,,120,119,9,10,11,11,0.5,0.5
2025-08-18T2100,1115A,121.2529,38.8061,大连市,旅顺,,,,21,29,16,101,,105,105,9,8,,5,0.5,0.4
2025-08-18T2100,1116A,121.7485,39.1311,大连市,金州,,26,20,20,16,17,83,,121,109,19,14,10,9,0.3,0.3
2025-08-18T2100,1117A,121.7811,39.0496,大连市,开发区,,27,23,20,17,20,85,,109,104,26,17,5,6,0.5,0.5
2025-08-18T2100,1118A,121.9762,39.0631,大连市,双D港,,29,23,25,16,17,91,,109,108,13,6,9,8,0.5,0.4
2025-08-18T2100,1789A,124.81117,46.03138,大庆市,大同区,,26,26,22,12,7,50,,60,59,14,12,9,8,0.7,0.7
2025-08-18T2100,1790A,125.129,46.533,大庆市,龙凤区,,19,19,19,13,10,45,,48,45,19,16,8,8,0.5,0.5
2025-08-18T2100,1791A,124.902,46.408,大庆市,红岗区,,20,17,21,14,11,46,,57,54,8,8,7,8,0.6,0.5
2025-08-18T2100,1792A,125.153,46.586,大庆市,萨尔图区,,16,16,27,6,8,49,,52,47,10,15,8,8,0.5,0.5
2025-08-18T2100,1793A,124.9042,46.6215,大庆市,让胡路区,,28,28,23,19,13,48,,51,47,13,12,6,7,0.4,0.3
2025-08-18T2100,3481A,125.141,46.634,大庆市,萨区政府监测点,,19,19,24,3,5,52,,62,60,11,13,8,8,0.2,0.2
2025-08-18T2100,1721A,113.3819,40.1097,大同市,果树场,,38,36,25,26,17,15,,82,66,28,19,8,8,0.5,0.5
2025-08-18T2100,1723A,113.2994,40.0758,大同市,云冈宾馆,,,67,28,30,14,,,107,105,54,20,5,4,1.3,0.7
2025-08-18T2100,1724A,113.3444,40.0917,大同市,大同大学,,,55,23,21,12,,,95,93,72,25,8,8,0.9,0.6
2025-08-18T2100,1725A,113.2661,40.1269,大同市,安家小村,,25,25,25,10,8,65,,104,94,28,18,8,8,0.5,0.3
2025-08-18T2100,1726A,113.2711,40.0844,大同市,教育学院,,44,44,27,13,14,66,,101,96,33,20,10,9,0.8,0.6
2025-08-18T2100,3282A,113.3397,40.0597,大同市,大同市卫生学校,,42,42,26,13,13,67,,102,100,27,18,6,7,0.7,0.7
2025-08-18T2100,3565A,113.1367,40.1122,大同市,云冈站,,26,26,29,15,17,34,,88,82,19,10,5,4,1.0,0.7
2025-08-18T2100,3566A,113.1186,40.2556,大同市,图书馆,,22,22,28,11,14,31,,89,77,7,10,2,3,0.7,0.7
2025-08-18T2100,3567A,113.5931,40.0461,大同市,区一中,,21,13,19,9,12,67,,105,101,6,8,8,9,0.4,0.5
2025-08-18T2100,4199A,113.2798,40.0997,大同市,魏都大道141号,,37,37,25,21,16,58,,106,99,32,19,6,6,0.9,0.7
2025-08-18T2100,2269A,124.1069,50.4097,大兴安岭地区,科技局,,,15,23,15,9,,,44,44,4,5,5,5,0.3,0.3
2025-08-18T2100,3663A,124.1164,50.4278,大兴安岭地区,红旗社区,,16,,10,6,7,49,,44,44,6,8,4,4,0.3,0.3
2025-08-18T2100,1600A,124.3303,40.0625,丹东市,江湾东路,,31,31,14,18,11,76,,86,83,6,8,4,5,0.6,0.6
2025-08-18T2100,1601A,124.4256,40.1503,丹东市,临江后街,,,31,16,18,10,,,85,81,7,8,6,7,0.7,0.6
2025-08-18T2100,1602A,124.3933,40.1461,丹东市,元宝山,,37,37,16,16,8,65,,79,76,7,8,3,3,0.7,0.7
2025-08-18T2100,1603A,124.3633,40.1092,丹东市,民主桥,,27,27,12,15,8,72,,81,79,5,8,4,3,0.5,0.6
2025-08-18T2100,3541A,109.5726,19.5167,儋州市,第一中学子站,,9,9,10,3,3,22,,22,22,5,3,4,5,0.7,0.7
2025-08-18T2100,3542A,109.5567,19.5187,儋州市,东坡学校子站,,9,9,9,3,3,21,,24,24,4,2,6,6,0.6,0.6
2025-08-18T2100,2616A,98.5842,24.428,德宏傣族景颇族自治州,德宏州监测站,,,39,24,18,12,,,76,75,16,7,10,10,,0.6
2025-08-18T2100,3677A,98.5881,24.4368,德宏傣族景颇族自治州,芒市人民政府综合楼,,33,33,27,14,10,32,,64,60,12,7,8,8,0.6,0.5
2025-08-18T2100,1901A,104.4239,31.1208,德阳市,东山公园,,40,19,12,13,10,127,,148,146,18,11,4,6,0.8,0.8
2025-08-18T2100,1902A,104.3826,31.1317,德阳市,西小区,,,31,21,16,13,,,146,146,22,18,4,3,0.8,0.9
2025-08-18T2100,1904A,104.3553,31.1091,德阳市,耐火材料厂,,42,42,25,21,14,79,,136,129,31,17,3,3,0.7,0.6
2025-08-18T2100,3639A,104.4019,31.1244,德阳市,市教育局,,40,26,21,13,12,125,,142,141,13,12,7,7,1.0,0.9
2025-08-18T2100,1622A,116.3032,37.4674,德州市,儿童乐园,,,,,,,,,,,,,,,,
2025-08-18T2100,1624A,116.2991,37.4451,德州市,监理站,,,,9,,9,,,75,,,10,,7,,0.4
2025-08-18T2100,3066A,116.2721,37.4379,德州市,九衢泉纯净水厂,,39,31,21,27,16,99,,134,134,10,11,7,8,0.8,0.7
2025-08-18T2100,3371A,116.3728,37.4403,德州市,开发区人民医院,,28,22,20,14,12,87,,137,135,13,14,10,12,1.0,0.9
2025-08-18T2100,3511A,116.5652,37.3319,德州市,陵城艺术中心,,31,31,19,17,8,87,,114,108,8,10,7,8,1.2,1.2
2025-08-18T2100,4292A,116.3525,37.4209,德州市,新河东路,,35,34,20,24,15,84,,138,136,11,11,9,11,0.9,0.9
2025-08-18T2100,2621A,99.7056,27.8317,迪庆藏族自治州,迪庆州站,,15,15,17,10,11,48,,60,58,7,7,6,6,0.4,0.4
2025-08-18T2100,3180A,99.7136,27.8094,迪庆藏族自治州,质量技术监督局,,19,19,16,3,7,49,,62,60,10,9,9,8,0.6,0.6
2025-08-18T2100,4257A,104.6092,35.5962,定西市,将台街,,35,35,25,24,13,90,,100,99,12,11,7,7,0.5,0.5
2025-08-18T2100,4309A,104.6159,35.5701,定西市,正龙路62号,,40,36,26,28,14,98,,97,97,4,6,4,4,0.3,0.2
2025-08-18T2100,1389A,113.7547,23.0494,东莞市,莞城梨川,,,27,12,22,7,21,,57,49,,11,8,7,,0.3
2025-08-18T2100,1390A,113.7944,23.0128,东莞市,东城石井,,12,6,4,3,3,20,,49,42,23,13,3,3,0.6,0.6
2025-08-18T2100,1391A,113.7383,22.9658,东莞市,南城西平,,15,15,12,9,5,25,,47,42,22,17,6,6,0.5,0.4
2025-08-18T2100,3319A,113.7338,23.0381,东莞市,万江金泰,,20,20,10,10,4,24,,56,49,20,12,5,4,0.8,0.8
2025-08-18T2100,3626A,113.7533,23.0202,东莞市,南城元岭,,15,15,9,9,6,27,,52,46,19,13,6,6,0.6,0.5
2025-08-18T2100,3627A,113.7875,23.0457,东莞市,东城主山,,22,22,14,14,7,12,,44,,26,12,5,5,0.3,0.2
2025-08-18T2100,1666A,118.6614,37.4309,东营市,市环保局,,32,22,42,14,16,102,,106,106,14,19,6,7,0.3,0.3
2025-08-18T2100,3036A,118.6904,37.4338,东营市,开发区管委会,,35,18,24,9,10,110,,113,113,13,20,6,6,0.3,0.3
2025-08-18T2100,3365A,118.5719,37.565,东营市,垦利区民丰路,,32,24,18,17,10,100,,98,98,15,15,12,11,0.9,0.8
2025-08-18T2100,3498A,118.5055,37.8612,东营市,河口城区,,35,17,14,7,6,109,,104,104,12,11,4,4,1.1,1
2025-08-18T2100,3646A,118.4978,37.4623,东营市,胜利站,,35,28,21,17,9,110,,110,110,19,20,3,3,0.6,0.5
2025-08-18T2100,3734A,118.35,37.26,东营市,理想之城,,33,17,17,9,10,105,,103,103,15,20,2,3,0.4,0.4
2025-08-18T2100,1591A,110.0023,39.8129,鄂尔多斯市,综合楼,,23,14,33,9,13,73,,113,106,13,13,6,9,0.7,0.8
2025-08-18T2100,1592A,109.9486,39.8261,鄂尔多斯市,巴音孟克林场办事处,,27,14,36,12,12,85,,123,115,13,12,3,4,0.3,0.4
2025-08-18T2100,1593A,109.7736,39.5986,鄂尔多斯市,康泽苑,,,29,33,7,8,76,,111,100,11,13,,6,0.3,0.4
2025-08-18T2100,1594A,109.8119,39.5989,鄂尔多斯市,华泰汽车城,,23,14,30,12,15,71,,102,91,11,12,4,5,0.6,0.7
2025-08-18T2100,1595A,109.9734,39.7884,鄂尔多斯市,奥林花园,,24,12,37,9,15,75,,110,104,13,18,5,6,0.6,0.7
2025-08-18T2100,2436A,114.8938,30.3994,鄂州市,市政府,,32,24,29,12,12,102,,154,129,12,16,6,8,0.3,0.4
2025-08-18T2100,2437A,114.8989,30.3714,鄂州市,赵家坝,,32,32,34,13,11,96,,143,123,18,19,7,9,0.7,0.8
2025-08-18T2100,3654A,114.8094,30.4089,鄂州市,精准医疗中心,,31,24,35,3,14,98,,160,140,16,21,18,18,1.7,1.5
2025-08-18T2100,2454A,109.4978,30.2981,恩施土家族苗族自治州,湖北民院,,33,32,21,23,13,42,,96,84,18,11,7,5,0.5,0.4
2025-08-18T2100,2455A,109.4707,30.2798,恩施土家族苗族自治州,州电力总公司,细颗粒物(PM2.5),59,43,22,42,13,20,,87,72,28,13,4,3,0.3,0.1
2025-08-18T2100,3549A,109.5061,30.3772,恩施土家族苗族自治州,龙凤新区,,36,35,19,25,8,51,,97,86,8,4,4,4,0.5,0.3
2025-08-18T2100,2499A,108.3411,21.6158,防城港市,沙万,,24,24,24,16,15,26,,48,42,14,11,2,3,0.5,0.4
2025-08-18T2100,2500A,108.3514,21.7731,防城港市,防城档案局,,15,15,32,6,10,24,,39,35,8,11,3,2,0.1,0.2
2025-08-18T2100,2501A,108.3506,21.6414,防城港市,大海花园,,15,,18,10,12,27,,51,43,12,8,6,4,0.6,0.5
2025-08-18T2100,1371A,113.1294,23.0067,佛山市,湾梁,,17,14,8,8,9,18,,40,34,33,24,6,6,0.5,0.5
2025-08-18T2100,1372A,113.1083,23.0478,佛山市,华材职中,,17,17,8,9,8,28,,48,42,22,14,4,3,0.5,0.5
2025-08-18T2100,1373A,113.144,23.0453,佛山市,南海气象局,,18,18,13,8,9,24,,42,36,23,17,5,4,0.8,0.7
2025-08-18T2100,1374A,113.2881,22.8094,佛山市,顺德苏岗,,28,28,11,7,3,12,,24,21,28,19,5,5,0.6,0.5
2025-08-18T2100,1376A,112.8383,22.8678,佛山市,高明孔堂,,12,12,10,6,7,30,,59,55,21,16,6,6,0.6,0.6
2025-08-18T2100,1377A,112.8836,23.1588,佛山市,三水监测站,,15,14,7,6,8,16,,46,42,29,16,5,3,0.6,0.5
2025-08-18T2100,1378A,112.867,23.185,佛山市,三水云东海,,39,39,19,12,7,12,,50,45,36,20,1,1,0.7,0.6
2025-08-18T2100,3625A,113.2544,22.7642,佛山市,容桂街道办,,12,12,4,3,6,27,,36,32,20,16,5,5,0.6,0.6
2025-08-18T2100,1280A,119.3903,26.0543,福州市,鼓山,,,,,,,,,,,,,,,,
2025-08-18T2100,1282A,119.2681,26.0504,福州市,师大,,23,23,18,7,5,56,,85,75,9,6,5,5,0.2,0.2
2025-08-18T2100,1283A,119.2984,26.1028,福州市,五四北路,,27,27,16,9,6,56,,75,68,8,7,4,4,0.2,0.3
2025-08-18T2100,1284A,119.2648,26.0768,福州市,杨桥西路,,18,18,18,3,7,57,,89,80,7,7,3,4,0.2,0.3
2025-08-18T2100,1285A,119.317,26.0746,福州市,紫阳,,22,22,20,3,4,48,,74,65,15,7,4,4,0.1,0.2
2025-08-18T2100,3048A,119.5799,26.0936,福州市,九龙,,19,15,12,3,2,59,,59,59,4,5,4,5,0.1,0.2
2025-08-18T2100,3526A,119.5189,25.9664,福州市,吴航,,24,24,13,11,6,73,,66,66,6,3,6,6,0.3,0.3
2025-08-18T2100,1755A,123.7977,41.8491,抚顺市,望花区,细颗粒物(PM2.5),60,45,51,43,20,49,,124,114,32,22,6,7,0.6,0.8
2025-08-18T2100,1756A,123.9161,41.8822,抚顺市,顺城区,,37,37,30,10,12,64,,123,117,23,19,7,6,0.7,0.8
2025-08-18T2100,1757A,124.0436,41.8611,抚顺市,东洲区,,32,32,25,19,12,71,,105,99,14,9,9,7,1.1,0.8
2025-08-18T2100,1758A,123.9247,41.8642,抚顺市,新抚区,,39,39,33,17,11,59,,120,114,20,19,8,6,1.2,0.8
2025-08-18T2100,1759A,124.0972,41.8961,抚顺市,大伙房水库,,,,18,18,12,,,108,107,17,13,9,8,1.2,0.6
2025-08-18T2100,1760A,123.7086,41.8391,抚顺市,沈抚新城,,19,16,40,6,24,58,,124,116,24,28,5,9,0.8,1.3
2025-08-18T2100,2376A,116.2127,28.0814,抚州市,桐源党溪,,29,29,28,11,11,34,,80,68,16,7,8,5,0.5,0.5
2025-08-18T2100,2377A,116.3544,27.9831,抚州市,市站,,25,25,21,10,8,63,,87,81,4,4,1,2,0.5,0.5
2025-08-18T2100,2378A,116.3565,27.963,抚州市,血防站,,25,25,19,10,8,60,,84,79,5,5,6,6,0.2,0.2
2025-08-18T2100,2379A,116.3564,28.0007,抚州市,采茶剧团,,30,30,20,15,8,58,,83,77,4,3,4,4,0.3,0.2
2025-08-18T2100,2380A,116.385,27.9647,抚州市,医学分院,,24,24,22,11,9,58,,83,78,2,3,4,4,0.4,0.4
2025-08-18T2100,2207A,121.6094,41.998,阜新市,工业园区,,45,42,35,31,17,104,,148,142,17,20,17,11,0.8,0.8
2025-08-18T2100,2208A,121.6697,42.0279,阜新市,长青街,,34,28,32,21,13,107,,141,138,12,17,9,15,0.6,0.8
2025-08-18T2100,2209A,121.6673,42.0705,阜新市,农业园区,,40,40,32,14,9,110,,141,138,11,13,9,12,0.8,0.9
2025-08-18T2100,2210A,121.6717,42.0224,阜新市,东苑,,34,34,45,19,14,108,,142,140,16,21,13,18,0.6,0.8
2025-08-18T2100,2211A,121.6506,42.0498,阜新市,玉龙新城,,48,48,35,25,14,98,,137,132,12,18,16,12,1.0,1.8
2025-08-18T2100,2301A,115.8277,32.8929,阜阳市,市监测站,,37,37,36,13,16,75,,119,108,17,19,3,4,0.5,0.5
2025-08-18T2100,2303A,115.8554,32.8605,阜阳市,开发区,,34,34,34,9,12,90,,129,119,12,15,6,6,0.3,0.3
2025-08-18T2100,2875A,115.784,32.8892,阜阳市,阜阳职业技术学院,,41,41,28,16,11,92,,130,120,9,9,5,5,0.4,0.4
2025-08-18T2100,3468A,115.7901,32.8613,阜阳市,市规划展馆,,50,50,39,22,19,72,,132,114,12,11,2,3,0.4,0.3
2025-08-18T2100,3469A,115.836,32.9183,阜阳市,枣园社区,,39,39,35,18,16,85,,124,109,12,14,3,3,0.4,0.4
2025-08-18T2100,2669A,102.9099,34.9841,甘南藏族自治州,州政府,,35,,28,24,16,76,,76,76,10,11,3,4,0.3,0.2
2025-08-18T2100,3380A,102.8914,34.9617,甘南藏族自治州,甘肃民族师范学院,,28,24,38,15,17,88,,90,89,5,12,4,4,0.2,0.2
2025-08-18T2100,2570A,101.9603,30.0475,甘孜藏族自治州,水桥子,,24,10,11,3,6,74,,87,84,7,14,6,6,0.7,0.6
2025-08-18T2100,3065A,101.9533,29.9972,甘孜藏族自治州,州环保局,,23,13,15,7,5,73,,92,87,11,15,4,4,0.7,0.7
2025-08-18T2100,3414A,115.8347,28.932,赣江新区,桑海产业园,,31,31,29,15,12,76,,115,107,24,22,5,5,0.3,0.3
2025-08-18T2100,2362A,114.9017,25.9149,赣州市,通天岩,,39,,21,27,15,38,,52,43,3,4,14,15,0.7,0.7
2025-08-18T2100,2363A,114.9367,25.8664,赣州市,地委,,,20,23,10,13,,,60,56,6,8,,7,0.5,0.5
2025-08-18T2100,2364A,114.9461,25.8481,赣州市,气象台,,17,17,18,6,8,41,,56,49,4,6,8,9,0.3,0.3
2025-08-18T2100,2365A,114.9322,25.8333,赣州市,市图书馆,,13,13,16,8,11,33,,53,44,6,6,4,5,0.4,0.4
2025-08-18T2100,2366A,114.8905,25.8471,赣州市,华坚鞋城,,22,22,22,10,11,37,,54,47,9,10,5,6,0.3,0.4
2025-08-18T2100,3109A,115.0093,25.8613,赣州市,赣县区卫计委,,,9,15,,11,38,,55,46,4,6,5,6,0.3,0.3
2025-08-18T2100,2683A,106.2319,36.1417,固原市,马园,,,,,,,,,,,,,,,,
2025-08-18T2100,2684A,106.2792,36.0022,固原市,监测站,,23,23,19,8,6,61,,84,80,16,13,6,6,0.2,0.2
2025-08-18T2100,2685A,106.2375,36.0211,固原市,新区,,18,16,14,8,7,56,,79,75,16,10,6,7,0.4,0.4
2025-08-18T2100,3522A,106.2177,35.9959,固原市,原州区十五小,,20,12,12,8,7,63,,80,77,12,7,9,8,0.4,0.3
2025-08-18T2100,2543A,106.6308,30.5278,广安市,小平旧居,,,,,,,,,,,,,,,,
2025-08-18T2100,2544A,106.6303,30.4576,广安市,市委,,44,44,27,29,18,88,,103,100,23,14,8,7,0.3,0.3
2025-08-18T2100,2545A,106.6271,30.4663,广安市,友谊中学,,34,34,25,20,14,106,,108,108,15,13,4,3,0.7,0.6
2025-08-18T2100,2547A,106.6388,30.4551,广安市,广电花园,,43,43,35,16,13,88,,94,93,15,12,4,4,0.6,0.5
2025-08-18T2100,2902A,106.6351,30.4865,广安市,北辰小学,,34,34,32,16,14,81,,101,98,15,11,10,8,0.7,0.7
2025-08-18T2100,2523A,105.8945,32.4535,广元市,黑石坡,,39,29,25,27,17,67,,88,85,13,14,18,12,0.4,0.4
2025-08-18T2100,2524A,105.821,32.4444,广元市,老城,,22,22,16,6,7,46,,107,99,31,17,4,13,0.7,0.9
2025-08-18T2100,2526A,105.8628,32.4287,广元市,监测站,,22,,18,15,9,56,,95,90,19,14,5,13,0.7,1
2025-08-18T2100,3617A,105.8047,32.4166,广元市,经开区,,22,22,25,14,15,60,,92,87,21,15,7,12,0.7,0.8
2025-08-18T2100,1345A,113.2347,23.1423,广州市,广雅中学,,20,20,16,13,8,16,,53,45,38,22,2,3,0.5,0.4
2025-08-18T2100,1346A,113.2612,23.105,广州市,市五中,,23,23,15,12,8,19,,52,45,37,23,5,5,0.4,0.4
2025-08-18T2100,1348A,113.3478,23.0916,广州市,广东商学院,,21,20,15,11,8,11,,52,42,41,24,4,4,0.4,0.4
2025-08-18T2100,1349A,113.4332,23.1047,广州市,市八十六中,,18,16,12,12,8,14,,47,35,34,24,5,3,0.4,0.3
2025-08-18T2100,1350A,113.3505,22.9483,广州市,番禺中学,,23,23,10,16,9,21,,47,36,23,15,5,6,0.5,0.4
2025-08-18T2100,1351A,113.2146,23.3916,广州市,花都师范,,26,26,18,14,9,36,,61,56,30,22,4,4,0.4,0.4
2025-08-18T2100,1352A,113.2597,23.1331,广州市,市监测站,,22,22,16,9,8,19,,54,47,34,21,6,6,0.4,0.4
2025-08-18T2100,1353A,113.5618,23.312,广州市,九龙镇镇龙,,17,17,12,9,6,31,,58,55,16,11,7,6,0.4,0.4
2025-08-18T2100,1354A,113.2765,23.1544,广州市,麓湖,,23,23,15,11,7,10,,53,45,41,24,1,2,0.2,0.2
2025-08-18T2100,1355A,113.443,23.3035,广州市,帽峰山森林公园,,10,9,5,7,7,32,,63,60,15,7,9,8,0.4,0.4
2025-08-18T2100,2846A,113.3221,23.1322,广州市,体育西,,28,28,19,16,11,15,,52,44,41,27,4,3,0.6,0.5
2025-08-18T2100,3298A,113.5717,23.5491,广州市,从化街口,,12,12,9,6,5,38,,48,47,9,9,6,7,0.5,0.5
2025-08-18T2100,3299A,113.3472,23.3692,广州市,白云竹料,,17,17,10,8,5,31,,59,57,19,13,4,4,0.6,0.5
2025-08-18T2100,3300A,113.2981,23.237,广州市,白云嘉禾,,16,15,13,11,8,30,,59,54,23,16,4,4,0.5,0.5
2025-08-18T2100,3301A,113.4256,23.1716,广州市,黄埔科学城,,21,21,14,12,8,25,,61,52,17,12,4,5,0.5,0.5
2025-08-18T2100,3302A,113.3942,23.0483,广州市,番禺大学城,,18,18,20,9,7,17,,49,39,31,20,9,10,0.4,0.3
2025-08-18T2100,3303A,113.4922,22.8168,广州市,南沙黄阁,,,,7,,4,,,35,,,15,,5,,0.4
2025-08-18T2100,3304A,113.5342,22.7896,广州市,南沙街,,18,18,8,8,5,26,,42,36,19,13,5,5,0.5,0.5
2025-08-18T2100,3443A,113.2902,23.5544,广州市,花都梯面,,14,9,8,3,3,44,,61,61,9,8,5,5,0.4,0.4
2025-08-18T2100,3445A,113.7858,23.7478,广州市,从化良口,,12,8,8,3,4,36,,39,39,5,5,4,4,0.4,0.4
2025-08-18T2100,3446A,113.8051,23.2614,广州市,增城荔城,,11,8,7,6,4,34,,48,45,8,6,9,7,0.4,0.3
2025-08-18T2100,2505A,109.568,23.1478,贵港市,德智高中,,,,,,,,,,,,,,,,
2025-08-18T2100,2506A,109.6047,23.0666,贵港市,江南子站,,29,29,26,14,18,22,,45,38,17,13,8,12,0.5,0.7
2025-08-18T2100,2508A,109.5669,23.1065,贵港市,荷城子站,,10,9,12,7,4,29,,50,45,11,8,9,8,0.7,0.5
2025-08-18T2100,3405A,109.5886,23.1172,贵港市,新世纪学校,,15,,14,10,10,29,,50,45,8,7,1,2,0.6,0.6
2025-08-18T2100,4260A,109.5933,23.0951,贵港市,中山路155-3号,,16,13,23,11,13,30,,54,46,7,11,5,5,0.5,0.5
2025-08-18T2100,1439A,106.6899,26.5998,贵阳市,马鞍山,,,19,16,,1,,,59,40,10,13,3,3,0.3,0.2
2025-08-18T2100,1441A,106.6243,26.6266,贵阳市,鉴湖路,,29,29,25,3,5,27,,60,40,12,12,4,4,0.3,0.2
2025-08-18T2100,1442A,106.7487,26.6343,贵阳市,燕子冲,,18,17,15,12,14,46,,64,51,8,16,2,2,0,0
2025-08-18T2100,1443A,106.6555,26.4365,贵阳市,碧云窝,,29,29,29,7,9,19,,59,43,11,10,4,4,0.2,0.2
2025-08-18T2100,1445A,106.7109,26.6027,贵阳市,红边门,,27,27,23,14,11,35,,62,46,20,23,3,3,0.4,0.3
2025-08-18T2100,1446A,106.7164,26.5699,贵阳市,新华路,,28,24,21,19,13,33,,65,49,26,23,2,7,0.2,0.2
2025-08-18T2100,1447A,106.674,26.5424,贵阳市,太慈桥,,14,14,15,3,6,8,,64,38,19,15,4,4,0.2,0.1
2025-08-18T2100,1552A,106.805,26.3003,贵阳市,桐木岭,,28,24,24,19,13,48,,58,55,1,2,2,2,0.9,0.9
2025-08-18T2100,4230A,106.6882,26.5695,贵阳市,花果园大街66号,,43,36,14,30,15,7,,67,40,49,24,4,3,0.9,0.5
2025-08-18T2100,4231A,106.6873,26.5169,贵阳市,漓江路57号,,31,31,21,14,12,11,,66,44,32,19,3,4,0.6,0.4
2025-08-18T2100,1862A,110.4144,25.3167,桂林市,电子科大尧山校区,,,,,,,,,,,,,,,,
2025-08-18T2100,1864A,110.3089,25.2708,桂林市,龙隐路小学,,20,20,21,3,10,18,,50,41,15,10,6,6,0.3,0.3
2025-08-18T2100,1865A,110.2869,25.2178,桂林市,八中,,14,14,21,6,9,28,,56,48,12,11,6,8,0.7,0.7
2025-08-18T2100,3531A,110.296,25.1253,桂林市,旅游学院,,10,6,11,3,7,30,,58,49,8,8,2,6,0.3,0.3
2025-08-18T2100,4222A,110.1835,25.2444,桂林市,环湖路276号,,39,19,22,12,11,26,,55,46,10,9,117,16,0.3,0.3
2025-08-18T2100,4301A,110.2803,25.2773,桂林市,信义路13号,,18,14,21,12,10,24,,58,49,17,11,15,6,0.7,0.7
2025-08-18T2100,2674A,100.2561,34.4714,果洛藏族自治州,玛沁县大武镇,,31,31,30,9,13,87,,94,92,3,6,16,16,0.6,0.6
2025-08-18T2100,1129A,126.5422,45.755,哈尔滨市,岭北,,27,27,19,12,9,68,,94,83,24,22,8,11,0.6,0.5
2025-08-18T2100,1130A,126.561,45.8167,哈尔滨市,松北商大,,26,26,30,8,8,35,,49,42,13,26,6,6,0.4,0.5
2025-08-18T2100,1131A,126.979,45.5419,哈尔滨市,阿城会宁,,40,40,30,14,10,10,,66,44,29,18,6,7,0.5,0.5
2025-08-18T2100,1132A,126.599,45.7222,哈尔滨市,南岗学府路,,34,34,39,8,10,32,,69,53,25,31,7,8,0.5,0.8
2025-08-18T2100,1133A,126.689,45.7733,哈尔滨市,太平宏伟公园,,37,37,48,13,11,27,,62,45,24,29,8,9,0.7,0.7
2025-08-18T2100,1134A,126.635,45.7667,哈尔滨市,道外承德广场,,45,45,37,12,10,28,,63,45,22,25,9,9,0.6,0.6
2025-08-18T2100,1135A,126.685,45.7319,哈尔滨市,香坊红旗大街,,29,29,44,17,11,31,,65,50,22,30,10,13,0.6,0.7
2025-08-18T2100,1136A,126.6411,45.7258,哈尔滨市,动力和平路,,32,,32,22,11,34,,71,57,21,29,8,10,0.5,0.6
2025-08-18T2100,1137A,126.593,45.7478,哈尔滨市,道里建国路,,25,25,32,16,8,36,,69,54,24,28,9,11,1.3,2.4
2025-08-18T2100,1138A,126.615,45.61,哈尔滨市,平房东轻厂,,27,27,22,10,8,17,,66,44,33,22,7,7,0.5,0.5
2025-08-18T2100,1139A,126.595,45.9855,哈尔滨市,呼兰师专,,32,32,34,6,7,38,,54,38,21,28,8,9,0.4,0.5
2025-08-18T2100,1140A,126.6206,45.6842,哈尔滨市,省农科院,,33,33,55,13,10,28,,64,48,23,34,10,11,0.5,0.6
2025-08-18T2100,2688A,93.5128,42.8172,哈密市,地区监测站,颗粒物(PM10),71,91,77,18,26,80,,118,115,40,30,7,8,0.2,0.2
2025-08-18T2100,2689A,93.4961,42.8328,哈密市,哈密师范学校,颗粒物(PM10),94,138,85,25,22,63,,74,,47,31,4,10,0.8,0.6
2025-08-18T2100,2671A,100.9048,36.9639,海北藏族自治州,海晏县西海镇,,,55,25,22,17,124,,108,108,4,4,9,7,,0.8
2025-08-18T2100,3867A,102.0738,36.5056,海东市,平安区公安北苑,,41,41,40,13,22,94,,114,108,5,5,8,13,0.6,0.6
2025-08-18T2100,1409A,110.576,19.9507,海口市,东寨港,,,11,7,,6,31,,32,32,3,2,6,5,0.3,0.3
2025-08-18T2100,1410A,110.3232,20.0574,海口市,海南大学,,12,12,7,3,3,36,,36,36,4,3,2,2,0.3,0.3
2025-08-18T2100,1411A,110.283,20.0053,海口市,秀英海南医院,,11,11,8,3,2,28,,32,30,10,6,5,5,0.3,0.3
2025-08-18T2100,1412A,110.338,19.9969,海口市,海南师范大学,,12,12,8,3,3,32,,32,32,4,4,4,4,0.3,0.4
2025-08-18T2100,1413A,110.33,20.0356,海口市,龙华路环保局宿舍,,15,15,8,3,4,33,,34,33,6,5,5,5,0.3,0.3
2025-08-18T2100,3539A,110.5111,19.9736,海口市,桂林洋子站,,14,14,10,8,5,34,,33,33,5,3,2,3,0.2,0.3
2025-08-18T2100,2673A,100.6188,36.2866,海南藏族自治州,共和县恰卜恰镇,,32,28,27,7,13,102,,112,111,8,4,15,14,0.7,0.6
2025-08-18T2100,2676A,97.3731,37.3753,海西蒙古族藏族自治州,德令哈市,,37,24,20,15,11,117,,123,123,1,2,15,13,0.3,0.4
2025-08-18T2100,1048A,114.5302,36.6116,邯郸市,东污水处理厂,,34,34,34,22,24,95,,132,124,11,15,4,5,0.4,0.4
2025-08-18T2100,1049A,114.4918,36.5713,邯郸市,矿院,,31,30,28,17,13,99,,138,130,11,18,3,3,0.4,0.4
2025-08-18T2100,1050A,114.484,36.6133,邯郸市,丛台公园,,46,46,27,22,21,113,,139,134,11,12,4,4,0.4,0.4
2025-08-18T2100,3458A,114.7895,36.5593,邯郸市,香泉濮院小区,,40,40,30,3,4,95,,134,125,10,12,1,3,0.7,0.5
2025-08-18T2100,3579A,114.50634,36.77178,邯郸市,永年区实验高中,颗粒物(PM10),56,61,46,28,26,103,,148,139,17,14,3,4,0.4,0.4
2025-08-18T2100,3580A,114.20016,36.44293,邯郸市,峰峰矿区临水派出所,,43,35,41,6,6,135,,164,155,8,4,2,4,0.2,0.3
2025-08-18T2100,2634A,106.9893,33.1842,汉中市,汉川机床厂子校,,23,,16,15,8,72,,82,81,10,10,3,3,0.5,0.5
2025-08-18T2100,2635A,107.0154,33.0706,汉中市,市监测站,,22,22,19,13,10,67,,80,76,9,7,6,6,0.5,0.5
2025-08-18T2100,2636A,107.0089,33.1138,汉中市,鑫源开发区,,23,12,19,12,10,71,,77,75,8,9,6,6,0.4,0.4
2025-08-18T2100,2637A,107.007,33.0323,汉中市,南郑大河坎水厂,,23,23,19,16,9,51,,77,71,17,8,6,5,0.4,0.4
2025-08-18T2100,1223A,120.2072,30.2111,杭州市,滨江,,29,29,26,12,12,77,,139,128,26,14,6,7,0.6,0.5
2025-08-18T2100,1224A,120.0633,30.2747,杭州市,西溪,,31,26,26,11,17,99,,127,121,13,12,7,10,0.4,0.4
2025-08-18T2100,1226A,120.3417,30.3150,杭州市,下沙,,26,26,23,11,11,60,,132,117,26,17,6,6,0.2,0.3
2025-08-18T2100,1227A,120.1269,30.2456,杭州市,卧龙桥,,25,25,25,15,14,77,,122,111,16,10,8,8,0.5,0.5
2025-08-18T2100,1228A,120.1903,30.2692,杭州市,浙江农大,,42,42,37,13,15,72,,123,114,23,13,6,6,0.5,0.4
2025-08-18T2100,1230A,120.1197,30.3119,杭州市,和睦小学,,26,22,23,13,14,82,,132,121,19,12,6,6,0.4,0.4
2025-08-18T2100,1231A,120.3019,30.4183,杭州市,临平镇,,29,29,29,10,15,60,,141,124,14,10,6,6,0.3,0.3
2025-08-18T2100,1232A,120.2753,30.1839,杭州市,城厢镇,,35,35,29,15,14,74,,136,122,21,10,10,8,0.5,0.4
2025-08-18T2100,1233A,120.0883,30.1808,杭州市,云栖,,27,22,25,6,13,85,,142,125,23,17,10,9,0.7,0.6
2025-08-18T2100,3557A,119.9464,30.0494,杭州市,镇二中,,34,34,27,14,22,90,,114,110,18,15,6,4,0.4,0.4
2025-08-18T2100,3558A,119.7183,30.2367,杭州市,市府大楼,,,31,31,19,20,,,113,113,16,12,8,8,0.3,0.3
2025-08-18T2100,3656A,120.1556,30.2864,杭州市,消防大队,,28,22,27,10,14,88,,131,124,16,12,7,7,0.5,0.4
2025-08-18T2100,1270A,117.1959,31.7848,合肥市,明珠广场,,26,24,28,14,15,81,,121,102,19,15,6,7,0.5,0.6
2025-08-18T2100,1271A,117.3072,31.8764,合肥市,三里街,,,,31,,16,,,92,,,16,,8,,0.5
2025-08-18T2100,1272A,117.2588,31.8707,合肥市,琥珀山庄,,30,24,35,13,20,93,,129,104,12,14,8,10,0.4,0.5
2025-08-18T2100,1273A,117.1604,31.9052,合肥市,董铺水库,,21,19,29,9,14,67,,98,81,8,13,4,5,0.4,0.3
2025-08-18T2100,1274A,117.25,31.8571,合肥市,长江中路,,27,14,34,14,14,86,,123,98,14,15,7,8,0.4,0.5
2025-08-18T2100,1275A,117.266,31.9436,合肥市,庐阳区,,31,31,39,12,15,68,,132,99,23,22,6,7,0.4,0.5
2025-08-18T2100,1276A,117.3453,31.8616,合肥市,瑶海区,,29,29,34,17,16,75,,115,91,23,19,6,7,0.6,0.6
2025-08-18T2100,1277A,117.3027,31.7964,合肥市,包河区,,27,19,35,17,17,86,,118,98,10,26,6,7,0.5,0.6
2025-08-18T2100,1278A,117.2776,31.7385,合肥市,滨湖新区,,28,19,32,19,22,82,,121,102,9,10,9,9,0.4,0.4
2025-08-18T2100,1279A,117.1318,31.8403,合肥市,高新区,,31,27,30,14,15,97,,120,104,13,16,6,7,0.5,0.5
2025-08-18T2100,3464A,117.3803,31.9147,合肥市,高教基地,,29,29,25,14,16,72,,109,90,22,14,5,5,0.4,0.4
2025-08-18T2100,3614A,79.924,37.0877,和田地区,地区环保局,颗粒物(PM10),355,464,1968,227,524,83,,86,86,5,13,3,2,0.4,0.5
2025-08-18T2100,3615A,79.9131,37.113,和田地区,市环保局,颗粒物(PM10),500,654,1764,252,476,67,,76,75,14,19,3,3,0.3,0.3
2025-08-18T2100,2516A,108.2011,24.715,河池市,东仁乐园,,,,,,,,,,,,,,,,
2025-08-18T2100,2517A,108.0497,24.6947,河池市,市环保站,,13,13,18,7,7,27,,42,36,11,9,4,4,0.6,0.5
2025-08-18T2100,2518A,108.0983,24.6989,河池市,市疾控中心,,12,12,17,8,9,15,,33,27,15,13,5,6,0.6,0.6
2025-08-18T2100,1696A,114.6778,23.7569,河源市,源西,,10,10,12,6,4,4,,28,20,14,5,4,5,0.7,0.7
2025-08-18T2100,1697A,114.6944,23.7586,河源市,东埔,,10,10,12,3,7,15,,35,28,17,8,4,5,0.6,0.5
2025-08-18T2100,1698A,114.6892,23.7233,河源市,老城,,,18,14,18,7,3,,37,28,25,7,5,5,,0.6
2025-08-18T2100,1718A,115.4208,35.2464,菏泽市,气象局,,40,34,38,18,22,127,,125,120,11,10,2,3,0.3,0.4
2025-08-18T2100,3374A,115.5564,35.0891,菏泽市,定陶老年大学,,35,31,32,12,14,111,,128,127,8,9,5,5,0.3,0.3
2025-08-18T2100,4184A,115.4797,35.24401,菏泽市,永昌路1号,,36,35,41,22,24,113,,122,121,16,15,6,7,0.3,0.3
2025-08-18T2100,4193A,115.4715,35.2800,菏泽市,长城路999号,,40,38,38,9,20,128,,132,131,12,13,5,7,0.5,0.5
2025-08-18T2100,2514A,111.5264,24.4172,贺州市,环保小区,,18,18,18,3,10,38,,42,42,10,12,12,12,1.0,1
2025-08-18T2100,2515A,111.5608,24.4078,贺州市,政协大楼,,14,14,16,8,8,44,,50,49,11,10,8,9,0.7,0.7
2025-08-18T2100,3534A,111.4744,24.4553,贺州市,西湾,,11,9,24,3,14,34,,34,34,12,10,9,9,0.7,0.7
2025-08-18T2100,2385A,114.17,35.9019,鹤壁市,市监测站,,41,41,34,24,28,112,,148,145,10,8,3,4,0.3,0.4
2025-08-18T2100,2386A,114.2956,35.7511,鹤壁市,市交警支队,细颗粒物(PM2.5),52,,27,36,25,88,,131,124,12,13,8,6,0.7,0.6
2025-08-18T2100,2387A,114.2878,35.7306,鹤壁市,迎宾馆,,38,34,39,26,26,89,,138,130,11,7,2,4,0.6,0.7
2025-08-18T2100,3474A,114.2617,35.6822,鹤壁市,大新区,,35,35,38,16,19,84,,132,122,10,4,7,8,0.5,0.6
2025-08-18T2100,3596A,114.1572,35.9603,鹤壁市,南山宾馆,,40,40,30,17,19,119,,158,153,8,7,4,4,0.5,0.6
2025-08-18T2100,2244A,130.2537,47.3416,鹤岗市,哈啤分公司,,24,24,24,9,10,50,,77,71,6,8,12,12,0.5,0.5
2025-08-18T2100,2245A,130.2684,47.3086,鹤岗市,斯达机电,,31,31,33,10,10,61,,76,74,12,12,13,12,0.5,0.3
2025-08-18T2100,2246A,130.3114,47.3388,鹤岗市,东山纸板厂,,31,31,47,12,18,37,,78,68,18,17,13,13,0.5,0.5
2025-08-18T2100,2247A,130.1097,47.3382,鹤岗市,五号水库,,11,7,12,3,5,34,,69,54,11,10,8,8,0.4,0.3
2025-08-18T2100,2263A,127.4833,50.2524,黑河市,交通局,,19,18,25,13,12,36,,52,45,9,11,4,5,0.3,0.2
2025-08-18T2100,2264A,127.5144,50.2341,黑河市,环保局,,19,,25,13,10,42,,59,51,10,11,5,5,0.2,0.2
2025-08-18T2100,2265A,127.5291,50.2472,黑河市,大黑河岛,,,,,,,32,,45,41,5,5,19,20,,
2025-08-18T2100,1074A,115.6838,37.7541,衡水市,电机北厂,,38,34,28,26,14,85,,116,113,15,12,5,5,0.2,0.4
2025-08-18T2100,1075A,115.6303,37.7316,衡水市,市监测站,,34,34,22,22,13,92,,114,113,8,6,7,8,0.7,0.6
2025-08-18T2100,3188A,115.6683,37.7217,衡水市,市城管局,,37,37,25,18,15,77,,115,112,20,10,3,3,0.5,0.4
2025-08-18T2100,3459A,115.5989,37.5491,衡水市,地表水厂,,,55,30,15,8,52,,115,105,,14,8,9,0.3,0.3
2025-08-18T2100,2456A,112.5003,26.9167,衡阳市,原169医院,,13,8,25,6,12,39,,69,56,3,3,4,4,0.4,0.5
2025-08-18T2100,2457A,112.6194,26.9258,衡阳市,衡阳化工总厂,,20,20,26,11,15,38,,60,47,6,9,4,5,0.7,0.7
2025-08-18T2100,2458A,112.6211,26.8956,衡阳市,珠晖区环保局,,19,19,21,11,13,39,,59,47,5,8,9,8,0.5,0.6
2025-08-18T2100,2459A,112.6197,26.8733,衡阳市,市委党校,,14,14,20,8,12,37,,57,47,8,8,11,11,0.3,0.3
2025-08-18T2100,2460A,112.6006,26.8919,衡阳市,市监测站,,23,20,20,16,14,38,,58,48,8,8,18,7,0.6,0.5
2025-08-18T2100,2461A,112.5664,26.9056,衡阳市,真空机电公司,,16,15,28,11,15,38,,62,49,7,8,9,5,1.0,0.7
2025-08-18T2100,3399A,112.6703,26.882,衡阳市,师范学院,,23,20,27,16,14,35,,54,44,9,9,8,10,0.7,0.8
2025-08-18T2100,2608A,103.3772,23.3993,红河哈尼族彝族自治州,污水处理厂,颗粒物(PM10),55,60,36,34,25,42,,96,87,22,14,9,19,0.4,0.4
2025-08-18T2100,2609A,103.3861,23.35,红河哈尼族彝族自治州,监测站,,46,46,41,28,22,59,,96,91,11,8,12,28,0.1,0.1
2025-08-18T2100,3038A,103.3758,23.368,红河哈尼族彝族自治州,州图书馆,,40,31,30,28,22,62,,95,90,11,10,3,31,0.3,0.3
2025-08-18T2100,1090A,111.6507,40.7517,呼和浩特市,呼市一监,,36,36,21,22,14,42,,80,73,30,18,2,2,0.6,0.4
2025-08-18T2100,1091A,111.6572,40.8033,呼和浩特市,小召,,39,39,20,23,16,55,,91,87,38,25,9,9,0.8,0.6
2025-08-18T2100,1094A,111.7516,40.8369,呼和浩特市,如意水处理厂,,32,32,24,17,13,52,,90,84,36,23,5,5,0.6,0.4
2025-08-18T2100,1095A,111.7276,40.8062,呼和浩特市,二十九中,,35,35,25,24,16,72,,97,93,27,20,5,5,0.7,0.7
2025-08-18T2100,1096A,111.5512,40.7866,呼和浩特市,工大金川校区,,38,38,26,13,12,35,,75,66,35,27,5,5,0.5,0.5
2025-08-18T2100,1097A,111.717,40.7612,呼和浩特市,化肥厂生活区,,37,37,24,23,14,65,,98,91,32,19,6,5,0.7,0.5
2025-08-18T2100,3698A,111.5968,40.8178,呼和浩特市,红旗小学,,29,29,20,12,12,59,,94,84,31,23,2,2,0.3,0.4
2025-08-18T2100,3699A,111.6518,40.8389,呼和浩特市,海东办,,,39,29,15,12,,,98,97,57,31,4,5,0.5,0.5
2025-08-18T2100,2192A,119.7594,49.2261,呼伦贝尔市,区环保局,,21,21,27,9,12,67,,83,77,9,10,5,5,0.5,0.5
2025-08-18T2100,3061A,119.7512,49.1577,呼伦贝尔市,国华电力东,,23,19,18,16,11,61,,95,86,3,4,9,8,0.6,0.6
2025-08-18T2100,1250A,120.0751,30.8669,湖州市,城西水厂,,30,19,30,9,18,95,,172,159,9,9,7,7,0.3,0.4
2025-08-18T2100,2873A,120.0830,30.8929,湖州市,仁皇山新区,,29,17,30,8,16,91,,164,152,13,11,5,5,0.5,0.4
2025-08-18T2100,2907A,120.1844,30.8596,湖州市,吴兴区站,,25,25,28,7,16,76,,153,140,14,10,7,7,0.6,0.6
2025-08-18T2100,3562A,120.4148,30.8538,湖州市,南浔区站,,24,24,25,11,13,60,,136,124,17,9,8,6,0.6,0.5
2025-08-18T2100,1607A,120.9049,40.7211,葫芦岛市,龙港区,细颗粒物(PM2.5),60,67,49,43,20,136,,134,134,6,25,4,16,0.7,0.6
2025-08-18T2100,1608A,120.8392,40.7514,葫芦岛市,化工街,,35,34,36,24,17,105,,131,123,15,34,8,11,0.9,0.5
2025-08-18T2100,1609A,120.8341,40.7073,葫芦岛市,新区,细颗粒物(PM2.5),67,52,37,48,23,120,,131,129,10,25,4,9,1.0,0.7
2025-08-18T2100,1610A,120.8695,40.7677,葫芦岛市,东城区,,,,35,54,22,,,126,123,14,24,4,8,1.0,0.7
2025-08-18T2100,2482A,109.5981,27.5721,怀化市,林科所,,41,41,34,14,8,8,,76,47,10,7,4,4,0.7,0.6
2025-08-18T2100,2483A,109.9453,27.5444,怀化市,河西地税局,,30,30,35,18,15,15,,67,46,16,11,3,3,0.2,0.2
2025-08-18T2100,2484A,109.9781,27.5342,怀化市,市四医院,,36,36,42,23,21,26,,76,53,13,14,4,5,0.5,0.5
2025-08-18T2100,2485A,109.9972,27.5578,怀化市,监测楼,,31,31,39,21,18,40,,72,50,8,13,3,5,0.2,0.3
2025-08-18T2100,2486A,110.0394,27.583,怀化市,市委党校,,23,23,37,13,18,37,,62,45,4,12,7,9,0.1,0.2
2025-08-18T2100,1210A,119.036,33.5981,淮安市,钵池山,,40,27,27,20,21,126,,136,135,12,13,9,10,0.6,0.6
2025-08-18T2100,1211A,119.007,33.575,淮安市,北京南路,,48,48,34,19,18,126,,135,134,16,15,7,8,0.9,0.8
2025-08-18T2100,1212A,118.989,33.6067,淮安市,市监测站,,,36,35,27,23,,,143,143,11,15,9,11,0.6,0.6
2025-08-18T2100,1213A,119.135,33.5039,淮安市,楚州区监测站,颗粒物(PM10),53,56,48,21,22,102,,137,130,21,20,8,9,0.4,0.4
2025-08-18T2100,3426A,118.8755,33.2894,淮安市,新华书店,,,36,31,24,20,150,,149,149,,14,5,6,0.5,0.5
2025-08-18T2100,4206A,119.0288,33.6319,淮安市,承德北路606号,,39,39,38,20,22,117,,130,128,18,16,6,7,0.4,0.4
2025-08-18T2100,2282A,116.8004,33.975,淮北市,监测站,,46,,36,29,25,146,,185,180,20,17,8,9,0.7,0.6
2025-08-18T2100,2283A,116.8091,33.9007,淮北市,烈山区政府,颗粒物(PM10),56,62,59,17,19,133,,177,172,17,14,9,10,0.5,0.6
2025-08-18T2100,3330A,116.8873,33.9836,淮北市,杜集区检察院,,44,37,35,26,23,140,,165,161,11,9,8,9,0.6,0.6
2025-08-18T2100,4017A,116.7923,33.9535,淮北市,市博物馆,,46,42,36,21,24,146,,186,179,15,12,9,11,0.5,0.5
2025-08-18T2100,2277A,116.8305,32.7727,淮南市,潘集区政府,,27,25,33,15,19,84,,131,110,8,13,2,3,0.3,0.3
2025-08-18T2100,2279A,116.8569,32.5951,淮南市,谢家集区政府,,34,34,33,10,13,84,,128,109,15,10,6,8,0.2,0.3
2025-08-18T2100,2280A,116.8281,32.633,淮南市,八公山区政府,,27,24,32,12,16,85,,127,107,9,9,3,6,0.3,0.4
2025-08-18T2100,2281A,116.6325,32.6201,淮南市,焦岗湖风景区管理处,,,,,,,,,,,,,,,,
2025-08-18T2100,2894A,117.0566,32.6531,淮南市,经济技术开发区消防队,,35,35,30,3,8,111,,129,117,13,13,9,9,0.3,0.3
2025-08-18T2100,3329A,117.0108,32.5893,淮南市,山南新区,,31,29,22,7,11,97,,126,112,11,8,4,5,0.5,0.5
2025-08-18T2100,4209A,117.0031,32.6445,淮南市,国庆中路369号,,36,28,29,22,22,114,,139,122,8,9,3,5,0.4,0.5
2025-08-18T2100,2446A,114.9028,30.4742,黄冈市,职工中心,,36,29,29,17,19,113,,178,149,12,12,9,9,0.3,0.4
2025-08-18T2100,2929A,114.8858,30.4519,黄冈市,红卫路,,39,39,30,23,21,86,,164,132,25,17,11,12,0.3,0.4
2025-08-18T2100,3398A,114.9136,30.4445,黄冈市,市林业局,,40,40,35,17,17,94,,171,139,22,16,9,10,1.3,0.5
2025-08-18T2100,2672A,102.0199,35.5102,黄南藏族自治州,同仁县隆务镇,,23,21,29,8,16,71,,100,91,8,6,10,10,0.3,0.3
2025-08-18T2100,2295A,118.2903,29.6963,黄山市,延安路89号,,30,30,24,18,9,38,,87,73,7,6,4,4,0.4,0.3
2025-08-18T2100,2297A,118.1371,30.2756,黄山市,黄山区政府5号楼,,39,35,26,27,13,38,,78,65,6,4,4,4,0.5,0.4
2025-08-18T2100,4210A,118.3354,29.7203,黄山市,滨江东路7-2号,,25,25,26,11,6,45,,90,76,8,8,2,2,0.4,0.3
2025-08-18T2100,2423A,115.0601,30.2313,黄石市,沈家营,,45,45,43,18,13,77,,136,116,22,20,11,8,1.0,0.5
2025-08-18T2100,2426A,114.8988,30.2019,黄石市,铁山,,36,36,30,6,10,82,,104,96,15,10,6,8,0.4,0.5
2025-08-18T2100,2427A,115.0307,30.2092,黄石市,团城山,,34,29,30,8,8,106,,130,126,4,14,10,11,0.3,0.4
2025-08-18T2100,3149A,115.0235,30.1578,黄石市,笔架山北路,,,,22,,7,,,94,,,7,,8,,0.5
2025-08-18T2100,4185A,115.0780,30.21118,黄石市,磁湖东路29号,,41,41,44,18,15,94,,120,110,8,23,11,12,0.5,0.7
2025-08-18T2100,1392A,114.4183,23.0528,惠州市,河南岸金山湖子站,,10,9,8,6,3,30,,34,34,12,9,6,6,0.5,0.4
2025-08-18T2100,1393A,114.4053,23.0822,惠州市,下埔横江三路子站,,11,10,10,6,5,33,,38,38,10,7,4,5,0.4,0.3
2025-08-18T2100,1394A,114.4103,23.1142,惠州市,江北云山西路子站,,12,12,13,6,4,37,,41,41,12,10,7,10,0.5,0.5
2025-08-18T2100,1395A,114.4645,22.7833,惠州市,惠阳区承修路船湖子站,,17,17,9,10,4,35,,42,42,12,7,6,7,0.6,0.5
2025-08-18T2100,1396A,114.5317,22.7422,惠州市,大亚湾管委会子站,,,16,10,9,5,36,,45,44,,10,7,8,0.4,0.5
2025-08-18T2100,3314A,114.4338,22.8134,惠州市,惠阳秋长,,12,,5,7,5,37,,44,44,15,8,6,6,0.4,0.4
2025-08-18T2100,3452A,114.6517,22.775,惠州市,大亚湾霞涌,,16,13,9,3,3,49,,52,52,8,7,5,5,0.7,0.7
2025-08-18T2100,2240A,130.9762,45.3001,鸡西市,环保局,,20,20,23,6,8,30,,67,54,18,16,6,7,0.4,0.4
2025-08-18T2100,2243A,130.9429,45.3039,鸡西市,第一中学,,,24,26,10,8,,,66,58,17,17,8,10,0.6,0.5
2025-08-18T2100,3707A,131.0207,45.3073,鸡西市,欧美日汽修厂,,20,20,30,7,10,32,,67,55,17,16,9,10,0.6,0.6
2025-08-18T2100,3709A,130.9967,45.3106,鸡西市,市政设施管理处,,24,24,29,10,9,31,,70,57,18,19,6,7,0.5,0.5
2025-08-18T2100,2367A,114.9754,27.0803,吉安市,红声器材厂,,28,28,26,14,11,48,,71,64,7,5,8,9,0.5,0.5
2025-08-18T2100,2368A,114.9658,27.0999,吉安市,市森林工业局,,32,32,24,18,10,44,,72,65,11,7,7,9,0.1,0.4
2025-08-18T2100,2369A,114.99,27.1312,吉安市,市环境监测站,,,31,24,18,10,,,81,75,,5,,13,,0.5
2025-08-18T2100,2370A,115.0093,27.0968,吉安市,青原区法院,,24,24,20,14,10,50,,72,66,8,7,8,9,0.6,0.6
2025-08-18T2100,1772A,126.54,43.8622,吉林市,哈达湾,,35,35,20,18,10,72,,95,92,18,14,7,7,0.6,0.4
2025-08-18T2100,1773A,126.5844,43.8358,吉林市,东局子,,,,18,24,13,,,77,73,19,11,5,5,0.8,0.7
2025-08-18T2100,1774A,126.5052,43.8245,吉林市,电力学院,颗粒物(PM10),51,52,25,30,14,27,,87,78,26,14,6,6,0.8,0.6
2025-08-18T2100,1775A,126.6133,43.8972,吉林市,江北,,35,27,20,24,10,40,,81,71,15,8,4,4,0.9,0.7
2025-08-18T2100,1776A,126.555,43.8306,吉林市,江南公园,,,37,22,18,11,,,90,90,16,12,3,2,0.5,0.5
2025-08-18T2100,1778A,126.7061,43.7133,吉林市,丰满,,19,17,10,13,7,50,,84,76,5,4,5,5,0.9,0.6
2025-08-18T2100,2868A,126.4739,43.953,吉林市,九站,颗粒物(PM10),52,54,30,15,12,41,,90,77,24,21,8,6,0.7,0.4
2025-08-18T2100,1299A,116.9862,36.6114,济南市,科干所,,42,,33,29,26,129,,133,133,9,19,6,6,0.6,0.6
2025-08-18T2100,1300A,116.9376,36.665,济南市,农科所,,34,34,33,17,19,94,,128,128,19,28,7,8,0.4,0.4
2025-08-18T2100,1301A,117.1265,36.6734,济南市,开发区,颗粒物(PM10),53,56,40,29,24,83,,137,136,28,30,7,7,0.9,0.7
2025-08-18T2100,1303A,117.0624,36.6868,济南市,省种子仓库,颗粒物(PM10),60,70,47,36,20,96,,132,132,31,35,4,5,1.0,0.8
2025-08-18T2100,1304A,116.9489,36.6447,济南市,机床二厂,,44,44,38,22,18,104,,132,132,29,30,9,9,0.5,0.5
2025-08-18T2100,1305A,117.0495,36.663,济南市,市监测站,,42,42,41,20,22,103,,121,121,22,35,9,9,0.8,0.8
2025-08-18T2100,1306A,116.7675,36.5484,济南市,长清党校,,38,29,32,24,25,121,,127,127,12,18,5,5,0.6,0.6
2025-08-18T2100,1616A,117.6795,36.229,济南市,技术学院,,44,31,26,24,18,140,,148,148,13,14,7,8,0.7,0.8
2025-08-18T2100,1961A,117.532,36.6868,济南市,东山小学,颗粒物(PM10),51,51,39,32,23,94,,135,135,30,19,6,6,0.6,0.5
2025-08-18T2100,3059A,117.7161,36.2049,济南市,泰兴公司,,48,48,29,29,17,92,,129,127,33,18,10,11,0.6,0.6
2025-08-18T2100,3064A,117.6867,36.2171,济南市,莱芜战役纪念馆,,41,41,30,22,20,118,,134,133,18,16,7,8,1.0,1
2025-08-18T2100,3494A,117.1673,36.9782,济南市,济阳区政府,"颗粒物(PM10),细颗粒物(PM2.5)",64,78,38,46,18,138,,154,154,16,15,7,8,0.9,0.4
2025-08-18T2100,3495A,117.1171,36.63,济南市,锦屏中学,,34,34,30,20,17,73,,108,,11,16,8,8,0.7,0.7
2025-08-18T2100,3682A,116.9814,36.6819,济南市,济南四建,,39,39,38,22,22,118,,146,146,15,28,4,5,0.6,0.6
2025-08-18T2100,1653A,116.6251,35.4302,济宁市,火炬城,,38,38,34,12,15,106,,136,128,10,9,4,5,0.6,0.7
2025-08-18T2100,1655A,116.5491,35.4042,济宁市,电化厂,,41,31,36,14,16,131,,149,143,6,9,2,2,0.8,0.9
2025-08-18T2100,3500A,116.5814,35.3707,济宁市,北湖一中,,40,27,34,14,15,125,,146,140,4,7,4,5,0.3,0.4
2025-08-18T2100,3501A,116.8249,35.5593,济宁市,服务中心,,,,29,,11,124,,136,135,8,9,,2,0.6,0.6
2025-08-18T2100,3678A,116.5907,35.4054,济宁市,市第七中学,,38,34,37,12,10,121,,140,136,7,9,6,6,0.4,0.5
2025-08-18T2100,2255A,130.2751,46.8028,佳木斯市,佳纺,,38,38,26,14,10,30,,63,51,23,22,9,9,0.4,0.4
2025-08-18T2100,2256A,130.3995,46.8307,佳木斯市,发电厂,,29,29,29,11,10,42,,61,55,13,22,6,8,0.6,0.6
2025-08-18T2100,2257A,130.3258,46.7975,佳木斯市,环保局,,34,34,27,14,12,32,,57,49,25,29,8,8,0.6,0.6
2025-08-18T2100,2258A,130.3648,46.8032,佳木斯市,十一中,,20,20,23,3,17,46,,69,64,15,23,9,9,0.6,0.6
2025-08-18T2100,2259A,130.3794,46.7588,佳木斯市,四丰,,,23,12,,,5,,6,6,31,25,1,1,0.5,0.4
2025-08-18T2100,1252A,120.7436,30.778,嘉兴市,清河小学,,19,19,18,6,7,36,,113,100,18,10,7,6,0.7,0.6
2025-08-18T2100,1253A,120.726,30.7478,嘉兴市,嘉兴学院,,33,33,22,7,9,33,,115,99,12,8,5,5,0.4,0.4
2025-08-18T2100,2872A,120.7846,30.7525,嘉兴市,南湖区残联,,20,20,16,8,8,30,,110,95,16,11,6,6,0.6,0.5
2025-08-18T2100,3407A,120.6916,30.7739,嘉兴市,秀洲住建,,20,20,19,6,9,42,,126,110,14,10,7,6,0.6,0.5
2025-08-18T2100,1945A,98.2908,39.7711,嘉峪关市,气象局,,,41,47,12,14,103,,123,120,,16,7,6,0.5,0.6
2025-08-18T2100,2884A,98.2672,39.7978,嘉峪关市,酒钢宾馆,,41,41,60,12,17,129,,137,136,12,18,12,25,0.5,1.2
2025-08-18T2100,3248A,98.2643,39.7724,嘉峪关市,雄关区,,32,32,46,18,18,101,,116,114,18,21,12,12,0.7,0.6
2025-08-18T2100,1383A,113.1064,22.6058,江门市,北街,,14,14,11,8,6,28,,49,43,18,14,3,3,0.5,0.4
2025-08-18T2100,1384A,113.0731,22.5835,江门市,西区,,23,23,12,6,5,38,,55,50,13,14,6,6,0.4,0.4
2025-08-18T2100,1385A,113.0219,22.5311,江门市,圭峰西,,14,6,10,3,5,44,,58,55,8,10,2,2,0.5,0.5
2025-08-18T2100,1386A,113.0828,22.5947,江门市,东湖,,12,12,10,7,5,33,,49,45,11,12,7,7,0.4,0.4
2025-08-18T2100,3311A,113.1075,22.5647,江门市,江海富民,,33,33,21,3,8,39,,56,51,13,12,8,8,0.3,0.3
2025-08-18T2100,3449A,113.05,22.4667,江门市,新会银湖,,12,9,10,3,6,38,,44,39,8,11,1,1,0.4,0.4
2025-08-18T2100,1830A,113.1992,35.2590,焦作市,影视城,,,,27,,22,,,,,,4,,7,,0.5
2025-08-18T2100,3335A,113.3137,35.2641,焦作市,马村街道办,,,,41,,26,137,,173,171,16,12,6,5,0.5,0.6
2025-08-18T2100,3336A,113.2465,35.2373,焦作市,焦作技师学院,颗粒物(PM10),55,60,43,22,18,134,,168,166,17,13,6,7,0.6,0.7
2025-08-18T2100,3477A,113.1656,35.2539,焦作市,中站许衡医院,,49,46,36,34,25,143,,172,172,23,10,5,5,0.6,0.7
2025-08-18T2100,3981A,113.2449,35.1803,焦作市,原李万街道办,颗粒物(PM10),53,56,38,12,18,125,,176,172,19,14,4,8,0.2,0.3
2025-08-18T2100,4264A,113.2340,35.2190,焦作市,新安路1731号,,,62,45,23,21,,,184,184,12,10,4,5,0.3,0.8
2025-08-18T2100,4295A,113.2722,35.2121,焦作市,人民路3066号,颗粒物(PM10),65,79,47,29,27,123,,178,175,15,8,4,4,0.4,0.6
2025-08-18T2100,1708A,116.3701,23.5345,揭阳市,新兴,,12,10,20,7,10,37,,57,50,10,10,6,5,0.2,0.2
2025-08-18T2100,1709A,116.3264,23.5443,揭阳市,西马,,14,7,19,3,7,42,,59,50,3,6,2,2,0.4,0.5
2025-08-18T2100,1710A,116.3611,23.5626,揭阳市,东兴,,21,21,22,6,7,40,,58,50,5,8,3,5,0.4,0.4
2025-08-18T2100,1711A,116.4151,23.5294,揭阳市,渔湖,,,23,21,6,7,,,52,47,6,10,5,5,0.5,0.5
2025-08-18T2100,3320A,116.403,23.5699,揭阳市,曲溪,,,,16,11,10,,,58,51,4,7,3,3,0.4,0.3
2025-08-18T2100,1944A,102.1692,38.5167,金昌市,天庆家园,颗粒物(PM10),65,80,44,16,20,91,,107,107,11,20,2,11,1.1,0.8
2025-08-18T2100,4022A,102.1647,38.5371,金昌市,金川区人防中心,颗粒物(PM10),63,76,45,26,28,91,,116,115,12,17,7,18,0.7,0.6
2025-08-18T2100,4239A,102.1930,38.5319,金昌市,长春路96号,颗粒物(PM10),65,80,47,19,22,89,,105,105,8,17,4,56,0.4,0.4
2025-08-18T2100,1262A,119.647,29.077,金华市,十五中,,35,35,25,13,12,56,,170,83,22,12,6,4,0.3,0.2
2025-08-18T2100,1263A,119.686,29.1029,金华市,监测站,,33,33,24,12,11,64,,101,92,16,10,4,4,0.4,0.4
2025-08-18T2100,3659A,119.656,29.1131,金华市,气象局,,28,28,19,9,10,67,,97,89,13,8,2,2,0.3,0.2
2025-08-18T2100,1767A,121.1115,41.0879,锦州市,南山,,46,36,33,32,18,96,,138,124,15,12,8,11,0.7,0.5
2025-08-18T2100,1768A,121.0604,40.8428,锦州市,开发区,颗粒物(PM10),57,63,42,26,16,120,,126,121,15,18,3,10,1.0,0.9
2025-08-18T2100,1769A,121.1836,41.1119,锦州市,百股街道,,42,42,30,17,9,102,,139,124,12,12,5,9,0.7,0.6
2025-08-18T2100,1770A,121.1178,41.1222,锦州市,天安街道,颗粒物(PM10),52,53,35,24,16,109,,144,132,18,20,11,9,0.9,0.7
2025-08-18T2100,1771A,121.1303,41.1386,锦州市,北湖公园,细颗粒物(PM2.5),52,52,34,36,14,95,,130,118,15,13,7,6,0.8,0.6
2025-08-18T2100,2160A,112.85,35.5051,晋城市,自来水公司,臭氧1小时,72,47,46,19,22,177,,152,152,12,9,2,2,0.4,0.4
2025-08-18T2100,2161A,112.8318,35.4936,晋城市,白云商贸,颗粒物(PM10),52,53,36,19,14,154,,136,136,10,7,3,3,0.6,0.5
2025-08-18T2100,2162A,112.8508,35.4887,晋城市,市环保局,,48,48,37,14,18,148,,133,133,8,6,4,4,0.5,0.5
2025-08-18T2100,2163A,112.8676,35.4897,晋城市,技术学院,,,39,32,19,14,,,128,128,11,7,4,3,0.6,0.6
2025-08-18T2100,2165A,112.8453,35.546,晋城市,白马寺,,,,23,,20,,,113,,,3,,6,,0.6
2025-08-18T2100,3620A,112.8271,35.4828,晋城市,泽州一中,臭氧1小时,62,29,39,24,17,169,,147,147,9,6,4,4,0.6,0.6
2025-08-18T2100,2173A,112.7249,37.7067,晋中市,南都小区,,40,39,36,28,25,83,,110,104,11,10,2,4,0.8,0.7
2025-08-18T2100,2174A,112.6991,37.6982,晋中市,榆次区政府,,34,34,34,19,22,83,,107,100,11,9,5,5,0.8,0.8
2025-08-18T2100,2865A,112.7195,37.6828,晋中市,榆次三中,,34,34,32,22,20,88,,113,105,9,6,6,6,0.7,0.6
2025-08-18T2100,4200A,112.7478,37.6954,晋中市,迎宾街26号,,27,24,31,17,19,85,,113,105,11,8,6,6,0.7,0.6
2025-08-18T2100,2439A,112.2014,31.0481,荆门市,竹园小学,,42,42,34,19,18,101,,128,125,16,12,1,2,0.5,0.7
2025-08-18T2100,2440A,112.1969,30.9891,荆门市,掇刀,,36,36,34,21,18,96,,128,124,13,10,1,1,0.6,0.5
2025-08-18T2100,2441A,112.2213,31.0386,荆门市,石化一小,,37,37,35,14,21,83,,127,121,24,14,6,6,0.8,0.8
2025-08-18T2100,3012A,112.1849,31.0362,荆门市,西山林语,,31,31,26,21,16,95,,120,117,6,5,8,8,0.5,0.5
2025-08-18T2100,3547A,112.1632,31.0138,荆门市,龙泉中学南校,,35,35,31,15,17,103,,128,125,12,12,4,4,0.7,0.7
2025-08-18T2100,1844A,112.2494,30.3197,荆州市,市图书馆,,26,21,25,10,15,83,,126,107,12,15,3,3,0.5,0.5
2025-08-18T2100,1845A,112.2008,30.3544,荆州市,市委党校,,30,28,27,21,21,81,,124,109,19,18,3,7,0.3,0.4
2025-08-18T2100,3194A,112.2747,30.3122,荆州市,管委会,,25,23,27,17,19,79,,122,102,14,19,7,6,0.4,0.5
2025-08-18T2100,4268A,112.1722,30.3366,荆州市,学苑路85号,,45,32,24,31,22,51,,126,103,28,17,6,7,0.5,0.5
2025-08-18T2100,2342A,117.3102,29.3867,景德镇市,王港中学,,,,,,,,,,,,,,,,
2025-08-18T2100,2343A,117.2117,29.2933,景德镇市,老干部活动中心,,27,27,23,16,12,73,,97,91,9,13,7,9,0.5,0.5
2025-08-18T2100,2344A,117.1894,29.2789,景德镇市,兽医站,,33,33,28,19,12,65,,98,90,10,10,5,6,0.8,0.7
2025-08-18T2100,2346A,117.2461,29.2956,景德镇市,陶研所,,28,28,25,15,14,60,,105,93,8,10,7,7,0.8,0.8
2025-08-18T2100,4289A,117.1542,29.2566,景德镇市,青少年活动中心,颗粒物(PM10),63,75,37,23,19,32,,88,72,52,26,4,20,0.6,0.7
2025-08-18T2100,1803A,115.9872,29.6815,九江市,十里,,35,,22,24,23,105,,113,112,7,20,5,5,0.6,0.6
2025-08-18T2100,1804A,115.9584,29.7046,九江市,茅山头,,38,30,27,26,19,101,,108,106,2,13,7,5,0.6,0.6
2025-08-18T2100,1805A,115.9877,29.7295,九江市,西园,,35,33,25,16,14,112,,126,122,14,36,3,12,0.4,0.6
2025-08-18T2100,1808A,115.9114,29.6038,九江市,综合工业园,,37,29,23,14,15,116,,112,112,12,20,7,7,0.6,0.7
2025-08-18T2100,1809A,116.0721,29.7535,九江市,石化总厂,,38,27,23,26,22,104,,108,108,18,21,8,6,0.5,0.6
2025-08-18T2100,1810A,115.9773,29.5698,九江市,庐山气象台,,34,19,12,7,6,108,,118,118,4,4,7,6,1.1,0.8
2025-08-18T2100,3190A,116.0254,29.6994,九江市,外国语学校,,33,17,20,16,19,105,,111,111,6,15,8,11,0.7,0.7
2025-08-18T2100,4253A,116.0102,29.6594,九江市,莲花大道8号,,36,25,16,13,14,114,,116,116,2,5,5,5,0.4,0.5
2025-08-18T2100,4240A,98.4958,39.7339,酒泉市,玉门东路5号,颗粒物(PM10),56,61,56,33,28,100,,116,114,17,20,37,11,0.6,0.3
2025-08-18T2100,4241A,98.5099,39.7506,酒泉市,北大街108号,颗粒物(PM10),53,56,54,28,26,93,,108,106,15,12,61,12,0.3,0.3
2025-08-18T2100,2698A,76.0072,39.4467,喀什地区,巡警大队,颗粒物(PM10),87,124,182,48,67,89,,99,99,14,18,3,3,0.5,0.5
2025-08-18T2100,2699A,75.9755,39.4694,喀什地区,吾办,颗粒物(PM10),96,141,192,54,79,86,,99,99,16,17,3,5,0.3,0.2
2025-08-18T2100,4027A,75.9483,39.4689,喀什地区,老干局,,,107,172,37,51,93,,102,102,11,15,5,8,,0.4
2025-08-18T2100,1824A,114.3389,34.7781,开封市,肿瘤医院,,48,48,38,19,20,106,,137,132,20,15,3,4,0.6,0.5
2025-08-18T2100,1826A,114.2885,34.7965,开封市,世纪星幼儿园,,44,44,40,16,19,112,,142,138,14,10,3,3,0.6,0.6
2025-08-18T2100,3147A,114.3438,34.8106,开封市,龙亭公园,,,47,38,,16,97,,134,130,17,9,4,4,1.0,0.8
2025-08-18T2100,3210A,114.3644,34.7964,开封市,汴京公园,颗粒物(PM10),58,65,43,19,21,110,,142,138,17,9,3,3,0.7,0.6
2025-08-18T2100,3473A,114.2485,34.8306,开封市,技师学院,,39,39,34,18,17,111,,137,134,9,8,5,5,0.9,1
2025-08-18T2100,3592A,114.4644,34.7556,开封市,祥符区生态环境局,,,,36,,18,70,,126,117,31,19,,6,,0.6
2025-08-18T2100,1951A,84.895,45.6094,克拉玛依市,长征新村,,35,16,29,10,9,109,,100,100,3,5,4,3,0.2,0.2
2025-08-18T2100,1952A,84.8988,45.5893,克拉玛依市,南林小区,,36,19,29,6,10,114,,99,99,18,9,5,5,0.2,0.1
2025-08-18T2100,1954A,84.905,44.3396,克拉玛依市,独山子区,,29,22,36,8,11,91,,95,93,6,10,10,11,0.4,0.4
2025-08-18T2100,1955A,85.6979,46.098,克拉玛依市,乌尔禾区商贸楼,,32,31,34,3,8,100,,93,93,6,10,6,7,0.3,0.3
2025-08-18T2100,3612A,85.1045,45.6899,克拉玛依市,白碱滩区新站,,36,29,40,14,16,113,,108,108,2,6,9,9,0.4,0.4
2025-08-18T2100,2697A,76.1454,39.7142,克孜勒苏柯尔克孜自治州,市人民政府,颗粒物(PM10),62,73,145,41,62,104,,102,102,8,12,4,5,0.1,0.1
2025-08-18T2100,3665A,76.1658,39.7157,克孜勒苏柯尔克孜自治州,克州文化中心,细颗粒物(PM2.5),70,84,127,51,69,108,,108,108,6,7,5,8,0.2,0.2
2025-08-18T2100,1450A,102.8204,24.8886,昆明市,呈贡新区,,26,,10,18,14,74,,105,103,18,18,4,4,0.3,0.5
2025-08-18T2100,1451A,102.6251,24.9608,昆明市,西山森林公园,,,,,,,,,,,,,,,,
2025-08-18T2100,1452A,102.7252,25.0902,昆明市,龙泉镇,,43,43,19,12,10,79,,122,120,16,16,3,2,0.4,0.3
2025-08-18T2100,1453A,102.7266,25.0375,昆明市,东风东路,,,34,23,18,11,,,134,134,,20,4,4,0.4,0.3
2025-08-18T2100,1454A,102.6742,25.0669,昆明市,金鼎山,,34,23,21,6,7,106,,133,133,13,15,3,1,0.3,0.2
2025-08-18T2100,1455A,102.6644,25.0401,昆明市,碧鸡广场,,,13,23,,13,79,,123,122,34,23,8,9,,0.4
2025-08-18T2100,3179A,102.7494,25.0119,昆明市,官渡区博物馆,,31,31,25,14,11,64,,122,118,38,29,2,1,0.4,0.5
2025-08-18T2100,3375A,102.8017,24.8336,昆明市,青年创业园,,21,13,17,13,11,65,,106,102,16,15,3,3,0.4,0.4
2025-08-18T2100,3550A,102.7997,24.9786,昆明市,昆明学院,,28,28,21,17,12,77,,114,112,23,22,7,6,0.2,0.2
2025-08-18T2100,3551A,102.5967,24.6736,昆明市,晋宁区生态环境分局,,30,30,21,12,11,71,,101,99,11,11,4,3,0.5,0.4
2025-08-18T2100,3552A,102.6678,24.9856,昆明市,云天化总部,,29,21,19,15,12,92,,125,124,16,22,5,5,0.2,0.3
2025-08-18T2100,1456A,91.1319,29.6514,拉萨市,八廓街,,25,12,11,7,8,78,,90,89,13,12,7,6,0.3,0.3
2025-08-18T2100,1457A,91.1221,29.6747,拉萨市,市环保局,,25,9,10,7,6,78,,93,92,11,8,6,7,0.5,0.4
2025-08-18T2100,1458A,91.0874,29.6475,拉萨市,区监测站,,23,6,8,3,5,73,,86,85,16,10,4,4,0.4,0.3
2025-08-18T2100,1459A,91.1774,29.6541,拉萨市,西藏大学,,25,10,8,7,6,78,,88,88,12,11,5,6,0.2,0.2
2025-08-18T2100,1460A,90.9798,29.6588,拉萨市,区辐射站,,22,11,9,7,6,69,,81,80,11,7,4,5,0.3,0.3
2025-08-18T2100,1461A,91.0834,29.6292,拉萨市,拉萨火车站,,17,6,7,6,5,52,,84,80,10,7,6,6,0.1,0.2
2025-08-18T2100,2520A,109.2203,23.7256,来宾市,来宾技工学校,,12,11,17,3,9,36,,54,53,5,7,7,8,0.6,0.5
2025-08-18T2100,3535A,109.1781,23.7297,来宾市,兴宾区政府,,11,9,18,7,9,33,,58,56,12,8,6,6,0.5,0.5
2025-08-18T2100,4002A,109.2416,23.7461,来宾市,中南小学,,12,,17,6,8,37,,57,56,6,8,6,9,0.4,0.4
2025-08-18T2100,1477A,104.1373,35.9454,兰州市,榆中兰大校区,,,,,,,,,,,,,,,,
2025-08-18T2100,1479A,103.831,36.0464,兰州市,铁路设计院,颗粒物(PM10),56,62,36,28,21,60,,108,92,46,27,9,8,0.5,0.4
2025-08-18T2100,3241A,103.7439,36.0842,兰州市,百合公园,颗粒物(PM10),55,59,31,20,15,92,,113,108,16,13,6,4,0.5,0.5
2025-08-18T2100,3242A,103.9611,35.998,兰州市,和平,,26,26,23,9,10,80,,110,106,8,8,6,7,0.6,0.6
2025-08-18T2100,4236A,103.6293,36.0938,兰州市,庄浪东路808号,,45,45,37,17,17,84,,126,116,24,26,13,12,0.6,0.4
2025-08-18T2100,4237A,103.7251,36.1043,兰州市,安宁西路88号,颗粒物(PM10),56,62,36,28,16,104,,129,125,14,10,6,6,0.4,0.3
2025-08-18T2100,4238A,103.8470,36.0676,兰州市,北滨河东路1号,颗粒物(PM10),52,54,27,31,17,36,,119,99,76,19,9,8,1.0,0.4
2025-08-18T2100,3245A,103.6633,36.533,兰州新区,新区管委会,,40,40,30,24,16,95,,130,125,11,8,11,18,0.3,0.4
2025-08-18T2100,3246A,103.6975,36.4789,兰州新区,舟曲中学,,36,36,26,14,11,97,,123,117,16,10,6,18,0.3,0.4
2025-08-18T2100,1067A,116.6708,39.5111,廊坊市,药材公司,,39,39,36,26,21,83,,115,110,15,14,3,6,0.4,0.4
2025-08-18T2100,1068A,116.7214,39.5589,廊坊市,开发区,,36,36,40,22,22,108,,122,121,12,15,2,4,0.4,0.5
2025-08-18T2100,1070A,116.7244,39.5269,廊坊市,北华航天学院,颗粒物(PM10),59,67,55,18,25,106,,125,123,10,12,3,6,0.4,0.5
2025-08-18T2100,2919A,116.7022,39.5453,廊坊市,河北工业大学,,47,47,50,19,19,116,,127,127,8,11,4,5,0.4,0.5
2025-08-18T2100,2535A,103.7723,29.5462,乐山市,花湖湾,,35,23,11,19,8,112,,111,111,12,8,2,2,0.4,0.4
2025-08-18T2100,2536A,103.7627,29.5844,乐山市,牛耳桥,,34,17,11,11,8,106,,123,123,13,9,4,4,0.6,0.5
2025-08-18T2100,2537A,103.7508,29.6006,乐山市,市第三水厂,,32,16,11,12,9,102,,116,116,15,9,3,3,0.7,0.7
2025-08-18T2100,2538A,103.7571,29.5664,乐山市,市监测站,,,16,12,12,8,,,116,116,9,8,6,5,0.8,0.7
2025-08-18T2100,3361A,103.7311,29.5628,乐山市,理工大学,,30,19,12,10,7,96,,120,120,18,9,6,6,0.7,0.7
2025-08-18T2100,2598A,100.2143,26.8576,丽江市,西南郊,,18,17,14,12,9,51,,71,69,13,10,6,7,1.0,0.9
2025-08-18T2100,2599A,100.2497,26.8802,丽江市,丽江古城,,,22,19,18,7,,,71,71,16,14,10,10,0.6,0.5
2025-08-18T2100,2600A,100.2203,26.8906,丽江市,市中心,,20,,12,14,10,36,,69,64,23,13,10,11,0.7,0.6
2025-08-18T2100,1267A,119.914,28.4514,丽水市,监测站大楼,,25,15,16,11,7,80,,71,71,8,8,4,4,0.4,0.3
2025-08-18T2100,1268A,119.93,28.4586,丽水市,莲都小学,,27,21,18,9,7,84,,76,76,8,7,3,3,0.4,0.4
2025-08-18T2100,1269A,119.879,28.4231,丽水市,余庄前,,26,18,16,12,12,82,,75,73,8,8,5,5,0.4,0.4
2025-08-18T2100,1173A,119.176,34.5885,连云港市,市环境监测站,,31,31,33,14,18,98,,124,115,13,10,2,2,0.5,0.5
2025-08-18T2100,3000A,119.3581,34.6972,连云港市,德源药业,,34,34,33,12,19,78,,111,101,23,14,5,5,0.7,0.6
2025-08-18T2100,3007A,119.178,34.844,连云港市,新城一中,,30,30,35,12,22,69,,146,127,28,17,4,5,1.1,1.1
2025-08-18T2100,3008A,119.3608,34.7519,连云港市,胡沟管理处,,30,22,25,9,15,95,,121,104,18,14,9,9,0.5,0.4
2025-08-18T2100,3009A,119.1478,34.5911,连云港市,矿山设计院,,36,36,34,17,21,93,,123,115,12,10,5,5,0.7,0.7
2025-08-18T2100,3434A,119.2413,34.6539,连云港市,工贸学校,,35,25,35,12,24,111,,132,126,6,7,7,7,0.8,0.8
2025-08-18T2100,3664A,119.4172,34.7341,连云港市,连云街道,,33,21,33,11,21,104,,118,113,10,10,4,5,0.6,0.7
2025-08-18T2100,2571A,102.3431,27.8099,凉山彝族自治州,青龙寺,,16,16,15,6,7,43,,80,71,4,4,1,2,0.4,0.5
2025-08-18T2100,2572A,102.2721,27.8415,凉山彝族自治州,邛海宾馆,,,19,21,11,14,,,86,84,10,8,5,8,,0.7
2025-08-18T2100,2573A,102.2625,27.898,凉山彝族自治州,西昌市政府,,24,6,18,3,15,75,,91,88,5,10,5,9,0.3,0.6
2025-08-18T2100,2574A,102.2685,27.8851,凉山彝族自治州,凉山州政府,,28,20,21,19,17,68,,93,88,14,16,8,11,0.6,0.8
2025-08-18T2100,4229A,102.2342,27.8859,凉山彝族自治州,凯乐南路30号,,21,15,20,3,12,65,,88,83,8,14,9,12,0.5,0.8
2025-08-18T2100,2212A,123.2,41.1953,辽阳市,宏伟区,,35,35,27,20,11,83,,112,106,18,11,3,3,0.8,0.7
2025-08-18T2100,2213A,123.1683,41.2495,辽阳市,新华园,,30,30,34,13,14,80,,115,106,16,17,6,8,0.8,0.8
2025-08-18T2100,2214A,123.2354,41.2639,辽阳市,滨河路,,31,31,29,12,12,82,,113,108,17,14,4,4,0.7,0.7
2025-08-18T2100,2215A,123.149,41.2991,辽阳市,铁西工业园,,44,44,41,7,14,73,,107,99,14,21,10,5,2.1,1.2
2025-08-18T2100,2227A,125.1358,42.8845,辽源市,环保局,颗粒物(PM10),51,51,30,22,7,78,,109,106,19,14,8,8,0.9,0.6
2025-08-18T2100,3239A,125.0764,42.9078,辽源市,银鹰制药,,,36,19,27,11,,,116,113,59,18,10,8,0.8,0.6
2025-08-18T2100,1625A,115.9848,36.4372,聊城市,区政府,,34,33,32,12,21,108,,138,129,11,11,9,8,0.8,0.8
2025-08-18T2100,2878A,116.0072,36.4343,聊城市,聊大东校,,41,41,38,13,22,98,,148,136,21,16,6,7,0.3,0.5
2025-08-18T2100,3200A,115.9819,36.4978,聊城市,监控中心,,35,35,36,14,17,110,,141,132,11,18,6,6,0.7,0.6
2025-08-18T2100,3513A,116.0445,36.4361,聊城市,九州社区,,43,43,40,19,21,87,,140,126,17,15,3,5,0.3,0.3
2025-08-18T2100,4018A,116.0567,36.4608,聊城市,星美广场,,39,39,38,17,21,92,,146,132,17,17,2,3,0.6,0.6
2025-08-18T2100,2632A,94.3681,29.6376,林芝市,林芝监测站,,11,7,6,7,4,35,,65,56,7,3,6,6,0.4,0.3
2025-08-18T2100,2633A,94.3616,29.6616,林芝市,林芝人民医院,,12,10,9,8,4,31,,66,56,6,2,7,6,0.5,0.4
2025-08-18T2100,2603A,100.0781,23.8982,临沧市,市环保局,,,15,16,12,10,55,,65,63,,7,12,8,0.4,0.5
2025-08-18T2100,2604A,100.0894,23.8822,临沧市,市气象局,,,17,16,10,13,,,52,50,10,7,6,6,0.3,0.4
2025-08-18T2100,1733A,111.5531,36.0783,临汾市,临钢医院,颗粒物(PM10),54,58,36,14,9,83,,123,111,15,16,6,7,0.5,0.6
2025-08-18T2100,1734A,111.5028,36.0714,临汾市,技工学校,颗粒物(PM10),52,54,40,30,22,78,,123,114,13,11,6,7,0.6,0.6
2025-08-18T2100,1736A,111.5018,36.0855,临汾市,市委,,48,48,55,15,14,88,,135,126,12,11,5,5,0.8,0.9
2025-08-18T2100,3018A,111.505,36.1014,临汾市,唐尧大酒店,颗粒物(PM10),56,62,52,19,15,81,,125,118,13,12,3,4,0.7,0.7
2025-08-18T2100,4244A,111.4879,36.0530,临汾市,启星学校,细颗粒物(PM2.5),54,42,41,38,24,80,,122,114,16,13,6,5,0.6,0.7
2025-08-18T2100,4271A,103.2464,35.6123,临夏回族自治州,滨河东路1号,,50,50,59,18,33,48,,75,69,14,17,6,7,0.4,0.5
2025-08-18T2100,4310A,103.2093,35.5995,临夏回族自治州,新华街21号,,43,,48,30,29,84,,91,90,6,14,6,6,0.3,0.4
2025-08-18T2100,1618A,118.3429,35.0532,临沂市,沂河小区,,46,44,41,32,29,119,,168,160,32,19,8,9,0.4,0.4
2025-08-18T2100,1619A,118.295,35.0583,临沂市,鲁南制药厂,,40,39,37,27,24,126,,174,165,12,15,7,9,0.4,0.4
2025-08-18T2100,1620A,118.2794,34.9976,临沂市,新光毛纺厂,,46,46,36,29,24,121,,177,165,19,17,7,8,0.4,0.4
2025-08-18T2100,1621A,118.3956,35.0888,临沂市,河东保险公司,,39,39,37,21,21,111,,167,158,19,19,7,7,0.3,0.3
2025-08-18T2100,3370A,118.3564,35.0215,临沂市,十里堡居委,,38,36,34,24,24,119,,172,162,17,16,8,10,0.4,0.4
2025-08-18T2100,3496A,118.3604,35.1084,临沂市,南坊新区,,39,39,40,22,19,123,,179,167,13,19,7,9,0.5,0.5
2025-08-18T2100,3860A,118.3920,35.0300,临沂市,皇山花园小区,,46,46,37,30,20,115,,170,159,13,15,10,9,0.6,0.5
2025-08-18T2100,1870A,109.4856,24.3895,柳州市,柳东小学,,9,9,14,6,9,26,,52,44,8,7,4,5,0.3,0.3
2025-08-18T2100,1871A,109.4157,24.3277,柳州市,环保监测站,,9,9,12,3,9,23,,53,45,10,6,7,8,0.4,0.4
2025-08-18T2100,1872A,109.389,24.341,柳州市,河西水厂,,36,36,18,10,9,10,,54,43,21,8,5,5,0.5,0.4
2025-08-18T2100,1873A,109.4311,24.2921,柳州市,市四中,,17,17,16,3,8,22,,52,42,17,10,7,9,0.7,0.5
2025-08-18T2100,1874A,109.4006,24.3631,柳州市,市九中,,28,28,21,17,12,15,,55,44,18,7,4,5,0.5,0.4
2025-08-18T2100,1875A,109.4958,24.3134,柳州市,古亭山,,10,10,14,3,6,13,,51,37,17,9,6,8,0.6,0.5
2025-08-18T2100,3402A,109.5422,24.3996,柳州市,市二中,,10,,14,3,6,29,,52,43,9,11,7,9,0.6,0.5
2025-08-18T2100,2307A,116.5079,31.737,六安市,监测大楼,,26,18,19,17,12,83,,91,88,6,7,3,3,0.3,0.3
2025-08-18T2100,2308A,116.4738,31.7643,六安市,皖西学院,,35,35,26,17,12,96,,102,102,6,6,3,3,0.3,0.3
2025-08-18T2100,2309A,116.4996,31.7905,六安市,朝阳厂,,30,23,20,18,13,93,,93,93,9,10,6,6,0.3,0.4
2025-08-18T2100,2310A,116.5567,31.7886,六安市,开发区,,29,20,18,17,17,90,,96,94,15,12,4,4,0.4,0.4
2025-08-18T2100,2576A,104.8,26.5892,六盘水市,窑上,,23,19,21,11,3,71,,76,76,6,5,4,4,0.2,0.2
2025-08-18T2100,2577A,104.83,26.5917,六盘水市,黄土坡,,23,22,16,3,8,72,,80,79,11,13,12,11,0.4,0.4
2025-08-18T2100,2578A,104.89,26.5939,六盘水市,水钢,,29,,35,20,22,66,,82,80,10,15,11,11,0.3,0.5
2025-08-18T2100,2579A,104.8475,26.5894,六盘水市,民中,,23,23,17,9,6,70,,82,80,9,14,8,9,0.3,0.3
2025-08-18T2100,2580A,104.9544,26.5506,六盘水市,双水,,19,19,17,8,7,60,,78,76,14,9,7,6,0.1,0.1
2025-08-18T2100,2335A,117.0189,25.1181,龙岩市,龙岩师专,,,,,,,,,,,,,,,,
2025-08-18T2100,2336A,117.0217,25.1033,龙岩市,龙岩市监测站,,26,,22,18,12,31,,73,61,14,12,7,10,0.7,0.6
2025-08-18T2100,2337A,117.0258,25.0661,龙岩市,闽西职业技术学院,,20,20,25,14,10,24,,67,55,13,9,4,7,0.6,0.5
2025-08-18T2100,2338A,117.0196,25.0306,龙岩市,龙岩学院,,18,,19,12,11,31,,67,55,5,8,8,11,0.4,0.4
2025-08-18T2100,2665A,105.0822,33.3261,陇南市,汉王镇固水子,,,,,,,,,,,,,,,,
2025-08-18T2100,2885A,104.9339,33.3826,陇南市,滨江中学,,38,38,29,21,11,98,,108,107,1,3,8,8,0.5,0.6
2025-08-18T2100,3247A,104.955,33.371,陇南市,市总工会,,36,36,32,7,9,106,,112,,6,5,6,6,0.4,0.5
2025-08-18T2100,2487A,111.9589,27.8901,娄底市,电视发射台,,23,23,27,9,13,38,,76,60,4,5,4,5,0.3,0.4
2025-08-18T2100,2488A,111.9975,27.725,娄底市,市监测站,,23,18,40,16,21,64,,85,77,9,17,8,8,0.5,0.6
2025-08-18T2100,2489A,112.0194,27.7314,娄底市,市委党校,,32,29,39,22,24,63,,86,75,10,12,13,11,0.4,0.4
2025-08-18T2100,2490A,111.9561,27.7569,娄底市,涟钢,,30,28,44,21,28,33,,72,59,38,21,38,18,1.0,1
2025-08-18T2100,2491A,111.9892,27.7044,娄底市,市政府,,43,,41,30,32,50,,82,72,12,9,6,6,0.8,0.8
2025-08-18T2100,1893A,105.4324,28.9634,泸州市,九狮山,,45,43,42,31,32,67,,123,112,10,10,6,7,0.3,0.4
2025-08-18T2100,1894A,105.4427,28.9063,泸州市,小市上码头,,31,31,33,18,20,51,,97,88,10,12,4,6,0.3,0.3
2025-08-18T2100,1895A,105.4241,28.8573,泸州市,兰田宪桥,,25,24,34,17,20,68,,123,112,9,13,7,8,0.2,0.3
2025-08-18T2100,1896A,105.4379,28.8833,泸州市,市环监站,,25,25,33,16,20,67,,117,107,12,12,6,5,0.0,0.1
2025-08-18T2100,4272A,105.3689,28.7783,泸州市,纳溪中医医院,,29,29,33,20,23,49,,143,127,41,24,8,8,0.5,0.6
2025-08-18T2100,2183A,111.1406,37.5211,吕梁市,环保局,,,,50,,24,,,95,95,25,22,3,6,0.6,0.8
2025-08-18T2100,2185A,111.1297,37.5136,吕梁市,自来水公司,,26,26,53,3,22,78,,89,88,12,18,4,5,0.6,0.7
2025-08-18T2100,2867A,111.1283,37.51,吕梁市,马茂庄小学,,30,27,51,21,22,86,,92,91,10,24,5,6,0.5,0.7
2025-08-18T2100,1812A,112.3931,34.6516,洛阳市,市委党校,,35,30,36,17,23,109,,143,136,10,8,7,7,0.4,0.5
2025-08-18T2100,1815A,112.494,34.6886,洛阳市,河南林校,,43,43,42,23,23,106,,164,154,14,12,6,7,0.6,0.6
2025-08-18T2100,1816A,112.3844,34.623,洛阳市,开发区管委会,,37,32,33,18,22,117,,158,149,6,7,4,7,0.5,0.6
2025-08-18T2100,1817A,112.4267,34.6258,洛阳市,市委新办公区,,35,31,39,18,28,109,,149,140,11,11,7,9,0.4,0.5
2025-08-18T2100,3340A,112.6005,34.6326,洛阳市,伊滨,,31,31,32,14,21,99,,140,132,8,11,7,7,0.5,0.6
2025-08-18T2100,3341A,112.4951,34.6332,洛阳市,中移产业园,,36,29,39,16,25,113,,149,142,12,14,7,8,0.6,0.8
2025-08-18T2100,3593A,112.5736,34.8993,洛阳市,吉利监测站,,46,46,44,20,28,92,,163,153,13,7,5,6,0.3,0.4
2025-08-18T2100,3635A,112.3677,34.662,洛阳市,河科大西苑校区,,37,33,36,11,17,117,,156,148,11,13,8,8,0.5,0.6
2025-08-18T2100,3636A,112.4388,34.6781,洛阳市,英才小学,,41,41,43,18,19,106,,148,139,14,12,7,8,0.6,0.7
2025-08-18T2100,4214A,112.4600,34.6949,洛阳市,春都路1号院,,37,37,35,14,17,93,,140,130,12,8,6,6,0.7,0.7
2025-08-18T2100,2399A,114.051,33.5699,漯河市,三五一五工厂,,36,36,30,17,16,82,,136,118,16,14,5,6,0.5,0.5
2025-08-18T2100,2400A,114.0055,33.5698,漯河市,漯河大学,,32,23,24,14,13,101,,148,131,8,11,4,5,0.4,0.4
2025-08-18T2100,2401A,114.0138,33.5828,漯河市,市水利局,,29,29,28,17,15,90,,137,121,9,10,4,6,0.4,0.4
2025-08-18T2100,2402A,114.0261,33.5698,漯河市,市广电局,,30,24,27,18,20,93,,151,132,10,10,2,3,0.4,0.4
2025-08-18T2100,3478A,113.9749,33.5664,漯河市,市图书馆,,31,31,35,14,18,90,,148,128,11,11,4,7,0.2,0.3
2025-08-18T2100,4250A,114.0892,33.5882,漯河市,韶山路11号,,33,33,32,14,17,79,,146,123,16,17,3,4,0.5,0.5
2025-08-18T2100,1798A,118.5092,31.6837,马鞍山市,湖东路四小,,36,31,38,24,23,115,,155,147,13,14,6,8,0.5,0.5
2025-08-18T2100,1799A,118.5024,31.6449,马鞍山市,开发区,,44,44,45,23,23,84,,172,152,37,18,7,10,0.6,0.6
2025-08-18T2100,1802A,118.6245,31.7241,马鞍山市,濮塘,,32,20,32,15,20,102,,140,126,6,8,7,9,0.6,0.7
2025-08-18T2100,3633A,118.4918,31.6809,马鞍山市,雨山,,45,45,38,25,23,106,,154,146,19,13,5,9,0.6,0.5
2025-08-18T2100,4191A,118.5274,31.72227,马鞍山市,慈湖高新区,,42,42,39,20,21,85,,147,134,23,18,7,10,0.4,0.4
2025-08-18T2100,1686A,111.0286,21.4688,茂名市,电白南海,,,24,12,,8,37,,30,,7,7,3,4,0.5,0.3
2025-08-18T2100,1687A,110.9294,21.6533,茂名市,茂石化七小,,17,17,11,3,5,24,,32,31,9,7,5,4,0.4,0.4
2025-08-18T2100,1688A,110.9107,21.6687,茂名市,健康路,,12,12,8,3,4,29,,36,35,10,9,4,4,0.5,0.4
2025-08-18T2100,1689A,110.8592,21.6828,茂名市,高岭,,22,22,16,3,2,33,,36,36,15,11,13,8,0.5,0.5
2025-08-18T2100,3450A,111.01,21.5165,茂名市,电白水东,,14,14,7,3,2,36,,38,38,4,6,4,4,0.5,0.5
2025-08-18T2100,2539A,104.0308,30.0478,眉山市,黑龙滩水库,,41,,9,17,8,130,,140,140,11,6,3,3,0.3,0.3
2025-08-18T2100,2540A,103.8416,30.0874,眉山市,气象局,,31,31,22,12,5,94,,151,146,18,11,10,12,0.5,0.5
2025-08-18T2100,3137A,103.8578,30.0744,眉山市,市委党校,,31,17,11,3,3,98,,139,136,13,11,7,7,0.4,0.4
2025-08-18T2100,3148A,103.8291,30.0564,眉山市,区人社局,,30,28,23,3,1,94,,148,142,19,14,7,8,0.5,0.5
2025-08-18T2100,1690A,116.1231,24.3284,梅州市,梅江月梅,,13,9,17,9,11,18,,43,33,12,11,9,9,0.6,0.5
2025-08-18T2100,1691A,116.0797,24.2719,梅州市,梅县新城,,14,14,18,3,10,17,,46,34,11,10,6,7,0.5,0.4
2025-08-18T2100,1692A,116.1248,24.2654,梅州市,环境监控中心,,24,24,18,14,12,5,,42,28,24,12,3,8,0.6,0.5
2025-08-18T2100,3315A,116.1233,24.2991,梅州市,梅龙,,17,17,16,8,9,16,,44,36,18,8,7,9,0.7,0.6
2025-08-18T2100,1878A,104.7778,31.4741,绵阳市,富乐山,,27,25,21,12,12,84,,142,136,14,10,8,8,0.6,0.6
2025-08-18T2100,1880A,104.6697,31.4668,绵阳市,高新区自来水公司,颗粒物(PM10),52,53,23,29,8,71,,122,116,37,19,12,8,0.4,0.4
2025-08-18T2100,1881A,104.7287,31.5075,绵阳市,三水厂,,25,22,26,6,13,80,,143,133,25,20,8,8,0.4,0.4
2025-08-18T2100,3491A,104.69,31.5322,绵阳市,西科大附属小学,,34,34,26,15,13,60,,138,125,40,20,10,8,0.5,0.5
2025-08-18T2100,3492A,104.5648,31.5343,绵阳市,安州区旅游局,,,46,23,24,7,,,108,104,25,16,10,10,0.4,0.5
2025-08-18T2100,4226A,104.7651,31.4531,绵阳市,绵阳市气象局,,31,18,19,11,11,98,,142,138,23,14,8,6,0.4,0.3
2025-08-18T2100,1784A,129.61,44.561,牡丹江市,环保大楼,,17,15,18,7,10,52,,74,69,10,11,3,4,0.3,0.3
2025-08-18T2100,1785A,129.6115,44.5782,牡丹江市,文化广场,,28,20,19,19,14,50,,70,64,12,14,5,5,0.4,0.4
2025-08-18T2100,1786A,129.5904,44.5963,牡丹江市,第一医院,,18,17,19,12,17,54,,74,68,11,12,8,9,0.2,0.2
2025-08-18T2100,1787A,129.6364,44.6075,牡丹江市,机车工厂,,19,19,18,9,8,50,,68,62,11,12,5,5,0.5,0.4
2025-08-18T2100,1788A,129.6386,44.5462,牡丹江市,第一中学,,29,29,17,20,10,54,,69,62,8,12,6,6,0.2,0.2
2025-08-18T2100,2531A,105.0703,29.61,内江市,市监测站,,39,31,19,27,19,105,,146,139,18,9,3,3,0.8,0.7
2025-08-18T2100,2532A,105.0717,29.5947,内江市,东兴区政府,,34,29,19,14,11,108,,135,131,15,10,8,6,0.6,0.6
2025-08-18T2100,2533A,105.0653,29.5817,内江市,内江二中,,35,29,28,22,19,111,,134,130,15,10,3,3,0.6,0.6
2025-08-18T2100,2534A,105.0406,29.5822,内江市,内江日报社,,41,,21,27,20,129,,144,141,15,11,7,8,0.5,0.5
2025-08-18T2100,2628A,92.0657,31.4846,那曲市,那曲监测站,,18,16,15,12,8,55,,87,78,33,11,15,14,0.5,0.3
2025-08-18T2100,4243A,92.0515,31.4787,那曲市,那曲市委宣传部,,24,13,10,8,6,76,,97,90,13,6,6,4,0.4,0.3
2025-08-18T2100,1290A,115.8931,28.6843,南昌市,省外办,,28,25,20,19,16,83,,94,93,8,8,7,6,0.9,0.4
2025-08-18T2100,1291A,115.8886,28.7003,南昌市,省林业公司,,29,29,35,14,15,86,,94,92,5,16,5,3,0.9,0.6
2025-08-18T2100,1292A,115.8126,28.7442,南昌市,林科所,,,17,20,7,9,60,,100,88,1,9,,10,,0.6
2025-08-18T2100,1294A,115.8518,28.687,南昌市,建工学校,,29,25,32,20,23,83,,89,88,12,16,6,6,0.5,0.5
2025-08-18T2100,1295A,115.8921,28.6424,南昌市,象湖,,28,18,17,9,10,88,,92,92,9,12,7,8,0.4,0.4
2025-08-18T2100,1296A,115.7423,28.7996,南昌市,武术学校,,20,20,15,11,12,45,,87,73,8,5,8,10,0.4,0.4
2025-08-18T2100,3046A,115.9084,28.6062,南昌市,机电学校,,33,33,28,17,13,81,,99,95,14,12,6,7,0.5,0.5
2025-08-18T2100,3690A,115.9721,28.7031,南昌市,外国语学校,,29,23,25,14,11,90,,104,103,7,10,7,9,0.3,0.5
2025-08-18T2100,4192A,115.9316,28.68677,南昌市,南京东路235号,,,29,26,,10,87,,93,93,,11,10,8,,0.6
2025-08-18T2100,1905A,106.056,30.8064,南充市,西山风景区,,,,,,,,,,,,,,,,
2025-08-18T2100,1906A,106.0789,30.8023,南充市,南充市委,,40,40,33,24,20,89,,116,112,13,16,5,5,0.4,0.4
2025-08-18T2100,1907A,106.1031,30.8217,南充市,南充炼油厂,,34,34,40,21,23,90,,114,112,10,11,5,5,0.3,0.3
2025-08-18T2100,4227A,106.1083,30.7884,南充市,梨树横街98号,,37,37,33,22,24,101,,129,126,17,16,5,5,0.2,0.3
2025-08-18T2100,4304A,106.1172,30.843,南充市,清泉寺北路188号,,34,34,34,18,22,100,,125,123,9,12,5,4,0.3,0.4
2025-08-18T2100,4305A,106.067,30.7616,南充市,同庆路1号,,45,45,33,24,19,93,,121,116,11,15,6,5,0.4,0.4
2025-08-18T2100,1151A,118.8086,32.1065,南京市,迈皋桥,,46,32,24,24,16,146,,163,160,13,11,4,4,0.6,0.6
2025-08-18T2100,1152A,118.7538,32.0551,南京市,草场门,,,48,34,27,18,,,158,158,15,12,3,9,0.7,0.6
2025-08-18T2100,1153A,118.7794,32.0745,南京市,山西路,,48,48,35,19,13,143,,157,156,15,16,4,4,0.5,0.4
2025-08-18T2100,1154A,118.7752,32.0023,南京市,中华门,,,34,25,29,14,,,146,146,11,8,4,4,0.8,0.8
2025-08-18T2100,1155A,118.8109,32.0309,南京市,瑞金路,,44,36,25,27,17,140,,152,150,24,15,7,7,0.4,0.4
2025-08-18T2100,1156A,118.7997,32.0754,南京市,玄武湖,,41,34,30,15,9,129,,148,146,11,10,4,5,0.5,0.5
2025-08-18T2100,1157A,118.6414,32.0931,南京市,浦口,,,30,31,23,15,112,,147,133,,14,6,6,0.6,0.6
2025-08-18T2100,1158A,118.7356,31.9996,南京市,奥体中心,,46,39,33,27,20,146,,162,162,11,13,6,7,0.4,0.5
2025-08-18T2100,1159A,118.9125,32.1028,南京市,仙林大学城,,41,41,32,12,11,121,,137,135,9,6,7,8,0.6,0.6
2025-08-18T2100,3422A,118.8436,31.9198,南京市,江宁彩虹桥,颗粒物(PM10),51,52,33,29,17,143,,133,131,9,9,4,4,0.4,0.4
2025-08-18T2100,3427A,118.8554,32.3578,南京市,六合雄州,,48,48,38,25,18,77,,165,145,23,17,5,6,0.7,0.7
2025-08-18T2100,4249A,118.8708,31.3402,南京市,汶溪路181号,,48,,25,31,19,153,,139,139,12,10,7,7,0.5,0.4
2025-08-18T2100,4312A,119.019,31.6512,南京市,中山西路1号,,46,39,23,32,16,137,,119,119,18,15,4,4,0.4,0.4
2025-08-18T2100,1401A,108.3103,22.7881,南宁市,二十一中,,10,7,16,6,9,29,,50,46,10,10,3,4,0.6,0.5
2025-08-18T2100,1402A,108.3141,22.8528,南宁市,北湖,,15,14,19,10,13,26,,50,45,13,14,3,5,0.4,0.4
2025-08-18T2100,1403A,108.3206,22.8225,南宁市,市监测站,,16,,18,11,11,27,,48,44,13,13,3,5,0.4,0.4
2025-08-18T2100,1404A,108.3829,22.8037,南宁市,大自然花园,,12,9,17,8,10,32,,52,48,9,8,4,5,0.5,0.5
2025-08-18T2100,1405A,108.4394,22.7904,南宁市,仙葫,,14,14,19,7,9,34,,49,46,7,8,3,5,0.3,0.4
2025-08-18T2100,1406A,108.2397,22.8467,南宁市,区农职院,,16,16,19,3,8,26,,51,46,17,13,4,6,0.3,0.3
2025-08-18T2100,1407A,108.3275,22.735,南宁市,英华嘉园,,11,10,15,7,10,34,,50,46,8,7,1,2,0.4,0.4
2025-08-18T2100,3401A,108.4834,22.7618,南宁市,红星社区,,12,9,19,3,9,36,,54,50,7,8,2,3,0.4,0.3
2025-08-18T2100,4221A,108.2177,22.7774,南宁市,乐贤路16号,,16,,20,11,11,27,,52,47,17,18,6,7,0.6,0.6
2025-08-18T2100,2331A,118.0966,26.6761,南平市,茫荡山,,,,,,,,,,,,,,,,
2025-08-18T2100,2332A,118.1681,26.6369,南平市,南平市监测站,,12,12,12,3,9,28,,57,44,14,6,4,4,0.5,0.4
2025-08-18T2100,2333A,118.1825,26.6489,南平市,南平铝业有限公司,,,,13,4,7,,,55,46,,8,,5,,0.5
2025-08-18T2100,2334A,118.1756,26.6272,南平市,南平七中,,8,,13,3,7,24,,54,42,13,5,3,3,0.6,0.5
2025-08-18T2100,1168A,120.9098,31.9663,南通市,狼山街道,,20,20,18,3,7,43,,126,112,24,18,4,4,0.4,0.4
2025-08-18T2100,1169A,120.86,32.0005,南通市,虹桥,,18,18,16,10,10,53,,129,118,22,20,3,4,0.5,0.6
2025-08-18T2100,1170A,120.87,32.02,南通市,城中,,23,23,22,7,8,50,,125,113,20,18,4,5,0.3,0.3
2025-08-18T2100,1171A,120.94,31.93,南通市,星湖花园,,18,18,13,7,9,43,,124,109,24,17,3,4,0.4,0.5
2025-08-18T2100,1172A,120.81,32.0417,南通市,紫琅学院,,20,20,16,3,6,57,,125,115,19,18,3,5,0.5,0.5
2025-08-18T2100,3291A,121.067,32.062,南通市,通州监测站,,17,17,14,3,6,52,,122,109,9,9,1,2,0.5,0.5
2025-08-18T2100,3432A,120.9348,31.9883,南通市,环境教育馆,,19,19,22,3,6,49,,133,118,16,14,4,4,0.2,0.2
2025-08-18T2100,2404A,112.5224,33.0122,南阳市,瓦房庄,,32,32,32,13,14,92,,113,107,9,9,6,6,0.5,0.4
2025-08-18T2100,2405A,112.5003,32.9735,南阳市,汉画馆,,35,35,31,13,10,90,,114,109,14,12,7,8,0.6,0.6
2025-08-18T2100,2406A,112.5573,33.027,南阳市,气象站,,30,18,28,12,12,96,,121,113,14,12,8,8,0.4,0.3
2025-08-18T2100,2407A,112.5481,32.9689,南阳市,理工学院,,37,37,31,9,9,87,,116,108,13,10,7,8,0.4,0.5
2025-08-18T2100,4008A,112.5234,32.9922,南阳市,卧龙区政府,,30,30,29,18,15,88,,114,109,18,14,6,6,0.7,0.6
2025-08-18T2100,1234A,121.8358,29.911,宁波市,区环保大楼,,14,14,16,6,5,32,,44,40,9,7,4,4,0.4,0.5
2025-08-18T2100,1235A,121.56,29.82,宁波市,万里学院,,16,16,17,9,8,38,,64,54,8,6,6,6,0.4,0.4
2025-08-18T2100,1236A,121.713,29.9572,宁波市,龙赛医院,,11,11,12,6,7,28,,52,43,9,6,3,3,0.3,0.3
2025-08-18T2100,1239A,121.633,29.7733,宁波市,钱湖水厂,,13,10,10,3,4,40,,59,53,7,6,5,5,0.3,0.3
2025-08-18T2100,1240A,121.5856,29.8635,宁波市,太古小学,,12,9,12,8,8,36,,58,49,4,3,2,3,0.6,0.6
2025-08-18T2100,1241A,121.524,29.8674,宁波市,市环境监测中心,,19,17,14,13,5,35,,59,50,8,7,6,7,0.4,0.4
2025-08-18T2100,2871A,121.6147,29.9017,宁波市,万里国际学校,,13,12,12,9,7,37,,61,53,6,5,4,4,0.5,0.5
2025-08-18T2100,3710A,121.5594,29.8975,宁波市,白沙活动中心,,14,14,13,7,4,36,,64,52,8,7,5,5,0.5,0.5
2025-08-18T2100,2339A,119.5001,26.6946,宁德市,金涵水库,,,,,,,,,,,,,,,,
2025-08-18T2100,2341A,119.5388,26.6612,宁德市,宁德市监测站,,14,,13,7,9,42,,64,52,8,7,2,3,0.3,0.4
2025-08-18T2100,3209A,119.5231,26.6562,宁德市,宁德一中,,13,12,14,3,10,39,,65,52,4,4,3,3,0.2,0.2
2025-08-18T2100,2618A,98.8601,25.8567,怒江傈僳族自治州,州监测站,,32,32,21,14,9,37,,58,56,9,6,7,6,0.4,0.4
2025-08-18T2100,2619A,98.8546,25.8417,怒江傈僳族自治州,泸水一中,,14,14,18,3,8,24,,44,42,12,8,4,4,0.4,0.4
2025-08-18T2100,1888A,101.6891,26.571,攀枝花市,弄弄坪,,45,45,40,20,18,58,,105,100,20,15,4,8,0.8,0.9
2025-08-18T2100,1889A,101.5769,26.5928,攀枝花市,河门口,,34,34,36,19,17,60,,108,101,10,15,11,13,0.6,0.9
2025-08-18T2100,1890A,101.7169,26.585,攀枝花市,炳草岗,,48,48,32,22,19,55,,103,99,22,18,8,9,0.7,0.9
2025-08-18T2100,1891A,101.7369,26.5008,攀枝花市,仁和,,43,42,33,30,21,52,,93,85,9,11,8,12,0.7,0.8
2025-08-18T2100,2835A,101.7227,26.567,攀枝花市,四十中小,,28,28,26,16,15,70,,102,100,9,16,8,19,0.9,1.4
2025-08-18T2100,1604A,122.0303,41.1489,盘锦市,开发区,,25,11,22,9,15,79,,113,99,8,13,5,6,0.4,0.4
2025-08-18T2100,1605A,122.0485,41.0883,盘锦市,兴隆台,,24,16,23,11,11,74,,101,89,10,14,5,7,0.5,0.5
2025-08-18T2100,1606A,121.8297,41.1028,盘锦市,新生街道,,30,,29,12,11,94,,125,111,10,17,4,4,0.6,0.6
2025-08-18T2100,1832A,113.3257,33.742,平顶山市,新华旅馆,,30,30,41,17,20,90,,135,125,12,13,8,6,0.5,0.6
2025-08-18T2100,1833A,113.2919,33.737,平顶山市,规划设计院,,34,34,30,13,18,87,,134,124,13,11,11,6,0.6,0.7
2025-08-18T2100,1834A,113.182,33.774,平顶山市,平顶山工学院,,,,27,,12,,,,,,14,,6,,0.5
2025-08-18T2100,3204A,113.3025,33.73,平顶山市,规划局,,44,44,34,14,10,92,,138,129,13,12,7,5,0.3,0.3
2025-08-18T2100,3594A,112.8867,33.9116,平顶山市,石龙区,颗粒物(PM10),55,60,48,22,18,82,,118,111,19,16,8,8,0.5,0.5
2025-08-18T2100,2656A,106.6692,35.5461,平凉市,聚贤嘉苑,,24,24,27,3,8,56,,80,75,19,12,5,7,0.5,0.5
2025-08-18T2100,2657A,106.7021,35.5307,平凉市,博物馆,,37,37,31,10,8,48,,81,76,30,12,10,10,0.4,0.4
2025-08-18T2100,2347A,114.0997,27.5002,萍乡市,武功山,,11,6,4,3,4,35,,39,39,4,4,7,7,0.4,0.5
2025-08-18T2100,2348A,113.8385,27.6434,萍乡市,中医院,,21,14,19,3,9,65,,72,60,7,14,9,15,0.4,0.6
2025-08-18T2100,2349A,113.8493,27.6253,萍乡市,市政府车库,,20,,20,14,15,58,,58,52,4,10,8,12,0.3,0.6
2025-08-18T2100,2350A,113.8676,27.6435,萍乡市,市环保局,,,7,25,,20,61,,60,57,6,23,16,20,1.0,0.6
2025-08-18T2100,2351A,113.866,27.6198,萍乡市,安源区政府,,37,37,28,10,13,60,,55,52,2,8,12,14,0.4,0.7
2025-08-18T2100,2319A,119.0141,25.4325,莆田市,荔城区仓后路,,44,44,24,15,9,64,,78,75,9,6,6,7,0.7,0.6
2025-08-18T2100,2320A,119.0015,25.4553,莆田市,莆田市监测站,,25,25,20,14,6,64,,79,77,11,7,7,6,0.5,0.4
2025-08-18T2100,2321A,119.1119,25.4561,莆田市,涵江区六中,,24,23,18,11,7,74,,79,78,8,7,8,6,0.5,0.5
2025-08-18T2100,2322A,119.1013,25.3215,莆田市,秀屿区政府,,25,25,20,8,10,80,,78,78,9,9,4,5,0.4,0.4
2025-08-18T2100,2323A,118.981,25.4792,莆田市,东圳水库,,,,,,,,,,,,,,,,
2025-08-18T2100,2392A,115.0312,35.7636,濮阳市,环保局,,31,31,36,18,25,99,,126,120,11,10,3,5,0.4,0.4
2025-08-18T2100,2394A,115.0574,35.7609,濮阳市,油田运输公司,,35,35,42,15,23,95,,128,120,13,11,2,3,0.6,0.6
2025-08-18T2100,3021A,115,35.7668,濮阳市,濮水河管理处,,,32,29,,,101,,121,117,8,5,1,2,0.4,0.3
2025-08-18T2100,4216A,115.0924,35.7686,濮阳市,任丘路479号,,46,46,51,22,27,79,,121,111,13,10,2,3,0.5,0.6
2025-08-18T2100,2601A,100.98,22.7633,普洱市,市环保局,,42,33,28,29,20,36,,51,50,6,6,6,6,0.6,0.5
2025-08-18T2100,2602A,100.9817,22.8322,普洱市,普洱第二中学,,37,37,26,20,11,27,,54,52,16,8,6,6,0.6,0.5
2025-08-18T2100,2262A,131.0518,45.8751,七台河市,新一中,,20,20,15,10,9,52,,88,75,17,14,10,10,0.8,0.8
2025-08-18T2100,3345A,131.0577,45.7879,七台河市,中波台,,13,9,20,6,6,40,,57,47,17,22,8,9,0.4,0.5
2025-08-18T2100,3637A,131.0176,45.7761,七台河市,人民广场,,28,28,24,16,11,44,,72,63,16,15,11,11,0.5,0.5
2025-08-18T2100,3684A,130.8781,45.8222,七台河市,新建矿广场,,16,14,21,11,7,42,,73,62,16,16,12,10,0.4,0.5
2025-08-18T2100,1779A,123.9305,47.3636,齐齐哈尔市,安居小区,,31,31,24,16,6,49,,56,56,18,12,9,8,0.5,0.4
2025-08-18T2100,1780A,123.9488,47.3386,齐齐哈尔市,中心广场,,22,22,18,3,4,57,,63,63,12,9,6,6,0.4,0.4
2025-08-18T2100,1781A,123.9483,47.3227,齐齐哈尔市,农牧车辆厂,,24,24,20,9,6,51,,60,60,12,8,6,6,0.4,0.4
2025-08-18T2100,1783A,123.945,47.2988,齐齐哈尔市,市环境监测站,,19,19,14,12,5,51,,62,61,14,8,6,6,0.3,0.3
2025-08-18T2100,3662A,123.6333,47.2075,齐齐哈尔市,富区青少年活动中心,,17,14,13,9,5,52,,59,59,6,6,4,4,0.4,0.4
2025-08-18T2100,2591A,107.9783,26.5747,黔东南苗族侗族自治州,市环境监测站,,18,,15,12,12,36,,50,48,7,9,3,2,0.5,0.3
2025-08-18T2100,2881A,107.8908,26.5311,黔东南苗族侗族自治州,凯里学院,,12,,11,8,8,37,,58,54,13,8,3,3,0.4,0.5
2025-08-18T2100,2593A,107.5228,26.2403,黔南布依族苗族自治州,小围寨,,,,12,14,5,,,42,40,4,7,1,2,0.3,0.3
2025-08-18T2100,3538A,107.5175,26.2978,黔南布依族苗族自治州,沙坝,,17,17,16,3,1,21,,44,40,5,6,3,3,0.3,0.3
2025-08-18T2100,2589A,104.9022,25.0925,黔西南布依族苗族自治州,场坝街,,24,24,17,6,7,48,,74,70,10,13,4,5,0.4,0.4
2025-08-18T2100,2590A,104.8811,25.0992,黔西南布依族苗族自治州,坪东大道,,25,25,19,11,12,45,,78,72,10,12,2,5,0.5,0.5
2025-08-18T2100,2502A,108.6236,21.9667,钦州市,市环保站,,9,7,18,3,7,28,,50,43,10,9,4,3,0.5,0.7
2025-08-18T2100,2503A,108.6549,21.9481,钦州市,沙埠小学,,11,10,19,6,9,34,,51,44,6,7,3,3,0.4,0.4
2025-08-18T2100,2504A,108.5989,21.7431,钦州市,港区一小,,28,28,24,7,10,24,,45,38,18,17,6,6,0.4,0.4
2025-08-18T2100,3404A,108.5959,21.9633,钦州市,北职校,,16,16,22,6,10,30,,49,44,6,7,1,2,0.4,0.4
2025-08-18T2100,1043A,119.7493,40.0116,秦皇岛市,第一关,,47,47,32,24,16,106,,146,129,10,36,5,5,0.6,0.4
2025-08-18T2100,1044A,119.5897,39.9499,秦皇岛市,监测站,颗粒物(PM10),57,64,39,15,8,111,,152,141,18,19,7,5,0.9,0.5
2025-08-18T2100,1046A,119.5251,39.9041,秦皇岛市,建设大厦,颗粒物(PM10),56,62,48,21,10,106,,144,139,14,18,8,8,0.8,0.6
2025-08-18T2100,3132A,119.610547,39.943889,秦皇岛市,文明里,颗粒物(PM10),54,58,42,25,12,110,,143,134,18,18,7,6,0.9,0.4
2025-08-18T2100,4198A,119.5090,39.8253,秦皇岛市,北戴河轮滑馆,,47,47,41,29,18,114,,145,138,8,12,3,3,0.5,0.5
2025-08-18T2100,1307A,120.6659,36.2403,青岛市,仰口,,25,23,34,12,21,78,,123,108,5,5,9,9,0.8,0.8
2025-08-18T2100,1310A,120.4134,36.0658,青岛市,市南区东部子站,,18,9,31,7,21,57,,113,96,1,4,6,6,0.0,0.1
2025-08-18T2100,1311A,120.3664,36.1032,青岛市,四方区子站,,21,12,32,7,24,67,,145,120,2,3,4,5,0.2,0.3
2025-08-18T2100,1312A,120.2994,36.054,青岛市,市南区西部子站,,18,14,35,3,20,56,,123,104,5,10,4,5,0.6,0.7
2025-08-18T2100,1313A,120.4581,36.0858,青岛市,崂山区子站,,16,12,34,3,18,49,,99,85,6,8,7,7,0.2,0.2
2025-08-18T2100,1315A,120.3999,36.3083,青岛市,城阳区子站,,18,14,38,7,19,56,,135,116,8,9,6,6,0.5,0.6
2025-08-18T2100,1966A,120.0405,35.8735,青岛市,黄岛区4号,,27,12,36,3,20,85,,150,131,2,6,4,6,0.4,0.6
2025-08-18T2100,3362A,120.5014,36.4034,青岛市,即墨2号,,18,17,37,8,23,55,,165,121,9,8,3,3,0.2,0.3
2025-08-18T2100,3642A,120.3503,36.0736,青岛市,市北区南部,,18,18,33,3,20,49,,141,109,9,10,5,5,0.6,0.7
2025-08-18T2100,3643A,120.3948,36.1805,青岛市,李沧区北部,,20,,29,14,25,54,,126,104,7,8,8,9,0.2,0.4
2025-08-18T2100,4290A,120.1969,35.9546,青岛市,珠江路669号,,22,7,31,7,23,68,,137,117,5,4,5,6,0.5,0.6
2025-08-18T2100,1702A,113.0426,23.691,清远市,环保大楼,,19,13,10,13,8,47,,38,,15,9,7,8,0.8,0.8
2025-08-18T2100,1703A,113.0208,23.7106,清远市,凤城街办,,14,14,9,7,4,40,,54,54,18,12,7,7,0.5,0.4
2025-08-18T2100,3025A,113.0477,23.6344,清远市,技师学院,,14,14,14,7,6,43,,56,56,14,12,7,11,0.4,0.4
2025-08-18T2100,3318A,112.9903,23.7403,清远市,清新太和,,15,11,11,6,4,48,,59,59,16,11,7,6,0.4,0.4
2025-08-18T2100,3455A,113.076,23.7198,清远市,清城东城,,11,11,11,6,4,33,,48,47,15,9,7,7,0.5,0.5
2025-08-18T2100,2661A,107.6325,35.7357,庆阳市,庆阳五中,,29,24,22,3,7,90,,86,86,8,7,7,7,0.4,0.4
2025-08-18T2100,2662A,107.6364,35.7067,庆阳市,市环保局,,30,25,22,3,6,96,,93,93,5,4,4,4,0.2,0.2
2025-08-18T2100,1916A,103.7897,25.5035,曲靖市,环境监测站,,38,38,20,16,8,81,,87,86,10,13,6,6,0.4,0.5
2025-08-18T2100,1917A,103.8,25.5364,曲靖市,烟厂办公区,,27,25,20,17,10,86,,89,88,7,14,4,5,0.5,0.7
2025-08-18T2100,3376A,103.7947,25.462,曲靖市,南苑二区,,,20,16,10,8,81,,92,91,12,9,4,4,,0.6
2025-08-18T2100,3377A,103.7444,25.5261,曲靖市,曲靖师范学院,,33,33,18,13,11,78,,95,92,12,12,7,10,0.3,0.3
2025-08-18T2100,1264A,118.8692,28.9398,衢州市,环保大楼,,38,38,26,20,14,72,,130,120,27,15,3,3,0.4,0.3
2025-08-18T2100,1265A,118.8709,28.9666,衢州市,实验学校,,32,32,23,15,11,75,,125,113,21,14,2,3,0.4,0.3
2025-08-18T2100,1266A,118.8621,28.9808,衢州市,衢州学院,,35,35,23,20,13,65,,120,108,26,14,4,4,0.4,0.3
2025-08-18T2100,1611A,118.5819,24.9117,泉州市,涂山街,,34,34,25,16,12,48,,94,88,23,11,4,4,0.5,0.5
2025-08-18T2100,1612A,118.5972,24.8978,泉州市,津头埔,,37,37,25,17,15,47,,99,92,22,10,4,4,0.5,0.5
2025-08-18T2100,1613A,118.6663,24.9424,泉州市,万安,,28,28,24,7,9,53,,81,74,12,10,3,2,0.4,0.5
2025-08-18T2100,1614A,118.6117,24.9604,泉州市,清源山,,,,,,,,,,,,,,,,
2025-08-18T2100,3529A,118.6333,24.9264,泉州市,城华南路,,21,21,18,11,11,41,,86,75,29,10,4,3,0.4,0.4
2025-08-18T2100,2626A,88.8876,29.2718,日喀则市,日喀则监测站,,21,9,5,3,1,66,,81,79,11,5,13,11,0.3,0.3
2025-08-18T2100,3726A,88.8781,29.2426,日喀则市,林业技术推广中心,,23,16,8,3,1,72,,75,75,3,2,6,5,0.2,0.2
2025-08-18T2100,1659A,119.471,35.4209,日照市,监测站,,29,29,42,10,23,77,,158,119,24,19,9,9,0.7,0.7
2025-08-18T2100,1660A,119.523,35.4216,日照市,市政府广场,,,22,40,6,20,90,,153,132,,16,5,8,,0.8
2025-08-18T2100,1661A,119.5587,35.4044,日照市,港务局,,29,17,42,13,32,91,,159,140,9,19,8,11,0.7,0.8
2025-08-18T2100,3507A,119.5328,35.4625,日照市,职业技术学院,,29,17,40,3,22,91,,164,138,8,17,4,7,0.6,0.7
2025-08-18T2100,3604A,119.3266,35.1044,日照市,岚山环保分局,,34,34,38,3,19,82,,160,128,9,13,7,9,0.7,0.7
2025-08-18T2100,1835A,111.1922,34.7752,三门峡市,市政府,,43,43,43,19,26,123,,128,128,11,8,4,4,0.5,0.5
2025-08-18T2100,1836A,111.1587,34.7942,三门峡市,开发区,,,,45,,30,,,135,135,14,10,6,4,0.4,0.5
2025-08-18T2100,1838A,111.143,34.7955,三门峡市,风景区,,41,33,40,22,23,130,,140,140,9,7,5,4,0.4,0.5
2025-08-18T2100,3039A,111.1911,34.7829,三门峡市,三门峡市第一小学,颗粒物(PM10),53,55,46,21,25,126,,131,131,10,7,7,6,0.5,0.6
2025-08-18T2100,3598A,111.1,34.7167,三门峡市,富达温泉假日酒店,,49,49,41,7,28,104,,130,128,4,7,4,4,0.3,0.4
2025-08-18T2100,2324A,117.6211,26.2625,三明市,三钢,,28,26,18,19,12,33,,73,64,20,10,7,3,1.5,0.5
2025-08-18T2100,2325A,117.635,26.2714,三明市,三明二中,,12,12,15,7,8,31,,64,57,16,8,2,3,0.5,0.4
2025-08-18T2100,2326A,117.6028,26.2378,三明市,三元区政府,,12,12,19,3,10,32,,77,66,11,12,1,3,0.3,0.5
2025-08-18T2100,2327A,117.7275,26.3108,三明市,洋溪,,,,,,,,,,,,,,,,
2025-08-18T2100,1876A,109.5078,18.2489,三亚市,河东子站,,17,17,9,10,3,37,,50,50,14,6,2,2,0.7,0.6
2025-08-18T2100,1877A,109.4964,18.2681,三亚市,河西子站,,15,15,10,3,2,42,,52,52,15,9,2,2,0.5,0.4
2025-08-18T2100,3540A,109.7348,18.3443,三亚市,君悦子站,,18,14,5,3,3,57,,42,42,6,6,1,1,0.4,0.4
2025-08-18T2100,2624A,91.7608,29.2313,山南市,山南监测站,,,6,6,3,4,,,83,83,7,3,3,2,0.3,0.3
2025-08-18T2100,2625A,91.7706,29.2436,山南市,山南人民医院,,22,15,8,8,5,69,,85,83,7,4,3,3,0.2,0.2
2025-08-18T2100,1674A,116.6794,23.3667,汕头市,金平子站,,13,,11,6,5,39,,61,57,7,8,2,2,0.6,0.6
2025-08-18T2100,1675A,116.7244,23.3633,汕头市,龙湖子站,,13,12,12,3,6,40,,60,56,4,5,6,6,0.6,0.6
2025-08-18T2100,1676A,116.7258,23.2775,汕头市,濠江子站,,,,16,10,8,,,53,53,9,7,5,5,0.6,0.5
2025-08-18T2100,1677A,116.7519,23.4714,汕头市,澄海子站,,11,,17,6,9,34,,52,46,8,6,2,2,0.5,0.5
2025-08-18T2100,1678A,116.6092,23.2539,汕头市,潮阳子站,,,20,15,8,7,,,52,51,3,6,4,4,0.5,0.5
2025-08-18T2100,3444A,116.454,23.2684,汕头市,潮南峡山,,18,18,10,3,4,36,,52,48,5,7,5,5,0.6,0.5
2025-08-18T2100,3624A,116.4069,23.2533,汕头市,潮南子站,,18,18,13,6,5,30,,48,44,9,7,3,4,0.5,0.5
2025-08-18T2100,1693A,115.3653,22.775,汕尾市,市环保局,,13,10,11,3,4,40,,44,43,7,5,3,3,0.5,0.4
2025-08-18T2100,1694A,115.3706,22.7898,汕尾市,市政府,,20,20,11,3,3,40,,44,43,10,8,4,4,0.5,0.5
2025-08-18T2100,1695A,115.3622,22.7925,汕尾市,新城中学,,13,11,10,3,3,41,,44,43,9,7,4,4,0.4,0.4
2025-08-18T2100,2645A,109.9154,33.8715,商洛市,监测站,,35,35,25,17,12,94,,89,86,8,13,15,6,0.7,0.6
2025-08-18T2100,3045A,109.9643,33.8471,商洛市,商州区中学,,31,31,30,18,11,95,,84,82,9,13,25,6,0.7,0.5
2025-08-18T2100,2408A,115.6702,34.4285,商丘市,环境监测站,,40,40,33,24,16,115,,140,137,14,8,1,1,0.5,0.5
2025-08-18T2100,2409A,115.6458,34.4045,商丘市,粮食局,,41,38,32,18,12,130,,141,141,7,6,3,3,0.5,0.4
2025-08-18T2100,2410A,115.6293,34.3948,商丘市,睢阳区环保局,,47,47,37,19,16,132,,133,133,8,8,4,5,0.4,0.3
2025-08-18T2100,3171A,115.6071,34.4465,商丘市,梁园区档案局,,44,30,29,20,14,140,,134,134,7,8,2,2,0.5,0.4
2025-08-18T2100,1141A,121.4,31.238,上海市,普陀,,19,19,16,7,6,40,,102,92,21,12,5,6,0.3,0.4
2025-08-18T2100,1142A,121.478,31.2036,上海市,十五厂,,22,22,16,6,8,28,,86,75,20,10,8,8,0.5,0.5
2025-08-18T2100,1143A,121.467,31.3008,上海市,虹口,,16,16,13,3,7,40,,82,74,11,7,5,5,0.7,0.7
2025-08-18T2100,1147A,121.425,31.2261,上海市,静安监测站,,20,20,16,3,8,28,,68,61,19,11,4,4,0.5,0.6
2025-08-18T2100,1148A,121.703,31.1907,上海市,浦东川沙,,21,21,17,6,6,39,,80,67,13,12,5,6,0.4,0.4
2025-08-18T2100,1149A,121.533,31.2284,上海市,浦东新区监测站,,16,16,14,3,8,40,,84,77,10,7,8,8,0.5,0.5
2025-08-18T2100,1150A,121.577,31.2071,上海市,浦东张江,,18,18,16,12,9,46,,93,84,14,10,6,6,0.5,0.5
2025-08-18T2100,3265A,121.4316,31.3322,上海市,宝山庙行,,16,16,13,8,7,37,,78,71,15,10,9,9,0.3,0.3
2025-08-18T2100,3266A,121.8791,31.4662,上海市,崇明上实东滩,,14,11,10,6,6,44,,57,55,10,10,4,5,0.2,0.3
2025-08-18T2100,3268A,121.3162,31.2838,上海市,嘉定南翔,,18,18,14,8,9,36,,96,86,25,15,4,4,0.2,0.2
2025-08-18T2100,3269A,121.3359,30.7456,上海市,金山新城,,,15,12,,7,36,,97,81,10,8,4,4,0.4,0.5
2025-08-18T2100,3270A,121.4996,31.0739,上海市,闵行浦江,,15,15,13,3,6,38,,86,76,10,8,4,4,0.7,0.7
2025-08-18T2100,3271A,121.2886,31.1663,上海市,青浦徐泾,,16,16,14,3,6,46,,100,91,12,10,6,7,0.5,0.5
2025-08-18T2100,3272A,121.2186,31.0378,上海市,松江图书馆,,26,,12,18,15,46,,107,95,14,12,7,8,0.7,0.8
2025-08-18T2100,3273A,121.3902,31.2059,上海市,长宁仙霞,,18,18,16,3,6,33,,91,81,20,13,8,8,0.5,0.5
2025-08-18T2100,3274A,121.7965,31.0507,上海市,浦东惠南,,19,,11,13,13,41,,79,65,9,9,10,10,0.5,0.5
2025-08-18T2100,3544A,121.4891,30.925,上海市,奉贤南桥新城,,15,15,14,9,9,38,,90,75,7,4,3,4,0.6,0.7
2025-08-18T2100,4183A,121.4174,31.16637,上海市,冠生园路458号,,17,17,15,3,7,39,,91,82,21,14,4,4,0.6,0.6
2025-08-18T2100,4205A,121.5419,31.2683,上海市,宁武路151号,,,,28,9,11,37,,72,65,16,16,3,3,0.2,0.2
2025-08-18T2100,2381A,118.005,28.4572,上饶市,百草园,,,,,,,,,,,,,,,,
2025-08-18T2100,2382A,117.9756,28.4436,上饶市,市监测站,,43,43,22,23,10,61,,97,92,13,10,7,6,0.4,0.4
2025-08-18T2100,2383A,117.9519,28.4628,上饶市,凤凰光学,,31,31,21,19,11,67,,92,88,12,11,6,9,0.8,0.8
2025-08-18T2100,3685A,117.897,28.4315,上饶市,双创科技城,,26,26,23,14,10,58,,101,92,24,9,4,14,0.4,0.4
2025-08-18T2100,4211A,118.1904,28.4448,上饶市,裕丰大道,,22,22,9,11,8,52,,79,75,13,7,16,14,0.4,0.3
2025-08-18T2100,1669A,113.5824,24.7733,韶关市,市八中,,23,23,22,8,9,25,,52,44,11,12,8,12,0.7,0.6
2025-08-18T2100,1671A,113.5917,24.7972,韶关市,园林处,,13,13,18,6,10,24,,47,40,8,8,9,13,0.4,0.4
