timepoint,stationcode,longitude,latitude,area,positionname,primarypollutant,aqi,pm10,pm10_24h,pm2_5,pm2_5_24h,o3,o3_24h,o3_8h,o3_8h_24h,no2,no2_24h,so2,so2_24h,co,co_24h
2025-08-18T0000,2566A,102.1879,31.914,阿坝藏族羌族自治州,州农科所,,19,10,20,6,10,59,,82,73,4,6,15,15,0,0
2025-08-18T0000,2568A,102.2502,31.8896,阿坝藏族羌族自治州,马师校,,32,32,16,19,15,64,,86,76,8,8,7,7,0.5,0.5
2025-08-18T0000,3994A,102.2165,31.9024,阿坝藏族羌族自治州,马尔康中学西区,,24,22,18,16,14,74,,101,91,4,4,8,8,0.5,0.5
2025-08-18T0000,2695A,80.292,41.1694,阿克苏地区,电视台,颗粒物(PM10),54,57,70,31,29,68,,90,80,9,10,6,6,0.6,0.6
2025-08-18T0000,2696A,80.2613,41.1551,阿克苏地区,艺术中心,颗粒物(PM10),55,59,70,28,38,77,,96,84,14,17,5,4,0.6,0.6
2025-08-18T0000,2204A,105.6467,38.8363,阿拉善盟,西城区西花园,,39,25,33,16,18,124,,146,145,10,11,9,9,0.9,0.8
2025-08-18T0000,2205A,105.6985,38.8411,阿拉善盟,蒙二幼,,34,30,41,14,17,107,,133,131,3,6,11,12,0.6,0.6
2025-08-18T0000,2206A,105.724,38.8516,阿拉善盟,环保局新楼,,35,22,28,10,14,112,,133,132,5,6,11,11,0.5,0.6
2025-08-18T0000,2708A,88.1264,47.8517,阿勒泰地区,市站,,43,43,31,3,7,72,,85,75,14,14,2,3,0.5,0.4
2025-08-18T0000,2630A,80.1161,32.5,阿里地区,阿里监测站,,27,6,6,3,2,86,,105,102,9,7,7,7,0.3,0.2
2025-08-18T0000,3192A,80.0903,32.5028,阿里地区,阿里藏医院,,,,,,,,,,,,,,,,
2025-08-18T0000,2642A,109.0318,32.6537,安康市,香溪洞,,27,27,24,13,8,37,,85,77,11,6,8,7,0.5,0.5
2025-08-18T0000,2644A,109.0072,32.6975,安康市,汉滨区检察院,,17,17,26,11,8,14,,71,48,16,7,4,5,0.4,0.4
2025-08-18T0000,4054A,109.0325,32.6913,安康市,市邮政管理局,,23,23,23,10,9,25,,73,57,14,7,4,7,0.6,0.6
2025-08-18T0000,2291A,117.0809,30.5177,安庆市,环科院,,38,38,25,22,17,86,,140,123,14,18,5,6,0.6,0.7
2025-08-18T0000,2292A,117.0331,30.5119,安庆市,马山宾馆,,36,36,27,24,15,89,,129,120,11,18,5,6,0.6,0.6
2025-08-18T0000,2294A,116.9896,30.6145,安庆市,安庆大学,,38,35,22,26,13,60,,131,101,18,13,4,5,0.6,0.5
2025-08-18T0000,3173A,117.0598,30.5351,安庆市,市人大,,32,28,25,22,17,97,,136,123,13,15,5,5,0.6,0.6
2025-08-18T0000,3122A,105.9606,26.2611,安顺市,伍家关,,11,9,9,6,6,35,,74,65,17,8,6,4,0.6,0.5
2025-08-18T0000,3123A,105.9408,26.2431,安顺市,凤凰山,,38,,14,26,12,36,,65,55,16,10,8,6,0.5,0.4
2025-08-18T0000,3124A,105.9439,26.2564,安顺市,金钟山,,22,,10,15,7,48,,70,63,8,5,12,6,0.7,0.4
2025-08-18T0000,3125A,105.8983,26.2481,安顺市,娄家坡,,16,,9,10,8,49,,63,59,6,5,8,8,0.5,0.4
2025-08-18T0000,1818A,114.4839,36.0621,安阳市,棉研所,,,,,,,,,,,,,,,,
2025-08-18T0000,1819A,114.3551,36.1017,安阳市,红庙街,,27,27,27,13,13,72,,106,96,13,12,4,6,0.3,0.3
2025-08-18T0000,1820A,114.361,36.0681,安阳市,银杏小区,,33,33,27,20,18,93,,112,104,10,12,5,7,0.3,0.4
2025-08-18T0000,3141A,114.3922,36.0878,安阳市,信访局,,29,27,27,18,15,91,,115,107,8,10,4,6,0.7,0.7
2025-08-18T0000,3669A,114.4705,36.0637,安阳市,左辅环卫站,,34,34,26,22,18,75,,105,92,14,12,7,7,0.8,0.8
2025-08-18T0000,3703A,114.2917,36.0949,安阳市,安钢职工学校,,34,34,32,23,18,85,,112,101,9,11,4,6,0.5,0.6
2025-08-18T0000,1748A,123.044,41.1196,鞍山市,深沟寺,,26,26,28,14,19,28,,105,67,17,12,7,7,0.8,0.9
2025-08-18T0000,1749A,123.011,41.0931,鞍山市,太阳城,,33,33,34,19,20,28,,120,86,17,11,6,6,0.8,0.9
2025-08-18T0000,1750A,123.0485,41.1442,鞍山市,太平,,33,33,40,14,23,46,,124,83,17,16,6,7,0.8,0.9
2025-08-18T0000,1751A,122.9642,41.0971,鞍山市,铁西三道街,,43,43,37,24,22,32,,124,78,36,22,10,11,1.6,1.7
2025-08-18T0000,1753A,123.022,41.0821,鞍山市,明达新区,,30,30,32,14,19,30,,115,79,21,13,8,8,1.0,1
2025-08-18T0000,1754A,123.1289,41.0228,鞍山市,千山,,,,,,,,,,,,,,,,
2025-08-18T0000,4201A,122.9446,41.0826,鞍山市,兴盛南路290号,,50,50,38,24,20,15,,124,74,53,27,16,13,1.9,1.5
2025-08-18T0000,2195A,107.4212,40.761,巴彦淖尔市,附二中,,31,31,32,16,16,66,,130,104,6,8,8,8,0.6,0.7
2025-08-18T0000,2196A,107.37,40.7372,巴彦淖尔市,市环保大楼,,32,32,35,12,17,70,,126,102,7,10,6,7,0.3,0.4
2025-08-18T0000,1956A,86.1472,41.7538,巴音郭楞蒙古自治州,孔雀公园,,49,49,57,18,19,98,,101,100,14,23,4,5,0.3,0.4
2025-08-18T0000,1957A,86.1972,41.7166,巴音郭楞蒙古自治州,棉纺厂,,35,35,70,15,12,91,,104,100,14,15,5,5,0.2,0.2
2025-08-18T0000,1958A,86.2357,41.7173,巴音郭楞蒙古自治州,经济开发区,,43,43,49,8,9,104,,104,103,7,8,6,5,0.2,0.2
2025-08-18T0000,2914A,106.7677,31.8794,巴中市,苏山坪,,19,12,11,7,7,59,,71,68,5,5,4,4,0.4,0.4
2025-08-18T0000,3181A,106.7768,31.8526,巴中市,市五中,,20,20,16,9,8,36,,75,59,12,9,6,6,0.4,0.5
2025-08-18T0000,3183A,106.7418,31.8654,巴中市,圣泉水务公司,,13,13,13,9,7,34,,81,60,6,6,6,6,0.5,0.5
2025-08-18T0000,3616A,106.7616,31.8344,巴中市,市中心医院,,17,17,12,10,8,33,,78,59,16,8,6,6,0.4,0.4
2025-08-18T0000,2235A,122.7911,45.6077,白城市,洮北区环保局,细颗粒物(PM2.5),70,,8,51,20,44,,80,61,3,6,4,4,0.3,0.3
2025-08-18T0000,2236A,122.8738,45.5725,白城市,市环保局,,13,7,12,3,9,40,,81,55,3,9,2,3,0.4,0.4
2025-08-18T0000,2231A,126.4219,41.9171,白山市,喜丰,,25,25,25,3,10,16,,89,49,12,13,5,6,0.4,0.6
2025-08-18T0000,2232A,126.4077,41.9419,白山市,环保局,,18,18,20,8,12,14,,92,54,14,12,5,6,0.5,0.7
2025-08-18T0000,2647A,104.1724,36.5446,白银市,第三小学,,44,44,35,10,15,69,,111,92,17,13,6,40,0.4,0.6
2025-08-18T0000,2648A,104.1465,36.5482,白银市,动力公司,,26,26,31,12,16,73,,112,95,18,12,6,6,0.4,0.5
2025-08-18T0000,2512A,106.6103,23.9011,百色市,市监测站,,21,21,20,7,6,15,,55,35,16,11,4,5,0.4,0.4
2025-08-18T0000,2513A,106.6538,23.8859,百色市,市中心血站,,25,25,22,11,11,8,,54,38,25,15,2,3,0.5,0.5
2025-08-18T0000,3406A,106.6085,23.8798,百色市,祈福高中,,27,27,28,12,11,11,,53,36,18,13,4,4,0.6,0.6
2025-08-18T0000,2270A,117.396,32.939,蚌埠市,工人疗养院,,36,36,38,17,12,109,,124,100,7,6,4,5,0.3,0.4
2025-08-18T0000,2271A,117.3605,32.9427,蚌埠市,百货大楼,,31,24,27,15,14,98,,116,60,12,8,6,7,0.4,0.5
2025-08-18T0000,2273A,117.4185,32.8911,蚌埠市,蚌埠学院,,31,31,30,16,16,85,,121,93,9,7,7,7,0.5,0.5
2025-08-18T0000,2274A,117.3533,32.9673,蚌埠市,淮上区政府,,36,36,29,19,15,100,,135,107,16,9,6,7,0.5,0.5
2025-08-18T0000,2275A,117.3145,32.8977,蚌埠市,高新区,,28,27,32,16,15,87,,123,87,11,11,6,9,0.6,0.6
2025-08-18T0000,3715A,117.3092,32.9314,蚌埠市,蚌埠田家炳中学,,33,33,34,16,14,103,,128,98,9,9,9,11,0.4,0.4
2025-08-18T0000,1585A,109.8756,40.6532,包头市,市环境监测站,,27,27,27,16,19,61,,87,55,24,29,3,13,0.5,0.9
2025-08-18T0000,1587A,109.9991,40.5842,包头市,包头八中,,33,32,40,23,21,43,,84,47,32,29,4,16,0.7,0.8
2025-08-18T0000,1588A,109.8538,40.6821,包头市,青山宾馆,,18,18,30,11,21,54,,88,49,28,32,2,9,0.7,1
2025-08-18T0000,1589A,109.8642,40.6288,包头市,惠龙物流,,22,15,34,13,17,70,,84,62,16,20,6,12,0.6,0.9
2025-08-18T0000,1590A,110.0377,40.5546,包头市,东河鸿龙湾,,31,31,31,19,18,47,,93,46,29,27,2,10,0.7,0.7
2025-08-18T0000,3283A,109.9154,40.5685,包头市,滨河大厦,,20,20,28,10,17,60,,88,57,18,21,3,8,0.5,0.6
2025-08-18T0000,3419A,109.9447,40.6261,包头市,包头市委党校,,30,27,31,21,20,64,,89,57,20,26,4,18,0.5,0.8
2025-08-18T0000,3683A,109.8331,40.6576,包头市,昆区政府,,23,15,39,11,23,71,,91,60,21,27,4,12,0.6,1.1
2025-08-18T0000,1930A,107.185,34.3063,宝鸡市,庙沟村,,20,6,15,3,8,64,,112,86,9,8,4,4,0.2,0.3
2025-08-18T0000,1931A,107.0708,34.3017,宝鸡市,竹园沟,,12,,16,8,12,37,,114,72,14,9,7,7,0.2,0.3
2025-08-18T0000,1932A,107.1906,34.3672,宝鸡市,三陆医院,,15,9,24,3,9,31,,112,81,29,16,7,8,0.5,0.5
2025-08-18T0000,1933A,107.1431,34.3547,宝鸡市,监测站,,16,16,24,7,12,34,,113,79,18,11,8,9,0.5,0.6
2025-08-18T0000,1934A,107.1186,34.3739,宝鸡市,技工学校,,14,,25,9,13,44,,110,80,14,11,6,7,0.5,0.6
2025-08-18T0000,1936A,107.2058,34.3497,宝鸡市,文理学院,,27,27,22,6,10,28,,115,81,28,12,7,8,0.5,0.5
2025-08-18T0000,1937A,107.2386,34.3622,宝鸡市,三迪小学,,13,,25,7,11,36,,112,80,26,16,4,5,0.4,0.4
2025-08-18T0000,4308A,107.3898,34.3601,宝鸡市,陈仓区北开路21号,,20,,12,3,7,61,,126,109,8,12,5,6,0.3,0.4
2025-08-18T0000,1051A,115.493,38.8632,保定市,游泳馆,,38,38,27,19,14,71,,113,88,21,16,4,4,0.1,0
2025-08-18T0000,1052A,115.5213,38.8959,保定市,华电二区,,29,29,26,15,14,78,,127,113,16,15,1,2,0.6,0.6
2025-08-18T0000,1053A,115.4713,38.9108,保定市,接待中心,,33,33,26,8,10,80,,125,114,18,16,3,2,0,0
2025-08-18T0000,1054A,115.4612,38.8416,保定市,地表水厂,,46,46,32,11,10,72,,118,95,15,10,4,3,0.4,0.4
2025-08-18T0000,3581A,115.31981,38.95208,保定市,满城区生态环境分局,,41,41,32,17,14,56,,128,95,30,16,2,2,0.1,0.1
2025-08-18T0000,3582A,115.47694,38.76408,保定市,清苑区第二中学,,47,47,36,24,15,78,,121,104,8,11,2,2,0.4,0.3
2025-08-18T0000,3583A,115.62909,39.02311,保定市,徐水物探局,,40,40,36,3,4,78,,125,111,13,14,8,8,0.5,0.4
2025-08-18T0000,4004A,115.4202,38.8656,保定市,双鹰农机,,36,36,24,17,13,72,,123,102,18,11,4,4,0.2,0.2
2025-08-18T0000,4034A,115.5150,38.8590,保定市,植保所站,,40,40,26,12,11,67,,130,110,21,11,3,3,0.2,0.2
2025-08-18T0000,2594A,99.1678,25.1081,保山市,市环境监测站,,20,20,15,8,12,18,,66,41,5,6,8,6,0.5,0.5
2025-08-18T0000,2595A,99.1711,25.1328,保山市,市环保局,,18,18,14,8,9,26,,63,41,3,4,6,6,0.4,0.4
2025-08-18T0000,1866A,109.2262,21.588,北海市,牛尾岭水库,,16,8,14,3,6,49,,55,39,4,4,3,3,0.4,0.4
2025-08-18T0000,1867A,109.1436,21.4086,北海市,海滩公园,,19,19,20,3,6,48,,71,54,8,7,14,5,0.6,0.5
2025-08-18T0000,1868A,109.0981,21.4661,北海市,新市环保局,,20,16,18,14,12,47,,67,50,11,10,6,5,0.3,0.3
2025-08-18T0000,1869A,109.1778,21.5233,北海市,北海工业园,,18,15,21,12,11,42,,68,43,12,9,12,6,0.5,0.5
2025-08-18T0000,3400A,109.1911,21.4415,北海市,龙潭自来水厂,,21,21,18,12,10,44,,66,47,8,7,14,9,0.4,0.4
2025-08-18T0000,1001A,116.3621,39.8784,北京市,万寿西宫,颗粒物(PM10),52,53,32,33,23,87,,131,121,6,8,4,3,0.8,0.6
2025-08-18T0000,1002A,116.2202,40.2915,北京市,定陵,颗粒物(PM10),61,71,32,43,20,60,,120,93,5,3,3,2,0.8,0.6
2025-08-18T0000,1003A,116.4174,39.9289,北京市,东四,细颗粒物(PM2.5),57,58,35,40,24,102,,141,131,14,19,8,5,0.9,0.7
2025-08-18T0000,1004A,116.4072,39.8863,北京市,天坛,,48,47,33,33,24,84,,130,120,8,10,5,3,0.8,0.7
2025-08-18T0000,1005A,116.462,39.9365,北京市,农展馆,细颗粒物(PM2.5),54,53,34,38,23,90,,129,121,13,17,5,3,1.0,0.8
2025-08-18T0000,1006A,116.3392,39.9295,北京市,官园,细颗粒物(PM2.5),54,46,32,38,26,97,,136,127,11,12,7,5,0.7,0.6
2025-08-18T0000,1007A,116.2878,39.9611,北京市,海淀万柳,细颗粒物(PM2.5),55,54,34,39,23,90,,124,117,16,16,4,4,0.7,0.5
2025-08-18T0000,1008A,116.6636,40.135,北京市,顺义新城,,,,,,,,,,,,,,,,
2025-08-18T0000,1009A,116.6275,40.3275,北京市,怀柔镇,细颗粒物(PM2.5),54,54,31,38,21,79,,122,111,17,12,1,2,0.9,0.7
2025-08-18T0000,1010A,116.2296,40.217,北京市,昌平镇,颗粒物(PM10),52,53,33,31,22,75,,123,110,13,12,4,4,1.0,0.8
2025-08-18T0000,1011A,116.3966,39.9821,北京市,奥体中心,,45,45,31,31,22,98,,122,120,9,16,5,4,0.8,0.7
2025-08-18T0000,3281A,115.9718,40.4529,北京市,延庆夏都,,50,50,25,33,16,109,,118,118,8,6,3,3,0.8,0.6
2025-08-18T0000,3418A,116.8336,40.4095,北京市,密云新城,,40,40,28,24,18,83,,111,109,7,6,4,2,0.6,0.5
2025-08-18T0000,3671A,116.088,39.9726,北京市,门头沟三家店,,46,46,36,26,22,51,,124,92,15,15,2,3,0.9,0.8
2025-08-18T0000,3672A,116.1541,39.8204,北京市,丰台云岗,颗粒物(PM10),55,59,35,38,26,59,,115,91,21,11,4,3,0.8,0.6
2025-08-18T0000,3673A,116.6804,39.9081,北京市,通州东关,细颗粒物(PM2.5),52,50,40,36,28,67,,123,105,17,14,7,6,0.9,0.7
2025-08-18T0000,3674A,115.9577,39.7603,北京市,房山燕山,,39,34,31,27,23,62,,116,91,9,8,3,3,0.7,0.6
2025-08-18T0000,3675A,116.4672,39.7733,北京市,大兴旧宫,"颗粒物(PM10),细颗粒物(PM2.5)",53,55,34,37,23,15,,117,61,14,13,2,2,0.9,0.8
2025-08-18T0000,3694A,115.986,40.4563,北京市,延庆石河营,细颗粒物(PM2.5),52,48,24,36,17,96,,110,109,9,5,1,1,0.7,0.5
2025-08-18T0000,3695A,116.6151,40.3053,北京市,怀柔新城,细颗粒物(PM2.5),54,55,32,38,24,68,,106,95,14,8,3,3,0.9,0.7
2025-08-18T0000,3696A,116.2545,39.8768,北京市,丰台小屯,细颗粒物(PM2.5),59,55,35,42,25,82,,116,103,11,13,3,2,1.0,0.7
2025-08-18T0000,3697A,116.84,40.3844,北京市,密云镇,,38,38,29,25,20,94,,117,116,7,11,6,5,0.7,0.7
2025-08-18T0000,4182A,116.1942,39.9158,北京市,八角北路9号,颗粒物(PM10),58,65,38,39,23,83,,132,114,15,12,2,1,0.6,0.4
2025-08-18T0000,4194A,117.0790,40.1518,北京市,洳河巡河路,,36,36,35,24,23,80,,119,110,7,6,3,3,0.6,0.6
2025-08-18T0000,1761A,123.8275,41.3064,本溪市,大峪,,20,20,24,3,9,17,,101,58,20,10,5,5,0.3,0.4
2025-08-18T0000,1762A,123.7567,41.3325,本溪市,溪湖,,38,38,31,15,14,22,,98,56,20,8,9,8,1.1,1
2025-08-18T0000,1763A,123.7169,41.3094,本溪市,彩屯,,26,26,24,16,14,24,,95,50,27,14,14,9,1.9,0.9
2025-08-18T0000,1764A,123.7669,41.2864,本溪市,东明,,16,15,22,7,10,51,,102,70,10,11,4,5,0.6,0.8
2025-08-18T0000,1765A,123.7992,41.2664,本溪市,新立屯,,13,6,19,3,9,40,,100,48,7,11,4,4,0.8,0.9
2025-08-18T0000,1766A,123.8142,41.3472,本溪市,威宁,,26,26,22,10,14,3,,86,39,24,12,9,9,0.4,0.6
2025-08-18T0000,2587A,105.2864,27.3125,毕节市,八中,,43,,16,30,13,21,,68,50,16,8,5,5,0.5,0.5
2025-08-18T0000,2588A,105.31,27.2944,毕节市,师专,,35,35,18,18,9,26,,74,62,26,10,5,6,0.9,0.8
2025-08-18T0000,4263A,105.3688,27.3598,毕节市,工业大道,,34,34,19,18,9,20,,81,57,27,13,8,8,0.7,0.6
2025-08-18T0000,1629A,118.0018,37.3617,滨州市,第二水厂,,22,12,9,3,9,69,,101,79,7,4,3,2,0.4,0.5
2025-08-18T0000,1630A,117.9776,37.393,滨州市,北中新校,,22,12,16,3,8,69,,98,75,11,9,5,4,0.3,0.4
2025-08-18T0000,3514A,117.9378,37.3956,滨州市,中海酒店,,20,12,9,3,8,63,,98,77,7,3,2,2,0.3,0.4
2025-08-18T0000,3515A,117.9378,37.3553,滨州市,开发区一中,,23,9,11,7,9,73,,108,87,10,8,5,5,0.4,0.4
2025-08-18T0000,3516A,118.0917,37.694,滨州市,金海六路,,20,12,3,3,1,36,,84,74,39,8,2,2,0.2,0.2
2025-08-18T0000,4028A,117.9956,37.3753,滨州市,滨州市西街道办事处,,25,6,4,3,9,80,,108,86,7,6,1,1,0.2,0.3
2025-08-18T0000,2311A,115.8072,33.8399,亳州市,污水处理厂,,30,11,11,7,7,93,,116,107,9,10,9,5,0.5,0.5
2025-08-18T0000,2312A,115.7789,33.8518,亳州市,三国揽胜宫,,31,19,20,6,8,97,,119,113,6,6,4,3,0.6,0.6
2025-08-18T0000,3332A,115.7633,33.8034,亳州市,亳州学院,,29,18,14,9,9,91,,114,110,7,8,1,1,0.5,0.4
2025-08-18T0000,2693A,82.0485,44.8556,博尔塔拉蒙古自治州,市党校,,25,,23,17,17,70,,111,101,9,5,4,3,0.2,0.2
2025-08-18T0000,2694A,82.0806,44.8969,博尔塔拉蒙古自治州,市环保局,,28,28,34,12,11,72,,109,98,7,6,5,5,0.2,0.1
2025-08-18T0000,1071A,116.8842,38.2991,沧州市,沧县城建局,,30,30,23,17,11,37,,94,73,32,12,3,4,0.2,0.3
2025-08-18T0000,1072A,116.8584,38.3254,沧州市,电视转播站,,33,33,36,3,10,44,,82,68,13,11,3,3,0.2,0.3
2025-08-18T0000,1073A,116.8709,38.3228,沧州市,市环保局,,28,28,27,8,13,47,,90,70,12,8,3,3,0.2,0.4
2025-08-18T0000,3324A,116.8136,38.3004,沧州市,河北水利电力学院,,22,,12,9,16,69,,103,88,10,7,3,2,0.2,0.3
2025-08-18T0000,2622A,97.1806,31.1273,昌都市,昌都监测站,,20,14,13,14,8,49,,101,82,15,6,5,5,0.3,0.2
2025-08-18T0000,3719A,97.1714,31.1406,昌都市,昌都会议中心,,21,21,14,10,7,56,,102,85,11,6,3,3,0.1,0.1
2025-08-18T0000,2690A,88.1236,43.8886,昌吉回族自治州,天山天池,,25,25,22,3,7,62,,114,97,7,8,4,4,0.6,0.6
2025-08-18T0000,2692A,87.2717,44.0297,昌吉回族自治州,新区政务中心,,43,43,37,18,14,22,,98,71,47,18,10,10,0.8,0.5
2025-08-18T0000,3613A,87.3095,44.0142,昌吉回族自治州,亚心广场,颗粒物(PM10),58,66,54,14,11,38,,91,69,41,26,9,9,0.5,0.5
2025-08-18T0000,1120A,125.2863,43.9027,长春市,客车厂,,24,24,16,9,8,34,,75,51,32,15,6,4,0.3,0.2
2025-08-18T0000,1121A,125.2841,43.8463,长春市,邮电学院,,13,13,12,3,7,37,,75,55,20,11,5,5,0.4,0.4
2025-08-18T0000,1122A,125.3716,43.8772,长春市,劳动公园,,27,27,25,7,7,50,,75,54,19,16,8,9,0.2,0.2
2025-08-18T0000,1123A,125.3297,43.8805,长春市,园林处,,21,21,14,3,4,51,,74,55,15,12,5,5,0.3,0.3
2025-08-18T0000,1124A,125.4605,43.79,长春市,净月潭,,18,11,11,3,3,57,,70,54,6,6,5,5,0.1,0.1
2025-08-18T0000,1125A,125.7194,43.515,长春市,甩湾子,,11,11,9,3,4,25,,71,54,10,6,3,3,0.4,0.4
2025-08-18T0000,1126A,125.3863,43.8447,长春市,经开区环卫处,,22,22,19,3,6,34,,71,36,26,19,4,4,0.3,0.4
2025-08-18T0000,1127A,125.245,43.7783,长春市,高新区管委会,,27,27,15,3,9,46,,76,54,14,10,4,4,0.4,0.4
2025-08-18T0000,1128A,125.1761,43.8325,长春市,岱山公园,,19,19,17,3,6,44,,75,52,22,18,4,4,0.2,0.2
2025-08-18T0000,4281A,125.3346,43.9164,长春市,北亚泰大街1068号,,33,33,25,14,9,27,,70,37,33,18,8,7,0.5,0.4
2025-08-18T0000,1335A,113.0833,28.2325,长沙市,经开区环保局,,34,34,25,21,15,62,,99,79,24,11,5,5,0.4,0.3
2025-08-18T0000,1336A,112.8872,28.2189,长沙市,高开区环保局,,25,25,26,10,11,64,,97,85,11,9,5,4,0.4,0.3
2025-08-18T0000,1337A,113.0792,28.2053,长沙市,马坡岭,,44,44,26,17,12,54,,102,79,27,10,5,6,0.5,0.4
2025-08-18T0000,1338A,112.9394,28.19,长沙市,湖南师范大学,,33,33,25,14,12,50,,98,75,19,17,4,4,0.2,0.1
2025-08-18T0000,1339A,113.0178,28.1322,长沙市,雨花区环保局,,34,34,26,17,13,33,,82,68,28,10,6,6,0.6,0.5
2025-08-18T0000,1340A,112.9792,28.2597,长沙市,伍家岭,,34,34,29,14,15,56,,105,81,26,15,3,2,0.4,0.3
2025-08-18T0000,1341A,113.0014,28.1944,长沙市,火车新站,,34,34,29,14,11,54,,87,75,16,11,6,6,0.4,0.4
2025-08-18T0000,1342A,112.9844,28.1178,长沙市,天心区环保局,,28,25,21,19,13,48,,86,72,23,13,5,4,0.3,0.3
2025-08-18T0000,1343A,112.8908,28.1308,长沙市,湖南中医药大学,细颗粒物(PM2.5),54,54,31,38,16,4,,96,44,46,20,4,4,0.7,0.6
2025-08-18T0000,1344A,112.9581,28.3611,长沙市,沙坪,,23,22,18,16,11,45,,107,58,16,12,4,4,0.4,0.3
2025-08-18T0000,1727A,113.1147,36.1547,长治市,清华站,,33,33,29,14,12,67,,84,76,8,13,7,7,1.3,1.1
2025-08-18T0000,1730A,113.0886,36.2125,长治市,审计局,,26,26,28,17,18,74,,92,84,7,17,5,5,0.9,1.1
2025-08-18T0000,1731A,113.0844,36.1856,长治市,长治八中,,43,33,34,30,25,68,,94,80,8,16,8,8,1.3,1.2
2025-08-18T0000,2845A,113.1569,36.1911,长治市,德盛苑,,32,26,25,22,13,60,,85,83,12,9,6,7,1.1,1.3
2025-08-18T0000,3568A,113.06,36.0464,长治市,向阳小学,颗粒物(PM10),54,58,63,28,21,82,,93,91,4,9,2,4,1.2,0.8
2025-08-18T0000,3569A,112.8792,36.3144,长治市,屯留一中,颗粒物(PM10),53,55,49,36,33,66,,92,79,16,29,9,14,1.4,1.2
2025-08-18T0000,4189A,113.1131,36.19948,长治市,英华南巷50号,,35,35,30,22,16,72,,94,79,9,13,6,7,1.2,1.5
2025-08-18T0000,4190A,113.2367,36.3344,长治市,学府街1号,,50,,34,35,25,78,,88,84,10,15,4,6,1.1,1
2025-08-18T0000,1854A,111.6975,28.9703,常德市,市二中,,43,37,28,30,19,32,,120,71,21,13,4,5,0.5,0.4
2025-08-18T0000,1857A,111.7158,29.1456,常德市,白鹤山,,,,,,,,,,,,,,,,
2025-08-18T0000,3138A,111.7153,29.0289,常德市,武陵区永安,,33,33,27,18,15,53,,113,79,8,7,4,4,0.3,0.3
2025-08-18T0000,3139A,111.6892,28.9881,常德市,鼎城区玉霞,,40,34,30,28,20,37,,121,76,14,11,6,5,0.5,0.4
2025-08-18T0000,3140A,111.6625,29.0531,常德市,武陵区长庚,,26,26,24,18,16,65,,113,86,9,8,5,6,0.5,0.5
2025-08-18T0000,1196A,119.9633,31.762,常州市,市监测站,,25,,30,17,17,56,,122,102,16,10,10,10,0.3,0.3
2025-08-18T0000,1200A,119.9468,31.7069,常州市,武进监测站,,30,30,25,18,14,66,,118,108,10,6,9,9,1.0,0.8
2025-08-18T0000,1201A,119.9255,31.9087,常州市,安家,,29,28,27,20,14,53,,108,91,16,10,9,9,0.7,0.8
2025-08-18T0000,3002A,119.9805,31.8174,常州市,行政中心,,33,33,16,14,15,61,,104,97,15,12,8,8,0.4,0.6
2025-08-18T0000,3003A,120.0522,31.7748,常州市,经开区,,38,38,34,14,14,65,,109,100,14,11,4,7,0.6,0.9
2025-08-18T0000,3010A,119.9025,31.7964,常州市,钟楼,,35,35,29,9,12,69,,112,105,12,9,7,7,0.3,0.3
2025-08-18T0000,3429A,119.8598,31.7066,常州市,武进经发区,,33,33,27,23,18,65,,118,103,8,7,8,9,0.7,0.7
2025-08-18T0000,3430A,119.5826,31.7245,常州市,金坛城区,,36,36,30,21,19,78,,148,115,7,10,9,9,0.3,0.4
2025-08-18T0000,2220A,120.4318,41.5881,朝阳市,西梁,,34,34,22,12,10,17,,93,,30,12,8,9,0.5,0.6
2025-08-18T0000,2221A,120.4521,41.5646,朝阳市,河畔小区,,36,36,19,3,7,22,,96,67,30,9,11,9,0.6,0.6
2025-08-18T0000,2222A,120.4176,41.5648,朝阳市,八里堡,,28,28,24,8,10,16,,100,59,34,13,7,8,0.5,0.5
2025-08-18T0000,2223A,120.3806,41.5969,朝阳市,农业园区,,18,18,17,6,8,19,,91,50,22,11,6,8,0.4,0.4
2025-08-18T0000,1705A,116.6367,23.6719,潮州市,西园路,,22,20,23,15,10,50,,71,58,10,10,4,4,0.2,0.2
2025-08-18T0000,3026A,116.6183,23.6608,潮州市,市政府,,20,20,27,10,11,46,,66,53,10,12,9,11,0.3,0.3
2025-08-18T0000,4036A,116.6461,23.6761,潮州市,金山,,35,,23,24,15,45,,72,60,10,9,4,5,0.4,0.4
2025-08-18T0000,2472A,113.0073,25.9061,郴州市,马头岭,,24,24,23,8,7,9,,83,36,21,12,5,6,0.4,0.4
2025-08-18T0000,2473A,113.0116,25.8226,郴州市,市职中,,32,30,24,22,15,7,,84,42,22,11,4,5,0.5,0.5
2025-08-18T0000,2475A,113.0383,25.8071,郴州市,市审计局,,16,16,21,7,13,35,,87,52,8,9,5,6,0.3,0.4
2025-08-18T0000,2476A,113.0348,25.7759,郴州市,市环保局,,31,31,23,7,13,34,,80,48,9,14,1,3,0.2,0.3
2025-08-18T0000,4252A,113.0138,25.8011,郴州市,好美居路49号,,18,16,22,12,12,36,,82,47,7,9,5,7,0.3,0.4
2025-08-18T0000,1431A,103.9728,30.7236,成都市,金泉两河,,33,31,27,23,16,71,,114,104,13,14,3,2,0.7,0.7
2025-08-18T0000,1432A,104.176,30.6872,成都市,十里店,,38,38,29,23,16,69,,115,105,20,14,5,5,0.7,0.7
2025-08-18T0000,1433A,104.079,30.5706,成都市,三瓦窑,细颗粒物(PM2.5),52,,25,36,18,82,,129,119,20,20,3,2,0.5,0.5
2025-08-18T0000,1434A,104.1114,30.63,成都市,沙河铺,,32,32,30,12,16,41,,102,93,11,14,2,3,0.7,0.6
2025-08-18T0000,1437A,104.0786,30.6531,成都市,君平街,,33,33,34,13,21,80,,128,118,11,9,7,6,0.8,0.8
2025-08-18T0000,1438A,103.613,31.0283,成都市,灵岩寺,,,,,,,,,,,,,,,,
2025-08-18T0000,2880A,104.0239,30.65639,成都市,大石西路,,35,35,31,23,24,46,,102,90,21,17,4,4,0.7,0.7
2025-08-18T0000,3136A,104.2725,30.5589,成都市,龙泉驿区区政府,,22,17,16,7,9,69,,108,92,13,14,5,4,0.5,0.5
2025-08-18T0000,3357A,104.0106,30.6931,成都市,金博路,,26,26,21,18,15,56,,106,93,17,16,5,4,0.7,0.7
2025-08-18T0000,3359A,104.0578,30.5225,成都市,华阳,,28,22,21,19,17,69,,122,110,26,17,4,4,0.7,0.6
2025-08-18T0000,3488A,104.3853,30.7453,成都市,青白江技师分院,,24,24,27,11,15,18,,100,70,27,16,7,8,0.7,0.6
2025-08-18T0000,3489A,104.0789,30.4072,成都市,科学城,,14,14,25,9,19,44,,107,93,16,13,4,3,0.5,0.6
2025-08-18T0000,4011A,103.8506,30.6947,成都市,光华大道三段,,32,32,32,11,18,93,,131,119,11,14,5,5,0.6,0.7
2025-08-18T0000,4224A,104.2433,30.5353,成都市,鲸龙路1057号,,30,29,25,21,19,70,,105,93,17,16,3,3,0.5,0.6
2025-08-18T0000,1062A,117.9531,40.9081,承德市,铁路,,38,38,28,8,13,28,,104,63,12,12,2,2,0.4,0.4
2025-08-18T0000,1063A,117.9392,40.9763,承德市,中国银行,,40,40,30,14,15,12,,104,53,14,8,3,2,0.3,0.4
2025-08-18T0000,1064A,117.9503,40.928,承德市,开发区,,34,34,35,10,14,28,,105,63,15,11,3,3,0.4,0.5
2025-08-18T0000,1066A,117.9268,41.0026,承德市,离宫,,25,25,23,7,8,8,,92,33,9,6,3,3,0.3,0.4
2025-08-18T0000,4274A,117.7994,40.9605,承德市,滨河大街98号,,37,37,30,17,14,10,,100,44,31,10,2,2,0.4,0.4
2025-08-18T0000,2314A,117.47,30.6618,池州市,池州学院,,39,39,28,20,13,89,,136,123,12,14,6,7,0.5,0.6
2025-08-18T0000,3237A,117.4918,30.6617,池州市,展览馆,,35,35,25,19,13,76,,139,120,10,10,6,7,0.6,0.6
2025-08-18T0000,3333A,117.5627,30.695,池州市,第八中学,,34,34,28,18,14,74,,141,118,10,9,6,6,0.7,0.5
2025-08-18T0000,3334A,117.5038,30.6243,池州市,第十二中学,,32,32,27,22,14,63,,136,115,17,17,4,5,0.9,0.9
2025-08-18T0000,1744A,118.9233,42.2816,赤峰市,松山一中,,27,15,37,7,8,86,,99,95,15,18,7,8,0.5,0.6
2025-08-18T0000,1745A,118.9576,42.2728,赤峰市,哈达街,,26,18,22,8,9,81,,96,91,16,17,12,14,0.5,0.6
2025-08-18T0000,1746A,118.8788,42.2554,赤峰市,天义路,,24,13,14,12,13,75,,89,,15,13,18,13,0.3,0.3
2025-08-18T0000,3058A,119.2658,42.0353,赤峰市,银河街,颗粒物(PM10),53,56,27,22,13,55,,86,70,22,13,99,16,0.6,0.5
2025-08-18T0000,3286A,118.9359,42.3147,赤峰市,桥北物流园区,,20,15,22,3,13,61,,89,74,21,17,12,12,0.6,0.6
2025-08-18T0000,2521A,107.3476,22.4136,崇左市,市环保局江州分局,颗粒物(PM10),53,56,24,16,8,14,,94,67,22,8,6,6,0.7,0.5
2025-08-18T0000,4256A,107.3750,22.3736,崇左市,石景林东路7号,,38,38,19,20,7,19,,98,65,22,9,3,4,0.5,0.4
2025-08-18T0000,2298A,118.3093,32.3153,滁州市,老年大学,,37,37,36,17,18,109,,156,138,12,12,5,6,0.2,0.3
2025-08-18T0000,2299A,118.3244,32.2786,滁州市,人大宾馆,,35,29,26,21,22,111,,168,146,6,7,5,6,0.3,0.4
2025-08-18T0000,3207A,118.3118,32.3038,滁州市,市政府原办公楼,,39,39,33,27,25,108,,161,136,10,10,6,8,0.3,0.4
2025-08-18T0000,3331A,118.3267,32.2634,滁州市,图书馆,,40,29,38,28,23,110,,170,144,9,9,10,11,0.2,0.3
2025-08-18T0000,2605A,101.5482,25.0441,楚雄彝族自治州,州环境监测站,,26,26,12,17,6,0,,52,34,28,12,9,4,0.7,0.5
2025-08-18T0000,2606A,101.538,25.0492,楚雄彝族自治州,市经济开发区,,46,46,25,23,11,2,,51,32,24,14,10,7,0.8,0.6
2025-08-18T0000,2548A,107.5277,31.2827,达州市,达州职业技术学院,,31,31,29,3,3,8,,73,30,25,14,7,8,0.6,0.5
2025-08-18T0000,2549A,107.5086,31.2186,达州市,市环境监测站,,26,26,24,3,1,7,,60,31,30,21,6,7,0.4,0.3
2025-08-18T0000,2550A,107.4988,31.2132,达州市,凤凰小区,,22,22,16,3,3,11,,66,42,31,16,1,2,0.3,0.2
2025-08-18T0000,2551A,107.5082,31.1986,达州市,达县机关宾馆,,27,27,19,3,5,8,,68,36,36,19,4,5,0.5,0.3
2025-08-18T0000,2552A,107.4644,31.2124,达州市,市政中心,,31,31,24,7,3,7,,74,37,36,16,3,5,0.3,0.2
2025-08-18T0000,2614A,100.1542,25.7054,大理白族自治州,大理市环境监测站,,24,24,13,15,18,9,,69,34,23,15,5,5,0.5,0.5
2025-08-18T0000,2615A,100.2171,25.5811,大理白族自治州,大理古城,,36,,12,25,9,34,,74,51,7,6,6,5,0.6,0.6
2025-08-18T0000,1109A,121.612,38.9741,大连市,甘井子,,18,16,9,11,7,56,,75,64,17,17,9,8,0.1,0.1
2025-08-18T0000,1110A,121.565,38.9511,大连市,周水子,,15,13,9,9,8,45,,70,57,14,12,7,7,0.3,0.3
2025-08-18T0000,1111A,121.5637,38.8845,大连市,星海三站,,23,17,11,16,8,48,,74,55,15,13,3,3,0.4,0.3
2025-08-18T0000,1112A,121.6302,38.9117,大连市,青泥洼桥,,27,27,11,15,8,55,,79,66,11,12,6,6,0.6,0.5
2025-08-18T0000,1113A,121.6251,38.8638,大连市,傅家庄,,21,8,7,8,6,65,,72,66,6,8,6,6,0.1,0.1
2025-08-18T0000,1114A,121.5213,38.8661,大连市,七贤岭,,32,,8,22,9,36,,75,56,17,10,11,10,0.6,0.5
2025-08-18T0000,1115A,121.2529,38.8061,大连市,旅顺,,16,16,7,3,6,27,,70,54,6,4,6,5,0.3,0.2
2025-08-18T0000,1116A,121.7485,39.1311,大连市,金州,,18,16,10,11,7,57,,67,60,9,10,9,8,0.4,0.2
2025-08-18T0000,1117A,121.7811,39.0496,大连市,开发区,,19,13,10,13,8,56,,69,64,12,14,5,5,0.5,0.4
2025-08-18T0000,1118A,121.9762,39.0631,大连市,双D港,,15,15,9,3,6,48,,75,56,2,6,7,7,0.3,0.4
2025-08-18T0000,1789A,124.81117,46.03138,大庆市,大同区,,16,16,21,3,7,39,,69,49,9,11,6,8,0.6,0.6
2025-08-18T0000,1790A,125.129,46.533,大庆市,龙凤区,,19,19,19,12,11,34,,63,42,18,15,7,7,0.5,0.5
2025-08-18T0000,1791A,124.902,46.408,大庆市,红岗区,,22,18,24,15,12,41,,83,64,7,11,7,9,0.5,0.5
2025-08-18T0000,1792A,125.153,46.586,大庆市,萨尔图区,,32,32,23,10,6,30,,56,39,19,10,8,7,0.4,0.4
2025-08-18T0000,1793A,124.9042,46.6215,大庆市,让胡路区,,23,23,25,14,13,42,,70,54,9,8,7,5,0.3,0.3
2025-08-18T0000,3481A,125.141,46.634,大庆市,萨区政府监测点,,25,25,17,3,3,38,,63,48,15,8,10,7,0.2,0.2
2025-08-18T0000,1721A,113.3819,40.1097,大同市,果树场,,33,33,24,22,14,64,,115,80,13,21,8,8,0.5,0.5
2025-08-18T0000,1723A,113.2994,40.0758,大同市,云冈宾馆,,37,37,34,18,15,78,,127,100,17,21,4,5,0.6,0.7
2025-08-18T0000,1724A,113.3444,40.0917,大同市,大同大学,,24,23,26,11,12,76,,127,99,21,18,9,9,0.6,0.6
2025-08-18T0000,1725A,113.2661,40.1269,大同市,安家小村,,,29,32,8,8,58,,138,100,21,17,8,9,,1
2025-08-18T0000,1726A,113.2711,40.0844,大同市,教育学院,,30,30,35,16,16,75,,128,100,17,18,8,10,0.5,0.8
2025-08-18T0000,3282A,113.3397,40.0597,大同市,大同市卫生学校,,32,32,29,18,15,74,,120,92,19,20,6,8,0.6,0.7
2025-08-18T0000,3565A,113.1367,40.1122,大同市,云冈站,,39,39,42,18,17,78,,132,96,9,13,4,5,0.7,0.7
2025-08-18T0000,3566A,113.1186,40.2556,大同市,图书馆,,37,37,32,16,16,70,,133,89,14,11,6,4,0.7,0.7
2025-08-18T0000,3567A,113.5931,40.0461,大同市,区一中,,23,17,21,16,11,69,,124,96,6,7,8,11,0.5,0.5
2025-08-18T0000,4199A,113.2798,40.0997,大同市,魏都大道141号,,28,28,33,16,17,72,,130,99,18,18,5,7,0.5,1
2025-08-18T0000,2269A,124.1069,50.4097,大兴安岭地区,科技局,,30,30,22,13,10,7,,51,28,9,3,8,5,0.3,0.2
2025-08-18T0000,3663A,124.1164,50.4278,大兴安岭地区,红旗社区,,12,12,9,7,5,2,,54,28,12,4,4,4,0.3,0.2
2025-08-18T0000,1600A,124.3303,40.0625,丹东市,江湾东路,,13,11,9,9,6,36,,67,48,6,9,4,7,0.7,0.6
2025-08-18T0000,1601A,124.4256,40.1503,丹东市,临江后街,,13,13,14,6,8,36,,61,36,6,12,7,8,0.6,0.8
2025-08-18T0000,1602A,124.3933,40.1461,丹东市,元宝山,,10,10,12,3,5,28,,54,35,6,9,3,3,0.6,0.8
2025-08-18T0000,1603A,124.3633,40.1092,丹东市,民主桥,,11,10,11,6,6,33,,61,44,8,10,3,4,0.7,0.7
2025-08-18T0000,3541A,109.5726,19.5167,儋州市,第一中学子站,,11,11,12,3,3,16,,30,27,14,3,6,4,0.7,0.7
2025-08-18T0000,3542A,109.5567,19.5187,儋州市,东坡学校子站,,10,10,12,3,3,25,,32,30,3,2,6,6,0.6,0.5
2025-08-18T0000,2616A,98.5842,24.428,德宏傣族景颇族自治州,德宏州监测站,,21,21,31,12,17,47,,74,54,7,10,12,18,0.6,0.7
2025-08-18T0000,3677A,98.5881,24.4368,德宏傣族景颇族自治州,芒市人民政府综合楼,,23,22,33,16,13,30,,58,39,8,8,8,10,0.5,0.6
2025-08-18T0000,1901A,104.4239,31.1208,德阳市,东山公园,,,,16,,16,,,87,86,,6,,1,,0.8
2025-08-18T0000,1902A,104.3826,31.1317,德阳市,西小区,,27,27,19,15,17,57,,99,84,23,12,3,2,1.0,0.9
2025-08-18T0000,1904A,104.3553,31.1091,德阳市,耐火材料厂,,30,26,22,21,18,68,,97,83,15,14,1,1,0.6,0.6
2025-08-18T0000,3639A,104.4019,31.1244,德阳市,市教育局,,25,23,21,17,16,36,,89,70,26,9,6,5,1.0,0.9
2025-08-18T0000,1622A,116.3032,37.4674,德州市,儿童乐园,,,,,,,,,,,,,,,,
2025-08-18T0000,1624A,116.2991,37.4451,德州市,监理站,,21,,8,7,9,65,,117,93,7,5,5,3,0.4,0.4
2025-08-18T0000,3066A,116.2721,37.4379,德州市,九衢泉纯净水厂,,18,14,17,12,16,52,,109,86,16,8,8,7,0.6,0.6
2025-08-18T0000,3371A,116.3728,37.4403,德州市,开发区人民医院,,17,12,14,3,10,54,,99,79,15,10,12,10,0.8,0.9
2025-08-18T0000,3511A,116.5652,37.3319,德州市,陵城艺术中心,,19,14,14,3,6,59,,111,91,11,7,7,6,1.1,1.1
2025-08-18T0000,4292A,116.3525,37.4209,德州市,新河东路,,19,9,13,9,12,58,,108,88,12,8,11,9,0.8,0.8
2025-08-18T0000,2621A,99.7056,27.8317,迪庆藏族自治州,迪庆州站,,27,27,16,16,13,46,,76,58,10,9,6,7,0.6,0.5
2025-08-18T0000,3180A,99.7136,27.8094,迪庆藏族自治州,质量技术监督局,,20,10,15,8,7,62,,74,63,6,12,7,8,0.5,0.6
2025-08-18T0000,4257A,104.6092,35.5962,定西市,将台街,,33,26,23,23,15,79,,105,97,12,9,7,7,0.5,0.4
2025-08-18T0000,4309A,104.6159,35.5701,定西市,正龙路62号,,40,40,29,15,16,63,,98,90,13,6,4,4,0.2,0.2
2025-08-18T0000,1389A,113.7547,23.0494,东莞市,莞城梨川,,12,12,22,3,10,24,,69,41,10,14,7,8,0.3,0.4
2025-08-18T0000,1390A,113.7944,23.0128,东莞市,东城石井,,10,6,24,3,12,31,,64,41,7,16,2,2,0.6,0.6
2025-08-18T0000,1391A,113.7383,22.9658,东莞市,南城西平,,12,12,23,3,9,26,,67,38,14,22,6,6,0.4,0.5
2025-08-18T0000,3319A,113.7338,23.0381,东莞市,万江金泰,,11,11,21,3,10,22,,66,39,13,16,4,5,0.8,0.7
2025-08-18T0000,3626A,113.7533,23.0202,东莞市,南城元岭,,9,8,19,3,11,26,,68,42,12,16,6,6,0.5,0.6
2025-08-18T0000,3627A,113.7875,23.0457,东莞市,东城主山,,13,13,30,6,13,21,,65,38,9,13,5,5,0.2,0.3
2025-08-18T0000,1666A,118.6614,37.4309,东营市,市环保局,,21,6,6,3,3,66,,108,79,13,10,5,5,0.1,0.2
2025-08-18T0000,3036A,118.6904,37.4338,东营市,开发区管委会,,18,18,11,3,3,54,,108,80,16,10,6,5,0.2,0.2
2025-08-18T0000,3365A,118.5719,37.565,东营市,垦利区民丰路,,16,12,6,3,4,51,,93,72,14,9,10,9,0.7,0.7
2025-08-18T0000,3498A,118.5055,37.8612,东营市,河口城区,,22,7,4,3,1,68,,94,87,11,10,3,3,0.9,0.9
2025-08-18T0000,3646A,118.4978,37.4623,东营市,胜利站,,21,16,12,3,2,66,,106,79,14,13,3,3,0.4,0.4
2025-08-18T0000,3734A,118.35,37.26,东营市,理想之城,,19,9,6,3,4,59,,106,72,18,12,1,2,0.3,0.3
2025-08-18T0000,1591A,110.0023,39.8129,鄂尔多斯市,综合楼,,46,46,35,14,12,72,,115,98,19,17,10,9,0.7,0.7
2025-08-18T0000,1592A,109.9486,39.8261,鄂尔多斯市,巴音孟克林场办事处,,44,44,40,12,13,86,,121,109,13,15,5,5,0.4,0.4
2025-08-18T0000,1593A,109.7736,39.5986,鄂尔多斯市,康泽苑,,41,41,40,7,10,70,,110,96,22,15,6,6,0.3,0.5
2025-08-18T0000,1594A,109.8119,39.5989,鄂尔多斯市,华泰汽车城,,29,29,42,14,18,67,,100,91,19,18,5,5,0.7,0.7
2025-08-18T0000,1595A,109.9734,39.7884,鄂尔多斯市,奥林花园,颗粒物(PM10),60,70,43,17,17,54,,112,92,34,24,6,6,0.7,0.8
2025-08-18T0000,2436A,114.8938,30.3994,鄂州市,市政府,,29,29,30,9,11,73,,157,100,17,19,8,9,0.4,0.4
2025-08-18T0000,2437A,114.8989,30.3714,鄂州市,赵家坝,,40,40,39,12,11,59,,143,91,22,20,8,9,0.8,0.7
2025-08-18T0000,3654A,114.8094,30.4089,鄂州市,精准医疗中心,,31,31,40,19,15,47,,166,100,35,28,38,14,2.4,0.9
2025-08-18T0000,2454A,109.4978,30.2981,恩施土家族苗族自治州,湖北民院,,32,23,19,22,10,26,,75,46,17,12,6,6,0.5,0.4
2025-08-18T0000,2455A,109.4707,30.2798,恩施土家族苗族自治州,州电力总公司,,18,18,18,3,9,2,,66,32,31,12,3,3,0.1,0.2
2025-08-18T0000,3549A,109.5061,30.3772,恩施土家族苗族自治州,龙凤新区,,22,22,17,3,9,36,,89,59,6,4,4,4,0.3,0.3
2025-08-18T0000,2499A,108.3411,21.6158,防城港市,沙万,,28,28,25,14,14,46,,78,55,11,12,3,3,0.4,0.5
2025-08-18T0000,2500A,108.3514,21.7731,防城港市,防城档案局,,46,46,26,10,11,30,,67,48,16,10,3,3,0.2,0.2
2025-08-18T0000,2501A,108.3506,21.6414,防城港市,大海花园,,26,23,19,18,11,40,,86,60,10,8,4,4,0.5,0.5
2025-08-18T0000,1371A,113.1294,23.0067,佛山市,湾梁,,19,,22,13,14,18,,77,35,23,28,6,6,0.5,0.5
2025-08-18T0000,1372A,113.1083,23.0478,佛山市,华材职中,,12,9,21,8,13,27,,77,38,12,18,3,3,0.5,0.5
2025-08-18T0000,1373A,113.144,23.0453,佛山市,南海气象局,,19,14,22,13,14,22,,70,31,14,22,4,5,0.7,0.7
2025-08-18T0000,1374A,113.2881,22.8094,佛山市,顺德苏岗,,19,19,25,3,10,17,,66,27,14,22,5,6,0.5,0.6
2025-08-18T0000,1376A,112.8383,22.8678,佛山市,高明孔堂,,15,12,23,10,12,26,,94,46,17,18,6,6,0.6,0.6
2025-08-18T0000,1377A,112.8836,23.1588,佛山市,三水监测站,,19,19,23,13,11,18,,71,33,20,23,2,6,0.5,0.5
2025-08-18T0000,1378A,112.867,23.185,佛山市,三水云东海,,24,24,28,10,12,22,,82,37,22,20,1,1,0.5,0.5
2025-08-18T0000,3625A,113.2544,22.7642,佛山市,容桂街道办,,10,,17,7,14,26,,82,38,12,18,5,6,0.6,0.6
2025-08-18T0000,1280A,119.3903,26.0543,福州市,鼓山,,,,,,,,,,,,,,,,
2025-08-18T0000,1282A,119.2681,26.0504,福州市,师大,,16,11,15,3,1,50,,42,42,2,4,5,5,0.1,0.1
2025-08-18T0000,1283A,119.2984,26.1028,福州市,五四北路,,16,11,14,3,3,51,,44,44,5,6,3,4,0.2,0.2
2025-08-18T0000,1284A,119.2648,26.0768,福州市,杨桥西路,,17,14,14,3,1,53,,45,45,4,4,3,3,0.2,0.2
2025-08-18T0000,1285A,119.317,26.0746,福州市,紫阳,,16,14,16,3,2,49,,44,44,5,4,4,4,0.1,0.1
2025-08-18T0000,3048A,119.5799,26.0936,福州市,九龙,,17,12,12,3,2,53,,57,57,4,4,4,4,0.2,0.1
2025-08-18T0000,3526A,119.5189,25.9664,福州市,吴航,,15,14,12,6,5,46,,52,51,3,2,6,6,0.2,0.2
2025-08-18T0000,1755A,123.7977,41.8491,抚顺市,望花区,颗粒物(PM10),70,89,26,15,16,52,,98,72,22,14,6,6,0.6,0.6
2025-08-18T0000,1756A,123.9161,41.8822,抚顺市,顺城区,,21,12,21,3,12,67,,93,73,15,13,5,5,0.6,0.7
2025-08-18T0000,1757A,124.0436,41.8611,抚顺市,东洲区,,17,16,19,7,11,54,,93,70,10,6,7,7,0.7,0.7
2025-08-18T0000,1758A,123.9247,41.8642,抚顺市,新抚区,,,,20,,11,,,96,75,24,11,6,5,0.7,0.7
2025-08-18T0000,1759A,124.0972,41.8961,抚顺市,大伙房水库,,18,14,14,6,9,55,,86,71,16,10,8,7,0.5,0.4
2025-08-18T0000,1760A,123.7086,41.8391,抚顺市,沈抚新城,,34,34,18,19,12,32,,95,57,42,15,15,5,1.2,0.7
2025-08-18T0000,2376A,116.2127,28.0814,抚州市,桐源党溪,,29,22,25,20,11,13,,76,51,12,8,5,5,0.4,0.5
2025-08-18T0000,2377A,116.3544,27.9831,抚州市,市站,,18,18,20,8,7,36,,84,64,4,5,1,2,0.5,0.5
2025-08-18T0000,2378A,116.3565,27.963,抚州市,血防站,,16,16,20,8,9,31,,80,58,7,7,10,6,0.2,0.2
2025-08-18T0000,2379A,116.3564,28.0007,抚州市,采茶剧团,,21,21,23,11,9,28,,79,59,4,4,4,5,0.2,0.2
2025-08-18T0000,2380A,116.385,27.9647,抚州市,医学分院,,28,28,23,8,8,29,,82,58,5,3,5,5,0.4,0.4
2025-08-18T0000,2207A,121.6094,41.998,阜新市,工业园区,,37,37,21,13,5,46,,99,77,28,16,16,9,0.6,0.4
2025-08-18T0000,2208A,121.6697,42.0279,阜新市,长青街,,33,33,16,10,7,34,,91,64,28,13,17,10,0.6,0.4
2025-08-18T0000,2209A,121.6673,42.0705,阜新市,农业园区,,23,22,16,3,2,71,,88,72,14,9,26,7,0.8,0.5
2025-08-18T0000,2210A,121.6717,42.0224,阜新市,东苑,,48,48,25,8,8,34,,94,65,31,14,25,17,0.5,0.3
2025-08-18T0000,2211A,121.6506,42.0498,阜新市,玉龙新城,,29,29,19,12,9,34,,91,56,29,17,11,9,0.7,0.8
2025-08-18T0000,2301A,115.8277,32.8929,阜阳市,市监测站,,43,43,28,11,14,52,,121,72,21,17,4,4,0.5,0.5
2025-08-18T0000,2303A,115.8554,32.8605,阜阳市,开发区,,42,42,22,14,8,67,,125,87,19,10,6,6,0.3,0.3
2025-08-18T0000,2875A,115.784,32.8892,阜阳市,阜阳职业技术学院,,26,18,21,11,12,83,,126,95,9,7,5,5,0.3,0.3
2025-08-18T0000,3468A,115.7901,32.8613,阜阳市,市规划展馆,,38,38,28,17,15,60,,127,83,15,11,3,3,0.3,0.3
2025-08-18T0000,3469A,115.836,32.9183,阜阳市,枣园社区,,41,41,27,9,16,68,,128,80,13,14,2,3,0.4,0.3
2025-08-18T0000,2669A,102.9099,34.9841,甘南藏族自治州,州政府,,35,32,32,24,16,63,,97,80,3,14,4,4,0.3,0.3
2025-08-18T0000,3380A,102.8914,34.9617,甘南藏族自治州,甘肃民族师范学院,,38,38,39,17,15,46,,111,92,11,13,4,4,0.3,0.2
2025-08-18T0000,2570A,101.9603,30.0475,甘孜藏族自治州,水桥子,,32,6,15,3,7,100,,105,101,7,14,6,6,0.6,0.5
2025-08-18T0000,3065A,101.9533,29.9972,甘孜藏族自治州,州环保局,,33,10,18,3,5,103,,105,100,6,15,4,4,0.6,0.6
2025-08-18T0000,3414A,115.8347,28.932,赣江新区,桑海产业园,颗粒物(PM10),51,51,26,17,12,23,,113,64,54,21,4,5,0.4,0.3
2025-08-18T0000,2362A,114.9017,25.9149,赣州市,通天岩,,26,23,21,18,17,38,,73,45,4,4,14,15,0.7,0.7
2025-08-18T0000,2363A,114.9367,25.8664,赣州市,地委,,31,31,26,16,14,55,,99,67,8,10,6,7,0.5,0.5
2025-08-18T0000,2364A,114.9461,25.8481,赣州市,气象台,,25,25,25,12,11,50,,93,63,5,12,9,10,0.3,0.4
2025-08-18T0000,2365A,114.9322,25.8333,赣州市,市图书馆,,25,25,26,14,13,43,,97,62,8,12,5,6,0.4,0.4
2025-08-18T0000,2366A,114.8905,25.8471,赣州市,华坚鞋城,,32,31,31,22,14,38,,104,62,15,16,5,7,0.4,0.4
2025-08-18T0000,3109A,115.0093,25.8613,赣州市,赣县区卫计委,,18,,20,12,11,33,,80,54,9,8,6,6,0.3,0.3
2025-08-18T0000,2683A,106.2319,36.1417,固原市,马园,,,,,,,,,,,,,,,,
2025-08-18T0000,2684A,106.2792,36.0022,固原市,监测站,,29,29,19,6,10,19,,104,67,47,11,6,6,0.3,0.2
2025-08-18T0000,2685A,106.2375,36.0211,固原市,新区,,19,19,17,9,13,51,,99,74,17,7,7,7,0.4,0.4
2025-08-18T0000,3522A,106.2177,35.9959,固原市,原州区十五小,,21,11,15,7,10,67,,99,84,12,7,9,8,0.3,0.3
2025-08-18T0000,2543A,106.6308,30.5278,广安市,小平旧居,,,,,,,,,,,,,,,,
2025-08-18T0000,2544A,106.6303,30.4576,广安市,市委,,35,32,23,24,16,58,,100,92,16,10,9,8,0.4,0.3
2025-08-18T0000,2545A,106.6271,30.4663,广安市,友谊中学,,,,20,16,13,57,,101,90,15,11,3,3,0.7,0.6
2025-08-18T0000,2547A,106.6388,30.4551,广安市,广电花园,,35,35,31,17,14,55,,94,85,12,9,4,4,0.5,0.4
2025-08-18T0000,2902A,106.6351,30.4865,广安市,北辰小学,,30,30,29,17,15,53,,99,88,13,9,8,7,0.7,0.6
2025-08-18T0000,2523A,105.8945,32.4535,广元市,黑石坡,,26,18,16,18,10,19,,73,54,24,10,10,10,0.4,0.4
2025-08-18T0000,2524A,105.821,32.4444,广元市,老城,,18,13,12,7,7,56,,96,82,22,13,10,4,0.8,0.7
2025-08-18T0000,2526A,105.8628,32.4287,广元市,监测站,,28,28,15,15,8,42,,80,68,16,10,19,9,1.2,0.9
2025-08-18T0000,3617A,105.8047,32.4166,广元市,经开区,,20,20,17,13,10,50,,80,66,18,12,6,7,0.7,0.7
2025-08-18T0000,1345A,113.2347,23.1423,广州市,广雅中学,,20,20,27,9,13,16,,65,30,24,26,3,3,0.4,0.5
2025-08-18T0000,1346A,113.2612,23.105,广州市,市五中,,14,14,23,7,11,17,,70,34,25,26,7,6,0.3,0.3
2025-08-18T0000,1348A,113.3478,23.0916,广州市,广东商学院,,18,18,28,8,13,17,,68,31,30,27,6,5,0.5,0.5
2025-08-18T0000,1349A,113.4332,23.1047,广州市,市八十六中,,15,15,20,10,12,14,,59,27,23,28,3,4,0.4,0.3
2025-08-18T0000,1350A,113.3505,22.9483,广州市,番禺中学,,10,10,23,7,12,20,,77,35,14,18,6,7,0.4,0.5
2025-08-18T0000,1351A,113.2146,23.3916,广州市,花都师范,,24,24,25,11,11,17,,64,32,30,27,4,4,0.5,0.5
2025-08-18T0000,1352A,113.2597,23.1331,广州市,市监测站,,16,16,24,7,12,18,,67,32,22,24,6,6,0.4,0.4
2025-08-18T0000,1353A,113.5618,23.312,广州市,九龙镇镇龙,,17,17,20,9,11,23,,58,33,11,13,6,6,0.4,0.4
2025-08-18T0000,1354A,113.2765,23.1544,广州市,麓湖,,,17,17,8,7,12,,60,26,29,27,2,1,,2
2025-08-18T0000,1355A,113.443,23.3035,广州市,帽峰山森林公园,,10,6,10,3,5,31,,62,39,5,8,8,8,0.4,0.4
2025-08-18T0000,2846A,113.3221,23.1322,广州市,体育西,,19,19,25,10,13,18,,67,33,25,26,3,3,0.5,0.5
2025-08-18T0000,3298A,113.5717,23.5491,广州市,从化街口,,11,11,21,6,11,29,,62,36,9,12,6,7,0.5,0.5
2025-08-18T0000,3299A,113.3472,23.3692,广州市,白云竹料,,10,10,20,6,11,23,,57,35,16,17,3,4,0.5,0.6
2025-08-18T0000,3300A,113.2981,23.237,广州市,白云嘉禾,,14,14,20,7,10,22,,63,38,16,20,4,5,0.5,0.5
2025-08-18T0000,3301A,113.4256,23.1716,广州市,黄埔科学城,,15,15,20,8,10,22,,63,36,11,11,7,4,0.4,0.5
2025-08-18T0000,3302A,113.3942,23.0483,广州市,番禺大学城,,25,25,28,6,13,22,,73,33,17,27,9,10,0.3,0.4
2025-08-18T0000,3303A,113.4922,22.8168,广州市,南沙黄阁,,9,7,25,6,11,23,,74,36,15,18,5,5,0.4,0.4
2025-08-18T0000,3304A,113.5342,22.7896,广州市,南沙街,,9,,22,6,12,24,,79,41,13,13,5,6,0.5,0.5
2025-08-18T0000,3443A,113.2902,23.5544,广州市,花都梯面,,11,11,18,3,8,32,,61,39,8,12,6,5,0.4,0.4
2025-08-18T0000,3445A,113.7858,23.7478,广州市,从化良口,,11,8,16,3,7,35,,51,39,4,6,4,4,0.4,0.4
2025-08-18T0000,3446A,113.8051,23.2614,广州市,增城荔城,,8,8,16,3,9,25,,56,32,6,8,8,7,0.3,0.4
2025-08-18T0000,2505A,109.568,23.1478,贵港市,德智高中,,,,,,,,,,,,,,,,
2025-08-18T0000,2506A,109.6047,23.0666,贵港市,江南子站,颗粒物(PM10),56,61,36,27,22,42,,94,69,18,16,20,10,0.9,0.7
2025-08-18T0000,2508A,109.5669,23.1065,贵港市,荷城子站,,17,17,20,3,9,53,,93,71,8,10,9,8,0.5,0.5
2025-08-18T0000,3405A,109.5886,23.1172,贵港市,新世纪学校,,23,17,22,16,15,49,,94,70,8,8,1,2,0.5,0.5
2025-08-18T0000,4260A,109.5933,23.0951,贵港市,中山路155-3号,,24,24,30,14,18,55,,102,79,13,13,5,5,0.5,0.5
2025-08-18T0000,1439A,106.6899,26.5998,贵阳市,马鞍山,,19,19,12,3,0,10,,80,50,24,8,3,3,0.2,0.2
2025-08-18T0000,1441A,106.6243,26.6266,贵阳市,鉴湖路,,27,27,22,3,2,31,,74,56,12,7,3,4,0.1,0.2
2025-08-18T0000,1442A,106.7487,26.6343,贵阳市,燕子冲,,20,14,12,14,12,16,,88,58,24,12,1,3,0.1,0
2025-08-18T0000,1443A,106.6555,26.4365,贵阳市,碧云窝,,29,29,27,12,6,20,,73,50,10,7,4,5,0.1,0.2
2025-08-18T0000,1445A,106.7109,26.6027,贵阳市,红边门,,27,27,18,7,8,11,,78,48,36,17,1,2,0.4,0.2
2025-08-18T0000,1446A,106.7164,26.5699,贵阳市,新华路,,27,27,17,9,8,23,,73,50,31,17,2,12,0.2,0.1
2025-08-18T0000,1447A,106.674,26.5424,贵阳市,太慈桥,,12,9,15,7,4,12,,80,48,23,12,5,5,0.1,0.1
2025-08-18T0000,1552A,106.805,26.3003,贵阳市,桐木岭,,24,24,24,12,12,44,,58,49,2,2,2,3,0.9,0.8
2025-08-18T0000,4230A,106.6882,26.5695,贵阳市,花果园大街66号,,22,17,6,15,8,22,,76,56,31,13,4,4,0.5,0.3
2025-08-18T0000,4231A,106.6873,26.5169,贵阳市,漓江路57号,,14,7,14,7,7,17,,78,49,27,12,4,4,0.4,0.4
2025-08-18T0000,1862A,110.4144,25.3167,桂林市,电子科大尧山校区,,,,,,,,,,,,,,,,
2025-08-18T0000,1864A,110.3089,25.2708,桂林市,龙隐路小学,,20,19,18,14,9,31,,88,52,9,7,6,6,0.2,0.3
2025-08-18T0000,1865A,110.2869,25.2178,桂林市,八中,,16,16,17,6,6,43,,99,60,6,8,8,7,0.7,0.7
2025-08-18T0000,3531A,110.296,25.1253,桂林市,旅游学院,,14,7,7,7,5,42,,78,58,7,4,4,4,0.3,0.3
2025-08-18T0000,4222A,110.1835,25.2444,桂林市,环湖路276号,,15,14,20,3,12,48,,105,74,2,5,5,13,0.2,0.2
2025-08-18T0000,4301A,110.2803,25.2773,桂林市,信义路13号,,22,22,18,8,10,38,,102,58,12,9,7,6,0.6,0.7
2025-08-18T0000,2674A,100.2561,34.4714,果洛藏族自治州,玛沁县大武镇,,29,28,28,20,13,60,,114,90,3,6,19,14,0.6,0.5
2025-08-18T0000,1129A,126.5422,45.755,哈尔滨市,岭北,,22,18,10,14,5,69,,78,75,24,11,12,10,0.4,0.4
2025-08-18T0000,1130A,126.561,45.8167,哈尔滨市,松北商大,,33,33,16,3,2,11,,57,37,32,14,5,5,0.5,0.4
2025-08-18T0000,1131A,126.979,45.5419,哈尔滨市,阿城会宁,,34,34,21,12,7,10,,66,36,30,16,7,7,0.5,0.6
2025-08-18T0000,1132A,126.599,45.7222,哈尔滨市,南岗学府路,,48,48,23,13,6,17,,65,43,46,13,13,6,0.8,0.6
2025-08-18T0000,1133A,126.689,45.7733,哈尔滨市,太平宏伟公园,颗粒物(PM10),54,58,20,3,4,6,,63,37,52,13,11,7,0.6,0.5
2025-08-18T0000,1134A,126.635,45.7667,哈尔滨市,道外承德广场,颗粒物(PM10),51,52,26,9,7,39,,62,48,24,10,10,8,0.6,0.4
2025-08-18T0000,1135A,126.685,45.7319,哈尔滨市,香坊红旗大街,颗粒物(PM10),53,56,23,12,6,14,,64,41,46,14,13,9,0.8,0.5
2025-08-18T0000,1136A,126.6411,45.7258,哈尔滨市,动力和平路,,38,38,22,6,1,16,,69,48,47,12,8,6,0.6,0.4
2025-08-18T0000,1137A,126.593,45.7478,哈尔滨市,道里建国路,,26,22,15,3,4,39,,70,54,29,11,11,7,2.6,0.7
2025-08-18T0000,1138A,126.615,45.61,哈尔滨市,平房东轻厂,,20,20,22,3,7,32,,62,45,29,19,7,7,0.5,0.5
2025-08-18T0000,1139A,126.595,45.9855,哈尔滨市,呼兰师专,,29,29,17,7,3,41,,60,41,24,13,8,8,0.4,0.3
2025-08-18T0000,1140A,126.6206,45.6842,哈尔滨市,省农科院,颗粒物(PM10),61,71,33,3,1,1,,63,29,57,18,11,10,0.6,0.4
2025-08-18T0000,2688A,93.5128,42.8172,哈密市,地区监测站,颗粒物(PM10),75,100,45,34,18,26,,122,89,73,18,4,5,0.7,0.2
2025-08-18T0000,2689A,93.4961,42.8328,哈密市,哈密师范学校,,,,48,,16,,,120,,,16,,5,,0.3
2025-08-18T0000,2671A,100.9048,36.9639,海北藏族自治州,海晏县西海镇,颗粒物(PM10),52,54,34,22,21,122,,138,134,3,5,12,8,0.7,0.5
2025-08-18T0000,3867A,102.0738,36.5056,海东市,平安区公安北苑,颗粒物(PM10),57,63,40,37,22,94,,129,117,6,6,29,14,0.7,0.6
2025-08-18T0000,1409A,110.576,19.9507,海口市,东寨港,,10,,12,6,7,30,,39,34,2,2,7,7,0.3,0.3
2025-08-18T0000,1410A,110.3232,20.0574,海口市,海南大学,,12,6,19,3,7,36,,43,40,1,2,2,2,0.3,0.3
2025-08-18T0000,1411A,110.283,20.0053,海口市,秀英海南医院,,10,8,18,3,5,32,,42,38,3,3,5,5,0.2,0.2
2025-08-18T0000,1412A,110.338,19.9969,海口市,海南师范大学,,10,8,19,3,5,30,,43,37,2,3,4,4,0.4,0.3
2025-08-18T0000,1413A,110.33,20.0356,海口市,龙华路环保局宿舍,,11,9,20,3,7,34,,43,40,3,4,5,5,0.2,0.2
2025-08-18T0000,3539A,110.5111,19.9736,海口市,桂林洋子站,,10,6,17,3,5,29,,42,36,2,3,4,4,0.1,0.2
2025-08-18T0000,2673A,100.6188,36.2866,海南藏族自治州,共和县恰卜恰镇,,35,35,33,18,15,112,,135,129,3,10,15,14,0.7,0.6
2025-08-18T0000,2676A,97.3731,37.3753,海西蒙古族藏族自治州,德令哈市,,34,26,40,10,18,107,,107,107,1,3,13,13,0.3,0.4
2025-08-18T0000,1048A,114.5302,36.6116,邯郸市,东污水处理厂,,33,28,24,23,20,81,,104,88,9,11,7,6,0.3,0.3
2025-08-18T0000,1049A,114.4918,36.5713,邯郸市,矿院,,38,38,19,17,6,53,,108,90,36,11,3,4,0.3,0.3
2025-08-18T0000,1050A,114.484,36.6133,邯郸市,丛台公园,,36,36,20,24,17,82,,117,108,15,11,4,5,0.3,0.3
2025-08-18T0000,3458A,114.7895,36.5593,邯郸市,香泉濮院小区,,44,44,27,3,1,64,,107,98,14,7,2,2,0.6,0.5
2025-08-18T0000,3579A,114.50634,36.77178,邯郸市,永年区实验高中,,44,44,39,25,25,69,,116,90,18,17,3,4,0.3,0.3
2025-08-18T0000,3580A,114.20016,36.44293,邯郸市,峰峰矿区临水派出所,颗粒物(PM10),51,51,38,3,3,95,,142,123,2,2,1,5,0,0.4
2025-08-18T0000,2634A,106.9893,33.1842,汉中市,汉川机床厂子校,,16,16,13,7,6,24,,77,57,16,9,3,3,0.5,0.5
2025-08-18T0000,2635A,107.0154,33.0706,汉中市,市监测站,,18,18,18,11,6,37,,78,62,10,8,6,6,0.6,0.5
2025-08-18T0000,2636A,107.0089,33.1138,汉中市,鑫源开发区,,18,13,13,12,6,26,,74,54,13,8,7,6,0.6,0.4
2025-08-18T0000,2637A,107.007,33.0323,汉中市,南郑大河坎水厂,,19,19,18,9,6,25,,74,53,9,8,4,5,0.4,0.4
2025-08-18T0000,1223A,120.2072,30.2111,杭州市,滨江,,23,23,25,13,10,57,,104,86,10,13,7,7,0.4,0.4
2025-08-18T0000,1224A,120.0633,30.2747,杭州市,西溪,,32,30,20,22,15,42,,113,92,17,12,12,12,0.4,0.3
2025-08-18T0000,1226A,120.3417,30.3150,杭州市,下沙,,27,27,21,15,10,42,,116,85,22,16,7,6,0.3,0.2
2025-08-18T0000,1227A,120.1269,30.2456,杭州市,卧龙桥,,31,31,22,16,13,25,,110,86,18,9,8,8,0.5,0.4
2025-08-18T0000,1228A,120.1903,30.2692,杭州市,浙江农大,颗粒物(PM10),53,55,25,23,14,28,,103,74,28,13,6,6,0.5,0.4
2025-08-18T0000,1230A,120.1197,30.3119,杭州市,和睦小学,,31,31,22,17,13,43,,112,88,19,11,7,6,0.4,0.4
2025-08-18T0000,1231A,120.3019,30.4183,杭州市,临平镇,,28,28,30,11,12,46,,123,91,9,8,6,6,0.3,0.2
2025-08-18T0000,1232A,120.2753,30.1839,杭州市,城厢镇,,30,30,34,15,16,60,,108,90,5,10,7,8,0.4,0.3
2025-08-18T0000,1233A,120.0883,30.1808,杭州市,云栖,,23,22,21,16,10,40,,112,91,21,16,9,10,0.6,0.6
2025-08-18T0000,3557A,119.9464,30.0494,杭州市,镇二中,,35,29,24,24,16,47,,86,72,14,19,4,4,0.4,0.3
2025-08-18T0000,3558A,119.7183,30.2367,杭州市,市府大楼,,33,33,24,20,15,68,,109,98,14,12,9,8,0.2,0.3
2025-08-18T0000,3656A,120.1556,30.2864,杭州市,消防大队,,32,32,24,18,14,39,,113,87,23,12,8,7,0.5,0.4
2025-08-18T0000,1270A,117.1959,31.7848,合肥市,明珠广场,,29,29,28,12,14,83,,125,98,20,16,10,7,0.5,0.6
2025-08-18T0000,1271A,117.3072,31.8764,合肥市,三里街,,23,22,32,14,15,73,,125,98,21,19,8,8,0.5,0.5
2025-08-18T0000,1272A,117.2588,31.8707,合肥市,琥珀山庄,,31,31,37,20,20,79,,139,108,21,15,12,10,0.5,0.5
2025-08-18T0000,1273A,117.1604,31.9052,合肥市,董铺水库,,29,29,32,12,13,55,,112,77,16,12,5,5,0.3,0.3
2025-08-18T0000,1274A,117.25,31.8571,合肥市,长江中路,,29,29,34,11,14,81,,133,100,19,16,14,8,0.4,0.5
2025-08-18T0000,1275A,117.266,31.9436,合肥市,庐阳区,,34,34,39,14,16,70,,144,102,28,25,7,8,0.5,0.5
2025-08-18T0000,1276A,117.3453,31.8616,合肥市,瑶海区,,25,24,39,17,15,75,,136,102,22,24,6,7,0.6,0.6
2025-08-18T0000,1277A,117.3027,31.7964,合肥市,包河区,,39,39,33,14,15,42,,130,81,60,21,9,7,0.5,0.6
2025-08-18T0000,1278A,117.2776,31.7385,合肥市,滨湖新区,,29,29,31,19,22,80,,125,101,10,10,14,9,0.4,0.5
2025-08-18T0000,1279A,117.1318,31.8403,合肥市,高新区,,31,31,28,16,15,77,,134,89,28,18,8,6,0.5,0.5
2025-08-18T0000,3464A,117.3803,31.9147,合肥市,高教基地,,26,24,30,18,16,63,,130,95,22,16,5,6,0.7,0.7
2025-08-18T0000,3614A,79.924,37.0877,和田地区,地区环保局,颗粒物(PM10),500,1233,1171,391,373,55,,91,71,20,12,3,3,0.7,0.5
2025-08-18T0000,3615A,79.9131,37.113,和田地区,市环保局,颗粒物(PM10),500,1065,1065,355,302,30,,84,61,40,19,3,2,0.6,0.2
2025-08-18T0000,2516A,108.2011,24.715,河池市,东仁乐园,,,,,,,,,,,,,,,,
2025-08-18T0000,2517A,108.0497,24.6947,河池市,市环保站,,22,22,20,8,7,12,,67,38,17,10,4,5,0.6,0.5
2025-08-18T0000,2518A,108.0983,24.6989,河池市,市疾控中心,,22,22,20,10,8,8,,60,32,20,14,6,6,0.6,0.6
2025-08-18T0000,1696A,114.6778,23.7569,河源市,源西,,19,19,20,3,9,12,,48,27,9,9,4,5,0.6,0.7
2025-08-18T0000,1697A,114.6944,23.7586,河源市,东埔,,13,13,20,9,10,27,,54,36,7,12,4,5,0.4,0.5
2025-08-18T0000,1698A,114.6892,23.7233,河源市,老城,,16,16,19,8,8,18,,56,37,11,8,4,5,0.5,0.6
2025-08-18T0000,1718A,115.4208,35.2464,菏泽市,气象局,,44,44,34,29,22,99,,137,119,12,9,4,3,0.5,0.4
2025-08-18T0000,3374A,115.5564,35.0891,菏泽市,定陶老年大学,,36,36,35,19,16,77,,140,108,12,11,5,6,0.4,0.4
2025-08-18T0000,4184A,115.4797,35.24401,菏泽市,永昌路1号,颗粒物(PM10),51,51,34,34,25,84,,134,110,19,13,7,7,0.3,0.2
2025-08-18T0000,4193A,115.4715,35.2800,菏泽市,长城路999号,,49,48,32,34,18,87,,135,114,16,11,6,6,0.5,0.4
2025-08-18T0000,2514A,111.5264,24.4172,贺州市,环保小区,,40,40,25,22,12,12,,70,27,24,13,17,12,1.1,0.9
2025-08-18T0000,2515A,111.5608,24.4078,贺州市,政协大楼,,,40,18,,20,4,,80,28,25,13,9,8,0.8,0.7
2025-08-18T0000,3534A,111.4744,24.4553,贺州市,西湾,,33,33,20,21,13,10,,63,24,10,9,10,10,0.7,0.7
2025-08-18T0000,2385A,114.17,35.9019,鹤壁市,市监测站,细颗粒物(PM2.5),52,37,33,36,26,82,,130,,11,13,4,7,0.3,0.8
2025-08-18T0000,2386A,114.2956,35.7511,鹤壁市,市交警支队,,35,25,27,24,24,75,,106,86,17,20,6,9,0.6,0.7
2025-08-18T0000,2387A,114.2878,35.7306,鹤壁市,迎宾馆,,42,32,33,29,21,81,,110,94,8,10,3,4,0.6,0.8
2025-08-18T0000,3474A,114.2617,35.6822,鹤壁市,大新区,,30,30,29,18,11,72,,112,97,5,6,7,9,0.5,0.7
2025-08-18T0000,3596A,114.1572,35.9603,鹤壁市,南山宾馆,,43,43,36,20,18,74,,132,108,12,15,4,6,0.5,0.9
2025-08-18T0000,2244A,130.2537,47.3416,鹤岗市,哈啤分公司,,24,24,22,14,8,27,,60,38,9,4,11,11,0.6,0.5
2025-08-18T0000,2245A,130.2684,47.3086,鹤岗市,斯达机电,,37,37,26,10,10,19,,62,41,11,6,12,12,0.0,0.3
2025-08-18T0000,2246A,130.3114,47.3388,鹤岗市,东山纸板厂,颗粒物(PM10),57,64,35,21,16,8,,67,30,23,10,15,13,0.6,0.4
2025-08-18T0000,2247A,130.1097,47.3382,鹤岗市,五号水库,,12,12,10,3,6,32,,59,39,9,7,6,7,0.2,0.2
2025-08-18T0000,2263A,127.4833,50.2524,黑河市,交通局,,24,24,19,15,11,24,,55,33,8,10,5,5,0.0,0
2025-08-18T0000,2264A,127.5144,50.2341,黑河市,环保局,,,,22,,9,,,60,35,,10,,5,,0
2025-08-18T0000,2265A,127.5291,50.2472,黑河市,大黑河岛,,,,,,,25,,52,34,2,4,21,20,,
2025-08-18T0000,1074A,115.6838,37.7541,衡水市,电机北厂,,30,30,24,14,16,69,,109,96,13,9,3,3,0.5,0.4
2025-08-18T0000,1075A,115.6303,37.7316,衡水市,市监测站,,27,27,22,7,11,83,,109,99,6,5,8,7,0.6,0.5
2025-08-18T0000,3188A,115.6683,37.7217,衡水市,市城管局,,24,22,24,14,15,76,,109,98,10,7,3,3,0.5,0.4
2025-08-18T0000,3459A,115.5989,37.5491,衡水市,地表水厂,,32,32,30,3,7,44,,111,82,20,8,9,8,0.3,0.2
2025-08-18T0000,2456A,112.5003,26.9167,衡阳市,原169医院,,39,39,32,23,16,30,,107,59,3,3,3,4,0.6,0.6
2025-08-18T0000,2457A,112.6194,26.9258,衡阳市,衡阳化工总厂,,38,36,29,26,18,28,,90,58,16,10,4,5,0.9,0.7
2025-08-18T0000,2458A,112.6211,26.8956,衡阳市,珠晖区环保局,,24,24,26,16,14,39,,88,61,13,10,7,8,0.6,0.6
2025-08-18T0000,2459A,112.6197,26.8733,衡阳市,市委党校,,,,18,17,13,39,,82,61,14,8,12,11,0.5,0.3
2025-08-18T0000,2460A,112.6006,26.8919,衡阳市,市监测站,,23,20,26,16,15,45,,78,63,11,10,5,6,0.5,0.5
2025-08-18T0000,2461A,112.5664,26.9056,衡阳市,真空机电公司,,25,20,26,17,17,45,,91,67,10,7,3,8,0.7,0.7
2025-08-18T0000,3399A,112.6703,26.882,衡阳市,师范学院,,26,20,26,18,15,39,,80,58,8,7,8,9,0.8,0.8
2025-08-18T0000,2608A,103.3772,23.3993,红河哈尼族彝族自治州,污水处理厂,,36,36,24,19,17,21,,54,39,12,9,8,8,0.3,0.3
2025-08-18T0000,2609A,103.3861,23.35,红河哈尼族彝族自治州,监测站,,43,43,27,22,13,19,,56,36,10,6,8,9,0.1,0.1
2025-08-18T0000,3038A,103.3758,23.368,红河哈尼族彝族自治州,州图书馆,,34,34,13,20,16,26,,57,42,9,6,2,2,0.3,0.2
2025-08-18T0000,1090A,111.6507,40.7517,呼和浩特市,呼市一监,,32,31,28,22,19,20,,97,44,39,21,3,3,0.5,0.6
2025-08-18T0000,1091A,111.6572,40.8033,呼和浩特市,小召,,36,36,27,23,19,32,,105,58,52,29,9,10,0.8,0.8
2025-08-18T0000,1094A,111.7516,40.8369,呼和浩特市,如意水处理厂,,27,27,35,13,17,45,,122,48,32,37,5,6,0.4,0.6
2025-08-18T0000,1095A,111.7276,40.8062,呼和浩特市,二十九中,,35,35,30,14,17,57,,126,68,26,24,6,6,0.7,0.8
2025-08-18T0000,1096A,111.5512,40.7866,呼和浩特市,工大金川校区,,35,35,36,14,16,16,,109,36,51,32,4,6,0.6,0.7
2025-08-18T0000,1097A,111.717,40.7612,呼和浩特市,化肥厂生活区,,28,28,35,16,17,35,,122,73,44,22,5,6,0.5,1
2025-08-18T0000,3698A,111.5968,40.8178,呼和浩特市,红旗小学,,27,27,32,13,18,54,,122,64,36,30,4,5,0.4,0.5
2025-08-18T0000,3699A,111.6518,40.8389,呼和浩特市,海东办,,36,36,36,14,18,12,,129,61,64,35,5,6,0.6,0.6
2025-08-18T0000,2192A,119.7594,49.2261,呼伦贝尔市,区环保局,,20,20,29,14,15,39,,61,39,6,14,5,5,0.4,0.2
2025-08-18T0000,3061A,119.7512,49.1577,呼伦贝尔市,国华电力东,,20,20,16,10,9,40,,69,50,5,7,7,7,0.6,0.6
2025-08-18T0000,1250A,120.0751,30.8669,湖州市,城西水厂,,33,33,28,20,17,57,,133,102,14,8,8,8,0.4,0.3
2025-08-18T0000,2873A,120.0830,30.8929,湖州市,仁皇山新区,,31,31,29,14,17,51,,126,96,15,11,5,5,0.4,0.4
2025-08-18T0000,2907A,120.1844,30.8596,湖州市,吴兴区站,,27,27,29,11,16,40,,123,90,17,10,8,7,0.6,0.5
2025-08-18T0000,3562A,120.4148,30.8538,湖州市,南浔区站,,21,21,27,10,18,34,,113,82,16,8,8,6,0.6,0.5
2025-08-18T0000,1607A,120.9049,40.7211,葫芦岛市,龙港区,,35,26,37,18,17,8,,113,72,70,21,7,25,0.6,0.6
2025-08-18T0000,1608A,120.8392,40.7514,葫芦岛市,化工街,,31,31,23,14,11,31,,112,71,59,22,7,8,0.4,0.5
2025-08-18T0000,1609A,120.8341,40.7073,葫芦岛市,新区,,38,38,28,23,15,16,,116,78,74,19,6,12,0.7,0.7
2025-08-18T0000,1610A,120.8695,40.7677,葫芦岛市,东城区,,33,33,26,18,17,59,,116,67,32,21,6,7,0.6,0.7
2025-08-18T0000,2482A,109.5981,27.5721,怀化市,林科所,,34,34,26,3,5,17,,67,33,9,6,4,4,0.7,0.6
2025-08-18T0000,2483A,109.9453,27.5444,怀化市,河西地税局,,34,34,34,13,13,0,,65,20,17,11,3,3,0.2,0.2
2025-08-18T0000,2484A,109.9781,27.5342,怀化市,市四医院,,37,37,38,19,19,15,,62,,17,15,4,5,0.5,0.4
2025-08-18T0000,2485A,109.9972,27.5578,怀化市,监测楼,,36,36,31,20,13,12,,70,38,18,10,4,5,0.3,0.3
2025-08-18T0000,2486A,110.0394,27.583,怀化市,市委党校,,38,38,30,15,15,0,,60,27,22,11,7,9,0.2,0.2
2025-08-18T0000,1210A,119.036,33.5981,淮安市,钵池山,,35,29,29,20,20,110,,146,123,13,13,10,10,0.6,0.6
2025-08-18T0000,1211A,119.007,33.575,淮安市,北京南路,,33,31,34,18,19,103,,135,122,16,13,8,8,0.7,0.7
2025-08-18T0000,1212A,118.989,33.6067,淮安市,市监测站,,35,29,33,22,22,111,,138,128,16,13,11,10,0.5,0.5
2025-08-18T0000,1213A,119.135,33.5039,淮安市,楚州区监测站,,39,39,42,22,23,75,,142,106,24,21,8,9,0.3,0.4
2025-08-18T0000,3426A,118.8755,33.2894,淮安市,新华书店,,29,29,30,15,22,80,,132,116,18,12,6,6,0.6,0.5
2025-08-18T0000,4206A,119.0288,33.6319,淮安市,承德北路606号,,39,39,39,16,21,93,,139,109,18,14,6,7,0.3,0.3
2025-08-18T0000,2282A,116.8004,33.975,淮北市,监测站,,40,32,32,28,20,112,,168,146,13,14,8,8,0.6,0.6
2025-08-18T0000,2283A,116.8091,33.9007,淮北市,烈山区政府,颗粒物(PM10),57,63,49,22,14,104,,168,138,10,13,8,7,0.5,0.5
2025-08-18T0000,3330A,116.8873,33.9836,淮北市,杜集区检察院,,43,41,32,30,19,115,,152,137,8,11,8,8,0.6,0.6
2025-08-18T0000,4017A,116.7923,33.9535,淮北市,市博物馆,,42,33,30,29,19,107,,163,146,12,13,10,9,0.5,0.5
2025-08-18T0000,2277A,116.8305,32.7727,淮南市,潘集区政府,,34,34,31,11,16,45,,131,73,21,13,2,3,0.3,0.3
2025-08-18T0000,2279A,116.8569,32.5951,淮南市,谢家集区政府,,24,24,31,9,11,60,,112,77,26,12,7,8,0.2,0.2
2025-08-18T0000,2280A,116.8281,32.633,淮南市,八公山区政府,,30,21,29,13,12,94,,111,86,9,10,5,6,0.3,0.3
2025-08-18T0000,2281A,116.6325,32.6201,淮南市,焦岗湖风景区管理处,,,,,,,,,,,,,,,,
2025-08-18T0000,2894A,117.0566,32.6531,淮南市,经济技术开发区消防队,,29,29,26,3,8,51,,117,76,25,13,9,9,0.3,0.2
2025-08-18T0000,3329A,117.0108,32.5893,淮南市,山南新区,,26,14,23,6,11,83,,124,87,10,8,4,5,0.5,0.5
2025-08-18T0000,4209A,117.0031,32.6445,淮南市,国庆中路369号,,33,24,29,17,31,105,,132,95,8,10,4,5,0.4,0.4
2025-08-18T0000,2446A,114.9028,30.4742,黄冈市,职工中心,,26,26,29,17,20,76,,178,109,16,13,13,10,0.6,0.4
2025-08-18T0000,2929A,114.8858,30.4519,黄冈市,红卫路,,27,27,32,16,20,73,,171,98,19,18,12,12,0.3,0.3
2025-08-18T0000,3398A,114.9136,30.4445,黄冈市,市林业局,,34,34,36,18,17,71,,176,102,22,17,12,11,0.4,0.4
2025-08-18T0000,2672A,102.0199,35.5102,黄南藏族自治州,同仁县隆务镇,,34,34,31,17,14,87,,124,109,4,6,10,10,0.4,0.3
2025-08-18T0000,2295A,118.2903,29.6963,黄山市,延安路89号,,19,19,22,9,8,19,,83,52,10,7,4,4,0.3,0.3
2025-08-18T0000,2297A,118.1371,30.2756,黄山市,黄山区政府5号楼,,27,27,18,18,12,19,,74,40,6,4,4,4,0.6,0.5
2025-08-18T0000,4210A,118.3354,29.7203,黄山市,滨江东路7-2号,,26,26,22,3,6,30,,75,49,8,8,2,2,0.3,0.3
2025-08-18T0000,2423A,115.0601,30.2313,黄石市,沈家营,,43,43,44,16,14,24,,130,63,43,19,8,8,0.6,0.5
2025-08-18T0000,2426A,114.8988,30.2019,黄石市,铁山,,30,30,26,7,9,64,,108,82,7,11,6,8,0.6,0.6
2025-08-18T0000,2427A,115.0307,30.2092,黄石市,团城山,,29,29,32,11,8,57,,128,88,22,14,14,12,0.7,0.6
2025-08-18T0000,3149A,115.0235,30.1578,黄石市,笔架山北路,,27,27,26,10,8,81,,104,86,8,9,11,9,0.7,0.5
2025-08-18T0000,4185A,115.0780,30.21118,黄石市,磁湖东路29号,颗粒物(PM10),54,58,47,15,16,32,,118,77,47,23,15,13,0.9,0.7
2025-08-18T0000,1392A,114.4183,23.0528,惠州市,河南岸金山湖子站,,9,7,17,3,5,26,,54,34,8,10,6,7,0.4,0.5
2025-08-18T0000,1393A,114.4053,23.0822,惠州市,下埔横江三路子站,,12,12,19,8,10,32,,60,40,4,8,4,7,0.2,0.3
2025-08-18T0000,1394A,114.4103,23.1142,惠州市,江北云山西路子站,,16,16,20,3,9,25,,62,38,8,11,15,11,0.5,0.5
2025-08-18T0000,1395A,114.4645,22.7833,惠州市,惠阳区承修路船湖子站,,11,6,14,3,7,35,,54,38,5,6,7,7,0.5,0.5
2025-08-18T0000,1396A,114.5317,22.7422,惠州市,大亚湾管委会子站,,10,9,15,3,7,31,,57,36,11,12,8,8,0.5,0.5
2025-08-18T0000,3314A,114.4338,22.8134,惠州市,惠阳秋长,,12,,13,3,9,38,,62,43,5,7,6,8,0.4,0.4
2025-08-18T0000,3452A,114.6517,22.775,惠州市,大亚湾霞涌,,13,6,11,3,6,40,,62,45,7,8,5,6,0.6,0.7
2025-08-18T0000,2240A,130.9762,45.3001,鸡西市,环保局,,30,30,15,14,6,18,,63,36,22,9,7,7,0.3,0.3
2025-08-18T0000,2243A,130.9429,45.3039,鸡西市,第一中学,,28,28,15,10,6,11,,61,43,27,9,11,11,0.5,0.4
2025-08-18T0000,3707A,131.0207,45.3073,鸡西市,欧美日汽修厂,,38,38,22,3,15,3,,63,38,30,14,9,9,0.6,0.6
2025-08-18T0000,3709A,130.9967,45.3106,鸡西市,市政设施管理处,,38,38,16,15,6,1,,62,32,38,15,6,6,0.6,0.4
2025-08-18T0000,2367A,114.9754,27.0803,吉安市,红声器材厂,,28,28,24,10,11,32,,71,48,7,9,10,10,0.5,0.5
2025-08-18T0000,2368A,114.9658,27.0999,吉安市,市森林工业局,,29,29,24,12,10,34,,72,43,6,11,9,9,0.5,0.4
2025-08-18T0000,2369A,114.99,27.1312,吉安市,市环境监测站,,23,23,24,7,9,30,,81,46,4,8,14,13,0.5,0.5
2025-08-18T0000,2370A,115.0093,27.0968,吉安市,青原区法院,,17,17,21,6,10,22,,71,38,12,11,8,9,0.5,0.5
2025-08-18T0000,1772A,126.54,43.8622,吉林市,哈达湾,,27,27,18,7,9,23,,84,65,28,12,7,10,0.4,0.4
2025-08-18T0000,1773A,126.5844,43.8358,吉林市,东局子,,19,19,14,8,5,26,,71,42,12,10,6,6,0.6,0.6
2025-08-18T0000,1774A,126.5052,43.8245,吉林市,电力学院,,28,28,19,12,12,6,,80,45,25,12,6,12,0.6,0.7
2025-08-18T0000,1775A,126.6133,43.8972,吉林市,江北,,19,19,15,3,6,27,,69,50,6,6,4,4,0.7,0.7
2025-08-18T0000,1776A,126.555,43.8306,吉林市,江南公园,,21,21,17,3,10,29,,77,47,11,15,2,5,0.4,0.7
2025-08-18T0000,1778A,126.7061,43.7133,吉林市,丰满,,15,8,9,3,8,45,,94,58,5,6,5,5,0.5,0.6
2025-08-18T0000,2868A,126.4739,43.953,吉林市,九站,,20,17,18,14,19,19,,71,49,20,19,3,11,0.3,0.4
2025-08-18T0000,1299A,116.9862,36.6114,济南市,科干所,,22,17,15,15,16,44,,106,86,18,12,5,5,0.6,0.5
2025-08-18T0000,1300A,116.9376,36.665,济南市,农科所,,25,24,15,17,12,37,,101,81,20,15,7,7,0.4,0.3
2025-08-18T0000,1301A,117.1265,36.6734,济南市,开发区,,32,27,14,22,13,58,,115,96,16,13,7,7,0.6,0.5
2025-08-18T0000,1303A,117.0624,36.6868,济南市,省种子仓库,,44,44,21,19,11,46,,112,96,41,15,4,4,0.7,0.6
2025-08-18T0000,1304A,116.9489,36.6447,济南市,机床二厂,,34,34,19,20,11,58,,109,93,21,15,8,8,0.4,0.4
2025-08-18T0000,1305A,117.0495,36.663,济南市,市监测站,,32,29,18,22,13,55,,106,89,28,15,9,9,0.7,0.7
2025-08-18T0000,1306A,116.7675,36.5484,济南市,长清党校,,32,32,16,22,14,44,,94,82,25,14,5,5,0.6,0.5
2025-08-18T0000,1616A,117.6795,36.229,济南市,技术学院,,20,,15,14,12,52,,111,82,17,9,7,8,0.7,0.7
2025-08-18T0000,1961A,117.532,36.6868,济南市,东山小学,,27,27,15,17,10,51,,110,83,24,14,6,6,0.3,0.3
2025-08-18T0000,3059A,117.7161,36.2049,济南市,泰兴公司,,17,17,19,7,11,44,,102,69,20,11,10,12,0.5,0.4
2025-08-18T0000,3064A,117.6867,36.2171,济南市,莱芜战役纪念馆,,14,14,19,6,13,39,,88,65,20,11,7,7,1.1,1.1
2025-08-18T0000,3494A,117.1673,36.9782,济南市,济阳区政府,,32,32,17,10,9,58,,102,86,12,10,5,6,0.3,0.3
2025-08-18T0000,3495A,117.1171,36.63,济南市,锦屏中学,,24,24,14,15,9,45,,105,78,12,11,7,7,0.7,0.6
2025-08-18T0000,3682A,116.9814,36.6819,济南市,济南四建,,36,36,17,22,13,49,,113,95,32,12,4,5,0.6,0.5
2025-08-18T0000,1653A,116.6251,35.4302,济宁市,火炬城,,22,22,32,9,13,62,,114,84,9,9,3,5,0.5,0.6
2025-08-18T0000,1655A,116.5491,35.4042,济宁市,电化厂,,32,32,35,14,15,70,,130,97,12,11,1,3,0.9,0.8
2025-08-18T0000,3500A,116.5814,35.3707,济宁市,北湖一中,,26,26,31,11,14,62,,125,93,9,6,3,5,0.3,0.3
2025-08-18T0000,3501A,116.8249,35.5593,济宁市,服务中心,,19,14,32,3,12,58,,112,70,8,12,2,2,0.5,0.6
2025-08-18T0000,3678A,116.5907,35.4054,济宁市,市第七中学,,25,25,32,3,8,62,,106,86,12,8,6,6,0.4,0.4
2025-08-18T0000,2255A,130.2751,46.8028,佳木斯市,佳纺,,28,28,18,10,5,4,,49,25,28,13,9,9,0.4,0.3
2025-08-18T0000,2256A,130.3995,46.8307,佳木斯市,发电厂,,14,14,17,6,6,22,,52,41,16,9,6,6,0.5,0.4
2025-08-18T0000,2257A,130.3258,46.7975,佳木斯市,环保局,,29,29,14,12,5,0,,54,27,37,13,8,8,0.6,0.5
2025-08-18T0000,2258A,130.3648,46.8032,佳木斯市,十一中,,31,31,13,16,6,7,,57,36,35,11,8,8,0.6,0.5
2025-08-18T0000,2259A,130.3794,46.7588,佳木斯市,四丰,,,14,8,,,4,,6,5,35,16,,36,0.4,0.4
2025-08-18T0000,1252A,120.7436,30.778,嘉兴市,清河小学,,15,15,25,7,13,37,,104,72,17,10,7,7,0.7,0.6
2025-08-18T0000,1253A,120.726,30.7478,嘉兴市,嘉兴学院,,21,21,25,8,14,33,,104,71,14,7,6,6,0.5,0.4
2025-08-18T0000,2872A,120.7846,30.7525,嘉兴市,南湖区残联,,14,14,25,8,15,34,,108,70,19,10,8,7,0.6,0.5
2025-08-18T0000,3407A,120.6916,30.7739,嘉兴市,秀洲住建,,16,16,24,7,14,39,,111,79,16,9,7,7,0.6,0.5
2025-08-18T0000,1945A,98.2908,39.7711,嘉峪关市,气象局,,48,48,55,19,17,75,,117,95,32,17,9,12,0.6,0.6
2025-08-18T0000,2884A,98.2672,39.7978,嘉峪关市,酒钢宾馆,,,48,57,9,20,,,136,,17,15,13,24,1.5,1.1
2025-08-18T0000,3248A,98.2643,39.7724,嘉峪关市,雄关区,颗粒物(PM10),66,81,51,34,19,66,,113,92,39,24,17,13,0.5,0.5
2025-08-18T0000,1383A,113.1064,22.6058,江门市,北街,,9,8,22,3,11,22,,84,37,18,16,3,4,0.4,0.4
2025-08-18T0000,1384A,113.0731,22.5835,江门市,西区,,8,,23,3,11,24,,82,37,16,16,6,7,0.3,0.4
2025-08-18T0000,1385A,113.0219,22.5311,江门市,圭峰西,,9,9,22,6,11,26,,80,34,14,15,2,2,0.4,0.5
2025-08-18T0000,1386A,113.0828,22.5947,江门市,东湖,,8,7,22,3,11,20,,67,28,15,15,7,8,0.3,0.4
2025-08-18T0000,3311A,113.1075,22.5647,江门市,江海富民,,22,22,36,7,12,26,,79,38,13,14,8,9,0.2,0.3
2025-08-18T0000,3449A,113.05,22.4667,江门市,新会银湖,,10,10,19,7,12,17,,50,24,13,15,2,2,0.4,0.4
2025-08-18T0000,1830A,113.1992,35.2590,焦作市,影视城,,,,28,,16,,,,,,12,,8,,0.7
2025-08-18T0000,3335A,113.3137,35.2641,焦作市,马村街道办,,34,34,31,18,15,76,,126,103,10,10,3,6,0.5,0.6
2025-08-18T0000,3336A,113.2465,35.2373,焦作市,焦作技师学院,,36,36,33,9,9,76,,126,106,14,15,5,7,0.7,0.7
2025-08-18T0000,3477A,113.1656,35.2539,焦作市,中站许衡医院,,42,42,37,29,23,90,,137,118,12,13,6,6,0.8,0.7
2025-08-18T0000,3981A,113.2449,35.1803,焦作市,原李万街道办,,38,38,33,7,10,84,,134,108,11,13,9,10,0.2,0.4
2025-08-18T0000,4264A,113.2340,35.2190,焦作市,新安路1731号,,36,36,36,14,13,77,,139,110,14,12,6,6,0.8,0.9
2025-08-18T0000,4295A,113.2722,35.2121,焦作市,人民路3066号,,50,50,38,23,18,78,,133,106,9,10,6,5,0.7,0.7
2025-08-18T0000,1708A,116.3701,23.5345,揭阳市,新兴,,22,22,25,13,12,29,,64,45,15,12,4,6,0.3,0.2
2025-08-18T0000,1709A,116.3264,23.5443,揭阳市,西马,,33,33,26,12,10,28,,65,46,11,9,2,4,0.6,0.5
2025-08-18T0000,1710A,116.3611,23.5626,揭阳市,东兴,,25,25,26,9,9,32,,62,48,13,10,5,5,0.4,0.4
2025-08-18T0000,1711A,116.4151,23.5294,揭阳市,渔湖,,33,33,30,6,9,22,,58,41,18,12,5,7,0.5,0.4
2025-08-18T0000,3320A,116.403,23.5699,揭阳市,曲溪,,18,18,23,11,12,36,,66,50,11,10,1,3,0.3,0.3
2025-08-18T0000,1944A,102.1692,38.5167,金昌市,天庆家园,颗粒物(PM10),64,78,56,29,23,33,,106,54,37,20,12,8,0.9,0.8
2025-08-18T0000,4022A,102.1647,38.5371,金昌市,金川区人防中心,细颗粒物(PM2.5),74,95,56,54,26,29,,113,67,44,16,56,16,0.7,0.6
2025-08-18T0000,4239A,102.1930,38.5319,金昌市,长春路96号,颗粒物(PM10),79,107,53,48,21,37,,104,69,45,11,331,37,0.5,0.4
2025-08-18T0000,1262A,119.647,29.077,金华市,十五中,,23,21,23,12,9,71,,89,78,10,12,4,4,0.2,0.2
2025-08-18T0000,1263A,119.686,29.1029,金华市,监测站,,21,21,22,12,11,67,,95,76,8,9,4,4,0.4,0.3
2025-08-18T0000,3659A,119.656,29.1131,金华市,气象局,,21,18,20,9,8,65,,90,75,6,9,2,2,0.2,0.2
2025-08-18T0000,1767A,121.1115,41.0879,锦州市,南山,,26,17,21,17,13,81,,109,94,12,8,9,34,0.5,0.6
2025-08-18T0000,1768A,121.0604,40.8428,锦州市,开发区,,24,22,25,7,10,75,,111,94,21,14,4,6,0.6,0.7
2025-08-18T0000,1769A,121.1836,41.1119,锦州市,百股街道,,23,13,19,3,5,73,,110,93,14,9,7,11,0.5,0.6
2025-08-18T0000,1770A,121.1178,41.1222,锦州市,天安街道,,23,20,21,14,15,71,,107,89,19,12,6,7,0.5,0.7
2025-08-18T0000,1771A,121.1303,41.1386,锦州市,北湖公园,,18,10,21,3,8,57,,104,83,15,8,4,6,0.5,0.7
2025-08-18T0000,2160A,112.85,35.5051,晋城市,自来水公司,,,49,43,,18,111,,136,136,8,15,2,2,0.4,0.5
2025-08-18T0000,2161A,112.8318,35.4936,晋城市,白云商贸,,34,32,36,12,11,106,,126,126,7,12,3,3,0.5,0.6
2025-08-18T0000,2162A,112.8508,35.4887,晋城市,市环保局,,34,34,30,17,15,98,,119,118,5,13,4,5,0.5,0.5
2025-08-18T0000,2163A,112.8676,35.4897,晋城市,技术学院,,41,41,34,14,11,102,,118,118,7,16,2,4,0.6,0.6
2025-08-18T0000,2165A,112.8453,35.546,晋城市,白马寺,,34,27,20,19,17,106,,135,135,5,5,6,7,0.6,0.6
2025-08-18T0000,3620A,112.8271,35.4828,晋城市,泽州一中,,36,27,39,19,12,115,,138,138,5,10,4,6,0.6,0.6
2025-08-18T0000,2173A,112.7249,37.7067,晋中市,南都小区,,39,39,32,24,16,86,,118,100,10,13,3,4,0.7,0.7
2025-08-18T0000,2174A,112.6991,37.6982,晋中市,榆次区政府,,39,39,25,22,17,86,,106,95,8,12,4,5,0.8,0.4
2025-08-18T0000,2865A,112.7195,37.6828,晋中市,榆次三中,,36,36,25,24,13,85,,118,99,6,8,5,6,0.6,0.5
2025-08-18T0000,4200A,112.7478,37.6954,晋中市,迎宾街26号,,39,39,24,22,11,86,,117,98,8,10,6,6,0.7,0.6
2025-08-18T0000,2439A,112.2014,31.0481,荆门市,竹园小学,,30,30,25,15,13,82,,104,103,11,10,2,2,1.7,0.6
2025-08-18T0000,2440A,112.1969,30.9891,荆门市,掇刀,,42,42,30,14,14,85,,105,102,13,11,1,1,0.5,0.5
2025-08-18T0000,2441A,112.2213,31.0386,荆门市,石化一小,,32,32,22,16,15,94,,107,105,11,11,7,7,0.7,0.7
2025-08-18T0000,3012A,112.1849,31.0362,荆门市,西山林语,,29,29,24,15,13,65,,91,86,6,6,8,9,0.4,0.4
2025-08-18T0000,3547A,112.1632,31.0138,荆门市,龙泉中学南校,,32,31,23,22,14,58,,96,90,10,10,4,4,0.7,0.6
2025-08-18T0000,1844A,112.2494,30.3197,荆州市,市图书馆,,26,26,20,17,15,80,,108,96,5,9,2,3,0.5,0.5
2025-08-18T0000,1845A,112.2008,30.3544,荆州市,市委党校,,25,19,22,16,14,78,,107,91,16,16,4,5,0.3,0.4
2025-08-18T0000,3194A,112.2747,30.3122,荆州市,管委会,,28,25,18,19,14,42,,106,89,31,11,5,6,0.5,0.5
2025-08-18T0000,4268A,112.1722,30.3366,荆州市,学苑路85号,,30,29,20,21,18,42,,110,80,29,21,6,6,0.5,0.5
2025-08-18T0000,2342A,117.3102,29.3867,景德镇市,王港中学,,,,,,,,,,,,,,,,
2025-08-18T0000,2343A,117.2117,29.2933,景德镇市,老干部活动中心,,35,35,21,15,9,11,,84,51,29,12,7,6,0.5,0.5
2025-08-18T0000,2344A,117.1894,29.2789,景德镇市,兽医站,,28,28,24,15,9,42,,97,57,12,9,4,5,0.6,0.5
2025-08-18T0000,2346A,117.2461,29.2956,景德镇市,陶研所,,28,28,24,10,11,22,,85,53,15,8,5,6,0.8,0.7
2025-08-18T0000,4289A,117.1542,29.2566,景德镇市,青少年活动中心,颗粒物(PM10),61,72,29,33,16,13,,96,40,36,19,26,15,0.8,0.8
2025-08-18T0000,1803A,115.9872,29.6815,九江市,十里,,39,29,19,27,20,38,,109,59,22,20,4,5,0.6,0.5
2025-08-18T0000,1804A,115.9584,29.7046,九江市,茅山头,,32,32,28,19,17,18,,107,54,26,15,4,4,0.7,0.6
2025-08-18T0000,1805A,115.9877,29.7295,九江市,西园,,32,32,23,17,12,38,,123,70,39,36,16,12,0.6,0.6
2025-08-18T0000,1808A,115.9114,29.6038,九江市,综合工业园,,34,34,23,15,15,44,,117,69,29,24,8,8,0.6,0.6
2025-08-18T0000,1809A,116.0721,29.7535,九江市,石化总厂,,35,32,29,24,21,17,,121,89,58,26,7,7,1.9,0.7
2025-08-18T0000,1810A,115.9773,29.5698,九江市,庐山气象台,,31,18,14,14,7,97,,90,90,5,4,6,6,1.0,0.9
2025-08-18T0000,3190A,116.0254,29.6994,九江市,外国语学校,,38,36,18,26,21,50,,108,66,12,20,10,11,0.7,0.7
2025-08-18T0000,4253A,116.0102,29.6594,九江市,莲花大道8号,,23,20,13,16,12,59,,104,72,2,5,5,5,0.5,0.4
2025-08-18T0000,4240A,98.4958,39.7339,酒泉市,玉门东路5号,颗粒物(PM10),57,63,62,36,28,23,,115,84,52,17,12,10,0.4,0.3
2025-08-18T0000,4241A,98.5099,39.7506,酒泉市,北大街108号,颗粒物(PM10),53,56,55,32,25,45,,109,95,32,12,11,11,0.6,0.4
2025-08-18T0000,2698A,76.0072,39.4467,喀什地区,巡警大队,颗粒物(PM10),458,558,583,213,175,68,,97,85,34,24,3,3,0.6,0.6
2025-08-18T0000,2699A,75.9755,39.4694,喀什地区,吾办,颗粒物(PM10),487,587,620,229,214,61,,97,82,34,23,7,6,0.4,0.3
2025-08-18T0000,4027A,75.9483,39.4689,喀什地区,老干局,颗粒物(PM10),345,456,473,123,137,56,,98,84,37,20,8,8,0.5,0.8
2025-08-18T0000,1824A,114.3389,34.7781,开封市,肿瘤医院,,30,30,34,21,16,90,,137,115,13,13,3,6,0.5,0.5
2025-08-18T0000,1826A,114.2885,34.7965,开封市,世纪星幼儿园,,34,34,33,10,16,91,,136,118,9,9,4,4,0.6,0.6
2025-08-18T0000,3147A,114.3438,34.8106,开封市,龙亭公园,,31,31,35,14,11,71,,119,98,9,9,3,4,0.8,0.8
2025-08-18T0000,3210A,114.3644,34.7964,开封市,汴京公园,,40,40,36,23,20,89,,147,120,9,9,3,4,0.6,0.6
2025-08-18T0000,3473A,114.2485,34.8306,开封市,技师学院,,33,33,32,16,18,74,,126,103,10,8,5,5,1.0,1
2025-08-18T0000,3592A,114.4644,34.7556,开封市,祥符区生态环境局,,34,34,37,20,20,61,,124,96,28,20,6,7,0.6,0.6
2025-08-18T0000,1951A,84.895,45.6094,克拉玛依市,长征新村,,41,41,28,3,8,105,,101,100,1,5,3,4,0.1,0.2
2025-08-18T0000,1952A,84.8988,45.5893,克拉玛依市,南林小区,,36,36,29,18,13,110,,102,100,4,9,4,5,0.1,0.1
2025-08-18T0000,1954A,84.905,44.3396,克拉玛依市,独山子区,,,31,29,16,10,91,,98,95,,12,10,10,0.3,0.4
2025-08-18T0000,1955A,85.6979,46.098,克拉玛依市,乌尔禾区商贸楼,颗粒物(PM10),52,53,36,14,8,88,,92,90,8,11,7,7,0.3,0.3
2025-08-18T0000,3612A,85.1045,45.6899,克拉玛依市,白碱滩区新站,颗粒物(PM10),52,54,45,25,18,100,,110,105,1,5,9,9,0.4,0.4
2025-08-18T0000,2697A,76.1454,39.7142,克孜勒苏柯尔克孜自治州,市人民政府,颗粒物(PM10),465,565,481,162,154,103,,96,87,9,16,5,10,0.1,0.2
2025-08-18T0000,3665A,76.1658,39.7157,克孜勒苏柯尔克孜自治州,克州文化中心,细颗粒物(PM2.5),213,304,456,163,154,113,,103,97,3,10,6,9,0.2,0.2
2025-08-18T0000,1450A,102.8204,24.8886,昆明市,呈贡新区,,18,,5,12,9,41,,66,51,13,10,3,4,0.3,0.4
2025-08-18T0000,1451A,102.6251,24.9608,昆明市,西山森林公园,,,,,,,,,,,,,,,,
2025-08-18T0000,1452A,102.7252,25.0902,昆明市,龙泉镇,,26,26,22,14,9,3,,69,42,35,14,1,1,0.5,0.4
2025-08-18T0000,1453A,102.7266,25.0375,昆明市,东风东路,,25,25,21,9,9,16,,74,47,35,17,4,3,0.4,0.3
2025-08-18T0000,1454A,102.6742,25.0669,昆明市,金鼎山,,29,29,18,11,8,15,,76,53,33,11,2,2,0.3,0.3
2025-08-18T0000,1455A,102.6644,25.0401,昆明市,碧鸡广场,细颗粒物(PM2.5),60,57,18,43,11,8,,68,44,45,16,8,7,0.6,0.4
2025-08-18T0000,3179A,102.7494,25.0119,昆明市,官渡区博物馆,,40,40,17,7,9,1,,68,37,49,23,1,2,0.6,0.5
2025-08-18T0000,3375A,102.8017,24.8336,昆明市,青年创业园,,23,23,12,8,7,6,,64,40,29,12,3,3,0.5,0.4
2025-08-18T0000,3550A,102.7997,24.9786,昆明市,昆明学院,,18,15,10,11,7,17,,72,48,36,15,7,6,0.3,0.2
2025-08-18T0000,3551A,102.5967,24.6736,昆明市,晋宁区生态环境分局,,42,42,18,29,9,19,,66,45,20,10,6,2,0.5,0.4
2025-08-18T0000,3552A,102.6678,24.9856,昆明市,云天化总部,,22,22,14,13,10,19,,70,56,35,14,2,4,0.3,0.3
2025-08-18T0000,1456A,91.1319,29.6514,拉萨市,八廓街,,21,21,13,8,9,37,,100,80,34,16,6,6,0.4,0.3
2025-08-18T0000,1457A,91.1221,29.6747,拉萨市,市环保局,,19,9,15,8,8,60,,104,86,14,13,7,7,0.5,0.5
2025-08-18T0000,1458A,91.0874,29.6475,拉萨市,区监测站,,19,19,12,7,7,60,,94,80,20,20,5,4,0.4,0.4
2025-08-18T0000,1459A,91.1774,29.6541,拉萨市,西藏大学,,20,11,10,6,6,63,,99,87,15,13,5,6,0.3,0.2
2025-08-18T0000,1460A,90.9798,29.6588,拉萨市,区辐射站,,21,13,14,7,7,65,,87,78,8,15,5,5,0.3,0.3
2025-08-18T0000,1461A,91.0834,29.6292,拉萨市,拉萨火车站,,20,10,9,7,6,62,,92,80,15,12,5,6,0.2,0.2
2025-08-18T0000,2520A,109.2203,23.7256,来宾市,来宾技工学校,,17,12,22,8,11,52,,88,70,8,8,8,8,0.5,0.6
2025-08-18T0000,3535A,109.1781,23.7297,来宾市,兴宾区政府,,,22,19,15,10,55,,97,77,8,7,,5,0.5,0.5
2025-08-18T0000,4002A,109.2416,23.7461,来宾市,中南小学,,17,14,22,11,10,53,,93,74,7,10,10,8,0.4,0.5
2025-08-18T0000,1477A,104.1373,35.9454,兰州市,榆中兰大校区,,,,,,,,,,,,,,,,
2025-08-18T0000,1479A,103.831,36.0464,兰州市,铁路设计院,,41,41,37,22,22,62,,112,89,27,22,8,8,0.4,0.4
2025-08-18T0000,3241A,103.7439,36.0842,兰州市,百合公园,,44,44,36,22,15,26,,114,72,46,19,3,4,0.9,0.5
2025-08-18T0000,3242A,103.9611,35.998,兰州市,和平,,28,28,26,13,13,68,,114,97,12,9,7,7,0.6,0.4
2025-08-18T0000,4236A,103.6293,36.0938,兰州市,庄浪东路808号,,40,40,38,22,18,35,,127,80,46,24,11,12,0.3,0.3
2025-08-18T0000,4237A,103.7251,36.1043,兰州市,安宁西路88号,颗粒物(PM10),53,56,41,22,19,50,,134,94,35,13,7,7,0.4,0.3
2025-08-18T0000,4238A,103.8470,36.0676,兰州市,北滨河东路1号,,41,41,28,19,17,82,,121,98,12,14,8,8,0.3,0.3
2025-08-18T0000,3245A,103.6633,36.533,兰州新区,新区管委会,,37,37,34,20,20,74,,138,110,12,9,10,16,0.3,0.4
2025-08-18T0000,3246A,103.6975,36.4789,兰州新区,舟曲中学,,32,32,33,10,14,88,,128,105,7,12,6,14,0.3,0.4
2025-08-18T0000,1067A,116.6708,39.5111,廊坊市,药材公司,,45,45,38,22,26,74,,139,115,12,16,9,5,0.6,0.6
2025-08-18T0000,1068A,116.7214,39.5589,廊坊市,开发区,,44,44,42,26,25,75,,132,107,13,17,4,4,0.6,0.6
2025-08-18T0000,1070A,116.7244,39.5269,廊坊市,北华航天学院,颗粒物(PM10),53,55,57,34,31,80,,140,112,9,15,5,5,0.6,0.6
2025-08-18T0000,2919A,116.7022,39.5453,廊坊市,河北工业大学,颗粒物(PM10),56,61,52,21,25,88,,144,120,8,16,6,5,0.6,0.6
2025-08-18T0000,2535A,103.7723,29.5462,乐山市,花湖湾,,22,15,25,12,22,68,,108,95,6,11,2,2,0.4,0.6
2025-08-18T0000,2536A,103.7627,29.5844,乐山市,牛耳桥,,23,21,28,14,21,72,,127,110,9,11,5,5,0.5,0.6
2025-08-18T0000,2537A,103.7508,29.6006,乐山市,市第三水厂,,25,23,27,17,19,66,,115,97,11,12,3,4,0.7,0.7
2025-08-18T0000,2538A,103.7571,29.5664,乐山市,市监测站,,22,18,28,13,19,69,,115,99,6,10,5,5,0.7,0.8
2025-08-18T0000,3361A,103.7311,29.5628,乐山市,理工大学,,22,14,25,8,19,69,,121,100,7,10,6,6,0.6,0.8
2025-08-18T0000,2598A,100.2143,26.8576,丽江市,西南郊,,19,19,12,8,8,14,,68,40,21,12,6,7,1.0,0.9
2025-08-18T0000,2599A,100.2497,26.8802,丽江市,丽江古城,,32,32,16,12,6,12,,66,41,18,13,10,10,0.6,0.6
2025-08-18T0000,2600A,100.2203,26.8906,丽江市,市中心,,16,16,10,8,8,6,,62,31,16,16,10,11,0.7,0.7
2025-08-18T0000,1267A,119.914,28.4514,丽水市,监测站大楼,,22,22,17,6,6,44,,88,69,8,9,4,4,0.3,0.3
2025-08-18T0000,1268A,119.93,28.4586,丽水市,莲都小学,,23,23,18,13,7,46,,86,69,8,8,3,3,0.4,0.4
2025-08-18T0000,1269A,119.879,28.4231,丽水市,余庄前,,26,25,15,18,10,22,,86,64,10,8,4,5,0.3,0.3
2025-08-18T0000,1173A,119.176,34.5885,连云港市,市环境监测站,,41,41,36,27,19,84,,157,124,15,10,1,2,0.5,0.5
2025-08-18T0000,3000A,119.3581,34.6972,连云港市,德源药业,,39,39,34,24,21,71,,144,108,17,13,4,5,0.6,0.6
2025-08-18T0000,3007A,119.178,34.844,连云港市,新城一中,,33,32,34,23,24,68,,167,119,47,12,4,4,1.1,1.1
2025-08-18T0000,3008A,119.3608,34.7519,连云港市,胡沟管理处,,37,31,26,17,15,118,,149,126,10,11,9,8,0.4,0.5
2025-08-18T0000,3009A,119.1478,34.5911,连云港市,矿山设计院,,39,39,37,24,21,85,,147,116,14,10,4,5,0.7,0.7
2025-08-18T0000,3434A,119.2413,34.6539,连云港市,工贸学校,,39,34,38,27,24,99,,154,131,9,7,6,8,0.8,0.8
2025-08-18T0000,3664A,119.4172,34.7341,连云港市,连云街道,,42,42,37,22,22,120,,156,137,9,9,5,5,0.7,0.7
2025-08-18T0000,2571A,102.3431,27.8099,凉山彝族自治州,青龙寺,,14,14,15,6,7,24,,83,59,3,4,1,2,0.4,0.5
2025-08-18T0000,2572A,102.2721,27.8415,凉山彝族自治州,邛海宾馆,,17,17,24,9,14,51,,87,66,4,10,5,7,0.5,0.6
2025-08-18T0000,2573A,102.2625,27.898,凉山彝族自治州,西昌市政府,,16,16,20,3,15,47,,100,74,9,13,4,8,0.5,0.6
2025-08-18T0000,2574A,102.2685,27.8851,凉山彝族自治州,凉山州政府,,25,17,26,17,19,60,,100,79,14,16,9,11,0.9,0.7
2025-08-18T0000,4229A,102.2342,27.8859,凉山彝族自治州,凯乐南路30号,,15,14,18,6,11,45,,94,70,13,15,8,11,0.6,0.7
2025-08-18T0000,2212A,123.2,41.1953,辽阳市,宏伟区,,27,27,31,7,15,44,,120,80,14,14,4,3,0.7,0.9
2025-08-18T0000,2213A,123.1683,41.2495,辽阳市,新华园,,40,40,30,14,19,31,,138,87,32,13,10,6,0.5,0.7
2025-08-18T0000,2214A,123.2354,41.2639,辽阳市,滨河路,,39,39,34,16,17,11,,116,63,36,16,5,4,0.6,0.7
2025-08-18T0000,2215A,123.149,41.2991,辽阳市,铁西工业园,,43,43,31,13,14,17,,121,67,29,14,2,3,0.7,0.8
2025-08-18T0000,2227A,125.1358,42.8845,辽源市,环保局,,34,34,23,12,5,4,,75,48,33,8,9,8,0.5,0.5
2025-08-18T0000,3239A,125.0764,42.9078,辽源市,银鹰制药,,25,25,12,3,7,4,,76,47,28,12,8,8,0.5,0.4
2025-08-18T0000,1625A,115.9848,36.4372,聊城市,区政府,,29,24,16,14,13,90,,105,100,8,6,5,5,0.8,0.7
2025-08-18T0000,2878A,116.0072,36.4343,聊城市,聊大东校,,29,22,19,20,17,85,,110,100,12,10,7,7,0.4,0.3
2025-08-18T0000,3200A,115.9819,36.4978,聊城市,监控中心,,41,41,21,14,9,42,,98,78,26,11,6,5,0.7,0.6
2025-08-18T0000,3513A,116.0445,36.4361,聊城市,九州社区,,32,32,25,20,13,82,,103,91,14,10,5,4,0.3,0.3
2025-08-18T0000,4018A,116.0567,36.4608,聊城市,星美广场,,29,26,21,17,14,92,,108,97,12,10,2,2,0.5,0.5
2025-08-18T0000,2632A,94.3681,29.6376,林芝市,林芝监测站,,17,7,6,3,4,54,,68,63,1,3,6,6,0.3,0.3
2025-08-18T0000,2633A,94.3616,29.6616,林芝市,林芝人民医院,,17,8,9,3,5,53,,69,64,1,2,6,7,0.4,0.4
2025-08-18T0000,2603A,100.0781,23.8982,临沧市,市环保局,,30,,17,21,13,25,,55,45,7,7,6,6,0.5,0.5
2025-08-18T0000,2604A,100.0894,23.8822,临沧市,市气象局,,25,,16,17,11,20,,45,34,8,7,6,5,0.4,0.3
2025-08-18T0000,1733A,111.5531,36.0783,临汾市,临钢医院,,46,46,40,12,11,29,,108,65,22,17,6,9,0.6,0.8
2025-08-18T0000,1734A,111.5028,36.0714,临汾市,技工学校,,49,49,41,20,21,35,,114,70,16,12,6,9,0.6,0.7
2025-08-18T0000,1736A,111.5018,36.0855,临汾市,市委,颗粒物(PM10),53,55,49,14,11,40,,124,78,17,12,4,6,0.9,1
2025-08-18T0000,3018A,111.505,36.1014,临汾市,唐尧大酒店,颗粒物(PM10),51,52,55,14,13,35,,114,72,17,13,3,3,0.8,0.9
2025-08-18T0000,4244A,111.4879,36.0530,临汾市,启星学校,,38,35,37,26,24,37,,115,71,16,14,5,7,0.7,0.8
2025-08-18T0000,4271A,103.2464,35.6123,临夏回族自治州,滨河东路1号,细颗粒物(PM2.5),112,115,63,84,34,7,,96,58,37,18,7,7,0.9,0.4
2025-08-18T0000,4310A,103.2093,35.5995,临夏回族自治州,新华街21号,细颗粒物(PM2.5),84,100,50,62,29,29,,103,79,28,15,5,6,0.6,0.4
2025-08-18T0000,1618A,118.3429,35.0532,临沂市,沂河小区,,34,34,36,23,23,64,,154,109,24,16,8,10,0.4,0.4
2025-08-18T0000,1619A,118.295,35.0583,临沂市,鲁南制药厂,,26,24,32,17,22,81,,155,115,16,11,8,10,0.4,0.3
2025-08-18T0000,1620A,118.2794,34.9976,临沂市,新光毛纺厂,,26,22,30,18,20,80,,159,114,18,16,7,10,0.4,0.4
2025-08-18T0000,1621A,118.3956,35.0888,临沂市,河东保险公司,,23,19,31,16,16,60,,161,115,26,15,6,8,0.3,0.3
2025-08-18T0000,3370A,118.3564,35.0215,临沂市,十里堡居委,,27,27,31,17,19,64,,161,117,24,14,9,11,0.4,0.4
2025-08-18T0000,3496A,118.3604,35.1084,临沂市,南坊新区,,24,24,32,9,14,63,,164,113,27,14,8,9,0.4,0.4
2025-08-18T0000,3860A,118.3920,35.0300,临沂市,皇山花园小区,,31,31,33,11,15,61,,153,114,22,14,8,9,0.5,0.5
2025-08-18T0000,1870A,109.4856,24.3895,柳州市,柳东小学,,18,13,20,12,12,52,,83,62,7,8,8,5,0.3,0.3
2025-08-18T0000,1871A,109.4157,24.3277,柳州市,环保监测站,,19,19,24,3,13,55,,84,62,5,10,8,10,0.3,0.4
2025-08-18T0000,1872A,109.389,24.341,柳州市,河西水厂,,18,11,28,3,14,55,,86,66,6,10,6,7,0.3,0.4
2025-08-18T0000,1873A,109.4311,24.2921,柳州市,市四中,,17,9,25,9,13,53,,88,66,8,12,7,8,0.5,0.5
2025-08-18T0000,1874A,109.4006,24.3631,柳州市,市九中,,18,10,28,7,15,55,,85,65,5,10,6,6,0.4,0.5
2025-08-18T0000,1875A,109.4958,24.3134,柳州市,古亭山,,11,,24,6,10,35,,91,57,10,9,5,7,0.5,0.5
2025-08-18T0000,3402A,109.5422,24.3996,柳州市,市二中,,16,9,21,3,10,51,,88,64,10,11,5,7,0.5,0.6
2025-08-18T0000,2307A,116.5079,31.737,六安市,监测大楼,,27,22,17,12,11,86,,88,83,5,6,3,3,0.4,0.3
2025-08-18T0000,2308A,116.4738,31.7643,六安市,皖西学院,,31,17,21,12,11,98,,105,100,6,6,3,3,0.3,0.3
2025-08-18T0000,2309A,116.4996,31.7905,六安市,朝阳厂,,28,14,20,12,12,88,,100,91,9,10,5,6,0.4,0.3
2025-08-18T0000,2310A,116.5567,31.7886,六安市,开发区,,23,16,16,11,14,71,,92,86,14,12,3,3,0.4,0.4
2025-08-18T0000,2576A,104.8,26.5892,六盘水市,窑上,,24,24,19,3,3,20,,65,43,2,3,4,4,0.1,0.1
2025-08-18T0000,2577A,104.83,26.5917,六盘水市,黄土坡,,15,15,14,10,6,22,,66,50,17,11,10,11,0.4,0.3
2025-08-18T0000,2578A,104.89,26.5939,六盘水市,水钢,颗粒物(PM10),53,56,28,31,17,39,,70,61,16,6,9,9,0.4,0.3
2025-08-18T0000,2579A,104.8475,26.5894,六盘水市,民中,,32,32,12,17,3,9,,67,53,40,11,9,8,0.6,0.4
2025-08-18T0000,2580A,104.9544,26.5506,六盘水市,双水,,14,14,10,3,5,38,,66,57,10,6,5,6,0.0,0
2025-08-18T0000,2335A,117.0189,25.1181,龙岩市,龙岩师专,,,,,,,,,,,,,,,,
2025-08-18T0000,2336A,117.0217,25.1033,龙岩市,龙岩市监测站,,20,15,16,14,10,57,,65,63,15,10,11,9,0.6,0.6
2025-08-18T0000,2337A,117.0258,25.0661,龙岩市,闽西职业技术学院,,23,23,26,11,8,48,,59,51,15,10,14,11,0.5,0.5
2025-08-18T0000,2338A,117.0196,25.0306,龙岩市,龙岩学院,,18,16,25,9,10,55,,59,57,9,9,9,9,0.4,0.3
2025-08-18T0000,2665A,105.0822,33.3261,陇南市,汉王镇固水子,,,,,,,,,,,,,,,,
2025-08-18T0000,2885A,104.9339,33.3826,陇南市,滨江中学,,34,34,31,18,10,99,,99,97,2,4,7,8,0.6,0.6
2025-08-18T0000,3247A,104.955,33.371,陇南市,市总工会,,35,30,31,10,10,110,,109,109,4,4,6,6,0.5,0.5
2025-08-18T0000,2487A,111.9589,27.8901,娄底市,电视发射台,,21,21,21,9,11,43,,75,47,4,5,4,4,0.2,0.2
2025-08-18T0000,2488A,111.9975,27.725,娄底市,市监测站,颗粒物(PM10),56,61,30,36,16,13,,84,65,40,12,6,7,0.8,0.6
2025-08-18T0000,2489A,112.0194,27.7314,娄底市,市委党校,细颗粒物(PM2.5),65,67,30,47,20,25,,84,59,22,12,11,9,0.5,0.4
2025-08-18T0000,2490A,111.9561,27.7569,娄底市,涟钢,细颗粒物(PM2.5),75,76,36,55,24,19,,81,43,18,16,12,14,1.0,0.8
2025-08-18T0000,2491A,111.9892,27.7044,娄底市,市政府,细颗粒物(PM2.5),85,74,35,63,27,14,,88,47,13,8,5,5,1.0,0.7
2025-08-18T0000,1893A,105.4324,28.9634,泸州市,九狮山,,50,48,30,35,23,26,,118,68,15,11,7,8,0.4,0.3
2025-08-18T0000,1894A,105.4427,28.9063,泸州市,小市上码头,,40,38,25,28,11,39,,86,68,16,11,15,6,0.3,0.3
2025-08-18T0000,1895A,105.4241,28.8573,泸州市,兰田宪桥,,23,23,25,12,10,42,,113,77,13,12,8,8,0.2,0.2
2025-08-18T0000,1896A,105.4379,28.8833,泸州市,市环监站,,27,27,24,16,15,45,,103,79,21,16,5,5,0.1,0.1
2025-08-18T0000,4272A,105.3689,28.7783,泸州市,纳溪中医医院,细颗粒物(PM2.5),67,68,23,48,13,17,,119,70,38,20,8,8,0.5,0.5
2025-08-18T0000,2183A,111.1406,37.5211,吕梁市,环保局,颗粒物(PM10),64,78,36,37,16,46,,93,81,43,18,4,5,0.9,0.7
2025-08-18T0000,2185A,111.1297,37.5136,吕梁市,自来水公司,,50,50,49,25,14,74,,90,86,22,19,3,4,0.8,0.6
2025-08-18T0000,2867A,111.1283,37.51,吕梁市,马茂庄小学,,48,48,46,21,15,60,,90,83,44,25,4,5,0.8,0.6
2025-08-18T0000,1812A,112.3931,34.6516,洛阳市,市委党校,,36,36,34,23,21,57,,140,100,14,12,7,7,0.6,0.5
2025-08-18T0000,1815A,112.494,34.6886,洛阳市,河南林校,,44,44,38,22,18,71,,163,123,22,14,8,8,0.7,0.7
2025-08-18T0000,1816A,112.3844,34.623,洛阳市,开发区管委会,,34,34,31,23,21,73,,168,127,10,11,5,7,0.7,0.7
2025-08-18T0000,1817A,112.4267,34.6258,洛阳市,市委新办公区,,34,34,37,23,21,73,,152,112,14,14,8,9,0.6,0.6
2025-08-18T0000,3340A,112.6005,34.6326,洛阳市,伊滨,,32,32,28,19,19,67,,140,103,13,15,8,7,0.6,0.6
2025-08-18T0000,3341A,112.4951,34.6332,洛阳市,中移产业园,,44,44,37,23,24,68,,149,107,18,18,8,9,0.8,0.8
2025-08-18T0000,3593A,112.5736,34.8993,洛阳市,吉利监测站,,35,31,37,24,20,89,,147,120,7,10,6,6,0.4,0.4
2025-08-18T0000,3635A,112.3677,34.662,洛阳市,河科大西苑校区,,31,31,32,16,13,66,,152,114,21,20,6,9,0.6,0.6
2025-08-18T0000,3636A,112.4388,34.6781,洛阳市,英才小学,,42,42,48,20,16,64,,141,105,18,15,7,8,0.8,0.7
2025-08-18T0000,4214A,112.4600,34.6949,洛阳市,春都路1号院,,32,32,32,14,13,61,,134,101,14,10,5,7,0.7,0.7
2025-08-18T0000,2399A,114.051,33.5699,漯河市,三五一五工厂,,36,36,26,17,14,59,,124,102,30,14,8,6,0.5,0.5
2025-08-18T0000,2400A,114.0055,33.5698,漯河市,漯河大学,,29,24,22,9,10,90,,134,115,11,12,4,7,0.4,0.4
2025-08-18T0000,2401A,114.0138,33.5828,漯河市,市水利局,,26,19,24,14,12,81,,124,107,11,11,4,7,0.4,0.4
2025-08-18T0000,2402A,114.0261,33.5698,漯河市,市广电局,,27,27,22,18,15,83,,138,115,12,11,2,4,0.4,0.4
2025-08-18T0000,3478A,113.9749,33.5664,漯河市,市图书馆,,32,29,29,22,14,79,,131,112,14,12,4,6,0.3,0.2
2025-08-18T0000,4250A,114.0892,33.5882,漯河市,韶山路11号,,33,33,27,22,14,66,,130,104,24,17,3,5,0.5,0.4
2025-08-18T0000,1798A,118.5092,31.6837,马鞍山市,湖东路四小,细颗粒物(PM2.5),58,,37,41,24,104,,129,120,12,12,11,8,0.4,0.4
2025-08-18T0000,1799A,118.5024,31.6449,马鞍山市,开发区,颗粒物(PM10),53,56,43,27,22,97,,127,117,16,14,14,9,0.5,0.5
2025-08-18T0000,1802A,118.6245,31.7241,马鞍山市,濮塘,,38,31,30,26,21,111,,128,120,9,8,8,8,0.7,0.7
2025-08-18T0000,3633A,118.4918,31.6809,马鞍山市,雨山,,40,38,34,28,23,98,,124,117,14,13,13,8,0.5,0.5
2025-08-18T0000,4191A,118.5274,31.72227,马鞍山市,慈湖高新区,,49,49,38,24,22,94,,126,114,20,16,10,9,0.3,0.3
2025-08-18T0000,1686A,111.0286,21.4688,茂名市,电白南海,,12,12,20,7,12,29,,48,40,8,6,4,4,0.2,0.3
2025-08-18T0000,1687A,110.9294,21.6533,茂名市,茂石化七小,,14,14,21,7,7,32,,43,39,8,7,5,5,0.4,0.4
2025-08-18T0000,1688A,110.9107,21.6687,茂名市,健康路,,18,,15,12,9,37,,50,46,11,8,5,8,0.4,0.4
2025-08-18T0000,1689A,110.8592,21.6828,茂名市,高岭,,17,17,25,3,5,34,,48,43,12,12,7,10,0.5,0.4
2025-08-18T0000,3450A,111.01,21.5165,茂名市,电白水东,,10,6,13,3,5,32,,50,41,7,6,4,4,0.4,0.4
2025-08-18T0000,2539A,104.0308,30.0478,眉山市,黑龙滩水库,,28,,14,11,10,87,,114,101,14,10,3,3,0.3,0.4
2025-08-18T0000,2540A,103.8416,30.0874,眉山市,气象局,,35,35,36,7,13,59,,116,95,20,16,9,10,0.5,0.6
2025-08-18T0000,3137A,103.8578,30.0744,眉山市,市委党校,,18,14,17,7,9,56,,110,88,20,12,5,7,0.4,0.4
2025-08-18T0000,3148A,103.8291,30.0564,眉山市,区人社局,,20,15,31,3,9,62,,119,92,17,17,6,8,0.5,0.6
2025-08-18T0000,1690A,116.1231,24.3284,梅州市,梅江月梅,,23,21,22,16,12,40,,48,37,11,12,12,9,0.5,0.5
2025-08-18T0000,1691A,116.0797,24.2719,梅州市,梅县新城,,24,24,22,9,14,6,,52,25,14,11,6,7,0.5,0.4
2025-08-18T0000,1692A,116.1248,24.2654,梅州市,环境监控中心,,23,19,22,16,13,37,,48,31,17,13,3,4,0.5,0.5
2025-08-18T0000,3315A,116.1233,24.2991,梅州市,梅龙,,27,27,18,13,11,41,,48,37,9,10,13,8,0.6,0.6
2025-08-18T0000,1878A,104.7778,31.4741,绵阳市,富乐山,,24,24,24,16,16,34,,75,53,7,9,8,8,0.6,0.6
2025-08-18T0000,1880A,104.6697,31.4668,绵阳市,高新区自来水公司,,26,26,23,9,9,32,,80,58,26,18,7,7,0.4,0.4
2025-08-18T0000,1881A,104.7287,31.5075,绵阳市,三水厂,,36,36,22,22,15,15,,73,44,35,19,8,7,0.5,0.4
2025-08-18T0000,3491A,104.69,31.5322,绵阳市,西科大附属小学,,36,36,24,20,14,16,,78,51,35,22,8,8,0.6,0.5
2025-08-18T0000,3492A,104.5648,31.5343,绵阳市,安州区旅游局,,29,29,25,9,7,28,,79,58,14,12,8,8,0.6,0.5
2025-08-18T0000,4226A,104.7651,31.4531,绵阳市,绵阳市气象局,,25,25,20,13,12,45,,82,67,14,12,7,7,0.4,0.4
2025-08-18T0000,1784A,129.61,44.561,牡丹江市,环保大楼,,26,21,19,18,12,17,,63,41,17,9,3,3,0.3,0.3
2025-08-18T0000,1785A,129.6115,44.5782,牡丹江市,文化广场,,23,20,16,16,17,11,,60,36,21,11,6,5,0.5,0.4
2025-08-18T0000,1786A,129.5904,44.5963,牡丹江市,第一医院,,25,25,16,16,18,18,,62,41,15,10,8,8,0.1,0.1
2025-08-18T0000,1787A,129.6364,44.6075,牡丹江市,机车工厂,,19,19,24,10,16,5,,56,34,20,10,5,5,0.3,0.4
2025-08-18T0000,1788A,129.6386,44.5462,牡丹江市,第一中学,,15,15,20,8,13,6,,64,32,19,10,5,5,0.2,0.2
2025-08-18T0000,2531A,105.0703,29.61,内江市,市监测站,,32,26,16,22,19,57,,136,106,10,10,2,3,0.7,0.7
2025-08-18T0000,2532A,105.0717,29.5947,内江市,东兴区政府,,23,23,15,13,11,52,,128,102,11,10,7,8,0.6,0.6
2025-08-18T0000,2533A,105.0653,29.5817,内江市,内江二中,,35,35,25,21,20,52,,126,100,13,12,3,4,0.6,0.6
2025-08-18T0000,2534A,105.0406,29.5822,内江市,内江日报社,,29,28,21,20,22,52,,136,105,15,15,7,8,0.5,0.5
2025-08-18T0000,2628A,92.0657,31.4846,那曲市,那曲监测站,,40,40,27,18,11,55,,93,80,23,15,15,15,0.5,0.4
2025-08-18T0000,4243A,92.0515,31.4787,那曲市,那曲市委宣传部,,28,22,23,19,10,68,,102,93,14,12,4,9,0.4,0.4
2025-08-18T0000,1290A,115.8931,28.6843,南昌市,省外办,,35,30,25,24,17,82,,90,83,6,16,6,5,0.6,0.5
2025-08-18T0000,1291A,115.8886,28.7003,南昌市,省林业公司,,46,46,34,27,16,39,,92,71,34,22,2,3,0.6,0.5
2025-08-18T0000,1292A,115.8126,28.7442,南昌市,林科所,,15,14,15,9,8,47,,89,66,20,14,9,9,0.7,0.6
2025-08-18T0000,1294A,115.8518,28.687,南昌市,建工学校,颗粒物(PM10),51,52,31,24,17,50,,92,69,30,27,7,7,0.6,0.5
2025-08-18T0000,1295A,115.8921,28.6424,南昌市,象湖,,25,,22,17,10,78,,92,87,15,15,7,8,0.4,0.5
2025-08-18T0000,1296A,115.7423,28.7996,南昌市,武术学校,,19,13,15,13,11,19,,91,50,5,5,9,10,0.5,0.4
2025-08-18T0000,3046A,115.9084,28.6062,南昌市,机电学校,,37,37,29,19,13,63,,87,82,19,15,6,7,0.5,0.5
2025-08-18T0000,3690A,115.9721,28.7031,南昌市,外国语学校,,37,37,28,13,10,78,,92,88,14,11,8,7,0.4,0.4
2025-08-18T0000,4192A,115.9316,28.68677,南昌市,南京东路235号,,34,34,33,16,11,84,,87,87,11,16,6,6,0.7,0.6
2025-08-18T0000,1905A,106.056,30.8064,南充市,西山风景区,,,,,,,,,,,,,,,,
2025-08-18T0000,1906A,106.0789,30.8023,南充市,南充市委,,32,32,24,22,18,50,,109,94,27,12,4,4,0.5,0.4
2025-08-18T0000,1907A,106.1031,30.8217,南充市,南充炼油厂,细颗粒物(PM2.5),60,63,37,43,19,61,,105,93,17,9,5,5,0.4,0.3
2025-08-18T0000,4227A,106.1083,30.7884,南充市,梨树横街98号,颗粒物(PM10),52,53,26,33,20,70,,124,107,22,12,4,4,0.4,0.2
2025-08-18T0000,4304A,106.1172,30.843,南充市,清泉寺北路188号,细颗粒物(PM2.5),64,56,30,46,21,62,,115,103,20,9,4,4,0.5,0.3
2025-08-18T0000,4305A,106.067,30.7616,南充市,同庆路1号,,49,49,27,19,17,59,,112,97,27,11,5,5,0.4,0.3
2025-08-18T0000,1151A,118.8086,32.1065,南京市,迈皋桥,,35,30,25,22,17,110,,142,135,10,12,4,4,0.5,0.5
2025-08-18T0000,1152A,118.7538,32.0551,南京市,草场门,,35,34,35,24,20,87,,135,119,13,13,10,10,0.5,0.6
2025-08-18T0000,1153A,118.7794,32.0745,南京市,山西路,,36,36,36,12,14,102,,140,132,13,10,4,4,0.4,0.4
2025-08-18T0000,1154A,118.7752,32.0023,南京市,中华门,,32,29,27,22,16,88,,133,122,8,8,4,4,0.7,0.7
2025-08-18T0000,1155A,118.8109,32.0309,南京市,瑞金路,,32,27,26,22,17,97,,137,129,9,10,7,7,0.3,0.3
2025-08-18T0000,1156A,118.7997,32.0754,南京市,玄武湖,,33,33,31,13,9,93,,127,122,11,10,6,6,0.3,0.3
2025-08-18T0000,1157A,118.6414,32.0931,南京市,浦口,,37,37,36,21,15,96,,146,127,11,15,6,6,0.5,0.5
2025-08-18T0000,1158A,118.7356,31.9996,南京市,奥体中心,,38,38,32,24,19,97,,137,125,12,13,6,7,0.3,0.4
2025-08-18T0000,1159A,118.9125,32.1028,南京市,仙林大学城,,41,41,35,14,12,93,,133,123,7,7,8,8,0.6,0.6
2025-08-18T0000,3422A,118.8436,31.9198,南京市,江宁彩虹桥,,43,43,34,24,20,83,,142,123,10,9,5,4,0.4,0.4
2025-08-18T0000,3427A,118.8554,32.3578,南京市,六合雄州,,43,43,36,24,18,98,,129,106,15,17,6,5,0.6,0.6
2025-08-18T0000,4249A,118.8708,31.3402,南京市,汶溪路181号,,39,27,24,27,18,114,,125,119,12,10,8,7,0.4,0.3
2025-08-18T0000,4312A,119.019,31.6512,南京市,中山西路1号,,30,27,30,21,19,75,,140,117,17,16,3,4,0.4,0.4
2025-08-18T0000,1401A,108.3103,22.7881,南宁市,二十一中,,16,,27,11,14,51,,84,71,14,14,4,6,0.5,0.6
2025-08-18T0000,1402A,108.3141,22.8528,南宁市,北湖,,23,,29,16,17,49,,85,65,14,13,4,6,0.4,0.5
2025-08-18T0000,1403A,108.3206,22.8225,南宁市,市监测站,,,,27,13,16,54,,80,63,10,16,4,5,0.4,0.5
2025-08-18T0000,1404A,108.3829,22.8037,南宁市,大自然花园,,21,12,28,12,13,67,,87,72,6,12,5,6,0.5,0.6
2025-08-18T0000,1405A,108.4394,22.7904,南宁市,仙葫,,19,7,32,6,12,60,,77,68,7,12,4,4,0.3,0.4
2025-08-18T0000,1406A,108.2397,22.8467,南宁市,区农职院,,19,19,27,10,14,43,,87,64,16,14,6,7,0.3,0.4
2025-08-18T0000,1407A,108.3275,22.735,南宁市,英华嘉园,,19,12,25,8,14,60,,84,70,7,12,1,3,0.4,0.4
2025-08-18T0000,3401A,108.4834,22.7618,南宁市,红星社区,,22,13,25,10,14,69,,94,76,7,12,2,3,0.3,0.4
2025-08-18T0000,4221A,108.2177,22.7774,南宁市,乐贤路16号,,19,,27,13,14,31,,92,64,30,15,6,8,0.5,0.6
2025-08-18T0000,2331A,118.0966,26.6761,南平市,茫荡山,,,,,,,,,,,,,,,,
2025-08-18T0000,2332A,118.1681,26.6369,南平市,南平市监测站,,14,,9,8,7,43,,56,52,3,6,4,4,0.4,0.4
2025-08-18T0000,2333A,118.1825,26.6489,南平市,南平铝业有限公司,,14,8,13,3,6,42,,55,50,3,7,5,4,0.5,0.5
2025-08-18T0000,2334A,118.1756,26.6272,南平市,南平七中,,13,10,13,3,5,41,,54,50,2,4,3,4,0.5,0.5
2025-08-18T0000,1168A,120.9098,31.9663,南通市,狼山街道,,26,23,28,18,18,34,,120,66,19,19,4,6,0.4,0.4
2025-08-18T0000,1169A,120.86,32.0005,南通市,虹桥,,20,20,24,14,19,35,,118,72,20,19,4,6,0.6,0.5
2025-08-18T0000,1170A,120.87,32.02,南通市,城中,,24,24,30,12,17,35,,111,67,20,19,5,8,0.3,0.2
2025-08-18T0000,1171A,120.94,31.93,南通市,星湖花园,,19,13,23,13,18,37,,125,66,19,16,3,6,0.4,0.4
2025-08-18T0000,1172A,120.81,32.0417,南通市,紫琅学院,,16,12,23,11,14,30,,111,70,23,18,5,6,0.5,0.5
2025-08-18T0000,3291A,121.067,32.062,南通市,通州监测站,,16,14,23,7,18,51,,120,68,7,9,1,2,0.5,0.5
2025-08-18T0000,3432A,120.9348,31.9883,南通市,环境教育馆,,27,27,31,11,15,41,,132,70,14,12,4,7,0.2,0.2
2025-08-18T0000,2404A,112.5224,33.0122,南阳市,瓦房庄,,29,29,27,14,10,72,,98,78,9,9,7,7,0.4,0.4
2025-08-18T0000,2405A,112.5003,32.9735,南阳市,汉画馆,,29,29,25,9,6,66,,98,78,14,11,9,8,0.6,0.5
2025-08-18T0000,2406A,112.5573,33.027,南阳市,气象站,,30,30,17,14,6,83,,104,82,14,13,8,9,0.3,0.3
2025-08-18T0000,2407A,112.5481,32.9689,南阳市,理工学院,,27,27,22,9,5,74,,97,78,10,10,8,9,0.6,0.5
2025-08-18T0000,4008A,112.5234,32.9922,南阳市,卧龙区政府,,28,28,25,18,10,59,,99,76,28,14,6,7,0.7,0.6
2025-08-18T0000,1234A,121.8358,29.911,宁波市,区环保大楼,,14,10,25,6,13,43,,75,55,6,9,4,5,0.5,0.5
2025-08-18T0000,1235A,121.56,29.82,宁波市,万里学院,,18,18,24,8,13,48,,65,61,12,8,6,7,0.4,0.4
2025-08-18T0000,1236A,121.713,29.9572,宁波市,龙赛医院,,15,14,24,9,12,46,,77,61,6,9,3,5,0.3,0.3
2025-08-18T0000,1239A,121.633,29.7733,宁波市,钱湖水厂,,15,10,16,3,12,48,,65,63,7,7,5,5,0.3,0.3
2025-08-18T0000,1240A,121.5856,29.8635,宁波市,太古小学,,16,6,20,6,12,49,,62,59,2,3,2,2,0.6,0.5
2025-08-18T0000,1241A,121.524,29.8674,宁波市,市环境监测中心,,19,19,20,3,8,49,,60,55,7,8,7,9,0.4,0.5
2025-08-18T0000,2871A,121.6147,29.9017,宁波市,万里国际学校,,17,14,18,6,14,52,,68,64,5,4,3,5,0.5,0.5
2025-08-18T0000,3710A,121.5594,29.8975,宁波市,白沙活动中心,,16,12,17,3,7,51,,64,60,4,8,5,7,0.5,0.6
2025-08-18T0000,2339A,119.5001,26.6946,宁德市,金涵水库,,,,,,,,,,,,,,,,
2025-08-18T0000,2341A,119.5388,26.6612,宁德市,宁德市监测站,,17,11,13,6,6,54,,54,52,6,9,2,3,0.4,0.4
2025-08-18T0000,3209A,119.5231,26.6562,宁德市,宁德一中,,22,,14,15,11,56,,56,54,2,5,3,4,0.2,0.2
2025-08-18T0000,2618A,98.8601,25.8567,怒江傈僳族自治州,州监测站,,20,20,18,7,10,28,,55,44,6,6,6,6,0.4,0.4
2025-08-18T0000,2619A,98.8546,25.8417,怒江傈僳族自治州,泸水一中,,18,16,13,12,14,8,,44,29,10,8,4,4,0.4,0.4
2025-08-18T0000,1888A,101.6891,26.571,攀枝花市,弄弄坪,,38,38,32,13,14,38,,100,77,16,13,15,12,0.8,1.1
2025-08-18T0000,1889A,101.5769,26.5928,攀枝花市,河门口,,31,31,24,14,13,22,,84,56,17,12,7,7,0.6,0.7
2025-08-18T0000,1890A,101.7169,26.585,攀枝花市,炳草岗,,36,32,29,25,15,27,,101,68,24,16,7,7,1.0,0.9
2025-08-18T0000,1891A,101.7369,26.5008,攀枝花市,仁和,,21,21,22,13,13,24,,84,54,12,7,7,8,0.7,0.6
2025-08-18T0000,2835A,101.7227,26.567,攀枝花市,四十中小,,30,30,24,14,15,29,,98,69,27,14,29,14,2.6,1.3
2025-08-18T0000,1604A,122.0303,41.1489,盘锦市,开发区,,25,25,17,10,12,60,,116,94,18,9,6,6,0.4,0.4
2025-08-18T0000,1605A,122.0485,41.0883,盘锦市,兴隆台,,23,16,23,6,10,72,,121,101,17,10,8,7,0.4,0.4
2025-08-18T0000,1606A,121.8297,41.1028,盘锦市,新生街道,,17,17,15,9,10,51,,98,67,23,14,5,4,0.5,0.5
2025-08-18T0000,1832A,113.3257,33.742,平顶山市,新华旅馆,,48,43,27,33,17,80,,112,105,17,12,8,5,0.6,0.5
2025-08-18T0000,1833A,113.2919,33.737,平顶山市,规划设计院,,35,35,23,20,11,72,,111,102,17,12,5,5,0.8,0.6
2025-08-18T0000,1834A,113.182,33.774,平顶山市,平顶山工学院,,31,31,19,12,7,86,,112,106,15,11,5,5,0.5,0.4
2025-08-18T0000,3204A,113.3025,33.73,平顶山市,规划局,,36,36,25,15,7,75,,118,111,18,13,5,5,0.4,0.2
2025-08-18T0000,3594A,112.8867,33.9116,平顶山市,石龙区,颗粒物(PM10),69,88,34,22,12,76,,98,91,24,13,8,8,0.7,0.4
2025-08-18T0000,2656A,106.6692,35.5461,平凉市,聚贤嘉苑,,,32,33,7,12,62,,92,78,14,11,,7,0.6,0.5
2025-08-18T0000,2657A,106.7021,35.5307,平凉市,博物馆,,31,31,32,8,10,68,,89,75,11,11,9,8,0.4,0.4
2025-08-18T0000,2347A,114.0997,27.5002,萍乡市,武功山,,9,6,4,3,4,28,,54,42,4,4,7,7,0.6,0.6
2025-08-18T0000,2348A,113.8385,27.6434,萍乡市,中医院,,29,29,24,13,12,22,,93,58,29,15,11,16,0.6,0.6
2025-08-18T0000,2349A,113.8493,27.6253,萍乡市,市政府车库,,28,,19,19,18,28,,83,50,11,11,9,13,0.3,0.7
2025-08-18T0000,2350A,113.8676,27.6435,萍乡市,市环保局,,35,28,27,24,20,22,,85,55,35,25,17,22,0.5,0.9
2025-08-18T0000,2351A,113.866,27.6198,萍乡市,安源区政府,,43,43,28,19,16,22,,82,48,10,10,12,16,0.5,0.9
2025-08-18T0000,2319A,119.0141,25.4325,莆田市,荔城区仓后路,,11,10,16,3,5,35,,47,36,4,5,6,6,0.6,0.6
2025-08-18T0000,2320A,119.0015,25.4553,莆田市,莆田市监测站,,10,8,14,3,3,30,,49,35,6,6,4,5,0.4,0.4
2025-08-18T0000,2321A,119.1119,25.4561,莆田市,涵江区六中,,14,11,15,3,2,43,,48,40,5,5,5,4,0.5,0.4
2025-08-18T0000,2322A,119.1013,25.3215,莆田市,秀屿区政府,,14,12,18,3,5,43,,46,45,10,8,4,5,0.4,0.3
2025-08-18T0000,2323A,118.981,25.4792,莆田市,东圳水库,,,,,,,,,,,,,,,,
2025-08-18T0000,2392A,115.0312,35.7636,濮阳市,环保局,,38,32,23,26,19,76,,111,98,14,8,3,3,0.4,0.3
2025-08-18T0000,2394A,115.0574,35.7609,濮阳市,油田运输公司,,40,40,30,18,15,74,,110,97,10,7,2,2,0.6,0.6
2025-08-18T0000,3021A,115,35.7668,濮阳市,濮水河管理处,,,,,,,,,,,,,,,,
2025-08-18T0000,4216A,115.0924,35.7686,濮阳市,任丘路479号,,47,47,35,22,20,62,,99,85,11,7,2,2,0.6,0.5
2025-08-18T0000,2601A,100.98,22.7633,普洱市,市环保局,,36,34,28,25,16,12,,52,36,6,5,6,6,0.5,0.5
2025-08-18T0000,2602A,100.9817,22.8322,普洱市,普洱第二中学,,26,26,26,8,9,17,,51,36,7,6,6,6,0.5,0.5
2025-08-18T0000,2262A,131.0518,45.8751,七台河市,新一中,,18,18,11,10,5,10,,76,42,20,9,10,9,0.8,0.8
2025-08-18T0000,3345A,131.0577,45.7879,七台河市,中波台,,16,16,9,7,8,33,,54,34,15,12,7,7,0.4,0.4
2025-08-18T0000,3637A,131.0176,45.7761,七台河市,人民广场,,24,24,15,8,10,33,,61,38,14,12,10,10,0.4,0.5
2025-08-18T0000,3684A,130.8781,45.8222,七台河市,新建矿广场,,11,,18,7,10,8,,52,22,21,14,9,10,0.5,0.4
2025-08-18T0000,1779A,123.9305,47.3636,齐齐哈尔市,安居小区,,15,10,24,3,5,45,,57,47,8,13,7,5,0.3,0.4
2025-08-18T0000,1780A,123.9488,47.3386,齐齐哈尔市,中心广场,,18,18,18,3,2,48,,61,50,7,9,5,5,0.4,0.4
2025-08-18T0000,1781A,123.9483,47.3227,齐齐哈尔市,农牧车辆厂,,19,19,22,7,6,46,,58,46,6,9,6,6,0.4,0.4
2025-08-18T0000,1783A,123.945,47.2988,齐齐哈尔市,市环境监测站,,15,14,14,3,6,48,,58,51,7,11,7,6,0.2,0.2
2025-08-18T0000,3662A,123.6333,47.2075,齐齐哈尔市,富区青少年活动中心,,13,13,18,3,6,40,,52,43,5,8,4,4,0.3,0.3
2025-08-18T0000,2591A,107.9783,26.5747,黔东南苗族侗族自治州,市环境监测站,,18,13,10,12,11,6,,52,20,16,9,2,2,0.2,0.2
2025-08-18T0000,2881A,107.8908,26.5311,黔东南苗族侗族自治州,凯里学院,,8,6,8,3,6,17,,56,29,5,7,3,3,0.4,0.6
2025-08-18T0000,2593A,107.5228,26.2403,黔南布依族苗族自治州,小围寨,,17,17,7,3,1,1,,39,24,10,6,2,2,0.3,0.2
2025-08-18T0000,3538A,107.5175,26.2978,黔南布依族苗族自治州,沙坝,,27,27,13,3,0,0,,42,20,10,6,3,3,0.3,0.2
2025-08-18T0000,2589A,104.9022,25.0925,黔西南布依族苗族自治州,场坝街,,20,20,16,3,7,22,,61,46,13,10,4,5,0.4,0.3
2025-08-18T0000,2590A,104.8811,25.0992,黔西南布依族苗族自治州,坪东大道,,27,27,18,15,9,8,,62,39,21,10,2,3,0.6,0.4
2025-08-18T0000,2502A,108.6236,21.9667,钦州市,市环保站,,21,17,19,9,9,66,,88,70,11,9,3,3,0.7,0.8
2025-08-18T0000,2503A,108.6549,21.9481,钦州市,沙埠小学,,22,14,22,8,10,69,,88,68,8,9,3,3,0.4,0.5
2025-08-18T0000,2504A,108.5989,21.7431,钦州市,港区一小,,32,32,23,12,11,40,,79,49,21,18,4,4,0.5,0.4
2025-08-18T0000,3404A,108.5959,21.9633,钦州市,北职校,,22,22,22,9,11,43,,87,59,12,7,1,1,0.4,0.4
2025-08-18T0000,1043A,119.7493,40.0116,秦皇岛市,第一关,,50,39,30,17,15,16,,117,73,99,30,5,5,0.3,0.4
2025-08-18T0000,1044A,119.5897,39.9499,秦皇岛市,监测站,,33,33,42,9,10,79,,121,101,19,21,4,5,0.4,0.5
2025-08-18T0000,1046A,119.5251,39.9041,秦皇岛市,建设大厦,颗粒物(PM10),51,52,40,8,10,62,,124,104,29,16,6,7,0.4,0.5
2025-08-18T0000,3132A,119.610547,39.943889,秦皇岛市,文明里,,35,35,40,10,12,80,,126,112,20,13,5,5,0.2,0.3
2025-08-18T0000,4198A,119.5090,39.8253,秦皇岛市,北戴河轮滑馆,,47,47,41,17,20,85,,129,125,12,9,2,3,0.4,0.5
2025-08-18T0000,1307A,120.6659,36.2403,青岛市,仰口,,36,34,37,25,23,92,,112,96,4,6,9,9,0.8,0.9
2025-08-18T0000,1310A,120.4134,36.0658,青岛市,市南区东部子站,,39,34,36,27,25,69,,125,88,2,4,6,7,0.0,0.1
2025-08-18T0000,1311A,120.3664,36.1032,青岛市,四方区子站,,28,27,35,19,24,80,,143,104,2,3,4,5,0.2,0.3
2025-08-18T0000,1312A,120.2994,36.054,青岛市,市南区西部子站,,25,24,39,17,20,62,,118,84,6,11,4,5,0.5,0.6
2025-08-18T0000,1313A,120.4581,36.0858,青岛市,崂山区子站,,29,29,44,17,20,66,,114,83,3,8,7,7,0.2,0.2
2025-08-18T0000,1315A,120.3999,36.3083,青岛市,城阳区子站,,,34,40,15,19,48,,106,71,4,10,6,6,,0.5
2025-08-18T0000,1966A,120.0405,35.8735,青岛市,黄岛区4号,,31,31,38,17,20,79,,147,115,2,6,5,5,0.4,0.5
2025-08-18T0000,3362A,120.5014,36.4034,青岛市,即墨2号,,37,37,42,25,22,87,,138,113,5,9,4,3,0.2,0.3
2025-08-18T0000,3642A,120.3503,36.0736,青岛市,市北区南部,,38,38,33,19,22,69,,131,90,10,11,6,6,0.6,0.7
2025-08-18T0000,3643A,120.3948,36.1805,青岛市,李沧区北部,,39,,31,27,27,71,,120,86,2,8,8,8,0.2,0.3
2025-08-18T0000,4290A,120.1969,35.9546,青岛市,珠江路669号,,36,36,35,24,26,76,,143,111,1,4,5,5,0.4,0.5
2025-08-18T0000,1702A,113.0426,23.691,清远市,环保大楼,,12,12,23,6,9,35,,75,48,6,12,9,9,0.8,0.8
2025-08-18T0000,1703A,113.0208,23.7106,清远市,凤城街办,,11,9,19,3,8,33,,66,45,11,14,7,7,0.4,0.4
2025-08-18T0000,3025A,113.0477,23.6344,清远市,技师学院,,13,13,22,6,11,28,,65,38,11,17,8,10,0.4,0.4
2025-08-18T0000,3318A,112.9903,23.7403,清远市,清新太和,,11,11,20,3,9,33,,64,43,11,12,6,7,0.4,0.4
2025-08-18T0000,3455A,113.076,23.7198,清远市,清城东城,,12,12,18,3,7,27,,60,40,8,12,7,7,0.5,0.5
2025-08-18T0000,2661A,107.6325,35.7357,庆阳市,庆阳五中,,30,17,19,6,6,93,,85,85,6,6,7,7,0.4,0.4
2025-08-18T0000,2662A,107.6364,35.7067,庆阳市,市环保局,,30,17,19,6,5,94,,91,90,4,4,4,4,0.2,0.3
2025-08-18T0000,1916A,103.7897,25.5035,曲靖市,环境监测站,,23,23,16,3,6,34,,71,50,16,12,9,6,0.6,0.5
2025-08-18T0000,1917A,103.8,25.5364,曲靖市,烟厂办公区,,21,21,13,6,5,39,,72,58,12,9,5,4,0.7,0.6
2025-08-18T0000,3376A,103.7947,25.462,曲靖市,南苑二区,,26,26,13,8,6,30,,74,50,15,8,4,4,0.8,0.6
2025-08-18T0000,3377A,103.7444,25.5261,曲靖市,曲靖师范学院,,20,18,12,14,7,37,,78,58,17,10,10,7,0.5,0.3
2025-08-18T0000,1264A,118.8692,28.9398,衢州市,环保大楼,,36,36,24,20,11,29,,94,57,28,14,3,3,0.3,0.3
2025-08-18T0000,1265A,118.8709,28.9666,衢州市,实验学校,,26,26,21,9,9,26,,96,63,30,13,1,2,0.3,0.2
2025-08-18T0000,1266A,118.8621,28.9808,衢州市,衢州学院,,25,25,20,13,9,23,,98,62,34,14,4,4,0.3,0.3
2025-08-18T0000,1611A,118.5819,24.9117,泉州市,涂山街,,17,17,19,10,9,31,,64,43,11,8,4,3,0.4,0.4
2025-08-18T0000,1612A,118.5972,24.8978,泉州市,津头埔,,19,19,21,10,9,29,,65,43,10,6,3,3,0.4,0.4
2025-08-18T0000,1613A,118.6663,24.9424,泉州市,万安,,22,22,21,7,7,26,,58,39,12,6,2,2,0.4,0.4
2025-08-18T0000,1614A,118.6117,24.9604,泉州市,清源山,,,,,,,,,,,,,,,,
2025-08-18T0000,3529A,118.6333,24.9264,泉州市,城华南路,,17,17,18,9,8,24,,62,40,11,7,3,2,0.3,0.3
2025-08-18T0000,2626A,88.8876,29.2718,日喀则市,日喀则监测站,,21,6,8,3,2,65,,90,80,3,6,11,10,0.3,0.3
2025-08-18T0000,3726A,88.8781,29.2426,日喀则市,林业技术推广中心,,19,8,8,3,2,60,,86,77,3,3,5,5,0.2,0.2
2025-08-18T0000,1659A,119.471,35.4209,日照市,监测站,,39,39,42,22,24,81,,183,103,20,20,8,10,0.5,0.7
2025-08-18T0000,1660A,119.523,35.4216,日照市,市政府广场,,32,31,42,22,20,83,,170,111,10,18,6,8,0.7,0.9
2025-08-18T0000,1661A,119.5587,35.4044,日照市,港务局,,42,34,46,29,28,84,,160,110,10,23,9,11,0.6,0.8
2025-08-18T0000,3507A,119.5328,35.4625,日照市,职业技术学院,,36,36,43,19,21,85,,171,115,9,16,4,7,0.6,0.8
2025-08-18T0000,3604A,119.3266,35.1044,日照市,岚山环保分局,颗粒物(PM10),51,51,41,18,18,82,,175,110,21,16,7,9,0.7,0.7
2025-08-18T0000,1835A,111.1922,34.7752,三门峡市,市政府,,45,45,36,23,19,103,,126,122,8,9,4,5,0.6,0.5
2025-08-18T0000,1836A,111.1587,34.7942,三门峡市,开发区,,48,48,38,28,24,100,,128,123,12,13,2,4,0.5,0.5
2025-08-18T0000,1838A,111.143,34.7955,三门峡市,风景区,,42,36,33,29,20,109,,136,131,8,9,3,5,0.5,0.5
2025-08-18T0000,3039A,111.1911,34.7829,三门峡市,三门峡市第一小学,,37,37,38,23,21,100,,126,122,7,9,6,6,0.6,0.6
2025-08-18T0000,3598A,111.1,34.7167,三门峡市,富达温泉假日酒店,,48,34,29,33,19,97,,123,120,10,8,2,3,0.4,0.3
2025-08-18T0000,2324A,117.6211,26.2625,三明市,三钢,,16,16,14,6,12,20,,58,36,17,10,2,2,0.5,0.5
2025-08-18T0000,2325A,117.635,26.2714,三明市,三明二中,,20,,33,14,11,20,,55,33,13,6,2,2,0.5,0.4
2025-08-18T0000,2326A,117.6028,26.2378,三明市,三元区政府,,20,20,16,10,7,6,,60,34,26,11,4,2,0.5,0.4
2025-08-18T0000,2327A,117.7275,26.3108,三明市,洋溪,,,,,,,,,,,,,,,,
2025-08-18T0000,1876A,109.5078,18.2489,三亚市,河东子站,,6,6,9,3,2,16,,32,27,10,4,2,2,0.6,0.5
2025-08-18T0000,1877A,109.4964,18.2681,三亚市,河西子站,,7,7,8,3,1,19,,34,29,9,6,2,2,0.4,0.4
2025-08-18T0000,3540A,109.7348,18.3443,三亚市,君悦子站,,,,10,1,2,30,,37,32,5,6,1,1,0.4,0.4
2025-08-18T0000,2624A,91.7608,29.2313,山南市,山南监测站,,24,6,7,3,3,74,,86,84,1,3,2,2,0.2,0.3
2025-08-18T0000,2625A,91.7706,29.2436,山南市,山南人民医院,,23,8,8,6,4,72,,85,83,1,3,3,3,0.2,0.2
2025-08-18T0000,1674A,116.6794,23.3667,汕头市,金平子站,,11,10,15,3,7,33,,64,50,10,13,2,2,0.5,0.6
2025-08-18T0000,1675A,116.7244,23.3633,汕头市,龙湖子站,,10,8,16,3,6,32,,64,50,7,9,6,7,0.6,0.6
2025-08-18T0000,1676A,116.7258,23.2775,汕头市,濠江子站,,12,12,19,3,7,24,,57,41,9,11,5,5,0.5,0.5
2025-08-18T0000,1677A,116.7519,23.4714,汕头市,澄海子站,,20,20,22,8,8,44,,64,54,7,12,2,4,0.5,0.5
2025-08-18T0000,1678A,116.6092,23.2539,汕头市,潮阳子站,,10,6,17,3,6,30,,55,42,7,8,5,5,0.4,0.4
2025-08-18T0000,3444A,116.454,23.2684,汕头市,潮南峡山,,10,10,18,3,8,27,,53,39,8,10,5,6,0.5,0.5
2025-08-18T0000,3624A,116.4069,23.2533,汕头市,潮南子站,,11,11,19,3,7,26,,48,37,5,9,4,5,0.5,0.5
2025-08-18T0000,1693A,115.3653,22.775,汕尾市,市环保局,,9,6,16,6,7,28,,52,38,7,6,3,3,0.4,0.4
2025-08-18T0000,1694A,115.3706,22.7898,汕尾市,市政府,,11,11,14,3,7,26,,54,36,8,8,4,4,0.4,0.5
2025-08-18T0000,1695A,115.3622,22.7925,汕尾市,新城中学,,11,11,15,3,6,27,,54,36,7,7,4,4,0.4,0.4
2025-08-18T0000,2645A,109.9154,33.8715,商洛市,监测站,,19,19,20,7,10,8,,74,32,21,11,6,8,0.5,0.6
2025-08-18T0000,3045A,109.9643,33.8471,商洛市,商州区中学,,32,32,29,11,8,3,,72,32,24,12,4,8,0.4,0.5
2025-08-18T0000,2408A,115.6702,34.4285,商丘市,环境监测站,,32,24,26,14,12,101,,108,101,10,7,1,1,0.5,0.5
2025-08-18T0000,2409A,115.6458,34.4045,商丘市,粮食局,,31,29,25,10,5,97,,107,101,10,6,3,2,0.4,0.4
2025-08-18T0000,2410A,115.6293,34.3948,商丘市,睢阳区环保局,,36,36,29,16,13,96,,100,93,9,9,5,5,0.3,0.3
2025-08-18T0000,3171A,115.6071,34.4465,商丘市,梁园区档案局,,42,42,26,18,11,62,,103,94,25,8,2,2,0.4,0.4
2025-08-18T0000,1141A,121.4,31.238,上海市,普陀,,15,13,26,6,15,46,,75,54,15,12,5,7,0.3,0.3
2025-08-18T0000,1142A,121.478,31.2036,上海市,十五厂,,14,12,25,7,17,43,,69,53,8,8,8,9,0.5,0.5
2025-08-18T0000,1143A,121.467,31.3008,上海市,虹口,,14,11,25,9,17,44,,71,51,7,7,4,6,0.7,0.3
2025-08-18T0000,1147A,121.425,31.2261,上海市,静安监测站,,14,14,26,3,17,33,,52,40,10,10,3,5,0.6,0.6
2025-08-18T0000,1148A,121.703,31.1907,上海市,浦东川沙,,18,18,28,6,18,36,,68,51,16,10,7,6,0.5,0.4
2025-08-18T0000,1149A,121.533,31.2284,上海市,浦东新区监测站,,20,14,24,14,20,44,,68,55,8,6,8,9,0.4,0.4
2025-08-18T0000,1150A,121.577,31.2071,上海市,浦东张江,,16,16,26,10,18,50,,78,63,11,9,6,7,0.5,0.5
2025-08-18T0000,3265A,121.4316,31.3322,上海市,宝山庙行,,13,8,65,8,16,41,,66,48,9,10,9,9,0.3,0.3
2025-08-18T0000,3266A,121.8791,31.4662,上海市,崇明上实东滩,,15,11,25,7,21,27,,56,51,30,12,6,6,0.3,0.3
2025-08-18T0000,3268A,121.3162,31.2838,上海市,嘉定南翔,,15,11,25,10,18,39,,80,48,17,14,3,5,0.2,0.2
2025-08-18T0000,3269A,121.3359,30.7456,上海市,金山新城,,17,12,23,6,15,52,,91,65,6,7,4,4,0.5,0.5
2025-08-18T0000,3270A,121.4996,31.0739,上海市,闵行浦江,,13,11,23,6,12,39,,63,53,10,7,4,5,0.7,0.6
2025-08-18T0000,3271A,121.2886,31.1663,上海市,青浦徐泾,,14,12,20,6,15,42,,82,53,14,11,7,8,0.5,0.5
2025-08-18T0000,3272A,121.2186,31.0378,上海市,松江图书馆,,19,,22,13,22,48,,83,59,12,13,7,9,0.8,0.7
2025-08-18T0000,3273A,121.3902,31.2059,上海市,长宁仙霞,,14,13,24,3,16,43,,71,53,12,11,6,7,0.5,0.5
2025-08-18T0000,3274A,121.7965,31.0507,上海市,浦东惠南,,16,,23,11,24,36,,68,56,12,8,10,11,0.7,0.6
2025-08-18T0000,3544A,121.4891,30.925,上海市,奉贤南桥新城,,16,10,22,6,19,49,,74,57,2,6,4,6,0.6,0.6
2025-08-18T0000,4183A,121.4174,31.16637,上海市,冠生园路458号,,15,15,24,7,18,41,,68,53,17,13,3,4,0.6,0.6
2025-08-18T0000,4205A,121.5419,31.2683,上海市,宁武路151号,,14,14,70,8,21,39,,62,48,14,15,3,3,0.3,0.2
2025-08-18T0000,2381A,118.005,28.4572,上饶市,百草园,,,,,,,,,,,,,,,,
2025-08-18T0000,2382A,117.9756,28.4436,上饶市,市监测站,,29,29,23,12,10,32,,66,51,22,11,8,8,0.4,0.4
2025-08-18T0000,2383A,117.9519,28.4628,上饶市,凤凰光学,,26,26,22,10,9,57,,61,59,18,14,10,9,0.8,0.7
2025-08-18T0000,3685A,117.897,28.4315,上饶市,双创科技城,,40,40,24,17,10,40,,72,58,19,10,23,16,0.6,0.4
2025-08-18T0000,4211A,118.1904,28.4448,上饶市,裕丰大道,,13,9,8,9,8,26,,56,43,10,8,21,14,0.3,0.3
2025-08-18T0000,1669A,113.5824,24.7733,韶关市,市八中,,25,25,37,13,16,14,,77,40,21,13,20,14,0.7,0.7
2025-08-18T0000,1671A,113.5917,24.7972,韶关市,园林处,,28,28,26,17,16,16,,70,42,19,11,12,17,0.4,0.5
2025-08-18T0000,1673A,113.5971,24.6863,韶关市,曲江监测站,,16,16,31,8,18,24,,79,41,13,16,6,11,0.5,0.7
