timepoint,stationcode,longitude,latitude,area,positionname,primarypollutant,aqi,pm10,pm10_24h,pm2_5,pm2_5_24h,o3,o3_24h,o3_8h,o3_8h_24h,no2,no2_24h,so2,so2_24h,co,co_24h
2024-12-29T2100,2566A,102.1879,31.914,阿坝藏族羌族自治州,州农科所,颗粒物(PM10),53,55,38,18,12,31,,53,48,36,17,8,9,1.4,0.9
2024-12-29T2100,2568A,102.2502,31.8896,阿坝藏族羌族自治州,马师校,细颗粒物(PM2.5),52,48,20,36,14,10,,48,35,50,24,4,4,0.7,0.4
2024-12-29T2100,3994A,102.2165,31.9024,阿坝藏族羌族自治州,马尔康中学西区,颗粒物(PM10),52,54,27,30,14,24,,55,47,42,20,7,6,0.9,0.5
2024-12-29T2100,2695A,80.292,41.1694,阿克苏地区,电视台,细颗粒物(PM2.5),118,144,114,89,74,38,,63,61,58,45,1,3,1.4,1.7
2024-12-29T2100,2696A,80.2613,41.1551,阿克苏地区,艺术中心,细颗粒物(PM2.5),118,158,132,89,82,19,,59,56,71,49,3,4,1.3,1.6
2024-12-29T2100,2204A,105.6467,38.8363,阿拉善盟,西城区西花园,颗粒物(PM10),77,104,148,49,43,30,,88,67,47,22,10,9,1.3,0.8
2024-12-29T2100,2205A,105.6985,38.8411,阿拉善盟,蒙二幼,颗粒物(PM10),76,101,114,31,24,56,,87,71,26,18,4,4,0.7,0.6
2024-12-29T2100,2206A,105.724,38.8516,阿拉善盟,环保局新楼,颗粒物(PM10),74,97,74,26,19,90,,94,86,7,7,8,7,0.5,0.5
2024-12-29T2100,2708A,88.1264,47.8517,阿勒泰地区,市站,,25,22,29,10,19,26,,44,42,49,40,8,9,0.5,0.5
2024-12-29T2100,2630A,80.1161,32.5,阿里地区,阿里监测站,,26,13,8,11,5,82,,92,92,16,8,12,12,0.6,0.5
2024-12-29T2100,3192A,80.0903,32.5028,阿里地区,阿里藏医院,,,15,9,3,6,,,95,95,12,8,14,12,0.6,0.6
2024-12-29T2100,2642A,109.0318,32.6537,安康市,香溪洞,,43,41,58,30,41,69,,67,67,11,21,8,10,0.4,0.6
2024-12-29T2100,2644A,109.0072,32.6975,安康市,汉滨区检察院,细颗粒物(PM2.5),63,67,60,45,43,19,,62,57,62,30,6,6,0.8,0.7
2024-12-29T2100,4054A,109.0325,32.6913,安康市,市邮政管理局,细颗粒物(PM2.5),99,112,73,74,49,8,,50,40,70,39,8,7,1.3,0.8
2024-12-29T2100,2291A,117.0809,30.5177,安庆市,环科院,细颗粒物(PM2.5),82,85,89,60,57,6,,72,57,101,63,8,7,0.9,0.8
2024-12-29T2100,2292A,117.0331,30.5119,安庆市,马山宾馆,细颗粒物(PM2.5),99,99,88,74,57,19,,81,71,86,52,17,10,1.1,0.7
2024-12-29T2100,2294A,116.9896,30.6145,安庆市,安庆大学,细颗粒物(PM2.5),84,88,95,62,63,42,,82,74,58,56,10,12,0.7,0.9
2024-12-29T2100,3173A,117.0598,30.5351,安庆市,市人大,细颗粒物(PM2.5),107,137,95,80,64,2,,85,73,112,62,9,8,1.3,0.8
2024-12-29T2100,3122A,105.9606,26.2611,安顺市,伍家关,,,,,,,,,,,,,,,,
2024-12-29T2100,3123A,105.9408,26.2431,安顺市,凤凰山,细颗粒物(PM2.5),72,58,51,52,42,54,,74,68,29,21,35,16,0.8,0.7
2024-12-29T2100,3124A,105.9439,26.2564,安顺市,金钟山,细颗粒物(PM2.5),69,62,47,50,40,59,,77,71,19,14,45,22,0.8,0.7
2024-12-29T2100,3125A,105.8983,26.2481,安顺市,娄家坡,细颗粒物(PM2.5),74,65,49,54,40,52,,74,67,24,15,49,16,0.8,0.6
2024-12-29T2100,1818A,114.4839,36.0621,安阳市,棉研所,细颗粒物(PM2.5),89,94,93,66,48,16,,44,38,48,41,12,11,0.8,0.7
2024-12-29T2100,1819A,114.3551,36.1017,安阳市,红庙街,细颗粒物(PM2.5),80,94,81,59,47,16,,37,33,48,39,10,13,1.3,1
2024-12-29T2100,1820A,114.361,36.0681,安阳市,银杏小区,细颗粒物(PM2.5),74,93,83,54,44,20,,34,31,57,46,15,9,1.0,0.9
2024-12-29T2100,3141A,114.3922,36.0878,安阳市,信访局,颗粒物(PM10),67,84,89,47,42,24,,35,34,38,45,21,6,0.9,0.7
2024-12-29T2100,3669A,114.4705,36.0637,安阳市,左辅环卫站,细颗粒物(PM2.5),88,109,101,65,53,15,,47,41,49,38,10,9,0.9,0.8
2024-12-29T2100,3703A,114.2917,36.0949,安阳市,安钢职工学校,细颗粒物(PM2.5),90,100,85,67,50,8,,37,29,62,44,12,7,1.2,0.9
2024-12-29T2100,1748A,123.044,41.1196,鞍山市,深沟寺,颗粒物(PM10),55,60,56,20,33,58,,63,59,16,24,10,14,0.8,1.1
2024-12-29T2100,1749A,123.011,41.0931,鞍山市,太阳城,颗粒物(PM10),58,65,56,31,29,62,,65,62,19,26,10,13,0.6,1.1
2024-12-29T2100,1750A,123.0485,41.1442,鞍山市,太平,颗粒物(PM10),58,65,68,31,35,52,,60,54,24,32,11,13,0.8,1
2024-12-29T2100,1751A,122.9642,41.0971,鞍山市,铁西三道街,颗粒物(PM10),64,78,80,33,39,42,,52,39,37,45,15,17,0.9,1.3
2024-12-29T2100,1752A,122.9341,41.0833,鞍山市,铁西工业园区,颗粒物(PM10),62,73,93,32,45,50,,62,55,31,46,10,12,1.1,1.4
2024-12-29T2100,1753A,123.022,41.0821,鞍山市,明达新区,颗粒物(PM10),61,71,58,30,28,62,,64,61,13,18,11,13,0.6,1.1
2024-12-29T2100,1754A,123.1289,41.0228,鞍山市,千山,,,,36,,20,,,44,,,17,,6,,0.6
2024-12-29T2100,2195A,107.4212,40.761,巴彦淖尔市,附二中,颗粒物(PM10),124,198,344,44,45,70,,80,79,16,10,6,6,0.4,0.4
2024-12-29T2100,2196A,107.37,40.7372,巴彦淖尔市,市环保大楼,颗粒物(PM10),116,181,337,47,45,68,,81,79,12,6,4,4,0.4,0.4
2024-12-29T2100,1956A,86.1472,41.7538,巴音郭楞蒙古自治州,孔雀公园,颗粒物(PM10),58,66,185,33,48,52,,51,51,19,46,6,4,0.6,0.8
2024-12-29T2100,1957A,86.1972,41.7166,巴音郭楞蒙古自治州,棉纺厂,颗粒物(PM10),68,86,221,28,35,54,,52,52,18,40,6,4,0.6,0.6
2024-12-29T2100,1958A,86.2357,41.7173,巴音郭楞蒙古自治州,经济开发区,颗粒物(PM10),57,64,161,31,28,44,,54,54,30,30,7,4,0.5,0.4
2024-12-29T2100,2914A,106.7677,31.8794,巴中市,苏山坪,细颗粒物(PM2.5),100,92,68,75,52,53,,78,42,19,16,2,2,0.5,0.4
2024-12-29T2100,3182A,106.7656,31.8545,巴中市,丽阳花园,细颗粒物(PM2.5),155,168,89,118,63,6,,15,11,57,48,4,4,1.2,0.8
2024-12-29T2100,3183A,106.7418,31.8654,巴中市,圣泉水务公司,细颗粒物(PM2.5),159,160,79,121,55,6,,38,15,58,39,3,2,0.8,0.5
2024-12-29T2100,3616A,106.7616,31.8344,巴中市,市中心医院,细颗粒物(PM2.5),139,176,102,106,77,6,,10,10,50,47,3,3,1.2,0.9
2024-12-29T2100,2235A,122.7911,45.6077,白城市,洮北区环保局,细颗粒物(PM2.5),88,83,53,65,54,18,,53,47,53,33,4,5,1.0,0.7
2024-12-29T2100,2236A,122.8738,45.5725,白城市,市环保局,细颗粒物(PM2.5),75,58,41,55,29,33,,46,42,29,30,4,5,0.6,0.5
2024-12-29T2100,2231A,126.4219,41.9171,白山市,喜丰,颗粒物(PM10),60,70,50,35,22,18,,57,52,51,24,43,24,1.0,0.8
2024-12-29T2100,2232A,126.4077,41.9419,白山市,环保局,颗粒物(PM10),63,76,61,40,27,21,,39,28,34,25,9,12,1.2,1
2024-12-29T2100,2647A,104.1724,36.5446,白银市,第三小学,细颗粒物(PM2.5),59,52,59,42,40,5,,64,52,81,40,64,73,1.2,1.1
2024-12-29T2100,2648A,104.1465,36.5482,白银市,动力公司,细颗粒物(PM2.5),52,50,50,36,39,10,,70,58,66,28,11,20,1.2,1
2024-12-29T2100,2512A,106.6103,23.9011,百色市,市监测站,细颗粒物(PM2.5),93,105,68,69,47,103,,128,126,30,24,19,20,1.0,0.9
2024-12-29T2100,2513A,106.6538,23.8859,百色市,市中心血站,细颗粒物(PM2.5),104,105,81,78,55,132,,131,131,26,27,20,24,0.9,0.9
2024-12-29T2100,3406A,106.6085,23.8798,百色市,祈福高中,颗粒物(PM10),85,119,82,61,43,119,,126,126,33,29,23,17,1.1,0.9
2024-12-29T2100,2270A,117.396,32.939,蚌埠市,工人疗养院,细颗粒物(PM2.5),85,89,72,63,42,70,,80,78,32,35,9,7,0.7,0.6
2024-12-29T2100,2271A,117.3605,32.9427,蚌埠市,百货大楼,细颗粒物(PM2.5),87,96,67,64,40,59,,73,69,38,33,11,8,0.8,0.6
2024-12-29T2100,2273A,117.4185,32.8911,蚌埠市,蚌埠学院,细颗粒物(PM2.5),84,97,77,62,43,60,,84,77,38,35,10,10,0.6,0.5
2024-12-29T2100,2274A,117.3533,32.9673,蚌埠市,淮上区政府,细颗粒物(PM2.5),88,97,74,65,43,63,,74,72,34,32,12,10,0.7,0.5
2024-12-29T2100,2275A,117.3145,32.8977,蚌埠市,高新区,细颗粒物(PM2.5),90,107,93,67,53,58,,74,69,42,50,14,9,0.6,0.5
2024-12-29T2100,3715A,117.3092,32.9314,蚌埠市,蚌埠田家炳中学,细颗粒物(PM2.5),94,105,83,70,48,59,,74,70,38,41,14,12,0.7,0.6
2024-12-29T2100,1585A,109.8756,40.6532,包头市,市环境监测站,颗粒物(PM10),239,377,228,61,53,9,,55,48,78,57,11,25,1.0,1.5
2024-12-29T2100,1587A,109.9991,40.5842,包头市,包头八中,颗粒物(PM10),290,413,267,85,67,12,,67,54,68,48,5,20,0.8,1
2024-12-29T2100,1588A,109.8538,40.6821,包头市,青山宾馆,颗粒物(PM10),200,349,208,61,65,6,,45,37,77,59,11,22,0.6,1.6
2024-12-29T2100,1589A,109.8642,40.6288,包头市,惠龙物流,颗粒物(PM10),243,380,236,63,52,7,,64,52,76,50,11,19,1.3,1.3
2024-12-29T2100,1590A,110.0377,40.5546,包头市,东河鸿龙湾,颗粒物(PM10),245,381,243,66,52,19,,68,57,63,43,12,17,1.1,1
2024-12-29T2100,3283A,109.9154,40.5685,包头市,滨河大厦,颗粒物(PM10),279,405,262,73,49,25,,74,63,51,39,9,11,0.8,0.9
2024-12-29T2100,3419A,109.9447,40.6261,包头市,包头市委党校,颗粒物(PM10),242,379,250,62,54,12,,70,55,81,61,6,20,0.8,1.4
2024-12-29T2100,3683A,109.8331,40.6576,包头市,昆区政府,颗粒物(PM10),246,382,223,77,63,15,,49,44,66,56,9,28,0.9,1.6
2024-12-29T2100,1930A,107.185,34.3063,宝鸡市,庙沟村,,32,,55,22,38,45,,57,57,34,33,6,7,0.5,0.5
2024-12-29T2100,1931A,107.0708,34.3017,宝鸡市,竹园沟,,46,36,58,32,45,40,,45,45,25,32,6,6,0.6,0.6
2024-12-29T2100,1932A,107.1906,34.3672,宝鸡市,三陆医院,细颗粒物(PM2.5),144,132,88,110,64,8,,23,18,67,48,6,6,1.2,0.9
2024-12-29T2100,1933A,107.1431,34.3547,宝鸡市,监测站,细颗粒物(PM2.5),92,75,73,68,48,10,,28,25,58,44,7,7,1.1,0.8
2024-12-29T2100,1934A,107.1186,34.3739,宝鸡市,技工学校,细颗粒物(PM2.5),93,70,76,69,50,27,,35,32,33,32,6,9,0.7,0.6
2024-12-29T2100,1935A,107.3906,34.3528,宝鸡市,陈仓区环保局家属楼,细颗粒物(PM2.5),219,185,111,169,78,14,,25,22,76,57,15,29,2.0,1
2024-12-29T2100,1936A,107.2058,34.3497,宝鸡市,文理学院,细颗粒物(PM2.5),95,,70,71,48,9,,30,24,62,43,7,7,0.8,0.7
2024-12-29T2100,1937A,107.2386,34.3622,宝鸡市,三迪小学,细颗粒物(PM2.5),122,111,81,92,55,6,,23,18,70,49,6,8,1.4,0.9
2024-12-29T2100,1051A,115.493,38.8632,保定市,游泳馆,细颗粒物(PM2.5),95,126,99,71,55,7,,26,23,75,80,5,10,0.9,0.8
2024-12-29T2100,1052A,115.5213,38.8959,保定市,华电二区,细颗粒物(PM2.5),97,113,90,72,55,3,,13,12,81,65,5,4,0.7,0.5
2024-12-29T2100,1053A,115.4713,38.9108,保定市,接待中心,细颗粒物(PM2.5),102,116,101,76,59,7,,18,16,74,59,4,4,0.9,0.8
2024-12-29T2100,1054A,115.4612,38.8416,保定市,地表水厂,细颗粒物(PM2.5),88,104,94,65,52,8,,32,28,84,53,5,6,1.0,0.6
2024-12-29T2100,3581A,115.31981,38.95208,保定市,满城区生态环境分局,细颗粒物(PM2.5),134,171,117,102,63,10,,24,20,100,72,6,4,1.0,0.7
2024-12-29T2100,3582A,115.47694,38.76408,保定市,清苑区第二中学,颗粒物(PM10),94,138,91,67,40,6,,35,27,83,55,10,10,1.0,0.7
2024-12-29T2100,3583A,115.62909,39.02311,保定市,徐水物探局,细颗粒物(PM2.5),104,122,94,78,51,3,,14,10,72,56,10,9,1.3,0.9
2024-12-29T2100,4004A,115.4202,38.8656,保定市,双鹰农机,细颗粒物(PM2.5),84,100,91,62,49,7,,28,24,71,50,1,3,0.6,0.5
2024-12-29T2100,4034A,115.5150,38.8590,保定市,植保所站,细颗粒物(PM2.5),113,153,107,85,61,4,,19,18,74,61,8,9,1.0,0.7
2024-12-29T2100,2594A,99.1678,25.1081,保山市,市环境监测站,,28,28,19,15,11,50,,72,69,13,9,5,5,0.4,0.4
2024-12-29T2100,2595A,99.1711,25.1328,保山市,市环保局,,22,20,19,15,16,59,,74,72,7,6,6,6,0.4,0.4
2024-12-29T2100,1866A,109.2262,21.588,北海市,牛尾岭水库,,,80,68,74,70,110,,138,137,,16,16,9,0.8,0.8
2024-12-29T2100,1867A,109.1436,21.4086,北海市,海滩公园,细颗粒物(PM2.5),68,75,84,49,66,166,,167,167,16,22,8,14,0.8,0.8
2024-12-29T2100,1868A,109.0981,21.4661,北海市,新市环保局,细颗粒物(PM2.5),89,93,79,66,70,134,,151,151,38,27,9,11,1.1,1
2024-12-29T2100,1869A,109.1778,21.5233,北海市,北海工业园,细颗粒物(PM2.5),89,99,94,66,75,143,,160,160,24,23,9,13,1.0,1
2024-12-29T2100,3400A,109.1911,21.4415,北海市,龙潭自来水厂,细颗粒物(PM2.5),69,75,86,50,82,153,,149,144,20,28,8,12,0.9,1
2024-12-29T2100,1001A,116.3621,39.8784,北京市,万寿西宫,细颗粒物(PM2.5),88,124,71,65,31,1,,20,9,96,73,5,4,0.8,0.6
2024-12-29T2100,1002A,116.2202,40.2915,北京市,定陵,,,62,48,29,20,,,11,,41,23,3,4,0.5,0.4
2024-12-29T2100,1003A,116.4174,39.9289,北京市,东四,颗粒物(PM10),89,127,73,65,33,2,,16,8,85,63,5,3,0.7,0.4
2024-12-29T2100,1004A,116.4072,39.8863,北京市,天坛,细颗粒物(PM2.5),94,117,69,70,33,3,,16,8,77,60,1,2,0.7,0.6
2024-12-29T2100,1005A,116.462,39.9365,北京市,农展馆,细颗粒物(PM2.5),89,124,72,66,31,6,,19,13,89,65,3,2,1.0,0.8
2024-12-29T2100,1006A,116.3392,39.9295,北京市,官园,细颗粒物(PM2.5),90,127,66,67,29,0,,24,12,87,61,6,5,0.8,0.6
2024-12-29T2100,1007A,116.2878,39.9611,北京市,海淀万柳,颗粒物(PM10),91,131,72,62,28,8,,23,18,78,59,4,4,0.9,0.6
2024-12-29T2100,1008A,116.6636,40.135,北京市,顺义新城,颗粒物(PM10),101,151,69,75,30,3,,22,13,85,50,2,3,1.0,0.5
2024-12-29T2100,1009A,116.6275,40.3275,北京市,怀柔镇,颗粒物(PM10),62,73,52,38,24,7,,27,16,55,40,2,3,0.9,0.8
2024-12-29T2100,1010A,116.2296,40.217,北京市,昌平镇,颗粒物(PM10),69,88,64,35,23,7,,17,15,68,52,3,3,0.8,0.7
2024-12-29T2100,1011A,116.3966,39.9821,北京市,奥体中心,颗粒物(PM10),85,120,65,60,25,3,,26,13,79,54,5,5,0.9,0.7
2024-12-29T2100,1012A,116.184,39.9136,北京市,古城,颗粒物(PM10),84,118,77,48,28,2,,23,12,72,55,8,7,1.0,0.6
2024-12-29T2100,3281A,115.9718,40.4529,北京市,延庆夏都,颗粒物(PM10),119,187,78,33,27,50,,55,55,17,22,2,3,0.3,0.4
2024-12-29T2100,3417A,117.0709,40.1465,北京市,平谷新城,细颗粒物(PM2.5),144,174,75,110,40,4,,24,16,63,37,2,3,1.4,0.7
2024-12-29T2100,3418A,116.8336,40.4095,北京市,密云新城,细颗粒物(PM2.5),100,140,61,75,28,3,,27,19,72,46,2,3,0.7,0.4
2024-12-29T2100,3671A,116.088,39.9726,北京市,门头沟三家店,颗粒物(PM10),73,96,63,30,18,1,,29,12,71,45,5,5,0.6,0.5
2024-12-29T2100,3672A,116.1541,39.8204,北京市,丰台云岗,颗粒物(PM10),74,97,69,45,26,1,,18,10,75,54,4,3,0.7,0.5
2024-12-29T2100,3673A,116.6804,39.9081,北京市,通州东关,细颗粒物(PM2.5),100,130,92,75,41,2,,14,10,90,63,6,4,0.9,0.6
2024-12-29T2100,3674A,115.9577,39.7603,北京市,房山燕山,"颗粒物(PM10),细颗粒物(PM2.5)",64,78,52,46,24,8,,36,19,63,38,5,4,0.6,0.5
2024-12-29T2100,3675A,116.4672,39.7733,北京市,大兴旧宫,细颗粒物(PM2.5),92,126,79,68,36,2,,10,8,74,64,1,3,0.8,0.7
2024-12-29T2100,3694A,115.986,40.4563,北京市,延庆石河营,颗粒物(PM10),94,137,69,35,28,29,,47,45,34,26,2,3,0.5,0.5
2024-12-29T2100,3695A,116.6151,40.3053,北京市,怀柔新城,颗粒物(PM10),58,66,51,37,25,11,,26,15,50,34,1,3,0.4,0.4
2024-12-29T2100,3696A,116.2545,39.8768,北京市,丰台小屯,颗粒物(PM10),89,127,84,63,33,2,,16,10,90,73,5,5,0.8,0.7
2024-12-29T2100,3697A,116.84,40.3844,北京市,密云镇,细颗粒物(PM2.5),123,162,69,93,31,4,,24,18,79,52,1,3,1.2,0.5
2024-12-29T2100,1761A,123.8275,41.3064,本溪市,大峪,,46,46,63,31,37,63,,68,67,14,33,16,12,0.8,1.6
2024-12-29T2100,1762A,123.7567,41.3325,本溪市,溪湖,颗粒物(PM10),61,71,75,36,34,36,,55,49,40,39,28,14,1.9,1.3
2024-12-29T2100,1763A,123.7169,41.3094,本溪市,彩屯,细颗粒物(PM2.5),58,60,85,41,60,50,,55,54,27,38,15,17,1.6,2.2
2024-12-29T2100,1764A,123.7669,41.2864,本溪市,东明,颗粒物(PM10),52,54,75,34,41,48,,62,58,28,36,13,10,0.5,1.1
2024-12-29T2100,1765A,123.7992,41.2664,本溪市,新立屯,,49,49,52,18,15,62,,70,68,25,36,10,10,0.5,1
2024-12-29T2100,1766A,123.8142,41.3472,本溪市,威宁,颗粒物(PM10),58,66,86,37,33,55,,66,63,25,35,5,5,0.7,1
2024-12-29T2100,2587A,105.2864,27.3125,毕节市,八中,,13,6,56,3,46,41,,43,36,11,20,6,8,0.7,0.7
2024-12-29T2100,2588A,105.31,27.2944,毕节市,师专,,11,6,54,3,45,35,,43,34,12,17,6,10,0.8,0.7
2024-12-29T2100,3537A,105.3631,27.3533,毕节市,长征村,,14,6,59,3,52,43,,50,42,8,13,7,11,0.7,0.7
2024-12-29T2100,1629A,118.0018,37.3617,滨州市,第二水厂,颗粒物(PM10),84,117,93,48,41,32,,57,53,55,50,11,14,0.7,0.9
2024-12-29T2100,1630A,117.9776,37.393,滨州市,北中新校,颗粒物(PM10),81,112,94,56,42,38,,60,56,52,52,13,18,0.8,0.9
2024-12-29T2100,3514A,117.9378,37.3956,滨州市,中海酒店,细颗粒物(PM2.5),94,114,87,70,44,22,,59,54,64,48,36,26,1.1,0.8
2024-12-29T2100,3515A,117.9378,37.3553,滨州市,开发区一中,颗粒物(PM10),81,112,96,56,44,34,,48,46,54,54,11,17,0.4,0.6
2024-12-29T2100,3516A,118.0917,37.694,滨州市,金海六路,细颗粒物(PM2.5),98,132,107,73,50,8,,53,44,76,54,14,14,1.1,1
2024-12-29T2100,4028A,117.9956,37.3753,滨州市,滨州市西街道办事处,细颗粒物(PM2.5),94,112,89,70,48,25,,58,51,52,45,10,12,1.0,1
2024-12-29T2100,2311A,115.8072,33.8399,亳州市,污水处理厂,颗粒物(PM10),61,71,72,41,38,76,,77,77,21,26,4,4,0.5,0.5
2024-12-29T2100,2312A,115.7789,33.8518,亳州市,三国揽胜宫,颗粒物(PM10),61,71,79,41,46,83,,88,88,23,24,4,5,0.5,0.5
2024-12-29T2100,3332A,115.7633,33.8034,亳州市,亳州学院,颗粒物(PM10),68,86,80,41,45,75,,88,87,22,22,4,4,0.5,0.5
2024-12-29T2100,2693A,82.0485,44.8556,博尔塔拉蒙古自治州,市党校,细颗粒物(PM2.5),115,112,94,87,75,19,,42,39,44,32,20,11,1.3,1.3
2024-12-29T2100,2694A,82.0806,44.8969,博尔塔拉蒙古自治州,市环保局,细颗粒物(PM2.5),97,124,103,72,59,24,,59,51,48,32,12,9,1.6,1.3
2024-12-29T2100,1071A,116.8842,38.2991,沧州市,沧县城建局,细颗粒物(PM2.5),139,147,94,106,55,6,,44,35,78,52,10,10,1.9,1.1
2024-12-29T2100,1072A,116.8584,38.3254,沧州市,电视转播站,细颗粒物(PM2.5),89,105,93,66,49,17,,46,38,66,58,6,10,0.9,0.8
2024-12-29T2100,1073A,116.8709,38.3228,沧州市,市环保局,细颗粒物(PM2.5),85,99,85,63,53,14,,47,41,63,49,7,10,0.9,0.8
2024-12-29T2100,3324A,116.8136,38.3004,沧州市,河北水利电力学院,颗粒物(PM10),98,146,106,67,53,8,,46,40,67,46,14,15,0.9,0.7
2024-12-29T2100,2622A,97.1806,31.1273,昌都市,昌都监测站,,29,9,60,8,22,91,,92,92,9,37,6,7,0.5,1.3
2024-12-29T2100,3719A,97.1714,31.1406,昌都市,昌都会议中心,,29,9,15,8,13,90,,93,93,5,19,6,4,0.6,0.8
2024-12-29T2100,2690A,88.1236,43.8886,昌吉回族自治州,天山天池,,24,6,2,3,1,76,,84,77,2,2,10,9,0.2,0.2
2024-12-29T2100,2692A,87.2717,44.0297,昌吉回族自治州,新区政务中心,细颗粒物(PM2.5),233,256,261,183,186,19,,32,31,66,69,6,15,1.9,2.2
2024-12-29T2100,3613A,87.3095,44.0142,昌吉回族自治州,亚心广场,细颗粒物(PM2.5),262,268,247,212,201,14,,30,30,75,73,7,9,1.8,2
2024-12-29T2100,1119A,125.3325,43.9166,长春市,食品厂,,48,42,60,33,40,46,,44,44,24,39,13,12,0.4,0.7
2024-12-29T2100,1120A,125.2863,43.9027,长春市,客车厂,,45,40,51,31,37,46,,44,44,22,37,19,16,0.5,0.6
2024-12-29T2100,1121A,125.2841,43.8463,长春市,邮电学院,,41,41,56,28,37,54,,53,53,18,34,14,12,0.4,0.6
2024-12-29T2100,1122A,125.3716,43.8772,长春市,劳动公园,,47,47,56,23,36,48,,51,50,28,39,17,12,0.6,0.9
2024-12-29T2100,1123A,125.3297,43.8805,长春市,园林处,,37,37,50,24,30,52,,46,45,17,36,13,16,0.7,0.8
2024-12-29T2100,1124A,125.4605,43.79,长春市,净月潭,,36,36,40,23,28,57,,61,60,11,20,9,8,0.5,0.5
2024-12-29T2100,1125A,125.7194,43.515,长春市,甩湾子,,,,,,,,,,,,,,,,
2024-12-29T2100,1126A,125.3863,43.8447,长春市,经开区环卫处,,42,42,50,22,29,47,,48,47,20,35,14,12,0.5,0.6
2024-12-29T2100,1127A,125.245,43.7783,长春市,高新区管委会,,42,42,55,24,40,45,,55,53,21,31,8,8,0.5,0.7
2024-12-29T2100,1128A,125.1761,43.8325,长春市,岱山公园,,38,38,49,26,35,48,,53,52,21,36,9,9,0.6,0.7
2024-12-29T2100,1335A,113.0833,28.2325,长沙市,经开区环保局,细颗粒物(PM2.5),108,130,90,81,51,63,,108,105,74,49,9,6,1.1,0.7
2024-12-29T2100,1336A,112.8872,28.2189,长沙市,高开区环保局,细颗粒物(PM2.5),114,120,109,86,62,90,,109,109,38,48,15,8,1.4,1
2024-12-29T2100,1337A,113.0792,28.2053,长沙市,马坡岭,细颗粒物(PM2.5),119,122,97,90,65,52,,112,108,69,48,8,6,1.3,0.9
2024-12-29T2100,1338A,112.9394,28.19,长沙市,湖南师范大学,细颗粒物(PM2.5),94,121,100,70,59,83,,104,104,34,43,11,8,1.2,0.8
2024-12-29T2100,1339A,113.0178,28.1322,长沙市,雨花区环保局,细颗粒物(PM2.5),105,111,100,79,60,82,,106,105,51,54,13,9,1.1,0.8
2024-12-29T2100,1340A,112.9792,28.2597,长沙市,伍家岭,细颗粒物(PM2.5),118,140,111,89,63,55,,98,95,64,50,8,6,1.2,0.9
2024-12-29T2100,1341A,113.0014,28.1944,长沙市,火车新站,细颗粒物(PM2.5),122,121,104,92,65,65,,102,101,72,57,9,6,1.2,0.8
2024-12-29T2100,1342A,112.9844,28.1178,长沙市,天心区环保局,细颗粒物(PM2.5),102,122,106,76,64,86,,108,107,47,52,12,7,1.3,1
2024-12-29T2100,1343A,112.8908,28.1308,长沙市,湖南中医药大学,细颗粒物(PM2.5),128,140,120,97,70,5,,105,86,123,60,13,9,1.5,0.7
2024-12-29T2100,1344A,112.9581,28.3611,长沙市,沙坪,颗粒物(PM10),104,157,85,75,59,71,,93,91,32,23,10,9,0.8,0.6
2024-12-29T2100,1727A,113.1147,36.1547,长治市,清华站,,47,47,47,29,20,45,,68,66,33,33,18,18,0.8,0.9
2024-12-29T2100,1728A,113.1031,36.1989,长治市,监测站,,50,50,53,31,31,53,,61,61,30,37,14,16,0.8,1
2024-12-29T2100,1730A,113.0886,36.2125,长治市,审计局,,48,48,53,29,26,52,,61,61,33,40,14,18,0.8,0.8
2024-12-29T2100,1731A,113.0844,36.1856,长治市,长治八中,颗粒物(PM10),58,66,71,32,37,45,,63,62,37,39,18,21,0.6,0.8
2024-12-29T2100,2845A,113.1569,36.1911,长治市,德盛苑,颗粒物(PM10),51,52,41,27,20,57,,74,70,28,23,12,9,0.9,1
2024-12-29T2100,3568A,113.06,36.0464,长治市,向阳小学,颗粒物(PM10),59,67,53,38,25,53,,80,75,33,25,14,17,0.7,0.7
2024-12-29T2100,3569A,112.8792,36.3144,长治市,屯留一中,细颗粒物(PM2.5),64,52,39,46,26,57,,71,70,36,31,16,15,1.5,1.1
2024-12-29T2100,3570A,113.235,36.3489,长治市,潞城四中,颗粒物(PM10),56,61,63,38,34,62,,69,69,21,32,11,22,0.9,1.1
2024-12-29T2100,1854A,111.6975,28.9703,常德市,市二中,细颗粒物(PM2.5),150,129,110,115,88,,,97,97,59,32,6,5,1.0,0.8
2024-12-29T2100,1857A,111.7158,29.1456,常德市,白鹤山,,,,,,,,,,,,,,,,
2024-12-29T2100,3138A,111.7153,29.0289,常德市,武陵区永安,细颗粒物(PM2.5),140,146,116,107,85,47,,92,85,54,32,6,5,1.3,0.8
2024-12-29T2100,3139A,111.6892,28.9881,常德市,鼎城区玉霞,细颗粒物(PM2.5),149,164,124,114,90,21,,86,73,74,35,6,4,1.1,0.8
2024-12-29T2100,3140A,111.6625,29.0531,常德市,武陵区长庚,细颗粒物(PM2.5),156,178,128,119,91,13,,81,68,84,40,4,3,1.2,0.8
2024-12-29T2100,1196A,119.9633,31.762,常州市,市监测站,细颗粒物(PM2.5),78,99,88,57,50,26,,68,58,72,58,9,11,0.9,0.9
2024-12-29T2100,1200A,119.9468,31.7069,常州市,武进监测站,细颗粒物(PM2.5),62,65,75,44,46,53,,74,68,42,48,8,16,0.5,0.6
2024-12-29T2100,1201A,119.9255,31.9087,常州市,安家,颗粒物(PM10),58,65,95,35,54,32,,65,50,66,62,8,13,0.6,0.8
2024-12-29T2100,3002A,119.9805,31.8174,常州市,行政中心,细颗粒物(PM2.5),62,62,71,44,47,41,,63,58,48,45,9,10,0.6,0.7
2024-12-29T2100,3003A,120.0522,31.7748,常州市,经开区,细颗粒物(PM2.5),82,89,87,60,49,32,,74,65,68,54,17,16,1.6,1
2024-12-29T2100,3010A,119.9025,31.7964,常州市,钟楼,细颗粒物(PM2.5),58,62,78,41,48,44,,70,63,51,61,11,13,0.7,0.9
2024-12-29T2100,3429A,119.8598,31.7066,常州市,武进经发区,细颗粒物(PM2.5),77,91,96,56,54,30,,70,58,70,56,10,8,0.6,0.8
2024-12-29T2100,3430A,119.5826,31.7245,常州市,金坛城区,细颗粒物(PM2.5),62,71,91,44,54,59,,78,74,32,37,12,13,0.8,0.7
2024-12-29T2100,2220A,120.4318,41.5881,朝阳市,西梁,细颗粒物(PM2.5),118,149,124,89,70,11,,34,29,47,38,15,15,2.2,2.1
2024-12-29T2100,2221A,120.4521,41.5646,朝阳市,河畔小区,细颗粒物(PM2.5),179,170,80,135,53,12,,35,27,59,40,21,12,2.3,1.4
2024-12-29T2100,2222A,120.4176,41.5648,朝阳市,八里堡,细颗粒物(PM2.5),90,127,91,67,53,15,,34,28,59,42,15,15,1.3,1.3
2024-12-29T2100,2223A,120.3806,41.5969,朝阳市,农业园区,,49,49,79,34,54,36,,40,36,41,45,12,17,1.1,1.6
2024-12-29T2100,1705A,116.6367,23.6719,潮州市,西园路,颗粒物(PM10),68,85,64,46,41,76,,112,109,31,19,9,7,0.4,0.2
2024-12-29T2100,3026A,116.6183,23.6608,潮州市,市政府,颗粒物(PM10),58,65,58,24,33,86,,111,108,28,20,9,6,0.6,0.5
2024-12-29T2100,4036A,116.6461,23.6761,潮州市,金山,细颗粒物(PM2.5),58,60,55,41,38,62,,108,103,32,18,8,8,0.7,0.7
2024-12-29T2100,2472A,113.0073,25.9061,郴州市,马头岭,"颗粒物(PM10),细颗粒物(PM2.5)",75,100,91,55,51,74,,98,95,43,31,14,11,1.1,0.8
2024-12-29T2100,2473A,113.0116,25.8226,郴州市,市职中,细颗粒物(PM2.5),98,112,87,73,65,59,,107,90,43,34,9,8,1.0,1
2024-12-29T2100,2474A,113.0161,25.8001,郴州市,兴隆步行街,细颗粒物(PM2.5),95,116,91,71,65,55,,102,91,56,41,8,7,0.8,0.8
2024-12-29T2100,2475A,113.0383,25.8071,郴州市,市审计局,细颗粒物(PM2.5),102,96,83,76,63,53,,104,93,45,34,8,8,1.2,0.9
2024-12-29T2100,2476A,113.0348,25.7759,郴州市,市环保局,细颗粒物(PM2.5),88,96,87,65,61,33,,96,86,65,44,9,9,1.0,0.8
2024-12-29T2100,1431A,103.9728,30.7236,成都市,金泉两河,细颗粒物(PM2.5),84,81,74,62,48,44,,55,55,36,51,3,4,0.7,0.7
2024-12-29T2100,1432A,104.176,30.6872,成都市,十里店,颗粒物(PM10),66,81,80,43,49,57,,56,56,38,56,3,3,0.5,0.5
2024-12-29T2100,1433A,104.079,30.5706,成都市,三瓦窑,"颗粒物(PM10),细颗粒物(PM2.5)",69,88,88,50,48,34,,68,64,55,51,1,2,0.7,0.6
2024-12-29T2100,1434A,104.1114,30.63,成都市,沙河铺,细颗粒物(PM2.5),69,76,73,50,46,57,,62,61,33,43,4,3,0.5,0.5
2024-12-29T2100,1437A,104.0786,30.6531,成都市,君平街,颗粒物(PM10),60,69,77,42,49,56,,64,63,32,48,6,5,0.6,0.6
2024-12-29T2100,1438A,103.613,31.0283,成都市,灵岩寺,,,,,,,,,,,,,,,,
2024-12-29T2100,2880A,104.0239,30.65639,成都市,大石西路,细颗粒物(PM2.5),72,73,77,52,46,52,,64,63,36,47,3,4,0.5,0.5
2024-12-29T2100,3136A,104.2725,30.5589,成都市,龙泉驿区区政府,细颗粒物(PM2.5),77,88,74,56,46,49,,52,52,40,39,3,4,0.8,0.7
2024-12-29T2100,3357A,104.0106,30.6931,成都市,金博路,细颗粒物(PM2.5),74,85,74,54,45,45,,53,53,35,48,2,2,0.6,0.6
2024-12-29T2100,3359A,104.0578,30.5225,成都市,华阳,颗粒物(PM10),67,83,84,41,50,55,,68,66,37,50,1,2,0.5,0.6
2024-12-29T2100,3487A,104.2394,30.5319,成都市,车城东七路,细颗粒物(PM2.5),72,84,79,52,50,62,,56,56,28,44,2,4,0.6,0.6
2024-12-29T2100,3488A,104.3853,30.7453,成都市,青白江技师分院,细颗粒物(PM2.5),92,93,73,68,55,26,,47,47,57,43,1,1,0.7,0.7
2024-12-29T2100,3489A,104.0789,30.4072,成都市,科学城,细颗粒物(PM2.5),94,103,74,70,51,30,,64,64,43,41,4,4,0.6,0.5
2024-12-29T2100,4011A,103.8506,30.6947,成都市,光华大道三段,细颗粒物(PM2.5),73,90,80,53,48,49,,61,61,30,43,2,2,0.7,0.7
2024-12-29T2100,1062A,117.9531,40.9081,承德市,铁路,细颗粒物(PM2.5),79,102,67,58,38,6,,22,15,53,43,16,10,1.7,1
2024-12-29T2100,1063A,117.9392,40.9763,承德市,中国银行,,,103,64,62,34,,,28,19,66,52,4,3,1.8,0.9
2024-12-29T2100,1064A,117.9503,40.928,承德市,开发区,细颗粒物(PM2.5),69,78,63,50,34,8,,32,19,46,41,10,8,1.4,1
2024-12-29T2100,1065A,117.8051,40.9655,承德市,文化中心,细颗粒物(PM2.5),78,104,102,57,42,4,,17,12,58,52,16,16,1.4,1.3
2024-12-29T2100,1066A,117.9268,41.0026,承德市,离宫,细颗粒物(PM2.5),73,75,53,53,35,7,,31,20,52,33,8,8,1.0,0.7
2024-12-29T2100,2314A,117.47,30.6618,池州市,池州学院,细颗粒物(PM2.5),92,107,73,68,44,8,,81,68,79,36,6,8,0.9,0.8
2024-12-29T2100,3237A,117.4918,30.6617,池州市,展览馆,细颗粒物(PM2.5),88,95,68,65,47,4,,72,55,67,38,5,7,0.7,0.9
2024-12-29T2100,3333A,117.5627,30.695,池州市,第八中学,细颗粒物(PM2.5),67,76,77,48,45,61,,74,74,33,38,6,8,0.4,0.5
2024-12-29T2100,3334A,117.5038,30.6243,池州市,第十二中学,细颗粒物(PM2.5),90,103,75,67,47,9,,80,60,70,42,4,6,0.7,0.8
2024-12-29T2100,1744A,118.9233,42.2816,赤峰市,松山一中,颗粒物(PM10),100,149,65,32,18,53,,58,55,27,35,9,18,0.7,1
2024-12-29T2100,1745A,118.9576,42.2728,赤峰市,哈达街,颗粒物(PM10),98,145,61,23,19,53,,66,64,32,31,8,16,1.0,1.1
2024-12-29T2100,1746A,118.8788,42.2554,赤峰市,天义路,颗粒物(PM10),97,144,52,27,14,54,,57,54,18,28,7,10,0.6,0.7
2024-12-29T2100,3058A,119.2658,42.0353,赤峰市,银河街,颗粒物(PM10),83,115,80,32,35,44,,53,53,28,36,18,23,0.8,1.2
2024-12-29T2100,3286A,118.9359,42.3147,赤峰市,桥北物流园区,颗粒物(PM10),91,131,55,44,31,34,,56,55,46,32,16,28,0.9,0.8
2024-12-29T2100,2521A,107.3476,22.4136,崇左市,市环保局江州分局,颗粒物(PM10),85,119,90,53,56,54,,105,96,44,24,5,8,1.0,0.8
2024-12-29T2100,2522A,107.3702,22.3707,崇左市,城南新区,细颗粒物(PM2.5),139,,77,106,57,,,137,132,34,24,10,11,0.8,0.8
2024-12-29T2100,2298A,118.3093,32.3153,滁州市,老年大学,细颗粒物(PM2.5),68,79,75,49,43,39,,79,66,66,44,9,6,0.8,0.6
2024-12-29T2100,2299A,118.3244,32.2786,滁州市,人大宾馆,细颗粒物(PM2.5),70,86,75,51,48,43,,80,70,53,35,10,10,0.7,0.6
2024-12-29T2100,3207A,118.3118,32.3038,滁州市,市政府原办公楼,细颗粒物(PM2.5),68,76,69,49,45,44,,79,66,62,45,8,7,1.0,0.9
2024-12-29T2100,3331A,118.3267,32.2634,滁州市,图书馆,颗粒物(PM10),66,82,78,42,40,52,,80,74,47,36,8,9,0.6,1
2024-12-29T2100,2605A,101.5482,25.0441,楚雄彝族自治州,州环境监测站,,22,16,24,11,21,68,,70,70,8,9,6,5,0.4,0.5
2024-12-29T2100,2606A,101.538,25.0492,楚雄彝族自治州,市经济开发区,,24,24,30,13,24,66,,69,69,12,12,6,9,0.6,0.6
2024-12-29T2100,2548A,107.5277,31.2827,达州市,达州职业技术学院,细颗粒物(PM2.5),206,175,129,156,114,10,,21,18,37,38,11,9,1.1,0.9
2024-12-29T2100,2549A,107.5086,31.2186,达州市,市环境监测站,细颗粒物(PM2.5),170,173,119,129,87,8,,18,15,59,56,9,10,1.6,1.2
2024-12-29T2100,2550A,107.4988,31.2132,达州市,凤凰小区,细颗粒物(PM2.5),180,180,118,136,89,8,,21,15,61,53,13,13,1.5,1
2024-12-29T2100,2551A,107.5082,31.1986,达州市,达县机关宾馆,细颗粒物(PM2.5),168,200,112,127,79,7,,21,16,73,56,13,11,1.7,1.2
2024-12-29T2100,2552A,107.4644,31.2124,达州市,市政中心,细颗粒物(PM2.5),175,192,120,132,85,6,,16,13,81,62,18,11,2.2,1.2
2024-12-29T2100,2614A,100.1542,25.7054,大理白族自治州,大理市环境监测站,,32,,15,22,18,73,,80,80,7,7,7,7,0.6,0.6
2024-12-29T2100,2615A,100.2171,25.5811,大理白族自治州,大理古城,,23,18,25,10,13,73,,85,83,6,11,5,5,0.4,0.7
2024-12-29T2100,1109A,121.612,38.9741,大连市,甘井子,颗粒物(PM10),55,59,40,37,23,55,,58,56,39,35,12,13,0.8,0.7
2024-12-29T2100,1110A,121.565,38.9511,大连市,周水子,细颗粒物(PM2.5),62,57,46,44,30,51,,56,54,37,39,12,10,1.0,0.8
2024-12-29T2100,1111A,121.5637,38.8845,大连市,星海三站,颗粒物(PM10),51,52,37,34,21,65,,60,60,24,28,12,13,0.9,1
2024-12-29T2100,1112A,121.6302,38.9117,大连市,青泥洼桥,,43,,38,30,20,61,,62,62,17,20,12,12,0.6,0.6
2024-12-29T2100,1113A,121.6251,38.8638,大连市,傅家庄,颗粒物(PM10),51,51,39,27,19,66,,68,68,16,15,12,13,0.6,0.7
2024-12-29T2100,1114A,121.5213,38.8661,大连市,七贤岭,颗粒物(PM10),52,54,38,31,20,67,,66,66,23,23,12,12,0.6,0.7
2024-12-29T2100,1115A,121.2529,38.8061,大连市,旅顺,颗粒物(PM10),52,53,38,34,22,65,,68,68,26,21,13,12,0.7,0.7
2024-12-29T2100,1116A,121.7485,39.1311,大连市,金州,细颗粒物(PM2.5),64,74,49,46,26,43,,56,53,38,21,10,9,0.9,0.8
2024-12-29T2100,1117A,121.7811,39.0496,大连市,开发区,颗粒物(PM10),53,56,52,33,29,56,,59,59,28,45,12,14,0.7,0.8
2024-12-29T2100,1118A,121.9762,39.0631,大连市,双D港,颗粒物(PM10),55,59,40,32,19,70,,72,72,21,18,10,10,0.8,0.7
2024-12-29T2100,1789A,124.81117,46.03138,大庆市,大同区,颗粒物(PM10),76,101,78,49,50,20,,40,31,39,31,13,11,1.1,0.9
2024-12-29T2100,1790A,125.129,46.533,大庆市,龙凤区,细颗粒物(PM2.5),109,108,70,82,48,22,,50,38,52,37,14,11,1.0,0.7
2024-12-29T2100,1791A,124.902,46.408,大庆市,红岗区,细颗粒物(PM2.5),87,88,49,64,35,22,,41,35,35,29,7,7,0.9,0.6
2024-12-29T2100,1792A,125.153,46.586,大庆市,萨尔图区,细颗粒物(PM2.5),142,143,65,108,45,22,,49,39,53,36,9,8,0.8,0.6
2024-12-29T2100,1793A,124.9042,46.6215,大庆市,让胡路区,细颗粒物(PM2.5),119,109,52,90,44,31,,46,42,47,32,9,7,1.7,0.6
2024-12-29T2100,3481A,125.141,46.634,大庆市,萨区政府监测点,细颗粒物(PM2.5),125,127,56,95,37,26,,49,41,41,31,6,8,1.0,0.6
2024-12-29T2100,1721A,113.3819,40.1097,大同市,果树场,颗粒物(PM10),113,175,139,40,35,27,,67,50,57,46,15,11,0.7,0.8
2024-12-29T2100,1723A,113.2994,40.0758,大同市,云冈宾馆,颗粒物(PM10),134,217,147,42,35,39,,71,56,35,36,12,13,0.6,1
2024-12-29T2100,1724A,113.3444,40.0917,大同市,大同大学,颗粒物(PM10),122,193,127,33,29,34,,51,45,,33,14,16,0.7,0.8
2024-12-29T2100,1725A,113.2661,40.1269,大同市,安家小村,颗粒物(PM10),142,233,137,35,24,36,,70,55,34,26,18,20,0.6,0.6
2024-12-29T2100,1726A,113.2711,40.0844,大同市,教育学院,颗粒物(PM10),131,212,154,42,31,36,,65,51,40,44,9,11,0.6,0.9
2024-12-29T2100,3282A,113.3397,40.0597,大同市,大同市卫生学校,颗粒物(PM10),136,221,140,41,32,35,,65,52,38,42,8,12,0.6,0.8
2024-12-29T2100,3565A,113.1367,40.1122,大同市,云冈站,颗粒物(PM10),116,182,122,41,28,37,,72,56,33,24,14,16,0.5,0.5
2024-12-29T2100,3566A,113.1186,40.2556,大同市,图书馆,颗粒物(PM10),131,212,107,37,26,38,,70,58,17,20,10,15,0.5,0.5
2024-12-29T2100,3567A,113.5931,40.0461,大同市,区一中,颗粒物(PM10),130,210,133,17,16,18,,63,47,57,49,17,27,0.6,0.8
2024-12-29T2100,3676A,113.2802,40.0995,大同市,第二人民医院,颗粒物(PM10),142,234,157,47,36,33,,70,54,44,41,15,17,0.9,1.1
2024-12-29T2100,2269A,124.1069,50.4097,大兴安岭地区,科技局,,43,34,27,30,21,39,,56,45,14,10,7,6,0.6,0.5
2024-12-29T2100,3663A,124.1164,50.4278,大兴安岭地区,红旗社区,细颗粒物(PM2.5),82,80,29,60,20,3,,40,25,46,25,16,7,1.1,0.6
2024-12-29T2100,1600A,124.3303,40.0625,丹东市,江湾东路,颗粒物(PM10),58,66,81,34,51,53,,66,64,13,24,20,27,0.8,1.5
2024-12-29T2100,1601A,124.4256,40.1503,丹东市,临江后街,细颗粒物(PM2.5),64,67,80,46,62,51,,68,66,20,28,13,19,0.9,1.3
2024-12-29T2100,1602A,124.3933,40.1461,丹东市,元宝山,颗粒物(PM10),55,60,83,36,56,47,,59,58,18,28,13,18,0.9,1.4
2024-12-29T2100,1603A,124.3633,40.1092,丹东市,民主桥,颗粒物(PM10),60,69,82,30,51,48,,61,60,18,34,12,16,0.9,1.3
2024-12-29T2100,3541A,109.5726,19.5167,儋州市,第一中学子站,颗粒物(PM10),54,57,61,34,40,104,,113,111,12,14,6,7,0.8,0.7
2024-12-29T2100,3542A,109.5567,19.5187,儋州市,东坡学校子站,颗粒物(PM10),54,57,59,32,42,112,,124,122,12,12,5,7,0.8,0.8
2024-12-29T2100,2616A,98.5842,24.428,德宏傣族景颇族自治州,德宏州监测站,颗粒物(PM10),67,84,55,43,34,24,,77,71,45,26,7,9,1.0,0.6
2024-12-29T2100,3677A,98.5881,24.4368,德宏傣族景颇族自治州,芒市人民政府综合楼,颗粒物(PM10),52,54,45,22,27,50,,75,74,14,15,8,9,0.5,0.5
2024-12-29T2100,1901A,104.4239,31.1208,德阳市,东山公园,细颗粒物(PM2.5),92,102,85,68,59,8,,46,44,81,38,4,3,0.8,0.7
2024-12-29T2100,1902A,104.3826,31.1317,德阳市,西小区,细颗粒物(PM2.5),113,124,99,85,65,9,,40,38,70,57,4,3,1.0,0.9
2024-12-29T2100,1904A,104.3553,31.1091,德阳市,耐火材料厂,细颗粒物(PM2.5),109,117,97,82,67,10,,42,40,66,53,6,6,0.8,0.7
2024-12-29T2100,3639A,104.4019,31.1244,德阳市,市教育局,细颗粒物(PM2.5),100,102,82,75,62,17,,44,43,70,55,6,4,1.1,0.9
2024-12-29T2100,1622A,116.3032,37.4674,德州市,儿童乐园,颗粒物(PM10),97,144,138,61,49,47,,62,60,38,43,10,12,0.8,0.9
2024-12-29T2100,1624A,116.2991,37.4451,德州市,监理站,颗粒物(PM10),89,127,127,61,50,51,,63,62,39,47,17,18,0.9,1
2024-12-29T2100,3066A,116.2721,37.4379,德州市,九衢泉纯净水厂,颗粒物(PM10),95,139,133,66,55,46,,60,59,41,50,14,15,0.6,0.7
2024-12-29T2100,3371A,116.3728,37.4403,德州市,开发区人民医院,颗粒物(PM10),100,149,142,70,51,47,,65,62,37,43,12,15,0.8,0.7
2024-12-29T2100,3372A,116.3572,37.4094,德州市,太阳城中学,细颗粒物(PM2.5),110,168,148,83,62,38,,63,58,55,53,13,15,0.8,0.9
2024-12-29T2100,3511A,116.5652,37.3319,德州市,陵城艺术中心,颗粒物(PM10),106,161,129,75,46,46,,62,59,38,37,16,14,0.8,0.8
2024-12-29T2100,2621A,99.7056,27.8317,迪庆藏族自治州,迪庆州站,,28,28,37,17,26,83,,98,93,15,16,7,8,0.7,0.8
2024-12-29T2100,3180A,99.7136,27.8094,迪庆藏族自治州,质量技术监督局,,39,,29,27,15,75,,90,88,12,14,7,8,0.6,0.6
2024-12-29T2100,2663A,104.6241,35.5734,定西市,东关小学,颗粒物(PM10),72,94,65,35,42,8,,66,58,70,29,49,20,1.8,1.1
2024-12-29T2100,2664A,104.6194,35.5934,定西市,供电公司,颗粒物(PM10),52,54,61,22,29,21,,78,70,60,35,14,14,1.0,1.3
2024-12-29T2100,1389A,113.7547,23.0494,东莞市,莞城梨川,细颗粒物(PM2.5),103,124,83,77,52,63,,140,130,82,33,8,9,1.2,0.8
2024-12-29T2100,1390A,113.7944,23.0128,东莞市,东城石井,,,,77,,49,,,127,126,50,28,7,9,0.8,0.9
2024-12-29T2100,1391A,113.7383,22.9658,东莞市,南城西平,细颗粒物(PM2.5),105,137,88,79,56,32,,142,121,116,48,8,9,1.0,0.7
2024-12-29T2100,3319A,113.7338,23.0381,东莞市,万江金泰,细颗粒物(PM2.5),100,125,76,75,50,66,,136,127,70,29,9,10,1.0,0.7
2024-12-29T2100,3626A,113.7533,23.0202,东莞市,南城元岭,细颗粒物(PM2.5),103,131,83,77,54,33,,144,127,114,32,9,10,1.3,0.8
2024-12-29T2100,3627A,113.7875,23.0457,东莞市,东城主山,细颗粒物(PM2.5),92,113,78,68,50,75,,130,121,69,34,13,13,1.0,0.8
2024-12-29T2100,1666A,118.6614,37.4309,东营市,市环保局,"颗粒物(PM10),细颗粒物(PM2.5)",85,119,98,63,46,12,,59,51,79,55,23,25,0.8,0.9
2024-12-29T2100,3036A,118.6904,37.4338,东营市,开发区管委会,颗粒物(PM10),87,123,107,58,47,19,,54,46,81,66,21,24,0.8,0.9
2024-12-29T2100,3365A,118.5719,37.565,东营市,垦利区民丰路,细颗粒物(PM2.5),107,161,106,80,50,3,,53,40,87,57,20,20,1.0,1
2024-12-29T2100,3498A,118.5055,37.8612,东营市,河口城区,颗粒物(PM10),90,129,113,51,44,41,,72,66,47,53,13,15,0.4,0.6
2024-12-29T2100,3646A,118.4978,37.4623,东营市,胜利站,细颗粒物(PM2.5),122,148,114,92,61,16,,49,40,92,69,29,77,1.1,1
2024-12-29T2100,3734A,118.35,37.26,东营市,理想之城,颗粒物(PM10),96,141,114,68,55,10,,53,43,84,59,18,25,0.9,1.4
2024-12-29T2100,1591A,110.0023,39.8129,鄂尔多斯市,综合楼,颗粒物(PM10),265,395,232,56,31,80,,82,81,12,19,4,8,0.5,0.5
2024-12-29T2100,1592A,109.9486,39.8261,鄂尔多斯市,巴音孟克林场办事处,颗粒物(PM10),209,356,212,51,32,78,,81,80,9,12,6,10,0.5,0.5
2024-12-29T2100,1593A,109.7736,39.5986,鄂尔多斯市,康泽苑,颗粒物(PM10),145,239,161,46,29,73,,76,75,8,17,5,9,0.4,0.5
2024-12-29T2100,1594A,109.8119,39.5989,鄂尔多斯市,华泰汽车城,颗粒物(PM10),146,241,158,41,30,77,,84,80,8,17,5,8,0.4,0.5
2024-12-29T2100,1595A,109.9734,39.7884,鄂尔多斯市,奥林花园,颗粒物(PM10),238,376,222,53,29,72,,75,75,16,28,8,12,0.5,0.6
2024-12-29T2100,2436A,114.8938,30.3994,鄂州市,市政府,细颗粒物(PM2.5),92,102,78,68,49,56,,79,77,52,49,13,12,1.6,1.3
2024-12-29T2100,2437A,114.8989,30.3714,鄂州市,赵家坝,细颗粒物(PM2.5),90,85,70,67,42,57,,79,77,50,44,13,10,1.1,0.9
2024-12-29T2100,3654A,114.8094,30.4089,鄂州市,精准医疗中心,细颗粒物(PM2.5),99,91,79,74,54,62,,76,75,46,45,26,19,0.8,1.1
2024-12-29T2100,2454A,109.4978,30.2981,恩施土家族苗族自治州,湖北民院,细颗粒物(PM2.5),183,,76,138,125,28,,35,35,19,14,7,8,1.0,0.9
2024-12-29T2100,2455A,109.4707,30.2798,恩施土家族苗族自治州,州电力总公司,细颗粒物(PM2.5),134,117,117,102,106,20,,30,30,41,32,7,7,1.1,1.2
2024-12-29T2100,3549A,109.5061,30.3772,恩施土家族苗族自治州,龙凤新区,细颗粒物(PM2.5),152,132,100,116,88,11,,22,18,42,25,6,6,1.4,1
2024-12-29T2100,2499A,108.3411,21.6158,防城港市,沙万,细颗粒物(PM2.5),103,119,91,77,71,59,,125,109,97,39,10,14,1.1,1.1
2024-12-29T2100,2500A,108.3514,21.7731,防城港市,防城档案局,颗粒物(PM10),114,178,122,84,70,44,,144,128,72,44,10,10,1.5,0.8
2024-12-29T2100,2501A,108.3506,21.6414,防城港市,大海花园,细颗粒物(PM2.5),95,123,88,71,66,106,,143,139,41,27,24,12,1.2,1.1
2024-12-29T2100,1371A,113.1294,23.0067,佛山市,湾梁,颗粒物(PM10),89,127,86,51,46,35,,106,90,113,50,9,9,1.1,0.9
2024-12-29T2100,1372A,113.1083,23.0478,佛山市,华材职中,细颗粒物(PM2.5),93,127,87,69,57,40,,114,103,93,48,7,9,1.1,0.9
2024-12-29T2100,1373A,113.144,23.0453,佛山市,南海气象局,细颗粒物(PM2.5),92,112,70,68,55,35,,105,89,115,50,9,9,1.1,0.7
2024-12-29T2100,1374A,113.2881,22.8094,佛山市,顺德苏岗,细颗粒物(PM2.5),113,116,74,85,56,78,,137,133,60,39,8,10,1.1,0.8
2024-12-29T2100,1376A,112.8383,22.8678,佛山市,高明孔堂,细颗粒物(PM2.5),75,92,89,55,59,91,,120,119,28,25,8,11,0.8,0.8
2024-12-29T2100,1377A,112.8836,23.1588,佛山市,三水监测站,细颗粒物(PM2.5),107,129,101,80,67,68,,117,107,76,46,11,13,1.0,0.9
2024-12-29T2100,1378A,112.867,23.185,佛山市,三水云东海,细颗粒物(PM2.5),80,81,80,59,61,96,,120,118,46,46,10,13,0.8,0.8
2024-12-29T2100,3625A,113.2544,22.7642,佛山市,容桂街道办,细颗粒物(PM2.5),122,144,90,92,58,117,,148,148,57,39,9,9,1.0,0.7
2024-12-29T2100,1280A,119.3903,26.0543,福州市,鼓山,,,,34,,14,,,82,,,13,,3,,0.5
2024-12-29T2100,1282A,119.2681,26.0504,福州市,师大,,46,46,45,25,30,88,,84,83,24,26,5,5,0.6,0.5
2024-12-29T2100,1283A,119.2984,26.1028,福州市,五四北路,颗粒物(PM10),51,51,41,26,27,85,,89,89,25,22,3,3,0.6,0.5
2024-12-29T2100,1284A,119.2648,26.0768,福州市,杨桥西路,颗粒物(PM10),51,52,50,28,29,87,,85,85,22,21,3,3,0.7,0.6
2024-12-29T2100,1285A,119.317,26.0746,福州市,紫阳,,48,48,46,26,27,79,,81,81,25,24,5,5,0.6,0.5
2024-12-29T2100,3048A,119.5799,26.0936,福州市,九龙,,24,22,36,8,22,74,,89,87,21,19,2,3,0.4,0.5
2024-12-29T2100,3526A,119.5189,25.9664,福州市,吴航,,32,32,43,15,24,87,,93,93,19,20,4,4,0.3,0.4
2024-12-29T2100,1755A,123.7977,41.8491,抚顺市,望花区,颗粒物(PM10),55,60,113,31,49,53,,59,59,20,36,11,7,0.6,1
2024-12-29T2100,1756A,123.9161,41.8822,抚顺市,顺城区,颗粒物(PM10),56,61,83,25,39,55,,57,57,24,37,11,9,0.6,1
2024-12-29T2100,1757A,124.0436,41.8611,抚顺市,东洲区,颗粒物(PM10),52,53,59,29,33,61,,69,69,18,25,8,7,0.9,0.8
2024-12-29T2100,1758A,123.9247,41.8642,抚顺市,新抚区,颗粒物(PM10),56,61,81,30,46,51,,56,55,25,31,9,7,0.6,0.8
2024-12-29T2100,1759A,124.0972,41.8961,抚顺市,大伙房水库,,46,46,50,28,30,65,,70,70,11,23,11,10,0.6,0.6
2024-12-29T2100,1760A,123.7086,41.8391,抚顺市,沈抚新城,颗粒物(PM10),61,71,110,28,48,55,,58,58,22,38,13,13,0.8,1.5
2024-12-29T2100,2376A,116.2127,28.0814,抚州市,桐源党溪,细颗粒物(PM2.5),80,95,80,59,45,38,,95,84,18,16,3,7,0.4,0.5
2024-12-29T2100,2377A,116.3544,27.9831,抚州市,市站,细颗粒物(PM2.5),103,123,88,77,53,34,,93,85,65,34,5,14,1.8,1.6
2024-12-29T2100,2378A,116.3565,27.963,抚州市,血防站,细颗粒物(PM2.5),88,120,87,65,51,38,,99,93,60,32,6,20,1.3,0.9
2024-12-29T2100,2379A,116.3564,28.0007,抚州市,采茶剧团,细颗粒物(PM2.5),109,117,83,82,52,26,,88,78,65,32,9,7,1.5,1.3
2024-12-29T2100,2380A,116.385,27.9647,抚州市,医学分院,细颗粒物(PM2.5),83,107,83,61,45,47,,86,81,45,31,17,10,1.2,1
2024-12-29T2100,2207A,121.6094,41.998,阜新市,工业园区,细颗粒物(PM2.5),260,282,117,210,61,13,,36,26,61,42,55,24,3.0,1.3
2024-12-29T2100,2208A,121.6697,42.0279,阜新市,长青街,细颗粒物(PM2.5),107,120,92,80,49,12,,32,23,59,46,22,25,1.7,1.7
2024-12-29T2100,2209A,121.6673,42.0705,阜新市,农业园区,细颗粒物(PM2.5),89,126,71,66,37,16,,42,27,58,27,28,27,1.6,1.2
2024-12-29T2100,2210A,121.6717,42.0224,阜新市,东苑,细颗粒物(PM2.5),93,103,98,69,52,27,,42,35,45,37,23,29,1.3,1.8
2024-12-29T2100,2211A,121.6506,42.0498,阜新市,玉龙新城,细颗粒物(PM2.5),179,200,101,135,50,20,,38,31,55,44,16,16,2.2,1.2
2024-12-29T2100,2301A,115.8277,32.8929,阜阳市,市监测站,细颗粒物(PM2.5),105,94,67,79,48,43,,78,68,44,29,8,7,0.5,0.4
2024-12-29T2100,2303A,115.8554,32.8605,阜阳市,开发区,颗粒物(PM10),70,89,87,50,44,67,,86,83,28,27,9,8,0.4,0.5
2024-12-29T2100,2875A,115.784,32.8892,阜阳市,阜阳职业技术学院,细颗粒物(PM2.5),72,66,59,52,37,73,,86,83,23,20,10,8,0.6,0.5
2024-12-29T2100,3468A,115.7901,32.8613,阜阳市,市规划展馆,细颗粒物(PM2.5),84,99,67,62,42,64,,90,83,30,21,8,6,0.6,0.5
2024-12-29T2100,3469A,115.836,32.9183,阜阳市,枣园社区,细颗粒物(PM2.5),103,95,69,77,44,10,,89,74,84,40,6,5,0.5,0.4
2024-12-29T2100,2669A,102.9099,34.9841,甘南藏族自治州,州政府,,46,46,59,25,23,64,,78,72,16,25,10,13,0.6,0.9
2024-12-29T2100,3380A,102.8914,34.9617,甘南藏族自治州,甘肃民族师范学院,,40,40,66,13,20,80,,85,83,14,31,4,8,0.4,0.7
2024-12-29T2100,2570A,101.9603,30.0475,甘孜藏族自治州,水桥子,,23,,24,16,15,54,,63,63,14,31,2,2,0.6,0.5
2024-12-29T2100,3065A,101.9533,29.9972,甘孜藏族自治州,州环保局,,22,22,24,13,7,59,,68,68,13,25,4,4,0.5,0.4
2024-12-29T2100,3414A,115.8347,28.932,赣江新区,桑海产业园,细颗粒物(PM2.5),83,114,90,61,49,31,,82,76,72,52,13,12,0.8,0.8
2024-12-29T2100,2362A,114.9017,25.9149,赣州市,通天岩,细颗粒物(PM2.5),89,68,60,66,49,65,,93,86,9,10,2,3,0.6,0.6
2024-12-29T2100,2363A,114.9367,25.8664,赣州市,地委,颗粒物(PM10),73,95,77,48,46,32,,101,83,68,31,20,8,1.3,1.1
2024-12-29T2100,2364A,114.9461,25.8481,赣州市,气象台,颗粒物(PM10),91,132,87,42,40,14,,108,76,103,49,17,15,1.0,0.9
2024-12-29T2100,2365A,114.9322,25.8333,赣州市,市图书馆,颗粒物(PM10),87,124,76,62,49,8,,101,87,99,39,4,4,1.3,1
2024-12-29T2100,2366A,114.8905,25.8471,赣州市,华坚鞋城,颗粒物(PM10),86,121,74,62,41,9,,92,61,81,30,7,8,0.9,0.6
2024-12-29T2100,3109A,115.0093,25.8613,赣州市,赣县区卫计委,细颗粒物(PM2.5),92,109,78,68,56,13,,88,70,74,35,4,4,0.6,0.4
2024-12-29T2100,2683A,106.2319,36.1417,固原市,马园,颗粒物(PM10),93,135,87,36,43,13,,57,47,53,43,17,11,0.7,0.8
2024-12-29T2100,2684A,106.2792,36.0022,固原市,监测站,细颗粒物(PM2.5),92,75,55,68,33,20,,76,63,61,32,20,10,1.8,0.9
2024-12-29T2100,2685A,106.2375,36.0211,固原市,新区,颗粒物(PM10),60,69,59,24,31,42,,71,58,44,36,8,9,0.7,0.9
2024-12-29T2100,3522A,106.2177,35.9959,固原市,原州区十五小,,36,36,56,18,32,65,,69,62,22,30,9,8,0.2,0.8
2024-12-29T2100,2543A,106.6308,30.5278,广安市,小平旧居,,,,,,,,,,,,,,,,
2024-12-29T2100,2544A,106.6303,30.4576,广安市,市委,细颗粒物(PM2.5),235,205,126,185,109,16,,32,27,44,32,2,2,1.2,1
2024-12-29T2100,2545A,106.6271,30.4663,广安市,友谊中学,细颗粒物(PM2.5),201,177,128,151,111,17,,24,,65,39,4,3,1.0,0.9
2024-12-29T2100,2547A,106.6388,30.4551,广安市,广电花园,细颗粒物(PM2.5),224,181,118,174,105,12,,29,21,44,32,3,3,0.8,0.7
2024-12-29T2100,2902A,106.6351,30.4865,广安市,北辰小学,细颗粒物(PM2.5),170,162,126,129,108,14,,30,26,46,30,7,7,1.2,1.1
2024-12-29T2100,2523A,105.8945,32.4535,广元市,黑石坡,细颗粒物(PM2.5),72,53,42,52,36,50,,66,66,13,8,13,13,0.5,0.6
2024-12-29T2100,2524A,105.821,32.4444,广元市,老城,颗粒物(PM10),74,98,69,47,36,4,,36,34,76,56,3,2,1.1,0.9
2024-12-29T2100,2526A,105.8628,32.4287,广元市,监测站,"颗粒物(PM10),细颗粒物(PM2.5)",54,58,60,38,42,34,,52,51,40,44,1,5,0.8,1
2024-12-29T2100,3617A,105.8047,32.4166,广元市,经开区,细颗粒物(PM2.5),94,117,78,70,49,6,,35,35,70,49,5,6,1.3,1
2024-12-29T2100,1345A,113.2347,23.1423,广州市,广雅中学,细颗粒物(PM2.5),104,132,91,78,57,7,,106,88,142,51,10,11,1.1,0.7
2024-12-29T2100,1346A,113.2612,23.105,广州市,市五中,,,128,87,,78,16,,115,101,101,31,4,6,1.3,0.8
2024-12-29T2100,1348A,113.3478,23.0916,广州市,广东商学院,细颗粒物(PM2.5),119,154,85,90,56,18,,114,95,130,41,6,7,1.0,0.5
2024-12-29T2100,1349A,113.4332,23.1047,广州市,市八十六中,细颗粒物(PM2.5),114,172,98,86,54,4,,107,86,149,54,7,8,1.1,0.7
2024-12-29T2100,1350A,113.3505,22.9483,广州市,番禺中学,细颗粒物(PM2.5),115,148,91,87,58,58,,136,130,100,47,,7,,0.8
2024-12-29T2100,1351A,113.2146,23.3916,广州市,花都师范,细颗粒物(PM2.5),93,122,86,69,56,27,,116,102,108,32,10,9,1.0,0.6
2024-12-29T2100,1352A,113.2597,23.1331,广州市,市监测站,细颗粒物(PM2.5),90,111,88,67,54,49,,111,99,81,42,6,8,1.0,0.7
2024-12-29T2100,1353A,113.5618,23.312,广州市,九龙镇镇龙,细颗粒物(PM2.5),94,136,80,70,52,18,,105,82,90,40,6,7,0.9,0.7
2024-12-29T2100,1354A,113.2765,23.1544,广州市,麓湖,细颗粒物(PM2.5),85,94,78,63,58,24,,115,89,93,43,4,6,0.8,0.6
2024-12-29T2100,1355A,113.443,23.3035,广州市,帽峰山森林公园,颗粒物(PM10),57,63,61,26,29,107,,121,120,27,21,7,8,0.5,0.5
2024-12-29T2100,2846A,113.3221,23.1322,广州市,体育西,细颗粒物(PM2.5),107,139,88,80,55,21,,105,90,104,32,6,7,1.2,0.8
2024-12-29T2100,3298A,113.5717,23.5491,广州市,从化街口,细颗粒物(PM2.5),85,97,68,63,46,28,,123,98,76,27,6,8,1.0,0.7
2024-12-29T2100,3299A,113.3472,23.3692,广州市,白云竹料,细颗粒物(PM2.5),112,145,85,84,54,25,,123,106,94,30,8,9,1.2,0.7
2024-12-29T2100,3300A,113.2981,23.237,广州市,白云嘉禾,细颗粒物(PM2.5),95,138,92,71,53,13,,104,82,118,60,8,9,1.3,0.8
2024-12-29T2100,3301A,113.4256,23.1716,广州市,黄埔科学城,细颗粒物(PM2.5),82,102,78,60,51,24,,114,95,77,32,8,9,1.2,0.9
2024-12-29T2100,3302A,113.3942,23.0483,广州市,番禺大学城,细颗粒物(PM2.5),100,110,80,75,53,74,,132,128,78,46,11,10,0.9,0.7
2024-12-29T2100,3303A,113.4922,22.8168,广州市,南沙黄阁,细颗粒物(PM2.5),107,137,95,80,60,72,,140,134,82,45,8,11,1.0,0.7
2024-12-29T2100,3304A,113.5342,22.7896,广州市,南沙街,细颗粒物(PM2.5),113,147,92,85,58,88,,152,147,66,42,7,8,0.9,0.6
2024-12-29T2100,3443A,113.2902,23.5544,广州市,花都梯面,,,,68,42,46,33,,122,93,63,25,7,11,0.8,0.7
2024-12-29T2100,3445A,113.7858,23.7478,广州市,从化良口,,47,47,53,31,38,84,,114,107,24,18,6,7,0.7,0.6
2024-12-29T2100,3446A,113.8051,23.2614,广州市,增城荔城,细颗粒物(PM2.5),68,83,67,49,46,53,,126,111,52,21,4,6,0.9,0.7
2024-12-29T2100,2505A,109.568,23.1478,贵港市,德智高中,,,,,,,,,,,,,,,,
2024-12-29T2100,2506A,109.6047,23.0666,贵港市,江南子站,细颗粒物(PM2.5),112,134,125,84,76,114,,141,139,36,34,15,14,0.9,1.1
2024-12-29T2100,2507A,109.6014,23.0948,贵港市,贵城子站,细颗粒物(PM2.5),132,139,103,100,80,82,,131,124,51,35,16,14,1.2,1.1
2024-12-29T2100,2508A,109.5669,23.1065,贵港市,荷城子站,细颗粒物(PM2.5),122,141,108,92,74,98,,129,122,40,31,19,18,1.0,0.9
2024-12-29T2100,3405A,109.5886,23.1172,贵港市,新世纪学校,细颗粒物(PM2.5),142,153,116,108,79,86,,137,127,48,32,16,14,1.1,0.9
2024-12-29T2100,1439A,106.6899,26.5998,贵阳市,马鞍山,细颗粒物(PM2.5),58,56,55,41,34,38,,76,66,29,23,8,9,0.7,0.7
2024-12-29T2100,1440A,106.6971,26.5694,贵阳市,市环保站,细颗粒物(PM2.5),84,90,70,62,48,45,,71,63,52,38,22,16,0.8,0.6
2024-12-29T2100,1441A,106.6243,26.6266,贵阳市,鉴湖路,"颗粒物(PM10),细颗粒物(PM2.5)",67,83,59,48,39,32,,80,70,51,24,7,8,0.9,0.6
2024-12-29T2100,1442A,106.7487,26.6343,贵阳市,燕子冲,细颗粒物(PM2.5),62,63,55,44,48,50,,79,73,27,23,11,14,0.7,0.7
2024-12-29T2100,1443A,106.6555,26.4365,贵阳市,碧云窝,细颗粒物(PM2.5),70,88,66,51,40,36,,88,75,49,26,40,22,0.8,0.7
2024-12-29T2100,1444A,106.694,26.5161,贵阳市,中院村,细颗粒物(PM2.5),83,83,89,61,52,36,,57,47,69,48,53,20,1.3,0.8
2024-12-29T2100,1445A,106.7109,26.6027,贵阳市,红边门,细颗粒物(PM2.5),85,88,66,63,51,33,,74,64,54,33,42,22,1.4,1
2024-12-29T2100,1446A,106.7164,26.5699,贵阳市,新华路,细颗粒物(PM2.5),77,75,66,56,43,55,,80,72,32,27,21,15,0.8,0.7
2024-12-29T2100,1447A,106.674,26.5424,贵阳市,太慈桥,细颗粒物(PM2.5),58,56,58,41,39,26,,83,70,47,29,8,13,0.8,0.6
2024-12-29T2100,1552A,106.805,26.3003,贵阳市,桐木岭,,,,,,,,,,,,,,,,
2024-12-29T2100,1862A,110.4144,25.3167,桂林市,电子科大尧山校区,细颗粒物(PM2.5),78,77,72,57,54,81,,109,104,21,16,10,17,0.7,0.7
2024-12-29T2100,1863A,110.2819,25.2697,桂林市,监测站,细颗粒物(PM2.5),104,101,87,78,70,71,,109,101,49,32,14,13,1.1,1
2024-12-29T2100,1864A,110.3089,25.2708,桂林市,龙隐路小学,细颗粒物(PM2.5),102,106,84,76,72,82,,116,112,43,29,26,18,0.8,0.7
2024-12-29T2100,1865A,110.2869,25.2178,桂林市,八中,细颗粒物(PM2.5),107,111,84,80,68,62,,109,101,51,27,16,15,1.2,0.9
2024-12-29T2100,3403A,110.1764,25.2381,桂林市,创业大厦,细颗粒物(PM2.5),113,122,106,85,75,64,,111,107,57,35,30,20,0.9,0.7
2024-12-29T2100,3531A,110.296,25.1253,桂林市,旅游学院,细颗粒物(PM2.5),149,156,91,114,72,63,,117,110,58,31,13,15,1.2,0.9
2024-12-29T2100,2674A,100.2561,34.4714,果洛藏族自治州,玛沁县大武镇,颗粒物(PM10),56,62,38,16,17,79,,82,82,2,10,8,12,0.4,0.6
2024-12-29T2100,1129A,126.5422,45.755,哈尔滨市,岭北,细颗粒物(PM2.5),55,47,53,39,44,40,,46,41,35,36,13,12,0.8,0.8
2024-12-29T2100,1130A,126.561,45.8167,哈尔滨市,松北商大,细颗粒物(PM2.5),84,99,55,62,39,15,,39,29,59,37,9,6,1.0,0.7
2024-12-29T2100,1131A,126.979,45.5419,哈尔滨市,阿城会宁,,19,18,56,12,46,60,,58,57,8,23,7,9,0.5,0.9
2024-12-29T2100,1132A,126.599,45.7222,哈尔滨市,南岗学府路,,42,42,76,19,53,32,,36,34,37,40,14,12,0.4,0.6
2024-12-29T2100,1133A,126.689,45.7733,哈尔滨市,太平宏伟公园,细颗粒物(PM2.5),74,80,65,54,45,15,,36,28,48,37,16,12,0.9,0.8
2024-12-29T2100,1134A,126.635,45.7667,哈尔滨市,道外承德广场,,48,48,65,33,39,42,,39,39,24,37,10,11,0.4,0.6
2024-12-29T2100,1135A,126.685,45.7319,哈尔滨市,香坊红旗大街,细颗粒物(PM2.5),67,53,61,48,54,34,,40,37,33,37,13,11,0.7,0.8
2024-12-29T2100,1136A,126.6411,45.7258,哈尔滨市,动力和平路,,42,42,61,26,47,42,,38,38,18,35,9,14,2.6,1
2024-12-29T2100,1137A,126.593,45.7478,哈尔滨市,道里建国路,,49,49,62,32,49,22,,27,25,45,44,25,20,2.0,1.1
2024-12-29T2100,1138A,126.615,45.61,哈尔滨市,平房东轻厂,,36,30,55,25,43,55,,51,51,9,30,7,10,0.3,0.6
2024-12-29T2100,1139A,126.595,45.9855,哈尔滨市,呼兰师专,细颗粒物(PM2.5),115,93,67,87,58,18,,33,28,55,44,10,9,1.1,0.9
2024-12-29T2100,1140A,126.6206,45.6842,哈尔滨市,省农科院,细颗粒物(PM2.5),67,70,83,48,70,17,,35,25,53,48,10,8,0.7,0.9
2024-12-29T2100,2688A,93.5128,42.8172,哈密市,地区监测站,颗粒物(PM10),72,93,90,27,29,46,,52,50,26,23,7,6,0.5,0.4
2024-12-29T2100,2689A,93.4961,42.8328,哈密市,哈密师范学校,颗粒物(PM10),65,80,84,28,32,38,,46,44,32,33,6,6,0.6,0.7
2024-12-29T2100,2671A,100.9048,36.9639,海北藏族自治州,海晏县西海镇,"颗粒物(PM10),细颗粒物(PM2.5)",55,60,33,39,20,52,,72,71,42,15,25,19,1.1,0.7
2024-12-29T2100,3867A,102.0738,36.5056,海东市,平安区公安北苑,颗粒物(PM10),66,82,77,41,54,45,,61,60,42,40,34,19,0.8,1.1
2024-12-29T2100,1409A,110.576,19.9507,海口市,东寨港,细颗粒物(PM2.5),74,60,51,54,41,102,,129,127,6,7,8,9,0.8,0.7
2024-12-29T2100,1410A,110.3232,20.0574,海口市,海南大学,颗粒物(PM10),63,76,69,41,43,136,,152,152,18,22,6,7,0.6,0.6
2024-12-29T2100,1411A,110.283,20.0053,海口市,秀英海南医院,颗粒物(PM10),60,69,66,34,40,136,,153,153,15,16,4,6,0.6,0.5
2024-12-29T2100,1412A,110.338,19.9969,海口市,海南师范大学,颗粒物(PM10),62,73,68,35,40,134,,155,154,15,17,5,7,0.6,0.6
2024-12-29T2100,1413A,110.33,20.0356,海口市,龙华路环保局宿舍,颗粒物(PM10),57,64,63,34,39,134,,157,156,17,18,6,7,0.6,0.6
2024-12-29T2100,3539A,110.5111,19.9736,海口市,桂林洋子站,颗粒物(PM10),56,62,62,36,41,121,,153,150,15,16,5,6,0.6,0.5
2024-12-29T2100,2673A,100.6188,36.2866,海南藏族自治州,共和县恰卜恰镇,,42,42,32,13,15,20,,67,61,58,24,8,7,0.7,0.6
2024-12-29T2100,2676A,97.3731,37.3753,海西蒙古族藏族自治州,德令哈市,,,,40,,15,,,70,,,17,,16,,0.6
2024-12-29T2100,1048A,114.5302,36.6116,邯郸市,东污水处理厂,颗粒物(PM10),74,98,84,51,46,6,,34,25,67,56,7,9,1.1,1.1
2024-12-29T2100,1049A,114.4918,36.5713,邯郸市,矿院,颗粒物(PM10),84,118,94,53,44,2,,29,21,65,52,6,8,1.3,1.2
2024-12-29T2100,1050A,114.484,36.6133,邯郸市,丛台公园,"颗粒物(PM10),细颗粒物(PM2.5)",75,99,85,55,44,4,,30,22,67,50,8,6,1.3,1
2024-12-29T2100,3458A,114.7895,36.5593,邯郸市,香泉濮院小区,颗粒物(PM10),68,85,94,42,39,38,,55,52,28,34,9,9,0.6,0.7
2024-12-29T2100,3579A,114.50634,36.77178,邯郸市,永年区实验高中,颗粒物(PM10),92,133,98,64,41,9,,28,19,62,47,30,23,2.7,1.4
2024-12-29T2100,3580A,114.20016,36.44293,邯郸市,峰峰矿区临水派出所,,42,42,35,22,17,70,,75,71,16,19,11,14,0.4,0.7
2024-12-29T2100,2634A,106.9893,33.1842,汉中市,汉川机床厂子校,细颗粒物(PM2.5),205,159,93,155,83,12,,35,30,35,26,8,11,1.8,1.3
2024-12-29T2100,2635A,107.0154,33.0706,汉中市,市监测站,细颗粒物(PM2.5),149,141,115,114,91,15,,24,23,76,55,14,9,2.0,1.5
2024-12-29T2100,2636A,107.0089,33.1138,汉中市,鑫源开发区,细颗粒物(PM2.5),206,160,139,156,117,15,,22,21,55,52,10,10,1.6,1.4
2024-12-29T2100,2637A,107.007,33.0323,汉中市,南郑大河坎水厂,细颗粒物(PM2.5),152,156,114,116,90,14,,27,26,65,40,14,8,2.0,1.5
2024-12-29T2100,1223A,120.2072,30.2111,杭州市,滨江,细颗粒物(PM2.5),100,120,85,75,46,10,,53,46,96,57,9,7,0.7,0.6
2024-12-29T2100,1224A,120.0633,30.2747,杭州市,西溪,细颗粒物(PM2.5),94,111,68,70,42,32,,57,51,55,49,7,7,0.8,0.7
2024-12-29T2100,1226A,120.3461,30.3153,杭州市,下沙,颗粒物(PM10),79,108,98,57,47,11,,56,48,106,72,8,9,0.8,0.8
2024-12-29T2100,1227A,120.1269,30.2456,杭州市,卧龙桥,细颗粒物(PM2.5),72,82,60,52,38,10,,60,42,64,47,6,6,0.8,0.7
2024-12-29T2100,1228A,120.1903,30.2692,杭州市,浙江农大,细颗粒物(PM2.5),95,106,81,71,52,19,,54,47,80,54,9,8,0.8,0.7
2024-12-29T2100,1230A,120.1197,30.3119,杭州市,和睦小学,细颗粒物(PM2.5),75,89,69,55,42,33,,62,55,75,55,9,7,1.0,0.9
2024-12-29T2100,1231A,120.3019,30.4183,杭州市,临平镇,颗粒物(PM10),71,91,91,47,43,50,,60,55,52,58,8,9,0.7,0.8
2024-12-29T2100,1232A,120.2697,30.1819,杭州市,城厢镇,细颗粒物(PM2.5),89,122,89,66,50,16,,56,46,88,57,7,7,0.8,0.7
2024-12-29T2100,1233A,120.0883,30.1808,杭州市,云栖,细颗粒物(PM2.5),113,91,66,85,39,11,,51,36,67,52,5,6,0.7,0.6
2024-12-29T2100,3557A,119.9464,30.0494,杭州市,镇二中,细颗粒物(PM2.5),88,99,63,65,43,10,,58,50,66,44,7,8,0.9,0.8
2024-12-29T2100,3558A,119.7183,30.2367,杭州市,市府大楼,细颗粒物(PM2.5),155,213,71,118,50,8,,66,50,86,51,7,7,1.5,0.9
2024-12-29T2100,3656A,120.1556,30.2864,杭州市,消防大队,细颗粒物(PM2.5),88,104,76,65,43,28,,65,55,71,52,9,9,0.9,0.8
2024-12-29T2100,1270A,117.1959,31.7848,合肥市,明珠广场,细颗粒物(PM2.5),73,78,86,53,52,40,,71,61,56,54,12,11,0.8,0.8
2024-12-29T2100,1271A,117.3072,31.8764,合肥市,三里街,细颗粒物(PM2.5),73,92,97,53,53,31,,65,53,66,58,7,6,0.7,0.7
2024-12-29T2100,1272A,117.2588,31.8707,合肥市,琥珀山庄,细颗粒物(PM2.5),73,85,83,53,51,43,,74,62,61,60,8,7,1.1,1.2
2024-12-29T2100,1273A,117.1604,31.9052,合肥市,董铺水库,颗粒物(PM10),68,85,78,44,35,41,,70,63,56,44,5,5,0.6,0.5
2024-12-29T2100,1274A,117.25,31.8571,合肥市,长江中路,细颗粒物(PM2.5),89,100,98,66,59,39,,65,58,60,59,9,8,0.7,0.8
2024-12-29T2100,1275A,117.266,31.9436,合肥市,庐阳区,颗粒物(PM10),70,90,90,44,43,44,,78,66,63,63,7,6,0.8,0.8
2024-12-29T2100,1276A,117.336,31.8586,合肥市,瑶海区,细颗粒物(PM2.5),75,92,95,55,49,20,,70,54,87,60,5,5,0.7,0.7
2024-12-29T2100,1277A,117.3027,31.7964,合肥市,包河区,细颗粒物(PM2.5),73,80,89,53,52,48,,79,69,49,54,6,6,0.6,0.6
2024-12-29T2100,1278A,117.2776,31.7385,合肥市,滨湖新区,颗粒物(PM10),70,90,90,46,45,58,,78,76,31,40,9,9,0.7,0.6
2024-12-29T2100,1279A,117.1318,31.8403,合肥市,高新区,细颗粒物(PM2.5),67,73,84,48,48,54,,71,62,49,62,3,3,0.8,0.8
2024-12-29T2100,3464A,117.3803,31.9147,合肥市,高教基地,颗粒物(PM10),70,90,87,50,47,37,,78,64,68,53,10,9,0.7,0.6
2024-12-29T2100,3614A,79.924,37.0877,和田地区,地区环保局,颗粒物(PM10),107,163,152,52,81,44,,63,63,30,35,17,17,0.9,1.2
2024-12-29T2100,3615A,79.9131,37.113,和田地区,市环保局,颗粒物(PM10),83,116,116,55,69,27,,58,57,57,49,16,16,1.0,1.9
2024-12-29T2100,2516A,108.2011,24.715,河池市,东仁乐园,细颗粒物(PM2.5),103,128,72,77,64,20,,74,63,88,34,13,21,1.1,0.9
2024-12-29T2100,2517A,108.0497,24.6947,河池市,市环保站,细颗粒物(PM2.5),88,75,70,65,57,55,,122,110,47,22,9,14,1.0,0.8
2024-12-29T2100,2518A,108.0983,24.6989,河池市,市疾控中心,细颗粒物(PM2.5),94,121,75,70,58,26,,120,97,89,35,10,18,1.0,0.9
2024-12-29T2100,1696A,114.6778,23.7569,河源市,源西,细颗粒物(PM2.5),72,77,63,52,52,42,,108,86,43,18,5,8,1.1,0.8
2024-12-29T2100,1697A,114.6944,23.7586,河源市,东埔,细颗粒物(PM2.5),84,81,78,62,58,41,,118,95,65,33,4,7,1.2,0.9
2024-12-29T2100,1698A,114.6892,23.7233,河源市,老城,细颗粒物(PM2.5),69,66,68,50,52,49,,112,101,50,26,4,7,0.7,0.6
2024-12-29T2100,1718A,115.4208,35.2464,菏泽市,气象局,细颗粒物(PM2.5),125,162,130,95,66,71,,88,86,32,31,6,6,0.7,0.6
2024-12-29T2100,1719A,115.4747,35.2375,菏泽市,市政协,细颗粒物(PM2.5),130,155,124,99,65,72,,88,86,35,32,7,7,0.8,0.7
2024-12-29T2100,3374A,115.5564,35.0891,菏泽市,定陶老年大学,细颗粒物(PM2.5),92,117,98,68,54,67,,88,85,30,30,9,9,0.7,0.6
2024-12-29T2100,3647A,115.4702,35.2706,菏泽市,菏泽医专,细颗粒物(PM2.5),105,149,117,79,52,79,,89,88,33,34,14,11,1.0,0.9
2024-12-29T2100,2514A,111.5264,24.4172,贺州市,环保小区,细颗粒物(PM2.5),117,152,90,88,70,49,,106,95,43,30,8,8,1.3,0.9
2024-12-29T2100,2515A,111.5608,24.4078,贺州市,政协大楼,细颗粒物(PM2.5),100,118,83,75,54,43,,110,98,58,36,7,6,1.0,0.7
2024-12-29T2100,3534A,111.4744,24.4553,贺州市,西湾,细颗粒物(PM2.5),95,124,93,71,66,56,,112,102,46,32,8,8,1.0,0.8
2024-12-29T2100,2385A,114.17,35.9019,鹤壁市,市监测站,细颗粒物(PM2.5),92,111,72,68,36,21,,44,32,45,25,10,6,0.6,0.4
2024-12-29T2100,2386A,114.2956,35.7511,鹤壁市,市交警支队,细颗粒物(PM2.5),64,76,90,46,45,24,,41,38,43,43,6,7,0.8,0.7
2024-12-29T2100,2387A,114.2878,35.7306,鹤壁市,迎宾馆,颗粒物(PM10),67,84,97,41,38,26,,43,40,39,39,5,10,0.8,0.7
2024-12-29T2100,3474A,114.2617,35.6822,鹤壁市,大新区,细颗粒物(PM2.5),72,82,91,52,43,4,,40,31,70,50,10,9,0.8,0.7
2024-12-29T2100,3596A,114.1572,35.9603,鹤壁市,南山宾馆,颗粒物(PM10),62,73,55,39,38,53,,65,43,15,13,3,4,0.3,0.2
2024-12-29T2100,2244A,130.2537,47.3416,鹤岗市,哈啤分公司,细颗粒物(PM2.5),52,49,43,36,28,26,,44,29,23,17,14,16,1.3,1
2024-12-29T2100,2245A,130.2684,47.3086,鹤岗市,斯达机电,细颗粒物(PM2.5),60,,45,43,29,27,,50,29,30,22,17,15,0.8,0.6
2024-12-29T2100,2246A,130.3114,47.3388,鹤岗市,东山纸板厂,,,,30,65,38,12,,40,18,53,33,15,17,2.0,0.8
2024-12-29T2100,2247A,130.1097,47.3382,鹤岗市,五号水库,,35,35,35,23,22,48,,62,54,14,12,4,6,0.4,0.3
2024-12-29T2100,2263A,127.4833,50.2524,黑河市,交通局,细颗粒物(PM2.5),69,83,30,50,18,12,,44,23,43,17,7,6,1.4,0.7
2024-12-29T2100,2264A,127.5144,50.2341,黑河市,环保局,,39,,26,27,21,8,,49,29,45,16,6,5,0.8,0.5
2024-12-29T2100,2265A,127.5291,50.2472,黑河市,大黑河岛,,,22,30,19,29,6,,26,20,25,12,2,2,,
2024-12-29T2100,1074A,115.6838,37.7541,衡水市,电机北厂,颗粒物(PM10),90,129,100,50,50,37,,51,48,32,37,14,16,0.7,0.7
2024-12-29T2100,1075A,115.6303,37.7316,衡水市,市监测站,颗粒物(PM10),90,129,95,51,49,19,,44,38,55,49,12,15,0.7,0.8
2024-12-29T2100,3188A,115.6683,37.7217,衡水市,市城管局,颗粒物(PM10),92,133,102,53,51,31,,48,44,40,43,12,15,0.7,0.8
2024-12-29T2100,3459A,115.5989,37.5491,衡水市,地表水厂,颗粒物(PM10),93,135,102,64,56,5,,46,31,70,50,15,14,0.9,0.8
2024-12-29T2100,2456A,112.5003,26.9167,衡阳市,原169医院,细颗粒物(PM2.5),108,112,90,81,67,15,,88,71,115,56,19,38,0.6,0.6
2024-12-29T2100,2457A,112.6194,26.9258,衡阳市,衡阳化工总厂,细颗粒物(PM2.5),156,148,100,119,76,31,,103,91,88,42,13,16,1.4,0.9
2024-12-29T2100,2458A,112.6211,26.8956,衡阳市,珠晖区环保局,细颗粒物(PM2.5),129,121,93,98,70,38,,109,100,82,41,12,15,1.3,1
2024-12-29T2100,2459A,112.6197,26.8733,衡阳市,市委党校,细颗粒物(PM2.5),117,116,93,88,65,78,,109,107,43,30,14,18,1.2,1
2024-12-29T2100,2460A,112.6006,26.8919,衡阳市,市监测站,细颗粒物(PM2.5),127,128,106,96,78,72,,107,104,49,31,13,16,1.3,0.9
2024-12-29T2100,2461A,112.5664,26.9056,衡阳市,真空机电公司,细颗粒物(PM2.5),109,129,111,82,69,82,,104,104,45,36,10,11,1.2,0.9
2024-12-29T2100,3399A,112.6703,26.882,衡阳市,师范学院,细颗粒物(PM2.5),133,134,102,101,76,44,,110,104,63,31,12,17,1.0,0.8
2024-12-29T2100,2608A,103.3772,23.3993,红河哈尼族彝族自治州,污水处理厂,细颗粒物(PM2.5),65,,30,47,29,45,,64,60,12,9,11,9,0.8,0.8
2024-12-29T2100,2609A,103.3861,23.35,红河哈尼族彝族自治州,监测站,,41,41,29,28,26,60,,70,68,13,9,8,8,0.7,0.7
2024-12-29T2100,3038A,103.3758,23.368,红河哈尼族彝族自治州,州图书馆,细颗粒物(PM2.5),58,42,22,41,21,48,,61,59,15,9,16,8,0.7,0.6
2024-12-29T2100,1090A,111.6507,40.7517,呼和浩特市,呼市一监,颗粒物(PM10),398,498,232,101,50,12,,57,49,39,29,14,13,0.8,0.7
2024-12-29T2100,1091A,111.6572,40.8033,呼和浩特市,小召,颗粒物(PM10),200,349,192,74,46,10,,42,34,72,54,14,15,1.1,1
2024-12-29T2100,1094A,111.7516,40.8369,呼和浩特市,如意水处理厂,颗粒物(PM10),198,346,161,65,43,4,,42,31,64,46,18,15,1.0,0.8
2024-12-29T2100,1095A,111.7276,40.8062,呼和浩特市,二十九中,颗粒物(PM10),209,356,177,76,44,6,,42,35,71,49,17,16,1.2,0.9
2024-12-29T2100,1096A,111.5512,40.7866,呼和浩特市,工大金川校区,颗粒物(PM10),191,331,172,74,44,4,,42,30,72,53,12,13,1.2,0.8
2024-12-29T2100,1097A,111.717,40.7612,呼和浩特市,化肥厂生活区,颗粒物(PM10),348,458,194,106,48,10,,49,43,71,48,14,12,1.3,0.9
2024-12-29T2100,3698A,111.5968,40.8178,呼和浩特市,红旗小学,颗粒物(PM10),187,324,180,73,42,3,,39,27,72,49,10,11,1.1,0.8
2024-12-29T2100,3699A,111.6518,40.8389,呼和浩特市,海东办,颗粒物(PM10),296,417,201,107,49,5,,39,30,76,54,14,14,1.9,1.2
2024-12-29T2100,2192A,119.7594,49.2261,呼伦贝尔市,区环保局,细颗粒物(PM2.5),52,51,35,36,26,19,,45,33,50,28,10,10,0.7,0.6
2024-12-29T2100,3061A,119.7512,49.1577,呼伦贝尔市,国华电力东,,47,47,26,29,18,34,,60,45,26,13,6,6,0.6,0.4
2024-12-29T2100,1250A,120.0751,30.8669,湖州市,城西水厂,细颗粒物(PM2.5),83,103,81,61,47,14,,62,45,84,53,9,8,0.6,0.5
2024-12-29T2100,2873A,120.0875,30.8955,湖州市,仁皇山新区,细颗粒物(PM2.5),88,100,84,65,50,28,,62,46,79,59,11,9,0.7,0.6
2024-12-29T2100,2907A,120.1844,30.8596,湖州市,吴兴区站,细颗粒物(PM2.5),83,102,71,61,45,26,,47,,81,60,10,9,0.7,0.6
2024-12-29T2100,3562A,120.4148,30.8538,湖州市,南浔区站,细颗粒物(PM2.5),69,79,83,50,53,55,,60,60,44,58,8,9,0.6,0.8
2024-12-29T2100,1607A,120.9092,40.7136,葫芦岛市,龙港区,颗粒物(PM10),55,60,80,34,50,36,,47,45,56,55,20,64,1.2,1.6
2024-12-29T2100,1608A,120.8392,40.7514,葫芦岛市,化工街,颗粒物(PM10),69,88,99,46,47,10,,34,29,69,51,20,30,1.2,1.2
2024-12-29T2100,1609A,120.8341,40.7073,葫芦岛市,新区,细颗粒物(PM2.5),65,73,79,47,51,14,,44,37,76,68,27,28,1.4,1.4
2024-12-29T2100,1610A,120.8695,40.7677,葫芦岛市,东城区,细颗粒物(PM2.5),58,62,83,41,42,11,,32,28,71,52,24,42,1.0,0.9
2024-12-29T2100,2482A,109.5981,27.5721,怀化市,林科所,细颗粒物(PM2.5),112,92,85,84,72,67,,71,71,28,28,18,17,1.6,1.4
2024-12-29T2100,2483A,109.9453,27.5444,怀化市,河西地税局,细颗粒物(PM2.5),123,117,118,93,99,59,,63,63,32,32,18,8,1.3,1.1
2024-12-29T2100,2484A,109.9781,27.5342,怀化市,市四医院,细颗粒物(PM2.5),133,123,134,101,98,50,,58,58,22,29,27,14,1.3,1.3
2024-12-29T2100,2485A,109.9972,27.5578,怀化市,监测楼,细颗粒物(PM2.5),117,119,133,88,89,46,,57,57,36,36,18,11,0.7,0.8
2024-12-29T2100,2486A,110.0394,27.583,怀化市,市委党校,细颗粒物(PM2.5),134,133,134,102,97,52,,57,57,35,39,60,27,1.1,1.1
2024-12-29T2100,1210A,119.036,33.5981,淮安市,钵池山,细颗粒物(PM2.5),68,80,77,49,46,56,,79,75,33,34,9,10,0.6,0.7
2024-12-29T2100,1211A,119.007,33.575,淮安市,北京南路,颗粒物(PM10),67,83,80,43,44,42,,70,61,45,46,12,11,0.6,0.5
2024-12-29T2100,1212A,118.989,33.6067,淮安市,市监测站,细颗粒物(PM2.5),85,83,77,63,52,46,,78,71,45,40,12,9,0.6,0.6
2024-12-29T2100,1213A,119.135,33.5039,淮安市,楚州区监测站,细颗粒物(PM2.5),70,88,96,51,51,42,,70,57,44,53,9,9,0.9,0.7
2024-12-29T2100,1214A,119.0186,33.6297,淮安市,淮阴区监测站,颗粒物(PM10),70,90,89,42,43,53,,75,68,40,40,11,11,0.8,0.9
2024-12-29T2100,3426A,118.8755,33.2894,淮安市,新华书店,细颗粒物(PM2.5),87,101,87,64,52,39,,78,69,50,41,11,15,0.8,0.6
2024-12-29T2100,2282A,116.8004,33.975,淮北市,监测站,颗粒物(PM10),61,72,84,37,50,68,,78,74,22,38,5,7,0.4,0.5
2024-12-29T2100,2283A,116.8091,33.9007,淮北市,烈山区政府,细颗粒物(PM2.5),63,74,94,45,50,59,,77,74,25,37,7,8,0.5,0.5
2024-12-29T2100,3330A,116.8873,33.9836,淮北市,杜集区检察院,颗粒物(PM10),59,68,84,41,49,69,,82,77,17,31,2,5,0.3,0.3
2024-12-29T2100,4017A,116.7923,33.9535,淮北市,市博物馆,颗粒物(PM10),58,66,85,34,51,71,,79,76,21,38,5,7,0.6,0.7
2024-12-29T2100,2277A,116.8305,32.7727,淮南市,潘集区政府,细颗粒物(PM2.5),114,119,82,86,54,45,,73,67,50,39,11,9,0.8,0.6
2024-12-29T2100,2278A,117.0067,32.6524,淮南市,师范学院,细颗粒物(PM2.5),79,104,68,58,39,50,,73,64,53,36,8,5,0.9,0.7
2024-12-29T2100,2279A,116.8569,32.5951,淮南市,谢家集区政府,"颗粒物(PM10),细颗粒物(PM2.5)",75,99,70,55,41,50,,73,68,41,31,7,6,0.8,0.6
2024-12-29T2100,2280A,116.8281,32.633,淮南市,八公山区政府,细颗粒物(PM2.5),73,93,64,53,36,64,,77,74,34,26,10,8,0.7,0.6
2024-12-29T2100,2281A,116.6325,32.6201,淮南市,焦岗湖风景区管理处,颗粒物(PM10),58,65,53,36,35,41,,53,52,41,35,2,2,0.5,0.3
2024-12-29T2100,2894A,117.0566,32.6531,淮南市,经济技术开发区消防队,颗粒物(PM10),74,98,72,45,39,58,,82,74,42,37,7,7,0.6,0.6
2024-12-29T2100,3329A,117.0108,32.5893,淮南市,山南新区,细颗粒物(PM2.5),100,122,80,75,43,42,,75,66,60,41,10,9,0.6,0.5
2024-12-29T2100,2446A,114.9028,30.4742,黄冈市,职工中心,细颗粒物(PM2.5),87,97,69,64,41,70,,87,85,48,42,13,8,1.0,0.3
2024-12-29T2100,2929A,114.8858,30.4519,黄冈市,红卫路,细颗粒物(PM2.5),93,96,70,69,46,60,,80,78,43,39,11,8,0.9,0.8
2024-12-29T2100,3398A,114.9136,30.4445,黄冈市,市林业局,细颗粒物(PM2.5),89,94,67,66,46,65,,81,78,43,37,15,11,0.9,0.8
2024-12-29T2100,2672A,102.0199,35.5102,黄南藏族自治州,同仁县隆务镇,,45,45,63,28,39,66,,78,76,8,10,10,10,0.7,0.8
2024-12-29T2100,2295A,118.2903,29.6963,黄山市,延安路89号,"颗粒物(PM10),细颗粒物(PM2.5)",60,69,50,43,36,48,,84,78,24,20,8,8,0.4,0.3
2024-12-29T2100,2296A,118.327,29.7178,黄山市,黄山东路89号,颗粒物(PM10),66,81,71,38,46,21,,76,58,40,23,6,6,0.6,0.5
2024-12-29T2100,2297A,118.1371,30.2756,黄山市,黄山区政府5号楼,"颗粒物(PM10),细颗粒物(PM2.5)",57,64,46,40,30,31,,83,69,20,16,7,7,0.6,0.5
2024-12-29T2100,2423A,115.0601,30.2313,黄石市,沈家营,颗粒物(PM10),68,85,69,42,43,68,,70,70,30,37,10,20,0.9,0.9
2024-12-29T2100,2424A,115.0817,30.2006,黄石市,陈家湾,颗粒物(PM10),60,69,62,42,44,90,,77,77,18,32,12,15,0.6,0.9
2024-12-29T2100,2426A,114.8988,30.2019,黄石市,铁山,细颗粒物(PM2.5),88,82,57,65,36,78,,91,90,27,19,18,17,0.9,1
2024-12-29T2100,2427A,115.0307,30.2092,黄石市,团城山,颗粒物(PM10),62,73,64,42,40,86,,82,82,23,38,10,12,0.6,0.8
2024-12-29T2100,3149A,115.0235,30.1578,黄石市,笔架山北路,细颗粒物(PM2.5),83,71,55,61,40,74,,87,87,32,32,14,12,0.9,0.9
2024-12-29T2100,1392A,114.4183,23.0528,惠州市,河南岸金山湖子站,细颗粒物(PM2.5),82,97,81,60,54,32,,113,93,67,27,6,9,1.2,0.9
2024-12-29T2100,1393A,114.4053,23.0822,惠州市,下埔横江三路子站,细颗粒物(PM2.5),87,99,83,64,56,43,,134,121,66,26,6,9,1.2,0.8
2024-12-29T2100,1394A,114.4103,23.1142,惠州市,江北云山西路子站,细颗粒物(PM2.5),85,111,80,63,54,28,,130,109,101,32,8,11,1.1,0.7
2024-12-29T2100,1395A,114.4645,22.7833,惠州市,惠阳区承修路船湖子站,颗粒物(PM10),69,88,95,40,49,110,,122,122,25,24,9,11,0.6,0.7
2024-12-29T2100,1396A,114.5317,22.7422,惠州市,大亚湾管委会子站,颗粒物(PM10),58,66,76,36,47,126,,138,137,30,27,11,13,0.5,0.5
2024-12-29T2100,3314A,114.4338,22.8134,惠州市,惠阳秋长,颗粒物(PM10),70,90,87,36,47,132,,141,141,29,25,12,12,0.7,0.7
2024-12-29T2100,3452A,114.6517,22.775,惠州市,大亚湾霞涌,细颗粒物(PM2.5),75,68,72,55,57,84,,138,128,34,18,8,9,0.8,0.9
2024-12-29T2100,2240A,130.9762,45.3001,鸡西市,环保局,细颗粒物(PM2.5),90,102,33,67,23,17,,54,36,60,12,18,7,1.8,0.6
2024-12-29T2100,2243A,130.9429,45.3039,鸡西市,第一中学,,35,35,28,24,19,31,,53,44,20,9,7,6,0.3,0.3
2024-12-29T2100,3707A,131.0207,45.3073,鸡西市,欧美日汽修厂,细颗粒物(PM2.5),204,217,63,154,48,5,,53,27,51,24,38,42,1.4,1
2024-12-29T2100,3709A,130.9967,45.3106,鸡西市,市政设施管理处,细颗粒物(PM2.5),100,146,44,75,33,9,,54,31,51,18,14,7,1.2,0.6
2024-12-29T2100,2367A,114.9754,27.0803,吉安市,红声器材厂,细颗粒物(PM2.5),87,107,93,64,54,23,,100,85,86,52,14,13,0.9,0.7
2024-12-29T2100,2368A,114.9658,27.0999,吉安市,市森林工业局,细颗粒物(PM2.5),85,105,85,63,53,33,,94,87,86,46,16,17,1.1,0.7
2024-12-29T2100,2369A,114.99,27.1312,吉安市,市环境监测站,细颗粒物(PM2.5),84,103,81,62,55,19,,103,90,94,48,15,19,0.8,0.7
2024-12-29T2100,2370A,115.0093,27.0968,吉安市,青原区法院,颗粒物(PM10),80,109,80,58,51,43,,93,77,62,52,15,14,0.9,0.8
2024-12-29T2100,1772A,126.54,43.8622,吉林市,哈达湾,,30,30,34,18,23,59,,60,60,18,24,9,10,0.6,0.6
2024-12-29T2100,1773A,126.5844,43.8358,吉林市,东局子,,25,24,34,17,23,68,,67,67,10,20,7,7,0.7,0.7
2024-12-29T2100,1774A,126.5052,43.8245,吉林市,电力学院,颗粒物(PM10),54,57,50,36,36,38,,56,53,36,26,11,10,1.0,0.9
2024-12-29T2100,1775A,126.6133,43.8972,吉林市,江北,,22,21,62,13,42,69,,62,61,10,26,10,11,0.5,0.8
2024-12-29T2100,1776A,126.555,43.8306,吉林市,江南公园,,30,30,37,17,26,61,,59,59,15,25,10,11,0.5,0.6
2024-12-29T2100,1778A,126.7061,43.7133,吉林市,丰满,,26,18,22,18,20,64,,66,66,5,6,6,5,0.3,0.3
2024-12-29T2100,2868A,126.4739,43.953,吉林市,九站,,40,40,47,25,35,56,,58,55,22,32,7,10,0.7,0.8
2024-12-29T2100,1299A,116.9862,36.6114,济南市,科干所,颗粒物(PM10),70,90,75,44,25,84,,84,84,26,21,8,8,0.6,0.6
2024-12-29T2100,1300A,116.9376,36.665,济南市,农科所,颗粒物(PM10),74,98,96,42,25,78,,77,77,32,36,9,11,0.6,0.6
2024-12-29T2100,1301A,117.1265,36.6734,济南市,开发区,细颗粒物(PM2.5),59,66,55,42,24,85,,88,87,21,18,8,7,0.6,0.6
2024-12-29T2100,1303A,117.0624,36.6868,济南市,省种子仓库,颗粒物(PM10),65,80,77,41,25,84,,84,83,18,28,7,8,0.6,0.6
2024-12-29T2100,1304A,116.9489,36.6447,济南市,机床二厂,颗粒物(PM10),75,100,112,49,30,86,,82,82,17,21,15,15,0.8,0.8
2024-12-29T2100,1305A,117.0495,36.663,济南市,市监测站,颗粒物(PM10),63,76,72,37,21,90,,88,88,17,23,8,7,0.6,0.6
2024-12-29T2100,1306A,116.7675,36.5484,济南市,长清党校,颗粒物(PM10),74,98,90,49,36,85,,86,86,25,26,7,8,0.8,0.8
2024-12-29T2100,1616A,117.6795,36.229,济南市,技术学院,细颗粒物(PM2.5),70,80,92,51,52,67,,74,74,26,45,12,15,0.7,1.1
2024-12-29T2100,1961A,117.532,36.6868,济南市,东山小学,颗粒物(PM10),63,76,76,37,28,77,,76,76,18,21,8,9,0.6,0.6
2024-12-29T2100,3059A,117.7161,36.2049,济南市,泰兴公司,细颗粒物(PM2.5),67,80,106,48,62,41,,72,69,51,46,12,15,0.6,0.8
2024-12-29T2100,3064A,117.6867,36.2171,济南市,莱芜战役纪念馆,"颗粒物(PM10),细颗粒物(PM2.5)",67,83,101,48,50,68,,75,75,28,50,10,13,0.6,0.9
2024-12-29T2100,3494A,117.1673,36.9782,济南市,济阳区政府,,,105,105,,,60,,,,45,45,187,144,0.8,0.8
2024-12-29T2100,3495A,117.1171,36.63,济南市,锦屏中学,颗粒物(PM10),58,66,54,39,20,89,,90,90,24,22,8,7,0.4,0.4
2024-12-29T2100,3682A,116.9814,36.6819,济南市,济南四建,颗粒物(PM10),68,85,81,42,28,78,,75,75,26,29,9,9,0.7,0.7
2024-12-29T2100,1653A,116.6251,35.4302,济宁市,火炬城,颗粒物(PM10),68,86,79,46,42,57,,81,78,35,35,11,9,0.6,0.7
2024-12-29T2100,1655A,116.5491,35.4042,济宁市,电化厂,"颗粒物(PM10),细颗粒物(PM2.5)",73,96,97,53,49,34,,74,66,64,41,14,12,0.8,0.9
2024-12-29T2100,3500A,116.5814,35.3707,济宁市,北湖一中,细颗粒物(PM2.5),85,76,77,63,48,68,,83,81,30,33,8,7,0.5,0.7
2024-12-29T2100,3501A,116.8249,35.5593,济宁市,服务中心,颗粒物(PM10),73,96,102,51,47,55,,74,71,39,47,14,14,1.0,1.1
2024-12-29T2100,3678A,116.5907,35.4054,济宁市,市第七中学,"颗粒物(PM10),细颗粒物(PM2.5)",64,78,83,46,44,68,,84,81,27,36,5,5,0.8,0.8
2024-12-29T2100,2255A,130.2751,46.8028,佳木斯市,佳纺,细颗粒物(PM2.5),53,44,36,37,31,36,,55,42,23,15,16,12,0.8,0.7
2024-12-29T2100,2256A,130.3995,46.8307,佳木斯市,发电厂,,49,41,29,34,27,8,,52,35,54,17,8,8,1.4,1.2
2024-12-29T2100,2257A,130.3258,46.7975,佳木斯市,环保局,,37,37,36,22,24,34,,48,41,25,19,13,12,1.1,0.8
2024-12-29T2100,2258A,130.3648,46.8032,佳木斯市,十一中,,35,31,29,24,26,25,,50,39,37,20,6,7,0.9,0.7
2024-12-29T2100,2259A,130.3794,46.7588,佳木斯市,四丰,,29,29,28,16,19,52,,52,52,5,6,1,1,0.4,0.5
2024-12-29T2100,1252A,120.7436,30.778,嘉兴市,清河小学,细颗粒物(PM2.5),64,73,72,46,41,47,,72,69,50,51,8,8,0.7,0.7
2024-12-29T2100,1253A,120.726,30.7478,嘉兴市,嘉兴学院,颗粒物(PM10),64,77,84,45,47,58,,73,72,44,55,7,8,0.5,0.7
2024-12-29T2100,2872A,120.7846,30.7525,嘉兴市,南湖区残联,颗粒物(PM10),66,82,83,42,46,61,,80,78,45,50,11,11,0.6,0.6
2024-12-29T2100,3407A,120.6916,30.7739,嘉兴市,秀洲住建,颗粒物(PM10),62,73,80,42,47,29,,70,64,74,53,8,8,0.5,0.6
2024-12-29T2100,1945A,98.2908,39.7711,嘉峪关市,气象局,颗粒物(PM10),54,58,79,27,36,59,,64,56,20,22,34,20,0.5,0.8
2024-12-29T2100,2884A,98.2672,39.7978,嘉峪关市,酒钢宾馆,颗粒物(PM10),54,58,91,24,34,51,,64,53,27,29,21,50,0.5,1
2024-12-29T2100,3248A,98.2643,39.7724,嘉峪关市,雄关区,颗粒物(PM10),61,72,63,34,30,52,,63,56,28,28,30,15,0.1,0.6
2024-12-29T2100,1383A,113.1064,22.6058,江门市,北街,细颗粒物(PM2.5),104,107,78,78,59,68,,129,124,82,49,7,8,1.0,0.8
2024-12-29T2100,1384A,113.0731,22.5835,江门市,西区,细颗粒物(PM2.5),114,150,100,86,60,23,,132,122,121,46,9,11,1.5,0.8
2024-12-29T2100,1385A,113.0219,22.5311,江门市,圭峰西,细颗粒物(PM2.5),95,79,74,71,57,99,,129,128,48,43,4,5,0.8,0.6
2024-12-29T2100,1386A,113.0828,22.5947,江门市,东湖,细颗粒物(PM2.5),98,115,91,73,58,76,,128,124,62,41,9,9,0.8,0.7
2024-12-29T2100,3311A,113.1075,22.5647,江门市,江海富民,颗粒物(PM10),101,152,91,65,52,51,,133,126,125,56,13,12,1.4,1
2024-12-29T2100,3449A,113.05,22.4667,江门市,新会银湖,细颗粒物(PM2.5),144,113,75,110,67,35,,131,114,83,45,7,9,1.2,0.9
2024-12-29T2100,1828A,113.227,35.2125,焦作市,市环保局,,48,48,64,20,33,61,,49,49,29,34,8,10,0.5,0.9
2024-12-29T2100,1830A,113.1992,35.2590,焦作市,影视城,,50,42,47,35,32,87,,78,58,11,23,9,16,0.5,0.8
2024-12-29T2100,3169A,113.2725,35.2067,焦作市,太极体育中心,颗粒物(PM10),56,62,70,22,25,52,,46,44,40,39,11,13,0.7,1
2024-12-29T2100,3335A,113.3137,35.2641,焦作市,马村街道办,颗粒物(PM10),52,53,66,28,33,73,,50,49,15,32,8,14,0.7,1
2024-12-29T2100,3336A,113.2465,35.2373,焦作市,焦作技师学院,颗粒物(PM10),51,52,69,19,33,63,,46,43,28,46,5,13,0.6,1
2024-12-29T2100,3477A,113.1656,35.2539,焦作市,中站许衡医院,,49,48,62,34,32,79,,45,45,14,31,8,19,0.4,1
2024-12-29T2100,3981A,113.2449,35.1803,焦作市,原李万街道办,,49,49,63,24,34,54,,46,42,29,35,9,9,0.8,1
2024-12-29T2100,1708A,116.3701,23.5345,揭阳市,新兴,颗粒物(PM10),55,60,68,33,48,83,,130,124,36,29,7,11,0.7,0.7
2024-12-29T2100,1709A,116.3264,23.5443,揭阳市,西马,颗粒物(PM10),54,58,73,26,44,95,,140,136,27,27,8,11,0.7,0.7
2024-12-29T2100,1710A,116.3611,23.5626,揭阳市,东兴,颗粒物(PM10),58,65,75,28,44,86,,136,130,34,35,14,12,0.6,0.7
2024-12-29T2100,1711A,116.4151,23.5294,揭阳市,渔湖,颗粒物(PM10),54,57,65,31,42,78,,126,119,47,38,11,16,0.5,0.6
2024-12-29T2100,3320A,116.403,23.5699,揭阳市,曲溪,颗粒物(PM10),60,70,72,38,46,86,,143,134,43,34,3,8,0.7,0.8
2024-12-29T2100,1944A,102.1692,38.5167,金昌市,天庆家园,颗粒物(PM10),115,179,96,46,38,74,,84,84,15,27,12,36,1.4,1.1
2024-12-29T2100,3170A,102.1864,38.5253,金昌市,市委党校,颗粒物(PM10),70,90,114,14,36,87,,93,93,8,26,6,49,0.4,0.9
2024-12-29T2100,4022A,102.1647,38.5371,金昌市,金川区人防中心,颗粒物(PM10),108,166,96,20,31,81,,86,86,10,20,8,25,0.4,0.7
2024-12-29T2100,1262A,119.647,29.077,金华市,十五中,"颗粒物(PM10),细颗粒物(PM2.5)",85,120,89,63,49,5,,73,55,97,63,5,5,1.1,0.7
2024-12-29T2100,1263A,119.686,29.1029,金华市,监测站,细颗粒物(PM2.5),89,125,89,66,49,2,,70,50,99,63,6,6,1.0,0.7
2024-12-29T2100,3659A,119.656,29.1131,金华市,气象局,细颗粒物(PM2.5),102,138,89,76,47,3,,70,49,104,64,6,5,1.2,0.8
2024-12-29T2100,1767A,121.1115,41.0879,锦州市,南山,细颗粒物(PM2.5),65,69,99,47,82,24,,33,32,61,55,11,17,1.1,1.8
2024-12-29T2100,1768A,121.0533,40.8434,锦州市,开发区,颗粒物(PM10),72,94,137,46,59,16,,27,26,75,70,22,45,1.1,1.2
2024-12-29T2100,1769A,121.1836,41.1119,锦州市,百股街道,细颗粒物(PM2.5),70,84,78,51,59,16,,34,31,71,50,16,23,1.3,1.3
2024-12-29T2100,1770A,121.1178,41.1222,锦州市,天安街道,细颗粒物(PM2.5),77,90,84,56,47,15,,29,27,60,52,18,25,1.5,1.3
2024-12-29T2100,1771A,121.1303,41.1386,锦州市,北湖公园,细颗粒物(PM2.5),78,82,72,57,46,17,,28,26,56,46,16,24,1.3,1.2
2024-12-29T2100,2160A,112.85,35.5051,晋城市,自来水公司,颗粒物(PM10),60,70,54,39,30,77,,79,79,22,36,10,15,0.9,1.5
2024-12-29T2100,2161A,112.8318,35.4936,晋城市,白云商贸,颗粒物(PM10),68,86,56,24,21,73,,72,72,25,35,10,12,0.9,1.5
2024-12-29T2100,2162A,112.8508,35.4887,晋城市,市环保局,颗粒物(PM10),63,76,57,36,30,70,,74,74,27,38,9,13,0.9,1.4
2024-12-29T2100,2163A,112.8676,35.4897,晋城市,技术学院,颗粒物(PM10),54,58,55,31,28,80,,83,83,20,41,9,15,0.7,1.2
2024-12-29T2100,2165A,112.8453,35.546,晋城市,白马寺,,41,41,42,26,28,65,,71,71,14,20,15,20,0.8,1.6
2024-12-29T2100,3620A,112.8271,35.4828,晋城市,泽州一中,,49,42,51,34,26,74,,76,76,24,30,10,12,0.8,1.4
2024-12-29T2100,2171A,112.7532,37.6945,晋中市,锦纶小区,颗粒物(PM10),78,105,98,36,37,44,,59,58,36,45,14,27,0.9,0.9
2024-12-29T2100,2173A,112.7249,37.7067,晋中市,南都小区,颗粒物(PM10),76,102,100,42,42,48,,62,61,34,48,14,28,0.6,0.9
2024-12-29T2100,2174A,112.6991,37.6982,晋中市,榆次区政府,颗粒物(PM10),74,97,104,32,43,45,,59,58,36,48,11,23,0.7,1
2024-12-29T2100,2865A,112.7195,37.6828,晋中市,榆次三中,颗粒物(PM10),76,102,98,31,37,46,,59,59,32,44,15,26,0.7,1
2024-12-29T2100,2439A,112.2014,31.0481,荆门市,竹园小学,细颗粒物(PM2.5),119,125,110,90,72,82,,104,101,38,32,18,14,0.7,0.6
2024-12-29T2100,2440A,112.1969,30.9891,荆门市,掇刀,细颗粒物(PM2.5),109,122,115,82,74,86,,107,106,40,38,21,13,0.8,0.7
2024-12-29T2100,2441A,112.2213,31.0386,荆门市,石化一小,细颗粒物(PM2.5),117,128,123,88,77,81,,108,106,40,41,16,12,0.8,0.8
2024-12-29T2100,3012A,112.1849,31.0362,荆门市,西山林语,细颗粒物(PM2.5),120,111,99,91,72,82,,107,104,33,27,13,10,0.6,0.6
2024-12-29T2100,3547A,112.1632,31.0138,荆门市,龙泉中学南校,细颗粒物(PM2.5),134,138,112,102,79,72,,106,102,39,30,16,13,0.8,0.6
2024-12-29T2100,1844A,112.2494,30.3197,荆州市,市图书馆,细颗粒物(PM2.5),94,90,79,70,66,49,,102,94,64,38,7,8,0.9,0.7
2024-12-29T2100,1845A,112.2008,30.3544,荆州市,市委党校,细颗粒物(PM2.5),107,104,85,80,67,37,,103,93,82,38,8,10,0.9,0.7
2024-12-29T2100,3194A,112.2747,30.3122,荆州市,管委会,细颗粒物(PM2.5),93,100,83,69,64,37,,106,97,71,34,7,9,1.1,0.8
2024-12-29T2100,3548A,112.1655,30.3364,荆州市,学苑路,细颗粒物(PM2.5),115,88,80,87,67,72,,109,106,53,35,14,12,1.0,0.7
2024-12-29T2100,2342A,117.3102,29.3867,景德镇市,王港中学,,,,,,,,,,,,,,,,
2024-12-29T2100,2343A,117.2117,29.2933,景德镇市,老干部活动中心,细颗粒物(PM2.5),95,107,64,71,46,10,,82,68,80,36,9,10,0.8,0.6
2024-12-29T2100,2344A,117.1894,29.2789,景德镇市,兽医站,细颗粒物(PM2.5),84,114,73,62,37,39,,85,75,38,27,6,7,0.2,0.3
2024-12-29T2100,2345A,117.1547,29.2617,景德镇市,台达陶瓷,细颗粒物(PM2.5),124,152,78,94,42,11,,81,60,94,41,111,28,0.9,0.5
2024-12-29T2100,2346A,117.2461,29.2956,景德镇市,陶研所,细颗粒物(PM2.5),69,80,61,50,37,28,,80,70,45,34,3,7,0.7,0.6
2024-12-29T2100,1803A,115.9872,29.6815,九江市,十里,细颗粒物(PM2.5),77,86,67,56,42,23,,78,68,76,42,10,9,0.9,0.8
2024-12-29T2100,1804A,115.9584,29.7046,九江市,茅山头,细颗粒物(PM2.5),87,94,73,64,36,43,,74,68,68,52,8,7,1.0,1
2024-12-29T2100,1805A,115.9877,29.7295,九江市,西园,细颗粒物(PM2.5),88,91,70,65,43,33,,64,61,85,67,9,10,0.7,0.7
2024-12-29T2100,1806A,116.0172,29.6547,九江市,五七二七厂,细颗粒物(PM2.5),67,81,65,48,34,58,,80,79,32,27,7,8,0.7,0.6
2024-12-29T2100,1808A,115.9114,29.6038,九江市,综合工业园,细颗粒物(PM2.5),90,103,65,67,47,49,,61,61,73,52,9,9,0.7,0.5
2024-12-29T2100,1809A,116.0721,29.7535,九江市,石化总厂,细颗粒物(PM2.5),87,88,82,64,50,57,,69,68,51,56,15,14,0.8,0.9
2024-12-29T2100,1810A,115.9773,29.5698,九江市,庐山气象台,,28,6,24,3,12,89,,88,76,4,9,6,9,0.8,0.9
2024-12-29T2100,3190A,116.0254,29.6994,九江市,外国语学校,细颗粒物(PM2.5),94,118,78,70,43,29,,70,67,62,40,8,10,0.9,0.8
2024-12-29T2100,2658A,98.5061,39.7443,酒泉市,仓门街子站,细颗粒物(PM2.5),107,161,133,80,46,28,,66,61,50,28,28,36,1.3,1
2024-12-29T2100,2659A,98.4989,39.7256,酒泉市,油田生活基地,颗粒物(PM10),92,134,127,50,42,22,,64,55,46,30,18,30,1.0,1
2024-12-29T2100,2698A,76.0072,39.4467,喀什地区,巡警大队,细颗粒物(PM2.5),89,110,104,66,66,56,,58,58,42,46,2,2,1.8,1.6
2024-12-29T2100,2699A,75.9755,39.4694,喀什地区,吾办,细颗粒物(PM2.5),90,120,94,67,80,47,,54,54,56,47,1,2,1.7,1.6
2024-12-29T2100,4027A,75.9483,39.4689,喀什地区,老干局,细颗粒物(PM2.5),89,118,109,66,65,38,,61,61,62,36,2,2,1.7,1.8
2024-12-29T2100,1824A,114.3389,34.7781,开封市,肿瘤医院,细颗粒物(PM2.5),119,123,106,90,62,30,,56,54,63,55,3,4,0.7,0.6
2024-12-29T2100,1826A,114.2885,34.7965,开封市,世纪星幼儿园,细颗粒物(PM2.5),125,118,104,95,76,28,,60,57,61,52,5,5,0.5,0.5
2024-12-29T2100,3147A,114.3438,34.8106,开封市,龙亭公园,细颗粒物(PM2.5),105,109,99,79,64,39,,65,63,53,54,4,4,0.7,0.6
2024-12-29T2100,3210A,114.3644,34.7964,开封市,汴京公园,细颗粒物(PM2.5),119,139,112,90,71,34,,61,58,59,56,5,5,0.6,0.6
2024-12-29T2100,3473A,114.2485,34.8306,开封市,技师学院,颗粒物(PM10),88,125,96,61,47,33,,62,60,57,54,8,8,0.8,0.7
2024-12-29T2100,3592A,114.4644,34.7556,开封市,祥符区生态环境局,细颗粒物(PM2.5),128,149,113,97,71,48,,65,64,44,44,4,4,0.6,0.5
2024-12-29T2100,1951A,84.895,45.6094,克拉玛依市,长征新村,细颗粒物(PM2.5),95,100,78,71,55,40,,51,50,38,27,8,9,0.9,0.7
2024-12-29T2100,1952A,84.8988,45.5893,克拉玛依市,南林小区,细颗粒物(PM2.5),103,98,72,77,56,36,,54,52,41,26,4,8,1.2,1
2024-12-29T2100,1954A,84.905,44.3396,克拉玛依市,独山子区,细颗粒物(PM2.5),240,190,182,190,122,24,,45,36,87,63,4,4,1.3,1.2
2024-12-29T2100,1955A,85.6979,46.098,克拉玛依市,乌尔禾区商贸楼,细颗粒物(PM2.5),97,85,76,72,61,18,,60,55,65,46,6,5,1.1,1.1
2024-12-29T2100,3612A,85.1045,45.6899,克拉玛依市,白碱滩区新站,细颗粒物(PM2.5),117,125,82,88,56,31,,62,59,56,32,11,9,1.5,1.3
2024-12-29T2100,2697A,76.1454,39.7142,克孜勒苏柯尔克孜自治州,市人民政府,"颗粒物(PM10),细颗粒物(PM2.5)",103,155,70,77,54,51,,72,72,47,18,4,3,1.8,1.1
2024-12-29T2100,3665A,76.1658,39.7157,克孜勒苏柯尔克孜自治州,克州文化中心,细颗粒物(PM2.5),97,105,65,72,54,60,,71,71,41,20,8,7,2.0,1.1
2024-12-29T2100,1450A,102.8204,24.8886,昆明市,呈贡新区,,31,31,26,14,21,53,,72,70,17,17,8,8,0.5,0.6
2024-12-29T2100,1451A,102.6251,24.9608,昆明市,西山森林公园,,,,,,,,,,,,,,,,
2024-12-29T2100,1452A,102.7252,25.0902,昆明市,龙泉镇,,38,38,39,15,25,44,,76,72,30,24,8,8,0.4,0.8
2024-12-29T2100,1453A,102.7266,25.0375,昆明市,东风东路,,19,19,35,13,25,50,,66,64,16,17,6,8,0.6,0.8
2024-12-29T2100,1454A,102.6742,25.0669,昆明市,金鼎山,,20,18,39,14,23,55,,74,71,19,24,12,12,0.6,0.8
2024-12-29T2100,1455A,102.6644,25.0401,昆明市,碧鸡广场,,23,21,37,16,28,34,,71,66,37,25,8,11,0.5,0.7
2024-12-29T2100,3179A,102.7494,25.0119,昆明市,官渡区博物馆,,25,25,34,15,24,57,,75,73,16,16,6,8,0.4,0.7
2024-12-29T2100,3375A,102.8017,24.8336,昆明市,青年创业园,,23,23,29,14,20,60,,79,77,11,15,6,9,0.6,0.6
2024-12-29T2100,3550A,102.7997,24.9786,昆明市,昆明学院,,20,16,29,9,20,63,,77,76,10,13,9,9,0.5,0.7
2024-12-29T2100,3551A,102.5967,24.6736,昆明市,晋宁区生态环境分局,,49,48,40,34,28,54,,77,74,15,13,3,3,0.5,0.8
2024-12-29T2100,3552A,102.6678,24.9856,昆明市,云天化总部,,24,14,31,9,22,75,,82,82,4,15,5,7,0.3,0.6
2024-12-29T2100,1456A,91.1319,29.6514,拉萨市,八廓街,,25,23,23,14,13,77,,95,95,30,27,8,7,0.6,0.6
2024-12-29T2100,1457A,91.1221,29.6747,拉萨市,市环保局,,31,31,32,21,19,74,,102,101,29,26,7,6,0.9,0.8
2024-12-29T2100,1458A,91.0874,29.6475,拉萨市,区监测站,,22,18,14,8,8,70,,99,97,38,20,6,6,0.3,0.3
2024-12-29T2100,1459A,91.1774,29.6541,拉萨市,西藏大学,,25,18,19,13,9,80,,99,99,26,15,7,6,0.6,0.5
2024-12-29T2100,1460A,90.9798,29.6588,拉萨市,区辐射站,,39,39,18,22,10,60,,98,90,46,17,10,7,0.9,0.6
2024-12-29T2100,1461A,91.0834,29.6292,拉萨市,拉萨火车站,,34,14,12,7,6,108,,108,107,7,14,4,4,0.4,0.4
2024-12-29T2100,2520A,109.2203,23.7256,来宾市,来宾技工学校,细颗粒物(PM2.5),113,103,92,85,77,116,,139,137,29,29,8,10,1.0,0.9
2024-12-29T2100,3535A,109.1781,23.7297,来宾市,兴宾区政府,细颗粒物(PM2.5),112,131,112,84,83,90,,142,136,46,27,12,10,1.2,1.1
2024-12-29T2100,4002A,109.2416,23.7461,来宾市,中南小学,细颗粒物(PM2.5),110,115,96,83,78,88,,130,124,44,29,9,11,1.2,1.1
2024-12-29T2100,1476A,103.631,36.1031,兰州市,兰炼宾馆,细颗粒物(PM2.5),79,105,105,58,67,15,,57,48,97,77,27,28,1.2,1.3
2024-12-29T2100,1477A,104.1373,35.9454,兰州市,榆中兰大校区,,,,,,,,,,,,,,,,
2024-12-29T2100,1478A,103.8412,36.0726,兰州市,生物制品所,细颗粒物(PM2.5),77,90,97,56,63,4,,30,26,91,81,18,21,1.0,1.2
2024-12-29T2100,1479A,103.831,36.0464,兰州市,铁路设计院,细颗粒物(PM2.5),79,82,113,58,72,5,,25,19,99,91,17,19,1.2,1.5
2024-12-29T2100,3186A,103.7158,36.1058,兰州市,教育港,细颗粒物(PM2.5),85,100,98,63,61,2,,49,37,96,74,23,23,1.3,1.3
2024-12-29T2100,3241A,103.7439,36.0842,兰州市,百合公园,细颗粒物(PM2.5),92,104,91,68,58,6,,46,37,95,73,25,21,2.0,1.6
2024-12-29T2100,3242A,103.9611,35.998,兰州市,和平,细颗粒物(PM2.5),115,131,115,87,75,9,,44,35,89,60,24,34,1.7,1.7
2024-12-29T2100,3245A,103.6633,36.533,兰州新区,新区管委会,颗粒物(PM10),56,61,53,36,36,14,,82,66,69,30,14,18,0.8,0.5
2024-12-29T2100,3246A,103.6975,36.4789,兰州新区,舟曲中学,颗粒物(PM10),65,80,59,36,32,23,,76,63,53,31,15,21,0.9,0.7
2024-12-29T2100,1067A,116.6708,39.5111,廊坊市,药材公司,细颗粒物(PM2.5),98,113,115,73,74,6,,21,17,82,65,8,8,1.0,0.9
2024-12-29T2100,1068A,116.7214,39.5589,廊坊市,开发区,细颗粒物(PM2.5),104,130,109,78,66,5,,18,14,84,73,9,9,1.1,0.9
2024-12-29T2100,1070A,116.7244,39.5269,廊坊市,北华航天学院,细颗粒物(PM2.5),104,130,116,78,69,11,,25,21,80,63,12,12,1.6,1
2024-12-29T2100,2919A,116.7022,39.5453,廊坊市,河北工业大学,细颗粒物(PM2.5),104,124,112,78,67,10,,24,20,89,69,9,11,1.2,0.8
2024-12-29T2100,2535A,103.7723,29.5462,乐山市,花湖湾,细颗粒物(PM2.5),103,95,101,77,85,31,,49,49,31,31,4,4,0.6,0.6
2024-12-29T2100,2536A,103.7627,29.5844,乐山市,牛耳桥,细颗粒物(PM2.5),94,94,102,70,81,32,,42,42,43,39,4,5,0.7,0.8
2024-12-29T2100,2537A,103.7508,29.6006,乐山市,市第三水厂,细颗粒物(PM2.5),93,97,102,69,80,32,,45,45,43,40,4,4,0.9,1
2024-12-29T2100,2538A,103.7571,29.5664,乐山市,市监测站,细颗粒物(PM2.5),92,86,97,68,75,30,,45,45,32,34,4,4,0.7,0.8
2024-12-29T2100,3361A,103.7311,29.5628,乐山市,理工大学,细颗粒物(PM2.5),94,88,101,70,81,26,,38,38,34,35,6,6,0.7,0.8
2024-12-29T2100,2598A,100.2143,26.8576,丽江市,西南郊,,30,29,33,7,16,94,,95,95,2,9,4,6,0.5,0.8
2024-12-29T2100,2599A,100.2497,26.8802,丽江市,丽江古城,,27,26,26,14,16,84,,90,90,10,10,8,9,0.4,0.4
2024-12-29T2100,2600A,100.2203,26.8906,丽江市,市中心,,26,6,14,6,12,81,,88,88,11,9,10,6,0.4,0.4
2024-12-29T2100,1267A,119.914,28.4514,丽水市,监测站大楼,颗粒物(PM10),69,88,52,48,35,45,,80,78,47,36,4,4,0.5,0.4
2024-12-29T2100,1268A,119.93,28.4586,丽水市,莲都小学,颗粒物(PM10),51,52,50,31,30,46,,87,84,52,34,6,6,0.6,0.5
2024-12-29T2100,1269A,119.879,28.4231,丽水市,余庄前,颗粒物(PM10),55,60,51,38,37,72,,80,80,28,36,5,5,0.4,0.5
2024-12-29T2100,1173A,119.176,34.5885,连云港市,市环境监测站,颗粒物(PM10),59,68,91,41,52,71,,73,73,27,42,8,10,0.7,0.9
2024-12-29T2100,3000A,119.3581,34.6972,连云港市,德源药业,颗粒物(PM10),60,70,91,41,47,71,,77,75,25,44,6,8,0.2,0.4
2024-12-29T2100,3007A,119.178,34.844,连云港市,新城一中,细颗粒物(PM2.5),70,82,104,51,67,56,,72,71,37,53,10,13,0.6,0.7
2024-12-29T2100,3008A,119.3608,34.7519,连云港市,胡沟管理处,,46,46,76,29,36,78,,74,74,15,27,4,7,0.6,0.7
2024-12-29T2100,3009A,119.1478,34.5911,连云港市,矿山设计院,颗粒物(PM10),51,51,90,24,46,86,,82,82,15,33,6,9,0.4,0.6
2024-12-29T2100,3434A,119.2413,34.6539,连云港市,工贸学校,细颗粒物(PM2.5),67,76,83,48,49,76,,79,79,23,28,10,12,0.4,0.5
2024-12-29T2100,3664A,119.4172,34.7341,连云港市,连云街道,颗粒物(PM10),71,91,66,28,28,85,,83,83,11,16,4,8,0.5,0.5
2024-12-29T2100,2571A,102.3431,27.8099,凉山彝族自治州,青龙寺,颗粒物(PM10),65,79,57,28,24,71,,111,108,16,12,6,6,1.0,1
2024-12-29T2100,2572A,102.2721,27.8415,凉山彝族自治州,邛海宾馆,,49,49,77,31,60,87,,101,100,11,18,16,14,0.9,1
2024-12-29T2100,2573A,102.2625,27.898,凉山彝族自治州,西昌市政府,,34,34,55,19,44,84,,95,95,13,21,17,12,1.1,1
2024-12-29T2100,2574A,102.2685,27.8851,凉山彝族自治州,凉山州政府,,30,29,64,21,51,83,,97,96,12,22,16,12,0.9,1
2024-12-29T2100,2575A,102.237,27.8914,凉山彝族自治州,长安,,31,31,64,19,46,90,,100,100,10,26,14,11,0.8,0.9
2024-12-29T2100,2212A,123.2,41.1953,辽阳市,宏伟区,,45,36,60,31,34,55,,59,57,9,20,10,15,0.5,0.8
2024-12-29T2100,2213A,123.1683,41.2495,辽阳市,新华园,细颗粒物(PM2.5),52,,80,36,52,53,,57,55,16,41,14,34,0.8,1.3
2024-12-29T2100,2214A,123.2354,41.2639,辽阳市,滨河路,,43,32,59,30,40,57,,63,60,19,33,8,22,0.8,1
2024-12-29T2100,2215A,123.149,41.2991,辽阳市,铁西工业园,颗粒物(PM10),52,53,106,34,63,63,,66,64,15,34,8,14,0.7,1.6
2024-12-29T2100,2227A,125.1358,42.8845,辽源市,环保局,,35,35,54,20,33,54,,61,60,22,29,11,11,0.8,1
2024-12-29T2100,3239A,125.0764,42.9078,辽源市,银鹰制药,,36,32,51,25,36,55,,51,50,18,34,12,11,0.8,0.9
2024-12-29T2100,1625A,115.9848,36.4372,聊城市,区政府,细颗粒物(PM2.5),92,123,105,68,48,63,,72,72,32,36,13,14,0.8,0.8
2024-12-29T2100,2878A,116.0072,36.4343,聊城市,聊大东校,细颗粒物(PM2.5),107,146,122,80,57,58,,70,69,36,40,11,12,1.0,0.9
2024-12-29T2100,3200A,115.9819,36.4978,聊城市,监控中心,细颗粒物(PM2.5),104,138,111,78,48,65,,69,69,34,39,10,11,0.9,0.8
2024-12-29T2100,3513A,116.0445,36.4361,聊城市,九州社区,细颗粒物(PM2.5),93,132,114,69,52,55,,70,68,33,33,9,11,0.7,0.6
2024-12-29T2100,4018A,116.0567,36.4608,聊城市,星美广场,细颗粒物(PM2.5),89,122,104,66,48,65,,78,77,29,30,12,12,0.9,0.8
2024-12-29T2100,2632A,94.3681,29.6376,林芝市,林芝监测站,,31,9,23,8,8,98,,97,97,1,7,6,6,0.3,0.3
2024-12-29T2100,2633A,94.3616,29.6616,林芝市,林芝人民医院,,29,15,25,10,9,92,,93,93,1,5,5,5,0.2,0.3
2024-12-29T2100,2603A,100.0781,23.8982,临沧市,市环保局,,48,48,28,31,24,38,,75,71,26,14,7,7,0.7,0.5
2024-12-29T2100,2604A,100.0894,23.8822,临沧市,市气象局,细颗粒物(PM2.5),57,50,33,40,26,34,,70,67,28,17,8,7,0.8,0.6
2024-12-29T2100,1733A,111.5531,36.0783,临汾市,临钢医院,细颗粒物(PM2.5),127,175,95,96,54,6,,43,37,74,42,17,10,2.5,1.5
2024-12-29T2100,1734A,111.5028,36.0714,临汾市,技工学校,细颗粒物(PM2.5),147,169,104,112,65,16,,41,35,65,46,19,13,2.2,1.5
2024-12-29T2100,1736A,111.5018,36.0855,临汾市,市委,细颗粒物(PM2.5),129,173,108,98,58,9,,42,36,80,50,16,12,2.4,1.4
2024-12-29T2100,3018A,111.505,36.1014,临汾市,唐尧大酒店,细颗粒物(PM2.5),138,151,98,105,60,6,,39,33,79,47,26,15,2.3,1.5
2024-12-29T2100,3668A,111.5036,36.0414,临汾市,城南,细颗粒物(PM2.5),139,174,104,106,62,5,,42,34,82,47,17,11,2.1,1.4
2024-12-29T2100,2667A,103.2069,35.5993,临夏回族自治州,环保局,细颗粒物(PM2.5),90,91,121,67,80,52,,63,62,35,39,17,18,1.2,1.7
2024-12-29T2100,2668A,103.2417,35.6057,临夏回族自治州,建设大厦,细颗粒物(PM2.5),99,120,121,74,80,30,,65,60,55,36,19,17,1.5,1.7
2024-12-29T2100,1618A,118.3429,35.0532,临沂市,沂河小区,细颗粒物(PM2.5),80,88,99,59,59,49,,65,63,46,51,22,28,0.6,0.8
2024-12-29T2100,1619A,118.295,35.0583,临沂市,鲁南制药厂,细颗粒物(PM2.5),74,95,102,54,59,49,,69,66,43,52,23,29,0.7,0.8
2024-12-29T2100,1620A,118.2794,34.9976,临沂市,新光毛纺厂,细颗粒物(PM2.5),89,112,106,66,62,29,,63,58,64,53,27,28,0.8,0.8
2024-12-29T2100,1621A,118.3956,35.0888,临沂市,河东保险公司,细颗粒物(PM2.5),64,73,86,46,52,64,,72,71,28,39,14,15,0.6,0.7
2024-12-29T2100,3370A,118.3564,35.0215,临沂市,十里堡居委,细颗粒物(PM2.5),92,107,109,68,67,37,,64,60,51,47,40,30,0.9,1
2024-12-29T2100,3496A,118.3604,35.1084,临沂市,南坊新区,细颗粒物(PM2.5),67,73,85,48,47,64,,70,70,37,48,11,15,0.8,0.9
2024-12-29T2100,3860A,118.3920,35.0300,临沂市,皇山花园小区,细颗粒物(PM2.5),77,97,106,56,57,48,,66,64,46,54,22,23,0.7,0.8
2024-12-29T2100,1870A,109.4856,24.3895,柳州市,柳东小学,细颗粒物(PM2.5),88,107,84,65,60,91,,133,130,43,25,18,16,0.7,0.6
2024-12-29T2100,1871A,109.4157,24.3277,柳州市,环保监测站,细颗粒物(PM2.5),99,142,98,74,59,64,,132,121,68,28,12,14,1.4,1
2024-12-29T2100,1872A,109.389,24.341,柳州市,河西水厂,细颗粒物(PM2.5),129,144,100,98,60,59,,132,121,72,28,10,11,1.5,1
2024-12-29T2100,1873A,109.4311,24.2921,柳州市,市四中,细颗粒物(PM2.5),113,168,81,85,65,14,,134,111,118,34,13,13,2.1,0.9
2024-12-29T2100,1874A,109.4006,24.3631,柳州市,市九中,细颗粒物(PM2.5),98,103,83,73,65,90,,133,128,41,25,9,11,1.0,0.9
2024-12-29T2100,1875A,109.4958,24.3134,柳州市,古亭山,细颗粒物(PM2.5),72,87,70,52,53,67,,129,117,70,29,13,15,1.0,0.9
2024-12-29T2100,3402A,109.5422,24.3996,柳州市,市二中,细颗粒物(PM2.5),100,114,76,75,58,18,,118,100,100,32,10,13,1.0,0.7
2024-12-29T2100,2307A,116.5079,31.737,六安市,监测大楼,细颗粒物(PM2.5),87,83,50,64,34,72,,81,80,32,30,8,7,0.7,0.6
2024-12-29T2100,2308A,116.4738,31.7643,六安市,皖西学院,细颗粒物(PM2.5),85,95,59,63,33,72,,82,82,36,40,8,5,0.9,0.8
2024-12-29T2100,2309A,116.4996,31.7905,六安市,朝阳厂,细颗粒物(PM2.5),74,71,46,54,32,72,,81,80,34,36,4,2,1.0,0.8
2024-12-29T2100,2310A,116.5567,31.7886,六安市,开发区,细颗粒物(PM2.5),82,109,84,60,43,64,,71,68,42,42,3,3,0.7,0.6
2024-12-29T2100,2576A,104.8,26.5892,六盘水市,窑上,,,,,,,,,,,,,,,,
2024-12-29T2100,2577A,104.83,26.5917,六盘水市,黄土坡,,,57,37,46,32,42,,62,46,25,17,16,9,,0.8
2024-12-29T2100,2578A,104.89,26.5939,六盘水市,水钢,细颗粒物(PM2.5),59,,39,42,29,41,,66,49,18,13,4,5,0.9,0.9
2024-12-29T2100,2579A,104.8475,26.5894,六盘水市,民中,细颗粒物(PM2.5),58,47,35,41,31,38,,63,46,27,17,12,8,1.0,0.8
2024-12-29T2100,2580A,104.9544,26.5506,六盘水市,双水,,48,36,32,33,22,41,,71,53,18,12,9,7,0.8,0.7
2024-12-29T2100,2335A,117.0189,25.1181,龙岩市,龙岩师专,,,,,,,,,,,,,,,,
2024-12-29T2100,2336A,117.0217,25.1033,龙岩市,龙岩市监测站,细颗粒物(PM2.5),59,55,56,42,43,45,,106,88,49,26,5,9,1.0,0.8
2024-12-29T2100,2337A,117.0258,25.0661,龙岩市,闽西职业技术学院,颗粒物(PM10),60,69,68,35,42,28,,103,80,60,34,20,16,0.7,0.8
2024-12-29T2100,2338A,117.0196,25.0306,龙岩市,龙岩学院,,49,48,55,34,40,56,,100,92,26,21,15,11,0.5,0.5
2024-12-29T2100,2665A,105.0822,33.3261,陇南市,汉王镇固水子,,,,,,,,,,,,,,,,
2024-12-29T2100,2885A,104.9339,33.3826,陇南市,滨江中学,细颗粒物(PM2.5),102,143,83,76,45,10,,64,53,82,46,23,23,2.3,1.5
2024-12-29T2100,3247A,104.955,33.371,陇南市,市总工会,颗粒物(PM10),61,72,72,41,41,65,,76,76,26,31,7,11,0.6,0.6
2024-12-29T2100,2487A,111.9589,27.8901,娄底市,电视发射台,细颗粒物(PM2.5),119,90,66,90,64,79,,99,94,27,24,14,11,1.3,0.8
2024-12-29T2100,2488A,111.9975,27.725,娄底市,市监测站,细颗粒物(PM2.5),142,150,123,108,84,41,,97,89,67,43,17,21,1.4,1.3
2024-12-29T2100,2489A,112.0194,27.7314,娄底市,市委党校,细颗粒物(PM2.5),123,142,113,93,74,36,,84,74,74,48,9,10,1.4,0.9
2024-12-29T2100,2490A,111.9561,27.7569,娄底市,涟钢,细颗粒物(PM2.5),168,171,129,127,88,59,,90,88,28,31,12,14,2.0,1.4
2024-12-29T2100,2491A,111.9892,27.7044,娄底市,市政府,细颗粒物(PM2.5),127,141,110,96,81,16,,103,85,81,36,7,7,1.2,0.9
2024-12-29T2100,1893A,105.4324,28.9634,泸州市,九狮山,,,,,,,,,,,,,,,,
2024-12-29T2100,1894A,105.4427,28.9063,泸州市,小市上码头,细颗粒物(PM2.5),88,82,104,65,80,44,,37,30,24,28,2,2,0.7,0.7
2024-12-29T2100,1895A,105.4241,28.8573,泸州市,兰田宪桥,,,67,102,64,82,44,,45,38,22,23,2,3,,0.8
2024-12-29T2100,1896A,105.4379,28.8833,泸州市,市环监站,细颗粒物(PM2.5),88,83,103,65,79,41,,35,28,23,27,4,4,0.6,0.6
2024-12-29T2100,3490A,105.3617,28.7703,泸州市,纳溪区环保局,,,70,103,58,78,49,,47,44,,21,5,6,0.5,0.7
2024-12-29T2100,2183A,111.1406,37.5211,吕梁市,环保局,颗粒物(PM10),90,129,76,44,23,2,,32,23,63,49,5,5,0.8,0.7
2024-12-29T2100,2185A,111.1297,37.5136,吕梁市,自来水公司,,,126,99,40,28,10,,41,35,,41,8,10,0.8,0.7
2024-12-29T2100,2867A,111.1283,37.51,吕梁市,马茂庄小学,颗粒物(PM10),91,131,88,48,25,3,,31,21,65,53,14,9,0.9,0.7
2024-12-29T2100,1812A,112.3931,34.6516,洛阳市,市委党校,颗粒物(PM10),66,81,63,40,29,51,,71,69,37,36,6,6,0.6,0.5
2024-12-29T2100,1814A,112.4657,34.6871,洛阳市,豫西宾馆,"颗粒物(PM10),细颗粒物(PM2.5)",73,95,86,53,42,55,,70,70,33,42,9,11,0.9,0.9
2024-12-29T2100,1815A,112.494,34.6886,洛阳市,河南林校,细颗粒物(PM2.5),79,81,63,58,46,50,,64,64,32,32,4,4,0.6,0.6
2024-12-29T2100,1816A,112.3844,34.623,洛阳市,开发区管委会,细颗粒物(PM2.5),92,87,60,68,42,49,,74,71,31,23,8,5,0.6,0.6
2024-12-29T2100,1817A,112.4267,34.6258,洛阳市,市委新办公区,细颗粒物(PM2.5),87,93,61,64,44,54,,79,77,31,24,6,4,0.6,0.5
2024-12-29T2100,3340A,112.6005,34.6326,洛阳市,伊滨,细颗粒物(PM2.5),69,78,76,50,37,55,,72,72,29,29,5,5,0.3,0.3
2024-12-29T2100,3341A,112.4951,34.6332,洛阳市,中移产业园,颗粒物(PM10),60,69,50,42,26,62,,79,79,28,22,6,5,0.6,0.4
2024-12-29T2100,3593A,112.5736,34.8993,洛阳市,吉利监测站,颗粒物(PM10),52,53,43,35,28,68,,67,67,21,29,8,6,0.4,0.4
2024-12-29T2100,3635A,112.3677,34.662,洛阳市,河科大西苑校区,细颗粒物(PM2.5),79,87,73,58,41,56,,76,73,30,33,8,10,0.6,0.6
2024-12-29T2100,3636A,112.4388,34.6781,洛阳市,英才小学,细颗粒物(PM2.5),75,82,73,55,42,46,,67,66,39,43,7,9,0.6,0.6
2024-12-29T2100,2399A,114.051,33.5699,漯河市,三五一五工厂,细颗粒物(PM2.5),170,144,98,129,69,74,,97,95,36,43,11,10,0.9,0.6
2024-12-29T2100,2400A,114.0055,33.5698,漯河市,漯河大学,细颗粒物(PM2.5),170,160,93,129,66,61,,101,96,46,43,10,9,0.9,0.6
2024-12-29T2100,2401A,114.0138,33.5828,漯河市,市水利局,细颗粒物(PM2.5),140,151,92,107,61,59,,98,94,47,37,11,10,1.2,0.9
2024-12-29T2100,2402A,114.0261,33.5698,漯河市,市广电局,细颗粒物(PM2.5),158,151,93,120,56,74,,99,97,33,40,11,9,0.7,0.5
2024-12-29T2100,3478A,113.9749,33.5664,漯河市,市图书馆,细颗粒物(PM2.5),162,162,99,123,64,79,,99,97,32,42,10,9,0.9,0.7
2024-12-29T2100,3479A,114.0967,33.5906,漯河市,召陵区卫健委,细颗粒物(PM2.5),139,153,95,106,63,68,,97,92,47,46,11,9,1.0,0.7
2024-12-29T2100,1798A,118.5092,31.6837,马鞍山市,湖东路四小,颗粒物(PM10),59,67,90,31,39,49,,81,74,51,51,2,4,0.6,0.8
2024-12-29T2100,1799A,118.5024,31.6449,马鞍山市,开发区,颗粒物(PM10),67,84,105,42,60,33,,78,68,54,46,6,7,0.7,0.9
2024-12-29T2100,1800A,118.5228,31.7231,马鞍山市,慈湖,细颗粒物(PM2.5),64,55,89,46,60,28,,76,70,71,53,6,7,0.7,1
2024-12-29T2100,1802A,118.6245,31.7241,马鞍山市,濮塘,,42,40,76,29,50,87,,92,92,12,34,8,9,0.3,0.5
2024-12-29T2100,3633A,118.4918,31.6809,马鞍山市,雨山,颗粒物(PM10),54,57,92,33,51,53,,76,72,45,50,6,7,0.9,1.2
2024-12-29T2100,1686A,111.0286,21.4688,茂名市,电白南海,颗粒物(PM10),67,83,84,44,51,150,,149,149,26,27,7,10,1.0,1.1
2024-12-29T2100,1687A,110.9294,21.6533,茂名市,茂石化七小,细颗粒物(PM2.5),83,102,83,61,58,123,,134,134,23,19,13,13,0.8,0.8
2024-12-29T2100,1688A,110.9107,21.6687,茂名市,健康路,细颗粒物(PM2.5),73,88,87,53,59,133,,145,144,25,24,16,22,0.9,1
2024-12-29T2100,1689A,110.8592,21.6828,茂名市,高岭,细颗粒物(PM2.5),73,92,99,53,64,104,,136,130,46,34,15,22,1.0,1
2024-12-29T2100,3450A,111.01,21.5165,茂名市,电白水东,细颗粒物(PM2.5),70,80,82,51,55,137,,140,140,18,22,10,15,0.7,0.7
2024-12-29T2100,2539A,104.0308,30.0478,眉山市,黑龙滩水库,细颗粒物(PM2.5),110,118,60,83,48,20,,46,46,44,22,2,2,0.9,0.6
2024-12-29T2100,2540A,103.8416,30.0874,眉山市,气象局,细颗粒物(PM2.5),100,100,88,75,72,32,,40,37,36,40,4,4,0.8,0.8
2024-12-29T2100,3137A,103.8578,30.0744,眉山市,市委党校,细颗粒物(PM2.5),89,95,96,66,64,33,,41,36,43,46,4,5,0.5,0.5
2024-12-29T2100,3148A,103.8291,30.0564,眉山市,区人社局,,,76,83,68,70,,,42,38,37,48,6,6,0.7,0.6
2024-12-29T2100,1690A,116.1231,24.3284,梅州市,梅江月梅,细颗粒物(PM2.5),72,74,64,52,49,53,,110,100,44,32,8,10,0.7,0.6
2024-12-29T2100,1691A,116.0797,24.2719,梅州市,梅县新城,细颗粒物(PM2.5),85,113,67,63,49,6,,101,78,88,47,5,6,1.0,0.8
2024-12-29T2100,1692A,116.1248,24.2654,梅州市,环境监控中心,细颗粒物(PM2.5),70,77,60,51,47,35,,100,91,65,34,6,7,0.8,0.7
2024-12-29T2100,3315A,116.1233,24.2991,梅州市,梅龙,细颗粒物(PM2.5),69,80,67,50,44,45,,99,90,46,28,7,8,1.0,0.8
2024-12-29T2100,1878A,104.7778,31.4741,绵阳市,富乐山,,,75,75,59,54,5,,51,40,84,54,,3,0.9,0.8
2024-12-29T2100,1879A,104.7563,31.4535,绵阳市,市人大,细颗粒物(PM2.5),77,86,92,56,53,5,,34,31,91,60,4,6,0.9,0.8
2024-12-29T2100,1880A,104.6697,31.4668,绵阳市,高新区自来水公司,细颗粒物(PM2.5),92,112,101,68,59,7,,28,27,70,55,4,4,1.0,1
2024-12-29T2100,1881A,104.7287,31.5075,绵阳市,三水厂,细颗粒物(PM2.5),90,97,94,67,61,17,,35,34,66,51,6,6,0.9,0.9
2024-12-29T2100,3491A,104.69,31.5322,绵阳市,西科大附属小学,细颗粒物(PM2.5),113,132,95,85,62,13,,37,35,51,44,5,5,1.0,0.8
2024-12-29T2100,3492A,104.5648,31.5343,绵阳市,安州区旅游局,细颗粒物(PM2.5),122,133,88,92,63,7,,65,48,72,34,9,8,1.3,0.9
2024-12-29T2100,1784A,129.61,44.561,牡丹江市,环保大楼,"颗粒物(PM10),细颗粒物(PM2.5)",83,115,45,61,30,8,,44,28,53,26,12,9,1.3,0.6
2024-12-29T2100,1785A,129.6115,44.5782,牡丹江市,文化广场,细颗粒物(PM2.5),88,104,55,65,36,15,,45,28,50,31,27,12,1.4,0.9
2024-12-29T2100,1786A,129.5904,44.5963,牡丹江市,第一医院,细颗粒物(PM2.5),80,71,57,59,44,21,,44,32,36,27,12,8,1.2,0.9
2024-12-29T2100,1787A,129.6364,44.6075,牡丹江市,机车工厂,颗粒物(PM10),75,99,72,52,38,11,,46,29,48,31,15,12,1.2,0.8
2024-12-29T2100,1788A,129.6386,44.5462,牡丹江市,第一中学,细颗粒物(PM2.5),103,96,44,77,32,5,,46,22,46,28,10,6,1.4,0.6
2024-12-29T2100,2531A,105.0703,29.61,内江市,市监测站,细颗粒物(PM2.5),113,,72,85,74,37,,53,52,32,24,5,5,0.8,0.7
2024-12-29T2100,2532A,105.0717,29.5947,内江市,东兴区政府,细颗粒物(PM2.5),105,88,69,79,67,34,,51,50,35,27,3,4,0.8,0.7
2024-12-29T2100,2533A,105.0653,29.5817,内江市,内江二中,细颗粒物(PM2.5),112,108,81,84,72,32,,52,50,35,28,7,8,0.8,0.8
2024-12-29T2100,2534A,105.0406,29.5822,内江市,内江日报社,细颗粒物(PM2.5),107,101,79,80,70,25,,53,50,40,29,8,8,0.8,0.7
2024-12-29T2100,2628A,92.0657,31.4846,那曲市,那曲监测站,,34,34,28,23,12,68,,96,90,24,8,8,7,0.8,0.4
2024-12-29T2100,3128A,92.0506,31.4797,那曲市,那曲会议中心,,27,22,24,12,4,85,,100,98,6,3,2,2,0.5,0.4
2024-12-29T2100,1290A,115.8931,28.6843,南昌市,省外办,细颗粒物(PM2.5),125,136,104,95,71,41,,76,73,65,60,7,9,1.1,0.9
2024-12-29T2100,1291A,115.8886,28.7003,南昌市,省林业公司,细颗粒物(PM2.5),107,144,108,80,62,16,,79,70,93,58,9,10,0.8,0.7
2024-12-29T2100,1292A,115.8126,28.7442,南昌市,林科所,细颗粒物(PM2.5),85,100,86,63,53,22,,78,71,98,51,8,5,0.7,0.7
2024-12-29T2100,1294A,115.8518,28.687,南昌市,建工学校,细颗粒物(PM2.5),104,136,102,78,56,22,,78,72,98,60,11,12,1.3,0.9
2024-12-29T2100,1295A,115.8921,28.6424,南昌市,象湖,细颗粒物(PM2.5),90,113,104,67,69,38,,87,83,63,57,8,10,0.8,0.8
2024-12-29T2100,1296A,115.7423,28.7996,南昌市,武术学校,细颗粒物(PM2.5),87,,49,64,37,37,,59,51,27,22,1,3,0.9,0.7
2024-12-29T2100,1298A,115.9314,28.6842,南昌市,省站,细颗粒物(PM2.5),108,144,117,81,67,47,,80,76,49,46,10,11,0.7,0.6
2024-12-29T2100,3046A,115.9084,28.6062,南昌市,机电学校,细颗粒物(PM2.5),110,144,135,83,75,36,,80,76,75,60,13,14,0.7,0.7
2024-12-29T2100,3690A,115.9721,28.7031,南昌市,外国语学校,细颗粒物(PM2.5),92,110,104,68,56,15,,89,76,86,47,8,10,0.8,0.7
2024-12-29T2100,1905A,106.056,30.8064,南充市,西山风景区,细颗粒物(PM2.5),90,76,68,67,58,52,,54,54,14,14,2,2,0.7,0.6
2024-12-29T2100,1906A,106.0789,30.8023,南充市,南充市委,细颗粒物(PM2.5),144,141,101,110,78,9,,34,29,54,37,4,3,0.9,0.7
2024-12-29T2100,1907A,106.1031,30.8217,南充市,南充炼油厂,细颗粒物(PM2.5),119,121,113,90,90,7,,33,29,65,44,4,4,0.9,0.7
2024-12-29T2100,1908A,106.1064,30.7856,南充市,高坪区监测站,细颗粒物(PM2.5),123,134,121,93,87,2,,20,,69,46,3,2,0.9,0.8
2024-12-29T2100,1909A,106.0642,30.7636,南充市,嘉陵区环保局,细颗粒物(PM2.5),132,124,98,100,73,7,,36,30,59,45,4,4,0.8,0.7
2024-12-29T2100,1910A,106.1087,30.8388,南充市,市环境监测站,细颗粒物(PM2.5),104,110,106,78,73,23,,40,34,47,35,6,5,0.8,0.7
2024-12-29T2100,1151A,118.8086,32.1065,南京市,迈皋桥,细颗粒物(PM2.5),58,57,70,41,40,27,,66,59,66,60,4,7,0.8,0.8
2024-12-29T2100,1152A,118.7538,32.0551,南京市,草场门,,,66,79,34,41,35,,64,59,,59,5,6,,0.5
2024-12-29T2100,1153A,118.7794,32.0745,南京市,山西路,,48,48,85,24,41,65,,76,76,39,55,5,4,0.6,0.8
2024-12-29T2100,1154A,118.7752,32.0023,南京市,中华门,颗粒物(PM10),51,51,74,29,41,27,,60,49,27,34,5,11,0.8,0.9
2024-12-29T2100,1155A,118.8109,32.0309,南京市,瑞金路,颗粒物(PM10),57,63,83,39,45,9,,61,51,92,55,5,7,1.2,1.2
2024-12-29T2100,1156A,118.7997,32.0754,南京市,玄武湖,,50,50,82,26,41,56,,68,66,29,47,8,9,0.3,0.5
2024-12-29T2100,1157A,118.6414,32.0931,南京市,浦口,颗粒物(PM10),60,69,79,34,35,44,,54,54,27,28,7,12,0.7,0.7
2024-12-29T2100,1158A,118.7356,31.9996,南京市,奥体中心,颗粒物(PM10),54,58,84,34,44,51,,78,74,56,61,8,10,0.6,0.8
2024-12-29T2100,1159A,118.9125,32.1028,南京市,仙林大学城,颗粒物(PM10),56,61,83,36,46,36,,64,61,52,56,6,8,0.4,0.5
2024-12-29T2100,3422A,118.8436,31.9198,南京市,江宁彩虹桥,颗粒物(PM10),52,54,85,34,42,38,,66,63,50,50,8,9,0.4,0.5
2024-12-29T2100,3423A,119.0138,31.6494,南京市,溧水永阳,细颗粒物(PM2.5),67,70,67,48,45,29,,77,62,53,35,4,4,0.7,0.6
2024-12-29T2100,3424A,118.879,31.3302,南京市,高淳老职中,细颗粒物(PM2.5),79,67,60,58,46,38,,88,81,46,27,9,6,0.3,0.3
2024-12-29T2100,3427A,118.8554,32.3578,南京市,六合雄州,颗粒物(PM10),65,80,95,45,49,17,,55,47,46,41,6,8,0.5,0.7
2024-12-29T2100,1401A,108.3103,22.7881,南宁市,二十一中,细颗粒物(PM2.5),94,88,78,70,68,136,,147,147,36,27,12,10,0.9,0.8
2024-12-29T2100,1402A,108.3141,22.8528,南宁市,北湖,细颗粒物(PM2.5),99,99,83,74,64,116,,138,136,47,35,10,13,1.1,0.9
2024-12-29T2100,1403A,108.3206,22.8225,南宁市,市监测站,,,92,84,59,66,,,143,143,41,32,12,15,1.0,1
2024-12-29T2100,1404A,108.3829,22.8037,南宁市,大自然花园,细颗粒物(PM2.5),97,83,78,72,68,146,,146,146,27,26,10,12,0.8,0.7
2024-12-29T2100,1405A,108.4394,22.7904,南宁市,仙葫,细颗粒物(PM2.5),98,90,76,73,70,138,,135,135,25,24,7,9,0.9,0.8
2024-12-29T2100,1406A,108.2397,22.8467,南宁市,区农职院,细颗粒物(PM2.5),73,88,93,53,64,136,,142,141,35,34,10,15,0.8,0.8
2024-12-29T2100,1407A,108.3275,22.735,南宁市,英华嘉园,细颗粒物(PM2.5),127,149,85,96,65,97,,129,122,55,33,18,12,0.9,0.8
2024-12-29T2100,1408A,108.2257,22.7757,南宁市,沙井镇街道办,颗粒物(PM10),90,129,98,66,72,88,,129,113,73,54,11,13,1.0,0.9
2024-12-29T2100,3401A,108.4834,22.7618,南宁市,红星社区,细颗粒物(PM2.5),105,111,85,79,73,122,,140,136,38,31,13,13,1.0,0.8
2024-12-29T2100,2331A,118.0966,26.6761,南平市,茫荡山,,,,,,,,,,,,,,,,
2024-12-29T2100,2332A,118.1681,26.6369,南平市,南平市监测站,,49,44,52,34,41,33,,95,76,46,34,4,5,0.7,0.6
2024-12-29T2100,2333A,118.1825,26.6489,南平市,南平铝业有限公司,,43,41,50,30,35,22,,93,73,52,32,5,6,0.8,0.7
2024-12-29T2100,2334A,118.1756,26.6272,南平市,南平七中,,48,48,49,33,39,36,,92,73,31,20,3,3,0.7,0.6
2024-12-29T2100,1168A,120.9098,31.9663,南通市,狼山街道,细颗粒物(PM2.5),89,91,72,66,46,3,,55,35,85,46,5,6,1.1,1.1
2024-12-29T2100,1169A,120.86,32.0005,南通市,虹桥,细颗粒物(PM2.5),72,78,77,52,50,31,,50,36,62,59,9,10,0.5,0.8
2024-12-29T2100,1170A,120.87,32.02,南通市,城中,颗粒物(PM10),71,92,91,50,46,22,,54,38,81,65,9,10,0.7,0.9
2024-12-29T2100,1171A,120.94,31.93,南通市,星湖花园,细颗粒物(PM2.5),78,101,74,57,44,12,,54,35,91,58,9,7,0.7,0.8
2024-12-29T2100,1172A,120.81,32.0417,南通市,紫琅学院,细颗粒物(PM2.5),73,85,80,53,45,19,,49,34,78,64,6,6,0.7,0.8
2024-12-29T2100,3291A,121.067,32.062,南通市,通州监测站,细颗粒物(PM2.5),92,100,91,68,53,27,,62,47,72,58,6,6,1.0,1
2024-12-29T2100,3432A,120.9348,31.9883,南通市,环境教育馆,细颗粒物(PM2.5),83,110,86,61,44,6,,64,39,93,59,7,7,0.8,0.7
2024-12-29T2100,2404A,112.5224,33.0122,南阳市,瓦房庄,细颗粒物(PM2.5),145,153,124,111,85,26,,79,67,73,42,13,10,1.1,0.9
2024-12-29T2100,2405A,112.5003,32.9735,南阳市,汉画馆,细颗粒物(PM2.5),129,139,112,98,75,10,,78,62,79,45,8,9,0.9,0.7
2024-12-29T2100,2406A,112.5573,33.027,南阳市,气象站,细颗粒物(PM2.5),119,148,127,90,74,47,,86,79,57,44,11,10,0.9,0.7
2024-12-29T2100,2407A,112.5481,32.9689,南阳市,理工学院,细颗粒物(PM2.5),132,138,104,100,74,34,,82,72,67,47,12,9,0.9,0.8
2024-12-29T2100,4008A,112.5234,32.9922,南阳市,卧龙区政府,细颗粒物(PM2.5),125,139,114,95,72,27,,77,64,69,44,11,8,1.1,0.9
2024-12-29T2100,1234A,121.8358,29.911,宁波市,区环保大楼,颗粒物(PM10),52,53,67,31,34,56,,48,48,43,56,7,9,0.6,0.7
2024-12-29T2100,1235A,121.56,29.82,宁波市,万里学院,颗粒物(PM10),56,61,68,39,41,44,,73,69,50,47,5,6,0.6,0.7
2024-12-29T2100,1236A,121.713,29.9572,宁波市,龙赛医院,颗粒物(PM10),58,65,88,31,38,59,,51,51,35,56,8,11,0.6,0.7
2024-12-29T2100,1239A,121.633,29.7733,宁波市,钱湖水厂,颗粒物(PM10),51,51,71,33,41,60,,75,74,24,34,5,6,0.4,0.5
2024-12-29T2100,1240A,121.5856,29.8635,宁波市,太古小学,颗粒物(PM10),56,61,69,36,37,51,,68,65,46,48,8,9,0.8,0.8
2024-12-29T2100,1241A,121.524,29.8674,宁波市,市环境监测中心,细颗粒物(PM2.5),57,62,62,40,35,48,,63,60,41,41,9,10,0.8,0.7
2024-12-29T2100,2871A,121.6147,29.9017,宁波市,万里国际学校,颗粒物(PM10),53,56,60,34,39,62,,63,61,33,48,8,8,0.6,0.7
2024-12-29T2100,3710A,121.5594,29.8975,宁波市,白沙活动中心,颗粒物(PM10),53,56,58,34,35,54,,64,60,42,47,9,10,0.6,0.8
2024-12-29T2100,2339A,119.5001,26.6946,宁德市,金涵水库,,,,,,,,,,,,,,,,
2024-12-29T2100,2341A,119.5388,26.6612,宁德市,宁德市监测站,,48,48,49,32,36,75,,90,88,22,23,4,5,0.5,0.5
2024-12-29T2100,3209A,119.5231,26.6562,宁德市,宁德一中,,36,36,46,25,34,79,,92,91,18,21,3,4,0.6,0.6
2024-12-29T2100,2618A,98.8601,25.8567,怒江傈僳族自治州,州监测站,,,,35,,20,,,59,,,11,,4,,0.6
2024-12-29T2100,2619A,98.8546,25.8417,怒江傈僳族自治州,泸水一中,颗粒物(PM10),54,58,36,30,25,9,,59,47,44,21,8,7,1.2,0.7
2024-12-29T2100,1888A,101.6891,26.571,攀枝花市,弄弄坪,颗粒物(PM10),60,70,68,35,45,53,,78,77,40,34,30,25,1.4,1.7
2024-12-29T2100,1889A,101.5769,26.5928,攀枝花市,河门口,颗粒物(PM10),57,63,65,39,45,74,,97,97,22,28,14,17,1.5,1.6
2024-12-29T2100,1890A,101.7169,26.585,攀枝花市,炳草岗,颗粒物(PM10),63,75,78,34,50,24,,82,77,73,47,22,21,1.0,1.1
2024-12-29T2100,1891A,101.7369,26.5008,攀枝花市,仁和,"颗粒物(PM10),细颗粒物(PM2.5)",64,78,61,46,44,49,,94,88,34,27,13,19,0.9,1.3
2024-12-29T2100,2835A,101.7227,26.567,攀枝花市,四十中小,细颗粒物(PM2.5),70,76,79,51,52,23,,69,66,78,55,14,18,1.8,1.7
2024-12-29T2100,1604A,122.0303,41.1489,盘锦市,开发区,,46,46,87,30,57,44,,48,47,25,42,9,16,1.1,1.8
2024-12-29T2100,1605A,122.0485,41.0883,盘锦市,兴隆台,颗粒物(PM10),52,53,83,32,51,46,,47,46,26,46,13,29,0.8,1.6
2024-12-29T2100,1606A,121.8297,41.1028,盘锦市,新生街道,,45,45,53,25,39,44,,56,53,31,44,9,14,0.7,1.1
2024-12-29T2100,1832A,113.3257,33.742,平顶山市,新华旅馆,细颗粒物(PM2.5),130,155,100,99,63,64,,92,90,41,34,11,9,0.6,0.4
2024-12-29T2100,1833A,113.2919,33.737,平顶山市,规划设计院,细颗粒物(PM2.5),133,153,100,101,62,57,,90,87,43,38,9,7,0.6,0.5
2024-12-29T2100,1834A,113.182,33.774,平顶山市,平顶山工学院,,,,93,,52,78,,88,88,,28,13,11,0.8,0.7
2024-12-29T2100,3204A,113.3025,33.73,平顶山市,规划局,细颗粒物(PM2.5),144,144,96,110,65,53,,85,82,47,36,10,8,0.7,0.5
2024-12-29T2100,3594A,112.8867,33.9116,平顶山市,石龙区,颗粒物(PM10),86,122,130,54,47,16,,76,66,71,54,9,12,0.8,0.9
2024-12-29T2100,2656A,106.6692,35.5461,平凉市,聚贤嘉苑,,42,42,53,23,30,29,,95,82,62,44,14,14,0.7,0.6
2024-12-29T2100,2657A,106.7021,35.5307,平凉市,博物馆,,,,,,,,,,,,,,,,
2024-12-29T2100,2347A,114.0997,27.5002,萍乡市,武功山,细颗粒物(PM2.5),67,69,48,48,33,58,,98,87,18,13,14,13,1.2,0.9
2024-12-29T2100,2348A,113.8385,27.6434,萍乡市,中医院,细颗粒物(PM2.5),79,96,107,58,65,85,,101,100,25,34,26,17,1.2,1.1
2024-12-29T2100,2349A,113.8493,27.6253,萍乡市,市政府车库,细颗粒物(PM2.5),89,92,94,66,77,78,,96,95,32,31,39,17,1.3,1.4
2024-12-29T2100,2350A,113.8676,27.6435,萍乡市,市环保局,细颗粒物(PM2.5),89,104,108,66,76,74,,96,94,32,37,42,22,1.3,1
2024-12-29T2100,2351A,113.866,27.6198,萍乡市,安源区政府,细颗粒物(PM2.5),93,98,106,69,71,80,,99,97,36,31,33,17,1.2,1.3
2024-12-29T2100,2319A,119.0141,25.4325,莆田市,荔城区仓后路,,42,42,46,7,24,85,,80,,11,14,3,2,0.5,0.7
2024-12-29T2100,2320A,119.0015,25.4553,莆田市,莆田市监测站,,29,23,42,6,23,91,,96,96,11,14,2,4,0.4,0.6
2024-12-29T2100,2321A,119.1119,25.4561,莆田市,涵江区六中,,42,42,45,10,20,83,,92,91,10,12,1,2,0.2,0.2
2024-12-29T2100,2322A,119.1013,25.3215,莆田市,秀屿区政府,,27,23,43,11,23,84,,90,90,18,21,1,2,0.3,0.4
2024-12-29T2100,2323A,118.981,25.4792,莆田市,东圳水库,,,,39,,23,,,74,,,12,,3,,0.7
2024-12-29T2100,2392A,115.0312,35.7636,濮阳市,环保局,细颗粒物(PM2.5),93,93,78,69,34,54,,58,58,31,35,6,4,0.8,0.8
2024-12-29T2100,2394A,115.0574,35.7609,濮阳市,油田运输公司,,,,86,,32,47,,58,53,34,43,5,3,0.7,0.6
2024-12-29T2100,2395A,115.0866,35.7754,濮阳市,油田物探公司,细颗粒物(PM2.5),98,117,89,73,39,46,,59,56,37,39,6,4,0.7,0.6
2024-12-29T2100,3021A,115,35.7668,濮阳市,濮水河管理处,细颗粒物(PM2.5),94,126,92,70,39,47,,55,53,26,31,7,6,0.7,0.6
2024-12-29T2100,2601A,100.98,22.7633,普洱市,市环保局,颗粒物(PM10),53,56,40,19,14,20,,61,55,22,9,4,5,0.8,0.6
2024-12-29T2100,2602A,100.9817,22.8322,普洱市,普洱第二中学,,50,50,37,16,16,38,,64,59,11,15,9,9,0.7,0.7
2024-12-29T2100,2262A,131.0518,45.8751,七台河市,新一中,,19,,27,8,21,59,,67,61,8,11,9,10,1.7,1.6
2024-12-29T2100,3345A,131.0577,45.7879,七台河市,中波台,细颗粒物(PM2.5),52,48,38,36,25,17,,47,32,49,27,11,12,0.9,0.8
2024-12-29T2100,3637A,131.0176,45.7761,七台河市,人民广场,细颗粒物(PM2.5),87,80,49,64,38,11,,47,32,57,32,7,7,1.0,0.7
2024-12-29T2100,3684A,130.8781,45.8222,七台河市,新建矿广场,细颗粒物(PM2.5),69,73,39,50,36,9,,42,26,63,33,18,11,0.8,0.6
2024-12-29T2100,1779A,123.9305,47.3636,齐齐哈尔市,安居小区,细颗粒物(PM2.5),62,65,54,44,30,33,,43,42,35,27,12,13,0.6,0.6
2024-12-29T2100,1780A,123.9488,47.3386,齐齐哈尔市,中心广场,细颗粒物(PM2.5),57,59,45,40,31,40,,45,45,28,26,5,6,0.5,0.6
2024-12-29T2100,1781A,123.9483,47.3227,齐齐哈尔市,农牧车辆厂,细颗粒物(PM2.5),53,51,44,37,30,34,,46,45,34,27,6,7,0.5,0.5
2024-12-29T2100,1783A,123.945,47.2988,齐齐哈尔市,市环境监测站,细颗粒物(PM2.5),72,79,57,52,37,39,,47,46,31,27,4,5,0.9,0.8
