timepoint,stationcode,longitude,latitude,area,positionname,primarypollutant,aqi,pm10,pm10_24h,pm2_5,pm2_5_24h,o3,o3_24h,o3_8h,o3_8h_24h,no2,no2_24h,so2,so2_24h,co,co_24h
2024-12-29T2200,2566A,102.1879,31.914,阿坝藏族羌族自治州,州农科所,,49,49,39,18,12,29,,53,44,33,18,8,9,1.3,0.9
2024-12-29T2200,2568A,102.2502,31.8896,阿坝藏族羌族自治州,马师校,,41,41,20,28,14,8,,48,28,49,24,4,4,0.6,0.4
2024-12-29T2200,3994A,102.2165,31.9024,阿坝藏族羌族自治州,马尔康中学西区,,50,50,27,32,14,20,,55,42,41,20,7,6,0.9,0.5
2024-12-29T2200,2695A,80.292,41.1694,阿克苏地区,电视台,细颗粒物(PM2.5),188,321,124,141,77,9,,63,56,92,47,3,3,,1.7
2024-12-29T2200,2696A,80.2613,41.1551,阿克苏地区,艺术中心,细颗粒物(PM2.5),125,153,134,95,83,26,,59,52,64,50,4,4,1.3,1.6
2024-12-29T2200,2204A,105.6467,38.8363,阿拉善盟,西城区西花园,颗粒物(PM10),76,101,150,42,44,38,,88,60,40,22,10,9,1.1,0.8
2024-12-29T2200,2205A,105.6985,38.8411,阿拉善盟,蒙二幼,颗粒物(PM10),78,105,117,40,24,53,,87,66,28,17,4,4,0.8,0.6
2024-12-29T2200,2206A,105.724,38.8516,阿拉善盟,环保局新楼,颗粒物(PM10),97,144,80,37,20,91,,94,85,6,7,7,7,0.5,0.5
2024-12-29T2200,2708A,88.1264,47.8517,阿勒泰地区,市站,,22,22,29,13,19,36,,44,39,34,39,8,9,0.6,0.5
2024-12-29T2200,2630A,80.1161,32.5,阿里地区,阿里监测站,,26,16,9,11,6,82,,92,92,13,8,14,13,0.6,0.5
2024-12-29T2200,3192A,80.0903,32.5028,阿里地区,阿里藏医院,,24,15,10,11,7,76,,95,94,9,8,15,12,0.6,0.7
2024-12-29T2200,2642A,109.0318,32.6537,安康市,香溪洞,,42,35,58,29,41,67,,68,68,13,21,8,10,0.4,0.6
2024-12-29T2200,2644A,109.0072,32.6975,安康市,汉滨区检察院,细颗粒物(PM2.5),64,66,60,46,43,19,,62,52,58,31,6,6,0.9,0.7
2024-12-29T2200,4054A,109.0325,32.6913,安康市,市邮政管理局,细颗粒物(PM2.5),93,104,74,69,50,5,,50,32,68,40,8,8,1.4,0.8
2024-12-29T2200,2291A,117.0809,30.5177,安庆市,环科院,细颗粒物(PM2.5),92,98,88,68,58,4,,72,46,106,64,11,8,1.1,0.8
2024-12-29T2200,2292A,117.0331,30.5119,安庆市,马山宾馆,细颗粒物(PM2.5),108,117,88,81,57,2,,81,60,101,53,16,10,1.1,0.7
2024-12-29T2200,2294A,116.9896,30.6145,安庆市,安庆大学,细颗粒物(PM2.5),98,108,96,73,64,10,,82,64,84,57,10,12,0.8,0.9
2024-12-29T2200,3173A,117.0598,30.5351,安庆市,市人大,细颗粒物(PM2.5),102,121,94,76,64,2,,85,60,106,62,8,8,1.2,0.8
2024-12-29T2200,3123A,105.9408,26.2431,安顺市,凤凰山,细颗粒物(PM2.5),78,63,51,57,42,50,,74,64,29,22,43,17,0.8,0.7
2024-12-29T2200,3124A,105.9439,26.2564,安顺市,金钟山,细颗粒物(PM2.5),70,66,47,51,39,58,,77,68,17,14,38,23,0.8,0.7
2024-12-29T2200,3125A,105.8983,26.2481,安顺市,娄家坡,细颗粒物(PM2.5),72,63,49,52,39,54,,74,64,18,15,40,17,0.7,0.6
2024-12-29T2200,1818A,114.4839,36.0621,安阳市,棉研所,细颗粒物(PM2.5),85,90,92,63,48,14,,44,34,47,41,11,11,0.7,0.8
2024-12-29T2200,1819A,114.3551,36.1017,安阳市,红庙街,细颗粒物(PM2.5),79,94,82,58,48,15,,37,29,48,39,14,13,1.3,1
2024-12-29T2200,1820A,114.361,36.0681,安阳市,银杏小区,颗粒物(PM10),75,99,84,50,45,16,,34,27,51,46,33,10,1.0,0.9
2024-12-29T2200,3141A,114.3922,36.0878,安阳市,信访局,颗粒物(PM10),67,83,89,46,43,19,,35,30,40,45,6,6,0.9,0.8
2024-12-29T2200,3669A,114.4705,36.0637,安阳市,左辅环卫站,细颗粒物(PM2.5),88,104,100,65,54,14,,47,36,44,38,9,9,0.9,0.8
2024-12-29T2200,3703A,114.2917,36.0949,安阳市,安钢职工学校,细颗粒物(PM2.5),90,109,86,67,52,9,,37,25,59,44,11,7,1.2,0.9
2024-12-29T2200,1748A,123.044,41.1196,鞍山市,深沟寺,颗粒物(PM10),53,55,55,23,31,59,,63,58,16,22,10,13,0.8,1
2024-12-29T2200,1749A,123.011,41.0931,鞍山市,太阳城,颗粒物(PM10),56,62,55,29,28,63,,65,61,18,24,9,12,0.6,1
2024-12-29T2200,1750A,123.0485,41.1442,鞍山市,太平,颗粒物(PM10),55,60,65,29,32,54,,60,53,21,30,11,13,0.7,1
2024-12-29T2200,1751A,122.9642,41.0971,鞍山市,铁西三道街,颗粒物(PM10),62,74,77,29,36,40,,52,36,41,44,14,17,0.9,1.3
2024-12-29T2200,1752A,122.9341,41.0833,鞍山市,铁西工业园区,颗粒物(PM10),58,66,87,28,40,51,,62,54,30,44,10,12,1.1,1.4
2024-12-29T2200,1753A,123.022,41.0821,鞍山市,明达新区,颗粒物(PM10),57,64,56,27,26,64,,64,60,12,17,10,13,0.6,1.1
2024-12-29T2200,2195A,107.4212,40.761,巴彦淖尔市,附二中,颗粒物(PM10),142,233,351,47,46,73,,80,77,12,9,6,6,0.4,0.4
2024-12-29T2200,2196A,107.37,40.7372,巴彦淖尔市,市环保大楼,颗粒物(PM10),128,206,344,52,46,75,,81,77,7,6,4,4,0.3,0.4
2024-12-29T2200,1956A,86.1472,41.7538,巴音郭楞蒙古自治州,孔雀公园,颗粒物(PM10),62,73,171,41,47,44,,51,51,26,44,5,4,0.7,0.8
2024-12-29T2200,1957A,86.1972,41.7166,巴音郭楞蒙古自治州,棉纺厂,颗粒物(PM10),67,83,204,42,35,42,,52,52,30,38,4,4,0.8,0.6
2024-12-29T2200,1958A,86.2357,41.7173,巴音郭楞蒙古自治州,经济开发区,细颗粒物(PM2.5),68,63,151,49,29,43,,54,53,32,30,5,4,0.5,0.4
2024-12-29T2200,2914A,106.7677,31.8794,巴中市,苏山坪,细颗粒物(PM2.5),84,76,69,62,53,46,,78,44,23,17,2,2,0.5,0.4
2024-12-29T2200,3182A,106.7656,31.8545,巴中市,丽阳花园,细颗粒物(PM2.5),169,177,91,128,64,5,,15,9,52,48,4,4,1.2,0.9
2024-12-29T2200,3183A,106.7418,31.8654,巴中市,圣泉水务公司,细颗粒物(PM2.5),160,157,80,122,57,6,,38,13,55,39,2,2,0.8,0.5
2024-12-29T2200,3616A,106.7616,31.8344,巴中市,市中心医院,细颗粒物(PM2.5),152,186,104,116,79,6,,10,8,48,47,3,3,1.1,0.9
2024-12-29T2200,2235A,122.7911,45.6077,白城市,洮北区环保局,细颗粒物(PM2.5),117,98,55,88,56,16,,53,41,53,33,4,5,1.2,0.7
2024-12-29T2200,2236A,122.8738,45.5725,白城市,市环保局,细颗粒物(PM2.5),78,75,42,57,30,14,,46,36,43,30,4,5,0.7,0.5
2024-12-29T2200,2231A,126.4219,41.9171,白山市,喜丰,颗粒物(PM10),61,71,52,28,23,27,,57,48,41,25,28,24,0.9,0.8
2024-12-29T2200,2232A,126.4077,41.9419,白山市,环保局,颗粒物(PM10),57,64,62,39,28,21,,39,26,32,25,9,12,1.2,1
2024-12-29T2200,2647A,104.1724,36.5446,白银市,第三小学,细颗粒物(PM2.5),65,76,57,47,39,7,,64,44,76,41,38,70,1.2,1.1
2024-12-29T2200,2648A,104.1465,36.5482,白银市,动力公司,颗粒物(PM10),78,106,51,35,38,24,,70,52,46,28,10,19,0.8,1
2024-12-29T2200,2512A,106.6103,23.9011,百色市,市监测站,细颗粒物(PM2.5),89,89,69,66,48,79,,128,120,30,24,14,21,1.1,0.9
2024-12-29T2200,2513A,106.6538,23.8859,百色市,市中心血站,细颗粒物(PM2.5),100,106,81,75,55,71,,131,124,65,27,15,24,1.0,0.9
2024-12-29T2200,3406A,106.6085,23.8798,百色市,祈福高中,细颗粒物(PM2.5),83,114,83,61,44,53,,126,117,72,29,17,17,1.2,1
2024-12-29T2200,2270A,117.396,32.939,蚌埠市,工人疗养院,细颗粒物(PM2.5),78,83,72,57,42,71,,80,75,30,33,10,7,0.7,0.6
2024-12-29T2200,2271A,117.3605,32.9427,蚌埠市,百货大楼,细颗粒物(PM2.5),82,84,68,60,40,63,,73,66,34,33,11,8,0.7,0.6
2024-12-29T2200,2273A,117.4185,32.8911,蚌埠市,蚌埠学院,细颗粒物(PM2.5),92,97,76,68,43,62,,84,73,34,33,10,9,0.6,0.5
2024-12-29T2200,2274A,117.3533,32.9673,蚌埠市,淮上区政府,细颗粒物(PM2.5),79,85,74,58,43,68,,74,69,29,31,12,10,0.6,0.5
2024-12-29T2200,2275A,117.3145,32.8977,蚌埠市,高新区,细颗粒物(PM2.5),85,102,92,63,53,50,,74,64,48,48,12,10,0.6,0.5
2024-12-29T2200,3715A,117.3092,32.9314,蚌埠市,蚌埠田家炳中学,细颗粒物(PM2.5),88,105,84,65,48,49,,74,66,43,40,10,11,0.7,0.6
2024-12-29T2200,1585A,109.8756,40.6532,包头市,市环境监测站,颗粒物(PM10),243,380,239,63,54,7,,55,40,78,57,10,24,1.1,1.4
2024-12-29T2200,1587A,109.9991,40.5842,包头市,包头八中,颗粒物(PM10),298,418,279,96,68,8,,67,46,73,48,6,19,1.1,1
2024-12-29T2200,1588A,109.8538,40.6821,包头市,青山宾馆,颗粒物(PM10),192,334,218,65,64,6,,45,31,74,59,11,21,0.8,1.5
2024-12-29T2200,1589A,109.8642,40.6288,包头市,惠龙物流,颗粒物(PM10),249,384,248,68,52,5,,64,44,77,50,14,19,1.6,1.3
2024-12-29T2200,1590A,110.0377,40.5546,包头市,东河鸿龙湾,颗粒物(PM10),258,390,253,71,53,7,,68,47,78,44,12,16,1.6,1.1
2024-12-29T2200,3283A,109.9154,40.5685,包头市,滨河大厦,颗粒物(PM10),295,416,275,65,50,27,,74,56,49,39,10,10,0.9,0.9
2024-12-29T2200,3419A,109.9447,40.6261,包头市,包头市委党校,颗粒物(PM10),229,370,261,53,55,6,,70,46,89,61,6,19,0.7,1.4
2024-12-29T2200,3683A,109.8331,40.6576,包头市,昆区政府,颗粒物(PM10),228,369,234,81,64,7,,49,38,73,56,11,28,1.1,1.5
2024-12-29T2200,1930A,107.185,34.3063,宝鸡市,庙沟村,,30,25,54,21,37,37,,57,55,41,33,6,7,0.4,0.5
2024-12-29T2200,1931A,107.0708,34.3017,宝鸡市,竹园沟,,43,40,58,30,45,36,,45,45,24,32,6,6,0.7,0.6
2024-12-29T2200,1932A,107.1906,34.3672,宝鸡市,三陆医院,细颗粒物(PM2.5),125,109,88,95,63,12,,23,16,52,47,5,6,0.9,0.9
2024-12-29T2200,1933A,107.1431,34.3547,宝鸡市,监测站,细颗粒物(PM2.5),74,74,72,54,48,9,,28,22,56,44,7,7,1.0,0.8
2024-12-29T2200,1934A,107.1186,34.3739,宝鸡市,技工学校,细颗粒物(PM2.5),84,69,76,62,50,30,,35,30,26,32,4,8,0.7,0.6
2024-12-29T2200,1935A,107.3906,34.3528,宝鸡市,陈仓区环保局家属楼,细颗粒物(PM2.5),228,213,115,178,82,14,,25,20,66,57,22,30,1.6,1
2024-12-29T2200,1936A,107.2058,34.3497,宝鸡市,文理学院,细颗粒物(PM2.5),124,102,71,94,49,10,,30,22,58,43,7,7,0.9,0.7
2024-12-29T2200,1937A,107.2386,34.3622,宝鸡市,三迪小学,细颗粒物(PM2.5),125,114,82,95,57,5,,23,16,66,49,7,8,1.2,1
2024-12-29T2200,1051A,115.493,38.8632,保定市,游泳馆,细颗粒物(PM2.5),103,129,100,77,56,8,,26,20,78,79,5,10,1.2,0.8
2024-12-29T2200,1052A,115.5213,38.8959,保定市,华电二区,细颗粒物(PM2.5),107,108,91,80,57,2,,13,10,81,65,6,4,0.7,0.5
2024-12-29T2200,1053A,115.4713,38.9108,保定市,接待中心,细颗粒物(PM2.5),97,119,102,72,60,7,,18,13,71,59,3,4,1.0,0.8
2024-12-29T2200,1054A,115.4612,38.8416,保定市,地表水厂,细颗粒物(PM2.5),108,124,95,81,53,9,,32,24,90,54,5,6,1.0,0.7
2024-12-29T2200,3581A,115.31981,38.95208,保定市,满城区生态环境分局,细颗粒物(PM2.5),125,158,118,95,63,8,,24,17,95,73,4,4,0.9,0.7
2024-12-29T2200,3582A,115.47694,38.76408,保定市,清苑区第二中学,细颗粒物(PM2.5),104,143,94,78,42,6,,35,22,81,56,9,10,1.1,0.8
2024-12-29T2200,3583A,115.62909,39.02311,保定市,徐水物探局,细颗粒物(PM2.5),107,128,97,80,53,3,,14,7,71,57,10,9,1.4,0.9
2024-12-29T2200,4004A,115.4202,38.8656,保定市,双鹰农机,细颗粒物(PM2.5),100,113,93,75,50,8,,28,20,68,50,2,3,0.7,0.5
2024-12-29T2200,4034A,115.5150,38.8590,保定市,植保所站,细颗粒物(PM2.5),110,157,109,83,62,4,,19,15,76,61,9,9,1.1,0.8
2024-12-29T2200,2594A,99.1678,25.1081,保山市,市环境监测站,,31,31,19,9,10,51,,72,66,11,9,5,5,0.4,0.4
2024-12-29T2200,2595A,99.1711,25.1328,保山市,市环保局,,23,23,19,11,16,58,,74,70,7,6,7,6,0.4,0.4
2024-12-29T2200,1866A,109.2262,21.588,北海市,牛尾岭水库,,,,68,67,70,109,,138,133,,16,12,9,0.8,0.8
2024-12-29T2200,1867A,109.1436,21.4086,北海市,海滩公园,细颗粒物(PM2.5),64,65,83,46,66,165,,168,168,15,22,7,13,0.7,0.8
2024-12-29T2200,1868A,109.0981,21.4661,北海市,新市环保局,细颗粒物(PM2.5),62,65,78,44,70,157,,152,152,21,27,7,11,0.9,1
2024-12-29T2200,1869A,109.1778,21.5233,北海市,北海工业园,细颗粒物(PM2.5),83,86,94,61,75,149,,160,159,18,23,8,13,1.0,1
2024-12-29T2200,3400A,109.1911,21.4415,北海市,龙潭自来水厂,细颗粒物(PM2.5),60,64,85,43,80,156,,149,144,17,27,8,12,0.9,1
2024-12-29T2200,1001A,116.3621,39.8784,北京市,万寿西宫,颗粒物(PM10),87,123,74,63,33,1,,20,5,99,74,5,4,0.8,0.6
2024-12-29T2200,1002A,116.2202,40.2915,北京市,定陵,,,59,49,27,21,,,11,,42,24,4,4,0.5,0.4
2024-12-29T2200,1003A,116.4174,39.9289,北京市,东四,细颗粒物(PM2.5),97,136,76,72,35,2,,16,5,87,64,5,3,1.1,0.5
2024-12-29T2200,1004A,116.4072,39.8863,北京市,天坛,细颗粒物(PM2.5),92,115,72,68,35,3,,16,6,75,60,1,2,0.7,0.6
2024-12-29T2200,1005A,116.462,39.9365,北京市,农展馆,细颗粒物(PM2.5),90,121,74,67,33,6,,19,10,87,66,3,2,1.1,0.8
2024-12-29T2200,1006A,116.3392,39.9295,北京市,官园,"颗粒物(PM10),细颗粒物(PM2.5)",85,120,68,63,30,0,,24,8,89,62,6,5,0.8,0.6
2024-12-29T2200,1007A,116.2878,39.9611,北京市,海淀万柳,颗粒物(PM10),90,130,75,61,29,8,,23,14,76,59,4,4,0.9,0.7
2024-12-29T2200,1008A,116.6636,40.135,北京市,顺义新城,细颗粒物(PM2.5),123,178,74,93,33,2,,22,9,91,53,4,3,1.1,0.6
2024-12-29T2200,1009A,116.6275,40.3275,北京市,怀柔镇,颗粒物(PM10),60,70,52,37,25,9,,27,13,49,40,1,3,0.8,0.7
2024-12-29T2200,1010A,116.2296,40.217,北京市,昌平镇,颗粒物(PM10),68,85,65,34,24,6,,17,14,65,53,2,3,0.8,0.7
2024-12-29T2200,1011A,116.3966,39.9821,北京市,奥体中心,颗粒物(PM10),86,121,67,62,27,2,,26,10,78,55,5,5,1.1,0.7
2024-12-29T2200,1012A,116.184,39.9136,北京市,古城,颗粒物(PM10),83,115,78,49,28,2,,23,9,67,55,8,7,0.9,0.7
2024-12-29T2200,3281A,115.9718,40.4529,北京市,延庆夏都,颗粒物(PM10),124,197,84,35,28,39,,55,54,26,22,2,3,0.4,0.4
2024-12-29T2200,3417A,117.0709,40.1465,北京市,平谷新城,细颗粒物(PM2.5),129,155,78,98,43,3,,24,12,58,38,1,3,1.4,0.7
2024-12-29T2200,3418A,116.8336,40.4095,北京市,密云新城,细颗粒物(PM2.5),95,132,65,71,30,2,,27,15,66,48,2,3,0.7,0.4
2024-12-29T2200,3671A,116.088,39.9726,北京市,门头沟三家店,颗粒物(PM10),74,98,64,29,18,1,,29,8,65,45,5,5,0.6,0.5
2024-12-29T2200,3672A,116.1541,39.8204,北京市,丰台云岗,颗粒物(PM10),67,84,69,37,27,0,,18,6,69,55,3,3,0.6,0.5
2024-12-29T2200,3673A,116.6804,39.9081,北京市,通州东关,细颗粒物(PM2.5),113,150,96,85,43,3,,14,7,92,65,6,4,1.1,0.7
2024-12-29T2200,3674A,115.9577,39.7603,北京市,房山燕山,颗粒物(PM10),54,57,53,32,24,14,,36,15,51,39,5,4,0.6,0.5
2024-12-29T2200,3675A,116.4672,39.7733,北京市,大兴旧宫,细颗粒物(PM2.5),94,129,82,70,38,1,,10,5,74,64,2,3,0.9,0.7
2024-12-29T2200,3694A,115.986,40.4563,北京市,延庆石河营,颗粒物(PM10),102,153,73,36,29,18,,47,42,45,27,1,3,0.5,0.5
2024-12-29T2200,3695A,116.6151,40.3053,北京市,怀柔新城,颗粒物(PM10),56,62,51,35,25,15,,26,13,41,34,1,3,0.4,0.4
2024-12-29T2200,3696A,116.2545,39.8768,北京市,丰台小屯,颗粒物(PM10),86,122,86,59,34,2,,16,7,93,74,5,5,0.8,0.7
2024-12-29T2200,3697A,116.84,40.3844,北京市,密云镇,细颗粒物(PM2.5),115,146,73,87,34,3,,24,14,83,53,1,2,1.0,0.6
2024-12-29T2200,1761A,123.8275,41.3064,本溪市,大峪,,45,45,63,30,37,64,,68,66,14,32,15,12,0.8,1.5
2024-12-29T2200,1762A,123.7567,41.3325,本溪市,溪湖,颗粒物(PM10),60,70,74,35,34,32,,55,45,44,39,29,15,1.8,1.3
2024-12-29T2200,1763A,123.7169,41.3094,本溪市,彩屯,细颗粒物(PM2.5),60,63,85,43,60,42,,55,51,35,38,17,17,2.1,2.3
2024-12-29T2200,1764A,123.7669,41.2864,本溪市,东明,颗粒物(PM10),51,52,75,32,40,47,,62,56,29,35,12,10,0.5,1
2024-12-29T2200,1765A,123.7992,41.2664,本溪市,新立屯,颗粒物(PM10),51,51,52,23,15,60,,70,66,26,35,9,10,0.5,0.9
2024-12-29T2200,1766A,123.8142,41.3472,本溪市,威宁,颗粒物(PM10),55,59,83,33,32,61,,66,61,24,34,7,5,0.7,1
2024-12-29T2200,2587A,105.2864,27.3125,毕节市,八中,,15,6,53,3,43,47,,43,38,10,19,6,8,0.7,0.7
2024-12-29T2200,2588A,105.31,27.2944,毕节市,师专,,14,6,51,3,43,43,,43,36,11,17,6,10,0.7,0.7
2024-12-29T2200,3537A,105.3631,27.3533,毕节市,长征村,,14,6,56,3,49,43,,50,43,8,13,7,11,0.7,0.7
2024-12-29T2200,1629A,118.0018,37.3617,滨州市,第二水厂,颗粒物(PM10),85,119,95,56,42,21,,57,46,63,50,13,14,0.8,0.9
2024-12-29T2200,1630A,117.9776,37.393,滨州市,北中新校,颗粒物(PM10),80,110,95,56,42,36,,60,51,51,51,13,17,0.8,0.9
2024-12-29T2200,3514A,117.9378,37.3956,滨州市,中海酒店,细颗粒物(PM2.5),89,105,88,66,45,18,,59,48,70,48,22,26,0.8,0.8
2024-12-29T2200,3515A,117.9378,37.3553,滨州市,开发区一中,颗粒物(PM10),84,117,97,61,44,27,,48,42,59,54,11,16,0.5,0.6
2024-12-29T2200,3516A,118.0917,37.694,滨州市,金海六路,细颗粒物(PM2.5),92,132,108,68,50,6,,53,37,79,55,15,14,1.0,1
2024-12-29T2200,4028A,117.9956,37.3753,滨州市,滨州市西街道办事处,细颗粒物(PM2.5),83,112,91,61,48,20,,58,45,55,45,10,12,1.0,1
2024-12-29T2200,2311A,115.8072,33.8399,亳州市,污水处理厂,颗粒物(PM10),63,76,72,42,38,75,,77,76,19,25,3,4,0.5,0.5
2024-12-29T2200,2312A,115.7789,33.8518,亳州市,三国揽胜宫,颗粒物(PM10),63,76,79,42,46,77,,88,87,25,24,5,5,0.5,0.5
2024-12-29T2200,3332A,115.7633,33.8034,亳州市,亳州学院,颗粒物(PM10),67,84,80,47,45,72,,88,85,20,22,4,4,0.5,0.5
2024-12-29T2200,2693A,82.0485,44.8556,博尔塔拉蒙古自治州,市党校,细颗粒物(PM2.5),114,114,95,86,76,18,,42,36,45,32,22,12,1.2,1.3
2024-12-29T2200,2694A,82.0806,44.8969,博尔塔拉蒙古自治州,市环保局,细颗粒物(PM2.5),100,130,103,75,59,18,,59,46,53,32,14,9,1.6,1.3
2024-12-29T2200,1071A,116.8842,38.2991,沧州市,沧县城建局,细颗粒物(PM2.5),108,137,95,81,55,5,,44,28,77,53,10,10,1.7,1.1
2024-12-29T2200,1072A,116.8584,38.3254,沧州市,电视转播站,细颗粒物(PM2.5),94,127,95,70,51,9,,46,29,79,58,7,10,0.9,0.8
2024-12-29T2200,1073A,116.8709,38.3228,沧州市,市环保局,细颗粒物(PM2.5),112,132,87,84,55,3,,47,34,73,50,7,10,0.9,0.8
2024-12-29T2200,3324A,116.8136,38.3004,沧州市,河北水利电力学院,颗粒物(PM10),104,158,110,65,54,4,,46,32,71,47,15,15,1.0,0.7
2024-12-29T2200,2622A,97.1806,31.1273,昌都市,昌都监测站,,23,16,52,13,22,72,,93,93,29,35,6,7,0.7,1.1
2024-12-29T2200,3719A,97.1714,31.1406,昌都市,昌都会议中心,,25,10,14,10,12,78,,93,93,10,17,6,4,0.7,0.8
2024-12-29T2200,2690A,88.1236,43.8886,昌吉回族自治州,天山天池,,24,6,2,3,1,76,,84,76,2,2,10,9,0.2,0.2
2024-12-29T2200,2692A,87.2717,44.0297,昌吉回族自治州,新区政务中心,细颗粒物(PM2.5),245,280,266,195,190,10,,32,28,74,69,6,15,2.0,2.2
2024-12-29T2200,3613A,87.3095,44.0142,昌吉回族自治州,亚心广场,细颗粒物(PM2.5),257,249,251,207,204,10,,30,27,80,73,8,9,1.8,2
2024-12-29T2200,1119A,125.3325,43.9166,长春市,食品厂,,49,49,60,27,39,48,,44,44,21,38,13,12,0.4,0.7
2024-12-29T2200,1120A,125.2863,43.9027,长春市,客车厂,,45,45,49,28,36,35,,44,44,33,36,42,17,0.5,0.6
2024-12-29T2200,1121A,125.2841,43.8463,长春市,邮电学院,,41,41,55,26,37,48,,53,52,24,33,20,12,0.5,0.6
2024-12-29T2200,1122A,125.3716,43.8772,长春市,劳动公园,,40,40,56,23,35,50,,51,50,25,39,16,13,0.6,0.9
2024-12-29T2200,1123A,125.3297,43.8805,长春市,园林处,,34,34,49,23,30,52,,46,45,16,35,12,16,0.7,0.8
2024-12-29T2200,1124A,125.4605,43.79,长春市,净月潭,,31,31,40,21,28,57,,61,59,10,19,8,8,0.5,0.5
2024-12-29T2200,1126A,125.3863,43.8447,长春市,经开区环卫处,,39,39,50,22,29,51,,48,47,16,34,13,12,0.5,0.6
2024-12-29T2200,1127A,125.245,43.7783,长春市,高新区管委会,,39,39,53,23,39,47,,55,52,18,29,8,8,0.5,0.7
2024-12-29T2200,1128A,125.1761,43.8325,长春市,岱山公园,,40,40,49,24,34,46,,53,50,22,35,9,9,0.6,0.7
2024-12-29T2200,1335A,113.0833,28.2325,长沙市,经开区环保局,细颗粒物(PM2.5),114,141,92,86,54,9,,108,93,128,52,7,6,1.5,0.7
2024-12-29T2200,1336A,112.8872,28.2189,长沙市,高开区环保局,细颗粒物(PM2.5),125,129,110,95,65,41,,109,100,76,50,13,8,1.5,1
2024-12-29T2200,1337A,113.0792,28.2053,长沙市,马坡岭,细颗粒物(PM2.5),132,139,99,100,68,21,,112,96,88,50,7,6,1.5,0.9
2024-12-29T2200,1338A,112.9394,28.19,长沙市,湖南师范大学,细颗粒物(PM2.5),95,114,100,71,61,73,,104,100,44,43,10,8,1.1,0.8
2024-12-29T2200,1339A,113.0178,28.1322,长沙市,雨花区环保局,细颗粒物(PM2.5),114,113,101,86,62,58,,106,99,72,55,13,9,1.3,0.8
2024-12-29T2200,1340A,112.9792,28.2597,长沙市,伍家岭,细颗粒物(PM2.5),128,160,114,97,65,16,,98,85,96,51,7,6,1.3,0.9
2024-12-29T2200,1341A,113.0014,28.1944,长沙市,火车新站,细颗粒物(PM2.5),117,131,106,88,67,57,,102,96,76,58,9,6,1.2,0.8
2024-12-29T2200,1342A,112.9844,28.1178,长沙市,天心区环保局,细颗粒物(PM2.5),117,124,108,88,66,63,,108,101,68,53,11,8,1.8,1
2024-12-29T2200,1343A,112.8908,28.1308,长沙市,湖南中医药大学,细颗粒物(PM2.5),128,146,122,97,72,5,,105,74,116,62,13,9,1.5,0.7
2024-12-29T2200,1344A,112.9581,28.3611,长沙市,沙坪,颗粒物(PM10),103,156,90,75,60,62,,93,86,30,24,9,9,0.9,0.7
2024-12-29T2200,1727A,113.1147,36.1547,长治市,清华站,,50,50,47,29,21,47,,68,62,30,32,16,19,0.9,0.9
2024-12-29T2200,1728A,113.1031,36.1989,长治市,监测站,细颗粒物(PM2.5),55,49,54,39,32,52,,61,61,30,37,14,16,1.0,1
2024-12-29T2200,1730A,113.0886,36.2125,长治市,审计局,,50,50,53,31,26,50,,61,61,34,40,15,18,0.9,0.8
2024-12-29T2200,1731A,113.0844,36.1856,长治市,长治八中,颗粒物(PM10),67,84,72,36,37,48,,63,61,33,38,16,21,0.8,0.8
2024-12-29T2200,2845A,113.1569,36.1911,长治市,德盛苑,颗粒物(PM10),52,53,42,29,21,56,,74,68,26,23,12,9,1.1,1
2024-12-29T2200,3568A,113.06,36.0464,长治市,向阳小学,颗粒物(PM10),60,70,53,41,26,52,,80,71,35,24,14,17,0.8,0.7
2024-12-29T2200,3569A,112.8792,36.3144,长治市,屯留一中,细颗粒物(PM2.5),69,65,40,50,27,54,,71,68,36,31,17,15,1.7,1.1
2024-12-29T2200,3570A,113.235,36.3489,长治市,潞城四中,细颗粒物(PM2.5),62,67,63,44,35,65,,69,69,20,32,13,22,1.2,1.2
2024-12-29T2200,1854A,111.6975,28.9703,常德市,市二中,细颗粒物(PM2.5),156,149,112,119,91,,,97,96,78,33,6,5,1.0,0.8
2024-12-29T2200,3138A,111.7153,29.0289,常德市,武陵区永安,细颗粒物(PM2.5),145,143,118,111,88,38,,92,80,62,34,6,5,1.3,0.9
2024-12-29T2200,3139A,111.6892,28.9881,常德市,鼎城区玉霞,细颗粒物(PM2.5),163,161,126,124,92,15,,86,62,74,37,5,4,1.2,0.8
2024-12-29T2200,3140A,111.6625,29.0531,常德市,武陵区长庚,细颗粒物(PM2.5),166,188,132,126,95,25,,81,60,65,42,4,3,1.1,0.8
2024-12-29T2200,1196A,119.9633,31.762,常州市,市监测站,细颗粒物(PM2.5),83,108,89,61,50,16,,68,49,85,58,10,11,0.9,0.9
2024-12-29T2200,1201A,119.9255,31.9087,常州市,安家,细颗粒物(PM2.5),67,78,93,48,53,25,,65,44,68,61,9,13,0.9,0.8
2024-12-29T2200,3002A,119.9805,31.8174,常州市,行政中心,细颗粒物(PM2.5),77,76,71,56,47,29,,63,53,60,44,12,10,1.4,0.7
2024-12-29T2200,3003A,120.0522,31.7748,常州市,经开区,细颗粒物(PM2.5),93,97,88,69,50,21,,74,57,78,54,13,16,0.9,1
2024-12-29T2200,3010A,119.9025,31.7964,常州市,钟楼,细颗粒物(PM2.5),74,84,79,54,48,38,,70,58,58,60,9,12,0.9,0.9
2024-12-29T2200,3429A,119.8598,31.7066,常州市,武进经发区,细颗粒物(PM2.5),84,101,96,62,54,31,,70,52,65,56,8,8,0.6,0.8
2024-12-29T2200,3430A,119.5826,31.7245,常州市,金坛城区,细颗粒物(PM2.5),80,93,91,59,54,46,,78,69,43,37,15,13,1.1,0.8
2024-12-29T2200,2220A,120.4318,41.5881,朝阳市,西梁,细颗粒物(PM2.5),110,115,122,83,68,11,,34,25,45,38,13,15,2.2,2
2024-12-29T2200,2221A,120.4521,41.5646,朝阳市,河畔小区,细颗粒物(PM2.5),159,146,84,121,56,11,,35,22,54,40,15,12,2.2,1.5
2024-12-29T2200,2222A,120.4176,41.5648,朝阳市,八里堡,"颗粒物(PM10),细颗粒物(PM2.5)",68,85,89,49,50,21,,34,25,48,41,14,15,1.1,1.2
2024-12-29T2200,2223A,120.3806,41.5969,朝阳市,农业园区,,48,47,80,33,54,48,,40,36,27,44,17,18,1.3,1.6
2024-12-29T2200,1705A,116.6367,23.6719,潮州市,西园路,颗粒物(PM10),62,74,64,41,41,73,,112,104,26,19,6,7,0.3,0.2
2024-12-29T2200,3026A,116.6183,23.6608,潮州市,市政府,颗粒物(PM10),53,56,58,27,33,72,,111,103,28,20,6,6,0.7,0.5
2024-12-29T2200,4036A,116.6461,23.6761,潮州市,金山,颗粒物(PM10),56,62,55,34,37,61,,108,97,28,18,7,8,0.7,0.7
2024-12-29T2200,2472A,113.0073,25.9061,郴州市,马头岭,颗粒物(PM10),74,98,91,53,50,60,,98,89,51,31,14,11,1.0,0.8
2024-12-29T2200,2473A,113.0116,25.8226,郴州市,市职中,细颗粒物(PM2.5),93,99,86,69,64,30,,107,79,59,35,10,8,1.2,1
2024-12-29T2200,2474A,113.0161,25.8001,郴州市,兴隆步行街,细颗粒物(PM2.5),97,110,92,72,65,62,,102,84,47,41,8,7,0.8,0.7
2024-12-29T2200,2475A,113.0383,25.8071,郴州市,市审计局,细颗粒物(PM2.5),92,95,84,68,63,44,,104,84,45,35,8,8,1.1,0.9
2024-12-29T2200,2476A,113.0348,25.7759,郴州市,市环保局,细颗粒物(PM2.5),95,109,88,71,62,11,,96,72,87,47,8,9,0.9,0.8
2024-12-29T2200,1431A,103.9728,30.7236,成都市,金泉两河,颗粒物(PM10),66,82,75,45,48,35,,55,54,38,50,2,4,0.7,0.7
2024-12-29T2200,1432A,104.176,30.6872,成都市,十里店,"颗粒物(PM10),细颗粒物(PM2.5)",63,76,80,45,49,59,,58,58,36,55,3,3,0.5,0.5
2024-12-29T2200,1433A,104.079,30.5706,成都市,三瓦窑,细颗粒物(PM2.5),69,86,87,50,48,30,,68,59,57,50,1,2,0.7,0.6
2024-12-29T2200,1434A,104.1114,30.63,成都市,沙河铺,细颗粒物(PM2.5),69,75,74,50,47,54,,62,60,34,43,4,3,0.5,0.5
2024-12-29T2200,1437A,104.0786,30.6531,成都市,君平街,细颗粒物(PM2.5),79,82,77,58,49,48,,64,61,39,48,6,5,0.6,0.6
2024-12-29T2200,2880A,104.0239,30.65639,成都市,大石西路,细颗粒物(PM2.5),75,91,77,55,47,41,,64,60,44,47,3,4,0.6,0.5
2024-12-29T2200,3136A,104.2725,30.5589,成都市,龙泉驿区区政府,细颗粒物(PM2.5),77,80,74,56,46,50,,55,55,36,39,3,4,0.8,0.7
2024-12-29T2200,3357A,104.0106,30.6931,成都市,金博路,细颗粒物(PM2.5),65,72,74,47,45,41,,53,53,38,47,1,2,0.6,0.6
2024-12-29T2200,3359A,104.0578,30.5225,成都市,华阳,"颗粒物(PM10),细颗粒物(PM2.5)",73,95,85,53,50,49,,68,63,38,49,1,2,0.5,0.6
2024-12-29T2200,3487A,104.2394,30.5319,成都市,车城东七路,细颗粒物(PM2.5),88,102,80,65,51,46,,59,59,33,43,2,4,0.7,0.7
2024-12-29T2200,3488A,104.3853,30.7453,成都市,青白江技师分院,细颗粒物(PM2.5),77,94,74,56,55,27,,48,48,54,43,3,1,0.7,0.7
2024-12-29T2200,3489A,104.0789,30.4072,成都市,科学城,细颗粒物(PM2.5),102,108,76,76,53,19,,64,60,46,40,4,4,0.7,0.5
2024-12-29T2200,4011A,103.8506,30.6947,成都市,光华大道三段,细颗粒物(PM2.5),79,81,80,58,48,36,,61,58,38,42,2,2,0.8,0.7
2024-12-29T2200,1062A,117.9531,40.9081,承德市,铁路,细颗粒物(PM2.5),88,90,67,65,39,6,,22,12,52,43,16,10,1.6,1
2024-12-29T2200,1063A,117.9392,40.9763,承德市,中国银行,细颗粒物(PM2.5),107,116,66,80,35,4,,28,13,67,52,4,3,1.7,1
2024-12-29T2200,1064A,117.9503,40.928,承德市,开发区,细颗粒物(PM2.5),69,85,63,50,35,8,,32,15,44,40,9,8,1.5,1
2024-12-29T2200,1065A,117.8051,40.9655,承德市,文化中心,"颗粒物(PM10),细颗粒物(PM2.5)",77,104,104,56,43,4,,17,10,56,52,13,16,1.2,1.3
2024-12-29T2200,1066A,117.9268,41.0026,承德市,离宫,细颗粒物(PM2.5),103,83,54,77,37,5,,31,16,52,34,7,8,1.0,0.7
2024-12-29T2200,2314A,117.47,30.6618,池州市,池州学院,细颗粒物(PM2.5),84,98,74,62,44,6,,81,57,75,36,5,8,0.8,0.8
2024-12-29T2200,3237A,117.4918,30.6617,池州市,展览馆,细颗粒物(PM2.5),83,87,68,61,47,2,,72,44,65,38,5,7,0.7,0.9
2024-12-29T2200,3333A,117.5627,30.695,池州市,第八中学,细颗粒物(PM2.5),64,73,76,46,45,57,,74,68,31,37,5,8,0.6,0.5
2024-12-29T2200,3334A,117.5038,30.6243,池州市,第十二中学,细颗粒物(PM2.5),74,82,75,54,47,6,,80,49,68,42,4,6,0.8,0.8
2024-12-29T2200,1744A,118.9233,42.2816,赤峰市,松山一中,颗粒物(PM10),101,152,71,31,18,34,,58,52,44,36,10,18,0.9,1
2024-12-29T2200,1745A,118.9576,42.2728,赤峰市,哈达街,颗粒物(PM10),95,140,65,25,19,44,,66,60,39,32,8,16,1.0,1.1
2024-12-29T2200,1746A,118.8788,42.2554,赤峰市,天义路,颗粒物(PM10),93,136,57,21,15,56,,57,53,18,28,6,10,0.5,0.7
2024-12-29T2200,3058A,119.2658,42.0353,赤峰市,银河街,颗粒物(PM10),88,126,83,32,35,58,,53,53,17,34,14,23,0.6,1.1
2024-12-29T2200,3286A,118.9359,42.3147,赤峰市,桥北物流园区,颗粒物(PM10),92,133,59,46,32,18,,56,49,58,33,16,28,0.9,0.8
2024-12-29T2200,2521A,107.3476,22.4136,崇左市,市环保局江州分局,颗粒物(PM10),86,121,93,57,57,31,,105,85,64,26,5,8,1.2,0.8
2024-12-29T2200,2522A,107.3702,22.3707,崇左市,城南新区,,,84,78,68,59,,,137,130,38,25,11,11,0.8,0.8
2024-12-29T2200,2298A,118.3093,32.3153,滁州市,老年大学,"颗粒物(PM10),细颗粒物(PM2.5)",64,78,75,46,44,56,,79,62,47,44,8,6,0.7,0.6
2024-12-29T2200,2299A,118.3244,32.2786,滁州市,人大宾馆,细颗粒物(PM2.5),74,88,76,54,48,28,,80,62,64,35,9,10,0.8,0.6
2024-12-29T2200,3207A,118.3118,32.3038,滁州市,市政府原办公楼,细颗粒物(PM2.5),68,75,70,49,45,56,,79,62,47,45,7,7,0.9,0.9
2024-12-29T2200,3331A,118.3267,32.2634,滁州市,图书馆,颗粒物(PM10),66,81,78,38,40,58,,80,70,41,36,7,9,0.6,1
2024-12-29T2200,2605A,101.5482,25.0441,楚雄彝族自治州,州环境监测站,,23,14,23,9,19,73,,71,71,7,8,6,5,0.3,0.5
2024-12-29T2200,2606A,101.538,25.0492,楚雄彝族自治州,市经济开发区,,22,19,29,11,23,69,,69,69,10,12,6,9,0.7,0.6
2024-12-29T2200,2548A,107.5277,31.2827,达州市,达州职业技术学院,细颗粒物(PM2.5),201,173,128,151,113,9,,21,16,32,37,9,9,1.1,0.9
2024-12-29T2200,2549A,107.5086,31.2186,达州市,市环境监测站,细颗粒物(PM2.5),163,170,120,124,89,7,,18,12,57,55,9,11,1.6,1.2
2024-12-29T2200,2550A,107.4988,31.2132,达州市,凤凰小区,细颗粒物(PM2.5),175,190,121,132,90,7,,21,12,64,53,13,13,1.5,1
2024-12-29T2200,2551A,107.5082,31.1986,达州市,达县机关宾馆,细颗粒物(PM2.5),182,205,116,137,81,7,,21,13,74,56,14,11,1.7,1.2
2024-12-29T2200,2552A,107.4644,31.2124,达州市,市政中心,细颗粒物(PM2.5),221,223,123,171,88,7,,16,11,75,62,15,12,1.9,1.2
2024-12-29T2200,2614A,100.1542,25.7054,大理白族自治州,大理市环境监测站,,26,,15,18,18,73,,80,79,6,7,7,7,0.6,0.6
2024-12-29T2200,2615A,100.2171,25.5811,大理白族自治州,大理古城,,23,16,24,16,13,60,,85,79,13,10,5,5,0.5,0.7
2024-12-29T2200,1109A,121.612,38.9741,大连市,甘井子,颗粒物(PM10),54,58,41,35,24,57,,58,56,35,36,11,13,0.7,0.8
2024-12-29T2200,1110A,121.565,38.9511,大连市,周水子,细颗粒物(PM2.5),58,55,47,41,31,52,,56,54,33,38,12,10,0.9,0.8
2024-12-29T2200,1111A,121.5637,38.8845,大连市,星海三站,颗粒物(PM10),52,53,38,34,22,59,,60,60,26,28,13,13,0.9,1
2024-12-29T2200,1112A,121.6302,38.9117,大连市,青泥洼桥,,43,,37,30,20,56,,62,62,20,20,14,12,0.6,0.6
2024-12-29T2200,1113A,121.6251,38.8638,大连市,傅家庄,颗粒物(PM10),53,55,40,29,20,59,,68,68,20,15,13,13,0.6,0.7
2024-12-29T2200,1114A,121.5213,38.8661,大连市,七贤岭,颗粒物(PM10),53,56,40,31,21,61,,66,66,25,24,13,12,0.7,0.7
2024-12-29T2200,1115A,121.2529,38.8061,大连市,旅顺,颗粒物(PM10),52,53,39,34,22,61,,68,68,26,21,14,12,0.7,0.7
2024-12-29T2200,1116A,121.7485,39.1311,大连市,金州,颗粒物(PM10),61,72,50,43,26,49,,56,52,32,22,12,9,0.9,0.8
2024-12-29T2200,1117A,121.7811,39.0496,大连市,开发区,颗粒物(PM10),52,54,52,31,29,48,,59,58,36,44,13,14,0.6,0.8
2024-12-29T2200,1118A,121.9762,39.0631,大连市,双D港,,47,47,41,27,19,70,,73,73,20,19,10,10,0.7,0.7
2024-12-29T2200,1789A,124.81117,46.03138,大庆市,大同区,颗粒物(PM10),75,99,78,49,51,24,,40,28,33,31,13,11,1.1,0.9
2024-12-29T2200,1790A,125.129,46.533,大庆市,龙凤区,细颗粒物(PM2.5),94,108,72,70,49,25,,50,34,44,37,10,11,1.0,0.7
2024-12-29T2200,1791A,124.902,46.408,大庆市,红岗区,细颗粒物(PM2.5),122,120,52,92,38,23,,41,32,34,29,14,7,1.0,0.6
2024-12-29T2200,1792A,125.153,46.586,大庆市,萨尔图区,细颗粒物(PM2.5),122,120,68,92,48,26,,49,35,46,36,8,8,0.9,0.6
2024-12-29T2200,1793A,124.9042,46.6215,大庆市,让胡路区,细颗粒物(PM2.5),128,124,56,97,46,20,,46,39,58,33,9,7,1.0,0.6
2024-12-29T2200,3481A,125.141,46.634,大庆市,萨区政府监测点,细颗粒物(PM2.5),107,120,59,80,39,30,,49,38,35,30,6,8,0.9,0.6
2024-12-29T2200,1721A,113.3819,40.1097,大同市,果树场,颗粒物(PM10),111,172,144,43,36,30,,67,45,51,45,13,11,0.5,0.8
2024-12-29T2200,1723A,113.2994,40.0758,大同市,云冈宾馆,颗粒物(PM10),136,221,153,31,35,42,,71,51,31,36,12,13,0.6,1
2024-12-29T2200,1724A,113.3444,40.0917,大同市,大同大学,颗粒物(PM10),118,185,133,37,29,34,,51,44,,33,14,16,0.7,0.8
2024-12-29T2200,1725A,113.2661,40.1269,大同市,安家小村,颗粒物(PM10),135,219,144,35,25,34,,70,50,33,25,18,20,0.6,0.6
2024-12-29T2200,1726A,113.2711,40.0844,大同市,教育学院,颗粒物(PM10),134,218,160,40,31,30,,65,46,44,43,12,11,0.6,0.9
2024-12-29T2200,3282A,113.3397,40.0597,大同市,大同市卫生学校,颗粒物(PM10),130,210,146,32,32,38,,65,48,34,41,8,12,0.5,0.8
2024-12-29T2200,3565A,113.1367,40.1122,大同市,云冈站,颗粒物(PM10),114,177,127,42,29,30,,72,50,35,24,16,16,0.5,0.5
2024-12-29T2200,3566A,113.1186,40.2556,大同市,图书馆,颗粒物(PM10),130,210,114,43,27,37,,70,54,18,19,10,15,0.5,0.5
2024-12-29T2200,3567A,113.5931,40.0461,大同市,区一中,颗粒物(PM10),128,205,138,,16,18,,63,41,57,48,37,27,0.6,0.8
2024-12-29T2200,3676A,113.2802,40.0995,大同市,第二人民医院,颗粒物(PM10),138,225,164,42,36,34,,70,49,39,41,15,17,0.8,1.1
2024-12-29T2200,2269A,124.1069,50.4097,大兴安岭地区,科技局,,31,31,27,21,21,43,,56,43,9,10,6,6,0.5,0.5
2024-12-29T2200,3663A,124.1164,50.4278,大兴安岭地区,红旗社区,细颗粒物(PM2.5),75,61,31,55,22,5,,40,19,45,26,15,7,1.0,0.6
2024-12-29T2200,1600A,124.3303,40.0625,丹东市,江湾东路,颗粒物(PM10),57,64,77,33,48,52,,66,62,12,23,19,26,0.7,1.4
2024-12-29T2200,1601A,124.4256,40.1503,丹东市,临江后街,细颗粒物(PM2.5),69,74,78,50,60,38,,68,62,31,28,11,19,1.1,1.2
2024-12-29T2200,1602A,124.3933,40.1461,丹东市,元宝山,颗粒物(PM10),57,64,81,38,55,44,,59,55,19,27,12,18,0.9,1.4
2024-12-29T2200,1603A,124.3633,40.1092,丹东市,民主桥,颗粒物(PM10),67,84,81,44,49,14,,61,53,48,34,11,16,1.4,1.3
2024-12-29T2200,3541A,109.5726,19.5167,儋州市,第一中学子站,颗粒物(PM10),55,60,60,36,39,103,,113,109,12,14,5,7,0.8,0.7
2024-12-29T2200,3542A,109.5567,19.5187,儋州市,东坡学校子站,颗粒物(PM10),55,60,59,35,42,110,,124,119,11,12,6,7,0.8,0.8
2024-12-29T2200,2616A,98.5842,24.428,德宏傣族景颇族自治州,德宏州监测站,"颗粒物(PM10),细颗粒物(PM2.5)",77,103,55,56,34,15,,77,63,49,26,6,9,1.1,0.6
2024-12-29T2200,3677A,98.5881,24.4368,德宏傣族景颇族自治州,芒市人民政府综合楼,,49,49,45,24,27,44,,75,69,12,15,7,9,0.5,0.5
2024-12-29T2200,1901A,104.4239,31.1208,德阳市,东山公园,细颗粒物(PM2.5),90,109,86,67,59,5,,46,39,76,41,4,3,0.9,0.7
2024-12-29T2200,1902A,104.3826,31.1317,德阳市,西小区,细颗粒物(PM2.5),113,131,101,85,66,7,,40,33,68,57,3,3,1.0,0.9
2024-12-29T2200,1904A,104.3553,31.1091,德阳市,耐火材料厂,细颗粒物(PM2.5),109,112,98,82,67,11,,42,35,57,53,4,6,0.8,0.7
2024-12-29T2200,3639A,104.4019,31.1244,德阳市,市教育局,细颗粒物(PM2.5),114,110,84,86,63,4,,44,38,80,56,5,4,1.2,0.9
2024-12-29T2200,1622A,116.3032,37.4674,德州市,儿童乐园,颗粒物(PM10),93,136,140,61,50,46,,62,58,37,42,10,12,0.8,0.9
2024-12-29T2200,1624A,116.2991,37.4451,德州市,监理站,颗粒物(PM10),90,129,128,66,50,49,,63,59,39,45,16,18,0.9,1
2024-12-29T2200,3066A,116.2721,37.4379,德州市,九衢泉纯净水厂,细颗粒物(PM2.5),100,129,134,75,55,44,,60,56,40,48,14,15,0.6,0.7
2024-12-29T2200,3371A,116.3728,37.4403,德州市,开发区人民医院,颗粒物(PM10),96,141,144,66,51,44,,65,59,40,42,12,14,0.8,0.7
2024-12-29T2200,3372A,116.3572,37.4094,德州市,太阳城中学,细颗粒物(PM2.5),107,149,149,80,61,34,,63,54,56,52,13,15,0.7,0.9
2024-12-29T2200,3511A,116.5652,37.3319,德州市,陵城艺术中心,颗粒物(PM10),100,149,130,68,46,47,,62,55,38,37,15,14,0.8,0.8
2024-12-29T2200,2621A,99.7056,27.8317,迪庆藏族自治州,迪庆州站,,24,16,34,16,24,75,,98,90,17,16,7,8,0.6,0.7
2024-12-29T2200,3180A,99.7136,27.8094,迪庆藏族自治州,质量技术监督局,,36,,29,25,15,77,,90,86,7,14,7,8,0.5,0.6
2024-12-29T2200,2663A,104.6241,35.5734,定西市,东关小学,颗粒物(PM10),70,89,66,33,42,9,,66,51,61,30,35,21,1.5,1.1
2024-12-29T2200,2664A,104.6194,35.5934,定西市,供电公司,颗粒物(PM10),54,57,60,21,28,14,,78,61,63,35,16,14,1.1,1.3
2024-12-29T2200,1389A,113.7547,23.0494,东莞市,莞城梨川,细颗粒物(PM2.5),102,129,85,76,53,51,,140,120,89,36,8,9,1.2,0.9
2024-12-29T2200,1390A,113.7944,23.0128,东莞市,东城石井,细颗粒物(PM2.5),79,98,78,58,50,61,,127,117,50,29,6,9,0.8,0.9
2024-12-29T2200,1391A,113.7383,22.9658,东莞市,南城西平,细颗粒物(PM2.5),105,143,92,79,58,13,,142,105,135,52,7,9,1.0,0.7
2024-12-29T2200,3319A,113.7338,23.0381,东莞市,万江金泰,细颗粒物(PM2.5),105,134,80,79,51,29,,136,112,100,33,9,10,1.2,0.7
2024-12-29T2200,3626A,113.7533,23.0202,东莞市,南城元岭,细颗粒物(PM2.5),97,125,85,72,55,33,,144,113,106,35,9,10,1.2,0.8
2024-12-29T2200,3627A,113.7875,23.0457,东莞市,东城主山,细颗粒物(PM2.5),98,124,81,73,52,35,,130,109,101,37,29,13,1.1,0.8
2024-12-29T2200,1666A,118.6614,37.4309,东营市,市环保局,细颗粒物(PM2.5),85,117,99,63,47,9,,59,43,86,55,21,23,0.9,0.9
2024-12-29T2200,3036A,118.6904,37.4338,东营市,开发区管委会,颗粒物(PM10),87,124,108,58,48,9,,54,39,97,67,19,22,0.9,0.9
2024-12-29T2200,3365A,118.5719,37.565,东营市,垦利区民丰路,细颗粒物(PM2.5),113,166,110,85,52,0,,53,33,88,58,26,21,1.1,1
2024-12-29T2200,3498A,118.5055,37.8612,东营市,河口城区,颗粒物(PM10),91,132,115,63,45,32,,72,60,53,53,15,15,0.4,0.6
2024-12-29T2200,3646A,118.4978,37.4623,东营市,胜利站,细颗粒物(PM2.5),110,148,117,83,62,14,,49,34,95,70,22,77,1.1,1
2024-12-29T2200,3734A,118.35,37.26,东营市,理想之城,细颗粒物(PM2.5),128,161,116,97,57,8,,53,35,88,60,23,23,0.9,1.4
2024-12-29T2200,1591A,110.0023,39.8129,鄂尔多斯市,综合楼,颗粒物(PM10),191,332,244,46,32,82,,82,81,10,17,4,8,0.4,0.5
2024-12-29T2200,1592A,109.9486,39.8261,鄂尔多斯市,巴音孟克林场办事处,颗粒物(PM10),170,290,223,46,33,80,,81,80,7,12,6,9,0.4,0.5
2024-12-29T2200,1593A,109.7736,39.5986,鄂尔多斯市,康泽苑,颗粒物(PM10),133,215,168,41,30,72,,76,75,7,16,5,8,0.4,0.4
2024-12-29T2200,1594A,109.8119,39.5989,鄂尔多斯市,华泰汽车城,颗粒物(PM10),134,217,165,51,31,79,,84,79,6,16,5,8,0.4,0.5
2024-12-29T2200,1595A,109.9734,39.7884,鄂尔多斯市,奥林花园,颗粒物(PM10),173,295,233,36,30,70,,75,74,17,26,14,12,0.5,0.6
2024-12-29T2200,2436A,114.8938,30.3994,鄂州市,市政府,细颗粒物(PM2.5),97,108,80,72,50,42,,79,72,60,49,13,12,1.7,1.3
2024-12-29T2200,2437A,114.8989,30.3714,鄂州市,赵家坝,细颗粒物(PM2.5),93,90,70,69,43,50,,79,73,54,43,14,10,1.1,0.9
2024-12-29T2200,3654A,114.8094,30.4089,鄂州市,精准医疗中心,细颗粒物(PM2.5),90,100,81,67,55,61,,76,72,42,44,22,19,0.8,1.2
2024-12-29T2200,2454A,109.4978,30.2981,恩施土家族苗族自治州,湖北民院,细颗粒物(PM2.5),199,,78,149,126,30,,35,34,18,12,7,7,1.0,0.9
2024-12-29T2200,2455A,109.4707,30.2798,恩施土家族苗族自治州,州电力总公司,细颗粒物(PM2.5),156,130,116,119,106,11,,30,27,48,32,7,7,1.4,1.2
2024-12-29T2200,3549A,109.5061,30.3772,恩施土家族苗族自治州,龙凤新区,细颗粒物(PM2.5),170,146,101,129,89,12,,22,17,40,26,6,6,1.4,1
2024-12-29T2200,2499A,108.3411,21.6158,防城港市,沙万,细颗粒物(PM2.5),109,113,93,82,72,63,,125,99,68,41,35,16,1.3,1.1
2024-12-29T2200,2500A,108.3514,21.7731,防城港市,防城档案局,颗粒物(PM10),100,150,123,74,71,53,,144,118,58,44,8,10,1.4,0.8
2024-12-29T2200,2501A,108.3506,21.6414,防城港市,大海花园,细颗粒物(PM2.5),94,103,89,70,67,116,,143,135,34,28,28,13,1.2,1.2
2024-12-29T2200,1371A,113.1294,23.0067,佛山市,湾梁,颗粒物(PM10),90,129,88,52,46,24,,106,79,127,54,8,9,1.2,0.9
2024-12-29T2200,1372A,113.1083,23.0478,佛山市,华材职中,颗粒物(PM10),111,171,91,75,58,10,,114,90,137,52,8,9,1.3,0.9
2024-12-29T2200,1373A,113.144,23.0453,佛山市,南海气象局,细颗粒物(PM2.5),90,114,72,67,55,18,,105,76,133,55,9,9,1.1,0.7
2024-12-29T2200,1374A,113.2881,22.8094,佛山市,顺德苏岗,细颗粒物(PM2.5),110,116,76,83,57,69,,137,126,54,40,8,10,1.1,0.8
2024-12-29T2200,1376A,112.8383,22.8678,佛山市,高明孔堂,细颗粒物(PM2.5),74,91,90,54,59,79,,120,115,27,25,7,11,0.8,0.8
2024-12-29T2200,1377A,112.8836,23.1588,佛山市,三水监测站,细颗粒物(PM2.5),109,122,102,82,68,53,,117,97,85,48,10,13,1.1,0.9
2024-12-29T2200,1378A,112.867,23.185,佛山市,三水云东海,细颗粒物(PM2.5),82,76,80,60,62,95,,120,114,44,46,10,13,0.7,0.8
2024-12-29T2200,3625A,113.2544,22.7642,佛山市,容桂街道办,细颗粒物(PM2.5),119,141,92,90,59,97,,148,144,64,40,9,9,1.0,0.7
2024-12-29T2200,1282A,119.2681,26.0504,福州市,师大,,41,41,44,24,29,88,,84,82,22,26,5,5,0.5,0.5
2024-12-29T2200,1283A,119.2984,26.1028,福州市,五四北路,,40,40,40,23,26,82,,89,88,24,22,3,3,0.6,0.5
2024-12-29T2200,1284A,119.2648,26.0768,福州市,杨桥西路,,49,49,50,26,28,84,,85,84,22,21,3,3,0.7,0.6
2024-12-29T2200,1285A,119.317,26.0746,福州市,紫阳,,44,44,45,25,26,77,,81,80,24,24,5,5,0.6,0.5
2024-12-29T2200,3048A,119.5799,26.0936,福州市,九龙,,24,23,35,11,21,75,,89,84,18,18,5,3,0.9,0.5
2024-12-29T2200,3526A,119.5189,25.9664,福州市,吴航,,27,26,42,12,23,85,,93,91,18,20,4,4,0.5,0.4
2024-12-29T2200,1755A,123.7977,41.8491,抚顺市,望花区,颗粒物(PM10),56,62,111,33,48,51,,59,57,21,35,12,8,0.7,0.9
2024-12-29T2200,1756A,123.9161,41.8822,抚顺市,顺城区,颗粒物(PM10),52,54,80,25,37,57,,57,57,22,36,10,9,0.6,1
2024-12-29T2200,1757A,124.0436,41.8611,抚顺市,东洲区,颗粒物(PM10),52,54,57,29,32,61,,69,68,17,24,8,7,0.9,0.8
2024-12-29T2200,1758A,123.9247,41.8642,抚顺市,新抚区,颗粒物(PM10),52,54,79,29,44,57,,56,54,19,30,10,7,0.5,0.8
2024-12-29T2200,1759A,124.0972,41.8961,抚顺市,大伙房水库,,49,49,50,29,29,63,,70,70,12,23,11,10,0.6,0.6
2024-12-29T2200,1760A,123.7086,41.8391,抚顺市,沈抚新城,颗粒物(PM10),57,64,107,30,45,57,,58,57,20,37,11,13,0.8,1.4
2024-12-29T2200,2376A,116.2127,28.0814,抚州市,桐源党溪,细颗粒物(PM2.5),87,85,81,64,46,39,,95,75,9,16,2,7,0.4,0.5
2024-12-29T2200,2377A,116.3544,27.9831,抚州市,市站,细颗粒物(PM2.5),105,124,89,79,54,44,,93,77,55,35,11,12,1.6,1.7
2024-12-29T2200,2378A,116.3565,27.963,抚州市,血防站,细颗粒物(PM2.5),99,125,88,74,52,50,,99,87,49,33,8,15,1.1,0.9
2024-12-29T2200,2379A,116.3564,28.0007,抚州市,采茶剧团,细颗粒物(PM2.5),107,112,84,80,54,50,,88,73,42,32,3,6,1.4,1.3
2024-12-29T2200,2380A,116.385,27.9647,抚州市,医学分院,细颗粒物(PM2.5),95,122,85,71,46,19,,86,73,64,33,11,10,1.4,1
2024-12-29T2200,2207A,121.6094,41.998,阜新市,工业园区,,,,118,167,66,9,,36,21,56,43,43,25,2.7,1.3
2024-12-29T2200,2208A,121.6697,42.0279,阜新市,长青街,细颗粒物(PM2.5),132,152,96,100,52,6,,32,18,64,46,25,26,2.0,1.8
2024-12-29T2200,2209A,121.6673,42.0705,阜新市,农业园区,颗粒物(PM10),86,121,74,63,39,9,,42,23,64,29,34,28,1.6,1.2
2024-12-29T2200,2210A,121.6717,42.0224,阜新市,东苑,细颗粒物(PM2.5),124,119,101,94,54,24,,42,32,47,38,27,30,1.6,1.8
2024-12-29T2200,2211A,121.6506,42.0498,阜新市,玉龙新城,细颗粒物(PM2.5),138,169,103,105,52,17,,38,27,55,45,19,16,2.0,1.3
2024-12-29T2200,2301A,115.8277,32.8929,阜阳市,市监测站,细颗粒物(PM2.5),90,77,66,67,48,49,,78,63,35,28,7,7,0.5,0.4
2024-12-29T2200,2303A,115.8554,32.8605,阜阳市,开发区,"颗粒物(PM10),细颗粒物(PM2.5)",74,97,87,54,43,62,,86,79,31,26,9,8,0.4,0.5
2024-12-29T2200,2875A,115.784,32.8892,阜阳市,阜阳职业技术学院,细颗粒物(PM2.5),72,67,59,52,37,67,,86,80,29,21,10,8,0.6,0.5
2024-12-29T2200,3468A,115.7901,32.8613,阜阳市,市规划展馆,细颗粒物(PM2.5),75,90,67,55,42,67,,90,79,25,21,7,6,0.6,0.5
2024-12-29T2200,3469A,115.836,32.9183,阜阳市,枣园社区,细颗粒物(PM2.5),102,94,69,76,45,7,,89,63,89,40,6,5,0.5,0.4
2024-12-29T2200,2669A,102.9099,34.9841,甘南藏族自治州,州政府,,46,46,57,19,23,55,,78,69,23,23,12,13,0.7,0.9
2024-12-29T2200,3380A,102.8914,34.9617,甘南藏族自治州,甘肃民族师范学院,颗粒物(PM10),66,82,65,34,20,70,,85,81,22,29,8,8,0.5,0.7
2024-12-29T2200,2570A,101.9603,30.0475,甘孜藏族自治州,水桥子,,19,19,24,9,14,50,,63,62,15,30,2,2,0.6,0.5
2024-12-29T2200,3065A,101.9533,29.9972,甘孜藏族自治州,州环保局,,20,20,24,11,7,57,,68,68,12,24,4,4,0.5,0.4
2024-12-29T2200,3414A,115.8347,28.932,赣江新区,桑海产业园,细颗粒物(PM2.5),84,110,90,62,49,2,,82,66,98,53,12,12,0.9,0.8
2024-12-29T2200,2362A,114.9017,25.9149,赣州市,通天岩,细颗粒物(PM2.5),75,63,60,55,50,64,,93,81,7,10,1,3,0.5,0.6
2024-12-29T2200,2363A,114.9367,25.8664,赣州市,地委,颗粒物(PM10),75,100,78,50,46,33,,101,74,57,32,13,8,1.3,1.1
2024-12-29T2200,2364A,114.9461,25.8481,赣州市,气象台,颗粒物(PM10),88,125,88,48,40,33,,108,65,79,51,14,14,1.0,0.9
2024-12-29T2200,2365A,114.9322,25.8333,赣州市,市图书馆,细颗粒物(PM2.5),90,117,77,67,49,7,,101,72,90,42,6,4,1.4,1
2024-12-29T2200,2366A,114.8905,25.8471,赣州市,华坚鞋城,颗粒物(PM10),90,129,77,57,41,14,,92,47,74,32,6,7,0.7,0.6
2024-12-29T2200,3109A,115.0093,25.8613,赣州市,赣县区卫计委,细颗粒物(PM2.5),78,84,78,57,56,11,,88,58,77,36,4,4,0.5,0.4
2024-12-29T2200,2683A,106.2319,36.1417,固原市,马园,颗粒物(PM10),72,93,88,43,42,9,,57,38,57,43,19,12,0.8,0.8
2024-12-29T2200,2684A,106.2792,36.0022,固原市,监测站,细颗粒物(PM2.5),105,109,57,79,34,24,,76,56,59,32,23,11,2.0,1
2024-12-29T2200,2685A,106.2375,36.0211,固原市,新区,,22,20,57,8,30,70,,71,58,14,34,6,8,0.4,0.8
2024-12-29T2200,3522A,106.2177,35.9959,固原市,原州区十五小,,25,23,53,10,30,77,,69,64,11,28,6,8,0.2,0.7
2024-12-29T2200,2544A,106.6303,30.4576,广安市,市委,细颗粒物(PM2.5),240,215,129,190,112,17,,32,25,37,31,2,2,1.2,1
2024-12-29T2200,2545A,106.6271,30.4663,广安市,友谊中学,细颗粒物(PM2.5),216,190,132,166,114,15,,24,,61,39,3,3,1.0,0.9
2024-12-29T2200,2547A,106.6388,30.4551,广安市,广电花园,细颗粒物(PM2.5),238,202,120,188,108,15,,29,19,38,31,3,3,0.9,0.7
2024-12-29T2200,2902A,106.6351,30.4865,广安市,北辰小学,细颗粒物(PM2.5),211,190,129,161,110,17,,30,25,41,30,7,7,1.3,1.1
2024-12-29T2200,2523A,105.8945,32.4535,广元市,黑石坡,细颗粒物(PM2.5),69,72,42,50,36,34,,66,63,23,9,13,13,0.6,0.6
2024-12-29T2200,2524A,105.821,32.4444,广元市,老城,颗粒物(PM10),74,97,70,45,36,3,,36,31,71,56,3,2,0.9,0.9
2024-12-29T2200,2526A,105.8628,32.4287,广元市,监测站,细颗粒物(PM2.5),62,50,59,44,42,32,,52,50,37,43,1,4,0.8,1
2024-12-29T2200,3617A,105.8047,32.4166,广元市,经开区,细颗粒物(PM2.5),103,126,80,77,50,6,,35,32,69,50,6,6,1.4,1
2024-12-29T2200,1345A,113.2347,23.1423,广州市,广雅中学,细颗粒物(PM2.5),102,130,92,76,58,16,,106,77,128,54,9,11,1.0,0.7
2024-12-29T2200,1346A,113.2612,23.105,广州市,市五中,,,132,89,,78,5,,115,85,117,35,4,6,1.4,0.9
2024-12-29T2200,1348A,113.3478,23.0916,广州市,广东商学院,细颗粒物(PM2.5),118,156,88,89,58,4,,114,82,136,46,5,7,1.1,0.6
2024-12-29T2200,1349A,113.4332,23.1047,广州市,市八十六中,细颗粒物(PM2.5),113,169,101,85,55,4,,107,73,140,58,6,8,1.0,0.7
2024-12-29T2200,1350A,113.3505,22.9483,广州市,番禺中学,细颗粒物(PM2.5),122,160,94,92,60,,,136,131,,47,6,7,1.4,0.8
2024-12-29T2200,1351A,113.2146,23.3916,广州市,花都师范,细颗粒物(PM2.5),87,112,87,64,56,54,,116,94,70,34,7,9,0.9,0.7
2024-12-29T2200,1352A,113.2597,23.1331,广州市,市监测站,细颗粒物(PM2.5),90,118,89,67,55,13,,111,86,115,45,6,8,1.1,0.7
2024-12-29T2200,1353A,113.5618,23.312,广州市,九龙镇镇龙,细颗粒物(PM2.5),93,125,82,69,53,22,,105,69,75,42,6,7,0.9,0.7
2024-12-29T2200,1354A,113.2765,23.1544,广州市,麓湖,细颗粒物(PM2.5),89,98,79,66,58,12,,115,74,102,47,4,6,0.9,0.7
2024-12-29T2200,1355A,113.443,23.3035,广州市,帽峰山森林公园,颗粒物(PM10),62,73,61,28,29,106,,121,117,27,21,8,8,0.5,0.5
2024-12-29T2200,2846A,113.3221,23.1322,广州市,体育西,细颗粒物(PM2.5),103,132,90,77,56,28,,105,80,94,35,6,7,1.1,0.8
2024-12-29T2200,3298A,113.5717,23.5491,广州市,从化街口,细颗粒物(PM2.5),88,99,70,65,47,5,,123,83,90,30,6,7,1.1,0.7
2024-12-29T2200,3299A,113.3472,23.3692,广州市,白云竹料,细颗粒物(PM2.5),118,156,88,89,56,6,,123,91,102,34,7,9,1.2,0.7
2024-12-29T2200,3300A,113.2981,23.237,广州市,白云嘉禾,颗粒物(PM10),86,121,93,63,54,16,,104,71,106,61,7,9,1.1,0.8
2024-12-29T2200,3301A,113.4256,23.1716,广州市,黄埔科学城,细颗粒物(PM2.5),79,100,79,58,52,30,,114,84,68,34,7,9,1.1,1
2024-12-29T2200,3302A,113.3942,23.0483,广州市,番禺大学城,细颗粒物(PM2.5),99,118,82,74,54,19,,132,116,151,50,12,10,1.0,0.7
2024-12-29T2200,3303A,113.4922,22.8168,广州市,南沙黄阁,细颗粒物(PM2.5),107,137,98,80,61,48,,140,123,97,47,11,11,1.0,0.7
2024-12-29T2200,3304A,113.5342,22.7896,广州市,南沙街,细颗粒物(PM2.5),98,135,94,73,60,65,,152,137,80,44,8,8,0.8,0.6
2024-12-29T2200,3443A,113.2902,23.5544,广州市,花都梯面,,,,68,40,46,28,,122,80,55,27,8,11,0.8,0.7
2024-12-29T2200,3445A,113.7858,23.7478,广州市,从化良口,,45,45,53,30,37,71,,114,101,27,18,6,7,0.7,0.6
2024-12-29T2200,3446A,113.8051,23.2614,广州市,增城荔城,细颗粒物(PM2.5),74,88,68,54,47,66,,126,103,41,22,5,6,0.9,0.7
2024-12-29T2200,2506A,109.6047,23.0666,贵港市,江南子站,细颗粒物(PM2.5),133,195,128,101,77,90,,141,133,49,35,26,14,1.9,1.1
2024-12-29T2200,2507A,109.6014,23.0948,贵港市,贵城子站,细颗粒物(PM2.5),128,148,105,97,81,87,,131,118,43,35,17,14,1.1,1.1
2024-12-29T2200,2508A,109.5669,23.1065,贵港市,荷城子站,细颗粒物(PM2.5),132,149,110,100,76,89,,129,116,43,32,23,18,1.0,0.9
2024-12-29T2200,3405A,109.5886,23.1172,贵港市,新世纪学校,细颗粒物(PM2.5),133,156,118,101,80,84,,137,120,51,34,22,15,1.0,0.9
2024-12-29T2200,1439A,106.6899,26.5998,贵阳市,马鞍山,颗粒物(PM10),57,63,55,39,34,44,,76,62,26,23,8,9,0.7,0.7
2024-12-29T2200,1440A,106.6971,26.5694,贵阳市,市环保站,细颗粒物(PM2.5),79,92,71,58,48,48,,71,60,38,39,21,16,0.7,0.6
2024-12-29T2200,1441A,106.6243,26.6266,贵阳市,鉴湖路,细颗粒物(PM2.5),67,75,60,48,39,45,,80,65,34,24,8,8,0.8,0.6
2024-12-29T2200,1442A,106.7487,26.6343,贵阳市,燕子冲,细颗粒物(PM2.5),62,66,55,44,48,58,,79,69,28,23,10,14,0.7,0.7
2024-12-29T2200,1443A,106.6555,26.4365,贵阳市,碧云窝,细颗粒物(PM2.5),77,100,66,56,39,35,,88,68,54,26,44,22,0.9,0.7
2024-12-29T2200,1444A,106.694,26.5161,贵阳市,中院村,细颗粒物(PM2.5),79,85,89,58,52,40,,57,45,55,49,36,21,1.1,0.8
2024-12-29T2200,1445A,106.7109,26.6027,贵阳市,红边门,细颗粒物(PM2.5),79,78,67,58,52,50,,74,60,35,34,25,22,1.1,1
2024-12-29T2200,1446A,106.7164,26.5699,贵阳市,新华路,细颗粒物(PM2.5),70,78,66,51,43,49,,80,67,36,28,20,15,0.8,0.7
2024-12-29T2200,1447A,106.674,26.5424,贵阳市,太慈桥,细颗粒物(PM2.5),62,66,58,44,39,45,,83,64,35,29,10,13,0.7,0.6
2024-12-29T2200,1862A,110.4144,25.3167,桂林市,电子科大尧山校区,细颗粒物(PM2.5),77,72,72,56,55,79,,109,101,20,16,12,17,0.7,0.7
2024-12-29T2200,1863A,110.2819,25.2697,桂林市,监测站,细颗粒物(PM2.5),107,100,87,80,70,65,,109,96,49,32,13,13,1.1,1
2024-12-29T2200,1864A,110.3089,25.2708,桂林市,龙隐路小学,细颗粒物(PM2.5),104,108,86,78,72,74,,116,107,44,29,23,19,0.8,0.7
2024-12-29T2200,1865A,110.2869,25.2178,桂林市,八中,细颗粒物(PM2.5),109,110,84,82,69,55,,109,94,51,28,18,16,1.1,0.9
2024-12-29T2200,3403A,110.1764,25.2381,桂林市,创业大厦,细颗粒物(PM2.5),119,122,107,90,76,49,,111,100,66,36,18,20,0.9,0.7
2024-12-29T2200,3531A,110.296,25.1253,桂林市,旅游学院,细颗粒物(PM2.5),147,146,95,112,74,62,,117,104,52,32,16,15,1.2,0.9
2024-12-29T2200,2674A,100.2561,34.4714,果洛藏族自治州,玛沁县大武镇,,37,37,37,13,16,83,,83,83,1,9,9,12,0.4,0.6
2024-12-29T2200,1129A,126.5422,45.755,哈尔滨市,岭北,细颗粒物(PM2.5),58,46,53,41,44,37,,46,40,37,36,14,12,0.6,0.8
2024-12-29T2200,1130A,126.561,45.8167,哈尔滨市,松北商大,细颗粒物(PM2.5),85,79,57,63,41,12,,39,25,60,39,8,6,1.0,0.7
2024-12-29T2200,1131A,126.979,45.5419,哈尔滨市,阿城会宁,,19,18,51,12,41,58,,58,56,11,21,7,9,0.5,0.8
2024-12-29T2200,1132A,126.599,45.7222,哈尔滨市,南岗学府路,,43,43,76,21,53,26,,36,32,42,41,23,12,0.3,0.6
2024-12-29T2200,1133A,126.689,45.7733,哈尔滨市,太平宏伟公园,细颗粒物(PM2.5),73,73,66,53,46,11,,36,24,50,38,15,12,0.9,0.8
2024-12-29T2200,1134A,126.635,45.7667,哈尔滨市,道外承德广场,,49,46,65,34,39,41,,39,38,25,37,11,12,0.4,0.6
2024-12-29T2200,1135A,126.685,45.7319,哈尔滨市,香坊红旗大街,细颗粒物(PM2.5),67,56,63,48,55,26,,40,34,38,38,12,11,0.8,0.8
2024-12-29T2200,1136A,126.6411,45.7258,哈尔滨市,动力和平路,,43,35,61,30,47,29,,38,36,30,35,16,13,0.7,1
2024-12-29T2200,1137A,126.593,45.7478,哈尔滨市,道里建国路,,37,37,62,21,48,30,,27,24,34,44,24,20,1.6,1.2
2024-12-29T2200,1138A,126.615,45.61,哈尔滨市,平房东轻厂,,33,,52,23,41,56,,51,51,8,28,7,10,0.3,0.5
2024-12-29T2200,1139A,126.595,45.9855,哈尔滨市,呼兰师专,细颗粒物(PM2.5),89,87,68,66,58,20,,33,26,48,44,7,9,1.0,0.9
2024-12-29T2200,1140A,126.6206,45.6842,哈尔滨市,省农科院,颗粒物(PM10),52,53,84,35,70,26,,35,23,40,48,8,8,0.7,0.9
2024-12-29T2200,2688A,93.5128,42.8172,哈密市,地区监测站,颗粒物(PM10),62,73,91,31,29,48,,52,49,25,22,6,6,0.5,0.4
2024-12-29T2200,2689A,93.4961,42.8328,哈密市,哈密师范学校,颗粒物(PM10),60,69,84,29,32,41,,46,43,31,33,5,6,0.7,0.6
2024-12-29T2200,2671A,100.9048,36.9639,海北藏族自治州,海晏县西海镇,颗粒物(PM10),56,61,35,39,21,33,,72,65,43,17,19,19,1.1,0.7
2024-12-29T2200,3867A,102.0738,36.5056,海东市,平安区公安北苑,颗粒物(PM10),70,90,78,47,53,45,,61,57,44,40,34,19,0.9,1.1
2024-12-29T2200,1409A,110.576,19.9507,海口市,东寨港,细颗粒物(PM2.5),64,,51,46,41,94,,129,123,6,7,7,9,0.7,0.7
2024-12-29T2200,1410A,110.3232,20.0574,海口市,海南大学,颗粒物(PM10),62,74,70,39,42,127,,152,149,20,22,5,7,0.6,0.6
2024-12-29T2200,1411A,110.283,20.0053,海口市,秀英海南医院,颗粒物(PM10),59,67,66,33,40,130,,153,151,14,16,4,6,0.6,0.5
2024-12-29T2200,1412A,110.338,19.9969,海口市,海南师范大学,颗粒物(PM10),60,70,68,35,40,127,,155,152,15,17,5,7,0.6,0.6
2024-12-29T2200,1413A,110.33,20.0356,海口市,龙华路环保局宿舍,颗粒物(PM10),57,63,63,33,39,127,,157,153,17,18,6,7,0.6,0.6
2024-12-29T2200,3539A,110.5111,19.9736,海口市,桂林洋子站,颗粒物(PM10),54,58,62,33,40,120,,153,146,15,16,5,6,0.5,0.5
2024-12-29T2200,2673A,100.6188,36.2866,海南藏族自治州,共和县恰卜恰镇,,37,37,30,18,14,19,,67,54,44,24,8,6,0.7,0.6
2024-12-29T2200,1048A,114.5302,36.6116,邯郸市,东污水处理厂,颗粒物(PM10),75,99,85,53,47,6,,34,21,65,56,8,9,1.1,1.1
2024-12-29T2200,1049A,114.4918,36.5713,邯郸市,矿院,颗粒物(PM10),80,110,95,53,44,3,,29,17,61,52,9,8,1.2,1.2
2024-12-29T2200,1050A,114.484,36.6133,邯郸市,丛台公园,颗粒物(PM10),81,111,86,59,45,3,,30,18,61,51,7,6,1.2,1
2024-12-29T2200,3458A,114.7895,36.5593,邯郸市,香泉濮院小区,颗粒物(PM10),70,89,93,46,39,33,,55,48,31,33,9,9,0.7,0.7
2024-12-29T2200,3579A,114.50634,36.77178,邯郸市,永年区实验高中,颗粒物(PM10),98,146,99,67,42,9,,28,16,77,48,26,24,2.7,1.5
2024-12-29T2200,3580A,114.20016,36.44293,邯郸市,峰峰矿区临水派出所,,47,47,35,20,17,65,,75,68,19,18,13,14,0.5,0.6
2024-12-29T2200,2634A,106.9893,33.1842,汉中市,汉川机床厂子校,细颗粒物(PM2.5),192,172,99,144,87,14,,35,25,29,27,7,11,1.8,1.3
2024-12-29T2200,2635A,107.0154,33.0706,汉中市,市监测站,细颗粒物(PM2.5),162,145,115,123,92,16,,24,22,73,55,13,9,2.1,1.5
2024-12-29T2200,2636A,107.0089,33.1138,汉中市,鑫源开发区,细颗粒物(PM2.5),220,,139,170,119,16,,22,20,53,52,9,10,1.7,1.4
2024-12-29T2200,2637A,107.007,33.0323,汉中市,南郑大河坎水厂,细颗粒物(PM2.5),188,156,115,141,91,14,,27,23,61,41,7,8,2.3,1.6
2024-12-29T2200,1223A,120.2072,30.2111,杭州市,滨江,细颗粒物(PM2.5),98,116,87,73,47,8,,53,40,96,58,8,7,0.7,0.6
2024-12-29T2200,1224A,120.0633,30.2747,杭州市,西溪,细颗粒物(PM2.5),94,108,70,70,44,23,,57,45,56,49,7,7,0.8,0.7
2024-12-29T2200,1226A,120.3461,30.3153,杭州市,下沙,颗粒物(PM10),82,114,99,59,48,5,,56,41,113,73,9,9,0.9,0.8
2024-12-29T2200,1227A,120.1269,30.2456,杭州市,卧龙桥,细颗粒物(PM2.5),77,87,62,56,39,13,,60,34,60,48,6,6,0.9,0.7
2024-12-29T2200,1228A,120.1903,30.2692,杭州市,浙江农大,细颗粒物(PM2.5),90,101,83,67,53,19,,54,41,78,55,8,8,0.9,0.7
2024-12-29T2200,1230A,120.1197,30.3119,杭州市,和睦小学,细颗粒物(PM2.5),72,85,70,52,42,29,,62,49,76,55,8,7,1.2,0.9
2024-12-29T2200,1231A,120.3019,30.4183,杭州市,临平镇,颗粒物(PM10),74,97,92,51,43,28,,60,51,69,58,7,9,0.7,0.8
2024-12-29T2200,1232A,120.2697,30.1819,杭州市,城厢镇,细颗粒物(PM2.5),94,128,91,70,51,5,,56,39,100,58,7,7,0.9,0.7
2024-12-29T2200,1233A,120.0883,30.1808,杭州市,云栖,细颗粒物(PM2.5),122,97,68,92,42,13,,51,25,64,53,5,6,0.7,0.6
2024-12-29T2200,3557A,119.9464,30.0494,杭州市,镇二中,细颗粒物(PM2.5),87,98,64,64,44,4,,58,40,66,45,7,8,1.1,0.8
2024-12-29T2200,3558A,119.7183,30.2367,杭州市,市府大楼,细颗粒物(PM2.5),95,110,72,71,50,7,,66,40,78,52,8,7,1.2,0.9
2024-12-29T2200,3656A,120.1556,30.2864,杭州市,消防大队,细颗粒物(PM2.5),85,102,78,63,44,25,,65,50,73,52,9,9,1.0,0.8
2024-12-29T2200,1270A,117.1959,31.7848,合肥市,明珠广场,细颗粒物(PM2.5),73,78,87,53,53,41,,71,57,50,53,12,11,0.8,0.8
2024-12-29T2200,1271A,117.3072,31.8764,合肥市,三里街,细颗粒物(PM2.5),73,85,97,53,53,28,,65,48,64,58,7,7,0.7,0.7
2024-12-29T2200,1272A,117.2588,31.8707,合肥市,琥珀山庄,细颗粒物(PM2.5),68,75,83,49,51,41,,74,58,53,58,7,7,1.1,1.2
2024-12-29T2200,1273A,117.1604,31.9052,合肥市,董铺水库,颗粒物(PM10),74,97,80,46,37,52,,70,60,38,43,6,5,0.6,0.5
2024-12-29T2200,1274A,117.25,31.8571,合肥市,长江中路,细颗粒物(PM2.5),83,85,97,61,59,34,,65,54,59,58,9,8,0.7,0.7
2024-12-29T2200,1275A,117.266,31.9436,合肥市,庐阳区,颗粒物(PM10),67,83,92,41,44,49,,78,61,51,63,7,6,0.8,0.8
2024-12-29T2200,1276A,117.336,31.8586,合肥市,瑶海区,"颗粒物(PM10),细颗粒物(PM2.5)",70,90,95,51,49,18,,70,47,84,60,5,5,0.7,0.7
2024-12-29T2200,1277A,117.3027,31.7964,合肥市,包河区,细颗粒物(PM2.5),67,70,89,48,52,57,,79,66,33,52,6,6,0.5,0.6
2024-12-29T2200,1278A,117.2776,31.7385,合肥市,滨湖新区,"颗粒物(PM10),细颗粒物(PM2.5)",67,83,91,48,46,56,,78,73,28,39,9,9,0.7,0.6
2024-12-29T2200,1279A,117.1318,31.8403,合肥市,高新区,细颗粒物(PM2.5),75,80,85,55,49,53,,71,60,45,60,4,3,0.8,0.8
2024-12-29T2200,3464A,117.3803,31.9147,合肥市,高教基地,颗粒物(PM10),71,92,88,49,48,38,,78,57,60,53,12,9,0.7,0.6
2024-12-29T2200,3614A,79.924,37.0877,和田地区,地区环保局,颗粒物(PM10),105,159,156,50,81,40,,63,62,33,35,15,17,0.9,1.3
2024-12-29T2200,3615A,79.9131,37.113,和田地区,市环保局,颗粒物(PM10),93,135,118,57,69,10,,58,53,81,51,17,16,1.1,2
2024-12-29T2200,2516A,108.2011,24.715,河池市,东仁乐园,细颗粒物(PM2.5),117,152,80,88,65,26,,74,56,78,35,14,21,1.2,0.9
2024-12-29T2200,2517A,108.0497,24.6947,河池市,市环保站,细颗粒物(PM2.5),89,85,71,66,57,42,,122,99,53,23,9,14,1.0,0.8
2024-12-29T2200,2518A,108.0983,24.6989,河池市,市疾控中心,细颗粒物(PM2.5),103,126,76,77,59,36,,120,86,83,36,11,18,1.1,0.9
2024-12-29T2200,1696A,114.6778,23.7569,河源市,源西,细颗粒物(PM2.5),69,73,63,50,52,48,,108,77,34,19,5,8,1.0,0.8
2024-12-29T2200,1697A,114.6944,23.7586,河源市,东埔,细颗粒物(PM2.5),83,80,78,61,58,34,,118,84,71,35,4,7,1.2,0.9
2024-12-29T2200,1698A,114.6892,23.7233,河源市,老城,细颗粒物(PM2.5),73,71,68,53,51,39,,112,91,51,27,4,6,0.8,0.6
2024-12-29T2200,1718A,115.4208,35.2464,菏泽市,气象局,细颗粒物(PM2.5),114,151,131,86,67,70,,88,84,30,31,6,6,0.6,0.6
2024-12-29T2200,1719A,115.4747,35.2375,菏泽市,市政协,细颗粒物(PM2.5),110,144,125,83,67,73,,88,84,30,31,6,7,0.7,0.7
2024-12-29T2200,3374A,115.5564,35.0891,菏泽市,定陶老年大学,细颗粒物(PM2.5),98,132,100,73,54,65,,88,82,30,30,10,9,0.7,0.6
2024-12-29T2200,3647A,115.4702,35.2706,菏泽市,菏泽医专,细颗粒物(PM2.5),103,141,118,77,54,80,,89,87,30,33,14,11,1.0,0.9
2024-12-29T2200,2514A,111.5264,24.4172,贺州市,环保小区,细颗粒物(PM2.5),132,130,91,100,71,41,,106,87,40,30,8,8,1.5,0.9
2024-12-29T2200,2515A,111.5608,24.4078,贺州市,政协大楼,细颗粒物(PM2.5),105,124,83,79,54,24,,110,86,80,37,10,7,1.0,0.7
2024-12-29T2200,3534A,111.4744,24.4553,贺州市,西湾,细颗粒物(PM2.5),109,134,95,82,66,46,,112,93,47,33,7,8,1.0,0.8
2024-12-29T2200,2385A,114.17,35.9019,鹤壁市,市监测站,颗粒物(PM10),67,84,73,40,37,53,,44,32,22,26,7,6,0.0,0.4
2024-12-29T2200,2386A,114.2956,35.7511,鹤壁市,市交警支队,细颗粒物(PM2.5),67,78,90,48,45,8,,41,32,58,43,7,7,1.0,0.7
2024-12-29T2200,2387A,114.2878,35.7306,鹤壁市,迎宾馆,颗粒物(PM10),74,97,97,47,38,13,,43,35,52,39,8,10,0.8,0.7
2024-12-29T2200,3474A,114.2617,35.6822,鹤壁市,大新区,细颗粒物(PM2.5),75,90,91,55,43,2,,40,25,71,50,10,9,0.7,0.7
2024-12-29T2200,3596A,114.1572,35.9603,鹤壁市,南山宾馆,细颗粒物(PM2.5),59,,55,42,38,74,,65,45,2,12,3,4,0.1,0.2
2024-12-29T2200,2244A,130.2537,47.3416,鹤岗市,哈啤分公司,,49,46,44,34,29,30,,44,27,18,18,13,16,1.3,1.1
2024-12-29T2200,2245A,130.2684,47.3086,鹤岗市,斯达机电,,49,45,45,34,29,31,,50,28,34,23,15,15,0.7,0.7
2024-12-29T2200,2246A,130.3114,47.3388,鹤岗市,东山纸板厂,颗粒物(PM10),93,136,34,68,40,14,,40,14,50,34,15,18,2.3,0.9
2024-12-29T2200,2247A,130.1097,47.3382,鹤岗市,五号水库,,27,27,35,13,22,47,,62,51,14,12,4,6,0.3,0.3
2024-12-29T2200,2263A,127.4833,50.2524,黑河市,交通局,细颗粒物(PM2.5),109,102,34,82,21,11,,44,21,45,18,8,6,1.6,0.7
2024-12-29T2200,2264A,127.5144,50.2341,黑河市,环保局,,49,36,27,34,22,7,,49,25,46,18,6,5,1.0,0.5
2024-12-29T2200,2265A,127.5291,50.2472,黑河市,大黑河岛,,,49,31,29,27,5,,26,17,25,13,2,2,,
2024-12-29T2200,1074A,115.6838,37.7541,衡水市,电机北厂,颗粒物(PM10),85,120,102,52,51,29,,51,44,38,37,16,16,0.7,0.7
2024-12-29T2200,1075A,115.6303,37.7316,衡水市,市监测站,颗粒物(PM10),87,124,97,56,50,19,,44,34,52,49,13,15,0.7,0.8
2024-12-29T2200,3188A,115.6683,37.7217,衡水市,市城管局,颗粒物(PM10),92,134,104,51,51,26,,48,40,42,42,13,15,0.7,0.8
2024-12-29T2200,3459A,115.5989,37.5491,衡水市,地表水厂,颗粒物(PM10),89,127,104,56,56,7,,46,25,65,50,15,14,0.8,0.8
2024-12-29T2200,2456A,112.5003,26.9167,衡阳市,原169医院,细颗粒物(PM2.5),107,98,90,80,68,0,,88,63,140,58,18,38,0.7,0.6
2024-12-29T2200,2457A,112.6194,26.9258,衡阳市,衡阳化工总厂,细颗粒物(PM2.5),158,156,103,120,78,21,,103,79,92,44,13,16,1.4,1
2024-12-29T2200,2458A,112.6211,26.8956,衡阳市,珠晖区环保局,细颗粒物(PM2.5),130,122,94,99,71,22,,109,89,90,42,12,15,1.4,1
2024-12-29T2200,2459A,112.6197,26.8733,衡阳市,市委党校,细颗粒物(PM2.5),130,125,94,99,67,53,,109,100,56,31,14,18,1.4,1
2024-12-29T2200,2460A,112.6006,26.8919,衡阳市,市监测站,细颗粒物(PM2.5),139,132,107,106,79,54,,107,97,58,32,12,16,1.4,1
2024-12-29T2200,2461A,112.5664,26.9056,衡阳市,真空机电公司,细颗粒物(PM2.5),114,133,112,86,70,50,,104,96,65,38,8,11,1.4,0.9
2024-12-29T2200,3399A,112.6703,26.882,衡阳市,师范学院,细颗粒物(PM2.5),148,150,104,113,77,41,,110,94,54,32,11,17,1.2,0.8
2024-12-29T2200,2608A,103.3772,23.3993,红河哈尼族彝族自治州,污水处理厂,细颗粒物(PM2.5),122,99,31,92,31,44,,64,58,12,9,12,9,0.8,0.8
2024-12-29T2200,2609A,103.3861,23.35,红河哈尼族彝族自治州,监测站,细颗粒物(PM2.5),53,43,30,37,26,50,,70,66,17,9,9,7,0.7,0.7
2024-12-29T2200,3038A,103.3758,23.368,红河哈尼族彝族自治州,州图书馆,,50,44,22,35,21,46,,61,57,13,9,19,8,0.7,0.6
2024-12-29T2200,1090A,111.6507,40.7517,呼和浩特市,呼市一监,颗粒物(PM10),349,459,247,86,52,26,,57,45,30,29,9,13,0.7,0.7
2024-12-29T2200,1091A,111.6572,40.8033,呼和浩特市,小召,颗粒物(PM10),216,361,203,71,47,12,,42,30,66,54,13,15,1.1,1
2024-12-29T2200,1094A,111.7516,40.8369,呼和浩特市,如意水处理厂,颗粒物(PM10),202,351,172,64,44,4,,42,26,62,46,15,16,1.0,0.8
2024-12-29T2200,1095A,111.7276,40.8062,呼和浩特市,二十九中,颗粒物(PM10),226,368,189,79,46,5,,42,30,70,49,14,16,1.2,0.9
2024-12-29T2200,1096A,111.5512,40.7866,呼和浩特市,工大金川校区,颗粒物(PM10),193,335,182,72,46,4,,42,24,71,53,12,13,1.2,0.8
2024-12-29T2200,1097A,111.717,40.7612,呼和浩特市,化肥厂生活区,颗粒物(PM10),325,440,208,105,50,6,,49,38,73,48,12,12,1.6,0.9
2024-12-29T2200,3698A,111.5968,40.8178,呼和浩特市,红旗小学,颗粒物(PM10),190,329,190,79,44,4,,39,21,70,50,10,11,1.2,0.8
2024-12-29T2200,3699A,111.6518,40.8389,呼和浩特市,海东办,颗粒物(PM10),307,425,215,106,52,5,,39,25,74,55,12,14,2.0,1.3
2024-12-29T2200,2192A,119.7594,49.2261,呼伦贝尔市,区环保局,细颗粒物(PM2.5),52,42,35,36,26,24,,45,30,41,29,10,10,0.7,0.6
2024-12-29T2200,3061A,119.7512,49.1577,呼伦贝尔市,国华电力东,"颗粒物(PM10),细颗粒物(PM2.5)",52,54,27,36,19,24,,60,41,33,14,6,6,0.8,0.4
2024-12-29T2200,1250A,120.0751,30.8669,湖州市,城西水厂,细颗粒物(PM2.5),83,102,82,61,47,30,,62,40,66,52,8,8,0.5,0.5
2024-12-29T2200,2873A,120.0875,30.8955,湖州市,仁皇山新区,细颗粒物(PM2.5),85,96,85,63,51,45,,62,43,58,58,11,9,0.7,0.6
2024-12-29T2200,2907A,120.1844,30.8596,湖州市,吴兴区站,细颗粒物(PM2.5),69,83,72,50,45,32,,47,,76,60,8,9,0.7,0.6
2024-12-29T2200,3562A,120.4148,30.8538,湖州市,南浔区站,细颗粒物(PM2.5),67,73,83,48,53,54,,60,59,44,57,9,9,0.6,0.7
2024-12-29T2200,1607A,120.9092,40.7136,葫芦岛市,龙港区,颗粒物(PM10),61,71,80,36,49,25,,47,43,71,55,29,64,1.2,1.6
2024-12-29T2200,1608A,120.8392,40.7514,葫芦岛市,化工街,颗粒物(PM10),75,100,96,48,45,8,,34,26,70,52,17,29,1.2,1.1
2024-12-29T2200,1609A,120.8341,40.7073,葫芦岛市,新区,细颗粒物(PM2.5),68,79,78,49,48,5,,44,33,87,69,29,28,1.4,1.4
2024-12-29T2200,1610A,120.8695,40.7677,葫芦岛市,东城区,颗粒物(PM10),140,229,85,42,40,8,,32,25,72,52,19,41,0.9,0.9
2024-12-29T2200,2482A,109.5981,27.5721,怀化市,林科所,细颗粒物(PM2.5),109,88,86,82,74,54,,71,69,32,29,6,17,1.7,1.4
2024-12-29T2200,2483A,109.9453,27.5444,怀化市,河西地税局,细颗粒物(PM2.5),123,116,117,93,99,50,,63,61,38,32,14,8,1.3,1.1
2024-12-29T2200,2484A,109.9781,27.5342,怀化市,市四医院,细颗粒物(PM2.5),135,123,134,103,99,55,,58,58,21,29,30,15,1.3,1.3
2024-12-29T2200,2485A,109.9972,27.5578,怀化市,监测楼,细颗粒物(PM2.5),132,132,133,100,89,44,,57,56,37,36,18,12,0.7,0.8
2024-12-29T2200,2486A,110.0394,27.583,怀化市,市委党校,细颗粒物(PM2.5),127,126,133,96,96,46,,57,56,33,38,42,28,1.1,1.1
2024-12-29T2200,1210A,119.036,33.5981,淮安市,钵池山,细颗粒物(PM2.5),73,92,77,53,46,45,,79,70,42,35,11,10,0.8,0.7
2024-12-29T2200,1211A,119.007,33.575,淮安市,北京南路,,,85,79,47,44,32,,70,55,51,45,17,11,,0.5
2024-12-29T2200,1212A,118.989,33.6067,淮安市,市监测站,细颗粒物(PM2.5),89,90,76,66,52,38,,78,65,50,39,16,9,0.8,0.6
2024-12-29T2200,1213A,119.135,33.5039,淮安市,楚州区监测站,"颗粒物(PM10),细颗粒物(PM2.5)",70,90,95,51,51,32,,70,51,51,51,9,9,1.0,0.7
2024-12-29T2200,1214A,119.0186,33.6297,淮安市,淮阴区监测站,颗粒物(PM10),73,95,88,46,43,38,,75,62,51,40,17,11,1.0,0.9
2024-12-29T2200,3426A,118.8755,33.2894,淮安市,新华书店,细颗粒物(PM2.5),87,103,85,64,52,29,,78,62,58,41,12,15,0.9,0.6
2024-12-29T2200,2282A,116.8004,33.975,淮北市,监测站,"颗粒物(PM10),细颗粒物(PM2.5)",58,65,84,41,50,63,,78,70,23,36,6,7,0.4,0.5
2024-12-29T2200,2283A,116.8091,33.9007,淮北市,烈山区政府,细颗粒物(PM2.5),94,97,93,70,50,50,,77,70,32,36,6,8,0.5,0.5
2024-12-29T2200,3330A,116.8873,33.9836,淮北市,杜集区检察院,细颗粒物(PM2.5),64,75,83,46,49,58,,82,73,22,30,4,5,0.6,0.3
2024-12-29T2200,4017A,116.7923,33.9535,淮北市,市博物馆,颗粒物(PM10),54,58,83,32,50,67,,79,75,25,36,6,7,0.6,0.7
2024-12-29T2200,2277A,116.8305,32.7727,淮南市,潘集区政府,细颗粒物(PM2.5),104,111,83,78,55,49,,73,64,45,39,10,9,0.8,0.7
2024-12-29T2200,2278A,117.0067,32.6524,淮南市,师范学院,细颗粒物(PM2.5),108,88,68,81,41,63,,73,61,39,35,8,5,0.8,0.7
2024-12-29T2200,2279A,116.8569,32.5951,淮南市,谢家集区政府,细颗粒物(PM2.5),74,86,70,54,41,49,,73,64,39,32,8,7,0.8,0.6
2024-12-29T2200,2280A,116.8281,32.633,淮南市,八公山区政府,细颗粒物(PM2.5),74,87,65,54,37,60,,77,71,35,26,10,9,0.8,0.6
2024-12-29T2200,2281A,116.6325,32.6201,淮南市,焦岗湖风景区管理处,细颗粒物(PM2.5),83,90,54,61,37,46,,53,51,33,35,3,2,0.5,0.3
2024-12-29T2200,2894A,117.0566,32.6531,淮南市,经济技术开发区消防队,颗粒物(PM10),74,98,73,49,40,64,,82,70,36,37,9,7,0.7,0.6
2024-12-29T2200,3329A,117.0108,32.5893,淮南市,山南新区,细颗粒物(PM2.5),94,109,81,70,44,47,,75,61,56,41,10,9,0.6,0.5
2024-12-29T2200,2446A,114.9028,30.4742,黄冈市,职工中心,细颗粒物(PM2.5),88,98,71,65,43,60,,87,81,56,42,16,9,1.1,0.3
2024-12-29T2200,2929A,114.8858,30.4519,黄冈市,红卫路,细颗粒物(PM2.5),89,97,71,66,47,55,,80,74,45,38,12,8,1.0,0.8
2024-12-29T2200,3398A,114.9136,30.4445,黄冈市,市林业局,细颗粒物(PM2.5),89,92,68,66,47,54,,81,74,46,37,16,11,1.0,0.8
2024-12-29T2200,2672A,102.0199,35.5102,黄南藏族自治州,同仁县隆务镇,颗粒物(PM10),61,72,64,36,40,60,,78,74,16,11,12,11,1.0,0.8
2024-12-29T2200,2295A,118.2903,29.6963,黄山市,延安路89号,细颗粒物(PM2.5),58,57,50,41,36,33,,84,71,28,20,8,8,0.4,0.3
2024-12-29T2200,2296A,118.327,29.7178,黄山市,黄山东路89号,颗粒物(PM10),64,77,71,45,46,24,,76,50,32,23,6,6,0.5,0.5
2024-12-29T2200,2297A,118.1371,30.2756,黄山市,黄山区政府5号楼,细颗粒物(PM2.5),62,55,46,44,31,29,,83,61,17,16,7,7,0.6,0.5
2024-12-29T2200,2423A,115.0601,30.2313,黄石市,沈家营,颗粒物(PM10),65,80,70,36,44,75,,70,70,18,37,9,20,0.7,0.9
2024-12-29T2200,2424A,115.0817,30.2006,黄石市,陈家湾,细颗粒物(PM2.5),60,62,63,43,45,66,,77,76,33,33,11,15,0.6,0.9
2024-12-29T2200,2426A,114.8988,30.2019,黄石市,铁山,细颗粒物(PM2.5),88,89,58,65,38,59,,91,84,37,20,18,17,0.9,1
2024-12-29T2200,2427A,115.0307,30.2092,黄石市,团城山,颗粒物(PM10),61,72,65,38,41,83,,84,84,23,37,8,12,0.6,0.8
2024-12-29T2200,3149A,115.0235,30.1578,黄石市,笔架山北路,细颗粒物(PM2.5),82,74,57,60,41,64,,87,84,33,33,14,12,0.9,0.9
2024-12-29T2200,1392A,114.4183,23.0528,惠州市,河南岸金山湖子站,细颗粒物(PM2.5),92,109,82,68,55,30,,113,82,66,29,7,9,1.2,0.9
2024-12-29T2200,1393A,114.4053,23.0822,惠州市,下埔横江三路子站,细颗粒物(PM2.5),90,104,84,67,57,81,,134,113,44,27,8,9,1.0,0.8
2024-12-29T2200,1394A,114.4103,23.1142,惠州市,江北云山西路子站,细颗粒物(PM2.5),92,119,81,68,55,83,,130,103,56,33,16,11,0.9,0.7
2024-12-29T2200,1395A,114.4645,22.7833,惠州市,惠阳区承修路船湖子站,颗粒物(PM10),68,85,95,40,49,96,,122,119,29,25,10,11,0.6,0.7
2024-12-29T2200,1396A,114.5317,22.7422,惠州市,大亚湾管委会子站,颗粒物(PM10),65,80,77,45,48,85,,138,128,50,28,12,13,0.6,0.5
2024-12-29T2200,3314A,114.4338,22.8134,惠州市,惠阳秋长,颗粒物(PM10),91,132,89,48,48,58,,141,131,60,26,12,12,1.0,0.7
2024-12-29T2200,3452A,114.6517,22.775,惠州市,大亚湾霞涌,细颗粒物(PM2.5),62,58,72,44,57,65,,138,118,40,19,7,9,0.7,0.9
2024-12-29T2200,2240A,130.9762,45.3001,鸡西市,环保局,细颗粒物(PM2.5),112,122,37,84,26,16,,54,30,68,15,18,8,1.5,0.7
2024-12-29T2200,2243A,130.9429,45.3039,鸡西市,第一中学,,40,38,29,28,20,2,,53,37,60,11,6,6,0.3,0.3
2024-12-29T2200,3707A,131.0207,45.3073,鸡西市,欧美日汽修厂,细颗粒物(PM2.5),168,187,69,127,52,6,,53,21,49,25,48,43,1.8,1.1
2024-12-29T2200,3709A,130.9967,45.3106,鸡西市,市政设施管理处,颗粒物(PM10),96,141,49,67,35,8,,54,24,49,19,16,8,1.1,0.6
2024-12-29T2200,2367A,114.9754,27.0803,吉安市,红声器材厂,细颗粒物(PM2.5),90,112,94,67,55,26,,100,76,82,54,18,14,0.8,0.7
2024-12-29T2200,2368A,114.9658,27.0999,吉安市,市森林工业局,细颗粒物(PM2.5),87,110,86,64,54,18,,94,77,95,48,22,18,1.0,0.7
2024-12-29T2200,2369A,114.99,27.1312,吉安市,市环境监测站,细颗粒物(PM2.5),83,112,82,61,55,31,,103,82,84,50,18,19,0.7,0.7
2024-12-29T2200,2370A,115.0093,27.0968,吉安市,青原区法院,细颗粒物(PM2.5),77,95,80,56,51,28,,93,64,74,52,18,14,0.9,0.8
2024-12-29T2200,1772A,126.54,43.8622,吉林市,哈达湾,,30,30,33,19,23,58,,60,58,20,24,10,10,0.6,0.6
2024-12-29T2200,1773A,126.5844,43.8358,吉林市,东局子,,26,26,33,17,22,66,,67,67,11,19,7,7,0.7,0.7
2024-12-29T2200,1774A,126.5052,43.8245,吉林市,电力学院,,39,38,50,27,35,52,,56,52,22,26,10,10,0.8,0.9
2024-12-29T2200,1775A,126.6133,43.8972,吉林市,江北,,22,21,60,13,41,68,,62,61,10,26,10,11,0.5,0.8
2024-12-29T2200,1776A,126.555,43.8306,吉林市,江南公园,,31,31,36,17,25,58,,59,58,17,25,11,11,0.5,0.6
2024-12-29T2200,1778A,126.7061,43.7133,吉林市,丰满,,28,19,21,19,19,62,,66,66,5,6,6,5,0.3,0.3
2024-12-29T2200,2868A,126.4739,43.953,吉林市,九站,,31,31,46,16,34,68,,58,55,11,31,6,11,0.6,0.8
2024-12-29T2200,1299A,116.9862,36.6114,济南市,科干所,颗粒物(PM10),69,88,76,49,26,90,,85,85,23,21,8,8,0.6,0.6
2024-12-29T2200,1300A,116.9376,36.665,济南市,农科所,颗粒物(PM10),78,105,97,44,26,82,,78,78,29,35,9,11,0.6,0.6
2024-12-29T2200,1301A,117.1265,36.6734,济南市,开发区,细颗粒物(PM2.5),62,68,56,44,24,88,,88,87,20,18,8,7,0.6,0.6
2024-12-29T2200,1303A,117.0624,36.6868,济南市,省种子仓库,颗粒物(PM10),68,85,78,48,26,86,,84,84,17,27,7,8,0.6,0.6
2024-12-29T2200,1304A,116.9489,36.6447,济南市,机床二厂,颗粒物(PM10),75,100,112,46,31,91,,84,84,14,20,14,15,0.8,0.8
2024-12-29T2200,1305A,117.0495,36.663,济南市,市监测站,颗粒物(PM10),72,93,73,42,22,91,,88,88,17,22,8,7,0.6,0.6
2024-12-29T2200,1306A,116.7675,36.5484,济南市,长清党校,细颗粒物(PM2.5),70,85,91,51,37,84,,87,87,25,26,7,8,0.8,0.8
2024-12-29T2200,1616A,117.6795,36.229,济南市,技术学院,细颗粒物(PM2.5),70,75,92,51,52,62,,74,73,29,44,12,15,0.8,1.1
2024-12-29T2200,1961A,117.532,36.6868,济南市,东山小学,颗粒物(PM10),62,73,77,37,28,78,,77,77,16,21,8,8,0.6,0.6
2024-12-29T2200,3059A,117.7161,36.2049,济南市,泰兴公司,细颗粒物(PM2.5),92,105,105,68,62,20,,72,62,67,46,15,15,0.7,0.8
2024-12-29T2200,3064A,117.6867,36.2171,济南市,莱芜战役纪念馆,颗粒物(PM10),68,85,101,48,50,60,,75,73,35,49,11,12,0.6,0.9
2024-12-29T2200,3494A,117.1673,36.9782,济南市,济阳区政府,细颗粒物(PM2.5),211,,110,161,161,40,,,,36,40,,144,0.9,0.8
2024-12-29T2200,3495A,117.1171,36.63,济南市,锦屏中学,细颗粒物(PM2.5),64,71,55,46,21,91,,90,90,23,22,8,7,0.4,0.4
2024-12-29T2200,3682A,116.9814,36.6819,济南市,济南四建,颗粒物(PM10),68,85,82,39,29,81,,76,76,25,28,8,9,0.7,0.7
2024-12-29T2200,1653A,116.6251,35.4302,济宁市,火炬城,颗粒物(PM10),67,84,79,46,42,56,,81,74,33,34,9,9,0.6,0.7
2024-12-29T2200,1655A,116.5491,35.4042,济宁市,电化厂,"颗粒物(PM10),细颗粒物(PM2.5)",73,95,96,53,49,52,,74,62,44,40,11,12,0.8,0.8
2024-12-29T2200,3500A,116.5814,35.3707,济宁市,北湖一中,细颗粒物(PM2.5),77,76,77,56,49,65,,83,78,31,33,8,7,0.5,0.7
2024-12-29T2200,3501A,116.8249,35.5593,济宁市,服务中心,细颗粒物(PM2.5),74,95,102,54,47,48,,74,66,42,46,14,14,1.1,1.1
2024-12-29T2200,3678A,116.5907,35.4054,济宁市,市第七中学,细颗粒物(PM2.5),73,79,83,53,45,65,,84,79,29,35,4,5,0.8,0.8
2024-12-29T2200,2255A,130.2751,46.8028,佳木斯市,佳纺,细颗粒物(PM2.5),52,42,35,36,31,13,,55,36,45,16,11,12,1.0,0.7
2024-12-29T2200,2256A,130.3995,46.8307,佳木斯市,发电厂,,49,40,29,34,27,21,,52,31,37,18,7,7,1.3,1.2
2024-12-29T2200,2257A,130.3258,46.7975,佳木斯市,环保局,,35,35,35,22,23,9,,48,35,54,19,12,12,1.4,0.9
2024-12-29T2200,2258A,130.3648,46.8032,佳木斯市,十一中,,40,34,28,28,26,16,,50,34,49,21,6,6,0.9,0.7
2024-12-29T2200,2259A,130.3794,46.7588,佳木斯市,四丰,,26,26,27,15,19,52,,52,51,5,6,1,1,0.5,0.5
2024-12-29T2200,1252A,120.7436,30.778,嘉兴市,清河小学,细颗粒物(PM2.5),67,76,73,48,42,30,,72,63,74,52,7,8,0.7,0.7
2024-12-29T2200,1253A,120.726,30.7478,嘉兴市,嘉兴学院,颗粒物(PM10),64,78,84,45,47,53,,73,68,49,54,7,8,0.5,0.7
2024-12-29T2200,2872A,120.7846,30.7525,嘉兴市,南湖区残联,颗粒物(PM10),66,82,83,43,46,62,,80,75,49,50,9,11,0.6,0.6
2024-12-29T2200,3407A,120.6916,30.7739,嘉兴市,秀洲住建,颗粒物(PM10),59,67,79,38,47,58,,70,63,44,52,8,8,0.4,0.5
2024-12-29T2200,1945A,98.2908,39.7711,嘉峪关市,气象局,,41,41,77,17,36,58,,64,56,24,23,5,20,0.4,0.8
2024-12-29T2200,2884A,98.2672,39.7978,嘉峪关市,酒钢宾馆,,48,48,90,22,34,52,,64,54,30,29,19,50,0.4,1
2024-12-29T2200,3248A,98.2643,39.7724,嘉峪关市,雄关区,颗粒物(PM10),57,64,62,29,30,46,,63,55,40,29,15,15,0.4,0.6
2024-12-29T2200,1383A,113.1064,22.6058,江门市,北街,细颗粒物(PM2.5),110,105,79,83,60,43,,129,114,96,50,6,8,1.2,0.8
2024-12-29T2200,1384A,113.0731,22.5835,江门市,西区,细颗粒物(PM2.5),118,161,103,89,62,20,,132,109,118,49,10,11,1.6,0.9
2024-12-29T2200,1385A,113.0219,22.5311,江门市,圭峰西,细颗粒物(PM2.5),100,79,75,75,58,79,,129,123,57,44,3,4,0.9,0.7
2024-12-29T2200,1386A,113.0828,22.5947,江门市,东湖,细颗粒物(PM2.5),107,125,93,80,59,48,,128,115,75,43,8,9,1.1,0.7
2024-12-29T2200,3311A,113.1075,22.5647,江门市,江海富民,颗粒物(PM10),105,160,94,76,53,55,,133,116,106,58,12,12,1.4,1
2024-12-29T2200,3449A,113.05,22.4667,江门市,新会银湖,细颗粒物(PM2.5),147,120,77,112,69,27,,131,99,84,47,6,9,1.2,0.9
2024-12-29T2200,1828A,113.227,35.2125,焦作市,市环保局,颗粒物(PM10),67,84,63,30,32,73,,52,52,18,32,8,9,0.6,0.8
2024-12-29T2200,1830A,113.1992,35.2590,焦作市,影视城,,46,46,48,29,32,85,,78,63,13,23,12,16,0.8,0.8
2024-12-29T2200,3169A,113.2725,35.2067,焦作市,太极体育中心,颗粒物(PM10),71,91,70,20,25,68,,46,46,23,37,11,12,0.6,1
2024-12-29T2200,3335A,113.3137,35.2641,焦作市,马村街道办,颗粒物(PM10),51,52,66,29,34,77,,52,52,11,31,8,13,0.8,1
2024-12-29T2200,3336A,113.2465,35.2373,焦作市,焦作技师学院,,43,43,68,22,32,72,,46,46,19,44,5,12,0.6,1
2024-12-29T2200,3477A,113.1656,35.2539,焦作市,中站许衡医院,颗粒物(PM10),53,56,63,32,32,79,,51,51,12,31,10,19,0.6,1
2024-12-29T2200,3981A,113.2449,35.1803,焦作市,原李万街道办,颗粒物(PM10),52,54,62,24,33,59,,46,43,24,34,9,9,0.7,1
2024-12-29T2200,1708A,116.3701,23.5345,揭阳市,新兴,颗粒物(PM10),60,70,68,32,47,74,,130,116,41,30,8,11,0.7,0.7
2024-12-29T2200,1709A,116.3264,23.5443,揭阳市,西马,颗粒物(PM10),58,66,73,26,43,87,,140,129,31,28,9,11,0.7,0.7
2024-12-29T2200,1710A,116.3611,23.5626,揭阳市,东兴,颗粒物(PM10),63,76,75,29,44,79,,136,123,36,35,14,12,0.6,0.7
2024-12-29T2200,1711A,116.4151,23.5294,揭阳市,渔湖,颗粒物(PM10),59,67,65,29,42,75,,126,112,45,39,11,15,0.5,0.6
2024-12-29T2200,3320A,116.403,23.5699,揭阳市,曲溪,颗粒物(PM10),67,84,73,38,46,89,,143,126,37,34,3,8,0.6,0.8
2024-12-29T2200,1944A,102.1692,38.5167,金昌市,天庆家园,颗粒物(PM10),103,155,101,62,39,48,,84,79,36,28,14,35,1.1,1.1
2024-12-29T2200,3170A,102.1864,38.5253,金昌市,市委党校,颗粒物(PM10),109,168,118,32,36,71,,93,88,22,26,10,49,0.7,0.9
2024-12-29T2200,4022A,102.1647,38.5371,金昌市,金川区人防中心,颗粒物(PM10),89,128,100,49,32,60,,86,82,28,21,10,25,0.8,0.7
2024-12-29T2200,1262A,119.647,29.077,金华市,十五中,"颗粒物(PM10),细颗粒物(PM2.5)",82,114,90,60,49,4,,73,44,94,63,5,5,1.0,0.7
2024-12-29T2200,1263A,119.686,29.1029,金华市,监测站,细颗粒物(PM2.5),85,112,90,63,49,3,,70,39,92,64,6,6,0.8,0.7
2024-12-29T2200,3659A,119.656,29.1131,金华市,气象局,细颗粒物(PM2.5),95,130,91,71,48,1,,70,38,93,64,5,5,1.1,0.8
2024-12-29T2200,1767A,121.1115,41.0879,锦州市,南山,细颗粒物(PM2.5),73,71,97,53,76,21,,33,30,63,54,10,17,1.3,1.8
2024-12-29T2200,1768A,121.0533,40.8434,锦州市,开发区,颗粒物(PM10),72,93,136,51,59,8,,27,24,84,69,21,44,1.2,1.2
2024-12-29T2200,1769A,121.1836,41.1119,锦州市,百股街道,细颗粒物(PM2.5),79,92,78,58,57,18,,34,29,67,51,15,22,1.3,1.3
2024-12-29T2200,1770A,121.1178,41.1222,锦州市,天安街道,细颗粒物(PM2.5),80,103,84,59,47,8,,29,24,65,53,21,25,1.5,1.3
2024-12-29T2200,1771A,121.1303,41.1386,锦州市,北湖公园,细颗粒物(PM2.5),78,81,73,57,46,12,,28,25,61,47,18,24,1.3,1.2
2024-12-29T2200,2160A,112.85,35.5051,晋城市,自来水公司,颗粒物(PM10),63,76,56,39,31,72,,79,79,25,36,11,15,1.0,1.5
2024-12-29T2200,2161A,112.8318,35.4936,晋城市,白云商贸,颗粒物(PM10),59,67,57,36,22,73,,73,73,23,35,11,12,1.0,1.5
2024-12-29T2200,2162A,112.8508,35.4887,晋城市,市环保局,颗粒物(PM10),56,61,58,39,31,70,,74,74,25,38,10,14,1.0,1.4
2024-12-29T2200,2163A,112.8676,35.4897,晋城市,技术学院,颗粒物(PM10),72,94,57,34,28,77,,83,83,21,40,10,15,0.8,1.3
2024-12-29T2200,2165A,112.8453,35.546,晋城市,白马寺,颗粒物(PM10),64,77,44,30,29,62,,71,70,15,20,15,20,0.9,1.6
2024-12-29T2200,3620A,112.8271,35.4828,晋城市,泽州一中,细颗粒物(PM2.5),52,49,52,36,26,77,,77,77,20,30,12,13,0.9,1.4
2024-12-29T2200,2171A,112.7532,37.6945,晋中市,锦纶小区,颗粒物(PM10),81,112,99,36,37,41,,59,56,37,44,17,26,1.0,1
2024-12-29T2200,2173A,112.7249,37.7067,晋中市,南都小区,颗粒物(PM10),75,99,100,46,43,45,,62,60,35,46,17,28,0.7,0.9
2024-12-29T2200,2174A,112.6991,37.6982,晋中市,榆次区政府,颗粒物(PM10),80,110,105,38,42,40,,59,57,39,46,14,23,0.8,1
2024-12-29T2200,2865A,112.7195,37.6828,晋中市,榆次三中,颗粒物(PM10),84,117,100,41,37,41,,59,56,34,43,19,26,0.8,1
2024-12-29T2200,2439A,112.2014,31.0481,荆门市,竹园小学,细颗粒物(PM2.5),122,130,111,92,74,84,,104,99,34,32,22,14,0.7,0.6
2024-12-29T2200,2440A,112.1969,30.9891,荆门市,掇刀,细颗粒物(PM2.5),112,123,115,84,74,78,,107,103,44,38,21,14,0.8,0.7
2024-12-29T2200,2441A,112.2213,31.0386,荆门市,石化一小,细颗粒物(PM2.5),123,125,123,93,78,66,,108,102,47,41,16,12,0.9,0.8
2024-12-29T2200,3012A,112.1849,31.0362,荆门市,西山林语,细颗粒物(PM2.5),122,116,100,92,73,81,,107,101,33,27,15,10,0.6,0.6
2024-12-29T2200,3547A,112.1632,31.0138,荆门市,龙泉中学南校,细颗粒物(PM2.5),138,146,113,105,80,74,,106,98,39,30,20,13,0.8,0.7
2024-12-29T2200,1844A,112.2494,30.3197,荆州市,市图书馆,细颗粒物(PM2.5),97,91,79,72,67,27,,102,84,84,39,7,8,0.8,0.7
2024-12-29T2200,1845A,112.2008,30.3544,荆州市,市委党校,细颗粒物(PM2.5),110,99,86,83,68,18,,103,82,96,39,8,10,1.0,0.7
2024-12-29T2200,3194A,112.2747,30.3122,荆州市,管委会,细颗粒物(PM2.5),103,105,84,77,65,20,,106,86,90,36,8,9,0.9,0.8
2024-12-29T2200,3548A,112.1655,30.3364,荆州市,学苑路,细颗粒物(PM2.5),113,103,81,85,69,30,,109,96,87,37,11,12,1.0,0.7
2024-12-29T2200,2343A,117.2117,29.2933,景德镇市,老干部活动中心,细颗粒物(PM2.5),84,107,65,62,47,21,,82,58,47,36,8,9,0.7,0.6
2024-12-29T2200,2344A,117.1894,29.2789,景德镇市,兽医站,颗粒物(PM10),78,106,74,56,37,38,,85,67,37,27,5,7,0.3,0.2
2024-12-29T2200,2345A,117.1547,29.2617,景德镇市,台达陶瓷,细颗粒物(PM2.5),103,127,78,77,43,18,,81,50,86,42,80,29,0.8,0.5
2024-12-29T2200,2346A,117.2461,29.2956,景德镇市,陶研所,细颗粒物(PM2.5),68,70,61,49,38,26,,80,60,41,33,4,7,0.6,0.6
2024-12-29T2200,1803A,115.9872,29.6815,九江市,十里,颗粒物(PM10),66,82,67,44,42,32,,78,64,65,43,9,9,0.8,0.8
2024-12-29T2200,1804A,115.9584,29.7046,九江市,茅山头,细颗粒物(PM2.5),82,97,72,60,37,50,,74,65,63,51,10,7,1.0,1
2024-12-29T2200,1805A,115.9877,29.7295,九江市,西园,细颗粒物(PM2.5),82,85,70,60,44,60,,64,60,50,65,9,10,0.5,0.7
2024-12-29T2200,1806A,116.0172,29.6547,九江市,五七二七厂,颗粒物(PM10),67,83,65,46,34,54,,80,78,30,27,6,8,0.7,0.6
2024-12-29T2200,1808A,115.9114,29.6038,九江市,综合工业园,细颗粒物(PM2.5),83,85,66,61,48,47,,61,60,57,52,8,9,0.7,0.5
2024-12-29T2200,1809A,116.0721,29.7535,九江市,石化总厂,细颗粒物(PM2.5),90,92,83,67,52,29,,69,64,76,58,13,13,0.9,0.9
2024-12-29T2200,1810A,115.9773,29.5698,九江市,庐山气象台,,27,6,22,3,11,84,,88,79,2,9,6,9,0.8,0.9
2024-12-29T2200,3190A,116.0254,29.6994,九江市,外国语学校,细颗粒物(PM2.5),87,116,79,64,44,51,,70,65,48,39,9,10,0.8,0.8
2024-12-29T2200,2658A,98.5061,39.7443,酒泉市,仓门街子站,颗粒物(PM10),87,124,132,63,48,35,,66,57,39,29,18,37,1.0,1
2024-12-29T2200,2659A,98.4989,39.7256,酒泉市,油田生活基地,颗粒物(PM10),87,124,126,47,43,22,,64,50,47,31,20,30,1.0,1
2024-12-29T2200,2698A,76.0072,39.4467,喀什地区,巡警大队,细颗粒物(PM2.5),112,118,106,84,67,46,,58,58,56,47,2,2,2.2,1.7
2024-12-29T2200,2699A,75.9755,39.4694,喀什地区,吾办,细颗粒物(PM2.5),119,121,97,90,80,50,,54,54,54,47,1,2,2.3,1.7
2024-12-29T2200,4027A,75.9483,39.4689,喀什地区,老干局,细颗粒物(PM2.5),105,143,111,79,66,20,,61,58,82,38,2,2,2.7,1.9
2024-12-29T2200,1824A,114.3389,34.7781,开封市,肿瘤医院,细颗粒物(PM2.5),105,132,108,79,64,19,,56,48,69,55,3,4,0.7,0.6
2024-12-29T2200,1826A,114.2885,34.7965,开封市,世纪星幼儿园,细颗粒物(PM2.5),132,113,105,100,78,23,,60,51,59,53,5,5,0.5,0.5
2024-12-29T2200,3147A,114.3438,34.8106,开封市,龙亭公园,细颗粒物(PM2.5),104,117,101,78,65,26,,65,58,65,54,5,4,0.7,0.6
2024-12-29T2200,3210A,114.3644,34.7964,开封市,汴京公园,细颗粒物(PM2.5),113,136,114,85,72,25,,61,53,64,55,5,5,0.6,0.6
2024-12-29T2200,3473A,114.2485,34.8306,开封市,技师学院,颗粒物(PM10),88,126,99,53,48,26,,62,56,61,54,8,8,0.7,0.7
2024-12-29T2200,3592A,114.4644,34.7556,开封市,祥符区生态环境局,细颗粒物(PM2.5),134,151,114,102,73,40,,65,61,47,43,4,4,0.6,0.5
2024-12-29T2200,1951A,84.895,45.6094,克拉玛依市,长征新村,细颗粒物(PM2.5),102,103,79,76,56,28,,51,48,47,28,8,9,0.9,0.7
2024-12-29T2200,1952A,84.8988,45.5893,克拉玛依市,南林小区,细颗粒物(PM2.5),104,103,73,78,57,22,,54,49,50,27,3,8,1.2,1
2024-12-29T2200,1954A,84.905,44.3396,克拉玛依市,独山子区,细颗粒物(PM2.5),214,,181,164,124,12,,45,31,94,63,4,4,1.4,1.2
2024-12-29T2200,1955A,85.6979,46.098,克拉玛依市,乌尔禾区商贸楼,细颗粒物(PM2.5),112,115,78,84,63,8,,60,49,75,47,5,5,1.7,1.1
2024-12-29T2200,3612A,85.1045,45.6899,克拉玛依市,白碱滩区新站,细颗粒物(PM2.5),114,124,84,86,58,20,,62,53,63,33,9,10,1.4,1.4
2024-12-29T2200,2697A,76.1454,39.7142,克孜勒苏柯尔克孜自治州,市人民政府,细颗粒物(PM2.5),109,125,72,82,54,42,,72,70,54,19,4,3,1.7,1.1
2024-12-29T2200,3665A,76.1658,39.7157,克孜勒苏柯尔克孜自治州,克州文化中心,细颗粒物(PM2.5),98,103,66,73,54,55,,71,70,43,21,8,7,1.8,1.1
2024-12-29T2200,1450A,102.8204,24.8886,昆明市,呈贡新区,,32,26,26,22,21,51,,72,66,19,17,8,8,0.5,0.6
2024-12-29T2200,1452A,102.7252,25.0902,昆明市,龙泉镇,,34,34,37,16,24,37,,76,66,30,24,7,8,0.4,0.7
2024-12-29T2200,1453A,102.7266,25.0375,昆明市,东风东路,,21,21,34,13,24,48,,66,62,16,17,7,8,0.6,0.8
2024-12-29T2200,1454A,102.6742,25.0669,昆明市,金鼎山,,27,27,39,17,22,39,,74,66,33,24,12,13,0.6,0.8
2024-12-29T2200,1455A,102.6644,25.0401,昆明市,碧鸡广场,,23,22,35,16,27,34,,71,60,37,25,9,11,0.5,0.7
2024-12-29T2200,3179A,102.7494,25.0119,昆明市,官渡区博物馆,,34,34,34,16,23,51,,75,69,19,16,6,8,0.4,0.6
2024-12-29T2200,3375A,102.8017,24.8336,昆明市,青年创业园,,23,23,28,14,19,57,,79,74,13,14,7,9,0.6,0.6
2024-12-29T2200,3550A,102.7997,24.9786,昆明市,昆明学院,,20,20,28,12,20,62,,77,74,10,13,9,9,0.5,0.7
2024-12-29T2200,3551A,102.5967,24.6736,昆明市,晋宁区生态环境分局,颗粒物(PM10),51,51,39,29,27,53,,77,71,14,13,8,3,0.6,0.7
2024-12-29T2200,3552A,102.6678,24.9856,昆明市,云天化总部,,23,14,29,9,21,73,,82,80,4,14,5,7,0.3,0.5
2024-12-29T2200,1456A,91.1319,29.6514,拉萨市,八廓街,,29,29,23,17,13,70,,95,91,32,28,7,7,0.6,0.6
2024-12-29T2200,1457A,91.1221,29.6747,拉萨市,市环保局,,37,37,32,15,19,86,,102,99,20,26,6,6,0.9,0.8
2024-12-29T2200,1458A,91.0874,29.6475,拉萨市,区监测站,,25,24,14,13,8,79,,99,94,26,21,6,6,0.4,0.3
2024-12-29T2200,1459A,91.1774,29.6541,拉萨市,西藏大学,,37,37,19,23,9,61,,99,94,41,16,8,6,1.0,0.5
2024-12-29T2200,1460A,90.9798,29.6588,拉萨市,区辐射站,,40,40,19,25,11,66,,98,85,35,18,9,7,0.9,0.6
2024-12-29T2200,1461A,91.0834,29.6292,拉萨市,拉萨火车站,,34,14,12,7,6,108,,108,107,6,14,4,4,0.4,0.4
2024-12-29T2200,2520A,109.2203,23.7256,来宾市,来宾技工学校,细颗粒物(PM2.5),119,110,91,90,77,101,,139,132,35,29,8,10,1.0,0.9
2024-12-29T2200,3535A,109.1781,23.7297,来宾市,兴宾区政府,细颗粒物(PM2.5),125,138,113,95,83,68,,142,126,43,27,9,10,1.2,1.1
2024-12-29T2200,4002A,109.2416,23.7461,来宾市,中南小学,细颗粒物(PM2.5),110,97,96,83,78,89,,130,118,42,30,10,11,1.2,1.1
2024-12-29T2200,1476A,103.631,36.1031,兰州市,兰炼宾馆,细颗粒物(PM2.5),77,90,102,56,65,10,,57,40,99,76,25,28,1.3,1.3
2024-12-29T2200,1478A,103.8412,36.0726,兰州市,生物制品所,细颗粒物(PM2.5),75,83,95,55,62,4,,30,22,84,80,17,21,1.0,1.2
2024-12-29T2200,1479A,103.831,36.0464,兰州市,铁路设计院,细颗粒物(PM2.5),88,113,113,65,71,4,,25,15,111,91,19,19,1.7,1.5
2024-12-29T2200,3186A,103.7158,36.1058,兰州市,教育港,细颗粒物(PM2.5),80,98,98,59,61,1,,49,29,91,74,20,23,1.3,1.2
2024-12-29T2200,3241A,103.7439,36.0842,兰州市,百合公园,细颗粒物(PM2.5),85,106,90,63,57,6,,46,31,97,73,23,21,1.8,1.5
2024-12-29T2200,3242A,103.9611,35.998,兰州市,和平,细颗粒物(PM2.5),110,119,115,83,75,9,,44,31,89,61,23,34,1.7,1.7
2024-12-29T2200,3245A,103.6633,36.533,兰州新区,新区管委会,细颗粒物(PM2.5),92,92,52,68,35,9,,82,55,67,30,19,18,1.0,0.5
2024-12-29T2200,3246A,103.6975,36.4789,兰州新区,舟曲中学,颗粒物(PM10),61,72,57,34,30,30,,76,56,46,29,14,20,0.8,0.6
2024-12-29T2200,1067A,116.6708,39.5111,廊坊市,药材公司,细颗粒物(PM2.5),99,117,118,74,76,6,,21,14,81,66,7,9,1.0,0.9
2024-12-29T2200,1068A,116.7214,39.5589,廊坊市,开发区,细颗粒物(PM2.5),119,141,112,90,68,6,,18,12,84,74,10,10,1.2,1
2024-12-29T2200,1070A,116.7244,39.5269,廊坊市,北华航天学院,细颗粒物(PM2.5),92,110,119,68,71,10,,25,18,82,64,13,12,1.2,1
2024-12-29T2200,2919A,116.7022,39.5453,廊坊市,河北工业大学,细颗粒物(PM2.5),95,121,114,71,69,10,,24,17,88,70,10,11,1.1,0.9
2024-12-29T2200,2535A,103.7723,29.5462,乐山市,花湖湾,细颗粒物(PM2.5),95,90,101,71,84,35,,49,47,26,31,4,4,0.5,0.6
2024-12-29T2200,2536A,103.7627,29.5844,乐山市,牛耳桥,细颗粒物(PM2.5),93,92,101,69,80,33,,43,43,38,38,4,5,0.7,0.7
2024-12-29T2200,2537A,103.7508,29.6006,乐山市,市第三水厂,细颗粒物(PM2.5),94,92,101,70,80,32,,45,45,41,39,4,4,0.9,1
2024-12-29T2200,2538A,103.7571,29.5664,乐山市,市监测站,细颗粒物(PM2.5),87,83,96,64,74,35,,45,44,25,33,4,4,0.7,0.8
2024-12-29T2200,3361A,103.7311,29.5628,乐山市,理工大学,细颗粒物(PM2.5),92,84,99,68,80,25,,38,36,32,34,6,6,0.7,0.8
2024-12-29T2200,2598A,100.2143,26.8576,丽江市,西南郊,,30,30,31,9,15,93,,95,95,2,8,4,6,0.5,0.7
2024-12-29T2200,2599A,100.2497,26.8802,丽江市,丽江古城,,24,23,25,13,15,76,,90,88,15,10,9,9,0.4,0.4
2024-12-29T2200,2600A,100.2203,26.8906,丽江市,市中心,,25,,13,3,11,78,,88,86,11,9,10,6,0.4,0.4
2024-12-29T2200,1267A,119.914,28.4514,丽水市,监测站大楼,颗粒物(PM10),68,86,54,40,36,37,,80,71,45,36,4,4,0.5,0.4
2024-12-29T2200,1268A,119.93,28.4586,丽水市,莲都小学,颗粒物(PM10),54,57,49,33,30,33,,87,77,60,35,6,6,0.6,0.5
2024-12-29T2200,1269A,119.879,28.4231,丽水市,余庄前,颗粒物(PM10),55,60,51,38,37,59,,80,77,32,36,5,5,0.4,0.5
2024-12-29T2200,1173A,119.176,34.5885,连云港市,市环境监测站,细颗粒物(PM2.5),70,70,89,51,52,68,,73,71,28,41,10,10,0.9,0.9
2024-12-29T2200,3000A,119.3581,34.6972,连云港市,德源药业,"颗粒物(PM10),细颗粒物(PM2.5)",62,73,90,44,47,68,,77,73,25,42,8,8,0.4,0.4
2024-12-29T2200,3007A,119.178,34.844,连云港市,新城一中,细颗粒物(PM2.5),74,84,104,54,67,46,,72,67,44,52,10,12,0.6,0.7
2024-12-29T2200,3008A,119.3608,34.7519,连云港市,胡沟管理处,,48,48,74,27,35,74,,74,74,19,26,4,6,0.6,0.7
2024-12-29T2200,3009A,119.1478,34.5911,连云港市,矿山设计院,颗粒物(PM10),60,70,87,41,45,68,,82,80,27,32,7,8,0.5,0.6
2024-12-29T2200,3434A,119.2413,34.6539,连云港市,工贸学校,细颗粒物(PM2.5),70,77,81,51,49,71,,79,78,26,28,11,12,0.5,0.5
2024-12-29T2200,3664A,119.4172,34.7341,连云港市,连云街道,颗粒物(PM10),71,92,65,31,28,84,,83,83,13,15,6,8,0.6,0.5
2024-12-29T2200,2571A,102.3431,27.8099,凉山彝族自治州,青龙寺,颗粒物(PM10),53,56,57,20,23,64,,111,102,14,12,6,6,0.9,1
2024-12-29T2200,2572A,102.2721,27.8415,凉山彝族自治州,邛海宾馆,,,,69,,54,64,,101,95,24,17,16,14,1.6,1
2024-12-29T2200,2573A,102.2625,27.898,凉山彝族自治州,西昌市政府,,34,34,53,21,42,71,,95,93,16,20,17,12,1.2,1.1
2024-12-29T2200,2574A,102.2685,27.8851,凉山彝族自治州,凉山州政府,,49,45,59,34,47,70,,97,93,16,21,14,12,1.0,1
2024-12-29T2200,2575A,102.237,27.8914,凉山彝族自治州,长安,,28,26,60,16,43,88,,100,99,8,25,12,12,0.6,0.8
2024-12-29T2200,2212A,123.2,41.1953,辽阳市,宏伟区,,45,39,57,31,32,56,,59,56,8,18,10,14,0.5,0.8
2024-12-29T2200,2213A,123.1683,41.2495,辽阳市,新华园,细颗粒物(PM2.5),52,41,75,36,50,52,,57,54,18,38,14,32,0.8,1.2
2024-12-29T2200,2214A,123.2354,41.2639,辽阳市,滨河路,,45,41,56,31,38,57,,63,59,19,31,8,22,0.8,1
2024-12-29T2200,2215A,123.149,41.2991,辽阳市,铁西工业园,颗粒物(PM10),54,57,100,36,58,61,,66,63,16,32,8,13,0.7,1.5
2024-12-29T2200,2227A,125.1358,42.8845,辽源市,环保局,,32,32,52,18,32,61,,61,59,16,28,12,11,0.7,1
2024-12-29T2200,3239A,125.0764,42.9078,辽源市,银鹰制药,,33,33,50,17,35,59,,51,49,15,33,11,11,0.7,0.9
2024-12-29T2200,1625A,115.9848,36.4372,聊城市,区政府,细颗粒物(PM2.5),99,128,106,74,49,63,,72,70,32,36,13,14,0.8,0.8
2024-12-29T2200,2878A,116.0072,36.4343,聊城市,聊大东校,细颗粒物(PM2.5),104,149,124,78,59,59,,70,67,34,40,10,12,1.0,0.9
2024-12-29T2200,3200A,115.9819,36.4978,聊城市,监控中心,细颗粒物(PM2.5),107,136,113,80,50,68,,69,68,32,38,11,11,0.9,0.9
2024-12-29T2200,3513A,116.0445,36.4361,聊城市,九州社区,细颗粒物(PM2.5),93,132,115,69,53,51,,70,65,35,34,8,11,0.7,0.6
2024-12-29T2200,4018A,116.0567,36.4608,聊城市,星美广场,细颗粒物(PM2.5),97,120,105,72,50,63,,78,75,29,31,11,12,0.9,0.8
2024-12-29T2200,2632A,94.3681,29.6376,林芝市,林芝监测站,,31,22,23,7,8,99,,98,98,1,7,7,6,0.3,0.3
2024-12-29T2200,2633A,94.3616,29.6616,林芝市,林芝人民医院,,29,18,25,8,9,92,,94,94,1,5,5,5,0.2,0.2
2024-12-29T2200,2603A,100.0781,23.8982,临沧市,市环保局,细颗粒物(PM2.5),58,56,28,41,24,25,,75,64,30,14,6,6,0.8,0.5
2024-12-29T2200,2604A,100.0894,23.8822,临沧市,市气象局,细颗粒物(PM2.5),59,52,34,42,26,28,,70,60,26,17,8,7,0.9,0.6
2024-12-29T2200,1733A,111.5531,36.0783,临汾市,临钢医院,细颗粒物(PM2.5),128,186,99,97,56,3,,43,30,72,43,16,11,2.5,1.6
2024-12-29T2200,1734A,111.5028,36.0714,临汾市,技工学校,细颗粒物(PM2.5),137,158,105,104,66,17,,41,32,62,46,20,14,2.1,1.5
2024-12-29T2200,1736A,111.5018,36.0855,临汾市,市委,细颗粒物(PM2.5),127,172,111,96,60,18,,42,32,69,50,19,13,2.1,1.5
2024-12-29T2200,3018A,111.505,36.1014,临汾市,唐尧大酒店,细颗粒物(PM2.5),134,138,100,102,62,6,,39,28,75,47,23,16,2.2,1.5
2024-12-29T2200,3668A,111.5036,36.0414,临汾市,城南,细颗粒物(PM2.5),140,167,107,107,64,4,,42,28,75,48,15,11,2.1,1.4
2024-12-29T2200,2667A,103.2069,35.5993,临夏回族自治州,环保局,细颗粒物(PM2.5),105,101,117,79,78,40,,63,59,33,38,16,18,1.4,1.7
2024-12-29T2200,2668A,103.2417,35.6057,临夏回族自治州,建设大厦,细颗粒物(PM2.5),134,148,119,102,79,13,,65,53,67,35,18,17,1.8,1.6
2024-12-29T2200,1618A,118.3429,35.0532,临沂市,沂河小区,细颗粒物(PM2.5),84,95,99,62,60,48,,65,60,45,51,21,28,0.6,0.8
2024-12-29T2200,1619A,118.295,35.0583,临沂市,鲁南制药厂,细颗粒物(PM2.5),83,110,103,61,59,25,,69,60,67,52,30,29,0.8,0.8
2024-12-29T2200,1620A,118.2794,34.9976,临沂市,新光毛纺厂,细颗粒物(PM2.5),94,112,106,70,63,32,,63,54,59,52,24,27,0.7,0.8
2024-12-29T2200,1621A,118.3956,35.0888,临沂市,河东保险公司,细颗粒物(PM2.5),77,78,86,56,52,62,,72,69,29,39,13,15,0.6,0.7
2024-12-29T2200,3370A,118.3564,35.0215,临沂市,十里堡居委,细颗粒物(PM2.5),92,110,110,68,68,36,,64,55,50,47,31,30,0.9,1
2024-12-29T2200,3496A,118.3604,35.1084,临沂市,南坊新区,细颗粒物(PM2.5),77,78,85,56,48,56,,70,68,41,48,12,15,0.8,0.9
2024-12-29T2200,3860A,118.3920,35.0300,临沂市,皇山花园小区,细颗粒物(PM2.5),74,95,105,54,57,42,,66,60,50,54,20,22,0.7,0.8
2024-12-29T2200,1870A,109.4856,24.3895,柳州市,柳东小学,细颗粒物(PM2.5),94,118,86,70,60,57,,133,120,62,26,15,16,0.8,0.6
2024-12-29T2200,1871A,109.4157,24.3277,柳州市,环保监测站,细颗粒物(PM2.5),105,137,100,79,60,26,,132,107,99,30,11,14,1.4,1
2024-12-29T2200,1872A,109.389,24.341,柳州市,河西水厂,细颗粒物(PM2.5),137,169,104,104,62,17,,132,106,97,31,10,12,1.5,1
2024-12-29T2200,1873A,109.4311,24.2921,柳州市,市四中,颗粒物(PM10),119,187,86,87,66,20,,134,97,101,37,10,13,2.1,0.9
2024-12-29T2200,1874A,109.4006,24.3631,柳州市,市九中,细颗粒物(PM2.5),98,102,85,73,66,79,,133,121,42,25,11,11,1.0,0.9
2024-12-29T2200,1875A,109.4958,24.3134,柳州市,古亭山,颗粒物(PM10),71,92,71,50,54,47,,129,107,85,31,13,15,1.0,0.9
2024-12-29T2200,3402A,109.5422,24.3996,柳州市,市二中,细颗粒物(PM2.5),117,128,78,88,60,20,,118,87,91,35,10,13,1.1,0.7
2024-12-29T2200,2307A,116.5079,31.737,六安市,监测大楼,细颗粒物(PM2.5),82,75,51,60,35,71,,81,78,31,29,8,7,0.7,0.6
2024-12-29T2200,2308A,116.4738,31.7643,六安市,皖西学院,细颗粒物(PM2.5),84,92,60,62,34,70,,82,80,36,39,8,5,0.9,0.8
2024-12-29T2200,2309A,116.4996,31.7905,六安市,朝阳厂,细颗粒物(PM2.5),79,78,48,58,33,68,,81,78,34,35,4,3,1.0,0.8
2024-12-29T2200,2310A,116.5567,31.7886,六安市,开发区,细颗粒物(PM2.5),103,133,84,77,44,53,,71,64,40,41,3,3,0.7,0.6
2024-12-29T2200,2577A,104.83,26.5917,六盘水市,黄土坡,,,47,37,47,32,38,,62,44,20,17,15,9,,0.8
2024-12-29T2200,2578A,104.89,26.5939,六盘水市,水钢,,49,43,38,34,29,41,,66,48,15,13,4,5,0.9,0.9
2024-12-29T2200,2579A,104.8475,26.5894,六盘水市,民中,,42,41,35,29,31,33,,63,44,26,17,11,8,0.9,0.8
2024-12-29T2200,2580A,104.9544,26.5506,六盘水市,双水,细颗粒物(PM2.5),52,36,32,36,21,37,,71,50,22,12,10,7,0.8,0.7
2024-12-29T2200,2336A,117.0217,25.1033,龙岩市,龙岩市监测站,"颗粒物(PM10),细颗粒物(PM2.5)",59,68,57,42,43,32,,106,78,54,27,5,9,0.9,0.8
2024-12-29T2200,2337A,117.0258,25.0661,龙岩市,闽西职业技术学院,颗粒物(PM10),57,63,68,37,42,21,,103,70,62,36,25,16,0.7,0.8
2024-12-29T2200,2338A,117.0196,25.0306,龙岩市,龙岩学院,,50,49,55,35,40,51,,100,86,22,22,15,11,0.5,0.5
2024-12-29T2200,2885A,104.9339,33.3826,陇南市,滨江中学,细颗粒物(PM2.5),89,95,81,66,45,28,,64,46,55,45,33,23,1.7,1.4
2024-12-29T2200,3247A,104.955,33.371,陇南市,市总工会,颗粒物(PM10),59,68,72,37,40,66,,76,73,19,30,7,11,0.5,0.6
2024-12-29T2200,2487A,111.9589,27.8901,娄底市,电视发射台,细颗粒物(PM2.5),123,,67,93,65,78,,99,92,28,24,14,11,1.3,0.9
2024-12-29T2200,2488A,111.9975,27.725,娄底市,市监测站,细颗粒物(PM2.5),163,178,126,124,86,14,,97,77,96,45,17,21,1.7,1.3
2024-12-29T2200,2489A,112.0194,27.7314,娄底市,市委党校,细颗粒物(PM2.5),142,160,115,108,76,15,,84,64,94,51,10,10,2.0,1
2024-12-29T2200,2490A,111.9561,27.7569,娄底市,涟钢,细颗粒物(PM2.5),156,155,129,119,89,66,,90,84,29,30,12,14,1.8,1.5
2024-12-29T2200,2491A,111.9892,27.7044,娄底市,市政府,细颗粒物(PM2.5),140,159,111,107,82,17,,103,72,70,37,7,8,1.2,0.9
2024-12-29T2200,1894A,105.4427,28.9063,泸州市,小市上码头,细颗粒物(PM2.5),80,74,102,59,78,45,,37,31,21,27,2,2,0.7,0.7
2024-12-29T2200,1895A,105.4241,28.8573,泸州市,兰田宪桥,,,64,98,60,79,48,,45,38,,23,2,3,,0.7
2024-12-29T2200,1896A,105.4379,28.8833,泸州市,市环监站,细颗粒物(PM2.5),80,76,101,59,78,44,,35,29,20,27,3,4,0.6,0.6
2024-12-29T2200,3490A,105.3617,28.7703,泸州市,纳溪区环保局,,,60,100,56,76,51,,47,44,,20,4,6,0.6,0.7
2024-12-29T2200,2183A,111.1406,37.5211,吕梁市,环保局,颗粒物(PM10),91,132,79,39,24,2,,32,18,61,50,5,5,0.7,0.7
2024-12-29T2200,2185A,111.1297,37.5136,吕梁市,自来水公司,,,148,102,35,29,6,,41,30,,40,8,10,0.8,0.7
2024-12-29T2200,2867A,111.1283,37.51,吕梁市,马茂庄小学,颗粒物(PM10),90,129,90,42,26,2,,31,16,67,53,6,9,0.8,0.7
2024-12-29T2200,1812A,112.3931,34.6516,洛阳市,市委党校,颗粒物(PM10),67,84,64,41,30,48,,71,65,38,36,6,6,0.5,0.5
2024-12-29T2200,1814A,112.4657,34.6871,洛阳市,豫西宾馆,细颗粒物(PM2.5),73,93,87,53,42,47,,70,66,38,42,7,10,0.8,0.9
2024-12-29T2200,1815A,112.494,34.6886,洛阳市,河南林校,细颗粒物(PM2.5),95,81,64,71,48,43,,64,60,34,31,2,4,0.6,0.6
2024-12-29T2200,1816A,112.3844,34.623,洛阳市,开发区管委会,细颗粒物(PM2.5),87,95,62,64,43,45,,74,66,32,23,6,5,0.6,0.6
2024-12-29T2200,1817A,112.4267,34.6258,洛阳市,市委新办公区,细颗粒物(PM2.5),84,92,62,62,45,51,,79,72,33,24,6,4,0.5,0.5
2024-12-29T2200,3340A,112.6005,34.6326,洛阳市,伊滨,细颗粒物(PM2.5),72,92,77,52,38,47,,72,68,33,29,5,5,0.3,0.3
2024-12-29T2200,3341A,112.4951,34.6332,洛阳市,中移产业园,颗粒物(PM10),63,75,52,40,26,54,,79,75,32,23,5,5,0.6,0.4
2024-12-29T2200,3593A,112.5736,34.8993,洛阳市,吉利监测站,"颗粒物(PM10),细颗粒物(PM2.5)",54,58,44,38,29,61,,67,66,22,29,7,6,0.4,0.4
2024-12-29T2200,3635A,112.3677,34.662,洛阳市,河科大西苑校区,细颗粒物(PM2.5),77,94,75,56,42,52,,76,69,32,33,8,10,0.6,0.6
2024-12-29T2200,3636A,112.4388,34.6781,洛阳市,英才小学,细颗粒物(PM2.5),75,92,75,55,42,45,,67,63,34,42,5,9,0.5,0.6
2024-12-29T2200,2399A,114.051,33.5699,漯河市,三五一五工厂,细颗粒物(PM2.5),137,137,101,104,72,77,,97,92,29,43,10,10,0.7,0.6
2024-12-29T2200,2400A,114.0055,33.5698,漯河市,漯河大学,细颗粒物(PM2.5),138,142,95,105,68,74,,101,92,30,42,9,9,0.7,0.6
2024-12-29T2200,2401A,114.0138,33.5828,漯河市,市水利局,细颗粒物(PM2.5),128,132,95,97,64,87,,98,92,24,37,10,10,0.9,0.9
2024-12-29T2200,2402A,114.0261,33.5698,漯河市,市广电局,细颗粒物(PM2.5),143,137,95,109,60,81,,99,94,25,40,10,9,0.6,0.5
2024-12-29T2200,3478A,113.9749,33.5664,漯河市,市图书馆,细颗粒物(PM2.5),160,159,102,122,67,82,,99,93,28,42,8,9,0.7,0.7
2024-12-29T2200,3479A,114.0967,33.5906,漯河市,召陵区卫健委,细颗粒物(PM2.5),145,155,98,111,66,68,,97,88,45,47,10,9,0.9,0.7
2024-12-29T2200,1798A,118.5092,31.6837,马鞍山市,湖东路四小,颗粒物(PM10),59,67,89,35,39,50,,81,69,44,50,12,4,0.6,0.8
2024-12-29T2200,1799A,118.5024,31.6449,马鞍山市,开发区,颗粒物(PM10),71,92,104,47,60,7,,78,57,74,46,8,8,0.9,0.9
2024-12-29T2200,1800A,118.5228,31.7231,马鞍山市,慈湖,细颗粒物(PM2.5),65,60,87,47,59,42,,76,64,52,52,12,7,0.7,1
2024-12-29T2200,1802A,118.6245,31.7241,马鞍山市,濮塘,颗粒物(PM10),54,57,75,37,50,77,,92,90,21,33,10,9,0.3,0.5
2024-12-29T2200,3633A,118.4918,31.6809,马鞍山市,雨山,"颗粒物(PM10),细颗粒物(PM2.5)",58,65,91,41,51,42,,76,66,50,49,12,7,1.0,1.2
2024-12-29T2200,1686A,111.0286,21.4688,茂名市,电白南海,颗粒物(PM10),64,78,83,41,50,145,,150,150,24,26,6,10,1.0,1.1
2024-12-29T2200,1687A,110.9294,21.6533,茂名市,茂石化七小,细颗粒物(PM2.5),77,92,84,56,58,123,,134,132,21,19,10,13,0.8,0.8
2024-12-29T2200,1688A,110.9107,21.6687,茂名市,健康路,细颗粒物(PM2.5),79,85,86,58,58,133,,145,142,26,24,13,21,0.9,1
2024-12-29T2200,1689A,110.8592,21.6828,茂名市,高岭,细颗粒物(PM2.5),73,83,97,53,62,120,,136,127,30,34,15,22,0.9,1
2024-12-29T2200,3450A,111.01,21.5165,茂名市,电白水东,细颗粒物(PM2.5),67,78,82,48,54,141,,141,141,16,21,8,14,0.7,0.7
2024-12-29T2200,2539A,104.0308,30.0478,眉山市,黑龙滩水库,细颗粒物(PM2.5),95,87,62,71,50,28,,48,48,32,23,2,2,0.8,0.6
2024-12-29T2200,2540A,103.8416,30.0874,眉山市,气象局,细颗粒物(PM2.5),119,,88,90,73,32,,40,35,36,39,4,4,0.8,0.8
2024-12-29T2200,3137A,103.8578,30.0744,眉山市,市委党校,细颗粒物(PM2.5),100,97,97,75,66,41,,41,35,34,44,4,5,0.5,0.5
2024-12-29T2200,3148A,103.8291,30.0564,眉山市,区人社局,,,99,85,73,71,,,42,36,31,46,6,6,0.7,0.6
2024-12-29T2200,1690A,116.1231,24.3284,梅州市,梅江月梅,细颗粒物(PM2.5),67,62,65,48,49,20,,110,88,66,34,8,10,0.7,0.6
2024-12-29T2200,1691A,116.0797,24.2719,梅州市,梅县新城,细颗粒物(PM2.5),80,91,68,59,49,6,,101,64,79,49,5,6,0.9,0.8
2024-12-29T2200,1692A,116.1248,24.2654,梅州市,环境监控中心,细颗粒物(PM2.5),70,83,61,51,47,10,,100,78,77,36,7,7,0.9,0.7
2024-12-29T2200,3315A,116.1233,24.2991,梅州市,梅龙,细颗粒物(PM2.5),67,75,67,48,44,44,,99,81,40,29,6,8,0.9,0.8
2024-12-29T2200,1878A,104.7778,31.4741,绵阳市,富乐山,,,88,76,63,55,6,,51,32,78,56,,3,0.9,0.8
2024-12-29T2200,1879A,104.7563,31.4535,绵阳市,市人大,细颗粒物(PM2.5),74,91,93,54,53,5,,34,28,88,61,4,6,0.8,0.8
2024-12-29T2200,1880A,104.6697,31.4668,绵阳市,高新区自来水公司,细颗粒物(PM2.5),98,122,102,73,60,3,,28,24,65,55,4,4,1.1,1
2024-12-29T2200,1881A,104.7287,31.5075,绵阳市,三水厂,细颗粒物(PM2.5),93,103,95,69,61,7,,35,28,64,51,5,6,1.0,0.9
2024-12-29T2200,3491A,104.69,31.5322,绵阳市,西科大附属小学,细颗粒物(PM2.5),104,118,96,78,63,25,,37,33,41,43,5,5,0.7,0.8
2024-12-29T2200,3492A,104.5648,31.5343,绵阳市,安州区旅游局,细颗粒物(PM2.5),107,131,89,80,63,9,,65,40,58,34,8,8,1.1,0.9
2024-12-29T2200,1784A,129.61,44.561,牡丹江市,环保大楼,细颗粒物(PM2.5),80,69,46,59,31,8,,44,22,51,28,12,9,1.1,0.6
2024-12-29T2200,1785A,129.6115,44.5782,牡丹江市,文化广场,细颗粒物(PM2.5),92,121,58,68,38,13,,45,23,52,32,20,12,1.4,1
2024-12-29T2200,1786A,129.5904,44.5963,牡丹江市,第一医院,细颗粒物(PM2.5),80,65,58,59,45,23,,44,29,32,28,13,9,1.1,0.9
2024-12-29T2200,1787A,129.6364,44.6075,牡丹江市,机车工厂,颗粒物(PM10),71,92,74,48,39,11,,46,24,45,32,12,12,1.2,0.8
2024-12-29T2200,1788A,129.6386,44.5462,牡丹江市,第一中学,细颗粒物(PM2.5),99,81,46,74,35,3,,46,15,45,28,9,6,1.3,0.6
2024-12-29T2200,2531A,105.0703,29.61,内江市,市监测站,细颗粒物(PM2.5),104,,72,78,74,38,,53,51,33,25,5,5,0.8,0.7
2024-12-29T2200,2532A,105.0717,29.5947,内江市,东兴区政府,细颗粒物(PM2.5),103,91,70,77,68,35,,51,49,35,28,3,4,0.8,0.7
2024-12-29T2200,2533A,105.0653,29.5817,内江市,内江二中,细颗粒物(PM2.5),109,93,82,82,73,31,,52,47,36,29,8,8,0.8,0.8
2024-12-29T2200,2534A,105.0406,29.5822,内江市,内江日报社,细颗粒物(PM2.5),105,95,80,79,71,25,,53,45,36,29,8,8,0.8,0.8
2024-12-29T2200,2628A,92.0657,31.4846,那曲市,那曲监测站,,38,38,29,25,12,73,,96,88,14,8,5,7,0.5,0.4
2024-12-29T2200,3128A,92.0506,31.4797,那曲市,那曲会议中心,,27,13,24,3,5,86,,100,97,2,3,2,2,0.4,0.4
2024-12-29T2200,1290A,115.8931,28.6843,南昌市,省外办,细颗粒物(PM2.5),119,136,105,90,72,16,,76,66,91,61,6,9,1.1,1
2024-12-29T2200,1291A,115.8886,28.7003,南昌市,省林业公司,细颗粒物(PM2.5),107,124,108,80,63,6,,79,61,104,59,9,10,0.9,0.7
2024-12-29T2200,1292A,115.8126,28.7442,南昌市,林科所,细颗粒物(PM2.5),94,97,87,70,53,25,,78,64,94,53,8,5,0.6,0.7
2024-12-29T2200,1294A,115.8518,28.687,南昌市,建工学校,颗粒物(PM10),107,164,103,79,57,10,,78,64,105,61,11,12,1.4,0.9
2024-12-29T2200,1295A,115.8921,28.6424,南昌市,象湖,,,104,104,69,69,22,,87,76,,57,7,10,0.8,0.8
2024-12-29T2200,1296A,115.7423,28.7996,南昌市,武术学校,细颗粒物(PM2.5),83,,49,61,38,32,,59,47,25,22,1,3,0.8,0.7
2024-12-29T2200,1298A,115.9314,28.6842,南昌市,省站,细颗粒物(PM2.5),128,157,118,97,68,15,,80,69,69,47,10,11,0.9,0.6
2024-12-29T2200,3046A,115.9084,28.6062,南昌市,机电学校,细颗粒物(PM2.5),104,136,134,78,75,33,,80,70,75,60,13,14,0.7,0.7
2024-12-29T2200,3690A,115.9721,28.7031,南昌市,外国语学校,细颗粒物(PM2.5),97,107,105,72,57,4,,89,65,94,50,8,10,0.9,0.7
2024-12-29T2200,1905A,106.056,30.8064,南充市,西山风景区,细颗粒物(PM2.5),84,75,68,62,59,51,,54,54,13,14,2,2,0.7,0.6
2024-12-29T2200,1906A,106.0789,30.8023,南充市,南充市委,细颗粒物(PM2.5),152,145,101,116,78,5,,34,25,56,37,4,3,1.0,0.7
2024-12-29T2200,1907A,106.1031,30.8217,南充市,南充炼油厂,细颗粒物(PM2.5),137,122,112,104,89,3,,33,24,67,43,4,4,1.0,0.7
2024-12-29T2200,1908A,106.1064,30.7856,南充市,高坪区监测站,细颗粒物(PM2.5),127,144,120,96,86,2,,20,,65,45,3,2,0.8,0.8
2024-12-29T2200,1909A,106.0642,30.7636,南充市,嘉陵区环保局,细颗粒物(PM2.5),125,127,99,95,73,7,,36,26,54,44,4,4,0.7,0.7
2024-12-29T2200,1910A,106.1087,30.8388,南充市,市环境监测站,细颗粒物(PM2.5),100,101,106,75,73,25,,40,31,43,34,6,5,0.8,0.7
2024-12-29T2200,1151A,118.8086,32.1065,南京市,迈皋桥,"颗粒物(PM10),细颗粒物(PM2.5)",52,54,69,36,40,47,,66,55,52,59,5,7,0.5,0.8
2024-12-29T2200,1152A,118.7538,32.0551,南京市,草场门,颗粒物(PM10),60,70,78,36,40,28,,64,54,53,58,7,7,0.7,0.5
2024-12-29T2200,1153A,118.7794,32.0745,南京市,山西路,颗粒物(PM10),64,78,84,39,41,54,,76,72,49,55,4,4,0.6,0.8
2024-12-29T2200,1154A,118.7752,32.0023,南京市,中华门,"颗粒物(PM10),细颗粒物(PM2.5)",58,66,73,41,41,12,,60,39,37,33,6,10,0.9,0.9
2024-12-29T2200,1155A,118.8109,32.0309,南京市,瑞金路,颗粒物(PM10),62,73,82,41,45,28,,61,47,61,54,8,7,1.1,1.2
2024-12-29T2200,1156A,118.7997,32.0754,南京市,玄武湖,颗粒物(PM10),53,55,80,34,40,27,,68,60,52,48,9,9,0.4,0.5
2024-12-29T2200,1157A,118.6414,32.0931,南京市,浦口,颗粒物(PM10),58,66,77,32,35,43,,54,52,27,28,7,12,0.6,0.8
2024-12-29T2200,1158A,118.7356,31.9996,南京市,奥体中心,颗粒物(PM10),59,68,83,39,44,38,,78,68,62,60,9,10,0.6,0.8
2024-12-29T2200,1159A,118.9125,32.1028,南京市,仙林大学城,细颗粒物(PM2.5),64,75,83,46,46,37,,64,57,50,54,9,8,0.4,0.5
2024-12-29T2200,3422A,118.8436,31.9198,南京市,江宁彩虹桥,颗粒物(PM10),55,60,84,36,41,22,,66,57,61,49,8,9,0.4,0.5
2024-12-29T2200,3423A,119.0138,31.6494,南京市,溧水永阳,细颗粒物(PM2.5),63,70,67,45,44,22,,77,53,56,35,4,4,0.7,0.6
2024-12-29T2200,3424A,118.879,31.3302,南京市,高淳老职中,细颗粒物(PM2.5),77,74,60,56,46,35,,88,74,46,28,8,6,0.3,0.3
2024-12-29T2200,3427A,118.8554,32.3578,南京市,六合雄州,颗粒物(PM10),59,68,93,37,48,32,,55,43,35,41,6,8,0.5,0.7
2024-12-29T2200,1401A,108.3103,22.7881,南宁市,二十一中,细颗粒物(PM2.5),103,91,80,77,69,134,,147,146,39,28,12,11,0.9,0.8
2024-12-29T2200,1402A,108.3141,22.8528,南宁市,北湖,细颗粒物(PM2.5),114,100,84,86,66,113,,138,132,50,36,9,13,1.1,0.9
2024-12-29T2200,1403A,108.3206,22.8225,南宁市,市监测站,,,88,84,65,66,,,144,144,41,32,12,15,1.0,1
2024-12-29T2200,1404A,108.3829,22.8037,南宁市,大自然花园,细颗粒物(PM2.5),95,92,79,71,69,148,,146,146,27,26,10,12,0.7,0.7
2024-12-29T2200,1405A,108.4394,22.7904,南宁市,仙葫,细颗粒物(PM2.5),97,84,76,72,70,133,,135,135,29,24,8,9,0.9,0.9
2024-12-29T2200,1406A,108.2397,22.8467,南宁市,区农职院,细颗粒物(PM2.5),80,83,93,59,65,130,,142,139,39,34,10,14,0.8,0.8
2024-12-29T2200,1407A,108.3275,22.735,南宁市,英华嘉园,细颗粒物(PM2.5),142,111,87,108,68,56,,129,111,98,36,13,12,0.9,0.8
2024-12-29T2200,1408A,108.2257,22.7757,南宁市,沙井镇街道办,细颗粒物(PM2.5),92,111,100,68,73,86,,129,107,75,55,10,13,1.0,0.9
2024-12-29T2200,3401A,108.4834,22.7618,南宁市,红星社区,细颗粒物(PM2.5),110,113,87,83,74,109,,140,132,44,31,12,13,1.0,0.8
2024-12-29T2200,2332A,118.1681,26.6369,南平市,南平市监测站,,43,39,51,30,40,22,,95,66,54,35,5,5,0.6,0.6
2024-12-29T2200,2333A,118.1825,26.6489,南平市,南平铝业有限公司,,39,39,50,24,34,13,,93,62,59,33,5,6,0.7,0.7
2024-12-29T2200,2334A,118.1756,26.6272,南平市,南平七中,,43,41,49,30,38,36,,92,65,28,20,4,3,0.6,0.6
2024-12-29T2200,1168A,120.9098,31.9663,南通市,狼山街道,细颗粒物(PM2.5),90,91,74,67,48,3,,55,27,88,49,6,6,1.0,1.1
2024-12-29T2200,1169A,120.86,32.0005,南通市,虹桥,细颗粒物(PM2.5),72,72,78,52,51,30,,50,32,66,60,9,10,0.5,0.8
2024-12-29T2200,1170A,120.87,32.02,南通市,城中,颗粒物(PM10),72,93,93,51,47,19,,54,32,85,67,9,10,0.7,0.9
2024-12-29T2200,1171A,120.94,31.93,南通市,星湖花园,细颗粒物(PM2.5),77,92,77,56,45,2,,54,28,102,61,9,7,0.7,0.8
2024-12-29T2200,1172A,120.81,32.0417,南通市,紫琅学院,,,86,81,49,46,,,49,30,82,65,7,6,0.8,0.8
2024-12-29T2200,3291A,121.067,32.062,南通市,通州监测站,细颗粒物(PM2.5),92,110,93,68,54,19,,62,41,78,59,6,6,1.0,1
2024-12-29T2200,3432A,120.9348,31.9883,南通市,环境教育馆,细颗粒物(PM2.5),103,127,90,77,46,5,,64,31,96,61,9,8,0.9,0.7
2024-12-29T2200,2404A,112.5224,33.0122,南阳市,瓦房庄,细颗粒物(PM2.5),156,158,125,119,87,26,,79,59,69,42,14,11,1.1,0.8
2024-12-29T2200,2405A,112.5003,32.9735,南阳市,汉画馆,细颗粒物(PM2.5),140,146,114,107,77,18,,78,53,73,46,9,9,0.8,0.6
2024-12-29T2200,2406A,112.5573,33.027,南阳市,气象站,细颗粒物(PM2.5),132,162,130,100,75,23,,86,69,74,44,11,10,1.1,0.7
2024-12-29T2200,2407A,112.5481,32.9689,南阳市,理工学院,细颗粒物(PM2.5),137,133,105,104,76,39,,82,65,61,46,14,10,0.9,0.8
2024-12-29T2200,4008A,112.5234,32.9922,南阳市,卧龙区政府,细颗粒物(PM2.5),128,143,116,97,74,35,,77,57,62,44,11,8,1.1,0.9
2024-12-29T2200,1234A,121.8358,29.911,宁波市,区环保大楼,颗粒物(PM10),51,51,66,32,34,38,,48,47,56,55,7,9,0.6,0.7
2024-12-29T2200,1235A,121.56,29.82,宁波市,万里学院,细颗粒物(PM2.5),59,66,67,42,41,33,,73,64,62,46,6,6,0.6,0.7
2024-12-29T2200,1236A,121.713,29.9572,宁波市,龙赛医院,颗粒物(PM10),51,51,88,27,38,58,,51,51,31,54,8,11,0.6,0.7
2024-12-29T2200,1239A,121.633,29.7733,宁波市,钱湖水厂,,45,45,69,30,41,62,,75,71,20,33,5,6,0.5,0.5
2024-12-29T2200,1240A,121.5856,29.8635,宁波市,太古小学,颗粒物(PM10),56,62,68,36,37,44,,68,60,51,48,8,9,0.9,0.8
2024-12-29T2200,1241A,121.524,29.8674,宁波市,市环境监测中心,颗粒物(PM10),55,59,62,38,35,47,,63,57,39,40,10,10,0.7,0.7
2024-12-29T2200,2871A,121.6147,29.9017,宁波市,万里国际学校,颗粒物(PM10),52,53,60,31,39,59,,63,59,33,46,7,8,0.6,0.7
2024-12-29T2200,3710A,121.5594,29.8975,宁波市,白沙活动中心,颗粒物(PM10),54,58,58,36,36,40,,64,56,53,46,9,10,0.7,0.8
2024-12-29T2200,2341A,119.5388,26.6612,宁德市,宁德市监测站,,43,41,49,30,35,70,,90,86,22,23,4,5,0.5,0.5
2024-12-29T2200,3209A,119.5231,26.6562,宁德市,宁德一中,,38,36,46,26,33,72,,92,88,20,21,4,4,0.6,0.6
2024-12-29T2200,2619A,98.8546,25.8417,怒江傈僳族自治州,泸水一中,颗粒物(PM10),52,54,37,35,25,12,,59,40,34,21,7,7,0.9,0.7
2024-12-29T2200,1888A,101.6891,26.571,攀枝花市,弄弄坪,颗粒物(PM10),64,78,68,38,44,33,,78,71,53,35,40,26,2.2,1.7
2024-12-29T2200,1889A,101.5769,26.5928,攀枝花市,河门口,细颗粒物(PM2.5),64,76,65,46,45,42,,97,91,40,29,12,17,1.6,1.6
2024-12-29T2200,1890A,101.7169,26.585,攀枝花市,炳草岗,颗粒物(PM10),65,79,77,40,50,6,,82,68,87,47,19,21,1.3,1.1
2024-12-29T2200,1891A,101.7369,26.5008,攀枝花市,仁和,"颗粒物(PM10),细颗粒物(PM2.5)",62,73,61,44,44,42,,94,81,32,27,11,19,0.9,1.3
2024-12-29T2200,2835A,101.7227,26.567,攀枝花市,四十中小,细颗粒物(PM2.5),73,78,78,53,51,16,,69,57,85,55,24,18,2.3,1.7
2024-12-29T2200,1604A,122.0303,41.1489,盘锦市,开发区,,46,46,86,30,56,47,,48,46,22,41,9,16,1.1,1.8
2024-12-29T2200,1605A,122.0485,41.0883,盘锦市,兴隆台,颗粒物(PM10),52,53,85,34,52,44,,47,46,26,45,13,29,0.8,1.6
2024-12-29T2200,1606A,121.8297,41.1028,盘锦市,新生街道,,45,45,54,24,39,46,,56,52,28,42,9,14,0.7,1.1
2024-12-29T2200,1832A,113.3257,33.742,平顶山市,新华旅馆,细颗粒物(PM2.5),114,139,102,86,64,57,,92,85,43,35,11,9,0.6,0.4
2024-12-29T2200,1833A,113.2919,33.737,平顶山市,规划设计院,细颗粒物(PM2.5),140,160,104,107,65,46,,90,80,47,39,9,7,0.7,0.5
2024-12-29T2200,1834A,113.182,33.774,平顶山市,平顶山工学院,,,,93,,52,,,88,88,29,27,12,11,0.8,0.7
2024-12-29T2200,3204A,113.3025,33.73,平顶山市,规划局,细颗粒物(PM2.5),137,139,99,104,68,54,,85,78,42,37,10,8,0.6,0.5
2024-12-29T2200,3594A,112.8867,33.9116,平顶山市,石龙区,颗粒物(PM10),76,101,130,53,48,29,,76,59,51,54,8,12,0.8,1
2024-12-29T2200,2656A,106.6692,35.5461,平凉市,聚贤嘉苑,,46,46,52,26,29,24,,95,73,58,43,15,14,0.8,0.6
2024-12-29T2200,2347A,114.0997,27.5002,萍乡市,武功山,细颗粒物(PM2.5),57,62,49,40,34,57,,98,81,17,13,15,14,1.1,0.9
2024-12-29T2200,2348A,113.8385,27.6434,萍乡市,中医院,细颗粒物(PM2.5),87,110,107,64,65,78,,101,97,26,33,20,17,1.2,1.1
2024-12-29T2200,2349A,113.8493,27.6253,萍乡市,市政府车库,细颗粒物(PM2.5),93,95,94,69,76,74,,96,92,32,30,38,18,2.0,1.4
2024-12-29T2200,2350A,113.8676,27.6435,萍乡市,市环保局,细颗粒物(PM2.5),98,104,107,73,75,73,,96,91,30,37,35,23,1.1,1.1
2024-12-29T2200,2351A,113.866,27.6198,萍乡市,安源区政府,细颗粒物(PM2.5),93,100,105,69,69,79,,99,93,33,31,33,18,1.0,1.3
2024-12-29T2200,2319A,119.0141,25.4325,莆田市,荔城区仓后路,,29,29,44,6,22,84,,83,83,10,13,1,2,0.5,0.7
2024-12-29T2200,2320A,119.0015,25.4553,莆田市,莆田市监测站,,29,24,40,3,21,90,,96,95,10,14,3,4,0.4,0.5
2024-12-29T2200,2321A,119.1119,25.4561,莆田市,涵江区六中,,36,36,44,9,18,78,,92,89,12,12,1,2,0.2,0.2
2024-12-29T2200,2322A,119.1013,25.3215,莆田市,秀屿区政府,,37,37,42,9,21,81,,90,88,17,21,2,2,0.3,0.4
2024-12-29T2200,2392A,115.0312,35.7636,濮阳市,环保局,细颗粒物(PM2.5),88,116,79,65,35,47,,58,56,33,34,5,4,0.8,0.8
2024-12-29T2200,2394A,115.0574,35.7609,濮阳市,油田运输公司,,,,86,,32,,,58,52,33,42,4,3,0.8,0.6
2024-12-29T2200,2395A,115.0866,35.7754,濮阳市,油田物探公司,细颗粒物(PM2.5),104,113,89,78,40,37,,59,53,42,39,6,5,0.7,0.6
2024-12-29T2200,3021A,115,35.7668,濮阳市,濮水河管理处,细颗粒物(PM2.5),103,121,92,77,40,38,,55,50,29,31,6,6,0.7,0.6
2024-12-29T2200,2601A,100.98,22.7633,普洱市,市环保局,颗粒物(PM10),52,53,40,16,14,26,,61,50,17,9,4,5,0.7,0.6
2024-12-29T2200,2602A,100.9817,22.8322,普洱市,普洱第二中学,,38,38,37,17,16,32,,64,55,12,15,9,9,0.7,0.7
2024-12-29T2200,2262A,131.0518,45.8751,七台河市,新一中,,29,,26,20,20,48,,67,58,16,11,9,10,1.8,1.6
2024-12-29T2200,3345A,131.0577,45.7879,七台河市,中波台,"颗粒物(PM10),细颗粒物(PM2.5)",52,54,38,36,25,24,,47,28,45,28,12,12,1.0,0.8
2024-12-29T2200,3637A,131.0176,45.7761,七台河市,人民广场,细颗粒物(PM2.5),68,77,50,49,38,9,,47,26,60,33,7,7,1.1,0.7
2024-12-29T2200,3684A,130.8781,45.8222,七台河市,新建矿广场,细颗粒物(PM2.5),87,80,41,64,37,6,,42,20,68,35,21,12,0.8,0.6
2024-12-29T2200,1779A,123.9305,47.3636,齐齐哈尔市,安居小区,细颗粒物(PM2.5),89,89,55,66,32,7,,43,37,60,29,11,13,0.8,0.6
2024-12-29T2200,1780A,123.9488,47.3386,齐齐哈尔市,中心广场,细颗粒物(PM2.5),67,63,46,48,32,23,,45,42,43,27,6,6,0.6,0.6
2024-12-29T2200,1781A,123.9483,47.3227,齐齐哈尔市,农牧车辆厂,颗粒物(PM10),57,63,46,37,30,25,,46,42,41,28,8,7,0.6,0.5
2024-12-29T2200,1783A,123.945,47.2988,齐齐哈尔市,市环境监测站,细颗粒物(PM2.5),78,82,60,57,38,24,,47,42,44,29,6,5,0.9,0.8
2024-12-29T2200,3662A,123.6333,47.2075,齐齐哈尔市,富区青少年活动中心,颗粒物(PM10),74,97,61,45,40,16,,51,42,50,26,10,23,1.3,1.1
2024-12-29T2200,2881A,107.8908,26.5311,黔东南苗族侗族自治州,凯里学院,,,78,69,56,52,,,86,82,17,20,8,7,0.8,0.8
2024-12-29T2200,2593A,107.5228,26.2403,黔南布依族苗族自治州,小围寨,细颗粒物(PM2.5),62,58,52,44,43,67,,88,83,22,18,10,9,0.7,0.6
2024-12-29T2200,3538A,107.5175,26.2978,黔南布依族苗族自治州,沙坝,细颗粒物(PM2.5),73,68,63,53,47,60,,88,79,25,22,12,8,0.8,0.7
2024-12-29T2200,2589A,104.9022,25.0925,黔西南布依族苗族自治州,场坝街,细颗粒物(PM2.5),88,81,51,65,44,69,,76,76,23,13,5,4,0.7,0.5
2024-12-29T2200,2590A,104.8811,25.0992,黔西南布依族苗族自治州,坪东大道,细颗粒物(PM2.5),97,75,48,72,46,30,,62,54,40,18,4,4,0.9,0.7
2024-12-29T2200,2502A,108.6236,21.9667,钦州市,市环保站,细颗粒物(PM2.5),98,117,125,73,72,122,,136,133,35,35,10,12,1.2,1
2024-12-29T2200,2503A,108.6549,21.9481,钦州市,沙埠小学,颗粒物(PM10),116,181,105,78,70,29,,140,122,109,43,13,14,1.2,0.8
2024-12-29T2200,2504A,108.5989,21.7431,钦州市,港区一小,细颗粒物(PM2.5),92,119,130,68,78,72,,131,110,81,50,22,14,1.1,1
2024-12-29T2200,3404A,108.5959,21.9633,钦州市,北职校,细颗粒物(PM2.5),129,,94,98,86,99,,138,135,47,39,9,11,1.2,1.1
2024-12-29T2200,1042A,119.5134,39.8207,秦皇岛市,北戴河环保局,细颗粒物(PM2.5),87,122,74,64,34,6,,31,25,80,51,7,6,1.4,0.9
2024-12-29T2200,1043A,119.7493,40.0116,秦皇岛市,第一关,"颗粒物(PM10),细颗粒物(PM2.5)",88,126,83,65,43,2,,26,15,85,68,19,12,1.6,1
2024-12-29T2200,1044A,119.5897,39.9499,秦皇岛市,监测站,细颗粒物(PM2.5),88,113,78,65,36,1,,22,12,85,62,23,13,1.6,1.1
2024-12-29T2200,1046A,119.5251,39.9041,秦皇岛市,建设大厦,颗粒物(PM10),93,136,84,54,38,1,,30,17,90,63,20,12,1.5,1
