timepoint,stationcode,longitude,latitude,area,positionname,primarypollutant,aqi,pm10,pm10_24h,pm2_5,pm2_5_24h,o3,o3_24h,o3_8h,o3_8h_24h,no2,no2_24h,so2,so2_24h,co,co_24h
2023-09-25T00:00:00,1001A,116.3621,39.8784,北京市,万寿西宫,颗粒物(PM10),52,53,57,27,26,62,21,43,42,55,47,1,2,0.5,0.6
2023-09-25T00:00:00,1002A,116.2202,40.2915,北京市,定陵,,22,21,32,15,18,72,0,41,19,2,7,3,3,0.4,0.5
2023-09-25T00:00:00,1003A,116.4174,39.9289,北京市,东四,,50,50,59,21,25,60,36,44,43,37,42,1,3,0.6,0.6
2023-09-25T00:00:00,1004A,116.4072,39.8863,北京市,天坛,,35,35,52,20,26,38,12,27,24,30,44,3,3,0.7,0.7
2023-09-25T00:00:00,1005A,116.462,39.9365,北京市,农展馆,,49,49,58,22,24,52,40,38,37,34,46,1,2,0.6,0.7
2023-09-25T00:00:00,1006A,116.3392,39.9295,北京市,官园,颗粒物(PM10),52,53,62,25,27,76,41,53,52,35,41,1,2,0.5,0.6
2023-09-25T00:00:00,1007A,116.2878,39.9611,北京市,海淀万柳,颗粒物(PM10),52,53,55,26,24,80,35,57,52,43,48,3,3,0.5,0.6
2023-09-25T00:00:00,1008A,116.6636,40.135,北京市,顺义新城,颗粒物(PM10),55,59,49,28,21,97,6,72,48,47,31,3,2,0.6,0.5
2023-09-25T00:00:00,1009A,116.6275,40.3275,北京市,怀柔镇,,13,13,30,8,18,89,41,66,53,6,13,3,2,0.3,0.5
2023-09-25T00:00:00,1010A,116.2296,40.217,北京市,昌平镇,,30,30,41,16,12,77,31,53,44,17,33,3,2,0.3,0.4
2023-09-25T00:00:00,1011A,116.3966,39.9821,北京市,奥体中心,,,,55,,27,61,,42,42,,47,,1,,0.6
2023-09-25T00:00:00,1012A,116.184,39.9136,北京市,古城,颗粒物(PM10),57,63,56,30,25,93,20,60,53,50,46,3,1,0.8,0.8
2023-09-25T00:00:00,1015A,117.1444,39.1661,天津市,勤俭道,颗粒物(PM10),56,62,51,29,22,76,3,62,48,68,43,9,13,1.2,1.1
2023-09-25T00:00:00,1017A,117.237,39.1082,天津市,大直沽八号路,颗粒物(PM10),57,64,51,33,23,78,20,65,46,69,55,6,9,1.3,1.2
2023-09-25T00:00:00,1018A,117.202,39.0927,天津市,前进道,颗粒物(PM10),54,58,44,30,19,79,17,68,49,63,42,8,11,1.1,1
2023-09-25T00:00:00,1019A,117.1837,39.2133,天津市,淮河道,颗粒物(PM10),59,68,58,32,25,83,4,62,44,69,49,7,11,1.3,1
2023-09-25T00:00:00,1021A,117.307,39.0877,天津市,跃进路,颗粒物(PM10),56,62,51,31,23,82,9,56,40,62,54,7,12,1.3,1.3
2023-09-25T00:00:00,1023A,117.707,39.0343,天津市,第四大街,颗粒物(PM10),55,59,40,34,19,60,2,45,25,74,49,7,7,1.4,1
2023-09-25T00:00:00,1024A,117.457,38.8394,天津市,永明路,颗粒物(PM10),55,60,43,31,18,71,6,62,42,72,49,9,11,1.2,1
2023-09-25T00:00:00,1026A,117.764,39.1587,天津市,汉北路,,50,50,47,28,21,61,1,39,24,69,44,7,9,1.2,1.2
2023-09-25T00:00:00,1027A,117.157,38.9194,天津市,团泊洼,颗粒物(PM10),59,67,38,37,18,72,3,61,36,68,44,5,7,1.0,1
2023-09-25T00:00:00,1029A,114.4422,38.0444,石家庄市,职工医院,细颗粒物(PM2.5),54,44,36,38,29,99,32,83,64,42,24,1,2,0.4,0.5
2023-09-25T00:00:00,1030A,114.6063,38.0266,石家庄市,高新区,,44,44,38,29,24,107,18,97,66,65,24,1,2,0.5,0.4
2023-09-25T00:00:00,1031A,114.4898,38.1328,石家庄市,西北水源,细颗粒物(PM2.5),58,40,39,41,32,104,59,86,70,48,30,1,1,0.4,0.3
2023-09-25T00:00:00,1032A,114.4586,38.0058,石家庄市,西南高教,,36,36,31,20,18,100,35,88,73,45,22,1,2,0.4,0.4
2023-09-25T00:00:00,1033A,114.5331,38.0178,石家庄市,世纪公园,颗粒物(PM10),52,53,43,22,21,99,16,83,62,68,25,2,2,0.5,0.5
2023-09-25T00:00:00,1034A,114.509,38.0457,石家庄市,人民会堂,,42,36,34,29,24,102,57,89,79,35,25,2,4,0.4,0.4
2023-09-25T00:00:00,1035A,114.3524,37.8911,石家庄市,封龙山,,47,47,45,25,23,102,102,96,95,11,13,1,2,0.7,0.6
2023-09-25T00:00:00,1037A,118.131,39.6363,唐山市,雷达站,颗粒物(PM10),56,62,56,31,24,67,0,38,13,46,46,3,9,1.2,1.3
2023-09-25T00:00:00,1038A,118.1725,39.6334,唐山市,物资局,颗粒物(PM10),53,56,62,28,24,42,3,28,13,57,52,5,11,1.2,1.4
2023-09-25T00:00:00,1040A,118.1705,39.6506,唐山市,十二中,,47,47,51,26,24,39,0,30,13,55,50,2,10,1.2,1.4
2023-09-25T00:00:00,1041A,118.1869,39.622,唐山市,小山,颗粒物(PM10),56,62,62,26,18,40,11,24,10,35,48,3,8,1.4,1.7
2023-09-25T00:00:00,1042A,119.5134,39.8207,秦皇岛市,北戴河环保局,,31,31,34,12,10,66,24,45,31,34,42,4,7,0.6,0.4
2023-09-25T00:00:00,1043A,119.7493,40.0116,秦皇岛市,第一关,,35,35,37,18,24,76,4,59,14,70,72,8,11,0.4,0.4
2023-09-25T00:00:00,1044A,119.5897,39.9499,秦皇岛市,监测站,,30,30,34,20,14,66,20,55,33,40,36,15,8,0.4,0.4
2023-09-25T00:00:00,1046A,119.5251,39.9041,秦皇岛市,建设大厦,,34,34,42,23,15,64,0,37,6,44,41,6,11,0.4,0.3
2023-09-25T00:00:00,1048A,114.5302,36.6116,邯郸市,东污水处理厂,颗粒物(PM10),54,58,44,24,22,84,55,76,66,12,19,4,5,0.6,0.4
2023-09-25T00:00:00,1049A,114.4918,36.5713,邯郸市,矿院,,28,27,27,19,20,86,51,79,66,23,22,1,2,0.5,0.5
2023-09-25T00:00:00,1050A,114.484,36.6133,邯郸市,丛台公园,,26,26,24,17,19,88,54,81,68,16,16,8,7,0.3,0.3
2023-09-25T00:00:00,1051A,115.493,38.8632,保定市,游泳馆,细颗粒物(PM2.5),53,43,37,37,18,91,26,79,62,52,27,8,8,0.4,0.3
2023-09-25T00:00:00,1052A,115.5213,38.8959,保定市,华电二区,,42,32,30,29,14,100,38,84,68,29,23,6,6,0.5,0.3
2023-09-25T00:00:00,1053A,115.4713,38.9108,保定市,接待中心,颗粒物(PM10),52,53,37,23,17,94,23,81,58,42,24,4,5,0.4,0.3
2023-09-25T00:00:00,1054A,115.4612,38.8416,保定市,地表水厂,颗粒物(PM10),51,52,47,22,18,90,13,74,46,61,34,4,6,0.3,0.2
2023-09-25T00:00:00,1056A,115.5086,38.8639,保定市,监测站,,48,48,37,25,18,95,38,84,69,31,21,6,7,0.5,0.4
2023-09-25T00:00:00,1057A,114.8883,40.8336,张家口市,人民公园,,28,28,30,13,14,90,57,82,75,16,15,6,6,0.3,0.4
2023-09-25T00:00:00,1059A,114.8687,40.8042,张家口市,五金库,,24,23,27,10,18,90,74,85,76,13,15,2,2,0.4,0.5
2023-09-25T00:00:00,1060A,114.8902,40.762,张家口市,世纪豪园,,32,22,26,22,17,86,58,77,67,13,14,5,5,0.2,0.2
2023-09-25T00:00:00,1061A,114.8916,40.8661,张家口市,北泵房,,30,22,27,21,20,93,40,86,67,15,11,6,6,0.3,0.3
2023-09-25T00:00:00,1062A,117.9531,40.9081,承德市,铁路,,28,28,30,14,13,34,7,17,11,21,39,6,7,0.8,0.7
2023-09-25T00:00:00,1063A,117.9392,40.9763,承德市,中国银行,,35,35,38,16,13,47,0,30,16,24,35,5,8,1.0,0.8
2023-09-25T00:00:00,1064A,117.9503,40.928,承德市,开发区,,42,42,36,17,17,31,2,25,14,28,37,5,8,0.8,0.7
2023-09-25T00:00:00,1065A,117.8051,40.9655,承德市,文化中心,,40,40,41,16,15,70,0,38,21,43,37,6,10,0.9,0.7
2023-09-25T00:00:00,1066A,117.9268,41.0026,承德市,离宫,,49,38,39,34,19,31,4,23,10,15,21,2,2,0.6,0.5
2023-09-25T00:00:00,1067A,116.6708,39.5111,廊坊市,药材公司,,41,41,39,19,15,83,20,66,46,42,35,3,5,0.7,0.6
2023-09-25T00:00:00,1068A,116.7214,39.5589,廊坊市,开发区,,25,25,38,15,21,76,24,52,39,23,36,1,2,0.8,0.6
2023-09-25T00:00:00,1070A,116.7244,39.5269,廊坊市,北华航天学院,,36,35,48,25,19,77,24,65,50,44,39,6,7,0.8,0.7
2023-09-25T00:00:00,1071A,116.8842,38.2991,沧州市,沧县城建局,,49,49,28,15,11,71,9,64,47,63,40,4,6,0.2,0.3
2023-09-25T00:00:00,1072A,116.8584,38.3254,沧州市,电视转播站,,48,48,34,19,12,66,1,55,40,56,37,7,8,0.8,0.6
2023-09-25T00:00:00,1073A,116.8709,38.3228,沧州市,市环保局,颗粒物(PM10),54,57,39,26,21,74,7,64,51,64,34,4,6,0.5,0.4
2023-09-25T00:00:00,1074A,115.6838,37.7541,衡水市,电机北厂,,,,30,,18,87,,76,69,,20,,4,,0.2
2023-09-25T00:00:00,1075A,115.6303,37.7316,衡水市,市监测站,,42,42,30,17,12,94,12,79,46,55,26,5,6,0.4,0.4
2023-09-25T00:00:00,1077A,114.4704,37.0886,邢台市,达活泉,,38,38,32,17,13,91,48,82,62,20,15,3,2,0.5,0.4
2023-09-25T00:00:00,1078A,114.5062,37.0349,邢台市,邢师高专,,26,26,32,13,11,90,11,78,51,36,21,4,4,0.5,0.4
2023-09-25T00:00:00,1079A,114.5237,37.0851,邢台市,路桥公司,,36,36,34,23,15,88,42,80,62,17,18,5,4,0.7,0.5
2023-09-25T00:00:00,1080A,114.4725,37.0719,邢台市,市环保局,,30,30,24,16,14,91,52,83,64,12,11,6,5,0.6,0.4
2023-09-25T00:00:00,1081A,112.522,37.8873,太原市,尖草坪,,38,36,43,26,31,92,27,74,58,48,31,5,5,0.6,0.8
2023-09-25T00:00:00,1083A,112.434,38.0108,太原市,上兰,,,,,,,,,,,,,,,,
2023-09-25T00:00:00,1084A,112.469,37.7124,太原市,晋源,,34,34,34,19,23,103,22,79,52,34,26,2,2,0.7,0.6
2023-09-25T00:00:00,1085A,112.5583,37.7394,太原市,小店,,45,45,38,30,21,106,26,81,59,51,31,6,4,0.7,0.6
2023-09-25T00:00:00,1086A,112.5369,37.8692,太原市,桃园,,32,32,35,21,22,86,32,70,53,42,32,4,4,0.6,0.7
2023-09-25T00:00:00,1087A,112.57,37.8195,太原市,坞城,,30,30,29,19,18,103,24,82,57,39,28,6,6,0.5,0.5
2023-09-25T00:00:00,1088A,112.549,37.9854,太原市,南寨,,36,36,35,18,23,97,5,62,28,40,32,7,6,0.6,0.6
2023-09-25T00:00:00,1090A,111.6507,40.7517,呼和浩特市,呼市一监,,50,34,27,35,33,99,36,73,48,22,16,5,5,0.8,0.7
2023-09-25T00:00:00,1091A,111.6572,40.8033,呼和浩特市,小召,,31,31,35,21,31,99,44,76,46,27,24,6,6,0.4,0.7
2023-09-25T00:00:00,1094A,111.7516,40.8369,呼和浩特市,如意水处理厂,颗粒物(PM10),53,56,49,30,28,104,18,90,55,44,19,8,8,0.8,0.7
2023-09-25T00:00:00,1095A,111.7276,40.8062,呼和浩特市,二十九中,细颗粒物(PM2.5),68,45,38,49,41,106,20,98,21,46,22,6,7,0.9,0.7
2023-09-25T00:00:00,1096A,111.5512,40.7866,呼和浩特市,工大金川校区,颗粒物(PM10),51,51,45,28,31,97,3,74,36,47,22,4,5,0.8,0.7
2023-09-25T00:00:00,1097A,111.717,40.7612,呼和浩特市,化肥厂生活区,颗粒物(PM10),56,61,50,39,31,108,36,86,55,27,23,6,6,0.9,0.7
2023-09-25T00:00:00,1098A,123.6836,41.9339,沈阳市,森林路,,,,,,,,,,,,,,,,
2023-09-25T00:00:00,1099A,123.505,41.7406,沈阳市,浑南东路,,27,27,34,14,17,103,26,82,49,46,24,17,14,0.5,0.8
2023-09-25T00:00:00,1100A,123.4231,41.6989,沈阳市,新秀街,,23,23,38,11,14,99,44,79,52,34,31,8,16,0.5,0.7
2023-09-25T00:00:00,1102A,123.5903,41.8411,沈阳市,东陵路,,22,10,36,15,17,107,49,83,45,17,25,7,12,0.5,0.8
2023-09-25T00:00:00,1103A,123.4264,41.8467,沈阳市,陵东街,,22,22,33,12,19,104,24,84,48,9,25,6,11,0.6,1
2023-09-25T00:00:00,1104A,123.4114,41.7653,沈阳市,文化路,,28,25,38,19,25,109,52,88,59,23,27,8,15,0.6,0.8
2023-09-25T00:00:00,1105A,123.4678,41.7867,沈阳市,小河沿,,21,21,35,13,17,107,38,84,53,15,27,7,11,0.6,1
2023-09-25T00:00:00,1106A,123.4017,41.7972,沈阳市,太原街,,23,21,30,16,19,108,55,85,58,25,30,9,13,0.5,0.8
2023-09-25T00:00:00,1108A,123.3783,41.9228,沈阳市,京沈街,,33,21,43,23,23,110,44,88,56,28,33,11,17,0.7,1
2023-09-25T00:00:00,1109A,121.612,38.9741,大连市,甘井子,,30,26,33,16,16,125,95,119,92,14,18,5,5,0.5,0.5
2023-09-25T00:00:00,1110A,121.565,38.9511,大连市,周水子,,,20,32,14,20,119,,109,80,10,30,,5,0.5,0.6
2023-09-25T00:00:00,1111A,121.5637,38.8845,大连市,星海三站,,32,22,26,18,17,136,102,128,104,6,11,5,6,0.4,0.5
2023-09-25T00:00:00,1112A,121.6302,38.9117,大连市,青泥洼桥,,30,27,23,21,16,122,84,118,82,11,12,5,6,0.4,0.4
2023-09-25T00:00:00,1113A,121.6251,38.8638,大连市,傅家庄,,39,17,24,10,14,140,124,136,122,6,8,4,5,0.3,0.3
2023-09-25T00:00:00,1114A,121.5213,38.8661,大连市,七贤岭,,33,17,21,14,16,139,104,128,104,5,9,5,5,0.4,0.5
2023-09-25T00:00:00,1115A,121.2529,38.8061,大连市,旅顺,,34,16,23,11,12,146,107,140,110,12,11,5,5,0.5,0.6
2023-09-25T00:00:00,1116A,121.7485,39.1311,大连市,金州,,30,11,31,10,17,133,93,119,96,11,13,7,8,0.6,0.7
2023-09-25T00:00:00,1117A,121.7811,39.0496,大连市,开发区,,26,19,29,10,17,131,81,120,92,18,21,5,8,0.5,0.5
2023-09-25T00:00:00,1118A,121.9762,39.0631,大连市,双D港,,28,12,20,7,11,138,88,121,99,8,8,6,6,0.4,0.4
2023-09-25T00:00:00,1119A,125.3325,43.9166,长春市,食品厂,,42,42,36,18,15,100,66,89,72,24,34,7,6,0.5,0.4
2023-09-25T00:00:00,1120A,125.2863,43.9027,长春市,客车厂,,32,32,34,18,15,100,71,91,79,18,24,7,6,0.5,0.5
2023-09-25T00:00:00,1121A,125.2841,43.8463,长春市,邮电学院,,40,40,30,12,8,104,69,97,78,17,19,6,5,0.4,0.3
2023-09-25T00:00:00,1122A,125.3716,43.8772,长春市,劳动公园,,42,42,40,17,14,102,65,91,70,18,33,7,6,0.5,0.5
2023-09-25T00:00:00,1123A,125.3297,43.8805,长春市,园林处,,34,34,35,15,11,106,75,101,86,15,26,8,7,0.5,0.4
2023-09-25T00:00:00,1124A,125.4605,43.79,长春市,净月潭,,26,26,20,16,8,106,56,95,68,10,11,6,6,0.5,0.4
2023-09-25T00:00:00,1125A,125.7194,43.515,长春市,甩湾子,,,,,,,,,,,,,,,,
2023-09-25T00:00:00,1126A,125.3863,43.8447,长春市,经开区环卫处,,35,35,40,15,11,94,49,84,55,24,30,3,4,0.4,0.4
2023-09-25T00:00:00,1127A,125.245,43.7783,长春市,高新区管委会,,28,28,29,14,11,104,63,94,62,19,21,7,7,0.5,0.4
2023-09-25T00:00:00,1128A,125.1761,43.8325,长春市,岱山公园,,41,41,41,20,14,102,54,90,41,27,37,5,5,0.6,0.5
2023-09-25T00:00:00,1129A,126.5422,45.755,哈尔滨市,岭北,,31,31,22,17,11,107,73,94,82,13,12,10,9,0.7,0.6
2023-09-25T00:00:00,1130A,126.561,45.8167,哈尔滨市,松北商大,,27,27,23,12,9,92,49,79,68,24,20,7,7,0.6,0.6
2023-09-25T00:00:00,1131A,126.979,45.5419,哈尔滨市,阿城会宁,,21,21,25,9,8,101,66,85,73,6,12,5,5,0.5,0.5
2023-09-25T00:00:00,1132A,126.599,45.7222,哈尔滨市,南岗学府路,,30,30,36,11,11,96,56,79,62,11,27,3,5,0.7,0.7
2023-09-25T00:00:00,1133A,126.689,45.7733,哈尔滨市,太平宏伟公园,,33,33,30,13,13,94,56,80,65,19,22,4,4,0.5,0.5
2023-09-25T00:00:00,1134A,126.635,45.7667,哈尔滨市,道外承德广场,,29,29,27,16,11,92,68,77,65,16,28,6,6,0.3,0.5
2023-09-25T00:00:00,1135A,126.685,45.7319,哈尔滨市,香坊红旗大街,,31,31,30,14,11,93,48,77,60,31,31,9,9,0.5,0.5
2023-09-25T00:00:00,1136A,126.6411,45.7258,哈尔滨市,动力和平路,,29,27,34,20,16,93,55,76,59,23,27,4,8,0.5,0.6
2023-09-25T00:00:00,1137A,126.593,45.7478,哈尔滨市,道里建国路,,39,39,33,15,14,97,69,85,76,17,28,7,10,0.5,1.1
2023-09-25T00:00:00,1138A,126.615,45.61,哈尔滨市,平房东轻厂,,22,22,24,9,8,98,64,87,75,6,12,7,7,0.2,0.2
2023-09-25T00:00:00,1139A,126.595,45.9855,哈尔滨市,呼兰师专,,34,34,36,15,15,91,67,74,64,18,30,6,6,0.7,0.7
2023-09-25T00:00:00,1140A,126.6206,45.6842,哈尔滨市,省农科院,,33,33,38,14,12,98,43,79,55,37,32,8,10,0.6,0.7
2023-09-25T00:00:00,1141A,121.4,31.238,上海市,普陀,,32,32,22,14,14,74,21,56,26,47,36,5,4,0.7,0.6
2023-09-25T00:00:00,1142A,121.478,31.2036,上海市,十五厂,,35,35,23,14,10,89,10,73,35,66,35,9,8,0.5,0.5
2023-09-25T00:00:00,1143A,121.467,31.3008,上海市,虹口,,41,41,23,17,12,76,5,62,31,58,38,7,6,0.8,0.6
2023-09-25T00:00:00,1144A,121.412,31.1654,上海市,徐汇上师大,,34,34,19,15,14,79,18,63,34,55,32,7,6,0.7,0.6
2023-09-25T00:00:00,1145A,121.536,31.2659,上海市,杨浦四漂,,33,33,24,13,9,99,10,70,23,54,39,8,7,0.7,0.7
2023-09-25T00:00:00,1147A,121.425,31.2261,上海市,静安监测站,,33,33,20,4,12,83,30,68,46,47,31,4,3,0.5,0.5
2023-09-25T00:00:00,1148A,121.703,31.1907,上海市,浦东川沙,,45,45,23,16,9,101,15,80,32,50,28,7,6,0.6,0.5
2023-09-25T00:00:00,1149A,121.533,31.2284,上海市,浦东新区监测站,,35,35,18,11,9,83,24,69,39,42,27,6,11,0.6,0.6
2023-09-25T00:00:00,1150A,121.577,31.2071,上海市,浦东张江,,32,32,20,16,11,81,18,69,37,42,26,6,5,0.7,0.7
2023-09-25T00:00:00,1151A,118.8086,32.1065,南京市,迈皋桥,,41,41,22,19,11,89,6,79,37,34,15,4,3,0.4,0.3
2023-09-25T00:00:00,1152A,118.7538,32.0551,南京市,草场门,细颗粒物(PM2.5),52,39,20,36,16,86,4,78,56,58,21,1,1,0.8,0.6
2023-09-25T00:00:00,1153A,118.7794,32.0745,南京市,山西路,颗粒物(PM10),58,66,27,29,13,97,16,91,70,44,12,4,4,0.6,0.5
2023-09-25T00:00:00,1154A,118.7752,32.0023,南京市,中华门,细颗粒物(PM2.5),52,39,20,36,13,90,17,76,56,42,17,4,4,1.3,1
2023-09-25T00:00:00,1155A,118.8109,32.0309,南京市,瑞金路,,44,44,26,27,13,85,18,78,54,24,12,4,5,0.5,0.4
2023-09-25T00:00:00,1156A,118.7997,32.0754,南京市,玄武湖,,42,42,30,29,13,91,9,80,59,44,13,3,3,0.9,0.7
2023-09-25T00:00:00,1157A,118.6414,32.0931,南京市,浦口,,40,34,22,28,13,84,27,73,36,22,20,2,2,0.4,0.4
2023-09-25T00:00:00,1158A,118.7356,31.9996,南京市,奥体中心,,49,41,24,34,16,97,16,84,66,46,19,5,5,0.6,0.5
2023-09-25T00:00:00,1159A,118.9125,32.1028,南京市,仙林大学城,,48,48,18,27,11,92,5,88,48,55,18,7,7,0.9,0.7
2023-09-25T00:00:00,1160A,120.561,31.2472,苏州市,上方山,,27,27,24,16,13,68,3,57,11,38,28,4,4,0.7,0.6
2023-09-25T00:00:00,1162A,120.591,31.3019,苏州市,彩香,,33,33,26,21,17,82,0,72,12,43,27,6,6,1.1,0.8
2023-09-25T00:00:00,1163A,120.596,31.3264,苏州市,轧钢厂,,36,36,26,18,15,89,1,77,11,42,26,8,8,1.0,0.6
2023-09-25T00:00:00,1164A,120.613,31.2703,苏州市,吴中区,,43,43,27,16,15,82,1,72,10,54,35,9,8,0.9,0.7
2023-09-25T00:00:00,1165A,120.543,31.2994,苏州市,苏州新区,,34,34,26,15,16,84,2,63,8,56,41,9,7,1.0,0.7
2023-09-25T00:00:00,1166A,120.669,31.3097,苏州市,苏州工业园区,,34,30,22,14,15,84,0,78,13,68,36,10,7,0.8,0.7
2023-09-25T00:00:00,1167A,120.641,31.3708,苏州市,相城区,,27,27,18,13,13,87,0,75,8,52,30,8,8,0.8,0.6
2023-09-25T00:00:00,1168A,120.9098,31.9663,南通市,狼山街道,,14,14,11,0,2,101,15,88,40,18,15,6,6,0.3,0.3
2023-09-25T00:00:00,1169A,120.86,32.0005,南通市,虹桥,,19,19,15,7,7,96,53,88,56,18,18,5,5,0.6,0.6
2023-09-25T00:00:00,1170A,120.87,32.02,南通市,城中,,19,19,13,7,5,90,42,82,47,20,17,6,6,0.5,0.5
2023-09-25T00:00:00,1171A,120.94,31.93,南通市,星湖花园,,17,17,10,2,3,94,33,84,41,16,14,5,5,0.6,0.6
2023-09-25T00:00:00,1172A,120.81,32.0417,南通市,紫琅学院,,13,12,7,4,2,96,34,85,48,26,17,6,6,0.7,0.6
2023-09-25T00:00:00,1173A,119.176,34.5885,连云港市,市环境监测站,,15,7,20,7,15,98,48,93,63,20,19,8,8,0.4,0.5
2023-09-25T00:00:00,1177A,117.179,34.2761,徐州市,黄河新村,,32,27,34,22,29,87,60,76,69,19,28,4,4,0.6,0.8
2023-09-25T00:00:00,1178A,117.1918,34.2384,徐州市,淮塔,,35,31,36,24,27,90,56,85,77,21,22,8,8,0.6,0.7
2023-09-25T00:00:00,1180A,117.256,34.2153,徐州市,新城区,,28,27,32,19,28,89,69,87,82,19,23,4,5,0.7,0.7
2023-09-25T00:00:00,1181A,117.244,34.2911,徐州市,桃园路,,31,31,38,17,30,94,63,90,78,17,23,5,6,0.6,0.7
2023-09-25T00:00:00,1182A,117.2933,34.2778,徐州市,农科院,,20,17,25,14,24,91,58,87,78,22,24,4,5,0.6,0.6
2023-09-25T00:00:00,1186A,119.389,32.3761,扬州市,邗江监测站,,46,46,25,28,15,93,4,84,20,42,25,7,6,0.6,0.4
2023-09-25T00:00:00,1188A,120.269,31.4867,无锡市,雪浪,,31,31,21,12,10,83,1,70,18,51,29,3,3,0.7,0.6
2023-09-25T00:00:00,1189A,120.275,31.6219,无锡市,黄巷,,31,31,21,9,10,81,7,69,14,59,40,6,5,0.9,0.8
2023-09-25T00:00:00,1190A,120.294,31.56,无锡市,曹张,,30,26,18,14,15,66,0,58,17,60,34,9,8,1.0,0.9
2023-09-25T00:00:00,1191A,120.242,31.5031,无锡市,漆塘,,29,29,23,9,13,86,8,72,25,37,30,5,5,0.8,0.7
2023-09-25T00:00:00,1192A,120.3489,31.5863,无锡市,东亭,,36,36,19,14,12,76,3,63,14,50,32,4,4,1.2,0.9
2023-09-25T00:00:00,1193A,120.354,31.5475,无锡市,旺庄,,39,39,22,27,14,78,7,68,21,60,36,6,4,1.1,0.8
2023-09-25T00:00:00,1194A,120.245,31.5631,无锡市,荣巷,,22,22,19,14,12,75,5,67,20,32,25,9,9,0.6,0.7
2023-09-25T00:00:00,1195A,120.299,31.6817,无锡市,堰桥,,24,24,16,14,9,81,5,70,27,38,21,6,6,0.7,0.6
2023-09-25T00:00:00,1196A,119.9633,31.762,常州市,市监测站,颗粒物(PM10),55,60,38,28,21,79,4,68,12,51,38,8,7,0.8,0.8
2023-09-25T00:00:00,1200A,119.9468,31.7069,常州市,武进监测站,颗粒物(PM10),51,51,39,27,18,86,4,76,25,50,29,8,8,0.9,0.9
2023-09-25T00:00:00,1201A,119.9255,31.9087,常州市,安家,,42,42,36,21,18,84,20,78,24,25,23,6,7,0.7,0.7
2023-09-25T00:00:00,1203A,119.6707,32.1875,镇江市,新区办事处,细颗粒物(PM2.5),52,31,21,36,20,90,5,85,23,33,21,5,5,1.4,0.9
2023-09-25T00:00:00,1204A,119.4974,32.1968,镇江市,职教中心,,48,44,26,33,17,102,10,95,30,32,20,4,7,1.1,0.7
2023-09-25T00:00:00,1205A,119.4303,32.1328,镇江市,丹徒区监测站,,47,47,27,32,21,87,1,84,24,46,22,1,2,0.8,0.5
2023-09-25T00:00:00,1206A,119.905,32.4878,泰州市,公园路,,28,19,11,19,11,97,24,90,47,17,13,4,4,0.8,0.5
2023-09-25T00:00:00,1207A,119.9189,32.4625,泰州市,莲花,,24,24,12,14,8,98,32,88,49,18,11,4,4,0.8,0.5
2023-09-25T00:00:00,1209A,119.888,32.4639,泰州市,留学生创业园,,39,36,19,27,13,100,33,92,50,19,12,6,5,0.8,0.6
2023-09-25T00:00:00,1210A,119.036,33.5981,淮安市,钵池山,,20,9,14,14,12,109,45,98,52,15,15,6,6,0.7,0.7
2023-09-25T00:00:00,1211A,119.007,33.575,淮安市,北京南路,,28,14,16,19,13,111,41,99,54,16,15,4,4,0.5,0.5
2023-09-25T00:00:00,1212A,118.989,33.6067,淮安市,市监测站,,14,9,18,9,8,116,42,104,56,17,16,6,6,0.8,0.7
2023-09-25T00:00:00,1213A,119.135,33.5039,淮安市,楚州区监测站,,25,15,13,17,13,105,28,89,42,22,16,5,5,0.6,0.6
2023-09-25T00:00:00,1214A,119.0186,33.6297,淮安市,淮阴区监测站,,16,12,15,10,24,108,50,100,56,12,16,7,8,0.4,0.3
2023-09-25T00:00:00,1215A,120.118,33.4022,盐城市,盐城电厂,,22,17,15,7,7,114,68,106,80,4,4,6,5,0.4,0.3
2023-09-25T00:00:00,1216A,120.156,33.3942,盐城市,市监测站,,27,10,8,9,6,129,84,119,88,6,7,6,4,0.3,0.2
2023-09-25T00:00:00,1218A,120.2144,33.38,盐城市,开发区管委会,,19,13,12,13,7,106,58,98,71,9,9,6,8,0.2,0.1
2023-09-25T00:00:00,1220A,118.293,33.9528,宿迁市,宿迁学院,,42,34,19,29,14,128,68,97,72,12,16,7,7,1.0,0.6
2023-09-25T00:00:00,1221A,118.2442,33.9592,宿迁市,宿迁中学,,35,23,19,24,13,109,69,86,69,10,16,6,6,0.9,0.7
2023-09-25T00:00:00,1223A,120.2072,30.2111,杭州市,滨江,颗粒物(PM10),64,77,43,35,20,146,30,117,80,35,23,6,6,0.7,0.6
2023-09-25T00:00:00,1224A,120.0633,30.2747,杭州市,西溪,,40,35,29,28,19,110,3,91,52,30,16,3,3,0.8,0.6
2023-09-25T00:00:00,1226A,120.3461,30.3153,杭州市,下沙,细颗粒物(PM2.5),55,54,34,39,25,111,3,97,57,64,29,4,3,0.8,0.7
2023-09-25T00:00:00,1227A,120.1269,30.2456,杭州市,卧龙桥,,40,40,25,28,20,140,7,102,43,13,15,2,2,0.8,0.7
2023-09-25T00:00:00,1228A,120.1903,30.2692,杭州市,浙江农大,细颗粒物(PM2.5),53,45,25,37,24,126,26,96,67,34,21,7,7,0.7,0.6
2023-09-25T00:00:00,1230A,120.1197,30.3119,杭州市,和睦小学,细颗粒物(PM2.5),55,45,24,39,21,132,28,103,69,41,25,8,7,0.6,0.6
2023-09-25T00:00:00,1231A,120.3019,30.4183,杭州市,临平镇,颗粒物(PM10),62,74,45,43,26,110,25,92,63,31,18,4,4,0.7,0.6
2023-09-25T00:00:00,1232A,120.2697,30.1819,杭州市,城厢镇,细颗粒物(PM2.5),68,58,37,49,33,146,25,119,82,33,18,7,7,0.8,0.7
2023-09-25T00:00:00,1233A,120.0883,30.1808,杭州市,云栖,,50,50,34,28,17,107,4,93,40,11,12,6,6,0.8,0.7
2023-09-25T00:00:00,1234A,121.8358,29.911,宁波市,区环保大楼,,17,17,22,10,16,123,30,94,42,34,35,6,6,0.6,0.6
2023-09-25T00:00:00,1235A,121.56,29.82,宁波市,万里学院,,47,47,31,24,15,146,3,113,65,70,29,10,8,0.7,0.6
2023-09-25T00:00:00,1236A,121.713,29.9572,宁波市,龙赛医院,,17,15,35,8,12,126,37,104,55,33,28,9,9,0.5,0.6
2023-09-25T00:00:00,1239A,121.633,29.7733,宁波市,钱湖水厂,,35,35,38,19,21,153,25,115,58,14,21,6,6,0.7,0.7
2023-09-25T00:00:00,1240A,121.5856,29.8635,宁波市,太古小学,,33,30,26,16,16,116,2,98,56,66,26,7,7,0.9,0.8
2023-09-25T00:00:00,1241A,121.524,29.8674,宁波市,市环境监测中心,,38,38,30,14,12,155,22,112,67,37,18,9,9,0.6,0.5
2023-09-25T00:00:00,1242A,120.634,28.0089,温州市,瓯海,,20,20,30,12,20,157,64,135,98,15,22,6,6,0.5,0.6
2023-09-25T00:00:00,1243A,120.6748,27.9939,温州市,南浦,,25,20,30,9,17,152,77,134,104,7,15,5,5,0.5,0.5
2023-09-25T00:00:00,1244A,120.76,27.9747,温州市,龙湾,,24,14,29,7,14,141,75,121,100,17,22,4,4,0.4,0.5
2023-09-25T00:00:00,1245A,120.6709,28.0167,温州市,市站,,26,26,31,12,16,136,61,117,88,17,21,5,6,0.6,0.6
2023-09-25T00:00:00,1247A,120.6053,29.9928,绍兴市,城东开发委,颗粒物(PM10),51,51,55,35,34,116,34,103,74,36,30,7,6,0.7,0.7
2023-09-25T00:00:00,1250A,120.0751,30.8669,湖州市,城西水厂,颗粒物(PM10),54,57,38,36,26,100,11,84,61,58,25,2,2,0.7,0.5
2023-09-25T00:00:00,1252A,120.7436,30.778,嘉兴市,清河小学,,22,22,18,8,8,74,41,64,54,22,22,4,4,1.0,0.9
2023-09-25T00:00:00,1253A,120.726,30.7478,嘉兴市,嘉兴学院,,27,27,20,13,15,70,24,61,48,31,21,4,3,0.6,0.5
2023-09-25T00:00:00,1255A,121.273,28.6459,台州市,黄岩环保大楼,,25,18,21,6,11,129,80,117,95,8,11,6,5,0.5,0.5
2023-09-25T00:00:00,1256A,121.419,28.6542,台州市,台州环保大楼,,27,22,26,6,13,112,86,107,96,4,11,6,6,0.4,0.4
2023-09-25T00:00:00,1257A,121.377,28.5773,台州市,路桥田洋王,,25,17,22,10,14,129,77,113,94,8,12,5,5,0.4,0.4
2023-09-25T00:00:00,1258A,122.122,30.0203,舟山市,定海檀枫,,18,18,17,6,8,68,26,63,47,12,13,6,6,0.5,0.5
2023-09-25T00:00:00,1259A,122.3094,29.9558,舟山市,普陀东港,,19,19,19,8,7,95,50,75,64,12,12,5,5,0.5,0.5
2023-09-25T00:00:00,1260A,122.19,29.9944,舟山市,临城新区,,18,18,16,7,7,80,30,71,61,11,12,7,6,0.4,0.4
2023-09-25T00:00:00,1262A,119.647,29.077,金华市,十五中,细颗粒物(PM2.5),54,54,42,38,22,198,77,161,112,27,22,4,4,0.7,0.6
2023-09-25T00:00:00,1263A,119.686,29.1029,金华市,监测站,细颗粒物(PM2.5),58,49,40,41,20,193,72,153,106,29,23,4,4,0.8,0.7
2023-09-25T00:00:00,1264A,118.8692,28.9398,衢州市,环保大楼,,32,32,34,20,22,130,32,104,69,27,19,4,4,0.6,0.5
2023-09-25T00:00:00,1265A,118.8709,28.9666,衢州市,实验学校,,28,28,33,15,19,130,31,108,71,29,19,8,7,0.6,0.5
2023-09-25T00:00:00,1266A,118.8621,28.9808,衢州市,衢州学院,,26,26,31,17,22,131,17,107,60,39,22,4,4,0.6,0.4
2023-09-25T00:00:00,1267A,119.914,28.4514,丽水市,监测站大楼,,50,50,24,33,16,118,83,96,96,19,14,6,6,0.6,0.5
2023-09-25T00:00:00,1268A,119.93,28.4586,丽水市,莲都小学,,42,42,25,26,14,123,94,105,105,17,13,6,5,0.5,0.4
2023-09-25T00:00:00,1269A,119.879,28.4231,丽水市,余庄前,,43,43,25,22,10,106,26,88,50,16,14,6,6,0.5,0.5
2023-09-25T00:00:00,1270A,117.1959,31.7848,合肥市,明珠广场,颗粒物(PM10),56,61,46,34,26,76,18,64,32,34,31,4,5,0.9,0.8
2023-09-25T00:00:00,1271A,117.3072,31.8764,合肥市,三里街,细颗粒物(PM2.5),58,46,40,41,26,66,28,51,32,31,25,5,5,0.6,0.5
2023-09-25T00:00:00,1272A,117.2588,31.8707,合肥市,琥珀山庄,颗粒物(PM10),53,56,41,36,22,81,36,66,40,31,24,5,5,0.8,0.7
2023-09-25T00:00:00,1273A,117.1604,31.9052,合肥市,董铺水库,,48,48,37,27,21,81,19,67,44,28,18,5,4,0.5,0.5
2023-09-25T00:00:00,1274A,117.25,31.8571,合肥市,长江中路,颗粒物(PM10),58,66,50,38,29,76,21,59,38,31,21,6,6,0.9,0.8
2023-09-25T00:00:00,1275A,117.266,31.9436,合肥市,庐阳区,颗粒物(PM10),53,56,41,36,27,71,29,59,42,22,19,4,4,0.7,0.7
2023-09-25T00:00:00,1276A,117.336,31.8586,合肥市,瑶海区,颗粒物(PM10),53,56,44,35,23,67,18,57,37,41,22,5,4,1.0,0.7
2023-09-25T00:00:00,1277A,117.3027,31.7964,合肥市,包河区,细颗粒物(PM2.5),58,63,39,41,26,83,4,63,17,55,39,6,5,1.0,0.8
2023-09-25T00:00:00,1278A,117.2776,31.7385,合肥市,滨湖新区,颗粒物(PM10),56,61,36,34,23,90,4,78,41,59,20,4,4,0.6,0.5
2023-09-25T00:00:00,1279A,117.1318,31.8403,合肥市,高新区,颗粒物(PM10),56,61,43,37,31,78,24,66,43,31,23,5,5,0.8,0.7
2023-09-25T00:00:00,1280A,119.3903,26.0543,福州市,鼓山,,,,,,,,,,,,,,,,
2023-09-25T00:00:00,1282A,119.2681,26.0504,福州市,师大,,17,17,19,7,4,104,50,82,69,13,7,4,4,0.4,0.3
2023-09-25T00:00:00,1283A,119.2984,26.1028,福州市,五四北路,,22,12,18,7,6,89,68,76,74,6,6,3,2,0.2,0.2
2023-09-25T00:00:00,1284A,119.2648,26.0768,福州市,杨桥西路,,19,17,20,6,8,95,60,77,65,8,7,3,3,0.3,0.4
2023-09-25T00:00:00,1285A,119.317,26.0746,福州市,紫阳,,19,18,18,10,8,82,60,76,71,7,5,4,4,0.3,0.3
2023-09-25T00:00:00,1286A,118.1608,24.8169,厦门市,溪东,,,,,,,,,,,,,,,,
2023-09-25T00:00:00,1287A,118.1514,24.4767,厦门市,洪文,,24,24,25,12,11,81,42,68,55,13,5,2,2,0.2,0.1
2023-09-25T00:00:00,1288A,118.0661,24.4444,厦门市,鼓浪屿,,26,26,22,11,9,91,41,68,53,14,8,2,2,0.3,0.2
2023-09-25T00:00:00,1290A,115.8931,28.6843,南昌市,省外办,颗粒物(PM10),57,64,51,27,26,107,26,82,56,28,18,4,4,0.9,0.8
2023-09-25T00:00:00,1291A,115.8886,28.7003,南昌市,省林业公司,颗粒物(PM10),57,63,44,36,28,112,23,104,61,45,17,5,15,0.9,0.8
2023-09-25T00:00:00,1292A,115.8126,28.7442,南昌市,林科所,,34,34,36,19,20,108,39,84,55,22,21,6,6,0.8,0.8
2023-09-25T00:00:00,1294A,115.8518,28.687,南昌市,建工学校,颗粒物(PM10),66,81,53,45,25,112,35,87,60,26,16,9,9,0.8,0.8
2023-09-25T00:00:00,1295A,115.8921,28.6424,南昌市,象湖,颗粒物(PM10),54,57,46,31,25,124,27,98,67,32,14,6,6,0.6,0.6
2023-09-25T00:00:00,1296A,115.7423,28.7996,南昌市,武术学校,,24,24,18,10,12,83,15,68,38,9,11,10,9,0.6,0.5
2023-09-25T00:00:00,1298A,115.9314,28.6842,南昌市,省站,细颗粒物(PM2.5),52,48,42,36,25,108,34,88,64,22,14,8,8,0.9,0.8
2023-09-25T00:00:00,1299A,116.9862,36.6114,济南市,科干所,细颗粒物(PM2.5),53,41,35,37,28,93,36,77,60,36,25,6,6,0.7,0.7
2023-09-25T00:00:00,1300A,116.9376,36.665,济南市,农科所,,42,37,33,29,23,83,17,73,52,50,38,6,6,0.5,0.6
2023-09-25T00:00:00,1301A,117.1265,36.6734,济南市,开发区,,46,46,36,29,22,89,31,75,58,39,34,6,5,0.8,0.7
2023-09-25T00:00:00,1303A,117.0624,36.6868,济南市,省种子仓库,细颗粒物(PM2.5),70,51,42,51,34,90,33,68,52,40,38,5,4,0.5,0.6
2023-09-25T00:00:00,1304A,116.9489,36.6447,济南市,机床二厂,细颗粒物(PM2.5),62,56,41,44,24,94,31,81,57,47,43,8,7,0.7,0.7
2023-09-25T00:00:00,1305A,117.0495,36.663,济南市,市监测站,细颗粒物(PM2.5),59,51,42,42,25,96,46,75,58,40,45,4,2,0.6,0.7
2023-09-25T00:00:00,1306A,116.7675,36.5484,济南市,长清党校,细颗粒物(PM2.5),53,51,40,37,30,93,32,79,54,38,32,3,3,0.5,0.5
2023-09-25T00:00:00,1307A,120.6659,36.2403,青岛市,仰口,,18,5,18,7,17,88,57,69,68,8,12,3,3,0.3,0.4
2023-09-25T00:00:00,1310A,120.4134,36.0658,青岛市,市南区东部子站,,,7,26,7,14,144,72,115,81,15,24,,5,0.5,0.6
2023-09-25T00:00:00,1311A,120.3664,36.1032,青岛市,四方区子站,,19,19,33,9,17,115,38,92,62,37,54,5,5,0.6,0.7
2023-09-25T00:00:00,1312A,120.2994,36.054,青岛市,市南区西部子站,,30,24,28,12,14,128,21,109,69,59,32,6,7,0.6,0.5
2023-09-25T00:00:00,1313A,120.4581,36.0858,青岛市,崂山区子站,,22,5,24,9,17,150,69,126,84,20,23,7,7,0.4,0.4
2023-09-25T00:00:00,1314A,120.1983,35.9608,青岛市,黄岛区子站,,25,17,34,17,19,102,46,60,40,44,67,5,7,0.5,0.6
2023-09-25T00:00:00,1315A,120.3999,36.3083,青岛市,城阳区子站,,25,9,28,12,16,109,77,97,90,15,26,5,5,0.5,0.6
2023-09-25T00:00:00,1316A,113.69031,34.76122,郑州市,烟厂,,25,18,18,16,15,165,78,165,83,10,12,2,2,0.5,0.5
2023-09-25T00:00:00,1317A,113.65724,34.77134,郑州市,郑纺机,,25,25,19,16,14,106,80,97,83,8,12,2,2,0.7,0.7
2023-09-25T00:00:00,1318A,113.67526,34.80246,郑州市,银行学校,,25,13,19,8,13,105,79,94,81,9,12,3,4,0.2,0.4
2023-09-25T00:00:00,1319A,113.56746,34.81334,郑州市,供水公司,,24,14,19,14,15,95,76,88,80,18,19,4,4,0.3,0.4
2023-09-25T00:00:00,1320A,113.7329,34.7178,郑州市,经开区管委,,30,22,20,21,16,101,76,92,83,9,11,4,4,0.5,0.4
2023-09-25T00:00:00,1321A,113.73961,34.77172,郑州市,四十七中,,35,20,19,24,21,96,74,90,81,10,12,4,4,0.6,0.6
2023-09-25T00:00:00,1322A,113.60532,34.74838,郑州市,市监测站,,26,14,20,13,13,109,83,96,86,9,14,4,4,0.5,0.5
2023-09-25T00:00:00,1323A,113.64164,34.7525,郑州市,河医大,,24,16,21,14,13,96,74,84,74,9,19,5,5,0.7,0.7
2023-09-25T00:00:00,1324A,113.51488,34.91089,郑州市,岗李水库,,,,,,,,,,,,,,,,
2023-09-25T00:00:00,1325A,114.3677,30.5584,武汉市,东湖梨园,,27,27,27,10,12,109,34,81,53,17,23,8,10,0.6,0.9
2023-09-25T00:00:00,1326A,114.2529,30.558,武汉市,汉阳月湖,,24,24,36,12,15,80,29,57,42,17,23,6,6,0.5,0.8
2023-09-25T00:00:00,1327A,114.282,30.6189,武汉市,汉口花桥,,28,28,30,15,15,98,33,63,43,14,20,5,6,0.5,0.7
2023-09-25T00:00:00,1328A,114.3025,30.5332,武汉市,武昌紫阳,,27,27,34,12,15,110,31,80,50,12,18,5,6,0.6,0.9
2023-09-25T00:00:00,1329A,114.3646,30.6217,武汉市,青山钢花,,29,29,26,12,17,87,30,69,44,15,20,5,6,0.6,0.7
2023-09-25T00:00:00,1330A,114.1566,30.4825,武汉市,沌口新区,,26,26,36,10,20,61,34,52,43,21,29,7,7,0.5,0.8
2023-09-25T00:00:00,1331A,114.3014,30.5944,武汉市,汉口江滩,,18,17,27,12,14,106,29,72,45,15,17,7,7,0.8,0.9
2023-09-25T00:00:00,1333A,114.135,30.6319,武汉市,吴家山,,18,18,23,5,12,70,35,55,44,12,14,8,9,0.5,0.6
2023-09-25T00:00:00,1334A,113.8454,30.2917,武汉市,沉湖七壕,,18,18,22,2,8,54,44,46,44,9,11,2,2,0.7,0.7
2023-09-25T00:00:00,1335A,113.0833,28.2325,长沙市,经开区环保局,,29,19,15,20,12,28,16,22,14,14,18,4,4,0.3,0.4
2023-09-25T00:00:00,1336A,112.8872,28.2189,长沙市,高开区环保局,,26,26,13,11,11,44,26,38,32,6,7,5,5,0.5,0.6
2023-09-25T00:00:00,1337A,113.0792,28.2053,长沙市,马坡岭,,26,19,20,18,13,39,22,28,19,14,19,5,5,0.4,0.5
2023-09-25T00:00:00,1338A,112.9394,28.19,长沙市,湖南师范大学,,32,21,16,22,13,38,27,33,30,6,10,4,4,0.5,0.5
2023-09-25T00:00:00,1339A,113.0178,28.1322,长沙市,雨花区环保局,,25,25,23,12,15,40,18,30,22,13,16,6,6,0.6,0.7
2023-09-25T00:00:00,1340A,112.9792,28.2597,长沙市,伍家岭,,30,30,18,5,11,33,20,27,24,9,12,3,3,0.4,0.5
2023-09-25T00:00:00,1341A,113.0014,28.1944,长沙市,火车新站,,22,22,25,14,14,40,23,30,26,9,14,6,6,0.5,0.6
2023-09-25T00:00:00,1342A,112.9844,28.1178,长沙市,天心区环保局,,23,21,31,16,12,39,20,28,22,11,15,3,3,0.4,0.5
2023-09-25T00:00:00,1343A,112.8908,28.1308,长沙市,湖南中医药大学,,32,30,26,22,14,45,27,34,28,4,8,2,2,0.7,0.7
2023-09-25T00:00:00,1344A,112.9581,28.3611,长沙市,沙坪,,27,27,20,9,6,23,16,21,19,8,9,6,6,0.3,0.4
2023-09-25T00:00:00,1345A,113.2347,23.1423,广州市,广雅中学,,25,25,28,9,13,126,27,114,73,31,26,3,3,0.6,0.6
2023-09-25T00:00:00,1346A,113.2612,23.105,广州市,市五中,,26,26,30,11,16,146,24,130,79,28,23,7,7,0.5,0.5
2023-09-25T00:00:00,1348A,113.3478,23.0916,广州市,广东商学院,,34,34,34,11,14,133,24,118,68,36,30,4,4,0.5,0.5
2023-09-25T00:00:00,1349A,113.4332,23.1047,广州市,市八十六中,,23,23,38,7,14,113,30,100,57,20,29,5,5,0.9,1
2023-09-25T00:00:00,1350A,113.3505,22.9483,广州市,番禺中学,,22,22,30,8,13,155,30,144,78,30,27,6,7,0.6,0.6
2023-09-25T00:00:00,1351A,113.2146,23.3916,广州市,花都师范,,30,30,34,11,15,103,37,94,62,34,30,7,6,0.7,0.7
2023-09-25T00:00:00,1352A,113.2597,23.1331,广州市,市监测站,,24,24,29,11,13,130,28,112,71,34,28,4,4,0.6,0.6
2023-09-25T00:00:00,1353A,113.5618,23.312,广州市,九龙镇镇龙,,25,25,29,11,17,80,45,75,41,19,21,4,4,0.4,0.4
2023-09-25T00:00:00,1354A,113.2765,23.1544,广州市,麓湖,,24,24,25,9,11,122,34,106,63,29,18,6,5,0.6,0.5
2023-09-25T00:00:00,1355A,113.443,23.3035,广州市,帽峰山森林公园,,29,29,24,14,13,90,31,86,59,33,17,10,7,0.4,0.4
2023-09-25T00:00:00,1356A,114.1063,22.5545,深圳市,通心岭子站,,21,21,16,8,8,91,60,81,69,10,14,2,2,0.6,0.6
2023-09-25T00:00:00,1357A,114.117,22.5625,深圳市,洪湖,,24,24,22,6,7,92,63,82,70,7,12,6,6,0.4,0.5
2023-09-25T00:00:00,1358A,113.987,22.5417,深圳市,华侨城,,21,21,17,5,6,84,54,72,62,11,13,7,7,0.7,0.7
2023-09-25T00:00:00,1359A,113.9181,22.5171,深圳市,南海子站,,20,20,19,11,7,82,56,71,64,9,11,5,5,0.7,0.7
2023-09-25T00:00:00,1360A,114.2458,22.5689,深圳市,盐田,,20,20,19,6,8,103,63,82,72,10,20,5,5,0.5,0.5
2023-09-25T00:00:00,1361A,114.2283,22.7244,深圳市,龙岗,,18,18,22,5,8,113,51,88,60,7,11,6,7,0.6,0.5
2023-09-25T00:00:00,1363A,114.494,22.5422,深圳市,南澳,,15,15,14,9,8,79,48,71,58,9,8,6,7,0.5,0.5
2023-09-25T00:00:00,1364A,114.41,22.6342,深圳市,葵涌,,20,20,20,3,6,91,56,72,60,8,12,5,5,0.5,0.6
2023-09-25T00:00:00,1365A,114.297,22.5978,深圳市,梅沙,,28,28,25,7,8,89,66,78,71,6,7,6,6,0.6,0.6
2023-09-25T00:00:00,1366A,114.0678,22.738,深圳市,观澜,,,29,33,10,11,144,,110,57,13,16,7,8,0.6,0.8
2023-09-25T00:00:00,1367A,113.5814,22.2618,珠海市,吉大,,21,16,15,8,8,102,66,88,81,9,15,5,6,0.4,0.4
2023-09-25T00:00:00,1368A,113.4881,22.2335,珠海市,前山,,21,18,14,8,9,94,66,77,70,8,15,9,9,0.3,0.3
2023-09-25T00:00:00,1369A,113.628,22.4251,珠海市,唐家,,18,18,18,7,6,93,54,77,58,13,14,6,6,0.4,0.4
2023-09-25T00:00:00,1370A,113.299,22.2281,珠海市,斗门,,21,15,15,7,7,103,66,79,68,7,13,7,10,0.4,0.4
2023-09-25T00:00:00,1371A,113.1294,23.0067,佛山市,湾梁,,15,9,26,10,15,170,41,145,94,12,20,6,8,0.6,0.6
2023-09-25T00:00:00,1372A,113.1083,23.0478,佛山市,华材职中,,18,12,29,12,16,148,44,130,90,13,23,4,5,0.4,0.5
2023-09-25T00:00:00,1373A,113.144,23.0453,佛山市,南海气象局,,30,30,32,15,17,129,35,112,70,14,24,8,8,0.4,0.4
2023-09-25T00:00:00,1374A,113.2881,22.8094,佛山市,顺德苏岗,,24,24,30,7,14,176,36,152,74,18,20,7,8,0.5,0.6
2023-09-25T00:00:00,1376A,112.8383,22.8678,佛山市,高明孔堂,,18,17,34,12,17,190,49,173,120,17,21,6,6,0.6,0.6
2023-09-25T00:00:00,1377A,112.8836,23.1588,佛山市,三水监测站,,34,34,44,14,19,154,13,134,69,50,34,4,5,0.6,0.5
2023-09-25T00:00:00,1378A,112.867,23.185,佛山市,三水云东海,,42,42,37,13,21,154,29,130,74,38,24,5,5,0.6,0.6
2023-09-25T00:00:00,1379A,113.3769,22.5211,中山市,华柏园,,17,14,24,9,8,108,52,87,58,14,19,6,6,0.3,0.3
2023-09-25T00:00:00,1380A,113.3881,22.5497,中山市,张溪,,15,15,30,8,9,114,47,95,59,12,17,4,4,0.4,0.4
2023-09-25T00:00:00,1381A,113.4075,22.5111,中山市,紫马岭,,22,22,20,8,8,106,48,86,57,11,14,6,6,0.3,0.3
2023-09-25T00:00:00,1382A,113.4411,22.4853,中山市,长江旅游区,,,,,,,,,,,,,,,,
2023-09-25T00:00:00,1383A,113.1064,22.6058,江门市,北街,,18,18,28,10,12,156,40,129,73,17,21,6,6,0.4,0.4
2023-09-25T00:00:00,1384A,113.0731,22.5835,江门市,西区,,26,26,28,13,13,160,48,132,78,16,20,6,6,0.3,0.3
2023-09-25T00:00:00,1385A,113.0219,22.5311,江门市,圭峰西,,20,18,25,6,10,140,63,122,79,11,16,4,4,0.5,0.6
2023-09-25T00:00:00,1386A,113.0828,22.5947,江门市,东湖,,23,23,26,5,13,158,45,131,78,13,16,8,8,0.4,0.5
2023-09-25T00:00:00,1389A,113.7547,23.0494,东莞市,莞城梨川,,,22,30,8,12,114,,104,85,16,16,6,6,0.6,0.6
2023-09-25T00:00:00,1390A,113.7944,23.0128,东莞市,东城石井,,23,23,28,8,12,115,38,106,69,16,16,4,4,0.6,0.6
2023-09-25T00:00:00,1391A,113.7383,22.9658,东莞市,南城西平,,,,30,,14,123,,114,93,16,25,6,5,0.5,0.5
2023-09-25T00:00:00,1392A,114.4183,23.0528,惠州市,河南岸金山湖子站,,20,20,28,8,14,103,55,83,72,9,11,5,5,0.4,0.4
2023-09-25T00:00:00,1393A,114.4053,23.0822,惠州市,下埔横江三路子站,,23,23,28,9,12,96,55,83,68,10,10,6,7,0.5,0.5
2023-09-25T00:00:00,1394A,114.4103,23.1142,惠州市,江北云山西路子站,,23,23,26,7,11,103,62,86,77,4,8,6,8,0.5,0.5
2023-09-25T00:00:00,1395A,114.4645,22.7833,惠州市,惠阳区承修路船湖子站,,22,22,26,9,11,94,38,75,52,8,9,5,5,0.5,0.5
2023-09-25T00:00:00,1396A,114.5317,22.7422,惠州市,大亚湾管委会子站,,30,30,27,16,11,106,48,83,63,11,16,6,7,0.6,0.5
2023-09-25T00:00:00,1397A,112.4267,23.0706,肇庆市,睦岗子站,,31,31,38,14,22,171,74,158,108,19,26,10,7,0.4,0.4
2023-09-25T00:00:00,1398A,112.4645,23.0475,肇庆市,城中子站,,40,40,36,18,20,173,72,159,113,22,30,10,9,0.5,0.5
2023-09-25T00:00:00,1399A,112.5544,23.1522,肇庆市,坑口子站,,26,26,30,16,19,162,70,145,98,26,21,8,7,0.4,0.4
2023-09-25T00:00:00,1400A,112.4753,23.1,肇庆市,七星岩子站,,,,,,,,,,,,,,,,
2023-09-25T00:00:00,1401A,108.3103,22.7881,南宁市,二十一中,,36,36,33,23,20,130,82,124,105,12,11,5,5,0.7,0.7
2023-09-25T00:00:00,1402A,108.3141,22.8528,南宁市,北湖,颗粒物(PM10),56,62,37,38,24,144,77,133,98,16,15,4,6,0.5,0.4
2023-09-25T00:00:00,1403A,108.3206,22.8225,南宁市,市监测站,,40,36,33,28,21,139,85,128,108,20,16,9,8,0.6,0.6
2023-09-25T00:00:00,1404A,108.3829,22.8037,南宁市,大自然花园,,44,44,33,29,23,122,71,114,88,13,15,6,6,0.6,0.6
2023-09-25T00:00:00,1405A,108.4394,22.7904,南宁市,仙葫,,46,37,37,32,23,121,65,116,98,25,22,7,7,0.4,0.3
2023-09-25T00:00:00,1406A,108.2397,22.8467,南宁市,区农职院,颗粒物(PM10),54,57,41,28,23,142,83,125,81,22,25,9,11,0.7,0.7
2023-09-25T00:00:00,1407A,108.3275,22.735,南宁市,英华嘉园,,39,37,35,27,21,106,56,102,84,26,17,7,6,0.6,0.5
2023-09-25T00:00:00,1408A,108.2257,22.7757,南宁市,沙井镇街道办,颗粒物(PM10),53,56,52,27,24,131,42,110,64,45,30,6,7,0.6,0.6
2023-09-25T00:00:00,1409A,110.576,19.9507,海口市,东寨港,,,,,,,,,,,,,,,,
2023-09-25T00:00:00,1410A,110.3232,20.0574,海口市,海南大学,,12,11,21,6,8,78,36,74,40,7,7,6,6,0.3,0.3
2023-09-25T00:00:00,1411A,110.283,20.0053,海口市,秀英海南医院,,9,6,15,1,7,75,27,71,32,17,13,6,7,0,0.2
2023-09-25T00:00:00,1412A,110.338,19.9969,海口市,海南师范大学,,11,4,16,1,7,76,33,69,39,8,7,4,4,0.3,0.3
2023-09-25T00:00:00,1413A,110.33,20.0356,海口市,龙华路环保局宿舍,,11,6,18,3,8,75,35,71,38,6,8,7,7,0.3,0.3
2023-09-25T00:00:00,1414A,106.3787,29.8279,重庆市,缙云山,,10,6,7,3,4,50,30,34,34,12,9,7,7,0.3,0.3
2023-09-25T00:00:00,1416A,106.4213,29.8253,重庆市,天生,,19,19,13,11,9,17,13,14,11,17,20,5,5,0.8,0.9
2023-09-25T00:00:00,1417A,106.6263,29.7228,重庆市,两路,,13,12,10,9,8,20,7,15,7,20,23,8,8,0.9,0.8
2023-09-25T00:00:00,1418A,106.2953,29.5983,重庆市,虎溪,,22,16,14,15,7,37,8,23,11,22,20,4,5,0.7,0.7
2023-09-25T00:00:00,1419A,106.5777,29.5102,重庆市,南坪,,18,18,18,7,11,27,6,18,14,32,26,6,6,0.5,0.6
2023-09-25T00:00:00,1420A,106.6556,29.6277,重庆市,唐家沱,,16,13,10,11,7,26,5,22,11,21,17,4,4,0.6,0.6
2023-09-25T00:00:00,1421A,106.6349,29.4906,重庆市,茶园,,13,13,14,8,8,33,24,28,21,26,27,4,5,0.8,0.9
2023-09-25T00:00:00,1422A,106.3754,29.4572,重庆市,白市驿,,33,20,20,23,12,21,21,13,10,18,27,6,6,0.7,0.8
2023-09-25T00:00:00,1425A,106.6205,29.7166,重庆市,空港,,26,26,17,15,9,28,10,24,12,24,22,6,6,0.8,0.7
2023-09-25T00:00:00,1426A,106.4782,29.4875,重庆市,新山村,,18,18,21,12,13,16,9,13,7,33,37,5,5,0.8,0.9
2023-09-25T00:00:00,1427A,106.5616,29.6453,重庆市,礼嘉,,23,14,11,16,9,23,5,16,9,26,25,6,6,0.9,0.9
2023-09-25T00:00:00,1428A,106.4522,29.7091,重庆市,蔡家,,21,21,22,12,9,29,12,22,13,23,21,6,6,0.8,0.8
2023-09-25T00:00:00,1429A,106.5093,29.3917,重庆市,鱼新街,,21,21,13,12,11,29,18,21,14,30,32,5,5,1.0,1.1
2023-09-25T00:00:00,1431A,103.9728,30.7236,成都市,金泉两河,,29,25,21,20,7,62,0,52,28,45,18,2,2,0.7,0.5
2023-09-25T00:00:00,1432A,104.176,30.6872,成都市,十里店,,21,12,15,2,6,56,3,50,35,41,17,3,3,0.5,0.4
2023-09-25T00:00:00,1433A,104.079,30.5706,成都市,三瓦窑,,28,18,17,1,4,56,0,50,25,55,23,2,2,0.6,0.5
2023-09-25T00:00:00,1434A,104.1114,30.63,成都市,沙河铺,,33,33,23,6,8,54,12,48,33,28,14,3,1,0.6,0.5
2023-09-25T00:00:00,1437A,104.0786,30.6531,成都市,君平街,,18,18,20,11,10,60,17,55,42,35,20,2,1,0.5,0.5
2023-09-25T00:00:00,1438A,103.613,31.0283,成都市,灵岩寺,,20,20,11,12,7,63,46,57,49,16,8,8,6,0.9,0.8
2023-09-25T00:00:00,1439A,106.6899,26.5998,贵阳市,马鞍山,,27,27,22,14,13,89,35,86,54,19,9,5,5,0.5,0.5
2023-09-25T00:00:00,1440A,106.6971,26.5694,贵阳市,市环保站,,39,39,30,24,20,94,37,88,63,39,16,5,3,0.4,0.3
2023-09-25T00:00:00,1441A,106.6243,26.6266,贵阳市,鉴湖路,,32,29,28,22,14,84,60,81,65,12,8,2,3,0.4,0.4
2023-09-25T00:00:00,1442A,106.7487,26.6343,贵阳市,燕子冲,,39,39,23,22,17,83,31,81,53,24,10,5,5,0.7,0.6
2023-09-25T00:00:00,1443A,106.6555,26.4365,贵阳市,碧云窝,,31,31,27,17,14,85,51,82,59,14,7,5,5,0.4,0.4
2023-09-25T00:00:00,1444A,106.694,26.5161,贵阳市,中院村,颗粒物(PM10),67,83,32,36,18,72,16,68,50,37,15,7,7,0.4,0.3
2023-09-25T00:00:00,1445A,106.7109,26.6027,贵阳市,红边门,,29,29,33,14,21,82,53,78,55,18,16,4,5,0.4,0.4
2023-09-25T00:00:00,1446A,106.7164,26.5699,贵阳市,新华路,,22,14,26,12,20,86,69,83,57,13,15,6,6,0.2,0.4
2023-09-25T00:00:00,1447A,106.674,26.5424,贵阳市,太慈桥,,34,34,21,19,15,88,27,85,42,32,13,4,5,0.4,0.4
2023-09-25T00:00:00,1450A,102.8204,24.8886,昆明市,呈贡新区,,38,38,23,17,11,86,49,77,70,19,16,10,8,0.5,0.5
2023-09-25T00:00:00,1451A,102.6251,24.9608,昆明市,西山森林公园,,17,11,11,6,8,92,53,79,72,10,10,6,7,0.5,0.5
2023-09-25T00:00:00,1452A,102.7252,25.0902,昆明市,龙泉镇,,28,28,19,10,9,87,44,79,62,18,15,10,9,0.5,0.6
2023-09-25T00:00:00,1453A,102.7266,25.0375,昆明市,东风东路,,24,24,18,11,9,84,48,78,62,14,13,9,8,0.5,0.6
2023-09-25T00:00:00,1454A,102.6742,25.0669,昆明市,金鼎山,,16,16,23,8,8,87,47,80,64,11,14,13,13,0.4,0.4
2023-09-25T00:00:00,1455A,102.6644,25.0401,昆明市,碧鸡广场,,24,24,20,6,9,81,43,76,60,13,18,9,8,0.5,0.5
2023-09-25T00:00:00,1456A,91.1319,29.6514,拉萨市,八廓街,,18,18,12,9,8,80,42,73,58,22,15,7,7,0.4,0.3
2023-09-25T00:00:00,1457A,91.1221,29.6747,拉萨市,市环保局,,33,33,13,12,7,84,20,71,50,34,17,8,7,0.4,0.3
2023-09-25T00:00:00,1458A,91.0874,29.6475,拉萨市,区监测站,,16,15,8,7,6,79,24,68,52,32,15,9,9,0.5,0.3
2023-09-25T00:00:00,1459A,91.1774,29.6541,拉萨市,西藏大学,,20,20,8,13,6,77,37,72,61,21,9,7,8,0.5,0.4
2023-09-25T00:00:00,1460A,90.9798,29.6588,拉萨市,区辐射站,,15,14,12,10,6,77,45,67,56,22,14,10,10,0.3,0.3
2023-09-25T00:00:00,1461A,91.0834,29.6292,拉萨市,拉萨火车站,,14,11,10,8,6,75,42,67,62,20,10,7,6,0.5,0.3
2023-09-25T00:00:00,1462A,108.882,34.2749,西安市,高压开关厂,,46,46,26,18,14,75,17,70,41,53,26,7,6,0.7,0.6
2023-09-25T00:00:00,1463A,108.993,34.2629,西安市,兴庆小区,,26,26,20,13,13,72,15,67,31,50,25,6,5,0.5,0.4
2023-09-25T00:00:00,1464A,109.06,34.2572,西安市,纺织城,,30,30,20,17,16,70,4,63,23,41,26,5,5,0.7,0.6
2023-09-25T00:00:00,1465A,108.9356,34.2173,西安市,小寨,,28,28,23,17,14,67,15,61,32,42,23,6,6,0.7,0.5
2023-09-25T00:00:00,1466A,108.954,34.2713,西安市,市人民体育场,,34,34,21,20,18,70,5,64,21,52,24,6,6,0.7,0.5
2023-09-25T00:00:00,1467A,108.8922,34.2322,西安市,高新西区,,31,31,20,20,15,69,23,64,40,48,24,6,5,0.7,0.5
2023-09-25T00:00:00,1468A,108.935,34.3474,西安市,经开区,,30,28,20,15,15,75,1,68,31,60,18,3,3,0.4,0.3
2023-09-25T00:00:00,1469A,108.906,34.1546,西安市,长安区,,25,25,19,17,14,75,16,64,35,33,18,7,6,0.6,0.5
2023-09-25T00:00:00,1471A,109.2186,34.3731,西安市,临潼区,,,37,21,15,13,68,11,61,42,33,18,,4,0.6,0.5
2023-09-25T00:00:00,1472A,108.869,34.378,西安市,草滩,,,,,,,,,,,,,,,,
2023-09-25T00:00:00,1473A,108.985,34.1978,西安市,曲江文化产业集团,,32,32,24,15,13,64,10,61,32,41,22,5,4,0.6,0.5
2023-09-25T00:00:00,1474A,109.051,34.3213,西安市,广运潭,,37,37,19,14,12,68,1,62,18,38,22,7,7,0.7,0.5
2023-09-25T00:00:00,1476A,103.631,36.1031,兰州市,兰炼宾馆,,50,45,33,35,26,85,22,81,51,45,20,1,2,0.4,0.3
2023-09-25T00:00:00,1477A,104.1373,35.9454,兰州市,榆中兰大校区,,,,,,,,,,,,,,,,
2023-09-25T00:00:00,1478A,103.8412,36.0726,兰州市,生物制品所,,42,29,44,29,37,84,28,74,41,41,25,4,4,0.8,0.6
2023-09-25T00:00:00,1479A,103.831,36.0464,兰州市,铁路设计院,,45,39,27,31,25,86,24,76,40,50,31,7,7,0.8,0.6
2023-09-25T00:00:00,1483A,101.524,36.6867,西宁市,第五水厂,,,,,,,,,,,,,,,,
2023-09-25T00:00:00,1484A,105.9512,38.6016,银川市,贺兰山马莲口,,26,26,30,8,20,110,81,91,83,10,16,3,3,0.3,0.4
2023-09-25T00:00:00,1488A,106.2328,38.4975,银川市,贺兰山东路,颗粒物(PM10),74,98,50,51,33,132,41,111,75,66,27,10,10,0.8,0.7
2023-09-25T00:00:00,1489A,106.1358,38.5036,银川市,学院路,细颗粒物(PM2.5),114,99,54,86,37,123,30,101,52,71,31,8,8,0.6,0.5
2023-09-25T00:00:00,1490A,87.5801,43.8303,乌鲁木齐市,监测站,,16,9,19,5,7,71,48,63,48,32,31,4,4,0.5,0.4
2023-09-25T00:00:00,1491A,87.6046,43.768,乌鲁木齐市,收费所,,16,6,19,0,10,76,22,63,43,32,25,3,3,0.4,0.3
2023-09-25T00:00:00,1492A,87.4754,43.9469,乌鲁木齐市,新疆农科院农场,,44,44,57,2,10,69,47,61,47,22,34,1,1,0.9,0.8
2023-09-25T00:00:00,1493A,87.5525,43.8711,乌鲁木齐市,铁路局,,13,8,22,5,7,69,41,61,44,17,30,4,4,0.5,0.5
2023-09-25T00:00:00,1494A,87.6432,43.831,乌鲁木齐市,三十一中学,,,3,16,,7,81,65,67,60,10,16,4,4,0.3,0.3
2023-09-25T00:00:00,1496A,87.7216,44.1747,乌鲁木齐市,米东区环保局,,17,10,26,4,9,81,54,72,59,13,15,7,8,0.4,0.3
2023-09-25T00:00:00,1508A,112.9433,27.8614,湘潭市,板塘,,32,32,28,17,12,43,15,30,22,20,19,6,6,0.4,0.4
2023-09-25T00:00:00,1511A,112.9118,27.8403,湘潭市,市监测站,,22,22,28,15,16,52,23,38,28,14,15,4,4,0.6,0.6
2023-09-25T00:00:00,1512A,112.8937,27.8728,湘潭市,江麓,,25,25,28,14,13,62,28,46,36,16,14,7,7,0.6,0.6
2023-09-25T00:00:00,1513A,112.9227,27.8159,湘潭市,岳塘,,30,30,30,16,18,58,21,41,30,17,17,10,10,0.4,0.5
2023-09-25T00:00:00,1514A,112.9074,27.9119,湘潭市,科大,,,,,,,,,,,,,,,,
2023-09-25T00:00:00,1515A,113.135,27.8244,株洲市,天台山庄,,38,38,37,17,20,36,13,23,17,26,26,5,5,0.7,0.7
2023-09-25T00:00:00,1518A,113.095,27.8867,株洲市,株冶医院,,44,44,43,21,20,37,9,24,16,27,25,5,7,0.5,0.7
2023-09-25T00:00:00,1519A,113.167,27.8667,株洲市,市四中,,30,30,36,14,19,38,11,25,17,27,24,4,4,0.7,0.7
2023-09-25T00:00:00,1520A,113.143,27.8381,株洲市,火车站,,36,36,40,17,22,31,12,23,18,27,27,6,5,0.7,0.8
2023-09-25T00:00:00,1524A,113.13,27.8528,株洲市,市监测站,,40,40,41,20,22,38,12,24,17,26,25,6,6,0.6,0.7
2023-09-25T00:00:00,1552A,106.805,26.3003,贵阳市,桐木岭,,,,,,,,,,,,,,,,
2023-09-25T00:00:00,1559A,113.251,27.8336,株洲市,大京风景区,,31,31,32,17,23,54,10,30,22,27,19,4,4,0.6,0.6
2023-09-25T00:00:00,1562A,113.0048,27.9153,湘潭市,昭山,,36,36,38,16,17,43,21,34,24,15,16,5,5,0.5,0.6
2023-09-25T00:00:00,1564A,112.4876,27.9164,湘潭市,韶山,,33,33,26,16,9,53,35,47,44,9,11,5,5,0.5,0.5
2023-09-25T00:00:00,1585A,109.8756,40.6532,包头市,市环境监测站,,35,35,25,21,20,100,37,88,58,40,24,12,9,0.8,0.7
2023-09-25T00:00:00,1587A,109.9991,40.5842,包头市,包头八中,,43,43,36,24,26,102,48,87,75,34,21,27,15,0.8,0.8
2023-09-25T00:00:00,1588A,109.8538,40.6821,包头市,青山宾馆,,34,34,27,23,23,102,52,91,63,24,20,13,10,0.9,0.9
2023-09-25T00:00:00,1589A,109.8642,40.6288,包头市,惠龙物流,,32,30,25,22,16,102,39,94,73,42,23,17,10,0.6,0.6
2023-09-25T00:00:00,1590A,110.0377,40.5546,包头市,东河鸿龙湾,,36,36,29,22,21,101,21,86,54,44,21,16,15,0.6,0.7
2023-09-25T00:00:00,1591A,110.0023,39.8129,鄂尔多斯市,综合楼,,35,31,31,24,19,90,44,82,48,33,25,5,4,0.7,0.6
2023-09-25T00:00:00,1592A,109.9486,39.8261,鄂尔多斯市,巴音孟克林场办事处,,32,31,30,22,24,92,59,87,60,27,19,6,6,0.7,0.7
2023-09-25T00:00:00,1593A,109.7736,39.5986,鄂尔多斯市,康泽苑,,36,29,30,25,22,92,22,85,49,28,17,4,4,0.7,0.7
2023-09-25T00:00:00,1594A,109.8119,39.5989,鄂尔多斯市,华泰汽车城,,39,36,34,27,25,83,11,76,32,36,20,3,4,0.4,0.5
2023-09-25T00:00:00,1595A,109.9734,39.7884,鄂尔多斯市,奥林花园,,36,36,35,17,22,84,16,78,39,34,17,4,5,0.8,0.8
2023-09-25T00:00:00,1597A,122.2703,40.7094,营口市,大庆路,,40,39,70,28,40,91,21,80,55,31,24,4,8,0.8,1.3
2023-09-25T00:00:00,1598A,122.2150,40.6511,营口市,镜湖西路,,32,32,52,18,26,90,34,78,58,22,28,7,9,0.5,0.8
2023-09-25T00:00:00,1599A,122.1658,40.6789,营口市,西炮台,,32,32,58,14,28,89,39,79,60,29,33,5,9,0.8,0.9
2023-09-25T00:00:00,1600A,124.3303,40.0625,丹东市,江湾东路,颗粒物(PM10),51,51,36,28,22,100,26,83,34,24,23,9,11,1.0,0.8
2023-09-25T00:00:00,1601A,124.4256,40.1503,丹东市,临江后街,颗粒物(PM10),64,78,30,43,16,98,24,86,46,25,18,6,8,1.0,0.7
2023-09-25T00:00:00,1602A,124.3933,40.1461,丹东市,元宝山,颗粒物(PM10),52,53,29,25,15,89,40,76,50,11,18,8,9,0.9,0.7
2023-09-25T00:00:00,1603A,124.3633,40.1092,丹东市,民主桥,,35,35,30,16,15,94,21,85,37,30,23,5,6,0.7,0.7
2023-09-25T00:00:00,1604A,122.0303,41.1489,盘锦市,开发区,,25,11,41,10,27,114,77,94,81,16,47,2,11,0.9,1
2023-09-25T00:00:00,1605A,122.0485,41.0883,盘锦市,兴隆台,,25,10,49,17,30,111,67,89,77,10,30,6,14,0.6,0.9
2023-09-25T00:00:00,1606A,121.8297,41.1028,盘锦市,新生街道,,25,12,29,7,17,113,78,95,80,12,30,5,8,0.4,0.7
2023-09-25T00:00:00,1607A,120.9092,40.7136,葫芦岛市,龙港区,,37,37,73,2,41,92,92,52,33,14,61,10,88,0.5,0.9
2023-09-25T00:00:00,1608A,120.8392,40.7514,葫芦岛市,化工街,颗粒物(PM10),51,51,62,29,29,34,6,25,11,55,64,10,28,0.7,0.7
2023-09-25T00:00:00,1609A,120.8341,40.7073,葫芦岛市,新区,细颗粒物(PM2.5),69,59,57,50,47,13,4,12,9,60,74,13,18,1.5,1.3
2023-09-25T00:00:00,1610A,120.8695,40.7677,葫芦岛市,东城区,细颗粒物(PM2.5),53,35,58,37,33,53,5,23,7,69,66,10,25,0.7,0.7
2023-09-25T00:00:00,1611A,118.5819,24.9117,泉州市,涂山街,,21,18,27,5,9,97,65,93,72,2,7,5,6,0.5,0.5
2023-09-25T00:00:00,1612A,118.5972,24.8978,泉州市,津头埔,,19,15,21,10,9,92,60,83,62,13,12,4,5,0.4,0.4
2023-09-25T00:00:00,1613A,118.6663,24.9424,泉州市,万安,,20,20,24,9,8,94,62,86,68,10,10,2,3,0.6,0.5
2023-09-25T00:00:00,1614A,118.6117,24.9604,泉州市,清源山,,,,,,,,,,,,,,,,
2023-09-25T00:00:00,1616A,117.6795,36.229,济南市,技术学院,,46,44,33,32,22,125,46,103,58,24,24,5,6,0.7,0.8
2023-09-25T00:00:00,1618A,118.3429,35.0532,临沂市,沂河小区,,26,14,36,14,22,102,83,97,84,12,22,5,6,0.3,0.4
2023-09-25T00:00:00,1619A,118.295,35.0583,临沂市,鲁南制药厂,,25,7,30,13,21,108,79,103,88,10,22,3,5,0.4,0.6
2023-09-25T00:00:00,1620A,118.2794,34.9976,临沂市,新光毛纺厂,,23,5,22,16,23,106,72,100,85,17,27,4,6,0.6,0.7
2023-09-25T00:00:00,1621A,118.3956,35.0888,临沂市,河东保险公司,,21,12,31,14,28,99,65,91,75,10,23,2,3,0.5,0.7
2023-09-25T00:00:00,1622A,116.3032,37.4674,德州市,儿童乐园,,46,46,37,19,19,82,17,60,37,42,24,8,11,0.6,0.7
2023-09-25T00:00:00,1624A,116.2991,37.4451,德州市,监理站,,40,40,30,24,20,86,24,64,41,36,24,14,14,0.5,0.6
2023-09-25T00:00:00,1625A,115.9848,36.4372,聊城市,区政府,,40,35,32,28,24,93,42,82,67,17,24,2,3,0.5,0.6
2023-09-25T00:00:00,1628A,118.0062,37.3803,滨州市,市环保局,,22,22,33,14,24,91,44,77,62,28,32,6,11,0.5,0.6
2023-09-25T00:00:00,1629A,118.0018,37.3617,滨州市,第二水厂,,28,19,32,19,23,96,46,82,57,33,36,7,11,0.7,0.9
2023-09-25T00:00:00,1630A,117.9776,37.393,滨州市,北中新校,,28,25,43,19,25,87,41,66,48,25,37,4,8,0.5,0.7
2023-09-25T00:00:00,1631A,118.0414,36.8103,淄博市,人民公园,,49,41,54,34,37,88,58,81,68,22,37,8,7,0.4,0.7
2023-09-25T00:00:00,1633A,117.8525,36.4847,淄博市,双山,"颗粒物(PM10),细颗粒物(PM2.5)",60,70,45,43,27,98,50,90,65,22,23,4,5,0.5,0.5
2023-09-25T00:00:00,1634A,117.9592,36.6331,淄博市,气象站,细颗粒物(PM2.5),62,31,43,44,37,101,48,86,59,16,27,7,7,0.2,0.3
2023-09-25T00:00:00,1635A,118.3092,36.8194,淄博市,莆田园,,44,44,54,29,35,95,48,88,68,35,42,6,6,0.7,1
2023-09-25T00:00:00,1637A,117.558,34.8438,枣庄市,市中区政府,,25,12,28,7,26,106,80,102,85,17,24,3,6,0.3,0.4
2023-09-25T00:00:00,1638A,117.2852,34.7837,枣庄市,薛城环保局,,22,22,43,13,32,90,60,83,65,16,28,4,4,0.5,0.7
2023-09-25T00:00:00,1639A,117.5852,34.7745,枣庄市,峄城区政府,,24,17,33,2,20,108,76,103,88,14,23,3,5,0.4,0.6
2023-09-25T00:00:00,1640A,117.7276,34.5578,枣庄市,台儿庄区环保局,,21,14,32,14,26,102,66,93,80,17,22,4,4,0.6,0.7
2023-09-25T00:00:00,1641A,117.4518,35.0992,枣庄市,山亭区环保局,,30,2,29,5,28,126,93,117,95,12,17,4,4,0.5,0.7
2023-09-25T00:00:00,1642A,121.2514,37.5639,烟台市,开发区,,27,7,24,9,14,113,84,100,79,3,19,1,2,0.5,0.7
2023-09-25T00:00:00,1643A,121.3719,37.5433,烟台市,轴承厂,,26,14,24,9,17,121,82,111,92,6,12,3,4,0.2,0.3
2023-09-25T00:00:00,1644A,121.3181,37.5436,烟台市,西郊化工站,,26,7,30,9,18,114,83,103,91,6,19,4,6,0.5,0.6
2023-09-25T00:00:00,1645A,121.4478,37.4822,烟台市,莱山环保局,,25,5,19,7,11,110,78,105,94,5,12,5,6,0.4,0.5
2023-09-25T00:00:00,1646A,121.2611,37.4967,烟台市,福山环保局,,21,14,33,12,16,107,66,94,72,11,25,1,2,0.2,0.2
2023-09-25T00:00:00,1650A,119.1437,36.7023,潍坊市,环保局,,29,14,16,20,16,106,92,100,92,10,16,7,7,0.4,0.5
2023-09-25T00:00:00,1653A,116.6251,35.4302,济宁市,火炬城,,26,26,31,14,13,103,50,94,71,11,14,7,7,0.5,0.4
2023-09-25T00:00:00,1655A,116.5491,35.4042,济宁市,电化厂,,40,40,37,17,15,105,55,97,75,11,13,3,3,0.6,0.5
2023-09-25T00:00:00,1656A,117.1437,36.1937,泰安市,监测站,,29,22,42,20,34,92,50,81,66,10,14,7,9,0.7,0.7
2023-09-25T00:00:00,1657A,117.0885,36.2017,泰安市,人口学校,,20,19,33,14,20,98,49,80,56,13,18,8,9,0.6,0.7
2023-09-25T00:00:00,1658A,117.1089,36.1758,泰安市,电力学校,,28,24,40,19,25,93,20,82,58,30,15,7,8,0.4,0.6
2023-09-25T00:00:00,1659A,119.471,35.4209,日照市,监测站,,25,12,16,9,13,106,79,95,88,15,24,6,6,0.6,0.7
2023-09-25T00:00:00,1660A,119.523,35.4216,日照市,市政府广场,,29,7,18,20,15,111,76,103,96,13,17,4,4,0.6,0.5
2023-09-25T00:00:00,1661A,119.5587,35.4044,日照市,港务局,,23,12,18,12,10,138,73,112,98,17,16,8,7,0.6,0.4
2023-09-25T00:00:00,1662A,122.1214,37.4236,威海市,华夏技校,,23,7,18,7,13,103,71,96,73,6,11,2,2,0.2,0.3
2023-09-25T00:00:00,1663A,122.0508,37.5236,威海市,山大分校,,22,7,23,5,10,111,69,103,73,7,10,3,4,0.3,0.3
2023-09-25T00:00:00,1664A,122.1067,37.5072,威海市,市监测站,,23,5,22,2,10,116,71,105,68,9,15,6,7,0.4,0.5
2023-09-25T00:00:00,1666A,118.6614,37.4309,东营市,市环保局,,22,22,29,14,20,100,50,85,69,22,18,5,10,0.5,0.6
2023-09-25T00:00:00,1669A,113.5824,24.7733,韶关市,市八中,,20,20,27,6,15,88,54,84,63,6,7,11,11,0.6,0.6
2023-09-25T00:00:00,1671A,113.5917,24.7972,韶关市,园林处,,30,28,25,21,19,85,58,82,68,3,3,8,9,0.7,0.7
2023-09-25T00:00:00,1672A,113.6735,24.7791,韶关市,韶关学院,,26,23,26,18,19,89,38,81,57,14,9,6,10,0.6,0.6
2023-09-25T00:00:00,1673A,113.5971,24.6863,韶关市,曲江监测站,,32,32,31,14,18,118,49,99,63,11,10,12,13,0.6,0.7
2023-09-25T00:00:00,1674A,116.6794,23.3667,汕头市,金平子站,,20,18,24,8,11,110,61,86,56,7,11,4,6,0.6,0.7
2023-09-25T00:00:00,1675A,116.7244,23.3633,汕头市,龙湖子站,,21,19,23,6,9,111,65,89,61,8,10,5,7,0.4,0.5
2023-09-25T00:00:00,1676A,116.7258,23.2775,汕头市,濠江子站,,22,22,22,2,4,112,62,86,61,9,9,8,8,0.4,0.5
2023-09-25T00:00:00,1677A,116.7519,23.4714,汕头市,澄海子站,,21,19,23,12,11,103,65,90,60,8,12,7,10,0.4,0.4
2023-09-25T00:00:00,1678A,116.6092,23.2539,汕头市,潮阳子站,,20,16,26,6,12,104,64,78,59,4,7,8,9,0.4,0.4
2023-09-25T00:00:00,1680A,110.3539,21.2706,湛江市,湛江影剧院,,24,24,26,6,11,91,65,76,59,5,6,6,9,0.5,0.5
2023-09-25T00:00:00,1681A,110.3928,21.2228,湛江市,市环境监测站,,20,16,20,11,11,79,64,71,59,6,7,6,7,0.5,0.5
2023-09-25T00:00:00,1682A,110.4019,21.1997,湛江市,环保局宿舍,,20,19,19,11,11,82,64,74,62,4,7,5,6,0.5,0.5
2023-09-25T00:00:00,1683A,110.4111,21.2028,湛江市,霞山游泳场,,22,22,21,8,11,82,65,73,63,5,8,5,7,0.5,0.5
2023-09-25T00:00:00,1684A,110.3316,21.2679,湛江市,麻章区环保局,,25,24,25,17,13,90,65,73,58,6,10,6,8,0.4,0.5
2023-09-25T00:00:00,1685A,110.4558,21.2567,湛江市,坡头区环保局,,22,16,22,9,12,85,70,76,66,4,7,5,11,0.4,0.4
2023-09-25T00:00:00,1686A,111.0286,21.4688,茂名市,电白南海,,24,24,31,12,16,82,49,74,63,10,9,9,8,0.7,0.7
2023-09-25T00:00:00,1687A,110.9294,21.6533,茂名市,茂石化七小,,17,17,26,7,11,75,49,70,57,8,7,5,5,0.5,0.5
2023-09-25T00:00:00,1688A,110.9107,21.6687,茂名市,健康路,,18,17,21,7,9,83,57,78,64,8,9,2,6,0.5,0.5
2023-09-25T00:00:00,1689A,110.8592,21.6828,茂名市,高岭,,27,27,25,17,17,82,57,81,61,10,13,12,9,0.7,0.7
2023-09-25T00:00:00,1690A,116.1231,24.3284,梅州市,梅江月梅,,31,31,29,15,13,96,72,78,71,10,12,5,5,0.7,0.7
2023-09-25T00:00:00,1691A,116.0797,24.2719,梅州市,梅县新城,,37,37,31,16,15,99,62,80,65,16,14,7,7,0.6,0.6
2023-09-25T00:00:00,1692A,116.1248,24.2654,梅州市,环境监控中心,,31,31,31,16,15,104,49,82,54,21,20,8,8,0.5,0.5
2023-09-25T00:00:00,1693A,115.3653,22.775,汕尾市,市环保局,,15,14,20,10,8,95,48,86,71,6,5,11,12,0.5,0.5
2023-09-25T00:00:00,1694A,115.3706,22.7898,汕尾市,市政府,,26,26,19,10,9,100,49,89,71,7,6,6,6,0.4,0.4
2023-09-25T00:00:00,1695A,115.3622,22.7925,汕尾市,新城中学,,47,47,23,11,11,86,43,77,60,10,8,7,8,0.5,0.5
2023-09-25T00:00:00,1696A,114.6778,23.7569,河源市,源西,,34,34,40,16,27,87,46,79,49,15,19,5,5,0.7,0.7
2023-09-25T00:00:00,1697A,114.6944,23.7586,河源市,东埔,,50,50,37,17,22,94,51,81,60,13,12,5,6,0.5,0.6
2023-09-25T00:00:00,1698A,114.6892,23.7233,河源市,老城,,44,44,36,13,19,98,44,85,60,17,12,5,5,0.6,0.7
2023-09-25T00:00:00,1699A,111.9797,21.8593,阳江市,鸳鸯湖,,20,20,23,14,9,86,61,75,67,5,9,6,7,0.7,0.7
2023-09-25T00:00:00,1701A,111.9491,21.8658,阳江市,马南垌,,20,13,21,9,11,81,61,73,65,4,8,5,6,0.4,0.5
2023-09-25T00:00:00,1702A,113.0426,23.691,清远市,环保大楼,,34,34,26,21,19,106,40,100,66,14,12,9,9,0.6,0.6
2023-09-25T00:00:00,1703A,113.0208,23.7106,清远市,凤城街办,,34,34,29,18,19,102,43,95,67,14,13,8,8,0.6,0.5
2023-09-25T00:00:00,1705A,116.6367,23.6719,潮州市,西园路,,18,18,28,11,17,114,53,95,62,10,9,5,5,0.3,0.4
2023-09-25T00:00:00,1706A,116.6447,23.6706,潮州市,档案局,,23,23,27,8,15,122,56,102,66,9,9,7,7,0.4,0.5
2023-09-25T00:00:00,1708A,116.3701,23.5345,揭阳市,新兴,,19,19,33,12,16,120,47,108,63,12,10,9,10,0.5,0.5
2023-09-25T00:00:00,1709A,116.3264,23.5443,揭阳市,西马,,17,12,35,9,14,125,54,111,68,7,10,7,9,0.7,0.7
2023-09-25T00:00:00,1710A,116.3611,23.5626,揭阳市,东兴,,29,29,39,12,14,126,51,111,67,12,14,4,7,0.6,0.7
2023-09-25T00:00:00,1711A,116.4151,23.5294,揭阳市,渔湖,,,26,29,,20,55,53,55,49,10,18,4,10,0.5,0.5
2023-09-25T00:00:00,1712A,112.0392,22.9169,云浮市,新市府,,35,29,38,24,26,158,88,144,116,8,10,5,6,0.9,0.9
2023-09-25T00:00:00,1714A,112.0539,22.9539,云浮市,牧羊,颗粒物(PM10),57,63,55,25,30,161,76,145,114,28,27,8,9,0.6,0.6
2023-09-25T00:00:00,1715A,102.575,24.3711,玉溪市,东风水库,,15,15,23,10,14,73,47,66,54,7,11,6,6,0.7,0.8
2023-09-25T00:00:00,1718A,115.4208,35.2464,菏泽市,气象局,,35,33,29,24,23,109,62,104,88,16,17,2,3,0.3,0.4
2023-09-25T00:00:00,1719A,115.4747,35.2375,菏泽市,市政协,,48,34,23,33,21,109,66,101,90,9,11,3,3,0.5,0.5
2023-09-25T00:00:00,1721A,113.3819,40.1097,大同市,果树场,,,,,,,,,,,,,,,,
2023-09-25T00:00:00,1723A,113.2994,40.0758,大同市,云冈宾馆,,30,30,46,21,26,94,43,80,49,24,26,13,14,0.9,0.9
2023-09-25T00:00:00,1724A,113.3444,40.0917,大同市,大同大学,,,,35,,21,82,,77,,,16,,14,,0.2
2023-09-25T00:00:00,1725A,113.2661,40.1269,大同市,安家小村,,29,17,41,20,22,94,29,80,60,25,20,12,14,0.2,0.2
2023-09-25T00:00:00,1726A,113.2711,40.0844,大同市,教育学院,,41,41,50,17,25,88,37,75,44,27,30,12,11,0.6,0.6
2023-09-25T00:00:00,1727A,113.1147,36.1547,长治市,清华站,,20,20,14,12,9,99,60,92,76,16,14,6,6,1.0,0.8
2023-09-25T00:00:00,1728A,113.1031,36.1989,长治市,监测站,,20,8,14,9,10,99,64,91,84,17,16,6,6,0.9,0.8
2023-09-25T00:00:00,1730A,113.0886,36.2125,长治市,审计局,,22,6,12,2,7,106,68,97,91,10,10,7,7,0.8,0.7
2023-09-25T00:00:00,1731A,113.0844,36.1856,长治市,长治八中,,23,21,18,16,13,102,64,94,84,17,15,10,10,0.8,0.6
2023-09-25T00:00:00,1733A,111.5531,36.0783,临汾市,临钢医院,颗粒物(PM10),56,62,34,27,22,105,37,82,63,26,18,10,8,0.8,0.5
2023-09-25T00:00:00,1734A,111.5028,36.0714,临汾市,技工学校,细颗粒物(PM2.5),52,44,28,36,27,108,50,98,75,23,15,13,9,1.1,0.9
2023-09-25T00:00:00,1736A,111.5018,36.0855,临汾市,市委,,40,40,35,24,24,106,60,97,76,20,17,9,8,1.0,0.9
2023-09-25T00:00:00,1738A,113.5758,37.8572,阳泉市,市中心,,48,44,39,33,25,86,46,77,62,28,24,7,9,0.8,0.8
2023-09-25T00:00:00,1739A,113.4894,37.8731,阳泉市,赛鱼,,49,47,39,34,26,81,12,72,45,20,24,7,8,0.6,0.5
2023-09-25T00:00:00,1740A,113.5819,37.8486,阳泉市,南庄,细颗粒物(PM2.5),55,58,56,39,29,91,47,81,64,28,23,7,8,0.7,0.7
2023-09-25T00:00:00,1742A,113.5614,37.8703,阳泉市,平坦,细颗粒物(PM2.5),54,45,46,38,30,88,61,81,67,18,22,6,7,0.7,0.7
2023-09-25T00:00:00,1743A,113.5158,37.8392,阳泉市,大阳泉,,42,33,34,29,27,89,45,85,66,15,16,6,6,0.6,0.5
2023-09-25T00:00:00,1744A,118.9233,42.2816,赤峰市,松山一中,,27,13,22,9,8,102,85,98,85,18,24,12,11,0.3,0.4
2023-09-25T00:00:00,1745A,118.9576,42.2728,赤峰市,哈达街,,25,25,28,8,10,97,79,90,79,15,28,14,16,0.4,0.4
2023-09-25T00:00:00,1746A,118.8788,42.2554,赤峰市,天义路,,30,19,19,13,9,111,93,104,90,12,20,12,15,0.3,0.4
2023-09-25T00:00:00,1748A,123.044,41.1196,鞍山市,深沟寺,,21,21,26,9,12,91,43,84,48,7,9,3,4,0.6,0.7
2023-09-25T00:00:00,1749A,123.011,41.0931,鞍山市,太阳城,,24,24,23,12,13,92,22,84,38,8,11,6,7,0.6,0.6
2023-09-25T00:00:00,1750A,123.0485,41.1442,鞍山市,太平,,28,28,30,16,16,93,38,84,53,19,18,6,7,0.6,0.6
2023-09-25T00:00:00,1751A,122.9642,41.0971,鞍山市,铁西三道街,,28,28,40,14,16,83,30,74,36,23,32,5,6,0.8,1
2023-09-25T00:00:00,1752A,122.9341,41.0833,鞍山市,铁西工业园区,,44,44,56,22,20,87,9,78,28,35,30,6,9,0.9,0.8
2023-09-25T00:00:00,1753A,123.022,41.0821,鞍山市,明达新区,,25,25,27,13,14,86,53,80,56,9,13,1,3,0.5,0.6
2023-09-25T00:00:00,1754A,123.1289,41.0228,鞍山市,千山,,,,,,,,,,,,,,,,
2023-09-25T00:00:00,1755A,123.7977,41.8491,抚顺市,望花区,,26,25,37,18,13,111,31,86,55,31,25,13,10,0.6,0.5
2023-09-25T00:00:00,1756A,123.9161,41.8822,抚顺市,顺城区,,38,31,30,26,15,102,14,80,46,39,23,9,7,1.0,0.7
2023-09-25T00:00:00,1757A,124.0436,41.8611,抚顺市,东洲区,,36,28,20,25,12,109,26,90,54,30,14,10,7,0.9,0.6
2023-09-25T00:00:00,1758A,123.9247,41.8642,抚顺市,新抚区,,28,25,28,19,12,100,10,75,35,22,20,6,7,0.6,0.5
2023-09-25T00:00:00,1759A,124.0972,41.8961,抚顺市,大伙房水库,,36,25,19,25,11,112,42,98,64,20,10,10,7,0.8,0.5
2023-09-25T00:00:00,1760A,123.7086,41.8391,抚顺市,沈抚新城,,27,27,49,18,19,104,29,84,44,24,25,12,24,0.5,1.2
2023-09-25T00:00:00,1761A,123.8275,41.3064,本溪市,大峪,,39,39,30,22,12,94,30,85,62,18,18,5,6,0.6,0.7
2023-09-25T00:00:00,1762A,123.7567,41.3325,本溪市,溪湖,,43,43,44,25,20,90,23,80,49,20,23,10,11,1.5,1.2
2023-09-25T00:00:00,1763A,123.7169,41.3094,本溪市,彩屯,,39,39,64,25,34,80,15,58,40,27,35,10,23,1.3,2.3
2023-09-25T00:00:00,1764A,123.7669,41.2864,本溪市,东明,,31,31,41,20,17,92,36,86,67,27,24,6,8,0.8,0.8
2023-09-25T00:00:00,1765A,123.7992,41.2664,本溪市,新立屯,,15,11,26,10,10,87,37,77,51,21,23,7,8,0.6,0.7
2023-09-25T00:00:00,1766A,123.8142,41.3472,本溪市,威宁,颗粒物(PM10),65,79,73,23,17,83,12,62,24,19,21,6,6,0.4,0.4
2023-09-25T00:00:00,1767A,121.1115,41.0879,锦州市,南山,,24,14,66,14,48,76,76,37,28,14,46,5,13,0.5,1
2023-09-25T00:00:00,1768A,121.0533,40.8434,锦州市,开发区,,32,3,46,11,32,103,102,75,75,6,43,6,19,0.6,0.9
2023-09-25T00:00:00,1769A,121.1836,41.1119,锦州市,百股街道,,23,7,71,9,40,72,72,36,31,23,52,9,36,0.5,1.2
2023-09-25T00:00:00,1770A,121.1178,41.1222,锦州市,天安街道,,29,20,69,20,36,77,77,49,49,19,49,8,18,0.7,1
2023-09-25T00:00:00,1771A,121.1303,41.1386,锦州市,北湖公园,,35,15,59,24,42,55,50,41,38,17,41,6,15,0.7,0.9
2023-09-25T00:00:00,1772A,126.54,43.8622,吉林市,哈达湾,,37,37,24,22,12,99,42,88,66,38,24,8,7,0.7,0.6
2023-09-25T00:00:00,1773A,126.5844,43.8358,吉林市,东局子,,27,27,25,12,11,89,48,82,67,25,21,6,7,0.6,0.4
2023-09-25T00:00:00,1774A,126.5052,43.8245,吉林市,电力学院,颗粒物(PM10),61,71,42,36,21,104,5,93,32,52,29,9,8,0.9,0.7
2023-09-25T00:00:00,1775A,126.6133,43.8972,吉林市,江北,,23,23,26,12,12,93,46,83,54,10,17,8,8,0.6,0.6
2023-09-25T00:00:00,1776A,126.555,43.8306,吉林市,江南公园,,31,31,26,16,15,94,36,84,59,37,23,7,7,0.6,0.5
2023-09-25T00:00:00,1778A,126.7061,43.7133,吉林市,丰满,,,,,,,,,,,,,,,,
2023-09-25T00:00:00,1779A,123.9305,47.3636,齐齐哈尔市,安居小区,,33,33,37,18,13,100,87,91,91,9,17,5,6,0.5,0.3
2023-09-25T00:00:00,1780A,123.9488,47.3386,齐齐哈尔市,中心广场,,33,33,21,15,11,94,86,87,87,9,15,1,2,0.3,0.2
2023-09-25T00:00:00,1781A,123.9483,47.3227,齐齐哈尔市,农牧车辆厂,,34,34,31,11,7,102,86,95,94,7,9,5,6,0.5,0.3
2023-09-25T00:00:00,1783A,123.945,47.2988,齐齐哈尔市,市环境监测站,,27,16,22,11,9,99,84,92,92,8,8,4,5,0.4,0.3
2023-09-25T00:00:00,1784A,129.61,44.561,牡丹江市,环保大楼,,48,48,28,23,12,84,5,62,20,36,22,7,5,0.7,0.4
2023-09-25T00:00:00,1785A,129.6115,44.5782,牡丹江市,文化广场,颗粒物(PM10),58,66,45,40,24,82,1,62,12,34,28,6,6,0.6,0.5
2023-09-25T00:00:00,1786A,129.5904,44.5963,牡丹江市,第一医院,,36,36,37,23,21,82,14,59,20,20,21,6,6,0.4,0.4
2023-09-25T00:00:00,1787A,129.6364,44.6075,牡丹江市,机车工厂,,37,37,39,14,14,83,1,64,29,24,19,5,6,0.5,0.5
2023-09-25T00:00:00,1788A,129.6386,44.5462,牡丹江市,第一中学,,36,36,31,20,16,86,3,60,18,27,18,6,6,0.5,0.4
2023-09-25T00:00:00,1789A,124.81117,46.03138,大庆市,大同区,,45,43,36,31,18,102,91,95,91,9,14,7,7,0.7,0.5
2023-09-25T00:00:00,1790A,125.129,46.533,大庆市,龙凤区,,27,27,30,15,14,92,82,78,72,8,16,4,7,0.6,0.5
2023-09-25T00:00:00,1791A,124.902,46.408,大庆市,红岗区,,31,28,23,10,11,103,97,95,95,8,12,5,5,0.6,0.5
2023-09-25T00:00:00,1792A,125.153,46.586,大庆市,萨尔图区,,45,45,30,24,13,97,84,89,84,9,13,8,9,0.4,0.3
2023-09-25T00:00:00,1793A,124.9042,46.6215,大庆市,让胡路区,,29,27,24,10,9,100,90,91,87,9,14,5,5,0.5,0.3
2023-09-25T00:00:00,1794A,118.3606,31.3519,芜湖市,监测站,,43,43,28,30,19,82,26,75,56,39,17,8,6,0.9,0.7
2023-09-25T00:00:00,1795A,118.3714,31.4134,芜湖市,科创中心,,48,48,29,28,19,91,11,82,52,54,27,7,5,0.8,0.6
2023-09-25T00:00:00,1796A,118.3673,31.3131,芜湖市,四水厂,,42,42,30,28,21,88,38,78,58,40,18,6,4,1.0,0.7
2023-09-25T00:00:00,1798A,118.5092,31.6837,马鞍山市,湖东路四小,,46,32,23,32,19,81,37,70,48,25,18,7,6,0.7,0.6
2023-09-25T00:00:00,1799A,118.5024,31.6449,马鞍山市,开发区,,47,47,32,27,19,88,41,78,57,16,14,7,7,1.0,0.8
2023-09-25T00:00:00,1800A,118.5228,31.7231,马鞍山市,慈湖,颗粒物(PM10),54,57,28,26,17,84,2,70,44,54,21,5,8,0.9,0.8
2023-09-25T00:00:00,1802A,118.6245,31.7241,马鞍山市,濮塘,,29,26,15,20,17,83,22,71,48,4,6,6,6,1.0,1
2023-09-25T00:00:00,1803A,115.9872,29.6815,九江市,十里,,44,44,41,30,24,77,5,58,37,36,21,7,8,1.2,0.9
2023-09-25T00:00:00,1804A,115.9584,29.7046,九江市,茅山头,,50,48,34,35,25,72,13,59,37,51,25,10,11,1.0,0.9
2023-09-25T00:00:00,1805A,115.9877,29.7295,九江市,西园,,45,45,35,26,23,81,15,65,41,55,25,8,8,0.9,0.8
2023-09-25T00:00:00,1806A,116.0172,29.6547,九江市,五七二七厂,,26,26,38,16,21,70,18,49,33,8,16,8,9,0.7,0.7
2023-09-25T00:00:00,1808A,115.9114,29.6038,九江市,综合工业园,细颗粒物(PM2.5),54,42,45,38,27,62,2,49,23,43,32,11,10,0.9,0.8
2023-09-25T00:00:00,1809A,116.0721,29.7535,九江市,石化总厂,"颗粒物(PM10),细颗粒物(PM2.5)",52,54,36,36,25,79,31,68,48,34,18,9,9,1.0,0.8
2023-09-25T00:00:00,1810A,115.9773,29.5698,九江市,庐山气象台,,24,9,14,13,12,78,74,71,71,2,2,6,9,1.0,1
2023-09-25T00:00:00,1812A,112.3931,34.6516,洛阳市,市委党校,,46,24,20,32,24,89,62,80,72,9,12,3,3,0.7,0.6
2023-09-25T00:00:00,1814A,112.4657,34.6871,洛阳市,豫西宾馆,,39,31,20,27,22,87,46,78,64,14,10,3,3,0.8,0.7
2023-09-25T00:00:00,1815A,112.494,34.6886,洛阳市,河南林校,,36,23,15,25,19,87,50,78,63,17,12,2,2,0.5,0.5
2023-09-25T00:00:00,1816A,112.3844,34.623,洛阳市,开发区管委会,,38,28,21,26,18,98,66,86,75,12,12,3,3,0.4,0.3
2023-09-25T00:00:00,1817A,112.4267,34.6258,洛阳市,市委新办公区,,46,29,23,32,23,93,61,85,74,13,11,1,3,0.4,0.4
2023-09-25T00:00:00,1818A,114.4839,36.0621,安阳市,棉研所,,,,,,,,,,,,,,,,
2023-09-25T00:00:00,1819A,114.3551,36.1017,安阳市,红庙街,,29,29,30,16,17,100,50,84,63,15,16,6,6,0.3,0.3
2023-09-25T00:00:00,1820A,114.361,36.0681,安阳市,银杏小区,,25,25,24,13,14,101,52,85,68,11,12,5,5,0.5,0.5
2023-09-25T00:00:00,1824A,114.3389,34.7781,开封市,肿瘤医院,,32,30,21,22,16,100,72,95,84,5,5,4,4,0.6,0.5
2023-09-25T00:00:00,1826A,114.2885,34.7965,开封市,世纪星幼儿园,,,,21,19,16,98,69,91,81,12,13,8,6,0.6,0.6
2023-09-25T00:00:00,1828A,113.227,35.2125,焦作市,市环保局,,28,28,34,19,19,93,66,88,75,13,16,5,6,0.6,0.6
2023-09-25T00:00:00,1830A,113.1992,35.2590,焦作市,影视城,,,,,,,,,,,,,,,,
2023-09-25T00:00:00,1832A,113.3257,33.742,平顶山市,新华旅馆,,48,33,26,33,23,103,69,91,75,20,19,3,3,0.5,0.5
2023-09-25T00:00:00,1833A,113.2919,33.737,平顶山市,规划设计院,,25,18,14,17,13,109,74,95,77,12,10,6,6,0.6,0.5
2023-09-25T00:00:00,1834A,113.182,33.774,平顶山市,平顶山工学院,,28,20,16,19,11,104,72,96,79,13,13,4,4,0.6,0.6
2023-09-25T00:00:00,1835A,111.1922,34.7752,三门峡市,市政府,,17,8,11,8,7,86,54,78,62,14,10,4,4,0.6,0.5
2023-09-25T00:00:00,1836A,111.1587,34.7942,三门峡市,开发区,,34,34,19,13,12,93,35,83,57,28,16,6,6,0.5,0.4
2023-09-25T00:00:00,1838A,111.143,34.7955,三门峡市,风景区,,,,,,,,,,,,,,,,
2023-09-25T00:00:00,1840A,111.2992,30.6981,宜昌市,白龙岗,,19,19,15,0,1,63,43,54,46,15,17,5,5,0.6,0.6
2023-09-25T00:00:00,1841A,111.3549,30.6465,宜昌市,伍家岗,,14,6,7,2,3,69,43,59,48,15,15,6,5,0.5,0.5
2023-09-25T00:00:00,1842A,111.2628,30.6961,宜昌市,点军区,,26,26,15,5,2,72,34,63,48,13,12,7,7,0.6,0.6
2023-09-25T00:00:00,1843A,111.3275,30.7819,宜昌市,夷陵区,,12,11,13,2,3,65,37,55,42,17,15,6,5,0.4,0.4
2023-09-25T00:00:00,1844A,112.2494,30.3197,荆州市,市图书馆,,27,27,18,13,9,68,61,60,60,12,10,5,5,0.6,0.6
2023-09-25T00:00:00,1845A,112.2008,30.3544,荆州市,市委党校,,20,19,13,4,5,70,63,65,65,13,12,5,5,0.7,0.6
2023-09-25T00:00:00,1847A,113.1094,29.3578,岳阳市,南湖风景区,,18,13,21,12,14,36,29,30,28,7,10,6,6,0.6,0.6
2023-09-25T00:00:00,1848A,113.1493,29.4251,岳阳市,城陵矶,,12,12,19,5,10,34,24,28,26,12,14,6,6,0.6,0.8
2023-09-25T00:00:00,1849A,113.1497,29.3575,岳阳市,开发区,,22,18,35,15,17,40,26,29,23,8,11,7,7,0.7,0.9
2023-09-25T00:00:00,1850A,113.2621,29.4758,岳阳市,云溪区,,17,17,18,4,11,36,27,29,28,12,14,6,7,0.5,0.6
2023-09-25T00:00:00,1851A,112.9943,29.4402,岳阳市,君山区,,38,16,17,26,19,40,30,37,28,12,12,8,8,0.6,0.6
2023-09-25T00:00:00,1852A,113.2117,29.355,岳阳市,金凤水库,,,13,20,,49,59,46,50,48,7,8,3,3,0.6,0.7
2023-09-25T00:00:00,1854A,111.6975,28.9703,常德市,市二中,,18,18,10,9,5,56,54,52,47,8,9,5,5,0.6,0.6
2023-09-25T00:00:00,1857A,111.7158,29.1456,常德市,白鹤山,,20,5,3,0,4,62,62,53,50,2,2,5,4,0.3,0.3
2023-09-25T00:00:00,1858A,110.5319,29.1217,张家界市,永定新区,,21,21,13,14,6,53,51,50,50,8,9,5,5,0.3,0.5
2023-09-25T00:00:00,1859A,110.4697,29.1242,张家界市,电业局,,20,20,11,13,8,52,46,49,48,7,10,4,4,0.4,0.4
2023-09-25T00:00:00,1860A,110.5594,29.3547,张家界市,未央路,,,23,10,11,6,48,,42,32,2,5,3,3,0.5,0.5
2023-09-25T00:00:00,1861A,110.4417,29.315,张家界市,袁家界,,17,5,3,3,3,53,53,46,46,3,4,8,8,0.6,0.7
2023-09-25T00:00:00,1862A,110.4144,25.3167,桂林市,电子科大尧山校区,,43,43,41,29,28,102,74,87,76,7,6,2,2,0.8,0.7
2023-09-25T00:00:00,1863A,110.2819,25.2697,桂林市,监测站,,43,40,42,30,25,142,72,117,93,11,10,8,10,0.8,0.7
2023-09-25T00:00:00,1864A,110.3089,25.2708,桂林市,龙隐路小学,,45,45,38,31,27,136,70,111,91,9,8,17,9,0.8,0.7
2023-09-25T00:00:00,1865A,110.2869,25.2178,桂林市,八中,,49,38,40,34,28,140,69,119,87,12,12,12,7,0.9,0.8
2023-09-25T00:00:00,1866A,109.2262,21.588,北海市,牛尾岭水库,,25,25,27,16,15,110,32,96,54,15,10,8,7,0.4,0.5
2023-09-25T00:00:00,1867A,109.1436,21.4086,北海市,海滩公园,,16,16,28,2,11,122,51,112,71,5,8,5,6,0.6,0.7
2023-09-25T00:00:00,1868A,109.0981,21.4661,北海市,新市环保局,,18,15,24,12,15,132,53,116,70,5,10,5,6,0.4,0.6
2023-09-25T00:00:00,1869A,109.1778,21.5233,北海市,北海工业园,,24,24,34,10,19,128,34,111,63,13,10,6,8,0.5,0.6
2023-09-25T00:00:00,1870A,109.4856,24.3895,柳州市,柳东小学,,30,29,39,21,26,147,64,137,101,15,12,15,10,0.5,0.5
2023-09-25T00:00:00,1871A,109.4157,24.3277,柳州市,环保监测站,,38,38,38,24,26,138,64,132,99,19,15,9,7,0.6,0.5
2023-09-25T00:00:00,1872A,109.389,24.341,柳州市,河西水厂,颗粒物(PM10),58,65,46,34,29,153,33,147,104,39,18,11,8,1.0,0.8
2023-09-25T00:00:00,1873A,109.4311,24.2921,柳州市,市四中,,40,35,38,28,21,142,64,132,106,25,16,7,10,0.8,0.8
2023-09-25T00:00:00,1874A,109.4006,24.3631,柳州市,市九中,,38,37,45,26,26,145,68,135,95,14,16,10,7,0.6,0.6
2023-09-25T00:00:00,1875A,109.4958,24.3134,柳州市,古亭山,颗粒物(PM10),54,57,39,19,24,145,83,125,96,14,17,6,14,0.3,0.4
2023-09-25T00:00:00,1876A,109.5078,18.2489,三亚市,河东子站,,12,4,14,2,6,50,38,44,32,4,7,3,3,0.2,0.2
2023-09-25T00:00:00,1877A,109.4964,18.2681,三亚市,河西子站,,9,2,12,2,4,47,26,38,26,5,7,2,2,0.3,0.3
2023-09-25T00:00:00,1878A,104.7778,31.4741,绵阳市,富乐山,,10,10,11,6,5,71,30,63,43,9,7,3,4,0.6,0.6
2023-09-25T00:00:00,1879A,104.7563,31.4535,绵阳市,市人大,,12,12,11,5,5,70,30,60,39,15,12,13,13,0.6,0.6
2023-09-25T00:00:00,1880A,104.6697,31.4668,绵阳市,高新区自来水公司,,18,18,10,9,7,73,29,63,42,18,14,7,7,0.6,0.6
2023-09-25T00:00:00,1881A,104.7287,31.5075,绵阳市,三水厂,,16,16,11,8,7,70,27,62,36,21,15,7,7,0.5,0.5
2023-09-25T00:00:00,1882A,104.563,28.793,宜宾市,石马中学,,,,,,,,,,,,,,,,
2023-09-25T00:00:00,1883A,104.6201,28.7728,宜宾市,市委,,26,25,19,18,14,42,18,35,20,22,20,8,8,0.6,0.6
2023-09-25T00:00:00,1884A,104.6055,28.793,宜宾市,宜宾四中,,32,32,23,20,15,46,10,36,18,24,18,3,4,0.6,0.6
2023-09-25T00:00:00,1885A,104.639,28.7562,宜宾市,市政府,,29,26,20,20,15,46,22,40,26,22,19,8,8,0.6,0.5
2023-09-25T00:00:00,1886A,104.5742,28.7199,宜宾市,黄金嘴,,25,25,18,17,12,53,12,35,24,26,18,7,7,0.5,0.5
2023-09-25T00:00:00,1888A,101.6891,26.571,攀枝花市,弄弄坪,颗粒物(PM10),59,68,34,18,13,77,7,67,43,46,20,15,13,1.5,1.4
2023-09-25T00:00:00,1889A,101.5769,26.5928,攀枝花市,河门口,,29,29,31,13,16,99,36,81,52,21,19,9,12,0.9,1.1
2023-09-25T00:00:00,1890A,101.7169,26.585,攀枝花市,炳草岗,颗粒物(PM10),55,60,51,21,17,93,26,79,39,32,29,42,21,1.7,1.2
2023-09-25T00:00:00,1891A,101.7369,26.5008,攀枝花市,仁和,,28,28,17,17,11,71,29,66,48,14,12,4,4,0.5,0.5
2023-09-25T00:00:00,1893A,105.4324,28.9634,泸州市,九狮山,,15,15,18,9,9,20,4,13,9,19,15,5,5,0.4,0.4
2023-09-25T00:00:00,1894A,105.4427,28.9063,泸州市,小市上码头,,18,18,16,6,7,45,16,33,22,18,14,6,6,0.5,0.5
2023-09-25T00:00:00,1895A,105.4241,28.8573,泸州市,兰田宪桥,,18,18,20,6,10,36,13,26,17,12,13,6,6,0.6,0.6
2023-09-25T00:00:00,1896A,105.4379,28.8833,泸州市,市环监站,,15,15,16,0,3,36,13,26,14,19,18,3,3,0.6,0.6
2023-09-25T00:00:00,1901A,104.4239,31.1208,德阳市,东山公园,,28,28,23,9,6,69,44,61,46,6,8,1,2,0.4,0.4
2023-09-25T00:00:00,1902A,104.3826,31.1317,德阳市,西小区,,28,28,24,10,8,68,31,61,46,17,8,3,3,0.5,0.5
2023-09-25T00:00:00,1904A,104.3553,31.1091,德阳市,耐火材料厂,颗粒物(PM10),53,55,20,12,7,69,27,62,46,15,8,3,3,0.5,0.4
2023-09-25T00:00:00,1905A,106.056,30.8064,南充市,西山风景区,,8,5,9,5,3,38,18,34,22,8,6,3,2,0.4,0.4
2023-09-25T00:00:00,1906A,106.0789,30.8023,南充市,南充市委,,42,21,17,29,14,46,18,39,24,15,13,2,2,0.4,0.4
2023-09-25T00:00:00,1907A,106.1031,30.8217,南充市,南充炼油厂,,23,23,33,4,5,46,18,36,24,13,10,3,2,0.3,0.3
2023-09-25T00:00:00,1908A,106.1064,30.7856,南充市,高坪区监测站,,18,10,12,12,8,39,24,35,26,8,8,2,2,0.3,0.2
2023-09-25T00:00:00,1909A,106.0642,30.7636,南充市,嘉陵区环保局,,17,17,16,7,6,35,15,28,14,20,16,2,1,0.3,0.3
2023-09-25T00:00:00,1910A,106.1087,30.8388,南充市,市环境监测站,,15,15,16,9,10,47,17,35,22,11,11,3,2,0.3,0.2
2023-09-25T00:00:00,1911A,106.9222,27.6869,遵义市,丁字口,,23,20,26,16,16,53,16,49,33,22,20,4,6,0.7,0.6
2023-09-25T00:00:00,1912A,106.9242,27.7019,遵义市,凤凰山,,29,26,23,20,19,60,21,56,39,16,13,7,8,0.7,0.6
2023-09-25T00:00:00,1913A,106.8906,27.6486,遵义市,忠庄,,28,27,27,19,15,54,24,48,35,10,13,3,2,0.5,0.5
2023-09-25T00:00:00,1914A,106.9231,27.6506,遵义市,舟水桥,,28,28,26,8,12,65,13,50,32,21,15,4,2,0.5,0.4
2023-09-25T00:00:00,1915A,106.9178,27.72,遵义市,干田坝,,27,27,26,16,12,57,9,52,30,17,14,4,6,0.7,0.7
2023-09-25T00:00:00,1916A,103.7897,25.5035,曲靖市,环境监测站,,45,45,22,19,10,77,58,68,62,18,11,7,4,1.0,0.7
2023-09-25T00:00:00,1917A,103.8,25.5364,曲靖市,烟厂办公区,颗粒物(PM10),56,61,22,20,10,81,67,73,70,11,8,15,5,0.8,0.5
2023-09-25T00:00:00,1918A,108.7197,34.3956,咸阳市,气象站,,,,,,,,,,,,,,,,
2023-09-25T00:00:00,1919A,108.673,34.3155,咸阳市,实验中学,,37,37,20,20,15,77,21,69,52,38,13,2,2,0.6,0.5
2023-09-25T00:00:00,1920A,108.7233,34.3617,咸阳市,师范学院,,29,24,18,20,13,78,33,70,50,23,13,3,4,0.4,0.3
2023-09-25T00:00:00,1922A,109.0656,35.0994,铜川市,党校,,39,33,18,27,16,82,4,74,15,28,29,7,7,0.7,0.7
2023-09-25T00:00:00,1923A,109.0697,35.0697,铜川市,王益区政府,,39,39,22,22,12,81,16,72,24,32,22,2,2,0.8,0.6
2023-09-25T00:00:00,1924A,108.9344,34.9058,铜川市,新区管委会,,33,33,24,18,12,80,46,72,56,21,22,3,3,0.6,0.5
2023-09-25T00:00:00,1926A,109.4131,36.6275,延安市,枣园,,29,29,18,10,12,86,3,78,35,32,19,7,7,0.6,0.5
2023-09-25T00:00:00,1927A,109.4761,36.6028,延安市,延大医附院,,37,37,21,8,12,89,4,78,29,32,20,5,5,0.6,0.5
2023-09-25T00:00:00,1929A,109.5056,36.6106,延安市,百米大道,,24,24,20,8,11,82,12,73,37,34,23,6,7,0.7,0.7
2023-09-25T00:00:00,1930A,107.185,34.3063,宝鸡市,庙沟村,,18,18,11,7,7,71,25,62,47,28,14,8,8,0.4,0.3
2023-09-25T00:00:00,1931A,107.0708,34.3017,宝鸡市,竹园沟,,33,21,13,23,9,89,19,79,40,16,12,5,6,0.6,0.6
2023-09-25T00:00:00,1932A,107.1906,34.3672,宝鸡市,三陆医院,,39,29,17,27,9,95,55,82,66,24,20,10,7,0.5,0.5
2023-09-25T00:00:00,1933A,107.1431,34.3547,宝鸡市,监测站,,19,16,16,13,9,91,19,82,52,33,24,6,6,0.4,0.4
2023-09-25T00:00:00,1934A,107.1186,34.3739,宝鸡市,技工学校,,29,29,17,20,12,92,28,83,58,27,22,7,6,0.5,0.5
2023-09-25T00:00:00,1935A,107.3906,34.3528,宝鸡市,陈仓区环保局家属楼,,40,26,19,28,13,99,51,92,60,28,22,8,7,0.5,0.4
2023-09-25T00:00:00,1936A,107.2058,34.3497,宝鸡市,文理学院,,25,25,17,7,7,95,57,83,70,24,21,11,8,0.5,0.5
2023-09-25T00:00:00,1937A,107.2386,34.3622,宝鸡市,三迪小学,,39,28,18,27,10,95,48,87,66,33,20,8,6,0.5,0.4
2023-09-25T00:00:00,1938A,109.5293,34.5101,渭南市,农科所,,20,19,16,14,16,77,1,63,23,36,18,4,4,0.5,0.5
2023-09-25T00:00:00,1939A,109.4974,34.4877,渭南市,日报社,,29,19,19,20,17,80,3,69,16,45,25,6,5,0.4,0.3
2023-09-25T00:00:00,1940A,109.4636,34.493,渭南市,体育馆,,24,24,18,15,13,80,2,74,13,45,23,6,3,0.5,0.5
2023-09-25T00:00:00,1941A,109.4259,34.5023,渭南市,高新一小,,35,30,25,24,13,80,10,73,28,39,21,7,7,0.5,0.4
2023-09-25T00:00:00,1944A,102.1692,38.5167,金昌市,天庆家园,,34,14,27,7,10,109,106,105,98,7,10,5,11,0.3,0.4
2023-09-25T00:00:00,1945A,98.2908,39.7711,嘉峪关市,气象局,,31,31,30,7,12,99,33,89,72,39,20,5,10,0.1,0.1
2023-09-25T00:00:00,1947A,106.3394,38.817,石嘴山市,沙湖旅游区,细颗粒物(PM2.5),78,54,47,57,42,130,50,106,69,36,25,11,16,0.6,0.7
2023-09-25T00:00:00,1948A,106.3668,39.0145,石嘴山市,大武口朝阳西街,颗粒物(PM10),60,69,62,27,46,113,22,92,56,78,33,11,5,0.7,0.7
2023-09-25T00:00:00,1949A,106.7704,39.2282,石嘴山市,惠农南大街,细颗粒物(PM2.5),85,75,57,63,37,144,36,112,79,40,28,11,21,0.7,1
2023-09-25T00:00:00,1950A,106.7099,39.1325,石嘴山市,红果子镇惠新街,细颗粒物(PM2.5),88,69,41,65,35,137,48,112,78,32,20,13,8,0.5,0.5
2023-09-25T00:00:00,1951A,84.895,45.6094,克拉玛依市,长征新村,,19,8,10,1,5,78,59,72,65,1,2,9,9,0.2,0.2
2023-09-25T00:00:00,1952A,84.8988,45.5893,克拉玛依市,南林小区,,19,5,10,13,12,81,59,74,65,4,6,6,6,0.2,0.2
2023-09-25T00:00:00,1954A,84.905,44.3396,克拉玛依市,独山子区,,24,6,8,6,7,80,74,75,75,2,5,4,4,0.5,0.5
2023-09-25T00:00:00,1955A,85.6979,46.098,克拉玛依市,乌尔禾区商贸楼,,21,21,13,7,4,84,62,73,62,1,2,6,7,0.3,0.3
2023-09-25T00:00:00,1956A,86.1472,41.7538,巴音郭楞州,孔雀公园,,34,34,30,18,9,87,29,85,61,21,11,7,7,0.2,0.3
2023-09-25T00:00:00,1957A,86.1972,41.7166,巴音郭楞州,棉纺厂,,28,23,20,19,14,84,45,82,62,13,11,5,5,0.1,0.2
2023-09-25T00:00:00,1958A,86.2357,41.7173,巴音郭楞州,经济开发区,,21,15,19,8,10,90,65,87,71,6,10,7,7,0.2,0.2
2023-09-25T00:00:00,1961A,117.532,36.6868,济南市,东山小学,,39,37,42,27,25,102,70,93,68,24,30,9,5,0.7,0.7
2023-09-25T00:00:00,1966A,120.0405,35.8735,青岛市,黄岛区4号,,26,5,28,9,17,126,83,108,88,15,31,5,5,0.5,0.6
2023-09-25T00:00:00,1982A,122.0693,37.2174,威海市,文登开发区,,19,12,29,2,12,110,60,102,70,13,16,6,7,0.4,0.5
2023-09-25T00:00:00,2031A,113.1817,27.9958,株洲市,云田中学,,37,37,33,14,17,39,13,25,15,25,24,6,6,0.7,0.7
2023-09-25T00:00:00,2054A,114.1099,32.1059,信阳市,平桥分局,,20,17,14,14,8,64,57,62,54,8,11,2,2,0.8,0.8
2023-09-25T00:00:00,2064A,113.9956,32.1271,信阳市,南湾水厂,,19,19,18,9,9,68,58,63,57,8,9,3,3,0.7,0.6
2023-09-25T00:00:00,2065A,114.0775,32.1195,信阳市,市酿酒公司,,20,20,16,8,8,62,54,61,52,12,15,2,2,0.9,0.9
2023-09-25T00:00:00,2066A,114.0609,32.1399,信阳市,审计局,,22,22,18,10,7,71,63,68,58,8,12,3,3,0.9,0.9
2023-09-25T00:00:00,2067A,114.6613,33.6128,周口市,市环境监测站,,26,11,18,11,14,114,82,107,84,11,14,5,6,0.4,0.4
2023-09-25T00:00:00,2068A,114.6758,33.6347,周口市,周口师范,,25,18,17,14,14,110,77,102,80,7,10,3,4,0.6,0.6
2023-09-25T00:00:00,2069A,114.6546,33.5979,周口市,市运管处,颗粒物(PM10),56,61,27,13,14,118,84,110,87,5,6,6,7,0.4,0.4
2023-09-25T00:00:00,2070A,114.6369,33.6406,周口市,川汇区环保局,,,,17,15,15,109,,100,78,13,16,6,6,0.4,0.5
2023-09-25T00:00:00,2075A,117.6336,24.4674,漳州市,九湖,,,,,,,,,,,,,,,,
2023-09-25T00:00:00,2160A,112.85,35.5051,晋城市,自来水公司,,31,31,30,2,9,100,71,84,77,16,17,4,4,0.8,0.6
2023-09-25T00:00:00,2161A,112.8318,35.4936,晋城市,白云商贸,,23,14,19,2,10,105,71,93,84,17,17,4,4,1.0,0.9
2023-09-25T00:00:00,2162A,112.8508,35.4887,晋城市,市环保局,,23,22,34,7,13,105,71,89,79,17,20,5,5,0.9,0.8
2023-09-25T00:00:00,2163A,112.8676,35.4897,晋城市,技术学院,,24,9,25,0,9,102,74,88,81,20,21,7,7,1.0,0.9
2023-09-25T00:00:00,2165A,112.8453,35.546,晋城市,白马寺,,,,,,,,,,,,,,,,
2023-09-25T00:00:00,2166A,112.4397,39.3522,朔州市,平朔,,48,48,33,26,24,100,3,73,41,30,19,6,6,0.6,0.6
2023-09-25T00:00:00,2167A,112.4575,39.3617,朔州市,朔唯,颗粒物(PM10),61,72,44,24,24,93,0,70,35,44,20,8,7,0.8,0.7
2023-09-25T00:00:00,2168A,112.4258,39.3197,朔州市,区政府,,42,42,39,14,29,94,35,73,51,27,20,5,6,0.6,0.6
2023-09-25T00:00:00,2169A,112.4072,39.3278,朔州市,市环保局,,34,34,34,16,20,100,30,80,48,27,18,8,6,0.7,0.6
2023-09-25T00:00:00,2170A,112.4272,39.3681,朔州市,市二中,颗粒物(PM10),59,67,38,25,24,98,1,68,33,33,19,6,7,0.7,0.6
2023-09-25T00:00:00,2171A,112.7532,37.6945,晋中市,锦纶小区,,29,29,26,10,14,96,49,85,70,26,18,7,7,0.4,0.4
2023-09-25T00:00:00,2173A,112.7249,37.7067,晋中市,南都小区,,29,29,32,17,19,95,44,85,71,32,19,6,6,0.3,0.3
2023-09-25T00:00:00,2174A,112.6991,37.6982,晋中市,榆次区政府,,35,25,31,24,22,100,55,87,74,26,19,7,6,0.5,0.5
2023-09-25T00:00:00,2175A,110.9956,35.0147,运城市,运城中学,,23,21,12,16,23,111,73,105,80,11,8,4,4,0.8,0.7
2023-09-25T00:00:00,2178A,110.9686,35.0303,运城市,地区技校,,26,24,18,18,13,105,47,94,65,16,11,4,4,0.8,0.8
2023-09-25T00:00:00,2179A,111.0414,35.1147,运城市,空港新区,,39,24,29,27,19,100,41,87,67,16,16,4,4,0.7,0.7
2023-09-25T00:00:00,2181A,112.7383,38.4519,忻州市,开发区,细颗粒物(PM2.5),59,63,39,42,29,87,9,83,50,65,27,9,9,0.6,0.5
2023-09-25T00:00:00,2182A,112.7003,38.4928,忻州市,会展中心,细颗粒物(PM2.5),69,80,38,50,30,100,7,89,46,55,27,9,9,0.7,0.6
2023-09-25T00:00:00,2183A,111.1406,37.5211,吕梁市,环保局,,30,24,34,21,19,89,25,55,24,43,32,5,6,0.8,0.8
2023-09-25T00:00:00,2185A,111.1297,37.5136,吕梁市,自来水公司,细颗粒物(PM2.5),54,40,36,38,24,90,19,63,34,52,37,6,6,1.0,0.9
2023-09-25T00:00:00,2187A,106.8174,39.6973,乌海市,市林业局,颗粒物(PM10),81,112,60,45,30,125,69,113,83,41,24,69,25,2.0,1.1
2023-09-25T00:00:00,2188A,106.7907,39.6667,乌海市,中海勃湾学校,颗粒物(PM10),74,97,51,42,28,130,21,117,78,84,27,27,16,2.1,0.8
2023-09-25T00:00:00,2191A,122.2532,43.6801,通辽市,艺术职业学校,,37,37,36,10,13,116,97,109,100,12,18,5,9,0.5,0.5
2023-09-25T00:00:00,2192A,119.7594,49.2261,呼伦贝尔市,区环保局,,21,21,28,9,13,96,56,88,66,6,8,5,4,0.3,0.4
2023-09-25T00:00:00,2195A,107.4212,40.761,巴彦淖尔市,附二中,,50,50,41,18,14,129,71,122,87,27,19,60,9,0.5,0.6
2023-09-25T00:00:00,2196A,107.37,40.7372,巴彦淖尔市,市环保大楼,颗粒物(PM10),59,68,48,21,17,122,31,113,73,47,14,10,5,0.5,0.6
2023-09-25T00:00:00,2197A,113.1306,40.9923,乌兰察布市,集宁新区,,34,34,29,23,19,107,74,95,85,18,15,12,12,0.4,0.4
2023-09-25T00:00:00,2200A,122.0392,46.0656,兴安盟,胜华新制药厂,,34,34,34,20,21,96,72,88,81,10,10,9,5,0.4,0.4
2023-09-25T00:00:00,2201A,121.9504,46.0741,兴安盟,科右前旗环保局,,39,39,31,21,19,97,70,88,81,8,9,4,4,0.5,0.4
2023-09-25T00:00:00,2202A,116.1042,43.9317,锡林郭勒盟,市环保监测站,,26,20,26,13,16,106,81,102,90,4,7,11,11,0.3,0.4
2023-09-25T00:00:00,2203A,116.0781,43.9311,锡林郭勒盟,市政府,,25,13,26,11,12,105,77,99,87,9,9,13,13,0.3,0.4
2023-09-25T00:00:00,2204A,105.6467,38.8363,阿拉善盟,西城区西花园,,37,37,36,22,16,120,68,108,93,18,10,9,9,0.7,0.7
2023-09-25T00:00:00,2205A,105.6985,38.8411,阿拉善盟,蒙二幼,,36,36,33,21,16,118,83,108,91,8,10,9,10,0.6,0.5
2023-09-25T00:00:00,2206A,105.724,38.8516,阿拉善盟,环保局新楼,,,,31,,17,117,,104,94,,9,,6,,0.6
2023-09-25T00:00:00,2207A,121.6094,41.998,阜新市,工业园区,,33,33,53,15,19,106,51,90,68,22,24,22,16,0.6,0.8
2023-09-25T00:00:00,2208A,121.6697,42.0279,阜新市,长青街,,17,7,61,6,29,102,53,89,64,10,28,5,14,0.4,2.6
2023-09-25T00:00:00,2209A,121.6673,42.0705,阜新市,农业园区,,14,4,39,5,27,106,43,91,59,13,23,14,21,0.7,1.1
2023-09-25T00:00:00,2210A,121.6717,42.0224,阜新市,东苑,,28,24,66,19,32,100,44,84,64,18,25,8,19,0.7,3.5
2023-09-25T00:00:00,2211A,121.6506,42.0498,阜新市,玉龙新城,,14,6,48,8,19,95,18,81,51,28,27,6,11,0.3,0.8
2023-09-25T00:00:00,2212A,123.2,41.1953,辽阳市,宏伟区,,19,8,26,13,14,90,43,87,66,6,12,8,8,0.5,0.6
2023-09-25T00:00:00,2213A,123.1683,41.2495,辽阳市,新华园,,18,18,41,12,18,82,40,77,53,12,20,7,17,0.6,0.8
2023-09-25T00:00:00,2214A,123.2354,41.2639,辽阳市,滨河路,,18,14,31,11,16,83,42,71,51,12,17,53,12,0.6,0.8
2023-09-25T00:00:00,2215A,123.149,41.2991,辽阳市,铁西工业园,,23,13,41,16,22,90,36,80,54,8,18,7,8,0.7,0.8
2023-09-25T00:00:00,2216A,123.8139,42.3022,铁岭市,汇工街西,,46,28,39,32,20,107,24,92,48,22,24,5,13,0.6,0.6
2023-09-25T00:00:00,2217A,123.8649,42.2923,铁岭市,水上乐园,,28,26,31,19,14,110,24,98,44,40,25,7,8,0.6,0.6
2023-09-25T00:00:00,2218A,123.8486,42.2867,铁岭市,银州路东段,,45,45,32,25,14,98,22,89,51,38,23,4,5,0.4,0.4
2023-09-25T00:00:00,2219A,123.7153,42.2217,铁岭市,金沙江路北,,45,22,32,31,16,104,21,85,30,27,29,4,9,0.8,0.7
2023-09-25T00:00:00,2220A,120.4318,41.5881,朝阳市,西梁,细颗粒物(PM2.5),53,39,54,37,26,66,48,44,33,16,33,11,13,0.7,0.8
2023-09-25T00:00:00,2221A,120.4521,41.5646,朝阳市,河畔小区,细颗粒物(PM2.5),55,50,40,39,23,74,42,62,49,25,28,11,10,0.7,0.7
2023-09-25T00:00:00,2222A,120.4176,41.5648,朝阳市,八里堡,细颗粒物(PM2.5),60,40,53,43,25,74,37,45,23,22,35,10,10,0.8,0.9
2023-09-25T00:00:00,2223A,120.3806,41.5969,朝阳市,农业园区,,42,35,41,29,34,77,7,55,21,36,31,5,8,0.9,0.9
2023-09-25T00:00:00,2225A,124.4002,43.1713,四平市,一商场,,30,30,37,18,17,115,62,99,68,10,22,4,7,0.3,0.4
2023-09-25T00:00:00,2226A,124.388,43.193,四平市,境园,,39,34,41,27,18,124,71,104,70,8,21,5,6,0.4,0.4
2023-09-25T00:00:00,2227A,125.1358,42.8845,辽源市,环保局,,36,36,28,18,15,116,25,100,30,22,20,5,6,0.7,0.8
2023-09-25T00:00:00,2229A,125.9358,41.7173,通化市,光明,,33,33,29,10,10,99,11,80,30,27,26,8,12,0.6,0.5
2023-09-25T00:00:00,2230A,125.9446,41.7325,通化市,铁路,,24,24,25,10,9,104,12,81,37,30,24,8,12,0.4,0.5
2023-09-25T00:00:00,2231A,126.4219,41.9171,白山市,喜丰,颗粒物(PM10),52,53,48,17,12,97,10,75,27,28,23,6,8,0.6,0.6
2023-09-25T00:00:00,2232A,126.4077,41.9419,白山市,环保局,,42,42,34,11,10,98,17,74,26,28,24,8,9,0.5,0.5
2023-09-25T00:00:00,2233A,124.8006,45.1214,松原市,江南,,38,38,35,25,21,108,92,94,86,9,20,8,11,0.6,0.5
2023-09-25T00:00:00,2234A,124.7965,45.1722,松原市,江北,,32,32,26,22,16,104,91,100,99,9,14,4,6,0.6,0.5
2023-09-25T00:00:00,2235A,122.7911,45.6077,白城市,洮北区环保局,,30,26,36,10,10,112,94,97,94,4,10,5,5,0.4,0.4
2023-09-25T00:00:00,2236A,122.8738,45.5725,白城市,市环保局,,36,36,31,12,9,102,81,91,81,9,11,9,9,0.4,0.3
2023-09-25T00:00:00,2237A,129.47,42.8883,延边朝鲜族自治州,妇幼医院,,15,15,21,6,7,76,35,66,55,9,13,6,7,0.4,0.4
2023-09-25T00:00:00,2238A,129.5055,42.9108,延边朝鲜族自治州,延边医院,,19,11,24,7,9,82,59,68,62,12,18,6,7,0.5,0.6
2023-09-25T00:00:00,2239A,129.3964,42.8881,延边朝鲜族自治州,朝阳川镇医院,,20,20,18,7,6,83,22,69,46,12,11,6,8,0.4,0.4
2023-09-25T00:00:00,2240A,130.9762,45.3001,鸡西市,环保局,颗粒物(PM10),75,99,48,34,16,54,2,44,10,30,28,6,6,0.9,0.6
2023-09-25T00:00:00,2243A,130.9429,45.3039,鸡西市,第一中学,颗粒物(PM10),58,66,45,21,16,71,1,58,12,45,26,7,7,0.4,0.3
2023-09-25T00:00:00,2244A,130.2537,47.3416,鹤岗市,哈啤分公司,,32,32,29,19,15,80,24,66,40,16,16,9,11,0.3,0.3
2023-09-25T00:00:00,2245A,130.2684,47.3086,鹤岗市,斯达机电,,39,39,38,21,14,80,46,67,41,19,20,12,10,0.4,0.4
2023-09-25T00:00:00,2246A,130.3114,47.3388,鹤岗市,东山纸板厂,颗粒物(PM10),78,106,79,30,20,83,2,68,12,30,27,11,11,1.4,0.8
2023-09-25T00:00:00,2247A,130.1097,47.3382,鹤岗市,五号水库,,13,11,15,9,13,89,28,76,32,11,9,9,9,0.3,0.3
2023-09-25T00:00:00,2248A,131.1511,46.6937,双鸭山市,双合村,,31,31,39,16,10,93,51,83,38,8,14,8,10,0.1,0.4
2023-09-25T00:00:00,2249A,131.1652,46.6191,双鸭山市,南小市,,24,24,25,9,10,94,39,82,40,7,9,6,6,0.1,0.2
2023-09-25T00:00:00,2250A,131.1524,46.6554,双鸭山市,环保局,,27,27,26,9,12,86,57,77,43,9,16,6,7,0.2,0.2
2023-09-25T00:00:00,2251A,131.12,46.5656,双鸭山市,苗圃,,18,11,10,9,11,128,55,112,69,7,5,2,3,0.3,0.2
2023-09-25T00:00:00,2252A,128.5159,47.4311,伊春市,环保局,,18,12,22,12,13,84,37,64,26,7,17,8,7,0.4,0.6
2023-09-25T00:00:00,2253A,128.9102,47.7412,伊春市,电力嘉园,,22,22,26,4,7,91,35,68,26,8,16,5,7,0.6,0.9
2023-09-25T00:00:00,2254A,129.5029,48.471,伊春市,汤旺河国家公园,,25,25,24,10,11,93,43,83,36,4,5,13,13,0.3,0.2
2023-09-25T00:00:00,2255A,130.2751,46.8028,佳木斯市,佳纺,颗粒物(PM10),58,66,39,23,13,77,7,71,17,30,19,3,2,0.8,0.5
2023-09-25T00:00:00,2256A,130.3995,46.8307,佳木斯市,发电厂,颗粒物(PM10),52,54,37,24,15,78,3,66,11,36,24,1,3,0.8,0.7
2023-09-25T00:00:00,2257A,130.3258,46.7975,佳木斯市,环保局,,30,29,23,21,15,65,4,36,10,43,33,2,3,0.7,0.7
2023-09-25T00:00:00,2258A,130.3648,46.8032,佳木斯市,十一中,,49,49,33,26,14,73,9,63,17,51,32,4,3,1.0,0.6
2023-09-25T00:00:00,2259A,130.3794,46.7588,佳木斯市,四丰,,19,15,13,6,5,117,60,90,62,6,4,1,7,0.2,0.2
2023-09-25T00:00:00,2262A,131.0518,45.8751,七台河市,新一中,,18,18,16,9,8,91,34,82,50,10,10,7,8,0.5,0.5
2023-09-25T00:00:00,2263A,127.4833,50.2524,黑河市,交通局,,20,8,13,10,10,73,61,65,58,6,12,3,3,0.5,0.5
2023-09-25T00:00:00,2264A,127.5144,50.2341,黑河市,环保局,,19,8,19,12,10,76,60,72,64,3,8,3,6,0.4,0.4
2023-09-25T00:00:00,2265A,127.5291,50.2472,黑河市,大黑河岛,,,2,21,20,17,,,,,2,2,1,3,0.4,0.4
2023-09-25T00:00:00,2266A,126.9785,46.6365,绥化市,人和东街,,32,32,32,11,11,88,57,76,62,16,18,24,8,0.3,0.3
2023-09-25T00:00:00,2267A,126.964,46.6528,绥化市,党政办公中心,,25,25,29,10,11,85,60,74,66,12,17,6,12,0.4,0.4
2023-09-25T00:00:00,2269A,124.1069,50.4097,大兴安岭地区,科技局,,26,26,23,13,10,87,57,82,76,16,8,11,5,0.2,0.2
2023-09-25T00:00:00,2270A,117.396,32.939,蚌埠市,工人疗养院,,28,28,28,10,13,64,56,55,50,4,13,3,4,0.4,0.4
2023-09-25T00:00:00,2271A,117.3605,32.9427,蚌埠市,百货大楼,,32,32,32,11,14,69,56,60,48,5,14,3,4,0.3,0.3
2023-09-25T00:00:00,2273A,117.4185,32.8911,蚌埠市,蚌埠学院,,24,24,22,16,14,68,48,66,49,6,18,3,4,0.3,0.3
2023-09-25T00:00:00,2274A,117.3533,32.9673,蚌埠市,淮上区政府,,19,19,24,12,18,66,50,59,41,12,21,4,4,0.3,0.4
2023-09-25T00:00:00,2275A,117.3145,32.8977,蚌埠市,高新区,,30,19,21,21,14,70,40,67,39,15,20,4,4,0.4,0.5
2023-09-25T00:00:00,2277A,116.8305,32.7727,淮南市,潘集区政府,,25,25,24,14,17,54,46,50,48,10,15,5,6,0.3,0.3
2023-09-25T00:00:00,2278A,117.0067,32.6524,淮南市,师范学院,,37,37,32,13,21,68,37,56,42,10,17,7,7,0.4,0.4
2023-09-25T00:00:00,2279A,116.8569,32.5951,淮南市,谢家集区政府,,21,21,19,12,7,75,44,64,50,14,17,5,6,0.2,0.2
2023-09-25T00:00:00,2280A,116.8281,32.633,淮南市,八公山区政府,,36,36,37,22,23,64,35,56,42,12,14,7,8,0.3,0.3
2023-09-25T00:00:00,2281A,116.6325,32.6201,淮南市,焦岗湖风景区管理处,,29,22,24,20,20,62,27,56,32,12,10,1,1,0.3,0.3
2023-09-25T00:00:00,2282A,116.8004,33.975,淮北市,监测站,,23,12,24,16,16,88,67,79,66,14,19,5,6,0.7,0.7
2023-09-25T00:00:00,2283A,116.8091,33.9007,淮北市,烈山区政府,,35,29,36,24,29,99,73,88,73,10,14,4,5,0.6,0.7
2023-09-25T00:00:00,2285A,117.8177,30.9412,铜陵市,市第四中学,颗粒物(PM10),62,73,52,31,20,80,29,72,47,31,15,4,4,0.5,0.5
2023-09-25T00:00:00,2286A,117.8059,30.9273,铜陵市,市公路局,颗粒物(PM10),51,52,42,30,22,79,20,73,45,44,20,7,7,0.6,0.5
2023-09-25T00:00:00,2287A,117.7807,30.9413,铜陵市,市新民污水厂,颗粒物(PM10),59,67,51,28,19,73,30,66,56,34,17,5,8,0.5,0.4
2023-09-25T00:00:00,2288A,117.7439,30.8792,铜陵市,市第九中学,颗粒物(PM10),64,77,56,34,23,64,24,59,50,38,22,9,5,0.8,0.5
2023-09-25T00:00:00,2289A,117.846,30.9413,铜陵市,车站新区,颗粒物(PM10),51,51,39,29,27,90,33,77,56,23,14,3,3,0.5,0.4
2023-09-25T00:00:00,2290A,117.8483,30.97,铜陵市,市职教基地,,39,39,32,24,15,85,33,72,53,16,10,3,4,0.7,0.6
2023-09-25T00:00:00,2291A,117.0809,30.5177,安庆市,环科院,,32,32,33,21,22,81,51,70,58,11,14,6,6,0.8,0.8
2023-09-25T00:00:00,2292A,117.0331,30.5119,安庆市,马山宾馆,,32,32,36,16,14,84,48,70,55,14,15,4,4,0.8,0.8
2023-09-25T00:00:00,2294A,116.9896,30.6145,安庆市,安庆大学,,42,34,30,29,22,67,65,60,58,11,13,4,5,0.6,0.6
2023-09-25T00:00:00,2295A,118.2903,29.6963,黄山市,延安路89号,,35,35,26,7,4,94,4,83,41,8,6,3,4,0.6,0.5
2023-09-25T00:00:00,2296A,118.327,29.7178,黄山市,黄山东路89号,,31,31,22,8,7,73,5,67,27,10,8,4,4,0.6,0.6
2023-09-25T00:00:00,2297A,118.1371,30.2756,黄山市,黄山区政府5号楼,,34,34,25,4,4,55,6,48,26,10,8,6,6,0.7,0.6
2023-09-25T00:00:00,2298A,118.3093,32.3153,滁州市,老年大学,,45,45,27,25,15,79,36,68,42,16,22,6,7,0.4,0.4
2023-09-25T00:00:00,2299A,118.3244,32.2786,滁州市,人大宾馆,,48,39,24,33,18,82,42,74,46,13,17,6,6,0.5,0.4
2023-09-25T00:00:00,2301A,115.8277,32.8929,阜阳市,市监测站,,16,5,18,11,13,66,45,50,46,11,14,6,6,0.5,0.5
2023-09-25T00:00:00,2303A,115.8554,32.8605,阜阳市,开发区,,32,15,17,22,30,59,43,50,42,16,17,6,6,0.5,0.5
2023-09-25T00:00:00,2307A,116.5079,31.737,六安市,监测大楼,,46,46,23,15,8,67,53,60,50,7,10,3,3,0.6,0.5
2023-09-25T00:00:00,2308A,116.4738,31.7643,六安市,皖西学院,,48,48,25,15,8,73,49,62,52,7,11,6,6,0.5,0.5
2023-09-25T00:00:00,2309A,116.4996,31.7905,六安市,朝阳厂,,36,36,17,21,11,66,52,59,50,7,12,6,6,0.6,0.6
2023-09-25T00:00:00,2310A,116.5567,31.7886,六安市,开发区,颗粒物(PM10),52,54,30,23,14,60,48,54,43,7,10,5,5,0.3,0.3
2023-09-25T00:00:00,2311A,115.8072,33.8399,亳州市,污水处理厂,,25,20,44,15,24,89,77,80,77,5,8,6,6,0.5,0.6
2023-09-25T00:00:00,2312A,115.7789,33.8518,亳州市,三国揽胜宫,,26,15,22,11,22,94,82,83,79,10,13,4,5,0.5,0.6
2023-09-25T00:00:00,2314A,117.47,30.6618,池州市,池州学院,,38,38,38,24,24,71,46,58,54,15,12,7,5,0.7,0.6
2023-09-25T00:00:00,2316A,118.7581,30.9454,宣城市,鳌峰子站,,39,33,23,27,17,88,57,82,70,16,15,4,4,0.7,0.6
2023-09-25T00:00:00,2317A,118.7385,30.9743,宣城市,敬亭山子站,,32,32,24,20,15,83,24,76,55,13,19,5,6,0.7,0.5
2023-09-25T00:00:00,2318A,118.7173,30.9427,宣城市,开发区子站,颗粒物(PM10),53,56,26,28,15,87,17,81,60,31,17,5,5,0.8,0.5
2023-09-25T00:00:00,2319A,119.0141,25.4325,莆田市,荔城区仓后路,,20,16,20,4,7,87,64,81,70,7,8,6,7,0.7,0.6
2023-09-25T00:00:00,2320A,119.0015,25.4553,莆田市,莆田市监测站,,19,8,16,2,7,84,60,79,69,2,3,6,6,0.5,0.5
2023-09-25T00:00:00,2321A,119.1119,25.4561,莆田市,涵江区六中,,23,12,19,5,8,95,71,87,79,4,4,6,6,0.5,0.5
2023-09-25T00:00:00,2322A,119.1013,25.3215,莆田市,秀屿区政府,,22,21,21,2,7,101,70,89,79,6,5,6,6,0.7,0.7
2023-09-25T00:00:00,2323A,118.981,25.4792,莆田市,东圳水库,,,,,,,,,,,,,,,,
2023-09-25T00:00:00,2324A,117.6211,26.2625,三明市,三钢,,35,19,20,24,22,75,11,70,33,20,14,7,8,0.5,0.4
2023-09-25T00:00:00,2325A,117.635,26.2714,三明市,三明二中,,12,12,17,8,9,73,18,69,38,21,17,3,4,0.7,0.7
2023-09-25T00:00:00,2326A,117.6028,26.2378,三明市,三元区政府,,19,19,23,11,11,75,6,69,29,23,16,7,9,0.7,0.7
2023-09-25T00:00:00,2327A,117.7275,26.3108,三明市,洋溪,,,,,,,,,,,,,,,,
2023-09-25T00:00:00,2331A,118.0966,26.6761,南平市,茫荡山,,,,,,,,,,,,,,,,
2023-09-25T00:00:00,2332A,118.1681,26.6369,南平市,南平市监测站,,19,19,18,10,13,77,18,70,33,11,11,4,5,0.6,0.6
2023-09-25T00:00:00,2333A,118.1825,26.6489,南平市,南平铝业有限公司,,19,19,24,10,14,71,7,69,31,23,13,6,7,0.7,0.7
2023-09-25T00:00:00,2334A,118.1756,26.6272,南平市,南平七中,,22,22,18,10,10,79,16,74,37,14,10,4,5,0.6,0.5
2023-09-25T00:00:00,2335A,117.0189,25.1181,龙岩市,龙岩师专,,,,,,,,,,,,,,,,
2023-09-25T00:00:00,2336A,117.0217,25.1033,龙岩市,龙岩市监测站,,26,26,25,15,15,72,10,69,43,30,17,5,7,0.6,0.5
2023-09-25T00:00:00,2337A,117.0258,25.0661,龙岩市,闽西职业技术学院,,33,33,28,12,12,78,16,69,33,28,17,21,16,0.3,0.3
2023-09-25T00:00:00,2338A,117.0196,25.0306,龙岩市,龙岩学院,,20,15,24,14,13,72,19,67,34,13,10,2,3,0.4,0.5
2023-09-25T00:00:00,2339A,119.5001,26.6946,宁德市,金涵水库,,,,,,,,,,,,,,,,
2023-09-25T00:00:00,2341A,119.5388,26.6612,宁德市,宁德市监测站,,28,18,17,8,10,93,87,85,84,9,13,4,6,0.4,0.6
2023-09-25T00:00:00,2342A,117.3102,29.3867,景德镇市,王港中学,,18,18,16,9,8,59,4,52,21,4,4,4,4,0.3,0.3
2023-09-25T00:00:00,2343A,117.2117,29.2933,景德镇市,老干部活动中心,,39,39,22,9,13,89,5,68,31,22,10,4,4,0.4,0.3
2023-09-25T00:00:00,2344A,117.1894,29.2789,景德镇市,兽医站,,32,32,18,22,15,91,9,72,30,15,11,6,7,0.5,0.4
2023-09-25T00:00:00,2345A,117.1547,29.2617,景德镇市,台达陶瓷,,42,42,23,14,12,90,5,72,31,26,15,10,17,0.5,0.4
2023-09-25T00:00:00,2346A,117.2461,29.2956,景德镇市,陶研所,,39,39,25,7,6,70,3,59,21,12,8,4,4,0.4,0.3
2023-09-25T00:00:00,2347A,114.0997,27.5002,萍乡市,武功山,,45,45,17,15,12,65,28,56,44,6,6,7,8,0.6,0.5
2023-09-25T00:00:00,2348A,113.8385,27.6434,萍乡市,中医院,颗粒物(PM10),51,52,47,33,35,77,40,65,56,16,12,18,14,0.8,0.9
2023-09-25T00:00:00,2349A,113.8493,27.6253,萍乡市,市政府车库,,49,49,44,31,29,70,36,63,51,17,12,15,17,0.6,0.7
2023-09-25T00:00:00,2350A,113.8676,27.6435,萍乡市,市环保局,,49,42,39,34,30,74,41,65,56,17,12,14,12,0.6,0.7
2023-09-25T00:00:00,2351A,113.866,27.6198,萍乡市,安源区政府,颗粒物(PM10),51,51,45,34,31,73,34,64,51,23,17,13,14,1.6,0.9
2023-09-25T00:00:00,2352A,115.0861,27.9317,新余市,北岗,,49,43,44,34,32,74,49,58,53,10,18,13,19,0.7,0.8
2023-09-25T00:00:00,2353A,114.9886,27.8431,新余市,飞宇,细颗粒物(PM2.5),67,77,63,48,34,72,52,60,58,15,22,12,17,0.6,0.6
2023-09-25T00:00:00,2354A,114.9231,27.8246,新余市,第二水厂,颗粒物(PM10),65,79,66,37,30,75,53,65,59,20,22,7,10,0.6,0.5
2023-09-25T00:00:00,2355A,114.9308,27.8036,新余市,市气象局,细颗粒物(PM2.5),60,54,59,43,40,64,57,58,57,18,24,11,14,0.8,0.9
2023-09-25T00:00:00,2357A,116.9822,28.1136,鹰潭市,龙虎山,,37,37,28,2,6,97,24,81,51,10,8,3,7,0.1,0.1
2023-09-25T00:00:00,2358A,117.0564,28.2642,鹰潭市,新监测站,,37,37,35,22,21,136,62,100,70,2,5,2,6,0.4,0.5
2023-09-25T00:00:00,2359A,117.0311,28.2475,鹰潭市,财苑宾馆,,42,42,38,27,21,138,59,105,72,6,8,4,8,0.5,0.5
2023-09-25T00:00:00,2360A,117.0222,28.2264,鹰潭市,体育馆,,49,44,36,34,25,138,49,106,71,11,8,17,7,0.7,0.5
2023-09-25T00:00:00,2361A,117.0017,28.2131,鹰潭市,三川水表,颗粒物(PM10),56,62,40,38,25,136,13,104,49,38,16,42,10,0.8,0.7
2023-09-25T00:00:00,2362A,114.9017,25.9149,赣州市,通天岩,,,,,,,,,,,,,,,,
2023-09-25T00:00:00,2363A,114.9367,25.8664,赣州市,地委,,,,37,,22,86,60,72,63,7,7,10,9,,1
2023-09-25T00:00:00,2364A,114.9461,25.8481,赣州市,气象台,,49,38,33,34,24,98,68,78,65,9,12,10,12,0.7,0.8
2023-09-25T00:00:00,2365A,114.9322,25.8333,赣州市,市图书馆,颗粒物(PM10),52,54,55,34,26,95,64,76,64,9,11,15,9,1.4,1.4
2023-09-25T00:00:00,2366A,114.8905,25.8471,赣州市,华坚鞋城,,,43,41,20,20,96,,80,68,6,10,13,11,0.7,1.1
2023-09-25T00:00:00,2367A,114.9754,27.0803,吉安市,红声器材厂,颗粒物(PM10),55,60,56,37,34,91,64,74,66,13,15,5,17,1.0,1
2023-09-25T00:00:00,2368A,114.9658,27.0999,吉安市,市森林工业局,颗粒物(PM10),52,54,57,32,34,93,58,75,64,27,17,12,11,0.5,0.7
2023-09-25T00:00:00,2369A,114.99,27.1312,吉安市,市环境监测站,,48,48,53,31,32,89,59,68,60,18,16,9,9,1.0,0.8
2023-09-25T00:00:00,2370A,115.0093,27.0968,吉安市,青原区法院,,,29,50,,34,90,53,75,65,15,17,8,10,0.6,0.6
2023-09-25T00:00:00,2371A,114.3408,27.8064,宜春市,槟榔水业,,49,49,43,26,26,49,10,44,32,30,20,3,5,0.6,0.6
2023-09-25T00:00:00,2373A,114.3956,27.7844,宜春市,市石油公司,颗粒物(PM10),51,52,57,31,33,63,16,58,42,27,24,4,16,1.0,1
2023-09-25T00:00:00,2374A,114.3703,27.7914,宜春市,市气象局,颗粒物(PM10),53,56,57,35,35,65,26,60,49,21,22,4,16,1.1,1.1
2023-09-25T00:00:00,2375A,114.4013,27.8074,宜春市,市广电局,颗粒物(PM10),51,51,53,33,36,65,26,62,50,24,21,8,15,1.1,1.1
2023-09-25T00:00:00,2376A,116.2127,28.0814,抚州市,桐源党溪,,37,37,37,25,24,79,30,69,46,2,3,2,2,0.9,0.9
2023-09-25T00:00:00,2377A,116.3544,27.9831,抚州市,市站,,,,47,,27,94,67,82,74,8,9,3,4,0.7,0.8
2023-09-25T00:00:00,2378A,116.3565,27.963,抚州市,血防站,,45,45,50,28,27,98,71,81,71,2,4,2,2,0.7,0.8
2023-09-25T00:00:00,2379A,116.3564,28.0007,抚州市,采茶剧团,颗粒物(PM10),57,63,44,34,27,88,56,73,63,9,9,2,3,0.9,0.9
2023-09-25T00:00:00,2380A,116.385,27.9647,抚州市,医学分院,,40,39,42,28,25,92,61,78,65,11,9,5,5,0.9,0.9
2023-09-25T00:00:00,2381A,118.005,28.4572,上饶市,百草园,,40,40,25,18,14,112,68,88,80,15,8,5,3,0.5,0.4
2023-09-25T00:00:00,2382A,117.9756,28.4436,上饶市,市监测站,,50,50,28,22,14,143,81,113,101,16,8,7,6,0.5,0.5
2023-09-25T00:00:00,2383A,117.9519,28.4628,上饶市,凤凰光学,,48,48,30,29,15,134,71,112,97,9,5,36,5,0.6,0.5
2023-09-25T00:00:00,2385A,114.17,35.9019,鹤壁市,市监测站,,44,44,27,27,27,94,46,82,63,18,21,6,4,0.9,0.8
2023-09-25T00:00:00,2386A,114.2956,35.7511,鹤壁市,市交警支队,,37,37,25,25,18,87,42,78,63,28,22,3,2,0.9,0.6
2023-09-25T00:00:00,2387A,114.2878,35.7306,鹤壁市,迎宾馆,,39,25,20,27,26,93,42,82,64,34,26,10,7,0.7,0.6
2023-09-25T00:00:00,2389A,113.836,35.311,新乡市,环保西院,,33,31,35,23,21,98,60,84,73,18,16,6,5,0.5,0.5
2023-09-25T00:00:00,2390A,113.884,35.272,新乡市,开发区,,31,31,23,19,18,101,62,84,76,11,12,4,4,0.8,0.8
2023-09-25T00:00:00,2391A,113.883,35.303,新乡市,环保东院,,46,46,42,22,28,98,57,74,65,17,18,5,4,0.8,0.8
2023-09-25T00:00:00,2392A,115.0312,35.7636,濮阳市,环保局,,33,26,19,23,25,95,57,85,73,14,21,6,3,0.3,0.4
2023-09-25T00:00:00,2394A,115.0574,35.7609,濮阳市,油田运输公司,,39,39,37,27,27,106,56,94,78,13,16,5,3,0.2,0.3
2023-09-25T00:00:00,2395A,115.0866,35.7754,濮阳市,油田物探公司,,37,37,37,24,26,99,46,90,71,16,18,5,4,0.2,0.3
2023-09-25T00:00:00,2396A,113.8276,34.0159,许昌市,监测站,,26,13,12,18,14,111,76,101,80,13,15,4,4,0.4,0.4
2023-09-25T00:00:00,2398A,113.7906,33.9953,许昌市,开发区,,24,10,12,15,13,116,74,106,84,10,8,3,2,0.6,0.5
2023-09-25T00:00:00,2399A,114.051,33.5699,漯河市,三五一五工厂,,26,20,12,15,11,122,83,105,88,5,5,9,9,0.5,0.5
2023-09-25T00:00:00,2400A,114.0055,33.5698,漯河市,漯河大学,,27,18,11,18,15,123,84,105,88,8,7,2,1,0.4,0.4
2023-09-25T00:00:00,2401A,114.0138,33.5828,漯河市,市水利局,,36,19,14,25,18,120,81,102,84,5,6,5,5,0.4,0.4
2023-09-25T00:00:00,2402A,114.0261,33.5698,漯河市,市广电局,,29,24,14,20,13,119,80,101,82,9,10,2,2,0.6,0.5
2023-09-25T00:00:00,2404A,112.5224,33.0122,南阳市,瓦房庄,,24,17,12,10,9,93,74,86,76,10,13,4,4,0.5,0.5
2023-09-25T00:00:00,2405A,112.5003,32.9735,南阳市,汉画馆,,22,12,12,11,7,97,68,89,71,9,9,4,4,0.6,0.5
2023-09-25T00:00:00,2406A,112.5573,33.027,南阳市,气象站,,24,9,6,5,4,94,76,87,75,9,11,7,6,0.6,0.6
2023-09-25T00:00:00,2407A,112.5481,32.9689,南阳市,理工学院,,26,12,12,14,10,101,81,95,82,8,10,1,2,0.5,0.5
2023-09-25T00:00:00,2408A,115.6702,34.4285,商丘市,环境监测站,,23,23,21,13,15,117,70,97,84,8,9,5,5,0.4,0.4
2023-09-25T00:00:00,2409A,115.6458,34.4045,商丘市,粮食局,,20,18,20,9,18,115,64,92,81,6,7,5,5,0.7,0.7
2023-09-25T00:00:00,2410A,115.6293,34.3948,商丘市,睢阳区环保局,,23,18,22,15,16,124,72,99,86,7,8,5,6,0.4,0.4
2023-09-25T00:00:00,2420A,114.0189,32.9656,驻马店市,市一纸厂,,26,14,14,18,16,100,73,90,71,8,9,6,5,0.4,0.4
2023-09-25T00:00:00,2421A,114.0114,33.015,驻马店市,市彩印厂,,22,12,9,4,13,101,70,85,70,8,11,4,5,0.4,0.3
2023-09-25T00:00:00,2422A,113.9976,32.9771,驻马店市,天方二分厂,,29,7,6,20,17,98,75,86,70,6,10,4,4,0.2,0.2
2023-09-25T00:00:00,2423A,115.0601,30.2313,黄石市,沈家营,,45,45,37,14,13,97,31,78,54,15,17,5,10,0.6,0.9
2023-09-25T00:00:00,2424A,115.0817,30.2006,黄石市,陈家湾,颗粒物(PM10),51,52,33,17,14,85,34,72,48,13,11,7,9,0.4,0.7
2023-09-25T00:00:00,2426A,114.8988,30.2019,黄石市,铁山,,40,40,18,20,10,115,24,104,73,23,15,13,8,0.8,0.7
2023-09-25T00:00:00,2427A,115.0307,30.2092,黄石市,团城山,,47,47,31,10,6,110,31,88,62,18,14,7,9,0.7,0.7
2023-09-25T00:00:00,2428A,111.0419,32.395,十堰市,武当山,,30,30,7,3,3,81,59,77,64,6,7,9,10,0.7,0.7
2023-09-25T00:00:00,2429A,110.78,32.6494,十堰市,滨河新村,,26,25,23,18,8,75,20,70,27,34,22,6,6,0.7,0.6
2023-09-25T00:00:00,2430A,110.7258,32.6389,十堰市,刘家沟,,11,5,7,2,5,76,34,68,39,2,7,6,6,0.7,0.7
2023-09-25T00:00:00,2431A,110.8839,32.5714,十堰市,铁二处,,13,10,13,9,7,83,36,73,35,6,16,5,5,0.5,0.5
2023-09-25T00:00:00,2432A,112.155,32.0197,襄阳市,襄城运动路,,21,15,11,10,8,81,65,75,69,16,17,7,7,0.5,0.5
2023-09-25T00:00:00,2433A,112.1392,32.0564,襄阳市,樊城新华路,,19,15,11,12,10,80,60,75,66,18,18,9,8,0.5,0.5
2023-09-25T00:00:00,2434A,112.1825,32.1142,襄阳市,高新管委会,,26,11,10,18,12,83,54,78,60,20,18,7,6,0.7,0.7
2023-09-25T00:00:00,2435A,112.2106,32.0903,襄阳市,襄州航空路,,23,11,9,16,8,87,61,83,69,20,16,7,7,0.6,0.6
2023-09-25T00:00:00,2436A,114.8938,30.3994,鄂州市,市政府,,13,13,27,4,9,113,27,82,55,13,17,2,4,0.7,0.9
2023-09-25T00:00:00,2437A,114.8989,30.3714,鄂州市,赵家坝,,21,21,29,6,9,106,33,88,65,14,20,4,6,0.5,0.6
2023-09-25T00:00:00,2439A,112.2014,31.0481,荆门市,竹园小学,,29,14,9,20,8,84,75,79,79,11,13,7,8,0.6,0.6
2023-09-25T00:00:00,2440A,112.1969,30.9891,荆门市,掇刀,,23,11,7,10,7,82,73,79,79,9,8,5,5,0.6,0.4
2023-09-25T00:00:00,2441A,112.2213,31.0386,荆门市,石化一小,,26,11,8,12,11,89,82,85,85,9,10,5,4,0.5,0.4
2023-09-25T00:00:00,2443A,113.9153,30.9285,孝感市,文化路,,20,9,17,14,9,56,44,49,46,8,8,8,8,0.7,0.6
2023-09-25T00:00:00,2444A,113.942,30.9075,孝感市,东城区,,14,9,16,5,7,54,44,48,45,7,7,6,7,0.8,0.7
2023-09-25T00:00:00,2446A,114.9028,30.4742,黄冈市,职工中心,,22,22,31,9,15,118,28,93,66,2,4,8,11,0.8,0.9
2023-09-25T00:00:00,2447A,114.3175,29.8142,咸宁市,森林公园,,30,30,24,19,11,100,25,74,50,22,11,5,6,0.7,0.7
2023-09-25T00:00:00,2448A,114.3107,29.8454,咸宁市,市发改委,颗粒物(PM10),63,76,31,22,16,109,26,81,52,16,8,7,6,0.7,0.7
2023-09-25T00:00:00,2449A,114.2936,29.8566,咸宁市,咸安区政府,颗粒物(PM10),65,79,30,33,17,112,29,84,51,21,12,6,6,0.6,0.6
2023-09-25T00:00:00,2451A,113.3583,31.7275,随州市,市委党校,,17,17,13,8,8,67,41,62,51,6,6,6,6,0.5,0.4
2023-09-25T00:00:00,2452A,113.3833,31.6908,随州市,市林业局,,14,11,10,6,7,64,42,58,51,7,8,4,5,0.4,0.4
2023-09-25T00:00:00,2453A,113.3983,31.7308,随州市,市立交桥水厂,,18,14,10,12,8,59,37,55,45,15,11,8,8,0.6,0.5
2023-09-25T00:00:00,2454A,109.4978,30.2981,恩施土家族苗族自治州,湖北民院,,38,38,27,16,12,18,0,13,0,17,16,9,9,0.9,1.1
2023-09-25T00:00:00,2455A,109.4707,30.2798,恩施土家族苗族自治州,州电力总公司,,14,14,10,4,5,17,11,16,11,22,21,8,8,0.9,0.8
2023-09-25T00:00:00,2456A,112.5003,26.9167,衡阳市,原169医院,,32,32,46,22,25,80,30,61,43,17,17,9,10,0.7,0.7
2023-09-25T00:00:00,2457A,112.6194,26.9258,衡阳市,衡阳化工总厂,,33,33,51,16,27,85,41,73,56,14,12,9,8,0.8,0.8
2023-09-25T00:00:00,2458A,112.6211,26.8956,衡阳市,珠晖区环保局,,,29,43,,29,84,37,70,51,16,12,7,6,0.9,0.9
2023-09-25T00:00:00,2459A,112.6197,26.8733,衡阳市,市委党校,,28,28,44,17,26,96,40,78,55,17,12,12,9,1.0,1
2023-09-25T00:00:00,2460A,112.6006,26.8919,衡阳市,市监测站,,28,28,42,18,28,91,42,77,57,15,13,9,9,0.9,0.9
2023-09-25T00:00:00,2461A,112.5664,26.9056,衡阳市,真空机电公司,,29,27,44,20,26,92,44,74,60,14,13,11,7,0.9,0.9
2023-09-25T00:00:00,2462A,111.5239,27.3033,邵阳市,市水土所,,33,30,33,23,28,87,29,68,44,11,7,7,11,0.6,0.5
2023-09-25T00:00:00,2463A,111.4733,27.2317,邵阳市,市一中,,26,26,52,18,33,91,54,79,56,9,12,6,11,0.5,0.6
2023-09-25T00:00:00,2464A,111.5283,27.2442,邵阳市,市化工厂,,25,25,42,17,32,95,53,80,56,10,12,13,16,0.7,0.7
2023-09-25T00:00:00,2465A,111.4503,27.2537,邵阳市,市罐头厂,,36,32,46,25,33,93,40,77,51,10,12,7,10,0.5,0.6
2023-09-25T00:00:00,2466A,111.4328,27.2272,邵阳市,市环保局,,32,32,43,20,34,91,51,75,53,6,9,10,10,0.5,0.6
2023-09-25T00:00:00,2467A,112.4067,28.6428,益阳市,甘溪港,,45,45,17,11,7,52,29,45,35,10,8,4,3,0.5,0.6
2023-09-25T00:00:00,2468A,112.3458,28.5808,益阳市,市环保局,细颗粒物(PM2.5),54,29,15,38,10,52,45,48,42,9,11,1,2,0.8,0.8
2023-09-25T00:00:00,2469A,112.3437,28.5531,益阳市,市特殊教育学校,细颗粒物(PM2.5),62,61,26,44,14,51,44,47,42,7,8,3,3,0.7,0.7
2023-09-25T00:00:00,2470A,112.3347,28.6047,益阳市,资阳区政务中心,细颗粒物(PM2.5),55,53,20,39,10,51,41,47,40,8,8,3,2,0.8,0.8
2023-09-25T00:00:00,2471A,112.3744,28.5819,益阳市,赫山环保分局,,47,47,22,31,12,64,48,53,45,10,10,7,6,0.8,0.8
2023-09-25T00:00:00,2472A,113.0073,25.9061,郴州市,马头岭,颗粒物(PM10),62,74,53,40,27,100,40,78,58,25,19,6,11,0.5,0.6
2023-09-25T00:00:00,2473A,113.0116,25.8226,郴州市,市职中,细颗粒物(PM2.5),69,56,44,50,37,123,49,99,68,21,18,6,11,0.8,0.8
2023-09-25T00:00:00,2474A,113.0161,25.8001,郴州市,兴隆步行街,细颗粒物(PM2.5),65,66,53,47,36,123,55,100,73,21,20,5,8,0.9,0.9
2023-09-25T00:00:00,2475A,113.0383,25.8071,郴州市,市审计局,细颗粒物(PM2.5),64,46,42,46,37,124,44,94,65,27,18,8,11,0.8,0.8
2023-09-25T00:00:00,2476A,113.0348,25.7759,郴州市,市环保局,细颗粒物(PM2.5),70,58,55,51,44,119,51,93,69,19,17,7,10,0.9,0.9
2023-09-25T00:00:00,2477A,111.6217,26.2081,永州市,零陵南津渡,细颗粒物(PM2.5),75,50,44,55,39,103,60,90,80,11,10,11,11,0.8,0.8
2023-09-25T00:00:00,2478A,111.6156,26.4214,永州市,市环境监测站,细颗粒物(PM2.5),58,53,50,41,40,97,64,91,76,8,9,8,9,0.7,0.8
2023-09-25T00:00:00,2479A,111.6236,26.2331,永州市,零陵区环保局,细颗粒物(PM2.5),77,72,52,56,41,100,58,88,79,13,12,10,8,0.7,0.7
2023-09-25T00:00:00,2480A,111.5992,26.4364,永州市,永州市环保局,细颗粒物(PM2.5),63,52,44,45,39,100,60,91,79,11,10,8,9,0.7,0.7
2023-09-25T00:00:00,2481A,111.5989,26.4519,永州市,冷水滩区环保局,细颗粒物(PM2.5),65,58,53,47,43,93,60,84,71,9,11,7,8,0.7,0.7
2023-09-25T00:00:00,2482A,109.5981,27.5721,怀化市,林科所,,12,10,17,6,7,51,38,46,45,4,4,7,7,0.5,0.6
2023-09-25T00:00:00,2483A,109.9453,27.5444,怀化市,河西地税局,,13,11,20,6,13,48,40,44,43,5,6,2,1,0.5,0.6
2023-09-25T00:00:00,2484A,109.9781,27.5342,怀化市,市四医院,,14,14,25,7,16,51,34,42,41,5,6,2,3,0.6,0.7
2023-09-25T00:00:00,2485A,109.9972,27.5578,怀化市,监测楼,,14,14,25,8,13,54,35,47,45,9,6,5,6,0.6,0.7
