timepoint,stationcode,longitude,latitude,area,positionname,primarypollutant,aqi,pm10,pm10_24h,pm2_5,pm2_5_24h,o3,o3_24h,o3_8h,o3_8h_24h,no2,no2_24h,so2,so2_24h,co,co_24h
2025-04-29T1100,2566A,102.1879,31.914,阿坝藏族羌族自治州,州农科所,,32,32,21,16,9,88,,75,75,7,10,11,10,0.5,0.5
2025-04-29T1100,2568A,102.2502,31.8896,阿坝藏族羌族自治州,马师校,,31,14,14,12,12,97,,75,75,8,8,5,5,0.5,0.5
2025-04-29T1100,3994A,102.2165,31.9024,阿坝藏族羌族自治州,马尔康中学西区,,,15,15,8,10,111,,92,,4,3,4,4,,0.3
2025-04-29T1100,2695A,80.292,41.1694,阿克苏地区,电视台,颗粒物(PM10),141,232,254,54,63,55,,47,47,18,20,9,8,0.8,0.8
2025-04-29T1100,2696A,80.2613,41.1551,阿克苏地区,艺术中心,颗粒物(PM10),144,238,287,50,67,56,,48,48,17,30,4,4,0.5,0.6
2025-04-29T1100,2204A,105.6467,38.8363,阿拉善盟,西城区西花园,颗粒物(PM10),91,132,72,39,21,112,,105,105,7,11,6,6,0.6,0.6
2025-04-29T1100,2205A,105.6985,38.8411,阿拉善盟,蒙二幼,颗粒物(PM10),92,133,65,47,20,92,,85,85,6,8,7,7,0.5,0.5
2025-04-29T1100,2206A,105.724,38.8516,阿拉善盟,环保局新楼,,,147,55,49,19,99,,106,99,5,4,8,7,,0.5
2025-04-29T1100,2708A,88.1264,47.8517,阿勒泰地区,市站,,34,34,26,6,7,92,,95,90,12,7,3,3,0.5,0.5
2025-04-29T1100,2630A,80.1161,32.5,阿里地区,阿里监测站,,36,36,20,11,7,106,,114,109,7,6,5,5,0.4,0.4
2025-04-29T1100,3192A,80.0903,32.5028,阿里地区,阿里藏医院,,40,40,44,13,10,115,,118,116,3,3,5,5,0.3,0.3
2025-04-29T1100,2642A,109.0318,32.6537,安康市,香溪洞,,35,35,41,20,13,57,,67,55,14,9,12,11,0.6,0.5
2025-04-29T1100,2644A,109.0072,32.6975,安康市,汉滨区检察院,颗粒物(PM10),57,63,42,19,16,50,,54,48,21,11,146,21,0.5,0.4
2025-04-29T1100,4054A,109.0325,32.6913,安康市,市邮政管理局,颗粒物(PM10),58,65,46,25,20,43,,49,44,24,14,105,19,0.5,0.4
2025-04-29T1100,2291A,117.0809,30.5177,安庆市,环科院,"颗粒物(PM10),细颗粒物(PM2.5)",64,78,68,46,39,156,,48,48,20,46,6,3,1.0,0.9
2025-04-29T1100,2292A,117.0331,30.5119,安庆市,马山宾馆,细颗粒物(PM2.5),67,75,67,48,42,141,,65,65,21,30,7,6,0.9,0.9
2025-04-29T1100,2294A,116.9896,30.6145,安庆市,安庆大学,,,102,63,51,36,178,,66,66,,26,11,4,,0.7
2025-04-29T1100,3173A,117.0598,30.5351,安庆市,市人大,细颗粒物(PM2.5),72,81,74,52,46,163,,78,78,22,28,10,8,0.8,0.9
2025-04-29T1100,3122A,105.9606,26.2611,安顺市,伍家关,,31,26,31,14,16,97,,100,96,5,9,4,6,0.4,0.4
2025-04-29T1100,3123A,105.9408,26.2431,安顺市,凤凰山,,31,28,27,19,20,98,,92,90,6,8,7,10,0.5,0.5
2025-04-29T1100,3124A,105.9439,26.2564,安顺市,金钟山,,31,26,23,20,19,98,,96,92,6,7,5,8,0.5,0.5
2025-04-29T1100,3125A,105.8983,26.2481,安顺市,娄家坡,,31,29,27,18,19,99,,94,93,6,9,7,9,0.5,0.5
2025-04-29T1100,1818A,114.4839,36.0621,安阳市,棉研所,,,,,,,,,,,,,,,,
2025-04-29T1100,1819A,114.3551,36.1017,安阳市,红庙街,,,,75,21,32,,,57,51,1,11,6,5,0.5,0.4
2025-04-29T1100,1820A,114.361,36.0681,安阳市,银杏小区,颗粒物(PM10),65,79,77,24,25,117,,63,63,17,17,7,8,0.4,0.4
2025-04-29T1100,3141A,114.3922,36.0878,安阳市,信访局,颗粒物(PM10),74,97,90,9,19,114,,76,76,22,19,5,6,0.4,0.3
2025-04-29T1100,3669A,114.4705,36.0637,安阳市,左辅环卫站,颗粒物(PM10),63,76,67,19,21,107,,62,60,20,20,7,6,0.6,0.5
2025-04-29T1100,3703A,114.2917,36.0949,安阳市,安钢职工学校,颗粒物(PM10),61,71,71,13,24,128,,69,69,6,15,3,4,0.4,0.4
2025-04-29T1100,1748A,123.044,41.1196,鞍山市,深沟寺,,,64,49,45,36,129,,111,111,,14,10,7,0.6,0.5
2025-04-29T1100,1749A,123.011,41.0931,鞍山市,太阳城,颗粒物(PM10),54,58,53,20,30,113,,99,99,11,13,8,8,0.8,0.8
2025-04-29T1100,1750A,123.0485,41.1442,鞍山市,太平,颗粒物(PM10),66,81,69,20,34,116,,98,98,10,15,11,10,0.7,0.7
2025-04-29T1100,1751A,122.9642,41.0971,鞍山市,铁西三道街,颗粒物(PM10),65,80,70,20,35,125,,97,97,14,26,5,9,0.5,0.9
2025-04-29T1100,1753A,123.022,41.0821,鞍山市,明达新区,颗粒物(PM10),55,60,52,16,24,126,,111,111,10,12,9,8,0.4,0.4
2025-04-29T1100,1754A,123.1289,41.0228,鞍山市,千山,,,,43,,20,,,100,,,8,,5,,0.5
2025-04-29T1100,4201A,122.9446,41.0826,鞍山市,兴盛南路290号,颗粒物(PM10),67,83,74,21,36,122,,94,94,15,31,8,10,0.5,0.8
2025-04-29T1100,2195A,107.4212,40.761,巴彦淖尔市,附二中,颗粒物(PM10),88,126,80,43,22,113,,86,86,7,8,8,4,0.5,0.4
2025-04-29T1100,2196A,107.37,40.7372,巴彦淖尔市,市环保大楼,颗粒物(PM10),98,145,74,39,22,109,,83,83,7,12,6,4,0.5,0.3
2025-04-29T1100,1956A,86.1472,41.7538,巴音郭楞蒙古自治州,孔雀公园,颗粒物(PM10),183,316,261,61,55,28,,5,5,43,35,9,6,0.5,0.3
2025-04-29T1100,1957A,86.1972,41.7166,巴音郭楞蒙古自治州,棉纺厂,颗粒物(PM10),250,385,324,88,62,65,,26,26,18,23,4,3,0.2,0.3
2025-04-29T1100,1958A,86.2357,41.7173,巴音郭楞蒙古自治州,经济开发区,颗粒物(PM10),154,257,251,47,46,66,,33,33,21,18,7,6,0.4,0.3
2025-04-29T1100,2914A,106.7677,31.8794,巴中市,苏山坪,颗粒物(PM10),60,70,49,36,21,44,,91,64,29,14,4,4,0.8,0.6
2025-04-29T1100,3181A,106.7768,31.8526,巴中市,市五中,颗粒物(PM10),54,57,53,30,24,56,,33,33,18,23,6,6,0.5,0.4
2025-04-29T1100,3183A,106.7418,31.8654,巴中市,圣泉水务公司,颗粒物(PM10),55,59,50,30,22,35,,50,38,38,29,7,6,0.7,0.5
2025-04-29T1100,3616A,106.7616,31.8344,巴中市,市中心医院,颗粒物(PM10),53,55,52,29,29,53,,34,34,17,25,5,4,0.5,0.5
2025-04-29T1100,2235A,122.7911,45.6077,白城市,洮北区环保局,颗粒物(PM10),112,173,41,42,15,99,,82,82,,9,4,3,0.4,0.4
2025-04-29T1100,2236A,122.8738,45.5725,白城市,市环保局,颗粒物(PM10),125,200,48,31,19,103,,87,87,8,6,7,4,0.5,0.4
2025-04-29T1100,2231A,126.4219,41.9171,白山市,喜丰,细颗粒物(PM2.5),65,66,90,47,61,107,,55,55,14,29,15,14,0.9,0.9
2025-04-29T1100,2232A,126.4077,41.9419,白山市,环保局,细颗粒物(PM2.5),52,46,69,36,45,99,,63,63,16,19,11,10,0.7,0.6
2025-04-29T1100,2647A,104.1724,36.5446,白银市,第三小学,颗粒物(PM10),53,56,64,20,23,104,,84,84,6,13,7,13,0.6,0.7
2025-04-29T1100,2648A,104.1465,36.5482,白银市,动力公司,,50,50,52,18,22,111,,86,86,5,11,6,12,0.5,0.7
2025-04-29T1100,2512A,106.6103,23.9011,百色市,市监测站,颗粒物(PM10),52,53,34,30,19,58,,25,25,24,21,11,5,0.9,0.7
2025-04-29T1100,2513A,106.6538,23.8859,百色市,市中心血站,颗粒物(PM10),58,66,46,40,24,64,,24,24,23,22,17,8,1.0,0.9
2025-04-29T1100,3406A,106.6085,23.8798,百色市,祈福高中,颗粒物(PM10),53,55,47,27,18,53,,20,20,27,25,18,7,0.9,0.7
2025-04-29T1100,2270A,117.396,32.939,蚌埠市,工人疗养院,臭氧1小时,83,95,66,36,25,186,,124,124,12,15,6,7,0.7,0.6
2025-04-29T1100,2271A,117.3605,32.9427,蚌埠市,百货大楼,臭氧1小时,73,84,64,34,29,178,,123,123,16,20,8,10,0.7,0.6
2025-04-29T1100,2273A,117.4185,32.8911,蚌埠市,蚌埠学院,臭氧1小时,75,75,60,45,27,180,,121,121,14,18,8,6,0.7,0.6
2025-04-29T1100,2274A,117.3533,32.9673,蚌埠市,淮上区政府,臭氧1小时,75,97,64,39,29,180,,123,123,14,20,8,8,0.5,0.4
2025-04-29T1100,2275A,117.3145,32.8977,蚌埠市,高新区,"颗粒物(PM10),臭氧1小时",70,90,57,37,30,176,,102,102,11,22,8,7,0.6,0.5
2025-04-29T1100,3715A,117.3092,32.9314,蚌埠市,蚌埠田家炳中学,臭氧1小时,79,100,73,44,26,183,,106,106,15,23,8,13,0.5,0.4
2025-04-29T1100,1585A,109.8756,40.6532,包头市,市环境监测站,颗粒物(PM10),83,115,52,37,27,94,,35,35,12,39,12,18,0.5,1.1
2025-04-29T1100,1587A,109.9991,40.5842,包头市,包头八中,颗粒物(PM10),74,97,59,37,24,93,,41,41,19,32,26,24,0.7,0.8
2025-04-29T1100,1588A,109.8538,40.6821,包头市,青山宾馆,颗粒物(PM10),79,107,56,56,30,99,,28,28,5,39,9,14,0.3,0.6
2025-04-29T1100,1589A,109.8642,40.6288,包头市,惠龙物流,颗粒物(PM10),82,113,49,54,27,96,,48,48,13,31,13,24,0.5,0.9
2025-04-29T1100,1590A,110.0377,40.5546,包头市,东河鸿龙湾,颗粒物(PM10),80,110,44,27,12,87,,36,36,14,22,17,13,0.6,0.6
2025-04-29T1100,3283A,109.9154,40.5685,包头市,滨河大厦,颗粒物(PM10),92,134,43,44,16,91,,44,44,8,21,14,17,0.4,0.5
2025-04-29T1100,3419A,109.9447,40.6261,包头市,包头市委党校,颗粒物(PM10),67,84,45,36,14,95,,53,53,12,24,16,20,0.7,0.9
2025-04-29T1100,3683A,109.8331,40.6576,包头市,昆区政府,颗粒物(PM10),81,112,57,56,30,98,,29,29,10,46,8,20,0.5,1.2
2025-04-29T1100,1930A,107.185,34.3063,宝鸡市,庙沟村,颗粒物(PM10),51,52,32,32,22,98,,79,79,7,10,7,8,0.4,0.4
2025-04-29T1100,1931A,107.0708,34.3017,宝鸡市,竹园沟,,39,39,35,18,18,79,,53,53,14,13,8,8,0.4,0.3
2025-04-29T1100,1932A,107.1906,34.3672,宝鸡市,三陆医院,颗粒物(PM10),55,60,44,20,18,59,,46,46,31,26,6,7,0.5,0.4
2025-04-29T1100,1933A,107.1431,34.3547,宝鸡市,监测站,颗粒物(PM10),55,60,46,19,17,59,,45,44,22,17,4,5,0.3,0.3
2025-04-29T1100,1934A,107.1186,34.3739,宝鸡市,技工学校,,,71,42,26,19,58,,66,62,,13,9,8,,0.4
2025-04-29T1100,1935A,107.3906,34.3528,宝鸡市,陈仓区环保局家属楼,颗粒物(PM10),61,72,47,19,15,71,,49,49,26,27,7,9,0.5,0.5
2025-04-29T1100,1936A,107.2058,34.3497,宝鸡市,文理学院,颗粒物(PM10),51,51,42,21,17,67,,53,53,21,19,7,8,0.5,0.4
2025-04-29T1100,1937A,107.2386,34.3622,宝鸡市,三迪小学,颗粒物(PM10),58,65,48,27,18,66,,52,52,25,22,6,7,0.6,0.4
2025-04-29T1100,1051A,115.493,38.8632,保定市,游泳馆,颗粒物(PM10),78,106,88,41,37,86,,47,47,35,36,10,7,0.5,0.2
2025-04-29T1100,1052A,115.5213,38.8959,保定市,华电二区,颗粒物(PM10),67,83,66,25,33,96,,48,48,27,30,6,3,0.5,0.4
2025-04-29T1100,1053A,115.4713,38.9108,保定市,接待中心,细颗粒物(PM2.5),69,74,73,50,40,94,,48,48,27,30,7,4,0.9,0.8
2025-04-29T1100,1054A,115.4612,38.8416,保定市,地表水厂,颗粒物(PM10),81,112,89,47,35,86,,48,48,33,35,6,5,0.6,0.4
2025-04-29T1100,3581A,115.31981,38.95208,保定市,满城区生态环境分局,细颗粒物(PM2.5),89,122,84,66,40,97,,50,50,27,33,7,5,0.5,0.4
2025-04-29T1100,3582A,115.47694,38.76408,保定市,清苑区第二中学,,,96,111,46,42,86,,48,48,,34,8,7,,0.4
2025-04-29T1100,3583A,115.62909,39.02311,保定市,徐水物探局,颗粒物(PM10),71,92,89,39,30,74,,39,39,28,32,5,3,0.3,0.2
2025-04-29T1100,4004A,115.4202,38.8656,保定市,双鹰农机,颗粒物(PM10),78,105,75,52,38,86,,51,51,33,34,10,8,0.3,0.2
2025-04-29T1100,4034A,115.5150,38.8590,保定市,植保所站,颗粒物(PM10),70,89,95,33,40,89,,44,44,29,34,1,2,0.9,0.6
2025-04-29T1100,2594A,99.1678,25.1081,保山市,市环境监测站,,,,55,,32,106,,82,73,,8,,10,0.6,0.5
2025-04-29T1100,2595A,99.1711,25.1328,保山市,市环保局,,45,45,56,21,30,120,,93,87,10,6,8,9,0.5,0.4
2025-04-29T1100,1866A,109.2262,21.588,北海市,牛尾岭水库,,,,23,44,17,51,,34,34,,,11,12,0.7,1.1
2025-04-29T1100,1867A,109.1436,21.4086,北海市,海滩公园,,28,26,32,12,16,87,,55,55,12,14,10,9,0.7,0.7
2025-04-29T1100,1868A,109.0981,21.4661,北海市,新市环保局,,32,28,29,22,18,83,,60,60,16,15,8,7,0.7,0.7
2025-04-29T1100,1869A,109.1778,21.5233,北海市,北海工业园,,45,45,35,27,25,67,,40,40,19,17,16,14,0.9,0.8
2025-04-29T1100,3400A,109.1911,21.4415,北海市,龙潭自来水厂,,32,32,31,20,24,71,,34,34,16,16,14,10,0.7,0.6
2025-04-29T1100,1001A,116.3621,39.8784,北京市,万寿西宫,颗粒物(PM10),64,78,66,36,26,80,,47,47,34,29,17,10,1.2,0.8
2025-04-29T1100,1002A,116.2202,40.2915,北京市,定陵,,,,,,,,,,,,,,,,
2025-04-29T1100,1003A,116.4174,39.9289,北京市,东四,颗粒物(PM10),62,74,71,35,24,77,,50,50,32,30,14,7,0.8,0.6
2025-04-29T1100,1004A,116.4072,39.8863,北京市,天坛,颗粒物(PM10),62,73,58,35,25,76,,44,44,36,32,13,6,0.9,0.7
2025-04-29T1100,1005A,116.462,39.9365,北京市,农展馆,颗粒物(PM10),68,85,75,36,24,77,,40,40,35,35,18,12,0.8,0.6
2025-04-29T1100,1006A,116.3392,39.9295,北京市,官园,颗粒物(PM10),68,85,83,35,34,63,,39,39,37,28,14,8,0.8,0.5
2025-04-29T1100,1007A,116.2878,39.9611,北京市,海淀万柳,颗粒物(PM10),65,80,70,39,25,60,,29,29,38,32,13,7,0.7,0.6
2025-04-29T1100,1008A,116.6636,40.135,北京市,顺义新城,颗粒物(PM10),64,78,70,37,24,75,,47,47,30,23,14,12,0.7,0.6
2025-04-29T1100,1009A,116.6275,40.3275,北京市,怀柔镇,颗粒物(PM10),63,75,74,42,32,81,,55,55,25,20,10,6,0.6,0.5
2025-04-29T1100,1010A,116.2296,40.217,北京市,昌平镇,颗粒物(PM10),64,77,66,31,20,60,,50,50,37,19,7,4,0.4,0.3
2025-04-29T1100,1011A,116.3966,39.9821,北京市,奥体中心,颗粒物(PM10),59,67,58,31,24,69,,36,36,40,38,13,7,0.6,0.4
2025-04-29T1100,3281A,115.9718,40.4529,北京市,延庆夏都,颗粒物(PM10),62,73,63,30,23,70,,44,44,31,24,5,4,0.5,0.5
2025-04-29T1100,3418A,116.8336,40.4095,北京市,密云新城,颗粒物(PM10),62,74,75,36,28,88,,44,44,19,20,8,6,0.6,0.5
2025-04-29T1100,3671A,116.088,39.9726,北京市,门头沟三家店,,,,,,,,,,,,,,,,
2025-04-29T1100,3672A,116.1541,39.8204,北京市,丰台云岗,颗粒物(PM10),70,89,79,37,31,67,,31,31,35,31,11,5,0.7,0.5
2025-04-29T1100,3673A,116.6804,39.9081,北京市,通州东关,颗粒物(PM10),67,83,84,41,41,79,,45,45,28,32,16,10,0.8,0.6
2025-04-29T1100,3674A,115.9577,39.7603,北京市,房山燕山,颗粒物(PM10),67,84,81,41,33,77,,47,47,38,30,9,6,0.6,0.4
2025-04-29T1100,3675A,116.4672,39.7733,北京市,大兴旧宫,颗粒物(PM10),70,89,70,41,26,74,,44,44,28,26,10,5,0.7,0.5
2025-04-29T1100,3694A,115.986,40.4563,北京市,延庆石河营,颗粒物(PM10),64,77,64,32,23,56,,41,41,22,19,5,3,0.5,0.5
2025-04-29T1100,3695A,116.6151,40.3053,北京市,怀柔新城,颗粒物(PM10),58,66,62,37,33,83,,62,62,18,16,8,4,0.6,0.5
2025-04-29T1100,3696A,116.2545,39.8768,北京市,丰台小屯,颗粒物(PM10),58,66,54,33,25,61,,33,33,38,35,12,5,0.9,0.5
2025-04-29T1100,3697A,116.84,40.3844,北京市,密云镇,细颗粒物(PM2.5),60,65,61,43,23,88,,37,37,19,25,10,8,0.5,0.5
2025-04-29T1100,4182A,116.1942,39.9158,北京市,八角北路9号,颗粒物(PM10),67,84,79,42,29,73,,36,36,40,42,12,6,0.7,0.5
2025-04-29T1100,4194A,117.0790,40.1518,北京市,洳河巡河路,颗粒物(PM10),61,71,52,34,24,105,,56,56,11,15,8,5,0.6,0.5
2025-04-29T1100,1761A,123.8275,41.3064,本溪市,大峪,颗粒物(PM10),57,64,72,24,41,130,,60,60,8,27,8,7,0.6,0.7
2025-04-29T1100,1762A,123.7567,41.3325,本溪市,溪湖,颗粒物(PM10),56,62,76,27,50,118,,63,63,12,27,8,7,0.7,0.9
2025-04-29T1100,1763A,123.7169,41.3094,本溪市,彩屯,颗粒物(PM10),60,69,79,35,50,119,,66,66,19,31,18,13,1.4,1.6
2025-04-29T1100,1764A,123.7669,41.2864,本溪市,东明,颗粒物(PM10),69,88,81,28,44,124,,69,69,12,29,7,6,0.6,0.7
2025-04-29T1100,1765A,123.7992,41.2664,本溪市,新立屯,颗粒物(PM10),62,74,67,26,42,125,,91,91,12,34,8,6,0.9,0.8
2025-04-29T1100,1766A,123.8142,41.3472,本溪市,威宁,颗粒物(PM10),64,77,95,26,49,123,,64,64,4,24,7,5,0.6,0.8
2025-04-29T1100,2587A,105.2864,27.3125,毕节市,八中,,,60,36,44,26,23,,24,21,,14,6,5,0.7,0.6
2025-04-29T1100,2588A,105.31,27.2944,毕节市,师专,颗粒物(PM10),52,54,39,31,29,27,,26,23,36,17,9,8,0.8,0.6
2025-04-29T1100,4263A,105.3688,27.3598,毕节市,工业大道,,45,45,35,28,24,46,,27,27,20,20,11,7,0.7,0.7
2025-04-29T1100,1629A,118.0018,37.3617,滨州市,第二水厂,细颗粒物(PM2.5),125,95,86,95,39,125,,49,49,10,34,9,13,0.6,0.7
2025-04-29T1100,1630A,117.9776,37.393,滨州市,北中新校,颗粒物(PM10),59,68,63,19,29,133,,60,60,14,36,8,12,0.5,0.6
2025-04-29T1100,3514A,117.9378,37.3956,滨州市,中海酒店,颗粒物(PM10),58,66,55,24,32,128,,70,70,14,30,17,13,0.6,0.7
2025-04-29T1100,3515A,117.9378,37.3553,滨州市,开发区一中,,,124,82,27,31,121,,50,50,16,40,,10,,0.6
2025-04-29T1100,3516A,118.0917,37.694,滨州市,金海六路,颗粒物(PM10),72,93,71,19,23,126,,67,67,14,26,11,16,0.1,0.3
2025-04-29T1100,4028A,117.9956,37.3753,滨州市,滨州市西街道办事处,颗粒物(PM10),84,117,73,24,34,139,,60,60,11,32,7,10,0.5,0.7
2025-04-29T1100,2311A,115.8072,33.8399,亳州市,污水处理厂,颗粒物(PM10),57,64,39,23,14,139,,111,111,14,17,4,9,0.5,0.3
2025-04-29T1100,2312A,115.7789,33.8518,亳州市,三国揽胜宫,颗粒物(PM10),53,56,39,18,10,146,,110,110,10,14,6,12,0.3,0.3
2025-04-29T1100,3332A,115.7633,33.8034,亳州市,亳州学院,颗粒物(PM10),52,53,40,17,11,148,,103,103,10,17,4,12,0.7,0.4
2025-04-29T1100,2693A,82.0485,44.8556,博尔塔拉蒙古自治州,市党校,颗粒物(PM10),51,51,55,19,20,67,,60,53,49,42,4,4,0.7,0.7
2025-04-29T1100,2694A,82.0806,44.8969,博尔塔拉蒙古自治州,市环保局,颗粒物(PM10),64,78,72,20,17,52,,51,45,24,20,3,3,0.7,0.7
2025-04-29T1100,1071A,116.8842,38.2991,沧州市,沧县城建局,颗粒物(PM10),83,115,78,28,39,98,,62,62,18,30,4,7,0.4,0.4
2025-04-29T1100,1072A,116.8584,38.3254,沧州市,电视转播站,颗粒物(PM10),62,73,72,34,41,101,,61,61,18,30,8,9,0.4,0.3
2025-04-29T1100,1073A,116.8709,38.3228,沧州市,市环保局,颗粒物(PM10),71,91,78,33,40,111,,64,64,17,29,9,10,0.5,0.4
2025-04-29T1100,3324A,116.8136,38.3004,沧州市,河北水利电力学院,颗粒物(PM10),67,83,73,32,32,109,,65,65,17,26,12,11,0.4,0.4
2025-04-29T1100,2622A,97.1806,31.1273,昌都市,昌都监测站,,32,10,4,6,6,101,,110,102,4,3,3,3,0.4,0.4
2025-04-29T1100,3719A,97.1714,31.1406,昌都市,昌都会议中心,,31,13,7,10,6,98,,111,103,5,4,4,3,0.2,0.2
2025-04-29T1100,2690A,88.1236,43.8886,昌吉回族自治州,天山天池,,27,27,19,13,7,53,,64,63,6,5,6,5,0.6,0.5
2025-04-29T1100,2692A,87.2717,44.0297,昌吉回族自治州,新区政务中心,颗粒物(PM10),63,75,40,16,9,78,,68,68,14,17,8,6,0.3,0.3
2025-04-29T1100,3613A,87.3095,44.0142,昌吉回族自治州,亚心广场,颗粒物(PM10),74,97,57,17,15,71,,62,62,24,24,9,8,0.3,0.3
2025-04-29T1100,1119A,125.3325,43.9166,长春市,食品厂,颗粒物(PM10),96,141,59,47,38,127,,87,87,17,26,11,8,0.6,0.5
2025-04-29T1100,1120A,125.2863,43.9027,长春市,客车厂,细颗粒物(PM2.5),72,82,51,52,37,133,,93,93,16,25,8,6,0.5,0.4
2025-04-29T1100,1121A,125.2841,43.8463,长春市,邮电学院,颗粒物(PM10),67,84,42,42,38,135,,91,91,17,20,9,7,0.7,0.5
2025-04-29T1100,1122A,125.3716,43.8772,长春市,劳动公园,颗粒物(PM10),72,94,55,44,35,138,,93,93,13,18,10,7,0.5,0.3
2025-04-29T1100,1123A,125.3297,43.8805,长春市,园林处,颗粒物(PM10),71,91,63,47,38,130,,88,88,15,20,10,7,0.7,0.5
2025-04-29T1100,1124A,125.4605,43.79,长春市,净月潭,,,82,50,43,35,,,88,88,11,9,10,6,0.4,0.3
2025-04-29T1100,1125A,125.7194,43.515,长春市,甩湾子,,,,,,,,,,,,,,,,
2025-04-29T1100,1126A,125.3863,43.8447,长春市,经开区环卫处,颗粒物(PM10),76,101,66,42,35,129,,87,87,14,23,10,7,0.6,0.5
2025-04-29T1100,1127A,125.245,43.7783,长春市,高新区管委会,颗粒物(PM10),60,69,48,40,37,128,,87,87,14,19,11,9,0.4,0.3
2025-04-29T1100,1128A,125.1761,43.8325,长春市,岱山公园,颗粒物(PM10),68,86,55,37,35,136,,95,95,13,28,7,5,0.6,0.6
2025-04-29T1100,1335A,113.0833,28.2325,长沙市,经开区环保局,颗粒物(PM10),63,75,80,37,45,127,,66,66,15,31,6,6,0.7,0.7
2025-04-29T1100,1336A,112.8872,28.2189,长沙市,高开区环保局,细颗粒物(PM2.5),78,87,83,57,52,132,,47,47,16,33,7,6,1.0,1
2025-04-29T1100,1337A,113.0792,28.2053,长沙市,马坡岭,,,79,84,41,49,125,,35,35,,36,16,4,,0.6
2025-04-29T1100,1338A,112.9394,28.19,长沙市,湖南师范大学,颗粒物(PM10),73,95,73,50,37,130,,58,58,26,22,4,2,0.7,0.6
2025-04-29T1100,1339A,113.0178,28.1322,长沙市,雨花区环保局,细颗粒物(PM2.5),69,81,83,50,49,141,,45,45,16,32,6,4,0.6,0.6
2025-04-29T1100,1340A,112.9792,28.2597,长沙市,伍家岭,细颗粒物(PM2.5),89,94,92,66,48,106,,35,35,40,40,4,3,0.8,0.7
2025-04-29T1100,1341A,113.0014,28.1944,长沙市,火车新站,细颗粒物(PM2.5),70,80,87,51,47,142,,46,46,29,37,8,7,0.7,0.8
2025-04-29T1100,1342A,112.9844,28.1178,长沙市,天心区环保局,细颗粒物(PM2.5),69,78,83,50,43,130,,39,39,26,37,5,4,0.8,0.8
2025-04-29T1100,1343A,112.8908,28.1308,长沙市,湖南中医药大学,细颗粒物(PM2.5),70,72,70,51,48,134,,45,45,13,32,5,3,0.8,0.8
2025-04-29T1100,1344A,112.9581,28.3611,长沙市,沙坪,,,68,59,42,35,,,69,57,17,13,,6,0.7,0.6
2025-04-29T1100,1727A,113.1147,36.1547,长治市,清华站,,49,49,48,9,15,129,,78,78,13,19,8,8,0.5,0.6
2025-04-29T1100,1730A,113.0886,36.2125,长治市,审计局,,41,36,42,9,14,131,,87,87,16,21,10,12,0.4,0.5
2025-04-29T1100,1731A,113.0844,36.1856,长治市,长治八中,颗粒物(PM10),58,65,50,24,20,127,,83,83,14,19,10,11,0.5,0.6
2025-04-29T1100,2845A,113.1569,36.1911,长治市,德盛苑,,43,43,34,17,13,127,,117,117,14,10,8,8,0.6,0.6
2025-04-29T1100,3568A,113.06,36.0464,长治市,向阳小学,颗粒物(PM10),62,73,59,12,16,139,,104,104,11,16,10,13,0.1,0.3
2025-04-29T1100,3569A,112.8792,36.3144,长治市,屯留一中,,48,48,44,3,13,135,,82,82,6,13,8,8,0.5,0.5
2025-04-29T1100,4189A,113.1131,36.19948,长治市,英华南巷50号,,49,49,44,17,16,132,,94,94,20,21,8,10,0.6,0.5
2025-04-29T1100,4190A,113.2367,36.3344,长治市,学府街1号,,,62,60,31,25,,,74,74,17,27,,11,1.0,0.8
2025-04-29T1100,1854A,111.6975,28.9703,常德市,市二中,"颗粒物(PM10),细颗粒物(PM2.5)",69,87,74,50,47,107,,59,59,19,18,10,10,0.9,0.8
2025-04-29T1100,1857A,111.7158,29.1456,常德市,白鹤山,,,,,,,,,,,,,,,,
2025-04-29T1100,3138A,111.7153,29.0289,常德市,武陵区永安,颗粒物(PM10),72,93,85,36,43,130,,66,66,17,20,8,5,0.6,0.6
2025-04-29T1100,3139A,111.6892,28.9881,常德市,鼎城区玉霞,细颗粒物(PM2.5),69,84,79,50,45,116,,55,55,14,19,8,7,0.7,0.7
2025-04-29T1100,3140A,111.6625,29.0531,常德市,武陵区长庚,颗粒物(PM10),66,82,80,42,41,128,,74,74,14,19,14,10,0.8,0.8
2025-04-29T1100,1196A,119.9633,31.762,常州市,市监测站,"颗粒物(PM10),臭氧1小时",59,67,80,32,36,167,,76,76,14,24,12,10,0.7,0.8
2025-04-29T1100,1200A,119.9468,31.7069,常州市,武进监测站,臭氧1小时,68,58,68,24,27,174,,91,91,24,32,16,19,0.7,0.8
2025-04-29T1100,1201A,119.9255,31.9087,常州市,安家,臭氧1小时,59,54,71,31,32,167,,77,77,17,37,13,12,0.3,0.4
2025-04-29T1100,3002A,119.9805,31.8174,常州市,行政中心,臭氧1小时,57,52,65,28,33,165,,86,86,17,27,20,18,0.5,0.6
2025-04-29T1100,3003A,120.0522,31.7748,常州市,经开区,臭氧1小时,74,57,65,26,29,179,,90,90,20,34,11,12,0.6,0.7
2025-04-29T1100,3010A,119.9025,31.7964,常州市,钟楼,臭氧1小时,77,58,67,27,34,181,,90,90,14,22,9,10,0.5,0.5
2025-04-29T1100,3429A,119.8598,31.7066,常州市,武进经发区,臭氧1小时,70,57,66,27,33,176,,82,82,14,28,11,12,0.7,0.7
2025-04-29T1100,3430A,119.5826,31.7245,常州市,金坛城区,,,57,58,27,25,176,,83,83,18,24,,11,0.7,0.6
2025-04-29T1100,2220A,120.4318,41.5881,朝阳市,西梁,颗粒物(PM10),61,72,42,20,20,124,,88,88,17,13,12,7,0.8,0.5
2025-04-29T1100,2221A,120.4521,41.5646,朝阳市,河畔小区,颗粒物(PM10),71,91,46,26,18,134,,100,100,12,9,9,8,0.5,0.3
2025-04-29T1100,2222A,120.4176,41.5648,朝阳市,八里堡,颗粒物(PM10),73,96,49,23,19,123,,88,88,17,13,14,8,0.7,0.4
2025-04-29T1100,2223A,120.3806,41.5969,朝阳市,农业园区,颗粒物(PM10),59,68,40,35,28,127,,87,87,14,14,11,8,0.7,0.5
2025-04-29T1100,1705A,116.6367,23.6719,潮州市,西园路,,37,18,20,14,17,117,,67,67,10,9,8,4,0.6,0.6
2025-04-29T1100,3026A,116.6183,23.6608,潮州市,市政府,,41,41,28,16,16,117,,70,70,9,8,9,5,0.6,0.7
2025-04-29T1100,4036A,116.6461,23.6761,潮州市,金山,,,,25,16,14,102,,56,56,,11,12,7,0.6,0.7
2025-04-29T1100,2472A,113.0073,25.9061,郴州市,马头岭,颗粒物(PM10),53,55,37,18,10,17,,5,5,18,15,14,7,0.6,0.5
2025-04-29T1100,2473A,113.0116,25.8226,郴州市,市职中,"颗粒物(PM10),细颗粒物(PM2.5)",53,56,44,37,29,123,,35,35,10,13,10,3,0.7,0.8
2025-04-29T1100,2475A,113.0383,25.8071,郴州市,市审计局,,50,48,39,35,27,127,,36,36,9,15,13,3,0.7,0.7
2025-04-29T1100,2476A,113.0348,25.7759,郴州市,市环保局,细颗粒物(PM2.5),54,50,45,38,27,108,,34,34,13,22,12,4,0.7,0.7
2025-04-29T1100,4252A,113.0138,25.8011,郴州市,好美居路49号,细颗粒物(PM2.5),57,60,43,40,27,129,,33,33,10,18,13,5,0.8,0.8
2025-04-29T1100,1431A,103.9728,30.7236,成都市,金泉两河,,28,28,48,3,19,79,,65,65,13,17,2,3,0.6,0.7
2025-04-29T1100,1432A,104.176,30.6872,成都市,十里店,,35,,50,24,22,84,,71,71,13,22,3,4,0.6,0.7
2025-04-29T1100,1433A,104.079,30.5706,成都市,三瓦窑,,27,23,49,10,26,85,,84,84,20,32,4,5,0.5,0.5
2025-04-29T1100,1434A,104.1114,30.63,成都市,沙河铺,,35,35,49,22,26,76,,75,75,15,22,6,7,0.5,0.5
2025-04-29T1100,1437A,104.0786,30.6531,成都市,君平街,,32,32,47,19,27,65,,60,60,19,24,6,7,0.6,0.6
2025-04-29T1100,1438A,103.613,31.0283,成都市,灵岩寺,,,,,,,,,,,,,,,,
2025-04-29T1100,2880A,104.0239,30.65639,成都市,大石西路,,,31,52,24,25,90,,82,82,14,24,,5,0.4,0.4
2025-04-29T1100,3136A,104.2725,30.5589,成都市,龙泉驿区区政府,,,14,40,9,22,80,,69,69,,22,4,5,0.7,0.7
2025-04-29T1100,3357A,104.0106,30.6931,成都市,金博路,,29,22,37,16,16,92,,70,70,13,20,7,8,0.2,0.4
2025-04-29T1100,3359A,104.0578,30.5225,成都市,华阳,,28,19,48,19,35,68,,72,72,25,32,4,6,0.2,0.3
2025-04-29T1100,3488A,104.3853,30.7453,成都市,青白江技师分院,,,,59,,33,89,,84,84,,38,,2,0.2,0.3
2025-04-29T1100,3489A,104.0789,30.4072,成都市,科学城,,24,16,58,10,39,76,,75,75,16,28,4,5,0.3,0.4
2025-04-29T1100,4011A,103.8506,30.6947,成都市,光华大道三段,,29,,38,20,21,83,,73,72,18,18,1,2,0.6,0.6
2025-04-29T1100,4224A,104.2433,30.5353,成都市,鲸龙路1057号,,23,19,53,13,30,71,,73,73,27,34,5,5,0.7,0.7
2025-04-29T1100,1062A,117.9531,40.9081,承德市,铁路,,47,47,38,10,15,108,,64,64,22,17,11,6,0.4,0.4
2025-04-29T1100,1063A,117.9392,40.9763,承德市,中国银行,,48,,43,33,19,116,,63,63,13,12,11,5,0.5,0.4
2025-04-29T1100,1064A,117.9503,40.928,承德市,开发区,,47,47,32,21,19,115,,68,68,19,15,12,7,0.5,0.4
2025-04-29T1100,1065A,117.8051,40.9655,承德市,文化中心,颗粒物(PM10),52,53,46,18,18,105,,65,65,25,18,52,22,1.5,0.5
2025-04-29T1100,1066A,117.9268,41.0026,承德市,离宫,,38,34,36,21,22,119,,69,69,15,11,9,3,0.5,0.4
2025-04-29T1100,2314A,117.47,30.6618,池州市,池州学院,颗粒物(PM10),61,71,70,42,41,150,,95,95,13,17,7,6,0.6,0.7
2025-04-29T1100,3237A,117.4918,30.6617,池州市,展览馆,细颗粒物(PM2.5),68,75,68,49,40,166,,88,88,13,18,7,6,0.6,0.7
2025-04-29T1100,3333A,117.5627,30.695,池州市,第八中学,,,81,74,39,39,179,,95,95,,21,,8,0.6,0.6
2025-04-29T1100,3334A,117.5038,30.6243,池州市,第十二中学,颗粒物(PM10),71,92,73,44,41,169,,84,84,11,25,5,4,0.7,0.9
2025-04-29T1100,1744A,118.9233,42.2816,赤峰市,松山一中,,,67,34,7,9,108,,92,92,16,21,,11,0.3,0.4
2025-04-29T1100,1745A,118.9576,42.2728,赤峰市,哈达街,颗粒物(PM10),51,51,33,17,10,108,,95,95,16,19,11,11,0.5,0.6
2025-04-29T1100,1746A,118.8788,42.2554,赤峰市,天义路,,46,46,28,13,13,108,,99,99,13,15,7,9,0.3,0.4
2025-04-29T1100,3058A,119.2658,42.0353,赤峰市,银河街,颗粒物(PM10),65,80,55,26,22,110,,69,69,9,16,13,18,0.3,0.7
2025-04-29T1100,3286A,118.9359,42.3147,赤峰市,桥北物流园区,颗粒物(PM10),51,51,32,26,16,98,,86,86,15,21,8,13,0.5,0.7
2025-04-29T1100,2521A,107.3476,22.4136,崇左市,市环保局江州分局,,32,31,33,19,16,100,,45,45,7,14,9,6,0.6,0.6
2025-04-29T1100,4256A,107.3750,22.3736,崇左市,石景林东路7号,,42,42,30,17,11,106,,47,47,7,14,6,4,0.6,0.5
2025-04-29T1100,2298A,118.3093,32.3153,滁州市,老年大学,臭氧1小时,87,66,52,41,26,189,,81,81,15,22,6,3,0.4,0.4
2025-04-29T1100,2299A,118.3244,32.2786,滁州市,人大宾馆,臭氧1小时,83,82,54,40,27,186,,91,91,26,25,12,10,0.5,0.4
2025-04-29T1100,3207A,118.3118,32.3038,滁州市,市政府原办公楼,臭氧1小时,84,62,48,41,30,187,,86,86,13,20,8,7,0.5,0.4
2025-04-29T1100,3331A,118.3267,32.2634,滁州市,图书馆,臭氧1小时,73,92,62,45,34,178,,93,93,18,20,12,10,0.7,0.6
2025-04-29T1100,2605A,101.5482,25.0441,楚雄彝族自治州,州环境监测站,,35,,57,23,42,112,,112,107,8,13,5,7,0.6,0.6
2025-04-29T1100,2606A,101.538,25.0492,楚雄彝族自治州,市经济开发区,,,,66,,43,105,,107,102,,14,7,9,0.7,0.8
2025-04-29T1100,2548A,107.5277,31.2827,达州市,达州职业技术学院,颗粒物(PM10),70,89,66,37,31,28,,14,14,37,31,8,6,0.7,0.6
2025-04-29T1100,2549A,107.5086,31.2186,达州市,市环境监测站,颗粒物(PM10),71,92,64,31,28,24,,17,17,47,41,7,6,0.5,0.4
2025-04-29T1100,2550A,107.4988,31.2132,达州市,凤凰小区,颗粒物(PM10),62,73,58,39,30,31,,27,27,44,41,9,8,0.6,0.5
2025-04-29T1100,2551A,107.5082,31.1986,达州市,达县机关宾馆,颗粒物(PM10),60,70,64,30,29,22,,22,22,53,47,8,6,0.6,0.5
2025-04-29T1100,2552A,107.4644,31.2124,达州市,市政中心,颗粒物(PM10),61,72,65,24,28,31,,17,17,35,43,4,3,0.4,0.5
2025-04-29T1100,2614A,100.1542,25.7054,大理白族自治州,大理市环境监测站,,41,,49,25,30,130,,124,123,8,8,6,8,0.3,0.3
2025-04-29T1100,2615A,100.2171,25.5811,大理白族自治州,大理古城,,40,23,50,11,30,125,,113,108,8,10,8,9,0.7,0.6
2025-04-29T1100,1109A,121.612,38.9741,大连市,甘井子,细颗粒物(PM2.5),55,58,40,39,28,137,,90,90,25,32,10,7,0.4,0.4
2025-04-29T1100,1110A,121.565,38.9511,大连市,周水子,颗粒物(PM10),55,60,45,28,27,118,,80,80,26,32,10,7,0.4,0.4
2025-04-29T1100,1111A,121.5637,38.8845,大连市,星海三站,,49,45,36,34,24,121,,74,74,20,24,7,4,0.4,0.3
2025-04-29T1100,1112A,121.6302,38.9117,大连市,青泥洼桥,颗粒物(PM10),54,57,46,35,25,143,,104,104,14,24,9,7,0.4,0.4
2025-04-29T1100,1113A,121.6251,38.8638,大连市,傅家庄,,48,45,35,33,22,132,,78,78,22,27,12,10,0.3,0.3
2025-04-29T1100,1114A,121.5213,38.8661,大连市,七贤岭,颗粒物(PM10),54,57,37,34,22,122,,84,84,21,15,8,6,0.7,0.6
2025-04-29T1100,1115A,121.2529,38.8061,大连市,旅顺,细颗粒物(PM2.5),60,56,35,43,26,98,,57,57,29,34,7,6,0.4,0.3
2025-04-29T1100,1116A,121.7485,39.1311,大连市,金州,颗粒物(PM10),61,72,42,42,24,145,,111,111,24,21,9,6,0.3,0.3
2025-04-29T1100,1117A,121.7811,39.0496,大连市,开发区,,49,49,37,32,24,122,,77,77,22,26,6,4,0.7,0.6
2025-04-29T1100,1118A,121.9762,39.0631,大连市,双D港,颗粒物(PM10),51,51,43,32,23,124,,79,79,21,21,11,9,0.4,0.3
2025-04-29T1100,1789A,124.81117,46.03138,大庆市,大同区,颗粒物(PM10),142,234,62,52,28,98,,77,77,13,8,8,5,0.7,0.5
2025-04-29T1100,1790A,125.129,46.533,大庆市,龙凤区,颗粒物(PM10),106,161,38,39,16,110,,79,79,11,10,6,6,0.6,0.5
2025-04-29T1100,1791A,124.902,46.408,大庆市,红岗区,颗粒物(PM10),99,148,37,46,18,89,,76,76,11,7,6,5,0.5,0.4
2025-04-29T1100,1792A,125.153,46.586,大庆市,萨尔图区,颗粒物(PM10),104,157,50,40,19,103,,80,80,13,11,7,6,0.6,0.5
2025-04-29T1100,1793A,124.9042,46.6215,大庆市,让胡路区,颗粒物(PM10),81,112,33,42,19,118,,79,79,12,8,8,6,0.5,0.3
2025-04-29T1100,3481A,125.141,46.634,大庆市,萨区政府监测点,颗粒物(PM10),93,136,41,36,11,116,,91,91,11,7,8,6,0.5,0.4
2025-04-29T1100,1721A,113.3819,40.1097,大同市,果树场,颗粒物(PM10),67,83,39,7,12,96,,48,48,12,23,7,6,0.2,0.4
2025-04-29T1100,1723A,113.2994,40.0758,大同市,云冈宾馆,,50,50,40,9,11,112,,69,69,10,17,8,11,0.4,0.4
2025-04-29T1100,1724A,113.3444,40.0917,大同市,大同大学,颗粒物(PM10),64,77,46,9,13,102,,54,54,14,23,7,9,0.3,0.4
2025-04-29T1100,1725A,113.2661,40.1269,大同市,安家小村,,,,33,3,8,105,,72,68,8,8,7,12,,0.4
2025-04-29T1100,1726A,113.2711,40.0844,大同市,教育学院,颗粒物(PM10),62,74,38,18,13,110,,75,75,10,15,9,12,0.2,0.3
2025-04-29T1100,3282A,113.3397,40.0597,大同市,大同市卫生学校,颗粒物(PM10),53,55,48,12,20,99,,39,39,14,26,8,11,0.3,0.4
2025-04-29T1100,3565A,113.1367,40.1122,大同市,云冈站,颗粒物(PM10),54,58,49,26,17,109,,68,68,6,18,9,15,0.3,0.4
2025-04-29T1100,3566A,113.1186,40.2556,大同市,图书馆,,36,36,27,9,8,104,,77,77,4,7,8,9,0.4,0.5
2025-04-29T1100,3567A,113.5931,40.0461,大同市,区一中,,,,,,,,,,,,,,,,
2025-04-29T1100,4199A,113.2798,40.0997,大同市,魏都大道141号,颗粒物(PM10),64,78,43,13,11,115,,77,77,8,16,12,15,0.4,0.4
2025-04-29T1100,2269A,124.1069,50.4097,大兴安岭地区,科技局,,48,48,49,31,32,71,,69,69,90,14,4,4,0.4,0.4
2025-04-29T1100,3663A,124.1164,50.4278,大兴安岭地区,红旗社区,颗粒物(PM10),58,66,40,21,27,97,,78,78,6,8,5,6,0.4,0.4
2025-04-29T1100,1600A,124.3303,40.0625,丹东市,江湾东路,颗粒物(PM10),55,60,65,34,48,131,,74,74,9,18,9,11,0.6,0.8
2025-04-29T1100,1601A,124.4256,40.1503,丹东市,临江后街,颗粒物(PM10),57,63,65,37,45,116,,69,69,9,15,8,8,0.7,0.7
2025-04-29T1100,1602A,124.3933,40.1461,丹东市,元宝山,,,60,59,37,39,115,,68,68,9,12,,9,,0.6
2025-04-29T1100,1603A,124.3633,40.1092,丹东市,民主桥,颗粒物(PM10),58,65,62,34,41,127,,68,68,8,25,9,9,0.8,0.9
2025-04-29T1100,3541A,109.5726,19.5167,儋州市,第一中学子站,,15,15,18,7,8,46,,55,54,2,6,4,5,0.5,0.6
2025-04-29T1100,3542A,109.5567,19.5187,儋州市,东坡学校子站,,26,26,20,9,9,47,,54,53,2,5,4,5,0.6,0.6
2025-04-29T1100,2616A,98.5842,24.428,德宏傣族景颇族自治州,德宏州监测站,细颗粒物(PM2.5),53,52,75,37,51,69,,66,53,11,14,8,10,0.9,0.8
2025-04-29T1100,3677A,98.5881,24.4368,德宏傣族景颇族自治州,芒市人民政府综合楼,细颗粒物(PM2.5),53,53,95,37,52,81,,77,63,12,13,8,10,0.6,0.5
2025-04-29T1100,1901A,104.4239,31.1208,德阳市,东山公园,,28,12,44,12,24,88,,91,86,5,14,3,4,0.6,0.6
2025-04-29T1100,1902A,104.3826,31.1317,德阳市,西小区,,29,20,50,10,27,91,,88,86,13,18,3,4,0.5,0.5
2025-04-29T1100,1904A,104.3553,31.1091,德阳市,耐火材料厂,,,26,51,10,26,147,,85,85,14,19,4,5,,0.5
2025-04-29T1100,3639A,104.4019,31.1244,德阳市,市教育局,,28,21,46,9,26,89,,98,90,11,17,4,5,0.4,0.5
2025-04-29T1100,1622A,116.3032,37.4674,德州市,儿童乐园,颗粒物(PM10),67,83,65,24,19,109,,95,90,14,14,12,10,0.7,0.5
2025-04-29T1100,1624A,116.2991,37.4451,德州市,监理站,颗粒物(PM10),60,70,57,29,20,99,,86,82,15,15,19,14,0.6,0.4
2025-04-29T1100,3066A,116.2721,37.4379,德州市,九衢泉纯净水厂,,,68,57,34,27,87,,74,74,,24,12,7,0.8,0.7
2025-04-29T1100,3371A,116.3728,37.4403,德州市,开发区人民医院,颗粒物(PM10),68,85,67,24,19,92,,82,78,16,16,11,8,0.7,0.6
2025-04-29T1100,3372A,116.3572,37.4094,德州市,太阳城中学,颗粒物(PM10),67,83,62,41,26,107,,89,88,17,19,10,6,0.4,0.4
2025-04-29T1100,3511A,116.5652,37.3319,德州市,陵城艺术中心,颗粒物(PM10),67,83,66,22,22,111,,82,82,17,21,12,6,0.4,0.3
2025-04-29T1100,2621A,99.7056,27.8317,迪庆藏族自治州,迪庆州站,,37,28,44,17,25,117,,114,111,13,12,5,5,0.4,0.4
2025-04-29T1100,3180A,99.7136,27.8094,迪庆藏族自治州,质量技术监督局,,38,32,35,12,22,119,,122,121,15,11,4,4,0.7,0.6
2025-04-29T1100,4257A,104.6092,35.5962,定西市,将台街,颗粒物(PM10),62,74,61,28,28,105,,35,35,9,24,6,5,0,0.1
2025-04-29T1100,4309A,104.6159,35.5701,定西市,正龙路62号,颗粒物(PM10),63,75,55,28,27,106,,53,53,7,12,10,8,0.2,0.3
2025-04-29T1100,1389A,113.7547,23.0494,东莞市,莞城梨川,,45,38,22,24,16,143,,75,75,11,17,7,6,0.6,0.7
2025-04-29T1100,1390A,113.7944,23.0128,东莞市,东城石井,,,45,22,22,11,140,,53,53,,25,,5,0.8,0.8
2025-04-29T1100,1391A,113.7383,22.9658,东莞市,南城西平,,45,42,23,24,14,143,,52,52,16,37,5,5,0.5,0.6
2025-04-29T1100,3319A,113.7338,23.0381,东莞市,万江金泰,,42,37,23,18,13,134,,68,68,11,17,6,5,0.5,0.7
2025-04-29T1100,3626A,113.7533,23.0202,东莞市,南城元岭,,43,41,22,24,11,137,,77,77,13,15,8,8,0.6,0.7
2025-04-29T1100,3627A,113.7875,23.0457,东莞市,东城主山,,44,44,28,21,13,137,,75,75,15,25,6,5,0.5,0.6
2025-04-29T1100,1666A,118.6614,37.4309,东营市,市环保局,颗粒物(PM10),71,92,54,19,18,148,,76,76,20,29,9,13,0.5,0.6
2025-04-29T1100,3036A,118.6904,37.4338,东营市,开发区管委会,颗粒物(PM10),87,124,66,31,21,145,,80,80,21,23,9,12,0.6,0.7
2025-04-29T1100,3365A,118.5719,37.565,东营市,垦利区民丰路,颗粒物(PM10),69,88,53,19,18,150,,89,89,23,28,7,7,0.7,0.7
2025-04-29T1100,3498A,118.5055,37.8612,东营市,河口城区,颗粒物(PM10),70,90,59,22,17,137,,90,90,26,23,11,8,0.7,0.7
2025-04-29T1100,3646A,118.4978,37.4623,东营市,胜利站,颗粒物(PM10),72,93,64,39,33,138,,76,76,24,29,13,13,0.8,0.8
2025-04-29T1100,3734A,118.35,37.26,东营市,理想之城,颗粒物(PM10),78,105,62,19,22,141,,67,67,18,32,10,9,0.6,0.6
2025-04-29T1100,1591A,110.0023,39.8129,鄂尔多斯市,综合楼,颗粒物(PM10),91,132,33,14,6,114,,107,106,7,10,1,2,0.2,0.2
2025-04-29T1100,1592A,109.9486,39.8261,鄂尔多斯市,巴音孟克林场办事处,颗粒物(PM10),90,129,34,27,11,108,,100,100,7,10,7,8,0.3,0.3
2025-04-29T1100,1593A,109.7736,39.5986,鄂尔多斯市,康泽苑,颗粒物(PM10),97,144,34,22,9,112,,88,88,5,8,7,8,0.2,0.3
2025-04-29T1100,1594A,109.8119,39.5989,鄂尔多斯市,华泰汽车城,颗粒物(PM10),95,139,37,27,10,104,,66,66,6,14,6,6,0.2,0.2
2025-04-29T1100,1595A,109.9734,39.7884,鄂尔多斯市,奥林花园,颗粒物(PM10),100,149,41,24,9,107,,82,82,9,17,2,5,0.2,0.2
2025-04-29T1100,2436A,114.8938,30.3994,鄂州市,市政府,细颗粒物(PM2.5),70,74,73,51,30,98,,38,38,34,37,18,10,1.1,0.7
2025-04-29T1100,2437A,114.8989,30.3714,鄂州市,赵家坝,颗粒物(PM10),60,70,59,26,20,138,,48,48,22,34,9,6,1.2,0.7
2025-04-29T1100,3654A,114.8094,30.4089,鄂州市,精准医疗中心,,,51,49,30,21,137,,47,47,,27,5,5,0.8,0.7
2025-04-29T1100,2454A,109.4978,30.2981,恩施土家族苗族自治州,湖北民院,,44,44,47,30,26,13,,25,18,23,13,4,5,0.4,0.3
2025-04-29T1100,2455A,109.4707,30.2798,恩施土家族苗族自治州,州电力总公司,细颗粒物(PM2.5),52,49,46,36,29,14,,8,6,26,21,4,4,0.3,0.2
2025-04-29T1100,3549A,109.5061,30.3772,恩施土家族苗族自治州,龙凤新区,,,,41,,25,25,,22,21,19,9,,6,0.6,0.5
2025-04-29T1100,2499A,108.3411,21.6158,防城港市,沙万,,50,50,32,24,19,48,,55,48,22,13,7,4,1.1,0.7
2025-04-29T1100,2500A,108.3514,21.7731,防城港市,防城档案局,颗粒物(PM10),56,61,61,24,22,68,,46,46,16,18,4,2,0.9,0.7
2025-04-29T1100,2501A,108.3506,21.6414,防城港市,大海花园,颗粒物(PM10),51,52,33,23,17,58,,61,55,20,10,9,4,1.1,0.6
2025-04-29T1100,1371A,113.1294,23.0067,佛山市,湾梁,,39,39,30,20,14,100,,59,59,24,25,11,8,0.7,0.7
2025-04-29T1100,1372A,113.1083,23.0478,佛山市,华材职中,,34,34,37,18,15,108,,41,41,22,40,8,8,0.7,0.7
2025-04-29T1100,1373A,113.144,23.0453,佛山市,南海气象局,,50,50,34,19,16,99,,51,51,25,30,10,7,0.7,0.7
2025-04-29T1100,1374A,113.2881,22.8094,佛山市,顺德苏岗,,35,29,33,14,15,109,,44,44,19,33,8,7,0.6,0.6
2025-04-29T1100,1376A,112.8383,22.8678,佛山市,高明孔堂,颗粒物(PM10),52,53,40,23,17,114,,48,48,30,29,8,7,0.8,0.8
2025-04-29T1100,1377A,112.8836,23.1588,佛山市,三水监测站,,41,41,39,21,16,104,,44,44,26,36,6,6,0.6,0.7
2025-04-29T1100,1378A,112.867,23.185,佛山市,三水云东海,颗粒物(PM10),51,52,35,22,15,117,,41,41,28,30,5,4,0.4,0.5
2025-04-29T1100,3625A,113.2544,22.7642,佛山市,容桂街道办,,34,19,31,19,21,107,,54,54,21,33,6,6,0.7,0.8
2025-04-29T1100,1280A,119.3903,26.0543,福州市,鼓山,,,,30,,13,,,71,,,6,,2,,0.3
2025-04-29T1100,1282A,119.2681,26.0504,福州市,师大,,47,47,38,19,15,149,,77,77,13,20,4,4,0.5,0.5
2025-04-29T1100,1283A,119.2984,26.1028,福州市,五四北路,,50,35,33,16,17,159,,91,91,11,22,5,4,0.6,0.6
2025-04-29T1100,1284A,119.2648,26.0768,福州市,杨桥西路,颗粒物(PM10),53,55,39,26,16,150,,72,72,13,23,4,4,0.5,0.5
2025-04-29T1100,1285A,119.317,26.0746,福州市,紫阳,颗粒物(PM10),53,56,43,22,18,143,,82,82,22,27,7,6,0.4,0.5
2025-04-29T1100,3048A,119.5799,26.0936,福州市,九龙,,47,27,29,7,14,148,,88,88,11,14,5,4,0.3,0.4
2025-04-29T1100,3526A,119.5189,25.9664,福州市,吴航,臭氧1小时,54,24,24,13,16,163,,114,114,9,14,5,5,0.3,0.5
2025-04-29T1100,1755A,123.7977,41.8491,抚顺市,望花区,颗粒物(PM10),92,133,92,37,57,140,,75,75,13,29,10,12,0.6,0.8
2025-04-29T1100,1756A,123.9161,41.8822,抚顺市,顺城区,颗粒物(PM10),80,110,93,22,51,134,,69,69,18,39,10,7,0.6,0.5
2025-04-29T1100,1757A,124.0436,41.8611,抚顺市,东洲区,颗粒物(PM10),74,97,68,28,48,141,,93,93,17,18,9,7,0.7,0.5
2025-04-29T1100,1758A,123.9247,41.8642,抚顺市,新抚区,颗粒物(PM10),76,102,85,26,53,130,,67,67,14,30,10,7,0.8,0.6
2025-04-29T1100,1759A,124.0972,41.8961,抚顺市,大伙房水库,颗粒物(PM10),67,83,58,26,46,138,,89,89,9,13,11,8,0.7,0.6
2025-04-29T1100,1760A,123.7086,41.8391,抚顺市,沈抚新城,颗粒物(PM10),87,124,78,24,51,131,,75,75,14,28,10,9,0.4,0.5
2025-04-29T1100,2376A,116.2127,28.0814,抚州市,桐源党溪,颗粒物(PM10),55,60,49,29,28,124,,41,41,3,3,6,5,0.5,0.7
2025-04-29T1100,2377A,116.3544,27.9831,抚州市,市站,颗粒物(PM10),52,54,58,27,34,99,,53,53,8,19,6,5,1.0,1.1
2025-04-29T1100,2378A,116.3565,27.963,抚州市,血防站,颗粒物(PM10),53,55,59,31,33,100,,51,51,7,15,3,3,0.9,0.9
2025-04-29T1100,2379A,116.3564,28.0007,抚州市,采茶剧团,颗粒物(PM10),55,59,56,35,35,99,,51,51,3,11,2,2,1.2,1.2
2025-04-29T1100,2380A,116.385,27.9647,抚州市,医学分院,颗粒物(PM10),53,55,55,27,31,88,,43,43,6,11,5,4,1.3,1.4
2025-04-29T1100,2207A,121.6094,41.998,阜新市,工业园区,颗粒物(PM10),118,185,77,36,27,219,,107,107,16,14,14,14,0.5,0.4
2025-04-29T1100,2208A,121.6697,42.0279,阜新市,长青街,颗粒物(PM10),94,138,46,21,18,112,,93,93,18,15,11,10,0.5,0.4
2025-04-29T1100,2209A,121.6673,42.0705,阜新市,农业园区,颗粒物(PM10),99,148,51,19,15,119,,97,97,13,9,12,11,0.8,0.8
2025-04-29T1100,2210A,121.6717,42.0224,阜新市,东苑,颗粒物(PM10),119,187,62,26,19,,,87,86,19,14,15,14,0.5,0.5
2025-04-29T1100,2211A,121.6506,42.0498,阜新市,玉龙新城,颗粒物(PM10),96,141,52,27,22,115,,91,91,15,13,14,12,0.5,0.5
2025-04-29T1100,2301A,115.8277,32.8929,阜阳市,市监测站,颗粒物(PM10),55,59,49,33,31,139,,98,98,14,29,8,8,0.3,0.4
2025-04-29T1100,2303A,115.8554,32.8605,阜阳市,开发区,颗粒物(PM10),53,56,66,30,30,145,,92,92,12,31,7,8,0.2,0.3
2025-04-29T1100,2875A,115.784,32.8892,阜阳市,阜阳职业技术学院,颗粒物(PM10),51,52,53,27,28,131,,90,90,11,28,7,7,0.2,0.3
2025-04-29T1100,3468A,115.7901,32.8613,阜阳市,市规划展馆,,,,61,22,23,146,,108,108,9,23,8,8,0.3,0.3
2025-04-29T1100,3469A,115.836,32.9183,阜阳市,枣园社区,颗粒物(PM10),56,62,54,18,20,145,,84,84,8,38,9,10,0.4,0.4
2025-04-29T1100,2669A,102.9099,34.9841,甘南藏族自治州,州政府,,39,39,56,25,23,74,,28,28,10,18,6,3,0.3,0.3
2025-04-29T1100,3380A,102.8914,34.9617,甘南藏族自治州,甘肃民族师范学院,,48,48,57,27,19,76,,23,23,17,22,13,9,0.4,0.5
2025-04-29T1100,2570A,101.9603,30.0475,甘孜藏族自治州,水桥子,,19,8,6,8,7,58,,45,41,30,22,5,4,0.5,0.4
2025-04-29T1100,3065A,101.9533,29.9972,甘孜藏族自治州,州环保局,,17,9,11,7,6,54,,50,47,29,21,1,1,0.4,0.4
2025-04-29T1100,3414A,115.8347,28.932,赣江新区,桑海产业园,细颗粒物(PM2.5),64,68,55,46,34,130,,62,62,2,14,8,5,0.5,0.4
2025-04-29T1100,2362A,114.9017,25.9149,赣州市,通天岩,颗粒物(PM10),51,51,41,11,7,129,,51,51,12,5,2,2,0.9,0.8
2025-04-29T1100,2363A,114.9367,25.8664,赣州市,地委,,48,48,41,32,21,107,,34,34,15,13,2,6,1.3,1.1
2025-04-29T1100,2364A,114.9461,25.8481,赣州市,气象台,颗粒物(PM10),51,51,47,29,23,108,,27,27,22,24,13,9,0.4,0.4
2025-04-29T1100,2365A,114.9322,25.8333,赣州市,市图书馆,颗粒物(PM10),53,55,43,32,25,111,,38,38,18,17,7,4,1.0,1
2025-04-29T1100,2366A,114.8905,25.8471,赣州市,华坚鞋城,颗粒物(PM10),55,60,47,32,26,133,,58,58,18,14,10,8,0.6,0.6
2025-04-29T1100,3109A,115.0093,25.8613,赣州市,赣县区卫计委,颗粒物(PM10),57,63,41,30,25,108,,26,26,17,16,4,3,0.7,0.6
2025-04-29T1100,2683A,106.2319,36.1417,固原市,马园,颗粒物(PM10),95,140,73,27,24,101,,39,39,7,39,5,6,0.5,0.6
2025-04-29T1100,2684A,106.2792,36.0022,固原市,监测站,颗粒物(PM10),89,128,74,22,28,97,,72,72,6,17,6,7,0.2,0.3
2025-04-29T1100,2685A,106.2375,36.0211,固原市,新区,颗粒物(PM10),85,119,68,22,25,95,,69,69,7,27,6,6,0.3,0.3
2025-04-29T1100,3522A,106.2177,35.9959,固原市,原州区十五小,颗粒物(PM10),72,93,65,24,22,102,,90,90,5,14,7,7,0.2,0.3
2025-04-29T1100,2543A,106.6308,30.5278,广安市,小平旧居,,,,,,,,,,,,,,,,
2025-04-29T1100,2544A,106.6303,30.4576,广安市,市委,,,31,54,29,33,93,,54,54,6,23,,4,0.3,0.5
2025-04-29T1100,2545A,106.6271,30.4663,广安市,友谊中学,,32,31,50,16,28,100,,62,62,6,20,2,3,0.9,1
2025-04-29T1100,2547A,106.6388,30.4551,广安市,广电花园,,43,,45,30,31,94,,59,59,7,21,4,4,0.2,0.4
2025-04-29T1100,2902A,106.6351,30.4865,广安市,北辰小学,颗粒物(PM10),62,73,58,18,29,91,,55,55,8,20,3,4,0.3,0.5
2025-04-29T1100,2523A,105.8945,32.4535,广元市,黑石坡,颗粒物(PM10),62,74,58,24,15,26,,51,33,41,16,10,5,0.7,0.4
2025-04-29T1100,2524A,105.821,32.4444,广元市,老城,颗粒物(PM10),55,59,46,25,16,20,,12,12,49,40,1,2,0.9,0.6
2025-04-29T1100,2526A,105.8628,32.4287,广元市,监测站,,,61,41,33,19,25,,44,32,47,20,30,9,,0.5
2025-04-29T1100,3617A,105.8047,32.4166,广元市,经开区,颗粒物(PM10),78,105,61,55,28,20,,10,10,53,42,31,7,1.2,0.7
2025-04-29T1100,1345A,113.2347,23.1423,广州市,广雅中学,,41,41,33,21,16,113,,58,58,9,28,3,4,1.1,1
2025-04-29T1100,1346A,113.2612,23.105,广州市,市五中,,38,38,25,22,14,107,,80,80,18,16,3,2,0.9,0.9
2025-04-29T1100,1348A,113.3478,23.0916,广州市,广东商学院,,47,47,28,21,15,110,,60,60,24,33,5,4,0.6,0.6
2025-04-29T1100,1349A,113.4332,23.1047,广州市,市八十六中,,,46,31,21,14,118,,37,37,,36,7,5,,0.9
2025-04-29T1100,1350A,113.3505,22.9483,广州市,番禺中学,颗粒物(PM10),51,52,31,25,14,128,,58,58,21,31,8,6,0.8,0.8
2025-04-29T1100,1351A,113.2146,23.3916,广州市,花都师范,,46,46,26,21,14,118,,86,86,24,19,7,6,0.6,0.7
2025-04-29T1100,1352A,113.2597,23.1331,广州市,市监测站,,39,39,24,19,11,96,,66,66,18,26,6,6,0.6,0.5
2025-04-29T1100,1353A,113.5618,23.312,广州市,九龙镇镇龙,,44,44,27,23,14,113,,46,46,9,19,6,5,0.4,0.5
2025-04-29T1100,1354A,113.2765,23.1544,广州市,麓湖,,43,43,25,21,14,112,,43,43,18,35,6,5,0.6,0.7
2025-04-29T1100,1355A,113.443,23.3035,广州市,帽峰山森林公园,,38,32,21,3,4,119,,84,84,5,7,6,5,0.6,0.6
2025-04-29T1100,2846A,113.3221,23.1322,广州市,体育西,,48,48,37,23,19,113,,63,63,26,31,5,4,0.5,0.6
2025-04-29T1100,3298A,113.5717,23.5491,广州市,从化街口,,37,37,21,21,11,115,,39,39,10,22,6,6,0.6,0.7
2025-04-29T1100,3299A,113.3472,23.3692,广州市,白云竹料,,42,42,23,21,13,116,,57,57,14,20,4,3,0.5,0.6
2025-04-29T1100,3300A,113.2981,23.237,广州市,白云嘉禾,,43,43,34,16,12,115,,58,58,16,39,6,6,0.6,0.8
2025-04-29T1100,3301A,113.4256,23.1716,广州市,黄埔科学城,,35,35,22,20,12,108,,61,61,14,17,3,3,0.5,0.6
2025-04-29T1100,3302A,113.3942,23.0483,广州市,番禺大学城,,39,39,26,21,12,115,,40,40,32,39,16,7,0.8,0.7
2025-04-29T1100,3303A,113.4922,22.8168,广州市,南沙黄阁,,42,42,45,25,16,108,,49,49,25,39,7,9,0.9,0.9
2025-04-29T1100,3304A,113.5342,22.7896,广州市,南沙街,,42,33,38,26,16,132,,70,70,16,25,5,7,0.7,0.7
2025-04-29T1100,3443A,113.2902,23.5544,广州市,花都梯面,,37,37,27,19,11,118,,80,80,9,15,5,6,0.5,0.6
2025-04-29T1100,3445A,113.7858,23.7478,广州市,从化良口,,36,33,21,20,12,113,,46,46,4,8,7,7,0.3,0.3
2025-04-29T1100,3446A,113.8051,23.2614,广州市,增城荔城,,,40,21,18,11,114,,73,73,,11,,7,0.4,0.4
2025-04-29T1100,2505A,109.568,23.1478,贵港市,德智高中,,,,,,,,,,,,,,,,
2025-04-29T1100,2506A,109.6047,23.0666,贵港市,江南子站,颗粒物(PM10),51,51,51,28,28,76,,22,22,20,27,8,8,0.9,1
2025-04-29T1100,2508A,109.5669,23.1065,贵港市,荷城子站,,48,48,40,24,17,80,,35,35,22,22,18,11,0.6,0.6
2025-04-29T1100,3405A,109.5886,23.1172,贵港市,新世纪学校,,,51,37,25,21,79,,35,35,32,27,,5,,1
2025-04-29T1100,4260A,109.5933,23.0951,贵港市,中山路155-3号,,46,46,44,25,24,89,,35,35,16,25,9,8,0.5,0.7
2025-04-29T1100,1439A,106.6899,26.5998,贵阳市,马鞍山,,,46,27,9,10,,,10,9,27,12,5,4,0.6,0.4
2025-04-29T1100,1441A,106.6243,26.6266,贵阳市,鉴湖路,,46,46,40,24,17,75,,64,64,19,15,9,7,0.4,0.4
2025-04-29T1100,1442A,106.7487,26.6343,贵阳市,燕子冲,颗粒物(PM10),51,51,34,27,23,33,,23,12,36,20,3,4,0.6,0.3
2025-04-29T1100,1443A,106.6555,26.4365,贵阳市,碧云窝,颗粒物(PM10),51,51,47,19,20,82,,20,20,14,17,10,5,0.4,0.4
2025-04-29T1100,1445A,106.7109,26.6027,贵阳市,红边门,颗粒物(PM10),58,66,39,36,24,59,,23,22,32,22,7,4,0.5,0.3
2025-04-29T1100,1446A,106.7164,26.5699,贵阳市,新华路,颗粒物(PM10),53,56,42,34,24,63,,26,26,33,27,12,14,0.6,0.5
2025-04-29T1100,1447A,106.674,26.5424,贵阳市,太慈桥,颗粒物(PM10),56,61,36,24,18,58,,18,18,29,23,8,6,0.3,0.3
2025-04-29T1100,1552A,106.805,26.3003,贵阳市,桐木岭,颗粒物(PM10),51,51,48,29,25,107,,103,103,1,3,2,3,0.7,0.7
2025-04-29T1100,4230A,106.6882,26.5695,贵阳市,花果园大街66号,颗粒物(PM10),51,51,42,29,26,50,,19,19,35,33,8,5,0.7,0.7
2025-04-29T1100,4231A,106.6873,26.5169,贵阳市,漓江路57号,颗粒物(PM10),54,58,40,27,21,61,,20,20,22,25,14,9,0.5,0.4
2025-04-29T1100,1862A,110.4144,25.3167,桂林市,电子科大尧山校区,,,,,,,,,,,,,,,,
2025-04-29T1100,1864A,110.3089,25.2708,桂林市,龙隐路小学,,,68,49,44,27,109,,72,68,16,9,,20,0.6,0.5
2025-04-29T1100,1865A,110.2869,25.2178,桂林市,八中,颗粒物(PM10),57,64,48,33,20,113,,65,64,12,16,8,7,0.6,0.5
2025-04-29T1100,3531A,110.296,25.1253,桂林市,旅游学院,,44,44,41,24,24,94,,39,39,8,16,8,6,0.7,0.7
2025-04-29T1100,4222A,110.1835,25.2444,桂林市,环湖路276号,颗粒物(PM10),57,63,56,39,37,93,,40,40,16,17,14,22,0.5,0.5
2025-04-29T1100,4301A,110.2803,25.2773,桂林市,信义路13号,颗粒物(PM10),66,82,51,36,28,120,,72,70,12,14,12,7,0.5,0.5
2025-04-29T1100,2674A,100.2561,34.4714,果洛藏族自治州,玛沁县大武镇,,,65,51,20,19,100,,102,102,,1,14,14,0.3,0.3
2025-04-29T1100,1129A,126.5422,45.755,哈尔滨市,岭北,颗粒物(PM10),56,62,41,39,32,120,,84,84,16,19,10,11,0.8,0.9
2025-04-29T1100,1130A,126.561,45.8167,哈尔滨市,松北商大,颗粒物(PM10),61,71,46,34,31,116,,76,76,11,21,6,6,0.7,0.7
2025-04-29T1100,1131A,126.979,45.5419,哈尔滨市,阿城会宁,颗粒物(PM10),61,72,65,26,34,115,,84,84,12,22,12,12,0.4,0.5
2025-04-29T1100,1132A,126.599,45.7222,哈尔滨市,南岗学府路,颗粒物(PM10),81,111,76,44,40,114,,63,63,15,30,9,9,0.4,0.4
2025-04-29T1100,1133A,126.689,45.7733,哈尔滨市,太平宏伟公园,颗粒物(PM10),67,84,63,31,43,111,,73,73,14,23,5,6,0.5,0.6
2025-04-29T1100,1134A,126.635,45.7667,哈尔滨市,道外承德广场,,,61,48,46,45,,,53,53,21,26,6,7,,0.5
2025-04-29T1100,1135A,126.685,45.7319,哈尔滨市,香坊红旗大街,颗粒物(PM10),89,127,72,30,44,109,,69,69,16,24,10,9,0.5,0.6
2025-04-29T1100,1136A,126.6411,45.7258,哈尔滨市,动力和平路,,,95,61,40,46,100,,59,59,,24,10,9,,0.6
2025-04-29T1100,1137A,126.593,45.7478,哈尔滨市,道里建国路,颗粒物(PM10),74,98,57,43,41,114,,71,71,18,32,15,14,0.8,0.9
2025-04-29T1100,1138A,126.615,45.61,哈尔滨市,平房东轻厂,颗粒物(PM10),77,104,57,40,41,121,,78,78,13,18,11,11,0.5,0.6
2025-04-29T1100,1139A,126.595,45.9855,哈尔滨市,呼兰师专,颗粒物(PM10),73,96,66,36,52,99,,62,62,21,32,6,8,0.3,0.4
2025-04-29T1100,1140A,126.6206,45.6842,哈尔滨市,省农科院,,,,77,,49,106,,48,48,,37,10,8,0.6,0.7
2025-04-29T1100,2688A,93.5128,42.8172,哈密市,地区监测站,颗粒物(PM10),75,100,71,34,26,79,,56,56,19,23,9,7,0.4,0.3
2025-04-29T1100,2689A,93.4961,42.8328,哈密市,哈密师范学校,颗粒物(PM10),62,73,59,24,17,70,,31,31,27,28,9,5,0.6,0.4
2025-04-29T1100,2671A,100.9048,36.9639,海北藏族自治州,海晏县西海镇,,37,19,31,13,17,117,,92,92,1,5,9,9,0.3,0.4
2025-04-29T1100,3867A,102.0738,36.5056,海东市,平安区公安北苑,,45,45,47,13,16,103,,46,46,6,14,10,7,0.9,0.9
2025-04-29T1100,1409A,110.576,19.9507,海口市,东寨港,,,,8,,11,,,23,,,3,,4,,0.5
2025-04-29T1100,1410A,110.3232,20.0574,海口市,海南大学,,26,26,32,16,16,82,,43,43,8,18,1,2,0.5,0.4
2025-04-29T1100,1411A,110.283,20.0053,海口市,秀英海南医院,,32,,29,22,21,80,,41,41,10,27,5,4,0.4,0.3
2025-04-29T1100,1412A,110.338,19.9969,海口市,海南师范大学,,30,,29,21,20,79,,44,44,8,14,4,3,0.5,0.4
2025-04-29T1100,1413A,110.33,20.0356,海口市,龙华路环保局宿舍,,32,,30,22,21,84,,45,45,10,15,6,4,0.5,0.4
2025-04-29T1100,3539A,110.5111,19.9736,海口市,桂林洋子站,,32,28,31,22,19,78,,40,40,11,16,3,3,0.4,0.3
2025-04-29T1100,2673A,100.6188,36.2866,海南藏族自治州,共和县恰卜恰镇,,41,41,41,22,18,127,,109,109,3,6,12,13,0.5,0.3
2025-04-29T1100,2676A,97.3731,37.3753,海西蒙古族藏族自治州,德令哈市,颗粒物(PM10),68,86,59,20,19,110,,97,97,11,4,17,13,0.6,0.4
2025-04-29T1100,1048A,114.5302,36.6116,邯郸市,东污水处理厂,,,78,79,9,15,79,,52,43,,28,6,3,,0.5
2025-04-29T1100,1049A,114.4918,36.5713,邯郸市,矿院,,36,36,45,9,14,85,,43,41,12,20,11,9,0.6,0.5
2025-04-29T1100,1050A,114.484,36.6133,邯郸市,丛台公园,,41,41,46,9,14,102,,62,62,10,19,4,4,0.5,0.6
2025-04-29T1100,3458A,114.7895,36.5593,邯郸市,香泉濮院小区,颗粒物(PM10),64,78,60,12,9,90,,63,60,19,15,9,6,0.8,0.5
2025-04-29T1100,3579A,114.50634,36.77178,邯郸市,永年区实验高中,,,86,66,25,21,82,,69,65,,16,,10,0.5,0.8
2025-04-29T1100,3580A,114.20016,36.44293,邯郸市,峰峰矿区临水派出所,细颗粒物(PM2.5),67,,38,48,14,123,,107,107,14,20,9,10,0.6,0.6
2025-04-29T1100,2634A,106.9893,33.1842,汉中市,汉川机床厂子校,,44,44,44,19,13,72,,56,55,13,9,8,8,0.7,0.7
2025-04-29T1100,2635A,107.0154,33.0706,汉中市,市监测站,颗粒物(PM10),61,72,56,23,22,46,,33,28,29,22,19,8,1.2,0.8
2025-04-29T1100,2636A,107.0089,33.1138,汉中市,鑫源开发区,颗粒物(PM10),52,53,57,25,24,62,,40,40,29,28,26,9,1.6,0.8
2025-04-29T1100,2637A,107.007,33.0323,汉中市,南郑大河坎水厂,颗粒物(PM10),56,61,50,27,24,56,,39,32,27,20,12,7,0.7,0.5
2025-04-29T1100,1223A,120.2072,30.2111,杭州市,滨江,,50,50,55,19,27,151,,74,74,20,28,8,8,0.6,0.6
2025-04-29T1100,1224A,120.0633,30.2747,杭州市,西溪,,49,49,53,29,31,141,,57,57,22,23,6,6,0.5,0.5
2025-04-29T1100,1226A,120.3417,30.3150,杭州市,下沙,,48,48,58,25,30,141,,67,67,24,36,10,9,0.5,0.5
2025-04-29T1100,1227A,120.1269,30.2456,杭州市,卧龙桥,,,47,49,25,29,156,,56,56,14,22,,7,0.6,0.7
2025-04-29T1100,1228A,120.1903,30.2692,杭州市,浙江农大,,,52,60,30,35,139,,53,53,,34,,4,0.4,0.4
2025-04-29T1100,1230A,120.1197,30.3119,杭州市,和睦小学,,48,43,55,24,26,153,,70,70,19,25,8,8,0.5,0.6
2025-04-29T1100,1231A,120.3019,30.4183,杭州市,临平镇,,49,49,52,19,24,132,,59,59,24,29,6,7,0.5,0.5
2025-04-29T1100,1232A,120.2753,30.1839,杭州市,城厢镇,颗粒物(PM10),51,51,52,27,29,143,,74,74,26,30,8,9,0.5,0.4
2025-04-29T1100,1233A,120.0883,30.1808,杭州市,云栖,颗粒物(PM10),61,71,53,41,29,125,,47,47,42,32,7,6,0.7,0.6
2025-04-29T1100,3557A,119.9464,30.0494,杭州市,镇二中,颗粒物(PM10),53,55,51,36,31,136,,64,64,33,32,5,5,0.7,0.6
2025-04-29T1100,3558A,119.7183,30.2367,杭州市,市府大楼,,,,66,,39,170,,78,78,19,23,10,9,0.6,0.5
2025-04-29T1100,3656A,120.1556,30.2864,杭州市,消防大队,,50,48,54,25,34,158,,74,74,22,31,6,6,0.7,0.7
2025-04-29T1100,1270A,117.1959,31.7848,合肥市,明珠广场,臭氧1小时,83,85,101,44,55,186,,84,84,14,42,6,7,0.5,0.6
2025-04-29T1100,1271A,117.3072,31.8764,合肥市,三里街,臭氧1小时,78,83,89,39,40,182,,83,83,16,38,6,7,0.6,0.6
2025-04-29T1100,1272A,117.2588,31.8707,合肥市,琥珀山庄,,,90,87,43,46,188,,77,77,,31,5,4,0.6,0.7
2025-04-29T1100,1273A,117.1604,31.9052,合肥市,董铺水库,颗粒物(PM10),74,97,103,41,46,167,,58,58,13,33,1,2,0.5,0.5
2025-04-29T1100,1274A,117.25,31.8571,合肥市,长江中路,臭氧1小时,78,85,95,47,51,182,,100,100,16,26,9,9,0.6,0.7
2025-04-29T1100,1275A,117.266,31.9436,合肥市,庐阳区,臭氧1小时,78,90,101,41,50,182,,63,63,19,49,8,9,0.4,0.6
2025-04-29T1100,1276A,117.3453,31.8616,合肥市,瑶海区,颗粒物(PM10),70,90,92,34,40,166,,67,67,22,46,7,8,0.5,0.6
2025-04-29T1100,1277A,117.3027,31.7964,合肥市,包河区,臭氧1小时,79,83,92,41,45,183,,70,70,12,57,7,8,0.6,0.6
2025-04-29T1100,1278A,117.2776,31.7385,合肥市,滨湖新区,颗粒物(PM10),70,90,98,48,57,169,,82,82,10,39,8,8,0.7,0.7
2025-04-29T1100,1279A,117.1318,31.8403,合肥市,高新区,臭氧1小时,68,83,100,42,54,174,,88,88,14,38,3,4,0.5,0.6
2025-04-29T1100,3464A,117.3803,31.9147,合肥市,高教基地,臭氧1小时,82,80,83,27,34,185,,81,81,12,27,7,6,0.5,0.5
2025-04-29T1100,3614A,79.924,37.0877,和田地区,地区环保局,颗粒物(PM10),120,190,129,51,33,64,,71,69,14,13,3,2,0.2,0.2
2025-04-29T1100,3615A,79.9131,37.113,和田地区,市环保局,颗粒物(PM10),102,154,135,63,35,62,,56,56,25,30,1,3,0.3,0.4
2025-04-29T1100,2516A,108.2011,24.715,河池市,东仁乐园,,,,,,,,,,,,,,,,
2025-04-29T1100,2517A,108.0497,24.6947,河池市,市环保站,颗粒物(PM10),57,64,34,26,14,115,,47,47,10,15,13,8,0.5,0.5
2025-04-29T1100,2518A,108.0983,24.6989,河池市,市疾控中心,,48,48,45,25,18,125,,34,34,12,29,12,8,0.6,0.6
2025-04-29T1100,1696A,114.6778,23.7569,河源市,源西,,40,40,28,18,15,108,,56,56,9,16,4,5,0.7,0.7
2025-04-29T1100,1697A,114.6944,23.7586,河源市,东埔,,,40,30,18,18,112,,57,57,,16,4,6,0.8,0.8
2025-04-29T1100,1698A,114.6892,23.7233,河源市,老城,,43,43,32,20,16,105,,39,39,11,19,4,4,0.5,0.6
2025-04-29T1100,1718A,115.4208,35.2464,菏泽市,气象局,颗粒物(PM10),74,98,71,22,23,124,,94,94,14,15,7,4,0.4,0.3
2025-04-29T1100,3374A,115.5564,35.0891,菏泽市,定陶老年大学,颗粒物(PM10),57,63,54,19,14,126,,90,90,13,15,8,9,0.4,0.3
2025-04-29T1100,4184A,115.4797,35.24401,菏泽市,永昌路1号,颗粒物(PM10),64,78,60,34,22,121,,95,95,17,16,9,6,0.3,0.3
2025-04-29T1100,4193A,115.4715,35.2800,菏泽市,长城路999号,颗粒物(PM10),58,66,57,19,14,119,,99,99,19,18,12,7,0.3,0.2
2025-04-29T1100,2514A,111.5264,24.4172,贺州市,环保小区,颗粒物(PM10),52,54,44,18,24,93,,40,40,16,18,8,6,0.7,0.7
2025-04-29T1100,2515A,111.5608,24.4078,贺州市,政协大楼,颗粒物(PM10),54,58,36,29,23,85,,41,41,19,20,7,6,0.7,0.7
2025-04-29T1100,3534A,111.4744,24.4553,贺州市,西湾,颗粒物(PM10),58,66,42,32,22,103,,48,48,10,17,8,8,0.7,0.6
2025-04-29T1100,2385A,114.17,35.9019,鹤壁市,市监测站,,45,36,69,10,19,143,,106,106,4,13,7,10,0.3,0.5
2025-04-29T1100,2386A,114.2956,35.7511,鹤壁市,市交警支队,颗粒物(PM10),67,84,72,18,21,102,,48,48,37,44,14,13,0.8,0.7
2025-04-29T1100,2387A,114.2878,35.7306,鹤壁市,迎宾馆,颗粒物(PM10),78,105,79,20,18,104,,52,51,25,24,12,6,0.7,0.6
2025-04-29T1100,3474A,114.2617,35.6822,鹤壁市,大新区,,,,58,31,27,95,,43,43,32,31,16,11,0.8,0.5
2025-04-29T1100,3596A,114.1572,35.9603,鹤壁市,南山宾馆,,45,34,89,7,26,143,,125,125,4,11,4,8,0.3,0.4
2025-04-29T1100,2244A,130.2537,47.3416,鹤岗市,哈啤分公司,,27,20,22,14,15,84,,45,45,5,11,14,15,0.3,0.3
2025-04-29T1100,2245A,130.2684,47.3086,鹤岗市,斯达机电,,,16,24,12,16,83,,50,50,,11,,11,0.2,0.2
2025-04-29T1100,2246A,130.3114,47.3388,鹤岗市,东山纸板厂,,38,38,33,22,26,85,,39,39,11,21,12,12,0.3,0.9
2025-04-29T1100,2247A,130.1097,47.3382,鹤岗市,五号水库,,,,,,,,,,,,,,,,
2025-04-29T1100,2263A,127.4833,50.2524,黑河市,交通局,,,,22,,14,92,,64,64,10,8,,7,0.5,0.3
2025-04-29T1100,2264A,127.5144,50.2341,黑河市,环保局,颗粒物(PM10),58,65,19,33,17,99,,71,71,8,5,3,3,0.3,0.2
2025-04-29T1100,2265A,127.5291,50.2472,黑河市,大黑河岛,颗粒物(PM10),55,59,19,27,9,108,,82,82,6,4,3,1,0.3,0.2
2025-04-29T1100,1074A,115.6838,37.7541,衡水市,电机北厂,,,72,58,21,25,109,,90,84,15,16,11,9,,0.4
2025-04-29T1100,1075A,115.6303,37.7316,衡水市,市监测站,颗粒物(PM10),64,78,59,13,17,109,,82,81,15,19,17,12,0.5,0.4
2025-04-29T1100,3188A,115.6683,37.7217,衡水市,市城管局,颗粒物(PM10),57,64,62,17,26,107,,81,76,17,18,15,11,0.6,0.4
2025-04-29T1100,3459A,115.5989,37.5491,衡水市,地表水厂,颗粒物(PM10),59,68,59,27,21,100,,63,60,19,23,14,8,0.5,0.4
2025-04-29T1100,2456A,112.5003,26.9167,衡阳市,原169医院,颗粒物(PM10),67,83,56,39,28,134,,55,55,17,20,27,9,0.8,0.7
2025-04-29T1100,2457A,112.6194,26.9258,衡阳市,衡阳化工总厂,颗粒物(PM10),82,113,68,51,42,116,,28,28,15,17,12,6,0.9,0.8
2025-04-29T1100,2458A,112.6211,26.8956,衡阳市,珠晖区环保局,,,87,65,,33,142,,34,34,13,21,13,9,0.8,0.8
2025-04-29T1100,2459A,112.6197,26.8733,衡阳市,市委党校,,,,64,,42,132,,34,34,17,17,,6,0.7,0.8
2025-04-29T1100,2460A,112.6006,26.8919,衡阳市,市监测站,细颗粒物(PM2.5),62,72,62,44,42,137,,39,39,16,21,14,10,0.9,0.9
2025-04-29T1100,2461A,112.5664,26.9056,衡阳市,真空机电公司,颗粒物(PM10),71,91,66,40,33,113,,50,50,14,16,6,5,1.0,0.9
2025-04-29T1100,3399A,112.6703,26.882,衡阳市,师范学院,颗粒物(PM10),73,95,66,51,42,119,,33,33,19,17,12,7,1.0,0.9
2025-04-29T1100,2608A,103.3772,23.3993,红河哈尼族彝族自治州,污水处理厂,,45,,35,31,29,90,,100,99,9,8,4,4,0.5,0.5
2025-04-29T1100,2609A,103.3861,23.35,红河哈尼族彝族自治州,监测站,,39,39,42,22,24,87,,101,99,9,8,6,6,0.3,0.3
2025-04-29T1100,3038A,103.3758,23.368,红河哈尼族彝族自治州,州图书馆,,,,37,,28,82,,96,93,8,8,1,2,,0.3
2025-04-29T1100,1090A,111.6507,40.7517,呼和浩特市,呼市一监,颗粒物(PM10),60,70,72,29,23,69,,37,37,20,19,16,9,0.5,0.5
2025-04-29T1100,1091A,111.6572,40.8033,呼和浩特市,小召,颗粒物(PM10),57,63,61,23,18,59,,39,39,29,32,13,9,0.5,0.4
2025-04-29T1100,1094A,111.7516,40.8369,呼和浩特市,如意水处理厂,颗粒物(PM10),54,57,49,21,17,62,,37,37,26,24,12,9,0.4,0.4
2025-04-29T1100,1095A,111.7276,40.8062,呼和浩特市,二十九中,,,57,52,33,21,58,,34,34,,20,,6,0.5,0.4
2025-04-29T1100,1096A,111.5512,40.7866,呼和浩特市,工大金川校区,颗粒物(PM10),60,70,45,32,17,53,,35,34,35,25,13,9,0.6,0.5
2025-04-29T1100,1097A,111.717,40.7612,呼和浩特市,化肥厂生活区,颗粒物(PM10),61,71,68,27,21,59,,34,34,28,28,18,12,0.5,0.4
2025-04-29T1100,3698A,111.5968,40.8178,呼和浩特市,红旗小学,,,61,55,26,17,66,,35,35,29,32,,6,,0.4
2025-04-29T1100,3699A,111.6518,40.8389,呼和浩特市,海东办,颗粒物(PM10),54,58,47,25,16,62,,42,42,26,21,13,9,0.6,0.5
2025-04-29T1100,2192A,119.7594,49.2261,呼伦贝尔市,区环保局,颗粒物(PM10),110,170,37,34,18,75,,82,81,7,7,6,5,0.4,0.3
2025-04-29T1100,3061A,119.7512,49.1577,呼伦贝尔市,国华电力东,颗粒物(PM10),81,111,33,36,12,77,,82,82,5,6,7,4,0.3,0.3
2025-04-29T1100,1250A,120.0751,30.8669,湖州市,城西水厂,,,58,60,26,31,169,,55,55,,28,8,8,0.4,0.5
2025-04-29T1100,2873A,120.0830,30.8929,湖州市,仁皇山新区,颗粒物(PM10),53,55,57,24,31,160,,70,70,21,28,6,6,0.7,0.7
2025-04-29T1100,2907A,120.1844,30.8596,湖州市,吴兴区站,颗粒物(PM10),54,57,54,36,34,138,,68,68,25,23,8,8,0.5,0.5
2025-04-29T1100,3562A,120.4148,30.8538,湖州市,南浔区站,颗粒物(PM10),51,52,56,26,31,129,,72,72,26,26,6,6,0.5,0.6
2025-04-29T1100,1607A,120.9049,40.7211,葫芦岛市,龙港区,,,69,35,36,20,,,95,92,22,11,9,8,0.5,0.4
2025-04-29T1100,1608A,120.8392,40.7514,葫芦岛市,化工街,颗粒物(PM10),51,51,38,24,19,90,,81,81,28,29,14,11,0.6,0.5
2025-04-29T1100,1609A,120.8341,40.7073,葫芦岛市,新区,细颗粒物(PM2.5),57,56,32,40,22,91,,89,89,26,18,8,8,0.6,0.5
2025-04-29T1100,1610A,120.8695,40.7677,葫芦岛市,东城区,颗粒物(PM10),59,68,40,41,26,85,,80,80,27,26,7,12,0.6,0.5
2025-04-29T1100,2482A,109.5981,27.5721,怀化市,林科所,颗粒物(PM10),64,77,49,32,26,103,,54,52,20,12,25,19,0.9,0.6
2025-04-29T1100,2483A,109.9453,27.5444,怀化市,河西地税局,细颗粒物(PM2.5),65,68,49,47,31,92,,32,32,23,14,8,5,0.7,0.5
2025-04-29T1100,2484A,109.9781,27.5342,怀化市,市四医院,细颗粒物(PM2.5),82,73,63,60,37,107,,36,36,17,25,10,5,0.7,0.6
2025-04-29T1100,2485A,109.9972,27.5578,怀化市,监测楼,细颗粒物(PM2.5),79,94,55,58,33,102,,36,36,20,16,6,3,0.5,0.5
2025-04-29T1100,2486A,110.0394,27.583,怀化市,市委党校,细颗粒物(PM2.5),59,62,49,42,34,79,,26,26,21,18,7,6,0.9,0.7
2025-04-29T1100,1210A,119.036,33.5981,淮安市,钵池山,颗粒物(PM10),52,53,46,28,27,142,,98,98,11,18,10,10,0.3,0.3
2025-04-29T1100,1211A,119.007,33.575,淮安市,北京南路,颗粒物(PM10),58,66,48,27,25,142,,93,93,12,19,12,10,0.5,0.6
2025-04-29T1100,1212A,118.989,33.6067,淮安市,市监测站,颗粒物(PM10),53,56,48,27,32,144,,80,80,11,27,11,15,0.4,1
2025-04-29T1100,1213A,119.135,33.5039,淮安市,楚州区监测站,,,,59,,30,141,,81,81,,19,15,8,0.6,0.6
2025-04-29T1100,3426A,118.8755,33.2894,淮安市,新华书店,颗粒物(PM10),52,54,52,21,35,144,,80,80,11,23,10,12,0.5,0.5
2025-04-29T1100,4206A,119.0288,33.6319,淮安市,承德北路606号,颗粒物(PM10),58,66,60,30,30,138,,90,90,13,19,16,14,1.0,0.7
2025-04-29T1100,2282A,116.8004,33.975,淮北市,监测站,颗粒物(PM10),71,92,52,25,22,159,,117,117,12,22,8,10,0.7,0.8
2025-04-29T1100,2283A,116.8091,33.9007,淮北市,烈山区政府,颗粒物(PM10),60,70,64,31,27,153,,96,96,11,31,9,9,0.7,0.7
2025-04-29T1100,3330A,116.8873,33.9836,淮北市,杜集区检察院,颗粒物(PM10),62,74,64,35,29,152,,99,99,15,24,10,9,0.9,0.8
2025-04-29T1100,4017A,116.7923,33.9535,淮北市,市博物馆,,,,56,30,27,158,,117,117,12,25,9,10,0.8,0.8
2025-04-29T1100,2277A,116.8305,32.7727,淮南市,潘集区政府,臭氧1小时,67,77,82,46,46,173,,109,109,11,28,6,8,0.5,0.5
2025-04-29T1100,2279A,116.8569,32.5951,淮南市,谢家集区政府,细颗粒物(PM2.5),67,70,67,48,43,155,,100,100,17,23,6,8,0.4,0.4
2025-04-29T1100,2280A,116.8281,32.633,淮南市,八公山区政府,颗粒物(PM10),68,86,80,44,39,156,,116,116,14,11,7,7,0.4,0.4
2025-04-29T1100,2281A,116.6325,32.6201,淮南市,焦岗湖风景区管理处,,,,,,,,,,,,,,,,
2025-04-29T1100,2894A,117.0566,32.6531,淮南市,经济技术开发区消防队,细颗粒物(PM2.5),84,74,65,62,48,168,,109,109,12,23,6,8,0.4,0.5
2025-04-29T1100,3329A,117.0108,32.5893,淮南市,山南新区,臭氧1小时,68,81,78,41,36,174,,117,117,15,20,9,10,0.5,0.5
2025-04-29T1100,4209A,117.0031,32.6445,淮南市,国庆中路369号,臭氧1小时,63,72,67,43,35,170,,127,127,9,15,8,9,0.4,0.5
2025-04-29T1100,2446A,114.9028,30.4742,黄冈市,职工中心,细颗粒物(PM2.5),69,67,44,50,30,146,,74,74,25,16,21,10,1.3,0.7
2025-04-29T1100,2929A,114.8858,30.4519,黄冈市,红卫路,颗粒物(PM10),56,61,49,38,29,128,,68,68,20,16,21,9,1.0,0.6
2025-04-29T1100,3398A,114.9136,30.4445,黄冈市,市林业局,细颗粒物(PM2.5),90,74,48,67,28,125,,58,58,27,14,29,10,1.1,0.6
2025-04-29T1100,2672A,102.0199,35.5102,黄南藏族自治州,同仁县隆务镇,,31,31,40,7,16,86,,65,63,4,4,4,4,0.2,0.1
2025-04-29T1100,2295A,118.2903,29.6963,黄山市,延安路89号,颗粒物(PM10),51,51,43,34,29,139,,50,50,7,8,6,5,0.6,0.5
2025-04-29T1100,2297A,118.1371,30.2756,黄山市,黄山区政府5号楼,颗粒物(PM10),58,66,63,36,35,160,,70,70,8,9,5,4,0.7,0.7
2025-04-29T1100,4210A,118.3354,29.7203,黄山市,滨江东路7-2号,颗粒物(PM10),54,57,49,33,29,149,,58,58,3,6,5,4,0.6,0.6
2025-04-29T1100,2423A,115.0601,30.2313,黄石市,沈家营,颗粒物(PM10),91,131,77,38,29,131,,44,44,31,33,14,8,1.1,0.8
2025-04-29T1100,2426A,114.8988,30.2019,黄石市,铁山,,50,50,70,23,26,148,,72,72,11,19,14,9,1.1,0.8
2025-04-29T1100,2427A,115.0307,30.2092,黄石市,团城山,颗粒物(PM10),59,67,69,28,24,131,,57,57,33,25,14,9,0.9,0.7
2025-04-29T1100,3149A,115.0235,30.1578,黄石市,笔架山北路,,,53,54,19,28,159,,84,84,,14,,9,0.6,0.7
2025-04-29T1100,4185A,115.0780,30.21118,黄石市,磁湖东路29号,颗粒物(PM10),102,153,78,69,34,110,,46,46,41,25,19,9,1.2,0.8
2025-04-29T1100,1392A,114.4183,23.0528,惠州市,河南岸金山湖子站,,33,33,19,20,12,97,,58,58,15,17,11,10,0.5,0.5
2025-04-29T1100,1393A,114.4053,23.0822,惠州市,下埔横江三路子站,,40,40,20,19,11,106,,76,76,14,13,11,11,0.7,0.7
2025-04-29T1100,1394A,114.4103,23.1142,惠州市,江北云山西路子站,,36,36,21,20,12,110,,76,76,10,14,12,13,0.6,0.6
2025-04-29T1100,1395A,114.4645,22.7833,惠州市,惠阳区承修路船湖子站,,41,18,24,10,15,130,,87,87,13,15,10,9,0.5,0.7
2025-04-29T1100,1396A,114.5317,22.7422,惠州市,大亚湾管委会子站,,40,16,21,10,12,125,,91,91,9,14,9,8,0.5,0.6
2025-04-29T1100,3314A,114.4338,22.8134,惠州市,惠阳秋长,,45,24,30,11,16,144,,74,74,11,15,8,9,0.4,0.6
2025-04-29T1100,3452A,114.6517,22.775,惠州市,大亚湾霞涌,,42,36,28,16,14,132,,82,80,9,13,11,8,0.6,0.6
2025-04-29T1100,2240A,130.9762,45.3001,鸡西市,环保局,,36,36,53,22,40,84,,58,58,10,17,22,7,0.3,0.5
2025-04-29T1100,2243A,130.9429,45.3039,鸡西市,第一中学,,27,27,52,13,40,81,,58,58,9,14,10,12,0.4,0.5
2025-04-29T1100,3707A,131.0207,45.3073,鸡西市,欧美日汽修厂,,30,30,62,11,45,85,,43,43,6,18,6,7,0.4,0.6
2025-04-29T1100,3709A,130.9967,45.3106,鸡西市,市政设施管理处,颗粒物(PM10),51,51,65,13,42,81,,38,38,6,23,9,8,0.4,0.5
2025-04-29T1100,2367A,114.9754,27.0803,吉安市,红声器材厂,细颗粒物(PM2.5),62,68,53,44,30,104,,41,41,20,17,14,10,0.7,0.6
2025-04-29T1100,2368A,114.9658,27.0999,吉安市,市森林工业局,,,,50,,30,113,,38,38,15,19,,9,,0.5
2025-04-29T1100,2369A,114.99,27.1312,吉安市,市环境监测站,细颗粒物(PM2.5),57,59,47,40,30,108,,47,47,10,11,12,10,0.7,0.6
2025-04-29T1100,2370A,115.0093,27.0968,吉安市,青原区法院,细颗粒物(PM2.5),67,68,50,48,32,108,,44,44,8,12,14,13,0.7,0.5
2025-04-29T1100,1772A,126.54,43.8622,吉林市,哈达湾,颗粒物(PM10),51,51,68,35,48,112,,84,84,11,19,6,6,0.4,0.4
2025-04-29T1100,1773A,126.5844,43.8358,吉林市,东局子,细颗粒物(PM2.5),53,48,57,37,49,111,,91,91,10,18,5,6,0.3,0.4
2025-04-29T1100,1774A,126.5052,43.8245,吉林市,电力学院,细颗粒物(PM2.5),54,46,68,38,59,110,,65,65,12,21,5,5,0.5,0.6
2025-04-29T1100,1775A,126.6133,43.8972,吉林市,江北,,44,44,66,23,44,110,,87,87,12,17,6,7,0.7,0.7
2025-04-29T1100,1776A,126.555,43.8306,吉林市,江南公园,细颗粒物(PM2.5),64,49,59,46,53,108,,84,84,10,15,6,6,0.4,0.5
2025-04-29T1100,1778A,126.7061,43.7133,吉林市,丰满,,,,,,,,,,,,,,,,
2025-04-29T1100,2868A,126.4739,43.953,吉林市,九站,,,50,67,29,52,,,88,88,7,18,6,7,0.6,0.7
2025-04-29T1100,1299A,116.9862,36.6114,济南市,科干所,颗粒物(PM10),51,51,44,17,12,137,,129,129,12,11,8,6,0.4,0.3
2025-04-29T1100,1300A,116.9376,36.665,济南市,农科所,颗粒物(PM10),55,59,55,17,13,126,,112,112,16,21,11,9,0.4,0.4
2025-04-29T1100,1301A,117.1265,36.6734,济南市,开发区,,49,49,41,17,18,141,,133,132,11,12,11,9,0.5,0.5
2025-04-29T1100,1303A,117.0624,36.6868,济南市,省种子仓库,颗粒物(PM10),65,80,64,19,23,136,,129,129,12,14,9,6,0.4,0.4
2025-04-29T1100,1304A,116.9489,36.6447,济南市,机床二厂,颗粒物(PM10),79,107,72,15,13,121,,116,116,24,20,12,10,0.4,0.4
2025-04-29T1100,1305A,117.0495,36.663,济南市,市监测站,颗粒物(PM10),55,59,49,15,14,132,,128,126,14,12,12,10,0.5,0.4
2025-04-29T1100,1306A,116.7675,36.5484,济南市,长清党校,颗粒物(PM10),58,66,48,22,18,129,,118,116,16,15,12,9,0.6,0.6
2025-04-29T1100,1616A,117.6795,36.229,济南市,技术学院,颗粒物(PM10),87,124,66,17,20,137,,82,82,13,32,12,13,0.6,1
2025-04-29T1100,1961A,117.532,36.6868,济南市,东山小学,颗粒物(PM10),56,61,53,17,14,141,,123,123,8,15,10,7,0.3,0.2
2025-04-29T1100,3059A,117.7161,36.2049,济南市,泰兴公司,,,92,51,22,20,138,,32,32,15,47,,11,0.6,0.9
2025-04-29T1100,3064A,117.6867,36.2171,济南市,莱芜战役纪念馆,颗粒物(PM10),59,68,59,14,18,136,,72,72,18,43,8,8,0.5,0.9
2025-04-29T1100,3494A,117.1673,36.9782,济南市,济阳区政府,,,90,74,27,18,125,,102,102,19,26,,9,0.5,0.4
2025-04-29T1100,3495A,117.1171,36.63,济南市,锦屏中学,,46,46,39,15,10,139,,132,130,12,13,9,6,0.4,0.3
2025-04-29T1100,3682A,116.9814,36.6819,济南市,济南四建,颗粒物(PM10),54,58,51,37,18,134,,126,126,14,14,9,7,0.4,0.4
2025-04-29T1100,1653A,116.6251,35.4302,济宁市,火炬城,颗粒物(PM10),56,62,53,17,15,120,,96,96,10,10,8,7,0.3,0.3
2025-04-29T1100,1655A,116.5491,35.4042,济宁市,电化厂,颗粒物(PM10),60,69,61,17,23,119,,83,83,9,19,4,6,0.5,0.4
2025-04-29T1100,3500A,116.5814,35.3707,济宁市,北湖一中,颗粒物(PM10),64,78,58,14,11,122,,95,95,17,22,9,10,0.4,0.3
2025-04-29T1100,3501A,116.8249,35.5593,济宁市,服务中心,颗粒物(PM10),62,73,69,24,26,119,,84,84,12,21,4,4,0.4,0.4
2025-04-29T1100,3678A,116.5907,35.4054,济宁市,市第七中学,颗粒物(PM10),59,68,76,17,12,125,,100,100,11,12,11,12,0.3,0.3
2025-04-29T1100,2255A,130.2751,46.8028,佳木斯市,佳纺,,48,46,33,33,19,86,,27,27,13,24,5,4,0.4,0.4
2025-04-29T1100,2256A,130.3995,46.8307,佳木斯市,发电厂,,43,,25,30,18,80,,27,27,13,24,5,6,0.3,0.4
2025-04-29T1100,2257A,130.3258,46.7975,佳木斯市,环保局,细颗粒物(PM2.5),53,45,39,37,21,95,,31,31,11,30,5,5,0.4,0.5
2025-04-29T1100,2258A,130.3648,46.8032,佳木斯市,十一中,,46,41,34,32,21,85,,29,29,8,27,5,5,0.4,0.5
2025-04-29T1100,2259A,130.3794,46.7588,佳木斯市,四丰,,30,,14,21,12,72,,24,24,6,11,1,1,0.2,0.3
2025-04-29T1100,1252A,120.7436,30.778,嘉兴市,清河小学,,36,29,39,13,19,114,,80,80,17,22,6,6,0.7,0.8
2025-04-29T1100,1253A,120.726,30.7478,嘉兴市,嘉兴学院,,39,30,42,12,20,123,,76,76,18,28,7,7,0.6,0.8
2025-04-29T1100,2872A,120.7846,30.7525,嘉兴市,南湖区残联,,40,37,45,12,19,128,,92,92,21,22,7,7,0.4,0.6
2025-04-29T1100,3407A,120.6916,30.7739,嘉兴市,秀洲住建,,42,33,47,19,20,134,,72,72,12,20,8,8,0.6,0.6
2025-04-29T1100,1945A,98.2908,39.7711,嘉峪关市,气象局,,,46,65,12,21,123,,99,99,,8,3,8,0.5,0.3
2025-04-29T1100,2884A,98.2672,39.7978,嘉峪关市,酒钢宾馆,,48,48,77,12,21,124,,94,94,1,8,12,17,0.2,0.3
2025-04-29T1100,3248A,98.2643,39.7724,嘉峪关市,雄关区,,39,39,59,15,22,123,,92,92,7,13,4,6,0.4,0.5
2025-04-29T1100,1383A,113.1064,22.6058,江门市,北街,,41,41,44,13,16,122,,39,39,14,42,2,2,0.5,0.6
2025-04-29T1100,1384A,113.0731,22.5835,江门市,西区,,41,41,36,13,16,122,,50,50,15,37,6,6,0.5,0.6
2025-04-29T1100,1385A,113.0219,22.5311,江门市,圭峰西,,44,44,34,20,16,114,,59,59,12,25,5,5,0.4,0.7
2025-04-29T1100,1386A,113.0828,22.5947,江门市,东湖,,36,,30,23,22,113,,44,44,15,35,8,8,0.6,0.6
2025-04-29T1100,3311A,113.1075,22.5647,江门市,江海富民,,36,33,42,21,25,115,,48,48,12,32,8,8,0.5,0.6
2025-04-29T1100,3449A,113.05,22.4667,江门市,新会银湖,,37,29,38,19,20,116,,39,39,10,39,3,3,0.6,0.7
2025-04-29T1100,1830A,113.1992,35.2590,焦作市,影视城,,,,30,,12,,,,,,16,,12,,0.5
2025-04-29T1100,3169A,113.2725,35.2067,焦作市,太极体育中心,颗粒物(PM10),119,188,96,32,30,108,,72,72,15,22,10,8,0.7,0.5
2025-04-29T1100,3335A,113.3137,35.2641,焦作市,马村街道办,颗粒物(PM10),70,89,74,36,27,121,,77,77,21,25,33,16,0.4,0.4
2025-04-29T1100,3336A,113.2465,35.2373,焦作市,焦作技师学院,颗粒物(PM10),61,72,81,29,22,117,,79,79,22,22,40,16,0.8,0.5
2025-04-29T1100,3477A,113.1656,35.2539,焦作市,中站许衡医院,颗粒物(PM10),70,90,68,36,27,110,,91,91,34,32,70,15,0.7,0.6
2025-04-29T1100,3981A,113.2449,35.1803,焦作市,原李万街道办,,,64,78,27,25,110,,67,67,24,27,,21,0.8,0.5
2025-04-29T1100,4264A,113.2340,35.2190,焦作市,新安路1731号,颗粒物(PM10),71,92,81,30,30,108,,70,70,22,25,29,18,0.8,0.7
2025-04-29T1100,1708A,116.3701,23.5345,揭阳市,新兴,,46,46,27,22,20,113,,66,66,16,14,12,8,0.8,0.8
2025-04-29T1100,1709A,116.3264,23.5443,揭阳市,西马,,41,41,36,21,14,111,,67,67,11,8,15,9,0.9,0.9
2025-04-29T1100,1710A,116.3611,23.5626,揭阳市,东兴,,,59,35,25,20,110,,59,59,,10,16,7,0.6,0.6
2025-04-29T1100,1711A,116.4151,23.5294,揭阳市,渔湖,颗粒物(PM10),67,84,44,27,17,117,,65,65,17,14,8,6,0.8,0.8
2025-04-29T1100,3320A,116.403,23.5699,揭阳市,曲溪,,40,40,29,25,19,125,,66,66,16,16,13,8,0.6,0.7
2025-04-29T1100,1944A,102.1692,38.5167,金昌市,天庆家园,,46,46,85,15,29,115,,114,114,4,4,9,9,0.7,0.6
2025-04-29T1100,4022A,102.1647,38.5371,金昌市,金川区人防中心,颗粒物(PM10),74,98,147,19,30,114,,110,109,7,5,18,20,0.6,0.4
2025-04-29T1100,4239A,102.1930,38.5319,金昌市,长春路96号,,36,31,92,13,31,114,,113,113,2,2,11,12,0.5,0.5
2025-04-29T1100,1262A,119.647,29.077,金华市,十五中,,,80,62,43,36,183,,74,74,,36,,3,0.7,0.7
2025-04-29T1100,1263A,119.686,29.1029,金华市,监测站,臭氧1小时,87,80,64,50,42,189,,77,77,28,46,6,5,0.7,0.7
2025-04-29T1100,3659A,119.656,29.1131,金华市,气象局,臭氧1小时,88,77,72,41,37,190,,76,76,23,47,4,3,0.7,0.7
2025-04-29T1100,1767A,121.1115,41.0879,锦州市,南山,颗粒物(PM10),71,92,37,34,23,86,,78,78,29,23,10,8,0.6,0.5
2025-04-29T1100,1768A,121.0604,40.8428,锦州市,开发区,颗粒物(PM10),114,178,70,38,24,81,,78,78,33,25,7,10,0.7,0.6
2025-04-29T1100,1769A,121.1836,41.1119,锦州市,百股街道,颗粒物(PM10),67,83,39,17,15,82,,85,85,29,18,8,7,0.6,0.5
2025-04-29T1100,1770A,121.1178,41.1222,锦州市,天安街道,颗粒物(PM10),75,100,39,25,23,84,,83,83,28,19,11,8,0.6,0.6
2025-04-29T1100,1771A,121.1303,41.1386,锦州市,北湖公园,,,,34,,19,87,,83,83,,15,12,9,0.6,0.5
2025-04-29T1100,2160A,112.85,35.5051,晋城市,自来水公司,颗粒物(PM10),63,75,69,7,15,127,,58,58,17,31,7,9,0.4,0.6
2025-04-29T1100,2161A,112.8318,35.4936,晋城市,白云商贸,,43,39,49,14,11,137,,67,67,17,30,7,8,0.6,0.6
2025-04-29T1100,2162A,112.8508,35.4887,晋城市,市环保局,颗粒物(PM10),52,53,75,3,16,132,,57,57,11,33,5,7,0.4,0.4
2025-04-29T1100,2163A,112.8676,35.4897,晋城市,技术学院,颗粒物(PM10),51,52,67,3,14,122,,56,56,15,29,6,8,0.4,0.6
2025-04-29T1100,2165A,112.8453,35.546,晋城市,白马寺,,,30,36,14,14,139,,124,124,,9,5,7,0.2,0.3
2025-04-29T1100,3620A,112.8271,35.4828,晋城市,泽州一中,颗粒物(PM10),58,65,49,3,11,141,,68,68,12,26,4,6,0.5,0.5
2025-04-29T1100,2173A,112.7249,37.7067,晋中市,南都小区,颗粒物(PM10),57,63,54,19,15,99,,44,44,25,28,27,16,0.5,0.4
2025-04-29T1100,2174A,112.6991,37.6982,晋中市,榆次区政府,,,78,54,27,13,102,,41,41,25,30,25,16,,0.4
2025-04-29T1100,2865A,112.7195,37.6828,晋中市,榆次三中,颗粒物(PM10),64,78,59,24,19,112,,42,42,27,31,32,14,0.5,0.3
2025-04-29T1100,4200A,112.7478,37.6954,晋中市,迎宾街26号,颗粒物(PM10),67,83,59,17,17,104,,44,44,26,25,28,14,0.8,0.5
2025-04-29T1100,2439A,112.2014,31.0481,荆门市,竹园小学,颗粒物(PM10),63,76,73,34,28,165,,121,121,13,18,9,9,0.3,0.3
2025-04-29T1100,2440A,112.1969,30.9891,荆门市,掇刀,颗粒物(PM10),70,89,67,39,28,153,,98,98,9,15,14,14,0.4,0.3
2025-04-29T1100,2441A,112.2213,31.0386,荆门市,石化一小,颗粒物(PM10),65,80,74,35,31,166,,98,98,16,22,11,13,0.4,0.5
2025-04-29T1100,3012A,112.1849,31.0362,荆门市,西山林语,颗粒物(PM10),68,85,61,28,24,156,,111,111,12,10,11,9,0.4,0.5
2025-04-29T1100,3547A,112.1632,31.0138,荆门市,龙泉中学南校,颗粒物(PM10),63,75,66,36,29,154,,100,100,15,19,11,10,0.5,0.4
2025-04-29T1100,1844A,112.2494,30.3197,荆州市,市图书馆,颗粒物(PM10),65,79,69,40,36,146,,103,100,17,22,12,9,0.8,0.7
2025-04-29T1100,1845A,112.2008,30.3544,荆州市,市委党校,细颗粒物(PM2.5),73,90,74,53,39,132,,89,87,19,22,14,10,0.7,0.6
2025-04-29T1100,3194A,112.2747,30.3122,荆州市,管委会,,,,63,43,37,139,,105,104,,18,14,25,,0.7
2025-04-29T1100,4268A,112.1722,30.3366,荆州市,学苑路85号,细颗粒物(PM2.5),85,93,66,63,43,140,,74,74,15,30,15,6,0.6,0.6
2025-04-29T1100,2342A,117.3102,29.3867,景德镇市,王港中学,,,,,,,,,,,,,,,,
2025-04-29T1100,2343A,117.2117,29.2933,景德镇市,老干部活动中心,颗粒物(PM10),51,52,54,27,34,128,,44,44,10,19,8,9,0.6,0.6
2025-04-29T1100,2344A,117.1894,29.2789,景德镇市,兽医站,颗粒物(PM10),53,56,61,24,34,111,,38,38,14,18,4,6,0.6,0.7
2025-04-29T1100,2345A,117.1547,29.2617,景德镇市,台达陶瓷,颗粒物(PM10),63,76,78,39,44,115,,38,38,30,31,41,58,0.9,0.8
2025-04-29T1100,2346A,117.2461,29.2956,景德镇市,陶研所,,,74,56,42,38,127,,38,38,,17,23,8,0.4,0.6
2025-04-29T1100,1803A,115.9872,29.6815,九江市,十里,颗粒物(PM10),59,67,59,40,42,154,,63,63,14,22,3,3,0.8,0.8
2025-04-29T1100,1804A,115.9584,29.7046,九江市,茅山头,细颗粒物(PM2.5),59,,63,42,39,135,,63,63,19,19,6,5,0.5,0.5
2025-04-29T1100,1805A,115.9877,29.7295,九江市,西园,细颗粒物(PM2.5),69,70,58,50,37,151,,56,56,53,50,13,12,0.8,0.8
2025-04-29T1100,1808A,115.9114,29.6038,九江市,综合工业园,颗粒物(PM10),59,68,69,34,41,154,,63,63,22,43,10,10,0.7,0.9
2025-04-29T1100,1809A,116.0721,29.7535,九江市,石化总厂,细颗粒物(PM2.5),80,74,68,59,52,140,,48,48,17,39,10,10,1.0,1
2025-04-29T1100,1810A,115.9773,29.5698,九江市,庐山气象台,,42,42,61,28,43,118,,147,134,10,13,7,6,0.9,0.7
2025-04-29T1100,3190A,116.0254,29.6994,九江市,外国语学校,细颗粒物(PM2.5),65,66,60,47,42,147,,57,57,17,31,12,6,1.4,1.1
2025-04-29T1100,4253A,116.0102,29.6594,九江市,莲花大道8号,,,97,65,42,41,140,,80,80,,9,15,6,,0.8
2025-04-29T1100,4240A,98.4958,39.7339,酒泉市,玉门东路5号,颗粒物(PM10),60,70,95,10,29,126,,99,99,4,7,9,11,0.2,0.2
2025-04-29T1100,4241A,98.5099,39.7506,酒泉市,北大街108号,颗粒物(PM10),68,85,96,12,22,133,,106,106,6,9,8,12,0.4,0.3
2025-04-29T1100,2698A,76.0072,39.4467,喀什地区,巡警大队,颗粒物(PM10),153,256,298,75,60,40,,30,30,47,38,7,4,0.8,0.6
2025-04-29T1100,2699A,75.9755,39.4694,喀什地区,吾办,颗粒物(PM10),131,212,227,75,75,51,,37,37,44,36,12,8,0.6,0.5
2025-04-29T1100,4027A,75.9483,39.4689,喀什地区,老干局,颗粒物(PM10),104,157,206,29,45,65,,62,62,16,23,5,4,0.4,0.5
2025-04-29T1100,1824A,114.3389,34.7781,开封市,肿瘤医院,颗粒物(PM10),84,118,70,26,16,118,,,,19,17,17,10,0.5,0.4
2025-04-29T1100,1826A,114.2885,34.7965,开封市,世纪星幼儿园,颗粒物(PM10),71,92,70,28,13,118,,67,67,29,21,18,11,0.7,0.6
2025-04-29T1100,3147A,114.3438,34.8106,开封市,龙亭公园,颗粒物(PM10),77,103,74,26,17,121,,79,79,27,20,12,5,0.7,0.6
2025-04-29T1100,3210A,114.3644,34.7964,开封市,汴京公园,颗粒物(PM10),73,96,116,26,18,128,,82,82,24,19,12,6,0.7,0.6
2025-04-29T1100,3473A,114.2485,34.8306,开封市,技师学院,细颗粒物(PM2.5),118,,64,89,39,107,,70,70,32,21,12,7,0.7,0.6
2025-04-29T1100,3592A,114.4644,34.7556,开封市,祥符区生态环境局,颗粒物(PM10),59,68,56,35,19,124,,78,78,28,28,12,9,0.5,0.4
2025-04-29T1100,1951A,84.895,45.6094,克拉玛依市,长征新村,,41,41,44,3,9,78,,80,72,10,11,7,7,0.2,0.2
2025-04-29T1100,1952A,84.8988,45.5893,克拉玛依市,南林小区,,35,35,41,8,11,80,,83,75,9,10,5,4,0.3,0.3
2025-04-29T1100,1954A,84.905,44.3396,克拉玛依市,独山子区,颗粒物(PM10),53,56,36,15,14,80,,90,80,8,11,8,9,0.3,0.3
2025-04-29T1100,1955A,85.6979,46.098,克拉玛依市,乌尔禾区商贸楼,颗粒物(PM10),51,51,42,3,10,68,,55,55,14,8,7,7,0.3,0.3
2025-04-29T1100,3612A,85.1045,45.6899,克拉玛依市,白碱滩区新站,,39,39,42,8,11,83,,88,78,9,6,11,11,0.2,0.1
2025-04-29T1100,2697A,76.1454,39.7142,克孜勒苏柯尔克孜自治州,市人民政府,颗粒物(PM10),107,164,206,40,59,81,,98,96,9,7,7,9,0.1,0.2
2025-04-29T1100,3665A,76.1658,39.7157,克孜勒苏柯尔克孜自治州,克州文化中心,颗粒物(PM10),119,187,205,47,60,88,,97,90,8,10,7,11,0.3,0.3
2025-04-29T1100,1450A,102.8204,24.8886,昆明市,呈贡新区,细颗粒物(PM2.5),58,,41,41,28,101,,89,89,12,11,5,5,0.9,0.8
2025-04-29T1100,1451A,102.6251,24.9608,昆明市,西山森林公园,,,,,,,,,,,,,,,,
2025-04-29T1100,1452A,102.7252,25.0902,昆明市,龙泉镇,,39,31,39,27,24,87,,58,54,14,14,8,9,0.5,0.5
2025-04-29T1100,1453A,102.7266,25.0375,昆明市,东风东路,,39,39,49,27,33,93,,76,76,24,20,7,8,0.7,0.6
2025-04-29T1100,1454A,102.6742,25.0669,昆明市,金鼎山,,33,28,46,23,30,94,,84,84,18,16,2,3,0.6,0.5
2025-04-29T1100,1455A,102.6644,25.0401,昆明市,碧鸡广场,,,39,47,19,29,,,85,85,16,15,5,6,0.7,0.6
2025-04-29T1100,3179A,102.7494,25.0119,昆明市,官渡区博物馆,,36,36,45,24,25,100,,69,69,12,18,6,7,0.6,0.6
2025-04-29T1100,3375A,102.8017,24.8336,昆明市,青年创业园,"颗粒物(PM10),细颗粒物(PM2.5)",52,53,43,36,29,101,,95,95,11,10,7,7,0.9,0.7
2025-04-29T1100,3550A,102.7997,24.9786,昆明市,昆明学院,细颗粒物(PM2.5),52,50,50,36,29,99,,79,79,14,14,5,6,0.6,0.5
2025-04-29T1100,3551A,102.5967,24.6736,昆明市,晋宁区生态环境分局,,49,,38,34,30,100,,92,92,9,10,5,6,0.4,0.4
2025-04-29T1100,3552A,102.6678,24.9856,昆明市,云天化总部,,35,31,42,24,27,96,,91,91,10,11,6,6,0.7,0.6
2025-04-29T1100,1456A,91.1319,29.6514,拉萨市,八廓街,,35,14,18,8,12,112,,117,111,9,10,6,6,0.3,0.7
2025-04-29T1100,1457A,91.1221,29.6747,拉萨市,市环保局,,32,25,16,10,10,101,,104,99,15,13,5,3,0.5,0.5
2025-04-29T1100,1458A,91.0874,29.6475,拉萨市,区监测站,,32,16,14,8,9,102,,105,99,12,12,6,6,0.4,0.3
2025-04-29T1100,1459A,91.1774,29.6541,拉萨市,西藏大学,,35,8,12,6,8,109,,112,107,8,9,6,6,0.2,0.3
2025-04-29T1100,1460A,90.9798,29.6588,拉萨市,区辐射站,,32,24,17,13,10,100,,105,96,32,18,8,8,0.6,0.5
2025-04-29T1100,1461A,91.0834,29.6292,拉萨市,拉萨火车站,,32,10,11,3,8,101,,108,101,11,8,3,3,0.4,0.4
2025-04-29T1100,2520A,109.2203,23.7256,来宾市,来宾技工学校,颗粒物(PM10),53,56,47,33,20,123,,51,51,15,22,11,10,0.5,0.5
2025-04-29T1100,3535A,109.1781,23.7297,来宾市,兴宾区政府,,47,47,38,29,22,112,,60,60,12,14,9,7,0.6,0.5
2025-04-29T1100,4002A,109.2416,23.7461,来宾市,中南小学,细颗粒物(PM2.5),59,48,47,42,19,119,,60,60,9,17,8,7,0.5,0.5
2025-04-29T1100,1477A,104.1373,35.9454,兰州市,榆中兰大校区,,,,,,,,,,,,,,,,
2025-04-29T1100,1479A,103.831,36.0464,兰州市,铁路设计院,颗粒物(PM10),71,91,61,29,24,59,,16,16,56,55,16,13,0.8,0.8
2025-04-29T1100,3241A,103.7439,36.0842,兰州市,百合公园,颗粒物(PM10),70,90,54,38,22,78,,20,20,56,41,24,6,0.9,0.5
2025-04-29T1100,3242A,103.9611,35.998,兰州市,和平,,,122,62,55,31,84,,72,58,,15,23,12,0.8,0.6
2025-04-29T1100,4236A,103.6293,36.0938,兰州市,庄浪东路808号,颗粒物(PM10),63,76,64,37,30,73,,36,33,29,37,41,12,0.6,0.4
2025-04-29T1100,4237A,103.7251,36.1043,兰州市,安宁西路88号,颗粒物(PM10),79,108,71,40,35,102,,32,32,54,37,30,7,0.8,0.4
2025-04-29T1100,4238A,103.8470,36.0676,兰州市,北滨河东路1号,颗粒物(PM10),70,90,72,28,27,48,,12,12,60,54,18,14,1.0,0.9
2025-04-29T1100,3245A,103.6633,36.533,兰州新区,新区管委会,,42,42,55,17,22,107,,61,61,10,18,7,7,0.3,0.3
2025-04-29T1100,3246A,103.6975,36.4789,兰州新区,舟曲中学,颗粒物(PM10),55,59,65,26,24,116,,62,62,9,22,8,9,0.4,0.3
2025-04-29T1100,1067A,116.6708,39.5111,廊坊市,药材公司,,,,62,40,26,78,,36,36,32,31,8,6,,0.6
2025-04-29T1100,1068A,116.7214,39.5589,廊坊市,开发区,颗粒物(PM10),71,91,69,51,28,78,,39,39,28,26,8,5,0.7,0.5
2025-04-29T1100,1070A,116.7244,39.5269,廊坊市,北华航天学院,颗粒物(PM10),74,97,83,51,28,80,,36,36,33,33,11,8,0.7,0.5
2025-04-29T1100,2919A,116.7022,39.5453,廊坊市,河北工业大学,颗粒物(PM10),69,88,72,44,27,78,,39,39,30,28,11,9,0.7,0.5
2025-04-29T1100,2535A,103.7723,29.5462,乐山市,花湖湾,,21,18,37,12,23,65,,76,76,23,23,5,7,0.5,0.5
2025-04-29T1100,2536A,103.7627,29.5844,乐山市,牛耳桥,,21,19,40,12,21,66,,74,74,24,28,6,8,0.7,0.7
2025-04-29T1100,2537A,103.7508,29.6006,乐山市,市第三水厂,,20,16,36,12,21,61,,70,70,23,22,4,5,0.5,0.5
2025-04-29T1100,2538A,103.7571,29.5664,乐山市,市监测站,,20,16,37,10,22,62,,69,69,22,21,5,8,0.5,0.6
2025-04-29T1100,3361A,103.7311,29.5628,乐山市,理工大学,,24,13,35,10,21,76,,72,72,15,21,3,5,0.4,0.5
2025-04-29T1100,2598A,100.2143,26.8576,丽江市,西南郊,,38,24,47,17,26,121,,125,122,2,3,5,5,0.5,0.4
2025-04-29T1100,2599A,100.2497,26.8802,丽江市,丽江古城,,35,24,42,21,26,112,,110,108,9,10,8,9,0.6,0.6
2025-04-29T1100,2600A,100.2203,26.8906,丽江市,市中心,,31,22,35,20,26,99,,98,95,7,6,7,7,1.0,0.9
2025-04-29T1100,1267A,119.914,28.4514,丽水市,监测站大楼,颗粒物(PM10),56,62,49,34,24,138,,52,52,14,26,3,3,0.5,0.4
2025-04-29T1100,1268A,119.93,28.4586,丽水市,莲都小学,颗粒物(PM10),58,66,48,36,23,136,,59,59,12,17,4,3,0.4,0.4
2025-04-29T1100,1269A,119.879,28.4231,丽水市,余庄前,,,62,43,42,29,135,,35,35,,14,5,3,0.5,0.5
2025-04-29T1100,1173A,119.176,34.5885,连云港市,市环境监测站,颗粒物(PM10),60,70,46,29,23,147,,112,112,16,17,8,7,0.5,0.5
2025-04-29T1100,3000A,119.3581,34.6972,连云港市,德源药业,颗粒物(PM10),54,58,48,24,19,143,,79,79,14,24,9,10,0.3,0.3
2025-04-29T1100,3007A,119.178,34.844,连云港市,新城一中,颗粒物(PM10),55,60,55,29,28,142,,82,82,11,25,9,9,0.6,0.6
2025-04-29T1100,3008A,119.3608,34.7519,连云港市,胡沟管理处,颗粒物(PM10),52,53,31,24,16,138,,109,109,19,24,14,14,0.8,0.7
2025-04-29T1100,3009A,119.1478,34.5911,连云港市,矿山设计院,颗粒物(PM10),63,75,52,34,23,136,,112,112,23,23,13,10,0.5,0.5
2025-04-29T1100,3434A,119.2413,34.6539,连云港市,工贸学校,,47,44,48,31,23,148,,120,120,18,18,10,9,0.6,0.5
2025-04-29T1100,3664A,119.4172,34.7341,连云港市,连云街道,颗粒物(PM10),52,54,38,22,16,142,,132,132,18,20,8,9,0.5,0.4
2025-04-29T1100,2571A,102.3431,27.8099,凉山彝族自治州,青龙寺,,26,26,24,6,7,69,,42,42,8,12,4,3,0.6,0.6
2025-04-29T1100,2572A,102.2721,27.8415,凉山彝族自治州,邛海宾馆,,,,27,,16,57,,46,46,20,21,,8,1.8,0.6
2025-04-29T1100,2573A,102.2625,27.898,凉山彝族自治州,西昌市政府,,36,36,25,22,18,61,,49,44,19,14,11,9,0.7,0.6
2025-04-29T1100,2574A,102.2685,27.8851,凉山彝族自治州,凉山州政府,,35,35,28,18,15,63,,51,51,21,18,7,6,0.6,0.6
2025-04-29T1100,4229A,102.2342,27.8859,凉山彝族自治州,凯乐南路30号,,,33,32,19,21,58,,43,43,18,28,11,10,,0.6
2025-04-29T1100,2212A,123.2,41.1953,辽阳市,宏伟区,颗粒物(PM10),74,98,48,28,42,130,,106,106,8,10,8,8,0.5,0.5
2025-04-29T1100,2213A,123.1683,41.2495,辽阳市,新华园,颗粒物(PM10),80,110,66,23,34,124,,94,94,10,18,8,9,0.5,0.5
2025-04-29T1100,2214A,123.2354,41.2639,辽阳市,滨河路,颗粒物(PM10),62,74,49,21,36,119,,96,96,13,17,16,14,0.6,0.5
2025-04-29T1100,2215A,123.149,41.2991,辽阳市,铁西工业园,颗粒物(PM10),101,151,82,24,40,116,,89,89,13,19,12,11,0.6,0.5
2025-04-29T1100,2227A,125.1358,42.8845,辽源市,环保局,,,51,76,19,45,132,,81,81,,26,7,8,0.3,0.5
2025-04-29T1100,3239A,125.0764,42.9078,辽源市,银鹰制药,颗粒物(PM10),61,71,59,26,45,135,,81,81,9,24,6,6,0.4,0.5
2025-04-29T1100,1625A,115.9848,36.4372,聊城市,区政府,颗粒物(PM10),60,70,63,18,19,112,,84,84,18,15,11,8,0.5,0.5
2025-04-29T1100,2878A,116.0072,36.4343,聊城市,聊大东校,,,80,64,34,27,106,,86,83,,13,13,9,0.5,0.4
2025-04-29T1100,3200A,115.9819,36.4978,聊城市,监控中心,颗粒物(PM10),68,85,58,22,16,112,,93,91,19,16,14,9,0.7,0.5
2025-04-29T1100,3513A,116.0445,36.4361,聊城市,九州社区,颗粒物(PM10),51,51,49,18,18,116,,86,86,20,21,9,7,0.5,0.5
2025-04-29T1100,4018A,116.0567,36.4608,聊城市,星美广场,颗粒物(PM10),59,68,55,17,12,111,,87,87,22,21,14,11,0.7,0.6
2025-04-29T1100,2632A,94.3681,29.6376,林芝市,林芝监测站,,30,10,8,3,6,95,,99,92,7,7,4,5,0.2,0.2
2025-04-29T1100,2633A,94.3616,29.6616,林芝市,林芝人民医院,,29,12,11,3,7,90,,92,87,5,5,5,5,0.3,0.3
2025-04-29T1100,2603A,100.0781,23.8982,临沧市,市环保局,,43,39,79,30,52,87,,83,81,10,12,6,10,0.8,0.7
2025-04-29T1100,2604A,100.0894,23.8822,临沧市,市气象局,,,40,67,35,47,,,93,91,,15,7,8,0.6,0.7
2025-04-29T1100,1733A,111.5531,36.0783,临汾市,临钢医院,颗粒物(PM10),69,88,69,38,19,93,,45,45,25,22,15,8,1.2,0.7
2025-04-29T1100,1734A,111.5028,36.0714,临汾市,技工学校,,,75,66,29,21,102,,50,50,,20,,13,1.1,0.5
2025-04-29T1100,1736A,111.5018,36.0855,临汾市,市委,颗粒物(PM10),65,80,67,30,17,103,,58,58,21,20,21,13,1.0,0.4
2025-04-29T1100,3018A,111.505,36.1014,临汾市,唐尧大酒店,颗粒物(PM10),69,88,72,13,16,101,,53,53,21,26,18,9,1.1,0.5
2025-04-29T1100,4244A,111.4879,36.0530,临汾市,启星学校,颗粒物(PM10),69,87,71,39,28,96,,49,49,24,25,22,14,1.2,0.7
2025-04-29T1100,4271A,103.2464,35.6123,临夏回族自治州,滨河东路1号,颗粒物(PM10),72,94,67,36,33,68,,31,31,17,18,4,3,0.4,0.4
2025-04-29T1100,4310A,103.2093,35.5995,临夏回族自治州,新华街21号,细颗粒物(PM2.5),83,111,65,61,38,64,,29,29,26,24,6,3,0.5,0.5
2025-04-29T1100,1618A,118.3429,35.0532,临沂市,沂河小区,颗粒物(PM10),63,75,70,29,34,123,,71,71,12,25,11,14,0.3,0.3
2025-04-29T1100,1619A,118.295,35.0583,临沂市,鲁南制药厂,颗粒物(PM10),60,70,66,31,26,138,,78,78,16,34,8,11,0.4,0.4
2025-04-29T1100,1620A,118.2794,34.9976,临沂市,新光毛纺厂,颗粒物(PM10),67,83,69,39,42,137,,81,81,16,33,9,13,0.3,0.3
2025-04-29T1100,1621A,118.3956,35.0888,临沂市,河东保险公司,颗粒物(PM10),57,63,52,19,20,143,,91,91,12,23,7,10,0.3,0.3
2025-04-29T1100,3370A,118.3564,35.0215,临沂市,十里堡居委,颗粒物(PM10),60,70,67,24,30,134,,71,71,18,37,6,10,0.4,0.4
2025-04-29T1100,3496A,118.3604,35.1084,临沂市,南坊新区,颗粒物(PM10),57,63,65,34,26,126,,85,85,13,23,9,10,0.3,0.3
2025-04-29T1100,3860A,118.3920,35.0300,临沂市,皇山花园小区,颗粒物(PM10),67,83,69,26,30,132,,74,74,17,32,12,14,0.6,0.5
2025-04-29T1100,1870A,109.4856,24.3895,柳州市,柳东小学,,,,44,,24,123,,94,94,,15,,13,0.6,0.5
2025-04-29T1100,1871A,109.4157,24.3277,柳州市,环保监测站,,,44,43,36,23,124,,90,90,,10,,12,0.8,0.7
2025-04-29T1100,1872A,109.389,24.341,柳州市,河西水厂,颗粒物(PM10),55,59,52,32,25,119,,69,69,9,16,10,10,0.4,0.4
2025-04-29T1100,1873A,109.4311,24.2921,柳州市,市四中,颗粒物(PM10),62,74,47,38,20,144,,102,102,15,11,9,8,0.8,0.6
2025-04-29T1100,1874A,109.4006,24.3631,柳州市,市九中,细颗粒物(PM2.5),57,55,49,40,22,123,,78,78,7,11,10,10,0.5,0.5
2025-04-29T1100,1875A,109.4958,24.3134,柳州市,古亭山,颗粒物(PM10),60,70,48,32,23,126,,97,90,14,11,18,13,0.8,0.6
2025-04-29T1100,3402A,109.5422,24.3996,柳州市,市二中,细颗粒物(PM2.5),55,51,40,39,27,124,,61,61,11,19,14,12,0.4,0.4
2025-04-29T1100,2307A,116.5079,31.737,六安市,监测大楼,,47,44,70,10,42,148,,116,116,12,20,6,6,0.4,0.5
2025-04-29T1100,2308A,116.4738,31.7643,六安市,皖西学院,颗粒物(PM10),53,55,79,8,44,153,,98,98,11,19,5,6,0.3,0.5
2025-04-29T1100,2309A,116.4996,31.7905,六安市,朝阳厂,,,52,73,14,42,136,,100,100,16,24,,5,0.3,0.5
2025-04-29T1100,2310A,116.5567,31.7886,六安市,开发区,颗粒物(PM10),51,51,89,34,46,138,,67,67,12,30,6,6,0.4,0.6
2025-04-29T1100,2576A,104.8,26.5892,六盘水市,窑上,,36,36,32,22,22,63,,52,52,11,8,5,6,0.3,0.3
2025-04-29T1100,2577A,104.83,26.5917,六盘水市,黄土坡,,32,29,33,22,19,75,,79,79,19,17,9,11,0.5,0.4
2025-04-29T1100,2578A,104.89,26.5939,六盘水市,水钢,,38,38,39,16,18,81,,90,89,12,13,9,9,0.3,0.3
2025-04-29T1100,2579A,104.8475,26.5894,六盘水市,民中,,38,38,33,14,18,69,,83,83,20,15,9,11,0.4,0.4
2025-04-29T1100,2580A,104.9544,26.5506,六盘水市,双水,,,31,32,6,12,,,93,91,15,13,10,10,0.4,0.4
2025-04-29T1100,2335A,117.0189,25.1181,龙岩市,龙岩师专,,,,,,,,,,,,,,,,
2025-04-29T1100,2336A,117.0217,25.1033,龙岩市,龙岩市监测站,,,49,28,22,13,96,,33,33,12,21,,4,0.6,0.6
2025-04-29T1100,2337A,117.0258,25.0661,龙岩市,闽西职业技术学院,,32,32,36,18,14,95,,39,39,10,16,6,10,0.7,0.7
2025-04-29T1100,2338A,117.0196,25.0306,龙岩市,龙岩学院,,46,46,27,21,14,94,,34,34,14,10,11,9,0.7,0.5
2025-04-29T1100,2665A,105.0822,33.3261,陇南市,汉王镇固水子,,,,,,,,,,,,,,,,
2025-04-29T1100,2885A,104.9339,33.3826,陇南市,滨江中学,,37,37,48,20,23,61,,75,66,12,6,9,8,0.5,0.5
2025-04-29T1100,3247A,104.955,33.371,陇南市,市总工会,,42,42,42,15,19,67,,80,70,12,5,7,6,0.3,0.2
2025-04-29T1100,2487A,111.9589,27.8901,娄底市,电视发射台,细颗粒物(PM2.5),53,51,62,37,29,137,,61,61,8,4,10,5,0.8,0.5
2025-04-29T1100,2488A,111.9975,27.725,娄底市,市监测站,,,,75,52,47,124,,44,44,11,30,10,10,,1
2025-04-29T1100,2489A,112.0194,27.7314,娄底市,市委党校,颗粒物(PM10),60,70,70,37,46,121,,44,44,17,19,4,4,0.6,0.7
2025-04-29T1100,2490A,111.9561,27.7569,娄底市,涟钢,颗粒物(PM10),60,70,69,40,39,131,,48,48,18,15,21,14,0.9,0.4
2025-04-29T1100,2491A,111.9892,27.7044,娄底市,市政府,颗粒物(PM10),54,57,64,31,42,116,,40,40,8,12,5,4,0.5,0.4
2025-04-29T1100,1893A,105.4324,28.9634,泸州市,九狮山,,,,,,,,,,,,,,,,
2025-04-29T1100,1894A,105.4427,28.9063,泸州市,小市上码头,,25,12,57,9,33,77,,63,63,13,21,6,8,0.5,0.7
2025-04-29T1100,1895A,105.4241,28.8573,泸州市,兰田宪桥,,26,,53,18,41,65,,52,52,19,21,7,8,0.5,0.7
2025-04-29T1100,1896A,105.4379,28.8833,泸州市,市环监站,,,,,,,,,,,,,,,,
2025-04-29T1100,4272A,105.3689,28.7783,泸州市,纳溪中医医院,,25,23,60,8,37,79,,52,52,4,23,6,7,0.6,0.8
2025-04-29T1100,2183A,111.1406,37.5211,吕梁市,环保局,颗粒物(PM10),55,59,63,13,14,74,,38,38,32,31,6,3,0.6,0.3
2025-04-29T1100,2185A,111.1297,37.5136,吕梁市,自来水公司,,,,70,,14,72,,23,23,,26,,3,0.8,0.5
2025-04-29T1100,2867A,111.1283,37.51,吕梁市,马茂庄小学,颗粒物(PM10),59,68,64,15,14,73,,30,30,35,36,10,4,0.7,0.3
2025-04-29T1100,1812A,112.3931,34.6516,洛阳市,市委党校,细颗粒物(PM2.5),103,,45,77,19,104,,74,74,11,18,3,5,0.4,0.4
2025-04-29T1100,1815A,112.494,34.6886,洛阳市,河南林校,颗粒物(PM10),52,53,48,13,17,109,,77,77,13,17,5,7,0.3,0.3
2025-04-29T1100,1816A,112.3844,34.623,洛阳市,开发区管委会,,39,39,42,11,18,103,,72,72,17,22,6,6,0.4,0.4
2025-04-29T1100,1817A,112.4267,34.6258,洛阳市,市委新办公区,,36,36,41,13,15,114,,81,81,12,18,5,6,0.3,0.3
2025-04-29T1100,3340A,112.6005,34.6326,洛阳市,伊滨,颗粒物(PM10),54,58,53,17,24,117,,82,82,14,15,7,9,0.4,0.4
2025-04-29T1100,3341A,112.4951,34.6332,洛阳市,中移产业园,,,69,59,,17,117,,87,87,10,17,,7,,0.3
2025-04-29T1100,3593A,112.5736,34.8993,洛阳市,吉利监测站,颗粒物(PM10),56,61,48,15,12,124,,84,84,15,17,11,10,0.4,0.4
2025-04-29T1100,3635A,112.3677,34.662,洛阳市,河科大西苑校区,,42,42,44,10,15,132,,58,58,12,28,7,9,0.3,0.4
2025-04-29T1100,3636A,112.4388,34.6781,洛阳市,英才小学,,49,49,48,13,17,115,,60,60,19,33,5,7,0.6,0.6
2025-04-29T1100,4214A,112.4600,34.6949,洛阳市,春都路1号院,颗粒物(PM10),55,59,68,19,22,119,,51,51,18,32,4,8,0.4,0.6
2025-04-29T1100,2399A,114.051,33.5699,漯河市,三五一五工厂,颗粒物(PM10),53,56,45,23,18,130,,81,81,10,18,7,7,0.6,0.5
2025-04-29T1100,2400A,114.0055,33.5698,漯河市,漯河大学,颗粒物(PM10),57,64,42,24,15,129,,81,81,10,18,7,10,0.4,0.3
2025-04-29T1100,2401A,114.0138,33.5828,漯河市,市水利局,颗粒物(PM10),65,80,40,27,14,132,,86,86,8,13,6,7,0.4,0.3
2025-04-29T1100,2402A,114.0261,33.5698,漯河市,市广电局,颗粒物(PM10),58,66,38,24,15,129,,86,86,6,11,7,7,0.5,0.4
2025-04-29T1100,3478A,113.9749,33.5664,漯河市,市图书馆,,,59,48,18,12,122,,84,84,,20,5,9,0.5,0.4
2025-04-29T1100,4250A,114.0892,33.5882,漯河市,韶山路11号,颗粒物(PM10),52,54,45,13,16,135,,90,90,13,17,5,8,0.4,0.4
2025-04-29T1100,1798A,118.5092,31.6837,马鞍山市,湖东路四小,,,,59,,29,203,,109,109,14,22,,12,0.9,0.7
2025-04-29T1100,1799A,118.5024,31.6449,马鞍山市,开发区,臭氧1小时,102,85,78,31,41,204,,96,96,18,31,10,11,1.0,0.8
2025-04-29T1100,1802A,118.6245,31.7241,马鞍山市,濮塘,臭氧1小时,97,76,61,25,30,197,,115,115,9,14,11,10,0.8,0.7
2025-04-29T1100,3633A,118.4918,31.6809,马鞍山市,雨山,臭氧1小时,99,80,64,40,29,199,,111,111,17,24,12,12,1.3,0.8
2025-04-29T1100,4191A,118.5274,31.72227,马鞍山市,慈湖高新区,臭氧1小时,80,84,67,37,34,184,,98,98,19,25,10,11,1.0,0.8
2025-04-29T1100,1686A,111.0286,21.4688,茂名市,电白南海,颗粒物(PM10),53,56,29,27,19,94,,45,45,12,14,6,3,1.0,0.9
2025-04-29T1100,1687A,110.9294,21.6533,茂名市,茂石化七小,,48,48,35,17,18,69,,32,32,13,17,5,7,0.9,1
2025-04-29T1100,1688A,110.9107,21.6687,茂名市,健康路,,36,36,29,17,18,81,,32,32,9,15,7,10,1.0,0.9
2025-04-29T1100,1689A,110.8592,21.6828,茂名市,高岭,颗粒物(PM10),54,58,41,19,15,79,,26,26,17,14,20,10,0.9,0.8
2025-04-29T1100,3450A,111.01,21.5165,茂名市,电白水东,,44,44,21,14,13,81,,46,45,16,17,5,4,1.1,1
2025-04-29T1100,2539A,104.0308,30.0478,眉山市,黑龙滩水库,,25,,36,17,24,80,,84,84,5,18,1,2,0.3,0.4
2025-04-29T1100,2540A,103.8416,30.0874,眉山市,气象局,,29,29,55,14,30,66,,74,74,19,34,4,6,0.5,0.6
2025-04-29T1100,3137A,103.8578,30.0744,眉山市,市委党校,,22,22,43,12,22,69,,74,74,21,34,6,8,0.2,0.2
2025-04-29T1100,3148A,103.8291,30.0564,眉山市,区人社局,,36,36,37,7,19,64,,78,78,26,36,4,7,0.4,0.4
2025-04-29T1100,1690A,116.1231,24.3284,梅州市,梅江月梅,,36,36,32,19,10,99,,33,33,6,17,6,5,0.7,0.7
2025-04-29T1100,1691A,116.0797,24.2719,梅州市,梅县新城,,35,35,33,15,10,103,,46,46,9,18,6,6,0.7,0.7
2025-04-29T1100,1692A,116.1248,24.2654,梅州市,环境监控中心,,38,38,27,18,12,100,,32,32,10,20,7,9,0.7,0.7
2025-04-29T1100,3315A,116.1233,24.2991,梅州市,梅龙,,,27,28,14,14,95,,35,35,5,10,,7,0.7,0.8
2025-04-29T1100,1878A,104.7778,31.4741,绵阳市,富乐山,,25,22,45,17,20,58,,69,62,18,10,7,7,0.4,0.4
2025-04-29T1100,1880A,104.6697,31.4668,绵阳市,高新区自来水公司,,,25,47,14,18,61,,71,65,,21,4,3,,0.4
2025-04-29T1100,1881A,104.7287,31.5075,绵阳市,三水厂,,,,52,,22,40,,62,53,,22,,6,0.9,0.6
2025-04-29T1100,3491A,104.69,31.5322,绵阳市,西科大附属小学,,35,35,48,15,20,53,,61,53,34,20,6,7,0.7,0.5
2025-04-29T1100,3492A,104.5648,31.5343,绵阳市,安州区旅游局,,37,37,37,14,16,62,,73,59,31,14,12,8,0.3,0.3
2025-04-29T1100,4226A,104.7651,31.4531,绵阳市,绵阳市气象局,,32,32,42,14,20,39,,74,61,44,16,2,2,0.6,0.5
2025-04-29T1100,1784A,129.61,44.561,牡丹江市,环保大楼,细颗粒物(PM2.5),63,47,74,45,56,114,,58,58,13,24,6,6,0.4,0.5
2025-04-29T1100,1785A,129.6115,44.5782,牡丹江市,文化广场,细颗粒物(PM2.5),68,,84,49,61,112,,56,56,15,27,10,10,0.6,0.7
2025-04-29T1100,1786A,129.5904,44.5963,牡丹江市,第一医院,细颗粒物(PM2.5),62,53,67,44,57,116,,63,63,13,15,7,7,0.5,0.5
2025-04-29T1100,1787A,129.6364,44.6075,牡丹江市,机车工厂,细颗粒物(PM2.5),57,59,78,40,55,110,,56,56,12,18,6,26,0.5,0.6
2025-04-29T1100,1788A,129.6386,44.5462,牡丹江市,第一中学,细颗粒物(PM2.5),54,55,69,38,54,122,,59,59,10,19,8,7,0.6,0.6
2025-04-29T1100,2531A,105.0703,29.61,内江市,市监测站,,29,23,49,17,36,92,,88,87,8,22,8,10,0.9,1
2025-04-29T1100,2532A,105.0717,29.5947,内江市,东兴区政府,,25,17,39,8,28,80,,82,78,12,20,10,13,0.6,0.8
2025-04-29T1100,2533A,105.0653,29.5817,内江市,内江二中,,,,55,,36,83,,79,78,,27,,7,0.4,0.6
2025-04-29T1100,2534A,105.0406,29.5822,内江市,内江日报社,,27,19,45,7,34,84,,83,82,6,16,10,12,0.2,0.4
2025-04-29T1100,2628A,92.0657,31.4846,那曲市,那曲监测站,,40,40,30,16,15,107,,99,99,9,10,6,7,0.5,0.5
2025-04-29T1100,4243A,92.0515,31.4787,那曲市,那曲市委宣传部,,39,39,34,18,14,114,,105,105,4,5,7,7,0.3,0.2
2025-04-29T1100,1290A,115.8931,28.6843,南昌市,省外办,细颗粒物(PM2.5),77,73,60,56,45,118,,44,44,28,36,9,6,0.8,0.8
2025-04-29T1100,1291A,115.8886,28.7003,南昌市,省林业公司,颗粒物(PM10),64,78,57,44,36,119,,42,42,19,28,7,7,0.8,0.8
2025-04-29T1100,1292A,115.8126,28.7442,南昌市,林科所,细颗粒物(PM2.5),64,73,51,46,33,141,,56,56,7,36,8,5,0.7,0.5
2025-04-29T1100,1294A,115.8518,28.687,南昌市,建工学校,颗粒物(PM10),71,92,65,46,34,115,,42,42,23,39,8,4,0.9,0.9
2025-04-29T1100,1295A,115.8921,28.6424,南昌市,象湖,细颗粒物(PM2.5),73,77,58,53,38,124,,41,41,20,40,13,7,1.4,1
2025-04-29T1100,1296A,115.7423,28.7996,南昌市,武术学校,颗粒物(PM10),57,63,38,19,17,126,,40,40,11,3,6,3,0.7,0.6
2025-04-29T1100,3046A,115.9084,28.6062,南昌市,机电学校,细颗粒物(PM2.5),73,94,64,53,40,138,,43,43,17,35,10,4,1.1,0.7
2025-04-29T1100,3690A,115.9721,28.7031,南昌市,外国语学校,颗粒物(PM10),64,78,60,38,33,129,,59,59,11,26,10,8,0.7,0.6
2025-04-29T1100,4192A,115.9316,28.68677,南昌市,南京东路235号,细颗粒物(PM2.5),70,77,73,51,44,133,,53,53,21,38,14,10,1.0,1
2025-04-29T1100,1905A,106.056,30.8064,南充市,西山风景区,,25,15,24,10,19,79,,90,82,8,10,3,4,0.4,0.8
2025-04-29T1100,1906A,106.0789,30.8023,南充市,南充市委,,23,23,44,12,26,66,,66,66,16,20,3,4,0.5,0.6
2025-04-29T1100,1907A,106.1031,30.8217,南充市,南充炼油厂,,25,25,47,16,28,71,,68,68,10,18,3,4,0.4,0.5
2025-04-29T1100,4227A,106.1083,30.7884,南充市,梨树横街98号,,23,22,51,13,26,72,,70,70,13,21,2,4,0.2,0.3
2025-04-29T1100,4304A,106.1172,30.843,南充市,清泉寺北路188号,,,37,44,3,22,67,,65,65,,18,,4,,0.4
2025-04-29T1100,4305A,106.067,30.7616,南充市,同庆路1号,,25,25,46,12,28,66,,68,68,18,22,2,4,0.1,0.2
2025-04-29T1100,1151A,118.8086,32.1065,南京市,迈皋桥,臭氧1小时,73,61,46,36,24,178,,94,94,24,37,4,4,0.6,0.3
2025-04-29T1100,1152A,118.7538,32.0551,南京市,草场门,,,,54,39,26,181,,82,82,18,27,4,4,0.4,0.2
2025-04-29T1100,1153A,118.7794,32.0745,南京市,山西路,臭氧1小时,89,88,66,31,26,191,,102,102,22,29,7,7,0.4,0.4
2025-04-29T1100,1154A,118.7752,32.0023,南京市,中华门,臭氧1小时,64,70,59,31,25,171,,84,84,18,28,7,7,0.5,0.4
2025-04-29T1100,1155A,118.8109,32.0309,南京市,瑞金路,臭氧1小时,79,88,63,46,30,183,,89,89,15,19,6,6,0.4,0.5
2025-04-29T1100,1156A,118.7997,32.0754,南京市,玄武湖,,,81,54,,21,165,,90,90,18,14,9,12,,0.5
2025-04-29T1100,1157A,118.6414,32.0931,南京市,浦口,,,,60,,22,,,133,,,24,,7,,0.5
2025-04-29T1100,1158A,118.7356,31.9996,南京市,奥体中心,臭氧1小时,88,81,62,36,27,190,,99,99,18,29,12,12,0.4,0.4
2025-04-29T1100,1159A,118.9125,32.1028,南京市,仙林大学城,臭氧1小时,79,88,61,41,29,183,,89,89,23,30,11,11,0.6,0.5
2025-04-29T1100,3422A,118.8436,31.9198,南京市,江宁彩虹桥,臭氧1小时,85,69,59,39,27,188,,76,76,21,34,3,4,0.5,0.5
2025-04-29T1100,3427A,118.8554,32.3578,南京市,六合雄州,臭氧1小时,92,60,49,36,30,193,,58,58,36,50,17,8,0.8,0.5
2025-04-29T1100,4249A,118.8708,31.3402,南京市,汶溪路181号,臭氧1小时,90,62,57,36,32,192,,100,100,20,20,7,5,0.6,0.7
2025-04-29T1100,4312A,119.019,31.6512,南京市,中山西路1号,臭氧1小时,102,63,47,31,27,203,,102,102,14,26,10,8,0.8,0.6
2025-04-29T1100,1401A,108.3103,22.7881,南宁市,二十一中,,42,42,37,22,19,99,,50,50,10,15,6,5,0.9,0.9
2025-04-29T1100,1402A,108.3141,22.8528,南宁市,北湖,,32,32,39,22,23,99,,38,38,14,23,10,8,0.7,0.7
2025-04-29T1100,1403A,108.3206,22.8225,南宁市,市监测站,,38,38,39,22,21,86,,45,45,18,19,9,7,0.6,0.6
2025-04-29T1100,1404A,108.3829,22.8037,南宁市,大自然花园,,43,43,37,22,19,93,,49,49,18,16,8,6,0.6,0.7
2025-04-29T1100,1405A,108.4394,22.7904,南宁市,仙葫,,44,44,37,30,23,93,,38,38,13,17,6,6,0.7,0.7
2025-04-29T1100,1406A,108.2397,22.8467,南宁市,区农职院,,34,34,36,19,20,101,,42,42,12,17,7,6,0.5,0.6
2025-04-29T1100,1407A,108.3275,22.735,南宁市,英华嘉园,,43,43,34,24,21,93,,49,49,16,19,8,8,0.5,0.6
2025-04-29T1100,3401A,108.4834,22.7618,南宁市,红星社区,,38,36,35,26,23,105,,39,39,9,16,10,9,0.5,0.5
2025-04-29T1100,4221A,108.2177,22.7774,南宁市,乐贤路16号,,38,38,48,23,22,94,,33,33,16,26,7,8,0.5,0.5
2025-04-29T1100,2331A,118.0966,26.6761,南平市,茫荡山,,,,,,,,,,,,,,,,
2025-04-29T1100,2332A,118.1681,26.6369,南平市,南平市监测站,,38,30,30,18,21,121,,44,44,7,16,5,4,0.7,0.7
2025-04-29T1100,2333A,118.1825,26.6489,南平市,南平铝业有限公司,,40,40,37,17,22,121,,43,43,3,14,4,5,0.7,0.8
2025-04-29T1100,2334A,118.1756,26.6272,南平市,南平七中,,45,45,32,20,20,120,,40,40,6,12,5,4,0.7,0.7
2025-04-29T1100,1168A,120.9098,31.9663,南通市,狼山街道,,,,47,,22,118,,39,39,,27,,4,0.4,0.6
2025-04-29T1100,1169A,120.86,32.0005,南通市,虹桥,"颗粒物(PM10),细颗粒物(PM2.5)",52,54,45,36,30,119,,52,52,39,35,5,4,0.8,0.8
2025-04-29T1100,1170A,120.87,32.02,南通市,城中,,,66,54,,21,122,,56,56,29,31,5,5,0.4,0.4
2025-04-29T1100,1171A,120.94,31.93,南通市,星湖花园,颗粒物(PM10),57,63,47,27,25,111,,49,49,33,28,8,4,0.7,0.7
2025-04-29T1100,1172A,120.81,32.0417,南通市,紫琅学院,颗粒物(PM10),57,64,48,30,28,100,,40,40,40,33,9,5,0.8,0.7
2025-04-29T1100,3291A,121.067,32.062,南通市,通州监测站,颗粒物(PM10),53,56,48,17,24,118,,64,64,24,17,10,6,0.4,0.5
2025-04-29T1100,3432A,120.9348,31.9883,南通市,环境教育馆,颗粒物(PM10),71,92,48,27,24,119,,44,44,32,32,7,3,0.3,0.3
2025-04-29T1100,2404A,112.5224,33.0122,南阳市,瓦房庄,颗粒物(PM10),59,68,64,23,17,100,,66,66,21,23,9,6,0.5,0.5
2025-04-29T1100,2405A,112.5003,32.9735,南阳市,汉画馆,颗粒物(PM10),52,54,52,20,19,90,,45,45,19,28,8,6,0.4,0.4
2025-04-29T1100,2406A,112.5573,33.027,南阳市,气象站,颗粒物(PM10),60,70,64,17,18,111,,63,63,14,22,8,6,0.7,0.6
2025-04-29T1100,2407A,112.5481,32.9689,南阳市,理工学院,颗粒物(PM10),57,64,55,24,20,104,,74,74,15,21,7,6,0.5,0.4
2025-04-29T1100,4008A,112.5234,32.9922,南阳市,卧龙区政府,颗粒物(PM10),59,67,58,23,23,98,,61,61,18,23,7,5,0.5,0.5
2025-04-29T1100,1234A,121.8358,29.911,宁波市,区环保大楼,颗粒物(PM10),61,71,33,24,22,41,,50,50,83,38,28,11,0.8,0.6
2025-04-29T1100,1235A,121.56,29.82,宁波市,万里学院,,37,32,35,16,23,118,,46,46,22,34,7,7,0.4,0.4
2025-04-29T1100,1236A,121.713,29.9572,宁波市,龙赛医院,颗粒物(PM10),64,77,50,24,15,77,,40,40,107,41,27,7,1.0,0.6
2025-04-29T1100,1239A,121.633,29.7733,宁波市,钱湖水厂,,,20,40,7,20,127,,59,59,14,28,,9,0.6,0.7
2025-04-29T1100,1240A,121.5856,29.8635,宁波市,太古小学,,39,28,37,13,15,122,,44,44,16,31,7,7,0.5,0.6
2025-04-29T1100,1241A,121.524,29.8674,宁波市,市环境监测中心,,34,28,34,12,16,108,,56,56,24,33,14,15,0.4,0.5
2025-04-29T1100,2871A,121.6147,29.9017,宁波市,万里国际学校,,38,23,4,11,16,119,,44,44,17,41,8,10,0.4,0.5
2025-04-29T1100,3710A,121.5594,29.8975,宁波市,白沙活动中心,,36,25,29,12,16,113,,61,61,23,30,8,9,0.5,0.5
2025-04-29T1100,2339A,119.5001,26.6946,宁德市,金涵水库,,,,,,,,,,,,,,,,
2025-04-29T1100,2341A,119.5388,26.6612,宁德市,宁德市监测站,,49,49,36,17,24,154,,90,90,14,21,9,6,0.5,0.5
2025-04-29T1100,3209A,119.5231,26.6562,宁德市,宁德一中,,50,36,33,19,22,157,,106,106,11,12,10,8,0.3,0.5
2025-04-29T1100,2618A,98.8601,25.8567,怒江傈僳族自治州,州监测站,,32,31,37,22,24,68,,70,63,7,4,6,6,0.3,0.3
2025-04-29T1100,2619A,98.8546,25.8417,怒江傈僳族自治州,泸水一中,,42,42,36,29,23,51,,57,46,11,8,6,6,0.4,0.4
2025-04-29T1100,1888A,101.6891,26.571,攀枝花市,弄弄坪,颗粒物(PM10),61,72,56,34,31,96,,82,82,26,18,14,11,1.1,0.7
2025-04-29T1100,1889A,101.5769,26.5928,攀枝花市,河门口,颗粒物(PM10),60,70,69,34,37,111,,54,54,17,20,12,13,0.8,0.9
2025-04-29T1100,1890A,101.7169,26.585,攀枝花市,炳草岗,颗粒物(PM10),58,65,57,33,30,93,,74,74,26,28,15,13,0.6,0.5
2025-04-29T1100,1891A,101.7369,26.5008,攀枝花市,仁和,"颗粒物(PM10),细颗粒物(PM2.5)",65,79,66,47,37,100,,58,58,21,18,21,13,0.8,0.6
2025-04-29T1100,2835A,101.7227,26.567,攀枝花市,四十中小,,48,48,45,25,24,104,,104,98,22,16,16,11,1.0,0.8
2025-04-29T1100,1604A,122.0303,41.1489,盘锦市,开发区,颗粒物(PM10),85,119,40,35,25,134,,93,93,16,15,9,7,0.5,0.4
2025-04-29T1100,1605A,122.0485,41.0883,盘锦市,兴隆台,颗粒物(PM10),79,108,44,31,24,120,,88,88,18,19,12,10,0.5,0.5
2025-04-29T1100,1606A,121.8297,41.1028,盘锦市,新生街道,,43,39,29,30,20,128,,102,102,19,20,10,9,0.5,0.4
2025-04-29T1100,1832A,113.3257,33.742,平顶山市,新华旅馆,,,63,62,17,21,131,,71,71,12,25,,5,,0.5
2025-04-29T1100,1833A,113.2919,33.737,平顶山市,规划设计院,颗粒物(PM10),58,66,48,19,17,129,,82,82,16,20,7,6,0.4,0.3
2025-04-29T1100,1834A,113.182,33.774,平顶山市,平顶山工学院,颗粒物(PM10),52,54,49,19,16,138,,87,87,11,15,4,4,0.0,0.1
2025-04-29T1100,3204A,113.3025,33.73,平顶山市,规划局,颗粒物(PM10),53,56,49,19,14,128,,77,77,12,18,8,7,0.4,0.4
2025-04-29T1100,3594A,112.8867,33.9116,平顶山市,石龙区,颗粒物(PM10),54,57,70,16,19,137,,69,69,12,29,8,9,0.2,0.3
2025-04-29T1100,2656A,106.6692,35.5461,平凉市,聚贤嘉苑,颗粒物(PM10),96,142,68,31,18,108,,81,81,5,19,14,15,0.4,0.4
2025-04-29T1100,2657A,106.7021,35.5307,平凉市,博物馆,颗粒物(PM10),98,145,73,28,18,107,,80,80,5,17,9,9,0.4,0.5
2025-04-29T1100,2347A,114.0997,27.5002,萍乡市,武功山,,39,39,38,18,21,105,,49,49,6,7,10,11,0.6,0.6
2025-04-29T1100,2348A,113.8385,27.6434,萍乡市,中医院,颗粒物(PM10),67,83,64,42,33,111,,51,51,20,14,21,10,2.0,0.8
2025-04-29T1100,2349A,113.8493,27.6253,萍乡市,市政府车库,细颗粒物(PM2.5),72,66,52,52,39,120,,57,57,15,14,7,5,0.7,0.6
2025-04-29T1100,2350A,113.8676,27.6435,萍乡市,市环保局,,,70,59,44,37,109,,38,38,,15,,5,,0.7
2025-04-29T1100,2351A,113.866,27.6198,萍乡市,安源区政府,颗粒物(PM10),61,71,58,40,36,120,,49,49,10,11,8,6,0.7,0.7
2025-04-29T1100,2319A,119.0141,25.4325,莆田市,荔城区仓后路,,,49,39,15,12,154,,110,110,12,15,6,4,,0.8
2025-04-29T1100,2320A,119.0015,25.4553,莆田市,莆田市监测站,臭氧1小时,52,43,30,15,10,161,,107,107,11,10,5,5,0.4,0.6
2025-04-29T1100,2321A,119.1119,25.4561,莆田市,涵江区六中,,50,44,38,16,16,159,,126,126,15,18,4,5,0.4,0.6
2025-04-29T1100,2322A,119.1013,25.3215,莆田市,秀屿区政府,,48,40,35,12,15,152,,115,115,10,14,5,6,0.5,0.7
2025-04-29T1100,2323A,118.981,25.4792,莆田市,东圳水库,,,,,,,,,,,,,,,,
2025-04-29T1100,2392A,115.0312,35.7636,濮阳市,环保局,颗粒物(PM10),57,63,47,20,15,103,,89,83,21,16,13,9,0.7,0.6
2025-04-29T1100,2394A,115.0574,35.7609,濮阳市,油田运输公司,颗粒物(PM10),57,63,55,24,18,114,,96,91,23,18,13,8,0.8,0.7
2025-04-29T1100,3021A,115,35.7668,濮阳市,濮水河管理处,,,80,58,28,19,106,,79,76,,14,13,7,0.8,0.6
2025-04-29T1100,4216A,115.0924,35.7686,濮阳市,任丘路479号,颗粒物(PM10),58,66,62,23,18,115,,91,88,20,16,13,9,0.8,0.7
2025-04-29T1100,2601A,100.98,22.7633,普洱市,市环保局,,32,32,76,6,41,95,,114,99,10,10,7,9,0.7,0.6
2025-04-29T1100,2602A,100.9817,22.8322,普洱市,普洱第二中学,,41,41,59,26,36,87,,121,104,11,10,7,8,0.7,0.7
2025-04-29T1100,2262A,131.0518,45.8751,七台河市,新一中,,31,18,32,9,22,97,,58,58,9,13,13,11,0.7,0.8
2025-04-29T1100,3345A,131.0577,45.7879,七台河市,中波台,,24,19,39,13,24,76,,36,36,9,27,7,13,0.4,0.7
2025-04-29T1100,3637A,131.0176,45.7761,七台河市,人民广场,,28,22,49,18,35,89,,51,51,11,23,10,10,0.4,0.6
2025-04-29T1100,3684A,130.8781,45.8222,七台河市,新建矿广场,,31,31,56,10,26,77,,34,34,12,26,3,11,0.6,0.6
2025-04-29T1100,1779A,123.9305,47.3636,齐齐哈尔市,安居小区,颗粒物(PM10),190,329,72,39,13,104,,84,84,18,11,7,4,0.5,0.3
2025-04-29T1100,1780A,123.9488,47.3386,齐齐哈尔市,中心广场,颗粒物(PM10),246,382,73,53,16,104,,80,80,18,10,10,8,0.4,0.2
2025-04-29T1100,1781A,123.9483,47.3227,齐齐哈尔市,农牧车辆厂,颗粒物(PM10),196,342,75,28,14,111,,86,86,11,8,7,5,0.3,0.2
2025-04-29T1100,1783A,123.945,47.2988,齐齐哈尔市,市环境监测站,,,,29,,11,,,87,,,6,,2,,0.4
2025-04-29T1100,3662A,123.6333,47.2075,齐齐哈尔市,富区青少年活动中心,,,,112,,23,,,80,,,6,,2,,0.4
2025-04-29T1100,2591A,107.9783,26.5747,黔东南苗族侗族自治州,市环境监测站,,48,48,36,30,24,61,,28,28,24,18,4,3,0.6,0.4
2025-04-29T1100,2881A,107.8908,26.5311,黔东南苗族侗族自治州,凯里学院,,34,34,29,20,19,63,,31,31,12,12,2,2,0.5,0.5
2025-04-29T1100,2593A,107.5228,26.2403,黔南布依族苗族自治州,小围寨,,,29,25,12,15,,,30,22,,10,,2,,0.2
2025-04-29T1100,3538A,107.5175,26.2978,黔南布依族苗族自治州,沙坝,,39,39,34,22,16,53,,26,26,15,12,5,4,0.5,0.4
2025-04-29T1100,2589A,104.9022,25.0925,黔西南布依族苗族自治州,场坝街,,42,39,22,29,12,81,,85,84,12,11,5,3,0.4,0.4
2025-04-29T1100,2590A,104.8811,25.0992,黔西南布依族苗族自治州,坪东大道,,36,27,17,25,16,80,,81,81,13,11,3,3,0.4,0.3
2025-04-29T1100,2502A,108.6236,21.9667,钦州市,市环保站,颗粒物(PM10),54,58,42,27,18,55,,42,35,29,20,5,3,0.8,0.9
2025-04-29T1100,2503A,108.6549,21.9481,钦州市,沙埠小学,,,,46,,24,66,,30,30,,22,12,8,,1
2025-04-29T1100,2504A,108.5989,21.7431,钦州市,港区一小,,46,46,52,22,24,63,,34,34,21,25,9,9,0.8,0.9
2025-04-29T1100,3404A,108.5959,21.9633,钦州市,北职校,颗粒物(PM10),60,70,40,25,22,63,,33,33,22,21,10,8,0.7,0.8
2025-04-29T1100,1043A,119.7493,40.0116,秦皇岛市,第一关,颗粒物(PM10),67,84,40,13,22,90,,75,75,31,31,11,5,0.6,0.3
2025-04-29T1100,1044A,119.5897,39.9499,秦皇岛市,监测站,颗粒物(PM10),60,70,51,26,18,123,,59,59,22,29,18,5,0.8,0.4
2025-04-29T1100,1046A,119.5251,39.9041,秦皇岛市,建设大厦,,,136,59,26,20,114,,70,70,,32,17,5,0.8,0.4
2025-04-29T1100,3132A,119.610547,39.943889,秦皇岛市,文明里,颗粒物(PM10),65,80,49,14,16,97,,55,55,32,31,14,4,0.6,0.3
2025-04-29T1100,4198A,119.5090,39.8253,秦皇岛市,北戴河轮滑馆,,47,47,35,22,19,84,,67,67,22,16,6,3,0.4,0.3
2025-04-29T1100,1307A,120.6659,36.2403,青岛市,仰口,颗粒物(PM10),53,55,59,24,33,126,,111,106,17,17,9,8,0.6,0.5
2025-04-29T1100,1310A,120.4134,36.0658,青岛市,市南区东部子站,,,78,54,27,25,64,,94,84,,24,,8,,0.5
2025-04-29T1100,1311A,120.3664,36.1032,青岛市,四方区子站,颗粒物(PM10),64,78,53,31,26,107,,107,96,33,23,18,12,0.8,0.6
2025-04-29T1100,1312A,120.2994,36.054,青岛市,市南区西部子站,颗粒物(PM10),54,58,47,34,23,58,,93,82,41,32,9,9,0.8,0.7
2025-04-29T1100,1313A,120.4581,36.0858,青岛市,崂山区子站,颗粒物(PM10),54,58,47,27,21,72,,104,94,32,25,11,9,0.6,0.6
2025-04-29T1100,1315A,120.3999,36.3083,青岛市,城阳区子站,颗粒物(PM10),64,78,55,24,21,127,,109,99,30,24,7,6,0.5,0.5
2025-04-29T1100,1966A,120.0405,35.8735,青岛市,黄岛区4号,,,53,37,24,15,,,195,195,54,25,16,10,0.9,0.7
2025-04-29T1100,3362A,120.5014,36.4034,青岛市,即墨2号,颗粒物(PM10),66,81,69,22,30,150,,94,94,19,21,10,10,0.6,0.6
2025-04-29T1100,3642A,120.3503,36.0736,青岛市,市北区南部,颗粒物(PM10),54,57,49,36,21,77,,98,86,28,15,11,8,0.8,0.7
2025-04-29T1100,3643A,120.3948,36.1805,青岛市,李沧区北部,颗粒物(PM10),63,75,56,29,24,98,,101,88,43,28,13,10,0.8,0.7
2025-04-29T1100,4290A,120.1969,35.9546,青岛市,珠江路669号,颗粒物(PM10),71,92,47,39,25,69,,90,83,46,24,19,8,1.0,0.7
2025-04-29T1100,1702A,113.0426,23.691,清远市,环保大楼,,40,30,20,18,11,126,,71,71,17,19,8,8,0.8,0.8
2025-04-29T1100,1703A,113.0208,23.7106,清远市,凤城街办,,40,40,22,19,10,108,,56,56,15,21,9,7,0.6,0.7
2025-04-29T1100,3025A,113.0477,23.6344,清远市,技师学院,,38,38,22,18,11,105,,44,44,14,21,11,9,0.8,0.8
2025-04-29T1100,3318A,112.9903,23.7403,清远市,清新太和,,47,47,21,27,11,96,,65,61,26,14,11,8,0.7,0.6
2025-04-29T1100,3455A,113.076,23.7198,清远市,清城东城,,42,42,23,22,12,109,,55,55,13,15,10,8,0.9,0.9
2025-04-29T1100,2661A,107.6325,35.7357,庆阳市,庆阳五中,颗粒物(PM10),79,107,36,41,18,94,,92,86,5,8,3,5,0.4,0.4
2025-04-29T1100,2662A,107.6364,35.7067,庆阳市,市环保局,颗粒物(PM10),54,57,41,24,12,95,,96,90,5,8,5,7,0.5,0.5
2025-04-29T1100,1916A,103.7897,25.5035,曲靖市,环境监测站,,39,39,30,19,15,72,,86,78,18,13,7,6,0.5,0.4
2025-04-29T1100,1917A,103.8,25.5364,曲靖市,烟厂办公区,,40,40,29,18,14,79,,89,81,12,9,4,4,0.6,0.5
2025-04-29T1100,3376A,103.7947,25.462,曲靖市,南苑二区,,40,40,31,20,19,77,,88,81,15,11,6,6,0.5,0.4
2025-04-29T1100,3377A,103.7444,25.5261,曲靖市,曲靖师范学院,,35,26,26,24,18,79,,87,81,10,9,6,7,0.4,0.4
2025-04-29T1100,1264A,118.8692,28.9398,衢州市,环保大楼,,,95,56,53,33,149,,61,61,,26,6,4,0.7,0.6
2025-04-29T1100,1265A,118.8709,28.9666,衢州市,实验学校,细颗粒物(PM2.5),77,82,47,56,29,152,,70,70,30,32,7,6,0.5,0.5
2025-04-29T1100,1266A,118.8621,28.9808,衢州市,衢州学院,细颗粒物(PM2.5),68,76,48,49,30,157,,63,63,22,32,8,5,0.8,0.6
2025-04-29T1100,1611A,118.5819,24.9117,泉州市,涂山街,臭氧1小时,52,44,34,15,17,161,,115,115,10,11,5,4,0.5,0.6
2025-04-29T1100,1612A,118.5972,24.8978,泉州市,津头埔,臭氧1小时,58,45,33,16,17,166,,129,129,18,18,4,3,0.5,0.7
2025-04-29T1100,1613A,118.6663,24.9424,泉州市,万安,臭氧1小时,65,45,34,13,12,172,,131,131,11,16,5,4,0.6,0.7
2025-04-29T1100,1614A,118.6117,24.9604,泉州市,清源山,,,,,,,,,,,,,,,,
2025-04-29T1100,3529A,118.6333,24.9264,泉州市,城华南路,臭氧1小时,57,33,26,15,15,165,,130,130,11,11,4,4,0.5,0.6
2025-04-29T1100,2626A,88.8876,29.2718,日喀则市,日喀则监测站,,39,21,13,8,6,124,,106,102,6,5,5,5,0.3,0.3
2025-04-29T1100,3726A,88.8781,29.2426,日喀则市,林业技术推广中心,,33,14,18,3,6,105,,90,85,3,3,7,6,0.5,0.5
