timepoint,stationcode,longitude,latitude,area,positionname,primarypollutant,aqi,pm10,pm10_24h,pm2_5,pm2_5_24h,o3,o3_24h,o3_8h,o3_8h_24h,no2,no2_24h,so2,so2_24h,co,co_24h
2025-04-29T0900,2566A,102.1879,31.914,阿坝藏族羌族自治州,州农科所,,25,16,22,8,9,79,,74,74,16,10,11,10,0.6,0.6
2025-04-29T0900,2568A,102.2502,31.8896,阿坝藏族羌族自治州,马师校,,21,12,13,12,12,66,,72,71,16,8,5,5,0.6,0.5
2025-04-29T0900,3994A,102.2165,31.9024,阿坝藏族羌族自治州,马尔康中学西区,,,13,15,12,10,,,92,92,3,4,5,4,0.3,0.3
2025-04-29T0900,2695A,80.292,41.1694,阿克苏地区,电视台,颗粒物(PM10),131,212,272,56,66,43,,46,46,22,20,9,8,0.9,0.7
2025-04-29T0900,2696A,80.2613,41.1551,阿克苏地区,艺术中心,颗粒物(PM10),149,247,307,56,70,53,,37,37,21,30,4,4,0.5,0.6
2025-04-29T0900,2204A,105.6467,38.8363,阿拉善盟,西城区西花园,颗粒物(PM10),119,187,64,51,18,105,,101,101,9,11,6,6,0.6,0.6
2025-04-29T0900,2205A,105.6985,38.8411,阿拉善盟,蒙二幼,颗粒物(PM10),141,232,55,61,17,85,,82,82,9,9,8,7,0.6,0.5
2025-04-29T0900,2206A,105.724,38.8516,阿拉善盟,环保局新楼,颗粒物(PM10),116,181,45,58,16,,,106,105,6,4,8,7,0.6,0.5
2025-04-29T0900,2708A,88.1264,47.8517,阿勒泰地区,市站,,25,24,25,12,7,78,,95,92,15,7,3,3,0.6,0.5
2025-04-29T0900,2630A,80.1161,32.5,阿里地区,阿里监测站,,33,26,19,7,7,104,,114,113,7,5,2,5,0.4,0.4
2025-04-29T0900,3192A,80.0903,32.5028,阿里地区,阿里藏医院,,36,35,44,9,10,114,,118,118,3,3,6,5,0.3,0.3
2025-04-29T0900,2642A,109.0318,32.6537,安康市,香溪洞,,23,23,41,14,13,38,,67,62,19,9,14,11,0.7,0.5
2025-04-29T0900,2644A,109.0072,32.6975,安康市,汉滨区检察院,,,46,41,16,16,,,54,52,17,10,78,13,0.4,0.4
2025-04-29T0900,4054A,109.0325,32.6913,安康市,市邮政管理局,,46,46,45,18,20,49,,49,47,14,13,12,15,0.5,0.4
2025-04-29T0900,2291A,117.0809,30.5177,安庆市,环科院,"颗粒物(PM10),细颗粒物(PM2.5)",63,76,66,45,37,55,,27,24,49,45,5,2,1.1,0.9
2025-04-29T0900,2292A,117.0331,30.5119,安庆市,马山宾馆,细颗粒物(PM2.5),68,54,65,49,40,48,,46,39,45,30,5,5,0.9,0.9
2025-04-29T0900,2294A,116.9896,30.6145,安庆市,安庆大学,,,75,59,44,34,,,42,41,67,24,6,4,0.9,0.7
2025-04-29T0900,3173A,117.0598,30.5351,安庆市,市人大,细颗粒物(PM2.5),83,72,73,61,44,68,,57,57,53,27,8,8,0.9,0.9
2025-04-29T0900,3122A,105.9606,26.2611,安顺市,伍家关,,28,23,30,13,15,87,,100,98,8,8,5,6,0.4,0.4
2025-04-29T0900,3123A,105.9408,26.2431,安顺市,凤凰山,,27,27,26,18,19,83,,92,90,10,8,8,10,0.5,0.4
2025-04-29T0900,3124A,105.9439,26.2564,安顺市,金钟山,,29,27,22,20,18,85,,96,94,10,7,7,8,0.5,0.5
2025-04-29T0900,3125A,105.8983,26.2481,安顺市,娄家坡,,27,27,26,14,18,86,,94,93,10,9,7,9,0.5,0.5
2025-04-29T0900,1818A,114.4839,36.0621,安阳市,棉研所,,,,,,,,,,,,,,,,
2025-04-29T0900,1819A,114.3551,36.1017,安阳市,红庙街,颗粒物(PM10),74,98,77,28,33,67,,57,55,22,11,7,7,0.6,0.5
2025-04-29T0900,1820A,114.361,36.0681,安阳市,银杏小区,颗粒物(PM10),73,95,77,40,24,61,,59,56,31,16,10,9,0.6,0.4
2025-04-29T0900,3141A,114.3922,36.0878,安阳市,信访局,颗粒物(PM10),75,99,91,18,19,83,,71,69,17,18,7,7,0.4,0.3
2025-04-29T0900,3669A,114.4705,36.0637,安阳市,左辅环卫站,颗粒物(PM10),76,102,68,39,20,42,,62,56,42,20,8,7,0.6,0.5
2025-04-29T0900,3703A,114.2917,36.0949,安阳市,安钢职工学校,颗粒物(PM10),64,77,72,21,24,82,,56,56,23,15,8,4,0.6,0.5
2025-04-29T0900,1748A,123.044,41.1196,鞍山市,深沟寺,,41,41,51,19,36,123,,99,99,12,14,9,7,0.7,0.5
2025-04-29T0900,1749A,123.011,41.0931,鞍山市,太阳城,,47,47,54,18,31,105,,87,87,14,12,11,8,1.0,0.7
2025-04-29T0900,1750A,123.0485,41.1442,鞍山市,太平,颗粒物(PM10),56,62,72,17,36,111,,86,86,11,16,13,10,0.8,0.7
2025-04-29T0900,1751A,122.9642,41.0971,鞍山市,铁西三道街,颗粒物(PM10),58,66,70,21,37,113,,82,82,17,26,6,9,0.7,0.9
2025-04-29T0900,1753A,123.022,41.0821,鞍山市,明达新区,,46,46,54,13,25,119,,99,99,10,12,10,8,0.5,0.4
2025-04-29T0900,1754A,123.1289,41.0228,鞍山市,千山,,,,50,,22,,,95,,,9,,5,,0.5
2025-04-29T0900,4201A,122.9446,41.0826,鞍山市,兴盛南路290号,颗粒物(PM10),60,70,74,22,37,110,,80,80,17,31,9,10,0.8,0.8
2025-04-29T0900,2195A,107.4212,40.761,巴彦淖尔市,附二中,颗粒物(PM10),172,293,70,80,20,82,,79,79,11,8,4,3,0.5,0.4
2025-04-29T0900,2196A,107.37,40.7372,巴彦淖尔市,市环保大楼,颗粒物(PM10),233,373,64,72,20,83,,70,70,11,12,,4,0.3,0.3
2025-04-29T0900,1956A,86.1472,41.7538,巴音郭楞蒙古自治州,孔雀公园,颗粒物(PM10),165,280,244,66,53,3,,1,1,50,33,6,6,0.5,0.3
2025-04-29T0900,1957A,86.1972,41.7166,巴音郭楞蒙古自治州,棉纺厂,颗粒物(PM10),181,311,302,62,57,4,,22,18,45,23,3,3,0.5,0.3
2025-04-29T0900,1958A,86.2357,41.7173,巴音郭楞蒙古自治州,经济开发区,颗粒物(PM10),157,263,238,41,43,11,,32,28,45,18,6,6,0.4,0.3
2025-04-29T0900,2914A,106.7677,31.8794,巴中市,苏山坪,颗粒物(PM10),55,59,46,28,19,50,,91,82,27,13,4,4,0.8,0.6
2025-04-29T0900,3181A,106.7768,31.8526,巴中市,市五中,颗粒物(PM10),58,66,51,33,23,26,,28,27,37,23,7,6,0.6,0.4
2025-04-29T0900,3183A,106.7418,31.8654,巴中市,圣泉水务公司,颗粒物(PM10),51,52,48,24,21,13,,50,45,52,27,6,6,0.7,0.5
2025-04-29T0900,3616A,106.7616,31.8344,巴中市,市中心医院,颗粒物(PM10),55,60,50,28,29,36,,27,27,26,24,5,4,0.5,0.5
2025-04-29T0900,2235A,122.7911,45.6077,白城市,洮北区环保局,,,,34,,14,88,,76,76,14,9,3,3,,0.4
2025-04-29T0900,2236A,122.8738,45.5725,白城市,市环保局,颗粒物(PM10),78,105,35,26,18,91,,82,82,9,6,6,4,0.5,0.4
2025-04-29T0900,2231A,126.4219,41.9171,白山市,喜丰,细颗粒物(PM2.5),94,106,87,70,59,72,,37,37,35,29,18,13,1.0,0.9
2025-04-29T0900,2232A,126.4077,41.9419,白山市,环保局,细颗粒物(PM2.5),74,79,68,54,43,76,,53,53,28,18,10,10,0.7,0.6
2025-04-29T0900,2647A,104.1724,36.5446,白银市,第三小学,颗粒物(PM10),54,57,63,20,22,98,,78,78,6,13,9,15,0.6,0.7
2025-04-29T0900,2648A,104.1465,36.5482,白银市,动力公司,细颗粒物(PM2.5),54,54,51,38,22,100,,78,78,7,11,10,15,0.5,0.7
2025-04-29T0900,2512A,106.6103,23.9011,百色市,市监测站,,42,42,32,21,17,23,,16,16,23,20,4,5,0.9,0.7
2025-04-29T0900,2513A,106.6538,23.8859,百色市,市中心血站,,47,47,43,31,22,20,,21,19,27,21,6,7,0.9,0.8
2025-04-29T0900,3406A,106.6085,23.8798,百色市,祈福高中,,30,29,45,21,17,20,,12,12,18,24,5,6,0.7,0.7
2025-04-29T0900,2270A,117.396,32.939,蚌埠市,工人疗养院,颗粒物(PM10),77,103,67,37,25,114,,109,109,31,16,11,7,0.8,0.6
2025-04-29T0900,2271A,117.3605,32.9427,蚌埠市,百货大楼,颗粒物(PM10),74,97,64,37,29,124,,110,110,30,20,10,9,0.8,0.6
2025-04-29T0900,2273A,117.4185,32.8911,蚌埠市,蚌埠学院,颗粒物(PM10),64,78,59,38,27,121,,107,107,20,18,11,6,0.8,0.5
2025-04-29T0900,2274A,117.3533,32.9673,蚌埠市,淮上区政府,颗粒物(PM10),79,107,63,51,29,123,,111,111,29,19,10,7,0.6,0.4
2025-04-29T0900,2275A,117.3145,32.8977,蚌埠市,高新区,,,,57,,30,130,,79,79,34,22,,7,0.8,0.5
2025-04-29T0900,3715A,117.3092,32.9314,蚌埠市,蚌埠田家炳中学,颗粒物(PM10),84,118,72,43,27,125,,84,84,32,23,10,13,0.7,0.4
2025-04-29T0900,1585A,109.8756,40.6532,包头市,市环境监测站,颗粒物(PM10),56,62,48,28,28,54,,18,18,54,40,41,19,2.0,1.1
2025-04-29T0900,1587A,109.9991,40.5842,包头市,包头八中,颗粒物(PM10),66,81,59,29,26,63,,22,22,33,33,57,26,0.9,0.8
2025-04-29T0900,1588A,109.8538,40.6821,包头市,青山宾馆,颗粒物(PM10),65,79,51,39,32,40,,8,8,56,40,41,17,1.8,0.8
2025-04-29T0900,1589A,109.8642,40.6288,包头市,惠龙物流,细颗粒物(PM2.5),69,68,46,50,26,81,,29,29,32,33,51,27,1.8,1
2025-04-29T0900,1590A,110.0377,40.5546,包头市,东河鸿龙湾,颗粒物(PM10),60,70,41,16,11,72,,29,29,16,22,17,14,0.5,0.6
2025-04-29T0900,3283A,109.9154,40.5685,包头市,滨河大厦,,,44,39,7,16,72,,32,32,,23,,21,0.5,0.6
2025-04-29T0900,3419A,109.9447,40.6261,包头市,包头市委党校,,45,45,46,30,15,81,,35,35,33,25,49,22,1.6,0.9
2025-04-29T0900,3683A,109.8331,40.6576,包头市,昆区政府,细颗粒物(PM2.5),90,83,53,67,28,36,,10,10,65,47,36,22,2.1,1.3
2025-04-29T0900,1930A,107.185,34.3063,宝鸡市,庙沟村,,32,32,30,19,21,66,,79,78,10,10,7,8,0.4,0.4
2025-04-29T0900,1931A,107.0708,34.3017,宝鸡市,竹园沟,,37,37,34,16,18,53,,47,46,15,12,8,8,0.4,0.3
2025-04-29T0900,1932A,107.1906,34.3672,宝鸡市,三陆医院,颗粒物(PM10),53,56,43,20,18,48,,45,45,30,25,8,7,0.5,0.4
2025-04-29T0900,1933A,107.1431,34.3547,宝鸡市,监测站,,41,41,45,16,16,43,,45,44,22,16,7,5,0.3,0.3
2025-04-29T0900,1934A,107.1186,34.3739,宝鸡市,技工学校,,43,43,41,19,18,58,,66,64,15,13,12,8,0.6,0.4
2025-04-29T0900,1935A,107.3906,34.3528,宝鸡市,陈仓区环保局家属楼,颗粒物(PM10),59,67,47,21,15,45,,46,46,32,27,10,10,0.6,0.5
2025-04-29T0900,1936A,107.2058,34.3497,宝鸡市,文理学院,颗粒物(PM10),52,53,41,19,16,52,,50,50,26,18,9,8,0.5,0.4
2025-04-29T0900,1937A,107.2386,34.3622,宝鸡市,三迪小学,颗粒物(PM10),53,56,47,22,17,54,,50,50,25,21,8,7,0.6,0.4
2025-04-29T0900,1051A,115.493,38.8632,保定市,游泳馆,颗粒物(PM10),58,66,86,33,35,61,,36,36,33,35,10,6,0.3,0.2
2025-04-29T0900,1052A,115.5213,38.8959,保定市,华电二区,颗粒物(PM10),53,55,65,26,33,58,,29,29,27,29,6,3,0.5,0.4
2025-04-29T0900,1053A,115.4713,38.9108,保定市,接待中心,颗粒物(PM10),56,61,72,34,39,59,,31,31,28,30,5,4,0.9,0.7
2025-04-29T0900,1054A,115.4612,38.8416,保定市,地表水厂,颗粒物(PM10),58,66,85,31,34,59,,36,36,34,34,7,5,0.6,0.4
2025-04-29T0900,3581A,115.31981,38.95208,保定市,满城区生态环境分局,颗粒物(PM10),65,80,81,34,39,62,,38,38,30,32,7,5,0.5,0.4
2025-04-29T0900,3582A,115.47694,38.76408,保定市,清苑区第二中学,颗粒物(PM10),72,94,112,30,40,62,,34,34,34,33,9,6,0.6,0.4
2025-04-29T0900,3583A,115.62909,39.02311,保定市,徐水物探局,颗粒物(PM10),60,69,86,27,29,50,,28,28,29,31,5,3,0.3,0.2
2025-04-29T0900,4004A,115.4202,38.8656,保定市,双鹰农机,细颗粒物(PM2.5),97,,70,72,35,65,,33,33,32,33,12,8,0.4,0.2
2025-04-29T0900,4034A,115.5150,38.8590,保定市,植保所站,颗粒物(PM10),63,75,94,29,40,56,,30,30,26,33,2,2,0.8,0.6
2025-04-29T0900,2594A,99.1678,25.1081,保山市,市环境监测站,,39,30,58,27,34,76,,82,79,9,9,9,10,0.5,0.5
2025-04-29T0900,2595A,99.1711,25.1328,保山市,市环保局,,29,25,59,20,31,90,,93,90,7,7,8,9,0.5,0.5
2025-04-29T0900,1866A,109.2262,21.588,北海市,牛尾岭水库,,,33,22,15,16,17,,17,16,,,8,7,1.1,1.1
2025-04-29T0900,1867A,109.1436,21.4086,北海市,海滩公园,,45,45,31,22,16,49,,50,49,19,14,14,9,0.8,0.7
2025-04-29T0900,1868A,109.0981,21.4661,北海市,新市环保局,,32,32,29,22,17,48,,56,55,22,14,12,7,0.8,0.7
2025-04-29T0900,1869A,109.1778,21.5233,北海市,北海工业园,,49,47,33,34,24,28,,39,36,31,17,18,13,0.9,0.8
2025-04-29T0900,3400A,109.1911,21.4415,北海市,龙潭自来水厂,,44,44,30,23,24,36,,25,25,18,16,13,9,0.6,0.6
2025-04-29T0900,1001A,116.3621,39.8784,北京市,万寿西宫,颗粒物(PM10),57,63,62,30,26,52,,42,42,39,28,17,9,1.1,0.8
2025-04-29T0900,1002A,116.2202,40.2915,北京市,定陵,,,,,,,,,,,,,,,,
2025-04-29T0900,1003A,116.4174,39.9289,北京市,东四,颗粒物(PM10),55,60,69,26,22,59,,42,42,34,28,15,7,0.8,0.6
2025-04-29T0900,1004A,116.4072,39.8863,北京市,天坛,颗粒物(PM10),53,56,57,27,24,54,,38,38,41,31,15,5,1.0,0.7
2025-04-29T0900,1005A,116.462,39.9365,北京市,农展馆,颗粒物(PM10),57,63,72,26,23,50,,29,29,38,34,21,11,0.9,0.6
2025-04-29T0900,1006A,116.3392,39.9295,北京市,官园,颗粒物(PM10),59,67,79,26,32,45,,34,34,42,27,13,7,0.7,0.5
2025-04-29T0900,1007A,116.2878,39.9611,北京市,海淀万柳,颗粒物(PM10),58,66,66,30,23,46,,19,19,33,30,10,6,0.6,0.6
2025-04-29T0900,1008A,116.6636,40.135,北京市,顺义新城,颗粒物(PM10),57,64,68,25,22,70,,38,38,18,22,15,11,0.6,0.6
2025-04-29T0900,1009A,116.6275,40.3275,北京市,怀柔镇,颗粒物(PM10),58,66,69,35,29,51,,48,48,31,18,6,6,0.6,0.5
2025-04-29T0900,1010A,116.2296,40.217,北京市,昌平镇,颗粒物(PM10),55,60,63,25,18,59,,47,47,24,18,5,3,0.3,0.2
2025-04-29T0900,1011A,116.3966,39.9821,北京市,奥体中心,颗粒物(PM10),53,55,55,27,22,48,,28,28,43,36,10,6,0.5,0.4
2025-04-29T0900,3281A,115.9718,40.4529,北京市,延庆夏都,颗粒物(PM10),62,74,58,34,23,69,,41,41,24,22,4,4,0.6,0.4
2025-04-29T0900,3418A,116.8336,40.4095,北京市,密云新城,颗粒物(PM10),55,59,70,29,25,65,,31,31,17,19,7,6,0.5,0.5
2025-04-29T0900,3671A,116.088,39.9726,北京市,门头沟三家店,,,,54,,20,,,25,,,24,,3,,0.2
2025-04-29T0900,3672A,116.1541,39.8204,北京市,丰台云岗,颗粒物(PM10),61,71,74,24,30,48,,20,20,35,29,9,4,0.6,0.5
2025-04-29T0900,3673A,116.6804,39.9081,北京市,通州东关,细颗粒物(PM2.5),65,74,85,47,41,59,,38,38,34,31,18,10,0.7,0.7
2025-04-29T0900,3674A,115.9577,39.7603,北京市,房山燕山,颗粒物(PM10),65,80,76,37,31,68,,34,34,36,27,7,6,0.5,0.4
2025-04-29T0900,3675A,116.4672,39.7733,北京市,大兴旧宫,颗粒物(PM10),56,62,69,29,24,57,,36,36,28,25,11,4,0.8,0.4
2025-04-29T0900,3694A,115.986,40.4563,北京市,延庆石河营,颗粒物(PM10),61,72,59,32,21,64,,40,40,21,18,3,3,0.5,0.5
2025-04-29T0900,3695A,116.6151,40.3053,北京市,怀柔新城,,48,48,58,29,31,66,,55,55,15,15,5,4,0.6,0.5
2025-04-29T0900,3696A,116.2545,39.8768,北京市,丰台小屯,,49,49,50,30,23,44,,28,28,44,33,10,4,0.7,0.4
2025-04-29T0900,3697A,116.84,40.3844,北京市,密云镇,细颗粒物(PM2.5),67,61,57,48,20,57,,24,24,25,23,8,8,0.5,0.5
2025-04-29T0900,4182A,116.1942,39.9158,北京市,八角北路9号,颗粒物(PM10),57,64,76,37,28,54,,21,21,37,41,10,6,0.6,0.5
2025-04-29T0900,4194A,117.0790,40.1518,北京市,洳河巡河路,颗粒物(PM10),52,53,51,29,24,69,,53,50,16,16,5,5,0.5,0.5
2025-04-29T0900,1761A,123.8275,41.3064,本溪市,大峪,,,62,74,27,44,,,30,30,,27,,7,0.7,0.7
2025-04-29T0900,1762A,123.7567,41.3325,本溪市,溪湖,颗粒物(PM10),57,63,78,27,53,109,,39,39,15,27,10,7,0.9,0.9
2025-04-29T0900,1763A,123.7169,41.3094,本溪市,彩屯,颗粒物(PM10),61,71,81,37,51,100,,44,44,30,31,24,12,2.4,1.7
2025-04-29T0900,1764A,123.7669,41.2864,本溪市,东明,颗粒物(PM10),74,97,80,28,46,113,,45,45,13,29,7,6,0.6,0.7
2025-04-29T0900,1765A,123.7992,41.2664,本溪市,新立屯,颗粒物(PM10),71,92,67,22,45,117,,72,72,13,36,8,6,0.8,0.8
2025-04-29T0900,1766A,123.8142,41.3472,本溪市,威宁,颗粒物(PM10),70,89,94,42,51,73,,42,42,26,25,8,5,0.8,0.8
2025-04-29T0900,2587A,105.2864,27.3125,毕节市,八中,,,51,33,37,23,,,24,23,26,12,7,5,0.9,0.6
2025-04-29T0900,2588A,105.31,27.2944,毕节市,师专,颗粒物(PM10),54,57,36,36,27,17,,26,24,32,15,9,7,0.9,0.6
2025-04-29T0900,4263A,105.3688,27.3598,毕节市,工业大道,,49,49,33,32,23,25,,23,22,30,19,11,7,0.9,0.7
2025-04-29T0900,1629A,118.0018,37.3617,滨州市,第二水厂,细颗粒物(PM2.5),98,107,85,73,37,77,,23,23,30,35,10,13,0.7,0.7
2025-04-29T0900,1630A,117.9776,37.393,滨州市,北中新校,颗粒物(PM10),56,61,62,17,29,98,,34,34,28,36,10,12,0.6,0.6
2025-04-29T0900,3514A,117.9378,37.3956,滨州市,中海酒店,颗粒物(PM10),53,56,54,22,32,107,,47,47,24,30,16,13,0.7,0.7
2025-04-29T0900,3515A,117.9378,37.3553,滨州市,开发区一中,,,85,80,29,31,,,24,22,29,39,12,10,0.5,0.6
2025-04-29T0900,3516A,118.0917,37.694,滨州市,金海六路,颗粒物(PM10),74,98,68,29,23,80,,51,51,46,26,16,16,0.5,0.3
2025-04-29T0900,4028A,117.9956,37.3753,滨州市,滨州市西街道办事处,颗粒物(PM10),59,68,70,22,35,93,,32,32,27,33,9,10,0.6,0.7
2025-04-29T0900,2311A,115.8072,33.8399,亳州市,污水处理厂,颗粒物(PM10),63,76,36,26,13,120,,96,96,20,16,8,9,0.7,0.2
2025-04-29T0900,2312A,115.7789,33.8518,亳州市,三国揽胜宫,颗粒物(PM10),51,51,38,21,10,122,,101,101,17,14,9,12,0.4,0.2
2025-04-29T0900,3332A,115.7633,33.8034,亳州市,亳州学院,颗粒物(PM10),61,71,37,20,11,110,,91,91,21,17,12,12,1.4,0.3
2025-04-29T0900,2693A,82.0485,44.8556,博尔塔拉蒙古自治州,市党校,颗粒物(PM10),54,58,54,23,20,41,,60,55,42,42,5,4,0.6,0.7
2025-04-29T0900,2694A,82.0806,44.8969,博尔塔拉蒙古自治州,市环保局,颗粒物(PM10),62,74,69,18,17,35,,51,48,20,19,2,3,0.7,0.7
2025-04-29T0900,1071A,116.8842,38.2991,沧州市,沧县城建局,,,76,76,26,39,,,50,50,,31,8,7,0.4,0.4
2025-04-29T0900,1072A,116.8584,38.3254,沧州市,电视转播站,颗粒物(PM10),60,69,71,31,42,67,,49,49,25,30,7,9,0.3,0.3
2025-04-29T0900,1073A,116.8709,38.3228,沧州市,市环保局,颗粒物(PM10),58,66,77,34,41,74,,52,52,24,29,8,10,0.4,0.4
2025-04-29T0900,3324A,116.8136,38.3004,沧州市,河北水利电力学院,颗粒物(PM10),67,83,73,25,32,72,,54,54,24,27,11,11,0.3,0.4
2025-04-29T0900,2622A,97.1806,31.1273,昌都市,昌都监测站,,30,,4,6,6,96,,110,107,4,3,3,3,0.4,0.4
2025-04-29T0900,3719A,97.1714,31.1406,昌都市,昌都会议中心,,30,,7,9,6,93,,111,108,8,4,3,3,0.2,0.2
2025-04-29T0900,2690A,88.1236,43.8886,昌吉回族自治州,天山天池,,27,27,17,16,6,54,,63,62,6,5,6,5,0.6,0.5
2025-04-29T0900,2692A,87.2717,44.0297,昌吉回族自治州,新区政务中心,颗粒物(PM10),67,84,37,13,8,73,,67,67,13,17,7,6,0.2,0.3
2025-04-29T0900,3613A,87.3095,44.0142,昌吉回族自治州,亚心广场,颗粒物(PM10),91,132,52,17,15,69,,60,60,17,23,8,9,0.3,0.4
2025-04-29T0900,1119A,125.3325,43.9166,长春市,食品厂,细颗粒物(PM2.5),67,81,56,48,40,101,,75,75,19,26,10,8,0.5,0.5
2025-04-29T0900,1120A,125.2863,43.9027,长春市,客车厂,颗粒物(PM10),64,77,50,43,38,101,,81,81,19,25,7,6,0.5,0.4
2025-04-29T0900,1121A,125.2841,43.8463,长春市,邮电学院,"颗粒物(PM10),细颗粒物(PM2.5)",59,67,38,42,40,104,,77,77,19,19,8,6,0.6,0.5
2025-04-29T0900,1122A,125.3716,43.8772,长春市,劳动公园,颗粒物(PM10),61,71,55,43,38,105,,78,78,19,18,9,7,0.5,0.3
2025-04-29T0900,1123A,125.3297,43.8805,长春市,园林处,细颗粒物(PM2.5),65,78,62,47,39,98,,75,75,18,20,9,7,0.6,0.5
2025-04-29T0900,1124A,125.4605,43.79,长春市,净月潭,颗粒物(PM10),64,77,52,45,36,100,,82,82,12,9,8,6,0.4,0.3
2025-04-29T0900,1125A,125.7194,43.515,长春市,甩湾子,,,,,,,,,,,,,,,,
2025-04-29T0900,1126A,125.3863,43.8447,长春市,经开区环卫处,颗粒物(PM10),69,88,66,45,36,100,,73,73,21,23,10,7,0.6,0.5
2025-04-29T0900,1127A,125.245,43.7783,长春市,高新区管委会,"颗粒物(PM10),细颗粒物(PM2.5)",55,59,49,39,39,98,,70,70,15,19,10,8,0.4,0.3
2025-04-29T0900,1128A,125.1761,43.8325,长春市,岱山公园,颗粒物(PM10),64,77,53,42,37,105,,78,78,17,27,6,5,0.6,0.6
2025-04-29T0900,1335A,113.0833,28.2325,长沙市,经开区环保局,细颗粒物(PM2.5),73,82,78,53,45,62,,50,48,26,31,6,6,0.7,0.7
2025-04-29T0900,1336A,112.8872,28.2189,长沙市,高开区环保局,细颗粒物(PM2.5),100,87,79,75,50,61,,30,30,33,33,7,6,1.1,1
2025-04-29T0900,1337A,113.0792,28.2053,长沙市,马坡岭,细颗粒物(PM2.5),70,69,80,51,49,57,,20,20,18,36,4,4,0.6,0.6
2025-04-29T0900,1338A,112.9394,28.19,长沙市,湖南师范大学,细颗粒物(PM2.5),87,86,70,64,36,51,,46,44,41,23,3,2,0.7,0.6
2025-04-29T0900,1339A,113.0178,28.1322,长沙市,雨花区环保局,细颗粒物(PM2.5),89,83,79,66,47,76,,28,28,28,34,5,4,0.6,0.6
2025-04-29T0900,1340A,112.9792,28.2597,长沙市,伍家岭,细颗粒物(PM2.5),95,99,89,71,47,59,,14,14,40,39,5,3,0.8,0.7
2025-04-29T0900,1341A,113.0014,28.1944,长沙市,火车新站,细颗粒物(PM2.5),73,86,84,53,46,72,,25,25,33,36,8,7,0.8,0.8
2025-04-29T0900,1342A,112.9844,28.1178,长沙市,天心区环保局,细颗粒物(PM2.5),83,84,80,61,41,54,,33,33,39,38,4,3,0.9,0.8
2025-04-29T0900,1343A,112.8908,28.1308,长沙市,湖南中医药大学,颗粒物(PM10),58,66,67,40,47,66,,18,18,28,32,5,2,0.8,0.8
2025-04-29T0900,1344A,112.9581,28.3611,长沙市,沙坪,颗粒物(PM10),64,77,55,30,33,53,,69,58,25,12,7,6,0.7,0.6
2025-04-29T0900,1727A,113.1147,36.1547,长治市,清华站,颗粒物(PM10),58,66,51,22,16,113,,64,64,16,20,8,10,0.6,0.6
2025-04-29T0900,1730A,113.0886,36.2125,长治市,审计局,颗粒物(PM10),57,63,45,17,14,104,,82,81,27,22,13,14,0.6,0.5
2025-04-29T0900,1731A,113.0844,36.1856,长治市,长治八中,颗粒物(PM10),66,82,51,32,20,104,,76,75,24,20,12,13,0.8,0.6
2025-04-29T0900,2845A,113.1569,36.1911,长治市,德盛苑,,41,41,36,12,14,116,,115,115,13,11,8,9,0.7,0.6
2025-04-29T0900,3568A,113.06,36.0464,长治市,向阳小学,颗粒物(PM10),58,65,59,20,17,114,,95,95,18,17,13,14,0.3,0.3
2025-04-29T0900,3569A,112.8792,36.3144,长治市,屯留一中,,50,50,44,13,13,86,,72,70,25,13,9,9,0.7,0.5
2025-04-29T0900,4189A,113.1131,36.19948,长治市,英华南巷50号,颗粒物(PM10),58,65,47,22,17,111,,86,86,24,22,11,11,0.7,0.5
2025-04-29T0900,4190A,113.2367,36.3344,长治市,学府街1号,颗粒物(PM10),61,72,68,27,26,119,,64,64,22,29,12,17,0.7,0.9
2025-04-29T0900,1854A,111.6975,28.9703,常德市,市二中,细颗粒物(PM2.5),62,62,75,44,46,54,,55,51,30,17,8,10,1.3,0.8
2025-04-29T0900,1857A,111.7158,29.1456,常德市,白鹤山,,,,,,,,,,,,,,,,
2025-04-29T0900,3138A,111.7153,29.0289,常德市,武陵区永安,颗粒物(PM10),64,78,84,42,43,69,,57,55,23,20,13,5,0.7,0.6
2025-04-29T0900,3139A,111.6892,28.9881,常德市,鼎城区玉霞,细颗粒物(PM2.5),59,58,79,42,45,58,,38,38,18,18,6,7,0.7,0.7
2025-04-29T0900,3140A,111.6625,29.0531,常德市,武陵区长庚,颗粒物(PM10),63,76,79,39,40,73,,56,56,17,19,16,9,0.8,0.8
2025-04-29T0900,1196A,119.9633,31.762,常州市,市监测站,颗粒物(PM10),61,72,82,38,37,96,,52,52,19,25,18,10,0.8,0.8
2025-04-29T0900,1200A,119.9468,31.7069,常州市,武进监测站,颗粒物(PM10),55,60,69,22,28,108,,69,69,30,33,19,19,0.7,0.8
2025-04-29T0900,1201A,119.9255,31.9087,常州市,安家,颗粒物(PM10),55,59,77,29,34,109,,47,47,22,38,15,12,0.4,0.4
2025-04-29T0900,3002A,119.9805,31.8174,常州市,行政中心,颗粒物(PM10),55,60,68,29,35,99,,63,63,23,28,22,17,0.5,0.6
2025-04-29T0900,3003A,120.0522,31.7748,常州市,经开区,颗粒物(PM10),54,58,67,27,30,105,,61,61,27,35,12,12,0.6,0.7
2025-04-29T0900,3010A,119.9025,31.7964,常州市,钟楼,颗粒物(PM10),56,62,70,28,35,106,,68,68,22,22,10,10,0.5,0.5
2025-04-29T0900,3429A,119.8598,31.7066,常州市,武进经发区,颗粒物(PM10),55,60,68,24,34,99,,59,59,22,30,14,12,0.8,0.7
2025-04-29T0900,3430A,119.5826,31.7245,常州市,金坛城区,,50,50,60,25,26,107,,70,70,25,24,24,11,0.7,0.6
2025-04-29T0900,2220A,120.4318,41.5881,朝阳市,西梁,颗粒物(PM10),66,81,39,29,19,108,,76,76,20,13,14,7,1.0,0.5
2025-04-29T0900,2221A,120.4521,41.5646,朝阳市,河畔小区,,,,38,,17,122,,87,87,14,9,,8,,0.3
2025-04-29T0900,2222A,120.4176,41.5648,朝阳市,八里堡,颗粒物(PM10),74,97,44,25,18,108,,76,76,20,13,16,8,0.9,0.3
2025-04-29T0900,2223A,120.3806,41.5969,朝阳市,农业园区,颗粒物(PM10),64,78,38,41,27,112,,72,72,14,14,12,8,0.7,0.5
2025-04-29T0900,1705A,116.6367,23.6719,潮州市,西园路,,27,19,28,8,18,84,,58,58,9,10,4,4,0.7,0.7
2025-04-29T0900,3026A,116.6183,23.6608,潮州市,市政府,,33,33,34,13,17,82,,61,61,8,9,3,6,0.8,0.7
2025-04-29T0900,4036A,116.6461,23.6761,潮州市,金山,,41,41,30,11,16,67,,53,52,16,11,7,7,0.7,0.7
2025-04-29T0900,2472A,113.0073,25.9061,郴州市,马头岭,,49,49,34,3,9,3,,3,2,20,15,9,7,0.6,0.5
2025-04-29T0900,2473A,113.0116,25.8226,郴州市,市职中,细颗粒物(PM2.5),52,50,41,36,28,22,,12,12,18,13,7,2,0.9,0.8
2025-04-29T0900,2475A,113.0383,25.8071,郴州市,市审计局,,45,44,36,31,26,38,,14,14,19,15,6,3,0.7,0.7
2025-04-29T0900,2476A,113.0348,25.7759,郴州市,市环保局,,50,50,44,34,25,37,,9,9,21,21,6,3,0.7,0.7
2025-04-29T0900,4252A,113.0138,25.8011,郴州市,好美居路49号,颗粒物(PM10),56,61,40,37,25,21,,10,10,22,17,8,4,1.0,0.8
2025-04-29T0900,1431A,103.9728,30.7236,成都市,金泉两河,,26,26,51,17,18,56,,61,60,18,18,2,3,0.7,0.7
2025-04-29T0900,1432A,104.176,30.6872,成都市,十里店,,28,28,52,15,22,67,,69,69,20,24,3,4,0.6,0.7
2025-04-29T0900,1433A,104.079,30.5706,成都市,三瓦窑,,29,29,51,16,26,77,,82,82,22,33,4,5,0.5,0.6
2025-04-29T0900,1434A,104.1114,30.63,成都市,沙河铺,,22,20,50,11,25,70,,71,71,18,23,6,7,0.5,0.5
2025-04-29T0900,1437A,104.0786,30.6531,成都市,君平街,,39,30,48,27,26,59,,57,57,19,25,6,7,0.5,0.6
2025-04-29T0900,1438A,103.613,31.0283,成都市,灵岩寺,,,,,,,,,,,,,,,,
2025-04-29T0900,2880A,104.0239,30.65639,成都市,大石西路,,32,32,53,12,25,78,,75,75,16,25,5,5,0.4,0.4
2025-04-29T0900,3136A,104.2725,30.5589,成都市,龙泉驿区区政府,,,12,43,7,24,,,65,65,,23,,5,,0.7
2025-04-29T0900,3357A,104.0106,30.6931,成都市,金博路,,24,24,38,8,16,68,,64,64,16,20,7,8,0.3,0.4
2025-04-29T0900,3359A,104.0578,30.5225,成都市,华阳,,25,22,52,17,36,67,,72,72,24,34,4,6,0.2,0.3
2025-04-29T0900,3488A,104.3853,30.7453,成都市,青白江技师分院,,33,33,59,16,32,78,,78,78,21,38,3,2,0.2,0.3
2025-04-29T0900,3489A,104.0789,30.4072,成都市,科学城,,23,22,62,14,41,71,,72,72,17,31,3,5,0.3,0.5
2025-04-29T0900,4011A,103.8506,30.6947,成都市,光华大道三段,,21,12,39,11,21,66,,73,71,16,18,2,5,0.6,0.6
2025-04-29T0900,4224A,104.2433,30.5353,成都市,鲸龙路1057号,,23,20,56,7,32,71,,71,71,28,36,4,5,0.8,0.7
2025-04-29T0900,1062A,117.9531,40.9081,承德市,铁路,,38,38,36,3,14,75,,55,55,25,17,7,6,0.5,0.4
2025-04-29T0900,1063A,117.9392,40.9763,承德市,中国银行,细颗粒物(PM2.5),60,67,40,43,16,66,,45,45,18,11,5,4,0.5,0.4
2025-04-29T0900,1064A,117.9503,40.928,承德市,开发区,,47,47,31,20,18,78,,59,59,24,14,8,6,0.5,0.4
2025-04-29T0900,1065A,117.8051,40.9655,承德市,文化中心,颗粒物(PM10),63,76,42,38,16,87,,55,55,22,16,34,17,0.7,0.5
2025-04-29T0900,1066A,117.9268,41.0026,承德市,离宫,,39,39,33,23,21,88,,54,54,14,10,2,3,0.4,0.3
2025-04-29T0900,2314A,117.47,30.6618,池州市,池州学院,颗粒物(PM10),59,67,69,40,40,112,,83,83,15,16,7,6,0.7,0.7
2025-04-29T0900,3237A,117.4918,30.6617,池州市,展览馆,细颗粒物(PM2.5),62,65,67,44,39,113,,72,72,18,18,7,6,0.9,0.7
2025-04-29T0900,3333A,117.5627,30.695,池州市,第八中学,颗粒物(PM10),63,76,72,37,38,95,,79,79,15,21,35,8,0.8,0.6
2025-04-29T0900,3334A,117.5038,30.6243,池州市,第十二中学,颗粒物(PM10),65,80,70,45,40,106,,58,58,20,24,6,4,1.1,0.9
2025-04-29T0900,1744A,118.9233,42.2816,赤峰市,松山一中,颗粒物(PM10),54,57,30,13,9,89,,80,80,20,20,11,11,0.4,0.4
2025-04-29T0900,1745A,118.9576,42.2728,赤峰市,哈达街,,49,49,30,20,9,93,,76,76,22,18,11,11,0.6,0.6
2025-04-29T0900,1746A,118.8788,42.2554,赤峰市,天义路,颗粒物(PM10),52,54,24,24,13,97,,91,91,18,15,7,9,0.4,0.4
2025-04-29T0900,3058A,119.2658,42.0353,赤峰市,银河街,颗粒物(PM10),71,92,49,29,20,82,,56,56,17,15,19,18,0.6,0.7
2025-04-29T0900,3286A,118.9359,42.3147,赤峰市,桥北物流园区,,46,46,29,13,15,85,,73,73,21,21,8,14,0.7,0.7
2025-04-29T0900,2521A,107.3476,22.4136,崇左市,市环保局江州分局,,36,36,31,20,16,40,,31,31,17,14,6,6,0.6,0.6
2025-04-29T0900,4256A,107.3750,22.3736,崇左市,石景林东路7号,,40,40,28,25,10,60,,30,30,20,14,7,4,0.7,0.5
2025-04-29T0900,2298A,118.3093,32.3153,滁州市,老年大学,颗粒物(PM10),64,77,52,42,26,130,,52,52,25,22,8,4,0.7,0.4
2025-04-29T0900,2299A,118.3244,32.2786,滁州市,人大宾馆,颗粒物(PM10),68,85,52,46,27,112,,66,66,39,24,16,10,0.7,0.4
2025-04-29T0900,3207A,118.3118,32.3038,滁州市,市政府原办公楼,颗粒物(PM10),61,71,47,42,29,125,,60,60,24,20,11,7,0.7,0.4
2025-04-29T0900,3331A,118.3267,32.2634,滁州市,图书馆,细颗粒物(PM2.5),75,86,61,55,33,112,,71,71,33,19,16,10,1.0,0.6
2025-04-29T0900,2605A,101.5482,25.0441,楚雄彝族自治州,州环境监测站,细颗粒物(PM2.5),65,47,62,47,44,101,,112,110,9,14,5,8,0.7,0.6
2025-04-29T0900,2606A,101.538,25.0492,楚雄彝族自治州,市经济开发区,细颗粒物(PM2.5),59,47,67,42,44,96,,107,106,11,15,7,9,0.8,0.8
2025-04-29T0900,2548A,107.5277,31.2827,达州市,达州职业技术学院,颗粒物(PM10),67,84,63,37,29,15,,14,13,39,29,8,6,0.7,0.5
2025-04-29T0900,2549A,107.5086,31.2186,达州市,市环境监测站,颗粒物(PM10),58,65,61,29,27,20,,16,16,48,39,8,5,0.5,0.4
2025-04-29T0900,2550A,107.4988,31.2132,达州市,凤凰小区,颗粒物(PM10),59,68,56,41,29,28,,26,26,45,39,10,8,0.6,0.5
2025-04-29T0900,2551A,107.5082,31.1986,达州市,达县机关宾馆,颗粒物(PM10),59,68,62,33,28,15,,20,20,47,44,7,6,0.6,0.5
2025-04-29T0900,2552A,107.4644,31.2124,达州市,市政中心,颗粒物(PM10),70,89,63,36,27,11,,12,12,50,41,4,3,0.6,0.5
2025-04-29T0900,2614A,100.1542,25.7054,大理白族自治州,大理市环境监测站,,43,,51,30,31,115,,124,122,9,8,7,8,0.3,0.3
2025-04-29T0900,2615A,100.2171,25.5811,大理白族自治州,大理古城,,27,21,53,16,32,86,,113,110,17,10,8,9,0.7,0.6
2025-04-29T0900,1109A,121.612,38.9741,大连市,甘井子,,50,48,39,35,27,115,,68,68,30,31,9,7,0.4,0.4
2025-04-29T0900,1110A,121.565,38.9511,大连市,周水子,颗粒物(PM10),52,54,43,25,27,100,,60,60,30,31,8,6,0.4,0.4
2025-04-29T0900,1111A,121.5637,38.8845,大连市,星海三站,,43,41,35,30,22,88,,60,60,27,23,6,4,0.3,0.3
2025-04-29T0900,1112A,121.6302,38.9117,大连市,青泥洼桥,,48,48,46,27,24,127,,83,83,14,24,8,6,0.4,0.4
2025-04-29T0900,1113A,121.6251,38.8638,大连市,傅家庄,,42,40,34,29,21,106,,68,68,25,27,11,9,0.3,0.3
2025-04-29T0900,1114A,121.5213,38.8661,大连市,七贤岭,,48,48,36,30,21,112,,70,70,23,14,8,6,0.7,0.6
2025-04-29T0900,1115A,121.2529,38.8061,大连市,旅顺,细颗粒物(PM2.5),55,48,33,39,24,70,,50,50,44,32,7,6,0.4,0.3
2025-04-29T0900,1116A,121.7485,39.1311,大连市,金州,颗粒物(PM10),56,61,41,34,23,135,,99,99,17,21,7,6,0.3,0.3
2025-04-29T0900,1117A,121.7811,39.0496,大连市,开发区,,45,44,36,31,23,101,,60,60,21,25,6,4,0.7,0.6
2025-04-29T0900,1118A,121.9762,39.0631,大连市,双D港,,48,48,42,29,22,106,,68,68,23,20,12,9,0.4,0.3
2025-04-29T0900,1789A,124.81117,46.03138,大庆市,大同区,颗粒物(PM10),104,158,46,45,25,86,,71,71,13,8,8,5,0.7,0.5
2025-04-29T0900,1790A,125.129,46.533,大庆市,龙凤区,颗粒物(PM10),70,90,33,26,15,85,,73,73,15,10,6,6,0.6,0.5
2025-04-29T0900,1791A,124.902,46.408,大庆市,红岗区,颗粒物(PM10),70,89,27,38,16,81,,70,70,10,6,6,4,0.5,0.4
2025-04-29T0900,1792A,125.153,46.586,大庆市,萨尔图区,颗粒物(PM10),88,126,41,35,17,82,,72,72,16,10,8,6,0.6,0.4
2025-04-29T0900,1793A,124.9042,46.6215,大庆市,让胡路区,颗粒物(PM10),64,78,25,27,17,84,,69,69,12,8,8,6,0.5,0.3
2025-04-29T0900,3481A,125.141,46.634,大庆市,萨区政府监测点,颗粒物(PM10),66,81,33,27,9,91,,84,84,14,7,8,6,0.5,0.4
2025-04-29T0900,1721A,113.3819,40.1097,大同市,果树场,颗粒物(PM10),59,67,36,15,12,67,,37,37,26,22,13,6,0.3,0.5
2025-04-29T0900,1723A,113.2994,40.0758,大同市,云冈宾馆,颗粒物(PM10),67,84,41,32,12,50,,68,64,45,18,23,12,0.7,0.5
2025-04-29T0900,1724A,113.3444,40.0917,大同市,大同大学,颗粒物(PM10),60,70,43,21,13,59,,52,51,37,23,17,9,0.5,0.4
2025-04-29T0900,1725A,113.2661,40.1269,大同市,安家小村,,,54,34,19,8,,,72,68,17,8,,13,0.4,0.4
2025-04-29T0900,1726A,113.2711,40.0844,大同市,教育学院,颗粒物(PM10),59,67,36,30,13,53,,75,71,42,15,19,12,0.5,0.3
2025-04-29T0900,3282A,113.3397,40.0597,大同市,大同市卫生学校,"颗粒物(PM10),细颗粒物(PM2.5)",57,63,47,40,20,52,,28,26,36,26,19,11,0.5,0.4
2025-04-29T0900,3565A,113.1367,40.1122,大同市,云冈站,颗粒物(PM10),56,61,47,25,15,83,,52,52,13,18,12,15,0.4,0.4
2025-04-29T0900,3566A,113.1186,40.2556,大同市,图书馆,,37,37,27,12,8,81,,66,66,11,8,10,9,0.5,0.5
2025-04-29T0900,3567A,113.5931,40.0461,大同市,区一中,,,,58,,9,,,44,,,17,,26,,0.4
2025-04-29T0900,4199A,113.2798,40.0997,大同市,魏都大道141号,颗粒物(PM10),59,68,43,30,12,62,,77,73,40,17,23,16,0.7,0.5
2025-04-29T0900,2269A,124.1069,50.4097,大兴安岭地区,科技局,,39,39,47,21,30,70,,68,68,42,8,4,4,0.3,0.4
2025-04-29T0900,3663A,124.1164,50.4278,大兴安岭地区,红旗社区,,48,48,36,18,25,80,,72,72,6,7,5,6,0.4,0.4
2025-04-29T0900,1600A,124.3303,40.0625,丹东市,江湾东路,细颗粒物(PM2.5),83,83,64,61,46,89,,53,53,15,17,12,11,0.9,0.8
2025-04-29T0900,1601A,124.4256,40.1503,丹东市,临江后街,细颗粒物(PM2.5),82,86,62,60,42,75,,54,54,22,15,11,7,0.9,0.6
2025-04-29T0900,1602A,124.3933,40.1461,丹东市,元宝山,,,86,56,57,37,,,62,57,23,12,18,9,1.1,0.6
2025-04-29T0900,1603A,124.3633,40.1092,丹东市,民主桥,细颗粒物(PM2.5),83,85,60,61,39,80,,50,50,22,25,17,9,1.4,0.9
2025-04-29T0900,3541A,109.5726,19.5167,儋州市,第一中学子站,,20,20,19,8,9,62,,55,55,6,6,4,5,0.5,0.6
2025-04-29T0900,3542A,109.5567,19.5187,儋州市,东坡学校子站,,26,26,21,11,10,54,,54,54,7,6,5,5,0.7,0.6
2025-04-29T0900,2616A,98.5842,24.428,德宏傣族景颇族自治州,德宏州监测站,细颗粒物(PM2.5),58,53,79,41,53,30,,66,59,18,16,9,10,1.0,0.8
2025-04-29T0900,3677A,98.5881,24.4368,德宏傣族景颇族自治州,芒市人民政府综合楼,细颗粒物(PM2.5),64,58,99,46,54,39,,77,69,16,14,7,10,0.6,0.5
2025-04-29T0900,1901A,104.4239,31.1208,德阳市,东山公园,,26,14,47,11,25,81,,91,91,7,14,3,4,0.6,0.6
2025-04-29T0900,1902A,104.3826,31.1317,德阳市,西小区,,27,18,53,10,28,85,,88,88,15,18,3,4,0.5,0.5
2025-04-29T0900,1904A,104.3553,31.1091,德阳市,耐火材料厂,,23,21,54,9,27,73,,84,80,18,18,4,6,0.4,0.5
2025-04-29T0900,3639A,104.4019,31.1244,德阳市,市教育局,,26,23,49,16,27,83,,98,95,16,18,4,5,0.5,0.5
2025-04-29T0900,1622A,116.3032,37.4674,德州市,儿童乐园,颗粒物(PM10),62,73,67,29,19,84,,95,92,15,16,10,11,0.5,0.5
2025-04-29T0900,1624A,116.2991,37.4451,德州市,监理站,颗粒物(PM10),56,61,58,24,20,74,,86,83,15,15,16,14,0.4,0.4
2025-04-29T0900,3066A,116.2721,37.4379,德州市,九衢泉纯净水厂,,,66,58,31,27,,,74,74,18,24,9,7,0.7,0.7
2025-04-29T0900,3371A,116.3728,37.4403,德州市,开发区人民医院,颗粒物(PM10),62,73,67,17,20,76,,82,81,14,17,9,9,0.6,0.6
2025-04-29T0900,3372A,116.3572,37.4094,德州市,太阳城中学,颗粒物(PM10),63,75,63,29,25,87,,89,89,17,19,8,6,0.3,0.4
2025-04-29T0900,3511A,116.5652,37.3319,德州市,陵城艺术中心,颗粒物(PM10),65,80,65,29,22,87,,77,77,22,22,11,6,0.3,0.3
2025-04-29T0900,2621A,99.7056,27.8317,迪庆藏族自治州,迪庆州站,,44,44,50,21,27,90,,114,110,23,13,5,5,0.6,0.5
2025-04-29T0900,3180A,99.7136,27.8094,迪庆藏族自治州,质量技术监督局,,35,21,38,15,24,110,,122,120,16,12,4,4,0.8,0.7
2025-04-29T0900,4257A,104.6092,35.5962,定西市,将台街,颗粒物(PM10),66,82,61,38,29,32,,26,23,32,24,6,5,0.3,0.2
2025-04-29T0900,4309A,104.6159,35.5701,定西市,正龙路62号,颗粒物(PM10),71,91,55,31,28,36,,47,44,28,12,9,8,0.3,0.3
2025-04-29T0900,1389A,113.7547,23.0494,东莞市,莞城梨川,,33,33,21,20,16,98,,58,58,16,18,6,6,0.6,0.7
2025-04-29T0900,1390A,113.7944,23.0128,东莞市,东城石井,,,32,23,15,13,,,39,39,25,25,8,4,0.8,0.8
2025-04-29T0900,1391A,113.7383,22.9658,东莞市,南城西平,,39,39,23,17,15,71,,30,30,30,37,5,4,0.6,0.6
2025-04-29T0900,3319A,113.7338,23.0381,东莞市,万江金泰,,35,35,23,16,14,86,,52,52,19,18,6,5,0.6,0.8
2025-04-29T0900,3626A,113.7533,23.0202,东莞市,南城元岭,,32,32,23,16,13,89,,60,60,14,15,9,8,0.6,0.7
2025-04-29T0900,3627A,113.7875,23.0457,东莞市,东城主山,,39,39,28,17,14,97,,54,54,16,26,6,5,0.5,0.6
2025-04-29T0900,1666A,118.6614,37.4309,东营市,市环保局,颗粒物(PM10),67,83,51,24,18,98,,58,58,38,29,11,13,0.6,0.6
2025-04-29T0900,3036A,118.6904,37.4338,东营市,开发区管委会,颗粒物(PM10),76,102,61,27,20,85,,75,73,40,23,12,12,0.8,0.7
2025-04-29T0900,3365A,118.5719,37.565,东营市,垦利区民丰路,颗粒物(PM10),70,90,50,22,18,99,,80,80,38,27,7,7,0.9,0.7
2025-04-29T0900,3498A,118.5055,37.8612,东营市,河口城区,颗粒物(PM10),65,80,57,32,17,103,,77,77,39,22,10,8,1.0,0.8
2025-04-29T0900,3646A,118.4978,37.4623,东营市,胜利站,颗粒物(PM10),75,99,61,46,33,89,,68,66,42,29,12,13,0.9,0.8
2025-04-29T0900,3734A,118.35,37.26,东营市,理想之城,颗粒物(PM10),74,97,59,29,22,86,,50,50,35,32,10,9,0.8,0.6
2025-04-29T0900,1591A,110.0023,39.8129,鄂尔多斯市,综合楼,颗粒物(PM10),71,92,24,19,4,101,,107,106,12,10,4,2,0.3,0.2
2025-04-29T0900,1592A,109.9486,39.8261,鄂尔多斯市,巴音孟克林场办事处,颗粒物(PM10),70,90,25,19,9,95,,100,99,13,11,9,7,0.4,0.3
2025-04-29T0900,1593A,109.7736,39.5986,鄂尔多斯市,康泽苑,颗粒物(PM10),58,66,26,17,7,98,,81,81,9,8,11,8,0.4,0.3
2025-04-29T0900,1594A,109.8119,39.5989,鄂尔多斯市,华泰汽车城,颗粒物(PM10),69,88,29,17,9,90,,55,55,12,14,11,6,0.3,0.2
2025-04-29T0900,1595A,109.9734,39.7884,鄂尔多斯市,奥林花园,颗粒物(PM10),81,112,31,22,8,93,,79,78,15,16,6,5,0.3,0.2
2025-04-29T0900,2436A,114.8938,30.3994,鄂州市,市政府,细颗粒物(PM2.5),67,81,74,48,30,45,,19,19,39,35,18,9,0.9,0.7
2025-04-29T0900,2437A,114.8989,30.3714,鄂州市,赵家坝,颗粒物(PM10),62,73,61,38,21,50,,25,25,37,33,8,6,1.1,0.7
2025-04-29T0900,3654A,114.8094,30.4089,鄂州市,精准医疗中心,细颗粒物(PM2.5),65,61,51,47,23,66,,44,42,49,26,28,5,1.4,0.7
2025-04-29T0900,2454A,109.4978,30.2981,恩施土家族苗族自治州,湖北民院,细颗粒物(PM2.5),52,45,47,36,26,11,,25,23,25,13,4,5,0.4,0.3
2025-04-29T0900,2455A,109.4707,30.2798,恩施土家族苗族自治州,州电力总公司,颗粒物(PM10),51,51,45,31,29,3,,8,8,29,20,4,4,0.3,0.2
2025-04-29T0900,3549A,109.5061,30.3772,恩施土家族苗族自治州,龙凤新区,,36,36,41,22,25,12,,22,21,8,9,7,6,0.6,0.5
2025-04-29T0900,2499A,108.3411,21.6158,防城港市,沙万,,37,37,30,25,18,40,,55,52,26,12,10,3,1.1,0.6
2025-04-29T0900,2500A,108.3514,21.7731,防城港市,防城档案局,颗粒物(PM10),60,70,58,23,21,38,,41,39,22,17,3,2,0.9,0.6
2025-04-29T0900,2501A,108.3506,21.6414,防城港市,大海花园,,36,36,31,20,16,53,,61,59,15,8,5,3,0.8,0.6
2025-04-29T0900,1371A,113.1294,23.0067,佛山市,湾梁,,48,48,30,17,13,72,,49,49,31,25,10,8,0.7,0.7
2025-04-29T0900,1372A,113.1083,23.0478,佛山市,华材职中,,44,44,36,19,15,66,,21,21,38,40,8,8,0.7,0.7
2025-04-29T0900,1373A,113.144,23.0453,佛山市,南海气象局,,39,39,32,18,15,67,,35,35,32,30,8,7,0.7,0.7
2025-04-29T0900,1374A,113.2881,22.8094,佛山市,顺德苏岗,颗粒物(PM10),52,54,33,19,15,53,,26,26,37,33,9,6,0.6,0.6
2025-04-29T0900,1376A,112.8383,22.8678,佛山市,高明孔堂,颗粒物(PM10),55,60,40,28,17,59,,30,30,44,29,12,7,0.8,0.8
2025-04-29T0900,1377A,112.8836,23.1588,佛山市,三水监测站,颗粒物(PM10),52,53,38,21,15,52,,25,25,40,35,11,6,0.7,0.7
2025-04-29T0900,1378A,112.867,23.185,佛山市,三水云东海,颗粒物(PM10),51,52,33,30,14,58,,17,17,38,29,12,3,0.5,0.5
2025-04-29T0900,3625A,113.2544,22.7642,佛山市,容桂街道办,,44,44,30,22,21,45,,40,40,43,34,9,6,0.8,0.8
2025-04-29T0900,1280A,119.3903,26.0543,福州市,鼓山,,,,26,,14,,,69,,,5,,2,,0.4
2025-04-29T0900,1282A,119.2681,26.0504,福州市,师大,,44,44,36,23,15,89,,52,52,16,21,4,4,0.5,0.5
2025-04-29T0900,1283A,119.2984,26.1028,福州市,五四北路,,40,34,34,19,19,126,,69,69,14,24,5,4,0.7,0.7
2025-04-29T0900,1284A,119.2648,26.0768,福州市,杨桥西路,,42,42,38,23,16,102,,45,45,17,24,4,3,0.5,0.5
2025-04-29T0900,1285A,119.317,26.0746,福州市,紫阳,颗粒物(PM10),52,54,43,27,20,86,,63,63,24,28,6,6,0.5,0.5
2025-04-29T0900,3048A,119.5799,26.0936,福州市,九龙,,,,30,12,16,113,,63,63,18,15,,4,,0.4
2025-04-29T0900,3526A,119.5189,25.9664,福州市,吴航,,41,17,27,9,19,130,,104,104,9,16,5,5,0.4,0.6
2025-04-29T0900,1755A,123.7977,41.8491,抚顺市,望花区,颗粒物(PM10),80,109,88,43,59,109,,48,48,20,29,11,12,0.8,0.7
2025-04-29T0900,1756A,123.9161,41.8822,抚顺市,顺城区,颗粒物(PM10),70,90,90,40,53,83,,45,45,33,38,9,7,0.6,0.5
2025-04-29T0900,1757A,124.0436,41.8611,抚顺市,东洲区,颗粒物(PM10),64,77,66,29,50,109,,78,78,21,17,8,6,0.6,0.5
2025-04-29T0900,1758A,123.9247,41.8642,抚顺市,新抚区,颗粒物(PM10),70,89,82,38,55,94,,40,40,23,30,9,7,0.7,0.6
2025-04-29T0900,1759A,124.0972,41.8961,抚顺市,大伙房水库,细颗粒物(PM2.5),54,49,58,38,49,102,,69,69,8,13,8,8,0.6,0.6
2025-04-29T0900,1760A,123.7086,41.8391,抚顺市,沈抚新城,颗粒物(PM10),68,85,74,31,54,102,,58,58,23,27,12,8,0.8,0.5
2025-04-29T0900,2376A,116.2127,28.0814,抚州市,桐源党溪,,48,48,48,29,28,37,,20,20,4,3,15,5,0.6,0.8
2025-04-29T0900,2377A,116.3544,27.9831,抚州市,市站,颗粒物(PM10),52,54,57,29,34,63,,39,39,12,18,6,5,1.1,1.1
2025-04-29T0900,2378A,116.3565,27.963,抚州市,血防站,颗粒物(PM10),53,56,58,31,33,52,,37,37,13,15,3,3,0.9,0.9
2025-04-29T0900,2379A,116.3564,28.0007,抚州市,采茶剧团,细颗粒物(PM2.5),54,54,57,38,35,65,,34,34,7,11,1,2,1.2,1.2
2025-04-29T0900,2380A,116.385,27.9647,抚州市,医学分院,颗粒物(PM10),53,56,53,32,30,50,,28,28,10,11,4,4,1.3,1.4
2025-04-29T0900,2207A,121.6094,41.998,阜新市,工业园区,颗粒物(PM10),133,216,66,27,26,105,,86,86,14,14,14,13,0.4,0.4
2025-04-29T0900,2208A,121.6697,42.0279,阜新市,长青街,颗粒物(PM10),73,96,37,16,17,96,,89,89,17,14,9,10,0.4,0.4
2025-04-29T0900,2209A,121.6673,42.0705,阜新市,农业园区,颗粒物(PM10),82,113,41,7,15,101,,91,91,11,8,11,11,0.8,0.8
2025-04-29T0900,2210A,121.6717,42.0224,阜新市,东苑,颗粒物(PM10),127,203,51,18,19,93,,87,87,17,13,13,13,0.5,0.5
2025-04-29T0900,2211A,121.6506,42.0498,阜新市,玉龙新城,颗粒物(PM10),74,97,44,21,22,95,,84,84,15,12,12,12,0.5,0.5
2025-04-29T0900,2301A,115.8277,32.8929,阜阳市,市监测站,细颗粒物(PM2.5),62,67,50,44,33,145,,67,67,15,30,9,9,0.4,0.4
2025-04-29T0900,2303A,115.8554,32.8605,阜阳市,开发区,颗粒物(PM10),64,78,70,42,31,115,,67,67,24,32,9,8,0.5,0.3
2025-04-29T0900,2875A,115.784,32.8892,阜阳市,阜阳职业技术学院,颗粒物(PM10),68,85,54,30,29,95,,68,68,27,28,8,7,0.4,0.3
2025-04-29T0900,3468A,115.7901,32.8613,阜阳市,市规划展馆,颗粒物(PM10),65,79,64,44,25,123,,84,84,16,24,8,8,0.4,0.3
2025-04-29T0900,3469A,115.836,32.9183,阜阳市,枣园社区,颗粒物(PM10),63,75,56,39,21,142,,48,48,17,38,10,10,0.5,0.4
2025-04-29T0900,2669A,102.9099,34.9841,甘南藏族自治州,州政府,颗粒物(PM10),67,83,61,31,24,20,,25,23,31,21,4,3,0.6,0.4
2025-04-29T0900,3380A,102.8914,34.9617,甘南藏族自治州,甘肃民族师范学院,颗粒物(PM10),72,93,56,33,20,11,,14,13,46,21,11,9,0.6,0.5
2025-04-29T0900,2570A,101.9603,30.0475,甘孜藏族自治州,水桥子,,17,6,6,3,6,46,,45,44,33,20,5,4,0.5,0.4
2025-04-29T0900,3065A,101.9533,29.9972,甘孜藏族自治州,州环保局,,14,,12,3,6,42,,50,50,24,21,1,1,0.4,0.4
2025-04-29T0900,3414A,115.8347,28.932,赣江新区,桑海产业园,细颗粒物(PM2.5),63,73,53,45,33,75,,43,43,6,14,8,4,0.6,0.4
2025-04-29T0900,2362A,114.9017,25.9149,赣州市,通天岩,,41,41,38,9,7,65,,29,29,8,5,1,2,0.9,0.8
2025-04-29T0900,2363A,114.9367,25.8664,赣州市,地委,,44,44,39,28,19,26,,18,18,15,12,8,6,1.2,1
2025-04-29T0900,2364A,114.9461,25.8481,赣州市,气象台,,45,45,45,28,21,23,,11,9,27,23,9,9,0.5,0.5
2025-04-29T0900,2365A,114.9322,25.8333,赣州市,市图书馆,颗粒物(PM10),53,56,40,36,23,31,,20,20,25,16,4,4,1.1,1
2025-04-29T0900,2366A,114.8905,25.8471,赣州市,华坚鞋城,颗粒物(PM10),58,66,44,38,24,62,,38,38,18,13,14,7,0.6,0.6
2025-04-29T0900,3109A,115.0093,25.8613,赣州市,赣县区卫计委,,,58,38,37,23,,,3,3,18,15,4,3,0.8,0.6
2025-04-29T0900,2683A,106.2319,36.1417,固原市,马园,颗粒物(PM10),96,142,64,44,22,52,,18,18,35,40,15,6,0.6,0.6
2025-04-29T0900,2684A,106.2792,36.0022,固原市,监测站,颗粒物(PM10),105,159,64,36,27,77,,63,63,13,17,7,7,0.3,0.4
2025-04-29T0900,2685A,106.2375,36.0211,固原市,新区,颗粒物(PM10),99,148,58,36,23,75,,51,51,13,28,6,6,0.3,0.3
2025-04-29T0900,3522A,106.2177,35.9959,固原市,原州区十五小,颗粒物(PM10),99,148,57,40,21,83,,87,87,11,15,8,6,0.3,0.3
2025-04-29T0900,2543A,106.6308,30.5278,广安市,小平旧居,,,,,,,,,,,,,,,,
2025-04-29T0900,2544A,106.6303,30.4576,广安市,市委,颗粒物(PM10),51,52,55,35,33,78,,45,45,10,24,3,4,0.5,0.5
2025-04-29T0900,2545A,106.6271,30.4663,广安市,友谊中学,细颗粒物(PM2.5),53,51,51,37,28,84,,49,49,10,21,2,4,1.0,1
2025-04-29T0900,2547A,106.6388,30.4551,广安市,广电花园,,48,40,47,33,31,78,,46,46,13,22,4,5,0.4,0.4
2025-04-29T0900,2902A,106.6351,30.4865,广安市,北辰小学,颗粒物(PM10),62,73,58,31,29,79,,39,39,11,21,4,5,0.4,0.5
2025-04-29T0900,2523A,105.8945,32.4535,广元市,黑石坡,颗粒物(PM10),52,53,57,23,14,17,,51,43,39,14,9,4,0.5,0.4
2025-04-29T0900,2524A,105.821,32.4444,广元市,老城,,50,50,45,24,15,16,,10,10,43,37,1,2,0.8,0.5
2025-04-29T0900,2526A,105.8628,32.4287,广元市,监测站,,50,50,40,25,18,21,,44,39,39,17,12,8,0.8,0.5
2025-04-29T0900,3617A,105.8047,32.4166,广元市,经开区,颗粒物(PM10),58,66,59,31,27,13,,9,9,49,40,8,7,1.0,0.6
2025-04-29T0900,1345A,113.2347,23.1423,广州市,广雅中学,,42,42,31,21,16,76,,37,37,18,29,4,3,1.0,1
2025-04-29T0900,1346A,113.2612,23.105,广州市,市五中,,32,32,24,19,13,89,,65,65,16,17,2,2,0.9,0.9
2025-04-29T0900,1348A,113.3478,23.0916,广州市,广东商学院,,44,44,25,16,14,63,,43,43,43,32,4,4,0.7,0.6
2025-04-29T0900,1349A,113.4332,23.1047,广州市,市八十六中,,45,45,29,21,14,60,,21,21,48,35,6,5,0.9,0.9
2025-04-29T0900,1350A,113.3505,22.9483,广州市,番禺中学,,43,43,28,23,13,63,,36,36,40,31,8,5,0.8,0.8
2025-04-29T0900,1351A,113.2146,23.3916,广州市,花都师范,,49,49,22,18,13,51,,85,81,54,17,6,6,0.8,0.7
2025-04-29T0900,1352A,113.2597,23.1331,广州市,市监测站,,35,35,22,18,11,68,,56,56,28,27,5,6,0.5,0.6
2025-04-29T0900,1353A,113.5618,23.312,广州市,九龙镇镇龙,,38,38,25,18,13,72,,23,23,15,19,6,5,0.5,0.5
2025-04-29T0900,1354A,113.2765,23.1544,广州市,麓湖,,38,38,23,21,14,78,,20,20,26,36,5,5,0.6,0.7
2025-04-29T0900,1355A,113.443,23.3035,广州市,帽峰山森林公园,,30,30,20,3,5,69,,74,74,15,7,5,5,0.6,0.7
2025-04-29T0900,2846A,113.3221,23.1322,广州市,体育西,,39,39,36,19,19,82,,42,42,29,31,4,4,0.5,0.6
2025-04-29T0900,3298A,113.5717,23.5491,广州市,从化街口,,35,35,19,18,10,48,,17,17,19,22,6,6,0.7,0.7
2025-04-29T0900,3299A,113.3472,23.3692,广州市,白云竹料,,39,39,21,20,12,79,,42,42,21,20,4,3,0.6,0.7
2025-04-29T0900,3300A,113.2981,23.237,广州市,白云嘉禾,,48,48,32,16,11,73,,35,35,29,40,7,6,0.6,0.8
2025-04-29T0900,3301A,113.4256,23.1716,广州市,黄埔科学城,,32,32,20,18,11,76,,44,44,20,17,1,3,0.5,0.6
2025-04-29T0900,3302A,113.3942,23.0483,广州市,番禺大学城,,35,35,25,19,11,69,,20,20,44,39,18,6,0.7,0.7
2025-04-29T0900,3303A,113.4922,22.8168,广州市,南沙黄阁,颗粒物(PM10),52,53,46,18,18,74,,30,30,24,40,7,9,0.9,1
2025-04-29T0900,3304A,113.5342,22.7896,广州市,南沙街,,31,31,39,19,18,82,,53,53,19,26,6,7,0.6,0.7
2025-04-29T0900,3443A,113.2902,23.5544,广州市,花都梯面,,42,42,25,22,10,96,,70,70,11,15,7,6,0.6,0.6
2025-04-29T0900,3445A,113.7858,23.7478,广州市,从化良口,,22,22,20,12,12,39,,36,34,12,8,6,7,0.3,0.3
2025-04-29T0900,3446A,113.8051,23.2614,广州市,增城荔城,,,34,20,15,11,,,65,65,14,11,8,7,0.4,0.4
2025-04-29T0900,2505A,109.568,23.1478,贵港市,德智高中,,,,,,,,,,,,,,,,
2025-04-29T0900,2506A,109.6047,23.0666,贵港市,江南子站,颗粒物(PM10),62,73,47,34,26,25,,10,9,40,27,17,7,1.3,1
2025-04-29T0900,2508A,109.5669,23.1065,贵港市,荷城子站,颗粒物(PM10),55,60,37,31,16,38,,31,29,36,21,22,10,0.7,0.6
2025-04-29T0900,3405A,109.5886,23.1172,贵港市,新世纪学校,,,61,35,30,20,,,30,27,40,26,9,4,1.2,1
2025-04-29T0900,4260A,109.5933,23.0951,贵港市,中山路155-3号,,45,44,41,31,23,40,,28,26,38,24,17,8,0.6,0.7
2025-04-29T0900,1439A,106.6899,26.5998,贵阳市,马鞍山,,41,41,25,9,10,7,,10,9,14,10,3,4,0.5,0.4
2025-04-29T0900,1441A,106.6243,26.6266,贵阳市,鉴湖路,颗粒物(PM10),52,53,38,19,16,70,,60,60,21,14,8,7,0.5,0.4
2025-04-29T0900,1442A,106.7487,26.6343,贵阳市,燕子冲,颗粒物(PM10),56,61,32,39,22,13,,23,18,33,19,2,4,0.6,0.3
2025-04-29T0900,1443A,106.6555,26.4365,贵阳市,碧云窝,颗粒物(PM10),57,63,45,31,19,26,,8,8,24,17,7,5,0.6,0.4
2025-04-29T0900,1445A,106.7109,26.6027,贵阳市,红边门,颗粒物(PM10),52,53,37,34,23,16,,23,20,36,20,5,4,0.6,0.3
2025-04-29T0900,1446A,106.7164,26.5699,贵阳市,新华路,颗粒物(PM10),51,51,40,31,23,28,,18,18,32,26,8,14,0.6,0.4
2025-04-29T0900,1447A,106.674,26.5424,贵阳市,太慈桥,,46,46,34,27,17,15,,12,12,30,22,5,6,0.4,0.3
2025-04-29T0900,1552A,106.805,26.3003,贵阳市,桐木岭,,46,46,47,27,24,108,,99,99,1,3,2,4,0.7,0.7
2025-04-29T0900,4230A,106.6882,26.5695,贵阳市,花果园大街66号,,46,46,40,31,26,32,,11,11,48,30,7,5,0.7,0.6
2025-04-29T0900,4231A,106.6873,26.5169,贵阳市,漓江路57号,颗粒物(PM10),51,51,38,34,21,40,,7,7,32,24,12,9,0.6,0.4
2025-04-29T0900,1862A,110.4144,25.3167,桂林市,电子科大尧山校区,,,,,,,,,,,,,,,,
2025-04-29T0900,1864A,110.3089,25.2708,桂林市,龙隐路小学,细颗粒物(PM2.5),59,56,46,42,25,73,,72,68,15,8,15,19,0.5,0.5
2025-04-29T0900,1865A,110.2869,25.2178,桂林市,八中,颗粒物(PM10),59,68,45,30,18,60,,65,60,22,16,8,6,0.5,0.5
2025-04-29T0900,3531A,110.296,25.1253,桂林市,旅游学院,颗粒物(PM10),52,53,40,31,22,45,,37,32,22,16,16,5,0.7,0.7
2025-04-29T0900,4222A,110.1835,25.2444,桂林市,环湖路276号,细颗粒物(PM2.5),67,75,53,48,34,35,,39,36,27,16,34,21,0.6,0.5
2025-04-29T0900,4301A,110.2803,25.2773,桂林市,信义路13号,细颗粒物(PM2.5),62,60,47,44,26,63,,72,67,20,13,11,6,0.6,0.5
2025-04-29T0900,2674A,100.2561,34.4714,果洛藏族自治州,玛沁县大武镇,颗粒物(PM10),52,53,52,20,19,112,,100,100,1,2,13,15,0.4,0.3
2025-04-29T0900,1129A,126.5422,45.755,哈尔滨市,岭北,细颗粒物(PM2.5),58,52,40,41,32,97,,73,73,19,19,12,11,0.9,0.9
2025-04-29T0900,1130A,126.561,45.8167,哈尔滨市,松北商大,颗粒物(PM10),54,57,44,34,30,92,,57,57,14,21,6,5,0.7,0.7
2025-04-29T0900,1131A,126.979,45.5419,哈尔滨市,阿城会宁,颗粒物(PM10),57,64,68,36,38,106,,69,69,14,23,9,12,0.5,0.6
2025-04-29T0900,1132A,126.599,45.7222,哈尔滨市,南岗学府路,颗粒物(PM10),67,83,74,38,40,88,,41,41,19,30,10,9,0.5,0.5
2025-04-29T0900,1133A,126.689,45.7733,哈尔滨市,太平宏伟公园,颗粒物(PM10),59,68,62,41,43,91,,58,58,19,23,7,6,0.7,0.6
2025-04-29T0900,1134A,126.635,45.7667,哈尔滨市,道外承德广场,细颗粒物(PM2.5),67,66,46,48,45,81,,50,50,23,26,8,7,0.5,0.5
2025-04-29T0900,1135A,126.685,45.7319,哈尔滨市,香坊红旗大街,颗粒物(PM10),71,92,68,40,44,88,,53,53,21,24,12,9,0.6,0.6
2025-04-29T0900,1136A,126.6411,45.7258,哈尔滨市,动力和平路,颗粒物(PM10),62,73,59,43,46,84,,49,49,20,23,12,9,0.7,0.6
2025-04-29T0900,1137A,126.593,45.7478,哈尔滨市,道里建国路,颗粒物(PM10),65,80,55,42,40,85,,52,52,25,32,18,14,1.0,0.9
2025-04-29T0900,1138A,126.615,45.61,哈尔滨市,平房东轻厂,细颗粒物(PM2.5),58,64,55,41,41,95,,61,61,14,18,12,11,0.6,0.6
2025-04-29T0900,1139A,126.595,45.9855,哈尔滨市,呼兰师专,细颗粒物(PM2.5),59,61,65,42,54,76,,48,48,28,32,8,8,0.4,0.4
2025-04-29T0900,1140A,126.6206,45.6842,哈尔滨市,省农科院,,,78,78,48,49,,,29,29,18,36,10,8,0.6,0.7
2025-04-29T0900,2688A,93.5128,42.8172,哈密市,地区监测站,颗粒物(PM10),76,102,71,24,26,51,,53,52,38,23,5,8,0.3,0.3
2025-04-29T0900,2689A,93.4961,42.8328,哈密市,哈密师范学校,颗粒物(PM10),62,73,60,23,17,36,,29,27,49,28,6,5,0.7,0.5
2025-04-29T0900,2671A,100.9048,36.9639,海北藏族自治州,海晏县西海镇,,36,36,31,17,17,97,,91,90,6,6,7,10,0.4,0.4
2025-04-29T0900,3867A,102.0738,36.5056,海东市,平安区公安北苑,颗粒物(PM10),58,66,47,34,18,42,,43,39,30,14,20,6,1.2,0.9
2025-04-29T0900,1409A,110.576,19.9507,海口市,东寨港,,,,13,,13,,,20,,,3,,4,,0.5
2025-04-29T0900,1410A,110.3232,20.0574,海口市,海南大学,,22,22,32,15,16,32,,37,34,13,18,2,2,0.4,0.3
2025-04-29T0900,1411A,110.283,20.0053,海口市,秀英海南医院,,22,,30,15,22,35,,32,32,8,28,4,4,0.3,0.3
2025-04-29T0900,1412A,110.338,19.9969,海口市,海南师范大学,,26,20,30,18,19,35,,36,36,7,13,2,3,0.4,0.4
2025-04-29T0900,1413A,110.33,20.0356,海口市,龙华路环保局宿舍,,29,,30,20,20,34,,37,36,12,15,4,4,0.3,0.4
2025-04-29T0900,3539A,110.5111,19.9736,海口市,桂林洋子站,,32,25,30,22,18,42,,31,31,9,15,3,3,0.3,0.3
2025-04-29T0900,2673A,100.6188,36.2866,海南藏族自治州,共和县恰卜恰镇,,37,36,40,23,19,117,,108,108,7,7,12,13,0.3,0.3
2025-04-29T0900,2676A,97.3731,37.3753,海西蒙古族藏族自治州,德令哈市,颗粒物(PM10),65,80,54,18,19,105,,92,92,10,4,13,13,0.6,0.4
2025-04-29T0900,1048A,114.5302,36.6116,邯郸市,东污水处理厂,,,150,85,39,15,27,,52,43,,27,,4,0.9,0.6
2025-04-29T0900,1049A,114.4918,36.5713,邯郸市,矿院,颗粒物(PM10),55,59,47,22,14,41,,43,38,36,21,10,10,0.7,0.5
2025-04-29T0900,1050A,114.484,36.6133,邯郸市,丛台公园,颗粒物(PM10),56,61,45,18,15,78,,59,57,24,19,12,5,1.1,0.6
2025-04-29T0900,3458A,114.7895,36.5593,邯郸市,香泉濮院小区,颗粒物(PM10),64,78,61,11,9,55,,63,58,22,16,8,6,0.7,0.5
2025-04-29T0900,3579A,114.50634,36.77178,邯郸市,永年区实验高中,,,,62,,20,,,69,66,21,15,20,10,,0.7
2025-04-29T0900,3580A,114.20016,36.44293,邯郸市,峰峰矿区临水派出所,,32,29,39,11,12,102,,107,105,18,21,12,10,0.6,0.6
2025-04-29T0900,2634A,106.9893,33.1842,汉中市,汉川机床厂子校,,42,42,45,18,13,59,,56,54,14,9,8,8,0.7,0.7
2025-04-29T0900,2635A,107.0154,33.0706,汉中市,市监测站,颗粒物(PM10),60,69,55,24,21,29,,33,29,32,21,14,8,1.0,0.7
2025-04-29T0900,2636A,107.0089,33.1138,汉中市,鑫源开发区,颗粒物(PM10),51,52,56,20,23,42,,37,37,28,27,15,8,1.0,0.7
2025-04-29T0900,2637A,107.007,33.0323,汉中市,南郑大河坎水厂,颗粒物(PM10),55,59,49,26,23,14,,39,33,38,19,6,7,0.7,0.5
2025-04-29T0900,1223A,120.2072,30.2111,杭州市,滨江,颗粒物(PM10),52,54,56,22,27,82,,57,57,34,28,8,8,0.6,0.6
2025-04-29T0900,1224A,120.0633,30.2747,杭州市,西溪,颗粒物(PM10),56,62,54,37,32,67,,38,38,28,22,6,6,0.4,0.5
2025-04-29T0900,1226A,120.3417,30.3150,杭州市,下沙,颗粒物(PM10),56,61,59,33,30,85,,51,51,39,35,10,9,0.5,0.5
2025-04-29T0900,1227A,120.1269,30.2456,杭州市,卧龙桥,,42,42,51,27,30,90,,37,37,19,21,7,7,0.6,0.7
2025-04-29T0900,1228A,120.1903,30.2692,杭州市,浙江农大,,39,39,61,21,36,77,,43,43,30,34,4,4,0.4,0.4
2025-04-29T0900,1230A,120.1197,30.3119,杭州市,和睦小学,颗粒物(PM10),52,53,57,24,27,82,,53,53,25,24,8,8,0.5,0.6
2025-04-29T0900,1231A,120.3019,30.4183,杭州市,临平镇,颗粒物(PM10),59,67,52,29,25,61,,46,46,49,28,8,7,0.6,0.6
2025-04-29T0900,1232A,120.2753,30.1839,杭州市,城厢镇,,43,43,54,30,29,80,,56,56,32,29,8,9,0.5,0.4
2025-04-29T0900,1233A,120.0883,30.1808,杭州市,云栖,,50,50,52,29,29,63,,24,24,43,30,6,6,0.6,0.6
2025-04-29T0900,3557A,119.9464,30.0494,杭州市,镇二中,,50,49,49,35,30,72,,60,58,36,31,6,4,0.7,0.6
2025-04-29T0900,3558A,119.7183,30.2367,杭州市,市府大楼,,,69,65,47,38,,,62,57,,22,9,8,0.6,0.5
2025-04-29T0900,3656A,120.1556,30.2864,杭州市,消防大队,颗粒物(PM10),51,52,56,32,36,80,,53,53,29,30,5,6,0.7,0.7
2025-04-29T0900,1270A,117.1959,31.7848,合肥市,明珠广场,细颗粒物(PM2.5),77,100,103,56,56,94,,51,51,48,43,7,7,0.6,0.6
2025-04-29T0900,1271A,117.3072,31.8764,合肥市,三里街,颗粒物(PM10),73,95,91,41,40,92,,53,53,42,38,7,7,0.6,0.7
2025-04-29T0900,1272A,117.2588,31.8707,合肥市,琥珀山庄,,,105,89,63,46,,,52,50,38,30,4,4,0.7,0.7
2025-04-29T0900,1273A,117.1604,31.9052,合肥市,董铺水库,颗粒物(PM10),81,111,104,51,45,83,,28,28,42,33,2,2,0.6,0.5
2025-04-29T0900,1274A,117.25,31.8571,合肥市,长江中路,颗粒物(PM10),82,114,97,57,51,112,,73,73,38,26,9,9,0.7,0.7
2025-04-29T0900,1275A,117.266,31.9436,合肥市,庐阳区,颗粒物(PM10),70,90,102,39,50,73,,28,28,44,47,8,9,0.6,0.6
2025-04-29T0900,1276A,117.3453,31.8616,合肥市,瑶海区,颗粒物(PM10),76,102,94,39,42,73,,44,44,51,46,8,8,0.5,0.6
2025-04-29T0900,1277A,117.3027,31.7964,合肥市,包河区,颗粒物(PM10),70,90,94,46,46,119,,29,29,30,57,8,8,0.6,0.6
2025-04-29T0900,1278A,117.2776,31.7385,合肥市,滨湖新区,细颗粒物(PM2.5),70,88,100,51,58,119,,53,53,26,39,7,8,0.7,0.7
2025-04-29T0900,1279A,117.1318,31.8403,合肥市,高新区,颗粒物(PM10),74,97,101,50,54,132,,60,60,27,38,3,4,0.6,0.6
2025-04-29T0900,3464A,117.3803,31.9147,合肥市,高教基地,颗粒物(PM10),68,85,86,31,36,104,,56,56,25,27,8,6,0.5,0.5
2025-04-29T0900,3614A,79.924,37.0877,和田地区,地区环保局,,,132,129,,31,68,,71,71,6,13,3,2,0.2,0.2
2025-04-29T0900,3615A,79.9131,37.113,和田地区,市环保局,颗粒物(PM10),114,177,146,26,33,48,,50,50,30,30,3,3,0.3,0.4
2025-04-29T0900,2516A,108.2011,24.715,河池市,东仁乐园,,,,,,,,,,,,,,,,
2025-04-29T0900,2517A,108.0497,24.6947,河池市,市环保站,颗粒物(PM10),51,51,31,26,13,41,,31,31,21,15,7,7,0.6,0.5
2025-04-29T0900,2518A,108.0983,24.6989,河池市,市疾控中心,颗粒物(PM10),52,53,42,35,17,33,,14,14,33,29,8,8,0.6,0.6
2025-04-29T0900,1696A,114.6778,23.7569,河源市,源西,,35,35,26,19,14,59,,49,48,18,16,6,5,0.7,0.7
2025-04-29T0900,1697A,114.6944,23.7586,河源市,东埔,,49,49,29,20,18,63,,51,51,22,16,6,6,0.9,0.8
2025-04-29T0900,1698A,114.6892,23.7233,河源市,老城,,40,40,30,22,15,52,,24,24,21,19,5,4,0.7,0.6
2025-04-29T0900,1718A,115.4208,35.2464,菏泽市,气象局,颗粒物(PM10),67,84,71,31,24,87,,91,89,22,14,6,5,0.4,0.3
2025-04-29T0900,3374A,115.5564,35.0891,菏泽市,定陶老年大学,颗粒物(PM10),54,58,54,14,15,89,,85,84,15,15,7,9,0.4,0.3
2025-04-29T0900,4184A,115.4797,35.24401,菏泽市,永昌路1号,颗粒物(PM10),67,83,61,27,22,89,,94,92,21,16,7,6,0.3,0.3
2025-04-29T0900,4193A,115.4715,35.2800,菏泽市,长城路999号,,,77,58,17,14,,,99,97,24,18,9,8,0.3,0.3
2025-04-29T0900,2514A,111.5264,24.4172,贺州市,环保小区,,48,45,42,33,23,38,,31,30,22,17,7,6,0.8,0.7
2025-04-29T0900,2515A,111.5608,24.4078,贺州市,政协大楼,,50,42,33,35,22,49,,28,28,20,19,7,6,0.7,0.7
2025-04-29T0900,3534A,111.4744,24.4553,贺州市,西湾,,49,46,39,34,20,54,,32,32,17,16,8,7,0.8,0.6
2025-04-29T0900,2385A,114.17,35.9019,鹤壁市,市监测站,,50,50,71,10,20,127,,94,94,6,13,10,10,0.4,0.5
2025-04-29T0900,2386A,114.2956,35.7511,鹤壁市,市交警支队,颗粒物(PM10),69,88,76,26,21,40,,48,42,59,43,12,12,0.8,0.6
2025-04-29T0900,2387A,114.2878,35.7306,鹤壁市,迎宾馆,颗粒物(PM10),77,104,77,25,18,40,,52,46,43,23,11,5,0.8,0.5
2025-04-29T0900,3474A,114.2617,35.6822,鹤壁市,大新区,,,,59,56,26,38,,38,34,55,30,,10,0.8,0.5
2025-04-29T0900,3596A,114.1572,35.9603,鹤壁市,南山宾馆,颗粒物(PM10),124,197,91,13,26,126,,116,116,5,11,5,8,0.4,0.4
2025-04-29T0900,2244A,130.2537,47.3416,鹤岗市,哈啤分公司,,18,15,22,12,14,56,,33,33,7,12,15,15,0.3,0.3
2025-04-29T0900,2245A,130.2684,47.3086,鹤岗市,斯达机电,,,,24,15,15,,,46,46,5,10,12,11,0.2,0.2
2025-04-29T0900,2246A,130.3114,47.3388,鹤岗市,东山纸板厂,,40,40,32,21,26,58,,21,21,12,21,13,12,0.3,0.9
2025-04-29T0900,2247A,130.1097,47.3382,鹤岗市,五号水库,,,,,,,,,,,,,,,,
2025-04-29T0900,2263A,127.4833,50.2524,黑河市,交通局,,45,45,20,24,14,75,,57,57,9,7,8,7,0.5,0.3
2025-04-29T0900,2264A,127.5144,50.2341,黑河市,环保局,,47,47,15,28,15,79,,61,61,7,5,4,3,0.3,0.2
2025-04-29T0900,2265A,127.5291,50.2472,黑河市,大黑河岛,颗粒物(PM10),52,54,15,29,8,92,,73,73,6,4,1,1,0.3,0.2
2025-04-29T0900,1074A,115.6838,37.7541,衡水市,电机北厂,颗粒物(PM10),60,70,58,27,27,77,,90,86,19,16,10,9,0.5,0.3
2025-04-29T0900,1075A,115.6303,37.7316,衡水市,市监测站,颗粒物(PM10),61,72,57,14,18,71,,82,80,18,19,14,12,0.4,0.4
2025-04-29T0900,3188A,115.6683,37.7217,衡水市,市城管局,颗粒物(PM10),62,74,62,15,27,66,,81,77,22,18,11,11,0.5,0.4
2025-04-29T0900,3459A,115.5989,37.5491,衡水市,地表水厂,颗粒物(PM10),59,68,59,33,21,52,,63,59,35,22,11,8,0.5,0.4
2025-04-29T0900,2456A,112.5003,26.9167,衡阳市,原169医院,颗粒物(PM10),59,68,52,37,26,49,,39,39,23,19,47,7,0.8,0.7
2025-04-29T0900,2457A,112.6194,26.9258,衡阳市,衡阳化工总厂,细颗粒物(PM2.5),78,96,62,57,40,27,,14,14,26,16,13,6,0.9,0.7
2025-04-29T0900,2458A,112.6211,26.8956,衡阳市,珠晖区环保局,,,75,61,,33,20,,10,10,24,20,11,8,0.9,0.8
2025-04-29T0900,2459A,112.6197,26.8733,衡阳市,市委党校,,,87,60,,42,30,,16,16,28,16,15,6,1.1,0.7
2025-04-29T0900,2460A,112.6006,26.8919,衡阳市,市监测站,细颗粒物(PM2.5),65,69,59,47,40,24,,22,22,29,20,14,10,1.1,0.8
2025-04-29T0900,2461A,112.5664,26.9056,衡阳市,真空机电公司,颗粒物(PM10),66,81,62,40,31,29,,38,36,20,16,7,5,1.1,0.9
2025-04-29T0900,3399A,112.6703,26.882,衡阳市,师范学院,颗粒物(PM10),70,89,62,50,41,27,,17,16,25,16,13,7,1.2,0.9
2025-04-29T0900,2608A,103.3772,23.3993,红河哈尼族彝族自治州,污水处理厂,,39,,38,27,32,89,,100,100,8,8,4,5,0.5,0.5
2025-04-29T0900,2609A,103.3861,23.35,红河哈尼族彝族自治州,监测站,,42,42,43,24,25,93,,101,101,8,8,6,6,0.3,0.3
2025-04-29T0900,3038A,103.3758,23.368,红河哈尼族彝族自治州,州图书馆,,,26,38,24,30,,,95,95,7,8,1,2,0.4,0.4
2025-04-29T0900,1090A,111.6507,40.7517,呼和浩特市,呼市一监,,46,46,72,15,22,60,,28,28,12,19,9,8,0.4,0.5
2025-04-29T0900,1091A,111.6572,40.8033,呼和浩特市,小召,颗粒物(PM10),57,63,60,21,18,50,,30,30,25,32,12,9,0.4,0.4
2025-04-29T0900,1094A,111.7516,40.8369,呼和浩特市,如意水处理厂,,50,50,49,18,17,54,,27,27,21,24,12,9,0.4,0.4
2025-04-29T0900,1095A,111.7276,40.8062,呼和浩特市,二十九中,细颗粒物(PM2.5),58,54,51,41,21,45,,26,26,20,20,7,6,0.5,0.4
2025-04-29T0900,1096A,111.5512,40.7866,呼和浩特市,工大金川校区,颗粒物(PM10),51,52,45,24,17,44,,35,32,29,25,9,9,0.6,0.5
2025-04-29T0900,1097A,111.717,40.7612,呼和浩特市,化肥厂生活区,,45,45,67,16,20,53,,22,22,20,28,11,12,0.3,0.4
2025-04-29T0900,3698A,111.5968,40.8178,呼和浩特市,红旗小学,,,56,55,23,17,,,23,23,23,32,7,6,0.5,0.4
2025-04-29T0900,3699A,111.6518,40.8389,呼和浩特市,海东办,颗粒物(PM10),52,53,47,24,15,47,,34,32,26,21,10,8,0.5,0.5
2025-04-29T0900,2192A,119.7594,49.2261,呼伦贝尔市,区环保局,颗粒物(PM10),63,75,29,26,17,74,,82,82,6,7,6,5,0.3,0.3
2025-04-29T0900,3061A,119.7512,49.1577,呼伦贝尔市,国华电力东,,,51,29,21,11,,,82,82,5,6,,4,0.3,0.3
2025-04-29T0900,1250A,120.0751,30.8669,湖州市,城西水厂,,,48,60,21,32,,,46,42,38,27,8,8,0.5,0.5
2025-04-29T0900,2873A,120.0830,30.8929,湖州市,仁皇山新区,,43,43,58,20,32,78,,50,50,40,27,6,7,0.7,0.7
2025-04-29T0900,2907A,120.1844,30.8596,湖州市,吴兴区站,,42,42,55,29,35,92,,53,53,22,23,9,8,0.5,0.5
2025-04-29T0900,3562A,120.4148,30.8538,湖州市,南浔区站,颗粒物(PM10),55,59,57,30,32,87,,55,55,30,26,7,6,0.5,0.6
2025-04-29T0900,1607A,120.9049,40.7211,葫芦岛市,龙港区,颗粒物(PM10),52,53,35,25,20,94,,95,94,20,11,10,10,0.4,0.4
2025-04-29T0900,1608A,120.8392,40.7514,葫芦岛市,化工街,,46,46,36,17,18,91,,71,71,27,28,13,11,0.6,0.5
2025-04-29T0900,1609A,120.8341,40.7073,葫芦岛市,新区,,42,42,31,22,20,88,,88,88,25,16,8,8,0.7,0.5
2025-04-29T0900,1610A,120.8695,40.7677,葫芦岛市,东城区,颗粒物(PM10),53,55,38,22,24,82,,74,74,25,24,6,12,0.5,0.5
2025-04-29T0900,2482A,109.5981,27.5721,怀化市,林科所,颗粒物(PM10),59,68,46,25,26,31,,54,47,19,11,25,18,0.9,0.6
2025-04-29T0900,2483A,109.9453,27.5444,怀化市,河西地税局,细颗粒物(PM2.5),57,61,47,40,30,40,,16,16,16,14,11,5,0.6,0.6
2025-04-29T0900,2484A,109.9781,27.5342,怀化市,市四医院,细颗粒物(PM2.5),70,74,59,51,35,34,,15,15,26,24,8,6,0.7,0.6
2025-04-29T0900,2485A,109.9972,27.5578,怀化市,监测楼,"颗粒物(PM10),细颗粒物(PM2.5)",53,56,53,37,31,27,,23,22,26,15,4,4,0.6,0.6
2025-04-29T0900,2486A,110.0394,27.583,怀化市,市委党校,细颗粒物(PM2.5),55,52,47,39,32,22,,15,15,20,17,6,7,0.9,0.7
2025-04-29T0900,1210A,119.036,33.5981,淮安市,钵池山,颗粒物(PM10),64,78,46,41,27,90,,96,93,30,18,18,10,0.5,0.3
2025-04-29T0900,1211A,119.007,33.575,淮安市,北京南路,,,78,47,42,25,88,,80,80,30,18,14,10,,0.6
2025-04-29T0900,1212A,118.989,33.6067,淮安市,市监测站,细颗粒物(PM2.5),70,78,48,51,33,81,,69,69,40,27,28,14,1.7,1
2025-04-29T0900,1213A,119.135,33.5039,淮安市,楚州区监测站,,,83,58,43,30,,,67,65,22,18,11,8,0.8,0.6
2025-04-29T0900,3426A,118.8755,33.2894,淮安市,新华书店,细颗粒物(PM2.5),67,69,53,48,36,82,,68,66,33,24,14,12,0.6,0.5
2025-04-29T0900,4206A,119.0288,33.6319,淮安市,承德北路606号,颗粒物(PM10),71,92,59,44,30,86,,85,82,33,19,27,13,1.5,0.6
2025-04-29T0900,2282A,116.8004,33.975,淮北市,监测站,颗粒物(PM10),74,97,51,51,23,124,,95,95,26,23,13,10,1.0,0.8
2025-04-29T0900,2283A,116.8091,33.9007,淮北市,烈山区政府,细颗粒物(PM2.5),73,79,64,53,28,97,,74,74,23,32,11,9,0.8,0.7
2025-04-29T0900,3330A,116.8873,33.9836,淮北市,杜集区检察院,细颗粒物(PM2.5),72,85,64,52,30,112,,84,84,26,24,18,9,0.9,0.8
2025-04-29T0900,4017A,116.7923,33.9535,淮北市,市博物馆,细颗粒物(PM2.5),82,87,56,60,27,113,,92,92,30,26,13,10,1.1,0.8
2025-04-29T0900,2277A,116.8305,32.7727,淮南市,潘集区政府,颗粒物(PM10),70,89,84,50,47,135,,87,87,18,28,8,9,0.6,0.5
2025-04-29T0900,2279A,116.8569,32.5951,淮南市,谢家集区政府,细颗粒物(PM2.5),75,75,68,55,44,111,,87,87,26,24,6,8,0.5,0.4
2025-04-29T0900,2280A,116.8281,32.633,淮南市,八公山区政府,颗粒物(PM10),69,88,82,48,40,122,,105,105,15,12,7,8,0.5,0.4
2025-04-29T0900,2281A,116.6325,32.6201,淮南市,焦岗湖风景区管理处,,,,,,,,,,,,,,,,
2025-04-29T0900,2894A,117.0566,32.6531,淮南市,经济技术开发区消防队,细颗粒物(PM2.5),90,76,67,67,49,131,,92,92,21,24,9,8,0.5,0.5
2025-04-29T0900,3329A,117.0108,32.5893,淮南市,山南新区,颗粒物(PM10),80,110,79,49,37,122,,103,103,29,21,12,10,0.6,0.5
2025-04-29T0900,4209A,117.0031,32.6445,淮南市,国庆中路369号,"颗粒物(PM10),细颗粒物(PM2.5)",67,83,70,48,35,144,,113,113,14,16,9,10,0.6,0.5
2025-04-29T0900,2446A,114.9028,30.4742,黄冈市,职工中心,细颗粒物(PM2.5),79,76,44,58,30,67,,62,59,31,15,25,9,1.0,0.6
2025-04-29T0900,2929A,114.8858,30.4519,黄冈市,红卫路,细颗粒物(PM2.5),84,94,50,62,29,70,,58,57,33,14,20,8,0.9,0.6
2025-04-29T0900,3398A,114.9136,30.4445,黄冈市,市林业局,细颗粒物(PM2.5),84,99,51,62,29,60,,52,50,44,12,24,9,0.9,0.6
2025-04-29T0900,2672A,102.0199,35.5102,黄南藏族自治州,同仁县隆务镇,,34,34,40,17,17,55,,65,62,5,4,4,4,0.2,0.1
2025-04-29T0900,2295A,118.2903,29.6963,黄山市,延安路89号,细颗粒物(PM2.5),62,54,42,44,28,48,,29,29,11,7,5,5,0.6,0.5
2025-04-29T0900,2297A,118.1371,30.2756,黄山市,黄山区政府5号楼,颗粒物(PM10),57,64,61,32,34,80,,46,46,8,8,4,4,0.8,0.7
2025-04-29T0900,4210A,118.3354,29.7203,黄山市,滨江东路7-2号,细颗粒物(PM2.5),59,57,47,42,27,82,,32,32,6,6,5,4,0.6,0.6
2025-04-29T0900,2423A,115.0601,30.2313,黄石市,沈家营,颗粒物(PM10),88,126,74,58,28,43,,25,25,45,31,16,7,1.2,0.8
2025-04-29T0900,2426A,114.8988,30.2019,黄石市,铁山,颗粒物(PM10),64,78,72,30,29,98,,50,50,20,20,11,8,1.1,0.7
2025-04-29T0900,2427A,115.0307,30.2092,黄石市,团城山,颗粒物(PM10),55,59,71,27,24,54,,46,44,48,23,11,9,0.8,0.7
2025-04-29T0900,3149A,115.0235,30.1578,黄石市,笔架山北路,颗粒物(PM10),60,69,57,41,30,88,,73,73,24,14,13,9,1.0,0.7
2025-04-29T0900,4185A,115.0780,30.21118,黄石市,磁湖东路29号,颗粒物(PM10),121,192,68,64,32,40,,42,41,48,22,18,8,1.1,0.8
2025-04-29T0900,1392A,114.4183,23.0528,惠州市,河南岸金山湖子站,,34,34,19,20,13,67,,54,54,23,17,14,10,0.6,0.5
2025-04-29T0900,1393A,114.4053,23.0822,惠州市,下埔横江三路子站,,39,39,20,19,12,77,,70,70,18,14,12,10,0.7,0.7
2025-04-29T0900,1394A,114.4103,23.1142,惠州市,江北云山西路子站,,39,39,21,22,12,71,,70,69,20,14,15,13,0.6,0.6
2025-04-29T0900,1395A,114.4645,22.7833,惠州市,惠阳区承修路船湖子站,,39,39,26,23,16,58,,75,75,26,15,9,9,0.8,0.8
2025-04-29T0900,1396A,114.5317,22.7422,惠州市,大亚湾管委会子站,,26,26,23,15,14,78,,83,83,21,15,9,8,0.6,0.6
2025-04-29T0900,3314A,114.4338,22.8134,惠州市,惠阳秋长,,29,29,30,19,17,75,,61,61,18,15,10,9,0.6,0.6
2025-04-29T0900,3452A,114.6517,22.775,惠州市,大亚湾霞涌,,27,26,26,12,14,86,,82,82,13,13,7,8,0.6,0.6
2025-04-29T0900,2240A,130.9762,45.3001,鸡西市,环保局,,50,48,52,35,39,83,,43,43,8,17,6,6,0.3,0.5
2025-04-29T0900,2243A,130.9429,45.3039,鸡西市,第一中学,,38,38,52,13,40,80,,48,48,6,13,6,12,0.4,0.5
2025-04-29T0900,3707A,131.0207,45.3073,鸡西市,欧美日汽修厂,颗粒物(PM10),59,68,61,30,45,74,,28,28,12,18,14,6,0.5,0.6
2025-04-29T0900,3709A,130.9967,45.3106,鸡西市,市政设施管理处,颗粒物(PM10),63,76,63,39,42,64,,21,21,19,24,14,7,0.4,0.5
2025-04-29T0900,2367A,114.9754,27.0803,吉安市,红声器材厂,细颗粒物(PM2.5),62,64,51,44,29,34,,24,24,12,16,9,10,0.6,0.6
2025-04-29T0900,2368A,114.9658,27.0999,吉安市,市森林工业局,细颗粒物(PM2.5),57,61,48,40,29,44,,25,25,19,18,9,9,0.3,0.5
2025-04-29T0900,2369A,114.99,27.1312,吉安市,市环境监测站,细颗粒物(PM2.5),53,54,46,37,30,49,,30,30,9,11,12,10,0.7,0.6
2025-04-29T0900,2370A,115.0093,27.0968,吉安市,青原区法院,细颗粒物(PM2.5),58,63,48,41,30,35,,28,28,7,12,14,13,0.5,0.5
2025-04-29T0900,1772A,126.54,43.8622,吉林市,哈达湾,细颗粒物(PM2.5),64,66,71,46,50,100,,73,73,17,20,7,7,0.5,0.5
2025-04-29T0900,1773A,126.5844,43.8358,吉林市,东局子,细颗粒物(PM2.5),67,56,57,48,50,103,,81,81,13,18,6,6,0.4,0.5
2025-04-29T0900,1774A,126.5052,43.8245,吉林市,电力学院,细颗粒物(PM2.5),54,47,70,38,60,99,,48,48,16,21,6,6,0.5,0.6
2025-04-29T0900,1775A,126.6133,43.8972,吉林市,江北,颗粒物(PM10),53,56,69,33,47,108,,74,74,15,18,7,7,0.7,0.7
2025-04-29T0900,1776A,126.555,43.8306,吉林市,江南公园,细颗粒物(PM2.5),75,58,60,55,54,97,,75,75,14,15,6,6,0.4,0.5
2025-04-29T0900,1778A,126.7061,43.7133,吉林市,丰满,,,,,,,,,,,,,,,,
2025-04-29T0900,2868A,126.4739,43.953,吉林市,九站,细颗粒物(PM2.5),65,68,70,47,55,108,,80,80,12,18,7,7,0.7,0.7
2025-04-29T0900,1299A,116.9862,36.6114,济南市,科干所,,48,48,46,12,11,123,,128,128,10,11,6,6,0.3,0.3
2025-04-29T0900,1300A,116.9376,36.665,济南市,农科所,颗粒物(PM10),62,73,55,12,12,110,,104,104,14,22,9,9,0.3,0.4
2025-04-29T0900,1301A,117.1265,36.6734,济南市,开发区,颗粒物(PM10),53,56,42,27,18,129,,133,132,8,12,9,8,0.5,0.5
2025-04-29T0900,1303A,117.0624,36.6868,济南市,省种子仓库,颗粒物(PM10),70,90,62,12,26,125,,129,129,8,14,6,6,0.3,0.4
2025-04-29T0900,1304A,116.9489,36.6447,济南市,机床二厂,颗粒物(PM10),81,112,71,15,13,112,,116,116,18,20,10,11,0.4,0.4
2025-04-29T0900,1305A,117.0495,36.663,济南市,市监测站,颗粒物(PM10),56,61,51,10,14,121,,128,127,10,12,10,10,0.4,0.5
2025-04-29T0900,1306A,116.7675,36.5484,济南市,长清党校,,46,46,48,17,18,110,,118,116,18,15,8,9,0.6,0.6
2025-04-29T0900,1616A,117.6795,36.229,济南市,技术学院,颗粒物(PM10),78,105,60,19,20,115,,66,66,15,33,13,14,0.6,1.1
2025-04-29T0900,1961A,117.532,36.6868,济南市,东山小学,颗粒物(PM10),61,71,56,12,14,123,,118,118,7,16,8,7,0.2,0.3
2025-04-29T0900,3059A,117.7161,36.2049,济南市,泰兴公司,,,56,49,,20,,,10,10,28,48,12,11,0.7,1
2025-04-29T0900,3064A,117.6867,36.2171,济南市,莱芜战役纪念馆,颗粒物(PM10),59,68,56,14,18,116,,46,46,19,45,8,8,0.6,1
2025-04-29T0900,3494A,117.1673,36.9782,济南市,济阳区政府,颗粒物(PM10),90,129,73,29,17,115,,101,101,15,27,10,9,0.4,0.4
2025-04-29T0900,3495A,117.1171,36.63,济南市,锦屏中学,,,63,41,24,10,123,,132,131,11,13,6,6,,0.3
2025-04-29T0900,3682A,116.9814,36.6819,济南市,济南四建,"颗粒物(PM10),细颗粒物(PM2.5)",53,56,51,37,17,121,,126,125,11,14,7,7,0.4,0.4
2025-04-29T0900,1653A,116.6251,35.4302,济宁市,火炬城,,48,48,52,9,16,98,,89,89,9,10,7,8,0.3,0.3
2025-04-29T0900,1655A,116.5491,35.4042,济宁市,电化厂,,46,46,61,19,24,89,,68,68,13,20,6,7,0.4,0.5
2025-04-29T0900,3500A,116.5814,35.3707,济宁市,北湖一中,颗粒物(PM10),51,52,56,12,11,95,,88,88,16,22,8,10,0.3,0.3
2025-04-29T0900,3501A,116.8249,35.5593,济宁市,服务中心,颗粒物(PM10),57,64,70,25,26,90,,72,72,17,22,5,4,0.4,0.4
2025-04-29T0900,3678A,116.5907,35.4054,济宁市,市第七中学,颗粒物(PM10),52,53,76,9,12,99,,94,94,12,13,11,12,0.3,0.3
2025-04-29T0900,2255A,130.2751,46.8028,佳木斯市,佳纺,,45,45,30,31,16,32,,11,11,30,23,4,4,0.6,0.4
2025-04-29T0900,2256A,130.3995,46.8307,佳木斯市,发电厂,,45,,23,31,16,37,,9,9,26,23,5,5,0.4,0.4
2025-04-29T0900,2257A,130.3258,46.7975,佳木斯市,环保局,细颗粒物(PM2.5),54,50,35,38,18,54,,12,12,30,29,7,5,0.6,0.5
2025-04-29T0900,2258A,130.3648,46.8032,佳木斯市,十一中,细颗粒物(PM2.5),58,49,30,41,19,42,,12,12,30,27,6,5,0.5,0.5
2025-04-29T0900,2259A,130.3794,46.7588,佳木斯市,四丰,,38,,14,26,10,36,,8,8,15,11,1,1,0.3,0.2
2025-04-29T0900,1252A,120.7436,30.778,嘉兴市,清河小学,,33,33,41,18,21,85,,68,68,36,24,5,6,0.8,0.9
2025-04-29T0900,1253A,120.726,30.7478,嘉兴市,嘉兴学院,,32,32,44,16,22,88,,59,59,40,28,7,8,0.7,0.8
2025-04-29T0900,2872A,120.7846,30.7525,嘉兴市,南湖区残联,,36,36,47,14,21,96,,80,80,32,23,6,8,0.5,0.6
2025-04-29T0900,3407A,120.6916,30.7739,嘉兴市,秀洲住建,,33,33,48,16,22,99,,56,56,24,21,7,8,0.6,0.7
2025-04-29T0900,1945A,98.2908,39.7711,嘉峪关市,气象局,,34,34,69,12,23,97,,96,96,11,8,2,7,0.3,0.3
2025-04-29T0900,2884A,98.2672,39.7978,嘉峪关市,酒钢宾馆,颗粒物(PM10),51,51,82,19,22,95,,88,88,13,8,28,17,0.3,0.3
2025-04-29T0900,3248A,98.2643,39.7724,嘉峪关市,雄关区,,34,34,64,12,24,95,,86,86,14,13,4,6,0.4,0.5
2025-04-29T0900,1383A,113.1064,22.6058,江门市,北街,颗粒物(PM10),56,62,44,22,18,59,,14,14,40,43,5,2,0.6,0.6
2025-04-29T0900,1384A,113.0731,22.5835,江门市,西区,颗粒物(PM10),56,62,35,16,17,55,,32,32,46,38,9,6,0.7,0.6
2025-04-29T0900,1385A,113.0219,22.5311,江门市,圭峰西,,,53,33,24,17,59,,40,40,,26,,5,0.8,0.7
2025-04-29T0900,1386A,113.0828,22.5947,江门市,东湖,,44,44,32,24,22,52,,26,26,44,35,10,8,0.7,0.7
2025-04-29T0900,3311A,113.1075,22.5647,江门市,江海富民,,45,41,42,31,27,66,,28,28,29,33,10,8,0.7,0.6
2025-04-29T0900,3449A,113.05,22.4667,江门市,新会银湖,,34,34,40,21,22,79,,12,12,18,40,3,3,0.6,0.7
2025-04-29T0900,1830A,113.1992,35.2590,焦作市,影视城,,,,30,,12,,,,,,16,,12,,0.5
2025-04-29T0900,3169A,113.2725,35.2067,焦作市,太极体育中心,颗粒物(PM10),59,68,95,33,32,73,,62,62,24,23,12,7,0.7,0.5
2025-04-29T0900,3335A,113.3137,35.2641,焦作市,马村街道办,颗粒物(PM10),68,86,75,33,28,77,,72,72,34,25,28,15,0.5,0.4
2025-04-29T0900,3336A,113.2465,35.2373,焦作市,焦作技师学院,颗粒物(PM10),70,89,84,29,23,80,,71,70,34,22,26,15,0.7,0.5
2025-04-29T0900,3477A,113.1656,35.2539,焦作市,中站许衡医院,颗粒物(PM10),65,79,70,34,27,94,,90,90,39,31,32,13,1.4,0.6
2025-04-29T0900,3981A,113.2449,35.1803,焦作市,原李万街道办,颗粒物(PM10),60,69,82,22,26,71,,62,62,28,26,24,21,0.7,0.5
2025-04-29T0900,4264A,113.2340,35.2190,焦作市,新安路1731号,颗粒物(PM10),75,100,82,34,31,76,,62,62,31,25,23,18,0.7,0.8
2025-04-29T0900,1708A,116.3701,23.5345,揭阳市,新兴,,39,39,29,24,21,59,,66,63,28,13,16,8,0.9,0.8
2025-04-29T0900,1709A,116.3264,23.5443,揭阳市,西马,颗粒物(PM10),57,64,38,22,14,63,,64,62,14,8,11,8,1.0,0.9
2025-04-29T0900,1710A,116.3611,23.5626,揭阳市,东兴,颗粒物(PM10),55,60,36,32,20,57,,57,55,18,9,10,7,0.8,0.6
2025-04-29T0900,1711A,116.4151,23.5294,揭阳市,渔湖,颗粒物(PM10),54,57,43,28,17,62,,64,62,23,14,16,6,0.9,0.8
2025-04-29T0900,3320A,116.403,23.5699,揭阳市,曲溪,,36,36,30,21,20,55,,63,60,32,16,23,7,0.8,0.7
2025-04-29T0900,1944A,102.1692,38.5167,金昌市,天庆家园,细颗粒物(PM2.5),84,,89,62,32,113,,114,114,4,5,10,14,0.7,0.6
2025-04-29T0900,4022A,102.1647,38.5371,金昌市,金川区人防中心,颗粒物(PM10),67,84,149,26,31,106,,110,109,7,6,16,24,0.7,0.4
2025-04-29T0900,4239A,102.1930,38.5319,金昌市,长春路96号,细颗粒物(PM2.5),84,,96,62,32,111,,113,113,3,4,8,15,0.6,0.5
2025-04-29T0900,1262A,119.647,29.077,金华市,十五中,细颗粒物(PM2.5),69,82,58,50,33,102,,52,52,33,35,4,2,0.7,0.7
2025-04-29T0900,1263A,119.686,29.1029,金华市,监测站,细颗粒物(PM2.5),74,84,60,54,39,113,,40,40,29,45,6,5,0.7,0.7
2025-04-29T0900,3659A,119.656,29.1131,金华市,气象局,颗粒物(PM10),70,90,68,44,35,106,,38,38,39,46,4,3,0.8,0.7
2025-04-29T0900,1767A,121.1115,41.0879,锦州市,南山,颗粒物(PM10),53,55,32,21,21,87,,72,72,26,21,16,7,0.6,0.5
2025-04-29T0900,1768A,121.0604,40.8428,锦州市,开发区,颗粒物(PM10),79,108,59,28,23,79,,78,77,30,23,6,10,0.6,0.6
2025-04-29T0900,1769A,121.1836,41.1119,锦州市,百股街道,颗粒物(PM10),59,68,36,12,15,89,,84,84,20,16,8,7,0.5,0.5
2025-04-29T0900,1770A,121.1178,41.1222,锦州市,天安街道,颗粒物(PM10),51,51,34,18,22,88,,82,82,24,18,12,8,0.6,0.6
2025-04-29T0900,1771A,121.1303,41.1386,锦州市,北湖公园,颗粒物(PM10),56,61,33,19,19,83,,83,82,21,14,13,9,0.5,0.5
2025-04-29T0900,2160A,112.85,35.5051,晋城市,自来水公司,颗粒物(PM10),78,105,70,27,15,45,,46,44,58,30,13,10,0.9,0.6
2025-04-29T0900,2161A,112.8318,35.4936,晋城市,白云商贸,颗粒物(PM10),68,85,50,24,11,63,,48,48,42,30,10,9,1.0,0.6
2025-04-29T0900,2162A,112.8508,35.4887,晋城市,市环保局,颗粒物(PM10),73,95,76,29,16,65,,37,37,35,33,11,8,0.8,0.4
2025-04-29T0900,2163A,112.8676,35.4897,晋城市,技术学院,颗粒物(PM10),71,91,66,27,14,50,,48,45,44,30,12,10,0.8,0.7
2025-04-29T0900,2165A,112.8453,35.546,晋城市,白马寺,,,,37,,16,,,113,,,9,,7,,0.3
2025-04-29T0900,3620A,112.8271,35.4828,晋城市,泽州一中,颗粒物(PM10),73,96,48,22,11,63,,47,47,40,26,6,6,0.8,0.5
2025-04-29T0900,2173A,112.7249,37.7067,晋中市,南都小区,颗粒物(PM10),68,86,51,25,14,53,,32,32,34,27,51,15,1.0,0.3
2025-04-29T0900,2174A,112.6991,37.6982,晋中市,榆次区政府,,,97,54,22,13,,,31,29,37,30,50,16,0.8,0.3
2025-04-29T0900,2865A,112.7195,37.6828,晋中市,榆次三中,颗粒物(PM10),85,119,57,39,18,48,,24,24,44,31,44,14,1.0,0.2
2025-04-29T0900,4200A,112.7478,37.6954,晋中市,迎宾街26号,颗粒物(PM10),79,107,57,31,16,50,,28,28,36,25,44,13,0.8,0.5
2025-04-29T0900,2439A,112.2014,31.0481,荆门市,竹园小学,颗粒物(PM10),74,97,74,35,28,134,,120,118,19,18,14,8,0.3,0.3
2025-04-29T0900,2440A,112.1969,30.9891,荆门市,掇刀,颗粒物(PM10),75,100,66,33,28,105,,92,91,21,15,15,13,0.4,0.3
2025-04-29T0900,2441A,112.2213,31.0386,荆门市,石化一小,颗粒物(PM10),94,137,74,50,31,116,,93,91,48,22,18,13,0.8,0.5
2025-04-29T0900,3012A,112.1849,31.0362,荆门市,西山林语,颗粒物(PM10),64,78,61,30,24,115,,106,104,17,10,11,9,0.5,0.5
2025-04-29T0900,3547A,112.1632,31.0138,荆门市,龙泉中学南校,颗粒物(PM10),66,82,66,38,28,107,,92,92,26,18,10,10,0.5,0.4
2025-04-29T0900,1844A,112.2494,30.3197,荆州市,市图书馆,颗粒物(PM10),63,76,68,39,36,85,,103,97,32,21,10,8,0.9,0.7
2025-04-29T0900,1845A,112.2008,30.3544,荆州市,市委党校,"颗粒物(PM10),细颗粒物(PM2.5)",72,94,73,52,37,69,,89,83,29,21,13,9,0.7,0.5
2025-04-29T0900,3194A,112.2747,30.3122,荆州市,管委会,细颗粒物(PM2.5),63,65,64,45,37,89,,105,102,22,18,10,24,0.8,0.7
2025-04-29T0900,4268A,112.1722,30.3366,荆州市,学苑路85号,细颗粒物(PM2.5),82,84,65,60,41,63,,60,58,31,30,9,5,0.7,0.5
2025-04-29T0900,2342A,117.3102,29.3867,景德镇市,王港中学,,,,,,,,,,,,,,,,
2025-04-29T0900,2343A,117.2117,29.2933,景德镇市,老干部活动中心,,42,42,53,25,34,54,,19,19,16,19,8,9,0.6,0.6
2025-04-29T0900,2344A,117.1894,29.2789,景德镇市,兽医站,颗粒物(PM10),51,52,61,31,34,38,,23,23,19,18,4,6,0.6,0.7
2025-04-29T0900,2345A,117.1547,29.2617,景德镇市,台达陶瓷,颗粒物(PM10),56,61,78,33,44,37,,18,18,18,31,10,59,0.6,0.9
2025-04-29T0900,2346A,117.2461,29.2956,景德镇市,陶研所,,44,44,55,30,37,57,,21,21,18,16,7,7,0.5,0.6
2025-04-29T0900,1803A,115.9872,29.6815,九江市,十里,细颗粒物(PM2.5),59,62,58,42,42,57,,38,38,34,22,3,3,0.8,0.8
2025-04-29T0900,1804A,115.9584,29.7046,九江市,茅山头,颗粒物(PM10),56,61,65,39,39,64,,43,43,16,18,5,6,0.5,0.5
2025-04-29T0900,1805A,115.9877,29.7295,九江市,西园,细颗粒物(PM2.5),59,58,57,42,36,55,,29,27,45,50,8,12,0.8,0.8
2025-04-29T0900,1808A,115.9114,29.6038,九江市,综合工业园,细颗粒物(PM2.5),62,72,67,44,40,46,,44,42,63,42,13,10,0.9,0.9
2025-04-29T0900,1809A,116.0721,29.7535,九江市,石化总厂,细颗粒物(PM2.5),88,82,67,65,51,76,,17,16,27,39,23,10,0.9,1
2025-04-29T0900,1810A,115.9773,29.5698,九江市,庐山气象台,,42,42,61,19,45,118,,147,142,8,14,6,6,0.8,0.7
2025-04-29T0900,3190A,116.0254,29.6994,九江市,外国语学校,细颗粒物(PM2.5),64,68,58,46,41,79,,28,28,34,31,6,5,1.2,1.1
2025-04-29T0900,4253A,116.0102,29.6594,九江市,莲花大道8号,细颗粒物(PM2.5),70,70,62,51,40,98,,75,74,14,9,6,6,0.8,0.8
2025-04-29T0900,4240A,98.4958,39.7339,酒泉市,玉门东路5号,颗粒物(PM10),63,75,99,15,30,94,,92,92,19,8,10,13,0.2,0.2
2025-04-29T0900,4241A,98.5099,39.7506,酒泉市,北大街108号,颗粒物(PM10),58,66,100,22,23,103,,98,98,15,9,11,13,0.3,0.3
2025-04-29T0900,2698A,76.0072,39.4467,喀什地区,巡警大队,颗粒物(PM10),109,167,303,51,61,46,,23,23,33,37,4,4,0.5,0.6
2025-04-29T0900,2699A,75.9755,39.4694,喀什地区,吾办,颗粒物(PM10),94,138,229,57,74,28,,33,33,32,36,9,7,0.4,0.5
2025-04-29T0900,4027A,75.9483,39.4689,喀什地区,老干局,颗粒物(PM10),80,109,211,26,47,58,,60,60,12,24,3,4,0.4,0.6
2025-04-29T0900,1824A,114.3389,34.7781,开封市,肿瘤医院,,,,69,,15,,,,,,16,18,10,,0.4
2025-04-29T0900,1826A,114.2885,34.7965,开封市,世纪星幼儿园,颗粒物(PM10),85,120,69,28,12,76,,58,57,33,20,18,10,0.9,0.6
2025-04-29T0900,3147A,114.3438,34.8106,开封市,龙亭公园,颗粒物(PM10),67,83,75,26,16,91,,71,71,28,20,14,5,0.8,0.6
2025-04-29T0900,3210A,114.3644,34.7964,开封市,汴京公园,颗粒物(PM10),84,117,132,35,17,91,,71,71,28,19,14,6,0.8,0.6
2025-04-29T0900,3473A,114.2485,34.8306,开封市,技师学院,,,78,69,,33,77,,64,63,32,20,15,7,0.8,0.6
2025-04-29T0900,3592A,114.4644,34.7556,开封市,祥符区生态环境局,颗粒物(PM10),64,78,55,37,18,83,,69,69,29,28,13,8,0.6,0.4
2025-04-29T0900,1951A,84.895,45.6094,克拉玛依市,长征新村,,46,46,44,3,9,56,,80,75,20,13,8,7,0.3,0.3
2025-04-29T0900,1952A,84.8988,45.5893,克拉玛依市,南林小区,,47,47,42,10,11,45,,83,77,21,12,5,4,0.5,0.3
2025-04-29T0900,1954A,84.905,44.3396,克拉玛依市,独山子区,,34,34,34,13,13,79,,90,87,7,10,7,9,0.3,0.3
2025-04-29T0900,1955A,85.6979,46.098,克拉玛依市,乌尔禾区商贸楼,颗粒物(PM10),67,83,42,7,10,34,,55,52,25,10,7,7,0.4,0.3
2025-04-29T0900,3612A,85.1045,45.6899,克拉玛依市,白碱滩区新站,,45,45,42,10,11,50,,88,82,22,7,10,11,0.3,0.1
2025-04-29T0900,2697A,76.1454,39.7142,克孜勒苏柯尔克孜自治州,市人民政府,颗粒物(PM10),89,128,212,40,63,91,,98,98,6,8,5,16,0.1,0.3
2025-04-29T0900,3665A,76.1658,39.7157,克孜勒苏柯尔克孜自治州,克州文化中心,颗粒物(PM10),86,121,220,28,64,86,,97,95,4,12,7,15,0.2,0.3
2025-04-29T0900,1450A,102.8204,24.8886,昆明市,呈贡新区,,31,31,41,19,27,92,,88,86,17,11,5,5,0.8,0.8
2025-04-29T0900,1451A,102.6251,24.9608,昆明市,西山森林公园,,,,,,,,,,,,,,,,
2025-04-29T0900,1452A,102.7252,25.0902,昆明市,龙泉镇,,38,34,38,26,24,34,,58,52,24,14,8,9,0.6,0.5
2025-04-29T0900,1453A,102.7266,25.0375,昆明市,东风东路,,39,39,50,24,33,79,,74,74,27,20,7,8,0.7,0.6
2025-04-29T0900,1454A,102.6742,25.0669,昆明市,金鼎山,,29,29,47,18,30,90,,81,81,20,16,2,3,0.6,0.5
2025-04-29T0900,1455A,102.6644,25.0401,昆明市,碧鸡广场,,35,35,47,20,29,87,,82,82,15,15,6,6,0.6,0.6
2025-04-29T0900,3179A,102.7494,25.0119,昆明市,官渡区博物馆,,26,26,46,18,25,72,,65,64,20,19,6,7,0.7,0.6
2025-04-29T0900,3375A,102.8017,24.8336,昆明市,青年创业园,,31,31,43,20,29,98,,95,95,11,10,7,7,0.8,0.7
2025-04-29T0900,3550A,102.7997,24.9786,昆明市,昆明学院,,39,38,50,27,29,77,,77,75,24,15,6,6,0.6,0.5
2025-04-29T0900,3551A,102.5967,24.6736,昆明市,晋宁区生态环境分局,,35,29,40,24,31,101,,92,92,10,10,5,6,0.5,0.4
2025-04-29T0900,3552A,102.6678,24.9856,昆明市,云天化总部,,35,34,43,24,28,86,,88,87,11,12,5,6,0.7,0.6
2025-04-29T0900,1456A,91.1319,29.6514,拉萨市,八廓街,,33,17,18,8,12,103,,117,115,11,10,5,6,0.3,0.7
2025-04-29T0900,1457A,91.1221,29.6747,拉萨市,市环保局,,29,10,17,6,10,92,,104,103,17,14,4,4,0.5,0.5
2025-04-29T0900,1458A,91.0874,29.6475,拉萨市,区监测站,,28,18,14,8,9,89,,105,102,20,13,5,6,0.3,0.3
2025-04-29T0900,1459A,91.1774,29.6541,拉萨市,西藏大学,,32,9,12,6,8,100,,112,110,11,10,4,6,0.2,0.3
2025-04-29T0900,1460A,90.9798,29.6588,拉萨市,区辐射站,,24,17,17,8,10,76,,105,100,31,18,8,8,0.5,0.5
2025-04-29T0900,1461A,91.0834,29.6292,拉萨市,拉萨火车站,,27,9,11,7,8,84,,108,104,16,8,3,3,0.4,0.4
2025-04-29T0900,2520A,109.2203,23.7256,来宾市,来宾技工学校,颗粒物(PM10),71,92,44,35,18,64,,34,34,28,21,17,9,0.6,0.5
2025-04-29T0900,3535A,109.1781,23.7297,来宾市,兴宾区政府,,43,43,35,23,21,63,,49,49,16,14,10,7,0.5,0.5
2025-04-29T0900,4002A,109.2416,23.7461,来宾市,中南小学,颗粒物(PM10),64,77,44,39,17,65,,48,48,26,17,11,7,0.6,0.5
2025-04-29T0900,1477A,104.1373,35.9454,兰州市,榆中兰大校区,,,,,,,,,,,,,,,,
2025-04-29T0900,1479A,103.831,36.0464,兰州市,铁路设计院,颗粒物(PM10),76,102,58,31,24,8,,14,14,66,53,32,14,1.9,0.8
2025-04-29T0900,3241A,103.7439,36.0842,兰州市,百合公园,颗粒物(PM10),74,98,50,41,21,11,,10,10,49,38,8,8,0.6,0.5
2025-04-29T0900,3242A,103.9611,35.998,兰州市,和平,,,92,60,35,30,33,,72,66,,16,15,12,0.9,0.6
2025-04-29T0900,4236A,103.6293,36.0938,兰州市,庄浪东路808号,颗粒物(PM10),78,106,61,41,30,22,,36,34,68,34,18,12,0.7,0.4
2025-04-29T0900,4237A,103.7251,36.1043,兰州市,安宁西路88号,颗粒物(PM10),66,81,68,37,35,29,,18,18,43,34,5,8,0.4,0.4
2025-04-29T0900,4238A,103.8470,36.0676,兰州市,北滨河东路1号,颗粒物(PM10),77,104,69,36,27,12,,4,4,54,51,25,14,1.7,0.9
2025-04-29T0900,3245A,103.6633,36.533,兰州新区,新区管委会,颗粒物(PM10),64,78,56,29,23,58,,51,51,36,17,6,7,0.5,0.4
2025-04-29T0900,3246A,103.6975,36.4789,兰州新区,舟曲中学,颗粒物(PM10),75,100,63,36,23,34,,61,58,53,22,6,9,0.5,0.3
2025-04-29T0900,1067A,116.6708,39.5111,廊坊市,药材公司,,,69,63,37,26,40,,33,33,39,30,,5,0.8,0.6
2025-04-29T0900,1068A,116.7214,39.5589,廊坊市,开发区,颗粒物(PM10),61,72,70,32,28,52,,31,31,29,26,10,5,0.8,0.5
2025-04-29T0900,1070A,116.7244,39.5269,廊坊市,北华航天学院,颗粒物(PM10),65,79,83,38,26,44,,29,29,37,32,14,8,0.8,0.5
2025-04-29T0900,2919A,116.7022,39.5453,廊坊市,河北工业大学,颗粒物(PM10),61,72,72,34,26,51,,31,31,30,28,14,9,0.7,0.5
2025-04-29T0900,2535A,103.7723,29.5462,乐山市,花湖湾,,25,20,40,12,24,78,,69,69,14,25,5,8,0.4,0.5
2025-04-29T0900,2536A,103.7627,29.5844,乐山市,牛耳桥,,26,20,43,11,23,83,,64,64,15,30,5,8,0.7,0.8
2025-04-29T0900,2537A,103.7508,29.6006,乐山市,市第三水厂,,24,20,39,12,22,75,,65,65,13,22,3,6,0.5,0.5
2025-04-29T0900,2538A,103.7571,29.5664,乐山市,市监测站,,23,19,40,9,24,73,,60,60,12,22,6,8,0.5,0.6
2025-04-29T0900,3361A,103.7311,29.5628,乐山市,理工大学,,24,18,38,12,22,74,,60,60,16,23,3,5,0.4,0.5
2025-04-29T0900,2598A,100.2143,26.8576,丽江市,西南郊,,37,21,49,14,27,117,,125,123,4,4,5,5,0.5,0.5
2025-04-29T0900,2599A,100.2497,26.8802,丽江市,丽江古城,,33,31,44,23,26,104,,110,109,12,11,8,9,0.6,0.6
2025-04-29T0900,2600A,100.2203,26.8906,丽江市,市中心,,29,,37,20,26,92,,98,97,8,6,7,7,1.0,0.9
2025-04-29T0900,1267A,119.914,28.4514,丽水市,监测站大楼,,45,44,47,31,22,59,,28,28,24,26,3,3,0.5,0.4
2025-04-29T0900,1268A,119.93,28.4586,丽水市,莲都小学,颗粒物(PM10),56,62,45,34,21,63,,45,44,19,16,4,3,0.4,0.4
2025-04-29T0900,1269A,119.879,28.4231,丽水市,余庄前,细颗粒物(PM2.5),69,66,41,50,27,40,,10,10,27,14,4,3,0.6,0.5
2025-04-29T0900,1173A,119.176,34.5885,连云港市,市环境监测站,颗粒物(PM10),60,70,44,36,21,115,,99,99,23,17,8,7,0.6,0.5
2025-04-29T0900,3000A,119.3581,34.6972,连云港市,德源药业,颗粒物(PM10),60,70,47,27,19,98,,71,71,29,24,9,10,0.5,0.3
2025-04-29T0900,3007A,119.178,34.844,连云港市,新城一中,细颗粒物(PM2.5),63,70,55,45,27,99,,67,67,28,25,9,9,0.7,0.7
2025-04-29T0900,3008A,119.3608,34.7519,连云港市,胡沟管理处,,48,48,29,19,15,115,,102,102,25,24,14,14,0.8,0.8
2025-04-29T0900,3009A,119.1478,34.5911,连云港市,矿山设计院,颗粒物(PM10),68,85,49,41,22,97,,107,105,38,23,13,10,0.6,0.5
2025-04-29T0900,3434A,119.2413,34.6539,连云港市,工贸学校,颗粒物(PM10),73,96,45,35,22,118,,114,114,25,18,11,9,0.5,0.5
2025-04-29T0900,3664A,119.4172,34.7341,连云港市,连云街道,,46,46,38,19,16,127,,132,131,19,21,10,9,0.4,0.4
2025-04-29T0900,2571A,102.3431,27.8099,凉山彝族自治州,青龙寺,,27,27,25,6,7,45,,34,33,10,12,3,3,0.7,0.6
2025-04-29T0900,2572A,102.2721,27.8415,凉山彝族自治州,邛海宾馆,,29,26,26,20,16,48,,40,40,17,21,9,8,0.6,0.6
2025-04-29T0900,2573A,102.2625,27.898,凉山彝族自治州,西昌市政府,,29,29,24,18,17,39,,49,46,28,15,11,9,0.8,0.6
2025-04-29T0900,2574A,102.2685,27.8851,凉山彝族自治州,凉山州政府,,26,26,27,14,14,49,,51,49,24,18,7,6,0.7,0.6
2025-04-29T0900,4229A,102.2342,27.8859,凉山彝族自治州,凯乐南路30号,,,31,32,18,20,33,,40,40,32,28,11,10,,0.6
2025-04-29T0900,2212A,123.2,41.1953,辽阳市,宏伟区,,,63,45,28,43,,,96,96,,11,9,8,0.6,0.5
2025-04-29T0900,2213A,123.1683,41.2495,辽阳市,新华园,颗粒物(PM10),73,96,61,23,35,110,,77,77,14,19,10,9,0.6,0.5
2025-04-29T0900,2214A,123.2354,41.2639,辽阳市,滨河路,颗粒物(PM10),51,51,49,23,37,96,,87,87,20,17,16,13,0.6,0.5
2025-04-29T0900,2215A,123.149,41.2991,辽阳市,铁西工业园,颗粒物(PM10),107,164,73,24,41,116,,72,72,12,19,13,11,0.7,0.5
2025-04-29T0900,2227A,125.1358,42.8845,辽源市,环保局,,,72,79,45,47,111,,58,58,16,25,10,8,,0.5
2025-04-29T0900,3239A,125.0764,42.9078,辽源市,银鹰制药,颗粒物(PM10),64,77,59,41,47,115,,57,57,14,24,6,6,0.4,0.5
2025-04-29T0900,1625A,115.9848,36.4372,聊城市,区政府,颗粒物(PM10),58,66,63,22,19,79,,83,81,18,15,9,8,0.5,0.5
2025-04-29T0900,2878A,116.0072,36.4343,聊城市,聊大东校,,,,66,,28,78,,86,83,15,14,9,9,0.3,0.4
2025-04-29T0900,3200A,115.9819,36.4978,聊城市,监控中心,颗粒物(PM10),62,74,58,29,17,86,,93,90,21,17,11,10,0.6,0.6
2025-04-29T0900,3513A,116.0445,36.4361,聊城市,九州社区,颗粒物(PM10),54,57,50,19,18,87,,82,82,22,22,5,8,0.4,0.5
2025-04-29T0900,4018A,116.0567,36.4608,聊城市,星美广场,颗粒物(PM10),57,63,56,16,13,87,,86,84,22,21,12,11,0.6,0.6
2025-04-29T0900,2632A,94.3681,29.6376,林芝市,林芝监测站,,25,,8,6,6,79,,99,96,10,7,5,5,0.2,0.2
2025-04-29T0900,2633A,94.3616,29.6616,林芝市,林芝人民医院,,25,11,11,6,7,78,,92,91,6,5,5,5,0.3,0.3
2025-04-29T0900,2603A,100.0781,23.8982,临沧市,市环保局,细颗粒物(PM2.5),55,41,82,39,53,65,,83,81,12,12,6,10,0.8,0.7
2025-04-29T0900,2604A,100.0894,23.8822,临沧市,市气象局,细颗粒物(PM2.5),52,41,70,36,49,72,,93,90,13,16,6,8,0.7,0.7
2025-04-29T0900,1733A,111.5531,36.0783,临汾市,临钢医院,颗粒物(PM10),74,97,66,52,16,53,,38,35,30,22,6,8,1.1,0.6
2025-04-29T0900,1734A,111.5028,36.0714,临汾市,技工学校,,,59,64,22,20,,,48,43,20,20,11,12,0.7,0.5
2025-04-29T0900,1736A,111.5018,36.0855,临汾市,市委,颗粒物(PM10),61,71,66,18,16,68,,49,48,19,20,10,13,0.6,0.4
2025-04-29T0900,3018A,111.505,36.1014,临汾市,唐尧大酒店,颗粒物(PM10),67,83,70,14,15,56,,42,42,23,26,6,8,0.8,0.5
2025-04-29T0900,4244A,111.4879,36.0530,临汾市,启星学校,颗粒物(PM10),59,67,74,23,29,66,,42,40,22,24,10,13,0.8,0.6
2025-04-29T0900,4271A,103.2464,35.6123,临夏回族自治州,滨河东路1号,颗粒物(PM10),62,74,65,35,32,26,,24,24,25,17,3,3,0.5,0.4
2025-04-29T0900,4310A,103.2093,35.5995,临夏回族自治州,新华街21号,颗粒物(PM10),77,103,61,49,36,23,,24,23,40,23,4,3,0.9,0.4
2025-04-29T0900,1618A,118.3429,35.0532,临沂市,沂河小区,颗粒物(PM10),71,92,68,41,34,95,,56,56,23,25,13,13,0.4,0.3
2025-04-29T0900,1619A,118.295,35.0583,临沂市,鲁南制药厂,颗粒物(PM10),64,78,63,41,25,101,,57,57,28,34,9,10,0.6,0.4
2025-04-29T0900,1620A,118.2794,34.9976,临沂市,新光毛纺厂,细颗粒物(PM2.5),67,75,65,48,42,102,,61,61,28,33,11,12,0.4,0.3
2025-04-29T0900,1621A,118.3956,35.0888,临沂市,河东保险公司,颗粒物(PM10),56,61,49,25,20,114,,75,75,21,23,10,10,0.5,0.3
2025-04-29T0900,3370A,118.3564,35.0215,临沂市,十里堡居委,颗粒物(PM10),75,100,64,36,29,103,,50,50,29,37,12,10,0.5,0.4
2025-04-29T0900,3496A,118.3604,35.1084,临沂市,南坊新区,颗粒物(PM10),62,73,62,41,25,102,,72,72,24,23,10,10,0.4,0.3
2025-04-29T0900,3860A,118.3920,35.0300,临沂市,皇山花园小区,颗粒物(PM10),71,92,64,38,29,98,,56,56,30,32,16,13,0.7,0.5
2025-04-29T0900,1870A,109.4856,24.3895,柳州市,柳东小学,颗粒物(PM10),56,61,42,38,22,102,,93,93,17,14,19,13,0.6,0.5
2025-04-29T0900,1871A,109.4157,24.3277,柳州市,环保监测站,颗粒物(PM10),58,66,42,36,21,96,,90,88,14,10,18,12,0.9,0.7
2025-04-29T0900,1872A,109.389,24.341,柳州市,河西水厂,颗粒物(PM10),73,96,49,38,24,78,,63,59,22,16,17,10,0.6,0.4
2025-04-29T0900,1873A,109.4311,24.2921,柳州市,市四中,颗粒物(PM10),53,56,44,26,19,99,,94,94,13,11,9,8,0.7,0.6
2025-04-29T0900,1874A,109.4006,24.3631,柳州市,市九中,颗粒物(PM10),65,79,47,43,20,86,,75,72,19,11,22,10,0.6,0.5
2025-04-29T0900,1875A,109.4958,24.3134,柳州市,古亭山,颗粒物(PM10),55,60,45,28,21,64,,97,91,33,10,21,13,0.8,0.6
2025-04-29T0900,3402A,109.5422,24.3996,柳州市,市二中,细颗粒物(PM2.5),60,43,38,43,25,84,,51,51,19,19,17,12,0.5,0.4
2025-04-29T0900,2307A,116.5079,31.737,六安市,监测大楼,颗粒物(PM10),58,66,74,29,45,101,,106,106,22,20,7,6,0.5,0.5
2025-04-29T0900,2308A,116.4738,31.7643,六安市,皖西学院,颗粒物(PM10),60,69,82,33,47,104,,86,86,27,19,5,7,0.5,0.5
2025-04-29T0900,2309A,116.4996,31.7905,六安市,朝阳厂,颗粒物(PM10),59,67,75,37,44,101,,99,99,30,24,5,5,0.5,0.5
2025-04-29T0900,2310A,116.5567,31.7886,六安市,开发区,颗粒物(PM10),65,79,92,44,47,100,,53,53,26,31,7,6,0.5,0.6
2025-04-29T0900,2576A,104.8,26.5892,六盘水市,窑上,,35,35,32,18,21,67,,46,46,9,7,5,6,0.3,0.3
2025-04-29T0900,2577A,104.83,26.5917,六盘水市,黄土坡,,37,37,32,18,18,80,,72,72,16,16,9,11,0.5,0.4
2025-04-29T0900,2578A,104.89,26.5939,六盘水市,水钢,,39,39,38,17,17,84,,90,90,11,13,9,9,0.3,0.3
2025-04-29T0900,2579A,104.8475,26.5894,六盘水市,民中,,31,31,32,12,18,79,,79,79,14,14,9,11,0.3,0.3
2025-04-29T0900,2580A,104.9544,26.5506,六盘水市,双水,,34,34,31,13,12,85,,93,93,13,13,9,9,0.4,0.4
2025-04-29T0900,2335A,117.0189,25.1181,龙岩市,龙岩师专,,,,,,,,,,,,,,,,
2025-04-29T0900,2336A,117.0217,25.1033,龙岩市,龙岩市监测站,,,44,26,26,12,,,12,11,16,21,6,4,0.7,0.6
2025-04-29T0900,2337A,117.0258,25.0661,龙岩市,闽西职业技术学院,,37,37,34,23,13,49,,25,25,13,16,6,10,0.7,0.7
2025-04-29T0900,2338A,117.0196,25.0306,龙岩市,龙岩学院,,49,47,25,34,13,34,,20,20,15,10,13,9,0.6,0.5
2025-04-29T0900,2665A,105.0822,33.3261,陇南市,汉王镇固水子,,,,,,,,,,,,,,,,
2025-04-29T0900,2885A,104.9339,33.3826,陇南市,滨江中学,,43,43,49,23,23,59,,75,71,12,6,9,8,0.5,0.5
2025-04-29T0900,3247A,104.955,33.371,陇南市,市总工会,,42,42,43,16,20,63,,80,76,10,5,7,6,0.3,0.2
2025-04-29T0900,2487A,111.9589,27.8901,娄底市,电视发射台,颗粒物(PM10),67,83,60,28,28,50,,42,42,4,4,5,4,0.6,0.4
2025-04-29T0900,2488A,111.9975,27.725,娄底市,市监测站,,,73,83,40,55,,,25,25,21,32,14,12,1.0,1.2
2025-04-29T0900,2489A,112.0194,27.7314,娄底市,市委党校,细颗粒物(PM2.5),69,68,77,50,52,38,,27,26,23,20,8,4,0.9,0.8
2025-04-29T0900,2490A,111.9561,27.7569,娄底市,涟钢,颗粒物(PM10),68,86,69,46,41,48,,35,35,18,15,11,13,0.4,0.4
2025-04-29T0900,2491A,111.9892,27.7044,娄底市,市政府,颗粒物(PM10),60,70,67,19,44,37,,22,22,10,14,4,4,0.5,0.5
2025-04-29T0900,1893A,105.4324,28.9634,泸州市,九狮山,,,,,,,,,,,,,,,,
2025-04-29T0900,1894A,105.4427,28.9063,泸州市,小市上码头,,49,49,59,29,34,64,,52,52,21,22,6,8,0.7,0.7
2025-04-29T0900,1895A,105.4241,28.8573,泸州市,兰田宪桥,细颗粒物(PM2.5),64,,55,46,42,58,,40,40,25,22,7,8,0.6,0.7
2025-04-29T0900,1896A,105.4379,28.8833,泸州市,市环监站,,,,,,,,,,,,,,,,
2025-04-29T0900,4272A,105.3689,28.7783,泸州市,纳溪中医医院,,49,43,64,34,40,74,,41,41,8,25,6,7,0.8,0.8
2025-04-29T0900,2183A,111.1406,37.5211,吕梁市,环保局,颗粒物(PM10),71,91,62,12,14,36,,28,28,40,30,6,3,0.7,0.3
2025-04-29T0900,2185A,111.1297,37.5136,吕梁市,自来水公司,颗粒物(PM10),79,108,69,12,15,30,,16,16,34,25,6,4,0.7,0.4
2025-04-29T0900,2867A,111.1283,37.51,吕梁市,马茂庄小学,颗粒物(PM10),69,87,63,16,14,27,,18,18,44,35,8,4,0.8,0.3
2025-04-29T0900,1812A,112.3931,34.6516,洛阳市,市委党校,,,43,44,14,16,,,68,68,16,18,,5,0.4,0.4
2025-04-29T0900,1815A,112.494,34.6886,洛阳市,河南林校,,44,44,52,13,19,75,,68,68,21,18,5,8,0.3,0.4
2025-04-29T0900,1816A,112.3844,34.623,洛阳市,开发区管委会,,27,27,44,6,18,78,,62,62,17,22,4,6,0.4,0.4
2025-04-29T0900,1817A,112.4267,34.6258,洛阳市,市委新办公区,,33,33,42,13,16,86,,73,73,13,18,5,6,0.3,0.4
2025-04-29T0900,3340A,112.6005,34.6326,洛阳市,伊滨,颗粒物(PM10),62,73,56,15,28,91,,74,74,14,16,9,9,0.4,0.4
2025-04-29T0900,3341A,112.4951,34.6332,洛阳市,中移产业园,颗粒物(PM10),51,51,61,13,19,93,,82,82,14,17,6,7,0.3,0.3
2025-04-29T0900,3593A,112.5736,34.8993,洛阳市,吉利监测站,,50,50,49,13,12,89,,70,70,15,17,10,10,0.4,0.4
2025-04-29T0900,3635A,112.3677,34.662,洛阳市,河科大西苑校区,,49,49,45,18,16,80,,39,39,27,28,7,9,0.4,0.4
2025-04-29T0900,3636A,112.4388,34.6781,洛阳市,英才小学,,48,48,51,19,18,64,,44,42,46,33,6,7,0.7,0.6
2025-04-29T0900,4214A,112.4600,34.6949,洛阳市,春都路1号院,颗粒物(PM10),63,76,70,26,23,60,,35,35,49,32,6,8,0.6,0.6
2025-04-29T0900,2399A,114.051,33.5699,漯河市,三五一五工厂,颗粒物(PM10),54,57,45,19,17,92,,68,68,23,18,11,7,0.6,0.5
2025-04-29T0900,2400A,114.0055,33.5698,漯河市,漯河大学,,50,50,42,17,14,91,,66,66,22,18,8,10,0.5,0.3
2025-04-29T0900,2401A,114.0138,33.5828,漯河市,市水利局,颗粒物(PM10),53,56,40,14,14,97,,73,73,16,13,7,7,0.4,0.3
2025-04-29T0900,2402A,114.0261,33.5698,漯河市,市广电局,,46,46,38,19,14,89,,76,75,18,11,7,7,0.5,0.3
2025-04-29T0900,3478A,113.9749,33.5664,漯河市,市图书馆,,,,50,,13,,,74,72,20,19,7,10,0.5,0.4
2025-04-29T0900,4250A,114.0892,33.5882,漯河市,韶山路11号,颗粒物(PM10),52,54,47,15,16,96,,81,81,22,17,19,8,0.5,0.4
2025-04-29T0900,1798A,118.5092,31.6837,马鞍山市,湖东路四小,颗粒物(PM10),65,79,59,37,30,116,,88,88,29,23,12,12,0.9,0.8
2025-04-29T0900,1799A,118.5024,31.6449,马鞍山市,开发区,细颗粒物(PM2.5),69,76,76,50,41,112,,67,67,28,32,10,12,0.9,0.8
2025-04-29T0900,1802A,118.6245,31.7241,马鞍山市,濮塘,颗粒物(PM10),65,80,61,33,29,130,,95,95,20,15,12,10,0.9,0.7
2025-04-29T0900,3633A,118.4918,31.6809,马鞍山市,雨山,颗粒物(PM10),62,73,64,43,29,128,,87,87,24,24,12,13,0.8,0.8
2025-04-29T0900,4191A,118.5274,31.72227,马鞍山市,慈湖高新区,颗粒物(PM10),75,100,66,40,34,110,,79,79,34,26,12,12,1.0,0.9
2025-04-29T0900,1686A,111.0286,21.4688,茂名市,电白南海,,42,41,27,29,19,30,,43,40,18,13,6,3,1.1,0.8
2025-04-29T0900,1687A,110.9294,21.6533,茂名市,茂石化七小,颗粒物(PM10),51,51,34,24,18,30,,32,29,24,16,9,7,1.2,1
2025-04-29T0900,1688A,110.9107,21.6687,茂名市,健康路,颗粒物(PM10),51,51,28,27,18,26,,26,24,24,14,20,9,1.2,0.9
2025-04-29T0900,1689A,110.8592,21.6828,茂名市,高岭,,48,48,40,17,15,22,,15,15,12,14,33,9,1.0,0.8
2025-04-29T0900,3450A,111.01,21.5165,茂名市,电白水东,,41,41,19,17,12,37,,46,44,22,17,6,4,1.2,1
2025-04-29T0900,2539A,104.0308,30.0478,眉山市,黑龙滩水库,,27,18,38,16,25,86,,72,72,3,20,1,2,0.3,0.4
2025-04-29T0900,2540A,103.8416,30.0874,眉山市,气象局,,28,28,58,12,31,65,,59,59,20,36,4,7,0.5,0.6
2025-04-29T0900,3137A,103.8578,30.0744,眉山市,市委党校,,19,17,45,12,23,59,,63,63,26,36,6,9,0.2,0.2
2025-04-29T0900,3148A,103.8291,30.0564,眉山市,区人社局,,26,26,37,9,20,66,,67,67,27,37,4,8,0.3,0.4
2025-04-29T0900,1690A,116.1231,24.3284,梅州市,梅江月梅,,42,42,29,17,9,39,,15,15,15,17,6,5,0.8,0.7
2025-04-29T0900,1691A,116.0797,24.2719,梅州市,梅县新城,颗粒物(PM10),51,52,31,15,10,36,,28,28,21,17,8,5,0.9,0.7
2025-04-29T0900,1692A,116.1248,24.2654,梅州市,环境监控中心,,34,34,26,18,11,47,,13,13,17,20,12,8,0.8,0.7
2025-04-29T0900,3315A,116.1233,24.2991,梅州市,梅龙,,36,36,26,19,13,41,,27,27,10,10,7,7,0.8,0.8
2025-04-29T0900,1878A,104.7778,31.4741,绵阳市,富乐山,,29,27,46,20,20,51,,69,67,14,11,7,7,0.4,0.4
2025-04-29T0900,1880A,104.6697,31.4668,绵阳市,高新区自来水公司,,30,30,50,12,19,36,,71,71,37,22,2,3,0.6,0.3
2025-04-29T0900,1881A,104.7287,31.5075,绵阳市,三水厂,,26,26,56,16,24,41,,62,61,33,23,5,6,0.8,0.6
2025-04-29T0900,3491A,104.69,31.5322,绵阳市,西科大附属小学,,35,35,49,16,21,31,,61,61,37,19,6,7,0.6,0.5
2025-04-29T0900,3492A,104.5648,31.5343,绵阳市,安州区旅游局,,23,23,39,7,17,48,,73,70,24,13,11,8,0.4,0.3
2025-04-29T0900,4226A,104.7651,31.4531,绵阳市,绵阳市气象局,,29,29,44,14,21,46,,74,70,30,16,3,2,0.5,0.5
2025-04-29T0900,1784A,129.61,44.561,牡丹江市,环保大楼,细颗粒物(PM2.5),75,67,74,55,54,64,,47,46,29,24,7,6,0.6,0.5
2025-04-29T0900,1785A,129.6115,44.5782,牡丹江市,文化广场,细颗粒物(PM2.5),74,59,84,54,60,65,,38,38,32,26,12,11,0.8,0.7
2025-04-29T0900,1786A,129.5904,44.5963,牡丹江市,第一医院,细颗粒物(PM2.5),80,65,67,59,56,77,,50,50,22,14,9,7,0.6,0.5
2025-04-29T0900,1787A,129.6364,44.6075,牡丹江市,机车工厂,细颗粒物(PM2.5),73,77,78,53,54,75,,38,38,23,18,10,26,0.6,0.6
2025-04-29T0900,1788A,129.6386,44.5462,牡丹江市,第一中学,颗粒物(PM10),61,72,68,38,54,75,,42,42,22,19,8,7,0.7,0.6
2025-04-29T0900,2531A,105.0703,29.61,内江市,市监测站,,30,29,50,15,39,96,,86,86,8,24,9,10,0.9,1.1
2025-04-29T0900,2532A,105.0717,29.5947,内江市,东兴区政府,,26,24,41,10,30,82,,82,82,13,21,11,13,0.7,0.8
2025-04-29T0900,2533A,105.0653,29.5817,内江市,内江二中,,38,38,56,11,38,84,,79,79,12,27,5,8,0.4,0.6
2025-04-29T0900,2534A,105.0406,29.5822,内江市,内江日报社,,33,33,47,11,37,92,,83,83,3,17,10,12,0.2,0.4
2025-04-29T0900,2628A,92.0657,31.4846,那曲市,那曲监测站,颗粒物(PM10),55,59,32,31,16,89,,99,98,19,11,8,7,0.7,0.5
2025-04-29T0900,4243A,92.0515,31.4787,那曲市,那曲市委宣传部,,49,49,33,25,14,98,,105,104,7,6,8,7,0.3,0.2
2025-04-29T0900,1290A,115.8931,28.6843,南昌市,省外办,细颗粒物(PM2.5),70,77,58,51,43,72,,20,20,35,36,10,6,0.8,0.8
2025-04-29T0900,1291A,115.8886,28.7003,南昌市,省林业公司,颗粒物(PM10),65,80,54,46,35,64,,16,16,22,28,7,7,0.8,0.8
2025-04-29T0900,1292A,115.8126,28.7442,南昌市,林科所,细颗粒物(PM2.5),62,70,49,44,32,65,,36,35,29,38,6,5,0.7,0.5
2025-04-29T0900,1294A,115.8518,28.687,南昌市,建工学校,颗粒物(PM10),65,79,60,45,32,52,,18,18,36,39,8,4,0.8,0.9
2025-04-29T0900,1295A,115.8921,28.6424,南昌市,象湖,细颗粒物(PM2.5),70,76,54,51,36,88,,14,14,17,40,12,7,0.9,1
2025-04-29T0900,1296A,115.7423,28.7996,南昌市,武术学校,,40,40,36,14,16,74,,10,10,4,2,4,3,0.7,0.6
2025-04-29T0900,3046A,115.9084,28.6062,南昌市,机电学校,细颗粒物(PM2.5),77,94,59,56,38,70,,14,14,30,35,6,4,0.7,0.6
2025-04-29T0900,3690A,115.9721,28.7031,南昌市,外国语学校,颗粒物(PM10),61,72,58,33,33,85,,35,35,15,27,11,8,0.5,0.6
2025-04-29T0900,4192A,115.9316,28.68677,南昌市,南京东路235号,细颗粒物(PM2.5),68,82,71,49,42,84,,25,25,22,38,14,10,0.9,1
2025-04-29T0900,1905A,106.056,30.8064,南充市,西山风景区,细颗粒物(PM2.5),58,,25,41,21,84,,90,88,6,11,3,4,0.4,0.9
2025-04-29T0900,1906A,106.0789,30.8023,南充市,南充市委,,23,22,48,12,28,72,,61,61,15,21,3,4,0.5,0.6
2025-04-29T0900,1907A,106.1031,30.8217,南充市,南充炼油厂,,26,20,48,18,29,75,,64,64,7,18,2,4,0.4,0.5
2025-04-29T0900,4227A,106.1083,30.7884,南充市,梨树横街98号,,25,22,54,13,27,77,,60,60,10,22,2,4,0.2,0.3
2025-04-29T0900,4304A,106.1172,30.843,南充市,清泉寺北路188号,,24,23,46,3,24,76,,63,63,8,18,4,4,0.3,0.4
2025-04-29T0900,4305A,106.067,30.7616,南充市,同庆路1号,,28,25,49,19,30,68,,59,59,18,23,3,4,0.1,0.2
2025-04-29T0900,1151A,118.8086,32.1065,南京市,迈皋桥,颗粒物(PM10),56,62,44,31,23,102,,69,69,55,37,4,4,0.6,0.3
2025-04-29T0900,1152A,118.7538,32.0551,南京市,草场门,,,70,54,36,26,,,67,64,27,27,5,4,0.2,0.2
2025-04-29T0900,1153A,118.7794,32.0745,南京市,山西路,颗粒物(PM10),69,88,64,34,25,117,,76,76,37,29,8,7,0.5,0.4
2025-04-29T0900,1154A,118.7752,32.0023,南京市,中华门,颗粒物(PM10),60,70,58,31,25,108,,61,61,33,28,9,7,0.5,0.4
2025-04-29T0900,1155A,118.8109,32.0309,南京市,瑞金路,颗粒物(PM10),69,88,61,41,29,109,,63,63,37,19,6,6,0.5,0.5
2025-04-29T0900,1156A,118.7997,32.0754,南京市,玄武湖,,,89,51,8,21,,,69,67,24,13,14,13,0.7,0.5
2025-04-29T0900,1157A,118.6414,32.0931,南京市,浦口,颗粒物(PM10),64,78,62,32,23,107,,72,72,43,25,12,7,0.6,0.5
2025-04-29T0900,1158A,118.7356,31.9996,南京市,奥体中心,颗粒物(PM10),67,84,62,36,26,132,,70,70,29,28,13,11,0.4,0.4
2025-04-29T0900,1159A,118.9125,32.1028,南京市,仙林大学城,颗粒物(PM10),67,83,59,41,28,102,,59,59,39,29,12,11,0.6,0.5
2025-04-29T0900,3422A,118.8436,31.9198,南京市,江宁彩虹桥,颗粒物(PM10),55,59,58,36,27,81,,51,51,44,33,4,4,0.6,0.5
2025-04-29T0900,3427A,118.8554,32.3578,南京市,六合雄州,颗粒物(PM10),63,75,47,43,29,99,,19,19,66,48,15,7,1.2,0.4
2025-04-29T0900,4249A,118.8708,31.3402,南京市,汶溪路181号,,49,44,60,34,32,113,,73,73,26,20,6,5,0.8,0.7
2025-04-29T0900,4312A,119.019,31.6512,南京市,中山西路1号,颗粒物(PM10),54,58,46,26,27,137,,72,72,17,26,5,8,0.7,0.6
2025-04-29T0900,1401A,108.3103,22.7881,南宁市,二十一中,,47,47,35,24,18,59,,42,41,21,15,8,4,1.0,0.9
2025-04-29T0900,1402A,108.3141,22.8528,南宁市,北湖,,48,48,37,24,22,61,,26,25,25,23,10,8,0.8,0.7
2025-04-29T0900,1403A,108.3206,22.8225,南宁市,市监测站,,44,44,40,24,20,56,,39,39,24,19,12,6,0.6,0.6
2025-04-29T0900,1404A,108.3829,22.8037,南宁市,大自然花园,,50,50,35,24,19,59,,39,39,24,16,10,6,0.7,0.7
2025-04-29T0900,1405A,108.4394,22.7904,南宁市,仙葫,,45,45,35,30,21,51,,30,30,22,17,9,6,0.8,0.7
2025-04-29T0900,1406A,108.2397,22.8467,南宁市,区农职院,颗粒物(PM10),51,51,35,30,19,37,,27,26,30,17,8,6,0.7,0.6
2025-04-29T0900,1407A,108.3275,22.735,南宁市,英华嘉园,,46,46,32,22,20,57,,38,36,24,19,9,7,0.6,0.6
2025-04-29T0900,3401A,108.4834,22.7618,南宁市,红星社区,细颗粒物(PM2.5),52,42,33,36,21,42,,31,29,24,16,10,9,0.6,0.5
2025-04-29T0900,4221A,108.2177,22.7774,南宁市,乐贤路16号,颗粒物(PM10),58,66,46,35,22,16,,24,21,42,25,9,8,0.7,0.5
2025-04-29T0900,2331A,118.0966,26.6761,南平市,茫荡山,,,,,,,,,,,,,,,,
2025-04-29T0900,2332A,118.1681,26.6369,南平市,南平市监测站,,41,41,28,22,21,50,,20,20,11,16,6,4,0.8,0.7
2025-04-29T0900,2333A,118.1825,26.6489,南平市,南平铝业有限公司,颗粒物(PM10),53,55,34,32,21,31,,19,19,15,14,30,5,1.3,0.8
2025-04-29T0900,2334A,118.1756,26.6272,南平市,南平七中,,49,49,29,27,19,42,,18,18,14,12,6,5,0.8,0.7
2025-04-29T0900,1168A,120.9098,31.9663,南通市,狼山街道,颗粒物(PM10),57,64,46,29,21,75,,26,26,39,25,8,4,0.8,0.6
2025-04-29T0900,1169A,120.86,32.0005,南通市,虹桥,细颗粒物(PM2.5),60,61,44,43,30,45,,34,33,68,33,6,3,0.9,0.8
2025-04-29T0900,1170A,120.87,32.02,南通市,城中,颗粒物(PM10),62,74,52,25,21,61,,36,35,52,30,7,4,0.5,0.4
2025-04-29T0900,1171A,120.94,31.93,南通市,星湖花园,颗粒物(PM10),59,67,44,35,25,71,,32,32,44,26,9,4,1.0,0.7
2025-04-29T0900,1172A,120.81,32.0417,南通市,紫琅学院,细颗粒物(PM2.5),59,58,46,42,27,47,,26,26,53,30,7,5,0.8,0.6
2025-04-29T0900,3291A,121.067,32.062,南通市,通州监测站,颗粒物(PM10),64,78,46,34,24,63,,55,54,38,16,11,6,0.6,0.5
2025-04-29T0900,3432A,120.9348,31.9883,南通市,环境教育馆,细颗粒物(PM2.5),72,85,45,52,24,57,,23,23,61,30,8,3,0.5,0.3
2025-04-29T0900,2404A,112.5224,33.0122,南阳市,瓦房庄,颗粒物(PM10),59,67,63,21,17,95,,52,52,20,23,8,6,0.5,0.5
2025-04-29T0900,2405A,112.5003,32.9735,南阳市,汉画馆,颗粒物(PM10),51,52,52,22,19,85,,30,30,20,27,8,6,0.4,0.4
2025-04-29T0900,2406A,112.5573,33.027,南阳市,气象站,颗粒物(PM10),67,83,63,24,18,57,,48,48,39,22,7,6,0.7,0.6
2025-04-29T0900,2407A,112.5481,32.9689,南阳市,理工学院,颗粒物(PM10),55,60,54,23,20,82,,66,66,27,21,7,6,0.5,0.4
2025-04-29T0900,4008A,112.5234,32.9922,南阳市,卧龙区政府,颗粒物(PM10),54,58,57,24,23,95,,49,49,17,23,6,5,0.5,0.5
2025-04-29T0900,1234A,121.8358,29.911,宁波市,区环保大楼,,48,48,30,22,22,62,,47,47,43,32,13,9,0.9,0.6
2025-04-29T0900,1235A,121.56,29.82,宁波市,万里学院,,36,36,37,24,25,89,,26,26,25,34,7,7,0.5,0.4
2025-04-29T0900,1236A,121.713,29.9572,宁波市,龙赛医院,颗粒物(PM10),58,65,48,18,15,60,,20,20,37,35,7,6,0.7,0.6
2025-04-29T0900,1239A,121.633,29.7733,宁波市,钱湖水厂,,,44,43,25,21,72,,44,44,32,29,,9,0.7,0.7
2025-04-29T0900,1240A,121.5856,29.8635,宁波市,太古小学,,43,43,40,18,17,70,,23,23,34,32,7,7,0.8,0.7
2025-04-29T0900,1241A,121.524,29.8674,宁波市,市环境监测中心,,34,34,36,11,17,66,,40,40,40,33,14,16,0.6,0.5
2025-04-29T0900,2871A,121.6147,29.9017,宁波市,万里国际学校,,29,,3,20,18,68,,19,19,38,43,10,10,0.6,0.5
2025-04-29T0900,3710A,121.5594,29.8975,宁波市,白沙活动中心,,29,27,31,14,17,90,,44,44,25,30,9,9,0.6,0.5
2025-04-29T0900,2339A,119.5001,26.6946,宁德市,金涵水库,,,,,,,,,,,,,,,,
2025-04-29T0900,2341A,119.5388,26.6612,宁德市,宁德市监测站,颗粒物(PM10),53,56,36,25,26,103,,81,80,25,22,11,5,0.6,0.6
2025-04-29T0900,3209A,119.5231,26.6562,宁德市,宁德一中,,37,31,33,25,24,118,,89,89,16,12,13,7,0.5,0.5
2025-04-29T0900,2618A,98.8601,25.8567,怒江傈僳族自治州,州监测站,,38,30,37,26,23,58,,70,66,4,4,6,6,0.3,0.3
2025-04-29T0900,2619A,98.8546,25.8417,怒江傈僳族自治州,泸水一中,,28,28,34,18,22,35,,57,51,13,8,6,6,0.5,0.4
2025-04-29T0900,1888A,101.6891,26.571,攀枝花市,弄弄坪,颗粒物(PM10),54,57,54,22,30,76,,80,78,24,17,11,10,0.7,0.7
2025-04-29T0900,1889A,101.5769,26.5928,攀枝花市,河门口,颗粒物(PM10),73,96,66,46,35,38,,49,47,34,19,15,12,1.2,0.9
2025-04-29T0900,1890A,101.7169,26.585,攀枝花市,炳草岗,颗粒物(PM10),67,83,55,30,29,62,,62,62,34,27,13,14,0.6,0.5
2025-04-29T0900,1891A,101.7369,26.5008,攀枝花市,仁和,颗粒物(PM10),66,82,62,46,34,48,,54,52,35,17,18,12,0.8,0.6
2025-04-29T0900,2835A,101.7227,26.567,攀枝花市,四十中小,,45,45,44,22,24,90,,104,100,13,15,12,10,0.8,0.8
2025-04-29T0900,1604A,122.0303,41.1489,盘锦市,开发区,颗粒物(PM10),58,66,34,30,25,96,,85,85,20,14,8,6,0.5,0.4
2025-04-29T0900,1605A,122.0485,41.0883,盘锦市,兴隆台,,47,47,40,14,24,92,,81,81,17,19,11,9,0.5,0.5
2025-04-29T0900,1606A,121.8297,41.1028,盘锦市,新生街道,,32,24,29,14,21,102,,95,95,17,19,9,8,0.4,0.4
2025-04-29T0900,1832A,113.3257,33.742,平顶山市,新华旅馆,颗粒物(PM10),57,63,62,24,21,93,,55,55,28,25,10,6,0.6,0.5
2025-04-29T0900,1833A,113.2919,33.737,平顶山市,规划设计院,颗粒物(PM10),61,72,47,25,18,82,,70,70,33,20,13,6,0.5,0.3
2025-04-29T0900,1834A,113.182,33.774,平顶山市,平顶山工学院,颗粒物(PM10),59,68,49,31,16,84,,77,76,23,15,14,4,0.2,0.1
2025-04-29T0900,3204A,113.3025,33.73,平顶山市,规划局,颗粒物(PM10),59,68,49,22,15,80,,67,67,35,18,14,7,0.5,0.4
2025-04-29T0900,3594A,112.8867,33.9116,平顶山市,石龙区,颗粒物(PM10),64,78,70,21,19,86,,62,62,33,29,10,9,0.3,0.3
2025-04-29T0900,2656A,106.6692,35.5461,平凉市,聚贤嘉苑,颗粒物(PM10),135,220,57,33,16,97,,70,70,7,19,14,15,0.4,0.4
2025-04-29T0900,2657A,106.7021,35.5307,平凉市,博物馆,颗粒物(PM10),133,215,63,31,16,93,,69,69,7,18,9,9,0.4,0.5
2025-04-29T0900,2347A,114.0997,27.5002,萍乡市,武功山,,42,42,35,29,20,57,,34,34,7,7,11,12,0.6,0.6
2025-04-29T0900,2348A,113.8385,27.6434,萍乡市,中医院,颗粒物(PM10),56,62,60,30,31,68,,30,30,11,13,9,9,0.8,0.8
2025-04-29T0900,2349A,113.8493,27.6253,萍乡市,市政府车库,颗粒物(PM10),55,59,49,37,37,74,,38,38,12,13,5,5,0.6,0.6
2025-04-29T0900,2350A,113.8676,27.6435,萍乡市,市环保局,,,72,57,48,37,,,32,27,,14,,5,,0.7
2025-04-29T0900,2351A,113.866,27.6198,萍乡市,安源区政府,颗粒物(PM10),60,70,56,39,34,49,,29,29,12,11,6,6,0.8,0.7
2025-04-29T0900,2319A,119.0141,25.4325,莆田市,荔城区仓后路,,,,38,,12,,,88,88,,15,,4,0.5,0.8
2025-04-29T0900,2320A,119.0015,25.4553,莆田市,莆田市监测站,,42,35,30,12,9,133,,82,82,10,10,5,7,0.4,0.6
2025-04-29T0900,2321A,119.1119,25.4561,莆田市,涵江区六中,,43,24,40,7,19,136,,116,116,12,19,4,5,0.3,0.6
2025-04-29T0900,2322A,119.1013,25.3215,莆田市,秀屿区政府,,48,48,35,9,18,131,,100,100,10,15,5,6,0.5,0.7
2025-04-29T0900,2323A,118.981,25.4792,莆田市,东圳水库,,,,,,,,,,,,,,,,
2025-04-29T0900,2392A,115.0312,35.7636,濮阳市,环保局,颗粒物(PM10),58,66,48,26,16,72,,89,84,29,17,12,9,0.7,0.6
2025-04-29T0900,2394A,115.0574,35.7609,濮阳市,油田运输公司,颗粒物(PM10),59,67,57,24,19,83,,96,91,27,18,12,8,0.8,0.7
2025-04-29T0900,3021A,115,35.7668,濮阳市,濮水河管理处,颗粒物(PM10),67,83,59,30,20,74,,79,76,25,15,11,8,0.7,0.6
2025-04-29T0900,4216A,115.0924,35.7686,濮阳市,任丘路479号,颗粒物(PM10),61,71,64,26,19,84,,91,87,27,17,12,9,0.8,0.7
2025-04-29T0900,2601A,100.98,22.7633,普洱市,市环保局,颗粒物(PM10),51,52,82,16,40,85,,114,109,16,11,8,9,0.8,0.7
2025-04-29T0900,2602A,100.9817,22.8322,普洱市,普洱第二中学,,48,34,64,33,36,77,,121,115,18,11,7,8,0.8,0.7
2025-04-29T0900,2262A,131.0518,45.8751,七台河市,新一中,,39,32,31,27,22,87,,45,45,11,13,13,11,0.7,0.8
2025-04-29T0900,3345A,131.0577,45.7879,七台河市,中波台,,43,37,42,30,25,57,,23,23,16,29,8,14,0.5,0.8
2025-04-29T0900,3637A,131.0176,45.7761,七台河市,人民广场,颗粒物(PM10),54,58,49,24,35,76,,36,36,15,23,11,10,0.5,0.6
2025-04-29T0900,3684A,130.8781,45.8222,七台河市,新建矿广场,颗粒物(PM10),57,63,55,22,26,56,,19,19,25,26,11,11,0.7,0.6
2025-04-29T0900,1779A,123.9305,47.3636,齐齐哈尔市,安居小区,颗粒物(PM10),118,186,46,28,10,87,,78,78,15,10,6,3,0.4,0.3
2025-04-29T0900,1780A,123.9488,47.3386,齐齐哈尔市,中心广场,颗粒物(PM10),117,184,45,39,12,68,,78,76,16,9,9,7,0.3,0.2
2025-04-29T0900,1781A,123.9483,47.3227,齐齐哈尔市,农牧车辆厂,颗粒物(PM10),125,200,49,28,13,90,,80,80,11,8,6,5,0.2,0.1
2025-04-29T0900,1783A,123.945,47.2988,齐齐哈尔市,市环境监测站,,,,27,,11,,,83,,,6,,2,,0.4
2025-04-29T0900,3662A,123.6333,47.2075,齐齐哈尔市,富区青少年活动中心,颗粒物(PM10),343,454,93,70,23,81,,75,75,10,7,2,2,0.6,0.4
2025-04-29T0900,2591A,107.9783,26.5747,黔东南苗族侗族自治州,市环境监测站,,44,44,33,29,23,19,,27,24,24,17,4,3,0.7,0.4
2025-04-29T0900,2881A,107.8908,26.5311,黔东南苗族侗族自治州,凯里学院,,27,27,28,18,19,39,,27,26,11,11,2,2,0.5,0.5
2025-04-29T0900,2593A,107.5228,26.2403,黔南布依族苗族自治州,小围寨,,28,24,24,19,14,21,,30,27,14,10,2,3,0.3,0.2
2025-04-29T0900,3538A,107.5175,26.2978,黔南布依族苗族自治州,沙坝,,34,34,32,19,15,18,,25,22,15,11,4,4,0.5,0.4
2025-04-29T0900,2589A,104.9022,25.0925,黔西南布依族苗族自治州,场坝街,,32,32,22,8,11,81,,85,85,10,11,4,4,0.4,0.4
2025-04-29T0900,2590A,104.8811,25.0992,黔西南布依族苗族自治州,坪东大道,,27,27,16,9,15,75,,79,79,14,11,3,3,0.4,0.3
2025-04-29T0900,2502A,108.6236,21.9667,钦州市,市环保站,颗粒物(PM10),65,80,38,24,16,25,,42,38,36,19,6,3,0.8,0.9
2025-04-29T0900,2503A,108.6549,21.9481,钦州市,沙埠小学,颗粒物(PM10),61,71,43,29,22,22,,30,24,33,22,12,7,0.9,1
2025-04-29T0900,2504A,108.5989,21.7431,钦州市,港区一小,颗粒物(PM10),69,88,50,28,23,30,,33,31,38,24,11,9,1.0,0.9
2025-04-29T0900,3404A,108.5959,21.9633,钦州市,北职校,颗粒物(PM10),55,59,36,32,20,32,,32,29,30,20,10,7,0.8,0.8
2025-04-29T0900,1043A,119.7493,40.0116,秦皇岛市,第一关,颗粒物(PM10),53,56,38,18,22,84,,71,71,30,29,10,5,0.5,0.3
2025-04-29T0900,1044A,119.5897,39.9499,秦皇岛市,监测站,颗粒物(PM10),52,53,51,18,17,73,,31,31,35,28,11,4,0.7,0.4
2025-04-29T0900,1046A,119.5251,39.9041,秦皇岛市,建设大厦,颗粒物(PM10),60,70,56,26,18,73,,58,58,47,30,12,4,0.8,0.3
2025-04-29T0900,3132A,119.610547,39.943889,秦皇岛市,文明里,颗粒物(PM10),53,55,50,17,17,50,,41,41,48,29,8,4,0.5,0.3
2025-04-29T0900,4198A,119.5090,39.8253,秦皇岛市,北戴河轮滑馆,,42,42,35,18,19,63,,61,61,29,15,9,3,0.4,0.3
2025-04-29T0900,1307A,120.6659,36.2403,青岛市,仰口,颗粒物(PM10),51,52,60,34,32,97,,111,106,21,16,7,8,0.6,0.5
2025-04-29T0900,1310A,120.4134,36.0658,青岛市,市南区东部子站,颗粒物(PM10),53,56,54,29,24,79,,94,91,24,24,9,9,0.4,0.5
2025-04-29T0900,1311A,120.3664,36.1032,青岛市,四方区子站,颗粒物(PM10),58,66,52,29,25,85,,107,100,32,23,15,12,0.7,0.6
2025-04-29T0900,1312A,120.2994,36.054,青岛市,市南区西部子站,,41,41,47,17,23,75,,93,90,26,32,8,9,0.7,0.7
2025-04-29T0900,1313A,120.4581,36.0858,青岛市,崂山区子站,,44,44,48,22,21,95,,104,103,19,25,10,9,0.5,0.6
2025-04-29T0900,1315A,120.3999,36.3083,青岛市,城阳区子站,颗粒物(PM10),59,68,53,24,20,91,,109,103,36,23,7,6,0.6,0.5
2025-04-29T0900,1966A,120.0405,35.8735,青岛市,黄岛区4号,臭氧1小时,128,48,38,19,15,255,,157,157,29,23,10,9,0.8,0.7
2025-04-29T0900,3362A,120.5014,36.4034,青岛市,即墨2号,颗粒物(PM10),77,103,66,37,29,89,,94,90,41,21,11,10,0.7,0.6
2025-04-29T0900,3642A,120.3503,36.0736,青岛市,市北区南部,,39,38,50,27,21,76,,98,92,16,15,8,8,0.7,0.7
2025-04-29T0900,3643A,120.3948,36.1805,青岛市,李沧区北部,颗粒物(PM10),62,73,56,29,24,78,,101,95,36,27,11,10,0.7,0.6
2025-04-29T0900,4290A,120.1969,35.9546,青岛市,珠江路669号,,,53,47,32,25,,,90,88,25,24,8,8,0.6,0.6
2025-04-29T0900,1702A,113.0426,23.691,清远市,环保大楼,,28,28,18,9,10,71,,57,57,32,18,12,8,1.0,0.8
2025-04-29T0900,1703A,113.0208,23.7106,清远市,凤城街办,,37,37,19,14,8,60,,41,41,33,20,12,6,0.8,0.7
2025-04-29T0900,3025A,113.0477,23.6344,清远市,技师学院,,36,36,19,16,10,51,,27,27,31,20,14,9,0.9,0.8
2025-04-29T0900,3318A,112.9903,23.7403,清远市,清新太和,,46,46,18,23,9,39,,65,61,41,11,11,7,0.8,0.6
2025-04-29T0900,3455A,113.076,23.7198,清远市,清城东城,,36,36,20,17,11,67,,39,39,23,14,12,8,1.0,0.9
2025-04-29T0900,2661A,107.6325,35.7357,庆阳市,庆阳五中,颗粒物(PM10),53,55,31,23,16,77,,92,89,9,8,3,5,0.4,0.4
2025-04-29T0900,2662A,107.6364,35.7067,庆阳市,市环保局,,46,46,36,16,10,81,,96,93,10,8,6,8,0.5,0.5
2025-04-29T0900,1916A,103.7897,25.5035,曲靖市,环境监测站,,23,19,28,16,15,68,,86,83,18,13,7,6,0.5,0.4
2025-04-29T0900,1917A,103.8,25.5364,曲靖市,烟厂办公区,,25,25,28,14,13,73,,89,86,14,9,4,4,0.6,0.5
2025-04-29T0900,3376A,103.7947,25.462,曲靖市,南苑二区,,26,26,29,10,18,75,,88,85,12,11,6,7,0.5,0.4
2025-04-29T0900,3377A,103.7444,25.5261,曲靖市,曲靖师范学院,,25,17,27,12,17,77,,87,85,9,10,5,8,0.4,0.4
2025-04-29T0900,1264A,118.8692,28.9398,衢州市,环保大楼,细颗粒物(PM2.5),75,88,51,55,30,82,,44,44,31,26,6,4,0.7,0.6
2025-04-29T0900,1265A,118.8709,28.9666,衢州市,实验学校,细颗粒物(PM2.5),84,86,42,62,26,91,,43,43,37,30,7,6,0.5,0.5
2025-04-29T0900,1266A,118.8621,28.9808,衢州市,衢州学院,细颗粒物(PM2.5),85,91,43,63,27,80,,34,34,36,31,7,5,0.8,0.6
2025-04-29T0900,1611A,118.5819,24.9117,泉州市,涂山街,,43,39,35,11,20,135,,109,109,8,12,4,4,0.4,0.7
2025-04-29T0900,1612A,118.5972,24.8978,泉州市,津头埔,,43,42,34,12,19,135,,121,121,16,19,2,3,0.5,0.7
2025-04-29T0900,1613A,118.6663,24.9424,泉州市,万安,,44,41,35,8,14,138,,117,117,10,16,4,4,0.5,0.7
