timepoint,stationcode,longitude,latitude,area,positionname,primarypollutant,aqi,pm10,pm10_24h,pm2_5,pm2_5_24h,o3,o3_24h,o3_8h,o3_8h_24h,no2,no2_24h,so2,so2_24h,co,co_24h
2024-02-11T0400,2566A,102.1879,31.914,阿坝藏族羌族自治州,州农科所,,15,15,21,8,9,16,,,,1,5,5,6,0.8,0.8
2024-02-11T0400,2568A,102.2502,31.8896,阿坝藏族羌族自治州,马师校,,20,14,12,14,11,52,,,,1,2,3,3,0.5,0.5
2024-02-11T0400,3994A,102.2165,31.9024,阿坝藏族羌族自治州,马尔康中学西区,,17,6,10,6,8,53,,,,1,2,4,4,0.4,0.4
2024-02-11T0400,2695A,80.292,41.1694,阿克苏地区,电视台,颗粒物(PM10),68,86,98,47,54,21,,,,50,34,8,15,1.6,1.2
2024-02-11T0400,2696A,80.2613,41.1551,阿克苏地区,艺术中心,"颗粒物(PM10),细颗粒物(PM2.5)",67,83,118,48,74,24,,,,40,40,10,16,3.8,1.7
2024-02-11T0400,2204A,105.6467,38.8363,阿拉善盟,西城区西花园,,24,12,92,8,23,75,,,,2,3,8,9,0.5,0.5
2024-02-11T0400,2205A,105.6985,38.8411,阿拉善盟,蒙二幼,,21,4,103,2,25,67,,,,4,7,5,7,0.4,0.4
2024-02-11T0400,2206A,105.724,38.8516,阿拉善盟,环保局新楼,,24,3,83,2,20,75,,,,4,6,5,6,0.5,0.5
2024-02-11T0400,2708A,88.1264,47.8517,阿勒泰地区,市站,,24,,14,11,9,75,,,,6,12,4,7,0.2,0.2
2024-02-11T0400,2630A,80.1161,32.5,阿里地区,阿里监测站,,21,21,14,8,6,48,,,,15,8,32,18,0.5,0.5
2024-02-11T0400,3192A,80.0903,32.5028,阿里地区,阿里藏医院,,18,12,13,5,5,56,,,,9,6,11,11,0.6,0.5
2024-02-11T0400,2642A,109.0318,32.6537,安康市,香溪洞,细颗粒物(PM2.5),87,73,114,64,94,57,,,,6,8,9,10,0.8,0.8
2024-02-11T0400,2643A,109.0281,32.6939,安康市,安康市监测站,细颗粒物(PM2.5),112,101,184,84,156,22,,,,13,23,8,13,1.0,1.3
2024-02-11T0400,2644A,109.0072,32.6975,安康市,汉滨区检察院,细颗粒物(PM2.5),104,84,154,78,134,30,,,,7,12,7,10,0.7,0.9
2024-02-11T0400,2291A,117.0809,30.5177,安庆市,环科院,细颗粒物(PM2.5),166,136,126,126,107,9,,,,58,15,10,16,1.0,0.9
2024-02-11T0400,2292A,117.0331,30.5119,安庆市,马山宾馆,细颗粒物(PM2.5),170,136,144,129,125,10,,,,67,21,8,13,0.8,0.8
2024-02-11T0400,2294A,116.9896,30.6145,安庆市,安庆大学,细颗粒物(PM2.5),124,104,129,94,115,52,,,,13,14,7,13,0.9,1
2024-02-11T0400,3173A,117.0598,30.5351,安庆市,市人大,细颗粒物(PM2.5),170,141,132,129,111,1,,,,64,16,8,12,1.0,0.9
2024-02-11T0400,3123A,105.9408,26.2431,安顺市,凤凰山,细颗粒物(PM2.5),220,189,119,170,104,3,,,,44,29,168,82,1.9,1
2024-02-11T0400,3124A,105.9439,26.2564,安顺市,金钟山,细颗粒物(PM2.5),145,,68,111,59,33,,,,29,13,97,45,1.1,0.6
2024-02-11T0400,3125A,105.8983,26.2481,安顺市,娄家坡,细颗粒物(PM2.5),53,42,74,37,64,86,,,,4,8,19,27,0.6,0.6
2024-02-11T0400,1819A,114.3551,36.1017,安阳市,红庙街,细颗粒物(PM2.5),276,294,348,226,281,53,,,,16,28,7,21,1.6,1.8
2024-02-11T0400,1820A,114.361,36.0681,安阳市,银杏小区,细颗粒物(PM2.5),341,304,326,291,334,51,,,,13,19,6,20,2.0,2.1
2024-02-11T0400,3141A,114.3922,36.0878,安阳市,信访局,细颗粒物(PM2.5),332,297,362,282,348,70,,,,16,29,8,23,1.3,1.6
2024-02-11T0400,3669A,114.4705,36.0637,安阳市,左辅环卫站,细颗粒物(PM2.5),375,349,356,325,320,42,,,,26,28,8,20,1.8,1.7
2024-02-11T0400,3703A,114.2917,36.0949,安阳市,安钢职工学校,细颗粒物(PM2.5),335,335,393,285,317,60,,,,20,29,10,29,1.8,1.7
2024-02-11T0400,1748A,123.044,41.1196,鞍山市,深沟寺,细颗粒物(PM2.5),85,93,309,63,248,78,,,,20,33,20,29,1.6,1.6
2024-02-11T0400,1749A,123.011,41.0931,鞍山市,太阳城,细颗粒物(PM2.5),95,114,288,71,222,74,,,,23,30,24,30,1.9,1.5
2024-02-11T0400,1750A,123.0485,41.1442,鞍山市,太平,细颗粒物(PM2.5),94,102,268,70,209,78,,,,19,34,18,31,1.7,1.8
2024-02-11T0400,1751A,122.9642,41.0971,鞍山市,铁西三道街,细颗粒物(PM2.5),82,93,438,60,305,79,,,,13,36,14,32,0.9,1.7
2024-02-11T0400,1752A,122.9341,41.0833,鞍山市,铁西工业园区,细颗粒物(PM2.5),73,85,328,53,274,76,,,,18,34,15,19,1.2,1.8
2024-02-11T0400,1753A,123.022,41.0821,鞍山市,明达新区,细颗粒物(PM2.5),107,129,311,80,256,77,,,,16,31,20,32,1.6,1.7
2024-02-11T0400,2195A,107.4212,40.761,巴彦淖尔市,附二中,,35,35,84,14,31,74,,,,1,9,4,5,0.4,0.5
2024-02-11T0400,1956A,86.1472,41.7538,巴音郭楞蒙古自治州,孔雀公园,颗粒物(PM10),94,137,124,41,44,1,,,,70,31,6,8,1.3,0.8
2024-02-11T0400,1957A,86.1972,41.7166,巴音郭楞蒙古自治州,棉纺厂,颗粒物(PM10),106,162,142,16,37,61,,,,6,14,3,6,0.4,0.5
2024-02-11T0400,1958A,86.2357,41.7173,巴音郭楞蒙古自治州,经济开发区,颗粒物(PM10),88,125,124,24,31,48,,,,12,13,4,6,0.3,0.5
2024-02-11T0400,2914A,106.7677,31.8794,巴中市,苏山坪,细颗粒物(PM2.5),103,91,106,77,86,83,,,,8,9,5,5,0.7,0.8
2024-02-11T0400,3182A,106.7656,31.8545,巴中市,丽阳花园,细颗粒物(PM2.5),104,94,143,78,123,16,,,,15,23,4,5,0.8,1.1
2024-02-11T0400,3183A,106.7418,31.8654,巴中市,圣泉水务公司,细颗粒物(PM2.5),109,91,126,82,115,23,,,,12,20,4,5,0.9,1
2024-02-11T0400,3616A,106.7616,31.8344,巴中市,市中心医院,细颗粒物(PM2.5),128,113,145,97,116,7,,,,15,19,5,6,1.0,1.1
2024-02-11T0400,2235A,122.7911,45.6077,白城市,洮北区环保局,,27,27,57,14,48,74,,,,6,8,3,7,0.3,0.4
2024-02-11T0400,2236A,122.8738,45.5725,白城市,市环保局,,36,36,59,13,50,72,,,,6,8,5,6,0.4,0.5
2024-02-11T0400,2231A,126.4219,41.9171,白山市,喜丰,细颗粒物(PM2.5),72,68,195,52,138,47,,,,21,25,18,24,1.4,1.3
2024-02-11T0400,2232A,126.4077,41.9419,白山市,环保局,细颗粒物(PM2.5),72,91,213,52,162,41,,,,23,30,13,25,1.4,1.4
2024-02-11T0400,2647A,104.1724,36.5446,白银市,第三小学,颗粒物(PM10),69,87,194,34,46,39,,,,16,19,18,34,0.5,0.6
2024-02-11T0400,2648A,104.1465,36.5482,白银市,动力公司,颗粒物(PM10),63,75,167,24,42,40,,,,11,15,9,25,0.6,0.6
2024-02-11T0400,2512A,106.6103,23.9011,百色市,市监测站,细颗粒物(PM2.5),72,55,77,52,60,28,,,,8,10,8,9,0.8,0.9
2024-02-11T0400,2513A,106.6538,23.8859,百色市,市中心血站,细颗粒物(PM2.5),75,60,85,55,84,33,,,,10,15,8,11,0.8,0.9
2024-02-11T0400,3406A,106.6085,23.8798,百色市,祈福高中,细颗粒物(PM2.5),63,,60,45,60,26,,,,7,9,7,8,0.8,0.8
2024-02-11T0400,2270A,117.396,32.939,蚌埠市,工人疗养院,细颗粒物(PM2.5),239,205,141,189,126,50,,,,18,18,10,10,1.0,0.9
2024-02-11T0400,2271A,117.3605,32.9427,蚌埠市,百货大楼,细颗粒物(PM2.5),233,205,152,183,136,55,,,,17,23,5,7,1.2,1.1
2024-02-11T0400,2273A,117.4185,32.8911,蚌埠市,蚌埠学院,细颗粒物(PM2.5),228,205,144,178,124,42,,,,14,14,5,9,1.2,1
2024-02-11T0400,2274A,117.3533,32.9673,蚌埠市,淮上区政府,细颗粒物(PM2.5),234,217,144,184,123,58,,,,15,18,7,9,1.1,1
2024-02-11T0400,2275A,117.3145,32.8977,蚌埠市,高新区,细颗粒物(PM2.5),214,188,138,164,123,39,,,,11,14,3,8,1.1,1
2024-02-11T0400,3715A,117.3092,32.9314,蚌埠市,蚌埠田家炳中学,细颗粒物(PM2.5),239,209,141,189,122,29,,,,30,21,7,12,0.9,0.8
2024-02-11T0400,1585A,109.8756,40.6532,包头市,市环境监测站,,39,36,200,27,195,28,,,,37,34,9,16,0.8,1
2024-02-11T0400,1587A,109.9991,40.5842,包头市,包头八中,细颗粒物(PM2.5),68,79,255,49,218,17,,,,48,42,22,22,1.9,1.6
2024-02-11T0400,1588A,109.8538,40.6821,包头市,青山宾馆,,50,49,91,35,74,26,,,,30,32,9,12,1.2,1
2024-02-11T0400,1589A,109.8642,40.6288,包头市,惠龙物流,,45,45,296,20,215,28,,,,40,41,12,22,0.9,1.3
2024-02-11T0400,1590A,110.0377,40.5546,包头市,东河鸿龙湾,细颗粒物(PM2.5),93,115,264,69,203,16,,,,48,46,9,15,1.8,1.6
2024-02-11T0400,3283A,109.9154,40.5685,包头市,滨河大厦,细颗粒物(PM2.5),83,89,225,61,187,17,,,,45,35,13,17,1.5,1.4
2024-02-11T0400,3419A,109.9447,40.6261,包头市,包头市委党校,,36,36,206,24,150,33,,,,39,30,22,18,1.6,1.1
2024-02-11T0400,3683A,109.8331,40.6576,包头市,昆区政府,细颗粒物(PM2.5),73,80,131,53,114,20,,,,38,38,15,22,1.3,1.3
2024-02-11T0400,1930A,107.185,34.3063,宝鸡市,庙沟村,颗粒物(PM10),69,87,93,24,36,62,,,,3,5,5,5,0.5,0.5
2024-02-11T0400,1931A,107.0708,34.3017,宝鸡市,竹园沟,颗粒物(PM10),56,62,101,24,61,38,,,,11,17,5,6,0.5,0.6
2024-02-11T0400,1932A,107.1906,34.3672,宝鸡市,三陆医院,细颗粒物(PM2.5),100,106,130,75,91,37,,,,19,31,5,7,0.6,0.7
2024-02-11T0400,1933A,107.1431,34.3547,宝鸡市,监测站,颗粒物(PM10),64,78,120,41,87,34,,,,13,21,4,7,0.5,0.6
2024-02-11T0400,1934A,107.1186,34.3739,宝鸡市,技工学校,"颗粒物(PM10),细颗粒物(PM2.5)",75,99,133,55,82,36,,,,19,24,6,9,0.6,0.7
2024-02-11T0400,1935A,107.3906,34.3528,宝鸡市,陈仓区环保局家属楼,颗粒物(PM10),93,135,148,68,84,27,,,,38,36,29,19,0.9,0.9
2024-02-11T0400,1936A,107.2058,34.3497,宝鸡市,文理学院,颗粒物(PM10),82,113,142,58,92,42,,,,19,29,5,10,0.5,0.6
2024-02-11T0400,1937A,107.2386,34.3622,宝鸡市,三迪小学,细颗粒物(PM2.5),78,95,137,57,90,39,,,,16,31,8,10,0.6,0.7
2024-02-11T0400,1051A,115.493,38.8632,保定市,游泳馆,细颗粒物(PM2.5),143,153,111,109,76,65,,,,11,11,6,6,0.9,0.7
2024-02-11T0400,1052A,115.5213,38.8959,保定市,华电二区,细颗粒物(PM2.5),127,129,82,96,73,63,,,,7,6,8,6,0.4,0.3
2024-02-11T0400,1053A,115.4713,38.9108,保定市,接待中心,细颗粒物(PM2.5),138,120,88,105,69,60,,,,5,4,7,8,0.7,0.4
2024-02-11T0400,1054A,115.4612,38.8416,保定市,地表水厂,细颗粒物(PM2.5),148,143,109,113,74,61,,,,8,8,6,7,1.1,0.8
2024-02-11T0400,3581A,115.31981,38.95208,保定市,满城区生态环境分局,细颗粒物(PM2.5),115,102,115,87,98,53,,,,14,14,6,9,0.9,0.7
2024-02-11T0400,3582A,115.47694,38.76408,保定市,清苑区第二中学,细颗粒物(PM2.5),129,142,88,98,58,59,,,,10,6,10,9,0.7,0.4
2024-02-11T0400,3583A,115.62909,39.02311,保定市,徐水物探局,细颗粒物(PM2.5),107,112,87,80,60,45,,,,19,16,4,8,0.6,0.4
2024-02-11T0400,4004A,115.4202,38.8656,保定市,双鹰农机,细颗粒物(PM2.5),125,112,92,95,75,57,,,,10,14,6,7,0.6,0.5
2024-02-11T0400,4034A,115.5150,38.8590,保定市,植保所站,细颗粒物(PM2.5),152,125,91,116,87,66,,,,13,13,7,8,0.6,0.3
2024-02-11T0400,2594A,99.1678,25.1081,保山市,市环境监测站,颗粒物(PM10),53,56,70,34,45,42,,,,5,7,6,12,0.6,0.5
2024-02-11T0400,2595A,99.1711,25.1328,保山市,市环保局,颗粒物(PM10),53,55,68,29,40,47,,,,4,5,7,13,0.6,0.5
2024-02-11T0400,1867A,109.1436,21.4086,北海市,海滩公园,细颗粒物(PM2.5),62,61,112,44,92,72,,,,8,16,12,13,0.5,0.8
2024-02-11T0400,1868A,109.0981,21.4661,北海市,新市环保局,细颗粒物(PM2.5),77,60,87,56,78,72,,,,8,12,9,12,0.8,0.8
2024-02-11T0400,1869A,109.1778,21.5233,北海市,北海工业园,细颗粒物(PM2.5),77,75,107,56,90,63,,,,10,12,9,12,0.8,0.8
2024-02-11T0400,3400A,109.1911,21.4415,北海市,龙潭自来水厂,细颗粒物(PM2.5),123,110,105,93,91,36,,,,12,11,8,12,0.6,0.7
2024-02-11T0400,1001A,116.3621,39.8784,北京市,万寿西宫,细颗粒物(PM2.5),105,105,52,79,38,43,,,,33,18,3,2,0.4,0.3
2024-02-11T0400,1002A,116.2202,40.2915,北京市,定陵,,30,30,31,21,21,72,,,,5,5,1,2,0.2,0.3
2024-02-11T0400,1003A,116.4174,39.9289,北京市,东四,细颗粒物(PM2.5),108,103,52,81,37,45,,,,22,13,5,4,0.6,0.4
2024-02-11T0400,1004A,116.4072,39.8863,北京市,天坛,细颗粒物(PM2.5),103,96,48,77,37,46,,,,16,11,3,2,0.4,0.3
2024-02-11T0400,1005A,116.462,39.9365,北京市,农展馆,细颗粒物(PM2.5),92,87,48,68,35,45,,,,22,13,1,2,0.4,0.3
2024-02-11T0400,1006A,116.3392,39.9295,北京市,官园,细颗粒物(PM2.5),107,106,53,80,38,55,,,,24,14,5,3,0.5,0.3
2024-02-11T0400,1007A,116.2878,39.9611,北京市,海淀万柳,细颗粒物(PM2.5),100,98,55,75,38,42,,,,32,17,1,2,0.4,0.2
2024-02-11T0400,1008A,116.6636,40.135,北京市,顺义新城,细颗粒物(PM2.5),102,100,46,76,33,34,,,,18,13,2,2,0.6,0.3
2024-02-11T0400,1009A,116.6275,40.3275,北京市,怀柔镇,,45,39,37,31,26,32,,,,26,9,5,5,0.4,0.3
2024-02-11T0400,1010A,116.2296,40.217,北京市,昌平镇,颗粒物(PM10),53,56,42,36,26,91,,,,1,7,3,3,0.3,0.2
2024-02-11T0400,1011A,116.3966,39.9821,北京市,奥体中心,细颗粒物(PM2.5),97,92,47,72,35,48,,,,22,9,5,4,0.6,0.4
2024-02-11T0400,1012A,116.184,39.9136,北京市,古城,细颗粒物(PM2.5),85,85,59,63,40,52,,,,9,7,2,2,0.5,0.3
2024-02-11T0400,3281A,115.9718,40.4529,北京市,延庆夏都,颗粒物(PM10),53,56,53,35,35,74,,,,4,5,3,3,0.3,0.3
2024-02-11T0400,3417A,117.0709,40.1465,北京市,平谷新城,细颗粒物(PM2.5),62,56,36,44,28,29,,,,3,4,3,3,0.5,0.4
2024-02-11T0400,3418A,116.8336,40.4095,北京市,密云新城,,40,40,36,28,24,56,,,,7,6,3,2,0.3,0.2
2024-02-11T0400,3672A,116.1541,39.8204,北京市,丰台云岗,细颗粒物(PM2.5),94,94,65,70,46,36,,,,21,10,1,2,0.4,0.3
2024-02-11T0400,3673A,116.6804,39.9081,北京市,通州东关,细颗粒物(PM2.5),99,98,46,74,33,48,,,,21,6,5,3,0.4,0.3
2024-02-11T0400,3674A,115.9577,39.7603,北京市,房山燕山,细颗粒物(PM2.5),78,65,57,57,47,54,,,,11,13,1,2,0.4,0.3
2024-02-11T0400,3675A,116.4672,39.7733,北京市,大兴旧宫,细颗粒物(PM2.5),95,91,46,71,34,51,,,,14,11,1,2,0.3,0.2
2024-02-11T0400,3694A,115.986,40.4563,北京市,延庆石河营,细颗粒物(PM2.5),52,52,49,36,34,82,,,,4,5,2,2,0.3,0.3
2024-02-11T0400,3695A,116.6151,40.3053,北京市,怀柔新城,,43,39,30,30,23,33,,,,22,7,1,2,0.4,0.2
2024-02-11T0400,3696A,116.2545,39.8768,北京市,丰台小屯,细颗粒物(PM2.5),114,117,59,86,39,37,,,,29,16,1,2,0.4,0.3
2024-02-11T0400,3697A,116.84,40.3844,北京市,密云镇,细颗粒物(PM2.5),58,51,57,41,44,41,,,,6,14,3,3,0.3,0.3
2024-02-11T0400,1761A,123.8275,41.3064,本溪市,大峪,细颗粒物(PM2.5),103,111,222,77,179,30,,,,44,46,8,21,2.1,2.5
2024-02-11T0400,1762A,123.7567,41.3325,本溪市,溪湖,细颗粒物(PM2.5),190,208,276,143,200,6,,,,57,36,18,29,2.7,2
2024-02-11T0400,1763A,123.7169,41.3094,本溪市,彩屯,细颗粒物(PM2.5),173,166,354,131,305,24,,,,46,38,11,26,2.7,2.2
2024-02-11T0400,1764A,123.7669,41.2864,本溪市,东明,细颗粒物(PM2.5),155,,322,118,310,25,,,,40,51,11,34,1.3,2.2
2024-02-11T0400,1765A,123.7992,41.2664,本溪市,新立屯,细颗粒物(PM2.5),114,,163,86,171,35,,,,28,39,10,25,1.3,2
2024-02-11T0400,1766A,123.8142,41.3472,本溪市,威宁,细颗粒物(PM2.5),130,141,229,99,186,22,,,,41,39,5,10,1.5,1.5
2024-02-11T0400,2587A,105.2864,27.3125,毕节市,八中,细颗粒物(PM2.5),63,54,79,45,63,38,,,,5,10,8,12,0.4,0.5
2024-02-11T0400,2588A,105.31,27.2944,毕节市,师专,细颗粒物(PM2.5),119,104,116,90,104,20,,,,15,16,8,12,0.7,0.7
2024-02-11T0400,3537A,105.3631,27.3533,毕节市,长征村,细颗粒物(PM2.5),62,59,75,44,58,38,,,,8,7,9,9,0.6,0.7
2024-02-11T0400,1629A,118.0018,37.3617,滨州市,第二水厂,细颗粒物(PM2.5),200,193,131,150,101,53,,,,34,24,80,16,1.8,1.4
2024-02-11T0400,1630A,117.9776,37.393,滨州市,北中新校,细颗粒物(PM2.5),216,200,145,166,112,61,,,,32,24,44,16,1.9,1.4
2024-02-11T0400,3514A,117.9378,37.3956,滨州市,中海酒店,细颗粒物(PM2.5),261,233,135,211,117,62,,,,29,20,134,21,2.6,1.4
2024-02-11T0400,3515A,117.9378,37.3553,滨州市,开发区一中,细颗粒物(PM2.5),228,206,139,178,114,59,,,,25,19,127,28,1.6,1.3
2024-02-11T0400,3516A,118.0917,37.694,滨州市,金海六路,细颗粒物(PM2.5),247,239,139,197,114,48,,,,31,20,44,13,2.0,1.5
2024-02-11T0400,4028A,117.9956,37.3753,滨州市,滨州市西街道办事处,细颗粒物(PM2.5),216,212,135,166,106,51,,,,29,21,113,21,1.9,1.4
2024-02-11T0400,2311A,115.8072,33.8399,亳州市,污水处理厂,细颗粒物(PM2.5),163,171,227,124,201,58,,,,10,17,8,14,0.8,1.1
2024-02-11T0400,2312A,115.7789,33.8518,亳州市,三国揽胜宫,细颗粒物(PM2.5),180,241,296,136,220,56,,,,10,20,8,15,0.9,1.3
2024-02-11T0400,3332A,115.7633,33.8034,亳州市,亳州学院,细颗粒物(PM2.5),192,203,240,144,197,56,,,,8,12,7,16,1.1,1.4
2024-02-11T0400,2693A,82.0485,44.8556,博尔塔拉蒙古自治州,市党校,细颗粒物(PM2.5),105,112,108,79,72,70,,,,21,20,12,17,1.1,1
2024-02-11T0400,2694A,82.0806,44.8969,博尔塔拉蒙古自治州,市环保局,细颗粒物(PM2.5),112,139,123,84,72,68,,,,30,28,12,16,1.9,1.5
2024-02-11T0400,1071A,116.8842,38.2991,沧州市,沧县城建局,细颗粒物(PM2.5),117,106,122,88,111,71,,,,19,27,13,12,1.1,1.1
2024-02-11T0400,1072A,116.8584,38.3254,沧州市,电视转播站,细颗粒物(PM2.5),100,80,127,75,108,85,,,,7,17,12,17,0.7,0.9
2024-02-11T0400,1073A,116.8709,38.3228,沧州市,市环保局,细颗粒物(PM2.5),99,82,126,74,110,79,,,,14,21,13,14,0.7,0.8
2024-02-11T0400,3324A,116.8136,38.3004,沧州市,河北水利电力学院,细颗粒物(PM2.5),124,107,106,94,90,70,,,,13,15,20,18,0.7,0.7
2024-02-11T0400,2622A,97.1806,31.1273,昌都市,昌都监测站,,15,7,26,6,18,48,,,,3,7,6,7,0.3,0.6
2024-02-11T0400,3719A,97.1714,31.1406,昌都市,昌都会议中心,,18,,8,5,8,57,,,,2,3,4,4,0.2,0.3
2024-02-11T0400,2690A,88.1236,43.8886,昌吉回族自治州,天山天池,,21,6,5,0,4,67,,,,4,4,8,8,0.4,0.4
2024-02-11T0400,2692A,87.2717,44.0297,昌吉回族自治州,新区政务中心,细颗粒物(PM2.5),240,241,267,190,207,3,,,,73,39,4,6,2.2,2.2
2024-02-11T0400,3613A,87.3095,44.0142,昌吉回族自治州,亚心广场,细颗粒物(PM2.5),247,229,271,197,229,94,,,,35,31,8,10,1.8,1.9
2024-02-11T0400,1119A,125.3325,43.9166,长春市,食品厂,细颗粒物(PM2.5),82,,161,60,148,67,,,,21,28,25,26,0.4,0.7
2024-02-11T0400,1120A,125.2863,43.9027,长春市,客车厂,细颗粒物(PM2.5),85,71,165,63,137,57,,,,30,23,48,25,0.6,0.8
2024-02-11T0400,1121A,125.2841,43.8463,长春市,邮电学院,细颗粒物(PM2.5),108,83,191,81,165,56,,,,31,30,18,26,0.5,0.8
2024-02-11T0400,1122A,125.3716,43.8772,长春市,劳动公园,细颗粒物(PM2.5),142,114,195,108,178,66,,,,22,35,8,12,0.7,0.9
2024-02-11T0400,1123A,125.3297,43.8805,长春市,园林处,细颗粒物(PM2.5),85,76,161,63,142,75,,,,16,30,13,25,0.7,1
2024-02-11T0400,1124A,125.4605,43.79,长春市,净月潭,细颗粒物(PM2.5),144,114,175,110,163,75,,,,7,11,12,13,0.7,0.9
2024-02-11T0400,1126A,125.3863,43.8447,长春市,经开区环卫处,细颗粒物(PM2.5),172,,219,130,206,62,,,,18,22,11,12,0.7,1
2024-02-11T0400,1127A,125.245,43.7783,长春市,高新区管委会,细颗粒物(PM2.5),110,88,191,83,182,72,,,,13,22,10,12,0.7,1.1
2024-02-11T0400,1128A,125.1761,43.8325,长春市,岱山公园,细颗粒物(PM2.5),77,58,179,56,158,77,,,,14,17,12,11,0.5,1
2024-02-11T0400,1335A,113.0833,28.2325,长沙市,经开区环保局,细颗粒物(PM2.5),119,114,182,90,142,43,,,,7,8,4,7,0.8,0.8
2024-02-11T0400,1336A,112.8872,28.2189,长沙市,高开区环保局,细颗粒物(PM2.5),172,160,263,130,204,31,,,,21,18,5,11,1.3,1.4
2024-02-11T0400,1337A,113.0792,28.2053,长沙市,马坡岭,细颗粒物(PM2.5),155,120,198,118,184,28,,,,10,8,6,9,0.8,0.7
2024-02-11T0400,1338A,112.9394,28.19,长沙市,湖南师范大学,细颗粒物(PM2.5),144,138,251,110,168,40,,,,15,18,6,11,1.0,1.3
2024-02-11T0400,1339A,113.0178,28.1322,长沙市,雨花区环保局,细颗粒物(PM2.5),143,,196,109,164,42,,,,6,10,3,7,0.9,1.1
2024-02-11T0400,1340A,112.9792,28.2597,长沙市,伍家岭,细颗粒物(PM2.5),186,172,274,140,209,5,,,,18,24,5,9,1.1,1.2
2024-02-11T0400,1341A,113.0014,28.1944,长沙市,火车新站,细颗粒物(PM2.5),153,162,244,117,182,13,,,,32,23,4,9,1.1,1.1
2024-02-11T0400,1342A,112.9844,28.1178,长沙市,天心区环保局,细颗粒物(PM2.5),119,108,221,90,176,49,,,,5,11,6,12,0.6,0.6
2024-02-11T0400,1343A,112.8908,28.1308,长沙市,湖南中医药大学,细颗粒物(PM2.5),183,164,201,138,164,2,,,,24,22,4,9,1.1,1.5
2024-02-11T0400,1344A,112.9581,28.3611,长沙市,沙坪,细颗粒物(PM2.5),95,81,171,71,123,35,,,,3,6,5,9,0.8,1
2024-02-11T0400,1727A,113.1147,36.1547,长治市,清华站,颗粒物(PM10),71,91,98,27,46,47,,,,15,16,9,15,0.4,0.6
2024-02-11T0400,1728A,113.1031,36.1989,长治市,监测站,颗粒物(PM10),77,104,122,34,59,45,,,,22,21,13,17,0.5,0.6
2024-02-11T0400,1730A,113.0886,36.2125,长治市,审计局,颗粒物(PM10),72,94,108,36,64,40,,,,20,16,14,19,0.6,0.8
2024-02-11T0400,1731A,113.0844,36.1856,长治市,长治八中,颗粒物(PM10),77,104,120,31,72,43,,,,19,17,8,13,0.7,0.8
2024-02-11T0400,2845A,113.1569,36.1911,长治市,德盛苑,颗粒物(PM10),65,80,91,19,46,84,,,,9,15,12,16,0.5,0.9
2024-02-11T0400,3568A,113.06,36.0464,长治市,向阳小学,颗粒物(PM10),81,111,145,45,97,69,,,,16,23,23,25,0.6,0.8
2024-02-11T0400,3569A,112.8792,36.3144,长治市,屯留一中,颗粒物(PM10),63,76,92,26,55,45,,,,17,12,15,15,0.8,0.8
2024-02-11T0400,3570A,113.235,36.3489,长治市,潞城四中,颗粒物(PM10),82,113,129,42,68,54,,,,17,16,8,20,0.5,0.8
2024-02-11T0400,1854A,111.6975,28.9703,常德市,市二中,细颗粒物(PM2.5),129,108,77,98,77,44,,,,12,10,7,8,1.0,0.8
2024-02-11T0400,1857A,111.7158,29.1456,常德市,白鹤山,细颗粒物(PM2.5),123,150,101,93,60,32,,,,2,2,2,3,0.8,0.7
2024-02-11T0400,3138A,111.7153,29.0289,常德市,武陵区永安,细颗粒物(PM2.5),140,124,89,107,78,48,,,,11,8,8,9,1.1,0.8
2024-02-11T0400,3139A,111.6892,28.9881,常德市,鼎城区玉霞,细颗粒物(PM2.5),127,105,97,96,89,36,,,,13,11,8,10,1.0,0.8
2024-02-11T0400,3140A,111.6625,29.0531,常德市,武陵区长庚,细颗粒物(PM2.5),133,130,97,101,82,47,,,,10,8,6,7,1.0,0.8
2024-02-11T0400,1196A,119.9633,31.762,常州市,市监测站,细颗粒物(PM2.5),142,173,139,108,107,55,,,,19,24,9,11,1.2,1.1
2024-02-11T0400,1200A,119.9468,31.7069,常州市,武进监测站,细颗粒物(PM2.5),139,148,131,106,98,54,,,,17,15,9,11,1.0,1
2024-02-11T0400,1201A,119.9255,31.9087,常州市,安家,细颗粒物(PM2.5),147,159,159,112,135,48,,,,24,17,9,12,1.0,1
2024-02-11T0400,3002A,119.9805,31.8174,常州市,行政中心,细颗粒物(PM2.5),132,134,116,100,97,61,,,,18,17,10,10,1.2,1
2024-02-11T0400,3003A,120.0522,31.7748,常州市,经开区,细颗粒物(PM2.5),138,159,120,105,93,62,,,,22,16,10,11,0.9,0.9
2024-02-11T0400,3010A,119.9025,31.7964,常州市,钟楼,细颗粒物(PM2.5),138,142,132,105,105,50,,,,26,17,9,11,1.1,1
2024-02-11T0400,3429A,119.8598,31.7066,常州市,武进经发区,细颗粒物(PM2.5),155,144,133,118,115,64,,,,14,12,8,9,1.5,1.3
2024-02-11T0400,3430A,119.5826,31.7245,常州市,金坛城区,细颗粒物(PM2.5),142,120,138,108,118,74,,,,14,12,11,11,0.9,0.9
2024-02-11T0400,2220A,120.4318,41.5881,朝阳市,西梁,,35,34,172,24,164,82,,,,6,19,15,28,0.6,1.3
2024-02-11T0400,2221A,120.4521,41.5646,朝阳市,河畔小区,,36,36,176,23,152,67,,,,11,15,14,17,0.8,1.1
2024-02-11T0400,2222A,120.4176,41.5648,朝阳市,八里堡,,45,,190,31,194,73,,,,7,17,15,27,0.8,1.3
2024-02-11T0400,2223A,120.3806,41.5969,朝阳市,农业园区,,25,25,115,14,109,80,,,,5,16,10,19,0.3,0.8
2024-02-11T0400,1705A,116.6367,23.6719,潮州市,西园路,细颗粒物(PM2.5),70,62,56,51,48,22,,,,6,8,4,5,0.3,0.4
2024-02-11T0400,3026A,116.6183,23.6608,潮州市,市政府,细颗粒物(PM2.5),64,55,50,46,41,28,,,,8,11,5,6,0.7,0.7
2024-02-11T0400,4036A,116.6461,23.6761,潮州市,金山,细颗粒物(PM2.5),68,50,52,49,50,20,,,,7,8,5,6,0.6,0.6
2024-02-11T0400,2472A,113.0073,25.9061,郴州市,马头岭,细颗粒物(PM2.5),59,51,83,42,54,38,,,,7,8,4,13,0.4,0.6
2024-02-11T0400,2473A,113.0116,25.8226,郴州市,市职中,细颗粒物(PM2.5),63,48,101,45,86,15,,,,4,9,3,7,1.0,1
2024-02-11T0400,2474A,113.0161,25.8001,郴州市,兴隆步行街,细颗粒物(PM2.5),99,86,135,74,107,5,,,,11,18,3,6,0.7,0.9
2024-02-11T0400,2475A,113.0383,25.8071,郴州市,市审计局,细颗粒物(PM2.5),100,80,109,75,90,10,,,,11,14,4,7,1.3,0.8
2024-02-11T0400,2476A,113.0348,25.7759,郴州市,市环保局,细颗粒物(PM2.5),74,61,95,54,83,16,,,,11,14,2,5,0.5,0.7
2024-02-11T0400,1431A,103.9728,30.7236,成都市,金泉两河,细颗粒物(PM2.5),115,100,116,87,120,0,,,,32,27,3,3,1.4,1
2024-02-11T0400,1432A,104.176,30.6872,成都市,十里店,细颗粒物(PM2.5),135,106,105,103,99,39,,,,20,15,1,3,0.8,0.7
2024-02-11T0400,1433A,104.079,30.5706,成都市,三瓦窑,细颗粒物(PM2.5),122,125,104,92,82,9,,,,47,23,1,3,0.8,0.7
2024-02-11T0400,1434A,104.1114,30.63,成都市,沙河铺,细颗粒物(PM2.5),182,152,115,137,105,3,,,,40,25,2,3,0.9,0.7
2024-02-11T0400,1437A,104.0786,30.6531,成都市,君平街,细颗粒物(PM2.5),124,,100,94,94,16,,,,56,35,5,6,1.1,0.8
2024-02-11T0400,1438A,103.613,31.0283,成都市,灵岩寺,细颗粒物(PM2.5),67,61,72,48,54,68,,,,13,14,3,3,0.8,0.8
2024-02-11T0400,2880A,104.0239,30.65639,成都市,大石西路,细颗粒物(PM2.5),134,104,98,102,90,0,,,,58,32,2,4,1.5,1
2024-02-11T0400,3136A,104.2725,30.5589,成都市,龙泉驿区区政府,细颗粒物(PM2.5),77,61,74,56,65,69,,,,6,9,2,3,0.7,0.8
2024-02-11T0400,3357A,104.0106,30.6931,成都市,金博路,细颗粒物(PM2.5),172,142,137,130,123,3,,,,45,34,3,3,1.0,0.9
2024-02-11T0400,3359A,104.0578,30.5225,成都市,华阳,细颗粒物(PM2.5),144,114,89,110,85,0,,,,32,16,1,3,1.1,0.9
2024-02-11T0400,3487A,104.2394,30.5319,成都市,车城东七路,细颗粒物(PM2.5),99,91,89,74,77,58,,,,20,16,2,4,0.7,0.7
2024-02-11T0400,3488A,104.3853,30.7453,成都市,青白江技师分院,细颗粒物(PM2.5),73,75,87,53,71,68,,,,12,15,7,10,0.8,0.9
2024-02-11T0400,3489A,104.0789,30.4072,成都市,科学城,细颗粒物(PM2.5),113,91,97,85,88,16,,,,18,7,3,5,0.8,0.8
2024-02-11T0400,4011A,103.8506,30.6947,成都市,光华大道三段,细颗粒物(PM2.5),158,148,171,120,150,4,,,,26,22,1,4,1.2,1
2024-02-11T0400,1062A,117.9531,40.9081,承德市,铁路,细颗粒物(PM2.5),68,64,74,49,55,28,,,,26,21,11,18,1.0,0.7
2024-02-11T0400,1063A,117.9392,40.9763,承德市,中国银行,颗粒物(PM10),66,82,81,47,58,30,,,,23,20,8,10,0.7,0.5
2024-02-11T0400,1064A,117.9503,40.928,承德市,开发区,颗粒物(PM10),60,70,58,42,43,29,,,,26,22,7,11,0.8,0.6
2024-02-11T0400,1065A,117.8051,40.9655,承德市,文化中心,颗粒物(PM10),55,59,65,29,36,28,,,,31,19,6,15,0.6,0.5
2024-02-11T0400,1066A,117.9268,41.0026,承德市,离宫,细颗粒物(PM2.5),64,56,36,46,30,42,,,,13,8,5,5,0.6,0.4
2024-02-11T0400,2314A,117.47,30.6618,池州市,池州学院,细颗粒物(PM2.5),130,112,100,99,86,60,,,,12,15,12,11,1.1,0.9
2024-02-11T0400,3237A,117.4918,30.6617,池州市,展览馆,细颗粒物(PM2.5),130,108,104,99,86,42,,,,6,12,4,7,0.9,0.9
2024-02-11T0400,3333A,117.5627,30.695,池州市,第八中学,细颗粒物(PM2.5),88,81,96,65,81,51,,,,10,12,3,11,0.8,0.8
2024-02-11T0400,3334A,117.5038,30.6243,池州市,第十二中学,细颗粒物(PM2.5),83,65,97,61,85,58,,,,5,10,4,9,0.5,0.7
2024-02-11T0400,1744A,118.9233,42.2816,赤峰市,松山一中,,24,20,56,12,31,75,,,,5,11,6,12,0.4,0.6
2024-02-11T0400,1745A,118.9576,42.2728,赤峰市,哈达街,,24,22,53,14,41,75,,,,4,11,8,14,0.5,0.7
2024-02-11T0400,1746A,118.8788,42.2554,赤峰市,天义路,,24,16,35,5,24,74,,,,4,7,5,9,0.3,0.4
2024-02-11T0400,3058A,119.2658,42.0353,赤峰市,银河街,,30,30,113,9,87,63,,,,14,16,18,26,0.9,0.8
2024-02-11T0400,3286A,118.9359,42.3147,赤峰市,桥北物流园区,,23,15,43,14,45,71,,,,5,8,7,12,0.8,0.8
2024-02-11T0400,2521A,107.3476,22.4136,崇左市,市环保局江州分局,细颗粒物(PM2.5),63,58,84,45,70,26,,,,6,10,7,11,0.5,0.5
2024-02-11T0400,2522A,107.3702,22.3707,崇左市,城南新区,细颗粒物(PM2.5),94,,86,70,81,21,,,,10,11,7,10,0.6,0.6
2024-02-11T0400,2298A,118.3093,32.3153,滁州市,老年大学,细颗粒物(PM2.5),138,113,113,105,102,75,,,,14,19,7,8,1.0,1
2024-02-11T0400,2299A,118.3244,32.2786,滁州市,人大宾馆,细颗粒物(PM2.5),204,160,121,154,112,82,,,,16,17,8,9,1.0,0.9
2024-02-11T0400,3207A,118.3118,32.3038,滁州市,市政府原办公楼,细颗粒物(PM2.5),145,125,108,111,96,78,,,,17,24,6,7,0.9,0.8
2024-02-11T0400,3331A,118.3267,32.2634,滁州市,图书馆,细颗粒物(PM2.5),183,,116,138,96,82,,,,14,16,8,10,1.0,0.9
2024-02-11T0400,2605A,101.5482,25.0441,楚雄彝族自治州,州环境监测站,细颗粒物(PM2.5),59,47,51,42,44,46,,,,8,8,6,10,0.9,1
2024-02-11T0400,2606A,101.538,25.0492,楚雄彝族自治州,市经济开发区,细颗粒物(PM2.5),59,,64,42,52,45,,,,7,10,6,15,0.8,0.9
2024-02-11T0400,2548A,107.5277,31.2827,达州市,达州职业技术学院,细颗粒物(PM2.5),103,97,120,77,94,15,,,,9,17,5,8,0.9,1
2024-02-11T0400,2549A,107.5086,31.2186,达州市,市环境监测站,细颗粒物(PM2.5),98,88,111,73,94,24,,,,16,29,5,7,1.1,1.2
2024-02-11T0400,2550A,107.4988,31.2132,达州市,凤凰小区,细颗粒物(PM2.5),110,97,116,83,97,27,,,,18,31,5,7,1.1,1.2
2024-02-11T0400,2551A,107.5082,31.1986,达州市,达县机关宾馆,细颗粒物(PM2.5),94,88,105,70,82,15,,,,20,32,3,5,1.0,1.2
2024-02-11T0400,2552A,107.4644,31.2124,达州市,市政中心,细颗粒物(PM2.5),113,91,115,85,97,18,,,,25,39,4,7,1.3,1.5
2024-02-11T0400,2614A,100.1542,25.7054,大理白族自治州,大理市环境监测站,颗粒物(PM10),51,52,52,31,42,53,,,,7,10,7,10,0.8,0.8
2024-02-11T0400,2615A,100.2171,25.5811,大理白族自治州,大理古城,细颗粒物(PM2.5),75,,61,55,55,47,,,,7,14,7,14,0.9,0.9
2024-02-11T0400,1109A,121.612,38.9741,大连市,甘井子,细颗粒物(PM2.5),137,118,126,104,132,80,,,,14,23,9,14,0.9,0.8
2024-02-11T0400,1110A,121.565,38.9511,大连市,周水子,细颗粒物(PM2.5),140,123,151,107,161,83,,,,14,25,10,14,1.2,1.4
2024-02-11T0400,1111A,121.5637,38.8845,大连市,星海三站,细颗粒物(PM2.5),243,212,129,193,152,66,,,,26,28,23,29,1.3,1.2
2024-02-11T0400,1112A,121.6302,38.9117,大连市,青泥洼桥,细颗粒物(PM2.5),163,136,153,124,150,75,,,,16,28,16,20,1.0,1
2024-02-11T0400,1113A,121.6251,38.8638,大连市,傅家庄,细颗粒物(PM2.5),149,150,109,114,114,86,,,,12,18,15,24,1.0,0.9
2024-02-11T0400,1114A,121.5213,38.8661,大连市,七贤岭,细颗粒物(PM2.5),119,142,85,90,65,73,,,,17,16,10,15,1.1,0.8
2024-02-11T0400,1115A,121.2529,38.8061,大连市,旅顺,细颗粒物(PM2.5),127,112,106,96,101,66,,,,28,25,13,13,1.2,1.3
2024-02-11T0400,1116A,121.7485,39.1311,大连市,金州,细颗粒物(PM2.5),143,114,229,109,221,77,,,,20,28,11,15,1.2,1.8
2024-02-11T0400,1117A,121.7811,39.0496,大连市,开发区,细颗粒物(PM2.5),132,122,273,100,226,73,,,,21,30,6,18,1.1,1.6
2024-02-11T0400,1118A,121.9762,39.0631,大连市,双D港,细颗粒物(PM2.5),110,93,104,83,93,78,,,,21,17,14,14,0.9,1
2024-02-11T0400,1789A,124.81117,46.03138,大庆市,大同区,,50,48,134,35,112,61,,,,9,16,8,12,0.6,0.9
2024-02-11T0400,1790A,125.129,46.533,大庆市,龙凤区,细颗粒物(PM2.5),55,53,177,39,144,68,,,,10,27,4,9,0.6,1.2
2024-02-11T0400,1791A,124.902,46.408,大庆市,红岗区,细颗粒物(PM2.5),53,38,104,37,91,61,,,,13,17,9,17,0.5,0.7
2024-02-11T0400,1792A,125.153,46.586,大庆市,萨尔图区,细颗粒物(PM2.5),57,45,149,40,136,72,,,,8,24,8,11,0.6,1
2024-02-11T0400,1793A,124.9042,46.6215,大庆市,让胡路区,颗粒物(PM10),55,60,125,38,85,57,,,,18,23,7,11,0.8,0.9
2024-02-11T0400,3481A,125.141,46.634,大庆市,萨区政府监测点,细颗粒物(PM2.5),62,51,140,44,84,70,,,,9,30,10,14,0.6,1
2024-02-11T0400,1723A,113.2994,40.0758,大同市,云冈宾馆,细颗粒物(PM2.5),97,93,216,72,163,55,,,,16,28,13,27,1.6,1.3
2024-02-11T0400,1724A,113.3444,40.0917,大同市,大同大学,细颗粒物(PM2.5),80,74,168,59,134,58,,,,18,28,16,26,1.3,1.2
2024-02-11T0400,1725A,113.2661,40.1269,大同市,安家小村,颗粒物(PM10),55,60,180,28,131,69,,,,8,17,13,26,1.0,1.6
2024-02-11T0400,1726A,113.2711,40.0844,大同市,教育学院,细颗粒物(PM2.5),78,99,198,57,134,55,,,,21,32,9,25,1.3,1.8
2024-02-11T0400,3282A,113.3397,40.0597,大同市,大同市卫生学校,细颗粒物(PM2.5),69,78,178,50,155,59,,,,15,26,11,24,1.2,1
2024-02-11T0400,3565A,113.1367,40.1122,大同市,云冈站,,43,43,123,29,88,58,,,,8,14,8,23,0.6,0.9
2024-02-11T0400,3566A,113.1186,40.2556,大同市,图书馆,细颗粒物(PM2.5),53,52,140,37,111,48,,,,12,17,10,15,0.4,0.7
2024-02-11T0400,3567A,113.5931,40.0461,大同市,区一中,细颗粒物(PM2.5),65,58,120,47,111,57,,,,11,16,19,33,0.9,1.1
2024-02-11T0400,3676A,113.2802,40.0995,大同市,第二人民医院,颗粒物(PM10),83,115,231,53,147,61,,,,14,26,9,23,1.4,1.6
2024-02-11T0400,2269A,124.1069,50.4097,大兴安岭地区,科技局,,39,33,29,27,69,60,,,,5,6,8,9,0.4,0.4
2024-02-11T0400,3663A,124.1164,50.4278,大兴安岭地区,红旗社区,,48,,46,33,52,23,,,,47,18,12,17,0.3,0.4
2024-02-11T0400,1600A,124.3303,40.0625,丹东市,江湾东路,细颗粒物(PM2.5),84,72,138,62,117,48,,,,6,16,10,18,1.1,1.3
2024-02-11T0400,1601A,124.4256,40.1503,丹东市,临江后街,细颗粒物(PM2.5),65,68,142,47,109,60,,,,11,21,9,14,1.1,1.5
2024-02-11T0400,1602A,124.3933,40.1461,丹东市,元宝山,细颗粒物(PM2.5),92,82,105,68,84,46,,,,19,17,11,18,1.4,1.1
2024-02-11T0400,1603A,124.3633,40.1092,丹东市,民主桥,细颗粒物(PM2.5),118,114,140,89,102,29,,,,26,28,9,18,1.5,1.3
2024-02-11T0400,3541A,109.5726,19.5167,儋州市,第一中学子站,,40,35,50,28,42,67,,,,4,6,6,6,0.7,0.8
2024-02-11T0400,3542A,109.5567,19.5187,儋州市,东坡学校子站,,42,39,48,29,41,66,,,,6,8,4,4,0.7,0.8
2024-02-11T0400,2616A,98.5842,24.428,德宏傣族景颇族自治州,德宏州监测站,细颗粒物(PM2.5),88,85,99,65,85,5,,,,44,29,31,29,0.9,0.8
2024-02-11T0400,3677A,98.5881,24.4368,德宏傣族景颇族自治州,芒市人民政府综合楼,细颗粒物(PM2.5),70,69,91,51,69,37,,,,10,20,5,21,0.7,0.8
2024-02-11T0400,1901A,104.4239,31.1208,德阳市,东山公园,细颗粒物(PM2.5),120,124,101,91,95,79,,,,11,12,9,4,0.8,0.8
2024-02-11T0400,1902A,104.3826,31.1317,德阳市,西小区,细颗粒物(PM2.5),211,172,151,161,146,8,,,,40,32,4,5,1.2,1.1
2024-02-11T0400,1904A,104.3553,31.1091,德阳市,耐火材料厂,细颗粒物(PM2.5),225,179,152,175,148,3,,,,36,18,6,6,1.0,0.8
2024-02-11T0400,3639A,104.4019,31.1244,德阳市,市教育局,细颗粒物(PM2.5),148,120,120,113,115,30,,,,21,33,2,3,0.9,1
2024-02-11T0400,1622A,116.3032,37.4674,德州市,儿童乐园,细颗粒物(PM2.5),132,117,149,100,116,81,,,,8,13,24,20,0.9,1
2024-02-11T0400,1624A,116.2991,37.4451,德州市,监理站,细颗粒物(PM2.5),132,124,146,100,116,82,,,,12,16,26,21,0.9,0.9
2024-02-11T0400,3066A,116.2721,37.4379,德州市,九衢泉纯净水厂,细颗粒物(PM2.5),163,141,153,124,122,69,,,,18,20,26,21,1.0,0.9
2024-02-11T0400,3371A,116.3728,37.4403,德州市,开发区人民医院,细颗粒物(PM2.5),107,110,146,80,114,88,,,,9,15,19,17,0.7,0.8
2024-02-11T0400,3372A,116.3572,37.4094,德州市,太阳城中学,细颗粒物(PM2.5),201,172,157,151,137,69,,,,13,14,26,18,1.0,1
2024-02-11T0400,3511A,116.5652,37.3319,德州市,陵城艺术中心,细颗粒物(PM2.5),128,122,215,97,171,84,,,,16,23,23,24,0.7,1.1
2024-02-11T0400,2621A,99.7056,27.8317,迪庆藏族自治州,迪庆州站,,26,26,26,14,17,60,,,,6,7,8,8,0.3,0.3
2024-02-11T0400,3180A,99.7136,27.8094,迪庆藏族自治州,质量技术监督局,,33,,22,23,20,56,,,,5,6,8,8,0.5,0.5
2024-02-11T0400,2663A,104.6241,35.5734,定西市,东关小学,颗粒物(PM10),83,115,121,46,45,25,,,,11,14,12,21,1.1,0.8
2024-02-11T0400,2664A,104.6194,35.5934,定西市,供电公司,细颗粒物(PM2.5),84,102,120,62,50,27,,,,6,11,6,15,1.0,0.7
2024-02-11T0400,1389A,113.7547,23.0494,东莞市,莞城梨川,细颗粒物(PM2.5),115,,53,87,58,35,,,,19,16,8,10,0.7,0.8
2024-02-11T0400,1390A,113.7944,23.0128,东莞市,东城石井,细颗粒物(PM2.5),89,84,51,66,42,27,,,,16,11,6,8,0.8,0.8
2024-02-11T0400,1391A,113.7383,22.9658,东莞市,南城西平,细颗粒物(PM2.5),87,88,55,64,43,33,,,,25,12,8,9,0.9,0.8
2024-02-11T0400,3319A,113.7338,23.0381,东莞市,万江金泰,细颗粒物(PM2.5),153,127,87,117,79,32,,,,11,12,8,10,0.9,1
2024-02-11T0400,3626A,113.7533,23.0202,东莞市,南城元岭,细颗粒物(PM2.5),105,98,60,79,49,27,,,,12,9,10,11,0.9,0.9
2024-02-11T0400,3627A,113.7875,23.0457,东莞市,东城主山,细颗粒物(PM2.5),95,79,64,71,58,38,,,,9,10,10,11,0.8,0.9
2024-02-11T0400,1666A,118.6614,37.4309,东营市,市环保局,细颗粒物(PM2.5),188,163,156,141,135,67,,,,26,22,32,16,1.6,1.4
2024-02-11T0400,3036A,118.6904,37.4338,东营市,开发区管委会,细颗粒物(PM2.5),185,165,161,139,141,65,,,,31,27,26,10,1.8,1.4
2024-02-11T0400,3365A,118.5719,37.565,东营市,垦利区民丰路,细颗粒物(PM2.5),213,190,153,163,129,55,,,,31,21,17,13,1.7,1.6
2024-02-11T0400,3498A,118.5055,37.8612,东营市,河口城区,细颗粒物(PM2.5),208,200,146,158,117,47,,,,27,18,12,4,1.9,1.6
2024-02-11T0400,3646A,118.4978,37.4623,东营市,胜利站,细颗粒物(PM2.5),216,202,195,166,145,65,,,,26,25,28,21,1.7,1.4
2024-02-11T0400,3734A,118.35,37.26,东营市,理想之城,细颗粒物(PM2.5),213,197,165,163,134,32,,,,43,25,60,14,1.9,1.4
2024-02-11T0400,1591A,110.0023,39.8129,鄂尔多斯市,综合楼,,48,48,91,12,33,73,,,,10,12,3,5,0.5,0.5
2024-02-11T0400,1592A,109.9486,39.8261,鄂尔多斯市,巴音孟克林场办事处,,29,29,80,14,33,74,,,,8,11,10,10,0.5,0.6
2024-02-11T0400,1593A,109.7736,39.5986,鄂尔多斯市,康泽苑,,29,29,76,9,32,55,,,,6,11,4,6,0.4,0.6
2024-02-11T0400,1594A,109.8119,39.5989,鄂尔多斯市,华泰汽车城,,31,31,81,17,37,39,,,,8,15,5,7,0.4,0.5
2024-02-11T0400,1595A,109.9734,39.7884,鄂尔多斯市,奥林花园,颗粒物(PM10),53,56,78,22,26,58,,,,19,17,5,7,0.6,0.6
2024-02-11T0400,2436A,114.8938,30.3994,鄂州市,市政府,细颗粒物(PM2.5),206,169,225,156,189,0,,,,65,34,9,14,1.3,1.4
2024-02-11T0400,2437A,114.8989,30.3714,鄂州市,赵家坝,细颗粒物(PM2.5),162,,160,123,159,10,,,,42,21,5,10,1.1,1
2024-02-11T0400,3654A,114.8094,30.4089,鄂州市,精准医疗中心,细颗粒物(PM2.5),183,180,238,138,161,52,,,,18,18,10,14,1.1,1.4
2024-02-11T0400,2454A,109.4978,30.2981,恩施土家族苗族自治州,湖北民院,细颗粒物(PM2.5),118,116,141,89,112,17,,,,15,15,7,7,1.3,1.3
2024-02-11T0400,2455A,109.4707,30.2798,恩施土家族苗族自治州,州电力总公司,细颗粒物(PM2.5),118,104,140,89,122,10,,,,11,15,6,6,1.3,1.2
2024-02-11T0400,3549A,109.5061,30.3772,恩施土家族苗族自治州,龙凤新区,细颗粒物(PM2.5),79,63,104,58,105,9,,,,12,15,6,6,1.0,1.1
2024-02-11T0400,2499A,108.3411,21.6158,防城港市,沙万,细颗粒物(PM2.5),67,,62,48,52,58,,,,9,9,5,6,0.4,0.4
2024-02-11T0400,2500A,108.3514,21.7731,防城港市,防城档案局,细颗粒物(PM2.5),77,,66,56,61,53,,,,12,11,6,8,0.6,0.6
2024-02-11T0400,2501A,108.3506,21.6414,防城港市,大海花园,细颗粒物(PM2.5),59,48,61,42,51,51,,,,6,6,4,6,0.5,0.6
2024-02-11T0400,1371A,113.1294,23.0067,佛山市,湾梁,细颗粒物(PM2.5),94,,62,70,49,46,,,,14,11,11,10,0.7,0.7
2024-02-11T0400,1372A,113.1083,23.0478,佛山市,华材职中,,,70,56,61,45,,,,,26,20,7,8,0.7,0.8
2024-02-11T0400,1373A,113.144,23.0453,佛山市,南海气象局,细颗粒物(PM2.5),95,81,59,71,45,30,,,,22,14,8,7,0.7,0.8
2024-02-11T0400,1374A,113.2881,22.8094,佛山市,顺德苏岗,细颗粒物(PM2.5),138,113,70,105,55,31,,,,18,12,14,14,0.7,0.6
2024-02-11T0400,1376A,112.8383,22.8678,佛山市,高明孔堂,细颗粒物(PM2.5),52,37,55,36,49,39,,,,4,6,5,6,0.5,0.6
2024-02-11T0400,1377A,112.8836,23.1588,佛山市,三水监测站,细颗粒物(PM2.5),62,46,76,44,39,35,,,,21,24,6,5,0.7,0.7
2024-02-11T0400,1378A,112.867,23.185,佛山市,三水云东海,细颗粒物(PM2.5),64,48,40,46,37,33,,,,13,11,16,6,0.6,0.7
2024-02-11T0400,3625A,113.2544,22.7642,佛山市,容桂街道办,细颗粒物(PM2.5),170,146,76,129,63,29,,,,19,12,14,10,0.8,0.7
2024-02-11T0400,1282A,119.2681,26.0504,福州市,师大,细颗粒物(PM2.5),74,,73,54,77,46,,,,4,7,6,8,0.5,0.6
2024-02-11T0400,1283A,119.2984,26.1028,福州市,五四北路,细颗粒物(PM2.5),89,,106,66,84,50,,,,4,10,3,5,0.6,0.7
2024-02-11T0400,1284A,119.2648,26.0768,福州市,杨桥西路,细颗粒物(PM2.5),70,,67,51,70,46,,,,7,9,3,5,0.6,0.6
2024-02-11T0400,1285A,119.317,26.0746,福州市,紫阳,细颗粒物(PM2.5),78,,85,57,85,49,,,,4,10,6,9,0.7,0.8
2024-02-11T0400,3048A,119.5799,26.0936,福州市,九龙,,50,41,59,35,61,57,,,,8,10,2,4,0.6,0.8
2024-02-11T0400,3526A,119.5189,25.9664,福州市,吴航,细颗粒物(PM2.5),72,60,60,52,51,41,,,,14,12,5,6,0.5,0.6
2024-02-11T0400,1755A,123.7977,41.8491,抚顺市,望花区,细颗粒物(PM2.5),176,138,304,133,278,34,,,,33,41,9,23,1.3,1.5
2024-02-11T0400,1756A,123.9161,41.8822,抚顺市,顺城区,细颗粒物(PM2.5),170,146,316,129,244,26,,,,39,42,4,17,1.6,1.5
2024-02-11T0400,1757A,124.0436,41.8611,抚顺市,东洲区,细颗粒物(PM2.5),156,137,278,119,255,59,,,,12,21,7,16,1.1,1.4
2024-02-11T0400,1758A,123.9247,41.8642,抚顺市,新抚区,细颗粒物(PM2.5),182,146,296,137,259,37,,,,31,39,5,13,1.3,1.7
2024-02-11T0400,1759A,124.0972,41.8961,抚顺市,大伙房水库,细颗粒物(PM2.5),169,150,230,128,195,60,,,,17,20,8,13,1.0,1.2
2024-02-11T0400,1760A,123.7086,41.8391,抚顺市,沈抚新城,细颗粒物(PM2.5),137,147,315,104,237,32,,,,34,35,9,15,1.3,1.4
2024-02-11T0400,2376A,116.2127,28.0814,抚州市,桐源党溪,细颗粒物(PM2.5),85,81,271,63,179,8,,,,3,8,3,30,0.5,0.7
2024-02-11T0400,2377A,116.3544,27.9831,抚州市,市站,细颗粒物(PM2.5),224,203,193,174,161,16,,,,19,27,10,15,0.7,0.8
2024-02-11T0400,2378A,116.3565,27.963,抚州市,血防站,细颗粒物(PM2.5),183,,133,138,108,27,,,,10,16,7,6,1.2,1.1
2024-02-11T0400,2379A,116.3564,28.0007,抚州市,采茶剧团,细颗粒物(PM2.5),242,213,173,192,153,13,,,,22,17,4,9,1.4,1.3
2024-02-11T0400,2380A,116.385,27.9647,抚州市,医学分院,细颗粒物(PM2.5),113,114,148,85,105,33,,,,8,11,5,15,0.9,1
2024-02-11T0400,2207A,121.6094,41.998,阜新市,工业园区,颗粒物(PM10),157,264,94,106,86,42,,,,18,14,18,15,1.3,0.8
2024-02-11T0400,2208A,121.6697,42.0279,阜新市,长青街,细颗粒物(PM2.5),183,,77,138,81,37,,,,20,13,10,16,1.3,0.6
2024-02-11T0400,2209A,121.6673,42.0705,阜新市,农业园区,细颗粒物(PM2.5),156,135,79,119,61,52,,,,35,14,41,21,1.7,0.6
2024-02-11T0400,2210A,121.6717,42.0224,阜新市,东苑,细颗粒物(PM2.5),134,124,89,102,65,48,,,,22,16,16,18,1.9,1.2
2024-02-11T0400,2211A,121.6506,42.0498,阜新市,玉龙新城,细颗粒物(PM2.5),134,,87,102,77,31,,,,17,13,4,13,1.4,0.6
2024-02-11T0400,2301A,115.8277,32.8929,阜阳市,市监测站,细颗粒物(PM2.5),254,207,160,204,152,52,,,,12,17,8,11,1.0,0.9
2024-02-11T0400,2303A,115.8554,32.8605,阜阳市,开发区,细颗粒物(PM2.5),266,243,187,216,130,55,,,,12,16,6,10,0.8,0.7
2024-02-11T0400,2875A,115.784,32.8892,阜阳市,阜阳职业技术学院,细颗粒物(PM2.5),244,213,182,194,156,52,,,,14,16,6,12,1.1,1
2024-02-11T0400,3468A,115.7901,32.8613,阜阳市,市规划展馆,细颗粒物(PM2.5),294,259,192,244,162,53,,,,14,16,8,14,1.1,0.9
2024-02-11T0400,3469A,115.836,32.9183,阜阳市,枣园社区,细颗粒物(PM2.5),284,263,184,234,158,53,,,,13,16,7,12,1.0,0.9
2024-02-11T0400,2669A,102.9099,34.9841,甘南藏族自治州,州政府,,36,36,52,23,33,28,,,,8,14,9,15,0.7,0.9
2024-02-11T0400,3380A,102.8914,34.9617,甘南藏族自治州,甘肃民族师范学院,,26,26,44,18,24,28,,,,7,10,20,16,0.7,0.8
2024-02-11T0400,2570A,101.9603,30.0475,甘孜藏族自治州,水桥子,,16,8,15,3,10,51,,,,4,6,9,9,0.1,0.2
2024-02-11T0400,3065A,101.9533,29.9972,甘孜藏族自治州,州环保局,,22,5,12,3,5,68,,,,1,2,7,8,0.2,0.2
2024-02-11T0400,3414A,115.8347,28.932,赣江新区,桑海产业园,细颗粒物(PM2.5),110,95,102,83,87,26,,,,20,16,4,6,1.0,1
2024-02-11T0400,2363A,114.9367,25.8664,赣州市,地委,细颗粒物(PM2.5),102,,77,76,63,23,,,,10,17,9,13,0.8,1
2024-02-11T0400,2364A,114.9461,25.8481,赣州市,气象台,细颗粒物(PM2.5),95,,82,71,70,17,,,,7,19,7,9,0.6,0.9
2024-02-11T0400,2365A,114.9322,25.8333,赣州市,市图书馆,细颗粒物(PM2.5),87,76,97,64,72,13,,,,20,23,19,17,0.7,0.9
2024-02-11T0400,2366A,114.8905,25.8471,赣州市,华坚鞋城,细颗粒物(PM2.5),103,95,89,77,72,15,,,,11,18,6,7,0.5,0.9
2024-02-11T0400,3109A,115.0093,25.8613,赣州市,赣县区卫计委,细颗粒物(PM2.5),60,46,80,43,69,25,,,,8,13,6,6,0.7,1
2024-02-11T0400,2683A,106.2319,36.1417,固原市,马园,颗粒物(PM10),54,58,144,16,32,51,,,,9,12,5,7,0.7,0.6
2024-02-11T0400,2684A,106.2792,36.0022,固原市,监测站,,49,49,127,31,42,52,,,,16,13,6,8,1.0,0.6
2024-02-11T0400,2685A,106.2375,36.0211,固原市,新区,颗粒物(PM10),52,53,108,17,30,44,,,,21,18,6,6,0.4,0.5
2024-02-11T0400,3522A,106.2177,35.9959,固原市,原州区十五小,,43,43,105,13,26,79,,,,4,8,6,8,0.4,0.5
2024-02-11T0400,2544A,106.6303,30.4576,广安市,市委,细颗粒物(PM2.5),153,127,138,117,125,3,,,,33,24,5,7,1.1,1.1
2024-02-11T0400,2545A,106.6271,30.4663,广安市,友谊中学,细颗粒物(PM2.5),130,,101,99,116,6,,,,29,23,4,5,0.9,1
2024-02-11T0400,2547A,106.6388,30.4551,广安市,广电花园,细颗粒物(PM2.5),163,,120,124,120,4,,,,35,25,4,4,1.3,1.2
2024-02-11T0400,2902A,106.6351,30.4865,广安市,北辰小学,细颗粒物(PM2.5),125,106,120,95,113,20,,,,14,19,4,5,0.9,1
2024-02-11T0400,2523A,105.8945,32.4535,广元市,黑石坡,细颗粒物(PM2.5),88,84,91,65,89,66,,,,11,15,5,9,0.7,0.9
2024-02-11T0400,2524A,105.821,32.4444,广元市,老城,细颗粒物(PM2.5),92,99,127,68,89,38,,,,8,19,1,15,1.1,1.3
2024-02-11T0400,2526A,105.8628,32.4287,广元市,监测站,细颗粒物(PM2.5),94,77,97,70,82,37,,,,8,15,3,11,0.9,1.2
2024-02-11T0400,3617A,105.8047,32.4166,广元市,经开区,细颗粒物(PM2.5),117,115,132,88,102,21,,,,21,23,5,15,1.2,1.2
2024-02-11T0400,1345A,113.2347,23.1423,广州市,广雅中学,细颗粒物(PM2.5),104,98,64,78,51,29,,,,29,27,6,7,0.8,0.9
2024-02-11T0400,1346A,113.2612,23.105,广州市,市五中,细颗粒物(PM2.5),95,78,59,71,53,41,,,,27,27,7,7,0.8,0.8
2024-02-11T0400,1348A,113.3478,23.0916,广州市,广东商学院,细颗粒物(PM2.5),68,71,53,49,43,36,,,,20,15,6,6,0.8,0.8
2024-02-11T0400,1349A,113.4332,23.1047,广州市,市八十六中,细颗粒物(PM2.5),78,68,67,57,56,56,,,,10,11,6,7,0.5,0.6
2024-02-11T0400,1350A,113.3505,22.9483,广州市,番禺中学,细颗粒物(PM2.5),153,135,66,117,57,16,,,,36,22,4,6,1.0,0.9
2024-02-11T0400,1351A,113.2146,23.3916,广州市,花都师范,细颗粒物(PM2.5),188,171,66,141,54,30,,,,28,14,12,10,1.1,0.9
2024-02-11T0400,1352A,113.2597,23.1331,广州市,市监测站,细颗粒物(PM2.5),113,101,61,85,51,28,,,,34,26,7,6,0.8,0.9
2024-02-11T0400,1353A,113.5618,23.312,广州市,九龙镇镇龙,细颗粒物(PM2.5),75,64,58,55,50,40,,,,10,9,7,7,0.8,0.8
2024-02-11T0400,1354A,113.2765,23.1544,广州市,麓湖,细颗粒物(PM2.5),94,78,48,70,44,27,,,,22,13,6,6,0.7,0.7
2024-02-11T0400,1355A,113.443,23.3035,广州市,帽峰山森林公园,,46,33,44,32,39,79,,,,4,4,7,9,0.4,0.5
2024-02-11T0400,2846A,113.3221,23.1322,广州市,体育西,细颗粒物(PM2.5),57,51,56,40,43,46,,,,18,17,8,9,0.8,0.8
2024-02-11T0400,3298A,113.5717,23.5491,广州市,从化街口,细颗粒物(PM2.5),143,127,82,109,72,16,,,,14,12,12,11,0.7,0.7
2024-02-11T0400,3299A,113.3472,23.3692,广州市,白云竹料,细颗粒物(PM2.5),130,116,101,99,68,24,,,,15,12,7,8,0.7,0.7
2024-02-11T0400,3300A,113.2981,23.237,广州市,白云嘉禾,细颗粒物(PM2.5),68,62,56,49,44,39,,,,18,19,7,8,0.6,0.7
2024-02-11T0400,3301A,113.4256,23.1716,广州市,黄埔科学城,细颗粒物(PM2.5),64,47,58,46,57,60,,,,2,5,5,6,0.7,0.8
2024-02-11T0400,3302A,113.3942,23.0483,广州市,番禺大学城,细颗粒物(PM2.5),87,70,51,64,45,44,,,,18,12,8,8,0.7,0.7
2024-02-11T0400,3303A,113.4922,22.8168,广州市,南沙黄阁,细颗粒物(PM2.5),150,,87,115,73,23,,,,32,14,7,8,0.9,0.9
2024-02-11T0400,3304A,113.5342,22.7896,广州市,南沙街,细颗粒物(PM2.5),125,113,64,95,51,17,,,,32,16,4,5,0.9,0.8
2024-02-11T0400,3443A,113.2902,23.5544,广州市,花都梯面,,48,38,45,33,39,30,,,,10,11,6,8,0.5,0.5
2024-02-11T0400,3445A,113.7858,23.7478,广州市,从化良口,,36,34,38,25,33,33,,,,5,5,6,7,0.4,0.5
2024-02-11T0400,3446A,113.8051,23.2614,广州市,增城荔城,细颗粒物(PM2.5),77,64,59,56,50,43,,,,5,8,7,8,0.6,0.7
2024-02-11T0400,2505A,109.568,23.1478,贵港市,德智高中,细颗粒物(PM2.5),63,,70,45,68,48,,,,9,7,5,9,0.9,0.8
2024-02-11T0400,2506A,109.6047,23.0666,贵港市,江南子站,细颗粒物(PM2.5),231,197,149,181,129,5,,,,23,15,7,10,1.4,1.1
2024-02-11T0400,2507A,109.6014,23.0948,贵港市,贵城子站,细颗粒物(PM2.5),156,,135,119,129,22,,,,20,20,8,12,1.2,1.2
2024-02-11T0400,2508A,109.5669,23.1065,贵港市,荷城子站,细颗粒物(PM2.5),125,110,94,95,82,16,,,,29,13,8,11,1.4,1
2024-02-11T0400,3405A,109.5886,23.1172,贵港市,新世纪学校,细颗粒物(PM2.5),88,68,97,65,79,41,,,,10,11,4,8,1.0,1
2024-02-11T0400,1439A,106.6899,26.5998,贵阳市,马鞍山,,42,41,68,29,59,25,,,,10,19,8,15,0.5,0.7
2024-02-11T0400,1440A,106.6971,26.5694,贵阳市,市环保站,细颗粒物(PM2.5),193,,159,145,160,7,,,,37,38,35,32,1.2,1.2
2024-02-11T0400,1441A,106.6243,26.6266,贵阳市,鉴湖路,细颗粒物(PM2.5),79,80,66,58,44,30,,,,33,18,20,9,0.6,0.6
2024-02-11T0400,1442A,106.7487,26.6343,贵阳市,燕子冲,,49,44,83,34,72,31,,,,11,14,6,18,0.5,0.7
2024-02-11T0400,1443A,106.6555,26.4365,贵阳市,碧云窝,细颗粒物(PM2.5),79,75,100,58,78,15,,,,13,11,24,26,0.7,0.7
2024-02-11T0400,1445A,106.7109,26.6027,贵阳市,红边门,细颗粒物(PM2.5),55,46,134,39,117,18,,,,27,33,45,53,0.8,1.2
2024-02-11T0400,1446A,106.7164,26.5699,贵阳市,新华路,细颗粒物(PM2.5),107,90,153,80,131,22,,,,27,32,18,26,0.7,1
2024-02-11T0400,1447A,106.674,26.5424,贵阳市,太慈桥,颗粒物(PM10),56,61,92,39,75,20,,,,16,16,9,13,0.6,0.6
2024-02-11T0400,1862A,110.4144,25.3167,桂林市,电子科大尧山校区,,49,39,64,34,51,24,,,,4,5,4,6,0.3,0.4
2024-02-11T0400,1863A,110.2819,25.2697,桂林市,监测站,细颗粒物(PM2.5),169,,115,128,112,10,,,,25,27,7,10,0.9,1
2024-02-11T0400,1864A,110.3089,25.2708,桂林市,龙隐路小学,细颗粒物(PM2.5),97,,82,72,77,29,,,,12,14,6,8,0.7,0.9
2024-02-11T0400,1865A,110.2869,25.2178,桂林市,八中,细颗粒物(PM2.5),122,95,88,92,80,21,,,,11,12,6,9,0.6,0.6
2024-02-11T0400,3403A,110.1764,25.2381,桂林市,创业大厦,细颗粒物(PM2.5),104,85,99,78,88,15,,,,13,12,6,11,0.8,0.7
2024-02-11T0400,3531A,110.296,25.1253,桂林市,旅游学院,细颗粒物(PM2.5),107,85,71,80,67,12,,,,10,9,4,8,0.8,0.8
2024-02-11T0400,2674A,100.2561,34.4714,果洛藏族自治州,玛沁县大武镇,,18,18,28,11,17,38,,,,10,12,13,12,0.4,0.5
2024-02-11T0400,1129A,126.5422,45.755,哈尔滨市,岭北,细颗粒物(PM2.5),159,,405,121,391,183,,,,31,52,18,35,0,0.5
2024-02-11T0400,1130A,126.561,45.8167,哈尔滨市,松北商大,细颗粒物(PM2.5),144,138,366,110,343,77,,,,18,33,12,11,1.2,1.8
2024-02-11T0400,1131A,126.979,45.5419,哈尔滨市,阿城会宁,细颗粒物(PM2.5),123,101,333,93,326,82,,,,9,20,14,26,0.7,1.5
2024-02-11T0400,1132A,126.599,45.7222,哈尔滨市,南岗学府路,细颗粒物(PM2.5),155,183,438,118,325,68,,,,26,46,9,17,1.1,1.9
2024-02-11T0400,1133A,126.689,45.7733,哈尔滨市,太平宏伟公园,细颗粒物(PM2.5),140,143,393,107,325,74,,,,22,50,4,11,0.9,1.9
2024-02-11T0400,1134A,126.635,45.7667,哈尔滨市,道外承德广场,细颗粒物(PM2.5),139,152,401,106,345,75,,,,23,52,7,15,0.4,1.4
2024-02-11T0400,1135A,126.685,45.7319,哈尔滨市,香坊红旗大街,细颗粒物(PM2.5),195,,394,146,229,64,,,,28,56,3,21,1.2,2
2024-02-11T0400,1136A,126.6411,45.7258,哈尔滨市,动力和平路,细颗粒物(PM2.5),163,139,376,124,377,52,,,,44,48,26,28,1.0,1.9
2024-02-11T0400,1137A,126.593,45.7478,哈尔滨市,道里建国路,细颗粒物(PM2.5),170,,383,129,389,78,,,,15,44,12,24,0.6,1
2024-02-11T0400,1138A,126.615,45.61,哈尔滨市,平房东轻厂,细颗粒物(PM2.5),119,100,378,90,379,88,,,,11,30,8,14,0.7,1.9
2024-02-11T0400,1139A,126.595,45.9855,哈尔滨市,呼兰师专,细颗粒物(PM2.5),198,166,379,148,361,61,,,,31,38,29,22,1.0,1.8
2024-02-11T0400,1140A,126.6206,45.6842,哈尔滨市,省农科院,细颗粒物(PM2.5),169,166,411,128,377,60,,,,39,43,6,20,1.1,2
2024-02-11T0400,2688A,93.5128,42.8172,哈密市,地区监测站,细颗粒物(PM2.5),80,79,124,59,61,34,,,,24,34,5,15,0.6,0.7
2024-02-11T0400,2689A,93.4961,42.8328,哈密市,哈密师范学校,细颗粒物(PM2.5),82,90,176,60,100,12,,,,50,34,8,31,1.2,0.9
2024-02-11T0400,2671A,100.9048,36.9639,海北藏族自治州,海晏县西海镇,,19,14,22,13,11,47,,,,2,3,12,12,0.3,0.4
2024-02-11T0400,3867A,102.0738,36.5056,海东市,平安区公安北苑,,25,19,52,17,43,34,,,,4,11,15,16,0.3,0.4
2024-02-11T0400,1410A,110.3232,20.0574,海口市,海南大学,,49,43,53,34,40,80,,,,5,6,11,11,0.6,0.7
2024-02-11T0400,1411A,110.283,20.0053,海口市,秀英海南医院,颗粒物(PM10),51,51,56,33,44,74,,,,4,7,9,9,0.6,0.6
2024-02-11T0400,1412A,110.338,19.9969,海口市,海南师范大学,细颗粒物(PM2.5),53,45,51,37,39,66,,,,8,6,8,8,0.6,0.7
2024-02-11T0400,1413A,110.33,20.0356,海口市,龙华路环保局宿舍,,48,48,53,32,40,70,,,,6,7,9,9,0.5,0.6
2024-02-11T0400,3539A,110.5111,19.9736,海口市,桂林洋子站,,42,41,28,29,23,72,,,,4,4,6,6,0.5,0.5
2024-02-11T0400,2673A,100.6188,36.2866,海南藏族自治州,共和县恰卜恰镇,,35,35,36,11,34,52,,,,8,14,10,10,0.4,0.5
2024-02-11T0400,2676A,97.3731,37.3753,海西蒙古族藏族自治州,德令哈市,,29,13,25,5,9,92,,,,2,4,11,13,0.2,0.4
2024-02-11T0400,1048A,114.5302,36.6116,邯郸市,东污水处理厂,细颗粒物(PM2.5),199,198,302,149,261,57,,,,12,23,10,19,1.0,1.4
2024-02-11T0400,1049A,114.4918,36.5713,邯郸市,矿院,细颗粒物(PM2.5),160,222,312,122,264,45,,,,20,30,6,14,0.9,1.4
2024-02-11T0400,1050A,114.484,36.6133,邯郸市,丛台公园,细颗粒物(PM2.5),140,161,277,107,236,54,,,,11,19,5,17,0.8,1.3
2024-02-11T0400,3458A,114.7895,36.5593,邯郸市,香泉濮院小区,细颗粒物(PM2.5),234,310,329,184,270,60,,,,12,19,16,27,1.8,1.4
2024-02-11T0400,3579A,114.50634,36.77178,邯郸市,永年区实验高中,细颗粒物(PM2.5),119,142,300,90,255,41,,,,30,35,28,29,1.2,0.5
2024-02-11T0400,3580A,114.20016,36.44293,邯郸市,峰峰矿区临水派出所,颗粒物(PM10),61,72,179,33,155,82,,,,2,11,8,29,0.1,1.1
2024-02-11T0400,2634A,106.9893,33.1842,汉中市,汉川机床厂子校,细颗粒物(PM2.5),83,62,111,61,98,46,,,,5,9,4,8,0.7,0.9
2024-02-11T0400,2635A,107.0154,33.0706,汉中市,市监测站,细颗粒物(PM2.5),128,,175,97,165,22,,,,21,29,8,13,1.7,1.9
2024-02-11T0400,2636A,107.0089,33.1138,汉中市,鑫源开发区,细颗粒物(PM2.5),118,98,196,89,196,29,,,,21,24,12,17,1.5,1.6
2024-02-11T0400,2637A,107.007,33.0323,汉中市,南郑大河坎水厂,细颗粒物(PM2.5),79,64,141,58,124,28,,,,9,20,8,12,1.1,1.5
2024-02-11T0400,1223A,120.2072,30.2111,杭州市,滨江,细颗粒物(PM2.5),99,96,155,74,123,50,,,,14,16,8,10,0.8,0.9
2024-02-11T0400,1224A,120.0633,30.2747,杭州市,西溪,细颗粒物(PM2.5),74,64,119,54,102,17,,,,9,12,7,8,0.7,0.7
2024-02-11T0400,1226A,120.3461,30.3153,杭州市,下沙,细颗粒物(PM2.5),103,103,148,77,118,53,,,,15,16,7,9,0.8,0.8
2024-02-11T0400,1227A,120.1269,30.2456,杭州市,卧龙桥,细颗粒物(PM2.5),74,63,110,54,97,12,,,,17,16,4,5,0.6,0.7
2024-02-11T0400,1228A,120.1903,30.2692,杭州市,浙江农大,细颗粒物(PM2.5),127,114,180,96,154,15,,,,32,24,7,9,0.8,0.9
2024-02-11T0400,1230A,120.1197,30.3119,杭州市,和睦小学,细颗粒物(PM2.5),100,87,186,75,158,39,,,,16,25,6,8,0.7,0.8
2024-02-11T0400,1231A,120.3019,30.4183,杭州市,临平镇,细颗粒物(PM2.5),84,62,119,62,136,63,,,,8,14,6,8,0.6,0.7
2024-02-11T0400,1232A,120.2697,30.1819,杭州市,城厢镇,细颗粒物(PM2.5),99,85,185,74,172,57,,,,11,15,7,8,0.7,0.8
2024-02-11T0400,1233A,120.0883,30.1808,杭州市,云栖,细颗粒物(PM2.5),54,50,102,38,83,39,,,,12,13,7,8,0.6,0.7
2024-02-11T0400,3557A,119.9464,30.0494,杭州市,镇二中,细颗粒物(PM2.5),114,97,189,86,222,14,,,,15,19,6,9,0.8,0.9
2024-02-11T0400,3558A,119.7183,30.2367,杭州市,市府大楼,细颗粒物(PM2.5),77,63,141,56,122,46,,,,8,13,5,7,0.6,0.8
2024-02-11T0400,3656A,120.1556,30.2864,杭州市,消防大队,细颗粒物(PM2.5),93,77,179,69,158,47,,,,14,23,8,10,0.8,1
2024-02-11T0400,1270A,117.1959,31.7848,合肥市,明珠广场,细颗粒物(PM2.5),110,97,177,83,152,52,,,,16,18,7,12,0.9,0.9
2024-02-11T0400,1271A,117.3072,31.8764,合肥市,三里街,细颗粒物(PM2.5),153,134,212,117,182,38,,,,25,31,6,10,0.8,0.9
2024-02-11T0400,1272A,117.2588,31.8707,合肥市,琥珀山庄,细颗粒物(PM2.5),149,129,198,114,173,19,,,,30,27,5,9,1.2,1.2
2024-02-11T0400,1273A,117.1604,31.9052,合肥市,董铺水库,细颗粒物(PM2.5),140,134,156,107,129,61,,,,4,7,4,5,0.7,0.7
2024-02-11T0400,1274A,117.25,31.8571,合肥市,长江中路,细颗粒物(PM2.5),156,132,176,119,159,40,,,,25,21,8,11,1.1,1
2024-02-11T0400,1275A,117.266,31.9436,合肥市,庐阳区,细颗粒物(PM2.5),128,139,169,97,128,66,,,,13,20,5,8,0.9,0.9
2024-02-11T0400,1276A,117.336,31.8586,合肥市,瑶海区,细颗粒物(PM2.5),160,141,213,122,185,54,,,,24,25,6,9,0.9,0.9
2024-02-11T0400,1277A,117.3027,31.7964,合肥市,包河区,细颗粒物(PM2.5),138,112,185,105,175,56,,,,17,24,4,9,0.8,0.8
2024-02-11T0400,1278A,117.2776,31.7385,合肥市,滨湖新区,细颗粒物(PM2.5),110,105,193,83,162,66,,,,10,16,5,11,0.9,1
2024-02-11T0400,1279A,117.1318,31.8403,合肥市,高新区,细颗粒物(PM2.5),135,117,143,103,126,64,,,,13,14,5,8,0.9,0.9
2024-02-11T0400,3464A,117.3803,31.9147,合肥市,高教基地,细颗粒物(PM2.5),150,132,180,115,150,24,,,,25,14,3,7,0.8,0.8
2024-02-11T0400,3614A,79.924,37.0877,和田地区,地区环保局,颗粒物(PM10),59,68,99,20,38,54,,,,29,27,10,17,0.8,0.8
2024-02-11T0400,3615A,79.9131,37.113,和田地区,市环保局,颗粒物(PM10),53,55,86,28,37,38,,,,39,37,8,12,1.3,1.3
2024-02-11T0400,2516A,108.2011,24.715,河池市,东仁乐园,,43,31,45,30,36,18,,,,4,5,3,3,0.6,0.7
2024-02-11T0400,2517A,108.0497,24.6947,河池市,市环保站,,49,,54,34,48,25,,,,9,9,6,8,0.5,0.7
2024-02-11T0400,2518A,108.0983,24.6989,河池市,市疾控中心,细颗粒物(PM2.5),80,61,64,59,61,15,,,,14,13,7,8,0.6,0.7
2024-02-11T0400,1696A,114.6778,23.7569,河源市,源西,细颗粒物(PM2.5),57,50,64,40,49,40,,,,6,9,4,6,0.7,0.8
2024-02-11T0400,1697A,114.6944,23.7586,河源市,东埔,细颗粒物(PM2.5),79,65,77,58,62,31,,,,8,9,7,9,0.6,0.7
2024-02-11T0400,1698A,114.6892,23.7233,河源市,老城,细颗粒物(PM2.5),69,,97,50,75,24,,,,9,10,6,8,0.7,0.8
2024-02-11T0400,1718A,115.4208,35.2464,菏泽市,气象局,细颗粒物(PM2.5),345,349,374,295,310,82,,,,18,26,6,10,1.5,1.5
2024-02-11T0400,1719A,115.4747,35.2375,菏泽市,市政协,细颗粒物(PM2.5),341,349,368,291,304,67,,,,11,19,6,10,1.4,1.3
2024-02-11T0400,3374A,115.5564,35.0891,菏泽市,定陶老年大学,细颗粒物(PM2.5),340,337,327,290,280,59,,,,20,22,5,10,1.4,1.1
2024-02-11T0400,3647A,115.4702,35.2706,菏泽市,菏泽医专,细颗粒物(PM2.5),311,312,359,261,297,72,,,,22,28,9,15,1.5,1.4
2024-02-11T0400,2514A,111.5264,24.4172,贺州市,环保小区,细颗粒物(PM2.5),140,108,115,107,108,24,,,,8,9,10,11,0.6,0.7
2024-02-11T0400,2515A,111.5608,24.4078,贺州市,政协大楼,细颗粒物(PM2.5),102,90,108,76,95,11,,,,15,13,9,10,0.7,0.8
2024-02-11T0400,3534A,111.4744,24.4553,贺州市,西湾,细颗粒物(PM2.5),97,90,99,72,87,26,,,,8,9,8,9,0.7,0.7
2024-02-11T0400,2385A,114.17,35.9019,鹤壁市,市监测站,细颗粒物(PM2.5),125,143,253,95,208,52,,,,16,23,5,9,0.9,1.3
2024-02-11T0400,2386A,114.2956,35.7511,鹤壁市,市交警支队,细颗粒物(PM2.5),293,291,264,243,217,63,,,,13,20,8,19,1.1,1.2
2024-02-11T0400,2387A,114.2878,35.7306,鹤壁市,迎宾馆,细颗粒物(PM2.5),297,265,229,247,207,64,,,,16,24,10,22,1.2,1.3
2024-02-11T0400,3474A,114.2617,35.6822,鹤壁市,大新区,细颗粒物(PM2.5),300,279,252,250,221,48,,,,26,23,9,20,1.3,1.2
2024-02-11T0400,3596A,114.1572,35.9603,鹤壁市,南山宾馆,颗粒物(PM10),69,88,217,46,179,80,,,,4,22,6,16,0.6,1.3
2024-02-11T0400,2244A,130.2537,47.3416,鹤岗市,哈啤分公司,,33,24,57,23,45,76,,,,8,12,18,21,0.9,1
2024-02-11T0400,2245A,130.2684,47.3086,鹤岗市,斯达机电,,33,33,68,21,47,82,,,,9,15,14,18,0.4,0.5
2024-02-11T0400,2246A,130.3114,47.3388,鹤岗市,东山纸板厂,,40,,61,28,52,83,,,,9,16,14,21,0.4,0.8
2024-02-11T0400,2247A,130.1097,47.3382,鹤岗市,五号水库,,25,23,23,13,18,77,,,,8,6,10,11,0.5,0.5
2024-02-11T0400,2263A,127.4833,50.2524,黑河市,交通局,"颗粒物(PM10),细颗粒物(PM2.5)",52,53,60,36,41,50,,,,17,14,8,14,0.6,0.6
2024-02-11T0400,2264A,127.5144,50.2341,黑河市,环保局,细颗粒物(PM2.5),68,58,87,49,66,34,,,,20,20,7,21,0.7,0.6
2024-02-11T0400,2265A,127.5291,50.2472,黑河市,大黑河岛,,,,62,69,54,30,,,,98,89,15,18,,
2024-02-11T0400,1074A,115.6838,37.7541,衡水市,电机北厂,细颗粒物(PM2.5),165,146,121,125,93,91,,,,6,8,12,11,0.7,0.6
2024-02-11T0400,1075A,115.6303,37.7316,衡水市,市监测站,细颗粒物(PM2.5),147,123,84,112,64,81,,,,13,12,15,10,0.8,0.5
2024-02-11T0400,3188A,115.6683,37.7217,衡水市,市城管局,细颗粒物(PM2.5),134,120,95,102,73,73,,,,12,11,16,11,0.8,0.6
2024-02-11T0400,3459A,115.5989,37.5491,衡水市,地表水厂,细颗粒物(PM2.5),156,141,136,119,117,67,,,,10,12,15,10,1.1,0.8
2024-02-11T0400,2456A,112.5003,26.9167,衡阳市,原169医院,细颗粒物(PM2.5),123,,153,93,129,35,,,,10,13,19,27,1.1,1.3
2024-02-11T0400,2457A,112.6194,26.9258,衡阳市,衡阳化工总厂,细颗粒物(PM2.5),155,,223,118,185,26,,,,10,19,12,14,0.9,1.1
2024-02-11T0400,2458A,112.6211,26.8956,衡阳市,珠晖区环保局,细颗粒物(PM2.5),227,,256,177,214,21,,,,18,21,7,15,1.0,1.2
2024-02-11T0400,2459A,112.6197,26.8733,衡阳市,市委党校,细颗粒物(PM2.5),159,144,160,121,121,31,,,,8,8,10,16,1.0,1
2024-02-11T0400,2460A,112.6006,26.8919,衡阳市,市监测站,细颗粒物(PM2.5),394,393,276,344,253,2,,,,28,22,8,20,1.3,1.5
2024-02-11T0400,2461A,112.5664,26.9056,衡阳市,真空机电公司,细颗粒物(PM2.5),290,287,218,240,179,5,,,,31,26,7,26,1.3,1.8
2024-02-11T0400,3399A,112.6703,26.882,衡阳市,师范学院,细颗粒物(PM2.5),122,98,136,92,126,25,,,,3,6,8,12,1.0,0.9
2024-02-11T0400,2608A,103.3772,23.3993,红河哈尼族彝族自治州,污水处理厂,细颗粒物(PM2.5),88,,69,65,64,26,,,,12,11,9,18,1.0,0.9
2024-02-11T0400,2609A,103.3861,23.35,红河哈尼族彝族自治州,监测站,细颗粒物(PM2.5),60,46,64,43,58,23,,,,11,10,6,13,0.8,0.9
2024-02-11T0400,3038A,103.3758,23.368,红河哈尼族彝族自治州,州图书馆,细颗粒物(PM2.5),62,46,62,44,54,31,,,,7,10,10,14,0.8,0.9
2024-02-11T0400,1090A,111.6507,40.7517,呼和浩特市,呼市一监,细颗粒物(PM2.5),500,,236,791,354,10,,,,71,40,15,15,2.3,1.6
2024-02-11T0400,1091A,111.6572,40.8033,呼和浩特市,小召,细颗粒物(PM2.5),430,429,327,395,321,57,,,,61,47,19,17,1.3,1.5
2024-02-11T0400,1094A,111.7516,40.8369,呼和浩特市,如意水处理厂,细颗粒物(PM2.5),449,,261,423,246,21,,,,60,49,26,26,1.4,1.4
2024-02-11T0400,1095A,111.7276,40.8062,呼和浩特市,二十九中,颗粒物(PM10),500,661,285,413,245,34,,,,50,39,18,19,1.5,1.2
2024-02-11T0400,1096A,111.5512,40.7866,呼和浩特市,工大金川校区,细颗粒物(PM2.5),276,379,349,226,309,59,,,,26,41,10,18,0.9,1.4
2024-02-11T0400,1097A,111.717,40.7612,呼和浩特市,化肥厂生活区,"颗粒物(PM10),细颗粒物(PM2.5)",500,707,351,619,298,16,,,,76,41,32,28,2.9,1.7
2024-02-11T0400,3698A,111.5968,40.8178,呼和浩特市,红旗小学,细颗粒物(PM2.5),404,,360,356,372,26,,,,61,52,24,28,1.5,1.7
2024-02-11T0400,3699A,111.6518,40.8389,呼和浩特市,海东办,细颗粒物(PM2.5),440,425,340,410,368,11,,,,70,56,21,25,1.6,1.5
2024-02-11T0400,2192A,119.7594,49.2261,呼伦贝尔市,区环保局,,28,18,22,12,20,88,,,,5,8,6,8,0.2,0.2
2024-02-11T0400,3061A,119.7512,49.1577,呼伦贝尔市,国华电力东,,29,20,15,20,15,84,,,,5,4,5,5,0.3,0.2
2024-02-11T0400,1250A,120.0751,30.8669,湖州市,城西水厂,细颗粒物(PM2.5),99,88,142,74,124,61,,,,20,21,5,6,0.6,0.7
2024-02-11T0400,2873A,120.0875,30.8955,湖州市,仁皇山新区,细颗粒物(PM2.5),94,84,125,70,106,70,,,,14,19,7,8,0.7,0.8
2024-02-11T0400,2907A,120.1844,30.8596,湖州市,吴兴区站,细颗粒物(PM2.5),89,76,110,66,99,71,,,,9,13,7,8,0.7,0.7
2024-02-11T0400,3562A,120.4148,30.8538,湖州市,南浔区站,细颗粒物(PM2.5),95,84,133,71,123,77,,,,8,12,8,8,0.6,0.7
2024-02-11T0400,1607A,120.9092,40.7136,葫芦岛市,龙港区,细颗粒物(PM2.5),87,78,136,64,116,71,,,,13,16,17,37,0.8,0.7
2024-02-11T0400,1608A,120.8392,40.7514,葫芦岛市,化工街,细颗粒物(PM2.5),104,107,119,78,90,43,,,,15,14,9,17,1.5,1.3
2024-02-11T0400,1609A,120.8341,40.7073,葫芦岛市,新区,细颗粒物(PM2.5),100,91,124,75,101,68,,,,14,20,14,22,0.7,0.7
2024-02-11T0400,1610A,120.8695,40.7677,葫芦岛市,东城区,细颗粒物(PM2.5),140,,144,107,137,35,,,,27,26,10,23,1.7,1.5
2024-02-11T0400,2482A,109.5981,27.5721,怀化市,林科所,细颗粒物(PM2.5),87,67,83,64,75,17,,,,4,4,5,5,0.5,0.5
2024-02-11T0400,2483A,109.9453,27.5444,怀化市,河西地税局,细颗粒物(PM2.5),62,55,82,44,70,10,,,,2,6,2,4,0.8,0.9
2024-02-11T0400,2484A,109.9781,27.5342,怀化市,市四医院,细颗粒物(PM2.5),75,65,116,55,90,16,,,,6,8,4,5,0.9,0.9
2024-02-11T0400,2485A,109.9972,27.5578,怀化市,监测楼,细颗粒物(PM2.5),99,83,156,74,115,16,,,,5,12,4,6,0.7,1
2024-02-11T0400,2486A,110.0394,27.583,怀化市,市委党校,细颗粒物(PM2.5),122,108,112,92,96,7,,,,4,9,4,6,0.8,0.9
2024-02-11T0400,1210A,119.036,33.5981,淮安市,钵池山,细颗粒物(PM2.5),334,,197,284,189,58,,,,18,21,7,10,1.0,1.1
2024-02-11T0400,1211A,119.007,33.575,淮安市,北京南路,细颗粒物(PM2.5),321,300,195,271,171,45,,,,17,21,7,12,1.2,1.4
2024-02-11T0400,1212A,118.989,33.6067,淮安市,市监测站,细颗粒物(PM2.5),335,324,210,285,183,54,,,,16,16,8,10,1.6,1.4
2024-02-11T0400,1213A,119.135,33.5039,淮安市,楚州区监测站,细颗粒物(PM2.5),273,237,193,223,190,39,,,,21,20,6,11,0.9,0.9
2024-02-11T0400,1214A,119.0186,33.6297,淮安市,淮阴区监测站,细颗粒物(PM2.5),379,334,244,329,212,50,,,,21,24,6,8,1.0,0.9
2024-02-11T0400,3426A,118.8755,33.2894,淮安市,新华书店,细颗粒物(PM2.5),246,197,163,196,150,54,,,,19,21,6,9,0.9,0.9
2024-02-11T0400,2282A,116.8004,33.975,淮北市,监测站,细颗粒物(PM2.5),373,417,361,323,288,33,,,,29,26,7,14,1.3,1.3
2024-02-11T0400,2283A,116.8091,33.9007,淮北市,烈山区政府,细颗粒物(PM2.5),346,341,318,296,273,20,,,,40,27,5,12,1.3,1
2024-02-11T0400,3330A,116.8873,33.9836,淮北市,杜集区检察院,细颗粒物(PM2.5),371,369,314,321,268,25,,,,27,19,8,14,1.4,1.2
2024-02-11T0400,4017A,116.7923,33.9535,淮北市,市博物馆,细颗粒物(PM2.5),435,441,370,402,315,32,,,,31,33,9,15,1.6,1.4
2024-02-11T0400,2277A,116.8305,32.7727,淮南市,潘集区政府,细颗粒物(PM2.5),261,233,151,211,125,45,,,,18,14,7,6,0.9,0.8
2024-02-11T0400,2278A,117.0067,32.6524,淮南市,师范学院,细颗粒物(PM2.5),222,214,144,172,109,46,,,,19,21,8,9,0.8,0.8
2024-02-11T0400,2279A,116.8569,32.5951,淮南市,谢家集区政府,细颗粒物(PM2.5),235,219,121,185,109,56,,,,12,12,8,10,0.9,0.8
2024-02-11T0400,2280A,116.8281,32.633,淮南市,八公山区政府,细颗粒物(PM2.5),235,215,113,185,93,62,,,,13,12,5,4,0.9,0.8
2024-02-11T0400,2281A,116.6325,32.6201,淮南市,焦岗湖风景区管理处,细颗粒物(PM2.5),220,226,145,170,105,26,,,,14,12,3,4,0.7,0.5
2024-02-11T0400,2894A,117.0566,32.6531,淮南市,经济技术开发区消防队,细颗粒物(PM2.5),218,195,131,168,106,50,,,,15,13,7,8,0.9,0.8
2024-02-11T0400,3329A,117.0108,32.5893,淮南市,山南新区,细颗粒物(PM2.5),289,,150,239,148,52,,,,16,16,5,9,0.8,0.8
2024-02-11T0400,2446A,114.9028,30.4742,黄冈市,职工中心,细颗粒物(PM2.5),201,172,225,151,164,27,,,,21,13,10,16,1.0,1.1
2024-02-11T0400,2929A,114.8858,30.4519,黄冈市,红卫路,细颗粒物(PM2.5),190,160,224,143,183,30,,,,29,17,7,13,1.2,1.2
2024-02-11T0400,3398A,114.9136,30.4445,黄冈市,市林业局,细颗粒物(PM2.5),204,168,216,154,190,37,,,,15,16,7,11,1.0,1.1
2024-02-11T0400,2672A,102.0199,35.5102,黄南藏族自治州,同仁县隆务镇,,26,26,30,11,13,55,,,,4,5,20,19,0.9,0.7
2024-02-11T0400,2295A,118.2903,29.6963,黄山市,延安路89号,颗粒物(PM10),53,55,154,32,88,38,,,,4,7,5,7,0.4,0.5
2024-02-11T0400,2296A,118.327,29.7178,黄山市,黄山东路89号,细颗粒物(PM2.5),62,50,123,44,103,15,,,,13,13,5,6,0.7,0.8
2024-02-11T0400,2297A,118.1371,30.2756,黄山市,黄山区政府5号楼,细颗粒物(PM2.5),54,53,76,38,55,18,,,,7,8,4,6,0.6,0.7
2024-02-11T0400,2423A,115.0601,30.2313,黄石市,沈家营,细颗粒物(PM2.5),149,130,229,114,171,28,,,,30,24,14,18,1.1,1.3
2024-02-11T0400,2424A,115.0817,30.2006,黄石市,陈家湾,细颗粒物(PM2.5),109,,161,82,139,40,,,,11,25,8,16,0.8,1.1
2024-02-11T0400,2426A,114.8988,30.2019,黄石市,铁山,细颗粒物(PM2.5),109,112,129,82,110,34,,,,22,24,7,13,1.3,1.1
2024-02-11T0400,2427A,115.0307,30.2092,黄石市,团城山,细颗粒物(PM2.5),145,135,243,111,172,49,,,,20,25,10,19,1.2,1.2
2024-02-11T0400,3149A,115.0235,30.1578,黄石市,笔架山北路,细颗粒物(PM2.5),123,120,145,93,130,69,,,,13,14,14,22,2.1,1.5
2024-02-11T0400,1392A,114.4183,23.0528,惠州市,河南岸金山湖子站,细颗粒物(PM2.5),118,102,64,89,58,25,,,,10,9,5,6,0.7,0.7
2024-02-11T0400,1393A,114.4053,23.0822,惠州市,下埔横江三路子站,细颗粒物(PM2.5),124,116,76,94,61,44,,,,13,18,8,7,0.8,0.8
2024-02-11T0400,1394A,114.4103,23.1142,惠州市,江北云山西路子站,细颗粒物(PM2.5),202,,68,152,63,39,,,,10,8,12,9,0.7,0.7
2024-02-11T0400,1395A,114.4645,22.7833,惠州市,惠阳区承修路船湖子站,细颗粒物(PM2.5),108,96,75,81,63,42,,,,13,12,8,9,0.8,0.8
2024-02-11T0400,1396A,114.5317,22.7422,惠州市,大亚湾管委会子站,细颗粒物(PM2.5),107,93,69,80,62,47,,,,13,13,8,8,0.6,0.6
2024-02-11T0400,3314A,114.4338,22.8134,惠州市,惠阳秋长,细颗粒物(PM2.5),105,,72,79,62,52,,,,6,6,9,9,0.6,0.6
2024-02-11T0400,3452A,114.6517,22.775,惠州市,大亚湾霞涌,细颗粒物(PM2.5),77,65,64,56,53,58,,,,6,9,8,10,0.7,0.8
2024-02-11T0400,2240A,130.9762,45.3001,鸡西市,环保局,细颗粒物(PM2.5),93,83,186,69,156,92,,,,8,16,8,16,0.4,0.5
2024-02-11T0400,2243A,130.9429,45.3039,鸡西市,第一中学,细颗粒物(PM2.5),98,86,134,73,109,99,,,,8,12,11,18,0.5,0.4
2024-02-11T0400,3707A,131.0207,45.3073,鸡西市,欧美日汽修厂,细颗粒物(PM2.5),110,90,159,83,137,82,,,,13,25,9,25,1.9,1.8
2024-02-11T0400,3709A,130.9967,45.3106,鸡西市,市政设施管理处,细颗粒物(PM2.5),109,89,193,82,132,84,,,,24,29,4,8,0.8,0.9
2024-02-11T0400,2367A,114.9754,27.0803,吉安市,红声器材厂,细颗粒物(PM2.5),127,124,140,96,103,9,,,,20,18,11,19,1.1,1.1
2024-02-11T0400,2368A,114.9658,27.0999,吉安市,市森林工业局,细颗粒物(PM2.5),200,175,143,150,121,8,,,,23,19,7,15,1.0,0.6
2024-02-11T0400,2369A,114.99,27.1312,吉安市,市环境监测站,细颗粒物(PM2.5),117,114,146,88,117,21,,,,13,17,6,14,0.9,1.1
2024-02-11T0400,2370A,115.0093,27.0968,吉安市,青原区法院,细颗粒物(PM2.5),65,60,154,47,128,19,,,,12,15,8,32,0.7,0.9
2024-02-11T0400,1772A,126.54,43.8622,吉林市,哈达湾,细颗粒物(PM2.5),103,92,155,77,126,75,,,,14,20,6,12,0.9,0.9
2024-02-11T0400,1773A,126.5844,43.8358,吉林市,东局子,细颗粒物(PM2.5),105,93,164,79,138,81,,,,10,26,9,14,0.9,1.1
2024-02-11T0400,1774A,126.5052,43.8245,吉林市,电力学院,细颗粒物(PM2.5),110,87,160,83,145,51,,,,18,27,10,17,1.2,1.4
2024-02-11T0400,1775A,126.6133,43.8972,吉林市,江北,细颗粒物(PM2.5),118,111,199,89,169,73,,,,10,28,13,21,0.9,1.1
2024-02-11T0400,1776A,126.555,43.8306,吉林市,江南公园,细颗粒物(PM2.5),122,102,203,92,181,78,,,,10,27,7,19,0.6,0.9
2024-02-11T0400,2868A,126.4739,43.953,吉林市,九站,细颗粒物(PM2.5),113,98,169,85,149,62,,,,28,34,15,12,1.0,1.2
2024-02-11T0400,1299A,116.9862,36.6114,济南市,科干所,细颗粒物(PM2.5),70,73,147,51,123,104,,,,4,16,14,18,1.0,1.1
2024-02-11T0400,1300A,116.9376,36.665,济南市,农科所,细颗粒物(PM2.5),68,68,156,49,124,67,,,,16,24,16,18,0.8,0.9
2024-02-11T0400,1301A,117.1265,36.6734,济南市,开发区,细颗粒物(PM2.5),62,66,127,44,106,86,,,,10,16,12,14,0.9,0.9
2024-02-11T0400,1303A,117.0624,36.6868,济南市,省种子仓库,细颗粒物(PM2.5),110,114,161,83,119,34,,,,39,19,18,15,1.2,1
2024-02-11T0400,1304A,116.9489,36.6447,济南市,机床二厂,细颗粒物(PM2.5),74,76,147,54,120,61,,,,19,26,21,26,1.1,1.2
2024-02-11T0400,1305A,117.0495,36.663,济南市,市监测站,细颗粒物(PM2.5),64,66,136,46,111,86,,,,19,24,18,22,0.8,0.8
2024-02-11T0400,1306A,116.7675,36.5484,济南市,长清党校,细颗粒物(PM2.5),85,83,143,63,116,72,,,,20,21,12,16,1.0,1
2024-02-11T0400,1616A,117.6795,36.229,济南市,技术学院,细颗粒物(PM2.5),70,63,169,51,142,53,,,,22,36,8,14,0.8,1.3
2024-02-11T0400,1961A,117.532,36.6868,济南市,东山小学,颗粒物(PM10),57,63,128,34,96,93,,,,8,16,8,16,0.3,0.6
2024-02-11T0400,3059A,117.7161,36.2049,济南市,泰兴公司,细颗粒物(PM2.5),77,68,180,56,149,28,,,,20,27,7,13,1.0,1.4
2024-02-11T0400,3064A,117.6867,36.2171,济南市,莱芜战役纪念馆,细颗粒物(PM2.5),77,78,181,56,146,29,,,,24,30,8,13,0.8,1.3
2024-02-11T0400,3494A,117.1673,36.9782,济南市,济阳区政府,细颗粒物(PM2.5),92,95,146,68,112,72,,,,20,17,22,23,0.7,0.7
2024-02-11T0400,3495A,117.1171,36.63,济南市,锦屏中学,细颗粒物(PM2.5),64,68,124,46,102,99,,,,9,14,14,15,0.7,0.8
2024-02-11T0400,3682A,116.9814,36.6819,济南市,济南四建,细颗粒物(PM2.5),80,73,152,59,130,59,,,,20,27,20,23,0.9,0.9
2024-02-11T0400,1653A,116.6251,35.4302,济宁市,火炬城,细颗粒物(PM2.5),218,209,363,168,303,35,,,,26,27,7,17,1.5,1.5
2024-02-11T0400,1655A,116.5491,35.4042,济宁市,电化厂,细颗粒物(PM2.5),291,280,393,241,346,49,,,,22,26,15,21,1.7,1.5
2024-02-11T0400,3500A,116.5814,35.3707,济宁市,北湖一中,细颗粒物(PM2.5),279,275,397,229,323,47,,,,23,35,10,18,1.5,1.3
2024-02-11T0400,3501A,116.8249,35.5593,济宁市,服务中心,细颗粒物(PM2.5),172,184,331,130,227,29,,,,30,26,8,13,1.4,1.5
2024-02-11T0400,3678A,116.5907,35.4054,济宁市,市第七中学,细颗粒物(PM2.5),277,259,375,227,297,26,,,,39,25,10,20,1.7,1.4
2024-02-11T0400,2255A,130.2751,46.8028,佳木斯市,佳纺,细颗粒物(PM2.5),158,127,166,120,156,96,,,,14,19,6,10,1.0,1.1
2024-02-11T0400,2256A,130.3995,46.8307,佳木斯市,发电厂,细颗粒物(PM2.5),124,120,157,94,130,95,,,,17,27,12,17,0.9,1
2024-02-11T0400,2257A,130.3258,46.7975,佳木斯市,环保局,细颗粒物(PM2.5),150,129,185,115,174,89,,,,19,22,8,20,1.1,1.2
2024-02-11T0400,2258A,130.3648,46.8032,佳木斯市,十一中,细颗粒物(PM2.5),150,117,169,115,152,89,,,,15,23,7,13,0.8,0.9
2024-02-11T0400,2259A,130.3794,46.7588,佳木斯市,四丰,细颗粒物(PM2.5),132,161,127,100,84,110,,,,14,11,1,1,0.9,0.7
2024-02-11T0400,1252A,120.7436,30.778,嘉兴市,清河小学,细颗粒物(PM2.5),85,83,133,63,102,68,,,,10,24,7,8,0.4,0.6
2024-02-11T0400,1253A,120.726,30.7478,嘉兴市,嘉兴学院,细颗粒物(PM2.5),99,98,147,74,125,56,,,,16,24,6,8,0.9,0.9
2024-02-11T0400,2872A,120.7846,30.7525,嘉兴市,南湖区残联,细颗粒物(PM2.5),108,111,152,81,120,63,,,,15,22,7,9,0.8,0.9
2024-02-11T0400,3407A,120.6916,30.7739,嘉兴市,秀洲住建,细颗粒物(PM2.5),97,84,151,72,131,62,,,,13,21,10,10,0.7,0.8
2024-02-11T0400,1945A,98.2908,39.7711,嘉峪关市,气象局,颗粒物(PM10),134,217,60,51,27,69,,,,5,15,5,10,0.1,0.2
2024-02-11T0400,2884A,98.2672,39.7978,嘉峪关市,酒钢宾馆,颗粒物(PM10),142,234,55,51,19,70,,,,3,9,6,9,0.3,0.4
2024-02-11T0400,3248A,98.2643,39.7724,嘉峪关市,雄关区,颗粒物(PM10),121,191,46,32,17,64,,,,10,19,5,8,0.4,0.5
2024-02-11T0400,1383A,113.1064,22.6058,江门市,北街,细颗粒物(PM2.5),89,,62,66,53,43,,,,17,16,7,8,0.8,0.9
2024-02-11T0400,1384A,113.0731,22.5835,江门市,西区,细颗粒物(PM2.5),68,56,57,49,43,53,,,,14,16,10,10,0.3,0.5
2024-02-11T0400,1385A,113.0219,22.5311,江门市,圭峰西,细颗粒物(PM2.5),82,66,46,60,39,16,,,,22,12,6,7,0.7,0.7
2024-02-11T0400,1386A,113.0828,22.5947,江门市,东湖,细颗粒物(PM2.5),79,66,62,58,47,46,,,,13,16,6,8,0.6,0.7
2024-02-11T0400,3311A,113.1075,22.5647,江门市,江海富民,细颗粒物(PM2.5),69,65,48,50,37,56,,,,15,16,8,8,0.5,0.6
2024-02-11T0400,3449A,113.05,22.4667,江门市,新会银湖,细颗粒物(PM2.5),62,57,49,44,41,14,,,,13,12,6,7,0.7,0.8
2024-02-11T0400,1828A,113.227,35.2125,焦作市,市环保局,颗粒物(PM10),78,105,183,27,97,75,,,,5,12,2,27,0.4,0.9
2024-02-11T0400,3169A,113.2725,35.2067,焦作市,太极体育中心,颗粒物(PM10),81,112,191,29,116,80,,,,8,16,4,23,0.4,0.8
2024-02-11T0400,3335A,113.3137,35.2641,焦作市,马村街道办,颗粒物(PM10),81,112,168,47,106,74,,,,8,13,8,34,0.4,0.4
2024-02-11T0400,3336A,113.2465,35.2373,焦作市,焦作技师学院,颗粒物(PM10),77,103,212,34,128,70,,,,9,19,13,44,0.8,1
2024-02-11T0400,3477A,113.1656,35.2539,焦作市,中站许衡医院,颗粒物(PM10),72,94,131,34,66,76,,,,3,8,15,23,0.3,0.4
2024-02-11T0400,3981A,113.2449,35.1803,焦作市,原李万街道办,,,108,206,,156,77,,,,14,21,5,27,0.4,0.8
2024-02-11T0400,1708A,116.3701,23.5345,揭阳市,新兴,细颗粒物(PM2.5),204,,74,154,73,23,,,,16,9,8,9,1.1,0.9
2024-02-11T0400,1709A,116.3264,23.5443,揭阳市,西马,细颗粒物(PM2.5),139,119,75,106,73,22,,,,14,9,8,9,0.8,0.7
2024-02-11T0400,1710A,116.3611,23.5626,揭阳市,东兴,细颗粒物(PM2.5),124,,71,94,64,35,,,,21,8,7,9,0.9,0.8
2024-02-11T0400,1711A,116.4151,23.5294,揭阳市,渔湖,细颗粒物(PM2.5),122,105,71,92,52,42,,,,16,9,8,9,0.9,0.8
2024-02-11T0400,3320A,116.403,23.5699,揭阳市,曲溪,细颗粒物(PM2.5),88,85,72,65,58,36,,,,8,8,3,5,0.8,0.8
2024-02-11T0400,1944A,102.1692,38.5167,金昌市,天庆家园,颗粒物(PM10),54,58,98,32,32,29,,,,24,21,28,45,0.8,0.7
2024-02-11T0400,3170A,102.1864,38.5253,金昌市,市委党校,细颗粒物(PM2.5),90,125,131,67,45,19,,,,25,13,25,44,1.3,0.7
2024-02-11T0400,4022A,102.1647,38.5371,金昌市,金川区人防中心,细颗粒物(PM2.5),89,121,124,66,46,26,,,,25,15,148,57,1.0,0.7
2024-02-11T0400,1262A,119.647,29.077,金华市,十五中,细颗粒物(PM2.5),73,70,94,53,79,43,,,,9,13,3,5,0.7,0.9
2024-02-11T0400,1263A,119.686,29.1029,金华市,监测站,细颗粒物(PM2.5),67,74,98,48,71,42,,,,9,10,4,5,0.6,0.7
2024-02-11T0400,3659A,119.656,29.1131,金华市,气象局,细颗粒物(PM2.5),82,88,118,60,93,48,,,,8,16,4,6,0.8,1
2024-02-11T0400,1767A,121.1115,41.0879,锦州市,南山,细颗粒物(PM2.5),193,153,133,145,113,51,,,,31,18,6,19,1.4,0.9
2024-02-11T0400,1768A,121.0533,40.8434,锦州市,开发区,细颗粒物(PM2.5),147,118,141,112,109,45,,,,24,23,17,31,0.9,1
2024-02-11T0400,1769A,121.1836,41.1119,锦州市,百股街道,细颗粒物(PM2.5),128,112,115,97,89,55,,,,16,16,11,20,1.5,0.9
2024-02-11T0400,1770A,121.1178,41.1222,锦州市,天安街道,细颗粒物(PM2.5),156,137,120,119,93,57,,,,14,17,10,15,1.3,0.9
2024-02-11T0400,1771A,121.1303,41.1386,锦州市,北湖公园,细颗粒物(PM2.5),169,,87,128,81,55,,,,16,15,12,17,1.4,0.8
2024-02-11T0400,2160A,112.85,35.5051,晋城市,自来水公司,颗粒物(PM10),75,99,138,31,75,74,,,,7,15,10,12,0.8,1.1
2024-02-11T0400,2161A,112.8318,35.4936,晋城市,白云商贸,颗粒物(PM10),81,111,140,19,63,69,,,,13,18,6,10,0.5,0.8
2024-02-11T0400,2162A,112.8508,35.4887,晋城市,市环保局,颗粒物(PM10),69,88,141,31,71,64,,,,16,21,8,10,0.5,1
2024-02-11T0400,2163A,112.8676,35.4897,晋城市,技术学院,颗粒物(PM10),70,90,143,29,68,68,,,,17,22,10,12,0.7,0.9
2024-02-11T0400,3620A,112.8271,35.4828,晋城市,泽州一中,颗粒物(PM10),74,97,124,19,56,79,,,,15,19,5,9,0.6,0.9
2024-02-11T0400,2171A,112.7532,37.6945,晋中市,锦纶小区,颗粒物(PM10),108,166,189,66,94,45,,,,21,19,26,26,0.8,0.8
2024-02-11T0400,2173A,112.7249,37.7067,晋中市,南都小区,颗粒物(PM10),112,174,248,73,98,41,,,,27,24,29,31,1.2,0.8
2024-02-11T0400,2174A,112.6991,37.6982,晋中市,榆次区政府,颗粒物(PM10),98,146,187,58,97,41,,,,22,22,26,31,1.3,0.9
2024-02-11T0400,2865A,112.7195,37.6828,晋中市,榆次三中,颗粒物(PM10),111,171,192,66,92,38,,,,25,19,27,29,0.9,1
2024-02-11T0400,2439A,112.2014,31.0481,荆门市,竹园小学,细颗粒物(PM2.5),159,137,188,121,153,29,,,,14,25,7,10,0.8,1.1
2024-02-11T0400,2440A,112.1969,30.9891,荆门市,掇刀,细颗粒物(PM2.5),212,179,171,162,142,44,,,,20,23,13,10,0.9,1
2024-02-11T0400,2441A,112.2213,31.0386,荆门市,石化一小,细颗粒物(PM2.5),183,157,196,138,154,19,,,,27,29,13,18,1.0,1.1
2024-02-11T0400,3012A,112.1849,31.0362,荆门市,西山林语,细颗粒物(PM2.5),145,140,153,111,121,23,,,,24,19,12,14,0.9,0.8
2024-02-11T0400,3547A,112.1632,31.0138,荆门市,龙泉中学南校,细颗粒物(PM2.5),192,174,159,144,141,43,,,,36,25,13,11,1.1,1
2024-02-11T0400,1844A,112.2494,30.3197,荆州市,市图书馆,细颗粒物(PM2.5),220,174,172,170,171,44,,,,16,19,7,10,1.2,1.1
2024-02-11T0400,1845A,112.2008,30.3544,荆州市,市委党校,细颗粒物(PM2.5),200,152,177,150,174,32,,,,30,21,7,11,1.0,0.9
2024-02-11T0400,3194A,112.2747,30.3122,荆州市,管委会,细颗粒物(PM2.5),204,164,163,154,179,46,,,,13,16,9,12,1.2,1.1
2024-02-11T0400,3548A,112.1655,30.3364,荆州市,学苑路,细颗粒物(PM2.5),214,,166,164,173,42,,,,24,20,6,9,1.3,1.2
2024-02-11T0400,2342A,117.3102,29.3867,景德镇市,王港中学,细颗粒物(PM2.5),89,76,129,66,106,12,,,,2,5,3,19,0.2,0.4
2024-02-11T0400,2343A,117.2117,29.2933,景德镇市,老干部活动中心,细颗粒物(PM2.5),93,88,130,69,111,17,,,,6,10,3,10,0.6,0.7
2024-02-11T0400,2344A,117.1894,29.2789,景德镇市,兽医站,细颗粒物(PM2.5),107,101,146,80,120,19,,,,7,11,5,14,0.8,0.8
2024-02-11T0400,2345A,117.1547,29.2617,景德镇市,台达陶瓷,细颗粒物(PM2.5),107,98,159,80,135,18,,,,8,15,4,12,0.8,0.9
2024-02-11T0400,2346A,117.2461,29.2956,景德镇市,陶研所,细颗粒物(PM2.5),82,74,119,60,100,10,,,,7,15,5,11,0.7,0.8
2024-02-11T0400,1803A,115.9872,29.6815,九江市,十里,细颗粒物(PM2.5),88,76,100,65,83,20,,,,30,21,8,11,0.8,0.8
2024-02-11T0400,1804A,115.9584,29.7046,九江市,茅山头,细颗粒物(PM2.5),83,74,108,61,93,24,,,,36,30,10,12,0.9,0.9
2024-02-11T0400,1805A,115.9877,29.7295,九江市,西园,细颗粒物(PM2.5),105,95,115,79,99,36,,,,32,26,7,9,0.7,0.9
2024-02-11T0400,1806A,116.0172,29.6547,九江市,五七二七厂,细颗粒物(PM2.5),58,,61,41,49,61,,,,10,12,8,11,0.7,0.7
2024-02-11T0400,1808A,115.9114,29.6038,九江市,综合工业园,细颗粒物(PM2.5),59,44,70,42,59,46,,,,10,13,10,13,0.6,0.7
2024-02-11T0400,1809A,116.0721,29.7535,九江市,石化总厂,细颗粒物(PM2.5),153,139,181,117,148,10,,,,56,17,9,18,1.3,1
2024-02-11T0400,1810A,115.9773,29.5698,九江市,庐山气象台,细颗粒物(PM2.5),55,47,27,39,24,94,,,,4,3,24,9,1.7,1.1
2024-02-11T0400,3190A,116.0254,29.6994,九江市,外国语学校,细颗粒物(PM2.5),109,97,120,82,106,43,,,,26,25,4,12,0.8,0.9
2024-02-11T0400,2658A,98.5061,39.7443,酒泉市,仓门街子站,颗粒物(PM10),75,100,54,23,26,48,,,,8,11,9,10,0.4,0.5
2024-02-11T0400,2659A,98.4989,39.7256,酒泉市,油田生活基地,颗粒物(PM10),89,127,53,25,28,51,,,,6,9,8,9,0.4,0.4
2024-02-11T0400,2698A,76.0072,39.4467,喀什地区,巡警大队,"颗粒物(PM10),细颗粒物(PM2.5)",88,125,138,65,70,37,,,,42,46,6,11,2.3,2.1
2024-02-11T0400,2699A,75.9755,39.4694,喀什地区,吾办,细颗粒物(PM2.5),134,139,135,102,93,16,,,,72,59,4,7,2.9,2.3
2024-02-11T0400,4027A,75.9483,39.4689,喀什地区,老干局,细颗粒物(PM2.5),158,241,162,120,86,14,,,,68,48,2,5,5.6,3.2
2024-02-11T0400,1824A,114.3389,34.7781,开封市,肿瘤医院,颗粒物(PM10),111,172,271,82,171,61,,,,10,25,2,23,0.6,0.9
2024-02-11T0400,1826A,114.2885,34.7965,开封市,世纪星幼儿园,细颗粒物(PM2.5),104,145,242,78,218,71,,,,3,17,4,24,0.3,0.7
2024-02-11T0400,3147A,114.3438,34.8106,开封市,龙亭公园,细颗粒物(PM2.5),182,196,244,137,145,49,,,,17,26,5,16,0.4,0.7
2024-02-11T0400,3210A,114.3644,34.7964,开封市,汴京公园,细颗粒物(PM2.5),189,195,287,142,227,32,,,,24,28,2,18,0.7,0.8
2024-02-11T0400,3473A,114.2485,34.8306,开封市,技师学院,颗粒物(PM10),88,126,208,37,177,64,,,,5,13,1,14,0.5,0.9
2024-02-11T0400,3592A,114.4644,34.7556,开封市,祥符区生态环境局,细颗粒物(PM2.5),170,195,285,129,215,41,,,,22,22,5,39,0.6,0.7
2024-02-11T0400,1951A,84.895,45.6094,克拉玛依市,长征新村,细颗粒物(PM2.5),82,92,96,60,67,91,,,,26,34,10,13,0.9,0.9
2024-02-11T0400,1952A,84.8988,45.5893,克拉玛依市,南林小区,细颗粒物(PM2.5),100,100,107,75,85,93,,,,23,36,3,8,1.1,1.1
2024-02-11T0400,1954A,84.905,44.3396,克拉玛依市,独山子区,细颗粒物(PM2.5),103,88,162,77,138,68,,,,41,42,5,8,0.8,1
2024-02-11T0400,1955A,85.6979,46.098,克拉玛依市,乌尔禾区商贸楼,细颗粒物(PM2.5),103,103,93,77,76,82,,,,42,40,9,9,1.5,1.3
2024-02-11T0400,3612A,85.1045,45.6899,克拉玛依市,白碱滩区新站,细颗粒物(PM2.5),93,107,107,69,71,92,,,,22,33,10,12,0.9,0.9
2024-02-11T0400,2697A,76.1454,39.7142,克孜勒苏柯尔克孜自治州,市人民政府,颗粒物(PM10),61,72,63,43,40,67,,,,7,12,4,5,0.8,0.8
2024-02-11T0400,3665A,76.1658,39.7157,克孜勒苏柯尔克孜自治州,克州文化中心,细颗粒物(PM2.5),60,56,64,43,39,80,,,,8,14,5,6,0.7,0.7
2024-02-11T0400,1450A,102.8204,24.8886,昆明市,呈贡新区,细颗粒物(PM2.5),75,,49,55,43,71,,,,6,10,4,8,0.8,0.8
2024-02-11T0400,1451A,102.6251,24.9608,昆明市,西山森林公园,,42,42,40,17,32,84,,,,7,8,13,10,1.2,1.2
2024-02-11T0400,1452A,102.7252,25.0902,昆明市,龙泉镇,细颗粒物(PM2.5),59,,58,42,41,55,,,,9,15,11,15,0.6,0.6
2024-02-11T0400,1453A,102.7266,25.0375,昆明市,东风东路,细颗粒物(PM2.5),58,50,46,41,39,60,,,,12,15,10,15,0.7,0.8
2024-02-11T0400,1454A,102.6742,25.0669,昆明市,金鼎山,细颗粒物(PM2.5),64,,71,46,50,71,,,,6,14,6,12,0.7,0.8
2024-02-11T0400,1455A,102.6644,25.0401,昆明市,碧鸡广场,细颗粒物(PM2.5),69,58,53,50,48,62,,,,9,14,9,14,0.7,0.8
2024-02-11T0400,3179A,102.7494,25.0119,昆明市,官渡区博物馆,,50,,46,35,33,55,,,,16,18,8,12,0.7,0.8
2024-02-11T0400,3375A,102.8017,24.8336,昆明市,青年创业园,细颗粒物(PM2.5),85,69,48,63,41,47,,,,9,9,10,13,0.7,0.8
2024-02-11T0400,3550A,102.7997,24.9786,昆明市,昆明学院,细颗粒物(PM2.5),52,47,40,36,29,61,,,,8,7,8,12,0.7,0.8
2024-02-11T0400,3551A,102.5967,24.6736,昆明市,晋宁区生态环境分局,细颗粒物(PM2.5),73,75,94,53,66,51,,,,15,13,6,12,0.9,0.9
2024-02-11T0400,3552A,102.6678,24.9856,昆明市,云天化总部,细颗粒物(PM2.5),67,54,59,48,50,63,,,,8,12,5,10,0.9,1
2024-02-11T0400,1456A,91.1319,29.6514,拉萨市,八廓街,,21,10,17,7,13,66,,,,11,13,6,6,0.3,0.4
2024-02-11T0400,1457A,91.1221,29.6747,拉萨市,市环保局,,20,20,31,13,23,50,,,,16,17,6,8,0.7,0.8
2024-02-11T0400,1458A,91.0874,29.6475,拉萨市,区监测站,,20,,12,13,10,61,,,,12,11,4,4,0.6,0.5
2024-02-11T0400,1459A,91.1774,29.6541,拉萨市,西藏大学,,22,12,13,6,9,69,,,,4,6,4,4,0.3,0.3
2024-02-11T0400,1460A,90.9798,29.6588,拉萨市,区辐射站,,21,7,15,5,13,66,,,,6,11,5,6,0.5,0.6
2024-02-11T0400,1461A,91.0834,29.6292,拉萨市,拉萨火车站,,20,,13,10,10,62,,,,12,9,3,4,0.9,0.6
2024-02-11T0400,2520A,109.2203,23.7256,来宾市,来宾技工学校,细颗粒物(PM2.5),158,,99,120,96,22,,,,16,13,6,9,1.1,1
2024-02-11T0400,3535A,109.1781,23.7297,来宾市,兴宾区政府,细颗粒物(PM2.5),104,102,70,78,60,28,,,,10,9,7,10,1.1,0.9
2024-02-11T0400,4002A,109.2416,23.7461,来宾市,中南小学,细颗粒物(PM2.5),202,,124,152,107,14,,,,26,18,6,8,1.3,1.3
2024-02-11T0400,1476A,103.631,36.1031,兰州市,兰炼宾馆,颗粒物(PM10),84,118,171,48,78,20,,,,30,41,16,22,0.8,0.9
2024-02-11T0400,1478A,103.8412,36.0726,兰州市,生物制品所,颗粒物(PM10),71,91,155,40,64,23,,,,30,37,8,14,0.7,0.9
2024-02-11T0400,1479A,103.831,36.0464,兰州市,铁路设计院,颗粒物(PM10),64,77,144,45,68,4,,,,59,60,12,21,1.1,1.3
2024-02-11T0400,3186A,103.7158,36.1058,兰州市,教育港,颗粒物(PM10),77,104,159,49,60,11,,,,41,42,9,14,1.0,0.9
2024-02-11T0400,3241A,103.7439,36.0842,兰州市,百合公园,颗粒物(PM10),75,100,154,54,67,21,,,,28,44,7,12,1.1,1.2
2024-02-11T0400,3242A,103.9611,35.998,兰州市,和平,,47,47,118,18,56,43,,,,25,21,8,18,0.6,0.9
2024-02-11T0400,3245A,103.6633,36.533,兰州新区,新区管委会,颗粒物(PM10),60,70,125,35,40,37,,,,10,14,8,16,0.7,0.8
2024-02-11T0400,3246A,103.6975,36.4789,兰州新区,舟曲中学,颗粒物(PM10),81,112,192,42,44,32,,,,18,16,8,16,0.8,0.7
2024-02-11T0400,1067A,116.6708,39.5111,廊坊市,药材公司,细颗粒物(PM2.5),83,74,53,61,35,72,,,,8,7,5,3,0.5,0.4
2024-02-11T0400,1068A,116.7214,39.5589,廊坊市,开发区,细颗粒物(PM2.5),84,80,40,62,30,73,,,,9,8,5,3,0.4,0.3
2024-02-11T0400,1070A,116.7244,39.5269,廊坊市,北华航天学院,细颗粒物(PM2.5),68,78,47,49,25,78,,,,12,10,8,4,0.4,0.4
2024-02-11T0400,2919A,116.7022,39.5453,廊坊市,河北工业大学,细颗粒物(PM2.5),87,83,48,64,35,74,,,,11,10,5,3,0.4,0.3
2024-02-11T0400,2535A,103.7723,29.5462,乐山市,花湖湾,细颗粒物(PM2.5),183,169,133,138,118,22,,,,36,15,8,9,0.8,0.6
2024-02-11T0400,2536A,103.7627,29.5844,乐山市,牛耳桥,细颗粒物(PM2.5),128,108,136,97,124,19,,,,20,29,5,7,0.8,0.9
2024-02-11T0400,2537A,103.7508,29.6006,乐山市,市第三水厂,细颗粒物(PM2.5),130,103,169,99,148,8,,,,23,31,4,8,1.0,1
2024-02-11T0400,2538A,103.7571,29.5664,乐山市,市监测站,细颗粒物(PM2.5),119,116,143,90,127,4,,,,34,25,6,9,0.8,0.7
2024-02-11T0400,3361A,103.7311,29.5628,乐山市,理工大学,细颗粒物(PM2.5),147,134,154,112,144,10,,,,39,22,5,8,0.9,0.9
2024-02-11T0400,2599A,100.2497,26.8802,丽江市,丽江古城,,38,34,53,26,39,63,,,,14,17,7,7,0.6,0.6
2024-02-11T0400,2600A,100.2203,26.8906,丽江市,市中心,,36,36,38,24,24,60,,,,10,15,9,12,0.8,0.7
2024-02-11T0400,1267A,119.914,28.4514,丽水市,监测站大楼,细颗粒物(PM2.5),73,,87,53,76,19,,,,6,11,5,5,0.5,0.6
2024-02-11T0400,1268A,119.93,28.4586,丽水市,莲都小学,细颗粒物(PM2.5),62,47,81,44,64,26,,,,11,9,4,4,0.4,0.6
2024-02-11T0400,1269A,119.879,28.4231,丽水市,余庄前,细颗粒物(PM2.5),59,46,76,42,67,9,,,,4,6,4,4,0.4,0.6
2024-02-11T0400,1173A,119.176,34.5885,连云港市,市环境监测站,细颗粒物(PM2.5),306,271,242,256,225,38,,,,34,31,8,14,1.5,1.5
2024-02-11T0400,3000A,119.3581,34.6972,连云港市,德源药业,细颗粒物(PM2.5),260,227,217,210,197,59,,,,29,27,6,13,1.3,1.2
2024-02-11T0400,3007A,119.178,34.844,连云港市,新城一中,细颗粒物(PM2.5),335,293,264,285,248,72,,,,33,28,19,17,2.3,1.5
2024-02-11T0400,3008A,119.3608,34.7519,连云港市,胡沟管理处,细颗粒物(PM2.5),252,234,230,202,194,41,,,,46,37,11,19,1.3,1.2
2024-02-11T0400,3009A,119.1478,34.5911,连云港市,矿山设计院,细颗粒物(PM2.5),279,305,274,229,224,32,,,,24,25,6,16,1.4,1.3
2024-02-11T0400,3434A,119.2413,34.6539,连云港市,工贸学校,细颗粒物(PM2.5),258,256,261,208,214,41,,,,26,26,8,25,1.4,1.3
2024-02-11T0400,3664A,119.4172,34.7341,连云港市,连云街道,细颗粒物(PM2.5),263,263,220,213,176,63,,,,27,37,4,29,1.7,1.6
2024-02-11T0400,2571A,102.3431,27.8099,凉山彝族自治州,青龙寺,,19,19,16,5,4,49,,,,5,4,5,5,0.8,0.7
2024-02-11T0400,2572A,102.2721,27.8415,凉山彝族自治州,邛海宾馆,,19,13,17,13,12,50,,,,6,7,10,9,0.7,0.7
2024-02-11T0400,2573A,102.2625,27.898,凉山彝族自治州,西昌市政府,,20,11,14,6,9,64,,,,3,4,7,8,0.6,0.6
2024-02-11T0400,2574A,102.2685,27.8851,凉山彝族自治州,凉山州政府,,18,15,17,12,12,57,,,,5,6,5,7,0.7,0.6
2024-02-11T0400,2575A,102.237,27.8914,凉山彝族自治州,长安,,18,12,19,10,13,57,,,,5,6,12,11,0.6,0.7
2024-02-11T0400,2212A,123.2,41.1953,辽阳市,宏伟区,细颗粒物(PM2.5),88,66,280,65,247,75,,,,14,22,20,30,1.1,1.5
2024-02-11T0400,2213A,123.1683,41.2495,辽阳市,新华园,细颗粒物(PM2.5),88,,300,65,294,64,,,,18,36,25,43,1.3,1.9
2024-02-11T0400,2214A,123.2354,41.2639,辽阳市,滨河路,细颗粒物(PM2.5),99,,244,74,254,65,,,,13,21,35,21,1.2,1.4
2024-02-11T0400,2215A,123.149,41.2991,辽阳市,铁西工业园,细颗粒物(PM2.5),77,60,319,56,317,60,,,,30,30,23,24,2.0,1.9
2024-02-11T0400,2227A,125.1358,42.8845,辽源市,环保局,细颗粒物(PM2.5),138,117,220,105,197,21,,,,42,29,7,23,1.5,1.3
2024-02-11T0400,3239A,125.0764,42.9078,辽源市,银鹰制药,细颗粒物(PM2.5),137,115,206,104,185,42,,,,29,19,13,13,1.0,1.2
2024-02-11T0400,1625A,115.9848,36.4372,聊城市,区政府,细颗粒物(PM2.5),135,132,191,103,157,57,,,,21,24,11,13,1.0,1.1
2024-02-11T0400,2878A,116.0072,36.4343,聊城市,聊大东校,细颗粒物(PM2.5),144,124,183,110,160,77,,,,18,21,16,17,0.9,1
2024-02-11T0400,3200A,115.9819,36.4978,聊城市,监控中心,细颗粒物(PM2.5),117,123,212,88,179,79,,,,16,25,16,19,1.2,1.3
2024-02-11T0400,3513A,116.0445,36.4361,聊城市,九州社区,细颗粒物(PM2.5),127,126,208,96,165,67,,,,18,19,14,20,0.7,0.9
2024-02-11T0400,4018A,116.0567,36.4608,聊城市,星美广场,细颗粒物(PM2.5),124,122,212,94,164,63,,,,17,19,6,14,0.8,1
2024-02-11T0400,2632A,94.3681,29.6376,林芝市,林芝监测站,,20,,5,12,6,63,,,,2,2,4,4,0.4,0.3
2024-02-11T0400,2633A,94.3616,29.6616,林芝市,林芝人民医院,,20,7,7,5,4,64,,,,3,3,9,9,0.4,0.4
2024-02-11T0400,2603A,100.0781,23.8982,临沧市,市环保局,,38,38,51,26,44,44,,,,6,7,7,9,0.6,0.6
2024-02-11T0400,2604A,100.0894,23.8822,临沧市,市气象局,细颗粒物(PM2.5),52,39,58,36,49,47,,,,7,8,6,9,0.7,0.6
2024-02-11T0400,1733A,111.5531,36.0783,临汾市,临钢医院,颗粒物(PM10),77,103,225,38,128,40,,,,8,15,6,10,0.5,0.9
2024-02-11T0400,1734A,111.5028,36.0714,临汾市,技工学校,颗粒物(PM10),96,142,261,50,176,47,,,,12,20,11,13,0.6,0.9
2024-02-11T0400,1736A,111.5018,36.0855,临汾市,市委,颗粒物(PM10),99,147,254,51,158,45,,,,8,15,10,11,0.6,0.9
2024-02-11T0400,3018A,111.505,36.1014,临汾市,唐尧大酒店,颗粒物(PM10),91,132,231,53,158,38,,,,18,22,12,14,0.7,1
2024-02-11T0400,3668A,111.5036,36.0414,临汾市,城南,颗粒物(PM10),91,131,239,42,166,25,,,,14,17,6,11,0.5,1.1
2024-02-11T0400,2667A,103.2069,35.5993,临夏回族自治州,环保局,,49,49,65,25,34,14,,,,23,26,15,19,2.1,1.6
2024-02-11T0400,2668A,103.2417,35.6057,临夏回族自治州,建设大厦,,48,48,40,21,24,38,,,,5,14,12,14,0.8,0.9
2024-02-11T0400,1618A,118.3429,35.0532,临沂市,沂河小区,细颗粒物(PM2.5),139,117,269,106,264,69,,,,16,26,11,19,0.9,1.4
2024-02-11T0400,1619A,118.295,35.0583,临沂市,鲁南制药厂,细颗粒物(PM2.5),172,149,283,130,275,52,,,,27,30,19,32,1.9,2
2024-02-11T0400,1620A,118.2794,34.9976,临沂市,新光毛纺厂,细颗粒物(PM2.5),152,134,281,116,261,69,,,,19,30,13,20,1.2,1.7
2024-02-11T0400,1621A,118.3956,35.0888,临沂市,河东保险公司,细颗粒物(PM2.5),124,105,292,94,261,80,,,,14,29,12,17,1.1,1.7
2024-02-11T0400,3370A,118.3564,35.0215,临沂市,十里堡居委,细颗粒物(PM2.5),132,117,292,100,255,68,,,,28,33,10,25,1.2,1.7
2024-02-11T0400,3496A,118.3604,35.1084,临沂市,南坊新区,细颗粒物(PM2.5),122,110,259,92,227,77,,,,18,29,14,19,1.0,1.5
2024-02-11T0400,3860A,118.3920,35.0300,临沂市,皇山花园小区,细颗粒物(PM2.5),99,97,280,74,216,91,,,,8,27,15,22,0.8,1.6
2024-02-11T0400,1870A,109.4856,24.3895,柳州市,柳东小学,细颗粒物(PM2.5),100,81,59,75,56,43,,,,15,11,8,11,0.6,0.5
2024-02-11T0400,1871A,109.4157,24.3277,柳州市,环保监测站,细颗粒物(PM2.5),158,133,108,120,94,15,,,,22,19,8,9,0.8,0.7
2024-02-11T0400,1872A,109.389,24.341,柳州市,河西水厂,细颗粒物(PM2.5),70,88,94,51,66,16,,,,16,16,6,9,0.6,0.7
2024-02-11T0400,1873A,109.4311,24.2921,柳州市,市四中,细颗粒物(PM2.5),189,180,136,142,93,10,,,,28,21,6,8,0.9,0.9
2024-02-11T0400,1874A,109.4006,24.3631,柳州市,市九中,细颗粒物(PM2.5),123,98,109,93,84,12,,,,23,20,4,7,0.8,0.8
2024-02-11T0400,1875A,109.4958,24.3134,柳州市,古亭山,,46,39,47,32,41,24,,,,11,8,6,8,0.6,0.7
2024-02-11T0400,3402A,109.5422,24.3996,柳州市,市二中,细颗粒物(PM2.5),78,,61,57,53,15,,,,12,10,6,8,0.8,0.7
2024-02-11T0400,2307A,116.5079,31.737,六安市,监测大楼,细颗粒物(PM2.5),80,74,57,59,51,76,,,,10,10,4,6,0.8,0.8
2024-02-11T0400,2308A,116.4738,31.7643,六安市,皖西学院,细颗粒物(PM2.5),82,81,64,60,51,72,,,,13,12,4,4,0.7,0.7
2024-02-11T0400,2309A,116.4996,31.7905,六安市,朝阳厂,细颗粒物(PM2.5),79,77,62,58,58,76,,,,7,8,5,6,0.6,0.7
2024-02-11T0400,2310A,116.5567,31.7886,六安市,开发区,细颗粒物(PM2.5),78,93,87,57,62,47,,,,11,12,3,6,0.8,0.7
2024-02-11T0400,2577A,104.83,26.5917,六盘水市,黄土坡,,40,32,34,28,27,56,,,,7,8,8,13,0.5,0.4
2024-02-11T0400,2578A,104.89,26.5939,六盘水市,水钢,细颗粒物(PM2.5),83,77,49,61,34,17,,,,49,19,66,30,1.3,1.1
2024-02-11T0400,2579A,104.8475,26.5894,六盘水市,民中,,49,48,42,34,33,34,,,,27,20,23,18,0.8,0.6
2024-02-11T0400,2580A,104.9544,26.5506,六盘水市,双水,细颗粒物(PM2.5),57,46,42,40,32,57,,,,8,10,10,12,0.5,0.5
2024-02-11T0400,2336A,117.0217,25.1033,龙岩市,龙岩市监测站,,36,26,45,25,38,32,,,,5,6,3,11,0.3,0.4
2024-02-11T0400,2337A,117.0258,25.0661,龙岩市,闽西职业技术学院,,19,,36,13,33,29,,,,3,3,2,7,0.4,0.5
2024-02-11T0400,2338A,117.0196,25.0306,龙岩市,龙岩学院,,33,,33,23,24,23,,,,7,5,4,7,0.5,0.5
2024-02-11T0400,2885A,104.9339,33.3826,陇南市,滨江中学,颗粒物(PM10),53,56,89,34,64,24,,,,26,26,25,21,1.1,1.1
2024-02-11T0400,3247A,104.955,33.371,陇南市,市总工会,,48,48,63,27,42,50,,,,11,12,12,12,0.6,0.6
2024-02-11T0400,2487A,111.9589,27.8901,娄底市,电视发射台,细颗粒物(PM2.5),90,83,128,67,104,34,,,,6,11,4,8,0.9,1.2
2024-02-11T0400,2488A,111.9975,27.725,娄底市,市监测站,细颗粒物(PM2.5),300,289,447,250,378,1,,,,37,32,19,22,1.7,2.7
2024-02-11T0400,2489A,112.0194,27.7314,娄底市,市委党校,细颗粒物(PM2.5),249,222,368,199,306,10,,,,24,24,11,13,1.0,1.8
2024-02-11T0400,2490A,111.9561,27.7569,娄底市,涟钢,细颗粒物(PM2.5),249,217,345,199,292,13,,,,14,26,5,16,1.7,2.1
2024-02-11T0400,2491A,111.9892,27.7044,娄底市,市政府,细颗粒物(PM2.5),233,213,357,183,285,8,,,,9,18,6,11,1.0,1.5
2024-02-11T0400,1893A,105.4324,28.9634,泸州市,九狮山,细颗粒物(PM2.5),100,102,125,75,85,25,,,,10,9,5,9,0.5,0.4
2024-02-11T0400,1894A,105.4427,28.9063,泸州市,小市上码头,细颗粒物(PM2.5),120,95,79,91,81,18,,,,26,17,3,8,0.8,0.7
2024-02-11T0400,1895A,105.4241,28.8573,泸州市,兰田宪桥,细颗粒物(PM2.5),108,102,106,81,86,39,,,,11,16,4,6,0.6,0.6
2024-02-11T0400,1896A,105.4379,28.8833,泸州市,市环监站,细颗粒物(PM2.5),127,99,103,96,88,44,,,,16,12,3,6,0.7,0.6
2024-02-11T0400,3490A,105.3617,28.7703,泸州市,纳溪区环保局,细颗粒物(PM2.5),92,98,113,68,85,24,,,,11,17,5,7,0.7,0.9
2024-02-11T0400,2183A,111.1406,37.5211,吕梁市,环保局,细颗粒物(PM2.5),67,78,172,48,83,44,,,,10,19,2,6,0.4,0.6
2024-02-11T0400,2185A,111.1297,37.5136,吕梁市,自来水公司,细颗粒物(PM2.5),104,106,174,78,100,35,,,,20,21,11,12,0.5,0.6
2024-02-11T0400,2867A,111.1283,37.51,吕梁市,马茂庄小学,细颗粒物(PM2.5),97,96,182,72,88,40,,,,16,20,3,7,0.3,0.5
2024-02-11T0400,1812A,112.3931,34.6516,洛阳市,市委党校,颗粒物(PM10),115,180,222,79,131,15,,,,32,24,10,20,0.6,0.7
2024-02-11T0400,1814A,112.4657,34.6871,洛阳市,豫西宾馆,颗粒物(PM10),135,219,248,89,127,21,,,,32,30,15,21,0.4,0.4
2024-02-11T0400,1815A,112.494,34.6886,洛阳市,河南林校,"颗粒物(PM10),细颗粒物(PM2.5)",110,169,214,83,121,20,,,,23,21,8,16,0.9,0.9
2024-02-11T0400,1816A,112.3844,34.623,洛阳市,开发区管委会,颗粒物(PM10),90,129,182,42,93,40,,,,8,10,5,17,0.5,0.7
2024-02-11T0400,1817A,112.4267,34.6258,洛阳市,市委新办公区,颗粒物(PM10),112,174,200,71,126,42,,,,12,16,5,13,0.5,0.7
2024-02-11T0400,3340A,112.6005,34.6326,洛阳市,伊滨,颗粒物(PM10),119,188,241,57,125,37,,,,10,14,4,12,0.5,0.7
2024-02-11T0400,3341A,112.4951,34.6332,洛阳市,中移产业园,颗粒物(PM10),110,169,198,63,115,42,,,,11,15,2,16,0.7,0.8
2024-02-11T0400,3593A,112.5736,34.8993,洛阳市,吉利监测站,颗粒物(PM10),72,93,126,46,54,50,,,,12,12,5,7,0.5,0.5
2024-02-11T0400,3635A,112.3677,34.662,洛阳市,河科大西苑校区,颗粒物(PM10),127,203,248,90,132,4,,,,41,26,8,21,0.2,0.3
2024-02-11T0400,3636A,112.4388,34.6781,洛阳市,英才小学,颗粒物(PM10),133,215,243,95,135,23,,,,22,20,12,20,0.7,0.8
2024-02-11T0400,2399A,114.051,33.5699,漯河市,三五一五工厂,细颗粒物(PM2.5),127,181,180,96,144,32,,,,28,21,7,13,0.6,0.8
2024-02-11T0400,2400A,114.0055,33.5698,漯河市,漯河大学,颗粒物(PM10),106,161,151,66,116,58,,,,6,5,7,11,0.6,0.8
2024-02-11T0400,2401A,114.0138,33.5828,漯河市,市水利局,颗粒物(PM10),114,178,176,78,127,49,,,,15,13,9,14,0.6,0.8
2024-02-11T0400,2402A,114.0261,33.5698,漯河市,市广电局,颗粒物(PM10),117,183,180,68,125,46,,,,22,17,4,10,0.7,1
2024-02-11T0400,3478A,113.9749,33.5664,漯河市,市图书馆,颗粒物(PM10),117,184,162,61,116,66,,,,14,14,13,15,0.3,0.6
2024-02-11T0400,3479A,114.0967,33.5906,漯河市,召陵区卫健委,颗粒物(PM10),112,174,201,67,151,61,,,,12,14,9,15,0.5,0.7
2024-02-11T0400,1798A,118.5092,31.6837,马鞍山市,湖东路四小,细颗粒物(PM2.5),192,170,128,144,97,57,,,,32,27,30,18,1.4,1.1
2024-02-11T0400,1799A,118.5024,31.6449,马鞍山市,开发区,细颗粒物(PM2.5),202,,115,152,106,55,,,,30,29,10,11,0.8,0.9
2024-02-11T0400,1800A,118.5228,31.7231,马鞍山市,慈湖,细颗粒物(PM2.5),179,137,114,135,100,44,,,,38,30,12,14,1.0,1
2024-02-11T0400,1802A,118.6245,31.7241,马鞍山市,濮塘,细颗粒物(PM2.5),122,127,87,92,63,60,,,,15,16,8,12,0.9,0.9
2024-02-11T0400,3633A,118.4918,31.6809,马鞍山市,雨山,细颗粒物(PM2.5),172,154,119,130,96,52,,,,34,26,17,17,1.7,1
2024-02-11T0400,1686A,111.0286,21.4688,茂名市,电白南海,细颗粒物(PM2.5),113,100,115,85,87,36,,,,15,17,14,17,0.9,1
2024-02-11T0400,1687A,110.9294,21.6533,茂名市,茂石化七小,细颗粒物(PM2.5),225,185,90,175,78,21,,,,24,17,22,16,1.2,1.3
2024-02-11T0400,1688A,110.9107,21.6687,茂名市,健康路,细颗粒物(PM2.5),218,197,83,168,67,16,,,,23,17,16,14,1.0,1.1
2024-02-11T0400,1689A,110.8592,21.6828,茂名市,高岭,细颗粒物(PM2.5),228,193,88,178,79,13,,,,18,14,11,13,1.0,0.8
2024-02-11T0400,3450A,111.01,21.5165,茂名市,电白水东,细颗粒物(PM2.5),122,107,101,92,84,31,,,,16,13,8,11,0.9,0.9
2024-02-11T0400,2539A,104.0308,30.0478,眉山市,黑龙滩水库,细颗粒物(PM2.5),73,67,73,53,55,60,,,,3,4,2,3,0.7,0.7
2024-02-11T0400,2540A,103.8416,30.0874,眉山市,气象局,细颗粒物(PM2.5),107,,122,80,112,20,,,,18,18,7,11,0.8,0.9
2024-02-11T0400,3137A,103.8578,30.0744,眉山市,市委党校,细颗粒物(PM2.5),119,97,122,90,104,13,,,,24,26,4,8,0.8,0.8
2024-02-11T0400,3148A,103.8291,30.0564,眉山市,区人社局,细颗粒物(PM2.5),110,84,141,83,145,18,,,,30,36,7,11,0.7,0.8
2024-02-11T0400,1690A,116.1231,24.3284,梅州市,梅江月梅,细颗粒物(PM2.5),64,50,56,46,55,18,,,,6,5,8,10,0.6,0.7
2024-02-11T0400,1691A,116.0797,24.2719,梅州市,梅县新城,细颗粒物(PM2.5),93,,80,69,76,22,,,,7,10,5,7,0.4,0.5
2024-02-11T0400,1692A,116.1248,24.2654,梅州市,环境监控中心,细颗粒物(PM2.5),53,,72,37,65,13,,,,12,14,5,6,0.5,0.6
2024-02-11T0400,3315A,116.1233,24.2991,梅州市,梅龙,细颗粒物(PM2.5),92,,60,68,58,17,,,,8,11,6,7,0.5,0.7
2024-02-11T0400,1878A,104.7778,31.4741,绵阳市,富乐山,细颗粒物(PM2.5),149,132,131,114,116,38,,,,16,14,6,7,1.1,1
2024-02-11T0400,1879A,104.7563,31.4535,绵阳市,市人大,细颗粒物(PM2.5),160,161,175,122,134,21,,,,27,38,5,6,0.9,1.1
2024-02-11T0400,1880A,104.6697,31.4668,绵阳市,高新区自来水公司,细颗粒物(PM2.5),176,144,163,133,145,24,,,,18,25,6,8,0.9,1
2024-02-11T0400,1881A,104.7287,31.5075,绵阳市,三水厂,细颗粒物(PM2.5),178,149,184,134,174,9,,,,13,22,4,6,1.1,1.2
2024-02-11T0400,3491A,104.69,31.5322,绵阳市,西科大附属小学,细颗粒物(PM2.5),140,125,154,107,141,43,,,,11,19,7,8,0.9,1
2024-02-11T0400,3492A,104.5648,31.5343,绵阳市,安州区旅游局,细颗粒物(PM2.5),134,117,150,102,133,20,,,,19,26,7,7,1.0,1.1
2024-02-11T0400,1784A,129.61,44.561,牡丹江市,环保大楼,细颗粒物(PM2.5),112,114,105,84,82,47,,,,31,27,14,23,1.2,0.8
2024-02-11T0400,1785A,129.6115,44.5782,牡丹江市,文化广场,细颗粒物(PM2.5),105,93,130,79,101,49,,,,26,29,13,27,1.1,0.9
2024-02-11T0400,1786A,129.5904,44.5963,牡丹江市,第一医院,细颗粒物(PM2.5),125,104,138,95,120,64,,,,22,37,14,25,1.0,1
2024-02-11T0400,1787A,129.6364,44.6075,牡丹江市,机车工厂,细颗粒物(PM2.5),93,,117,69,87,33,,,,38,32,10,18,1.0,0.8
2024-02-11T0400,1788A,129.6386,44.5462,牡丹江市,第一中学,颗粒物(PM10),52,54,64,34,55,63,,,,14,15,12,17,0.8,0.7
2024-02-11T0400,2531A,105.0703,29.61,内江市,市监测站,细颗粒物(PM2.5),132,116,145,100,149,45,,,,11,19,7,10,0.8,0.9
2024-02-11T0400,2532A,105.0717,29.5947,内江市,东兴区政府,细颗粒物(PM2.5),129,,140,98,142,23,,,,17,16,8,10,0.8,0.8
2024-02-11T0400,2533A,105.0653,29.5817,内江市,内江二中,细颗粒物(PM2.5),142,,146,108,173,23,,,,19,18,5,7,0.9,1
2024-02-11T0400,2534A,105.0406,29.5822,内江市,内江日报社,细颗粒物(PM2.5),160,,163,122,181,12,,,,44,25,6,8,1.0,0.9
2024-02-11T0400,2628A,92.0657,31.4846,那曲市,那曲监测站,,20,20,36,14,26,37,,,,6,10,4,8,1.2,1
2024-02-11T0400,3128A,92.0506,31.4797,那曲市,那曲会议中心,,15,14,32,6,19,45,,,,6,13,6,9,0.8,0.8
2024-02-11T0400,1290A,115.8931,28.6843,南昌市,省外办,细颗粒物(PM2.5),168,147,155,127,131,10,,,,36,21,5,7,1.2,1.1
2024-02-11T0400,1291A,115.8886,28.7003,南昌市,省林业公司,细颗粒物(PM2.5),110,92,165,83,147,27,,,,21,21,4,9,1.1,1
2024-02-11T0400,1292A,115.8126,28.7442,南昌市,林科所,细颗粒物(PM2.5),64,53,70,46,61,46,,,,9,7,7,8,0.8,0.8
2024-02-11T0400,1294A,115.8518,28.687,南昌市,建工学校,细颗粒物(PM2.5),139,,137,106,110,35,,,,23,18,6,8,0.9,0.9
2024-02-11T0400,1295A,115.8921,28.6424,南昌市,象湖,细颗粒物(PM2.5),163,169,153,124,119,16,,,,41,25,5,7,1.2,1
2024-02-11T0400,1296A,115.7423,28.7996,南昌市,武术学校,细颗粒物(PM2.5),54,47,38,38,38,10,,,,1,4,8,9,0.8,0.9
2024-02-11T0400,1298A,115.9314,28.6842,南昌市,省站,细颗粒物(PM2.5),137,140,139,104,106,19,,,,33,19,7,9,1.0,0.9
2024-02-11T0400,3046A,115.9084,28.6062,南昌市,机电学校,细颗粒物(PM2.5),160,148,137,122,117,20,,,,35,17,6,9,1.1,1
2024-02-11T0400,3690A,115.9721,28.7031,南昌市,外国语学校,细颗粒物(PM2.5),153,118,116,117,116,33,,,,17,18,4,7,0.7,0.6
2024-02-11T0400,1905A,106.056,30.8064,南充市,西山风景区,细颗粒物(PM2.5),105,,112,79,116,88,,,,6,12,4,4,0.8,0.9
2024-02-11T0400,1906A,106.0789,30.8023,南充市,南充市委,细颗粒物(PM2.5),104,91,132,78,112,26,,,,14,23,5,5,0.6,0.7
2024-02-11T0400,1907A,106.1031,30.8217,南充市,南充炼油厂,细颗粒物(PM2.5),138,112,150,105,127,10,,,,20,21,4,5,0.5,0.6
2024-02-11T0400,1908A,106.1064,30.7856,南充市,高坪区监测站,细颗粒物(PM2.5),104,107,147,78,109,3,,,,29,26,6,6,0.7,0.8
2024-02-11T0400,1909A,106.0642,30.7636,南充市,嘉陵区环保局,细颗粒物(PM2.5),128,106,158,97,139,3,,,,37,33,2,4,0.9,1
2024-02-11T0400,1910A,106.1087,30.8388,南充市,市环境监测站,细颗粒物(PM2.5),109,101,141,82,115,46,,,,13,14,7,7,0.5,0.6
2024-02-11T0400,1151A,118.8086,32.1065,南京市,迈皋桥,细颗粒物(PM2.5),104,89,110,78,88,24,,,,28,24,4,6,0.8,0.9
2024-02-11T0400,1152A,118.7538,32.0551,南京市,草场门,细颗粒物(PM2.5),110,95,111,83,88,47,,,,44,34,4,9,0.9,0.9
2024-02-11T0400,1153A,118.7794,32.0745,南京市,山西路,细颗粒物(PM2.5),113,92,106,85,90,48,,,,30,34,8,11,0.9,1
2024-02-11T0400,1154A,118.7752,32.0023,南京市,中华门,细颗粒物(PM2.5),110,95,99,83,86,47,,,,28,28,8,15,0.9,1
2024-02-11T0400,1155A,118.8109,32.0309,南京市,瑞金路,细颗粒物(PM2.5),98,92,136,73,104,23,,,,43,46,3,7,0.8,1.4
2024-02-11T0400,1156A,118.7997,32.0754,南京市,玄武湖,细颗粒物(PM2.5),98,98,118,73,83,48,,,,23,28,9,13,0.5,0.8
2024-02-11T0400,1157A,118.6414,32.0931,南京市,浦口,细颗粒物(PM2.5),90,113,117,67,70,76,,,,16,18,8,9,0.8,0.8
2024-02-11T0400,1158A,118.7356,31.9996,南京市,奥体中心,细颗粒物(PM2.5),110,104,111,83,88,59,,,,22,28,7,14,0.9,1.2
2024-02-11T0400,1159A,118.9125,32.1028,南京市,仙林大学城,细颗粒物(PM2.5),104,97,103,78,80,53,,,,27,24,9,11,1.2,1.3
2024-02-11T0400,3422A,118.8436,31.9198,南京市,江宁彩虹桥,细颗粒物(PM2.5),100,105,118,75,86,59,,,,21,18,3,8,0.7,0.8
2024-02-11T0400,3423A,119.0138,31.6494,南京市,溧水永阳,细颗粒物(PM2.5),129,,105,98,101,60,,,,15,16,4,5,0.9,0.9
2024-02-11T0400,3424A,118.879,31.3302,南京市,高淳老职中,细颗粒物(PM2.5),117,113,93,88,83,52,,,,14,11,6,9,0.7,0.7
2024-02-11T0400,3427A,118.8554,32.3578,南京市,六合雄州,细颗粒物(PM2.5),97,103,118,72,88,66,,,,12,13,4,5,1.0,0.9
2024-02-11T0400,1401A,108.3103,22.7881,南宁市,二十一中,细颗粒物(PM2.5),129,,127,98,120,20,,,,26,23,8,11,0.9,0.8
2024-02-11T0400,1402A,108.3141,22.8528,南宁市,北湖,细颗粒物(PM2.5),110,,131,83,120,8,,,,22,18,5,10,0.9,0.9
2024-02-11T0400,1403A,108.3206,22.8225,南宁市,市监测站,细颗粒物(PM2.5),149,146,136,114,110,7,,,,37,29,7,11,1.2,1
2024-02-11T0400,1404A,108.3829,22.8037,南宁市,大自然花园,细颗粒物(PM2.5),169,,111,128,104,9,,,,37,22,7,8,0.9,0.7
2024-02-11T0400,1405A,108.4394,22.7904,南宁市,仙葫,细颗粒物(PM2.5),142,111,190,108,168,24,,,,18,19,7,12,0.9,0.9
2024-02-11T0400,1406A,108.2397,22.8467,南宁市,区农职院,细颗粒物(PM2.5),53,,59,37,53,28,,,,10,12,8,9,0.4,0.5
2024-02-11T0400,1407A,108.3275,22.735,南宁市,英华嘉园,细颗粒物(PM2.5),105,,107,79,98,24,,,,13,18,6,9,0.7,0.7
2024-02-11T0400,1408A,108.2257,22.7757,南宁市,沙井镇街道办,细颗粒物(PM2.5),83,,67,61,64,14,,,,15,13,1,3,0.8,0.7
2024-02-11T0400,3401A,108.4834,22.7618,南宁市,红星社区,细颗粒物(PM2.5),84,,171,62,159,28,,,,12,16,8,16,0.9,0.8
2024-02-11T0400,2332A,118.1681,26.6369,南平市,南平市监测站,细颗粒物(PM2.5),53,43,74,37,67,17,,,,7,8,4,11,0.6,0.8
2024-02-11T0400,2333A,118.1825,26.6489,南平市,南平铝业有限公司,细颗粒物(PM2.5),67,,85,48,73,15,,,,6,8,5,12,0.6,0.6
2024-02-11T0400,2334A,118.1756,26.6272,南平市,南平七中,,38,32,52,26,47,17,,,,6,6,4,9,0.4,0.7
2024-02-11T0400,1168A,120.9098,31.9663,南通市,狼山街道,细颗粒物(PM2.5),185,157,169,139,158,39,,,,22,41,8,13,1.6,1.6
2024-02-11T0400,1169A,120.86,32.0005,南通市,虹桥,细颗粒物(PM2.5),221,196,157,171,140,30,,,,60,50,10,13,1.3,1.3
2024-02-11T0400,1170A,120.87,32.02,南通市,城中,细颗粒物(PM2.5),170,159,167,129,137,57,,,,25,41,6,14,1.4,1.6
2024-02-11T0400,1171A,120.94,31.93,南通市,星湖花园,细颗粒物(PM2.5),169,147,176,128,145,25,,,,39,45,6,14,1.1,1.2
2024-02-11T0400,1172A,120.81,32.0417,南通市,紫琅学院,细颗粒物(PM2.5),251,225,165,201,144,48,,,,17,31,8,13,1.6,1.3
2024-02-11T0400,3291A,121.067,32.062,南通市,通州监测站,细颗粒物(PM2.5),216,180,184,166,165,54,,,,18,35,8,14,1.1,1.4
2024-02-11T0400,3432A,120.9348,31.9883,南通市,环境教育馆,细颗粒物(PM2.5),169,141,150,128,137,54,,,,18,36,7,14,0.9,1.1
2024-02-11T0400,2404A,112.5224,33.0122,南阳市,瓦房庄,细颗粒物(PM2.5),263,,238,213,244,14,,,,27,27,9,17,1.0,0.9
2024-02-11T0400,2405A,112.5003,32.9735,南阳市,汉画馆,细颗粒物(PM2.5),307,267,226,257,212,6,,,,33,24,7,14,1.2,1
2024-02-11T0400,2406A,112.5573,33.027,南阳市,气象站,细颗粒物(PM2.5),309,,228,259,244,22,,,,32,29,10,17,1.1,0.9
2024-02-11T0400,2407A,112.5481,32.9689,南阳市,理工学院,细颗粒物(PM2.5),454,,238,430,238,6,,,,40,22,8,16,1.3,1
2024-02-11T0400,4008A,112.5234,32.9922,南阳市,卧龙区政府,细颗粒物(PM2.5),334,292,225,284,212,2,,,,42,34,8,17,1.2,1
2024-02-11T0400,1234A,121.8358,29.911,宁波市,区环保大楼,细颗粒物(PM2.5),85,80,99,63,80,56,,,,6,18,6,8,0.6,0.8
2024-02-11T0400,1235A,121.56,29.82,宁波市,万里学院,细颗粒物(PM2.5),65,65,85,47,69,54,,,,15,17,7,7,0.6,0.7
2024-02-11T0400,1236A,121.713,29.9572,宁波市,龙赛医院,细颗粒物(PM2.5),84,74,104,62,90,73,,,,8,20,4,6,0.7,0.8
2024-02-11T0400,1239A,121.633,29.7733,宁波市,钱湖水厂,细颗粒物(PM2.5),73,62,74,53,61,73,,,,4,6,5,5,0.8,0.9
2024-02-11T0400,1240A,121.5856,29.8635,宁波市,太古小学,细颗粒物(PM2.5),77,64,80,56,72,58,,,,13,17,6,7,0.7,0.8
2024-02-11T0400,1241A,121.524,29.8674,宁波市,市环境监测中心,细颗粒物(PM2.5),69,67,85,50,66,48,,,,17,20,6,7,0.7,0.8
2024-02-11T0400,2871A,121.6147,29.9017,宁波市,万里国际学校,细颗粒物(PM2.5),88,74,85,65,73,53,,,,18,18,6,8,0.8,0.9
2024-02-11T0400,3710A,121.5594,29.8975,宁波市,白沙活动中心,细颗粒物(PM2.5),69,68,91,50,71,51,,,,15,18,6,8,0.8,0.9
2024-02-11T0400,2341A,119.5388,26.6612,宁德市,宁德市监测站,细颗粒物(PM2.5),60,,57,43,59,39,,,,4,6,5,9,0.9,0.7
2024-02-11T0400,3209A,119.5231,26.6562,宁德市,宁德一中,细颗粒物(PM2.5),54,43,65,38,62,38,,,,7,10,5,9,0.8,0.8
2024-02-11T0400,2618A,98.8601,25.8567,怒江傈僳族自治州,州监测站,,32,32,37,22,25,51,,,,3,5,9,10,0.4,0.4
2024-02-11T0400,2619A,98.8546,25.8417,怒江傈僳族自治州,泸水一中,,36,,43,25,38,32,,,,8,10,8,10,0.5,0.5
2024-02-11T0400,1888A,101.6891,26.571,攀枝花市,弄弄坪,细颗粒物(PM2.5),58,64,43,41,32,35,,,,32,22,39,19,1.6,1
2024-02-11T0400,1889A,101.5769,26.5928,攀枝花市,河门口,,42,37,50,29,33,40,,,,13,16,12,23,1.0,1.1
2024-02-11T0400,1890A,101.7169,26.585,攀枝花市,炳草岗,,50,50,39,31,28,50,,,,14,20,38,24,1.1,1
2024-02-11T0400,1891A,101.7369,26.5008,攀枝花市,仁和,,46,40,41,32,32,44,,,,12,11,7,11,0.9,0.8
2024-02-11T0400,2835A,101.7227,26.567,攀枝花市,四十中小,细颗粒物(PM2.5),59,58,47,42,30,38,,,,29,19,54,32,1.1,0.8
2024-02-11T0400,1604A,122.0303,41.1489,盘锦市,开发区,细颗粒物(PM2.5),102,,132,76,111,67,,,,16,17,6,14,0.9,0.8
2024-02-11T0400,1605A,122.0485,41.0883,盘锦市,兴隆台,细颗粒物(PM2.5),99,87,171,74,154,65,,,,14,22,9,18,1.0,1.2
2024-02-11T0400,1606A,121.8297,41.1028,盘锦市,新生街道,细颗粒物(PM2.5),105,83,131,79,107,55,,,,18,24,10,14,0.7,0.9
2024-02-11T0400,1832A,113.3257,33.742,平顶山市,新华旅馆,颗粒物(PM10),133,216,237,58,99,50,,,,15,19,12,16,0.4,0.5
2024-02-11T0400,1833A,113.2919,33.737,平顶山市,规划设计院,颗粒物(PM10),123,196,244,66,131,52,,,,15,16,13,18,0.6,0.7
2024-02-11T0400,1834A,113.182,33.774,平顶山市,平顶山工学院,颗粒物(PM10),128,205,188,53,87,66,,,,11,13,5,9,0.6,0.7
2024-02-11T0400,3204A,113.3025,33.73,平顶山市,规划局,颗粒物(PM10),133,215,252,70,104,46,,,,14,18,11,15,0.6,0.7
2024-02-11T0400,3594A,112.8867,33.9116,平顶山市,石龙区,颗粒物(PM10),107,164,171,34,60,84,,,,5,10,6,9,0.4,0.6
2024-02-11T0400,2656A,106.6692,35.5461,平凉市,聚贤嘉苑,颗粒物(PM10),68,86,93,24,27,52,,,,14,15,9,9,0.5,0.4
2024-02-11T0400,2657A,106.7021,35.5307,平凉市,博物馆,颗粒物(PM10),60,69,100,29,36,45,,,,13,15,11,15,0.6,0.6
2024-02-11T0400,2347A,114.0997,27.5002,萍乡市,武功山,细颗粒物(PM2.5),54,45,73,38,63,28,,,,4,7,8,10,0.4,0.6
2024-02-11T0400,2348A,113.8385,27.6434,萍乡市,中医院,细颗粒物(PM2.5),205,170,169,155,137,4,,,,20,27,6,12,1.3,2.2
2024-02-11T0400,2349A,113.8493,27.6253,萍乡市,市政府车库,细颗粒物(PM2.5),158,149,170,120,148,14,,,,10,20,12,15,0.8,1.5
2024-02-11T0400,2350A,113.8676,27.6435,萍乡市,市环保局,细颗粒物(PM2.5),199,162,180,149,154,7,,,,22,23,8,11,1.5,2
2024-02-11T0400,2351A,113.866,27.6198,萍乡市,安源区政府,细颗粒物(PM2.5),149,153,146,114,109,8,,,,16,23,12,12,1.2,1.4
2024-02-11T0400,2319A,119.0141,25.4325,莆田市,荔城区仓后路,细颗粒物(PM2.5),63,52,68,45,67,48,,,,7,9,7,8,1.0,1
2024-02-11T0400,2320A,119.0015,25.4553,莆田市,莆田市监测站,细颗粒物(PM2.5),54,40,46,38,41,41,,,,6,8,8,9,0.6,0.7
2024-02-11T0400,2321A,119.1119,25.4561,莆田市,涵江区六中,细颗粒物(PM2.5),72,,76,52,75,44,,,,8,8,7,9,1.0,1.1
2024-02-11T0400,2322A,119.1013,25.3215,莆田市,秀屿区政府,细颗粒物(PM2.5),77,,69,56,71,51,,,,7,8,5,7,1.0,1
2024-02-11T0400,2392A,115.0312,35.7636,濮阳市,环保局,细颗粒物(PM2.5),333,358,388,283,298,64,,,,15,28,8,16,1.3,1.2
2024-02-11T0400,2394A,115.0574,35.7609,濮阳市,油田运输公司,细颗粒物(PM2.5),327,328,384,277,324,60,,,,15,24,11,21,1.6,1.5
2024-02-11T0400,2395A,115.0866,35.7754,濮阳市,油田物探公司,细颗粒物(PM2.5),315,303,408,265,350,67,,,,17,28,10,16,1.3,1.4
2024-02-11T0400,3021A,115,35.7668,濮阳市,濮水河管理处,细颗粒物(PM2.5),350,381,367,300,291,29,,,,20,23,5,11,1.6,1.4
2024-02-11T0400,2601A,100.98,22.7633,普洱市,市环保局,,49,40,38,34,32,47,,,,5,5,4,5,0.7,0.7
2024-02-11T0400,2602A,100.9817,22.8322,普洱市,普洱第二中学,,38,38,32,25,17,22,,,,27,8,6,5,0.8,0.8
2024-02-11T0400,2262A,131.0518,45.8751,七台河市,新一中,细颗粒物(PM2.5),142,120,94,108,85,91,,,,21,16,11,13,1.1,1
2024-02-11T0400,3345A,131.0577,45.7879,七台河市,中波台,细颗粒物(PM2.5),125,103,112,95,98,62,,,,33,34,10,19,1.5,1.2
2024-02-11T0400,3637A,131.0176,45.7761,七台河市,人民广场,细颗粒物(PM2.5),130,117,152,99,118,45,,,,44,38,11,25,1.5,1.2
2024-02-11T0400,3684A,130.8781,45.8222,七台河市,新建矿广场,细颗粒物(PM2.5),63,,91,45,77,78,,,,20,29,10,16,0.7,0.9
2024-02-11T0400,1779A,123.9305,47.3636,齐齐哈尔市,安居小区,,47,47,76,32,42,53,,,,9,13,7,12,0.5,0.5
2024-02-11T0400,1780A,123.9488,47.3386,齐齐哈尔市,中心广场,细颗粒物(PM2.5),75,56,92,55,79,52,,,,10,14,6,11,0.5,0.6
2024-02-11T0400,1781A,123.9483,47.3227,齐齐哈尔市,农牧车辆厂,,46,46,70,32,55,43,,,,18,12,8,13,0.5,0.5
2024-02-11T0400,1783A,123.945,47.2988,齐齐哈尔市,市环境监测站,细颗粒物(PM2.5),59,52,94,42,78,48,,,,10,12,4,13,0.5,0.5
2024-02-11T0400,3662A,123.6333,47.2075,齐齐哈尔市,富区青少年活动中心,,48,45,88,33,66,44,,,,10,12,8,16,0.5,0.6
2024-02-11T0400,2591A,107.9783,26.5747,黔东南苗族侗族自治州,市环境监测站,细颗粒物(PM2.5),145,114,124,111,144,8,,,,19,16,10,13,0.6,0.7
2024-02-11T0400,2881A,107.8908,26.5311,黔东南苗族侗族自治州,凯里学院,细颗粒物(PM2.5),80,64,105,59,87,10,,,,6,6,6,8,0.6,0.7
2024-02-11T0400,2593A,107.5228,26.2403,黔南布依族苗族自治州,小围寨,,35,29,84,24,78,28,,,,9,9,8,8,0.3,0.4
2024-02-11T0400,3538A,107.5175,26.2978,黔南布依族苗族自治州,沙坝,,42,31,89,29,81,23,,,,5,6,6,7,0.5,0.6
2024-02-11T0400,2589A,104.9022,25.0925,黔西南布依族苗族自治州,场坝街,细颗粒物(PM2.5),54,55,81,38,74,53,,,,7,12,2,4,0.5,0.7
2024-02-11T0400,2590A,104.8811,25.0992,黔西南布依族苗族自治州,坪东大道,细颗粒物(PM2.5),59,44,80,42,72,52,,,,9,11,4,5,0.3,0.5
2024-02-11T0400,2502A,108.6236,21.9667,钦州市,市环保站,细颗粒物(PM2.5),98,95,80,73,62,44,,,,15,11,8,10,1.7,1.1
2024-02-11T0400,2503A,108.6549,21.9481,钦州市,沙埠小学,细颗粒物(PM2.5),134,,69,102,62,49,,,,10,9,8,10,0.9,0.8
2024-02-11T0400,2504A,108.5989,21.7431,钦州市,港区一小,细颗粒物(PM2.5),92,80,72,68,59,65,,,,12,10,10,11,1.0,0.8
2024-02-11T0400,3404A,108.5959,21.9633,钦州市,北职校,细颗粒物(PM2.5),95,,65,71,63,44,,,,9,7,8,11,1.0,0.9
2024-02-11T0400,1042A,119.5134,39.8207,秦皇岛市,北戴河环保局,细颗粒物(PM2.5),113,118,126,85,96,55,,,,39,32,19,17,1.5,1.2
2024-02-11T0400,1043A,119.7493,40.0116,秦皇岛市,第一关,细颗粒物(PM2.5),89,102,118,66,89,64,,,,23,25,17,21,1.4,0.9
2024-02-11T0400,1044A,119.5897,39.9499,秦皇岛市,监测站,细颗粒物(PM2.5),112,96,110,84,88,65,,,,25,25,17,20,1.4,1
2024-02-11T0400,1046A,119.5251,39.9041,秦皇岛市,建设大厦,细颗粒物(PM2.5),100,110,111,75,76,61,,,,21,16,16,16,1.3,0.8
2024-02-11T0400,3132A,119.610547,39.943889,秦皇岛市,文明里,细颗粒物(PM2.5),107,118,135,80,90,59,,,,30,30,16,18,1.3,0.9
2024-02-11T0400,1307A,120.6659,36.2403,青岛市,仰口,,39,34,155,27,131,100,,,,7,23,2,9,0.5,1.3
2024-02-11T0400,1310A,120.4134,36.0658,青岛市,市南区东部子站,细颗粒物(PM2.5),199,190,261,149,205,68,,,,19,27,9,17,1.6,1.5
2024-02-11T0400,1311A,120.3664,36.1032,青岛市,四方区子站,细颗粒物(PM2.5),221,193,237,171,220,71,,,,21,32,6,15,1.9,1.8
2024-02-11T0400,1312A,120.2994,36.054,青岛市,市南区西部子站,细颗粒物(PM2.5),196,180,216,147,176,76,,,,17,24,7,13,1.9,1.7
2024-02-11T0400,1313A,120.4581,36.0858,青岛市,崂山区子站,细颗粒物(PM2.5),206,190,237,156,197,72,,,,18,18,7,16,1.7,1.5
2024-02-11T0400,1314A,120.1983,35.9608,青岛市,黄岛区子站,细颗粒物(PM2.5),168,149,181,127,149,82,,,,21,34,10,16,1.7,1.5
2024-02-11T0400,1315A,120.3999,36.3083,青岛市,城阳区子站,细颗粒物(PM2.5),165,215,280,125,178,63,,,,23,31,3,14,1.8,1.7
2024-02-11T0400,1966A,120.0405,35.8735,青岛市,黄岛区4号,细颗粒物(PM2.5),192,163,197,144,169,81,,,,13,18,10,15,1.9,1.6
2024-02-11T0400,3362A,120.5014,36.4034,青岛市,即墨2号,细颗粒物(PM2.5),212,206,302,162,281,67,,,,22,32,5,19,1.7,1.8
2024-02-11T0400,3642A,120.3503,36.0736,青岛市,市北区南部,细颗粒物(PM2.5),211,186,276,161,211,54,,,,38,38,7,15,1.8,1.6
2024-02-11T0400,3643A,120.3948,36.1805,青岛市,李沧区北部,细颗粒物(PM2.5),218,215,264,168,240,74,,,,26,32,8,17,1.8,1.6
2024-02-11T0400,1702A,113.0426,23.691,清远市,环保大楼,细颗粒物(PM2.5),139,,46,106,43,14,,,,22,10,3,3,0.9,0.6
2024-02-11T0400,1703A,113.0208,23.7106,清远市,凤城街办,细颗粒物(PM2.5),153,146,64,117,54,2,,,,37,24,7,7,1.1,0.8
2024-02-11T0400,3025A,113.0477,23.6344,清远市,技师学院,细颗粒物(PM2.5),95,93,63,71,47,21,,,,9,7,7,6,0.7,0.6
2024-02-11T0400,3318A,112.9903,23.7403,清远市,清新太和,,42,42,43,27,32,58,,,,9,12,8,8,0.5,0.5
2024-02-11T0400,3455A,113.076,23.7198,清远市,清城东城,细颗粒物(PM2.5),55,47,43,39,35,27,,,,9,8,8,9,0.6,0.7
2024-02-11T0400,2661A,107.6325,35.7357,庆阳市,庆阳五中,颗粒物(PM10),52,54,137,26,36,84,,,,2,4,7,6,0.4,0.4
2024-02-11T0400,2662A,107.6364,35.7067,庆阳市,市环保局,颗粒物(PM10),51,52,150,35,40,79,,,,4,5,6,6,0.3,0.3
2024-02-11T0400,1916A,103.7897,25.5035,曲靖市,环境监测站,颗粒物(PM10),56,61,53,37,36,67,,,,7,9,10,12,0.7,0.7
2024-02-11T0400,1917A,103.8,25.5364,曲靖市,烟厂办公区,颗粒物(PM10),54,58,46,33,30,57,,,,10,8,4,4,0.9,0.7
2024-02-11T0400,3376A,103.7947,25.462,曲靖市,南苑二区,颗粒物(PM10),61,72,63,43,47,61,,,,9,12,17,20,0.7,0.8
2024-02-11T0400,3377A,103.7444,25.5261,曲靖市,曲靖师范学院,细颗粒物(PM2.5),53,39,38,37,30,55,,,,8,8,6,9,0.5,0.6
2024-02-11T0400,1264A,118.8692,28.9398,衢州市,环保大楼,细颗粒物(PM2.5),82,77,95,60,79,47,,,,12,14,6,7,0.7,0.9
2024-02-11T0400,1265A,118.8709,28.9666,衢州市,实验学校,细颗粒物(PM2.5),77,77,97,56,77,59,,,,5,8,4,5,0.5,0.6
2024-02-11T0400,1266A,118.8621,28.9808,衢州市,衢州学院,细颗粒物(PM2.5),82,76,101,60,86,58,,,,8,9,7,9,0.4,0.5
2024-02-11T0400,1611A,118.5819,24.9117,泉州市,涂山街,细颗粒物(PM2.5),113,93,123,85,110,46,,,,9,12,2,5,0.9,0.9
2024-02-11T0400,1612A,118.5972,24.8978,泉州市,津头埔,细颗粒物(PM2.5),107,95,112,80,100,40,,,,14,15,4,7,0.8,0.8
2024-02-11T0400,1613A,118.6663,24.9424,泉州市,万安,细颗粒物(PM2.5),87,72,100,64,92,60,,,,6,9,3,3,0.6,0.6
