timepoint,stationcode,longitude,latitude,area,positionname,primarypollutant,aqi,pm10,pm10_24h,pm2_5,pm2_5_24h,o3,o3_24h,o3_8h,o3_8h_24h,no2,no2_24h,so2,so2_24h,co,co_24h
2023-11-23T1700,2568A,102.2502,31.8896,阿坝藏族羌族自治州,马师校,,24,13,16,9,15,74,,63,63,6,22,4,4,0.3,0.5
2023-11-23T1700,3994A,102.2165,31.9024,阿坝藏族羌族自治州,马尔康中学西区,颗粒物(PM10),60,70,24,7,13,74,,63,63,6,15,4,4,0.7,0.5
2023-11-23T1700,2695A,80.292,41.1694,阿克苏地区,电视台,颗粒物(PM10),86,121,185,48,58,89,,50,50,26,55,15,12,0.5,1.6
2023-11-23T1700,2696A,80.2613,41.1551,阿克苏地区,艺术中心,颗粒物(PM10),78,105,148,42,60,103,,62,62,22,57,4,6,0.6,1.6
2023-11-23T1700,2204A,105.6467,38.8363,阿拉善盟,西城区西花园,颗粒物(PM10),51,51,36,23,13,62,,73,62,12,8,10,8,0.5,1
2023-11-23T1700,2205A,105.6985,38.8411,阿拉善盟,蒙二幼,,42,42,39,11,9,53,,78,62,19,13,5,5,0.5,0.4
2023-11-23T1700,2206A,105.724,38.8516,阿拉善盟,环保局新楼,,31,31,34,9,8,57,,82,62,14,7,8,7,0.5,0.5
2023-11-23T1700,2708A,88.1264,47.8517,阿勒泰地区,市站,,25,25,18,4,4,55,,86,67,18,9,5,4,0.3,0.3
2023-11-23T1700,2630A,80.1161,32.5,阿里地区,阿里监测站,,25,5,12,2,5,80,,65,65,3,23,4,6,0.4,0.4
2023-11-23T1700,3192A,80.0903,32.5028,阿里地区,阿里藏医院,,25,6,15,2,6,80,,60,60,3,34,5,9,0.4,0.5
2023-11-23T1700,2642A,109.0318,32.6537,安康市,香溪洞,颗粒物(PM10),69,88,60,28,34,90,,56,56,21,19,6,9,0.4,0.6
2023-11-23T1700,2643A,109.0281,32.6939,安康市,安康市监测站,颗粒物(PM10),60,69,71,23,47,87,,52,52,24,28,9,13,0.6,0.8
2023-11-23T1700,2644A,109.0072,32.6975,安康市,汉滨区检察院,颗粒物(PM10),55,59,62,30,43,106,,47,47,14,25,10,11,0.4,0.7
2023-11-23T1700,2291A,117.0809,30.5177,安庆市,环科院,颗粒物(PM10),112,173,92,58,53,95,,96,96,23,61,9,12,0.5,0.8
2023-11-23T1700,2292A,117.0331,30.5119,安庆市,马山宾馆,颗粒物(PM10),108,166,95,57,59,98,,99,99,26,55,7,10,0.5,0.7
2023-11-23T1700,2294A,116.9896,30.6145,安庆市,安庆大学,颗粒物(PM10),114,178,98,60,52,98,,101,101,24,45,8,9,0.6,0.8
2023-11-23T1700,3173A,117.0598,30.5351,安庆市,市人大,颗粒物(PM10),113,175,102,54,57,92,,94,94,29,59,6,10,0.4,0.7
2023-11-23T1700,3123A,105.9408,26.2431,安顺市,凤凰山,细颗粒物(PM2.5),93,76,56,69,51,83,,73,73,18,33,30,28,0.9,1.1
2023-11-23T1700,3124A,105.9439,26.2564,安顺市,金钟山,细颗粒物(PM2.5),94,84,62,70,49,86,,76,76,14,22,21,25,0.8,0.9
2023-11-23T1700,3125A,105.8983,26.2481,安顺市,娄家坡,细颗粒物(PM2.5),89,84,56,66,46,87,,84,84,13,18,16,19,0.8,0.9
2023-11-23T1700,1819A,114.3551,36.1017,安阳市,红庙街,颗粒物(PM10),61,72,155,10,99,62,,71,65,11,36,4,7,0.4,1
2023-11-23T1700,1820A,114.361,36.0681,安阳市,银杏小区,颗粒物(PM10),60,69,114,10,91,63,,70,67,10,19,4,7,0.3,1.1
2023-11-23T1700,3141A,114.3922,36.0878,安阳市,信访局,颗粒物(PM10),53,56,167,2,85,61,,72,64,8,37,5,7,0.4,1
2023-11-23T1700,3669A,114.4705,36.0637,安阳市,左辅环卫站,颗粒物(PM10),68,85,184,5,89,63,,72,67,12,41,5,7,0.1,0.6
2023-11-23T1700,3703A,114.2917,36.0949,安阳市,安钢职工学校,,,,194,,103,63,,72,67,14,35,3,6,0.4,1
2023-11-23T1700,1748A,123.044,41.1196,鞍山市,深沟寺,,22,22,41,6,24,55,,54,54,11,15,6,7,0.4,0.6
2023-11-23T1700,1749A,123.011,41.0931,鞍山市,太阳城,,19,19,39,5,23,58,,55,55,12,19,9,10,0.7,0.9
2023-11-23T1700,1750A,123.0485,41.1442,鞍山市,太平,,17,16,36,10,25,54,,48,48,15,20,8,12,0.3,0.6
2023-11-23T1700,1751A,122.9642,41.0971,鞍山市,铁西三道街,,29,29,44,11,25,38,,49,49,29,27,16,15,1.7,1.4
2023-11-23T1700,1752A,122.9341,41.0833,鞍山市,铁西工业园区,,18,17,35,12,26,53,,59,59,18,26,9,12,0.6,0.9
2023-11-23T1700,1753A,123.022,41.0821,鞍山市,明达新区,,22,22,44,9,26,52,,51,51,15,20,8,8,0.5,0.7
2023-11-23T1700,2195A,107.4212,40.761,巴彦淖尔市,附二中,,23,23,45,14,14,69,,64,64,2,3,6,5,0.3,0.3
2023-11-23T1700,2196A,107.37,40.7372,巴彦淖尔市,市环保大楼,,26,26,40,10,16,67,,64,64,6,4,2,3,0.4,0.4
2023-11-23T1700,1956A,86.1472,41.7538,巴音郭楞州,孔雀公园,颗粒物(PM10),91,131,99,39,33,105,,75,64,13,25,6,6,0.5,0.5
2023-11-23T1700,1957A,86.1972,41.7166,巴音郭楞州,棉纺厂,颗粒物(PM10),76,102,117,47,40,94,,66,66,21,33,5,5,0.6,0.6
2023-11-23T1700,1958A,86.2357,41.7173,巴音郭楞州,经济开发区,颗粒物(PM10),67,84,89,28,31,92,,74,74,23,21,5,5,0.5,0.5
2023-11-23T1700,2914A,106.7677,31.8794,巴中市,苏山坪,细颗粒物(PM2.5),52,39,56,36,48,78,,58,56,14,13,4,4,0.5,0.6
2023-11-23T1700,3182A,106.7656,31.8545,巴中市,丽阳花园,细颗粒物(PM2.5),55,48,73,39,57,125,,51,51,27,28,4,3,0.5,0.7
2023-11-23T1700,3183A,106.7418,31.8654,巴中市,圣泉水务公司,细颗粒物(PM2.5),54,54,64,38,51,81,,46,46,14,31,6,5,0.5,0.6
2023-11-23T1700,3616A,106.7616,31.8344,巴中市,市中心医院,,,47,67,41,48,,,2,,18,25,5,5,0.4,0.6
2023-11-23T1700,2235A,122.7911,45.6077,白城市,洮北区环保局,,31,31,26,14,8,56,,68,64,17,7,9,6,0.5,0.4
2023-11-23T1700,2236A,122.8738,45.5725,白城市,市环保局,,,,41,,9,63,,72,70,,6,,5,0.3,0.3
2023-11-23T1700,2231A,126.4219,41.9171,白山市,喜丰,,30,30,36,21,18,26,,40,27,10,16,8,7,0.5,0.9
2023-11-23T1700,2232A,126.4077,41.9419,白山市,环保局,,,,45,,19,54,,54,49,5,12,9,9,0.8,1
2023-11-23T1700,2647A,104.1724,36.5446,白银市,第三小学,颗粒物(PM10),86,122,103,29,21,64,,61,59,35,36,22,10,0.8,0.7
2023-11-23T1700,2648A,104.1465,36.5482,白银市,动力公司,颗粒物(PM10),93,136,97,34,25,73,,68,68,27,16,11,8,0.9,0.8
2023-11-23T1700,2512A,106.6103,23.9011,百色市,市监测站,细颗粒物(PM2.5),87,97,94,64,60,137,,104,104,13,24,19,14,0.8,0.9
2023-11-23T1700,2513A,106.6538,23.8859,百色市,市中心血站,细颗粒物(PM2.5),83,78,100,61,68,138,,100,100,18,39,23,18,1.0,1.1
2023-11-23T1700,3406A,106.6085,23.8798,百色市,祈福高中,细颗粒物(PM2.5),70,84,106,51,72,134,,104,104,12,37,20,13,0.9,1
2023-11-23T1700,2270A,117.396,32.939,蚌埠市,工人疗养院,颗粒物(PM10),76,101,193,20,115,69,,68,68,20,54,4,11,0.4,0.9
2023-11-23T1700,2271A,117.3605,32.9427,蚌埠市,百货大楼,颗粒物(PM10),76,102,203,14,118,63,,66,66,17,53,4,10,0.3,0.9
2023-11-23T1700,2273A,117.4185,32.8911,蚌埠市,蚌埠学院,颗粒物(PM10),79,107,210,17,127,73,,69,69,15,61,3,8,0.4,0.9
2023-11-23T1700,2274A,117.3533,32.9673,蚌埠市,淮上区政府,颗粒物(PM10),85,119,202,20,125,69,,69,69,17,62,6,11,0.3,0.9
2023-11-23T1700,2275A,117.3145,32.8977,蚌埠市,高新区,颗粒物(PM10),81,112,211,19,135,67,,69,69,23,65,5,8,0.3,1
2023-11-23T1700,3715A,117.3092,32.9314,蚌埠市,蚌埠田家炳中学,颗粒物(PM10),82,114,224,17,130,63,,64,64,24,67,4,12,0.3,0.8
2023-11-23T1700,1585A,109.8756,40.6532,包头市,市环境监测站,,35,35,42,19,11,48,,63,59,27,10,23,13,1.2,0.6
2023-11-23T1700,1587A,109.9991,40.5842,包头市,包头八中,,31,31,56,8,8,55,,61,61,22,9,14,11,0.5,0.6
2023-11-23T1700,1588A,109.8538,40.6821,包头市,青山宾馆,,46,46,47,11,7,41,,64,56,35,10,22,10,1.5,0.8
2023-11-23T1700,1589A,109.8642,40.6288,包头市,惠龙物流,,25,25,50,12,9,58,,61,60,18,11,13,9,0.6,0.4
2023-11-23T1700,1590A,110.0377,40.5546,包头市,东河鸿龙湾,,23,23,32,3,8,68,,66,66,8,9,13,12,0.5,0.4
2023-11-23T1700,3283A,109.9154,40.5685,包头市,滨河大厦,,19,17,35,4,8,59,,61,61,12,10,13,11,0.6,0.6
2023-11-23T1700,3419A,109.9447,40.6261,包头市,包头市委党校,,34,34,40,10,9,59,,63,63,25,13,17,10,0.6,0.3
2023-11-23T1700,3683A,109.8331,40.6576,包头市,昆区政府,,41,41,47,10,9,42,,60,53,35,14,29,15,1.5,0.9
2023-11-23T1700,1930A,107.185,34.3063,宝鸡市,庙沟村,颗粒物(PM10),86,122,110,29,30,64,,64,64,9,10,9,9,0.1,0.1
2023-11-23T1700,1931A,107.0708,34.3017,宝鸡市,竹园沟,颗粒物(PM10),90,129,98,34,35,78,,76,76,16,23,8,6,0.4,0.4
2023-11-23T1700,1932A,107.1906,34.3672,宝鸡市,三陆医院,颗粒物(PM10),99,148,132,35,46,63,,60,60,26,50,6,8,0.4,0.7
2023-11-23T1700,1933A,107.1431,34.3547,宝鸡市,监测站,颗粒物(PM10),95,139,109,31,35,68,,64,64,21,32,6,5,0.4,0.5
2023-11-23T1700,1934A,107.1186,34.3739,宝鸡市,技工学校,颗粒物(PM10),93,135,117,36,40,64,,65,65,29,34,7,8,0.4,0.5
2023-11-23T1700,1935A,107.3906,34.3528,宝鸡市,陈仓区环保局家属楼,颗粒物(PM10),93,136,145,28,33,68,,64,64,27,48,11,12,0.5,0.8
2023-11-23T1700,1936A,107.2058,34.3497,宝鸡市,文理学院,颗粒物(PM10),91,132,124,29,32,72,,67,67,25,42,8,8,0.4,0.5
2023-11-23T1700,1937A,107.2386,34.3622,宝鸡市,三迪小学,颗粒物(PM10),104,158,129,39,39,65,,64,64,26,42,8,9,0.4,0.6
2023-11-23T1700,1051A,115.493,38.8632,保定市,游泳馆,,28,28,85,2,13,62,,69,67,20,22,3,5,0.5,0.4
2023-11-23T1700,1052A,115.5213,38.8959,保定市,华电二区,,26,26,73,11,22,59,,61,60,4,9,5,5,0,0
2023-11-23T1700,1053A,115.4713,38.9108,保定市,接待中心,,23,23,75,9,13,62,,68,67,12,12,4,4,0,0.1
2023-11-23T1700,1054A,115.4612,38.8416,保定市,地表水厂,,43,43,100,10,19,56,,61,60,13,16,4,4,0.1,0.1
2023-11-23T1700,1056A,115.5086,38.8639,保定市,监测站,,25,25,82,11,23,58,,65,62,16,20,4,4,0.2,0.3
2023-11-23T1700,3581A,115.31981,38.95208,保定市,满城区生态环境分局,,,,80,,7,65,,68,64,,14,3,3,0.6,0.5
2023-11-23T1700,3582A,115.47694,38.76408,保定市,清苑区第二中学,,24,24,88,5,6,60,,64,64,19,21,4,4,0.2,0.2
2023-11-23T1700,3583A,115.62909,39.02311,保定市,徐水物探局,,,34,142,7,11,58,,68,66,19,21,,3,0.4,0.4
2023-11-23T1700,4004A,115.4202,38.8656,保定市,双鹰农机,,20,19,82,8,18,64,,70,67,3,12,3,4,0.3,0.3
2023-11-23T1700,2594A,99.1678,25.1081,保山市,市环境监测站,,33,15,21,11,10,103,,62,62,9,9,8,7,0.3,0.5
2023-11-23T1700,2595A,99.1711,25.1328,保山市,市环保局,,30,17,24,13,16,95,,57,57,6,8,6,6,0.2,0.3
2023-11-23T1700,1867A,109.1436,21.4086,北海市,海滩公园,,42,38,43,24,20,133,,108,108,7,12,7,11,0.9,0.7
2023-11-23T1700,1868A,109.0981,21.4661,北海市,新市环保局,,,,46,19,28,139,,110,110,14,17,8,13,,0.6
2023-11-23T1700,1869A,109.1778,21.5233,北海市,北海工业园,颗粒物(PM10),60,69,58,29,34,137,,114,114,17,18,9,18,0.5,0.6
2023-11-23T1700,3400A,109.1911,21.4415,北海市,龙潭自来水厂,,49,46,45,29,30,154,,117,117,12,12,10,12,0.5,0.5
2023-11-23T1700,1001A,116.3621,39.8784,北京市,万寿西宫,,18,18,39,5,7,52,,56,52,6,8,1,2,0.2,0.2
2023-11-23T1700,1002A,116.2202,40.2915,北京市,定陵,,13,13,24,3,4,39,,48,46,2,2,4,2,0.1,0.1
2023-11-23T1700,1003A,116.4174,39.9289,北京市,东四,,24,24,50,4,8,53,,56,53,7,10,1,2,0.2,0.1
2023-11-23T1700,1004A,116.4072,39.8863,北京市,天坛,,,,53,,6,55,,59,56,9,13,3,3,0.2,0.2
2023-11-23T1700,1005A,116.462,39.9365,北京市,农展馆,,19,19,35,2,5,50,,52,50,1,6,4,3,0.3,0.3
2023-11-23T1700,1006A,116.3392,39.9295,北京市,官园,,18,18,42,5,7,57,,60,57,8,9,3,2,0.3,0.3
2023-11-23T1700,1007A,116.2878,39.9611,北京市,海淀万柳,,16,14,31,5,8,51,,53,50,7,10,3,3,0.4,0.4
2023-11-23T1700,1008A,116.6636,40.135,北京市,顺义新城,,18,12,24,2,4,56,,56,56,2,5,3,3,0.2,0.2
2023-11-23T1700,1009A,116.6275,40.3275,北京市,怀柔镇,,19,5,11,2,3,60,,61,58,2,5,2,1,0.1,0.2
2023-11-23T1700,1011A,116.3966,39.9821,北京市,奥体中心,,,27,50,5,7,49,,51,50,6,11,,2,0.2,0.2
2023-11-23T1700,1012A,116.184,39.9136,北京市,古城,,20,20,51,3,6,49,,56,47,5,7,2,1,0.2,0.4
2023-11-23T1700,3417A,117.0709,40.1465,北京市,平谷新城,,19,10,18,2,4,58,,58,58,9,10,3,3,0.1,0.2
2023-11-23T1700,3418A,116.8336,40.4095,北京市,密云新城,,18,7,11,2,3,57,,60,60,6,7,3,3,0.2,0.2
2023-11-23T1700,3672A,116.1541,39.8204,北京市,丰台云岗,,20,20,39,2,6,55,,57,53,6,8,2,2,0.3,0.3
2023-11-23T1700,3673A,116.6804,39.9081,北京市,通州东关,,20,20,52,3,7,54,,54,54,1,9,3,3,0.2,0.2
2023-11-23T1700,3674A,115.9577,39.7603,北京市,房山燕山,,19,19,34,2,6,58,,61,57,3,8,1,3,0.1,0.2
2023-11-23T1700,3675A,116.4672,39.7733,北京市,大兴旧宫,,19,19,45,3,6,53,,56,54,11,13,1,2,0.1,0.1
2023-11-23T1700,3694A,115.986,40.4563,北京市,延庆石河营,,18,16,22,3,4,55,,62,60,6,4,1,3,0.2,0.1
2023-11-23T1700,3695A,116.6151,40.3053,北京市,怀柔新城,,20,5,10,2,4,61,,61,60,2,2,2,1,0.1,0.1
2023-11-23T1700,3696A,116.2545,39.8768,北京市,丰台小屯,,17,17,41,3,6,53,,52,52,2,7,1,3,0.2,0.2
2023-11-23T1700,3697A,116.84,40.3844,北京市,密云镇,,17,13,15,2,3,53,,56,56,6,11,3,3,0.2,0.2
2023-11-23T1700,1761A,123.8275,41.3064,本溪市,大峪,,18,14,41,8,25,56,,48,48,16,23,7,8,0.3,0.5
2023-11-23T1700,1762A,123.7567,41.3325,本溪市,溪湖,,32,32,45,9,31,48,,46,46,24,24,9,11,0.5,0.7
2023-11-23T1700,1763A,123.7169,41.3094,本溪市,彩屯,颗粒物(PM10),62,73,51,10,34,52,,46,46,21,22,8,10,0.7,0.7
2023-11-23T1700,1764A,123.7669,41.2864,本溪市,东明,颗粒物(PM10),61,71,48,19,32,45,,42,42,27,26,10,9,0.4,0.5
2023-11-23T1700,1765A,123.7992,41.2664,本溪市,新立屯,颗粒物(PM10),64,77,45,16,27,51,,46,46,21,22,10,10,0.9,0.9
2023-11-23T1700,1766A,123.8142,41.3472,本溪市,威宁,,24,24,44,8,26,54,,49,49,15,20,6,5,0.5,0.5
2023-11-23T1700,2587A,105.2864,27.3125,毕节市,八中,细颗粒物(PM2.5),67,58,72,48,64,67,,52,52,22,17,10,8,0.9,0.9
2023-11-23T1700,2588A,105.31,27.2944,毕节市,师专,细颗粒物(PM2.5),77,77,95,56,74,58,,42,42,27,26,6,6,0.8,1
2023-11-23T1700,3537A,105.3631,27.3533,毕节市,长征村,细颗粒物(PM2.5),110,108,150,83,111,67,,54,54,14,18,6,6,0.7,0.8
2023-11-23T1700,1629A,118.0018,37.3617,滨州市,第二水厂,颗粒物(PM10),59,68,202,1,110,60,,62,62,11,40,5,8,0.0,0.7
2023-11-23T1700,1630A,117.9776,37.393,滨州市,北中新校,颗粒物(PM10),56,62,189,6,103,58,,60,60,14,48,8,9,0.4,1
2023-11-23T1700,3514A,117.9378,37.3956,滨州市,中海酒店,,48,48,181,8,103,63,,66,66,12,53,7,10,0.5,0.9
2023-11-23T1700,3515A,117.9378,37.3553,滨州市,开发区一中,颗粒物(PM10),57,63,218,6,118,57,,58,58,18,52,7,13,0.4,0.7
2023-11-23T1700,3516A,118.0917,37.694,滨州市,金海六路,颗粒物(PM10),57,63,193,0,92,52,,57,57,10,60,5,8,0.1,0.8
2023-11-23T1700,4028A,117.9956,37.3753,滨州市,滨州市西街道办事处,颗粒物(PM10),57,64,201,12,122,60,,62,62,12,43,8,10,0.5,1.1
2023-11-23T1700,2311A,115.8072,33.8399,亳州市,污水处理厂,颗粒物(PM10),66,82,160,7,69,73,,72,72,13,46,5,10,0.4,0.9
2023-11-23T1700,2312A,115.7789,33.8518,亳州市,三国揽胜宫,颗粒物(PM10),63,75,163,6,72,70,,68,68,14,45,7,10,0.3,1
2023-11-23T1700,3332A,115.7633,33.8034,亳州市,亳州学院,颗粒物(PM10),69,88,153,7,71,74,,71,71,12,42,2,5,0.3,1.1
2023-11-23T1700,2693A,82.0485,44.8556,博尔塔拉蒙古自治州,市党校,,25,25,31,9,15,40,,36,36,8,12,9,8,0.3,0.5
2023-11-23T1700,2694A,82.0806,44.8969,博尔塔拉蒙古自治州,市环保局,,29,29,29,9,14,36,,34,34,11,13,9,7,0.5,0.6
2023-11-23T1700,1071A,116.8842,38.2991,沧州市,沧县城建局,颗粒物(PM10),53,56,144,20,83,54,,61,61,19,47,3,4,0.4,0.8
2023-11-23T1700,1072A,116.8584,38.3254,沧州市,电视转播站,,50,50,130,5,70,58,,63,63,14,44,8,8,0.6,0.8
2023-11-23T1700,1073A,116.8709,38.3228,沧州市,市环保局,,45,45,126,18,78,61,,68,68,13,39,1,3,0.5,0.8
2023-11-23T1700,3324A,116.8136,38.3004,沧州市,河北水利电力学院,,48,48,154,15,73,57,,62,62,13,41,6,9,0.2,0.5
2023-11-23T1700,2622A,97.1806,31.1273,昌都市,昌都监测站,,19,16,30,6,16,60,,57,57,23,30,9,9,0.6,0.7
2023-11-23T1700,3719A,97.1714,31.1406,昌都市,昌都会议中心,,26,12,20,4,8,83,,68,68,3,11,4,5,0.1,0.2
2023-11-23T1700,2690A,88.1236,43.8886,昌吉州,天山天池,,40,,6,28,7,46,,66,63,14,6,6,6,0.7,0.5
2023-11-23T1700,2692A,87.2717,44.0297,昌吉州,新区政务中心,,35,35,43,18,30,40,,31,31,38,36,7,5,0.6,0.7
2023-11-23T1700,3613A,87.3095,44.0142,昌吉州,亚心广场,,39,39,41,17,21,36,,27,27,31,25,8,6,0.8,0.9
2023-11-23T1700,1119A,125.3325,43.9166,长春市,食品厂,,19,19,31,13,27,50,,53,53,21,20,6,6,0.3,0.4
2023-11-23T1700,1120A,125.2863,43.9027,长春市,客车厂,,16,11,24,9,28,50,,54,54,21,20,7,20,0.3,0.6
2023-11-23T1700,1121A,125.2841,43.8463,长春市,邮电学院,,19,16,29,12,31,58,,61,60,13,17,8,8,0.3,0.3
2023-11-23T1700,1122A,125.3716,43.8772,长春市,劳动公园,,19,17,25,8,27,59,,61,61,14,17,6,6,0.4,0.5
2023-11-23T1700,1123A,125.3297,43.8805,长春市,园林处,,18,12,23,6,22,56,,59,59,16,18,6,6,0.3,0.4
2023-11-23T1700,1124A,125.4605,43.79,长春市,净月潭,,19,14,24,5,21,60,,59,59,11,17,6,6,0.2,0.4
2023-11-23T1700,1125A,125.7194,43.515,长春市,甩湾子,,41,41,67,12,12,63,,63,63,6,4,6,5,0.5,0.5
2023-11-23T1700,1126A,125.3863,43.8447,长春市,经开区环卫处,,17,13,35,6,24,52,,57,57,20,23,12,12,0.4,0.5
2023-11-23T1700,1127A,125.245,43.7783,长春市,高新区管委会,,,25,26,12,43,51,,57,57,20,16,8,7,,0.7
2023-11-23T1700,1128A,125.1761,43.8325,长春市,岱山公园,,18,18,39,8,24,54,,57,57,16,18,4,3,0.4,0.5
2023-11-23T1700,1335A,113.0833,28.2325,长沙市,经开区环保局,颗粒物(PM10),53,55,82,26,56,118,,83,83,16,43,10,10,0.5,0.7
2023-11-23T1700,1336A,112.8872,28.2189,长沙市,高开区环保局,,,,108,42,69,131,,86,86,,56,8,10,,1.1
2023-11-23T1700,1337A,113.0792,28.2053,长沙市,马坡岭,颗粒物(PM10),54,58,96,30,69,126,,86,86,16,52,10,11,0.3,0.7
2023-11-23T1700,1338A,112.9394,28.19,长沙市,湖南师范大学,颗粒物(PM10),61,72,89,33,70,134,,91,91,16,40,5,6,0.7,0.9
2023-11-23T1700,1339A,113.0178,28.1322,长沙市,雨花区环保局,细颗粒物(PM2.5),64,75,97,46,63,123,,90,90,24,68,6,6,0.8,1.1
2023-11-23T1700,1340A,112.9792,28.2597,长沙市,伍家岭,颗粒物(PM10),59,68,106,21,64,120,,80,80,21,50,8,8,0.6,1
2023-11-23T1700,1341A,113.0014,28.1944,长沙市,火车新站,颗粒物(PM10),60,69,99,36,64,123,,85,85,20,61,6,7,0.6,1.1
2023-11-23T1700,1342A,112.9844,28.1178,长沙市,天心区环保局,颗粒物(PM10),68,86,105,36,67,128,,86,86,26,72,10,10,0.2,0.7
2023-11-23T1700,1343A,112.8908,28.1308,长沙市,湖南中医药大学,颗粒物(PM10),70,90,100,47,66,139,,93,93,17,47,7,6,0.7,1.1
2023-11-23T1700,1344A,112.9581,28.3611,长沙市,沙坪,,45,41,54,25,39,142,,101,101,10,21,9,8,0.6,0.7
2023-11-23T1700,1727A,113.1147,36.1547,长治市,清华站,,25,20,62,0,12,77,,73,73,10,17,8,10,0.4,0.4
2023-11-23T1700,1728A,113.1031,36.1989,长治市,监测站,,29,29,51,5,12,74,,73,73,16,22,9,8,0.4,0.3
2023-11-23T1700,1730A,113.0886,36.2125,长治市,审计局,,24,18,51,0,10,75,,74,74,18,20,11,10,0.4,0.4
2023-11-23T1700,1731A,113.0844,36.1856,长治市,长治八中,,24,24,68,9,13,74,,70,70,14,18,11,12,0.2,0.2
2023-11-23T1700,2845A,113.1569,36.1911,长治市,德盛苑,,27,27,56,2,10,74,,72,72,12,16,13,11,0.5,0.5
2023-11-23T1700,3568A,113.06,36.0464,长治市,向阳小学,,48,48,87,13,21,82,,84,84,15,21,12,13,0.2,0.3
2023-11-23T1700,3569A,112.8792,36.3144,长治市,屯留一中,,34,34,63,9,14,77,,77,77,11,16,10,11,0.5,0.5
2023-11-23T1700,3570A,113.235,36.3489,长治市,潞城四中,,41,41,84,4,12,75,,76,76,14,23,9,15,0,0.1
2023-11-23T1700,1854A,111.6975,28.9703,常德市,市二中,颗粒物(PM10),83,115,108,46,71,135,,103,103,14,30,10,11,0.7,0.8
2023-11-23T1700,1857A,111.7158,29.1456,常德市,白鹤山,颗粒物(PM10),75,100,122,34,67,106,,88,88,19,16,10,9,0.5,0.6
2023-11-23T1700,3138A,111.7153,29.0289,常德市,武陵区永安,颗粒物(PM10),77,104,106,37,75,127,,102,102,11,31,10,11,0.8,1
2023-11-23T1700,3139A,111.6892,28.9881,常德市,鼎城区玉霞,颗粒物(PM10),83,116,105,53,74,131,,113,113,18,33,10,7,0.5,0.7
2023-11-23T1700,3140A,111.6625,29.0531,常德市,武陵区长庚,,,113,107,46,80,127,,96,96,,36,11,10,0.6,0.8
2023-11-23T1700,1196A,119.9633,31.762,常州市,市监测站,细颗粒物(PM2.5),104,124,146,78,86,82,,104,104,37,68,12,12,0.6,1
2023-11-23T1700,1200A,119.9468,31.7069,常州市,武进监测站,细颗粒物(PM2.5),100,126,143,75,83,81,,112,112,41,71,5,12,0.7,0.9
2023-11-23T1700,1201A,119.9255,31.9087,常州市,安家,细颗粒物(PM2.5),80,107,142,59,84,76,,102,102,36,63,8,12,0.8,1.1
2023-11-23T1700,3002A,119.9805,31.8174,常州市,行政中心,细颗粒物(PM2.5),99,112,127,74,77,80,,102,102,36,60,14,19,0.8,1.1
2023-11-23T1700,3003A,120.0522,31.7748,常州市,经开区,细颗粒物(PM2.5),102,135,142,76,89,89,,109,109,33,71,9,15,0.6,1.1
2023-11-23T1700,3010A,119.9025,31.7964,常州市,钟楼,细颗粒物(PM2.5),90,101,120,67,78,75,,102,102,40,70,9,12,0.7,0.9
2023-11-23T1700,3429A,119.8598,31.7066,常州市,武进经发区,颗粒物(PM10),76,101,134,53,75,89,,120,120,27,61,10,13,0.7,1
2023-11-23T1700,3430A,119.5826,31.7245,常州市,金坛城区,颗粒物(PM10),73,95,110,39,66,79,,116,116,28,44,10,13,0.7,0.9
2023-11-23T1700,2220A,120.4318,41.5881,朝阳市,西梁,颗粒物(PM10),65,80,41,8,12,55,,61,61,10,12,9,10,0.5,0.5
2023-11-23T1700,2221A,120.4521,41.5646,朝阳市,河畔小区,颗粒物(PM10),69,87,45,5,9,56,,62,61,10,12,6,7,0.6,0.6
2023-11-23T1700,2222A,120.4176,41.5648,朝阳市,八里堡,颗粒物(PM10),139,227,55,12,12,57,,59,59,7,12,8,10,0.5,0.6
2023-11-23T1700,2223A,120.3806,41.5969,朝阳市,农业园区,颗粒物(PM10),69,88,36,5,8,60,,63,63,2,8,5,6,0.4,0.4
2023-11-23T1700,1705A,116.6367,23.6719,潮州市,西园路,细颗粒物(PM2.5),72,,50,52,40,158,,120,120,20,16,9,6,0.5,0.5
2023-11-23T1700,1706A,116.6447,23.6706,潮州市,档案局,细颗粒物(PM2.5),78,,50,57,35,158,,121,121,21,17,8,5,0.7,0.6
2023-11-23T1700,3026A,116.6183,23.6608,潮州市,市政府,细颗粒物(PM2.5),60,58,62,43,39,153,,132,132,26,29,9,11,0.7,0.7
2023-11-23T1700,2472A,113.0073,25.9061,郴州市,马头岭,颗粒物(PM10),58,65,62,26,29,134,,99,99,12,32,13,9,0.9,1
2023-11-23T1700,2473A,113.0116,25.8226,郴州市,市职中,细颗粒物(PM2.5),54,55,69,38,46,148,,119,119,12,32,13,9,0.6,0.8
2023-11-23T1700,2474A,113.0161,25.8001,郴州市,兴隆步行街,细颗粒物(PM2.5),55,57,78,39,49,145,,113,113,13,38,10,7,0.6,0.9
2023-11-23T1700,2475A,113.0383,25.8071,郴州市,市审计局,细颗粒物(PM2.5),54,48,62,38,41,145,,108,108,11,33,12,8,0.5,0.7
2023-11-23T1700,2476A,113.0348,25.7759,郴州市,市环保局,,50,50,67,34,43,115,,93,93,23,47,9,8,0.6,0.7
2023-11-23T1700,1431A,103.9728,30.7236,成都市,金泉两河,细颗粒物(PM2.5),82,77,81,60,33,85,,40,40,18,32,2,3,0.4,0.7
2023-11-23T1700,1432A,104.176,30.6872,成都市,十里店,细颗粒物(PM2.5),83,92,91,61,66,98,,57,57,16,44,1,2,0.5,0.7
2023-11-23T1700,1433A,104.079,30.5706,成都市,三瓦窑,细颗粒物(PM2.5),88,84,85,65,55,67,,39,39,29,46,2,3,0.6,0.8
2023-11-23T1700,1434A,104.1114,30.63,成都市,沙河铺,颗粒物(PM10),59,68,88,41,60,90,,41,41,14,48,4,3,0.6,0.8
2023-11-23T1700,1437A,104.0786,30.6531,成都市,君平街,细颗粒物(PM2.5),83,85,94,61,64,92,,57,57,23,53,3,4,0.5,0.9
2023-11-23T1700,1438A,103.613,31.0283,成都市,灵岩寺,细颗粒物(PM2.5),67,69,50,48,31,85,,70,70,14,17,9,14,0.7,0.6
2023-11-23T1700,2880A,104.0239,30.65639,成都市,大石西路,细颗粒物(PM2.5),98,102,95,73,69,92,,52,52,27,53,5,5,0.7,1.1
2023-11-23T1700,3136A,104.2725,30.5589,成都市,龙泉驿区区政府,细颗粒物(PM2.5),77,70,66,56,52,94,,58,58,26,33,2,2,0.6,0.7
2023-11-23T1700,3357A,104.0106,30.6931,成都市,金博路,细颗粒物(PM2.5),82,92,94,60,65,84,,45,45,24,46,3,2,0.6,1
2023-11-23T1700,3359A,104.0578,30.5225,成都市,华阳,细颗粒物(PM2.5),79,85,81,58,60,93,,43,43,10,36,2,2,0.6,0.9
2023-11-23T1700,3487A,104.2394,30.5319,成都市,车城东七路,细颗粒物(PM2.5),80,84,82,59,61,103,,55,55,21,49,3,3,0.7,0.8
2023-11-23T1700,3488A,104.3853,30.7453,成都市,青白江技师分院,细颗粒物(PM2.5),74,65,60,54,50,106,,66,66,18,34,4,3,0.6,0.8
2023-11-23T1700,3489A,104.0789,30.4072,成都市,科学城,细颗粒物(PM2.5),90,83,73,67,58,103,,55,55,16,34,7,2,0.4,0.5
2023-11-23T1700,4011A,103.8506,30.6947,成都市,光华大道三段,细颗粒物(PM2.5),89,82,84,66,64,79,,38,38,20,41,4,4,0.7,1
2023-11-23T1700,1062A,117.9531,40.9081,承德市,铁路,,24,24,27,12,8,59,,60,60,7,14,6,6,0.2,0.3
2023-11-23T1700,1063A,117.9392,40.9763,承德市,中国银行,,28,28,30,10,8,59,,60,60,6,15,8,7,0.2,0.3
2023-11-23T1700,1064A,117.9503,40.928,承德市,开发区,,30,26,33,21,16,66,,63,63,4,14,6,5,0.2,0.3
2023-11-23T1700,1065A,117.8051,40.9655,承德市,文化中心,,41,41,34,11,9,60,,61,61,6,12,4,4,0.2,0.3
2023-11-23T1700,1066A,117.9268,41.0026,承德市,离宫,,26,26,16,8,14,63,,64,64,3,6,3,3,0.3,0.2
2023-11-23T1700,2314A,117.47,30.6618,池州市,池州学院,细颗粒物(PM2.5),95,125,90,71,55,86,,96,96,24,38,7,8,0.6,0.9
2023-11-23T1700,3237A,117.4918,30.6617,池州市,展览馆,颗粒物(PM10),85,120,96,53,49,96,,103,103,20,33,7,7,0.6,1
2023-11-23T1700,3333A,117.5627,30.695,池州市,第八中学,颗粒物(PM10),103,155,97,67,54,85,,98,98,33,42,7,13,0.5,0.8
2023-11-23T1700,3334A,117.5038,30.6243,池州市,第十二中学,颗粒物(PM10),93,135,90,61,47,93,,102,102,23,36,7,7,0.4,1
2023-11-23T1700,1744A,118.9233,42.2816,赤峰市,松山一中,,35,35,22,4,5,66,,67,67,10,13,8,9,0.5,0.5
2023-11-23T1700,1745A,118.9576,42.2728,赤峰市,哈达街,,25,25,18,4,5,61,,63,63,12,15,15,15,0.4,0.4
2023-11-23T1700,1746A,118.8788,42.2554,赤峰市,天义路,,44,44,17,4,6,66,,69,69,11,14,5,5,0.5,0.5
2023-11-23T1700,3058A,119.2658,42.0353,赤峰市,银河街,,41,41,29,10,10,62,,66,66,11,12,14,14,0.5,0.5
2023-11-23T1700,3286A,118.9359,42.3147,赤峰市,桥北物流园区,,44,44,30,4,5,62,,65,64,13,20,10,9,0.5,0.5
2023-11-23T1700,2521A,107.3476,22.4136,崇左市,市环保局江州分局,,44,44,57,23,33,118,,103,103,7,16,6,6,0.5,0.6
2023-11-23T1700,2522A,107.3702,22.3707,崇左市,城南新区,,49,38,52,34,38,111,,100,100,6,20,6,6,0.6,0.6
2023-11-23T1700,2298A,118.3093,32.3153,滁州市,老年大学,颗粒物(PM10),72,94,123,18,86,70,,79,79,18,31,4,6,0.1,0.7
2023-11-23T1700,2299A,118.3244,32.2786,滁州市,人大宾馆,颗粒物(PM10),84,118,141,14,93,70,,87,87,22,39,7,11,0.5,0.9
2023-11-23T1700,3207A,118.3118,32.3038,滁州市,市政府原办公楼,颗粒物(PM10),76,102,133,18,84,68,,80,78,20,36,6,9,0.3,0.8
2023-11-23T1700,3331A,118.3267,32.2634,滁州市,图书馆,颗粒物(PM10),74,98,129,3,79,70,,86,86,23,30,6,8,0.3,0.8
2023-11-23T1700,2605A,101.5482,25.0441,楚雄州,州环境监测站,,26,8,25,6,16,83,,67,67,4,21,6,29,0.4,0.6
2023-11-23T1700,2606A,101.538,25.0492,楚雄州,市经济开发区,,25,14,32,10,19,78,,56,56,8,20,5,12,0.4,0.6
2023-11-23T1700,2548A,107.5277,31.2827,达州市,达州职业技术学院,细颗粒物(PM2.5),74,77,91,54,69,44,,39,39,42,26,5,5,0.8,0.8
2023-11-23T1700,2549A,107.5086,31.2186,达州市,市环境监测站,细颗粒物(PM2.5),94,120,103,70,70,33,,24,24,65,39,21,8,1.8,1
2023-11-23T1700,2550A,107.4988,31.2132,达州市,凤凰小区,细颗粒物(PM2.5),98,112,98,73,74,32,,30,30,70,40,21,9,1.7,0.9
2023-11-23T1700,2551A,107.5082,31.1986,达州市,达县机关宾馆,细颗粒物(PM2.5),103,132,99,77,72,14,,23,23,82,44,16,8,2.4,1.1
2023-11-23T1700,2552A,107.4644,31.2124,达州市,市政中心,细颗粒物(PM2.5),100,115,112,75,75,29,,24,24,74,45,24,10,2.3,1.3
2023-11-23T1700,2614A,100.1542,25.7054,大理州,大理市环境监测站,,25,24,20,13,15,78,,63,63,9,15,5,5,0.5,0.5
2023-11-23T1700,2615A,100.2171,25.5811,大理州,大理古城,,30,16,17,10,12,93,,79,79,11,15,6,6,0.3,0.3
2023-11-23T1700,1109A,121.612,38.9741,大连市,甘井子,,19,12,65,6,39,60,,57,57,15,22,4,6,0.6,0.6
2023-11-23T1700,1110A,121.565,38.9511,大连市,周水子,,19,19,69,8,38,55,,53,53,14,23,1,7,0.4,0.8
2023-11-23T1700,1111A,121.5637,38.8845,大连市,星海三站,,36,36,95,7,37,53,,50,50,18,24,8,8,0.4,0.7
2023-11-23T1700,1112A,121.6302,38.9117,大连市,青泥洼桥,,,16,64,8,39,52,,50,50,,22,7,9,0.4,0.8
2023-11-23T1700,1113A,121.6251,38.8638,大连市,傅家庄,,18,14,62,7,37,57,,55,55,15,22,7,10,0.4,0.7
2023-11-23T1700,1114A,121.5213,38.8661,大连市,七贤岭,,21,12,65,8,38,66,,64,64,14,20,8,10,0.5,0.8
2023-11-23T1700,1115A,121.2529,38.8061,大连市,旅顺,,20,15,59,7,37,61,,63,63,12,16,7,7,0.5,0.9
2023-11-23T1700,1116A,121.7485,39.1311,大连市,金州,,19,16,64,9,43,58,,57,57,9,17,8,10,0.4,0.8
2023-11-23T1700,1117A,121.7811,39.0496,大连市,开发区,,28,28,78,7,38,53,,53,53,21,24,7,8,0.4,0.7
2023-11-23T1700,1118A,121.9762,39.0631,大连市,双D港,,23,23,76,7,40,67,,64,64,11,19,6,8,0.5,0.8
2023-11-23T1700,1789A,124.81117,46.03138,大庆市,大同区,,22,22,15,12,9,52,,58,56,8,4,6,6,0.3,0.3
2023-11-23T1700,1790A,125.129,46.533,大庆市,龙凤区,,18,16,21,12,13,53,,55,53,8,6,5,5,0.4,0.4
2023-11-23T1700,1791A,124.902,46.408,大庆市,红岗区,,25,,20,17,15,51,,59,57,10,4,6,6,0.1,0.1
2023-11-23T1700,1792A,125.153,46.586,大庆市,萨尔图区,,18,18,12,6,5,51,,56,54,9,4,5,4,0.3,0.2
2023-11-23T1700,1793A,124.9042,46.6215,大庆市,让胡路区,,29,,27,20,12,50,,58,54,15,8,4,3,0.4,0.4
2023-11-23T1700,3481A,125.141,46.634,大庆市,萨区政府监测点,,18,,18,7,7,56,,62,59,7,7,6,6,0.2,0.2
2023-11-23T1700,1723A,113.2994,40.0758,大同市,云冈宾馆,,21,18,53,2,15,65,,66,66,4,4,8,8,0.3,0.3
2023-11-23T1700,1724A,113.3444,40.0917,大同市,大同大学,,19,19,59,7,10,58,,67,64,15,8,8,6,0.4,0.3
2023-11-23T1700,1725A,113.2661,40.1269,大同市,安家小村,,,,58,5,8,66,,67,67,2,3,9,7,0.3,0.4
2023-11-23T1700,1726A,113.2711,40.0844,大同市,教育学院,,19,5,63,4,11,58,,61,60,12,10,4,4,0.4,0.4
2023-11-23T1700,3282A,113.3397,40.0597,大同市,大同市卫生学校,,18,,44,8,11,56,,58,58,10,8,6,5,0.4,0.4
2023-11-23T1700,3565A,113.1367,40.1122,大同市,云冈站,,20,15,49,8,9,62,,64,64,8,7,10,10,0.2,0.2
2023-11-23T1700,3566A,113.1186,40.2556,大同市,图书馆,,,9,44,,12,57,,60,56,9,5,7,7,0.2,0.3
2023-11-23T1700,3567A,113.5931,40.0461,大同市,区一中,,,,74,,11,62,,64,64,,6,1,16,0.4,0.3
2023-11-23T1700,3676A,113.2802,40.0995,大同市,第二人民医院,,20,14,61,3,13,62,,63,63,3,3,8,7,0.4,0.4
2023-11-23T1700,2269A,124.1069,50.4097,大兴安岭地区,科技局,,,30,14,18,13,48,,61,,,5,8,4,0.5,0.4
2023-11-23T1700,3663A,124.1164,50.4278,大兴安岭地区,红旗社区,,19,14,7,8,4,59,,66,64,10,6,13,3,0.4,0.4
2023-11-23T1700,1600A,124.3303,40.0625,丹东市,江湾东路,,25,25,54,17,30,51,,46,46,17,18,8,13,0.6,0.7
2023-11-23T1700,1601A,124.4256,40.1503,丹东市,临江后街,,29,29,55,18,27,45,,46,46,20,17,4,7,0.4,0.6
2023-11-23T1700,1602A,124.3933,40.1461,丹东市,元宝山,,22,22,44,15,27,48,,46,46,16,16,8,9,0.4,0.4
2023-11-23T1700,1603A,124.3633,40.1092,丹东市,民主桥,,30,30,53,15,22,44,,41,41,18,16,8,9,0.3,0.4
2023-11-23T1700,3541A,109.5726,19.5167,儋州市,第一中学子站,,29,22,24,8,9,90,,86,86,7,3,3,3,0.5,0.5
2023-11-23T1700,3542A,109.5567,19.5187,儋州市,东坡学校子站,,30,24,22,12,11,93,,85,85,5,5,4,3,0.4,0.4
2023-11-23T1700,2616A,98.5842,24.428,德宏州,德宏州监测站,,25,18,32,7,18,80,,52,52,12,17,16,10,0.2,0.5
2023-11-23T1700,3677A,98.5881,24.4368,德宏州,芒市人民政府综合楼,,25,20,28,6,17,77,,55,55,13,15,16,11,0.2,0.4
2023-11-23T1700,1901A,104.4239,31.1208,德阳市,东山公园,颗粒物(PM10),79,108,96,49,62,107,,66,66,20,30,2,3,0.6,0.7
2023-11-23T1700,1902A,104.3826,31.1317,德阳市,西小区,细颗粒物(PM2.5),78,94,94,57,74,86,,52,52,24,49,2,4,0.5,0.8
2023-11-23T1700,1904A,104.3553,31.1091,德阳市,耐火材料厂,细颗粒物(PM2.5),93,107,116,69,79,93,,55,55,18,45,2,5,0.4,0.8
2023-11-23T1700,3639A,104.4019,31.1244,德阳市,市教育局,细颗粒物(PM2.5),72,91,81,52,62,96,,59,59,17,48,2,2,0.4,0.9
2023-11-23T1700,1622A,116.3032,37.4674,德州市,儿童乐园,,,,162,,52,65,,68,68,,37,6,9,0.3,0.7
2023-11-23T1700,1624A,116.2991,37.4451,德州市,监理站,,35,35,146,2,50,71,,71,71,22,45,5,8,0.3,0.6
2023-11-23T1700,3066A,116.2721,37.4379,德州市,九衢泉纯净水厂,,,42,158,,66,61,,64,64,25,46,8,8,0.3,0.7
2023-11-23T1700,3371A,116.3728,37.4403,德州市,开发区人民医院,,34,34,156,0,51,69,,70,70,16,38,7,9,0.4,0.7
2023-11-23T1700,3372A,116.3572,37.4094,德州市,太阳城中学,,34,34,149,6,59,68,,69,69,10,35,4,5,0.4,0.7
2023-11-23T1700,3511A,116.5652,37.3319,德州市,陵城艺术中心,,46,46,187,5,71,63,,66,66,21,33,6,7,0.4,0.6
2023-11-23T1700,2621A,99.7056,27.8317,迪庆州,迪庆州站,,27,27,23,17,16,80,,72,72,11,13,11,10,0.6,0.6
2023-11-23T1700,3180A,99.7136,27.8094,迪庆州,质量技术监督局,,25,19,24,17,19,80,,72,72,7,14,8,8,0.3,0.5
2023-11-23T1700,2663A,104.6241,35.5734,定西市,东关小学,颗粒物(PM10),78,105,135,23,42,80,,71,71,8,18,5,10,0.3,0.4
2023-11-23T1700,2664A,104.6194,35.5934,定西市,供电公司,,,92,121,25,39,78,,66,66,11,24,,7,0.6,0.6
2023-11-23T1700,1389A,113.7547,23.0494,东莞市,莞城梨川,,,54,87,28,47,,,184,184,25,63,8,10,,0.9
2023-11-23T1700,1390A,113.7944,23.0128,东莞市,东城石井,臭氧1小时,90,52,89,27,49,192,,178,178,22,49,9,9,0.6,0.8
2023-11-23T1700,1391A,113.7383,22.9658,东莞市,南城西平,臭氧1小时,104,55,94,30,51,208,,168,168,26,72,6,7,0.7,0.8
2023-11-23T1700,3319A,113.7338,23.0381,东莞市,万江金泰,,,48,87,29,50,,,177,177,22,61,9,10,0.6,1
2023-11-23T1700,3626A,113.7533,23.0202,东莞市,南城元岭,臭氧1小时,103,59,98,29,48,205,,185,185,20,66,4,5,0.8,1
2023-11-23T1700,3627A,113.7875,23.0457,东莞市,东城主山,臭氧1小时,102,58,87,30,48,203,,185,185,22,61,8,10,0.7,0.8
2023-11-23T1700,1666A,118.6614,37.4309,东营市,市环保局,颗粒物(PM10),56,61,187,9,91,62,,68,67,16,49,6,17,0.5,1
2023-11-23T1700,3036A,118.6904,37.4338,东营市,开发区管委会,颗粒物(PM10),62,73,184,7,91,64,,70,69,16,47,2,11,0.4,0.9
2023-11-23T1700,3365A,118.5719,37.565,东营市,垦利区民丰路,颗粒物(PM10),53,56,168,2,77,60,,64,63,12,48,13,17,0.3,0.8
2023-11-23T1700,3498A,118.5055,37.8612,东营市,河口城区,颗粒物(PM10),53,56,173,2,73,60,,66,63,13,38,9,11,0.5,1
2023-11-23T1700,3646A,118.4978,37.4623,东营市,胜利站,颗粒物(PM10),66,81,202,5,93,61,,69,68,20,61,7,25,0.3,1
2023-11-23T1700,3734A,118.35,37.26,东营市,理想之城,颗粒物(PM10),65,80,192,9,77,63,,69,68,19,52,3,6,0.2,0.7
2023-11-23T1700,1591A,110.0023,39.8129,鄂尔多斯市,综合楼,,17,17,56,0,4,51,,57,53,21,13,14,6,0.5,0.4
2023-11-23T1700,1592A,109.9486,39.8261,鄂尔多斯市,巴音孟克林场办事处,,19,9,51,5,9,58,,56,56,5,7,8,9,0.3,0.4
2023-11-23T1700,1593A,109.7736,39.5986,鄂尔多斯市,康泽苑,,,,43,4,6,62,,60,60,8,9,5,5,,0.3
2023-11-23T1700,1594A,109.8119,39.5989,鄂尔多斯市,华泰汽车城,,21,14,48,7,8,66,,64,64,8,6,5,5,0.3,0.2
2023-11-23T1700,1595A,109.9734,39.7884,鄂尔多斯市,奥林花园,,19,14,56,2,6,59,,58,58,10,8,11,5,0.4,0.6
2023-11-23T1700,2436A,114.8938,30.3994,鄂州市,市政府,颗粒物(PM10),72,93,100,28,48,86,,75,75,15,48,6,9,0.5,0.8
2023-11-23T1700,2437A,114.8989,30.3714,鄂州市,赵家坝,颗粒物(PM10),76,102,102,20,50,84,,73,73,18,57,6,8,0.5,0.8
2023-11-23T1700,3654A,114.8094,30.4089,鄂州市,精准医疗中心,颗粒物(PM10),107,164,139,27,50,94,,82,82,11,46,7,11,0.6,0.7
2023-11-23T1700,2499A,108.3411,21.6158,防城港市,沙万,颗粒物(PM10),57,64,77,18,44,86,,89,89,36,29,18,10,0.7,0.7
2023-11-23T1700,2500A,108.3514,21.7731,防城港市,防城档案局,,48,48,92,30,49,113,,95,95,14,34,5,5,0.6,0.7
2023-11-23T1700,2501A,108.3506,21.6414,防城港市,大海花园,颗粒物(PM10),53,56,73,20,43,105,,102,102,30,32,11,8,0.5,0.7
2023-11-23T1700,1371A,113.1294,23.0067,佛山市,湾梁,臭氧1小时,122,88,124,36,56,244,,180,180,31,105,10,12,0.5,0.9
2023-11-23T1700,1372A,113.1083,23.0478,佛山市,华材职中,臭氧1小时,118,88,125,40,73,236,,168,168,32,99,7,8,0.5,0.9
2023-11-23T1700,1373A,113.144,23.0453,佛山市,南海气象局,臭氧1小时,113,81,116,41,69,225,,206,206,36,108,9,10,0.4,0.8
2023-11-23T1700,1374A,113.2881,22.8094,佛山市,顺德苏岗,臭氧1小时,128,84,73,46,48,256,,192,192,29,51,10,9,0.8,0.9
2023-11-23T1700,1376A,112.8383,22.8678,佛山市,高明孔堂,臭氧1小时,143,131,83,68,52,285,,211,211,45,37,12,11,0.7,0.6
2023-11-23T1700,1377A,112.8836,23.1588,佛山市,三水监测站,臭氧1小时,105,85,141,40,78,209,,192,192,21,82,6,9,0.8,0.9
2023-11-23T1700,1378A,112.867,23.185,佛山市,三水云东海,,,63,109,35,73,186,,181,181,24,56,7,8,,0.9
2023-11-23T1700,3625A,113.2544,22.7642,佛山市,容桂街道办,臭氧1小时,129,75,90,41,47,257,,188,188,31,66,5,5,0.8,1
2023-11-23T1700,1282A,119.2681,26.0504,福州市,师大,颗粒物(PM10),54,57,41,19,21,110,,93,93,24,24,8,7,0.4,0.6
2023-11-23T1700,1283A,119.2984,26.1028,福州市,五四北路,颗粒物(PM10),51,52,53,24,24,107,,92,92,26,30,4,4,0.5,0.5
2023-11-23T1700,1284A,119.2648,26.0768,福州市,杨桥西路,颗粒物(PM10),55,59,44,23,22,114,,93,93,21,27,4,4,0.6,0.5
2023-11-23T1700,1285A,119.317,26.0746,福州市,紫阳,,47,47,43,16,22,103,,89,89,21,28,7,6,0.6,0.5
2023-11-23T1700,3048A,119.5799,26.0936,福州市,九龙,,32,24,25,10,11,100,,90,90,12,17,5,4,0.7,0.5
2023-11-23T1700,3526A,119.5189,25.9664,福州市,吴航,,,15,41,9,19,88,,81,81,6,26,3,4,,0.7
2023-11-23T1700,1755A,123.7977,41.8491,抚顺市,望花区,,23,23,33,8,28,61,,59,59,7,10,6,8,0.3,0.3
2023-11-23T1700,1756A,123.9161,41.8822,抚顺市,顺城区,,38,38,41,9,24,52,,52,52,12,12,4,5,0.5,0.6
2023-11-23T1700,1757A,124.0436,41.8611,抚顺市,东洲区,,21,21,38,9,25,57,,56,56,10,11,8,8,0.4,0.5
2023-11-23T1700,1758A,123.9247,41.8642,抚顺市,新抚区,,,,36,,25,,,54,54,12,14,5,6,,0.2
2023-11-23T1700,1759A,124.0972,41.8961,抚顺市,大伙房水库,,42,42,42,6,22,61,,57,57,5,10,6,6,0.4,0.5
2023-11-23T1700,1760A,123.7086,41.8391,抚顺市,沈抚新城,,27,27,34,7,18,57,,55,55,8,12,5,6,0.3,0.4
2023-11-23T1700,2376A,116.2127,28.0814,抚州市,桐源党溪,,45,45,46,24,26,124,,95,95,5,20,4,4,0.9,0.8
2023-11-23T1700,2377A,116.3544,27.9831,抚州市,市站,颗粒物(PM10),53,56,66,30,38,119,,91,91,12,39,6,6,0.9,1
2023-11-23T1700,2378A,116.3565,27.963,抚州市,血防站,颗粒物(PM10),53,55,65,29,33,119,,90,90,10,36,7,8,0.7,0.9
2023-11-23T1700,2379A,116.3564,28.0007,抚州市,采茶剧团,,46,46,61,22,34,120,,102,102,15,43,7,7,0.8,1.1
2023-11-23T1700,2380A,116.385,27.9647,抚州市,医学分院,,50,50,59,27,29,127,,100,100,9,37,11,12,0.9,1
2023-11-23T1700,2207A,121.6094,41.998,阜新市,工业园区,颗粒物(PM10),54,57,38,4,11,57,,62,61,12,16,7,7,0.3,0.4
2023-11-23T1700,2208A,121.6697,42.0279,阜新市,长青街,,,30,26,4,12,54,,60,59,,13,6,6,0.4,0.6
2023-11-23T1700,2209A,121.6673,42.0705,阜新市,农业园区,,20,20,17,7,11,55,,58,58,10,12,7,6,0.4,0.4
2023-11-23T1700,2210A,121.6717,42.0224,阜新市,东苑,,42,42,21,1,8,56,,59,59,9,13,6,6,0.4,0.4
2023-11-23T1700,2211A,121.6506,42.0498,阜新市,玉龙新城,,26,26,21,2,7,57,,62,61,10,15,4,5,0.4,0.4
2023-11-23T1700,2301A,115.8277,32.8929,阜阳市,市监测站,颗粒物(PM10),63,75,150,14,81,73,,72,72,19,49,6,10,0.3,0.8
2023-11-23T1700,2303A,115.8554,32.8605,阜阳市,开发区,颗粒物(PM10),77,103,184,19,70,73,,74,74,22,55,9,12,0.5,0.7
2023-11-23T1700,2875A,115.784,32.8892,阜阳市,阜阳职业技术学院,颗粒物(PM10),75,100,171,24,81,78,,74,74,16,57,5,8,0.4,0.7
2023-11-23T1700,3468A,115.7901,32.8613,阜阳市,市规划展馆,颗粒物(PM10),63,76,153,14,75,77,,77,77,18,39,4,8,0.3,0.7
2023-11-23T1700,3469A,115.836,32.9183,阜阳市,枣园社区,颗粒物(PM10),62,73,142,12,72,75,,74,74,21,51,5,9,0.3,0.7
2023-11-23T1700,2669A,102.9099,34.9841,甘南州,州政府,,28,12,62,10,32,87,,68,68,3,30,9,16,0.1,0.8
2023-11-23T1700,3380A,102.8914,34.9617,甘南州,甘肃民族师范学院,,30,4,50,3,21,94,,84,84,11,41,4,8,0.2,0.6
2023-11-23T1700,2570A,101.9603,30.0475,甘孜藏族自治州,水桥子,,27,17,23,1,9,86,,53,53,3,29,8,9,0.2,0.3
2023-11-23T1700,3065A,101.9533,29.9972,甘孜藏族自治州,州环保局,,26,19,21,1,5,82,,64,64,12,17,7,7,0.2,0.2
2023-11-23T1700,3414A,115.8347,28.932,赣江新区,桑海产业园,颗粒物(PM10),71,92,72,39,35,134,,111,111,23,54,10,8,0.9,0.7
2023-11-23T1700,2363A,114.9367,25.8664,赣州市,地委,细颗粒物(PM2.5),59,62,80,42,38,107,,116,116,12,40,12,18,0.8,0.9
2023-11-23T1700,2364A,114.9461,25.8481,赣州市,气象台,,50,40,68,35,38,97,,111,111,17,55,12,16,0.8,1
2023-11-23T1700,2365A,114.9322,25.8333,赣州市,市图书馆,,48,46,80,33,39,107,,107,107,14,57,12,16,1.0,1.2
2023-11-23T1700,2366A,114.8905,25.8471,赣州市,华坚鞋城,颗粒物(PM10),56,62,94,34,47,94,,107,107,22,58,13,23,0.6,1.1
2023-11-23T1700,3109A,115.0093,25.8613,赣州市,赣县区卫计委,颗粒物(PM10),58,65,62,37,36,116,,92,92,17,38,11,10,0.8,0.9
2023-11-23T1700,2684A,106.2792,36.0022,固原市,监测站,颗粒物(PM10),76,102,137,25,32,70,,64,64,15,17,4,4,0.5,0.5
2023-11-23T1700,2685A,106.2375,36.0211,固原市,新区,颗粒物(PM10),76,102,127,26,30,58,,56,56,15,14,4,4,0.3,0.3
2023-11-23T1700,3522A,106.2177,35.9959,固原市,原州区十五小,颗粒物(PM10),81,111,136,32,36,62,,60,60,16,14,4,3,0.8,0.5
2023-11-23T1700,2544A,106.6303,30.4576,广安市,市委,细颗粒物(PM2.5),124,121,125,94,101,79,,52,52,16,32,11,11,0.8,1.1
2023-11-23T1700,2545A,106.6271,30.4663,广安市,友谊中学,细颗粒物(PM2.5),134,129,118,102,92,68,,46,46,27,39,,9,0.9,1.1
2023-11-23T1700,2547A,106.6388,30.4551,广安市,广电花园,细颗粒物(PM2.5),133,122,117,101,99,75,,49,49,25,35,11,10,0.8,1
2023-11-23T1700,2902A,106.6351,30.4865,广安市,北辰小学,细颗粒物(PM2.5),130,128,116,99,87,76,,53,53,22,27,12,10,0.6,0.7
2023-11-23T1700,2523A,105.8945,32.4535,广元市,黑石坡,颗粒物(PM10),51,51,52,10,28,102,,84,84,18,16,10,8,0.4,0.5
2023-11-23T1700,2524A,105.821,32.4444,广元市,老城,颗粒物(PM10),67,84,78,25,35,84,,70,70,21,39,6,5,0.6,0.7
2023-11-23T1700,2526A,105.8628,32.4287,广元市,监测站,颗粒物(PM10),57,63,64,32,37,83,,73,73,26,22,18,8,0.7,0.6
2023-11-23T1700,3617A,105.8047,32.4166,广元市,经开区,颗粒物(PM10),66,81,79,42,57,92,,60,60,17,39,4,11,0.4,0.6
2023-11-23T1700,1345A,113.2347,23.1423,广州市,广雅中学,臭氧1小时,92,75,120,36,60,193,,154,154,36,101,5,6,0.8,1.2
2023-11-23T1700,1346A,113.2612,23.105,广州市,市五中,臭氧1小时,106,59,101,35,61,212,,182,182,26,89,8,8,0.6,1
2023-11-23T1700,1348A,113.3478,23.0916,广州市,广东商学院,臭氧1小时,95,55,99,35,55,196,,169,169,26,84,6,6,0.6,0.9
2023-11-23T1700,1349A,113.4332,23.1047,广州市,市八十六中,臭氧1小时,98,59,110,28,53,198,,164,164,22,91,5,6,0.3,0.7
2023-11-23T1700,1350A,113.3505,22.9483,广州市,番禺中学,臭氧1小时,151,105,107,49,63,301,,200,200,42,80,7,8,0.8,1.1
2023-11-23T1700,1351A,113.2146,23.3916,广州市,花都师范,臭氧1小时,82,51,100,28,53,185,,162,162,20,81,7,7,0.6,0.8
2023-11-23T1700,1352A,113.2597,23.1331,广州市,市监测站,臭氧1小时,103,64,104,34,57,205,,177,177,35,99,5,5,0.6,1
2023-11-23T1700,1353A,113.5618,23.312,广州市,九龙镇镇龙,臭氧1小时,87,64,91,37,44,189,,149,149,16,53,7,6,0.7,0.7
2023-11-23T1700,1354A,113.2765,23.1544,广州市,麓湖,臭氧1小时,78,55,102,34,47,182,,167,167,26,79,5,5,0.6,0.8
2023-11-23T1700,1355A,113.443,23.3035,广州市,帽峰山森林公园,臭氧1小时,106,62,56,40,37,212,,185,185,17,25,9,10,0.6,0.6
2023-11-23T1700,2846A,113.3221,23.1322,广州市,体育西,臭氧1小时,95,51,93,28,51,196,,189,189,20,80,7,7,0.6,0.9
2023-11-23T1700,3298A,113.5717,23.5491,广州市,从化街口,,,63,72,42,47,188,,164,164,25,45,,5,0.7,0.9
2023-11-23T1700,3299A,113.3472,23.3692,广州市,白云竹料,臭氧1小时,94,64,96,32,51,195,,168,168,20,61,7,6,0.8,1
2023-11-23T1700,3300A,113.2981,23.237,广州市,白云嘉禾,臭氧1小时,83,62,117,35,58,186,,171,171,43,92,7,8,0.8,1
2023-11-23T1700,3301A,113.4256,23.1716,广州市,黄埔科学城,臭氧1小时,68,48,78,32,48,174,,172,172,18,61,6,6,0.6,0.8
2023-11-23T1700,3302A,113.3942,23.0483,广州市,番禺大学城,臭氧1小时,124,89,127,36,48,248,,221,221,32,85,7,11,0.6,0.8
2023-11-23T1700,3303A,113.4922,22.8168,广州市,南沙黄阁,臭氧1小时,122,109,91,62,49,243,,209,209,47,67,10,7,0.8,0.8
2023-11-23T1700,3304A,113.5342,22.7896,广州市,南沙街,臭氧1小时,120,83,67,43,40,239,,211,211,,47,10,6,,0.7
2023-11-23T1700,3443A,113.2902,23.5544,广州市,花都梯面,臭氧1小时,64,56,62,34,40,171,,165,165,26,49,9,6,0.5,0.6
2023-11-23T1700,3445A,113.7858,23.7478,广州市,从化良口,细颗粒物(PM2.5),60,51,38,43,28,149,,154,154,16,22,4,3,0.6,0.6
2023-11-23T1700,3446A,113.8051,23.2614,广州市,增城荔城,臭氧1小时,53,48,56,29,33,162,,147,147,13,23,6,6,0.5,0.6
2023-11-23T1700,2505A,109.568,23.1478,贵港市,德智高中,细颗粒物(PM2.5),67,62,75,48,52,111,,104,104,15,40,7,6,0.6,0.7
2023-11-23T1700,2506A,109.6047,23.0666,贵港市,江南子站,颗粒物(PM10),64,78,133,40,69,116,,102,102,22,44,10,9,0.7,1
2023-11-23T1700,2507A,109.6014,23.0948,贵港市,贵城子站,细颗粒物(PM2.5),67,50,87,48,66,111,,108,108,22,46,11,10,0.5,0.8
2023-11-23T1700,2508A,109.5669,23.1065,贵港市,荷城子站,"颗粒物(PM10),细颗粒物(PM2.5)",64,78,100,46,53,112,,107,107,15,41,12,10,0.7,1.1
2023-11-23T1700,3405A,109.5886,23.1172,贵港市,新世纪学校,颗粒物(PM10),69,88,86,45,47,109,,103,103,18,38,11,9,0.8,0.9
2023-11-23T1700,1439A,106.6899,26.5998,贵阳市,马鞍山,细颗粒物(PM2.5),73,61,71,53,61,70,,58,58,16,20,8,5,0.9,1
2023-11-23T1700,1440A,106.6971,26.5694,贵阳市,市环保站,细颗粒物(PM2.5),89,75,79,66,75,67,,54,54,24,39,15,12,0.5,0.8
2023-11-23T1700,1441A,106.6243,26.6266,贵阳市,鉴湖路,,,,76,,53,31,,35,35,34,33,6,5,0.6,1
2023-11-23T1700,1442A,106.7487,26.6343,贵阳市,燕子冲,,,,68,,58,71,,52,52,12,19,11,8,,0.8
2023-11-23T1700,1443A,106.6555,26.4365,贵阳市,碧云窝,细颗粒物(PM2.5),79,85,93,58,67,55,,56,56,28,25,16,11,1.0,1
2023-11-23T1700,1444A,106.694,26.5161,贵阳市,中院村,细颗粒物(PM2.5),79,73,95,58,68,58,,46,46,22,39,16,20,0.7,1
2023-11-23T1700,1445A,106.7109,26.6027,贵阳市,红边门,细颗粒物(PM2.5),92,70,75,68,62,52,,46,46,31,31,12,11,0.7,0.8
2023-11-23T1700,1446A,106.7164,26.5699,贵阳市,新华路,细颗粒物(PM2.5),89,68,74,66,63,68,,60,60,19,37,11,13,0.8,1
2023-11-23T1700,1447A,106.674,26.5424,贵阳市,太慈桥,细颗粒物(PM2.5),77,73,66,56,51,61,,49,49,25,28,10,5,0.7,0.8
2023-11-23T1700,1862A,110.4144,25.3167,桂林市,电子科大尧山校区,颗粒物(PM10),56,62,57,38,36,125,,96,96,7,8,25,16,0.5,0.4
2023-11-23T1700,1863A,110.2819,25.2697,桂林市,监测站,细颗粒物(PM2.5),98,92,89,73,60,66,,58,58,30,44,14,16,0.8,1
2023-11-23T1700,1864A,110.3089,25.2708,桂林市,龙隐路小学,细颗粒物(PM2.5),89,105,76,66,56,67,,58,58,30,34,16,35,0.7,0.7
2023-11-23T1700,1865A,110.2869,25.2178,桂林市,八中,细颗粒物(PM2.5),87,92,77,64,48,60,,50,50,32,38,16,16,0.8,0.8
2023-11-23T1700,3403A,110.1764,25.2381,桂林市,创业大厦,,,,81,,52,59,,42,42,34,46,,24,0.6,0.7
2023-11-23T1700,3531A,110.296,25.1253,桂林市,旅游学院,细颗粒物(PM2.5),67,73,67,48,48,86,,54,54,18,30,17,14,0.5,0.6
2023-11-23T1700,2674A,100.2561,34.4714,果洛藏族自治州,玛沁县大武镇,,28,15,31,7,16,88,,74,74,8,15,9,16,0.4,0.6
2023-11-23T1700,1129A,126.5422,45.755,哈尔滨市,岭北,,,15,8,6,4,,,125,123,8,7,4,6,,0
2023-11-23T1700,1130A,126.561,45.8167,哈尔滨市,松北商大,,,,11,18,8,51,,60,,19,14,4,5,0.4,0.4
2023-11-23T1700,1131A,126.979,45.5419,哈尔滨市,阿城会宁,,39,39,16,23,9,28,,59,56,44,14,51,13,2.1,0.8
2023-11-23T1700,1132A,126.599,45.7222,哈尔滨市,南岗学府路,,,25,22,,2,52,,61,60,19,15,5,6,0.5,0.4
2023-11-23T1700,1133A,126.689,45.7733,哈尔滨市,太平宏伟公园,,17,16,12,8,7,53,,63,61,14,9,5,5,0.2,0.2
2023-11-23T1700,1134A,126.635,45.7667,哈尔滨市,道外承德广场,,21,21,16,8,7,56,,62,60,14,16,3,4,0.5,0.5
2023-11-23T1700,1135A,126.685,45.7319,哈尔滨市,香坊红旗大街,,16,10,18,6,3,49,,61,59,28,22,12,6,0.3,0.5
2023-11-23T1700,1136A,126.6411,45.7258,哈尔滨市,动力和平路,,17,11,14,8,6,50,,58,58,34,21,13,7,0.4,0.4
2023-11-23T1700,1137A,126.593,45.7478,哈尔滨市,道里建国路,,20,20,11,8,7,54,,63,62,20,15,14,8,0.1,0.1
2023-11-23T1700,1138A,126.615,45.61,哈尔滨市,平房东轻厂,,,,14,,11,43,,55,54,28,23,8,8,0.4,0.3
2023-11-23T1700,1139A,126.595,45.9855,哈尔滨市,呼兰师专,,26,20,18,18,7,63,,72,69,12,7,4,4,0.5,0.4
2023-11-23T1700,1140A,126.6206,45.6842,哈尔滨市,省农科院,,16,12,19,8,7,50,,61,60,25,19,9,10,0.5,0.5
2023-11-23T1700,2688A,93.5128,42.8172,哈密地区,地区监测站,,49,49,51,11,18,57,,50,50,12,33,3,6,0.3,0.6
2023-11-23T1700,2689A,93.4961,42.8328,哈密地区,哈密师范学校,,47,47,56,18,18,55,,46,46,12,33,4,7,0.8,0.6
2023-11-23T1700,2671A,100.9048,36.9639,海北藏族自治州,海晏县西海镇,,30,12,32,11,11,94,,83,83,2,5,8,8,0.5,0.5
2023-11-23T1700,3867A,102.0738,36.5056,海东地区,平安区公安北苑,,,,142,11,41,74,,54,54,,24,12,19,0.4,0.7
2023-11-23T1700,1410A,110.3232,20.0574,海口市,海南大学,,46,32,31,16,11,147,,135,135,7,11,7,6,0.4,0.4
2023-11-23T1700,1411A,110.283,20.0053,海口市,秀英海南医院,,46,37,29,18,13,146,,133,133,10,9,7,6,0.3,0.3
2023-11-23T1700,1412A,110.338,19.9969,海口市,海南师范大学,颗粒物(PM10),53,56,40,21,15,144,,128,128,9,12,6,6,0.4,0.4
2023-11-23T1700,1413A,110.33,20.0356,海口市,龙华路环保局宿舍,,46,34,30,18,14,146,,134,134,9,9,8,8,0.3,0.3
2023-11-23T1700,3539A,110.5111,19.9736,海口市,桂林洋子站,,44,32,26,15,12,139,,124,124,11,9,4,5,0.3,0.3
2023-11-23T1700,2673A,100.6188,36.2866,海南藏族自治州,共和县恰卜恰镇,,28,,30,19,13,87,,80,80,17,25,7,6,0.5,0.9
2023-11-23T1700,2676A,97.3731,37.3753,海西蒙古族藏族自治州,德令哈市,,29,16,36,13,11,91,,77,77,7,16,15,12,0.4,0.5
2023-11-23T1700,1048A,114.5302,36.6116,邯郸市,东污水处理厂,,38,38,145,14,82,53,,64,58,18,34,3,4,0.3,0.8
2023-11-23T1700,1049A,114.4918,36.5713,邯郸市,矿院,,30,30,122,2,79,56,,63,58,14,34,1,4,0.1,0.6
2023-11-23T1700,1050A,114.484,36.6133,邯郸市,丛台公园,,40,40,133,4,72,64,,66,60,13,41,1,4,0.4,1
2023-11-23T1700,3458A,114.7895,36.5593,邯郸市,香泉濮院小区,,42,42,143,6,63,64,,65,65,11,20,6,10,0,0.3
2023-11-23T1700,3579A,114.50634,36.77178,邯郸市,永年区实验高中,颗粒物(PM10),52,53,141,12,69,55,,68,61,14,31,6,6,0.1,0.4
2023-11-23T1700,3580A,114.20016,36.44293,邯郸市,峰峰矿区临水派出所,颗粒物(PM10),53,56,121,1,62,58,,72,63,9,11,3,7,0.1,0.5
2023-11-23T1700,2634A,106.9893,33.1842,汉中市,汉川机床厂子校,颗粒物(PM10),70,89,64,28,27,103,,77,77,12,15,9,9,0.5,0.6
2023-11-23T1700,2635A,107.0154,33.0706,汉中市,市监测站,,,,86,,52,90,,58,58,18,41,,14,0.8,1.3
2023-11-23T1700,2636A,107.0089,33.1138,汉中市,鑫源开发区,颗粒物(PM10),64,77,87,26,41,97,,68,68,14,41,11,25,0.5,1
2023-11-23T1700,2637A,107.007,33.0323,汉中市,南郑大河坎水厂,颗粒物(PM10),60,70,82,23,48,99,,69,69,16,29,9,8,0.5,0.9
2023-11-23T1700,1223A,120.2072,30.2111,杭州市,滨江,细颗粒物(PM2.5),125,136,89,95,46,153,,111,111,23,60,14,9,1.0,1
2023-11-23T1700,1224A,120.0633,30.2747,杭州市,西溪,细颗粒物(PM2.5),129,142,67,98,47,155,,120,120,29,34,14,7,0.8,0.7
2023-11-23T1700,1226A,120.3461,30.3153,杭州市,下沙,细颗粒物(PM2.5),133,169,100,101,61,148,,115,115,32,86,15,12,0.9,0.9
2023-11-23T1700,1227A,120.1269,30.2456,杭州市,卧龙桥,细颗粒物(PM2.5),95,124,61,71,41,153,,132,132,25,32,16,8,0.8,0.7
2023-11-23T1700,1228A,120.1903,30.2692,杭州市,浙江农大,细颗粒物(PM2.5),117,131,76,88,50,140,,120,120,27,63,14,8,0.8,0.9
2023-11-23T1700,1230A,120.1197,30.3119,杭州市,和睦小学,细颗粒物(PM2.5),113,143,92,85,57,119,,92,92,48,69,16,11,0.5,0.6
2023-11-23T1700,1231A,120.3019,30.4183,杭州市,临平镇,细颗粒物(PM2.5),137,149,106,104,55,137,,114,114,25,74,13,9,0.9,0.9
2023-11-23T1700,1232A,120.2697,30.1819,杭州市,城厢镇,细颗粒物(PM2.5),104,127,87,78,56,147,,108,108,28,68,12,8,1.1,1
2023-11-23T1700,1233A,120.0883,30.1808,杭州市,云栖,细颗粒物(PM2.5),110,112,59,83,38,149,,109,109,22,36,12,7,,0.7
2023-11-23T1700,3557A,119.9464,30.0494,杭州市,镇二中,颗粒物(PM10),80,110,64,58,43,143,,100,100,28,52,11,7,0.7,0.7
2023-11-23T1700,3558A,119.7183,30.2367,杭州市,市府大楼,细颗粒物(PM2.5),83,106,73,61,44,151,,110,110,19,44,11,7,0.8,0.7
2023-11-23T1700,3656A,120.1556,30.2864,杭州市,消防大队,细颗粒物(PM2.5),130,141,80,99,51,146,,114,114,31,62,15,11,0.8,0.8
2023-11-23T1700,1270A,117.1959,31.7848,合肥市,明珠广场,颗粒物(PM10),84,117,128,17,56,69,,71,71,24,67,7,20,0.2,0.6
2023-11-23T1700,1271A,117.3072,31.8764,合肥市,三里街,颗粒物(PM10),95,139,147,31,66,66,,64,64,25,68,7,8,0.3,1
2023-11-23T1700,1272A,117.2588,31.8707,合肥市,琥珀山庄,颗粒物(PM10),98,146,129,27,61,72,,72,72,15,54,6,6,0.4,1.1
2023-11-23T1700,1273A,117.1604,31.9052,合肥市,董铺水库,,,150,117,22,40,,,94,94,8,44,5,4,0.3,0.5
2023-11-23T1700,1274A,117.25,31.8571,合肥市,长江中路,颗粒物(PM10),98,146,134,28,66,67,,68,68,19,58,10,11,0.3,0.9
2023-11-23T1700,1275A,117.266,31.9436,合肥市,庐阳区,颗粒物(PM10),97,144,131,27,56,68,,70,70,21,59,5,7,0.5,0.8
2023-11-23T1700,1276A,117.336,31.8586,合肥市,瑶海区,颗粒物(PM10),111,171,173,36,73,63,,64,64,28,76,5,7,0.2,0.9
2023-11-23T1700,1277A,117.3027,31.7964,合肥市,包河区,颗粒物(PM10),104,158,130,41,63,63,,73,73,29,80,6,13,,1
2023-11-23T1700,1278A,117.2776,31.7385,合肥市,滨湖新区,颗粒物(PM10),103,156,153,34,61,65,,66,66,24,73,6,9,0.5,0.9
2023-11-23T1700,1279A,117.1318,31.8403,合肥市,高新区,,,144,117,26,48,,,70,70,27,60,7,10,0.2,0.7
2023-11-23T1700,3464A,117.3803,31.9147,合肥市,高教基地,,,,123,27,54,72,,73,73,21,62,5,6,0.3,0.6
2023-11-23T1700,3614A,79.924,37.0877,和田地区,地区环保局,颗粒物(PM10),73,95,152,27,49,96,,79,79,11,36,6,14,0.6,1
2023-11-23T1700,3615A,79.9131,37.113,和田地区,市环保局,颗粒物(PM10),77,103,138,43,53,96,,77,77,7,38,6,10,0.2,1.1
2023-11-23T1700,2516A,108.2011,24.715,河池市,东仁乐园,细颗粒物(PM2.5),72,83,87,52,52,82,,52,52,6,17,9,5,0.8,0.8
2023-11-23T1700,2517A,108.0497,24.6947,河池市,市环保站,,,77,98,43,60,98,,70,70,20,35,13,11,,1
2023-11-23T1700,2518A,108.0983,24.6989,河池市,市疾控中心,细颗粒物(PM2.5),68,74,120,49,64,103,,70,70,21,41,11,9,0.7,0.8
2023-11-23T1700,1696A,114.6778,23.7569,河源市,源西,颗粒物(PM10),55,59,58,24,51,129,,106,106,25,44,5,5,0.7,0.8
2023-11-23T1700,1697A,114.6944,23.7586,河源市,东埔,,45,44,65,24,32,143,,112,112,16,43,8,7,0.6,0.8
2023-11-23T1700,1698A,114.6892,23.7233,河源市,老城,颗粒物(PM10),52,54,53,34,33,154,,115,115,10,25,7,6,0.5,0.5
2023-11-23T1700,1718A,115.4208,35.2464,菏泽市,气象局,颗粒物(PM10),76,101,193,13,85,66,,72,72,11,47,3,4,0,0.7
2023-11-23T1700,1719A,115.4747,35.2375,菏泽市,市政协,,,94,201,8,83,64,,68,68,18,51,3,4,,1.1
2023-11-23T1700,3374A,115.5564,35.0891,菏泽市,定陶老年大学,颗粒物(PM10),63,75,165,7,85,62,,66,66,21,42,4,5,0.2,0.8
2023-11-23T1700,3647A,115.4702,35.2706,菏泽市,菏泽医专,颗粒物(PM10),68,86,173,7,86,68,,73,73,19,48,1,7,0.3,0.8
2023-11-23T1700,2514A,111.5264,24.4172,贺州市,环保小区,颗粒物(PM10),57,64,75,38,46,92,,82,82,30,35,8,7,0.6,0.8
2023-11-23T1700,2515A,111.5608,24.4078,贺州市,政协大楼,颗粒物(PM10),58,65,75,35,43,102,,76,76,19,38,8,8,0.5,0.6
2023-11-23T1700,3534A,111.4744,24.4553,贺州市,西湾,,50,,69,35,46,101,,81,81,16,28,8,7,0.6,0.8
2023-11-23T1700,2385A,114.17,35.9019,鹤壁市,市监测站,颗粒物(PM10),60,69,154,15,91,55,,71,68,23,44,6,6,0.4,0.7
2023-11-23T1700,2386A,114.2956,35.7511,鹤壁市,市交警支队,颗粒物(PM10),52,53,163,6,110,59,,72,69,28,49,1,4,0.2,0.7
2023-11-23T1700,2387A,114.2878,35.7306,鹤壁市,迎宾馆,,49,49,143,13,100,60,,71,70,30,46,4,8,0.5,1
2023-11-23T1700,3474A,114.2617,35.6822,鹤壁市,大新区,颗粒物(PM10),57,63,135,6,90,59,,71,69,23,39,5,6,0.3,0.8
2023-11-23T1700,3596A,114.1572,35.9603,鹤壁市,南山宾馆,,,,141,12,93,60,,83,73,,29,5,11,,0.4
2023-11-23T1700,2244A,130.2537,47.3416,鹤岗市,哈啤分公司,,21,17,15,14,10,65,,68,67,4,3,12,11,0.3,0.3
2023-11-23T1700,2245A,130.2684,47.3086,鹤岗市,斯达机电,,28,21,19,19,12,65,,67,66,5,5,9,8,0.2,0.2
2023-11-23T1700,2246A,130.3114,47.3388,鹤岗市,东山纸板厂,颗粒物(PM10),67,83,40,9,15,63,,66,63,2,5,12,13,0.2,0.3
2023-11-23T1700,2247A,130.1097,47.3382,鹤岗市,五号水库,,22,19,16,13,8,70,,71,70,3,4,10,10,0.5,0.4
2023-11-23T1700,2263A,127.4833,50.2524,黑河市,交通局,,20,14,13,11,14,62,,63,63,5,2,7,6,0.5,0.4
2023-11-23T1700,2264A,127.5144,50.2341,黑河市,环保局,,25,,15,17,13,59,,59,58,9,7,2,6,0.3,0.3
2023-11-23T1700,2265A,127.5291,50.2472,黑河市,大黑河岛,,,20,16,4,6,,,,,2,2,1,6,,
2023-11-23T1700,1074A,115.6838,37.7541,衡水市,电机北厂,,,,127,8,35,63,,66,66,4,15,4,5,0.2,0.3
2023-11-23T1700,1075A,115.6303,37.7316,衡水市,市监测站,,20,19,95,2,29,62,,48,48,9,32,5,7,0.0,0.2
2023-11-23T1700,3188A,115.6683,37.7217,衡水市,市城管局,,21,21,100,12,34,64,,64,64,10,21,4,6,0.3,0.4
2023-11-23T1700,3459A,115.5989,37.5491,衡水市,地表水厂,,28,28,104,5,29,70,,71,71,2,22,3,5,0.3,0.4
2023-11-23T1700,2456A,112.5003,26.9167,衡阳市,原169医院,颗粒物(PM10),61,71,77,41,45,120,,95,95,11,36,9,11,0.7,0.8
2023-11-23T1700,2457A,112.6194,26.9258,衡阳市,衡阳化工总厂,细颗粒物(PM2.5),95,88,84,71,68,133,,101,101,13,32,9,9,0.7,0.8
2023-11-23T1700,2458A,112.6211,26.8956,衡阳市,珠晖区环保局,细颗粒物(PM2.5),84,68,94,62,70,125,,103,103,16,41,12,13,0.8,1
2023-11-23T1700,2459A,112.6197,26.8733,衡阳市,市委党校,细颗粒物(PM2.5),79,92,100,58,65,139,,107,107,9,36,12,14,0.8,1
2023-11-23T1700,2460A,112.6006,26.8919,衡阳市,市监测站,细颗粒物(PM2.5),67,80,101,48,68,128,,96,96,15,45,10,11,0.7,1.1
2023-11-23T1700,2461A,112.5664,26.9056,衡阳市,真空机电公司,,,,87,,59,135,,94,94,15,47,,12,0.9,1.1
2023-11-23T1700,3399A,112.6703,26.882,衡阳市,师范学院,细颗粒物(PM2.5),70,63,90,51,66,137,,101,101,12,34,11,12,0.9,1.1
2023-11-23T1700,2608A,103.3772,23.3993,红河州,污水处理厂,,32,29,40,22,38,87,,80,80,5,9,4,10,0.5,0.6
2023-11-23T1700,2609A,103.3861,23.35,红河州,监测站,,38,38,45,26,35,87,,80,80,8,10,8,8,0.7,0.8
2023-11-23T1700,3038A,103.3758,23.368,红河州,州图书馆,,30,30,43,19,34,81,,71,71,6,8,6,6,0.6,0.6
2023-11-23T1700,1090A,111.6507,40.7517,呼和浩特市,呼市一监,,27,27,32,9,6,63,,61,61,8,6,11,7,0.3,0.3
2023-11-23T1700,1091A,111.6572,40.8033,呼和浩特市,小召,,31,31,36,7,6,59,,63,61,14,8,8,7,0.3,0.2
2023-11-23T1700,1094A,111.7516,40.8369,呼和浩特市,如意水处理厂,,25,25,35,8,7,54,,55,54,14,10,9,8,0.2,0.2
2023-11-23T1700,1095A,111.7276,40.8062,呼和浩特市,二十九中,,22,22,46,10,7,56,,56,55,12,10,10,8,0.4,0.4
2023-11-23T1700,1096A,111.5512,40.7866,呼和浩特市,工大金川校区,,,35,36,6,5,,,56,56,7,8,7,7,0.3,0.4
2023-11-23T1700,1097A,111.717,40.7612,呼和浩特市,化肥厂生活区,,34,34,43,10,7,58,,60,58,11,4,8,7,0.2,0.2
2023-11-23T1700,3698A,111.5968,40.8178,呼和浩特市,红旗小学,,39,39,46,8,6,54,,58,57,16,8,8,8,0.3,0.3
2023-11-23T1700,3699A,111.6518,40.8389,呼和浩特市,海东办,,24,24,48,8,7,56,,58,58,14,11,8,9,0.4,0.3
2023-11-23T1700,2192A,119.7594,49.2261,呼伦贝尔市,区环保局,,,22,24,13,16,59,,66,64,,11,4,4,0.3,0.3
2023-11-23T1700,3061A,119.7512,49.1577,呼伦贝尔市,国华电力东,,30,30,20,18,12,62,,72,72,6,6,3,4,0.2,0.2
2023-11-23T1700,1250A,120.0751,30.8669,湖州市,城西水厂,细颗粒物(PM2.5),235,263,94,185,51,139,,100,100,42,84,11,10,1.0,0.8
2023-11-23T1700,2873A,120.0875,30.8955,湖州市,仁皇山新区,细颗粒物(PM2.5),172,201,102,130,60,148,,119,119,32,66,11,14,1.0,0.9
2023-11-23T1700,2907A,120.1844,30.8596,湖州市,吴兴区站,细颗粒物(PM2.5),172,244,108,130,61,140,,109,109,40,75,9,11,1.0,0.7
2023-11-23T1700,3562A,120.4148,30.8538,湖州市,南浔区站,细颗粒物(PM2.5),231,267,127,181,77,140,,112,112,31,72,12,11,1.0,0.8
2023-11-23T1700,1607A,120.9092,40.7136,葫芦岛市,龙港区,颗粒物(PM10),72,93,73,9,38,59,,58,58,13,31,8,42,0.5,0.9
2023-11-23T1700,1608A,120.8392,40.7514,葫芦岛市,化工街,颗粒物(PM10),78,105,70,9,26,54,,59,59,11,16,9,12,0.2,0.4
2023-11-23T1700,1609A,120.8341,40.7073,葫芦岛市,新区,颗粒物(PM10),63,76,61,7,27,58,,63,63,24,32,8,12,0.4,0.6
2023-11-23T1700,1610A,120.8695,40.7677,葫芦岛市,东城区,,48,48,57,6,28,64,,64,64,3,16,10,17,0.5,0.7
2023-11-23T1700,2482A,109.5981,27.5721,怀化市,林科所,细颗粒物(PM2.5),54,55,60,38,40,43,,58,57,4,4,12,6,1.0,0.9
2023-11-23T1700,2483A,109.9453,27.5444,怀化市,河西地税局,细颗粒物(PM2.5),85,88,66,63,53,18,,46,44,50,25,16,8,0.8,0.6
2023-11-23T1700,2484A,109.9781,27.5342,怀化市,市四医院,细颗粒物(PM2.5),69,57,67,50,57,41,,44,44,29,35,28,28,0.6,0.7
2023-11-23T1700,2485A,109.9972,27.5578,怀化市,监测楼,细颗粒物(PM2.5),77,76,104,56,66,32,,41,41,34,32,35,24,0.9,1
2023-11-23T1700,2486A,110.0394,27.583,怀化市,市委党校,细颗粒物(PM2.5),69,56,73,50,59,49,,47,47,16,27,21,56,0.6,0.7
2023-11-23T1700,1210A,119.036,33.5981,淮安市,钵池山,颗粒物(PM10),65,80,172,16,132,62,,60,60,17,40,6,10,0.2,0.9
2023-11-23T1700,1211A,119.007,33.575,淮安市,北京南路,颗粒物(PM10),76,102,177,26,130,63,,62,62,23,62,5,10,0.4,1
2023-11-23T1700,1212A,118.989,33.6067,淮安市,市监测站,颗粒物(PM10),65,80,189,12,126,65,,62,62,18,55,4,10,0.3,1
2023-11-23T1700,1213A,119.135,33.5039,淮安市,楚州区监测站,颗粒物(PM10),72,93,185,11,122,62,,59,59,17,58,7,9,0.5,1
2023-11-23T1700,1214A,119.0186,33.6297,淮安市,淮阴区监测站,颗粒物(PM10),73,95,207,28,128,62,,62,62,25,54,11,16,0.3,0.8
2023-11-23T1700,3426A,118.8755,33.2894,淮安市,新华书店,颗粒物(PM10),65,80,183,5,97,75,,70,70,15,35,8,11,0.5,1
2023-11-23T1700,2282A,116.8004,33.975,淮北市,监测站,颗粒物(PM10),70,89,207,6,112,69,,66,66,18,33,4,7,0.3,1
2023-11-23T1700,2283A,116.8091,33.9007,淮北市,烈山区政府,颗粒物(PM10),67,84,196,9,119,75,,71,71,17,49,5,8,0.3,0.9
2023-11-23T1700,3330A,116.8873,33.9836,淮北市,杜集区检察院,颗粒物(PM10),72,93,216,16,127,70,,68,68,13,33,5,9,0.2,0.8
2023-11-23T1700,4017A,116.7923,33.9535,淮北市,市博物馆,颗粒物(PM10),73,95,237,6,134,69,,65,65,13,47,5,8,0.3,1.1
2023-11-23T1700,2277A,116.8305,32.7727,淮南市,潘集区政府,颗粒物(PM10),89,128,218,26,127,66,,66,66,23,47,7,12,0.4,0.7
2023-11-23T1700,2278A,117.0067,32.6524,淮南市,师范学院,颗粒物(PM10),83,116,216,30,124,65,,66,66,19,52,10,17,0.5,0.9
2023-11-23T1700,2279A,116.8569,32.5951,淮南市,谢家集区政府,,,,164,,88,74,,78,78,12,35,5,13,,0.6
2023-11-23T1700,2280A,116.8281,32.633,淮南市,八公山区政府,颗粒物(PM10),77,103,161,11,80,66,,71,69,17,23,6,12,0.3,0.7
2023-11-23T1700,2281A,116.6325,32.6201,淮南市,焦岗湖风景区管理处,,,86,180,21,83,64,,62,62,,40,3,2,0.1,0.5
2023-11-23T1700,2894A,117.0566,32.6531,淮南市,经济技术开发区消防队,颗粒物(PM10),89,127,204,32,114,66,,66,66,13,52,5,12,0.3,0.8
2023-11-23T1700,3329A,117.0108,32.5893,淮南市,山南新区,颗粒物(PM10),91,131,207,12,117,72,,72,72,17,51,5,14,0.3,0.8
2023-11-23T1700,2446A,114.9028,30.4742,黄冈市,职工中心,颗粒物(PM10),78,105,92,24,48,97,,87,87,7,28,9,11,0.4,0.7
2023-11-23T1700,2929A,114.8858,30.4519,黄冈市,红卫路,颗粒物(PM10),79,107,89,31,53,94,,88,88,10,34,5,7,0.3,0.6
2023-11-23T1700,3398A,114.9136,30.4445,黄冈市,市林业局,颗粒物(PM10),71,92,81,25,50,93,,81,81,9,33,7,7,0.4,0.7
2023-11-23T1700,2672A,102.0199,35.5102,黄南藏族自治州,同仁县隆务镇,,46,46,49,17,14,78,,76,76,18,10,8,8,0.5,0.3
2023-11-23T1700,2295A,118.2903,29.6963,黄山市,延安路89号,颗粒物(PM10),55,59,42,29,23,139,,110,110,11,16,10,6,0.4,0.3
2023-11-23T1700,2296A,118.327,29.7178,黄山市,黄山东路89号,颗粒物(PM10),66,81,61,42,32,132,,96,96,14,24,9,6,0.6,0.8
2023-11-23T1700,2297A,118.1371,30.2756,黄山市,黄山区政府5号楼,颗粒物(PM10),117,183,72,75,38,118,,109,109,32,20,10,6,0.9,0.7
2023-11-23T1700,2423A,115.0601,30.2313,黄石市,沈家营,,,,102,,53,88,,87,87,22,48,10,8,,1
2023-11-23T1700,2424A,115.0817,30.2006,黄石市,陈家湾,颗粒物(PM10),64,77,90,19,52,82,,76,76,20,39,9,10,0.4,0.8
2023-11-23T1700,2426A,114.8988,30.2019,黄石市,铁山,颗粒物(PM10),74,98,109,26,61,91,,92,92,21,44,11,13,0.9,1.5
2023-11-23T1700,2427A,115.0307,30.2092,黄石市,团城山,颗粒物(PM10),79,107,115,17,55,85,,88,88,23,53,7,9,0.6,1
2023-11-23T1700,3149A,115.0235,30.1578,黄石市,笔架山北路,颗粒物(PM10),65,80,104,12,55,99,,95,95,17,44,6,12,0.5,1.1
2023-11-23T1700,1392A,114.4183,23.0528,惠州市,河南岸金山湖子站,,40,36,69,19,38,128,,114,114,13,34,7,6,0.5,0.6
2023-11-23T1700,1393A,114.4053,23.0822,惠州市,下埔横江三路子站,,43,37,75,18,39,135,,125,125,16,44,9,9,0.6,0.8
2023-11-23T1700,1394A,114.4103,23.1142,惠州市,江北云山西路子站,,45,36,85,20,42,144,,120,120,15,51,10,11,0.6,0.7
2023-11-23T1700,1395A,114.4645,22.7833,惠州市,惠阳区承修路船湖子站,,46,42,56,25,23,146,,129,129,23,36,7,7,0.9,1
2023-11-23T1700,1396A,114.5317,22.7422,惠州市,大亚湾管委会子站,,49,49,54,23,24,155,,127,127,39,53,6,6,0.8,0.8
2023-11-23T1700,3314A,114.4338,22.8134,惠州市,惠阳秋长,颗粒物(PM10),58,66,65,22,31,163,,140,140,6,13,10,9,0.6,0.7
2023-11-23T1700,3452A,114.6517,22.775,惠州市,大亚湾霞涌,细颗粒物(PM2.5),59,44,39,42,21,162,,130,130,30,27,7,6,0.6,0.5
2023-11-23T1700,2240A,130.9762,45.3001,鸡西市,环保局,,19,19,21,4,10,56,,56,56,12,14,5,5,0.2,0.2
2023-11-23T1700,2243A,130.9429,45.3039,鸡西市,第一中学,,20,20,14,2,9,55,,59,59,15,14,10,9,0.0,0
2023-11-23T1700,3707A,131.0207,45.3073,鸡西市,欧美日汽修厂,,18,,17,9,11,56,,60,60,16,9,19,8,0.6,0.3
2023-11-23T1700,3709A,130.9967,45.3106,鸡西市,市政设施管理处,,18,13,20,12,11,57,,64,64,16,12,2,3,0.2,0.2
2023-11-23T1700,2367A,114.9754,27.0803,吉安市,红声器材厂,颗粒物(PM10),57,63,68,36,38,136,,89,89,14,41,19,16,0.9,0.9
2023-11-23T1700,2368A,114.9658,27.0999,吉安市,市森林工业局,颗粒物(PM10),56,61,68,38,41,133,,89,89,14,41,20,16,0.6,0.7
2023-11-23T1700,2369A,114.99,27.1312,吉安市,市环境监测站,颗粒物(PM10),53,56,71,34,40,131,,92,92,19,47,14,13,0.7,0.8
2023-11-23T1700,2370A,115.0093,27.0968,吉安市,青原区法院,颗粒物(PM10),59,67,66,37,39,126,,95,95,25,41,17,15,0.9,0.9
2023-11-23T1700,1772A,126.54,43.8622,吉林市,哈达湾,,22,22,26,8,20,67,,63,63,11,17,6,6,0.4,0.6
2023-11-23T1700,1773A,126.5844,43.8358,吉林市,东局子,,20,19,26,12,22,64,,59,59,16,20,5,5,0.5,0.7
2023-11-23T1700,1774A,126.5052,43.8245,吉林市,电力学院,,25,25,26,12,20,68,,65,65,12,17,9,8,0.5,0.6
2023-11-23T1700,1775A,126.6133,43.8972,吉林市,江北,,27,27,31,10,23,67,,62,62,16,21,9,8,0.4,0.8
2023-11-23T1700,1776A,126.555,43.8306,吉林市,江南公园,,20,17,27,10,23,63,,60,60,15,20,10,9,0.9,0.8
2023-11-23T1700,1778A,126.7061,43.7133,吉林市,丰满,,44,44,27,14,23,63,,61,61,8,11,8,7,0.4,0.6
2023-11-23T1700,2868A,126.4739,43.953,吉林市,九站,,32,32,32,9,20,64,,64,64,20,20,9,6,0.5,0.7
2023-11-23T1700,1299A,116.9862,36.6114,济南市,科干所,颗粒物(PM10),51,51,135,5,50,70,,71,71,10,39,4,8,0.4,0.7
2023-11-23T1700,1300A,116.9376,36.665,济南市,农科所,,44,44,155,2,59,63,,67,67,21,53,4,7,0.3,0.7
2023-11-23T1700,1301A,117.1265,36.6734,济南市,开发区,,49,49,133,5,45,53,,60,60,29,48,6,7,0.4,0.7
2023-11-23T1700,1303A,117.0624,36.6868,济南市,省种子仓库,颗粒物(PM10),53,56,169,5,66,65,,67,67,12,59,4,7,0.3,0.7
2023-11-23T1700,1304A,116.9489,36.6447,济南市,机床二厂,颗粒物(PM10),51,51,177,0,67,64,,69,69,14,52,3,7,0.5,1
2023-11-23T1700,1305A,117.0495,36.663,济南市,市监测站,,,54,142,2,49,,,69,69,,53,,6,,0.7
2023-11-23T1700,1306A,116.7675,36.5484,济南市,长清党校,,46,46,166,2,71,72,,73,73,13,34,5,6,0.6,0.9
2023-11-23T1700,1616A,117.6795,36.229,济南市,技术学院,,,58,174,7,86,,,69,69,12,57,6,8,0.3,0.8
2023-11-23T1700,1961A,117.532,36.6868,济南市,东山小学,,46,46,136,2,51,69,,70,70,16,38,6,7,0.4,0.6
2023-11-23T1700,3059A,117.7161,36.2049,济南市,泰兴公司,颗粒物(PM10),58,66,173,9,86,64,,66,66,25,61,4,7,0.1,0.7
2023-11-23T1700,3064A,117.6867,36.2171,济南市,莱芜战役纪念馆,颗粒物(PM10),59,68,160,5,79,67,,67,67,25,63,6,9,0.2,0.7
2023-11-23T1700,3494A,117.1673,36.9782,济南市,济阳区政府,,46,46,177,5,79,58,,64,64,23,49,1,5,0.2,0.5
2023-11-23T1700,3495A,117.1171,36.63,济南市,锦屏中学,颗粒物(PM10),51,51,108,2,34,69,,71,71,13,20,3,4,0.4,0.5
2023-11-23T1700,3682A,116.9814,36.6819,济南市,济南四建,,46,46,162,7,68,60,,65,65,19,59,5,9,0.2,0.9
2023-11-23T1700,1653A,116.6251,35.4302,济宁市,火炬城,,47,47,138,0,70,63,,63,63,13,45,7,10,0.2,0.7
2023-11-23T1700,1655A,116.5491,35.4042,济宁市,电化厂,颗粒物(PM10),54,57,184,2,82,66,,66,66,20,58,4,8,0.2,0.6
2023-11-23T1700,3500A,116.5814,35.3707,济宁市,北湖一中,,,,159,,81,,,61,61,13,48,5,8,,0.6
2023-11-23T1700,3501A,116.8249,35.5593,济宁市,服务中心,,45,45,174,0,65,63,,63,63,15,45,6,9,0.2,0.7
2023-11-23T1700,3678A,116.5907,35.4054,济宁市,市第七中学,颗粒物(PM10),57,64,152,0,72,66,,65,65,20,50,3,6,0.4,0.8
2023-11-23T1700,2255A,130.2751,46.8028,佳木斯市,佳纺,,19,19,14,6,6,33,,63,59,36,10,7,5,0.5,0.3
2023-11-23T1700,2256A,130.3995,46.8307,佳木斯市,发电厂,,21,13,16,6,4,67,,69,66,5,6,8,7,0.3,0.3
2023-11-23T1700,2257A,130.3258,46.7975,佳木斯市,环保局,,20,20,25,6,4,41,,57,54,29,13,6,4,0.5,0.3
2023-11-23T1700,2258A,130.3648,46.8032,佳木斯市,十一中,,17,16,16,1,3,54,,62,59,12,8,3,3,0.4,0.3
2023-11-23T1700,2259A,130.3794,46.7588,佳木斯市,四丰,,17,17,39,6,6,44,,63,54,21,8,1,3,0.4,0.4
2023-11-23T1700,1252A,120.7436,30.778,嘉兴市,清河小学,细颗粒物(PM2.5),169,188,126,128,67,164,,124,124,35,73,14,12,0.8,0.8
2023-11-23T1700,1253A,120.726,30.7478,嘉兴市,嘉兴学院,细颗粒物(PM2.5),142,208,121,108,67,169,,129,129,31,66,14,11,0.9,0.8
2023-11-23T1700,2872A,120.7846,30.7525,嘉兴市,南湖区残联,细颗粒物(PM2.5),152,209,118,116,74,160,,124,124,32,61,14,12,1.1,0.9
2023-11-23T1700,3407A,120.6916,30.7739,嘉兴市,秀洲住建,细颗粒物(PM2.5),170,182,102,129,71,158,,124,124,37,74,15,12,,1.1
2023-11-23T1700,1945A,98.2908,39.7711,嘉峪关市,气象局,颗粒物(PM10),60,70,40,22,17,62,,55,55,18,26,19,7,0.4,0.5
2023-11-23T1700,2884A,98.2672,39.7978,嘉峪关市,酒钢宾馆,,,,43,,17,66,,61,61,17,22,17,9,0.4,0.4
2023-11-23T1700,3248A,98.2643,39.7724,嘉峪关市,雄关区,,49,49,38,21,14,59,,52,52,21,29,16,7,0.3,0.3
2023-11-23T1700,1383A,113.1064,22.6058,江门市,北街,臭氧1小时,174,100,78,78,58,348,,262,262,68,54,9,9,0.9,0.8
2023-11-23T1700,1384A,113.0731,22.5835,江门市,西区,臭氧1小时,172,131,96,73,51,344,,251,251,69,75,10,10,0.8,0.9
2023-11-23T1700,1385A,113.0219,22.5311,江门市,圭峰西,臭氧1小时,163,110,63,104,44,325,,219,219,60,30,6,6,0.7,0.6
2023-11-23T1700,1386A,113.0828,22.5947,江门市,东湖,臭氧1小时,165,113,99,76,53,329,,255,255,55,59,6,7,0.9,0.9
2023-11-23T1700,3311A,113.1075,22.5647,江门市,江海富民,臭氧1小时,156,161,117,76,56,311,,262,262,63,64,10,10,0.8,1
2023-11-23T1700,3449A,113.05,22.4667,江门市,新会银湖,臭氧1小时,153,105,80,83,58,306,,205,205,51,45,9,8,0.7,0.7
2023-11-23T1700,1828A,113.227,35.2125,焦作市,市环保局,,38,38,81,8,13,68,,74,74,18,16,7,7,0.4,0.4
2023-11-23T1700,3169A,113.2725,35.2067,焦作市,太极体育中心,,39,39,87,5,12,74,,81,81,19,16,8,8,0.4,0.4
2023-11-23T1700,3335A,113.3137,35.2641,焦作市,马村街道办,,44,44,90,9,16,78,,81,81,14,13,3,4,0.2,0.2
2023-11-23T1700,3336A,113.2465,35.2373,焦作市,焦作技师学院,,,26,85,14,19,,,74,,,23,,11,,0.5
2023-11-23T1700,3477A,113.1656,35.2539,焦作市,中站许衡医院,,34,34,78,21,23,68,,75,74,23,23,8,11,0.2,0.3
2023-11-23T1700,3981A,113.2449,35.1803,焦作市,原李万街道办,,40,40,95,2,13,70,,78,77,19,17,8,6,0.1,0.2
2023-11-23T1700,1708A,116.3701,23.5345,揭阳市,新兴,,49,48,73,31,50,155,,131,131,19,36,11,13,0.7,0.8
2023-11-23T1700,1709A,116.3264,23.5443,揭阳市,西马,颗粒物(PM10),61,71,81,21,54,148,,119,119,16,36,10,13,0.6,0.8
2023-11-23T1700,1710A,116.3611,23.5626,揭阳市,东兴,颗粒物(PM10),56,62,88,28,46,151,,134,134,14,42,9,13,0.7,0.9
2023-11-23T1700,1711A,116.4151,23.5294,揭阳市,渔湖,臭氧1小时,64,67,83,28,46,171,,142,142,18,34,11,11,0.6,0.8
2023-11-23T1700,3320A,116.403,23.5699,揭阳市,曲溪,臭氧1小时,60,60,92,34,52,168,,145,145,20,46,4,14,0.7,0.8
2023-11-23T1700,1944A,102.1692,38.5167,金昌市,天庆家园,颗粒物(PM10),61,71,44,31,15,67,,64,64,18,18,111,33,0.8,0.5
2023-11-23T1700,3170A,102.1864,38.5253,金昌市,市委党校,颗粒物(PM10),66,82,58,26,20,72,,70,70,14,13,7,26,1.0,0.7
2023-11-23T1700,4022A,102.1647,38.5371,金昌市,金川区人防中心,颗粒物(PM10),74,97,54,18,16,60,,59,59,25,13,10,11,0.6,0.7
2023-11-23T1700,1262A,119.647,29.077,金华市,十五中,颗粒物(PM10),57,64,74,33,39,103,,75,75,44,59,11,9,0.8,0.9
2023-11-23T1700,1263A,119.686,29.1029,金华市,监测站,颗粒物(PM10),54,57,66,27,35,98,,79,79,46,57,10,10,0.7,0.8
2023-11-23T1700,3659A,119.656,29.1131,金华市,气象局,颗粒物(PM10),53,55,79,30,41,109,,92,92,35,61,10,7,0.7,1
2023-11-23T1700,1767A,121.1115,41.0879,锦州市,南山,颗粒物(PM10),66,81,41,5,18,60,,58,58,8,15,9,12,0.4,0.4
2023-11-23T1700,1768A,121.0533,40.8434,锦州市,开发区,颗粒物(PM10),73,96,71,13,34,52,,56,56,19,27,4,11,0.3,0.4
2023-11-23T1700,1769A,121.1836,41.1119,锦州市,百股街道,颗粒物(PM10),61,72,46,12,23,61,,59,59,8,16,7,15,0.6,0.7
2023-11-23T1700,1770A,121.1178,41.1222,锦州市,天安街道,颗粒物(PM10),72,93,45,14,30,63,,61,61,10,15,6,9,0.4,0.6
2023-11-23T1700,1771A,121.1303,41.1386,锦州市,北湖公园,颗粒物(PM10),54,57,39,10,20,58,,58,58,8,12,5,7,0.3,0.4
2023-11-23T1700,2160A,112.85,35.5051,晋城市,自来水公司,,45,45,87,7,15,65,,72,72,29,30,6,7,0.3,0.7
2023-11-23T1700,2161A,112.8318,35.4936,晋城市,白云商贸,,34,34,83,2,14,66,,74,74,27,28,4,5,0.3,0.4
2023-11-23T1700,2162A,112.8508,35.4887,晋城市,市环保局,,23,23,85,5,17,65,,72,72,20,25,5,6,0.5,0.6
2023-11-23T1700,2163A,112.8676,35.4897,晋城市,技术学院,,36,36,81,0,11,69,,76,76,26,26,6,6,0.5,0.5
2023-11-23T1700,3620A,112.8271,35.4828,晋城市,泽州一中,,22,17,75,0,11,70,,76,76,20,22,6,7,0.6,0.7
2023-11-23T1700,2171A,112.7532,37.6945,晋中市,锦纶小区,,46,46,87,19,9,69,,76,76,18,15,6,5,0.2,0.2
2023-11-23T1700,2173A,112.7249,37.7067,晋中市,南都小区,,38,38,84,17,15,68,,74,74,19,14,8,6,0.4,0.3
2023-11-23T1700,2174A,112.6991,37.6982,晋中市,榆次区政府,,36,36,80,16,21,71,,75,75,17,13,5,4,0.6,0.4
2023-11-23T1700,2865A,112.7195,37.6828,晋中市,榆次三中,,46,46,104,12,7,70,,75,75,17,11,10,7,0.4,0.3
2023-11-23T1700,2439A,112.2014,31.0481,荆门市,竹园小学,颗粒物(PM10),84,118,119,36,69,105,,88,88,21,35,9,11,0.5,0.7
2023-11-23T1700,2440A,112.1969,30.9891,荆门市,掇刀,颗粒物(PM10),83,115,128,48,87,109,,98,98,18,44,6,8,0.5,0.8
2023-11-23T1700,2441A,112.2213,31.0386,荆门市,石化一小,,,126,136,50,82,,,89,89,23,45,13,14,0.4,0.7
2023-11-23T1700,3012A,112.1849,31.0362,荆门市,西山林语,颗粒物(PM10),79,107,108,35,67,110,,94,94,18,21,14,13,0.6,0.7
2023-11-23T1700,3547A,112.1632,31.0138,荆门市,龙泉中学南校,颗粒物(PM10),89,127,107,44,64,106,,95,95,20,22,12,13,0.3,0.7
2023-11-23T1700,1844A,112.2494,30.3197,荆州市,市图书馆,,,109,139,39,74,105,,92,92,,48,,9,0.6,1.1
2023-11-23T1700,1845A,112.2008,30.3544,荆州市,市委党校,颗粒物(PM10),74,98,140,21,85,108,,96,96,21,52,5,6,0.7,1.1
2023-11-23T1700,3194A,112.2747,30.3122,荆州市,管委会,颗粒物(PM10),70,90,134,34,79,106,,94,94,26,53,10,10,0.6,1.2
2023-11-23T1700,3548A,112.1655,30.3364,荆州市,学苑路,颗粒物(PM10),73,96,153,39,119,113,,100,100,13,32,6,8,0.7,1
2023-11-23T1700,2342A,117.3102,29.3867,景德镇市,王港中学,,45,45,38,26,27,132,,105,105,2,4,5,4,0.3,0.3
2023-11-23T1700,2343A,117.2117,29.2933,景德镇市,老干部活动中心,颗粒物(PM10),53,56,55,20,36,112,,88,88,10,28,12,12,0.6,0.6
2023-11-23T1700,2344A,117.1894,29.2789,景德镇市,兽医站,,47,47,56,30,29,98,,91,91,8,26,4,4,0.6,0.7
2023-11-23T1700,2345A,117.1547,29.2617,景德镇市,台达陶瓷,颗粒物(PM10),54,57,58,28,34,104,,88,88,20,36,17,18,0.6,0.6
2023-11-23T1700,2346A,117.2461,29.2956,景德镇市,陶研所,颗粒物(PM10),54,57,47,36,26,114,,86,86,14,32,4,4,0.6,0.5
2023-11-23T1700,1803A,115.9872,29.6815,九江市,十里,颗粒物(PM10),75,99,103,42,52,125,,95,95,24,51,10,11,0.7,1.1
2023-11-23T1700,1804A,115.9584,29.7046,九江市,茅山头,颗粒物(PM10),69,87,88,42,60,121,,94,94,29,56,15,15,0.8,1
2023-11-23T1700,1805A,115.9877,29.7295,九江市,西园,颗粒物(PM10),71,92,108,46,67,112,,82,82,26,59,10,18,0.8,1
2023-11-23T1700,1806A,116.0172,29.6547,九江市,五七二七厂,颗粒物(PM10),71,92,70,37,39,126,,119,119,23,24,16,16,0.7,0.8
2023-11-23T1700,1808A,115.9114,29.6038,九江市,综合工业园,颗粒物(PM10),66,81,83,44,51,119,,98,98,38,53,15,15,0.7,0.9
2023-11-23T1700,1809A,116.0721,29.7535,九江市,石化总厂,,,113,118,53,73,,,91,91,,57,,17,,1
2023-11-23T1700,1810A,115.9773,29.5698,九江市,庐山气象台,细颗粒物(PM2.5),69,66,37,50,29,131,,119,119,16,8,8,7,0.8,0.7
2023-11-23T1700,3190A,116.0254,29.6994,九江市,外国语学校,颗粒物(PM10),65,80,91,41,62,119,,104,104,24,58,13,19,0.5,0.9
2023-11-23T1700,2658A,98.5061,39.7443,酒泉市,仓门街子站,,48,48,38,19,21,67,,61,61,13,19,6,31,0.4,0.5
2023-11-23T1700,2659A,98.4989,39.7256,酒泉市,油田生活基地,,48,48,44,21,23,70,,62,62,10,24,12,18,0.5,0.6
2023-11-23T1700,2698A,76.0072,39.4467,喀什地区,巡警大队,颗粒物(PM10),116,182,221,49,69,81,,44,44,46,63,8,9,0.9,2
2023-11-23T1700,2699A,75.9755,39.4694,喀什地区,吾办,颗粒物(PM10),118,186,211,73,91,76,,45,45,47,65,7,9,1.1,2.1
2023-11-23T1700,4027A,75.9483,39.4689,喀什地区,老干局,颗粒物(PM10),109,167,269,51,110,94,,52,52,27,63,8,8,0.7,2.6
2023-11-23T1700,1824A,114.3389,34.7781,开封市,肿瘤医院,颗粒物(PM10),73,95,130,15,44,66,,71,71,12,38,4,6,0.6,0.5
2023-11-23T1700,1826A,114.2885,34.7965,开封市,世纪星幼儿园,颗粒物(PM10),51,51,108,14,42,63,,70,70,16,35,4,7,0.2,0.5
2023-11-23T1700,3147A,114.3438,34.8106,开封市,龙亭公园,颗粒物(PM10),78,106,123,6,38,68,,74,74,18,38,3,6,0.3,0.5
2023-11-23T1700,3210A,114.3644,34.7964,开封市,汴京公园,颗粒物(PM10),57,63,128,12,44,64,,70,70,20,42,5,6,0.2,0.6
2023-11-23T1700,3473A,114.2485,34.8306,开封市,技师学院,,,52,101,6,29,,,73,73,6,32,,8,0.1,0.2
2023-11-23T1700,3592A,114.4644,34.7556,开封市,祥符区生态环境局,颗粒物(PM10),57,64,116,8,41,67,,74,74,19,47,3,15,0.2,0.5
2023-11-23T1700,1951A,84.895,45.6094,克拉玛依市,长征新村,,18,11,14,3,6,56,,44,36,10,15,11,10,0.2,0.3
2023-11-23T1700,1952A,84.8988,45.5893,克拉玛依市,南林小区,,17,14,15,4,12,54,,45,37,8,13,3,4,0.2,0.4
2023-11-23T1700,1954A,84.905,44.3396,克拉玛依市,独山子区,,19,19,22,10,15,59,,52,52,7,16,5,5,0.3,0.4
2023-11-23T1700,1955A,85.6979,46.098,克拉玛依市,乌尔禾区商贸楼,,34,34,14,10,9,60,,50,50,10,20,11,8,0.4,0.4
2023-11-23T1700,3612A,85.1045,45.6899,克拉玛依市,白碱滩区新站,,23,23,10,15,8,48,,49,37,18,14,10,8,0.2,0.1
2023-11-23T1700,2697A,76.1454,39.7142,克孜勒苏柯尔克孜自治州,市人民政府,颗粒物(PM10),79,108,109,36,40,112,,79,79,8,17,6,5,0.6,0.7
2023-11-23T1700,3665A,76.1658,39.7157,克孜勒苏柯尔克孜自治州,克州文化中心,颗粒物(PM10),86,122,113,43,38,104,,80,80,12,21,10,8,0.5,0.5
2023-11-23T1700,1450A,102.8204,24.8886,昆明市,呈贡新区,,33,30,52,12,36,103,,70,70,12,42,5,6,0.7,1
2023-11-23T1700,1451A,102.6251,24.9608,昆明市,西山森林公园,,40,,25,22,18,125,,82,82,5,11,5,7,0.3,0.4
2023-11-23T1700,1452A,102.7252,25.0902,昆明市,龙泉镇,,37,21,52,11,39,116,,77,77,13,37,8,9,0.3,0.7
2023-11-23T1700,1453A,102.7266,25.0375,昆明市,东风东路,,36,22,60,19,37,115,,72,72,17,48,7,8,0.5,1
2023-11-23T1700,1454A,102.6742,25.0669,昆明市,金鼎山,,39,38,75,7,48,124,,90,90,17,54,4,18,0.4,1
2023-11-23T1700,1455A,102.6644,25.0401,昆明市,碧鸡广场,,34,19,63,13,42,108,,70,70,17,49,8,13,0.5,0.9
2023-11-23T1700,3179A,102.7494,25.0119,昆明市,官渡区博物馆,,35,19,71,12,46,110,,72,72,11,46,8,9,0.5,1.1
2023-11-23T1700,3375A,102.8017,24.8336,昆明市,青年创业园,,35,28,43,23,29,112,,81,81,11,31,10,10,0.4,0.5
2023-11-23T1700,3550A,102.7997,24.9786,昆明市,昆明学院,,32,19,82,11,50,102,,77,77,12,45,10,11,0.4,0.8
2023-11-23T1700,3551A,102.5967,24.6736,昆明市,晋宁区生态环境分局,,35,33,46,24,23,98,,72,72,13,27,2,2,0.4,0.7
2023-11-23T1700,3552A,102.6678,24.9856,昆明市,云天化总部,,,31,62,14,38,107,,68,68,,43,6,7,0.5,0.8
2023-11-23T1700,1456A,91.1319,29.6514,拉萨市,八廓街,,32,10,15,5,8,102,,95,95,4,7,9,9,0.5,0.5
2023-11-23T1700,1457A,91.1221,29.6747,拉萨市,市环保局,,32,8,16,5,8,102,,81,81,8,17,6,7,0.3,0.4
2023-11-23T1700,1458A,91.0874,29.6475,拉萨市,区监测站,,31,6,13,5,6,97,,87,87,7,18,9,10,0.4,0.5
2023-11-23T1700,1459A,91.1774,29.6541,拉萨市,西藏大学,,30,8,13,5,6,96,,83,83,8,9,7,9,0.4,0.4
2023-11-23T1700,1460A,90.9798,29.6588,拉萨市,区辐射站,,31,7,12,5,8,99,,77,77,5,14,5,6,0.4,0.4
2023-11-23T1700,1461A,91.0834,29.6292,拉萨市,拉萨火车站,,31,7,11,6,7,99,,87,87,7,14,5,6,0.3,0.5
2023-11-23T1700,2520A,109.2203,23.7256,来宾市,来宾技工学校,细颗粒物(PM2.5),68,75,75,49,44,136,,106,106,14,21,14,16,0.8,0.7
2023-11-23T1700,3535A,109.1781,23.7297,来宾市,兴宾区政府,细颗粒物(PM2.5),62,58,59,44,38,119,,103,103,9,13,11,10,0.7,0.6
2023-11-23T1700,4002A,109.2416,23.7461,来宾市,中南小学,细颗粒物(PM2.5),74,70,75,54,47,132,,101,101,15,32,15,12,0.9,0.7
2023-11-23T1700,1476A,103.631,36.1031,兰州市,兰炼宾馆,颗粒物(PM10),102,153,139,59,46,37,,50,50,62,31,12,11,0.9,0.6
2023-11-23T1700,1478A,103.8412,36.0726,兰州市,生物制品所,颗粒物(PM10),88,126,128,45,42,47,,50,50,58,33,10,8,0.8,0.5
2023-11-23T1700,1479A,103.831,36.0464,兰州市,铁路设计院,颗粒物(PM10),96,141,117,49,41,32,,67,42,84,41,15,11,1.0,0.6
2023-11-23T1700,3186A,103.7158,36.1058,兰州市,教育港,颗粒物(PM10),97,143,118,36,34,38,,50,44,60,31,16,12,0.9,0.5
2023-11-23T1700,3241A,103.7439,36.0842,兰州市,百合公园,,,127,126,37,32,33,,42,34,62,37,11,8,,0.5
2023-11-23T1700,3242A,103.9611,35.998,兰州市,和平,颗粒物(PM10),102,154,161,44,50,63,,63,63,45,33,14,11,0.9,0.6
2023-11-23T1700,3245A,103.6633,36.533,兰州新区,新区管委会,颗粒物(PM10),82,113,113,36,38,72,,63,63,16,18,18,14,0.5,0.5
2023-11-23T1700,3246A,103.6975,36.4789,兰州新区,舟曲中学,颗粒物(PM10),83,116,142,36,37,72,,73,73,23,15,15,7,0.3,0.4
2023-11-23T1700,1067A,116.6708,39.5111,廊坊市,药材公司,,33,33,90,3,13,52,,56,55,17,23,2,1,0.4,0.4
2023-11-23T1700,1068A,116.7214,39.5589,廊坊市,开发区,,20,20,75,3,11,53,,57,56,6,16,2,2,0.3,0.2
2023-11-23T1700,1070A,116.7244,39.5269,廊坊市,北华航天学院,,19,19,92,7,8,51,,56,54,18,24,5,5,0.3,0.3
2023-11-23T1700,2919A,116.7022,39.5453,廊坊市,河北工业大学,,,30,85,6,15,48,,55,52,,18,6,5,,0.3
2023-11-23T1700,2535A,103.7723,29.5462,乐山市,花湖湾,细颗粒物(PM2.5),87,107,63,64,48,59,,22,22,26,38,6,4,0.8,1
2023-11-23T1700,2536A,103.7627,29.5844,乐山市,牛耳桥,细颗粒物(PM2.5),88,86,74,65,59,60,,23,23,36,46,7,6,0.8,0.9
2023-11-23T1700,2537A,103.7508,29.6006,乐山市,市第三水厂,细颗粒物(PM2.5),87,91,80,64,51,58,,23,23,35,49,9,7,1.2,1.5
2023-11-23T1700,2538A,103.7571,29.5664,乐山市,市监测站,细颗粒物(PM2.5),105,94,68,79,46,63,,30,30,30,33,9,7,0.7,1.2
2023-11-23T1700,3361A,103.7311,29.5628,乐山市,理工大学,细颗粒物(PM2.5),104,116,79,78,56,71,,30,30,25,38,11,10,0.8,1
2023-11-23T1700,2598A,100.2143,26.8576,丽江市,西南郊,,31,12,18,5,7,97,,71,71,6,14,5,5,0.7,0.8
2023-11-23T1700,2599A,100.2497,26.8802,丽江市,丽江古城,,30,24,34,13,20,96,,72,72,12,22,10,9,0.3,0.8
2023-11-23T1700,2600A,100.2203,26.8906,丽江市,市中心,,29,8,20,4,9,92,,70,70,10,16,8,8,0.4,0.5
2023-11-23T1700,1267A,119.914,28.4514,丽水市,监测站大楼,颗粒物(PM10),52,53,54,25,31,119,,82,82,18,41,8,8,0.4,0.7
2023-11-23T1700,1268A,119.93,28.4586,丽水市,莲都小学,颗粒物(PM10),51,52,50,20,21,129,,86,86,16,37,8,7,0.4,0.4
2023-11-23T1700,1269A,119.879,28.4231,丽水市,余庄前,,28,25,41,16,26,87,,72,72,13,22,6,6,0.4,0.4
2023-11-23T1700,1173A,119.176,34.5885,连云港市,市环境监测站,颗粒物(PM10),74,97,189,12,120,57,,58,58,18,57,7,12,0.7,1
2023-11-23T1700,3000A,119.3581,34.6972,连云港市,德源药业,颗粒物(PM10),75,100,194,9,113,60,,58,58,20,67,6,9,0.5,1
2023-11-23T1700,3007A,119.178,34.844,连云港市,新城一中,,46,46,172,6,117,64,,67,67,20,57,8,10,0.5,1.1
2023-11-23T1700,3008A,119.3608,34.7519,连云港市,胡沟管理处,颗粒物(PM10),63,75,172,5,115,67,,65,65,13,50,7,15,0.6,1.1
2023-11-23T1700,3009A,119.1478,34.5911,连云港市,矿山设计院,颗粒物(PM10),71,92,197,9,114,56,,58,58,20,59,5,8,0.2,0.8
2023-11-23T1700,3434A,119.2413,34.6539,连云港市,工贸学校,,33,33,154,6,113,63,,64,64,21,34,8,11,0.4,0.9
2023-11-23T1700,3664A,119.4172,34.7341,连云港市,连云街道,颗粒物(PM10),51,51,162,7,112,50,,62,57,32,32,5,9,0.2,0.7
2023-11-23T1700,2571A,102.3431,27.8099,凉山彝族自治州,青龙寺,,29,22,22,20,20,91,,63,63,8,9,9,8,0.7,0.8
2023-11-23T1700,2572A,102.2721,27.8415,凉山彝族自治州,邛海宾馆,,46,46,48,22,20,80,,60,60,19,19,11,9,0.7,0.7
2023-11-23T1700,2573A,102.2625,27.898,凉山彝族自治州,西昌市政府,细颗粒物(PM2.5),55,53,32,39,26,71,,54,54,18,16,9,10,0.7,0.8
2023-11-23T1700,2574A,102.2685,27.8851,凉山彝族自治州,凉山州政府,,44,44,37,30,25,69,,54,54,22,19,9,10,0.8,0.8
2023-11-23T1700,2575A,102.237,27.8914,凉山彝族自治州,长安,,42,42,33,23,20,54,,43,43,24,21,11,12,0.7,0.6
2023-11-23T1700,2212A,123.2,41.1953,辽阳市,宏伟区,,19,19,27,12,28,53,,51,51,11,15,8,8,0.3,0.4
2023-11-23T1700,2213A,123.1683,41.2495,辽阳市,新华园,,19,19,30,10,25,49,,48,48,11,16,9,9,0.4,0.5
2023-11-23T1700,2214A,123.2354,41.2639,辽阳市,滨河路,,25,,30,17,35,53,,52,52,7,11,6,7,0.4,0.7
2023-11-23T1700,2215A,123.149,41.2991,辽阳市,铁西工业园,,18,15,32,12,29,55,,54,54,12,18,9,9,0.5,0.5
2023-11-23T1700,2227A,125.1358,42.8845,辽源市,环保局,,21,21,24,11,15,58,,62,62,14,11,25,18,0.5,0.5
2023-11-23T1700,3239A,125.0764,42.9078,辽源市,银鹰制药,颗粒物(PM10),51,52,37,7,16,62,,64,64,9,10,4,4,0.5,0.6
2023-11-23T1700,1625A,115.9848,36.4372,聊城市,区政府,,41,41,159,5,58,68,,70,70,20,38,2,3,0.3,0.6
2023-11-23T1700,2878A,116.0072,36.4343,聊城市,聊大东校,,34,34,152,6,70,69,,71,71,10,29,3,4,0.2,0.5
2023-11-23T1700,3200A,115.9819,36.4978,聊城市,监控中心,,40,40,178,5,77,65,,69,69,14,51,3,4,0.1,0.5
2023-11-23T1700,3513A,116.0445,36.4361,聊城市,九州社区,,40,40,164,0,65,73,,72,72,2,23,1,4,0.3,0.7
2023-11-23T1700,4018A,116.0567,36.4608,聊城市,星美广场,,45,45,152,7,66,63,,65,65,10,30,4,5,0.4,0.7
2023-11-23T1700,2632A,94.3681,29.6376,林芝市,林芝监测站,,27,7,7,0,4,84,,65,65,4,7,6,6,0.3,0.4
2023-11-23T1700,2633A,94.3616,29.6616,林芝市,林芝人民医院,,25,10,10,4,5,80,,63,63,6,9,6,7,0.3,0.4
2023-11-23T1700,2603A,100.0781,23.8982,临沧市,市环保局,,20,20,18,12,15,56,,54,54,7,12,4,6,0.3,0.3
2023-11-23T1700,2604A,100.0894,23.8822,临沧市,市气象局,,21,21,23,12,18,58,,54,54,8,14,3,6,0.4,0.4
2023-11-23T1700,1733A,111.5531,36.0783,临汾市,临钢医院,颗粒物(PM10),54,58,101,6,16,59,,68,61,15,20,2,3,0.4,0.6
2023-11-23T1700,1734A,111.5028,36.0714,临汾市,技工学校,,38,38,82,9,24,65,,68,68,14,16,5,5,0.3,0.4
2023-11-23T1700,1736A,111.5018,36.0855,临汾市,市委,,,36,100,,27,69,,74,71,14,24,5,6,0.2,0.4
2023-11-23T1700,3018A,111.505,36.1014,临汾市,唐尧大酒店,,,,95,,21,61,,66,64,,22,3,4,0.4,0.5
2023-11-23T1700,3668A,111.5036,36.0414,临汾市,城南,,40,40,94,11,22,65,,67,66,12,23,2,4,0.3,0.4
2023-11-23T1700,2667A,103.2069,35.5993,临夏回族自治州,环保局,,38,38,32,24,21,76,,62,62,44,32,8,11,0.9,0.9
2023-11-23T1700,2668A,103.2417,35.6057,临夏回族自治州,建设大厦,,,62,41,29,20,81,,73,73,42,25,,11,0.8,0.7
2023-11-23T1700,1618A,118.3429,35.0532,临沂市,沂河小区,颗粒物(PM10),68,85,180,15,100,59,,62,62,31,67,4,10,0.3,0.9
2023-11-23T1700,1619A,118.295,35.0583,临沂市,鲁南制药厂,颗粒物(PM10),78,105,207,10,104,60,,64,64,27,66,6,14,0.2,0.8
2023-11-23T1700,1620A,118.2794,34.9976,临沂市,新光毛纺厂,颗粒物(PM10),67,83,186,13,94,60,,63,63,23,67,5,10,0.4,1.1
2023-11-23T1700,1621A,118.3956,35.0888,临沂市,河东保险公司,颗粒物(PM10),54,58,159,12,98,64,,65,65,18,55,4,7,0.3,0.9
2023-11-23T1700,3370A,118.3564,35.0215,临沂市,十里堡居委,颗粒物(PM10),76,102,189,5,92,61,,65,65,34,61,1,7,0.6,1.3
2023-11-23T1700,3496A,118.3604,35.1084,临沂市,南坊新区,颗粒物(PM10),67,83,182,5,95,62,,63,63,18,59,6,11,0.6,1.2
2023-11-23T1700,3860A,118.3920,35.0300,临沂市,皇山花园小区,颗粒物(PM10),68,85,173,6,84,62,,64,64,17,54,4,10,0.0,0.7
2023-11-23T1700,1870A,109.4856,24.3895,柳州市,柳东小学,颗粒物(PM10),58,65,68,39,52,102,,88,88,4,17,10,15,0.7,0.8
2023-11-23T1700,1871A,109.4157,24.3277,柳州市,环保监测站,颗粒物(PM10),56,61,96,31,62,99,,88,88,12,42,8,15,0.6,1
2023-11-23T1700,1872A,109.389,24.341,柳州市,河西水厂,,,72,129,32,65,,,82,82,13,46,9,25,0.8,1.5
2023-11-23T1700,1873A,109.4311,24.2921,柳州市,市四中,颗粒物(PM10),56,62,95,35,55,99,,88,88,19,49,7,11,0.7,1.1
2023-11-23T1700,1874A,109.4006,24.3631,柳州市,市九中,颗粒物(PM10),57,64,102,36,62,101,,87,87,14,38,11,12,1.0,1.2
2023-11-23T1700,1875A,109.4958,24.3134,柳州市,古亭山,细颗粒物(PM2.5),69,75,55,50,38,106,,88,88,14,36,10,13,0.8,0.8
2023-11-23T1700,3402A,109.5422,24.3996,柳州市,市二中,颗粒物(PM10),58,65,72,35,49,101,,86,86,8,32,8,14,0.6,0.6
2023-11-23T1700,2307A,116.5079,31.737,六安市,监测大楼,颗粒物(PM10),88,125,106,35,49,79,,69,69,12,40,5,6,0.6,0.9
2023-11-23T1700,2308A,116.4738,31.7643,六安市,皖西学院,颗粒物(PM10),86,121,115,29,49,80,,80,80,13,35,5,6,0.2,0.5
2023-11-23T1700,2309A,116.4996,31.7905,六安市,朝阳厂,颗粒物(PM10),75,99,90,33,51,73,,75,75,13,38,6,8,0.3,0.6
2023-11-23T1700,2310A,116.5567,31.7886,六安市,开发区,颗粒物(PM10),145,240,144,33,50,71,,71,71,23,48,8,8,0.4,0.7
2023-11-23T1700,2576A,104.8,26.5892,六盘水市,窑上,细颗粒物(PM2.5),67,76,46,48,39,80,,79,79,20,9,6,3,1.2,0.8
2023-11-23T1700,2577A,104.83,26.5917,六盘水市,黄土坡,颗粒物(PM10),65,79,51,46,36,80,,73,73,22,23,13,9,1.0,0.9
2023-11-23T1700,2578A,104.89,26.5939,六盘水市,水钢,细颗粒物(PM2.5),80,71,77,59,48,86,,71,71,14,29,5,10,0.8,1.4
2023-11-23T1700,2579A,104.8475,26.5894,六盘水市,民中,细颗粒物(PM2.5),70,67,56,51,43,143,,125,125,34,33,13,13,1.7,1.3
2023-11-23T1700,2580A,104.9544,26.5506,六盘水市,双水,细颗粒物(PM2.5),84,73,56,62,49,93,,74,74,17,19,10,10,0.8,1.2
2023-11-23T1700,2336A,117.0217,25.1033,龙岩市,龙岩市监测站,,33,31,43,23,27,99,,87,87,17,36,9,7,0.4,0.7
2023-11-23T1700,2337A,117.0258,25.0661,龙岩市,闽西职业技术学院,,31,29,48,20,27,97,,87,87,11,33,5,10,0.5,0.6
2023-11-23T1700,2338A,117.0196,25.0306,龙岩市,龙岩学院,,38,38,36,14,22,96,,93,93,9,17,6,5,0.4,0.4
2023-11-23T1700,2885A,104.9339,33.3826,陇南市,滨江中学,颗粒物(PM10),96,142,120,34,48,60,,64,64,44,52,14,22,1.2,1.8
2023-11-23T1700,3247A,104.955,33.371,陇南市,市总工会,颗粒物(PM10),79,107,101,32,44,80,,68,68,30,50,6,13,0.3,0.8
2023-11-23T1700,2487A,111.9589,27.8901,娄底市,电视发射台,细颗粒物(PM2.5),64,74,56,46,35,103,,86,86,19,21,8,6,0.7,0.6
2023-11-23T1700,2488A,111.9975,27.725,娄底市,市监测站,细颗粒物(PM2.5),87,95,123,64,85,139,,110,110,20,52,10,16,0.6,1.3
2023-11-23T1700,2489A,112.0194,27.7314,娄底市,市委党校,细颗粒物(PM2.5),84,83,110,62,75,125,,97,97,19,36,6,9,0.6,1.1
2023-11-23T1700,2490A,111.9561,27.7569,娄底市,涟钢,,,80,106,0,54,112,,100,100,,31,13,12,0.7,1.5
2023-11-23T1700,2491A,111.9892,27.7044,娄底市,市政府,细颗粒物(PM2.5),90,95,116,67,82,132,,103,103,15,32,10,10,0.7,1
2023-11-23T1700,1893A,105.4324,28.9634,泸州市,九狮山,细颗粒物(PM2.5),82,87,82,60,53,116,,69,69,20,20,6,6,0.5,0.5
2023-11-23T1700,1894A,105.4427,28.9063,泸州市,小市上码头,细颗粒物(PM2.5),112,110,112,84,81,127,,72,72,20,27,7,7,0.6,0.7
2023-11-23T1700,1895A,105.4241,28.8573,泸州市,兰田宪桥,细颗粒物(PM2.5),105,102,102,79,75,108,,66,66,19,30,8,12,0.8,0.8
2023-11-23T1700,1896A,105.4379,28.8833,泸州市,市环监站,细颗粒物(PM2.5),94,94,99,70,68,105,,63,63,18,31,7,8,0.6,0.7
2023-11-23T1700,3490A,105.3617,28.7703,泸州市,纳溪区环保局,细颗粒物(PM2.5),98,90,81,73,60,94,,63,63,35,38,9,7,0.8,0.9
2023-11-23T1700,2183A,111.1406,37.5211,吕梁市,环保局,,22,19,68,8,12,68,,65,65,9,9,3,3,0.3,0.3
2023-11-23T1700,2185A,111.1297,37.5136,吕梁市,自来水公司,,23,14,77,9,8,71,,68,68,10,10,3,3,0.3,0.4
2023-11-23T1700,2867A,111.1283,37.51,吕梁市,马茂庄小学,,38,38,91,12,13,62,,65,65,15,12,3,3,0.2,0.3
2023-11-23T1700,1812A,112.3931,34.6516,洛阳市,市委党校,,38,38,100,9,29,71,,70,70,10,27,5,7,0.5,0.6
2023-11-23T1700,1814A,112.4657,34.6871,洛阳市,豫西宾馆,,44,44,132,11,36,73,,73,73,15,33,4,11,0.3,0.5
2023-11-23T1700,1815A,112.494,34.6886,洛阳市,河南林校,,36,36,105,7,28,75,,74,74,11,27,1,5,0.2,0.4
2023-11-23T1700,1816A,112.3844,34.623,洛阳市,开发区管委会,,32,32,87,10,27,70,,71,71,5,17,1,3,0.3,0.4
2023-11-23T1700,1817A,112.4267,34.6258,洛阳市,市委新办公区,,35,35,96,10,25,73,,74,74,16,23,1,3,0.3,0.4
2023-11-23T1700,3340A,112.6005,34.6326,洛阳市,伊滨,,42,42,99,9,27,76,,72,72,10,25,1,3,0.3,0.4
2023-11-23T1700,3341A,112.4951,34.6332,洛阳市,中移产业园,,39,39,107,1,21,72,,71,71,8,18,3,6,0.2,0.4
2023-11-23T1700,3593A,112.5736,34.8993,洛阳市,吉利监测站,,,,97,6,19,65,,68,68,14,36,4,6,,0.2
2023-11-23T1700,3635A,112.3677,34.662,洛阳市,河科大西苑校区,,36,36,110,7,28,71,,70,70,6,26,3,4,0.2,0.4
2023-11-23T1700,3636A,112.4388,34.6781,洛阳市,英才小学,,31,31,113,3,32,72,,72,72,13,28,3,10,0.2,0.4
2023-11-23T1700,2399A,114.051,33.5699,漯河市,三五一五工厂,,44,44,164,11,46,72,,74,74,14,43,6,9,0.2,0.5
2023-11-23T1700,2400A,114.0055,33.5698,漯河市,漯河大学,颗粒物(PM10),51,51,133,10,41,76,,76,76,11,40,3,5,0.3,0.5
2023-11-23T1700,2401A,114.0138,33.5828,漯河市,市水利局,,46,46,148,5,42,69,,70,70,8,40,7,10,0.3,0.6
2023-11-23T1700,2402A,114.0261,33.5698,漯河市,市广电局,颗粒物(PM10),52,54,144,14,45,72,,74,74,14,36,4,7,0.3,0.5
2023-11-23T1700,3478A,113.9749,33.5664,漯河市,市图书馆,,46,46,137,7,45,71,,73,73,13,26,2,7,0.4,0.6
2023-11-23T1700,3479A,114.0967,33.5906,漯河市,召陵区卫健委,,42,42,128,5,37,68,,72,72,14,31,4,7,0.4,0.6
2023-11-23T1700,1798A,118.5092,31.6837,马鞍山市,湖东路四小,颗粒物(PM10),71,91,98,13,70,59,,91,91,18,61,14,26,0.8,1.3
2023-11-23T1700,1799A,118.5024,31.6449,马鞍山市,开发区,颗粒物(PM10),77,103,111,16,84,67,,97,97,21,57,16,15,0.8,1
2023-11-23T1700,1800A,118.5228,31.7231,马鞍山市,慈湖,颗粒物(PM10),74,98,130,25,85,59,,92,92,36,65,12,21,0.7,1.1
2023-11-23T1700,1802A,118.6245,31.7241,马鞍山市,濮塘,颗粒物(PM10),91,132,123,23,61,65,,94,94,19,37,4,11,0.4,0.8
2023-11-23T1700,3633A,118.4918,31.6809,马鞍山市,雨山,颗粒物(PM10),86,122,122,14,80,67,,96,96,24,54,13,20,0.5,1.1
2023-11-23T1700,1686A,111.0286,21.4688,茂名市,电白南海,臭氧1小时,93,70,56,29,25,194,,148,148,19,20,9,11,0.8,0.7
2023-11-23T1700,1687A,110.9294,21.6533,茂名市,茂石化七小,颗粒物(PM10),64,78,58,39,33,164,,136,136,18,19,12,17,0.7,0.6
2023-11-23T1700,1688A,110.9107,21.6687,茂名市,健康路,,,61,51,36,29,161,,142,142,,18,,20,0.5,0.5
2023-11-23T1700,1689A,110.8592,21.6828,茂名市,高岭,颗粒物(PM10),60,70,66,39,41,147,,136,136,17,22,18,19,0.7,0.7
2023-11-23T1700,3450A,111.01,21.5165,茂名市,电白水东,臭氧1小时,84,58,49,34,26,187,,153,153,19,20,6,11,0.4,0.4
2023-11-23T1700,2539A,104.0308,30.0478,眉山市,黑龙滩水库,细颗粒物(PM2.5),78,70,19,57,35,41,,41,30,16,16,6,29,0.6,0.6
2023-11-23T1700,2540A,103.8416,30.0874,眉山市,气象局,细颗粒物(PM2.5),113,112,83,85,64,30,,27,27,53,50,14,18,0.9,1
2023-11-23T1700,3137A,103.8578,30.0744,眉山市,市委党校,细颗粒物(PM2.5),107,107,89,80,65,28,,26,26,54,57,10,20,0.2,0.5
2023-11-23T1700,3148A,103.8291,30.0564,眉山市,区人社局,细颗粒物(PM2.5),110,,75,83,62,41,,25,25,46,58,14,16,0.8,1.1
2023-11-23T1700,1690A,116.1231,24.3284,梅州市,梅江月梅,,43,41,46,30,34,119,,92,92,23,32,26,16,0.6,0.6
2023-11-23T1700,1691A,116.0797,24.2719,梅州市,梅县新城,,50,46,57,35,39,122,,93,93,22,36,11,8,0.7,0.9
2023-11-23T1700,1692A,116.1248,24.2654,梅州市,环境监控中心,,43,43,51,27,33,116,,100,100,21,38,12,14,0.7,0.7
2023-11-23T1700,3315A,116.1233,24.2991,梅州市,梅龙,颗粒物(PM10),51,51,47,23,29,116,,92,92,24,26,8,7,0.6,0.7
2023-11-23T1700,1878A,104.7778,31.4741,绵阳市,富乐山,,,66,70,41,54,,,49,49,20,27,8,7,0.6,0.7
2023-11-23T1700,1879A,104.7563,31.4535,绵阳市,市人大,,,77,85,52,62,89,,56,56,,42,10,7,,1
2023-11-23T1700,1880A,104.6697,31.4668,绵阳市,高新区自来水公司,颗粒物(PM10),57,63,95,34,52,113,,74,74,16,41,8,9,0.4,0.6
2023-11-23T1700,1881A,104.7287,31.5075,绵阳市,三水厂,细颗粒物(PM2.5),63,73,96,45,65,99,,59,59,30,44,6,6,0.7,1
2023-11-23T1700,3491A,104.69,31.5322,绵阳市,西科大附属小学,细颗粒物(PM2.5),60,68,80,43,57,101,,59,59,27,44,10,9,0.5,0.7
2023-11-23T1700,3492A,104.5648,31.5343,绵阳市,安州区旅游局,细颗粒物(PM2.5),72,90,91,52,60,95,,70,70,28,38,9,10,0.6,0.9
2023-11-23T1700,1784A,129.61,44.561,牡丹江市,环保大楼,,19,19,23,6,15,48,,59,59,27,19,8,9,0.3,0.3
2023-11-23T1700,1785A,129.6115,44.5782,牡丹江市,文化广场,,38,28,24,26,26,45,,54,53,25,16,11,12,0.3,0.4
2023-11-23T1700,1786A,129.5904,44.5963,牡丹江市,第一医院,,40,,22,28,23,56,,57,57,13,16,7,8,0.3,0.4
2023-11-23T1700,1787A,129.6364,44.6075,牡丹江市,机车工厂,,30,24,31,21,22,45,,59,59,23,12,7,7,0.2,0.3
2023-11-23T1700,1788A,129.6386,44.5462,牡丹江市,第一中学,,33,33,23,19,18,57,,60,60,11,10,8,8,0.2,0.3
2023-11-23T1700,2531A,105.0703,29.61,内江市,市监测站,细颗粒物(PM2.5),110,115,92,83,82,105,,76,76,42,41,3,4,0.6,0.7
2023-11-23T1700,2532A,105.0717,29.5947,内江市,东兴区政府,细颗粒物(PM2.5),102,101,92,76,74,122,,83,83,20,37,9,10,0.5,0.6
2023-11-23T1700,2533A,105.0653,29.5817,内江市,内江二中,细颗粒物(PM2.5),110,97,92,83,84,,,77,77,19,41,8,8,0.5,0.6
2023-11-23T1700,2534A,105.0406,29.5822,内江市,内江日报社,细颗粒物(PM2.5),92,101,94,68,75,113,,76,76,28,51,6,6,0.6,0.7
2023-11-23T1700,1290A,115.8931,28.6843,南昌市,省外办,颗粒物(PM10),73,95,103,44,54,118,,93,93,19,55,9,10,0.3,0.5
2023-11-23T1700,1291A,115.8886,28.7003,南昌市,省林业公司,颗粒物(PM10),67,83,98,39,49,125,,99,99,28,65,9,12,0.8,0.7
2023-11-23T1700,1292A,115.8126,28.7442,南昌市,林科所,颗粒物(PM10),64,78,62,34,34,142,,125,125,25,44,12,12,0.6,0.5
2023-11-23T1700,1294A,115.8518,28.687,南昌市,建工学校,颗粒物(PM10),64,77,95,42,50,126,,102,102,25,58,15,16,0.7,0.8
2023-11-23T1700,1295A,115.8921,28.6424,南昌市,象湖,细颗粒物(PM2.5),65,74,97,47,52,120,,101,101,24,62,10,9,0.6,1.1
2023-11-23T1700,1296A,115.7423,28.7996,南昌市,武术学校,,44,44,32,23,15,113,,110,110,8,7,9,9,0.6,0.3
2023-11-23T1700,1298A,115.9314,28.6842,南昌市,省站,颗粒物(PM10),73,95,123,44,53,128,,111,111,18,53,10,11,0.6,0.7
2023-11-23T1700,3046A,115.9084,28.6062,南昌市,机电学校,颗粒物(PM10),69,87,103,44,48,138,,112,112,20,55,9,10,1.2,1.3
2023-11-23T1700,3690A,115.9721,28.7031,南昌市,外国语学校,颗粒物(PM10),76,102,93,51,52,119,,100,100,25,49,10,11,0.9,1.2
2023-11-23T1700,1905A,106.056,30.8064,南充市,西山风景区,细颗粒物(PM2.5),89,84,88,66,77,75,,53,53,35,35,4,6,0.6,0.6
2023-11-23T1700,1906A,106.0789,30.8023,南充市,南充市委,细颗粒物(PM2.5),107,90,117,80,82,70,,47,47,34,44,6,5,0.6,0.9
2023-11-23T1700,1907A,106.1031,30.8217,南充市,南充炼油厂,细颗粒物(PM2.5),107,104,119,80,82,78,,44,44,27,42,8,6,0.8,1
2023-11-23T1700,1908A,106.1064,30.7856,南充市,高坪区监测站,细颗粒物(PM2.5),112,96,113,84,85,72,,53,53,39,43,11,8,0.4,0.7
2023-11-23T1700,1909A,106.0642,30.7636,南充市,嘉陵区环保局,细颗粒物(PM2.5),89,112,117,66,77,74,,47,47,22,45,6,5,0.6,1
2023-11-23T1700,1910A,106.1087,30.8388,南充市,市环境监测站,细颗粒物(PM2.5),107,108,113,80,81,85,,48,48,22,34,8,7,0.6,0.6
2023-11-23T1700,1151A,118.8086,32.1065,南京市,迈皋桥,颗粒物(PM10),75,100,120,9,60,73,,93,93,16,56,4,7,0.3,0.7
2023-11-23T1700,1152A,118.7538,32.0551,南京市,草场门,颗粒物(PM10),86,122,121,9,60,73,,94,94,26,62,3,7,0.1,0.6
2023-11-23T1700,1153A,118.7794,32.0745,南京市,山西路,颗粒物(PM10),78,105,124,12,66,74,,95,95,11,50,4,9,0.4,0.8
2023-11-23T1700,1154A,118.7752,32.0023,南京市,中华门,颗粒物(PM10),79,107,120,12,61,72,,91,91,13,55,2,5,0.3,0.7
2023-11-23T1700,1155A,118.8109,32.0309,南京市,瑞金路,颗粒物(PM10),75,100,120,12,60,66,,86,86,20,63,12,14,0.3,0.8
2023-11-23T1700,1156A,118.7997,32.0754,南京市,玄武湖,颗粒物(PM10),53,56,101,8,63,69,,83,83,13,56,6,10,0.2,0.7
2023-11-23T1700,1157A,118.6414,32.0931,南京市,浦口,颗粒物(PM10),80,110,91,13,58,75,,106,101,14,23,6,9,0.5,0.8
2023-11-23T1700,1158A,118.7356,31.9996,南京市,奥体中心,颗粒物(PM10),73,96,120,12,61,75,,92,92,17,57,5,9,0.1,0.5
2023-11-23T1700,1159A,118.9125,32.1028,南京市,仙林大学城,颗粒物(PM10),85,119,118,14,66,64,,86,86,27,66,5,9,0.5,1
2023-11-23T1700,3422A,118.8436,31.9198,南京市,江宁彩虹桥,,,113,119,12,54,77,,97,97,,71,6,10,0.5,0.9
2023-11-23T1700,3423A,119.0138,31.6494,南京市,溧水永阳,颗粒物(PM10),96,141,119,49,72,77,,110,110,18,40,4,6,0,0.6
2023-11-23T1700,3424A,118.879,31.3302,南京市,高淳老职中,细颗粒物(PM2.5),83,79,86,61,63,86,,104,104,23,42,7,8,0.3,0.6
2023-11-23T1700,3427A,118.8554,32.3578,南京市,六合雄州,颗粒物(PM10),67,84,127,14,63,69,,76,76,2,27,4,7,0.4,0.8
2023-11-23T1700,1401A,108.3103,22.7881,南宁市,二十一中,颗粒物(PM10),55,60,84,31,54,145,,121,121,16,40,11,10,0.8,1
2023-11-23T1700,1402A,108.3141,22.8528,南宁市,北湖,颗粒物(PM10),59,68,92,35,58,143,,132,132,15,38,13,13,0.6,0.9
2023-11-23T1700,1403A,108.3206,22.8225,南宁市,市监测站,颗粒物(PM10),59,67,84,33,53,124,,115,115,29,45,13,17,0.6,0.8
2023-11-23T1700,1404A,108.3829,22.8037,南宁市,大自然花园,颗粒物(PM10),54,57,73,30,53,112,,112,112,15,31,8,10,0.6,0.8
2023-11-23T1700,1405A,108.4394,22.7904,南宁市,仙葫,,47,47,73,27,47,109,,107,107,15,34,7,11,0.6,0.8
2023-11-23T1700,1406A,108.2397,22.8467,南宁市,区农职院,颗粒物(PM10),61,72,85,43,49,135,,116,116,17,34,12,14,0.7,0.8
2023-11-23T1700,1407A,108.3275,22.735,南宁市,英华嘉园,颗粒物(PM10),51,51,88,28,56,125,,104,104,16,48,8,10,0.8,1
2023-11-23T1700,1408A,108.2257,22.7757,南宁市,沙井镇街道办,颗粒物(PM10),57,63,103,39,55,136,,107,107,25,49,11,12,0.7,0.8
2023-11-23T1700,3401A,108.4834,22.7618,南宁市,红星社区,颗粒物(PM10),56,61,74,32,52,114,,110,110,16,39,13,12,0.6,0.8
2023-11-23T1700,2332A,118.1681,26.6369,南平市,南平市监测站,,38,34,42,26,34,82,,70,70,21,29,6,5,0.8,1
2023-11-23T1700,2333A,118.1825,26.6489,南平市,南平铝业有限公司,,,60,44,24,33,,,68,68,29,32,6,9,0.9,0.8
2023-11-23T1700,2334A,118.1756,26.6272,南平市,南平七中,颗粒物(PM10),51,51,38,29,29,77,,75,75,29,28,7,6,0.7,0.6
2023-11-23T1700,1168A,120.9098,31.9663,南通市,狼山街道,细颗粒物(PM2.5),169,208,127,128,94,106,,109,109,37,71,11,10,0.9,0.9
2023-11-23T1700,1169A,120.86,32.0005,南通市,虹桥,细颗粒物(PM2.5),132,182,147,100,99,96,,111,109,40,82,8,13,0.9,1
2023-11-23T1700,1170A,120.87,32.02,南通市,城中,细颗粒物(PM2.5),132,168,132,100,93,90,,106,106,35,73,10,15,0.7,0.8
2023-11-23T1700,1171A,120.94,31.93,南通市,星湖花园,细颗粒物(PM2.5),152,202,147,116,98,94,,95,95,39,92,10,12,1.0,1.1
2023-11-23T1700,1172A,120.81,32.0417,南通市,紫琅学院,颗粒物(PM10),116,181,142,74,83,84,,102,102,35,81,9,13,0.8,1
2023-11-23T1700,3291A,121.067,32.062,南通市,通州监测站,颗粒物(PM10),100,149,144,63,93,80,,130,123,25,85,8,13,0.6,1.1
2023-11-23T1700,3432A,120.9348,31.9883,南通市,环境教育馆,细颗粒物(PM2.5),130,129,103,99,92,90,,115,115,31,65,10,13,0.7,0.8
2023-11-23T1700,2404A,112.5224,33.0122,南阳市,瓦房庄,颗粒物(PM10),58,65,124,16,84,69,,66,66,22,41,6,7,0.4,0.8
2023-11-23T1700,2405A,112.5003,32.9735,南阳市,汉画馆,颗粒物(PM10),61,72,132,14,79,70,,65,65,20,40,5,5,0.2,0.8
2023-11-23T1700,2406A,112.5573,33.027,南阳市,气象站,,,73,117,17,74,,,69,69,13,35,3,6,0.3,0.7
2023-11-23T1700,2407A,112.5481,32.9689,南阳市,理工学院,颗粒物(PM10),61,72,126,12,78,75,,71,71,15,36,5,8,0.2,0.6
2023-11-23T1700,4008A,112.5234,32.9922,南阳市,卧龙区政府,颗粒物(PM10),65,80,133,13,80,68,,65,65,20,41,5,6,0.3,0.8
2023-11-23T1700,1234A,121.8358,29.911,宁波市,区环保大楼,颗粒物(PM10),96,142,92,71,46,143,,116,116,51,70,22,10,0.9,0.8
2023-11-23T1700,1235A,121.56,29.82,宁波市,万里学院,颗粒物(PM10),92,133,84,62,48,154,,125,125,31,54,13,8,1.0,0.8
2023-11-23T1700,1236A,121.713,29.9572,宁波市,龙赛医院,颗粒物(PM10),93,136,108,66,48,136,,103,103,52,77,16,10,0.8,0.7
2023-11-23T1700,1239A,121.633,29.7733,宁波市,钱湖水厂,颗粒物(PM10),85,119,61,62,38,148,,119,119,34,23,14,9,0.8,0.6
2023-11-23T1700,1240A,121.5856,29.8635,宁波市,太古小学,细颗粒物(PM2.5),92,108,74,68,38,151,,122,122,33,58,15,11,0.9,0.8
2023-11-23T1700,1241A,121.524,29.8674,宁波市,市环境监测中心,颗粒物(PM10),85,120,79,49,40,145,,123,123,34,66,18,11,0.8,0.4
2023-11-23T1700,2871A,121.6147,29.9017,宁波市,万里国际学校,细颗粒物(PM2.5),107,117,74,80,50,123,,114,114,57,54,15,10,1.0,0.8
2023-11-23T1700,3710A,121.5594,29.8975,宁波市,白沙活动中心,细颗粒物(PM2.5),79,98,68,58,38,155,,122,122,28,60,15,9,1.0,0.9
2023-11-23T1700,2341A,119.5388,26.6612,宁德市,宁德市监测站,,39,39,28,26,21,87,,77,77,25,18,6,5,0.7,0.6
2023-11-23T1700,3209A,119.5231,26.6562,宁德市,宁德一中,颗粒物(PM10),51,51,33,27,20,88,,66,66,8,16,6,6,0.8,0.9
2023-11-23T1700,2618A,98.8601,25.8567,怒江州,州监测站,,25,23,28,17,20,75,,55,55,14,14,8,8,0.4,0.3
2023-11-23T1700,2619A,98.8546,25.8417,怒江州,泸水一中,,22,22,27,13,20,70,,47,47,13,18,7,6,0.4,0.5
2023-11-23T1700,1888A,101.6891,26.571,攀枝花市,弄弄坪,,45,45,48,29,32,91,,58,58,36,28,40,27,2.1,1.5
2023-11-23T1700,1889A,101.5769,26.5928,攀枝花市,河门口,,31,24,48,15,31,97,,76,76,15,27,10,15,0.4,1.3
2023-11-23T1700,1890A,101.7169,26.585,攀枝花市,炳草岗,,42,42,63,16,36,86,,56,56,36,47,34,29,1.6,1.7
2023-11-23T1700,1891A,101.7369,26.5008,攀枝花市,仁和,,40,35,44,24,32,126,,80,80,20,26,24,17,1.5,1.3
2023-11-23T1700,2835A,101.7227,26.567,攀枝花市,四十中小,,39,34,65,27,36,108,,65,65,23,53,26,20,1.9,1.9
2023-11-23T1700,1604A,122.0303,41.1489,盘锦市,开发区,,31,31,31,4,22,58,,59,59,14,19,7,8,0.4,0.5
2023-11-23T1700,1605A,122.0485,41.0883,盘锦市,兴隆台,,31,31,33,10,27,58,,60,60,18,19,9,8,0.3,0.5
2023-11-23T1700,1606A,121.8297,41.1028,盘锦市,新生街道,,30,30,30,6,24,55,,58,58,15,24,8,9,0.4,0.6
2023-11-23T1700,1832A,113.3257,33.742,平顶山市,新华旅馆,颗粒物(PM10),67,84,128,21,34,62,,72,72,17,15,7,11,0.5,0.5
2023-11-23T1700,1833A,113.2919,33.737,平顶山市,规划设计院,,45,45,108,12,33,70,,75,75,12,19,8,11,0.4,0.5
2023-11-23T1700,1834A,113.182,33.774,平顶山市,平顶山工学院,,44,44,107,9,27,73,,75,75,16,22,6,8,0.6,0.7
2023-11-23T1700,3204A,113.3025,33.73,平顶山市,规划局,颗粒物(PM10),60,70,138,14,39,69,,70,70,13,19,8,11,0.6,0.7
2023-11-23T1700,3594A,112.8867,33.9116,平顶山市,石龙区,颗粒物(PM10),60,70,219,22,31,76,,78,78,13,42,7,7,0.6,0.6
2023-11-23T1700,2656A,106.6692,35.5461,平凉市,聚贤嘉苑,颗粒物(PM10),77,104,132,32,33,81,,66,66,24,21,11,9,0.5,0.4
2023-11-23T1700,2657A,106.7021,35.5307,平凉市,博物馆,颗粒物(PM10),71,92,129,28,31,83,,70,70,22,13,6,7,0.4,0.4
2023-11-23T1700,2347A,114.0997,27.5002,萍乡市,武功山,,39,35,24,27,19,105,,108,108,6,6,7,5,0.3,0.3
2023-11-23T1700,2348A,113.8385,27.6434,萍乡市,中医院,颗粒物(PM10),60,69,63,34,45,110,,94,94,19,35,17,17,0.8,0.9
2023-11-23T1700,2349A,113.8493,27.6253,萍乡市,市政府车库,细颗粒物(PM2.5),64,65,60,46,44,114,,97,97,18,28,19,15,1.2,0.6
2023-11-23T1700,2350A,113.8676,27.6435,萍乡市,市环保局,细颗粒物(PM2.5),57,58,62,40,40,120,,100,100,15,35,14,15,0.5,0.7
2023-11-23T1700,2351A,113.866,27.6198,萍乡市,安源区政府,细颗粒物(PM2.5),62,57,64,44,44,123,,109,109,13,26,18,16,0.4,1.2
2023-11-23T1700,2319A,119.0141,25.4325,莆田市,荔城区仓后路,,36,36,38,16,17,104,,104,104,15,19,6,6,0.7,0.7
2023-11-23T1700,2320A,119.0015,25.4553,莆田市,莆田市监测站,,46,46,28,15,14,109,,110,110,16,11,8,7,0.6,0.5
2023-11-23T1700,2321A,119.1119,25.4561,莆田市,涵江区六中,,43,43,34,29,17,95,,102,102,20,22,9,8,0.7,0.6
2023-11-23T1700,2322A,119.1013,25.3215,莆田市,秀屿区政府,,,,41,18,40,101,,100,100,,24,9,9,0.7,0.7
2023-11-23T1700,2392A,115.0312,35.7636,濮阳市,环保局,,48,48,130,8,79,53,,59,59,21,49,4,7,0.2,0.7
2023-11-23T1700,2394A,115.0574,35.7609,濮阳市,油田运输公司,颗粒物(PM10),54,58,160,6,84,59,,62,62,16,49,4,8,0.2,0.8
2023-11-23T1700,2395A,115.0866,35.7754,濮阳市,油田物探公司,颗粒物(PM10),58,65,154,5,80,55,,60,60,20,55,2,5,0.2,0.8
2023-11-23T1700,3021A,115,35.7668,濮阳市,濮水河管理处,颗粒物(PM10),53,56,127,10,78,61,,63,63,18,42,4,5,0,0.6
2023-11-23T1700,2601A,100.98,22.7633,普洱市,市环保局,,,,23,,16,68,,53,53,7,10,3,3,0.3,0.5
2023-11-23T1700,2602A,100.9817,22.8322,普洱市,普洱第二中学,,25,25,28,16,13,64,,59,59,10,18,5,5,0.5,0.6
2023-11-23T1700,2262A,131.0518,45.8751,七台河市,新一中,,21,11,13,5,5,67,,76,75,19,8,7,8,0.6,0.6
2023-11-23T1700,3345A,131.0577,45.7879,七台河市,中波台,,19,19,11,10,8,44,,63,60,34,16,8,6,1.1,0.9
2023-11-23T1700,3637A,131.0176,45.7761,七台河市,人民广场,,19,,22,12,14,44,,60,58,37,20,6,6,0.7,0.6
2023-11-23T1700,3684A,130.8781,45.8222,七台河市,新建矿广场,,30,,7,21,20,55,,60,60,21,18,8,14,0.6,0.5
2023-11-23T1700,1779A,123.9305,47.3636,齐齐哈尔市,安居小区,,45,,16,31,12,52,,61,58,13,6,5,5,0.4,0.2
2023-11-23T1700,1780A,123.9488,47.3386,齐齐哈尔市,中心广场,,,,19,,3,51,,60,56,13,7,3,4,0.4,0.4
2023-11-23T1700,1781A,123.9483,47.3227,齐齐哈尔市,农牧车辆厂,,17,14,24,6,6,54,,60,58,11,7,6,7,0.4,0.3
2023-11-23T1700,1783A,123.945,47.2988,齐齐哈尔市,市环境监测站,,17,17,21,4,5,54,,61,59,11,6,4,4,0.4,0.3
2023-11-23T1700,3662A,123.6333,47.2075,齐齐哈尔市,富区青少年活动中心,,22,22,18,9,5,56,,63,60,8,5,6,6,0.3,0.2
2023-11-23T1700,2591A,107.9783,26.5747,黔东南苗族侗族自治州,市环境监测站,细颗粒物(PM2.5),83,75,94,61,70,49,,43,43,27,45,6,7,1.0,1.1
2023-11-23T1700,2881A,107.8908,26.5311,黔东南苗族侗族自治州,凯里学院,细颗粒物(PM2.5),79,70,79,58,63,59,,53,53,18,29,6,5,0.8,0.8
2023-11-23T1700,2593A,107.5228,26.2403,黔南布依族苗族自治州,小围寨,细颗粒物(PM2.5),67,56,66,48,52,75,,46,46,10,19,6,5,0.6,0.6
2023-11-23T1700,3538A,107.5175,26.2978,黔南布依族苗族自治州,沙坝,细颗粒物(PM2.5),67,66,68,48,52,83,,53,53,11,20,7,6,0.7,0.7
2023-11-23T1700,2589A,104.9022,25.0925,黔西南布依族苗族自治州,场坝街,颗粒物(PM10),53,56,63,30,49,82,,77,77,13,14,2,3,0.2,0.3
2023-11-23T1700,2590A,104.8811,25.0992,黔西南布依族苗族自治州,坪东大道,细颗粒物(PM2.5),57,44,60,40,49,82,,76,76,12,21,5,7,0.4,0.6
2023-11-23T1700,2502A,108.6236,21.9667,钦州市,市环保站,颗粒物(PM10),57,63,111,27,60,111,,115,115,17,41,6,11,0.7,1.1
2023-11-23T1700,2503A,108.6549,21.9481,钦州市,沙埠小学,颗粒物(PM10),60,69,104,39,77,119,,106,106,16,38,9,12,0.6,0.8
2023-11-23T1700,2504A,108.5989,21.7431,钦州市,港区一小,颗粒物(PM10),67,83,111,23,59,108,,97,97,37,47,10,12,0.7,0.9
2023-11-23T1700,3404A,108.5959,21.9633,钦州市,北职校,,50,50,95,26,64,116,,106,106,14,27,10,13,1.1,1.3
2023-11-23T1700,1042A,119.5134,39.8207,秦皇岛市,北戴河环保局,,19,19,51,12,24,60,,57,57,17,33,6,9,0.3,0.3
2023-11-23T1700,1043A,119.7493,40.0116,秦皇岛市,第一关,,39,39,55,14,31,50,,57,57,35,39,6,9,0.3,0.4
2023-11-23T1700,1044A,119.5897,39.9499,秦皇岛市,监测站,,27,27,52,14,33,62,,58,58,13,32,5,10,0.2,0.4
2023-11-23T1700,1046A,119.5251,39.9041,秦皇岛市,建设大厦,,36,31,57,25,35,59,,54,54,11,33,1,5,0.1,0.2
2023-11-23T1700,3132A,119.610547,39.943889,秦皇岛市,文明里,,30,30,69,14,30,61,,55,55,18,37,2,7,0.3,0.5
2023-11-23T1700,1307A,120.6659,36.2403,青岛市,仰口,,,,179,,66,56,,79,63,,24,,4,0.3,0.6
2023-11-23T1700,1310A,120.4134,36.0658,青岛市,市南区东部子站,颗粒物(PM10),85,119,246,24,132,62,,64,64,17,47,6,11,0.3,0.9
2023-11-23T1700,1311A,120.3664,36.1032,青岛市,四方区子站,颗粒物(PM10),69,88,210,12,144,68,,72,72,16,46,3,7,0.3,1
2023-11-23T1700,1312A,120.2994,36.054,青岛市,市南区西部子站,颗粒物(PM10),70,90,217,7,115,64,,66,66,15,46,6,9,0.5,0.9
2023-11-23T1700,1313A,120.4581,36.0858,青岛市,崂山区子站,颗粒物(PM10),68,85,219,7,108,30,,30,30,15,30,6,9,0.4,0.9
2023-11-23T1700,1314A,120.1983,35.9608,青岛市,黄岛区子站,颗粒物(PM10),74,97,209,12,106,58,,59,59,25,49,5,9,0.3,0.9
2023-11-23T1700,1315A,120.3999,36.3083,青岛市,城阳区子站,颗粒物(PM10),57,63,198,7,107,62,,68,68,15,50,4,10,0.5,1.2
2023-11-23T1700,1966A,120.0405,35.8735,青岛市,黄岛区4号,颗粒物(PM10),75,100,215,7,114,63,,66,66,17,40,5,10,0.4,1
2023-11-23T1700,3362A,120.5014,36.4034,青岛市,即墨2号,,,71,243,6,145,47,,55,55,,53,,9,,1.2
2023-11-23T1700,3642A,120.3503,36.0736,青岛市,市北区南部,颗粒物(PM10),85,120,234,7,122,54,,59,59,26,52,5,9,0.2,1.1
2023-11-23T1700,3643A,120.3948,36.1805,青岛市,李沧区北部,颗粒物(PM10),73,95,232,7,142,60,,65,65,24,61,6,9,0.5,1.1
2023-11-23T1700,1702A,113.0426,23.691,清远市,环保大楼,,45,27,79,21,60,144,,142,142,13,30,4,6,0.4,0.6
2023-11-23T1700,1703A,113.0208,23.7106,清远市,凤城街办,,46,30,89,20,54,146,,160,160,14,36,8,8,0.6,0.9
2023-11-23T1700,3025A,113.0477,23.6344,清远市,技师学院,,45,30,98,18,57,141,,142,142,7,37,7,9,0.5,0.8
2023-11-23T1700,3318A,112.9903,23.7403,清远市,清新太和,,50,47,83,28,53,159,,164,164,12,22,4,6,0.6,0.7
2023-11-23T1700,3455A,113.076,23.7198,清远市,清城东城,,50,37,74,24,51,158,,151,151,12,26,9,9,0.6,0.7
2023-11-23T1700,2661A,107.6325,35.7357,庆阳市,庆阳五中,颗粒物(PM10),60,70,104,25,29,75,,66,66,14,18,6,11,0.3,0.4
2023-11-23T1700,2662A,107.6364,35.7067,庆阳市,市环保局,颗粒物(PM10),59,67,102,21,22,77,,66,66,10,16,5,15,0.2,0.2
2023-11-23T1700,1916A,103.7897,25.5035,曲靖市,环境监测站,颗粒物(PM10),52,54,66,29,40,63,,58,58,16,23,4,9,0.4,0.6
2023-11-23T1700,1917A,103.8,25.5364,曲靖市,烟厂办公区,颗粒物(PM10),53,56,73,34,41,72,,59,59,15,27,4,9,0.6,1
2023-11-23T1700,3376A,103.7947,25.462,曲靖市,南苑二区,颗粒物(PM10),52,53,62,35,40,66,,67,67,16,17,5,7,0.6,0.8
2023-11-23T1700,3377A,103.7444,25.5261,曲靖市,曲靖师范学院,,50,50,71,34,51,75,,63,63,16,20,5,15,0.6,1
2023-11-23T1700,1264A,118.8692,28.9398,衢州市,环保大楼,颗粒物(PM10),53,55,67,28,35,95,,84,84,29,45,9,7,0.7,0.7
2023-11-23T1700,1265A,118.8709,28.9666,衢州市,实验学校,,50,50,63,28,31,96,,80,80,28,46,15,10,0.6,0.6
2023-11-23T1700,1266A,118.8621,28.9808,衢州市,衢州学院,,47,47,54,25,28,92,,77,77,32,46,6,7,0.5,0.6
2023-11-23T1700,1611A,118.5819,24.9117,泉州市,涂山街,,44,44,57,12,29,104,,114,114,14,30,4,4,0.7,0.8
2023-11-23T1700,1612A,118.5972,24.8978,泉州市,津头埔,,42,42,52,16,27,99,,108,108,19,33,4,4,0.6,0.7
2023-11-23T1700,1613A,118.6663,24.9424,泉州市,万安,,42,42,48,16,24,112,,121,121,12,27,4,4,0.6,0.6
2023-11-23T1700,3529A,118.6333,24.9264,泉州市,城华南路,,,32,41,23,21,86,,109,109,,22,5,5,,0.5
2023-11-23T1700,2626A,88.8876,29.2718,日喀则市,日喀则监测站,,28,12,16,4,12,87,,74,74,4,13,5,4,0.4,0.5
2023-11-23T1700,3726A,88.8781,29.2426,日喀则市,林业技术推广中心,,28,14,15,0,4,87,,70,70,5,10,5,6,0.3,0.4
2023-11-23T1700,1659A,119.471,35.4209,日照市,监测站,,,90,184,10,102,64,,62,62,,50,12,11,0.6,1.2
2023-11-23T1700,1660A,119.523,35.4216,日照市,市政府广场,颗粒物(PM10),70,90,179,5,99,68,,66,66,22,46,4,8,0.5,0.9
2023-11-23T1700,1661A,119.5587,35.4044,日照市,港务局,颗粒物(PM10),75,100,188,5,97,69,,67,67,17,53,7,10,0.4,0.9
2023-11-23T1700,3507A,119.5328,35.4625,日照市,职业技术学院,颗粒物(PM10),86,122,184,19,88,67,,65,65,12,47,7,10,0.5,1
2023-11-23T1700,3604A,119.3266,35.1044,日照市,岚山环保分局,,,83,202,10,109,65,,64,64,,60,9,27,0.6,2.6
2023-11-23T1700,1835A,111.1922,34.7752,三门峡市,市政府,,41,41,100,15,28,68,,66,66,14,35,7,8,0.4,0.5
2023-11-23T1700,1836A,111.1587,34.7942,三门峡市,开发区,颗粒物(PM10),53,55,98,9,20,68,,68,68,14,26,8,7,0.5,0.6
2023-11-23T1700,3039A,111.1911,34.7829,三门峡市,三门峡市第一小学,颗粒物(PM10),51,52,114,12,20,69,,68,68,14,35,10,10,0.3,0.5
2023-11-23T1700,3598A,111.1,34.7167,三门峡市,富达温泉假日酒店,,45,45,109,14,27,72,,70,70,25,41,11,13,0.3,0.4
2023-11-23T1700,2324A,117.6211,26.2625,三明市,三钢,,,30,46,30,35,97,,79,79,,39,4,11,,1.7
2023-11-23T1700,2325A,117.635,26.2714,三明市,三明二中,,37,37,38,24,28,100,,79,79,13,37,6,11,0.5,1.7
2023-11-23T1700,1876A,109.5078,18.2489,三亚市,河东子站,,30,30,27,13,10,86,,88,87,12,6,2,2,0.2,0.3
2023-11-23T1700,1877A,109.4964,18.2681,三亚市,河西子站,,29,29,25,11,10,88,,85,85,6,4,2,2,0.3,0.3
2023-11-23T1700,3540A,109.7348,18.3443,三亚市,君悦子站,,34,32,30,12,9,107,,97,97,11,6,2,2,0.3,0.3
2023-11-23T1700,2624A,91.7608,29.2313,山南市,山南监测站,,25,19,20,3,7,80,,65,65,17,15,8,8,0.3,0.3
2023-11-23T1700,2625A,91.7706,29.2436,山南市,山南人民医院,,29,10,19,2,7,91,,73,73,6,12,6,6,0.3,0.3
2023-11-23T1700,1674A,116.6794,23.3667,汕头市,金平子站,颗粒物(PM10),54,58,65,28,45,156,,149,149,16,35,9,14,0.6,0.9
2023-11-23T1700,1675A,116.7244,23.3633,汕头市,龙湖子站,颗粒物(PM10),63,76,60,35,35,158,,156,156,25,39,9,13,0.8,0.9
2023-11-23T1700,1676A,116.7258,23.2775,汕头市,濠江子站,颗粒物(PM10),62,73,56,26,36,147,,142,142,25,28,11,12,0.8,1
2023-11-23T1700,1677A,116.7519,23.4714,汕头市,澄海子站,,,,55,,31,138,,124,124,22,26,8,12,,0.9
2023-11-23T1700,1678A,116.6092,23.2539,汕头市,潮阳子站,臭氧1小时,73,77,53,33,28,178,,152,152,22,21,11,10,0.8,0.9
2023-11-23T1700,3444A,116.454,23.2684,汕头市,潮南峡山,臭氧1小时,89,80,90,40,43,191,,150,150,20,23,13,11,0.9,0.9
2023-11-23T1700,3624A,116.4069,23.2533,汕头市,潮南子站,颗粒物(PM10),63,76,76,32,45,168,,134,134,19,24,10,11,0.8,0.9
2023-11-23T1700,1693A,115.3653,22.775,汕尾市,市环保局,,43,40,39,21,25,136,,123,123,15,17,11,11,0.6,0.6
2023-11-23T1700,1694A,115.3706,22.7898,汕尾市,市政府,,,42,34,26,25,,,134,134,,10,,9,,0.6
