timepoint,stationcode,longitude,latitude,area,positionname,primarypollutant,aqi,pm10,pm10_24h,pm2_5,pm2_5_24h,o3,o3_24h,o3_8h,o3_8h_24h,no2,no2_24h,so2,so2_24h,co,co_24h
2024-10-17T1600,2566A,102.1879,31.914,阿坝藏族羌族自治州,州农科所,,21,21,24,6,8,54,,48,48,19,9,13,8,0,0
2024-10-17T1600,2568A,102.2502,31.8896,阿坝藏族羌族自治州,马师校,,20,14,12,14,13,52,,48,48,15,8,4,4,0.2,0.2
2024-10-17T1600,3994A,102.2165,31.9024,阿坝藏族羌族自治州,马尔康中学西区,,22,22,20,11,12,60,,47,47,12,9,5,3,0.4,0.4
2024-10-17T1600,2695A,80.292,41.1694,阿克苏地区,电视台,,37,37,77,11,23,95,,76,66,10,26,1,2,0.3,0.5
2024-10-17T1600,2696A,80.2613,41.1551,阿克苏地区,艺术中心,,,32,78,7,25,93,,67,55,,34,4,4,0.3,0.4
2024-10-17T1600,2204A,105.6467,38.8363,阿拉善盟,西城区西花园,,46,42,49,32,34,83,,68,68,12,15,8,9,1.0,1
2024-10-17T1600,2205A,105.6985,38.8411,阿拉善盟,蒙二幼,,39,39,43,17,29,82,,68,68,11,15,9,9,0.7,1
2024-10-17T1600,2206A,105.724,38.8516,阿拉善盟,环保局新楼,,27,18,39,14,28,84,,70,70,12,15,9,9,0.7,0.7
2024-10-17T1600,2708A,88.1264,47.8517,阿勒泰地区,市站,,25,25,30,12,14,26,,37,22,12,20,7,8,0.6,0.6
2024-10-17T1600,2630A,80.1161,32.5,阿里地区,阿里监测站,,35,7,14,3,5,112,,96,96,1,8,7,9,0.4,0.4
2024-10-17T1600,3192A,80.0903,32.5028,阿里地区,阿里藏医院,,35,6,20,3,4,111,,106,103,3,6,6,7,0.3,0.3
2024-10-17T1600,2642A,109.0318,32.6537,安康市,香溪洞,,42,37,49,29,33,78,,91,74,12,8,8,8,0.5,0.4
2024-10-17T1600,2643A,109.0281,32.6939,安康市,安康市监测站,,42,40,56,29,33,81,,70,67,13,13,7,8,0.6,0.6
2024-10-17T1600,2644A,109.0072,32.6975,安康市,汉滨区检察院,颗粒物(PM10),51,51,56,33,35,73,,62,61,16,14,7,8,0.6,0.5
2024-10-17T1600,2291A,117.0809,30.5177,安庆市,环科院,,,,19,,12,94,,70,70,19,16,8,8,0.7,0.6
2024-10-17T1600,2292A,117.0331,30.5119,安庆市,马山宾馆,,29,22,19,13,13,92,,68,68,21,16,8,6,0.8,0.7
2024-10-17T1600,2294A,116.9896,30.6145,安庆市,安庆大学,,38,38,31,26,17,66,,54,54,15,15,10,9,0.7,0.7
2024-10-17T1600,3173A,117.0598,30.5351,安庆市,市人大,,30,29,22,15,14,96,,68,68,23,20,10,9,0.6,0.6
2024-10-17T1600,3122A,105.9606,26.2611,安顺市,伍家关,,,,9,6,5,64,,56,54,3,5,2,2,0.5,0.6
2024-10-17T1600,3123A,105.9408,26.2431,安顺市,凤凰山,,22,8,10,7,7,70,,59,58,3,6,5,6,0.3,0.3
2024-10-17T1600,3124A,105.9439,26.2564,安顺市,金钟山,,23,16,11,6,6,72,,63,60,4,5,7,7,0.5,0.5
2024-10-17T1600,3125A,105.8983,26.2481,安顺市,娄家坡,,23,,8,10,7,72,,62,59,4,5,5,5,0.4,0.5
2024-10-17T1600,1818A,114.4839,36.0621,安阳市,棉研所,细颗粒物(PM2.5),90,,139,67,96,89,,79,79,20,39,5,7,0.7,0.8
2024-10-17T1600,1819A,114.3551,36.1017,安阳市,红庙街,细颗粒物(PM2.5),149,122,136,114,87,22,,68,64,60,40,3,5,0.9,0.9
2024-10-17T1600,1820A,114.361,36.0681,安阳市,银杏小区,细颗粒物(PM2.5),67,69,114,48,81,82,,71,71,6,21,1,3,0.7,0.9
2024-10-17T1600,3141A,114.3922,36.0878,安阳市,信访局,细颗粒物(PM2.5),63,68,130,45,60,70,,71,71,12,31,3,3,0.6,0.7
2024-10-17T1600,3669A,114.4705,36.0637,安阳市,左辅环卫站,颗粒物(PM10),64,78,157,41,82,76,,75,75,23,40,2,3,0.5,0.7
2024-10-17T1600,3703A,114.2917,36.0949,安阳市,安钢职工学校,细颗粒物(PM2.5),160,157,154,122,104,25,,57,55,56,45,1,2,0.9,0.9
2024-10-17T1600,1748A,123.044,41.1196,鞍山市,深沟寺,细颗粒物(PM2.5),100,121,66,75,37,95,,89,89,31,26,14,11,1.2,0.9
2024-10-17T1600,1749A,123.011,41.0931,鞍山市,太阳城,细颗粒物(PM2.5),90,122,66,67,36,98,,94,94,34,28,19,16,1.1,0.8
2024-10-17T1600,1750A,123.0485,41.1442,鞍山市,太平,"颗粒物(PM10),细颗粒物(PM2.5)",78,105,79,57,39,72,,80,80,44,41,13,16,0.9,1.1
2024-10-17T1600,1751A,122.9642,41.0971,鞍山市,铁西三道街,细颗粒物(PM2.5),112,150,96,84,46,91,,84,84,40,46,14,17,1.0,1.2
2024-10-17T1600,1752A,122.9341,41.0833,鞍山市,铁西工业园区,细颗粒物(PM2.5),113,134,80,85,45,108,,102,102,28,32,18,17,0.8,0.9
2024-10-17T1600,1753A,123.022,41.0821,鞍山市,明达新区,细颗粒物(PM2.5),107,134,74,80,41,101,,91,91,25,22,16,13,1.2,1
2024-10-17T1600,1754A,123.1289,41.0228,鞍山市,千山,,,,38,,25,,,57,,,19,,4,,0.6
2024-10-17T1600,2195A,107.4212,40.761,巴彦淖尔市,附二中,,48,41,102,33,62,102,,86,86,10,20,4,6,0.7,0.9
2024-10-17T1600,2196A,107.37,40.7372,巴彦淖尔市,市环保大楼,细颗粒物(PM2.5),53,54,98,37,54,101,,76,76,10,20,3,5,0.6,0.8
2024-10-17T1600,1956A,86.1472,41.7538,巴音郭楞蒙古自治州,孔雀公园,颗粒物(PM10),55,59,84,15,19,82,,91,60,18,16,5,4,0.3,0.3
2024-10-17T1600,1957A,86.1972,41.7166,巴音郭楞蒙古自治州,棉纺厂,,49,49,92,20,22,92,,83,69,8,21,1,3,0.2,0.3
2024-10-17T1600,1958A,86.2357,41.7173,巴音郭楞蒙古自治州,经济开发区,颗粒物(PM10),51,51,76,12,24,99,,90,81,4,10,2,5,0.2,0.3
2024-10-17T1600,2914A,106.7677,31.8794,巴中市,苏山坪,,25,21,26,15,21,79,,76,61,8,7,4,4,0.4,0.3
2024-10-17T1600,3182A,106.7656,31.8545,巴中市,丽阳花园,,26,19,37,13,27,83,,52,52,9,22,5,5,0.5,0.6
2024-10-17T1600,3183A,106.7418,31.8654,巴中市,圣泉水务公司,,26,18,32,15,25,81,,49,49,8,19,4,4,0.5,0.6
2024-10-17T1600,3616A,106.7616,31.8344,巴中市,市中心医院,,27,19,40,13,26,85,,54,54,6,18,5,5,0.5,0.6
2024-10-17T1600,2235A,122.7911,45.6077,白城市,洮北区环保局,,31,31,32,13,16,64,,55,55,11,18,5,5,0.3,0.4
2024-10-17T1600,2236A,122.8738,45.5725,白城市,市环保局,,27,27,30,11,13,70,,63,63,10,23,5,5,0.4,0.5
2024-10-17T1600,2231A,126.4219,41.9171,白山市,喜丰,颗粒物(PM10),62,73,91,25,24,78,,29,29,31,45,13,18,0.7,0.8
2024-10-17T1600,2232A,126.4077,41.9419,白山市,环保局,颗粒物(PM10),60,69,70,36,24,22,,15,15,67,45,15,20,1.0,0.8
2024-10-17T1600,2647A,104.1724,36.5446,白银市,第三小学,,35,34,33,24,23,100,,70,70,18,31,43,15,0.7,1.1
2024-10-17T1600,2648A,104.1465,36.5482,白银市,动力公司,,38,38,31,14,18,104,,66,66,13,25,15,7,0.6,0.9
2024-10-17T1600,2512A,106.6103,23.9011,百色市,市监测站,,45,45,40,25,23,89,,46,46,10,19,12,12,0.8,1.1
2024-10-17T1600,2513A,106.6538,23.8859,百色市,市中心血站,,40,40,45,22,25,78,,50,50,9,23,9,10,0.7,0.9
2024-10-17T1600,3406A,106.6085,23.8798,百色市,祈福高中,颗粒物(PM10),67,83,54,31,28,84,,48,48,9,23,10,8,0.8,1
2024-10-17T1600,2270A,117.396,32.939,蚌埠市,工人疗养院,颗粒物(PM10),55,60,53,26,24,62,,82,64,27,14,6,5,0.6,0.5
2024-10-17T1600,2271A,117.3605,32.9427,蚌埠市,百货大楼,颗粒物(PM10),62,74,53,25,23,47,,78,58,34,14,7,5,0.5,0.3
2024-10-17T1600,2273A,117.4185,32.8911,蚌埠市,蚌埠学院,颗粒物(PM10),70,90,40,33,26,73,,80,72,16,13,6,6,0.6,0.4
2024-10-17T1600,2274A,117.3533,32.9673,蚌埠市,淮上区政府,颗粒物(PM10),56,61,48,29,28,59,,82,66,22,12,7,7,0.7,0.5
2024-10-17T1600,2275A,117.3145,32.8977,蚌埠市,高新区,,44,44,40,23,24,65,,79,67,19,16,6,6,0.6,0.5
2024-10-17T1600,3715A,117.3092,32.9314,蚌埠市,蚌埠田家炳中学,颗粒物(PM10),54,58,50,26,25,68,,80,67,15,13,6,6,0.5,0.4
2024-10-17T1600,1585A,109.8756,40.6532,包头市,市环境监测站,,33,,87,23,54,83,,68,68,28,52,6,15,0.7,1.2
2024-10-17T1600,1587A,109.9991,40.5842,包头市,包头八中,,46,39,101,32,74,78,,64,61,29,47,24,29,1.1,1.4
2024-10-17T1600,1588A,109.8538,40.6821,包头市,青山宾馆,,28,22,76,19,67,60,,64,59,48,54,6,13,0.8,1.2
2024-10-17T1600,1589A,109.8642,40.6288,包头市,惠龙物流,,35,28,91,24,55,72,,66,66,35,50,8,18,0.9,1.2
2024-10-17T1600,1590A,110.0377,40.5546,包头市,东河鸿龙湾,,48,48,94,33,60,71,,56,56,31,52,15,27,0.8,1.1
2024-10-17T1600,3283A,109.9154,40.5685,包头市,滨河大厦,细颗粒物(PM2.5),53,48,97,37,57,71,,55,55,34,53,14,20,0.9,1.1
2024-10-17T1600,3419A,109.9447,40.6261,包头市,包头市委党校,,27,17,84,12,55,85,,76,71,26,46,5,15,0.8,1.2
2024-10-17T1600,3683A,109.8331,40.6576,包头市,昆区政府,,32,24,87,22,70,76,,69,67,33,49,7,15,0.7,1.1
2024-10-17T1600,1930A,107.185,34.3063,宝鸡市,庙沟村,颗粒物(PM10),65,79,74,46,44,58,,50,42,16,18,7,7,0.8,0.7
2024-10-17T1600,1931A,107.0708,34.3017,宝鸡市,竹园沟,细颗粒物(PM2.5),89,100,81,66,57,66,,45,45,22,23,7,7,0.7,0.6
2024-10-17T1600,1932A,107.1906,34.3672,宝鸡市,三陆医院,细颗粒物(PM2.5),82,80,101,60,72,66,,55,55,25,31,6,7,0.9,0.9
2024-10-17T1600,1933A,107.1431,34.3547,宝鸡市,监测站,细颗粒物(PM2.5),85,101,102,63,65,69,,56,56,22,29,7,7,0.8,0.8
2024-10-17T1600,1934A,107.1186,34.3739,宝鸡市,技工学校,细颗粒物(PM2.5),117,,91,88,84,64,,52,52,32,27,8,7,0.9,0.8
2024-10-17T1600,1935A,107.3906,34.3528,宝鸡市,陈仓区环保局家属楼,细颗粒物(PM2.5),115,,107,87,87,79,,52,52,21,38,8,9,0.7,0.7
2024-10-17T1600,1936A,107.2058,34.3497,宝鸡市,文理学院,细颗粒物(PM2.5),82,84,97,60,59,66,,58,58,24,24,8,8,0.7,0.7
2024-10-17T1600,1937A,107.2386,34.3622,宝鸡市,三迪小学,细颗粒物(PM2.5),74,66,102,54,69,76,,57,57,30,39,8,8,0.8,0.8
2024-10-17T1600,1051A,115.493,38.8632,保定市,游泳馆,颗粒物(PM10),68,86,88,47,50,24,,14,14,37,49,6,5,0.5,0.4
2024-10-17T1600,1052A,115.5213,38.8959,保定市,华电二区,颗粒物(PM10),69,87,82,43,49,19,,9,9,40,51,6,7,0.8,0.7
2024-10-17T1600,1053A,115.4713,38.9108,保定市,接待中心,细颗粒物(PM2.5),64,74,91,46,47,22,,10,10,41,52,4,4,0.5,0.6
2024-10-17T1600,1054A,115.4612,38.8416,保定市,地表水厂,细颗粒物(PM2.5),60,67,87,43,50,23,,12,12,38,55,4,5,0.4,0.4
2024-10-17T1600,3581A,115.31981,38.95208,保定市,满城区生态环境分局,颗粒物(PM10),58,66,95,39,43,48,,22,22,26,47,4,4,0.4,0.7
2024-10-17T1600,3582A,115.47694,38.76408,保定市,清苑区第二中学,颗粒物(PM10),68,86,108,36,57,20,,14,14,49,57,5,6,0.6,0.5
2024-10-17T1600,3583A,115.62909,39.02311,保定市,徐水物探局,细颗粒物(PM2.5),62,59,76,44,37,13,,8,8,41,51,5,5,0.6,0.5
2024-10-17T1600,4004A,115.4202,38.8656,保定市,双鹰农机,颗粒物(PM10),66,81,88,30,42,23,,11,11,47,58,4,3,0.6,0.6
2024-10-17T1600,4034A,115.5150,38.8590,保定市,植保所站,颗粒物(PM10),63,75,87,21,43,19,,11,11,41,59,2,11,0.5,0.6
2024-10-17T1600,2594A,99.1678,25.1081,保山市,市环境监测站,,22,18,24,9,14,69,,53,53,4,7,4,4,0.4,0.5
2024-10-17T1600,2595A,99.1711,25.1328,保山市,市环保局,,24,20,27,8,14,74,,57,57,3,5,3,4,0.5,0.4
2024-10-17T1600,1866A,109.2262,21.588,北海市,牛尾岭水库,,,,16,6,11,61,,60,60,,11,5,6,0.6,0.6
2024-10-17T1600,1867A,109.1436,21.4086,北海市,海滩公园,,25,19,23,3,7,80,,78,78,3,7,6,8,0.6,0.7
2024-10-17T1600,1868A,109.0981,21.4661,北海市,新市环保局,,23,17,23,7,12,72,,72,72,5,10,4,7,0.5,0.6
2024-10-17T1600,1869A,109.1778,21.5233,北海市,北海工业园,,22,16,28,10,17,68,,70,70,7,13,5,12,0.5,0.5
2024-10-17T1600,3400A,109.1911,21.4415,北海市,龙潭自来水厂,,24,15,22,9,16,74,,76,76,3,10,6,10,0.5,0.5
2024-10-17T1600,1001A,116.3621,39.8784,北京市,万寿西宫,颗粒物(PM10),61,72,64,36,27,21,,18,18,41,45,3,3,0.8,0.8
2024-10-17T1600,1002A,116.2202,40.2915,北京市,定陵,颗粒物(PM10),53,55,45,35,26,18,,18,18,22,17,1,2,0.5,0.5
2024-10-17T1600,1003A,116.4174,39.9289,北京市,东四,颗粒物(PM10),61,71,66,35,27,43,,21,21,33,47,5,5,0.8,0.8
2024-10-17T1600,1004A,116.4072,39.8863,北京市,天坛,颗粒物(PM10),62,73,59,38,29,37,,19,19,37,46,2,2,0.8,0.7
2024-10-17T1600,1005A,116.462,39.9365,北京市,农展馆,颗粒物(PM10),62,74,69,34,27,28,,13,13,34,46,1,7,0.7,0.7
2024-10-17T1600,1006A,116.3392,39.9295,北京市,官园,颗粒物(PM10),62,73,63,35,27,14,,16,16,44,43,4,5,0.8,0.7
2024-10-17T1600,1007A,116.2878,39.9611,北京市,海淀万柳,颗粒物(PM10),59,67,60,33,26,21,,15,15,42,46,3,4,0.6,0.6
2024-10-17T1600,1008A,116.6636,40.135,北京市,顺义新城,,,59,59,33,26,44,,25,25,25,36,1,2,,0.6
2024-10-17T1600,1009A,116.6275,40.3275,北京市,怀柔镇,,49,49,51,29,25,41,,30,30,15,22,1,2,0.7,0.7
2024-10-17T1600,1010A,116.2296,40.217,北京市,昌平镇,颗粒物(PM10),61,71,60,33,27,30,,18,18,29,30,5,4,0.5,0.6
2024-10-17T1600,1011A,116.3966,39.9821,北京市,奥体中心,颗粒物(PM10),59,68,59,33,26,34,,19,19,39,48,4,3,0.8,0.8
2024-10-17T1600,1012A,116.184,39.9136,北京市,古城,颗粒物(PM10),69,88,73,42,31,21,,19,19,37,41,4,4,0.7,0.8
2024-10-17T1600,3281A,115.9718,40.4529,北京市,延庆夏都,细颗粒物(PM2.5),63,73,64,45,35,41,,40,40,12,14,3,2,0.5,0.5
2024-10-17T1600,3417A,117.0709,40.1465,北京市,平谷新城,颗粒物(PM10),56,62,54,38,29,41,,34,34,22,21,1,2,0.5,0.5
2024-10-17T1600,3418A,116.8336,40.4095,北京市,密云新城,颗粒物(PM10),51,52,52,26,23,38,,43,43,18,19,3,2,0.6,0.5
2024-10-17T1600,3671A,116.088,39.9726,北京市,门头沟三家店,细颗粒物(PM2.5),55,54,44,39,27,14,,16,16,42,40,4,4,0.5,0.5
2024-10-17T1600,3672A,116.1541,39.8204,北京市,丰台云岗,颗粒物(PM10),65,79,66,44,30,8,,8,8,39,41,3,3,0.6,0.5
2024-10-17T1600,3673A,116.6804,39.9081,北京市,通州东关,颗粒物(PM10),64,77,75,36,32,22,,17,17,35,47,2,2,0.7,0.6
2024-10-17T1600,3674A,115.9577,39.7603,北京市,房山燕山,颗粒物(PM10),79,107,65,46,32,32,,16,16,20,27,3,2,0.5,0.5
2024-10-17T1600,3675A,116.4672,39.7733,北京市,大兴旧宫,颗粒物(PM10),59,68,57,34,27,16,,16,16,43,40,3,3,0.7,0.7
2024-10-17T1600,3694A,115.986,40.4563,北京市,延庆石河营,细颗粒物(PM2.5),63,62,59,45,32,36,,36,36,13,13,3,3,0.5,0.5
2024-10-17T1600,3695A,116.6151,40.3053,北京市,怀柔新城,,48,48,51,31,30,41,,32,32,10,17,3,2,0.6,0.5
2024-10-17T1600,3696A,116.2545,39.8768,北京市,丰台小屯,颗粒物(PM10),59,68,57,35,26,25,,11,11,29,45,1,1,0.8,0.8
2024-10-17T1600,3697A,116.84,40.3844,北京市,密云镇,颗粒物(PM10),53,55,46,28,22,45,,33,33,21,28,4,4,0.5,0.5
2024-10-17T1600,1761A,123.8275,41.3064,本溪市,大峪,细颗粒物(PM2.5),87,110,79,64,34,116,,71,71,16,43,11,12,1.0,1.2
2024-10-17T1600,1762A,123.7567,41.3325,本溪市,溪湖,颗粒物(PM10),77,104,109,54,46,78,,62,62,36,48,10,12,0.6,1.2
2024-10-17T1600,1763A,123.7169,41.3094,本溪市,彩屯,细颗粒物(PM2.5),77,102,93,56,50,65,,52,52,48,56,22,16,2.3,1.9
2024-10-17T1600,1764A,123.7669,41.2864,本溪市,东明,细颗粒物(PM2.5),69,71,83,50,42,94,,64,64,23,58,7,9,0.7,1.1
2024-10-17T1600,1765A,123.7992,41.2664,本溪市,新立屯,颗粒物(PM10),64,78,48,30,19,103,,86,86,27,50,8,7,0.5,0.4
2024-10-17T1600,1766A,123.8142,41.3472,本溪市,威宁,颗粒物(PM10),76,102,105,52,44,99,,72,72,25,42,10,10,0.7,1.1
2024-10-17T1600,2587A,105.2864,27.3125,毕节市,八中,,26,13,22,8,15,82,,57,57,8,14,7,7,0.4,0.6
2024-10-17T1600,2588A,105.31,27.2944,毕节市,师专,,26,14,19,6,12,82,,56,56,8,11,8,7,0.4,0.5
2024-10-17T1600,3537A,105.3631,27.3533,毕节市,长征村,,28,19,20,14,16,87,,59,59,9,8,9,7,0.5,0.6
2024-10-17T1600,1629A,118.0018,37.3617,滨州市,第二水厂,,,48,126,3,66,113,,98,98,12,49,6,11,,0.7
2024-10-17T1600,1630A,117.9776,37.393,滨州市,北中新校,颗粒物(PM10),51,51,123,7,65,113,,100,100,18,56,8,12,0.4,1.2
2024-10-17T1600,3514A,117.9378,37.3956,滨州市,中海酒店,,46,46,111,7,63,123,,108,108,19,48,5,9,0.3,1
2024-10-17T1600,3515A,117.9378,37.3553,滨州市,开发区一中,颗粒物(PM10),54,58,118,14,67,117,,107,107,16,53,6,10,0.7,1
2024-10-17T1600,3516A,118.0917,37.694,滨州市,金海六路,颗粒物(PM10),57,63,125,17,68,113,,102,102,23,38,7,12,0.3,0.7
2024-10-17T1600,4028A,117.9956,37.3753,滨州市,滨州市西街道办事处,,48,48,114,12,75,114,,99,99,17,48,8,11,0.3,1.1
2024-10-17T1600,2311A,115.8072,33.8399,亳州市,污水处理厂,,20,,64,14,42,45,,56,56,12,15,4,7,0.5,0.6
2024-10-17T1600,2312A,115.7789,33.8518,亳州市,三国揽胜宫,,14,14,60,3,34,42,,54,54,14,15,3,5,0.4,0.5
2024-10-17T1600,3332A,115.7633,33.8034,亳州市,亳州学院,,15,13,71,3,34,48,,58,58,16,16,2,4,0.5,0.5
2024-10-17T1600,2693A,82.0485,44.8556,博尔塔拉蒙古自治州,市党校,,16,15,26,6,13,49,,49,49,6,10,3,4,0.3,0.4
2024-10-17T1600,2694A,82.0806,44.8969,博尔塔拉蒙古自治州,市环保局,,18,18,28,9,14,49,,48,48,12,13,4,3,0.3,0.3
2024-10-17T1600,1071A,116.8842,38.2991,沧州市,沧县城建局,细颗粒物(PM2.5),145,123,101,111,63,100,,65,65,36,55,4,5,0.7,0.6
2024-10-17T1600,1072A,116.8584,38.3254,沧州市,电视转播站,细颗粒物(PM2.5),163,159,97,124,64,87,,66,66,40,47,8,5,0.7,0.5
2024-10-17T1600,1073A,116.8709,38.3228,沧州市,市环保局,细颗粒物(PM2.5),135,157,108,103,63,82,,60,60,38,47,3,15,0.7,0.7
2024-10-17T1600,3324A,116.8136,38.3004,沧州市,河北水利电力学院,细颗粒物(PM2.5),143,166,114,109,69,87,,72,72,45,56,7,7,0.7,0.6
2024-10-17T1600,2622A,97.1806,31.1273,昌都市,昌都监测站,,26,9,13,3,7,82,,47,47,5,14,8,8,0.4,0.5
2024-10-17T1600,3719A,97.1714,31.1406,昌都市,昌都会议中心,,28,7,10,3,6,89,,57,57,4,6,7,8,0.4,0.4
2024-10-17T1600,2690A,88.1236,43.8886,昌吉回族自治州,天山天池,,17,17,23,3,9,46,,54,54,13,8,6,6,0.6,0.5
2024-10-17T1600,2692A,87.2717,44.0297,昌吉回族自治州,新区政务中心,,32,32,61,22,26,51,,28,28,13,19,6,8,0.5,0.6
2024-10-17T1600,3613A,87.3095,44.0142,昌吉回族自治州,亚心广场,,36,36,66,17,19,50,,34,34,19,24,4,6,0.6,0.6
2024-10-17T1600,1119A,125.3325,43.9166,长春市,食品厂,颗粒物(PM10),54,58,69,30,36,58,,60,60,33,53,8,8,0.6,0.7
2024-10-17T1600,1120A,125.2863,43.9027,长春市,客车厂,颗粒物(PM10),53,56,64,32,36,64,,63,63,26,52,12,9,0.6,0.7
2024-10-17T1600,1121A,125.2841,43.8463,长春市,邮电学院,颗粒物(PM10),54,58,55,31,32,64,,64,64,33,47,10,8,0.6,0.6
2024-10-17T1600,1122A,125.3716,43.8772,长春市,劳动公园,颗粒物(PM10),54,57,72,24,37,73,,68,68,28,48,11,9,0.7,0.9
2024-10-17T1600,1123A,125.3297,43.8805,长春市,园林处,颗粒物(PM10),53,56,64,25,29,64,,64,64,26,43,8,7,0.7,0.7
2024-10-17T1600,1124A,125.4605,43.79,长春市,净月潭,,45,45,39,19,28,74,,74,74,15,17,8,7,0.6,0.5
2024-10-17T1600,1125A,125.7194,43.515,长春市,甩湾子,,,,,,,,,,,,,,,,
2024-10-17T1600,1126A,125.3863,43.8447,长春市,经开区环卫处,颗粒物(PM10),51,51,65,25,29,63,,63,63,27,51,11,10,0.6,0.7
2024-10-17T1600,1127A,125.245,43.7783,长春市,高新区管委会,,46,46,57,26,36,70,,64,64,18,39,8,8,0.6,0.7
2024-10-17T1600,1128A,125.1761,43.8325,长春市,岱山公园,颗粒物(PM10),55,60,70,28,35,61,,65,65,30,57,7,8,0.6,0.6
2024-10-17T1600,1335A,113.0833,28.2325,长沙市,经开区环保局,,39,39,74,15,50,76,,61,61,14,29,2,2,0.6,0.7
2024-10-17T1600,1336A,112.8872,28.2189,长沙市,高开区环保局,,,36,73,20,48,66,,61,61,16,20,,4,0.9,1
2024-10-17T1600,1337A,113.0792,28.2053,长沙市,马坡岭,,36,36,73,18,48,78,,65,65,8,23,4,3,0.6,0.7
2024-10-17T1600,1338A,112.9394,28.19,长沙市,湖南师范大学,,45,45,75,25,55,71,,62,62,13,16,4,4,0.7,0.7
2024-10-17T1600,1339A,113.0178,28.1322,长沙市,雨花区环保局,,35,35,46,15,56,75,,66,66,15,16,5,5,0.8,0.9
2024-10-17T1600,1340A,112.9792,28.2597,长沙市,伍家岭,,40,40,98,18,46,58,,54,54,19,22,3,3,0.7,0.8
2024-10-17T1600,1341A,113.0014,28.1944,长沙市,火车新站,,46,46,75,24,55,67,,58,58,17,23,4,4,1.0,1
2024-10-17T1600,1342A,112.9844,28.1178,长沙市,天心区环保局,,47,47,72,21,38,74,,62,62,18,21,4,3,0.8,0.7
2024-10-17T1600,1343A,112.8908,28.1308,长沙市,湖南中医药大学,颗粒物(PM10),54,57,74,13,58,56,,61,61,23,19,6,5,1.0,1.1
2024-10-17T1600,1344A,112.9581,28.3611,长沙市,沙坪,,26,26,99,8,28,48,,53,53,14,13,7,7,0.8,0.9
2024-10-17T1600,1727A,113.1147,36.1547,长治市,清华站,细颗粒物(PM2.5),70,52,69,51,67,54,,66,58,28,24,7,7,1.0,0.9
2024-10-17T1600,1728A,113.1031,36.1989,长治市,监测站,细颗粒物(PM2.5),58,44,76,41,62,55,,63,63,30,27,9,10,1.5,1.4
2024-10-17T1600,1730A,113.0886,36.2125,长治市,审计局,,39,36,66,27,63,57,,75,69,16,16,5,6,0.9,0.8
2024-10-17T1600,1731A,113.0844,36.1856,长治市,长治八中,颗粒物(PM10),55,59,84,27,47,56,,62,62,29,25,6,6,1.3,1.2
2024-10-17T1600,2845A,113.1569,36.1911,长治市,德盛苑,,25,22,76,17,64,78,,66,66,14,22,4,5,0.8,1
2024-10-17T1600,3568A,113.06,36.0464,长治市,向阳小学,,48,48,79,25,64,87,,92,63,20,27,8,9,0.4,0.7
2024-10-17T1600,3569A,112.8792,36.3144,长治市,屯留一中,细颗粒物(PM2.5),57,46,83,40,75,75,,74,74,20,21,10,9,1.0,1
2024-10-17T1600,3570A,113.235,36.3489,长治市,潞城四中,,36,36,92,24,85,63,,91,80,24,23,6,7,0.9,1
2024-10-17T1600,1854A,111.6975,28.9703,常德市,市二中,,18,15,58,12,40,35,,39,39,20,23,5,4,1.0,0.9
2024-10-17T1600,1857A,111.7158,29.1456,常德市,白鹤山,,,,,,,,,,,,,,,,
2024-10-17T1600,3138A,111.7153,29.0289,常德市,武陵区永安,,19,19,55,10,42,40,,50,43,14,19,3,6,0.8,0.7
2024-10-17T1600,3139A,111.6892,28.9881,常德市,鼎城区玉霞,,18,17,58,12,42,36,,40,40,18,24,7,6,0.9,0.9
2024-10-17T1600,3140A,111.6625,29.0531,常德市,武陵区长庚,,17,17,55,11,41,43,,56,51,18,19,3,4,0.9,0.9
2024-10-17T1600,1196A,119.9633,31.762,常州市,市监测站,,47,47,57,28,28,117,,103,103,28,29,7,8,0.7,0.8
2024-10-17T1600,1200A,119.9468,31.7069,常州市,武进监测站,,42,42,45,22,26,114,,99,99,15,17,8,12,0.6,0.8
2024-10-17T1600,1201A,119.9255,31.9087,常州市,安家,,39,39,52,24,29,118,,104,104,19,23,7,7,0.7,0.7
2024-10-17T1600,3002A,119.9805,31.8174,常州市,行政中心,,41,41,57,21,24,115,,111,111,18,24,9,8,0.6,0.3
2024-10-17T1600,3003A,120.0522,31.7748,常州市,经开区,,39,34,60,23,26,122,,110,110,25,31,6,8,0.2,0.4
2024-10-17T1600,3010A,119.9025,31.7964,常州市,钟楼,,46,46,39,26,27,108,,98,98,30,25,7,9,0.7,0.7
2024-10-17T1600,3429A,119.8598,31.7066,常州市,武进经发区,,38,36,43,15,18,121,,103,103,16,23,6,7,0.7,0.9
2024-10-17T1600,3430A,119.5826,31.7245,常州市,金坛城区,,43,21,38,12,22,137,,110,110,9,22,6,6,0.6,0.8
2024-10-17T1600,2220A,120.4318,41.5881,朝阳市,西梁,,,46,57,41,38,73,,42,,21,20,,8,0.8,1
2024-10-17T1600,2221A,120.4521,41.5646,朝阳市,河畔小区,细颗粒物(PM2.5),62,56,50,44,35,82,,61,61,14,19,14,12,1.0,1.1
2024-10-17T1600,2222A,120.4176,41.5648,朝阳市,八里堡,颗粒物(PM10),59,68,62,38,32,73,,54,54,28,28,16,15,1.0,1.3
2024-10-17T1600,2223A,120.3806,41.5969,朝阳市,农业园区,细颗粒物(PM2.5),75,72,52,55,44,72,,54,54,29,21,12,9,0.9,1
2024-10-17T1600,1705A,116.6367,23.6719,潮州市,西园路,,34,29,34,17,19,106,,78,78,8,11,5,5,0.5,0.5
2024-10-17T1600,3026A,116.6183,23.6608,潮州市,市政府,,37,37,36,15,18,115,,86,86,8,11,6,7,0.4,0.4
2024-10-17T1600,4036A,116.6461,23.6761,潮州市,金山,,37,32,34,7,16,116,,83,83,7,9,9,8,0.5,0.5
2024-10-17T1600,2472A,113.0073,25.9061,郴州市,马头岭,,,,35,,11,,,34,,,15,,10,,0.8
2024-10-17T1600,2473A,113.0116,25.8226,郴州市,市职中,,29,21,33,15,25,92,,77,77,7,15,6,7,0.6,0.9
2024-10-17T1600,2474A,113.0161,25.8001,郴州市,兴隆步行街,,37,37,38,18,23,97,,74,74,10,17,5,7,0.6,0.9
2024-10-17T1600,2475A,113.0383,25.8071,郴州市,市审计局,,,,28,,24,,,35,,,14,,2,,1.1
2024-10-17T1600,2476A,113.0348,25.7759,郴州市,市环保局,,26,22,34,15,23,83,,58,58,10,14,8,9,0.7,1
2024-10-17T1600,1431A,103.9728,30.7236,成都市,金泉两河,,40,29,21,20,11,128,,85,85,12,14,2,2,0.6,0.5
2024-10-17T1600,1432A,104.176,30.6872,成都市,十里店,,38,38,19,24,13,120,,85,85,13,17,2,1,0.5,0.5
2024-10-17T1600,1433A,104.079,30.5706,成都市,三瓦窑,,49,,23,34,20,131,,79,79,13,20,1,2,0.4,0.4
2024-10-17T1600,1434A,104.1114,30.63,成都市,沙河铺,,33,30,31,14,16,103,,75,75,21,19,2,2,0.5,0.5
2024-10-17T1600,1437A,104.0786,30.6531,成都市,君平街,,45,45,20,29,15,140,,90,90,13,16,4,3,0.5,0.5
2024-10-17T1600,1438A,103.613,31.0283,成都市,灵岩寺,,,,,,,,,,,,,,,,
2024-10-17T1600,2880A,104.0239,30.65639,成都市,大石西路,,42,35,26,6,13,133,,84,84,13,14,3,2,0.6,0.6
2024-10-17T1600,3136A,104.2725,30.5589,成都市,龙泉驿区区政府,,34,,21,12,17,107,,71,,8,25,2,2,0.5,0.5
2024-10-17T1600,3357A,104.0106,30.6931,成都市,金博路,,39,23,15,7,9,124,,79,79,12,18,2,2,0.5,0.4
2024-10-17T1600,3359A,104.0578,30.5225,成都市,华阳,,37,14,23,3,14,118,,79,79,8,18,1,1,0.4,0.5
2024-10-17T1600,3487A,104.2394,30.5319,成都市,车城东七路,,34,20,30,13,22,106,,88,88,9,24,1,1,0.6,0.7
2024-10-17T1600,3488A,104.3853,30.7453,成都市,青白江技师分院,,34,,24,18,18,106,,81,81,8,16,3,3,0.6,0.6
2024-10-17T1600,3489A,104.0789,30.4072,成都市,科学城,,36,14,27,11,23,115,,87,87,2,10,4,4,0.5,0.6
2024-10-17T1600,4011A,103.8506,30.6947,成都市,光华大道三段,,44,21,21,10,12,139,,92,92,14,17,3,3,0.4,0.5
2024-10-17T1600,1062A,117.9531,40.9081,承德市,铁路,颗粒物(PM10),77,104,58,42,29,26,,39,39,70,42,4,8,0.6,0.5
2024-10-17T1600,1063A,117.9392,40.9763,承德市,中国银行,颗粒物(PM10),76,102,60,47,28,60,,56,56,37,33,2,2,0.7,0.5
2024-10-17T1600,1064A,117.9503,40.928,承德市,开发区,颗粒物(PM10),67,83,67,44,31,73,,59,59,32,38,6,10,0.6,0.5
2024-10-17T1600,1065A,117.8051,40.9655,承德市,文化中心,颗粒物(PM10),77,104,66,40,26,26,,53,53,51,29,4,6,0.5,0.5
2024-10-17T1600,1066A,117.9268,41.0026,承德市,离宫,细颗粒物(PM2.5),84,88,58,62,40,40,,54,54,13,15,4,4,0.5,0.4
2024-10-17T1600,2314A,117.47,30.6618,池州市,池州学院,,27,19,16,9,11,86,,63,63,26,11,10,6,0.5,0.5
2024-10-17T1600,3237A,117.4918,30.6617,池州市,展览馆,,27,18,18,11,11,85,,66,66,24,11,8,5,0.5,0.5
2024-10-17T1600,3333A,117.5627,30.695,池州市,第八中学,,25,18,16,8,9,79,,62,62,26,12,4,4,0.4,0.5
2024-10-17T1600,3334A,117.5038,30.6243,池州市,第十二中学,,28,16,11,9,10,89,,66,66,16,12,4,4,0.8,0.8
2024-10-17T1600,1744A,118.9233,42.2816,赤峰市,松山一中,颗粒物(PM10),53,56,45,24,23,28,,42,27,38,27,25,20,0.8,0.8
2024-10-17T1600,1745A,118.9576,42.2728,赤峰市,哈达街,颗粒物(PM10),55,59,44,22,32,28,,48,25,26,18,18,19,0.7,0.8
2024-10-17T1600,1746A,118.8788,42.2554,赤峰市,天义路,颗粒物(PM10),51,52,44,18,21,31,,46,30,35,25,18,12,0.5,0.5
2024-10-17T1600,3058A,119.2658,42.0353,赤峰市,银河街,细颗粒物(PM2.5),69,84,62,50,34,49,,46,46,32,23,18,18,0.9,0.7
2024-10-17T1600,3286A,118.9359,42.3147,赤峰市,桥北物流园区,颗粒物(PM10),59,68,45,41,30,28,,35,34,51,28,51,20,1.4,1.1
2024-10-17T1600,2521A,107.3476,22.4136,崇左市,市环保局江州分局,,21,8,28,3,17,66,,60,60,4,7,3,4,0.5,0.6
2024-10-17T1600,2522A,107.3702,22.3707,崇左市,城南新区,,20,,24,9,16,64,,61,60,3,6,4,5,0.6,0.7
2024-10-17T1600,2298A,118.3093,32.3153,滁州市,老年大学,,42,42,35,28,24,96,,81,73,18,16,5,3,0.4,0.4
2024-10-17T1600,2299A,118.3244,32.2786,滁州市,人大宾馆,,43,43,44,29,29,94,,78,75,19,16,6,6,0.4,0.4
2024-10-17T1600,3207A,118.3118,32.3038,滁州市,市政府原办公楼,,45,40,38,31,30,88,,80,76,24,17,5,5,0.4,0.4
2024-10-17T1600,3331A,118.3267,32.2634,滁州市,图书馆,,35,34,32,24,21,91,,79,72,19,17,5,5,0.4,0.4
2024-10-17T1600,2605A,101.5482,25.0441,楚雄彝族自治州,州环境监测站,,21,7,9,3,6,67,,58,58,3,10,6,7,0.5,0.5
2024-10-17T1600,2606A,101.538,25.0492,楚雄彝族自治州,市经济开发区,,,,13,,9,67,,62,62,4,13,5,7,,0.5
2024-10-17T1600,2548A,107.5277,31.2827,达州市,达州职业技术学院,,12,,35,3,22,35,,31,31,23,36,4,4,0.8,0.7
2024-10-17T1600,2549A,107.5086,31.2186,达州市,市环境监测站,,18,18,35,3,16,32,,39,36,32,34,5,5,0.6,0.6
2024-10-17T1600,2550A,107.4988,31.2132,达州市,凤凰小区,,17,17,30,7,17,35,,49,46,31,31,6,6,0.6,0.5
2024-10-17T1600,2551A,107.5082,31.1986,达州市,达县机关宾馆,,18,17,33,12,24,34,,29,29,33,43,4,4,0.6,0.6
2024-10-17T1600,2552A,107.4644,31.2124,达州市,市政中心,,20,20,36,3,19,40,,34,34,25,35,6,4,0.7,0.6
2024-10-17T1600,2614A,100.1542,25.7054,大理白族自治州,大理市环境监测站,,23,19,17,10,11,72,,53,53,8,7,7,6,0.4,0.4
2024-10-17T1600,2615A,100.2171,25.5811,大理白族自治州,大理古城,,25,19,17,3,9,77,,64,64,4,10,6,6,0.3,0.4
2024-10-17T1600,1109A,121.612,38.9741,大连市,甘井子,,33,33,35,6,16,89,,88,88,21,32,6,7,0.3,0.6
2024-10-17T1600,1110A,121.565,38.9511,大连市,周水子,,31,31,32,9,18,72,,70,70,30,39,10,9,0.6,0.7
2024-10-17T1600,1111A,121.5637,38.8845,大连市,星海三站,,27,20,23,6,13,84,,69,69,16,26,7,7,0.3,0.4
2024-10-17T1600,1112A,121.6302,38.9117,大连市,青泥洼桥,,,15,27,6,13,84,,72,72,,22,8,7,0.5,0.5
2024-10-17T1600,1113A,121.6251,38.8638,大连市,傅家庄,,25,19,20,6,11,80,,70,70,16,17,8,8,0.6,0.6
2024-10-17T1600,1114A,121.5213,38.8661,大连市,七贤岭,,29,22,28,6,15,91,,74,74,16,23,8,7,0.3,0.4
2024-10-17T1600,1115A,121.2529,38.8061,大连市,旅顺,,29,16,20,3,11,91,,82,82,25,22,7,7,0.4,0.4
2024-10-17T1600,1116A,121.7485,39.1311,大连市,金州,,,23,34,9,20,100,,78,78,15,28,7,8,,0.7
2024-10-17T1600,1117A,121.7811,39.0496,大连市,开发区,,32,32,31,7,15,91,,63,63,19,29,9,10,0.3,0.4
2024-10-17T1600,1118A,121.9762,39.0631,大连市,双D港,,35,12,17,3,11,112,,79,79,12,18,8,8,0.6,0.6
2024-10-17T1600,1789A,124.81117,46.03138,大庆市,大同区,,27,27,27,12,19,60,,56,56,13,16,3,3,0.3,0.3
2024-10-17T1600,1790A,125.129,46.533,大庆市,龙凤区,,35,25,29,24,17,61,,51,51,32,33,4,4,0.3,0.4
2024-10-17T1600,1791A,124.902,46.408,大庆市,红岗区,,21,14,27,7,13,67,,59,59,12,17,6,6,0.3,0.3
2024-10-17T1600,1792A,125.153,46.586,大庆市,萨尔图区,,21,21,26,7,12,57,,53,53,21,21,8,8,0.2,0.2
2024-10-17T1600,1793A,124.9042,46.6215,大庆市,让胡路区,,23,18,25,16,20,65,,55,55,13,16,5,5,0.3,0.3
2024-10-17T1600,3481A,125.141,46.634,大庆市,萨区政府监测点,,,18,23,,14,54,,52,52,25,22,10,8,0.4,0.4
2024-10-17T1600,1721A,113.3819,40.1097,大同市,果树场,细颗粒物(PM2.5),89,68,85,66,63,37,,20,20,35,30,7,7,0.9,0.9
2024-10-17T1600,1723A,113.2994,40.0758,大同市,云冈宾馆,细颗粒物(PM2.5),102,96,99,76,61,42,,41,41,42,42,7,8,1.0,0.8
2024-10-17T1600,1724A,113.3444,40.0917,大同市,大同大学,细颗粒物(PM2.5),68,58,85,49,54,52,,40,40,32,37,11,12,0.8,0.8
2024-10-17T1600,1725A,113.2661,40.1269,大同市,安家小村,细颗粒物(PM2.5),87,69,98,64,60,44,,55,42,39,35,12,12,1.1,0.7
2024-10-17T1600,1726A,113.2711,40.0844,大同市,教育学院,细颗粒物(PM2.5),78,80,109,57,56,37,,34,34,49,54,8,9,1.1,1
2024-10-17T1600,3282A,113.3397,40.0597,大同市,大同市卫生学校,细颗粒物(PM2.5),84,90,98,62,54,47,,45,45,31,41,7,9,0.9,0.9
2024-10-17T1600,3565A,113.1367,40.1122,大同市,云冈站,细颗粒物(PM2.5),72,86,138,52,72,34,,32,32,50,35,9,10,1.1,0.8
2024-10-17T1600,3566A,113.1186,40.2556,大同市,图书馆,细颗粒物(PM2.5),94,80,99,70,76,59,,36,36,31,28,10,13,1.2,0.8
2024-10-17T1600,3567A,113.5931,40.0461,大同市,区一中,细颗粒物(PM2.5),63,59,80,45,40,48,,41,41,17,21,15,7,0.7,0.8
2024-10-17T1600,3676A,113.2802,40.0995,大同市,第二人民医院,细颗粒物(PM2.5),75,82,99,55,54,35,,38,38,50,41,10,11,1.1,0.8
2024-10-17T1600,2269A,124.1069,50.4097,大兴安岭地区,科技局,,22,18,28,11,15,69,,67,67,4,5,8,8,0.3,0.3
2024-10-17T1600,3663A,124.1164,50.4278,大兴安岭地区,红旗社区,,21,9,10,3,6,67,,58,58,4,9,3,4,0.3,0.4
2024-10-17T1600,1600A,124.3303,40.0625,丹东市,江湾东路,,36,36,44,14,29,84,,51,51,13,29,11,11,0.5,0.7
2024-10-17T1600,1601A,124.4256,40.1503,丹东市,临江后街,,32,18,54,9,27,100,,65,65,8,25,8,10,0.4,0.9
2024-10-17T1600,1602A,124.3933,40.1461,丹东市,元宝山,,29,20,47,11,23,90,,51,51,8,28,5,6,0.5,0.9
2024-10-17T1600,1603A,124.3633,40.1092,丹东市,民主桥,,35,35,40,13,20,88,,54,54,21,35,7,6,0.6,0.7
2024-10-17T1600,3541A,109.5726,19.5167,儋州市,第一中学子站,,15,6,9,3,3,46,,49,48,2,2,4,6,0.4,0.2
2024-10-17T1600,3542A,109.5567,19.5187,儋州市,东坡学校子站,,16,,8,3,3,49,,52,52,2,2,6,4,0.3,0.3
2024-10-17T1600,2616A,98.5842,24.428,德宏傣族景颇族自治州,德宏州监测站,,29,24,29,8,13,92,,68,68,6,13,6,5,0.3,0.6
2024-10-17T1600,3677A,98.5881,24.4368,德宏傣族景颇族自治州,芒市人民政府综合楼,,29,21,32,12,14,90,,60,60,7,10,6,5,0.4,0.6
2024-10-17T1600,1901A,104.4239,31.1208,德阳市,东山公园,,32,32,25,12,13,99,,84,84,6,14,2,3,0.4,0.4
2024-10-17T1600,1902A,104.3826,31.1317,德阳市,西小区,,34,34,33,19,20,107,,73,73,8,18,2,3,0.5,0.6
2024-10-17T1600,1904A,104.3553,31.1091,德阳市,耐火材料厂,,37,34,27,23,16,116,,69,69,13,21,3,4,0.5,0.5
2024-10-17T1600,3639A,104.4019,31.1244,德阳市,市教育局,,36,26,28,25,14,100,,72,72,7,17,1,3,0.6,0.6
2024-10-17T1600,1622A,116.3032,37.4674,德州市,儿童乐园,细颗粒物(PM2.5),104,122,142,78,103,126,,110,110,32,49,,11,0.8,0.9
2024-10-17T1600,1624A,116.2991,37.4451,德州市,监理站,细颗粒物(PM2.5),113,129,156,85,117,142,,115,115,23,38,11,11,0.6,0.8
2024-10-17T1600,3066A,116.2721,37.4379,德州市,九衢泉纯净水厂,颗粒物(PM10),85,119,157,61,86,133,,103,103,27,51,10,9,0.8,1
2024-10-17T1600,3371A,116.3728,37.4403,德州市,开发区人民医院,细颗粒物(PM2.5),92,132,149,68,90,130,,102,102,24,40,10,11,0.6,0.8
2024-10-17T1600,3372A,116.3572,37.4094,德州市,太阳城中学,颗粒物(PM10),87,124,157,63,98,124,,99,99,36,61,11,12,0.8,1
2024-10-17T1600,3511A,116.5652,37.3319,德州市,陵城艺术中心,细颗粒物(PM2.5),70,88,146,51,104,136,,118,118,22,38,11,11,0.6,0.8
2024-10-17T1600,2621A,99.7056,27.8317,迪庆藏族自治州,迪庆州站,,22,16,16,3,10,70,,65,65,7,10,8,9,0.2,0.3
2024-10-17T1600,3180A,99.7136,27.8094,迪庆藏族自治州,质量技术监督局,,,12,16,8,9,75,,70,70,8,10,6,6,,0.1
2024-10-17T1600,2663A,104.6241,35.5734,定西市,东关小学,,33,16,38,6,21,104,,,,6,14,9,9,0.5,0.4
2024-10-17T1600,2664A,104.6194,35.5934,定西市,供电公司,,32,24,34,12,25,100,,73,73,4,18,8,7,0.4,0.5
2024-10-17T1600,1389A,113.7547,23.0494,东莞市,莞城梨川,,41,28,35,14,17,129,,112,112,10,18,7,7,0.5,0.6
2024-10-17T1600,1390A,113.7944,23.0128,东莞市,东城石井,,38,24,29,14,15,121,,115,115,11,18,6,7,0.5,0.6
2024-10-17T1600,1391A,113.7383,22.9658,东莞市,南城西平,,39,33,34,24,15,124,,110,110,9,21,11,12,0.5,0.6
2024-10-17T1600,3319A,113.7338,23.0381,东莞市,万江金泰,,44,31,34,17,16,139,,117,117,13,18,8,8,0.5,0.5
2024-10-17T1600,3626A,113.7533,23.0202,东莞市,南城元岭,,38,34,36,16,16,121,,107,107,9,18,7,8,0.6,0.6
2024-10-17T1600,3627A,113.7875,23.0457,东莞市,东城主山,,40,30,35,15,18,125,,115,115,15,22,8,8,0.6,0.6
2024-10-17T1600,1666A,118.6614,37.4309,东营市,市环保局,颗粒物(PM10),51,51,73,12,38,117,,98,98,23,28,5,11,0.3,0.6
2024-10-17T1600,3036A,118.6904,37.4338,东营市,开发区管委会,颗粒物(PM10),52,54,79,12,36,124,,106,106,25,30,4,9,0.4,0.7
2024-10-17T1600,3365A,118.5719,37.565,东营市,垦利区民丰路,,48,48,67,12,33,104,,86,86,31,33,12,12,0.5,0.7
2024-10-17T1600,3498A,118.5055,37.8612,东营市,河口城区,颗粒物(PM10),53,56,79,20,43,120,,95,95,14,20,10,8,0.6,0.8
2024-10-17T1600,3646A,118.4978,37.4623,东营市,胜利站,颗粒物(PM10),51,52,69,7,39,100,,83,83,32,36,11,11,0.7,0.9
2024-10-17T1600,3734A,118.35,37.26,东营市,理想之城,颗粒物(PM10),51,51,84,19,46,115,,100,100,28,40,5,6,0.4,0.4
2024-10-17T1600,1591A,110.0023,39.8129,鄂尔多斯市,综合楼,,30,7,78,7,53,93,,112,92,20,27,4,6,0.7,0.8
2024-10-17T1600,1592A,109.9486,39.8261,鄂尔多斯市,巴音孟克林场办事处,,25,17,80,12,53,79,,96,80,22,26,5,7,0.8,0.9
2024-10-17T1600,1593A,109.7736,39.5986,鄂尔多斯市,康泽苑,,26,19,68,7,48,83,,111,83,18,21,6,8,0.8,0.8
2024-10-17T1600,1594A,109.8119,39.5989,鄂尔多斯市,华泰汽车城,,32,,68,22,49,72,,99,73,16,21,6,8,0.7,0.7
2024-10-17T1600,1595A,109.9734,39.7884,鄂尔多斯市,奥林花园,,25,19,87,17,55,72,,88,75,23,29,4,5,0.9,1
2024-10-17T1600,2436A,114.8938,30.3994,鄂州市,市政府,颗粒物(PM10),53,55,36,27,19,59,,64,64,22,21,11,13,1.0,1
2024-10-17T1600,2437A,114.8989,30.3714,鄂州市,赵家坝,,38,37,35,26,17,46,,58,58,29,19,10,11,1.2,1.2
2024-10-17T1600,3654A,114.8094,30.4089,鄂州市,精准医疗中心,,45,45,33,25,18,56,,66,66,22,18,9,10,1.0,1
2024-10-17T1600,2454A,109.4978,30.2981,恩施土家族苗族自治州,湖北民院,,20,20,40,10,26,53,,39,39,19,21,8,8,0.7,0.7
2024-10-17T1600,2455A,109.4707,30.2798,恩施土家族苗族自治州,州电力总公司,,,17,32,10,24,,,40,40,19,25,6,7,0.8,0.9
2024-10-17T1600,3549A,109.5061,30.3772,恩施土家族苗族自治州,龙凤新区,,18,13,32,12,25,46,,33,33,19,17,6,6,0.9,0.9
2024-10-17T1600,2499A,108.3411,21.6158,防城港市,沙万,,16,15,29,11,14,49,,44,44,17,19,19,11,0.9,0.8
2024-10-17T1600,2500A,108.3514,21.7731,防城港市,防城档案局,,18,18,39,9,17,54,,45,45,12,21,13,9,0.7,0.7
2024-10-17T1600,2501A,108.3506,21.6414,防城港市,大海花园,,18,14,25,8,13,55,,49,49,13,17,16,8,0.4,0.7
2024-10-17T1600,1371A,113.1294,23.0067,佛山市,湾梁,,47,34,36,16,16,150,,116,116,17,28,6,7,0.5,0.6
2024-10-17T1600,1372A,113.1083,23.0478,佛山市,华材职中,,49,29,36,14,18,156,,119,119,15,23,8,8,0.4,0.4
2024-10-17T1600,1373A,113.144,23.0453,佛山市,南海气象局,,47,24,39,17,19,148,,126,126,12,22,7,7,0.5,0.5
2024-10-17T1600,1374A,113.2881,22.8094,佛山市,顺德苏岗,,39,39,42,9,13,113,,98,98,13,20,8,8,0.5,0.5
2024-10-17T1600,1376A,112.8383,22.8678,佛山市,高明孔堂,,46,30,34,16,22,147,,107,107,8,16,4,5,0.5,0.6
2024-10-17T1600,1377A,112.8836,23.1588,佛山市,三水监测站,臭氧1小时,53,27,41,8,25,162,,117,117,15,37,6,7,0.5,0.6
2024-10-17T1600,1378A,112.867,23.185,佛山市,三水云东海,,,32,36,16,24,164,,117,117,20,38,,11,0.6,0.7
2024-10-17T1600,3625A,113.2544,22.7642,佛山市,容桂街道办,,34,29,30,19,16,107,,89,89,19,21,7,8,0.4,0.5
2024-10-17T1600,1280A,119.3903,26.0543,福州市,鼓山,,,,20,,9,,,89,,,2,,3,,0.3
2024-10-17T1600,1282A,119.2681,26.0504,福州市,师大,颗粒物(PM10),58,65,33,30,18,82,,80,80,18,8,3,2,0.3,0.3
2024-10-17T1600,1283A,119.2984,26.1028,福州市,五四北路,,44,44,29,22,17,67,,75,66,12,12,3,3,0.3,0.3
2024-10-17T1600,1284A,119.2648,26.0768,福州市,杨桥西路,颗粒物(PM10),55,59,31,30,17,81,,80,76,17,8,4,3,0.4,0.3
2024-10-17T1600,1285A,119.317,26.0746,福州市,紫阳,颗粒物(PM10),53,56,37,27,18,47,,78,58,33,15,3,3,0.4,0.4
2024-10-17T1600,3048A,119.5799,26.0936,福州市,九龙,,38,38,28,23,16,75,,79,73,1,3,1,2,0.1,0.2
2024-10-17T1600,3526A,119.5189,25.9664,福州市,吴航,,35,35,28,24,18,71,,87,75,4,6,3,2,0.3,0.4
2024-10-17T1600,1755A,123.7977,41.8491,抚顺市,望花区,细颗粒物(PM2.5),103,96,110,77,55,76,,28,28,43,59,13,17,1.0,1.3
2024-10-17T1600,1756A,123.9161,41.8822,抚顺市,顺城区,细颗粒物(PM2.5),79,106,100,58,54,16,,28,28,88,59,9,12,1.0,1.1
2024-10-17T1600,1757A,124.0436,41.8611,抚顺市,东洲区,细颗粒物(PM2.5),147,,80,112,65,62,,51,51,25,35,9,11,0.7,1
2024-10-17T1600,1758A,123.9247,41.8642,抚顺市,新抚区,,,104,102,55,53,25,,31,30,,52,12,9,0.8,1.1
2024-10-17T1600,1759A,124.0972,41.8961,抚顺市,大伙房水库,细颗粒物(PM2.5),67,63,71,48,46,76,,61,61,18,34,9,11,0.7,0.9
2024-10-17T1600,1760A,123.7086,41.8391,抚顺市,沈抚新城,细颗粒物(PM2.5),99,89,111,74,59,84,,42,42,50,64,18,27,0.8,1.7
2024-10-17T1600,2376A,116.2127,28.0814,抚州市,桐源党溪,,44,44,35,22,16,78,,54,54,3,4,7,8,0.7,0.7
2024-10-17T1600,2377A,116.3544,27.9831,抚州市,市站,,31,30,30,16,18,98,,66,66,7,12,8,7,0.5,0.7
2024-10-17T1600,2378A,116.3565,27.963,抚州市,血防站,,35,32,32,13,16,109,,69,69,2,4,14,9,0.8,0.8
2024-10-17T1600,2379A,116.3564,28.0007,抚州市,采茶剧团,,,,28,,19,104,,65,65,4,8,,6,0.8,0.9
2024-10-17T1600,2380A,116.385,27.9647,抚州市,医学分院,,33,33,29,13,15,103,,66,66,6,10,5,5,0.9,0.9
2024-10-17T1600,2207A,121.6094,41.998,阜新市,工业园区,颗粒物(PM10),59,68,62,33,22,95,,70,70,21,31,21,20,0.9,0.8
2024-10-17T1600,2208A,121.6697,42.0279,阜新市,长青街,颗粒物(PM10),65,79,55,41,24,77,,52,52,28,24,21,20,0.8,0.7
2024-10-17T1600,2209A,121.6673,42.0705,阜新市,农业园区,细颗粒物(PM2.5),79,84,59,58,31,84,,56,56,23,23,19,23,0.7,0.7
2024-10-17T1600,2210A,121.6717,42.0224,阜新市,东苑,颗粒物(PM10),59,67,61,34,30,74,,50,50,33,37,26,32,0.9,0.8
2024-10-17T1600,2211A,121.6506,42.0498,阜新市,玉龙新城,细颗粒物(PM2.5),63,72,60,45,29,91,,57,57,24,32,23,15,0.6,0.7
2024-10-17T1600,2301A,115.8277,32.8929,阜阳市,市监测站,,38,32,46,26,27,38,,62,51,20,16,6,6,0.6,0.4
2024-10-17T1600,2303A,115.8554,32.8605,阜阳市,开发区,,39,39,57,10,18,32,,58,43,23,19,5,5,0.5,0.4
2024-10-17T1600,2875A,115.784,32.8892,阜阳市,阜阳职业技术学院,,34,34,44,20,26,34,,61,46,20,16,6,6,0.5,0.5
2024-10-17T1600,3468A,115.7901,32.8613,阜阳市,市规划展馆,,40,32,43,28,27,40,,65,50,15,19,5,6,0.5,0.5
2024-10-17T1600,3469A,115.836,32.9183,阜阳市,枣园社区,,39,30,47,27,31,32,,58,46,23,18,6,7,0.5,0.5
2024-10-17T1600,2669A,102.9099,34.9841,甘南藏族自治州,州政府,,30,,19,10,13,94,,68,68,1,18,8,8,0.3,0.4
2024-10-17T1600,3380A,102.8914,34.9617,甘南藏族自治州,甘肃民族师范学院,,30,6,9,3,7,93,,61,61,5,19,7,4,0.5,0.6
2024-10-17T1600,2570A,101.9603,30.0475,甘孜藏族自治州,水桥子,,18,7,13,3,8,57,,42,42,12,19,6,6,0.3,0.3
2024-10-17T1600,3065A,101.9533,29.9972,甘孜藏族自治州,州环保局,,24,13,9,8,5,75,,70,70,10,14,3,3,0.2,0.2
2024-10-17T1600,3414A,115.8347,28.932,赣江新区,桑海产业园,,41,41,26,21,18,73,,44,44,22,17,12,10,0.3,0.4
2024-10-17T1600,2362A,114.9017,25.9149,赣州市,通天岩,细颗粒物(PM2.5),58,51,32,41,26,128,,80,80,11,9,3,3,0.6,0.3
2024-10-17T1600,2363A,114.9367,25.8664,赣州市,地委,,49,49,35,30,26,135,,80,80,10,10,3,5,1.2,1.1
2024-10-17T1600,2364A,114.9461,25.8481,赣州市,气象台,颗粒物(PM10),51,52,35,29,28,146,,80,80,6,7,6,14,0.8,0.9
2024-10-17T1600,2365A,114.9322,25.8333,赣州市,市图书馆,臭氧1小时,53,54,37,28,23,162,,89,89,10,9,3,6,0.9,1
2024-10-17T1600,2366A,114.8905,25.8471,赣州市,华坚鞋城,,45,45,36,28,22,123,,77,77,9,11,3,2,0.7,0.7
2024-10-17T1600,3109A,115.0093,25.8613,赣州市,赣县区卫计委,,46,41,32,31,23,145,,80,80,13,12,5,7,0.7,0.8
2024-10-17T1600,2683A,106.2319,36.1417,固原市,马园,,27,19,33,3,12,85,,66,66,16,23,6,6,0.3,0.4
2024-10-17T1600,2684A,106.2792,36.0022,固原市,监测站,,30,16,17,7,13,93,,68,68,8,24,6,5,0.3,0.4
2024-10-17T1600,2685A,106.2375,36.0211,固原市,新区,,32,7,19,6,12,100,,69,69,6,16,5,4,0.3,0.5
2024-10-17T1600,3522A,106.2177,35.9959,固原市,原州区十五小,,31,11,17,8,11,97,,78,72,8,14,6,6,0.4,0.5
2024-10-17T1600,2543A,106.6308,30.5278,广安市,小平旧居,,,,,,,,,,,,,,,,
2024-10-17T1600,2544A,106.6303,30.4576,广安市,市委,,27,27,33,15,21,66,,65,62,14,14,4,4,0.5,0.5
2024-10-17T1600,2545A,106.6271,30.4663,广安市,友谊中学,,,25,28,10,22,64,,62,59,,15,2,3,0.5,0.6
2024-10-17T1600,2547A,106.6388,30.4551,广安市,广电花园,,26,26,30,14,20,61,,61,58,14,15,1,2,0.4,0.4
2024-10-17T1600,2902A,106.6351,30.4865,广安市,北辰小学,,34,34,34,10,20,70,,61,61,13,11,1,3,0.7,0.6
2024-10-17T1600,2523A,105.8945,32.4535,广元市,黑石坡,,22,13,27,6,18,69,,27,27,12,13,8,8,0.4,0.4
2024-10-17T1600,2524A,105.821,32.4444,广元市,老城,,27,11,31,6,18,86,,46,46,11,26,1,3,0.6,0.8
2024-10-17T1600,2526A,105.8628,32.4287,广元市,监测站,,29,17,30,9,21,90,,48,48,11,20,3,4,0.5,0.6
2024-10-17T1600,3617A,105.8047,32.4166,广元市,经开区,,29,22,34,16,22,91,,50,50,10,20,4,5,0.7,0.7
2024-10-17T1600,1345A,113.2347,23.1423,广州市,广雅中学,,47,27,29,15,18,150,,125,125,15,27,6,7,0.7,0.8
2024-10-17T1600,1346A,113.2612,23.105,广州市,市五中,臭氧1小时,54,38,36,22,21,163,,130,130,12,20,4,4,0.6,0.6
2024-10-17T1600,1348A,113.3478,23.0916,广州市,广东商学院,,,,39,,21,158,,132,132,14,30,5,6,0.5,0.6
2024-10-17T1600,1349A,113.4332,23.1047,广州市,市八十六中,臭氧1小时,58,46,45,17,19,166,,121,121,22,43,4,5,0.6,0.7
2024-10-17T1600,1350A,113.3505,22.9483,广州市,番禺中学,,41,26,32,12,15,131,,119,119,10,22,6,7,0.4,0.5
2024-10-17T1600,1351A,113.2146,23.3916,广州市,花都师范,臭氧1小时,84,39,43,20,24,187,,122,122,20,35,5,5,0.8,0.8
2024-10-17T1600,1352A,113.2597,23.1331,广州市,市监测站,,50,34,35,16,18,158,,121,121,13,23,5,6,0.5,0.6
2024-10-17T1600,1353A,113.5618,23.312,广州市,九龙镇镇龙,,48,41,35,20,20,152,,111,111,18,21,7,7,0.6,0.6
2024-10-17T1600,1354A,113.2765,23.1544,广州市,麓湖,臭氧1小时,55,34,38,18,21,164,,121,121,12,27,5,5,0.5,0.6
2024-10-17T1600,1355A,113.443,23.3035,广州市,帽峰山森林公园,臭氧1小时,65,30,28,15,16,172,,118,118,13,15,7,7,0.6,0.6
2024-10-17T1600,2846A,113.3221,23.1322,广州市,体育西,,48,39,37,19,18,151,,116,116,15,26,5,5,0.6,0.7
2024-10-17T1600,3298A,113.5717,23.5491,广州市,从化街口,,,19,32,14,21,102,,86,86,,15,6,6,0.6,0.7
2024-10-17T1600,3299A,113.3472,23.3692,广州市,白云竹料,臭氧1小时,64,42,41,16,23,171,,114,114,16,25,6,6,0.6,0.7
2024-10-17T1600,3300A,113.2981,23.237,广州市,白云嘉禾,臭氧1小时,52,33,41,16,22,161,,128,128,19,38,6,7,0.6,0.8
2024-10-17T1600,3301A,113.4256,23.1716,广州市,黄埔科学城,臭氧1小时,60,32,34,15,22,168,,125,125,17,27,4,6,0.6,0.7
2024-10-17T1600,3302A,113.3942,23.0483,广州市,番禺大学城,,44,28,36,15,17,140,,119,119,12,22,6,6,0.7,0.7
2024-10-17T1600,3303A,113.4922,22.8168,广州市,南沙黄阁,,40,21,37,16,16,128,,114,114,12,25,6,6,0.6,0.8
2024-10-17T1600,3304A,113.5342,22.7896,广州市,南沙街,,39,28,34,14,14,124,,106,106,12,22,7,6,0.5,0.6
2024-10-17T1600,3443A,113.2902,23.5544,广州市,花都梯面,,40,25,30,14,20,128,,101,101,14,16,6,6,0.5,0.6
2024-10-17T1600,3445A,113.7858,23.7478,广州市,从化良口,,24,16,23,13,18,75,,65,65,9,10,6,6,0.8,0.9
2024-10-17T1600,3446A,113.8051,23.2614,广州市,增城荔城,,45,29,30,14,16,141,,106,106,9,14,6,7,0.6,0.6
2024-10-17T1600,2505A,109.568,23.1478,贵港市,德智高中,,,,,,,,,,,,,,,,
2024-10-17T1600,2506A,109.6047,23.0666,贵港市,江南子站,颗粒物(PM10),52,53,33,14,23,100,,84,84,12,16,10,8,0.7,0.8
2024-10-17T1600,2507A,109.6014,23.0948,贵港市,贵城子站,,37,37,40,15,24,101,,78,78,10,16,11,7,0.6,0.7
2024-10-17T1600,2508A,109.5669,23.1065,贵港市,荷城子站,,36,36,30,14,16,107,,89,89,11,17,12,10,0.4,0.6
2024-10-17T1600,3405A,109.5886,23.1172,贵港市,新世纪学校,,36,36,29,17,19,105,,82,82,13,15,13,8,0.8,0.7
2024-10-17T1600,1439A,106.6899,26.5998,贵阳市,马鞍山,,,7,9,3,3,71,,44,44,,13,,4,0.4,0.5
2024-10-17T1600,1440A,106.6971,26.5694,贵阳市,市环保站,,19,19,15,9,12,60,,43,43,17,25,4,3,0.5,0.6
2024-10-17T1600,1441A,106.6243,26.6266,贵阳市,鉴湖路,,22,22,13,3,6,68,,52,52,7,10,6,4,0.3,0.4
2024-10-17T1600,1442A,106.7487,26.6343,贵阳市,燕子冲,,,,7,12,11,69,,48,48,7,18,,5,0.2,0.4
2024-10-17T1600,1443A,106.6555,26.4365,贵阳市,碧云窝,,20,19,15,7,5,62,,51,49,6,9,6,4,0.4,0.4
2024-10-17T1600,1444A,106.694,26.5161,贵阳市,中院村,,19,19,15,9,8,52,,44,44,14,21,9,8,0.6,0.6
2024-10-17T1600,1445A,106.7109,26.6027,贵阳市,红边门,,20,17,16,14,12,62,,38,38,13,26,5,4,0.5,0.7
2024-10-17T1600,1446A,106.7164,26.5699,贵阳市,新华路,,20,9,9,9,9,63,,50,50,11,22,5,4,0.5,0.5
2024-10-17T1600,1447A,106.674,26.5424,贵阳市,太慈桥,,19,12,11,3,6,59,,46,46,11,15,7,7,0.4,0.4
2024-10-17T1600,1552A,106.805,26.3003,贵阳市,桐木岭,,27,27,24,14,14,62,,60,56,1,1,3,4,0.3,0.4
2024-10-17T1600,1862A,110.4144,25.3167,桂林市,电子科大尧山校区,,28,18,26,17,20,87,,60,60,4,6,4,11,0.6,0.8
2024-10-17T1600,1863A,110.2819,25.2697,桂林市,监测站,,46,38,33,32,25,94,,68,68,9,12,11,12,0.8,1
2024-10-17T1600,1864A,110.3089,25.2708,桂林市,龙隐路小学,,38,35,29,26,22,94,,66,66,8,11,7,11,0.6,0.8
2024-10-17T1600,1865A,110.2869,25.2178,桂林市,八中,,32,32,31,20,19,87,,61,61,7,12,7,10,0.5,0.8
2024-10-17T1600,3403A,110.1764,25.2381,桂林市,创业大厦,细颗粒物(PM2.5),52,41,31,36,26,95,,58,58,10,12,11,11,0.4,0.5
2024-10-17T1600,3531A,110.296,25.1253,桂林市,旅游学院,,28,24,28,17,21,89,,61,61,7,11,8,11,0.5,0.7
2024-10-17T1600,2674A,100.2561,34.4714,果洛藏族自治州,玛沁县大武镇,,31,20,28,3,17,99,,73,73,1,7,7,9,0.4,0.5
2024-10-17T1600,1129A,126.5422,45.755,哈尔滨市,岭北,,43,43,45,22,26,115,,86,86,18,33,6,7,0.5,0.7
2024-10-17T1600,1130A,126.561,45.8167,哈尔滨市,松北商大,,40,40,41,21,20,62,,44,44,27,38,9,11,0.4,0.5
2024-10-17T1600,1131A,126.979,45.5419,哈尔滨市,阿城会宁,,49,49,50,32,34,87,,70,70,18,22,11,10,0.5,0.6
2024-10-17T1600,1132A,126.599,45.7222,哈尔滨市,南岗学府路,,47,47,58,16,24,83,,57,57,20,38,8,8,0.5,0.7
2024-10-17T1600,1133A,126.689,45.7733,哈尔滨市,太平宏伟公园,,,,66,,31,69,,52,52,26,42,7,8,0.5,0.7
2024-10-17T1600,1134A,126.635,45.7667,哈尔滨市,道外承德广场,,48,48,48,21,25,64,,49,49,42,44,6,7,0.6,0.4
2024-10-17T1600,1135A,126.685,45.7319,哈尔滨市,香坊红旗大街,颗粒物(PM10),51,51,72,25,39,68,,52,52,37,57,12,14,0.4,0.6
2024-10-17T1600,1136A,126.6411,45.7258,哈尔滨市,动力和平路,,37,37,54,20,33,75,,53,53,24,45,11,12,0.7,0.6
2024-10-17T1600,1137A,126.593,45.7478,哈尔滨市,道里建国路,颗粒物(PM10),51,51,48,29,28,70,,50,50,33,49,14,14,0.7,0.8
2024-10-17T1600,1138A,126.615,45.61,哈尔滨市,平房东轻厂,颗粒物(PM10),51,52,52,29,26,79,,62,62,29,30,8,7,0.5,0.5
2024-10-17T1600,1139A,126.595,45.9855,哈尔滨市,呼兰师专,,49,47,45,34,25,54,,46,46,34,40,11,8,0.3,0.4
2024-10-17T1600,1140A,126.6206,45.6842,哈尔滨市,省农科院,颗粒物(PM10),53,56,70,34,39,65,,53,53,34,50,8,9,0.4,0.6
2024-10-17T1600,2688A,93.5128,42.8172,哈密市,地区监测站,颗粒物(PM10),54,57,83,13,25,91,,70,69,9,28,6,7,0.3,0.2
2024-10-17T1600,2689A,93.4961,42.8328,哈密市,哈密师范学校,,45,45,85,21,28,94,,68,68,7,34,5,6,0.3,0.6
2024-10-17T1600,2671A,100.9048,36.9639,海北藏族自治州,海晏县西海镇,,31,9,13,9,12,98,,77,77,1,9,10,9,0.3,0.3
2024-10-17T1600,3867A,102.0738,36.5056,海东市,平安区公安北苑,,33,16,29,6,16,103,,64,64,8,17,7,10,0.5,0.7
2024-10-17T1600,1409A,110.576,19.9507,海口市,东寨港,,,,,,,,,,,,,,,,
2024-10-17T1600,1410A,110.3232,20.0574,海口市,海南大学,,20,17,15,8,6,62,,59,59,5,5,4,4,0.4,0.4
2024-10-17T1600,1411A,110.283,20.0053,海口市,秀英海南医院,,20,11,13,6,6,62,,57,57,6,10,6,5,0.3,0.3
2024-10-17T1600,1412A,110.338,19.9969,海口市,海南师范大学,,20,,13,8,7,63,,57,57,3,5,6,6,0.4,0.4
2024-10-17T1600,1413A,110.33,20.0356,海口市,龙华路环保局宿舍,,19,13,14,8,7,60,,58,58,7,7,4,4,0.3,0.3
2024-10-17T1600,3539A,110.5111,19.9736,海口市,桂林洋子站,,18,15,13,8,5,56,,53,53,4,5,7,7,0.3,0.3
2024-10-17T1600,2673A,100.6188,36.2866,海南藏族自治州,共和县恰卜恰镇,,28,,26,11,13,88,,68,68,3,16,2,10,0.2,0.4
2024-10-17T1600,2676A,97.3731,37.3753,海西蒙古族藏族自治州,德令哈市,,,16,13,3,10,103,,91,91,,3,7,7,0.5,0.4
2024-10-17T1600,1048A,114.5302,36.6116,邯郸市,东污水处理厂,细颗粒物(PM2.5),188,166,154,141,118,19,,16,16,59,61,5,4,0.8,0.7
2024-10-17T1600,1049A,114.4918,36.5713,邯郸市,矿院,细颗粒物(PM2.5),185,194,176,139,116,26,,19,19,55,56,6,5,0.6,0.5
2024-10-17T1600,1050A,114.484,36.6133,邯郸市,丛台公园,细颗粒物(PM2.5),160,175,160,122,106,24,,18,18,49,53,6,5,0.7,0.7
2024-10-17T1600,3458A,114.7895,36.5593,邯郸市,香泉濮院小区,细颗粒物(PM2.5),83,114,144,61,85,80,,75,75,25,40,2,5,0.5,0.7
2024-10-17T1600,3579A,114.50634,36.77178,邯郸市,永年区实验高中,细颗粒物(PM2.5),155,170,179,118,108,34,,24,24,45,51,4,6,0.7,0.9
2024-10-17T1600,3580A,114.20016,36.44293,邯郸市,峰峰矿区临水派出所,细颗粒物(PM2.5),150,156,150,115,105,20,,38,23,46,34,8,9,1.0,0.9
2024-10-17T1600,2634A,106.9893,33.1842,汉中市,汉川机床厂子校,,48,39,41,33,27,116,,90,90,10,11,5,5,0.5,0.5
2024-10-17T1600,2635A,107.0154,33.0706,汉中市,市监测站,,43,37,45,30,33,116,,87,87,9,16,8,8,0.8,0.8
2024-10-17T1600,2636A,107.0089,33.1138,汉中市,鑫源开发区,,45,45,43,25,31,112,,84,84,14,20,9,10,0.5,0.6
2024-10-17T1600,2637A,107.007,33.0323,汉中市,南郑大河坎水厂,,37,30,44,25,32,116,,85,85,9,20,7,7,0.6,0.6
2024-10-17T1600,1223A,120.2072,30.2111,杭州市,滨江,,35,35,39,18,17,84,,48,48,34,32,5,4,0.8,0.8
2024-10-17T1600,1224A,120.0633,30.2747,杭州市,西溪,,40,40,30,16,15,88,,51,51,22,29,6,6,0.7,0.7
2024-10-17T1600,1226A,120.3461,30.3153,杭州市,下沙,,37,,30,14,13,117,,72,72,24,46,6,6,0.6,0.6
2024-10-17T1600,1227A,120.1269,30.2456,杭州市,卧龙桥,,33,30,25,17,20,104,,64,64,23,30,6,5,0.6,0.6
2024-10-17T1600,1228A,120.1903,30.2692,杭州市,浙江农大,,29,29,24,16,17,87,,48,48,26,33,2,2,0.7,0.7
2024-10-17T1600,1230A,120.1197,30.3119,杭州市,和睦小学,,32,27,28,18,15,100,,54,54,23,36,2,2,0.6,0.6
2024-10-17T1600,1231A,120.3019,30.4183,杭州市,临平镇,,39,20,31,9,11,123,,86,86,12,24,5,5,0.5,0.6
2024-10-17T1600,1232A,120.2697,30.1819,杭州市,城厢镇,,,36,35,,28,99,,56,56,29,31,,6,0.7,0.8
2024-10-17T1600,1233A,120.0883,30.1808,杭州市,云栖,,42,42,22,28,14,81,,56,56,39,26,7,7,0.7,0.6
2024-10-17T1600,3557A,119.9464,30.0494,杭州市,镇二中,,27,24,27,12,15,84,,62,62,21,20,5,6,0.8,0.6
2024-10-17T1600,3558A,119.7183,30.2367,杭州市,市府大楼,,34,33,20,21,13,106,,71,71,24,21,5,5,0.6,0.5
2024-10-17T1600,3656A,120.1556,30.2864,杭州市,消防大队,,31,31,31,14,17,98,,54,54,24,35,6,6,0.6,0.6
2024-10-17T1600,1270A,117.1959,31.7848,合肥市,明珠广场,,,19,27,12,18,96,,88,88,13,19,5,5,,0.6
2024-10-17T1600,1271A,117.3072,31.8764,合肥市,三里街,,27,27,29,17,18,78,,60,60,16,16,2,3,0.6,0.7
2024-10-17T1600,1272A,117.2588,31.8707,合肥市,琥珀山庄,,31,19,26,8,18,98,,77,77,15,22,7,7,0.7,0.8
2024-10-17T1600,1273A,117.1604,31.9052,合肥市,董铺水库,,29,17,31,9,17,91,,74,74,10,13,2,3,0.4,0.4
2024-10-17T1600,1274A,117.25,31.8571,合肥市,长江中路,,39,39,41,20,25,89,,70,70,14,18,8,8,0.6,0.6
2024-10-17T1600,1275A,117.266,31.9436,合肥市,庐阳区,,30,29,30,12,19,93,,70,70,20,21,4,4,0.6,0.7
2024-10-17T1600,1276A,117.336,31.8586,合肥市,瑶海区,,29,24,32,17,18,91,,69,69,13,18,3,3,0.5,0.6
2024-10-17T1600,1277A,117.3027,31.7964,合肥市,包河区,,31,,26,17,18,98,,80,80,9,26,5,6,0.5,0.5
2024-10-17T1600,1278A,117.2776,31.7385,合肥市,滨湖新区,,33,24,26,14,19,104,,82,82,6,11,6,5,0.5,0.5
2024-10-17T1600,1279A,117.1318,31.8403,合肥市,高新区,,29,19,27,15,20,91,,77,77,13,14,5,5,0.8,0.8
2024-10-17T1600,3464A,117.3803,31.9147,合肥市,高教基地,,,,36,,16,,,61,61,13,15,6,4,0.4,0.5
2024-10-17T1600,3614A,79.924,37.0877,和田地区,地区环保局,颗粒物(PM10),117,184,252,,59,,,80,74,4,8,9,8,0.6,0.5
2024-10-17T1600,3615A,79.9131,37.113,和田地区,市环保局,颗粒物(PM10),130,210,220,36,54,91,,76,69,5,13,6,7,0.6,0.6
2024-10-17T1600,2516A,108.2011,24.715,河池市,东仁乐园,,46,46,35,19,19,52,,46,46,7,10,4,4,0.6,0.6
2024-10-17T1600,2517A,108.0497,24.6947,河池市,市环保站,,50,50,38,26,23,46,,38,38,16,20,9,9,0.7,0.7
2024-10-17T1600,2518A,108.0983,24.6989,河池市,市疾控中心,,36,28,39,25,24,44,,36,36,18,21,7,8,0.6,0.7
2024-10-17T1600,1696A,114.6778,23.7569,河源市,源西,,27,23,35,15,28,86,,75,75,5,21,5,5,0.1,0.3
2024-10-17T1600,1697A,114.6944,23.7586,河源市,东埔,,27,12,29,11,31,86,,80,80,8,16,3,4,0.6,0.7
2024-10-17T1600,1698A,114.6892,23.7233,河源市,老城,,26,20,35,9,21,83,,83,83,5,11,3,5,0.5,0.6
2024-10-17T1600,1718A,115.4208,35.2464,菏泽市,气象局,,25,11,92,6,51,80,,80,80,13,20,3,3,0.3,0.5
2024-10-17T1600,1719A,115.4747,35.2375,菏泽市,市政协,,24,,91,11,56,76,,77,77,13,22,3,4,0.3,0.5
2024-10-17T1600,3374A,115.5564,35.0891,菏泽市,定陶老年大学,,22,7,96,3,48,70,,74,74,17,31,6,6,0.3,0.5
2024-10-17T1600,3647A,115.4702,35.2706,菏泽市,菏泽医专,,25,14,78,6,59,79,,79,79,19,27,3,5,0.4,0.7
2024-10-17T1600,2514A,111.5264,24.4172,贺州市,环保小区,,36,,38,25,23,105,,86,86,8,14,5,6,0.4,0.7
2024-10-17T1600,2515A,111.5608,24.4078,贺州市,政协大楼,,32,29,40,19,23,102,,85,85,12,15,8,8,0.4,0.7
2024-10-17T1600,3534A,111.4744,24.4553,贺州市,西湾,,36,30,38,25,29,98,,82,82,10,13,5,6,0.5,0.8
2024-10-17T1600,2385A,114.17,35.9019,鹤壁市,市监测站,细颗粒物(PM2.5),95,110,142,71,86,46,,56,56,49,52,2,5,0.9,0.8
2024-10-17T1600,2386A,114.2956,35.7511,鹤壁市,市交警支队,细颗粒物(PM2.5),64,75,136,46,77,71,,70,70,24,38,1,6,0.5,0.6
2024-10-17T1600,2387A,114.2878,35.7306,鹤壁市,迎宾馆,细颗粒物(PM2.5),62,66,154,44,88,74,,70,70,22,35,2,7,0.8,0.8
2024-10-17T1600,3474A,114.2617,35.6822,鹤壁市,大新区,颗粒物(PM10),51,51,101,32,59,66,,64,64,10,21,1,2,0.7,0.8
2024-10-17T1600,3596A,114.1572,35.9603,鹤壁市,南山宾馆,细颗粒物(PM2.5),78,71,128,57,78,15,,35,35,36,22,3,3,1.3,0.6
2024-10-17T1600,2244A,130.2537,47.3416,鹤岗市,哈啤分公司,,29,29,30,13,19,66,,62,62,19,14,17,14,0.3,0.4
2024-10-17T1600,2245A,130.2684,47.3086,鹤岗市,斯达机电,,39,39,36,22,19,76,,62,62,15,19,14,16,0.2,0.2
2024-10-17T1600,2246A,130.3114,47.3388,鹤岗市,东山纸板厂,,36,36,45,15,21,70,,62,62,16,20,17,17,0.1,0.4
2024-10-17T1600,2247A,130.1097,47.3382,鹤岗市,五号水库,,33,33,15,9,7,86,,79,79,7,7,9,8,0.2,0.2
2024-10-17T1600,2263A,127.4833,50.2524,黑河市,交通局,,21,21,18,11,15,61,,58,58,9,11,7,7,0.4,0.4
2024-10-17T1600,2264A,127.5144,50.2341,黑河市,环保局,,23,19,19,9,17,71,,66,66,6,10,4,8,0.2,0.3
2024-10-17T1600,2265A,127.5291,50.2472,黑河市,大黑河岛,,,,,11,11,55,,56,56,9,12,1,2,,
2024-10-17T1600,1074A,115.6838,37.7541,衡水市,电机北厂,细颗粒物(PM2.5),102,127,136,76,87,112,,83,83,20,53,6,8,0.5,0.5
2024-10-17T1600,1075A,115.6303,37.7316,衡水市,市监测站,细颗粒物(PM2.5),148,156,125,113,81,49,,73,73,57,55,8,9,0.6,0.6
2024-10-17T1600,3188A,115.6683,37.7217,衡水市,市城管局,细颗粒物(PM2.5),104,115,123,78,83,116,,83,83,18,47,10,11,0.5,0.6
2024-10-17T1600,3459A,115.5989,37.5491,衡水市,地表水厂,细颗粒物(PM2.5),90,102,108,67,67,100,,78,78,19,50,3,4,0.5,0.6
2024-10-17T1600,2456A,112.5003,26.9167,衡阳市,原169医院,颗粒物(PM10),53,55,55,26,29,92,,51,51,14,20,15,12,0.9,1
2024-10-17T1600,2457A,112.6194,26.9258,衡阳市,衡阳化工总厂,颗粒物(PM10),62,73,62,24,48,96,,57,57,5,15,7,5,0.7,0.9
2024-10-17T1600,2458A,112.6211,26.8956,衡阳市,珠晖区环保局,,,38,55,,34,96,,64,64,7,21,10,8,0.9,1.1
2024-10-17T1600,2459A,112.6197,26.8733,衡阳市,市委党校,颗粒物(PM10),56,61,56,26,36,99,,62,62,10,14,12,7,0.9,1
2024-10-17T1600,2460A,112.6006,26.8919,衡阳市,市监测站,,40,40,45,27,38,97,,61,61,8,16,10,8,0.9,1
2024-10-17T1600,2461A,112.5664,26.9056,衡阳市,真空机电公司,颗粒物(PM10),54,58,55,29,31,100,,58,58,12,19,7,5,1.3,1.2
2024-10-17T1600,3399A,112.6703,26.882,衡阳市,师范学院,,39,37,52,27,31,92,,60,60,14,16,14,9,0.9,1.1
2024-10-17T1600,2608A,103.3772,23.3993,红河哈尼族彝族自治州,污水处理厂,,23,14,12,11,13,73,,62,62,3,5,4,6,0.4,0.4
2024-10-17T1600,2609A,103.3861,23.35,红河哈尼族彝族自治州,监测站,,20,17,16,13,13,64,,62,62,4,7,7,6,0.3,0.4
2024-10-17T1600,3038A,103.3758,23.368,红河哈尼族彝族自治州,州图书馆,,20,12,9,3,7,61,,58,58,2,7,6,6,0.3,0.3
2024-10-17T1600,1090A,111.6507,40.7517,呼和浩特市,呼市一监,细颗粒物(PM2.5),93,,95,69,80,78,,60,60,16,36,7,9,0.8,0.9
2024-10-17T1600,1091A,111.6572,40.8033,呼和浩特市,小召,细颗粒物(PM2.5),82,,101,60,83,79,,55,55,19,47,7,9,0.7,1.1
2024-10-17T1600,1094A,111.7516,40.8369,呼和浩特市,如意水处理厂,细颗粒物(PM2.5),85,83,130,63,79,78,,60,60,29,60,2,5,0.8,1.1
2024-10-17T1600,1095A,111.7276,40.8062,呼和浩特市,二十九中,细颗粒物(PM2.5),105,,115,79,88,82,,69,69,22,51,5,7,0.9,1.1
2024-10-17T1600,1096A,111.5512,40.7866,呼和浩特市,工大金川校区,细颗粒物(PM2.5),89,74,125,66,85,80,,64,64,31,59,3,6,0.9,1.1
2024-10-17T1600,1097A,111.717,40.7612,呼和浩特市,化肥厂生活区,细颗粒物(PM2.5),108,,120,81,91,90,,64,64,17,44,8,10,0.7,0.8
2024-10-17T1600,3698A,111.5968,40.8178,呼和浩特市,红旗小学,细颗粒物(PM2.5),85,63,122,63,88,82,,54,54,34,66,2,6,0.8,1
2024-10-17T1600,3699A,111.6518,40.8389,呼和浩特市,海东办,细颗粒物(PM2.5),85,,107,63,86,77,,60,60,30,63,4,8,0.8,1.1
2024-10-17T1600,2192A,119.7594,49.2261,呼伦贝尔市,区环保局,,21,18,24,7,18,67,,58,58,9,12,5,5,0.3,0.3
2024-10-17T1600,3061A,119.7512,49.1577,呼伦贝尔市,国华电力东,,23,,20,11,16,71,,64,64,5,6,3,4,0.3,0.3
2024-10-17T1600,1250A,120.0751,30.8669,湖州市,城西水厂,,35,17,19,11,13,109,,74,74,16,22,5,4,0.2,0.3
2024-10-17T1600,2873A,120.0875,30.8955,湖州市,仁皇山新区,,34,14,19,11,14,108,,80,80,13,21,7,6,0.6,0.6
2024-10-17T1600,2907A,120.1844,30.8596,湖州市,吴兴区站,,35,18,21,9,13,111,,86,86,9,15,6,6,0.5,0.5
2024-10-17T1600,3562A,120.4148,30.8538,湖州市,南浔区站,,31,13,16,8,16,97,,85,85,11,18,3,2,0.5,0.5
2024-10-17T1600,1607A,120.9092,40.7136,葫芦岛市,龙港区,,38,31,21,26,21,76,,67,67,21,20,12,16,0.8,0.7
2024-10-17T1600,1608A,120.8392,40.7514,葫芦岛市,化工街,颗粒物(PM10),53,56,60,19,20,82,,51,51,26,42,18,22,0.9,0.9
2024-10-17T1600,1609A,120.8341,40.7073,葫芦岛市,新区,,50,50,41,30,21,75,,59,59,28,33,10,10,0.9,0.7
2024-10-17T1600,1610A,120.8695,40.7677,葫芦岛市,东城区,,49,42,49,34,26,74,,40,40,25,41,12,27,0.8,0.8
2024-10-17T1600,2482A,109.5981,27.5721,怀化市,林科所,,15,13,33,10,25,33,,37,28,6,7,2,6,0.8,0.9
2024-10-17T1600,2483A,109.9453,27.5444,怀化市,河西地税局,,22,19,42,15,30,33,,39,25,10,12,8,14,0.6,0.6
2024-10-17T1600,2484A,109.9781,27.5342,怀化市,市四医院,,32,32,43,19,37,23,,32,24,16,10,6,9,0.9,0.8
2024-10-17T1600,2485A,109.9972,27.5578,怀化市,监测楼,,23,20,45,16,34,29,,35,29,19,11,6,8,0.9,0.7
2024-10-17T1600,2486A,110.0394,27.583,怀化市,市委党校,,,9,39,,27,36,,37,30,15,10,8,9,0.7,0.7
2024-10-17T1600,1210A,119.036,33.5981,淮安市,钵池山,,24,24,36,16,32,67,,60,60,15,19,4,4,0.4,0.4
2024-10-17T1600,1211A,119.007,33.575,淮安市,北京南路,,29,29,47,14,29,65,,57,57,12,17,6,5,0.5,0.5
2024-10-17T1600,1212A,118.989,33.6067,淮安市,市监测站,,22,22,35,14,22,70,,64,64,19,22,6,6,0.6,0.6
2024-10-17T1600,1213A,119.135,33.5039,淮安市,楚州区监测站,,32,32,42,14,26,67,,58,58,14,23,5,6,0.5,0.5
2024-10-17T1600,1214A,119.0186,33.6297,淮安市,淮阴区监测站,,27,27,43,16,30,59,,55,55,29,32,6,7,0.4,0.5
2024-10-17T1600,3426A,118.8755,33.2894,淮安市,新华书店,,28,28,40,8,18,63,,65,64,18,18,4,4,0.3,0.4
2024-10-17T1600,2282A,116.8004,33.975,淮北市,监测站,,20,20,53,10,26,62,,70,60,13,15,3,2,0.3,0.5
2024-10-17T1600,2283A,116.8091,33.9007,淮北市,烈山区政府,,31,31,57,12,35,64,,69,66,11,14,1,2,0.3,0.4
2024-10-17T1600,3330A,116.8873,33.9836,淮北市,杜集区检察院,,29,29,60,15,35,70,,74,67,12,15,2,2,0.0,0.1
2024-10-17T1600,4017A,116.7923,33.9535,淮北市,市博物馆,,22,21,50,10,27,69,,73,68,10,13,1,2,0.5,0.6
2024-10-17T1600,2277A,116.8305,32.7727,淮南市,潘集区政府,细颗粒物(PM2.5),54,54,49,38,30,52,,71,58,19,13,7,7,0.7,0.5
2024-10-17T1600,2278A,117.0067,32.6524,淮南市,师范学院,颗粒物(PM10),55,60,50,37,27,70,,76,69,18,11,8,7,0.5,0.4
2024-10-17T1600,2279A,116.8569,32.5951,淮南市,谢家集区政府,,46,40,34,32,28,60,,67,58,25,16,9,8,0.5,0.5
2024-10-17T1600,2280A,116.8281,32.633,淮南市,八公山区政府,,,57,48,38,28,61,,72,63,,9,8,9,,0.3
2024-10-17T1600,2281A,116.6325,32.6201,淮南市,焦岗湖风景区管理处,,44,44,36,19,15,50,,55,54,13,8,10,9,0.3,0.1
2024-10-17T1600,2894A,117.0566,32.6531,淮南市,经济技术开发区消防队,,35,35,40,10,18,72,,69,66,18,13,4,4,0.5,0.4
2024-10-17T1600,3329A,117.0108,32.5893,淮南市,山南新区,颗粒物(PM10),51,52,48,33,29,79,,80,72,10,8,2,2,0.7,0.6
2024-10-17T1600,2446A,114.9028,30.4742,黄冈市,职工中心,,46,46,44,32,32,62,,66,66,21,21,8,10,0.8,0.8
2024-10-17T1600,2929A,114.8858,30.4519,黄冈市,红卫路,,46,45,39,32,29,63,,65,65,18,20,9,10,0.8,0.9
2024-10-17T1600,3398A,114.9136,30.4445,黄冈市,市林业局,,47,47,41,29,28,70,,71,71,16,17,8,10,0.5,0.6
2024-10-17T1600,2672A,102.0199,35.5102,黄南藏族自治州,同仁县隆务镇,,29,19,27,3,10,91,,66,66,10,5,12,11,0.4,0.3
2024-10-17T1600,2295A,118.2903,29.6963,黄山市,延安路89号,,26,26,21,3,5,77,,62,62,3,10,6,6,0.4,0.5
2024-10-17T1600,2296A,118.327,29.7178,黄山市,黄山东路89号,,24,21,19,3,4,74,,64,64,3,9,5,5,0.4,0.5
2024-10-17T1600,2297A,118.1371,30.2756,黄山市,黄山区政府5号楼,,25,10,17,7,7,78,,66,66,6,8,7,7,0.4,0.4
2024-10-17T1600,2423A,115.0601,30.2313,黄石市,沈家营,颗粒物(PM10),54,58,38,25,17,44,,60,58,36,19,10,8,0.8,0.7
2024-10-17T1600,2424A,115.0817,30.2006,黄石市,陈家湾,颗粒物(PM10),52,54,36,21,17,64,,71,70,19,10,10,8,0.8,0.8
2024-10-17T1600,2426A,114.8988,30.2019,黄石市,铁山,,46,,28,32,22,50,,69,69,26,12,11,10,0.6,0.6
2024-10-17T1600,2427A,115.0307,30.2092,黄石市,团城山,,38,38,32,18,14,63,,67,67,18,13,8,7,0.6,0.6
2024-10-17T1600,3149A,115.0235,30.1578,黄石市,笔架山北路,,41,41,32,16,13,57,,65,65,16,11,8,7,0.8,0.8
2024-10-17T1600,1392A,114.4183,23.0528,惠州市,河南岸金山湖子站,,36,36,31,20,14,105,,88,88,4,8,5,6,0.5,0.5
2024-10-17T1600,1393A,114.4053,23.0822,惠州市,下埔横江三路子站,,35,24,30,10,15,109,,96,96,8,10,5,5,0.6,0.6
2024-10-17T1600,1394A,114.4103,23.1142,惠州市,江北云山西路子站,,34,22,27,10,14,108,,93,93,5,8,5,6,0.4,0.5
2024-10-17T1600,1395A,114.4645,22.7833,惠州市,惠阳区承修路船湖子站,,31,30,30,16,12,99,,86,86,10,13,7,7,0.4,0.4
2024-10-17T1600,1396A,114.5317,22.7422,惠州市,大亚湾管委会子站,,38,28,25,16,12,119,,98,98,7,12,9,9,0.7,0.6
2024-10-17T1600,3314A,114.4338,22.8134,惠州市,惠阳秋长,,31,17,21,13,12,97,,94,94,7,12,5,6,0.5,0.6
2024-10-17T1600,3452A,114.6517,22.775,惠州市,大亚湾霞涌,细颗粒物(PM2.5),55,,24,39,11,119,,92,92,6,7,6,6,0.3,0.4
2024-10-17T1600,2240A,130.9762,45.3001,鸡西市,环保局,,26,26,66,10,24,80,,73,73,7,25,8,8,0.2,0.5
2024-10-17T1600,2243A,130.9429,45.3039,鸡西市,第一中学,,28,23,52,13,20,88,,77,77,7,22,6,7,0.1,0.2
2024-10-17T1600,3707A,131.0207,45.3073,鸡西市,欧美日汽修厂,,29,29,79,15,34,70,,64,64,24,32,12,14,0.1,0.4
2024-10-17T1600,3709A,130.9967,45.3106,鸡西市,市政设施管理处,,33,33,77,14,29,78,,70,70,17,35,7,10,0.1,0.3
2024-10-17T1600,2367A,114.9754,27.0803,吉安市,红声器材厂,,34,34,36,16,18,89,,73,73,12,18,9,12,0.7,0.6
2024-10-17T1600,2368A,114.9658,27.0999,吉安市,市森林工业局,,32,32,30,19,18,93,,74,74,10,16,11,13,0.7,0.7
2024-10-17T1600,2369A,114.99,27.1312,吉安市,市环境监测站,,31,31,28,15,15,95,,75,75,10,15,12,17,0.6,0.6
2024-10-17T1600,2370A,115.0093,27.0968,吉安市,青原区法院,,34,34,33,16,19,89,,70,70,10,17,13,17,0.5,0.6
2024-10-17T1600,1772A,126.54,43.8622,吉林市,哈达湾,,41,41,33,28,25,111,,86,86,14,28,9,8,0.7,0.7
2024-10-17T1600,1773A,126.5844,43.8358,吉林市,东局子,,45,45,36,25,19,104,,84,84,20,30,7,5,0.7,0.7
2024-10-17T1600,1774A,126.5052,43.8245,吉林市,电力学院,颗粒物(PM10),52,53,50,34,33,103,,80,80,14,33,6,6,0.8,1
2024-10-17T1600,1775A,126.6133,43.8972,吉林市,江北,,43,43,50,22,24,103,,84,84,18,28,10,9,0.8,0.8
2024-10-17T1600,1776A,126.555,43.8306,吉林市,江南公园,细颗粒物(PM2.5),52,50,47,36,31,110,,78,78,14,33,9,7,0.7,0.7
2024-10-17T1600,1778A,126.7061,43.7133,吉林市,丰满,,43,,16,30,19,106,,86,86,7,5,8,7,0.4,0.3
2024-10-17T1600,2868A,126.4739,43.953,吉林市,九站,颗粒物(PM10),57,63,64,35,35,100,,84,84,16,41,7,9,0.8,0.8
2024-10-17T1600,1299A,116.9862,36.6114,济南市,科干所,,33,24,104,7,54,104,,109,109,16,27,7,7,0.6,0.9
2024-10-17T1600,1300A,116.9376,36.665,济南市,农科所,,34,34,108,7,57,103,,99,99,21,43,5,5,0.6,0.9
2024-10-17T1600,1301A,117.1265,36.6734,济南市,开发区,,33,32,101,15,56,103,,111,111,19,36,5,5,0.5,0.8
2024-10-17T1600,1303A,117.0624,36.6868,济南市,省种子仓库,,44,44,128,9,80,99,,106,106,19,48,4,3,0.4,0.8
2024-10-17T1600,1304A,116.9489,36.6447,济南市,机床二厂,,37,37,104,3,52,109,,110,110,16,45,4,4,0.6,1
2024-10-17T1600,1305A,117.0495,36.663,济南市,市监测站,,34,27,98,12,69,106,,109,109,16,36,5,4,0.6,0.9
2024-10-17T1600,1306A,116.7675,36.5484,济南市,长清党校,,36,22,92,10,49,113,,118,118,19,23,4,5,0.6,0.8
2024-10-17T1600,1616A,117.6795,36.229,济南市,技术学院,,28,27,96,7,61,88,,84,84,24,29,7,9,0.5,1.2
2024-10-17T1600,1961A,117.532,36.6868,济南市,东山小学,,28,22,103,3,60,89,,86,86,9,33,4,4,0.4,1
2024-10-17T1600,3059A,117.7161,36.2049,济南市,泰兴公司,,31,31,90,9,58,89,,87,87,32,48,3,8,0.2,0.9
2024-10-17T1600,3064A,117.6867,36.2171,济南市,莱芜战役纪念馆,,29,29,91,9,51,90,,82,82,21,34,5,7,0.4,1
2024-10-17T1600,3494A,117.1673,36.9782,济南市,济阳区政府,颗粒物(PM10),69,88,134,27,77,105,,112,112,32,39,4,5,0.6,0.8
2024-10-17T1600,3495A,117.1171,36.63,济南市,锦屏中学,,34,20,72,7,48,107,,114,114,19,28,5,4,0.5,0.8
2024-10-17T1600,3682A,116.9814,36.6819,济南市,济南四建,,34,34,98,12,59,102,,108,108,18,46,3,3,0.6,0.9
2024-10-17T1600,1653A,116.6251,35.4302,济宁市,火炬城,,34,34,73,9,43,76,,80,80,26,22,10,10,0.6,0.8
2024-10-17T1600,1655A,116.5491,35.4042,济宁市,电化厂,,41,41,87,17,46,76,,81,81,20,21,7,8,0.5,0.7
2024-10-17T1600,3500A,116.5814,35.3707,济宁市,北湖一中,,25,23,67,7,45,77,,78,78,17,20,7,8,0.4,0.5
2024-10-17T1600,3501A,116.8249,35.5593,济宁市,服务中心,,23,23,71,16,45,64,,71,71,23,22,6,8,0.7,0.8
2024-10-17T1600,3678A,116.5907,35.4054,济宁市,市第七中学,,26,26,68,14,43,71,,78,78,22,21,8,8,0.6,0.7
2024-10-17T1600,2255A,130.2751,46.8028,佳木斯市,佳纺,,28,20,26,9,12,87,,75,75,5,16,4,4,0.3,0.3
2024-10-17T1600,2256A,130.3995,46.8307,佳木斯市,发电厂,,26,21,22,9,14,81,,70,70,10,23,5,5,0.3,0.4
2024-10-17T1600,2257A,130.3258,46.7975,佳木斯市,环保局,,25,20,22,8,10,80,,71,71,8,13,7,8,0.3,0.3
2024-10-17T1600,2258A,130.3648,46.8032,佳木斯市,十一中,,24,21,27,8,14,76,,74,74,14,22,7,7,0.4,0.4
2024-10-17T1600,2259A,130.3794,46.7588,佳木斯市,四丰,,,14,15,6,8,83,,75,75,,,1,1,0.1,0.1
2024-10-17T1600,1252A,120.7436,30.778,嘉兴市,清河小学,,32,11,19,8,12,101,,88,88,14,24,7,4,0.5,0.6
2024-10-17T1600,1253A,120.726,30.7478,嘉兴市,嘉兴学院,,29,18,20,3,17,92,,81,81,14,20,4,3,0.7,0.5
2024-10-17T1600,2872A,120.7846,30.7525,嘉兴市,南湖区残联,,35,19,22,6,14,112,,98,98,10,19,7,5,0.5,0.6
2024-10-17T1600,3407A,120.6916,30.7739,嘉兴市,秀洲住建,,32,13,18,9,12,102,,88,88,11,23,6,5,0.6,0.6
2024-10-17T1600,1945A,98.2908,39.7711,嘉峪关市,气象局,颗粒物(PM10),64,78,87,27,28,121,,91,91,18,32,5,12,0.4,0.6
2024-10-17T1600,2884A,98.2672,39.7978,嘉峪关市,酒钢宾馆,颗粒物(PM10),63,75,95,24,30,116,,83,83,13,31,21,53,0,0.8
2024-10-17T1600,3248A,98.2643,39.7724,嘉峪关市,雄关区,颗粒物(PM10),56,62,77,27,30,127,,88,88,9,34,9,13,0.2,0.4
2024-10-17T1600,1383A,113.1064,22.6058,江门市,北街,,35,35,34,15,16,111,,99,99,8,18,5,6,0.4,0.4
2024-10-17T1600,1384A,113.0731,22.5835,江门市,西区,,35,29,35,17,14,110,,98,98,11,17,6,6,0.4,0.4
2024-10-17T1600,1385A,113.0219,22.5311,江门市,圭峰西,,33,28,31,14,16,103,,96,96,10,17,4,5,0.4,0.4
2024-10-17T1600,1386A,113.0828,22.5947,江门市,东湖,,35,33,33,19,18,111,,97,97,8,16,5,6,0.3,0.3
2024-10-17T1600,3311A,113.1075,22.5647,江门市,江海富民,,48,48,47,15,19,115,,98,98,9,16,6,7,0.4,0.4
2024-10-17T1600,3449A,113.05,22.4667,江门市,新会银湖,,35,35,32,12,19,98,,90,90,4,20,5,6,0.4,0.5
2024-10-17T1600,1828A,113.227,35.2125,焦作市,市环保局,细颗粒物(PM2.5),92,106,151,68,88,59,,74,53,24,28,2,5,0.3,0.5
2024-10-17T1600,1830A,113.1992,35.2590,焦作市,影视城,,,,118,,82,,,105,65,17,15,6,7,0.6,0.6
2024-10-17T1600,3169A,113.2725,35.2067,焦作市,太极体育中心,细颗粒物(PM2.5),89,72,141,66,77,52,,63,48,18,22,2,6,0.8,0.7
2024-10-17T1600,3335A,113.3137,35.2641,焦作市,马村街道办,细颗粒物(PM2.5),114,,127,86,110,57,,72,55,24,28,3,5,0.5,0.6
2024-10-17T1600,3336A,113.2465,35.2373,焦作市,焦作技师学院,细颗粒物(PM2.5),77,86,130,56,83,53,,73,48,23,24,3,3,0.6,0.8
2024-10-17T1600,3477A,113.1656,35.2539,焦作市,中站许衡医院,细颗粒物(PM2.5),72,67,117,52,77,55,,90,52,17,16,3,4,0.3,0.4
2024-10-17T1600,3981A,113.2449,35.1803,焦作市,原李万街道办,细颗粒物(PM2.5),95,107,159,71,78,53,,66,48,22,24,8,10,0.7,0.7
2024-10-17T1600,1708A,116.3701,23.5345,揭阳市,新兴,,36,36,34,15,19,112,,103,103,11,14,6,7,0.5,0.5
2024-10-17T1600,1709A,116.3264,23.5443,揭阳市,西马,,37,34,38,16,16,118,,104,104,3,8,6,7,0.6,0.7
2024-10-17T1600,1710A,116.3611,23.5626,揭阳市,东兴,,35,17,39,13,16,112,,102,102,6,12,5,8,0.7,0.8
2024-10-17T1600,1711A,116.4151,23.5294,揭阳市,渔湖,,39,39,38,10,16,111,,99,99,8,15,7,9,0.6,0.6
2024-10-17T1600,3320A,116.403,23.5699,揭阳市,曲溪,,34,29,37,14,19,107,,103,103,8,16,1,5,0.3,0.4
2024-10-17T1600,1944A,102.1692,38.5167,金昌市,天庆家园,细颗粒物(PM2.5),83,68,62,61,46,113,,83,83,15,24,14,26,0.7,0.7
2024-10-17T1600,3170A,102.1864,38.5253,金昌市,市委党校,颗粒物(PM10),91,131,90,56,35,113,,91,91,12,21,8,14,0.8,0.7
2024-10-17T1600,4022A,102.1647,38.5371,金昌市,金川区人防中心,细颗粒物(PM2.5),82,101,80,60,37,112,,86,86,14,20,12,14,0.8,0.7
2024-10-17T1600,1262A,119.647,29.077,金华市,十五中,,42,25,34,12,20,133,,100,100,15,28,3,3,0.5,0.7
2024-10-17T1600,1263A,119.686,29.1029,金华市,监测站,,42,18,32,10,20,132,,100,100,14,36,3,2,0.5,0.6
2024-10-17T1600,3659A,119.656,29.1131,金华市,气象局,,42,20,30,12,15,134,,104,104,16,33,4,3,0.5,0.7
2024-10-17T1600,1767A,121.1115,41.0879,锦州市,南山,细颗粒物(PM2.5),85,70,44,63,36,74,,49,49,30,34,15,15,0.8,0.7
2024-10-17T1600,1768A,121.0533,40.8434,锦州市,开发区,细颗粒物(PM2.5),62,52,68,44,32,48,,40,40,46,47,10,20,1.0,0.9
2024-10-17T1600,1769A,121.1836,41.1119,锦州市,百股街道,颗粒物(PM10),55,59,43,34,18,80,,42,42,27,35,14,22,1.1,1.1
2024-10-17T1600,1770A,121.1178,41.1222,锦州市,天安街道,细颗粒物(PM2.5),75,89,50,55,31,71,,47,47,37,38,16,15,1.0,0.9
2024-10-17T1600,1771A,121.1303,41.1386,锦州市,北湖公园,细颗粒物(PM2.5),82,85,47,60,34,74,,49,49,35,31,17,15,1.0,0.9
2024-10-17T1600,2160A,112.85,35.5051,晋城市,自来水公司,,44,44,92,27,53,84,,112,76,19,22,4,6,0.6,0.8
2024-10-17T1600,2161A,112.8318,35.4936,晋城市,白云商贸,,41,41,92,27,58,85,,111,78,18,18,4,4,0.6,0.7
2024-10-17T1600,2162A,112.8508,35.4887,晋城市,市环保局,,30,30,78,19,45,84,,109,77,16,17,4,5,0.6,0.7
2024-10-17T1600,2163A,112.8676,35.4897,晋城市,技术学院,,48,48,88,22,49,82,,110,81,19,18,4,4,0.7,0.7
2024-10-17T1600,2165A,112.8453,35.546,晋城市,白马寺,,33,33,83,17,52,77,,109,73,15,16,8,8,0.6,0.7
2024-10-17T1600,3620A,112.8271,35.4828,晋城市,泽州一中,,45,45,81,31,61,84,,107,82,18,20,6,8,0.9,1
2024-10-17T1600,2171A,112.7532,37.6945,晋中市,锦纶小区,细颗粒物(PM2.5),83,80,92,61,66,34,,50,50,34,28,7,7,1.0,0.8
2024-10-17T1600,2173A,112.7249,37.7067,晋中市,南都小区,细颗粒物(PM2.5),87,102,97,64,64,16,,61,43,53,29,5,6,0.9,0.8
2024-10-17T1600,2174A,112.6991,37.6982,晋中市,榆次区政府,细颗粒物(PM2.5),88,92,96,65,58,10,,65,40,58,30,6,7,0.9,0.7
2024-10-17T1600,2865A,112.7195,37.6828,晋中市,榆次三中,细颗粒物(PM2.5),98,100,102,73,69,12,,45,44,55,32,8,8,1.0,0.8
2024-10-17T1600,2439A,112.2014,31.0481,荆门市,竹园小学,,35,,61,24,50,57,,42,41,15,33,13,11,0.8,0.9
2024-10-17T1600,2440A,112.1969,30.9891,荆门市,掇刀,,50,,59,35,65,60,,47,45,17,31,6,10,0.6,0.8
2024-10-17T1600,2441A,112.2213,31.0386,荆门市,石化一小,细颗粒物(PM2.5),53,,73,37,66,54,,45,43,22,40,15,15,0.5,0.7
2024-10-17T1600,3012A,112.1849,31.0362,荆门市,西山林语,,40,,51,28,48,57,,48,45,17,24,7,8,0.5,0.6
2024-10-17T1600,3547A,112.1632,31.0138,荆门市,龙泉中学南校,,,,45,,32,62,,53,47,,32,8,6,0.8,0.9
2024-10-17T1600,1844A,112.2494,30.3197,荆州市,市图书馆,,25,,55,17,37,62,,40,40,10,32,9,10,0.9,1.1
2024-10-17T1600,1845A,112.2008,30.3544,荆州市,市委党校,,30,,61,21,42,61,,40,40,16,36,5,6,0.6,0.9
2024-10-17T1600,3194A,112.2747,30.3122,荆州市,管委会,,40,,65,28,44,63,,41,41,11,35,8,8,0.7,1
2024-10-17T1600,3548A,112.1655,30.3364,荆州市,学苑路,,25,25,55,11,59,64,,47,44,16,29,7,9,0.9,1
2024-10-17T1600,2342A,117.3102,29.3867,景德镇市,王港中学,,,,,,,,,,,,,,,,
2024-10-17T1600,2343A,117.2117,29.2933,景德镇市,老干部活动中心,,,,11,11,6,66,,52,52,5,9,6,7,0.2,0.3
2024-10-17T1600,2344A,117.1894,29.2789,景德镇市,兽医站,,26,21,15,12,4,83,,63,63,8,8,8,6,0.5,0.4
2024-10-17T1600,2345A,117.1547,29.2617,景德镇市,台达陶瓷,颗粒物(PM10),51,52,16,30,12,73,,48,48,14,12,42,18,0.6,0.5
2024-10-17T1600,2346A,117.2461,29.2956,景德镇市,陶研所,,26,15,12,6,5,82,,62,62,4,11,6,6,0.3,0.3
2024-10-17T1600,1803A,115.9872,29.6815,九江市,十里,,30,30,30,18,14,64,,45,45,11,12,8,8,0.6,0.7
2024-10-17T1600,1804A,115.9584,29.7046,九江市,茅山头,,33,33,25,14,18,60,,40,39,20,18,10,8,0.8,0.8
2024-10-17T1600,1805A,115.9877,29.7295,九江市,西园,,32,32,28,12,20,67,,50,45,16,15,7,7,0.6,0.7
2024-10-17T1600,1806A,116.0172,29.6547,九江市,五七二七厂,,22,,18,13,16,69,,48,48,11,15,7,8,0.6,0.8
2024-10-17T1600,1808A,115.9114,29.6038,九江市,综合工业园,,28,21,23,19,20,60,,46,46,30,24,6,7,0.8,0.9
2024-10-17T1600,1809A,116.0721,29.7535,九江市,石化总厂,,22,22,35,15,22,62,,44,44,13,18,10,9,0.8,0.8
2024-10-17T1600,1810A,115.9773,29.5698,九江市,庐山气象台,,24,17,6,11,8,75,,94,88,2,3,6,10,0.4,0.6
2024-10-17T1600,3190A,116.0254,29.6994,九江市,外国语学校,,34,34,29,14,17,65,,38,38,12,19,3,4,0.7,0.8
2024-10-17T1600,2658A,98.5061,39.7443,酒泉市,仓门街子站,颗粒物(PM10),58,66,86,18,29,116,,93,93,7,21,3,17,0.3,0.4
2024-10-17T1600,2659A,98.4989,39.7256,酒泉市,油田生活基地,颗粒物(PM10),67,83,88,31,32,113,,86,86,6,17,4,17,0.4,0.4
2024-10-17T1600,2698A,76.0072,39.4467,喀什地区,巡警大队,,38,38,91,12,12,78,,48,48,26,28,4,4,0.4,0.5
2024-10-17T1600,2699A,75.9755,39.4694,喀什地区,吾办,,32,32,85,3,20,84,,45,45,13,29,3,2,0.2,0.5
2024-10-17T1600,4027A,75.9483,39.4689,喀什地区,老干局,,35,35,106,3,10,92,,53,53,10,28,1,1,0.3,0.4
2024-10-17T1600,1824A,114.3389,34.7781,开封市,肿瘤医院,,42,,109,29,76,55,,60,60,18,29,2,3,0.5,0.6
2024-10-17T1600,1826A,114.2885,34.7965,开封市,世纪星幼儿园,,24,24,89,10,39,57,,60,60,15,28,3,2,0.5,0.6
2024-10-17T1600,3147A,114.3438,34.8106,开封市,龙亭公园,,16,10,93,10,87,51,,59,59,19,33,1,3,0.7,0.9
2024-10-17T1600,3210A,114.3644,34.7964,开封市,汴京公园,,35,35,100,12,66,54,,59,59,14,28,1,3,0.5,0.6
2024-10-17T1600,3473A,114.2485,34.8306,开封市,技师学院,,,29,90,,41,64,,68,,15,24,3,2,0.6,0.7
2024-10-17T1600,3592A,114.4644,34.7556,开封市,祥符区生态环境局,,13,11,80,7,39,38,,51,51,25,43,3,2,0.7,0.7
2024-10-17T1600,1951A,84.895,45.6094,克拉玛依市,长征新村,,20,20,14,6,5,29,,18,18,13,14,6,6,0.3,0.3
2024-10-17T1600,1952A,84.8988,45.5893,克拉玛依市,南林小区,,18,18,14,10,11,30,,21,20,15,15,5,4,0.3,0.2
2024-10-17T1600,1954A,84.905,44.3396,克拉玛依市,独山子区,,20,6,18,3,10,61,,68,65,6,12,7,8,0.2,0.2
2024-10-17T1600,1955A,85.6979,46.098,克拉玛依市,乌尔禾区商贸楼,,22,,17,9,7,70,,59,59,3,9,2,2,0.1,0.2
2024-10-17T1600,3612A,85.1045,45.6899,克拉玛依市,白碱滩区新站,,24,24,20,9,8,42,,26,26,13,20,7,8,0.2,0.4
2024-10-17T1600,2697A,76.1454,39.7142,克孜勒苏柯尔克孜自治州,市人民政府,,34,14,41,7,10,108,,101,100,2,5,4,7,0.4,0.3
2024-10-17T1600,3665A,76.1658,39.7157,克孜勒苏柯尔克孜自治州,克州文化中心,,,8,33,6,9,,,104,102,2,3,6,10,0.3,0.3
2024-10-17T1600,1450A,102.8204,24.8886,昆明市,呈贡新区,,25,16,16,3,7,80,,64,64,5,11,5,5,0.5,0.6
2024-10-17T1600,1451A,102.6251,24.9608,昆明市,西山森林公园,,,,,,,,,,,,,,,,
2024-10-17T1600,1452A,102.7252,25.0902,昆明市,龙泉镇,,22,,17,6,7,70,,53,53,9,24,10,7,0.6,0.8
2024-10-17T1600,1453A,102.7266,25.0375,昆明市,东风东路,,25,12,17,10,12,80,,60,60,8,17,16,9,0.4,0.5
2024-10-17T1600,1454A,102.6742,25.0669,昆明市,金鼎山,,32,32,20,3,11,74,,56,56,11,20,11,7,0.4,0.5
2024-10-17T1600,1455A,102.6644,25.0401,昆明市,碧鸡广场,,25,9,18,8,13,80,,60,60,8,19,16,10,0.2,0.3
2024-10-17T1600,3179A,102.7494,25.0119,昆明市,官渡区博物馆,,28,,14,10,9,87,,66,66,8,16,12,7,0.4,0.4
2024-10-17T1600,3375A,102.8017,24.8336,昆明市,青年创业园,,25,9,8,6,6,80,,66,66,3,11,4,5,0.5,0.6
2024-10-17T1600,3550A,102.7997,24.9786,昆明市,昆明学院,,27,10,13,3,8,86,,66,66,6,17,6,6,0.4,0.5
2024-10-17T1600,3551A,102.5967,24.6736,昆明市,晋宁区生态环境分局,,25,12,16,3,10,78,,65,65,3,8,2,2,0.5,0.7
2024-10-17T1600,3552A,102.6678,24.9856,昆明市,云天化总部,,28,10,15,3,10,88,,70,70,6,17,13,7,0.4,0.4
2024-10-17T1600,1456A,91.1319,29.6514,拉萨市,八廓街,,36,,18,11,12,114,,90,90,6,13,6,13,0.1,0.2
2024-10-17T1600,1457A,91.1221,29.6747,拉萨市,市环保局,,33,11,24,6,11,105,,84,84,16,19,6,9,0.3,0.4
2024-10-17T1600,1458A,91.0874,29.6475,拉萨市,区监测站,,34,8,15,3,11,108,,82,82,6,20,5,12,0.4,0.4
2024-10-17T1600,1459A,91.1774,29.6541,拉萨市,西藏大学,,35,10,11,6,6,112,,87,87,4,9,5,12,0.5,0.4
2024-10-17T1600,1460A,90.9798,29.6588,拉萨市,区辐射站,,33,8,28,3,13,103,,72,72,13,31,8,10,0.2,0.3
2024-10-17T1600,1461A,91.0834,29.6292,拉萨市,拉萨火车站,,33,9,14,6,8,105,,72,72,5,19,6,7,0.1,0.4
2024-10-17T1600,2520A,109.2203,23.7256,来宾市,来宾技工学校,,31,30,38,16,25,99,,76,76,7,13,10,7,0.7,0.9
2024-10-17T1600,3535A,109.1781,23.7297,来宾市,兴宾区政府,,30,29,31,19,20,94,,72,72,5,10,7,8,0.6,0.8
2024-10-17T1600,4002A,109.2416,23.7461,来宾市,中南小学,,33,28,38,23,27,96,,73,73,5,12,6,6,0.6,0.8
2024-10-17T1600,1476A,103.631,36.1031,兰州市,兰炼宾馆,臭氧1小时,63,47,54,36,32,170,,94,94,19,45,13,11,0.5,0.6
2024-10-17T1600,1477A,104.1373,35.9454,兰州市,榆中兰大校区,,,,,,,,,,,,,,,,
2024-10-17T1600,1478A,103.8412,36.0726,兰州市,生物制品所,,42,35,44,29,31,119,,53,53,27,43,13,11,0.4,0.7
2024-10-17T1600,1479A,103.831,36.0464,兰州市,铁路设计院,,46,45,51,32,32,115,,47,47,40,55,11,10,0.5,0.9
2024-10-17T1600,3186A,103.7158,36.1058,兰州市,教育港,,48,45,52,33,32,152,,82,82,15,37,12,8,0.5,0.6
2024-10-17T1600,3241A,103.7439,36.0842,兰州市,百合公园,,49,32,38,22,23,156,,86,86,22,35,14,7,0.5,0.8
2024-10-17T1600,3242A,103.9611,35.998,兰州市,和平,,36,36,41,16,22,106,,61,61,28,33,14,13,0.5,0.6
2024-10-17T1600,3245A,103.6633,36.533,兰州新区,新区管委会,,32,29,35,18,24,100,,62,62,10,26,8,9,0.3,0.6
2024-10-17T1600,3246A,103.6975,36.4789,兰州新区,舟曲中学,,33,13,41,11,22,104,,62,62,11,30,10,11,0.2,0.4
2024-10-17T1600,1067A,116.6708,39.5111,廊坊市,药材公司,颗粒物(PM10),66,82,74,44,39,33,,23,23,46,56,9,6,1.1,0.8
2024-10-17T1600,1068A,116.7214,39.5589,廊坊市,开发区,颗粒物(PM10),74,98,71,40,31,35,,28,28,42,47,7,4,1.0,0.8
2024-10-17T1600,1070A,116.7244,39.5269,廊坊市,北华航天学院,,,80,76,52,36,35,,24,24,42,53,6,5,,0.7
2024-10-17T1600,2919A,116.7022,39.5453,廊坊市,河北工业大学,颗粒物(PM10),68,85,73,44,35,35,,28,28,45,55,9,6,1.0,0.7
2024-10-17T1600,2535A,103.7723,29.5462,乐山市,花湖湾,,36,11,28,8,22,114,,83,83,7,18,4,4,0.7,0.8
2024-10-17T1600,2536A,103.7627,29.5844,乐山市,牛耳桥,,33,15,33,10,26,105,,80,80,16,23,4,5,0.5,0.6
2024-10-17T1600,2537A,103.7508,29.6006,乐山市,市第三水厂,,39,15,34,9,27,122,,89,89,10,22,4,5,0.6,0.7
2024-10-17T1600,2538A,103.7571,29.5664,乐山市,市监测站,,35,17,38,11,17,110,,83,83,7,17,4,5,0.6,0.7
2024-10-17T1600,3361A,103.7311,29.5628,乐山市,理工大学,,38,18,33,16,28,119,,86,86,7,19,3,4,0.6,0.6
2024-10-17T1600,2598A,100.2143,26.8576,丽江市,西南郊,,24,6,12,3,8,75,,68,68,2,7,6,6,0.6,0.7
2024-10-17T1600,2599A,100.2497,26.8802,丽江市,丽江古城,,20,14,16,8,8,63,,58,58,8,11,10,9,0.4,0.5
2024-10-17T1600,2600A,100.2203,26.8906,丽江市,市中心,,22,6,9,3,6,69,,62,62,6,10,6,6,0.5,0.5
2024-10-17T1600,1267A,119.914,28.4514,丽水市,监测站大楼,,24,24,28,13,13,68,,64,64,4,16,2,3,0.4,0.6
2024-10-17T1600,1268A,119.93,28.4586,丽水市,莲都小学,,33,33,27,12,20,70,,65,65,6,17,4,4,0.3,0.5
2024-10-17T1600,1269A,119.879,28.4231,丽水市,余庄前,,,21,28,15,16,70,,69,69,5,13,3,4,,0.6
2024-10-17T1600,1173A,119.176,34.5885,连云港市,市环境监测站,,33,17,31,3,12,103,,97,97,15,15,9,8,0.2,0.2
2024-10-17T1600,3000A,119.3581,34.6972,连云港市,德源药业,,30,12,33,3,12,95,,98,98,15,26,4,4,0.2,0.2
2024-10-17T1600,3007A,119.178,34.844,连云港市,新城一中,,31,27,34,3,7,97,,92,92,17,24,4,4,0.4,0.4
2024-10-17T1600,3008A,119.3608,34.7519,连云港市,胡沟管理处,,27,27,32,3,8,82,,86,86,25,26,8,8,0.5,0.5
2024-10-17T1600,3009A,119.1478,34.5911,连云港市,矿山设计院,,32,17,34,9,15,101,,94,94,12,15,9,7,0.5,0.4
2024-10-17T1600,3434A,119.2413,34.6539,连云港市,工贸学校,,48,48,25,6,10,106,,100,100,13,13,8,8,0.7,0.6
2024-10-17T1600,3664A,119.4172,34.7341,连云港市,连云街道,,35,13,14,3,6,110,,102,102,6,9,5,5,0.3,0.3
2024-10-17T1600,2571A,102.3431,27.8099,凉山彝族自治州,青龙寺,,29,9,13,6,6,92,,52,52,2,4,9,9,0.5,0.7
2024-10-17T1600,2572A,102.2721,27.8415,凉山彝族自治州,邛海宾馆,,29,20,26,10,12,92,,53,53,4,14,18,13,0.7,0.9
2024-10-17T1600,2573A,102.2625,27.898,凉山彝族自治州,西昌市政府,,29,13,14,9,10,92,,56,56,7,12,17,12,0.8,0.8
2024-10-17T1600,2574A,102.2685,27.8851,凉山彝族自治州,凉山州政府,,30,24,17,14,9,95,,58,58,7,15,15,10,0.5,0.7
2024-10-17T1600,2575A,102.237,27.8914,凉山彝族自治州,长安,,30,21,16,11,9,93,,56,56,8,17,18,14,0.8,1
2024-10-17T1600,2212A,123.2,41.1953,辽阳市,宏伟区,细颗粒物(PM2.5),62,65,49,44,29,98,,90,90,17,22,11,12,0.9,0.8
2024-10-17T1600,2213A,123.1683,41.2495,辽阳市,新华园,细颗粒物(PM2.5),69,58,74,50,40,81,,72,72,25,41,12,17,0.7,1
2024-10-17T1600,2214A,123.2354,41.2639,辽阳市,滨河路,细颗粒物(PM2.5),63,60,56,45,34,84,,80,80,26,34,13,16,0.8,0.9
2024-10-17T1600,2215A,123.149,41.2991,辽阳市,铁西工业园,颗粒物(PM10),63,75,71,32,36,70,,69,69,26,32,15,18,1.0,1.2
2024-10-17T1600,2227A,125.1358,42.8845,辽源市,环保局,,45,45,62,26,40,76,,49,49,19,36,7,11,0.9,1.1
2024-10-17T1600,3239A,125.0764,42.9078,辽源市,银鹰制药,颗粒物(PM10),76,102,67,24,42,70,,44,44,26,47,15,12,0.6,1
2024-10-17T1600,1625A,115.9848,36.4372,聊城市,区政府,,47,47,126,14,67,100,,104,104,15,28,7,9,0.5,0.7
2024-10-17T1600,2878A,116.0072,36.4343,聊城市,聊大东校,,36,36,123,16,68,104,,109,109,16,32,7,8,0.4,0.6
2024-10-17T1600,3200A,115.9819,36.4978,聊城市,监控中心,颗粒物(PM10),51,52,124,19,80,100,,107,107,22,43,8,9,0.7,0.9
2024-10-17T1600,3513A,116.0445,36.4361,聊城市,九州社区,,40,40,129,18,68,96,,107,107,14,33,5,7,0.5,0.7
2024-10-17T1600,4018A,116.0567,36.4608,聊城市,星美广场,,50,50,100,17,68,95,,104,104,8,33,8,9,0.6,0.8
2024-10-17T1600,2632A,94.3681,29.6376,林芝市,林芝监测站,,22,7,7,3,5,69,,49,49,2,6,6,6,0.2,0.2
2024-10-17T1600,2633A,94.3616,29.6616,林芝市,林芝人民医院,,23,11,10,3,5,73,,50,50,4,9,5,6,0.2,0.2
2024-10-17T1600,2603A,100.0781,23.8982,临沧市,市环保局,,25,23,19,6,13,78,,54,54,6,9,5,5,0.4,0.5
2024-10-17T1600,2604A,100.0894,23.8822,临沧市,市气象局,,26,16,18,15,12,82,,56,56,6,9,8,9,0.3,0.5
2024-10-17T1600,1733A,111.5531,36.0783,临汾市,临钢医院,,38,38,91,20,52,58,,46,46,14,24,4,4,0.7,0.7
2024-10-17T1600,1734A,111.5028,36.0714,临汾市,技工学校,,28,25,93,19,61,69,,60,60,16,35,6,5,0.6,0.8
2024-10-17T1600,1736A,111.5018,36.0855,临汾市,市委,,26,,86,18,55,78,,67,67,10,24,5,5,0.7,0.8
2024-10-17T1600,3018A,111.505,36.1014,临汾市,唐尧大酒店,,32,31,83,22,59,72,,64,62,15,26,4,4,0.7,0.8
2024-10-17T1600,3668A,111.5036,36.0414,临汾市,城南,,26,,100,18,56,72,,47,47,10,32,4,5,0.7,0.8
2024-10-17T1600,2667A,103.2069,35.5993,临夏回族自治州,环保局,,,34,41,16,15,80,,55,55,,24,,4,0.3,0.7
2024-10-17T1600,2668A,103.2417,35.6057,临夏回族自治州,建设大厦,,28,19,30,16,16,89,,59,59,3,16,3,3,0.2,0.5
2024-10-17T1600,1618A,118.3429,35.0532,临沂市,沂河小区,,29,17,75,12,36,91,,75,75,11,26,6,8,0.2,0.6
2024-10-17T1600,1619A,118.295,35.0583,临沂市,鲁南制药厂,,25,19,65,8,28,79,,72,72,28,26,5,8,0.4,0.7
2024-10-17T1600,1620A,118.2794,34.9976,临沂市,新光毛纺厂,,29,9,53,7,27,91,,74,74,17,27,4,6,0.5,0.7
2024-10-17T1600,1621A,118.3956,35.0888,临沂市,河东保险公司,,29,19,84,3,55,90,,75,75,16,40,3,4,0.3,0.8
2024-10-17T1600,3370A,118.3564,35.0215,临沂市,十里堡居委,,,7,65,3,44,93,,76,76,16,31,,6,0.5,0.8
2024-10-17T1600,3496A,118.3604,35.1084,临沂市,南坊新区,,30,14,77,3,44,95,,81,81,15,31,3,8,0.4,0.8
2024-10-17T1600,3860A,118.3920,35.0300,临沂市,皇山花园小区,,29,19,86,12,57,92,,77,77,17,39,7,9,0.6,1
2024-10-17T1600,1870A,109.4856,24.3895,柳州市,柳东小学,,30,23,26,16,17,93,,65,65,5,10,8,8,0.5,0.7
2024-10-17T1600,1871A,109.4157,24.3277,柳州市,环保监测站,,29,22,25,20,22,88,,67,67,7,13,8,8,0.7,0.9
2024-10-17T1600,1872A,109.389,24.341,柳州市,河西水厂,,26,20,38,11,24,83,,64,64,5,13,7,8,0.8,1.1
2024-10-17T1600,1873A,109.4311,24.2921,柳州市,市四中,,36,36,41,23,26,93,,69,69,6,16,6,7,0.9,1.2
2024-10-17T1600,1874A,109.4006,24.3631,柳州市,市九中,,28,28,35,3,21,88,,70,70,8,13,5,6,0.4,0.6
2024-10-17T1600,1875A,109.4958,24.3134,柳州市,古亭山,,32,32,34,18,21,94,,66,66,9,22,8,9,0.9,1
2024-10-17T1600,3402A,109.5422,24.3996,柳州市,市二中,,30,28,35,12,23,96,,64,64,9,21,9,9,0.7,0.9
2024-10-17T1600,2307A,116.5079,31.737,六安市,监测大楼,,22,21,16,11,15,68,,64,64,14,9,5,4,0.5,0.4
2024-10-17T1600,2308A,116.4738,31.7643,六安市,皖西学院,,22,19,23,8,13,69,,62,62,14,10,4,4,0.4,0.4
2024-10-17T1600,2309A,116.4996,31.7905,六安市,朝阳厂,,20,18,13,7,11,63,,62,62,19,10,2,1,0.6,0.6
2024-10-17T1600,2310A,116.5567,31.7886,六安市,开发区,,24,15,20,3,12,74,,70,70,13,10,5,4,0.5,0.5
2024-10-17T1600,2576A,104.8,26.5892,六盘水市,窑上,,33,33,28,14,17,65,,56,56,4,8,6,5,0.5,0.5
2024-10-17T1600,2577A,104.83,26.5917,六盘水市,黄土坡,,25,20,15,11,10,80,,54,54,13,18,11,11,0.5,0.7
2024-10-17T1600,2578A,104.89,26.5939,六盘水市,水钢,,31,31,21,16,10,88,,65,65,5,7,6,5,0.2,0.3
2024-10-17T1600,2579A,104.8475,26.5894,六盘水市,民中,,24,17,13,14,9,75,,54,54,16,16,9,8,0.4,0.6
2024-10-17T1600,2580A,104.9544,26.5506,六盘水市,双水,,26,22,9,13,6,82,,63,63,4,5,7,6,0.4,0.4
2024-10-17T1600,2335A,117.0189,25.1181,龙岩市,龙岩师专,,,,,,,,,,,,,,,,
2024-10-17T1600,2336A,117.0217,25.1033,龙岩市,龙岩市监测站,,36,29,24,14,13,114,,88,88,9,19,2,4,0.4,0.5
2024-10-17T1600,2337A,117.0258,25.0661,龙岩市,闽西职业技术学院,,35,24,40,18,17,111,,85,85,6,20,2,6,0.3,0.4
2024-10-17T1600,2338A,117.0196,25.0306,龙岩市,龙岩学院,,30,26,27,13,16,95,,84,84,6,16,3,6,0.3,0.3
2024-10-17T1600,2665A,105.0822,33.3261,陇南市,汉王镇固水子,,,,,,,,,,,,,,,,
2024-10-17T1600,2885A,104.9339,33.3826,陇南市,滨江中学,,32,32,30,12,14,73,,60,60,6,12,4,4,0.5,0.6
2024-10-17T1600,3247A,104.955,33.371,陇南市,市总工会,,25,19,27,3,7,78,,64,64,4,12,4,4,0.5,0.5
2024-10-17T1600,2487A,111.9589,27.8901,娄底市,电视发射台,,23,23,36,8,24,31,,38,35,14,8,6,6,1.1,0.8
2024-10-17T1600,2488A,111.9975,27.725,娄底市,市监测站,细颗粒物(PM2.5),57,48,58,40,40,49,,50,41,9,11,7,8,0.8,0.8
2024-10-17T1600,2489A,112.0194,27.7314,娄底市,市委党校,,49,39,47,34,37,45,,42,36,11,11,8,9,0.7,0.7
2024-10-17T1600,2490A,111.9561,27.7569,娄底市,涟钢,,50,50,45,32,34,25,,41,35,22,16,13,9,0.6,0.3
2024-10-17T1600,2491A,111.9892,27.7044,娄底市,市政府,,38,32,40,26,32,46,,39,39,11,10,6,5,0.6,0.6
2024-10-17T1600,1893A,105.4324,28.9634,泸州市,九狮山,,18,9,59,8,40,55,,48,44,22,19,5,5,1.2,0.5
2024-10-17T1600,1894A,105.4427,28.9063,泸州市,小市上码头,,30,12,64,3,41,94,,70,70,12,16,5,5,0.5,0.6
2024-10-17T1600,1895A,105.4241,28.8573,泸州市,兰田宪桥,,32,8,41,3,39,102,,78,78,8,13,4,4,0.6,0.7
2024-10-17T1600,1896A,105.4379,28.8833,泸州市,市环监站,,29,8,51,7,44,90,,69,67,8,16,4,4,0.5,0.6
2024-10-17T1600,3490A,105.3617,28.7703,泸州市,纳溪区环保局,,35,14,46,6,36,110,,75,75,7,21,7,7,0.5,0.7
2024-10-17T1600,2183A,111.1406,37.5211,吕梁市,环保局,,46,,90,32,60,55,,77,57,23,29,3,3,0.8,0.7
2024-10-17T1600,2185A,111.1297,37.5136,吕梁市,自来水公司,,45,,76,31,62,59,,66,53,25,29,2,2,0.8,0.7
2024-10-17T1600,2867A,111.1283,37.51,吕梁市,马茂庄小学,细颗粒物(PM2.5),60,,88,43,59,55,,79,56,29,29,2,2,0.8,0.6
2024-10-17T1600,1812A,112.3931,34.6516,洛阳市,市委党校,细颗粒物(PM2.5),90,84,135,67,98,53,,47,29,24,30,1,3,0.7,0.7
2024-10-17T1600,1814A,112.4657,34.6871,洛阳市,豫西宾馆,细颗粒物(PM2.5),79,68,116,58,86,64,,40,33,21,28,3,3,0.4,0.5
2024-10-17T1600,1815A,112.494,34.6886,洛阳市,河南林校,细颗粒物(PM2.5),78,73,131,57,103,53,,38,28,20,30,2,4,0.6,0.7
2024-10-17T1600,1816A,112.3844,34.623,洛阳市,开发区管委会,细颗粒物(PM2.5),88,78,142,65,105,64,,50,37,14,22,2,3,0.8,1
2024-10-17T1600,1817A,112.4267,34.6258,洛阳市,市委新办公区,细颗粒物(PM2.5),94,82,150,70,100,54,,46,29,19,28,2,2,0.6,0.6
2024-10-17T1600,3340A,112.6005,34.6326,洛阳市,伊滨,颗粒物(PM10),105,159,94,42,84,61,,38,38,16,29,3,4,0.6,0.9
2024-10-17T1600,3341A,112.4951,34.6332,洛阳市,中移产业园,细颗粒物(PM2.5),70,64,123,51,92,62,,43,36,17,31,2,4,0.7,0.8
2024-10-17T1600,3593A,112.5736,34.8993,洛阳市,吉利监测站,细颗粒物(PM2.5),119,92,131,90,92,53,,54,40,21,23,3,3,0.5,0.6
2024-10-17T1600,3635A,112.3677,34.662,洛阳市,河科大西苑校区,颗粒物(PM10),59,67,133,41,66,55,,52,33,27,32,3,5,0.6,0.7
2024-10-17T1600,3636A,112.4388,34.6781,洛阳市,英才小学,细颗粒物(PM2.5),99,76,140,74,101,51,,42,28,24,32,2,3,0.5,0.6
2024-10-17T1600,2399A,114.051,33.5699,漯河市,三五一五工厂,,36,,86,25,49,39,,47,47,20,23,5,7,0.6,0.6
2024-10-17T1600,2400A,114.0055,33.5698,漯河市,漯河大学,,33,33,82,22,57,43,,50,50,16,22,4,6,0.5,0.5
2024-10-17T1600,2401A,114.0138,33.5828,漯河市,市水利局,,28,,89,19,56,43,,49,49,8,12,4,6,0.5,0.6
2024-10-17T1600,2402A,114.0261,33.5698,漯河市,市广电局,,36,,82,25,50,42,,48,48,16,19,2,5,0.6,0.7
2024-10-17T1600,3478A,113.9749,33.5664,漯河市,市图书馆,,32,23,86,22,54,44,,52,52,16,19,3,4,0.7,0.6
2024-10-17T1600,3479A,114.0967,33.5906,漯河市,召陵区卫健委,颗粒物(PM10),52,53,104,28,70,41,,46,46,15,28,5,8,0.4,0.4
2024-10-17T1600,1798A,118.5092,31.6837,马鞍山市,湖东路四小,,46,46,35,17,19,96,,82,82,12,23,5,7,0.7,0.8
2024-10-17T1600,1799A,118.5024,31.6449,马鞍山市,开发区,,35,35,35,16,18,97,,82,82,16,19,7,6,0.8,0.7
2024-10-17T1600,1800A,118.5228,31.7231,马鞍山市,慈湖,,37,37,44,18,21,89,,78,78,16,13,9,9,0.8,0.8
2024-10-17T1600,1802A,118.6245,31.7241,马鞍山市,濮塘,,34,32,37,22,27,106,,85,85,20,22,6,6,0.6,0.7
2024-10-17T1600,3633A,118.4918,31.6809,马鞍山市,雨山,,42,42,31,15,17,96,,81,81,11,13,4,4,0.9,0.8
2024-10-17T1600,1686A,111.0286,21.4688,茂名市,电白南海,,,34,32,,14,72,,74,74,10,12,9,11,0.5,0.5
2024-10-17T1600,1687A,110.9294,21.6533,茂名市,茂石化七小,,29,29,34,9,14,70,,71,71,4,8,7,9,0.6,0.7
2024-10-17T1600,1688A,110.9107,21.6687,茂名市,健康路,,,22,26,14,12,76,,80,80,,6,9,11,0.5,0.6
2024-10-17T1600,1689A,110.8592,21.6828,茂名市,高岭,,44,44,40,9,16,70,,77,77,8,11,9,14,0.5,0.6
2024-10-17T1600,3450A,111.01,21.5165,茂名市,电白水东,,27,27,28,17,13,68,,70,70,6,8,6,8,0.6,0.6
2024-10-17T1600,2539A,104.0308,30.0478,眉山市,黑龙滩水库,,39,19,42,8,29,124,,90,90,3,11,5,5,0.0,0.1
2024-10-17T1600,2540A,103.8416,30.0874,眉山市,气象局,,35,8,24,3,19,111,,88,88,10,18,6,6,0.4,0.5
2024-10-17T1600,3137A,103.8578,30.0744,眉山市,市委党校,,34,9,26,3,15,107,,85,85,8,19,8,8,0.4,0.5
2024-10-17T1600,3148A,103.8291,30.0564,眉山市,区人社局,,34,29,31,3,14,106,,84,84,17,23,10,10,0.6,0.7
2024-10-17T1600,1690A,116.1231,24.3284,梅州市,梅江月梅,,26,26,32,14,18,83,,83,83,2,14,7,7,0.5,0.5
2024-10-17T1600,1691A,116.0797,24.2719,梅州市,梅县新城,,29,18,34,7,20,91,,88,88,5,19,4,5,0.5,0.5
2024-10-17T1600,1692A,116.1248,24.2654,梅州市,环境监控中心,,26,20,37,9,17,83,,80,80,8,27,5,6,0.5,0.6
2024-10-17T1600,3315A,116.1233,24.2991,梅州市,梅龙,,26,22,29,12,18,83,,83,83,5,12,9,10,0.6,0.7
2024-10-17T1600,1878A,104.7778,31.4741,绵阳市,富乐山,,27,22,27,11,21,86,,61,61,10,14,3,2,0.5,0.6
2024-10-17T1600,1879A,104.7563,31.4535,绵阳市,市人大,,30,29,33,19,21,93,,65,65,11,23,12,11,0.6,0.7
2024-10-17T1600,1880A,104.6697,31.4668,绵阳市,高新区自来水公司,,39,32,37,27,25,104,,65,65,9,21,3,3,0.6,0.7
2024-10-17T1600,1881A,104.7287,31.5075,绵阳市,三水厂,,33,28,34,20,28,105,,69,69,10,25,6,7,0.6,0.7
2024-10-17T1600,3491A,104.69,31.5322,绵阳市,西科大附属小学,,30,27,32,12,19,95,,65,65,12,20,2,2,0.6,0.7
2024-10-17T1600,3492A,104.5648,31.5343,绵阳市,安州区旅游局,,34,,27,22,23,106,,72,72,15,16,8,8,0.6,0.6
2024-10-17T1600,1784A,129.61,44.561,牡丹江市,环保大楼,,43,43,39,23,21,92,,72,72,26,30,9,9,0.4,0.5
2024-10-17T1600,1785A,129.6115,44.5782,牡丹江市,文化广场,,47,47,59,27,28,88,,66,66,28,36,10,10,0.5,0.6
2024-10-17T1600,1786A,129.5904,44.5963,牡丹江市,第一医院,,48,39,49,33,34,95,,70,70,16,31,8,10,0.3,0.5
2024-10-17T1600,1787A,129.6364,44.6075,牡丹江市,机车工厂,,37,37,53,21,24,89,,72,72,19,28,9,50,0.4,0.4
2024-10-17T1600,1788A,129.6386,44.5462,牡丹江市,第一中学,,45,45,35,29,17,104,,76,76,20,24,9,7,0.4,0.3
2024-10-17T1600,2531A,105.0703,29.61,内江市,市监测站,,29,,29,12,26,92,,75,71,18,16,7,6,0.5,0.6
2024-10-17T1600,2532A,105.0717,29.5947,内江市,东兴区政府,,30,9,26,3,22,96,,77,72,9,15,7,7,0.6,0.7
2024-10-17T1600,2533A,105.0653,29.5817,内江市,内江二中,,30,14,35,8,30,96,,71,68,11,20,5,5,0.5,0.6
2024-10-17T1600,2534A,105.0406,29.5822,内江市,内江日报社,,29,7,31,7,26,92,,73,69,18,21,8,9,0.5,0.6
2024-10-17T1600,2628A,92.0657,31.4846,那曲市,那曲监测站,,48,48,37,9,14,97,,84,84,5,15,4,7,0.3,0.5
2024-10-17T1600,3128A,92.0506,31.4797,那曲市,那曲会议中心,颗粒物(PM10),53,55,58,8,15,98,,80,80,3,14,2,4,0.3,0.5
2024-10-17T1600,1290A,115.8931,28.6843,南昌市,省外办,,49,47,28,34,17,88,,51,51,18,19,9,9,0.8,0.8
2024-10-17T1600,1291A,115.8886,28.7003,南昌市,省林业公司,,49,48,26,34,16,72,,46,46,26,19,6,7,1.0,0.8
2024-10-17T1600,1292A,115.8126,28.7442,南昌市,林科所,,39,39,20,22,12,95,,49,49,17,24,8,8,1.0,0.8
2024-10-17T1600,1294A,115.8518,28.687,南昌市,建工学校,颗粒物(PM10),51,52,28,22,15,93,,54,54,15,20,8,9,0.6,0.6
2024-10-17T1600,1295A,115.8921,28.6424,南昌市,象湖,,38,38,21,26,13,101,,63,63,15,18,9,8,0.6,0.6
2024-10-17T1600,1296A,115.7423,28.7996,南昌市,武术学校,,43,32,15,30,20,33,,30,30,10,9,2,2,0.7,0.7
2024-10-17T1600,1298A,115.9314,28.6842,南昌市,省站,,45,45,24,31,16,75,,52,52,21,22,9,8,0.8,0.8
2024-10-17T1600,3046A,115.9084,28.6062,南昌市,机电学校,颗粒物(PM10),54,58,32,34,15,90,,57,57,17,19,8,7,0.5,0.4
2024-10-17T1600,3690A,115.9721,28.7031,南昌市,外国语学校,,46,46,23,16,9,87,,56,56,13,12,6,6,0.7,0.6
2024-10-17T1600,1905A,106.056,30.8064,南充市,西山风景区,,26,,28,18,26,80,,65,65,9,8,1,2,0.6,0.7
2024-10-17T1600,1906A,106.0789,30.8023,南充市,南充市委,,27,22,40,17,30,84,,68,68,11,14,2,3,0.5,0.5
2024-10-17T1600,1907A,106.1031,30.8217,南充市,南充炼油厂,,27,21,47,18,30,85,,68,68,9,12,2,3,0.4,0.6
2024-10-17T1600,1908A,106.1064,30.7856,南充市,高坪区监测站,,,,43,,32,87,,67,67,,10,5,6,,0.5
2024-10-17T1600,1909A,106.0642,30.7636,南充市,嘉陵区环保局,,27,17,40,14,26,85,,65,65,10,17,2,2,0.4,0.5
2024-10-17T1600,1910A,106.1087,30.8388,南充市,市环境监测站,,30,26,44,21,31,83,,68,68,9,11,2,2,0.3,0.4
2024-10-17T1600,1151A,118.8086,32.1065,南京市,迈皋桥,,38,38,37,19,22,105,,88,88,13,18,4,4,0.4,0.4
2024-10-17T1600,1152A,118.7538,32.0551,南京市,草场门,,36,36,33,24,23,94,,82,82,19,19,4,4,0.6,0.6
2024-10-17T1600,1153A,118.7794,32.0745,南京市,山西路,,41,41,40,27,25,103,,87,87,10,14,5,4,0.5,0.5
2024-10-17T1600,1154A,118.7752,32.0023,南京市,中华门,,39,36,35,27,23,97,,85,85,12,16,5,5,0.4,0.5
2024-10-17T1600,1155A,118.8109,32.0309,南京市,瑞金路,,,,40,,26,98,,82,82,,25,6,6,0.6,0.5
2024-10-17T1600,1156A,118.7997,32.0754,南京市,玄武湖,,36,36,38,17,22,96,,82,82,20,31,5,5,0.6,0.7
2024-10-17T1600,1157A,118.6414,32.0931,南京市,浦口,,35,35,34,24,24,82,,74,74,17,20,4,4,0.6,0.7
2024-10-17T1600,1158A,118.7356,31.9996,南京市,奥体中心,,42,40,38,29,29,100,,86,86,18,18,5,6,0.4,0.4
2024-10-17T1600,1159A,118.9125,32.1028,南京市,仙林大学城,,44,44,41,22,21,111,,96,96,12,15,5,5,0.6,0.6
2024-10-17T1600,3422A,118.8436,31.9198,南京市,江宁彩虹桥,,41,41,38,19,23,103,,90,90,14,15,4,4,0.5,0.5
2024-10-17T1600,3423A,119.0138,31.6494,南京市,溧水永阳,,36,34,33,23,19,113,,95,95,16,19,4,4,0.5,0.5
2024-10-17T1600,3424A,118.879,31.3302,南京市,高淳老职中,,33,24,19,21,15,104,,87,87,13,19,5,5,0.5,0.5
2024-10-17T1600,3427A,118.8554,32.3578,南京市,六合雄州,,39,39,33,27,22,79,,69,69,38,18,5,4,0.8,0.6
2024-10-17T1600,1401A,108.3103,22.7881,南宁市,二十一中,,22,18,29,10,17,69,,60,60,8,15,2,2,0.6,0.8
2024-10-17T1600,1402A,108.3141,22.8528,南宁市,北湖,,29,29,38,15,21,66,,58,58,5,16,6,11,0.7,1.2
2024-10-17T1600,1403A,108.3206,22.8225,南宁市,市监测站,,34,34,33,16,22,62,,53,53,7,18,6,8,0.6,0.8
2024-10-17T1600,1404A,108.3829,22.8037,南宁市,大自然花园,,21,21,29,14,20,67,,58,58,8,14,5,6,0.4,0.6
2024-10-17T1600,1405A,108.4394,22.7904,南宁市,仙葫,,19,17,35,9,23,60,,53,53,6,14,6,6,0.6,0.8
2024-10-17T1600,1406A,108.2397,22.8467,南宁市,区农职院,,29,29,36,14,20,64,,52,52,9,16,6,9,0.6,0.7
2024-10-17T1600,1407A,108.3275,22.735,南宁市,英华嘉园,,21,18,32,10,18,66,,53,53,10,17,5,5,0.6,0.7
2024-10-17T1600,1408A,108.2257,22.7757,南宁市,沙井镇街道办,,23,20,36,16,20,67,,50,50,11,25,7,4,0.8,0.8
2024-10-17T1600,3401A,108.4834,22.7618,南宁市,红星社区,,21,16,30,11,25,65,,62,62,5,13,4,4,0.6,0.8
2024-10-17T1600,2331A,118.0966,26.6761,南平市,茫荡山,,,,,,,,,,,,,,,,
2024-10-17T1600,2332A,118.1681,26.6369,南平市,南平市监测站,,23,11,20,10,14,71,,69,69,1,12,2,4,0.2,0.5
2024-10-17T1600,2333A,118.1825,26.6489,南平市,南平铝业有限公司,,21,15,21,11,14,67,,67,67,3,15,2,5,0.3,0.5
2024-10-17T1600,2334A,118.1756,26.6272,南平市,南平七中,,23,21,20,9,14,73,,71,71,2,8,2,3,0.3,0.4
2024-10-17T1600,1168A,120.9098,31.9663,南通市,狼山街道,,34,34,30,14,16,101,,97,97,5,11,5,5,0.4,0.5
2024-10-17T1600,1169A,120.86,32.0005,南通市,虹桥,,31,25,28,12,16,98,,95,95,9,13,6,6,0.3,0.4
2024-10-17T1600,1170A,120.87,32.02,南通市,城中,,34,34,35,7,16,101,,97,97,15,22,6,6,0.4,0.6
2024-10-17T1600,1171A,120.94,31.93,南通市,星湖花园,,30,18,24,11,15,94,,90,90,9,18,5,6,0.5,0.7
2024-10-17T1600,1172A,120.81,32.0417,南通市,紫琅学院,,30,24,27,7,14,96,,92,92,9,16,2,7,0.5,0.6
2024-10-17T1600,3291A,121.067,32.062,南通市,通州监测站,,36,36,28,14,14,105,,100,100,6,7,2,2,0.8,0.7
2024-10-17T1600,3432A,120.9348,31.9883,南通市,环境教育馆,,34,34,30,7,14,99,,95,95,11,18,3,3,0.5,0.6
2024-10-17T1600,2404A,112.5224,33.0122,南阳市,瓦房庄,,49,,120,34,104,38,,64,42,19,22,3,5,0.7,0.9
2024-10-17T1600,2405A,112.5003,32.9735,南阳市,汉画馆,,48,36,108,33,91,40,,68,43,19,21,6,7,0.7,0.8
2024-10-17T1600,2406A,112.5573,33.027,南阳市,气象站,细颗粒物(PM2.5),52,,122,36,114,37,,59,39,20,24,3,4,0.8,1
2024-10-17T1600,2407A,112.5481,32.9689,南阳市,理工学院,,39,29,104,27,89,38,,57,39,20,24,3,4,0.7,0.8
2024-10-17T1600,4008A,112.5234,32.9922,南阳市,卧龙区政府,,,33,113,33,96,,,66,42,23,23,3,5,0.7,0.9
2024-10-17T1600,1234A,121.8358,29.911,宁波市,区环保大楼,,28,28,30,13,12,76,,72,72,22,39,7,7,0.7,0.8
2024-10-17T1600,1235A,121.56,29.82,宁波市,万里学院,,32,28,29,13,16,100,,73,73,11,32,6,7,0.7,0.7
2024-10-17T1600,1236A,121.713,29.9572,宁波市,龙赛医院,,35,35,37,13,11,75,,74,74,30,31,14,11,0.7,0.7
2024-10-17T1600,1239A,121.633,29.7733,宁波市,钱湖水厂,,30,18,32,8,15,93,,77,77,7,27,8,9,0.6,0.7
2024-10-17T1600,1240A,121.5856,29.8635,宁波市,太古小学,,40,40,29,22,12,59,,64,64,36,32,8,8,0.9,0.9
2024-10-17T1600,1241A,121.524,29.8674,宁波市,市环境监测中心,,32,32,25,15,10,67,,74,74,33,28,7,8,0.8,0.7
2024-10-17T1600,2871A,121.6147,29.9017,宁波市,万里国际学校,,34,34,34,15,12,82,,81,81,18,34,7,9,0.7,0.7
2024-10-17T1600,3710A,121.5594,29.8975,宁波市,白沙活动中心,,35,35,35,14,10,66,,79,79,30,28,8,9,0.6,0.6
2024-10-17T1600,2339A,119.5001,26.6946,宁德市,金涵水库,,,,,,,,,,,,,,,,
2024-10-17T1600,2341A,119.5388,26.6612,宁德市,宁德市监测站,,40,40,31,24,21,91,,76,76,9,12,3,3,0.4,0.5
2024-10-17T1600,3209A,119.5231,26.6562,宁德市,宁德一中,,43,43,34,24,21,93,,81,81,8,10,3,3,0.4,0.5
2024-10-17T1600,2618A,98.8601,25.8567,怒江傈僳族自治州,州监测站,,20,19,22,12,15,63,,39,39,9,12,5,5,0.3,0.3
2024-10-17T1600,2619A,98.8546,25.8417,怒江傈僳族自治州,泸水一中,,17,16,19,3,9,53,,36,36,12,14,6,6,0.3,0.5
2024-10-17T1600,1888A,101.6891,26.571,攀枝花市,弄弄坪,,35,33,47,17,28,110,,54,54,13,25,18,21,1.1,1.3
2024-10-17T1600,1889A,101.5769,26.5928,攀枝花市,河门口,,32,31,29,20,18,102,,67,67,17,19,25,14,1.8,1.2
2024-10-17T1600,1890A,101.7169,26.585,攀枝花市,炳草岗,,37,25,48,12,33,116,,56,56,10,26,16,22,1.0,1.2
2024-10-17T1600,1891A,101.7369,26.5008,攀枝花市,仁和,,42,38,23,29,16,95,,58,58,12,16,20,9,0.4,0.6
2024-10-17T1600,2835A,101.7227,26.567,攀枝花市,四十中小,,39,39,43,24,26,102,,54,54,10,7,13,24,1.1,1.5
2024-10-17T1600,1604A,122.0303,41.1489,盘锦市,开发区,细颗粒物(PM2.5),63,,30,45,21,78,,73,73,23,22,12,6,0.4,0.5
2024-10-17T1600,1605A,122.0485,41.0883,盘锦市,兴隆台,细颗粒物(PM2.5),60,44,29,43,18,74,,60,60,37,33,7,7,0.5,0.5
2024-10-17T1600,1606A,121.8297,41.1028,盘锦市,新生街道,,38,34,23,26,13,76,,66,66,26,21,9,10,0.5,0.5
2024-10-17T1600,1832A,113.3257,33.742,平顶山市,新华旅馆,颗粒物(PM10),54,58,133,34,94,36,,40,40,23,38,6,7,0.4,0.6
2024-10-17T1600,1833A,113.2919,33.737,平顶山市,规划设计院,细颗粒物(PM2.5),64,62,145,46,94,42,,41,41,16,38,6,7,0.8,1
2024-10-17T1600,1834A,113.182,33.774,平顶山市,平顶山工学院,细颗粒物(PM2.5),58,61,140,41,89,42,,44,44,16,30,5,7,0.6,0.7
2024-10-17T1600,3204A,113.3025,33.73,平顶山市,规划局,细颗粒物(PM2.5),57,56,135,40,80,40,,42,42,23,40,4,6,0.7,0.8
2024-10-17T1600,3594A,112.8867,33.9116,平顶山市,石龙区,细颗粒物(PM2.5),68,61,125,49,90,50,,37,37,21,46,8,11,0.9,0.9
2024-10-17T1600,2656A,106.6692,35.5461,平凉市,聚贤嘉苑,,46,46,59,29,36,92,,77,77,17,24,9,8,0.5,0.5
2024-10-17T1600,2657A,106.7021,35.5307,平凉市,博物馆,颗粒物(PM10),57,63,71,28,43,92,,94,82,18,37,10,9,0.4,0.6
2024-10-17T1600,2347A,114.0997,27.5002,萍乡市,武功山,,20,,4,11,5,62,,57,57,4,5,12,11,0.5,0.6
2024-10-17T1600,2348A,113.8385,27.6434,萍乡市,中医院,,43,42,41,30,29,81,,57,57,12,11,16,27,1.1,0.9
2024-10-17T1600,2349A,113.8493,27.6253,萍乡市,市政府车库,细颗粒物(PM2.5),54,,27,38,24,80,,58,58,13,12,24,16,1.5,1.2
2024-10-17T1600,2350A,113.8676,27.6435,萍乡市,市环保局,,46,46,32,28,23,80,,58,58,8,7,17,20,0.8,0.6
2024-10-17T1600,2351A,113.866,27.6198,萍乡市,安源区政府,,42,42,29,27,20,83,,59,59,15,20,26,14,0.6,0.7
2024-10-17T1600,2319A,119.0141,25.4325,莆田市,荔城区仓后路,,42,41,34,29,16,81,,76,76,6,4,1,1,0.4,0.5
2024-10-17T1600,2320A,119.0015,25.4553,莆田市,莆田市监测站,,39,38,19,27,13,78,,77,76,5,3,1,1,0.5,0.6
2024-10-17T1600,2321A,119.1119,25.4561,莆田市,涵江区六中,,39,35,26,27,16,74,,82,80,3,2,1,1,0.4,0.4
2024-10-17T1600,2322A,119.1013,25.3215,莆田市,秀屿区政府,颗粒物(PM10),52,54,30,31,18,80,,82,82,6,7,2,2,0.5,0.5
2024-10-17T1600,2323A,118.981,25.4792,莆田市,东圳水库,,,,,,,,,,,,,,,,
2024-10-17T1600,2392A,115.0312,35.7636,濮阳市,环保局,颗粒物(PM10),56,62,86,25,75,78,,76,76,15,21,1,2,0.6,0.8
2024-10-17T1600,2394A,115.0574,35.7609,濮阳市,油田运输公司,,,,112,,74,75,,75,75,19,18,2,3,0.6,0.7
2024-10-17T1600,2395A,115.0866,35.7754,濮阳市,油田物探公司,,46,46,113,31,75,76,,76,76,16,25,1,2,0.5,0.7
2024-10-17T1600,3021A,115,35.7668,濮阳市,濮水河管理处,颗粒物(PM10),54,58,125,26,79,71,,69,69,11,20,1,2,0.6,0.8
2024-10-17T1600,2601A,100.98,22.7633,普洱市,市环保局,,23,23,20,11,10,69,,56,56,4,5,3,4,0.3,0.4
2024-10-17T1600,2602A,100.9817,22.8322,普洱市,普洱第二中学,,25,25,27,3,11,69,,58,58,4,9,5,6,0.4,0.5
2024-10-17T1600,2262A,131.0518,45.8751,七台河市,新一中,,31,24,26,6,13,97,,88,88,12,19,9,11,1.1,1.1
2024-10-17T1600,3345A,131.0577,45.7879,七台河市,中波台,,32,32,33,11,15,67,,67,67,20,28,7,8,0.4,0.8
2024-10-17T1600,3637A,131.0176,45.7761,七台河市,人民广场,,28,,36,19,21,78,,69,69,15,25,7,9,0.5,0.7
2024-10-17T1600,3684A,130.8781,45.8222,七台河市,新建矿广场,,41,41,98,14,22,77,,69,69,19,35,6,8,0.5,0.6
2024-10-17T1600,1779A,123.9305,47.3636,齐齐哈尔市,安居小区,,33,33,35,3,14,62,,60,60,20,23,10,10,0.2,0.3
2024-10-17T1600,1780A,123.9488,47.3386,齐齐哈尔市,中心广场,,19,16,27,3,16,60,,58,58,19,19,4,3,0.2,0.2
2024-10-17T1600,1781A,123.9483,47.3227,齐齐哈尔市,农牧车辆厂,,31,31,32,3,9,68,,60,60,10,16,4,5,0.2,0.2
2024-10-17T1600,1783A,123.945,47.2988,齐齐哈尔市,市环境监测站,,23,19,30,11,11,73,,65,65,8,15,8,9,0.2,0.3
2024-10-17T1600,3662A,123.6333,47.2075,齐齐哈尔市,富区青少年活动中心,,23,23,37,3,9,68,,64,64,9,18,5,7,0.3,0.4
2024-10-17T1600,2591A,107.9783,26.5747,黔东南苗族侗族自治州,市环境监测站,,18,18,25,11,16,54,,36,36,10,17,4,4,0.4,0.7
2024-10-17T1600,2881A,107.8908,26.5311,黔东南苗族侗族自治州,凯里学院,,19,14,9,9,14,58,,42,42,4,11,5,5,0.4,0.7
2024-10-17T1600,2593A,107.5228,26.2403,黔南布依族苗族自治州,小围寨,,21,,9,7,7,65,,55,55,5,9,4,4,0.5,0.6
2024-10-17T1600,3538A,107.5175,26.2978,黔南布依族苗族自治州,沙坝,,21,,11,3,7,65,,44,44,4,11,4,3,0.4,0.5
2024-10-17T1600,2589A,104.9022,25.0925,黔西南布依族苗族自治州,场坝街,,17,13,13,7,6,53,,46,45,4,6,3,2,0.4,0.4
2024-10-17T1600,2590A,104.8811,25.0992,黔西南布依族苗族自治州,坪东大道,,16,11,14,7,6,51,,43,43,3,5,1,2,0.2,0.3
2024-10-17T1600,2502A,108.6236,21.9667,钦州市,市环保站,,27,27,27,7,12,59,,56,56,13,15,7,7,0.6,0.7
2024-10-17T1600,2503A,108.6549,21.9481,钦州市,沙埠小学,,22,22,32,11,16,68,,58,58,7,16,5,6,0.7,0.7
2024-10-17T1600,2504A,108.5989,21.7431,钦州市,港区一小,,33,33,42,14,16,47,,51,51,27,30,8,7,0.8,0.6
2024-10-17T1600,3404A,108.5959,21.9633,钦州市,北职校,,,21,30,3,19,61,,55,55,8,15,,7,0.6,0.9
2024-10-17T1600,1042A,119.5134,39.8207,秦皇岛市,北戴河环保局,颗粒物(PM10),61,71,39,30,13,125,,89,89,10,19,2,3,0.6,0.6
2024-10-17T1600,1043A,119.7493,40.0116,秦皇岛市,第一关,颗粒物(PM10),63,76,51,37,23,136,,88,88,12,49,2,5,0.5,0.7
2024-10-17T1600,1044A,119.5897,39.9499,秦皇岛市,监测站,细颗粒物(PM2.5),68,69,50,49,29,122,,62,62,20,42,2,4,0.5,0.7
2024-10-17T1600,1046A,119.5251,39.9041,秦皇岛市,建设大厦,颗粒物(PM10),59,68,57,37,21,127,,67,67,15,39,3,3,0.5,0.6
2024-10-17T1600,3132A,119.610547,39.943889,秦皇岛市,文明里,颗粒物(PM10),68,85,61,38,20,124,,70,70,17,39,2,4,0.4,0.6
2024-10-17T1600,1307A,120.6659,36.2403,青岛市,仰口,,32,12,14,11,10,102,,89,89,1,3,6,6,0.5,0.5
2024-10-17T1600,1310A,120.4134,36.0658,青岛市,市南区东部子站,,35,17,16,3,6,112,,99,99,8,10,4,6,0.3,0.3
2024-10-17T1600,1311A,120.3664,36.1032,青岛市,四方区子站,,36,34,26,3,8,113,,102,102,19,39,9,9,0.3,0.4
2024-10-17T1600,1312A,120.2994,36.054,青岛市,市南区西部子站,,37,17,17,3,2,116,,101,101,5,10,9,9,0.4,0.5
2024-10-17T1600,1313A,120.4581,36.0858,青岛市,崂山区子站,,39,9,10,3,2,124,,107,107,10,15,8,8,0.5,0.5
2024-10-17T1600,1314A,120.1983,35.9608,青岛市,黄岛区子站,,37,12,20,3,8,116,,103,103,12,20,7,7,0.4,0.5
2024-10-17T1600,1315A,120.3999,36.3083,青岛市,城阳区子站,,34,27,47,3,17,106,,82,82,15,47,8,8,0.5,0.7
2024-10-17T1600,1966A,120.0405,35.8735,青岛市,黄岛区4号,,38,12,22,3,5,121,,107,107,9,25,6,6,0.4,0.5
2024-10-17T1600,3362A,120.5014,36.4034,青岛市,即墨2号,,35,10,19,3,8,110,,96,96,9,15,6,6,0.3,0.4
2024-10-17T1600,3642A,120.3503,36.0736,青岛市,市北区南部,,35,15,22,3,5,112,,98,98,16,25,8,8,0.5,0.6
2024-10-17T1600,3643A,120.3948,36.1805,青岛市,李沧区北部,,34,24,26,3,9,107,,91,91,21,32,9,9,0.6,0.6
2024-10-17T1600,1702A,113.0426,23.691,清远市,环保大楼,,41,16,33,12,28,130,,100,100,8,7,4,7,0.6,0.7
2024-10-17T1600,1703A,113.0208,23.7106,清远市,凤城街办,,43,23,36,14,26,136,,108,108,8,11,9,12,0.4,0.6
2024-10-17T1600,3025A,113.0477,23.6344,清远市,技师学院,,44,22,42,13,25,138,,102,102,10,19,6,8,0.6,0.8
2024-10-17T1600,3318A,112.9903,23.7403,清远市,清新太和,,43,21,37,12,25,136,,112,112,8,11,4,4,0.6,0.8
2024-10-17T1600,3455A,113.076,23.7198,清远市,清城东城,,39,22,37,11,26,123,,102,102,3,7,5,8,0.6,0.8
2024-10-17T1600,2661A,107.6325,35.7357,庆阳市,庆阳五中,,45,45,61,25,37,81,,97,82,13,12,6,6,0.5,0.5
2024-10-17T1600,2662A,107.6364,35.7067,庆阳市,市环保局,,,37,59,18,35,,,97,85,,13,,5,0.4,0.6
2024-10-17T1600,1916A,103.7897,25.5035,曲靖市,环境监测站,,32,,11,11,6,102,,78,78,8,12,6,4,0.6,0.6
2024-10-17T1600,1917A,103.8,25.5364,曲靖市,烟厂办公区,,30,,10,14,6,95,,73,73,5,8,3,4,0.3,0.5
2024-10-17T1600,3376A,103.7947,25.462,曲靖市,南苑二区,,31,16,8,3,6,98,,74,74,2,4,8,8,0.4,0.5
2024-10-17T1600,3377A,103.7444,25.5261,曲靖市,曲靖师范学院,,31,14,10,9,6,99,,77,77,5,8,6,6,0.4,0.5
2024-10-17T1600,1264A,118.8692,28.9398,衢州市,环保大楼,,44,24,24,15,16,139,,84,84,14,18,4,4,0.5,0.6
2024-10-17T1600,1265A,118.8709,28.9666,衢州市,实验学校,,42,22,21,12,16,133,,94,94,10,14,6,5,0.3,0.4
2024-10-17T1600,1266A,118.8621,28.9808,衢州市,衢州学院,,40,22,25,14,16,127,,90,90,12,18,5,5,0.3,0.3
2024-10-17T1600,1611A,118.5819,24.9117,泉州市,涂山街,,,43,28,28,18,104,,88,88,,10,2,3,,0.4
2024-10-17T1600,1612A,118.5972,24.8978,泉州市,津头埔,颗粒物(PM10),53,55,33,27,17,103,,87,87,12,11,1,2,0.5,0.4
2024-10-17T1600,1613A,118.6663,24.9424,泉州市,万安,,49,49,29,28,16,105,,95,95,8,9,2,2,0.6,0.4
2024-10-17T1600,1614A,118.6117,24.9604,泉州市,清源山,,,,,,,,,,,,,,,,
2024-10-17T1600,3529A,118.6333,24.9264,泉州市,城华南路,,50,50,31,26,16,103,,91,91,8,6,2,2,0.4,0.3
2024-10-17T1600,2626A,88.8876,29.2718,日喀则市,日喀则监测站,,36,13,29,3,9,115,,86,86,5,15,6,5,0.3,0.4
2024-10-17T1600,3726A,88.8781,29.2426,日喀则市,林业技术推广中心,,35,18,22,3,4,110,,84,84,4,8,7,7,0.3,0.3
2024-10-17T1600,1659A,119.471,35.4209,日照市,监测站,,33,14,31,6,15,104,,95,95,17,46,5,6,0.4,0.6
2024-10-17T1600,1660A,119.523,35.4216,日照市,市政府广场,,36,22,29,3,11,114,,106,106,11,29,5,5,0.3,0.5
2024-10-17T1600,1661A,119.5587,35.4044,日照市,港务局,,37,14,25,3,13,116,,108,108,7,18,4,4,0.4,0.5
2024-10-17T1600,3507A,119.5328,35.4625,日照市,职业技术学院,,35,12,21,3,9,112,,106,106,9,19,3,7,0.5,0.5
2024-10-17T1600,3604A,119.3266,35.1044,日照市,岚山环保分局,,29,24,32,7,10,92,,97,97,24,27,9,10,0.5,0.6
2024-10-17T1600,1835A,111.1922,34.7752,三门峡市,市政府,,26,22,88,18,45,67,,84,61,13,17,3,4,0.7,0.8
2024-10-17T1600,1836A,111.1587,34.7942,三门峡市,开发区,,,,123,,64,,,84,55,,14,5,2,0.5,0.6
2024-10-17T1600,1838A,111.143,34.7955,三门峡市,风景区,,19,,92,13,50,44,,85,42,15,18,8,9,0.7,0.8
2024-10-17T1600,3039A,111.1911,34.7829,三门峡市,三门峡市第一小学,,26,26,89,16,51,66,,83,56,13,15,4,3,0.5,0.7
2024-10-17T1600,3598A,111.1,34.7167,三门峡市,富达温泉假日酒店,,28,28,96,14,76,71,,82,54,8,14,3,4,0.3,0.5
2024-10-17T1600,2324A,117.6211,26.2625,三明市,三钢,,27,19,20,10,17,86,,78,78,2,8,2,2,0.1,0.2
2024-10-17T1600,2325A,117.635,26.2714,三明市,三明二中,,26,19,19,12,11,82,,74,74,1,8,2,2,0.3,0.4
2024-10-17T1600,2326A,117.6028,26.2378,三明市,三元区政府,,27,18,26,10,9,84,,76,76,5,17,3,4,0.3,0.5
2024-10-17T1600,2327A,117.7275,26.3108,三明市,洋溪,,,,,,,,,,,,,,,,
2024-10-17T1600,1876A,109.5078,18.2489,三亚市,河东子站,,16,12,11,3,5,49,,55,55,1,3,4,4,0.2,0.3
2024-10-17T1600,1877A,109.4964,18.2681,三亚市,河西子站,,15,14,11,3,5,48,,53,53,7,5,4,4,0.2,0.2
2024-10-17T1600,3540A,109.7348,18.3443,三亚市,君悦子站,,,8,14,6,5,53,,49,49,4,7,,3,0.2,0.4
2024-10-17T1600,2624A,91.7608,29.2313,山南市,山南监测站,,32,10,17,3,11,102,,79,79,2,7,3,5,0.3,0.3
2024-10-17T1600,2625A,91.7706,29.2436,山南市,山南人民医院,,,58,32,9,12,99,,76,76,9,11,8,9,,0.3
2024-10-17T1600,1674A,116.6794,23.3667,汕头市,金平子站,,41,41,25,15,12,112,,100,100,8,10,6,6,0.4,0.5
2024-10-17T1600,1675A,116.7244,23.3633,汕头市,龙湖子站,,31,29,25,14,12,98,,90,90,2,4,7,8,0.6,0.6
2024-10-17T1600,1676A,116.7258,23.2775,汕头市,濠江子站,,29,29,22,19,14,91,,90,90,4,5,6,6,0.5,0.5
2024-10-17T1600,1677A,116.7519,23.4714,汕头市,澄海子站,,36,32,28,14,14,115,,100,100,6,9,7,8,0.6,0.6
2024-10-17T1600,1678A,116.6092,23.2539,汕头市,潮阳子站,,38,38,26,10,10,102,,92,92,4,4,6,6,0.5,0.5
2024-10-17T1600,3444A,116.454,23.2684,汕头市,潮南峡山,,35,25,24,17,9,109,,96,96,6,9,6,7,0.6,0.6
2024-10-17T1600,3624A,116.4069,23.2533,汕头市,潮南子站,,44,44,33,12,12,107,,91,91,10,13,6,6,0.6,0.6
2024-10-17T1600,1693A,115.3653,22.775,汕尾市,市环保局,,33,30,24,14,18,105,,95,95,13,9,9,9,0.5,0.5
2024-10-17T1600,1694A,115.3706,22.7898,汕尾市,市政府,,31,31,30,14,12,96,,87,87,16,10,9,7,0.5,0.5
2024-10-17T1600,1695A,115.3622,22.7925,汕尾市,新城中学,,32,32,27,14,13,96,,86,86,14,8,11,10,0.4,0.4
2024-10-17T1600,2645A,109.9154,33.8715,商洛市,监测站,,22,,45,6,31,68,,91,74,20,23,6,6,0.8,0.8
2024-10-17T1600,3045A,109.9643,33.8471,商洛市,商州区中学,,18,,48,8,35,57,,74,56,27,33,3,3,0.7,0.8
2024-10-17T1600,2408A,115.6702,34.4285,商丘市,环境监测站,,,,102,7,56,61,,45,45,12,24,4,4,0.3,0.5
2024-10-17T1600,2409A,115.6458,34.4045,商丘市,粮食局,,20,11,68,7,55,62,,55,49,17,24,4,4,0.4,0.6
2024-10-17T1600,2410A,115.6293,34.3948,商丘市,睢阳区环保局,,,,85,8,58,59,,56,49,14,20,4,3,0.3,0.5
2024-10-17T1600,3171A,115.6071,34.4465,商丘市,梁园区档案局,,17,11,78,3,59,53,,63,47,13,23,2,5,0.4,0.7
2024-10-17T1600,1141A,121.4,31.238,上海市,普陀,,27,21,28,12,17,86,,90,90,21,27,5,5,0.6,0.7
