timepoint,stationcode,longitude,latitude,area,positionname,primarypollutant,aqi,pm10,pm10_24h,pm2_5,pm2_5_24h,o3,o3_24h,o3_8h,o3_8h_24h,no2,no2_24h,so2,so2_24h,co,co_24h
2025-08-11T2100,2566A,102.1879,31.914,阿坝藏族羌族自治州,州农科所,,20,20,22,9,10,26,,50,47,13,8,16,15,0.1,0
2025-08-11T2100,2568A,102.2502,31.8896,阿坝藏族羌族自治州,马师校,,32,32,18,17,18,24,,49,46,7,6,8,8,0.7,0.7
2025-08-11T2100,3994A,102.2165,31.9024,阿坝藏族羌族自治州,马尔康中学西区,,29,27,15,20,11,28,,54,52,7,5,8,8,0.6,0.6
2025-08-11T2100,2695A,80.292,41.1694,阿克苏地区,电视台,颗粒物(PM10),52,53,60,33,25,137,,140,140,6,11,3,2,0.6,0.7
2025-08-11T2100,2696A,80.2613,41.1551,阿克苏地区,艺术中心,颗粒物(PM10),56,62,73,26,31,133,,144,144,5,19,3,4,0.5,0.6
2025-08-11T2100,2204A,105.6467,38.8363,阿拉善盟,西城区西花园,颗粒物(PM10),76,101,60,19,15,127,,140,136,12,12,8,8,0.7,0.7
2025-08-11T2100,2205A,105.6985,38.8411,阿拉善盟,蒙二幼,颗粒物(PM10),85,119,70,24,16,108,,124,120,8,4,10,10,0.4,0.5
2025-08-11T2100,2206A,105.724,38.8516,阿拉善盟,环保局新楼,颗粒物(PM10),57,64,45,23,15,124,,125,124,3,5,9,9,0.3,0.4
2025-08-11T2100,2708A,88.1264,47.8517,阿勒泰地区,市站,,23,18,19,3,5,71,,72,72,13,10,3,3,0.5,0.5
2025-08-11T2100,2630A,80.1161,32.5,阿里地区,阿里监测站,,29,10,7,3,3,92,,105,104,9,7,7,6,0.3,0.3
2025-08-11T2100,3192A,80.0903,32.5028,阿里地区,阿里藏医院,,,,7,,2,,,105,,,3,,5,,0.2
2025-08-11T2100,2642A,109.0318,32.6537,安康市,香溪洞,,21,19,15,8,6,67,,92,90,3,3,6,7,0.5,0.6
2025-08-11T2100,2644A,109.0072,32.6975,安康市,汉滨区检察院,,18,16,17,12,6,32,,90,78,11,6,4,5,0.5,0.4
2025-08-11T2100,4054A,109.0325,32.6913,安康市,市邮政管理局,,31,31,19,9,6,40,,95,86,12,6,8,7,0.8,0.6
2025-08-11T2100,2291A,117.0809,30.5177,安庆市,环科院,,18,14,21,3,13,55,,70,70,4,10,4,7,0.6,0.9
2025-08-11T2100,2292A,117.0331,30.5119,安庆市,马山宾馆,,17,10,20,3,12,54,,62,60,4,11,3,4,0.6,0.7
2025-08-11T2100,2294A,116.9896,30.6145,安庆市,安庆大学,,20,,18,3,8,63,,67,67,5,9,3,3,0.4,0.6
2025-08-11T2100,3173A,117.0598,30.5351,安庆市,市人大,,20,9,18,3,12,63,,74,73,7,11,3,4,0.6,0.7
2025-08-11T2100,3122A,105.9606,26.2611,安顺市,伍家关,,,,13,9,9,77,,76,76,9,6,18,5,0.6,0.4
2025-08-11T2100,3123A,105.9408,26.2431,安顺市,凤凰山,,25,14,16,6,11,78,,77,77,8,5,2,3,0.5,0.4
2025-08-11T2100,3124A,105.9439,26.2564,安顺市,金钟山,,23,15,17,10,13,73,,73,73,6,4,6,6,0.5,0.5
2025-08-11T2100,3125A,105.8983,26.2481,安顺市,娄家坡,,20,14,17,6,13,61,,69,68,12,5,7,6,0.5,0.5
2025-08-11T2100,1818A,114.4839,36.0621,安阳市,棉研所,,,,,,,,,,,,,,,,
2025-08-11T2100,1819A,114.3551,36.1017,安阳市,红庙街,,,46,38,,16,164,,168,167,11,13,4,5,0.6,0.7
2025-08-11T2100,1820A,114.361,36.0681,安阳市,银杏小区,,50,48,37,30,21,159,,167,166,12,14,6,7,0.5,0.5
2025-08-11T2100,3141A,114.3922,36.0878,安阳市,信访局,臭氧1小时,59,46,38,28,19,167,,177,176,6,11,6,6,0.7,0.7
2025-08-11T2100,3669A,114.4705,36.0637,安阳市,左辅环卫站,,,52,44,,13,146,,162,160,10,14,8,8,,0.8
2025-08-11T2100,3703A,114.2917,36.0949,安阳市,安钢职工学校,颗粒物(PM10),51,52,44,30,21,149,,163,162,8,12,6,6,0.8,0.6
2025-08-11T2100,1748A,123.044,41.1196,鞍山市,深沟寺,,30,30,22,17,8,78,,137,118,19,11,8,8,0.8,0.8
2025-08-11T2100,1749A,123.011,41.0931,鞍山市,太阳城,,34,34,25,18,11,79,,148,130,20,12,8,8,0.8,0.8
2025-08-11T2100,1750A,123.0485,41.1442,鞍山市,太平,,37,37,28,19,10,87,,150,133,19,15,8,8,0.8,0.8
2025-08-11T2100,1751A,122.9642,41.0971,鞍山市,铁西三道街,,40,40,39,18,16,80,,145,126,23,26,7,8,0.7,0.9
2025-08-11T2100,1753A,123.022,41.0821,鞍山市,明达新区,,36,36,26,14,9,66,,121,104,33,21,12,10,1.1,0.9
2025-08-11T2100,1754A,123.1289,41.0228,鞍山市,千山,,,,,,,,,,,,,,,,
2025-08-11T2100,4201A,122.9446,41.0826,鞍山市,兴盛南路290号,,47,47,42,19,12,80,,146,124,24,29,11,12,0.7,0.9
2025-08-11T2100,2195A,107.4212,40.761,巴彦淖尔市,附二中,颗粒物(PM10),56,62,110,20,29,96,,122,119,18,9,7,6,0.6,0.5
2025-08-11T2100,2196A,107.37,40.7372,巴彦淖尔市,市环保大楼,,45,45,78,24,26,78,,104,100,18,10,7,7,0.4,0.3
2025-08-11T2100,1956A,86.1472,41.7538,巴音郭楞蒙古自治州,孔雀公园,,41,41,58,17,18,93,,115,113,11,23,4,4,0.4,0.4
2025-08-11T2100,1957A,86.1972,41.7166,巴音郭楞蒙古自治州,棉纺厂,,34,34,71,3,13,96,,120,118,21,16,4,5,0.3,0.3
2025-08-11T2100,1958A,86.2357,41.7173,巴音郭楞蒙古自治州,经济开发区,,30,29,40,13,9,93,,121,118,8,9,3,4,0.2,0.2
2025-08-11T2100,2914A,106.7677,31.8794,巴中市,苏山坪,,25,25,4,14,3,72,,82,76,15,9,5,4,0.3,0.3
2025-08-11T2100,3181A,106.7768,31.8526,巴中市,市五中,,21,21,18,10,6,60,,75,72,9,11,9,9,0.5,0.5
2025-08-11T2100,3183A,106.7418,31.8654,巴中市,圣泉水务公司,,21,16,8,3,3,66,,83,83,14,10,8,9,0.6,0.5
2025-08-11T2100,3616A,106.7616,31.8344,巴中市,市中心医院,,,17,10,10,8,,,68,66,15,12,5,10,0.4,0.4
2025-08-11T2100,2235A,122.7911,45.6077,白城市,洮北区环保局,,19,,10,13,9,58,,65,60,6,6,4,5,0.4,0.4
2025-08-11T2100,2236A,122.8738,45.5725,白城市,市环保局,,20,,9,8,6,61,,58,55,6,12,2,4,0.4,0.4
2025-08-11T2100,2231A,126.4219,41.9171,白山市,喜丰,颗粒物(PM10),63,75,43,21,11,21,,99,76,28,15,5,7,0.5,0.5
2025-08-11T2100,2232A,126.4077,41.9419,白山市,环保局,,26,,23,18,12,27,,99,77,14,11,5,7,0.7,0.6
2025-08-11T2100,2647A,104.1724,36.5446,白银市,第三小学,,35,35,32,16,14,105,,119,118,10,11,8,30,0.4,0.7
2025-08-11T2100,2648A,104.1465,36.5482,白银市,动力公司,,29,26,30,15,14,92,,116,111,11,10,8,25,0.5,0.7
2025-08-11T2100,2512A,106.6103,23.9011,百色市,市监测站,,28,28,32,19,18,73,,90,83,8,8,8,11,0.2,0.2
2025-08-11T2100,2513A,106.6538,23.8859,百色市,市中心血站,,25,,31,17,19,73,,83,79,12,12,6,9,0.6,0.7
2025-08-11T2100,3406A,106.6085,23.8798,百色市,祈福高中,,32,31,36,22,21,57,,83,76,15,15,6,10,0.4,0.5
2025-08-11T2100,2270A,117.396,32.939,蚌埠市,工人疗养院,,25,12,12,3,3,77,,85,82,3,3,4,4,0.3,0.3
2025-08-11T2100,2271A,117.3605,32.9427,蚌埠市,百货大楼,,,10,6,7,4,,,81,77,5,3,6,6,0.4,0.4
2025-08-11T2100,2273A,117.4185,32.8911,蚌埠市,蚌埠学院,,21,,6,8,5,65,,85,74,17,7,6,6,0.4,0.4
2025-08-11T2100,2274A,117.3533,32.9673,蚌埠市,淮上区政府,,24,14,13,7,6,75,,90,85,7,5,6,5,0.4,0.4
2025-08-11T2100,2275A,117.3145,32.8977,蚌埠市,高新区,,24,9,9,3,5,75,,77,74,7,7,6,6,0.5,0.5
2025-08-11T2100,3715A,117.3092,32.9314,蚌埠市,蚌埠田家炳中学,,23,15,13,6,5,73,,82,79,6,5,6,6,0.2,0.3
2025-08-11T2100,1585A,109.8756,40.6532,包头市,市环境监测站,颗粒物(PM10),54,58,45,20,17,52,,147,125,53,25,8,12,0.7,0.9
2025-08-11T2100,1587A,109.9991,40.5842,包头市,包头八中,颗粒物(PM10),60,70,48,23,19,68,,139,128,36,23,5,14,0.6,0.7
2025-08-11T2100,1588A,109.8538,40.6821,包头市,青山宾馆,,50,50,40,27,22,9,,141,111,83,34,3,9,0.5,0.9
2025-08-11T2100,1589A,109.8642,40.6288,包头市,惠龙物流,颗粒物(PM10),64,77,40,20,15,66,,132,117,29,17,9,14,0.5,0.7
2025-08-11T2100,1590A,110.0377,40.5546,包头市,东河鸿龙湾,颗粒物(PM10),58,66,41,25,17,72,,148,135,33,20,5,8,0.7,0.6
2025-08-11T2100,3283A,109.9154,40.5685,包头市,滨河大厦,细颗粒物(PM2.5),62,59,36,44,18,53,,140,123,38,17,4,9,0.5,0.5
2025-08-11T2100,3419A,109.9447,40.6261,包头市,包头市委党校,,40,40,32,23,18,61,,151,133,51,24,8,16,0.3,0.5
2025-08-11T2100,3683A,109.8331,40.6576,包头市,昆区政府,颗粒物(PM10),51,52,42,22,20,60,,142,125,44,24,11,15,0.9,1.1
2025-08-11T2100,1930A,107.185,34.3063,宝鸡市,庙沟村,,37,37,22,13,10,91,,140,135,21,10,4,4,0.4,0.3
2025-08-11T2100,1931A,107.0708,34.3017,宝鸡市,竹园沟,,33,33,22,13,9,89,,148,143,12,9,8,8,0.5,0.5
2025-08-11T2100,1932A,107.1906,34.3672,宝鸡市,三陆医院,,39,27,29,12,19,122,,142,142,15,15,8,8,0.7,0.7
2025-08-11T2100,1933A,107.1431,34.3547,宝鸡市,监测站,,,46,29,15,12,,,142,142,15,10,9,8,,0.5
2025-08-11T2100,1934A,107.1186,34.3739,宝鸡市,技工学校,,38,,28,19,14,121,,139,139,15,12,6,5,0.6,0.5
2025-08-11T2100,1936A,107.2058,34.3497,宝鸡市,文理学院,,37,31,27,13,13,117,,145,144,13,13,8,7,0.6,0.6
2025-08-11T2100,1937A,107.2386,34.3622,宝鸡市,三迪小学,,38,23,32,13,15,120,,144,143,20,17,5,4,0.5,0.4
2025-08-11T2100,4308A,107.3898,34.3601,宝鸡市,陈仓区北开路21号,,36,31,18,13,11,114,,141,140,15,13,6,6,0.5,0.5
2025-08-11T2100,1051A,115.493,38.8632,保定市,游泳馆,,46,46,36,14,18,111,,149,144,15,15,2,4,0.1,0.2
2025-08-11T2100,1052A,115.5213,38.8959,保定市,华电二区,,41,41,32,19,11,126,,159,155,12,10,3,4,0.3,0.4
2025-08-11T2100,1053A,115.4713,38.9108,保定市,接待中心,,40,33,35,16,15,127,,159,156,12,12,2,2,0.6,0.6
2025-08-11T2100,1054A,115.4612,38.8416,保定市,地表水厂,颗粒物(PM10),56,62,45,22,15,94,,154,145,26,13,3,5,0.4,0.5
2025-08-11T2100,3581A,115.31981,38.95208,保定市,满城区生态环境分局,,46,46,42,14,19,115,,164,160,16,14,3,3,0.3,0.2
2025-08-11T2100,3582A,115.47694,38.76408,保定市,清苑区第二中学,颗粒物(PM10),56,62,45,21,17,92,,154,144,23,10,8,8,0.4,0.4
2025-08-11T2100,3583A,115.62909,39.02311,保定市,徐水物探局,,48,48,41,3,7,119,,149,144,15,13,5,7,0.4,0.3
2025-08-11T2100,4004A,115.4202,38.8656,保定市,双鹰农机,,46,46,41,19,18,112,,159,153,14,13,4,5,0.2,0.3
2025-08-11T2100,4034A,115.5150,38.8590,保定市,植保所站,,43,43,34,15,12,122,,164,158,13,10,2,2,0.4,0.4
2025-08-11T2100,2594A,99.1678,25.1081,保山市,市环境监测站,,20,20,14,14,13,31,,40,38,11,8,7,5,0.3,0.3
2025-08-11T2100,2595A,99.1711,25.1328,保山市,市环保局,,20,20,14,11,7,32,,41,40,8,6,6,6,0.5,0.4
2025-08-11T2100,1866A,109.2262,21.588,北海市,牛尾岭水库,,14,14,16,6,8,42,,78,68,7,5,2,5,0.5,0.4
2025-08-11T2100,1867A,109.1436,21.4086,北海市,海滩公园,,,46,27,3,7,59,,68,66,5,5,2,2,,0.6
2025-08-11T2100,1868A,109.0981,21.4661,北海市,新市环保局,,20,,20,14,12,55,,61,59,7,8,2,2,0.4,0.3
2025-08-11T2100,1869A,109.1778,21.5233,北海市,北海工业园,,22,,20,15,13,46,,68,61,10,7,3,4,0.6,0.6
2025-08-11T2100,3400A,109.1911,21.4415,北海市,龙潭自来水厂,,19,16,22,6,14,60,,70,67,1,2,6,6,0.5,0.5
2025-08-11T2100,1001A,116.3621,39.8784,北京市,万寿西宫,,46,46,38,25,19,145,,157,157,13,10,3,3,0.6,0.5
2025-08-11T2100,1002A,116.2202,40.2915,北京市,定陵,,44,44,34,25,19,111,,149,140,6,6,3,3,0.4,0.4
2025-08-11T2100,1003A,116.4174,39.9289,北京市,东四,臭氧1小时,57,44,38,23,18,165,,166,166,14,15,5,5,0.6,0.5
2025-08-11T2100,1004A,116.4072,39.8863,北京市,天坛,,45,45,36,27,20,144,,153,153,17,16,3,3,0.5,0.4
2025-08-11T2100,1005A,116.462,39.9365,北京市,农展馆,臭氧1小时,54,47,37,27,19,163,,161,161,15,14,3,3,0.6,0.6
2025-08-11T2100,1006A,116.3392,39.9295,北京市,官园,,47,41,39,24,19,148,,153,153,13,13,5,5,0.5,0.4
2025-08-11T2100,1007A,116.2878,39.9611,北京市,海淀万柳,,47,43,40,24,21,149,,152,152,13,16,4,4,0.4,0.4
2025-08-11T2100,1008A,116.6636,40.135,北京市,顺义新城,,,,,,,,,,,,,,,,
2025-08-11T2100,1009A,116.6275,40.3275,北京市,怀柔镇,,47,40,37,24,21,148,,164,162,18,17,1,2,0.4,0.4
2025-08-11T2100,1010A,116.2296,40.217,北京市,昌平镇,,49,49,36,27,19,132,,142,142,17,15,4,4,0.6,0.5
2025-08-11T2100,1011A,116.3966,39.9821,北京市,奥体中心,,45,43,35,27,18,141,,139,139,10,10,4,4,0.4,0.4
2025-08-11T2100,3281A,115.9718,40.4529,北京市,延庆夏都,颗粒物(PM10),52,53,27,28,12,131,,138,138,9,12,3,3,0.6,0.5
2025-08-11T2100,3418A,116.8336,40.4095,北京市,密云新城,,46,40,35,24,20,145,,151,151,14,10,2,2,0.5,0.4
2025-08-11T2100,3671A,116.088,39.9726,北京市,门头沟三家店,颗粒物(PM10),51,51,37,32,19,132,,144,144,12,17,3,3,0.6,0.6
2025-08-11T2100,3672A,116.1541,39.8204,北京市,丰台云岗,颗粒物(PM10),53,56,45,33,21,100,,143,139,20,13,3,3,0.5,0.5
2025-08-11T2100,3673A,116.6804,39.9081,北京市,通州东关,,46,46,37,28,20,144,,158,158,16,18,7,6,0.6,0.5
2025-08-11T2100,3674A,115.9577,39.7603,北京市,房山燕山,,43,31,33,21,20,135,,138,138,6,8,4,4,0.4,0.4
2025-08-11T2100,3675A,116.4672,39.7733,北京市,大兴旧宫,,46,46,36,23,17,126,,152,151,16,12,2,2,0.6,0.2
2025-08-11T2100,3694A,115.986,40.4563,北京市,延庆石河营,颗粒物(PM10),52,53,24,35,14,123,,136,136,9,11,3,2,0.4,0.4
2025-08-11T2100,3695A,116.6151,40.3053,北京市,怀柔新城,,47,47,37,25,24,125,,150,148,19,11,2,2,0.6,0.6
2025-08-11T2100,3696A,116.2545,39.8768,北京市,丰台小屯,,49,49,44,26,22,106,,138,134,26,20,2,2,0.6,0.6
2025-08-11T2100,3697A,116.84,40.3844,北京市,密云镇,,50,47,38,26,20,160,,163,163,13,17,5,4,0.5,0.5
2025-08-11T2100,4182A,116.1942,39.9158,北京市,八角北路9号,颗粒物(PM10),53,55,51,24,20,133,,152,152,15,14,3,3,0.3,0.4
2025-08-11T2100,4194A,117.0790,40.1518,北京市,洳河巡河路,颗粒物(PM10),52,54,39,32,22,136,,161,160,15,10,3,3,0.7,0.6
2025-08-11T2100,1761A,123.8275,41.3064,本溪市,大峪,,39,39,34,14,11,50,,134,115,21,20,5,8,0.4,0.5
2025-08-11T2100,1762A,123.7567,41.3325,本溪市,溪湖,,37,37,37,17,11,62,,143,126,15,16,7,8,0.8,1
2025-08-11T2100,1763A,123.7169,41.3094,本溪市,彩屯,,40,40,38,18,17,42,,134,104,26,25,8,12,0.8,1.1
2025-08-11T2100,1764A,123.7669,41.2864,本溪市,东明,,30,30,39,15,14,94,,137,126,21,23,5,7,0.8,1
2025-08-11T2100,1765A,123.7992,41.2664,本溪市,新立屯,,31,28,25,15,9,20,,116,89,61,24,5,5,0.9,0.9
2025-08-11T2100,1766A,123.8142,41.3472,本溪市,威宁,颗粒物(PM10),52,54,39,17,13,25,,124,103,30,17,8,10,0.6,0.7
2025-08-11T2100,2587A,105.2864,27.3125,毕节市,八中,,25,,8,6,11,78,,91,90,5,4,4,4,0.5,0.5
2025-08-11T2100,2588A,105.31,27.2944,毕节市,师专,,30,10,11,3,9,93,,98,98,9,7,4,4,0.5,0.5
2025-08-11T2100,4263A,105.3688,27.3598,毕节市,工业大道,,23,13,12,8,8,72,,97,95,13,9,6,6,0.6,0.6
2025-08-11T2100,1629A,118.0018,37.3617,滨州市,第二水厂,,44,41,41,24,26,140,,161,157,9,18,3,5,0.6,0.7
2025-08-11T2100,1630A,117.9776,37.393,滨州市,北中新校,,44,44,37,29,24,133,,162,153,21,21,4,5,0.5,0.7
2025-08-11T2100,3514A,117.9378,37.3956,滨州市,中海酒店,,49,44,35,34,25,122,,158,151,17,10,8,10,0.7,0.7
2025-08-11T2100,3515A,117.9378,37.3553,滨州市,开发区一中,,45,44,47,31,27,128,,172,167,16,20,6,9,0.6,0.6
2025-08-11T2100,3516A,118.0917,37.694,滨州市,金海六路,,47,46,33,24,19,150,,186,186,18,12,9,10,0.4,0.4
2025-08-11T2100,4028A,117.9956,37.3753,滨州市,滨州市西街道办事处,,48,41,33,31,25,151,,173,170,10,14,1,3,0.4,0.5
2025-08-11T2100,2311A,115.8072,33.8399,亳州市,污水处理厂,,31,10,8,3,6,98,,111,108,8,5,5,11,0.3,0.4
2025-08-11T2100,2312A,115.7789,33.8518,亳州市,三国揽胜宫,,35,21,13,3,6,112,,117,116,8,4,3,3,0.4,0.5
2025-08-11T2100,3332A,115.7633,33.8034,亳州市,亳州学院,,33,10,6,3,7,104,,108,108,9,7,3,2,0.3,0.4
2025-08-11T2100,2693A,82.0485,44.8556,博尔塔拉蒙古自治州,市党校,,39,,30,27,15,96,,96,96,5,6,3,3,0.1,0.1
2025-08-11T2100,2694A,82.0806,44.8969,博尔塔拉蒙古自治州,市环保局,,32,32,35,14,11,94,,95,95,4,5,3,2,0.2,0.3
2025-08-11T2100,1071A,116.8842,38.2991,沧州市,沧县城建局,,49,49,38,29,21,131,,167,161,17,16,2,3,0.4,0.3
2025-08-11T2100,1072A,116.8584,38.3254,沧州市,电视转播站,颗粒物(PM10),55,59,53,31,25,127,,151,148,15,14,2,3,0.4,0.3
2025-08-11T2100,1073A,116.8709,38.3228,沧州市,市环保局,颗粒物(PM10),62,73,45,29,24,128,,158,154,10,10,3,4,0.4,0.4
2025-08-11T2100,3324A,116.8136,38.3004,沧州市,河北水利电力学院,细颗粒物(PM2.5),54,56,36,38,28,128,,166,160,20,15,3,5,0.4,0.4
2025-08-11T2100,2622A,97.1806,31.1273,昌都市,昌都监测站,,26,,15,13,8,83,,91,91,5,4,4,4,0.3,0.4
2025-08-11T2100,3719A,97.1714,31.1406,昌都市,昌都会议中心,,27,22,15,14,8,84,,97,97,8,4,3,4,0.2,0.2
2025-08-11T2100,2690A,88.1236,43.8886,昌吉回族自治州,天山天池,,10,6,9,3,3,30,,67,43,5,5,4,4,0.5,0.5
2025-08-11T2100,2692A,87.2717,44.0297,昌吉回族自治州,新区政务中心,,30,13,14,3,8,94,,95,95,7,9,6,6,0.3,0.3
2025-08-11T2100,3613A,87.3095,44.0142,昌吉回族自治州,亚心广场,,31,12,17,3,5,99,,100,100,8,10,6,6,0.2,0.3
2025-08-11T2100,1120A,125.2863,43.9027,长春市,客车厂,,28,28,27,14,11,64,,66,59,22,27,7,5,0.4,0.3
2025-08-11T2100,1121A,125.2841,43.8463,长春市,邮电学院,,25,25,19,10,5,46,,60,47,18,19,6,5,0.4,0.3
2025-08-11T2100,1122A,125.3716,43.8772,长春市,劳动公园,,39,39,30,22,10,61,,66,62,25,24,11,8,0.5,0.4
2025-08-11T2100,1123A,125.3297,43.8805,长春市,园林处,,46,46,22,18,6,59,,66,62,22,20,8,6,0.5,0.4
2025-08-11T2100,1124A,125.4605,43.79,长春市,净月潭,,30,22,15,21,4,38,,57,41,9,6,5,5,0.3,0.2
2025-08-11T2100,1125A,125.7194,43.515,长春市,甩湾子,,19,14,13,13,8,36,,68,61,11,11,4,4,0.5,0.4
2025-08-11T2100,1126A,125.3863,43.8447,长春市,经开区环卫处,,29,29,25,8,6,49,,58,52,34,29,7,4,0.4,0.4
2025-08-11T2100,1127A,125.245,43.7783,长春市,高新区管委会,,30,30,20,14,7,46,,62,52,18,18,5,4,0.4,0.4
2025-08-11T2100,1128A,125.1761,43.8325,长春市,岱山公园,,28,28,28,17,8,45,,55,44,34,31,5,4,0.4,0.3
2025-08-11T2100,4281A,125.3346,43.9164,长春市,北亚泰大街1068号,,41,41,34,17,11,43,,66,57,38,26,10,8,0.5,0.4
2025-08-11T2100,1335A,113.0833,28.2325,长沙市,经开区环保局,,43,39,36,30,28,54,,94,86,13,10,4,4,0.4,0.4
2025-08-11T2100,1336A,112.8872,28.2189,长沙市,高开区环保局,,38,38,38,18,24,58,,82,78,7,6,3,4,0.3,0.3
2025-08-11T2100,1337A,113.0792,28.2053,长沙市,马坡岭,,48,48,40,27,25,63,,108,99,9,8,4,4,0.4,0.4
2025-08-11T2100,1338A,112.9394,28.19,长沙市,湖南师范大学,,38,33,37,26,26,57,,90,84,9,7,2,3,0.7,0.7
2025-08-11T2100,1339A,113.0178,28.1322,长沙市,雨花区环保局,,31,31,37,19,20,68,,106,100,7,7,5,5,0.7,0.7
2025-08-11T2100,1340A,112.9792,28.2597,长沙市,伍家岭,,37,37,35,18,21,56,,80,77,7,7,2,2,0.4,0.4
2025-08-11T2100,1341A,113.0014,28.1944,长沙市,火车新站,,36,36,38,22,19,62,,95,89,5,7,5,5,0.5,0.5
2025-08-11T2100,1342A,112.9844,28.1178,长沙市,天心区环保局,,36,36,36,24,24,60,,104,95,14,10,2,2,0.4,0.4
2025-08-11T2100,1343A,112.8908,28.1308,长沙市,湖南中医药大学,,37,37,38,20,26,51,,90,80,8,6,2,2,0.7,0.7
2025-08-11T2100,1344A,112.9581,28.3611,长沙市,沙坪,,38,38,36,26,23,62,,78,77,7,8,2,2,0.6,0.6
2025-08-11T2100,1727A,113.1147,36.1547,长治市,清华站,臭氧1小时,55,36,27,19,12,164,,168,168,9,11,10,9,0.9,0.9
2025-08-11T2100,1730A,113.0886,36.2125,长治市,审计局,,50,35,23,17,13,159,,164,164,14,14,6,7,0.8,0.9
2025-08-11T2100,1731A,113.0844,36.1856,长治市,长治八中,,,,,,,,,,,,,,,,
2025-08-11T2100,2845A,113.1569,36.1911,长治市,德盛苑,,50,29,25,14,12,159,,165,165,9,10,7,9,0.9,1.1
2025-08-11T2100,3568A,113.06,36.0464,长治市,向阳小学,颗粒物(PM10),60,70,58,38,23,161,,162,162,6,9,10,10,0.7,0.8
2025-08-11T2100,3569A,112.8792,36.3144,长治市,屯留一中,颗粒物(PM10),53,55,36,34,20,142,,155,154,14,20,11,9,0.6,0.4
2025-08-11T2100,4189A,113.1131,36.19948,长治市,英华南巷50号,,,37,29,17,13,160,,162,162,,11,9,9,0.9,1
2025-08-11T2100,4190A,113.2367,36.3344,长治市,学府街1号,,41,34,31,14,15,130,,161,158,18,16,5,9,0.6,0.7
2025-08-11T2100,1854A,111.6975,28.9703,常德市,市二中,,26,,16,18,12,71,,96,83,11,6,3,3,0.5,0.3
2025-08-11T2100,1857A,111.7158,29.1456,常德市,白鹤山,,,,,,,,,,,,,,,,
2025-08-11T2100,3138A,111.7153,29.0289,常德市,武陵区永安,,24,10,16,8,9,75,,86,83,5,4,3,3,0.3,0.4
2025-08-11T2100,3139A,111.6892,28.9881,常德市,鼎城区玉霞,,24,12,16,10,10,74,,94,84,8,5,4,3,0.4,0.4
2025-08-11T2100,3140A,111.6625,29.0531,常德市,武陵区长庚,,22,13,15,11,11,68,,86,75,8,6,3,3,0.4,0.4
2025-08-11T2100,1196A,119.9633,31.762,常州市,市监测站,,17,16,25,11,16,52,,94,69,19,15,7,8,0.5,0.6
2025-08-11T2100,1200A,119.9468,31.7069,常州市,武进监测站,,17,17,20,8,13,37,,95,70,24,9,8,9,1.0,1.1
2025-08-11T2100,1201A,119.9255,31.9087,常州市,安家,,20,20,23,9,12,51,,65,57,16,21,6,7,0.8,1
2025-08-11T2100,3002A,119.9805,31.8174,常州市,行政中心,,21,21,24,13,15,41,,69,53,18,21,4,4,0.5,0.7
2025-08-11T2100,3003A,120.0522,31.7748,常州市,经开区,,36,36,36,15,13,32,,82,61,29,21,3,2,0.9,0.9
2025-08-11T2100,3010A,119.9025,31.7964,常州市,钟楼,,23,23,24,8,11,49,,79,58,18,19,5,5,0.5,0.7
2025-08-11T2100,3429A,119.8598,31.7066,常州市,武进经发区,,28,28,24,12,14,44,,88,66,14,9,6,7,0.9,1
2025-08-11T2100,3430A,119.5826,31.7245,常州市,金坛城区,,,25,20,13,13,,,82,70,13,12,6,8,0.6,0.6
2025-08-11T2100,2220A,120.4318,41.5881,朝阳市,西梁,,49,42,41,34,19,121,,127,124,12,17,6,6,0.7,0.7
2025-08-11T2100,2221A,120.4521,41.5646,朝阳市,河畔小区,,43,28,23,11,14,137,,137,135,6,13,7,6,0.7,0.5
2025-08-11T2100,2222A,120.4176,41.5648,朝阳市,八里堡,,39,31,41,24,16,122,,136,126,13,15,7,7,0.7,0.6
2025-08-11T2100,2223A,120.3806,41.5969,朝阳市,农业园区,,39,29,31,18,22,122,,134,129,9,13,7,7,0.6,0.7
2025-08-11T2100,1705A,116.6367,23.6719,潮州市,西园路,,16,16,17,3,9,45,,50,50,11,10,6,6,0.1,0.1
2025-08-11T2100,3026A,116.6183,23.6608,潮州市,市政府,,22,22,13,7,6,39,,52,51,15,12,9,7,0.4,0.3
2025-08-11T2100,4036A,116.6461,23.6761,潮州市,金山,,,48,18,11,12,,,51,51,11,10,6,6,0.6,0.6
2025-08-11T2100,2472A,113.0073,25.9061,郴州市,马头岭,颗粒物(PM10),51,51,28,20,10,48,,85,73,16,8,7,7,0.4,0.7
2025-08-11T2100,2473A,113.0116,25.8226,郴州市,市职中,,50,47,26,35,19,33,,89,74,22,8,6,7,0.6,0.4
2025-08-11T2100,2475A,113.0383,25.8071,郴州市,市审计局,,46,46,28,31,18,49,,92,82,22,9,7,12,0.4,0.3
2025-08-11T2100,2476A,113.0348,25.7759,郴州市,市环保局,细颗粒物(PM2.5),89,,31,66,21,50,,96,85,27,11,5,13,0.5,0.3
2025-08-11T2100,4252A,113.0138,25.8011,郴州市,好美居路49号,,38,35,24,26,15,52,,87,81,22,8,8,13,0.5,0.7
2025-08-11T2100,1431A,103.9728,30.7236,成都市,金泉两河,,29,26,17,3,5,90,,138,138,27,16,2,2,0.7,0.7
2025-08-11T2100,1432A,104.176,30.6872,成都市,十里店,,29,26,22,3,7,92,,160,159,25,19,4,4,0.6,0.6
2025-08-11T2100,1433A,104.079,30.5706,成都市,三瓦窑,,,17,20,12,10,,,162,162,26,22,3,3,0.2,0.2
2025-08-11T2100,1434A,104.1114,30.63,成都市,沙河铺,,29,18,24,6,7,90,,116,116,13,13,7,7,0.8,0.8
2025-08-11T2100,1437A,104.0786,30.6531,成都市,君平街,,34,24,26,3,9,107,,160,160,15,20,6,6,0.6,0.7
2025-08-11T2100,1438A,103.613,31.0283,成都市,灵岩寺,,,,,,,,,,,,,,,,
2025-08-11T2100,2880A,104.0239,30.65639,成都市,大石西路,,28,25,21,19,12,88,,136,136,19,18,4,4,0.6,0.6
2025-08-11T2100,3136A,104.2725,30.5589,成都市,龙泉驿区区政府,,26,17,9,7,4,81,,115,113,16,15,4,4,0.5,0.4
2025-08-11T2100,3357A,104.0106,30.6931,成都市,金博路,,30,,11,10,5,95,,134,134,17,17,5,5,0.8,0.8
2025-08-11T2100,3359A,104.0578,30.5225,成都市,华阳,,35,22,15,12,9,111,,145,145,15,16,4,4,0.6,0.5
2025-08-11T2100,3488A,104.3853,30.7453,成都市,青白江技师分院,,27,21,18,6,9,86,,124,121,12,15,4,5,0.5,0.5
2025-08-11T2100,3489A,104.0789,30.4072,成都市,科学城,,32,23,16,13,9,100,,118,118,4,8,3,4,0.5,0.5
2025-08-11T2100,4011A,103.8506,30.6947,成都市,光华大道三段,,36,26,21,17,9,113,,142,142,20,16,5,5,0.4,0.3
2025-08-11T2100,4224A,104.2433,30.5353,成都市,鲸龙路1057号,,34,22,13,12,7,107,,123,123,11,11,3,3,0.7,0.7
2025-08-11T2100,1062A,117.9531,40.9081,承德市,铁路,,43,43,28,17,13,109,,131,131,42,14,3,3,0.4,0.3
2025-08-11T2100,1063A,117.9392,40.9763,承德市,中国银行,,46,45,27,26,18,146,,136,136,7,9,1,2,0.4,0.4
2025-08-11T2100,1064A,117.9503,40.928,承德市,开发区,,50,47,38,32,15,158,,142,142,7,12,4,5,0.4,0.4
2025-08-11T2100,1066A,117.9268,41.0026,承德市,离宫,,41,41,26,20,13,76,,124,118,5,7,3,2,0.4,0.3
2025-08-11T2100,4274A,117.7994,40.9605,承德市,滨河大街98号,,38,30,28,26,14,60,,118,106,8,8,2,2,0.4,0.3
2025-08-11T2100,2314A,117.47,30.6618,池州市,池州学院,,17,17,16,10,10,38,,62,57,26,14,7,7,0.6,0.5
2025-08-11T2100,3237A,117.4918,30.6617,池州市,展览馆,,15,15,16,8,8,35,,61,54,23,12,4,4,0.6,0.6
2025-08-11T2100,3333A,117.5627,30.695,池州市,第八中学,,16,9,15,3,8,49,,62,56,11,11,5,6,0.6,0.5
2025-08-11T2100,3334A,117.5038,30.6243,池州市,第十二中学,,18,18,19,11,10,44,,70,60,19,14,4,4,0.9,0.8
2025-08-11T2100,1744A,118.9233,42.2816,赤峰市,松山一中,,39,22,20,7,10,123,,127,127,12,18,6,8,0.6,0.6
2025-08-11T2100,1745A,118.9576,42.2728,赤峰市,哈达街,,38,38,25,17,10,113,,118,118,14,20,12,14,0.6,0.6
2025-08-11T2100,1746A,118.8788,42.2554,赤峰市,天义路,,38,23,16,19,12,120,,118,118,9,13,11,10,0.5,0.4
2025-08-11T2100,3058A,119.2658,42.0353,赤峰市,银河街,,41,41,34,26,17,118,,114,114,12,15,8,12,0.6,0.6
2025-08-11T2100,3286A,118.9359,42.3147,赤峰市,桥北物流园区,,36,36,20,22,12,103,,104,104,18,20,11,17,0.6,0.6
2025-08-11T2100,2521A,107.3476,22.4136,崇左市,市环保局江州分局,,34,34,25,16,14,43,,87,78,10,7,6,7,0.5,0.5
2025-08-11T2100,4256A,107.3750,22.3736,崇左市,石景林东路7号,,22,22,26,14,18,48,,88,79,12,8,5,4,0.4,0.5
2025-08-11T2100,2298A,118.3093,32.3153,滁州市,老年大学,,22,9,10,3,3,69,,88,79,7,5,6,6,0.3,0.2
2025-08-11T2100,2299A,118.3244,32.2786,滁州市,人大宾馆,,21,6,7,3,6,67,,91,79,10,4,4,4,0.3,0.3
2025-08-11T2100,3207A,118.3118,32.3038,滁州市,市政府原办公楼,,23,,6,9,9,72,,87,78,6,4,5,5,0.3,0.3
2025-08-11T2100,3331A,118.3267,32.2634,滁州市,图书馆,,26,8,8,8,7,83,,97,88,7,7,9,10,0.2,0.2
2025-08-11T2100,2605A,101.5482,25.0441,楚雄彝族自治州,州环境监测站,,10,6,10,6,8,29,,34,34,6,9,4,4,0.6,0.6
2025-08-11T2100,2606A,101.538,25.0492,楚雄彝族自治州,市经济开发区,,17,17,14,11,8,28,,34,34,10,11,6,6,0.7,0.7
2025-08-11T2100,2548A,107.5277,31.2827,达州市,达州职业技术学院,,26,26,26,3,4,7,,50,38,27,15,7,11,0.6,0.5
2025-08-11T2100,2549A,107.5086,31.2186,达州市,市环境监测站,,25,25,22,3,0,22,,45,43,28,22,7,9,0.4,0.5
2025-08-11T2100,2550A,107.4988,31.2132,达州市,凤凰小区,,,24,19,9,3,,,49,49,27,20,2,4,0.5,0.4
2025-08-11T2100,2551A,107.5082,31.1986,达州市,达县机关宾馆,,27,27,18,6,5,22,,38,36,25,19,5,7,0.4,0.4
2025-08-11T2100,2552A,107.4644,31.2124,达州市,市政中心,,28,28,23,3,2,28,,52,49,22,15,4,7,0.4,0.3
2025-08-11T2100,2614A,100.1542,25.7054,大理白族自治州,大理市环境监测站,,22,,11,15,12,33,,41,40,10,8,5,4,0.6,0.5
2025-08-11T2100,2615A,100.2171,25.5811,大理白族自治州,大理古城,,21,21,13,14,11,28,,48,46,21,9,5,5,0.7,0.6
2025-08-11T2100,1109A,121.612,38.9741,大连市,甘井子,,29,21,28,10,17,91,,132,119,20,23,10,10,0.0,0.2
2025-08-11T2100,1110A,121.565,38.9511,大连市,周水子,,28,20,42,19,12,82,,77,,21,20,7,6,0.4,0.4
2025-08-11T2100,1111A,121.5637,38.8845,大连市,星海三站,,35,27,24,19,13,111,,138,128,16,15,5,5,0.5,0.4
2025-08-11T2100,1112A,121.6302,38.9117,大连市,青泥洼桥,,34,21,24,15,14,107,,127,120,15,18,7,7,0.3,0.4
2025-08-11T2100,1113A,121.6251,38.8638,大连市,傅家庄,,45,,17,22,15,141,,137,131,5,8,11,11,0.4,0.3
2025-08-11T2100,1114A,121.5213,38.8661,大连市,七贤岭,,23,20,17,12,11,72,,141,124,13,8,10,10,0.4,0.5
2025-08-11T2100,1115A,121.2529,38.8061,大连市,旅顺,,35,,40,24,28,112,,123,119,18,16,3,3,0.5,0.9
2025-08-11T2100,1116A,121.7485,39.1311,大连市,金州,,42,42,29,11,18,90,,147,121,17,13,7,8,0.3,0.5
2025-08-11T2100,1117A,121.7811,39.0496,大连市,开发区,,35,25,30,10,19,111,,134,130,14,16,7,7,0.5,0.6
2025-08-11T2100,1118A,121.9762,39.0631,大连市,双D港,,33,24,21,12,16,104,,131,122,14,8,13,12,0.6,0.5
2025-08-11T2100,1789A,124.81117,46.03138,大庆市,大同区,,,13,15,11,5,,,61,57,12,9,8,8,0.6,0.6
2025-08-11T2100,1790A,125.129,46.533,大庆市,龙凤区,,26,26,17,7,8,37,,50,41,17,16,6,6,0.5,0.5
2025-08-11T2100,1791A,124.902,46.408,大庆市,红岗区,,24,24,20,11,9,35,,77,70,11,11,7,7,0.6,0.5
2025-08-11T2100,1792A,125.153,46.586,大庆市,萨尔图区,,25,25,19,3,4,31,,53,50,23,10,7,6,0.7,0.6
2025-08-11T2100,1793A,124.9042,46.6215,大庆市,让胡路区,,27,27,21,17,13,29,,59,56,25,9,5,5,0.3,0.2
2025-08-11T2100,3481A,125.141,46.634,大庆市,萨区政府监测点,,24,24,15,3,1,27,,52,50,24,9,6,6,0.3,0.2
2025-08-11T2100,1721A,113.3819,40.1097,大同市,果树场,颗粒物(PM10),58,66,30,31,19,54,,133,116,39,22,12,9,0.6,0.6
2025-08-11T2100,1723A,113.2994,40.0758,大同市,云冈宾馆,,,105,46,27,18,,,150,149,30,24,13,8,,0.8
2025-08-11T2100,1724A,113.3444,40.0917,大同市,大同大学,,,75,39,28,17,,,148,147,30,23,15,14,0.7,0.6
2025-08-11T2100,1725A,113.2661,40.1269,大同市,安家小村,颗粒物(PM10),92,134,55,15,17,110,,118,117,13,20,8,9,0.9,1.1
2025-08-11T2100,1726A,113.2711,40.0844,大同市,教育学院,颗粒物(PM10),68,85,49,23,19,102,,140,134,28,23,13,10,0.5,0.6
2025-08-11T2100,3282A,113.3397,40.0597,大同市,大同市卫生学校,颗粒物(PM10),72,94,42,36,19,106,,140,135,36,25,10,8,0.8,0.7
2025-08-11T2100,3565A,113.1367,40.1122,大同市,云冈站,颗粒物(PM10),53,55,50,34,18,78,,130,122,11,8,5,5,0.5,0.6
2025-08-11T2100,3566A,113.1186,40.2556,大同市,图书馆,颗粒物(PM10),54,58,41,28,18,87,,129,121,14,11,5,3,0.7,0.8
2025-08-11T2100,3567A,113.5931,40.0461,大同市,区一中,颗粒物(PM10),59,68,38,31,12,63,,149,130,21,12,11,10,0.6,0.5
2025-08-11T2100,4199A,113.2798,40.0997,大同市,魏都大道141号,细颗粒物(PM2.5),62,72,49,44,23,71,,139,128,41,24,7,7,0.8,0.8
2025-08-11T2100,2269A,124.1069,50.4097,大兴安岭地区,科技局,,36,36,18,16,9,13,,47,41,11,3,8,5,0.5,0.4
2025-08-11T2100,3663A,124.1164,50.4278,大兴安岭地区,红旗社区,,10,,6,7,4,18,,47,43,8,3,4,4,0.3,0.3
2025-08-11T2100,1600A,124.3303,40.0625,丹东市,江湾东路,,30,30,31,15,14,42,,97,81,26,18,14,8,0.7,0.7
2025-08-11T2100,1601A,124.4256,40.1503,丹东市,临江后街,颗粒物(PM10),72,93,32,22,12,51,,96,84,15,14,8,8,0.8,0.7
2025-08-11T2100,1602A,124.3933,40.1461,丹东市,元宝山,颗粒物(PM10),53,56,21,20,11,48,,89,82,24,14,7,5,1.0,0.7
2025-08-11T2100,1603A,124.3633,40.1092,丹东市,民主桥,,46,46,25,23,9,45,,99,88,20,16,5,4,0.9,0.6
2025-08-11T2100,3541A,109.5726,19.5167,儋州市,第一中学子站,,11,11,14,3,7,28,,49,43,4,4,7,7,0.4,0.4
2025-08-11T2100,3542A,109.5567,19.5187,儋州市,东坡学校子站,,18,18,16,3,9,31,,60,51,2,3,8,8,0.4,0.5
2025-08-11T2100,2616A,98.5842,24.428,德宏傣族景颇族自治州,德宏州监测站,,37,37,31,14,14,25,,46,44,13,11,13,15,0.7,0.7
2025-08-11T2100,3677A,98.5881,24.4368,德宏傣族景颇族自治州,芒市人民政府综合楼,,34,34,30,19,13,16,,40,38,15,10,9,12,0.7,0.6
2025-08-11T2100,1901A,104.4239,31.1208,德阳市,东山公园,,25,20,14,13,9,78,,120,120,2,8,2,2,0.8,0.8
2025-08-11T2100,1902A,104.3826,31.1317,德阳市,西小区,,,,24,,12,,,138,138,,22,,2,,1
2025-08-11T2100,1904A,104.3553,31.1091,德阳市,耐火材料厂,,30,30,22,15,12,83,,123,123,11,20,1,2,0.6,0.6
2025-08-11T2100,3639A,104.4019,31.1244,德阳市,市教育局,,28,28,22,14,10,70,,124,124,13,14,4,4,0.8,0.8
2025-08-11T2100,1622A,116.3032,37.4674,德州市,儿童乐园,,48,34,37,22,25,152,,168,168,10,14,11,11,0.6,0.6
2025-08-11T2100,1624A,116.2991,37.4451,德州市,监理站,,,,35,,25,,,171,171,,11,,15,0.3,0.3
2025-08-11T2100,3066A,116.2721,37.4379,德州市,九衢泉纯净水厂,,41,41,43,27,28,129,,152,151,18,26,7,6,0.7,0.7
2025-08-11T2100,3371A,116.3728,37.4403,德州市,开发区人民医院,,40,31,41,24,25,125,,161,158,24,17,10,12,0.8,0.8
2025-08-11T2100,3511A,116.5652,37.3319,德州市,陵城艺术中心,,48,31,41,12,23,153,,178,174,12,17,5,7,0.9,0.8
2025-08-11T2100,4292A,116.3525,37.4209,德州市,新河东路,,42,39,42,27,28,132,,164,162,12,18,11,12,0.8,0.8
2025-08-11T2100,2621A,99.7056,27.8317,迪庆藏族自治州,迪庆州站,,19,14,14,13,14,20,,33,25,16,9,6,6,0.6,0.6
2025-08-11T2100,3180A,99.7136,27.8094,迪庆藏族自治州,质量技术监督局,,28,21,15,19,9,24,,35,26,18,12,7,7,0.7,0.5
2025-08-11T2100,4257A,104.6092,35.5962,定西市,将台街,颗粒物(PM10),58,66,40,33,21,109,,130,126,15,18,8,8,0.5,0.6
2025-08-11T2100,4309A,104.6159,35.5701,定西市,正龙路62号,颗粒物(PM10),55,59,41,29,19,94,,124,119,12,9,5,5,0.3,0.3
2025-08-11T2100,1389A,113.7547,23.0494,东莞市,莞城梨川,,48,48,27,29,15,72,,118,107,30,23,9,8,0.5,0.4
2025-08-11T2100,1390A,113.7944,23.0128,东莞市,东城石井,,47,47,28,28,14,52,,104,90,38,25,3,3,0.6,0.3
2025-08-11T2100,1391A,113.7383,22.9658,东莞市,南城西平,,,72,28,58,18,59,,104,86,36,27,5,5,,0.7
2025-08-11T2100,3319A,113.7338,23.0381,东莞市,万江金泰,,45,42,23,31,13,63,,113,100,34,25,5,5,0.9,0.8
2025-08-11T2100,3626A,113.7533,23.0202,东莞市,南城元岭,,42,42,12,29,8,65,,110,100,32,26,6,6,0.7,0.6
2025-08-11T2100,3627A,113.7875,23.0457,东莞市,东城主山,,38,38,37,22,15,63,,100,89,28,26,5,5,0.3,0.3
2025-08-11T2100,1666A,118.6614,37.4309,东营市,市环保局,,40,22,23,14,13,126,,149,148,11,17,6,9,0.3,0.4
2025-08-11T2100,3036A,118.6904,37.4338,东营市,开发区管委会,,41,23,26,9,12,130,,,,11,18,6,8,0.2,0.3
2025-08-11T2100,3365A,118.5719,37.565,东营市,垦利区民丰路,,35,31,24,14,12,110,,146,138,17,16,9,9,0.7,0.7
2025-08-11T2100,3498A,118.5055,37.8612,东营市,河口城区,,42,22,24,12,10,132,,156,154,13,13,4,6,0.8,0.9
2025-08-11T2100,3646A,118.4978,37.4623,东营市,胜利站,,40,19,32,12,15,126,,158,157,16,20,3,4,0.5,0.5
2025-08-11T2100,3734A,118.35,37.26,东营市,理想之城,,39,27,23,19,16,122,,153,150,13,21,3,5,0.3,0.5
2025-08-11T2100,1591A,110.0023,39.8129,鄂尔多斯市,综合楼,颗粒物(PM10),59,68,52,24,16,90,,126,117,32,20,6,7,0.6,0.5
2025-08-11T2100,1592A,109.9486,39.8261,鄂尔多斯市,巴音孟克林场办事处,颗粒物(PM10),76,102,66,24,15,68,,130,118,52,16,6,4,0.9,0.6
2025-08-11T2100,1593A,109.7736,39.5986,鄂尔多斯市,康泽苑,颗粒物(PM10),63,75,55,29,16,48,,123,107,40,13,8,9,0.6,0.4
2025-08-11T2100,1594A,109.8119,39.5989,鄂尔多斯市,华泰汽车城,颗粒物(PM10),62,73,51,24,16,34,,124,104,47,17,5,5,0.6,0.5
2025-08-11T2100,1595A,109.9734,39.7884,鄂尔多斯市,奥林花园,,,78,63,22,24,61,,123,110,,21,7,6,0.6,0.6
2025-08-11T2100,2436A,114.8938,30.3994,鄂州市,市政府,,21,8,11,3,2,65,,73,73,16,15,4,5,0.5,0.6
2025-08-11T2100,2437A,114.8989,30.3714,鄂州市,赵家坝,,,13,17,3,2,64,,71,71,,7,6,6,0.7,1
2025-08-11T2100,3654A,114.8094,30.4089,鄂州市,精准医疗中心,,23,7,10,3,0,72,,80,80,8,9,6,5,0.7,0.7
2025-08-11T2100,2454A,109.4978,30.2981,恩施土家族苗族自治州,湖北民院,,16,16,12,8,3,43,,60,59,11,4,4,5,0.2,0.3
2025-08-11T2100,2455A,109.4707,30.2798,恩施土家族苗族自治州,州电力总公司,,12,12,9,8,3,33,,56,54,14,9,3,3,0.6,0.5
2025-08-11T2100,3549A,109.5061,30.3772,恩施土家族苗族自治州,龙凤新区,,16,16,11,3,6,47,,65,62,2,7,4,4,0.5,0.4
2025-08-11T2100,2499A,108.3411,21.6158,防城港市,沙万,,31,31,25,18,14,36,,50,49,22,10,3,3,0.4,0.4
2025-08-11T2100,2500A,108.3514,21.7731,防城港市,防城档案局,,23,23,29,12,14,39,,52,48,26,18,2,2,0.5,0.6
2025-08-11T2100,2501A,108.3506,21.6414,防城港市,大海花园,,30,30,24,11,11,43,,60,55,14,8,5,4,0.4,0.4
2025-08-11T2100,1371A,113.1294,23.0067,佛山市,湾梁,,36,36,24,23,31,34,,89,72,40,22,6,6,0.5,0.4
2025-08-11T2100,1372A,113.1083,23.0478,佛山市,华材职中,,34,34,19,14,12,41,,96,84,34,12,8,8,0.7,0.6
2025-08-11T2100,1373A,113.144,23.0453,佛山市,南海气象局,,33,33,17,14,12,34,,88,75,36,13,5,4,0.7,0.6
2025-08-11T2100,1374A,113.2881,22.8094,佛山市,顺德苏岗,,41,41,24,17,8,8,,64,43,48,19,5,6,0.5,0.4
2025-08-11T2100,1376A,112.8383,22.8678,佛山市,高明孔堂,,27,27,20,13,10,55,,70,69,14,8,7,7,0.6,0.6
2025-08-11T2100,1377A,112.8836,23.1588,佛山市,三水监测站,,36,36,26,18,16,30,,80,69,46,23,7,7,0.5,0.5
2025-08-11T2100,1378A,112.867,23.185,佛山市,三水云东海,,34,34,32,23,18,55,,101,93,34,22,4,5,0.6,0.5
2025-08-11T2100,3625A,113.2544,22.7642,佛山市,容桂街道办,,36,36,13,22,11,30,,72,58,35,18,6,6,0.7,0.6
2025-08-11T2100,1280A,119.3903,26.0543,福州市,鼓山,,,,,,,,,,,,,,,,
2025-08-11T2100,1282A,119.2681,26.0504,福州市,师大,,39,39,29,14,10,51,,100,84,22,10,6,5,0.2,0.2
2025-08-11T2100,1283A,119.2984,26.1028,福州市,五四北路,,38,38,29,14,12,61,,107,93,16,12,5,4,0.3,0.3
2025-08-11T2100,1284A,119.2648,26.0768,福州市,杨桥西路,,38,38,30,14,12,60,,102,87,16,9,4,4,0.3,0.2
2025-08-11T2100,1285A,119.317,26.0746,福州市,紫阳,,38,38,31,13,10,48,,96,83,16,12,4,5,0.2,0.2
2025-08-11T2100,3048A,119.5799,26.0936,福州市,九龙,,26,26,24,10,8,59,,106,93,14,11,8,6,0.3,0.2
2025-08-11T2100,3526A,119.5189,25.9664,福州市,吴航,,33,33,22,14,9,56,,100,86,8,7,8,7,0.3,0.3
2025-08-11T2100,1755A,123.7977,41.8491,抚顺市,望花区,,50,50,45,25,15,109,,156,149,28,27,13,10,0.9,0.8
2025-08-11T2100,1756A,123.9161,41.8822,抚顺市,顺城区,,33,33,28,13,11,41,,122,99,39,24,5,5,0.7,0.7
2025-08-11T2100,1757A,124.0436,41.8611,抚顺市,东洲区,,20,13,16,8,8,61,,95,86,11,10,6,7,0.6,0.6
2025-08-11T2100,1758A,123.9247,41.8642,抚顺市,新抚区,,48,48,30,20,11,28,,116,94,31,19,5,5,0.8,0.7
2025-08-11T2100,1759A,124.0972,41.8961,抚顺市,大伙房水库,,,,16,12,10,,,101,95,18,11,7,7,0.5,0.5
2025-08-11T2100,1760A,123.7086,41.8391,抚顺市,沈抚新城,,39,39,42,18,17,86,,158,147,30,31,8,11,0.9,1.2
2025-08-11T2100,2376A,116.2127,28.0814,抚州市,桐源党溪,,44,44,41,24,23,24,,72,59,16,6,8,5,0.5,0.6
2025-08-11T2100,2377A,116.3544,27.9831,抚州市,市站,,38,38,30,22,18,82,,90,89,1,3,3,2,0.4,0.4
2025-08-11T2100,2378A,116.3565,27.963,抚州市,血防站,,37,37,33,23,19,76,,87,85,5,5,5,5,0.5,0.4
2025-08-11T2100,2379A,116.3564,28.0007,抚州市,采茶剧团,,41,41,30,27,17,66,,82,80,4,2,8,4,0.4,0.3
2025-08-11T2100,2380A,116.385,27.9647,抚州市,医学分院,,39,39,34,23,18,68,,86,84,2,2,3,4,0.5,0.4
2025-08-11T2100,2207A,121.6094,41.998,阜新市,工业园区,,34,15,37,7,18,107,,152,141,10,21,14,12,0.4,0.5
2025-08-11T2100,2208A,121.6697,42.0279,阜新市,长青街,,32,16,29,10,11,101,,141,135,15,16,9,10,0.3,0.5
2025-08-11T2100,2209A,121.6673,42.0705,阜新市,农业园区,,33,15,40,7,10,104,,131,131,8,13,5,13,0.5,0.7
2025-08-11T2100,2210A,121.6717,42.0224,阜新市,东苑,,34,16,44,8,12,108,,137,134,11,20,12,19,0.3,0.5
2025-08-11T2100,2211A,121.6506,42.0498,阜新市,玉龙新城,,35,16,40,10,11,111,,141,140,9,23,10,15,0.4,0.6
2025-08-11T2100,2301A,115.8277,32.8929,阜阳市,市监测站,,26,26,14,14,7,66,,94,90,11,11,4,4,0.1,0.1
2025-08-11T2100,2303A,115.8554,32.8605,阜阳市,开发区,,22,8,11,7,7,70,,95,93,8,8,6,6,0.3,0.3
2025-08-11T2100,2875A,115.784,32.8892,阜阳市,阜阳职业技术学院,,23,,11,6,6,72,,94,90,6,7,4,4,0.4,0.3
2025-08-11T2100,3468A,115.7901,32.8613,阜阳市,市规划展馆,,20,17,13,11,7,61,,93,87,7,6,2,2,0.3,0.3
2025-08-11T2100,3469A,115.836,32.9183,阜阳市,枣园社区,,23,22,16,12,9,73,,90,87,9,9,2,2,0.4,0.4
2025-08-11T2100,2669A,102.9099,34.9841,甘南藏族自治州,州政府,颗粒物(PM10),53,56,26,17,13,50,,105,99,28,12,4,3,0.5,0.3
2025-08-11T2100,3380A,102.8914,34.9617,甘南藏族自治州,甘肃民族师范学院,颗粒物(PM10),77,104,40,33,14,21,,114,104,48,13,4,4,0.2,0.2
2025-08-11T2100,2570A,101.9603,30.0475,甘孜藏族自治州,水桥子,,28,28,11,13,6,45,,82,72,32,16,6,6,0.4,0.3
2025-08-11T2100,3065A,101.9533,29.9972,甘孜藏族自治州,州环保局,,20,20,12,3,4,37,,93,80,31,13,4,4,0.4,0.3
2025-08-11T2100,3414A,115.8347,28.932,赣江新区,桑海产业园,,23,22,33,9,18,73,,117,92,10,14,4,6,0.4,0.4
2025-08-11T2100,2362A,114.9017,25.9149,赣州市,通天岩,,34,34,27,23,16,69,,89,73,4,4,13,18,0.8,0.7
2025-08-11T2100,2363A,114.9367,25.8664,赣州市,地委,,,33,26,18,16,,,105,103,14,8,6,8,0.6,0.5
2025-08-11T2100,2364A,114.9461,25.8481,赣州市,气象台,,37,37,26,18,14,95,,109,106,5,5,8,9,0.5,0.4
2025-08-11T2100,2365A,114.9322,25.8333,赣州市,市图书馆,,35,35,23,22,16,87,,105,102,10,7,3,4,0.5,0.4
2025-08-11T2100,2366A,114.8905,25.8471,赣州市,华坚鞋城,,41,41,32,28,18,76,,103,99,14,10,4,6,0.5,0.4
2025-08-11T2100,3109A,115.0093,25.8613,赣州市,赣县区卫计委,,,,25,,17,74,,100,94,9,12,8,4,,0.2
2025-08-11T2100,2683A,106.2319,36.1417,固原市,马园,细颗粒物(PM2.5),59,60,47,42,10,68,,123,106,50,20,7,6,0.5,0.5
2025-08-11T2100,2684A,106.2792,36.0022,固原市,监测站,颗粒物(PM10),51,51,36,18,14,110,,130,126,13,12,7,6,0.3,0.3
2025-08-11T2100,2685A,106.2375,36.0211,固原市,新区,,47,47,37,18,12,105,,123,120,17,11,7,7,0.2,0.4
2025-08-11T2100,3522A,106.2177,35.9959,固原市,原州区十五小,,48,48,38,16,14,110,,123,121,12,8,9,9,0.4,0.4
2025-08-11T2100,2543A,106.6308,30.5278,广安市,小平旧居,,,,,,,,,,,,,,,,
2025-08-11T2100,2544A,106.6303,30.4576,广安市,市委,,22,,6,15,11,50,,61,58,10,7,13,13,0.4,0.4
2025-08-11T2100,2545A,106.6271,30.4663,广安市,友谊中学,,18,17,11,10,7,57,,68,65,10,8,6,4,0.7,0.7
2025-08-11T2100,2547A,106.6388,30.4551,广安市,广电花园,,20,20,14,9,7,46,,56,52,9,7,2,2,0.5,0.5
2025-08-11T2100,2902A,106.6351,30.4865,广安市,北辰小学,,17,,10,11,8,52,,63,61,6,5,6,7,0.6,0.6
2025-08-11T2100,2523A,105.8945,32.4535,广元市,黑石坡,,25,18,12,15,8,77,,82,82,9,10,8,9,0.3,0.4
2025-08-11T2100,2524A,105.821,32.4444,广元市,老城,,32,15,12,6,7,101,,99,99,8,9,1,2,0.6,0.7
2025-08-11T2100,2526A,105.8628,32.4287,广元市,监测站,,28,9,12,8,7,87,,92,92,8,9,6,10,0.7,0.8
2025-08-11T2100,3617A,105.8047,32.4166,广元市,经开区,,31,15,15,10,8,97,,94,94,5,8,4,5,0.5,0.6
2025-08-11T2100,1345A,113.2347,23.1423,广州市,广雅中学,,48,48,25,32,12,21,,99,76,76,23,4,3,0.6,0.4
2025-08-11T2100,1346A,113.2612,23.105,广州市,市五中,,47,47,23,26,12,32,,107,85,71,22,8,5,1.1,0.8
2025-08-11T2100,1348A,113.3478,23.0916,广州市,广东商学院,颗粒物(PM10),51,51,22,25,13,29,,114,89,73,25,5,4,0.8,0.6
2025-08-11T2100,1349A,113.4332,23.1047,广州市,市八十六中,,42,40,23,29,11,42,,91,72,50,37,3,3,0.6,0.3
2025-08-11T2100,1350A,113.3505,22.9483,广州市,番禺中学,,32,32,22,16,11,19,,90,68,35,15,6,6,0.5,0.4
2025-08-11T2100,1351A,113.2146,23.3916,广州市,花都师范,,46,46,31,26,16,45,,123,104,45,24,5,6,0.6,0.5
2025-08-11T2100,1352A,113.2597,23.1331,广州市,市监测站,,42,42,24,25,12,24,,100,78,68,19,7,5,0.5,0.2
2025-08-11T2100,1353A,113.5618,23.312,广州市,九龙镇镇龙,,25,21,24,12,11,77,,99,98,12,26,6,7,0.5,0.5
2025-08-11T2100,1354A,113.2765,23.1544,广州市,麓湖,细颗粒物(PM2.5),65,,22,47,16,8,,90,66,74,22,2,2,0.7,0.4
2025-08-11T2100,1355A,113.443,23.3035,广州市,帽峰山森林公园,,26,24,15,8,8,83,,113,103,19,16,11,11,0.5,0.5
2025-08-11T2100,2846A,113.3221,23.1322,广州市,体育西,颗粒物(PM10),53,56,28,36,14,16,,109,79,85,28,4,3,0.9,0.5
2025-08-11T2100,3298A,113.5717,23.5491,广州市,从化街口,,30,22,29,12,14,94,,114,112,12,19,6,7,0.6,0.6
2025-08-11T2100,3299A,113.3472,23.3692,广州市,白云竹料,,32,32,30,21,15,61,,113,95,27,25,3,4,0.6,0.5
2025-08-11T2100,3300A,113.2981,23.237,广州市,白云嘉禾,,39,39,26,25,13,46,,105,86,46,28,4,4,0.6,0.4
2025-08-11T2100,3301A,113.4256,23.1716,广州市,黄埔科学城,,41,41,24,26,12,47,,96,74,32,22,8,9,0.7,0.4
2025-08-11T2100,3302A,113.3942,23.0483,广州市,番禺大学城,,45,36,28,31,13,39,,105,82,57,22,11,8,0.6,0.4
2025-08-11T2100,3303A,113.4922,22.8168,广州市,南沙黄阁,,22,22,25,8,10,42,,92,68,12,15,4,5,0.4,0.4
2025-08-11T2100,3304A,113.5342,22.7896,广州市,南沙街,,19,19,19,8,9,41,,94,69,10,13,4,5,0.4,0.4
2025-08-11T2100,3443A,113.2902,23.5544,广州市,花都梯面,,24,24,22,11,13,72,,128,117,23,17,5,5,0.5,0.5
2025-08-11T2100,3445A,113.7858,23.7478,广州市,从化良口,,17,15,19,8,13,53,,117,106,14,9,4,4,0.5,0.5
2025-08-11T2100,3446A,113.8051,23.2614,广州市,增城荔城,,23,18,25,8,12,73,,109,103,9,17,7,7,0.4,0.4
2025-08-11T2100,2505A,109.568,23.1478,贵港市,德智高中,,,,,,,,,,,,,,,,
2025-08-11T2100,2506A,109.6047,23.0666,贵港市,江南子站,颗粒物(PM10),62,73,27,33,17,44,,89,82,27,8,8,8,0.7,0.4
2025-08-11T2100,2508A,109.5669,23.1065,贵港市,荷城子站,,44,44,21,29,11,56,,88,86,12,7,7,7,0.6,0.5
2025-08-11T2100,3405A,109.5886,23.1172,贵港市,新世纪学校,颗粒物(PM10),58,66,28,40,18,54,,96,90,25,12,10,11,0.5,0.3
2025-08-11T2100,4260A,109.5933,23.0951,贵港市,中山路155-3号,,26,24,27,18,15,64,,101,96,16,8,4,4,0.4,0.4
2025-08-11T2100,1439A,106.6899,26.5998,贵阳市,马鞍山,,,14,17,,3,43,,71,59,7,7,2,3,0.2,0.1
2025-08-11T2100,1441A,106.6243,26.6266,贵阳市,鉴湖路,,22,22,28,3,6,57,,56,56,9,8,7,8,0.2,0.2
2025-08-11T2100,1442A,106.7487,26.6343,贵阳市,燕子冲,,14,14,16,7,16,44,,71,60,14,10,9,11,0,0
2025-08-11T2100,1443A,106.6555,26.4365,贵阳市,碧云窝,,24,24,30,3,9,56,,68,65,8,6,3,5,0.2,0.2
2025-08-11T2100,1445A,106.7109,26.6027,贵阳市,红边门,,22,9,21,7,12,68,,67,67,12,11,3,2,0.3,0.3
2025-08-11T2100,1446A,106.7164,26.5699,贵阳市,新华路,,24,24,26,12,14,66,,66,64,13,12,1,6,0.1,0.1
2025-08-11T2100,1447A,106.674,26.5424,贵阳市,太慈桥,,15,12,20,3,9,45,,54,49,13,11,4,5,0.2,0.1
2025-08-11T2100,1552A,106.805,26.3003,贵阳市,桐木岭,,25,19,30,17,18,72,,64,64,7,5,5,6,1.0,0.9
2025-08-11T2100,4230A,106.6882,26.5695,贵阳市,花果园大街66号,,22,,10,12,17,69,,65,65,12,9,3,4,0.3,0.4
2025-08-11T2100,4231A,106.6873,26.5169,贵阳市,漓江路57号,,20,7,17,3,10,63,,69,66,10,7,3,4,0.4,0.4
2025-08-11T2100,1862A,110.4144,25.3167,桂林市,电子科大尧山校区,,,,,,,,,,,,,,,,
2025-08-11T2100,1864A,110.3089,25.2708,桂林市,龙隐路小学,,39,39,31,18,17,51,,76,68,12,10,5,6,0.3,0.3
2025-08-11T2100,1865A,110.2869,25.2178,桂林市,八中,,20,19,31,14,15,55,,78,72,17,13,7,7,0.6,0.5
2025-08-11T2100,3531A,110.296,25.1253,桂林市,旅游学院,,39,31,25,27,16,61,,80,74,14,12,8,7,0.4,0.4
2025-08-11T2100,4222A,110.1835,25.2444,桂林市,环湖路276号,,31,31,30,17,15,74,,78,76,7,20,4,5,0.3,0.3
2025-08-11T2100,4301A,110.2803,25.2773,桂林市,信义路13号,,22,22,30,12,20,56,,81,74,22,12,4,5,0.6,0.6
2025-08-11T2100,2674A,100.2561,34.4714,果洛藏族自治州,玛沁县大武镇,,48,48,36,27,14,95,,131,128,5,8,13,14,0.2,0.3
2025-08-11T2100,1129A,126.5422,45.755,哈尔滨市,岭北,,21,18,6,9,4,65,,81,80,18,9,10,10,0.4,0.4
2025-08-11T2100,1130A,126.561,45.8167,哈尔滨市,松北商大,,24,24,11,10,3,20,,55,51,30,12,7,7,0.5,0.4
2025-08-11T2100,1131A,126.979,45.5419,哈尔滨市,阿城会宁,,48,48,23,20,9,18,,72,64,43,20,10,9,0.7,0.6
2025-08-11T2100,1132A,126.599,45.7222,哈尔滨市,南岗学府路,,48,48,17,12,3,42,,67,63,34,11,8,8,0.7,0.5
2025-08-11T2100,1133A,126.689,45.7733,哈尔滨市,太平宏伟公园,,42,42,14,10,6,34,,67,64,32,8,6,6,0.6,0.5
2025-08-11T2100,1134A,126.635,45.7667,哈尔滨市,道外承德广场,,33,33,22,3,4,49,,68,65,22,8,7,7,0.3,0.3
2025-08-11T2100,1135A,126.685,45.7319,哈尔滨市,香坊红旗大街,,46,46,13,29,7,38,,66,62,34,12,10,7,0.8,0.6
2025-08-11T2100,1136A,126.6411,45.7258,哈尔滨市,动力和平路,,43,43,14,11,3,43,,74,69,35,11,6,5,0.6,0.5
2025-08-11T2100,1137A,126.593,45.7478,哈尔滨市,道里建国路,,23,23,11,3,4,52,,71,68,25,8,6,6,0.8,0.6
2025-08-11T2100,1138A,126.615,45.61,哈尔滨市,平房东轻厂,,22,22,15,7,5,29,,58,48,38,20,7,7,0.7,0.5
2025-08-11T2100,1139A,126.595,45.9855,哈尔滨市,呼兰师专,,38,38,15,9,2,16,,60,54,42,9,6,6,0.6,0.4
2025-08-11T2100,1140A,126.6206,45.6842,哈尔滨市,省农科院,,,71,27,35,10,12,,61,52,70,15,,5,,0.5
2025-08-11T2100,2688A,93.5128,42.8172,哈密市,地区监测站,,,34,51,,17,96,,107,107,11,10,2,2,0.2,0.2
2025-08-11T2100,2689A,93.4961,42.8328,哈密市,哈密师范学校,,38,38,40,10,11,87,,105,103,17,11,8,8,0.3,0.3
2025-08-11T2100,2671A,100.9048,36.9639,海北藏族自治州,海晏县西海镇,,31,24,20,14,16,99,,121,119,3,4,5,6,0.6,0.6
2025-08-11T2100,3867A,102.0738,36.5056,海东市,平安区公安北苑,,39,39,28,13,14,115,,133,131,6,7,12,10,0.6,0.7
2025-08-11T2100,1409A,110.576,19.9507,海口市,东寨港,,12,11,16,7,8,36,,52,50,5,3,2,7,0.4,0.4
2025-08-11T2100,1410A,110.3232,20.0574,海口市,海南大学,,28,28,17,18,10,48,,77,71,10,4,3,3,0.4,0.4
2025-08-11T2100,1411A,110.283,20.0053,海口市,秀英海南医院,,25,23,21,17,12,29,,64,56,20,12,6,6,0.3,0.3
2025-08-11T2100,1412A,110.338,19.9969,海口市,海南师范大学,,25,22,20,17,12,40,,71,62,10,6,4,4,0.6,0.4
2025-08-11T2100,1413A,110.33,20.0356,海口市,龙华路环保局宿舍,,23,22,18,16,10,42,,71,66,12,6,5,6,0.4,0.3
2025-08-11T2100,3539A,110.5111,19.9736,海口市,桂林洋子站,,,26,22,19,12,38,,62,55,,6,6,5,0.3,0.2
2025-08-11T2100,2673A,100.6188,36.2866,海南藏族自治州,共和县恰卜恰镇,颗粒物(PM10),52,54,28,9,12,125,,137,137,5,10,10,10,0.5,0.5
2025-08-11T2100,2676A,97.3731,37.3753,海西蒙古族藏族自治州,德令哈市,颗粒物(PM10),54,57,56,15,17,137,,132,132,2,6,17,17,0.4,0.4
2025-08-11T2100,1048A,114.5302,36.6116,邯郸市,东污水处理厂,,42,42,36,24,26,134,,175,167,12,14,6,9,0.5,0.6
2025-08-11T2100,1049A,114.4918,36.5713,邯郸市,矿院,,43,28,31,9,11,135,,172,165,11,14,22,12,0.5,0.6
2025-08-11T2100,1050A,114.484,36.6133,邯郸市,丛台公园,,47,34,29,19,20,148,,176,170,9,14,8,7,0.5,0.6
2025-08-11T2100,3458A,114.7895,36.5593,邯郸市,香泉濮院小区,颗粒物(PM10),51,51,42,3,5,142,,167,165,11,10,2,4,0.3,0.3
2025-08-11T2100,3579A,114.50634,36.77178,邯郸市,永年区实验高中,,48,42,50,29,22,152,,188,177,12,21,4,6,0.4,0.5
2025-08-11T2100,3580A,114.20016,36.44293,邯郸市,峰峰矿区临水派出所,臭氧1小时,68,42,35,6,3,174,,200,194,8,11,4,6,0.3,0.5
2025-08-11T2100,2634A,106.9893,33.1842,汉中市,汉川机床厂子校,,46,46,16,8,5,64,,91,88,18,10,3,3,0.5,0.5
2025-08-11T2100,2635A,107.0154,33.0706,汉中市,市监测站,,25,19,18,3,5,79,,90,90,6,6,6,6,0.7,0.7
2025-08-11T2100,2636A,107.0089,33.1138,汉中市,鑫源开发区,,22,16,16,8,5,70,,93,91,12,6,6,6,0.5,0.4
2025-08-11T2100,2637A,107.007,33.0323,汉中市,南郑大河坎水厂,,23,16,17,7,5,71,,93,90,12,8,4,5,0.5,0.4
2025-08-11T2100,1223A,120.2072,30.2111,杭州市,滨江,,40,40,39,18,19,68,,116,94,23,24,6,6,0.5,0.5
2025-08-11T2100,1224A,120.0633,30.2747,杭州市,西溪,,38,30,25,26,22,82,,85,76,12,16,7,8,0.6,0.4
2025-08-11T2100,1226A,120.3417,30.3150,杭州市,下沙,,29,29,29,17,18,49,,113,79,27,26,6,10,0.5,0.4
2025-08-11T2100,1227A,120.1269,30.2456,杭州市,卧龙桥,,43,36,28,30,22,65,,93,73,20,14,7,7,0.6,0.6
2025-08-11T2100,1228A,120.1903,30.2692,杭州市,浙江农大,颗粒物(PM10),55,60,48,30,25,66,,90,73,21,27,5,5,0.5,0.5
2025-08-11T2100,1230A,120.1197,30.3119,杭州市,和睦小学,,33,33,30,21,18,76,,97,86,13,19,6,6,0.6,0.5
2025-08-11T2100,1231A,120.3019,30.4183,杭州市,临平镇,,25,25,36,11,18,70,,123,90,10,21,6,6,0.5,0.4
2025-08-11T2100,1232A,120.2753,30.1839,杭州市,城厢镇,,43,40,36,30,24,65,,122,100,13,16,7,7,0.7,0.7
2025-08-11T2100,1233A,120.0883,30.1808,杭州市,云栖,,33,33,30,21,16,48,,102,75,26,19,10,9,0.8,0.8
2025-08-11T2100,3557A,119.9464,30.0494,杭州市,镇二中,,45,45,40,29,29,63,,99,75,17,20,4,5,0.5,0.5
2025-08-11T2100,3558A,119.7183,30.2367,杭州市,市府大楼,,38,34,26,26,22,76,,83,79,12,11,8,8,0.6,0.5
2025-08-11T2100,3656A,120.1556,30.2864,杭州市,消防大队,,35,33,31,24,22,72,,100,87,17,20,6,6,0.8,0.6
2025-08-11T2100,1270A,117.1959,31.7848,合肥市,明珠广场,,19,6,4,3,4,58,,83,74,18,11,5,5,0.6,0.5
2025-08-11T2100,1271A,117.3072,31.8764,合肥市,三里街,,19,,2,3,2,58,,73,67,11,8,5,5,0.5,0.5
2025-08-11T2100,1272A,117.2588,31.8707,合肥市,琥珀山庄,,22,7,6,6,5,69,,82,75,10,9,7,7,0.7,0.6
2025-08-11T2100,1273A,117.1604,31.9052,合肥市,董铺水库,,17,6,4,3,3,53,,72,67,6,4,5,5,0.4,0.3
2025-08-11T2100,1274A,117.25,31.8571,合肥市,长江中路,,21,7,6,3,1,65,,85,78,11,7,6,6,0.5,0.4
2025-08-11T2100,1275A,117.266,31.9436,合肥市,庐阳区,,20,12,7,3,1,62,,84,78,15,9,5,5,0.6,0.5
2025-08-11T2100,1276A,117.3453,31.8616,合肥市,瑶海区,,21,6,2,3,3,66,,82,77,9,7,6,6,0.7,0.7
2025-08-11T2100,1277A,117.3027,31.7964,合肥市,包河区,,24,6,4,3,3,30,,65,52,47,26,6,6,0.7,0.6
2025-08-11T2100,1278A,117.2776,31.7385,合肥市,滨湖新区,,21,,7,7,8,66,,80,76,11,13,7,8,0.6,0.6
2025-08-11T2100,1279A,117.1318,31.8403,合肥市,高新区,,20,7,5,3,3,64,,84,79,17,10,5,5,0.6,0.6
2025-08-11T2100,3464A,117.3803,31.9147,合肥市,高教基地,,17,6,3,3,2,54,,71,63,7,6,5,5,0.5,0.4
2025-08-11T2100,3614A,79.924,37.0877,和田地区,地区环保局,颗粒物(PM10),112,173,195,43,86,132,,131,131,15,14,1,2,0.3,0.3
2025-08-11T2100,3615A,79.9131,37.113,和田地区,市环保局,颗粒物(PM10),94,137,176,30,51,122,,129,129,27,27,1,2,0.2,0.2
2025-08-11T2100,2516A,108.2011,24.715,河池市,东仁乐园,,,,,,,,,,,,,,,,
2025-08-11T2100,2517A,108.0497,24.6947,河池市,市环保站,,19,15,22,12,13,59,,73,69,3,7,4,6,0.5,0.6
2025-08-11T2100,2518A,108.0983,24.6989,河池市,市疾控中心,,28,24,24,19,16,45,,76,70,20,13,6,6,0.7,0.6
2025-08-11T2100,1696A,114.6778,23.7569,河源市,源西,,15,15,20,10,10,36,,64,60,10,5,11,11,0.7,0.7
2025-08-11T2100,1697A,114.6944,23.7586,河源市,东埔,,18,18,18,9,10,51,,65,61,14,10,4,4,0.4,0.4
2025-08-11T2100,1698A,114.6892,23.7233,河源市,老城,,,30,18,13,8,,,65,65,10,8,6,5,,0.4
2025-08-11T2100,1718A,115.4208,35.2464,菏泽市,气象局,,35,24,28,14,19,110,,142,136,12,13,3,2,0.4,0.4
2025-08-11T2100,3374A,115.5564,35.0891,菏泽市,定陶老年大学,,30,19,22,12,13,96,,134,128,11,10,4,4,0.2,0.2
2025-08-11T2100,4184A,115.4797,35.24401,菏泽市,永昌路1号,,34,27,27,16,22,106,,133,129,16,12,7,6,0.3,0.3
2025-08-11T2100,4193A,115.4715,35.2800,菏泽市,长城路999号,,40,16,24,8,14,126,,146,144,11,12,5,5,0.3,0.4
2025-08-11T2100,2514A,111.5264,24.4172,贺州市,环保小区,,39,39,33,21,21,43,,89,72,14,11,12,12,1.0,0.8
2025-08-11T2100,2515A,111.5608,24.4078,贺州市,政协大楼,,,,31,,23,39,,101,82,20,11,14,14,0.9,0.7
2025-08-11T2100,3534A,111.4744,24.4553,贺州市,西湾,,,,39,,24,,,57,,,12,,9,,0.4
2025-08-11T2100,2385A,114.17,35.9019,鹤壁市,市监测站,细颗粒物(PM2.5),62,58,35,44,21,155,,179,178,12,9,7,8,0.7,0.7
2025-08-11T2100,2386A,114.2956,35.7511,鹤壁市,市交警支队,,46,46,40,32,31,134,,170,167,17,17,8,10,1.2,0.8
2025-08-11T2100,2387A,114.2878,35.7306,鹤壁市,迎宾馆,细颗粒物(PM2.5),54,56,57,38,31,138,,173,170,14,16,6,8,0.7,0.8
2025-08-11T2100,3474A,114.2617,35.6822,鹤壁市,大新区,,48,48,49,25,27,120,,160,157,12,13,8,10,0.6,0.7
2025-08-11T2100,3596A,114.1572,35.9603,鹤壁市,南山宾馆,臭氧1小时,58,63,40,28,25,166,,187,186,11,8,5,7,0.5,0.5
2025-08-11T2100,2244A,130.2537,47.3416,鹤岗市,哈啤分公司,,27,27,18,14,5,14,,74,55,9,4,12,12,0.6,0.4
2025-08-11T2100,2245A,130.2684,47.3086,鹤岗市,斯达机电,,36,36,22,20,9,35,,74,69,22,5,11,12,0.7,0.5
2025-08-11T2100,2246A,130.3114,47.3388,鹤岗市,东山纸板厂,,29,29,14,11,10,4,,77,61,25,8,14,13,0.9,0.7
2025-08-11T2100,2247A,130.1097,47.3382,鹤岗市,五号水库,,7,7,5,3,5,18,,65,52,12,7,10,10,0.1,0.1
2025-08-11T2100,2263A,127.4833,50.2524,黑河市,交通局,,32,32,20,10,7,3,,45,32,33,12,6,5,0.4,0.2
2025-08-11T2100,2264A,127.5144,50.2341,黑河市,环保局,颗粒物(PM10),61,72,31,39,12,5,,46,37,47,13,10,10,1.0,0.3
2025-08-11T2100,2265A,127.5291,50.2472,黑河市,大黑河岛,,,2,3,,7,10,,36,32,32,8,26,23,,
2025-08-11T2100,1074A,115.6838,37.7541,衡水市,电机北厂,,48,48,37,19,18,145,,150,150,8,9,6,5,1.0,0.4
2025-08-11T2100,1075A,115.6303,37.7316,衡水市,市监测站,,49,49,32,14,13,136,,151,148,11,12,8,7,0.6,0.5
2025-08-11T2100,3188A,115.6683,37.7217,衡水市,市城管局,,46,46,35,28,18,127,,151,148,16,17,7,6,0.4,0.3
2025-08-11T2100,3459A,115.5989,37.5491,衡水市,地表水厂,颗粒物(PM10),51,51,45,16,11,129,,148,145,17,25,10,9,0.4,0.3
2025-08-11T2100,2456A,112.5003,26.9167,衡阳市,原169医院,,35,35,36,20,17,73,,86,83,1,2,4,5,0.7,0.6
2025-08-11T2100,2457A,112.6194,26.9258,衡阳市,衡阳化工总厂,,39,35,39,27,25,80,,87,83,5,7,2,4,0.8,0.8
2025-08-11T2100,2458A,112.6211,26.8956,衡阳市,珠晖区环保局,颗粒物(PM10),59,67,36,18,18,71,,94,86,15,8,5,8,0.7,0.7
2025-08-11T2100,2459A,112.6197,26.8733,衡阳市,市委党校,,34,34,28,20,19,72,,86,80,9,8,10,10,0.5,0.4
2025-08-11T2100,2460A,112.6006,26.8919,衡阳市,市监测站,,42,38,31,29,22,77,,85,82,9,10,4,9,0.6,0.6
2025-08-11T2100,2461A,112.5664,26.9056,衡阳市,真空机电公司,,38,38,31,21,20,74,,83,81,6,10,4,10,0.7,0.9
2025-08-11T2100,3399A,112.6703,26.882,衡阳市,师范学院,,40,40,43,22,24,68,,86,79,9,9,10,8,0.8,0.8
2025-08-11T2100,2608A,103.3772,23.3993,红河哈尼族彝族自治州,污水处理厂,,30,29,18,21,18,39,,42,41,6,6,7,8,0.3,0.3
2025-08-11T2100,2609A,103.3861,23.35,红河哈尼族彝族自治州,监测站,,30,30,24,13,13,36,,40,39,6,4,11,10,0.3,0.2
2025-08-11T2100,3038A,103.3758,23.368,红河哈尼族彝族自治州,州图书馆,,25,20,12,17,18,42,,42,41,5,4,1,1,0.2,0.2
2025-08-11T2100,1090A,111.6507,40.7517,呼和浩特市,呼市一监,,,97,34,28,19,,,137,135,23,17,4,9,0.4,0.5
2025-08-11T2100,1091A,111.6572,40.8033,呼和浩特市,小召,颗粒物(PM10),78,105,44,29,22,77,,140,133,56,26,10,10,1.0,0.7
2025-08-11T2100,1094A,111.7516,40.8369,呼和浩特市,如意水处理厂,颗粒物(PM10),58,65,40,21,19,88,,160,154,37,25,6,6,0.7,0.5
2025-08-11T2100,1095A,111.7276,40.8062,呼和浩特市,二十九中,颗粒物(PM10),66,81,39,27,22,105,,160,155,34,24,7,7,0.9,0.8
2025-08-11T2100,1096A,111.5512,40.7866,呼和浩特市,工大金川校区,颗粒物(PM10),64,77,42,17,18,67,,141,132,52,26,7,6,0.7,0.6
2025-08-11T2100,1097A,111.717,40.7612,呼和浩特市,化肥厂生活区,颗粒物(PM10),63,76,39,27,19,89,,148,140,33,23,6,7,0.6,0.5
2025-08-11T2100,3698A,111.5968,40.8178,呼和浩特市,红旗小学,颗粒物(PM10),60,70,39,25,19,100,,160,153,38,28,7,6,0.5,0.4
2025-08-11T2100,3699A,111.6518,40.8389,呼和浩特市,海东办,颗粒物(PM10),67,83,45,20,21,78,,162,153,50,32,6,6,0.7,0.5
2025-08-11T2100,2192A,119.7594,49.2261,呼伦贝尔市,区环保局,,19,16,36,13,21,36,,50,48,10,14,4,5,0.7,1.7
2025-08-11T2100,3061A,119.7512,49.1577,呼伦贝尔市,国华电力东,,15,14,15,8,9,45,,54,52,5,8,8,9,0.6,0.6
2025-08-11T2100,1250A,120.0751,30.8669,湖州市,城西水厂,,18,15,32,11,22,56,,95,76,21,21,7,7,0.5,0.5
2025-08-11T2100,2873A,120.0830,30.8929,湖州市,仁皇山新区,,16,13,32,9,20,51,,94,74,14,20,5,4,0.6,0.6
2025-08-11T2100,2907A,120.1844,30.8596,湖州市,吴兴区站,,24,24,27,11,19,49,,97,72,10,15,6,6,0.7,0.7
2025-08-11T2100,3562A,120.4148,30.8538,湖州市,南浔区站,,20,16,27,7,22,64,,114,90,7,12,8,4,0.9,0.8
2025-08-11T2100,1607A,120.9049,40.7211,葫芦岛市,龙港区,,39,9,46,9,37,122,,182,150,6,12,5,7,0.5,0.8
2025-08-11T2100,1608A,120.8392,40.7514,葫芦岛市,化工街,,35,17,34,12,18,109,,139,126,10,27,7,10,0.5,0.7
2025-08-11T2100,1609A,120.8341,40.7073,葫芦岛市,新区,,37,16,43,11,35,118,,143,136,6,15,4,6,0.6,0.9
2025-08-11T2100,1610A,120.8695,40.7677,葫芦岛市,东城区,,,19,40,15,26,,,142,131,14,27,6,11,0.7,0.8
2025-08-11T2100,2482A,109.5981,27.5721,怀化市,林科所,,32,32,28,12,6,55,,80,69,4,5,4,4,0.7,0.6
2025-08-11T2100,2483A,109.9453,27.5444,怀化市,河西地税局,,31,31,23,21,17,50,,70,63,4,5,2,3,0.2,0.2
2025-08-11T2100,2484A,109.9781,27.5342,怀化市,市四医院,,30,30,28,17,18,52,,77,66,2,5,4,5,0.0,0
2025-08-11T2100,2485A,109.9972,27.5578,怀化市,监测楼,,,49,29,21,17,,,77,68,4,7,4,4,0.1,0.1
2025-08-11T2100,2486A,110.0394,27.583,怀化市,市委党校,,37,37,29,15,19,47,,71,61,7,11,6,7,0.2,0.1
2025-08-11T2100,1210A,119.036,33.5981,淮安市,钵池山,,19,12,7,11,11,60,,83,76,17,9,8,8,0.5,0.5
2025-08-11T2100,1211A,119.007,33.575,淮安市,北京南路,,23,17,11,8,8,72,,86,81,11,10,7,7,0.6,0.5
2025-08-11T2100,1212A,118.989,33.6067,淮安市,市监测站,,,,10,14,9,,,94,90,10,7,8,8,0.5,0.6
2025-08-11T2100,1213A,119.135,33.5039,淮安市,楚州区监测站,,21,20,14,6,6,66,,82,77,12,9,7,7,0.5,0.5
2025-08-11T2100,3426A,118.8755,33.2894,淮安市,新华书店,,24,,7,7,8,76,,82,81,7,8,5,6,0.4,0.4
2025-08-11T2100,4206A,119.0288,33.6319,淮安市,承德北路606号,,22,22,15,7,7,62,,79,74,10,6,4,4,0.5,0.5
2025-08-11T2100,2282A,116.8004,33.975,淮北市,监测站,,32,14,11,8,7,100,,126,121,8,7,6,6,0.7,0.6
2025-08-11T2100,2283A,116.8091,33.9007,淮北市,烈山区政府,,26,20,11,6,3,81,,119,112,15,5,9,8,0.4,0.4
2025-08-11T2100,3330A,116.8873,33.9836,淮北市,杜集区检察院,,29,12,12,6,9,90,,120,113,9,6,7,7,0.6,0.6
2025-08-11T2100,4017A,116.7923,33.9535,淮北市,市博物馆,,34,10,11,3,8,108,,130,126,6,6,9,9,0.4,0.5
2025-08-11T2100,2277A,116.8305,32.7727,淮南市,潘集区政府,,20,17,15,7,8,62,,78,75,9,9,3,3,0.2,0.2
2025-08-11T2100,2279A,116.8569,32.5951,淮南市,谢家集区政府,,22,10,8,3,3,68,,80,76,6,4,6,6,0.2,0.2
2025-08-11T2100,2280A,116.8281,32.633,淮南市,八公山区政府,,19,13,7,12,6,60,,82,77,8,6,3,3,0.3,0.3
2025-08-11T2100,2281A,116.6325,32.6201,淮南市,焦岗湖风景区管理处,,,,,,,,,,,,,,,,
2025-08-11T2100,2894A,117.0566,32.6531,淮南市,经济技术开发区消防队,,21,10,7,6,5,66,,82,78,13,9,8,8,0.2,0.2
2025-08-11T2100,3329A,117.0108,32.5893,淮南市,山南新区,,25,9,5,3,6,77,,86,82,7,6,9,9,0.3,0.3
2025-08-11T2100,4209A,117.0031,32.6445,淮南市,国庆中路369号,,25,25,15,10,7,72,,84,80,10,6,3,4,0.4,0.3
2025-08-11T2100,2446A,114.9028,30.4742,黄冈市,职工中心,,26,13,14,3,6,81,,90,90,10,9,10,10,0.6,0.7
2025-08-11T2100,2929A,114.8858,30.4519,黄冈市,红卫路,,23,11,12,7,9,71,,83,83,12,10,7,7,0.5,0.5
2025-08-11T2100,3398A,114.9136,30.4445,黄冈市,市林业局,,25,11,12,3,6,78,,90,90,9,7,7,7,0.6,0.6
2025-08-11T2100,2672A,102.0199,35.5102,黄南藏族自治州,同仁县隆务镇,,37,37,25,10,10,91,,125,123,3,3,10,9,0.3,0.3
2025-08-11T2100,2295A,118.2903,29.6963,黄山市,延安路89号,,30,30,37,19,16,68,,92,86,3,5,4,4,0.4,0.4
2025-08-11T2100,2297A,118.1371,30.2756,黄山市,黄山区政府5号楼,,21,21,33,6,19,28,,93,64,6,5,4,4,0.2,0.3
2025-08-11T2100,4210A,118.3354,29.7203,黄山市,滨江东路7-2号,,22,22,32,3,13,66,,91,85,3,5,2,2,0.4,0.4
2025-08-11T2100,2423A,115.0601,30.2313,黄石市,沈家营,,24,24,40,3,4,55,,60,60,3,11,8,7,0.6,0.4
2025-08-11T2100,2426A,114.8988,30.2019,黄石市,铁山,,14,14,22,3,6,41,,48,48,14,16,4,4,0.3,0.3
2025-08-11T2100,2427A,115.0307,30.2092,黄石市,团城山,,20,16,22,3,2,62,,65,65,3,6,7,7,0.5,0.5
2025-08-11T2100,3149A,115.0235,30.1578,黄石市,笔架山北路,,,10,19,,2,68,,68,68,4,9,7,7,0.4,0.4
2025-08-11T2100,4185A,115.0780,30.21118,黄石市,磁湖东路29号,,24,24,40,3,5,66,,63,63,2,9,8,7,0.6,0.8
2025-08-11T2100,1392A,114.4183,23.0528,惠州市,河南岸金山湖子站,,30,30,16,13,6,69,,82,78,14,13,6,7,0.5,0.5
2025-08-11T2100,1393A,114.4053,23.0822,惠州市,下埔横江三路子站,,26,26,15,17,9,72,,89,86,13,9,4,4,0.5,0.4
2025-08-11T2100,1394A,114.4103,23.1142,惠州市,江北云山西路子站,,27,27,15,15,7,68,,90,85,17,13,7,8,0.6,0.5
2025-08-11T2100,1395A,114.4645,22.7833,惠州市,惠阳区承修路船湖子站,,36,36,18,21,7,61,,75,75,22,12,9,7,0.7,0.5
2025-08-11T2100,1396A,114.5317,22.7422,惠州市,大亚湾管委会子站,,,20,15,8,6,,,75,75,25,13,8,8,0.5,0.4
2025-08-11T2100,3314A,114.4338,22.8134,惠州市,惠阳秋长,,24,24,15,11,8,73,,78,78,13,12,6,4,0.5,0.4
2025-08-11T2100,3452A,114.6517,22.775,惠州市,大亚湾霞涌,,19,19,10,11,7,58,,71,71,15,11,4,5,0.6,0.5
2025-08-11T2100,2240A,130.9762,45.3001,鸡西市,环保局,,26,26,15,9,6,18,,69,58,28,8,6,6,0.5,0.3
2025-08-11T2100,2243A,130.9429,45.3039,鸡西市,第一中学,,30,30,32,12,8,27,,67,58,28,10,11,11,0.5,0.3
2025-08-11T2100,3707A,131.0207,45.3073,鸡西市,欧美日汽修厂,,45,45,21,11,7,8,,64,52,40,15,9,10,0.6,0.5
2025-08-11T2100,3709A,130.9967,45.3106,鸡西市,市政设施管理处,,29,29,20,14,7,27,,68,58,24,15,7,7,0.6,0.5
2025-08-11T2100,2367A,114.9754,27.0803,吉安市,红声器材厂,,39,39,36,19,21,78,,104,81,7,5,11,10,0.6,0.6
2025-08-11T2100,2368A,114.9658,27.0999,吉安市,市森林工业局,,33,33,35,22,21,82,,104,85,5,5,10,10,0.4,0.5
2025-08-11T2100,2369A,114.99,27.1312,吉安市,市环境监测站,,30,30,26,17,19,79,,110,86,4,4,11,12,0.7,0.6
2025-08-11T2100,2370A,115.0093,27.0968,吉安市,青原区法院,,39,39,32,23,20,68,,103,82,11,7,7,8,0.6,0.5
2025-08-11T2100,1772A,126.54,43.8622,吉林市,哈达湾,,26,26,29,14,14,57,,166,132,19,23,8,15,0.5,0.5
2025-08-11T2100,1773A,126.5844,43.8358,吉林市,东局子,,24,24,25,8,8,48,,156,108,21,21,6,8,0.7,0.7
2025-08-11T2100,1774A,126.5052,43.8245,吉林市,电力学院,,43,43,28,22,12,44,,168,137,28,20,7,11,0.6,0.5
2025-08-11T2100,1775A,126.6133,43.8972,吉林市,江北,,22,22,22,8,8,48,,102,88,9,10,4,6,0.4,0.7
2025-08-11T2100,1776A,126.555,43.8306,吉林市,江南公园,,33,33,23,14,11,63,,181,132,23,24,2,6,0.4,0.6
2025-08-11T2100,1778A,126.7061,43.7133,吉林市,丰满,,24,13,10,11,7,75,,168,158,6,8,5,5,0.5,0.5
2025-08-11T2100,2868A,126.4739,43.953,吉林市,九站,,32,29,39,22,23,53,,145,118,15,25,4,19,0.5,0.6
2025-08-11T2100,1299A,116.9862,36.6114,济南市,科干所,,35,24,25,12,24,109,,134,130,11,10,6,6,0.4,0.5
2025-08-11T2100,1300A,116.9376,36.665,济南市,农科所,,33,32,29,15,17,103,,127,124,18,18,8,8,0.3,0.4
2025-08-11T2100,1301A,117.1265,36.6734,济南市,开发区,,34,22,27,15,22,107,,124,123,12,15,7,7,0.5,0.5
2025-08-11T2100,1303A,117.0624,36.6868,济南市,省种子仓库,,39,29,34,12,17,124,,141,138,13,16,4,5,0.5,0.6
2025-08-11T2100,1304A,116.9489,36.6447,济南市,机床二厂,,36,27,34,7,16,115,,132,130,12,16,9,9,0.3,0.4
2025-08-11T2100,1305A,117.0495,36.663,济南市,市监测站,,37,20,27,12,17,116,,130,127,15,17,9,10,0.5,0.6
2025-08-11T2100,1306A,116.7675,36.5484,济南市,长清党校,,37,22,29,22,24,118,,128,126,13,17,6,6,0.5,0.5
2025-08-11T2100,1616A,117.6795,36.229,济南市,技术学院,,36,31,22,22,19,114,,138,136,20,13,16,9,2.2,0.9
2025-08-11T2100,1961A,117.532,36.6868,济南市,东山小学,,44,44,31,24,18,107,,144,141,17,16,6,6,0.3,0.4
2025-08-11T2100,3059A,117.7161,36.2049,济南市,泰兴公司,,,,26,,19,,,130,130,26,19,12,11,0.6,0.6
2025-08-11T2100,3064A,117.6867,36.2171,济南市,莱芜战役纪念馆,,36,27,26,17,17,114,,130,129,18,15,7,6,1.9,1.1
2025-08-11T2100,3494A,117.1673,36.9782,济南市,济阳区政府,,42,42,48,24,23,131,,164,156,16,19,8,9,0.4,0.4
2025-08-11T2100,3495A,117.1171,36.63,济南市,锦屏中学,,27,20,23,12,15,85,,128,118,14,13,6,7,0.6,0.6
2025-08-11T2100,3682A,116.9814,36.6819,济南市,济南四建,,40,19,29,12,19,125,,142,139,14,17,6,6,0.5,0.6
2025-08-11T2100,1653A,116.6251,35.4302,济宁市,火炬城,,28,22,24,7,8,87,,105,102,5,3,4,4,0.5,0.5
2025-08-11T2100,1655A,116.5491,35.4042,济宁市,电化厂,,30,25,22,7,11,94,,114,110,9,6,2,2,0.7,0.7
2025-08-11T2100,3500A,116.5814,35.3707,济宁市,北湖一中,,35,16,19,12,10,112,,115,114,3,3,4,3,0.2,0.3
2025-08-11T2100,3501A,116.8249,35.5593,济宁市,服务中心,,32,25,19,6,7,100,,119,116,8,8,2,2,0.2,0.3
2025-08-11T2100,3678A,116.5907,35.4054,济宁市,市第七中学,,32,12,19,7,5,100,,105,104,3,3,8,7,0.4,0.4
2025-08-11T2100,2255A,130.2751,46.8028,佳木斯市,佳纺,,20,20,10,8,4,10,,45,38,21,13,9,8,0.4,0.4
2025-08-11T2100,2256A,130.3995,46.8307,佳木斯市,发电厂,,23,23,10,12,7,6,,46,42,32,12,6,6,0.6,0.5
2025-08-11T2100,2257A,130.3258,46.7975,佳木斯市,环保局,,10,10,11,7,4,25,,46,45,20,13,8,8,0.5,0.5
2025-08-11T2100,2258A,130.3648,46.8032,佳木斯市,十一中,,18,18,8,8,7,18,,41,39,26,13,8,7,0.6,0.5
2025-08-11T2100,2259A,130.3794,46.7588,佳木斯市,四丰,,,,,,,,,,,,,,,,
2025-08-11T2100,1252A,120.7436,30.778,嘉兴市,清河小学,,23,10,38,6,19,72,,145,110,11,20,6,6,0.8,0.8
2025-08-11T2100,1253A,120.726,30.7478,嘉兴市,嘉兴学院,,25,25,37,9,22,65,,153,110,13,22,4,5,0.6,0.7
2025-08-11T2100,2872A,120.7846,30.7525,嘉兴市,南湖区残联,,24,10,38,9,26,75,,158,115,8,19,5,6,0.6,0.7
2025-08-11T2100,3407A,120.6916,30.7739,嘉兴市,秀洲住建,,22,13,34,8,20,69,,146,109,10,21,6,5,0.7,0.7
2025-08-11T2100,1945A,98.2908,39.7711,嘉峪关市,气象局,颗粒物(PM10),93,136,84,17,14,113,,129,127,13,13,16,16,1.1,1
2025-08-11T2100,2884A,98.2672,39.7978,嘉峪关市,酒钢宾馆,,,,62,,16,,,147,147,14,10,,28,,0.7
2025-08-11T2100,3248A,98.2643,39.7724,嘉峪关市,雄关区,颗粒物(PM10),71,91,60,18,17,104,,121,120,19,20,16,13,1.1,0.5
2025-08-11T2100,1383A,113.1064,22.6058,江门市,北街,,12,12,16,8,9,38,,60,54,10,8,3,3,0.4,0.4
2025-08-11T2100,1384A,113.0731,22.5835,江门市,西区,,16,16,23,7,8,32,,59,53,14,9,6,6,0.7,0.6
2025-08-11T2100,1385A,113.0219,22.5311,江门市,圭峰西,,15,14,21,10,11,34,,53,47,12,7,8,8,0.5,0.5
2025-08-11T2100,1386A,113.0828,22.5947,江门市,东湖,,,25,16,9,9,,,57,54,12,8,7,7,0.4,0.4
2025-08-11T2100,3311A,113.1075,22.5647,江门市,江海富民,,22,22,25,15,12,38,,63,56,11,9,8,8,0.2,0.2
2025-08-11T2100,3449A,113.05,22.4667,江门市,新会银湖,,17,17,19,11,11,29,,50,43,11,10,2,2,0.4,0.4
2025-08-11T2100,1830A,113.1992,35.2590,焦作市,影视城,,,,25,,15,,,,,,11,,8,,0.7
2025-08-11T2100,3335A,113.3137,35.2641,焦作市,马村街道办,颗粒物(PM10),61,71,48,28,21,136,,159,156,17,17,7,8,0.7,0.8
2025-08-11T2100,3336A,113.2465,35.2373,焦作市,焦作技师学院,,49,49,43,19,18,141,,157,155,10,11,10,9,0.5,0.6
2025-08-11T2100,3477A,113.1656,35.2539,焦作市,中站许衡医院,,44,44,42,21,23,136,,170,166,20,18,6,9,0.5,0.7
2025-08-11T2100,3981A,113.2449,35.1803,焦作市,原李万街道办,颗粒物(PM10),59,67,38,17,17,134,,158,155,23,18,11,10,0.9,1
2025-08-11T2100,4264A,113.2340,35.2190,焦作市,新安路1731号,,,,41,,19,,,166,166,17,12,6,5,0.8,0.9
2025-08-11T2100,4295A,113.2722,35.2121,焦作市,人民路3066号,,42,37,40,12,16,133,,156,153,15,12,7,4,0.8,0.9
2025-08-11T2100,1708A,116.3701,23.5345,揭阳市,新兴,,16,16,20,10,9,47,,71,70,7,10,4,5,0.6,0.6
2025-08-11T2100,1709A,116.3264,23.5443,揭阳市,西马,,21,21,22,7,7,38,,69,68,12,10,1,3,0.4,0.5
2025-08-11T2100,1710A,116.3611,23.5626,揭阳市,东兴,,14,12,21,8,6,42,,58,58,7,9,2,4,0.5,0.6
2025-08-11T2100,1711A,116.4151,23.5294,揭阳市,渔湖,,21,21,20,8,7,43,,66,66,12,10,4,5,0.5,0.5
2025-08-11T2100,3320A,116.403,23.5699,揭阳市,曲溪,,,,17,,7,,,65,65,2,8,2,3,0.3,0.4
2025-08-11T2100,1944A,102.1692,38.5167,金昌市,天庆家园,颗粒物(PM10),63,75,61,15,18,101,,101,101,5,12,10,14,0.7,0.7
2025-08-11T2100,4022A,102.1647,38.5371,金昌市,金川区人防中心,颗粒物(PM10),62,73,57,20,19,105,,109,108,5,10,7,11,0.6,0.5
2025-08-11T2100,4239A,102.1930,38.5319,金昌市,长春路96号,颗粒物(PM10),54,57,62,14,18,98,,102,101,4,11,4,15,0.8,0.8
2025-08-11T2100,1262A,119.647,29.077,金华市,十五中,,47,47,37,25,22,66,,108,92,26,17,5,4,0.4,0.4
2025-08-11T2100,1263A,119.686,29.1029,金华市,监测站,颗粒物(PM10),55,59,35,32,22,56,,116,99,26,13,6,5,0.5,0.5
2025-08-11T2100,3659A,119.656,29.1131,金华市,气象局,,46,46,36,17,19,67,,109,93,18,15,3,3,0.4,0.4
2025-08-11T2100,1767A,121.1115,41.0879,锦州市,南山,,34,,33,22,20,107,,143,121,13,20,5,11,0.5,0.7
2025-08-11T2100,1768A,121.0604,40.8428,锦州市,开发区,,36,32,62,11,22,114,,140,123,12,28,4,11,0.6,1
2025-08-11T2100,1769A,121.1836,41.1119,锦州市,百股街道,,37,21,36,9,13,118,,150,127,12,21,12,21,0.6,0.8
2025-08-11T2100,1770A,121.1178,41.1222,锦州市,天安街道,,,35,42,23,22,,,152,129,16,28,6,14,0.6,0.8
2025-08-11T2100,1771A,121.1303,41.1386,锦州市,北湖公园,,34,,36,17,19,107,,144,122,12,19,5,11,0.5,0.7
2025-08-11T2100,2160A,112.85,35.5051,晋城市,自来水公司,,47,38,41,17,19,150,,157,157,14,19,2,2,0.5,0.9
2025-08-11T2100,2161A,112.8318,35.4936,晋城市,白云商贸,,50,50,37,14,14,121,,131,131,11,15,4,4,0.6,0.9
2025-08-11T2100,2162A,112.8508,35.4887,晋城市,市环保局,,47,28,35,12,17,150,,161,161,10,16,4,5,0.6,1
2025-08-11T2100,2163A,112.8676,35.4897,晋城市,技术学院,,45,34,38,7,12,142,,149,149,12,20,4,5,0.5,0.9
2025-08-11T2100,2165A,112.8453,35.546,晋城市,白马寺,,,,28,,21,,,114,,,9,,9,,1.0
2025-08-11T2100,3620A,112.8271,35.4828,晋城市,泽州一中,,49,,41,17,16,156,,167,167,11,12,6,10,0.6,0.8
2025-08-11T2100,2173A,112.7249,37.7067,晋中市,南都小区,颗粒物(PM10),71,91,53,34,25,118,,165,160,29,13,6,12,0.8,1
2025-08-11T2100,2174A,112.6991,37.6982,晋中市,榆次区政府,颗粒物(PM10),65,80,48,24,21,130,,167,164,24,10,7,11,0.4,0.5
2025-08-11T2100,2865A,112.7195,37.6828,晋中市,榆次三中,颗粒物(PM10),79,107,50,44,22,123,,167,163,28,10,8,13,0.8,1
2025-08-11T2100,4200A,112.7478,37.6954,晋中市,迎宾街26号,颗粒物(PM10),70,90,53,24,20,136,,180,176,30,12,10,14,0.6,0.9
2025-08-11T2100,2439A,112.2014,31.0481,荆门市,竹园小学,,24,24,22,8,11,74,,91,76,4,4,2,2,0,0.1
2025-08-11T2100,2440A,112.1969,30.9891,荆门市,掇刀,,20,20,17,11,10,63,,97,81,21,14,8,6,0.3,0.5
2025-08-11T2100,2441A,112.2213,31.0386,荆门市,石化一小,,23,6,19,3,5,72,,87,82,11,12,3,5,0.4,0.4
2025-08-11T2100,3012A,112.1849,31.0362,荆门市,西山林语,,21,21,16,10,11,63,,94,72,4,3,7,8,0.3,0.4
2025-08-11T2100,3547A,112.1632,31.0138,荆门市,龙泉中学南校,,19,17,14,12,12,60,,96,82,12,6,4,3,0.6,0.6
2025-08-11T2100,1844A,112.2494,30.3197,荆州市,市图书馆,,26,23,14,18,12,68,,89,83,9,6,2,2,0.5,0.5
2025-08-11T2100,1845A,112.2008,30.3544,荆州市,市委党校,,21,18,18,13,8,66,,83,78,12,9,8,8,0.7,0.7
2025-08-11T2100,3194A,112.2747,30.3122,荆州市,管委会,,19,13,12,12,8,60,,82,76,16,8,3,2,0.6,0.6
2025-08-11T2100,4268A,112.1722,30.3366,荆州市,学苑路85号,,22,12,15,10,10,68,,89,82,9,8,5,5,0.4,0.3
2025-08-11T2100,2342A,117.3102,29.3867,景德镇市,王港中学,,,,,,,,,,,,,,,,
2025-08-11T2100,2343A,117.2117,29.2933,景德镇市,老干部活动中心,,18,18,36,6,19,55,,101,83,6,12,5,9,0.5,0.6
2025-08-11T2100,2344A,117.1894,29.2789,景德镇市,兽医站,,28,28,37,14,23,48,,100,79,7,14,4,10,0.5,0.7
2025-08-11T2100,2346A,117.2461,29.2956,景德镇市,陶研所,,22,22,35,14,21,56,,102,84,7,7,6,8,0.7,0.8
2025-08-11T2100,4289A,117.1542,29.2566,景德镇市,青少年活动中心,,31,31,45,16,24,50,,98,79,11,16,1,17,0.8,0.8
2025-08-11T2100,1803A,115.9872,29.6815,九江市,十里,,17,12,25,3,24,54,,79,72,12,16,4,4,0.8,0.8
2025-08-11T2100,1804A,115.9584,29.7046,九江市,茅山头,,26,22,35,18,23,48,,35,,7,16,5,4,1.0,0.9
2025-08-11T2100,1805A,115.9877,29.7295,九江市,西园,,17,15,29,9,19,52,,79,71,18,31,5,7,0.8,1
2025-08-11T2100,1808A,115.9114,29.6038,九江市,综合工业园,,17,17,34,3,20,45,,88,76,28,24,5,8,0.9,1
2025-08-11T2100,1809A,116.0721,29.7535,九江市,石化总厂,,25,,34,17,32,46,,78,71,20,24,6,6,0.7,0.8
2025-08-11T2100,1810A,115.9773,29.5698,九江市,庐山气象台,,21,17,17,3,11,65,,79,73,3,4,6,6,0.6,0.7
2025-08-11T2100,3190A,116.0254,29.6994,九江市,外国语学校,,28,,23,19,27,53,,80,72,15,21,7,8,0.9,0.9
2025-08-11T2100,4253A,116.0102,29.6594,九江市,莲花大道8号,,19,,26,13,20,48,,77,70,6,7,4,4,0.8,0.8
2025-08-11T2100,4240A,98.4958,39.7339,酒泉市,玉门东路5号,,,122,72,38,25,,,126,126,9,10,7,10,0.4,0.4
2025-08-11T2100,4241A,98.5099,39.7506,酒泉市,北大街108号,颗粒物(PM10),198,346,79,59,24,102,,120,119,10,6,7,15,0.5,0.4
2025-08-11T2100,2698A,76.0072,39.4467,喀什地区,巡警大队,颗粒物(PM10),90,129,173,41,47,109,,119,119,9,33,3,4,0.3,0.5
2025-08-11T2100,2699A,75.9755,39.4694,喀什地区,吾办,颗粒物(PM10),98,145,192,72,80,104,,117,116,14,30,8,8,0.4,0.6
2025-08-11T2100,4027A,75.9483,39.4689,喀什地区,老干局,,,,157,,42,100,,122,121,10,26,6,6,,0.8
2025-08-11T2100,1824A,114.3389,34.7781,开封市,肿瘤医院,,,20,35,9,16,,,149,144,18,19,3,4,0.4,0.5
2025-08-11T2100,1826A,114.2885,34.7965,开封市,世纪星幼儿园,,34,20,31,8,20,107,,148,138,20,17,3,4,0.8,0.8
2025-08-11T2100,3147A,114.3438,34.8106,开封市,龙亭公园,,34,,37,17,18,108,,147,138,12,15,3,4,0.6,0.7
2025-08-11T2100,3210A,114.3644,34.7964,开封市,汴京公园,,35,24,33,12,10,111,,148,139,14,14,4,4,0.4,0.5
2025-08-11T2100,3473A,114.2485,34.8306,开封市,技师学院,,,,53,,18,117,,51,,11,11,5,8,0,0
2025-08-11T2100,3592A,114.4644,34.7556,开封市,祥符区生态环境局,,29,26,31,12,13,91,,135,124,29,25,5,7,0.5,0.5
2025-08-11T2100,1951A,84.895,45.6094,克拉玛依市,长征新村,,,,18,,7,,,98,98,8,11,3,3,0.2,0.2
2025-08-11T2100,1952A,84.8988,45.5893,克拉玛依市,南林小区,,30,21,21,3,6,93,,99,99,10,13,5,5,0.1,0.1
2025-08-11T2100,1954A,84.905,44.3396,克拉玛依市,独山子区,,34,34,29,11,10,99,,102,102,9,9,11,12,0.3,0.4
2025-08-11T2100,1955A,85.6979,46.098,克拉玛依市,乌尔禾区商贸楼,,25,22,24,7,7,79,,92,92,16,13,6,6,0.2,0.2
2025-08-11T2100,3612A,85.1045,45.6899,克拉玛依市,白碱滩区新站,颗粒物(PM10),51,52,24,22,15,110,,116,116,13,8,8,8,0.3,0.4
2025-08-11T2100,2697A,76.1454,39.7142,克孜勒苏柯尔克孜自治州,市人民政府,颗粒物(PM10),94,137,118,48,47,99,,114,114,7,12,4,12,0.1,0.1
2025-08-11T2100,3665A,76.1658,39.7157,克孜勒苏柯尔克孜自治州,克州文化中心,颗粒物(PM10),90,129,114,44,51,106,,121,120,8,10,6,14,0.3,0.3
2025-08-11T2100,1450A,102.8204,24.8886,昆明市,呈贡新区,,15,,10,7,9,45,,59,57,12,14,4,4,0.4,0.4
2025-08-11T2100,1451A,102.6251,24.9608,昆明市,西山森林公园,,,,,,,,,,,,,,,,
2025-08-11T2100,1452A,102.7252,25.0902,昆明市,龙泉镇,,22,22,18,7,8,46,,60,57,11,11,1,2,0.3,0.3
2025-08-11T2100,1453A,102.7266,25.0375,昆明市,东风东路,,17,10,16,7,9,52,,63,61,10,9,3,5,0.3,0.4
2025-08-11T2100,1454A,102.6742,25.0669,昆明市,金鼎山,,16,12,20,3,6,49,,58,56,8,8,1,2,0.3,0.3
2025-08-11T2100,1455A,102.6644,25.0401,昆明市,碧鸡广场,,15,15,20,6,7,46,,54,51,10,13,7,8,0.4,0.5
2025-08-11T2100,3179A,102.7494,25.0119,昆明市,官渡区博物馆,,16,13,14,3,6,50,,63,60,9,9,3,2,0.3,0.4
2025-08-11T2100,3375A,102.8017,24.8336,昆明市,青年创业园,,10,10,14,6,8,29,,56,52,18,12,3,3,0.4,0.4
2025-08-11T2100,3550A,102.7997,24.9786,昆明市,昆明学院,,15,10,16,7,9,45,,59,55,11,10,6,8,0.3,0.3
2025-08-11T2100,3551A,102.5967,24.6736,昆明市,晋宁区生态环境分局,颗粒物(PM10),53,56,20,7,7,38,,54,52,7,6,2,2,0.4,0.5
2025-08-11T2100,3552A,102.6678,24.9856,昆明市,云天化总部,,17,8,13,3,7,52,,58,56,10,10,4,6,0.4,0.4
2025-08-11T2100,1456A,91.1319,29.6514,拉萨市,八廓街,,25,25,10,13,7,80,,109,106,18,12,5,5,0.3,0.3
2025-08-11T2100,1457A,91.1221,29.6747,拉萨市,市环保局,,22,11,9,10,7,70,,108,102,17,11,7,7,0.3,0.2
2025-08-11T2100,1458A,91.0874,29.6475,拉萨市,区监测站,,21,14,7,9,6,65,,99,94,29,14,4,4,0.4,0.4
2025-08-11T2100,1459A,91.1774,29.6541,拉萨市,西藏大学,,26,15,8,9,6,83,,104,102,21,12,6,6,0.3,0.3
2025-08-11T2100,1460A,90.9798,29.6588,拉萨市,区辐射站,,,7,9,3,6,,,83,81,,14,,5,,0.4
2025-08-11T2100,1461A,91.0834,29.6292,拉萨市,拉萨火车站,,20,16,9,13,7,62,,102,93,24,12,6,6,0.1,0.4
2025-08-11T2100,2520A,109.2203,23.7256,来宾市,来宾技工学校,,42,42,35,18,19,71,,87,85,9,9,7,8,0.6,0.6
2025-08-11T2100,3535A,109.1781,23.7297,来宾市,兴宾区政府,,33,33,28,21,19,61,,88,86,18,10,14,6,0.7,0.5
2025-08-11T2100,4002A,109.2416,23.7461,来宾市,中南小学,,34,34,32,23,19,75,,90,88,13,8,12,12,0.6,0.6
2025-08-11T2100,1477A,104.1373,35.9454,兰州市,榆中兰大校区,,,,,,,,,,,,,,,,
2025-08-11T2100,1479A,103.831,36.0464,兰州市,铁路设计院,,40,,56,28,24,90,,148,143,28,34,8,15,0.5,0.6
2025-08-11T2100,3241A,103.7439,36.0842,兰州市,百合公园,,42,42,41,29,18,98,,154,148,6,18,4,6,0.4,0.5
2025-08-11T2100,3242A,103.9611,35.998,兰州市,和平,颗粒物(PM10),51,52,30,11,5,114,,160,143,8,8,7,10,0.2,0.8
2025-08-11T2100,4236A,103.6293,36.0938,兰州市,庄浪东路808号,,48,48,54,32,24,112,,198,176,13,26,12,21,0.3,0.4
2025-08-11T2100,4237A,103.7251,36.1043,兰州市,安宁西路88号,细颗粒物(PM2.5),70,67,42,51,22,121,,184,177,5,11,5,9,0.3,0.4
2025-08-11T2100,4238A,103.8470,36.0676,兰州市,北滨河东路1号,,46,34,42,32,24,95,,166,158,27,30,7,12,0.5,0.6
2025-08-11T2100,3245A,103.6633,36.533,兰州新区,新区管委会,,,,27,,19,,,69,,,14,,14,,0.4
2025-08-11T2100,3246A,103.6975,36.4789,兰州新区,舟曲中学,,47,47,26,11,10,119,,134,133,12,11,6,12,0.3,0.2
2025-08-11T2100,1067A,116.6708,39.5111,廊坊市,药材公司,,50,50,43,22,19,126,,158,154,15,13,4,5,0.4,0.3
2025-08-11T2100,1068A,116.7214,39.5589,廊坊市,开发区,,48,46,39,28,19,152,,172,171,24,40,4,5,0.4,0.3
2025-08-11T2100,1070A,116.7244,39.5269,廊坊市,北华航天学院,,,68,55,30,22,150,,173,172,9,9,9,6,,0.4
2025-08-11T2100,2919A,116.7022,39.5453,廊坊市,河北工业大学,颗粒物(PM10),58,65,49,25,19,153,,175,174,14,13,5,6,0.5,0.3
2025-08-11T2100,2535A,103.7723,29.5462,乐山市,花湖湾,,17,14,12,10,8,52,,67,67,8,6,2,2,0.5,0.6
2025-08-11T2100,2536A,103.7627,29.5844,乐山市,牛耳桥,,18,18,14,9,8,54,,90,86,12,7,4,4,0.5,0.6
2025-08-11T2100,2537A,103.7508,29.6006,乐山市,市第三水厂,,18,15,14,8,9,56,,86,84,13,12,2,3,0.8,0.9
2025-08-11T2100,2538A,103.7571,29.5664,乐山市,市监测站,,18,18,13,11,10,54,,81,79,10,7,5,5,0.8,0.8
2025-08-11T2100,3361A,103.7311,29.5628,乐山市,理工大学,,16,16,12,6,7,48,,93,90,11,8,6,6,0.7,0.7
2025-08-11T2100,2598A,100.2143,26.8576,丽江市,西南郊,,,,,,,,,,,,,,,,
2025-08-11T2100,2599A,100.2497,26.8802,丽江市,丽江古城,,12,12,18,6,10,24,,43,41,23,16,9,9,0.6,0.6
2025-08-11T2100,2600A,100.2203,26.8906,丽江市,市中心,,13,8,12,8,11,16,,38,34,26,15,8,9,0.7,0.7
2025-08-11T2100,1267A,119.914,28.4514,丽水市,监测站大楼,,16,14,29,10,17,51,,92,67,8,12,4,4,0.4,0.5
2025-08-11T2100,1268A,119.93,28.4586,丽水市,莲都小学,,20,16,30,9,17,63,,91,69,6,12,3,3,0.4,0.5
2025-08-11T2100,1269A,119.879,28.4231,丽水市,余庄前,,18,11,26,6,21,57,,86,65,8,8,4,4,0.3,0.4
2025-08-11T2100,1173A,119.176,34.5885,连云港市,市环境监测站,,27,9,14,3,5,85,,124,112,8,11,3,3,0.4,0.5
2025-08-11T2100,3000A,119.3581,34.6972,连云港市,德源药业,,20,14,15,3,5,64,,117,102,18,22,4,4,0.8,0.7
2025-08-11T2100,3007A,119.178,34.844,连云港市,新城一中,,28,14,18,8,9,88,,119,114,10,18,5,4,0.8,0.6
2025-08-11T2100,3008A,119.3608,34.7519,连云港市,胡沟管理处,,26,14,8,3,1,83,,118,110,21,18,8,7,1.1,0.8
2025-08-11T2100,3009A,119.1478,34.5911,连云港市,矿山设计院,,28,7,14,7,9,87,,122,112,5,7,4,4,0.4,0.5
2025-08-11T2100,3434A,119.2413,34.6539,连云港市,工贸学校,,22,15,16,8,7,68,,123,112,9,11,5,5,1.0,0.8
2025-08-11T2100,3664A,119.4172,34.7341,连云港市,连云街道,,28,10,13,3,6,87,,118,111,9,9,4,3,0.5,0.5
2025-08-11T2100,2571A,102.3431,27.8099,凉山彝族自治州,青龙寺,,12,12,16,6,6,38,,76,42,4,4,5,6,0.3,0.4
2025-08-11T2100,2572A,102.2721,27.8415,凉山彝族自治州,邛海宾馆,,15,8,12,3,8,46,,84,69,13,12,7,8,0.4,0.5
2025-08-11T2100,2573A,102.2625,27.898,凉山彝族自治州,西昌市政府,,17,9,12,7,5,53,,83,73,8,9,3,5,0.4,0.5
2025-08-11T2100,2574A,102.2685,27.8851,凉山彝族自治州,凉山州政府,,,17,15,13,11,,,88,79,12,13,8,10,0.8,1
2025-08-11T2100,4229A,102.2342,27.8859,凉山彝族自治州,凯乐南路30号,,20,20,19,13,8,54,,94,82,13,13,8,12,0.8,0.8
2025-08-11T2100,2212A,123.2,41.1953,辽阳市,宏伟区,,31,28,30,11,8,97,,169,152,16,12,4,5,0.6,0.7
2025-08-11T2100,2213A,123.1683,41.2495,辽阳市,新华园,,31,31,40,14,10,82,,162,139,26,18,8,7,0.5,0.7
2025-08-11T2100,2214A,123.2354,41.2639,辽阳市,滨河路,颗粒物(PM10),51,51,40,16,13,25,,161,131,66,21,5,6,0.6,0.6
2025-08-11T2100,2215A,123.149,41.2991,辽阳市,铁西工业园,,39,39,44,16,13,77,,148,126,22,21,8,6,1.2,0.9
2025-08-11T2100,2227A,125.1358,42.8845,辽源市,环保局,,35,35,30,8,5,45,,70,65,12,14,7,7,0.4,0.3
2025-08-11T2100,3239A,125.0764,42.9078,辽源市,银鹰制药,,19,19,19,10,8,47,,72,68,23,19,9,13,0.5,0.5
2025-08-11T2100,1625A,115.9848,36.4372,聊城市,区政府,,40,35,33,20,23,127,,151,149,10,17,6,8,0.8,0.7
2025-08-11T2100,2878A,116.0072,36.4343,聊城市,聊大东校,,40,36,39,24,22,125,,155,152,17,25,6,8,0.8,0.8
2025-08-11T2100,3200A,115.9819,36.4978,聊城市,监控中心,,43,34,38,22,19,136,,154,153,13,25,7,8,0.5,0.3
2025-08-11T2100,3513A,116.0445,36.4361,聊城市,九州社区,,45,45,42,25,23,113,,152,146,15,14,4,7,0.5,0.4
2025-08-11T2100,4018A,116.0567,36.4608,聊城市,星美广场,,38,37,38,25,23,120,,153,148,13,15,1,4,0.6,0.5
2025-08-11T2100,2632A,94.3681,29.6376,林芝市,林芝监测站,,18,12,7,12,5,33,,50,49,13,5,7,6,0.5,0.4
2025-08-11T2100,2633A,94.3616,29.6616,林芝市,林芝人民医院,,17,17,10,8,5,31,,48,47,7,4,7,6,0.5,0.4
2025-08-11T2100,2603A,100.0781,23.8982,临沧市,市环保局,,40,,20,28,16,25,,39,37,12,10,11,10,0.5,0.5
2025-08-11T2100,2604A,100.0894,23.8822,临沧市,市气象局,,21,21,18,14,13,27,,37,35,10,8,10,10,0.3,0.3
2025-08-11T2100,1733A,111.5531,36.0783,临汾市,临钢医院,颗粒物(PM10),59,67,52,22,19,127,,156,154,19,28,11,11,1.2,1.2
2025-08-11T2100,1734A,111.5028,36.0714,临汾市,技工学校,颗粒物(PM10),55,60,49,34,35,125,,158,155,13,13,7,10,0.9,1.2
2025-08-11T2100,1736A,111.5018,36.0855,临汾市,市委,颗粒物(PM10),62,73,64,21,25,139,,172,169,13,13,8,10,1.0,1.3
2025-08-11T2100,3018A,111.505,36.1014,临汾市,唐尧大酒店,颗粒物(PM10),61,72,62,17,26,117,,154,151,19,15,4,4,1.0,1.4
2025-08-11T2100,4244A,111.4879,36.0530,临汾市,启星学校,细颗粒物(PM2.5),53,54,49,37,36,118,,157,153,15,15,6,7,0.7,1
2025-08-11T2100,4271A,103.2464,35.6123,临夏回族自治州,滨河东路1号,,34,34,42,18,22,58,,96,91,34,13,7,6,0.4,0.3
2025-08-11T2100,4310A,103.2093,35.5995,临夏回族自治州,新华街21号,,42,42,42,29,25,74,,103,99,22,11,6,5,0.4,0.4
2025-08-11T2100,1618A,118.3429,35.0532,临沂市,沂河小区,,31,19,15,11,11,99,,138,129,19,14,13,9,0.3,0.3
2025-08-11T2100,1619A,118.295,35.0583,临沂市,鲁南制药厂,,35,14,10,10,10,109,,148,138,20,18,12,9,0.3,0.3
2025-08-11T2100,1620A,118.2794,34.9976,临沂市,新光毛纺厂,,30,27,10,11,7,93,,140,129,26,14,13,9,0.2,0.2
2025-08-11T2100,1621A,118.3956,35.0888,临沂市,河东保险公司,,35,12,12,6,6,111,,151,143,12,9,8,6,0.2,0.2
2025-08-11T2100,3370A,118.3564,35.0215,临沂市,十里堡居委,,31,14,9,3,7,99,,145,135,21,12,12,10,0.3,0.3
2025-08-11T2100,3496A,118.3604,35.1084,临沂市,南坊新区,,35,12,14,3,3,110,,153,143,18,13,12,8,0.4,0.3
2025-08-11T2100,3860A,118.3920,35.0300,临沂市,皇山花园小区,,29,24,10,6,5,92,,141,130,19,11,10,9,0.3,0.3
2025-08-11T2100,1870A,109.4856,24.3895,柳州市,柳东小学,,30,24,30,18,19,96,,100,98,5,9,4,5,0.5,0.6
2025-08-11T2100,1871A,109.4157,24.3277,柳州市,环保监测站,,23,21,32,7,18,71,,92,88,17,9,7,8,0.4,0.4
2025-08-11T2100,1872A,109.389,24.341,柳州市,河西水厂,,37,37,36,17,19,81,,92,90,9,9,4,4,0.4,0.4
2025-08-11T2100,1873A,109.4311,24.2921,柳州市,市四中,,26,26,35,18,20,76,,94,90,13,12,6,7,0.7,0.7
2025-08-11T2100,1874A,109.4006,24.3631,柳州市,市九中,,36,36,35,16,18,76,,90,88,10,9,4,5,0.5,0.5
2025-08-11T2100,1875A,109.4958,24.3134,柳州市,古亭山,,45,41,32,31,18,50,,90,79,18,11,5,5,0.6,0.6
2025-08-11T2100,3402A,109.5422,24.3996,柳州市,市二中,,28,27,34,19,20,82,,97,93,12,12,6,9,0.6,0.7
2025-08-11T2100,2307A,116.5079,31.737,六安市,监测大楼,,20,8,6,3,6,64,,70,69,6,4,3,3,0.3,0.3
2025-08-11T2100,2308A,116.4738,31.7643,六安市,皖西学院,,23,,6,3,6,72,,80,80,9,4,2,3,0.3,0.3
2025-08-11T2100,2309A,116.4996,31.7905,六安市,朝阳厂,,22,,6,7,7,69,,76,74,10,6,6,6,0.3,0.4
2025-08-11T2100,2310A,116.5567,31.7886,六安市,开发区,,20,,4,3,6,62,,73,71,6,6,2,2,0.4,0.4
2025-08-11T2100,2576A,104.8,26.5892,六盘水市,窑上,,19,19,24,3,6,38,,64,59,8,5,2,3,0.7,0.7
2025-08-11T2100,2577A,104.83,26.5917,六盘水市,黄土坡,,21,12,14,6,7,65,,69,69,11,9,10,9,0.5,0.4
2025-08-11T2100,2578A,104.89,26.5939,六盘水市,水钢,,25,21,16,3,10,78,,68,68,9,9,8,10,0.4,0.5
2025-08-11T2100,2579A,104.8475,26.5894,六盘水市,民中,,20,12,15,3,5,61,,68,68,17,8,9,8,0.4,0.4
2025-08-11T2100,2580A,104.9544,26.5506,六盘水市,双水,,25,12,14,6,9,80,,69,69,18,9,5,6,0.7,0.6
2025-08-11T2100,2335A,117.0189,25.1181,龙岩市,龙岩师专,,,,,,,,,,,,,,,,
2025-08-11T2100,2336A,117.0217,25.1033,龙岩市,龙岩市监测站,,10,,17,3,9,29,,61,46,10,10,7,7,0.5,0.5
2025-08-11T2100,2337A,117.0258,25.0661,龙岩市,闽西职业技术学院,,14,14,26,7,10,24,,56,42,8,7,5,10,0.4,0.4
2025-08-11T2100,2338A,117.0196,25.0306,龙岩市,龙岩学院,,,,31,30,13,22,,55,,6,7,7,5,0.4,0.6
2025-08-11T2100,2665A,105.0822,33.3261,陇南市,汉王镇固水子,,,,,,,,,,,,,,,,
2025-08-11T2100,2885A,104.9339,33.3826,陇南市,滨江中学,颗粒物(PM10),59,67,34,30,13,87,,104,104,3,5,7,7,0.6,0.6
2025-08-11T2100,3247A,104.955,33.371,陇南市,市总工会,颗粒物(PM10),52,54,38,12,9,102,,114,114,6,7,6,5,0.5,0.5
2025-08-11T2100,2487A,111.9589,27.8901,娄底市,电视发射台,,32,32,43,21,23,47,,61,53,5,5,2,2,0.5,0.5
2025-08-11T2100,2488A,111.9975,27.725,娄底市,市监测站,,42,42,37,26,23,58,,85,75,10,8,4,7,0.8,0.8
2025-08-11T2100,2489A,112.0194,27.7314,娄底市,市委党校,,,,39,,28,,,53,,,11,,4,,0.8
2025-08-11T2100,2490A,111.9561,27.7569,娄底市,涟钢,细颗粒物(PM2.5),78,87,45,57,28,38,,70,53,11,10,13,12,2.1,2
2025-08-11T2100,2491A,111.9892,27.7044,娄底市,市政府,,40,32,35,28,27,63,,86,78,5,5,4,5,0.6,0.5
2025-08-11T2100,1893A,105.4324,28.9634,泸州市,九狮山,,38,26,15,26,20,29,,71,61,13,6,5,4,0.5,0.4
2025-08-11T2100,1894A,105.4427,28.9063,泸州市,小市上码头,,14,10,9,3,4,44,,58,57,11,6,3,3,0.2,0.2
2025-08-11T2100,1895A,105.4241,28.8573,泸州市,兰田宪桥,,14,14,9,3,4,42,,67,64,10,6,8,8,0.7,0.7
2025-08-11T2100,1896A,105.4379,28.8833,泸州市,市环监站,,20,10,9,3,5,64,,79,78,12,8,6,6,0.4,0.4
2025-08-11T2100,4272A,105.3689,28.7783,泸州市,纳溪中医医院,,19,8,11,8,7,59,,85,79,15,10,6,6,0.6,0.6
2025-08-11T2100,2183A,111.1406,37.5211,吕梁市,环保局,,,,34,,14,,,162,156,35,16,2,3,0.6,0.6
2025-08-11T2100,2185A,111.1297,37.5136,吕梁市,自来水公司,颗粒物(PM10),51,52,33,25,12,80,,150,138,18,14,4,5,0.6,0.6
2025-08-11T2100,2867A,111.1283,37.51,吕梁市,马茂庄小学,颗粒物(PM10),74,97,41,32,15,51,,165,141,47,19,2,3,0.6,0.6
2025-08-11T2100,1812A,112.3931,34.6516,洛阳市,市委党校,,38,32,19,16,10,120,,134,134,10,9,7,7,0.3,0.2
2025-08-11T2100,1815A,112.494,34.6886,洛阳市,河南林校,,39,38,29,20,12,124,,144,144,16,14,9,8,0.5,0.4
2025-08-11T2100,1816A,112.3844,34.623,洛阳市,开发区管委会,,40,36,18,25,11,128,,142,142,8,7,8,6,0.7,0.5
2025-08-11T2100,1817A,112.4267,34.6258,洛阳市,市委新办公区,,40,33,19,21,12,126,,142,142,12,10,10,8,0.5,0.4
2025-08-11T2100,3340A,112.6005,34.6326,洛阳市,伊滨,,38,29,17,19,9,119,,134,134,12,10,9,9,0.8,0.7
2025-08-11T2100,3341A,112.4951,34.6332,洛阳市,中移产业园,,39,33,21,16,10,123,,140,140,15,13,10,8,0.6,0.4
2025-08-11T2100,3593A,112.5736,34.8993,洛阳市,吉利监测站,,42,42,32,17,15,92,,140,135,23,7,8,6,0.4,0.4
2025-08-11T2100,3635A,112.3677,34.662,洛阳市,河科大西苑校区,,42,34,20,13,8,134,,148,148,13,13,10,9,0.4,0.3
2025-08-11T2100,3636A,112.4388,34.6781,洛阳市,英才小学,,39,34,24,22,16,124,,139,139,16,16,10,8,0.8,0.7
2025-08-11T2100,4214A,112.4600,34.6949,洛阳市,春都路1号院,,35,32,25,15,10,110,,130,129,21,21,9,8,0.7,0.7
2025-08-11T2100,2399A,114.051,33.5699,漯河市,三五一五工厂,,31,31,20,13,14,91,,131,122,14,12,7,7,0.6,0.5
2025-08-11T2100,2400A,114.0055,33.5698,漯河市,漯河大学,,32,10,17,9,10,101,,135,128,10,11,4,5,0.4,0.4
2025-08-11T2100,2401A,114.0138,33.5828,漯河市,市水利局,,30,22,21,9,14,96,,129,122,9,9,4,5,0.6,0.6
2025-08-11T2100,2402A,114.0261,33.5698,漯河市,市广电局,,32,20,17,10,14,100,,140,132,9,9,2,4,0.6,0.5
2025-08-11T2100,3478A,113.9749,33.5664,漯河市,市图书馆,,30,17,21,15,14,95,,123,118,9,9,2,3,0.3,0.3
2025-08-11T2100,4250A,114.0892,33.5882,漯河市,韶山路11号,,27,,13,12,13,85,,136,124,16,14,3,4,0.5,0.5
2025-08-11T2100,1798A,118.5092,31.6837,马鞍山市,湖东路四小,,25,,21,9,14,77,,84,84,11,18,5,9,0.7,0.8
2025-08-11T2100,1799A,118.5024,31.6449,马鞍山市,开发区,,22,14,21,8,10,69,,85,85,17,17,6,8,0.4,0.6
2025-08-11T2100,1802A,118.6245,31.7241,马鞍山市,濮塘,,18,14,18,12,11,45,,72,69,9,11,6,7,0.7,0.9
2025-08-11T2100,3633A,118.4918,31.6809,马鞍山市,雨山,,,,20,14,12,,,76,76,14,20,6,11,0.9,1
2025-08-11T2100,4191A,118.5274,31.72227,马鞍山市,慈湖高新区,,19,14,22,7,12,59,,78,76,16,21,7,10,0.4,0.8
2025-08-11T2100,1686A,111.0286,21.4688,茂名市,电白南海,,19,19,18,9,11,51,,45,45,6,4,2,3,0.4,0.5
2025-08-11T2100,1687A,110.9294,21.6533,茂名市,茂石化七小,,,,19,12,8,37,,46,43,8,7,4,5,0.5,0.3
2025-08-11T2100,1688A,110.9107,21.6687,茂名市,健康路,,15,14,14,7,7,45,,50,48,6,6,4,5,0.6,0.6
2025-08-11T2100,1689A,110.8592,21.6828,茂名市,高岭,,27,27,24,9,5,38,,48,45,9,9,5,5,0.4,0.4
2025-08-11T2100,3450A,111.01,21.5165,茂名市,电白水东,,18,12,12,7,7,55,,47,47,7,5,4,3,0.4,0.4
2025-08-11T2100,2539A,104.0308,30.0478,眉山市,黑龙滩水库,,30,,7,12,5,95,,96,96,4,6,3,3,0.3,0.2
2025-08-11T2100,2540A,103.8416,30.0874,眉山市,气象局,,27,26,23,9,5,84,,136,132,10,15,8,8,0.6,0.5
2025-08-11T2100,3137A,103.8578,30.0744,眉山市,市委党校,,25,22,15,7,2,78,,124,120,15,16,7,9,0.2,0.1
2025-08-11T2100,3148A,103.8291,30.0564,眉山市,区人社局,,29,29,31,3,2,80,,121,118,15,16,7,10,0.7,0.6
2025-08-11T2100,1690A,116.1231,24.3284,梅州市,梅江月梅,,18,13,20,12,14,16,,56,34,12,12,9,9,0.5,0.5
2025-08-11T2100,1691A,116.0797,24.2719,梅州市,梅县新城,,23,21,20,16,13,8,,54,36,23,10,6,7,0.5,0.5
2025-08-11T2100,1692A,116.1248,24.2654,梅州市,环境监控中心,,23,20,20,16,13,8,,47,30,21,13,3,4,0.6,0.6
2025-08-11T2100,3315A,116.1233,24.2991,梅州市,梅龙,,12,12,18,8,9,21,,53,33,11,9,8,8,0.5,0.5
2025-08-11T2100,1878A,104.7778,31.4741,绵阳市,富乐山,,23,23,27,15,15,69,,92,92,7,17,9,9,0.5,0.6
2025-08-11T2100,1880A,104.6697,31.4668,绵阳市,高新区自来水公司,,24,24,28,9,11,41,,88,84,40,22,10,10,0.7,0.7
2025-08-11T2100,1881A,104.7287,31.5075,绵阳市,三水厂,,18,18,24,10,14,51,,94,94,35,22,7,8,0.5,0.5
2025-08-11T2100,3491A,104.69,31.5322,绵阳市,西科大附属小学,,25,17,26,9,13,78,,105,105,19,18,8,9,0.6,0.6
2025-08-11T2100,3492A,104.5648,31.5343,绵阳市,安州区旅游局,,41,41,27,7,13,59,,104,101,20,14,7,8,0.4,0.5
2025-08-11T2100,4226A,104.7651,31.4531,绵阳市,绵阳市气象局,,29,29,28,20,15,91,,100,100,12,20,7,8,0.4,0.5
2025-08-11T2100,1784A,129.61,44.561,牡丹江市,环保大楼,,13,13,22,9,10,31,,73,66,23,15,3,3,0.3,0.2
2025-08-11T2100,1785A,129.6115,44.5782,牡丹江市,文化广场,,35,28,21,24,20,23,,66,58,31,17,9,7,0.6,0.4
2025-08-11T2100,1786A,129.5904,44.5963,牡丹江市,第一医院,,30,,16,21,20,25,,68,58,22,16,8,8,0.3,0.2
2025-08-11T2100,1787A,129.6364,44.6075,牡丹江市,机车工厂,,14,14,15,9,13,25,,,,16,15,6,5,0.4,0.3
2025-08-11T2100,1788A,129.6386,44.5462,牡丹江市,第一中学,颗粒物(PM10),79,108,26,13,8,12,,70,54,27,15,5,4,0.2,0.2
2025-08-11T2100,2531A,105.0703,29.61,内江市,市监测站,,27,11,14,10,9,84,,102,102,11,9,3,3,0.7,0.6
2025-08-11T2100,2532A,105.0717,29.5947,内江市,东兴区政府,,23,10,11,3,2,71,,91,90,11,9,9,9,0.8,0.7
2025-08-11T2100,2533A,105.0653,29.5817,内江市,内江二中,,24,20,16,15,11,76,,94,94,13,11,3,3,0.8,0.6
2025-08-11T2100,2534A,105.0406,29.5822,内江市,内江日报社,,26,22,14,14,10,82,,100,100,10,8,7,7,0.6,0.4
2025-08-11T2100,2628A,92.0657,31.4846,那曲市,那曲监测站,,38,38,32,15,14,102,,121,120,19,14,10,7,0.4,0.4
2025-08-11T2100,4243A,92.0515,31.4787,那曲市,那曲市委宣传部,,39,23,20,11,9,122,,134,134,10,6,6,4,0.3,0.2
2025-08-11T2100,1290A,115.8931,28.6843,南昌市,省外办,,42,37,38,29,29,65,,110,82,13,12,5,8,0.5,0.5
2025-08-11T2100,1291A,115.8886,28.7003,南昌市,省林业公司,,49,46,37,34,24,61,,113,80,10,10,3,6,0.5,0.5
2025-08-11T2100,1292A,115.8126,28.7442,南昌市,林科所,,27,27,34,17,22,60,,112,85,13,14,8,12,0.6,0.4
2025-08-11T2100,1294A,115.8518,28.687,南昌市,建工学校,颗粒物(PM10),52,53,49,15,20,56,,110,82,30,19,7,9,0.6,0.6
2025-08-11T2100,1295A,115.8921,28.6424,南昌市,象湖,,32,32,33,14,20,76,,121,98,12,13,8,10,0.5,0.5
2025-08-11T2100,1296A,115.7423,28.7996,南昌市,武术学校,,38,29,20,26,15,33,,84,49,8,14,9,9,0.6,0.6
2025-08-11T2100,3046A,115.9084,28.6062,南昌市,机电学校,,37,37,45,19,23,78,,122,104,6,9,5,7,0.7,0.6
2025-08-11T2100,3690A,115.9721,28.7031,南昌市,外国语学校,,33,33,38,20,20,65,,120,90,10,11,6,8,0.4,0.5
2025-08-11T2100,4192A,115.9316,28.68677,南昌市,南京东路235号,,28,28,39,17,22,68,,109,83,14,14,5,7,0.7,0.7
2025-08-11T2100,1905A,106.056,30.8064,南充市,西山风景区,,,,,,,,,,,,,,,,
2025-08-11T2100,1906A,106.0789,30.8023,南充市,南充市委,,17,17,12,6,5,46,,62,61,16,8,5,5,0.5,0.4
2025-08-11T2100,1907A,106.1031,30.8217,南充市,南充炼油厂,,26,26,20,11,8,55,,60,59,10,6,4,4,0.4,0.4
2025-08-11T2100,4227A,106.1083,30.7884,南充市,梨树横街98号,,22,18,11,14,8,70,,69,69,11,9,2,2,0.3,0.3
2025-08-11T2100,4304A,106.1172,30.843,南充市,清泉寺北路188号,,20,20,17,14,9,56,,60,60,15,7,3,3,0.4,0.4
2025-08-11T2100,4305A,106.067,30.7616,南充市,同庆路1号,,,,14,29,6,,,70,70,14,9,,4,0.4,0.3
2025-08-11T2100,1151A,118.8086,32.1065,南京市,迈皋桥,,17,,6,7,4,53,,80,74,21,17,4,4,0.3,0.4
2025-08-11T2100,1152A,118.7538,32.0551,南京市,草场门,,,6,9,3,5,,,67,65,17,12,8,8,0.7,0.7
2025-08-11T2100,1153A,118.7794,32.0745,南京市,山西路,,18,9,10,3,2,55,,78,73,23,20,4,5,0.5,0.5
2025-08-11T2100,1154A,118.7752,32.0023,南京市,中华门,,,6,5,3,2,,,60,57,13,11,9,9,0.6,1
2025-08-11T2100,1155A,118.8109,32.0309,南京市,瑞金路,,19,6,3,3,4,59,,74,71,15,16,7,6,0.3,0.3
2025-08-11T2100,1156A,118.7997,32.0754,南京市,玄武湖,,,9,11,,1,44,,64,58,7,8,4,4,0.4,0.4
2025-08-11T2100,1157A,118.6414,32.0931,南京市,浦口,,16,10,11,3,1,50,,78,70,10,9,5,4,0.7,0.5
2025-08-11T2100,1158A,118.7356,31.9996,南京市,奥体中心,,16,6,9,3,6,51,,77,73,19,14,5,4,0.5,0.5
2025-08-11T2100,1159A,118.9125,32.1028,南京市,仙林大学城,,17,7,13,3,2,53,,73,,15,12,7,8,0.6,0.7
2025-08-11T2100,3422A,118.8436,31.9198,南京市,江宁彩虹桥,,15,6,11,3,6,46,,68,64,16,15,4,4,0.5,0.6
2025-08-11T2100,3427A,118.8554,32.3578,南京市,六合雄州,,21,6,9,3,4,66,,83,76,14,10,3,4,0.6,0.6
2025-08-11T2100,4249A,118.8708,31.3402,南京市,汶溪路181号,,23,14,23,11,17,73,,78,75,11,10,6,6,0.8,0.7
2025-08-11T2100,4312A,119.019,31.6512,南京市,中山西路1号,,16,12,12,11,10,51,,76,76,16,16,3,4,0.6,0.8
2025-08-11T2100,1401A,108.3103,22.7881,南宁市,二十一中,,32,30,24,22,17,69,,81,80,12,9,3,4,0.6,0.6
2025-08-11T2100,1402A,108.3141,22.8528,南宁市,北湖,,38,27,25,26,19,80,,104,99,10,8,4,4,0.6,0.5
2025-08-11T2100,1403A,108.3206,22.8225,南宁市,市监测站,,25,24,24,17,14,77,,96,93,13,8,3,4,0.5,0.5
2025-08-11T2100,1404A,108.3829,22.8037,南宁市,大自然花园,,35,30,25,24,16,80,,90,88,8,6,5,5,0.6,0.6
2025-08-11T2100,1405A,108.4394,22.7904,南宁市,仙葫,细颗粒物(PM2.5),54,54,27,38,19,69,,81,80,11,7,7,6,0.7,0.6
2025-08-11T2100,1406A,108.2397,22.8467,南宁市,区农职院,,26,22,24,18,14,63,,89,87,13,10,4,5,0.5,0.6
2025-08-11T2100,1407A,108.3275,22.735,南宁市,英华嘉园,,27,27,27,15,15,71,,82,82,14,11,1,2,0.6,0.5
2025-08-11T2100,3401A,108.4834,22.7618,南宁市,红星社区,细颗粒物(PM2.5),65,49,27,47,17,61,,88,85,16,8,2,2,0.5,0.5
2025-08-11T2100,4221A,108.2177,22.7774,南宁市,乐贤路16号,,40,40,30,19,17,51,,88,81,30,15,5,5,0.8,0.7
2025-08-11T2100,2331A,118.0966,26.6761,南平市,茫荡山,,,,,,,,,,,,,,,,
2025-08-11T2100,2332A,118.1681,26.6369,南平市,南平市监测站,,22,19,22,15,17,49,,99,86,8,12,4,5,0.6,0.6
2025-08-11T2100,2333A,118.1825,26.6489,南平市,南平铝业有限公司,,20,20,26,13,16,37,,96,81,17,13,6,6,0.7,0.6
2025-08-11T2100,2334A,118.1756,26.6272,南平市,南平七中,,20,,24,14,15,42,,94,80,8,10,3,4,0.7,0.6
2025-08-11T2100,1168A,120.9098,31.9663,南通市,狼山街道,,14,12,12,3,6,42,,79,69,17,15,3,3,0.6,0.7
2025-08-11T2100,1169A,120.86,32.0005,南通市,虹桥,,19,,12,13,11,50,,74,71,20,18,1,1,0.8,0.9
2025-08-11T2100,1170A,120.87,32.02,南通市,城中,,16,16,15,6,6,50,,70,66,16,16,3,3,0.4,0.5
2025-08-11T2100,1171A,120.94,31.93,南通市,星湖花园,,15,7,13,6,10,47,,79,70,17,17,1,2,0.6,0.7
2025-08-11T2100,1172A,120.81,32.0417,南通市,紫琅学院,,18,,6,8,4,56,,72,69,13,12,2,2,0.6,0.7
2025-08-11T2100,3291A,121.067,32.062,南通市,通州监测站,,20,7,6,3,5,62,,88,81,8,7,1,1,0.8,0.7
2025-08-11T2100,3432A,120.9348,31.9883,南通市,环境教育馆,,24,24,18,11,6,45,,83,72,18,12,2,2,0.4,0.4
2025-08-11T2100,2404A,112.5224,33.0122,南阳市,瓦房庄,,40,31,32,8,15,125,,135,130,8,9,7,8,0.6,0.6
2025-08-11T2100,2405A,112.5003,32.9735,南阳市,汉画馆,,34,27,27,3,7,108,,128,124,18,12,7,8,0.5,0.6
2025-08-11T2100,2406A,112.5573,33.027,南阳市,气象站,,38,23,22,3,8,119,,144,139,16,9,8,8,0.4,0.4
2025-08-11T2100,2407A,112.5481,32.9689,南阳市,理工学院,,,,27,,7,96,,132,126,,8,,8,0.6,0.6
2025-08-11T2100,4008A,112.5234,32.9922,南阳市,卧龙区政府,,38,26,28,9,14,121,,133,128,13,11,6,7,0.6,0.6
2025-08-11T2100,1234A,121.8358,29.911,宁波市,区环保大楼,颗粒物(PM10),51,51,68,25,29,62,,139,116,40,59,3,7,0.7,0.7
2025-08-11T2100,1235A,121.56,29.82,宁波市,万里学院,,42,41,47,29,31,65,,123,109,29,15,5,5,0.4,0.4
2025-08-11T2100,1236A,121.713,29.9572,宁波市,龙赛医院,颗粒物(PM10),53,55,61,24,25,96,,196,150,18,23,4,5,0.6,0.7
2025-08-11T2100,1239A,121.633,29.7733,宁波市,钱湖水厂,,,48,40,26,28,,,125,117,14,12,4,4,0.5,0.6
2025-08-11T2100,1240A,121.5856,29.8635,宁波市,太古小学,,40,40,51,22,25,82,,134,121,14,10,1,2,0.7,0.8
2025-08-11T2100,1241A,121.524,29.8674,宁波市,市环境监测中心,,34,34,43,19,22,78,,111,103,15,16,6,7,0.5,0.6
2025-08-11T2100,2871A,121.6147,29.9017,宁波市,万里国际学校,,35,35,39,18,27,88,,163,145,10,12,3,4,0.6,0.7
2025-08-11T2100,3710A,121.5594,29.8975,宁波市,白沙活动中心,,31,31,37,21,23,90,,134,124,15,13,5,5,0.5,0.6
2025-08-11T2100,2339A,119.5001,26.6946,宁德市,金涵水库,,,,,,,,,,,,,,,,
2025-08-11T2100,2341A,119.5388,26.6612,宁德市,宁德市监测站,,23,21,40,12,19,71,,141,116,15,16,3,4,0.6,0.9
2025-08-11T2100,3209A,119.5231,26.6562,宁德市,宁德一中,,38,38,34,18,20,64,,143,119,14,11,10,7,1.4,0.7
2025-08-11T2100,2618A,98.8601,25.8567,怒江傈僳族自治州,州监测站,,25,23,20,17,13,36,,55,52,7,10,7,9,0.4,0.4
2025-08-11T2100,2619A,98.8546,25.8417,怒江傈僳族自治州,泸水一中,,17,17,18,6,10,27,,43,40,10,13,6,6,0.4,0.4
2025-08-11T2100,1888A,101.6891,26.571,攀枝花市,弄弄坪,,34,34,42,7,16,76,,81,81,9,16,8,12,0.6,0.9
2025-08-11T2100,1889A,101.5769,26.5928,攀枝花市,河门口,,23,23,32,9,14,64,,84,84,8,13,8,14,0.6,1
2025-08-11T2100,1890A,101.7169,26.585,攀枝花市,炳草岗,,29,29,33,9,15,78,,84,84,12,18,8,12,0.6,0.9
2025-08-11T2100,1891A,101.7369,26.5008,攀枝花市,仁和,,25,17,27,8,15,78,,86,86,8,13,8,13,0.6,1
2025-08-11T2100,2835A,101.7227,26.567,攀枝花市,四十中小,,31,31,29,11,15,83,,84,84,7,14,10,17,0.7,1.2
2025-08-11T2100,1604A,122.0303,41.1489,盘锦市,开发区,,31,,26,15,17,98,,136,115,14,17,5,7,0.4,0.5
2025-08-11T2100,1605A,122.0485,41.0883,盘锦市,兴隆台,,30,22,30,16,13,94,,128,117,21,19,5,6,0.5,0.6
2025-08-11T2100,1606A,121.8297,41.1028,盘锦市,新生街道,,29,,24,11,15,90,,152,122,6,9,4,6,0.5,0.7
2025-08-11T2100,1832A,113.3257,33.742,平顶山市,新华旅馆,,40,30,39,20,17,127,,139,138,10,11,4,5,0.6,0.6
2025-08-11T2100,1833A,113.2919,33.737,平顶山市,规划设计院,,40,30,31,22,18,125,,137,137,11,11,4,5,1.0,1
2025-08-11T2100,1834A,113.182,33.774,平顶山市,平顶山工学院,,40,31,25,19,12,128,,135,135,8,11,5,6,0.5,0.6
2025-08-11T2100,3204A,113.3025,33.73,平顶山市,规划局,,40,31,32,14,13,125,,136,136,11,11,4,5,0.5,0.5
2025-08-11T2100,3594A,112.8867,33.9116,平顶山市,石龙区,,38,38,33,23,15,113,,124,123,13,13,8,8,0.6,0.6
2025-08-11T2100,2656A,106.6692,35.5461,平凉市,聚贤嘉苑,颗粒物(PM10),58,65,47,22,17,107,,126,126,9,19,7,9,0.4,0.6
2025-08-11T2100,2657A,106.7021,35.5307,平凉市,博物馆,颗粒物(PM10),62,73,54,24,22,93,,123,122,21,19,10,10,0.6,0.7
2025-08-11T2100,2347A,114.0997,27.5002,萍乡市,武功山,,13,,10,3,6,40,,52,46,4,4,8,8,0.4,0.4
2025-08-11T2100,2348A,113.8385,27.6434,萍乡市,中医院,,38,38,35,23,19,70,,98,91,17,16,13,14,0.9,0.8
2025-08-11T2100,2349A,113.8493,27.6253,萍乡市,市政府车库,细颗粒物(PM2.5),52,,28,36,26,53,,74,74,15,12,12,12,0.8,0.5
2025-08-11T2100,2350A,113.8676,27.6435,萍乡市,市环保局,,46,35,35,32,24,63,,93,90,20,13,16,18,0.5,0.4
2025-08-11T2100,2351A,113.866,27.6198,萍乡市,安源区政府,颗粒物(PM10),55,59,32,30,22,53,,77,74,9,6,15,15,0.8,0.6
2025-08-11T2100,2319A,119.0141,25.4325,莆田市,荔城区仓后路,,34,34,28,12,7,40,,82,68,10,9,5,6,0.6,0.5
2025-08-11T2100,2320A,119.0015,25.4553,莆田市,莆田市监测站,,28,28,20,7,4,42,,89,78,12,10,4,5,0.4,0.4
2025-08-11T2100,2321A,119.1119,25.4561,莆田市,涵江区六中,,35,35,24,13,7,40,,92,74,17,12,6,5,0.4,0.4
2025-08-11T2100,2322A,119.1013,25.3215,莆田市,秀屿区政府,,20,20,20,3,3,47,,79,64,12,12,8,7,0.3,0.4
2025-08-11T2100,2323A,118.981,25.4792,莆田市,东圳水库,,,,,,,,,,,,,,,,
2025-08-11T2100,2392A,115.0312,35.7636,濮阳市,环保局,,40,,30,14,18,125,,159,154,8,10,3,4,0.4,0.5
2025-08-11T2100,2394A,115.0574,35.7609,濮阳市,油田运输公司,,37,26,31,6,16,118,,153,148,8,11,2,3,0.5,0.6
2025-08-11T2100,3021A,115,35.7668,濮阳市,濮水河管理处,,39,24,34,15,24,124,,156,153,13,14,4,4,0.5,0.5
2025-08-11T2100,4216A,115.0924,35.7686,濮阳市,任丘路479号,,33,32,36,15,20,104,,146,139,15,10,2,3,0.5,0.5
2025-08-11T2100,2601A,100.98,22.7633,普洱市,市环保局,,29,26,26,20,14,16,,30,28,4,5,5,6,0.5,0.5
2025-08-11T2100,2602A,100.9817,22.8322,普洱市,普洱第二中学,,30,28,28,21,10,13,,35,31,5,8,6,6,0.5,0.5
2025-08-11T2100,2262A,131.0518,45.8751,七台河市,新一中,,17,11,8,8,5,52,,68,64,10,8,9,9,0.7,0.7
2025-08-11T2100,3345A,131.0577,45.7879,七台河市,中波台,,15,15,9,7,8,35,,48,44,12,12,7,8,0.4,0.4
2025-08-11T2100,3637A,131.0176,45.7761,七台河市,人民广场,,19,19,16,10,8,34,,54,49,15,11,9,10,0.5,0.4
2025-08-11T2100,3684A,130.8781,45.8222,七台河市,新建矿广场,,12,,10,8,6,36,,57,52,8,8,10,10,0.4,0.3
2025-08-11T2100,1779A,123.9305,47.3636,齐齐哈尔市,安居小区,颗粒物(PM10),53,56,17,23,7,39,,56,53,16,13,4,4,0.5,0.4
2025-08-11T2100,1780A,123.9488,47.3386,齐齐哈尔市,中心广场,,18,18,14,3,2,39,,62,58,14,9,5,5,0.5,0.4
2025-08-11T2100,1781A,123.9483,47.3227,齐齐哈尔市,农牧车辆厂,,29,29,20,7,6,32,,62,56,18,10,6,6,0.4,0.4
2025-08-11T2100,1783A,123.945,47.2988,齐齐哈尔市,市环境监测站,,19,19,14,9,6,32,,60,55,17,11,5,5,0.4,0.3
2025-08-11T2100,3662A,123.6333,47.2075,齐齐哈尔市,富区青少年活动中心,,14,13,21,7,9,42,,63,60,7,9,6,6,0.3,0.3
2025-08-11T2100,2591A,107.9783,26.5747,黔东南苗族侗族自治州,市环境监测站,,18,14,16,12,12,53,,65,61,4,2,2,2,0.6,0.5
2025-08-11T2100,2881A,107.8908,26.5311,黔东南苗族侗族自治州,凯里学院,,19,,14,11,12,58,,71,68,11,8,2,2,0.5,0.4
2025-08-11T2100,2593A,107.5228,26.2403,黔南布依族苗族自治州,小围寨,,14,12,11,3,8,42,,57,51,3,3,1,2,0.2,0.2
2025-08-11T2100,3538A,107.5175,26.2978,黔南布依族苗族自治州,沙坝,,22,22,15,3,2,30,,54,45,7,5,4,4,0.4,0.4
2025-08-11T2100,2589A,104.9022,25.0925,黔西南布依族苗族自治州,场坝街,,23,22,16,16,9,57,,60,60,6,6,5,3,0.4,0.4
2025-08-11T2100,2590A,104.8811,25.0992,黔西南布依族苗族自治州,坪东大道,,,38,27,13,12,54,,60,59,,5,2,2,0.5,0.4
2025-08-11T2100,2502A,108.6236,21.9667,钦州市,市环保站,,39,39,24,17,12,36,,103,94,21,10,2,2,0.4,0.6
2025-08-11T2100,2503A,108.6549,21.9481,钦州市,沙埠小学,,,46,33,21,16,,,101,100,22,13,,3,0.4,0.6
2025-08-11T2100,2504A,108.5989,21.7431,钦州市,港区一小,,26,26,31,11,11,56,,71,67,10,12,2,4,0.6,0.7
2025-08-11T2100,3404A,108.5959,21.9633,钦州市,北职校,,36,36,25,20,14,32,,100,88,23,8,14,4,0.6,0.6
2025-08-11T2100,1043A,119.7493,40.0116,秦皇岛市,第一关,,36,,42,24,21,114,,167,146,6,30,5,9,0.3,0.7
2025-08-11T2100,1044A,119.5897,39.9499,秦皇岛市,监测站,,41,41,50,11,16,126,,172,154,8,21,6,9,0.4,0.7
2025-08-11T2100,1046A,119.5251,39.9041,秦皇岛市,建设大厦,,38,38,47,10,13,112,,161,145,8,19,7,10,0.5,0.8
2025-08-11T2100,3132A,119.610547,39.943889,秦皇岛市,文明里,,41,41,57,15,20,120,,160,144,7,18,6,10,0.5,0.7
2025-08-11T2100,4198A,119.5090,39.8253,秦皇岛市,北戴河轮滑馆,,41,32,53,16,26,130,,157,146,1,7,3,7,0.3,0.7
2025-08-11T2100,1307A,120.6659,36.2403,青岛市,仰口,,,,,,,,,,,,,,,,
2025-08-11T2100,1310A,120.4134,36.0658,青岛市,市南区东部子站,,37,,14,3,11,117,,123,116,2,4,6,6,0.2,0.3
2025-08-11T2100,1311A,120.3664,36.1032,青岛市,四方区子站,,36,9,16,7,11,114,,126,119,1,7,3,4,0.2,0.2
2025-08-11T2100,1312A,120.2994,36.054,青岛市,市南区西部子站,,37,17,17,12,10,116,,114,111,5,14,5,5,0.6,0.6
2025-08-11T2100,1313A,120.4581,36.0858,青岛市,崂山区子站,,35,7,14,3,6,112,,119,114,6,11,7,8,0.2,0.2
2025-08-11T2100,1315A,120.3999,36.3083,青岛市,城阳区子站,,30,22,23,10,12,96,,136,122,17,13,6,6,0.5,0.5
2025-08-11T2100,1966A,120.0405,35.8735,青岛市,黄岛区4号,,38,12,18,3,7,120,,130,128,6,11,4,5,0.4,0.5
2025-08-11T2100,3362A,120.5014,36.4034,青岛市,即墨2号,,30,23,23,13,14,94,,124,114,18,11,3,3,0.2,0.3
2025-08-11T2100,3642A,120.3503,36.0736,青岛市,市北区南部,,,,21,,10,,,92,,,15,,4,,0.6
2025-08-11T2100,3643A,120.3948,36.1805,青岛市,李沧区北部,,26,12,14,12,13,81,,109,98,13,8,5,6,0.2,0.3
2025-08-11T2100,4290A,120.1969,35.9546,青岛市,珠江路669号,,41,9,14,7,12,130,,127,127,4,13,6,7,0.5,0.5
2025-08-11T2100,1702A,113.0426,23.691,清远市,环保大楼,,35,35,38,18,19,97,,122,120,19,15,7,9,0.8,0.8
2025-08-11T2100,1703A,113.0208,23.7106,清远市,凤城街办,,28,25,30,12,16,89,,106,105,21,19,5,7,0.5,0.6
2025-08-11T2100,3025A,113.0477,23.6344,清远市,技师学院,,38,38,34,21,18,79,,111,106,24,19,8,9,0.5,0.5
2025-08-11T2100,3318A,112.9903,23.7403,清远市,清新太和,,36,36,32,15,17,97,,105,105,19,17,6,9,0.5,0.6
2025-08-11T2100,3455A,113.076,23.7198,清远市,清城东城,,24,24,29,12,15,75,,104,101,17,16,6,7,0.5,0.5
2025-08-11T2100,2661A,107.6325,35.7357,庆阳市,庆阳五中,,50,50,38,16,20,111,,127,127,10,8,7,7,0.6,0.6
2025-08-11T2100,2662A,107.6364,35.7067,庆阳市,市环保局,颗粒物(PM10),51,52,39,12,18,116,,138,136,9,8,3,4,0.8,0.8
2025-08-11T2100,1916A,103.7897,25.5035,曲靖市,环境监测站,,16,8,24,6,11,49,,60,60,11,13,5,7,0.6,0.5
2025-08-11T2100,1917A,103.8,25.5364,曲靖市,烟厂办公区,,17,13,20,9,11,52,,63,62,9,10,4,4,0.7,0.6
2025-08-11T2100,3376A,103.7947,25.462,曲靖市,南苑二区,,,14,20,10,9,38,,64,62,,9,3,4,,0.5
2025-08-11T2100,3377A,103.7444,25.5261,曲靖市,曲靖师范学院,,20,20,19,10,12,49,,58,56,10,12,5,7,0.4,0.4
2025-08-11T2100,1264A,118.8692,28.9398,衢州市,环保大楼,,46,46,41,26,26,56,,91,82,19,12,2,4,0.5,0.5
2025-08-11T2100,1265A,118.8709,28.9666,衢州市,实验学校,,43,43,40,24,25,66,,93,83,14,12,3,4,0.4,0.5
2025-08-11T2100,1266A,118.8621,28.9808,衢州市,衢州学院,,35,35,39,23,26,53,,96,81,26,15,3,6,0.4,0.4
2025-08-11T2100,1611A,118.5819,24.9117,泉州市,涂山街,,27,27,23,12,10,45,,64,55,15,14,3,4,0.4,0.4
2025-08-11T2100,1612A,118.5972,24.8978,泉州市,津头埔,,28,28,19,6,7,50,,67,57,12,11,2,3,0.4,0.4
2025-08-11T2100,1613A,118.6663,24.9424,泉州市,万安,,40,40,21,9,7,40,,67,55,16,12,2,2,0.3,0.3
2025-08-11T2100,1614A,118.6117,24.9604,泉州市,清源山,,,,,,,,,,,,,,,,
2025-08-11T2100,3529A,118.6333,24.9264,泉州市,城华南路,,23,23,18,11,7,43,,66,55,18,13,3,3,0.4,0.3
2025-08-11T2100,2626A,88.8876,29.2718,日喀则市,日喀则监测站,,25,10,4,3,1,79,,98,95,8,4,10,9,0.5,0.5
2025-08-11T2100,3726A,88.8781,29.2426,日喀则市,林业技术推广中心,,23,12,6,3,1,71,,96,93,5,3,6,5,0.5,0.5
2025-08-11T2100,1659A,119.471,35.4209,日照市,监测站,,35,6,11,3,10,109,,128,125,10,15,6,6,0.6,0.6
2025-08-11T2100,1660A,119.523,35.4216,日照市,市政府广场,,,9,14,3,4,,,129,127,20,12,9,5,0.7,0.7
2025-08-11T2100,1661A,119.5587,35.4044,日照市,港务局,,34,27,13,9,14,108,,128,124,19,12,13,12,0.7,0.8
2025-08-11T2100,3507A,119.5328,35.4625,日照市,职业技术学院,,31,17,13,3,6,97,,127,121,22,13,7,5,0.6,0.6
2025-08-11T2100,3604A,119.3266,35.1044,日照市,岚山环保分局,,36,6,13,3,5,115,,129,126,6,13,7,9,0.5,0.7
2025-08-11T2100,1835A,111.1922,34.7752,三门峡市,市政府,,43,43,29,13,11,56,,133,124,49,18,8,10,0.6,0.4
2025-08-11T2100,1836A,111.1587,34.7942,三门峡市,开发区,,45,45,37,20,17,88,,131,127,9,13,4,7,0.4,0.5
2025-08-11T2100,1838A,111.143,34.7955,三门峡市,风景区,细颗粒物(PM2.5),68,,35,49,17,88,,134,130,8,9,4,5,0.6,0.6
2025-08-11T2100,3039A,111.1911,34.7829,三门峡市,三门峡市第一小学,细颗粒物(PM2.5),55,43,34,39,13,84,,140,134,30,14,7,9,0.7,0.5
2025-08-11T2100,3598A,111.1,34.7167,三门峡市,富达温泉假日酒店,颗粒物(PM10),55,60,36,24,18,72,,129,123,25,18,7,8,0.5,0.5
2025-08-11T2100,2324A,117.6211,26.2625,三明市,三钢,,50,35,29,35,22,39,,94,72,18,13,10,6,0.8,1.3
2025-08-11T2100,2325A,117.635,26.2714,三明市,三明二中,,26,18,31,18,16,45,,90,70,8,9,4,3,0.4,0.5
2025-08-11T2100,2326A,117.6028,26.2378,三明市,三元区政府,,23,23,28,10,15,48,,109,85,11,11,2,2,0.4,0.4
2025-08-11T2100,2327A,117.7275,26.3108,三明市,洋溪,,,,,,,,,,,,,,,,
2025-08-11T2100,1876A,109.5078,18.2489,三亚市,河东子站,,18,17,16,12,8,40,,60,52,5,3,4,3,0.4,0.5
2025-08-11T2100,1877A,109.4964,18.2681,三亚市,河西子站,,13,12,19,3,7,40,,61,53,11,10,2,2,0.5,0.4
2025-08-11T2100,3540A,109.7348,18.3443,三亚市,君悦子站,,32,32,25,11,8,28,,61,51,14,8,1,1,0.3,0.3
2025-08-11T2100,2624A,91.7608,29.2313,山南市,山南监测站,,,10,5,3,2,,,77,74,11,4,4,2,0.4,0.3
2025-08-11T2100,2625A,91.7706,29.2436,山南市,山南人民医院,,15,15,7,6,4,48,,75,68,7,5,4,3,0.2,0.2
2025-08-11T2100,1674A,116.6794,23.3667,汕头市,金平子站,,,,11,3,4,59,,59,59,7,7,2,1,0.5,0.5
2025-08-11T2100,1675A,116.7244,23.3633,汕头市,龙湖子站,,14,,11,7,4,43,,58,56,27,10,8,6,0.6,0.6
2025-08-11T2100,1676A,116.7258,23.2775,汕头市,濠江子站,,,6,14,3,4,,,58,58,14,7,6,5,0.5,0.5
2025-08-11T2100,1677A,116.7519,23.4714,汕头市,澄海子站,,27,27,13,6,7,41,,56,56,18,9,4,2,0.8,0.7
2025-08-11T2100,1678A,116.6092,23.2539,汕头市,潮阳子站,,,,11,5,5,,,58,58,5,4,4,4,0.4,0.4
2025-08-11T2100,3444A,116.454,23.2684,汕头市,潮南峡山,,24,24,8,10,4,46,,60,60,9,6,7,6,0.6,0.6
2025-08-11T2100,3624A,116.4069,23.2533,汕头市,潮南子站,,16,16,9,11,4,46,,57,57,6,4,5,4,0.6,0.5
2025-08-11T2100,1693A,115.3653,22.775,汕尾市,市环保局,,13,12,10,6,4,41,,62,56,9,6,3,3,0.6,0.6
2025-08-11T2100,1694A,115.3706,22.7898,汕尾市,市政府,,26,26,10,6,5,42,,61,57,13,10,3,3,0.5,0.5
2025-08-11T2100,1695A,115.3622,22.7925,汕尾市,新城中学,,27,27,12,7,3,46,,62,57,10,8,4,4,0.4,0.4
2025-08-11T2100,2645A,109.9154,33.8715,商洛市,监测站,,20,19,14,13,7,64,,125,118,16,13,6,4,0.5,0.5
2025-08-11T2100,3045A,109.9643,33.8471,商洛市,商州区中学,,28,28,18,3,4,55,,123,112,31,13,25,5,0.7,0.4
2025-08-11T2100,2408A,115.6702,34.4285,商丘市,环境监测站,,36,26,18,18,15,113,,122,118,4,5,2,1,0.5,0.6
2025-08-11T2100,2409A,115.6458,34.4045,商丘市,粮食局,,34,21,19,3,9,108,,121,118,6,5,3,3,0.5,0.5
2025-08-11T2100,2410A,115.6293,34.3948,商丘市,睢阳区环保局,,33,26,22,13,13,104,,115,112,6,7,5,4,0.4,0.4
2025-08-11T2100,3171A,115.6071,34.4465,商丘市,梁园区档案局,,,18,22,15,12,,,115,113,3,6,3,2,0.5,0.5
2025-08-11T2100,1141A,121.4,31.238,上海市,普陀,,24,15,42,10,24,74,,143,105,18,25,5,6,0.5,0.5
2025-08-11T2100,1142A,121.478,31.2036,上海市,十五厂,,25,,45,16,26,77,,128,103,12,24,8,8,0.7,0.8
2025-08-11T2100,1143A,121.467,31.3008,上海市,虹口,,19,19,46,12,27,49,,117,88,30,35,9,5,1.0,0.8
2025-08-11T2100,1147A,121.425,31.2261,上海市,静安监测站,,25,,45,17,27,71,,132,99,17,24,4,4,0.8,0.8
2025-08-11T2100,1148A,121.703,31.1907,上海市,浦东川沙,,33,33,49,21,30,91,,165,135,21,37,5,6,0.7,0.8
2025-08-11T2100,1149A,121.533,31.2284,上海市,浦东新区监测站,,25,25,42,3,14,43,,125,93,39,25,9,8,1.0,0.8
2025-08-11T2100,1150A,121.577,31.2071,上海市,浦东张江,,38,38,50,21,26,46,,129,100,44,27,6,6,0.9,0.8
2025-08-11T2100,3265A,121.4316,31.3322,上海市,宝山庙行,,21,20,44,14,27,39,,114,86,41,39,8,8,0.7,0.6
2025-08-11T2100,3266A,121.8791,31.4662,上海市,崇明上实东滩,,20,20,31,6,22,57,,173,112,4,19,4,4,0.7,0.8
2025-08-11T2100,3268A,121.3162,31.2838,上海市,嘉定南翔,,22,,39,15,31,60,,118,91,18,21,4,4,0.5,0.5
2025-08-11T2100,3269A,121.3359,30.7456,上海市,金山新城,,22,18,43,15,34,62,,170,116,11,16,4,4,0.6,0.7
2025-08-11T2100,3270A,121.4996,31.0739,上海市,闵行浦江,,32,32,42,18,27,48,,141,105,27,21,5,6,1.2,1.1
2025-08-11T2100,3271A,121.2886,31.1663,上海市,青浦徐泾,,23,23,44,16,29,58,,134,96,23,24,6,6,0.8,0.8
2025-08-11T2100,3272A,121.2186,31.0378,上海市,松江图书馆,,22,16,34,15,29,62,,147,104,18,21,7,6,0.7,0.8
2025-08-11T2100,3273A,121.3902,31.2059,上海市,长宁仙霞,,21,15,41,13,23,65,,118,93,17,21,7,8,0.6,0.6
2025-08-11T2100,3274A,121.7965,31.0507,上海市,浦东惠南,,34,34,42,23,37,99,,155,140,19,21,10,10,0.6,0.6
2025-08-11T2100,3544A,121.4891,30.925,上海市,奉贤南桥新城,,30,26,40,21,31,63,,156,128,19,14,3,3,0.8,0.8
2025-08-11T2100,4183A,121.4174,31.16637,上海市,冠生园路458号,,23,20,38,16,28,67,,118,96,16,24,3,3,0.8,0.8
2025-08-11T2100,4205A,121.5419,31.2683,上海市,宁武路151号,,30,30,51,17,25,32,,134,90,54,35,3,3,0.9,0.8
2025-08-11T2100,2381A,118.005,28.4572,上饶市,百草园,,,,,,,,,,,,,,,,
2025-08-11T2100,2382A,117.9756,28.4436,上饶市,市监测站,,30,30,46,20,30,43,,100,84,3,11,11,17,0.4,0.6
