timepoint,stationcode,longitude,latitude,area,positionname,primarypollutant,aqi,pm10,pm10_24h,pm2_5,pm2_5_24h,o3,o3_24h,o3_8h,o3_8h_24h,no2,no2_24h,so2,so2_24h,co,co_24h
2026-01-15T2100,2568A,102.2503,31.8896,阿坝藏族羌族自治州,马师校,"颗粒物(PM10),细颗粒物(PM2.5)",54,57,34,38,21,29,,62,53,28,18,4,4,0.7,0.5
2026-01-15T2100,3994A,102.2174,31.9016,阿坝藏族羌族自治州,马尔康中学西区,,32,22,18,22,9,30,,66,59,32,15,7,5,0.7,0.5
2026-01-15T2100,2695A,80.2899,41.1684,阿克苏地区,电视台,颗粒物(PM10),85,119,125,48,60,65,,79,79,40,45,4,4,1.1,1.7
2026-01-15T2100,2696A,80.2592,41.1541,阿克苏地区,艺术中心,细颗粒物(PM2.5),73,89,127,53,64,77,,73,73,25,48,6,6,0.7,1.1
2026-01-15T2100,2205A,105.699,38.8409,阿拉善盟,蒙二幼,颗粒物(PM10),72,94,99,19,26,82,,84,79,5,8,9,11,0.5,0.6
2026-01-15T2100,2206A,105.7198,38.8508,阿拉善盟,环保局新楼,颗粒物(PM10),57,63,91,19,25,80,,85,76,5,6,9,10,0.5,0.5
2026-01-15T2100,2708A,88.1266,47.8515,阿勒泰地区,市站,,48,35,46,33,33,26,,45,43,50,43,7,7,0.6,0.7
2026-01-15T2100,4166A,88.1198,47.7931,阿勒泰地区,阿勒泰路33号,,47,47,43,32,33,16,,53,47,60,32,8,6,0.8,0.7
2026-01-15T2100,2630A,80.1171,32.4999,阿里地区,阿里监测站,,,6,4,3,3,,,55,,43,14,12,8,1.2,0.6
2026-01-15T2100,3192A,80.0906,32.5029,阿里地区,阿里藏医院,,25,11,16,3,10,80,,84,84,2,10,9,14,0.5,0.7
2026-01-15T2100,2644A,109.0088,32.6974,安康市,汉滨区检察院,细颗粒物(PM2.5),87,97,73,64,55,15,,54,52,45,27,4,4,0.9,0.8
2026-01-15T2100,4054A,109.0324,32.6913,安康市,市邮政管理局,细颗粒物(PM2.5),117,139,89,88,63,4,,45,39,68,35,6,6,1.9,1.1
2026-01-15T2100,2291A,117.0806,30.5181,安庆市,环科院,细颗粒物(PM2.5),110,130,93,83,69,2,,84,64,121,74,8,10,1.1,0.7
2026-01-15T2100,2292A,117.0331,30.5118,安庆市,马山宾馆,细颗粒物(PM2.5),129,127,91,98,71,33,,84,82,96,74,10,10,1.1,0.8
2026-01-15T2100,2294A,116.9897,30.6146,安庆市,安庆大学,细颗粒物(PM2.5),89,96,74,66,55,37,,90,85,66,46,6,9,0.6,0.7
2026-01-15T2100,3173A,117.0598,30.5351,安庆市,市人大,细颗粒物(PM2.5),104,140,91,78,68,3,,109,85,128,72,11,12,1.3,0.7
2026-01-15T2100,3123A,105.9408,26.2431,安顺市,凤凰山,细颗粒物(PM2.5),64,58,76,46,61,99,,109,109,17,30,15,32,0.6,0.7
2026-01-15T2100,3124A,105.9443,26.2567,安顺市,金钟山,细颗粒物(PM2.5),65,56,69,47,64,92,,104,104,14,20,20,34,0.6,0.7
2026-01-15T2100,3125A,105.8983,26.248,安顺市,娄家坡,细颗粒物(PM2.5),64,53,68,46,62,96,,105,105,12,17,10,18,0.7,0.8
2026-01-15T2100,1819A,114.3552,36.1017,安阳市,红庙街,颗粒物(PM10),83,115,144,55,66,54,,66,66,30,42,2,5,0.4,1.2
2026-01-15T2100,1820A,114.361,36.0681,安阳市,银杏小区,细颗粒物(PM2.5),88,115,134,65,70,54,,68,68,32,40,5,5,0.5,1
2026-01-15T2100,3141A,114.3921,36.0879,安阳市,信访局,细颗粒物(PM2.5),88,100,141,65,77,69,,74,74,24,44,4,8,0.5,1.3
2026-01-15T2100,3669A,114.4706,36.0634,安阳市,左辅环卫站,细颗粒物(PM2.5),104,123,161,78,126,45,,61,59,2,49,4,8,0.4,1
2026-01-15T2100,4117A,114.2918,36.0769,安阳市,钢三路198号,颗粒物(PM10),94,137,136,55,53,44,,64,63,35,36,3,6,0.4,0.8
2026-01-15T2100,1748A,123.0441,41.1201,鞍山市,深沟寺,颗粒物(PM10),51,51,74,35,57,51,,48,48,26,27,7,7,0.8,1.1
2026-01-15T2100,1749A,123.011,41.0931,鞍山市,太阳城,,49,48,91,34,58,62,,55,55,22,30,10,12,0.8,1.4
2026-01-15T2100,1750A,123.0483,41.1445,鞍山市,太平,细颗粒物(PM2.5),52,49,82,36,54,53,,49,49,24,30,9,9,0.8,1
2026-01-15T2100,1751A,122.964,41.0968,鞍山市,铁西三道街,,46,45,104,32,71,46,,38,38,33,48,19,16,0.6,1.5
2026-01-15T2100,1753A,123.0219,41.0822,鞍山市,明达新区,,43,41,82,30,61,53,,46,46,24,28,12,11,0.5,1
2026-01-15T2100,4201A,122.944647,41.082639,鞍山市,兴盛南路290号,"颗粒物(PM10),细颗粒物(PM2.5)",52,53,109,36,75,46,,40,40,31,46,17,13,0.6,1.5
2026-01-15T2100,2195A,107.4206,40.7609,巴彦淖尔市,附二中,颗粒物(PM10),67,84,110,27,36,52,,69,68,8,8,3,3,0.4,0.4
2026-01-15T2100,2196A,107.37,40.7372,巴彦淖尔市,市环保大楼,颗粒物(PM10),64,78,106,31,30,58,,78,77,10,10,4,4,0.4,0.4
2026-01-15T2100,1956A,86.1476,41.7529,巴音郭楞蒙古自治州,孔雀公园,颗粒物(PM10),71,92,103,40,41,38,,64,62,56,46,9,9,0.8,0.8
2026-01-15T2100,1957A,86.1971,41.7166,巴音郭楞蒙古自治州,棉纺厂,颗粒物(PM10),76,101,134,30,38,38,,64,60,43,37,/,/,/,/
2026-01-15T2100,1958A,86.236,41.7172,巴音郭楞蒙古自治州,经济开发区,颗粒物(PM10),66,81,91,25,29,44,,68,66,36,26,5,6,0.5,0.5
2026-01-15T2100,3181A,106.776805,31.852614,巴中市,市五中,细颗粒物(PM2.5),122,127,106,92,77,34,,76,72,27,28,5,6,0.9,0.9
2026-01-15T2100,3183A,106.7419,31.8654,巴中市,圣泉水务公司,细颗粒物(PM2.5),118,108,88,89,67,8,,72,65,62,35,5,5,1.0,0.8
2026-01-15T2100,3616A,106.7617,31.8343,巴中市,市中心医院,细颗粒物(PM2.5),143,145,107,109,80,3,,67,58,64,36,7,7,1.4,1
2026-01-15T2100,2235A,122.7909,45.608,白城市,洮北区环保局,细颗粒物(PM2.5),62,50,37,44,29,39,,50,44,26,20,11,6,0.5,0.4
2026-01-15T2100,2236A,122.8741,45.5725,白城市,市环保局,,44,44,32,30,24,18,,49,34,41,21,9,7,0.5,0.4
2026-01-15T2100,2231A,126.4219,41.9172,白山市,喜丰,细颗粒物(PM2.5),58,61,55,41,35,59,,53,53,18,36,13,22,0.9,1.1
2026-01-15T2100,2232A,126.4082,41.9416,白山市,环保局,细颗粒物(PM2.5),67,,42,48,40,58,,49,49,18,35,10,15,0.7,1.1
2026-01-15T2100,2647A,104.1727,36.5448,白银市,第三小学,颗粒物(PM10),102,154,112,44,36,74,,75,75,15,37,6,35,0.2,0.7
2026-01-15T2100,2648A,104.1467,36.5482,白银市,动力公司,颗粒物(PM10),99,148,105,40,33,77,,78,78,8,27,1,21,0.4,0.8
2026-01-15T2100,2512A,106.6102,23.901,百色市,市监测站,颗粒物(PM10),54,57,68,37,54,42,,71,68,18,17,7,8,0.8,0.8
2026-01-15T2100,2513A,106.6524,23.8842,百色市,市中心血站,,,,86,,70,,,70,64,65,38,21,9,1.2,1.1
2026-01-15T2100,4133A,106.6273,23.8798,百色市,龙景西路,细颗粒物(PM2.5),89,110,95,66,68,6,,78,68,57,28,7,8,1.0,0.8
2026-01-15T2100,2270A,117.396,32.9389,蚌埠市,工人疗养院,颗粒物(PM10),114,177,141,70,71,44,,89,80,69,51,10,9,0.7,0.8
2026-01-15T2100,2271A,117.3606,32.9428,蚌埠市,百货大楼,细颗粒物(PM2.5),110,164,137,83,74,23,,84,67,92,53,10,9,0.8,0.7
2026-01-15T2100,2273A,117.4183,32.8909,蚌埠市,蚌埠学院,细颗粒物(PM2.5),134,202,136,102,77,30,,92,79,71,50,10,8,0.6,0.6
2026-01-15T2100,2274A,117.3534,32.9672,蚌埠市,淮上区政府,颗粒物(PM10),108,166,132,75,74,24,,97,83,94,48,6,6,0.5,0.7
2026-01-15T2100,2275A,117.3143,32.8977,蚌埠市,高新区,颗粒物(PM10),98,146,136,65,82,40,,83,65,56,51,10,10,0.3,0.5
2026-01-15T2100,3715A,117.3091,32.9314,蚌埠市,蚌埠田家炳中学,颗粒物(PM10),109,167,146,81,85,44,,90,82,63,57,9,12,0.7,0.7
2026-01-15T2100,1585A,109.8761,40.6533,包头市,市环境监测站,颗粒物(PM10),75,100,145,32,37,60,,54,54,19,50,4,14,0.2,1.1
2026-01-15T2100,1587A,109.9992,40.5843,包头市,包头八中,颗粒物(PM10),92,134,163,43,63,63,,47,47,14,50,5,17,0.4,1.5
2026-01-15T2100,1589A,109.8641,40.6288,包头市,惠龙物流,颗粒物(PM10),74,98,145,23,48,65,,51,51,15,53,8,23,0.4,1.8
2026-01-15T2100,1590A,110.0376,40.5546,包头市,东河鸿龙湾,颗粒物(PM10),81,111,150,22,39,57,,56,56,20,55,8,15,0.6,1.5
2026-01-15T2100,3283A,109.9154,40.5684,包头市,滨河大厦,颗粒物(PM10),74,98,146,24,42,64,,57,57,9,45,6,15,0.5,1.1
2026-01-15T2100,3419A,109.9449,40.6259,包头市,包头市委党校,颗粒物(PM10),71,92,142,33,42,61,,54,54,14,49,7,16,0.5,1.6
2026-01-15T2100,3683A,109.8332,40.6577,包头市,昆区政府,颗粒物(PM10),79,107,146,33,50,53,,44,44,24,62,10,19,0.7,1.6
2026-01-15T2100,1931A,107.0802,34.3129,宝鸡市,竹园沟,颗粒物(PM10),75,99,99,46,35,34,,60,59,29,24,6,7,0.3,0.3
2026-01-15T2100,1933A,107.1429,34.3549,宝鸡市,监测站,细颗粒物(PM2.5),102,138,119,76,39,21,,56,52,44,34,6,6,0.7,0.6
2026-01-15T2100,1934A,107.1172,34.3759,宝鸡市,技工学校,颗粒物(PM10),104,157,123,76,46,19,,59,56,56,34,10,9,0.9,0.8
2026-01-15T2100,1936A,107.2025,34.3518,宝鸡市,文理学院,颗粒物(PM10),88,126,114,64,42,12,,61,57,56,36,4,6,0.6,0.6
2026-01-15T2100,1937A,107.2396,34.3626,宝鸡市,三迪小学,细颗粒物(PM2.5),107,136,125,80,52,8,,59,53,76,45,4,5,0.9,0.7
2026-01-15T2100,4155A,107.1721,34.3558,宝鸡市,滨河北路,颗粒物(PM10),123,196,122,74,40,4,,60,49,75,34,6,6,0.6,0.6
2026-01-15T2100,4308A,107.3898,34.3601,宝鸡市,陈仓区北开路21号,细颗粒物(PM2.5),104,153,125,78,54,38,,66,63,52,40,8,33,0.5,0.7
2026-01-15T2100,1051A,115.4803,38.8568,保定市,游泳馆,细颗粒物(PM2.5),173,220,156,131,107,5,,43,31,88,66,10,10,1.0,0.9
2026-01-15T2100,1052A,115.509,38.8895,保定市,华电二区,细颗粒物(PM2.5),165,164,143,125,111,4,,29,21,87,65,6,6,1.0,1
2026-01-15T2100,1053A,115.4588,38.9037,保定市,接待中心,细颗粒物(PM2.5),179,212,152,135,107,4,,35,28,84,60,4,4,1.0,1
2026-01-15T2100,1054A,115.4484,38.8344,保定市,地表水厂,细颗粒物(PM2.5),169,212,185,128,114,6,,36,31,90,64,8,8,0.9,0.9
2026-01-15T2100,3581A,115.3136,38.9511,保定市,满城区生态环境分局,细颗粒物(PM2.5),156,256,208,119,121,10,,31,29,86,63,9,6,1.0,1.2
2026-01-15T2100,3582A,115.4709,38.7628,保定市,清苑区第二中学,细颗粒物(PM2.5),160,255,194,122,108,4,,35,28,95,63,6,6,1.0,1
2026-01-15T2100,3583A,115.6231,39.0223,保定市,徐水物探局,细颗粒物(PM2.5),176,264,202,133,111,2,,21,18,77,60,8,8,1.0,1
2026-01-15T2100,4004A,115.4199,38.8665,保定市,双鹰农机,细颗粒物(PM2.5),162,262,195,123,96,14,,46,40,88,61,11,10,1.0,1
2026-01-15T2100,4034A,115.515,38.8589,保定市,植保所站,细颗粒物(PM2.5),195,195,153,146,111,0,,32,25,95,68,5,5,1.1,1.1
2026-01-15T2100,2594A,99.1589,25.1137,保山市,市环境监测站,,28,24,26,19,21,57,,80,75,9,10,4,4,0.4,0.3
2026-01-15T2100,2595A,99.1616,25.1381,保山市,市环保局,,32,24,30,22,22,71,,84,84,3,6,4,4,0.4,0.4
2026-01-15T2100,1867A,109.1435,21.4085,北海市,海滩公园,颗粒物(PM10),52,53,63,29,37,100,,132,128,15,15,7,12,0.8,0.9
2026-01-15T2100,1868A,109.0983,21.466,北海市,新市环保局,颗粒物(PM10),53,55,55,34,38,107,,120,119,17,17,4,8,0.6,0.7
2026-01-15T2100,1869A,109.1775,21.5232,北海市,北海工业园,细颗粒物(PM2.5),55,58,69,39,39,103,,120,119,13,19,6,11,0.8,0.8
2026-01-15T2100,3400A,109.1844,21.4396,北海市,龙潭自来水厂,细颗粒物(PM2.5),54,51,52,38,37,78,,115,110,10,12,11,15,0.6,0.6
2026-01-15T2100,1001A,116.3611,39.8786,北京市,万寿西宫,细颗粒物(PM2.5),144,219,146,110,86,7,,22,18,70,73,3,3,1.0,0.9
2026-01-15T2100,1003A,116.4174,39.9289,北京市,东四,"颗粒物(PM10),细颗粒物(PM2.5)",137,224,141,104,77,6,,22,17,77,72,8,6,1.4,1.1
2026-01-15T2100,1004A,116.4073,39.8858,北京市,天坛,细颗粒物(PM2.5),143,209,132,109,78,7,,19,16,68,63,3,3,1.3,1
2026-01-15T2100,1005A,116.4622,39.9364,北京市,农展馆,细颗粒物(PM2.5),138,202,130,105,76,11,,17,16,51,67,5,5,1.3,1.2
2026-01-15T2100,1006A,116.3399,39.9293,北京市,官园,细颗粒物(PM2.5),137,205,144,104,82,3,,17,11,79,68,7,6,1.4,1.1
2026-01-15T2100,1007A,116.2879,39.9613,北京市,海淀万柳,细颗粒物(PM2.5),118,163,119,89,72,1,,7,5,89,79,3,4,1.2,1.2
2026-01-15T2100,1008A,116.6635,40.1349,北京市,顺义新城,"颗粒物(PM10),细颗粒物(PM2.5)",127,204,118,96,68,31,,22,22,37,52,6,4,1.1,0.8
2026-01-15T2100,1009A,116.6275,40.327,北京市,怀柔镇,颗粒物(PM10),122,193,100,89,56,8,,25,16,75,46,5,4,1.2,0.7
2026-01-15T2100,1010A,116.2295,40.217,北京市,昌平镇,颗粒物(PM10),98,145,108,70,63,10,,19,17,55,57,2,4,0.8,1.1
2026-01-15T2100,1011A,116.3968,39.982,北京市,奥体中心,细颗粒物(PM2.5),137,197,123,104,73,3,,11,6,2,72,5,4,1.6,1.3
2026-01-15T2100,3418A,116.8336,40.4095,北京市,密云新城,颗粒物(PM10),137,224,105,87,53,4,,33,22,82,44,7,5,1.1,0.7
2026-01-15T2100,3671A,116.0879,39.9725,北京市,门头沟三家店,颗粒物(PM10),110,170,125,82,59,2,,14,8,75,61,3,3,1.0,0.9
2026-01-15T2100,3672A,116.1507,39.8246,北京市,丰台云岗,细颗粒物(PM2.5),123,181,141,93,78,1,,19,12,87,69,3,3,1.1,0.9
2026-01-15T2100,3674A,115.9578,39.7602,北京市,房山燕山,细颗粒物(PM2.5),135,210,142,103,67,12,,22,15,70,61,5,4,0.8,0.7
2026-01-15T2100,3675A,116.4669,39.7734,北京市,大兴旧宫,颗粒物(PM10),131,212,140,98,76,19,,25,22,41,55,3,3,1.3,1
2026-01-15T2100,3694A,115.9859,40.4562,北京市,延庆石河营,颗粒物(PM10),130,210,162,90,43,16,,56,42,68,27,4,3,0.9,0.6
2026-01-15T2100,3695A,116.6151,40.3052,北京市,怀柔新城,颗粒物(PM10),128,206,106,95,60,11,,26,17,64,35,6,4,1.2,0.7
2026-01-15T2100,3696A,116.2542,39.8764,北京市,丰台小屯,细颗粒物(PM2.5),133,205,144,101,81,2,,17,11,92,78,4,4,1.2,1.1
2026-01-15T2100,3697A,116.8399,40.3843,北京市,密云镇,颗粒物(PM10),130,210,103,96,55,3,,29,18,79,50,3,2,1.3,0.8
2026-01-15T2100,4057A,115.9423,40.4431,北京市,延庆百泉,颗粒物(PM10),113,176,168,67,42,9,,50,31,64,25,2,3,0.8,0.4
2026-01-15T2100,4058A,116.6598,39.9164,北京市,通州新华,颗粒物(PM10),120,190,134,77,66,18,,17,17,53,70,3,3,1.0,1
2026-01-15T2100,4182A,116.1942,39.9158,北京市,石景山八角,细颗粒物(PM2.5),120,181,125,91,72,5,,20,,78,68,3,1,1.3,0.8
2026-01-15T2100,4194A,117.078628,40.151726,北京市,平谷新城,颗粒物(PM10),140,230,107,99,60,4,,46,38,62,37,3,3,1.4,0.8
2026-01-15T2100,1761A,123.8274146,41.31234549,本溪市,大峪,细颗粒物(PM2.5),67,70,77,48,53,52,,40,40,26,36,8,9,0.8,0.9
2026-01-15T2100,1763A,123.7169,41.3094,本溪市,彩屯,细颗粒物(PM2.5),83,70,70,61,60,34,,40,40,43,31,7,9,1.2,1.5
2026-01-15T2100,1764A,123.7672166,41.28649327,本溪市,东明,细颗粒物(PM2.5),85,,65,63,60,50,,37,37,25,32,4,7,1.1,1.4
2026-01-15T2100,1765A,123.799345,41.266614,本溪市,新立屯,细颗粒物(PM2.5),63,56,61,45,53,48,,38,35,25,31,9,9,0.8,1
2026-01-15T2100,1766A,123.829144,41.336777,本溪市,威宁,细颗粒物(PM2.5),74,62,69,54,51,24,,35,35,50,34,5,7,0.8,1.1
2026-01-15T2100,2587A,105.287,27.3133,毕节市,八中,细颗粒物(PM2.5),119,116,99,90,86,27,,87,82,58,28,16,13,1.4,1.1
2026-01-15T2100,2588A,105.3079,27.2987,毕节市,师专,细颗粒物(PM2.5),98,93,89,73,71,64,,97,96,38,35,12,10,1.0,0.9
2026-01-15T2100,4263A,105.3688,27.3598,毕节市,工业大道,细颗粒物(PM2.5),133,132,102,101,76,80,,104,102,29,27,16,12,/,/
2026-01-15T2100,1629A,117.9961,37.3604,滨州市,第二水厂,颗粒物(PM10),147,244,230,81,112,4,,57,47,78,61,23,18,0.9,1.3
2026-01-15T2100,1630A,117.9789,37.3931,滨州市,北中新校,颗粒物(PM10),124,197,200,78,111,13,,62,54,74,64,18,14,0.8,1.1
2026-01-15T2100,3514A,117.9379,37.3959,滨州市,中海酒店,颗粒物(PM10),144,237,220,80,118,22,,57,51,61,55,20,15,0.8,1.1
2026-01-15T2100,3515A,117.9381509,37.35547456,滨州市,开发区一中,颗粒物(PM10),157,263,238,88,121,8,,64,52,70,56,26,24,0.7,1
2026-01-15T2100,3516A,118.0914,37.6938,滨州市,金海六路,颗粒物(PM10),133,215,222,78,107,26,,70,63,58,56,10,11,0.8,1.2
2026-01-15T2100,4028A,117.9955,37.3752,滨州市,滨州市西街道办事处,颗粒物(PM10),148,246,226,95,119,11,,63,52,62,52,21,16,0.8,1.1
2026-01-15T2100,2311A,115.8071,33.8399,亳州市,污水处理厂,颗粒物(PM10),92,134,131,61,74,76,,86,85,31,34,6,5,0.4,0.5
2026-01-15T2100,2312A,115.7789,33.8519,亳州市,三国揽胜宫,颗粒物(PM10),82,114,138,47,83,82,,84,84,24,33,3,4,0.4,0.6
2026-01-15T2100,3332A,115.7631,33.803,亳州市,亳州学院,,,117,132,,83,,,88,88,20,27,5,4,0.4,0.6
2026-01-15T2100,2693A,82.0482,44.8553,博尔塔拉蒙古自治州,市党校,,44,44,62,15,26,61,,64,64,19,23,2,3,0.3,0.4
2026-01-15T2100,2694A,82.0805,44.8966,博尔塔拉蒙古自治州,市环保局,,,52,56,21,27,48,,65,59,23,13,5,6,,0.6
2026-01-15T2100,1071A,116.8733,38.2922,沧州市,沧县城建局,细颗粒物(PM2.5),166,192,171,126,98,6,,51,39,85,61,6,7,1.0,0.9
2026-01-15T2100,1072A,116.8462,38.3189,沧州市,电视转播站,细颗粒物(PM2.5),147,173,168,112,102,2,,51,40,80,58,2,5,0.9,0.9
2026-01-15T2100,1073A,116.8588,38.3161,沧州市,市环保局,细颗粒物(PM2.5),160,164,177,122,101,3,,47,36,74,53,6,9,1.0,0.9
2026-01-15T2100,3324A,116.8011,38.294,沧州市,河北水利电力学院,细颗粒物(PM2.5),145,207,202,111,91,8,,51,43,81,59,6,8,1.0,0.9
2026-01-15T2100,2622A,97.1813,31.1289,昌都市,昌都监测站,细颗粒物(PM2.5),77,62,47,56,22,9,,66,52,67,22,4,3,2.1,0.8
2026-01-15T2100,3719A,97.1707,31.1428,昌都市,昌都会议中心,,30,29,23,21,17,48,,60,58,12,5,1,1,0.5,0.4
2026-01-15T2100,2692A,87.2722,44.0298,昌吉回族自治州,新区政务中心,,35,35,45,17,29,64,,63,63,15,19,12,9,0.4,0.6
2026-01-15T2100,3613A,87.3069,44.0093,昌吉回族自治州,亚心广场,颗粒物(PM10),53,56,56,17,30,62,,66,66,14,10,12,9,0.7,0.6
2026-01-15T2100,4164A,87.2057,43.9289,昌吉回族自治州,财政所,颗粒物(PM10),51,51,72,26,52,35,,54,43,34,20,8,6,0.5,0.6
2026-01-15T2100,1120A,125.2874,43.9024,长春市,客车厂,细颗粒物(PM2.5),73,53,40,53,45,34,,47,43,33,36,11,12,0.6,0.6
2026-01-15T2100,1121A,125.2943,43.8508,长春市,邮电学院,细颗粒物(PM2.5),67,54,41,48,39,36,,50,45,30,28,13,12,0.7,0.7
2026-01-15T2100,1122A,125.3648,43.8745,长春市,劳动公园,细颗粒物(PM2.5),67,57,46,48,36,41,,51,49,27,29,10,11,0.6,0.6
2026-01-15T2100,1123A,125.3233,43.8781,长春市,园林处,细颗粒物(PM2.5),53,45,40,37,38,46,,50,49,18,25,11,11,0.5,0.6
2026-01-15T2100,1124A,125.4604,43.7904,长春市,净月潭,细颗粒物(PM2.5),57,55,39,40,30,23,,54,41,39,20,8,8,0.6,0.5
2026-01-15T2100,1126A,125.38,43.8422,长春市,经开区环卫处,细颗粒物(PM2.5),67,,43,48,38,47,,52,52,22,32,7,8,0.5,0.6
2026-01-15T2100,1127A,125.234,43.7761,长春市,高新区管委会,细颗粒物(PM2.5),72,60,39,52,38,31,,50,38,37,34,18,10,0.6,0.5
2026-01-15T2100,1128A,125.1695,43.83,长春市,岱山公园,细颗粒物(PM2.5),74,62,47,54,45,13,,46,30,57,46,9,11,0.8,0.7
2026-01-15T2100,4281A,125.334645,43.916281,长春市,北亚泰大街1068号,细颗粒物(PM2.5),78,,44,57,42,32,,50,45,32,30,11,10,0.7,0.7
2026-01-15T2100,1335A,113.082,28.2421,长沙市,经开区环保局,细颗粒物(PM2.5),108,112,95,81,74,59,,100,89,59,45,7,8,0.8,0.6
2026-01-15T2100,1336A,112.8873,28.2202,长沙市,高开区环保局,细颗粒物(PM2.5),143,144,93,109,82,40,,96,89,67,30,7,9,1.2,0.7
2026-01-15T2100,1337A,113.0785,28.2012,长沙市,马坡岭,细颗粒物(PM2.5),104,138,103,78,75,8,,99,79,111,48,6,8,1.1,0.8
2026-01-15T2100,1338A,112.9448,28.1894,长沙市,湖南师范大学,细颗粒物(PM2.5),72,92,91,52,62,67,,108,104,33,35,6,8,0.7,0.8
2026-01-15T2100,1339A,113.0177,28.1322,长沙市,雨花区环保局,细颗粒物(PM2.5),85,101,90,63,66,36,,96,87,80,50,9,10,0.9,0.8
2026-01-15T2100,1340A,112.9795,28.2593,长沙市,伍家岭,细颗粒物(PM2.5),118,150,114,89,80,2,,94,71,104,57,7,9,1.4,0.8
2026-01-15T2100,1341A,113.002,28.1944,长沙市,火车新站,细颗粒物(PM2.5),110,122,105,83,71,36,,96,88,86,52,10,12,1.2,0.9
2026-01-15T2100,1342A,112.9846,28.1177,长沙市,天心区环保局,细颗粒物(PM2.5),85,108,86,63,66,57,,101,96,63,44,7,9,1.0,0.7
2026-01-15T2100,1343A,112.8906,28.1307,长沙市,湖南中医药大学,细颗粒物(PM2.5),90,122,94,67,69,3,,102,73,99,48,7,9,0.9,0.8
2026-01-15T2100,1727A,113.1146,36.1547,长治市,清华站,,31,31,76,7,25,77,,89,88,11,20,10,12,0.3,0.6
2026-01-15T2100,1730A,113.0887,36.2126,长治市,审计局,,33,33,68,12,25,68,,84,82,19,20,9,10,0.4,0.6
2026-01-15T2100,1731A,113.0845,36.1856,长治市,长治八中,,46,46,96,12,33,72,,86,85,13,18,9,11,0.4,0.6
2026-01-15T2100,2845A,113.1561,36.1912,长治市,德盛苑,,28,24,69,9,24,89,,93,92,5,9,10,9,0.4,0.5
2026-01-15T2100,3568A,113.0603,36.0464,长治市,向阳小学,,,53,90,24,26,,,94,94,29,14,,12,0.3,0.4
2026-01-15T2100,3569A,112.8788,36.315,长治市,屯留一中,"颗粒物(PM10),细颗粒物(PM2.5)",55,60,82,39,34,38,,75,72,37,29,18,13,0.7,0.9
2026-01-15T2100,4189A,113.113092,36.199482,长治市,英华南巷50号,,36,36,84,9,26,66,,87,84,22,20,7,8,0.5,0.7
2026-01-15T2100,4190A,113.23666,36.33435,长治市,学府街1号,,39,39,84,15,35,68,,87,85,14,23,7,11,0.5,1
2026-01-15T2100,1854A,111.696,28.9725,常德市,市二中,细颗粒物(PM2.5),100,109,122,75,92,78,,108,104,35,22,9,7,0.8,1
2026-01-15T2100,3138A,111.7152,29.0288,常德市,武陵区永安,细颗粒物(PM2.5),123,132,131,93,98,84,,110,106,22,21,8,7,0.9,1
2026-01-15T2100,3139A,111.6891,28.9881,常德市,鼎城区玉霞,细颗粒物(PM2.5),92,114,117,68,100,84,,108,105,23,27,10,9,0.5,0.7
2026-01-15T2100,3140A,111.6651,29.0526,常德市,武陵区长庚,细颗粒物(PM2.5),110,117,130,83,100,92,,115,113,22,24,8,7,0.7,0.9
2026-01-15T2100,1196A,119.9524,31.7586,常州市,市监测站,细颗粒物(PM2.5),130,145,119,99,79,5,,90,70,122,75,9,9,1.4,1.2
2026-01-15T2100,1200A,119.9351,31.703,常州市,武进监测站,细颗粒物(PM2.5),127,141,116,96,79,15,,88,74,110,65,16,15,0.9,0.7
2026-01-15T2100,3002A,119.9701,31.813,常州市,行政中心,细颗粒物(PM2.5),127,157,116,96,74,7,,103,79,140,71,12,11,0.8,0.9
2026-01-15T2100,3003A,120.0434,31.7726,常州市,经开区,细颗粒物(PM2.5),135,180,135,103,78,3,,94,75,136,79,15,17,0.8,0.9
2026-01-15T2100,3010A,119.8919,31.7892,常州市,钟楼,细颗粒物(PM2.5),129,144,113,98,73,18,,87,72,104,66,10,11,1.0,0.7
2026-01-15T2100,3429A,119.8595,31.706,常州市,武进经发区,细颗粒物(PM2.5),145,161,120,111,85,11,,92,77,125,76,6,7,1.3,1
2026-01-15T2100,3430A,119.5812,31.7256,常州市,金坛城区,细颗粒物(PM2.5),132,,59,100,82,58,,100,96,55,45,12,12,1.1,0.9
2026-01-15T2100,4089A,119.9551,31.863,常州市,崇义南街5-H号,细颗粒物(PM2.5),144,176,117,110,79,9,,88,68,128,81,11,12,1.2,1.1
2026-01-15T2100,2220A,120.4318,41.588,朝阳市,西梁,,48,43,84,33,50,53,,61,60,15,22,14,13,0.7,1
2026-01-15T2100,2221A,120.452,41.565,朝阳市,河畔小区,,36,28,74,25,52,60,,62,62,13,27,9,12,0.5,1.1
2026-01-15T2100,2222A,120.4176,41.5648,朝阳市,八里堡,,42,41,74,29,49,55,,61,61,19,31,12,10,0.6,1.1
2026-01-15T2100,3026A,116.6179,23.6608,潮州市,市政府,细颗粒物(PM2.5),69,76,85,50,47,69,,132,119,34,32,5,14,0.7,0.6
2026-01-15T2100,4036A,116.646,23.676,潮州市,金山,细颗粒物(PM2.5),70,66,65,51,43,73,,138,130,29,20,5,6,0.6,0.5
2026-01-15T2100,2473A,113.0116,25.8228,郴州市,市职中,,,110,68,58,49,,,122,114,55,38,7,7,0.9,0.8
2026-01-15T2100,2475A,113.0381,25.8074,郴州市,市审计局,细颗粒物(PM2.5),99,124,80,74,52,39,,130,111,55,41,7,4,/,/
2026-01-15T2100,2476A,113.0348,25.7757,郴州市,市环保局,细颗粒物(PM2.5),77,88,69,56,46,57,,116,105,52,34,5,6,0.6,0.5
2026-01-15T2100,4252A,113.0138,25.8011,郴州市,好美居路49号,细颗粒物(PM2.5),75,75,61,55,49,26,,137,123,76,46,5,6,/,/
2026-01-15T2100,1431A,103.9727,30.7242,成都市,金泉两河,细颗粒物(PM2.5),139,106,104,106,74,73,,88,88,43,60,4,5,1.0,1.3
2026-01-15T2100,1432A,104.1423,30.6765,成都市,十里店,细颗粒物(PM2.5),153,148,115,117,75,74,,82,82,42,74,4,5,0.9,1.3
2026-01-15T2100,1433A,104.0594,30.5765,成都市,三瓦窑,细颗粒物(PM2.5),132,120,102,100,73,53,,84,84,59,73,4,5,0.9,1.2
2026-01-15T2100,1434A,104.1122,30.6306,成都市,沙河铺,细颗粒物(PM2.5),165,130,106,125,89,60,,61,61,52,87,3,4,0.9,1.3
2026-01-15T2100,2880A,104.0219,30.6561,成都市,大石西路,细颗粒物(PM2.5),123,137,112,93,75,39,,72,72,54,68,5,6,0.8,1.8
2026-01-15T2100,3136A,104.2724,30.559,成都市,龙泉驿区区政府,细颗粒物(PM2.5),144,124,65,110,48,112,,106,106,14,25,7,6,0.8,0.7
2026-01-15T2100,3357A,104.0028,30.6891,成都市,金博路,细颗粒物(PM2.5),103,114,97,77,68,44,,80,80,71,68,6,8,1.2,1.3
2026-01-15T2100,3359A,104.056,30.5228,成都市,华阳,细颗粒物(PM2.5),117,102,91,88,67,48,,84,84,62,67,3,4,0.8,1.1
2026-01-15T2100,3488A,104.387954,30.746684,成都市,青石路225号,细颗粒物(PM2.5),175,150,86,132,65,61,,99,99,53,54,2,3,1.0,0.8
2026-01-15T2100,3489A,104.0788,30.4054,成都市,科学城,细颗粒物(PM2.5),110,154,75,83,46,91,,98,98,23,40,7,6,0.7,0.4
2026-01-15T2100,4011A,103.8505,30.6946,成都市,光华大道三段,细颗粒物(PM2.5),124,126,103,94,71,80,,99,99,50,55,5,5,0.6,0.7
2026-01-15T2100,4144A,104.3257,30.6406,成都市,八角井街185号,细颗粒物(PM2.5),203,164,90,153,62,91,,87,87,18,38,4,3,0.7,0.8
2026-01-15T2100,4224A,104.2433276,30.53529463,成都市,鲸龙路1057号,细颗粒物(PM2.5),152,133,78,116,60,93,,104,104,22,48,5,6,0.8,0.8
2026-01-15T2100,1062A,117.9531,40.908,承德市,铁路,细颗粒物(PM2.5),114,172,113,86,66,4,,20,12,61,43,10,8,1.7,1.5
2026-01-15T2100,1063A,117.9397,40.9763,承德市,中国银行,颗粒物(PM10),97,144,104,56,55,6,,28,19,52,38,5,5,1.4,1.3
2026-01-15T2100,4073A,117.9462,40.95,承德市,杏林街1号,颗粒物(PM10),92,134,99,55,60,12,,30,22,44,37,6,7,1.3,1.3
2026-01-15T2100,4274A,117.7994,40.9605,承德市,滨河大街98号,颗粒物(PM10),91,131,84,57,58,14,,26,20,51,42,5,6,0.9,1.2
2026-01-15T2100,2314A,117.4698,30.6617,池州市,池州学院,细颗粒物(PM2.5),100,102,77,75,54,65,,98,95,53,44,7,8,0.9,1.1
2026-01-15T2100,3237A,117.4918,30.6617,池州市,展览馆,细颗粒物(PM2.5),79,86,79,58,51,24,,85,77,57,47,2,4,0.9,1.2
2026-01-15T2100,3333A,117.5626,30.695,池州市,第八中学,细颗粒物(PM2.5),83,88,82,61,55,81,,99,99,37,52,9,12,1.0,1
2026-01-15T2100,3334A,117.5037,30.6242,池州市,第十二中学,细颗粒物(PM2.5),97,116,81,72,49,31,,87,78,67,56,4,6,0.9,1.4
2026-01-15T2100,1744A,118.9229,42.2816,赤峰市,松山一中,,35,35,54,10,25,47,,48,47,16,34,5,43,0.7,1
2026-01-15T2100,1745A,118.9588,42.2733,赤峰市,哈达街,颗粒物(PM10),59,68,57,18,29,50,,49,48,20,35,6,68,0.7,1
2026-01-15T2100,1746A,118.8792,42.2551,赤峰市,天义路,,38,32,44,26,36,48,,42,42,17,34,9,57,0.7,1
2026-01-15T2100,3058A,119.2656,42.0356,赤峰市,银河街,,37,37,48,19,25,56,,60,60,7,10,10,12,0.6,0.6
2026-01-15T2100,3286A,118.9359,42.3146,赤峰市,桥北物流园区,,32,26,46,22,31,58,,60,59,13,22,5,11,0.5,0.7
2026-01-15T2100,2521A,107.3473,22.4137,崇左市,市环保局江州分局,细颗粒物(PM2.5),130,121,102,99,71,100,,131,128,27,32,12,9,1.1,0.9
2026-01-15T2100,4256A,107.375,22.3736,崇左市,石景林东路7号,细颗粒物(PM2.5),105,84,81,79,74,118,,139,137,22,27,13,10,0.8,0.8
2026-01-15T2100,3207A,118.31131,32.3033,滁州市,市政府原办公楼,细颗粒物(PM2.5),119,154,119,90,63,12,,112,79,108,50,6,7,1.1,0.6
2026-01-15T2100,3331A,118.3268,32.2633,滁州市,图书馆,细颗粒物(PM2.5),100,133,95,75,60,37,,103,91,73,33,10,12,0.9,0.6
2026-01-15T2100,4101A,118.3196,32.3335,滁州市,银山路666号,细颗粒物(PM2.5),145,175,101,111,80,0,,92,66,98,41,11,9,0.8,0.6
2026-01-15T2100,4102A,118.3426,32.2979,滁州市,黄山路555号,细颗粒物(PM2.5),139,180,117,106,79,13,,120,104,116,58,16,14,1.1,0.9
2026-01-15T2100,2606A,101.5379,25.0492,楚雄彝族自治州,市经济开发区,,,,35,,17,,,72,,,25,,3,,0.6
2026-01-15T2100,4153A,101.5536,25.0343,楚雄彝族自治州,团结路562号,,23,19,28,16,19,69,,73,73,7,19,4,5,0.3,0.4
2026-01-15T2100,2549A,107.5087,31.2186,达州市,市环境监测站,细颗粒物(PM2.5),156,150,145,119,124,8,,58,54,62,40,6,6,1.2,1
2026-01-15T2100,2550A,107.4988,31.2132,达州市,凤凰小区,细颗粒物(PM2.5),163,168,162,124,128,3,,52,46,76,39,5,5,1.4,1.1
2026-01-15T2100,2551A,107.5081,31.1987,达州市,达县机关宾馆,细颗粒物(PM2.5),193,180,165,145,126,2,,39,31,69,45,6,4,1.3,1.3
2026-01-15T2100,2552A,107.4644,31.2124,达州市,市政中心,细颗粒物(PM2.5),195,222,177,146,130,5,,7,7,95,49,8,7,2.3,1.2
2026-01-15T2100,2614A,100.2168,25.5818,大理白族自治州,大理市环境监测站,,24,24,25,15,20,75,,74,74,9,9,7,6,0.5,0.7
2026-01-15T2100,2615A,100.1542,25.7055,大理白族自治州,大理古城,,26,25,26,16,16,82,,88,88,7,10,7,8,0.6,0.6
2026-01-15T2100,1109A,121.6119,38.974,大连市,甘井子,细颗粒物(PM2.5),135,140,104,103,70,3,,38,18,62,43,6,7,0.7,0.7
2026-01-15T2100,1110A,121.565,38.9509,大连市,周水子,细颗粒物(PM2.5),123,126,106,93,71,11,,32,16,48,38,11,10,1.2,0.9
2026-01-15T2100,1111A,121.5637,38.8849,大连市,星海三站,细颗粒物(PM2.5),130,122,103,99,71,5,,36,15,44,35,8,8,1.3,1.1
2026-01-15T2100,1112A,121.6301,38.9117,大连市,青泥洼桥,细颗粒物(PM2.5),138,142,111,105,74,3,,25,10,60,44,14,9,1.4,1.3
2026-01-15T2100,1113A,121.6248,38.8643,大连市,傅家庄,细颗粒物(PM2.5),145,158,109,111,70,2,,32,14,63,41,13,12,1.8,1
2026-01-15T2100,1114A,121.5117,38.8636,大连市,七贤岭,细颗粒物(PM2.5),125,141,100,95,62,11,,49,23,47,34,9,10,1.2,1
2026-01-15T2100,1116A,121.7507,39.1339,大连市,金州,细颗粒物(PM2.5),149,142,104,114,74,3,,31,18,62,34,13,9,1.4,0.9
2026-01-15T2100,1117A,121.7811,39.0495,大连市,开发区,细颗粒物(PM2.5),145,150,121,111,79,5,,25,13,51,39,9,8,1.4,1.2
2026-01-15T2100,1118A,121.9762,39.0631,大连市,双D港,细颗粒物(PM2.5),120,117,101,91,82,24,,34,27,35,26,8,7,1.2,1
2026-01-15T2100,4082A,121.2548,38.8188,大连市,旅顺,细颗粒物(PM2.5),119,126,115,90,76,22,,32,24,25,24,6,7,1.0,1
2026-01-15T2100,1789A,124.8085,46.0381,大庆市,大同区,细颗粒物(PM2.5),78,75,82,57,68,42,,52,49,26,31,7,9,0.9,0.9
2026-01-15T2100,1790A,125.1166,46.5255,大庆市,龙凤区,,,89,55,65,44,34,,53,45,40,34,9,10,,0.6
2026-01-15T2100,1791A,124.8894,46.4007,大庆市,红岗区,细颗粒物(PM2.5),67,51,76,48,57,34,,43,41,24,37,5,12,0.6,0.8
2026-01-15T2100,1792A,125.1391,46.578,大庆市,萨尔图区,细颗粒物(PM2.5),75,74,65,55,44,28,,45,34,38,25,9,9,0.9,0.6
2026-01-15T2100,1793A,124.9026,46.6217,大庆市,让胡路区,细颗粒物(PM2.5),64,52,59,46,53,49,,62,58,23,32,9,8,0.7,0.9
2026-01-15T2100,3481A,125.127,46.6277,大庆市,萨区政府监测点,细颗粒物(PM2.5),77,78,76,56,47,22,,54,44,42,25,9,9,1.0,0.7
2026-01-15T2100,1723A,113.2926,40.0759,大同市,云冈宾馆,颗粒物(PM10),91,132,216,34,40,33,,62,59,39,28,10,9,0.7,0.9
2026-01-15T2100,1724A,113.3437,40.0921,大同市,大同大学,细颗粒物(PM2.5),137,115,194,104,62,34,,71,65,40,25,6,9,0.6,0.6
2026-01-15T2100,1725A,113.2637,40.129,大同市,安家小村,颗粒物(PM10),95,140,207,30,47,48,,66,64,26,22,10,12,0.5,0.6
2026-01-15T2100,3282A,113.3399,40.0586,大同市,大同市卫生学校,颗粒物(PM10),95,140,207,38,48,33,,62,59,45,31,9,9,0.6,0.6
2026-01-15T2100,3565A,113.1371,40.1122,大同市,云冈站,颗粒物(PM10),90,130,171,52,41,1,,66,52,63,23,10,8,0.7,0.5
2026-01-15T2100,3566A,113.1186,40.2556,大同市,图书馆,颗粒物(PM10),83,116,179,48,49,40,,72,68,30,15,8,10,0.7,0.6
2026-01-15T2100,3567A,113.5931,40.0459,大同市,区一中,颗粒物(PM10),83,116,112,50,26,56,,85,78,24,17,6,4,0.6,0.4
2026-01-15T2100,4199A,113.2798248,40.09972476,大同市,魏都大道141号,颗粒物(PM10),95,139,232,32,45,29,,61,57,44,36,9,9,0.7,1
2026-01-15T2100,2269A,124.1068,50.4091,大兴安岭地区,科技局,,39,32,23,27,15,43,,51,48,9,4,11,5,0.3,0.3
2026-01-15T2100,3663A,124.117,50.4279,大兴安岭地区,红旗社区,,15,,28,10,23,40,,50,46,11,24,6,8,0.4,0.4
2026-01-15T2100,1600A,124.33,40.0625,丹东市,江湾东路,细颗粒物(PM2.5),85,80,76,63,50,36,,48,32,26,26,5,7,0.9,0.8
2026-01-15T2100,1601A,124.4242,40.1513,丹东市,临江后街,细颗粒物(PM2.5),82,82,63,60,37,36,,50,42,27,22,7,10,0.9,0.8
2026-01-15T2100,1602A,124.3935,40.1461,丹东市,元宝山,细颗粒物(PM2.5),83,80,59,61,36,38,,52,49,21,17,7,10,0.8,0.6
2026-01-15T2100,1603A,124.3634,40.1093,丹东市,民主桥,细颗粒物(PM2.5),82,98,75,60,39,35,,45,34,24,24,6,8,1.0,0.9
2026-01-15T2100,3541A,109.5726195,19.51688767,儋州市,第一中学子站,颗粒物(PM10),55,60,42,30,24,77,,78,77,9,6,4,5,0.6,0.6
2026-01-15T2100,3542A,109.5567,19.5187,儋州市,东坡学校子站,,,,36,,23,,,113,,,5,,6,,0.5
2026-01-15T2100,2616A,98.5611,24.4273,德宏傣族景颇族自治州,德宏州监测站,细颗粒物(PM2.5),60,64,47,43,32,33,,74,71,39,25,8,7,1.1,0.7
2026-01-15T2100,3677A,98.5887,24.4366,德宏傣族景颇族自治州,芒市人民政府综合楼,颗粒物(PM10),61,72,48,31,28,39,,69,66,20,17,5,5,0.8,0.7
2026-01-15T2100,1901A,104.424,31.1209,德阳市,东山公园,细颗粒物(PM2.5),124,98,82,94,70,96,,104,104,16,24,5,6,0.8,0.7
2026-01-15T2100,1902A,104.3827,31.1318,德阳市,西小区,细颗粒物(PM2.5),132,128,116,100,76,54,,85,85,50,50,4,6,1.1,1.3
2026-01-15T2100,1904A,104.3553,31.1091,德阳市,耐火材料厂,细颗粒物(PM2.5),129,107,106,98,83,50,,85,83,,60,2,4,1.0,1
2026-01-15T2100,4145A,104.4144,31.1495,德阳市,市林业局,细颗粒物(PM2.5),148,129,90,113,76,56,,86,84,55,49,3,3,0.8,0.6
2026-01-15T2100,1622A,116.3034,37.4675,德州市,儿童乐园,颗粒物(PM10),129,207,241,90,122,48,,62,62,43,59,18,19,1.2,1.5
2026-01-15T2100,1624A,116.2992,37.4449,德州市,监理站,颗粒物(PM10),131,212,238,90,126,57,,70,70,46,62,20,21,1.0,1.3
2026-01-15T2100,3066A,116.2722,37.438,德州市,九衢泉纯净水厂,颗粒物(PM10),131,212,234,92,131,31,,62,59,62,66,14,13,1.1,1.4
2026-01-15T2100,3371A,116.3693,37.44,德州市,开发区人民医院,颗粒物(PM10),135,219,247,97,131,50,,65,65,48,69,19,20,1.0,1.2
2026-01-15T2100,3511A,116.5687,37.3331,德州市,陵城艺术中心,颗粒物(PM10),130,210,253,80,136,50,,65,65,43,65,17,20,1.0,1.4
2026-01-15T2100,4292A,116.352738,37.420875,德州市,新河东路,颗粒物(PM10),128,205,241,95,134,46,,61,60,55,75,19,20,1.3,1.6
2026-01-15T2100,2621A,99.7054,27.8319,迪庆藏族自治州,迪庆州站,,27,27,29,14,18,74,,85,82,7,9,4,4,0.2,0.4
2026-01-15T2100,3180A,99.7122,27.8129,迪庆藏族自治州,质量技术监督局,,29,25,28,20,17,79,,87,85,7,12,4,4,0.3,0.4
2026-01-15T2100,4257A,104.6092,35.5962,定西市,将台街,细颗粒物(PM2.5),99,124,101,74,46,42,,79,73,41,30,18,17,0.6,0.8
2026-01-15T2100,4309A,104.6159,35.5701,定西市,正龙路62号,细颗粒物(PM2.5),123,143,107,93,42,33,,80,74,34,12,42,15,1.2,0.7
2026-01-15T2100,1390A,113.7943,23.0132,东莞市,东城石井,颗粒物(PM10),66,81,75,46,44,87,,178,163,70,62,7,8,0.7,0.6
2026-01-15T2100,1391A,113.7384,22.9659,东莞市,南城西平,颗粒物(PM10),61,72,96,43,57,109,,177,168,55,84,7,8,0.7,0.8
2026-01-15T2100,3319A,113.7283,23.041,东莞市,万江金泰,细颗粒物(PM2.5),89,116,96,66,55,97,,174,155,86,70,7,7,1.1,1.1
2026-01-15T2100,4129A,113.8666,23.1062,东莞市,裕兴路,颗粒物(PM10),97,144,103,66,50,45,,181,146,125,66,7,9,0.9,0.8
2026-01-15T2100,4130A,114.0076,22.9739,东莞市,教育路1号,细颗粒物(PM2.5),127,174,116,96,60,149,,218,207,83,79,6,6,0.9,0.8
2026-01-15T2100,4131A,113.7981,22.8124,东莞市,长怡路1号,,,,112,50,55,56,,151,146,90,91,7,9,0.9,0.9
2026-01-15T2100,1666A,118.6612,37.4313,东营市,市环保局,颗粒物(PM10),141,232,209,85,113,,,66,64,46,62,15,37,0.9,1.3
2026-01-15T2100,3036A,118.6903,37.4337,东营市,开发区管委会,颗粒物(PM10),160,270,223,80,113,46,,63,58,40,60,8,9,0.7,1
2026-01-15T2100,3365A,118.5721,37.5654,东营市,垦利区民丰路,颗粒物(PM10),126,202,199,63,103,27,,66,59,55,58,10,12,0.7,1.1
2026-01-15T2100,3498A,118.5063,37.8606,东营市,河口城区,细颗粒物(PM2.5),216,251,193,166,97,50,,77,74,54,53,8,11,1.5,1.3
2026-01-15T2100,3646A,118.4979,37.4623,东营市,胜利站,颗粒物(PM10),117,183,198,83,112,28,,57,52,59,67,20,29,1.0,1.4
2026-01-15T2100,3734A,118.5753,37.4405,东营市,理想之城,颗粒物(PM10),140,229,201,100,116,33,,68,63,43,62,40,20,1.2,1.5
2026-01-15T2100,1591A,110.0024,39.8127,鄂尔多斯市,综合楼,颗粒物(PM10),58,66,161,19,32,69,,59,59,16,24,6,10,0.2,0.5
2026-01-15T2100,1592A,109.9485,39.8259,鄂尔多斯市,巴音孟克林场办事处,颗粒物(PM10),64,78,140,22,31,68,,63,60,15,17,6,8,0.3,0.3
2026-01-15T2100,1593A,109.7734,39.5987,鄂尔多斯市,康泽苑,颗粒物(PM10),67,83,144,29,36,64,,84,84,19,18,6,6,0.4,0.4
2026-01-15T2100,1594A,109.8121,39.5987,鄂尔多斯市,华泰汽车城,颗粒物(PM10),71,92,148,29,32,45,,73,72,30,22,4,5,0.3,0.4
2026-01-15T2100,1595A,109.9734,39.7884,鄂尔多斯市,奥林花园,颗粒物(PM10),63,75,153,12,31,71,,60,60,12,31,4,8,0.3,0.4
2026-01-15T2100,2436A,114.894,30.3989,鄂州市,市政府,细颗粒物(PM2.5),172,173,126,130,94,19,,98,85,102,58,8,12,1.5,1.6
2026-01-15T2100,2437A,114.8986,30.3714,鄂州市,赵家坝,细颗粒物(PM2.5),138,124,111,105,82,86,,121,119,55,43,11,12,1.0,0.9
2026-01-15T2100,3654A,114.8093,30.4091,鄂州市,精准医疗中心,细颗粒物(PM2.5),159,150,109,121,88,112,,121,120,44,48,29,16,1.0,0.8
2026-01-15T2100,2454A,109.4978,30.2979,恩施土家族苗族自治州,湖北民院,细颗粒物(PM2.5),227,,137,177,156,6,,51,50,51,22,6,6,1.7,1.2
2026-01-15T2100,3549A,109.5061,30.3771,恩施土家族苗族自治州,龙凤新区,细颗粒物(PM2.5),215,192,160,165,136,11,,44,43,42,21,7,7,1.5,1.1
2026-01-15T2100,2499A,108.3411,21.6159,防城港市,沙万,颗粒物(PM10),61,72,80,40,45,87,,86,86,31,35,7,11,0.8,0.9
2026-01-15T2100,2500A,108.3515,21.7733,防城港市,防城档案局,细颗粒物(PM2.5),65,50,99,47,52,87,,116,115,12,29,6,7,0.6,0.8
2026-01-15T2100,2501A,108.3506,21.6414,防城港市,大海花园,颗粒物(PM10),55,60,73,38,43,103,,101,101,24,29,6,13,0.6,0.9
2026-01-15T2100,1371A,113.1293,23.0065,佛山市,湾梁,颗粒物(PM10),81,112,94,48,56,40,,169,160,106,88,/,/,/,/
2026-01-15T2100,1372A,113.1082,23.0477,佛山市,华材职中,颗粒物(PM10),82,114,114,59,59,78,,162,156,59,84,6,8,1.0,0.9
2026-01-15T2100,1373A,113.1439,23.045,佛山市,南海气象局,细颗粒物(PM2.5),90,123,95,67,54,53,,169,161,102,87,/,/,/,/
2026-01-15T2100,1374A,113.2879,22.8094,佛山市,顺德苏岗,细颗粒物(PM2.5),117,119,82,88,56,53,,130,125,93,84,/,/,1.3,1
2026-01-15T2100,1376A,112.8384,22.8678,佛山市,高明孔堂,细颗粒物(PM2.5),63,73,67,45,48,130,,168,164,24,31,/,/,/,/
2026-01-15T2100,1377A,112.8835,23.1584,佛山市,三水监测站,二氧化氮(NO2),82,95,129,51,75,2,,122,88,164,98,19,13,1.0,1
2026-01-15T2100,1378A,112.8668,23.185,佛山市,三水云东海,颗粒物(PM10),67,84,108,44,71,48,,134,119,67,72,/,/,/,/
2026-01-15T2100,3625A,113.2568,22.7629,佛山市,容桂街道办,细颗粒物(PM2.5),144,168,104,110,63,60,,162,158,160,94,/,/,/,/
2026-01-15T2100,1282A,119.2681,26.0506,福州市,师大,颗粒物(PM10),55,60,47,25,21,79,,108,100,36,28,5,5,0.6,0.5
2026-01-15T2100,1283A,119.2983,26.1028,福州市,五四北路,颗粒物(PM10),60,69,46,36,25,26,,96,84,69,35,5,5,1.1,0.7
2026-01-15T2100,1284A,119.2648,26.0769,福州市,杨桥西路,颗粒物(PM10),57,63,45,36,24,58,,104,96,35,22,6,5,/,/
2026-01-15T2100,3048A,119.5799,26.0937,福州市,九龙,,31,31,39,15,21,79,,110,107,18,24,4,5,0.6,0.7
2026-01-15T2100,3526A,119.5188,25.9666,福州市,吴航,,41,41,48,18,21,54,,108,98,32,37,4,6,0.7,0.7
2026-01-15T2100,4104A,119.3106,26.0648,福州市,路通桥巷6号,颗粒物(PM10),51,52,47,31,27,53,,98,94,46,25,/,/,/,/
2026-01-15T2100,1755A,123.7974,41.8494,抚顺市,望花区,细颗粒物(PM2.5),57,59,56,40,41,45,,59,57,27,36,8,9,0.8,0.8
2026-01-15T2100,1756A,123.9161,41.8827,抚顺市,顺城区,细颗粒物(PM2.5),79,68,55,58,42,20,,57,53,56,36,9,8,1.0,0.9
2026-01-15T2100,1757A,124.0437,41.8615,抚顺市,东洲区,,,,56,63,45,36,,47,47,32,26,6,6,0.9,0.8
2026-01-15T2100,1758A,123.9246,41.8638,抚顺市,新抚区,细颗粒物(PM2.5),69,58,56,50,43,37,,56,55,42,40,7,7,1.0,0.9
2026-01-15T2100,1759A,124.0972,41.8961,抚顺市,大伙房水库,细颗粒物(PM2.5),72,59,54,52,42,47,,54,54,25,23,12,10,1.1,0.9
2026-01-15T2100,1760A,123.708,41.8386,抚顺市,沈抚新城,细颗粒物(PM2.5),57,46,60,40,48,45,,65,63,30,36,8,8,1.2,1.5
2026-01-15T2100,2377A,116.3544,27.9833,抚州市,市站,细颗粒物(PM2.5),95,102,69,71,45,103,,117,116,30,29,60,14,0.9,0.7
2026-01-15T2100,2378A,116.3562,27.9631,抚州市,血防站,细颗粒物(PM2.5),79,85,62,58,40,108,,122,121,34,36,42,12,1.1,1
2026-01-15T2100,2379A,116.3561,28.0007,抚州市,采茶剧团,细颗粒物(PM2.5),87,90,66,64,46,109,,131,130,31,30,45,11,1.3,1.2
2026-01-15T2100,2380A,116.3854,27.9648,抚州市,医学分院,细颗粒物(PM2.5),94,112,68,70,40,102,,123,120,20,23,42,15,1.0,0.8
2026-01-15T2100,2207A,121.6095,41.9978,阜新市,工业园区,,36,35,73,25,44,51,,62,61,19,24,8,11,0.4,0.7
2026-01-15T2100,2208A,121.6567,42.0188,阜新市,长青街,,49,48,67,34,45,43,,62,60,25,26,8,10,0.5,0.8
2026-01-15T2100,2209A,121.6672,42.07,阜新市,农业园区,,34,34,68,22,49,51,,60,59,18,24,6,7,0.4,0.7
2026-01-15T2100,2211A,121.6343,42.0455,阜新市,玉龙新城,,34,34,69,23,44,48,,59,58,20,26,8,10,0.5,0.7
2026-01-15T2100,2301A,115.8276,32.8929,阜阳市,市监测站,细颗粒物(PM2.5),105,137,121,79,76,59,,91,76,55,39,7,6,0.6,0.7
2026-01-15T2100,2303A,115.8551,32.8606,阜阳市,开发区,颗粒物(PM10),80,110,125,46,74,91,,90,88,32,36,7,7,0.5,0.6
2026-01-15T2100,2875A,115.783962,32.889217,阜阳市,阜阳职业技术学院,颗粒物(PM10),72,93,121,40,73,93,,96,88,21,27,8,8,0.6,0.7
2026-01-15T2100,3468A,115.79,32.8614,阜阳市,市规划展馆,,,116,124,47,82,75,,106,99,,27,8,8,0.5,0.8
2026-01-15T2100,3469A,115.835101,32.918568,阜阳市,枣园社区,颗粒物(PM10),78,106,121,55,80,68,,94,88,45,32,6,7,0.6,0.7
2026-01-15T2100,2669A,102.9097,34.9841,甘南藏族自治州,州政府,颗粒物(PM10),78,105,57,33,27,6,,83,70,66,35,16,12,0.9,0.9
2026-01-15T2100,3380A,102.8915,34.9618,甘南藏族自治州,甘肃民族师范学院,颗粒物(PM10),91,132,66,34,14,6,,85,68,66,32,13,14,0.3,0.6
2026-01-15T2100,2570A,101.96,30.048,甘孜藏族自治州,水桥子,,41,41,26,22,13,30,,86,79,51,21,6,6,1.0,0.8
2026-01-15T2100,3065A,101.9534,29.9976,甘孜藏族自治州,州环保局,,29,29,25,10,10,68,,85,81,15,13,6,6,0.7,0.6
2026-01-15T2100,2363A,114.9368,25.8663,赣州市,地委,细颗粒物(PM2.5),62,70,61,44,41,11,,124,109,94,50,9,9,1.3,0.9
2026-01-15T2100,2364A,114.946,25.8483,赣州市,气象台,颗粒物(PM10),99,147,85,46,39,6,,124,96,124,70,6,5,0.9,0.7
2026-01-15T2100,2365A,114.932,25.8332,赣州市,市图书馆,颗粒物(PM10),100,150,87,59,45,5,,84,65,115,69,6,7,1.6,1.2
2026-01-15T2100,2366A,114.8905,25.8472,赣州市,华坚鞋城,颗粒物(PM10),84,118,91,51,45,7,,100,83,117,68,10,11,1.2,0.8
2026-01-15T2100,3109A,115.0094,25.8614,赣州市,赣县区卫计委,细颗粒物(PM2.5),122,129,65,92,50,11,,120,101,79,39,7,7,1.1,0.8
2026-01-15T2100,2684A,106.2753,36.0057,固原市,监测站,颗粒物(PM10),118,185,106,42,32,55,,87,78,23,13,9,5,0.5,0.5
2026-01-15T2100,2685A,106.2384,36.0189,固原市,新区,颗粒物(PM10),102,153,98,30,26,62,,88,79,17,7,7,2,0.3,0.2
2026-01-15T2100,2544A,106.6307,30.4577,广安市,市委,细颗粒物(PM2.5),192,149,144,144,136,58,,79,78,45,32,10,10,1.3,1.2
2026-01-15T2100,2545A,106.6266,30.4662,广安市,友谊中学,细颗粒物(PM2.5),163,138,136,124,123,82,,91,91,21,23,7,7,1.3,1.3
2026-01-15T2100,2547A,106.6386,30.4551,广安市,广电花园,细颗粒物(PM2.5),208,163,134,158,126,23,,72,64,59,29,9,9,1.4,1
2026-01-15T2100,2902A,106.6347,30.4868,广安市,北辰小学,细颗粒物(PM2.5),193,145,132,145,123,74,,84,84,20,20,8,7,1.1,1.1
2026-01-15T2100,2524A,105.8211,32.4444,广元市,老城,细颗粒物(PM2.5),92,100,82,68,44,6,,55,51,84,52,25,24,1.1,1
2026-01-15T2100,2526A,105.8629,32.429,广元市,监测站,细颗粒物(PM2.5),88,81,78,65,42,45,,61,61,33,33,6,6,0.8,1
2026-01-15T2100,3617A,105.8047,32.4167,广元市,经开区,细颗粒物(PM2.5),100,110,105,75,51,3,,59,55,82,46,5,11,1.4,1.1
2026-01-15T2100,1345A,113.2346,23.1423,广州市,广雅中学,细颗粒物(PM2.5),134,178,114,102,62,2,,148,128,177,98,4,4,2.0,1.4
2026-01-15T2100,1346A,113.2611,23.105,广州市,市五中,细颗粒物(PM2.5),102,120,90,76,56,37,,178,168,118,105,8,10,/,/
2026-01-15T2100,1348A,113.3477,23.0916,广州市,广东商学院,细颗粒物(PM2.5),127,140,100,96,63,30,,160,154,130,91,7,7,1.2,0.8
2026-01-15T2100,1349A,113.4332,23.105,广州市,市八十六中,细颗粒物(PM2.5),107,120,89,80,49,7,,150,139,201,106,9,10,/,/
2026-01-15T2100,1350A,113.3506,22.9488,广州市,番禺中学,细颗粒物(PM2.5),119,163,103,90,62,51,,153,142,138,89,5,6,1.4,1
2026-01-15T2100,1351A,113.2147,23.3918,广州市,花都师范,细颗粒物(PM2.5),98,136,120,73,65,44,,164,154,117,112,6,7,1.3,0.9
2026-01-15T2100,1352A,113.2599,23.1329,广州市,市监测站,细颗粒物(PM2.5),115,,98,87,59,,,158,158,158,99,2,5,/,/
2026-01-15T2100,1353A,113.5618,23.3119,广州市,九龙镇镇龙,颗粒物(PM10),89,128,104,57,57,5,,137,110,125,70,5,5,0.7,0.6
2026-01-15T2100,1354A,113.2764,23.1544,广州市,麓湖,二氧化氮(NO2),81,70,84,46,51,9,,154,133,162,92,9,10,0.6,0.7
2026-01-15T2100,2846A,113.3209,23.1323,广州市,体育西,细颗粒物(PM2.5),125,149,105,95,59,34,,155,146,123,89,6,8,1.7,1
2026-01-15T2100,3298A,113.5718,23.5493,广州市,从化街口,细颗粒物(PM2.5),104,113,81,78,53,33,,150,121,82,58,9,9,1.2,0.8
2026-01-15T2100,3299A,113.3463,23.369,广州市,白云竹料,细颗粒物(PM2.5),112,161,120,84,69,13,,177,157,153,94,5,5,1.5,0.9
2026-01-15T2100,3300A,113.2981,23.2365,广州市,白云嘉禾,细颗粒物(PM2.5),119,175,101,90,52,4,,164,133,172,93,8,7,/,/
2026-01-15T2100,3301A,113.4256,23.1716,广州市,黄埔科学城,细颗粒物(PM2.5),80,104,72,59,41,43,,162,146,97,67,5,6,1.0,0.8
2026-01-15T2100,3302A,113.3942,23.0485,广州市,番禺大学城,颗粒物(PM10),94,137,102,66,52,79,,187,183,102,88,12,12,0.8,0.7
2026-01-15T2100,3303A,113.4923,22.8169,广州市,南沙黄阁,颗粒物(PM10),73,95,86,49,50,146,,156,154,51,84,7,9,/,/
2026-01-15T2100,3304A,113.534,22.7893,广州市,南沙街,颗粒物(PM10),78,106,86,48,47,105,,160,156,48,71,5,7,0.7,0.6
2026-01-15T2100,3443A,113.2905,23.5541,广州市,花都梯面,颗粒物(PM10),69,87,64,45,36,26,,159,115,80,52,4,6,/,/
2026-01-15T2100,3445A,113.786,23.7479,广州市,从化良口,细颗粒物(PM2.5),60,48,42,43,31,90,,130,120,25,24,8,8,/,/
2026-01-15T2100,3446A,113.805,23.2614,广州市,增城荔城,颗粒物(PM10),56,61,66,34,45,55,,137,113,52,33,6,7,0.8,0.6
2026-01-15T2100,2506A,109.604387,23.066791,贵港市,江南子站,颗粒物(PM10),84,117,136,53,89,61,,138,130,47,47,7,10,0.9,1.1
2026-01-15T2100,2508A,109.5669,23.1065,贵港市,荷城子站,细颗粒物(PM2.5),79,105,102,58,68,40,,121,107,62,45,6,9,1.1,1.1
2026-01-15T2100,3405A,109.5886,23.1172,贵港市,新世纪学校,,,107,99,56,64,,,137,132,54,40,/,/,0.8,0.8
2026-01-15T2100,4260A,109.5933,23.095,贵港市,中山路155-3号,细颗粒物(PM2.5),72,88,102,52,72,62,,142,133,50,42,/,/,0.9,0.8
2026-01-15T2100,1439A,106.6863,26.6035,贵阳市,马鞍山,细颗粒物(PM2.5),79,61,99,58,85,82,,98,98,23,24,15,10,/,/
2026-01-15T2100,1441A,106.6241,26.6266,贵阳市,鉴湖路,细颗粒物(PM2.5),67,73,98,48,66,87,,104,101,23,26,12,12,0.7,0.7
2026-01-15T2100,1442A,106.7468,26.6344,贵阳市,燕子冲,细颗粒物(PM2.5),89,70,97,66,90,87,,103,103,24,27,16,12,0.6,1
2026-01-15T2100,1443A,106.6556,26.4362,贵阳市,碧云窝,细颗粒物(PM2.5),79,78,117,58,91,86,,101,101,19,26,11,13,/,/
2026-01-15T2100,1445A,106.6963,26.6063,贵阳市,红边门,细颗粒物(PM2.5),89,83,109,66,90,73,,94,93,30,37,21,22,/,/
2026-01-15T2100,1446A,106.7162383,26.56964667,贵阳市,新华路,细颗粒物(PM2.5),77,90,117,56,87,67,,75,75,31,38,21,14,0.8,1
2026-01-15T2100,1447A,106.6742,26.542,贵阳市,太慈桥,细颗粒物(PM2.5),83,75,103,61,83,69,,83,83,26,34,12,8,/,/
2026-01-15T2100,4230A,106.688212,26.56952,贵阳市,花果园大街66号,细颗粒物(PM2.5),94,73,108,70,108,70,,85,85,30,40,12,15,/,/
2026-01-15T2100,4231A,106.687268,26.516892,贵阳市,漓江路57号,细颗粒物(PM2.5),85,85,117,63,96,74,,96,95,32,40,29,26,1.1,1.4
2026-01-15T2100,1864A,110.3091,25.2705,桂林市,龙隐路小学,细颗粒物(PM2.5),110,116,101,83,81,22,,118,103,75,41,8,10,1.4,1.1
2026-01-15T2100,1865A,110.2849361,25.22909545,桂林市,八中,细颗粒物(PM2.5),127,107,97,96,78,66,,103,101,70,40,9,13,1.2,0.8
2026-01-15T2100,3531A,110.296,25.1254,桂林市,旅游学院,细颗粒物(PM2.5),113,105,88,85,78,113,,133,133,23,34,7,7,0.4,0.5
2026-01-15T2100,4222A,110.1835,25.2444,桂林市,环湖路276号,细颗粒物(PM2.5),104,105,115,78,80,96,,120,120,29,46,9,11,0.6,0.7
2026-01-15T2100,4301A,110.2803,25.2773,桂林市,信义路13号,细颗粒物(PM2.5),97,106,100,72,73,71,,123,120,58,40,7,11,1.4,1.2
2026-01-15T2100,2674A,100.2262,34.4854,果洛藏族自治州,玛沁县大武镇,细颗粒物(PM2.5),78,,57,57,14,63,,94,91,12,7,13,17,0.6,0.4
2026-01-15T2100,1130A,126.5557,45.8109,哈尔滨市,松北商大,细颗粒物(PM2.5),67,67,95,48,76,35,,46,44,30,42,9,9,0.7,1.1
2026-01-15T2100,1132A,126.6162,45.719,哈尔滨市,南岗学府路,细颗粒物(PM2.5),64,53,68,46,52,35,,49,45,26,33,19,13,0.9,1
2026-01-15T2100,1133A,126.6894,45.7733,哈尔滨市,太平宏伟公园,细颗粒物(PM2.5),69,54,84,50,67,32,,53,49,33,37,36,15,0.9,1
2026-01-15T2100,1134A,126.6361,45.7672,哈尔滨市,道外承德广场,细颗粒物(PM2.5),60,62,102,43,66,40,,52,50,30,44,12,19,0.7,0.9
2026-01-15T2100,1136A,126.644,45.7261,哈尔滨市,动力和平路,细颗粒物(PM2.5),68,53,75,49,57,38,,50,49,26,35,15,19,0.6,0.8
2026-01-15T2100,1137A,126.5933,45.7479,哈尔滨市,道里建国路,细颗粒物(PM2.5),85,,73,63,68,28,,45,40,40,43,21,23,0.7,1
2026-01-15T2100,1138A,126.6127,45.6119,哈尔滨市,平房东轻厂,细颗粒物(PM2.5),123,106,79,93,71,8,,37,27,63,52,16,17,1.4,1.3
2026-01-15T2100,1139A,126.5875,45.9827,哈尔滨市,呼兰师专,细颗粒物(PM2.5),149,,104,114,104,22,,46,37,40,38,10,12,1.2,1.2
2026-01-15T2100,1140A,126.6299,45.6799,哈尔滨市,省农科院,细颗粒物(PM2.5),64,55,70,46,57,31,,47,44,36,42,21,16,0.6,0.8
2026-01-15T2100,4282A,126.6769,45.7379,哈尔滨市,华山路1号,细颗粒物(PM2.5),58,46,69,41,58,33,,48,45,33,37,24,22,0.7,0.9
2026-01-15T2100,4283A,126.9717,45.5356,哈尔滨市,解放大街52号,细颗粒物(PM2.5),79,69,69,58,61,28,,51,46,40,32,14,15,1.0,1.3
2026-01-15T2100,2688A,93.5124,42.8176,哈密市,地区监测站,颗粒物(PM10),117,184,420,73,94,33,,54,53,38,26,2,2,1.0,0.8
2026-01-15T2100,2689A,93.5014,42.8312,哈密市,哈密师范学校,颗粒物(PM10),111,171,392,49,92,44,,54,54,35,36,1,2,0.6,1.1
2026-01-15T2100,2671A,100.9016,36.9464,海北藏族自治州,海晏县西海镇,,33,33,33,18,13,68,,86,83,4,3,9,8,0.4,0.4
2026-01-15T2100,3867A,102.074,36.5056,海东市,平安区公安局北苑,颗粒物(PM10),54,58,63,30,28,40,,63,62,24,28,11,17,0.8,1.1
2026-01-15T2100,4163A,102.0984,36.5119,海东市,滨河路,颗粒物(PM10),79,108,64,38,27,23,,74,61,55,41,16,17,1.3,1.2
2026-01-15T2100,1410A,110.3189,20.0596,海口市,海南大学,,48,48,42,26,22,108,,127,123,13,11,6,6,0.3,0.3
2026-01-15T2100,1411A,110.2827,20.0051,海口市,秀英海南医院,,44,44,41,20,20,94,,106,102,14,11,7,7,0.4,0.4
2026-01-15T2100,1412A,110.3391,19.9979,海口市,海南师范大学,,43,43,44,26,24,101,,109,107,12,12,6,6,0.7,0.7
2026-01-15T2100,1413A,110.3303,20.0359,海口市,龙华路环保局宿舍,,47,47,42,25,24,101,,114,111,11,10,/,/,0.7,0.7
2026-01-15T2100,3539A,110.5111,19.9737,海口市,桂林洋子站,,42,42,36,22,21,88,,106,105,9,10,/,/,/,/
2026-01-15T2100,4134A,110.1952,20.0451,海口市,长滨二路9号,,48,48,37,26,21,83,,110,105,14,9,/,/,/,/
2026-01-15T2100,2673A,100.6158,36.2985,海南藏族自治州,共和县恰卜恰镇,颗粒物(PM10),70,89,50,27,23,9,,82,68,45,24,20,13,0.8,0.6
2026-01-15T2100,2676A,97.373,37.376,海西蒙古族藏族自治州,德令哈市,颗粒物(PM10),54,58,55,18,12,68,,91,86,22,5,10,11,1.0,0.5
2026-01-15T2100,1049A,114.492,36.5712,邯郸市,矿院,细颗粒物(PM2.5),77,96,146,56,113,54,,67,67,38,58,3,8,0.4,1.4
2026-01-15T2100,1050A,114.4839,36.6136,邯郸市,丛台公园,颗粒物(PM10),68,86,156,46,104,56,,67,67,29,53,4,9,0.4,1.4
2026-01-15T2100,3458A,114.7893,36.5592,邯郸市,香泉濮院小区,细颗粒物(PM2.5),90,115,167,67,105,62,,71,71,27,48,4,15,0.5,1.3
2026-01-15T2100,3580A,114.1998,36.4439,邯郸市,峰峰矿区临水派出所,颗粒物(PM10),51,51,100,29,45,79,,77,77,9,14,11,11,0.6,0.6
2026-01-15T2100,4068A,114.5209,36.7697,邯郸市,建安街268号,细颗粒物(PM2.5),192,189,172,144,122,7,,56,54,82,53,12,11,1.0,1.4
2026-01-15T2100,4069A,114.5488,36.6177,邯郸市,丛台东路558号,颗粒物(PM10),75,99,162,44,107,52,,68,68,32,54,2,10,0.5,1.4
2026-01-15T2100,2635A,107.0155,33.0707,汉中市,市监测站,细颗粒物(PM2.5),166,149,103,126,68,12,,55,46,74,45,8,6,1.5,1.2
2026-01-15T2100,2636A,107.0083,33.114,汉中市,鑫源开发区,细颗粒物(PM2.5),115,118,96,87,64,21,,67,58,78,45,8,8,1.1,0.9
2026-01-15T2100,2637A,107.0072,33.0323,汉中市,南郑大河坎水厂,细颗粒物(PM2.5),212,208,102,162,63,17,,64,54,60,32,8,7,1.5,0.9
2026-01-15T2100,1223A,120.2073,30.2111,杭州市,滨江,细颗粒物(PM2.5),112,122,91,84,59,10,,88,77,114,52,9,9,0.8,0.6
2026-01-15T2100,1224A,120.0625,30.2737,杭州市,西溪,颗粒物(PM10),55,60,73,34,39,19,,99,83,40,36,8,9,1.2,1
2026-01-15T2100,1226A,120.3417,30.315,杭州市,下沙,细颗粒物(PM2.5),93,100,94,69,60,6,,86,64,132,83,11,10,0.9,0.8
2026-01-15T2100,1227A,120.1252,30.2465,杭州市,卧龙桥,细颗粒物(PM2.5),54,54,59,38,41,28,,91,80,44,44,8,9,0.5,0.4
2026-01-15T2100,1228A,120.1902,30.2691,杭州市,浙江农大,细颗粒物(PM2.5),163,205,121,124,72,2,,89,66,143,83,11,7,1.2,0.9
2026-01-15T2100,1230A,120.1195,30.3121,杭州市,和睦小学,细颗粒物(PM2.5),87,117,89,64,55,4,,93,74,114,66,7,7,1.2,1
2026-01-15T2100,1231A,120.3076,30.4146,杭州市,临平镇,细颗粒物(PM2.5),100,121,103,75,61,8,,94,78,111,76,10,9,0.8,0.7
2026-01-15T2100,1232A,120.2753,30.1839,杭州市,城厢镇,细颗粒物(PM2.5),97,108,82,72,51,0,,90,70,139,64,12,9,1.1,0.9
2026-01-15T2100,1233A,120.0883,30.1808,杭州市,云栖,颗粒物(PM10),70,90,79,45,42,44,,94,85,38,45,4,4,0.7,0.7
2026-01-15T2100,3557A,119.9463,30.0496,杭州市,镇二中,细颗粒物(PM2.5),102,124,65,76,50,4,,87,75,96,56,8,6,1.6,0.9
2026-01-15T2100,3558A,119.7184,30.2367,杭州市,市府大楼,颗粒物(PM10),108,165,66,79,38,4,,102,81,81,35,13,12,1.5,0.8
2026-01-15T2100,3656A,120.1554,30.2863,杭州市,消防大队,细颗粒物(PM2.5),114,117,88,86,58,14,,97,76,107,67,7,8,1.4,0.8
2026-01-15T2100,1270A,117.1957,31.7845,合肥市,明珠广场,颗粒物(PM10),76,102,92,46,52,8,,77,60,113,76,8,8,0.6,0.6
2026-01-15T2100,1271A,117.307,31.8765,合肥市,三里街,颗粒物(PM10),81,112,111,51,63,2,,70,55,120,76,8,7,1.2,1.1
2026-01-15T2100,1272A,117.2587,31.8703,合肥市,琥珀山庄,颗粒物(PM10),71,92,97,43,61,14,,88,67,111,66,8,9,1.3,1.1
2026-01-15T2100,1275A,117.2593,31.9376,合肥市,庐阳区,颗粒物(PM10),87,124,104,51,56,10,,93,62,118,67,7,6,0.8,0.8
2026-01-15T2100,1276A,117.345251,31.861615,合肥市,瑶海区,颗粒物(PM10),76,102,103,49,59,11,,81,71,128,73,8,7,0.8,0.8
2026-01-15T2100,1277A,117.3033,31.7967,合肥市,包河区,颗粒物(PM10),97,144,97,63,61,4,,80,57,168,88,20,12,1.0,1
2026-01-15T2100,1278A,117.278,31.7392,合肥市,滨湖新区,颗粒物(PM10),60,70,90,36,60,90,,101,101,28,68,7,8,0.6,0.9
2026-01-15T2100,1279A,117.1324,31.8395,合肥市,高新区,颗粒物(PM10),60,70,86,36,50,71,,94,88,51,52,6,7,0.6,0.7
2026-01-15T2100,3464A,117.3802,31.9148,合肥市,高教基地,颗粒物(PM10),76,102,111,48,69,13,,71,56,84,65,10,10,0.7,0.8
2026-01-15T2100,4098A,117.2518,31.8404,合肥市,中国科学技术大学,颗粒物(PM10),73,95,87,38,54,26,,99,81,97,63,10,10,0.9,0.9
2026-01-15T2100,3614A,79.9241,37.0878,和田地区,地区环保局,颗粒物(PM10),85,119,314,33,41,69,,76,76,42,28,6,4,0.3,0.3
2026-01-15T2100,3615A,79.9132,37.1137,和田地区,市环保局,颗粒物(PM10),114,178,265,50,51,8,,74,70,132,63,10,7,2.7,1.7
2026-01-15T2100,2517A,108.0496,24.6957,河池市,市环保站,细颗粒物(PM2.5),104,104,97,78,78,26,,80,73,40,34,4,4,1.1,1
2026-01-15T2100,4302A,108.0901,24.6945,河池市,上任中路54号,细颗粒物(PM2.5),112,122,102,84,83,3,,72,58,63,38,5,5,1.2,1.1
2026-01-15T2100,1697A,114.6962,23.7538,河源市,东埔,颗粒物(PM10),72,94,64,51,42,16,,42,,78,61,6,7,2.0,1.1
2026-01-15T2100,1698A,114.6895,23.7232,河源市,老城,,32,32,47,21,27,70,,127,119,24,32,6,7,0.5,0.6
2026-01-15T2100,3374A,115.5562,35.089,菏泽市,定陶老年大学,颗粒物(PM10),96,141,139,51,65,57,,83,79,25,30,3,4,0.3,0.5
2026-01-15T2100,4114A,115.4239,35.2593,菏泽市,黄河路600号,颗粒物(PM10),92,133,147,43,61,67,,88,88,34,42,3,6,0.4,0.6
2026-01-15T2100,4115A,115.5025,35.2727,菏泽市,菏泽市人社局,,,119,137,34,59,69,,80,80,,26,3,6,0.0,0.3
2026-01-15T2100,4184A,115.479691,35.244011,菏泽市,永昌路1号,颗粒物(PM10),85,119,141,44,62,76,,89,89,24,35,4,6,0.2,0.4
2026-01-15T2100,4193A,115.471542,35.280012,菏泽市,长城路999号,颗粒物(PM10),100,150,150,40,61,85,,95,95,19,39,5,8,0.4,0.6
2026-01-15T2100,2514A,111.5264,24.4178,贺州市,环保小区,颗粒物(PM10),83,116,86,60,59,76,,142,131,49,42,15,10,1.2,0.6
2026-01-15T2100,2515A,111.561,24.4074,贺州市,政协大楼,细颗粒物(PM2.5),103,135,78,77,51,65,,140,127,60,37,20,18,1.5,1.1
2026-01-15T2100,3534A,111.4744,24.455,贺州市,西湾,细颗粒物(PM2.5),87,102,84,64,54,47,,138,123,75,45,9,9,0.9,0.7
2026-01-15T2100,2385A,114.17,35.9019,鹤壁市,市监测站,颗粒物(PM10),62,74,89,41,38,73,,73,73,41,26,5,3,0.3,0.6
2026-01-15T2100,2386A,114.2953,35.7512,鹤壁市,市交警支队,颗粒物(PM10),80,110,109,57,41,29,,66,61,53,39,4,5,0.5,0.7
2026-01-15T2100,2387A,114.2877,35.7302,鹤壁市,迎宾馆,颗粒物(PM10),83,116,117,48,44,48,,72,69,54,45,5,5,0.6,0.8
2026-01-15T2100,3474A,114.2616,35.6824,鹤壁市,大新区,颗粒物(PM10),83,115,123,52,38,7,,65,53,76,47,6,8,0.6,0.8
2026-01-15T2100,3596A,114.1573,35.9607,鹤壁市,南山宾馆,颗粒物(PM10),67,83,106,37,29,73,,80,80,15,11,8,8,0.5,0.5
2026-01-15T2100,2244A,130.2537,47.3416,鹤岗市,哈啤分公司,,36,36,37,14,25,60,,61,47,5,12,7,7,0.4,0.5
2026-01-15T2100,2245A,130.2683,47.3087,鹤岗市,斯达机电,,45,,30,31,24,51,,53,39,8,13,6,6,0.4,0.5
2026-01-15T2100,2246A,130.3114,47.3388,鹤岗市,东山纸板厂,细颗粒物(PM2.5),57,,37,40,31,34,,53,34,25,26,10,13,1.6,1.3
2026-01-15T2100,2263A,127.4832,50.2524,黑河市,交通局,,18,16,19,12,18,47,,50,48,12,10,5,5,0.2,0.6
2026-01-15T2100,2264A,127.5146,50.2339,黑河市,环保局,,22,19,21,15,21,48,,50,48,13,16,4,5,0.4,0.4
2026-01-15T2100,1074A,115.6839,37.754,衡水市,电机北厂,"颗粒物(PM10),细颗粒物(PM2.5)",145,240,195,111,105,5,,53,39,78,55,8,11,1.0,1
2026-01-15T2100,1075A,115.6303,37.7318,衡水市,市监测站,颗粒物(PM10),125,200,180,91,105,29,,50,43,64,60,10,11,1.0,1.1
2026-01-15T2100,3188A,115.6684,37.7216,衡水市,市城管局,颗粒物(PM10),135,220,188,102,99,16,,53,45,77,64,10,11,,1
2026-01-15T2100,3459A,115.599,37.5491,衡水市,地表水厂,细颗粒物(PM2.5),132,199,171,100,108,3,,55,47,97,58,14,11,0.9,1
2026-01-15T2100,2457A,112.6209,26.9268,衡阳市,衡阳化工总厂,细颗粒物(PM2.5),132,128,104,100,81,41,,78,73,55,46,13,47,1.3,1.2
2026-01-15T2100,2458A,112.621,26.8957,衡阳市,珠晖区环保局,细颗粒物(PM2.5),137,134,100,104,80,9,,82,66,110,59,11,19,1.6,1.3
2026-01-15T2100,2459A,112.628,26.8654,衡阳市,市委党校,细颗粒物(PM2.5),122,109,97,92,76,72,,93,89,38,43,14,17,1.2,1.2
2026-01-15T2100,2460A,112.6007,26.8977,衡阳市,市监测站,细颗粒物(PM2.5),185,230,135,139,87,4,,80,61,79,49,10,18,2.9,1.7
2026-01-15T2100,2461A,112.5658,26.9013,衡阳市,真空机电公司,细颗粒物(PM2.5),119,149,113,90,81,24,,82,70,87,58,13,20,1.7,1.5
2026-01-15T2100,3399A,112.6703,26.8817,衡阳市,师范学院,细颗粒物(PM2.5),144,153,100,110,70,35,,97,85,51,41,6,10,1.6,1.2
2026-01-15T2100,3038A,103.3757,23.3679,红河哈尼族彝族自治州,州图书馆,细颗粒物(PM2.5),55,45,49,39,38,68,,89,85,10,9,6,6,0.7,0.7
2026-01-15T2100,4154A,103.401,23.3561,红河哈尼族彝族自治州,蒙自市朝阳路,,45,41,37,31,39,63,,88,83,11,8,6,5,0.7,0.7
2026-01-15T2100,1090A,111.6506,40.7517,呼和浩特市,呼市一监,颗粒物(PM10),97,144,174,24,36,66,,53,53,10,32,6,9,0.3,0.6
2026-01-15T2100,1094A,111.7516,40.8369,呼和浩特市,如意水处理厂,颗粒物(PM10),88,126,169,28,38,65,,41,38,9,44,8,12,0.2,0.6
2026-01-15T2100,1095A,111.727798,40.806187,呼和浩特市,二十九中,颗粒物(PM10),108,165,171,32,40,53,,43,40,20,40,12,13,0.3,0.6
2026-01-15T2100,1097A,111.717,40.7617,呼和浩特市,化肥厂生活区,颗粒物(PM10),89,128,194,33,41,58,,43,39,17,37,5,7,0.3,0.5
2026-01-15T2100,3699A,111.6519,40.8389,呼和浩特市,海东办,颗粒物(PM10),81,112,164,25,36,71,,45,44,7,41,4,8,0.3,0.7
2026-01-15T2100,4275A,111.591512,40.827312,呼和浩特市,成吉思汗西街8号,颗粒物(PM10),96,141,175,25,35,58,,40,39,13,39,4,10,0.3,0.5
2026-01-15T2100,4276A,111.6597,40.8077,呼和浩特市,公园东路75号,颗粒物(PM10),92,134,185,28,42,53,,44,42,21,42,5,10,0.2,0.6
2026-01-15T2100,4277A,111.5427,40.7846,呼和浩特市,金海路35号,颗粒物(PM10),97,143,171,24,36,60,,42,38,14,40,8,15,0.4,0.7
2026-01-15T2100,3061A,119.7511,49.1576,呼伦贝尔市,国华电力东,细颗粒物(PM2.5),65,50,34,47,25,28,,50,44,33,28,4,6,0.9,0.5
2026-01-15T2100,4279A,119.7569,49.2222,呼伦贝尔市,伊敏大街东7号,,49,43,44,34,33,32,,31,29,26,33,7,7,0.4,0.8
2026-01-15T2100,1250A,120.075,30.867,湖州市,城西水厂,细颗粒物(PM2.5),109,120,93,82,64,12,,104,87,104,66,9,10,1.0,0.6
2026-01-15T2100,2873A,120.083,30.8929,湖州市,仁皇山新区,细颗粒物(PM2.5),97,105,93,72,64,55,,105,95,68,73,9,11,1.0,0.8
2026-01-15T2100,2907A,120.1846,30.8592,湖州市,吴兴区站,,,,99,,67,,,64,,,89,,11,,0.9
2026-01-15T2100,3562A,120.4146,30.8538,湖州市,南浔区站,细颗粒物(PM2.5),95,106,102,71,69,66,,98,92,49,68,12,11,0.9,1
2026-01-15T2100,1607A,120.904878,40.721091,葫芦岛市,龙港区,颗粒物(PM10),64,78,82,32,53,67,,57,57,28,33,40,20,1.0,1.1
2026-01-15T2100,1608A,120.8382,40.7521,葫芦岛市,化工街,颗粒物(PM10),59,68,90,36,58,46,,46,45,23,35,18,29,0.6,0.9
2026-01-15T2100,1609A,120.8339,40.7078,葫芦岛市,新区,颗粒物(PM10),56,62,76,32,53,50,,49,49,24,38,10,15,0.6,0.9
2026-01-15T2100,1610A,120.8697,40.7679,葫芦岛市,东城区,,46,40,73,32,57,52,,50,48,23,36,11,17,0.6,1
2026-01-15T2100,2483A,109.9297,27.5383,怀化市,河西地税局,细颗粒物(PM2.5),130,113,92,99,82,17,,55,49,31,28,2,2,/,/
2026-01-15T2100,2484A,109.9783,27.5342,怀化市,市四医院,,,,109,,87,,,47,,,35,,6,,1
2026-01-15T2100,2485A,109.9971,27.5579,怀化市,监测楼,细颗粒物(PM2.5),159,144,104,121,90,4,,50,,39,31,1,4,1.2,0.5
2026-01-15T2100,1210A,119.0566,33.5991,淮安市,钵池山,细颗粒物(PM2.5),207,210,162,157,125,5,,80,66,123,46,12,12,1.0,0.9
2026-01-15T2100,1211A,119.0083,33.578,淮安市,北京南路,细颗粒物(PM2.5),218,241,167,168,130,0,,66,44,109,64,10,11,1.6,1
2026-01-15T2100,1212A,118.9938,33.6083,淮安市,市监测站,细颗粒物(PM2.5),208,205,157,158,122,20,,70,56,82,50,11,13,1.8,1.1
2026-01-15T2100,1213A,119.135,33.5038,淮安市,楚州区监测站,细颗粒物(PM2.5),198,203,171,148,130,20,,66,55,103,63,13,11,1.2,1.1
2026-01-15T2100,3426A,118.8757,33.2897,淮安市,新华书店,细颗粒物(PM2.5),207,209,150,157,114,41,,75,66,75,45,15,12,0.8,1.2
2026-01-15T2100,4092A,119.119691,33.550006,淮安市,枚皋中路89号,细颗粒物(PM2.5),220,243,176,170,134,6,,76,62,84,54,9,12,1.7,1.1
2026-01-15T2100,4206A,119.028838,33.631911,淮安市,承德北路606号,细颗粒物(PM2.5),217,280,189,167,125,2,,70,46,119,56,11,11,1.4,1.1
2026-01-15T2100,2282A,116.8005,33.9749,淮北市,监测站,颗粒物(PM10),107,164,181,63,98,43,,87,73,60,45,22,12,0.7,0.8
2026-01-15T2100,2283A,116.8094,33.9008,淮北市,烈山区政府,,,,176,,111,65,,93,91,26,38,11,12,0.4,0.6
2026-01-15T2100,4017A,116.7926,33.9534,淮北市,市博物馆,颗粒物(PM10),112,173,188,60,109,72,,94,90,35,42,6,6,0.7,0.9
2026-01-15T2100,4100A,116.8322,33.9884,淮北市,杜集区第一实验学校,颗粒物(PM10),108,165,177,57,102,75,,102,98,24,34,10,10,0.6,0.7
2026-01-15T2100,2277A,116.8304,32.7726,淮南市,潘集区政府,细颗粒物(PM2.5),132,211,141,100,83,,,91,,83,38,12,9,0.8,0.8
2026-01-15T2100,2279A,116.8569,32.5949,淮南市,谢家集区政府,颗粒物(PM10),101,151,111,48,62,81,,100,97,31,32,11,11,0.6,0.7
2026-01-15T2100,2280A,116.8279,32.6333,淮南市,八公山区政府,颗粒物(PM10),87,124,105,40,56,83,,100,97,24,19,10,9,0.5,0.6
2026-01-15T2100,2894A,117.0561,32.6536,淮南市,经济技术开发区消防队,颗粒物(PM10),107,163,128,77,69,34,,85,76,80,42,9,9,0.7,0.8
2026-01-15T2100,3329A,117.011,32.5891,淮南市,山南新区,颗粒物(PM10),111,171,143,58,71,90,,101,101,27,34,6,6,0.6,0.8
2026-01-15T2100,4209A,117.003137,32.644456,淮南市,国庆中路369号,颗粒物(PM10),90,129,111,57,68,68,,79,76,35,37,12,13,0.8,0.9
2026-01-15T2100,2446A,114.9021,30.474,黄冈市,职工中心,细颗粒物(PM2.5),120,115,103,91,78,88,,118,115,40,44,10,12,1.2,1.3
2026-01-15T2100,2929A,114.8858,30.4519,黄冈市,红卫路,细颗粒物(PM2.5),132,120,95,100,80,70,,119,116,56,45,11,12,0.9,0.9
2026-01-15T2100,3398A,114.9134,30.4446,黄冈市,市林业局,细颗粒物(PM2.5),132,139,106,100,83,82,,120,116,57,52,6,8,1.1,1.1
2026-01-15T2100,2672A,102.02,35.5101,黄南藏族自治州,同仁县隆务镇,颗粒物(PM10),51,51,37,20,13,50,,72,68,7,3,12,10,0.5,0.3
2026-01-15T2100,2295A,118.2905,29.6965,黄山市,延安路89号,细颗粒物(PM2.5),62,54,36,44,28,61,,108,105,25,19,4,4,0.7,0.6
2026-01-15T2100,2297A,118.1369,30.2755,黄山市,黄山区政府5号楼,细颗粒物(PM2.5),100,108,48,75,34,31,,106,93,30,14,3,3,0.9,0.6
2026-01-15T2100,4210A,118.335445,29.720283,黄山市,滨江东路7-2号,细颗粒物(PM2.5),72,90,59,52,37,35,,91,84,35,25,/,/,/,/
2026-01-15T2100,2423A,115.0547,30.2332,黄石市,沈家营,细颗粒物(PM2.5),144,135,122,110,82,60,,99,99,50,49,6,7,1.5,1.4
2026-01-15T2100,2426A,114.899,30.211,黄石市,铁山,,,,95,,76,,,73,,,45,,8,,0.6
2026-01-15T2100,2427A,115.0259,30.2108,黄石市,团城山,细颗粒物(PM2.5),129,118,114,98,84,75,,105,105,48,47,7,8,1.1,1.2
2026-01-15T2100,3149A,115.0174,30.1591,黄石市,笔架山北路,细颗粒物(PM2.5),130,145,155,99,90,80,,113,111,32,45,13,14,1.5,1.7
2026-01-15T2100,4185A,115.078022,30.21118,黄石市,磁湖东路29号,细颗粒物(PM2.5),170,177,126,129,95,14,,87,79,92,56,9,10,2.6,1.6
2026-01-15T2100,1392A,114.4181,23.0528,惠州市,河南岸金山湖子站,颗粒物(PM10),57,63,63,29,35,64,,130,117,43,34,4,5,0.8,0.7
2026-01-15T2100,1393A,114.4055,23.0824,惠州市,下埔横江三路子站,颗粒物(PM10),62,73,72,40,37,85,,148,134,46,46,7,7,0.8,0.7
2026-01-15T2100,1395A,114.4645,22.7832,惠州市,惠阳区承修路船湖子站,颗粒物(PM10),62,74,68,43,36,114,,157,142,34,37,8,8,0.7,0.6
2026-01-15T2100,1396A,114.5316,22.7423,惠州市,大亚湾管委会子站,颗粒物(PM10),65,79,67,41,34,55,,162,146,75,45,6,6,0.8,0.6
2026-01-15T2100,3314A,114.4334,22.8134,惠州市,惠阳秋长,颗粒物(PM10),63,75,69,33,35,102,,191,175,44,42,/,/,/,/
2026-01-15T2100,3452A,114.6521,22.7755,惠州市,大亚湾霞涌,,49,49,50,34,27,72,,151,141,54,27,/,/,/,/
2026-01-15T2100,4300A,114.4089,23.1147,惠州市,文华一路1号,颗粒物(PM10),58,65,74,36,41,106,,163,154,38,56,/,/,/,/
2026-01-15T2100,2240A,130.9618,45.2926,鸡西市,环保局,细颗粒物(PM2.5),58,61,72,41,54,26,,43,34,32,36,11,15,0.5,0.8
2026-01-15T2100,2243A,130.9294,45.2959,鸡西市,第一中学,细颗粒物(PM2.5),52,46,46,36,31,33,,40,33,23,28,7,10,0.5,0.6
2026-01-15T2100,3707A,131.0069,45.2988,鸡西市,欧美日汽修厂,细颗粒物(PM2.5),124,98,85,94,61,17,,49,41,47,35,25,26,1.1,0.9
2026-01-15T2100,2367A,114.9753,27.0803,吉安市,红声器材厂,,,,72,,44,68,,108,106,41,47,11,10,0.9,0.8
2026-01-15T2100,2369A,114.9903,27.1313,吉安市,市环境监测站,细颗粒物(PM2.5),63,65,66,45,43,68,,109,106,39,49,13,11,/,/
2026-01-15T2100,2370A,115.009527,27.096792,吉安市,青原区法院,颗粒物(PM10),65,79,71,46,41,37,,95,91,62,49,13,12,0.9,0.8
2026-01-15T2100,1772A,126.54,43.8622,吉林市,哈达湾,细颗粒物(PM2.5),63,68,56,45,38,45,,57,52,29,28,13,12,1.1,1.3
2026-01-15T2100,1773A,126.5843,43.8358,吉林市,东局子,细颗粒物(PM2.5),68,61,62,49,46,44,,42,42,23,32,10,7,1.0,1.2
2026-01-15T2100,1774A,126.5051,43.8243,吉林市,电力学院,细颗粒物(PM2.5),64,60,59,46,45,46,,54,52,25,29,12,23,0.8,0.9
2026-01-15T2100,1775A,126.6133,43.8971,吉林市,江北,颗粒物(PM10),93,135,64,63,43,46,,54,52,20,21,10,15,1.2,1.1
2026-01-15T2100,1776A,126.5549,43.8304,吉林市,江南公园,细颗粒物(PM2.5),69,65,56,50,42,38,,48,45,31,30,13,11,0.9,0.9
2026-01-15T2100,2868A,126.4737,43.953,吉林市,九站,细颗粒物(PM2.5),83,74,67,61,50,47,,49,45,27,35,9,12,0.8,0.8
2026-01-15T2100,1299A,116.9866,36.6118,济南市,科干所,颗粒物(PM10),90,129,183,34,67,96,,93,93,10,38,6,14,0.4,0.8
2026-01-15T2100,1300A,116.9379,36.6652,济南市,农科所,颗粒物(PM10),95,139,208,37,84,82,,81,81,23,56,9,11,0.6,1.1
2026-01-15T2100,1301A,117.1265,36.6736,济南市,开发区,颗粒物(PM10),78,105,181,29,65,91,,90,90,18,52,4,7,0.5,0.9
2026-01-15T2100,1303A,117.0616,36.6865,济南市,省种子仓库,颗粒物(PM10),86,122,217,29,96,95,,93,93,14,58,5,12,0.5,1.4
2026-01-15T2100,1304A,116.9495185,36.644937,济南市,机床二厂,颗粒物(PM10),91,132,205,34,111,90,,90,90,19,49,9,18,0.3,0.9
2026-01-15T2100,1305A,117.0496,36.6629,济南市,市监测站,细颗粒物(PM2.5),153,125,181,117,95,97,,95,95,13,43,4,7,0.5,1
2026-01-15T2100,1306A,116.7674,36.5458,济南市,长清党校,颗粒物(PM10),117,183,214,59,95,89,,87,87,24,45,8,10,0.5,0.9
2026-01-15T2100,1961A,117.5323,36.6865,济南市,东山小学,颗粒物(PM10),130,210,220,66,83,91,,98,98,19,44,9,7,0.5,0.6
2026-01-15T2100,3059A,117.7181,36.205,济南市,泰兴公司,颗粒物(PM10),150,249,246,110,151,31,,55,54,79,65,20,14,1.2,1.6
2026-01-15T2100,3064A,117.6861,36.2172,济南市,莱芜战役纪念馆,颗粒物(PM10),135,219,233,98,142,58,,71,71,51,65,16,13,0.6,1.4
2026-01-15T2100,3494A,117.1673,36.9782,济南市,济阳区政府,颗粒物(PM10),134,217,234,78,110,49,,65,65,61,60,15,14,0.8,1.1
2026-01-15T2100,3495A,117.1168,36.6299,济南市,锦屏中学,颗粒物(PM10),85,120,163,29,46,94,,96,96,13,23,3,5,0.6,0.7
2026-01-15T2100,4108A,117.7107,36.2385,济南市,山财大街5号,颗粒物(PM10),145,239,236,84,123,52,,76,75,83,75,25,16,1.0,1.3
2026-01-15T2100,4109A,116.9744,36.6889,济南市,无影山路12号,颗粒物(PM10),85,119,204,34,104,78,,82,82,16,50,8,14,0.5,1.2
2026-01-15T2100,1653A,116.6229,35.4288,济宁市,火炬城,细颗粒物(PM2.5),144,201,189,110,138,65,,81,81,37,48,6,6,0.7,0.9
2026-01-15T2100,3500A,116.5808,35.3703,济宁市,北湖一中,颗粒物(PM10),108,165,181,75,127,87,,88,88,24,45,10,11,0.6,0.9
2026-01-15T2100,3501A,116.8251,35.5592,济宁市,服务中心,细颗粒物(PM2.5),124,195,223,94,134,69,,73,73,42,61,12,14,0.8,1.3
2026-01-15T2100,3678A,116.5907,35.4054,济宁市,市第七中学,颗粒物(PM10),125,199,193,85,120,67,,84,84,39,50,12,12,0.9,1.1
2026-01-15T2100,4111A,116.6075,35.4566,济宁市,任和路,颗粒物(PM10),130,210,216,83,125,73,,83,83,33,47,9,8,0.8,1.1
2026-01-15T2100,4112A,116.5648,35.3921,济宁市,文体南路1号,颗粒物(PM10),112,174,211,63,124,94,,91,91,23,49,6,8,0.5,0.9
2026-01-15T2100,2255A,130.2749,46.8028,佳木斯市,佳纺,细颗粒物(PM2.5),90,78,103,67,71,13,,34,23,46,39,14,13,1.0,0.8
2026-01-15T2100,2257A,130.3258,46.7975,佳木斯市,环保局,,,57,57,54,57,,,32,26,,42,13,13,0.7,0.8
2026-01-15T2100,4285A,130.363,46.806,佳木斯市,顺和街,,,,38,,31,,,36,,,34,,13,,0.6
2026-01-15T2100,4286A,130.3952,46.8268,佳木斯市,长安路196号,细颗粒物(PM2.5),72,68,39,52,31,16,,41,26,44,31,14,8,0.8,0.6
2026-01-15T2100,1252A,120.7439,30.778,嘉兴市,清河小学,细颗粒物(PM2.5),94,114,105,70,64,22,,91,79,84,63,9,9,1.2,0.9
2026-01-15T2100,1253A,120.7261,30.7477,嘉兴市,嘉兴学院,细颗粒物(PM2.5),87,114,106,64,59,56,,100,88,61,64,8,10,1.0,0.9
2026-01-15T2100,2872A,120.7845,30.7524,嘉兴市,南湖区残联,细颗粒物(PM2.5),75,88,95,55,60,65,,104,98,60,54,7,8,0.8,0.8
2026-01-15T2100,3407A,120.6915,30.7741,嘉兴市,秀洲住建,细颗粒物(PM2.5),95,114,104,71,66,2,,90,66,132,77,10,10,1.0,0.7
2026-01-15T2100,1945A,98.291,39.7705,嘉峪关市,气象局,颗粒物(PM10),97,144,165,36,32,60,,76,74,20,21,14,21,0.5,0.6
2026-01-15T2100,2884A,98.2672,39.7978,嘉峪关市,酒钢宾馆,,,271,174,,31,65,,64,64,16,17,10,29,0.6,0.8
2026-01-15T2100,3248A,98.2644,39.7723,嘉峪关市,雄关区,颗粒物(PM10),81,111,116,37,29,59,,77,74,23,24,14,21,0.5,0.6
2026-01-15T2100,1383A,113.1063,22.6058,江门市,北街,细颗粒物(PM2.5),87,104,77,64,47,149,,183,183,41,50,/,/,/,/
2026-01-15T2100,1384A,113.073,22.5835,江门市,西区,颗粒物(PM10),87,124,86,53,49,120,,172,171,48,58,/,/,/,/
2026-01-15T2100,1385A,113.0218,22.531,江门市,圭峰西,细颗粒物(PM2.5),78,79,67,57,45,147,,176,176,28,27,/,/,/,/
2026-01-15T2100,1386A,113.0826,22.5947,江门市,东湖,细颗粒物(PM2.5),83,105,76,61,43,143,,183,183,46,56,11,10,0.8,0.7
2026-01-15T2100,3311A,113.1077,22.5647,江门市,江海富民,细颗粒物(PM2.5),90,126,89,67,43,149,,189,189,54,55,/,/,0.8,0.9
2026-01-15T2100,3449A,113.0496,22.4669,江门市,新会银湖,细颗粒物(PM2.5),98,74,79,73,61,117,,180,177,36,42,8,8,0.7,0.6
2026-01-15T2100,3335A,113.3137,35.2643,焦作市,马村街道办,颗粒物(PM10),62,74,113,31,51,56,,77,73,24,28,7,13,0.4,0.7
2026-01-15T2100,3336A,113.2464,35.2374,焦作市,焦作技师学院,颗粒物(PM10),66,81,123,34,45,44,,73,68,38,36,11,15,0.6,0.8
2026-01-15T2100,3477A,113.1656,35.2536,焦作市,中站许衡医院,颗粒物(PM10),72,94,104,29,40,73,,77,77,24,30,6,12,0.4,0.7
2026-01-15T2100,3981A,113.2456,35.18,焦作市,原李万街道办,颗粒物(PM10),90,130,138,46,45,49,,74,70,32,34,23,12,0.7,0.6
2026-01-15T2100,4264A,113.234,35.219,焦作市,新安路1731号,颗粒物(PM10),75,100,131,46,50,31,,72,65,50,34,10,12,0.8,0.6
2026-01-15T2100,4295A,113.2722,35.2121,焦作市,人民路3066号,颗粒物(PM10),95,140,136,51,44,24,,68,60,53,34,18,11,0.9,0.7
2026-01-15T2100,1708A,116.3701,23.5345,揭阳市,新兴,,47,47,75,25,47,74,,139,131,47,44,12,12,1.0,0.8
2026-01-15T2100,1709A,116.3261,23.5442,揭阳市,西马,,45,45,81,23,44,85,,142,135,23,32,5,8,0.5,0.7
2026-01-15T2100,1710A,116.361,23.5627,揭阳市,东兴,颗粒物(PM10),55,59,77,27,40,71,,139,127,31,35,14,13,/,/
2026-01-15T2100,1711A,116.4151,23.5295,揭阳市,渔湖,,,38,75,34,37,,,144,144,36,36,12,8,/,/
2026-01-15T2100,3320A,116.4028,23.5699,揭阳市,曲溪,"颗粒物(PM10),细颗粒物(PM2.5)",60,70,82,43,44,72,,150,143,42,38,3,8,2.5,1
2026-01-15T2100,1944A,102.1691,38.5166,金昌市,天庆家园,颗粒物(PM10),80,110,118,30,28,63,,81,74,15,20,39,19,0.6,0.7
2026-01-15T2100,4022A,102.1648,38.5369,金昌市,金川区人防中心,颗粒物(PM10),100,150,102,51,41,60,,56,,16,18,5,21,0.7,0.7
2026-01-15T2100,4239A,102.193042,38.531887,金昌市,长春路96号,颗粒物(PM10),88,126,110,51,32,60,,80,73,9,20,6,53,0.6,0.7
2026-01-15T2100,1262A,119.6478,29.0773,金华市,十五中,细颗粒物(PM2.5),93,109,87,69,55,17,,104,86,96,59,4,5,1.3,0.8
2026-01-15T2100,1263A,119.6859,29.1032,金华市,监测站,细颗粒物(PM2.5),73,90,90,53,52,2,,81,64,108,68,4,5,0.7,0.6
2026-01-15T2100,3659A,119.656,29.1132,金华市,气象局,细颗粒物(PM2.5),87,112,90,64,56,6,,90,68,122,81,5,5,0.8,0.6
2026-01-15T2100,1767A,121.1114,41.0879,锦州市,南山,,45,40,64,31,55,59,,59,59,17,32,9,11,0.6,0.8
2026-01-15T2100,1768A,121.060361,40.842794,锦州市,开发区,,45,40,73,31,56,55,,54,54,16,36,6,12,0.7,1
2026-01-15T2100,1769A,121.1836,41.1118,锦州市,百股街道,,39,37,68,27,56,57,,56,56,19,28,6,12,0.6,0.9
2026-01-15T2100,1770A,121.1176,41.1224,锦州市,天安街道,,44,44,63,30,46,60,,63,61,18,19,10,11,0.7,0.9
2026-01-15T2100,1771A,121.1303,41.1385,锦州市,北湖公园,,49,49,67,27,50,53,,56,56,17,26,8,10,0.6,0.8
2026-01-15T2100,2160A,112.8496,35.5051,晋城市,自来水公司,颗粒物(PM10),63,76,93,29,37,22,,73,68,62,30,8,8,0.6,0.9
2026-01-15T2100,2162A,112.8509,35.4886,晋城市,市环保局,颗粒物(PM10),69,87,97,22,34,9,,80,68,75,38,4,7,1.2,1
2026-01-15T2100,3620A,112.8258,35.4804,晋城市,泽州一中,颗粒物(PM10),54,57,109,17,38,55,,86,84,28,23,6,6,0.3,0.8
2026-01-15T2100,4078A,112.8246,35.5152,晋城市,前书院路,颗粒物(PM10),58,65,115,31,30,39,,73,70,38,30,8,7,0.4,0.8
2026-01-15T2100,4079A,112.8864,35.4773,晋城市,祥云街666号,颗粒物(PM10),54,58,101,34,35,60,,83,83,15,14,4,5,0.3,0.6
2026-01-15T2100,2174A,112.6992,37.6984,晋中市,榆次区政府,颗粒物(PM10),100,149,212,61,76,35,,70,64,47,47,24,28,1.3,1.2
2026-01-15T2100,2865A,112.7195,37.683,晋中市,榆次三中,颗粒物(PM10),102,153,218,44,63,18,,66,56,63,46,21,24,0.7,1.3
2026-01-15T2100,4080A,112.7375,37.7215,晋中市,广安街188号,颗粒物(PM10),105,160,223,57,75,24,,71,56,64,50,23,28,0.5,1.1
2026-01-15T2100,4200A,112.7478,37.6954,晋中市,迎宾街26号,颗粒物(PM10),102,153,219,46,70,20,,74,63,60,41,20,28,0.8,1.4
2026-01-15T2100,2439A,112.2012,31.048,荆门市,竹园小学,细颗粒物(PM2.5),123,142,116,93,88,,,103,103,32,36,13,3,1.5,1.6
2026-01-15T2100,2440A,112.1968,30.9892,荆门市,掇刀,细颗粒物(PM2.5),125,146,130,95,96,91,,103,103,36,34,13,6,0.6,0.6
2026-01-15T2100,3012A,112.1849,31.0361,荆门市,西山林语,细颗粒物(PM2.5),104,114,99,78,77,83,,104,104,28,24,12,7,0.6,0.6
2026-01-15T2100,3547A,112.1631,31.0134,荆门市,龙泉中学南校,细颗粒物(PM2.5),129,146,122,98,89,100,,111,111,16,20,22,7,0.9,0.9
2026-01-15T2100,4124A,112.2213,31.0654,荆门市,新台西路6号,细颗粒物(PM2.5),135,142,130,103,104,89,,102,101,31,37,19,11,0.8,0.8
2026-01-15T2100,1844A,112.2493,30.3198,荆州市,市图书馆,细颗粒物(PM2.5),128,137,114,97,111,92,,112,112,,43,27,10,1.0,1.1
2026-01-15T2100,1845A,112.2009,30.3543,荆州市,市委党校,细颗粒物(PM2.5),113,126,131,85,113,79,,96,96,37,44,13,5,0.9,1
2026-01-15T2100,3194A,112.2749,30.3124,荆州市,管委会,细颗粒物(PM2.5),119,118,123,90,109,83,,104,104,30,44,19,9,0.8,1.1
2026-01-15T2100,4268A,112.1722,30.3366,荆州市,学苑路85号,细颗粒物(PM2.5),124,114,127,94,109,60,,109,104,55,36,14,10,0.9,1
2026-01-15T2100,2343A,117.2114,29.2931,景德镇市,老干部活动中心,细颗粒物(PM2.5),117,132,69,88,50,6,,82,68,74,42,15,15,1.5,0.9
2026-01-15T2100,2344A,117.1893,29.2789,景德镇市,兽医站,细颗粒物(PM2.5),103,129,71,77,41,18,,92,79,80,45,14,12,1.5,0.9
2026-01-15T2100,2346A,117.246,29.2958,景德镇市,陶研所,细颗粒物(PM2.5),88,66,55,65,46,15,,83,74,60,38,5,6,0.7,0.5
2026-01-15T2100,4289A,117.154766,29.256967,景德镇市,青少年活动中心,细颗粒物(PM2.5),118,171,80,89,46,5,,78,63,91,50,19,12,/,/
2026-01-15T2100,1803A,115.9873,29.6816,九江市,十里,细颗粒物(PM2.5),123,131,90,93,66,25,,99,82,105,57,8,9,1.6,1.2
2026-01-15T2100,1804A,115.9583,29.7047,九江市,茅山头,细颗粒物(PM2.5),90,117,79,67,55,4,,111,90,107,54,10,12,1.2,1
2026-01-15T2100,1805A,115.9877,29.7295,九江市,西园,细颗粒物(PM2.5),117,135,87,88,58,29,,120,108,139,78,5,7,1.7,1.1
2026-01-15T2100,1808A,115.9112,29.6038,九江市,综合工业园,细颗粒物(PM2.5),109,96,81,82,62,58,,109,100,71,66,4,6,0.7,0.6
2026-01-15T2100,3190A,116.0254,29.6995,九江市,外国语学校,细颗粒物(PM2.5),108,121,84,81,56,65,,94,88,59,62,10,9,1.1,1
2026-01-15T2100,4253A,116.010205,29.659402,九江市,莲花大道8号,细颗粒物(PM2.5),83,93,71,61,53,81,,117,110,19,20,5,6,0.7,0.7
2026-01-15T2100,4240A,98.495752,39.733935,酒泉市,玉门东路5号,颗粒物(PM10),106,161,146,37,25,48,,82,78,28,11,11,12,0.6,0.4
2026-01-15T2100,4241A,98.5099,39.7506,酒泉市,北大街108号,,,119,135,38,24,,,77,77,19,16,11,12,0.5,0.4
2026-01-15T2100,2698A,76.0071,39.466,喀什地区,巡警大队,,46,46,163,21,86,51,,61,61,30,60,5,11,0.6,3.1
2026-01-15T2100,2699A,75.9756,39.4693,喀什地区,吾办,颗粒物(PM10),56,62,140,15,84,22,,51,51,65,63,8,11,1.2,2.8
2026-01-15T2100,4027A,75.9485,39.4688,喀什地区,老干局,颗粒物(PM10),60,69,171,8,75,18,,58,58,56,51,7,10,0.9,3.2
2026-01-15T2100,1824A,114.3389,34.778,开封市,肿瘤医院,颗粒物(PM10),74,98,134,34,45,47,,80,74,33,45,5,8,0.4,0.6
2026-01-15T2100,1826A,114.2884,34.7966,开封市,世纪星幼儿园,颗粒物(PM10),76,101,123,40,52,48,,80,76,38,40,6,8,0.4,0.5
2026-01-15T2100,3147A,114.3434,34.8101,开封市,龙亭公园,,50,50,126,28,38,52,,85,82,30,36,7,9,0.8,0.7
2026-01-15T2100,3210A,114.3645,34.7955,开封市,汴京公园,颗粒物(PM10),70,89,134,31,46,50,,75,73,35,42,4,7,0.5,0.6
2026-01-15T2100,3473A,114.2485,34.8306,开封市,技师学院,颗粒物(PM10),66,81,115,33,39,63,,81,81,24,30,5,8,0.5,0.6
2026-01-15T2100,3592A,114.4518,34.7503,开封市,祥符区生态环境局,颗粒物(PM10),73,95,141,26,50,44,,76,70,44,49,4,7,0.4,0.6
2026-01-15T2100,1951A,84.886,45.6029,克拉玛依市,长征新村,,24,24,27,14,15,51,,61,59,13,10,6,7,0.2,0.3
2026-01-15T2100,1952A,84.8894,45.5827,克拉玛依市,南林小区,,23,23,27,7,12,60,,64,61,10,10,2,3,0.4,0.4
2026-01-15T2100,1954A,84.896,44.3328,克拉玛依市,独山子区,,,,110,70,74,57,,50,44,26,30,,6,0.4,0.8
2026-01-15T2100,1955A,85.6888,46.0909,克拉玛依市,乌尔禾区商贸楼,,31,31,34,14,9,61,,65,61,13,17,6,7,0.4,0.4
2026-01-15T2100,3612A,85.1045,45.6895,克拉玛依市,白碱滩区新站,,34,34,31,13,15,56,,62,59,10,18,8,20,0.3,0.3
2026-01-15T2100,2697A,76.1457,39.7143,克孜勒苏柯尔克孜自治州,市人民政府,颗粒物(PM10),70,90,61,21,22,49,,78,73,41,11,5,4,0.4,0.2
2026-01-15T2100,3665A,76.1654,39.7157,克孜勒苏柯尔克孜自治州,克州文化中心,颗粒物(PM10),56,61,48,17,20,66,,85,83,22,13,8,6,0.5,0.6
2026-01-15T2100,1450A,102.8203,24.889,昆明市,呈贡新区,,48,48,58,17,37,67,,72,72,15,26,5,4,0.6,0.9
2026-01-15T2100,1452A,102.7253,25.0904,昆明市,龙泉镇,颗粒物(PM10),52,53,49,18,35,6,,73,68,61,26,3,4,0.6,0.5
2026-01-15T2100,1453A,102.7267,25.0378,昆明市,东风东路,,42,36,56,29,40,54,,75,75,28,23,8,6,0.4,0.5
2026-01-15T2100,1454A,102.6744,25.0671,昆明市,金鼎山,,33,33,55,17,37,69,,75,75,15,19,5,4,0.7,0.8
2026-01-15T2100,1455A,102.6643,25.0401,昆明市,碧鸡广场,,41,41,52,27,34,53,,74,74,28,23,8,5,0.6,0.5
2026-01-15T2100,3179A,102.7491,25.012,昆明市,官渡区博物馆,,29,29,55,17,37,70,,80,80,19,30,4,4,0.2,0.3
2026-01-15T2100,3375A,102.8016,24.8336,昆明市,青年创业园,,28,27,53,19,36,81,,88,88,5,19,4,5,0.5,0.7
2026-01-15T2100,3550A,102.8,24.9787,昆明市,昆明学院,,29,29,63,17,38,77,,85,85,14,25,3,4,0.3,0.4
2026-01-15T2100,3551A,102.5969,24.6738,昆明市,晋宁区生态环境分局,,40,40,52,24,34,59,,79,77,12,22,2,3,0.5,0.6
2026-01-15T2100,3552A,102.6673,24.9861,昆明市,云天化总部,,25,22,49,11,33,80,,84,84,10,23,5,7,0.2,0.4
2026-01-15T2100,1456A,91.132,29.6515,拉萨市,八廓街,,28,28,29,16,19,83,,88,88,13,24,8,8,0.3,0.5
2026-01-15T2100,1457A,91.1221,29.6748,拉萨市,市环保局,,26,21,52,18,21,79,,82,82,14,35,8,10,0.5,1.5
2026-01-15T2100,1458A,91.0874,29.6476,拉萨市,区监测站,,27,21,26,9,14,86,,79,78,12,38,4,5,0.7,1
2026-01-15T2100,1459A,91.1774,29.6541,拉萨市,西藏大学,,29,21,24,18,13,90,,87,87,8,23,6,6,0.6,0.5
2026-01-15T2100,1460A,90.9798,29.6586,拉萨市,区辐射站,颗粒物(PM10),58,65,50,36,22,53,,75,70,45,40,8,5,1.0,0.9
2026-01-15T2100,1461A,91.0831,29.6292,拉萨市,拉萨火车站,,28,28,30,7,18,82,,80,80,12,35,4,5,0.5,0.9
2026-01-15T2100,2520A,109.2203,23.7252,来宾市,来宾技工学校,细颗粒物(PM2.5),80,83,115,59,85,51,,118,111,46,34,10,12,0.9,1
2026-01-15T2100,3535A,109.1781,23.7293,来宾市,兴宾区政府,细颗粒物(PM2.5),74,80,124,54,96,108,,140,139,22,19,10,9,0.7,0.9
2026-01-15T2100,4002A,109.2312,23.7428,来宾市,中南小学,细颗粒物(PM2.5),92,125,115,68,78,22,,125,109,65,42,5,7,1.3,1
2026-01-15T2100,1479A,103.8309,36.0467,兰州市,铁路设计院,,,,,,,,,,,,,,,,
2026-01-15T2100,3241A,103.7439,36.0841,兰州市,百合公园,颗粒物(PM10),107,163,119,37,42,67,,37,37,12,68,2,15,0.4,1.5
2026-01-15T2100,3242A,103.9613,35.9985,兰州市,和平,颗粒物(PM10),110,170,96,76,36,49,,71,69,34,32,26,14,0.9,1.1
2026-01-15T2100,4236A,103.629272,36.093822,兰州市,庄浪东路808号,颗粒物(PM10),124,198,119,49,44,58,,78,76,31,58,12,22,0.5,1.1
2026-01-15T2100,4237A,103.7251,36.104344,兰州市,安宁西路88号,颗粒物(PM10),116,181,125,44,38,76,,67,67,23,65,9,16,0.4,1
2026-01-15T2100,4238A,103.846982,36.067567,兰州市,北滨河东路1号,,,,120,,46,,,48,48,38,73,8,14,0.6,1.7
2026-01-15T2100,1067A,116.6712,39.5109,廊坊市,药材公司,细颗粒物(PM2.5),113,147,137,85,88,22,,26,21,34,62,4,5,1.1,1.1
2026-01-15T2100,1068A,116.7215,39.5592,廊坊市,开发区,细颗粒物(PM2.5),114,142,145,86,86,29,,28,24,32,63,3,4,0.9,1
2026-01-15T2100,1070A,116.7246,39.5273,廊坊市,北华航天学院,细颗粒物(PM2.5),127,195,150,96,90,29,,28,22,28,62,3,5,0.9,1
2026-01-15T2100,2919A,116.7022,39.5454,廊坊市,河北工业大学,颗粒物(PM10),122,194,151,90,91,29,,28,23,24,61,2,4,0.9,0.9
2026-01-15T2100,2536A,103.7629,29.5844,乐山市,牛耳桥,细颗粒物(PM2.5),114,116,92,86,73,8,,67,64,71,43,6,5,1.0,0.9
2026-01-15T2100,2537A,103.7501,29.6002,乐山市,市第三水厂,细颗粒物(PM2.5),94,99,91,70,67,12,,69,65,68,50,6,7,0.8,0.8
2026-01-15T2100,2538A,103.7571,29.5664,乐山市,市监测站,细颗粒物(PM2.5),102,89,86,76,69,54,,80,80,42,36,7,7,0.8,1
2026-01-15T2100,3361A,103.7313,29.563,乐山市,理工大学,细颗粒物(PM2.5),94,88,90,70,69,44,,84,84,52,40,6,6,0.6,0.6
2026-01-15T2100,2599A,100.2497,26.8802,丽江市,丽江古城,,35,35,37,17,23,70,,92,90,17,17,10,10,0.5,0.5
2026-01-15T2100,2600A,100.2203,26.8906,丽江市,市中心,,33,29,27,23,16,76,,93,91,18,17,7,7,0.5,0.5
2026-01-15T2100,1267A,119.9141,28.4513,丽水市,监测站大楼,细颗粒物(PM2.5),74,79,52,54,35,4,,89,61,68,44,6,7,1.2,0.7
2026-01-15T2100,1268A,119.93,28.4589,丽水市,莲都小学,颗粒物(PM10),74,97,57,44,27,8,,90,74,88,53,/,/,/,/
2026-01-15T2100,1269A,119.8794,28.4232,丽水市,余庄前,,46,46,52,25,32,33,,84,76,29,30,4,5,0.4,0.4
2026-01-15T2100,1173A,119.1759,34.5885,连云港市,市环境监测站,细颗粒物(PM2.5),206,232,225,156,175,61,,80,79,42,56,18,18,1.2,1.1
2026-01-15T2100,3000A,119.3577,34.6971,连云港市,德源药业,细颗粒物(PM2.5),211,237,224,161,151,61,,58,57,53,66,10,10,1.5,1.3
2026-01-15T2100,3007A,119.178,34.8442,连云港市,新城一中,细颗粒物(PM2.5),229,239,236,179,192,17,,66,50,117,86,15,17,1.5,1.5
2026-01-15T2100,3008A,119.3607,34.7519,连云港市,胡沟管理处,细颗粒物(PM2.5),199,227,215,149,153,81,,68,59,64,73,21,19,1.4,1.4
2026-01-15T2100,3009A,119.1478,34.5913,连云港市,矿山设计院,细颗粒物(PM2.5),199,244,240,149,168,51,,78,75,56,63,12,15,1.5,1.5
2026-01-15T2100,3434A,119.2414,34.6539,连云港市,工贸学校,细颗粒物(PM2.5),226,248,230,176,182,79,,83,83,37,52,18,17,1.5,1.5
2026-01-15T2100,3664A,119.4171,34.734,连云港市,连云街道,细颗粒物(PM2.5),222,278,203,172,135,108,,55,55,34,58,10,12,1.2,1.2
2026-01-15T2100,2573A,102.2629,27.8981,凉山彝族自治州,西昌市政府,细颗粒物(PM2.5),57,50,40,40,28,72,,83,82,16,11,15,9,0.7,0.6
2026-01-15T2100,2574A,102.2686,27.885,凉山彝族自治州,凉山州政府,颗粒物(PM10),55,60,42,36,28,66,,83,82,20,12,14,10,0.7,0.6
2026-01-15T2100,4229A,102.2342,27.8859,凉山彝族自治州,凯乐南路30号,颗粒物(PM10),53,56,50,34,30,77,,84,84,16,17,18,10,1.0,0.6
2026-01-15T2100,2212A,123.1978,41.2036,辽阳市,宏伟区,细颗粒物(PM2.5),69,,62,50,50,53,,57,57,19,16,8,6,0.7,0.9
2026-01-15T2100,2213A,123.1684,41.2497,辽阳市,新华园,细颗粒物(PM2.5),53,,60,37,52,52,,55,55,27,24,7,7,0.6,0.7
2026-01-15T2100,2214A,123.2355,41.2663,辽阳市,滨河路,,,59,63,48,47,,,48,48,26,21,5,8,0.4,0.4
2026-01-15T2100,4083A,123.153,41.2874,辽阳市,铁西路150号,细颗粒物(PM2.5),59,,55,42,48,45,,54,54,30,24,11,9,0.8,0.9
2026-01-15T2100,2227A,125.1359,42.8845,辽源市,环保局,细颗粒物(PM2.5),65,77,48,47,31,42,,56,52,31,30,12,8,0.6,0.6
2026-01-15T2100,4085A,125.0998,42.9134,辽源市,安宁大街333号,细颗粒物(PM2.5),82,72,48,60,34,43,,58,54,22,17,6,5,0.7,0.6
2026-01-15T2100,1625A,115.9789,36.4372,聊城市,区政府,颗粒物(PM10),110,169,223,66,121,68,,69,69,38,63,14,17,0.8,1.4
2026-01-15T2100,3200A,115.9772,36.4986,聊城市,监控中心,细颗粒物(PM2.5),113,174,230,85,134,79,,79,79,34,57,10,11,0.8,1.4
2026-01-15T2100,3513A,116.0443,36.436,聊城市,九州社区,颗粒物(PM10),116,182,220,72,125,79,,82,82,17,45,6,11,0.5,1
2026-01-15T2100,4018A,116.0564,36.4609,聊城市,星美广场,颗粒物(PM10),118,185,233,66,120,75,,74,74,22,54,5,9,0.6,1.1
2026-01-15T2100,4113A,116.0091,36.4495,聊城市,利民路,颗粒物(PM10),105,160,207,70,124,65,,63,63,40,64,10,15,0.8,1.3
2026-01-15T2100,2632A,94.3683,29.6373,林芝市,林芝监测站,,26,26,9,10,7,74,,80,78,1,4,3,3,0.4,0.4
2026-01-15T2100,2633A,94.3616,29.6634,林芝市,林芝人民医院,,30,30,17,10,8,81,,87,87,3,7,1,2,0.4,0.4
2026-01-15T2100,2603A,100.0779,23.8981,临沧市,市环保局,细颗粒物(PM2.5),70,,42,51,44,53,,79,79,18,13,6,6,0.7,0.6
2026-01-15T2100,2604A,100.0894,23.882,临沧市,市气象局,细颗粒物(PM2.5),89,81,50,66,38,26,,74,72,39,15,6,6,1.2,0.6
2026-01-15T2100,1733A,111.5552,36.0791,临汾市,临钢医院,颗粒物(PM10),141,231,194,79,79,14,,57,49,54,40,6,8,1.2,1.4
2026-01-15T2100,1734A,111.4984,36.0734,临汾市,技工学校,颗粒物(PM10),147,244,213,75,88,7,,54,46,66,50,8,10,1.3,1.5
2026-01-15T2100,1736A,111.5017,36.0857,临汾市,市委,颗粒物(PM10),144,237,199,72,82,10,,62,57,76,50,10,12,1.4,1.7
2026-01-15T2100,3018A,111.5048,36.1015,临汾市,唐尧大酒店,颗粒物(PM10),135,220,193,77,90,7,,63,53,82,52,6,7,1.2,1.8
2026-01-15T2100,4244A,111.4879,36.053,临汾市,启星学校,颗粒物(PM10),137,224,177,70,79,4,,62,52,102,58,10,10,1.5,1.7
2026-01-15T2100,4271A,103.2464,35.6123,临夏回族自治州,滨河东路1号,细颗粒物(PM2.5),200,230,151,150,59,3,,70,61,61,34,15,9,2.2,1.2
2026-01-15T2100,4310A,103.207136,35.599807,临夏回族自治州,新华街21号,颗粒物(PM10),110,169,122,81,56,11,,61,54,70,38,20,12,2.2,1.4
2026-01-15T2100,1618A,118.3429,35.0532,临沂市,沂河小区,细颗粒物(PM2.5),245,266,248,195,188,63,,77,77,51,67,23,21,1.1,1.5
2026-01-15T2100,1619A,118.2962,35.0568,临沂市,鲁南制药厂,细颗粒物(PM2.5),236,293,269,186,195,55,,77,70,60,75,30,26,1.2,1.8
2026-01-15T2100,1620A,118.2793,34.9976,临沂市,新光毛纺厂,细颗粒物(PM2.5),242,288,246,192,182,44,,80,74,75,78,47,24,1.4,1.6
2026-01-15T2100,1621A,118.3955,35.0889,临沂市,河东保险公司,细颗粒物(PM2.5),244,300,245,194,167,39,,73,69,83,66,18,17,1.4,1.4
2026-01-15T2100,3370A,118.3563,35.0215,临沂市,十里堡居委,细颗粒物(PM2.5),228,288,256,178,167,67,,86,86,58,73,24,23,1.1,1.6
2026-01-15T2100,3496A,118.359,35.1067,临沂市,南坊新区,细颗粒物(PM2.5),247,307,228,197,158,48,,81,79,77,65,22,17,1.4,1.3
2026-01-15T2100,3860A,118.3915,35.0297,临沂市,皇山花园小区,细颗粒物(PM2.5),238,327,251,188,159,55,,89,87,76,68,22,22,1.5,1.6
2026-01-15T2100,1870A,109.4854,24.3898,柳州市,柳东小学,细颗粒物(PM2.5),149,129,128,114,116,88,,140,140,46,29,36,31,1.4,1.2
2026-01-15T2100,1871A,109.4109,24.3304,柳州市,环保监测站,细颗粒物(PM2.5),147,130,148,112,109,58,,129,125,54,55,9,16,1.8,1.5
2026-01-15T2100,1872A,109.3886,24.3408,柳州市,河西水厂,细颗粒物(PM2.5),158,246,217,120,114,40,,130,123,75,57,10,16,1.6,1.3
2026-01-15T2100,1873A,109.4263,24.2951,柳州市,市四中,细颗粒物(PM2.5),142,177,150,108,106,,,40,40,103,69,12,15,2.0,1.6
2026-01-15T2100,1874A,109.396,24.3658,柳州市,市九中,细颗粒物(PM2.5),134,158,159,102,117,72,,130,129,50,51,17,24,1.8,1.5
2026-01-15T2100,1875A,109.4912,24.3164,柳州市,古亭山,细颗粒物(PM2.5),107,108,113,80,79,55,,116,113,63,62,14,18,1.0,1.2
2026-01-15T2100,3402A,109.5422,24.3994,柳州市,市二中,细颗粒物(PM2.5),144,140,119,110,97,36,,125,114,80,46,17,17,1.4,1.1
2026-01-15T2100,2307A,116.5078,31.7369,六安市,监测大楼,细颗粒物(PM2.5),74,74,68,54,48,92,,95,94,24,37,5,5,0.3,0.4
2026-01-15T2100,2308A,116.4738,31.7642,六安市,皖西学院,细颗粒物(PM2.5),72,86,76,52,45,102,,111,110,21,37,7,6,0.4,0.5
2026-01-15T2100,2309A,116.4997,31.7904,六安市,朝阳厂,细颗粒物(PM2.5),70,69,66,51,47,94,,91,87,28,34,7,7,0.4,0.5
2026-01-15T2100,2310A,116.5566,31.7885,六安市,开发区,"颗粒物(PM10),细颗粒物(PM2.5)",67,84,83,48,53,49,,94,84,69,46,7,6,0.4,0.5
2026-01-15T2100,2577A,104.8293,26.592,六盘水市,黄土坡,细颗粒物(PM2.5),84,84,63,62,47,80,,94,93,38,26,16,16,1.0,0.9
2026-01-15T2100,2579A,104.8481,26.5898,六盘水市,民中,细颗粒物(PM2.5),100,85,63,75,52,88,,98,98,28,28,12,12,0.9,0.7
2026-01-15T2100,2580A,104.9541,26.5506,六盘水市,双水,细颗粒物(PM2.5),94,85,71,70,51,97,,104,104,20,16,8,9,0.5,0.7
2026-01-15T2100,4151A,104.8899,26.5685,六盘水市,钟山大道中段564号,细颗粒物(PM2.5),99,120,85,74,53,80,,98,97,27,24,25,17,1.2,1.2
2026-01-15T2100,2336A,117.022,25.1031,龙岩市,龙岩市监测站,细颗粒物(PM2.5),65,58,43,47,28,48,,118,108,53,37,47,23,1.0,0.6
2026-01-15T2100,2337A,117.0257,25.0662,龙岩市,闽西职业技术学院,,50,50,45,28,24,84,,120,115,26,29,16,16,0.5,0.6
2026-01-15T2100,2338A,117.0195,25.0306,龙岩市,龙岩学院,细颗粒物(PM2.5),63,,39,45,25,80,,120,114,16,18,10,10,/,/
2026-01-15T2100,2885A,104.9344,33.3827,陇南市,滨江中学,细颗粒物(PM2.5),150,194,121,115,50,4,,58,37,88,44,52,21,5.6,2
2026-01-15T2100,3247A,104.9551,33.3709,陇南市,市总工会,颗粒物(PM10),95,140,94,68,36,14,,54,44,66,33,18,12,2.1,1
2026-01-15T2100,2488A,111.9984,27.7346,娄底市,市监测站,细颗粒物(PM2.5),98,110,96,73,69,61,,96,91,43,44,11,12,1.1,1.2
2026-01-15T2100,2491A,111.9888,27.7035,娄底市,市政府,细颗粒物(PM2.5),95,97,95,71,73,29,,92,84,66,35,8,8,1.5,1.1
2026-01-15T2100,4127A,111.9812,27.7591,娄底市,涟钢职大,细颗粒物(PM2.5),104,115,91,78,60,13,,93,79,79,40,28,10,0.8,0.9
2026-01-15T2100,4128A,112.0303,27.7457,娄底市,娄底体校,细颗粒物(PM2.5),108,140,98,81,72,30,,79,69,34,30,4,4,0.9,1
2026-01-15T2100,1894A,105.4427,28.9063,泸州市,小市上码头,细颗粒物(PM2.5),199,188,143,149,110,77,,93,92,31,28,9,9,1.4,1.3
2026-01-15T2100,1895A,105.4241,28.8573,泸州市,兰田宪桥,细颗粒物(PM2.5),166,180,168,126,117,38,,85,82,42,19,8,8,1.5,1.3
2026-01-15T2100,1896A,105.4378,28.8833,泸州市,市环监站,细颗粒物(PM2.5),168,162,136,127,106,74,,92,92,36,29,9,9,1.4,1.2
2026-01-15T2100,4272A,105.3689,28.7783,泸州市,纳溪中医医院,细颗粒物(PM2.5),203,172,134,153,124,12,,78,72,53,21,8,8,1.6,1.2
2026-01-15T2100,2183A,111.1447,37.5212,吕梁市,环保局,颗粒物(PM10),101,152,186,36,62,4,,50,37,65,40,5,6,0.3,0.4
2026-01-15T2100,2185A,111.1285,37.5338,吕梁市,自来水公司,颗粒物(PM10),114,178,320,49,69,3,,47,42,57,37,9,8,0.7,0.8
2026-01-15T2100,2867A,111.1225,37.5093,吕梁市,马茂庄小学,颗粒物(PM10),119,188,335,48,78,3,,42,34,64,43,6,9,0.6,0.4
2026-01-15T2100,1812A,112.3934,34.6517,洛阳市,市委党校,,,,111,,49,,,70,,,41,,11,,0.8
2026-01-15T2100,1815A,112.494,34.6883,洛阳市,河南林校,"颗粒物(PM10),细颗粒物(PM2.5)",102,153,126,76,54,8,,63,52,78,48,13,13,0.9,0.8
2026-01-15T2100,1816A,112.3843,34.623,洛阳市,开发区管委会,颗粒物(PM10),91,131,121,60,45,42,,65,60,41,35,14,12,0.8,0.7
2026-01-15T2100,1817A,112.4263,34.6249,洛阳市,市委新办公区,细颗粒物(PM2.5),104,156,108,78,47,7,,64,48,90,41,13,12,1.3,0.5
2026-01-15T2100,3340A,112.6005,34.6323,洛阳市,伊滨,颗粒物(PM10),93,136,107,62,53,7,,67,50,76,38,9,9,0.7,0.5
2026-01-15T2100,3341A,112.495,34.6338,洛阳市,中移产业园,颗粒物(PM10),94,138,102,57,42,11,,60,51,75,32,15,12,0.9,0.6
2026-01-15T2100,3593A,112.5736,34.8993,洛阳市,吉利监测站,颗粒物(PM10),104,157,138,55,44,15,,64,48,65,40,11,10,1.0,0.6
2026-01-15T2100,3635A,112.3678,34.6623,洛阳市,河科大西苑校区,颗粒物(PM10),105,160,133,58,44,5,,65,53,84,46,13,12,1.2,0.9
2026-01-15T2100,3636A,112.4387,34.678,洛阳市,英才小学,颗粒物(PM10),121,191,145,80,63,2,,52,45,96,60,16,15,1.4,1
2026-01-15T2100,4214A,112.460027,34.694929,洛阳市,春都路1号院,颗粒物(PM10),103,155,145,53,51,13,,64,56,70,42,11,12,0.9,0.9
2026-01-15T2100,2399A,114.051,33.5721,漯河市,三五一五工厂,细颗粒物(PM2.5),109,137,122,82,79,50,,80,76,37,29,9,8,0.6,0.7
2026-01-15T2100,2400A,114.0055,33.5698,漯河市,漯河大学,,,100,110,,74,60,,89,86,20,22,6,7,0.5,0.8
2026-01-15T2100,2401A,114.0134,33.5826,漯河市,市水利局,颗粒物(PM10),73,95,106,41,72,59,,72,71,20,21,8,8,0.5,0.7
2026-01-15T2100,2402A,114.0261,33.5697,漯河市,市广电局,颗粒物(PM10),72,93,106,34,69,65,,87,84,25,23,7,8,0.6,0.7
2026-01-15T2100,3478A,113.9691,33.568,漯河市,市图书馆,颗粒物(PM10),78,105,123,46,80,54,,75,73,26,21,6,6,0.6,0.7
2026-01-15T2100,4250A,114.089259,33.588274,漯河市,韶山路11号,颗粒物(PM10),76,102,116,48,70,54,,80,74,24,25,8,8,0.6,0.7
2026-01-15T2100,1798A,118.5084,31.6838,马鞍山市,湖东路四小,颗粒物(PM10),106,161,120,75,68,10,,84,70,99,70,7,8,1.2,1
2026-01-15T2100,1799A,118.5019,31.6449,马鞍山市,开发区,细颗粒物(PM2.5),132,172,133,100,87,35,,93,72,74,74,8,8,0.9,0.9
2026-01-15T2100,3633A,118.4914,31.681,马鞍山市,雨山,细颗粒物(PM2.5),99,141,117,74,75,13,,95,79,105,73,9,10,1.4,1
2026-01-15T2100,4191A,118.527362,31.722269,马鞍山市,慈湖高新区,细颗粒物(PM2.5),112,147,127,84,78,46,,76,68,64,69,11,14,0.7,1.2
2026-01-15T2100,1686A,111.0285,21.469,茂名市,电白南海,,,51,61,,36,100,,115,114,14,19,9,15,0.7,1.1
2026-01-15T2100,1687A,110.9294,21.6533,茂名市,茂石化七小,颗粒物(PM10),67,83,69,34,33,61,,116,110,39,25,6,10,0.6,0.6
2026-01-15T2100,1688A,110.9108,21.6688,茂名市,健康路,颗粒物(PM10),56,61,62,39,35,86,,123,120,28,26,10,21,0.9,1
2026-01-15T2100,1689A,110.8592,21.6826,茂名市,高岭,颗粒物(PM10),62,73,83,31,34,83,,120,114,23,27,9,21,/,/
2026-01-15T2100,3450A,111.0101,21.5165,茂名市,电白水东,,44,44,53,27,29,106,,115,115,10,17,8,14,/,/
2026-01-15T2100,2540A,103.8414,30.0871,眉山市,气象局,细颗粒物(PM2.5),132,147,100,100,80,42,,85,85,57,40,14,13,1.2,0.8
2026-01-15T2100,3148A,103.829,30.0563,眉山市,区人社局,细颗粒物(PM2.5),122,118,97,92,72,32,,76,75,79,50,12,11,1.2,0.9
2026-01-15T2100,4148A,103.8836,30.0695,眉山市,眉职院,细颗粒物(PM2.5),98,112,92,73,57,28,,78,76,53,36,1,2,0.9,0.8
2026-01-15T2100,1690A,116.1248,24.3307,梅州市,梅江月梅,颗粒物(PM10),61,72,58,43,34,41,,130,115,52,39,/,/,/,/
2026-01-15T2100,1691A,116.0798,24.2719,梅州市,梅县新城,细颗粒物(PM2.5),108,109,61,81,40,4,,116,81,87,48,7,8,1.2,0.8
2026-01-15T2100,3315A,116.1234,24.2994,梅州市,梅龙,颗粒物(PM10),69,88,60,44,33,20,,115,96,70,41,11,11,1.5,0.9
2026-01-15T2100,1878A,104.7775,31.4741,绵阳市,富乐山,细颗粒物(PM2.5),104,87,77,78,55,79,,90,90,11,34,8,8,0.6,0.6
2026-01-15T2100,1880A,104.6698,31.4668,绵阳市,高新区自来水公司,细颗粒物(PM2.5),94,106,107,70,67,3,,72,63,86,44,9,9,1.2,0.9
2026-01-15T2100,3491A,104.6899,31.5324,绵阳市,西科大附属小学,细颗粒物(PM2.5),113,114,104,85,64,9,,83,76,92,49,9,9,0.7,0.7
2026-01-15T2100,3492A,104.5647,31.5343,绵阳市,安州区旅游局,细颗粒物(PM2.5),128,151,88,97,65,4,,82,67,92,42,11,11,1.8,0.8
2026-01-15T2100,4146A,104.7092,31.4972,绵阳市,科技城新区公安局,细颗粒物(PM2.5),97,90,118,72,59,68,,96,96,43,48,10,10,0.7,0.8
2026-01-15T2100,4226A,104.765114,31.453094,绵阳市,绵阳市气象局,细颗粒物(PM2.5),117,106,89,88,60,50,,81,80,49,45,6,9,0.9,0.9
2026-01-15T2100,1784A,129.61,44.561,牡丹江市,环保大楼,细颗粒物(PM2.5),62,61,55,44,32,22,,52,34,47,34,6,10,0.7,0.6
2026-01-15T2100,1787A,129.6364,44.6075,牡丹江市,机车工厂,细颗粒物(PM2.5),107,88,57,80,34,4,,49,28,58,33,7,9,1.1,0.6
2026-01-15T2100,1788A,129.6386,44.5462,牡丹江市,第一中学,细颗粒物(PM2.5),79,60,43,58,40,22,,54,34,34,26,7,7,0.8,0.5
2026-01-15T2100,4287A,129.5992,44.5964,牡丹江市,东晓云街98号,细颗粒物(PM2.5),135,146,61,103,53,9,,50,28,58,32,21,18,1.5,0.9
2026-01-15T2100,2531A,105.0703,29.61,内江市,市监测站,细颗粒物(PM2.5),204,154,107,154,102,64,,104,104,22,31,7,7,1.2,1.1
2026-01-15T2100,2533A,105.0657,29.5807,内江市,内江二中,细颗粒物(PM2.5),180,158,121,136,104,82,,95,95,28,39,5,5,1.2,1.1
2026-01-15T2100,2534A,105.0407,29.5828,内江市,内江日报社,细颗粒物(PM2.5),172,133,102,130,102,78,,96,96,34,48,3,3,1.1,1
2026-01-15T2100,4147A,105.0433,29.6105,内江市,玉峰路西段888号,细颗粒物(PM2.5),190,155,101,143,100,68,,92,92,35,41,2,2,1.2,1
2026-01-15T2100,2628A,92.0653,31.4846,那曲市,那曲监测站,,31,31,53,20,29,56,,67,67,24,22,8,9,1.0,1.1
2026-01-15T2100,4243A,92.0515,31.4787,那曲市,那曲市委宣传部,,27,10,40,3,21,85,,81,81,1,20,3,7,0.4,1.3
2026-01-15T2100,1291A,115.8887,28.7006,南昌市,省林业公司,细颗粒物(PM2.5),107,127,93,80,64,35,,111,103,98,65,7,8,1.4,1.3
2026-01-15T2100,1292A,115.813,28.7443,南昌市,林科所,细颗粒物(PM2.5),70,70,67,51,46,94,,125,123,37,58,10,11,0.4,0.4
2026-01-15T2100,1294A,115.8518,28.687,南昌市,建工学校,细颗粒物(PM2.5),145,167,109,111,71,30,,109,100,96,71,16,17,1.7,1.2
2026-01-15T2100,1295A,115.8926,28.6425,南昌市,象湖,细颗粒物(PM2.5),147,158,110,112,71,5,,111,93,134,66,11,12,2.2,1.2
2026-01-15T2100,3046A,115.9084,28.6062,南昌市,机电学校,细颗粒物(PM2.5),117,141,124,88,82,16,,120,96,113,68,8,10,1.1,0.9
2026-01-15T2100,3690A,115.9718,28.7032,南昌市,外国语学校,细颗粒物(PM2.5),117,127,102,88,74,18,,109,96,98,60,15,17,1.1,0.9
2026-01-15T2100,4106A,115.7923,28.6873,南昌市,工业二路,细颗粒物(PM2.5),90,104,81,67,61,1,,116,98,112,59,6,8,1.8,1.3
2026-01-15T2100,4192A,115.931587,28.686774,南昌市,南京东路235号,细颗粒物(PM2.5),134,143,119,102,85,49,,116,109,74,65,7,9,1.1,1.3
2026-01-15T2100,1906A,106.0791,30.8022,南充市,南充市委,细颗粒物(PM2.5),176,168,139,133,118,6,,61,56,105,49,4,4,1.8,1.3
2026-01-15T2100,1907A,106.1038,30.8215,南充市,南充炼油厂,细颗粒物(PM2.5),189,164,138,142,119,40,,75,75,59,37,6,6,1.3,1.2
2026-01-15T2100,4227A,106.108336,30.788436,南充市,梨树横街98号,细颗粒物(PM2.5),168,149,136,127,111,47,,89,89,75,43,7,6,1.2,1
2026-01-15T2100,4304A,106.1172,30.843,南充市,清泉寺北路188号,细颗粒物(PM2.5),173,,111,131,119,84,,104,104,27,22,7,6,0.8,0.8
2026-01-15T2100,4305A,106.067,30.7616,南充市,同庆路1号,细颗粒物(PM2.5),175,168,130,132,111,2,,66,59,102,48,7,6,2.2,1.2
2026-01-15T2100,1151A,118.8033,32.1085,南京市,迈皋桥,"颗粒物(PM10),细颗粒物(PM2.5)",85,119,85,63,49,15,,85,64,102,64,7,6,1.1,0.7
2026-01-15T2100,1152A,118.7487,32.057,南京市,草场门,颗粒物(PM10),89,127,104,63,57,50,,87,80,78,70,10,10,1.1,0.9
2026-01-15T2100,1154A,118.770105,32.004342,南京市,中华门,细颗粒物(PM2.5),83,112,92,61,54,27,,93,79,79,61,7,7,0.8,0.7
2026-01-15T2100,1155A,118.8059,32.0329,南京市,瑞金路,细颗粒物(PM2.5),104,134,99,78,58,6,,70,48,117,72,4,4,1.9,1.3
2026-01-15T2100,1156A,118.7946,32.0774,南京市,玄武湖,,,100,87,46,50,36,,79,61,32,18,,4,1.1,1
2026-01-15T2100,1157A,118.6415,32.0964,南京市,浦口,颗粒物(PM10),86,121,102,44,57,45,,87,82,60,36,11,11,1.0,0.6
2026-01-15T2100,1158A,118.730129,32.000956,南京市,奥体中心,细颗粒物(PM2.5),94,130,108,70,63,8,,113,78,125,70,10,11,1.2,0.9
2026-01-15T2100,1159A,118.9072,32.1047,南京市,仙林大学城,,,,94,,49,22,,78,68,,66,9,11,,1.1
2026-01-15T2100,3422A,118.8443,31.919,南京市,江宁彩虹桥,细颗粒物(PM2.5),89,110,88,66,51,4,,85,60,113,69,5,6,0.8,0.8
2026-01-15T2100,3427A,118.8497,32.3599,南京市,六合雄州,细颗粒物(PM2.5),150,155,109,115,76,58,,98,86,46,60,7,13,0.9,1.1
2026-01-15T2100,4086A,118.7641,32.0841,南京市,新模范马路66号,颗粒物(PM10),82,114,108,42,53,58,,106,89,88,75,4,4,1.2,1.3
2026-01-15T2100,4249A,118.8707617,31.34017673,南京市,汶溪路181号,细颗粒物(PM2.5),102,101,77,76,65,75,,106,102,44,43,9,11,1.1,1.1
2026-01-15T2100,4312A,119.019,31.6512,南京市,中山西路1号,细颗粒物(PM2.5),110,114,76,83,60,3,,79,65,77,47,4,4,1.5,0.9
2026-01-15T2100,1401A,108.3098,22.788,南宁市,二十一中,细颗粒物(PM2.5),102,102,77,76,58,35,,119,110,70,39,4,7,1.0,0.7
2026-01-15T2100,1402A,108.3135,22.8529,南宁市,北湖,细颗粒物(PM2.5),128,168,97,97,71,7,,113,97,118,72,4,6,1.5,1
2026-01-15T2100,1403A,108.3205,22.8222,南宁市,市监测站,细颗粒物(PM2.5),90,83,84,67,59,58,,117,112,71,52,6,13,1.0,0.9
2026-01-15T2100,1404A,108.3828,22.8038,南宁市,大自然花园,细颗粒物(PM2.5),92,104,81,68,57,53,,118,107,49,36,5,8,1.0,0.9
2026-01-15T2100,1406A,108.2397,22.8462,南宁市,区农职院,细颗粒物(PM2.5),74,85,82,54,53,57,,107,104,42,48,10,15,1.0,1
2026-01-15T2100,1407A,108.3285,22.7356,南宁市,英华嘉园,细颗粒物(PM2.5),113,147,93,85,62,2,,113,92,105,58,5,5,1.4,0.9
2026-01-15T2100,3401A,108.4829,22.762,南宁市,红星社区,细颗粒物(PM2.5),103,124,88,77,63,49,,126,112,46,48,4,5,0.8,0.9
2026-01-15T2100,4132A,108.2927,23.1477,南宁市,起凤路9号,细颗粒物(PM2.5),87,96,109,64,79,43,,112,107,48,42,2,4,0.8,0.8
2026-01-15T2100,4221A,108.2177,22.7774,南宁市,乐贤路16号,细颗粒物(PM2.5),99,141,103,74,60,5,,107,98,114,68,2,4,0.9,0.8
2026-01-15T2100,2332A,118.1682,26.6371,南平市,南平市监测站,细颗粒物(PM2.5),60,53,42,43,28,40,,94,83,34,25,5,8,0.9,0.5
2026-01-15T2100,2334A,118.1757,26.6276,南平市,南平七中,,45,,37,31,26,54,,92,85,26,23,7,9,0.7,0.7
2026-01-15T2100,1168A,120.9056,31.9669,南通市,狼山街道,细颗粒物(PM2.5),212,190,132,162,93,102,,82,82,38,87,6,8,0.8,0.7
2026-01-15T2100,1170A,120.8635,32.0231,南通市,城中,细颗粒物(PM2.5),211,220,149,161,93,79,,62,62,56,105,7,10,1.2,1.1
2026-01-15T2100,1171A,120.9376,31.9301,南通市,星湖花园,细颗粒物(PM2.5),200,189,143,150,94,96,,84,84,53,103,10,12,1.0,0.9
2026-01-15T2100,1172A,120.8053,32.046,南通市,紫琅学院,细颗粒物(PM2.5),211,216,157,161,93,76,,91,87,57,97,6,10,1.0,0.8
2026-01-15T2100,3291A,121.0631,32.0644,南通市,通州监测站,细颗粒物(PM2.5),213,193,134,163,93,124,,127,127,36,81,7,9,1.2,1.1
2026-01-15T2100,3432A,120.9348,31.9874,南通市,环境教育馆,细颗粒物(PM2.5),217,193,134,167,96,76,,82,82,52,96,6,10,1.0,1
2026-01-15T2100,4091A,120.8692,31.9885,南通市,洪江路,细颗粒物(PM2.5),225,194,132,175,101,80,,58,58,47,100,5,9,1.2,1
2026-01-15T2100,2404A,112.5338,33.0086,南阳市,瓦房庄,细颗粒物(PM2.5),109,122,108,82,76,8,,79,64,67,35,8,8,1.7,1.1
2026-01-15T2100,2405A,112.5002,32.9734,南阳市,汉画馆,细颗粒物(PM2.5),84,108,109,62,70,9,,75,63,69,37,6,7,1.0,1
2026-01-15T2100,2406A,112.5778,33.0144,南阳市,气象站,颗粒物(PM10),88,125,129,56,71,16,,80,72,71,37,6,7,1.2,1
2026-01-15T2100,2407A,112.548,32.9687,南阳市,理工学院,颗粒物(PM10),75,99,111,46,66,39,,79,75,53,38,6,7,1.0,1
2026-01-15T2100,4008A,112.5233,32.9921,南阳市,卧龙区政府,颗粒物(PM10),85,120,117,58,72,12,,72,61,76,43,7,7,1.1,0.9
2026-01-15T2100,1234A,121.8352,29.9111,宁波市,区环保大楼,细颗粒物(PM2.5),80,98,66,59,31,12,,98,74,111,52,7,8,1.1,0.6
2026-01-15T2100,1235A,121.5595,29.8208,宁波市,万里学院,细颗粒物(PM2.5),129,124,60,98,37,35,,118,,102,43,10,6,,0.7
2026-01-15T2100,1236A,121.713,29.9564,宁波市,龙赛医院,细颗粒物(PM2.5),107,121,65,80,39,38,,90,73,108,48,14,5,1.0,0.7
2026-01-15T2100,1240A,121.5855,29.8635,宁波市,太古小学,细颗粒物(PM2.5),118,129,59,89,36,36,,115,96,86,37,7,5,1.0,0.6
2026-01-15T2100,1241A,121.5239,29.8673,宁波市,市环境监测中心,细颗粒物(PM2.5),145,129,61,111,34,5,,109,90,130,40,9,8,1.5,0.6
2026-01-15T2100,2871A,121.6156,29.9015,宁波市,万里国际学校,细颗粒物(PM2.5),133,126,55,101,38,15,,102,83,124,47,9,6,0.9,0.5
2026-01-15T2100,3710A,121.5593,29.8976,宁波市,白沙活动中心,细颗粒物(PM2.5),105,96,51,79,31,10,,104,84,121,43,6,6,1.1,0.7
2026-01-15T2100,4095A,121.8962,29.7529,宁波市,中科路88号,细颗粒物(PM2.5),89,88,45,66,27,20,,110,100,111,32,8,7,0.6,0.3
2026-01-15T2100,2341A,119.5387,26.6611,宁德市,宁德市监测站,,43,43,36,24,20,57,,81,71,24,28,3,3,0.8,0.6
2026-01-15T2100,3209A,119.5231,26.6562,宁德市,宁德一中,,44,44,31,26,20,55,,78,74,25,19,6,6,0.6,0.4
2026-01-15T2100,2618A,98.859,25.8541,怒江傈僳族自治州,州监测站,,48,42,39,33,27,54,,75,74,17,15,6,6,0.5,0.4
2026-01-15T2100,2619A,98.8607,25.8168,怒江傈僳族自治州,泸水一中,,34,34,32,10,24,25,,66,61,35,19,6,6,0.6,0.7
2026-01-15T2100,1888A,101.6891,26.571,攀枝花市,弄弄坪,颗粒物(PM10),52,53,67,26,41,46,,71,71,28,35,10,21,0.7,1.6
2026-01-15T2100,1889A,101.577,26.5914,攀枝花市,河门口,颗粒物(PM10),55,59,56,36,37,43,,79,77,29,24,49,18,1.1,1.3
2026-01-15T2100,1891A,101.7365,26.4986,攀枝花市,仁和,颗粒物(PM10),60,69,48,39,30,41,,69,67,22,23,8,13,0.8,1.1
2026-01-15T2100,2835A,101.7222,26.567,攀枝花市,四十中小,细颗粒物(PM2.5),65,70,68,47,43,22,,58,53,51,36,12,24,1.5,1.5
2026-01-15T2100,1604A,122.0303,41.1489,盘锦市,开发区,,33,,66,23,52,63,,64,64,8,14,4,5,0.8,1.1
2026-01-15T2100,1605A,122.0486,41.0883,盘锦市,兴隆台,,32,23,64,22,48,55,,56,56,21,28,6,5,0.5,0.8
2026-01-15T2100,1606A,121.8297,41.1026,盘锦市,新生街道,,28,,65,19,48,60,,63,63,11,21,4,6,0.6,0.8
2026-01-15T2100,1832A,113.3257,33.7423,平顶山市,新华旅馆,,,84,113,38,60,,,78,78,36,44,5,6,0.4,0.6
2026-01-15T2100,1833A,113.2917,33.737,平顶山市,规划设计院,颗粒物(PM10),64,77,129,44,68,65,,79,79,23,38,7,7,0.8,0.8
2026-01-15T2100,1834A,113.182,33.7738,平顶山市,平顶山工学院,颗粒物(PM10),57,64,91,31,48,81,,85,85,14,27,7,9,0.3,0.4
2026-01-15T2100,3594A,112.8736,33.9068,平顶山市,石龙区,颗粒物(PM10),66,81,104,40,42,78,,91,90,12,37,7,9,0.3,0.4
2026-01-15T2100,4116A,113.284,33.7139,平顶山市,姚电大道23号,颗粒物(PM10),69,88,124,43,66,64,,76,75,28,38,8,8,0.4,0.6
2026-01-15T2100,2656A,106.6633,35.5338,平凉市,聚贤嘉苑,颗粒物(PM10),65,80,96,33,28,45,,70,58,30,32,13,14,0.5,0.5
2026-01-15T2100,2657A,106.7021,35.5307,平凉市,博物馆,颗粒物(PM10),74,97,100,46,33,39,,70,62,38,37,14,14,0.7,0.8
2026-01-15T2100,2348A,113.8384,27.6436,萍乡市,中医院,细颗粒物(PM2.5),128,160,137,97,83,12,,95,83,90,56,9,15,2.3,2.1
2026-01-15T2100,2350A,113.8677,27.6438,萍乡市,市环保局,细颗粒物(PM2.5),122,137,104,92,78,14,,105,96,82,51,19,22,1.7,1.6
2026-01-15T2100,2351A,113.8663,27.6202,萍乡市,安源区政府,细颗粒物(PM2.5),148,140,114,113,100,28,,84,70,51,40,13,15,1.7,1.7
2026-01-15T2100,4107A,113.8686,27.6668,萍乡市,联洪村委会,细颗粒物(PM2.5),129,142,116,98,78,15,,92,83,86,50,5,6,1.4,1.4
2026-01-15T2100,2319A,119.0142,25.4324,莆田市,荔城区仓后路,,47,47,49,23,26,87,,112,106,27,21,/,/,/,/
2026-01-15T2100,2320A,119.0016,25.4553,莆田市,莆田市监测站,,37,37,37,24,18,71,,114,103,20,14,3,3,0.7,0.5
2026-01-15T2100,2321A,119.112,25.4561,莆田市,涵江区六中,,47,47,37,25,17,93,,111,110,26,15,/,/,0.7,0.5
2026-01-15T2100,2322A,119.1014,25.3215,莆田市,秀屿区政府,颗粒物(PM10),57,64,53,37,34,78,,119,110,19,18,2,3,0.7,0.6
2026-01-15T2100,2392A,115.0312,35.7636,濮阳市,环保局,颗粒物(PM10),84,117,126,44,51,68,,76,76,28,40,8,9,0.2,0.6
2026-01-15T2100,3021A,115,35.7667,濮阳市,濮水河管理处,颗粒物(PM10),90,129,135,41,52,62,,79,78,27,39,8,8,0.6,0.8
2026-01-15T2100,4118A,115.0552,35.7816,濮阳市,中原东路68号,颗粒物(PM10),87,123,136,41,49,72,,80,80,29,40,6,8,0.1,0.5
2026-01-15T2100,4216A,115.0923632,35.76857718,濮阳市,任丘路479号,颗粒物(PM10),91,132,136,54,58,55,,75,73,35,46,7,9,0.3,0.7
2026-01-15T2100,2601A,100.9801,22.7634,普洱市,市环保局,颗粒物(PM10),60,70,54,29,16,30,,74,66,27,14,5,5,0.6,0.4
2026-01-15T2100,2602A,100.9763,22.8237,普洱市,普洱第二中学,,,56,50,34,26,,,78,78,17,19,5,5,0.4,0.4
2026-01-15T2100,3345A,131.0413,45.7795,七台河市,中波台,,,51,48,37,34,20,,45,39,,27,13,12,0.7,0.6
2026-01-15T2100,3637A,131.0136,45.7688,七台河市,人民广场,,48,42,53,33,38,21,,43,34,41,36,8,9,0.6,0.7
2026-01-15T2100,3684A,130.8639,45.8144,七台河市,新建矿广场,细颗粒物(PM2.5),53,48,41,37,30,30,,46,42,18,21,7,7,0.6,0.4
2026-01-15T2100,1779A,123.9307,47.3641,齐齐哈尔市,安居小区,,46,33,40,32,33,41,,54,53,23,27,9,8,0.6,0.5
2026-01-15T2100,1780A,123.9497,47.3389,齐齐哈尔市,中心广场,,32,29,42,22,31,42,,47,46,23,25,6,9,0.7,0.8
2026-01-15T2100,1781A,123.9483,47.3229,齐齐哈尔市,农牧车辆厂,,34,34,38,20,24,39,,51,49,22,16,5,7,0.5,0.5
2026-01-15T2100,1783A,123.9442,47.2994,齐齐哈尔市,市环境监测站,颗粒物(PM10),70,89,49,41,32,9,,50,44,54,32,10,8,1.3,0.9
2026-01-15T2100,3662A,123.6341,47.2079,齐齐哈尔市,富区青少年活动中心,细颗粒物(PM2.5),55,53,53,39,39,38,,52,43,28,23,12,7,0.8,0.7
2026-01-15T2100,2591A,107.9765,26.5724,黔东南苗族侗族自治州,市环境监测站,细颗粒物(PM2.5),118,100,113,89,101,15,,68,65,67,35,9,6,1.2,0.9
2026-01-15T2100,2881A,107.8909,26.531,黔东南苗族侗族自治州,凯里学院,细颗粒物(PM2.5),72,68,89,52,75,95,,98,98,13,21,3,3,0.6,0.8
2026-01-15T2100,2593A,107.5223,26.2371,黔南布依族苗族自治州,小围寨,细颗粒物(PM2.5),55,48,72,39,65,91,,95,95,6,11,7,6,0.9,0.9
2026-01-15T2100,3538A,107.5175,26.2977,黔南布依族苗族自治州,沙坝,细颗粒物(PM2.5),62,61,82,44,65,70,,90,90,17,19,6,6,1.0,1
2026-01-15T2100,2589A,104.9022,25.0943,黔西南布依族苗族自治州,场坝街,细颗粒物(PM2.5),82,84,71,60,62,62,,80,78,17,14,4,7,0.7,0.7
2026-01-15T2100,2590A,104.8812,25.0994,黔西南布依族苗族自治州,坪东大道,细颗粒物(PM2.5),90,82,68,67,61,29,,83,71,39,18,6,8,1.0,0.8
2026-01-15T2100,2502A,108.6238,21.9667,钦州市,市环保站,"颗粒物(PM10),细颗粒物(PM2.5)",64,78,114,46,56,74,,125,120,38,50,10,7,0.6,0.7
2026-01-15T2100,2503A,108.655,21.9481,钦州市,沙埠小学,细颗粒物(PM2.5),88,79,107,65,62,68,,129,121,42,52,12,10,0.6,0.7
2026-01-15T2100,2504A,108.5989,21.7435,钦州市,港区一小,颗粒物(PM10),77,103,88,38,47,60,,106,103,56,41,4,7,0.7,0.8
2026-01-15T2100,3404A,108.5959,21.9634,钦州市,北职校,"颗粒物(PM10),细颗粒物(PM2.5)",65,80,92,47,56,80,,122,116,25,43,9,10,0.8,0.9
2026-01-15T2100,1046A,119.5247,39.9346,秦皇岛市,建设大厦,细颗粒物(PM2.5),88,109,99,65,66,35,,46,43,28,33,13,19,0.7,1.2
2026-01-15T2100,3132A,119.5979,39.938,秦皇岛市,文明里,细颗粒物(PM2.5),82,112,105,60,54,30,,46,42,42,41,17,20,0.4,0.9
2026-01-15T2100,4066A,119.7458,39.9952,秦皇岛市,南园路157号,细颗粒物(PM2.5),85,112,115,63,68,26,,43,36,40,50,13,15,0.7,1.1
2026-01-15T2100,4067A,119.5131,39.8858,秦皇岛市,翠岛大街1号,细颗粒物(PM2.5),89,126,107,66,66,23,,50,44,34,30,17,21,0.8,1.3
2026-01-15T2100,4198A,119.509013,39.825305,秦皇岛市,北戴河轮滑馆,细颗粒物(PM2.5),83,97,103,61,64,37,,53,50,32,38,12,13,0.7,1.3
2026-01-15T2100,1310A,120.404,36.0625,青岛市,市南区东部子站,细颗粒物(PM2.5),156,229,217,119,124,33,,51,44,78,77,13,17,1.1,1.4
2026-01-15T2100,1311A,120.362344,36.10282,青岛市,四方区子站,细颗粒物(PM2.5),134,205,196,102,118,51,,68,67,50,50,5,10,1.0,1.4
2026-01-15T2100,1312A,120.294373,36.054183,青岛市,市南区西部子站,细颗粒物(PM2.5),175,224,207,132,124,20,,51,40,100,85,11,15,1.8,1.8
2026-01-15T2100,1313A,120.4581,36.0858,青岛市,崂山区子站,颗粒物(PM10),112,173,191,68,102,44,,56,53,59,56,13,16,0.5,1
2026-01-15T2100,1315A,120.3945,36.3083,青岛市,城阳区子站,颗粒物(PM10),126,202,206,42,91,38,,63,58,64,68,7,14,1.0,1.6
2026-01-15T2100,3642A,120.3454,36.0735,青岛市,市北区南部,颗粒物(PM10),134,217,203,97,117,53,,54,54,45,60,4,8,1.1,1.4
2026-01-15T2100,3643A,120.3897,36.18,青岛市,李沧区北部,颗粒物(PM10),102,153,194,48,119,61,,56,56,38,63,10,16,0.9,1.5
2026-01-15T2100,4110A,120.5222,36.4089,青岛市,盟旺路653号,颗粒物(PM10),101,151,200,36,109,74,,78,78,24,56,4,10,0.6,1.3
2026-01-15T2100,4290A,120.196923,35.954556,青岛市,珠江路669号,细颗粒物(PM2.5),185,205,193,139,127,60,,66,65,41,61,10,15,1.3,1.4
2026-01-15T2100,4291A,120.0424,35.8656,青岛市,黄岛区人民政府广场,细颗粒物(PM2.5),180,215,205,136,120,60,,60,57,48,68,8,14,1.5,1.5
2026-01-15T2100,1703A,113.0218,23.7086,清远市,凤城街办,细颗粒物(PM2.5),78,100,83,57,54,58,,143,133,87,52,/,/,/,/
2026-01-15T2100,3025A,113.0479,23.6343,清远市,技师学院,颗粒物(PM10),78,106,92,56,51,13,,156,126,127,69,12,10,0.9,0.7
2026-01-15T2100,3318A,112.9898,23.7403,清远市,清新太和,,48,48,76,27,46,148,,170,170,22,42,6,6,0.5,0.7
2026-01-15T2100,3455A,113.076,23.72,清远市,清城东城,细颗粒物(PM2.5),75,98,72,55,44,59,,160,139,61,40,/,/,/,/
2026-01-15T2100,2661A,107.6325,35.7357,庆阳市,庆阳五中,颗粒物(PM10),76,101,105,48,37,74,,88,84,24,15,11,8,1.0,0.4
2026-01-15T2100,2662A,107.6361,35.7067,庆阳市,市环保局,颗粒物(PM10),67,83,102,36,35,87,,90,89,16,13,7,8,0.4,0.4
2026-01-15T2100,1916A,103.7897,25.5036,曲靖市,环境监测站,颗粒物(PM10),55,59,77,22,43,69,,83,83,20,17,7,10,0.6,0.7
2026-01-15T2100,1917A,103.8013,25.5357,曲靖市,烟厂办公区,,45,45,78,17,41,71,,85,85,19,15,3,8,0.3,0.6
2026-01-15T2100,3376A,103.7926,25.4651,曲靖市,南苑二区,,29,25,73,20,45,77,,88,88,12,13,4,9,0.4,0.6
2026-01-15T2100,3377A,103.7442,25.5259,曲靖市,曲靖师范学院,,45,45,65,20,46,67,,86,86,22,15,3,5,0.3,0.5
2026-01-15T2100,1264A,118.8694,28.94,衢州市,环保大楼,细颗粒物(PM2.5),82,92,75,60,47,30,,94,84,76,62,/,/,/,/
2026-01-15T2100,1266A,118.8622,28.9809,衢州市,衢州学院,颗粒物(PM10),55,59,58,36,35,26,,91,86,69,56,6,7,0.6,0.7
2026-01-15T2100,4097A,118.9646,28.9832,衢州市,衢州三中,细颗粒物(PM2.5),75,94,80,55,48,13,,80,70,87,60,7,9,0.9,1
2026-01-15T2100,1611A,118.5818,24.9116,泉州市,涂山街,颗粒物(PM10),59,68,63,34,34,55,,114,99,44,31,3,3,0.8,0.6
2026-01-15T2100,1612A,118.597,24.8976,泉州市,津头埔,,,,62,,35,,,111,103,50,32,4,5,0.7,0.7
2026-01-15T2100,1613A,118.6669,24.9422,泉州市,万安,颗粒物(PM10),68,86,58,33,33,61,,102,92,32,27,4,3,0.7,0.6
2026-01-15T2100,4105A,118.6355,24.9148,泉州市,霞新路6号,颗粒物(PM10),57,64,55,33,32,7,,108,88,91,40,/,/,0.7,0.6
2026-01-15T2100,2626A,88.8873,29.2723,日喀则市,日喀则监测站,,43,39,47,30,29,37,,89,85,62,26,31,22,1.1,0.9
2026-01-15T2100,3726A,88.8775,29.2425,日喀则市,林业技术推广中心,细颗粒物(PM2.5),52,,26,36,10,91,,94,94,2,7,9,10,0.2,0.4
2026-01-15T2100,1659A,119.4711,35.421,日照市,监测站,细颗粒物(PM2.5),155,224,220,118,114,13,,55,45,104,67,14,17,1.2,1.3
2026-01-15T2100,1660A,119.523,35.4216,日照市,市政府广场,细颗粒物(PM2.5),192,232,208,144,107,61,,75,71,61,54,16,16,1.0,0.9
2026-01-15T2100,1661A,119.5511,35.4113,日照市,港务局,细颗粒物(PM2.5),226,261,226,176,133,48,,65,63,70,65,12,14,1.2,1.1
2026-01-15T2100,3507A,119.5326,35.4627,日照市,职业技术学院,细颗粒物(PM2.5),180,241,212,136,100,46,,74,70,77,60,14,14,1.4,1.3
2026-01-15T2100,3604A,119.3267,35.1043,日照市,岚山环保分局,细颗粒物(PM2.5),200,234,236,150,142,80,,83,83,57,70,16,20,1.4,1.6
2026-01-15T2100,1835A,111.1922,34.7752,三门峡市,市政府,颗粒物(PM10),101,152,129,65,49,3,,71,51,74,46,20,15,2.4,1.1
2026-01-15T2100,1836A,111.1588,34.794,三门峡市,开发区,颗粒物(PM10),80,110,135,40,49,30,,65,61,47,35,11,8,0.7,0.7
2026-01-15T2100,3039A,111.1911,34.7829,三门峡市,三门峡市第一小学,颗粒物(PM10),99,148,146,72,46,5,,65,52,82,36,15,9,2.1,0.7
2026-01-15T2100,3598A,111.1031,34.719,三门峡市,富达温泉假日酒店,,,,144,,53,28,,64,58,49,48,16,13,0.7,0.8
2026-01-15T2100,2324A,117.621,26.2626,三明市,三钢,细颗粒物(PM2.5),64,67,50,46,37,30,,96,83,59,40,8,11,0.8,1.3
2026-01-15T2100,2325A,117.6352,26.2714,三明市,三明二中,细颗粒物(PM2.5),65,62,48,47,36,30,,97,91,57,36,4,9,1.1,1.4
2026-01-15T2100,2326A,117.6028,26.2377,三明市,三元区政府,颗粒物(PM10),60,70,52,38,35,25,,98,87,63,38,8,11,0.9,1
2026-01-15T2100,1877A,109.4962,18.2682,三亚市,河西子站,,39,39,39,15,19,84,,94,81,7,18,3,2,0.3,0.4
2026-01-15T2100,3540A,109.7348,18.3443,三亚市,君悦子站,,31,31,40,14,22,89,,96,92,6,14,5,5,0.3,0.4
2026-01-15T2100,4135A,109.1714,18.3739,三亚市,城东小学站,,38,36,42,26,29,54,,120,102,23,13,/,/,/,/
2026-01-15T2100,2624A,91.7592,29.234,山南市,山南监测站,,25,13,19,8,14,78,,90,90,17,9,6,5,0.5,0.4
2026-01-15T2100,2625A,91.7701,29.2436,山南市,山南人民医院,,34,34,20,22,10,59,,84,83,30,11,8,8,0.7,0.4
2026-01-15T2100,1674A,116.6795,23.3666,汕头市,金平子站,,44,44,48,30,33,75,,125,119,31,24,4,7,0.7,0.7
2026-01-15T2100,1675A,116.7248,23.3632,汕头市,龙湖子站,,45,45,52,25,28,80,,114,110,30,21,10,13,/,/
